$FW : RTK35X,V1.1X0314AS,Lib20210517,1*54
$Tool : LOCOSYS , GNSS Firebird , v1.0.0.19*39
$---------------------------------------------------*2D
25,15,172,22,32,13,276,41,8*6E
$GLGSV,3,1,09,73,48,154,42,80,46,061,19,70,41,023,,85,28,236,28,1*71
$GLGSV,3,2,09,86,28,291,39,71,25,323,36,69,10,083,,79,04,027,,1*78
$GLGSV,3,3,09,84,01,186,,1*43
$GAGSV,2,1,08,13,50,223,38,07,45,312,44,08,44,033,21,26,35,299,41,7*7F
$GAGSV,2,2,08,30,31,138,36,02,27,078,23,15,16,173,21,03,07,070,,7*7A
$GAGSV,2,1,06,13,50,223,44,07,45,312,45,08,44,033,35,26,35,299,45,1*7C
$GAGSV,2,2,06,30,31,138,34,15,16,173,25,1*7E
$GBGSV,4,1,16,08,84,353,38,38,82,148,42,13,71,326,42,39,69,294,44,1*7B
$GBGSV,4,2,16,16,66,269,45,06,64,264,43,46,62,094,20,19,53,355,42,1*7D
$GBGSV,4,3,16,09,50,246,43,56,47,316,,36,43,183,42,20,41,073,31,1*76
$GBGSV,4,4,16,35,18,261,42,37,17,043,26,22,16,307,31,29,14,206,29,1*7C
$GBGSV,3,1,09,38,82,148,46,39,69,294,45,46,62,094,30,19,53,355,33,4*78
$GBGSV,3,2,09,36,43,183,42,20,41,073,19,35,18,261,34,22,16,307,39,4*7A
$GBGSV,3,3,09,29,14,206,16,4*47
$GNACCURACY,2.4*10
$PAIRSAT,1,35,1,0,200,2,0,200,3,0,200,4,0,200,5,0,201,6,0,200,7,0,200,8,0,200,9,0,200,10,0,221,11,0,200,12,0,201,13,0,201,14,0,200,15,0,201,16,0,200,17,0,200,18,0,221,19,0,200,20,0,200,21,0,200,23,0,221,24,0,221,25,0,200,26,0,200,27,0,200,28,0,200,29,0,200,30,0,200,31,0,200,32,0,221,194,0,621,195,0,621,196,0,620,199,0,621*68
$PAIRSAT,2,24,65,0,200,66,0,200,67,0,200,68,0,200,69,0,200,70,0,200,71,0,201,72,0,200,73,0,201,74,0,200,75,0,200,76,0,200,77,0,200,78,0,200,79,0,201,80,0,201,81,0,200,82,0,200,83,0,200,84,0,200,85,0,201,86,0,201,87,0,200,88,0,200*7A
$PAIRSAT,3,23,2,0,1221,3,0,1221,4,0,1200,5,0,200,7,0,1221,8,0,1221,9,0,1200,10,0,1200,11,0,1200,12,0,1200,13,0,1221,15,0,1221,19,0,1200,21,0,1200,24,0,1200,25,0,1200,26,0,1221,27,0,1200,30,0,1221,31,0,1200,33,0,1200,34,0,1200,36,0,1200*6A
$PAIRSAT,4,50,1,0,200,2,0,200,3,0,200,4,0,200,5,0,200,6,0,201,7,0,200,8,0,201,9,0,201,10,0,200,11,0,200,12,0,200,13,0,201,14,0,200,15,0,200,16,0,201,19,0,621,20,0,621,21,0,600,22,0,621,23,0,600,24,0,600,25,0,600,26,0,600,27,0,600,28,0,600,29,0,621,30,0,600,31,0,200,32,0,600,33,0,600,34,0,600,35,0,621,36,0,621,37,0,621,38,0,621,39,0,621,40,0,600,41,0,600,42,0,600,43,0,600,44,0,600,45,0,600,46,0,621,56,0,200,57,0,200,58,0,200,59,0,600,60,0,600,61,0,600*41
$PAIRDGP,10,5,10,12,15,18,23,24,25,28,32*45
$GNGGA,114523.200,2500.8206540,N,12132.4629057,E,4,62,0.45,16.038,M,15.25,M,1,3335*4A
$GNRMC,114523.200,A,2500.8206540,N,12132.4629057,E,0.00,198.18,260623,,,R,V*13
$GPHDT,183.433,T*3B
$GNACCURACY,2.4*10
$GNGGA,114523.300,2500.8206541,N,12132.4629065,E,4,61,0.47,16.035,M,15.25,M,1,3335*47
$GNRMC,114523.300,A,2500.8206541,N,12132.4629065,E,0.00,198.18,260623,,,R,V*12
$GPHDT,,T*1B
$GNACCURACY,2.4*10
$GNGGA,114523.400,2500.8206513,N,12132.4629024,E,4,61,0.47,16.040,M,15.25,M,1,3335*40
$GNRMC,114523.400,A,2500.8206513,N,12132.4629024,E,0.00,198.18,260623,,,R,V*17
$GPHDT,183.220,T*3F
$GNACCURACY,2.4*10
$GNGGA,114523.500,2500.8206535,N,12132.4629048,E,4,61,0.47,16.037,M,15.25,M,1,3335*4F
$GNRMC,114523.500,A,2500.8206535,N,12132.4629048,E,0.00,198.18,260623,,,R,V*18
$GPHDT,,T*1B
$GNACCURACY,2.3*17
$GNGGA,114523.600,2500.8206528,N,12132.4628909,E,4,61,0.47,16.074,M,15.25,M,1,3335*4A
$GNRMC,114523.600,A,2500.8206528,N,12132.4628909,E,0.00,198.18,260623,,,R,V*1A
$GPHDT,183.168,T*30
$GNACCURACY,2.4*10
$GNGGA,114523.700,2500.8206519,N,12132.4628998,E,4,61,0.47,16.058,M,15.25,M,1,3335*4F
$GNRMC,114523.700,A,2500.8206519,N,12132.4628998,E,0.00,198.18,260623,,,R,V*11
$GPHDT,,T*1B
$GNACCURACY,2.3*17
$GNGGA,114523.800,2500.8206526,N,12132.4628915,E,4,61,0.47,16.079,M,15.25,M,1,3335*4A
$GNRMC,114523.800,A,2500.8206526,N,12132.4628915,E,0.00,198.18,260623,,,R,V*17
$GPHDT,183.055,T*3F
$GNACCURACY,2.4*10
$GNGGA,114523.900,2500.8206521,N,12132.4629006,E,4,61,0.47,16.041,M,15.25,M,1,3335*4D
$GNRMC,114523.900,A,2500.8206521,N,12132.4629006,E,0.00,198.18,260623,,,R,V*1B
$GPHDT,,T*1B
$GNACCURACY,2.4*10
$GNGGA,114524.000,2500.8206502,N,12132.4628979,E,4,61,0.47,16.051,M,15.25,M,2,3335*40
$GNRMC,114524.000,A,2500.8206502,N,12132.4628979,E,0.00,198.18,260623,,,R,V*14
$GPHDT,183.121,T*3D
$GNACCURACY,2.3*17
$GNGGA,114524.100,2500.8206520,N,12132.4629004,E,4,61,0.47,16.042,M,15.25,M,2,3335*41
$GNRMC,114524.100,A,2500.8206520,N,12132.4629004,E,0.00,198.18,260623,,,R,V*17
$GPHDT,,T*1B
$GNGSA,A,3,196,24,199,23,18,194,195,12,10,32,,,0.85,0.47,0.70,1*0B
$GNGSA,A,3,73,80,85,86,71,,,,,,,,0.85,0.47,0.70,2*02
$GNGSA,A,3,13,07,08,26,30,02,15,,,,,,0.85,0.47,0.70,3*06
$GNGSA,A,3,08,38,13,39,16,06,46,19,09,36,20,35,0.85,0.47,0.70,4*05
$GNGSA,A,3,37,22,29,,,,,,,,,,0.85,0.47,0.70,4*02
$GPGSV,4,1,16,196,75,071,40,24,65,035,44,199,60,167,38,23,59,344,26,1*6D
$GPGSV,4,2,16,18,53,231,46,41,38,242,40,194,34,136,38,15,33,056,,1*55
$GPGSV,4,3,16,195,31,179,25,12,26,134,32,10,25,322,37,25,15,172,18,1*5C
$GPGSV,4,4,16,05,13,125,16,32,13,276,36,13,04,063,,28,01,220,,1*68
$GPGSV,3,1,10,196,75,071,44,24,65,035,49,199,60,167,45,23,59,344,38,8*69
$GPGSV,3,2,10,18,53,231,46,194,34,136,41,195,31,179,32,10,25,322,34,8*69
$GPGSV,3,3,10,25,15,172,22,32,13,276,41,8*6E
$GLGSV,3,1,10,73,48,154,44,80,46,061,21,70,41,023,,85,28,236,29,1*75
$GLGSV,3,2,10,86,28,291,39,71,25,323,36,74,11,186,,69,10,083,15,1*77
$GLGSV,3,3,10,79,04,027,,84,01,186,,1*74
$GAGSV,3,1,09,13,50,223,37,07,45,313,44,08,44,033,21,26,35,299,41,7*71
$GAGSV,3,2,09,30,31,138,35,02,27,077,23,15,16,173,22,03,07,070,,7*75
$GAGSV,3,3,09,27,06,185,,7*45
$GAGSV,2,1,06,13,50,223,44,07,45,313,45,08,44,033,35,26,35,299,44,1*7C
$GAGSV,2,2,06,30,31,138,35,15,16,173,25,1*7F
$GBGSV,4,1,15,08,84,353,39,38,82,148,42,13,71,326,42,39,69,294,44,1*79
$GBGSV,4,2,15,16,66,269,45,06,64,264,43,46,62,094,22,19,53,355,42,1*7C
$GBGSV,4,3,15,09,50,246,43,36,43,183,42,20,41,073,31,35,18,261,42,1*7D
$GBGSV,4,4,15,37,17,043,25,22,16,307,29,29,14,206,29,1*49
$GBGSV,3,1,09,38,82,148,45,39,69,294,44,46,62,094,25,19,53,355,31,4*7C
$GBGSV,3,2,09,36,43,183,42,20,41,073,17,35,18,261,34,22,16,307,39,4*74
$GBGSV,3,3,09,29,14,206,17,4*46
$GNACCURACY,2.4*10
$PAIRSAT,1,35,1,0,200,2,0,200,3,0,200,4,0,200,5,0,201,6,0,200,7,0,200,8,0,200,9,0,200,10,0,221,11,0,200,12,0,201,13,0,201,14,0,200,15,0,201,16,0,200,17,0,200,18,0,221,19,0,200,20,0,200,21,0,200,23,0,221,24,0,221,25,0,200,26,0,200,27,0,200,28,0,200,29,0,200,30,0,200,31,0,200,32,0,221,194,0,621,195,0,621,196,0,620,199,0,621*68
$PAIRSAT,2,24,65,0,200,66,0,200,67,0,200,68,0,200,69,0,200,70,0,200,71,0,201,72,0,200,73,0,201,74,0,200,75,0,200,76,0,200,77,0,200,78,0,200,79,0,201,80,0,201,81,0,200,82,0,200,83,0,200,84,0,200,85,0,201,86,0,201,87,0,200,88,0,200*7A
$PAIRSAT,3,23,2,0,1221,3,0,1221,4,0,1200,5,0,200,7,0,1221,8,0,1221,9,0,1200,10,0,1200,11,0,1200,12,0,1200,13,0,1221,15,0,1221,19,0,1200,21,0,1200,24,0,1200,25,0,1200,26,0,1221,27,0,1200,30,0,1221,31,0,1200,33,0,1200,34,0,1200,36,0,1200*6A
$PAIRSAT,4,50,1,0,200,2,0,200,3,0,200,4,0,200,5,0,200,6,0,201,7,0,200,8,0,201,9,0,201,10,0,200,11,0,200,12,0,200,13,0,201,14,0,200,15,0,200,16,0,201,19,0,621,20,0,621,21,0,600,22,0,621,23,0,600,24,0,600,25,0,600,26,0,600,27,0,600,28,0,600,29,0,621,30,0,600,31,0,200,32,0,600,33,0,600,34,0,600,35,0,621,36,0,621,37,0,621,38,0,621,39,0,621,40,0,600,41,0,600,42,0,600,43,0,600,44,0,600,45,0,600,46,0,621,56,0,200,57,0,200,58,0,200,59,0,600,60,0,600,61,0,600*41
$PAIRDGP,10,5,10,12,15,18,23,24,25,28,32*45
$GNGGA,114524.200,2500.8206514,N,12132.4629008,E,4,61,0.47,16.055,M,15.25,M,2,3335*4F
$GNRMC,114524.200,A,2500.8206514,N,12132.4629008,E,0.00,198.18,260623,,,R,V*1F
$GPHDT,183.281,T*34
$GNACCURACY,2.4*10
$GNGGA,114524.300,2500.8206506,N,12132.4629003,E,4,61,0.47,16.048,M,15.25,M,2,3335*4A
$GNRMC,114524.300,A,2500.8206506,N,12132.4629003,E,0.00,198.18,260623,,,R,V*16
$GPHDT,,T*1B
$GNACCURACY,2.4*10
$GNGGA,114524.400,2500.8206530,N,12132.4628991,E,4,61,0.47,16.044,M,15.25,M,2,3335*47
$GNRMC,114524.400,A,2500.8206530,N,12132.4628991,E,0.00,198.18,260623,,,R,V*17
$GPHDT,183.428,T*31
$GNACCURACY,2.4*10
$GNGGA,114524.500,2500.8206526,N,12132.4628963,E,4,61,0.47,16.061,M,15.25,M,2,3335*4B
$GNRMC,114524.500,A,2500.8206526,N,12132.4628963,E,0.00,198.18,260623,,,R,V*1C
$GPHDT,,T*1B
$GNACCURACY,2.4*10
$GNGGA,114524.600,2500.8206513,N,12132.4628953,E,4,61,0.47,16.055,M,15.25,M,2,3335*4A
$GNRMC,114524.600,A,2500.8206513,N,12132.4628953,E,0.00,198.18,260623,,,R,V*1A
$GPHDT,182.578,T*34
$GNACCURACY,2.4*10
$GNGGA,114524.700,2500.8206553,N,12132.4628989,E,4,61,0.47,16.050,M,15.25,M,2,3335*4D
$GNRMC,114524.700,A,2500.8206553,N,12132.4628989,E,0.00,198.18,260623,,,R,V*18
$GPHDT,,T*1B
$GNACCURACY,2.4*10
$GNGGA,114524.800,2500.8206516,N,12132.4628966,E,4,61,0.47,16.046,M,15.25,M,2,3335*45
$GNRMC,114524.800,A,2500.8206516,N,12132.4628966,E,0.00,198.18,260623,,,R,V*17
$GPHDT,182.851,T*32
$GNACCURACY,2.3*17
$GNGGA,114524.900,2500.8206541,N,12132.4628978,E,4,61,0.47,16.056,M,15.25,M,2,3335*48
$GNRMC,114524.900,A,2500.8206541,N,12132.4628978,E,0.00,198.18,260623,,,R,V*1B
$GPHDT,,T*1B
$GNACCURACY,2.3*17
$GNGGA,114525.000,2500.8206522,N,12132.4628962,E,4,61,0.47,16.051,M,15.25,M,3,3335*48
$GNRMC,114525.000,A,2500.8206522,N,12132.4628962,E,0.00,198.18,260623,,,R,V*1D
$GPHDT,182.817,T*30
$GNACCURACY,2.8*1C
$GNGGA,114525.100,2500.8206534,N,12132.4628967,E,4,61,0.47,16.050,M,15.25,M,3,3335*4A
$GNRMC,114525.100,A,2500.8206534,N,12132.4628967,E,0.00,198.18,260623,,,R,V*1E
$GPHDT,,T*1B
$GNGSA,A,3,196,24,199,23,18,194,195,12,10,32,,,0.85,0.47,0.70,1*0B
$GNGSA,A,3,73,80,85,86,71,,,,,,,,0.85,0.47,0.70,2*02
$GNGSA,A,3,13,07,08,26,30,02,15,,,,,,0.85,0.47,0.70,3*06
$GNGSA,A,3,08,38,13,39,16,06,46,19,09,36,20,35,0.85,0.47,0.70,4*05
$GNGSA,A,3,37,22,29,,,,,,,,,,0.85,0.47,0.70,4*02
$GPGSV,4,1,16,196,75,071,40,24,65,035,44,199,60,167,38,23,59,344,26,1*6D
$GPGSV,4,2,16,18,53,231,46,41,38,242,39,194,34,136,38,15,33,056,,1*5B
$GPGSV,4,3,16,195,31,179,24,12,26,134,32,10,25,322,37,25,15,172,18,1*5D
$GPGSV,4,4,16,05,13,125,16,32,13,276,36,13,04,063,,28,01,220,,1*68
$GPGSV,3,1,10,196,75,071,44,24,65,035,49,199,60,167,45,23,59,344,38,8*69
$GPGSV,3,2,10,18,53,231,46,194,34,136,41,195,31,179,31,10,25,322,34,8*6A
$GPGSV,3,3,10,25,15,172,23,32,13,276,41,8*6F
$GLGSV,3,1,09,73,48,154,44,80,46,061,21,70,41,023,,85,28,236,29,1*7D
$GLGSV,3,2,09,86,28,291,39,71,25,323,36,69,10,083,14,79,04,027,,1*7D
$GLGSV,3,3,09,84,01,186,,1*43
$GAGSV,3,1,09,13,50,223,37,07,45,313,44,08,44,033,21,26,35,299,41,7*71
$GAGSV,3,2,09,30,31,138,35,02,27,077,22,15,16,173,22,03,07,070,,7*74
$GAGSV,3,3,09,27,06,185,,7*45
$GAGSV,2,1,06,13,50,223,44,07,45,313,45,08,44,033,35,26,35,299,43,1*7B
$GAGSV,2,2,06,30,31,138,35,15,16,173,26,1*7C
$GBGSV,4,1,15,08,84,353,39,38,82,148,42,13,71,326,42,39,69,294,44,1*79
$GBGSV,4,2,15,16,66,269,45,06,64,264,43,46,62,094,23,19,53,355,42,1*7D
$GBGSV,4,3,15,09,50,246,43,36,43,183,42,20,41,073,31,35,18,261,42,1*7D
$GBGSV,4,4,15,37,17,043,24,22,16,307,28,29,14,206,29,1*49
$GBGSV,3,1,09,38,82,148,45,39,69,294,44,46,62,094,25,19,53,355,32,4*7F
$GBGSV,3,2,09,36,43,183,42,20,41,073,17,35,18,261,35,22,16,307,39,4*75
$GBGSV,3,3,09,29,14,206,17,4*46
$GNACCURACY,2.8*1C
$PAIRSAT,1,35,1,0,200,2,0,200,3,0,200,4,0,200,5,0,201,6,0,200,7,0,200,8,0,200,9,0,200,10,0,221,11,0,200,12,0,201,13,0,201,14,0,200,15,0,201,16,0,200,17,0,200,18,0,221,19,0,200,20,0,200,21,0,200,23,0,221,24,0,221,25,0,200,26,0,200,27,0,200,28,0,200,29,0,200,30,0,200,31,0,200,32,0,221,194,0,621,195,0,621,196,0,620,199,0,621*68
$PAIRSAT,2,24,65,0,200,66,0,200,67,0,200,68,0,200,69,0,200,70,0,200,71,0,201,72,0,200,73,0,201,74,0,200,75,0,200,76,0,200,77,0,200,78,0,200,79,0,201,80,0,201,81,0,200,82,0,200,83,0,200,84,0,200,85,0,201,86,0,201,87,0,200,88,0,200*7A
$PAIRSAT,3,23,2,0,1221,3,0,1221,4,0,1200,5,0,200,7,0,1221,8,0,1221,9,0,1200,10,0,1200,11,0,1200,12,0,1200,13,0,1221,15,0,1221,19,0,1200,21,0,1200,24,0,1200,25,0,1200,26,0,1221,27,0,1200,30,0,1221,31,0,1200,33,0,1200,34,0,1200,36,0,1200*6A
$PAIRSAT,4,50,1,0,200,2,0,200,3,0,200,4,0,200,5,0,200,6,0,201,7,0,200,8,0,201,9,0,201,10,0,200,11,0,200,12,0,200,13,0,201,14,0,200,15,0,200,16,0,201,19,0,621,20,0,621,21,0,600,22,0,621,23,0,600,24,0,600,25,0,600,26,0,600,27,0,600,28,0,600,29,0,621,30,0,600,31,0,200,32,0,600,33,0,600,34,0,600,35,0,621,36,0,621,37,0,621,38,0,621,39,0,621,40,0,600,41,0,600,42,0,600,43,0,600,44,0,600,45,0,600,46,0,621,56,0,200,57,0,200,58,0,200,59,0,600,60,0,600,61,0,600*41
$PAIRDGP,10,5,10,12,15,18,23,24,25,28,32*45
$GNGGA,114525.200,2500.8206513,N,12132.4628955,E,4,61,0.47,16.056,M,15.25,M,3,3335*4B
$GNRMC,114525.200,A,2500.8206513,N,12132.4628955,E,0.00,198.18,260623,,,R,V*19
$GPHDT,183.061,T*38
$GNACCURACY,2.8*1C
$GNGGA,114525.300,2500.8206522,N,12132.4628981,E,4,61,0.47,16.052,M,15.25,M,3,3335*45
$GNRMC,114525.300,A,2500.8206522,N,12132.4628981,E,0.01,198.18,260623,,,R,V*12
$GPHDT,,T*1B
$GNACCURACY,2.8*1C
$GNGGA,114525.400,2500.8206530,N,12132.4628965,E,4,61,0.47,16.053,M,15.25,M,3,3335*4A
$GNRMC,114525.400,A,2500.8206530,N,12132.4628965,E,0.00,198.18,260623,,,R,V*1D
$GPHDT,182.965,T*34
$GNACCURACY,2.9*1D
$GNGGA,114525.500,2500.8206531,N,12132.4628925,E,4,61,0.47,16.058,M,15.25,M,3,3335*45
$GNRMC,114525.500,A,2500.8206531,N,12132.4628925,E,0.01,198.18,260623,,,R,V*18
$GPHDT,,T*1B
$GNACCURACY,2.9*1D
$GNGGA,114525.600,2500.8206547,N,12132.4628958,E,4,61,0.47,16.064,M,15.25,M,3,3335*42
$GNRMC,114525.600,A,2500.8206547,N,12132.4628958,E,0.01,198.18,260623,,,R,V*10
$GPHDT,182.771,T*3F
$GNACCURACY,2.9*1D
$GNGGA,114525.700,2500.8206533,N,12132.4628939,E,4,61,0.47,16.057,M,15.25,M,3,3335*47
$GNRMC,114525.700,A,2500.8206533,N,12132.4628939,E,0.01,198.18,260623,,,R,V*15
$GPHDT,,T*1B
$GNACCURACY,2.9*1D
$GNGGA,114525.800,2500.8206527,N,12132.4628927,E,4,61,0.47,16.061,M,15.25,M,3,3335*47
$GNRMC,114525.800,A,2500.8206527,N,12132.4628927,E,0.01,198.18,260623,,,R,V*10
$GPHDT,182.714,T*3C
$GNACCURACY,2.9*1D
$GNGGA,114525.900,2500.8206526,N,12132.4628883,E,4,61,0.47,16.087,M,15.25,M,3,3335*40
$GNRMC,114525.900,A,2500.8206526,N,12132.4628883,E,0.01,198.18,260623,,,R,V*1F
$GPHDT,,T*1B
$GNACCURACY,2.9*1D
$GNGGA,114526.000,2500.8206508,N,12132.4628863,E,4,61,0.47,16.082,M,15.25,M,4,3335*4A
$GNRMC,114526.000,A,2500.8206508,N,12132.4628863,E,0.01,198.18,260623,,,R,V*17
$GPHDT,182.614,T*3D
$GNACCURACY,2.9*1D
$GNGGA,114526.100,2500.8206533,N,12132.4628885,E,4,61,0.47,16.080,M,15.25,M,4,3335*49
$GNRMC,114526.100,A,2500.8206533,N,12132.4628885,E,0.00,198.18,260623,,,R,V*17
$GPHDT,,T*1B
$GNGSA,A,3,196,24,199,23,18,194,195,12,10,32,,,0.85,0.47,0.70,1*0B
$GNGSA,A,3,73,80,85,86,71,,,,,,,,0.85,0.47,0.70,2*02
$GNGSA,A,3,13,07,08,26,30,02,15,,,,,,0.85,0.47,0.70,3*06
$GNGSA,A,3,08,38,13,39,16,06,46,19,09,36,20,35,0.85,0.47,0.70,4*05
$GNGSA,A,3,37,22,29,,,,,,,,,,0.85,0.47,0.70,4*02
$GPGSV,4,1,16,196,75,071,40,24,65,035,44,199,60,167,38,23,59,344,26,1*6D
$GPGSV,4,2,16,18,53,231,46,41,38,242,39,194,34,136,38,15,33,056,,1*5B
$GPGSV,4,3,16,195,31,179,22,12,26,134,32,10,25,322,36,25,15,172,18,1*5A
$GPGSV,4,4,16,05,13,125,16,32,13,276,36,13,04,063,,28,01,220,,1*68
$GPGSV,3,1,10,196,75,071,44,24,65,035,49,199,60,167,45,23,59,344,38,8*69
$GPGSV,3,2,10,18,53,231,46,194,34,136,41,195,31,179,29,10,25,322,34,8*63
$GPGSV,3,3,10,25,15,172,23,32,13,276,41,8*6F
$GLGSV,3,1,09,73,48,154,44,80,46,061,21,70,41,023,,85,28,236,30,1*75
$GLGSV,3,2,09,86,28,291,40,71,25,323,36,69,10,083,14,79,04,027,,1*73
$GLGSV,3,3,09,84,01,186,,1*43
$GAGSV,3,1,09,13,50,223,37,07,45,313,44,08,44,033,23,26,35,299,41,7*73
$GAGSV,3,2,09,30,31,138,32,02,27,077,22,15,16,173,22,03,07,070,,7*73
$GAGSV,3,3,09,27,06,185,,7*45
$GAGSV,2,1,06,13,50,223,44,07,45,313,45,08,44,033,33,26,35,299,43,1*7D
$GAGSV,2,2,06,30,31,138,35,15,16,173,26,1*7C
$GBGSV,4,1,15,08,84,353,40,38,82,148,42,13,71,326,42,39,69,294,44,1*77
$GBGSV,4,2,15,16,66,269,45,06,64,264,43,46,62,094,23,19,53,355,42,1*7D
$GBGSV,4,3,15,09,50,246,43,36,43,183,42,20,41,073,29,35,18,261,42,1*74
$GBGSV,4,4,15,37,17,043,25,22,16,307,28,29,14,206,29,1*48
$GBGSV,3,1,09,38,82,148,45,39,69,294,44,46,62,094,25,19,53,355,30,4*7D
$GBGSV,3,2,09,36,43,183,42,20,41,073,14,35,18,261,34,22,16,307,39,4*77
$GBGSV,3,3,09,29,14,206,17,4*46
$GNACCURACY,2.9*1D
$PAIRSAT,1,35,1,0,200,2,0,200,3,0,200,4,0,200,5,0,201,6,0,200,7,0,200,8,0,200,9,0,200,10,0,221,11,0,200,12,0,201,13,0,201,14,0,200,15,0,201,16,0,200,17,0,200,18,0,221,19,0,200,20,0,200,21,0,200,23,0,221,24,0,221,25,0,200,26,0,200,27,0,200,28,0,200,29,0,200,30,0,200,31,0,200,32,0,221,194,0,621,195,0,621,196,0,620,199,0,621*68
$PAIRSAT,2,24,65,0,200,66,0,200,67,0,200,68,0,200,69,0,200,70,0,200,71,0,201,72,0,200,73,0,201,74,0,200,75,0,200,76,0,200,77,0,200,78,0,200,79,0,201,80,0,201,81,0,200,82,0,200,83,0,200,84,0,200,85,0,201,86,0,201,87,0,200,88,0,200*7A
$PAIRSAT,3,23,2,0,1221,3,0,1221,4,0,1200,5,0,200,7,0,1221,8,0,1221,9,0,1200,10,0,1200,11,0,1200,12,0,1200,13,0,1221,15,0,1221,19,0,1200,21,0,1200,24,0,1200,25,0,1200,26,0,1221,27,0,1200,30,0,1221,31,0,1200,33,0,1200,34,0,1200,36,0,1200*6A
$PAIRSAT,4,50,1,0,200,2,0,200,3,0,200,4,0,200,5,0,200,6,0,201,7,0,200,8,0,201,9,0,201,10,0,200,11,0,200,12,0,200,13,0,201,14,0,200,15,0,200,16,0,201,19,0,621,20,0,621,21,0,600,22,0,621,23,0,600,24,0,600,25,0,600,26,0,600,27,0,600,28,0,600,29,0,621,30,0,600,31,0,200,32,0,600,33,0,600,34,0,600,35,0,621,36,0,621,37,0,621,38,0,621,39,0,621,40,0,600,41,0,600,42,0,600,43,0,600,44,0,600,45,0,600,46,0,621,56,0,200,57,0,200,58,0,200,59,0,600,60,0,600,61,0,600*41
$PAIRDGP,10,5,10,12,15,18,23,24,25,28,32*45
$GNGGA,114526.200,2500.8206497,N,12132.4628851,E,4,61,0.47,16.093,M,15.25,M,4,3335*4E
$GNRMC,114526.200,A,2500.8206497,N,12132.4628851,E,0.01,198.18,260623,,,R,V*13
$GPHDT,182.526,T*3F
$GNACCURACY,2.9*1D
$GNGGA,114526.300,2500.8206512,N,12132.4628874,E,4,61,0.47,16.085,M,15.25,M,4,3335*43
$GNRMC,114526.300,A,2500.8206512,N,12132.4628874,E,0.01,198.18,260623,,,R,V*19
$GPHDT,,T*1B
$GNACCURACY,2.9*1D
$GNGGA,114526.400,2500.8206526,N,12132.4628962,E,4,61,0.47,16.075,M,15.25,M,1,3335*4F
$GNRMC,114526.400,A,2500.8206526,N,12132.4628962,E,0.01,198.18,260623,,,R,V*1F
$GPHDT,182.628,T*32
$GNACCURACY,2.9*1D
$GNGGA,114526.500,2500.8206523,N,12132.4628965,E,4,61,0.47,16.073,M,15.25,M,1,3335*4A
$GNRMC,114526.500,A,2500.8206523,N,12132.4628965,E,0.01,198.18,260623,,,R,V*1C
$GPHDT,,T*1B
$GNACCURACY,2.8*1C
$GNGGA,114526.600,2500.8206537,N,12132.4628953,E,4,61,0.47,16.081,M,15.25,M,1,3335*44
$GNRMC,114526.600,A,2500.8206537,N,12132.4628953,E,0.01,198.18,260623,,,R,V*1F
$GPHDT,182.296,T*33
$GNACCURACY,2.8*1C
$GNGGA,114526.700,2500.8206525,N,12132.4628937,E,4,61,0.47,16.079,M,15.25,M,1,3335*43
$GNRMC,114526.700,A,2500.8206525,N,12132.4628937,E,0.01,198.18,260623,,,R,V*1F
$GPHDT,,T*1B
$GNACCURACY,2.8*1C
$GNGGA,114526.800,2500.8206528,N,12132.4628951,E,4,61,0.47,16.072,M,15.25,M,1,3335*4A
$GNRMC,114526.800,A,2500.8206528,N,12132.4628951,E,0.01,198.18,260623,,,R,V*1D
$GPHDT,182.341,T*38
$GNACCURACY,2.8*1C
$GNGGA,114526.900,2500.8206530,N,12132.4628947,E,4,62,0.45,16.075,M,15.25,M,0,3335*42
$GNRMC,114526.900,A,2500.8206530,N,12132.4628947,E,0.01,198.18,260623,,,R,V*12
$GPHDT,,T*1B
$GNACCURACY,2.8*1C
$GNGGA,114527.000,2500.8206530,N,12132.4628990,E,4,61,0.47,16.061,M,15.25,M,1,3335*45
$GNRMC,114527.000,A,2500.8206530,N,12132.4628990,E,0.01,198.18,260623,,,R,V*10
$GPHDT,182.765,T*3A
$GNACCURACY,2.8*1C
$GNGGA,114527.100,2500.8206522,N,12132.4628956,E,4,61,0.47,16.057,M,15.25,M,1,3335*48
$GNRMC,114527.100,A,2500.8206522,N,12132.4628956,E,0.01,198.18,260623,,,R,V*18
$GPHDT,,T*1B
$GNGSA,A,3,196,24,199,23,18,194,195,12,10,32,,,0.85,0.47,0.70,1*0B
$GNGSA,A,3,73,80,85,86,71,,,,,,,,0.85,0.47,0.70,2*02
$GNGSA,A,3,13,07,08,26,30,02,15,,,,,,0.85,0.47,0.70,3*06
$GNGSA,A,3,08,38,13,39,16,06,46,19,09,36,20,35,0.85,0.47,0.70,4*05
$GNGSA,A,3,37,22,29,,,,,,,,,,0.85,0.47,0.70,4*02
$GPGSV,4,1,16,196,75,071,40,24,65,035,44,199,60,167,39,23,59,344,25,1*6F
$GPGSV,4,2,16,18,53,231,46,41,38,242,39,194,34,136,38,15,33,056,,1*5B
$GPGSV,4,3,16,195,31,179,21,12,26,134,35,10,25,322,36,25,15,172,18,1*5E
$GPGSV,4,4,16,05,13,125,16,32,13,276,36,13,04,063,,28,01,220,,1*68
$GPGSV,3,1,10,196,75,071,44,24,65,035,49,199,60,167,45,23,59,344,37,8*66
$GPGSV,3,2,10,18,53,231,45,194,34,136,40,195,31,179,29,10,25,322,34,8*61
$GPGSV,3,3,10,25,15,172,25,32,13,276,40,8*68
$GLGSV,3,1,09,73,48,154,44,80,46,061,19,70,41,023,,85,28,236,28,1*77
$GLGSV,3,2,09,86,28,291,40,71,25,323,36,69,10,083,15,79,04,027,18,1*7B
$GLGSV,3,3,09,84,01,186,,1*43
$GAGSV,3,1,09,13,50,223,37,07,45,313,44,08,44,033,21,26,35,299,41,7*71
$GAGSV,3,2,09,30,31,138,32,02,27,077,23,15,16,173,22,03,07,070,,7*72
$GAGSV,3,3,09,27,06,185,,7*45
$GAGSV,2,1,06,13,50,223,44,07,45,313,44,08,44,033,32,26,35,299,43,1*7D
$GAGSV,2,2,06,30,31,138,35,15,16,173,26,1*7C
$GBGSV,4,1,15,08,84,353,39,38,82,148,42,13,71,326,42,39,69,294,44,1*79
$GBGSV,4,2,15,16,66,269,45,06,64,264,43,46,62,094,25,19,53,355,42,1*7B
$GBGSV,4,3,15,09,50,246,43,36,43,183,42,20,41,073,28,35,18,261,42,1*75
$GBGSV,4,4,15,37,17,043,25,22,16,307,29,29,14,206,28,1*48
$GBGSV,3,1,09,38,82,148,45,39,69,294,44,46,62,094,28,19,53,355,31,4*71
$GBGSV,3,2,09,36,43,183,42,20,41,073,16,35,18,261,34,22,16,307,38,4*74
$GBGSV,3,3,09,29,14,206,16,4*47
$GNACCURACY,2.8*1C
$PAIRSAT,1,35,1,0,200,2,0,200,3,0,200,4,0,200,5,0,201,6,0,200,7,0,200,8,0,200,9,0,200,10,0,221,11,0,200,12,0,201,13,0,201,14,0,200,15,0,201,16,0,200,17,0,200,18,0,221,19,0,200,20,0,200,21,0,200,23,0,221,24,0,221,25,0,200,26,0,200,27,0,200,28,0,200,29,0,200,30,0,200,31,0,200,32,0,221,194,0,621,195,0,621,196,0,620,199,0,621*68
$PAIRSAT,2,24,65,0,200,66,0,200,67,0,200,68,0,200,69,0,200,70,0,200,71,0,201,72,0,200,73,0,201,74,0,200,75,0,200,76,0,200,77,0,200,78,0,200,79,0,201,80,0,201,81,0,200,82,0,200,83,0,200,84,0,200,85,0,201,86,0,201,87,0,200,88,0,200*7A
$PAIRSAT,3,23,2,0,1221,3,0,1221,4,0,1200,5,0,200,7,0,1221,8,0,1221,9,0,1200,10,0,1200,11,0,1200,12,0,1200,13,0,1221,15,0,1221,19,0,1200,21,0,1200,24,0,1200,25,0,1200,26,0,1221,27,0,1200,30,0,1221,31,0,1200,33,0,1200,34,0,1200,36,0,1200*6A
$PAIRSAT,4,50,1,0,200,2,0,200,3,0,200,4,0,200,5,0,200,6,0,201,7,0,200,8,0,201,9,0,201,10,0,200,11,0,200,12,0,200,13,0,201,14,0,200,15,0,200,16,0,201,19,0,621,20,0,621,21,0,600,22,0,621,23,0,600,24,0,600,25,0,600,26,0,600,27,0,600,28,0,600,29,0,621,30,0,600,31,0,200,32,0,600,33,0,600,34,0,600,35,0,621,36,0,621,37,0,621,38,0,621,39,0,621,40,0,600,41,0,600,42,0,600,43,0,600,44,0,600,45,0,600,46,0,621,56,0,200,57,0,200,58,0,200,59,0,600,60,0,600,61,0,600*41
$PAIRDGP,10,5,10,12,15,18,23,24,25,28,32*45
$GNGGA,114527.200,2500.8206504,N,12132.4628946,E,4,61,0.47,16.060,M,15.25,M,1,3335*4A
$GNRMC,114527.200,A,2500.8206504,N,12132.4628946,E,0.00,198.18,260623,,,R,V*1F
$GPHDT,182.594,T*36
$GNACCURACY,2.8*1C
$GNGGA,114527.300,2500.8206545,N,12132.4628983,E,4,61,0.47,16.052,M,15.25,M,1,3335*46
$GNRMC,114527.300,A,2500.8206545,N,12132.4628983,E,0.00,198.18,260623,,,R,V*12
$GPHDT,,T*1B
$GNACCURACY,2.8*1C
$GNGGA,114527.400,2500.8206525,N,12132.4628965,E,4,61,0.47,16.061,M,15.25,M,1,3335*4F
$GNRMC,114527.400,A,2500.8206525,N,12132.4628965,E,0.01,198.18,260623,,,R,V*1A
$GPHDT,182.807,T*31
$GNACCURACY,2.8*1C
$GNGGA,114527.500,2500.8206537,N,12132.4628943,E,4,62,0.45,16.059,M,15.25,M,1,3335*43
$GNRMC,114527.500,A,2500.8206537,N,12132.4628943,E,0.01,198.18,260623,,,R,V*1C
$GPHDT,,T*1B
$GNACCURACY,2.9*1D
$GNGGA,114527.600,2500.8206543,N,12132.4628967,E,4,62,0.45,16.062,M,15.25,M,1,3335*4D
$GNRMC,114527.600,A,2500.8206543,N,12132.4628967,E,0.00,198.18,260623,,,R,V*1B
$GPHDT,182.858,T*3B
$GNACCURACY,2.9*1D
$GNGGA,114527.700,2500.8206530,N,12132.4628945,E,4,62,0.45,16.059,M,15.25,M,1,3335*40
$GNRMC,114527.700,A,2500.8206530,N,12132.4628945,E,0.00,198.18,260623,,,R,V*1E
$GPHDT,,T*1B
$GNACCURACY,2.9*1D
$GNGGA,114527.800,2500.8206539,N,12132.4628948,E,4,61,0.47,16.069,M,15.25,M,1,3335*49
$GNRMC,114527.800,A,2500.8206539,N,12132.4628948,E,0.00,198.18,260623,,,R,V*15
$GPHDT,182.409,T*33
$GNACCURACY,2.9*1D
$GNGGA,114527.900,2500.8206532,N,12132.4628929,E,4,61,0.47,16.077,M,15.25,M,1,3335*4B
$GNRMC,114527.900,A,2500.8206532,N,12132.4628929,E,0.00,198.18,260623,,,R,V*18
$GPHDT,,T*1B
$GNACCURACY,2.9*1D
$GNGGA,114528.000,2500.8206537,N,12132.4628965,E,4,61,0.47,16.071,M,15.25,M,2,3335*45
$GNRMC,114528.000,A,2500.8206537,N,12132.4628965,E,0.00,198.18,260623,,,R,V*13
$GPHDT,182.719,T*31
$GNACCURACY,2.9*1D
$GNGGA,114528.100,2500.8206537,N,12132.4628970,E,4,61,0.47,16.065,M,15.25,M,2,3335*45
$GNRMC,114528.100,A,2500.8206537,N,12132.4628970,E,0.00,198.18,260623,,,R,V*16
$GPHDT,,T*1B
$GNGSA,A,3,196,24,199,23,18,194,195,12,10,32,,,0.85,0.47,0.70,1*0B
$GNGSA,A,3,73,80,85,86,71,,,,,,,,0.85,0.47,0.70,2*02
$GNGSA,A,3,13,07,08,26,30,02,15,,,,,,0.85,0.47,0.70,3*06
$GNGSA,A,3,08,38,13,39,16,06,46,19,09,36,20,35,0.85,0.47,0.70,4*05
$GNGSA,A,3,37,22,29,,,,,,,,,,0.85,0.47,0.70,4*02
$GPGSV,4,1,16,196,75,071,40,24,65,035,43,199,60,167,39,23,59,344,26,1*6B
$GPGSV,4,2,16,18,53,231,46,41,38,242,39,194,34,136,37,15,33,056,,1*54
$GPGSV,4,3,16,195,31,179,20,12,26,134,33,10,25,322,35,25,15,172,19,1*5B
$GPGSV,4,4,16,05,13,125,15,32,13,276,36,13,04,063,,28,01,220,,1*6B
$GPGSV,3,1,10,196,75,071,44,24,65,035,49,199,60,167,45,23,59,344,37,8*66
$GPGSV,3,2,10,18,53,231,45,194,34,136,40,195,31,179,28,10,25,322,33,8*67
$GPGSV,3,3,10,25,15,172,25,32,13,276,40,8*68
$GLGSV,2,1,08,73,48,154,44,80,46,061,18,70,41,023,,85,28,236,29,1*77
$GLGSV,2,2,08,86,28,291,41,71,25,323,36,69,10,083,15,79,04,027,20,1*71
$GAGSV,3,1,09,13,50,223,37,07,45,313,44,08,44,033,23,26,35,299,41,7*73
$GAGSV,3,2,09,30,31,138,33,02,27,077,23,15,16,173,22,03,07,070,,7*73
$GAGSV,3,3,09,27,06,185,,7*45
$GAGSV,2,1,06,13,50,223,44,07,45,313,45,08,44,033,33,26,35,299,43,1*7D
$GAGSV,2,2,06,30,31,138,35,15,16,173,26,1*7C
$GBGSV,4,1,15,08,84,353,39,38,82,148,42,13,71,326,42,39,69,294,44,1*79
$GBGSV,4,2,15,16,66,269,45,06,64,264,43,46,62,094,24,19,53,355,42,1*7A
$GBGSV,4,3,15,09,50,246,43,36,43,183,42,20,41,073,29,35,18,261,42,1*74
$GBGSV,4,4,15,37,17,043,27,22,16,307,28,29,14,206,29,1*4A
$GBGSV,3,1,09,38,82,148,45,39,69,294,44,46,62,094,26,19,53,355,28,4*77
$GBGSV,3,2,09,36,43,183,42,20,41,073,16,35,18,261,35,22,16,307,38,4*75
$GBGSV,3,3,09,29,14,206,16,4*47
$GNACCURACY,2.9*1D
$PAIRSAT,1,35,1,0,200,2,0,200,3,0,200,4,0,200,5,0,201,6,0,200,7,0,200,8,0,200,9,0,200,10,0,221,11,0,200,12,0,201,13,0,201,14,0,200,15,0,201,16,0,200,17,0,200,18,0,221,19,0,200,20,0,200,21,0,200,23,0,221,24,0,221,25,0,200,26,0,200,27,0,200,28,0,200,29,0,200,30,0,200,31,0,200,32,0,221,194,0,621,195,0,621,196,0,620,199,0,621*68
$PAIRSAT,2,24,65,0,200,66,0,200,67,0,200,68,0,200,69,0,200,70,0,200,71,0,201,72,0,200,73,0,201,74,0,200,75,0,200,76,0,200,77,0,200,78,0,200,79,0,201,80,0,201,81,0,200,82,0,200,83,0,200,84,0,200,85,0,201,86,0,201,87,0,200,88,0,200*7A
$PAIRSAT,3,23,2,0,1221,3,0,1221,4,0,1200,5,0,200,7,0,1221,8,0,1221,9,0,1200,10,0,1200,11,0,1200,12,0,1200,13,0,1221,15,0,1221,19,0,1200,21,0,1200,24,0,1200,25,0,1200,26,0,1221,27,0,1200,30,0,1221,31,0,1200,33,0,1200,34,0,1200,36,0,1200*6A
$PAIRSAT,4,50,1,0,200,2,0,200,3,0,200,4,0,200,5,0,200,6,0,201,7,0,200,8,0,201,9,0,201,10,0,200,11,0,200,12,0,200,13,0,201,14,0,200,15,0,200,16,0,201,19,0,621,20,0,621,21,0,600,22,0,621,23,0,600,24,0,600,25,0,600,26,0,600,27,0,600,28,0,600,29,0,621,30,0,600,31,0,200,32,0,600,33,0,600,34,0,600,35,0,621,36,0,621,37,0,621,38,0,621,39,0,621,40,0,600,41,0,600,42,0,600,43,0,600,44,0,600,45,0,600,46,0,621,56,0,200,57,0,200,58,0,200,59,0,600,60,0,600,61,0,600*41
$PAIRDGP,10,5,10,12,15,18,23,24,25,28,32*45
$GNGGA,114528.200,2500.8206500,N,12132.4628926,E,4,61,0.47,16.076,M,15.25,M,2,3335*43
$GNRMC,114528.200,A,2500.8206500,N,12132.4628926,E,0.00,198.18,260623,,,R,V*12
$GPHDT,182.385,T*30
$GNACCURACY,2.8*1C
$GNGGA,114528.300,2500.8206497,N,12132.4628902,E,4,61,0.47,16.078,M,15.25,M,2,3335*45
$GNRMC,114528.300,A,2500.8206497,N,12132.4628902,E,0.00,198.18,260623,,,R,V*1A
$GPHDT,,T*1B
$GNACCURACY,2.8*1C
$GNGGA,114528.400,2500.8206472,N,12132.4628893,E,4,62,0.47,16.098,M,15.25,M,2,3335*4D
$GNRMC,114528.400,A,2500.8206472,N,12132.4628893,E,0.00,198.18,260623,,,R,V*1F
$GPHDT,182.773,T*3D
$GNACCURACY,2.8*1C
$GNGGA,114528.500,2500.8206482,N,12132.4628958,E,4,62,0.47,16.096,M,15.25,M,2,3335*4B
$GNRMC,114528.500,A,2500.8206482,N,12132.4628958,E,0.00,198.18,260623,,,R,V*17
$GPHDT,,T*1B
$GNACCURACY,2.8*1C
$GNGGA,114528.600,2500.8206533,N,12132.4628942,E,4,62,0.47,16.085,M,15.25,M,2,3335*4A
$GNRMC,114528.600,A,2500.8206533,N,12132.4628942,E,0.00,198.18,260623,,,R,V*14
$GPHDT,182.521,T*38
