$FW : RTK35X,V1.1X0314AS,Lib20210517,1*54
$Tool : LOCOSYS , GNSS Firebird , v1.0.0.19*39
$---------------------------------------------------*2D
,1*71
$GLGSV,2,2,08,86,28,291,42,71,25,323,36,69,10,083,15,79,05,027,14,1*74
$GAGSV,3,1,09,13,50,223,35,07,45,312,43,08,44,033,22,26,35,299,42,7*75
$GAGSV,3,2,09,30,31,138,36,02,27,078,20,15,16,173,21,03,07,070,,7*79
$GAGSV,3,3,09,27,06,185,,7*45
$GAGSV,2,1,06,13,50,223,43,07,45,312,47,08,44,033,33,26,35,299,43,1*79
$GAGSV,2,2,06,30,31,138,42,15,16,173,26,1*7C
$GBGSV,4,1,16,08,83,354,40,38,82,147,42,13,71,326,43,39,69,294,44,1*7A
$GBGSV,4,2,16,16,66,269,45,06,64,264,42,46,62,094,29,19,52,355,39,1*78
$GBGSV,4,3,16,09,50,245,42,56,47,316,,36,43,183,37,20,41,073,29,1*7F
$GBGSV,4,4,16,35,18,261,43,37,17,043,22,22,15,307,33,29,14,206,25,1*74
$GBGSV,3,1,10,38,82,147,45,39,69,294,44,46,62,094,26,19,52,355,33,4*7B
$GBGSV,3,2,10,36,43,183,42,20,41,073,26,35,18,261,32,37,17,043,27,4*71
$GBGSV,3,3,10,22,15,307,38,29,14,206,14,4*76
$GNACCURACY,2.5*11
$PAIRSAT,1,35,1,0,200,2,0,200,3,0,200,4,0,200,5,0,201,6,0,200,7,0,200,8,0,200,9,0,200,10,0,221,11,0,200,12,0,201,13,0,201,14,0,200,15,0,201,16,0,200,17,0,200,18,0,221,19,0,200,20,0,200,21,0,200,23,0,221,24,0,221,25,0,200,26,0,200,27,0,200,28,0,200,29,0,200,30,0,200,31,0,200,32,0,221,194,0,621,195,0,621,196,0,620,199,0,621*68
$PAIRSAT,2,24,65,0,200,66,0,200,67,0,200,68,0,200,69,0,200,70,0,200,71,0,201,72,0,200,73,0,201,74,0,200,75,0,200,76,0,200,77,0,200,78,0,200,79,0,201,80,0,201,81,0,200,82,0,200,83,0,200,84,0,200,85,0,201,86,0,201,87,0,200,88,0,200*7A
$PAIRSAT,3,23,2,0,1221,3,0,1221,4,0,1200,5,0,200,7,0,1221,8,0,1221,9,0,1200,10,0,1200,11,0,1200,12,0,1200,13,0,1221,15,0,1221,19,0,1200,21,0,1200,24,0,1200,25,0,1200,26,0,1221,27,0,1200,30,0,1221,31,0,1200,33,0,1200,34,0,1200,36,0,1200*6A
$PAIRSAT,4,50,1,0,200,2,0,200,3,0,200,4,0,200,5,0,200,6,0,201,7,0,200,8,0,201,9,0,201,10,0,200,11,0,200,12,0,200,13,0,201,14,0,200,15,0,200,16,0,201,19,0,621,20,0,621,21,0,600,22,0,621,23,0,600,24,0,600,25,0,600,26,0,600,27,0,600,28,0,600,29,0,621,30,0,600,31,0,200,32,0,600,33,0,600,34,0,600,35,0,621,36,0,621,37,0,621,38,0,621,39,0,621,40,0,600,41,0,600,42,0,600,43,0,600,44,0,600,45,0,600,46,0,621,56,0,200,57,0,200,58,0,200,59,0,600,60,0,600,61,0,600*41
$PAIRDGP,10,5,10,12,15,18,23,24,25,28,32*45
$GNGGA,114508.200,2500.8206552,N,12132.4628888,E,4,62,0.45,16.061,M,15.25,M,3,3335*45
$GNRMC,114508.200,A,2500.8206552,N,12132.4628888,E,0.02,198.18,260623,,,R,V*10
$GPHDT,227.715,T*31
$GNACCURACY,2.5*11
$GNGGA,114508.300,2500.8206546,N,12132.4628905,E,4,62,0.45,16.054,M,15.25,M,3,3335*43
$GNRMC,114508.300,A,2500.8206546,N,12132.4628905,E,0.02,198.18,260623,,,R,V*10
$GPHDT,,T*1B
$GNACCURACY,2.5*11
$GNGGA,114508.400,2500.8206557,N,12132.4628893,E,4,62,0.45,16.061,M,15.25,M,3,3335*4C
$GNRMC,114508.400,A,2500.8206557,N,12132.4628893,E,0.02,198.18,260623,,,R,V*19
$GPHDT,227.714,T*30
$GNACCURACY,2.5*11
$GNGGA,114508.500,2500.8206564,N,12132.4628946,E,4,62,0.45,16.066,M,15.25,M,3,3335*43
$GNRMC,114508.500,A,2500.8206564,N,12132.4628946,E,0.03,198.18,260623,,,R,V*10
$GPHDT,,T*1B
$GNACCURACY,2.5*11
$GNGGA,114508.600,2500.8206538,N,12132.4628950,E,4,61,0.46,16.072,M,15.25,M,3,3335*4B
$GNRMC,114508.600,A,2500.8206538,N,12132.4628950,E,0.02,198.18,260623,,,R,V*1C
$GPHDT,228.077,T*3D
$GNACCURACY,2.5*11
$GNGGA,114508.700,2500.8206546,N,12132.4628944,E,4,61,0.46,16.066,M,15.25,M,3,3335*43
$GNRMC,114508.700,A,2500.8206546,N,12132.4628944,E,0.03,198.18,260623,,,R,V*10
$GPHDT,,T*1B
$GNACCURACY,2.5*11
$GNGGA,114508.800,2500.8206553,N,12132.4628953,E,4,61,0.46,16.072,M,15.25,M,3,3335*4B
$GNRMC,114508.800,A,2500.8206553,N,12132.4628953,E,0.03,198.18,260623,,,R,V*1D
$GPHDT,228.045,T*3C
$GNACCURACY,2.5*11
$GNGGA,114508.900,2500.8206547,N,12132.4628927,E,4,62,0.45,16.074,M,15.25,M,3,3335*4A
$GNRMC,114508.900,A,2500.8206547,N,12132.4628927,E,0.02,198.18,260623,,,R,V*1B
$GPHDT,,T*1B
$GNACCURACY,2.5*11
$GNGGA,114509.000,2500.8206532,N,12132.4628933,E,4,62,0.45,16.077,M,15.25,M,4,3335*41
$GNRMC,114509.000,A,2500.8206532,N,12132.4628933,E,0.02,198.18,260623,,,R,V*14
$PAIR010,0,1,2268,128727*3D
$GPHDT,227.999,T*3B
$GNACCURACY,2.5*11
$GNGGA,114509.100,2500.8206530,N,12132.4628930,E,4,61,0.46,16.081,M,15.25,M,4,3335*48
$GNRMC,114509.100,A,2500.8206530,N,12132.4628930,E,0.02,198.18,260623,,,R,V*14
$GPHDT,,T*1B
$GNGSA,A,3,196,24,199,23,18,194,12,10,32,195,,,0.74,0.46,0.58,1*0E
$GNGSA,A,3,73,80,85,86,71,,,,,,,,0.74,0.46,0.58,2*07
$GNGSA,A,3,13,07,08,26,30,02,15,,,,,,0.74,0.46,0.58,3*03
$GNGSA,A,3,08,38,13,39,16,06,46,19,09,36,20,35,0.74,0.46,0.58,4*00
$GNGSA,A,3,37,22,29,,,,,,,,,,0.74,0.46,0.58,4*07
$GPGSV,4,1,16,196,75,071,39,24,65,035,45,199,60,167,34,23,58,344,23,1*6A
$GPGSV,4,2,16,18,53,231,45,41,38,242,38,194,34,137,43,15,33,055,25,1*50
$GPGSV,4,3,16,195,31,179,20,12,26,134,38,10,24,322,37,25,15,172,16,1*5C
$GPGSV,4,4,16,05,13,125,16,32,13,276,37,13,04,063,,28,01,220,,1*69
$GPGSV,3,1,10,196,75,071,46,24,65,035,49,199,60,167,41,23,58,344,39,8*6F
$GPGSV,3,2,10,18,53,231,45,194,34,137,45,195,31,179,26,10,24,322,37,8*68
$GPGSV,3,3,10,25,15,172,21,32,13,276,37,8*6C
$GLGSV,3,1,09,73,48,154,34,80,46,061,22,70,41,023,,85,28,237,26,1*77
$GLGSV,3,2,09,86,28,291,42,71,25,323,36,74,11,186,,69,10,083,15,1*73
$GLGSV,3,3,09,79,05,027,14,1*4A
$GAGSV,3,1,09,13,50,223,35,07,45,312,43,08,44,033,21,26,35,299,42,7*76
$GAGSV,3,2,09,30,31,138,36,02,27,078,20,15,16,173,21,03,07,070,,7*79
$GAGSV,3,3,09,27,06,185,,7*45
$GAGSV,2,1,06,13,50,223,43,07,45,312,47,08,44,033,34,26,35,299,43,1*7E
$GAGSV,2,2,06,30,31,138,42,15,16,173,27,1*7D
$GBGSV,4,1,15,08,83,354,40,38,82,147,42,13,71,326,43,39,69,294,44,1*79
$GBGSV,4,2,15,16,66,269,45,06,64,264,42,46,62,094,29,19,52,355,39,1*7B
$GBGSV,4,3,15,09,50,245,42,36,43,183,38,20,41,073,29,35,18,261,43,1*7A
$GBGSV,4,4,15,37,17,043,22,22,15,307,33,29,14,206,25,1*4A
$GBGSV,3,1,10,38,82,147,45,39,69,294,44,46,62,094,26,19,52,355,32,4*7A
$GBGSV,3,2,10,36,43,183,42,20,41,073,25,35,18,261,32,37,17,043,26,4*73
$GBGSV,3,3,10,22,15,307,38,29,14,206,14,4*76
$GNACCURACY,2.5*11
$PAIRSAT,1,35,1,0,200,2,0,200,3,0,200,4,0,200,5,0,201,6,0,200,7,0,200,8,0,200,9,0,200,10,0,221,11,0,200,12,0,201,13,0,201,14,0,200,15,0,201,16,0,200,17,0,200,18,0,221,19,0,200,20,0,200,21,0,200,23,0,221,24,0,221,25,0,200,26,0,200,27,0,200,28,0,200,29,0,200,30,0,200,31,0,200,32,0,221,194,0,621,195,0,621,196,0,620,199,0,621*68
$PAIRSAT,2,24,65,0,200,66,0,200,67,0,200,68,0,200,69,0,200,70,0,200,71,0,201,72,0,200,73,0,201,74,0,200,75,0,200,76,0,200,77,0,200,78,0,200,79,0,201,80,0,201,81,0,200,82,0,200,83,0,200,84,0,200,85,0,201,86,0,201,87,0,200,88,0,200*7A
$PAIRSAT,3,23,2,0,1221,3,0,1221,4,0,1200,5,0,200,7,0,1221,8,0,1221,9,0,1200,10,0,1200,11,0,1200,12,0,1200,13,0,1221,15,0,1221,19,0,1200,21,0,1200,24,0,1200,25,0,1200,26,0,1221,27,0,1200,30,0,1221,31,0,1200,33,0,1200,34,0,1200,36,0,1200*6A
$PAIRSAT,4,50,1,0,200,2,0,200,3,0,200,4,0,200,5,0,200,6,0,201,7,0,200,8,0,201,9,0,201,10,0,200,11,0,200,12,0,200,13,0,201,14,0,200,15,0,200,16,0,201,19,0,621,20,0,621,21,0,600,22,0,621,23,0,600,24,0,600,25,0,600,26,0,600,27,0,600,28,0,600,29,0,621,30,0,600,31,0,200,32,0,600,33,0,600,34,0,600,35,0,621,36,0,621,37,0,621,38,0,621,39,0,621,40,0,600,41,0,600,42,0,600,43,0,600,44,0,600,45,0,600,46,0,621,56,0,200,57,0,200,58,0,200,59,0,600,60,0,600,61,0,600*41
$PAIRDGP,10,5,10,12,15,18,23,24,25,28,32*45
$GNGGA,114509.200,2500.8206556,N,12132.4628940,E,4,61,0.46,16.067,M,15.25,M,4,3335*44
$GNRMC,114509.200,A,2500.8206556,N,12132.4628940,E,0.01,198.18,260623,,,R,V*13
$GPHDT,227.889,T*3B
$GNACCURACY,2.5*11
$GNGGA,114509.300,2500.8206531,N,12132.4628898,E,4,62,0.46,16.076,M,15.25,M,4,3335*43
$GNRMC,114509.300,A,2500.8206531,N,12132.4628898,E,0.01,198.18,260623,,,R,V*17
$GPHDT,,T*1B
$GNACCURACY,2.5*11
$GNGGA,114509.400,2500.8206543,N,12132.4628947,E,4,62,0.46,16.074,M,15.25,M,4,3335*40
$GNRMC,114509.400,A,2500.8206543,N,12132.4628947,E,0.01,198.18,260623,,,R,V*16
$GPHDT,228.122,T*3C
$GNACCURACY,2.5*11
$GNGGA,114509.500,2500.8206535,N,12132.4628913,E,4,63,0.45,16.071,M,15.25,M,4,3335*46
$GNRMC,114509.500,A,2500.8206535,N,12132.4628913,E,0.01,198.18,260623,,,R,V*17
$GPHDT,,T*1B
$GNACCURACY,2.5*11
$GNGGA,114509.600,2500.8206525,N,12132.4628918,E,4,63,0.45,16.077,M,15.25,M,4,3335*49
$GNRMC,114509.600,A,2500.8206525,N,12132.4628918,E,0.01,198.18,260623,,,R,V*1E
$GPHDT,228.059,T*31
$GNACCURACY,2.5*11
$GNGGA,114509.700,2500.8206532,N,12132.4628911,E,4,63,0.45,16.077,M,15.25,M,4,3335*47
$GNRMC,114509.700,A,2500.8206532,N,12132.4628911,E,0.02,198.18,260623,,,R,V*13
$GPHDT,,T*1B
$GNACCURACY,2.5*11
$GNGGA,114509.800,2500.8206544,N,12132.4628932,E,4,63,0.45,16.070,M,15.25,M,4,3335*4F
$GNRMC,114509.800,A,2500.8206544,N,12132.4628932,E,0.02,198.18,260623,,,R,V*1C
$GPHDT,227.841,T*3F
$GNACCURACY,2.5*11
$GNGGA,114509.900,2500.8206532,N,12132.4628928,E,4,63,0.45,16.078,M,15.25,M,4,3335*4C
$GNRMC,114509.900,A,2500.8206532,N,12132.4628928,E,0.01,198.18,260623,,,R,V*14
$GPHDT,,T*1B
$GNACCURACY,2.5*11
$GNGGA,114510.000,2500.8206547,N,12132.4628925,E,4,63,0.45,16.077,M,15.25,M,5,3335*4C
$GNRMC,114510.000,A,2500.8206547,N,12132.4628925,E,0.02,198.18,260623,,,R,V*19
$GPHDT,227.927,T*3E
$GNACCURACY,2.5*11
$GNGGA,114510.100,2500.8206548,N,12132.4628894,E,4,63,0.45,16.072,M,15.25,M,5,3335*4C
$GNRMC,114510.100,A,2500.8206548,N,12132.4628894,E,0.02,198.18,260623,,,R,V*1C
$GPHDT,,T*1B
$GNGSA,A,3,196,24,199,23,18,194,15,195,12,10,32,,0.73,0.45,0.57,1*01
$GNGSA,A,3,73,80,85,86,71,,,,,,,,0.73,0.45,0.57,2*0C
$GNGSA,A,3,13,07,08,26,30,02,15,,,,,,0.73,0.45,0.57,3*08
$GNGSA,A,3,08,38,13,39,16,06,46,19,09,36,20,35,0.73,0.45,0.57,4*0B
$GNGSA,A,3,37,22,29,,,,,,,,,,0.73,0.45,0.57,4*0C
$GPGSV,4,1,16,196,75,071,39,24,65,035,45,199,60,167,34,23,58,344,24,1*6D
$GPGSV,4,2,16,18,53,231,45,41,38,242,38,194,34,137,43,15,33,055,24,1*51
$GPGSV,4,3,16,195,31,179,21,12,26,134,38,10,24,322,37,25,15,172,15,1*5E
$GPGSV,4,4,16,05,13,125,16,32,13,276,37,13,04,063,,28,01,220,,1*69
$GPGSV,3,1,10,196,75,071,46,24,65,035,48,199,60,167,41,23,58,344,38,8*6F
$GPGSV,3,2,10,18,53,231,45,194,34,137,45,195,31,179,26,10,24,322,36,8*69
$GPGSV,3,3,10,25,15,172,22,32,13,276,37,8*6F
$GLGSV,2,1,08,73,48,154,34,80,46,061,21,70,41,023,,85,28,237,26,1*74
$GLGSV,2,2,08,86,28,291,42,71,25,323,36,69,10,083,14,79,05,027,14,1*75
$GAGSV,3,1,09,13,50,223,36,07,45,312,43,08,44,033,21,26,35,299,42,7*75
$GAGSV,3,2,09,30,31,138,36,02,27,078,21,15,16,173,21,03,07,070,,7*78
$GAGSV,3,3,09,27,06,185,,7*45
$GAGSV,2,1,06,13,50,223,43,07,45,312,46,08,44,033,33,26,35,299,43,1*78
$GAGSV,2,2,06,30,31,138,41,15,16,173,26,1*7F
$GBGSV,4,1,15,08,83,354,40,38,82,147,42,13,71,326,43,39,69,294,44,1*79
$GBGSV,4,2,15,16,66,269,45,06,64,264,42,46,62,094,29,19,52,355,39,1*7B
$GBGSV,4,3,15,09,50,245,42,36,43,183,38,20,41,073,29,35,18,261,43,1*7A
$GBGSV,4,4,15,37,17,043,22,22,15,307,33,29,14,206,25,1*4A
$GBGSV,3,1,10,38,82,147,45,39,69,294,44,46,62,094,26,19,52,355,32,4*7A
$GBGSV,3,2,10,36,43,183,42,20,41,073,24,35,18,261,32,37,17,043,26,4*72
$GBGSV,3,3,10,22,15,307,38,29,14,206,10,4*72
$GNACCURACY,2.5*11
$PAIRSAT,1,35,1,0,200,2,0,200,3,0,200,4,0,200,5,0,201,6,0,200,7,0,200,8,0,200,9,0,200,10,0,221,11,0,200,12,0,201,13,0,201,14,0,200,15,0,201,16,0,200,17,0,200,18,0,221,19,0,200,20,0,200,21,0,200,23,0,221,24,0,221,25,0,200,26,0,200,27,0,200,28,0,200,29,0,200,30,0,200,31,0,200,32,0,221,194,0,621,195,0,621,196,0,620,199,0,621*68
$PAIRSAT,2,24,65,0,200,66,0,200,67,0,200,68,0,200,69,0,200,70,0,200,71,0,201,72,0,200,73,0,201,74,0,200,75,0,200,76,0,200,77,0,200,78,0,200,79,0,201,80,0,201,81,0,200,82,0,200,83,0,200,84,0,200,85,0,201,86,0,201,87,0,200,88,0,200*7A
$PAIRSAT,3,23,2,0,1221,3,0,1221,4,0,1200,5,0,200,7,0,1221,8,0,1221,9,0,1200,10,0,1200,11,0,1200,12,0,1200,13,0,1221,15,0,1221,19,0,1200,21,0,1200,24,0,1200,25,0,1200,26,0,1221,27,0,1200,30,0,1221,31,0,1200,33,0,1200,34,0,1200,36,0,1200*6A
$PAIRSAT,4,50,1,0,200,2,0,200,3,0,200,4,0,200,5,0,200,6,0,201,7,0,200,8,0,201,9,0,201,10,0,200,11,0,200,12,0,200,13,0,201,14,0,200,15,0,200,16,0,201,19,0,621,20,0,621,21,0,600,22,0,621,23,0,600,24,0,600,25,0,600,26,0,600,27,0,600,28,0,600,29,0,621,30,0,600,31,0,200,32,0,600,33,0,600,34,0,600,35,0,621,36,0,621,37,0,621,38,0,621,39,0,621,40,0,600,41,0,600,42,0,600,43,0,600,44,0,600,45,0,600,46,0,621,56,0,200,57,0,200,58,0,200,59,0,600,60,0,600,61,0,600*41
$PAIRDGP,10,5,10,12,15,18,23,24,25,28,32*45
$GNGGA,114510.200,2500.8206552,N,12132.4628924,E,4,63,0.45,16.069,M,15.25,M,5,3335*44
$GNRMC,114510.200,A,2500.8206552,N,12132.4628924,E,0.01,198.18,260623,,,R,V*1D
$GPHDT,227.713,T*37
$GNACCURACY,2.5*11
$GNGGA,114510.300,2500.8206540,N,12132.4628896,E,4,63,0.45,16.078,M,15.25,M,5,3335*4E
$GNRMC,114510.300,A,2500.8206540,N,12132.4628896,E,0.02,198.18,260623,,,R,V*14
$GPHDT,,T*1B
$GNACCURACY,2.5*11
$GNGGA,114510.400,2500.8206538,N,12132.4628904,E,4,63,0.45,16.076,M,15.25,M,5,3335*42
$GNRMC,114510.400,A,2500.8206538,N,12132.4628904,E,0.02,198.18,260623,,,R,V*16
$GPHDT,227.879,T*34
$GNACCURACY,2.5*11
$GNGGA,114510.500,2500.8206547,N,12132.4628911,E,4,63,0.45,16.079,M,15.25,M,5,3335*40
$GNRMC,114510.500,A,2500.8206547,N,12132.4628911,E,0.02,198.18,260623,,,R,V*1B
$GPHDT,,T*1B
$GNACCURACY,2.5*11
$GNGGA,114510.600,2500.8206540,N,12132.4628900,E,4,63,0.45,16.074,M,15.25,M,5,3335*49
$GNRMC,114510.600,A,2500.8206540,N,12132.4628900,E,0.02,198.18,260623,,,R,V*1F
$GPHDT,227.773,T*31
$GNACCURACY,2.5*11
$GNGGA,114510.700,2500.8206548,N,12132.4628897,E,4,63,0.45,16.077,M,15.25,M,5,3335*4C
$GNRMC,114510.700,A,2500.8206548,N,12132.4628897,E,0.03,198.18,260623,,,R,V*18
$GPHDT,,T*1B
$GNACCURACY,2.5*11
$GNGGA,114510.800,2500.8206537,N,12132.4628886,E,4,63,0.45,16.080,M,15.25,M,5,3335*43
$GNRMC,114510.800,A,2500.8206537,N,12132.4628886,E,0.02,198.18,260623,,,R,V*1E
$GPHDT,227.629,T*3F
$GNACCURACY,2.5*11
$GNGGA,114510.900,2500.8206527,N,12132.4628898,E,4,63,0.45,16.085,M,15.25,M,5,3335*49
$GNRMC,114510.900,A,2500.8206527,N,12132.4628898,E,0.02,198.18,260623,,,R,V*11
$GPHDT,,T*1B
$GNACCURACY,2.5*11
$GNGGA,114511.000,2500.8206547,N,12132.4628878,E,4,63,0.45,16.079,M,15.25,M,6,3335*49
$GNRMC,114511.000,A,2500.8206547,N,12132.4628878,E,0.01,198.18,260623,,,R,V*12
$GPHDT,227.657,T*36
$GNACCURACY,2.5*11
$GNGGA,114511.100,2500.8206532,N,12132.4628891,E,4,63,0.45,16.089,M,15.25,M,6,3335*42
$GNRMC,114511.100,A,2500.8206532,N,12132.4628891,E,0.01,198.18,260623,,,R,V*16
$GPHDT,,T*1B
$GNGSA,A,3,196,24,199,23,18,194,15,195,12,10,32,,0.73,0.45,0.57,1*01
$GNGSA,A,3,73,80,85,86,71,,,,,,,,0.73,0.45,0.57,2*0C
$GNGSA,A,3,13,07,08,26,30,02,15,,,,,,0.73,0.45,0.57,3*08
$GNGSA,A,3,08,38,13,39,16,06,46,19,09,36,20,35,0.73,0.45,0.57,4*0B
$GNGSA,A,3,37,22,29,,,,,,,,,,0.73,0.45,0.57,4*0C
$GPGSV,4,1,16,196,75,071,39,24,65,035,45,199,60,167,34,23,58,344,24,1*6D
$GPGSV,4,2,16,18,53,231,45,41,38,242,38,194,34,137,43,15,33,055,23,1*56
$GPGSV,4,3,16,195,31,179,22,12,26,134,38,10,24,322,37,25,15,172,13,1*5B
$GPGSV,4,4,16,05,13,125,16,32,13,276,36,13,04,063,,28,01,220,,1*68
$GPGSV,3,1,10,196,75,071,46,24,65,035,48,199,60,167,41,23,58,344,38,8*6F
$GPGSV,3,2,10,18,53,231,45,194,34,137,45,195,31,179,27,10,24,322,35,8*6B
$GPGSV,3,3,10,25,15,172,22,32,13,276,37,8*6F
$GLGSV,2,1,08,73,48,154,34,80,46,061,21,70,41,023,,85,28,237,24,1*76
$GLGSV,2,2,08,86,28,291,42,71,25,323,36,69,10,083,15,79,05,027,13,1*73
$GAGSV,3,1,09,13,50,223,36,07,45,312,43,08,44,033,21,26,35,299,41,7*76
$GAGSV,3,2,09,30,31,138,36,02,27,078,21,15,16,173,20,03,07,070,,7*79
$GAGSV,3,3,09,27,06,185,,7*45
$GAGSV,2,1,06,13,50,223,43,07,45,312,46,08,44,033,33,26,35,299,43,1*78
$GAGSV,2,2,06,30,31,138,41,15,16,173,26,1*7F
$GBGSV,4,1,15,08,83,354,40,38,82,147,42,13,71,326,43,39,69,294,45,1*78
$GBGSV,4,2,15,16,66,269,45,06,64,264,42,46,62,094,29,19,52,355,39,1*7B
$GBGSV,4,3,15,09,50,245,42,36,43,183,38,20,41,073,30,35,18,261,43,1*72
$GBGSV,4,4,15,37,17,043,23,22,15,307,32,29,14,206,25,1*4A
$GBGSV,3,1,10,38,82,147,45,39,69,294,44,46,62,094,26,19,52,355,31,4*79
$GBGSV,3,2,10,36,43,183,42,20,41,073,24,35,18,261,31,37,17,043,26,4*71
$GBGSV,3,3,10,22,15,307,38,29,14,206,10,4*72
$GNACCURACY,2.5*11
$PAIRSAT,1,35,1,0,200,2,0,200,3,0,200,4,0,200,5,0,201,6,0,200,7,0,200,8,0,200,9,0,200,10,0,221,11,0,200,12,0,201,13,0,201,14,0,200,15,0,201,16,0,200,17,0,200,18,0,221,19,0,200,20,0,200,21,0,200,23,0,221,24,0,221,25,0,200,26,0,200,27,0,200,28,0,200,29,0,200,30,0,200,31,0,200,32,0,221,194,0,621,195,0,621,196,0,620,199,0,621*68
$PAIRSAT,2,24,65,0,200,66,0,200,67,0,200,68,0,200,69,0,200,70,0,200,71,0,201,72,0,200,73,0,201,74,0,200,75,0,200,76,0,200,77,0,200,78,0,200,79,0,201,80,0,201,81,0,200,82,0,200,83,0,200,84,0,200,85,0,201,86,0,201,87,0,200,88,0,200*7A
$PAIRSAT,3,23,2,0,1221,3,0,1221,4,0,1200,5,0,200,7,0,1221,8,0,1221,9,0,1200,10,0,1200,11,0,1200,12,0,1200,13,0,1221,15,0,1221,19,0,1200,21,0,1200,24,0,1200,25,0,1200,26,0,1221,27,0,1200,30,0,1221,31,0,1200,33,0,1200,34,0,1200,36,0,1200*6A
$PAIRSAT,4,50,1,0,200,2,0,200,3,0,200,4,0,200,5,0,200,6,0,201,7,0,200,8,0,201,9,0,201,10,0,200,11,0,200,12,0,200,13,0,201,14,0,200,15,0,200,16,0,201,19,0,621,20,0,621,21,0,600,22,0,621,23,0,600,24,0,600,25,0,600,26,0,600,27,0,600,28,0,600,29,0,621,30,0,600,31,0,200,32,0,600,33,0,600,34,0,600,35,0,621,36,0,621,37,0,621,38,0,621,39,0,621,40,0,600,41,0,600,42,0,600,43,0,600,44,0,600,45,0,600,46,0,621,56,0,200,57,0,200,58,0,200,59,0,600,60,0,600,61,0,600*41
$PAIRDGP,10,5,10,12,15,18,23,24,25,28,32*45
$GNGGA,114511.200,2500.8206525,N,12132.4628860,E,4,63,0.45,16.083,M,15.25,M,6,3335*43
$GNRMC,114511.200,A,2500.8206525,N,12132.4628860,E,0.00,198.18,260623,,,R,V*1C
$GPHDT,227.727,T*30
$GNACCURACY,2.4*10
$GNGGA,114511.300,2500.8206550,N,12132.4628901,E,4,63,0.45,16.081,M,15.25,M,6,3335*44
$GNRMC,114511.300,A,2500.8206550,N,12132.4628901,E,0.00,198.18,260623,,,R,V*19
$GPHDT,,T*1B
$GNACCURACY,2.4*10
$GNGGA,114511.400,2500.8206543,N,12132.4628882,E,4,63,0.45,16.080,M,15.25,M,6,3335*4A
$GNRMC,114511.400,A,2500.8206543,N,12132.4628882,E,0.01,198.18,260623,,,R,V*17
$GPHDT,227.736,T*30
$GNACCURACY,2.4*10
$GNGGA,114511.500,2500.8206533,N,12132.4628903,E,4,62,0.46,16.089,M,15.25,M,6,3335*4F
$GNRMC,114511.500,A,2500.8206533,N,12132.4628903,E,0.00,198.18,260623,,,R,V*18
$GPHDT,,T*1B
$GNACCURACY,2.4*10
$GNGGA,114511.600,2500.8206548,N,12132.4628905,E,4,62,0.46,16.080,M,15.25,M,6,3335*4F
$GNRMC,114511.600,A,2500.8206548,N,12132.4628905,E,0.00,198.18,260623,,,R,V*11
$GPHDT,227.850,T*3F
$GNACCURACY,2.4*10
$GNGGA,114511.700,2500.8206539,N,12132.4628861,E,4,62,0.46,16.089,M,15.25,M,6,3335*42
$GNRMC,114511.700,A,2500.8206539,N,12132.4628861,E,0.01,198.18,260623,,,R,V*14
$GPHDT,,T*1B
$GNACCURACY,2.4*10
$GNGGA,114511.800,2500.8206535,N,12132.4628882,E,4,62,0.46,16.087,M,15.25,M,6,3335*42
$GNRMC,114511.800,A,2500.8206535,N,12132.4628882,E,0.00,198.18,260623,,,R,V*1B
$GPHDT,227.903,T*38
$GNACCURACY,2.4*10
$GNGGA,114511.900,2500.8206553,N,12132.4628891,E,4,63,0.45,16.080,M,15.25,M,6,3335*44
$GNRMC,114511.900,A,2500.8206553,N,12132.4628891,E,0.00,198.18,260623,,,R,V*18
$GPHDT,,T*1B
$GNACCURACY,2.4*10
$GNGGA,114512.000,2500.8206536,N,12132.4628857,E,4,63,0.45,16.085,M,15.25,M,7,3335*43
$GNRMC,114512.000,A,2500.8206536,N,12132.4628857,E,0.01,198.18,260623,,,R,V*1A
$GPHDT,227.804,T*3E
$GNACCURACY,2.4*10
$GNGGA,114512.100,2500.8206570,N,12132.4628901,E,4,63,0.45,16.078,M,15.25,M,7,3335*40
$GNRMC,114512.100,A,2500.8206570,N,12132.4628901,E,0.00,198.18,260623,,,R,V*1A
$GPHDT,,T*1B
$GNGSA,A,3,196,24,199,23,18,194,15,195,12,10,32,,0.73,0.45,0.57,1*01
$GNGSA,A,3,73,80,85,86,71,,,,,,,,0.73,0.45,0.57,2*0C
$GNGSA,A,3,13,07,08,26,30,02,15,,,,,,0.73,0.45,0.57,3*08
$GNGSA,A,3,08,38,13,39,16,06,46,19,09,36,20,35,0.73,0.45,0.57,4*0B
$GNGSA,A,3,37,22,29,,,,,,,,,,0.73,0.45,0.57,4*0C
$GPGSV,4,1,16,196,75,071,39,24,65,035,45,199,60,167,34,23,58,344,26,1*6F
$GPGSV,4,2,16,18,53,231,45,41,38,242,38,194,34,137,43,15,33,055,21,1*54
$GPGSV,4,3,16,195,31,179,21,12,26,134,38,10,24,322,37,25,15,172,13,1*58
$GPGSV,4,4,16,05,13,125,15,32,13,276,36,13,04,063,,28,01,220,,1*6B
$GPGSV,3,1,10,196,75,071,46,24,65,035,48,199,60,167,40,23,58,344,38,8*6E
$GPGSV,3,2,10,18,53,231,45,194,34,137,44,195,31,179,25,10,24,322,34,8*69
$GPGSV,3,3,10,25,15,172,22,32,13,276,37,8*6F
$GLGSV,2,1,08,73,48,154,35,80,46,061,20,70,41,023,,85,28,237,24,1*76
$GLGSV,2,2,08,86,28,291,42,71,25,323,35,69,10,083,17,79,04,027,12,1*72
$GAGSV,3,1,09,13,50,223,36,07,45,312,43,08,44,033,22,26,35,299,41,7*75
$GAGSV,3,2,09,30,31,138,36,02,27,078,21,15,16,173,20,03,07,070,,7*79
$GAGSV,3,3,09,27,06,185,,7*45
$GAGSV,2,1,06,13,50,223,43,07,45,312,45,08,44,033,33,26,35,299,43,1*7B
$GAGSV,2,2,06,30,31,138,41,15,16,173,26,1*7F
$GBGSV,4,1,15,08,83,354,40,38,82,147,42,13,71,326,43,39,69,294,45,1*78
$GBGSV,4,2,15,16,66,269,45,06,64,264,42,46,62,094,29,19,52,355,39,1*7B
$GBGSV,4,3,15,09,50,245,42,36,43,183,38,20,41,073,30,35,18,261,43,1*72
$GBGSV,4,4,15,37,17,043,23,22,15,307,32,29,14,206,25,1*4A
$GBGSV,3,1,10,38,82,147,45,39,69,294,44,46,62,094,26,19,52,355,31,4*79
$GBGSV,3,2,10,36,43,183,42,20,41,073,24,35,18,261,31,37,17,043,24,4*73
$GBGSV,3,3,10,22,15,307,38,29,14,206,12,4*70
$GNACCURACY,2.5*11
$PAIRSAT,1,35,1,0,200,2,0,200,3,0,200,4,0,200,5,0,201,6,0,200,7,0,200,8,0,200,9,0,200,10,0,221,11,0,200,12,0,201,13,0,201,14,0,200,15,0,201,16,0,200,17,0,200,18,0,221,19,0,200,20,0,200,21,0,200,23,0,221,24,0,221,25,0,200,26,0,200,27,0,200,28,0,200,29,0,200,30,0,200,31,0,200,32,0,221,194,0,621,195,0,621,196,0,620,199,0,621*68
$PAIRSAT,2,24,65,0,200,66,0,200,67,0,200,68,0,200,69,0,200,70,0,200,71,0,201,72,0,200,73,0,201,74,0,200,75,0,200,76,0,200,77,0,200,78,0,200,79,0,201,80,0,201,81,0,200,82,0,200,83,0,200,84,0,200,85,0,201,86,0,201,87,0,200,88,0,200*7A
$PAIRSAT,3,23,2,0,1221,3,0,1221,4,0,1200,5,0,200,7,0,1221,8,0,1221,9,0,1200,10,0,1200,11,0,1200,12,0,1200,13,0,1221,15,0,1221,19,0,1200,21,0,1200,24,0,1200,25,0,1200,26,0,1221,27,0,1200,30,0,1221,31,0,1200,33,0,1200,34,0,1200,36,0,1200*6A
$PAIRSAT,4,50,1,0,200,2,0,200,3,0,200,4,0,200,5,0,200,6,0,201,7,0,200,8,0,201,9,0,201,10,0,200,11,0,200,12,0,200,13,0,201,14,0,200,15,0,200,16,0,201,19,0,621,20,0,621,21,0,600,22,0,621,23,0,600,24,0,600,25,0,600,26,0,600,27,0,600,28,0,600,29,0,621,30,0,600,31,0,200,32,0,600,33,0,600,34,0,600,35,0,621,36,0,621,37,0,621,38,0,621,39,0,621,40,0,600,41,0,600,42,0,600,43,0,600,44,0,600,45,0,600,46,0,621,56,0,200,57,0,200,58,0,200,59,0,600,60,0,600,61,0,600*41
$PAIRDGP,10,5,10,12,15,18,23,24,25,28,32*45
$GNGGA,114512.200,2500.8206552,N,12132.4628888,E,4,63,0.45,16.082,M,15.25,M,7,3335*46
$GNRMC,114512.200,A,2500.8206552,N,12132.4628888,E,0.01,198.18,260623,,,R,V*18
$GPHDT,227.606,T*32
$GNACCURACY,2.5*11
$GNGGA,114512.300,2500.8206514,N,12132.4628870,E,4,63,0.45,16.088,M,15.25,M,7,3335*48
$GNRMC,114512.300,A,2500.8206514,N,12132.4628870,E,0.00,198.18,260623,,,R,V*1D
$GPHDT,,T*1B
$GNACCURACY,2.5*11
$GNGGA,114512.400,2500.8206536,N,12132.4628876,E,4,63,0.45,16.090,M,15.25,M,7,3335*40
$GNRMC,114512.400,A,2500.8206536,N,12132.4628876,E,0.01,198.18,260623,,,R,V*1D
$GPHDT,227.735,T*33
$GNACCURACY,2.5*11
$GNGGA,114512.500,2500.8206542,N,12132.4628867,E,4,63,0.45,16.087,M,15.25,M,7,3335*44
$GNRMC,114512.500,A,2500.8206542,N,12132.4628867,E,0.00,198.18,260623,,,R,V*1E
$GPHDT,,T*1B
$GNACCURACY,2.5*11
$GNGGA,114512.600,2500.8206550,N,12132.4628881,E,4,63,0.45,16.094,M,15.25,M,7,3335*4E
$GNRMC,114512.600,A,2500.8206550,N,12132.4628881,E,0.00,198.18,260623,,,R,V*16
$GPHDT,227.722,T*35
$GNACCURACY,2.5*11
$GNGGA,114512.700,2500.8206523,N,12132.4628852,E,4,63,0.45,16.093,M,15.25,M,7,3335*42
$GNRMC,114512.700,A,2500.8206523,N,12132.4628852,E,0.01,198.18,260623,,,R,V*1C
$GPHDT,,T*1B
$GNACCURACY,2.5*11
$GNGGA,114512.800,2500.8206545,N,12132.4628869,E,4,63,0.45,16.091,M,15.25,M,7,3335*47
$GNRMC,114512.800,A,2500.8206545,N,12132.4628869,E,0.01,198.18,260623,,,R,V*1B
$GPHDT,227.825,T*3D
$GNACCURACY,2.5*11
$GNGGA,114512.900,2500.8206549,N,12132.4628879,E,4,63,0.45,16.087,M,15.25,M,7,3335*4C
$GNRMC,114512.900,A,2500.8206549,N,12132.4628879,E,0.00,198.18,260623,,,R,V*16
$GPHDT,,T*1B
$GNACCURACY,2.5*11
$GNGGA,114513.000,2500.8206539,N,12132.4628830,E,4,63,0.45,16.099,M,15.25,M,8,3335*4E
$GNRMC,114513.000,A,2500.8206539,N,12132.4628830,E,0.00,198.18,260623,,,R,V*14
$GPHDT,227.620,T*36
$GNACCURACY,2.4*10
$GNGGA,114513.100,2500.8206529,N,12132.4628854,E,4,63,0.45,16.091,M,15.25,M,8,3335*44
$GNRMC,114513.100,A,2500.8206529,N,12132.4628854,E,0.00,198.18,260623,,,R,V*16
$GPHDT,,T*1B
$GNGSA,A,3,196,24,199,23,18,194,195,12,10,32,,,0.74,0.46,0.58,1*0E
$GNGSA,A,3,73,80,85,86,71,,,,,,,,0.74,0.46,0.58,2*07
$GNGSA,A,3,13,07,08,26,30,02,15,,,,,,0.74,0.46,0.58,3*03
$GNGSA,A,3,08,38,13,39,16,06,46,19,09,36,20,35,0.74,0.46,0.58,4*00
$GNGSA,A,3,37,22,29,,,,,,,,,,0.74,0.46,0.58,4*07
$GPGSV,4,1,16,196,75,071,39,24,65,035,45,199,60,167,34,23,58,344,27,1*6E
$GPGSV,4,2,16,18,53,231,45,41,38,242,39,194,34,137,43,15,33,055,19,1*5E
$GPGSV,4,3,16,195,31,179,19,12,26,134,38,10,24,322,37,25,15,172,16,1*56
$GPGSV,4,4,16,05,13,125,13,32,13,276,36,13,04,063,,28,01,220,,1*6D
$GPGSV,3,1,10,196,75,071,46,24,65,035,48,199,60,167,40,23,58,344,38,8*6E
$GPGSV,3,2,10,18,53,231,45,194,34,137,44,195,31,179,28,10,24,322,34,8*64
$GPGSV,3,3,10,25,15,172,21,32,13,276,37,8*6C
$GLGSV,2,1,08,73,48,154,34,80,46,061,19,70,41,023,,85,28,236,24,1*7C
$GLGSV,2,2,08,86,28,291,42,71,25,323,35,69,10,083,17,79,04,027,13,1*73
$GAGSV,3,1,09,13,50,223,36,07,45,312,43,08,44,033,20,26,35,299,41,7*77
$GAGSV,3,2,09,30,31,138,36,02,27,078,21,15,16,173,21,03,07,070,,7*78
$GAGSV,3,3,09,27,06,185,,7*45
$GAGSV,2,1,06,13,50,223,43,07,45,312,45,08,44,033,33,26,35,299,43,1*7B
$GAGSV,2,2,06,30,31,138,41,15,16,173,26,1*7F
$GBGSV,4,1,15,08,83,354,40,38,82,147,42,13,71,326,43,39,69,294,45,1*78
$GBGSV,4,2,15,16,66,269,45,06,64,264,42,46,62,094,29,19,52,355,39,1*7B
$GBGSV,4,3,15,09,50,245,42,36,43,183,38,20,41,073,30,35,18,261,43,1*72
$GBGSV,4,4,15,37,17,043,23,22,15,307,32,29,14,206,25,1*4A
$GBGSV,3,1,10,38,82,147,45,39,69,294,44,46,62,094,26,19,52,355,31,4*79
$GBGSV,3,2,10,36,43,183,42,20,41,073,24,35,18,261,31,37,17,043,24,4*73
$GBGSV,3,3,10,22,15,307,38,29,14,206,12,4*70
$GNACCURACY,2.4*10
$PAIRSAT,1,35,1,0,200,2,0,200,3,0,200,4,0,200,5,0,201,6,0,200,7,0,200,8,0,200,9,0,200,10,0,221,11,0,200,12,0,201,13,0,201,14,0,200,15,0,201,16,0,200,17,0,200,18,0,221,19,0,200,20,0,200,21,0,200,23,0,221,24,0,221,25,0,200,26,0,200,27,0,200,28,0,200,29,0,200,30,0,200,31,0,200,32,0,221,194,0,621,195,0,621,196,0,620,199,0,621*68
$PAIRSAT,2,24,65,0,200,66,0,200,67,0,200,68,0,200,69,0,200,70,0,200,71,0,201,72,0,200,73,0,201,74,0,200,75,0,200,76,0,200,77,0,200,78,0,200,79,0,201,80,0,201,81,0,200,82,0,200,83,0,200,84,0,200,85,0,201,86,0,201,87,0,200,88,0,200*7A
$PAIRSAT,3,23,2,0,1221,3,0,1221,4,0,1200,5,0,200,7,0,1221,8,0,1221,9,0,1200,10,0,1200,11,0,1200,12,0,1200,13,0,1221,15,0,1221,19,0,1200,21,0,1200,24,0,1200,25,0,1200,26,0,1221,27,0,1200,30,0,1221,31,0,1200,33,0,1200,34,0,1200,36,0,1200*6A
$PAIRSAT,4,50,1,0,200,2,0,200,3,0,200,4,0,200,5,0,200,6,0,201,7,0,200,8,0,201,9,0,201,10,0,200,11,0,200,12,0,200,13,0,201,14,0,200,15,0,200,16,0,201,19,0,621,20,0,621,21,0,600,22,0,621,23,0,600,24,0,600,25,0,600,26,0,600,27,0,600,28,0,600,29,0,621,30,0,600,31,0,200,32,0,600,33,0,600,34,0,600,35,0,621,36,0,621,37,0,621,38,0,621,39,0,621,40,0,600,41,0,600,42,0,600,43,0,600,44,0,600,45,0,600,46,0,621,56,0,200,57,0,200,58,0,200,59,0,600,60,0,600,61,0,600*41
$PAIRDGP,10,5,10,12,15,18,23,24,25,28,32*45
$GNGGA,114513.200,2500.8206507,N,12132.4628830,E,4,62,0.46,16.108,M,15.25,M,8,3335*4A
$GNRMC,114513.200,A,2500.8206507,N,12132.4628830,E,0.00,198.18,260623,,,R,V*1B
$GPHDT,227.748,T*39
$GNACCURACY,2.4*10
$GNGGA,114513.300,2500.8206539,N,12132.4628848,E,4,62,0.46,16.102,M,15.25,M,8,3335*43
$GNRMC,114513.300,A,2500.8206539,N,12132.4628848,E,0.01,198.18,260623,,,R,V*19
$GPHDT,,T*1B
$GNACCURACY,2.5*11
$GNGGA,114513.400,2500.8206536,N,12132.4628834,E,4,62,0.46,16.095,M,15.25,M,8,3335*4F
$GNRMC,114513.400,A,2500.8206536,N,12132.4628834,E,0.01,198.18,260623,,,R,V*1A
$GPHDT,227.845,T*3B
$GNACCURACY,2.5*11
$GNGGA,114513.500,2500.8206575,N,12132.4628868,E,4,62,0.46,16.081,M,15.25,M,8,3335*45
$GNRMC,114513.500,A,2500.8206575,N,12132.4628868,E,0.01,198.18,260623,,,R,V*15
$GPHDT,,T*1B
$GNACCURACY,2.4*10
$GNGGA,114513.600,2500.8206543,N,12132.4628846,E,4,62,0.46,16.097,M,15.25,M,8,3335*48
$GNRMC,114513.600,A,2500.8206543,N,12132.4628846,E,0.01,198.18,260623,,,R,V*1F
$GPHDT,227.943,T*3C
$GNACCURACY,2.4*10
$GNGGA,114513.700,2500.8206538,N,12132.4628837,E,4,61,0.46,16.098,M,15.25,M,8,3335*4F
$GNRMC,114513.700,A,2500.8206538,N,12132.4628837,E,0.02,198.18,260623,,,R,V*17
$GPHDT,,T*1B
$GNACCURACY,2.4*10
$GNGGA,114513.800,2500.8206529,N,12132.4628849,E,4,61,0.46,16.099,M,15.25,M,8,3335*48
$GNRMC,114513.800,A,2500.8206529,N,12132.4628849,E,0.02,198.18,260623,,,R,V*11
$GPHDT,228.109,T*35
$GNACCURACY,2.4*10
$GNGGA,114513.900,2500.8206549,N,12132.4628844,E,4,61,0.46,16.100,M,15.25,M,8,3335*43
$GNRMC,114513.900,A,2500.8206549,N,12132.4628844,E,0.02,198.18,260623,,,R,V*1B
$GPHDT,,T*1B
$GNACCURACY,2.4*10
$GNGGA,114514.000,2500.8206549,N,12132.4628820,E,4,61,0.46,16.108,M,15.25,M,9,3335*46
$GNRMC,114514.000,A,2500.8206549,N,12132.4628820,E,0.