$FW : RTK35X,V1.1X0314AS,Lib20210517,1*54
$Tool : LOCOSYS , GNSS Firebird , v1.0.0.19*39
$---------------------------------------------------*2D
114434.800,2500.8233683,N,12132.4653080,E,2,61,0.47,8.686,M,15.25,M,11,3335*40
$GNRMC,114434.800,A,2500.8233683,N,12132.4653080,E,0.00,198.18,260623,,,D,V*05
$GPHDT,,T*1B
$GNACCURACY,2.5*11
$GNGGA,114434.900,2500.8233743,N,12132.4653080,E,2,61,0.47,8.668,M,15.25,M,11,3335*4C
$GNRMC,114434.900,A,2500.8233743,N,12132.4653080,E,0.00,198.18,260623,,,D,V*09
$GPHDT,,T*1B
$GNACCURACY,2.5*11
$GNGGA,114435.000,2500.8233803,N,12132.4653140,E,2,61,0.47,8.648,M,15.25,M,12,3335*43
$GNRMC,114435.000,A,2500.8233803,N,12132.4653140,E,0.00,198.18,260623,,,D,V*07
$GPHDT,,T*1B
$GNACCURACY,2.5*11
$GNGGA,114435.100,2500.8233923,N,12132.4653200,E,2,61,0.47,8.629,M,15.25,M,12,3335*41
$GNRMC,114435.100,A,2500.8233923,N,12132.4653200,E,0.00,198.18,260623,,,D,V*02
$GPHDT,,T*1B
$GNGSA,A,3,196,24,199,23,18,194,195,12,10,32,,,0.85,0.47,0.71,1*0A
$GNGSA,A,3,73,80,85,86,71,,,,,,,,0.85,0.47,0.71,2*03
$GNGSA,A,3,13,07,08,26,30,02,15,,,,,,0.85,0.47,0.71,3*07
$GNGSA,A,3,08,38,13,39,16,06,46,19,09,36,20,35,0.85,0.47,0.71,4*04
$GNGSA,A,3,37,22,29,,,,,,,,,,0.85,0.47,0.71,4*03
$GPGSV,4,1,16,196,75,071,40,24,65,035,45,199,60,167,37,23,58,344,18,1*6F
$GPGSV,4,2,16,18,53,232,41,41,38,242,35,194,34,137,45,15,33,055,17,1*5D
$GPGSV,4,3,16,195,31,179,26,12,26,134,42,10,24,322,38,25,15,172,15,1*5B
$GPGSV,4,4,16,05,13,125,22,32,13,276,30,13,04,063,,28,01,220,,1*69
$GPGSV,3,1,10,196,75,071,44,24,65,035,49,199,60,167,47,23,58,344,38,8*6A
$GPGSV,3,2,10,18,53,232,44,194,34,137,44,195,31,179,15,10,24,322,33,8*6F
$GPGSV,3,3,10,25,15,172,18,32,13,276,41,8*67
$GLGSV,3,1,09,73,48,154,42,80,46,061,30,70,41,022,13,85,29,237,21,1*70
$GLGSV,3,2,09,86,28,291,41,71,25,323,34,69,10,083,14,79,05,027,15,1*75
$GLGSV,3,3,09,84,01,186,,1*43
$GAGSV,3,1,09,13,50,223,23,07,45,312,39,08,44,033,25,26,35,300,39,7*75
$GAGSV,3,2,09,30,31,138,42,02,27,078,15,15,16,173,18,03,07,070,,7*76
$GAGSV,3,3,09,27,06,185,,7*45
$GAGSV,2,1,06,13,50,223,41,07,45,312,43,08,44,033,31,26,35,300,41,1*7E
$GAGSV,2,2,06,30,31,138,39,15,16,173,24,1*72
$GBGSV,4,1,15,08,83,354,40,38,82,147,43,13,71,326,43,39,69,294,45,1*79
$GBGSV,4,2,15,16,66,269,41,06,65,264,39,46,62,095,20,19,52,355,38,1*7B
$GBGSV,4,3,15,09,50,245,27,36,43,183,41,20,41,073,15,35,19,261,37,1*7A
$GBGSV,4,4,15,37,18,043,29,22,15,307,36,29,14,207,20,1*4F
$GBGSV,3,1,10,38,82,147,46,39,69,294,43,46,62,095,19,19,52,355,26,4*76
$GBGSV,3,2,10,36,43,183,44,20,41,073,32,35,19,261,32,37,18,043,29,4*72
$GBGSV,3,3,10,22,15,307,37,29,14,207,22,4*7D
$GNACCURACY,2.5*11
$PAIRSAT,1,35,1,0,200,2,0,200,3,0,200,4,0,200,5,0,201,6,0,200,7,0,200,8,0,200,9,0,200,10,0,221,11,0,200,12,0,201,13,0,201,14,0,200,15,0,201,16,0,200,17,0,200,18,0,221,19,0,200,20,0,200,21,0,200,23,0,221,24,0,221,25,0,200,26,0,200,27,0,200,28,0,200,29,0,200,30,0,200,31,0,200,32,0,221,194,0,621,195,0,621,196,0,620,199,0,621*68
$PAIRSAT,2,24,65,0,200,66,0,200,67,0,200,68,0,200,69,0,201,70,0,201,71,0,201,72,0,200,73,0,201,74,0,200,75,0,200,76,0,200,77,0,200,78,0,200,79,0,201,80,0,201,81,0,200,82,0,200,83,0,200,84,0,200,85,0,201,86,0,201,87,0,200,88,0,200*7A
$PAIRSAT,3,23,2,0,1221,3,0,1221,4,0,1200,5,0,200,7,0,1221,8,0,1221,9,0,1200,10,0,1200,11,0,1200,12,0,1200,13,0,1221,15,0,1221,19,0,1200,21,0,1200,24,0,1200,25,0,1200,26,0,1221,27,0,1200,30,0,1221,31,0,1200,33,0,1200,34,0,1200,36,0,1200*6A
$PAIRSAT,4,50,1,0,200,2,0,200,3,0,200,4,0,200,5,0,200,6,0,201,7,0,200,8,0,201,9,0,201,10,0,200,11,0,200,12,0,200,13,0,201,14,0,200,15,0,200,16,0,201,19,0,621,20,0,621,21,0,600,22,0,621,23,0,600,24,0,600,25,0,600,26,0,600,27,0,600,28,0,600,29,0,621,30,0,600,31,0,200,32,0,600,33,0,600,34,0,600,35,0,621,36,0,621,37,0,621,38,0,621,39,0,621,40,0,600,41,0,600,42,0,600,43,0,600,44,0,600,45,0,600,46,0,621,56,0,200,57,0,200,58,0,200,59,0,600,60,0,600,61,0,600*41
$PAIRDGP,10,5,10,12,15,18,23,24,25,28,32*45
$GNGGA,114435.200,2500.8233983,N,12132.4653200,E,2,61,0.47,8.610,M,15.25,M,12,3335*42
$GNRMC,114435.200,A,2500.8233983,N,12132.4653200,E,0.00,198.18,260623,,,D,V*0B
$GPHDT,,T*1B
$GNACCURACY,2.4*10
$GNGGA,114435.300,2500.8234043,N,12132.4653200,E,2,61,0.47,8.593,M,15.25,M,12,3335*49
$GNRMC,114435.300,A,2500.8234043,N,12132.4653200,E,0.01,198.18,260623,,,D,V*09
$GPHDT,,T*1B
$GNACCURACY,2.4*10
$GNGGA,114435.400,2500.8234103,N,12132.4653260,E,2,61,0.47,8.574,M,15.25,M,12,3335*44
$GNRMC,114435.400,A,2500.8234103,N,12132.4653260,E,0.01,198.18,260623,,,D,V*0D
$GPHDT,,T*1B
$GNACCURACY,2.4*10
$GNGGA,114435.500,2500.8234163,N,12132.4653320,E,2,61,0.47,8.558,M,15.25,M,12,3335*48
$GNRMC,114435.500,A,2500.8234163,N,12132.4653320,E,0.01,198.18,260623,,,D,V*0F
$GPHDT,,T*1B
$GNACCURACY,2.4*10
$GNGGA,114435.600,2500.8234283,N,12132.4653380,E,2,61,0.47,8.541,M,15.25,M,12,3335*44
$GNRMC,114435.600,A,2500.8234283,N,12132.4653380,E,0.01,198.18,260623,,,D,V*0B
$GPHDT,,T*1B
$GNACCURACY,2.4*10
$GNGGA,114435.700,2500.8234343,N,12132.4653380,E,2,61,0.47,8.526,M,15.25,M,12,3335*49
$GNRMC,114435.700,A,2500.8234343,N,12132.4653380,E,0.01,198.18,260623,,,D,V*07
$GPHDT,,T*1B
$GNACCURACY,2.4*10
$GNGGA,114435.800,2500.8234343,N,12132.4653380,E,2,61,0.47,8.512,M,15.25,M,12,3335*41
$GNRMC,114435.800,A,2500.8234343,N,12132.4653380,E,0.01,198.18,260623,,,D,V*08
$GPHDT,,T*1B
$GNACCURACY,2.4*10
$GNGGA,114435.900,2500.8234403,N,12132.4653440,E,2,61,0.47,8.493,M,15.25,M,12,3335*40
$GNRMC,114435.900,A,2500.8234403,N,12132.4653440,E,0.01,198.18,260623,,,D,V*01
$GPHDT,,T*1B
$GNACCURACY,2.4*10
$GNGGA,114436.000,2500.8234463,N,12132.4653440,E,2,61,0.47,8.476,M,15.25,M,13,3335*46
$GNRMC,114436.000,A,2500.8234463,N,12132.4653440,E,0.01,198.18,260623,,,D,V*0D
$GPHDT,,T*1B
$GNACCURACY,2.4*10
$GNGGA,114436.100,2500.8234523,N,12132.4653440,E,2,61,0.47,8.462,M,15.25,M,13,3335*47
$GNRMC,114436.100,A,2500.8234523,N,12132.4653440,E,0.01,198.18,260623,,,D,V*09
$GPHDT,,T*1B
$GNGSA,A,3,196,24,199,23,18,194,195,12,10,32,,,0.85,0.47,0.71,1*0A
$GNGSA,A,3,73,80,85,86,71,,,,,,,,0.85,0.47,0.71,2*03
$GNGSA,A,3,13,07,08,26,30,02,15,,,,,,0.85,0.47,0.71,3*07
$GNGSA,A,3,08,38,13,39,16,06,46,19,09,36,20,35,0.85,0.47,0.71,4*04
$GNGSA,A,3,37,22,29,,,,,,,,,,0.85,0.47,0.71,4*03
$GPGSV,4,1,16,196,75,071,40,24,65,035,45,199,60,167,38,23,58,344,20,1*6B
$GPGSV,4,2,16,18,53,232,41,41,38,242,37,194,34,137,45,15,33,055,15,1*5D
$GPGSV,4,3,16,195,31,179,25,12,26,134,41,10,24,322,38,25,15,172,18,1*56
$GPGSV,4,4,16,05,13,125,23,32,13,276,30,13,04,063,,28,01,220,,1*68
$GPGSV,3,1,10,196,75,071,44,24,65,035,49,199,60,167,47,23,58,344,39,8*6B
$GPGSV,3,2,10,18,53,232,44,194,34,137,44,195,31,179,18,10,24,322,33,8*62
$GPGSV,3,3,10,25,15,172,18,32,13,276,41,8*67
$GLGSV,3,1,09,73,48,154,41,80,46,061,30,70,41,022,14,85,29,237,22,1*77
$GLGSV,3,2,09,86,28,291,41,71,25,323,35,69,10,083,16,79,05,027,12,1*71
$GLGSV,3,3,09,84,01,186,,1*43
$GAGSV,2,1,08,13,50,223,28,07,45,312,39,08,44,033,23,26,35,300,39,7*78
$GAGSV,2,2,08,30,31,138,42,02,27,078,17,15,16,173,20,27,06,185,,7*73
$GAGSV,2,1,06,13,50,223,41,07,45,312,43,08,44,033,32,26,35,300,41,1*7D
$GAGSV,2,2,06,30,31,138,39,15,16,173,25,1*73
$GBGSV,4,1,15,08,83,354,40,38,82,147,42,13,71,326,43,39,69,294,45,1*78
$GBGSV,4,2,15,16,66,269,41,06,65,264,40,46,62,095,18,19,52,355,38,1*7E
$GBGSV,4,3,15,09,50,245,31,36,43,183,40,20,41,073,18,35,19,261,36,1*70
$GBGSV,4,4,15,37,18,043,29,22,15,307,36,29,14,207,21,1*4E
$GBGSV,3,1,10,38,82,147,46,39,69,294,43,46,62,095,18,19,52,355,27,4*76
$GBGSV,3,2,10,36,43,183,44,20,41,073,32,35,19,261,32,37,18,043,29,4*72
$GBGSV,3,3,10,22,15,307,37,29,14,207,22,4*7D
$GNACCURACY,2.4*10
$PAIRSAT,1,35,1,0,200,2,0,200,3,0,200,4,0,200,5,0,201,6,0,200,7,0,200,8,0,200,9,0,200,10,0,221,11,0,200,12,0,201,13,0,201,14,0,200,15,0,201,16,0,200,17,0,200,18,0,221,19,0,200,20,0,200,21,0,200,23,0,221,24,0,221,25,0,200,26,0,200,27,0,200,28,0,200,29,0,200,30,0,200,31,0,200,32,0,221,194,0,621,195,0,621,196,0,620,199,0,621*68
$PAIRSAT,2,24,65,0,200,66,0,200,67,0,200,68,0,200,69,0,201,70,0,201,71,0,201,72,0,200,73,0,201,74,0,200,75,0,200,76,0,200,77,0,200,78,0,200,79,0,201,80,0,201,81,0,200,82,0,200,83,0,200,84,0,200,85,0,201,86,0,201,87,0,200,88,0,200*7A
$PAIRSAT,3,23,2,0,1221,3,0,1221,4,0,1200,5,0,200,7,0,1221,8,0,1221,9,0,1200,10,0,1200,11,0,1200,12,0,1200,13,0,1221,15,0,1221,19,0,1200,21,0,1200,24,0,1200,25,0,1200,26,0,1221,27,0,1200,30,0,1221,31,0,1200,33,0,1200,34,0,1200,36,0,1200*6A
$PAIRSAT,4,50,1,0,200,2,0,200,3,0,200,4,0,200,5,0,200,6,0,201,7,0,200,8,0,201,9,0,201,10,0,200,11,0,200,12,0,200,13,0,201,14,0,200,15,0,200,16,0,201,19,0,621,20,0,621,21,0,600,22,0,621,23,0,600,24,0,600,25,0,600,26,0,600,27,0,600,28,0,600,29,0,621,30,0,600,31,0,200,32,0,600,33,0,600,34,0,600,35,0,621,36,0,621,37,0,621,38,0,621,39,0,621,40,0,600,41,0,600,42,0,600,43,0,600,44,0,600,45,0,600,46,0,621,56,0,200,57,0,200,58,0,200,59,0,600,60,0,600,61,0,600*41
$PAIRDGP,10,5,10,12,15,18,23,24,25,28,32*45
$GNGGA,114436.200,2500.8234583,N,12132.4653440,E,2,61,0.47,8.445,M,15.25,M,13,3335*4B
$GNRMC,114436.200,A,2500.8234583,N,12132.4653440,E,0.01,198.18,260623,,,D,V*00
$GPHDT,,T*1B
$GNACCURACY,2.4*10
$GNGGA,114436.300,2500.8234583,N,12132.4653380,E,2,59,0.47,8.425,M,15.25,M,13,3335*4C
$GNRMC,114436.300,A,2500.8234583,N,12132.4653380,E,0.01,198.18,260623,,,D,V*0A
$GPHDT,,T*1B
$GNACCURACY,2.4*10
$GNGGA,114436.400,2500.8234643,N,12132.4653380,E,2,60,0.47,8.408,M,15.25,M,13,3335*41
$GNRMC,114436.400,A,2500.8234643,N,12132.4653380,E,0.01,198.18,260623,,,D,V*02
$GPHDT,,T*1B
$GNACCURACY,2.4*10
$GNGGA,114436.500,2500.8234703,N,12132.4653380,E,2,60,0.47,8.392,M,15.25,M,13,3335*41
$GNRMC,114436.500,A,2500.8234703,N,12132.4653380,E,0.01,198.18,260623,,,D,V*06
$GPHDT,,T*1B
$GNACCURACY,2.4*10
$GNGGA,114436.600,2500.8234703,N,12132.4653380,E,2,60,0.47,8.374,M,15.25,M,13,3335*4A
$GNRMC,114436.600,A,2500.8234703,N,12132.4653380,E,0.01,198.18,260623,,,D,V*05
$GPHDT,,T*1B
$GNACCURACY,2.4*10
$GNGGA,114436.700,2500.8234763,N,12132.4653380,E,2,60,0.47,8.354,M,15.25,M,13,3335*4F
$GNRMC,114436.700,A,2500.8234763,N,12132.4653380,E,0.01,198.18,260623,,,D,V*02
$GPHDT,,T*1B
$GNACCURACY,2.4*10
$GNGGA,114436.800,2500.8234823,N,12132.4653380,E,2,60,0.47,8.335,M,15.25,M,13,3335*4C
$GNRMC,114436.800,A,2500.8234823,N,12132.4653380,E,0.01,198.18,260623,,,D,V*06
$GPHDT,,T*1B
$GNACCURACY,2.4*10
$GNGGA,114436.900,2500.8234823,N,12132.4653320,E,2,59,0.47,8.315,M,15.25,M,13,3335*4F
$GNRMC,114436.900,A,2500.8234823,N,12132.4653320,E,0.01,198.18,260623,,,D,V*0D
$GPHDT,,T*1B
$GNACCURACY,2.4*10
$GNGGA,114437.000,2500.8234883,N,12132.4653320,E,2,60,0.47,8.297,M,15.25,M,14,3335*4B
$GNRMC,114437.000,A,2500.8234883,N,12132.4653320,E,0.01,198.18,260623,,,D,V*0F
$GPHDT,,T*1B
$GNACCURACY,2.4*10
$GNGGA,114437.100,2500.8234943,N,12132.4653320,E,2,61,0.47,8.280,M,15.25,M,14,3335*40
$GNRMC,114437.100,A,2500.8234943,N,12132.4653320,E,0.01,198.18,260623,,,D,V*03
$GPHDT,,T*1B
$GNGSA,A,3,196,24,199,23,18,194,195,12,10,32,,,0.85,0.47,0.71,1*0A
$GNGSA,A,3,73,80,85,86,71,,,,,,,,0.85,0.47,0.71,2*03
$GNGSA,A,3,13,07,08,26,30,02,15,,,,,,0.85,0.47,0.71,3*07
$GNGSA,A,3,08,38,13,39,16,06,46,19,09,36,20,35,0.85,0.47,0.71,4*04
$GNGSA,A,3,37,22,29,,,,,,,,,,0.85,0.47,0.71,4*03
$GPGSV,4,1,16,196,75,071,40,24,65,035,45,199,60,167,38,23,58,344,18,1*60
$GPGSV,4,2,16,18,53,232,41,41,38,242,37,194,34,137,45,15,33,055,14,1*5C
$GPGSV,4,3,16,195,31,179,23,12,26,134,41,10,24,322,37,25,15,172,19,1*5E
$GPGSV,4,4,16,05,13,125,22,32,13,276,32,13,04,063,,28,01,220,,1*6B
$GPGSV,3,1,10,196,75,071,44,24,65,035,49,199,60,167,47,23,58,344,39,8*6B
$GPGSV,3,2,10,18,53,232,44,194,34,137,44,195,31,179,15,10,24,322,32,8*6E
$GPGSV,3,3,10,25,15,172,19,32,13,276,41,8*66
$GLGSV,3,1,09,73,48,154,41,80,46,061,31,70,41,022,15,85,29,237,22,1*77
$GLGSV,3,2,09,86,28,291,41,71,25,323,34,69,10,083,12,79,05,027,14,1*72
$GLGSV,3,3,09,84,01,186,,1*43
$GAGSV,3,1,09,13,50,223,31,07,45,312,40,08,44,033,23,26,35,300,40,7*70
$GAGSV,3,2,09,30,31,138,42,02,27,078,18,15,16,173,21,03,07,070,,7*71
$GAGSV,3,3,09,27,06,185,,7*45
$GAGSV,2,1,06,13,50,223,41,07,45,312,43,08,44,033,33,26,35,300,41,1*7C
$GAGSV,2,2,06,30,31,138,39,15,16,173,25,1*73
$GBGSV,4,1,15,08,83,354,40,38,82,147,42,13,71,326,43,39,69,294,45,1*78
$GBGSV,4,2,15,16,66,269,41,06,65,264,39,46,62,095,20,19,52,355,38,1*7B
$GBGSV,4,3,15,09,50,245,32,36,43,183,40,20,41,073,18,35,19,261,34,1*71
$GBGSV,4,4,15,37,18,043,28,22,15,307,36,29,14,207,22,1*4C
$GBGSV,3,1,10,38,82,147,46,39,69,294,43,46,62,095,17,19,52,355,27,4*79
$GBGSV,3,2,10,36,43,183,44,20,41,073,32,35,19,261,31,37,18,043,29,4*71
$GBGSV,3,3,10,22,15,307,37,29,14,207,22,4*7D
$GNACCURACY,2.4*10
$PAIRSAT,1,35,1,0,200,2,0,200,3,0,200,4,0,200,5,0,201,6,0,200,7,0,200,8,0,200,9,0,200,10,0,221,11,0,200,12,0,201,13,0,201,14,0,200,15,0,201,16,0,200,17,0,200,18,0,221,19,0,200,20,0,200,21,0,200,23,0,221,24,0,221,25,0,200,26,0,200,27,0,200,28,0,200,29,0,200,30,0,200,31,0,200,32,0,221,194,0,621,195,0,621,196,0,620,199,0,621*68
$PAIRSAT,2,24,65,0,200,66,0,200,67,0,200,68,0,200,69,0,201,70,0,201,71,0,201,72,0,200,73,0,201,74,0,200,75,0,200,76,0,200,77,0,200,78,0,200,79,0,201,80,0,201,81,0,200,82,0,200,83,0,200,84,0,200,85,0,201,86,0,201,87,0,200,88,0,200*7A
$PAIRSAT,3,23,2,0,1221,3,0,1221,4,0,1200,5,0,200,7,0,1221,8,0,1221,9,0,1200,10,0,1200,11,0,1200,12,0,1200,13,0,1221,15,0,1221,19,0,1200,21,0,1200,24,0,1200,25,0,1200,26,0,1221,27,0,1200,30,0,1221,31,0,1200,33,0,1200,34,0,1200,36,0,1200*6A
$PAIRSAT,4,50,1,0,200,2,0,200,3,0,200,4,0,200,5,0,200,6,0,201,7,0,200,8,0,201,9,0,201,10,0,200,11,0,200,12,0,200,13,0,201,14,0,200,15,0,200,16,0,201,19,0,621,20,0,621,21,0,600,22,0,621,23,0,600,24,0,600,25,0,600,26,0,600,27,0,600,28,0,600,29,0,621,30,0,600,31,0,200,32,0,600,33,0,600,34,0,600,35,0,621,36,0,621,37,0,621,38,0,621,39,0,621,40,0,600,41,0,600,42,0,600,43,0,600,44,0,600,45,0,600,46,0,621,56,0,200,57,0,200,58,0,200,59,0,600,60,0,600,61,0,600*41
$PAIRDGP,10,5,10,12,15,18,23,24,25,28,32*45
$GNGGA,114437.200,2500.8234943,N,12132.4653320,E,2,61,0.47,8.260,M,15.25,M,14,3335*4D
$GNRMC,114437.200,A,2500.8234943,N,12132.4653320,E,0.01,198.18,260623,,,D,V*00
$GPHDT,,T*1B
$GNACCURACY,2.4*10
$GNGGA,114437.300,2500.8235003,N,12132.4653320,E,2,61,0.47,8.241,M,15.25,M,14,3335*43
$GNRMC,114437.300,A,2500.8235003,N,12132.4653320,E,0.01,198.18,260623,,,D,V*0D
$GPHDT,,T*1B
$GNACCURACY,2.4*10
$GNGGA,114437.400,2500.8235003,N,12132.4653320,E,2,61,0.47,8.221,M,15.25,M,14,3335*42
$GNRMC,114437.400,A,2500.8235003,N,12132.4653320,E,0.01,198.18,260623,,,D,V*0A
$GPHDT,,T*1B
$GNACCURACY,2.4*10
$GNGGA,114437.500,2500.8235063,N,12132.4653260,E,2,61,0.47,8.205,M,15.25,M,14,3335*46
$GNRMC,114437.500,A,2500.8235063,N,12132.4653260,E,0.01,198.18,260623,,,D,V*08
$GPHDT,,T*1B
$GNACCURACY,2.4*10
$GNGGA,114437.600,2500.8235123,N,12132.4653260,E,2,61,0.47,8.187,M,15.25,M,14,3335*49
$GNRMC,114437.600,A,2500.8235123,N,12132.4653260,E,0.01,198.18,260623,,,D,V*0E
$GPHDT,,T*1B
$GNACCURACY,2.4*10
$GNGGA,114437.700,2500.8235183,N,12132.4653260,E,2,61,0.47,8.165,M,15.25,M,14,3335*4E
$GNRMC,114437.700,A,2500.8235183,N,12132.4653260,E,0.01,198.18,260623,,,D,V*05
$GPHDT,,T*1B
$GNACCURACY,2.4*10
$GNGGA,114437.800,2500.8235183,N,12132.4653200,E,2,60,0.47,8.145,M,15.25,M,14,3335*44
$GNRMC,114437.800,A,2500.8235183,N,12132.4653200,E,0.02,198.18,260623,,,D,V*0F
$GPHDT,,T*1B
$GNACCURACY,2.4*10
$GNGGA,114437.900,2500.8235243,N,12132.4653200,E,2,60,0.47,8.126,M,15.25,M,14,3335*4F
$GNRMC,114437.900,A,2500.8235243,N,12132.4653200,E,0.02,198.18,260623,,,D,V*01
$GPHDT,,T*1B
$GNACCURACY,2.4*10
$GNGGA,114438.000,2500.8235303,N,12132.4653140,E,2,60,0.47,8.103,M,15.25,M,15,3335*4D
$GNRMC,114438.000,A,2500.8235303,N,12132.4653140,E,0.02,198.18,260623,,,D,V*05
$GPHDT,,T*1B
$GNACCURACY,2.4*10
$GNGGA,114438.100,2500.8235363,N,12132.4653200,E,2,60,0.47,8.085,M,15.25,M,15,3335*42
$GNRMC,114438.100,A,2500.8235363,N,12132.4653200,E,0.02,198.18,260623,,,D,V*05
$GPHDT,,T*1B
$GNGSA,A,3,196,24,199,23,18,194,195,12,10,32,,,0.85,0.47,0.71,1*0A
$GNGSA,A,3,73,80,85,86,71,,,,,,,,0.85,0.47,0.71,2*03
$GNGSA,A,3,13,07,08,26,30,02,15,,,,,,0.85,0.47,0.71,3*07
$GNGSA,A,3,08,38,13,39,16,06,46,19,09,36,20,35,0.85,0.47,0.71,4*04
$GNGSA,A,3,37,22,29,,,,,,,,,,0.85,0.47,0.71,4*03
$GPGSV,4,1,16,196,75,071,40,24,65,035,45,199,60,167,38,23,58,344,16,1*6E
$GPGSV,4,2,16,18,53,232,41,41,38,242,36,194,34,137,45,15,33,055,12,1*5B
$GPGSV,4,3,16,195,31,179,23,12,26,134,41,10,24,322,37,25,15,172,19,1*5E
$GPGSV,4,4,16,05,13,125,23,32,13,276,32,13,04,063,,28,01,220,,1*6A
$GPGSV,3,1,09,196,75,071,44,24,65,035,49,199,60,167,47,23,58,344,39,8*63
$GPGSV,3,2,09,18,53,232,44,194,34,137,44,10,24,322,32,25,15,172,19,8*5D
$GPGSV,3,3,09,32,13,276,41,8*51
$GLGSV,3,1,09,73,48,154,41,80,46,061,29,70,41,022,14,85,29,237,23,1*7E
$GLGSV,3,2,09,86,28,291,41,71,25,323,35,69,10,083,15,79,05,027,15,1*75
$GLGSV,3,3,09,84,01,186,,1*43
$GAGSV,3,1,09,13,50,223,31,07,45,312,40,08,44,033,23,26,35,299,40,7*71
$GAGSV,3,2,09,30,31,138,42,02,27,078,18,15,16,173,21,03,07,070,,7*71
$GAGSV,3,3,09,27,06,185,,7*45
$GAGSV,2,1,06,13,50,223,41,07,45,312,43,08,44,033,32,26,35,299,40,1*7D
$GAGSV,2,2,06,30,31,138,40,15,16,173,26,1*7E
$GBGSV,4,1,15,08,83,354,40,38,82,147,42,13,71,326,43,39,69,294,45,1*78
$GBGSV,4,2,15,16,66,269,41,06,65,264,39,46,62,095,22,19,52,355,38,1*79
$GBGSV,4,3,15,09,50,245,31,36,43,183,40,20,41,073,18,35,19,261,33,1*75
$GBGSV,4,4,15,37,18,043,28,22,15,307,36,29,14,207,21,1*4F
$GBGSV,3,1,10,38,82,147,46,39,69,294,43,46,62,095,17,19,52,355,27,4*79
$GBGSV,3,2,10,36,43,183,44,20,41,073,32,35,19,261,30,37,18,043,30,4*78
$GBGSV,3,3,10,22,15,307,37,29,14,207,21,4*7E
$GNACCURACY,2.4*10
$PAIRSAT,1,35,1,0,200,2,0,200,3,0,200,4,0,200,5,0,201,6,0,200,7,0,200,8,0,200,9,0,200,10,0,221,11,0,200,12,0,201,13,0,201,14,0,200,15,0,201,16,0,200,17,0,200,18,0,221,19,0,200,20,0,200,21,0,200,23,0,221,24,0,221,25,0,200,26,0,200,27,0,200,28,0,200,29,0,200,30,0,200,31,0,200,32,0,221,194,0,621,195,0,621,196,0,620,199,0,621*68
$PAIRSAT,2,24,65,0,200,66,0,200,67,0,200,68,0,200,69,0,201,70,0,201,71,0,201,72,0,200,73,0,201,74,0,200,75,0,200,76,0,200,77,0,200,78,0,200,79,0,201,80,0,201,81,0,200,82,0,200,83,0,200,84,0,200,85,0,201,86,0,201,87,0,200,88,0,200*7A
$PAIRSAT,3,23,2,0,1221,3,0,1221,4,0,1200,5,0,200,7,0,1221,8,0,1221,9,0,1200,10,0,1200,11,0,1200,12,0,1200,13,0,1221,15,0,1221,19,0,1200,21,0,1200,24,0,1200,25,0,1200,26,0,1221,27,0,1200,30,0,1221,31,0,1200,33,0,1200,34,0,1200,36,0,1200*6A
$PAIRSAT,4,50,1,0,200,2,0,200,3,0,200,4,0,200,5,0,200,6,0,201,7,0,200,8,0,201,9,0,201,10,0,200,11,0,200,12,0,200,13,0,201,14,0,200,15,0,200,16,0,201,19,0,621,20,0,621,21,0,600,22,0,621,23,0,600,24,0,600,25,0,600,26,0,600,27,0,600,28,0,600,29,0,621,30,0,600,31,0,200,32,0,600,33,0,600,34,0,600,35,0,621,36,0,621,37,0,621,38,0,621,39,0,621,40,0,600,41,0,600,42,0,600,43,0,600,44,0,600,45,0,600,46,0,621,56,0,200,57,0,200,58,0,200,59,0,600,60,0,600,61,0,600*41
$PAIRDGP,10,5,10,12,15,18,23,24,25,28,32*45
$GNGGA,114438.200,2500.8235363,N,12132.4653140,E,2,60,0.47,8.068,M,15.25,M,15,3335*45
$GNRMC,114438.200,A,2500.8235363,N,12132.4653140,E,0.02,198.18,260623,,,D,V*01
$GPHDT,,T*1B
$GNACCURACY,2.4*10
$GNGGA,114438.300,2500.8235423,N,12132.4653140,E,2,60,0.47,8.046,M,15.25,M,15,3335*4B
$GNRMC,114438.300,A,2500.8235423,N,12132.4653140,E,0.02,198.18,260623,,,D,V*03
$GPHDT,,T*1B
$GNACCURACY,2.4*10
$GNGGA,114438.400,2500.8235483,N,12132.4653140,E,2,60,0.47,8.025,M,15.25,M,15,3335*43
$GNRMC,114438.400,A,2500.8235483,N,12132.4653140,E,0.02,198.18,260623,,,D,V*0E
$GPHDT,,T*1B
$GNACCURACY,2.4*10
$GNGGA,114438.500,2500.8235543,N,12132.4653140,E,2,60,0.47,8.005,M,15.25,M,15,3335*4D
$GNRMC,114438.500,A,2500.8235543,N,12132.4653140,E,0.02,198.18,260623,,,D,V*02
$GPHDT,,T*1B
$GNACCURACY,2.4*10
$GNGGA,114438.600,2500.8235543,N,12132.4653140,E,2,60,0.47,7.984,M,15.25,M,15,3335*41
$GNRMC,114438.600,A,2500.8235543,N,12132.4653140,E,0.02,198.18,260623,,,D,V*01
$GPHDT,,T*1B
$GNACCURACY,2.4*10
$GNGGA,114438.700,2500.8235603,N,12132.4653080,E,2,60,0.47,7.967,M,15.25,M,15,3335*47
$GNRMC,114438.700,A,2500.8235603,N,12132.4653080,E,0.02,198.18,260623,,,D,V*0A
$GPHDT,,T*1B
$GNACCURACY,2.4*10
$GNGGA,114438.800,2500.8235663,N,12132.4653080,E,2,60,0.47,7.948,M,15.25,M,15,3335*43
$GNRMC,114438.800,A,2500.8235663,N,12132.4653080,E,0.02,198.18,260623,,,D,V*03
$GPHDT,,T*1B
$GNACCURACY,2.4*10
$GNGGA,114438.900,2500.8235663,N,12132.4653080,E,2,60,0.47,7.930,M,15.25,M,15,3335*4D
$GNRMC,114438.900,A,2500.8235663,N,12132.4653080,E,0.02,198.18,260623,,,D,V*02
$GPHDT,,T*1B
$GNACCURACY,2.4*10
$GNGGA,114439.000,2500.8235723,N,12132.4653080,E,2,60,0.47,7.911,M,15.25,M,16,3335*40
$GNRMC,114439.000,A,2500.8235723,N,12132.4653080,E,0.02,198.18,260623,,,D,V*0F
$GPHDT,,T*1B
$GNACCURACY,2.4*10
$GNGGA,114439.100,2500.8235783,N,12132.4653080,E,2,60,0.47,7.893,M,15.25,M,16,3335*40
$GNRMC,114439.100,A,2500.8235783,N,12132.4653080,E,0.02,198.18,260623,,,D,V*04
$GPHDT,,T*1B
$GNGSA,A,3,196,24,199,23,18,194,195,12,10,32,,,0.85,0.47,0.71,1*0A
$GNGSA,A,3,73,80,85,86,71,,,,,,,,0.85,0.47,0.71,2*03
$GNGSA,A,3,13,07,08,26,30,02,15,,,,,,0.85,0.47,0.71,3*07
$GNGSA,A,3,08,38,13,39,16,06,46,19,09,36,20,35,0.85,0.47,0.71,4*04
$GNGSA,A,3,37,22,29,,,,,,,,,,0.85,0.47,0.71,4*03
$GPGSV,4,1,16,196,75,071,40,24,65,035,45,199,60,167,38,23,58,344,16,1*6E
$GPGSV,4,2,16,18,53,232,40,41,38,242,36,194,34,137,45,15,33,055,13,1*5B
$GPGSV,4,3,16,195,31,179,23,12,26,134,41,10,24,322,37,25,15,172,19,1*5E
$GPGSV,4,4,16,05,13,125,22,32,13,276,32,13,04,063,,28,01,220,,1*6B
$GPGSV,3,1,09,196,75,071,44,24,65,035,49,199,60,167,47,23,58,344,39,8*63
$GPGSV,3,2,09,18,53,232,44,194,34,137,44,10,24,322,31,25,15,172,20,8*54
$GPGSV,3,3,09,32,13,276,41,8*51
$GLGSV,3,1,09,73,48,154,41,80,46,061,29,70,41,023,13,85,29,237,23,1*78
$GLGSV,3,2,09,86,28,291,40,71,25,323,35,69,10,083,17,79,05,027,15,1*76
$GLGSV,3,3,09,84,01,186,,1*43
$GAGSV,3,1,09,13,50,223,31,07,45,312,40,08,44,033,23,26,35,299,40,7*71
$GAGSV,3,2,09,30,31,138,42,02,27,078,18,15,16,173,21,03,07,070,,7*71
$GAGSV,3,3,09,27,06,185,,7*45
$GAGSV,2,1,06,13,50,223,41,07,45,312,43,08,44,033,32,26,35,299,40,1*7D
$GAGSV,2,2,06,30,31,138,40,15,16,173,26,1*7E
$GBGSV,4,1,16,08,83,354,40,38,82,147,42,13,71,326,43,39,69,294,45,1*7B
$GBGSV,4,2,16,16,66,269,41,06,65,264,39,46,62,095,24,19,52,355,38,1*7C
$GBGSV,4,3,16,09,50,245,31,36,43,183,40,20,41,073,18,35,19,261,33,1*76
$GBGSV,4,4,16,37,18,043,28,22,15,307,36,29,14,207,21,07,05,191,,1*77
$GBGSV,3,1,10,38,82,147,46,39,69,294,43,46,62,095,17,19,52,355,26,4*78
$GBGSV,3,2,10,36,43,183,44,20,41,073,32,35,19,261,30,37,18,043,29,4*70
$GBGSV,3,3,10,22,15,307,37,29,14,207,22,4*7D
$GNACCURACY,2.4*10
$PAIRSAT,1,35,1,0,200,2,0,200,3,0,200,4,0,200,5,0,201,6,0,200,7,0,200,8,0,200,9,0,200,10,0,221,11,0,200,12,0,201,13,0,201,14,0,200,15,0,201,16,0,200,17,0,200,18,0,221,19,0,200,20,0,200,21,0,200,23,0,221,24,0,221,25,0,200,26,0,200,27,0,200,28,0,200,29,0,200,30,0,200,31,0,200,32,0,221,194,0,621,195,0,621,196,0,620,199,0,621*68
$PAIRSAT,2,24,65,0,200,66,0,200,67,0,200,68,0,200,69,0,201,70,0,201,71,0,201,72,0,200,73,0,201,74,0,200,75,0,200,76,0,200,77,0,200,78,0,200,79,0,201,80,0,201,81,0,200,82,0,200,83,0,200,84,0,200,85,0,201,86,0,201,87,0,200,88,0,200*7A
$PAIRSAT,3,23,2,0,1221,3,0,1221,4,0,1200,5,0,200,7,0,1221,8,0,1221,9,0,1200,10,0,1200,11,0,1200,12,0,1200,13,0,1221,15,0,1221,19,0,1200,21,0,1200,24,0,1200,25,0,1200,26,0,1221,27,0,1200,30,0,1221,31,0,1200,33,0,1200,34,0,1200,36,0,1200*6A
$PAIRSAT,4,50,1,0,200,2,0,200,3,0,200,4,0,200,5,0,200,6,0,201,7,0,200,8,0,201,9,0,201,10,0,200,11,0,200,12,0,200,13,0,201,14,0,200,15,0,200,16,0,201,19,0,621,20,0,621,21,0,600,22,0,621,23,0,600,24,0,600,25,0,600,26,0,600,27,0,600,28,0,600,29,0,621,30,0,600,31,0,200,32,0,600,33,0,600,34,0,600,35,0,621,36,0,621,37,0,621,38,0,621,39,0,621,40,0,600,41,0,600,42,0,600,43,0,600,44,0,600,45,0,600,46,0,621,56,0,200,57,0,200,58,0,200,59,0,600,60,0,600,61,0,600*41
$PAIRDGP,10,5,10,12,15,18,23,24,25,28,32*45
$GNGGA,114439.200,2500.8235783,N,12132.4653020,E,2,60,0.47,7.875,M,15.25,M,16,3335*41
$GNRMC,114439.200,A,2500.8235783,N,12132.4653020,E,0.02,198.18,260623,,,D,V*0D
$GPHDT,,T*1B
$GNACCURACY,2.4*10
$GNGGA,114439.300,2500.8235843,N,12132.4653020,E,2,60,0.47,7.853,M,15.25,M,16,3335*47
$GNRMC,114439.300,A,2500.8235843,N,12132.4653020,E,0.02,198.18,260623,,,D,V*0F
$GPHDT,,T*1B
$GNACCURACY,2.4*10
$GNGGA,114439.400,2500.8235903,N,12132.4653020,E,2,60,0.47,7.837,M,15.25,M,16,3335*47
$GNRMC,114439.400,A,2500.8235903,N,12132.4653020,E,0.02,198.18,260623,,,D,V*0D
$GPHDT,,T*1B
$GNACCURACY,2.4*10
$GNGGA,114439.500,2500.8235903,N,12132.4653020,E,2,60,0.47,7.819,M,15.25,M,16,3335*4A
$GNRMC,114439.500,A,2500.8235903,N,12132.4653020,E,0.02,198.18,260623,,,D,V*0C
$GPHDT,,T*1B
$GNACCURACY,2.4*10
$GNGGA,114439.600,2500.8235963,N,12132.4652960,E,2,60,0.47,7.799,M,15.25,M,16,3335*44
$GNRMC,114439.600,A,2500.8235963,N,12132.4652960,E,0.02,198.18,260623,,,D,V*05
$GPHDT,,T*1B
$GNACCURACY,2.4*10
$GNGGA,114439.700,2500.8235963,N,12132.4652960,E,2,60,0.47,7.781,M,15.25,M,16,3335*4C