$FW : RTK35X,V1.1X0314AS,Lib20210517,1*54
$Tool : LOCOSYS , GNSS Firebird , v1.0.0.19*39
$---------------------------------------------------*2D
$GPHDT,,T*1B
$GNGSA,A,3,196,24,199,23,18,194,15,195,12,10,25,32,0.72,0.45,0.56,1*06
$GNGSA,A,3,73,80,85,86,71,,,,,,,,0.72,0.45,0.56,2*0C
$GNGSA,A,3,13,07,08,26,30,02,15,,,,,,0.72,0.45,0.56,3*08
$GNGSA,A,3,08,38,13,39,16,06,46,19,09,36,20,35,0.72,0.45,0.56,4*0B
$GNGSA,A,3,37,22,29,,,,,,,,,,0.72,0.45,0.56,4*0C
$GPGSV,4,1,16,196,75,071,38,24,64,035,44,199,60,167,39,23,59,344,16,1*61
$GPGSV,4,2,16,18,53,231,45,41,38,242,39,194,34,136,45,15,32,056,18,1*5A
$GPGSV,4,3,16,195,31,179,24,12,26,134,39,10,25,322,34,25,15,172,22,1*5C
$GPGSV,4,4,16,05,13,125,17,32,13,277,39,13,03,063,,28,01,221,,1*61
$GPGSV,3,1,10,196,75,071,45,24,64,035,49,199,60,167,47,23,59,344,33,8*60
$GPGSV,3,2,10,18,53,231,46,194,34,136,45,195,31,179,29,10,25,322,29,8*6B
$GPGSV,3,3,10,25,15,172,24,32,13,277,36,8*69
$GLGSV,2,1,07,73,48,154,44,80,46,060,21,85,28,236,29,86,28,290,41,1*7A
$GLGSV,2,2,07,71,26,324,35,69,10,083,19,79,04,027,22,1*4C
$GAGSV,2,1,08,13,50,223,37,07,45,313,40,08,44,033,14,26,35,299,40,7*72
$GAGSV,2,2,08,30,32,138,42,02,27,077,15,15,16,173,21,03,07,070,,7*70
$GAGSV,2,1,07,13,50,223,45,07,45,313,46,08,44,033,34,26,35,299,42,1*78
$GAGSV,2,2,07,30,32,138,40,02,27,077,17,15,16,173,24,1*4F
$GBGSV,4,1,15,08,84,353,39,38,82,149,42,13,71,325,45,39,69,294,44,1*7C
$GBGSV,4,2,15,16,66,269,42,06,64,265,41,46,62,094,20,19,53,355,39,1*76
$GBGSV,4,3,15,09,50,246,43,36,43,183,40,20,40,073,28,35,18,261,41,1*75
$GBGSV,4,4,15,37,17,043,28,22,16,307,33,29,14,206,25,1*43
$GBGSV,2,1,08,38,82,149,45,39,69,294,43,46,62,094,29,19,53,355,32,4*75
$GBGSV,2,2,08,36,43,183,45,20,40,073,26,35,18,261,34,22,16,307,35,4*7C
$GNACCURACY,2.3*17
$PAIRSAT,1,35,1,0,200,2,0,200,3,0,200,4,0,200,5,0,201,6,0,200,7,0,200,8,0,200,9,0,200,10,0,221,11,0,200,12,0,201,13,0,201,14,0,200,15,0,201,16,0,200,17,0,200,18,0,221,19,0,200,20,0,200,21,0,200,23,0,221,24,0,221,25,0,220,26,0,200,27,0,200,28,0,200,29,0,200,30,0,200,31,0,200,32,0,221,194,0,621,195,0,621,196,0,620,199,0,621*6A
$PAIRSAT,2,24,65,0,200,66,0,200,67,0,200,68,0,200,69,0,200,70,0,200,71,0,201,72,0,200,73,0,201,74,0,200,75,0,200,76,0,200,77,0,200,78,0,200,79,0,201,80,0,201,81,0,200,82,0,200,83,0,200,84,0,200,85,0,201,86,0,201,87,0,200,88,0,200*7A
$PAIRSAT,3,23,2,0,1221,3,0,1221,4,0,1200,5,0,200,7,0,1221,8,0,1221,9,0,1200,10,0,1200,11,0,1200,12,0,1200,13,0,1221,15,0,1221,19,0,1200,21,0,1200,24,0,1200,25,0,1200,26,0,1221,27,0,1200,30,0,1221,31,0,1200,33,0,1200,34,0,1200,36,0,1200*6A
$PAIRSAT,4,50,1,0,200,2,0,200,3,0,200,4,0,200,5,0,200,6,0,201,7,0,200,8,0,201,9,0,201,10,0,200,11,0,200,12,0,200,13,0,201,14,0,200,15,0,200,16,0,201,19,0,621,20,0,621,21,0,600,22,0,621,23,0,600,24,0,600,25,0,600,26,0,600,27,0,600,28,0,600,29,0,621,30,0,600,31,0,200,32,0,600,33,0,600,34,0,600,35,0,621,36,0,621,37,0,621,38,0,621,39,0,621,40,0,600,41,0,600,42,0,600,43,0,600,44,0,600,45,0,600,46,0,621,56,0,200,57,0,200,58,0,200,59,0,600,60,0,600,61,0,600*41
$PAIRDGP,10,5,10,12,15,18,23,24,25,28,32*45
$GNGGA,114551.200,2500.8206647,N,12132.4628886,E,4,64,0.45,16.097,M,15.25,M,10,3335*7D
$GNRMC,114551.200,A,2500.8206647,N,12132.4628886,E,0.03,198.18,260623,,,R,V*14
$GPHDT,91.495,T*05
$GNACCURACY,2.3*17
$GNGGA,114551.300,2500.8206684,N,12132.4628918,E,4,64,0.45,16.092,M,15.25,M,10,3335*70
$GNRMC,114551.300,A,2500.8206684,N,12132.4628918,E,0.03,198.18,260623,,,R,V*1C
$GPHDT,,T*1B
$GNACCURACY,2.3*17
$GNGGA,114551.400,2500.8206672,N,12132.4628880,E,4,64,0.45,16.089,M,15.25,M,10,3335*74
$GNRMC,114551.400,A,2500.8206672,N,12132.4628880,E,0.03,198.18,260623,,,R,V*12
$GPHDT,91.229,T*04
$GNACCURACY,2.3*17
$GNGGA,114551.500,2500.8206682,N,12132.4628914,E,4,63,0.47,16.094,M,15.25,M,10,3335*7F
$GNRMC,114551.500,A,2500.8206682,N,12132.4628914,E,0.03,198.18,260623,,,R,V*10
$GPHDT,,T*1B
$GNACCURACY,2.3*17
$GNGGA,114551.600,2500.8206676,N,12132.4628909,E,4,63,0.47,16.093,M,15.25,M,10,3335*7C
$GNRMC,114551.600,A,2500.8206676,N,12132.4628909,E,0.02,198.18,260623,,,R,V*15
$GPHDT,91.205,T*0A
$GNACCURACY,2.3*17
$GNGGA,114551.700,2500.8206685,N,12132.4628899,E,4,64,0.45,16.094,M,15.25,M,10,3335*7B
$GNRMC,114551.700,A,2500.8206685,N,12132.4628899,E,0.02,198.18,260623,,,R,V*10
$GPHDT,,T*1B
$GNACCURACY,2.3*17
$GNGGA,114551.800,2500.8206684,N,12132.4628903,E,4,64,0.45,16.088,M,15.25,M,10,3335*7A
$GNRMC,114551.800,A,2500.8206684,N,12132.4628903,E,0.01,198.18,260623,,,R,V*1F
$GPHDT,91.165,T*0F
$GNACCURACY,2.3*17
$GNGGA,114551.900,2500.8206708,N,12132.4628921,E,4,64,0.45,16.096,M,15.25,M,10,3335*71
$GNRMC,114551.900,A,2500.8206708,N,12132.4628921,E,0.01,198.18,260623,,,R,V*1B
$GPHDT,,T*1B
$GNACCURACY,2.3*17
$GNGGA,114552.000,2500.8206655,N,12132.4628883,E,4,64,0.45,16.098,M,15.25,M,11,3335*74
$GNRMC,114552.000,A,2500.8206655,N,12132.4628883,E,0.00,198.18,260623,,,R,V*10
$GPHDT,91.239,T*05
$GNACCURACY,2.3*17
$GNGGA,114552.100,2500.8206674,N,12132.4628892,E,4,64,0.45,16.083,M,15.25,M,11,3335*7C
$GNRMC,114552.100,A,2500.8206674,N,12132.4628892,E,0.01,198.18,260623,,,R,V*13
$GPHDT,,T*1B
$GNGSA,A,3,196,24,199,23,18,194,15,195,12,10,25,32,0.72,0.45,0.56,1*06
$GNGSA,A,3,73,80,85,86,71,,,,,,,,0.72,0.45,0.56,2*0C
$GNGSA,A,3,13,07,08,26,30,02,15,,,,,,0.72,0.45,0.56,3*08
$GNGSA,A,3,08,38,13,39,16,06,46,19,09,36,20,35,0.72,0.45,0.56,4*0B
$GNGSA,A,3,37,22,29,,,,,,,,,,0.72,0.45,0.56,4*0C
$GPGSV,4,1,16,196,75,071,38,24,64,035,44,199,60,167,39,23,59,344,17,1*60
$GPGSV,4,2,16,18,53,231,45,41,38,242,39,194,34,136,45,15,32,056,19,1*5B
$GPGSV,4,3,16,195,31,179,24,12,26,134,40,10,25,322,33,25,15,172,23,1*54
$GPGSV,4,4,16,05,13,125,19,32,13,277,39,13,03,063,,28,01,221,,1*6F
$GPGSV,3,1,10,196,75,071,45,24,64,035,49,199,60,167,47,23,59,344,33,8*60
$GPGSV,3,2,10,18,53,231,46,194,34,136,44,195,31,179,29,10,25,322,28,8*6B
$GPGSV,3,3,10,25,15,172,24,32,13,277,37,8*68
$GLGSV,2,1,07,73,48,154,44,80,46,060,23,85,28,236,29,86,28,290,41,1*78
$GLGSV,2,2,07,71,26,324,35,69,10,083,19,79,04,027,21,1*4F
$GAGSV,2,1,08,13,50,223,36,07,45,313,40,08,44,033,14,26,35,299,40,7*73
$GAGSV,2,2,08,30,32,138,42,02,27,077,15,15,16,173,21,03,07,070,,7*70
$GAGSV,2,1,07,13,50,223,45,07,45,313,46,08,44,033,34,26,35,299,42,1*78
$GAGSV,2,2,07,30,32,138,40,02,27,077,17,15,16,173,24,1*4F
$GBGSV,4,1,15,08,84,353,39,38,82,149,42,13,71,325,45,39,69,294,44,1*7C
$GBGSV,4,2,15,16,66,269,42,06,64,265,41,46,62,094,20,19,53,355,39,1*76
$GBGSV,4,3,15,09,50,246,43,36,43,183,39,20,40,073,28,35,18,261,41,1*7B
$GBGSV,4,4,15,37,17,043,28,22,16,307,33,29,14,206,25,1*43
$GBGSV,2,1,08,38,82,149,45,39,69,294,43,46,62,094,29,19,53,355,32,4*75
$GBGSV,2,2,08,36,43,183,45,20,40,073,26,35,18,261,34,22,16,307,34,4*7D
$GNACCURACY,2.3*17
$PAIRSAT,1,35,1,0,200,2,0,200,3,0,200,4,0,200,5,0,201,6,0,200,7,0,200,8,0,200,9,0,200,10,0,221,11,0,200,12,0,201,13,0,201,14,0,200,15,0,201,16,0,200,17,0,200,18,0,221,19,0,200,20,0,200,21,0,200,23,0,221,24,0,221,25,0,220,26,0,200,27,0,200,28,0,200,29,0,200,30,0,200,31,0,200,32,0,221,194,0,621,195,0,621,196,0,620,199,0,621*6A
$PAIRSAT,2,24,65,0,200,66,0,200,67,0,200,68,0,200,69,0,200,70,0,200,71,0,201,72,0,200,73,0,201,74,0,200,75,0,200,76,0,200,77,0,200,78,0,200,79,0,201,80,0,201,81,0,200,82,0,200,83,0,200,84,0,200,85,0,201,86,0,201,87,0,200,88,0,200*7A
$PAIRSAT,3,23,2,0,1221,3,0,1221,4,0,1200,5,0,200,7,0,1221,8,0,1221,9,0,1200,10,0,1200,11,0,1200,12,0,1200,13,0,1221,15,0,1221,19,0,1200,21,0,1200,24,0,1200,25,0,1200,26,0,1221,27,0,1200,30,0,1221,31,0,1200,33,0,1200,34,0,1200,36,0,1200*6A
$PAIRSAT,4,50,1,0,200,2,0,200,3,0,200,4,0,200,5,0,200,6,0,201,7,0,200,8,0,201,9,0,201,10,0,200,11,0,200,12,0,200,13,0,201,14,0,200,15,0,200,16,0,201,19,0,621,20,0,621,21,0,600,22,0,621,23,0,600,24,0,600,25,0,600,26,0,600,27,0,600,28,0,600,29,0,621,30,0,600,31,0,200,32,0,600,33,0,600,34,0,600,35,0,621,36,0,621,37,0,621,38,0,621,39,0,621,40,0,600,41,0,600,42,0,600,43,0,600,44,0,600,45,0,600,46,0,621,56,0,200,57,0,200,58,0,200,59,0,600,60,0,600,61,0,600*41
$PAIRDGP,10,5,10,12,15,18,23,24,25,28,32*45
$GNGGA,114552.200,2500.8206662,N,12132.4628890,E,4,64,0.45,16.094,M,15.25,M,11,3335*7C
$GNRMC,114552.200,A,2500.8206662,N,12132.4628890,E,0.00,198.18,260623,,,R,V*14
$GPHDT,91.146,T*0E
$GNACCURACY,2.3*17
$GNGGA,114552.300,2500.8206706,N,12132.4628926,E,4,63,0.47,16.097,M,15.25,M,11,3335*74
$GNRMC,114552.300,A,2500.8206706,N,12132.4628926,E,0.01,198.18,260623,,,R,V*1B
$GPHDT,,T*1B
$GNACCURACY,2.3*17
$GNGGA,114552.400,2500.8206636,N,12132.4628854,E,4,63,0.47,16.104,M,15.25,M,11,3335*7E
$GNRMC,114552.400,A,2500.8206636,N,12132.4628854,E,0.00,198.18,260623,,,R,V*1B
$GPHDT,90.843,T*03
$GNACCURACY,2.3*17
$GNGGA,114552.500,2500.8206693,N,12132.4628903,E,4,63,0.47,16.097,M,15.25,M,11,3335*78
$GNRMC,114552.500,A,2500.8206693,N,12132.4628903,E,0.01,198.18,260623,,,R,V*17
$GPHDT,,T*1B
$GNACCURACY,2.3*17
$GNGGA,114552.600,2500.8206675,N,12132.4628876,E,4,64,0.45,16.101,M,15.25,M,11,3335*7B
$GNRMC,114552.600,A,2500.8206675,N,12132.4628876,E,0.01,198.18,260623,,,R,V*1F
$GPHDT,90.885,T*09
$GNACCURACY,2.3*17
$GNGGA,114552.700,2500.8206720,N,12132.4628902,E,4,64,0.45,16.090,M,15.25,M,11,3335*70
$GNRMC,114552.700,A,2500.8206720,N,12132.4628902,E,0.02,198.18,260623,,,R,V*1E
$GPHDT,,T*1B
$GNACCURACY,2.3*17
$GNGGA,114552.800,2500.8206685,N,12132.4628896,E,4,64,0.45,16.094,M,15.25,M,11,3335*79
$GNRMC,114552.800,A,2500.8206685,N,12132.4628896,E,0.01,198.18,260623,,,R,V*10
$GPHDT,90.586,T*07
$GNACCURACY,2.3*17
$GNGGA,114552.900,2500.8206714,N,12132.4628896,E,4,64,0.45,16.091,M,15.25,M,11,3335*74
$GNRMC,114552.900,A,2500.8206714,N,12132.4628896,E,0.01,198.18,260623,,,R,V*18
$GPHDT,,T*1B
$GNACCURACY,2.3*17
$GNGGA,114553.000,2500.8206662,N,12132.4628872,E,4,63,0.47,16.101,M,15.25,M,12,3335*78
$GNRMC,114553.000,A,2500.8206662,N,12132.4628872,E,0.01,198.18,260623,,,R,V*1A
$GPHDT,89.943,T*0A
$GNACCURACY,2.3*17
$GNGGA,114553.100,2500.8206660,N,12132.4628858,E,4,63,0.47,16.101,M,15.25,M,12,3335*73
$GNRMC,114553.100,A,2500.8206660,N,12132.4628858,E,0.01,198.18,260623,,,R,V*11
$GPHDT,,T*1B
$GNGSA,A,3,196,24,199,23,18,194,15,195,12,10,25,32,0.74,0.47,0.58,1*0C
$GNGSA,A,3,73,80,85,86,71,,,,,,,,0.74,0.47,0.58,2*06
$GNGSA,A,3,13,07,08,26,30,02,15,,,,,,0.74,0.47,0.58,3*02
$GNGSA,A,3,08,38,13,39,16,06,46,19,09,36,20,35,0.74,0.47,0.58,4*01
$GNGSA,A,3,22,29,,,,,,,,,,,0.74,0.47,0.58,4*02
$GPGSV,4,1,16,196,75,071,38,24,64,035,44,199,60,167,39,23,59,344,17,1*60
$GPGSV,4,2,16,18,53,231,45,41,38,242,39,194,34,136,45,15,32,056,20,1*51
$GPGSV,4,3,16,195,31,179,23,12,26,134,40,10,25,322,34,25,15,172,23,1*54
$GPGSV,4,4,16,05,13,125,18,32,13,277,39,13,03,063,,28,01,221,,1*6E
$GPGSV,3,1,10,196,75,071,45,24,64,035,50,199,60,167,47,23,59,344,33,8*68
$GPGSV,3,2,10,18,53,231,46,194,34,136,44,195,31,179,29,10,25,322,27,8*64
$GPGSV,3,3,10,25,15,172,23,32,13,277,37,8*6F
$GLGSV,2,1,07,73,48,154,44,80,46,060,23,85,28,236,29,86,28,290,41,1*78
$GLGSV,2,2,07,71,26,324,35,69,10,083,19,79,04,027,21,1*4F
$GAGSV,2,1,08,13,50,223,35,07,45,313,40,08,44,033,14,26,35,299,40,7*70
$GAGSV,2,2,08,30,32,138,42,02,27,077,16,15,16,173,20,03,07,070,,7*72
$GAGSV,2,1,07,13,50,223,45,07,45,313,46,08,44,033,34,26,35,299,42,1*78
$GAGSV,2,2,07,30,32,138,40,02,27,077,17,15,16,173,24,1*4F
$GBGSV,4,1,15,08,84,353,38,38,82,149,42,13,71,325,45,39,69,294,44,1*7D
$GBGSV,4,2,15,16,66,269,42,06,64,265,41,46,62,094,19,19,53,355,39,1*7C
$GBGSV,4,3,15,09,50,246,43,36,43,183,38,20,40,073,28,35,18,261,41,1*7A
$GBGSV,4,4,15,37,17,043,28,22,16,307,34,29,14,206,26,1*47
$GBGSV,2,1,08,38,82,149,45,39,69,294,43,46,62,094,29,19,53,355,31,4*76
$GBGSV,2,2,08,36,43,183,45,20,40,073,26,35,18,261,34,22,16,307,32,4*7B
$GNACCURACY,2.3*17
$PAIRSAT,1,35,1,0,200,2,0,200,3,0,200,4,0,200,5,0,201,6,0,200,7,0,200,8,0,200,9,0,200,10,0,221,11,0,200,12,0,201,13,0,201,14,0,200,15,0,201,16,0,200,17,0,200,18,0,221,19,0,200,20,0,200,21,0,200,23,0,221,24,0,221,25,0,220,26,0,200,27,0,200,28,0,200,29,0,200,30,0,200,31,0,200,32,0,221,194,0,621,195,0,621,196,0,620,199,0,621*6A
$PAIRSAT,2,24,65,0,200,66,0,200,67,0,200,68,0,200,69,0,200,70,0,200,71,0,201,72,0,200,73,0,201,74,0,200,75,0,200,76,0,200,77,0,200,78,0,200,79,0,201,80,0,201,81,0,200,82,0,200,83,0,200,84,0,200,85,0,201,86,0,201,87,0,200,88,0,200*7A
$PAIRSAT,3,23,2,0,1221,3,0,1221,4,0,1200,5,0,200,7,0,1221,8,0,1221,9,0,1200,10,0,1200,11,0,1200,12,0,1200,13,0,1221,15,0,1221,19,0,1200,21,0,1200,24,0,1200,25,0,1200,26,0,1221,27,0,1200,30,0,1221,31,0,1200,33,0,1200,34,0,1200,36,0,1200*6A
$PAIRSAT,4,50,1,0,200,2,0,200,3,0,200,4,0,200,5,0,200,6,0,201,7,0,200,8,0,201,9,0,201,10,0,200,11,0,200,12,0,200,13,0,201,14,0,200,15,0,200,16,0,201,19,0,621,20,0,621,21,0,600,22,0,621,23,0,600,24,0,600,25,0,600,26,0,600,27,0,600,28,0,600,29,0,621,30,0,600,31,0,200,32,0,600,33,0,600,34,0,600,35,0,621,36,0,621,37,0,621,38,0,621,39,0,621,40,0,600,41,0,600,42,0,600,43,0,600,44,0,600,45,0,600,46,0,621,56,0,200,57,0,200,58,0,200,59,0,600,60,0,600,61,0,600*41
$PAIRDGP,10,5,10,12,15,18,23,24,25,28,32*45
$GNGGA,114553.200,2500.8206622,N,12132.4628980,E,4,63,0.47,16.076,M,15.25,M,1,3335*41
$GNRMC,114553.200,A,2500.8206622,N,12132.4628980,E,0.01,198.18,260623,,,R,V*10
$GPHDT,90.082,T*06
$GNACCURACY,2.3*17
$GNGGA,114553.300,2500.8206666,N,12132.4629002,E,4,64,0.45,16.062,M,15.25,M,1,3335*42
$GNRMC,114553.300,A,2500.8206666,N,12132.4629002,E,0.01,198.18,260623,,,R,V*13
$GPHDT,,T*1B
$GNACCURACY,2.3*17
$GNGGA,114553.400,2500.8206628,N,12132.4628995,E,4,63,0.45,16.055,M,15.25,M,1,3335*4A
$GNRMC,114553.400,A,2500.8206628,N,12132.4628995,E,0.01,198.18,260623,,,R,V*18
$GPHDT,90.564,T*0B
$GNACCURACY,2.3*17
$GNGGA,114553.500,2500.8206610,N,12132.4629010,E,4,63,0.45,16.057,M,15.25,M,1,3335*47
$GNRMC,114553.500,A,2500.8206610,N,12132.4629010,E,0.01,198.18,260623,,,R,V*17
$GPHDT,,T*1B
$GNACCURACY,2.3*17
$GNGGA,114553.600,2500.8206628,N,12132.4628993,E,4,62,0.48,16.057,M,15.25,M,1,3335*40
$GNRMC,114553.600,A,2500.8206628,N,12132.4628993,E,0.01,198.18,260623,,,R,V*1C
$GPHDT,90.474,T*0B
$GNACCURACY,2.3*17
$GNGGA,114553.700,2500.8206569,N,12132.4628993,E,4,62,0.48,16.072,M,15.25,M,0,3335*41
$GNRMC,114553.700,A,2500.8206569,N,12132.4628993,E,0.00,198.18,260623,,,R,V*1A
$GPHDT,,T*1B
$GNACCURACY,2.3*17
$GNGGA,114553.800,2500.8206630,N,12132.4629003,E,4,63,0.45,16.061,M,15.25,M,0,3335*4E
$GNRMC,114553.800,A,2500.8206630,N,12132.4629003,E,0.01,198.18,260623,,,R,V*1A
$GPHDT,90.215,T*0A
$GNACCURACY,2.3*17
$GNGGA,114553.900,2500.8206618,N,12132.4628996,E,4,63,0.45,16.069,M,15.25,M,0,3335*49
$GNRMC,114553.900,A,2500.8206618,N,12132.4628996,E,0.02,198.18,260623,,,R,V*16
$GPHDT,,T*1B
$GNACCURACY,2.3*17
$GNGGA,114554.000,2500.8206675,N,12132.4629080,E,4,63,0.45,16.055,M,15.25,M,1,3335*4D
$GNRMC,114554.000,A,2500.8206675,N,12132.4629080,E,0.02,198.18,260623,,,R,V*1C
$GPHDT,91.055,T*0D
$GNACCURACY,2.3*17
$GNGGA,114554.100,2500.8206666,N,12132.4629070,E,4,62,0.48,16.051,M,15.25,M,1,3335*49
$GNRMC,114554.100,A,2500.8206666,N,12132.4629070,E,0.02,198.18,260623,,,R,V*10
$GPHDT,,T*1B
$GNGSA,A,3,196,24,199,23,18,194,195,12,10,25,32,,0.76,0.48,0.59,1*04
$GNGSA,A,3,73,80,86,85,71,,,,,,,,0.76,0.48,0.59,2*0A
$GNGSA,A,3,13,07,08,26,30,02,15,,,,,,0.76,0.48,0.59,3*0E
$GNGSA,A,3,08,38,13,39,16,06,46,19,09,36,20,35,0.76,0.48,0.59,4*0D
$GNGSA,A,3,22,29,,,,,,,,,,,0.76,0.48,0.59,4*0E
$GPGSV,4,1,16,196,75,071,38,24,64,035,44,199,60,167,39,23,59,344,17,1*60
$GPGSV,4,2,16,18,53,231,45,41,38,242,40,194,34,136,45,15,32,056,19,1*55
$GPGSV,4,3,16,195,31,179,23,12,26,134,40,10,25,322,33,25,15,172,22,1*52
$GPGSV,4,4,16,05,13,125,18,32,13,277,39,13,03,063,,28,01,221,,1*6E
$GPGSV,3,1,10,196,75,071,45,24,64,035,50,199,60,167,47,23,59,344,33,8*68
$GPGSV,3,2,10,18,53,231,46,194,34,136,44,195,31,179,29,10,25,322,26,8*65
$GPGSV,3,3,10,25,15,172,23,32,13,277,37,8*6F
$GLGSV,2,1,07,73,48,154,44,80,46,060,24,86,28,290,41,85,28,236,28,1*7E
$GLGSV,2,2,07,71,26,324,35,69,10,083,18,79,04,027,21,1*4E
$GAGSV,2,1,08,13,50,223,35,07,45,313,40,08,44,033,14,26,35,299,40,7*70
$GAGSV,2,2,08,30,32,138,42,02,27,077,18,15,16,173,20,03,07,070,,7*7C
$GAGSV,2,1,07,13,50,223,45,07,45,313,46,08,44,033,34,26,35,299,42,1*78
$GAGSV,2,2,07,30,32,138,40,02,27,077,17,15,16,173,25,1*4E
$GBGSV,4,1,16,08,84,353,38,38,82,149,42,13,71,325,45,39,69,294,44,1*7E
$GBGSV,4,2,16,16,66,269,42,06,64,265,41,46,62,094,18,19,53,355,40,1*70
$GBGSV,4,3,16,09,50,246,43,36,43,183,38,20,40,073,28,35,18,261,41,1*79
$GBGSV,4,4,16,37,17,043,29,22,16,307,34,29,14,206,26,10,02,200,,1*74
$GBGSV,2,1,08,38,82,149,45,39,69,294,43,46,62,094,29,19,53,355,31,4*76
$GBGSV,2,2,08,36,43,183,45,20,40,073,26,35,18,261,34,22,16,307,32,4*7B
$GNACCURACY,2.3*17
$PAIRSAT,1,35,1,0,200,2,0,200,3,0,200,4,0,200,5,0,201,6,0,200,7,0,200,8,0,200,9,0,200,10,0,221,11,0,200,12,0,201,13,0,201,14,0,200,15,0,201,16,0,200,17,0,200,18,0,221,19,0,200,20,0,200,21,0,200,23,0,221,24,0,221,25,0,220,26,0,200,27,0,200,28,0,200,29,0,200,30,0,200,31,0,200,32,0,221,194,0,621,195,0,621,196,0,620,199,0,621*6A
$PAIRSAT,2,24,65,0,200,66,0,200,67,0,200,68,0,200,69,0,200,70,0,200,71,0,201,72,0,200,73,0,201,74,0,200,75,0,200,76,0,200,77,0,200,78,0,200,79,0,201,80,0,201,81,0,200,82,0,200,83,0,200,84,0,200,85,0,201,86,0,201,87,0,200,88,0,200*7A
$PAIRSAT,3,23,2,0,1221,3,0,1221,4,0,1200,5,0,200,7,0,1221,8,0,1221,9,0,1200,10,0,1200,11,0,1200,12,0,1200,13,0,1221,15,0,1221,19,0,1200,21,0,1200,24,0,1200,25,0,1200,26,0,1221,27,0,1200,30,0,1221,31,0,1200,33,0,1200,34,0,1200,36,0,1200*6A
$PAIRSAT,4,50,1,0,200,2,0,200,3,0,200,4,0,200,5,0,200,6,0,201,7,0,200,8,0,201,9,0,201,10,0,200,11,0,200,12,0,200,13,0,201,14,0,200,15,0,200,16,0,201,19,0,621,20,0,621,21,0,600,22,0,621,23,0,600,24,0,600,25,0,600,26,0,600,27,0,600,28,0,600,29,0,621,30,0,600,31,0,200,32,0,600,33,0,600,34,0,600,35,0,621,36,0,621,37,0,621,38,0,621,39,0,621,40,0,600,41,0,600,42,0,600,43,0,600,44,0,600,45,0,600,46,0,621,56,0,200,57,0,200,58,0,200,59,0,600,60,0,600,61,0,600*41
$PAIRDGP,10,5,10,12,15,18,23,24,25,28,32*45
$GNGGA,114554.200,2500.8206641,N,12132.4629059,E,4,62,0.48,16.061,M,15.25,M,1,3335*47
$GNRMC,114554.200,A,2500.8206641,N,12132.4629059,E,0.01,198.18,260623,,,R,V*1E
$GPHDT,91.113,T*0E
$GNACCURACY,2.3*17
$GNGGA,114554.300,2500.8206679,N,12132.4629079,E,4,62,0.48,16.053,M,15.25,M,1,3335*4E
$GNRMC,114554.300,A,2500.8206679,N,12132.4629079,E,0.01,198.18,260623,,,R,V*16
$GPHDT,,T*1B
$GNACCURACY,2.3*17
$GNGGA,114554.400,2500.8206643,N,12132.4629063,E,4,63,0.45,16.053,M,15.25,M,1,3335*47
$GNRMC,114554.400,A,2500.8206643,N,12132.4629063,E,0.01,198.18,260623,,,R,V*13
$GPHDT,91.404,T*0D
$GNACCURACY,2.3*17
$GNGGA,114554.500,2500.8206626,N,12132.4629036,E,4,63,0.45,16.060,M,15.25,M,1,3335*45
$GNRMC,114554.500,A,2500.8206626,N,12132.4629036,E,0.01,198.18,260623,,,R,V*11
$GPHDT,,T*1B
$GNACCURACY,2.3*17
$GNGGA,114554.600,2500.8206633,N,12132.4629037,E,4,62,0.47,16.056,M,15.25,M,1,3335*45
$GNRMC,114554.600,A,2500.8206633,N,12132.4629037,E,0.00,198.18,260623,,,R,V*16
$GPHDT,92.640,T*0C
$GNACCURACY,2.3*17
$GNGGA,114554.700,2500.8206630,N,12132.4629026,E,4,63,0.45,16.057,M,15.25,M,1,3335*45
$GNRMC,114554.700,A,2500.8206630,N,12132.4629026,E,0.01,198.18,260623,,,R,V*15
$GPHDT,,T*1B
$GNACCURACY,2.3*17
$GNGGA,114554.800,2500.8206629,N,12132.4629041,E,4,62,0.47,16.063,M,15.25,M,1,3335*47
$GNRMC,114554.800,A,2500.8206629,N,12132.4629041,E,0.01,198.18,260623,,,R,V*13
$GPHDT,92.559,T*07
$GNACCURACY,2.3*17
$GNGGA,114554.900,2500.8206662,N,12132.4629036,E,4,62,0.47,16.046,M,15.25,M,1,3335*4E
$GNRMC,114554.900,A,2500.8206662,N,12132.4629036,E,0.02,198.18,260623,,,R,V*1E
$GPHDT,,T*1B
$GNACCURACY,2.3*17
$GNGGA,114555.000,2500.8206658,N,12132.4629018,E,4,62,0.47,16.043,M,15.25,M,2,3335*45
$GNRMC,114555.000,A,2500.8206658,N,12132.4629018,E,0.02,198.18,260623,,,R,V*13
$GPHDT,92.705,T*0C
$GNACCURACY,2.3*17
$GNGGA,114555.100,2500.8206651,N,12132.4629069,E,4,61,0.48,16.054,M,15.25,M,2,3335*41
$GNRMC,114555.100,A,2500.8206651,N,12132.4629069,E,0.02,198.18,260623,,,R,V*1D
$GPHDT,,T*1B
$GNGSA,A,3,196,24,199,23,18,194,195,12,10,25,32,,0.73,0.45,0.57,1*02
$GNGSA,A,3,73,80,86,85,71,,,,,,,,0.73,0.45,0.57,2*0C
$GNGSA,A,3,13,07,08,26,30,02,15,,,,,,0.73,0.45,0.57,3*08
$GNGSA,A,3,08,38,13,39,16,06,19,09,36,20,35,37,0.73,0.45,0.57,4*0D
$GNGSA,A,3,22,29,46,,,,,,,,,,0.73,0.45,0.57,4*0A
$GPGSV,4,1,16,196,75,071,38,24,64,035,44,199,60,167,39,23,59,344,15,1*62
$GPGSV,4,2,16,18,53,231,45,41,38,242,39,194,34,136,45,15,32,056,19,1*5B
$GPGSV,4,3,16,195,31,179,23,12,26,134,40,10,25,322,33,25,15,172,23,1*53
$GPGSV,4,4,16,05,13,125,18,32,13,277,40,13,03,063,,28,01,221,,1*60
$GPGSV,3,1,10,196,75,071,45,24,64,035,50,199,60,167,47,23,59,344,33,8*68
$GPGSV,3,2,10,18,53,231,46,194,34,136,44,195,31,179,29,10,25,322,25,8*66
$GPGSV,3,3,10,25,15,172,23,32,13,277,37,8*6F
$GLGSV,2,1,08,73,48,154,44,80,46,060,25,70,41,023,,86,28,290,41,1*79
$GLGSV,2,2,08,85,28,236,28,71,26,324,35,69,10,083,18,79,04,027,21,1*7B
$GAGSV,2,1,08,13,50,223,35,07,45,313,40,08,44,033,16,26,35,299,40,7*72
$GAGSV,2,2,08,30,32,138,42,02,27,077,18,15,16,173,20,03,07,070,,7*7C
$GAGSV,2,1,07,13,50,223,45,07,45,313,46,08,44,033,34,26,35,299,42,1*78
$GAGSV,2,2,07,30,32,138,39,02,27,077,16,15,16,173,23,1*47
$GBGSV,4,1,16,08,84,353,38,38,82,149,42,13,71,325,45,39,69,294,44,1*7E
$GBGSV,4,2,16,16,66,269,42,06,64,265,41,46,62,094,18,19,53,355,40,1*70
$GBGSV,4,3,16,09,50,246,43,56,47,316,,36,43,183,38,20,40,073,28,1*72
$GBGSV,4,4,16,35,18,261,41,37,17,043,29,22,16,307,34,29,14,206,27,1*7B
$GBGSV,2,1,08,38,82,149,45,39,69,294,43,46,62,094,29,19,53,355,31,4*76
$GBGSV,2,2,08,36,43,183,45,20,40,073,26,35,18,261,33,22,16,307,32,4*7C
$GNACCURACY,2.3*17
$PAIRSAT,1,35,1,0,200,2,0,200,3,0,200,4,0,200,5,0,201,6,0,200,7,0,200,8,0,200,9,0,200,10,0,221,11,0,200,12,0,201,13,0,201,14,0,200,15,0,201,16,0,200,17,0,200,18,0,221,19,0,200,20,0,200,21,0,200,23,0,221,24,0,221,25,0,220,26,0,200,27,0,200,28,0,200,29,0,200,30,0,200,31,0,200,32,0,221,194,0,621,195,0,621,196,0,620,199,0,621*6A
$PAIRSAT,2,24,65,0,200,66,0,200,67,0,200,68,0,200,69,0,200,70,0,200,71,0,201,72,0,200,73,0,201,74,0,200,75,0,200,76,0,200,77,0,200,78,0,200,79,0,201,80,0,201,81,0,200,82,0,200,83,0,200,84,0,200,85,0,201,86,0,201,87,0,200,88,0,200*7A
$PAIRSAT,3,23,2,0,1221,3,0,1221,4,0,1200,5,0,200,7,0,1221,8,0,1221,9,0,1200,10,0,1200,11,0,1200,12,0,1200,13,0,1221,15,0,1221,19,0,1200,21,0,1200,24,0,1200,25,0,1200,26,0,1221,27,0,1200,30,0,1221,31,0,1200,33,0,1200,34,0,1200,36,0,1200*6A
$PAIRSAT,4,50,1,0,200,2,0,200,3,0,200,4,0,200,5,0,200,6,0,201,7,0,200,8,0,201,9,0,201,10,0,200,11,0,200,12,0,200,13,0,201,14,0,200,15,0,200,16,0,201,19,0,621,20,0,621,21,0,600,22,0,621,23,0,600,24,0,600,25,0,600,26,0,600,27,0,600,28,0,600,29,0,621,30,0,600,31,0,200,32,0,600,33,0,600,34,0,600,35,0,621,36,0,621,37,0,621,38,0,621,39,0,621,40,0,600,41,0,600,42,0,600,43,0,600,44,0,600,45,0,600,46,0,621,56,0,200,57,0,200,58,0,200,59,0,600,60,0,600,61,0,600*41
$PAIRDGP,10,5,10,12,15,18,23,24,25,28,32*45
$GNGGA,114555.200,2500.8206633,N,12132.4629032,E,4,62,0.45,16.064,M,15.25,M,2,3335*45
$GNRMC,114555.200,A,2500.8206633,N,12132.4629032,E,0.02,198.18,260623,,,R,V*14
$GPHDT,92.683,T*03
$GNACCURACY,2.3*17
$GNGGA,114555.300,2500.8206639,N,12132.4629041,E,4,62,0.45,16.051,M,15.25,M,2,3335*4C
$GNRMC,114555.300,A,2500.8206639,N,12132.4629041,E,0.02,198.18,260623,,,R,V*1B
$GPHDT,,T*1B
$GNACCURACY,2.3*17
$GNGGA,114555.400,2500.8206665,N,12132.4629033,E,4,62,0.45,16.047,M,15.25,M,2,3335*40
$GNRMC,114555.400,A,2500.8206665,N,12132.4629033,E,0.02,198.18,260623,,,R,V*10
$GPHDT,92.804,T*02
$GNACCURACY,2.3*17
$GNGGA,114555.500,2500.8206660,N,12132.4629032,E,4,62,0.45,16.047,M,15.25,M,2,3335*45
$GNRMC,114555.500,A,2500.8206660,N,12132.4629032,E,0.03,198.18,260623,,,R,V*14
$GPHDT,,T*1B
$GNACCURACY,2.3*17
$GNGGA,114555.600,2500.8206642,N,12132.4629048,E,4,62,0.45,16.064,M,15.25,M,2,3335*4A
$GNRMC,114555.600,A,2500.8206642,N,12132.4629048,E,0.02,198.18,260623,,,R,V*1B
$GPHDT,92.645,T*09
$GNACCURACY,2.3*17
$GNGGA,114555.700,2500.8206653,N,12132.4629034,E,4,61,0.48,16.053,M,15.25,M,2,3335*4A
$GNRMC,114555.700,A,2500.8206653,N,12132.4629034,E,0.02,198.18,260623,,,R,V*11
$GPHDT,,T*1B
$GNACCURACY,2.3*17
$GNGGA,114555.800,2500.8206637,N,12132.4629041,E,4,61,0.48,16.061,M,15.25,M,2,3335*44
$GNRMC,114555.800,A,2500.8206637,N,12132.4629041,E,0.02,198.18,260623,,,R,V*1E
$GPHDT,92.773,T*0D
$GNACCURACY,2.3*17
$GNGGA,114555.900,2500.8206641,N,12132.4629019,E,4,61,0.48,16.058,M,15.25,M,2,3335*43
$GNRMC,114555.900,A,2500.8206641,N,12132.4629019,E,0.02,198.18,260623,,,R,V*13
$GPHDT,,T*1B
$GNACCURACY,2.3*17
$GNGGA,114556.000,2500.8206634,N,12132.4629018,E,4,61,0.48,16.062,M,15.25,M,3,3335*42
$GNRMC,114556.000,A,2500.8206634,N,12132.4629018,E,0.02,198.18,260623,,,R,V*1A
$GPHDT,92.668,T*06
$GNACCURACY,2.3*17
$GNGGA,114556.100,2500.8206636,N,12132.4629026,E,4,62,0.45,16.065,M,15.25,M,3,3335*45
$GNRMC,114556.100,A,2500.8206636,N,12132.4629026,E,0.02,198.18,260623,,,R,V*14
$GPHDT,,T*1B
$GNGSA,A,3,196,24,199,23,18,194,195,12,10,25,32,,0.73,0.45,0.57,1*02
$GNGSA,A,3,73,80,85,86,71,,,,,,,,0.73,0.45,0.57,2*0C
$GNGSA,A,3,13,07,08,26,30,02,15,,,,,,0.73,0.45,0.57,3*08
$GNGSA,A,3,08,38,13,39,16,06,19,09,36,20,35,37,0.73,0.45,0.57,4*0D
$GNGSA,A,3,22,29,46,,,,,,,,,,0.73,0.45,0.57,4*0A
$GPGSV,4,1,16,196,75,071,38,24,64,035,44,199,60,167,39,23,59,344,15,1*62
$GPGSV,4,2,16,18,53,231,45,41,38,242,39,194,34,136,45,15,32,056,20,1*51
$GPGSV,4,3,16,195,31,179,21,12,26,134,40,10,25,322,33,25,15,172,24,1*56
$GPGSV,4,4,16,05,13,125,18,32,13,277,40,13,03,063,,28,01,221,,1*60
$GPGSV,3,1,10,196,75,071,45,24,64,035,50,199,60,167,47,23,59,344,33,8*68
$GPGSV,3,2,10,18,53,231,46,194,34,136,44,195,31,179,29,10,25,322,26,8*65
$GPGSV,3,3,10,25,15,172,22,32,13,277,37,8*6E
$GLGSV,3,1,09,73,48,154,44,80,46,060,26,70,41,023,,85,28,236,28,1*7A
$GLGSV,3,2,09,86,28,290,41,71,26,324,35,74,11,186,,69,10,083,18,1*7B
$GLGSV,3,3,09,79,04,027,21,1*4D
$GAGSV,3,1,09,13,50,223,36,07,45,313,40,08,44,033,17,26,35,299,40,7*70
$GAGSV,3,2,09,30,32,138,42,02,27,077,18,15,16,173,20,03,07,070,,7*7C
$GAGSV,3,3,09,27,06,185,,7*45
$GAGSV,2,1,07,13,50,223,45,07,45,313,46,08,44,033,34,26,35,299,42,1*78
$GAGSV,2,2,07,30,32,138,39,02,27,077,13,15,16,173,25,1*44
$GBGSV,4,1,16,08,84,353,38,38,82,149,42,13,71,325,45,39,69,294,44,1*7E
$GBGSV,4,2,16,16,66,269,42,06,64,265,41,46,62,094,17,19,53,355,40,1*7F
$GBGSV,4,3,16,09,50,246,43,56,47,316,,36,43,183,38,20,40,073,29,1*73
$GBGSV,4,4,16,35,18,261,40,37,17,043,29,22,16,307,34,29,14,206,27,1*7A
$GBGSV,2,1,08,38,82,149,45,39,69,294,43,46,62,094,29,19,53,355,31,4*76
$GBGSV,2,2,08,36,43,183,45,20,40,073,26,35,18,261,33,22,16,307,32,4*7C
$GNACCURACY,2.3*17
$PAIRSAT,1,35,1,0,200,2,0,200,3,0,200,4,0,200,5,0,201,6,0,200,7,0,200,8,0,200,9,0,200,10,0,221,11,0,200,12,0,201,13,0,201,14,0,200,15,0,201,16,0,200,17,0,200,18,0,221,19,0,200,20,0,200,21,0,200,23,0,221,24,0,221,25,0,220,26,0,200,27,0,200,28,0,200,29,0,200,30,0,200,31,0,200,32,0,221,194,0,621,195,0,621,196,0,620,199,0,621*6A
$PAIRSAT,2,24,65,0,200,66,0,200,67,0,200,68,0,200,69,0,200,70,0,200,71,0,201,72,0,200,73,0,201,74,0,200,75,0,200,76,0,200,77,0,200,78,0,200,79,0,201,80,0,201,81,0,200,82,0,200,83,0,200,84,0,200,85,0,201,86,0,201,87,0,200,88,0,200*7A
$PAIRSAT,3,23,2,0,1221,3,0,1221,4,0,1200,5,0,200,7,0,1221,8,0,1221,9,0,1200,10,0,1200,11,0,1200,12,0,1200,13,0,1221,15,0,1221,19,0,1200,21,0,1200,24,0,1200,25,0,1200,26,0,1221,27,0,1200,30,0,1221,31,0,1200,33,0,1200,34,0,1200,36,0,1200*6A
$PAIRSAT,4,50,1,0,200,2,0,200,3,0,200,4,0,200,5,0,200,6,0,201,7,0,200,8,0,201,9,0,201,10,0,200,11,0,200,12,0,200,13,0,201,14,0,200,15,0,200,16,0,201,19,0,621,20,0,621,21,0,600,22,0,621,23,0,600,24,0,600,25,0,600,26,0,600,27,0,600,28,0,600,29,0,621,30,0,600,31,0,200,32,0,600,33,0,600,34,0,600,35,0,621,36,0,621,37,0,621,38,0,621,39,0,621,40,0,600,41,0,600,42,0,600,43,0,600,44,0,600,45,0,600,46,0,621,56,0,200,57,0,200,58,0,200,59,0,600,60,0,600,61,0,600*41
$PAIRDGP,10,5,10,12,15,18,23,24,25,28,32*45
$GNGGA,114556.200,2500.8206662,N,12132.4629022,E,4,62,0.45,16.055,M,15.25,M,3,3335*40
$GNRMC,114556.200,A,2500.8206662,N,12132.4629022,E,0.01,198.18,260623,,,R,V*11
$GPHDT,92.876,T*07
$GNACCURACY,2.3*17
$GNGGA,114556.300,2500.8206654,N,12132.4629041,E,4,62,0.45,16.056,M,15.25,M,3,3335*42
$GNRMC,114556.300,A,2500.8206654,N,12132.4629041,E,0.01,198.18,260623,,,R,V*10
$GPHDT,,T*1B
$GNACCURACY,2.3*17
$GNGGA,114556.400,2500.8206656,N,12132.4629021,E,4,62,0.47,16.054,M,15.25,M,3,3335*41
$GNRMC,114556.400,A,2500.8206656,N,12132.4629021,E,0.01,198.18,260623,,,R,V*13
$GPHDT,92.703,T*0A
$GNACCURACY,2.3*17
$GNGGA,114556.500,2500.8206630,N,12132.4628998,E,4,62,0.47,16.065,M,15.25,M,3,3335*48
$GNRMC,114556.500,A,2500.8206630,N,12132.4628998,E,0.00,198.18,260623,,,R,V*19
$GPHDT,,T*1B
$GNACCURACY,2.3*17
$GNGGA,114556.600,2500.8206628,N,12132.4629025,E,4,62,0.47,16.058,M,15.25,M,3,3335*42
$GNRMC,114556.600,A,2500.8206628,N,12132.4629025,E,0.01,198.18,260623,,,R,V*1C
$GPHDT,92.203,T*0F
$GNACCURACY,2.3*17
$GNGGA,114556.700,2500.8206657,N,12132.4629004,E,4,63,0.45,16.053,M,15.25,M,3,3335*40
$GNRMC,114556.700,A,2500.8206657,N,12132.4629004,E,0.01,198.18,260623,,,R,V*16
$GPHDT,,T*1B
$GNACCURACY,2.3*17
$GNGGA,114556.800,2500.8206687,N,12132.4629002,E,4,63,0.45,16.036