$FW : RTK35X,V1.1X0314AS,Lib20210517,1*54
$Tool : LOCOSYS , GNSS Firebird , v1.0.0.19*39
$---------------------------------------------------*2D
0,0,600,41,0,600,42,0,600,43,0,600,44,0,600,45,0,600,46,0,621,56,0,200,57,0,200,58,0,200,59,0,600,60,0,600,61,0,600*41
$PAIRDGP,10,5,10,12,15,18,23,24,25,28,32*45
$GNGGA,114454.200,2500.8206407,N,12132.4628889,E,4,62,0.45,16.070,M,15.25,M,1,3335*4F
$GNRMC,114454.200,A,2500.8206407,N,12132.4628889,E,0.02,198.18,260623,,,R,V*18
$GPHDT,,T*1B
$GNACCURACY,2.3*17
$GNGGA,114454.300,2500.8206505,N,12132.4628959,E,4,62,0.45,16.042,M,15.25,M,1,3335*40
$GNRMC,114454.300,A,2500.8206505,N,12132.4628959,E,0.02,198.18,260623,,,R,V*16
$GPHDT,,T*1B
$GNACCURACY,2.3*17
$GNGGA,114454.400,2500.8206478,N,12132.4628928,E,4,62,0.45,16.049,M,15.25,M,1,3335*41
$GNRMC,114454.400,A,2500.8206478,N,12132.4628928,E,0.02,198.18,260623,,,R,V*1C
$GPHDT,,T*1B
$GNACCURACY,2.3*17
$GNGGA,114454.500,2500.8206491,N,12132.4628941,E,4,62,0.45,16.042,M,15.25,M,1,3335*43
$GNRMC,114454.500,A,2500.8206491,N,12132.4628941,E,0.02,198.18,260623,,,R,V*15
$GPHDT,,T*1B
$GNACCURACY,2.3*17
$GNGGA,114454.600,2500.8206498,N,12132.4628934,E,4,62,0.45,16.047,M,15.25,M,1,3335*4E
$GNRMC,114454.600,A,2500.8206498,N,12132.4628934,E,0.02,198.18,260623,,,R,V*1D
$GPHDT,,T*1B
$GNACCURACY,2.3*17
$GNGGA,114454.700,2500.8206471,N,12132.4628908,E,4,62,0.45,16.048,M,15.25,M,0,3335*49
$GNRMC,114454.700,A,2500.8206471,N,12132.4628908,E,0.02,198.18,260623,,,R,V*14
$GPHDT,,T*1B
$GNACCURACY,2.3*17
$GNGGA,114454.800,2500.8206520,N,12132.4628954,E,4,62,0.45,16.038,M,15.25,M,0,3335*4D
$GNRMC,114454.800,A,2500.8206520,N,12132.4628954,E,0.02,198.18,260623,,,R,V*17
$GPHDT,,T*1B
$GNACCURACY,2.3*17
$GNGGA,114454.900,2500.8206511,N,12132.4628954,E,4,62,0.45,16.041,M,15.25,M,0,3335*40
$GNRMC,114454.900,A,2500.8206511,N,12132.4628954,E,0.02,198.18,260623,,,R,V*14
$GPHDT,,T*1B
$GNACCURACY,2.3*17
$GNGGA,114455.000,2500.8206506,N,12132.4628939,E,4,62,0.45,16.036,M,15.25,M,1,3335*44
$GNRMC,114455.000,A,2500.8206506,N,12132.4628939,E,0.02,198.18,260623,,,R,V*11
$GPHDT,,T*1B
$GNACCURACY,2.3*17
$GNGGA,114455.100,2500.8206500,N,12132.4628924,E,4,62,0.45,16.035,M,15.25,M,1,3335*4C
$GNRMC,114455.100,A,2500.8206500,N,12132.4628924,E,0.02,198.18,260623,,,R,V*1A
$GPHDT,,T*1B
$GNGSA,A,3,196,24,199,18,194,15,195,12,10,32,23,,0.80,0.45,0.66,1*0F
$GNGSA,A,3,73,80,85,86,71,69,,,,,,,0.80,0.45,0.66,2*0D
$GNGSA,A,3,13,07,08,26,30,15,,,,,,,0.80,0.45,0.66,3*04
$GNGSA,A,3,08,38,13,39,16,06,46,19,09,36,20,35,0.80,0.45,0.66,4*05
$GNGSA,A,3,37,22,29,,,,,,,,,,0.80,0.45,0.66,4*02
$GPGSV,4,1,16,196,75,071,40,24,65,035,45,199,60,167,39,23,58,344,14,1*6D
$GPGSV,4,2,16,18,53,232,34,41,38,242,34,194,34,137,45,15,33,055,30,1*5B
$GPGSV,4,3,16,195,31,179,29,12,26,134,42,10,24,322,36,25,15,172,14,1*5B
$GPGSV,4,4,16,05,13,125,22,32,13,276,40,13,04,063,,28,01,220,,1*6E
$GPGSV,3,1,09,196,75,071,45,24,65,035,48,199,60,167,47,23,58,344,39,8*63
$GPGSV,3,2,09,18,53,232,35,194,34,137,46,195,31,179,33,10,24,322,32,8*66
$GPGSV,3,3,09,32,13,276,38,8*5F
$GLGSV,2,1,08,73,48,154,42,80,46,061,26,70,41,023,,85,29,237,28,1*7D
$GLGSV,2,2,08,86,28,291,41,71,25,323,37,69,10,083,16,79,05,027,16,1*77
$GAGSV,3,1,09,13,50,223,30,07,45,312,42,08,44,033,27,26,35,299,41,7*77
$GAGSV,3,2,09,30,31,138,40,02,27,078,,15,16,173,22,03,07,070,,7*79
$GAGSV,3,3,09,27,06,185,,7*45
$GAGSV,2,1,06,13,50,223,37,07,45,312,44,08,44,033,33,26,35,299,41,1*7B
$GAGSV,2,2,06,30,31,138,43,15,16,173,25,1*7E
$GBGSV,4,1,15,08,83,354,39,38,82,147,43,13,71,326,44,39,69,294,45,1*70
$GBGSV,4,2,15,16,66,269,44,06,65,264,42,46,62,095,23,19,52,355,37,1*7E
$GBGSV,4,3,15,09,50,245,35,36,43,183,39,20,41,073,26,35,19,261,41,1*77
$GBGSV,4,4,15,37,17,043,28,22,15,307,37,29,14,206,25,1*44
$GBGSV,3,1,10,38,82,147,46,39,69,294,44,46,62,095,21,19,52,355,27,4*7B
$GBGSV,3,2,10,36,43,183,41,20,41,073,28,35,19,261,35,37,17,043,23,4*7E
$GBGSV,3,3,10,22,15,307,35,29,14,206,19,4*76
$GNACCURACY,2.3*17
$PAIRSAT,1,35,1,0,200,2,0,200,3,0,200,4,0,200,5,0,201,6,0,200,7,0,200,8,0,200,9,0,200,10,0,221,11,0,200,12,0,201,13,0,201,14,0,200,15,0,201,16,0,200,17,0,200,18,0,221,19,0,200,20,0,200,21,0,200,23,0,221,24,0,221,25,0,200,26,0,200,27,0,200,28,0,200,29,0,200,30,0,200,31,0,200,32,0,221,194,0,621,195,0,621,196,0,620,199,0,621*68
$PAIRSAT,2,24,65,0,200,66,0,200,67,0,200,68,0,200,69,0,201,70,0,201,71,0,201,72,0,200,73,0,201,74,0,200,75,0,200,76,0,200,77,0,200,78,0,200,79,0,201,80,0,201,81,0,200,82,0,200,83,0,200,84,0,200,85,0,201,86,0,201,87,0,200,88,0,200*7A
$PAIRSAT,3,23,2,0,1221,3,0,1221,4,0,1200,5,0,200,7,0,1221,8,0,1221,9,0,1200,10,0,1200,11,0,1200,12,0,1200,13,0,1221,15,0,1221,19,0,1200,21,0,1200,24,0,1200,25,0,1200,26,0,1221,27,0,1200,30,0,1221,31,0,1200,33,0,1200,34,0,1200,36,0,1200*6A
$PAIRSAT,4,50,1,0,200,2,0,200,3,0,200,4,0,200,5,0,200,6,0,201,7,0,200,8,0,201,9,0,201,10,0,200,11,0,200,12,0,200,13,0,201,14,0,200,15,0,200,16,0,201,19,0,621,20,0,621,21,0,600,22,0,621,23,0,600,24,0,600,25,0,600,26,0,600,27,0,600,28,0,600,29,0,621,30,0,600,31,0,200,32,0,600,33,0,600,34,0,600,35,0,621,36,0,621,37,0,621,38,0,621,39,0,621,40,0,600,41,0,600,42,0,600,43,0,600,44,0,600,45,0,600,46,0,621,56,0,200,57,0,200,58,0,200,59,0,600,60,0,600,61,0,600*41
$PAIRDGP,10,5,10,12,15,18,23,24,25,28,32*45
$GNGGA,114455.200,2500.8206501,N,12132.4628955,E,4,62,0.45,16.038,M,15.25,M,1,3335*45
$GNRMC,114455.200,A,2500.8206501,N,12132.4628955,E,0.02,198.18,260623,,,R,V*1E
$GPHDT,,T*1B
$GNACCURACY,2.3*17
$GNGGA,114455.300,2500.8206496,N,12132.4628926,E,4,63,0.45,16.039,M,15.25,M,1,3335*4F
$GNRMC,114455.300,A,2500.8206496,N,12132.4628926,E,0.02,198.18,260623,,,R,V*14
$GPHDT,,T*1B
$GNACCURACY,2.3*17
$GNGGA,114455.400,2500.8206513,N,12132.4628940,E,4,63,0.45,16.039,M,15.25,M,1,3335*44
$GNRMC,114455.400,A,2500.8206513,N,12132.4628940,E,0.02,198.18,260623,,,R,V*1F
$GPHDT,,T*1B
$GNACCURACY,2.3*17
$GNGGA,114455.500,2500.8206505,N,12132.4628930,E,4,62,0.45,16.040,M,15.25,M,1,3335*4A
$GNRMC,114455.500,A,2500.8206505,N,12132.4628930,E,0.02,198.18,260623,,,R,V*1E
$GPHDT,,T*1B
$GNACCURACY,2.3*17
$GNGGA,114455.600,2500.8206461,N,12132.4628873,E,4,63,0.45,16.059,M,15.25,M,1,3335*45
$GNRMC,114455.600,A,2500.8206461,N,12132.4628873,E,0.02,198.18,260623,,,R,V*18
$GPHDT,,T*1B
$GNACCURACY,2.3*17
$GNGGA,114455.700,2500.8206493,N,12132.4628910,E,4,62,0.45,16.055,M,15.25,M,1,3335*40
$GNRMC,114455.700,A,2500.8206493,N,12132.4628910,E,0.02,198.18,260623,,,R,V*10
$GPHDT,,T*1B
$GNACCURACY,2.3*17
$GNGGA,114455.800,2500.8206455,N,12132.4628876,E,4,62,0.45,16.056,M,15.25,M,1,3335*47
$GNRMC,114455.800,A,2500.8206455,N,12132.4628876,E,0.02,198.18,260623,,,R,V*14
$GPHDT,,T*1B
$GNACCURACY,2.3*17
$GNGGA,114455.900,2500.8206466,N,12132.4628878,E,4,60,0.47,16.053,M,15.25,M,1,3335*4D
$GNRMC,114455.900,A,2500.8206466,N,12132.4628878,E,0.02,198.18,260623,,,R,V*1B
$GPHDT,,T*1B
$GNACCURACY,2.3*17
$GNGGA,114456.000,2500.8206470,N,12132.4628878,E,4,61,0.47,16.060,M,15.25,M,2,3335*42
$GNRMC,114456.000,A,2500.8206470,N,12132.4628878,E,0.02,198.18,260623,,,R,V*16
$GPHDT,,T*1B
$GNACCURACY,2.3*17
$GNGGA,114456.100,2500.8206474,N,12132.4628879,E,4,63,0.45,16.056,M,15.25,M,2,3335*43
$GNRMC,114456.100,A,2500.8206474,N,12132.4628879,E,0.02,198.18,260623,,,R,V*12
$GPHDT,,T*1B
$GNGSA,A,3,196,24,199,23,18,194,15,195,12,10,32,,0.80,0.45,0.66,1*0F
$GNGSA,A,3,73,80,85,86,71,69,,,,,,,0.80,0.45,0.66,2*0D
$GNGSA,A,3,13,07,08,26,30,15,,,,,,,0.80,0.45,0.66,3*04
$GNGSA,A,3,08,38,13,39,16,06,46,19,09,36,20,35,0.80,0.45,0.66,4*05
$GNGSA,A,3,37,22,29,,,,,,,,,,0.80,0.45,0.66,4*02
$GPGSV,4,1,16,196,75,071,40,24,65,035,45,199,60,167,38,23,58,344,21,1*6A
$GPGSV,4,2,16,18,53,232,35,41,38,242,36,194,34,137,45,15,33,055,29,1*50
$GPGSV,4,3,16,195,31,179,27,12,26,134,42,10,24,322,36,25,15,172,14,1*55
$GPGSV,4,4,16,05,13,125,23,32,13,276,39,13,04,063,,28,01,220,,1*61
$GPGSV,3,1,09,196,75,071,45,24,65,035,48,199,60,167,47,23,58,344,39,8*63
$GPGSV,3,2,09,18,53,232,32,194,34,137,46,195,31,179,33,10,24,322,33,8*60
$GPGSV,3,3,09,32,13,276,40,8*50
$GLGSV,2,1,08,73,48,154,43,80,46,061,26,70,41,023,,85,29,237,29,1*7D
$GLGSV,2,2,08,86,28,291,42,71,25,323,36,69,10,083,15,79,05,027,14,1*74
$GAGSV,3,1,09,13,50,223,29,07,45,312,42,08,44,033,27,26,35,299,41,7*7F
$GAGSV,3,2,09,30,31,138,40,02,27,078,,15,16,173,21,03,07,070,,7*7A
$GAGSV,3,3,09,27,06,185,,7*45
$GAGSV,2,1,06,13,50,223,36,07,45,312,44,08,44,033,33,26,35,299,40,1*7B
$GAGSV,2,2,06,30,31,138,43,15,16,173,25,1*7E
$GBGSV,4,1,16,08,83,354,39,38,82,147,43,13,71,326,44,39,69,294,45,1*73
$GBGSV,4,2,16,16,66,269,44,06,65,264,42,46,62,095,24,19,52,355,37,1*7A
$GBGSV,4,3,16,09,50,245,36,36,43,183,39,20,41,073,26,35,19,261,41,1*77
$GBGSV,4,4,16,37,17,043,29,22,15,307,37,29,14,206,24,07,05,191,,1*7C
$GBGSV,3,1,10,38,82,147,47,39,69,294,44,46,62,095,21,19,52,355,27,4*7A
$GBGSV,3,2,10,36,43,183,42,20,41,073,29,35,19,261,35,37,17,043,21,4*7E
$GBGSV,3,3,10,22,15,307,35,29,14,206,20,4*7C
$GNACCURACY,2.3*17
$PAIRSAT,1,35,1,0,200,2,0,200,3,0,200,4,0,200,5,0,201,6,0,200,7,0,200,8,0,200,9,0,200,10,0,221,11,0,200,12,0,201,13,0,201,14,0,200,15,0,201,16,0,200,17,0,200,18,0,221,19,0,200,20,0,200,21,0,200,23,0,221,24,0,221,25,0,200,26,0,200,27,0,200,28,0,200,29,0,200,30,0,200,31,0,200,32,0,221,194,0,621,195,0,621,196,0,620,199,0,621*68
$PAIRSAT,2,24,65,0,200,66,0,200,67,0,200,68,0,200,69,0,201,70,0,201,71,0,201,72,0,200,73,0,201,74,0,200,75,0,200,76,0,200,77,0,200,78,0,200,79,0,201,80,0,201,81,0,200,82,0,200,83,0,200,84,0,200,85,0,201,86,0,201,87,0,200,88,0,200*7A
$PAIRSAT,3,23,2,0,1221,3,0,1221,4,0,1200,5,0,200,7,0,1221,8,0,1221,9,0,1200,10,0,1200,11,0,1200,12,0,1200,13,0,1221,15,0,1221,19,0,1200,21,0,1200,24,0,1200,25,0,1200,26,0,1221,27,0,1200,30,0,1221,31,0,1200,33,0,1200,34,0,1200,36,0,1200*6A
$PAIRSAT,4,50,1,0,200,2,0,200,3,0,200,4,0,200,5,0,200,6,0,201,7,0,200,8,0,201,9,0,201,10,0,200,11,0,200,12,0,200,13,0,201,14,0,200,15,0,200,16,0,201,19,0,621,20,0,621,21,0,600,22,0,621,23,0,600,24,0,600,25,0,600,26,0,600,27,0,600,28,0,600,29,0,621,30,0,600,31,0,200,32,0,600,33,0,600,34,0,600,35,0,621,36,0,621,37,0,621,38,0,621,39,0,621,40,0,600,41,0,600,42,0,600,43,0,600,44,0,600,45,0,600,46,0,621,56,0,200,57,0,200,58,0,200,59,0,600,60,0,600,61,0,600*41
$PAIRDGP,10,5,10,12,15,18,23,24,25,28,32*45
$GNGGA,114456.200,2500.8206477,N,12132.4628885,E,4,63,0.45,16.054,M,15.25,M,2,3335*42
$GNRMC,114456.200,A,2500.8206477,N,12132.4628885,E,0.02,198.18,260623,,,R,V*11
$GPHDT,,T*1B
$GNACCURACY,2.3*17
$GNGGA,114456.300,2500.8206463,N,12132.4628884,E,4,63,0.45,16.057,M,15.25,M,2,3335*44
$GNRMC,114456.300,A,2500.8206463,N,12132.4628884,E,0.02,198.18,260623,,,R,V*14
$GPHDT,,T*1B
$GNACCURACY,2.3*17
$GNGGA,114456.400,2500.8206475,N,12132.4628878,E,4,63,0.45,16.056,M,15.25,M,2,3335*46
$GNRMC,114456.400,A,2500.8206475,N,12132.4628878,E,0.03,198.18,260623,,,R,V*16
$GPHDT,,T*1B
$GNACCURACY,2.3*17
$GNGGA,114456.500,2500.8206464,N,12132.4628860,E,4,62,0.47,16.060,M,15.25,M,2,3335*48
$GNRMC,114456.500,A,2500.8206464,N,12132.4628860,E,0.02,198.18,260623,,,R,V*1F
$GPHDT,,T*1B
$GNACCURACY,2.4*10
$GNGGA,114456.600,2500.8206458,N,12132.4628894,E,4,62,0.47,16.060,M,15.25,M,2,3335*4F
$GNRMC,114456.600,A,2500.8206458,N,12132.4628894,E,0.02,198.18,260623,,,R,V*18
$GPHDT,,T*1B
$GNACCURACY,2.4*10
$GNGGA,114456.700,2500.8206470,N,12132.4628879,E,4,62,0.47,16.060,M,15.25,M,2,3335*47
$GNRMC,114456.700,A,2500.8206470,N,12132.4628879,E,0.03,198.18,260623,,,R,V*11
$GPHDT,,T*1B
$GNACCURACY,2.4*10
$GNGGA,114456.800,2500.8206463,N,12132.4628857,E,4,62,0.47,16.054,M,15.25,M,2,3335*41
$GNRMC,114456.800,A,2500.8206463,N,12132.4628857,E,0.02,198.18,260623,,,R,V*11
$GPHDT,,T*1B
$GNACCURACY,2.4*10
$GNGGA,114456.900,2500.8206477,N,12132.4628900,E,4,60,0.50,16.056,M,15.25,M,2,3335*40
$GNRMC,114456.900,A,2500.8206477,N,12132.4628900,E,0.02,198.18,260623,,,R,V*16
$GPHDT,,T*1B
$GNACCURACY,2.4*10
$GNGGA,114457.000,2500.8206450,N,12132.4628862,E,4,60,0.50,16.065,M,15.25,M,3,3335*49
$GNRMC,114457.000,A,2500.8206450,N,12132.4628862,E,0.03,198.18,260623,,,R,V*1F
$GPHDT,,T*1B
$GNACCURACY,2.4*10
$GNGGA,114457.100,2500.8206486,N,12132.4628900,E,4,62,0.47,16.055,M,15.25,M,3,3335*41
$GNRMC,114457.100,A,2500.8206486,N,12132.4628900,E,0.03,198.18,260623,,,R,V*10
$GPHDT,,T*1B
$GNGSA,A,3,196,24,199,23,18,194,15,195,12,10,32,,0.85,0.47,0.71,1*0E
$GNGSA,A,3,73,80,85,86,71,,,,,,,,0.85,0.47,0.71,2*03
$GNGSA,A,3,13,07,08,26,30,15,,,,,,,0.85,0.47,0.71,3*05
$GNGSA,A,3,08,38,13,39,16,06,46,19,09,36,20,35,0.85,0.47,0.71,4*04
$GNGSA,A,3,37,22,29,,,,,,,,,,0.85,0.47,0.71,4*03
$GPGSV,4,1,15,196,75,071,39,24,65,035,45,199,60,167,38,23,58,344,23,1*65
$GPGSV,4,2,15,18,53,232,39,41,38,242,34,194,34,137,45,15,33,055,28,1*5C
$GPGSV,4,3,15,195,31,179,29,12,26,134,42,10,24,322,36,25,15,172,13,1*5F
$GPGSV,4,4,15,05,13,125,23,32,13,276,39,13,04,063,,1*59
$GPGSV,3,1,09,196,75,071,45,24,65,035,49,199,60,167,47,23,58,344,39,8*62
$GPGSV,3,2,09,18,53,232,32,194,34,137,46,195,31,179,30,10,24,322,33,8*63
$GPGSV,3,3,09,32,13,276,40,8*50
$GLGSV,2,1,08,73,48,154,43,80,46,061,27,70,41,023,,85,28,237,28,1*7C
$GLGSV,2,2,08,86,28,291,42,71,25,323,36,69,10,083,14,79,05,027,14,1*75
$GAGSV,3,1,09,13,50,223,30,07,45,312,42,08,44,033,27,26,35,299,41,7*77
$GAGSV,3,2,09,30,31,138,40,02,27,078,,15,16,173,22,03,07,070,,7*79
$GAGSV,3,3,09,27,06,185,,7*45
$GAGSV,2,1,06,13,50,223,36,07,45,312,44,08,44,033,33,26,35,299,40,1*7B
$GAGSV,2,2,06,30,31,138,43,15,16,173,26,1*7D
$GBGSV,4,1,16,08,83,354,39,38,82,147,41,13,71,326,44,39,69,294,45,1*71
$GBGSV,4,2,16,16,66,269,44,06,65,264,42,46,62,095,25,19,52,355,37,1*7B
$GBGSV,4,3,16,09,50,245,36,36,43,183,39,20,41,073,26,35,19,261,41,1*77
$GBGSV,4,4,16,37,17,043,30,22,15,307,36,29,14,206,24,07,05,191,,1*75
$GBGSV,3,1,10,38,82,147,47,39,69,294,44,46,62,095,21,19,52,355,26,4*7B
$GBGSV,3,2,10,36,43,183,42,20,41,073,28,35,19,261,36,37,17,043,22,4*7F
$GBGSV,3,3,10,22,15,307,34,29,14,206,20,4*7D
$GNACCURACY,2.4*10
$PAIRSAT,1,35,1,0,200,2,0,200,3,0,200,4,0,200,5,0,201,6,0,200,7,0,200,8,0,200,9,0,200,10,0,221,11,0,200,12,0,201,13,0,201,14,0,200,15,0,201,16,0,200,17,0,200,18,0,221,19,0,200,20,0,200,21,0,200,23,0,221,24,0,221,25,0,200,26,0,200,27,0,200,28,0,200,29,0,200,30,0,200,31,0,200,32,0,221,194,0,621,195,0,621,196,0,620,199,0,621*68
$PAIRSAT,2,24,65,0,200,66,0,200,67,0,200,68,0,200,69,0,201,70,0,201,71,0,201,72,0,200,73,0,201,74,0,200,75,0,200,76,0,200,77,0,200,78,0,200,79,0,201,80,0,201,81,0,200,82,0,200,83,0,200,84,0,200,85,0,201,86,0,201,87,0,200,88,0,200*7A
$PAIRSAT,3,23,2,0,1221,3,0,1221,4,0,1200,5,0,200,7,0,1221,8,0,1221,9,0,1200,10,0,1200,11,0,1200,12,0,1200,13,0,1221,15,0,1221,19,0,1200,21,0,1200,24,0,1200,25,0,1200,26,0,1221,27,0,1200,30,0,1221,31,0,1200,33,0,1200,34,0,1200,36,0,1200*6A
$PAIRSAT,4,50,1,0,200,2,0,200,3,0,200,4,0,200,5,0,200,6,0,201,7,0,200,8,0,201,9,0,201,10,0,200,11,0,200,12,0,200,13,0,201,14,0,200,15,0,200,16,0,201,19,0,621,20,0,621,21,0,600,22,0,621,23,0,600,24,0,600,25,0,600,26,0,600,27,0,600,28,0,600,29,0,621,30,0,600,31,0,200,32,0,600,33,0,600,34,0,600,35,0,621,36,0,621,37,0,621,38,0,621,39,0,621,40,0,600,41,0,600,42,0,600,43,0,600,44,0,600,45,0,600,46,0,621,56,0,200,57,0,200,58,0,200,59,0,600,60,0,600,61,0,600*41
$PAIRDGP,9,5,10,12,15,18,23,24,25,32*5B
$GNGGA,114457.200,2500.8206504,N,12132.4628920,E,4,62,0.47,16.056,M,15.25,M,3,3335*48
$GNRMC,114457.200,A,2500.8206504,N,12132.4628920,E,0.03,198.18,260623,,,R,V*1A
$GPHDT,,T*1B
$GNACCURACY,2.4*10
$GNGGA,114457.300,2500.8206489,N,12132.4628913,E,4,62,0.47,16.056,M,15.25,M,3,3335*4D
$GNRMC,114457.300,A,2500.8206489,N,12132.4628913,E,0.02,198.18,260623,,,R,V*1E
$GPHDT,,T*1B
$GNACCURACY,2.4*10
$GNGGA,114457.400,2500.8206488,N,12132.4628916,E,4,62,0.47,16.065,M,15.25,M,3,3335*4E
$GNRMC,114457.400,A,2500.8206488,N,12132.4628916,E,0.00,198.18,260623,,,R,V*1F
$GPHDT,,T*1B
$GNACCURACY,2.4*10
$GNGGA,114457.500,2500.8206452,N,12132.4628906,E,4,62,0.47,16.072,M,15.25,M,3,3335*4F
$GNRMC,114457.500,A,2500.8206452,N,12132.4628906,E,0.00,198.18,260623,,,R,V*18
$GPHDT,,T*1B
$GNACCURACY,2.4*10
$GNGGA,114457.600,2500.8206490,N,12132.4628918,E,4,62,0.47,16.061,M,15.25,M,3,3335*4F
$GNRMC,114457.600,A,2500.8206490,N,12132.4628918,E,0.00,198.18,260623,,,R,V*1A
$GPHDT,,T*1B
$GNACCURACY,2.4*10
$GNGGA,114457.700,2500.8206510,N,12132.4628958,E,4,63,0.46,16.058,M,15.25,M,3,3335*49
$GNRMC,114457.700,A,2500.8206510,N,12132.4628958,E,0.00,198.18,260623,,,R,V*16
$GPHDT,,T*1B
$GNACCURACY,2.4*10
$GNGGA,114457.800,2500.8206501,N,12132.4628920,E,4,62,0.47,16.048,M,15.25,M,3,3335*48
$GNRMC,114457.800,A,2500.8206501,N,12132.4628920,E,0.00,198.18,260623,,,R,V*16
$GPHDT,,T*1B
$GNACCURACY,2.4*10
$GNGGA,114457.900,2500.8206476,N,12132.4628904,E,4,62,0.47,16.060,M,15.25,M,3,3335*44
$GNRMC,114457.900,A,2500.8206476,N,12132.4628904,E,0.00,198.18,260623,,,R,V*10
$GPHDT,,T*1B
$GNACCURACY,2.4*10
$GNGGA,114458.000,2500.8206486,N,12132.4628917,E,4,62,0.47,16.059,M,15.25,M,4,3335*42
$GNRMC,114458.000,A,2500.8206486,N,12132.4628917,E,0.00,198.18,260623,,,R,V*1B
$GPHDT,,T*1B
$GNACCURACY,2.4*10
$GNGGA,114458.100,2500.8206480,N,12132.4628897,E,4,62,0.47,16.064,M,15.25,M,4,3335*42
$GNRMC,114458.100,A,2500.8206480,N,12132.4628897,E,0.00,198.18,260623,,,R,V*15
$GPHDT,,T*1B
$GNGSA,A,3,196,24,199,23,18,194,15,195,12,10,32,,0.85,0.47,0.71,1*0E
$GNGSA,A,3,73,80,86,85,71,,,,,,,,0.85,0.47,0.71,2*03
$GNGSA,A,3,13,07,08,26,30,15,,,,,,,0.85,0.47,0.71,3*05
$GNGSA,A,3,08,38,13,39,16,06,46,19,09,36,20,35,0.85,0.47,0.71,4*04
$GNGSA,A,3,37,22,29,,,,,,,,,,0.85,0.47,0.71,4*03
$GPGSV,4,1,16,196,75,071,40,24,65,035,45,199,60,167,38,23,58,344,22,1*69
$GPGSV,4,2,16,18,53,232,42,41,38,242,33,194,34,137,45,15,33,055,29,1*55
$GPGSV,4,3,16,195,31,179,32,12,26,134,42,10,24,322,37,25,15,172,16,1*52
$GPGSV,4,4,16,05,13,125,23,32,13,276,39,13,04,063,,28,01,220,,1*61
$GPGSV,3,1,09,196,75,071,45,24,65,035,49,199,60,167,47,23,58,344,39,8*62
$GPGSV,3,2,09,18,53,232,38,194,34,137,46,195,31,179,27,10,24,322,31,8*6D
$GPGSV,3,3,09,32,13,276,38,8*5F
$GLGSV,2,1,08,73,48,154,43,80,46,061,28,70,41,023,,86,28,291,42,1*70
$GLGSV,2,2,08,85,28,237,28,71,25,323,35,69,10,083,14,79,05,027,16,1*77
$GAGSV,3,1,09,13,50,223,28,07,45,312,42,08,44,033,27,26,35,299,41,7*7E
$GAGSV,3,2,09,30,31,138,40,02,27,078,,15,16,173,22,03,07,070,,7*79
$GAGSV,3,3,09,27,06,185,,7*45
$GAGSV,2,1,06,13,50,223,37,07,45,312,44,08,44,033,33,26,35,299,41,1*7B
$GAGSV,2,2,06,30,31,138,42,15,16,173,26,1*7C
$GBGSV,4,1,16,08,83,354,39,38,82,147,40,13,71,326,44,39,69,294,45,1*70
$GBGSV,4,2,16,16,66,269,44,06,64,264,42,46,62,095,24,19,52,355,38,1*74
$GBGSV,4,3,16,09,50,245,38,36,43,183,39,20,41,073,26,35,19,261,41,1*79
$GBGSV,4,4,16,37,17,043,27,22,15,307,36,29,14,206,24,07,05,191,,1*73
$GBGSV,3,1,10,38,82,147,45,39,69,294,44,46,62,095,23,19,52,355,28,4*75
$GBGSV,3,2,10,36,43,183,40,20,41,073,28,35,19,261,35,37,17,043,22,4*7E
$GBGSV,3,3,10,22,15,307,35,29,14,206,19,4*76
$GNACCURACY,2.4*10
$PAIRSAT,1,35,1,0,200,2,0,200,3,0,200,4,0,200,5,0,201,6,0,200,7,0,200,8,0,200,9,0,200,10,0,221,11,0,200,12,0,201,13,0,201,14,0,200,15,0,201,16,0,200,17,0,200,18,0,221,19,0,200,20,0,200,21,0,200,23,0,221,24,0,221,25,0,200,26,0,200,27,0,200,28,0,200,29,0,200,30,0,200,31,0,200,32,0,221,194,0,621,195,0,621,196,0,620,199,0,621*68
$PAIRSAT,2,24,65,0,200,66,0,200,67,0,200,68,0,200,69,0,201,70,0,201,71,0,201,72,0,200,73,0,201,74,0,200,75,0,200,76,0,200,77,0,200,78,0,200,79,0,201,80,0,201,81,0,200,82,0,200,83,0,200,84,0,200,85,0,201,86,0,201,87,0,200,88,0,200*7A
$PAIRSAT,3,23,2,0,1221,3,0,1221,4,0,1200,5,0,200,7,0,1221,8,0,1221,9,0,1200,10,0,1200,11,0,1200,12,0,1200,13,0,1221,15,0,1221,19,0,1200,21,0,1200,24,0,1200,25,0,1200,26,0,1221,27,0,1200,30,0,1221,31,0,1200,33,0,1200,34,0,1200,36,0,1200*6A
$PAIRSAT,4,50,1,0,200,2,0,200,3,0,200,4,0,200,5,0,200,6,0,201,7,0,200,8,0,201,9,0,201,10,0,200,11,0,200,12,0,200,13,0,201,14,0,200,15,0,200,16,0,201,19,0,621,20,0,621,21,0,600,22,0,621,23,0,600,24,0,600,25,0,600,26,0,600,27,0,600,28,0,600,29,0,621,30,0,600,31,0,200,32,0,600,33,0,600,34,0,600,35,0,621,36,0,621,37,0,621,38,0,621,39,0,621,40,0,600,41,0,600,42,0,600,43,0,600,44,0,600,45,0,600,46,0,621,56,0,200,57,0,200,58,0,200,59,0,600,60,0,600,61,0,600*41
$PAIRDGP,10,5,10,12,15,18,23,24,25,28,32*45
$GNGGA,114458.200,2500.8206490,N,12132.4628915,E,4,62,0.47,16.061,M,15.25,M,4,3335*4E
$GNRMC,114458.200,A,2500.8206490,N,12132.4628915,E,0.00,198.18,260623,,,R,V*1C
$GPHDT,,T*1B
$GNACCURACY,2.4*10
$GNGGA,114458.300,2500.8206493,N,12132.4628908,E,4,62,0.47,16.062,M,15.25,M,4,3335*43
$GNRMC,114458.300,A,2500.8206493,N,12132.4628908,E,0.00,198.18,260623,,,R,V*12
$GPHDT,,T*1B
$GNACCURACY,2.4*10
$GNGGA,114458.400,2500.8206453,N,12132.4628881,E,4,62,0.47,16.068,M,15.25,M,4,3335*42
$GNRMC,114458.400,A,2500.8206453,N,12132.4628881,E,0.00,198.18,260623,,,R,V*19
$GPHDT,,T*1B
$GNACCURACY,2.4*10
$GNGGA,114458.500,2500.8206486,N,12132.4628903,E,4,62,0.47,16.064,M,15.25,M,4,3335*4C
$GNRMC,114458.500,A,2500.8206486,N,12132.4628903,E,0.00,198.18,260623,,,R,V*1B
$GPHDT,,T*1B
$GNACCURACY,2.4*10
$GNGGA,114458.600,2500.8206473,N,12132.4628894,E,4,62,0.47,16.065,M,15.25,M,4,3335*4B
$GNRMC,114458.600,A,2500.8206473,N,12132.4628894,E,0.00,198.18,260623,,,R,V*1D
$GPHDT,,T*1B
$GNACCURACY,2.4*10
$GNGGA,114458.700,2500.8206469,N,12132.4628899,E,4,62,0.47,16.070,M,15.25,M,4,3335*48
$GNRMC,114458.700,A,2500.8206469,N,12132.4628899,E,0.00,198.18,260623,,,R,V*1A
$GPHDT,,T*1B
$GNACCURACY,2.4*10
$GNGGA,114458.800,2500.8206490,N,12132.4628901,E,4,62,0.47,16.065,M,15.25,M,4,3335*45
$GNRMC,114458.800,A,2500.8206490,N,12132.4628901,E,0.00,198.18,260623,,,R,V*13
$GPHDT,,T*1B
$GNACCURACY,2.4*10
$GNGGA,114458.900,2500.8206479,N,12132.4628890,E,4,62,0.47,16.067,M,15.25,M,4,3335*48
$GNRMC,114458.900,A,2500.8206479,N,12132.4628890,E,0.00,198.18,260623,,,R,V*1C
$GPHDT,,T*1B
$GNACCURACY,2.4*10
$GNGGA,114459.000,2500.8206484,N,12132.4628904,E,4,62,0.47,16.067,M,15.25,M,5,3335*4F
$GNRMC,114459.000,A,2500.8206484,N,12132.4628904,E,0.00,198.18,260623,,,R,V*1A
$GPHDT,,T*1B
$GNACCURACY,2.4*10
$GNGGA,114459.100,2500.8206480,N,12132.4628880,E,4,62,0.47,16.069,M,15.25,M,5,3335*49
$GNRMC,114459.100,A,2500.8206480,N,12132.4628880,E,0.00,198.18,260623,,,R,V*12
$GPHDT,,T*1B
$GNGSA,A,3,196,24,199,23,18,194,15,195,12,10,32,,0.85,0.47,0.71,1*0E
$GNGSA,A,3,73,80,85,86,71,,,,,,,,0.85,0.47,0.71,2*03
$GNGSA,A,3,13,07,08,26,30,15,,,,,,,0.85,0.47,0.71,3*05
$GNGSA,A,3,08,38,13,39,16,06,46,19,09,36,20,35,0.85,0.47,0.71,4*04
$GNGSA,A,3,37,22,29,,,,,,,,,,0.85,0.47,0.71,4*03
$GPGSV,4,1,16,196,75,071,40,24,65,035,45,199,60,167,38,23,58,344,22,1*69
$GPGSV,4,2,16,18,53,232,42,41,38,242,33,194,34,137,45,15,33,055,29,1*55
$GPGSV,4,3,16,195,31,179,28,12,26,134,42,10,24,322,37,25,15,172,14,1*5B
$GPGSV,4,4,16,05,13,125,23,32,13,276,39,13,04,063,,28,01,220,,1*61
$GPGSV,3,1,10,196,75,071,45,24,65,035,49,199,60,167,47,23,58,344,40,8*64
$GPGSV,3,2,10,18,53,232,39,194,34,137,46,195,31,179,26,10,24,322,32,8*66
$GPGSV,3,3,10,25,15,172,24,32,13,276,39,8*67
$GLGSV,2,1,08,73,48,154,43,80,46,061,29,70,41,023,,85,28,237,28,1*72
$GLGSV,2,2,08,86,28,291,42,71,25,323,35,69,10,083,15,79,05,027,16,1*75
$GAGSV,3,1,09,13,50,223,27,07,45,312,42,08,44,033,28,26,35,299,41,7*7E
$GAGSV,3,2,09,30,31,138,40,02,27,078,,15,16,173,22,03,07,070,,7*79
$GAGSV,3,3,09,27,06,185,,7*45
$GAGSV,2,1,06,13,50,223,38,07,45,312,44,08,44,033,34,26,35,299,41,1*73
$GAGSV,2,2,06,30,31,138,42,15,16,173,26,1*7C
$GBGSV,4,1,15,08,83,354,39,38,82,147,41,13,71,326,44,39,69,294,45,1*72
$GBGSV,4,2,15,16,66,269,44,06,64,264,42,46,62,095,25,19,52,355,38,1*76
$GBGSV,4,3,15,09,50,245,38,36,43,183,36,20,41,073,26,35,19,261,41,1*75
$GBGSV,4,4,15,37,17,043,26,22,15,307,36,29,14,206,24,1*4A
$GBGSV,3,1,10,38,82,147,45,39,69,294,44,46,62,095,25,19,52,355,29,4*72
$GBGSV,3,2,10,36,43,183,39,20,41,073,29,35,19,261,34,37,17,043,21,4*73
$GBGSV,3,3,10,22,15,307,36,29,14,206,18,4*74
$GNACCURACY,2.4*10
$PAIRSAT,1,35,1,0,200,2,0,200,3,0,200,4,0,200,5,0,201,6,0,200,7,0,200,8,0,200,9,0,200,10,0,221,11,0,200,12,0,201,13,0,201,14,0,200,15,0,201,16,0,200,17,0,200,18,0,221,19,0,200,20,0,200,21,0,200,23,0,221,24,0,221,25,0,200,26,0,200,27,0,200,28,0,200,29,0,200,30,0,200,31,0,200,32,0,221,194,0,621,195,0,621,196,0,620,199,0,621*68
$PAIRSAT,2,24,65,0,200,66,0,200,67,0,200,68,0,200,69,0,201,70,0,201,71,0,201,72,0,200,73,0,201,74,0,200,75,0,200,76,0,200,77,0,200,78,0,200,79,0,201,80,0,201,81,0,200,82,0,200,83,0,200,84,0,200,85,0,201,86,0,201,87,0,200,88,0,200*7A
$PAIRSAT,3,23,2,0,1221,3,0,1221,4,0,1200,5,0,200,7,0,1221,8,0,1221,9,0,1200,10,0,1200,11,0,1200,12,0,1200,13,0,1221,15,0,1221,19,0,1200,21,0,1200,24,0,1200,25,0,1200,26,0,1221,27,0,1200,30,0,1221,31,0,1200,33,0,1200,34,0,1200,36,0,1200*6A
$PAIRSAT,4,50,1,0,200,2,0,200,3,0,200,4,0,200,5,0,200,6,0,201,7,0,200,8,0,201,9,0,201,10,0,200,11,0,200,12,0,200,13,0,201,14,0,200,15,0,200,16,0,201,19,0,621,20,0,621,21,0,600,22,0,621,23,0,600,24,0,600,25,0,600,26,0,600,27,0,600,28,0,600,29,0,621,30,0,600,31,0,200,32,0,600,33,0,600,34,0,600,35,0,621,36,0,621,37,0,621,38,0,621,39,0,621,40,0,600,41,0,600,42,0,600,43,0,600,44,0,600,45,0,600,46,0,621,56,0,200,57,0,200,58,0,200,59,0,600,60,0,600,61,0,600*41
$PAIRDGP,10,5,10,12,15,18,23,24,25,28,32*45
$GNGGA,114459.200,2500.8206493,N,12132.4628892,E,4,62,0.47,16.070,M,15.25,M,5,3335*43
$GNRMC,114459.200,A,2500.8206493,N,12132.4628892,E,0.00,198.18,260623,,,R,V*10
$GPHDT,274.545,T*30
$GNACCURACY,2.4*10
$GNGGA,114459.300,2500.8206481,N,12132.4628887,E,4,63,0.46,16.070,M,15.25,M,5,3335*45
$GNRMC,114459.300,A,2500.8206481,N,12132.4628887,E,0.00,198.18,260623,,,R,V*16
$GPHDT,,T*1B
$GNACCURACY,2.4*10
$GNGGA,114459.400,2500.8206482,N,12132.4628883,E,4,63,0.46,16.071,M,15.25,M,5,3335*44
$GNRMC,114459.400,A,2500.8206482,N,12132.4628883,E,0.00,198.18,260623,,,R,V*16
$GPHDT,274.674,T*31
$GNACCURACY,2.4*10
$GNGGA,114459.500,2500.8206480,N,12132.4628892,E,4,63,0.46,16.069,M,15.25,M,5,3335*4E
$GNRMC,114459.500,A,2500.8206480,N,12132.4628892,E,0.00,198.18,260623,,,R,V*15
$GPHDT,,T*1B
$GNACCURACY,2.4*10
$GNGGA,114459.600,2500.8206485,N,12132.4628893,E,4,62,0.46,16.066,M,15.25,M,5,3335*47
$GNRMC,114459.600,A,2500.8206485,N,12132.4628893,E,0.00,198.18,260623,,,R,V*12
$GPHDT,274.688,T*32
$GNACCURACY,2.4*10
$GNGGA,114459.700,2500.8206491,N,12132.4628883,E,4,62,0.46,16.073,M,15.25,M,5,3335*46
$GNRMC,114459.700,A,2500.8206491,N,12132.4628883,E,0.00,198.18,260623,,,R,V*17
$GPHDT,,T*1B
$GNACCURACY,2.4*10
$GNGGA,114459.800,2500.8206481,N,12132.4628878,E,4,62,0.46,16.073,M,15.25,M,5,3335*4C
$GNRMC,114459.800,A,2500.8206481,N,12132.4628878,E,0.00,198.18,260623,,,R,V*1D
$GPHDT,274.629,T*39
$GNACCURACY,2.4*10
$GNGGA,114459.900,2500.8206492,N,12132.4628863,E,4,62,0.46,16.073,M,15.25,M,5,3335*45
$GNRMC,114459.900,A,2500.8206492,N,12132.4628863,E,0.00,198.18,260623,,,R,V*14
$GPHDT,,T*1B
$GNACCURACY,2.4*10
$GNGGA,114500.000,2500.8206499,N,12132.4628887,E,4,61,0.47,16.076,M,15.25,M,6,3335*44
$GNRMC,114500.000,A,2500.8206499,N,12132.4628887,E,0.00,198.18,260623,,,R,V*11
$GPHDT,274.365,T*34
$GNACCURACY,2.4*10
$GNGGA,114500.100,2500.8206476,N,12132.4628840,E,4,61,0.47,16.071,M,15.25,M,6,3335*48
$GNRMC,114500.100,A,2500.8206476,N,12132.4628840,E,0.00,198.18,260623,,,R,V*1A
$GPHDT,,T*1B
$GNGSA,A,3,196,24,199,23,18,194,15,195,12,10,32,,0.85,0.47,0.71,1*0E
$GNGSA,A,3,73,80,85,86,71,,,,,,,,0.85,0.47,0.71,2*03
$GNGSA,A,3,13,07,08,26,30,15,,,,,,,0.85,0.47,0.71,3*05
$GNGSA,A,3,08,38,13,39,16,06,46,19,09,36,20,35,0.85,0.47,0.71,4*04
$GNGSA,A,3,37,22,29,,,,,,,,,,0.85,0.47,0.71,4*03
$GPGSV,4,1,16,196,75,071,40,24,65,035,45,199,60,167,38,23,58,344,22,1*69
$GPGSV,4,2,16,18,53,232,42,41,38,242,35,194,34,137,45,15,33,055,30,1*5B
$GPGSV,4,3,16,195,31,179,22,12,26,134,40,10,24,322,37,25,15,172,14,1*53
$GPGSV,4,4,16,05,13,125,23,32,13,276,39,13,04,063,,28,01,220,,1*61
$GPGSV,3,1,10,196,75,071,45,24,65,035,49,199,60,167,46,23,58,344,40,8*65
$GPGSV,3,2,10,18,53,232,40,194,34,137,43,195,31,179,25,10,24,322,32,8*6E
$GPGSV,3,3,10,25,15,172,23,32,13,276,39,8*60
$GLGSV,2,1,08,73,48,154,43,80,46,061,29,70,41,023,,85,28,237,27,1*7D
$GLGSV,2,2,08,86,28,291,42,71,25,323,35,69,10,083,15,79,05,027,16,1*75
$GAGSV,2,1,08,13,50,223,26,07,45,312,42,08,44,033,29,26,35,299,41,7*7E
$GAGSV,2,2,08,30,31,138,41,02,27,078,,15,16,173,23,03,07,070,,7*79
$GAGSV,2,1,06,13,50,223,38,07,45,312,44,08,44,033,34,26,35,299,41,1*73
$GAGSV,2,2,06,30,31,138,38,15,16,173,26,1*71
$GBGSV,4,1,15,08,83,354,39,38,82,147,41,13,71,326,44,39,69,294,45,1*72
$GBGSV,4,2,15,16,66,269,44,06,64,264,42,46,62,095,26,19,52,355,38,1*75
$GBGSV,4,3,15,09,50,245,38,36,43,183,34,20,41,073,27,35,19,261,42,1*75
$GBGSV,4,4,15,37,17,043,26,22,15,307,36,29,14,206,24,1*4A
$GBGSV,3,1,09,38,82,147,45,39,69,294,44,46,62,095,25,19,52,355,29,4*7A
$GBGSV,3,2,09,36,43,183,37,20,41,073,29,35,19,261,33,22,15,307,36,4*71
$GBGSV,3,3,09,29,14,206,17,4*46
$GNACCURACY,2.4*10
$PAIRSAT,1,35,1,0,200,2,0,200,3,0,200,4,0,200,5,0,201,6,0,200,7,0,200,8,0,200,9,0,200,10,0,221,11,0,200,12,0,201,13,0,201,14,0,200,15,0,201,16,0,200,17,0,200,18,0,221,19,0,200,20,0,200,21,0,200,23,0,221,24,0,221,25,0,200,26,0,200,27,0,200,28,0,200,29,0,200,30,0,200,31,0,200,32,0,221,194,0,621,195,0,621,196,0,620,199,0,621*68
$PAIRSAT,2,24,65,0,200,66,0,200,67,0,200,68,0,200,69,0,201,70,0,201,71,0,201,72,0,200,73,0,201,74,0,200,75,0,200,76,0,200,77,0,200,78,0,200,79,0,201,80,0,201,81,0,200,82,0,200,83,0,200,84,0,200,85,0,201,86,0,201,87,0,200,88,0,200*7A
$PAIRSAT,3,23,2,0,1221,3,0,1221,4,0,1200,5,0,200,7,0,1221,8,0,1221,9,0,1200,10,0,1200,11,0,1200,12,0,1200,13,0,1221,15,0,1221,19,0,1200,21,0,1200,24,0,1200,25,0,1200,26,0,1221,27,0,1200,30,0,1221,31,0,1200,33,0,1200,34,0,1200,36,0,1200*6A
$PAIRSAT,4,50,1,0,200,2,0,200,3,0,200,4,0,200,5,0,200,6,0,201,7,0,200,8,0,201,9,0,201,10,0,200,11,0,200,12,0,200,13,0,201,14,0,200,15,0,200,16,0,201,19,0,621,20,0,621,21,0,600,22,0,621,23,0,600,24,0,600,25,0,600,26,0,600,27,0,600,28,0,600,29,0,621,30,0,600,31,0,200,32,0,600,33,0,600,34,0,600,35,0,621,36,0,621,37,0,621,38,0,621,39,0,621,40,0,600,41,0,600,42,0,600,43,0,600,44,0,600,45,0,600,46,0,621,56,0,200,57,0,200,58,0,200,59,0,600,60,0,600,61,0,600*41
$PAIRDGP,10,5,10,12,15,18,23,24,25,28,32*45
$GNGGA,114500.200,2500.8206491,N,12132.4628827,E,4,61,0.47,16.072,M,15.25,M,6,3335*40
$GNRMC,114500.200,A,2500.8206491,N,12132.4628827,E,0.00,198.18,260623,,,R,V*11
$GPHDT,274.202,T*34
$GNACCURACY,2.4*10
$GNGGA,114500.300,2500.8206448,N,12132.4628850,E,4,60,0.47,16.072,M,15.25,M,6,3335*44
$GNRMC,114500.300,A,2500.8206448,N,12132.4628850,E,0.00,198.18,260623,,,R,V*14
$GPHDT,,T*1B
$GNACCURACY,2.4*10
$GNGGA,114500.400,2500.8206448,N,12132.4628860,E,4,60,0.47,16.078,M,15.25,M,6,3335*4A
$GNRMC,114500.400,A,2500.8206448,N,12132.4628860,E,0.00,198.18,260623,,,R,V*10
$GPHDT,274.902,T*3F
$GNACCURACY,2.5*11
$GNGGA,114500.500,2500.8206457,N,12132.4628847,E,4,60,0.47,16.066,M,15.25,M,6,3335*4F
$GNRMC,114500.500,A,2500.8206457,N,12132.4628847,E,0.00,198.18,260623,,,R,V*1A
$GPHDT,,T*1B
