$FW : RTK35X,V1.1X0314AS,Lib20210517,1*54
$Tool : LOCOSYS , GNSS Firebird , v1.0.0.19*39
$---------------------------------------------------*2D
$GPHDT,,T*1B
$GNGSA,A,3,196,24,199,23,18,194,195,12,10,05,32,,0.78,0.44,0.64,1*0A
$GNGSA,A,3,73,80,85,86,71,69,,,,,,,0.78,0.44,0.64,2*09
$GNGSA,A,3,13,07,08,26,30,02,15,,,,,,0.78,0.44,0.64,3*02
$GNGSA,A,3,08,38,13,39,16,06,46,19,09,36,20,35,0.78,0.44,0.64,4*01
$GNGSA,A,3,37,22,29,,,,,,,,,,0.78,0.44,0.64,4*06
$GPGSV,4,1,15,196,75,070,40,24,65,035,46,199,60,167,38,23,58,344,28,1*62
$GPGSV,4,2,15,18,54,232,45,41,38,242,40,194,34,137,44,15,33,055,24,1*5E
$GPGSV,4,3,15,195,31,179,24,12,26,135,43,10,24,322,31,25,15,172,24,1*51
$GPGSV,4,4,15,05,14,125,24,32,13,276,35,13,04,062,,1*54
$GPGSV,3,1,10,196,75,070,45,24,65,035,49,199,60,167,47,23,58,344,34,8*66
$GPGSV,3,2,10,18,54,232,47,194,34,137,47,195,31,179,25,10,24,322,33,8*6B
$GPGSV,3,3,10,25,15,172,19,32,13,276,38,8*68
$GLGSV,2,1,08,73,48,154,41,80,47,062,30,70,41,022,14,85,29,237,19,1*7D
$GLGSV,2,2,08,86,28,291,37,71,25,323,32,69,10,082,13,79,05,027,16,1*77
$GAGSV,3,1,09,13,50,223,38,07,45,312,35,08,44,033,21,26,35,300,27,7*78
$GAGSV,3,2,09,30,31,139,42,02,27,078,15,15,16,173,23,03,07,070,,7*7F
$GAGSV,3,3,09,27,06,185,,7*45
$GAGSV,2,1,07,13,50,223,45,07,45,312,31,08,44,033,31,26,35,300,26,1*7F
$GAGSV,2,2,07,30,31,139,43,02,27,078,18,15,16,173,21,1*4B
$GBGSV,4,1,15,08,83,355,40,38,82,146,44,13,71,326,44,39,69,294,40,1*7C
$GBGSV,4,2,15,16,66,268,40,06,65,264,38,46,62,095,24,19,52,354,38,1*7F
$GBGSV,4,3,15,09,50,245,41,36,43,183,42,20,41,073,27,35,19,261,37,1*78
$GBGSV,4,4,15,37,18,043,27,22,15,307,36,29,14,207,21,1*40
$GBGSV,3,1,09,38,82,146,46,39,69,294,38,46,62,095,18,19,52,354,28,4*7D
$GBGSV,3,2,09,36,43,183,43,20,41,073,31,35,19,261,34,37,18,043,26,4*77
$GBGSV,3,3,09,22,15,307,22,4*4A
$GNACCURACY,2.4*10
$PAIRSAT,1,35,1,0,200,2,0,200,3,0,200,4,0,200,5,0,201,6,0,200,7,0,200,8,0,200,9,0,200,10,0,221,11,0,200,12,0,201,13,0,201,14,0,200,15,0,201,16,0,200,17,0,200,18,0,221,19,0,200,20,0,200,21,0,200,23,0,221,24,0,221,25,0,200,26,0,200,27,0,200,28,0,200,29,0,200,30,0,200,31,0,200,32,0,221,194,0,621,195,0,621,196,0,620,199,0,621*68
$PAIRSAT,2,24,65,0,200,66,0,200,67,0,200,68,0,200,69,0,201,70,0,201,71,0,201,72,0,200,73,0,201,74,0,200,75,0,200,76,0,200,77,0,200,78,0,200,79,0,201,80,0,201,81,0,200,82,0,200,83,0,200,84,0,200,85,0,201,86,0,201,87,0,200,88,0,200*7A
$PAIRSAT,3,23,2,0,1221,3,0,1221,4,0,1200,5,0,200,7,0,1221,8,0,1221,9,0,1200,10,0,1200,11,0,1200,12,0,1200,13,0,1221,15,0,1221,19,0,1200,21,0,1200,24,0,1200,25,0,1200,26,0,1221,27,0,1200,30,0,1221,31,0,1200,33,0,1200,34,0,1200,36,0,1200*6A
$PAIRSAT,4,50,1,0,200,2,0,200,3,0,200,4,0,200,5,0,200,6,0,201,7,0,200,8,0,201,9,0,201,10,0,200,11,0,200,12,0,200,13,0,201,14,0,200,15,0,200,16,0,201,19,0,621,20,0,621,21,0,600,22,0,621,23,0,600,24,0,600,25,0,600,26,0,600,27,0,600,28,0,600,29,0,621,30,0,600,31,0,200,32,0,600,33,0,600,34,0,600,35,0,621,36,0,621,37,0,621,38,0,621,39,0,621,40,0,600,41,0,600,42,0,600,43,0,600,44,0,600,45,0,600,46,0,621,56,0,200,57,0,200,58,0,200,59,0,600,60,0,600,61,0,600*41
$PAIRDGP,9,5,10,12,15,18,23,24,25,32*5B
$GNGGA,114420.200,2500.8229423,N,12132.4653560,E,2,63,0.44,9.699,M,15.25,M,4,3335*7D
$GNRMC,114420.200,A,2500.8229423,N,12132.4653560,E,0.03,198.18,260623,,,D,V*01
$GPHDT,,T*1B
$GNACCURACY,2.5*11
$GNGGA,114420.300,2500.8229423,N,12132.4653680,E,2,62,0.45,9.700,M,15.25,M,4,3335*70
$GNRMC,114420.300,A,2500.8229423,N,12132.4653680,E,0.03,198.18,260623,,,D,V*0D
$GPHDT,,T*1B
$GNACCURACY,2.4*10
$GNGGA,114420.400,2500.8229423,N,12132.4653800,E,2,62,0.45,9.706,M,15.25,M,4,3335*77
$GNRMC,114420.400,A,2500.8229423,N,12132.4653800,E,0.03,198.18,260623,,,D,V*0C
$GPHDT,,T*1B
$GNACCURACY,2.4*10
$GNGGA,114420.500,2500.8229363,N,12132.4653920,E,2,60,0.48,9.709,M,15.25,M,4,3335*76
$GNRMC,114420.500,A,2500.8229363,N,12132.4653920,E,0.03,198.18,260623,,,D,V*0D
$GPHDT,,T*1B
$GNACCURACY,2.4*10
$GNGGA,114420.600,2500.8229423,N,12132.4654100,E,2,61,0.47,9.710,M,15.25,M,4,3335*7D
$GNRMC,114420.600,A,2500.8229423,N,12132.4654100,E,0.03,198.18,260623,,,D,V*00
$GPHDT,,T*1B
$GNACCURACY,2.4*10
$GNGGA,114420.700,2500.8229423,N,12132.4654220,E,2,61,0.47,9.710,M,15.25,M,4,3335*7D
$GNRMC,114420.700,A,2500.8229423,N,12132.4654220,E,0.03,198.18,260623,,,D,V*00
$GPHDT,,T*1B
$GNACCURACY,2.5*11
$GNGGA,114420.800,2500.8229423,N,12132.4654340,E,2,62,0.45,9.712,M,15.25,M,4,3335*76
$GNRMC,114420.800,A,2500.8229423,N,12132.4654340,E,0.03,198.18,260623,,,D,V*08
$GPHDT,,T*1B
$GNACCURACY,2.5*11
$GNGGA,114420.900,2500.8229363,N,12132.4654460,E,2,62,0.45,9.717,M,15.25,M,4,3335*74
$GNRMC,114420.900,A,2500.8229363,N,12132.4654460,E,0.03,198.18,260623,,,D,V*0F
$GPHDT,,T*1B
$GNACCURACY,2.5*11
$GNGGA,114421.000,2500.8229483,N,12132.4654520,E,2,61,0.47,9.703,M,15.25,M,5,3335*75
$GNRMC,114421.000,A,2500.8229483,N,12132.4654520,E,0.03,198.18,260623,,,D,V*0B
$GPHDT,,T*1B
$GNACCURACY,2.5*11
$GNGGA,114421.100,2500.8229543,N,12132.4654580,E,2,61,0.47,9.688,M,15.25,M,5,3335*71
$GNRMC,114421.100,A,2500.8229543,N,12132.4654580,E,0.03,198.18,260623,,,D,V*0D
$GPHDT,,T*1B
$GNGSA,A,3,196,24,199,23,18,194,15,195,12,10,32,,0.86,0.47,0.72,1*0E
$GNGSA,A,3,73,80,85,86,71,,,,,,,,0.86,0.47,0.72,2*03
$GNGSA,A,3,13,07,08,26,30,02,15,,,,,,0.86,0.47,0.72,3*07
$GNGSA,A,3,08,38,13,39,16,06,46,19,09,36,20,35,0.86,0.47,0.72,4*04
$GNGSA,A,3,37,22,,,,,,,,,,,0.86,0.47,0.72,4*08
$GPGSV,4,1,15,196,75,070,40,24,65,035,46,199,60,167,38,23,58,344,28,1*62
$GPGSV,4,2,15,18,54,232,45,41,38,242,42,194,34,137,44,15,33,055,24,1*5C
$GPGSV,4,3,15,195,31,179,23,12,26,135,43,10,24,322,31,25,15,172,24,1*56
$GPGSV,4,4,15,05,14,125,24,32,13,276,33,13,04,062,,1*52
$GPGSV,3,1,10,196,75,070,45,24,65,035,49,199,60,167,47,23,58,344,35,8*67
$GPGSV,3,2,10,18,54,232,47,194,34,137,47,195,31,179,24,10,24,322,32,8*6B
$GPGSV,3,3,10,25,15,172,18,32,13,276,38,8*69
$GLGSV,3,1,09,73,48,154,41,80,47,062,31,70,41,022,12,85,29,237,21,1*71
$GLGSV,3,2,09,86,28,291,38,71,25,323,32,69,10,082,13,79,05,027,17,1*79
$GLGSV,3,3,09,84,01,186,,1*43
$GAGSV,3,1,09,13,50,223,38,07,45,312,34,08,44,033,23,26,35,300,30,7*7D
$GAGSV,3,2,09,30,31,139,42,02,27,078,15,15,16,173,23,03,07,070,,7*7F
$GAGSV,3,3,09,27,06,185,,7*45
$GAGSV,2,1,07,13,50,223,45,07,45,312,34,08,44,033,31,26,35,300,25,1*79
$GAGSV,2,2,07,30,31,139,43,02,27,078,17,15,16,173,22,1*47
$GBGSV,4,1,16,08,83,355,40,38,82,146,44,13,71,326,44,39,69,294,40,1*7F
$GBGSV,4,2,16,16,66,268,40,06,65,264,38,46,62,095,24,19,52,354,38,1*7C
$GBGSV,4,3,16,09,50,245,41,36,43,183,42,20,41,073,28,35,19,261,37,1*74
$GBGSV,4,4,16,37,18,043,26,22,15,307,36,29,14,207,19,07,05,191,,1*72
$GBGSV,3,1,09,38,82,146,46,39,69,294,38,46,62,095,17,19,52,354,29,4*73
$GBGSV,3,2,09,36,43,183,43,20,41,073,31,35,19,261,34,37,18,043,27,4*76
$GBGSV,3,3,09,22,15,307,22,4*4A
$GNACCURACY,2.5*11
$PAIRSAT,1,35,1,0,200,2,0,200,3,0,200,4,0,200,5,0,201,6,0,200,7,0,200,8,0,200,9,0,200,10,0,221,11,0,200,12,0,201,13,0,201,14,0,200,15,0,201,16,0,200,17,0,200,18,0,221,19,0,200,20,0,200,21,0,200,23,0,221,24,0,221,25,0,200,26,0,200,27,0,200,28,0,200,29,0,200,30,0,200,31,0,200,32,0,221,194,0,621,195,0,621,196,0,620,199,0,621*68
$PAIRSAT,2,24,65,0,200,66,0,200,67,0,200,68,0,200,69,0,201,70,0,201,71,0,201,72,0,200,73,0,201,74,0,200,75,0,200,76,0,200,77,0,200,78,0,200,79,0,201,80,0,201,81,0,200,82,0,200,83,0,200,84,0,200,85,0,201,86,0,201,87,0,200,88,0,200*7A
$PAIRSAT,3,23,2,0,1221,3,0,1221,4,0,1200,5,0,200,7,0,1221,8,0,1221,9,0,1200,10,0,1200,11,0,1200,12,0,1200,13,0,1221,15,0,1221,19,0,1200,21,0,1200,24,0,1200,25,0,1200,26,0,1221,27,0,1200,30,0,1221,31,0,1200,33,0,1200,34,0,1200,36,0,1200*6A
$PAIRSAT,4,50,1,0,200,2,0,200,3,0,200,4,0,200,5,0,200,6,0,201,7,0,200,8,0,201,9,0,201,10,0,200,11,0,200,12,0,200,13,0,201,14,0,200,15,0,200,16,0,201,19,0,621,20,0,621,21,0,600,22,0,621,23,0,600,24,0,600,25,0,600,26,0,600,27,0,600,28,0,600,29,0,621,30,0,600,31,0,200,32,0,600,33,0,600,34,0,600,35,0,621,36,0,621,37,0,621,38,0,621,39,0,621,40,0,600,41,0,600,42,0,600,43,0,600,44,0,600,45,0,600,46,0,621,56,0,200,57,0,200,58,0,200,59,0,600,60,0,600,61,0,600*41
$PAIRDGP,9,5,10,12,15,18,23,24,25,32*5B
$GNGGA,114421.200,2500.8229543,N,12132.4654700,E,2,61,0.47,9.694,M,15.25,M,5,3335*75
$GNRMC,114421.200,A,2500.8229543,N,12132.4654700,E,0.03,198.18,260623,,,D,V*04
$GPHDT,,T*1B
$GNACCURACY,2.5*11
$GNGGA,114421.300,2500.8229543,N,12132.4654760,E,2,62,0.45,9.701,M,15.25,M,5,3335*7E
$GNRMC,114421.300,A,2500.8229543,N,12132.4654760,E,0.03,198.18,260623,,,D,V*03
$GPHDT,,T*1B
$GNACCURACY,2.5*11
$GNGGA,114421.400,2500.8229543,N,12132.4654880,E,2,62,0.45,9.707,M,15.25,M,5,3335*7E
$GNRMC,114421.400,A,2500.8229543,N,12132.4654880,E,0.03,198.18,260623,,,D,V*05
$GPHDT,,T*1B
$GNACCURACY,2.4*10
$GNGGA,114421.500,2500.8229543,N,12132.4655060,E,2,63,0.45,9.717,M,15.25,M,5,3335*78
$GNRMC,114421.500,A,2500.8229543,N,12132.4655060,E,0.03,198.18,260623,,,D,V*03
$GPHDT,,T*1B
$GNACCURACY,2.5*11
$GNGGA,114421.600,2500.8229543,N,12132.4655120,E,2,63,0.45,9.714,M,15.25,M,5,3335*7D
$GNRMC,114421.600,A,2500.8229543,N,12132.4655120,E,0.03,198.18,260623,,,D,V*05
$GPHDT,,T*1B
$GNACCURACY,2.5*11
$GNGGA,114421.700,2500.8229663,N,12132.4655120,E,2,63,0.45,9.705,M,15.25,M,5,3335*7D
$GNRMC,114421.700,A,2500.8229663,N,12132.4655120,E,0.03,198.18,260623,,,D,V*05
$GPHDT,,T*1B
$GNACCURACY,2.5*11
$GNGGA,114421.800,2500.8229663,N,12132.4655120,E,2,63,0.45,9.704,M,15.25,M,5,3335*73
$GNRMC,114421.800,A,2500.8229663,N,12132.4655120,E,0.03,198.18,260623,,,D,V*0A
$GPHDT,,T*1B
$GNACCURACY,2.5*11
$GNGGA,114421.900,2500.8229783,N,12132.4655120,E,2,63,0.45,9.695,M,15.25,M,5,3335*74
$GNRMC,114421.900,A,2500.8229783,N,12132.4655120,E,0.03,198.18,260623,,,D,V*04
$GPHDT,,T*1B
$GNACCURACY,2.5*11
$GNGGA,114422.000,2500.8229783,N,12132.4655120,E,2,62,0.45,9.691,M,15.25,M,6,3335*78
$GNRMC,114422.000,A,2500.8229783,N,12132.4655120,E,0.03,198.18,260623,,,D,V*0E
$GPHDT,,T*1B
$GNACCURACY,2.4*10
$GNGGA,114422.100,2500.8229843,N,12132.4655120,E,2,62,0.45,9.683,M,15.25,M,4,3335*7B
$GNRMC,114422.100,A,2500.8229843,N,12132.4655120,E,0.03,198.18,260623,,,D,V*0C
$GPHDT,,T*1B
$GNGSA,A,3,196,24,199,23,18,194,195,12,10,05,32,,0.81,0.45,0.67,1*0E
$GNGSA,A,3,73,80,85,86,71,,,,,,,,0.81,0.45,0.67,2*02
$GNGSA,A,3,13,07,08,26,30,02,15,,,,,,0.81,0.45,0.67,3*06
$GNGSA,A,3,08,38,13,39,16,06,46,19,09,36,20,35,0.81,0.45,0.67,4*05
$GNGSA,A,3,37,22,29,,,,,,,,,,0.81,0.45,0.67,4*02
$GPGSV,4,1,15,196,75,070,40,24,65,035,46,199,60,167,37,23,58,344,25,1*60
$GPGSV,4,2,15,18,54,232,45,41,38,242,40,194,34,137,44,15,33,055,24,1*5E
$GPGSV,4,3,15,195,31,179,19,12,26,135,42,10,24,322,28,25,15,172,24,1*56
$GPGSV,4,4,15,05,14,125,26,32,13,276,32,13,04,062,,1*51
$GPGSV,3,1,10,196,75,070,45,24,65,035,49,199,60,167,48,23,58,344,35,8*68
$GPGSV,3,2,10,18,54,232,47,194,34,137,47,195,31,179,25,10,24,322,32,8*6A
$GPGSV,3,3,10,25,15,172,19,32,13,276,38,8*68
$GLGSV,3,1,09,73,48,154,41,80,47,062,31,70,41,022,13,85,29,237,22,1*73
$GLGSV,3,2,09,86,28,291,41,71,25,323,28,69,10,082,15,79,05,027,14,1*79
$GLGSV,3,3,09,84,01,186,,1*43
$GAGSV,3,1,09,13,50,223,38,07,45,312,34,08,44,033,23,26,35,300,35,7*78
$GAGSV,3,2,09,30,31,138,42,02,27,078,13,15,16,173,21,03,07,070,,7*7A
$GAGSV,3,3,09,27,06,185,,7*45
$GAGSV,2,1,07,13,50,223,46,07,45,312,40,08,44,033,32,26,35,300,34,1*7A
$GAGSV,2,2,07,30,31,138,43,02,27,078,16,15,16,173,21,1*44
$GBGSV,4,1,16,08,83,355,40,38,82,146,44,13,71,326,44,39,69,294,42,1*7D
$GBGSV,4,2,16,16,66,268,40,06,65,264,39,46,62,095,22,19,52,354,38,1*7B
$GBGSV,4,3,16,09,50,245,40,56,47,316,,36,43,183,42,20,41,073,28,1*7E
$GBGSV,4,4,16,35,19,261,36,37,18,043,28,22,15,307,36,29,14,207,20,1*73
$GBGSV,3,1,09,38,82,146,46,39,69,294,40,46,62,095,19,19,52,354,30,4*7A
$GBGSV,3,2,09,36,43,183,43,20,41,073,32,35,19,261,33,37,18,043,27,4*72
$GBGSV,3,3,09,22,15,307,27,4*4F
$GNACCURACY,2.4*10
$PAIRSAT,1,35,1,0,200,2,0,200,3,0,200,4,0,200,5,0,201,6,0,200,7,0,200,8,0,200,9,0,200,10,0,221,11,0,200,12,0,201,13,0,201,14,0,200,15,0,201,16,0,200,17,0,200,18,0,221,19,0,200,20,0,200,21,0,200,23,0,221,24,0,221,25,0,200,26,0,200,27,0,200,28,0,200,29,0,200,30,0,200,31,0,200,32,0,221,194,0,621,195,0,621,196,0,620,199,0,621*68
$PAIRSAT,2,24,65,0,200,66,0,200,67,0,200,68,0,200,69,0,201,70,0,201,71,0,201,72,0,200,73,0,201,74,0,200,75,0,200,76,0,200,77,0,200,78,0,200,79,0,201,80,0,201,81,0,200,82,0,200,83,0,200,84,0,200,85,0,201,86,0,201,87,0,200,88,0,200*7A
$PAIRSAT,3,23,2,0,1221,3,0,1221,4,0,1200,5,0,200,7,0,1221,8,0,1221,9,0,1200,10,0,1200,11,0,1200,12,0,1200,13,0,1221,15,0,1221,19,0,1200,21,0,1200,24,0,1200,25,0,1200,26,0,1221,27,0,1200,30,0,1221,31,0,1200,33,0,1200,34,0,1200,36,0,1200*6A
$PAIRSAT,4,50,1,0,200,2,0,200,3,0,200,4,0,200,5,0,200,6,0,201,7,0,200,8,0,201,9,0,201,10,0,200,11,0,200,12,0,200,13,0,201,14,0,200,15,0,200,16,0,201,19,0,621,20,0,621,21,0,600,22,0,621,23,0,600,24,0,600,25,0,600,26,0,600,27,0,600,28,0,600,29,0,621,30,0,600,31,0,200,32,0,600,33,0,600,34,0,600,35,0,621,36,0,621,37,0,621,38,0,621,39,0,621,40,0,600,41,0,600,42,0,600,43,0,600,44,0,600,45,0,600,46,0,621,56,0,200,57,0,200,58,0,200,59,0,600,60,0,600,61,0,600*41
$PAIRDGP,9,5,10,12,15,18,23,24,25,32*5B
$GNGGA,114422.200,2500.8229903,N,12132.4655120,E,2,62,0.45,9.675,M,15.25,M,4,3335*74
$GNRMC,114422.200,A,2500.8229903,N,12132.4655120,E,0.03,198.18,260623,,,D,V*0A
$GPHDT,,T*1B
$GNACCURACY,2.4*10
$GNGGA,114422.300,2500.8229963,N,12132.4655060,E,2,62,0.45,9.664,M,15.25,M,4,3335*76
$GNRMC,114422.300,A,2500.8229963,N,12132.4655060,E,0.03,198.18,260623,,,D,V*08
$GPHDT,,T*1B
$GNACCURACY,2.4*10
$GNGGA,114422.400,2500.8230023,N,12132.4655060,E,2,62,0.45,9.663,M,15.25,M,1,3335*76
$GNRMC,114422.400,A,2500.8230023,N,12132.4655060,E,0.03,198.18,260623,,,D,V*0A
$GPHDT,,T*1B
$GNACCURACY,2.4*10
$GNGGA,114422.500,2500.8230083,N,12132.4655060,E,2,62,0.45,9.660,M,15.25,M,1,3335*7E
$GNRMC,114422.500,A,2500.8230083,N,12132.4655060,E,0.03,198.18,260623,,,D,V*01
$GPHDT,,T*1B
$GNACCURACY,2.4*10
$GNGGA,114422.600,2500.8230083,N,12132.4655060,E,2,62,0.45,9.659,M,15.25,M,1,3335*77
$GNRMC,114422.600,A,2500.8230083,N,12132.4655060,E,0.03,198.18,260623,,,D,V*02
$GPHDT,,T*1B
$GNACCURACY,2.4*10
$GNGGA,114422.700,2500.8230143,N,12132.4655060,E,2,61,0.47,9.658,M,15.25,M,1,3335*7B
$GNRMC,114422.700,A,2500.8230143,N,12132.4655060,E,0.03,198.18,260623,,,D,V*0E
$GPHDT,,T*1B
$GNACCURACY,2.4*10
$GNGGA,114422.800,2500.8230143,N,12132.4655060,E,2,61,0.47,9.655,M,15.25,M,1,3335*79
$GNRMC,114422.800,A,2500.8230143,N,12132.4655060,E,0.03,198.18,260623,,,D,V*01
$GPHDT,,T*1B
$GNACCURACY,2.4*10
$GNGGA,114422.900,2500.8230203,N,12132.4655120,E,2,61,0.47,9.651,M,15.25,M,1,3335*7E
$GNRMC,114422.900,A,2500.8230203,N,12132.4655120,E,0.03,198.18,260623,,,D,V*02
$GPHDT,,T*1B
$GNACCURACY,2.4*10
$GNGGA,114423.000,2500.8230263,N,12132.4655060,E,2,62,0.45,9.653,M,15.25,M,2,3335*75
$GNRMC,114423.000,A,2500.8230263,N,12132.4655060,E,0.03,198.18,260623,,,D,V*09
$GPHDT,,T*1B
$GNACCURACY,2.4*10
$GNGGA,114423.100,2500.8230263,N,12132.4655060,E,2,63,0.44,9.650,M,15.25,M,2,3335*77
$GNRMC,114423.100,A,2500.8230263,N,12132.4655060,E,0.03,198.18,260623,,,D,V*08
$GPHDT,,T*1B
$GNGSA,A,3,196,24,199,23,18,194,195,12,10,32,,,0.80,0.45,0.66,1*0B
$GNGSA,A,3,73,80,85,86,71,69,,,,,,,0.80,0.45,0.66,2*0D
$GNGSA,A,3,13,07,08,26,30,02,15,,,,,,0.80,0.45,0.66,3*06
$GNGSA,A,3,08,38,13,39,16,06,46,19,09,36,20,35,0.80,0.45,0.66,4*05
$GNGSA,A,3,37,22,29,,,,,,,,,,0.80,0.45,0.66,4*02
$GPGSV,4,1,15,196,75,070,40,24,65,035,46,199,60,167,38,23,58,344,23,1*69
$GPGSV,4,2,15,18,54,232,45,41,38,242,40,194,34,137,44,15,33,055,25,1*5F
$GPGSV,4,3,15,195,31,179,18,12,26,135,42,10,24,322,30,25,15,172,23,1*59
$GPGSV,4,4,15,05,14,125,24,32,13,276,35,13,04,062,,1*54
$GPGSV,3,1,10,196,75,070,45,24,65,035,49,199,60,167,46,23,58,344,33,8*60
$GPGSV,3,2,10,18,54,232,47,194,34,137,47,195,31,179,30,10,24,322,33,8*6F
$GPGSV,3,3,10,25,15,172,21,32,13,276,36,8*6D
$GLGSV,3,1,09,73,48,154,42,80,47,062,30,70,41,022,13,85,29,237,21,1*72
$GLGSV,3,2,09,86,28,291,43,71,25,323,30,69,10,083,17,79,05,027,13,1*76
$GLGSV,3,3,09,84,01,186,,1*43
$GAGSV,3,1,09,13,50,223,38,07,45,312,36,08,44,033,23,26,35,300,37,7*78
$GAGSV,3,2,09,30,31,138,42,02,27,078,15,15,16,173,21,03,07,070,,7*7C
$GAGSV,3,3,09,27,06,185,,7*45
$GAGSV,2,1,07,13,50,223,46,07,45,312,42,08,44,033,32,26,35,300,38,1*74
$GAGSV,2,2,07,30,31,138,43,02,27,078,16,15,16,173,20,1*45
$GBGSV,4,1,15,08,83,355,40,38,82,146,44,13,71,326,44,39,69,294,44,1*78
$GBGSV,4,2,15,16,66,268,41,06,65,264,39,46,62,095,24,19,52,354,38,1*7F
$GBGSV,4,3,15,09,50,245,38,36,43,183,42,20,41,073,26,35,19,261,35,1*75
$GBGSV,4,4,15,37,18,043,29,22,15,307,36,29,14,207,23,1*4C
$GBGSV,3,1,09,38,82,146,46,39,69,294,44,46,62,095,19,19,52,354,30,4*7E
$GBGSV,3,2,09,36,43,183,43,20,41,073,32,35,19,261,31,37,18,043,29,4*7E
$GBGSV,3,3,09,22,15,307,33,4*4A
$GNACCURACY,2.4*10
$PAIRSAT,1,35,1,0,200,2,0,200,3,0,200,4,0,200,5,0,201,6,0,200,7,0,200,8,0,200,9,0,200,10,0,221,11,0,200,12,0,201,13,0,201,14,0,200,15,0,201,16,0,200,17,0,200,18,0,221,19,0,200,20,0,200,21,0,200,23,0,221,24,0,221,25,0,200,26,0,200,27,0,200,28,0,200,29,0,200,30,0,200,31,0,200,32,0,221,194,0,621,195,0,621,196,0,620,199,0,621*68
$PAIRSAT,2,24,65,0,200,66,0,200,67,0,200,68,0,200,69,0,201,70,0,201,71,0,201,72,0,200,73,0,201,74,0,200,75,0,200,76,0,200,77,0,200,78,0,200,79,0,201,80,0,201,81,0,200,82,0,200,83,0,200,84,0,200,85,0,201,86,0,201,87,0,200,88,0,200*7A
$PAIRSAT,3,23,2,0,1221,3,0,1221,4,0,1200,5,0,200,7,0,1221,8,0,1221,9,0,1200,10,0,1200,11,0,1200,12,0,1200,13,0,1221,15,0,1221,19,0,1200,21,0,1200,24,0,1200,25,0,1200,26,0,1221,27,0,1200,30,0,1221,31,0,1200,33,0,1200,34,0,1200,36,0,1200*6A
$PAIRSAT,4,50,1,0,200,2,0,200,3,0,200,4,0,200,5,0,200,6,0,201,7,0,200,8,0,201,9,0,201,10,0,200,11,0,200,12,0,200,13,0,201,14,0,200,15,0,200,16,0,201,19,0,621,20,0,621,21,0,600,22,0,621,23,0,600,24,0,600,25,0,600,26,0,600,27,0,600,28,0,600,29,0,621,30,0,600,31,0,200,32,0,600,33,0,600,34,0,600,35,0,621,36,0,621,37,0,621,38,0,621,39,0,621,40,0,600,41,0,600,42,0,600,43,0,600,44,0,600,45,0,600,46,0,621,56,0,200,57,0,200,58,0,200,59,0,600,60,0,600,61,0,600*41
$PAIRDGP,9,5,10,12,15,18,23,24,25,32*5B
$GNGGA,114423.200,2500.8230263,N,12132.4655060,E,2,62,0.45,9.652,M,15.25,M,2,3335*76
$GNRMC,114423.200,A,2500.8230263,N,12132.4655060,E,0.03,198.18,260623,,,D,V*0B
$GPHDT,,T*1B
$GNACCURACY,2.4*10
$GNGGA,114423.300,2500.8230263,N,12132.4655000,E,2,62,0.45,9.652,M,15.25,M,2,3335*71
$GNRMC,114423.300,A,2500.8230263,N,12132.4655000,E,0.03,198.18,260623,,,D,V*0C
$GPHDT,,T*1B
$GNACCURACY,2.3*17
$GNGGA,114423.400,2500.8230323,N,12132.4654940,E,2,62,0.45,9.651,M,15.25,M,2,3335*7C
$GNRMC,114423.400,A,2500.8230323,N,12132.4654940,E,0.02,198.18,260623,,,D,V*03
$GPHDT,,T*1B
$GNACCURACY,2.3*17
$GNGGA,114423.500,2500.8230323,N,12132.4654940,E,2,62,0.45,9.649,M,15.25,M,1,3335*77
$GNRMC,114423.500,A,2500.8230323,N,12132.4654940,E,0.03,198.18,260623,,,D,V*03
$GPHDT,,T*1B
$GNACCURACY,2.3*17
$GNGGA,114423.600,2500.8230323,N,12132.4654880,E,2,62,0.45,9.648,M,15.25,M,1,3335*78
$GNRMC,114423.600,A,2500.8230323,N,12132.4654880,E,0.02,198.18,260623,,,D,V*0C
$GPHDT,,T*1B
$GNACCURACY,2.3*17
$GNGGA,114423.700,2500.8230383,N,12132.4654820,E,2,63,0.44,9.644,M,15.25,M,1,3335*75
$GNRMC,114423.700,A,2500.8230383,N,12132.4654820,E,0.03,198.18,260623,,,D,V*0C
$GPHDT,,T*1B
$GNACCURACY,2.3*17
$GNGGA,114423.800,2500.8230443,N,12132.4654760,E,2,63,0.44,9.640,M,15.25,M,1,3335*7E
$GNRMC,114423.800,A,2500.8230443,N,12132.4654760,E,0.03,198.18,260623,,,D,V*03
$GPHDT,,T*1B
$GNACCURACY,2.3*17
$GNGGA,114423.900,2500.8230503,N,12132.4654700,E,2,63,0.44,9.633,M,15.25,M,1,3335*78
$GNRMC,114423.900,A,2500.8230503,N,12132.4654700,E,0.03,198.18,260623,,,D,V*01
$GPHDT,,T*1B
$GNACCURACY,2.3*17
$GNGGA,114424.000,2500.8230563,N,12132.4654700,E,2,63,0.44,9.627,M,15.25,M,2,3335*76
$GNRMC,114424.000,A,2500.8230563,N,12132.4654700,E,0.03,198.18,260623,,,D,V*09
$GPHDT,,T*1B
$GNACCURACY,2.3*17
$GNGGA,114424.100,2500.8230623,N,12132.4654580,E,2,63,0.44,9.621,M,15.25,M,2,3335*7C
$GNRMC,114424.100,A,2500.8230623,N,12132.4654580,E,0.02,198.18,260623,,,D,V*04
$GPHDT,,T*1B
$GNGSA,A,3,196,24,199,23,18,194,195,12,10,32,,,0.80,0.45,0.66,1*0B
$GNGSA,A,3,73,80,85,86,71,69,,,,,,,0.80,0.45,0.66,2*0D
$GNGSA,A,3,13,07,08,26,30,02,15,,,,,,0.80,0.45,0.66,3*06
$GNGSA,A,3,08,38,13,39,16,06,46,19,09,36,20,35,0.80,0.45,0.66,4*05
$GNGSA,A,3,37,22,29,,,,,,,,,,0.80,0.45,0.66,4*02
$GPGSV,4,1,15,196,75,070,40,24,65,035,46,199,60,167,38,23,58,344,22,1*68
$GPGSV,4,2,15,18,54,232,46,41,38,242,40,194,34,137,44,15,33,055,24,1*5D
$GPGSV,4,3,15,195,31,179,23,12,26,135,42,10,24,322,33,25,15,172,24,1*55
$GPGSV,4,4,15,05,14,125,23,32,13,276,31,13,04,062,,1*57
$GPGSV,3,1,10,196,75,070,45,24,65,035,49,199,60,167,48,23,58,344,37,8*6A
$GPGSV,3,2,10,18,54,232,48,194,34,137,48,195,31,179,28,10,24,322,34,8*61
$GPGSV,3,3,10,25,15,172,21,32,13,276,39,8*62
$GLGSV,3,1,09,73,48,154,43,80,46,061,31,70,41,022,13,85,29,237,21,1*70
$GLGSV,3,2,09,86,28,291,37,71,25,323,32,69,10,083,15,79,05,027,12,1*74
$GLGSV,3,3,09,84,01,186,,1*43
$GAGSV,3,1,09,13,50,223,35,07,45,312,35,08,44,033,23,26,35,300,34,7*75
$GAGSV,3,2,09,30,31,138,42,02,27,078,16,15,16,173,20,03,07,070,,7*7E
$GAGSV,3,3,09,27,06,185,,7*45
$GAGSV,2,1,07,13,50,223,46,07,45,312,42,08,44,033,32,26,35,300,39,1*75
$GAGSV,2,2,07,30,31,138,44,02,27,078,18,15,16,173,21,1*4D
$GBGSV,4,1,15,08,83,355,40,38,82,146,44,13,71,326,44,39,69,294,44,1*78
$GBGSV,4,2,15,16,66,268,44,06,65,264,42,46,62,095,24,19,52,354,38,1*76
$GBGSV,4,3,15,09,50,245,41,36,43,183,42,20,41,073,27,35,19,261,33,1*7C
$GBGSV,4,4,15,37,18,043,28,22,15,307,37,29,14,207,20,1*4F
$GBGSV,3,1,10,38,82,146,46,39,69,294,44,46,62,095,18,19,52,354,29,4*7F
$GBGSV,3,2,10,36,43,183,44,20,41,073,33,35,19,261,29,37,18,043,28,4*78
$GBGSV,3,3,10,22,15,307,33,29,14,207,19,4*71
$GNACCURACY,2.3*17
$PAIRSAT,1,35,1,0,200,2,0,200,3,0,200,4,0,200,5,0,201,6,0,200,7,0,200,8,0,200,9,0,200,10,0,221,11,0,200,12,0,201,13,0,201,14,0,200,15,0,201,16,0,200,17,0,200,18,0,221,19,0,200,20,0,200,21,0,200,23,0,221,24,0,221,25,0,200,26,0,200,27,0,200,28,0,200,29,0,200,30,0,200,31,0,200,32,0,221,194,0,621,195,0,621,196,0,620,199,0,621*68
$PAIRSAT,2,24,65,0,200,66,0,200,67,0,200,68,0,200,69,0,201,70,0,201,71,0,201,72,0,200,73,0,201,74,0,200,75,0,200,76,0,200,77,0,200,78,0,200,79,0,201,80,0,201,81,0,200,82,0,200,83,0,200,84,0,200,85,0,201,86,0,201,87,0,200,88,0,200*7A
$PAIRSAT,3,23,2,0,1221,3,0,1221,4,0,1200,5,0,200,7,0,1221,8,0,1221,9,0,1200,10,0,1200,11,0,1200,12,0,1200,13,0,1221,15,0,1221,19,0,1200,21,0,1200,24,0,1200,25,0,1200,26,0,1221,27,0,1200,30,0,1221,31,0,1200,33,0,1200,34,0,1200,36,0,1200*6A
$PAIRSAT,4,50,1,0,200,2,0,200,3,0,200,4,0,200,5,0,200,6,0,201,7,0,200,8,0,201,9,0,201,10,0,200,11,0,200,12,0,200,13,0,201,14,0,200,15,0,200,16,0,201,19,0,621,20,0,621,21,0,600,22,0,621,23,0,600,24,0,600,25,0,600,26,0,600,27,0,600,28,0,600,29,0,621,30,0,600,31,0,200,32,0,600,33,0,600,34,0,600,35,0,621,36,0,621,37,0,621,38,0,621,39,0,621,40,0,600,41,0,600,42,0,600,43,0,600,44,0,600,45,0,600,46,0,621,56,0,200,57,0,200,58,0,200,59,0,600,60,0,600,61,0,600*41
$PAIRDGP,9,5,10,12,15,18,23,24,25,32*5B
$GNGGA,114424.200,2500.8230683,N,12132.4654520,E,2,63,0.45,9.617,M,15.25,M,2,3335*7B
$GNRMC,114424.200,A,2500.8230683,N,12132.4654520,E,0.02,198.18,260623,,,D,V*07
$GPHDT,,T*1B
$GNACCURACY,2.3*17
$GNGGA,114424.300,2500.8230803,N,12132.4654460,E,2,63,0.45,9.611,M,15.25,M,2,3335*7F
$GNRMC,114424.300,A,2500.8230803,N,12132.4654460,E,0.03,198.18,260623,,,D,V*04
$GPHDT,,T*1B
$GNACCURACY,2.3*17
$GNGGA,114424.400,2500.8230863,N,12132.4654400,E,2,63,0.45,9.609,M,15.25,M,2,3335*71
$GNRMC,114424.400,A,2500.8230863,N,12132.4654400,E,0.03,198.18,260623,,,D,V*03
$GPHDT,,T*1B
$GNACCURACY,2.3*17
$GNGGA,114424.500,2500.8230863,N,12132.4654340,E,2,63,0.45,9.605,M,15.25,M,2,3335*7F
$GNRMC,114424.500,A,2500.8230863,N,12132.4654340,E,0.03,198.18,260623,,,D,V*01
$GPHDT,,T*1B
$GNACCURACY,2.3*17
$GNGGA,114424.600,2500.8230983,N,12132.4654280,E,2,62,0.45,9.597,M,15.25,M,2,3335*77
$GNRMC,114424.600,A,2500.8230983,N,12132.4654280,E,0.03,198.18,260623,,,D,V*00
$GPHDT,,T*1B
$GNACCURACY,2.3*17
$GNGGA,114424.700,2500.8231043,N,12132.4654220,E,2,62,0.45,9.592,M,15.25,M,2,3335*7D
$GNRMC,114424.700,A,2500.8231043,N,12132.4654220,E,0.03,198.18,260623,,,D,V*0F
$GPHDT,,T*1B
$GNACCURACY,2.3*17
$GNGGA,114424.800,2500.8231043,N,12132.4654160,E,2,62,0.45,9.588,M,15.25,M,2,3335*7E
$GNRMC,114424.800,A,2500.8231043,N,12132.4654160,E,0.03,198.18,260623,,,D,V*07
$GPHDT,,T*1B
$GNACCURACY,2.4*10
$GNGGA,114424.900,2500.8231103,N,12132.4654040,E,2,62,0.45,9.581,M,15.25,M,2,3335*70
$GNRMC,114424.900,A,2500.8231103,N,12132.4654040,E,0.03,198.18,260623,,,D,V*00
$GPHDT,,T*1B
$GNACCURACY,2.4*10
$GNGGA,114425.000,2500.8231163,N,12132.4653980,E,2,62,0.45,9.571,M,15.25,M,3,3335*72
$GNRMC,114425.000,A,2500.8231163,N,12132.4653980,E,0.03,198.18,260623,,,D,V*0C
$GPHDT,,T*1B
$GNACCURACY,2.4*10
$GNGGA,114425.100,2500.8231223,N,12132.4653920,E,2,63,0.44,9.564,M,15.25,M,3,3335*7A
$GNRMC,114425.100,A,2500.8231223,N,12132.4653920,E,0.03,198.18,260623,,,D,V*00
$GPHDT,,T*1B
$GNGSA,A,3,196,24,199,23,18,194,15,195,12,10,32,,0.79,0.44,0.66,1*08
$GNGSA,A,3,73,80,85,86,71,69,,,,,,,0.79,0.44,0.66,2*0A
$GNGSA,A,3,13,07,08,26,30,02,15,,,,,,0.79,0.44,0.66,3*01
$GNGSA,A,3,08,38,13,39,16,06,46,19,09,36,20,35,0.79,0.44,0.66,4*02
$GNGSA,A,3,37,22,29,,,,,,,,,,0.79,0.44,0.66,4*05
$GPGSV,4,1,15,196,75,070,40,24,65,035,46,199,60,167,38,23,58,344,23,1*69
$GPGSV,4,2,15,18,54,232,46,41,38,242,41,194,34,137,45,15,33,055,21,1*58
$GPGSV,4,3,15,195,31,179,24,12,26,135,42,10,24,322,34,25,15,172,23,1*52
$GPGSV,4,4,15,05,14,125,23,32,13,276,34,13,04,062,,1*52
$GPGSV,3,1,10,196,75,070,45,24,65,035,49,199,60,167,48,23,58,344,36,8*6B
$GPGSV,3,2,10,18,54,232,48,194,34,137,47,195,31,179,25,10,24,322,35,8*62
$GPGSV,3,3,10,25,15,172,20,32,13,276,37,8*6D
$GLGSV,2,1,08,73,48,154,42,80,46,061,31,70,41,022,14,85,29,237,22,1*75
$GLGSV,2,2,08,86,28,291,37,71,25,323,32,69,10,083,17,79,05,027,15,1*71
$GAGSV,3,1,09,13,50,223,34,07,45,312,36,08,44,033,24,26,35,300,34,7*70
$GAGSV,3,2,09,30,31,138,42,02,27,078,14,15,16,173,19,03,07,070,,7*76
$GAGSV,3,3,09,27,06,185,,7*45
$GAGSV,2,1,07,13,50,223,45,07,45,312,42,08,44,033,31,26,35,300,39,1*75
$GAGSV,2,2,07,30,31,138,43,02,27,078,18,15,16,173,20,1*4B
$GBGSV,4,1,15,08,83,355,40,38,82,146,44,13,71,326,44,39,69,294,43,1*7F
$GBGSV,4,2,15,16,66,268,44,06,65,264,42,46,62,095,23,19,52,354,38,1*71
$GBGSV,4,3,15,09,50,245,41,36,43,183,42,20,41,073,27,35,19,261,32,1*7D
$GBGSV,4,4,15,37,18,043,28,22,15,307,37,29,14,207,20,1*4F
$GBGSV,3,1,10,38,82,146,45,39,69,294,44,46,62,095,17,19,52,354,29,4*73
$GBGSV,3,2,10,36,43,183,44,20,41,073,33,35,19,261,29,37,18,043,27,4*77
$GBGSV,3,3,10,22,15,307,33,29,14,207,19,4*71
$GNACCURACY,2.4*10
$PAIRSAT,1,35,1,0,200,2,0,200,3,0,200,4,0,200,5,0,201,6,0,200,7,0,200,8,0,200,9,0,200,10,0,221,11,0,200,12,0,201,13,0,201,14,0,200,15,0,201,16,0,200,17,0,200,18,0,221,19,0,200,20,0,200,21,0,200,23,0,221,24,0,221,25,0,200,26,0,200,27,0,200,28,0,200,29,0,200,30,0,200,31,0,200,32,0,221,194,0,621,195,0,621,196,0,620,199,0,621*68
$PAIRSAT,2,24,65,0,200,66,0,200,67,0,200,68,0,200,69,0,201,70,0,201,71,0,201,72,0,200,73,0,201,74,0,200,75,0,200,76,0,200,77,0,200,78,0,200,79,0,201,80,0,201,81,0,200,82,0,200,83,0,200,84,0,200,85,0,201,86,0,201,87,0,200,88,0,200*7A
$PAIRSAT,3,23,2,0,1221,3,0,1221,4,0,1200,5,0,200,7,0,1221,8,0,1221,9,0,1200,10,0,1200,11,0,1200,12,0,1200,13,0,1221,15,0,1221,19,0,1200,21,0,1200,24,0,1200,25,0,1200,26,0,1221,27,0,1200,30,0,1221,31,0,1200,33,0,1200,34,0,1200,36,0,1200*6A
$PAIRSAT,4,50,1,0,200,2,0,200,3,0,200,4,0,200,5,0,200,6,0,201,7,0,200,8,0,201,9,0,201,10,0,200,11,0,200,12,0,200,13,0,201,14,0,200,15,0,200,16,0,201,19,0,621,20,0,621,21,0,600,22,0,621,23,0,600,24,0,600,25,0,600,26,0,600,27,0,600,28,0,600,29,0,621,30,0,600,31,0,200,32,0,600,33,0,600,34,0,600,35,0,621,36,0,621,37,0,621,38,0,621,39,0,621,40,0,600,41,0,600,42,0,600,43,0,600,44,0,600,45,0,600,46,0,621,56,0,200,57,0,200,58,0,200,59,0,600,60,0,600,61,0,600*41
$PAIRDGP,9,5,10,12,15,18,23,24,25,32*5B
$GNGGA,114425.200,2500.8231343,N,12132.4653860,E,2,64,0.44,9.554,M,15.25,M,3,3335*7F
$GNRMC,114425.200,A,2500.8231343,N,12132.4653860,E,0.03,198.18,260623,,,D,V*01
$GPHDT,,T*1B
$GNACCURACY,2.4*10
$GNGGA,114425.300,2500.8231343,N,12132.4653800,E,2,62,0.44,9.550,M,15.25,M,3,3335*7A
$GNRMC,114425.300,A,2500.8231343,N,12132.4653800,E,0.03,198.18,260623,,,D,V*06
$GPHDT,,T*1B
$GNACCURACY,2.4*10
$GNGGA,114425.400,2500.8231403,N,12132.4653740,E,2,63,0.44,9.540,M,15.25,M,3,3335*75
$GNRMC,114425.400,A,2500.8231403,N,12132.4653740,E,0.02,198.18,260623,,,D,V*08
$GPHDT,,T*1B
$GNACCURACY,2.4*10
$GNGGA,114425.500,2500.8231463,N,12132.4653680,E,2,62,0.44,9.533,M,15.25,M,3,3335*7A
$GNRMC,114425.500,A,2500.8231463,N,12132.4653680,E,0.02,198.18,260623,,,D,V*02
$GPHDT,,T*1B
$GNACCURACY,2.4*10
$GNGGA,114425.600,2500.8231523,N,12132.4653560,E,2,62,0.44,9.526,M,15.25,M,3,3335*75
$GNRMC,114425.600,A,2500.8231523,N,12132.4653560,E,0.02,198.18,260623,,,D,V*09
$GPHDT,,T*1B
$GNACCURACY,2.4*10
$GNGGA,114425.700,2500.8231523,N,12132.4653500,E,2,62,0.44,9.515,M,15.25,M,3,3335*72
$GNRMC,114425.700,A,2500.8231523,N,12132.4653500,E,0.02,198.18,260623,,,D,V*0E
$GPHDT,,T*1B
$GNACCURACY,2.4*10
$GNGGA,114425.800,2500.8231583,N,12132.4653440,E,2,62,0.44,9.507,M,15.25,M,3,3335*71
$GNRMC,114425.800,A,2500.8231583,N,12132.4653440,E,0.02,198.18,260623,,,D,V*0E
$GPHDT,,T*1B
$GNACCURACY,2.4*10
$GNGGA,114425.900,2500.8231643,N,12132.4653380,E,2,63,0.43,9.501,M,15.25,M,3,3335*74
$GNRMC,114425.900,A,2500.8231643,N,12132.4653380,E,0.02,198.18,260623,,,D,V*0B
$GPHDT,,T*1B
$GNACCURACY,2.4*10
$GNGGA,114426.000,2500.8231703,N,12132.4653320,E,2,63,0.44,9.490,M,15.25,M,4,3335*78
$GNRMC,114426.000,A,2500.8231703,N,12132.4653320,E,0.02,198.18,260623,,,D,V*0E
$GPHDT,,T*1B
$GNACCURACY,2.4*10
$GNGGA,114426.100,2500.8231763,N,12132.4653260,E,2,63,0.44,9.482,M,15.25,M,4,3335*79
$GNRMC,114426.100,A,2500.8231763,N,12132.4653260,E,0.02,198.18,260623,,,D,V*0C
$GPHDT,,T*1B
$GNGSA,A,3,196,24,199,23,18,194,15,195,12,10,05,32,0.77,0.43,0.64,1*06
$GNGSA,A,3,73,80,85,86,71,69,,,,,,,0.77,0.43,0.64,2*01
$GNGSA,A,3,13,07,08,26,30,02,15,,,,,,0.77,0.43,0.64,3*0A
$GNGSA,A,3,08,38,13,39,16,06,46,19,09,36,20,35,0.77,0.43,0.64,4*09
$GNGSA,A,3,37,22,29,,,,,,,,,,0.77,0.43,0.64,4*0E
$GPGSV,4,1,15,196,75,070,40,24,65,035,46,199,60,167,38,23,58,344,24,1*6E
$GPGSV,4,2,15,18,54,232,46,41,38,242,40,194,34,137,45,15,33,055,19,1*52
$GPGSV,4,3,15,195,31,179,25,12,26,135,42,10,24,322,34,25,15,172,23,1*53
$GPGSV,4,4,15,05,14,125,24,32,13,276,34,13,04,062,,1*55
$GPGSV,3,1,10,196,75,070,45,24,65,035,49,199,60,167,48,23,58,344,36,8*6B
$GPGSV,3,2,10,18,54,232,48,194,34,137,47,195,31,179,27,10,24,322,35,8*60
$GPGSV,3,3,10,25,15,172,21,32,13,276,35,8*6E
$GLGSV,2,1,08,73,48,154,42,80,46,061,31,70,41,022,14,85,29,237,24,1*73
$GLGSV,2,2,08,86,28,291,38,71,25,323,33,69,10,083,18,79,05,027,11,1*74
$GAGSV,3,1,09,13,50,223,34,07,45,312,36,08,44,033,24,26,35,300,34,7*70
$GAGSV,3,2,09,30,31,138,42,02,27,078,14,15,16,173,19,03,07,070,,7*76
$GAGSV,3,3,09,27,06,185,,7*45
$GAGSV,2,1,07,13,50,223,45,07,45,312,41,08,44,033,31,26,35,300,39,1*76
$GAGSV,2,2,07,30,31,138,43,02,27,078,18,15,16,173,19,1*41
$GBGSV,4,1,15,08,83,354,40,38,82,146,44,13,71,326,44,39,69,294,43,1*7E
$GBGSV,4,2,15,16,66,269,44,06,65,264,42,46,62,095,23,19,52,354,38,1*70
$GBGSV,4,3,15,09,50,245,41,36,43,183,42,20,41,073,27,35,19,261,32,1*7D
$GBGSV,4,4,15,37,18,043,28,22,15,307,37,29,14,207,20,1*4F
$GBGSV,3,1,09,38,82,146,45,39,69,294,44,19,52,354,29,36,43,183,44,4*7F
$GBGSV,3,2,09,20,41,073,32,35,19,261,29,37,18,043,28,22,15,307,33,4*79
$GBGSV,3,3,09,29,14,207,19,4*49
$GNACCURACY,2.4*10
$PAIRSAT,1,35,1,0,200,2,0,200,3,0,200,4,0,200,5,0,201,6,0,200,7,0,200,8,0,200,9,0,200,10,0,221,11,0,200,12,0,201,13,0,201,14,0,200,15,0,201,16,0,200,17,0,200,18,0,221,19,0,200,20,0,200,21,0,200,23,0,221,24,0,221,25,0,200,26,0,200,27,0,200,28,0,200,29,0,200,30,0,200,31,0,200,32,0,221,194,0,621,195,0,621,196,0,620,199,0,621*68
$PAIRSAT,2,24,65,0,200,66,0,200,67,0,200,68,0,200,69,0,201,70,0,201,71,0,201,72,0,200,73,0,201,74,0,200,75,0,200,76,0,200,77,0,200,78,0,200,79,0,201,80,0,201,81,0,200,82,0,200,83,0,200,84,0,200,85,0,201,86,0,201,87,0,200,88,0,200*7A
$PAIRSAT,3,23,2,0,1221,3,0,1221,4,0,1200,5,0,200,7,0,1221,8,0,1221,9,0,1200,10,0,1200,11,0,1200,12,0,1200,13,0,1221,15,0,1221,19,0,1200,21,0,1200,24,0,1200,25,0,1200,26,0,1221,27,0,1200,30,0,1221,31,0,1200,33,0,1200,34,0,1200,36,0,1200*6A
$PAIRSAT,4,50,1,0,200,2,0,200,3,0,200,4,0,200,5,0,200,6,0,201,7,0,200,8,0,201,9,0,201,10,0,200,11,0,200,12,0,200,13,0,201,14,0,200,15,0,200,16,0,201,19,0,621,20,0,621,21,0,600,22,0,621,23,0,600,24,0,600,25,0,600,26,0,600,27,0,600,28,0,600,29,0,621,30,0,600,31,0,200,32,0,600,33,0,600,34,0,600,35,0,621,36,0,621,37,0,621,38,0,621,39,0,621,40,0,600,41,0,600,42,0,600,43,0,600,44,0,600,45,0,600,46,0,621,56,0,200,57,0,200,58,0,200,59,0,600,60,0,600,61,0,600*41
$PAIRDGP,9,5,10,12,15,18,23,24,25,32*5B
$GNGGA,114426.200,2500.8231823,N,12132.4653200,E,2,64,0.43,9.475,M,15.25,M,4,3335*7F
$GNRMC,114426.200,A,2500.8231823,N,12132.4653200,E,0.02,198.18,260623,,,D,V*02
$GPHDT,3.124,T*31
$GNACCURACY,2.4*10
$GNGGA,114426.300,2500.8231823,N,12132.4653140,E,2,62,0.44,9.465,M,15.25,M,4,3335*79
$GNRMC,114426.300,A,2500.8231823,N,12132.4653140,E,0.02,198.18,260623,,,D,V*04
$GPHDT,,T*1B
$GNACCURACY,2.4*10
$GNGGA,114426.400,2500.8231883,N,12132.4653020,E,2,62,0.44,9.454,M,15.25,M,4,3335*71
$GNRMC,114426.400,A,2500.8231883,N,12132.4653020,E,0.02,198.18,260623,,,D,V*0E
$GPHDT,3.150,T*32
$GNACCURACY,2.4*10
$GNGGA,114426.500,2500.8231943,N,12132.4652960,E,2,62,0.44,9.447,M,15.25,M,4,3335*73
$GNRMC,114426.500,A,2500.8231943,N,12132.4652960,E,0.02,198.18,260623,,,D,V*0E
$GPHDT,,T*1B
$GNACCURACY,2.4*10
$GNGGA,114426.600,2500.8231943,N,12132.4652900,E,2,62,0.44,9.444,M,15.25,M,4,3335*75
$GNRMC,114426.600,A,2500.8231943,N,12132.4652900,E,0.02,198.18,260623,,,D,V*0B
$GPHDT,3.541,T*36
$GNACCURACY,2.4*10
$GNGGA,114426.700,2500.8232003,N,12132.4652840,E,2,62,0.44,9.434,M,15.25,M,4,3335*78
$GNRMC,114426.700,A,2500.8232003,N,12132.4652840,E,0.02,198.18,260623,,,D,V*01
$GPHDT,,T*1B
$GNACCURACY,2.4*10
$GNGGA,114426.800,2500.8232003,N,12132.4652780,E,2,62,0.44,9.426,M,15.25,M,4,3335*77
$GNRMC,114426.800,A,2500.8232003,N,12132.4652780,E,0.02,198.18,260623,,,D,V*0D
$GPHDT,3.452,T*35
$GNACCURACY,2.4*10
$GNGGA,114426.900,2500.8232063,N,12132.4652720,E,2,62,0.44,9.421,M,15.25,M,4,3335*7D
$GNRMC,114426.900,A,2500.8232063,N,12132.4652720,E,0.02,198.18,260623,,,D,V*00
$GPHDT,,T*1B
$GNACCURACY,2.4*10
$GNGGA,114427.000,2500.8232063,N,12132.4652600,E,2,64,0.43,9.416,M,15.25,M,5,3335*72
$GNRMC,114427.000,A,2500.8232063,N,12132.4652600,E,0.02,198.18,260623,,,D,V*0B
$GPHDT,3.483,T*39
$GNACCURACY,2.4*10
$GNGGA,114427.100,2500.8232063,N,12132.4652540,E,2,63,0.44,9.413,M,15.25,M,5,3335*71
$GNRMC,114427.100,A,2500.8232063,N,12132.4652540,E,0.02,198.18,260623,,,D,V*0D
$GPHDT,,T*1B
