$FW : RTK35X,V1.1X0314AS,Lib20210517,1*54
$Tool : LOCOSYS , GNSS Firebird , v1.0.0.19*39
$---------------------------------------------------*2D
$GPGSV,4,2,16,18,53,231,45,41,38,242,39,194,34,136,45,15,33,056,30,1*51
$GPGSV,4,3,16,195,31,179,24,12,26,134,41,10,25,322,35,25,15,172,21,1*51
$GPGSV,4,4,16,05,13,125,23,32,13,276,39,13,04,063,,28,01,220,,1*61
$GPGSV,3,1,10,196,75,071,44,24,65,035,48,199,60,167,46,23,59,344,38,8*6B
$GPGSV,3,2,10,18,53,231,46,194,34,136,43,195,31,179,10,10,25,322,33,8*6C
$GPGSV,3,3,10,25,15,172,26,32,13,276,39,8*65
$GLGSV,2,1,08,73,48,154,45,80,46,061,14,70,41,023,,85,28,236,28,1*7B
$GLGSV,2,2,08,86,28,291,41,71,25,323,36,69,10,083,16,79,04,027,19,1*78
$GAGSV,3,1,09,13,50,223,38,07,45,313,41,08,44,033,20,26,35,299,40,7*7B
$GAGSV,3,2,09,30,31,138,43,02,27,077,19,15,16,173,22,03,07,070,,7*7D
$GAGSV,3,3,09,27,06,185,,7*45
$GAGSV,2,1,06,13,50,223,44,07,45,313,44,08,44,033,32,26,35,299,43,1*7D
$GAGSV,2,2,06,30,31,138,40,15,16,173,26,1*7E
$GBGSV,4,1,15,08,84,353,40,38,82,148,42,13,71,326,44,39,69,294,44,1*71
$GBGSV,4,2,15,16,66,269,43,06,64,264,41,46,62,094,24,19,53,355,42,1*7E
$GBGSV,4,3,15,09,50,246,43,36,43,183,41,20,41,073,28,35,18,261,42,1*76
$GBGSV,4,4,15,37,17,043,24,22,16,307,29,29,14,206,28,1*49
$GBGSV,2,1,08,38,82,148,45,39,69,294,45,46,62,094,23,19,53,355,25,4*7E
$GBGSV,2,2,08,36,43,183,44,20,41,073,16,35,18,261,36,22,16,307,37,4*7F
$GNACCURACY,2.3*17
$PAIRSAT,1,35,1,0,200,2,0,200,3,0,200,4,0,200,5,0,201,6,0,200,7,0,200,8,0,200,9,0,200,10,0,221,11,0,200,12,0,201,13,0,201,14,0,200,15,0,201,16,0,200,17,0,200,18,0,221,19,0,200,20,0,200,21,0,200,23,0,221,24,0,221,25,0,200,26,0,200,27,0,200,28,0,200,29,0,200,30,0,200,31,0,200,32,0,221,194,0,621,195,0,621,196,0,620,199,0,621*68
$PAIRSAT,2,24,65,0,200,66,0,200,67,0,200,68,0,200,69,0,200,70,0,200,71,0,201,72,0,200,73,0,201,74,0,200,75,0,200,76,0,200,77,0,200,78,0,200,79,0,201,80,0,201,81,0,200,82,0,200,83,0,200,84,0,200,85,0,201,86,0,201,87,0,200,88,0,200*7A
$PAIRSAT,3,23,2,0,1221,3,0,1221,4,0,1200,5,0,200,7,0,1221,8,0,1221,9,0,1200,10,0,1200,11,0,1200,12,0,1200,13,0,1221,15,0,1221,19,0,1200,21,0,1200,24,0,1200,25,0,1200,26,0,1221,27,0,1200,30,0,1221,31,0,1200,33,0,1200,34,0,1200,36,0,1200*6A
$PAIRSAT,4,50,1,0,200,2,0,200,3,0,200,4,0,200,5,0,200,6,0,201,7,0,200,8,0,201,9,0,201,10,0,200,11,0,200,12,0,200,13,0,201,14,0,200,15,0,200,16,0,201,19,0,621,20,0,621,21,0,600,22,0,621,23,0,600,24,0,600,25,0,600,26,0,600,27,0,600,28,0,600,29,0,621,30,0,600,31,0,200,32,0,600,33,0,600,34,0,600,35,0,621,36,0,621,37,0,621,38,0,621,39,0,621,40,0,600,41,0,600,42,0,600,43,0,600,44,0,600,45,0,600,46,0,621,56,0,200,57,0,200,58,0,200,59,0,600,60,0,600,61,0,600*41
$PAIRDGP,10,5,10,12,15,18,23,24,25,28,32*45
$GNGGA,114536.200,2500.8206603,N,12132.4629099,E,4,60,0.45,16.065,M,15.25,M,1,3335*42
$GNRMC,114536.200,A,2500.8206603,N,12132.4629099,E,0.01,198.18,260623,,,R,V*10
$GPHDT,137.644,T*36
$GNACCURACY,2.3*17
$GNGGA,114536.300,2500.8206632,N,12132.4629117,E,4,60,0.45,16.059,M,15.25,M,1,3335*49
$GNRMC,114536.300,A,2500.8206632,N,12132.4629117,E,0.01,198.18,260623,,,R,V*14
$GPHDT,,T*1B
$GNACCURACY,2.3*17
$GNGGA,114536.400,2500.8206600,N,12132.4629120,E,4,60,0.45,16.057,M,15.25,M,1,3335*45
$GNRMC,114536.400,A,2500.8206600,N,12132.4629120,E,0.01,198.18,260623,,,R,V*16
$GPHDT,137.942,T*3F
$GNACCURACY,2.3*17
$GNGGA,114536.500,2500.8206590,N,12132.4629125,E,4,60,0.45,16.062,M,15.25,M,1,3335*4D
$GNRMC,114536.500,A,2500.8206590,N,12132.4629125,E,0.01,198.18,260623,,,R,V*18
$GPHDT,,T*1B
$GNACCURACY,2.3*17
$GNGGA,114536.600,2500.8206594,N,12132.4629128,E,4,59,0.46,16.057,M,15.25,M,0,3335*49
$GNRMC,114536.600,A,2500.8206594,N,12132.4629128,E,0.01,198.18,260623,,,R,V*12
$GPHDT,137.543,T*32
$GNACCURACY,2.3*17
$GNGGA,114536.700,2500.8206607,N,12132.4629142,E,4,59,0.46,16.053,M,15.25,M,0,3335*49
$GNRMC,114536.700,A,2500.8206607,N,12132.4629142,E,0.01,198.18,260623,,,R,V*16
$GPHDT,,T*1B
$GNACCURACY,2.3*17
$GNGGA,114536.800,2500.8206582,N,12132.4629142,E,4,59,0.46,16.063,M,15.25,M,0,3335*4B
$GNRMC,114536.800,A,2500.8206582,N,12132.4629142,E,0.01,198.18,260623,,,R,V*17
$GPHDT,137.808,T*30
$GNACCURACY,2.3*17
$GNGGA,114536.900,2500.8206609,N,12132.4629134,E,4,60,0.46,16.042,M,15.25,M,0,3335*42
$GNRMC,114536.900,A,2500.8206609,N,12132.4629134,E,0.01,198.18,260623,,,R,V*17
$GPHDT,,T*1B
$GNACCURACY,2.3*17
$GNGGA,114537.000,2500.8206599,N,12132.4629136,E,4,60,0.46,16.063,M,15.25,M,1,3335*40
$GNRMC,114537.000,A,2500.8206599,N,12132.4629136,E,0.01,198.18,260623,,,R,V*17
$GPHDT,138.105,T*3B
$GNACCURACY,2.3*17
$GNGGA,114537.100,2500.8206606,N,12132.4629149,E,4,60,0.46,16.053,M,15.25,M,1,3335*4F
$GNRMC,114537.100,A,2500.8206606,N,12132.4629149,E,0.01,198.18,260623,,,R,V*1B
$GPHDT,,T*1B
$GNGSA,A,3,196,24,199,23,18,194,15,195,12,10,32,,0.84,0.46,0.70,1*0F
$GNGSA,A,3,73,86,85,71,,,,,,,,,0.84,0.46,0.70,2*0A
$GNGSA,A,3,13,07,08,26,30,02,15,,,,,,0.84,0.46,0.70,3*06
$GNGSA,A,3,08,38,13,39,16,06,46,19,09,36,20,35,0.84,0.46,0.70,4*05
$GNGSA,A,3,37,22,29,,,,,,,,,,0.84,0.46,0.70,4*02
$GPGSV,4,1,16,196,75,071,39,24,65,035,41,199,60,167,39,23,59,344,21,1*60
$GPGSV,4,2,16,18,53,231,45,41,38,242,38,194,34,136,45,15,32,056,29,1*59
$GPGSV,4,3,16,195,31,179,25,12,26,134,40,10,25,322,34,25,15,172,19,1*5B
$GPGSV,4,4,16,05,13,125,23,32,13,276,38,13,03,063,,28,01,220,,1*67
$GPGSV,3,1,09,196,75,071,44,24,65,035,48,199,60,167,46,23,59,344,38,8*63
$GPGSV,3,2,09,18,53,231,46,194,34,136,43,10,25,322,32,25,15,172,26,8*57
$GPGSV,3,3,09,32,13,276,40,8*50
$GLGSV,2,1,07,73,48,154,44,80,46,061,15,86,28,291,41,85,28,236,28,1*7C
$GLGSV,2,2,07,71,25,323,36,69,10,083,17,79,04,027,19,1*4D
$GAGSV,3,1,09,13,50,223,38,07,45,313,42,08,44,033,21,26,35,299,40,7*79
$GAGSV,3,2,09,30,31,138,43,02,27,077,19,15,16,173,22,03,07,070,,7*7D
$GAGSV,3,3,09,27,06,185,,7*45
$GAGSV,2,1,06,13,50,223,44,07,45,313,44,08,44,033,32,26,35,299,43,1*7D
$GAGSV,2,2,06,30,31,138,41,15,16,173,27,1*7E
$GBGSV,4,1,15,08,84,353,40,38,82,148,42,13,71,326,43,39,69,294,44,1*76
$GBGSV,4,2,15,16,66,269,43,06,64,264,41,46,62,094,22,19,53,355,42,1*78
$GBGSV,4,3,15,09,50,246,43,36,43,183,41,20,41,073,29,35,18,261,42,1*77
$GBGSV,4,4,15,37,17,043,23,22,16,307,30,29,14,206,29,1*47
$GBGSV,3,1,09,38,82,148,45,39,69,294,44,46,62,094,20,19,53,355,25,4*7C
$GBGSV,3,2,09,36,43,183,44,20,41,073,16,35,18,261,36,37,17,043,17,4*7B
$GBGSV,3,3,09,22,16,307,37,4*4D
$GNACCURACY,2.3*17
$PAIRSAT,1,35,1,0,200,2,0,200,3,0,200,4,0,200,5,0,201,6,0,200,7,0,200,8,0,200,9,0,200,10,0,221,11,0,200,12,0,201,13,0,201,14,0,200,15,0,201,16,0,200,17,0,200,18,0,221,19,0,200,20,0,200,21,0,200,23,0,221,24,0,221,25,0,200,26,0,200,27,0,200,28,0,200,29,0,200,30,0,200,31,0,200,32,0,221,194,0,621,195,0,621,196,0,620,199,0,621*68
$PAIRSAT,2,24,65,0,200,66,0,200,67,0,200,68,0,200,69,0,200,70,0,200,71,0,201,72,0,200,73,0,201,74,0,200,75,0,200,76,0,200,77,0,200,78,0,200,79,0,201,80,0,201,81,0,200,82,0,200,83,0,200,84,0,200,85,0,201,86,0,201,87,0,200,88,0,200*7A
$PAIRSAT,3,23,2,0,1221,3,0,1221,4,0,1200,5,0,200,7,0,1221,8,0,1221,9,0,1200,10,0,1200,11,0,1200,12,0,1200,13,0,1221,15,0,1221,19,0,1200,21,0,1200,24,0,1200,25,0,1200,26,0,1221,27,0,1200,30,0,1221,31,0,1200,33,0,1200,34,0,1200,36,0,1200*6A
$PAIRSAT,4,50,1,0,200,2,0,200,3,0,200,4,0,200,5,0,200,6,0,201,7,0,200,8,0,201,9,0,201,10,0,200,11,0,200,12,0,200,13,0,201,14,0,200,15,0,200,16,0,201,19,0,621,20,0,621,21,0,600,22,0,621,23,0,600,24,0,600,25,0,600,26,0,600,27,0,600,28,0,600,29,0,621,30,0,600,31,0,200,32,0,600,33,0,600,34,0,600,35,0,621,36,0,621,37,0,621,38,0,621,39,0,621,40,0,600,41,0,600,42,0,600,43,0,600,44,0,600,45,0,600,46,0,621,56,0,200,57,0,200,58,0,200,59,0,600,60,0,600,61,0,600*41
$PAIRDGP,10,5,10,12,15,18,23,24,25,28,32*45
$GNGGA,114537.200,2500.8206623,N,12132.4629126,E,4,60,0.46,16.044,M,15.25,M,1,3335*44
$GNRMC,114537.200,A,2500.8206623,N,12132.4629126,E,0.01,198.18,260623,,,R,V*16
$GPHDT,138.243,T*3A
$GNACCURACY,2.3*17
$GNGGA,114537.300,2500.8206604,N,12132.4629108,E,4,60,0.46,16.051,M,15.25,M,1,3335*48
$GNRMC,114537.300,A,2500.8206604,N,12132.4629108,E,0.01,198.18,260623,,,R,V*1E
$GPHDT,,T*1B
$GNACCURACY,2.3*17
$GNGGA,114537.400,2500.8206628,N,12132.4629137,E,4,60,0.46,16.043,M,15.25,M,1,3335*4E
$GNRMC,114537.400,A,2500.8206628,N,12132.4629137,E,0.01,198.18,260623,,,R,V*1B
$GPHDT,138.197,T*30
$GNACCURACY,2.3*17
$GNGGA,114537.500,2500.8206613,N,12132.4629156,E,4,60,0.46,16.054,M,15.25,M,1,3335*46
$GNRMC,114537.500,A,2500.8206613,N,12132.4629156,E,0.01,198.18,260623,,,R,V*15
$GPHDT,,T*1B
$GNACCURACY,2.3*17
$GNGGA,114537.600,2500.8206611,N,12132.4629116,E,4,60,0.46,16.047,M,15.25,M,1,3335*41
$GNRMC,114537.600,A,2500.8206611,N,12132.4629116,E,0.01,198.18,260623,,,R,V*10
$GPHDT,137.974,T*3A
$GNACCURACY,2.3*17
$GNGGA,114537.700,2500.8206603,N,12132.4629165,E,4,60,0.46,16.058,M,15.25,M,1,3335*49
$GNRMC,114537.700,A,2500.8206603,N,12132.4629165,E,0.01,198.18,260623,,,R,V*16
$GPHDT,,T*1B
$GNACCURACY,2.3*17
$GNGGA,114537.800,2500.8206585,N,12132.4629125,E,4,60,0.46,16.067,M,15.25,M,1,3335*43
$GNRMC,114537.800,A,2500.8206585,N,12132.4629125,E,0.01,198.18,260623,,,R,V*10
$GPHDT,138.048,T*33
$GNACCURACY,2.3*17
$GNGGA,114537.900,2500.8206579,N,12132.4629146,E,4,58,0.46,16.070,M,15.25,M,1,3335*49
$GNRMC,114537.900,A,2500.8206579,N,12132.4629146,E,0.01,198.18,260623,,,R,V*17
$GPHDT,,T*1B
$GNACCURACY,2.3*17
$GNGGA,114538.000,2500.8206570,N,12132.4629133,E,4,58,0.46,16.070,M,15.25,M,2,3335*47
$GNRMC,114538.000,A,2500.8206570,N,12132.4629133,E,0.01,198.18,260623,,,R,V*1A
$GPHDT,137.893,T*32
$GNACCURACY,2.3*17
$GNGGA,114538.100,2500.8206599,N,12132.4629125,E,4,58,0.46,16.064,M,15.25,M,2,3335*43
$GNRMC,114538.100,A,2500.8206599,N,12132.4629125,E,0.01,198.18,260623,,,R,V*1B
$GPHDT,,T*1B
$GNGSA,A,3,196,24,199,23,18,194,15,195,12,10,32,,0.84,0.46,0.70,1*0F
$GNGSA,A,3,73,86,85,71,,,,,,,,,0.84,0.46,0.70,2*0A
$GNGSA,A,3,13,07,08,26,30,02,15,,,,,,0.84,0.46,0.70,3*06
$GNGSA,A,3,08,38,13,39,16,06,46,19,09,36,20,35,0.84,0.46,0.70,4*05
$GNGSA,A,3,37,22,29,,,,,,,,,,0.84,0.46,0.70,4*02
$GPGSV,4,1,16,196,75,071,39,24,64,035,41,199,60,167,39,23,59,344,22,1*62
$GPGSV,4,2,16,18,53,231,45,41,38,242,40,194,34,136,45,15,32,056,27,1*58
$GPGSV,4,3,16,195,31,179,26,12,26,134,40,10,25,322,34,25,15,172,19,1*58
$GPGSV,4,4,16,05,13,125,23,32,13,276,38,13,03,063,,28,01,220,,1*67
$GPGSV,3,1,09,196,75,071,44,24,64,035,49,199,60,167,46,23,59,344,37,8*6C
$GPGSV,3,2,09,18,53,231,46,194,34,136,43,10,25,322,32,25,15,172,25,8*54
$GPGSV,3,3,09,32,13,276,40,8*50
$GLGSV,2,1,07,73,48,154,44,80,46,061,18,86,28,291,41,85,28,236,28,1*71
$GLGSV,2,2,07,71,25,323,36,69,10,083,17,79,04,027,19,1*4D
$GAGSV,3,1,09,13,50,223,38,07,45,313,42,08,44,033,23,26,35,299,40,7*7B
$GAGSV,3,2,09,30,31,138,43,02,27,077,19,15,16,173,22,03,07,070,,7*7D
$GAGSV,3,3,09,27,06,185,,7*45
$GAGSV,2,1,06,13,50,223,44,07,45,313,44,08,44,033,33,26,35,299,43,1*7C
$GAGSV,2,2,06,30,31,138,41,15,16,173,27,1*7E
$GBGSV,4,1,15,08,84,353,40,38,82,148,42,13,71,326,43,39,69,294,44,1*76
$GBGSV,4,2,15,16,66,269,43,06,64,264,41,46,62,094,22,19,53,355,42,1*78
$GBGSV,4,3,15,09,50,246,43,36,43,183,41,20,41,073,29,35,18,261,42,1*77
$GBGSV,4,4,15,37,17,043,23,22,16,307,29,29,14,206,29,1*4F
$GBGSV,2,1,08,38,82,148,45,39,69,294,44,46,62,094,23,19,53,355,25,4*7F
$GBGSV,2,2,08,36,43,183,44,35,18,261,36,37,17,043,17,22,16,307,37,4*78
$GNACCURACY,2.3*17
$PAIRSAT,1,35,1,0,200,2,0,200,3,0,200,4,0,200,5,0,201,6,0,200,7,0,200,8,0,200,9,0,200,10,0,221,11,0,200,12,0,201,13,0,201,14,0,200,15,0,201,16,0,200,17,0,200,18,0,221,19,0,200,20,0,200,21,0,200,23,0,221,24,0,221,25,0,200,26,0,200,27,0,200,28,0,200,29,0,200,30,0,200,31,0,200,32,0,221,194,0,621,195,0,621,196,0,620,199,0,621*68
$PAIRSAT,2,24,65,0,200,66,0,200,67,0,200,68,0,200,69,0,200,70,0,200,71,0,201,72,0,200,73,0,201,74,0,200,75,0,200,76,0,200,77,0,200,78,0,200,79,0,201,80,0,201,81,0,200,82,0,200,83,0,200,84,0,200,85,0,201,86,0,201,87,0,200,88,0,200*7A
$PAIRSAT,3,23,2,0,1221,3,0,1221,4,0,1200,5,0,200,7,0,1221,8,0,1221,9,0,1200,10,0,1200,11,0,1200,12,0,1200,13,0,1221,15,0,1221,19,0,1200,21,0,1200,24,0,1200,25,0,1200,26,0,1221,27,0,1200,30,0,1221,31,0,1200,33,0,1200,34,0,1200,36,0,1200*6A
$PAIRSAT,4,50,1,0,200,2,0,200,3,0,200,4,0,200,5,0,200,6,0,201,7,0,200,8,0,201,9,0,201,10,0,200,11,0,200,12,0,200,13,0,201,14,0,200,15,0,200,16,0,201,19,0,621,20,0,621,21,0,600,22,0,621,23,0,600,24,0,600,25,0,600,26,0,600,27,0,600,28,0,600,29,0,621,30,0,600,31,0,200,32,0,600,33,0,600,34,0,600,35,0,621,36,0,621,37,0,621,38,0,621,39,0,621,40,0,600,41,0,600,42,0,600,43,0,600,44,0,600,45,0,600,46,0,621,56,0,200,57,0,200,58,0,200,59,0,600,60,0,600,61,0,600*41
$PAIRDGP,10,5,10,12,15,18,23,24,25,28,32*45
$GNGGA,114538.200,2500.8206572,N,12132.4629139,E,4,59,0.46,16.066,M,15.25,M,1,3335*48
$GNRMC,114538.200,A,2500.8206572,N,12132.4629139,E,0.01,198.18,260623,,,R,V*10
$GPHDT,138.106,T*38
$GNACCURACY,2.3*17
$GNGGA,114538.300,2500.8206554,N,12132.4629112,E,4,59,0.46,16.072,M,15.25,M,1,3335*41
$GNRMC,114538.300,A,2500.8206554,N,12132.4629112,E,0.01,198.18,260623,,,R,V*1C
$GPHDT,,T*1B
$GNACCURACY,2.3*17
$GNGGA,114538.400,2500.8206569,N,12132.4629114,E,4,59,0.46,16.072,M,15.25,M,1,3335*4E
$GNRMC,114538.400,A,2500.8206569,N,12132.4629114,E,0.01,198.18,260623,,,R,V*13
$GPHDT,138.188,T*3E
$GNACCURACY,2.3*17
$GNGGA,114538.500,2500.8206565,N,12132.4629117,E,4,58,0.46,16.070,M,15.25,M,1,3335*43
$GNRMC,114538.500,A,2500.8206565,N,12132.4629117,E,0.01,198.18,260623,,,R,V*1D
$GPHDT,,T*1B
$GNACCURACY,2.3*17
$GNGGA,114538.600,2500.8206547,N,12132.4629112,E,4,58,0.46,16.072,M,15.25,M,1,3335*47
$GNRMC,114538.600,A,2500.8206547,N,12132.4629112,E,0.01,198.18,260623,,,R,V*1B
$GPHDT,137.980,T*31
$GNACCURACY,2.3*17
$GNGGA,114538.700,2500.8206573,N,12132.4629117,E,4,58,0.46,16.070,M,15.25,M,1,3335*46
$GNRMC,114538.700,A,2500.8206573,N,12132.4629117,E,0.01,198.18,260623,,,R,V*18
$GPHDT,,T*1B
$GNACCURACY,2.3*17
$GNGGA,114538.800,2500.8206550,N,12132.4629099,E,4,58,0.46,16.071,M,15.25,M,1,3335*4E
$GNRMC,114538.800,A,2500.8206550,N,12132.4629099,E,0.01,198.18,260623,,,R,V*11
$GPHDT,138.070,T*38
$GNACCURACY,2.3*17
$GNGGA,114538.900,2500.8206570,N,12132.4629139,E,4,58,0.46,16.076,M,15.25,M,1,3335*41
$GNRMC,114538.900,A,2500.8206570,N,12132.4629139,E,0.01,198.18,260623,,,R,V*19
$GPHDT,,T*1B
$GNACCURACY,2.3*17
$GNGGA,114539.000,2500.8206577,N,12132.4629094,E,4,58,0.46,16.071,M,15.25,M,2,3335*4C
$GNRMC,114539.000,A,2500.8206577,N,12132.4629094,E,0.01,198.18,260623,,,R,V*10
$GPHDT,138.141,T*3B
$GNACCURACY,2.3*17
$GNGGA,114539.100,2500.8206550,N,12132.4629085,E,4,58,0.46,16.071,M,15.25,M,2,3335*48
$GNRMC,114539.100,A,2500.8206550,N,12132.4629085,E,0.01,198.18,260623,,,R,V*14
$GPHDT,,T*1B
$GNGSA,A,3,196,24,199,23,18,194,15,195,12,10,32,,0.83,0.45,0.70,1*0B
$GNGSA,A,3,73,80,86,85,71,,,,,,,,0.83,0.45,0.70,2*06
$GNGSA,A,3,13,07,08,26,30,02,15,,,,,,0.83,0.45,0.70,3*02
$GNGSA,A,3,08,38,13,39,16,06,46,19,09,36,20,35,0.83,0.45,0.70,4*01
$GNGSA,A,3,37,22,29,,,,,,,,,,0.83,0.45,0.70,4*06
$GPGSV,4,1,16,196,75,071,39,24,64,035,41,199,60,167,39,23,59,344,22,1*62
$GPGSV,4,2,16,18,53,231,45,41,38,242,39,194,34,136,45,15,32,056,27,1*56
$GPGSV,4,3,16,195,31,179,25,12,26,134,40,10,25,322,34,25,15,172,18,1*5A
$GPGSV,4,4,16,05,13,125,23,32,13,277,38,13,03,063,,28,01,221,,1*67
$GPGSV,3,1,09,196,75,071,44,24,64,035,49,199,60,167,46,23,59,344,37,8*6C
$GPGSV,3,2,09,18,53,231,46,194,34,136,43,10,25,322,32,25,15,172,26,8*57
$GPGSV,3,3,09,32,13,277,40,8*51
$GLGSV,2,1,07,73,48,154,44,80,46,061,18,86,28,291,41,85,28,236,28,1*71
$GLGSV,2,2,07,71,25,323,36,69,10,083,15,79,04,027,18,1*4E
$GAGSV,3,1,09,13,50,223,38,07,45,313,42,08,44,033,23,26,35,299,40,7*7B
$GAGSV,3,2,09,30,31,138,43,02,27,077,19,15,16,173,22,03,07,070,,7*7D
$GAGSV,3,3,09,27,06,185,,7*45
$GAGSV,2,1,06,13,50,223,44,07,45,313,44,08,44,033,33,26,35,299,43,1*7C
$GAGSV,2,2,06,30,31,138,41,15,16,173,28,1*71
$GBGSV,4,1,15,08,84,353,40,38,82,148,42,13,71,326,43,39,69,294,44,1*76
$GBGSV,4,2,15,16,66,269,43,06,64,264,41,46,62,094,21,19,53,355,42,1*7B
$GBGSV,4,3,15,09,50,246,43,36,43,183,41,20,41,073,29,35,18,261,42,1*77
$GBGSV,4,4,15,37,17,043,23,22,16,307,29,29,14,206,29,1*4F
$GBGSV,2,1,07,38,82,148,45,39,69,294,43,19,53,355,23,36,43,183,43,4*74
$GBGSV,2,2,07,35,18,261,36,37,17,043,13,22,16,307,37,4*4B
$GNACCURACY,2.3*17
$PAIRSAT,1,35,1,0,200,2,0,200,3,0,200,4,0,200,5,0,201,6,0,200,7,0,200,8,0,200,9,0,200,10,0,221,11,0,200,12,0,201,13,0,201,14,0,200,15,0,201,16,0,200,17,0,200,18,0,221,19,0,200,20,0,200,21,0,200,23,0,221,24,0,221,25,0,200,26,0,200,27,0,200,28,0,200,29,0,200,30,0,200,31,0,200,32,0,221,194,0,621,195,0,621,196,0,620,199,0,621*68
$PAIRSAT,2,24,65,0,200,66,0,200,67,0,200,68,0,200,69,0,200,70,0,200,71,0,201,72,0,200,73,0,201,74,0,200,75,0,200,76,0,200,77,0,200,78,0,200,79,0,201,80,0,201,81,0,200,82,0,200,83,0,200,84,0,200,85,0,201,86,0,201,87,0,200,88,0,200*7A
$PAIRSAT,3,23,2,0,1221,3,0,1221,4,0,1200,5,0,200,7,0,1221,8,0,1221,9,0,1200,10,0,1200,11,0,1200,12,0,1200,13,0,1221,15,0,1221,19,0,1200,21,0,1200,24,0,1200,25,0,1200,26,0,1221,27,0,1200,30,0,1221,31,0,1200,33,0,1200,34,0,1200,36,0,1200*6A
$PAIRSAT,4,50,1,0,200,2,0,200,3,0,200,4,0,200,5,0,200,6,0,201,7,0,200,8,0,201,9,0,201,10,0,200,11,0,200,12,0,200,13,0,201,14,0,200,15,0,200,16,0,201,19,0,621,20,0,621,21,0,600,22,0,621,23,0,600,24,0,600,25,0,600,26,0,600,27,0,600,28,0,600,29,0,621,30,0,600,31,0,200,32,0,600,33,0,600,34,0,600,35,0,621,36,0,621,37,0,621,38,0,621,39,0,621,40,0,600,41,0,600,42,0,600,43,0,600,44,0,600,45,0,600,46,0,621,56,0,200,57,0,200,58,0,200,59,0,600,60,0,600,61,0,600*41
$PAIRDGP,10,5,10,12,15,18,23,24,25,28,32*45
$GNGGA,114539.200,2500.8206558,N,12132.4629109,E,4,59,0.45,16.075,M,15.25,M,2,3335*40
$GNRMC,114539.200,A,2500.8206558,N,12132.4629109,E,0.01,198.18,260623,,,R,V*1A
$GPHDT,138.092,T*34
$GNACCURACY,2.3*17
$GNGGA,114539.300,2500.8206557,N,12132.4629083,E,4,60,0.45,16.073,M,15.25,M,2,3335*41
$GNRMC,114539.300,A,2500.8206557,N,12132.4629083,E,0.01,198.18,260623,,,R,V*17
$GPHDT,,T*1B
$GNACCURACY,2.3*17
$GNGGA,114539.400,2500.8206579,N,12132.4629117,E,4,60,0.45,16.076,M,15.25,M,2,3335*43
$GNRMC,114539.400,A,2500.8206579,N,12132.4629117,E,0.01,198.18,260623,,,R,V*10
$GPHDT,138.251,T*39
$GNACCURACY,2.3*17
$GNGGA,114539.500,2500.8206577,N,12132.4629112,E,4,60,0.45,16.069,M,15.25,M,2,3335*47
$GNRMC,114539.500,A,2500.8206577,N,12132.4629112,E,0.01,198.18,260623,,,R,V*1A
$GPHDT,,T*1B
$GNACCURACY,2.3*17
$GNGGA,114539.600,2500.8206560,N,12132.4629072,E,4,60,0.45,16.077,M,15.25,M,2,3335*4A
$GNRMC,114539.600,A,2500.8206560,N,12132.4629072,E,0.01,198.18,260623,,,R,V*18
$GPHDT,138.036,T*3A
$GNACCURACY,2.3*17
$GNGGA,114539.700,2500.8206541,N,12132.4629086,E,4,60,0.45,16.081,M,15.25,M,2,3335*4A
$GNRMC,114539.700,A,2500.8206541,N,12132.4629086,E,0.00,198.18,260623,,,R,V*10
$GPHDT,,T*1B
$GNACCURACY,2.3*17
$GNGGA,114539.800,2500.8206549,N,12132.4629082,E,4,60,0.45,16.076,M,15.25,M,2,3335*41
$GNRMC,114539.800,A,2500.8206549,N,12132.4629082,E,0.01,198.18,260623,,,R,V*12
$GPHDT,138.094,T*32
$GNACCURACY,2.3*17
$GNGGA,114539.900,2500.8206566,N,12132.4629085,E,4,60,0.45,16.074,M,15.25,M,2,3335*48
$GNRMC,114539.900,A,2500.8206566,N,12132.4629085,E,0.01,198.18,260623,,,R,V*19
$GPHDT,,T*1B
$GNACCURACY,2.3*17
$GNGGA,114540.000,2500.8206576,N,12132.4629064,E,4,60,0.45,16.078,M,15.25,M,3,3335*4C
$GNRMC,114540.000,A,2500.8206576,N,12132.4629064,E,0.00,198.18,260623,,,R,V*11
$GPHDT,137.804,T*3C
$GNACCURACY,2.3*17
$GNGGA,114540.100,2500.8206560,N,12132.4629097,E,4,61,0.45,16.076,M,15.25,M,3,3335*49
$GNRMC,114540.100,A,2500.8206560,N,12132.4629097,E,0.00,198.18,260623,,,R,V*1B
$GPHDT,,T*1B
$GNGSA,A,3,196,24,199,23,18,194,15,195,12,10,32,,0.83,0.45,0.70,1*0B
$GNGSA,A,3,73,80,86,85,71,,,,,,,,0.83,0.45,0.70,2*06
$GNGSA,A,3,13,07,08,26,30,02,15,,,,,,0.83,0.45,0.70,3*02
$GNGSA,A,3,08,38,13,39,16,06,46,19,09,36,20,35,0.83,0.45,0.70,4*01
$GNGSA,A,3,37,22,29,,,,,,,,,,0.83,0.45,0.70,4*06
$GPGSV,4,1,16,196,75,071,39,24,64,035,41,199,60,167,39,23,59,344,21,1*61
$GPGSV,4,2,16,18,53,231,45,41,38,242,39,194,34,136,45,15,32,056,27,1*56
$GPGSV,4,3,16,195,31,179,24,12,26,134,40,10,25,322,34,25,15,172,19,1*5A
$GPGSV,4,4,16,05,13,125,23,32,13,277,39,13,03,063,,28,01,221,,1*66
$GPGSV,3,1,10,196,75,071,44,24,64,035,49,199,60,167,46,23,59,344,37,8*64
$GPGSV,3,2,10,18,53,231,46,194,34,136,43,195,31,179,25,10,25,322,31,8*68
$GPGSV,3,3,10,25,15,172,26,32,13,277,40,8*6A
$GLGSV,2,1,07,73,48,154,44,80,46,061,20,86,28,291,41,85,28,236,28,1*7A
$GLGSV,2,2,07,71,25,323,36,69,10,083,16,79,04,027,18,1*4D
$GAGSV,3,1,09,13,50,223,38,07,45,313,42,08,44,033,23,26,35,299,40,7*7B
$GAGSV,3,2,09,30,31,138,43,02,27,077,22,15,16,173,22,03,07,070,,7*75
$GAGSV,3,3,09,27,06,185,,7*45
$GAGSV,2,1,06,13,50,223,44,07,45,313,44,08,44,033,33,26,35,299,43,1*7C
$GAGSV,2,2,06,30,31,138,41,15,16,173,28,1*71
$GBGSV,4,1,15,08,84,353,40,38,82,148,42,13,71,326,43,39,69,294,44,1*76
$GBGSV,4,2,15,16,66,269,43,06,64,264,41,46,62,094,21,19,53,355,42,1*7B
$GBGSV,4,3,15,09,50,246,43,36,43,183,41,20,41,073,29,35,18,261,42,1*77
$GBGSV,4,4,15,37,17,043,23,22,16,307,29,29,14,206,30,1*47
$GBGSV,2,1,08,38,82,148,45,39,69,294,43,46,62,094,23,19,53,355,23,4*7E
$GBGSV,2,2,08,36,43,183,43,35,18,261,36,37,17,043,13,22,16,307,37,4*7B
$GNACCURACY,2.3*17
$PAIRSAT,1,35,1,0,200,2,0,200,3,0,200,4,0,200,5,0,201,6,0,200,7,0,200,8,0,200,9,0,200,10,0,221,11,0,200,12,0,201,13,0,201,14,0,200,15,0,201,16,0,200,17,0,200,18,0,221,19,0,200,20,0,200,21,0,200,23,0,221,24,0,221,25,0,200,26,0,200,27,0,200,28,0,200,29,0,200,30,0,200,31,0,200,32,0,221,194,0,621,195,0,621,196,0,620,199,0,621*68
$PAIRSAT,2,24,65,0,200,66,0,200,67,0,200,68,0,200,69,0,200,70,0,200,71,0,201,72,0,200,73,0,201,74,0,200,75,0,200,76,0,200,77,0,200,78,0,200,79,0,201,80,0,201,81,0,200,82,0,200,83,0,200,84,0,200,85,0,201,86,0,201,87,0,200,88,0,200*7A
$PAIRSAT,3,23,2,0,1221,3,0,1221,4,0,1200,5,0,200,7,0,1221,8,0,1221,9,0,1200,10,0,1200,11,0,1200,12,0,1200,13,0,1221,15,0,1221,19,0,1200,21,0,1200,24,0,1200,25,0,1200,26,0,1221,27,0,1200,30,0,1221,31,0,1200,33,0,1200,34,0,1200,36,0,1200*6A
$PAIRSAT,4,50,1,0,200,2,0,200,3,0,200,4,0,200,5,0,200,6,0,201,7,0,200,8,0,201,9,0,201,10,0,200,11,0,200,12,0,200,13,0,201,14,0,200,15,0,200,16,0,201,19,0,621,20,0,621,21,0,600,22,0,621,23,0,600,24,0,600,25,0,600,26,0,600,27,0,600,28,0,600,29,0,621,30,0,600,31,0,200,32,0,600,33,0,600,34,0,600,35,0,621,36,0,621,37,0,621,38,0,621,39,0,621,40,0,600,41,0,600,42,0,600,43,0,600,44,0,600,45,0,600,46,0,621,56,0,200,57,0,200,58,0,200,59,0,600,60,0,600,61,0,600*41
$PAIRDGP,10,5,10,12,15,18,23,24,25,28,32*45
$GNGGA,114540.200,2500.8206569,N,12132.4629103,E,4,61,0.45,16.081,M,15.25,M,3,3335*47
$GNRMC,114540.200,A,2500.8206569,N,12132.4629103,E,0.00,198.18,260623,,,R,V*1D
$GPHDT,138.635,T*3F
$GNACCURACY,2.3*17
$GNGGA,114540.300,2500.8206574,N,12132.4629082,E,4,61,0.45,16.084,M,15.25,M,3,3335*47
$GNRMC,114540.300,A,2500.8206574,N,12132.4629082,E,0.00,198.18,260623,,,R,V*18
$GPHDT,,T*1B
$GNACCURACY,2.3*17
$GNGGA,114540.400,2500.8206555,N,12132.4629076,E,4,61,0.45,16.083,M,15.25,M,3,3335*4F
$GNRMC,114540.400,A,2500.8206555,N,12132.4629076,E,0.00,198.18,260623,,,R,V*17
$GPHDT,138.445,T*3A
$GNACCURACY,2.3*17
$GNGGA,114540.500,2500.8206560,N,12132.4629073,E,4,62,0.45,16.088,M,15.25,M,3,3335*45
$GNRMC,114540.500,A,2500.8206560,N,12132.4629073,E,0.00,198.18,260623,,,R,V*15
$GPHDT,,T*1B
$GNACCURACY,2.3*17
$GNGGA,114540.600,2500.8206564,N,12132.4629088,E,4,62,0.45,16.078,M,15.25,M,3,3335*49
$GNRMC,114540.600,A,2500.8206564,N,12132.4629088,E,0.00,198.18,260623,,,R,V*16
$GPHDT,138.443,T*3C
$GNACCURACY,2.3*17
$GNGGA,114540.700,2500.8206552,N,12132.4629062,E,4,63,0.45,16.084,M,15.25,M,3,3335*4B
$GNRMC,114540.700,A,2500.8206552,N,12132.4629062,E,0.00,198.18,260623,,,R,V*16
$GPHDT,,T*1B
$GNACCURACY,2.3*17
$GNGGA,114540.800,2500.8206595,N,12132.4629064,E,4,61,0.45,16.061,M,15.25,M,3,3335*40
$GNRMC,114540.800,A,2500.8206595,N,12132.4629064,E,0.00,198.18,260623,,,R,V*14
$GPHDT,138.729,T*33
$GNACCURACY,2.3*17
$GNGGA,114540.900,2500.8206557,N,12132.4629033,E,4,61,0.45,16.074,M,15.25,M,3,3335*49
$GNRMC,114540.900,A,2500.8206557,N,12132.4629033,E,0.00,198.18,260623,,,R,V*19
$GPHDT,,T*1B
$GNACCURACY,2.3*17
$GNGGA,114541.000,2500.8206590,N,12132.4629032,E,4,61,0.45,16.069,M,15.25,M,4,3335*40
$GNRMC,114541.000,A,2500.8206590,N,12132.4629032,E,0.00,198.18,260623,,,R,V*1B
$GPHDT,138.295,T*31
$GNACCURACY,2.3*17
$GNGGA,114541.100,2500.8206561,N,12132.4629063,E,4,60,0.45,16.075,M,15.25,M,4,3335*47
$GNRMC,114541.100,A,2500.8206561,N,12132.4629063,E,0.00,198.18,260623,,,R,V*10
$GPHDT,,T*1B
$GNGSA,A,3,196,24,199,23,18,194,15,195,12,10,32,,0.83,0.45,0.70,1*0B
$GNGSA,A,3,73,80,86,85,71,,,,,,,,0.83,0.45,0.70,2*06
$GNGSA,A,3,13,07,08,26,30,02,15,,,,,,0.83,0.45,0.70,3*02
$GNGSA,A,3,08,38,13,39,16,06,46,19,09,36,20,35,0.83,0.45,0.70,4*01
$GNGSA,A,3,37,22,29,,,,,,,,,,0.83,0.45,0.70,4*06
$GPGSV,4,1,16,196,75,071,39,24,64,035,41,199,60,167,39,23,59,344,21,1*61
$GPGSV,4,2,16,18,53,231,45,41,38,242,39,194,34,136,45,15,32,056,26,1*57
$GPGSV,4,3,16,195,31,179,24,12,26,134,40,10,25,322,34,25,15,172,19,1*5A
$GPGSV,4,4,16,05,13,125,24,32,13,277,39,13,03,063,,28,01,221,,1*61
$GPGSV,3,1,10,196,75,071,45,24,64,035,49,199,60,167,46,23,59,344,38,8*6A
$GPGSV,3,2,10,18,53,231,47,194,34,136,43,195,31,179,25,10,25,322,32,8*6A
$GPGSV,3,3,10,25,15,172,25,32,13,277,40,8*69
$GLGSV,2,1,07,73,48,154,44,80,46,061,21,86,28,291,41,85,28,236,28,1*7B
$GLGSV,2,2,07,71,25,323,36,69,10,083,16,79,04,027,18,1*4D
$GAGSV,3,1,09,13,50,223,38,07,45,313,42,08,44,033,23,26,35,299,41,7*7A
$GAGSV,3,2,09,30,31,138,43,02,27,077,21,15,16,173,22,03,07,070,,7*76
$GAGSV,3,3,09,27,06,185,,7*45
$GAGSV,2,1,06,13,50,223,45,07,45,313,44,08,44,033,34,26,35,299,43,1*7A
$GAGSV,2,2,06,30,31,138,42,15,16,173,28,1*72
$GBGSV,4,1,15,08,84,353,40,38,82,148,42,13,71,326,43,39,69,294,44,1*76
$GBGSV,4,2,15,16,66,269,43,06,64,264,41,46,62,094,20,19,53,355,42,1*7A
$GBGSV,4,3,15,09,50,246,43,36,43,183,41,20,41,073,29,35,18,261,41,1*74
$GBGSV,4,4,15,37,17,043,24,22,16,307,32,29,14,206,30,1*4A
$GBGSV,2,1,08,38,82,148,46,39,69,294,43,46,62,094,24,19,53,355,30,4*78
$GBGSV,2,2,08,36,43,183,43,20,41,073,23,35,18,261,36,22,16,307,37,4*7E
$GNACCURACY,2.3*17
$PAIRSAT,1,35,1,0,200,2,0,200,3,0,200,4,0,200,5,0,201,6,0,200,7,0,200,8,0,200,9,0,200,10,0,221,11,0,200,12,0,201,13,0,201,14,0,200,15,0,201,16,0,200,17,0,200,18,0,221,19,0,200,20,0,200,21,0,200,23,0,221,24,0,221,25,0,200,26,0,200,27,0,200,28,0,200,29,0,200,30,0,200,31,0,200,32,0,221,194,0,621,195,0,621,196,0,620,199,0,621*68
$PAIRSAT,2,24,65,0,200,66,0,200,67,0,200,68,0,200,69,0,200,70,0,200,71,0,201,72,0,200,73,0,201,74,0,200,75,0,200,76,0,200,77,0,200,78,0,200,79,0,201,80,0,201,81,0,200,82,0,200,83,0,200,84,0,200,85,0,201,86,0,201,87,0,200,88,0,200*7A
$PAIRSAT,3,23,2,0,1221,3,0,1221,4,0,1200,5,0,200,7,0,1221,8,0,1221,9,0,1200,10,0,1200,11,0,1200,12,0,1200,13,0,1221,15,0,1221,19,0,1200,21,0,1200,24,0,1200,25,0,1200,26,0,1221,27,0,1200,30,0,1221,31,0,1200,33,0,1200,34,0,1200,36,0,1200*6A
$PAIRSAT,4,50,1,0,200,2,0,200,3,0,200,4,0,200,5,0,200,6,0,201,7,0,200,8,0,201,9,0,201,10,0,200,11,0,200,12,0,200,13,0,201,14,0,200,15,0,200,16,0,201,19,0,621,20,0,621,21,0,600,22,0,621,23,0,600,24,0,600,25,0,600,26,0,600,27,0,600,28,0,600,29,0,621,30,0,600,31,0,200,32,0,600,33,0,600,34,0,600,35,0,621,36,0,621,37,0,621,38,0,621,39,0,621,40,0,600,41,0,600,42,0,600,43,0,600,44,0,600,45,0,600,46,0,621,56,0,200,57,0,200,58,0,200,59,0,600,60,0,600,61,0,600*41
$PAIRDGP,10,5,10,12,15,18,23,24,25,28,32*45
$GNGGA,114541.200,2500.8206567,N,12132.4629059,E,4,61,0.45,16.077,M,15.25,M,4,3335*48
$GNRMC,114541.200,A,2500.8206567,N,12132.4629059,E,0.00,198.18,260623,,,R,V*1C
$GPHDT,138.167,T*3F
$GNACCURACY,2.3*17
$GNGGA,114541.300,2500.8206558,N,12132.4629065,E,4,61,0.45,16.091,M,15.25,M,4,3335*42
$GNRMC,114541.300,A,2500.8206558,N,12132.4629065,E,0.00,198.18,260623,,,R,V*1E
$GPHDT,,T*1B
$GNACCURACY,2.3*17
$GNGGA,114541.400,2500.8206515,N,12132.4629032,E,4,61,0.45,16.089,M,15.25,M,4,3335*47
$GNRMC,114541.400,A,2500.8206515,N,12132.4629032,E,0.00,198.18,260623,,,R,V*12
$GPHDT,137.526,T*31
$GNACCURACY,2.3*17
$GNGGA,114541.500,2500.8206542,N,12132.4629045,E,4,61,0.45,16.082,M,15.25,M,4,3335*4F
$GNRMC,114541.500,A,2500.8206542,N,12132.4629045,E,0.00,198.18,260623,,,R,V*11
$GPHDT,,T*1B
$GNACCURACY,2.3*17
$GNGGA,114541.600,2500.8206556,N,12132.4629062,E,4,61,0.45,16.076,M,15.25,M,4,3335*47
$GNRMC,114541.600,A,2500.8206556,N,12132.4629062,E,0.00,198.18,260623,,,R,V*12
$GPHDT,137.597,T*3B
$GNACCURACY,2.3*17
$GNGGA,114541.700,2500.8206573,N,12132.4629048,E,4,61,0.45,16.070,M,15.25,M,4,3335*4F
$GNRMC,114541.700,A,2500.8206573,N,12132.4629048,E,0.00,198.18,260623,,,R,V*1C
$GPHDT,,T*1B
$GNACCURACY,2.3*17
$GNGGA,114541.800,2500.8206520,N,12132.4629005,E,4,61,0.45,16.075,M,15.25,M,4,3335*4A
$GNRMC,114541.800,A,2500.8206520,N,12132.4629005,E,0.00,198.18,260623,,,R,V*1C
$GPHDT,137.141,T*34
$GNACCURACY,2.3*17
$GNGGA,114541.900,2500.8206510,N,12132.4629011,E,4,61,0.45,16.086,M,15.25,M,4,3335*41
$GNRMC,114541.900,A,2500.8206510,N,12132.4629011,E,0.00,198.18,260623,,,R,V*1B
