$FW : RTK35X,V1.1X0314AS,Lib20210517,1*54
$Tool : LOCOSYS , GNSS Firebird , v1.0.0.19*39
$---------------------------------------------------*2D
ACCURACY,2.4*10
$GNGGA,114403.500,2500.8225343,N,12132.4647380,E,2,64,0.45,11.476,M,15.25,M,17,3335*75
$GNRMC,114403.500,A,2500.8225343,N,12132.4647380,E,0.04,198.18,260623,,,D,V*00
$GPHDT,,T*1B
$GNACCURACY,2.4*10
$GNGGA,114403.600,2500.8225403,N,12132.4647440,E,2,66,0.43,11.457,M,15.25,M,17,3335*79
$GNRMC,114403.600,A,2500.8225403,N,12132.4647440,E,0.04,198.18,260623,,,D,V*0B
$GPHDT,,T*1B
$GNACCURACY,2.4*10
$GNGGA,114403.700,2500.8225523,N,12132.4647440,E,2,66,0.43,11.435,M,15.25,M,17,3335*7F
$GNRMC,114403.700,A,2500.8225523,N,12132.4647440,E,0.04,198.18,260623,,,D,V*09
$GPHDT,,T*1B
$GNACCURACY,2.4*10
$GNGGA,114403.800,2500.8225583,N,12132.4647500,E,2,66,0.43,11.417,M,15.25,M,17,3335*7F
$GNRMC,114403.800,A,2500.8225583,N,12132.4647500,E,0.03,198.18,260623,,,D,V*0E
$GPHDT,,T*1B
$GNACCURACY,2.4*10
$GNGGA,114403.900,2500.8225583,N,12132.4647560,E,2,66,0.43,11.398,M,15.25,M,17,3335*78
$GNRMC,114403.900,A,2500.8225583,N,12132.4647560,E,0.03,198.18,260623,,,D,V*09
$GPHDT,,T*1B
$GNACCURACY,2.4*10
$GNGGA,114404.000,2500.8225703,N,12132.4647560,E,2,66,0.43,11.379,M,15.25,M,18,3335*7C
$GNRMC,114404.000,A,2500.8225703,N,12132.4647560,E,0.02,198.18,260623,,,D,V*0C
$GPHDT,,T*1B
$GNACCURACY,2.4*10
$GNGGA,114404.100,2500.8225763,N,12132.4647620,E,2,65,0.44,11.357,M,15.25,M,18,3335*74
$GNRMC,114404.100,A,2500.8225763,N,12132.4647620,E,0.02,198.18,260623,,,D,V*0C
$GPHDT,,T*1B
$GNGSA,A,3,196,24,199,23,18,194,195,12,10,32,,,0.70,0.44,0.55,1*05
$GNGSA,A,3,73,80,70,85,86,71,69,,,,,,0.70,0.44,0.55,2*04
$GNGSA,A,3,13,07,08,26,30,02,15,,,,,,0.70,0.44,0.55,3*08
$GNGSA,A,3,08,38,13,39,16,06,46,19,09,36,20,35,0.70,0.44,0.55,4*0B
$GNGSA,A,3,37,22,29,,,,,,,,,,0.70,0.44,0.55,4*0C
$GPGSV,4,1,15,196,75,070,39,24,65,035,48,199,60,167,39,23,58,344,27,1*6C
$GPGSV,4,2,15,18,54,232,45,41,38,242,39,194,34,137,44,15,33,055,27,1*53
$GPGSV,4,3,15,195,31,179,23,12,25,135,44,10,24,322,31,25,15,172,23,1*55
$GPGSV,4,4,15,05,14,124,18,32,13,276,40,13,04,062,,1*58
$GPGSV,3,1,10,196,75,070,46,24,65,035,49,199,60,167,47,23,58,344,28,8*68
$GPGSV,3,2,10,18,54,232,46,194,34,137,47,195,31,179,30,10,24,322,34,8*69
$GPGSV,3,3,10,25,15,172,21,32,13,276,35,8*6E
$GLGSV,3,1,10,73,47,154,44,80,47,062,29,70,41,022,15,85,29,237,18,1*77
$GLGSV,3,2,10,86,28,291,40,71,25,323,36,74,11,186,,69,10,082,18,1*75
$GLGSV,3,3,10,79,05,028,17,84,01,186,,1*7C
$GAGSV,3,1,10,13,50,224,35,07,45,312,42,08,44,033,19,26,35,300,41,7*71
$GAGSV,3,2,10,30,31,139,42,02,27,078,17,15,16,173,21,03,07,070,,7*77
$GAGSV,3,3,10,27,06,185,,25,01,038,,7*70
$GAGSV,2,1,07,13,50,224,42,07,45,312,45,08,44,033,30,26,35,300,43,1*7E
$GAGSV,2,2,07,30,31,139,42,02,27,078,20,15,16,173,16,1*45
$GBGSV,4,1,15,08,83,355,40,38,82,146,44,13,71,326,43,39,69,293,41,1*7D
$GBGSV,4,2,15,16,66,268,42,06,65,263,41,46,62,095,32,19,52,354,33,1*78
$GBGSV,4,3,15,09,50,245,42,36,42,183,43,20,41,072,31,35,19,261,37,1*7D
$GBGSV,4,4,15,37,18,043,25,22,15,307,39,29,14,207,22,1*4E
$GBGSV,3,1,10,38,82,146,46,39,69,293,44,46,62,095,24,19,52,354,22,4*7C
$GBGSV,3,2,10,36,42,183,43,20,41,072,33,35,19,261,29,37,18,043,24,4*73
$GBGSV,3,3,10,22,15,307,33,29,14,207,24,4*7F
$GNACCURACY,2.4*10
$PAIRSAT,1,35,1,0,200,2,0,200,3,0,200,4,0,200,5,0,201,6,0,200,7,0,200,8,0,200,9,0,200,10,0,221,11,0,200,12,0,201,13,0,201,14,0,200,15,0,201,16,0,200,17,0,200,18,0,221,19,0,200,20,0,200,21,0,200,23,0,221,24,0,221,25,0,200,26,0,200,27,0,200,28,0,200,29,0,200,30,0,200,31,0,200,32,0,221,194,0,621,195,0,621,196,0,620,199,0,621*68
$PAIRSAT,2,24,65,0,200,66,0,200,67,0,200,68,0,200,69,0,201,70,0,201,71,0,201,72,0,200,73,0,201,74,0,200,75,0,200,76,0,200,77,0,200,78,0,200,79,0,201,80,0,201,81,0,200,82,0,200,83,0,200,84,0,200,85,0,201,86,0,201,87,0,200,88,0,200*7A
$PAIRSAT,3,23,2,0,1221,3,0,1221,4,0,1200,5,0,200,7,0,1221,8,0,1221,9,0,1200,10,0,1200,11,0,1200,12,0,1200,13,0,1221,15,0,1221,19,0,1200,21,0,1200,24,0,1200,25,0,1200,26,0,1221,27,0,1200,30,0,1221,31,0,1200,33,0,1200,34,0,1200,36,0,1200*6A
$PAIRSAT,4,50,1,0,200,2,0,200,3,0,200,4,0,200,5,0,200,6,0,201,7,0,200,8,0,201,9,0,201,10,0,200,11,0,200,12,0,200,13,0,201,14,0,200,15,0,200,16,0,201,19,0,621,20,0,621,21,0,600,22,0,621,23,0,600,24,0,600,25,0,600,26,0,600,27,0,600,28,0,600,29,0,621,30,0,600,31,0,200,32,0,600,33,0,600,34,0,600,35,0,621,36,0,621,37,0,621,38,0,621,39,0,621,40,0,600,41,0,600,42,0,600,43,0,600,44,0,600,45,0,600,46,0,621,56,0,200,57,0,200,58,0,200,59,0,600,60,0,600,61,0,600*41
$PAIRDGP,9,5,10,12,15,18,23,24,25,32*5B
$GNGGA,114404.200,2500.8225823,N,12132.4647620,E,2,65,0.44,11.337,M,15.25,M,18,3335*7A
$GNRMC,114404.200,A,2500.8225823,N,12132.4647620,E,0.01,198.18,260623,,,D,V*07
$GPHDT,47.271,T*02
$GNACCURACY,2.4*10
$GNGGA,114404.300,2500.8225883,N,12132.4647680,E,2,65,0.44,11.315,M,15.25,M,18,3335*7B
$GNRMC,114404.300,A,2500.8225883,N,12132.4647680,E,0.01,198.18,260623,,,D,V*06
$GPHDT,,T*1B
$GNACCURACY,2.4*10
$GNGGA,114404.400,2500.8225943,N,12132.4647680,E,2,65,0.44,11.293,M,15.25,M,18,3335*7E
$GNRMC,114404.400,A,2500.8225943,N,12132.4647680,E,0.01,198.18,260623,,,D,V*0C
$GPHDT,47.490,T*0B
$GNACCURACY,2.4*10
$GNGGA,114404.500,2500.8226003,N,12132.4647740,E,2,66,0.43,11.269,M,15.25,M,18,3335*7D
$GNRMC,114404.500,A,2500.8226003,N,12132.4647740,E,0.01,198.18,260623,,,D,V*0E
$GPHDT,,T*1B
$GNACCURACY,2.4*10
$GNGGA,114404.600,2500.8226063,N,12132.4647740,E,2,66,0.43,11.246,M,15.25,M,18,3335*75
$GNRMC,114404.600,A,2500.8226063,N,12132.4647740,E,0.01,198.18,260623,,,D,V*0B
$GPHDT,46.501,T*03
$GNACCURACY,2.4*10
$GNGGA,114404.700,2500.8226183,N,12132.4647740,E,2,66,0.43,11.224,M,15.25,M,18,3335*7F
$GNRMC,114404.700,A,2500.8226183,N,12132.4647740,E,0.02,198.18,260623,,,D,V*06
$GPHDT,,T*1B
$GNACCURACY,2.4*10
$GNGGA,114404.800,2500.8226183,N,12132.4647800,E,2,66,0.43,11.202,M,15.25,M,18,3335*7F
$GNRMC,114404.800,A,2500.8226183,N,12132.4647800,E,0.00,198.18,260623,,,D,V*00
$GPHDT,46.638,T*0A
$GNACCURACY,2.4*10
$GNGGA,114404.900,2500.8226243,N,12132.4647800,E,2,66,0.43,11.180,M,15.25,M,18,3335*78
$GNRMC,114404.900,A,2500.8226243,N,12132.4647800,E,0.01,198.18,260623,,,D,V*0F
$GPHDT,,T*1B
$GNACCURACY,2.4*10
$GNGGA,114405.000,2500.8226303,N,12132.4647860,E,2,66,0.43,11.159,M,15.25,M,19,3335*76
$GNRMC,114405.000,A,2500.8226303,N,12132.4647860,E,0.00,198.18,260623,,,D,V*05
$GPHDT,47.302,T*07
$GNACCURACY,2.4*10
$GNGGA,114405.100,2500.8226363,N,12132.4647860,E,2,66,0.43,11.139,M,15.25,M,19,3335*77
$GNRMC,114405.100,A,2500.8226363,N,12132.4647860,E,0.01,198.18,260623,,,D,V*03
$GPHDT,,T*1B
$GNGSA,A,3,196,24,199,23,18,194,15,195,12,10,32,,0.70,0.43,0.55,1*06
$GNGSA,A,3,73,80,70,85,86,71,69,,,,,,0.70,0.43,0.55,2*03
$GNGSA,A,3,13,07,08,26,30,02,15,,,,,,0.70,0.43,0.55,3*0F
$GNGSA,A,3,08,38,13,39,16,06,46,19,09,36,20,35,0.70,0.43,0.55,4*0C
$GNGSA,A,3,37,22,29,,,,,,,,,,0.70,0.43,0.55,4*0B
$GPGSV,4,1,15,196,75,070,39,24,65,035,47,199,60,167,39,23,58,344,29,1*6D
$GPGSV,4,2,15,18,54,232,45,41,38,242,39,194,34,137,44,15,33,055,29,1*5D
$GPGSV,4,3,15,195,31,179,25,12,25,135,44,10,24,322,28,25,15,172,21,1*59
$GPGSV,4,4,15,05,14,124,19,32,13,276,40,13,04,062,,1*59
$GPGSV,3,1,10,196,75,070,46,24,65,035,49,199,60,167,47,23,58,344,30,8*61
$GPGSV,3,2,10,18,54,232,46,194,34,137,47,195,31,179,30,10,24,322,31,8*6C
$GPGSV,3,3,10,25,15,172,20,32,13,276,36,8*6C
$GLGSV,3,1,09,73,47,154,44,80,47,062,30,70,41,022,14,85,29,237,17,1*79
$GLGSV,3,2,09,86,28,291,41,71,25,323,35,69,10,082,18,79,05,028,17,1*74
$GLGSV,3,3,09,84,01,186,,1*43
$GAGSV,3,1,09,13,50,224,36,07,45,312,41,08,44,033,18,26,35,300,43,7*7A
$GAGSV,3,2,09,30,31,139,42,02,27,078,17,15,16,173,22,03,07,070,15,7*78
$GAGSV,3,3,09,27,06,185,,7*45
$GAGSV,2,1,07,13,50,224,42,07,45,312,41,08,44,033,30,26,35,300,45,1*7C
$GAGSV,2,2,07,30,31,139,43,02,27,078,21,15,16,173,17,1*44
$GBGSV,4,1,15,08,83,355,40,38,82,146,44,13,71,326,42,39,69,293,42,1*7F
$GBGSV,4,2,15,16,66,268,42,06,65,263,41,46,62,095,31,19,52,354,34,1*7C
$GBGSV,4,3,15,09,50,245,42,36,42,183,43,20,41,072,32,35,19,261,38,1*71
$GBGSV,4,4,15,37,18,043,30,22,15,307,37,29,14,207,22,1*44
$GBGSV,3,1,10,38,82,146,46,39,69,293,44,46,62,095,23,19,52,354,18,4*72
$GBGSV,3,2,10,36,42,183,43,20,41,072,33,35,19,261,33,37,18,043,25,4*79
$GBGSV,3,3,10,22,15,307,32,29,14,207,21,4*7B
$GNACCURACY,2.4*10
$PAIRSAT,1,35,1,0,200,2,0,200,3,0,200,4,0,200,5,0,201,6,0,200,7,0,200,8,0,200,9,0,200,10,0,221,11,0,200,12,0,201,13,0,201,14,0,200,15,0,201,16,0,200,17,0,200,18,0,221,19,0,200,20,0,200,21,0,200,23,0,221,24,0,221,25,0,200,26,0,200,27,0,200,28,0,200,29,0,200,30,0,200,31,0,200,32,0,221,194,0,621,195,0,621,196,0,620,199,0,621*68
$PAIRSAT,2,24,65,0,200,66,0,200,67,0,200,68,0,200,69,0,201,70,0,201,71,0,201,72,0,200,73,0,201,74,0,200,75,0,200,76,0,200,77,0,200,78,0,200,79,0,201,80,0,201,81,0,200,82,0,200,83,0,200,84,0,200,85,0,201,86,0,201,87,0,200,88,0,200*7A
$PAIRSAT,3,23,2,0,1221,3,0,1221,4,0,1200,5,0,200,7,0,1221,8,0,1221,9,0,1200,10,0,1200,11,0,1200,12,0,1200,13,0,1221,15,0,1221,19,0,1200,21,0,1200,24,0,1200,25,0,1200,26,0,1221,27,0,1200,30,0,1221,31,0,1200,33,0,1200,34,0,1200,36,0,1200*6A
$PAIRSAT,4,50,1,0,200,2,0,200,3,0,200,4,0,200,5,0,200,6,0,201,7,0,200,8,0,201,9,0,201,10,0,200,11,0,200,12,0,200,13,0,201,14,0,200,15,0,200,16,0,201,19,0,621,20,0,621,21,0,600,22,0,621,23,0,600,24,0,600,25,0,600,26,0,600,27,0,600,28,0,600,29,0,621,30,0,600,31,0,200,32,0,600,33,0,600,34,0,600,35,0,621,36,0,621,37,0,621,38,0,621,39,0,621,40,0,600,41,0,600,42,0,600,43,0,600,44,0,600,45,0,600,46,0,621,56,0,200,57,0,200,58,0,200,59,0,600,60,0,600,61,0,600*41
$PAIRDGP,9,5,10,12,15,18,23,24,25,32*5B
$GNGGA,114405.200,2500.8226423,N,12132.4647860,E,2,66,0.43,11.124,M,15.25,M,19,3335*7B
$GNRMC,114405.200,A,2500.8226423,N,12132.4647860,E,0.01,198.18,260623,,,D,V*03
$GPHDT,47.563,T*06
$GNACCURACY,2.3*17
$GNGGA,114405.300,2500.8226483,N,12132.4647920,E,2,66,0.43,11.110,M,15.25,M,19,3335*72
$GNRMC,114405.300,A,2500.8226483,N,12132.4647920,E,0.01,198.18,260623,,,D,V*0D
$GPHDT,,T*1B
$GNACCURACY,2.3*17
$GNGGA,114405.400,2500.8226483,N,12132.4647920,E,2,66,0.43,11.096,M,15.25,M,19,3335*7A
$GNRMC,114405.400,A,2500.8226483,N,12132.4647920,E,0.01,198.18,260623,,,D,V*0A
$GPHDT,46.717,T*06
$GNACCURACY,2.3*17
$GNGGA,114405.500,2500.8226543,N,12132.4647980,E,2,66,0.43,11.083,M,15.25,M,19,3335*78
$GNRMC,114405.500,A,2500.8226543,N,12132.4647980,E,0.00,198.18,260623,,,D,V*0D
$GPHDT,,T*1B
$GNACCURACY,2.3*17
$GNGGA,114405.600,2500.8226603,N,12132.4647980,E,2,66,0.43,11.067,M,15.25,M,19,3335*76
$GNRMC,114405.600,A,2500.8226603,N,12132.4647980,E,0.01,198.18,260623,,,D,V*08
$GPHDT,47.632,T*01
$GNACCURACY,2.3*17
$GNGGA,114405.700,2500.8226603,N,12132.4647980,E,2,66,0.43,11.053,M,15.25,M,19,3335*70
$GNRMC,114405.700,A,2500.8226603,N,12132.4647980,E,0.01,198.18,260623,,,D,V*09
$GPHDT,,T*1B
$GNACCURACY,2.3*17
$GNGGA,114405.800,2500.8226663,N,12132.4647980,E,2,66,0.43,11.038,M,15.25,M,19,3335*74
$GNRMC,114405.800,A,2500.8226663,N,12132.4647980,E,0.01,198.18,260623,,,D,V*00
$GPHDT,47.478,T*0D
$GNACCURACY,2.3*17
$GNGGA,114405.900,2500.8226663,N,12132.4647980,E,2,66,0.43,11.027,M,15.25,M,19,3335*7B
$GNRMC,114405.900,A,2500.8226663,N,12132.4647980,E,0.01,198.18,260623,,,D,V*01
$GPHDT,,T*1B
$GNACCURACY,2.3*17
$GNGGA,114406.000,2500.8226723,N,12132.4648040,E,2,66,0.43,11.012,M,15.25,M,20,3335*72
$GNRMC,114406.000,A,2500.8226723,N,12132.4648040,E,0.02,198.18,260623,,,D,V*07
$GPHDT,47.669,T*0F
$GNACCURACY,2.4*10
$GNGGA,114406.100,2500.8226783,N,12132.4648040,E,2,66,0.43,10.997,M,15.25,M,20,3335*7C
$GNRMC,114406.100,A,2500.8226783,N,12132.4648040,E,0.02,198.18,260623,,,D,V*0C
$GPHDT,,T*1B
$GNGSA,A,3,196,24,199,23,18,194,15,195,12,10,32,,0.79,0.43,0.66,1*0F
$GNGSA,A,3,73,80,70,85,86,71,69,,,,,,0.79,0.43,0.66,2*0A
$GNGSA,A,3,13,07,08,26,30,02,15,,,,,,0.79,0.43,0.66,3*06
$GNGSA,A,3,08,38,13,39,16,06,46,19,09,36,20,35,0.79,0.43,0.66,4*05
$GNGSA,A,3,37,22,29,,,,,,,,,,0.79,0.43,0.66,4*02
$GPGSV,4,1,15,196,75,070,39,24,65,035,47,199,60,167,39,23,58,344,30,1*65
$GPGSV,4,2,15,18,54,232,45,41,38,242,41,194,34,137,44,15,33,055,29,1*52
$GPGSV,4,3,15,195,31,179,28,12,25,135,44,10,24,322,33,25,15,172,21,1*5E
$GPGSV,4,4,15,05,14,124,19,32,13,276,40,13,04,062,,1*59
$GPGSV,3,1,10,196,75,070,46,24,65,035,49,199,60,167,47,23,58,344,32,8*63
$GPGSV,3,2,10,18,54,232,46,194,34,137,47,195,31,179,28,10,24,322,34,8*60
$GPGSV,3,3,10,25,15,172,20,32,13,276,29,8*62
$GLGSV,3,1,09,73,47,154,43,80,47,062,30,70,41,022,15,85,29,237,12,1*7A
$GLGSV,3,2,09,86,28,291,43,71,25,323,36,69,10,082,18,79,05,028,18,1*7A
$GLGSV,3,3,09,84,01,186,,1*43
$GAGSV,3,1,09,13,50,224,35,07,45,312,41,08,44,033,19,26,35,300,41,7*7A
$GAGSV,3,2,09,30,31,139,42,02,27,078,18,15,16,173,20,03,07,070,16,7*76
$GAGSV,3,3,09,27,06,185,,7*45
$GAGSV,2,1,07,13,50,224,43,07,45,312,44,08,44,033,32,26,35,300,43,1*7C
$GAGSV,2,2,07,30,31,139,43,02,27,078,21,15,16,173,17,1*44
$GBGSV,4,1,15,08,83,355,40,38,82,146,44,13,71,326,42,39,69,293,41,1*7C
$GBGSV,4,2,15,16,66,268,42,06,65,263,41,46,62,095,31,19,52,354,34,1*7C
$GBGSV,4,3,15,09,50,245,42,36,42,183,42,20,41,072,31,35,19,261,40,1*7C
$GBGSV,4,4,15,37,18,043,30,22,15,307,38,29,14,207,21,1*48
$GBGSV,3,1,10,38,82,146,46,39,69,293,43,46,62,095,24,19,52,354,23,4*7A
$GBGSV,3,2,10,36,42,183,43,20,41,072,33,35,19,261,29,37,18,043,28,4*7F
$GBGSV,3,3,10,22,15,307,33,29,14,207,24,4*7F
$GNACCURACY,2.4*10
$PAIRSAT,1,35,1,0,200,2,0,200,3,0,200,4,0,200,5,0,201,6,0,200,7,0,200,8,0,200,9,0,200,10,0,221,11,0,200,12,0,201,13,0,201,14,0,200,15,0,201,16,0,200,17,0,200,18,0,221,19,0,200,20,0,200,21,0,200,23,0,221,24,0,221,25,0,200,26,0,200,27,0,200,28,0,200,29,0,200,30,0,200,31,0,200,32,0,221,194,0,621,195,0,621,196,0,620,199,0,621*68
$PAIRSAT,2,24,65,0,200,66,0,200,67,0,200,68,0,200,69,0,201,70,0,201,71,0,201,72,0,200,73,0,201,74,0,200,75,0,200,76,0,200,77,0,200,78,0,200,79,0,201,80,0,201,81,0,200,82,0,200,83,0,200,84,0,200,85,0,201,86,0,201,87,0,200,88,0,200*7A
$PAIRSAT,3,23,2,0,1221,3,0,1221,4,0,1200,5,0,200,7,0,1221,8,0,1221,9,0,1200,10,0,1200,11,0,1200,12,0,1200,13,0,1221,15,0,1221,19,0,1200,21,0,1200,24,0,1200,25,0,1200,26,0,1221,27,0,1200,30,0,1221,31,0,1200,33,0,1200,34,0,1200,36,0,1200*6A
$PAIRSAT,4,50,1,0,200,2,0,200,3,0,200,4,0,200,5,0,200,6,0,201,7,0,200,8,0,201,9,0,201,10,0,200,11,0,200,12,0,200,13,0,201,14,0,200,15,0,200,16,0,201,19,0,621,20,0,621,21,0,600,22,0,621,23,0,600,24,0,600,25,0,600,26,0,600,27,0,600,28,0,600,29,0,621,30,0,600,31,0,200,32,0,600,33,0,600,34,0,600,35,0,621,36,0,621,37,0,621,38,0,621,39,0,621,40,0,600,41,0,600,42,0,600,43,0,600,44,0,600,45,0,600,46,0,621,56,0,200,57,0,200,58,0,200,59,0,600,60,0,600,61,0,600*41
$PAIRDGP,9,5,10,12,15,18,23,24,25,32*5B
$GNGGA,114406.200,2500.8226843,N,12132.4648040,E,2,66,0.43,10.982,M,15.25,M,20,3335*78
$GNRMC,114406.200,A,2500.8226843,N,12132.4648040,E,0.01,198.18,260623,,,D,V*0F
$GPHDT,47.284,T*08
$GNACCURACY,2.3*17
$GNGGA,114406.300,2500.8226903,N,12132.4648100,E,2,66,0.43,10.965,M,15.25,M,20,3335*70
$GNRMC,114406.300,A,2500.8226903,N,12132.4648100,E,0.01,198.18,260623,,,D,V*0E
$GPHDT,,T*1B
$GNACCURACY,2.3*17
$GNGGA,114406.400,2500.8226963,N,12132.4648100,E,2,66,0.43,10.950,M,15.25,M,20,3335*77
$GNRMC,114406.400,A,2500.8226963,N,12132.4648100,E,0.01,198.18,260623,,,D,V*0F
$GPHDT,47.552,T*04
$GNACCURACY,2.3*17
$GNGGA,114406.500,2500.8226963,N,12132.4648100,E,2,66,0.43,10.936,M,15.25,M,20,3335*76
$GNRMC,114406.500,A,2500.8226963,N,12132.4648100,E,0.00,198.18,260623,,,D,V*0F
$GPHDT,,T*1B
$GNACCURACY,2.3*17
$GNGGA,114406.600,2500.8227023,N,12132.4648160,E,2,66,0.43,10.923,M,15.25,M,20,3335*7B
$GNRMC,114406.600,A,2500.8227023,N,12132.4648160,E,0.00,198.18,260623,,,D,V*06
$GPHDT,46.964,T*0C
$GNACCURACY,2.3*17
$GNGGA,114406.700,2500.8227023,N,12132.4648160,E,2,66,0.43,10.908,M,15.25,M,20,3335*73
$GNRMC,114406.700,A,2500.8227023,N,12132.4648160,E,0.01,198.18,260623,,,D,V*06
$GPHDT,,T*1B
$GNACCURACY,2.3*17
$GNGGA,114406.800,2500.8227083,N,12132.4648160,E,2,66,0.43,10.894,M,15.25,M,20,3335*72
$GNRMC,114406.800,A,2500.8227083,N,12132.4648160,E,0.00,198.18,260623,,,D,V*02
$GPHDT,47.502,T*01
$GNACCURACY,2.3*17
$GNGGA,114406.900,2500.8227143,N,12132.4648160,E,2,66,0.43,10.876,M,15.25,M,20,3335*72
$GNRMC,114406.900,A,2500.8227143,N,12132.4648160,E,0.00,198.18,260623,,,D,V*0E
$GPHDT,,T*1B
$GNACCURACY,2.3*17
$GNGGA,114407.000,2500.8227203,N,12132.4648160,E,2,66,0.43,10.859,M,15.25,M,21,3335*71
$GNRMC,114407.000,A,2500.8227203,N,12132.4648160,E,0.00,198.18,260623,,,D,V*01
$GPHDT,46.957,T*0C
$GNACCURACY,2.4*10
$GNGGA,114407.100,2500.8227203,N,12132.4648220,E,2,66,0.43,10.842,M,15.25,M,21,3335*7D
$GNRMC,114407.100,A,2500.8227203,N,12132.4648220,E,0.00,198.18,260623,,,D,V*07
$GPHDT,,T*1B
$GNGSA,A,3,196,24,199,23,18,194,15,195,12,10,32,,0.79,0.43,0.66,1*0F
$GNGSA,A,3,73,80,70,85,86,71,69,,,,,,0.79,0.43,0.66,2*0A
$GNGSA,A,3,13,07,08,26,30,02,15,,,,,,0.79,0.43,0.66,3*06
$GNGSA,A,3,08,38,13,39,16,06,46,19,09,36,20,35,0.79,0.43,0.66,4*05
$GNGSA,A,3,37,22,29,,,,,,,,,,0.79,0.43,0.66,4*02
$GPGSV,4,1,15,196,75,070,39,24,65,035,47,199,60,167,38,23,58,344,31,1*65
$GPGSV,4,2,15,18,54,232,45,41,38,242,40,194,34,137,44,15,33,055,29,1*53
$GPGSV,4,3,15,195,31,179,26,12,25,135,44,10,24,322,32,25,15,172,21,1*51
$GPGSV,4,4,15,05,14,124,18,32,13,276,40,13,04,062,,1*58
$GPGSV,3,1,10,196,75,070,46,24,65,035,49,199,60,167,47,23,58,344,32,8*63
$GPGSV,3,2,10,18,54,232,46,194,34,137,47,195,31,179,29,10,24,322,35,8*60
$GPGSV,3,3,10,25,15,172,20,32,13,276,33,8*69
$GLGSV,3,1,09,73,48,154,43,80,47,062,30,70,41,022,15,85,29,237,15,1*72
$GLGSV,3,2,09,86,28,291,43,71,25,323,36,69,10,082,18,79,05,028,19,1*7B
$GLGSV,3,3,09,84,01,186,,1*43
$GAGSV,3,1,09,13,50,224,35,07,45,312,42,08,44,033,19,26,35,300,41,7*79
$GAGSV,3,2,09,30,31,139,42,02,27,078,19,15,16,173,20,03,07,070,16,7*77
$GAGSV,3,3,09,27,06,185,,7*45
$GAGSV,2,1,07,13,50,224,43,07,45,312,42,08,44,033,31,26,35,300,43,1*79
$GAGSV,2,2,07,30,31,139,43,02,27,078,20,15,16,173,15,1*47
$GBGSV,4,1,15,08,83,355,40,38,82,146,44,13,71,326,42,39,69,293,42,1*7F
$GBGSV,4,2,15,16,66,268,42,06,65,263,41,46,62,095,32,19,52,354,34,1*7F
$GBGSV,4,3,15,09,50,245,42,36,42,183,42,20,41,072,31,35,19,261,38,1*73
$GBGSV,4,4,15,37,18,043,28,22,15,307,38,29,14,207,21,1*41
$GBGSV,3,1,10,38,82,146,46,39,69,293,44,46,62,095,22,19,52,354,19,4*72
$GBGSV,3,2,10,36,42,183,43,20,41,072,33,35,19,261,31,37,18,043,26,4*78
$GBGSV,3,3,10,22,15,307,32,29,14,207,24,4*7E
$GNACCURACY,2.4*10
$PAIRSAT,1,35,1,0,200,2,0,200,3,0,200,4,0,200,5,0,201,6,0,200,7,0,200,8,0,200,9,0,200,10,0,221,11,0,200,12,0,201,13,0,201,14,0,200,15,0,201,16,0,200,17,0,200,18,0,221,19,0,200,20,0,200,21,0,200,23,0,221,24,0,221,25,0,200,26,0,200,27,0,200,28,0,200,29,0,200,30,0,200,31,0,200,32,0,221,194,0,621,195,0,621,196,0,620,199,0,621*68
$PAIRSAT,2,24,65,0,200,66,0,200,67,0,200,68,0,200,69,0,201,70,0,201,71,0,201,72,0,200,73,0,201,74,0,200,75,0,200,76,0,200,77,0,200,78,0,200,79,0,201,80,0,201,81,0,200,82,0,200,83,0,200,84,0,200,85,0,201,86,0,201,87,0,200,88,0,200*7A
$PAIRSAT,3,23,2,0,1221,3,0,1221,4,0,1200,5,0,200,7,0,1221,8,0,1221,9,0,1200,10,0,1200,11,0,1200,12,0,1200,13,0,1221,15,0,1221,19,0,1200,21,0,1200,24,0,1200,25,0,1200,26,0,1221,27,0,1200,30,0,1221,31,0,1200,33,0,1200,34,0,1200,36,0,1200*6A
$PAIRSAT,4,50,1,0,200,2,0,200,3,0,200,4,0,200,5,0,200,6,0,201,7,0,200,8,0,201,9,0,201,10,0,200,11,0,200,12,0,200,13,0,201,14,0,200,15,0,200,16,0,201,19,0,621,20,0,621,21,0,600,22,0,621,23,0,600,24,0,600,25,0,600,26,0,600,27,0,600,28,0,600,29,0,621,30,0,600,31,0,200,32,0,600,33,0,600,34,0,600,35,0,621,36,0,621,37,0,621,38,0,621,39,0,621,40,0,600,41,0,600,42,0,600,43,0,600,44,0,600,45,0,600,46,0,621,56,0,200,57,0,200,58,0,200,59,0,600,60,0,600,61,0,600*41
$PAIRDGP,9,5,10,12,15,18,23,24,25,32*5B
$GNGGA,114407.200,2500.8227263,N,12132.4648220,E,2,66,0.43,10.824,M,15.25,M,21,3335*78
$GNRMC,114407.200,A,2500.8227263,N,12132.4648220,E,0.00,198.18,260623,,,D,V*02
$GPHDT,46.913,T*0C
$GNACCURACY,2.4*10
$GNGGA,114407.300,2500.8227323,N,12132.4648220,E,2,66,0.43,10.804,M,15.25,M,21,3335*7E
$GNRMC,114407.300,A,2500.8227323,N,12132.4648220,E,0.00,198.18,260623,,,D,V*06
$GPHDT,,T*1B
$GNACCURACY,2.4*10
$GNGGA,114407.400,2500.8227323,N,12132.4648280,E,2,66,0.43,10.784,M,15.25,M,21,3335*74
$GNRMC,114407.400,A,2500.8227323,N,12132.4648280,E,0.00,198.18,260623,,,D,V*0B
$GPHDT,47.175,T*05
$GNACCURACY,2.4*10
$GNGGA,114407.500,2500.8227383,N,12132.4648280,E,2,66,0.43,10.767,M,15.25,M,21,3335*72
$GNRMC,114407.500,A,2500.8227383,N,12132.4648280,E,0.00,198.18,260623,,,D,V*00
$GPHDT,,T*1B
$GNACCURACY,2.4*10
$GNGGA,114407.600,2500.8227443,N,12132.4648280,E,2,66,0.43,10.747,M,15.25,M,21,3335*78
$GNRMC,114407.600,A,2500.8227443,N,12132.4648280,E,0.00,198.18,260623,,,D,V*08
$GPHDT,46.792,T*0B
$GNACCURACY,2.4*10
$GNGGA,114407.700,2500.8227503,N,12132.4648340,E,2,66,0.43,10.730,M,15.25,M,21,3335*71
$GNRMC,114407.700,A,2500.8227503,N,12132.4648340,E,0.00,198.18,260623,,,D,V*01
$GPHDT,,T*1B
$GNACCURACY,2.4*10
$GNGGA,114407.800,2500.8227563,N,12132.4648340,E,2,66,0.43,10.712,M,15.25,M,21,3335*78
$GNRMC,114407.800,A,2500.8227563,N,12132.4648340,E,0.00,198.18,260623,,,D,V*08
$GPHDT,47.080,T*0E
$GNACCURACY,2.4*10
$GNGGA,114407.900,2500.8227563,N,12132.4648340,E,2,66,0.43,10.698,M,15.25,M,21,3335*7A
$GNRMC,114407.900,A,2500.8227563,N,12132.4648340,E,0.00,198.18,260623,,,D,V*09
$GPHDT,,T*1B
$GNACCURACY,2.4*10
$GNGGA,114408.000,2500.8227623,N,12132.4648400,E,2,66,0.43,10.681,M,15.25,M,22,3335*73
$GNRMC,114408.000,A,2500.8227623,N,12132.4648400,E,0.00,198.18,260623,,,D,V*0B
$GPHDT,46.860,T*09
$GNACCURACY,2.4*10
$GNGGA,114408.100,2500.8227683,N,12132.4648400,E,2,65,0.44,10.667,M,15.25,M,22,3335*74
$GNRMC,114408.100,A,2500.8227683,N,12132.4648400,E,0.00,198.18,260623,,,D,V*00
$GPHDT,,T*1B
$GNGSA,A,3,196,24,199,23,18,194,15,195,12,10,32,,0.79,0.44,0.66,1*08
$GNGSA,A,3,73,80,70,86,71,69,,,,,,,0.79,0.44,0.66,2*00
$GNGSA,A,3,13,07,08,26,30,02,15,,,,,,0.79,0.44,0.66,3*01
$GNGSA,A,3,08,38,13,39,16,06,46,19,09,36,20,35,0.79,0.44,0.66,4*02
$GNGSA,A,3,37,22,29,,,,,,,,,,0.79,0.44,0.66,4*05
$GPGSV,4,1,15,196,75,070,39,24,65,035,47,199,60,167,38,23,58,344,30,1*64
$GPGSV,4,2,15,18,54,232,44,41,38,242,40,194,34,137,44,15,33,055,30,1*5A
$GPGSV,4,3,15,195,31,179,25,12,25,135,44,10,24,322,24,25,15,172,20,1*54
$GPGSV,4,4,15,05,14,124,18,32,13,276,40,13,04,062,,1*58
$GPGSV,3,1,10,196,75,070,46,24,65,035,49,199,60,167,47,23,58,344,31,8*60
$GPGSV,3,2,10,18,54,232,46,194,34,137,47,195,31,179,28,10,24,322,31,8*65
$GPGSV,3,3,10,25,15,172,20,32,13,276,34,8*6E
$GLGSV,3,1,09,73,48,154,43,80,47,062,30,70,41,022,15,85,29,237,16,1*71
$GLGSV,3,2,09,86,28,291,43,71,25,323,34,69,10,082,18,79,05,027,19,1*76
$GLGSV,3,3,09,84,01,186,,1*43
$GAGSV,3,1,09,13,50,224,36,07,45,312,40,08,44,033,16,26,35,300,40,7*76
$GAGSV,3,2,09,30,31,139,42,02,27,078,16,15,16,173,20,03,07,070,16,7*78
$GAGSV,3,3,09,27,06,185,,7*45
$GAGSV,2,1,07,13,50,224,43,07,45,312,42,08,44,033,30,26,35,300,41,1*7A
$GAGSV,2,2,07,30,31,139,43,02,27,078,20,15,16,173,14,1*46
$GBGSV,4,1,15,08,83,355,40,38,82,146,44,13,71,326,42,39,69,293,42,1*7F
$GBGSV,4,2,15,16,66,268,42,06,65,263,41,46,62,095,31,19,52,354,34,1*7C
$GBGSV,4,3,15,09,50,245,42,36,42,183,42,20,41,072,30,35,19,261,38,1*72
$GBGSV,4,4,15,37,18,043,29,22,15,307,38,29,14,207,21,1*40
$GBGSV,3,1,10,38,82,146,46,39,69,293,44,46,62,095,20,19,52,354,17,4*7E
$GBGSV,3,2,10,36,42,183,43,20,41,072,31,35,19,261,29,37,18,043,26,4*73
$GBGSV,3,3,10,22,15,307,25,29,14,207,24,4*78
$GNACCURACY,2.4*10
$PAIRSAT,1,35,1,0,200,2,0,200,3,0,200,4,0,200,5,0,201,6,0,200,7,0,200,8,0,200,9,0,200,10,0,221,11,0,200,12,0,201,13,0,201,14,0,200,15,0,201,16,0,200,17,0,200,18,0,221,19,0,200,20,0,200,21,0,200,23,0,221,24,0,221,25,0,200,26,0,200,27,0,200,28,0,200,29,0,200,30,0,200,31,0,200,32,0,221,194,0,621,195,0,621,196,0,620,199,0,621*68
$PAIRSAT,2,24,65,0,200,66,0,200,67,0,200,68,0,200,69,0,201,70,0,201,71,0,201,72,0,200,73,0,201,74,0,200,75,0,200,76,0,200,77,0,200,78,0,200,79,0,201,80,0,201,81,0,200,82,0,200,83,0,200,84,0,200,85,0,201,86,0,201,87,0,200,88,0,200*7A
$PAIRSAT,3,23,2,0,1221,3,0,1221,4,0,1200,5,0,200,7,0,1221,8,0,1221,9,0,1200,10,0,1200,11,0,1200,12,0,1200,13,0,1221,15,0,1221,19,0,1200,21,0,1200,24,0,1200,25,0,1200,26,0,1221,27,0,1200,30,0,1221,31,0,1200,33,0,1200,34,0,1200,36,0,1200*6A
$PAIRSAT,4,50,1,0,200,2,0,200,3,0,200,4,0,200,5,0,200,6,0,201,7,0,200,8,0,201,9,0,201,10,0,200,11,0,200,12,0,200,13,0,201,14,0,200,15,0,200,16,0,201,19,0,621,20,0,621,21,0,600,22,0,621,23,0,600,24,0,600,25,0,600,26,0,600,27,0,600,28,0,600,29,0,621,30,0,600,31,0,200,32,0,600,33,0,600,34,0,600,35,0,621,36,0,621,37,0,621,38,0,621,39,0,621,40,0,600,41,0,600,42,0,600,43,0,600,44,0,600,45,0,600,46,0,621,56,0,200,57,0,200,58,0,200,59,0,600,60,0,600,61,0,600*41
$PAIRDGP,9,5,10,12,15,18,23,24,25,32*5B
$GNGGA,114408.200,2500.8227683,N,12132.4648460,E,2,65,0.44,10.660,M,15.25,M,22,3335*76
$GNRMC,114408.200,A,2500.8227683,N,12132.4648460,E,0.00,198.18,260623,,,D,V*05
$GPHDT,46.887,T*00
$GNACCURACY,2.4*10
$GNGGA,114408.300,2500.8227623,N,12132.4648520,E,2,63,0.45,10.653,M,15.25,M,22,3335*7F
$GNRMC,114408.300,A,2500.8227623,N,12132.4648520,E,0.00,198.18,260623,,,D,V*0B
$GPHDT,,T*1B
$GNACCURACY,2.4*10
$GNGGA,114408.400,2500.8227623,N,12132.4648580,E,2,65,0.44,10.645,M,15.25,M,22,3335*72
$GNRMC,114408.400,A,2500.8227623,N,12132.4648580,E,0.00,198.18,260623,,,D,V*06
$GPHDT,46.652,T*06
$GNACCURACY,2.4*10
$GNGGA,114408.500,2500.8227563,N,12132.4648580,E,2,65,0.44,10.637,M,15.25,M,22,3335*71
$GNRMC,114408.500,A,2500.8227563,N,12132.4648580,E,0.00,198.18,260623,,,D,V*00
$GPHDT,,T*1B
$GNACCURACY,2.4*10
$GNGGA,114408.600,2500.8227623,N,12132.4648580,E,2,65,0.44,10.619,M,15.25,M,22,3335*79
$GNRMC,114408.600,A,2500.8227623,N,12132.4648580,E,0.00,198.18,260623,,,D,V*04
$GPHDT,46.458,T*0E
$GNACCURACY,2.4*10
$GNGGA,114408.700,2500.8227623,N,12132.4648580,E,2,65,0.44,10.605,M,15.25,M,22,3335*75
$GNRMC,114408.700,A,2500.8227623,N,12132.4648580,E,0.00,198.18,260623,,,D,V*05
$GPHDT,,T*1B
$GNACCURACY,2.4*10
$GNGGA,114408.800,2500.8227683,N,12132.4648640,E,2,65,0.44,10.591,M,15.25,M,22,3335*71
$GNRMC,114408.800,A,2500.8227683,N,12132.4648640,E,0.00,198.18,260623,,,D,V*0F
$GPHDT,46.337,T*00
$GNACCURACY,2.4*10
$GNGGA,114408.900,2500.8227683,N,12132.4648580,E,2,64,0.44,10.581,M,15.25,M,22,3335*7F
$GNRMC,114408.900,A,2500.8227683,N,12132.4648580,E,0.00,198.18,260623,,,D,V*01
$GPHDT,,T*1B
$GNACCURACY,2.4*10
$GNGGA,114409.000,2500.8227683,N,12132.4648640,E,2,64,0.44,10.564,M,15.25,M,23,3335*72
$GNRMC,114409.000,A,2500.8227683,N,12132.4648640,E,0.00,198.18,260623,,,D,V*06
$GPHDT,46.943,T*09
$GNACCURACY,2.4*10
$GNGGA,114409.100,2500.8227743,N,12132.4648640,E,2,64,0.44,10.551,M,15.25,M,23,3335*78
$GNRMC,114409.100,A,2500.8227743,N,12132.4648640,E,0.00,198.18,260623,,,D,V*0A
$GPHDT,,T*1B
$GNGSA,A,3,196,24,199,23,18,194,15,195,12,10,32,,0.79,0.44,0.66,1*08
$GNGSA,A,3,73,80,70,86,71,69,,,,,,,0.79,0.44,0.66,2*00
$GNGSA,A,3,13,07,08,26,30,02,15,,,,,,0.79,0.44,0.66,3*01
$GNGSA,A,3,08,38,13,39,16,06,46,19,09,36,20,35,0.79,0.44,0.66,4*02
$GNGSA,A,3,37,22,29,,,,,,,,,,0.79,0.44,0.66,4*05
$GPGSV,4,1,15,196,75,070,39,24,65,035,46,199,60,167,38,23,58,344,30,1*65
$GPGSV,4,2,15,18,54,232,44,41,38,242,40,194,34,137,44,15,33,055,30,1*5A
$GPGSV,4,3,15,195,31,179,25,12,25,135,44,10,24,322,37,25,15,172,20,1*56
$GPGSV,4,4,15,05,14,124,18,32,13,276,42,13,04,062,,1*5A
$GPGSV,3,1,10,196,75,070,46,24,65,035,49,199,60,167,47,23,58,344,31,8*60
$GPGSV,3,2,10,18,54,232,45,194,34,137,47,195,31,179,28,10,24,322,36,8*61
$GPGSV,3,3,10,25,15,172,21,32,13,276,32,8*69
$GLGSV,3,1,09,73,48,154,43,80,47,062,30,70,41,022,14,85,29,237,17,1*71
$GLGSV,3,2,09,86,28,291,41,71,25,323,38,69,10,082,18,79,05,027,19,1*78
$GLGSV,3,3,09,84,01,186,,1*43
$GAGSV,3,1,09,13,50,224,35,07,45,312,36,08,44,033,15,26,35,300,37,7*77
$GAGSV,3,2,09,30,31,139,42,02,27,078,17,15,16,173,20,03,07,070,13,7*7C
$GAGSV,3,3,09,27,06,185,,7*45
$GAGSV,2,1,07,13,50,224,43,07,45,312,38,08,44,033,31,26,35,300,39,1*79
$GAGSV,2,2,07,30,31,139,43,02,27,078,20,15,16,173,12,1*40
$GBGSV,5,1,17,08,83,355,40,38,82,146,44,13,71,326,42,39,69,293,42,1*7C
$GBGSV,5,2,17,16,66,268,42,06,65,264,41,46,62,095,30,19,52,354,34,1*79
$GBGSV,5,3,17,09,50,245,42,36,42,183,43,20,41,072,31,35,19,261,38,1*71
$GBGSV,5,4,17,37,18,043,29,22,15,307,37,29,14,207,20,44,03,305,,1*78
$GBGSV,5,5,17,10,02,200,,1*41
$GBGSV,3,1,10,38,82,146,46,39,69,293,44,46,62,095,22,19,52,354,18,4*73
$GBGSV,3,2,10,36,42,183,44,20,41,072,31,35,19,261,30,37,18,043,26,4*7C
$GBGSV,3,3,10,22,15,307,28,29,14,207,24,4*75
$GNACCURACY,2.4*10
$PAIRSAT,1,35,1,0,200,2,0,200,3,0,200,4,0,200,5,0,201,6,0,200,7,0,200,8,0,200,9,0,200,10,0,221,11,0,200,12,0,201,13,0,201,14,0,200,15,0,201,16,0,200,17,0,200,18,0,221,19,0,200,20,0,200,21,0,200,23,0,221,24,0,221,25,0,200,26,0,200,27,0,200,28,0,200,29,0,200,30,0,200,31,0,200,32,0,221,194,0,621,195,0,621,196,0,620,199,0,621*68
$PAIRSAT,2,24,65,0,200,66,0,200,67,0,200,68,0,200,69,0,201,70,0,201,71,0,201,72,0,200,73,0,201,74,0,200,75,0,200,76,0,200,77,0,200,78,0,200,79,0,201,80,0,201,81,0,200,82,0,200,83,0,200,84,0,200,85,0,201,86,0,201,87,0,200,88,0,200*7A
$PAIRSAT,3,23,2,0,1221,3,0,1221,4,0,1200,5,0,200,7,0,1221,8,0,1221,9,0,1200,10,0,1200,11,0,1200,12,0,1200,13,0,1221,15,0,1221,19,0,1200,21,0,1200,24,0,1200,25,0,1200,26,0,1221,27,0,1200,30,0,1221,31,0,1200,33,0,1200,34,0,1200,36,0,1200*6A
$PAIRSAT,4,50,1,0,200,2,0,200,3,0,200,4,0,200,5,0,200,6,0,201,7,0,200,8,0,201,9,0,201,10,0,200,11,0,200,12,0,200,13,0,201,14,0,200,15,0,200,16,0,201,19,0,621,20,0,621,21,0,600,22,0,621,23,0,600,24,0,600,25,0,600,26,0,600,27,0,600,28,0,600,29,0,621,30,0,600,31,0,200,32,0,600,33,0,600,34,0,600,35,0,621,36,0,621,37,0,621,38,0,621,39,0,621,40,0,600,41,0,600,42,0,600,43,0,600,44,0,600,45,0,600,46,0,621,56,0,200,57,0,200,58,0,200,59,0,600,60,0,600,61,0,600*41
$PAIRDGP,9,5,10,12,15,18,23,24,25,32*5B
$GNGGA,114409.200,2500.8227743,N,12132.4648640,E,2,64,0.44,10.540,M,15.25,M,23,3335*7B
$GNRMC,114409.200,A,2500.8227743,N,12132.4648640,E,0.00,198.18,260623,,,D,V*09
$GPHDT,46.808,T*07
$GNACCURACY,2.4*10
$GNGGA,114409.300,2500.8227803,N,12132.4648640,E,2,64,0.44,10.527,M,15.25,M,23,3335*70
$GNRMC,114409.300,A,2500.8227803,N,12132.4648640,E,0.00,198.18,260623,,,D,V*03
$GPHDT,,T*1B
$GNACCURACY,2.4*10
$GNGGA,114409.400,2500.8227803,N,12132.4648640,E,2,64,0.44,10.514,M,15.25,M,23,3335*77
$GNRMC,114409.400,A,2500.8227803,N,12132.4648640,E,0.00,198.18,260623,,,D,V*04
$GPHDT,47.279,T*0A
$GNACCURACY,2.4*10
$GNGGA,114409.500,2500.8227863,N,12132.4648640,E,2,62,0.45,10.505,M,15.25,M,23,3335*77
$GNRMC,114409.500,A,2500.8227863,N,12132.4648640,E,0.00,198.18,260623,,,D,V*03
$GPHDT,,T*1B
$GNACCURACY,2.4*10
$GNGGA,114409.600,2500.8227863,N,12132.4648640,E,2,62,0.45,10.492,M,15.25,M,23,3335*7B
$GNRMC,114409.600,A,2500.8227863,N,12132.4648640,E,0.01,198.18,260623,,,D,V*01
$GPHDT,47.192,T*0C
$GNACCURACY,2.4*10
$GNGGA,114409.700,2500.8227803,N,12132.4648640,E,2,63,0.45,10.484,M,15.25,M,23,3335*7A
$GNRMC,114409.700,A,2500.8227803,N,12132.4648640,E,0.00,198.18,260623,,,D,V*07
$GPHDT,,T*1B
$GNACCURACY,2.4*10
$GNGGA,114409.800,2500.8227863,N,12132.4648700,E,2,63,0.45,10.473,M,15.25,M,23,3335*7E
$GNRMC,114409.800,A,2500.8227863,N,12132.4648700,E,0.00,198.18,260623,,,D,V*0B
$GPHDT,47.003,T*05
$GNACCURACY,2.4*10
$GNGGA,114409.900,2500.8227863,N,12132.4648820,E,2,63,0.45,10.461,M,15.25,M,23,3335*71
$GNRMC,114409.900,A,2500.8227863,N,12132.4648820,E,0.00,198.18,260623,,,D,V*07
$GPHDT,,T*1B
$GNACCURACY,2.4*10
$GNGGA,114410.000,2500.8227923,N,12132.4648820,E,2,63,0.45,10.447,M,15.25,M,24,3335*76
$GNRMC,114410.000,A,2500.8227923,N,12132.4648820,E,0.00,198.18,260623,,,D,V*03
$GPHDT,47.359,T*09
$GNACCURACY,2.4*10
$GNGGA,114410.100,2500.8227923,N,12132.4648880,E,2,60,0.47,10.430,M,15.25,M,24,3335*7C
$GNRMC,114410.100,A,2500.8227923,N,12132.4648880,E,0.00,198.18,260623,,,D,V*08
$GPHDT,,T*1B
