$FW : RTK35X,V1.1X0314AS,Lib20210517,1*54
$Tool : LOCOSYS , GNSS Firebird , v1.0.0.19*39
$---------------------------------------------------*2D

$GNRMC,112613.300,A,2500.8152300,N,12132.4713000,E,0.04,287.56,260623,,,D,V*0B
$GPHDT,,T*1B
$GNACCURACY,2.4*10
$GNGGA,112613.400,2500.8152200,N,12132.4712900,E,2,60,0.43,17.45,M,15.25,M,1,3335*70
$GNRMC,112613.400,A,2500.8152200,N,12132.4712900,E,0.03,287.56,260623,,,D,V*02
$GPHDT,,T*1B
$GNACCURACY,2.4*10
$GNGGA,112613.500,2500.8152000,N,12132.4712700,E,2,60,0.43,17.47,M,15.25,M,1,3335*7F
$GNRMC,112613.500,A,2500.8152000,N,12132.4712700,E,0.02,287.56,260623,,,D,V*0E
$GPHDT,,T*1B
$GNACCURACY,2.4*10
$GNGGA,112613.600,2500.8152000,N,12132.4712500,E,2,60,0.43,17.48,M,15.25,M,0,3335*70
$GNRMC,112613.600,A,2500.8152000,N,12132.4712500,E,0.03,287.56,260623,,,D,V*0E
$GPHDT,,T*1B
$GNACCURACY,2.4*10
$GNGGA,112613.700,2500.8151800,N,12132.4712400,E,2,60,0.43,17.50,M,15.25,M,0,3335*72
$GNRMC,112613.700,A,2500.8151800,N,12132.4712400,E,0.03,287.56,260623,,,D,V*05
$GPHDT,,T*1B
$GNACCURACY,2.4*10
$GNGGA,112613.800,2500.8151800,N,12132.4712200,E,2,59,0.45,17.51,M,15.25,M,0,3335*76
$GNRMC,112613.800,A,2500.8151800,N,12132.4712200,E,0.03,287.56,260623,,,D,V*0C
$GPHDT,,T*1B
$GNACCURACY,2.4*10
$GNGGA,112613.900,2500.8151700,N,12132.4712100,E,2,60,0.43,17.53,M,15.25,M,0,3335*75
$GNRMC,112613.900,A,2500.8151700,N,12132.4712100,E,0.02,287.56,260623,,,D,V*00
$GPHDT,,T*1B
$GNACCURACY,2.4*10
$GNGGA,112614.000,2500.8151700,N,12132.4711900,E,2,59,0.45,17.54,M,15.25,M,1,3335*7A
$GNRMC,112614.000,A,2500.8151700,N,12132.4711900,E,0.02,287.56,260623,,,D,V*05
$GPHDT,,T*1B
$GNACCURACY,2.4*10
$GNGGA,112614.100,2500.8151600,N,12132.4711700,E,2,59,0.45,17.55,M,15.25,M,1,3335*75
$GNRMC,112614.100,A,2500.8151600,N,12132.4711700,E,0.02,287.56,260623,,,D,V*0B
$GPHDT,,T*1B
$GNGSA,A,3,196,24,199,18,23,15,195,194,12,05,10,,0.72,0.45,0.57,1*04
$GNGSA,A,3,80,70,73,85,86,71,,,,,,,0.72,0.45,0.57,2*0A
$GNGSA,A,3,13,08,07,26,02,30,15,,,,,,0.72,0.45,0.57,3*09
$GNGSA,A,3,38,08,39,13,16,06,46,09,19,20,36,37,0.72,0.45,0.57,4*08
$GNGSA,A,3,35,29,22,,,,,,,,,,0.72,0.45,0.57,4*0F
$GPGSV,4,1,16,196,75,065,42,24,74,043,44,199,60,167,25,18,59,247,47,1*6A
$GPGSV,4,2,16,23,50,338,32,41,38,242,44,15,37,047,33,195,34,180,22,1*52
$GPGSV,4,3,16,194,31,138,28,12,20,141,38,05,19,118,32,10,18,318,23,1*53
$GPGSV,4,4,16,25,09,176,18,32,09,269,25,13,08,057,15,29,01,196,,1*6E
$GPGSV,3,1,09,196,75,065,40,24,74,043,44,199,60,167,38,18,59,247,47,8*64
$GPGSV,3,2,09,23,50,338,34,195,34,180,20,194,31,138,32,10,18,318,32,8*69
$GPGSV,3,3,09,32,09,269,23,8*50
$GLGSV,3,1,10,80,48,077,44,70,40,010,19,73,38,159,26,85,35,246,43,1*7F
$GLGSV,3,2,10,86,27,302,33,71,22,314,39,69,13,073,16,79,11,032,17,1*7F
$GLGSV,3,3,10,84,09,190,,74,02,187,,1*7B
$GAGSV,3,1,09,13,56,232,41,08,47,025,17,07,44,303,34,26,32,307,35,7*72
$GAGSV,3,2,09,02,26,086,35,30,26,144,31,15,23,174,18,03,10,064,,7*7F
$GAGSV,3,3,09,25,03,043,,7*49
$GAGSV,2,1,06,13,56,232,40,08,47,025,20,07,44,303,40,26,32,307,38,1*71
$GAGSV,2,2,06,02,26,086,34,30,26,144,33,1*7A
$GBGSV,4,1,15,38,83,110,43,08,79,004,37,39,71,283,39,13,68,334,36,1*74
$GBGSV,4,2,15,16,66,257,40,06,65,253,40,46,60,112,44,09,50,238,40,1*75
$GBGSV,4,3,15,19,49,345,31,20,43,063,34,36,35,184,25,37,23,048,28,1*7D
$GBGSV,4,4,15,35,21,269,37,29,19,212,35,22,11,301,36,1*4D
$GBGSV,2,1,07,38,83,110,44,39,71,283,42,46,60,112,46,19,49,345,21,4*74
$GBGSV,2,2,07,20,43,063,18,35,21,269,35,22,11,301,30,4*42
$GNACCURACY,2.4*10
$PAIRSAT,1,35,1,0,200,2,0,200,3,0,200,4,0,200,5,0,201,6,0,200,7,0,200,8,0,200,9,0,200,10,0,221,11,0,200,12,0,201,13,0,201,14,0,200,15,0,201,16,0,200,17,0,200,18,0,221,19,0,200,20,0,200,21,0,200,23,0,221,24,0,221,25,0,200,26,0,200,27,0,200,28,0,200,29,0,200,30,0,200,31,0,200,32,0,221,194,0,621,195,0,621,196,0,620,199,0,621*68
$PAIRSAT,2,23,65,0,200,67,0,200,68,0,200,69,0,201,70,0,201,71,0,201,72,0,200,73,0,201,74,0,200,75,0,200,76,0,200,77,0,200,78,0,200,79,0,201,80,0,201,81,0,200,82,0,200,83,0,200,84,0,200,85,0,201,86,0,201,87,0,200,88,0,200*53
$PAIRSAT,3,23,2,0,1221,3,0,1221,4,0,1200,5,0,200,7,0,1221,8,0,1221,9,0,1200,10,0,1200,11,0,1200,12,0,1200,13,0,1221,15,0,1221,19,0,1200,21,0,1200,24,0,1200,25,0,1200,26,0,1221,27,0,1200,30,0,1221,31,0,1200,33,0,1200,34,0,1200,36,0,1200*6A
$PAIRSAT,4,50,1,0,200,2,0,200,3,0,200,4,0,200,5,0,200,6,0,201,7,0,200,8,0,201,9,0,201,10,0,200,11,0,200,12,0,200,13,0,201,14,0,200,15,0,200,16,0,201,19,0,621,20,0,621,21,0,600,22,0,621,23,0,600,24,0,600,25,0,600,26,0,600,27,0,600,28,0,600,29,0,621,30,0,600,31,0,200,32,0,600,33,0,600,34,0,600,35,0,621,36,0,621,37,0,621,38,0,621,39,0,621,40,0,600,41,0,600,42,0,600,43,0,600,44,0,600,45,0,600,46,0,621,56,0,200,57,0,200,58,0,200,59,0,600,60,0,600,61,0,600*41
$PAIRDGP,11,5,10,12,13,15,18,23,24,25,29,32*6B
$GNGGA,112614.200,2500.8151500,N,12132.4711500,E,2,60,0.45,17.56,M,15.25,M,1,3335*7E
$GNRMC,112614.200,A,2500.8151500,N,12132.4711500,E,0.01,287.56,260623,,,D,V*0A
$GPHDT,,T*1B
$GNACCURACY,2.4*10
$GNGGA,112614.300,2500.8151500,N,12132.4711400,E,2,59,0.47,17.57,M,15.25,M,1,3335*77
$GNRMC,112614.300,A,2500.8151500,N,12132.4711400,E,0.02,287.56,260623,,,D,V*09
$GPHDT,,T*1B
$GNACCURACY,2.4*10
$GNGGA,112614.400,2500.8151400,N,12132.4711200,E,2,59,0.47,17.59,M,15.25,M,1,3335*79
$GNRMC,112614.400,A,2500.8151400,N,12132.4711200,E,0.02,287.56,260623,,,D,V*09
$GPHDT,,T*1B
$GNACCURACY,2.4*10
$GNGGA,112614.500,2500.8151400,N,12132.4711100,E,2,60,0.45,17.60,M,15.25,M,1,3335*79
$GNRMC,112614.500,A,2500.8151400,N,12132.4711100,E,0.02,287.56,260623,,,D,V*0B
$GPHDT,,T*1B
$GNACCURACY,2.4*10
$GNGGA,112614.600,2500.8151200,N,12132.4711000,E,2,59,0.47,17.61,M,15.25,M,1,3335*74
$GNRMC,112614.600,A,2500.8151200,N,12132.4711000,E,0.03,287.56,260623,,,D,V*0E
$GPHDT,,T*1B
$GNACCURACY,2.4*10
$GNGGA,112614.700,2500.8151200,N,12132.4710900,E,2,60,0.45,17.61,M,15.25,M,1,3335*75
$GNRMC,112614.700,A,2500.8151200,N,12132.4710900,E,0.03,287.56,260623,,,D,V*07
$GPHDT,,T*1B
$GNACCURACY,2.4*10
$GNGGA,112614.800,2500.8151100,N,12132.4710800,E,2,60,0.45,17.62,M,15.25,M,0,3335*7A
$GNRMC,112614.800,A,2500.8151100,N,12132.4710800,E,0.02,287.56,260623,,,D,V*0B
$GPHDT,,T*1B
$GNACCURACY,2.4*10
$GNGGA,112614.900,2500.8151100,N,12132.4710600,E,2,60,0.45,17.62,M,15.25,M,0,3335*75
$GNRMC,112614.900,A,2500.8151100,N,12132.4710600,E,0.02,287.56,260623,,,D,V*04
$GPHDT,,T*1B
$GNACCURACY,2.4*10
$GNGGA,112615.000,2500.8151000,N,12132.4710600,E,2,60,0.45,17.62,M,15.25,M,1,3335*7D
$GNRMC,112615.000,A,2500.8151000,N,12132.4710600,E,0.02,287.56,260623,,,D,V*0D
$GPHDT,,T*1B
$GNACCURACY,2.4*10
$GNGGA,112615.100,2500.8150900,N,12132.4710500,E,2,59,0.47,17.63,M,15.25,M,1,3335*7E
$GNRMC,112615.100,A,2500.8150900,N,12132.4710500,E,0.02,287.56,260623,,,D,V*07
$GPHDT,,T*1B
$GNGSA,A,3,196,24,199,18,23,15,195,194,12,05,10,,0.72,0.45,0.57,1*04
$GNGSA,A,3,80,70,73,85,86,71,,,,,,,0.72,0.45,0.57,2*0A
$GNGSA,A,3,13,08,07,26,02,30,15,,,,,,0.72,0.45,0.57,3*09
$GNGSA,A,3,38,08,39,13,16,06,46,09,19,20,36,37,0.72,0.45,0.57,4*08
$GNGSA,A,3,35,29,22,,,,,,,,,,0.72,0.45,0.57,4*0F
$GPGSV,4,1,16,196,75,065,42,24,74,043,44,199,60,167,25,18,59,247,47,1*6A
$GPGSV,4,2,16,23,50,338,29,41,38,242,45,15,37,047,33,195,34,180,21,1*5A
$GPGSV,4,3,16,194,31,138,29,12,20,141,38,05,19,118,32,10,18,318,25,1*54
$GPGSV,4,4,16,25,09,176,18,32,09,269,24,13,08,057,16,29,01,196,,1*6C
$GPGSV,3,1,09,196,75,065,41,24,74,043,44,199,60,167,38,18,59,247,46,8*64
$GPGSV,3,2,09,23,50,338,35,195,34,180,18,194,31,138,34,10,18,318,34,8*63
$GPGSV,3,3,09,32,09,269,22,8*51
$GLGSV,3,1,09,80,48,077,44,70,40,010,19,73,38,159,26,85,35,246,45,1*71
$GLGSV,3,2,09,86,27,302,35,71,22,314,39,69,13,073,17,79,11,032,16,1*71
$GLGSV,3,3,09,84,09,190,,1*4C
$GAGSV,3,1,09,13,56,232,41,08,47,025,19,07,44,303,36,26,32,307,31,7*7A
$GAGSV,3,2,09,02,26,086,35,30,26,144,30,15,23,174,18,03,10,064,,7*7E
$GAGSV,3,3,09,25,03,043,,7*49
$GAGSV,2,1,06,13,56,232,39,08,47,025,20,07,44,303,40,26,32,307,37,1*70
$GAGSV,2,2,06,02,26,086,34,30,26,144,34,1*7D
$GBGSV,4,1,15,38,83,110,43,08,79,004,38,39,71,283,42,13,68,334,39,1*78
$GBGSV,4,2,15,16,66,257,38,06,65,253,39,46,60,112,44,09,50,238,42,1*76
$GBGSV,4,3,15,19,49,345,32,20,43,063,34,36,35,184,24,37,23,048,28,1*7F
$GBGSV,4,4,15,35,21,269,36,29,19,212,35,22,11,301,37,1*4D
$GBGSV,2,1,07,38,83,110,44,39,71,283,45,46,60,112,46,19,49,345,17,4*76
$GBGSV,2,2,07,20,43,063,19,35,21,269,34,22,11,301,25,4*46
$GNACCURACY,2.4*10
$PAIRSAT,1,35,1,0,200,2,0,200,3,0,200,4,0,200,5,0,201,6,0,200,7,0,200,8,0,200,9,0,200,10,0,221,11,0,200,12,0,201,13,0,201,14,0,200,15,0,201,16,0,200,17,0,200,18,0,221,19,0,200,20,0,200,21,0,200,23,0,221,24,0,221,25,0,200,26,0,200,27,0,200,28,0,200,29,0,200,30,0,200,31,0,200,32,0,221,194,0,621,195,0,621,196,0,620,199,0,621*68
$PAIRSAT,2,23,65,0,200,67,0,200,68,0,200,69,0,201,70,0,201,71,0,201,72,0,200,73,0,201,74,0,200,75,0,200,76,0,200,77,0,200,78,0,200,79,0,201,80,0,201,81,0,200,82,0,200,83,0,200,84,0,200,85,0,201,86,0,201,87,0,200,88,0,200*53
$PAIRSAT,3,23,2,0,1221,3,0,1221,4,0,1200,5,0,200,7,0,1221,8,0,1221,9,0,1200,10,0,1200,11,0,1200,12,0,1200,13,0,1221,15,0,1221,19,0,1200,21,0,1200,24,0,1200,25,0,1200,26,0,1221,27,0,1200,30,0,1221,31,0,1200,33,0,1200,34,0,1200,36,0,1200*6A
$PAIRSAT,4,50,1,0,200,2,0,200,3,0,200,4,0,200,5,0,200,6,0,201,7,0,200,8,0,201,9,0,201,10,0,200,11,0,200,12,0,200,13,0,201,14,0,200,15,0,200,16,0,201,19,0,621,20,0,621,21,0,600,22,0,621,23,0,600,24,0,600,25,0,600,26,0,600,27,0,600,28,0,600,29,0,621,30,0,600,31,0,200,32,0,600,33,0,600,34,0,600,35,0,621,36,0,621,37,0,621,38,0,621,39,0,621,40,0,600,41,0,600,42,0,600,43,0,600,44,0,600,45,0,600,46,0,621,56,0,200,57,0,200,58,0,200,59,0,600,60,0,600,61,0,600*41
$PAIRDGP,11,5,10,12,13,15,18,23,24,25,29,32*6B
$GNGGA,112615.200,2500.8150900,N,12132.4710300,E,2,60,0.45,17.64,M,15.25,M,1,3335*74
$GNRMC,112615.200,A,2500.8150900,N,12132.4710300,E,0.02,287.56,260623,,,D,V*02
$GPHDT,,T*1B
$GNACCURACY,2.4*10
$GNGGA,112615.300,2500.8150800,N,12132.4710200,E,2,60,0.45,17.64,M,15.25,M,1,3335*75
$GNRMC,112615.300,A,2500.8150800,N,12132.4710200,E,0.01,287.56,260623,,,D,V*00
$GPHDT,,T*1B
$GNACCURACY,2.4*10
$GNGGA,112615.400,2500.8150700,N,12132.4710100,E,2,58,0.47,17.66,M,15.25,M,1,3335*75
$GNRMC,112615.400,A,2500.8150700,N,12132.4710100,E,0.01,287.56,260623,,,D,V*0B
$GPHDT,,T*1B
$GNACCURACY,2.4*10
$GNGGA,112615.500,2500.8150600,N,12132.4709900,E,2,59,0.45,17.68,M,15.25,M,1,3335*78
$GNRMC,112615.500,A,2500.8150600,N,12132.4709900,E,0.01,287.56,260623,,,D,V*0B
$GPHDT,,T*1B
$GNACCURACY,2.4*10
$GNGGA,112615.600,2500.8150500,N,12132.4709800,E,2,60,0.45,17.69,M,15.25,M,1,3335*72
$GNRMC,112615.600,A,2500.8150500,N,12132.4709800,E,0.01,287.56,260623,,,D,V*0A
$GPHDT,,T*1B
$GNACCURACY,2.4*10
$GNGGA,112615.700,2500.8150500,N,12132.4709700,E,2,59,0.45,17.71,M,15.25,M,1,3335*7F
$GNRMC,112615.700,A,2500.8150500,N,12132.4709700,E,0.01,287.56,260623,,,D,V*04
$GPHDT,,T*1B
$GNACCURACY,2.6*12
$GNGGA,112615.800,2500.8150300,N,12132.4709600,E,2,59,0.45,17.72,M,15.25,M,1,3335*74
$GNRMC,112615.800,A,2500.8150300,N,12132.4709600,E,0.01,287.56,260623,,,D,V*0C
$GPHDT,,T*1B
$GNACCURACY,2.4*10
$GNGGA,112615.900,2500.8150300,N,12132.4709400,E,2,59,0.45,17.74,M,15.25,M,1,3335*71
$GNRMC,112615.900,A,2500.8150300,N,12132.4709400,E,0.02,287.56,260623,,,D,V*0C
$GPHDT,,T*1B
$GNACCURACY,2.4*10
$GNGGA,112616.000,2500.8150200,N,12132.4709300,E,2,58,0.47,17.76,M,15.25,M,2,3335*7F
$GNRMC,112616.000,A,2500.8150200,N,12132.4709300,E,0.02,287.56,260623,,,D,V*00
$GPHDT,,T*1B
$GNACCURACY,2.4*10
$GNGGA,112616.100,2500.8150100,N,12132.4709100,E,2,59,0.47,17.77,M,15.25,M,2,3335*7F
$GNRMC,112616.100,A,2500.8150100,N,12132.4709100,E,0.01,287.56,260623,,,D,V*03
$GPHDT,,T*1B
$GNGSA,A,3,196,24,199,18,23,15,195,194,12,05,10,,0.72,0.45,0.57,1*04
$GNGSA,A,3,80,70,73,85,86,71,,,,,,,0.72,0.45,0.57,2*0A
$GNGSA,A,3,13,08,07,26,02,30,15,,,,,,0.72,0.45,0.57,3*09
$GNGSA,A,3,38,08,39,13,16,06,46,09,19,20,36,37,0.72,0.45,0.57,4*08
$GNGSA,A,3,35,29,22,,,,,,,,,,0.72,0.45,0.57,4*0F
$GPGSV,4,1,16,196,75,065,42,24,74,043,44,199,60,167,25,18,59,247,47,1*6A
$GPGSV,4,2,16,23,50,338,30,41,38,242,45,15,37,047,33,195,34,180,22,1*51
$GPGSV,4,3,16,194,31,138,27,12,20,141,38,05,19,118,32,10,18,318,29,1*56
$GPGSV,4,4,16,25,09,176,18,32,09,269,24,13,08,057,15,29,01,196,,1*6F
$GPGSV,3,1,09,196,75,065,40,24,74,043,44,199,60,167,39,18,59,247,45,8*67
$GPGSV,3,2,09,23,50,338,35,195,34,180,17,194,31,138,31,10,18,318,35,8*68
$GPGSV,3,3,09,32,09,269,23,8*50
$GLGSV,3,1,09,80,48,077,44,70,40,010,18,73,38,159,25,85,35,246,45,1*73
$GLGSV,3,2,09,86,27,302,40,71,22,314,40,69,13,073,16,79,11,032,14,1*7E
$GLGSV,3,3,09,84,09,190,,1*4C
$GAGSV,3,1,09,13,56,232,42,08,47,025,18,07,44,303,38,26,32,307,33,7*74
$GAGSV,3,2,09,02,26,086,35,30,26,143,31,15,23,174,18,03,10,064,,7*78
$GAGSV,3,3,09,25,03,043,,7*49
$GAGSV,2,1,06,13,56,232,39,08,47,025,18,07,44,303,40,26,32,307,38,1*74
$GAGSV,2,2,06,02,26,086,34,30,26,143,33,1*7D
$GBGSV,4,1,15,38,83,110,43,08,79,004,38,39,71,283,42,13,68,334,37,1*76
$GBGSV,4,2,15,16,66,257,39,06,65,253,39,46,60,112,44,09,50,238,42,1*77
$GBGSV,4,3,15,19,49,345,33,20,43,063,34,36,35,184,25,37,23,048,30,1*76
$GBGSV,4,4,15,35,21,269,36,29,19,212,35,22,11,301,38,1*42
$GBGSV,2,1,07,38,83,110,44,39,71,283,44,46,60,112,46,19,49,345,19,4*79
$GBGSV,2,2,07,20,43,063,20,35,21,269,35,22,11,301,32,4*4B
$GNACCURACY,2.4*10
$PAIRSAT,1,35,1,0,200,2,0,200,3,0,200,4,0,200,5,0,201,6,0,200,7,0,200,8,0,200,9,0,200,10,0,221,11,0,200,12,0,201,13,0,201,14,0,200,15,0,201,16,0,200,17,0,200,18,0,221,19,0,200,20,0,200,21,0,200,23,0,221,24,0,221,25,0,200,26,0,200,27,0,200,28,0,200,29,0,200,30,0,200,31,0,200,32,0,221,194,0,621,195,0,621,196,0,620,199,0,621*68
$PAIRSAT,2,23,65,0,200,67,0,200,68,0,200,69,0,201,70,0,201,71,0,201,72,0,200,73,0,201,74,0,200,75,0,200,76,0,200,77,0,200,78,0,200,79,0,201,80,0,201,81,0,200,82,0,200,83,0,200,84,0,200,85,0,201,86,0,201,87,0,200,88,0,200*53
$PAIRSAT,3,23,2,0,1221,3,0,1221,4,0,1200,5,0,200,7,0,1221,8,0,1221,9,0,1200,10,0,1200,11,0,1200,12,0,1200,13,0,1221,15,0,1221,19,0,1200,21,0,1200,24,0,1200,25,0,1200,26,0,1221,27,0,1200,30,0,1221,31,0,1200,33,0,1200,34,0,1200,36,0,1200*6A
$PAIRSAT,4,50,1,0,200,2,0,200,3,0,200,4,0,200,5,0,200,6,0,201,7,0,200,8,0,201,9,0,201,10,0,200,11,0,200,12,0,200,13,0,201,14,0,200,15,0,200,16,0,201,19,0,621,20,0,621,21,0,600,22,0,621,23,0,600,24,0,600,25,0,600,26,0,600,27,0,600,28,0,600,29,0,621,30,0,600,31,0,200,32,0,600,33,0,600,34,0,600,35,0,621,36,0,621,37,0,621,38,0,621,39,0,621,40,0,600,41,0,600,42,0,600,43,0,600,44,0,600,45,0,600,46,0,621,56,0,200,57,0,200,58,0,200,59,0,600,60,0,600,61,0,600*41
$PAIRDGP,11,5,10,12,13,15,18,23,24,25,29,32*6B
$GNGGA,112616.200,2500.8150000,N,12132.4709000,E,2,60,0.45,17.79,M,15.25,M,2,3335*7A
$GNRMC,112616.200,A,2500.8150000,N,12132.4709000,E,0.01,287.56,260623,,,D,V*00
$GPHDT,,T*1B
$GNACCURACY,2.4*10
$GNGGA,112616.300,2500.8150000,N,12132.4708900,E,2,60,0.45,17.81,M,15.25,M,2,3335*74
$GNRMC,112616.300,A,2500.8150000,N,12132.4708900,E,0.01,287.56,260623,,,D,V*09
$GPHDT,,T*1B
$GNACCURACY,2.4*10
$GNGGA,112616.400,2500.8149900,N,12132.4708800,E,2,60,0.45,17.82,M,15.25,M,1,3335*73
$GNRMC,112616.400,A,2500.8149900,N,12132.4708800,E,0.00,287.56,260623,,,D,V*0F
$GPHDT,,T*1B
$GNACCURACY,2.4*10
$GNGGA,112616.500,2500.8149800,N,12132.4708700,E,2,61,0.45,17.84,M,15.25,M,1,3335*7B
$GNRMC,112616.500,A,2500.8149800,N,12132.4708700,E,0.01,287.56,260623,,,D,V*01
$GPHDT,,T*1B
$GNACCURACY,2.4*10
$GNGGA,112616.600,2500.8149700,N,12132.4708500,E,2,62,0.43,17.85,M,15.25,M,1,3335*71
$GNRMC,112616.600,A,2500.8149700,N,12132.4708500,E,0.01,287.56,260623,,,D,V*0F
$GPHDT,,T*1B
$GNACCURACY,2.4*10
$GNGGA,112616.700,2500.8149700,N,12132.4708500,E,2,63,0.43,17.86,M,15.25,M,1,3335*72
$GNRMC,112616.700,A,2500.8149700,N,12132.4708500,E,0.01,287.56,260623,,,D,V*0E
$GPHDT,,T*1B
$GNACCURACY,2.4*10
$GNGGA,112616.800,2500.8149600,N,12132.4708400,E,2,63,0.43,17.88,M,15.25,M,1,3335*73
$GNRMC,112616.800,A,2500.8149600,N,12132.4708400,E,0.02,287.56,260623,,,D,V*02
$GPHDT,,T*1B
$GNACCURACY,2.4*10
$GNGGA,112616.900,2500.8149600,N,12132.4708200,E,2,61,0.45,17.89,M,15.25,M,1,3335*71
$GNRMC,112616.900,A,2500.8149600,N,12132.4708200,E,0.02,287.56,260623,,,D,V*05
$GPHDT,,T*1B
$GNACCURACY,2.4*10
$GNGGA,112617.000,2500.8149500,N,12132.4708200,E,2,62,0.43,17.90,M,15.25,M,1,3335*77
$GNRMC,112617.000,A,2500.8149500,N,12132.4708200,E,0.01,287.56,260623,,,D,V*0D
$GPHDT,,T*1B
$GNACCURACY,2.4*10
$GNGGA,112617.100,2500.8149400,N,12132.4708100,E,2,62,0.43,17.91,M,15.25,M,1,3335*75
$GNRMC,112617.100,A,2500.8149400,N,12132.4708100,E,0.01,287.56,260623,,,D,V*0E
$GPHDT,,T*1B
$GNGSA,A,3,196,24,199,18,23,15,195,194,12,05,10,,0.71,0.43,0.56,1*00
$GNGSA,A,3,80,70,73,85,86,71,69,,,,,,0.71,0.43,0.56,2*01
$GNGSA,A,3,13,08,07,26,30,02,15,,,,,,0.71,0.43,0.56,3*0D
$GNGSA,A,3,38,08,39,13,16,06,46,09,19,20,36,37,0.71,0.43,0.56,4*0C
$GNGSA,A,3,35,29,22,,,,,,,,,,0.71,0.43,0.56,4*0B
$GPGSV,4,1,16,196,75,065,42,24,74,043,44,199,60,167,25,18,59,247,47,1*6A
$GPGSV,4,2,16,23,50,338,31,41,38,242,45,15,37,047,33,195,34,180,21,1*53
$GPGSV,4,3,16,194,31,138,28,12,20,141,37,05,19,118,32,10,18,318,30,1*5E
$GPGSV,4,4,16,25,09,176,18,32,09,269,24,13,08,057,15,29,01,196,,1*6F
$GPGSV,2,1,08,196,75,065,40,24,74,043,44,199,60,167,38,18,59,247,45,8*66
$GPGSV,2,2,08,23,50,338,35,194,31,138,31,10,18,318,36,32,09,269,22,8*5B
$GLGSV,2,1,08,80,48,077,44,70,40,010,18,73,38,159,23,85,35,246,44,1*74
$GLGSV,2,2,08,86,27,302,41,71,22,314,40,69,13,074,17,79,11,032,12,1*7F
$GAGSV,3,1,09,13,56,232,42,08,47,025,18,07,44,303,40,26,32,307,34,7*7C
$GAGSV,3,2,09,30,26,143,31,02,26,086,35,15,23,174,18,03,10,064,,7*78
$GAGSV,3,3,09,25,03,043,,7*49
$GAGSV,2,1,06,13,56,232,39,08,47,025,17,07,44,303,41,26,32,307,38,1*7A
$GAGSV,2,2,06,02,26,086,34,30,26,143,33,1*7D
$GBGSV,4,1,15,38,83,110,43,08,79,004,38,39,71,283,42,13,68,334,38,1*79
$GBGSV,4,2,15,16,66,257,39,06,65,253,40,46,60,112,44,09,50,238,42,1*79
$GBGSV,4,3,15,19,49,345,33,20,43,063,34,36,35,184,26,37,23,048,28,1*7C
$GBGSV,4,4,15,35,21,269,35,29,19,212,35,22,11,301,38,1*41
$GBGSV,3,1,09,38,83,110,44,39,71,283,44,46,60,112,46,19,49,345,20,4*7C
$GBGSV,3,2,09,20,43,063,20,36,35,184,20,35,21,269,35,29,19,212,22,4*79
$GBGSV,3,3,09,22,11,301,31,4*4A
$GNACCURACY,2.4*10
$PAIRSAT,1,35,1,0,200,2,0,200,3,0,200,4,0,200,5,0,201,6,0,200,7,0,200,8,0,200,9,0,200,10,0,221,11,0,200,12,0,201,13,0,201,14,0,200,15,0,201,16,0,200,17,0,200,18,0,221,19,0,200,20,0,200,21,0,200,23,0,221,24,0,221,25,0,200,26,0,200,27,0,200,28,0,200,29,0,200,30,0,200,31,0,200,32,0,221,194,0,621,195,0,621,196,0,620,199,0,621*68
$PAIRSAT,2,23,65,0,200,67,0,200,68,0,200,69,0,201,70,0,201,71,0,201,72,0,200,73,0,201,74,0,200,75,0,200,76,0,200,77,0,200,78,0,200,79,0,201,80,0,201,81,0,200,82,0,200,83,0,200,84,0,200,85,0,201,86,0,201,87,0,200,88,0,200*53
$PAIRSAT,3,23,2,0,1221,3,0,1221,4,0,1200,5,0,200,7,0,1221,8,0,1221,9,0,1200,10,0,1200,11,0,1200,12,0,1200,13,0,1221,15,0,1221,19,0,1200,21,0,1200,24,0,1200,25,0,1200,26,0,1221,27,0,1200,30,0,1221,31,0,1200,33,0,1200,34,0,1200,36,0,1200*6A
$PAIRSAT,4,50,1,0,200,2,0,200,3,0,200,4,0,200,5,0,200,6,0,201,7,0,200,8,0,201,9,0,201,10,0,200,11,0,200,12,0,200,13,0,201,14,0,200,15,0,200,16,0,201,19,0,621,20,0,621,21,0,600,22,0,621,23,0,600,24,0,600,25,0,600,26,0,600,27,0,600,28,0,600,29,0,621,30,0,600,31,0,200,32,0,600,33,0,600,34,0,600,35,0,621,36,0,621,37,0,621,38,0,621,39,0,621,40,0,600,41,0,600,42,0,600,43,0,600,44,0,600,45,0,600,46,0,621,56,0,200,57,0,200,58,0,200,59,0,600,60,0,600,61,0,600*41
$PAIRDGP,11,5,10,12,13,15,18,23,24,25,29,32*6B
$GNGGA,112617.200,2500.8149400,N,12132.4708000,E,2,62,0.43,17.91,M,15.25,M,1,3335*77
$GNRMC,112617.200,A,2500.8149400,N,12132.4708000,E,0.01,287.56,260623,,,D,V*0C
$GPHDT,,T*1B
$GNACCURACY,2.4*10
$GNGGA,112617.300,2500.8149300,N,12132.4707900,E,2,61,0.43,17.92,M,15.25,M,1,3335*77
$GNRMC,112617.300,A,2500.8149300,N,12132.4707900,E,0.00,287.56,260623,,,D,V*0D
$GPHDT,,T*1B
$GNACCURACY,2.4*10
$GNGGA,112617.400,2500.8149200,N,12132.4707800,E,2,60,0.45,17.93,M,15.25,M,1,3335*76
$GNRMC,112617.400,A,2500.8149200,N,12132.4707800,E,0.00,287.56,260623,,,D,V*0A
$GPHDT,,T*1B
$GNACCURACY,2.4*10
$GNGGA,112617.500,2500.8149100,N,12132.4707700,E,2,61,0.45,17.95,M,15.25,M,1,3335*7C
$GNRMC,112617.500,A,2500.8149100,N,12132.4707700,E,0.01,287.56,260623,,,D,V*06
$GPHDT,,T*1B
$GNACCURACY,2.4*10
$GNGGA,112617.600,2500.8149100,N,12132.4707600,E,2,62,0.43,17.96,M,15.25,M,1,3335*78
$GNRMC,112617.600,A,2500.8149100,N,12132.4707600,E,0.01,287.56,260623,,,D,V*04
$GPHDT,,T*1B
$GNACCURACY,2.4*10
$GNGGA,112617.700,2500.8149000,N,12132.4707500,E,2,60,0.45,17.97,M,15.25,M,1,3335*7E
$GNRMC,112617.700,A,2500.8149000,N,12132.4707500,E,0.02,287.56,260623,,,D,V*04
$GPHDT,,T*1B
$GNACCURACY,2.4*10
$GNGGA,112617.800,2500.8149000,N,12132.4707500,E,2,63,0.43,17.98,M,15.25,M,1,3335*7B
$GNRMC,112617.800,A,2500.8149000,N,12132.4707500,E,0.01,287.56,260623,,,D,V*08
$GPHDT,,T*1B
$GNACCURACY,2.4*10
$GNGGA,112617.900,2500.8148900,N,12132.4707400,E,2,63,0.43,17.99,M,15.25,M,1,3335*72
$GNRMC,112617.900,A,2500.8148900,N,12132.4707400,E,0.02,287.56,260623,,,D,V*03
$GPHDT,,T*1B
$GNACCURACY,2.4*10
$GNGGA,112618.000,2500.8148800,N,12132.4707300,E,2,63,0.43,18.00,M,15.25,M,2,3335*7E
$GNRMC,112618.000,A,2500.8148800,N,12132.4707300,E,0.01,287.56,260623,,,D,V*00
$GPHDT,,T*1B
$GNACCURACY,2.4*10
$GNGGA,112618.100,2500.8148700,N,12132.4707300,E,2,63,0.43,18.01,M,15.25,M,2,3335*71
$GNRMC,112618.100,A,2500.8148700,N,12132.4707300,E,0.02,287.56,260623,,,D,V*0D
$GPHDT,,T*1B
$GNGSA,A,3,196,24,199,18,23,15,195,194,12,05,10,,0.71,0.43,0.56,1*00
$GNGSA,A,3,80,70,73,85,86,71,69,,,,,,0.71,0.43,0.56,2*01
$GNGSA,A,3,13,08,07,26,30,02,15,,,,,,0.71,0.43,0.56,3*0D
$GNGSA,A,3,38,08,39,13,16,06,46,09,19,20,36,37,0.71,0.43,0.56,4*0C
$GNGSA,A,3,35,29,22,,,,,,,,,,0.71,0.43,0.56,4*0B
$GPGSV,4,1,16,196,75,065,43,24,74,043,44,199,60,167,25,18,59,247,47,1*6B
$GPGSV,4,2,16,23,50,338,29,41,38,242,45,15,37,047,33,195,34,180,21,1*5A
$GPGSV,4,3,16,194,31,138,28,12,20,141,37,05,19,118,32,10,18,318,30,1*5E
$GPGSV,4,4,16,25,09,176,18,32,09,269,24,13,08,057,17,29,01,196,,1*6D
$GPGSV,3,1,09,196,75,065,41,24,74,043,44,199,60,167,38,18,59,247,45,8*67
$GPGSV,3,2,09,23,50,338,36,195,34,180,19,194,31,138,32,10,18,318,37,8*64
$GPGSV,3,3,09,32,09,269,24,8*57
$GLGSV,2,1,08,80,48,077,44,70,40,010,18,73,38,159,23,85,35,246,44,1*74
$GLGSV,2,2,08,86,27,302,43,71,22,314,38,69,13,074,17,79,11,032,15,1*75
$GAGSV,3,1,09,13,56,232,42,08,47,025,17,07,44,303,41,26,32,307,38,7*7E
$GAGSV,3,2,09,30,26,143,32,02,26,086,35,15,23,174,17,03,10,064,,7*74
$GAGSV,3,3,09,25,03,043,,7*49
$GAGSV,2,1,07,13,56,232,40,08,47,025,17,07,44,303,42,26,32,307,38,1*76
$GAGSV,2,2,07,02,26,086,34,30,26,143,33,15,23,174,19,1*43
$GBGSV,4,1,15,38,83,110,43,08,79,004,38,39,71,283,42,13,68,334,37,1*76
$GBGSV,4,2,15,16,66,257,39,06,65,253,40,46,60,112,44,09,50,238,42,1*79
$GBGSV,4,3,15,19,49,345,33,20,43,063,34,36,35,184,25,37,23,048,28,1*7F
$GBGSV,4,4,15,35,21,269,37,29,19,212,35,22,11,301,40,1*4C
$GBGSV,2,1,08,38,83,110,44,39,71,283,44,46,60,112,46,19,49,345,19,4*76
$GBGSV,2,2,08,20,43,063,20,35,21,269,35,29,19,212,24,22,11,301,35,4*77
$GNACCURACY,2.4*10
$PAIRSAT,1,35,1,0,200,2,0,200,3,0,200,4,0,200,5,0,201,6,0,200,7,0,200,8,0,200,9,0,200,10,0,221,11,0,200,12,0,201,13,0,201,14,0,200,15,0,201,16,0,200,17,0,200,18,0,221,19,0,200,20,0,200,21,0,200,23,0,221,24,0,221,25,0,200,26,0,200,27,0,200,28,0,200,29,0,200,30,0,200,31,0,200,32,0,221,194,0,621,195,0,621,196,0,620,199,0,621*68
$PAIRSAT,2,23,65,0,200,67,0,200,68,0,200,69,0,201,70,0,201,71,0,201,72,0,200,73,0,201,74,0,200,75,0,200,76,0,200,77,0,200,78,0,200,79,0,201,80,0,201,81,0,200,82,0,200,83,0,200,84,0,200,85,0,201,86,0,201,87,0,200,88,0,200*53
$PAIRSAT,3,23,2,0,1221,3,0,1221,4,0,1200,5,0,200,7,0,1221,8,0,1221,9,0,1200,10,0,1200,11,0,1200,12,0,1200,13,0,1221,15,0,1221,19,0,1200,21,0,1200,24,0,1200,25,0,1200,26,0,1221,27,0,1200,30,0,1221,31,0,1200,33,0,1200,34,0,1200,36,0,1200*6A
$PAIRSAT,4,50,1,0,200,2,0,200,3,0,200,4,0,200,5,0,200,6,0,201,7,0,200,8,0,201,9,0,201,10,0,200,11,0,200,12,0,200,13,0,201,14,0,200,15,0,200,16,0,201,19,0,621,20,0,621,21,0,600,22,0,621,23,0,600,24,0,600,25,0,600,26,0,600,27,0,600,28,0,600,29,0,621,30,0,600,31,0,200,32,0,600,33,0,600,34,0,600,35,0,621,36,0,621,37,0,621,38,0,621,39,0,621,40,0,600,41,0,600,42,0,600,43,0,600,44,0,600,45,0,600,46,0,621,56,0,200,57,0,200,58,0,200,59,0,600,60,0,600,61,0,600*41
$PAIRDGP,11,5,10,12,13,15,18,23,24,25,29,32*6B
$GNGGA,112618.200,2500.8148600,N,12132.4707200,E,2,63,0.43,18.02,M,15.25,M,2,3335*71
$GNRMC,112618.200,A,2500.8148600,N,12132.4707200,E,0.01,287.56,260623,,,D,V*0D
$GPHDT,47.508,T*0B
$GNACCURACY,2.4*10
$GNGGA,112618.300,2500.8148500,N,12132.4707100,E,2,62,0.45,18.03,M,15.25,M,2,3335*76
$GNRMC,112618.300,A,2500.8148500,N,12132.4707100,E,0.02,287.56,260623,,,D,V*0F
$GPHDT,,T*1B
$GNACCURACY,2.4*10
$GNGGA,112618.400,2500.8148400,N,12132.4707000,E,2,62,0.45,18.04,M,15.25,M,2,3335*76
$GNRMC,112618.400,A,2500.8148400,N,12132.4707000,E,0.02,287.56,260623,,,D,V*08
$GPHDT,47.549,T*0E
$GNACCURACY,2.4*10
$GNGGA,112618.500,2500.8148400,N,12132.4707000,E,2,63,0.43,18.05,M,15.25,M,2,3335*71
$GNRMC,112618.500,A,2500.8148400,N,12132.4707000,E,0.01,287.56,260623,,,D,V*0A
$GPHDT,,T*1B
$GNACCURACY,2.4*10
$GNGGA,112618.600,2500.8148300,N,12132.4706900,E,2,62,0.43,18.06,M,15.25,M,2,3335*7F
$GNRMC,112618.600,A,2500.8148300,N,12132.4706900,E,0.01,287.56,260623,,,D,V*06
$GPHDT,47.403,T*01
$GNACCURACY,2.4*10
$GNGGA,112618.700,2500.8148200,N,12132.4706900,E,2,62,0.43,18.07,M,15.25,M,2,3335*7E
$GNRMC,112618.700,A,2500.8148200,N,12132.4706900,E,0.01,287.56,260623,,,D,V*06
$GPHDT,,T*1B
$GNACCURACY,2.4*10
$GNGGA,112618.800,2500.8148100,N,12132.4706800,E,2,62,0.43,18.08,M,15.25,M,2,3335*7C
$GNRMC,112618.800,A,2500.8148100,N,12132.4706800,E,0.01,287.56,260623,,,D,V*0B
$GPHDT,47.458,T*0F
$GNACCURACY,2.4*10
$GNGGA,112618.900,2500.8148100,N,12132.4706700,E,2,61,0.45,18.10,M,15.25,M,2,3335*7E
$GNRMC,112618.900,A,2500.8148100,N,12132.4706700,E,0.01,287.56,260623,,,D,V*05
$GPHDT,,T*1B
$GNACCURACY,2.4*10
$GNGGA,112619.000,2500.8148100,N,12132.4706700,E,2,63,0.43,18.11,M,15.25,M,3,3335*72
$GNRMC,112619.000,A,2500.8148100,N,12132.4706700,E,0.02,287.56,260623,,,D,V*0E
$GPHDT,47.665,T*03
$GNACCURACY,2.4*10
$GNGGA,112619.100,2500.8148100,N,12132.4706600,E,2,63,0.43,18.12,M,15.25,M,3,3335*71
$GNRMC,112619.100,A,2500.8148100,N,12132.4706600,E,0.02,287.56,260623,,,D,V*0E
$GPHDT,,T*1B
$GNGSA,A,3,196,24,199,18,23,15,195,194,12,05,10,,0.72,0.45,0.56,1*05
$GNGSA,A,3,80,70,73,85,86,71,69,,,,,,0.72,0.45,0.56,2*04
$GNGSA,A,3,13,08,07,26,02,30,15,,,,,,0.72,0.45,0.56,3*08
$GNGSA,A,3,38,08,39,13,16,06,46,09,19,20,36,35,0.72,0.45,0.56,4*0B
$GNGSA,A,3,29,22,,,,,,,,,,,0.72,0.45,0.56,4*08
$GPGSV,4,1,16,196,75,065,43,24,74,043,44,199,60,167,25,18,59,247,47,1*6B
$GPGSV,4,2,16,23,50,338,29,41,38,242,45,15,37,047,33,195,34,180,21,1*5A
$GPGSV,4,3,16,194,31,138,27,12,20,141,37,05,19,118,32,10,18,318,28,1*58
$GPGSV,4,4,16,25,09,176,18,32,09,269,24,13,08,057,18,29,01,196,,1*62
$GPGSV,3,1,09,196,75,065,41,24,74,043,44,199,60,167,38,18,59,247,45,8*67
$GPGSV,3,2,09,23,50,338,36,195,34,180,21,194,31,138,32,10,18,318,36,8*6E
$GPGSV,3,3,09,32,09,269,24,8*57
$GLGSV,2,1,08,80,48,077,44,70,40,010,18,73,38,159,23,85,35,246,44,1*74
$GLGSV,2,2,08,86,27,302,43,71,22,314,38,69,13,074,17,79,11,032,13,1*73
$GAGSV,3,1,10,13,56,232,42,08,47,025,17,07,44,303,41,26,32,307,35,7*7B
$GAGSV,3,2,10,02,26,086,35,30,26,143,31,15,23,174,17,03,10,064,,7*7F
$GAGSV,3,3,10,25,03,043,,27,01,188,,7*74
$GAGSV,2,1,07,13,56,232,40,08,47,025,18,07,44,303,43,26,32,307,38,1*78
$GAGSV,2,2,07,02,26,086,34,30,26,143,33,15,23,174,20,1*49
$GBGSV,4,1,15,38,83,110,43,08,79,004,38,39,71,283,42,13,68,334,37,1*76
$GBGSV,4,2,15,16,66,257,39,06,65,253,40,46,60,112,43,09,50,238,42,1*7E
$GBGSV,4,3,15,19,49,345,33,20,43,063,34,36,35,184,25,37,23,048,29,1*7E
$GBGSV,4,4,15,35,21,269,35,29,19,212,34,22,11,301,40,1*4F
$GBGSV,2,1,08,38,83,110,44,39,71,283,44,46,60,112,46,19,49,345,19,4*76
$GBGSV,2,2,08,20,43,063,20,35,21,269,35,29,19,212,25,22,11,301,35,4*76
$GNACCURACY,2.4*10
$PAIRSAT,1,35,1,0,200,2,0,200,3,0,200,4,0,200,5,0,201,6,0,200,7,0,200,8,0,200,9,0,200,10,0,221,11,0,200,12,0,201,13,0,201,14,0,200,15,0,201,16,0,200,17,0,200,18,0,221,19,0,200,20,0,200,21,0,200,23,0,221,24,0,221,25,0,200,26,0,200,27,0,200,28,0,200,29,0,200,30,0,200,31,0,200,32,0,221,194,0,621,195,0,621,196,0,620,199,0,621*68
$PAIRSAT,2,23,65,0,200,67,0,200,68,0,200,69,0,201,70,0,201,71,0,201,72,0,200,73,0,201,74,0,200,75,0,200,76,0,200,77,0,200,78,0,200,79,0,201,80,0,201,81,0,200,82,0,200,83,0,200,84,0,200,85,0,201,86,0,201,87,0,200,88,0,200*53
$PAIRSAT,3,23,2,0,1221,3,0,1221,4,0,1200,5,0,200,7,0,1221,8,0,1221,9,0,1200,10,0,1200,11,0,1200,12,0,1200,13,0,1221,15,0,1221,19,0,1200,21,0,1200,24,0,1200,25,0,1200,26,0,1221,27,0,1200,30,0,1221,31,0,1200,33,0,1200,34,0,1200,36,0,1200*6A
$PAIRSAT,4,50,1,0,200,2,0,200,3,0,200,4,0,200,5,0,200,6,0,201,7,0,200,8,0,201,9,0,201,10,0,200,11,0,200,12,0,200,13,0,201,14,0,200,15,0,200,16,0,201,19,0,621,20,0,621,21,0,600,22,0,621,23,0,600,24,0,600,25,0,600,26,0,600,27,0,600,28,0,600,29,0,621,30,0,600,31,0,200,32,0,600,33,0,600,34,0,600,35,0,621,36,0,621,37,0,621,38,0,621,39,0,621,40,0,600,41,0,600,42,0,600,43,0,600,44,0,600,45,0,600,46,0,621,56,0,200,57,0,200,58,0,200,59,0,600,60,0,600,61,0,600*41
$PAIRDGP,11,5,10,12,13,15,18,23,24,25,29,32*6B
$GNGGA,112619.200,2500.8148000,N,12132.4706600,E,2,62,0.45,18.13,M,15.25,M,3,3335*75
$GNRMC,112619.200,A,2500.8148000,N,12132.4706600,E,0.02,287.56,260623,,,D,V*0C
$GPHDT,47.469,T*0D
$GNACCURACY,2.4*10
$GNGGA,112619.300,2500.8148000,N,12132.4706500,E,2,63,0.43,18.14,M,15.25,M,3,3335*77
$GNRMC,112619.300,A,2500.8148000,N,12132.4706500,E,0.02,287.56,260623,,,D,V*0E
$GPHDT,,T*1B
$GNACCURACY,2.4*10
$GNGGA,112619.400,2500.8147900,N,12132.4706400,E,2,63,0.43,18.15,M,15.25,M,3,3335*76
$GNRMC,112619.400,A,2500.8147900,N,12132.4706400,E,0.02,287.56,260623,,,D,V*0E
$GPHDT,47.439,T*08
$GNACCURACY,2.4*10
$GNGGA,112619.500,2500.8147900,N,12132.4706400,E,2,62,0.43,18.16,M,15.25,M,3,3335*75
$GNRMC,112619.500,A,2500.8147900,N,12132.4706400,E,0.01,287.56,260623,,,D,V*0C
$GPHDT,,T*1B
$GNACCURACY,2.4*10
$GNGGA,112619.600,2500.8147900,N,12132.4706300,E,2,63,0.43,18.17,M,15.25,M,3,3335*71
$GNRMC,112619.600,A,2500.8147900,N,12132.4706300,E,0.01,287.56,260623,,,D,V*08
$GPHDT,47.378,T*0A
