$FW : RTK35X,V1.1X0314AS,Lib20210517,1*54
$Tool : LOCOSYS , GNSS Firebird , v1.0.0.19*39
$---------------------------------------------------*2D
5,36,048,20,195,34,180,17,1*5A
$GPGSV,4,3,16,194,31,138,32,12,21,141,39,10,19,319,28,05,18,119,30,1*51
$GPGSV,4,4,16,25,10,176,18,32,10,270,24,13,08,057,21,29,01,195,,1*63
$GPGSV,3,1,09,196,75,065,43,24,73,042,47,199,60,167,39,18,58,245,46,8*61
$GPGSV,3,2,09,23,51,339,33,195,34,180,22,194,31,138,33,10,19,319,27,8*69
$GPGSV,3,3,09,32,10,270,18,8*58
$GLGSV,2,1,08,80,48,075,45,70,40,011,,73,39,158,34,85,35,245,43,1*7D
$GLGSV,2,2,08,86,27,301,41,71,22,315,40,69,12,075,19,79,11,031,19,1*7B
$GAGSV,3,1,10,13,56,231,41,08,46,026,24,07,44,304,40,26,32,306,42,7*7E
$GAGSV,3,2,10,02,26,085,35,30,26,143,35,15,22,174,17,03,10,065,17,7*7E
$GAGSV,3,3,10,25,03,042,,27,02,188,,7*76
$GAGSV,2,1,08,13,56,231,41,08,46,026,21,07,44,304,43,26,32,306,40,1*74
$GAGSV,2,2,08,02,26,085,33,30,26,143,28,15,22,174,23,03,10,065,13,1*79
$GBGSV,4,1,15,38,83,115,44,08,80,003,36,39,71,284,42,13,69,333,37,1*7A
$GBGSV,4,2,15,16,66,259,44,06,65,255,40,46,60,110,42,09,50,239,42,1*7E
$GBGSV,4,3,15,19,49,346,31,20,43,064,32,36,36,184,31,37,22,047,,1*7D
$GBGSV,4,4,15,35,21,268,33,29,18,211,33,22,12,302,38,1*42
$GBGSV,3,1,10,38,83,115,44,39,71,284,44,46,60,110,44,19,49,346,30,4*74
$GBGSV,3,2,10,20,43,064,21,36,36,184,31,37,22,047,25,35,21,268,29,4*7A
$GBGSV,3,3,10,29,18,211,17,22,12,302,24,4*70
$GNACCURACY,2.2*16
$PAIRSAT,1,35,1,0,200,2,0,200,3,0,200,4,0,200,5,0,201,6,0,200,7,0,200,8,0,200,9,0,200,10,0,221,11,0,200,12,0,201,13,0,201,14,0,200,15,0,201,16,0,200,17,0,200,18,0,221,19,0,200,20,0,200,21,0,200,23,0,221,24,0,221,25,0,200,26,0,200,27,0,200,28,0,200,29,0,200,30,0,200,31,0,200,32,0,221,194,0,621,195,0,621,196,0,620,199,0,621*68
$PAIRSAT,2,23,65,0,200,67,0,200,68,0,200,69,0,201,70,0,201,71,0,201,72,0,200,73,0,201,74,0,200,75,0,200,76,0,200,77,0,200,78,0,200,79,0,201,80,0,201,81,0,200,82,0,200,83,0,200,84,0,200,85,0,201,86,0,201,87,0,200,88,0,200*53
$PAIRSAT,3,23,2,0,1221,3,0,1221,4,0,1200,5,0,200,7,0,1221,8,0,1221,9,0,1200,10,0,1200,11,0,1200,12,0,1200,13,0,1221,15,0,1221,19,0,1200,21,0,1200,24,0,1200,25,0,1200,26,0,1221,27,0,1200,30,0,1221,31,0,1200,33,0,1200,34,0,1200,36,0,1200*6A
$PAIRSAT,4,50,1,0,200,2,0,200,3,0,200,4,0,200,5,0,200,6,0,201,7,0,200,8,0,201,9,0,201,10,0,200,11,0,200,12,0,200,13,0,201,14,0,200,15,0,200,16,0,201,19,0,621,20,0,621,21,0,600,22,0,621,23,0,600,24,0,600,25,0,600,26,0,600,27,0,600,28,0,600,29,0,621,30,0,600,31,0,200,32,0,600,33,0,600,34,0,600,35,0,621,36,0,621,37,0,621,38,0,621,39,0,621,40,0,600,41,0,600,42,0,600,43,0,600,44,0,600,45,0,600,46,0,621,56,0,200,57,0,200,58,0,200,59,0,600,60,0,600,61,0,600*41
$PAIRDGP,11,5,10,12,13,15,18,23,24,25,29,32*6B
$GNGGA,112832.200,2500.8128153,N,12132.4710965,E,4,67,0.41,15.987,M,15.25,M,3,3335*46
$GNRMC,112832.200,A,2500.8128153,N,12132.4710965,E,0.02,287.56,260623,,,R,V*17
$GPHDT,,T*1B
$GNACCURACY,2.2*16
$GNGGA,112832.300,2500.8128137,N,12132.4711022,E,4,67,0.41,15.974,M,15.25,M,3,3335*42
$GNRMC,112832.300,A,2500.8128137,N,12132.4711022,E,0.02,287.56,260623,,,R,V*1F
$GPHDT,,T*1B
$GNACCURACY,2.2*16
$GNGGA,112832.400,2500.8128144,N,12132.4711017,E,4,67,0.41,15.969,M,15.25,M,3,3335*4B
$GNRMC,112832.400,A,2500.8128144,N,12132.4711017,E,0.02,287.56,260623,,,R,V*1A
$GPHDT,,T*1B
$GNACCURACY,2.3*17
$GNGGA,112832.500,2500.8128092,N,12132.4711059,E,4,68,0.41,15.994,M,15.25,M,3,3335*47
$GNRMC,112832.500,A,2500.8128092,N,12132.4711059,E,0.02,287.56,260623,,,R,V*1B
$GPHDT,,T*1B
$GNACCURACY,2.3*17
$GNGGA,112832.600,2500.8128116,N,12132.4711086,E,4,68,0.41,15.991,M,15.25,M,3,3335*4E
$GNRMC,112832.600,A,2500.8128116,N,12132.4711086,E,0.02,287.56,260623,,,R,V*17
$GPHDT,,T*1B
$GNACCURACY,2.3*17
$GNGGA,112832.700,2500.8128124,N,12132.4711031,E,4,68,0.41,15.990,M,15.25,M,3,3335*43
$GNRMC,112832.700,A,2500.8128124,N,12132.4711031,E,0.02,287.56,260623,,,R,V*1B
$GPHDT,,T*1B
$GNACCURACY,2.3*17
$GNGGA,112832.800,2500.8128129,N,12132.4711030,E,4,68,0.41,16.000,M,15.25,M,3,3335*43
$GNRMC,112832.800,A,2500.8128129,N,12132.4711030,E,0.02,287.56,260623,,,R,V*18
$GPHDT,,T*1B
$GNACCURACY,2.3*17
$GNGGA,112832.900,2500.8128144,N,12132.4711042,E,4,67,0.41,15.991,M,15.25,M,3,3335*41
$GNRMC,112832.900,A,2500.8128144,N,12132.4711042,E,0.02,287.56,260623,,,R,V*17
$GPHDT,,T*1B
$GNACCURACY,2.3*17
$GNGGA,112833.000,2500.8128143,N,12132.4711037,E,4,67,0.41,15.987,M,15.25,M,4,3335*4C
$GNRMC,112833.000,A,2500.8128143,N,12132.4711037,E,0.02,287.56,260623,,,R,V*1A
$GPHDT,,T*1B
$GNACCURACY,2.3*17
$GNGGA,112833.100,2500.8128143,N,12132.4711032,E,4,67,0.41,15.994,M,15.25,M,4,3335*4A
$GNRMC,112833.100,A,2500.8128143,N,12132.4711032,E,0.02,287.56,260623,,,R,V*1E
$GPHDT,,T*1B
$GNGSA,A,3,196,24,199,18,23,15,194,12,10,05,32,195,0.73,0.41,0.60,1*04
$GNGSA,A,3,80,73,85,86,71,69,79,,,,,,0.73,0.41,0.60,2*0D
$GNGSA,A,3,13,08,07,26,02,30,15,03,,,,,0.73,0.41,0.60,3*0B
$GNGSA,A,3,38,08,39,13,16,06,46,09,19,20,36,37,0.73,0.41,0.60,4*09
$GNGSA,A,3,35,29,22,,,,,,,,,,0.73,0.41,0.60,4*0E
$GPGSV,4,1,16,196,75,065,43,24,73,042,43,199,60,167,26,18,58,245,44,1*69
$GPGSV,4,2,16,23,51,339,37,41,38,242,45,15,36,048,17,195,34,180,17,1*58
$GPGSV,4,3,16,194,31,138,32,12,21,141,38,10,19,319,33,05,18,119,30,1*5A
$GPGSV,4,4,16,25,10,176,18,32,10,270,23,13,08,057,20,29,01,195,,1*65
$GPGSV,3,1,09,196,75,065,42,24,73,042,47,199,60,167,39,18,58,245,46,8*60
$GPGSV,3,2,09,23,51,339,35,195,34,180,23,194,31,138,32,10,19,319,34,8*6D
$GPGSV,3,3,09,32,10,270,17,8*57
$GLGSV,2,1,08,80,48,075,45,70,40,011,,73,39,158,35,85,35,245,43,1*7C
$GLGSV,2,2,08,86,27,301,43,71,22,315,42,69,12,075,18,79,11,031,18,1*7B
$GAGSV,3,1,10,13,56,231,41,08,46,026,25,07,44,304,42,26,32,306,43,7*7C
$GAGSV,3,2,10,02,26,085,35,30,26,143,35,15,22,174,18,03,10,065,17,7*71
$GAGSV,3,3,10,25,03,042,,27,02,188,,7*76
$GAGSV,2,1,08,13,56,231,41,08,46,026,17,07,44,304,44,26,32,306,39,1*78
$GAGSV,2,2,08,02,26,085,33,30,26,143,29,15,22,174,23,03,10,065,10,1*7B
$GBGSV,4,1,15,38,83,115,44,08,80,003,38,39,71,284,42,13,69,333,39,1*7A
$GBGSV,4,2,15,16,66,259,44,06,65,255,40,46,60,110,42,09,50,239,42,1*7E
$GBGSV,4,3,15,19,49,346,34,20,43,064,31,36,36,184,31,37,22,047,30,1*78
$GBGSV,4,4,15,35,21,268,31,29,18,211,32,22,12,302,39,1*40
$GBGSV,3,1,09,38,83,115,44,39,71,284,43,46,60,110,44,19,49,346,30,4*7B
$GBGSV,3,2,09,20,43,064,18,36,36,184,31,37,22,047,24,35,21,268,28,4*78
$GBGSV,3,3,09,22,12,302,28,4*42
$GNACCURACY,2.3*17
$PAIRSAT,1,35,1,0,200,2,0,200,3,0,200,4,0,200,5,0,201,6,0,200,7,0,200,8,0,200,9,0,200,10,0,221,11,0,200,12,0,201,13,0,201,14,0,200,15,0,201,16,0,200,17,0,200,18,0,221,19,0,200,20,0,200,21,0,200,23,0,221,24,0,221,25,0,200,26,0,200,27,0,200,28,0,200,29,0,200,30,0,200,31,0,200,32,0,221,194,0,621,195,0,621,196,0,620,199,0,621*68
$PAIRSAT,2,23,65,0,200,67,0,200,68,0,200,69,0,201,70,0,201,71,0,201,72,0,200,73,0,201,74,0,200,75,0,200,76,0,200,77,0,200,78,0,200,79,0,201,80,0,201,81,0,200,82,0,200,83,0,200,84,0,200,85,0,201,86,0,201,87,0,200,88,0,200*53
$PAIRSAT,3,23,2,0,1221,3,0,1221,4,0,1200,5,0,200,7,0,1221,8,0,1221,9,0,1200,10,0,1200,11,0,1200,12,0,1200,13,0,1221,15,0,1221,19,0,1200,21,0,1200,24,0,1200,25,0,1200,26,0,1221,27,0,1200,30,0,1221,31,0,1200,33,0,1200,34,0,1200,36,0,1200*6A
$PAIRSAT,4,50,1,0,200,2,0,200,3,0,200,4,0,200,5,0,200,6,0,201,7,0,200,8,0,201,9,0,201,10,0,200,11,0,200,12,0,200,13,0,201,14,0,200,15,0,200,16,0,201,19,0,621,20,0,621,21,0,600,22,0,621,23,0,600,24,0,600,25,0,600,26,0,600,27,0,600,28,0,600,29,0,621,30,0,600,31,0,200,32,0,600,33,0,600,34,0,600,35,0,621,36,0,621,37,0,621,38,0,621,39,0,621,40,0,600,41,0,600,42,0,600,43,0,600,44,0,600,45,0,600,46,0,621,56,0,200,57,0,200,58,0,200,59,0,600,60,0,600,61,0,600*41
$PAIRDGP,11,5,10,12,13,15,18,23,24,25,29,32*6B
$GNGGA,112833.200,2500.8128138,N,12132.4711057,E,4,67,0.41,15.999,M,15.25,M,4,3335*4B
$GNRMC,112833.200,A,2500.8128138,N,12132.4711057,E,0.02,287.56,260623,,,R,V*12
$GPHDT,,T*1B
$GNACCURACY,2.3*17
$GNGGA,112833.300,2500.8128104,N,12132.4711040,E,4,67,0.41,16.006,M,15.25,M,4,3335*4F
$GNRMC,112833.300,A,2500.8128104,N,12132.4711040,E,0.02,287.56,260623,,,R,V*1A
$GPHDT,,T*1B
$GNACCURACY,2.3*17
$GNGGA,112833.400,2500.8128114,N,12132.4711003,E,4,65,0.42,16.010,M,15.25,M,4,3335*48
$GNRMC,112833.400,A,2500.8128114,N,12132.4711003,E,0.02,287.56,260623,,,R,V*1B
$GPHDT,,T*1B
$GNACCURACY,2.3*17
$GNGGA,112833.500,2500.8128118,N,12132.4710999,E,4,67,0.41,16.000,M,15.25,M,4,3335*4E
$GNRMC,112833.500,A,2500.8128118,N,12132.4710999,E,0.02,287.56,260623,,,R,V*1D
$GPHDT,,T*1B
$GNACCURACY,2.3*17
$GNGGA,112833.600,2500.8128115,N,12132.4711067,E,4,67,0.41,15.985,M,15.25,M,4,3335*4E
$GNRMC,112833.600,A,2500.8128115,N,12132.4711067,E,0.02,287.56,260623,,,R,V*1A
$GPHDT,,T*1B
$GNACCURACY,2.3*17
$GNGGA,112833.700,2500.8128125,N,12132.4711090,E,4,67,0.41,15.986,M,15.25,M,4,3335*47
$GNRMC,112833.700,A,2500.8128125,N,12132.4711090,E,0.02,287.56,260623,,,R,V*10
$GPHDT,,T*1B
$GNACCURACY,2.3*17
$GNGGA,112833.800,2500.8128125,N,12132.4711043,E,4,67,0.41,15.998,M,15.25,M,4,3335*49
$GNRMC,112833.800,A,2500.8128125,N,12132.4711043,E,0.02,287.56,260623,,,R,V*11
$GPHDT,,T*1B
$GNACCURACY,2.3*17
$GNGGA,112833.900,2500.8128125,N,12132.4711077,E,4,65,0.41,15.987,M,15.25,M,4,3335*43
$GNRMC,112833.900,A,2500.8128125,N,12132.4711077,E,0.02,287.56,260623,,,R,V*17
$GPHDT,,T*1B
$GNACCURACY,2.3*17
$GNGGA,112834.000,2500.8128109,N,12132.4711078,E,4,65,0.41,15.993,M,15.25,M,5,3335*48
$GNRMC,112834.000,A,2500.8128109,N,12132.4711078,E,0.02,287.56,260623,,,R,V*18
$GPHDT,,T*1B
$GNACCURACY,2.3*17
$GNGGA,112834.100,2500.8128123,N,12132.4711072,E,4,65,0.41,15.991,M,15.25,M,5,3335*49
$GNRMC,112834.100,A,2500.8128123,N,12132.4711072,E,0.02,287.56,260623,,,R,V*1B
$GPHDT,,T*1B
$GNGSA,A,3,196,24,199,18,23,15,194,12,10,05,32,195,0.73,0.41,0.60,1*04
$GNGSA,A,3,80,73,85,86,71,69,79,,,,,,0.73,0.41,0.60,2*0D
$GNGSA,A,3,13,08,07,26,02,30,15,03,,,,,0.73,0.41,0.60,3*0B
$GNGSA,A,3,38,08,39,13,16,06,46,09,19,20,36,37,0.73,0.41,0.60,4*09
$GNGSA,A,3,35,29,22,,,,,,,,,,0.73,0.41,0.60,4*0E
$GPGSV,4,1,16,196,75,065,43,24,73,042,43,199,60,167,26,18,58,245,44,1*69
$GPGSV,4,2,16,23,51,339,37,41,38,242,45,15,36,048,17,195,34,180,17,1*58
$GPGSV,4,3,16,194,31,138,33,12,21,141,38,10,19,319,33,05,18,119,29,1*53
$GPGSV,4,4,16,25,10,176,18,32,10,270,22,13,08,057,19,29,01,195,,1*6E
$GPGSV,3,1,09,196,75,065,42,24,73,042,46,199,60,167,39,18,58,245,46,8*61
$GPGSV,3,2,09,23,51,339,36,195,34,180,23,194,31,138,32,10,19,319,33,8*69
$GPGSV,3,3,09,32,10,270,17,8*57
$GLGSV,2,1,08,80,48,075,45,70,40,011,,73,39,158,35,85,35,245,43,1*7C
$GLGSV,2,2,08,86,27,301,43,71,22,315,43,69,12,075,18,79,11,031,18,1*7A
$GAGSV,3,1,10,13,56,231,41,08,46,026,25,07,44,304,42,26,32,306,43,7*7C
$GAGSV,3,2,10,02,26,085,35,30,26,143,35,15,22,174,18,03,10,065,17,7*71
$GAGSV,3,3,10,25,03,042,,27,02,188,,7*76
$GAGSV,2,1,07,13,56,231,41,08,46,026,17,07,44,304,44,26,32,306,41,1*78
$GAGSV,2,2,07,02,26,085,33,30,26,143,29,15,22,174,23,1*44
$GBGSV,4,1,15,38,83,115,44,08,80,003,38,39,71,284,42,13,69,333,40,1*74
$GBGSV,4,2,15,16,66,259,44,06,65,255,40,46,60,110,42,09,50,239,42,1*7E
$GBGSV,4,3,15,19,49,346,35,20,43,064,31,36,36,184,30,37,22,047,28,1*71
$GBGSV,4,4,15,35,21,268,33,29,18,211,32,22,12,302,39,1*42
$GBGSV,3,1,09,38,83,115,44,39,71,284,43,46,60,110,43,19,49,346,33,4*7F
$GBGSV,3,2,09,20,43,064,18,36,36,184,32,37,22,047,24,35,21,268,29,4*7A
$GBGSV,3,3,09,22,12,302,27,4*4D
$GNACCURACY,2.3*17
$PAIRSAT,1,35,1,0,200,2,0,200,3,0,200,4,0,200,5,0,201,6,0,200,7,0,200,8,0,200,9,0,200,10,0,221,11,0,200,12,0,201,13,0,201,14,0,200,15,0,201,16,0,200,17,0,200,18,0,221,19,0,200,20,0,200,21,0,200,23,0,221,24,0,221,25,0,200,26,0,200,27,0,200,28,0,200,29,0,200,30,0,200,31,0,200,32,0,221,194,0,621,195,0,621,196,0,620,199,0,621*68
$PAIRSAT,2,23,65,0,200,67,0,200,68,0,200,69,0,201,70,0,201,71,0,201,72,0,200,73,0,201,74,0,200,75,0,200,76,0,200,77,0,200,78,0,200,79,0,201,80,0,201,81,0,200,82,0,200,83,0,200,84,0,200,85,0,201,86,0,201,87,0,200,88,0,200*53
$PAIRSAT,3,23,2,0,1221,3,0,1221,4,0,1200,5,0,200,7,0,1221,8,0,1221,9,0,1200,10,0,1200,11,0,1200,12,0,1200,13,0,1221,15,0,1221,19,0,1200,21,0,1200,24,0,1200,25,0,1200,26,0,1221,27,0,1200,30,0,1221,31,0,1200,33,0,1200,34,0,1200,36,0,1200*6A
$PAIRSAT,4,50,1,0,200,2,0,200,3,0,200,4,0,200,5,0,200,6,0,201,7,0,200,8,0,201,9,0,201,10,0,200,11,0,200,12,0,200,13,0,201,14,0,200,15,0,200,16,0,201,19,0,621,20,0,621,21,0,600,22,0,621,23,0,600,24,0,600,25,0,600,26,0,600,27,0,600,28,0,600,29,0,621,30,0,600,31,0,200,32,0,600,33,0,600,34,0,600,35,0,621,36,0,621,37,0,621,38,0,621,39,0,621,40,0,600,41,0,600,42,0,600,43,0,600,44,0,600,45,0,600,46,0,621,56,0,200,57,0,200,58,0,200,59,0,600,60,0,600,61,0,600*41
$PAIRDGP,11,5,10,12,13,15,18,23,24,25,29,32*6B
$GNGGA,112834.200,2500.8128096,N,12132.4711072,E,4,65,0.41,15.994,M,15.25,M,5,3335*40
$GNRMC,112834.200,A,2500.8128096,N,12132.4711072,E,0.02,287.56,260623,,,R,V*17
$GPHDT,,T*1B
$GNACCURACY,2.3*17
$GNGGA,112834.300,2500.8128112,N,12132.4711077,E,4,64,0.42,15.991,M,15.25,M,5,3335*4E
$GNRMC,112834.300,A,2500.8128112,N,12132.4711077,E,0.02,287.56,260623,,,R,V*1E
$GPHDT,,T*1B
$GNACCURACY,2.3*17
$GNGGA,112834.400,2500.8128115,N,12132.4711035,E,4,64,0.42,16.004,M,15.25,M,5,3335*4E
$GNRMC,112834.400,A,2500.8128115,N,12132.4711035,E,0.02,287.56,260623,,,R,V*18
$GPHDT,,T*1B
$GNACCURACY,2.3*17
$GNGGA,112834.500,2500.8128124,N,12132.4711040,E,4,64,0.42,16.003,M,15.25,M,5,3335*48
$GNRMC,112834.500,A,2500.8128124,N,12132.4711040,E,0.02,287.56,260623,,,R,V*19
$GPHDT,,T*1B
$GNACCURACY,2.3*17
$GNGGA,112834.600,2500.8128134,N,12132.4711024,E,4,63,0.42,15.995,M,15.25,M,5,3335*4A
$GNRMC,112834.600,A,2500.8128134,N,12132.4711024,E,0.02,287.56,260623,,,R,V*19
$GPHDT,,T*1B
$GNACCURACY,2.3*17
$GNGGA,112834.700,2500.8128114,N,12132.4711024,E,4,63,0.42,16.004,M,15.25,M,5,3335*4B
$GNRMC,112834.700,A,2500.8128114,N,12132.4711024,E,0.02,287.56,260623,,,R,V*1A
$GPHDT,,T*1B
$GNACCURACY,2.3*17
$GNGGA,112834.800,2500.8128120,N,12132.4711031,E,4,63,0.42,15.995,M,15.25,M,5,3335*45
$GNRMC,112834.800,A,2500.8128120,N,12132.4711031,E,0.02,287.56,260623,,,R,V*16
$GPHDT,,T*1B
$GNACCURACY,2.3*17
$GNGGA,112834.900,2500.8128100,N,12132.4711078,E,4,64,0.42,15.991,M,15.25,M,5,3335*48
$GNRMC,112834.900,A,2500.8128100,N,12132.4711078,E,0.02,287.56,260623,,,R,V*18
$GPHDT,,T*1B
$GNACCURACY,2.3*17
$GNGGA,112835.000,2500.8128099,N,12132.4711071,E,4,63,0.42,15.992,M,15.25,M,6,3335*4F
$GNRMC,112835.000,A,2500.8128099,N,12132.4711071,E,0.02,287.56,260623,,,R,V*18
$GPHDT,,T*1B
$GNACCURACY,2.3*17
$GNGGA,112835.100,2500.8128094,N,12132.4711063,E,4,63,0.42,15.983,M,15.25,M,6,3335*40
$GNRMC,112835.100,A,2500.8128094,N,12132.4711063,E,0.02,287.56,260623,,,R,V*17
$GPHDT,,T*1B
$GNGSA,A,3,196,24,199,18,23,194,12,10,05,32,195,,0.73,0.42,0.60,1*03
$GNGSA,A,3,80,73,85,86,71,69,79,,,,,,0.73,0.42,0.60,2*0E
$GNGSA,A,3,13,08,07,26,30,02,15,03,,,,,0.73,0.42,0.60,3*08
$GNGSA,A,3,38,08,39,13,16,06,46,09,19,20,36,35,0.73,0.42,0.60,4*08
$GNGSA,A,3,29,22,37,,,,,,,,,,0.73,0.42,0.60,4*0F
$GPGSV,4,1,16,196,75,065,43,24,73,042,43,199,60,167,24,18,58,245,44,1*6B
$GPGSV,4,2,16,23,51,339,37,41,38,242,45,15,36,048,14,195,34,180,17,1*5B
$GPGSV,4,3,16,194,31,138,33,12,21,141,38,10,19,319,33,05,18,119,29,1*53
$GPGSV,4,4,16,25,10,176,18,32,10,270,23,13,08,057,18,29,01,195,,1*6E
$GPGSV,3,1,09,196,75,065,42,24,73,042,46,199,60,167,39,18,58,245,46,8*61
$GPGSV,3,2,09,23,51,339,36,195,34,180,23,194,31,138,32,10,19,319,33,8*69
$GPGSV,3,3,09,32,10,270,14,8*54
$GLGSV,2,1,08,80,48,075,45,70,40,011,,73,39,158,35,85,35,245,43,1*7C
$GLGSV,2,2,08,86,27,301,43,71,22,315,43,69,12,075,18,79,11,031,17,1*75
$GAGSV,3,1,09,13,56,231,41,08,46,026,25,07,44,304,42,26,32,306,43,7*74
$GAGSV,3,2,09,30,26,143,35,02,26,085,35,15,22,174,18,03,10,065,17,7*79
$GAGSV,3,3,09,27,02,188,,7*4C
$GAGSV,2,1,07,13,56,231,41,08,46,026,17,07,44,304,44,26,32,306,41,1*78
$GAGSV,2,2,07,02,26,085,33,30,26,143,29,15,22,174,23,1*44
$GBGSV,4,1,15,38,83,115,44,08,80,003,38,39,71,284,42,13,69,333,40,1*74
$GBGSV,4,2,15,16,66,259,44,06,65,255,40,46,60,110,42,09,50,239,42,1*7E
$GBGSV,4,3,15,19,49,346,35,20,43,064,31,36,36,184,30,37,22,047,,1*7B
$GBGSV,4,4,15,35,21,268,34,29,18,211,34,22,12,302,39,1*43
$GBGSV,3,1,09,38,83,115,44,39,71,284,43,46,60,110,43,19,49,346,33,4*7F
$GBGSV,3,2,09,20,43,064,18,36,36,184,32,37,22,047,25,35,21,268,29,4*7B
$GBGSV,3,3,09,22,12,302,24,4*4E
$GNACCURACY,2.3*17
$PAIRSAT,1,35,1,0,200,2,0,200,3,0,200,4,0,200,5,0,201,6,0,200,7,0,200,8,0,200,9,0,200,10,0,221,11,0,200,12,0,201,13,0,201,14,0,200,15,0,201,16,0,200,17,0,200,18,0,221,19,0,200,20,0,200,21,0,200,23,0,221,24,0,221,25,0,200,26,0,200,27,0,200,28,0,200,29,0,200,30,0,200,31,0,200,32,0,221,194,0,621,195,0,621,196,0,620,199,0,621*68
$PAIRSAT,2,23,65,0,200,67,0,200,68,0,200,69,0,201,70,0,201,71,0,201,72,0,200,73,0,201,74,0,200,75,0,200,76,0,200,77,0,200,78,0,200,79,0,201,80,0,201,81,0,200,82,0,200,83,0,200,84,0,200,85,0,201,86,0,201,87,0,200,88,0,200*53
$PAIRSAT,3,23,2,0,1221,3,0,1221,4,0,1200,5,0,200,7,0,1221,8,0,1221,9,0,1200,10,0,1200,11,0,1200,12,0,1200,13,0,1221,15,0,1221,19,0,1200,21,0,1200,24,0,1200,25,0,1200,26,0,1221,27,0,1200,30,0,1221,31,0,1200,33,0,1200,34,0,1200,36,0,1200*6A
$PAIRSAT,4,50,1,0,200,2,0,200,3,0,200,4,0,200,5,0,200,6,0,201,7,0,200,8,0,201,9,0,201,10,0,200,11,0,200,12,0,200,13,0,201,14,0,200,15,0,200,16,0,201,19,0,621,20,0,621,21,0,600,22,0,621,23,0,600,24,0,600,25,0,600,26,0,600,27,0,600,28,0,600,29,0,621,30,0,600,31,0,200,32,0,600,33,0,600,34,0,600,35,0,621,36,0,621,37,0,621,38,0,621,39,0,621,40,0,600,41,0,600,42,0,600,43,0,600,44,0,600,45,0,600,46,0,621,56,0,200,57,0,200,58,0,200,59,0,600,60,0,600,61,0,600*41
$PAIRDGP,11,5,10,12,13,15,18,23,24,25,29,32*6B
$GNGGA,112835.200,2500.8128118,N,12132.4711074,E,4,63,0.42,15.993,M,15.25,M,6,3335*41
$GNRMC,112835.200,A,2500.8128118,N,12132.4711074,E,0.02,287.56,260623,,,R,V*17
$GPHDT,,T*1B
$GNACCURACY,2.2*16
$GNGGA,112835.300,2500.8128099,N,12132.4711084,E,4,63,0.42,15.992,M,15.25,M,6,3335*46
$GNRMC,112835.300,A,2500.8128099,N,12132.4711084,E,0.02,287.56,260623,,,R,V*11
$GPHDT,,T*1B
$GNACCURACY,2.2*16
$GNGGA,112835.400,2500.8128115,N,12132.4711025,E,4,63,0.42,15.997,M,15.25,M,6,3335*4A
$GNRMC,112835.400,A,2500.8128115,N,12132.4711025,E,0.02,287.56,260623,,,R,V*18
$GPHDT,,T*1B
$GNACCURACY,2.2*16
$GNGGA,112835.500,2500.8128101,N,12132.4711031,E,4,64,0.42,16.003,M,15.25,M,6,3335*4B
$GNRMC,112835.500,A,2500.8128101,N,12132.4711031,E,0.02,287.56,260623,,,R,V*19
$GPHDT,,T*1B
$GNACCURACY,2.2*16
$GNGGA,112835.600,2500.8128132,N,12132.4711041,E,4,63,0.42,16.002,M,15.25,M,6,3335*49
$GNRMC,112835.600,A,2500.8128132,N,12132.4711041,E,0.02,287.56,260623,,,R,V*1D
$GPHDT,,T*1B
$GNACCURACY,2.2*16
$GNGGA,112835.700,2500.8128100,N,12132.4711023,E,4,63,0.42,15.992,M,15.25,M,6,3335*4E
$GNRMC,112835.700,A,2500.8128100,N,12132.4711023,E,0.02,287.56,260623,,,R,V*19
$GPHDT,,T*1B
$GNACCURACY,2.2*16
$GNGGA,112835.800,2500.8128107,N,12132.4711037,E,4,63,0.42,16.001,M,15.25,M,6,3335*43
$GNRMC,112835.800,A,2500.8128107,N,12132.4711037,E,0.02,287.56,260623,,,R,V*14
$GPHDT,,T*1B
$GNACCURACY,2.2*16
$GNGGA,112835.900,2500.8128119,N,12132.4711045,E,4,63,0.42,15.995,M,15.25,M,6,3335*4F
$GNRMC,112835.900,A,2500.8128119,N,12132.4711045,E,0.01,287.56,260623,,,R,V*1C
$GPHDT,,T*1B
$GNACCURACY,2.2*16
$GNGGA,112836.000,2500.8128113,N,12132.4711023,E,4,63,0.42,16.003,M,15.25,M,7,3335*4B
$GNRMC,112836.000,A,2500.8128113,N,12132.4711023,E,0.01,287.56,260623,,,R,V*1C
$GPHDT,,T*1B
$GNACCURACY,2.2*16
$GNGGA,112836.100,2500.8128079,N,12132.4710962,E,4,63,0.42,16.007,M,15.25,M,7,3335*4E
$GNRMC,112836.100,A,2500.8128079,N,12132.4710962,E,0.01,287.56,260623,,,R,V*1D
$GPHDT,,T*1B
$GNGSA,A,3,196,24,199,18,23,194,12,10,05,32,195,,0.73,0.42,0.60,1*03
$GNGSA,A,3,80,73,85,86,71,69,79,,,,,,0.73,0.42,0.60,2*0E
$GNGSA,A,3,13,08,07,26,30,02,15,03,,,,,0.73,0.42,0.60,3*08
$GNGSA,A,3,38,08,39,13,16,06,46,09,19,20,36,35,0.73,0.42,0.60,4*08
$GNGSA,A,3,29,22,37,,,,,,,,,,0.73,0.42,0.60,4*0F
$GPGSV,4,1,16,196,75,065,43,24,73,042,42,199,60,167,26,18,58,245,44,1*68
$GPGSV,4,2,16,23,51,339,37,41,38,242,45,15,36,048,17,195,34,180,17,1*58
$GPGSV,4,3,16,194,31,138,33,12,21,140,38,10,19,319,33,05,18,119,29,1*52
$GPGSV,4,4,16,25,10,176,18,32,10,270,24,13,08,057,18,29,01,195,,1*69
$GPGSV,3,1,09,196,75,065,42,24,73,042,46,199,60,167,39,18,58,245,47,8*60
$GPGSV,3,2,09,23,51,339,36,195,34,180,23,194,31,138,31,10,19,319,34,8*6D
$GPGSV,3,3,09,32,10,270,14,8*54
$GLGSV,2,1,08,80,48,075,45,70,40,011,,73,39,158,34,85,35,245,43,1*7D
$GLGSV,2,2,08,86,27,301,43,71,22,315,43,69,12,075,18,79,11,031,15,1*77
$GAGSV,3,1,09,13,56,231,41,08,46,026,25,07,44,304,42,26,32,306,43,7*74
$GAGSV,3,2,09,30,26,143,35,02,26,085,35,15,22,174,18,03,10,065,16,7*78
$GAGSV,3,3,09,27,02,188,,7*4C
$GAGSV,2,1,07,13,56,231,41,08,46,026,18,07,44,304,44,26,32,306,41,1*77
$GAGSV,2,2,07,02,26,085,33,30,26,143,29,15,22,174,23,1*44
$GBGSV,4,1,15,38,83,115,44,08,80,003,38,39,71,284,42,13,69,333,40,1*74
$GBGSV,4,2,15,16,66,259,44,06,65,255,40,46,60,110,42,09,50,239,42,1*7E
$GBGSV,4,3,15,19,49,346,35,20,43,064,31,36,36,184,31,37,22,047,25,1*7D
$GBGSV,4,4,15,35,21,268,35,29,18,211,34,22,12,302,39,1*42
$GBGSV,3,1,09,38,83,115,44,39,71,284,43,46,60,110,43,19,49,346,34,4*78
$GBGSV,3,2,09,20,43,064,19,36,36,184,32,37,22,047,23,35,21,268,31,4*75
$GBGSV,3,3,09,22,12,302,25,4*4F
$GNACCURACY,2.2*16
$PAIRSAT,1,35,1,0,200,2,0,200,3,0,200,4,0,200,5,0,201,6,0,200,7,0,200,8,0,200,9,0,200,10,0,221,11,0,200,12,0,201,13,0,201,14,0,200,15,0,201,16,0,200,17,0,200,18,0,221,19,0,200,20,0,200,21,0,200,23,0,221,24,0,221,25,0,200,26,0,200,27,0,200,28,0,200,29,0,200,30,0,200,31,0,200,32,0,221,194,0,621,195,0,621,196,0,620,199,0,621*68
$PAIRSAT,2,23,65,0,200,67,0,200,68,0,200,69,0,201,70,0,201,71,0,201,72,0,200,73,0,201,74,0,200,75,0,200,76,0,200,77,0,200,78,0,200,79,0,201,80,0,201,81,0,200,82,0,200,83,0,200,84,0,200,85,0,201,86,0,201,87,0,200,88,0,200*53
$PAIRSAT,3,23,2,0,1221,3,0,1221,4,0,1200,5,0,200,7,0,1221,8,0,1221,9,0,1200,10,0,1200,11,0,1200,12,0,1200,13,0,1221,15,0,1221,19,0,1200,21,0,1200,24,0,1200,25,0,1200,26,0,1221,27,0,1200,30,0,1221,31,0,1200,33,0,1200,34,0,1200,36,0,1200*6A
$PAIRSAT,4,50,1,0,200,2,0,200,3,0,200,4,0,200,5,0,200,6,0,201,7,0,200,8,0,201,9,0,201,10,0,200,11,0,200,12,0,200,13,0,201,14,0,200,15,0,200,16,0,201,19,0,621,20,0,621,21,0,600,22,0,621,23,0,600,24,0,600,25,0,600,26,0,600,27,0,600,28,0,600,29,0,621,30,0,600,31,0,200,32,0,600,33,0,600,34,0,600,35,0,621,36,0,621,37,0,621,38,0,621,39,0,621,40,0,600,41,0,600,42,0,600,43,0,600,44,0,600,45,0,600,46,0,621,56,0,200,57,0,200,58,0,200,59,0,600,60,0,600,61,0,600*41
$PAIRDGP,11,5,10,12,13,15,18,23,24,25,29,32*6B
$GNGGA,112836.200,2500.8128084,N,12132.4710981,E,4,63,0.42,16.012,M,15.25,M,7,3335*46
$GNRMC,112836.200,A,2500.8128084,N,12132.4710981,E,0.01,287.56,260623,,,R,V*11
$GPHDT,,T*1B
$GNACCURACY,2.2*16
$GNGGA,112836.300,2500.8128128,N,12132.4711030,E,4,63,0.42,15.998,M,15.25,M,7,3335*4A
$GNRMC,112836.300,A,2500.8128128,N,12132.4711030,E,0.01,287.56,260623,,,R,V*15
$GPHDT,,T*1B
$GNACCURACY,2.2*16
$GNGGA,112836.400,2500.8128090,N,12132.4710969,E,4,63,0.42,16.013,M,15.25,M,7,3335*42
$GNRMC,112836.400,A,2500.8128090,N,12132.4710969,E,0.02,287.56,260623,,,R,V*17
$GPHDT,,T*1B
$GNACCURACY,2.2*16
$GNGGA,112836.500,2500.8128073,N,12132.4711102,E,4,63,0.42,15.989,M,15.25,M,7,3335*43
$GNRMC,112836.500,A,2500.8128073,N,12132.4711102,E,0.02,287.56,260623,,,R,V*1F
$GPHDT,,T*1B
$GNACCURACY,2.2*16
$GNGGA,112836.600,2500.8128106,N,12132.4711046,E,4,62,0.43,15.991,M,15.25,M,7,3335*4B
$GNRMC,112836.600,A,2500.8128106,N,12132.4711046,E,0.02,287.56,260623,,,R,V*1E
$GPHDT,,T*1B
$GNACCURACY,2.2*16
$GNGGA,112836.700,2500.8128062,N,12132.4711028,E,4,62,0.43,15.992,M,15.25,M,7,3335*42
$GNRMC,112836.700,A,2500.8128062,N,12132.4711028,E,0.02,287.56,260623,,,R,V*14
$GPHDT,,T*1B
$GNACCURACY,2.2*16
$GNGGA,112836.800,2500.8128088,N,12132.4711077,E,4,63,0.43,15.990,M,15.25,M,7,3335*40
$GNRMC,112836.800,A,2500.8128088,N,12132.4711077,E,0.02,287.56,260623,,,R,V*15
$GPHDT,,T*1B
$GNACCURACY,2.2*16
$GNGGA,112836.900,2500.8128088,N,12132.4711076,E,4,62,0.43,15.989,M,15.25,M,7,3335*49
$GNRMC,112836.900,A,2500.8128088,N,12132.4711076,E,0.02,287.56,260623,,,R,V*15
$GPHDT,,T*1B
$GNACCURACY,2.2*16
$GNGGA,112837.000,2500.8128101,N,12132.4711095,E,4,62,0.43,15.989,M,15.25,M,8,3335*43
$GNRMC,112837.000,A,2500.8128101,N,12132.4711095,E,0.02,287.56,260623,,,R,V*10
$GPHDT,,T*1B
$GNACCURACY,2.2*16
$GNGGA,112837.100,2500.8128134,N,12132.4711112,E,4,62,0.43,15.981,M,15.25,M,8,3335*42
$GNRMC,112837.100,A,2500.8128134,N,12132.4711112,E,0.02,287.56,260623,,,R,V*19
$GPHDT,,T*1B
$GNGSA,A,3,196,24,199,18,23,194,12,10,05,32,195,,0.76,0.43,0.62,1*05
$GNGSA,A,3,80,73,85,86,71,69,,,,,,,0.76,0.43,0.62,2*06
$GNGSA,A,3,13,08,07,26,02,30,15,03,,,,,0.76,0.43,0.62,3*0E
$GNGSA,A,3,38,08,39,13,16,06,46,09,19,20,36,37,0.76,0.43,0.62,4*0C
$GNGSA,A,3,35,29,22,,,,,,,,,,0.76,0.43,0.62,4*0B
$GPGSV,4,1,16,196,75,065,43,24,73,042,42,199,60,167,26,18,58,244,44,1*69
$GPGSV,4,2,16,23,51,339,37,41,38,242,45,15,36,048,17,195,34,180,18,1*57
$GPGSV,4,3,16,194,31,138,33,12,21,140,38,10,19,319,33,05,18,119,29,1*52
$GPGSV,4,4,16,25,10,176,18,32,10,270,26,13,08,057,19,29,01,195,,1*6A
$GPGSV,2,1,08,196,75,065,42,24,73,042,46,199,60,167,39,18,58,244,47,8*61
$GPGSV,2,2,08,23,51,339,35,195,34,180,23,194,31,138,31,10,19,319,33,8*69
$GLGSV,3,1,09,80,48,075,45,70,40,011,,73,39,158,34,85,35,245,43,1*7D
$GLGSV,3,2,09,86,27,301,43,71,22,315,43,69,12,075,18,79,11,031,17,1*75
$GLGSV,3,3,09,84,08,189,,1*45
$GAGSV,3,1,09,13,56,231,41,08,46,026,23,07,44,304,42,26,32,306,43,7*72
$GAGSV,3,2,09,02,26,085,35,30,26,143,35,15,22,174,17,03,10,065,16,7*77
$GAGSV,3,3,09,27,02,188,,7*4C
$GAGSV,2,1,07,13,56,231,41,08,46,026,18,07,44,304,44,26,32,306,41,1*77
$GAGSV,2,2,07,02,26,085,33,30,26,143,29,15,22,174,22,1*45
$GBGSV,4,1,15,38,83,115,44,08,80,003,38,39,71,284,42,13,69,333,40,1*74
$GBGSV,4,2,15,16,66,259,44,06,65,255,40,46,60,110,42,09,50,239,42,1*7E
$GBGSV,4,3,15,19,49,346,35,20,43,064,31,36,36,184,31,37,22,047,27,1*7F
$GBGSV,4,4,15,35,21,268,35,29,18,211,34,22,12,302,39,1*42
$GBGSV,3,1,09,38,83,115,44,39,71,284,43,46,60,110,43,19,49,346,34,4*78
$GBGSV,3,2,09,20,43,064,19,36,36,184,32,37,22,047,26,35,21,268,31,4*70
$GBGSV,3,3,09,22,12,302,26,4*4C
$GNACCURACY,2.2*16
$PAIRSAT,1,35,1,0,200,2,0,200,3,0,200,4,0,200,5,0,201,6,0,200,7,0,200,8,0,200,9,0,200,10,0,221,11,0,200,12,0,201,13,0,201,14,0,200,15,0,201,16,0,200,17,0,200,18,0,221,19,0,200,20,0,200,21,0,200,23,0,221,24,0,221,25,0,200,26,0,200,27,0,200,28,0,200,29,0,200,30,0,200,31,0,200,32,0,221,194,0,621,195,0,621,196,0,620,199,0,621*68
$PAIRSAT,2,23,65,0,200,67,0,200,68,0,200,69,0,201,70,0,201,71,0,201,72,0,200,73,0,201,74,0,200,75,0,200,76,0,200,77,0,200,78,0,200,79,0,201,80,0,201,81,0,200,82,0,200,83,0,200,84,0,200,85,0,201,86,0,201,87,0,200,88,0,200*53
$PAIRSAT,3,23,2,0,1221,3,0,1221,4,0,1200,5,0,200,7,0,1221,8,0,1221,9,0,1200,10,0,1200,11,0,1200,12,0,1200,13,0,1221,15,0,1221,19,0,1200,21,0,1200,24,0,1200,25,0,1200,26,0,1221,27,0,1200,30,0,1221,31,0,1200,33,0,1200,34,0,1200,36,0,1200*6A
$PAIRSAT,4,50,1,0,200,2,0,200,3,0,200,4,0,200,5,0,200,6,0,201,7,0,200,8,0,201,9,0,201,10,0,200,11,0,200,12,0,200,13,0,201,14,0,200,15,0,200,16,0,201,19,0,621,20,0,621,21,0,600,22,0,621,23,0,600,24,0,600,25,0,600,26,0,600,27,0,600,28,0,600,29,0,621,30,0,600,31,0,200,32,0,600,33,0,600,34,0,600,35,0,621,36,0,621,37,0,621,38,0,621,39,0,621,40,0,600,41,0,600,42,0,600,43,0,600,44,0,600,45,0,600,46,0,621,56,0,200,57,0,200,58,0,200,59,0,600,60,0,600,61,0,600*41
$PAIRDGP,11,5,10,12,13,15,18,23,24,25,29,32*6B
$GNGGA,112837.200,2500.8128088,N,12132.4711067,E,4,63,0.43,15.997,M,15.25,M,8,3335*42
$GNRMC,112837.200,A,2500.8128088,N,12132.4711067,E,0.02,287.56,260623,,,R,V*1F
$GPHDT,,T*1B
$GNACCURACY,2.2*16
$GNGGA,112837.300,2500.8128081,N,12132.4711085,E,4,63,0.43,15.997,M,15.25,M,8,3335*46
$GNRMC,112837.300,A,2500.8128081,N,12132.4711085,E,0.02,287.56,260623,,,R,V*1B
$GPHDT,,T*1B
$GNACCURACY,2.2*16
$GNGGA,112837.400,2500.8128090,N,12132.4711073,E,4,63,0.43,15.993,M,15.25,M,8,3335*4C
$GNRMC,112837.400,A,2500.8128090,N,12132.4711073,E,0.02,287.56,260623,,,R,V*15
$GPHDT,,T*1B
$GNACCURACY,2.4*10
$GNGGA,112837.500,2500.8128102,N,12132.4711097,E,4,63,0.43,15.997,M,15.25,M,8,3335*49
$GNRMC,112837.500,A,2500.8128102,N,12132.4711097,E,0.02,287.56,260623,,,R,V*14
$GPHDT,,T*1B
$GNACCURACY,2.2*16
$GNGGA,112837.600,2500.8128092,N,12132.4711073,E,4,62,0.43,15.996,M,15.25,M,8,3335*48
$GNRMC,112837.600,A,2500.8128092,N,12132.4711073,E,0.02,287.56,260623,,,R,V*15
$GPHDT,,T*1B
$GNACCURACY,2.2*16
$GNGGA,112837.700,2500.8128103,N,12132.4711067,E,4,63,0.43,15.997,M,15.25,M,8,3335*45
$GNRMC,112837.700,A,2500.8128103,N,12132.4711067,E,0.02,287.56,260623,,,R,V*18
$GPHDT,,T*1B
$GNACCURACY,2.2*16
$GNGGA,112837.800,2500.8128065,N,12132.4711066,E,4,63,0.43,15.989,M,15.25,M,8,3335*45
$GNRMC,112837.800,A,2500.8128065,N,12132.4711066,E,0.02,287.56,260623,,,R,V*17
$GPHDT,,T*1B
$GNACCURACY,2.2*16
$GNGGA,112837.900,2500.8128094,N,12132.4711043,E,4,64,0.42,15.998,M,15.25,M,8,3335*4B
$GNRMC,112837.900,A,2500.8128094,N,12132.4711043,E,0.02,287.56,260623,,,R,V*1F
$GPHDT,,T*1B
