$FW : RTK35X,V1.1X0314AS,Lib20210517,1*54
$Tool : LOCOSYS , GNSS Firebird , v1.0.0.19*39
$---------------------------------------------------*2D
$GPHDT,,T*1B
$GNGSA,A,3,196,24,18,23,195,194,12,10,05,32,199,,0.74,0.42,0.61,1*05
$GNGSA,A,3,80,70,73,85,86,71,79,,,,,,0.74,0.42,0.61,2*00
$GNGSA,A,3,13,08,07,26,02,30,15,03,,,,,0.74,0.42,0.61,3*0E
$GNGSA,A,3,38,08,39,13,16,06,46,09,19,20,36,37,0.74,0.42,0.61,4*0C
$GNGSA,A,3,35,29,22,,,,,,,,,,0.74,0.42,0.61,4*0B
$GPGSV,4,1,16,196,75,065,42,24,73,042,41,199,60,167,,18,58,245,43,1*69
$GPGSV,4,2,16,23,51,339,38,41,38,242,41,15,36,048,24,195,34,180,25,1*52
$GPGSV,4,3,16,194,31,138,28,12,21,141,36,10,18,319,31,05,18,119,32,1*5E
$GPGSV,4,4,16,32,10,270,29,25,09,176,11,13,08,057,13,29,01,196,,1*6D
$GPGSV,3,1,09,196,75,065,40,24,73,042,48,199,60,167,39,18,58,245,42,8*69
$GPGSV,3,2,09,23,51,339,36,195,34,180,25,194,31,138,31,10,18,319,36,8*68
$GPGSV,3,3,09,32,10,270,18,8*58
$GLGSV,3,1,09,80,48,075,42,70,40,011,18,73,39,159,29,85,35,245,41,1*7C
$GLGSV,3,2,09,86,27,301,43,71,22,315,46,69,13,074,17,79,11,032,27,1*7F
$GLGSV,3,3,09,84,08,190,,1*4D
$GAGSV,3,1,09,13,56,231,33,08,46,026,27,07,44,304,43,26,32,306,43,7*72
$GAGSV,3,2,09,02,26,085,29,30,26,143,23,15,22,174,20,03,10,065,16,7*79
$GAGSV,3,3,09,25,03,042,,7*48
$GAGSV,2,1,07,13,56,231,34,07,44,304,44,26,32,306,42,30,26,143,32,1*71
$GAGSV,2,2,07,02,26,085,30,15,22,174,27,03,10,065,17,1*4E
$GBGSV,4,1,15,38,83,114,43,08,79,003,38,39,71,284,44,13,68,333,38,1*7C
$GBGSV,4,2,15,16,66,259,44,06,65,254,38,46,60,110,44,09,50,239,36,1*75
$GBGSV,4,3,15,19,49,346,32,20,43,064,17,36,36,184,24,37,22,047,17,1*7B
$GBGSV,4,4,15,35,21,268,30,29,18,211,33,22,12,302,37,1*4E
$GBGSV,3,1,10,38,83,114,44,39,71,284,45,46,60,110,44,19,49,346,36,4*72
$GBGSV,3,2,10,20,43,064,26,36,36,184,27,37,22,047,27,35,21,268,33,4*73
$GBGSV,3,3,10,29,18,211,23,22,12,302,36,4*74
$GNACCURACY,2.5*11
$PAIRSAT,1,35,1,0,200,2,0,200,3,0,200,4,0,200,5,0,201,6,0,200,7,0,200,8,0,200,9,0,200,10,0,221,11,0,200,12,0,201,13,0,201,14,0,200,15,0,201,16,0,200,17,0,200,18,0,221,19,0,200,20,0,200,21,0,200,23,0,221,24,0,221,25,0,200,26,0,200,27,0,200,28,0,200,29,0,200,30,0,200,31,0,200,32,0,221,194,0,621,195,0,621,196,0,620,199,0,621*68
$PAIRSAT,2,23,65,0,200,67,0,200,68,0,200,69,0,201,70,0,201,71,0,201,72,0,200,73,0,201,74,0,200,75,0,200,76,0,200,77,0,200,78,0,200,79,0,201,80,0,201,81,0,200,82,0,200,83,0,200,84,0,200,85,0,201,86,0,201,87,0,200,88,0,200*53
$PAIRSAT,3,23,2,0,1221,3,0,1221,4,0,1200,5,0,200,7,0,1221,8,0,1221,9,0,1200,10,0,1200,11,0,1200,12,0,1200,13,0,1221,15,0,1221,19,0,1200,21,0,1200,24,0,1200,25,0,1200,26,0,1221,27,0,1200,30,0,1221,31,0,1200,33,0,1200,34,0,1200,36,0,1200*6A
$PAIRSAT,4,50,1,0,200,2,0,200,3,0,200,4,0,200,5,0,200,6,0,201,7,0,200,8,0,201,9,0,201,10,0,200,11,0,200,12,0,200,13,0,201,14,0,200,15,0,200,16,0,201,19,0,621,20,0,621,21,0,600,22,0,621,23,0,600,24,0,600,25,0,600,26,0,600,27,0,600,28,0,600,29,0,621,30,0,600,31,0,200,32,0,600,33,0,600,34,0,600,35,0,621,36,0,621,37,0,621,38,0,621,39,0,621,40,0,600,41,0,600,42,0,600,43,0,600,44,0,600,45,0,600,46,0,621,56,0,200,57,0,200,58,0,200,59,0,600,60,0,600,61,0,600*41
$PAIRDGP,11,5,10,12,13,15,18,23,24,25,29,32*6B
$GNGGA,112808.200,2500.8148700,N,12132.4706100,E,2,66,0.42,19.03,M,15.25,M,1,3335*7A
$GNRMC,112808.200,A,2500.8148700,N,12132.4706100,E,0.02,287.56,260623,,,D,V*02
$GPHDT,,T*1B
$GNACCURACY,2.5*11
$GNGGA,112808.300,2500.8148600,N,12132.4706000,E,2,67,0.41,19.03,M,15.25,M,1,3335*79
$GNRMC,112808.300,A,2500.8148600,N,12132.4706000,E,0.02,287.56,260623,,,D,V*03
$GPHDT,,T*1B
$GNACCURACY,2.5*11
$GNGGA,112808.400,2500.8148500,N,12132.4706000,E,2,67,0.41,19.03,M,15.25,M,1,3335*7D
$GNRMC,112808.400,A,2500.8148500,N,12132.4706000,E,0.02,287.56,260623,,,D,V*07
$GPHDT,,T*1B
$GNACCURACY,2.5*11
$GNGGA,112808.500,2500.8148400,N,12132.4706000,E,2,67,0.41,19.02,M,15.25,M,1,3335*7C
$GNRMC,112808.500,A,2500.8148400,N,12132.4706000,E,0.02,287.56,260623,,,D,V*07
$GPHDT,,T*1B
$GNACCURACY,2.5*11
$GNGGA,112808.600,2500.8148400,N,12132.4705900,E,2,67,0.41,19.03,M,15.25,M,1,3335*74
$GNRMC,112808.600,A,2500.8148400,N,12132.4705900,E,0.02,287.56,260623,,,D,V*0E
$GPHDT,,T*1B
$GNACCURACY,2.5*11
$GNGGA,112808.700,2500.8148200,N,12132.4705900,E,2,67,0.41,19.02,M,15.25,M,1,3335*72
$GNRMC,112808.700,A,2500.8148200,N,12132.4705900,E,0.02,287.56,260623,,,D,V*09
$GPHDT,,T*1B
$GNACCURACY,2.5*11
$GNGGA,112808.800,2500.8148200,N,12132.4705800,E,2,67,0.41,19.02,M,15.25,M,0,3335*7D
$GNRMC,112808.800,A,2500.8148200,N,12132.4705800,E,0.02,287.56,260623,,,D,V*07
$GPHDT,,T*1B
$GNACCURACY,2.5*11
$GNGGA,112808.900,2500.8148100,N,12132.4705800,E,2,66,0.41,19.03,M,15.25,M,0,3335*7F
$GNRMC,112808.900,A,2500.8148100,N,12132.4705800,E,0.02,287.56,260623,,,D,V*05
$GPHDT,,T*1B
$GNACCURACY,2.5*11
$GNGGA,112809.000,2500.8147900,N,12132.4705700,E,2,66,0.41,19.03,M,15.25,M,1,3335*7E
$GNRMC,112809.000,A,2500.8147900,N,12132.4705700,E,0.02,287.56,260623,,,D,V*05
$GPHDT,,T*1B
$GNACCURACY,2.5*11
$GNGGA,112809.100,2500.8147800,N,12132.4705600,E,2,66,0.41,19.04,M,15.25,M,1,3335*78
$GNRMC,112809.100,A,2500.8147800,N,12132.4705600,E,0.02,287.56,260623,,,D,V*04
$GPHDT,,T*1B
$GNGSA,A,3,196,24,18,23,15,195,194,12,10,05,32,199,0.74,0.41,0.61,1*02
$GNGSA,A,3,80,70,73,85,86,71,79,,,,,,0.74,0.41,0.61,2*03
$GNGSA,A,3,13,08,07,26,02,30,15,03,,,,,0.74,0.41,0.61,3*0D
$GNGSA,A,3,38,08,39,13,16,06,46,09,19,20,36,37,0.74,0.41,0.61,4*0F
$GNGSA,A,3,35,29,22,,,,,,,,,,0.74,0.41,0.61,4*08
$GPGSV,4,1,16,196,75,065,42,24,73,042,40,199,60,167,,18,58,245,46,1*6D
$GPGSV,4,2,16,23,51,339,38,41,38,242,44,15,36,048,24,195,34,180,25,1*57
$GPGSV,4,3,16,194,31,138,28,12,21,141,36,10,18,319,32,05,18,119,31,1*5E
$GPGSV,4,4,16,32,10,270,26,25,09,176,13,13,08,057,13,29,01,196,,1*60
$GPGSV,3,1,09,196,75,065,41,24,73,042,48,199,60,167,38,18,58,245,46,8*6D
$GPGSV,3,2,09,23,51,339,36,195,34,180,25,194,31,138,31,10,18,319,35,8*6B
$GPGSV,3,3,09,32,10,270,17,8*57
$GLGSV,3,1,09,80,48,075,42,70,40,011,19,73,39,159,29,85,35,245,44,1*78
$GLGSV,3,2,09,86,27,301,44,71,22,315,46,69,13,074,18,79,11,032,27,1*77
$GLGSV,3,3,09,84,08,190,,1*4D
$GAGSV,3,1,09,13,56,231,38,08,46,026,27,07,44,304,43,26,32,306,42,7*78
$GAGSV,3,2,09,02,26,085,28,30,26,143,26,15,22,174,19,03,10,065,19,7*78
$GAGSV,3,3,09,25,03,042,,7*48
$GAGSV,2,1,07,13,56,231,35,07,44,304,43,26,32,306,42,30,26,143,31,1*74
$GAGSV,2,2,07,02,26,085,27,15,22,174,26,03,10,065,17,1*49
$GBGSV,4,1,15,38,83,114,43,08,79,003,38,39,71,284,43,13,68,333,38,1*7B
$GBGSV,4,2,15,16,66,259,46,06,65,254,40,46,60,110,44,09,50,239,41,1*78
$GBGSV,4,3,15,19,49,346,32,20,43,064,20,36,36,184,25,37,22,047,18,1*71
$GBGSV,4,4,15,35,21,268,35,29,18,211,33,22,12,302,38,1*44
$GBGSV,3,1,10,38,83,114,44,39,71,284,44,46,60,110,45,19,49,346,36,4*72
$GBGSV,3,2,10,20,43,064,27,36,36,184,28,37,22,047,27,35,21,268,33,4*7D
$GBGSV,3,3,10,29,18,211,21,22,12,302,36,4*76
$GNACCURACY,2.5*11
$PAIRSAT,1,35,1,0,200,2,0,200,3,0,200,4,0,200,5,0,201,6,0,200,7,0,200,8,0,200,9,0,200,10,0,221,11,0,200,12,0,201,13,0,201,14,0,200,15,0,201,16,0,200,17,0,200,18,0,221,19,0,200,20,0,200,21,0,200,23,0,221,24,0,221,25,0,200,26,0,200,27,0,200,28,0,200,29,0,200,30,0,200,31,0,200,32,0,221,194,0,621,195,0,621,196,0,620,199,0,621*68
$PAIRSAT,2,23,65,0,200,67,0,200,68,0,200,69,0,201,70,0,201,71,0,201,72,0,200,73,0,201,74,0,200,75,0,200,76,0,200,77,0,200,78,0,200,79,0,201,80,0,201,81,0,200,82,0,200,83,0,200,84,0,200,85,0,201,86,0,201,87,0,200,88,0,200*53
$PAIRSAT,3,23,2,0,1221,3,0,1221,4,0,1200,5,0,200,7,0,1221,8,0,1221,9,0,1200,10,0,1200,11,0,1200,12,0,1200,13,0,1221,15,0,1221,19,0,1200,21,0,1200,24,0,1200,25,0,1200,26,0,1221,27,0,1200,30,0,1221,31,0,1200,33,0,1200,34,0,1200,36,0,1200*6A
$PAIRSAT,4,50,1,0,200,2,0,200,3,0,200,4,0,200,5,0,200,6,0,201,7,0,200,8,0,201,9,0,201,10,0,200,11,0,200,12,0,200,13,0,201,14,0,200,15,0,200,16,0,201,19,0,621,20,0,621,21,0,600,22,0,621,23,0,600,24,0,600,25,0,600,26,0,600,27,0,600,28,0,600,29,0,621,30,0,600,31,0,200,32,0,600,33,0,600,34,0,600,35,0,621,36,0,621,37,0,621,38,0,621,39,0,621,40,0,600,41,0,600,42,0,600,43,0,600,44,0,600,45,0,600,46,0,621,56,0,200,57,0,200,58,0,200,59,0,600,60,0,600,61,0,600*41
$PAIRDGP,11,5,10,12,13,15,18,23,24,25,29,32*6B
$GNGGA,112809.200,2500.8147700,N,12132.4705500,E,2,66,0.41,19.04,M,15.25,M,1,3335*77
$GNRMC,112809.200,A,2500.8147700,N,12132.4705500,E,0.02,287.56,260623,,,D,V*0B
$GPHDT,,T*1B
$GNACCURACY,2.5*11
$GNGGA,112809.300,2500.8147500,N,12132.4705500,E,2,65,0.41,19.04,M,15.25,M,1,3335*77
$GNRMC,112809.300,A,2500.8147500,N,12132.4705500,E,0.02,287.56,260623,,,D,V*08
$GPHDT,,T*1B
$GNACCURACY,2.5*11
$GNGGA,112809.400,2500.8147400,N,12132.4705400,E,2,65,0.41,19.05,M,15.25,M,1,3335*71
$GNRMC,112809.400,A,2500.8147400,N,12132.4705400,E,0.02,287.56,260623,,,D,V*0F
$GPHDT,,T*1B
$GNACCURACY,2.5*11
$GNGGA,112809.500,2500.8147300,N,12132.4705300,E,2,65,0.41,19.05,M,15.25,M,1,3335*70
$GNRMC,112809.500,A,2500.8147300,N,12132.4705300,E,0.02,287.56,260623,,,D,V*0E
$GPHDT,,T*1B
$GNACCURACY,2.5*11
$GNGGA,112809.600,2500.8147100,N,12132.4705200,E,2,65,0.41,19.05,M,15.25,M,0,3335*71
$GNRMC,112809.600,A,2500.8147100,N,12132.4705200,E,0.02,287.56,260623,,,D,V*0E
$GPHDT,,T*1B
$GNACCURACY,2.5*11
$GNGGA,112809.700,2500.8147000,N,12132.4705100,E,2,65,0.41,19.05,M,15.25,M,0,3335*72
$GNRMC,112809.700,A,2500.8147000,N,12132.4705100,E,0.02,287.56,260623,,,D,V*0D
$GPHDT,,T*1B
$GNACCURACY,2.5*11
$GNGGA,112809.800,2500.8146900,N,12132.4705100,E,2,65,0.41,19.06,M,15.25,M,0,3335*76
$GNRMC,112809.800,A,2500.8146900,N,12132.4705100,E,0.02,287.56,260623,,,D,V*0A
$GPHDT,,T*1B
$GNACCURACY,2.5*11
$GNGGA,112809.900,2500.8146700,N,12132.4705000,E,2,65,0.41,19.06,M,15.25,M,0,3335*78
$GNRMC,112809.900,A,2500.8146700,N,12132.4705000,E,0.02,287.56,260623,,,D,V*04
$GPHDT,,T*1B
$GNACCURACY,2.5*11
$GNGGA,112810.000,2500.8146600,N,12132.4704900,E,2,66,0.40,19.06,M,15.25,M,1,3335*73
$GNRMC,112810.000,A,2500.8146600,N,12132.4704900,E,0.02,287.56,260623,,,D,V*0C
$GPHDT,,T*1B
$GNACCURACY,2.5*11
$GNGGA,112810.100,2500.8146500,N,12132.4704800,E,2,66,0.40,19.06,M,15.25,M,1,3335*70
$GNRMC,112810.100,A,2500.8146500,N,12132.4704800,E,0.02,287.56,260623,,,D,V*0F
$GPHDT,,T*1B
$GNGSA,A,3,196,24,18,23,15,195,194,12,10,05,32,199,0.72,0.40,0.60,1*04
$GNGSA,A,3,80,70,73,85,86,71,69,79,,,,,0.72,0.40,0.60,2*0A
$GNGSA,A,3,13,08,07,26,30,02,15,03,,,,,0.72,0.40,0.60,3*0B
$GNGSA,A,3,38,08,39,13,16,06,46,09,19,36,37,35,0.72,0.40,0.60,4*0D
$GNGSA,A,3,29,22,20,,,,,,,,,,0.72,0.40,0.60,4*0A
$GPGSV,4,1,16,196,75,065,42,24,73,042,40,199,60,167,,18,58,245,46,1*6D
$GPGSV,4,2,16,23,51,339,38,41,38,242,44,15,36,048,26,195,34,180,25,1*55
$GPGSV,4,3,16,194,31,138,26,12,21,141,37,10,18,319,32,05,18,119,31,1*51
$GPGSV,4,4,16,32,10,270,26,25,09,176,,13,08,057,14,29,01,196,,1*65
$GPGSV,3,1,09,196,75,065,41,24,73,042,48,199,60,167,38,18,58,245,47,8*6C
$GPGSV,3,2,09,23,51,339,36,195,34,180,24,194,31,138,30,10,18,319,36,8*68
$GPGSV,3,3,09,32,10,270,17,8*57
$GLGSV,2,1,08,80,48,075,40,70,40,011,19,73,39,159,30,85,35,245,44,1*72
$GLGSV,2,2,08,86,27,301,44,71,22,315,45,69,13,074,19,79,11,032,27,1*75
$GAGSV,3,1,09,13,56,231,41,08,46,026,29,07,44,304,42,26,32,306,42,7*79
$GAGSV,3,2,09,30,26,143,27,02,26,085,26,15,22,174,19,03,10,065,19,7*77
$GAGSV,3,3,09,25,03,042,,7*48
$GAGSV,2,1,07,13,56,231,40,07,44,304,43,26,32,306,41,30,26,143,32,1*76
$GAGSV,2,2,07,02,26,085,29,15,22,174,24,03,10,065,19,1*4B
$GBGSV,4,1,15,38,83,114,43,08,79,003,37,39,71,284,44,13,68,333,38,1*73
$GBGSV,4,2,15,16,66,259,45,06,65,254,39,46,60,110,44,09,50,239,43,1*77
$GBGSV,4,3,15,19,49,346,32,20,43,064,18,36,36,184,23,37,22,047,21,1*76
$GBGSV,4,4,15,35,21,268,33,29,18,211,33,22,12,302,36,1*4C
$GBGSV,3,1,10,38,83,114,44,39,71,284,44,46,60,110,44,19,49,346,33,4*76
$GBGSV,3,2,10,20,43,064,28,36,36,184,28,37,22,047,27,35,21,268,33,4*72
$GBGSV,3,3,10,29,18,211,19,22,12,302,35,4*7E
$GNACCURACY,2.5*11
$PAIRSAT,1,35,1,0,200,2,0,200,3,0,200,4,0,200,5,0,201,6,0,200,7,0,200,8,0,200,9,0,200,10,0,221,11,0,200,12,0,201,13,0,201,14,0,200,15,0,201,16,0,200,17,0,200,18,0,221,19,0,200,20,0,200,21,0,200,23,0,221,24,0,221,25,0,200,26,0,200,27,0,200,28,0,200,29,0,200,30,0,200,31,0,200,32,0,221,194,0,621,195,0,621,196,0,620,199,0,621*68
$PAIRSAT,2,23,65,0,200,67,0,200,68,0,200,69,0,201,70,0,201,71,0,201,72,0,200,73,0,201,74,0,200,75,0,200,76,0,200,77,0,200,78,0,200,79,0,201,80,0,201,81,0,200,82,0,200,83,0,200,84,0,200,85,0,201,86,0,201,87,0,200,88,0,200*53
$PAIRSAT,3,23,2,0,1221,3,0,1221,4,0,1200,5,0,200,7,0,1221,8,0,1221,9,0,1200,10,0,1200,11,0,1200,12,0,1200,13,0,1221,15,0,1221,19,0,1200,21,0,1200,24,0,1200,25,0,1200,26,0,1221,27,0,1200,30,0,1221,31,0,1200,33,0,1200,34,0,1200,36,0,1200*6A
$PAIRSAT,4,50,1,0,200,2,0,200,3,0,200,4,0,200,5,0,200,6,0,201,7,0,200,8,0,201,9,0,201,10,0,200,11,0,200,12,0,200,13,0,201,14,0,200,15,0,200,16,0,201,19,0,621,20,0,621,21,0,600,22,0,621,23,0,600,24,0,600,25,0,600,26,0,600,27,0,600,28,0,600,29,0,621,30,0,600,31,0,200,32,0,600,33,0,600,34,0,600,35,0,621,36,0,621,37,0,621,38,0,621,39,0,621,40,0,600,41,0,600,42,0,600,43,0,600,44,0,600,45,0,600,46,0,621,56,0,200,57,0,200,58,0,200,59,0,600,60,0,600,61,0,600*41
$PAIRDGP,11,5,10,12,13,15,18,23,24,25,29,32*6B
$GNGGA,112810.200,2500.8146300,N,12132.4704700,E,2,66,0.40,19.07,M,15.25,M,1,3335*7B
$GNRMC,112810.200,A,2500.8146300,N,12132.4704700,E,0.03,287.56,260623,,,D,V*04
$GPHDT,,T*1B
$GNACCURACY,2.4*10
$GNGGA,112810.300,2500.8146200,N,12132.4704600,E,2,65,0.40,19.07,M,15.25,M,1,3335*79
$GNRMC,112810.300,A,2500.8146200,N,12132.4704600,E,0.03,287.56,260623,,,D,V*05
$GPHDT,,T*1B
$GNACCURACY,2.4*10
$GNGGA,112810.400,2500.8146100,N,12132.4704500,E,2,67,0.40,19.07,M,15.25,M,1,3335*7C
$GNRMC,112810.400,A,2500.8146100,N,12132.4704500,E,0.03,287.56,260623,,,D,V*02
$GPHDT,,T*1B
$GNACCURACY,2.4*10
$GNGGA,112810.500,2500.8146000,N,12132.4704300,E,2,67,0.40,19.07,M,15.25,M,1,3335*7A
$GNRMC,112810.500,A,2500.8146000,N,12132.4704300,E,0.03,287.56,260623,,,D,V*04
$GPHDT,,T*1B
$GNACCURACY,2.4*10
$GNGGA,112810.600,2500.8145900,N,12132.4704300,E,2,66,0.40,19.07,M,15.25,M,0,3335*73
$GNRMC,112810.600,A,2500.8145900,N,12132.4704300,E,0.03,287.56,260623,,,D,V*0D
$GPHDT,,T*1B
$GNACCURACY,2.4*10
$GNGGA,112810.700,2500.8145800,N,12132.4704200,E,2,66,0.40,19.07,M,15.25,M,0,3335*72
$GNRMC,112810.700,A,2500.8145800,N,12132.4704200,E,0.03,287.56,260623,,,D,V*0C
$GPHDT,,T*1B
$GNACCURACY,2.4*10
$GNGGA,112810.800,2500.8145700,N,12132.4704100,E,2,66,0.40,19.07,M,15.25,M,0,3335*71
$GNRMC,112810.800,A,2500.8145700,N,12132.4704100,E,0.03,287.56,260623,,,D,V*0F
$GPHDT,,T*1B
$GNACCURACY,2.4*10
$GNGGA,112810.900,2500.8145500,N,12132.4704000,E,2,66,0.40,19.07,M,15.25,M,0,3335*73
$GNRMC,112810.900,A,2500.8145500,N,12132.4704000,E,0.03,287.56,260623,,,D,V*0D
$GPHDT,,T*1B
$GNACCURACY,2.4*10
$GNGGA,112811.000,2500.8145400,N,12132.4703900,E,2,66,0.40,19.07,M,15.25,M,1,3335*75
$GNRMC,112811.000,A,2500.8145400,N,12132.4703900,E,0.03,287.56,260623,,,D,V*0A
$GPHDT,,T*1B
$GNACCURACY,2.4*10
$GNGGA,112811.100,2500.8145300,N,12132.4703800,E,2,66,0.40,19.07,M,15.25,M,1,3335*72
$GNRMC,112811.100,A,2500.8145300,N,12132.4703800,E,0.03,287.56,260623,,,D,V*0D
$GPHDT,,T*1B
$GNGSA,A,3,196,24,18,23,15,195,194,12,10,05,32,199,0.72,0.40,0.60,1*04
$GNGSA,A,3,80,70,73,85,86,71,69,79,,,,,0.72,0.40,0.60,2*0A
$GNGSA,A,3,13,08,07,26,30,02,15,03,,,,,0.72,0.40,0.60,3*0B
$GNGSA,A,3,38,08,39,13,16,06,46,09,19,37,35,29,0.72,0.40,0.60,4*03
$GNGSA,A,3,22,20,36,,,,,,,,,,0.72,0.40,0.60,4*04
$GPGSV,4,1,16,196,75,065,42,24,73,042,40,199,60,167,,18,58,245,46,1*6D
$GPGSV,4,2,16,23,51,339,38,41,38,242,45,15,36,048,24,195,34,180,21,1*52
$GPGSV,4,3,16,194,31,138,29,12,21,141,37,10,18,319,30,05,18,119,31,1*5C
$GPGSV,4,4,16,32,10,270,23,25,09,176,,13,08,057,17,29,01,196,,1*63
$GPGSV,3,1,09,196,75,065,40,24,73,042,48,199,60,167,39,18,58,245,47,8*6C
$GPGSV,3,2,09,23,51,339,36,195,34,180,23,194,31,138,29,10,18,319,36,8*67
$GPGSV,3,3,09,32,10,270,18,8*58
$GLGSV,2,1,08,80,48,075,42,70,40,011,19,73,39,159,30,85,35,245,44,1*70
$GLGSV,2,2,08,86,27,301,44,71,22,315,45,69,12,075,20,79,11,032,26,1*7E
$GAGSV,3,1,09,13,56,231,41,08,46,026,29,07,44,304,42,26,32,306,43,7*78
$GAGSV,3,2,09,30,26,143,28,02,26,085,29,15,22,174,19,03,10,065,19,7*77
$GAGSV,3,3,09,25,03,042,,7*48
$GAGSV,2,1,07,13,56,231,40,07,44,304,43,26,32,306,42,30,26,143,28,1*7E
$GAGSV,2,2,07,02,26,085,31,15,22,174,24,03,10,065,20,1*48
$GBGSV,4,1,15,38,83,114,43,08,79,003,37,39,71,284,44,13,68,333,38,1*73
$GBGSV,4,2,15,16,66,259,45,06,65,254,39,46,60,110,44,09,50,239,43,1*77
$GBGSV,4,3,15,19,49,346,32,20,43,064,19,36,36,184,21,37,22,047,22,1*76
$GBGSV,4,4,15,35,21,268,32,29,18,211,33,22,12,302,36,1*4D
$GBGSV,3,1,10,38,83,114,45,39,71,284,44,46,60,110,45,19,49,346,34,4*71
$GBGSV,3,2,10,20,43,064,25,36,36,184,25,37,22,047,26,35,21,268,34,4*74
$GBGSV,3,3,10,29,18,211,19,22,12,302,37,4*7C
$GNACCURACY,2.4*10
$PAIRSAT,1,35,1,0,200,2,0,200,3,0,200,4,0,200,5,0,201,6,0,200,7,0,200,8,0,200,9,0,200,10,0,221,11,0,200,12,0,201,13,0,201,14,0,200,15,0,201,16,0,200,17,0,200,18,0,221,19,0,200,20,0,200,21,0,200,23,0,221,24,0,221,25,0,200,26,0,200,27,0,200,28,0,200,29,0,200,30,0,200,31,0,200,32,0,221,194,0,621,195,0,621,196,0,620,199,0,621*68
$PAIRSAT,2,23,65,0,200,67,0,200,68,0,200,69,0,201,70,0,201,71,0,201,72,0,200,73,0,201,74,0,200,75,0,200,76,0,200,77,0,200,78,0,200,79,0,201,80,0,201,81,0,200,82,0,200,83,0,200,84,0,200,85,0,201,86,0,201,87,0,200,88,0,200*53
$PAIRSAT,3,23,2,0,1221,3,0,1221,4,0,1200,5,0,200,7,0,1221,8,0,1221,9,0,1200,10,0,1200,11,0,1200,12,0,1200,13,0,1221,15,0,1221,19,0,1200,21,0,1200,24,0,1200,25,0,1200,26,0,1221,27,0,1200,30,0,1221,31,0,1200,33,0,1200,34,0,1200,36,0,1200*6A
$PAIRSAT,4,50,1,0,200,2,0,200,3,0,200,4,0,200,5,0,200,6,0,201,7,0,200,8,0,201,9,0,201,10,0,200,11,0,200,12,0,200,13,0,201,14,0,200,15,0,200,16,0,201,19,0,621,20,0,621,21,0,600,22,0,621,23,0,600,24,0,600,25,0,600,26,0,600,27,0,600,28,0,600,29,0,621,30,0,600,31,0,200,32,0,600,33,0,600,34,0,600,35,0,621,36,0,621,37,0,621,38,0,621,39,0,621,40,0,600,41,0,600,42,0,600,43,0,600,44,0,600,45,0,600,46,0,621,56,0,200,57,0,200,58,0,200,59,0,600,60,0,600,61,0,600*41
$PAIRDGP,11,5,10,12,13,15,18,23,24,25,29,32*6B
$GNGGA,112811.200,2500.8145200,N,12132.4703700,E,2,65,0.40,19.07,M,15.25,M,1,3335*7C
$GNRMC,112811.200,A,2500.8145200,N,12132.4703700,E,0.03,287.56,260623,,,D,V*00
$GPHDT,,T*1B
$GNACCURACY,2.3*17
$GNGGA,112811.300,2500.8145100,N,12132.4703700,E,2,66,0.40,19.07,M,15.25,M,1,3335*7D
$GNRMC,112811.300,A,2500.8145100,N,12132.4703700,E,0.03,287.56,260623,,,D,V*02
$GPHDT,,T*1B
$GNACCURACY,2.3*17
$GNGGA,112811.400,2500.8144900,N,12132.4703600,E,2,65,0.41,19.07,M,15.25,M,1,3335*70
$GNRMC,112811.400,A,2500.8144900,N,12132.4703600,E,0.02,287.56,260623,,,D,V*0C
$GPHDT,,T*1B
$GNACCURACY,2.3*17
$GNGGA,112811.500,2500.8144800,N,12132.4703500,E,2,66,0.41,19.07,M,15.25,M,1,3335*70
$GNRMC,112811.500,A,2500.8144800,N,12132.4703500,E,0.03,287.56,260623,,,D,V*0E
$GPHDT,,T*1B
$GNACCURACY,2.3*17
$GNGGA,112811.600,2500.8144700,N,12132.4703400,E,2,68,0.41,19.06,M,15.25,M,1,3335*72
$GNRMC,112811.600,A,2500.8144700,N,12132.4703400,E,0.03,287.56,260623,,,D,V*03
$GPHDT,,T*1B
$GNACCURACY,2.3*17
$GNGGA,112811.700,2500.8144600,N,12132.4703400,E,2,68,0.41,19.06,M,15.25,M,1,3335*72
$GNRMC,112811.700,A,2500.8144600,N,12132.4703400,E,0.02,287.56,260623,,,D,V*02
$GPHDT,,T*1B
$GNACCURACY,2.3*17
$GNGGA,112811.800,2500.8144500,N,12132.4703400,E,2,67,0.41,19.06,M,15.25,M,0,3335*70
$GNRMC,112811.800,A,2500.8144500,N,12132.4703400,E,0.02,287.56,260623,,,D,V*0E
$GPHDT,,T*1B
$GNACCURACY,2.3*17
$GNGGA,112811.900,2500.8144500,N,12132.4703300,E,2,68,0.41,19.05,M,15.25,M,0,3335*7A
$GNRMC,112811.900,A,2500.8144500,N,12132.4703300,E,0.02,287.56,260623,,,D,V*08
$GPHDT,,T*1B
$GNACCURACY,2.3*17
$GNGGA,112812.000,2500.8144300,N,12132.4703200,E,2,67,0.41,19.05,M,15.25,M,1,3335*79
$GNRMC,112812.000,A,2500.8144300,N,12132.4703200,E,0.02,287.56,260623,,,D,V*05
$GPHDT,,T*1B
$GNACCURACY,2.3*17
$GNGGA,112812.100,2500.8144200,N,12132.4703100,E,2,67,0.41,19.05,M,15.25,M,1,3335*7A
$GNRMC,112812.100,A,2500.8144200,N,12132.4703100,E,0.02,287.56,260623,,,D,V*06
$GPHDT,,T*1B
$GNGSA,A,3,196,24,199,18,23,195,194,12,10,05,32,,0.73,0.41,0.60,1*00
$GNGSA,A,3,80,70,73,85,86,71,69,79,,,,,0.73,0.41,0.60,2*0A
$GNGSA,A,3,13,08,07,26,30,02,15,03,,,,,0.73,0.41,0.60,3*0B
$GNGSA,A,3,38,08,39,13,16,06,46,09,19,20,37,35,0.73,0.41,0.60,4*0A
$GNGSA,A,3,29,22,36,,,,,,,,,,0.73,0.41,0.60,4*0D
$GPGSV,4,1,16,196,75,065,42,24,73,042,40,199,60,167,25,18,58,245,46,1*6A
$GPGSV,4,2,16,23,51,339,38,41,38,242,45,15,36,048,22,195,34,180,20,1*55
$GPGSV,4,3,16,194,31,138,28,12,21,141,38,10,18,319,31,05,18,119,30,1*52
$GPGSV,4,4,16,32,10,270,20,25,09,176,,13,08,057,18,29,01,196,,1*6F
$GPGSV,2,1,08,196,75,065,41,24,73,042,48,199,60,167,38,18,58,245,47,8*6C
$GPGSV,2,2,08,23,51,339,36,195,34,180,21,194,31,138,31,10,18,319,36,8*6C
$GLGSV,2,1,08,80,48,075,44,70,40,011,19,73,39,159,31,85,35,245,44,1*77
$GLGSV,2,2,08,86,27,301,44,71,22,315,45,69,12,075,20,79,11,032,24,1*7C
$GAGSV,3,1,09,13,56,231,41,08,46,026,27,07,44,304,42,26,32,306,43,7*76
$GAGSV,3,2,09,30,26,143,25,02,26,085,31,15,22,174,18,03,10,065,19,7*72
$GAGSV,3,3,09,25,03,042,,7*48
$GAGSV,2,1,08,13,56,231,40,08,46,026,23,07,44,304,43,26,32,306,42,1*75
$GAGSV,2,2,08,30,26,143,26,02,26,085,32,15,22,174,23,03,10,065,19,1*7C
$GBGSV,4,1,15,38,83,114,43,08,79,003,37,39,71,284,44,13,68,333,38,1*73
$GBGSV,4,2,15,16,66,259,45,06,65,254,39,46,60,110,43,09,50,239,43,1*70
$GBGSV,4,3,15,19,49,346,34,20,43,064,22,36,36,184,21,37,22,047,23,1*79
$GBGSV,4,4,15,35,21,268,32,29,18,211,32,22,12,302,37,1*4D
$GBGSV,3,1,10,38,83,114,44,39,71,284,44,46,60,110,44,19,49,346,33,4*76
$GBGSV,3,2,10,20,43,064,24,36,36,184,26,37,22,047,25,35,21,268,33,4*72
$GBGSV,3,3,10,29,18,211,18,22,12,302,34,4*7E
$GNACCURACY,2.3*17
$PAIRSAT,1,35,1,0,200,2,0,200,3,0,200,4,0,200,5,0,201,6,0,200,7,0,200,8,0,200,9,0,200,10,0,221,11,0,200,12,0,201,13,0,201,14,0,200,15,0,201,16,0,200,17,0,200,18,0,221,19,0,200,20,0,200,21,0,200,23,0,221,24,0,221,25,0,200,26,0,200,27,0,200,28,0,200,29,0,200,30,0,200,31,0,200,32,0,221,194,0,621,195,0,621,196,0,620,199,0,621*68
$PAIRSAT,2,23,65,0,200,67,0,200,68,0,200,69,0,201,70,0,201,71,0,201,72,0,200,73,0,201,74,0,200,75,0,200,76,0,200,77,0,200,78,0,200,79,0,201,80,0,201,81,0,200,82,0,200,83,0,200,84,0,200,85,0,201,86,0,201,87,0,200,88,0,200*53
$PAIRSAT,3,23,2,0,1221,3,0,1221,4,0,1200,5,0,200,7,0,1221,8,0,1221,9,0,1200,10,0,1200,11,0,1200,12,0,1200,13,0,1221,15,0,1221,19,0,1200,21,0,1200,24,0,1200,25,0,1200,26,0,1221,27,0,1200,30,0,1221,31,0,1200,33,0,1200,34,0,1200,36,0,1200*6A
$PAIRSAT,4,50,1,0,200,2,0,200,3,0,200,4,0,200,5,0,200,6,0,201,7,0,200,8,0,201,9,0,201,10,0,200,11,0,200,12,0,200,13,0,201,14,0,200,15,0,200,16,0,201,19,0,621,20,0,621,21,0,600,22,0,621,23,0,600,24,0,600,25,0,600,26,0,600,27,0,600,28,0,600,29,0,621,30,0,600,31,0,200,32,0,600,33,0,600,34,0,600,35,0,621,36,0,621,37,0,621,38,0,621,39,0,621,40,0,600,41,0,600,42,0,600,43,0,600,44,0,600,45,0,600,46,0,621,56,0,200,57,0,200,58,0,200,59,0,600,60,0,600,61,0,600*41
$PAIRDGP,11,5,10,12,13,15,18,23,24,25,29,32*6B
$GNGGA,112812.200,2500.8144100,N,12132.4703100,E,2,67,0.41,19.05,M,15.25,M,1,3335*7A
$GNRMC,112812.200,A,2500.8144100,N,12132.4703100,E,0.03,287.56,260623,,,D,V*07
$GPHDT,,T*1B
$GNACCURACY,2.3*17
$GNGGA,112812.300,2500.8144000,N,12132.4703000,E,2,67,0.41,19.05,M,15.25,M,1,3335*7B
$GNRMC,112812.300,A,2500.8144000,N,12132.4703000,E,0.03,287.56,260623,,,D,V*06
$GPHDT,,T*1B
$GNACCURACY,2.3*17
$GNGGA,112812.400,2500.8143900,N,12132.4702900,E,2,67,0.41,19.05,M,15.25,M,1,3335*7A
$GNRMC,112812.400,A,2500.8143900,N,12132.4702900,E,0.03,287.56,260623,,,D,V*07
$GPHDT,,T*1B
$GNACCURACY,2.3*17
$GNGGA,112812.500,2500.8143800,N,12132.4702800,E,2,67,0.41,19.04,M,15.25,M,1,3335*7A
$GNRMC,112812.500,A,2500.8143800,N,12132.4702800,E,0.03,287.56,260623,,,D,V*06
$GPHDT,,T*1B
$GNACCURACY,2.4*10
$GNGGA,112812.600,2500.8143700,N,12132.4702700,E,2,67,0.41,19.04,M,15.25,M,1,3335*79
$GNRMC,112812.600,A,2500.8143700,N,12132.4702700,E,0.03,287.56,260623,,,D,V*05
$GPHDT,,T*1B
$GNACCURACY,2.4*10
$GNGGA,112812.700,2500.8143700,N,12132.4702700,E,2,67,0.41,19.03,M,15.25,M,0,3335*7E
$GNRMC,112812.700,A,2500.8143700,N,12132.4702700,E,0.02,287.56,260623,,,D,V*05
$GPHDT,,T*1B
$GNACCURACY,2.4*10
$GNGGA,112812.800,2500.8143600,N,12132.4702600,E,2,67,0.41,19.02,M,15.25,M,0,3335*70
$GNRMC,112812.800,A,2500.8143600,N,12132.4702600,E,0.02,287.56,260623,,,D,V*0A
$GPHDT,,T*1B
$GNACCURACY,2.4*10
$GNGGA,112812.900,2500.8143500,N,12132.4702500,E,2,67,0.41,19.02,M,15.25,M,0,3335*71
$GNRMC,112812.900,A,2500.8143500,N,12132.4702500,E,0.02,287.56,260623,,,D,V*0B
$GPHDT,,T*1B
$GNACCURACY,2.4*10
$GNGGA,112813.000,2500.8143400,N,12132.4702400,E,2,65,0.41,19.02,M,15.25,M,1,3335*7A
$GNRMC,112813.000,A,2500.8143400,N,12132.4702400,E,0.02,287.56,260623,,,D,V*03
$GPHDT,,T*1B
$GNACCURACY,2.4*10
$GNGGA,112813.100,2500.8143300,N,12132.4702400,E,2,65,0.41,19.01,M,15.25,M,1,3335*7F
$GNRMC,112813.100,A,2500.8143300,N,12132.4702400,E,0.02,287.56,260623,,,D,V*05
$GPHDT,,T*1B
$GNGSA,A,3,196,24,199,18,23,194,12,10,05,32,195,,0.73,0.41,0.60,1*00
$GNGSA,A,3,80,70,73,85,86,71,69,79,,,,,0.73,0.41,0.60,2*0A
$GNGSA,A,3,13,08,07,26,30,02,15,03,,,,,0.73,0.41,0.60,3*0B
$GNGSA,A,3,38,08,39,13,16,06,46,09,19,20,35,29,0.73,0.41,0.60,4*05
$GNGSA,A,3,22,36,37,,,,,,,,,,0.73,0.41,0.60,4*02
$GPGSV,4,1,16,196,75,065,42,24,73,042,40,199,60,167,26,18,58,245,46,1*69
$GPGSV,4,2,16,23,51,339,38,41,38,242,45,15,36,048,23,195,34,180,17,1*50
$GPGSV,4,3,16,194,31,138,28,12,21,141,38,10,18,319,31,05,18,119,30,1*52
$GPGSV,4,4,16,32,10,270,19,25,09,176,,13,08,057,17,29,01,196,,1*6A
$GPGSV,2,1,08,196,75,065,41,24,73,042,48,199,60,167,38,18,58,245,47,8*6C
$GPGSV,2,2,08,23,51,339,36,195,34,180,23,194,31,138,29,10,18,319,36,8*67
$GLGSV,2,1,08,80,48,075,44,70,40,011,19,73,39,159,30,85,35,245,44,1*76
$GLGSV,2,2,08,86,27,301,44,71,22,315,45,69,12,075,21,79,11,032,24,1*7D
$GAGSV,3,1,09,13,56,231,41,08,46,026,28,07,44,304,42,26,32,306,43,7*79
$GAGSV,3,2,09,30,26,143,21,02,26,085,32,15,22,174,17,03,10,065,19,7*7A
$GAGSV,3,3,09,25,03,042,,7*48
$GAGSV,2,1,08,13,56,231,40,08,46,026,24,07,44,304,43,26,32,306,42,1*72
$GAGSV,2,2,08,30,26,143,26,02,26,085,32,15,22,174,24,03,10,065,19,1*7B
$GBGSV,4,1,15,38,83,114,43,08,79,003,37,39,71,284,44,13,68,333,38,1*73
$GBGSV,4,2,15,16,66,259,45,06,65,254,39,46,60,110,43,09,50,239,43,1*70
$GBGSV,4,3,15,19,49,346,34,20,43,064,24,36,36,184,21,37,22,047,19,1*76
$GBGSV,4,4,15,35,21,268,30,29,18,211,31,22,12,302,37,1*4C
$GBGSV,3,1,10,38,83,114,44,39,71,284,44,46,60,110,44,19,49,346,34,4*71
$GBGSV,3,2,10,20,43,064,24,36,36,184,28,37,22,047,27,35,21,268,35,4*78
$GBGSV,3,3,10,29,18,211,19,22,12,302,34,4*7F
$GNACCURACY,2.4*10
$PAIRSAT,1,35,1,0,200,2,0,200,3,0,200,4,0,200,5,0,201,6,0,200,7,0,200,8,0,200,9,0,200,10,0,221,11,0,200,12,0,201,13,0,201,14,0,200,15,0,201,16,0,200,17,0,200,18,0,221,19,0,200,20,0,200,21,0,200,23,0,221,24,0,221,25,0,200,26,0,200,27,0,200,28,0,200,29,0,200,30,0,200,31,0,200,32,0,221,194,0,621,195,0,621,196,0,620,199,0,621*68
$PAIRSAT,2,23,65,0,200,67,0,200,68,0,200,69,0,201,70,0,201,71,0,201,72,0,200,73,0,201,74,0,200,75,0,200,76,0,200,77,0,200,78,0,200,79,0,201,80,0,201,81,0,200,82,0,200,83,0,200,84,0,200,85,0,201,86,0,201,87,0,200,88,0,200*53
$PAIRSAT,3,23,2,0,1221,3,0,1221,4,0,1200,5,0,200,7,0,1221,8,0,1221,9,0,1200,10,0,1200,11,0,1200,12,0,1200,13,0,1221,15,0,1221,19,0,1200,21,0,1200,24,0,1200,25,0,1200,26,0,1221,27,0,1200,30,0,1221,31,0,1200,33,0,1200,34,0,1200,36,0,1200*6A
$PAIRSAT,4,50,1,0,200,2,0,200,3,0,200,4,0,200,5,0,200,6,0,201,7,0,200,8,0,201,9,0,201,10,0,200,11,0,200,12,0,200,13,0,201,14,0,200,15,0,200,16,0,201,19,0,621,20,0,621,21,0,600,22,0,621,23,0,600,24,0,600,25,0,600,26,0,600,27,0,600,28,0,600,29,0,621,30,0,600,31,0,200,32,0,600,33,0,600,34,0,600,35,0,621,36,0,621,37,0,621,38,0,621,39,0,621,40,0,600,41,0,600,42,0,600,43,0,600,44,0,600,45,0,600,46,0,621,56,0,200,57,0,200,58,0,200,59,0,600,60,0,600,61,0,600*41
$PAIRDGP,11,5,10,12,13,15,18,23,24,25,29,32*6B
$GNGGA,112813.200,2500.8143200,N,12132.4702400,E,2,65,0.41,19.01,M,15.25,M,1,3335*7D
$GNRMC,112813.200,A,2500.8143200,N,12132.4702400,E,0.02,287.56,260623,,,D,V*07
$GPHDT,,T*1B
$GNACCURACY,2.4*10
$GNGGA,112813.300,2500.8143100,N,12132.4702300,E,2,65,0.41,19.00,M,15.25,M,1,3335*79
$GNRMC,112813.300,A,2500.8143100,N,12132.4702300,E,0.02,287.56,260623,,,D,V*02
$GPHDT,,T*1B
$GNACCURACY,2.4*10
$GNGGA,112813.400,2500.8143100,N,12132.4702300,E,2,65,0.41,19.00,M,15.25,M,1,3335*7E
$GNRMC,112813.400,A,2500.8143100,N,12132.4702300,E,0.02,287.56,260623,,,D,V*05
$GPHDT,,T*1B
$GNACCURACY,2.4*10
$GNGGA,112813.500,2500.8143000,N,12132.4702200,E,2,65,0.41,18.99,M,15.25,M,1,3335*7E
$GNRMC,112813.500,A,2500.8143000,N,12132.4702200,E,0.02,287.56,260623,,,D,V*04
$GPHDT,,T*1B
$GNACCURACY,2.4*10
$GNGGA,112813.600,2500.8142900,N,12132.4702200,E,2,66,0.41,18.99,M,15.25,M,1,3335*76
$GNRMC,112813.600,A,2500.8142900,N,12132.4702200,E,0.02,287.56,260623,,,D,V*0F
$GPHDT,,T*1B
$GNACCURACY,2.4*10
$GNGGA,112813.700,2500.8142800,N,12132.4702100,E,2,66,0.41,18.99,M,15.25,M,0,3335*74
$GNRMC,112813.700,A,2500.8142800,N,12132.4702100,E,0.02,287.56,260623,,,D,V*0C
$GPHDT,,T*1B
$GNACCURACY,2.4*10
$GNGGA,112813.800,2500.8142800,N,12132.4702100,E,2,67,0.41,18.99,M,15.25,M,0,3335*7A
$GNRMC,112813.800,A,2500.8142800,N,12132.4702100,E,0.02,287.56,260623,,,D,V*03
$GPHDT,,T*1B
$GNACCURACY,2.4*10
$GNGGA,112813.900,2500.8142700,N,12132.4702100,E,2,67,0.41,18.99,M,15.25,M,0,3335*74
$GNRMC,112813.900,A,2500.8142700,N,12132.4702100,E,0.02,287.56,260623,,,D,V*0D
$GPHDT,,T*1B
$GNACCURACY,2.4*10
$GNGGA,112814.000,2500.8142700,N,12132.4702000,E,2,67,0.41,18.98,M,15.25,M,1,3335*7B
$GNRMC,112814.000,A,2500.8142700,N,12132.4702000,E,0.02,287.56,260623,,,D,V*02
$GPHDT,,T*1B
$GNACCURACY,2.3*17
$GNGGA,112814.100,2500.8142700,N,12132.4701900,E,2,67,0.41,18.98,M,15.25,M,1,3335*70
$GNRMC,112814.100,A,2500.8142700,N,12132.4701900,E,0.02,287.56,260623,,,D,V*09
$GPHDT,,T*1B
$GNGSA,A,3,196,24,199,18,23,194,12,10,05,32,195,,0.73,0.41,0.60,1*00
$GNGSA,A,3,80,70,73,85,86,71,69,79,,,,,0.73,0.41,0.60,2*0A
$GNGSA,A,3,13,08,07,26,30,02,15,03,,,,,0.73,0.41,0.60,3*0B
$GNGSA,A,3,38,08,39,13,16,06,46,09,19,20,36,37,0.73,0.41,0.60,4*09
$GNGSA,A,3,35,29,22,,,,,,,,,,0.73,0.41,0.60,4*0E
$GPGSV,4,1,16,196,75,065,42,24,73,042,40,199,60,167,24,18,58,245,46,1*6B
$GPGSV,4,2,16,23,51,339,38,41,38,242,45,15,36,048,20,195,34,180,16,1*52
$GPGSV,4,3,16,194,31,138,28,12,21,141,39,10,18,319,32,05,18,119,30,1*50
$GPGSV,4,4,16,32,10,270,19,25,09,176,,13,08,057,18,29,01,196,,1*65
$GPGSV,2,1,08,196,75,065,41,24,73,042,47,199,60,167,38,18,58,245,47,8*63
$GPGSV,2,2,08,23,51,339,36,195,34,180,22,194,31,138,32,10,18,319,35,8*6F
$GLGSV,2,1,08,80,48,075,45,70,40,011,19,73,39,159,30,85,35,245,44,1*77
$GLGSV,2,2,08,86,27,301,44,71,22,315,45,69,12,075,21,79,11,032,22,1*7B
$GAGSV,3,1,09,13,56,231,41,08,46,026,27,07,44,304,42,26,32,306,43,7*76
$GAGSV,3,2,09,30,26,143,28,02,26,085,32,15,22,174,17,03,10,065,20,7*79
$GAGSV,3,3,09,25,03,042,,7*48
$GAGSV,2,1,08,13,56,231,40,08,46,026,23,07,44,304,43,26,32,306,42,1*75
$GAGSV,2,2,08,30,26,143,25,02,26,085,32,15,22,174,24,03,10,065,19,1*78
$GBGSV,4,1,15,38,83,114,43,08,79,003,37,39,71,284,44,13,68,333,38,1*73
$GBGSV,4,2,15,16,66,259,45,06,65,254,39,46,60,110,43,09,50,239,43,1*70
$GBGSV,4,3,15,19,49,346,33,20,43,064,22,36,36,184,23,37,22,047,19,1*75
$GBGSV,4,4,15,35,21,268,34,29,18,211,29,22,12,302,38,1*4E
$GBGSV,3,1,10,38,83,114,44,39,71,284,44,46,60,110,44,19,49,346,33,4*76
$GBGSV,3,2,10,20,43,064,21,36,36,184,28,37,22,047,25,35,21,268,34,4*7E
$GBGSV,3,3,10,29,18,211,19,22,12,302,35,4*7E
$GNACCURACY,2.3*17
$PAIRSAT,1,35,1,0,200,2,0,200,3,0,200,4,0,200,5,0,201,6,0,200,7,0,200,8,0,200,9,0,200,10,0,221,11,0,200,12,0,201,13,0,201,14,0,200,15,0,201,16,0,200,17,0,200,18,0,221,19,0,200,20,0,200,21,0,200,23,0,221,24,0,221,25,0,200,26,0,200,27,0,200,28,0,200,29,0,200,30,0,200,31,0,200,32,0,221,194,0,621,195,0,621,196,0,620,199,0,621*68
$PAIRSAT,2,23,65,0,200,67,0,200,68,0,200,69,0,201,70,0,201,71,0,201,72,0,200,73,0,201,74,0,200,75,0,200,76,0,200,77,0,200,78,0,200,79,0,201,80,0,201,81,0,200,82,0,200,83,0,200,84,0,200,85,0,201,86,0,201,87,0,200,88,0,200*53
$PAIRSAT,3,23,2,0,1221,3,0,1221,4,0,1200,5,0,200,7,0,1221,8,0,1221,9,0,1200,10,0,1200,11,0,1200,12,0,1200,13,0,1221,15,0,1221,19,0,1200,21,0,1200,24,0,1200,25,0,1200,26,0,1221,27,0,1200,30,0,1221,31,0,1200,33,0,1200,34,0,1200,36,0,1200*6A
$PAIRSAT,4,50,1,0,200,2,0,200,3,0,200,4,0,200,5,0,200,6,0,201,7,0,200,8,0,201,9,0,201,10,0,200,11,0,200,12,0,200,13,0,201,14,0,200,15,0,200,16,0,201,19,0,621,20,0,621,21,0,600,22,0,621,23,0,600,24,0,600,25,0,600,26,0,600,27,0,600,28,0,600,29,0,621,30,0,600,31,0,200,32,0,600,33,0,600,34,0,600,35,0,621,36,0,621,37,0,621,38,0,621,39,0,621,40,0,600,41,0,600,42,0,600,43,0,600,44,0,600,45,0,600,46,0,621,56,0,200,57,0,200,58,0,200,59,0,600,60,0,600,61,0,600*41
$PAIRDGP,11,5,10,12,13,15,18,23,24,25,29,32*6B
$GNGGA,112814.200,2500.8142700,N,12132.4701900,E,2,67,0.41,18.98,M,15.25,M,1,3335*73
$GNRMC,112814.200,A,2500.8142700,N,12132.4701900,E,0.02,287.56,260623,,,D,V*0A
$GPHDT,,T*1B
$GNACCURACY,2.3*17
$GNGGA,112814.300,2500.8142600,N,12132.4701800,E,2,67,0.41,18.98,M,15.25,M,1,3335*72
$GNRMC,112814.300,A,2500.8142600,N,12132.4701800,E,0.02,287.56,260623,,,D,V*0B
$GPHDT,,T*1B
$GNACCURACY,2.3*17
$GNGGA,112814.400,2500.8142600,N,12132.4701800,E,2,67,0.41,18.98,M,15.25,M,1,3335*75
$GNRMC,112814.400,A,2500.8142600,N,12132.4701800,E,0.02,287.56,260623,,,D,V*0C
$GPHDT,,T*1B
$GNACCURACY,2.3*17
$GNGGA,112814.500,2500.8142500,N,12132.4701700,E,2,67,0.41,18.98,M,15.25,M,1,3335*78
$GNRMC,112814.500,A,2500.8142500,N,12132.4701700,E,0.02,287.56,260623,,,D,V*01
$GPHDT,,T*1B
$GNACCURACY,2.3*17
$GNGGA,112814.600,2500.8142500,N,12132.4701600,E,2,67,0.41,18.98,M,15.25,M,0,3335*7B
$GNRMC,112814.600,A,2500.8142500,N,12132.4701600,E,0.02,287.56,260623,,,D,V*03
$GPHDT,,T*1B
$GNACCURACY,2.3*17
$GNGGA,112814.700,2500.8142500,N,12132.4701600,E,2,67,0.41,18.98,M,15.25,M,0,3335*7A
$GNRMC,112814.700,A,2500.8142500,N,12132.4701600,E,0.02,287.56,260623,,,D,V*02
$GPHDT,,T*1B
$GNACCURACY,2.3*17
$GNGGA,112814.800,2500.8142400,N,12132.4701500,E,2,67,0.41,18.98,M,15.25,M,0,3335*77
$GNRMC,112814.800,A,2500.8142400,N,12132.4701500,E,0.02,287.56,260623,,,D,V*0F
$GPHDT,,T*1B
$GNACCURACY,2.3*17
$GNGGA,112814.900,2500.8142400,N,12132.4701400,E,2,66,0.41,18.97,M,15.25,M,0,3335*79
$GNRMC,112814.900,A,2500.8142400,N,12132.4701400,E,0.02,287.56,260623,,,D,V*0F
$GPHDT,,T*1B
$GNACCURACY,2.4*10
$GNGGA,112815.000,2500.8142300,N,12132.4701300,E,2,66,0.41,18.97,M,15.25,M,1,3335*70
$GNRMC,112815.000,A,2500.8142300,N,12132.4701300,E,0.02,287.56,260623,,,D,V*07
$GPHDT,,T*1B
$GNACCURACY,2.4*10
$GNGGA,112815.100,2500.8142300,N,12132.4701300,E,2,66,0.41,18.98,M,15.25,M,1,3335*7E
$GNRMC,112815.100,A,2500.8142300,N,12132.4701300,E,0.02,287.56,260623,,,D,V*06
