$FW : RTK35X,V1.1X0314AS,Lib20210517,1*54
$Tool : LOCOSYS , GNSS Firebird , v1.0.0.19*39
$---------------------------------------------------*2D
$GNACCURACY,2.3*17
$GNGGA,112726.600,2500.8160800,N,12132.4714700,E,2,61,0.44,20.97,M,15.25,M,10,3335*4B
$GNRMC,112726.600,A,2500.8160800,N,12132.4714700,E,0.01,287.56,260623,,,D,V*06
$GPHDT,,T*1B
$GNACCURACY,2.3*17
$GNGGA,112726.700,2500.8160900,N,12132.4714700,E,2,61,0.44,20.98,M,15.25,M,10,3335*44
$GNRMC,112726.700,A,2500.8160900,N,12132.4714700,E,0.01,287.56,260623,,,D,V*06
$GPHDT,,T*1B
$GNACCURACY,2.3*17
$GNGGA,112726.800,2500.8161000,N,12132.4714700,E,2,60,0.45,20.99,M,15.25,M,10,3335*42
$GNRMC,112726.800,A,2500.8161000,N,12132.4714700,E,0.01,287.56,260623,,,D,V*01
$GPHDT,,T*1B
$GNACCURACY,2.3*17
$GNGGA,112726.900,2500.8161000,N,12132.4714600,E,2,61,0.44,21.01,M,15.25,M,10,3335*42
$GNRMC,112726.900,A,2500.8161000,N,12132.4714600,E,0.01,287.56,260623,,,D,V*01
$GPHDT,,T*1B
$GNACCURACY,2.3*17
$GNGGA,112727.000,2500.8161100,N,12132.4714600,E,2,61,0.44,21.03,M,15.25,M,11,3335*48
$GNRMC,112727.000,A,2500.8161100,N,12132.4714600,E,0.01,287.56,260623,,,D,V*08
$GPHDT,,T*1B
$GNACCURACY,2.3*17
$GNGGA,112727.100,2500.8161100,N,12132.4714600,E,2,59,0.46,21.04,M,15.25,M,11,3335*47
$GNRMC,112727.100,A,2500.8161100,N,12132.4714600,E,0.01,287.56,260623,,,D,V*09
$GPHDT,,T*1B
$GNGSA,A,3,196,24,199,18,23,15,195,194,12,05,10,,0.82,0.47,0.68,1*05
$GNGSA,A,3,80,73,85,86,71,79,,,,,,,0.82,0.47,0.68,2*02
$GNGSA,A,3,13,08,07,26,02,30,15,,,,,,0.82,0.47,0.68,3*08
$GNGSA,A,3,38,08,39,13,16,06,46,09,19,20,37,35,0.82,0.47,0.68,4*0A
$GNGSA,A,3,22,,,,,,,,,,,,0.82,0.47,0.68,4*03
$GPGSV,4,1,16,196,75,065,42,24,73,042,39,199,60,167,22,18,58,246,46,1*60
$GPGSV,4,2,16,23,51,339,35,41,38,242,44,15,37,047,26,195,34,180,14,1*54
$GPGSV,4,3,16,194,31,138,33,12,20,141,28,05,19,119,21,10,18,319,29,1*50
$GPGSV,4,4,16,25,09,176,16,32,09,269,29,13,08,057,20,29,01,196,,1*6A
$GPGSV,2,1,08,196,75,065,41,24,73,042,47,199,60,167,36,18,58,246,47,8*6E
$GPGSV,2,2,08,23,51,339,39,194,31,138,35,10,18,319,30,32,09,269,20,8*56
$GLGSV,3,1,09,80,48,076,45,70,40,011,,73,39,159,29,85,35,245,41,1*71
$GLGSV,3,2,09,86,27,301,43,71,22,314,45,69,13,074,14,79,11,032,11,1*7B
$GLGSV,3,3,09,84,08,190,,1*4D
$GAGSV,3,1,09,13,56,231,42,08,46,025,22,07,44,303,43,26,32,306,40,7*76
$GAGSV,3,2,09,02,26,085,35,30,26,143,35,15,22,174,14,03,10,064,,7*72
$GAGSV,3,3,09,25,03,043,,7*49
$GAGSV,2,1,07,13,56,231,39,08,46,025,19,07,44,303,46,26,32,306,44,1*7A
$GAGSV,2,2,07,02,26,085,36,30,26,143,29,15,22,174,15,1*44
$GBGSV,4,1,15,38,83,112,42,08,79,004,39,39,71,283,43,13,68,333,40,1*72
$GBGSV,4,2,15,16,66,258,44,06,65,254,39,46,60,111,40,09,50,239,42,1*73
$GBGSV,4,3,15,19,49,345,36,20,43,063,26,36,35,184,19,37,22,047,29,1*79
$GBGSV,4,4,15,35,21,268,39,29,19,211,,22,12,301,40,1*45
$GBGSV,2,1,08,38,83,112,44,39,71,283,45,46,60,111,42,19,49,345,32,4*7B
$GBGSV,2,2,08,20,43,063,23,37,22,047,23,35,21,268,29,22,12,301,38,4*74
$GNACCURACY,2.3*17
$PAIRSAT,1,35,1,0,200,2,0,200,3,0,200,4,0,200,5,0,201,6,0,200,7,0,200,8,0,200,9,0,200,10,0,221,11,0,200,12,0,201,13,0,201,14,0,200,15,0,201,16,0,200,17,0,200,18,0,221,19,0,200,20,0,200,21,0,200,23,0,221,24,0,221,25,0,200,26,0,200,27,0,200,28,0,200,29,0,200,30,0,200,31,0,200,32,0,221,194,0,621,195,0,621,196,0,620,199,0,621*68
$PAIRSAT,2,23,65,0,200,67,0,200,68,0,200,69,0,201,70,0,201,71,0,201,72,0,200,73,0,201,74,0,200,75,0,200,76,0,200,77,0,200,78,0,200,79,0,201,80,0,201,81,0,200,82,0,200,83,0,200,84,0,200,85,0,201,86,0,201,87,0,200,88,0,200*53
$PAIRSAT,3,23,2,0,1221,3,0,1221,4,0,1200,5,0,200,7,0,1221,8,0,1221,9,0,1200,10,0,1200,11,0,1200,12,0,1200,13,0,1221,15,0,1221,19,0,1200,21,0,1200,24,0,1200,25,0,1200,26,0,1221,27,0,1200,30,0,1221,31,0,1200,33,0,1200,34,0,1200,36,0,1200*6A
$PAIRSAT,4,50,1,0,200,2,0,200,3,0,200,4,0,200,5,0,200,6,0,201,7,0,200,8,0,201,9,0,201,10,0,200,11,0,200,12,0,200,13,0,201,14,0,200,15,0,200,16,0,201,19,0,621,20,0,621,21,0,600,22,0,621,23,0,600,24,0,600,25,0,600,26,0,600,27,0,600,28,0,600,29,0,621,30,0,600,31,0,200,32,0,600,33,0,600,34,0,600,35,0,621,36,0,621,37,0,621,38,0,621,39,0,621,40,0,600,41,0,600,42,0,600,43,0,600,44,0,600,45,0,600,46,0,621,56,0,200,57,0,200,58,0,200,59,0,600,60,0,600,61,0,600*41
$PAIRDGP,11,5,10,12,13,15,18,23,24,25,29,32*6B
$GNGGA,112727.200,2500.8161100,N,12132.4714600,E,2,58,0.47,21.05,M,15.25,M,11,3335*45
$GNRMC,112727.200,A,2500.8161100,N,12132.4714600,E,0.01,287.56,260623,,,D,V*0A
$GPHDT,,T*1B
$GNACCURACY,2.3*17
$GNGGA,112727.300,2500.8161100,N,12132.4714600,E,2,58,0.47,21.06,M,15.25,M,11,3335*47
$GNRMC,112727.300,A,2500.8161100,N,12132.4714600,E,0.01,287.56,260623,,,D,V*0B
$GPHDT,,T*1B
$GNACCURACY,2.3*17
$GNGGA,112727.400,2500.8161100,N,12132.4714500,E,2,57,0.47,21.06,M,15.25,M,11,3335*4C
$GNRMC,112727.400,A,2500.8161100,N,12132.4714500,E,0.01,287.56,260623,,,D,V*0F
$GPHDT,,T*1B
$GNACCURACY,2.3*17
$GNGGA,112727.500,2500.8161000,N,12132.4714500,E,2,58,0.45,21.07,M,15.25,M,11,3335*40
$GNRMC,112727.500,A,2500.8161000,N,12132.4714500,E,0.01,287.56,260623,,,D,V*0F
$GPHDT,,T*1B
$GNACCURACY,2.3*17
$GNGGA,112727.600,2500.8161100,N,12132.4714500,E,2,58,0.45,21.07,M,15.25,M,11,3335*42
$GNRMC,112727.600,A,2500.8161100,N,12132.4714500,E,0.01,287.56,260623,,,D,V*0D
$GPHDT,,T*1B
$GNACCURACY,2.3*17
$GNGGA,112727.700,2500.8161000,N,12132.4714500,E,2,58,0.47,21.08,M,15.25,M,11,3335*4F
$GNRMC,112727.700,A,2500.8161000,N,12132.4714500,E,0.01,287.56,260623,,,D,V*0D
$GPHDT,,T*1B
$GNACCURACY,2.3*17
$GNGGA,112727.800,2500.8161000,N,12132.4714400,E,2,58,0.45,21.08,M,15.25,M,11,3335*43
$GNRMC,112727.800,A,2500.8161000,N,12132.4714400,E,0.01,287.56,260623,,,D,V*03
$GPHDT,,T*1B
$GNACCURACY,2.3*17
$GNGGA,112727.900,2500.8161000,N,12132.4714400,E,2,58,0.45,21.09,M,15.25,M,11,3335*43
$GNRMC,112727.900,A,2500.8161000,N,12132.4714400,E,0.01,287.56,260623,,,D,V*02
$GPHDT,,T*1B
$GNACCURACY,2.3*17
$GNGGA,112728.000,2500.8161000,N,12132.4714400,E,2,57,0.47,21.09,M,15.25,M,12,3335*4B
$GNRMC,112728.000,A,2500.8161000,N,12132.4714400,E,0.01,287.56,260623,,,D,V*04
$GPHDT,,T*1B
$GNACCURACY,2.3*17
$GNGGA,112728.100,2500.8160900,N,12132.4714400,E,2,57,0.47,21.09,M,15.25,M,12,3335*42
$GNRMC,112728.100,A,2500.8160900,N,12132.4714400,E,0.01,287.56,260623,,,D,V*0D
$GPHDT,,T*1B
$GNGSA,A,3,196,24,18,23,15,195,194,12,05,10,199,,0.86,0.47,0.72,1*0A
$GNGSA,A,3,80,73,85,86,71,,,,,,,,0.86,0.47,0.72,2*03
$GNGSA,A,3,13,08,07,26,30,02,15,,,,,,0.86,0.47,0.72,3*07
$GNGSA,A,3,38,08,39,13,16,06,46,09,19,20,36,37,0.86,0.47,0.72,4*06
$GNGSA,A,3,35,22,,,,,,,,,,,0.86,0.47,0.72,4*0A
$GPGSV,4,1,16,196,75,065,42,24,73,042,39,199,60,167,22,18,58,246,46,1*60
$GPGSV,4,2,16,23,51,339,35,41,38,242,44,15,37,047,27,195,34,180,15,1*54
$GPGSV,4,3,16,194,31,138,33,12,20,141,25,05,19,119,22,10,18,319,30,1*56
$GPGSV,4,4,16,25,09,176,16,32,09,269,29,13,08,057,20,29,01,196,,1*6A
$GPGSV,3,1,09,196,75,065,41,24,73,042,47,199,60,167,35,18,58,246,47,8*6D
$GPGSV,3,2,09,23,51,339,39,195,34,180,22,194,31,138,35,10,18,319,29,8*6A
$GPGSV,3,3,09,32,09,269,21,8*52
$GLGSV,2,1,08,80,48,076,45,70,40,011,,73,39,159,29,85,35,245,41,1*71
$GLGSV,2,2,08,86,27,301,44,71,22,314,45,69,13,074,12,79,11,032,12,1*79
$GAGSV,3,1,09,13,56,231,42,08,46,025,21,07,44,303,43,26,32,306,40,7*75
$GAGSV,3,2,09,30,26,143,35,02,26,085,35,15,22,174,15,03,10,064,,7*73
$GAGSV,3,3,09,25,03,043,,7*49
$GAGSV,2,1,06,13,56,231,40,08,46,025,22,07,44,303,46,26,32,306,44,1*7D
$GAGSV,2,2,06,02,26,085,36,30,26,143,29,1*77
$GBGSV,4,1,15,38,83,113,43,08,79,004,39,39,71,284,43,13,68,333,40,1*75
$GBGSV,4,2,15,16,66,258,44,06,65,254,38,46,60,111,41,09,50,239,42,1*73
$GBGSV,4,3,15,19,49,345,36,20,43,063,27,36,35,184,21,37,22,047,28,1*72
$GBGSV,4,4,15,35,21,268,39,29,19,211,,22,12,301,38,1*4A
$GBGSV,2,1,08,38,83,113,44,39,71,284,44,46,60,111,42,19,49,345,32,4*7C
$GBGSV,2,2,08,20,43,063,22,37,22,047,24,35,21,268,28,22,12,301,38,4*73
$GNACCURACY,2.3*17
$PAIRSAT,1,35,1,0,200,2,0,200,3,0,200,4,0,200,5,0,201,6,0,200,7,0,200,8,0,200,9,0,200,10,0,221,11,0,200,12,0,201,13,0,201,14,0,200,15,0,201,16,0,200,17,0,200,18,0,221,19,0,200,20,0,200,21,0,200,23,0,221,24,0,221,25,0,200,26,0,200,27,0,200,28,0,200,29,0,200,30,0,200,31,0,200,32,0,221,194,0,621,195,0,621,196,0,620,199,0,621*68
$PAIRSAT,2,23,65,0,200,67,0,200,68,0,200,69,0,201,70,0,201,71,0,201,72,0,200,73,0,201,74,0,200,75,0,200,76,0,200,77,0,200,78,0,200,79,0,201,80,0,201,81,0,200,82,0,200,83,0,200,84,0,200,85,0,201,86,0,201,87,0,200,88,0,200*53
$PAIRSAT,3,23,2,0,1221,3,0,1221,4,0,1200,5,0,200,7,0,1221,8,0,1221,9,0,1200,10,0,1200,11,0,1200,12,0,1200,13,0,1221,15,0,1221,19,0,1200,21,0,1200,24,0,1200,25,0,1200,26,0,1221,27,0,1200,30,0,1221,31,0,1200,33,0,1200,34,0,1200,36,0,1200*6A
$PAIRSAT,4,50,1,0,200,2,0,200,3,0,200,4,0,200,5,0,200,6,0,201,7,0,200,8,0,201,9,0,201,10,0,200,11,0,200,12,0,200,13,0,201,14,0,200,15,0,200,16,0,201,19,0,621,20,0,621,21,0,600,22,0,621,23,0,600,24,0,600,25,0,600,26,0,600,27,0,600,28,0,600,29,0,621,30,0,600,31,0,200,32,0,600,33,0,600,34,0,600,35,0,621,36,0,621,37,0,621,38,0,621,39,0,621,40,0,600,41,0,600,42,0,600,43,0,600,44,0,600,45,0,600,46,0,621,56,0,200,57,0,200,58,0,200,59,0,600,60,0,600,61,0,600*41
$PAIRDGP,11,5,10,12,13,15,18,23,24,25,29,32*6B
$GNGGA,112728.200,2500.8160800,N,12132.4714300,E,2,57,0.47,21.10,M,15.25,M,12,3335*4F
$GNRMC,112728.200,A,2500.8160800,N,12132.4714300,E,0.01,287.56,260623,,,D,V*08
$GPHDT,,T*1B
$GNACCURACY,2.3*17
$GNGGA,112728.300,2500.8160800,N,12132.4714300,E,2,57,0.47,21.10,M,15.25,M,12,3335*4E
$GNRMC,112728.300,A,2500.8160800,N,12132.4714300,E,0.01,287.56,260623,,,D,V*09
$GPHDT,,T*1B
$GNACCURACY,2.3*17
$GNGGA,112728.400,2500.8160800,N,12132.4714300,E,2,58,0.47,21.11,M,15.25,M,12,3335*47
$GNRMC,112728.400,A,2500.8160800,N,12132.4714300,E,0.01,287.56,260623,,,D,V*0E
$GPHDT,,T*1B
$GNACCURACY,2.3*17
$GNGGA,112728.500,2500.8160700,N,12132.4714300,E,2,57,0.50,21.11,M,15.25,M,12,3335*40
$GNRMC,112728.500,A,2500.8160700,N,12132.4714300,E,0.01,287.56,260623,,,D,V*00
$GPHDT,,T*1B
$GNACCURACY,2.3*17
$GNGGA,112728.600,2500.8160700,N,12132.4714200,E,2,58,0.47,21.12,M,15.25,M,12,3335*48
$GNRMC,112728.600,A,2500.8160700,N,12132.4714200,E,0.01,287.56,260623,,,D,V*02
$GPHDT,,T*1B
$GNACCURACY,2.3*17
$GNGGA,112728.700,2500.8160600,N,12132.4714200,E,2,58,0.47,21.12,M,15.25,M,12,3335*48
$GNRMC,112728.700,A,2500.8160600,N,12132.4714200,E,0.01,287.56,260623,,,D,V*02
$GPHDT,,T*1B
$GNACCURACY,2.3*17
$GNGGA,112728.800,2500.8160500,N,12132.4714200,E,2,57,0.50,21.12,M,15.25,M,12,3335*4D
$GNRMC,112728.800,A,2500.8160500,N,12132.4714200,E,0.01,287.56,260623,,,D,V*0E
$GPHDT,,T*1B
$GNACCURACY,2.3*17
$GNGGA,112728.900,2500.8160500,N,12132.4714200,E,2,58,0.47,21.12,M,15.25,M,12,3335*45
$GNRMC,112728.900,A,2500.8160500,N,12132.4714200,E,0.01,287.56,260623,,,D,V*0F
$GPHDT,,T*1B
$GNACCURACY,2.5*11
$GNGGA,112729.000,2500.8160400,N,12132.4714100,E,2,57,0.47,21.11,M,15.25,M,13,3335*42
$GNRMC,112729.000,A,2500.8160400,N,12132.4714100,E,0.01,287.56,260623,,,D,V*05
$GPHDT,,T*1B
$GNACCURACY,2.3*17
$GNGGA,112729.100,2500.8160300,N,12132.4714100,E,2,57,0.47,21.11,M,15.25,M,13,3335*44
$GNRMC,112729.100,A,2500.8160300,N,12132.4714100,E,0.01,287.56,260623,,,D,V*03
$GPHDT,,T*1B
$GNGSA,A,3,196,24,199,18,23,15,194,12,05,10,195,,0.86,0.47,0.72,1*0A
$GNGSA,A,3,80,73,85,86,71,,,,,,,,0.86,0.47,0.72,2*03
$GNGSA,A,3,13,08,07,26,02,30,15,,,,,,0.86,0.47,0.72,3*07
$GNGSA,A,3,38,08,39,13,16,06,46,09,19,20,36,37,0.86,0.47,0.72,4*06
$GNGSA,A,3,35,22,,,,,,,,,,,0.86,0.47,0.72,4*0A
$GPGSV,4,1,16,196,75,065,42,24,73,042,40,199,60,167,24,18,58,246,46,1*68
$GPGSV,4,2,16,23,51,339,35,41,38,242,45,15,37,047,26,195,34,180,16,1*57
$GPGSV,4,3,16,194,31,138,26,12,20,141,34,05,19,119,24,10,18,319,30,1*54
$GPGSV,4,4,16,25,09,176,16,32,09,269,31,13,08,057,20,29,01,196,,1*63
$GPGSV,3,1,09,196,75,065,37,24,73,042,47,199,60,167,33,18,58,246,47,8*6A
$GPGSV,3,2,09,23,51,339,39,195,34,180,24,194,31,138,31,10,18,319,32,8*62
$GPGSV,3,3,09,32,09,269,20,8*53
$GLGSV,3,1,09,80,48,076,45,70,40,011,,73,39,159,29,85,35,245,42,1*72
$GLGSV,3,2,09,86,27,301,44,71,22,314,45,69,13,074,15,79,11,032,13,1*7F
$GLGSV,3,3,09,74,03,187,,1*4F
$GAGSV,3,1,10,13,56,231,42,08,46,025,23,07,44,303,43,26,32,306,40,7*7F
$GAGSV,3,2,10,02,26,085,35,30,26,143,35,15,22,174,14,03,10,064,,7*7A
$GAGSV,3,3,10,25,03,043,,27,01,188,,7*74
$GAGSV,2,1,06,13,56,231,40,08,46,025,20,07,44,303,46,26,32,306,45,1*7E
$GAGSV,2,2,06,02,26,085,34,30,26,143,31,1*7C
$GBGSV,4,1,15,38,83,113,42,08,79,004,39,39,71,284,43,13,68,333,40,1*74
$GBGSV,4,2,15,16,66,258,44,06,65,254,38,46,60,111,43,09,50,239,42,1*71
$GBGSV,4,3,15,19,49,345,37,20,43,063,29,36,35,184,25,37,22,047,27,1*76
$GBGSV,4,4,15,35,21,268,39,29,19,211,,22,12,301,38,1*4A
$GBGSV,2,1,08,38,83,113,44,39,71,284,44,46,60,111,45,19,49,345,33,4*7A
$GBGSV,2,2,08,20,43,063,24,37,22,047,24,35,21,268,29,22,12,301,38,4*74
$GNACCURACY,2.3*17
$PAIRSAT,1,35,1,0,200,2,0,200,3,0,200,4,0,200,5,0,201,6,0,200,7,0,200,8,0,200,9,0,200,10,0,221,11,0,200,12,0,201,13,0,201,14,0,200,15,0,201,16,0,200,17,0,200,18,0,221,19,0,200,20,0,200,21,0,200,23,0,221,24,0,221,25,0,200,26,0,200,27,0,200,28,0,200,29,0,200,30,0,200,31,0,200,32,0,221,194,0,621,195,0,621,196,0,620,199,0,621*68
$PAIRSAT,2,23,65,0,200,67,0,200,68,0,200,69,0,201,70,0,201,71,0,201,72,0,200,73,0,201,74,0,200,75,0,200,76,0,200,77,0,200,78,0,200,79,0,201,80,0,201,81,0,200,82,0,200,83,0,200,84,0,200,85,0,201,86,0,201,87,0,200,88,0,200*53
$PAIRSAT,3,23,2,0,1221,3,0,1221,4,0,1200,5,0,200,7,0,1221,8,0,1221,9,0,1200,10,0,1200,11,0,1200,12,0,1200,13,0,1221,15,0,1221,19,0,1200,21,0,1200,24,0,1200,25,0,1200,26,0,1221,27,0,1200,30,0,1221,31,0,1200,33,0,1200,34,0,1200,36,0,1200*6A
$PAIRSAT,4,50,1,0,200,2,0,200,3,0,200,4,0,200,5,0,200,6,0,201,7,0,200,8,0,201,9,0,201,10,0,200,11,0,200,12,0,200,13,0,201,14,0,200,15,0,200,16,0,201,19,0,621,20,0,621,21,0,600,22,0,621,23,0,600,24,0,600,25,0,600,26,0,600,27,0,600,28,0,600,29,0,621,30,0,600,31,0,200,32,0,600,33,0,600,34,0,600,35,0,621,36,0,621,37,0,621,38,0,621,39,0,621,40,0,600,41,0,600,42,0,600,43,0,600,44,0,600,45,0,600,46,0,621,56,0,200,57,0,200,58,0,200,59,0,600,60,0,600,61,0,600*41
$PAIRDGP,11,5,10,12,13,15,18,23,24,25,29,32*6B
$GNGGA,112729.200,2500.8160200,N,12132.4714100,E,2,57,0.47,21.11,M,15.25,M,13,3335*46
$GNRMC,112729.200,A,2500.8160200,N,12132.4714100,E,0.01,287.56,260623,,,D,V*01
$GPHDT,,T*1B
$GNACCURACY,2.3*17
$GNGGA,112729.300,2500.8160100,N,12132.4714100,E,2,57,0.47,21.11,M,15.25,M,13,3335*44
$GNRMC,112729.300,A,2500.8160100,N,12132.4714100,E,0.01,287.56,260623,,,D,V*03
$GPHDT,,T*1B
$GNACCURACY,2.3*17
$GNGGA,112729.400,2500.8160100,N,12132.4714100,E,2,57,0.47,21.10,M,15.25,M,13,3335*42
$GNRMC,112729.400,A,2500.8160100,N,12132.4714100,E,0.01,287.56,260623,,,D,V*04
$GPHDT,,T*1B
$GNACCURACY,2.3*17
$GNGGA,112729.500,2500.8160000,N,12132.4714000,E,2,57,0.47,21.09,M,15.25,M,13,3335*4B
$GNRMC,112729.500,A,2500.8160000,N,12132.4714000,E,0.01,287.56,260623,,,D,V*05
$GPHDT,,T*1B
$GNACCURACY,2.3*17
$GNGGA,112729.600,2500.8159900,N,12132.4714000,E,2,57,0.47,21.09,M,15.25,M,13,3335*4B
$GNRMC,112729.600,A,2500.8159900,N,12132.4714000,E,0.01,287.56,260623,,,D,V*05
$GPHDT,,T*1B
$GNACCURACY,2.3*17
$GNGGA,112729.700,2500.8159900,N,12132.4713900,E,2,57,0.47,21.08,M,15.25,M,13,3335*45
$GNRMC,112729.700,A,2500.8159900,N,12132.4713900,E,0.01,287.56,260623,,,D,V*0A
$GPHDT,,T*1B
$GNACCURACY,2.3*17
$GNGGA,112729.800,2500.8159800,N,12132.4714000,E,2,57,0.47,21.08,M,15.25,M,13,3335*45
$GNRMC,112729.800,A,2500.8159800,N,12132.4714000,E,0.01,287.56,260623,,,D,V*0A
$GPHDT,,T*1B
$GNACCURACY,2.2*16
$GNGGA,112729.900,2500.8159800,N,12132.4714100,E,2,57,0.46,21.09,M,15.25,M,13,3335*45
$GNRMC,112729.900,A,2500.8159800,N,12132.4714100,E,0.01,287.56,260623,,,D,V*0A
$GPHDT,,T*1B
$GNACCURACY,2.2*16
$GNGGA,112730.000,2500.8159800,N,12132.4714200,E,2,56,0.47,21.10,M,15.25,M,14,3335*48
$GNRMC,112730.000,A,2500.8159800,N,12132.4714200,E,0.01,287.56,260623,,,D,V*08
$GPHDT,,T*1B
$GNACCURACY,2.2*16
$GNGGA,112730.100,2500.8159800,N,12132.4714300,E,2,55,0.47,21.11,M,15.25,M,14,3335*4A
$GNRMC,112730.100,A,2500.8159800,N,12132.4714300,E,0.01,287.56,260623,,,D,V*08
$GPHDT,,T*1B
$GNGSA,A,3,196,24,18,23,15,194,12,05,10,199,195,,0.80,0.44,0.67,1*0B
$GNGSA,A,3,80,73,85,86,71,69,,,,,,,0.80,0.44,0.67,2*0D
$GNGSA,A,3,13,08,07,26,02,30,15,,,,,,0.80,0.44,0.67,3*06
$GNGSA,A,3,38,08,39,13,16,06,46,09,19,20,36,37,0.80,0.44,0.67,4*07
$GNGSA,A,3,35,29,22,,,,,,,,,,0.80,0.44,0.67,4*00
$GPGSV,4,1,16,196,75,065,42,24,73,042,40,199,60,167,22,18,58,246,46,1*6E
$GPGSV,4,2,16,23,51,339,35,41,38,242,45,15,37,047,26,195,34,180,19,1*58
$GPGSV,4,3,16,194,31,138,28,12,20,141,35,05,19,119,27,10,18,319,30,1*58
$GPGSV,4,4,16,25,09,176,16,32,09,269,31,13,08,057,18,29,01,196,,1*68
$GPGSV,3,1,09,196,75,065,39,24,73,042,47,199,60,167,36,18,58,246,47,8*61
$GPGSV,3,2,09,23,51,339,39,195,34,180,24,194,31,138,32,10,18,319,31,8*62
$GPGSV,3,3,09,32,09,269,20,8*53
$GLGSV,2,1,08,80,48,076,45,70,40,011,,73,39,159,30,85,35,245,42,1*7A
$GLGSV,2,2,08,86,27,301,44,71,22,314,45,69,13,074,17,79,11,032,13,1*7D
$GAGSV,3,1,10,13,56,231,42,08,46,025,24,07,44,303,43,26,32,306,40,7*78
$GAGSV,3,2,10,02,26,085,34,30,26,143,33,15,22,174,13,03,10,064,,7*7A
$GAGSV,3,3,10,25,03,043,,27,01,188,,7*74
$GAGSV,2,1,06,13,56,231,40,08,46,025,22,07,44,303,46,26,32,306,45,1*7C
$GAGSV,2,2,06,02,26,085,34,30,26,143,31,1*7C
$GBGSV,4,1,15,38,83,113,42,08,79,004,39,39,71,284,43,13,68,333,40,1*74
$GBGSV,4,2,15,16,66,258,44,06,65,254,38,46,60,111,43,09,50,239,42,1*71
$GBGSV,4,3,15,19,49,345,37,20,43,063,26,36,35,184,24,37,22,047,29,1*76
$GBGSV,4,4,15,35,21,268,39,29,19,211,29,22,12,301,38,1*41
$GBGSV,2,1,07,38,83,113,44,39,71,284,44,46,60,111,46,19,49,345,33,4*76
$GBGSV,2,2,07,20,43,063,24,37,22,047,24,22,12,301,38,4*49
$GNACCURACY,2.2*16
$PAIRSAT,1,35,1,0,200,2,0,200,3,0,200,4,0,200,5,0,201,6,0,200,7,0,200,8,0,200,9,0,200,10,0,221,11,0,200,12,0,201,13,0,201,14,0,200,15,0,201,16,0,200,17,0,200,18,0,221,19,0,200,20,0,200,21,0,200,23,0,221,24,0,221,25,0,200,26,0,200,27,0,200,28,0,200,29,0,200,30,0,200,31,0,200,32,0,221,194,0,621,195,0,621,196,0,620,199,0,621*68
$PAIRSAT,2,23,65,0,200,67,0,200,68,0,200,69,0,201,70,0,201,71,0,201,72,0,200,73,0,201,74,0,200,75,0,200,76,0,200,77,0,200,78,0,200,79,0,201,80,0,201,81,0,200,82,0,200,83,0,200,84,0,200,85,0,201,86,0,201,87,0,200,88,0,200*53
$PAIRSAT,3,23,2,0,1221,3,0,1221,4,0,1200,5,0,200,7,0,1221,8,0,1221,9,0,1200,10,0,1200,11,0,1200,12,0,1200,13,0,1221,15,0,1221,19,0,1200,21,0,1200,24,0,1200,25,0,1200,26,0,1221,27,0,1200,30,0,1221,31,0,1200,33,0,1200,34,0,1200,36,0,1200*6A
$PAIRSAT,4,50,1,0,200,2,0,200,3,0,200,4,0,200,5,0,200,6,0,201,7,0,200,8,0,201,9,0,201,10,0,200,11,0,200,12,0,200,13,0,201,14,0,200,15,0,200,16,0,201,19,0,621,20,0,621,21,0,600,22,0,621,23,0,600,24,0,600,25,0,600,26,0,600,27,0,600,28,0,600,29,0,621,30,0,600,31,0,200,32,0,600,33,0,600,34,0,600,35,0,621,36,0,621,37,0,621,38,0,621,39,0,621,40,0,600,41,0,600,42,0,600,43,0,600,44,0,600,45,0,600,46,0,621,56,0,200,57,0,200,58,0,200,59,0,600,60,0,600,61,0,600*41
$PAIRDGP,11,5,10,12,13,15,18,23,24,25,29,32*6B
$GNGGA,112730.200,2500.8159800,N,12132.4714400,E,2,57,0.44,21.12,M,15.25,M,14,3335*4C
$GNRMC,112730.200,A,2500.8159800,N,12132.4714400,E,0.01,287.56,260623,,,D,V*0C
$GPHDT,,T*1B
$GNACCURACY,2.2*16
$GNGGA,112730.300,2500.8159800,N,12132.4714500,E,2,58,0.44,21.13,M,15.25,M,14,3335*42
$GNRMC,112730.300,A,2500.8159800,N,12132.4714500,E,0.01,287.56,260623,,,D,V*0C
$GPHDT,,T*1B
$GNACCURACY,2.3*17
$GNGGA,112730.400,2500.8159800,N,12132.4714500,E,2,58,0.44,21.14,M,15.25,M,14,3335*42
$GNRMC,112730.400,A,2500.8159800,N,12132.4714500,E,0.01,287.56,260623,,,D,V*0B
$GPHDT,,T*1B
$GNACCURACY,2.2*16
$GNGGA,112730.500,2500.8159800,N,12132.4714700,E,2,58,0.44,21.15,M,15.25,M,14,3335*40
$GNRMC,112730.500,A,2500.8159800,N,12132.4714700,E,0.01,287.56,260623,,,D,V*08
$GPHDT,,T*1B
$GNACCURACY,2.2*16
$GNGGA,112730.600,2500.8159800,N,12132.4714800,E,2,58,0.44,21.16,M,15.25,M,14,3335*4F
$GNRMC,112730.600,A,2500.8159800,N,12132.4714800,E,0.00,287.56,260623,,,D,V*05
$GPHDT,,T*1B
$GNACCURACY,2.2*16
$GNGGA,112730.700,2500.8159900,N,12132.4714800,E,2,58,0.44,21.17,M,15.25,M,14,3335*4E
$GNRMC,112730.700,A,2500.8159900,N,12132.4714800,E,0.00,287.56,260623,,,D,V*05
$GPHDT,,T*1B
$GNACCURACY,2.2*16
$GNGGA,112730.800,2500.8159900,N,12132.4714900,E,2,58,0.44,21.19,M,15.25,M,14,3335*4E
$GNRMC,112730.800,A,2500.8159900,N,12132.4714900,E,0.00,287.56,260623,,,D,V*0B
$GPHDT,,T*1B
$GNACCURACY,2.2*16
$GNGGA,112730.900,2500.8159900,N,12132.4715000,E,2,60,0.44,21.20,M,15.25,M,14,3335*46
$GNRMC,112730.900,A,2500.8159900,N,12132.4715000,E,0.00,287.56,260623,,,D,V*02
$GPHDT,,T*1B
$GNACCURACY,2.2*16
$GNGGA,112731.000,2500.8159900,N,12132.4715000,E,2,59,0.44,21.22,M,15.25,M,15,3335*47
$GNRMC,112731.000,A,2500.8159900,N,12132.4715000,E,0.00,287.56,260623,,,D,V*0A
$GPHDT,,T*1B
$GNACCURACY,2.2*16
$GNGGA,112731.100,2500.8159900,N,12132.4715100,E,2,60,0.44,21.23,M,15.25,M,15,3335*4C
$GNRMC,112731.100,A,2500.8159900,N,12132.4715100,E,0.00,287.56,260623,,,D,V*0A
$GPHDT,,T*1B
$GNGSA,A,3,196,24,199,18,23,15,195,194,12,05,10,,0.80,0.44,0.67,1*0B
$GNGSA,A,3,80,73,85,86,71,69,,,,,,,0.80,0.44,0.67,2*0D
$GNGSA,A,3,13,08,07,26,02,30,15,,,,,,0.80,0.44,0.67,3*06
$GNGSA,A,3,38,08,39,13,16,06,46,09,19,20,36,37,0.80,0.44,0.67,4*07
$GNGSA,A,3,35,29,22,,,,,,,,,,0.80,0.44,0.67,4*00
$GPGSV,4,1,16,196,75,065,42,24,73,042,40,199,60,167,24,18,58,246,46,1*68
$GPGSV,4,2,16,23,51,339,35,41,38,242,45,15,37,047,26,195,34,180,18,1*59
$GPGSV,4,3,16,194,31,138,29,12,20,141,34,05,19,119,24,10,18,319,31,1*5A
$GPGSV,4,4,16,25,09,176,17,32,09,269,31,13,08,057,18,29,01,196,,1*69
$GPGSV,3,1,09,196,75,065,38,24,73,042,47,199,60,167,36,18,58,246,47,8*60
$GPGSV,3,2,09,23,51,339,39,195,34,180,23,194,31,138,33,10,18,319,31,8*64
$GPGSV,3,3,09,32,09,269,19,8*59
$GLGSV,2,1,08,80,48,076,45,70,40,011,,73,39,159,30,85,35,245,42,1*7A
$GLGSV,2,2,08,86,27,301,44,71,22,314,45,69,13,074,17,79,11,032,,1*7F
$GAGSV,3,1,10,13,56,231,42,08,46,025,24,07,44,303,43,26,32,306,40,7*78
$GAGSV,3,2,10,02,26,085,35,30,26,143,34,15,22,174,13,03,10,064,,7*7C
$GAGSV,3,3,10,25,03,043,,27,01,188,,7*74
$GAGSV,2,1,06,13,56,231,39,08,46,025,21,07,44,303,46,26,32,306,44,1*70
$GAGSV,2,2,06,02,26,085,35,30,26,143,30,1*7C
$GBGSV,4,1,15,38,83,113,42,08,79,004,39,39,71,284,43,13,68,333,40,1*74
$GBGSV,4,2,15,16,66,258,44,06,65,254,38,46,60,111,43,09,50,239,42,1*71
$GBGSV,4,3,15,19,49,345,37,20,43,063,29,36,35,184,24,37,22,047,29,1*79
$GBGSV,4,4,15,35,21,268,39,29,19,211,29,22,12,301,38,1*41
$GBGSV,2,1,08,38,83,113,44,39,71,284,44,46,60,111,46,19,49,345,33,4*79
$GBGSV,2,2,08,20,43,063,21,37,22,047,24,35,21,268,30,22,12,301,38,4*79
$GNACCURACY,2.2*16
$PAIRSAT,1,35,1,0,200,2,0,200,3,0,200,4,0,200,5,0,201,6,0,200,7,0,200,8,0,200,9,0,200,10,0,221,11,0,200,12,0,201,13,0,201,14,0,200,15,0,201,16,0,200,17,0,200,18,0,221,19,0,200,20,0,200,21,0,200,23,0,221,24,0,221,25,0,200,26,0,200,27,0,200,28,0,200,29,0,200,30,0,200,31,0,200,32,0,221,194,0,621,195,0,621,196,0,620,199,0,621*68
$PAIRSAT,2,23,65,0,200,67,0,200,68,0,200,69,0,201,70,0,201,71,0,201,72,0,200,73,0,201,74,0,200,75,0,200,76,0,200,77,0,200,78,0,200,79,0,201,80,0,201,81,0,200,82,0,200,83,0,200,84,0,200,85,0,201,86,0,201,87,0,200,88,0,200*53
$PAIRSAT,3,23,2,0,1221,3,0,1221,4,0,1200,5,0,200,7,0,1221,8,0,1221,9,0,1200,10,0,1200,11,0,1200,12,0,1200,13,0,1221,15,0,1221,19,0,1200,21,0,1200,24,0,1200,25,0,1200,26,0,1221,27,0,1200,30,0,1221,31,0,1200,33,0,1200,34,0,1200,36,0,1200*6A
$PAIRSAT,4,50,1,0,200,2,0,200,3,0,200,4,0,200,5,0,200,6,0,201,7,0,200,8,0,201,9,0,201,10,0,200,11,0,200,12,0,200,13,0,201,14,0,200,15,0,200,16,0,201,19,0,621,20,0,621,21,0,600,22,0,621,23,0,600,24,0,600,25,0,600,26,0,600,27,0,600,28,0,600,29,0,621,30,0,600,31,0,200,32,0,600,33,0,600,34,0,600,35,0,621,36,0,621,37,0,621,38,0,621,39,0,621,40,0,600,41,0,600,42,0,600,43,0,600,44,0,600,45,0,600,46,0,621,56,0,200,57,0,200,58,0,200,59,0,600,60,0,600,61,0,600*41
$PAIRDGP,11,5,10,12,13,15,18,23,24,25,29,32*6B
$GNGGA,112731.200,2500.8159900,N,12132.4715000,E,2,60,0.44,21.23,M,15.25,M,15,3335*4E
$GNRMC,112731.200,A,2500.8159900,N,12132.4715000,E,0.00,287.56,260623,,,D,V*08
$GPHDT,,T*1B
$GNACCURACY,2.2*16
$GNGGA,112731.300,2500.8159900,N,12132.4715000,E,2,59,0.46,21.24,M,15.25,M,15,3335*40
$GNRMC,112731.300,A,2500.8159900,N,12132.4715000,E,0.00,287.56,260623,,,D,V*09
$GPHDT,,T*1B
$GNACCURACY,2.2*16
$GNGGA,112731.400,2500.8159900,N,12132.4715000,E,2,59,0.46,21.25,M,15.25,M,15,3335*46
$GNRMC,112731.400,A,2500.8159900,N,12132.4715000,E,0.00,287.56,260623,,,D,V*0E
$GPHDT,,T*1B
$GNACCURACY,2.2*16
$GNGGA,112731.500,2500.8159900,N,12132.4715000,E,2,60,0.46,21.26,M,15.25,M,15,3335*4E
$GNRMC,112731.500,A,2500.8159900,N,12132.4715000,E,0.00,287.56,260623,,,D,V*0F
$GPHDT,,T*1B
$GNACCURACY,2.4*10
$GNGGA,112731.600,2500.8159800,N,12132.4715000,E,2,60,0.44,21.26,M,15.25,M,15,3335*4E
$GNRMC,112731.600,A,2500.8159800,N,12132.4715000,E,0.00,287.56,260623,,,D,V*0D
$GPHDT,,T*1B
$GNACCURACY,2.2*16
$GNGGA,112731.700,2500.8159800,N,12132.4715000,E,2,60,0.44,21.26,M,15.25,M,15,3335*4F
$GNRMC,112731.700,A,2500.8159800,N,12132.4715000,E,0.00,287.56,260623,,,D,V*0C
$GPHDT,,T*1B
$GNACCURACY,2.2*16
$GNGGA,112731.800,2500.8159800,N,12132.4714900,E,2,61,0.44,21.27,M,15.25,M,15,3335*48
$GNRMC,112731.800,A,2500.8159800,N,12132.4714900,E,0.00,287.56,260623,,,D,V*0B
$GPHDT,,T*1B
$GNACCURACY,2.2*16
$GNGGA,112731.900,2500.8159800,N,12132.4714800,E,2,59,0.46,21.27,M,15.25,M,15,3335*41
$GNRMC,112731.900,A,2500.8159800,N,12132.4714800,E,0.00,287.56,260623,,,D,V*0B
$GPHDT,,T*1B
$GNACCURACY,2.2*16
$GNGGA,112732.000,2500.8159800,N,12132.4714800,E,2,61,0.44,21.28,M,15.25,M,16,3335*4E
$GNRMC,112732.000,A,2500.8159800,N,12132.4714800,E,0.00,287.56,260623,,,D,V*01
$GPHDT,,T*1B
$GNACCURACY,2.2*16
$GNGGA,112732.100,2500.8159800,N,12132.4714800,E,2,60,0.44,21.28,M,15.25,M,16,3335*4E
$GNRMC,112732.100,A,2500.8159800,N,12132.4714800,E,0.00,287.56,260623,,,D,V*00
$GPHDT,,T*1B
$GNGSA,A,3,196,24,199,18,23,15,195,194,12,05,10,,0.82,0.46,0.68,1*04
$GNGSA,A,3,80,73,85,86,71,69,,,,,,,0.82,0.46,0.68,2*02
$GNGSA,A,3,13,08,07,26,02,30,15,,,,,,0.82,0.46,0.68,3*09
$GNGSA,A,3,38,08,39,13,16,06,46,09,19,20,36,35,0.82,0.46,0.68,4*0A
$GNGSA,A,3,29,22,,,,,,,,,,,0.82,0.46,0.68,4*09
$GPGSV,4,1,16,196,75,065,42,24,73,042,40,199,60,167,24,18,58,245,46,1*6B
$GPGSV,4,2,16,23,51,339,35,41,38,242,45,15,37,047,27,195,34,180,18,1*58
$GPGSV,4,3,16,194,31,138,31,12,21,141,33,05,19,119,19,10,18,319,30,1*5A
$GPGSV,4,4,16,25,09,176,16,32,09,269,31,13,08,057,18,29,01,196,,1*68
$GPGSV,3,1,09,196,75,065,38,24,73,042,47,199,60,167,34,18,58,245,47,8*61
$GPGSV,3,2,09,23,51,339,39,195,34,180,24,194,31,138,34,10,18,319,32,8*67
$GPGSV,3,3,09,32,09,269,18,8*58
$GLGSV,2,1,08,80,48,076,45,70,40,011,,73,39,159,29,85,35,245,42,1*72
$GLGSV,2,2,08,86,27,301,44,71,22,314,45,69,13,074,19,79,11,032,,1*71
$GAGSV,3,1,10,13,56,231,42,08,46,025,23,07,44,303,43,26,32,306,41,7*7E
$GAGSV,3,2,10,02,26,085,35,30,26,143,34,15,22,174,13,03,10,064,,7*7C
$GAGSV,3,3,10,25,03,043,,27,01,188,,7*74
$GAGSV,2,1,06,13,56,231,39,08,46,025,20,07,44,303,46,26,32,306,44,1*71
$GAGSV,2,2,06,02,26,085,33,30,26,143,30,1*7A
$GBGSV,4,1,15,38,83,113,42,08,79,004,39,39,71,284,43,13,68,333,40,1*74
$GBGSV,4,2,15,16,66,258,44,06,65,254,38,46,60,111,42,09,50,239,42,1*70
$GBGSV,4,3,15,19,49,345,37,20,43,063,29,36,35,184,23,37,22,047,28,1*7F
$GBGSV,4,4,15,35,21,268,39,29,19,211,28,22,12,301,38,1*40
$GBGSV,3,1,09,38,83,113,44,39,71,284,44,46,60,111,44,19,49,345,32,4*7A
$GBGSV,3,2,09,20,43,063,19,36,35,184,20,37,22,047,26,35,21,268,30,4*76
$GBGSV,3,3,09,22,12,301,38,4*40
$GNACCURACY,2.2*16
$PAIRSAT,1,35,1,0,200,2,0,200,3,0,200,4,0,200,5,0,201,6,0,200,7,0,200,8,0,200,9,0,200,10,0,221,11,0,200,12,0,201,13,0,201,14,0,200,15,0,201,16,0,200,17,0,200,18,0,221,19,0,200,20,0,200,21,0,200,23,0,221,24,0,221,25,0,200,26,0,200,27,0,200,28,0,200,29,0,200,30,0,200,31,0,200,32,0,221,194,0,621,195,0,621,196,0,620,199,0,621*68
$PAIRSAT,2,23,65,0,200,67,0,200,68,0,200,69,0,201,70,0,201,71,0,201,72,0,200,73,0,201,74,0,200,75,0,200,76,0,200,77,0,200,78,0,200,79,0,201,80,0,201,81,0,200,82,0,200,83,0,200,84,0,200,85,0,201,86,0,201,87,0,200,88,0,200*53
$PAIRSAT,3,23,2,0,1221,3,0,1221,4,0,1200,5,0,200,7,0,1221,8,0,1221,9,0,1200,10,0,1200,11,0,1200,12,0,1200,13,0,1221,15,0,1221,19,0,1200,21,0,1200,24,0,1200,25,0,1200,26,0,1221,27,0,1200,30,0,1221,31,0,1200,33,0,1200,34,0,1200,36,0,1200*6A
$PAIRSAT,4,50,1,0,200,2,0,200,3,0,200,4,0,200,5,0,200,6,0,201,7,0,200,8,0,201,9,0,201,10,0,200,11,0,200,12,0,200,13,0,201,14,0,200,15,0,200,16,0,201,19,0,621,20,0,621,21,0,600,22,0,621,23,0,600,24,0,600,25,0,600,26,0,600,27,0,600,28,0,600,29,0,621,30,0,600,31,0,200,32,0,600,33,0,600,34,0,600,35,0,621,36,0,621,37,0,621,38,0,621,39,0,621,40,0,600,41,0,600,42,0,600,43,0,600,44,0,600,45,0,600,46,0,621,56,0,200,57,0,200,58,0,200,59,0,600,60,0,600,61,0,600*41
$PAIRDGP,11,5,10,12,13,15,18,23,24,25,29,32*6B
$GNGGA,112732.200,2500.8159700,N,12132.4714800,E,2,59,0.46,21.28,M,15.25,M,16,3335*4A
$GNRMC,112732.200,A,2500.8159700,N,12132.4714800,E,0.00,287.56,260623,,,D,V*0C
$GPHDT,,T*1B
$GNACCURACY,2.2*16
$GNGGA,112732.300,2500.8159600,N,12132.4714700,E,2,60,0.44,21.28,M,15.25,M,16,3335*4D
$GNRMC,112732.300,A,2500.8159600,N,12132.4714700,E,0.00,287.56,260623,,,D,V*03
$GPHDT,,T*1B
$GNACCURACY,2.2*16
$GNGGA,112732.400,2500.8159600,N,12132.4714700,E,2,60,0.44,21.28,M,15.25,M,16,3335*4A
$GNRMC,112732.400,A,2500.8159600,N,12132.4714700,E,0.00,287.56,260623,,,D,V*04
$GPHDT,,T*1B
$GNACCURACY,2.2*16
$GNGGA,112732.500,2500.8159500,N,12132.4714600,E,2,60,0.44,21.28,M,15.25,M,16,3335*49
$GNRMC,112732.500,A,2500.8159500,N,12132.4714600,E,0.00,287.56,260623,,,D,V*07
$GPHDT,,T*1B
$GNACCURACY,2.2*16
$GNGGA,112732.600,2500.8159500,N,12132.4714500,E,2,59,0.46,21.27,M,15.25,M,16,3335*4E
$GNRMC,112732.600,A,2500.8159500,N,12132.4714500,E,0.00,287.56,260623,,,D,V*07
$GPHDT,,T*1B
$GNACCURACY,2.2*16
$GNGGA,112732.700,2500.8159500,N,12132.4714500,E,2,60,0.44,21.27,M,15.25,M,16,3335*47
$GNRMC,112732.700,A,2500.8159500,N,12132.4714500,E,0.00,287.56,260623,,,D,V*06
$GPHDT,,T*1B
$GNACCURACY,2.2*16
$GNGGA,112732.800,2500.8159400,N,12132.4714500,E,2,58,0.46,21.27,M,15.25,M,16,3335*40
$GNRMC,112732.800,A,2500.8159400,N,12132.4714500,E,0.00,287.56,260623,,,D,V*08
$GPHDT,,T*1B
$GNACCURACY,2.2*16
$GNGGA,112732.900,2500.8159300,N,12132.4714500,E,2,59,0.44,21.27,M,15.25,M,16,3335*45
$GNRMC,112732.900,A,2500.8159300,N,12132.4714500,E,0.00,287.56,260623,,,D,V*0E
$GPHDT,,T*1B
$GNACCURACY,2.2*16
$GNGGA,112733.000,2500.8159300,N,12132.4714500,E,2,59,0.44,21.27,M,15.25,M,17,3335*4C
$GNRMC,112733.000,A,2500.8159300,N,12132.4714500,E,0.00,287.56,260623,,,D,V*06
$GPHDT,,T*1B
$GNACCURACY,2.2*16
$GNGGA,112733.100,2500.8159300,N,12132.4714500,E,2,59,0.44,21.27,M,15.25,M,17,3335*4D
$GNRMC,112733.100,A,2500.8159300,N,12132.4714500,E,0.00,287.56,260623,,,D,V*07
$GPHDT,,T*1B
$GNGSA,A,3,196,24,199,18,23,15,195,194,12,05,10,,0.80,0.44,0.67,1*0B
$GNGSA,A,3,80,73,85,86,71,69,,,,,,,0.80,0.44,0.67,2*0D
$GNGSA,A,3,13,08,07,26,02,30,15,,,,,,0.80,0.44,0.67,3*06
$GNGSA,A,3,38,08,39,13,16,06,46,09,19,20,36,37,0.80,0.44,0.67,4*07
$GNGSA,A,3,35,29,22,,,,,,,,,,0.80,0.44,0.67,4*00
$GPGSV,4,1,16,196,75,065,43,24,73,042,40,199,60,167,21,18,58,245,46,1*6F
$GPGSV,4,2,16,23,51,339,35,41,38,242,45,15,37,047,28,195,34,180,18,1*57
$GPGSV,4,3,16,194,31,138,30,12,21,141,31,05,19,119,21,10,18,319,30,1*52
$GPGSV,4,4,16,25,09,176,16,32,09,269,31,13,08,057,18,29,01,196,,1*68
$GPGSV,3,1,09,196,75,065,40,24,73,042,47,199,60,167,33,18,58,245,47,8*69
$GPGSV,3,2,09,23,51,339,39,195,34,180,22,194,31,138,33,10,18,319,31,8*65
$GPGSV,3,3,09,32,09,269,17,8*57
$GLGSV,2,1,08,80,48,076,45,70,40,011,,73,39,159,28,85,35,245,42,1*73
$GLGSV,2,2,08,86,27,301,44,71,22,314,45,69,13,074,19,79,11,032,,1*71
$GAGSV,3,1,10,13,56,231,42,08,46,025,23,07,44,303,43,26,32,306,41,7*7E
$GAGSV,3,2,10,02,26,085,36,30,26,143,33,15,22,174,13,03,10,064,,7*78
$GAGSV,3,3,10,25,03,043,,27,01,188,,7*74
$GAGSV,2,1,06,13,56,231,39,08,46,025,19,07,44,303,46,26,32,306,44,1*7B
$GAGSV,2,2,06,02,26,085,37,30,26,143,29,1*76
$GBGSV,4,1,15,38,83,113,42,08,79,004,39,39,71,284,43,13,68,333,40,1*74
$GBGSV,4,2,15,16,66,258,44,06,65,254,38,46,60,111,40,09,50,239,42,1*72
$GBGSV,4,3,15,19,49,345,37,20,43,063,28,36,35,184,25,37,22,047,28,1*78
$GBGSV,4,4,15,35,21,268,39,29,19,211,26,22,12,301,38,1*4E
$GBGSV,2,1,08,38,83,113,44,39,71,284,43,46,60,111,42,19,49,345,32,4*7B
$GBGSV,2,2,08,20,43,063,20,37,22,047,24,35,21,268,29,22,12,301,38,4*70
$GNACCURACY,2.2*16
$PAIRSAT,1,35,1,0,200,2,0,200,3,0,200,4,0,200,5,0,201,6,0,200,7,0,200,8,0,200,9,0,200,10,0,221,11,0,200,12,0,201,13,0,201,14,0,200,15,0,201,16,0,200,17,0,200,18,0,221,19,0,200,20,0,200,21,0,200,23,0,221,24,0,221,25,0,200,26,0,200,27,0,200,28,0,200,29,0,200,30,0,200,31,0,200,32,0,221,194,0,621,195,0,621,196,0,620,199,0,621*68
$PAIRSAT,2,23,65,0,200,67,0,200,68,0,200,69,0,201,70,0,201,71,0,201,72,0,200,73,0,201,74,0,200,75,0,200,76,0,200,77,0,200,78,0,200,79,0,201,80,0,201,81,0,200,82,0,200,83,0,200,84,0,200,85,0,201,86,0,201,87,0,200,88,0,200*53
$PAIRSAT,3,23,2,0,1221,3,0,1221,4,0,1200,5,0,200,7,0,1221,8,0,1221,9,0,1200,10,0,1200,11,0,1200,12,0,1200,13,0,1221,15,0,1221,19,0,1200,21,0,1200,24,0,1200,25,0,1200,26,0,1221,27,0,1200,30,0,1221,31,0,1200,33,0,1200,34,0,1200,36,0,1200*6A
$PAIRSAT,4,50,1,0,200,2,0,200,3,0,200,4,0,200,5,0,200,6,0,201,7,0,200,8,0,201,9,0,201,10,0,200,11,0,200,12,0,200,13,0,201,14,0,200,15,0,200,16,0,201,19,0,621,20,0,621,21,0,600,22,0,621,23,0,600,24,0,600,25,0,600,26,0,600,27,0,600,28,0,600,29,0,621,30,0,600,31,0,200,32,0,600,33,0,600,34,0,600,35,0,621,36,0,621,37,0,621,38,0,621,39,0,621,40,0,600,41,0,600,42,0,600,43,0,600,44,0,600,45,0,600,46,0,621,56,0,200,57,0,200,58,0,200,59,0,600,60,0,600,61,0,600*41
$PAIRDGP,11,5,10,12,13,15,18,23,24,25,29,32*6B
$GNGGA,112733.200,2500.8159200,N,12132.4714500,E,2,59,0.44,21.28,M,15.25,M,17,3335*40
$GNRMC,112733.200,A,2500.8159200,N,12132.4714500,E,0.00,287.56,260623,,,D,V*05
$GPHDT,,T*1B
$GNACCURACY,2.2*16
$GNGGA,112733.300,2500.8159200,N,12132.4714500,E,2,58,0.44,21.28,M,15.25,M,17,3335*40
$GNRMC,112733.300,A,2500.8159200,N,12132.4714500,E,0.00,287.56,260623,,,D,V*04
$GPHDT,,T*1B
$GNACCURACY,2.3*17
$GNGGA,112733.400,2500.8159200,N,12132.4714500,E,2,59,0.44,21.28,M,15.25,M,17,3335*46
$GNRMC,112733.400,A,2500.8159200,N,12132.4714500,E,0.00,287.56,260623,,,D,V*03
$GPHDT,,T*1B
$GNACCURACY,2.2*16
$GNGGA,112733.500,2500.8159200,N,12132.4714500,E,2,59,0.44,21.28,M,15.25,M,17,3335*47
$GNRMC,112733.500,A,2500.8159200,N,12132.4714500,E,0.00,287.56,260623,,,D,V*02
$GPHDT,,T*1B
$GNACCURACY,2.3*17
$GNGGA,112733.600,2500.8159100,N,12132.4714500,E,2,58,0.44,21.28,M,15.25,M,17,3335*46
$GNRMC,112733.600,A,2500.8159100,N,12132.4714500,E,0.00,287.56,260623,,,D,V*02
$GPHDT,,T*1B
$GNACCURACY,2.2*16
$GNGGA,112733.700,2500.8159100,N,12132.4714500,E,2,57,0.46,21.28,M,15.25,M,17,3335*4A
$GNRMC,112733.700,A,2500.8159100,N,12132.4714500,E,0.00,287.56,260623,,,D,V*03
$GPHDT,,T*1B
$GNACCURACY,2.2*16
$GNGGA,112733.800,2500.8159000,N,12132.4714400,E,2,58,0.44,21.28,M,15.25,M,17,3335*48
$GNRMC,112733.800,A,2500.8159000,N,12132.4714400,E,0.00,287.56,260623,,,D,V*0C
$GPHDT,,T*1B
$GNACCURACY,2.3*17
$GNGGA,112733.900,2500.8159000,N,12132.4714400,E,2,59,0.44,21.28,M,15.25,M,17,3335*48
$GNRMC,112733.900,A,2500.8159000,N,12132.4714400,E,0.00,287.56,260623,,,D,V*0D
$GPHDT,,T*1B
$GNACCURACY,2.3*17
$GNGGA,112734.000,2500.8159000,N,12132.4714400,E,2,58,0.46,21.28,M,15.25,M,18,3335*4A
$GNRMC,112734.000,A,2500.8159000,N,12132.4714400,E,0.00,287.56,260623,,,D,V*03
$GPHDT,,T*1B
