$FW : RTK35X,V1.1X0314AS,Lib20210517,1*54
$Tool : LOCOSYS , GNSS Firebird , v1.0.0.19*39
$---------------------------------------------------*2D
$GNACCURACY,2.4*10
$GNGGA,112631.900,2500.8153100,N,12132.4714700,E,2,63,0.42,18.99,M,15.25,M,15,3335*4E
$GNRMC,112631.900,A,2500.8153100,N,12132.4714700,E,0.04,287.56,260623,,,D,V*02
$GPHDT,,T*1B
$GNACCURACY,2.4*10
$GNGGA,112632.000,2500.8153200,N,12132.4714800,E,2,63,0.42,18.99,M,15.25,M,16,3335*4B
$GNRMC,112632.000,A,2500.8153200,N,12132.4714800,E,0.04,287.56,260623,,,D,V*04
$GPHDT,,T*1B
$GNACCURACY,2.4*10
$GNGGA,112632.100,2500.8153300,N,12132.4714800,E,2,63,0.42,18.99,M,15.25,M,16,3335*4B
$GNRMC,112632.100,A,2500.8153300,N,12132.4714800,E,0.04,287.56,260623,,,D,V*04
$GPHDT,,T*1B
$GNGSA,A,3,196,24,199,18,23,15,195,194,12,05,10,,0.69,0.42,0.54,1*0A
$GNGSA,A,3,80,70,73,85,86,71,69,79,,,,,0.69,0.42,0.54,2*05
$GNGSA,A,3,13,08,07,26,30,02,15,,,,,,0.69,0.42,0.54,3*07
$GNGSA,A,3,38,08,39,13,16,06,46,09,19,20,36,37,0.69,0.42,0.54,4*06
$GNGSA,A,3,35,29,22,,,,,,,,,,0.69,0.42,0.54,4*01
$GPGSV,4,1,16,196,75,065,43,24,74,043,42,199,60,167,23,18,59,246,42,1*6F
$GPGSV,4,2,16,23,51,338,34,41,38,242,43,15,37,047,33,195,34,180,24,1*54
$GPGSV,4,3,16,194,31,138,24,12,20,141,36,05,19,119,35,10,18,319,30,1*54
$GPGSV,4,4,16,25,09,176,15,32,09,269,21,13,08,057,17,29,01,196,,1*65
$GPGSV,3,1,09,196,75,065,39,24,74,043,45,199,60,167,38,18,59,246,39,8*63
$GPGSV,3,2,09,23,51,338,35,195,34,180,25,194,31,138,32,10,18,319,35,8*6A
$GPGSV,3,3,09,32,09,269,26,8*55
$GLGSV,2,1,08,80,48,077,44,70,40,010,18,73,38,159,23,85,35,246,41,1*71
$GLGSV,2,2,08,86,27,302,37,71,22,314,41,69,13,074,23,79,11,032,18,1*72
$GAGSV,3,1,09,13,56,232,41,08,46,025,17,07,44,303,36,26,32,307,35,7*71
$GAGSV,3,2,09,30,26,143,32,02,26,085,37,15,23,174,16,03,10,064,,7*74
$GAGSV,3,3,09,25,03,043,,7*49
$GAGSV,2,1,07,13,56,232,39,08,46,025,14,07,44,303,41,26,32,307,39,1*78
$GAGSV,2,2,07,02,26,085,38,30,26,143,34,15,23,174,23,1*42
$GBGSV,4,1,15,38,83,110,41,08,79,004,40,39,71,283,41,13,68,334,38,1*77
$GBGSV,4,2,15,16,66,258,34,06,65,253,36,46,60,112,44,09,50,238,40,1*78
$GBGSV,4,3,15,19,49,345,31,20,43,063,31,36,35,184,24,37,23,047,33,1*7C
$GBGSV,4,4,15,35,21,269,27,29,19,212,32,22,11,301,38,1*45
$GBGSV,2,1,07,38,83,110,44,39,71,283,41,46,60,112,45,19,49,345,26,4*73
$GBGSV,2,2,07,37,23,047,20,35,21,269,32,22,11,301,38,4*40
$GNACCURACY,2.4*10
$PAIRSAT,1,35,1,0,200,2,0,200,3,0,200,4,0,200,5,0,201,6,0,200,7,0,200,8,0,200,9,0,200,10,0,221,11,0,200,12,0,201,13,0,201,14,0,200,15,0,201,16,0,200,17,0,200,18,0,221,19,0,200,20,0,200,21,0,200,23,0,221,24,0,221,25,0,200,26,0,200,27,0,200,28,0,200,29,0,200,30,0,200,31,0,200,32,0,221,194,0,621,195,0,621,196,0,620,199,0,621*68
$PAIRSAT,2,23,65,0,200,67,0,200,68,0,200,69,0,201,70,0,201,71,0,201,72,0,200,73,0,201,74,0,200,75,0,200,76,0,200,77,0,200,78,0,200,79,0,201,80,0,201,81,0,200,82,0,200,83,0,200,84,0,200,85,0,201,86,0,201,87,0,200,88,0,200*53
$PAIRSAT,3,23,2,0,1221,3,0,1221,4,0,1200,5,0,200,7,0,1221,8,0,1221,9,0,1200,10,0,1200,11,0,1200,12,0,1200,13,0,1221,15,0,1221,19,0,1200,21,0,1200,24,0,1200,25,0,1200,26,0,1221,27,0,1200,30,0,1221,31,0,1200,33,0,1200,34,0,1200,36,0,1200*6A
$PAIRSAT,4,50,1,0,200,2,0,200,3,0,200,4,0,200,5,0,200,6,0,201,7,0,200,8,0,201,9,0,201,10,0,200,11,0,200,12,0,200,13,0,201,14,0,200,15,0,200,16,0,201,19,0,621,20,0,621,21,0,600,22,0,621,23,0,600,24,0,600,25,0,600,26,0,600,27,0,600,28,0,600,29,0,621,30,0,600,31,0,200,32,0,600,33,0,600,34,0,600,35,0,621,36,0,621,37,0,621,38,0,621,39,0,621,40,0,600,41,0,600,42,0,600,43,0,600,44,0,600,45,0,600,46,0,621,56,0,200,57,0,200,58,0,200,59,0,600,60,0,600,61,0,600*41
$PAIRDGP,11,5,10,12,13,15,18,23,24,25,29,32*6B
$GNGGA,112632.200,2500.8153500,N,12132.4714800,E,2,62,0.42,18.99,M,15.25,M,16,3335*4F
$GNRMC,112632.200,A,2500.8153500,N,12132.4714800,E,0.04,287.56,260623,,,D,V*01
$GPHDT,,T*1B
$GNACCURACY,2.4*10
$GNGGA,112632.300,2500.8153500,N,12132.4714900,E,2,62,0.42,18.99,M,15.25,M,16,3335*4F
$GNRMC,112632.300,A,2500.8153500,N,12132.4714900,E,0.04,287.56,260623,,,D,V*01
$GPHDT,,T*1B
$GNACCURACY,2.4*10
$GNGGA,112632.400,2500.8153600,N,12132.4715000,E,2,62,0.42,18.98,M,15.25,M,16,3335*42
$GNRMC,112632.400,A,2500.8153600,N,12132.4715000,E,0.03,287.56,260623,,,D,V*0A
$GPHDT,,T*1B
$GNACCURACY,2.4*10
$GNGGA,112632.500,2500.8153800,N,12132.4715100,E,2,62,0.42,18.98,M,15.25,M,16,3335*4C
$GNRMC,112632.500,A,2500.8153800,N,12132.4715100,E,0.04,287.56,260623,,,D,V*03
$GPHDT,,T*1B
$GNACCURACY,2.4*10
$GNGGA,112632.600,2500.8153900,N,12132.4715100,E,2,62,0.42,18.98,M,15.25,M,16,3335*4E
$GNRMC,112632.600,A,2500.8153900,N,12132.4715100,E,0.04,287.56,260623,,,D,V*01
$GPHDT,,T*1B
$GNACCURACY,2.4*10
$GNGGA,112632.700,2500.8154000,N,12132.4715100,E,2,62,0.42,18.97,M,15.25,M,16,3335*4E
$GNRMC,112632.700,A,2500.8154000,N,12132.4715100,E,0.04,287.56,260623,,,D,V*0E
$GPHDT,,T*1B
$GNACCURACY,2.4*10
$GNGGA,112632.800,2500.8154100,N,12132.4715200,E,2,62,0.42,18.97,M,15.25,M,16,3335*43
$GNRMC,112632.800,A,2500.8154100,N,12132.4715200,E,0.04,287.56,260623,,,D,V*03
$GPHDT,,T*1B
$GNACCURACY,2.4*10
$GNGGA,112632.900,2500.8154200,N,12132.4715300,E,2,63,0.42,18.96,M,15.25,M,16,3335*40
$GNRMC,112632.900,A,2500.8154200,N,12132.4715300,E,0.04,287.56,260623,,,D,V*00
$GPHDT,,T*1B
$GNACCURACY,2.4*10
$GNGGA,112633.000,2500.8154200,N,12132.4715300,E,2,63,0.42,18.96,M,15.25,M,17,3335*49
$GNRMC,112633.000,A,2500.8154200,N,12132.4715300,E,0.03,287.56,260623,,,D,V*0F
$GPHDT,,T*1B
$GNACCURACY,2.4*10
$GNGGA,112633.100,2500.8154400,N,12132.4715300,E,2,63,0.42,18.96,M,15.25,M,17,3335*4E
$GNRMC,112633.100,A,2500.8154400,N,12132.4715300,E,0.03,287.56,260623,,,D,V*08
$GPHDT,,T*1B
$GNGSA,A,3,196,24,199,18,23,15,195,194,12,05,10,,0.69,0.42,0.54,1*0A
$GNGSA,A,3,80,70,73,85,86,71,69,79,,,,,0.69,0.42,0.54,2*05
$GNGSA,A,3,13,08,07,26,30,02,15,,,,,,0.69,0.42,0.54,3*07
$GNGSA,A,3,38,08,39,13,16,06,46,09,19,20,36,37,0.69,0.42,0.54,4*06
$GNGSA,A,3,35,29,22,,,,,,,,,,0.69,0.42,0.54,4*01
$GPGSV,4,1,16,196,75,065,43,24,74,043,42,199,60,167,23,18,59,246,42,1*6F
$GPGSV,4,2,16,23,51,338,34,41,38,242,36,15,37,047,33,195,34,180,23,1*51
$GPGSV,4,3,16,194,31,138,26,12,20,141,36,05,19,119,34,10,18,319,28,1*5E
$GPGSV,4,4,16,25,09,176,15,32,09,269,23,13,08,057,18,29,01,196,,1*68
$GPGSV,3,1,09,196,75,065,40,24,74,043,45,199,60,167,37,18,59,246,44,8*68
$GPGSV,3,2,09,23,51,338,36,195,34,180,24,194,31,138,30,10,18,319,32,8*6D
$GPGSV,3,3,09,32,09,269,25,8*56
$GLGSV,2,1,08,80,48,077,44,70,40,010,16,73,38,159,25,85,35,246,38,1*77
$GLGSV,2,2,08,86,27,302,35,71,22,314,40,69,13,074,23,79,11,032,19,1*70
$GAGSV,3,1,09,13,56,232,37,08,46,025,17,07,44,303,36,26,32,307,36,7*73
$GAGSV,3,2,09,30,26,143,32,02,26,085,37,15,23,174,16,03,10,064,,7*74
$GAGSV,3,3,09,25,03,043,,7*49
$GAGSV,2,1,07,13,56,232,34,08,46,025,15,07,44,303,40,26,32,307,36,1*7A
$GAGSV,2,2,07,02,26,085,38,30,26,143,33,15,23,174,22,1*44
$GBGSV,4,1,15,38,83,110,42,08,79,004,38,39,71,283,43,13,68,334,38,1*79
$GBGSV,4,2,15,16,66,258,34,06,65,253,36,46,60,112,44,09,50,238,34,1*7B
$GBGSV,4,3,15,19,49,345,32,20,43,063,31,36,35,184,25,37,23,047,33,1*7E
$GBGSV,4,4,15,35,21,269,25,29,19,212,32,22,11,301,35,1*4A
$GBGSV,2,1,08,38,83,110,44,39,71,283,42,46,60,112,45,19,49,345,27,4*7E
$GBGSV,2,2,08,36,35,184,21,37,23,047,20,35,21,269,33,22,11,301,33,4*78
$GNACCURACY,2.4*10
$PAIRSAT,1,35,1,0,200,2,0,200,3,0,200,4,0,200,5,0,201,6,0,200,7,0,200,8,0,200,9,0,200,10,0,221,11,0,200,12,0,201,13,0,201,14,0,200,15,0,201,16,0,200,17,0,200,18,0,221,19,0,200,20,0,200,21,0,200,23,0,221,24,0,221,25,0,200,26,0,200,27,0,200,28,0,200,29,0,200,30,0,200,31,0,200,32,0,221,194,0,621,195,0,621,196,0,620,199,0,621*68
$PAIRSAT,2,23,65,0,200,67,0,200,68,0,200,69,0,201,70,0,201,71,0,201,72,0,200,73,0,201,74,0,200,75,0,200,76,0,200,77,0,200,78,0,200,79,0,201,80,0,201,81,0,200,82,0,200,83,0,200,84,0,200,85,0,201,86,0,201,87,0,200,88,0,200*53
$PAIRSAT,3,23,2,0,1221,3,0,1221,4,0,1200,5,0,200,7,0,1221,8,0,1221,9,0,1200,10,0,1200,11,0,1200,12,0,1200,13,0,1221,15,0,1221,19,0,1200,21,0,1200,24,0,1200,25,0,1200,26,0,1221,27,0,1200,30,0,1221,31,0,1200,33,0,1200,34,0,1200,36,0,1200*6A
$PAIRSAT,4,50,1,0,200,2,0,200,3,0,200,4,0,200,5,0,200,6,0,201,7,0,200,8,0,201,9,0,201,10,0,200,11,0,200,12,0,200,13,0,201,14,0,200,15,0,200,16,0,201,19,0,621,20,0,621,21,0,600,22,0,621,23,0,600,24,0,600,25,0,600,26,0,600,27,0,600,28,0,600,29,0,621,30,0,600,31,0,200,32,0,600,33,0,600,34,0,600,35,0,621,36,0,621,37,0,621,38,0,621,39,0,621,40,0,600,41,0,600,42,0,600,43,0,600,44,0,600,45,0,600,46,0,621,56,0,200,57,0,200,58,0,200,59,0,600,60,0,600,61,0,600*41
$PAIRDGP,11,5,10,12,13,15,18,23,24,25,29,32*6B
$GNGGA,112633.200,2500.8154400,N,12132.4715300,E,2,63,0.42,18.95,M,15.25,M,17,3335*4E
$GNRMC,112633.200,A,2500.8154400,N,12132.4715300,E,0.03,287.56,260623,,,D,V*0B
$GPHDT,,T*1B
$GNACCURACY,2.4*10
$GNGGA,112633.300,2500.8154500,N,12132.4715400,E,2,63,0.42,18.95,M,15.25,M,17,3335*49
$GNRMC,112633.300,A,2500.8154500,N,12132.4715400,E,0.03,287.56,260623,,,D,V*0C
$GPHDT,,T*1B
$GNACCURACY,2.4*10
$GNGGA,112633.400,2500.8154700,N,12132.4715500,E,2,62,0.42,18.95,M,15.25,M,17,3335*4C
$GNRMC,112633.400,A,2500.8154700,N,12132.4715500,E,0.02,287.56,260623,,,D,V*09
$GPHDT,,T*1B
$GNACCURACY,2.4*10
$GNGGA,112633.500,2500.8154800,N,12132.4715700,E,2,62,0.42,18.95,M,15.25,M,17,3335*40
$GNRMC,112633.500,A,2500.8154800,N,12132.4715700,E,0.02,287.56,260623,,,D,V*05
$GPHDT,,T*1B
$GNACCURACY,2.4*10
$GNGGA,112633.600,2500.8155000,N,12132.4715800,E,2,61,0.42,18.96,M,15.25,M,17,3335*45
$GNRMC,112633.600,A,2500.8155000,N,12132.4715800,E,0.02,287.56,260623,,,D,V*00
$GPHDT,,T*1B
$GNACCURACY,2.4*10
$GNGGA,112633.700,2500.8155100,N,12132.4715900,E,2,61,0.42,18.96,M,15.25,M,17,3335*44
$GNRMC,112633.700,A,2500.8155100,N,12132.4715900,E,0.01,287.56,260623,,,D,V*02
$GPHDT,,T*1B
$GNACCURACY,2.4*10
$GNGGA,112633.800,2500.8155300,N,12132.4716000,E,2,63,0.42,18.97,M,15.25,M,17,3335*40
$GNRMC,112633.800,A,2500.8155300,N,12132.4716000,E,0.00,287.56,260623,,,D,V*04
$GPHDT,,T*1B
$GNACCURACY,2.4*10
$GNGGA,112633.900,2500.8155400,N,12132.4716100,E,2,61,0.43,18.97,M,15.25,M,17,3335*44
$GNRMC,112633.900,A,2500.8155400,N,12132.4716100,E,0.02,287.56,260623,,,D,V*01
$GPHDT,,T*1B
$GNACCURACY,2.4*10
$GNGGA,112634.000,2500.8155600,N,12132.4716300,E,2,63,0.42,18.98,M,15.25,M,18,3335*49
$GNRMC,112634.000,A,2500.8155600,N,12132.4716300,E,0.01,287.56,260623,,,D,V*0C
$GPHDT,,T*1B
$GNACCURACY,2.4*10
$GNGGA,112634.100,2500.8155700,N,12132.4716400,E,2,63,0.42,18.98,M,15.25,M,18,3335*4E
$GNRMC,112634.100,A,2500.8155700,N,12132.4716400,E,0.02,287.56,260623,,,D,V*08
$GPHDT,,T*1B
$GNGSA,A,3,196,24,199,18,23,15,195,194,12,05,10,,0.69,0.42,0.54,1*0A
$GNGSA,A,3,80,70,73,85,86,71,69,79,,,,,0.69,0.42,0.54,2*05
$GNGSA,A,3,13,08,07,26,30,02,15,,,,,,0.69,0.42,0.54,3*07
$GNGSA,A,3,38,08,39,13,16,06,46,09,19,20,36,37,0.69,0.42,0.54,4*06
$GNGSA,A,3,35,29,22,,,,,,,,,,0.69,0.42,0.54,4*01
$GPGSV,4,1,16,196,75,065,43,24,74,043,42,199,60,167,23,18,59,246,44,1*69
$GPGSV,4,2,16,23,51,338,33,41,38,242,36,15,37,047,33,195,34,180,22,1*57
$GPGSV,4,3,16,194,31,138,25,12,20,141,35,05,19,119,34,10,18,319,27,1*51
$GPGSV,4,4,16,25,09,176,14,32,09,269,25,13,08,057,19,29,01,196,,1*6E
$GPGSV,3,1,09,196,75,065,39,24,74,043,45,199,60,167,38,18,59,246,41,8*6C
$GPGSV,3,2,09,23,51,338,35,195,34,180,25,194,31,138,32,10,18,319,35,8*6A
$GPGSV,3,3,09,32,09,269,19,8*59
$GLGSV,2,1,08,80,48,077,45,70,40,010,16,73,38,159,24,85,35,246,37,1*78
$GLGSV,2,2,08,86,27,302,33,71,22,314,42,69,13,074,24,79,11,032,15,1*7F
$GAGSV,3,1,09,13,56,232,40,08,46,025,16,07,44,303,42,26,32,307,36,7*71
$GAGSV,3,2,09,30,26,143,32,02,26,085,37,15,23,174,14,03,10,064,,7*76
$GAGSV,3,3,09,25,03,043,,7*49
$GAGSV,2,1,07,13,56,232,37,08,46,025,15,07,44,303,43,26,32,307,40,1*7B
$GAGSV,2,2,07,02,26,085,38,30,26,143,33,15,23,174,22,1*44
$GBGSV,4,1,15,38,83,110,42,08,79,004,40,39,71,283,43,13,68,334,38,1*76
$GBGSV,4,2,15,16,66,258,39,06,65,253,37,46,60,112,44,09,50,238,38,1*7B
$GBGSV,4,3,15,19,49,345,31,20,43,063,30,36,35,184,25,37,23,047,32,1*7D
$GBGSV,4,4,15,35,21,269,23,29,19,212,32,22,11,301,36,1*4F
$GBGSV,2,1,08,38,83,110,45,39,71,283,43,46,60,112,46,19,49,345,27,4*7D
$GBGSV,2,2,08,36,35,184,19,37,23,047,21,35,21,269,29,22,11,301,27,4*7C
$GNACCURACY,2.4*10
$PAIRSAT,1,35,1,0,200,2,0,200,3,0,200,4,0,200,5,0,201,6,0,200,7,0,200,8,0,200,9,0,200,10,0,221,11,0,200,12,0,201,13,0,201,14,0,200,15,0,201,16,0,200,17,0,200,18,0,221,19,0,200,20,0,200,21,0,200,23,0,221,24,0,221,25,0,200,26,0,200,27,0,200,28,0,200,29,0,200,30,0,200,31,0,200,32,0,221,194,0,621,195,0,621,196,0,620,199,0,621*68
$PAIRSAT,2,23,65,0,200,67,0,200,68,0,200,69,0,201,70,0,201,71,0,201,72,0,200,73,0,201,74,0,200,75,0,200,76,0,200,77,0,200,78,0,200,79,0,201,80,0,201,81,0,200,82,0,200,83,0,200,84,0,200,85,0,201,86,0,201,87,0,200,88,0,200*53
$PAIRSAT,3,23,2,0,1221,3,0,1221,4,0,1200,5,0,200,7,0,1221,8,0,1221,9,0,1200,10,0,1200,11,0,1200,12,0,1200,13,0,1221,15,0,1221,19,0,1200,21,0,1200,24,0,1200,25,0,1200,26,0,1221,27,0,1200,30,0,1221,31,0,1200,33,0,1200,34,0,1200,36,0,1200*6A
$PAIRSAT,4,50,1,0,200,2,0,200,3,0,200,4,0,200,5,0,200,6,0,201,7,0,200,8,0,201,9,0,201,10,0,200,11,0,200,12,0,200,13,0,201,14,0,200,15,0,200,16,0,201,19,0,621,20,0,621,21,0,600,22,0,621,23,0,600,24,0,600,25,0,600,26,0,600,27,0,600,28,0,600,29,0,621,30,0,600,31,0,200,32,0,600,33,0,600,34,0,600,35,0,621,36,0,621,37,0,621,38,0,621,39,0,621,40,0,600,41,0,600,42,0,600,43,0,600,44,0,600,45,0,600,46,0,621,56,0,200,57,0,200,58,0,200,59,0,600,60,0,600,61,0,600*41
$PAIRDGP,11,5,10,12,13,15,18,23,24,25,29,32*6B
$GNGGA,112634.200,2500.8155900,N,12132.4716600,E,2,63,0.42,18.99,M,15.25,M,18,3335*40
$GNRMC,112634.200,A,2500.8155900,N,12132.4716600,E,0.01,287.56,260623,,,D,V*04
$GPHDT,,T*1B
$GNACCURACY,2.4*10
$GNGGA,112634.300,2500.8156100,N,12132.4716700,E,2,63,0.42,18.99,M,15.25,M,18,3335*4B
$GNRMC,112634.300,A,2500.8156100,N,12132.4716700,E,0.03,287.56,260623,,,D,V*0D
$GPHDT,,T*1B
$GNACCURACY,2.4*10
$GNGGA,112634.400,2500.8156200,N,12132.4716900,E,2,63,0.42,18.99,M,15.25,M,18,3335*41
$GNRMC,112634.400,A,2500.8156200,N,12132.4716900,E,0.03,287.56,260623,,,D,V*07
$GPHDT,,T*1B
$GNACCURACY,2.4*10
$GNGGA,112634.500,2500.8156300,N,12132.4717000,E,2,63,0.42,19.00,M,15.25,M,18,3335*48
$GNRMC,112634.500,A,2500.8156300,N,12132.4717000,E,0.01,287.56,260623,,,D,V*0D
$GPHDT,,T*1B
$GNACCURACY,2.4*10
$GNGGA,112634.600,2500.8156500,N,12132.4717100,E,2,63,0.42,19.00,M,15.25,M,18,3335*4C
$GNRMC,112634.600,A,2500.8156500,N,12132.4717100,E,0.02,287.56,260623,,,D,V*0A
$GPHDT,,T*1B
$GNACCURACY,2.4*10
$GNGGA,112634.700,2500.8156600,N,12132.4717200,E,2,62,0.42,19.00,M,15.25,M,18,3335*4C
$GNRMC,112634.700,A,2500.8156600,N,12132.4717200,E,0.02,287.56,260623,,,D,V*0B
$GPHDT,,T*1B
$GNACCURACY,2.4*10
$GNGGA,112634.800,2500.8156600,N,12132.4717400,E,2,62,0.42,19.01,M,15.25,M,18,3335*44
$GNRMC,112634.800,A,2500.8156600,N,12132.4717400,E,0.03,287.56,260623,,,D,V*03
$GPHDT,,T*1B
$GNACCURACY,2.4*10
$GNGGA,112634.900,2500.8156800,N,12132.4717500,E,2,61,0.42,19.01,M,15.25,M,18,3335*49
$GNRMC,112634.900,A,2500.8156800,N,12132.4717500,E,0.03,287.56,260623,,,D,V*0D
$GPHDT,,T*1B
$GNACCURACY,2.4*10
$GNGGA,112635.000,2500.8156900,N,12132.4717700,E,2,60,0.42,19.01,M,15.25,M,19,3335*42
$GNRMC,112635.000,A,2500.8156900,N,12132.4717700,E,0.03,287.56,260623,,,D,V*06
$GPHDT,,T*1B
$GNACCURACY,2.4*10
$GNGGA,112635.100,2500.8157000,N,12132.4717800,E,2,60,0.42,19.02,M,15.25,M,19,3335*47
$GNRMC,112635.100,A,2500.8157000,N,12132.4717800,E,0.01,287.56,260623,,,D,V*02
$GPHDT,,T*1B
$GNGSA,A,3,196,24,199,18,23,15,195,194,12,05,10,,0.69,0.42,0.54,1*0A
$GNGSA,A,3,80,70,73,85,86,71,69,79,,,,,0.69,0.42,0.54,2*05
$GNGSA,A,3,13,08,07,26,02,30,15,,,,,,0.69,0.42,0.54,3*07
$GNGSA,A,3,38,08,39,13,16,06,46,09,19,20,36,37,0.69,0.42,0.54,4*06
$GNGSA,A,3,35,29,22,,,,,,,,,,0.69,0.42,0.54,4*01
$GPGSV,4,1,16,196,75,065,43,24,74,043,42,199,60,167,24,18,59,246,44,1*6E
$GPGSV,4,2,16,23,51,338,33,41,38,242,36,15,37,047,33,195,34,180,22,1*57
$GPGSV,4,3,16,194,31,138,26,12,20,141,35,05,19,119,34,10,18,319,25,1*50
$GPGSV,4,4,16,25,09,176,14,32,09,269,27,13,08,057,20,29,01,196,,1*66
$GPGSV,3,1,09,196,75,065,40,24,74,043,45,199,60,167,39,18,59,246,41,8*63
$GPGSV,3,2,09,23,51,338,35,195,34,180,25,194,31,138,32,10,18,319,36,8*69
$GPGSV,3,3,09,32,09,269,18,8*58
$GLGSV,3,1,09,80,48,076,44,70,40,010,15,73,38,159,26,85,35,246,35,1*7B
$GLGSV,3,2,09,86,27,302,33,71,22,314,42,69,13,074,26,79,11,032,15,1*7D
$GLGSV,3,3,09,84,08,190,,1*4D
$GAGSV,3,1,09,13,56,232,41,08,46,025,13,07,44,303,42,26,32,307,36,7*75
$GAGSV,3,2,09,02,26,085,37,30,26,143,32,15,23,174,15,03,10,064,,7*77
$GAGSV,3,3,09,25,03,043,,7*49
$GAGSV,2,1,06,13,56,232,37,07,44,303,45,26,32,307,40,02,26,085,39,1*74
$GAGSV,2,2,06,30,26,143,33,15,23,174,22,1*75
$GBGSV,4,1,15,38,83,110,42,08,79,004,40,39,71,283,43,13,68,334,37,1*79
$GBGSV,4,2,15,16,66,258,39,06,65,253,37,46,60,112,44,09,50,238,38,1*7B
$GBGSV,4,3,15,19,49,345,31,20,43,063,30,36,35,184,26,37,23,047,32,1*7E
$GBGSV,4,4,15,35,21,269,25,29,19,212,31,22,11,301,36,1*4A
$GBGSV,2,1,06,38,83,110,45,39,71,283,43,46,60,112,46,19,49,345,28,4*7C
$GBGSV,2,2,06,35,21,269,28,22,11,301,23,4*74
$GNACCURACY,2.4*10
$PAIRSAT,1,35,1,0,200,2,0,200,3,0,200,4,0,200,5,0,201,6,0,200,7,0,200,8,0,200,9,0,200,10,0,221,11,0,200,12,0,201,13,0,201,14,0,200,15,0,201,16,0,200,17,0,200,18,0,221,19,0,200,20,0,200,21,0,200,23,0,221,24,0,221,25,0,200,26,0,200,27,0,200,28,0,200,29,0,200,30,0,200,31,0,200,32,0,221,194,0,621,195,0,621,196,0,620,199,0,621*68
$PAIRSAT,2,23,65,0,200,67,0,200,68,0,200,69,0,201,70,0,201,71,0,201,72,0,200,73,0,201,74,0,200,75,0,200,76,0,200,77,0,200,78,0,200,79,0,201,80,0,201,81,0,200,82,0,200,83,0,200,84,0,200,85,0,201,86,0,201,87,0,200,88,0,200*53
$PAIRSAT,3,23,2,0,1221,3,0,1221,4,0,1200,5,0,200,7,0,1221,8,0,1221,9,0,1200,10,0,1200,11,0,1200,12,0,1200,13,0,1221,15,0,1221,19,0,1200,21,0,1200,24,0,1200,25,0,1200,26,0,1221,27,0,1200,30,0,1221,31,0,1200,33,0,1200,34,0,1200,36,0,1200*6A
$PAIRSAT,4,50,1,0,200,2,0,200,3,0,200,4,0,200,5,0,200,6,0,201,7,0,200,8,0,201,9,0,201,10,0,200,11,0,200,12,0,200,13,0,201,14,0,200,15,0,200,16,0,201,19,0,621,20,0,621,21,0,600,22,0,621,23,0,600,24,0,600,25,0,600,26,0,600,27,0,600,28,0,600,29,0,621,30,0,600,31,0,200,32,0,600,33,0,600,34,0,600,35,0,621,36,0,621,37,0,621,38,0,621,39,0,621,40,0,600,41,0,600,42,0,600,43,0,600,44,0,600,45,0,600,46,0,621,56,0,200,57,0,200,58,0,200,59,0,600,60,0,600,61,0,600*41
$PAIRDGP,11,5,10,12,13,15,18,23,24,25,29,32*6B
$GNGGA,112635.200,2500.8157000,N,12132.4718000,E,2,60,0.42,19.04,M,15.25,M,19,3335*45
$GNRMC,112635.200,A,2500.8157000,N,12132.4718000,E,0.01,287.56,260623,,,D,V*06
$GPHDT,,T*1B
$GNACCURACY,2.4*10
$GNGGA,112635.300,2500.8157100,N,12132.4718100,E,2,60,0.42,19.05,M,15.25,M,19,3335*45
$GNRMC,112635.300,A,2500.8157100,N,12132.4718100,E,0.03,287.56,260623,,,D,V*05
$GPHDT,,T*1B
$GNACCURACY,2.3*17
$GNGGA,112635.400,2500.8157100,N,12132.4718300,E,2,60,0.42,19.06,M,15.25,M,19,3335*43
$GNRMC,112635.400,A,2500.8157100,N,12132.4718300,E,0.02,287.56,260623,,,D,V*01
$GPHDT,,T*1B
$GNACCURACY,2.3*17
$GNGGA,112635.500,2500.8157200,N,12132.4718400,E,2,60,0.42,19.07,M,15.25,M,19,3335*47
$GNRMC,112635.500,A,2500.8157200,N,12132.4718400,E,0.02,287.56,260623,,,D,V*04
$GPHDT,,T*1B
$GNACCURACY,2.4*10
$GNGGA,112635.600,2500.8157200,N,12132.4718600,E,2,60,0.42,19.09,M,15.25,M,19,3335*48
$GNRMC,112635.600,A,2500.8157200,N,12132.4718600,E,0.03,287.56,260623,,,D,V*04
$GPHDT,,T*1B
$GNACCURACY,2.3*17
$GNGGA,112635.700,2500.8157300,N,12132.4718700,E,2,59,0.43,19.10,M,15.25,M,19,3335*4A
$GNRMC,112635.700,A,2500.8157300,N,12132.4718700,E,0.02,287.56,260623,,,D,V*04
$GPHDT,,T*1B
$GNACCURACY,2.3*17
$GNGGA,112635.800,2500.8157400,N,12132.4718900,E,2,59,0.43,19.11,M,15.25,M,19,3335*4D
$GNRMC,112635.800,A,2500.8157400,N,12132.4718900,E,0.02,287.56,260623,,,D,V*02
$GPHDT,,T*1B
$GNACCURACY,2.3*17
$GNGGA,112635.900,2500.8157400,N,12132.4719000,E,2,59,0.43,19.12,M,15.25,M,19,3335*47
$GNRMC,112635.900,A,2500.8157400,N,12132.4719000,E,0.01,287.56,260623,,,D,V*08
$GPHDT,,T*1B
$GNACCURACY,2.4*10
$GNGGA,112636.000,2500.8157400,N,12132.4719200,E,2,59,0.43,19.13,M,15.25,M,20,3335*44
$GNRMC,112636.000,A,2500.8157400,N,12132.4719200,E,0.01,287.56,260623,,,D,V*00
$GPHDT,,T*1B
$GNACCURACY,2.4*10
$GNGGA,112636.100,2500.8157400,N,12132.4719200,E,2,59,0.43,19.15,M,15.25,M,20,3335*43
$GNRMC,112636.100,A,2500.8157400,N,12132.4719200,E,0.02,287.56,260623,,,D,V*02
$GPHDT,,T*1B
$GNGSA,A,3,196,24,199,18,23,15,195,194,12,05,10,,0.71,0.43,0.56,1*00
$GNGSA,A,3,80,70,73,85,86,71,69,,,,,,0.71,0.43,0.56,2*01
$GNGSA,A,3,13,08,07,26,02,30,15,,,,,,0.71,0.43,0.56,3*0D
$GNGSA,A,3,38,08,39,13,16,06,46,09,19,20,36,37,0.71,0.43,0.56,4*0C
$GNGSA,A,3,35,29,22,,,,,,,,,,0.71,0.43,0.56,4*0B
$GPGSV,4,1,16,196,75,065,43,24,74,043,42,199,60,167,23,18,59,246,44,1*69
$GPGSV,4,2,16,23,51,338,33,41,38,242,37,15,37,047,33,195,34,180,23,1*57
$GPGSV,4,3,16,194,31,138,27,12,20,141,36,05,19,119,34,10,18,319,27,1*50
$GPGSV,4,4,16,25,09,176,14,32,09,269,28,13,08,057,20,29,01,196,,1*69
$GPGSV,3,1,09,196,75,065,40,24,74,043,45,199,60,167,40,18,59,246,40,8*6C
$GPGSV,3,2,09,23,51,338,35,195,34,180,26,194,31,138,32,10,18,319,36,8*6A
$GPGSV,3,3,09,32,09,269,18,8*58
$GLGSV,3,1,09,80,48,076,44,70,40,010,15,73,38,159,26,85,35,246,35,1*7B
$GLGSV,3,2,09,86,27,302,32,71,22,314,42,69,13,074,26,79,11,032,15,1*7C
$GLGSV,3,3,09,84,08,190,,1*4D
$GAGSV,3,1,10,13,56,232,42,08,46,025,12,07,44,303,42,26,32,307,36,7*7F
$GAGSV,3,2,10,02,26,085,37,30,26,143,32,15,23,174,15,03,10,064,,7*7F
$GAGSV,3,3,10,25,03,043,,27,01,188,,7*74
$GAGSV,2,1,06,13,56,232,38,07,44,303,45,26,32,307,40,02,26,085,39,1*7B
$GAGSV,2,2,06,30,26,143,33,15,23,174,22,1*75
$GBGSV,4,1,16,38,83,110,42,08,79,004,40,39,71,283,43,13,68,334,37,1*7A
$GBGSV,4,2,16,16,66,258,40,06,65,254,38,46,60,112,44,09,50,238,38,1*7E
$GBGSV,4,3,16,19,49,345,31,20,43,063,30,36,35,184,26,37,23,047,32,1*7D
$GBGSV,4,4,16,35,21,269,27,29,19,212,30,22,11,301,36,07,05,192,,1*72
$GBGSV,2,1,06,38,83,110,45,39,71,283,44,46,60,112,46,19,49,345,28,4*7B
$GBGSV,2,2,06,35,21,269,29,22,11,301,21,4*77
$GNACCURACY,2.4*10
$PAIRSAT,1,35,1,0,200,2,0,200,3,0,200,4,0,200,5,0,201,6,0,200,7,0,200,8,0,200,9,0,200,10,0,221,11,0,200,12,0,201,13,0,201,14,0,200,15,0,201,16,0,200,17,0,200,18,0,221,19,0,200,20,0,200,21,0,200,23,0,221,24,0,221,25,0,200,26,0,200,27,0,200,28,0,200,29,0,200,30,0,200,31,0,200,32,0,221,194,0,621,195,0,621,196,0,620,199,0,621*68
$PAIRSAT,2,23,65,0,200,67,0,200,68,0,200,69,0,201,70,0,201,71,0,201,72,0,200,73,0,201,74,0,200,75,0,200,76,0,200,77,0,200,78,0,200,79,0,201,80,0,201,81,0,200,82,0,200,83,0,200,84,0,200,85,0,201,86,0,201,87,0,200,88,0,200*53
$PAIRSAT,3,23,2,0,1221,3,0,1221,4,0,1200,5,0,200,7,0,1221,8,0,1221,9,0,1200,10,0,1200,11,0,1200,12,0,1200,13,0,1221,15,0,1221,19,0,1200,21,0,1200,24,0,1200,25,0,1200,26,0,1221,27,0,1200,30,0,1221,31,0,1200,33,0,1200,34,0,1200,36,0,1200*6A
$PAIRSAT,4,50,1,0,200,2,0,200,3,0,200,4,0,200,5,0,200,6,0,201,7,0,200,8,0,201,9,0,201,10,0,200,11,0,200,12,0,200,13,0,201,14,0,200,15,0,200,16,0,201,19,0,621,20,0,621,21,0,600,22,0,621,23,0,600,24,0,600,25,0,600,26,0,600,27,0,600,28,0,600,29,0,621,30,0,600,31,0,200,32,0,600,33,0,600,34,0,600,35,0,621,36,0,621,37,0,621,38,0,621,39,0,621,40,0,600,41,0,600,42,0,600,43,0,600,44,0,600,45,0,600,46,0,621,56,0,200,57,0,200,58,0,200,59,0,600,60,0,600,61,0,600*41
$PAIRDGP,11,5,10,12,13,15,18,23,24,25,29,32*6B
$GNGGA,112636.200,2500.8157500,N,12132.4719400,E,2,59,0.43,19.16,M,15.25,M,20,3335*44
$GNRMC,112636.200,A,2500.8157500,N,12132.4719400,E,0.02,287.56,260623,,,D,V*06
$GPHDT,,T*1B
$GNACCURACY,2.4*10
$GNGGA,112636.300,2500.8157600,N,12132.4719500,E,2,59,0.43,19.17,M,15.25,M,20,3335*46
$GNRMC,112636.300,A,2500.8157600,N,12132.4719500,E,0.02,287.56,260623,,,D,V*05
$GPHDT,,T*1B
$GNACCURACY,2.4*10
$GNGGA,112636.400,2500.8157700,N,12132.4719600,E,2,59,0.43,19.18,M,15.25,M,20,3335*4C
$GNRMC,112636.400,A,2500.8157700,N,12132.4719600,E,0.01,287.56,260623,,,D,V*03
$GPHDT,,T*1B
$GNACCURACY,2.4*10
$GNGGA,112636.500,2500.8157700,N,12132.4719800,E,2,59,0.43,19.19,M,15.25,M,20,3335*42
$GNRMC,112636.500,A,2500.8157700,N,12132.4719800,E,0.01,287.56,260623,,,D,V*0C
$GPHDT,,T*1B
$GNACCURACY,2.4*10
$GNGGA,112636.600,2500.8157800,N,12132.4719900,E,2,59,0.43,19.20,M,15.25,M,20,3335*45
$GNRMC,112636.600,A,2500.8157800,N,12132.4719900,E,0.01,287.56,260623,,,D,V*01
$GPHDT,,T*1B
$GNACCURACY,2.4*10
$GNGGA,112636.700,2500.8157800,N,12132.4720000,E,2,59,0.43,19.22,M,15.25,M,20,3335*45
$GNRMC,112636.700,A,2500.8157800,N,12132.4720000,E,0.01,287.56,260623,,,D,V*03
$GPHDT,,T*1B
$GNACCURACY,2.4*10
$GNGGA,112636.800,2500.8157900,N,12132.4720200,E,2,60,0.43,19.23,M,15.25,M,20,3335*42
$GNRMC,112636.800,A,2500.8157900,N,12132.4720200,E,0.04,287.56,260623,,,D,V*0A
$GPHDT,,T*1B
$GNACCURACY,2.4*10
$GNGGA,112636.900,2500.8157900,N,12132.4720300,E,2,60,0.43,19.24,M,15.25,M,20,3335*45
$GNRMC,112636.900,A,2500.8157900,N,12132.4720300,E,0.05,287.56,260623,,,D,V*0B
$GPHDT,,T*1B
$GNACCURACY,2.4*10
$GNGGA,112637.000,2500.8158000,N,12132.4720400,E,2,60,0.43,19.25,M,15.25,M,21,3335*4C
$GNRMC,112637.000,A,2500.8158000,N,12132.4720400,E,0.01,287.56,260623,,,D,V*06
$GPHDT,,T*1B
$GNACCURACY,2.4*10
$GNGGA,112637.100,2500.8158000,N,12132.4720500,E,2,60,0.43,19.26,M,15.25,M,21,3335*4F
$GNRMC,112637.100,A,2500.8158000,N,12132.4720500,E,0.02,287.56,260623,,,D,V*05
$GPHDT,,T*1B
$GNGSA,A,3,196,24,199,18,23,15,195,194,12,05,10,,0.71,0.43,0.56,1*00
$GNGSA,A,3,80,70,73,85,86,71,69,,,,,,0.71,0.43,0.56,2*01
$GNGSA,A,3,13,08,07,26,02,30,15,,,,,,0.71,0.43,0.56,3*0D
$GNGSA,A,3,38,08,39,13,16,06,46,09,19,20,36,37,0.71,0.43,0.56,4*0C
$GNGSA,A,3,35,29,22,,,,,,,,,,0.71,0.43,0.56,4*0B
$GPGSV,4,1,16,196,75,065,43,24,74,043,42,199,60,167,22,18,59,246,44,1*68
$GPGSV,4,2,16,23,51,338,33,41,38,242,37,15,37,047,33,195,34,180,23,1*57
$GPGSV,4,3,16,194,31,138,26,12,20,141,36,05,19,119,34,10,18,319,26,1*50
$GPGSV,4,4,16,25,09,176,15,32,09,269,27,13,08,057,20,29,01,196,,1*67
$GPGSV,3,1,09,196,75,065,40,24,74,043,45,199,60,167,40,18,59,246,40,8*6C
$GPGSV,3,2,09,23,51,338,36,195,34,180,26,194,31,138,31,10,18,319,37,8*6B
$GPGSV,3,3,09,32,09,269,18,8*58
$GLGSV,3,1,09,80,48,076,44,70,40,010,14,73,38,159,26,85,35,246,35,1*7A
$GLGSV,3,2,09,86,27,302,32,71,22,314,42,69,13,074,26,79,11,032,13,1*7A
$GLGSV,3,3,09,84,08,190,,1*4D
$GAGSV,3,1,10,13,56,232,42,08,46,025,12,07,44,303,42,26,32,307,36,7*7F
$GAGSV,3,2,10,02,26,085,37,30,26,143,31,15,23,174,15,03,10,064,,7*7C
$GAGSV,3,3,10,25,03,043,,27,01,188,,7*74
$GAGSV,2,1,06,13,56,232,39,07,44,303,45,26,32,307,40,02,26,085,39,1*7A
$GAGSV,2,2,06,30,26,143,33,15,23,174,23,1*74
$GBGSV,4,1,15,38,83,110,42,08,79,004,40,39,71,283,43,13,68,334,37,1*79
$GBGSV,4,2,15,16,66,258,40,06,65,254,38,46,60,112,44,09,50,238,39,1*7C
$GBGSV,4,3,15,19,49,345,31,20,43,063,30,36,35,184,26,37,23,047,32,1*7E
$GBGSV,4,4,15,35,21,269,25,29,19,212,30,22,11,301,36,1*4B
$GBGSV,2,1,07,38,83,110,45,39,71,283,44,46,60,112,46,19,49,345,29,4*7B
$GBGSV,2,2,07,36,35,184,19,35,21,269,29,22,11,301,20,4*41
$GNACCURACY,2.4*10
$PAIRSAT,1,35,1,0,200,2,0,200,3,0,200,4,0,200,5,0,201,6,0,200,7,0,200,8,0,200,9,0,200,10,0,221,11,0,200,12,0,201,13,0,201,14,0,200,15,0,201,16,0,200,17,0,200,18,0,221,19,0,200,20,0,200,21,0,200,23,0,221,24,0,221,25,0,200,26,0,200,27,0,200,28,0,200,29,0,200,30,0,200,31,0,200,32,0,221,194,0,621,195,0,621,196,0,620,199,0,621*68
$PAIRSAT,2,23,65,0,200,67,0,200,68,0,200,69,0,201,70,0,201,71,0,201,72,0,200,73,0,201,74,0,200,75,0,200,76,0,200,77,0,200,78,0,200,79,0,201,80,0,201,81,0,200,82,0,200,83,0,200,84,0,200,85,0,201,86,0,201,87,0,200,88,0,200*53
$PAIRSAT,3,23,2,0,1221,3,0,1221,4,0,1200,5,0,200,7,0,1221,8,0,1221,9,0,1200,10,0,1200,11,0,1200,12,0,1200,13,0,1221,15,0,1221,19,0,1200,21,0,1200,24,0,1200,25,0,1200,26,0,1221,27,0,1200,30,0,1221,31,0,1200,33,0,1200,34,0,1200,36,0,1200*6A
$PAIRSAT,4,50,1,0,200,2,0,200,3,0,200,4,0,200,5,0,200,6,0,201,7,0,200,8,0,201,9,0,201,10,0,200,11,0,200,12,0,200,13,0,201,14,0,200,15,0,200,16,0,201,19,0,621,20,0,621,21,0,600,22,0,621,23,0,600,24,0,600,25,0,600,26,0,600,27,0,600,28,0,600,29,0,621,30,0,600,31,0,200,32,0,600,33,0,600,34,0,600,35,0,621,36,0,621,37,0,621,38,0,621,39,0,621,40,0,600,41,0,600,42,0,600,43,0,600,44,0,600,45,0,600,46,0,621,56,0,200,57,0,200,58,0,200,59,0,600,60,0,600,61,0,600*41
$PAIRDGP,11,5,10,12,13,15,18,23,24,25,29,32*6B
$GNGGA,112637.200,2500.8158000,N,12132.4720700,E,2,60,0.43,19.27,M,15.25,M,21,3335*4F
$GNRMC,112637.200,A,2500.8158000,N,12132.4720700,E,0.00,287.56,260623,,,D,V*06
$GPHDT,,T*1B
$GNACCURACY,2.4*10
$GNGGA,112637.300,2500.8158100,N,12132.4720800,E,2,60,0.43,19.29,M,15.25,M,21,3335*4E
$GNRMC,112637.300,A,2500.8158100,N,12132.4720800,E,0.03,287.56,260623,,,D,V*0A
$GPHDT,,T*1B
$GNACCURACY,2.4*10
$GNGGA,112637.400,2500.8158100,N,12132.4721000,E,2,60,0.43,19.30,M,15.25,M,21,3335*48
$GNRMC,112637.400,A,2500.8158100,N,12132.4721000,E,0.00,287.56,260623,,,D,V*07
$GPHDT,,T*1B
$GNACCURACY,2.4*10
$GNGGA,112637.500,2500.8158200,N,12132.4721100,E,2,59,0.43,19.32,M,15.25,M,21,3335*43
$GNRMC,112637.500,A,2500.8158200,N,12132.4721100,E,0.04,287.56,260623,,,D,V*00
$GPHDT,,T*1B
$GNACCURACY,2.4*10
$GNGGA,112637.600,2500.8158200,N,12132.4721200,E,2,59,0.43,19.32,M,15.25,M,21,3335*43
$GNRMC,112637.600,A,2500.8158200,N,12132.4721200,E,0.02,287.56,260623,,,D,V*06
$GPHDT,,T*1B
$GNACCURACY,2.4*10
$GNGGA,112637.700,2500.8158300,N,12132.4721300,E,2,59,0.43,19.34,M,15.25,M,21,3335*44
$GNRMC,112637.700,A,2500.8158300,N,12132.4721300,E,0.00,287.56,260623,,,D,V*05
$GPHDT,,T*1B
$GNACCURACY,2.4*10
$GNGGA,112637.800,2500.8158400,N,12132.4721500,E,2,59,0.43,19.35,M,15.25,M,21,3335*4B
$GNRMC,112637.800,A,2500.8158400,N,12132.4721500,E,0.04,287.56,260623,,,D,V*0F
$GPHDT,,T*1B
$GNACCURACY,2.4*10
$GNGGA,112637.900,2500.8158400,N,12132.4721600,E,2,58,0.44,19.36,M,15.25,M,21,3335*4C
$GNRMC,112637.900,A,2500.8158400,N,12132.4721600,E,0.04,287.56,260623,,,D,V*0D
$GPHDT,,T*1B
$GNACCURACY,2.4*10
$GNGGA,112638.000,2500.8158400,N,12132.4721700,E,2,58,0.44,19.38,M,15.25,M,22,3335*46
$GNRMC,112638.000,A,2500.8158400,N,12132.4721700,E,0.05,287.56,260623,,,D,V*0B
$GPHDT,,T*1B
