$FW : RTK35X,V1.1X0314AS,Lib20210517,1*54
$Tool : LOCOSYS , GNSS Firebird , v1.0.0.19*39
$---------------------------------------------------*2D
$GNACCURACY,2.3*17
$GNGGA,112708.600,2500.8163100,N,12132.4721800,E,2,62,0.43,20.12,M,15.25,M,15,3335*48
$GNRMC,112708.600,A,2500.8163100,N,12132.4721800,E,0.03,287.56,260623,,,D,V*0B
$GPHDT,,T*1B
$GNACCURACY,2.4*10
$GNGGA,112708.700,2500.8163200,N,12132.4721700,E,2,62,0.43,20.14,M,15.25,M,15,3335*43
$GNRMC,112708.700,A,2500.8163200,N,12132.4721700,E,0.03,287.56,260623,,,D,V*06
$GPHDT,,T*1B
$GNACCURACY,2.4*10
$GNGGA,112708.800,2500.8163200,N,12132.4721600,E,2,62,0.43,20.15,M,15.25,M,15,3335*4C
$GNRMC,112708.800,A,2500.8163200,N,12132.4721600,E,0.03,287.56,260623,,,D,V*08
$GPHDT,,T*1B
$GNACCURACY,2.4*10
$GNGGA,112708.900,2500.8163200,N,12132.4721400,E,2,62,0.43,20.17,M,15.25,M,15,3335*4D
$GNRMC,112708.900,A,2500.8163200,N,12132.4721400,E,0.03,287.56,260623,,,D,V*0B
$GPHDT,,T*1B
$GNACCURACY,2.4*10
$GNGGA,112709.000,2500.8163300,N,12132.4721400,E,2,62,0.43,20.19,M,15.25,M,16,3335*49
$GNRMC,112709.000,A,2500.8163300,N,12132.4721400,E,0.03,287.56,260623,,,D,V*02
$GPHDT,,T*1B
$GNACCURACY,2.4*10
$GNGGA,112709.100,2500.8163300,N,12132.4721300,E,2,62,0.43,20.20,M,15.25,M,16,3335*45
$GNRMC,112709.100,A,2500.8163300,N,12132.4721300,E,0.03,287.56,260623,,,D,V*04
$GPHDT,,T*1B
$GNGSA,A,3,196,24,199,18,23,15,195,12,05,10,194,,0.77,0.43,0.64,1*07
$GNGSA,A,3,80,73,85,86,71,69,79,,,,,,0.77,0.43,0.64,2*0F
$GNGSA,A,3,13,08,07,26,02,30,15,,,,,,0.77,0.43,0.64,3*0A
$GNGSA,A,3,38,08,39,13,16,06,46,09,19,20,36,37,0.77,0.43,0.64,4*0B
$GNGSA,A,3,35,29,22,,,,,,,,,,0.77,0.43,0.64,4*0C
$GPGSV,4,1,16,196,75,065,42,24,73,043,36,199,60,167,23,18,58,246,46,1*6F
$GPGSV,4,2,16,23,51,339,31,41,38,242,45,15,37,047,20,195,34,180,15,1*56
$GPGSV,4,3,16,194,31,138,18,12,20,141,29,05,19,119,32,10,18,319,31,1*53
$GPGSV,4,4,16,25,09,176,19,32,09,269,23,13,08,057,20,29,01,196,,1*6F
$GPGSV,3,1,09,196,75,065,39,24,73,043,45,199,60,167,37,18,58,246,45,8*61
$GPGSV,3,2,09,23,51,339,37,195,34,180,22,194,31,138,33,10,18,319,25,8*6E
$GPGSV,3,3,09,32,09,269,24,8*57
$GLGSV,2,1,08,80,48,076,46,70,40,011,,73,38,159,33,85,35,246,41,1*7B
$GLGSV,2,2,08,86,27,302,43,71,22,314,44,69,13,074,20,79,11,032,19,1*76
$GAGSV,3,1,09,13,56,231,42,08,46,025,18,07,44,303,43,26,32,307,41,7*7F
$GAGSV,3,2,09,02,26,085,36,30,26,143,34,15,23,174,13,03,10,064,,7*76
$GAGSV,3,3,09,25,03,043,,7*49
$GAGSV,2,1,06,13,56,231,41,08,46,025,26,07,44,303,44,26,32,307,41,1*7E
$GAGSV,2,2,06,02,26,085,35,30,26,143,27,1*7A
$GBGSV,4,1,16,38,83,112,43,08,79,004,38,39,71,283,42,13,68,334,39,1*79
$GBGSV,4,2,16,16,66,258,44,06,65,254,40,46,60,111,43,09,50,238,43,1*7D
$GBGSV,4,3,16,19,49,345,32,20,43,063,30,36,35,184,28,37,22,047,24,1*76
$GBGSV,4,4,16,35,21,269,33,29,19,212,20,22,11,301,40,44,02,311,,1*7E
$GBGSV,3,1,09,38,83,112,45,39,71,283,44,46,60,111,45,19,49,345,30,4*7E
$GBGSV,3,2,09,20,43,063,29,36,35,184,19,35,21,269,29,29,19,212,23,4*76
$GBGSV,3,3,09,22,11,301,32,4*49
$GNACCURACY,2.4*10
$PAIRSAT,1,35,1,0,200,2,0,200,3,0,200,4,0,200,5,0,201,6,0,200,7,0,200,8,0,200,9,0,200,10,0,221,11,0,200,12,0,201,13,0,201,14,0,200,15,0,201,16,0,200,17,0,200,18,0,221,19,0,200,20,0,200,21,0,200,23,0,221,24,0,221,25,0,200,26,0,200,27,0,200,28,0,200,29,0,200,30,0,200,31,0,200,32,0,221,194,0,621,195,0,621,196,0,620,199,0,621*68
$PAIRSAT,2,23,65,0,200,67,0,200,68,0,200,69,0,201,70,0,201,71,0,201,72,0,200,73,0,201,74,0,200,75,0,200,76,0,200,77,0,200,78,0,200,79,0,201,80,0,201,81,0,200,82,0,200,83,0,200,84,0,200,85,0,201,86,0,201,87,0,200,88,0,200*53
$PAIRSAT,3,23,2,0,1221,3,0,1221,4,0,1200,5,0,200,7,0,1221,8,0,1221,9,0,1200,10,0,1200,11,0,1200,12,0,1200,13,0,1221,15,0,1221,19,0,1200,21,0,1200,24,0,1200,25,0,1200,26,0,1221,27,0,1200,30,0,1221,31,0,1200,33,0,1200,34,0,1200,36,0,1200*6A
$PAIRSAT,4,50,1,0,200,2,0,200,3,0,200,4,0,200,5,0,200,6,0,201,7,0,200,8,0,201,9,0,201,10,0,200,11,0,200,12,0,200,13,0,201,14,0,200,15,0,200,16,0,201,19,0,621,20,0,621,21,0,600,22,0,621,23,0,600,24,0,600,25,0,600,26,0,600,27,0,600,28,0,600,29,0,621,30,0,600,31,0,200,32,0,600,33,0,600,34,0,600,35,0,621,36,0,621,37,0,621,38,0,621,39,0,621,40,0,600,41,0,600,42,0,600,43,0,600,44,0,600,45,0,600,46,0,621,56,0,200,57,0,200,58,0,200,59,0,600,60,0,600,61,0,600*41
$PAIRDGP,11,5,10,12,13,15,18,23,24,25,29,32*6B
$GNGGA,112709.200,2500.8163300,N,12132.4721100,E,2,62,0.43,20.22,M,15.25,M,16,3335*46
$GNRMC,112709.200,A,2500.8163300,N,12132.4721100,E,0.03,287.56,260623,,,D,V*05
$GPHDT,,T*1B
$GNACCURACY,2.4*10
$GNGGA,112709.300,2500.8163400,N,12132.4721100,E,2,62,0.43,20.23,M,15.25,M,16,3335*41
$GNRMC,112709.300,A,2500.8163400,N,12132.4721100,E,0.03,287.56,260623,,,D,V*03
$GPHDT,,T*1B
$GNACCURACY,2.4*10
$GNGGA,112709.400,2500.8163400,N,12132.4721000,E,2,61,0.44,20.25,M,15.25,M,16,3335*45
$GNRMC,112709.400,A,2500.8163400,N,12132.4721000,E,0.03,287.56,260623,,,D,V*05
$GPHDT,,T*1B
$GNACCURACY,2.4*10
$GNGGA,112709.500,2500.8163400,N,12132.4720900,E,2,62,0.43,20.27,M,15.25,M,16,3335*4A
$GNRMC,112709.500,A,2500.8163400,N,12132.4720900,E,0.03,287.56,260623,,,D,V*0C
$GPHDT,,T*1B
$GNACCURACY,2.4*10
$GNGGA,112709.600,2500.8163400,N,12132.4720800,E,2,62,0.43,20.28,M,15.25,M,16,3335*47
$GNRMC,112709.600,A,2500.8163400,N,12132.4720800,E,0.03,287.56,260623,,,D,V*0E
$GPHDT,,T*1B
$GNACCURACY,2.4*10
$GNGGA,112709.700,2500.8163300,N,12132.4720700,E,2,62,0.43,20.29,M,15.25,M,16,3335*4F
$GNRMC,112709.700,A,2500.8163300,N,12132.4720700,E,0.03,287.56,260623,,,D,V*07
$GPHDT,,T*1B
$GNACCURACY,2.4*10
$GNGGA,112709.800,2500.8163200,N,12132.4720700,E,2,62,0.43,20.31,M,15.25,M,16,3335*48
$GNRMC,112709.800,A,2500.8163200,N,12132.4720700,E,0.03,287.56,260623,,,D,V*09
$GPHDT,,T*1B
$GNACCURACY,2.4*10
$GNGGA,112709.900,2500.8163200,N,12132.4720500,E,2,61,0.44,20.33,M,15.25,M,16,3335*4D
$GNRMC,112709.900,A,2500.8163200,N,12132.4720500,E,0.03,287.56,260623,,,D,V*0A
$GPHDT,,T*1B
$GNACCURACY,2.4*10
$GNGGA,112710.000,2500.8163100,N,12132.4720500,E,2,61,0.44,20.35,M,15.25,M,17,3335*48
$GNRMC,112710.000,A,2500.8163100,N,12132.4720500,E,0.03,287.56,260623,,,D,V*08
$GPHDT,,T*1B
$GNACCURACY,2.4*10
$GNGGA,112710.100,2500.8163000,N,12132.4720500,E,2,62,0.43,20.36,M,15.25,M,17,3335*4F
$GNRMC,112710.100,A,2500.8163000,N,12132.4720500,E,0.03,287.56,260623,,,D,V*08
$GPHDT,,T*1B
$GNGSA,A,3,196,24,199,18,23,15,195,12,05,10,194,,0.77,0.43,0.64,1*07
$GNGSA,A,3,80,73,85,86,71,69,79,,,,,,0.77,0.43,0.64,2*0F
$GNGSA,A,3,13,08,07,26,30,02,15,,,,,,0.77,0.43,0.64,3*0A
$GNGSA,A,3,38,08,39,13,16,06,46,09,19,20,36,37,0.77,0.43,0.64,4*0B
$GNGSA,A,3,35,29,22,,,,,,,,,,0.77,0.43,0.64,4*0C
$GPGSV,4,1,16,196,75,065,42,24,73,043,36,199,60,167,24,18,58,246,46,1*68
$GPGSV,4,2,16,23,51,339,29,41,38,242,44,15,37,047,27,195,34,180,18,1*54
$GPGSV,4,3,16,194,31,138,21,12,20,141,28,05,19,119,32,10,18,319,33,1*5A
$GPGSV,4,4,16,25,09,176,19,32,09,269,24,13,08,057,21,29,01,196,,1*69
$GPGSV,3,1,09,196,75,065,39,24,73,043,45,199,60,167,36,18,58,246,46,8*63
$GPGSV,3,2,09,23,51,339,38,195,34,180,24,194,31,138,31,10,18,319,23,8*63
$GPGSV,3,3,09,32,09,269,25,8*56
$GLGSV,2,1,08,80,48,076,45,70,40,011,,73,38,159,34,85,35,246,41,1*7F
$GLGSV,2,2,08,86,27,302,43,71,22,314,44,69,13,074,20,79,11,032,19,1*76
$GAGSV,3,1,09,13,56,231,43,08,46,025,17,07,44,303,43,26,32,307,41,7*71
$GAGSV,3,2,09,30,26,143,33,02,26,085,36,15,23,174,13,03,10,064,,7*71
$GAGSV,3,3,09,25,03,043,,7*49
$GAGSV,2,1,07,13,56,231,42,08,46,025,22,07,44,303,44,26,32,307,42,1*7B
$GAGSV,2,2,07,02,26,085,35,30,26,143,27,15,23,174,13,1*4E
$GBGSV,4,1,15,38,83,112,41,08,79,004,38,39,71,283,42,13,68,334,39,1*78
$GBGSV,4,2,15,16,66,258,44,06,65,254,40,46,60,111,44,09,50,238,43,1*79
$GBGSV,4,3,15,19,49,345,31,20,43,063,31,36,35,184,24,37,22,047,30,1*7E
$GBGSV,4,4,15,35,21,269,35,29,19,212,21,22,12,301,39,1*46
$GBGSV,3,1,09,38,83,112,46,39,71,283,45,46,60,111,46,19,49,345,29,4*77
$GBGSV,3,2,09,20,43,063,31,36,35,184,18,35,21,269,31,29,19,212,24,4*70
$GBGSV,3,3,09,22,12,301,33,4*4B
$GNACCURACY,2.4*10
$PAIRSAT,1,35,1,0,200,2,0,200,3,0,200,4,0,200,5,0,201,6,0,200,7,0,200,8,0,200,9,0,200,10,0,221,11,0,200,12,0,201,13,0,201,14,0,200,15,0,201,16,0,200,17,0,200,18,0,221,19,0,200,20,0,200,21,0,200,23,0,221,24,0,221,25,0,200,26,0,200,27,0,200,28,0,200,29,0,200,30,0,200,31,0,200,32,0,221,194,0,621,195,0,621,196,0,620,199,0,621*68
$PAIRSAT,2,23,65,0,200,67,0,200,68,0,200,69,0,201,70,0,201,71,0,201,72,0,200,73,0,201,74,0,200,75,0,200,76,0,200,77,0,200,78,0,200,79,0,201,80,0,201,81,0,200,82,0,200,83,0,200,84,0,200,85,0,201,86,0,201,87,0,200,88,0,200*53
$PAIRSAT,3,23,2,0,1221,3,0,1221,4,0,1200,5,0,200,7,0,1221,8,0,1221,9,0,1200,10,0,1200,11,0,1200,12,0,1200,13,0,1221,15,0,1221,19,0,1200,21,0,1200,24,0,1200,25,0,1200,26,0,1221,27,0,1200,30,0,1221,31,0,1200,33,0,1200,34,0,1200,36,0,1200*6A
$PAIRSAT,4,50,1,0,200,2,0,200,3,0,200,4,0,200,5,0,200,6,0,201,7,0,200,8,0,201,9,0,201,10,0,200,11,0,200,12,0,200,13,0,201,14,0,200,15,0,200,16,0,201,19,0,621,20,0,621,21,0,600,22,0,621,23,0,600,24,0,600,25,0,600,26,0,600,27,0,600,28,0,600,29,0,621,30,0,600,31,0,200,32,0,600,33,0,600,34,0,600,35,0,621,36,0,621,37,0,621,38,0,621,39,0,621,40,0,600,41,0,600,42,0,600,43,0,600,44,0,600,45,0,600,46,0,621,56,0,200,57,0,200,58,0,200,59,0,600,60,0,600,61,0,600*41
$PAIRDGP,11,5,10,12,13,15,18,23,24,25,29,32*6B
$GNGGA,112710.200,2500.8163000,N,12132.4720400,E,2,62,0.43,20.38,M,15.25,M,17,3335*43
$GNRMC,112710.200,A,2500.8163000,N,12132.4720400,E,0.02,287.56,260623,,,D,V*0B
$GPHDT,,T*1B
$GNACCURACY,2.3*17
$GNGGA,112710.300,2500.8163000,N,12132.4720200,E,2,62,0.43,20.39,M,15.25,M,17,3335*45
$GNRMC,112710.300,A,2500.8163000,N,12132.4720200,E,0.02,287.56,260623,,,D,V*0C
$GPHDT,,T*1B
$GNACCURACY,2.3*17
$GNGGA,112710.400,2500.8163000,N,12132.4720200,E,2,62,0.43,20.40,M,15.25,M,17,3335*4C
$GNRMC,112710.400,A,2500.8163000,N,12132.4720200,E,0.02,287.56,260623,,,D,V*0B
$GPHDT,,T*1B
$GNACCURACY,2.3*17
$GNGGA,112710.500,2500.8163000,N,12132.4720100,E,2,62,0.43,20.41,M,15.25,M,17,3335*4F
$GNRMC,112710.500,A,2500.8163000,N,12132.4720100,E,0.02,287.56,260623,,,D,V*09
$GPHDT,,T*1B
$GNACCURACY,2.3*17
$GNGGA,112710.600,2500.8163000,N,12132.4719900,E,2,62,0.43,20.41,M,15.25,M,17,3335*4E
$GNRMC,112710.600,A,2500.8163000,N,12132.4719900,E,0.02,287.56,260623,,,D,V*08
$GPHDT,,T*1B
$GNACCURACY,2.3*17
$GNGGA,112710.700,2500.8163100,N,12132.4719800,E,2,62,0.43,20.42,M,15.25,M,17,3335*4C
$GNRMC,112710.700,A,2500.8163100,N,12132.4719800,E,0.02,287.56,260623,,,D,V*09
$GPHDT,,T*1B
$GNACCURACY,2.3*17
$GNGGA,112710.800,2500.8163100,N,12132.4719700,E,2,62,0.43,20.43,M,15.25,M,17,3335*4D
$GNRMC,112710.800,A,2500.8163100,N,12132.4719700,E,0.02,287.56,260623,,,D,V*09
$GPHDT,,T*1B
$GNACCURACY,2.3*17
$GNGGA,112710.900,2500.8163100,N,12132.4719600,E,2,62,0.43,20.44,M,15.25,M,17,3335*4A
$GNRMC,112710.900,A,2500.8163100,N,12132.4719600,E,0.02,287.56,260623,,,D,V*09
$GPHDT,,T*1B
$GNACCURACY,2.3*17
$GNGGA,112711.000,2500.8163200,N,12132.4719500,E,2,62,0.43,20.45,M,15.25,M,18,3335*4C
$GNRMC,112711.000,A,2500.8163200,N,12132.4719500,E,0.02,287.56,260623,,,D,V*01
$GPHDT,,T*1B
$GNACCURACY,2.3*17
$GNGGA,112711.100,2500.8163200,N,12132.4719400,E,2,61,0.44,20.47,M,15.25,M,18,3335*4A
$GNRMC,112711.100,A,2500.8163200,N,12132.4719400,E,0.02,287.56,260623,,,D,V*01
$GPHDT,,T*1B
$GNGSA,A,3,196,24,199,18,23,15,195,12,05,10,194,,0.77,0.43,0.64,1*07
$GNGSA,A,3,80,73,85,86,71,69,79,,,,,,0.77,0.43,0.64,2*0F
$GNGSA,A,3,13,08,07,26,30,02,15,,,,,,0.77,0.43,0.64,3*0A
$GNGSA,A,3,38,08,39,13,16,06,46,09,19,20,36,37,0.77,0.43,0.64,4*0B
$GNGSA,A,3,35,29,22,,,,,,,,,,0.77,0.43,0.64,4*0C
$GPGSV,4,1,16,196,75,065,42,24,73,043,36,199,60,167,22,18,58,246,46,1*6E
$GPGSV,4,2,16,23,51,339,28,41,38,242,44,15,37,047,25,195,34,180,18,1*57
$GPGSV,4,3,16,194,31,138,21,12,20,141,32,05,19,119,31,10,18,319,31,1*50
$GPGSV,4,4,16,25,09,176,19,32,09,269,24,13,08,057,21,29,01,196,,1*69
$GPGSV,3,1,09,196,75,065,40,24,73,043,45,199,60,167,36,18,58,246,46,8*6D
$GPGSV,3,2,09,23,51,339,38,195,34,180,27,194,31,138,34,10,18,319,23,8*65
$GPGSV,3,3,09,32,09,269,25,8*56
$GLGSV,2,1,08,80,48,076,45,70,40,011,,73,38,159,33,85,35,246,41,1*78
$GLGSV,2,2,08,86,27,302,43,71,22,314,44,69,13,074,20,79,11,032,19,1*76
$GAGSV,3,1,09,13,56,231,43,08,46,025,16,07,44,303,43,26,32,307,40,7*71
$GAGSV,3,2,09,30,26,143,34,02,26,085,37,15,23,174,15,03,10,064,,7*71
$GAGSV,3,3,09,25,03,043,,7*49
$GAGSV,2,1,06,13,56,231,42,08,46,025,23,07,44,303,44,26,32,307,41,1*78
$GAGSV,2,2,06,02,26,085,36,30,26,143,28,1*76
$GBGSV,4,1,15,38,83,112,42,08,79,004,38,39,71,283,43,13,68,334,39,1*7A
$GBGSV,4,2,15,16,66,258,43,06,65,254,40,46,60,111,43,09,50,238,43,1*79
$GBGSV,4,3,15,19,49,345,33,20,43,063,31,36,35,184,24,37,22,047,29,1*74
$GBGSV,4,4,15,35,21,268,36,29,19,212,24,22,12,301,39,1*41
$GBGSV,3,1,09,38,83,112,45,39,71,283,44,46,60,111,45,19,49,345,30,4*7E
$GBGSV,3,2,09,20,43,063,30,36,35,184,16,35,21,268,31,29,19,212,23,4*79
$GBGSV,3,3,09,22,12,301,32,4*4A
$GNACCURACY,2.3*17
$PAIRSAT,1,35,1,0,200,2,0,200,3,0,200,4,0,200,5,0,201,6,0,200,7,0,200,8,0,200,9,0,200,10,0,221,11,0,200,12,0,201,13,0,201,14,0,200,15,0,201,16,0,200,17,0,200,18,0,221,19,0,200,20,0,200,21,0,200,23,0,221,24,0,221,25,0,200,26,0,200,27,0,200,28,0,200,29,0,200,30,0,200,31,0,200,32,0,221,194,0,621,195,0,621,196,0,620,199,0,621*68
$PAIRSAT,2,23,65,0,200,67,0,200,68,0,200,69,0,201,70,0,201,71,0,201,72,0,200,73,0,201,74,0,200,75,0,200,76,0,200,77,0,200,78,0,200,79,0,201,80,0,201,81,0,200,82,0,200,83,0,200,84,0,200,85,0,201,86,0,201,87,0,200,88,0,200*53
$PAIRSAT,3,23,2,0,1221,3,0,1221,4,0,1200,5,0,200,7,0,1221,8,0,1221,9,0,1200,10,0,1200,11,0,1200,12,0,1200,13,0,1221,15,0,1221,19,0,1200,21,0,1200,24,0,1200,25,0,1200,26,0,1221,27,0,1200,30,0,1221,31,0,1200,33,0,1200,34,0,1200,36,0,1200*6A
$PAIRSAT,4,50,1,0,200,2,0,200,3,0,200,4,0,200,5,0,200,6,0,201,7,0,200,8,0,201,9,0,201,10,0,200,11,0,200,12,0,200,13,0,201,14,0,200,15,0,200,16,0,201,19,0,621,20,0,621,21,0,600,22,0,621,23,0,600,24,0,600,25,0,600,26,0,600,27,0,600,28,0,600,29,0,621,30,0,600,31,0,200,32,0,600,33,0,600,34,0,600,35,0,621,36,0,621,37,0,621,38,0,621,39,0,621,40,0,600,41,0,600,42,0,600,43,0,600,44,0,600,45,0,600,46,0,621,56,0,200,57,0,200,58,0,200,59,0,600,60,0,600,61,0,600*41
$PAIRDGP,11,5,10,12,13,15,18,23,24,25,29,32*6B
$GNGGA,112711.200,2500.8163300,N,12132.4719300,E,2,62,0.43,20.48,M,15.25,M,18,3335*44
$GNRMC,112711.200,A,2500.8163300,N,12132.4719300,E,0.02,287.56,260623,,,D,V*04
$GPHDT,,T*1B
$GNACCURACY,2.3*17
$GNGGA,112711.300,2500.8163200,N,12132.4719200,E,2,62,0.43,20.50,M,15.25,M,18,3335*4C
$GNRMC,112711.300,A,2500.8163200,N,12132.4719200,E,0.02,287.56,260623,,,D,V*05
$GPHDT,,T*1B
$GNACCURACY,2.3*17
$GNGGA,112711.400,2500.8163200,N,12132.4719200,E,2,60,0.43,20.52,M,15.25,M,18,3335*4B
$GNRMC,112711.400,A,2500.8163200,N,12132.4719200,E,0.02,287.56,260623,,,D,V*02
$GPHDT,,T*1B
$GNACCURACY,2.3*17
$GNGGA,112711.500,2500.8163300,N,12132.4719000,E,2,61,0.43,20.52,M,15.25,M,18,3335*48
$GNRMC,112711.500,A,2500.8163300,N,12132.4719000,E,0.02,287.56,260623,,,D,V*00
$GPHDT,,T*1B
$GNACCURACY,2.3*17
$GNGGA,112711.600,2500.8163300,N,12132.4719000,E,2,60,0.43,20.53,M,15.25,M,18,3335*4B
$GNRMC,112711.600,A,2500.8163300,N,12132.4719000,E,0.02,287.56,260623,,,D,V*03
$GPHDT,,T*1B
$GNACCURACY,2.3*17
$GNGGA,112711.700,2500.8163400,N,12132.4718900,E,2,60,0.43,20.54,M,15.25,M,18,3335*42
$GNRMC,112711.700,A,2500.8163400,N,12132.4718900,E,0.02,287.56,260623,,,D,V*0D
$GPHDT,,T*1B
$GNACCURACY,2.3*17
$GNGGA,112711.800,2500.8163400,N,12132.4718800,E,2,62,0.43,20.55,M,15.25,M,18,3335*4F
$GNRMC,112711.800,A,2500.8163400,N,12132.4718800,E,0.02,287.56,260623,,,D,V*03
$GPHDT,,T*1B
$GNACCURACY,2.3*17
$GNGGA,112711.900,2500.8163400,N,12132.4718700,E,2,61,0.43,20.55,M,15.25,M,18,3335*42
$GNRMC,112711.900,A,2500.8163400,N,12132.4718700,E,0.02,287.56,260623,,,D,V*0D
$GPHDT,,T*1B
$GNACCURACY,2.5*11
$GNGGA,112712.000,2500.8163400,N,12132.4718700,E,2,61,0.44,20.56,M,15.25,M,19,3335*4D
$GNRMC,112712.000,A,2500.8163400,N,12132.4718700,E,0.02,287.56,260623,,,D,V*07
$GPHDT,,T*1B
$GNACCURACY,2.3*17
$GNGGA,112712.100,2500.8163400,N,12132.4718600,E,2,62,0.44,20.57,M,15.25,M,19,3335*4F
$GNRMC,112712.100,A,2500.8163400,N,12132.4718600,E,0.02,287.56,260623,,,D,V*07
$GPHDT,,T*1B
$GNGSA,A,3,196,24,199,18,23,15,195,12,05,10,194,,0.78,0.44,0.65,1*0E
$GNGSA,A,3,80,73,85,86,71,69,79,,,,,,0.78,0.44,0.65,2*06
$GNGSA,A,3,13,08,07,26,30,02,15,,,,,,0.78,0.44,0.65,3*03
$GNGSA,A,3,38,08,39,13,16,06,46,09,19,20,36,35,0.78,0.44,0.65,4*00
$GNGSA,A,3,29,22,,,,,,,,,,,0.78,0.44,0.65,4*03
$GPGSV,4,1,16,196,75,065,42,24,73,043,36,199,60,167,24,18,58,246,46,1*68
$GPGSV,4,2,16,23,51,339,25,41,38,242,45,15,37,047,22,195,34,180,17,1*53
$GPGSV,4,3,16,194,31,138,25,12,20,141,29,05,19,119,31,10,18,319,31,1*5E
$GPGSV,4,4,16,25,09,176,19,32,09,269,24,13,08,057,22,29,01,196,,1*6A
$GPGSV,3,1,09,196,75,065,40,24,73,043,45,199,60,167,37,18,58,246,45,8*6F
$GPGSV,3,2,09,23,51,339,38,195,34,180,26,194,31,138,33,10,18,319,24,8*64
$GPGSV,3,3,09,32,09,269,24,8*57
$GLGSV,2,1,08,80,48,076,45,70,40,011,,73,38,159,32,85,35,246,41,1*79
$GLGSV,2,2,08,86,27,302,43,71,22,314,44,69,13,074,18,79,11,032,18,1*7C
$GAGSV,3,1,09,13,56,231,43,08,46,025,15,07,44,303,43,26,32,307,41,7*73
$GAGSV,3,2,09,30,26,143,36,02,26,085,37,15,23,174,13,03,10,064,,7*75
$GAGSV,3,3,09,25,03,043,,7*49
$GAGSV,2,1,06,13,56,231,42,08,46,025,24,07,44,303,44,26,32,307,41,1*7F
$GAGSV,2,2,06,02,26,085,35,30,26,143,31,1*7D
$GBGSV,4,1,15,38,83,112,42,08,79,004,38,39,71,283,43,13,68,334,38,1*7B
$GBGSV,4,2,15,16,66,258,43,06,65,254,39,46,60,111,43,09,50,238,43,1*77
$GBGSV,4,3,15,19,49,345,31,20,43,063,31,36,35,184,22,37,22,047,,1*7B
$GBGSV,4,4,15,35,21,268,36,29,19,212,24,22,12,301,39,1*41
$GBGSV,3,1,09,38,83,112,45,39,71,283,44,46,60,111,45,19,49,345,31,4*7F
$GBGSV,3,2,09,20,43,063,30,36,35,184,21,35,21,268,30,29,19,212,22,4*7D
$GBGSV,3,3,09,22,12,301,32,4*4A
$GNACCURACY,2.3*17
$PAIRSAT,1,35,1,0,200,2,0,200,3,0,200,4,0,200,5,0,201,6,0,200,7,0,200,8,0,200,9,0,200,10,0,221,11,0,200,12,0,201,13,0,201,14,0,200,15,0,201,16,0,200,17,0,200,18,0,221,19,0,200,20,0,200,21,0,200,23,0,221,24,0,221,25,0,200,26,0,200,27,0,200,28,0,200,29,0,200,30,0,200,31,0,200,32,0,221,194,0,621,195,0,621,196,0,620,199,0,621*68
$PAIRSAT,2,23,65,0,200,67,0,200,68,0,200,69,0,201,70,0,201,71,0,201,72,0,200,73,0,201,74,0,200,75,0,200,76,0,200,77,0,200,78,0,200,79,0,201,80,0,201,81,0,200,82,0,200,83,0,200,84,0,200,85,0,201,86,0,201,87,0,200,88,0,200*53
$PAIRSAT,3,23,2,0,1221,3,0,1221,4,0,1200,5,0,200,7,0,1221,8,0,1221,9,0,1200,10,0,1200,11,0,1200,12,0,1200,13,0,1221,15,0,1221,19,0,1200,21,0,1200,24,0,1200,25,0,1200,26,0,1221,27,0,1200,30,0,1221,31,0,1200,33,0,1200,34,0,1200,36,0,1200*6A
$PAIRSAT,4,50,1,0,200,2,0,200,3,0,200,4,0,200,5,0,200,6,0,201,7,0,200,8,0,201,9,0,201,10,0,200,11,0,200,12,0,200,13,0,201,14,0,200,15,0,200,16,0,201,19,0,621,20,0,621,21,0,600,22,0,621,23,0,600,24,0,600,25,0,600,26,0,600,27,0,600,28,0,600,29,0,621,30,0,600,31,0,200,32,0,600,33,0,600,34,0,600,35,0,621,36,0,621,37,0,621,38,0,621,39,0,621,40,0,600,41,0,600,42,0,600,43,0,600,44,0,600,45,0,600,46,0,621,56,0,200,57,0,200,58,0,200,59,0,600,60,0,600,61,0,600*41
$PAIRDGP,11,5,10,12,13,15,18,23,24,25,29,32*6B
$GNGGA,112712.200,2500.8163400,N,12132.4718500,E,2,61,0.44,20.58,M,15.25,M,19,3335*43
$GNRMC,112712.200,A,2500.8163400,N,12132.4718500,E,0.02,287.56,260623,,,D,V*07
$GPHDT,,T*1B
$GNACCURACY,2.3*17
$GNGGA,112712.300,2500.8163400,N,12132.4718400,E,2,61,0.44,20.59,M,15.25,M,19,3335*42
$GNRMC,112712.300,A,2500.8163400,N,12132.4718400,E,0.02,287.56,260623,,,D,V*07
$GPHDT,,T*1B
$GNACCURACY,2.3*17
$GNGGA,112712.400,2500.8163400,N,12132.4718300,E,2,60,0.44,20.59,M,15.25,M,19,3335*43
$GNRMC,112712.400,A,2500.8163400,N,12132.4718300,E,0.02,287.56,260623,,,D,V*07
$GPHDT,,T*1B
$GNACCURACY,2.3*17
$GNGGA,112712.500,2500.8163500,N,12132.4718300,E,2,61,0.44,20.60,M,15.25,M,19,3335*48
$GNRMC,112712.500,A,2500.8163500,N,12132.4718300,E,0.02,287.56,260623,,,D,V*07
$GPHDT,,T*1B
$GNACCURACY,2.3*17
$GNGGA,112712.600,2500.8163500,N,12132.4718100,E,2,61,0.44,20.61,M,15.25,M,19,3335*48
$GNRMC,112712.600,A,2500.8163500,N,12132.4718100,E,0.02,287.56,260623,,,D,V*06
$GPHDT,,T*1B
$GNACCURACY,2.3*17
$GNGGA,112712.700,2500.8163600,N,12132.4718100,E,2,59,0.44,20.62,M,15.25,M,19,3335*42
$GNRMC,112712.700,A,2500.8163600,N,12132.4718100,E,0.02,287.56,260623,,,D,V*04
$GPHDT,,T*1B
$GNACCURACY,2.3*17
$GNGGA,112712.800,2500.8163600,N,12132.4718000,E,2,61,0.44,20.62,M,15.25,M,19,3335*47
$GNRMC,112712.800,A,2500.8163600,N,12132.4718000,E,0.02,287.56,260623,,,D,V*0A
$GPHDT,,T*1B
$GNACCURACY,2.3*17
$GNGGA,112712.900,2500.8163700,N,12132.4718000,E,2,62,0.44,20.63,M,15.25,M,19,3335*45
$GNRMC,112712.900,A,2500.8163700,N,12132.4718000,E,0.02,287.56,260623,,,D,V*0A
$GPHDT,,T*1B
$GNACCURACY,2.3*17
$GNGGA,112713.000,2500.8163700,N,12132.4717800,E,2,62,0.43,20.64,M,15.25,M,20,3335*40
$GNRMC,112713.000,A,2500.8163700,N,12132.4717800,E,0.03,287.56,260623,,,D,V*04
$GPHDT,,T*1B
$GNACCURACY,2.3*17
$GNGGA,112713.100,2500.8163700,N,12132.4717800,E,2,62,0.44,20.64,M,15.25,M,20,3335*46
$GNRMC,112713.100,A,2500.8163700,N,12132.4717800,E,0.03,287.56,260623,,,D,V*05
$GPHDT,,T*1B
$GNGSA,A,3,196,24,199,18,23,15,195,194,12,05,10,,0.77,0.43,0.64,1*07
$GNGSA,A,3,80,73,85,86,71,69,79,,,,,,0.77,0.43,0.64,2*0F
$GNGSA,A,3,13,08,07,26,30,02,15,,,,,,0.77,0.43,0.64,3*0A
$GNGSA,A,3,38,08,39,13,16,06,46,09,19,20,36,37,0.77,0.43,0.64,4*0B
$GNGSA,A,3,35,29,22,,,,,,,,,,0.77,0.43,0.64,4*0C
$GPGSV,4,1,16,196,75,065,42,24,73,043,37,199,60,167,22,18,58,246,46,1*6F
$GPGSV,4,2,16,23,51,339,26,41,38,242,45,15,37,047,25,195,34,180,16,1*56
$GPGSV,4,3,16,194,31,138,25,12,20,141,30,05,19,119,30,10,18,319,32,1*54
$GPGSV,4,4,16,25,09,176,19,32,09,269,25,13,08,057,22,29,01,196,,1*6B
$GPGSV,3,1,09,196,75,065,40,24,73,043,45,199,60,167,37,18,58,246,45,8*6F
$GPGSV,3,2,09,23,51,339,38,195,34,180,27,194,31,138,34,10,18,319,24,8*62
$GPGSV,3,3,09,32,09,269,21,8*52
$GLGSV,2,1,08,80,48,076,45,70,40,011,,73,38,159,31,85,35,246,41,1*7A
$GLGSV,2,2,08,86,27,302,43,71,22,314,44,69,13,074,19,79,11,032,17,1*72
$GAGSV,3,1,09,13,56,231,43,08,46,025,15,07,44,303,43,26,32,307,41,7*73
$GAGSV,3,2,09,30,26,143,36,02,26,085,37,15,23,174,15,03,10,064,,7*73
$GAGSV,3,3,09,25,03,043,,7*49
$GAGSV,2,1,06,13,56,231,42,08,46,025,24,07,44,303,44,26,32,307,41,1*7F
$GAGSV,2,2,06,02,26,085,36,30,26,143,31,1*7E
$GBGSV,4,1,15,38,83,112,42,08,79,004,39,39,71,283,43,13,68,334,38,1*7A
$GBGSV,4,2,15,16,66,258,43,06,65,254,39,46,60,111,43,09,50,238,43,1*77
$GBGSV,4,3,15,19,49,345,31,20,43,063,30,36,35,184,21,37,22,047,28,1*73
$GBGSV,4,4,15,35,21,268,37,29,19,212,26,22,12,301,39,1*42
$GBGSV,3,1,09,38,83,112,45,39,71,283,44,46,60,111,45,19,49,345,31,4*7F
$GBGSV,3,2,09,20,43,063,30,36,35,184,23,35,21,268,30,29,19,212,22,4*7F
$GBGSV,3,3,09,22,12,301,32,4*4A
$GNACCURACY,2.3*17
$PAIRSAT,1,35,1,0,200,2,0,200,3,0,200,4,0,200,5,0,201,6,0,200,7,0,200,8,0,200,9,0,200,10,0,221,11,0,200,12,0,201,13,0,201,14,0,200,15,0,201,16,0,200,17,0,200,18,0,221,19,0,200,20,0,200,21,0,200,23,0,221,24,0,221,25,0,200,26,0,200,27,0,200,28,0,200,29,0,200,30,0,200,31,0,200,32,0,221,194,0,621,195,0,621,196,0,620,199,0,621*68
$PAIRSAT,2,23,65,0,200,67,0,200,68,0,200,69,0,201,70,0,201,71,0,201,72,0,200,73,0,201,74,0,200,75,0,200,76,0,200,77,0,200,78,0,200,79,0,201,80,0,201,81,0,200,82,0,200,83,0,200,84,0,200,85,0,201,86,0,201,87,0,200,88,0,200*53
$PAIRSAT,3,23,2,0,1221,3,0,1221,4,0,1200,5,0,200,7,0,1221,8,0,1221,9,0,1200,10,0,1200,11,0,1200,12,0,1200,13,0,1221,15,0,1221,19,0,1200,21,0,1200,24,0,1200,25,0,1200,26,0,1221,27,0,1200,30,0,1221,31,0,1200,33,0,1200,34,0,1200,36,0,1200*6A
$PAIRSAT,4,50,1,0,200,2,0,200,3,0,200,4,0,200,5,0,200,6,0,201,7,0,200,8,0,201,9,0,201,10,0,200,11,0,200,12,0,200,13,0,201,14,0,200,15,0,200,16,0,201,19,0,621,20,0,621,21,0,600,22,0,621,23,0,600,24,0,600,25,0,600,26,0,600,27,0,600,28,0,600,29,0,621,30,0,600,31,0,200,32,0,600,33,0,600,34,0,600,35,0,621,36,0,621,37,0,621,38,0,621,39,0,621,40,0,600,41,0,600,42,0,600,43,0,600,44,0,600,45,0,600,46,0,621,56,0,200,57,0,200,58,0,200,59,0,600,60,0,600,61,0,600*41
$PAIRDGP,11,5,10,12,13,15,18,23,24,25,29,32*6B
$GNGGA,112713.200,2500.8163700,N,12132.4717700,E,2,63,0.43,20.66,M,15.25,M,20,3335*4E
$GNRMC,112713.200,A,2500.8163700,N,12132.4717700,E,0.02,287.56,260623,,,D,V*08
$GPHDT,,T*1B
$GNACCURACY,2.2*16
$GNGGA,112713.300,2500.8163700,N,12132.4717600,E,2,62,0.43,20.66,M,15.25,M,20,3335*4F
$GNRMC,112713.300,A,2500.8163700,N,12132.4717600,E,0.02,287.56,260623,,,D,V*08
$GPHDT,,T*1B
$GNACCURACY,2.2*16
$GNGGA,112713.400,2500.8163800,N,12132.4717500,E,2,62,0.43,20.68,M,15.25,M,20,3335*4A
$GNRMC,112713.400,A,2500.8163800,N,12132.4717500,E,0.02,287.56,260623,,,D,V*03
$GPHDT,,T*1B
$GNACCURACY,2.2*16
$GNGGA,112713.500,2500.8163800,N,12132.4717500,E,2,62,0.43,20.68,M,15.25,M,20,3335*4B
$GNRMC,112713.500,A,2500.8163800,N,12132.4717500,E,0.02,287.56,260623,,,D,V*02
$GPHDT,,T*1B
$GNACCURACY,2.2*16
$GNGGA,112713.600,2500.8163800,N,12132.4717400,E,2,60,0.44,20.69,M,15.25,M,20,3335*4D
$GNRMC,112713.600,A,2500.8163800,N,12132.4717400,E,0.02,287.56,260623,,,D,V*00
$GPHDT,,T*1B
$GNACCURACY,2.2*16
$GNGGA,112713.700,2500.8163800,N,12132.4717300,E,2,61,0.43,20.70,M,15.25,M,20,3335*45
$GNRMC,112713.700,A,2500.8163800,N,12132.4717300,E,0.02,287.56,260623,,,D,V*06
$GPHDT,,T*1B
$GNACCURACY,2.2*16
$GNGGA,112713.800,2500.8163800,N,12132.4717200,E,2,61,0.43,20.71,M,15.25,M,20,3335*4A
$GNRMC,112713.800,A,2500.8163800,N,12132.4717200,E,0.02,287.56,260623,,,D,V*08
$GPHDT,,T*1B
$GNACCURACY,2.2*16
$GNGGA,112713.900,2500.8163800,N,12132.4717100,E,2,61,0.44,20.72,M,15.25,M,20,3335*4C
$GNRMC,112713.900,A,2500.8163800,N,12132.4717100,E,0.02,287.56,260623,,,D,V*0A
$GPHDT,,T*1B
$GNACCURACY,2.2*16
$GNGGA,112714.000,2500.8163800,N,12132.4717100,E,2,59,0.44,20.73,M,15.25,M,21,3335*49
$GNRMC,112714.000,A,2500.8163800,N,12132.4717100,E,0.02,287.56,260623,,,D,V*04
$GPHDT,,T*1B
$GNACCURACY,2.2*16
$GNGGA,112714.100,2500.8163800,N,12132.4717000,E,2,60,0.44,20.74,M,15.25,M,21,3335*44
$GNRMC,112714.100,A,2500.8163800,N,12132.4717000,E,0.02,287.56,260623,,,D,V*04
$GPHDT,,T*1B
$GNGSA,A,3,196,24,18,23,15,195,12,05,10,199,194,,0.77,0.43,0.64,1*07
$GNGSA,A,3,80,73,85,86,71,69,79,,,,,,0.77,0.43,0.64,2*0F
$GNGSA,A,3,13,08,07,26,30,02,15,,,,,,0.77,0.43,0.64,3*0A
$GNGSA,A,3,38,08,39,13,16,06,46,09,19,20,37,35,0.77,0.43,0.64,4*08
$GNGSA,A,3,29,22,36,,,,,,,,,,0.77,0.43,0.64,4*0F
$GPGSV,4,1,16,196,75,065,42,24,73,043,38,199,60,167,23,18,58,246,46,1*61
$GPGSV,4,2,16,23,51,339,27,41,38,242,44,15,37,047,27,195,34,180,14,1*56
$GPGSV,4,3,16,194,31,138,22,12,20,141,31,05,19,119,30,10,18,319,31,1*51
$GPGSV,4,4,16,25,09,176,18,32,09,269,27,13,08,057,23,29,01,196,,1*69
$GPGSV,3,1,09,196,75,065,40,24,73,043,45,199,60,167,37,18,58,246,45,8*6F
$GPGSV,3,2,09,23,51,339,38,195,34,180,27,194,31,138,32,10,18,319,24,8*64
$GPGSV,3,3,09,32,09,269,24,8*57
$GLGSV,2,1,08,80,48,076,45,70,40,011,,73,38,159,31,85,35,246,41,1*7A
$GLGSV,2,2,08,86,27,302,43,71,22,314,44,69,13,074,18,79,11,032,17,1*73
$GAGSV,3,1,09,13,56,231,43,08,46,025,16,07,44,303,43,26,32,307,41,7*70
$GAGSV,3,2,09,30,26,143,33,02,26,085,36,15,23,174,14,03,10,064,,7*76
$GAGSV,3,3,09,25,03,043,,7*49
$GAGSV,2,1,06,13,56,231,42,08,46,025,25,07,44,303,44,26,32,307,41,1*7E
$GAGSV,2,2,06,02,26,085,35,30,26,143,30,1*7C
$GBGSV,4,1,15,38,83,112,42,08,79,004,39,39,71,283,43,13,68,334,39,1*7B
$GBGSV,4,2,15,16,66,258,43,06,65,254,39,46,60,111,43,09,50,238,43,1*77
$GBGSV,4,3,15,19,49,345,31,20,43,063,31,36,35,184,19,37,22,047,27,1*76
$GBGSV,4,4,15,35,21,268,37,29,19,212,28,22,12,301,39,1*4C
$GBGSV,3,1,09,38,83,112,45,39,71,283,44,46,60,111,45,19,49,345,31,4*7F
$GBGSV,3,2,09,20,43,063,29,36,35,184,24,35,21,268,31,29,19,212,22,4*71
$GBGSV,3,3,09,22,12,301,33,4*4B
$GNACCURACY,2.2*16
$PAIRSAT,1,35,1,0,200,2,0,200,3,0,200,4,0,200,5,0,201,6,0,200,7,0,200,8,0,200,9,0,200,10,0,221,11,0,200,12,0,201,13,0,201,14,0,200,15,0,201,16,0,200,17,0,200,18,0,221,19,0,200,20,0,200,21,0,200,23,0,221,24,0,221,25,0,200,26,0,200,27,0,200,28,0,200,29,0,200,30,0,200,31,0,200,32,0,221,194,0,621,195,0,621,196,0,620,199,0,621*68
$PAIRSAT,2,23,65,0,200,67,0,200,68,0,200,69,0,201,70,0,201,71,0,201,72,0,200,73,0,201,74,0,200,75,0,200,76,0,200,77,0,200,78,0,200,79,0,201,80,0,201,81,0,200,82,0,200,83,0,200,84,0,200,85,0,201,86,0,201,87,0,200,88,0,200*53
$PAIRSAT,3,23,2,0,1221,3,0,1221,4,0,1200,5,0,200,7,0,1221,8,0,1221,9,0,1200,10,0,1200,11,0,1200,12,0,1200,13,0,1221,15,0,1221,19,0,1200,21,0,1200,24,0,1200,25,0,1200,26,0,1221,27,0,1200,30,0,1221,31,0,1200,33,0,1200,34,0,1200,36,0,1200*6A
$PAIRSAT,4,50,1,0,200,2,0,200,3,0,200,4,0,200,5,0,200,6,0,201,7,0,200,8,0,201,9,0,201,10,0,200,11,0,200,12,0,200,13,0,201,14,0,200,15,0,200,16,0,201,19,0,621,20,0,621,21,0,600,22,0,621,23,0,600,24,0,600,25,0,600,26,0,600,27,0,600,28,0,600,29,0,621,30,0,600,31,0,200,32,0,600,33,0,600,34,0,600,35,0,621,36,0,621,37,0,621,38,0,621,39,0,621,40,0,600,41,0,600,42,0,600,43,0,600,44,0,600,45,0,600,46,0,621,56,0,200,57,0,200,58,0,200,59,0,600,60,0,600,61,0,600*41
$PAIRDGP,11,5,10,12,13,15,18,23,24,25,29,32*6B
$GNGGA,112714.200,2500.8163800,N,12132.4716900,E,2,60,0.43,20.74,M,15.25,M,21,3335*48
$GNRMC,112714.200,A,2500.8163800,N,12132.4716900,E,0.02,287.56,260623,,,D,V*0F
$GPHDT,,T*1B
$GNACCURACY,2.3*17
$GNGGA,112714.300,2500.8163800,N,12132.4716900,E,2,62,0.43,20.75,M,15.25,M,21,3335*4A
$GNRMC,112714.300,A,2500.8163800,N,12132.4716900,E,0.02,287.56,260623,,,D,V*0E
$GPHDT,,T*1B
$GNACCURACY,2.3*17
$GNGGA,112714.400,2500.8163900,N,12132.4716800,E,2,62,0.43,20.76,M,15.25,M,21,3335*4E
$GNRMC,112714.400,A,2500.8163900,N,12132.4716800,E,0.02,287.56,260623,,,D,V*09
$GPHDT,,T*1B
$GNACCURACY,2.3*17
$GNGGA,112714.500,2500.8163800,N,12132.4716800,E,2,62,0.43,20.76,M,15.25,M,21,3335*4E
$GNRMC,112714.500,A,2500.8163800,N,12132.4716800,E,0.02,287.56,260623,,,D,V*09
$GPHDT,,T*1B
$GNACCURACY,2.3*17
$GNGGA,112714.600,2500.8163800,N,12132.4716700,E,2,62,0.43,20.77,M,15.25,M,21,3335*43
$GNRMC,112714.600,A,2500.8163800,N,12132.4716700,E,0.02,287.56,260623,,,D,V*05
$GPHDT,,T*1B
$GNACCURACY,2.3*17
$GNGGA,112714.700,2500.8163800,N,12132.4716600,E,2,62,0.44,20.77,M,15.25,M,21,3335*44
$GNRMC,112714.700,A,2500.8163800,N,12132.4716600,E,0.02,287.56,260623,,,D,V*05
$GPHDT,,T*1B
$GNACCURACY,2.3*17
$GNGGA,112714.800,2500.8163900,N,12132.4716600,E,2,63,0.43,20.77,M,15.25,M,21,3335*4C
$GNRMC,112714.800,A,2500.8163900,N,12132.4716600,E,0.03,287.56,260623,,,D,V*0A
$GPHDT,,T*1B
$GNACCURACY,2.3*17
$GNGGA,112714.900,2500.8163900,N,12132.4716600,E,2,62,0.43,20.78,M,15.25,M,21,3335*43
$GNRMC,112714.900,A,2500.8163900,N,12132.4716600,E,0.03,287.56,260623,,,D,V*0B
$GPHDT,,T*1B
$GNACCURACY,2.3*17
$GNGGA,112715.000,2500.8163800,N,12132.4716600,E,2,62,0.43,20.79,M,15.25,M,22,3335*48
$GNRMC,112715.000,A,2500.8163800,N,12132.4716600,E,0.02,287.56,260623,,,D,V*03
$GPHDT,,T*1B
$GNACCURACY,2.3*17
$GNGGA,112715.100,2500.8163800,N,12132.4716600,E,2,62,0.43,20.80,M,15.25,M,22,3335*4F
$GNRMC,112715.100,A,2500.8163800,N,12132.4716600,E,0.02,287.56,260623,,,D,V*02
$GPHDT,,T*1B
$GNGSA,A,3,196,24,199,18,23,15,195,12,05,10,194,,0.77,0.43,0.64,1*07
$GNGSA,A,3,80,73,85,86,71,69,79,,,,,,0.77,0.43,0.64,2*0F
$GNGSA,A,3,13,08,07,26,02,30,15,,,,,,0.77,0.43,0.64,3*0A
$GNGSA,A,3,38,08,39,13,16,06,46,09,19,20,37,35,0.77,0.43,0.64,4*08
$GNGSA,A,3,29,22,36,,,,,,,,,,0.77,0.43,0.64,4*0F
$GPGSV,4,1,16,196,75,065,42,24,73,043,38,199,60,167,21,18,58,246,46,1*63
$GPGSV,4,2,16,23,51,339,27,41,38,242,44,15,37,047,26,195,34,180,17,1*54
$GPGSV,4,3,16,194,31,138,22,12,20,141,26,05,19,119,30,10,18,319,31,1*57
$GPGSV,4,4,16,25,09,176,18,32,09,269,29,13,08,057,25,29,01,196,,1*61
$GPGSV,3,1,09,196,75,065,41,24,73,043,45,199,60,167,38,18,58,246,45,8*61
$GPGSV,3,2,09,23,51,339,38,195,34,180,27,194,31,138,26,10,18,319,23,8*66
$GPGSV,3,3,09,32,09,269,22,8*51
$GLGSV,2,1,08,80,48,076,45,70,40,011,,73,38,159,32,85,35,246,40,1*78
$GLGSV,2,2,08,86,27,302,43,71,22,314,44,69,13,074,18,79,11,032,17,1*73
$GAGSV,3,1,09,13,56,231,42,08,46,025,14,07,44,303,43,26,32,307,41,7*73
$GAGSV,3,2,09,02,26,085,37,30,26,143,33,15,23,174,14,03,10,064,,7*77
$GAGSV,3,3,09,25,03,043,,7*49
$GAGSV,2,1,06,13,56,231,40,08,46,025,22,07,44,303,44,26,32,307,41,1*7B
$GAGSV,2,2,06,02,26,085,35,30,26,143,28,1*75
$GBGSV,5,1,18,38,83,112,42,08,79,004,39,39,71,283,43,13,68,334,39,1*77
$GBGSV,5,2,18,16,66,258,43,06,65,254,39,46,60,111,43,09,50,238,42,1*7A
$GBGSV,5,3,18,19,49,345,32,56,47,312,,20,43,063,31,31,37,210,,1*78
$GBGSV,5,4,18,36,35,184,19,37,22,047,31,35,21,268,37,29,19,212,29,1*79
$GBGSV,5,5,18,22,12,301,39,32,02,099,,1*77
$GBGSV,3,1,09,38,83,112,45,39,71,283,44,46,60,111,45,19,49,345,31,4*7F
$GBGSV,3,2,09,20,43,063,30,36,35,184,23,35,21,268,29,29,19,212,21,4*74
$GBGSV,3,3,09,22,12,301,33,4*4B
$GNACCURACY,2.3*17
$PAIRSAT,1,35,1,0,200,2,0,200,3,0,200,4,0,200,5,0,201,6,0,200,7,0,200,8,0,200,9,0,200,10,0,221,11,0,200,12,0,201,13,0,201,14,0,200,15,0,201,16,0,200,17,0,200,18,0,221,19,0,200,20,0,200,21,0,200,23,0,221,24,0,221,25,0,200,26,0,200,27,0,200,28,0,200,29,0,200,30,0,200,31,0,200,32,0,221,194,0,621,195,0,621,196,0,620,199,0,621*68
$PAIRSAT,2,23,65,0,200,67,0,200,68,0,200,69,0,201,70,0,201,71,0,201,72,0,200,73,0,201,74,0,200,75,0,200,76,0,200,77,0,200,78,0,200,79,0,201,80,0,201,81,0,200,82,0,200,83,0,200,84,0,200,85,0,201,86,0,201,87,0,200,88,0,200*53
$PAIRSAT,3,23,2,0,1221,3,0,1221,4,0,1200,5,0,200,7,0,1221,8,0,1221,9,0,1200,10,0,1200,11,0,1200,12,0,1200,13,0,1221,15,0,1221,19,0,1200,21,0,1200,24,0,1200,25,0,1200,26,0,1221,27,0,1200,30,0,1221,31,0,1200,33,0,1200,34,0,1200,36,0,1200*6A
$PAIRSAT,4,50,1,0,200,2,0,200,3,0,200,4,0,200,5,0,200,6,0,201,7,0,200,8,0,201,9,0,201,10,0,200,11,0,200,12,0,200,13,0,201,14,0,200,15,0,200,16,0,201,19,0,621,20,0,621,21,0,600,22,0,621,23,0,600,24,0,600,25,0,600,26,0,600,27,0,600,28,0,600,29,0,621,30,0,600,31,0,200,32,0,600,33,0,600,34,0,600,35,0,621,36,0,621,37,0,621,38,0,621,39,0,621,40,0,600,41,0,600,42,0,600,43,0,600,44,0,600,45,0,600,46,0,621,56,0,200,57,0,200,58,0,200,59,0,600,60,0,600,61,0,600*41
$PAIRDGP,11,5,10,12,13,15,18,23,24,25,29,32*6B
$GNGGA,112715.200,2500.8163800,N,12132.4716600,E,2,61,0.43,20.81,M,15.25,M,22,3335*4E
$GNRMC,112715.200,A,2500.8163800,N,12132.4716600,E,0.02,287.56,260623,,,D,V*01
$GPHDT,,T*1B
$GNACCURACY,2.3*17
$GNGGA,112715.300,2500.8163800,N,12132.4716500,E,2,62,0.43,20.81,M,15.25,M,22,3335*4F
$GNRMC,112715.300,A,2500.8163800,N,12132.4716500,E,0.02,287.56,260623,,,D,V*03
$GPHDT,,T*1B
$GNACCURACY,2.3*17
$GNGGA,112715.400,2500.8163800,N,12132.4716500,E,2,62,0.43,20.82,M,15.25,M,22,3335*4B
$GNRMC,112715.400,A,2500.8163800,N,12132.4716500,E,0.02,287.56,260623,,,D,V*04
$GPHDT,,T*1B
$GNACCURACY,2.3*17
$GNGGA,112715.500,2500.8163800,N,12132.4716500,E,2,62,0.43,20.82,M,15.25,M,22,3335*4A
$GNRMC,112715.500,A,2500.8163800,N,12132.4716500,E,0.02,287.56,260623,,,D,V*05
$GPHDT,,T*1B
$GNACCURACY,2.3*17
$GNGGA,112715.600,2500.8163800,N,12132.4716500,E,2,62,0.43,20.83,M,15.25,M,22,3335*48
$GNRMC,112715.600,A,2500.8163800,N,12132.4716500,E,0.02,287.56,260623,,,D,V*06
$GPHDT,,T*1B
$GNACCURACY,2.3*17
$GNGGA,112715.700,2500.8163900,N,12132.4716500,E,2,61,0.43,20.84,M,15.25,M,22,3335*4C
$GNRMC,112715.700,A,2500.8163900,N,12132.4716500,E,0.03,287.56,260623,,,D,V*07
$GPHDT,,T*1B
$GNACCURACY,2.3*17
$GNGGA,112715.800,2500.8163900,N,12132.4716500,E,2,62,0.43,20.84,M,15.25,M,22,3335*40
$GNRMC,112715.800,A,2500.8163900,N,12132.4716500,E,0.03,287.56,260623,,,D,V*08
$GPHDT,,T*1B
$GNACCURACY,2.3*17
$GNGGA,112715.900,2500.8164000,N,12132.4716400,E,2,62,0.43,20.84,M,15.25,M,22,3335*4E
$GNRMC,112715.900,A,2500.8164000,N,12132.4716400,E,0.03,287.56,260623,,,D,V*06
$GPHDT,,T*1B
$GNACCURACY,2.3*17
$GNGGA,112716.000,2500.8164000,N,12132.4716400,E,2,63,0.43,20.85,M,15.25,M,23,3335*45
$GNRMC,112716.000,A,2500.8164000,N,12132.4716400,E,0.03,287.56,260623,,,D,V*0C
$GPHDT,,T*1B
$GNACCURACY,2.3*17
$GNGGA,112716.100,2500.8164000,N,12132.4716400,E,2,63,0.43,20.86,M,15.25,M,23,3335*47
$GNRMC,112716.100,A,2500.8164000,N,12132.4716400,E,0.03,287.56,260623,,,D,V*0D
$GPHDT,,T*1B
$GNGSA,A,3,196,24,199,18,23,15,195,194,12,05,10,,0.77,0.43,0.64,1*07
$GNGSA,A,3,80,73,85,86,71,69,79,,,,,,0.77,0.43,0.64,2*0F
$GNGSA,A,3,13,08,07,26,30,02,15,,,,,,0.77,0.43,0.64,3*0A
$GNGSA,A,3,38,08,39,13,16,06,46,09,19,20,36,37,0.77,0.43,0.64,4*0B
$GNGSA,A,3,35,29,22,,,,,,,,,,0.77,0.43,0.64,4*0C
$GPGSV,4,1,16,196,75,065,43,24,73,043,38,199,60,167,26,18,58,246,46,1*65
$GPGSV,4,2,16,23,51,339,30,41,38,242,44,15,37,047,27,195,34,180,18,1*5C
$GPGSV,4,3,16,194,31,138,24,12,20,141,28,05,19,119,29,10,18,319,31,1*57
$GPGSV,4,4,16,25,09,176,19,32,09,269,29,13,08,057,23,29,01,196,,1*66
$GPGSV,3,1,09,196,75,065,43,24,73,043,46,199,60,167,35,18,58,246,45,8*6D
$GPGSV,3,2,09,23,51,339,38,195,34,180,26,194,31,138,24,10,18,319,24,8*62
$GPGSV,3,3,09,32,09,269,20,8*53
$GLGSV,2,1,08,80,48,076,46,70,40,011,,73,38,159,32,85,35,246,41,1*7A
$GLGSV,2,2,08,86,27,302,43,71,22,314,44,69,13,074,17,79,11,032,17,1*7C
$GAGSV,3,1,09,13,56,231,42,08,46,025,14,07,44,303,43,26,32,307,41,7*73
$GAGSV,3,2,09,30,26,143,32,02,26,085,36,15,23,174,14,03,10,064,,7*77
$GAGSV,3,3,09,25,03,043,,7*49
$GAGSV,2,1,06,13,56,231,40,08,46,025,21,07,44,303,44,26,32,307,41,1*78
$GAGSV,2,2,06,02,26,085,37,30,26,143,28,1*77
$GBGSV,4,1,15,38,83,112,42,08,79,004,38,39,71,283,43,13,68,334,39,1*7A
$GBGSV,4,2,15,16,66,258,43,06,65,254,39,46,60,111,43,09,50,238,42,1*76
$GBGSV,4,3,15,19,49,345,31,20,43,063,32,36,35,184,22,37,22,047,32,1*79
$GBGSV,4,4,15,35,21,268,37,29,19,212,29,22,12,301,39,1*4D
$GBGSV,3,1,09,38,83,112,45,39,71,283,44,46,60,111,44,19,49,345,31,4*7E
$GBGSV,3,2,09,20,43,063,31,36,35,184,23,35,21,268,29,29,19,212,22,4*76
$GBGSV,3,3,09,22,12,301,34,4*4C
$GNACCURACY,2.3*17
$PAIRSAT,1,35,1,0,200,2,0,200,3,0,200,4,0,200,5,0,201,6,0,200,7,0,200,8,0,200,9,0,200,10,0,221,11,0,200,12,0,201,13,0,201,14,0,200,15,0,201,16,0,200,17,0,200,18,0,221,19,0,200,20,0,200,21,0,200,23,0,221,24,0,221,25,0,200,26,0,200,27,0,200,28,0,200,29,0,200,30,0,200,31,0,200,32,0,221,194,0,621,195,0,621,196,0,620,199,0,621*68
$PAIRSAT,2,23,65,0,200,67,0,200,68,0,200,69,0,201,70,0,201,71,0,201,72,0,200,73,0,201,74,0,200,75,0,200,76,0,200,77,0,200,78,0,200,79,0,201,80,0,201,81,0,200,82,0,200,83,0,200,84,0,200,85,0,201,86,0,201,87,0,200,88,0,200*53
$PAIRSAT,3,23,2,0,1221,3,0,1221,4,0,1200,5,0,200,7,0,1221,8,0,1221,9,0,1200,10,0,1200,11,0,1200,12,0,1200,13,0,1221,15,0,1221,19,0,1200,21,0,1200,24,0,1200,25,0,1200,26,0,1221,27,0,1200,30,0,1221,31,0,1200,33,0,1200,34,0,1200,36,0,1200*6A
$PAIRSAT,4,50,1,0,200,2,0,200,3,0,200,4,0,200,5,0,200,6,0,201,7,0,200,8,0,201,9,0,201,10,0,200,11,0,200,12,0,200,13,0,201,14,0,200,15,0,200,16,0,201,19,0,621,20,0,621,21,0,600,22,0,621,23,0,600,24,0,600,25,0,600,26,0,600,27,0,600,28,0,600,29,0,621,30,0,600,31,0,200,32,0,600,33,0,600,34,0,600,35,0,621,36,0,621,37,0,621,38,0,621,39,0,621,40,0,600,41,0,600,42,0,600,43,0,600,44,0,600,45,0,600,46,0,621,56,0,200,57,0,200,58,0,200,59,0,600,60,0,600,61,0,600*41
$PAIRDGP,11,5,10,12,13,15,18,23,24,25,29,32*6B
$GNGGA,112716.200,2500.8164000,N,12132.4716400,E,2,63,0.43,20.86,M,15.25,M,23,3335*44
$GNRMC,112716.200,A,2500.8164000,N,12132.4716400,E,0.03,287.56,260623,,,D,V*0E
$GPHDT,,T*1B
$GNACCURACY,2.3*17
$GNGGA,112716.300,2500.8164000,N,12132.4716400,E,2,63,0.43,20.87,M,15.25,M,23,3335*44
$GNRMC,112716.300,A,2500.8164000,N,12132.4716400,E,0.03,287.56,260623,,,D,V*0F
$GPHDT,,T*1B
$GNACCURACY,2.3*17
$GNGGA,112716.400,2500.8164000,N,12132.4716400,E,2,63,0.43,20.88,M,15.25,M,23,3335*4C
$GNRMC,112716.400,A,2500.8164000,N,12132.4716400,E,0.03,287.56,260623,,,D,V*08
$GPHDT,,T*1B
$GNACCURACY,2.3*17
$GNGGA,112716.500,2500.8164000,N,12132.4716400,E,2,63,0.43,20.89,M,15.25,M,23,3335*4C
$GNRMC,112716.500,A,2500.8164000,