$FW : RTK35X,V1.1X0314AS,Lib20210517,1*54
$Tool : LOCOSYS , GNSS Firebird , v1.0.0.19*39
$---------------------------------------------------*2D
GSA,A,3,38,08,39,13,16,06,46,09,19,20,36,29,0.71,0.44,0.56,4*04
$GNGSA,A,3,22,37,35,,,,,,,,,,0.71,0.44,0.56,4*03
$GPGSV,4,1,16,196,75,065,42,24,74,043,40,199,60,167,26,18,58,246,42,1*68
$GPGSV,4,2,16,23,51,338,32,41,38,242,33,15,37,047,34,195,34,180,21,1*57
$GPGSV,4,3,16,194,31,138,16,12,20,141,30,05,19,119,35,10,18,319,29,1*5B
$GPGSV,4,4,16,25,09,176,16,32,09,269,19,13,08,057,12,29,01,196,,1*68
$GPGSV,3,1,09,196,75,065,40,24,74,043,46,199,60,167,38,18,58,246,40,8*61
$GPGSV,3,2,09,23,51,338,36,195,34,180,26,194,31,138,31,10,18,319,31,8*6D
$GPGSV,3,3,09,32,09,269,24,8*57
$GLGSV,2,1,08,80,48,076,46,70,40,010,,73,38,159,30,85,35,246,34,1*7B
$GLGSV,2,2,08,86,27,302,41,71,22,314,43,69,13,074,20,79,11,032,13,1*79
$GAGSV,3,1,10,13,56,232,40,08,46,025,22,07,44,303,42,26,32,307,40,7*7F
$GAGSV,3,2,10,02,26,085,38,30,26,143,34,15,23,174,17,03,10,064,,7*74
$GAGSV,3,3,10,25,03,043,,27,01,188,,7*74
$GAGSV,2,1,06,13,56,232,38,07,44,303,45,26,32,307,40,02,26,085,38,1*7A
$GAGSV,2,2,06,30,26,143,30,15,23,174,24,1*70
$GBGSV,4,1,15,38,83,111,43,08,79,004,39,39,71,283,44,13,68,334,39,1*7E
$GBGSV,4,2,15,16,66,258,37,06,65,254,35,46,60,111,44,09,50,238,38,1*73
$GBGSV,4,3,15,19,49,345,34,20,43,063,30,36,35,184,18,37,23,047,,1*77
$GBGSV,4,4,15,35,21,269,,29,19,212,32,22,11,301,37,1*4F
$GBGSV,3,1,09,38,83,111,44,39,71,283,45,46,60,111,46,19,49,345,29,4*76
$GBGSV,3,2,09,20,43,063,28,36,35,184,23,37,23,047,26,35,21,269,36,4*71
$GBGSV,3,3,09,22,11,301,36,4*4D
$GNACCURACY,2.4*10
$PAIRSAT,1,35,1,0,200,2,0,200,3,0,200,4,0,200,5,0,201,6,0,200,7,0,200,8,0,200,9,0,200,10,0,221,11,0,200,12,0,201,13,0,201,14,0,200,15,0,201,16,0,200,17,0,200,18,0,221,19,0,200,20,0,200,21,0,200,23,0,221,24,0,221,25,0,200,26,0,200,27,0,200,28,0,200,29,0,200,30,0,200,31,0,200,32,0,221,194,0,621,195,0,621,196,0,620,199,0,621*68
$PAIRSAT,2,23,65,0,200,67,0,200,68,0,200,69,0,201,70,0,201,71,0,201,72,0,200,73,0,201,74,0,200,75,0,200,76,0,200,77,0,200,78,0,200,79,0,201,80,0,201,81,0,200,82,0,200,83,0,200,84,0,200,85,0,201,86,0,201,87,0,200,88,0,200*53
$PAIRSAT,3,23,2,0,1221,3,0,1221,4,0,1200,5,0,200,7,0,1221,8,0,1221,9,0,1200,10,0,1200,11,0,1200,12,0,1200,13,0,1221,15,0,1221,19,0,1200,21,0,1200,24,0,1200,25,0,1200,26,0,1221,27,0,1200,30,0,1221,31,0,1200,33,0,1200,34,0,1200,36,0,1200*6A
$PAIRSAT,4,50,1,0,200,2,0,200,3,0,200,4,0,200,5,0,200,6,0,201,7,0,200,8,0,201,9,0,201,10,0,200,11,0,200,12,0,200,13,0,201,14,0,200,15,0,200,16,0,201,19,0,621,20,0,621,21,0,600,22,0,621,23,0,600,24,0,600,25,0,600,26,0,600,27,0,600,28,0,600,29,0,621,30,0,600,31,0,200,32,0,600,33,0,600,34,0,600,35,0,621,36,0,621,37,0,621,38,0,621,39,0,621,40,0,600,41,0,600,42,0,600,43,0,600,44,0,600,45,0,600,46,0,621,56,0,200,57,0,200,58,0,200,59,0,600,60,0,600,61,0,600*41
$PAIRDGP,11,5,10,12,13,15,18,23,24,25,29,32*6B
$GNGGA,112650.200,2500.8160700,N,12132.4730000,E,2,59,0.44,18.86,M,15.25,M,4,3335*74
$GNRMC,112650.200,A,2500.8160700,N,12132.4730000,E,0.01,287.56,260623,,,D,V*0C
$GPHDT,,T*1B
$GNACCURACY,2.4*10
$GNGGA,112650.300,2500.8160800,N,12132.4730000,E,2,59,0.44,18.86,M,15.25,M,4,3335*7A
$GNRMC,112650.300,A,2500.8160800,N,12132.4730000,E,0.01,287.56,260623,,,D,V*02
$GPHDT,,T*1B
$GNACCURACY,2.4*10
$GNGGA,112650.400,2500.8160900,N,12132.4730100,E,2,60,0.44,18.87,M,15.25,M,4,3335*76
$GNRMC,112650.400,A,2500.8160900,N,12132.4730100,E,0.01,287.56,260623,,,D,V*05
$GPHDT,,T*1B
$GNACCURACY,2.4*10
$GNGGA,112650.500,2500.8160900,N,12132.4730100,E,2,60,0.44,18.87,M,15.25,M,4,3335*77
$GNRMC,112650.500,A,2500.8160900,N,12132.4730100,E,0.00,287.56,260623,,,D,V*05
$GPHDT,,T*1B
$GNACCURACY,2.4*10
$GNGGA,112650.600,2500.8161000,N,12132.4730100,E,2,60,0.44,18.88,M,15.25,M,4,3335*73
$GNRMC,112650.600,A,2500.8161000,N,12132.4730100,E,0.00,287.56,260623,,,D,V*0E
$GPHDT,,T*1B
$GNACCURACY,2.4*10
$GNGGA,112650.700,2500.8161100,N,12132.4730100,E,2,60,0.44,18.88,M,15.25,M,4,3335*73
$GNRMC,112650.700,A,2500.8161100,N,12132.4730100,E,0.01,287.56,260623,,,D,V*0F
$GPHDT,,T*1B
$GNACCURACY,2.4*10
$GNGGA,112650.800,2500.8161100,N,12132.4730100,E,2,60,0.44,18.89,M,15.25,M,4,3335*7D
$GNRMC,112650.800,A,2500.8161100,N,12132.4730100,E,0.01,287.56,260623,,,D,V*00
$GPHDT,,T*1B
$GNACCURACY,2.4*10
$GNGGA,112650.900,2500.8161300,N,12132.4730200,E,2,60,0.44,18.90,M,15.25,M,4,3335*75
$GNRMC,112650.900,A,2500.8161300,N,12132.4730200,E,0.02,287.56,260623,,,D,V*03
$GPHDT,,T*1B
$GNACCURACY,2.4*10
$GNGGA,112651.000,2500.8161300,N,12132.4730200,E,2,59,0.44,18.91,M,15.25,M,5,3335*77
$GNRMC,112651.000,A,2500.8161300,N,12132.4730200,E,0.02,287.56,260623,,,D,V*0B
$GPHDT,,T*1B
$GNACCURACY,2.4*10
$GNGGA,112651.100,2500.8161400,N,12132.4730300,E,2,59,0.44,18.92,M,15.25,M,5,3335*73
$GNRMC,112651.100,A,2500.8161400,N,12132.4730300,E,0.02,287.56,260623,,,D,V*0C
$GPHDT,,T*1B
$GNGSA,A,3,196,24,199,18,23,15,195,12,05,10,194,,0.71,0.44,0.56,1*07
$GNGSA,A,3,80,73,85,86,71,69,,,,,,,0.71,0.44,0.56,2*01
$GNGSA,A,3,13,08,07,26,30,02,15,,,,,,0.71,0.44,0.56,3*0A
$GNGSA,A,3,38,08,39,13,16,06,46,09,19,20,37,29,0.71,0.44,0.56,4*05
$GNGSA,A,3,22,36,35,,,,,,,,,,0.71,0.44,0.56,4*02
$GPGSV,4,1,16,196,75,065,42,24,74,043,40,199,60,167,26,18,58,246,43,1*69
$GPGSV,4,2,16,23,51,338,31,41,38,242,32,15,37,047,33,195,34,180,22,1*51
$GPGSV,4,3,16,194,31,138,16,12,20,141,31,05,19,119,35,10,18,319,28,1*5B
$GPGSV,4,4,16,25,09,176,16,32,09,269,20,13,08,057,15,29,01,196,,1*65
$GPGSV,3,1,09,196,75,065,39,24,74,043,46,199,60,167,38,18,58,246,41,8*6E
$GPGSV,3,2,09,23,51,338,36,195,34,180,26,194,31,138,33,10,18,319,28,8*67
$GPGSV,3,3,09,32,09,269,21,8*52
$GLGSV,2,1,08,80,48,076,45,70,40,010,,73,38,159,30,85,35,246,24,1*79
$GLGSV,2,2,08,86,27,302,41,71,22,314,42,69,13,074,21,79,11,032,14,1*7E
$GAGSV,3,1,09,13,56,232,41,08,46,025,20,07,44,303,42,26,32,307,40,7*74
$GAGSV,3,2,09,30,26,143,34,02,26,085,38,15,23,174,14,03,10,064,,7*7F
$GAGSV,3,3,09,27,01,188,,7*4F
$GAGSV,2,1,07,13,56,232,35,08,46,025,22,07,44,303,44,26,32,307,42,1*78
$GAGSV,2,2,07,02,26,085,39,30,26,143,29,15,23,174,23,1*4F
$GBGSV,4,1,15,38,83,111,43,08,79,004,39,39,71,283,43,13,68,334,39,1*79
$GBGSV,4,2,15,16,66,258,40,06,65,254,36,46,60,111,45,09,50,238,37,1*7E
$GBGSV,4,3,15,19,49,345,34,20,43,063,30,36,35,184,18,37,23,047,22,1*77
$GBGSV,4,4,15,35,21,269,,29,19,212,34,22,11,301,36,1*48
$GBGSV,3,1,09,38,83,111,45,39,71,283,45,46,60,111,46,19,49,345,30,4*7F
$GBGSV,3,2,09,20,43,063,29,36,35,184,24,37,23,047,25,35,21,269,34,4*76
$GBGSV,3,3,09,22,11,301,37,4*4C
$GNACCURACY,2.4*10
$PAIRSAT,1,35,1,0,200,2,0,200,3,0,200,4,0,200,5,0,201,6,0,200,7,0,200,8,0,200,9,0,200,10,0,221,11,0,200,12,0,201,13,0,201,14,0,200,15,0,201,16,0,200,17,0,200,18,0,221,19,0,200,20,0,200,21,0,200,23,0,221,24,0,221,25,0,200,26,0,200,27,0,200,28,0,200,29,0,200,30,0,200,31,0,200,32,0,221,194,0,621,195,0,621,196,0,620,199,0,621*68
$PAIRSAT,2,23,65,0,200,67,0,200,68,0,200,69,0,201,70,0,201,71,0,201,72,0,200,73,0,201,74,0,200,75,0,200,76,0,200,77,0,200,78,0,200,79,0,201,80,0,201,81,0,200,82,0,200,83,0,200,84,0,200,85,0,201,86,0,201,87,0,200,88,0,200*53
$PAIRSAT,3,23,2,0,1221,3,0,1221,4,0,1200,5,0,200,7,0,1221,8,0,1221,9,0,1200,10,0,1200,11,0,1200,12,0,1200,13,0,1221,15,0,1221,19,0,1200,21,0,1200,24,0,1200,25,0,1200,26,0,1221,27,0,1200,30,0,1221,31,0,1200,33,0,1200,34,0,1200,36,0,1200*6A
$PAIRSAT,4,50,1,0,200,2,0,200,3,0,200,4,0,200,5,0,200,6,0,201,7,0,200,8,0,201,9,0,201,10,0,200,11,0,200,12,0,200,13,0,201,14,0,200,15,0,200,16,0,201,19,0,621,20,0,621,21,0,600,22,0,621,23,0,600,24,0,600,25,0,600,26,0,600,27,0,600,28,0,600,29,0,621,30,0,600,31,0,200,32,0,600,33,0,600,34,0,600,35,0,621,36,0,621,37,0,621,38,0,621,39,0,621,40,0,600,41,0,600,42,0,600,43,0,600,44,0,600,45,0,600,46,0,621,56,0,200,57,0,200,58,0,200,59,0,600,60,0,600,61,0,600*41
$PAIRDGP,11,5,10,12,13,15,18,23,24,25,29,32*6B
$GNGGA,112651.200,2500.8161600,N,12132.4730300,E,2,60,0.44,18.93,M,15.25,M,5,3335*79
$GNRMC,112651.200,A,2500.8161600,N,12132.4730300,E,0.02,287.56,260623,,,D,V*0D
$GPHDT,,T*1B
$GNACCURACY,2.4*10
$GNGGA,112651.300,2500.8161600,N,12132.4730300,E,2,60,0.44,18.94,M,15.25,M,5,3335*7F
$GNRMC,112651.300,A,2500.8161600,N,12132.4730300,E,0.01,287.56,260623,,,D,V*0F
$GPHDT,,T*1B
$GNACCURACY,2.4*10
$GNGGA,112651.400,2500.8161700,N,12132.4730300,E,2,60,0.44,18.95,M,15.25,M,5,3335*78
$GNRMC,112651.400,A,2500.8161700,N,12132.4730300,E,0.00,287.56,260623,,,D,V*08
$GPHDT,,T*1B
$GNACCURACY,2.4*10
$GNGGA,112651.500,2500.8161700,N,12132.4730300,E,2,60,0.44,18.96,M,15.25,M,5,3335*7A
$GNRMC,112651.500,A,2500.8161700,N,12132.4730300,E,0.01,287.56,260623,,,D,V*08
$GPHDT,,T*1B
$GNACCURACY,2.4*10
$GNGGA,112651.600,2500.8161700,N,12132.4730300,E,2,59,0.44,18.97,M,15.25,M,5,3335*72
$GNRMC,112651.600,A,2500.8161700,N,12132.4730300,E,0.00,287.56,260623,,,D,V*0A
$GPHDT,,T*1B
$GNACCURACY,2.4*10
$GNGGA,112651.700,2500.8161700,N,12132.4730200,E,2,59,0.44,18.98,M,15.25,M,5,3335*7D
$GNRMC,112651.700,A,2500.8161700,N,12132.4730200,E,0.01,287.56,260623,,,D,V*0B
$GPHDT,,T*1B
$GNACCURACY,2.3*17
$GNGGA,112651.800,2500.8161900,N,12132.4730200,E,2,59,0.44,19.00,M,15.25,M,5,3335*7C
$GNRMC,112651.800,A,2500.8161900,N,12132.4730200,E,0.02,287.56,260623,,,D,V*09
$GPHDT,,T*1B
$GNACCURACY,2.3*17
$GNGGA,112651.900,2500.8161900,N,12132.4730100,E,2,60,0.44,19.02,M,15.25,M,5,3335*76
$GNRMC,112651.900,A,2500.8161900,N,12132.4730100,E,0.01,287.56,260623,,,D,V*08
$GPHDT,,T*1B
$GNACCURACY,2.3*17
$GNGGA,112652.000,2500.8161900,N,12132.4730100,E,2,60,0.44,19.03,M,15.25,M,6,3335*7E
$GNRMC,112652.000,A,2500.8161900,N,12132.4730100,E,0.02,287.56,260623,,,D,V*01
$GPHDT,,T*1B
$GNACCURACY,2.3*17
$GNGGA,112652.100,2500.8161900,N,12132.4730100,E,2,60,0.44,19.05,M,15.25,M,6,3335*79
$GNRMC,112652.100,A,2500.8161900,N,12132.4730100,E,0.03,287.56,260623,,,D,V*01
$GPHDT,,T*1B
$GNGSA,A,3,196,24,199,18,23,15,195,12,05,10,194,,0.71,0.44,0.56,1*07
$GNGSA,A,3,80,73,85,86,71,69,,,,,,,0.71,0.44,0.56,2*01
$GNGSA,A,3,13,08,07,26,30,02,15,,,,,,0.71,0.44,0.56,3*0A
$GNGSA,A,3,38,08,39,13,16,06,46,09,19,20,37,29,0.71,0.44,0.56,4*05
$GNGSA,A,3,22,36,35,,,,,,,,,,0.71,0.44,0.56,4*02
$GPGSV,4,1,16,196,75,065,42,24,74,043,40,199,60,167,23,18,58,246,45,1*6A
$GPGSV,4,2,16,23,51,338,31,41,38,242,34,15,37,047,33,195,34,180,22,1*57
$GPGSV,4,3,16,194,31,138,15,12,20,141,31,05,19,119,35,10,18,319,26,1*56
$GPGSV,4,4,16,25,09,176,16,32,09,269,21,13,08,057,15,29,01,196,,1*64
$GPGSV,3,1,09,196,75,065,41,24,74,043,46,199,60,167,38,18,58,246,42,8*62
$GPGSV,3,2,09,23,51,338,36,195,34,180,26,194,31,138,33,10,18,319,25,8*6A
$GPGSV,3,3,09,32,09,269,24,8*57
$GLGSV,2,1,08,80,48,076,45,70,40,010,,73,38,159,30,85,35,246,29,1*74
$GLGSV,2,2,08,86,27,302,41,71,22,314,43,69,13,074,22,79,11,032,15,1*7D
$GAGSV,3,1,09,13,56,232,41,08,46,025,21,07,44,303,42,26,32,307,40,7*75
$GAGSV,3,2,09,30,26,143,33,02,26,085,38,15,23,174,12,03,10,064,,7*7E
$GAGSV,3,3,09,27,01,188,,7*4F
$GAGSV,2,1,07,13,56,232,40,08,46,025,23,07,44,303,44,26,32,307,42,1*7B
$GAGSV,2,2,07,02,26,085,40,30,26,143,29,15,23,174,24,1*46
$GBGSV,4,1,16,38,83,111,42,08,79,004,39,39,71,283,43,13,68,334,39,1*7B
$GBGSV,4,2,16,16,66,258,41,06,65,254,38,46,60,111,45,09,50,238,39,1*7C
$GBGSV,4,3,16,19,49,345,33,20,43,063,29,36,35,184,17,37,23,047,23,1*75
$GBGSV,4,4,16,35,21,269,,29,19,212,32,22,11,301,39,32,02,099,,1*71
$GBGSV,3,1,09,38,83,111,45,39,71,283,45,46,60,111,46,19,49,345,30,4*7F
$GBGSV,3,2,09,20,43,063,30,36,35,184,21,37,23,047,24,35,21,269,34,4*7A
$GBGSV,3,3,09,22,11,301,37,4*4C
$GNACCURACY,2.4*10
$PAIRSAT,1,35,1,0,200,2,0,200,3,0,200,4,0,200,5,0,201,6,0,200,7,0,200,8,0,200,9,0,200,10,0,221,11,0,200,12,0,201,13,0,201,14,0,200,15,0,201,16,0,200,17,0,200,18,0,221,19,0,200,20,0,200,21,0,200,23,0,221,24,0,221,25,0,200,26,0,200,27,0,200,28,0,200,29,0,200,30,0,200,31,0,200,32,0,221,194,0,621,195,0,621,196,0,620,199,0,621*68
$PAIRSAT,2,23,65,0,200,67,0,200,68,0,200,69,0,201,70,0,201,71,0,201,72,0,200,73,0,201,74,0,200,75,0,200,76,0,200,77,0,200,78,0,200,79,0,201,80,0,201,81,0,200,82,0,200,83,0,200,84,0,200,85,0,201,86,0,201,87,0,200,88,0,200*53
$PAIRSAT,3,23,2,0,1221,3,0,1221,4,0,1200,5,0,200,7,0,1221,8,0,1221,9,0,1200,10,0,1200,11,0,1200,12,0,1200,13,0,1221,15,0,1221,19,0,1200,21,0,1200,24,0,1200,25,0,1200,26,0,1221,27,0,1200,30,0,1221,31,0,1200,33,0,1200,34,0,1200,36,0,1200*6A
$PAIRSAT,4,50,1,0,200,2,0,200,3,0,200,4,0,200,5,0,200,6,0,201,7,0,200,8,0,201,9,0,201,10,0,200,11,0,200,12,0,200,13,0,201,14,0,200,15,0,200,16,0,201,19,0,621,20,0,621,21,0,600,22,0,621,23,0,600,24,0,600,25,0,600,26,0,600,27,0,600,28,0,600,29,0,621,30,0,600,31,0,200,32,0,600,33,0,600,34,0,600,35,0,621,36,0,621,37,0,621,38,0,621,39,0,621,40,0,600,41,0,600,42,0,600,43,0,600,44,0,600,45,0,600,46,0,621,56,0,200,57,0,200,58,0,200,59,0,600,60,0,600,61,0,600*41
$PAIRDGP,11,5,10,12,13,15,18,23,24,25,29,32*6B
$GNGGA,112652.200,2500.8161900,N,12132.4730100,E,2,60,0.44,19.07,M,15.25,M,6,3335*78
$GNRMC,112652.200,A,2500.8161900,N,12132.4730100,E,0.02,287.56,260623,,,D,V*03
$GPHDT,,T*1B
$GNACCURACY,2.4*10
$GNGGA,112652.300,2500.8161900,N,12132.4730000,E,2,61,0.44,19.08,M,15.25,M,6,3335*76
$GNRMC,112652.300,A,2500.8161900,N,12132.4730000,E,0.02,287.56,260623,,,D,V*03
$GPHDT,,T*1B
$GNACCURACY,2.4*10
$GNGGA,112652.400,2500.8161900,N,12132.4730000,E,2,60,0.44,19.09,M,15.25,M,6,3335*71
$GNRMC,112652.400,A,2500.8161900,N,12132.4730000,E,0.02,287.56,260623,,,D,V*04
$GPHDT,,T*1B
$GNACCURACY,2.4*10
$GNGGA,112652.500,2500.8161900,N,12132.4729900,E,2,61,0.44,19.11,M,15.25,M,6,3335*79
$GNRMC,112652.500,A,2500.8161900,N,12132.4729900,E,0.01,287.56,260623,,,D,V*07
$GPHDT,,T*1B
$GNACCURACY,2.4*10
$GNGGA,112652.600,2500.8161900,N,12132.4729800,E,2,61,0.44,19.13,M,15.25,M,6,3335*79
$GNRMC,112652.600,A,2500.8161900,N,12132.4729800,E,0.01,287.56,260623,,,D,V*05
$GPHDT,,T*1B
$GNACCURACY,2.4*10
$GNGGA,112652.700,2500.8161900,N,12132.4729700,E,2,61,0.44,19.14,M,15.25,M,6,3335*70
$GNRMC,112652.700,A,2500.8161900,N,12132.4729700,E,0.01,287.56,260623,,,D,V*0B
$GPHDT,,T*1B
$GNACCURACY,2.4*10
$GNGGA,112652.800,2500.8161900,N,12132.4729700,E,2,60,0.44,19.16,M,15.25,M,6,3335*7C
$GNRMC,112652.800,A,2500.8161900,N,12132.4729700,E,0.02,287.56,260623,,,D,V*07
$GPHDT,,T*1B
$GNACCURACY,2.4*10
$GNGGA,112652.900,2500.8162000,N,12132.4729700,E,2,60,0.44,19.17,M,15.25,M,6,3335*76
$GNRMC,112652.900,A,2500.8162000,N,12132.4729700,E,0.02,287.56,260623,,,D,V*0C
$GPHDT,,T*1B
$GNACCURACY,2.4*10
$GNGGA,112653.000,2500.8162000,N,12132.4729600,E,2,61,0.44,19.20,M,15.25,M,7,3335*7B
$GNRMC,112653.000,A,2500.8162000,N,12132.4729600,E,0.02,287.56,260623,,,D,V*05
$GPHDT,,T*1B
$GNACCURACY,2.4*10
$GNGGA,112653.100,2500.8161900,N,12132.4729500,E,2,59,0.44,19.21,M,15.25,M,1,3335*7F
$GNRMC,112653.100,A,2500.8161900,N,12132.4729500,E,0.02,287.56,260623,,,D,V*0D
$GPHDT,,T*1B
$GNGSA,A,3,196,24,199,18,23,15,195,12,05,10,194,,0.71,0.44,0.56,1*07
$GNGSA,A,3,80,73,85,86,71,69,,,,,,,0.71,0.44,0.56,2*01
$GNGSA,A,3,13,08,07,26,30,02,15,,,,,,0.71,0.44,0.56,3*0A
$GNGSA,A,3,38,08,39,13,16,06,46,09,19,20,29,22,0.71,0.44,0.56,4*01
$GNGSA,A,3,36,37,35,,,,,,,,,,0.71,0.44,0.56,4*06
$GPGSV,4,1,16,196,75,065,42,24,74,043,40,199,60,167,25,18,58,246,45,1*6C
$GPGSV,4,2,16,23,51,338,31,41,38,242,28,15,37,047,33,195,34,180,22,1*5A
$GPGSV,4,3,16,194,31,138,15,12,20,141,29,05,19,119,35,10,18,319,25,1*5C
$GPGSV,4,4,16,25,09,176,16,32,09,269,20,13,08,057,16,29,01,196,,1*66
$GPGSV,3,1,09,196,75,065,41,24,74,043,46,199,60,167,38,18,58,246,42,8*62
$GPGSV,3,2,09,23,51,338,36,195,34,180,27,194,31,138,33,10,18,319,28,8*66
$GPGSV,3,3,09,32,09,269,24,8*57
$GLGSV,2,1,08,80,48,076,45,70,40,010,,73,38,159,30,85,35,246,30,1*7C
$GLGSV,2,2,08,86,27,302,42,71,22,314,43,69,13,074,23,79,11,032,14,1*7E
$GAGSV,3,1,09,13,56,232,41,08,46,025,21,07,44,303,42,26,32,307,40,7*75
$GAGSV,3,2,09,30,26,143,33,02,26,085,37,15,23,174,12,03,10,064,,7*71
$GAGSV,3,3,09,27,01,188,,7*4F
$GAGSV,2,1,07,13,56,232,40,08,46,025,22,07,44,303,44,26,32,307,42,1*7A
$GAGSV,2,2,07,02,26,085,40,30,26,143,30,15,23,174,24,1*4E
$GBGSV,4,1,15,38,83,111,42,08,79,004,39,39,71,283,43,13,68,334,39,1*78
$GBGSV,4,2,15,16,66,258,41,06,65,254,39,46,60,111,45,09,50,238,39,1*7E
$GBGSV,4,3,15,19,49,345,33,20,43,063,29,36,35,184,18,37,23,047,23,1*79
$GBGSV,4,4,15,35,21,269,,29,19,212,32,22,11,301,39,1*41
$GBGSV,3,1,09,38,83,111,46,39,71,283,45,46,60,111,46,19,49,345,30,4*7C
$GBGSV,3,2,09,20,43,063,31,36,35,184,20,37,23,047,24,35,21,269,33,4*7D
$GBGSV,3,3,09,22,11,301,38,4*43
$GNACCURACY,2.4*10
$PAIRSAT,1,35,1,0,200,2,0,200,3,0,200,4,0,200,5,0,201,6,0,200,7,0,200,8,0,200,9,0,200,10,0,221,11,0,200,12,0,201,13,0,201,14,0,200,15,0,201,16,0,200,17,0,200,18,0,221,19,0,200,20,0,200,21,0,200,23,0,221,24,0,221,25,0,200,26,0,200,27,0,200,28,0,200,29,0,200,30,0,200,31,0,200,32,0,221,194,0,621,195,0,621,196,0,620,199,0,621*68
$PAIRSAT,2,23,65,0,200,67,0,200,68,0,200,69,0,201,70,0,201,71,0,201,72,0,200,73,0,201,74,0,200,75,0,200,76,0,200,77,0,200,78,0,200,79,0,201,80,0,201,81,0,200,82,0,200,83,0,200,84,0,200,85,0,201,86,0,201,87,0,200,88,0,200*53
$PAIRSAT,3,23,2,0,1221,3,0,1221,4,0,1200,5,0,200,7,0,1221,8,0,1221,9,0,1200,10,0,1200,11,0,1200,12,0,1200,13,0,1221,15,0,1221,19,0,1200,21,0,1200,24,0,1200,25,0,1200,26,0,1221,27,0,1200,30,0,1221,31,0,1200,33,0,1200,34,0,1200,36,0,1200*6A
$PAIRSAT,4,50,1,0,200,2,0,200,3,0,200,4,0,200,5,0,200,6,0,201,7,0,200,8,0,201,9,0,201,10,0,200,11,0,200,12,0,200,13,0,201,14,0,200,15,0,200,16,0,201,19,0,621,20,0,621,21,0,600,22,0,621,23,0,600,24,0,600,25,0,600,26,0,600,27,0,600,28,0,600,29,0,621,30,0,600,31,0,200,32,0,600,33,0,600,34,0,600,35,0,621,36,0,621,37,0,621,38,0,621,39,0,621,40,0,600,41,0,600,42,0,600,43,0,600,44,0,600,45,0,600,46,0,621,56,0,200,57,0,200,58,0,200,59,0,600,60,0,600,61,0,600*41
$PAIRDGP,11,5,10,12,13,15,18,23,24,25,29,32*6B
$GNGGA,112653.200,2500.8161900,N,12132.4729400,E,2,59,0.44,19.23,M,15.25,M,1,3335*7F
$GNRMC,112653.200,A,2500.8161900,N,12132.4729400,E,0.02,287.56,260623,,,D,V*0F
$GPHDT,,T*1B
$GNACCURACY,2.4*10
$GNGGA,112653.300,2500.8161900,N,12132.4729300,E,2,59,0.44,19.25,M,15.25,M,1,3335*7F
$GNRMC,112653.300,A,2500.8161900,N,12132.4729300,E,0.02,287.56,260623,,,D,V*09
$GPHDT,,T*1B
$GNACCURACY,2.4*10
$GNGGA,112653.400,2500.8161900,N,12132.4729200,E,2,59,0.44,19.27,M,15.25,M,1,3335*7B
$GNRMC,112653.400,A,2500.8161900,N,12132.4729200,E,0.01,287.56,260623,,,D,V*0C
$GPHDT,,T*1B
$GNACCURACY,2.4*10
$GNGGA,112653.500,2500.8161900,N,12132.4729200,E,2,59,0.44,19.29,M,15.25,M,1,3335*74
$GNRMC,112653.500,A,2500.8161900,N,12132.4729200,E,0.02,287.56,260623,,,D,V*0E
$GPHDT,,T*1B
$GNACCURACY,2.4*10
$GNGGA,112653.600,2500.8161900,N,12132.4729100,E,2,59,0.44,19.31,M,15.25,M,0,3335*7C
$GNRMC,112653.600,A,2500.8161900,N,12132.4729100,E,0.02,287.56,260623,,,D,V*0E
$GPHDT,,T*1B
$GNACCURACY,2.4*10
$GNGGA,112653.700,2500.8161800,N,12132.4728900,E,2,59,0.44,19.32,M,15.25,M,0,3335*76
$GNRMC,112653.700,A,2500.8161800,N,12132.4728900,E,0.03,287.56,260623,,,D,V*06
$GPHDT,,T*1B
$GNACCURACY,2.4*10
$GNGGA,112653.800,2500.8161900,N,12132.4728900,E,2,59,0.44,19.34,M,15.25,M,0,3335*7E
$GNRMC,112653.800,A,2500.8161900,N,12132.4728900,E,0.03,287.56,260623,,,D,V*08
$GPHDT,,T*1B
$GNACCURACY,2.4*10
$GNGGA,112653.900,2500.8161900,N,12132.4728800,E,2,60,0.44,19.35,M,15.25,M,0,3335*75
$GNRMC,112653.900,A,2500.8161900,N,12132.4728800,E,0.03,287.56,260623,,,D,V*08
$GPHDT,,T*1B
$GNACCURACY,2.4*10
$GNGGA,112654.000,2500.8161900,N,12132.4728800,E,2,60,0.44,19.36,M,15.25,M,1,3335*79
$GNRMC,112654.000,A,2500.8161900,N,12132.4728800,E,0.02,287.56,260623,,,D,V*07
$GPHDT,,T*1B
$GNACCURACY,2.4*10
$GNGGA,112654.100,2500.8161800,N,12132.4728700,E,2,60,0.44,19.37,M,15.25,M,1,3335*77
$GNRMC,112654.100,A,2500.8161800,N,12132.4728700,E,0.02,287.56,260623,,,D,V*08
$GPHDT,,T*1B
$GNGSA,A,3,196,24,199,18,23,15,195,12,05,10,194,,0.71,0.44,0.56,1*07
$GNGSA,A,3,80,73,85,86,71,69,,,,,,,0.71,0.44,0.56,2*01
$GNGSA,A,3,13,08,07,26,30,02,15,,,,,,0.71,0.44,0.56,3*0A
$GNGSA,A,3,38,08,39,13,16,06,46,09,19,20,36,29,0.71,0.44,0.56,4*04
$GNGSA,A,3,22,37,35,,,,,,,,,,0.71,0.44,0.56,4*03
$GPGSV,4,1,16,196,75,065,42,24,74,043,39,199,60,167,28,18,58,246,45,1*6F
$GPGSV,4,2,16,23,51,338,30,41,38,242,34,15,37,047,31,195,34,180,23,1*55
$GPGSV,4,3,16,194,31,138,17,12,20,141,30,05,19,119,35,10,18,319,26,1*55
$GPGSV,4,4,16,25,09,176,16,32,09,269,24,13,08,057,16,29,01,196,,1*62
$GPGSV,3,1,09,196,75,065,41,24,74,043,46,199,60,167,38,18,58,246,43,8*63
$GPGSV,3,2,09,23,51,338,36,195,34,180,26,194,31,138,33,10,18,319,29,8*66
$GPGSV,3,3,09,32,09,269,22,8*51
$GLGSV,2,1,08,80,48,076,45,70,40,010,,73,38,159,29,85,35,246,32,1*76
$GLGSV,2,2,08,86,27,302,42,71,22,314,43,69,13,074,23,79,11,032,14,1*7E
$GAGSV,3,1,09,13,56,232,41,08,46,025,21,07,44,303,42,26,32,307,41,7*74
$GAGSV,3,2,09,30,26,143,34,02,26,085,37,15,23,174,11,03,10,064,,7*75
$GAGSV,3,3,09,27,01,188,,7*4F
$GAGSV,2,1,07,13,56,232,40,08,46,025,22,07,44,303,44,26,32,307,42,1*7A
$GAGSV,2,2,07,02,26,085,39,30,26,143,30,15,23,174,23,1*47
$GBGSV,4,1,15,38,83,111,42,08,79,004,39,39,71,283,43,13,68,334,39,1*78
$GBGSV,4,2,15,16,66,258,42,06,65,254,39,46,60,111,45,09,50,238,38,1*7C
$GBGSV,4,3,15,19,49,345,34,20,43,063,31,36,35,184,18,37,23,047,20,1*74
$GBGSV,4,4,15,35,21,269,24,29,19,212,30,22,11,301,39,1*45
$GBGSV,3,1,09,38,83,111,46,39,71,283,45,46,60,111,45,19,49,345,29,4*77
$GBGSV,3,2,09,20,43,063,31,36,35,184,23,37,23,047,26,35,21,269,33,4*7C
$GBGSV,3,3,09,22,11,301,38,4*43
$GNACCURACY,2.4*10
$PAIRSAT,1,35,1,0,200,2,0,200,3,0,200,4,0,200,5,0,201,6,0,200,7,0,200,8,0,200,9,0,200,10,0,221,11,0,200,12,0,201,13,0,201,14,0,200,15,0,201,16,0,200,17,0,200,18,0,221,19,0,200,20,0,200,21,0,200,23,0,221,24,0,221,25,0,200,26,0,200,27,0,200,28,0,200,29,0,200,30,0,200,31,0,200,32,0,221,194,0,621,195,0,621,196,0,620,199,0,621*68
$PAIRSAT,2,23,65,0,200,67,0,200,68,0,200,69,0,201,70,0,201,71,0,201,72,0,200,73,0,201,74,0,200,75,0,200,76,0,200,77,0,200,78,0,200,79,0,201,80,0,201,81,0,200,82,0,200,83,0,200,84,0,200,85,0,201,86,0,201,87,0,200,88,0,200*53
$PAIRSAT,3,23,2,0,1221,3,0,1221,4,0,1200,5,0,200,7,0,1221,8,0,1221,9,0,1200,10,0,1200,11,0,1200,12,0,1200,13,0,1221,15,0,1221,19,0,1200,21,0,1200,24,0,1200,25,0,1200,26,0,1221,27,0,1200,30,0,1221,31,0,1200,33,0,1200,34,0,1200,36,0,1200*6A
$PAIRSAT,4,50,1,0,200,2,0,200,3,0,200,4,0,200,5,0,200,6,0,201,7,0,200,8,0,201,9,0,201,10,0,200,11,0,200,12,0,200,13,0,201,14,0,200,15,0,200,16,0,201,19,0,621,20,0,621,21,0,600,22,0,621,23,0,600,24,0,600,25,0,600,26,0,600,27,0,600,28,0,600,29,0,621,30,0,600,31,0,200,32,0,600,33,0,600,34,0,600,35,0,621,36,0,621,37,0,621,38,0,621,39,0,621,40,0,600,41,0,600,42,0,600,43,0,600,44,0,600,45,0,600,46,0,621,56,0,200,57,0,200,58,0,200,59,0,600,60,0,600,61,0,600*41
$PAIRDGP,11,5,10,12,13,15,18,23,24,25,29,32*6B
$GNGGA,112654.200,2500.8161700,N,12132.4728600,E,2,60,0.44,19.38,M,15.25,M,1,3335*75
$GNRMC,112654.200,A,2500.8161700,N,12132.4728600,E,0.02,287.56,260623,,,D,V*05
$GPHDT,,T*1B
$GNACCURACY,2.4*10
$GNGGA,112654.300,2500.8161600,N,12132.4728500,E,2,59,0.44,19.40,M,15.25,M,1,3335*73
$GNRMC,112654.300,A,2500.8161600,N,12132.4728500,E,0.02,287.56,260623,,,D,V*06
$GPHDT,,T*1B
$GNACCURACY,2.4*10
$GNGGA,112654.400,2500.8161600,N,12132.4728500,E,2,60,0.44,19.41,M,15.25,M,1,3335*7F
$GNRMC,112654.400,A,2500.8161600,N,12132.4728500,E,0.02,287.56,260623,,,D,V*01
$GPHDT,,T*1B
$GNACCURACY,2.4*10
$GNGGA,112654.500,2500.8161600,N,12132.4728400,E,2,60,0.44,19.42,M,15.25,M,1,3335*7C
$GNRMC,112654.500,A,2500.8161600,N,12132.4728400,E,0.02,287.56,260623,,,D,V*01
$GPHDT,,T*1B
$GNACCURACY,2.4*10
$GNGGA,112654.600,2500.8161600,N,12132.4728300,E,2,60,0.44,19.43,M,15.25,M,1,3335*79
$GNRMC,112654.600,A,2500.8161600,N,12132.4728300,E,0.02,287.56,260623,,,D,V*05
$GPHDT,,T*1B
$GNACCURACY,2.4*10
$GNGGA,112654.700,2500.8161600,N,12132.4728300,E,2,59,0.44,19.45,M,15.25,M,1,3335*74
$GNRMC,112654.700,A,2500.8161600,N,12132.4728300,E,0.02,287.56,260623,,,D,V*04
$GPHDT,,T*1B
$GNACCURACY,2.4*10
$GNGGA,112654.800,2500.8161500,N,12132.4728200,E,2,60,0.44,19.45,M,15.25,M,1,3335*73
$GNRMC,112654.800,A,2500.8161500,N,12132.4728200,E,0.02,287.56,260623,,,D,V*09
$GPHDT,,T*1B
$GNACCURACY,2.4*10
$GNGGA,112654.900,2500.8161400,N,12132.4728200,E,2,59,0.44,19.46,M,15.25,M,1,3335*7A
$GNRMC,112654.900,A,2500.8161400,N,12132.4728200,E,0.02,287.56,260623,,,D,V*09
$GPHDT,,T*1B
$GNACCURACY,2.4*10
$GNGGA,112655.000,2500.8161300,N,12132.4728000,E,2,59,0.44,19.47,M,15.25,M,2,3335*75
$GNRMC,112655.000,A,2500.8161300,N,12132.4728000,E,0.02,287.56,260623,,,D,V*04
$GPHDT,,T*1B
$GNACCURACY,2.4*10
$GNGGA,112655.100,2500.8161200,N,12132.4728000,E,2,61,0.44,19.48,M,15.25,M,2,3335*71
$GNRMC,112655.100,A,2500.8161200,N,12132.4728000,E,0.02,287.56,260623,,,D,V*04
$GPHDT,,T*1B
$GNGSA,A,3,196,24,199,18,23,15,195,12,05,10,194,,0.71,0.44,0.56,1*07
$GNGSA,A,3,80,73,85,86,71,69,,,,,,,0.71,0.44,0.56,2*01
$GNGSA,A,3,13,08,07,26,30,02,15,,,,,,0.71,0.44,0.56,3*0A
$GNGSA,A,3,38,08,39,13,16,06,46,09,19,20,37,35,0.71,0.44,0.56,4*08
$GNGSA,A,3,29,22,36,,,,,,,,,,0.71,0.44,0.56,4*0F
$GPGSV,4,1,16,196,75,065,42,24,74,043,39,199,60,167,25,18,58,246,46,1*61
$GPGSV,4,2,16,23,51,338,30,41,38,242,43,15,37,047,31,195,34,180,22,1*54
$GPGSV,4,3,16,194,31,138,17,12,20,141,29,05,19,119,35,10,18,319,28,1*53
$GPGSV,4,4,16,25,09,176,16,32,09,269,27,13,08,057,16,29,01,196,,1*61
$GPGSV,3,1,09,196,75,065,41,24,74,043,46,199,60,167,38,18,58,246,44,8*64
$GPGSV,3,2,09,23,51,338,37,195,34,180,29,194,31,138,32,10,18,319,30,8*61
$GPGSV,3,3,09,32,09,269,23,8*50
$GLGSV,2,1,08,80,48,076,46,70,40,010,,73,38,159,29,85,35,246,38,1*7F
$GLGSV,2,2,08,86,27,302,42,71,22,314,43,69,13,074,22,79,11,032,17,1*7C
$GAGSV,3,1,09,13,56,232,41,08,46,025,20,07,44,303,42,26,32,307,41,7*75
$GAGSV,3,2,09,30,26,143,34,02,26,085,38,15,23,174,13,03,10,064,,7*78
$GAGSV,3,3,09,27,01,188,,7*4F
$GAGSV,2,1,07,13,56,232,40,08,46,025,23,07,44,303,44,26,32,307,42,1*7B
$GAGSV,2,2,07,02,26,085,39,30,26,143,30,15,23,174,23,1*47
$GBGSV,4,1,15,38,83,111,42,08,79,004,39,39,71,283,42,13,68,334,39,1*79
$GBGSV,4,2,15,16,66,258,42,06,65,254,39,46,60,111,45,09,50,238,39,1*7D
$GBGSV,4,3,15,19,49,345,34,20,43,063,31,36,35,184,18,37,22,047,20,1*75
$GBGSV,4,4,15,35,21,269,27,29,19,212,30,22,11,301,40,1*48
$GBGSV,3,1,09,38,83,111,46,39,71,283,45,46,60,111,45,19,49,345,29,4*77
$GBGSV,3,2,09,20,43,063,31,36,35,184,25,37,22,047,25,35,21,269,29,4*73
$GBGSV,3,3,09,22,11,301,38,4*43
$GNACCURACY,2.4*10
$PAIRSAT,1,35,1,0,200,2,0,200,3,0,200,4,0,200,5,0,201,6,0,200,7,0,200,8,0,200,9,0,200,10,0,221,11,0,200,12,0,201,13,0,201,14,0,200,15,0,201,16,0,200,17,0,200,18,0,221,19,0,200,20,0,200,21,0,200,23,0,221,24,0,221,25,0,200,26,0,200,27,0,200,28,0,200,29,0,200,30,0,200,31,0,200,32,0,221,194,0,621,195,0,621,196,0,620,199,0,621*68
$PAIRSAT,2,23,65,0,200,67,0,200,68,0,200,69,0,201,70,0,201,71,0,201,72,0,200,73,0,201,74,0,200,75,0,200,76,0,200,77,0,200,78,0,200,79,0,201,80,0,201,81,0,200,82,0,200,83,0,200,84,0,200,85,0,201,86,0,201,87,0,200,88,0,200*53
$PAIRSAT,3,23,2,0,1221,3,0,1221,4,0,1200,5,0,200,7,0,1221,8,0,1221,9,0,1200,10,0,1200,11,0,1200,12,0,1200,13,0,1221,15,0,1221,19,0,1200,21,0,1200,24,0,1200,25,0,1200,26,0,1221,27,0,1200,30,0,1221,31,0,1200,33,0,1200,34,0,1200,36,0,1200*6A
$PAIRSAT,4,50,1,0,200,2,0,200,3,0,200,4,0,200,5,0,200,6,0,201,7,0,200,8,0,201,9,0,201,10,0,200,11,0,200,12,0,200,13,0,201,14,0,200,15,0,200,16,0,201,19,0,621,20,0,621,21,0,600,22,0,621,23,0,600,24,0,600,25,0,600,26,0,600,27,0,600,28,0,600,29,0,621,30,0,600,31,0,200,32,0,600,33,0,600,34,0,600,35,0,621,36,0,621,37,0,621,38,0,621,39,0,621,40,0,600,41,0,600,42,0,600,43,0,600,44,0,600,45,0,600,46,0,621,56,0,200,57,0,200,58,0,200,59,0,600,60,0,600,61,0,600*41
$PAIRDGP,11,5,10,12,13,15,18,23,24,25,29,32*6B
$GNGGA,112655.200,2500.8161100,N,12132.4727900,E,2,61,0.44,19.49,M,15.25,M,2,3335*76
$GNRMC,112655.200,A,2500.8161100,N,12132.4727900,E,0.02,287.56,260623,,,D,V*02
$GPHDT,,T*1B
$GNACCURACY,2.4*10
$GNGGA,112655.300,2500.8161000,N,12132.4727800,E,2,61,0.44,19.50,M,15.25,M,2,3335*7F
$GNRMC,112655.300,A,2500.8161000,N,12132.4727800,E,0.02,287.56,260623,,,D,V*03
$GPHDT,,T*1B
$GNACCURACY,2.4*10
$GNGGA,112655.400,2500.8160900,N,12132.4727700,E,2,61,0.44,19.51,M,15.25,M,2,3335*7E
$GNRMC,112655.400,A,2500.8160900,N,12132.4727700,E,0.02,287.56,260623,,,D,V*03
$GPHDT,,T*1B
$GNACCURACY,2.4*10
$GNGGA,112655.500,2500.8160800,N,12132.4727600,E,2,60,0.44,19.52,M,15.25,M,2,3335*7D
$GNRMC,112655.500,A,2500.8160800,N,12132.4727600,E,0.01,287.56,260623,,,D,V*01
$GPHDT,,T*1B
$GNACCURACY,2.4*10
$GNGGA,112655.600,2500.8160700,N,12132.4727600,E,2,61,0.44,19.53,M,15.25,M,2,3335*71
$GNRMC,112655.600,A,2500.8160700,N,12132.4727600,E,0.01,287.56,260623,,,D,V*0D
$GPHDT,,T*1B
$GNACCURACY,2.4*10
$GNGGA,112655.700,2500.8160700,N,12132.4727500,E,2,62,0.44,19.53,M,15.25,M,2,3335*70
$GNRMC,112655.700,A,2500.8160700,N,12132.4727500,E,0.01,287.56,260623,,,D,V*0F
$GPHDT,,T*1B
$GNACCURACY,2.4*10
$GNGGA,112655.800,2500.8160600,N,12132.4727500,E,2,61,0.44,19.53,M,15.25,M,2,3335*7D
$GNRMC,112655.800,A,2500.8160600,N,12132.4727500,E,0.01,287.56,260623,,,D,V*01
$GPHDT,,T*1B
$GNACCURACY,2.4*10
$GNGGA,112655.900,2500.8160600,N,12132.4727500,E,2,61,0.44,19.53,M,15.25,M,2,3335*7C
$GNRMC,112655.900,A,2500.8160600,N,12132.4727500,E,0.01,287.56,260623,,,D,V*00
$GPHDT,,T*1B
$GNACCURACY,2.4*10
$GNGGA,112656.000,2500.8160600,N,12132.4727400,E,2,61,0.44,19.53,M,15.25,M,3,3335*76
$GNRMC,112656.000,A,2500.8160600,N,12132.4727400,E,0.02,287.56,260623,,,D,V*08
$GPHDT,,T*1B
$GNACCURACY,2.4*10
$GNGGA,112656.100,2500.8160600,N,12132.4727400,E,2,62,0.43,19.53,M,15.25,M,3,3335*73
$GNRMC,112656.100,A,2500.8160600,N,12132.4727400,E,0.02,287.56,260623,,,D,V*09
$GPHDT,,T*1B
$GNGSA,A,3,196,24,199,18,23,15,195,12,05,10,194,,0.69,0.43,0.54,1*0B
$GNGSA,A,3,80,73,85,86,71,69,79,,,,,,0.69,0.43,0.54,2*03
$GNGSA,A,3,13,08,07,26,30,02,15,,,,,,0.69,0.43,0.54,3*06
$GNGSA,A,3,38,08,39,13,16,06,46,09,19,20,36,35,0.69,0.43,0.54,4*05
$GNGSA,A,3,29,22,37,,,,,,,,,,0.69,0.43,0.54,4*02
$GPGSV,4,1,16,196,75,065,42,24,74,043,39,199,60,167,26,18,58,246,43,1*67
$GPGSV,4,2,16,23,51,338,28,41,38,242,30,15,37,047,31,195,34,180,21,1*5A
$GPGSV,4,3,16,194,31,138,20,12,20,141,30,05,19,119,34,10,18,319,28,1*5E
$GPGSV,4,4,16,25,09,176,16,32,09,269,26,13,08,057,16,29,01,196,,1*60
$GPGSV,3,1,09,196,75,065,40,24,74,043,46,199,60,167,38,18,58,246,41,8*60
$GPGSV,3,2,09,23,51,338,37,195,34,180,27,194,31,138,32,10,18,319,30,8*6F
$GPGSV,3,3,09,32,09,269,19,8*59
$GLGSV,2,1,08,80,48,076,46,70,40,010,,73,38,159,30,85,35,246,26,1*78
$GLGSV,2,2,08,86,27,302,42,71,22,314,43,69,13,074,22,79,11,032,17,1*7C
$GAGSV,3,1,09,13,56,232,40,08,46,025,23,07,44,303,43,26,32,307,41,7*76
$GAGSV,3,2,09,30,26,143,34,02,26,085,38,15,23,174,13,03,10,064,,7*78
$GAGSV,3,3,09,27,01,188,,7*4F
$GAGSV,2,1,07,13,56,232,35,08,46,025,22,07,44,303,44,26,32,307,43,1*79
$GAGSV,2,2,07,02,26,085,39,30,26,143,30,15,23,174,22,1*46
$GBGSV,4,1,15,38,83,112,43,08,79,004,39,39,71,283,43,13,68,334,39,1*7A
$GBGSV,4,2,15,16,66,258,42,06,65,254,37,46,60,111,45,09,50,238,34,1*7E
$GBGSV,4,3,15,19,49,345,34,20,43,063,33,36,35,184,18,37,22,047,,1*75
$GBGSV,4,4,15,35,21,269,30,29,19,212,30,22,11,301,38,1*41
$GBGSV,3,1,09,38,83,112,46,39,71,283,45,46,60,111,45,19,49,345,29,4*74
$GBGSV,3,2,09,20,43,063,31,36,35,184,24,37,22,047,26,35,21,269,33,4*7A
$GBGSV,3,3,09,22,11,301,37,4*4C
$GNACCURACY,2.4*10
$PAIRSAT,1,35,1,0,200,2,0,200,3,0,200,4,0,200,5,0,201,6,0,200,7,0,200,8,0,200,9,0,200,10,0,221,11,0,200,12,0,201,13,0,201,14,0,200,15,0,201,16,0,200,17,0,200,18,0,221,19,0,200,20,0,200,21,0,200,23,0,221,24,0,221,25,0,200,26,0,200,27,0,200,28,0,200,29,0,200,30,0,200,31,0,200,32,0,221,194,0,621,195,0,621,196,0,620,199,0,621*68
$PAIRSAT,2,23,65,0,200,67,0,200,68,0,200,69,0,201,70,0,201,71,0,201,72,0,200,73,0,201,74,0,200,75,0,200,76,0,200,77,0,200,78,0,200,79,0,201,80,0,201,81,0,200,82,0,200,83,0,200,84,0,200,85,0,201,86,0,201,87,0,200,88,0,200*53
$PAIRSAT,3,23,2,0,1221,3,0,1221,4,0,1200,5,0,200,7,0,1221,8,0,1221,9,0,1200,10,0,1200,11,0,1200,12,0,1200,13,0,1221,15,0,1221,19,0,1200,21,0,1200,24,0,1200,25,0,1200,26,0,1221,27,0,1200,30,0,1221,31,0,1200,33,0,1200,34,0,1200,36,0,1200*6A
$PAIRSAT,4,50,1,0,200,2,0,200,3,0,200,4,0,200,5,0,200,6,0,201,7,0,200,8,0,201,9,0,201,10,0,200,11,0,200,12,0,200,13,0,201,14,0,200,15,0,200,16,0,201,19,0,621,20,0,621,21,0,600,22,0,621,23,0,600,24,0,600,25,0,600,26,0,600,27,0,600,28,0,600,29,0,621,30,0,600,31,0,200,32,0,600,33,0,600,34,0,600,35,0,621,36,0,621,37,0,621,38,0,621,39,0,621,40,0,600,41,0,600,42,0,600,43,0,600,44,0,600,45,0,600,46,0,621,56,0,200,57,0,200,58,0,200,59,0,600,60,0,600,61,0,600*41
$PAIRDGP,11,5,10,12,13,15,18,23,24,25,29,32*6B
$GNGGA,112656.200,2500.8160600,N,12132.4727400,E,2,62,0.43,19.53,M,15.25,M,3,3335*70
$GNRMC,112656.200,A,2500.8160600,N,12132.4727400,E,0.02,287.56,260623,,,D,V*0A
$GPHDT,,T*1B
$GNACCURACY,2.4*10
$GNGGA,112656.300,2500.8160600,N,12132.4727400,E,2,62,0.43,19.53,M,15.25,M,3,3335*71
$GNRMC,112656.300,A,2500.8160600,N,12132.4727400,E,0.02,287.56,260623,,,D,V*0B
$GPHDT,,T*1B
$GNACCURACY,2.4*10
$GNGGA,112656.400,2500.8160600,N,12132.4727400,E,2,62,0.43,19.53,M,15.25,M,3,3335*76
$GNRMC,112656.400,A,2500.8160600,N,12132.4727400,E,0.03,287.56,260623,,,D,V*0D
$GPHDT,,T*1B
$GNACCURACY,2.6*12
$GNGGA,112656.500,2500.8160600,N,12132.4727400,E,2,62,0.43,19.52,M,15.25,M,3,3335*76
$GNRMC,112656.500,A,2500.8160600,N,12132.4727400,E,0.03,287.56,260623,,,D,V*0C
$GPHDT,,T*1B
$GNACCURACY,2.4*10
$GNGGA,112656.600,2500.8160600,N,12132.4727400,E,2,62,0.43,19.52,M,15.25,M,3,3335*75
$GNRMC,112656.600,A,2500.8160600,N,12132.4727400,E,0.03,287.56,260623,,,D,V*0F
$GPHDT,,T*1B
$GNACCURACY,2.4*10
$GNGGA,112656.700,2500.8160500,N,12132.4727400,E,2,63,0.43,19.52,M,15.25,M,3,3335*76
$GNRMC,112656.700,A,2500.8160500,N,12132.4727400,E,0.03,287.56,260623,,,D,V*0D
$GPHDT,,T*1B
$GNACCURACY,2.4*10
$GNGGA,112656.800,2500.8160600,N,12132.4727500,E,2,62,0.43,19.52,M,15.25,M,3,3335*7A
$GNRMC,112656.800,A,2500.8160600,N,12132.4727500,E,0.03,287.56,260623,,,D,V*00
$GPHDT,,T*1B
$GNACCURACY,2.4*10
$GNGGA,112656.900,2500.8160600,N,12132.4727500,E,2,62,0.43,19.51,M,15.25,M,3,3335*78
$GNRMC,112656.900,A,2500.8160600,N,12132.4727500,E,0.03,287.56,260623,,,D,V*01
$GPHDT,,T*1B
$GNACCURACY,2.4*10
$GNGGA,112657.000,2500.8160600,N,12132.4727500,E,2,62,0.43,19.51,M,15.25,M,4,3335*77
$GNRMC,112657.000,A,2500.8160600,N,12132.4727500,E,0.02,287.56,260623,,,D,V*08
$GPHDT,,T*1B
$GNACCURACY,2.4*10
$GNGGA,112657.100,2500.8160700,N,12132.4727600,E,2,62,0.43,19.51,M,15.25,M,4,3335*74
$GNRMC,112657.100,A,2500.8160700,N,12132.4727600,E,0.02,287.56,260623,,,D,V*0B
$GPHDT,,T*1B
$GNGSA,A,3,196,24,199,18,23,15,195,194,12,05,10,,0.69,0.43,0.54,1*0B
$GNGSA,A,3,80,73,85,86,71,69,79,,,,,,0.69,0.43,0.54,2*03
$GNGSA,A,3,13,08,07,26,30,02,15,,,,,,0.69,0.43,0.54,3*06
$GNGSA,A,3,38,08,39,13,16,06,46,09,19,20,36,35,0.69,0.43,0.54,4*05
$GNGSA,A,3,29,22,37,,,,,,,,,,0.69,0.43,0.54,4*02
$GPGSV,4,1,16,196,75,065,42,24,74,043,38,199,60,167,25,18,58,246,38,1*69
$GPGSV,4,2,16,23,51,338,29,41,38,242,33,15,37,047,30,195,34,180,20,1*58
$GPGSV,4,3,16,194,31,138,22,12,20,141,30,05,19,119,34,10,18,319,27,1*53
$GPGSV,4,4,16,25,09,176,16,32,09,269,24,13,08,057,14,29,01,196,,1*60
$GPGSV,2,1,08,196,75,065,38,24,74,043,46,199,60,167,38,18,58,246,37,8*6E
$GPGSV,2,2,08,23,51,338,37,195,34,180,27,194,31,138,33,10,18,319,31,8*6F
$GLGSV,2,1,08,80,48,076,45,70,40,010,,73,38,159,31,85,35,246,26,1*7A
$GLGSV,2,2,08,86,27,302,42,71,22,314,43,69,13,074,22,79,11,032,16,1*7D
$GAGSV,2,1,08,13,56,232,33,08,46,025,23,07,44,303,43,26,32,307,41,7*72
$GAGSV,2,2,08,30,26,143,35,02,26,085,38,15,23,174,,03,10,064,,7*7B
$GAGSV,2,1,07,13,56,232,30,08,46,025,23,07,44,303,44,26,32,307,42,1*7C
$GAGSV,2,2,07,02,26,085,40,30,26,143,30,15,23,174,22,1*48
$GBGSV,4,1,15,38,83,112,45,08,79,004,39,39,71,283,43,13,68,334,38,1*7D
$GBGSV,4,2,15,16,66,258,37,06,65,254,29,46,60,111,45,09,50,238,25,1*73
$GBGSV,4,3,15,19,49,345,34,20,43,063,33,36,35,184,19,37,22,047,,1*74
$GBGSV,4,4,15,35,21,269,29,29,19,212,27,22,11,301,37,1*40
$GBGSV,3,1,09,38,83,112,45,39,71,283,45,46,60,111,45,19,49,345,30,4*7F
$GBGSV,3,2,09,20,43,063,30,36,35,184,22,37,22,047,26,35,21,269,29,4*76
$GBGSV,3,3,09,22,11,301,36,4*4D
$GNACCURACY,2.4*10
$PAIRSAT,1,35,1,0,200,2,0,200,3,0,200,4,0,200,5,0,201,6,0,200,7,0,200,8,0,200,9,0,200,10,0,221,11,0,200,12,0,201,13,0,201,14,0,200,15,0,201,16,0,200,17,0,200,18,0,221,19,0,200,20,0,200,21,0,200,23,0,221,24,0,221,25,0,200,26,0,200,27,0,200,28,0,200,29,0,200,30,0,200,31,0,200,32,0,221,194,0,621,195,0,621,196,0,620,199,0,621*68
$PAIRSAT,2,23,65,0,200,67,0,200,68,0,200,69,0,201,70,0,201,71,0,201,72,0,200,73,0,201,74,0,200,75,0,200,76,0,200,77,0,200,78,0,200,79,0,201,80,0,201,81,0,200,82,0,200,83,0,200,84,0,200,85,0,201,86,0,201,87,0,200,88,0,200*53
$PAIRSAT,3,23,2,0,1221,3,0,1221,4,0,1200,5,0,200,7,0,1221,8,0,1221,9,0,1200,10,0,1200,11,0,1200,12,0,1200,13,0,1221,15,0,1221,19,0,1200,21,0,1200,24,0,1200,25,0,1200,26,0,1221,27,0,1200,30,0,1221,31,0,1200,33,0,1200,34,0,1200,36,0,1200*6A
$PAIRSAT,4,50,1,0,200,2,0,200,3,0,200,4,0,200,5,0,200,6,0,201,7,0,200,8,0,201,9,0,201,10,0,200,11,0,200,12,0,200,13,0,201,14,0,200,15,0,200,16,0,201,19,0,621,20,0,621,21,0,600,22,0,621,23,0,600,24,0,600,25,0,600,26,0,600,27,0,600,28,0,600,29,0,621,30,0,600,31,0,200,32,0,600,33,0,600,34,0,600,35,0,621,36,0,621,37,0,621,38,0,621,39,0,621,40,0,600,41,0,600,42,0,600,43,0,600,44,0,600,45,0,600,46,0,621,56,0,200,57,0,200,58,0,200,59,0,600,60,0,600,61,0,600*41
$PAIRDGP,11,5,10,12,13,15,18,23,24,25,29,32*6B
$GNGGA,112657.200,2500.8160700,N,12132.4727600,E,2,62,0.43,19.51,M,15.25,M,4,3335*77
$GNRMC,112657.200,A,2500.8160700,N,12132.4727600,E,0.02,287.56,260623,,,D,V*08
$GPHDT,,T*1B
$GNACCURACY,2.4*10
$GNGGA,112657.300,2500.8160700,N,12132.4727600,E,2,62,0.43,19.51,M,15.25,M,4,3335*76
$GNRMC,112657.300,A,2500.8160700,N,12132.4727600,E,0.02,287.56,260623,,,D,V*09
$GPHDT,,T*1B
$GNACCURACY,2.4*10
$GNGGA,112657.400,2500.8160700,N,12132.4727600,E,2,62,0.43,19.51,M,15.25,M,4,3335*71
$GNRMC,112657.400,A,2500.8160700,N,12132.4727600,E,0.02,287.56,260623,,,D,V*0E
$GPHDT,,T*1B
$GNACCURACY,2.4*10
$GNGGA,112657.500,2500.8160800,N,12132.4727600,E,2,62,0.43,19.51,M,15.25,M,4,3335*7F
$GNRMC,112657.500,A,2500.8160800,N,12132.4727600,E,0.03,287.56,260623,,,D,V*01
$GPHDT,,T*1B
$GNACCURACY,2.4*10
$GNGGA,112657.600,2500.8160800,N,12132.4727600,E,2,62,0.43,19.52,M,15.25,M,4,3335*7F
$GNRMC,112657.600,A,2500.8160800,N,12132.4727600,E,0.01,287.56,260623,,,D,V*00
$GPHDT,,T*1B
