$FW : RTK35X,V1.1X0314AS,Lib20210517,1*54
$Tool : LOCOSYS , GNSS Firebird , v1.0.0.19*39
$---------------------------------------------------*2D
V,3,1,09,196,75,065,38,24,73,042,44,199,60,167,39,18,58,245,47,8*6F
$GPGSV,3,2,09,23,51,339,37,195,34,180,25,194,31,138,30,10,18,319,35,8*6B
$GPGSV,3,3,09,32,09,270,21,8*5A
$GLGSV,3,1,09,80,48,076,38,70,40,011,13,73,39,159,24,85,35,245,43,1*76
$GLGSV,3,2,09,86,27,301,44,71,22,315,45,69,13,074,16,79,11,032,16,1*78
$GLGSV,3,3,09,84,08,190,,1*4D
$GAGSV,3,1,09,13,56,231,41,08,46,026,29,07,44,304,43,26,32,306,41,7*7B
$GAGSV,3,2,09,02,26,085,27,30,26,143,29,15,22,174,19,03,10,065,,7*70
$GAGSV,3,3,09,25,03,043,,7*49
$GAGSV,2,1,06,13,56,231,40,07,44,304,45,26,32,306,44,02,26,085,35,1*79
$GAGSV,2,2,06,30,26,143,28,15,22,174,20,1*7C
$GBGSV,4,1,16,38,83,113,42,08,79,003,38,39,71,284,43,13,68,333,38,1*7E
$GBGSV,4,2,16,16,66,258,45,06,65,254,38,46,60,111,31,09,50,239,42,1*76
$GBGSV,4,3,16,19,49,345,33,20,43,063,17,31,37,210,,36,35,184,27,1*79
$GBGSV,4,4,16,37,22,047,26,35,21,268,38,29,19,211,27,22,12,302,38,1*7D
$GBGSV,3,1,09,38,83,113,45,39,71,284,45,46,60,111,40,19,49,345,33,4*7F
$GBGSV,3,2,09,20,43,063,20,36,35,184,27,37,22,047,27,35,21,268,34,4*7E
$GBGSV,3,3,09,22,12,302,40,4*4C
$GNACCURACY,2.3*17
$PAIRSAT,1,35,1,0,200,2,0,200,3,0,200,4,0,200,5,0,201,6,0,200,7,0,200,8,0,200,9,0,200,10,0,221,11,0,200,12,0,201,13,0,201,14,0,200,15,0,201,16,0,200,17,0,200,18,0,221,19,0,200,20,0,200,21,0,200,23,0,221,24,0,221,25,0,200,26,0,200,27,0,200,28,0,200,29,0,200,30,0,200,31,0,200,32,0,221,194,0,621,195,0,621,196,0,620,199,0,621*68
$PAIRSAT,2,23,65,0,200,67,0,200,68,0,200,69,0,201,70,0,201,71,0,201,72,0,200,73,0,201,74,0,200,75,0,200,76,0,200,77,0,200,78,0,200,79,0,201,80,0,201,81,0,200,82,0,200,83,0,200,84,0,200,85,0,201,86,0,201,87,0,200,88,0,200*53
$PAIRSAT,3,23,2,0,1221,3,0,1221,4,0,1200,5,0,200,7,0,1221,8,0,1221,9,0,1200,10,0,1200,11,0,1200,12,0,1200,13,0,1221,15,0,1221,19,0,1200,21,0,1200,24,0,1200,25,0,1200,26,0,1221,27,0,1200,30,0,1221,31,0,1200,33,0,1200,34,0,1200,36,0,1200*6A
$PAIRSAT,4,50,1,0,200,2,0,200,3,0,200,4,0,200,5,0,200,6,0,201,7,0,200,8,0,201,9,0,201,10,0,200,11,0,200,12,0,200,13,0,201,14,0,200,15,0,200,16,0,201,19,0,621,20,0,621,21,0,600,22,0,621,23,0,600,24,0,600,25,0,600,26,0,600,27,0,600,28,0,600,29,0,621,30,0,600,31,0,200,32,0,600,33,0,600,34,0,600,35,0,621,36,0,621,37,0,621,38,0,621,39,0,621,40,0,600,41,0,600,42,0,600,43,0,600,44,0,600,45,0,600,46,0,621,56,0,200,57,0,200,58,0,200,59,0,600,60,0,600,61,0,600*41
$PAIRDGP,11,5,10,12,13,15,18,23,24,25,29,32*6B
$GNGGA,112745.200,2500.8151700,N,12132.4707900,E,2,61,0.43,20.93,M,15.25,M,29,3335*42
$GNRMC,112745.200,A,2500.8151700,N,12132.4707900,E,0.03,287.56,260623,,,D,V*04
$GPHDT,,T*1B
$GNACCURACY,2.3*17
$GNGGA,112745.300,2500.8151700,N,12132.4707900,E,2,61,0.43,20.93,M,15.25,M,29,3335*43
$GNRMC,112745.300,A,2500.8151700,N,12132.4707900,E,0.03,287.56,260623,,,D,V*05
$GPHDT,,T*1B
$GNACCURACY,2.3*17
$GNGGA,112745.400,2500.8151700,N,12132.4708000,E,2,61,0.43,20.93,M,15.25,M,29,3335*42
$GNRMC,112745.400,A,2500.8151700,N,12132.4708000,E,0.03,287.56,260623,,,D,V*04
$GPHDT,,T*1B
$GNACCURACY,2.3*17
$GNGGA,112745.500,2500.8151700,N,12132.4708100,E,2,61,0.43,20.93,M,15.25,M,29,3335*42
$GNRMC,112745.500,A,2500.8151700,N,12132.4708100,E,0.03,287.56,260623,,,D,V*04
$GPHDT,,T*1B
$GNACCURACY,2.3*17
$GNGGA,112745.600,2500.8151600,N,12132.4708100,E,2,61,0.43,20.92,M,15.25,M,29,3335*41
$GNRMC,112745.600,A,2500.8151600,N,12132.4708100,E,0.03,287.56,260623,,,D,V*06
$GPHDT,,T*1B
$GNACCURACY,2.3*17
$GNGGA,112745.700,2500.8151600,N,12132.4708100,E,2,62,0.42,20.92,M,15.25,M,29,3335*42
$GNRMC,112745.700,A,2500.8151600,N,12132.4708100,E,0.03,287.56,260623,,,D,V*07
$GPHDT,,T*1B
$GNACCURACY,2.3*17
$GNGGA,112745.800,2500.8151600,N,12132.4708100,E,2,62,0.42,20.93,M,15.25,M,29,3335*4C
$GNRMC,112745.800,A,2500.8151600,N,12132.4708100,E,0.03,287.56,260623,,,D,V*08
$GPHDT,,T*1B
$GNACCURACY,2.3*17
$GNGGA,112745.900,2500.8151700,N,12132.4708100,E,2,62,0.42,20.93,M,15.25,M,29,3335*4C
$GNRMC,112745.900,A,2500.8151700,N,12132.4708100,E,0.03,287.56,260623,,,D,V*08
$GPHDT,,T*1B
$GNACCURACY,2.3*17
$GNGGA,112746.000,2500.8151700,N,12132.4708100,E,2,62,0.42,20.93,M,15.25,M,30,3335*4E
$GNRMC,112746.000,A,2500.8151700,N,12132.4708100,E,0.03,287.56,260623,,,D,V*02
$GPHDT,,T*1B
$GNACCURACY,2.3*17
$GNGGA,112746.100,2500.8151700,N,12132.4708100,E,2,62,0.42,20.93,M,15.25,M,30,3335*4F
$GNRMC,112746.100,A,2500.8151700,N,12132.4708100,E,0.03,287.56,260623,,,D,V*03
$GPHDT,,T*1B
$GNGSA,A,3,196,24,18,23,15,195,194,12,10,199,,,0.78,0.42,0.66,1*0E
$GNGSA,A,3,80,70,73,85,86,71,69,79,,,,,0.78,0.42,0.66,2*04
$GNGSA,A,3,13,08,07,26,02,30,15,,,,,,0.78,0.42,0.66,3*06
$GNGSA,A,3,38,08,39,13,16,06,46,09,19,20,36,37,0.78,0.42,0.66,4*07
$GNGSA,A,3,35,29,22,,,,,,,,,,0.78,0.42,0.66,4*00
$GPGSV,4,1,16,196,75,065,39,24,73,042,42,199,60,167,,18,58,245,47,1*62
$GPGSV,4,2,16,23,51,339,37,41,38,242,45,15,37,047,30,195,34,180,23,1*54
$GPGSV,4,3,16,194,31,138,32,12,21,141,31,05,19,119,14,10,18,319,29,1*5E
$GPGSV,4,4,16,25,09,176,17,32,09,270,32,13,08,057,17,29,01,196,,1*6D
$GPGSV,3,1,09,196,75,065,38,24,73,042,44,199,60,167,39,18,58,245,47,8*6F
$GPGSV,3,2,09,23,51,339,37,195,34,180,24,194,31,138,30,10,18,319,35,8*6A
$GPGSV,3,3,09,32,09,270,20,8*5B
$GLGSV,3,1,09,80,48,076,38,70,40,011,15,73,39,159,25,85,35,245,43,1*71
$GLGSV,3,2,09,86,27,301,44,71,22,315,45,69,13,074,15,79,11,032,17,1*7A
$GLGSV,3,3,09,84,08,190,,1*4D
$GAGSV,3,1,10,13,56,231,41,08,46,026,29,07,44,304,43,26,32,306,41,7*73
$GAGSV,3,2,10,02,26,085,27,30,26,143,29,15,22,174,19,03,10,065,,7*78
$GAGSV,3,3,10,25,03,043,,27,01,188,,7*74
$GAGSV,2,1,06,13,56,231,40,07,44,304,45,26,32,306,44,02,26,085,34,1*78
$GAGSV,2,2,06,30,26,143,28,15,22,174,20,1*7C
$GBGSV,4,1,16,38,83,113,41,08,79,003,38,39,71,284,43,13,68,333,38,1*7D
$GBGSV,4,2,16,16,66,258,45,06,65,254,38,46,60,111,30,09,50,239,42,1*77
$GBGSV,4,3,16,19,49,345,33,20,43,063,16,36,35,184,27,37,22,047,26,1*7E
$GBGSV,4,4,16,35,21,268,38,29,19,211,28,22,12,302,38,07,05,192,,1*79
$GBGSV,3,1,09,38,83,113,45,39,71,284,45,46,60,111,40,19,49,345,33,4*7F
$GBGSV,3,2,09,20,43,063,19,36,35,184,27,37,22,047,27,35,21,268,34,4*74
$GBGSV,3,3,09,22,12,302,40,4*4C
$GNACCURACY,2.3*17
$PAIRSAT,1,35,1,0,200,2,0,200,3,0,200,4,0,200,5,0,201,6,0,200,7,0,200,8,0,200,9,0,200,10,0,221,11,0,200,12,0,201,13,0,201,14,0,200,15,0,201,16,0,200,17,0,200,18,0,221,19,0,200,20,0,200,21,0,200,23,0,221,24,0,221,25,0,200,26,0,200,27,0,200,28,0,200,29,0,200,30,0,200,31,0,200,32,0,221,194,0,621,195,0,621,196,0,620,199,0,621*68
$PAIRSAT,2,23,65,0,200,67,0,200,68,0,200,69,0,201,70,0,201,71,0,201,72,0,200,73,0,201,74,0,200,75,0,200,76,0,200,77,0,200,78,0,200,79,0,201,80,0,201,81,0,200,82,0,200,83,0,200,84,0,200,85,0,201,86,0,201,87,0,200,88,0,200*53
$PAIRSAT,3,23,2,0,1221,3,0,1221,4,0,1200,5,0,200,7,0,1221,8,0,1221,9,0,1200,10,0,1200,11,0,1200,12,0,1200,13,0,1221,15,0,1221,19,0,1200,21,0,1200,24,0,1200,25,0,1200,26,0,1221,27,0,1200,30,0,1221,31,0,1200,33,0,1200,34,0,1200,36,0,1200*6A
$PAIRSAT,4,50,1,0,200,2,0,200,3,0,200,4,0,200,5,0,200,6,0,201,7,0,200,8,0,201,9,0,201,10,0,200,11,0,200,12,0,200,13,0,201,14,0,200,15,0,200,16,0,201,19,0,621,20,0,621,21,0,600,22,0,621,23,0,600,24,0,600,25,0,600,26,0,600,27,0,600,28,0,600,29,0,621,30,0,600,31,0,200,32,0,600,33,0,600,34,0,600,35,0,621,36,0,621,37,0,621,38,0,621,39,0,621,40,0,600,41,0,600,42,0,600,43,0,600,44,0,600,45,0,600,46,0,621,56,0,200,57,0,200,58,0,200,59,0,600,60,0,600,61,0,600*41
$PAIRDGP,11,5,10,12,13,15,18,23,24,25,29,32*6B
$GNGGA,112746.200,2500.8151700,N,12132.4708100,E,2,61,0.42,20.92,M,15.25,M,30,3335*4E
$GNRMC,112746.200,A,2500.8151700,N,12132.4708100,E,0.03,287.56,260623,,,D,V*00
$GPHDT,,T*1B
$GNACCURACY,2.3*17
$GNGGA,112746.300,2500.8151700,N,12132.4708100,E,2,60,0.42,20.92,M,15.25,M,30,3335*4E
$GNRMC,112746.300,A,2500.8151700,N,12132.4708100,E,0.02,287.56,260623,,,D,V*00
$GPHDT,,T*1B
$GNACCURACY,2.3*17
$GNGGA,112746.400,2500.8151700,N,12132.4708000,E,2,60,0.42,20.93,M,15.25,M,30,3335*49
$GNRMC,112746.400,A,2500.8151700,N,12132.4708000,E,0.03,287.56,260623,,,D,V*07
$GPHDT,,T*1B
$GNACCURACY,2.3*17
$GNGGA,112746.500,2500.8151800,N,12132.4707900,E,2,60,0.42,20.93,M,15.25,M,30,3335*41
$GNRMC,112746.500,A,2500.8151800,N,12132.4707900,E,0.03,287.56,260623,,,D,V*0F
$GPHDT,,T*1B
$GNACCURACY,2.3*17
$GNGGA,112746.600,2500.8151800,N,12132.4707900,E,2,60,0.42,20.94,M,15.25,M,30,3335*45
$GNRMC,112746.600,A,2500.8151800,N,12132.4707900,E,0.03,287.56,260623,,,D,V*0C
$GPHDT,,T*1B
$GNACCURACY,2.3*17
$GNGGA,112746.700,2500.8151800,N,12132.4707800,E,2,60,0.42,20.94,M,15.25,M,30,3335*45
$GNRMC,112746.700,A,2500.8151800,N,12132.4707800,E,0.03,287.56,260623,,,D,V*0C
$GPHDT,,T*1B
$GNACCURACY,2.3*17
$GNGGA,112746.800,2500.8151800,N,12132.4707700,E,2,60,0.42,20.93,M,15.25,M,30,3335*42
$GNRMC,112746.800,A,2500.8151800,N,12132.4707700,E,0.03,287.56,260623,,,D,V*0C
$GPHDT,,T*1B
$GNACCURACY,2.3*17
$GNGGA,112746.900,2500.8151800,N,12132.4707700,E,2,60,0.42,20.93,M,15.25,M,30,3335*43
$GNRMC,112746.900,A,2500.8151800,N,12132.4707700,E,0.03,287.56,260623,,,D,V*0D
$GPHDT,,T*1B
$GNACCURACY,2.3*17
$GNGGA,112747.000,2500.8151900,N,12132.4707600,E,2,60,0.42,20.93,M,15.25,M,31,3335*4A
$GNRMC,112747.000,A,2500.8151900,N,12132.4707600,E,0.03,287.56,260623,,,D,V*05
$GPHDT,,T*1B
$GNACCURACY,2.3*17
$GNGGA,112747.100,2500.8152000,N,12132.4707600,E,2,61,0.42,20.93,M,15.25,M,31,3335*40
$GNRMC,112747.100,A,2500.8152000,N,12132.4707600,E,0.03,287.56,260623,,,D,V*0E
$GPHDT,,T*1B
$GNGSA,A,3,196,24,18,23,15,195,194,12,10,199,,,0.76,0.42,0.63,1*05
$GNGSA,A,3,80,70,73,85,86,71,69,79,,,,,0.76,0.42,0.63,2*0F
$GNGSA,A,3,13,08,07,26,02,30,15,03,,,,,0.76,0.42,0.63,3*0E
$GNGSA,A,3,38,08,39,13,16,06,46,09,19,36,37,35,0.76,0.42,0.63,4*08
$GNGSA,A,3,29,22,20,,,,,,,,,,0.76,0.42,0.63,4*0F
$GPGSV,4,1,16,196,75,065,41,24,73,042,42,199,60,167,,18,58,245,47,1*6D
$GPGSV,4,2,16,23,51,339,37,41,38,242,45,15,37,047,29,195,34,180,24,1*5B
$GPGSV,4,3,16,194,31,138,34,12,21,141,30,05,19,119,17,10,18,319,32,1*50
$GPGSV,4,4,16,25,09,176,17,32,09,270,30,13,08,057,17,29,01,196,,1*6F
$GPGSV,3,1,09,196,75,065,41,24,73,042,46,199,60,167,38,18,58,245,47,8*62
$GPGSV,3,2,09,23,51,339,37,195,34,180,24,194,31,138,29,10,18,319,35,8*62
$GPGSV,3,3,09,32,09,270,20,8*5B
$GLGSV,3,1,09,80,48,076,40,70,40,011,15,73,39,159,26,85,35,245,43,1*7D
$GLGSV,3,2,09,86,27,301,44,71,22,315,45,69,13,074,17,79,11,032,18,1*77
$GLGSV,3,3,09,84,08,190,,1*4D
$GAGSV,3,1,10,13,56,231,41,08,46,026,28,07,44,304,43,26,32,306,41,7*72
$GAGSV,3,2,10,02,26,085,27,30,26,143,28,15,22,174,19,03,10,065,18,7*70
$GAGSV,3,3,10,25,03,043,,27,01,188,,7*74
$GAGSV,2,1,06,13,56,231,40,07,44,304,45,26,32,306,45,02,26,085,33,1*7E
$GAGSV,2,2,06,30,26,143,33,15,22,174,22,1*74
$GBGSV,4,1,15,38,83,113,41,08,79,003,38,39,71,284,43,13,68,333,38,1*7E
$GBGSV,4,2,15,16,66,258,45,06,65,254,38,46,60,111,39,09,50,239,42,1*7D
$GBGSV,4,3,15,19,49,345,34,20,43,063,19,36,35,184,28,37,22,047,24,1*78
$GBGSV,4,4,15,35,21,268,38,29,19,211,28,22,12,302,37,1*4D
$GBGSV,3,1,09,38,83,113,45,39,71,284,45,46,60,111,44,19,49,345,33,4*7B
$GBGSV,3,2,09,20,43,063,18,36,35,184,26,37,22,047,25,35,21,268,35,4*77
$GBGSV,3,3,09,22,12,302,40,4*4C
$GNACCURACY,2.3*17
$PAIRSAT,1,35,1,0,200,2,0,200,3,0,200,4,0,200,5,0,201,6,0,200,7,0,200,8,0,200,9,0,200,10,0,221,11,0,200,12,0,201,13,0,201,14,0,200,15,0,201,16,0,200,17,0,200,18,0,221,19,0,200,20,0,200,21,0,200,23,0,221,24,0,221,25,0,200,26,0,200,27,0,200,28,0,200,29,0,200,30,0,200,31,0,200,32,0,221,194,0,621,195,0,621,196,0,620,199,0,621*68
$PAIRSAT,2,23,65,0,200,67,0,200,68,0,200,69,0,201,70,0,201,71,0,201,72,0,200,73,0,201,74,0,200,75,0,200,76,0,200,77,0,200,78,0,200,79,0,201,80,0,201,81,0,200,82,0,200,83,0,200,84,0,200,85,0,201,86,0,201,87,0,200,88,0,200*53
$PAIRSAT,3,23,2,0,1221,3,0,1221,4,0,1200,5,0,200,7,0,1221,8,0,1221,9,0,1200,10,0,1200,11,0,1200,12,0,1200,13,0,1221,15,0,1221,19,0,1200,21,0,1200,24,0,1200,25,0,1200,26,0,1221,27,0,1200,30,0,1221,31,0,1200,33,0,1200,34,0,1200,36,0,1200*6A
$PAIRSAT,4,50,1,0,200,2,0,200,3,0,200,4,0,200,5,0,200,6,0,201,7,0,200,8,0,201,9,0,201,10,0,200,11,0,200,12,0,200,13,0,201,14,0,200,15,0,200,16,0,201,19,0,621,20,0,621,21,0,600,22,0,621,23,0,600,24,0,600,25,0,600,26,0,600,27,0,600,28,0,600,29,0,621,30,0,600,31,0,200,32,0,600,33,0,600,34,0,600,35,0,621,36,0,621,37,0,621,38,0,621,39,0,621,40,0,600,41,0,600,42,0,600,43,0,600,44,0,600,45,0,600,46,0,621,56,0,200,57,0,200,58,0,200,59,0,600,60,0,600,61,0,600*41
$PAIRDGP,11,5,10,12,13,15,18,23,24,25,29,32*6B
$GNGGA,112747.200,2500.8152000,N,12132.4707500,E,2,61,0.42,20.94,M,15.25,M,31,3335*47
$GNRMC,112747.200,A,2500.8152000,N,12132.4707500,E,0.03,287.56,260623,,,D,V*0E
$GPHDT,,T*1B
$GNACCURACY,2.3*17
$GNGGA,112747.300,2500.8152000,N,12132.4707300,E,2,61,0.42,20.94,M,15.25,M,31,3335*40
$GNRMC,112747.300,A,2500.8152000,N,12132.4707300,E,0.03,287.56,260623,,,D,V*09
$GPHDT,,T*1B
$GNACCURACY,2.3*17
$GNGGA,112747.400,2500.8152100,N,12132.4707200,E,2,61,0.42,20.95,M,15.25,M,31,3335*46
$GNRMC,112747.400,A,2500.8152100,N,12132.4707200,E,0.03,287.56,260623,,,D,V*0E
$GPHDT,,T*1B
$GNACCURACY,2.3*17
$GNGGA,112747.500,2500.8152100,N,12132.4707100,E,2,61,0.42,20.95,M,15.25,M,31,3335*44
$GNRMC,112747.500,A,2500.8152100,N,12132.4707100,E,0.03,287.56,260623,,,D,V*0C
$GPHDT,,T*1B
$GNACCURACY,2.3*17
$GNGGA,112747.600,2500.8152000,N,12132.4707000,E,2,63,0.42,20.95,M,15.25,M,31,3335*45
$GNRMC,112747.600,A,2500.8152000,N,12132.4707000,E,0.03,287.56,260623,,,D,V*0F
$GPHDT,,T*1B
$GNACCURACY,2.3*17
$GNGGA,112747.700,2500.8152100,N,12132.4706900,E,2,63,0.42,20.95,M,15.25,M,31,3335*4D
$GNRMC,112747.700,A,2500.8152100,N,12132.4706900,E,0.03,287.56,260623,,,D,V*07
$GPHDT,,T*1B
$GNACCURACY,2.3*17
$GNGGA,112747.800,2500.8152000,N,12132.4706900,E,2,63,0.42,20.94,M,15.25,M,31,3335*42
$GNRMC,112747.800,A,2500.8152000,N,12132.4706900,E,0.03,287.56,260623,,,D,V*09
$GPHDT,,T*1B
$GNACCURACY,2.3*17
$GNGGA,112747.900,2500.8152000,N,12132.4706900,E,2,63,0.42,20.93,M,15.25,M,31,3335*44
$GNRMC,112747.900,A,2500.8152000,N,12132.4706900,E,0.03,287.56,260623,,,D,V*08
$GPHDT,,T*1B
$GNACCURACY,2.3*17
$GNGGA,112748.000,2500.8152000,N,12132.4706900,E,2,63,0.42,20.93,M,15.25,M,32,3335*41
$GNRMC,112748.000,A,2500.8152000,N,12132.4706900,E,0.03,287.56,260623,,,D,V*0E
$GPHDT,,T*1B
$GNACCURACY,2.3*17
$GNGGA,112748.100,2500.8152000,N,12132.4706900,E,2,63,0.42,20.92,M,15.25,M,32,3335*41
$GNRMC,112748.100,A,2500.8152000,N,12132.4706900,E,0.03,287.56,260623,,,D,V*0F
$GPHDT,,T*1B
$GNGSA,A,3,196,24,18,23,15,195,194,12,10,199,,,0.76,0.42,0.63,1*05
$GNGSA,A,3,80,70,73,85,86,71,69,79,,,,,0.76,0.42,0.63,2*0F
$GNGSA,A,3,13,08,07,26,02,30,15,03,,,,,0.76,0.42,0.63,3*0E
$GNGSA,A,3,38,08,39,13,16,06,46,09,19,20,36,37,0.76,0.42,0.63,4*0C
$GNGSA,A,3,35,29,22,,,,,,,,,,0.76,0.42,0.63,4*0B
$GPGSV,4,1,16,196,75,065,41,24,73,042,42,199,60,167,,18,58,245,47,1*6D
$GPGSV,4,2,16,23,51,339,37,41,38,242,45,15,37,047,28,195,34,180,23,1*5D
$GPGSV,4,3,16,194,31,138,32,12,21,141,31,05,19,119,17,10,18,319,32,1*57
$GPGSV,4,4,16,25,09,176,17,32,09,270,30,13,08,057,18,29,01,196,,1*60
$GPGSV,3,1,09,196,75,065,41,24,73,042,46,199,60,167,38,18,58,245,47,8*62
$GPGSV,3,2,09,23,51,339,37,195,34,180,24,194,31,138,30,10,18,319,34,8*6B
$GPGSV,3,3,09,32,09,270,18,8*50
$GLGSV,3,1,09,80,48,076,44,70,40,011,16,73,39,159,28,85,35,245,43,1*74
$GLGSV,3,2,09,86,27,301,44,71,22,315,45,69,13,074,18,79,11,032,21,1*72
$GLGSV,3,3,09,84,08,190,,1*4D
$GAGSV,3,1,10,13,56,231,41,08,46,026,27,07,44,304,43,26,32,306,41,7*7D
$GAGSV,3,2,10,02,26,085,34,30,26,143,29,15,22,174,21,03,10,065,18,7*78
$GAGSV,3,3,10,25,03,043,,27,01,188,,7*74
$GAGSV,2,1,07,13,56,231,40,08,46,026,23,07,44,304,45,26,32,306,45,1*7B
$GAGSV,2,2,07,02,26,085,35,30,26,143,31,15,22,174,20,1*48
$GBGSV,4,1,15,38,83,113,41,08,79,003,38,39,71,284,43,13,68,333,38,1*7E
$GBGSV,4,2,15,16,66,258,45,06,65,254,38,46,60,111,40,09,50,239,42,1*73
$GBGSV,4,3,15,19,49,345,34,20,43,063,23,36,35,184,27,37,22,047,24,1*7E
$GBGSV,4,4,15,35,21,268,38,29,19,211,26,22,12,302,37,1*43
$GBGSV,3,1,09,38,83,113,45,39,71,284,44,46,60,111,45,19,49,345,33,4*7B
$GBGSV,3,2,09,20,43,063,14,36,35,184,24,37,22,047,26,35,21,268,34,4*7B
$GBGSV,3,3,09,22,12,302,40,4*4C
$GNACCURACY,2.3*17
$PAIRSAT,1,35,1,0,200,2,0,200,3,0,200,4,0,200,5,0,201,6,0,200,7,0,200,8,0,200,9,0,200,10,0,221,11,0,200,12,0,201,13,0,201,14,0,200,15,0,201,16,0,200,17,0,200,18,0,221,19,0,200,20,0,200,21,0,200,23,0,221,24,0,221,25,0,200,26,0,200,27,0,200,28,0,200,29,0,200,30,0,200,31,0,200,32,0,221,194,0,621,195,0,621,196,0,620,199,0,621*68
$PAIRSAT,2,23,65,0,200,67,0,200,68,0,200,69,0,201,70,0,201,71,0,201,72,0,200,73,0,201,74,0,200,75,0,200,76,0,200,77,0,200,78,0,200,79,0,201,80,0,201,81,0,200,82,0,200,83,0,200,84,0,200,85,0,201,86,0,201,87,0,200,88,0,200*53
$PAIRSAT,3,23,2,0,1221,3,0,1221,4,0,1200,5,0,200,7,0,1221,8,0,1221,9,0,1200,10,0,1200,11,0,1200,12,0,1200,13,0,1221,15,0,1221,19,0,1200,21,0,1200,24,0,1200,25,0,1200,26,0,1221,27,0,1200,30,0,1221,31,0,1200,33,0,1200,34,0,1200,36,0,1200*6A
$PAIRSAT,4,50,1,0,200,2,0,200,3,0,200,4,0,200,5,0,200,6,0,201,7,0,200,8,0,201,9,0,201,10,0,200,11,0,200,12,0,200,13,0,201,14,0,200,15,0,200,16,0,201,19,0,621,20,0,621,21,0,600,22,0,621,23,0,600,24,0,600,25,0,600,26,0,600,27,0,600,28,0,600,29,0,621,30,0,600,31,0,200,32,0,600,33,0,600,34,0,600,35,0,621,36,0,621,37,0,621,38,0,621,39,0,621,40,0,600,41,0,600,42,0,600,43,0,600,44,0,600,45,0,600,46,0,621,56,0,200,57,0,200,58,0,200,59,0,600,60,0,600,61,0,600*41
$PAIRDGP,11,5,10,12,13,15,18,23,24,25,29,32*6B
$GNGGA,112748.200,2500.8152000,N,12132.4706900,E,2,63,0.42,20.91,M,15.25,M,32,3335*41
$GNRMC,112748.200,A,2500.8152000,N,12132.4706900,E,0.03,287.56,260623,,,D,V*0C
$GPHDT,,T*1B
$GNACCURACY,2.3*17
$GNGGA,112748.300,2500.8152000,N,12132.4707000,E,2,63,0.42,20.90,M,15.25,M,32,3335*49
$GNRMC,112748.300,A,2500.8152000,N,12132.4707000,E,0.03,287.56,260623,,,D,V*05
$GPHDT,,T*1B
$GNACCURACY,2.3*17
$GNGGA,112748.400,2500.8152100,N,12132.4707000,E,2,63,0.42,20.89,M,15.25,M,32,3335*47
$GNRMC,112748.400,A,2500.8152100,N,12132.4707000,E,0.03,287.56,260623,,,D,V*03
$GPHDT,,T*1B
$GNACCURACY,2.3*17
$GNGGA,112748.500,2500.8152100,N,12132.4707100,E,2,63,0.42,20.88,M,15.25,M,32,3335*46
$GNRMC,112748.500,A,2500.8152100,N,12132.4707100,E,0.03,287.56,260623,,,D,V*03
$GPHDT,,T*1B
$GNACCURACY,2.3*17
$GNGGA,112748.600,2500.8152100,N,12132.4707200,E,2,63,0.42,20.86,M,15.25,M,32,3335*48
$GNRMC,112748.600,A,2500.8152100,N,12132.4707200,E,0.03,287.56,260623,,,D,V*03
$GPHDT,,T*1B
$GNACCURACY,2.3*17
$GNGGA,112748.700,2500.8152100,N,12132.4707300,E,2,64,0.42,20.85,M,15.25,M,32,3335*4C
$GNRMC,112748.700,A,2500.8152100,N,12132.4707300,E,0.02,287.56,260623,,,D,V*02
$GPHDT,,T*1B
$GNACCURACY,2.3*17
$GNGGA,112748.800,2500.8152200,N,12132.4707300,E,2,64,0.42,20.84,M,15.25,M,32,3335*41
$GNRMC,112748.800,A,2500.8152200,N,12132.4707300,E,0.02,287.56,260623,,,D,V*0E
$GPHDT,,T*1B
$GNACCURACY,2.3*17
$GNGGA,112748.900,2500.8152300,N,12132.4707400,E,2,64,0.42,20.82,M,15.25,M,32,3335*40
$GNRMC,112748.900,A,2500.8152300,N,12132.4707400,E,0.02,287.56,260623,,,D,V*09
$GPHDT,,T*1B
$GNACCURACY,2.3*17
$GNGGA,112749.000,2500.8152300,N,12132.4707400,E,2,64,0.42,20.82,M,15.25,M,33,3335*49
$GNRMC,112749.000,A,2500.8152300,N,12132.4707400,E,0.02,287.56,260623,,,D,V*01
$GPHDT,,T*1B
$GNACCURACY,2.3*17
$GNGGA,112749.100,2500.8152300,N,12132.4707400,E,2,64,0.42,20.82,M,15.25,M,33,3335*48
$GNRMC,112749.100,A,2500.8152300,N,12132.4707400,E,0.02,287.56,260623,,,D,V*00
$GPHDT,,T*1B
$GNGSA,A,3,196,24,18,23,15,195,194,12,05,10,199,,0.76,0.42,0.63,1*00
$GNGSA,A,3,80,70,73,85,86,71,69,79,,,,,0.76,0.42,0.63,2*0F
$GNGSA,A,3,13,08,07,26,02,30,15,03,,,,,0.76,0.42,0.63,3*0E
$GNGSA,A,3,38,08,39,13,16,06,46,09,19,20,36,37,0.76,0.42,0.63,4*0C
$GNGSA,A,3,35,29,22,,,,,,,,,,0.76,0.42,0.63,4*0B
$GPGSV,4,1,16,196,75,065,41,24,73,042,42,199,60,167,19,18,58,245,47,1*65
$GPGSV,4,2,16,23,51,339,37,41,38,242,45,15,37,047,27,195,34,180,23,1*52
$GPGSV,4,3,16,194,31,138,31,12,21,141,30,05,19,119,16,10,18,319,32,1*54
$GPGSV,4,4,16,25,09,176,17,32,09,270,30,13,08,057,19,29,01,196,,1*61
$GPGSV,3,1,09,196,75,065,41,24,73,042,46,199,60,167,37,18,58,245,47,8*6D
$GPGSV,3,2,09,23,51,339,37,195,34,180,24,194,31,138,31,10,18,319,34,8*6A
$GPGSV,3,3,09,32,09,270,18,8*50
$GLGSV,3,1,09,80,48,076,44,70,40,011,16,73,39,159,28,85,35,245,43,1*74
$GLGSV,3,2,09,86,27,301,44,71,22,315,45,69,13,074,18,79,11,032,24,1*77
$GLGSV,3,3,09,84,08,190,,1*4D
$GAGSV,3,1,09,13,56,231,41,08,46,026,26,07,44,304,43,26,32,306,41,7*74
$GAGSV,3,2,09,02,26,085,35,30,26,143,29,15,22,174,21,03,10,065,18,7*71
$GAGSV,3,3,09,27,01,188,,7*4F
$GAGSV,2,1,07,13,56,231,40,08,46,026,22,07,44,304,45,26,32,306,45,1*7A
$GAGSV,2,2,07,02,26,085,38,30,26,143,32,15,22,174,24,1*42
$GBGSV,4,1,15,38,83,113,41,08,79,003,38,39,71,284,43,13,68,333,38,1*7E
$GBGSV,4,2,15,16,66,258,45,06,65,254,38,46,60,111,40,09,50,239,42,1*73
$GBGSV,4,3,15,19,49,345,35,20,43,063,24,36,35,184,28,37,22,047,24,1*77
$GBGSV,4,4,15,35,21,268,37,29,19,211,27,22,12,302,37,1*4D
$GBGSV,3,1,09,38,83,113,45,39,71,284,44,46,60,111,45,19,49,345,33,4*7B
$GBGSV,3,2,09,20,43,063,14,36,35,184,25,37,22,047,26,35,21,268,34,4*7A
$GBGSV,3,3,09,22,12,302,40,4*4C
$GNACCURACY,2.3*17
$PAIRSAT,1,35,1,0,200,2,0,200,3,0,200,4,0,200,5,0,201,6,0,200,7,0,200,8,0,200,9,0,200,10,0,221,11,0,200,12,0,201,13,0,201,14,0,200,15,0,201,16,0,200,17,0,200,18,0,221,19,0,200,20,0,200,21,0,200,23,0,221,24,0,221,25,0,200,26,0,200,27,0,200,28,0,200,29,0,200,30,0,200,31,0,200,32,0,221,194,0,621,195,0,621,196,0,620,199,0,621*68
$PAIRSAT,2,23,65,0,200,67,0,200,68,0,200,69,0,201,70,0,201,71,0,201,72,0,200,73,0,201,74,0,200,75,0,200,76,0,200,77,0,200,78,0,200,79,0,201,80,0,201,81,0,200,82,0,200,83,0,200,84,0,200,85,0,201,86,0,201,87,0,200,88,0,200*53
$PAIRSAT,3,23,2,0,1221,3,0,1221,4,0,1200,5,0,200,7,0,1221,8,0,1221,9,0,1200,10,0,1200,11,0,1200,12,0,1200,13,0,1221,15,0,1221,19,0,1200,21,0,1200,24,0,1200,25,0,1200,26,0,1221,27,0,1200,30,0,1221,31,0,1200,33,0,1200,34,0,1200,36,0,1200*6A
$PAIRSAT,4,50,1,0,200,2,0,200,3,0,200,4,0,200,5,0,200,6,0,201,7,0,200,8,0,201,9,0,201,10,0,200,11,0,200,12,0,200,13,0,201,14,0,200,15,0,200,16,0,201,19,0,621,20,0,621,21,0,600,22,0,621,23,0,600,24,0,600,25,0,600,26,0,600,27,0,600,28,0,600,29,0,621,30,0,600,31,0,200,32,0,600,33,0,600,34,0,600,35,0,621,36,0,621,37,0,621,38,0,621,39,0,621,40,0,600,41,0,600,42,0,600,43,0,600,44,0,600,45,0,600,46,0,621,56,0,200,57,0,200,58,0,200,59,0,600,60,0,600,61,0,600*41
$PAIRDGP,11,5,10,12,13,15,18,23,24,25,29,32*6B
$GNGGA,112749.200,2500.8152300,N,12132.4707400,E,2,64,0.42,20.81,M,15.25,M,33,3335*48
$GNRMC,112749.200,A,2500.8152300,N,12132.4707400,E,0.02,287.56,260623,,,D,V*03
$GPHDT,,T*1B
$GNACCURACY,2.3*17
$GNGGA,112749.300,2500.8152300,N,12132.4707500,E,2,64,0.42,20.80,M,15.25,M,33,3335*49
$GNRMC,112749.300,A,2500.8152300,N,12132.4707500,E,0.02,287.56,260623,,,D,V*03
$GPHDT,,T*1B
$GNACCURACY,2.3*17
$GNGGA,112749.400,2500.8152300,N,12132.4707500,E,2,64,0.42,20.79,M,15.25,M,33,3335*48
$GNRMC,112749.400,A,2500.8152300,N,12132.4707500,E,0.02,287.56,260623,,,D,V*04
$GPHDT,,T*1B
$GNACCURACY,2.3*17
$GNGGA,112749.500,2500.8152400,N,12132.4707600,E,2,64,0.42,20.77,M,15.25,M,33,3335*43
$GNRMC,112749.500,A,2500.8152400,N,12132.4707600,E,0.02,287.56,260623,,,D,V*01
$GPHDT,,T*1B
$GNACCURACY,2.3*17
$GNGGA,112749.600,2500.8152400,N,12132.4707600,E,2,64,0.42,20.76,M,15.25,M,33,3335*41
$GNRMC,112749.600,A,2500.8152400,N,12132.4707600,E,0.02,287.56,260623,,,D,V*02
$GPHDT,,T*1B
$GNACCURACY,2.3*17
$GNGGA,112749.700,2500.8152400,N,12132.4707600,E,2,64,0.42,20.75,M,15.25,M,33,3335*43
$GNRMC,112749.700,A,2500.8152400,N,12132.4707600,E,0.02,287.56,260623,,,D,V*03
$GPHDT,,T*1B
$GNACCURACY,2.3*17
$GNGGA,112749.800,2500.8152400,N,12132.4707700,E,2,64,0.42,20.74,M,15.25,M,33,3335*4C
$GNRMC,112749.800,A,2500.8152400,N,12132.4707700,E,0.02,287.56,260623,,,D,V*0D
$GPHDT,,T*1B
$GNACCURACY,2.3*17
$GNGGA,112749.900,2500.8152400,N,12132.4707700,E,2,64,0.42,20.73,M,15.25,M,33,3335*4A
$GNRMC,112749.900,A,2500.8152400,N,12132.4707700,E,0.02,287.56,260623,,,D,V*0C
$GPHDT,,T*1B
$GNACCURACY,2.3*17
$GNGGA,112750.000,2500.8152500,N,12132.4707800,E,2,64,0.42,20.72,M,15.25,M,34,3335*43
$GNRMC,112750.000,A,2500.8152500,N,12132.4707800,E,0.02,287.56,260623,,,D,V*03
$GPHDT,,T*1B
$GNACCURACY,2.3*17
$GNGGA,112750.100,2500.8152500,N,12132.4707800,E,2,65,0.42,20.71,M,15.25,M,34,3335*40
$GNRMC,112750.100,A,2500.8152500,N,12132.4707800,E,0.02,287.56,260623,,,D,V*02
$GPHDT,,T*1B
$GNGSA,A,3,196,24,18,23,15,195,194,12,05,10,199,,0.76,0.42,0.63,1*00
$GNGSA,A,3,80,70,73,85,86,71,69,79,,,,,0.76,0.42,0.63,2*0F
$GNGSA,A,3,13,08,07,26,02,30,15,03,,,,,0.76,0.42,0.63,3*0E
$GNGSA,A,3,38,08,39,13,16,06,46,09,19,20,36,37,0.76,0.42,0.63,4*0C
$GNGSA,A,3,35,29,22,,,,,,,,,,0.76,0.42,0.63,4*0B
$GPGSV,4,1,16,196,75,065,41,24,73,042,42,199,60,167,,18,58,245,47,1*6D
$GPGSV,4,2,16,23,51,339,37,41,38,242,45,15,37,047,25,195,34,180,23,1*50
$GPGSV,4,3,16,194,31,138,32,12,21,141,28,05,19,119,14,10,18,319,32,1*5C
$GPGSV,4,4,16,25,09,176,17,32,09,270,28,13,08,057,18,29,01,196,,1*69
$GPGSV,3,1,09,196,75,065,41,24,73,042,46,199,60,167,37,18,58,245,47,8*6D
$GPGSV,3,2,09,23,51,339,37,195,34,180,24,194,31,138,31,10,18,319,35,8*6B
$GPGSV,3,3,09,32,09,270,18,8*50
$GLGSV,3,1,09,80,48,076,44,70,40,011,16,73,39,159,28,85,35,245,43,1*74
$GLGSV,3,2,09,86,27,301,44,71,22,315,45,69,13,074,19,79,11,032,25,1*77
$GLGSV,3,3,09,84,08,190,,1*4D
$GAGSV,3,1,09,13,56,231,41,08,46,026,26,07,44,304,43,26,32,306,41,7*74
$GAGSV,3,2,09,02,26,085,35,30,26,143,31,15,22,174,20,03,10,065,19,7*78
$GAGSV,3,3,09,27,01,188,,7*4F
$GAGSV,2,1,07,13,56,231,40,08,46,026,20,07,44,304,45,26,32,306,45,1*78
$GAGSV,2,2,07,02,26,085,38,30,26,143,29,15,22,174,24,1*48
$GBGSV,4,1,15,38,83,113,41,08,79,003,38,39,71,284,43,13,68,333,37,1*71
$GBGSV,4,2,15,16,66,258,45,06,65,254,38,46,60,111,39,09,50,239,42,1*7D
$GBGSV,4,3,15,19,49,345,35,20,43,063,24,36,35,184,28,37,22,047,24,1*77
$GBGSV,4,4,15,35,21,268,37,29,19,211,28,22,12,302,37,1*42
$GBGSV,3,1,09,38,83,113,45,39,71,284,44,46,60,111,45,19,49,345,33,4*7B
$GBGSV,3,2,09,20,43,063,13,36,35,184,26,37,22,047,26,35,21,268,34,4*7E
$GBGSV,3,3,09,22,12,302,40,4*4C
$GNACCURACY,2.3*17
$PAIRSAT,1,35,1,0,200,2,0,200,3,0,200,4,0,200,5,0,201,6,0,200,7,0,200,8,0,200,9,0,200,10,0,221,11,0,200,12,0,201,13,0,201,14,0,200,15,0,201,16,0,200,17,0,200,18,0,221,19,0,200,20,0,200,21,0,200,23,0,221,24,0,221,25,0,200,26,0,200,27,0,200,28,0,200,29,0,200,30,0,200,31,0,200,32,0,221,194,0,621,195,0,621,196,0,620,199,0,621*68
$PAIRSAT,2,23,65,0,200,67,0,200,68,0,200,69,0,201,70,0,201,71,0,201,72,0,200,73,0,201,74,0,200,75,0,200,76,0,200,77,0,200,78,0,200,79,0,201,80,0,201,81,0,200,82,0,200,83,0,200,84,0,200,85,0,201,86,0,201,87,0,200,88,0,200*53
$PAIRSAT,3,23,2,0,1221,3,0,1221,4,0,1200,5,0,200,7,0,1221,8,0,1221,9,0,1200,10,0,1200,11,0,1200,12,0,1200,13,0,1221,15,0,1221,19,0,1200,21,0,1200,24,0,1200,25,0,1200,26,0,1221,27,0,1200,30,0,1221,31,0,1200,33,0,1200,34,0,1200,36,0,1200*6A
$PAIRSAT,4,50,1,0,200,2,0,200,3,0,200,4,0,200,5,0,200,6,0,201,7,0,200,8,0,201,9,0,201,10,0,200,11,0,200,12,0,200,13,0,201,14,0,200,15,0,200,16,0,201,19,0,621,20,0,621,21,0,600,22,0,621,23,0,600,24,0,600,25,0,600,26,0,600,27,0,600,28,0,600,29,0,621,30,0,600,31,0,200,32,0,600,33,0,600,34,0,600,35,0,621,36,0,621,37,0,621,38,0,621,39,0,621,40,0,600,41,0,600,42,0,600,43,0,600,44,0,600,45,0,600,46,0,621,56,0,200,57,0,200,58,0,200,59,0,600,60,0,600,61,0,600*41
$PAIRDGP,11,5,10,12,13,15,18,23,24,25,29,32*6B
$GNGGA,112750.200,2500.8152500,N,12132.4707800,E,2,65,0.42,20.70,M,15.25,M,34,3335*42
$GNRMC,112750.200,A,2500.8152500,N,12132.4707800,E,0.02,287.56,260623,,,D,V*01
$GPHDT,,T*1B
$GNACCURACY,2.3*17
$GNGGA,112750.300,2500.8152500,N,12132.4707800,E,2,66,0.42,20.69,M,15.25,M,34,3335*48
$GNRMC,112750.300,A,2500.8152500,N,12132.4707800,E,0.02,287.56,260623,,,D,V*00
$GPHDT,,T*1B
$GNACCURACY,2.3*17
$GNGGA,112750.400,2500.8152500,N,12132.4707800,E,2,66,0.42,20.67,M,15.25,M,34,3335*41
$GNRMC,112750.400,A,2500.8152500,N,12132.4707800,E,0.02,287.56,260623,,,D,V*07
$GPHDT,,T*1B
$GNACCURACY,2.4*10
$GNGGA,112750.500,2500.8152400,N,12132.4707800,E,2,66,0.42,20.66,M,15.25,M,34,3335*40
$GNRMC,112750.500,A,2500.8152400,N,12132.4707800,E,0.02,287.56,260623,,,D,V*07
$GPHDT,,T*1B
$GNACCURACY,2.4*10
$GNGGA,112750.600,2500.8152400,N,12132.4707800,E,2,66,0.42,20.65,M,15.25,M,34,3335*40
$GNRMC,112750.600,A,2500.8152400,N,12132.4707800,E,0.02,287.56,260623,,,D,V*04
$GPHDT,,T*1B
$GNACCURACY,2.4*10
$GNGGA,112750.700,2500.8152400,N,12132.4707800,E,2,66,0.42,20.63,M,15.25,M,34,3335*47
$GNRMC,112750.700,A,2500.8152400,N,12132.4707800,E,0.02,287.56,260623,,,D,V*05
$GPHDT,,T*1B
$GNACCURACY,2.3*17
$GNGGA,112750.800,2500.8152400,N,12132.4707900,E,2,66,0.42,20.61,M,15.25,M,34,3335*4B
$GNRMC,112750.800,A,2500.8152400,N,12132.4707900,E,0.02,287.56,260623,,,D,V*0B
$GPHDT,,T*1B
$GNACCURACY,2.3*17
$GNGGA,112750.900,2500.8152400,N,12132.4707900,E,2,66,0.42,20.60,M,15.25,M,34,3335*4B
$GNRMC,112750.900,A,2500.8152400,N,12132.4707900,E,0.02,287.56,260623,,,D,V*0A
$GPHDT,,T*1B
$GNACCURACY,2.3*17
$GNGGA,112751.000,2500.8152400,N,12132.4707900,E,2,66,0.42,20.58,M,15.25,M,35,3335*49
$GNRMC,112751.000,A,2500.8152400,N,12132.4707900,E,0.02,287.56,260623,,,D,V*02
$GPHDT,,T*1B
$GNACCURACY,2.3*17
$GNGGA,112751.100,2500.8152400,N,12132.4708000,E,2,65,0.42,20.56,M,15.25,M,35,3335*43
$GNRMC,112751.100,A,2500.8152400,N,12132.4708000,E,0.02,287.56,260623,,,D,V*05
$GPHDT,,T*1B
$GNGSA,A,3,196,24,18,23,195,194,12,05,10,199,,,0.76,0.42,0.63,1*04
$GNGSA,A,3,80,70,73,85,86,71,69,79,,,,,0.76,0.42,0.63,2*0F
$GNGSA,A,3,13,08,07,26,02,30,15,03,,,,,0.76,0.42,0.63,3*0E
$GNGSA,A,3,38,08,39,13,16,06,46,09,19,20,36,37,0.76,0.42,0.63,4*0C
$GNGSA,A,3,35,29,22,,,,,,,,,,0.76,0.42,0.63,4*0B
$GPGSV,4,1,16,196,75,065,41,24,73,042,42,199,60,167,18,18,58,245,47,1*64
$GPGSV,4,2,16,23,51,339,37,41,38,242,45,15,37,047,25,195,34,180,23,1*50
$GPGSV,4,3,16,194,31,138,32,12,21,141,26,05,19,119,18,10,18,319,31,1*5D
$GPGSV,4,4,16,25,09,176,17,32,09,270,27,13,08,057,18,29,01,196,,1*66
$GPGSV,3,1,09,196,75,065,41,24,73,042,46,199,60,167,38,18,58,245,47,8*62
$GPGSV,3,2,09,23,51,339,37,195,34,180,26,194,31,138,30,10,18,319,36,8*6B
$GPGSV,3,3,09,32,09,270,18,8*50
$GLGSV,3,1,09,80,48,076,44,70,40,011,16,73,39,159,28,85,35,245,43,1*74
$GLGSV,3,2,09,86,27,301,44,71,22,315,45,69,13,074,19,79,11,032,26,1*74
$GLGSV,3,3,09,74,03,187,,1*4F
$GAGSV,3,1,10,13,56,231,41,08,46,026,27,07,44,304,43,26,32,306,41,7*7D
$GAGSV,3,2,10,02,26,085,36,30,26,143,27,15,22,174,20,03,10,065,19,7*74
$GAGSV,3,3,10,25,03,043,,27,01,188,,7*74
$GAGSV,2,1,07,13,56,231,40,08,46,026,23,07,44,304,45,26,32,306,45,1*7B
$GAGSV,2,2,07,02,26,085,38,30,26,143,28,15,22,174,24,1*49
$GBGSV,4,1,16,38,83,113,41,08,79,003,38,39,71,284,43,13,68,333,37,1*72
$GBGSV,4,2,16,16,66,258,45,06,65,254,38,46,60,111,39,09,50,239,42,1*7E
$GBGSV,4,3,16,19,49,345,35,20,43,063,21,36,35,184,27,37,22,047,24,1*7E
$GBGSV,4,4,16,35,21,268,37,29,19,211,28,22,12,302,37,44,02,311,,1*70
$GBGSV,3,1,10,38,83,113,45,39,71,284,44,46,60,111,45,19,49,345,34,4*74
$GBGSV,3,2,10,20,43,063,13,36,35,184,26,37,22,047,26,35,21,268,35,4*77
$GBGSV,3,3,10,29,19,211,21,22,12,302,40,4*76
$GNACCURACY,2.3*17
$PAIRSAT,1,35,1,0,200,2,0,200,3,0,200,4,0,200,5,0,201,6,0,200,7,0,200,8,0,200,9,0,200,10,0,221,11,0,200,12,0,201,13,0,201,14,0,200,15,0,201,16,0,200,17,0,200,18,0,221,19,0,200,20,0,200,21,0,200,23,0,221,24,0,221,25,0,200,26,0,200,27,0,200,28,0,200,29,0,200,30,0,200,31,0,200,32,0,221,194,0,621,195,0,621,196,0,620,199,0,621*68
$PAIRSAT,2,23,65,0,200,67,0,200,68,0,200,69,0,201,70,0,201,71,0,201,72,0,200,73,0,201,74,0,200,75,0,200,76,0,200,77,0,200,78,0,200,79,0,201,80,0,201,81,0,200,82,0,200,83,0,200,84,0,200,85,0,201,86,0,201,87,0,200,8