$FW : RTK35X,V1.1X0314AS,Lib20210517,1*54
$Tool : LOCOSYS , GNSS Firebird , v1.0.0.19*39
$---------------------------------------------------*2D
CURACY,4.1*13
$GNGGA,031748.000,2500.7792114,N,12132.4624572,E,4,50,0.57,16.677,M,15.25,M,1,3335*43
$GNRMC,031748.000,A,2500.7792114,N,12132.4624572,E,0.03,269.03,090324,,,R,V*1E
$GPHDT,225.780,T*3F
$GNGSA,A,3,08,194,195,27,16,04,21,09,07,26,,,1.08,0.57,0.92,1*07
$GNGSA,A,3,88,78,77,87,,,,,,,,,1.08,0.57,0.92,2*02
$GNGSA,A,3,21,13,19,27,15,,,,,,,,1.08,0.57,0.92,3*0B
$GNGSA,A,3,06,16,43,09,39,40,07,23,10,11,25,28,1.08,0.57,0.92,4*0F
$GNGSA,A,3,34,,,,,,,,,,,,1.08,0.57,0.92,4*03
$GPGSV,4,1,14,08,72,288,46,199,66,163,12,194,63,045,36,195,56,125,33,1*5A
$GPGSV,4,2,14,27,54,025,42,45,47,231,32,16,37,050,34,04,36,220,33,1*61
$GPGSV,4,3,14,21,35,171,41,09,31,272,36,07,21,320,28,196,21,174,16,1*5F
$GPGSV,4,4,14,26,19,080,31,31,,,26,1*51
$GPGSV,2,1,07,08,72,288,45,194,63,045,33,195,56,125,35,27,54,025,37,8*66
$GPGSV,2,2,07,04,36,220,31,09,31,272,29,26,19,080,21,8*59
$GLGSV,2,1,05,88,72,095,38,78,43,359,21,77,34,080,23,87,26,032,25,1*7B
$GLGSV,2,2,05,79,09,316,26,1*4A
$GAGSV,2,1,06,21,50,343,17,13,48,114,37,19,38,262,28,27,35,058,23,7*7C
$GAGSV,2,2,06,15,24,053,18,26,24,176,19,7*72
$GAGSV,2,1,05,21,50,343,21,13,48,114,38,19,38,262,29,27,35,058,24,1*75
$GAGSV,2,2,05,15,24,053,25,1*43
$GBGSV,4,1,13,06,84,234,41,16,81,186,43,43,76,077,36,09,74,309,45,1*7F
$GBGSV,4,2,13,39,70,172,42,40,67,312,44,07,63,290,40,23,58,351,32,1*7F
$GBGSV,4,3,13,10,52,273,38,11,52,049,31,25,49,090,24,28,35,206,28,1*77
$GBGSV,4,4,13,34,29,042,19,1*46
$GBGSV,2,1,07,43,76,077,32,39,70,172,41,40,67,312,42,23,58,351,37,4*70
$GBGSV,2,2,07,25,49,090,29,28,35,206,21,34,29,042,26,4*49
$GNACCURACY,4.1*13
$PAIRSAT,1,21,4,0,21,7,0,1,8,0,21,9,0,21,14,0,200,15,0,200,16,0,201,17,0,200,18,0,200,19,0,200,20,0,200,21,0,201,22,0,200,23,0,200,24,0,200,26,0,21,27,0,21,194,0,421,195,0,221,196,0,200,199,0,600*6A
$PAIRSAT,2,12,70,0,200,71,0,200,77,0,1,78,0,1,79,0,1,82,0,200,83,0,200,84,0,200,85,0,200,86,0,200,87,0,201,88,0,201*7F
$PAIRSAT,3,15,2,0,1000,3,0,1000,4,0,1000,13,0,21,15,0,21,19,0,1,21,0,221,25,0,1200,26,0,1200,27,0,1221,30,0,1200,31,0,1200,33,0,1200,34,0,1200,36,0,200*69
$PAIRSAT,4,43,1,0,200,2,0,200,3,0,400,4,0,200,5,0,200,6,0,201,7,0,201,8,0,200,9,0,201,10,0,201,11,0,201,16,0,1,19,0,400,20,0,400,21,0,400,22,0,400,23,0,421,24,0,600,25,0,621,26,0,600,27,0,400,28,0,621,29,0,600,30,0,600,32,0,400,33,0,400,34,0,421,35,0,400,36,0,400,37,0,400,38,0,400,39,0,421,40,0,421,41,0,400,42,0,400,43,0,421,44,0,400,45,0,400,46,0,400,59,0,400,60,0,400,61,0,400,62,0,400*67
$PAIRDGP,0*45
$GNGGA,031748.100,2500.7792089,N,12132.4624571,E,4,50,0.57,16.681,M,15.25,M,1,3335*4D
$GNRMC,031748.100,A,2500.7792089,N,12132.4624571,E,0.02,269.03,090324,,,R,V*18
$GPHDT,,T*1B
$GNACCURACY,4.1*13
$GNGGA,031748.200,2500.7792054,N,12132.4624555,E,4,50,0.57,16.687,M,15.25,M,1,3335*4E
$GNRMC,031748.200,A,2500.7792054,N,12132.4624555,E,0.02,269.03,090324,,,R,V*1D
$GPHDT,226.363,T*35
$GNACCURACY,4.1*13
$GNGGA,031748.300,2500.7792049,N,12132.4624537,E,4,50,0.57,16.678,M,15.25,M,1,3335*47
$GNRMC,031748.300,A,2500.7792049,N,12132.4624537,E,0.03,269.03,090324,,,R,V*15
$GPHDT,,T*1B
$GNACCURACY,4.1*13
$GNGGA,031748.400,2500.7792009,N,12132.4624520,E,4,50,0.57,16.704,M,15.25,M,1,3335*48
$GNRMC,031748.400,A,2500.7792009,N,12132.4624520,E,0.04,269.03,090324,,,R,V*17
$GPHDT,226.592,T*3D
$GNACCURACY,4.1*13
$GNGGA,031748.500,2500.7792058,N,12132.4624549,E,4,50,0.57,16.672,M,15.25,M,1,3335*42
$GNRMC,031748.500,A,2500.7792058,N,12132.4624549,E,0.20,269.03,090324,,,R,V*1B
$GPHDT,,T*1B
$GNACCURACY,4.1*13
$GNGGA,031748.600,2500.7792067,N,12132.4624620,E,4,50,0.57,16.656,M,15.25,M,0,3335*46
$GNRMC,031748.600,A,2500.7792067,N,12132.4624620,E,0.14,269.03,090324,,,R,V*1F
$GPHDT,226.686,T*3B
$GNACCURACY,4.0*12
$GNGGA,031748.700,2500.7792113,N,12132.4624483,E,4,50,0.57,16.607,M,15.25,M,0,3335*4A
$GNRMC,031748.700,A,2500.7792113,N,12132.4624483,E,0.22,269.03,090324,,,R,V*12
$GPHDT,,T*1B
$GNACCURACY,4.0*12
$GNGGA,031748.800,2500.7792109,N,12132.4624801,E,4,51,0.57,16.663,M,15.25,M,0,3335*4B
$GNRMC,031748.800,A,2500.7792109,N,12132.4624801,E,0.12,269.03,090324,,,R,V*13
$GPHDT,226.110,T*33
$GNACCURACY,4.0*12
$GNGGA,031748.900,2500.7792065,N,12132.4624739,E,4,51,0.57,16.675,M,15.25,M,0,3335*42
$GNRMC,031748.900,A,2500.7792065,N,12132.4624739,E,0.10,269.03,090324,,,R,V*1F
$GPHDT,,T*1B
$GNACCURACY,4.0*12
$GNGGA,031749.000,2500.7792074,N,12132.4624663,E,4,51,0.57,16.653,M,15.25,M,1,3335*41
$GNRMC,031749.000,A,2500.7792074,N,12132.4624663,E,0.02,269.03,090324,,,R,V*1A
$GPHDT,226.815,T*3F
$GNGSA,A,3,08,194,195,27,16,04,21,09,07,26,,,1.08,0.57,0.92,1*07
$GNGSA,A,3,88,78,77,87,,,,,,,,,1.08,0.57,0.92,2*02
$GNGSA,A,3,21,13,19,27,15,,,,,,,,1.08,0.57,0.92,3*0B
$GNGSA,A,3,06,16,43,09,39,40,07,23,10,11,25,28,1.08,0.57,0.92,4*0F
$GNGSA,A,3,34,,,,,,,,,,,,1.08,0.57,0.92,4*03
$GPGSV,4,1,14,08,72,288,45,199,66,163,12,194,63,045,38,195,56,125,35,1*51
$GPGSV,4,2,14,27,54,025,42,45,47,231,29,16,37,050,34,04,36,220,35,1*6D
$GPGSV,4,3,14,21,35,171,43,09,31,272,34,07,21,320,27,196,21,174,16,1*50
$GPGSV,4,4,14,26,19,080,21,31,,,25,1*53
$GPGSV,2,1,07,08,72,288,45,194,63,045,37,195,56,125,38,27,54,025,39,8*61
$GPGSV,2,2,07,04,36,220,35,09,31,272,34,26,19,080,25,8*55
$GLGSV,2,1,05,88,72,095,37,78,43,359,19,77,34,080,20,87,26,032,22,1*7B
$GLGSV,2,2,05,79,09,316,22,1*4E
$GAGSV,2,1,06,21,50,343,17,13,48,114,36,19,38,262,28,27,35,058,24,7*7A
$GAGSV,2,2,06,15,24,053,27,26,24,176,19,7*7E
$GAGSV,2,1,05,21,50,343,23,13,48,114,39,19,38,262,34,27,35,058,27,1*79
$GAGSV,2,2,05,15,24,053,28,1*4E
$GBGSV,4,1,13,06,84,234,41,16,81,186,41,43,76,077,38,09,74,309,45,1*73
$GBGSV,4,2,13,39,70,172,41,40,67,312,44,07,63,290,40,23,58,351,35,1*7B
$GBGSV,4,3,13,10,52,273,36,11,52,049,35,25,49,090,32,28,35,206,33,1*70
$GBGSV,4,4,13,34,29,042,37,1*4A
$GBGSV,2,1,07,43,76,077,38,39,70,172,43,40,67,312,43,23,58,351,41,4*78
$GBGSV,2,2,07,25,49,090,35,28,35,206,23,34,29,042,33,4*42
$GNACCURACY,4.0*12
$PAIRSAT,1,21,4,0,21,7,0,1,8,0,21,9,0,21,14,0,200,15,0,200,16,0,201,17,0,200,18,0,200,19,0,200,20,0,200,21,0,201,22,0,200,23,0,200,24,0,200,26,0,21,27,0,21,194,0,421,195,0,221,196,0,200,199,0,600*6A
$PAIRSAT,2,12,70,0,200,71,0,200,77,0,1,78,0,1,79,0,1,82,0,200,83,0,200,84,0,200,85,0,200,86,0,200,87,0,201,88,0,201*7F
$PAIRSAT,3,15,2,0,1000,3,0,1000,4,0,1000,13,0,21,15,0,21,19,0,1,21,0,221,25,0,1200,26,0,1200,27,0,1221,30,0,1200,31,0,1200,33,0,1200,34,0,1200,36,0,200*69
$PAIRSAT,4,43,1,0,200,2,0,200,3,0,400,4,0,200,5,0,200,6,0,201,7,0,201,8,0,200,9,0,201,10,0,201,11,0,201,16,0,1,19,0,400,20,0,400,21,0,400,22,0,400,23,0,421,24,0,600,25,0,621,26,0,600,27,0,400,28,0,621,29,0,600,30,0,600,32,0,400,33,0,400,34,0,421,35,0,400,36,0,400,37,0,400,38,0,400,39,0,421,40,0,421,41,0,400,42,0,400,43,0,421,44,0,400,45,0,400,46,0,400,59,0,400,60,0,400,61,0,400,62,0,400*67
$PAIRDGP,0*45
$GNGGA,031749.100,2500.7792075,N,12132.4624672,E,4,51,0.57,16.696,M,15.25,M,1,3335*48
$GNRMC,031749.100,A,2500.7792075,N,12132.4624672,E,0.06,269.03,090324,,,R,V*1E
$GPHDT,,T*1B
$GNACCURACY,4.0*12
$GNGGA,031749.200,2500.7792088,N,12132.4624653,E,4,51,0.57,16.690,M,15.25,M,1,3335*4C
$GNRMC,031749.200,A,2500.7792088,N,12132.4624653,E,0.03,269.03,090324,,,R,V*19
$GPHDT,225.889,T*39
$GNACCURACY,4.0*12
$GNGGA,031749.300,2500.7792014,N,12132.4624634,E,4,50,0.57,16.715,M,15.25,M,1,3335*44
$GNRMC,031749.300,A,2500.7792014,N,12132.4624634,E,0.03,269.03,090324,,,R,V*1C
$GPHDT,,T*1B
$GNACCURACY,4.0*12
$GNGGA,031749.400,2500.7792023,N,12132.4624689,E,4,50,0.57,16.718,M,15.25,M,1,3335*4C
$GNRMC,031749.400,A,2500.7792023,N,12132.4624689,E,0.02,269.03,090324,,,R,V*18
$GPHDT,225.734,T*30
$GNACCURACY,4.1*13
$GNGGA,031749.500,2500.7792052,N,12132.4624666,E,4,49,0.62,16.697,M,15.25,M,1,3335*42
$GNRMC,031749.500,A,2500.7792052,N,12132.4624666,E,0.02,269.03,090324,,,R,V*1E
$GPHDT,,T*1B
$GNACCURACY,4.0*12
$GNGGA,031749.600,2500.7792065,N,12132.4624700,E,4,51,0.58,16.705,M,15.25,M,1,3335*4E
$GNRMC,031749.600,A,2500.7792065,N,12132.4624700,E,0.02,269.03,090324,,,R,V*18
$GPHDT,225.993,T*33
$GNACCURACY,4.0*12
$GNGGA,031749.700,2500.7792008,N,12132.4624634,E,4,51,0.57,16.720,M,15.25,M,0,3335*4B
$GNRMC,031749.700,A,2500.7792008,N,12132.4624634,E,0.02,269.03,090324,,,R,V*14
$GPHDT,,T*1B
$GNACCURACY,4.0*12
$GNGGA,031749.800,2500.7792061,N,12132.4624685,E,4,51,0.58,16.690,M,15.25,M,0,3335*44
$GNRMC,031749.800,A,2500.7792061,N,12132.4624685,E,0.02,269.03,090324,,,R,V*1E
$GPHDT,226.177,T*32
$GNACCURACY,4.0*12
$GNGGA,031749.900,2500.7792162,N,12132.4624631,E,4,51,0.57,16.634,M,15.25,M,0,3335*49
$GNRMC,031749.900,A,2500.7792162,N,12132.4624631,E,0.03,269.03,090324,,,R,V*13
$GPHDT,,T*1B
$GNACCURACY,4.0*12
$GNGGA,031750.000,2500.7792086,N,12132.4624598,E,4,50,0.58,16.687,M,15.25,M,1,3335*44
$GNRMC,031750.000,A,2500.7792086,N,12132.4624598,E,0.03,269.03,090324,,,R,V*19
$GPHDT,225.883,T*33
$GNGSA,A,3,08,194,195,27,16,04,21,09,07,26,,,1.08,0.57,0.92,1*07
$GNGSA,A,3,88,78,77,87,,,,,,,,,1.08,0.57,0.92,2*02
$GNGSA,A,3,21,13,19,27,15,,,,,,,,1.08,0.57,0.92,3*0B
$GNGSA,A,3,06,16,43,09,39,40,07,23,10,11,25,28,1.08,0.57,0.92,4*0F
$GNGSA,A,3,34,,,,,,,,,,,,1.08,0.57,0.92,4*03
$GPGSV,4,1,14,08,72,288,44,199,66,163,12,194,63,045,41,195,56,125,37,1*5C
$GPGSV,4,2,14,27,54,025,47,45,47,231,29,16,37,050,34,04,36,220,35,1*68
$GPGSV,4,3,14,21,35,171,44,09,31,272,33,07,21,320,28,196,21,174,18,1*51
$GPGSV,4,4,14,26,19,080,23,31,,,20,1*54
$GPGSV,2,1,07,08,72,288,45,194,63,045,41,195,56,125,40,27,54,025,43,8*62
$GPGSV,2,2,07,04,36,220,35,09,31,272,35,26,19,080,25,8*54
$GLGSV,2,1,05,88,72,095,42,78,43,359,19,77,34,080,18,87,26,032,24,1*74
$GLGSV,2,2,05,79,09,316,22,1*4E
$GAGSV,2,1,06,21,50,343,14,13,48,114,36,19,38,262,29,27,35,058,29,7*75
$GAGSV,2,2,06,15,24,053,25,26,24,176,19,7*7C
$GAGSV,2,1,05,21,50,343,24,13,48,114,39,19,38,262,31,27,35,058,32,1*7F
$GAGSV,2,2,05,15,24,053,33,1*44
$GBGSV,4,1,13,06,84,234,41,16,81,186,43,43,76,077,44,09,74,309,44,1*7B
$GBGSV,4,2,13,39,70,172,42,40,67,312,45,07,63,290,40,23,58,351,34,1*78
$GBGSV,4,3,13,10,52,273,39,11,52,049,39,25,49,090,34,28,35,206,34,1*72
$GBGSV,4,4,13,34,29,042,41,1*4B
$GBGSV,2,1,07,43,76,077,42,39,70,172,44,40,67,312,41,23,58,351,41,4*70
$GBGSV,2,2,07,25,49,090,34,28,35,206,24,34,29,042,36,4*41
$GNACCURACY,4.0*12
$PAIRSAT,1,21,4,0,21,7,0,1,8,0,21,9,0,21,14,0,200,15,0,200,16,0,201,17,0,200,18,0,200,19,0,200,20,0,200,21,0,201,22,0,200,23,0,200,24,0,200,26,0,21,27,0,21,194,0,421,195,0,221,196,0,200,199,0,600*6A
$PAIRSAT,2,12,70,0,200,71,0,200,77,0,1,78,0,1,79,0,1,82,0,200,83,0,200,84,0,200,85,0,200,86,0,200,87,0,201,88,0,201*7F
$PAIRSAT,3,15,2,0,1000,3,0,1000,4,0,1000,13,0,21,15,0,21,19,0,1,21,0,221,25,0,1200,26,0,1200,27,0,1221,30,0,1200,31,0,1200,33,0,1200,34,0,1200,36,0,200*69
$PAIRSAT,4,43,1,0,200,2,0,200,3,0,400,4,0,200,5,0,200,6,0,201,7,0,201,8,0,200,9,0,201,10,0,201,11,0,201,16,0,1,19,0,400,20,0,400,21,0,400,22,0,400,23,0,421,24,0,600,25,0,621,26,0,600,27,0,400,28,0,621,29,0,600,30,0,600,32,0,400,33,0,400,34,0,421,35,0,400,36,0,400,37,0,400,38,0,400,39,0,421,40,0,421,41,0,400,42,0,400,43,0,421,44,0,400,45,0,400,46,0,400,59,0,400,60,0,400,61,0,400,62,0,400*67
$PAIRDGP,0*45
$GNGGA,031750.100,2500.7792088,N,12132.4624611,E,4,50,0.57,16.683,M,15.25,M,1,3335*42
$GNRMC,031750.100,A,2500.7792088,N,12132.4624611,E,0.03,269.03,090324,,,R,V*14
$GPHDT,,T*1B
$GNACCURACY,4.0*12
$GNGGA,031750.200,2500.7792100,N,12132.4624609,E,4,50,0.58,16.690,M,15.25,M,1,3335*44
$GNRMC,031750.200,A,2500.7792100,N,12132.4624609,E,0.03,269.03,090324,,,R,V*1F
$GPHDT,226.049,T*3E
$GNACCURACY,4.0*12
$GNGGA,031750.300,2500.7792166,N,12132.4624613,E,4,50,0.58,16.656,M,15.25,M,1,3335*44
$GNRMC,031750.300,A,2500.7792166,N,12132.4624613,E,0.03,269.03,090324,,,R,V*15
$GPHDT,,T*1B
$GNACCURACY,4.0*12
$GNGGA,031750.400,2500.7792174,N,12132.4624603,E,4,50,0.57,16.645,M,15.25,M,1,3335*4C
$GNRMC,031750.400,A,2500.7792174,N,12132.4624603,E,0.02,269.03,090324,,,R,V*11
$GPHDT,225.615,T*32
$GNACCURACY,4.0*12
$GNGGA,031750.500,2500.7792099,N,12132.4624587,E,4,50,0.57,16.680,M,15.25,M,1,3335*49
$GNRMC,031750.500,A,2500.7792099,N,12132.4624587,E,0.03,269.03,090324,,,R,V*1C
$GPHDT,,T*1B
$GNACCURACY,4.0*12
$GNGGA,031750.600,2500.7792128,N,12132.4624581,E,4,50,0.57,16.686,M,15.25,M,0,3335*40
$GNRMC,031750.600,A,2500.7792128,N,12132.4624581,E,0.02,269.03,090324,,,R,V*13
$GPHDT,225.766,T*37
$GNACCURACY,4.0*12
$GNGGA,031750.700,2500.7792145,N,12132.4624561,E,4,51,0.58,16.684,M,15.25,M,0,3335*48
$GNRMC,031750.700,A,2500.7792145,N,12132.4624561,E,0.03,269.03,090324,,,R,V*16
$GPHDT,,T*1B
$GNACCURACY,4.0*12
$GNGGA,031750.800,2500.7792123,N,12132.4624550,E,4,51,0.58,16.676,M,15.25,M,0,3335*48
$GNRMC,031750.800,A,2500.7792123,N,12132.4624550,E,0.03,269.03,090324,,,R,V*1B
$GPHDT,225.647,T*35
$GNACCURACY,4.0*12
$GNGGA,031750.900,2500.7792100,N,12132.4624582,E,4,51,0.57,16.686,M,15.25,M,0,3335*47
$GNRMC,031750.900,A,2500.7792100,N,12132.4624582,E,0.03,269.03,090324,,,R,V*14
$GPHDT,,T*1B
$GNACCURACY,4.0*12
$GNGGA,031751.000,2500.7792094,N,12132.4624578,E,4,51,0.58,16.679,M,15.25,M,1,3335*48
$GNRMC,031751.000,A,2500.7792094,N,12132.4624578,E,0.03,269.03,090324,,,R,V*15
$GPHDT,225.646,T*34
$GNGSA,A,3,08,194,195,27,16,04,21,09,07,26,,,1.09,0.58,0.92,1*09
$GNGSA,A,3,88,78,77,87,,,,,,,,,1.09,0.58,0.92,2*0C
$GNGSA,A,3,21,13,19,27,15,,,,,,,,1.09,0.58,0.92,3*05
$GNGSA,A,3,06,16,43,09,39,40,07,23,10,11,25,28,1.09,0.58,0.92,4*01
$GNGSA,A,3,34,,,,,,,,,,,,1.09,0.58,0.92,4*0D
$GPGSV,4,1,14,08,72,288,44,199,66,163,13,194,63,045,41,195,56,125,38,1*52
$GPGSV,4,2,14,27,54,025,48,45,47,231,30,16,37,050,35,04,36,220,36,1*6D
$GPGSV,4,3,14,21,35,171,45,09,31,272,35,07,21,320,27,196,21,174,18,1*59
$GPGSV,4,4,14,26,19,080,26,31,,,20,1*51
$GPGSV,2,1,07,08,72,288,45,194,63,045,41,195,56,125,41,27,54,025,44,8*64
$GPGSV,2,2,07,04,36,220,35,09,31,272,35,26,19,080,31,8*51
$GLGSV,2,1,05,88,72,094,42,78,43,359,23,77,34,080,21,87,26,032,24,1*76
$GLGSV,2,2,05,79,09,316,19,1*46
$GAGSV,2,1,06,21,50,343,14,13,48,114,38,19,38,262,30,27,35,058,33,7*78
$GAGSV,2,2,06,15,24,053,21,26,24,176,20,7*72
$GAGSV,2,1,05,21,50,343,25,13,48,114,40,19,38,262,32,27,35,058,33,1*72
$GAGSV,2,2,05,15,24,053,33,1*44
$GBGSV,4,1,13,06,84,234,41,16,81,186,43,43,76,077,43,09,74,309,44,1*7C
$GBGSV,4,2,13,39,70,172,42,40,67,312,45,07,63,290,41,23,58,351,34,1*79
$GBGSV,4,3,13,10,52,273,38,11,52,049,40,25,49,090,32,28,35,206,34,1*7B
$GBGSV,4,4,13,34,29,042,41,1*4B
$GBGSV,2,1,07,43,76,077,42,39,70,172,44,40,67,312,41,23,58,351,40,4*71
$GBGSV,2,2,07,25,49,090,36,28,35,206,23,34,29,042,37,4*45
$GNACCURACY,4.0*12
$PAIRSAT,1,21,4,0,21,7,0,1,8,0,21,9,0,21,14,0,200,15,0,200,16,0,201,17,0,200,18,0,200,19,0,200,20,0,200,21,0,201,22,0,200,23,0,200,24,0,200,26,0,21,27,0,21,194,0,421,195,0,221,196,0,200,199,0,600*6A
$PAIRSAT,2,12,70,0,200,71,0,200,77,0,1,78,0,1,79,0,1,82,0,200,83,0,200,84,0,200,85,0,200,86,0,200,87,0,201,88,0,201*7F
$PAIRSAT,3,15,2,0,1000,3,0,1000,4,0,1000,13,0,21,15,0,21,19,0,1,21,0,221,25,0,1200,26,0,1200,27,0,1221,30,0,1200,31,0,1200,33,0,1200,34,0,1200,36,0,200*69
$PAIRSAT,4,44,1,0,200,2,0,200,3,0,400,4,0,200,5,0,200,6,0,201,7,0,201,8,0,200,9,0,201,10,0,201,11,0,201,12,0,200,16,0,1,19,0,400,20,0,400,21,0,400,22,0,400,23,0,421,24,0,600,25,0,621,26,0,600,27,0,400,28,0,621,29,0,600,30,0,600,32,0,400,33,0,400,34,0,421,35,0,400,36,0,400,37,0,400,38,0,400,39,0,421,40,0,421,41,0,400,42,0,400,43,0,421,44,0,400,45,0,400,46,0,400,59,0,400,60,0,400,61,0,400,62,0,400*4D
$PAIRDGP,0*45
$GNGGA,031751.100,2500.7792120,N,12132.4624540,E,4,51,0.58,16.675,M,15.25,M,1,3335*40
$GNRMC,031751.100,A,2500.7792120,N,12132.4624540,E,0.03,269.03,090324,,,R,V*11
$GPHDT,,T*1B
$GNACCURACY,4.0*12
$GNGGA,031751.200,2500.7792100,N,12132.4624574,E,4,51,0.58,16.683,M,15.25,M,1,3335*4F
$GNRMC,031751.200,A,2500.7792100,N,12132.4624574,E,0.03,269.03,090324,,,R,V*17
$GPHDT,225.378,T*3C
$GNACCURACY,4.0*12
$GNGGA,031751.300,2500.7792063,N,12132.4624592,E,4,51,0.58,16.700,M,15.25,M,1,3335*48
$GNRMC,031751.300,A,2500.7792063,N,12132.4624592,E,0.03,269.03,090324,,,R,V*1A
$GPHDT,,T*1B
$GNACCURACY,4.0*12
$GNGGA,031751.400,2500.7792061,N,12132.4624575,E,4,51,0.58,16.695,M,15.25,M,1,3335*49
$GNRMC,031751.400,A,2500.7792061,N,12132.4624575,E,0.03,269.03,090324,,,R,V*16
$GPHDT,225.680,T*3E
$GNACCURACY,4.0*12
$GNGGA,031751.500,2500.7792063,N,12132.4624576,E,4,51,0.58,16.681,M,15.25,M,1,3335*4C
$GNRMC,031751.500,A,2500.7792063,N,12132.4624576,E,0.03,269.03,090324,,,R,V*16
$GPHDT,,T*1B
$GNACCURACY,4.0*12
$GNGGA,031751.600,2500.7792055,N,12132.4624583,E,4,51,0.58,16.690,M,15.25,M,1,3335*40
$GNRMC,031751.600,A,2500.7792055,N,12132.4624583,E,0.03,269.03,090324,,,R,V*1A
$GPHDT,225.829,T*33
$GNACCURACY,4.0*12
$GNGGA,031751.700,2500.7792067,N,12132.4624571,E,4,51,0.58,16.684,M,15.25,M,1,3335*48
$GNRMC,031751.700,A,2500.7792067,N,12132.4624571,E,0.03,269.03,090324,,,R,V*17
$GPHDT,,T*1B
$GNACCURACY,4.0*12
$GNGGA,031751.800,2500.7792052,N,12132.4624637,E,4,51,0.58,16.709,M,15.25,M,0,3335*45
$GNRMC,031751.800,A,2500.7792052,N,12132.4624637,E,0.03,269.03,090324,,,R,V*1F
$GPHDT,226.381,T*39
$GNACCURACY,4.0*12
$GNGGA,031751.900,2500.7792048,N,12132.4624660,E,4,51,0.58,16.735,M,15.25,M,0,3335*42
$GNRMC,031751.900,A,2500.7792048,N,12132.4624660,E,0.03,269.03,090324,,,R,V*17
$GPHDT,,T*1B
$GNACCURACY,4.1*13
$GNGGA,031752.000,2500.7792046,N,12132.4624612,E,4,51,0.58,16.717,M,15.25,M,1,3335*42
$GNRMC,031752.000,A,2500.7792046,N,12132.4624612,E,0.02,269.03,090324,,,R,V*17
$GPHDT,225.933,T*39
$GNGSA,A,3,08,194,195,27,16,04,21,09,07,26,,,1.09,0.58,0.92,1*09
$GNGSA,A,3,88,78,77,87,,,,,,,,,1.09,0.58,0.92,2*0C
$GNGSA,A,3,21,13,19,27,15,,,,,,,,1.09,0.58,0.92,3*05
$GNGSA,A,3,06,16,43,09,39,40,07,23,11,10,25,28,1.09,0.58,0.92,4*01
$GNGSA,A,3,34,,,,,,,,,,,,1.09,0.58,0.92,4*0D
$GPGSV,4,1,14,08,72,288,44,199,66,163,13,194,63,045,40,195,56,125,39,1*52
$GPGSV,4,2,14,27,54,025,46,45,47,231,29,16,37,050,37,04,36,220,35,1*6A
$GPGSV,4,3,14,21,35,171,45,09,31,272,32,07,21,320,26,196,21,174,16,1*51
$GPGSV,4,4,14,26,19,080,24,31,,,20,1*53
$GPGSV,2,1,07,08,72,288,45,194,63,045,37,195,56,125,40,27,54,025,42,8*62
$GPGSV,2,2,07,04,36,220,35,09,31,272,33,26,19,080,30,8*56
$GLGSV,2,1,05,88,72,094,42,78,43,359,27,77,34,080,18,87,26,032,23,1*7F
$GLGSV,2,2,05,79,09,316,19,1*46
$GAGSV,2,1,06,21,50,343,10,13,48,114,37,19,38,262,25,27,35,058,26,7*73
$GAGSV,2,2,06,26,24,176,20,15,24,053,28,7*7B
$GAGSV,2,1,05,21,50,343,25,13,48,114,40,19,38,262,31,27,35,058,31,1*73
$GAGSV,2,2,05,15,24,053,32,1*45
$GBGSV,4,1,16,06,84,234,41,16,81,186,43,43,76,077,43,09,74,308,43,1*7F
$GBGSV,4,2,16,39,70,172,42,40,67,312,45,07,63,290,41,23,58,351,39,1*71
$GBGSV,4,3,16,11,52,049,39,10,52,273,38,25,49,090,33,28,35,206,33,1*76
$GBGSV,4,4,16,34,29,042,37,32,07,260,,41,06,211,,38,03,172,,1*70
$GBGSV,2,1,07,43,76,077,41,39,70,172,44,40,67,312,41,23,58,351,41,4*73
$GBGSV,2,2,07,25,49,090,37,28,35,206,24,34,29,042,36,4*42
$GNACCURACY,4.1*13
$PAIRSAT,1,21,4,0,21,7,0,1,8,0,21,9,0,21,14,0,200,15,0,200,16,0,201,17,0,200,18,0,200,19,0,200,20,0,200,21,0,201,22,0,200,23,0,200,24,0,200,26,0,21,27,0,21,194,0,421,195,0,221,196,0,200,199,0,600*6A
$PAIRSAT,2,12,70,0,200,71,0,200,77,0,1,78,0,1,79,0,1,82,0,200,83,0,200,84,0,200,85,0,200,86,0,200,87,0,201,88,0,201*7F
$PAIRSAT,3,15,2,0,1000,3,0,1000,4,0,1000,13,0,21,15,0,21,19,0,1,21,0,221,25,0,1200,26,0,1200,27,0,1221,30,0,1200,31,0,1200,33,0,1200,34,0,1200,36,0,200*69
$PAIRSAT,4,44,1,0,200,2,0,200,3,0,400,4,0,200,5,0,200,6,0,201,7,0,201,8,0,200,9,0,201,10,0,201,11,0,201,12,0,200,16,0,1,19,0,400,20,0,400,21,0,400,22,0,400,23,0,421,24,0,600,25,0,621,26,0,600,27,0,400,28,0,621,29,0,600,30,0,600,32,0,400,33,0,400,34,0,421,35,0,400,36,0,400,37,0,400,38,0,400,39,0,421,40,0,421,41,0,400,42,0,400,43,0,421,44,0,400,45,0,400,46,0,400,59,0,400,60,0,400,61,0,400,62,0,400*4D
$PAIRDGP,0*45
$GNGGA,031752.100,2500.7792053,N,12132.4624617,E,4,51,0.58,16.715,M,15.25,M,1,3335*40
$GNRMC,031752.100,A,2500.7792053,N,12132.4624617,E,0.03,269.03,090324,,,R,V*16
$GPHDT,,T*1B
$GNACCURACY,4.1*13
$GNGGA,031752.200,2500.7792039,N,12132.4624621,E,4,51,0.58,16.726,M,15.25,M,1,3335*4A
$GNRMC,031752.200,A,2500.7792039,N,12132.4624621,E,0.03,269.03,090324,,,R,V*1C
$GPHDT,225.848,T*34
$GNACCURACY,4.1*13
$GNGGA,031752.300,2500.7792054,N,12132.4624632,E,4,51,0.58,16.721,M,15.25,M,1,3335*45
$GNRMC,031752.300,A,2500.7792054,N,12132.4624632,E,0.03,269.03,090324,,,R,V*14
$GPHDT,,T*1B
$GNACCURACY,4.1*13
$GNGGA,031752.400,2500.7792066,N,12132.4624629,E,4,51,0.58,16.720,M,15.25,M,1,3335*48
$GNRMC,031752.400,A,2500.7792066,N,12132.4624629,E,0.03,269.03,090324,,,R,V*18
$GPHDT,225.395,T*3F
$GNACCURACY,4.1*13
$GNGGA,031752.500,2500.7792054,N,12132.4624670,E,4,51,0.58,16.735,M,15.25,M,1,3335*40
$GNRMC,031752.500,A,2500.7792054,N,12132.4624670,E,0.03,269.03,090324,,,R,V*14
$GPHDT,,T*1B
$GNACCURACY,4.3*11
$GNGGA,031752.600,2500.7792064,N,12132.4624684,E,4,50,0.62,16.743,M,15.25,M,1,3335*42
$GNRMC,031752.600,A,2500.7792064,N,12132.4624684,E,0.02,269.03,090324,,,R,V*1E
$GPHDT,225.805,T*3D
$GNACCURACY,4.1*13
$GNGGA,031752.700,2500.7792063,N,12132.4624603,E,4,51,0.58,16.702,M,15.25,M,0,3335*47
$GNRMC,031752.700,A,2500.7792063,N,12132.4624603,E,0.03,269.03,090324,,,R,V*16
$GPHDT,,T*1B
$GNACCURACY,4.0*12
$GNGGA,031752.800,2500.7792031,N,12132.4624665,E,4,51,0.58,16.745,M,15.25,M,0,3335*4C
$GNRMC,031752.800,A,2500.7792031,N,12132.4624665,E,0.03,269.03,090324,,,R,V*1E
$GPHDT,225.679,T*38
$GNACCURACY,4.0*12
$GNGGA,031752.900,2500.7792043,N,12132.4624616,E,4,51,0.58,16.709,M,15.25,M,0,3335*44
$GNRMC,031752.900,A,2500.7792043,N,12132.4624616,E,0.02,269.03,090324,,,R,V*1F
$GPHDT,,T*1B
$GNACCURACY,4.1*13
$GNGGA,031753.000,2500.7792044,N,12132.4624645,E,4,51,0.58,16.720,M,15.25,M,1,3335*47
$GNRMC,031753.000,A,2500.7792044,N,12132.4624645,E,0.02,269.03,090324,,,R,V*16
$GPHDT,225.917,T*3F
$GNGSA,A,3,08,194,195,27,16,04,21,09,07,26,,,1.09,0.58,0.92,1*09
$GNGSA,A,3,88,78,77,87,,,,,,,,,1.09,0.58,0.92,2*0C
$GNGSA,A,3,21,13,19,27,15,,,,,,,,1.09,0.58,0.92,3*05
$GNGSA,A,3,06,16,43,09,39,40,07,23,10,11,25,28,1.09,0.58,0.92,4*01
$GNGSA,A,3,34,,,,,,,,,,,,1.09,0.58,0.92,4*0D
$GPGSV,4,1,14,08,72,288,44,199,66,163,15,194,63,045,40,195,56,125,39,1*54
$GPGSV,4,2,14,27,54,025,45,45,47,231,27,16,37,050,38,04,36,220,34,1*69
$GPGSV,4,3,14,21,35,171,45,09,31,272,35,07,21,320,27,196,21,174,16,1*57
$GPGSV,4,4,14,26,19,080,23,31,,,22,1*56
$GPGSV,2,1,07,08,72,288,45,194,63,045,36,195,56,125,39,27,54,025,42,8*6D
$GPGSV,2,2,07,04,36,220,35,09,31,272,30,26,19,080,31,8*54
$GLGSV,2,1,05,88,72,094,41,78,43,359,28,77,34,080,16,87,26,032,25,1*7B
$GLGSV,2,2,05,79,09,316,18,1*47
$GAGSV,2,1,06,21,50,343,11,13,48,114,37,19,38,262,26,27,35,058,28,7*7F
$GAGSV,2,2,06,15,24,053,28,26,24,176,21,7*7A
$GAGSV,2,1,05,21,50,343,26,13,48,114,40,19,38,262,29,27,35,058,30,1*78
$GAGSV,2,2,05,15,24,053,32,1*45
$GBGSV,4,1,14,06,84,234,42,16,81,186,43,43,76,077,42,09,74,308,43,1*7F
$GBGSV,4,2,14,39,70,172,42,40,67,312,44,07,63,290,41,23,58,351,39,1*72
$GBGSV,4,3,14,10,52,273,38,11,52,049,39,25,49,090,32,28,35,206,33,1*75
$GBGSV,4,4,14,34,29,042,37,38,03,172,,1*71
$GBGSV,2,1,07,43,76,077,41,39,70,172,44,40,67,312,41,23,58,351,41,4*73
$GBGSV,2,2,07,25,49,090,35,28,35,206,23,34,29,042,35,4*44
$GNACCURACY,4.1*13
$PAIRSAT,1,21,4,0,21,7,0,1,8,0,21,9,0,21,14,0,200,15,0,200,16,0,201,17,0,200,18,0,200,19,0,200,20,0,200,21,0,201,22,0,200,23,0,200,24,0,200,26,0,21,27,0,21,194,0,421,195,0,221,196,0,200,199,0,600*6A
$PAIRSAT,2,12,70,0,200,71,0,200,77,0,1,78,0,1,79,0,1,82,0,200,83,0,200,84,0,200,85,0,200,86,0,200,87,0,201,88,0,201*7F
$PAIRSAT,3,15,2,0,1000,3,0,1000,4,0,1000,13,0,21,15,0,21,19,0,1,21,0,221,25,0,1200,26,0,1200,27,0,1221,30,0,1200,31,0,1200,33,0,1200,34,0,1200,36,0,200*69
$PAIRSAT,4,44,1,0,200,2,0,200,3,0,400,4,0,200,5,0,200,6,0,201,7,0,201,8,0,200,9,0,201,10,0,201,11,0,201,12,0,200,16,0,1,19,0,400,20,0,400,21,0,400,22,0,400,23,0,421,24,0,600,25,0,621,26,0,600,27,0,400,28,0,621,29,0,600,30,0,600,32,0,400,33,0,400,34,0,421,35,0,400,36,0,400,37,0,400,38,0,400,39,0,421,40,0,421,41,0,400,42,0,400,43,0,421,44,0,400,45,0,400,46,0,400,59,0,400,60,0,400,61,0,400,62,0,400*4D
$PAIRDGP,0*45
$GNGGA,031753.100,2500.7792047,N,12132.4624626,E,4,51,0.58,16.730,M,15.25,M,1,3335*41
$GNRMC,031753.100,A,2500.7792047,N,12132.4624626,E,0.02,269.03,090324,,,R,V*11
$GPHDT,,T*1B
$GNACCURACY,4.1*13
$GNGGA,031753.200,2500.7792065,N,12132.4624603,E,4,50,0.58,16.706,M,15.25,M,1,3335*41
$GNRMC,031753.200,A,2500.7792065,N,12132.4624603,E,0.02,269.03,090324,,,R,V*15
$GPHDT,225.189,T*30
$GNACCURACY,4.1*13
$GNGGA,031753.300,2500.7792052,N,12132.4624621,E,4,50,0.58,16.707,M,15.25,M,1,3335*45
$GNRMC,031753.300,A,2500.7792052,N,12132.4624621,E,0.02,269.03,090324,,,R,V*10
$GPHDT,,T*1B
$GNACCURACY,4.0*12
$GNGGA,031753.400,2500.7792082,N,12132.4624638,E,4,49,0.58,16.719,M,15.25,M,1,3335*40
$GNRMC,031753.400,A,2500.7792082,N,12132.4624638,E,0.02,269.03,090324,,,R,V*12
$GPHDT,225.781,T*3E
$GNACCURACY,4.1*13
$GNGGA,031753.500,2500.7792055,N,12132.4624602,E,4,50,0.58,16.719,M,15.25,M,0,3335*4B
$GNRMC,031753.500,A,2500.7792055,N,12132.4624602,E,0.02,269.03,090324,,,R,V*10
$GPHDT,,T*1B
$GNACCURACY,4.1*13
$GNGGA,031753.600,2500.7792076,N,12132.4624598,E,4,50,0.58,16.691,M,15.25,M,0,3335*48
$GNRMC,031753.600,A,2500.7792076,N,12132.4624598,E,0.02,269.03,090324,,,R,V*12
$GPHDT,225.880,T*30
$GNACCURACY,4.1*13
$GNGGA,031753.700,2500.7792046,N,12132.4624609,E,4,49,0.58,16.725,M,15.25,M,0,3335*47
$GNRMC,031753.700,A,2500.7792046,N,12132.4624609,E,0.02,269.03,090324,,,R,V*1B
$GPHDT,,T*1B
$GNACCURACY,4.1*13
$GNGGA,031753.800,2500.7792083,N,12132.4624645,E,4,49,0.58,16.708,M,15.25,M,0,3335*46
$GNRMC,031753.800,A,2500.7792083,N,12132.4624645,E,0.02,269.03,090324,,,R,V*15
$GPHDT,226.342,T*36
$GNACCURACY,4.1*13
$GNGGA,031753.900,2500.7792056,N,12132.4624609,E,4,49,0.58,16.715,M,15.25,M,0,3335*4B
$GNRMC,031753.900,A,2500.7792056,N,12132.4624609,E,0.02,269.03,090324,,,R,V*14
$GPHDT,,T*1B
$GNACCURACY,4.1*13
$GNGGA,031754.000,2500.7792069,N,12132.4624637,E,4,49,0.58,16.717,M,15.25,M,1,3335*47
$GNRMC,031754.000,A,2500.7792069,N,12132.4624637,E,0.02,269.03,090324,,,R,V*1B
$GPHDT,225.346,T*31
$GNGSA,A,3,08,194,195,27,16,04,21,09,07,26,,,1.09,0.58,0.92,1*09
$GNGSA,A,3,88,78,77,87,,,,,,,,,1.09,0.58,0.92,2*0C
$GNGSA,A,3,13,19,27,15,21,,,,,,,,1.09,0.58,0.92,3*05
$GNGSA,A,3,06,16,43,09,39,40,07,23,11,10,25,28,1.09,0.58,0.92,4*01
$GNGSA,A,3,34,,,,,,,,,,,,1.09,0.58,0.92,4*0D
$GPGSV,4,1,14,08,72,288,44,199,66,163,14,194,63,045,40,195,56,125,39,1*55
$GPGSV,4,2,14,27,54,025,45,45,47,231,27,16,37,050,38,04,36,220,34,1*69
$GPGSV,4,3,14,21,35,171,45,09,31,272,33,07,21,320,27,196,21,174,16,1*51
$GPGSV,4,4,14,26,19,080,22,31,,,23,1*56
$GPGSV,2,1,07,08,72,288,45,194,63,045,37,195,56,125,40,27,54,025,42,8*62
$GPGSV,2,2,07,04,36,220,36,09,31,272,32,26,19,080,33,8*57
$GLGSV,2,1,05,88,72,094,40,78,43,359,30,77,34,080,16,87,26,032,25,1*73
$GLGSV,2,2,05,79,09,316,18,1*47
$GAGSV,2,1,07,21,50,343,,13,48,114,37,19,38,262,27,27,35,058,28,7*7F
$GAGSV,2,2,07,26,24,176,21,15,24,053,28,04,08,315,,7*40
$GAGSV,2,1,05,21,50,343,27,13,48,114,39,19,38,262,31,27,35,058,30,1*7E
$GAGSV,2,2,05,15,24,053,33,1*44
$GBGSV,4,1,16,06,84,234,42,16,81,186,43,43,76,077,42,09,74,308,43,1*7D
$GBGSV,4,2,16,39,70,172,42,40,67,312,44,07,63,290,41,23,58,351,39,1*70
$GBGSV,4,3,16,11,52,049,39,10,52,273,38,25,49,090,33,28,35,206,33,1*76
$GBGSV,4,4,16,34,29,042,37,38,03,172,,12,02,036,,24,02,116,,1*75
$GBGSV,2,1,07,43,76,077,41,39,70,172,44,40,67,312,42,23,58,351,42,4*73
$GBGSV,2,2,07,25,49,090,37,28,35,206,26,34,29,042,35,4*43
$GNACCURACY,4.1*13
$PAIRSAT,1,21,4,0,21,7,0,1,8,0,21,9,0,21,14,0,200,15,0,200,16,0,201,17,0,200,18,0,200,19,0,200,20,0,200,21,0,201,22,0,200,23,0,200,24,0,200,26,0,21,27,0,21,194,0,421,195,0,221,196,0,200,199,0,600*6A
$PAIRSAT,2,12,70,0,200,71,0,200,77,0,1,78,0,1,79,0,1,82,0,200,83,0,200,84,0,200,85,0,200,86,0,200,87,0,201,88,0,201*7F
$PAIRSAT,3,15,2,0,1000,3,0,1000,4,0,1000,13,0,21,15,0,21,19,0,1,21,0,221,25,0,1200,26,0,1200,27,0,1221,30,0,1200,31,0,1200,33,0,1200,34,0,1200,36,0,200*69
$PAIRSAT,4,44,1,0,200,2,0,200,3,0,400,4,0,200,5,0,200,6,0,201,7,0,201,8,0,200,9,0,201,10,0,201,11,0,201,12,0,200,16,0,1,19,0,400,20,0,400,21,0,400,22,0,400,23,0,421,24,0,600,25,0,621,26,0,600,27,0,400,28,0,621,29,0,600,30,0,600,32,0,400,33,0,400,34,0,421,35,0,400,36,0,400,37,0,400,38,0,400,39,0,421,40,0,421,41,0,400,42,0,400,43,0,421,44,0,400,45,0,400,46,0,400,59,0,400,60,0,400,61,0,400,62,0,400*4D
$PAIRDGP,0*45
$GNGGA,031754.100,2500.7792048,N,12132.4624621,E,4,50,0.58,16.715,M,15.25,M,1,3335*48
$GNRMC,031754.100,A,2500.7792048,N,12132.4624621,E,0.02,269.03,090324,,,R,V*1E
$GPHDT,,T*1B
$GNACCURACY,4.1*13
$GNGGA,031754.200,2500.7792052,N,12132.4624573,E,4,50,0.58,16.697,M,15.25,M,1,3335*4F
$GNRMC,031754.200,A,2500.7792052,N,12132.4624573,E,0.02,269.03,090324,,,R,V*12
$GPHDT,225.459,T*38
$GNACCURACY,4.1*13
$GNGGA,031754.300,2500.7792038,N,12132.4624618,E,4,49,0.58,16.705,M,15.25,M,1,3335*4E
$GNRMC,031754.300,A,2500.7792038,N,12132.4624618,E,0.02,269.03,090324,,,R,V*11
$GPHDT,,T*1B
$GNACCURACY,4.1*13
$GNGGA,031754.400,2500.7792035,N,12132.4624570,E,4,49,0.58,16.708,M,15.25,M,1,3335*44
$GNRMC,031754.400,A,2500.7792035,N,12132.4624570,E,0.02,269.03,090324,,,R,V*16
$GPHDT,226.040,T*37
$GNACCURACY,4.1*13
$GNGGA,031754.500,2500.7792053,N,12132.4624600,E,4,49,0.58,16.697,M,15.25,M,1,3335*46
$GNRMC,031754.500,A,2500.7792053,N,12132.4624600,E,0.02,269.03,090324,,,R,V*13
$GPHDT,,T*1B
$GNACCURACY,4.1*13
$GNGGA,031754.600,2500.7792074,N,12132.4624619,E,4,50,0.58,16.716,M,15.25,M,1,3335*48
$GNRMC,031754.600,A,2500.7792074,N,12132.4624619,E,0.02,269.03,090324,,,R,V*1D
$GPHDT,226.143,T*35
$GNACCURACY,4.1*13
$GNGGA,031754.700,2500.7792063,N,12132.4624627,E,4,50,0.58,16.714,M,15.25,M,1,3335*40
$GNRMC,031754.700,A,2500.7792063,N,12132.4624627,E,0.02,269.03,090324,,,R,V*17
$GPHDT,,T*1B
$GNACCURACY,4.1*13
$GNGGA,031754.800,2500.7792082,N,12132.4624607,E,4,50,0.58,16.714,M,15.25,M,0,3335*43
$GNRMC,031754.800,A,2500.7792082,N,12132.4624607,E,0.05,269.03,090324,,,R,V*12
$GPHDT,225.562,T*31
$GNACCURACY,4.1*13
$GNGGA,031754.900,2500.7792083,N,12132.4624598,E,4,50,0.58,16.699,M,15.25,M,0,3335*42
$GNRMC,031754.900,A,2500.7792083,N,12132.4624598,E,0.10,269.03,090324,,,R,V*13
$GPHDT,,T*1B
$GNACCURACY,4.1*13
$GNGGA,031755.000,2500.7792068,N,12132.4624616,E,4,50,0.58,16.711,M,15.25,M,1,3335*4A
$GNRMC,031755.000,A,2500.7792068,N,12132.4624616,E,0.10,269.03,090324,,,R,V*1B
$GPHDT,225.598,T*34
$GNGSA,A,3,08,194,195,27,16,04,21,09,07,26,,,1.09,0.58,0.92,1*09
$GNGSA,A,3,88,78,77,87,,,,,,,,,1.09,0.58,0.92,2*0C
$GNGSA,A,3,13,19,27,15,21,,,,,,,,1.09,0.58,0.92,3*05
$GNGSA,A,3,06,16,43,09,39,40,07,23,10,11,25,28,1.09,0.58,0.92,4*01
$GNGSA,A,3,34,,,,,,,,,,,,1.09,0.58,0.92,4*0D
$GPGSV,4,1,14,08,72,288,44,199,66,163,15,194,63,045,40,195,56,125,39,1*54
$GPGSV,4,2,14,27,54,025,45,45,47,231,28,16,37,050,38,04,36,220,34,1*66
$GPGSV,4,3,14,21,35,171,45,09,31,272,31,07,21,320,27,196,21,174,14,1*51
$GPGSV,4,4,14,26,19,080,22,31,,,23,1*56
$GPGSV,2,1,07,08,72,288,45,194,63,045,37,195,56,125,40,27,54,025,42,8*62
$GPGSV,2,2,07,04,36,220,36,09,31,272,31,26,19,080,32,8*55
$GLGSV,2,1,05,88,72,094,40,78,43,359,30,77,34,080,14,87,26,032,24,1*70
$GLGSV,2,2,05,79,09,316,18,1*47
$GAGSV,2,1,07,21,50,343,,13,48,114,37,19,38,262,27,27,35,058,31,7*77
$GAGSV,2,2,07,26,24,176,20,15,24,053,26,04,08,315,,7*4F
$GAGSV,2,1,05,21,50,343,26,13,48,114,40,19,38,262,31,27,35,058,31,1*70
$GAGSV,2,2,05,15,24,053,33,1*44
$GBGSV,4,1,14,06,84,234,42,16,81,186,43,43,76,077,42,09,74,308,43,1*7F
$GBGSV,4,2,14,39,70,172,42,40,67,312,44,07,63,290,41,23,58,351,39,1*72
$GBGSV,4,3,14,10,52,273,38,11,52,049,39,25,49,090,33,28,35,206,33,1*74
$GBGSV,4,4,14,34,29,042,38,38,03,172,,1*7E
$GBGSV,2,1,07,43,76,077,41,39,70,172,44,40,67,312,42,23,58,351,42,4*73
$GBGSV,2,2,07,25,49,090,36,28,35,206,25,34,29,042,36,4*42
$GNACCURACY,4.1*13
$PAIRSAT,1,21,4,0,21,7,0,1,8,0,21,9,0,21,14,0,200,15,0,200,16,0,201,17,0,200,18,0,200,19,0,200,20,0,200,21,0,201,22,0,200,23,0,200,24,0,200,26,0,21,27,0,21,194,0,421,195,0,221,196,0,200,199,0,600*6A
$PAIRSAT,2,12,70,0,200,71,0,200,77,0,1,78,0,1,79,0,1,82,0,200,83,0,200,84,0,200,85,0,200,86,0,200,87,0,201,88,0,201*7F
$PAIRSAT,3,15,2,0,1000,3,0,1000,4,0,1000,13,0,21,15,0,21,19,0,1,21,0,221,25,0,1200,26,0,1200,27,0,1221,30,0,1200,31,0,1200,33,0,1200,34,0,1200,36,0,200*69
$PAIRSAT,4,44,1,0,200,2,0,200,3,0,400,4,0,200,5,0,200,6,0,201,7,0,201,8,0,200,9,0,201,10,0,201,11,0,201,12,0,200,16,0,1,19,0,400,20,0,400,21,0,400,22,0,400,23,0,421,24,0,600,25,0,621,26,0,600,27,0,400,28,0,621,29,0,600,30,0,600,32,0,400,33,0,400,34,0,421,35,0,400,36,0,400,37,0,400,38,0,400,39,0,421,40,0,421,41,0,400,42,0,400,43,0,421,44,0,400,45,0,400,46,0,400,59,0,400,60,0,400,61,0,400,62,0,400*4D
$PAIRDGP,0*45
$GNGGA,031755.100,2500.7792077,N,12132.4624609,E,4,50,0.58,16.711,M,15.25,M,1,3335*4B
$GNRMC,031755.100,A,2500.7792077,N,12132.4624609,E,0.05,269.03,090324,,,R,V*1E
$GPHDT,,T*1B
$GNACCURACY,4.1*13
$GNGGA,031755.200,2500.7792078,N,12132.4624602,E,4,49,0.58,16.710,M,15.25,M,1,3335*45
$GNRMC,031755.200,A,2500.7792078,N,12132.4624602,E,0.07,269.03,090324,,,R,V*1B
$GPHDT,225.406,T*32
$GNACCURACY,4.1*13
$GNGGA,031755.300,2500.7792091,N,12132.4624602,E,4,49,0.58,16.709,M,15.25,M,1,3335*4B
$GNRMC,031755.300,A,2500.7792091,N,12132.4624602,E,0.06,269.03,090324,,,R,V*1C
$GPHDT,,T*1B
$GNACCURACY,4.1*13
$GNGGA,031755.400,2500.7792056,N,12132.4624615,E,4,49,0.58,16.716,M,15.25,M,1,3335*4F
$GNRMC,031755.400,A,2500.7792056,N,12132.4624615,E,0.04,269.03,090324,,,R,V*14
$GPHDT,226.016,T*34
$GNACCURACY,4.1*13
$GNGGA,031755.500,2500.7792104,N,12132.4624549,E,4,49,0.58,16.700,M,15.25,M,1,3335*45
$GNRMC,031755.500,A,2500.7792104,N,12132.4624549,E,0.03,269.03,090324,,,R,V*1E
$GPHDT,,T*1B
$GNACCURACY,4.1*13
$GNGGA,031755.600,2500.7792063,N,12132.4624644,E,4,49,0.58,16.721,M,15.25,M,0,3335*4A
$GNRMC,031755.600,A,2500.7792063,N,12132.4624644,E,0.04,269.03,090324,,,R,V*14
$GPHDT,225.581,T*3C
$GNACCURACY,4.1*13
$GNGGA,031755.700,2500.7792072,N,12132.4624610,E,4,49,0.58,16.716,M,15.25,M,0,3335*4E
$GNRMC,031755.700,A,2500.7792072,N,12132.4624610,E,0.04,269.03,090324,,,R,V*14
$GPHDT,,T*1B
$GNACCURACY,4.1*13
$GNGGA,031755.800,2500.7792081,N,12132.4624603,E,4,49,0.58,16.704,M,15.25,M,0,3335*4C
$GNRMC,031755.800,A,2500.7792081,N,12132.4624603,E,0.03,269.03,090324,,,R,V*12
$GPHDT,225.304,T*37
$GNACCURACY,4.1*13
$GNGGA,031755.900,2500.7792091,N,12132.4624640,E,4,49,0.58,16.707,M,15.25,M,0,3335*48
$GNRMC,031755.900,A,2500.7792091,N,12132.4624640,E,0.09,269.03,090324,,,R,V*1F
$GPHDT,,T*1B
$GNACCURACY,4.1*13
$GNGGA,031756.000,2500.7792087,N,12132.4624610,E,4,49,0.58,16.709,M,15.25,M,1,3335*4F
$GNRMC,031756.000,A,2500.7792087,N,12132.4624610,E,0.09,269.03,090324,,,R,V*17
$GPHDT,225.383,T*38
$GNGSA,A,3,08,194,195,27,16,04,21,09,07,26,,,1.09,0.59,0.92,1*08
$GNGSA,A,3,88,78,87,,,,,,,,,,1.09,0.59,0.92,2*0D
$GNGSA,A,3,13,19,27,15,21,,,,,,,,1.09,0.59,0.92,3*04
$GNGSA,A,3,06,16,43,09,39,40,07,23,10,11,25,28,1.09,0.59,0.92,4*00
$GNGSA,A,3,34,,,,,,,,,,,,1.09,0.59,0.92,4*0C
$GPGSV,4,1,14,08,72,288,44,199,66,163,15,194,63,045,40,195,56,125,39,1*54
$GPGSV,4,2,14,27,54,025,46,45,47,231,28,16,37,050,38,04,36,220,34,1*65
$GPGSV,4,3,14,21,35,171,45,09,31,272,30,07,21,320,28,196,21,174,11,1*5A
$GPGSV,4,4,14,26,19,080,17,31,,,24,1*57
$GPGSV,2,1,07,08,72,288,45,194,63,045,38,195,56,125,40,27,54,025,43,8*6C
$GPGSV,2,2,07,04,36,220,36,09,31,272,35,26,19,080,33,8*50
$GLGSV,2,1,05,88,72,094,41,78,43,359,31,77,34,080,14,87,26,032,26,1*72
$GLGSV,2,2,05,79,09,316,21,1*4D
$GAGSV,2,1,07,21,50,343,,13,48,114,38,19,38,262,28,27,35,058,32,7*74
$GAGSV,2,2,07,26,24,176,19,15,24,053,26,04,08,315,,7*45
$GAGSV,2,1,05,21,50,343,26,13,48,114,40,19,38,262,32,27,35,058,31,1*73
$GAGSV,2,2,05,15,24,053,33,1*44
$GBGSV,4,1,14,06,84,234,41,16,81,186,43,43,76,077,42,09,74,308,43,1*7C
$GBGSV,4,2,14,39,70,172,42,40,67,312,44,07,63,290,41,23,58,351,38,1*73
$GBGSV,4,3,14,10,52,273,38,11,52,049,39,25,49,090,32,28,35,206,33,1*75
$GBGSV,4,4,14,34,29,042,39,38,03,172,,1*7F
$GBGSV,2,1,07,43,76,077,41,39,70,172,44,40,67,312,42,23,58,351,42,4*73
$GBGSV,2,2,07,25,49,090,36,28,35,206,25,34,29,042,36,4*42
$GNACCURACY,4.1*13
$PAIRSAT,1,21,4,0,21,7,0,1,8,0,21,9,0,21,14,0,200,15,0,200,16,0,201,17,0,200,18,0,200,19,0,200,20,0,200,21,0,201,22,0,200,23,0,200,24,0,200,26,0,21,27,0,21,194,0,421,195,0,221,196,0,200,199,0,600*6A
$PAIRSAT,2,12,70,0,200,71,0,200,77,0,1,78,0,1,79,0,1,82,0,200,83,0,200,84,0,200,85,0,200,86,0,200,87,0,201,88,0,201*7F
$PAIRSAT,3,15,2,0,1000,3,0,1000,4,0,1000,13,0,21,15,0,21,19,0,1,21,0,221,25,0,1200,26,0,1200,27,0,1221,30,0,1200,31,0,1200,33,0,1200,34,0,1200,36,0,200*69
$PAIRSAT,4,44,1,0,200,2,0,200,3,0,400,4,0,200,5,0,200,6,0,201,7,0,201,8,0,200,9,0,201,10,0,201,11,0,201,12,0,200,16,0,1,19,0,400,20,0,400,21,0,400,22,0,400,23,0,421,24,0,600,25,0,621,26,0,600,27,0,400,28,0,621,29,0,600,30,0,600,32,0,400,33,0,400,34,0,421,35,0,400,36,0,400,37,0,400,38,0,400,39,0,421,40,0,421,41,0,400,42,0,400,43,0,421,44,0,400,45,0,400,46,0,400,59,0,400,60,0,400,61,0,400,62,0,400*4D
$PAIRDGP,0*45
$GNGGA,031756.100,2500.7792075,N,12132.4624602,E,4,48,0.59,16.706,M,15.25,M,1,3335*4F
$GNRMC,031756.100,A,2500.7792075,N,12132.4624602,E,0.05,269.03,090324,,,R,V*14
$GPHDT,,T*1B
$GNACCURACY,4.1*13
$GNGGA,031756.200,2500.7792047,N,12132.4624628,E,4,48,0.59,16.711,M,15.25,M,1,3335*43
$GNRMC,031756.200,A,2500.7792047,N,12132.4624628,E,0.05,269.03,090324,,,R,V*1E
$GPHDT,225.295,T*3E
$GNACCURACY,4.1*13
$GNGGA,031756.300,2500.7792067,N,12132.4624606,E,4,48,0.59,16.693,M,15.25,M,1,3335*47
$GNRMC,031756.300,A,2500.7792067,N,12132.4624606,E,0.05,269.03,090324,,,R,V*11
$GPHDT,,T*1B
$GNACCURACY,4.3*11
$GNGGA,031756.400,2500.7792053,N,12132.4624592,E,4,47,0.62,16.688,M,15.25,M,1,3335*44
$GNRMC,031756.400,A,2500.7792053,N,12132.4624592,E,0.04,269.03,090324,,,R,V*1E
$GPHDT,225.332,T*32
$GNACCURACY,4.1*13
$GNGGA,031756.500,2500.7792058,N,12132.4624602,E,4,48,0.59,16.696,M,15.25,M,1,3335*4C
$GNRMC,031756.500,A,2500.7792058,N,12132.4624602,E,0.03,269.03,090324,,,R,V*19
$GPHDT,,T*1B
$GNACCURACY,4.1*13
$GNGGA,031756.600,2500.7792077,N,12132.4624574,E,4,48,0.59,16.685,M,15.25,M,0,3335*43
$GNRMC,031756.600,A,2500.7792077,N,12132.4624574,E,0.03,269.03,090324,,,R,V*15
$GPHDT,225.421,T*37
$GNACCURACY,4.1*13
$GNGGA,031756.700,2500.7792073,N,12132.4624581,E,4,48,0.59,16.687,M,15.25,M,0,3335*4E
$GNRMC,031756.700,A,2500.7792073,N,12132.4624581,E,0.03,269.03,090324,,,R,V*1A
$GPHDT,,T*1B
$GNACCURACY,4.1*13
$GNGGA,031756.800,2500.7792063,N,12132.4624587,E,4,48,0.59,16.695,M,15.25,M,0,3335*45
$GNRMC,031756.800,A,2500.7792063,N,12132.4624587,E,0.03,269.03,090324,,,R,V*12
$GPHDT,225.534,T*32
$GNACCURACY,4.1*13
$GNGGA,031756.900,2500.7792061,N,12132.4624607,E,4,48,0.59,16.699,M,15.25,M,0,3335*41
$GNRMC,031756.900,A,2500.7792061,N,12132.4624607,E,0.02,269.03,090324,,,R,V*1B
$GPHDT,,T*1B
$GNACCURACY,4.3*11
$GNGGA,031757.000,2500.7792048,N,12132.4624577,E,4,47,0.62,16.692,M,15.25,M,1,3335*4B
$GNRMC,031757.000,A,2500.7792048,N,12132.4624577,E,0.02,269.03,090324,,,R,V*1C
$GPHDT,225.720,T*35
$GNGSA,A,3,08,194,195,27,16,04,21,09,07,26,,,1.09,0.59,0.92,1*08
$GNGSA,A,3,88,78,87,,,,,,,,,,1.09,0.59,0.92,2*0D
$GNGSA,A,3,13,19,27,15,21,,,,,,,,1.09,0.59,0.92,3*04
$GNGSA,A,3,06,16,43,09,39,40,07,23,10,11,25,28,1.09,0.59,0.92,4*00
$GNGSA,A,3,34,,,,,,,,,,,,1.09,0.59,0.92,4*0C
$GPGSV,4,1,14,08,72,288,44,199,66,163,15,194,63,045,41,195,56,125,39,1*55
$GPGSV,4,2,14,27,54,025,47,45,47,231,29,16,37,050,38,04,35,220,34,1*66
$GPGSV,4,3,14,21,35,171,45,09,31,272,33,07,21,320,28,196,21,174,15,1*5D
$GPGSV,4,4,14,26,19,080,17,31,,,24,1*57
$GPGSV,2,1,07,08,72,288,45,194,63,045,39,195,56,125,41,27,54,025,44,8*6B
$GPGSV,2,2,07,04,35,220,34,09,31,272,36,26,19,080,31,8*50
$GLGSV,2,1,05,88,72,094,42,78,43,359,32,77,34,080,15,87,26,032,26,1*73
$GLGSV,2,2,05,79,09,316,21,1*4D
$GAGSV,2,1,07,21,50,343,,13,48,114,38,19,38,262,29,27,35,058,33,7*74
$GAGSV,2,2,07,26,24,176,20,15,24,053,21,04,08,315,,7*48
$GAGSV,2,1,05,21,50,343,26,13,48,114,40,19,38,262,32,27,35,058,32,1*70
$GAGSV,2,2,05,15,24,053,33,1*44
$GBGSV,4,1,14,06,84,234,41,16,81,186,43,43,76,077,42,09,74,308,43,1*7C
$GBGSV,4,2,14,39,70,172,42,40,67,312,44,07,63,290,41,23,58,351,36,1*7D
$GBGSV,4,3,14,10,52,273,38,11,52,049,39,25,49,090,32,28,35,206,33,1*75
$GBGSV,4,4,14,34,29,042,41,37,14,312,,1*7D
$GBGSV,2,1,07,43,76,077,42,39,70,172,44,40,67,312,42,23,58,351,42,4*70
$GBGSV,2,2,07,25,49,090,36,28,35,206,25,34,29,042,38,4*4C
$GNACCURACY,4.1*13
$PAIRSAT,1,21,4,0,21,7,0,1,8,0,21,9,0,21,14,0,200,15,0,200,16,0,201,17,0,200,18,0,200,19,0,200,20,0,200,21,0,201,22,0,200,23,0,200,24,0,200,26,0,21,27,0,21,194,0,421,195,0,221,196,0,200,199,0,600*6A
$PAIRSAT,2,12,70,0,200,71,0,200,77,0,1,78,0,1,79,0,1,82,0,200,83,0,200,84,0,200,85,0,200,86,0,200,87,0,201,88,0,201*7F
$PAIRSAT,3,15,2,0,1000,3,0,1000,4,0,1000,13,0,21,15,0,21,19,0,1,21,0,221,25,0,1200,26,0,1200,27,0,1221,30,0,1200,31,0,1200,33,0,1200,34,0,1200,36,0,200*69
$PAIRSAT,4,44,1,0,200,2,0,200,3,0,400,4,0,200,5,0,200,6,0,201,7,0,201,8,0,200,9,0,201,10,0,201,11,0,201,12,0,200,16,0,1,19,0,400,20,0,400,21,0,400,22,0,400,23,0,421,24,0,600,25,0,621,26,0,600,27,0,400,28,0,621,29,0,600,30,0,600,32,0,600,33,0,400,34,0,421,35,0,400,36,0,400,37,0,400,38,0,400,39,0,421,40,0,421,41,0,400,42,0,400,43,0,421,44,0,400,45,0,400,46,0,400,59,0,400,60,0,400,61,0,400,62,0,400*4F
$PAIRDGP,0*45
$GNGGA,031757.100,2500.7792048,N,12132.4624617,E,4,48,0.59,16.704,M,15.25,M,1,3335*46
$GNRMC,031757.100,A,2500.7792048,N,12132.4624617,E,0.02,269.03,090324,,,R,V*18
$GPHDT,,T*1B
$GNACCURACY,4.1*13
$GNGGA,031757.200,2500.7792074,N,12132.4624587,E,4,48,0.59,16.694,M,15.25,M,1,3335*48
$GNRMC,031757.200,A,2500.7792074,N,12132.4624587,E,0.02,269.03,090324,,,R,V*1E
$GPHDT,225.379,T*3D
$GNACCURACY,4.1*13
$GNGGA,031757.300,2500.7792101,N,12132.4624570,E,4,48,0.59,16.674,M,15.25,M,1,3335*4C
$GNRMC,031757.300,A,2500.7792101,N,12132.4624570,E,0.01,269.03,090324,,,R,V*17
$GPHDT,,T*1B
$GNACCURACY,4.1*13
$GNGGA,031757.400,2500.7792103,N,12132.4624558,E,4,48,0.59,16.682,M,15.25,M,1,3335*4A
$GNRMC,031757.400,A,2500.7792103,N,12132.4624558,E,0.02,269.03,090324,,,R,V*1B
$GPHDT,225.336,T*36
$GNACCURACY,4.2*10
$GNGGA,031757.500,2500.7792069,N,12132.4624597,E,4,48,0.59,16.686,M,15.25,M,1,3335*41
$GNRMC,031757.500,A,2500.7792069,N,12132.4624597,E,0.01,269.03,090324,,,R,V*17
$GPHDT,,T*1B
$GNACCURACY,4.1*13
$GNGGA,031757.600,2500.7792063,N,12132.4624600,E,4,48,0.59,16.688,M,15.25,M,1,3335*4B
$GNRMC,031757.600,A,2500.7792063,N,12132.4624600,E,0.01,269.03,090324,,,R,V*13
$GPHDT,225.518,T*3C
$GNACCURACY,4.1*13
$GNGGA,031757.700,2500.7792128,N,12132.4624567,E,4,48,0.59,16.679,M,15.25,M,0,3335*49
$GNRMC,031757.700,A,2500.7792128,N,12132.4624567,E,0.01,269.03,090324,,,R,V*1E
$GPHDT,,T*1B
$GNACCURACY,4.1*13
$GNGGA,031757.800,2500.7792123,N,12132.4624554,E,4,48,0.59,16.682,M,15.25,M,0,3335*49
$GNRMC,031757.800,A,2500.7792123,N,12132.4624554,E,0.05,269.03,090324,,,R,V*1E
$GPHDT,225.178,T*3E
$GNACCURACY,4.4*16
$GNGGA,031757.900,2500.7792129,N,12132.4624581,E,4,47,0.62,16.686,M,15.25,M,0,3335*49
$GNRMC,031757.900,A,2500.7792129,N,12132.4624581,E,0.04,269.03,090324,,,R,V*1C
$GPHDT,,T*1B
$GNACCURACY,4.2*10
$GNGGA,031758.000,2500.7792123,N,12132.4624559,E,4,48,0.59,16.677,M,15.25,M,1,3335*48
$GNRMC,031758.000,A,2500.7792123,N,12132.4624559,E,0.04,269.03,090324,,,R,V*15
$GPHDT,225.408,T*3C
$GNGSA,A,3,08,194,195,27,16,04,21,09,07,26,,,1.09,0.59,0.92,1*08
$GNGSA,A,3,88,78,87,,,,,,,,,,1.09,0.59,0.92,2*0D
$GNGSA,A,3,13,19,27,15,21,,,,,,,,1.09,0.59,0.92,3*04
$GNGSA,A,3,06,16,43,09,39,40,07,23,11,10,25,28,1.09,0.59,0.92,4*00
$GNGSA,A,3,34,,,,,,,,,,,,1.09,0.59,0.92,4*0C
$GPGSV,4,1,14,08,72,289,44,199,66,163,15,194,63,045,41,195,56,125,39,1*54
$GPGSV,4,2,14,27,54,025,47,45,47,231,31,16,37,050,38,04,35,220,34,1*6F
$GPGSV,4,3,14,21,35,171,45,09,31,272,34,07,22,320,29,196,21,174,18,1*55
$GPGSV,4,4,14,26,19,080,19,31,,,25,1*58
$GPGSV,2,1,07,08,72,289,45,194,63,045,39,195,56,125,41,27,54,025,44,8*6A
$GPGSV,2,2,07,04,35,220,34,09,31,272,36,26,19,080,30,8*51
$GLGSV,2,1,05,88,72,094,42,78,43,359,32,77,34,080,15,87,26,032,28,1*7D
$GLGSV,2,2,05,79,09,316,22,1*4E
$GAGSV,2,1,07,21,50,343,,13,48,114,38,19,38,262,29,27,35,058,34,7*73
$GAGSV,2,2,07,26,24,176,21,15,24,053,20,04,08,315,,7*48
$GAGSV,2,1,05,21,50,343,25,13,48,114,40,19,38,262,32,27,35,058,32,1*73
$GAGSV,2,2,05,15,24,053,33,1*44
$GBGSV,4,1,13,06,84,234,41,16,81,186,43,43,76,077,42,09,74,308,43,1*7B
$GBGSV,4,2,13,39,70,172,42,40,67,312,44,07,63,290,41,23,58,351,34,1*78
$GBGSV,4,3,13,11,52,049,39,10,52,273,37,25,49,090,34,28,35,206,33,1*7B
$GBGSV,4,4,13,34,29,042,41,1*4B
$GBGSV,2,1,07,43,76,077,42,39,70,172,44,40,67,312,42,23,58,351,41,4*73
$GBGSV,2,2,07,25,49,090,34,28,35,206,25,34,29,042,38,4*4E
$GNACCURACY,4.2*10
$PAIRSAT,1,21,4,0,21,7,0,1,8,0,21,9,0,21,14,0,200,15,0,200,16,0,201,17,0,200,18,0,200,19,0,200,20,0,200,21,0,201,22,0,200,23,0,200,24,0,200,26,0,21,27,0,21,194,0,421,195,0,221,196,0,200,199,0,600*6A
$PAIRSAT,2,12,70,0,200,71,0,200,77,0,1,78,0,1,79,0,1,82,0,200,83,0,200,84,0,200,85,0,200,86,0,200,87,0,201,88,0,201*7F
$PAIRSAT,3,15,2,0,1000,3,0,1000,4,0,1000,13,0,21,15,0,21,19,0,1,21,0,221,25,0,1200,26,0,1200,27,0,1221,30,0,1200,31,0,1200,33,0,1200,34,0,1200,36,0,200*69
$PAIRSAT,4,44,1,0,200,2,0,200,3,0,400,4,0,200,5,0,200,6,0,201,7,0,201,8,0,200,9,0,201,10,0,201,11,0,201,12,0,200,16,0,1,19,0,400,20,0,400,21,0,400,22,0,400,23,0,421,24,0,600,25,0,621,26,0,600,27,0,400,28,0,621,29,0,600,30,0,600,32,0,600,33,0,400,34,0,421,35,0,400,36,0,400,37,0,400,38,0,400,39,0,421,40,0,421,41,0,400,42,0,400,43,0,421,44,0,400,45,0,400,46,0,400,59,0,400,60,0,400,61,0,400,62,0,400*4F
$PAIRDGP,0*45
$GNGGA,031758.100,2500.7792122,N,12132.4624547,E,4,48,0.59,16.679,M,15.25,M,1,3335*49
$GNRMC,031758.100,A,2500.7792122,N,12132.4624547,E,0.03,269.03,090324,,,R,V*1D
$GPHDT,,T*1B
$GNACCURACY,4.2*10
$GNGGA,031758.200,2500.7792131,N,12132.4624570,E,4,48,0.59,16.678,M,15.25,M,1,3335*4D
$GNRMC,031758.200,A,2500.7792131,N,12132.4624570,E,0.03,269.03,090324,,,R,V*18
$GPHDT,225.557,T*37
$GNACCURACY,4.2*10
$GNGGA,031758.300,2500.7792136,N,12132.4624569,E,4,48,0.59,16.682,M,15.25,M,1,3335*46
$GNRMC,031758.300,A,2500.7792136,N,12132.4624569,E,0.04,269.03,090324,,,R,V*11
$GPHDT,,T*1B
$GNACCURACY,4.2*10
$GNGGA,031758.400,2500.7792159,N,12132.4624533,E,4,48,0.59,16.682,M,15.25,M,1,3335*47
$GNRMC,031758.400,A,2500.7792159,N,12132.4624533,E,0.04,269.03,090324,,,R,V*10
$GPHDT,225.161,T*36
$GNACCURACY,4.2*10
$GNGGA,031758.500,2500.7792143,N,12132.4624555,E,4,48,0.59,16.683,M,15.25,M,0,3335*4D
$GNRMC,031758.500,A,2500.7792143,N,12132.4624555,E,0.03,269.03,090324,,,R,V*1D
$GPHDT,,T*1B
$GNACCURACY,4.2*10
$GNGGA,031758.600,2500.7792123,N,12132.4624587,E,4,48,0.59,16.692,M,15.25,M,0,3335*47
$GNRMC,031758.600,A,2500.7792123,N,12132.4624587,E,0.04,269.03,090324,,,R,V*10
$GPHDT,225.281,T*3B
$GNACCURACY,4.1*13
$GNGGA,031758.700,2500.7792124,N,12132.4624588,E,4,48,0.59,16.679,M,15.25,M,0,3335*4B
$GNRMC,031758.700,A,2500.7792124,N,12132.4624588,E,0.07,269.03,090324,,,R,V*1A
$GPHDT,,T*1B
$GNACCURACY,4.1*13
$GNGGA,031758.800,2500.7792089,N,12132.4624553,E,4,48,0.59,16.691,M,15.25,M,0,3335*42
$GNRMC,031758.800,A,2500.7792089,N,12132.4624553,E,0.05,269.03,090324,,,R,V*17
$GPHDT,225.190,T*38
$GNACCURACY,4.1*13
$GNGGA,031758.900,2500.7792087,N,12132.4624598,E,4,48,0.59,16.700,M,15.25,M,0,3335*43
$GNRMC,031758.900,A,2500.7792087,N,12132.4624598,E,0.07,269.03,090324,,,R,V*1D
$GPHDT,,T*1B
$GNACCURACY,4.1*13
$GNGGA,031759.000,2500.7792089,N,12132.4624586,E,4,49,0.59,16.685,M,15.25,M,1,3335*46
$GNRMC,031759.000,A,2500.7792089,N,12132.4624586,E,0.09,269.03,090324,,,R,V*1A
$GPHDT,225.892,T*33
$GNGSA,A,3,08,194,195,27,16,04,21,09,07,26,,,1.09,0.59,0.92,1*08
$GNGSA,A,3,88,78,87,,,,,,,,,,1.09,0.59,0.92,2*0D
$GNGSA,A,3,13,19,27,15,21,,,,,,,,1.09,0.59,0.92,3*04
$GNGSA,A,3,06,16,43,09,39,40,07,23,11,10,25,28,1.09,0.59,0.92,4*00
$GNGSA,A,3,34,,,,,,,,,,,,1.09,0.59,0.92,4*0C
$GPGSV,4,1,14,08,72,289,44,199,66,163,15,194,63,045,42,195,56,125,39,1*57
$GPGSV,4,2,14,27,54,025,48,45,47,231,31,16,37,050,38,04,35,220,33,1*67
$GPGSV,4,3,14,21,35,171,45,09,31,272,35,07,22,320,29,196,21,174,18,1*54
$GPGSV,4,4,14,26,19,080,22,31,,,25,1*50
$GPGSV,2,1,07,08,72,289,45,194,63,045,41,195,56,125,41,27,54,025,44,8*65
$GPGSV,2,2,07,04,35,220,34,09,31,272,35,26,19,080,31,8*53
$GLGSV,2,1,05,88,72,094,42,78,43,359,31,77,34,080,15,87,26,032,29,1*7F
$GLGSV,2,2,05,79,09,316,24,1*48
$GAGSV,2,1,07,21,50,343,,13,48,114,38,19,38,262,29,27,35,058,33,7*74
$GAGSV,2,2,07,26,24,176,22,15,24,053,21,04,08,315,,7*4A
$GAGSV,2,1,05,21,50,343,25,13,48,114,40,19,38,262,32,27,35,058,34,1*75
$GAGSV,2,2,05,15,24,053,33,1*44
$GBGSV,4,1,13,06,84,234,41,16,81,186,43,43,76,077,42,09,74,308,43,1*7B
$GBGSV,4,2,13,39,70,172,42,40,67,312,44,07,63,290,41,23,58,351,33,1*7F
$GBGSV,4,3,13,11,52,049,39,10,52,273,37,25,49,090,35,28,35,206,32,1*7B
$GBGSV,4,4,13,34,29,042,41,1*4B
$GBGSV,2,1,07,43,76,077,43,39,70,172,44,40,67,312,42,23,58,351,40,4*73
$GBGSV,2,2,07,25,49,090,33,28,35,206,25,34,29,042,38,4*49
$GNACCURACY,4.1*13
$PAIRSAT,1,21,4,0,21,7,0,1,8,0,21,9,0,21,14,0,200,15,0,200,16,0,201,17,0,200,18,0,200,19,0,200,20,0,200,21,0,201,22,0,200,23,0,200,24,0,200,26,0,21,27,0,21,194,0,421,195,0,221,196,0,200,199,0,600*6A
$PAIRSAT,2,12,70,0,200,71,0,200,77,0,1,78,0,1,79,0,1,82,0,200,83,0,200,84,0,200,85,0,200,86,0,200,87,0,201,88,0,201*7F
$PAIRSAT,3,15,2,0,1000,3,0,1000,4,0,1000,13,0,21,15,0,21,19,0,1,21,0,221,25,0,1200,26,0,1200,27,0,1221,30,0,1200,31,0,1200,33,0,1200,34,0,1200,36,0,200*69
$PAIRSAT,4,44,1,0,200,2,0,200,3,0,400,4,0,200,5,0,200,6,0,201,7,0,201,8,0,200,9,0,201,10,0,201,11,0,201,12,0,200,16,0,1,19,0,400,20,0,400,21,0,400,22,0,400,23,0,421,24,0,600,25,0,621,26,0,600,27,0,400,28,0,621,29,0,600,30,0,600,32,0,600,33,0,400,34,0,421,35,0,400,36,0,400,37,0,400,38,0,400,39,0,421,40,0,421,41,0,400,42,0,400,43,0,421,44,0,400,45,0,400,46,0,400,59,0,400,60,0,400,61,0,400,62,0,400*4F
$PAIRDGP,0*45
$GNGGA,031759.100,2500.7792142,N,12132.4624613,E,4,48,0.59,16.691,M,15.25,M,1,3335*4A
$GNRMC,031759.100,A,2500.7792142,N,12132.4624613,E,0.04,269.03,090324,,,R,V*1F
$GPHDT,,T*1B
$GNACCURACY,4.1*13
$GNGGA,031759.200,2500.7792081,N,12132.4624600,E,4,48,0.59,16.680,M,15.25,M,1,3335*45
$GNRMC,031759.200,A,2500.7792081,N,12132.4624600,E,0.04,269.03,090324,,,R,V*10
$GPHDT,225.878,T*37
$GNACCURACY,4.1*13
$GNGGA,031759.300,2500.7792100,N,12132.4624605,E,4,48,0.59,16.683,M,15.25,M,1,3335*4A
$GNRMC,031759.300,A,2500.7792100,N,12132.4624605,E,0.03,269.03,090324,,,R,V*1B
$GPHDT,,T*1B
$GNACCURACY,4.1*13
$GNGGA,031759.400,2500.7792110,N,12132.4624583,E,4,48,0.59,16.667,M,15.25,M,0,3335*4A
$GNRMC,031759.400,A,2500.7792110,N,12132.4624583,E,0.03,269.03,090324,,,R,V*10
$GPHDT,225.384,T*3F
$GNACCURACY,4.1*13
$GNGGA,031759.500,2500.7792114,N,12132.4624602,E,4,48,0.59,16.691,M,15.25,M,0,3335*4C
$GNRMC,031759.500,A,2500.7792114,N,12132.4624602,E,0.03,269.03,090324,,,R,V*1F
$GPHDT,,T*1B
$GNACCURACY,4.1*13
$GNGGA,031759.600,2500.7792114,N,12132.4624612,E,4,48,0.59,16.671,M,15.25,M,0,3335*40
$GNRMC,031759.600,A,2500.7792114,N,12132.4624612,E,0.03,269.03,090324,,,R,V*1D
$GPHDT,224.828,T*33
$GNACCURACY,4.1*13
$GNGGA,031759.700,2500.7792101,N,12132.4624646,E,4,48,0.59,16.683,M,15.25,M,0,3335*49
$GNRMC,031759.700,A,2500.7792101,N,12132.4624646,E,0.03,269.03,090324,,,R,V*19
$GPHDT,,T*1B
$GNACCURACY,4.1*13
$GNGGA,031759.800,2500.7792119,N,12132.4624634,E,4,49,0.59,16.674,M,15.25,M,0,3335*43
$GNRMC,031759.800,A,2500.7792119,N,12132.4624634,E,0.04,269.03,090324,,,R,V*1D
$GPHDT,222.273,T*31
$GNACCURACY,4.1*13
$GNGGA,031759.900,2500.7792180,N,12132.4624588,E,4,49,0.59,16.674,M,15.25,M,0,3335*46
$GNRMC,031759.900,A,2500.7792180,N,12132.4624588,E,0.04,269.03,090324,,,R,V*18
$GPHDT,,T*1B
$GNACCURACY,4.1*13
$GNGGA,031800.000,2500.7792235,N,12132.4624577,E,4,48,0.59,16.672,M,15.25,M,1,3335*47
$GNRMC,031800.000,A,2500.7792235,N,12132.4624577,E,0.06,269.03,090324,,,R,V*1D
$GPHDT,217.999,T*38
$GNGSA,A,3,08,194,195,27,16,04,21,09,07,26,,,1.09,0.59,0.92,1*08
$GNGSA,A,3,88,78,87,,,,,,,,,,1.09,0.59,0.92,2*0D
$GNGSA,A,3,13,19,27,15,21,,,,,,,,1.09,0.59,0.92,3*04
$GNGSA,A,3,06,16,43,09,39,40,07,23,11,10,25,28,1.09,0.59,0.92,4*00
$GNGSA,A,3,34,,,,,,,,,,,,1.09,0.59,0.92,4*0C
$GPGSV,4,1,14,08,72,289,46,199,66,163,14,194,63,045,43,195,56,125,38,1*54
$GPGSV,4,2,14,27,54,025,48,45,47,231,30,16,37,050,39,04,35,220,34,1*60
$GPGSV,4,3,14,21,35,171,45,09,31,272,36,07,22,320,30,196,21,174,17,1*50
$GPGSV,4,4,14,26,19,080,26,31,,,25,1*54
$GPGSV,2,1,06,08,72,289,45,194,63,045,41,195,56,125,41,27,54,025,44,8*64
$GPGSV,2,2,06,04,35,220,32,09,31,272,37,8*60
$GLGSV,2,1,05,88,72,094,42,78,43,359,31,77,34,080,15,87,26,032,30,1*77
$GLGSV,2,2,05,79,09,316,23,1*4F
$GAGSV,2,1,07,21,50,343,,13,48,114,36,19,38,262,29,27,35,058,35,7*7C
$GAGSV,2,2,07,26,24,176,22,15,24,053,26,04,08,315,,7*4D
$GAGSV,2,1,05,21,50,343,24,13,48,114,40,19,38,262,31,27,35,058,35,1*76
$GAGSV,2,2,05,15,24,053,34,1*43
$GBGSV,4,1,13,06,84,234,41,16,81,186,43,43,76,077,43,09,74,308,43,1*7A
$GBGSV,4,2,13,39,70,172,42,40,67,312,44,07,63,290,41,23,58,351,34,1*78
$GBGSV,4,3,13,11,52,049,40,10,52,273,38,25,49,090,38,28,35,206,33,1*76
$GBGSV,4,4,13,34,29,042,42,1*48
$GBGSV,2,1,07,43,76,077,43,39,70,172,44,40,67,312,41,23,58,351,40,4*70
$GBGSV,2,2,07,25,49,090,31,28,35,206,25,34,29,042,39,4*4A
$GNACCURACY,4.1*13
$PAIRSAT,1,21,4,0,21,7,0,1,8,0,21,9,0,21,14,0,200,15,0,200,16,0,201,17,0,200,18,0,200,19,0,200,20,0,200,21,0,201,22,0,200,23,0,200,24,0,200,26,0,21,27,0,21,194,0,421,195,0,221,196,0,200,199,0,600*6A
$PAIRSAT,2,12,70,0,200,71,0,200,77,0,1,78,0,1,79,0,1,82,0,200,83,0,200,84,0,200,85,0,200,86,0,200,87,0,201,88,0,201*7F
$PAIRSAT,3,15,2,0,1000,3,0,1000,4,0,1000,13,0,21,15,0,21,19,0,1,21,0,221,25,0,1200,26,0,1200,27,0,1221,30,0,1200,31,0,1200,33,0,1200,34,0,1200,36,0,200*69
$PAIRSAT,4,44,1,0,200,2,0,200,3,0,400,4,0,200,5,0,200,6,0,201,7,0,201,8,0,200,9,0,201,10,0,201,11,0,201,12,0,200,16,0,1,19,0,400,20,0,400,21,0,400,22,0,400,23,0,421,24,0,600,25,0,621,26,0,600,27,0,400,28,0,621,29,0,600,30,0,600,32,0,600,33,0,400,34,0,421,35,0,400,36,0,400,37,0,400,38,0,400,39,0,421,40,0,421,41,0,400,42,0,400,43,0,421,44,0,400,45,0,400,46,0,400,59,0,400,60,0,400,61,0,400,62,0,400*4F
$PAIRDGP,0*45
$GNGGA,031800.100,2500.7792307,N,12132.4624526,E,4,48,0.59,16.672,M,15.25,M,1,3335*42
$GNRMC,031800.100,A,2500.7792307,N,12132.4624526,E,0.09,269.03,090324,,,R,V*17
$GPHDT,,T*1B
$GNACCURACY,4.1*13
$GNGGA,031800.200,2500.7792311,N,12132.4624507,E,4,48,0.59,16.668,M,15.25,M,1,3335*4E
$GNRMC,031800.200,A,2500.7792311,N,12132.4624507,E,0.10,269.03,090324,,,R,V*18
$GPHDT,215.877,T*3B
$GNACCURACY,4.3*11
$GNGGA,031800.300,2500.7792332,N,12132.4624496,E,4,47,0.62,16.666,M,15.25,M,1,3335*4E
$GNRMC,031800.300,A,2500.7792332,N,12132.4624496,E,0.11,269.03,090324,,,R,V*10
$GPHDT,,T*1B
$GNACCURACY,4.4*16
$GNGGA,031800.400,2500.7792330,N,12132.4624458,E,4,48,0.62,16.705,M,15.25,M,1,3335*42
$GNRMC,031800.400,A,2500.7792330,N,12132.4624458,E,0.11,269.03,090324,,,R,V*17
$GPHDT,214.484,T*3A
$GNACCURACY,4.4*16
$GNGGA,031800.500,2500.7792304,N,12132.4624526,E,4,46,0.64,16.754,M,15.25,M,0,3335*41
$GNRMC,031800.500,A,2500.7792304,N,12132.4624526,E,0.12,269.03,090324,,,R,V*1A
$GPHDT,,T*1B
$GNACCURACY,4.2*10
$GNGGA,031800.600,2500.7792262,N,12132.4624625,E,4,47,0.61,16.746,M,15.25,M,0,3335*44
$GNRMC,031800.600,A,2500.7792262,N,12132.4624625,E,0.19,269.03,090324,,,R,V*13
$GPHDT,220.223,T*36
$GNACCURACY,4.2*10
$GNGGA,031800.700,2500.7792255,N,12132.4624779,E,4,47,0.61,16.797,M,15.25,M,0,3335*45
$GNRMC,031800.700,A,2500.7792255,N,12132.4624779,E,0.19,269.03,090324,,,R,V*1E
$GPHDT,,T*1B
$GNACCURACY,4.2*10
$GNGGA,031800.800,2500.7792245,N,12132.4624910,E,4,47,0.61,16.793,M,15.25,M,0,3335*4E
$GNRMC,031800.800,A,2500.7792245,N,12132.4624910,E,0.32,269.03,090324,,,R,V*18
$GPHDT,224.866,T*39
$GNACCURACY,4.2*10
$GNGGA,031800.900,2500.7792211,N,12132.4624966,E,4,46,0.61,16.778,M,15.25,M,0,3335*4B
$GNRMC,031800.900,A,2500.7792211,N,12132.4624966,E,0.30,269.03,090324,,,R,V*1B
$GPHDT,,T*1B
$GNACCURACY,4.2*10
$GNGGA,031801.000,2500.7792132,N,12132.4625100,E,4,46,0.61,16.772,M,15.25,M,1,3335*43
$GNRMC,031801.000,A,2500.7792132,N,1