$FW : RTK35X,V1.1X0314AS,Lib20210517,1*54
$Tool : LOCOSYS , GNSS Firebird , v1.0.0.19*39
$---------------------------------------------------*2D
31723.500,A,2500.7792185,N,12132.4624440,E,0.03,269.03,090324,,,R,V*1E
$GPHDT,,T*1B
$GNACCURACY,4.1*13
$GNGGA,031723.600,2500.7792201,N,12132.4624474,E,4,46,0.65,16.668,M,15.25,M,0,3335*41
$GNRMC,031723.600,A,2500.7792201,N,12132.4624474,E,0.02,269.03,090324,,,R,V*14
$GPHDT,319.391,T*35
$GNACCURACY,4.1*13
$GNGGA,031723.700,2500.7792157,N,12132.4624505,E,4,46,0.65,16.668,M,15.25,M,0,3335*47
$GNRMC,031723.700,A,2500.7792157,N,12132.4624505,E,0.03,269.03,090324,,,R,V*13
$GPHDT,,T*1B
$GNACCURACY,4.1*13
$GNGGA,031723.800,2500.7792167,N,12132.4624479,E,4,46,0.65,16.674,M,15.25,M,0,3335*4C
$GNRMC,031723.800,A,2500.7792167,N,12132.4624479,E,0.07,269.03,090324,,,R,V*11
$GPHDT,319.118,T*36
$GNACCURACY,4.1*13
$GNGGA,031723.900,2500.7792197,N,12132.4624461,E,4,46,0.65,16.665,M,15.25,M,0,3335*4B
$GNRMC,031723.900,A,2500.7792197,N,12132.4624461,E,0.02,269.03,090324,,,R,V*13
$GPHDT,,T*1B
$GNACCURACY,4.1*13
$GNGGA,031724.000,2500.7792174,N,12132.4624439,E,4,46,0.65,16.655,M,15.25,M,1,3335*47
$GNRMC,031724.000,A,2500.7792174,N,12132.4624439,E,0.00,269.03,090324,,,R,V*1F
$GPHDT,319.475,T*38
$GNGSA,A,3,08,194,195,27,16,04,21,09,26,,,,0.96,0.65,0.71,1*0A
$GNGSA,A,3,88,77,87,,,,,,,,,,0.96,0.65,0.71,2*07
$GNGSA,A,3,21,13,27,15,,,,,,,,,0.96,0.65,0.71,3*09
$GNGSA,A,3,06,16,43,09,39,40,07,23,11,10,25,28,0.96,0.65,0.71,4*05
$GNGSA,A,3,34,,,,,,,,,,,,0.96,0.65,0.71,4*09
$GPGSV,4,1,14,08,72,287,42,199,66,163,,194,63,045,42,195,56,125,37,1*55
$GPGSV,4,2,14,27,55,025,48,45,47,231,33,16,37,050,45,04,36,220,37,1*69
$GPGSV,4,3,14,21,34,171,31,09,31,273,35,196,22,174,18,07,21,320,,1*5C
$GPGSV,4,4,14,26,19,079,38,31,,,20,1*58
$GPGSV,2,1,07,08,72,287,45,194,63,045,43,195,56,125,37,27,55,025,44,8*69
$GPGSV,2,2,07,04,36,220,34,09,31,273,37,26,19,079,42,8*51
$GLGSV,2,1,05,88,72,095,44,78,43,359,17,77,34,080,28,87,26,032,31,1*7B
$GLGSV,2,2,05,79,09,316,15,1*4A
$GAGSV,2,1,07,21,50,343,26,13,47,114,31,27,35,058,41,15,24,053,37,7*7D
$GAGSV,2,2,07,26,24,176,13,04,08,316,,19,,,35,7*72
$GAGSV,2,1,05,21,50,343,19,13,47,114,35,27,35,058,40,15,24,053,39,1*7E
$GAGSV,2,2,05,19,,,37,1*7C
$GBGSV,4,1,14,06,84,235,41,16,81,186,41,43,76,078,45,09,74,309,41,1*74
$GBGSV,4,2,14,39,70,172,41,40,67,311,43,07,63,290,38,23,58,351,36,1*74
$GBGSV,4,3,14,11,52,050,44,10,52,273,39,25,49,090,42,28,35,206,32,1*70
$GBGSV,4,4,14,34,29,042,46,37,14,312,,1*7A
$GBGSV,2,1,06,43,76,078,45,39,70,172,40,40,67,311,41,23,58,351,37,4*7F
$GBGSV,2,2,06,25,49,090,42,34,29,042,41,4*7F
$GNACCURACY,4.1*13
$PAIRSAT,1,21,4,0,21,7,0,1,8,0,21,9,0,21,14,0,200,15,0,200,16,0,201,17,0,200,18,0,200,19,0,200,20,0,200,21,0,201,22,0,200,23,0,200,24,0,200,26,0,21,27,0,21,194,0,421,195,0,221,196,0,200,199,0,600*6A
$PAIRSAT,2,12,70,0,200,71,0,200,77,0,1,78,0,1,79,0,1,82,0,200,83,0,200,84,0,200,85,0,200,86,0,200,87,0,201,88,0,201*7F
$PAIRSAT,3,14,2,0,1000,3,0,1000,4,0,1000,13,0,21,15,0,21,21,0,221,25,0,1200,26,0,1200,27,0,1221,30,0,1200,31,0,1200,33,0,1200,34,0,1200,36,0,200*4D
$PAIRSAT,4,43,1,0,200,2,0,200,3,0,400,4,0,200,5,0,200,6,0,201,7,0,201,8,0,200,9,0,201,10,0,201,11,0,201,16,0,1,19,0,400,20,0,400,21,0,400,22,0,400,23,0,421,24,0,600,25,0,621,26,0,600,27,0,400,28,0,621,29,0,600,30,0,600,32,0,400,33,0,400,34,0,421,35,0,400,36,0,400,37,0,400,38,0,400,39,0,421,40,0,421,41,0,400,42,0,400,43,0,421,44,0,400,45,0,400,46,0,400,59,0,400,60,0,400,61,0,400,62,0,400*67
$PAIRDGP,0*45
$GNGGA,031724.100,2500.7792167,N,12132.4624465,E,4,46,0.65,16.667,M,15.25,M,1,3335*4C
$GNRMC,031724.100,A,2500.7792167,N,12132.4624465,E,0.01,269.03,090324,,,R,V*14
$GPHDT,,T*1B
$GNACCURACY,4.1*13
$GNGGA,031724.200,2500.7792256,N,12132.4624399,E,4,46,0.65,16.653,M,15.25,M,1,3335*4D
$GNRMC,031724.200,A,2500.7792256,N,12132.4624399,E,0.01,269.03,090324,,,R,V*12
$GPHDT,319.385,T*30
$GNACCURACY,4.1*13
$GNGGA,031724.300,2500.7792229,N,12132.4624460,E,4,46,0.65,16.662,M,15.25,M,1,3335*47
$GNRMC,031724.300,A,2500.7792229,N,12132.4624460,E,0.02,269.03,090324,,,R,V*19
$GPHDT,,T*1B
$GNACCURACY,4.1*13
$GNGGA,031724.400,2500.7792209,N,12132.4624482,E,4,46,0.65,16.668,M,15.25,M,1,3335*44
$GNRMC,031724.400,A,2500.7792209,N,12132.4624482,E,0.02,269.03,090324,,,R,V*10
$GPHDT,319.124,T*39
$GNACCURACY,4.1*13
$GNGGA,031724.500,2500.7792109,N,12132.4624487,E,4,46,0.65,16.651,M,15.25,M,0,3335*48
$GNRMC,031724.500,A,2500.7792109,N,12132.4624487,E,0.02,269.03,090324,,,R,V*17
$GPHDT,,T*1B
$GNACCURACY,4.1*13
$GNGGA,031724.600,2500.7792133,N,12132.4624503,E,4,45,0.65,16.658,M,15.25,M,0,3335*45
$GNRMC,031724.600,A,2500.7792133,N,12132.4624503,E,0.03,269.03,090324,,,R,V*11
$GPHDT,318.683,T*32
$GNACCURACY,4.1*13
$GNGGA,031724.700,2500.7792140,N,12132.4624516,E,4,45,0.65,16.647,M,15.25,M,0,3335*4A
$GNRMC,031724.700,A,2500.7792140,N,12132.4624516,E,0.03,269.03,090324,,,R,V*10
$GPHDT,,T*1B
$GNACCURACY,4.1*13
$GNGGA,031724.800,2500.7792152,N,12132.4624468,E,4,45,0.65,16.642,M,15.25,M,0,3335*4B
$GNRMC,031724.800,A,2500.7792152,N,12132.4624468,E,0.04,269.03,090324,,,R,V*13
$GPHDT,319.106,T*39
$GNACCURACY,4.1*13
$GNGGA,031724.900,2500.7792132,N,12132.4624457,E,4,46,0.63,16.638,M,15.25,M,0,3335*48
$GNRMC,031724.900,A,2500.7792132,N,12132.4624457,E,0.06,269.03,090324,,,R,V*1A
$GPHDT,,T*1B
$GNACCURACY,4.1*13
$GNGGA,031725.000,2500.7792195,N,12132.4624471,E,4,46,0.63,16.650,M,15.25,M,1,3335*46
$GNRMC,031725.000,A,2500.7792195,N,12132.4624471,E,0.05,269.03,090324,,,R,V*18
$GPHDT,319.036,T*3B
$GNGSA,A,3,08,194,195,27,16,04,21,09,26,,,,0.95,0.63,0.71,1*0F
$GNGSA,A,3,88,78,77,87,,,,,,,,,0.95,0.63,0.71,2*0D
$GNGSA,A,3,21,13,27,15,,,,,,,,,0.95,0.63,0.71,3*0C
$GNGSA,A,3,06,16,43,09,39,40,07,23,11,10,25,28,0.95,0.63,0.71,4*00
$GNGSA,A,3,34,,,,,,,,,,,,0.95,0.63,0.71,4*0C
$GPGSV,4,1,14,08,72,288,43,199,66,163,,194,63,045,43,195,56,125,40,1*5A
$GPGSV,4,2,14,27,55,025,48,45,47,231,34,16,37,050,46,04,36,220,37,1*6D
$GPGSV,4,3,14,21,34,171,28,09,31,273,34,196,22,174,18,07,21,320,,1*55
$GPGSV,4,4,14,26,19,079,38,31,,,18,1*53
$GPGSV,2,1,07,08,72,288,45,194,63,045,41,195,56,125,38,27,55,025,43,8*6C
$GPGSV,2,2,07,04,36,220,36,09,31,273,37,26,19,079,41,8*50
$GLGSV,2,1,05,88,72,095,44,78,43,359,18,77,34,080,31,87,26,032,26,1*7A
$GLGSV,2,2,05,79,09,316,16,1*49
$GAGSV,2,1,07,21,50,343,26,13,47,114,39,27,35,058,42,15,24,053,38,7*79
$GAGSV,2,2,07,26,24,176,16,04,08,316,,19,,,35,7*77
$GAGSV,1,1,04,13,47,114,37,27,35,058,39,15,24,053,39,19,,,37,1*46
$GBGSV,4,1,13,06,84,235,40,16,81,186,41,43,76,078,45,09,74,309,41,1*72
$GBGSV,4,2,13,39,70,172,42,40,67,311,43,07,63,290,38,23,58,351,34,1*72
$GBGSV,4,3,13,11,52,050,45,10,52,273,39,25,49,090,44,28,35,206,35,1*77
$GBGSV,4,4,13,34,29,042,47,1*4D
$GBGSV,2,1,06,43,76,078,45,39,70,172,40,40,67,311,40,23,58,351,37,4*7E
$GBGSV,2,2,06,25,49,090,42,34,29,042,40,4*7E
$GNACCURACY,4.1*13
$PAIRSAT,1,21,4,0,21,7,0,1,8,0,21,9,0,21,14,0,200,15,0,200,16,0,201,17,0,200,18,0,200,19,0,200,20,0,200,21,0,201,22,0,200,23,0,200,24,0,200,26,0,21,27,0,21,194,0,421,195,0,221,196,0,200,199,0,600*6A
$PAIRSAT,2,12,70,0,200,71,0,200,77,0,1,78,0,1,79,0,1,82,0,200,83,0,200,84,0,200,85,0,200,86,0,200,87,0,201,88,0,201*7F
$PAIRSAT,3,14,2,0,1000,3,0,1000,4,0,1000,13,0,21,15,0,21,21,0,221,25,0,1200,26,0,1200,27,0,1221,30,0,1200,31,0,1200,33,0,1200,34,0,1200,36,0,200*4D
$PAIRSAT,4,43,1,0,200,2,0,200,3,0,400,4,0,200,5,0,200,6,0,201,7,0,201,8,0,200,9,0,201,10,0,201,11,0,201,16,0,1,19,0,400,20,0,400,21,0,400,22,0,400,23,0,421,24,0,600,25,0,621,26,0,600,27,0,400,28,0,621,29,0,600,30,0,600,32,0,400,33,0,400,34,0,421,35,0,400,36,0,400,37,0,400,38,0,400,39,0,421,40,0,421,41,0,400,42,0,400,43,0,421,44,0,400,45,0,400,46,0,400,59,0,400,60,0,400,61,0,400,62,0,400*67
$PAIRDGP,0*45
$GNGGA,031725.100,2500.7792204,N,12132.4624465,E,4,46,0.63,16.657,M,15.25,M,1,3335*4E
$GNRMC,031725.100,A,2500.7792204,N,12132.4624465,E,0.05,269.03,090324,,,R,V*17
$GPHDT,,T*1B
$GNACCURACY,4.1*13
$GNGGA,031725.200,2500.7792204,N,12132.4624485,E,4,46,0.63,16.664,M,15.25,M,1,3335*43
$GNRMC,031725.200,A,2500.7792204,N,12132.4624485,E,0.02,269.03,090324,,,R,V*1D
$GPHDT,319.007,T*39
$GNACCURACY,4.1*13
$GNGGA,031725.300,2500.7792211,N,12132.4624484,E,4,46,0.63,16.664,M,15.25,M,1,3335*47
$GNRMC,031725.300,A,2500.7792211,N,12132.4624484,E,0.03,269.03,090324,,,R,V*18
$GPHDT,,T*1B
$GNACCURACY,4.1*13
$GNGGA,031725.400,2500.7792184,N,12132.4624498,E,4,46,0.63,16.655,M,15.25,M,1,3335*40
$GNRMC,031725.400,A,2500.7792184,N,12132.4624498,E,0.03,269.03,090324,,,R,V*1D
$GPHDT,318.944,T*36
$GNACCURACY,4.1*13
$GNGGA,031725.500,2500.7792236,N,12132.4624469,E,4,46,0.63,16.652,M,15.25,M,1,3335*42
$GNRMC,031725.500,A,2500.7792236,N,12132.4624469,E,0.03,269.03,090324,,,R,V*18
$GPHDT,,T*1B
$GNACCURACY,4.1*13
$GNGGA,031725.600,2500.7792182,N,12132.4624503,E,4,46,0.63,16.665,M,15.25,M,0,3335*45
$GNRMC,031725.600,A,2500.7792182,N,12132.4624503,E,0.04,269.03,090324,,,R,V*1D
$GPHDT,318.616,T*3E
$GNACCURACY,4.1*13
$GNGGA,031725.700,2500.7792207,N,12132.4624491,E,4,46,0.63,16.657,M,15.25,M,0,3335*41
$GNRMC,031725.700,A,2500.7792207,N,12132.4624491,E,0.02,269.03,090324,,,R,V*1E
$GPHDT,,T*1B
$GNACCURACY,4.1*13
$GNGGA,031725.800,2500.7792252,N,12132.4624469,E,4,46,0.63,16.667,M,15.25,M,0,3335*4A
$GNRMC,031725.800,A,2500.7792252,N,12132.4624469,E,0.03,269.03,090324,,,R,V*17
$GPHDT,318.785,T*35
$GNACCURACY,4.1*13
$GNGGA,031725.900,2500.7792222,N,12132.4624504,E,4,47,0.63,16.669,M,15.25,M,0,3335*49
$GNRMC,031725.900,A,2500.7792222,N,12132.4624504,E,0.03,269.03,090324,,,R,V*1B
$GPHDT,,T*1B
$GNACCURACY,4.1*13
$GNGGA,031726.000,2500.7792231,N,12132.4624477,E,4,47,0.63,16.659,M,15.25,M,1,3335*46
$GNRMC,031726.000,A,2500.7792231,N,12132.4624477,E,0.03,269.03,090324,,,R,V*16
$GPHDT,318.572,T*3F
$GNGSA,A,3,08,194,195,27,16,04,21,09,26,,,,0.95,0.63,0.71,1*0F
$GNGSA,A,3,88,78,77,87,,,,,,,,,0.95,0.63,0.71,2*0D
$GNGSA,A,3,21,13,27,15,,,,,,,,,0.95,0.63,0.71,3*0C
$GNGSA,A,3,06,16,43,09,39,40,07,23,11,10,25,28,0.95,0.63,0.71,4*00
$GNGSA,A,3,34,,,,,,,,,,,,0.95,0.63,0.71,4*0C
$GPGSV,4,1,14,08,72,288,43,199,66,163,,194,63,045,43,195,56,125,45,1*5F
$GPGSV,4,2,14,27,55,025,48,45,47,231,35,16,37,050,45,04,36,220,37,1*6F
$GPGSV,4,3,14,21,34,171,33,09,31,272,35,196,22,174,19,07,21,320,,1*5E
$GPGSV,4,4,14,26,19,079,38,31,,,17,1*5C
$GPGSV,2,1,07,08,72,288,45,194,63,045,43,195,56,125,42,27,55,025,44,8*64
$GPGSV,2,2,07,04,36,220,37,09,31,272,36,26,19,079,41,8*51
$GLGSV,2,1,05,88,72,095,43,78,43,359,15,77,34,080,30,87,26,032,25,1*72
$GLGSV,2,2,05,79,09,316,17,1*48
$GAGSV,2,1,07,21,50,343,26,13,47,114,42,27,35,058,42,15,24,053,35,7*78
$GAGSV,2,2,07,26,24,176,14,04,08,316,,19,,,34,7*74
$GAGSV,2,1,05,21,50,343,19,13,47,114,42,27,35,058,39,15,24,053,39,1*70
$GAGSV,2,2,05,19,,,37,1*7C
$GBGSV,4,1,13,06,84,235,40,16,81,186,41,43,76,078,45,09,74,309,42,1*71
$GBGSV,4,2,13,39,70,172,42,40,67,311,43,07,63,290,39,23,58,351,36,1*71
$GBGSV,4,3,13,11,52,050,45,10,52,273,39,25,49,090,44,28,35,206,34,1*76
$GBGSV,4,4,13,34,29,042,47,1*4D
$GBGSV,2,1,06,43,76,078,44,39,70,172,42,40,67,311,41,23,58,351,37,4*7C
$GBGSV,2,2,06,25,49,090,42,34,29,042,40,4*7E
$GNACCURACY,4.1*13
$PAIRSAT,1,21,4,0,21,7,0,1,8,0,21,9,0,21,14,0,200,15,0,200,16,0,201,17,0,200,18,0,200,19,0,200,20,0,200,21,0,201,22,0,200,23,0,200,24,0,200,26,0,21,27,0,21,194,0,421,195,0,221,196,0,200,199,0,600*6A
$PAIRSAT,2,12,70,0,200,71,0,200,77,0,1,78,0,1,79,0,1,82,0,200,83,0,200,84,0,200,85,0,200,86,0,200,87,0,201,88,0,201*7F
$PAIRSAT,3,14,2,0,1000,3,0,1000,4,0,1000,13,0,21,15,0,21,21,0,221,25,0,1200,26,0,1200,27,0,1221,30,0,1200,31,0,1200,33,0,1200,34,0,1200,36,0,200*4D
$PAIRSAT,4,43,1,0,200,2,0,200,3,0,400,4,0,200,5,0,200,6,0,201,7,0,201,8,0,200,9,0,201,10,0,201,11,0,201,16,0,1,19,0,400,20,0,400,21,0,400,22,0,400,23,0,421,24,0,600,25,0,621,26,0,600,27,0,400,28,0,621,29,0,600,30,0,600,32,0,400,33,0,400,34,0,421,35,0,400,36,0,400,37,0,400,38,0,400,39,0,421,40,0,421,41,0,400,42,0,400,43,0,421,44,0,400,45,0,400,46,0,400,59,0,400,60,0,400,61,0,400,62,0,400*67
$PAIRDGP,0*45
$GNGGA,031726.100,2500.7792199,N,12132.4624508,E,4,47,0.63,16.680,M,15.25,M,1,3335*4B
$GNRMC,031726.100,A,2500.7792199,N,12132.4624508,E,0.02,269.03,090324,,,R,V*1E
$GPHDT,,T*1B
$GNACCURACY,4.1*13
$GNGGA,031726.200,2500.7792212,N,12132.4624449,E,4,47,0.63,16.664,M,15.25,M,1,3335*46
$GNRMC,031726.200,A,2500.7792212,N,12132.4624449,E,0.02,269.03,090324,,,R,V*19
$GPHDT,318.794,T*35
$GNACCURACY,4.1*13
$GNGGA,031726.300,2500.7792190,N,12132.4624473,E,4,47,0.63,16.668,M,15.25,M,1,3335*4B
$GNRMC,031726.300,A,2500.7792190,N,12132.4624473,E,0.03,269.03,090324,,,R,V*19
$GPHDT,,T*1B
$GNACCURACY,4.1*13
$GNGGA,031726.400,2500.7792194,N,12132.4624444,E,4,47,0.63,16.669,M,15.25,M,1,3335*4D
$GNRMC,031726.400,A,2500.7792194,N,12132.4624444,E,0.03,269.03,090324,,,R,V*1E
$GPHDT,319.051,T*3A
$GNACCURACY,4.1*13
$GNGGA,031726.500,2500.7792205,N,12132.4624426,E,4,47,0.63,16.663,M,15.25,M,1,3335*49
$GNRMC,031726.500,A,2500.7792205,N,12132.4624426,E,0.02,269.03,090324,,,R,V*11
$GPHDT,,T*1B
$GNACCURACY,4.1*13
$GNGGA,031726.600,2500.7792190,N,12132.4624462,E,4,47,0.63,16.670,M,15.25,M,0,3335*46
$GNRMC,031726.600,A,2500.7792190,N,12132.4624462,E,0.01,269.03,090324,,,R,V*1E
$GPHDT,318.841,T*32
$GNACCURACY,4.1*13
$GNGGA,031726.700,2500.7792192,N,12132.4624462,E,4,47,0.63,16.672,M,15.25,M,0,3335*47
$GNRMC,031726.700,A,2500.7792192,N,12132.4624462,E,0.01,269.03,090324,,,R,V*1D
$GPHDT,,T*1B
$GNACCURACY,4.1*13
$GNGGA,031726.800,2500.7792179,N,12132.4624470,E,4,47,0.63,16.668,M,15.25,M,0,3335*45
$GNRMC,031726.800,A,2500.7792179,N,12132.4624470,E,0.01,269.03,090324,,,R,V*14
$GPHDT,319.004,T*3A
$GNACCURACY,4.1*13
$GNGGA,031726.900,2500.7792194,N,12132.4624462,E,4,47,0.63,16.671,M,15.25,M,0,3335*4C
$GNRMC,031726.900,A,2500.7792194,N,12132.4624462,E,0.04,269.03,090324,,,R,V*10
$GPHDT,,T*1B
$GNACCURACY,4.1*13
$GNGGA,031727.000,2500.7792191,N,12132.4624486,E,4,47,0.63,16.671,M,15.25,M,1,3335*4A
$GNRMC,031727.000,A,2500.7792191,N,12132.4624486,E,0.01,269.03,090324,,,R,V*12
$GPHDT,318.693,T*33
$GNGSA,A,3,08,194,195,27,16,04,21,09,26,,,,0.95,0.63,0.71,1*0F
$GNGSA,A,3,88,78,77,87,,,,,,,,,0.95,0.63,0.71,2*0D
$GNGSA,A,3,21,13,27,15,,,,,,,,,0.95,0.63,0.71,3*0C
$GNGSA,A,3,06,16,43,09,39,40,07,23,11,10,25,28,0.95,0.63,0.71,4*00
$GNGSA,A,3,34,,,,,,,,,,,,0.95,0.63,0.71,4*0C
$GPGSV,4,1,14,08,72,288,44,199,66,163,,194,63,045,43,195,56,125,45,1*58
$GPGSV,4,2,14,27,54,025,48,45,47,231,32,16,37,050,45,04,36,220,37,1*69
$GPGSV,4,3,14,21,35,171,33,09,31,272,35,196,22,174,19,07,21,320,24,1*59
$GPGSV,4,4,14,26,19,080,38,31,,,18,1*55
$GPGSV,2,1,07,08,72,288,45,194,63,045,43,195,56,125,42,27,54,025,44,8*65
$GPGSV,2,2,07,04,36,220,34,09,31,272,33,26,19,080,40,8*50
$GLGSV,2,1,05,88,72,095,43,78,43,359,14,77,34,080,29,87,26,032,27,1*79
$GLGSV,2,2,05,79,09,316,17,1*48
$GAGSV,2,1,07,21,50,343,26,13,47,114,43,27,35,058,43,15,24,053,33,7*7E
$GAGSV,2,2,07,26,24,176,17,04,08,316,,19,,,33,7*70
$GAGSV,2,1,05,21,50,343,20,13,47,114,42,27,35,058,39,15,24,053,39,1*7A
$GAGSV,2,2,05,19,,,36,1*7D
$GBGSV,4,1,13,06,84,235,40,16,81,186,41,43,76,078,45,09,74,309,42,1*71
$GBGSV,4,2,13,39,70,172,42,40,67,311,43,07,63,290,39,23,58,351,36,1*71
$GBGSV,4,3,13,11,52,050,44,10,52,273,39,25,49,090,44,28,35,206,33,1*70
$GBGSV,4,4,13,34,29,042,47,1*4D
$GBGSV,2,1,06,43,76,078,44,39,70,172,42,40,67,311,41,23,58,351,37,4*7C
$GBGSV,2,2,06,25,49,090,42,34,29,042,40,4*7E
$GNACCURACY,4.1*13
$PAIRSAT,1,21,4,0,21,7,0,1,8,0,21,9,0,21,14,0,200,15,0,200,16,0,201,17,0,200,18,0,200,19,0,200,20,0,200,21,0,201,22,0,200,23,0,200,24,0,200,26,0,21,27,0,21,194,0,421,195,0,221,196,0,200,199,0,600*6A
$PAIRSAT,2,12,70,0,200,71,0,200,77,0,1,78,0,1,79,0,1,82,0,200,83,0,200,84,0,200,85,0,200,86,0,200,87,0,201,88,0,201*7F
$PAIRSAT,3,14,2,0,1000,3,0,1000,4,0,1000,13,0,21,15,0,21,21,0,221,25,0,1200,26,0,1200,27,0,1221,30,0,1200,31,0,1200,33,0,1200,34,0,1200,36,0,200*4D
$PAIRSAT,4,43,1,0,200,2,0,200,3,0,400,4,0,200,5,0,200,6,0,201,7,0,201,8,0,200,9,0,201,10,0,201,11,0,201,16,0,1,19,0,400,20,0,400,21,0,400,22,0,400,23,0,421,24,0,600,25,0,621,26,0,600,27,0,400,28,0,621,29,0,600,30,0,600,32,0,400,33,0,400,34,0,421,35,0,400,36,0,400,37,0,400,38,0,400,39,0,421,40,0,421,41,0,400,42,0,400,43,0,421,44,0,400,45,0,400,46,0,400,59,0,400,60,0,400,61,0,400,62,0,400*67
$PAIRDGP,0*45
$GNGGA,031727.100,2500.7792215,N,12132.4624451,E,4,47,0.63,16.664,M,15.25,M,1,3335*4A
$GNRMC,031727.100,A,2500.7792215,N,12132.4624451,E,0.01,269.03,090324,,,R,V*16
$GPHDT,,T*1B
$GNACCURACY,4.1*13
$GNGGA,031727.200,2500.7792199,N,12132.4624491,E,4,47,0.63,16.657,M,15.25,M,1,3335*42
$GNRMC,031727.200,A,2500.7792199,N,12132.4624491,E,0.01,269.03,090324,,,R,V*1E
$GPHDT,318.823,T*36
$GNACCURACY,4.1*13
$GNGGA,031727.300,2500.7792232,N,12132.4624450,E,4,47,0.63,16.663,M,15.25,M,1,3335*4B
$GNRMC,031727.300,A,2500.7792232,N,12132.4624450,E,0.00,269.03,090324,,,R,V*11
$GPHDT,,T*1B
$GNACCURACY,4.1*13
$GNGGA,031727.400,2500.7792231,N,12132.4624481,E,4,46,0.65,16.666,M,15.25,M,1,3335*41
$GNRMC,031727.400,A,2500.7792231,N,12132.4624481,E,0.01,269.03,090324,,,R,V*18
$GPHDT,318.689,T*38
$GNACCURACY,4.1*13
$GNGGA,031727.500,2500.7792240,N,12132.4624445,E,4,46,0.65,16.656,M,15.25,M,1,3335*4D
$GNRMC,031727.500,A,2500.7792240,N,12132.4624445,E,0.00,269.03,090324,,,R,V*16
$GPHDT,,T*1B
$GNACCURACY,4.2*10
$GNGGA,031727.600,2500.7792235,N,12132.4624445,E,4,47,0.61,16.653,M,15.25,M,1,3335*4C
$GNRMC,031727.600,A,2500.7792235,N,12132.4624445,E,0.00,269.03,090324,,,R,V*17
$GPHDT,319.072,T*3B
$GNACCURACY,4.2*10
$GNGGA,031727.700,2500.7792231,N,12132.4624469,E,4,47,0.61,16.653,M,15.25,M,1,3335*47
$GNRMC,031727.700,A,2500.7792231,N,12132.4624469,E,0.01,269.03,090324,,,R,V*1D
$GPHDT,,T*1B
$GNACCURACY,4.2*10
$GNGGA,031727.800,2500.7792236,N,12132.4624443,E,4,47,0.61,16.656,M,15.25,M,0,3335*43
$GNRMC,031727.800,A,2500.7792236,N,12132.4624443,E,0.01,269.03,090324,,,R,V*1D
$GPHDT,318.777,T*38
$GNACCURACY,4.2*10
$GNGGA,031727.900,2500.7792235,N,12132.4624449,E,4,47,0.61,16.653,M,15.25,M,0,3335*4E
$GNRMC,031727.900,A,2500.7792235,N,12132.4624449,E,0.07,269.03,090324,,,R,V*13
$GPHDT,,T*1B
$GNACCURACY,4.2*10
$GNGGA,031728.000,2500.7792239,N,12132.4624433,E,4,47,0.61,16.659,M,15.25,M,1,3335*42
$GNRMC,031728.000,A,2500.7792239,N,12132.4624433,E,0.05,269.03,090324,,,R,V*16
$GPHDT,318.842,T*31
$GNGSA,A,3,08,194,195,27,16,04,21,09,07,26,,,0.91,0.61,0.68,1*06
$GNGSA,A,3,88,77,87,,,,,,,,,,0.91,0.61,0.68,2*0C
$GNGSA,A,3,21,13,27,15,,,,,,,,,0.91,0.61,0.68,3*02
$GNGSA,A,3,06,16,43,09,39,40,07,23,11,10,25,28,0.91,0.61,0.68,4*0E
$GNGSA,A,3,34,,,,,,,,,,,,0.91,0.61,0.68,4*02
$GPGSV,4,1,14,08,72,288,44,199,66,163,,194,63,045,43,195,56,125,45,1*58
$GPGSV,4,2,14,27,54,025,48,45,47,231,32,16,37,050,45,04,36,220,37,1*69
$GPGSV,4,3,14,21,35,171,31,09,31,272,35,196,22,174,19,07,21,320,22,1*5D
$GPGSV,4,4,14,26,19,080,36,31,,,18,1*5B
$GPGSV,2,1,07,08,72,288,45,194,63,045,43,195,56,125,42,27,54,025,44,8*65
$GPGSV,2,2,07,04,36,220,35,09,31,272,33,26,19,080,40,8*51
$GLGSV,2,1,05,88,72,095,43,78,43,359,13,77,34,080,29,87,26,032,28,1*71
$GLGSV,2,2,05,79,09,316,18,1*47
$GAGSV,2,1,07,21,50,343,27,13,47,114,43,27,35,058,43,15,24,053,35,7*79
$GAGSV,2,2,07,26,24,176,19,04,08,316,,19,,,33,7*7E
$GAGSV,2,1,05,21,50,343,19,13,47,114,42,27,35,058,39,15,24,053,39,1*70
$GAGSV,2,2,05,19,,,36,1*7D
$GBGSV,4,1,13,06,84,235,40,16,81,186,41,43,76,078,44,09,74,309,42,1*70
$GBGSV,4,2,13,39,70,172,42,40,67,311,43,07,63,290,39,23,58,351,34,1*73
$GBGSV,4,3,13,11,52,050,44,10,52,273,39,25,49,090,44,28,35,206,33,1*70
$GBGSV,4,4,13,34,29,042,47,1*4D
$GBGSV,2,1,06,43,76,078,44,39,70,172,42,40,67,311,41,23,58,351,37,4*7C
$GBGSV,2,2,06,25,49,090,42,34,29,042,40,4*7E
$GNACCURACY,4.2*10
$PAIRSAT,1,21,4,0,21,7,0,1,8,0,21,9,0,21,14,0,200,15,0,200,16,0,201,17,0,200,18,0,200,19,0,200,20,0,200,21,0,201,22,0,200,23,0,200,24,0,200,26,0,21,27,0,21,194,0,421,195,0,221,196,0,200,199,0,600*6A
$PAIRSAT,2,12,70,0,200,71,0,200,77,0,1,78,0,1,79,0,1,82,0,200,83,0,200,84,0,200,85,0,200,86,0,200,87,0,201,88,0,201*7F
$PAIRSAT,3,14,2,0,1000,3,0,1000,4,0,1000,13,0,21,15,0,21,21,0,221,25,0,1200,26,0,1200,27,0,1221,30,0,1200,31,0,1200,33,0,1200,34,0,1200,36,0,200*4D
$PAIRSAT,4,43,1,0,200,2,0,200,3,0,400,4,0,200,5,0,200,6,0,201,7,0,201,8,0,200,9,0,201,10,0,201,11,0,201,16,0,1,19,0,400,20,0,400,21,0,400,22,0,400,23,0,421,24,0,600,25,0,621,26,0,600,27,0,400,28,0,621,29,0,600,30,0,600,32,0,400,33,0,400,34,0,421,35,0,400,36,0,400,37,0,400,38,0,400,39,0,421,40,0,421,41,0,400,42,0,400,43,0,421,44,0,400,45,0,400,46,0,400,59,0,400,60,0,400,61,0,400,62,0,400*67
$PAIRDGP,0*45
$GNGGA,031728.100,2500.7792215,N,12132.4624453,E,4,47,0.61,16.651,M,15.25,M,1,3335*43
$GNRMC,031728.100,A,2500.7792215,N,12132.4624453,E,0.04,269.03,090324,,,R,V*1E
$GPHDT,,T*1B
$GNACCURACY,4.2*10
$GNGGA,031728.200,2500.7792218,N,12132.4624457,E,4,47,0.61,16.651,M,15.25,M,1,3335*49
$GNRMC,031728.200,A,2500.7792218,N,12132.4624457,E,0.03,269.03,090324,,,R,V*13
$GPHDT,318.817,T*31
$GNACCURACY,4.2*10
$GNGGA,031728.300,2500.7792211,N,12132.4624459,E,4,47,0.61,16.642,M,15.25,M,1,3335*4D
$GNRMC,031728.300,A,2500.7792211,N,12132.4624459,E,0.03,269.03,090324,,,R,V*15
$GPHDT,,T*1B
$GNACCURACY,4.2*10
$GNGGA,031728.400,2500.7792231,N,12132.4624429,E,4,47,0.61,16.647,M,15.25,M,1,3335*4A
$GNRMC,031728.400,A,2500.7792231,N,12132.4624429,E,0.02,269.03,090324,,,R,V*16
$GPHDT,318.932,T*37
$GNACCURACY,4.2*10
$GNGGA,031728.500,2500.7792208,N,12132.4624452,E,4,46,0.65,16.645,M,15.25,M,1,3335*4A
$GNRMC,031728.500,A,2500.7792208,N,12132.4624452,E,0.02,269.03,090324,,,R,V*11
$GPHDT,,T*1B
$GNACCURACY,4.2*10
$GNGGA,031728.600,2500.7792199,N,12132.4624464,E,4,46,0.65,16.650,M,15.25,M,1,3335*43
$GNRMC,031728.600,A,2500.7792199,N,12132.4624464,E,0.02,269.03,090324,,,R,V*1C
$GPHDT,318.888,T*37
$GNACCURACY,4.2*10
$GNGGA,031728.700,2500.7792199,N,12132.4624467,E,4,46,0.65,16.659,M,15.25,M,0,3335*49
$GNRMC,031728.700,A,2500.7792199,N,12132.4624467,E,0.02,269.03,090324,,,R,V*1E
$GPHDT,,T*1B
$GNACCURACY,4.2*10
$GNGGA,031728.800,2500.7792205,N,12132.4624461,E,4,46,0.65,16.663,M,15.25,M,0,3335*4F
$GNRMC,031728.800,A,2500.7792205,N,12132.4624461,E,0.06,269.03,090324,,,R,V*15
$GPHDT,318.593,T*30
$GNACCURACY,4.2*10
$GNGGA,031728.900,2500.7792187,N,12132.4624482,E,4,46,0.65,16.652,M,15.25,M,0,3335*48
$GNRMC,031728.900,A,2500.7792187,N,12132.4624482,E,0.05,269.03,090324,,,R,V*13
$GPHDT,,T*1B
$GNACCURACY,4.2*10
$GNGGA,031729.000,2500.7792198,N,12132.4624475,E,4,46,0.65,16.661,M,15.25,M,1,3335*47
$GNRMC,031729.000,A,2500.7792198,N,12132.4624475,E,0.04,269.03,090324,,,R,V*1C
$GPHDT,318.082,T*35
$GNGSA,A,3,08,194,195,27,16,04,21,09,26,,,,0.96,0.65,0.71,1*0A
$GNGSA,A,3,88,77,87,,,,,,,,,,0.96,0.65,0.71,2*07
$GNGSA,A,3,21,13,27,15,,,,,,,,,0.96,0.65,0.71,3*09
$GNGSA,A,3,06,16,43,09,39,40,07,23,11,10,25,28,0.96,0.65,0.71,4*05
$GNGSA,A,3,34,,,,,,,,,,,,0.96,0.65,0.71,4*09
$GPGSV,4,1,14,08,72,288,44,199,66,163,,194,63,045,43,195,56,125,45,1*58
$GPGSV,4,2,14,27,54,025,48,45,47,231,33,16,37,050,45,04,36,220,37,1*68
$GPGSV,4,3,14,21,35,171,30,09,31,272,35,196,22,174,17,07,21,320,21,1*51
$GPGSV,4,4,14,26,19,080,36,31,,,18,1*5B
$GPGSV,2,1,07,08,72,288,45,194,63,045,43,195,56,125,43,27,54,025,44,8*64
$GPGSV,2,2,07,04,36,220,35,09,31,272,35,26,19,080,41,8*56
$GLGSV,2,1,05,88,72,095,43,78,43,359,15,77,34,080,30,87,26,032,24,1*73
$GLGSV,2,2,05,79,09,316,18,1*47
$GAGSV,2,1,06,21,50,343,26,13,47,114,43,27,35,058,42,15,24,053,33,7*7E
$GAGSV,2,2,06,26,24,176,19,19,,,33,7*47
$GAGSV,2,1,05,21,50,343,21,13,47,114,42,27,35,058,39,15,24,053,41,1*74
$GAGSV,2,2,05,19,,,36,1*7D
$GBGSV,4,1,13,06,84,235,40,16,81,186,41,43,76,078,44,09,74,309,42,1*70
$GBGSV,4,2,13,39,70,172,42,40,67,311,43,07,63,290,39,23,58,351,35,1*72
$GBGSV,4,3,13,11,52,050,44,10,52,273,39,25,49,090,44,28,35,206,33,1*70
$GBGSV,4,4,13,34,29,042,47,1*4D
$GBGSV,2,1,06,43,76,078,44,39,70,172,42,40,67,311,42,23,58,351,38,4*70
$GBGSV,2,2,06,25,49,090,42,34,29,042,40,4*7E
$GNACCURACY,4.2*10
$PAIRSAT,1,21,4,0,21,7,0,1,8,0,21,9,0,21,14,0,200,15,0,200,16,0,201,17,0,200,18,0,200,19,0,200,20,0,200,21,0,201,22,0,200,23,0,200,24,0,200,26,0,21,27,0,21,194,0,421,195,0,221,196,0,200,199,0,600*6A
$PAIRSAT,2,12,70,0,200,71,0,200,77,0,1,78,0,1,79,0,1,82,0,200,83,0,200,84,0,200,85,0,200,86,0,200,87,0,201,88,0,201*7F
$PAIRSAT,3,14,2,0,1000,3,0,1000,4,0,1000,13,0,21,15,0,21,21,0,221,25,0,1200,26,0,1200,27,0,1221,30,0,1200,31,0,1200,33,0,1200,34,0,1200,36,0,200*4D
$PAIRSAT,4,43,1,0,200,2,0,200,3,0,400,4,0,200,5,0,200,6,0,201,7,0,201,8,0,200,9,0,201,10,0,201,11,0,201,16,0,1,19,0,400,20,0,400,21,0,400,22,0,400,23,0,421,24,0,600,25,0,621,26,0,600,27,0,400,28,0,621,29,0,600,30,0,600,32,0,400,33,0,400,34,0,421,35,0,400,36,0,400,37,0,400,38,0,400,39,0,421,40,0,421,41,0,400,42,0,400,43,0,421,44,0,400,45,0,400,46,0,400,59,0,400,60,0,400,61,0,400,62,0,400*67
$PAIRDGP,0*45
$GNGGA,031729.100,2500.7792195,N,12132.4624464,E,4,46,0.65,16.650,M,15.25,M,1,3335*49
$GNRMC,031729.100,A,2500.7792195,N,12132.4624464,E,0.03,269.03,090324,,,R,V*17
$GPHDT,,T*1B
$GNACCURACY,4.3*11
$GNGGA,031729.200,2500.7792187,N,12132.4624476,E,4,46,0.65,16.655,M,15.25,M,1,3335*4F
$GNRMC,031729.200,A,2500.7792187,N,12132.4624476,E,0.02,269.03,090324,,,R,V*15
$GPHDT,317.637,T*32
$GNACCURACY,4.3*11
$GNGGA,031729.300,2500.7792172,N,12132.4624487,E,4,47,0.61,16.649,M,15.25,M,1,3335*42
$GNRMC,031729.300,A,2500.7792172,N,12132.4624487,E,0.01,269.03,090324,,,R,V*13
$GPHDT,,T*1B
$GNACCURACY,4.3*11
$GNGGA,031729.400,2500.7792185,N,12132.4624485,E,4,47,0.61,16.653,M,15.25,M,1,3335*44
$GNRMC,031729.400,A,2500.7792185,N,12132.4624485,E,0.02,269.03,090324,,,R,V*1D
$GPHDT,317.974,T*3A
$GNACCURACY,4.3*11
$GNGGA,031729.500,2500.7792214,N,12132.4624511,E,4,47,0.61,16.681,M,15.25,M,0,3335*4C
$GNRMC,031729.500,A,2500.7792214,N,12132.4624511,E,0.03,269.03,090324,,,R,V*1A
$GPHDT,,T*1B
$GNACCURACY,4.3*11
$GNGGA,031729.600,2500.7792232,N,12132.4624494,E,4,47,0.61,16.650,M,15.25,M,0,3335*4B
$GNRMC,031729.600,A,2500.7792232,N,12132.4624494,E,0.04,269.03,090324,,,R,V*16
$GPHDT,317.630,T*35
$GNACCURACY,4.3*11
$GNGGA,031729.700,2500.7792235,N,12132.4624479,E,4,47,0.61,16.649,M,15.25,M,0,3335*46
$GNRMC,031729.700,A,2500.7792235,N,12132.4624479,E,0.05,269.03,090324,,,R,V*12
$GPHDT,,T*1B
$GNACCURACY,4.3*11
$GNGGA,031729.800,2500.7792204,N,12132.4624486,E,4,47,0.61,16.662,M,15.25,M,0,3335*42
$GNRMC,031729.800,A,2500.7792204,N,12132.4624486,E,0.04,269.03,090324,,,R,V*1E
$GPHDT,318.086,T*31
$GNACCURACY,4.3*11
$GNGGA,031729.900,2500.7792225,N,12132.4624476,E,4,47,0.61,16.650,M,15.25,M,0,3335*4E
$GNRMC,031729.900,A,2500.7792225,N,12132.4624476,E,0.03,269.03,090324,,,R,V*14
$GPHDT,,T*1B
$GNACCURACY,4.3*11
$GNGGA,031730.000,2500.7792214,N,12132.4624512,E,4,47,0.61,16.657,M,15.25,M,1,3335*48
$GNRMC,031730.000,A,2500.7792214,N,12132.4624512,E,0.05,269.03,090324,,,R,V*12
$GPHDT,317.674,T*35
$GNGSA,A,3,08,194,195,27,16,04,21,09,07,26,,,0.91,0.61,0.68,1*06
$GNGSA,A,3,88,77,87,,,,,,,,,,0.91,0.61,0.68,2*0C
$GNGSA,A,3,21,13,27,15,,,,,,,,,0.91,0.61,0.68,3*02
$GNGSA,A,3,06,16,43,09,39,40,07,23,11,10,25,28,0.91,0.61,0.68,4*0E
$GNGSA,A,3,34,,,,,,,,,,,,0.91,0.61,0.68,4*02
$GPGSV,4,1,14,08,72,288,44,199,66,163,,194,63,045,43,195,56,125,45,1*58
$GPGSV,4,2,14,27,54,025,48,45,47,231,35,16,37,050,45,04,36,220,37,1*6E
$GPGSV,4,3,14,21,35,171,27,09,31,272,34,196,22,174,15,07,21,320,22,1*57
$GPGSV,4,4,14,26,19,080,35,31,,,17,1*57
$GPGSV,2,1,07,08,72,288,46,194,63,045,44,195,56,125,44,27,54,025,44,8*67
$GPGSV,2,2,07,04,36,220,38,09,31,272,38,26,19,080,43,8*54
$GLGSV,2,1,05,88,72,095,43,78,43,359,15,77,34,080,30,87,26,032,21,1*76
$GLGSV,2,2,05,79,09,316,18,1*47
$GAGSV,2,1,06,21,50,343,26,13,47,114,43,27,35,058,40,15,24,053,34,7*7B
$GAGSV,2,2,06,26,24,176,19,19,,,33,7*47
$GAGSV,2,1,05,21,50,343,20,13,47,114,44,27,35,058,40,15,24,053,42,1*7E
$GAGSV,2,2,05,19,,,36,1*7D
$GBGSV,4,1,13,06,84,235,39,16,81,186,41,43,76,078,44,09,74,309,42,1*7E
$GBGSV,4,2,13,39,70,172,42,40,67,311,43,07,63,290,38,23,58,351,35,1*73
$GBGSV,4,3,13,11,52,050,44,10,52,273,38,25,49,090,45,28,35,206,33,1*70
$GBGSV,4,4,13,34,29,042,47,1*4D
$GBGSV,2,1,06,43,76,078,44,39,70,172,42,40,67,311,42,23,58,351,38,4*70
$GBGSV,2,2,06,25,49,090,42,34,29,042,40,4*7E
$GNACCURACY,4.3*11
$PAIRSAT,1,21,4,0,21,7,0,1,8,0,21,9,0,21,14,0,200,15,0,200,16,0,201,17,0,200,18,0,200,19,0,200,20,0,200,21,0,201,22,0,200,23,0,200,24,0,200,26,0,21,27,0,21,194,0,421,195,0,221,196,0,200,199,0,600*6A
$PAIRSAT,2,12,70,0,200,71,0,200,77,0,1,78,0,1,79,0,1,82,0,200,83,0,200,84,0,200,85,0,200,86,0,200,87,0,201,88,0,201*7F
$PAIRSAT,3,14,2,0,1000,3,0,1000,4,0,1000,13,0,21,15,0,21,21,0,221,25,0,1200,26,0,1200,27,0,1221,30,0,1200,31,0,1200,33,0,1200,34,0,1200,36,0,200*4D
$PAIRSAT,4,43,1,0,200,2,0,200,3,0,400,4,0,200,5,0,200,6,0,201,7,0,201,8,0,200,9,0,201,10,0,201,11,0,201,16,0,1,19,0,400,20,0,400,21,0,400,22,0,400,23,0,421,24,0,600,25,0,621,26,0,600,27,0,400,28,0,621,29,0,600,30,0,600,32,0,400,33,0,400,34,0,421,35,0,400,36,0,400,37,0,400,38,0,400,39,0,421,40,0,421,41,0,400,42,0,400,43,0,421,44,0,400,45,0,400,46,0,400,59,0,400,60,0,400,61,0,400,62,0,400*67
$PAIRDGP,0*45
$GNGGA,031730.100,2500.7792214,N,12132.4624482,E,4,47,0.61,16.652,M,15.25,M,1,3335*44
$GNRMC,031730.100,A,2500.7792214,N,12132.4624482,E,0.04,269.03,090324,,,R,V*1A
$GPHDT,,T*1B
$GNACCURACY,4.3*11
$GNGGA,031730.200,2500.7792208,N,12132.4624472,E,4,47,0.61,16.641,M,15.25,M,1,3335*47
$GNRMC,031730.200,A,2500.7792208,N,12132.4624472,E,0.04,269.03,090324,,,R,V*1B
$GPHDT,318.171,T*38
$GNACCURACY,4.2*10
$GNGGA,031730.300,2500.7792190,N,12132.4624507,E,4,47,0.61,16.655,M,15.25,M,1,3335*42
$GNRMC,031730.300,A,2500.7792190,N,12132.4624507,E,0.04,269.03,090324,,,R,V*1B
$GPHDT,,T*1B
$GNACCURACY,4.2*10
$GNGGA,031730.400,2500.7792220,N,12132.4624514,E,4,47,0.61,16.664,M,15.25,M,1,3335*4D
$GNRMC,031730.400,A,2500.7792220,N,12132.4624514,E,0.04,269.03,090324,,,R,V*16
$GPHDT,317.931,T*3B
$GNACCURACY,4.2*10
$GNGGA,031730.500,2500.7792193,N,12132.4624471,E,4,47,0.61,16.645,M,15.25,M,0,3335*47
$GNRMC,031730.500,A,2500.7792193,N,12132.4624471,E,0.02,269.03,090324,,,R,V*18
$GPHDT,,T*1B
$GNACCURACY,4.2*10
$GNGGA,031730.600,2500.7792227,N,12132.4624488,E,4,47,0.61,16.660,M,15.25,M,0,3335*49
$GNRMC,031730.600,A,2500.7792227,N,12132.4624488,E,0.02,269.03,090324,,,R,V*11
$GPHDT,318.185,T*33
$GNACCURACY,4.2*10
$GNGGA,031730.700,2500.7792221,N,12132.4624506,E,4,47,0.61,16.663,M,15.25,M,0,3335*4A
$GNRMC,031730.700,A,2500.7792221,N,12132.4624506,E,0.03,269.03,090324,,,R,V*10
$GPHDT,,T*1B
$GNACCURACY,4.2*10
$GNGGA,031730.800,2500.7792201,N,12132.4624506,E,4,47,0.61,16.648,M,15.25,M,0,3335*4E
$GNRMC,031730.800,A,2500.7792201,N,12132.4624506,E,0.07,269.03,090324,,,R,V*19
$GPHDT,318.175,T*3C
$GNACCURACY,4.2*10
$GNGGA,031730.900,2500.7792207,N,12132.4624481,E,4,47,0.61,16.661,M,15.25,M,0,3335*4C
$GNRMC,031730.900,A,2500.7792207,N,12132.4624481,E,0.08,269.03,090324,,,R,V*1F
$GPHDT,,T*1B
$GNACCURACY,4.2*10
$GNGGA,031731.000,2500.7792222,N,12132.4624508,E,4,47,0.61,16.669,M,15.25,M,1,3335*4A
$GNRMC,031731.000,A,2500.7792222,N,12132.4624508,E,0.05,269.03,090324,,,R,V*1D
$GPHDT,318.063,T*3A
$GNGSA,A,3,08,194,195,27,16,04,21,09,07,26,,,0.91,0.61,0.68,1*06
$GNGSA,A,3,88,77,87,,,,,,,,,,0.91,0.61,0.68,2*0C
$GNGSA,A,3,21,13,27,15,,,,,,,,,0.91,0.61,0.68,3*02
$GNGSA,A,3,06,16,43,09,39,40,07,23,11,10,25,28,0.91,0.61,0.68,4*0E
$GNGSA,A,3,34,,,,,,,,,,,,0.91,0.61,0.68,4*02
$GPGSV,4,1,14,08,72,288,44,199,66,163,,194,63,045,43,195,56,125,45,1*58
$GPGSV,4,2,14,27,54,025,48,45,47,231,35,16,37,050,45,04,36,220,37,1*6E
$GPGSV,4,3,14,21,35,171,28,09,31,272,33,196,22,174,15,07,21,320,20,1*5D
$GPGSV,4,4,14,26,19,080,35,31,,,16,1*56
$GPGSV,2,1,07,08,72,288,46,194,63,045,44,195,56,125,43,27,54,025,44,8*60
$GPGSV,2,2,07,04,36,220,38,09,31,272,38,26,19,080,42,8*55
$GLGSV,2,1,05,88,72,095,43,78,43,359,17,77,34,080,32,87,26,032,24,1*73
$GLGSV,2,2,05,79,09,316,18,1*47
$GAGSV,2,1,06,21,50,343,26,13,47,114,41,27,35,058,41,15,24,053,34,7*78
$GAGSV,2,2,06,26,24,176,19,19,,,33,7*47
$GAGSV,2,1,05,21,50,343,20,13,47,114,42,27,35,058,40,15,24,053,42,1*78
$GAGSV,2,2,05,19,,,36,1*7D
$GBGSV,4,1,13,06,84,235,39,16,81,186,41,43,76,078,44,09,74,309,42,1*7E
$GBGSV,4,2,13,39,70,172,42,40,67,311,43,07,63,290,38,23,58,351,34,1*72
$GBGSV,4,3,13,11,52,050,44,10,52,273,38,25,49,090,46,28,35,206,33,1*73
$GBGSV,4,4,13,34,29,042,47,1*4D
$GBGSV,2,1,06,43,76,078,44,39,70,172,42,40,67,311,42,23,58,351,38,4*70
$GBGSV,2,2,06,25,49,090,42,34,29,042,41,4*7F
$GNACCURACY,4.2*10
$PAIRSAT,1,21,4,0,21,7,0,1,8,0,21,9,0,21,14,0,200,15,0,200,16,0,201,17,0,200,18,0,200,19,0,200,20,0,200,21,0,201,22,0,200,23,0,200,24,0,200,26,0,21,27,0,21,194,0,421,195,0,221,196,0,200,199,0,600*6A
$PAIRSAT,2,12,70,0,200,71,0,200,77,0,1,78,0,1,79,0,1,82,0,200,83,0,200,84,0,200,85,0,200,86,0,200,87,0,201,88,0,201*7F
$PAIRSAT,3,14,2,0,1000,3,0,1000,4,0,1000,13,0,21,15,0,21,21,0,221,25,0,1200,26,0,1200,27,0,1221,30,0,1200,31,0,1200,33,0,1200,34,0,1200,36,0,200*4D
$PAIRSAT,4,43,1,0,200,2,0,200,3,0,400,4,0,200,5,0,200,6,0,201,7,0,201,8,0,200,9,0,201,10,0,201,11,0,201,16,0,1,19,0,400,20,0,400,21,0,400,22,0,400,23,0,421,24,0,600,25,0,621,26,0,600,27,0,400,28,0,621,29,0,600,30,0,600,32,0,400,33,0,400,34,0,421,35,0,400,36,0,400,37,0,400,38,0,400,39,0,421,40,0,421,41,0,400,42,0,400,43,0,421,44,0,400,45,0,400,46,0,400,59,0,400,60,0,400,61,0,400,62,0,400*67
$PAIRDGP,0*45
$GNGGA,031731.100,2500.7792229,N,12132.4624507,E,4,47,0.61,16.665,M,15.25,M,1,3335*43
$GNRMC,031731.100,A,2500.7792229,N,12132.4624507,E,0.04,269.03,090324,,,R,V*19
$GPHDT,,T*1B
$GNACCURACY,4.2*10
$GNGGA,031731.200,2500.7792221,N,12132.4624499,E,4,47,0.61,16.658,M,15.25,M,1,3335*40
$GNRMC,031731.200,A,2500.7792221,N,12132.4624499,E,0.03,269.03,090324,,,R,V*13
$GPHDT,317.984,T*35
$GNACCURACY,4.2*10
$GNGGA,031731.300,2500.7792236,N,12132.4624501,E,4,47,0.63,16.662,M,15.25,M,1,3335*4C
$GNRMC,031731.300,A,2500.7792236,N,12132.4624501,E,0.02,269.03,090324,,,R,V*15
$GPHDT,,T*1B
$GNACCURACY,4.2*10
$GNGGA,031731.400,2500.7792230,N,12132.4624514,E,4,47,0.63,16.668,M,15.25,M,1,3335*43
$GNRMC,031731.400,A,2500.7792230,N,12132.4624514,E,0.02,269.03,090324,,,R,V*10
$GPHDT,318.027,T*3A
$GNACCURACY,4.2*10
$GNGGA,031731.500,2500.7792230,N,12132.4624484,E,4,47,0.63,16.657,M,15.25,M,1,3335*46
$GNRMC,031731.500,A,2500.7792230,N,12132.4624484,E,0.02,269.03,090324,,,R,V*19
$GPHDT,,T*1B
$GNACCURACY,4.2*10
$GNGGA,031731.600,2500.7792241,N,12132.4624484,E,4,47,0.63,16.661,M,15.25,M,1,3335*46
$GNRMC,031731.600,A,2500.7792241,N,12132.4624484,E,0.02,269.03,090324,,,R,V*1C
$GPHDT,318.185,T*33
$GNACCURACY,4.2*10
$GNGGA,031731.700,2500.7792218,N,12132.4624455,E,4,47,0.63,16.648,M,15.25,M,0,3335*4D
$GNRMC,031731.700,A,2500.7792218,N,12132.4624455,E,0.07,269.03,090324,,,R,V*18
$GPHDT,,T*1B
$GNACCURACY,4.2*10
$GNGGA,031731.800,2500.7792219,N,12132.4624470,E,4,47,0.63,16.659,M,15.25,M,0,3335*44
$GNRMC,031731.800,A,2500.7792219,N,12132.4624470,E,0.05,269.03,090324,,,R,V*13
$GPHDT,318.063,T*3A
$GNACCURACY,4.2*10
$GNGGA,031731.900,2500.7792211,N,12132.4624455,E,4,47,0.63,16.655,M,15.25,M,0,3335*46
$GNRMC,031731.900,A,2500.7792211,N,12132.4624455,E,0.07,269.03,090324,,,R,V*1F
$GPHDT,,T*1B
$GNACCURACY,4.3*11
$GNGGA,031732.000,2500.7792211,N,12132.4624449,E,4,48,0.59,16.652,M,15.25,M,1,3335*41
$GNRMC,031732.000,A,2500.7792211,N,12132.4624449,E,0.05,269.03,090324,,,R,V*1A
$GPHDT,318.385,T*31
$GNGSA,A,3,08,194,195,27,16,04,21,09,07,26,,,0.90,0.59,0.68,1*0C
$GNGSA,A,3,88,78,77,87,,,,,,,,,0.90,0.59,0.68,2*09
$GNGSA,A,3,21,13,27,15,,,,,,,,,0.90,0.59,0.68,3*08
$GNGSA,A,3,06,16,43,09,39,40,07,23,11,10,25,28,0.90,0.59,0.68,4*04
$GNGSA,A,3,34,,,,,,,,,,,,0.90,0.59,0.68,4*08
$GPGSV,4,1,14,08,72,288,44,199,66,163,18,194,63,045,43,195,56,125,45,1*51
$GPGSV,4,2,14,27,54,025,47,45,47,231,33,16,37,050,45,04,36,220,37,1*67
$GPGSV,4,3,14,21,35,171,29,09,31,272,33,196,22,174,11,07,21,320,21,1*59
$GPGSV,4,4,14,26,19,080,36,31,,,16,1*55
$GPGSV,2,1,07,08,72,288,46,194,63,045,44,195,56,125,43,27,54,025,44,8*60
$GPGSV,2,2,07,04,36,220,37,09,31,272,37,26,19,080,43,8*54
$GLGSV,2,1,05,88,72,095,43,78,43,359,20,77,34,080,33,87,26,032,24,1*76
$GLGSV,2,2,05,79,09,316,16,1*49
$GAGSV,2,1,06,21,50,343,26,13,47,114,42,27,35,058,41,15,24,053,35,7*7A
$GAGSV,2,2,06,26,24,176,16,19,,,33,7*48
$GAGSV,2,1,05,21,50,343,21,13,47,114,42,27,35,058,41,15,24,053,42,1*78
$GAGSV,2,2,05,19,,,37,1*7C
$GBGSV,4,1,13,06,84,235,39,16,81,186,41,43,76,078,44,09,74,309,42,1*7E
$GBGSV,4,2,13,39,70,172,42,40,67,311,43,07,63,290,38,23,58,351,33,1*75
$GBGSV,4,3,13,11,52,050,44,10,52,273,38,25,49,090,46,28,35,206,34,1*74
$GBGSV,4,4,13,34,29,042,47,1*4D
$GBGSV,2,1,06,43,76,078,44,39,70,172,42,40,67,311,42,23,58,351,38,4*70
$GBGSV,2,2,06,25,49,090,42,34,29,042,40,4*7E
$GNACCURACY,4.3*11
$PAIRSAT,1,21,4,0,21,7,0,1,8,0,21,9,0,21,14,0,200,15,0,200,16,0,201,17,0,200,18,0,200,19,0,200,20,0,200,21,0,201,22,0,200,23,0,200,24,0,200,26,0,21,27,0,21,194,0,421,195,0,221,196,0,200,199,0,600*6A
$PAIRSAT,2,12,70,0,200,71,0,200,77,0,1,78,0,1,79,0,1,82,0,200,83,0,200,84,0,200,85,0,200,86,0,200,87,0,201,88,0,201*7F
$PAIRSAT,3,14,2,0,1000,3,0,1000,4,0,1000,13,0,21,15,0,21,21,0,221,25,0,1200,26,0,1200,27,0,1221,30,0,1200,31,0,1200,33,0,1200,34,0,1200,36,0,200*4D
$PAIRSAT,4,43,1,0,200,2,0,200,3,0,400,4,0,200,5,0,200,6,0,201,7,0,201,8,0,200,9,0,201,10,0,201,11,0,201,16,0,1,19,0,400,20,0,400,21,0,400,22,0,400,23,0,421,24,0,600,25,0,621,26,0,600,27,0,400,28,0,621,29,0,600,30,0,600,32,0,400,33,0,400,34,0,421,35,0,400,36,0,400,37,0,400,38,0,400,39,0,421,40,0,421,41,0,400,42,0,400,43,0,421,44,0,400,45,0,400,46,0,400,59,0,400,60,0,400,61,0,400,62,0,400*67
$PAIRDGP,0*45
$GNGGA,031732.100,2500.7792217,N,12132.4624462,E,4,48,0.59,16.659,M,15.25,M,1,3335*44
$GNRMC,031732.100,A,2500.7792217,N,12132.4624462,E,0.06,269.03,090324,,,R,V*17
$GPHDT,,T*1B
$GNACCURACY,4.3*11
$GNGGA,031732.200,2500.7792212,N,12132.4624469,E,4,48,0.59,16.657,M,15.25,M,1,3335*47
$GNRMC,031732.200,A,2500.7792212,N,12132.4624469,E,0.06,269.03,090324,,,R,V*1A
$GPHDT,318.485,T*36
$GNACCURACY,4.3*11
$GNGGA,031732.300,2500.7792207,N,12132.4624464,E,4,48,0.59,16.646,M,15.25,M,1,3335*4F
$GNRMC,031732.300,A,2500.7792207,N,12132.4624464,E,0.07,269.03,090324,,,R,V*13
$GPHDT,,T*1B
$GNACCURACY,4.3*11
$GNGGA,031732.400,2500.7792196,N,12132.4624462,E,4,48,0.59,16.653,M,15.25,M,1,3335*41
$GNRMC,031732.400,A,2500.7792196,N,12132.4624462,E,0.06,269.03,090324,,,R,V*18
$GPHDT,318.404,T*3F
$GNACCURACY,4.3*11
$GNGGA,031732.500,2500.7792210,N,12132.4624477,E,4,48,0.59,16.647,M,15.25,M,0,3335*4D
$GNRMC,031732.500,A,2500.7792210,N,12132.4624477,E,0.06,269.03,090324,,,R,V*10
$GPHDT,,T*1B
$GNACCURACY,4.3*11
$GNGGA,031732.600,2500.7792218,N,12132.4624480,E,4,48,0.59,16.652,M,15.25,M,0,3335*4A
$GNRMC,031732.600,A,2500.7792218,N,12132.4624480,E,0.07,269.03,090324,,,R,V*12
$GPHDT,318.320,T*3E
$GNACCURACY,4.3*11
$GNGGA,031732.700,2500.7792228,N,12132.4624450,E,4,48,0.59,16.647,M,15.25,M,0,3335*41
$GNRMC,031732.700,A,2500.7792228,N,12132.4624450,E,0.06,269.03,090324,,,R,V*1C
$GPHDT,,T*1B
$GNACCURACY,4.2*10
$GNGGA,031732.800,2500.7792217,N,12132.4624499,E,4,48,0.59,16.660,M,15.25,M,0,3335*42
$GNRMC,031732.800,A,2500.7792217,N,12132.4624499,E,0.09,269.03,090324,,,R,V*15
$GPHDT,318.507,T*3D
$GNACCURACY,4.2*10
$GNGGA,031732.900,2500.7792215,N,12132.4624460,E,4,48,0.59,16.646,M,15.25,M,0,3335*43
$GNRMC,031732.900,A,2500.7792215,N,12132.4624460,E,0.08,269.03,090324,,,R,V*11
$GPHDT,,T*1B
$GNACCURACY,4.2*10
$GNGGA,031733.000,2500.7792204,N,12132.4624483,E,4,48,0.59,16.649,M,15.25,M,1,3335*48
$GNRMC,031733.000,A,2500.7792204,N,12132.4624483,E,0.05,269.03,090324,,,R,V*19
$GPHDT,318.825,T*30
$GNGSA,A,3,08,194,195,27,16,04,21,09,07,26,,,0.90,0.59,0.68,1*0C
$GNGSA,A,3,88,78,77,87,,,,,,,,,0.90,0.59,0.68,2*09
$GNGSA,A,3,21,13,27,15,,,,,,,,,0.90,0.59,0.68,3*08
$GNGSA,A,3,06,16,43,09,39,40,07,23,11,10,25,28,0.90,0.59,0.68,4*04
$GNGSA,A,3,34,,,,,,,,,,,,0.90,0.59,0.68,4*08
$GPGSV,4,1,14,08,72,288,44,199,66,163,19,194,63,045,43,195,56,125,45,1*50
$GPGSV,4,2,14,27,54,025,47,45,47,231,32,16,37,050,45,04,36,220,37,1*66
$GPGSV,4,3,14,21,35,171,29,09,31,272,33,196,22,174,13,07,21,320,22,1*58
$GPGSV,4,4,14,26,19,080,38,31,,,16,1*5B
$GPGSV,2,1,07,08,72,288,46,194,63,045,44,195,56,125,43,27,54,025,44,8*60
$GPGSV,2,2,07,04,36,220,36,09,31,272,36,26,19,080,41,8*56
$GLGSV,2,1,05,88,72,095,43,78,43,359,20,77,34,080,33,87,26,032,26,1*74
$GLGSV,2,2,05,79,09,316,16,1*49
$GAGSV,2,1,06,21,50,343,24,13,47,114,42,27,35,058,41,15,24,053,33,7*7E
$GAGSV,2,2,06,26,24,176,16,19,,,33,7*48
$GAGSV,2,1,05,21,50,343,21,13,47,114,42,27,35,058,40,15,24,053,40,1*7B
$GAGSV,2,2,05,19,,,37,1*7C
$GBGSV,4,1,13,06,84,235,39,16,81,186,41,43,76,078,44,09,74,309,42,1*7E
$GBGSV,4,2,13,39,70,172,42,40,67,311,43,07,63,290,39,23,58,351,31,1*76
$GBGSV,4,3,13,11,52,050,44,10,52,273,38,25,49,090,46,28,35,206,34,1*74
$GBGSV,4,4,13,34,29,042,47,1*4D
$GBGSV,2,1,06,43,76,078,44,39,70,172,42,40,67,311,42,23,58,351,38,4*70
$GBGSV,2,2,06,25,49,090,42,34,29,042,40,4*7E
$GNACCURACY,4.2*10
$PAIRSAT,1,21,4,0,21,7,0,1,8,0,21,9,0,21,14,0,200,15,0,200,16,0,201,17,0,200,18,0,200,19,0,200,20,0,200,21,0,201,22,0,200,23,0,200,24,0,200,26,0,21,27,0,21,194,0,421,195,0,221,196,0,200,199,0,600*6A
$PAIRSAT,2,12,70,0,200,71,0,200,77,0,1,78,0,1,79,0,1,82,0,200,83,0,200,84,0,200,85,0,200,86,0,200,87,0,201,88,0,201*7F
$PAIRSAT,3,14,2,0,1000,3,0,1000,4,0,1000,13,0,21,15,0,21,21,0,221,25,0,1200,26,0,1200,27,0,1221,30,0,1200,31,0,1200,33,0,1200,34,0,1200,36,0,200*4D
$PAIRSAT,4,43,1,0,200,2,0,200,3,0,400,4,0,200,5,0,200,6,0,201,7,0,201,8,0,200,9,0,201,10,0,201,11,0,201,16,0,1,19,0,400,20,0,400,21,0,400,22,0,400,23,0,421,24,0,600,25,0,621,26,0,600,27,0,400,28,0,621,29,0,600,30,0,600,32,0,400,33,0,400,34,0,421,35,0,400,36,0,400,37,0,400,38,0,400,39,0,421,40,0,421,41,0,400,42,0,400,43,0,421,44,0,400,45,0,400,46,0,400,59,0,400,60,0,400,61,0,400,62,0,400*67
$PAIRDGP,0*45
$GNGGA,031733.100,2500.7792203,N,12132.4624470,E,4,48,0.59,16.644,M,15.25,M,1,3335*4F
$GNRMC,031733.100,A,2500.7792203,N,12132.4624470,E,0.05,269.03,090324,,,R,V*13
$GPHDT,,T*1B
$GNACCURACY,4.2*10
$GNGGA,031733.200,2500.7792204,N,12132.4624473,E,4,48,0.59,16.638,M,15.25,M,1,3335*43
$GNRMC,031733.200,A,2500.7792204,N,12132.4624473,E,0.04,269.03,090324,,,R,V*15
$GPHDT,318.632,T*38
$GNACCURACY,4.2*10
$GNGGA,031733.300,2500.7792215,N,12132.4624493,E,4,48,0.59,16.655,M,15.25,M,1,3335*47
$GNRMC,031733.300,A,2500.7792215,N,12132.4624493,E,0.04,269.03,090324,,,R,V*1A
$GPHDT,,T*1B
$GNACCURACY,4.2*10
$GNGGA,031733.400,2500.7792201,N,12132.4624450,E,4,48,0.59,16.636,M,15.25,M,1,3335*4F
$GNRMC,031733.400,A,2500.7792201,N,12132.4624450,E,0.04,269.03,090324,,,R,V*17
$GPHDT,318.977,T*36
$GNACCURACY,4.2*10
$GNGGA,031733.500,2500.7792236,N,12132.4624425,E,4,48,0.59,16.631,M,15.25,M,0,3335*4E
$GNRMC,031733.500,A,2500.7792236,N,12132.4624425,E,0.03,269.03,090324,,,R,V*17
