$FW : RTK35X,V1.1X0314AS,Lib20210517,1*54
$Tool : LOCOSYS , GNSS Firebird , v1.0.0.19*39
$---------------------------------------------------*2D
200,199,0,600*6F
$PAIRSAT,2,13,70,0,200,71,0,200,74,0,200,77,0,1,78,0,1,79,0,1,82,0,200,83,0,200,84,0,200,85,0,200,86,0,200,87,0,201,88,0,201*53
$PAIRSAT,3,15,2,0,1200,3,0,1200,4,0,1000,13,0,21,15,0,21,19,0,21,21,0,221,25,0,1200,26,0,1200,27,0,1221,30,0,1200,31,0,1200,33,0,1200,34,0,1200,36,0,1200*6A
$PAIRSAT,4,45,1,0,200,2,0,200,3,0,400,4,0,200,5,0,200,6,0,201,7,0,201,8,0,200,9,0,201,10,0,201,11,0,201,12,0,200,13,0,200,16,0,1,19,0,400,20,0,400,21,0,400,22,0,400,23,0,421,24,0,600,25,0,621,26,0,600,27,0,400,28,0,621,29,0,600,30,0,600,32,0,600,33,0,600,34,0,421,35,0,400,36,0,400,37,0,400,38,0,400,39,0,421,40,0,421,41,0,400,42,0,400,43,0,421,44,0,400,45,0,400,46,0,400,59,0,400,60,0,400,61,0,400,62,0,400*60
$PAIRDGP,0*45
$GNGGA,031836.100,2500.7792210,N,12132.4624835,E,4,48,0.61,16.688,M,15.25,M,1,3335*41
$GNRMC,031836.100,A,2500.7792210,N,12132.4624835,E,0.01,330.95,090324,,,R,V*10
$GPHDT,,T*1B
$GNACCURACY,4.4*16
$GNGGA,031836.200,2500.7792231,N,12132.4624815,E,4,48,0.61,16.693,M,15.25,M,1,3335*49
$GNRMC,031836.200,A,2500.7792231,N,12132.4624815,E,0.02,330.95,090324,,,R,V*11
$GPHDT,97.708,T*04
$GNACCURACY,4.4*16
$GNGGA,031836.300,2500.7792225,N,12132.4624824,E,4,48,0.61,16.694,M,15.25,M,1,3335*48
$GNRMC,031836.300,A,2500.7792225,N,12132.4624824,E,0.03,330.95,090324,,,R,V*16
$GPHDT,,T*1B
$GNACCURACY,4.4*16
$GNGGA,031836.400,2500.7792240,N,12132.4624831,E,4,48,0.61,16.709,M,15.25,M,1,3335*4D
$GNRMC,031836.400,A,2500.7792240,N,12132.4624831,E,0.05,330.95,090324,,,R,V*10
$GPHDT,98.125,T*02
$GNACCURACY,4.4*16
$GNGGA,031836.500,2500.7792200,N,12132.4624901,E,4,48,0.61,16.734,M,15.25,M,1,3335*44
$GNRMC,031836.500,A,2500.7792200,N,12132.4624901,E,0.03,330.95,090324,,,R,V*11
$GPHDT,,T*1B
$GNACCURACY,4.4*16
$GNGGA,031836.600,2500.7792186,N,12132.4624953,E,4,48,0.61,16.711,M,15.25,M,0,3335*4B
$GNRMC,031836.600,A,2500.7792186,N,12132.4624953,E,0.04,330.95,090324,,,R,V*1F
$GPHDT,97.816,T*04
$GNACCURACY,4.4*16
$GNGGA,031836.700,2500.7792185,N,12132.4624835,E,4,48,0.61,16.734,M,15.25,M,0,3335*4F
$GNRMC,031836.700,A,2500.7792185,N,12132.4624835,E,0.10,330.95,090324,,,R,V*19
$GPHDT,,T*1B
$GNACCURACY,4.4*16
$GNGGA,031836.800,2500.7792224,N,12132.4624897,E,4,48,0.61,16.723,M,15.25,M,0,3335*46
$GNRMC,031836.800,A,2500.7792224,N,12132.4624897,E,0.04,330.95,090324,,,R,V*13
$GPHDT,98.082,T*0E
$GNACCURACY,4.4*16
$GNGGA,031836.900,2500.7792225,N,12132.4624833,E,4,48,0.61,16.690,M,15.25,M,0,3335*41
$GNRMC,031836.900,A,2500.7792225,N,12132.4624833,E,0.11,330.95,090324,,,R,V*19
$GPHDT,,T*1B
$GNACCURACY,4.4*16
$GNGGA,031837.000,2500.7792230,N,12132.4624831,E,4,49,0.61,16.687,M,15.25,M,1,3335*49
$GNRMC,031837.000,A,2500.7792230,N,12132.4624831,E,0.09,330.95,090324,,,R,V*1E
$GPHDT,97.152,T*0D
$GNGSA,A,3,08,194,195,27,16,04,21,09,26,,,,0.93,0.61,0.70,1*0A
$GNGSA,A,3,88,78,77,87,,,,,,,,,0.93,0.61,0.70,2*08
$GNGSA,A,3,21,13,19,27,15,,,,,,,,0.93,0.61,0.70,3*01
$GNGSA,A,3,06,16,43,09,39,40,07,23,11,10,25,28,0.93,0.61,0.70,4*05
$GNGSA,A,3,34,,,,,,,,,,,,0.93,0.61,0.70,4*09
$GPGSV,4,1,15,08,72,290,44,199,66,163,,194,63,045,41,195,56,125,41,1*56
$GPGSV,4,2,15,27,54,025,42,45,47,231,35,16,37,051,44,04,35,220,31,1*60
$GPGSV,4,3,15,21,35,171,45,09,31,272,29,02,24,182,18,07,22,320,,1*63
$GPGSV,4,4,15,196,21,174,16,26,19,080,38,31,,,24,1*53
$GPGSV,2,1,07,08,72,290,41,194,63,045,43,195,56,125,40,27,54,025,43,8*6D
$GPGSV,2,2,07,04,35,220,32,09,31,272,33,26,19,080,41,8*54
$GLGSV,2,1,05,88,72,093,39,78,43,359,19,77,34,080,32,87,25,031,27,1*75
$GLGSV,2,2,05,79,09,316,17,1*48
$GAGSV,2,1,07,21,50,344,17,13,48,113,34,19,38,262,37,27,35,058,40,7*75
$GAGSV,2,2,07,15,24,052,36,26,24,176,17,20,,,35,7*74
$GAGSV,1,1,04,13,48,113,38,19,38,262,34,27,35,058,38,15,24,052,40,1*71
$GBGSV,4,1,13,06,84,233,41,16,81,186,42,43,76,076,45,09,74,308,42,1*7A
$GBGSV,4,2,13,39,70,173,45,40,67,312,38,07,63,290,31,23,58,351,32,1*74
$GBGSV,4,3,13,11,52,049,43,10,52,274,37,25,49,090,42,28,35,206,25,1*77
$GBGSV,4,4,13,34,29,042,45,1*4F
$GBGSV,2,1,07,43,76,076,43,39,70,173,43,40,67,312,37,23,58,351,33,4*72
$GBGSV,2,2,07,25,49,090,41,28,35,206,18,34,29,042,39,4*43
$GNACCURACY,4.4*16
$PAIRSAT,1,23,2,0,200,4,0,21,7,0,1,8,0,21,9,0,21,14,0,200,15,0,200,16,0,201,17,0,200,18,0,200,19,0,200,20,0,200,21,0,201,22,0,200,23,0,200,24,0,200,25,0,200,26,0,221,27,0,21,194,0,421,195,0,221,196,0,200,199,0,600*6F
$PAIRSAT,2,13,70,0,200,71,0,200,74,0,200,77,0,1,78,0,1,79,0,1,82,0,200,83,0,200,84,0,200,85,0,200,86,0,200,87,0,201,88,0,201*53
$PAIRSAT,3,15,2,0,1200,3,0,1200,4,0,1000,13,0,21,15,0,21,19,0,21,21,0,221,25,0,1200,26,0,1200,27,0,1221,30,0,1200,31,0,1200,33,0,1200,34,0,1200,36,0,1200*6A
$PAIRSAT,4,45,1,0,200,2,0,200,3,0,400,4,0,200,5,0,200,6,0,201,7,0,201,8,0,200,9,0,201,10,0,201,11,0,201,12,0,200,13,0,200,16,0,1,19,0,400,20,0,400,21,0,400,22,0,400,23,0,421,24,0,600,25,0,621,26,0,600,27,0,400,28,0,621,29,0,600,30,0,600,32,0,600,33,0,600,34,0,421,35,0,400,36,0,400,37,0,400,38,0,400,39,0,421,40,0,421,41,0,400,42,0,400,43,0,421,44,0,400,45,0,400,46,0,400,59,0,400,60,0,400,61,0,400,62,0,400*60
$PAIRDGP,0*45
$GNGGA,031837.100,2500.7792249,N,12132.4624819,E,4,49,0.61,16.690,M,15.25,M,1,3335*4A
$GNRMC,031837.100,A,2500.7792249,N,12132.4624819,E,0.06,330.95,090324,,,R,V*14
$GPHDT,,T*1B
$GNACCURACY,4.4*16
$GNGGA,031837.200,2500.7792239,N,12132.4624814,E,4,49,0.61,16.677,M,15.25,M,1,3335*4A
$GNRMC,031837.200,A,2500.7792239,N,12132.4624814,E,0.01,330.95,090324,,,R,V*1A
$GPHDT,97.284,T*05
$GNACCURACY,4.3*11
$GNGGA,031837.300,2500.7792223,N,12132.4624826,E,4,49,0.61,16.678,M,15.25,M,1,3335*4E
$GNRMC,031837.300,A,2500.7792223,N,12132.4624826,E,0.05,330.95,090324,,,R,V*15
$GPHDT,,T*1B
$GNACCURACY,4.3*11
$GNGGA,031837.400,2500.7792224,N,12132.4624829,E,4,49,0.61,16.679,M,15.25,M,1,3335*40
$GNRMC,031837.400,A,2500.7792224,N,12132.4624829,E,0.04,330.95,090324,,,R,V*1B
$GPHDT,97.335,T*0E
$GNACCURACY,4.3*11
$GNGGA,031837.500,2500.7792220,N,12132.4624821,E,4,49,0.61,16.675,M,15.25,M,1,3335*41
$GNRMC,031837.500,A,2500.7792220,N,12132.4624821,E,0.03,330.95,090324,,,R,V*11
$GPHDT,,T*1B
$GNACCURACY,4.4*16
$GNGGA,031837.600,2500.7792226,N,12132.4624814,E,4,49,0.61,16.676,M,15.25,M,0,3335*40
$GNRMC,031837.600,A,2500.7792226,N,12132.4624814,E,0.03,330.95,090324,,,R,V*12
$GPHDT,97.393,T*02
$GNACCURACY,4.4*16
$GNGGA,031837.700,2500.7792232,N,12132.4624808,E,4,49,0.61,16.681,M,15.25,M,0,3335*41
$GNRMC,031837.700,A,2500.7792232,N,12132.4624808,E,0.02,330.95,090324,,,R,V*1A
$GPHDT,,T*1B
$GNACCURACY,4.4*16
$GNGGA,031837.800,2500.7792218,N,12132.4624829,E,4,49,0.61,16.677,M,15.25,M,0,3335*4C
$GNRMC,031837.800,A,2500.7792218,N,12132.4624829,E,0.04,330.95,090324,,,R,V*18
$GPHDT,97.358,T*05
$GNACCURACY,4.4*16
$GNGGA,031837.900,2500.7792241,N,12132.4624807,E,4,49,0.61,16.674,M,15.25,M,0,3335*4E
$GNRMC,031837.900,A,2500.7792241,N,12132.4624807,E,0.05,330.95,090324,,,R,V*18
$GPHDT,,T*1B
$GNACCURACY,4.4*16
$GNGGA,031838.000,2500.7792202,N,12132.4624841,E,4,49,0.61,16.682,M,15.25,M,1,3335*45
$GNRMC,031838.000,A,2500.7792202,N,12132.4624841,E,0.04,330.95,090324,,,R,V*1A
$GPHDT,97.215,T*0D
$GNGSA,A,3,08,194,195,27,16,04,21,09,26,,,,0.93,0.61,0.70,1*0A
$GNGSA,A,3,88,78,77,87,,,,,,,,,0.93,0.61,0.70,2*08
$GNGSA,A,3,21,13,19,27,15,,,,,,,,0.93,0.61,0.70,3*01
$GNGSA,A,3,06,16,43,09,39,40,07,23,11,10,25,28,0.93,0.61,0.70,4*05
$GNGSA,A,3,34,,,,,,,,,,,,0.93,0.61,0.70,4*09
$GPGSV,4,1,15,08,72,290,46,199,66,163,,194,63,045,41,195,56,125,41,1*54
$GPGSV,4,2,15,27,54,025,42,45,47,231,34,16,37,051,44,04,35,220,27,1*66
$GPGSV,4,3,15,21,35,171,44,09,31,272,33,02,24,182,18,07,22,320,,1*69
$GPGSV,4,4,15,196,21,174,16,26,19,080,38,31,,,28,1*5F
$GPGSV,2,1,07,08,72,290,43,194,63,045,43,195,56,125,40,27,54,025,43,8*6F
$GPGSV,2,2,07,04,35,220,32,09,31,272,33,26,19,080,40,8*55
$GLGSV,2,1,05,88,72,093,39,78,43,359,21,77,34,080,32,87,25,031,30,1*78
$GLGSV,2,2,05,79,09,316,17,1*48
$GAGSV,2,1,07,21,50,344,17,13,48,113,32,19,38,262,38,27,35,058,40,7*7C
$GAGSV,2,2,07,15,24,052,37,26,24,176,18,20,,,35,7*7A
$GAGSV,1,1,04,13,48,113,38,19,38,262,35,27,35,058,38,15,24,052,40,1*70
$GBGSV,4,1,13,06,84,233,38,16,81,186,41,43,76,076,45,09,74,308,43,1*76
$GBGSV,4,2,13,39,70,173,46,40,67,312,40,07,63,290,36,23,58,351,34,1*79
$GBGSV,4,3,13,11,52,049,43,10,52,274,40,25,49,090,43,28,35,206,22,1*71
$GBGSV,4,4,13,34,29,042,45,1*4F
$GBGSV,2,1,07,43,76,076,43,39,70,173,43,40,67,312,38,23,58,351,33,4*7D
$GBGSV,2,2,07,25,49,090,41,28,35,206,19,34,29,042,38,4*43
$GNACCURACY,4.4*16
$PAIRSAT,1,23,2,0,200,4,0,21,7,0,1,8,0,21,9,0,21,14,0,200,15,0,200,16,0,201,17,0,200,18,0,200,19,0,200,20,0,200,21,0,201,22,0,200,23,0,200,24,0,200,25,0,200,26,0,221,27,0,21,194,0,421,195,0,221,196,0,200,199,0,600*6F
$PAIRSAT,2,13,70,0,200,71,0,200,74,0,200,77,0,1,78,0,1,79,0,1,82,0,200,83,0,200,84,0,200,85,0,200,86,0,200,87,0,201,88,0,201*53
$PAIRSAT,3,15,2,0,1200,3,0,1200,4,0,1000,13,0,21,15,0,21,19,0,21,21,0,221,25,0,1200,26,0,1200,27,0,1221,30,0,1200,31,0,1200,33,0,1200,34,0,1200,36,0,1200*6A
$PAIRSAT,4,45,1,0,200,2,0,200,3,0,400,4,0,200,5,0,200,6,0,201,7,0,201,8,0,200,9,0,201,10,0,201,11,0,201,12,0,200,13,0,200,16,0,1,19,0,400,20,0,400,21,0,400,22,0,400,23,0,421,24,0,600,25,0,621,26,0,600,27,0,400,28,0,621,29,0,600,30,0,600,32,0,600,33,0,600,34,0,421,35,0,400,36,0,400,37,0,400,38,0,400,39,0,421,40,0,421,41,0,400,42,0,400,43,0,421,44,0,400,45,0,400,46,0,400,59,0,400,60,0,400,61,0,400,62,0,400*60
$PAIRDGP,0*45
$GNGGA,031838.100,2500.7792224,N,12132.4624825,E,4,49,0.61,16.674,M,15.25,M,1,3335*4B
$GNRMC,031838.100,A,2500.7792224,N,12132.4624825,E,0.04,330.95,090324,,,R,V*1D
$GPHDT,,T*1B
$GNACCURACY,4.4*16
$GNGGA,031838.200,2500.7792222,N,12132.4624824,E,4,49,0.61,16.664,M,15.25,M,1,3335*4E
$GNRMC,031838.200,A,2500.7792222,N,12132.4624824,E,0.04,330.95,090324,,,R,V*19
$GPHDT,97.355,T*08
$GNACCURACY,4.4*16
$GNGGA,031838.300,2500.7792224,N,12132.4624826,E,4,49,0.61,16.672,M,15.25,M,1,3335*4C
$GNRMC,031838.300,A,2500.7792224,N,12132.4624826,E,0.03,330.95,090324,,,R,V*1B
$GPHDT,,T*1B
$GNACCURACY,4.4*16
$GNGGA,031838.400,2500.7792224,N,12132.4624826,E,4,49,0.61,16.669,M,15.25,M,1,3335*41
$GNRMC,031838.400,A,2500.7792224,N,12132.4624826,E,0.04,330.95,090324,,,R,V*1B
$GPHDT,97.057,T*09
$GNACCURACY,4.4*16
$GNGGA,031838.500,2500.7792243,N,12132.4624824,E,4,49,0.61,16.677,M,15.25,M,1,3335*4C
$GNRMC,031838.500,A,2500.7792243,N,12132.4624824,E,0.03,330.95,090324,,,R,V*1E
$GPHDT,,T*1B
$GNACCURACY,4.4*16
$GNGGA,031838.600,2500.7792248,N,12132.4624828,E,4,50,0.57,16.682,M,15.25,M,0,3335*4E
$GNRMC,031838.600,A,2500.7792248,N,12132.4624828,E,0.02,330.95,090324,,,R,V*1B
$GPHDT,97.144,T*0A
$GNACCURACY,4.4*16
$GNGGA,031838.700,2500.7792231,N,12132.4624821,E,4,50,0.57,16.678,M,15.25,M,0,3335*4D
$GNRMC,031838.700,A,2500.7792231,N,12132.4624821,E,0.04,330.95,090324,,,R,V*1B
$GPHDT,,T*1B
$GNACCURACY,4.4*16
$GNGGA,031838.800,2500.7792262,N,12132.4624817,E,4,50,0.57,16.676,M,15.25,M,0,3335*4F
$GNRMC,031838.800,A,2500.7792262,N,12132.4624817,E,0.02,330.95,090324,,,R,V*11
$GPHDT,97.508,T*06
$GNACCURACY,4.3*11
$GNGGA,031838.900,2500.7792255,N,12132.4624831,E,4,51,0.57,16.680,M,15.25,M,0,3335*46
$GNRMC,031838.900,A,2500.7792255,N,12132.4624831,E,0.04,330.95,090324,,,R,V*16
$GPHDT,,T*1B
$GNACCURACY,4.3*11
$GNGGA,031839.000,2500.7792256,N,12132.4624810,E,4,51,0.57,16.674,M,15.25,M,1,3335*44
$GNRMC,031839.000,A,2500.7792256,N,12132.4624810,E,0.03,330.95,090324,,,R,V*19
$GPHDT,97.299,T*09
$GNGSA,A,3,08,194,195,27,16,04,21,09,07,26,,,0.88,0.57,0.67,1*04
$GNGSA,A,3,88,78,77,87,,,,,,,,,0.88,0.57,0.67,2*01
$GNGSA,A,3,21,13,19,27,15,,,,,,,,0.88,0.57,0.67,3*08
$GNGSA,A,3,06,16,43,09,39,40,07,23,11,10,25,28,0.88,0.57,0.67,4*0C
$GNGSA,A,3,34,,,,,,,,,,,,0.88,0.57,0.67,4*00
$GPGSV,4,1,15,08,72,290,46,199,66,163,,194,63,045,41,195,56,125,41,1*54
$GPGSV,4,2,15,27,54,025,42,45,47,231,35,16,37,051,44,04,35,220,32,1*63
$GPGSV,4,3,15,21,35,171,43,09,31,272,32,02,24,182,18,07,22,320,24,1*69
$GPGSV,4,4,15,196,21,174,15,26,19,080,40,31,,,28,1*53
$GPGSV,2,1,07,08,72,290,43,194,63,045,43,195,56,125,38,27,54,025,43,8*60
$GPGSV,2,2,07,04,35,220,32,09,31,272,33,26,19,080,40,8*55
$GLGSV,2,1,05,88,72,093,39,78,43,359,19,77,34,080,32,87,25,031,31,1*72
$GLGSV,2,2,05,79,09,316,20,1*4C
$GAGSV,2,1,07,21,50,344,20,13,48,113,27,19,38,262,39,27,35,058,40,7*7D
$GAGSV,2,2,07,15,24,052,39,26,24,176,19,20,,,34,7*74
$GAGSV,2,1,06,21,50,344,21,13,48,113,37,19,38,262,35,27,35,058,39,1*78
$GAGSV,2,2,06,26,24,176,27,15,24,052,40,1*75
$GBGSV,4,1,13,06,84,233,38,16,81,186,41,43,76,076,45,09,74,308,43,1*76
$GBGSV,4,2,13,39,70,173,46,40,67,312,41,07,63,290,38,23,58,351,34,1*76
$GBGSV,4,3,13,11,52,049,43,10,52,274,40,25,49,090,42,28,35,206,20,1*72
$GBGSV,4,4,13,34,29,042,45,1*4F
$GBGSV,2,1,07,43,76,076,43,39,70,173,43,40,67,312,38,23,58,351,33,4*7D
$GBGSV,2,2,07,25,49,090,39,28,35,206,19,34,29,042,38,4*4C
$GNACCURACY,4.3*11
$PAIRSAT,1,23,2,0,200,4,0,21,7,0,1,8,0,21,9,0,21,14,0,200,15,0,200,16,0,201,17,0,200,18,0,200,19,0,200,20,0,200,21,0,201,22,0,200,23,0,200,24,0,200,25,0,200,26,0,221,27,0,21,194,0,421,195,0,221,196,0,200,199,0,600*6F
$PAIRSAT,2,13,70,0,200,71,0,200,74,0,200,77,0,1,78,0,1,79,0,1,82,0,200,83,0,200,84,0,200,85,0,200,86,0,200,87,0,201,88,0,201*53
$PAIRSAT,3,15,2,0,1200,3,0,1200,4,0,1000,13,0,21,15,0,21,19,0,21,21,0,221,25,0,1200,26,0,1200,27,0,1221,30,0,1200,31,0,1200,33,0,1200,34,0,1200,36,0,1200*6A
$PAIRSAT,4,45,1,0,200,2,0,200,3,0,400,4,0,200,5,0,200,6,0,201,7,0,201,8,0,200,9,0,201,10,0,201,11,0,201,12,0,200,13,0,200,16,0,1,19,0,400,20,0,400,21,0,400,22,0,400,23,0,421,24,0,600,25,0,621,26,0,600,27,0,400,28,0,621,29,0,600,30,0,600,32,0,600,33,0,600,34,0,421,35,0,400,36,0,400,37,0,400,38,0,400,39,0,421,40,0,421,41,0,400,42,0,400,43,0,421,44,0,400,45,0,400,46,0,400,59,0,400,60,0,400,61,0,400,62,0,400*60
$PAIRDGP,0*45
$GNGGA,031839.100,2500.7792238,N,12132.4624812,E,4,51,0.57,16.673,M,15.25,M,1,3335*48
$GNRMC,031839.100,A,2500.7792238,N,12132.4624812,E,0.03,330.95,090324,,,R,V*12
$GPHDT,,T*1B
$GNACCURACY,4.3*11
$GNGGA,031839.200,2500.7792229,N,12132.4624814,E,4,51,0.57,16.676,M,15.25,M,1,3335*48
$GNRMC,031839.200,A,2500.7792229,N,12132.4624814,E,0.03,330.95,090324,,,R,V*17
$GPHDT,96.875,T*00
$GNACCURACY,4.3*11
$GNGGA,031839.300,2500.7792239,N,12132.4624812,E,4,51,0.57,16.669,M,15.25,M,1,3335*40
$GNRMC,031839.300,A,2500.7792239,N,12132.4624812,E,0.03,330.95,090324,,,R,V*11
$GPHDT,,T*1B
$GNACCURACY,4.3*11
$GNGGA,031839.400,2500.7792250,N,12132.4624809,E,4,50,0.61,16.672,M,15.25,M,1,3335*4C
$GNRMC,031839.400,A,2500.7792250,N,12132.4624809,E,0.04,330.95,090324,,,R,V*14
$GPHDT,97.154,T*0B
$GNACCURACY,4.3*11
$GNGGA,031839.500,2500.7792242,N,12132.4624815,E,4,50,0.61,16.680,M,15.25,M,1,3335*4E
$GNRMC,031839.500,A,2500.7792242,N,12132.4624815,E,0.03,330.95,090324,,,R,V*1C
$GPHDT,,T*1B
$GNACCURACY,4.3*11
$GNGGA,031839.600,2500.7792244,N,12132.4624808,E,4,50,0.61,16.667,M,15.25,M,1,3335*4E
$GNRMC,031839.600,A,2500.7792244,N,12132.4624808,E,0.08,330.95,090324,,,R,V*1E
$GPHDT,97.098,T*0A
$GNACCURACY,4.3*11
$GNGGA,031839.700,2500.7792198,N,12132.4624814,E,4,50,0.61,16.678,M,15.25,M,0,3335*4F
$GNRMC,031839.700,A,2500.7792198,N,12132.4624814,E,0.07,330.95,090324,,,R,V*1F
$GPHDT,,T*1B
$GNACCURACY,4.3*11
$GNGGA,031839.800,2500.7792222,N,12132.4624802,E,4,50,0.61,16.676,M,15.25,M,0,3335*4B
$GNRMC,031839.800,A,2500.7792222,N,12132.4624802,E,0.02,330.95,090324,,,R,V*10
$GPHDT,97.192,T*01
$GNACCURACY,4.5*17
$GNGGA,031839.900,2500.7792214,N,12132.4624818,E,4,51,0.57,16.675,M,15.25,M,0,3335*43
$GNRMC,031839.900,A,2500.7792214,N,12132.4624818,E,0.06,330.95,090324,,,R,V*1B
$GPHDT,,T*1B
$GNACCURACY,4.5*17
$GNGGA,031840.000,2500.7792213,N,12132.4624821,E,4,51,0.57,16.679,M,15.25,M,1,3335*44
$GNRMC,031840.000,A,2500.7792213,N,12132.4624821,E,0.05,330.95,090324,,,R,V*12
$GPHDT,96.946,T*01
$GNGSA,A,3,08,194,195,27,16,04,21,09,07,26,,,0.88,0.57,0.67,1*04
$GNGSA,A,3,88,78,77,87,,,,,,,,,0.88,0.57,0.67,2*01
$GNGSA,A,3,21,13,19,27,15,,,,,,,,0.88,0.57,0.67,3*08
$GNGSA,A,3,06,16,43,09,39,40,07,23,11,10,25,28,0.88,0.57,0.67,4*0C
$GNGSA,A,3,34,,,,,,,,,,,,0.88,0.57,0.67,4*00
$GPGSV,4,1,15,08,72,290,46,199,66,163,,194,63,045,41,195,56,125,41,1*54
$GPGSV,4,2,15,27,54,025,42,45,47,231,36,16,37,051,44,04,35,220,32,1*60
$GPGSV,4,3,15,21,35,171,43,09,31,272,33,02,24,182,18,07,22,320,20,1*6C
$GPGSV,4,4,15,196,21,174,14,26,19,080,40,31,,,28,1*52
$GPGSV,2,1,07,08,72,290,43,194,63,045,43,195,56,125,39,27,54,025,43,8*61
$GPGSV,2,2,07,04,35,220,34,09,31,272,35,26,19,080,41,8*54
$GLGSV,2,1,05,88,72,093,39,78,43,359,17,77,34,080,30,87,25,031,28,1*76
$GLGSV,2,2,05,79,09,316,20,1*4C
$GAGSV,2,1,07,21,50,344,21,13,48,113,28,19,38,262,39,27,35,058,40,7*73
$GAGSV,2,2,07,15,24,052,39,26,24,176,19,20,,,35,7*75
$GAGSV,2,1,06,21,50,344,21,13,48,113,37,19,38,262,35,27,35,058,39,1*78
$GAGSV,2,2,06,26,24,176,26,15,24,052,40,1*74
$GBGSV,4,1,13,06,84,233,38,16,81,186,41,43,76,076,45,09,74,308,43,1*76
$GBGSV,4,2,13,39,70,173,46,40,67,312,41,07,63,291,38,23,58,351,33,1*70
$GBGSV,4,3,13,11,52,049,43,10,52,274,40,25,49,090,42,28,35,206,20,1*72
$GBGSV,4,4,13,34,29,042,46,1*4C
$GBGSV,2,1,07,43,76,076,43,39,70,173,44,40,67,312,38,23,58,351,34,4*7D
$GBGSV,2,2,07,25,49,090,39,28,35,206,22,34,29,042,39,4*45
$GNACCURACY,4.5*17
$PAIRSAT,1,23,2,0,200,4,0,21,7,0,1,8,0,21,9,0,21,14,0,200,15,0,200,16,0,201,17,0,200,18,0,200,19,0,200,20,0,200,21,0,201,22,0,200,23,0,200,24,0,200,25,0,200,26,0,221,27,0,21,194,0,421,195,0,221,196,0,200,199,0,600*6F
$PAIRSAT,2,13,70,0,200,71,0,200,74,0,200,77,0,1,78,0,1,79,0,1,82,0,200,83,0,200,84,0,200,85,0,200,86,0,200,87,0,201,88,0,201*53
$PAIRSAT,3,15,2,0,1200,3,0,1200,4,0,1000,13,0,21,15,0,21,19,0,21,21,0,221,25,0,1200,26,0,1200,27,0,1221,30,0,1200,31,0,1200,33,0,1200,34,0,1200,36,0,1200*6A
$PAIRSAT,4,45,1,0,200,2,0,200,3,0,400,4,0,200,5,0,200,6,0,201,7,0,201,8,0,200,9,0,201,10,0,201,11,0,201,12,0,200,13,0,200,16,0,1,19,0,400,20,0,400,21,0,400,22,0,400,23,0,421,24,0,600,25,0,621,26,0,600,27,0,400,28,0,621,29,0,600,30,0,600,32,0,600,33,0,600,34,0,421,35,0,400,36,0,400,37,0,400,38,0,400,39,0,421,40,0,421,41,0,400,42,0,400,43,0,421,44,0,400,45,0,400,46,0,400,59,0,400,60,0,400,61,0,400,62,0,400*60
$PAIRDGP,0*45
$GNGGA,031840.100,2500.7792245,N,12132.4624801,E,4,51,0.57,16.676,M,15.25,M,1,3335*4B
$GNRMC,031840.100,A,2500.7792245,N,12132.4624801,E,0.04,330.95,090324,,,R,V*13
$GPHDT,,T*1B
$GNACCURACY,4.5*17
$GNGGA,031840.200,2500.7792233,N,12132.4624793,E,4,51,0.57,16.671,M,15.25,M,1,3335*4A
$GNRMC,031840.200,A,2500.7792233,N,12132.4624793,E,0.05,330.95,090324,,,R,V*14
$GPHDT,97.242,T*0F
$GNACCURACY,4.5*17
$GNGGA,031840.300,2500.7792227,N,12132.4624790,E,4,51,0.57,16.673,M,15.25,M,1,3335*4F
$GNRMC,031840.300,A,2500.7792227,N,12132.4624790,E,0.02,330.95,090324,,,R,V*14
$GPHDT,,T*1B
$GNACCURACY,4.5*17
$GNGGA,031840.400,2500.7792216,N,12132.4624789,E,4,50,0.57,16.667,M,15.25,M,1,3335*46
$GNRMC,031840.400,A,2500.7792216,N,12132.4624789,E,0.04,330.95,090324,,,R,V*1F
$GPHDT,97.013,T*09
$GNACCURACY,4.5*17
$GNGGA,031840.500,2500.7792229,N,12132.4624848,E,4,50,0.57,16.691,M,15.25,M,0,3335*41
$GNRMC,031840.500,A,2500.7792229,N,12132.4624848,E,0.01,330.95,090324,,,R,V*15
$GPHDT,,T*1B
$GNACCURACY,4.5*17
$GNGGA,031840.600,2500.7792211,N,12132.4624824,E,4,50,0.57,16.684,M,15.25,M,0,3335*47
$GNRMC,031840.600,A,2500.7792211,N,12132.4624824,E,0.01,330.95,090324,,,R,V*17
$GPHDT,96.571,T*09
$GNACCURACY,4.4*16
$GNGGA,031840.700,2500.7792212,N,12132.4624821,E,4,50,0.57,16.673,M,15.25,M,0,3335*48
$GNRMC,031840.700,A,2500.7792212,N,12132.4624821,E,0.06,330.95,090324,,,R,V*17
$GPHDT,,T*1B
$GNACCURACY,4.4*16
$GNGGA,031840.800,2500.7792224,N,12132.4624849,E,4,50,0.57,16.692,M,15.25,M,0,3335*43
$GNRMC,031840.800,A,2500.7792224,N,12132.4624849,E,0.04,330.95,090324,,,R,V*11
$GPHDT,96.986,T*0D
$GNACCURACY,4.4*16
$GNGGA,031840.900,2500.7792220,N,12132.4624808,E,4,50,0.57,16.676,M,15.25,M,0,3335*49
$GNRMC,031840.900,A,2500.7792220,N,12132.4624808,E,0.05,330.95,090324,,,R,V*10
$GPHDT,,T*1B
$GNACCURACY,4.4*16
$GNGGA,031841.000,2500.7792229,N,12132.4624815,E,4,50,0.57,16.679,M,15.25,M,1,3335*4A
$GNRMC,031841.000,A,2500.7792229,N,12132.4624815,E,0.04,330.95,090324,,,R,V*1C
$GPHDT,96.664,T*0E
$GNGSA,A,3,08,194,195,27,16,04,21,09,07,26,,,0.88,0.57,0.67,1*04
$GNGSA,A,3,88,78,77,87,,,,,,,,,0.88,0.57,0.67,2*01
$GNGSA,A,3,21,13,19,27,15,,,,,,,,0.88,0.57,0.67,3*08
$GNGSA,A,3,06,16,43,09,39,40,07,23,11,10,25,34,0.88,0.57,0.67,4*01
$GNGSA,A,3,28,,,,,,,,,,,,0.88,0.57,0.67,4*0D
$GPGSV,4,1,15,08,72,290,46,199,66,163,,194,63,045,41,195,56,125,41,1*54
$GPGSV,4,2,15,27,54,025,42,45,47,231,36,16,37,051,44,04,35,220,32,1*60
$GPGSV,4,3,15,21,35,171,43,09,31,272,32,02,24,182,18,07,22,320,24,1*69
$GPGSV,4,4,15,196,21,174,14,26,19,080,40,31,,,28,1*52
$GPGSV,2,1,07,08,72,290,43,194,63,045,43,195,56,125,38,27,54,025,43,8*60
$GPGSV,2,2,07,04,35,220,33,09,31,272,35,26,19,080,41,8*53
$GLGSV,2,1,05,88,72,093,39,78,43,359,17,77,34,080,30,87,25,031,29,1*77
$GLGSV,2,2,05,79,09,316,20,1*4C
$GAGSV,2,1,07,21,50,344,21,13,48,113,27,19,38,262,39,27,35,058,40,7*7C
$GAGSV,2,2,07,15,24,052,39,26,24,176,21,20,,,34,7*7F
$GAGSV,2,1,06,21,50,344,22,13,48,113,37,19,38,262,35,27,35,058,40,1*75
$GAGSV,2,2,06,26,24,176,26,15,24,052,40,1*74
$GBGSV,4,1,13,06,84,233,38,16,81,186,42,43,76,076,45,09,74,308,43,1*75
$GBGSV,4,2,13,39,70,173,46,40,67,312,41,07,63,291,39,23,58,351,32,1*70
$GBGSV,4,3,13,11,52,049,43,10,52,274,40,25,49,090,42,28,35,206,18,1*79
$GBGSV,4,4,13,34,29,042,46,1*4C
$GBGSV,2,1,07,43,76,076,43,39,70,173,44,40,67,312,38,23,58,351,34,4*7D
$GBGSV,2,2,07,25,49,090,39,28,35,206,22,34,29,042,39,4*45
$GNACCURACY,4.4*16
$PAIRSAT,1,23,2,0,200,4,0,21,7,0,1,8,0,21,9,0,21,14,0,200,15,0,200,16,0,201,17,0,200,18,0,200,19,0,200,20,0,200,21,0,201,22,0,200,23,0,200,24,0,200,25,0,200,26,0,221,27,0,21,194,0,421,195,0,221,196,0,200,199,0,600*6F
$PAIRSAT,2,13,70,0,200,71,0,200,74,0,200,77,0,1,78,0,1,79,0,1,82,0,200,83,0,200,84,0,200,85,0,200,86,0,200,87,0,201,88,0,201*53
$PAIRSAT,3,15,2,0,1200,3,0,1200,4,0,1000,13,0,21,15,0,21,19,0,21,21,0,221,25,0,1200,26,0,1200,27,0,1221,30,0,1200,31,0,1200,33,0,1200,34,0,1200,36,0,1200*6A
$PAIRSAT,4,45,1,0,200,2,0,200,3,0,400,4,0,200,5,0,200,6,0,201,7,0,201,8,0,200,9,0,201,10,0,201,11,0,201,12,0,200,13,0,200,16,0,1,19,0,400,20,0,400,21,0,400,22,0,400,23,0,421,24,0,600,25,0,621,26,0,600,27,0,400,28,0,621,29,0,600,30,0,600,32,0,600,33,0,600,34,0,421,35,0,400,36,0,400,37,0,400,38,0,400,39,0,421,40,0,421,41,0,400,42,0,400,43,0,421,44,0,400,45,0,400,46,0,400,59,0,400,60,0,400,61,0,400,62,0,400*60
$PAIRDGP,0*45
$GNGGA,031841.100,2500.7792217,N,12132.4624827,E,4,50,0.57,16.676,M,15.25,M,1,3335*48
$GNRMC,031841.100,A,2500.7792217,N,12132.4624827,E,0.03,330.95,090324,,,R,V*16
$GPHDT,,T*1B
$GNACCURACY,4.4*16
$GNGGA,031841.200,2500.7792233,N,12132.4624804,E,4,50,0.57,16.674,M,15.25,M,1,3335*4E
$GNRMC,031841.200,A,2500.7792233,N,12132.4624804,E,0.02,330.95,090324,,,R,V*13
$GPHDT,96.455,T*0E
$GNACCURACY,4.4*16
$GNGGA,031841.300,2500.7792221,N,12132.4624798,E,4,50,0.57,16.669,M,15.25,M,1,3335*4A
$GNRMC,031841.300,A,2500.7792221,N,12132.4624798,E,0.03,330.95,090324,,,R,V*1A
$GPHDT,,T*1B
$GNACCURACY,4.4*16
$GNGGA,031841.400,2500.7792236,N,12132.4624827,E,4,50,0.57,16.685,M,15.25,M,1,3335*42
$GNRMC,031841.400,A,2500.7792236,N,12132.4624827,E,0.03,330.95,090324,,,R,V*10
$GPHDT,96.777,T*0D
$GNACCURACY,4.4*16
$GNGGA,031841.500,2500.7792247,N,12132.4624820,E,4,50,0.57,16.678,M,15.25,M,1,3335*40
$GNRMC,031841.500,A,2500.7792247,N,12132.4624820,E,0.03,330.95,090324,,,R,V*10
$GPHDT,,T*1B
$GNACCURACY,4.4*16
$GNGGA,031841.600,2500.7792234,N,12132.4624830,E,4,50,0.57,16.682,M,15.25,M,0,3335*42
$GNRMC,031841.600,A,2500.7792234,N,12132.4624830,E,0.04,330.95,090324,,,R,V*11
$GPHDT,96.433,T*0E
$GNACCURACY,4.4*16
$GNGGA,031841.700,2500.7792218,N,12132.4624816,E,4,50,0.57,16.678,M,15.25,M,0,3335*4C
$GNRMC,031841.700,A,2500.7792218,N,12132.4624816,E,0.05,330.95,090324,,,R,V*1B
$GPHDT,,T*1B
$GNACCURACY,4.4*16
$GNGGA,031841.800,2500.7792229,N,12132.4624839,E,4,50,0.57,16.688,M,15.25,M,0,3335*43
$GNRMC,031841.800,A,2500.7792229,N,12132.4624839,E,0.01,330.95,090324,,,R,V*1F
$GPHDT,96.440,T*0A
$GNACCURACY,4.4*16
$GNGGA,031841.900,2500.7792266,N,12132.4624781,E,4,50,0.57,16.671,M,15.25,M,0,3335*43
$GNRMC,031841.900,A,2500.7792266,N,12132.4624781,E,0.05,330.95,090324,,,R,V*1D
$GPHDT,,T*1B
$GNACCURACY,4.4*16
$GNGGA,031842.000,2500.7792225,N,12132.4624820,E,4,50,0.57,16.679,M,15.25,M,1,3335*43
$GNRMC,031842.000,A,2500.7792225,N,12132.4624820,E,0.04,330.95,090324,,,R,V*15
$GPHDT,96.199,T*0B
$GNGSA,A,3,08,194,195,27,16,04,21,09,07,26,,,0.88,0.57,0.67,1*04
$GNGSA,A,3,88,78,77,87,,,,,,,,,0.88,0.57,0.67,2*01
$GNGSA,A,3,21,13,19,27,15,,,,,,,,0.88,0.57,0.67,3*08
$GNGSA,A,3,06,16,43,09,39,40,07,23,11,10,25,34,0.88,0.57,0.67,4*01
$GNGSA,A,3,28,,,,,,,,,,,,0.88,0.57,0.67,4*0D
$GPGSV,4,1,15,08,72,290,46,199,66,163,,194,63,045,41,195,56,125,41,1*54
$GPGSV,4,2,15,27,54,025,42,45,47,231,36,16,37,051,44,04,35,220,32,1*60
$GPGSV,4,3,15,21,35,171,43,09,31,272,32,02,24,182,18,07,22,320,25,1*68
$GPGSV,4,4,15,196,21,174,14,26,19,080,40,31,,,29,1*53
$GPGSV,2,1,07,08,72,290,43,194,63,045,43,195,56,125,38,27,54,025,43,8*60
$GPGSV,2,2,07,04,35,220,33,09,31,272,35,26,19,080,41,8*53
$GLGSV,2,1,05,88,72,093,39,78,43,359,18,77,34,080,30,87,25,031,27,1*76
$GLGSV,2,2,05,79,09,316,21,1*4D
$GAGSV,2,1,07,21,50,344,20,13,48,113,26,19,38,262,39,27,35,058,40,7*7C
$GAGSV,2,2,07,15,24,052,40,26,24,176,21,20,,,35,7*70
$GAGSV,2,1,06,21,50,344,21,13,48,113,37,19,38,262,35,27,35,058,40,1*76
$GAGSV,2,2,06,26,24,176,25,15,24,052,40,1*77
$GBGSV,4,1,13,06,84,233,38,16,81,186,42,43,76,076,45,09,74,308,43,1*75
$GBGSV,4,2,13,39,70,173,46,40,67,312,41,07,63,291,39,23,58,352,32,1*73
$GBGSV,4,3,13,11,52,049,42,10,52,274,40,25,49,091,42,28,35,206,17,1*76
$GBGSV,4,4,13,34,29,042,46,1*4C
$GBGSV,2,1,07,43,76,076,43,39,70,173,44,40,67,312,38,23,58,352,34,4*7E
$GBGSV,2,2,07,25,49,091,40,28,35,206,22,34,29,042,40,4*44
$GNACCURACY,4.4*16
$PAIRSAT,1,24,2,0,200,3,0,200,4,0,21,7,0,1,8,0,21,9,0,21,14,0,200,15,0,200,16,0,201,17,0,200,18,0,200,19,0,200,20,0,200,21,0,201,22,0,200,23,0,200,24,0,200,25,0,200,26,0,221,27,0,21,194,0,421,195,0,221,196,0,200,199,0,600*75
$PAIRSAT,2,13,70,0,200,71,0,200,74,0,200,77,0,1,78,0,1,79,0,1,82,0,200,83,0,200,84,0,200,85,0,200,86,0,200,87,0,201,88,0,201*53
$PAIRSAT,3,15,2,0,1200,3,0,1200,4,0,1000,13,0,21,15,0,21,19,0,21,21,0,221,25,0,1200,26,0,1200,27,0,1221,30,0,1200,31,0,1200,33,0,1200,34,0,1200,36,0,1200*6A
$PAIRSAT,4,45,1,0,200,2,0,200,3,0,400,4,0,200,5,0,200,6,0,201,7,0,201,8,0,200,9,0,201,10,0,201,11,0,201,12,0,200,13,0,200,16,0,1,19,0,400,20,0,400,21,0,400,22,0,400,23,0,421,24,0,600,25,0,621,26,0,600,27,0,400,28,0,621,29,0,600,30,0,600,32,0,600,33,0,600,34,0,421,35,0,400,36,0,400,37,0,400,38,0,400,39,0,421,40,0,421,41,0,400,42,0,400,43,0,421,44,0,400,45,0,400,46,0,400,59,0,400,60,0,400,61,0,400,62,0,400*60
$PAIRDGP,0*45
$GNGGA,031842.100,2500.7792240,N,12132.4624811,E,4,50,0.57,16.680,M,15.25,M,1,3335*45
$GNRMC,031842.100,A,2500.7792240,N,12132.4624811,E,0.03,330.95,090324,,,R,V*12
$GPHDT,,T*1B
$GNACCURACY,4.4*16
$GNGGA,031842.200,2500.7792227,N,12132.4624838,E,4,50,0.57,16.677,M,15.25,M,1,3335*44
$GNRMC,031842.200,A,2500.7792227,N,12132.4624838,E,0.04,330.95,090324,,,R,V*1C
$GPHDT,96.421,T*0D
$GNACCURACY,4.4*16
$GNGGA,031842.300,2500.7792247,N,12132.4624801,E,4,50,0.57,16.670,M,15.25,M,1,3335*4E
$GNRMC,031842.300,A,2500.7792247,N,12132.4624801,E,0.04,330.95,090324,,,R,V*11
$GPHDT,,T*1B
$GNACCURACY,4.4*16
$GNGGA,031842.400,2500.7792253,N,12132.4624819,E,4,50,0.57,16.689,M,15.25,M,1,3335*43
$GNRMC,031842.400,A,2500.7792253,N,12132.4624819,E,0.03,330.95,090324,,,R,V*1D
$GPHDT,96.184,T*07
$GNACCURACY,4.4*16
$GNGGA,031842.500,2500.7792256,N,12132.4624820,E,4,50,0.57,16.690,M,15.25,M,1,3335*45
$GNRMC,031842.500,A,2500.7792256,N,12132.4624820,E,0.03,330.95,090324,,,R,V*13
$GPHDT,,T*1B
$GNACCURACY,4.4*16
$GNGGA,031842.600,2500.7792265,N,12132.4624826,E,4,50,0.57,16.688,M,15.25,M,1,3335*49
$GNRMC,031842.600,A,2500.7792265,N,12132.4624826,E,0.02,330.95,090324,,,R,V*17
$GPHDT,96.337,T*0D
$GNACCURACY,4.4*16
$GNGGA,031842.700,2500.7792249,N,12132.4624798,E,4,50,0.57,16.665,M,15.25,M,0,3335*4E
$GNRMC,031842.700,A,2500.7792249,N,12132.4624798,E,0.02,330.95,090324,,,R,V*12
$GPHDT,,T*1B
$GNACCURACY,4.4*16
$GNGGA,031842.800,2500.7792271,N,12132.4624784,E,4,50,0.57,16.655,M,15.25,M,0,3335*44
$GNRMC,031842.800,A,2500.7792271,N,12132.4624784,E,0.02,330.95,090324,,,R,V*1B
$GPHDT,96.277,T*08
$GNACCURACY,4.4*16
$GNGGA,031842.900,2500.7792272,N,12132.4624783,E,4,50,0.57,16.664,M,15.25,M,0,3335*43
$GNRMC,031842.900,A,2500.7792272,N,12132.4624783,E,0.07,330.95,090324,,,R,V*1B
$GPHDT,,T*1B
$GNACCURACY,4.4*16
$GNGGA,031843.000,2500.7792258,N,12132.4624797,E,4,50,0.57,16.658,M,15.25,M,1,3335*48
$GNRMC,031843.000,A,2500.7792258,N,12132.4624797,E,0.04,330.95,090324,,,R,V*1D
$GPHDT,96.139,T*01
$GNGSA,A,3,08,194,195,27,16,04,21,09,07,26,,,0.88,0.57,0.67,1*04
$GNGSA,A,3,88,78,77,87,,,,,,,,,0.88,0.57,0.67,2*01
$GNGSA,A,3,21,13,19,27,15,,,,,,,,0.88,0.57,0.67,3*08
$GNGSA,A,3,06,16,43,09,39,40,07,23,11,10,25,34,0.88,0.57,0.67,4*01
$GNGSA,A,3,28,,,,,,,,,,,,0.88,0.57,0.67,4*0D
$GPGSV,4,1,15,08,72,290,46,199,66,163,,194,63,045,41,195,56,125,41,1*54
$GPGSV,4,2,15,27,54,025,42,45,47,231,37,16,37,051,44,04,35,220,32,1*61
$GPGSV,4,3,15,21,35,171,43,09,31,272,31,02,24,182,18,07,22,320,25,1*6B
$GPGSV,4,4,15,196,21,174,13,26,19,080,41,31,,,29,1*55
$GPGSV,2,1,07,08,72,290,43,194,63,045,43,195,56,125,38,27,54,025,43,8*60
$GPGSV,2,2,07,04,35,220,32,09,31,272,35,26,19,080,41,8*52
$GLGSV,2,1,05,88,72,093,39,78,43,359,18,77,34,080,29,87,25,031,28,1*71
$GLGSV,2,2,05,79,09,316,20,1*4C
$GAGSV,2,1,07,21,50,344,20,13,48,113,28,19,38,262,39,27,35,058,40,7*72
$GAGSV,2,2,07,15,24,052,40,26,24,176,21,20,,,34,7*71
$GAGSV,2,1,06,21,50,344,23,13,48,113,37,19,38,262,35,27,35,058,40,1*74
$GAGSV,2,2,06,26,24,176,27,15,24,052,40,1*75
$GBGSV,4,1,13,06,84,233,38,16,81,186,42,43,76,076,45,09,74,308,43,1*75
$GBGSV,4,2,13,39,70,173,46,40,67,312,41,07,63,291,39,23,58,352,32,1*73
$GBGSV,4,3,13,11,52,049,42,10,52,274,40,25,49,091,42,28,35,206,17,1*76
$GBGSV,4,4,13,34,29,042,46,1*4C
$GBGSV,2,1,07,43,76,076,43,39,70,173,44,40,67,312,38,23,58,352,34,4*7E
$GBGSV,2,2,07,25,49,091,40,28,35,206,23,34,29,042,40,4*45
$GNACCURACY,4.4*16
$PAIRSAT,1,24,2,0,200,3,0,200,4,0,21,7,0,1,8,0,21,9,0,21,14,0,200,15,0,200,16,0,201,17,0,200,18,0,200,19,0,200,20,0,200,21,0,201,22,0,200,23,0,200,24,0,200,25,0,200,26,0,221,27,0,21,194,0,421,195,0,221,196,0,200,199,0,600*75
$PAIRSAT,2,13,70,0,200,71,0,200,74,0,200,77,0,1,78,0,1,79,0,1,82,0,200,83,0,200,84,0,200,85,0,200,86,0,200,87,0,201,88,0,201*53
$PAIRSAT,3,15,2,0,1200,3,0,1200,4,0,1000,13,0,21,15,0,21,19,0,21,21,0,221,25,0,1200,26,0,1200,27,0,1221,30,0,1200,31,0,1200,33,0,1200,34,0,1200,36,0,1200*6A
$PAIRSAT,4,45,1,0,200,2,0,200,3,0,400,4,0,200,5,0,200,6,0,201,7,0,201,8,0,200,9,0,201,10,0,201,11,0,201,12,0,200,13,0,200,16,0,1,19,0,400,20,0,400,21,0,400,22,0,400,23,0,421,24,0,600,25,0,621,26,0,600,27,0,400,28,0,621,29,0,600,30,0,600,32,0,600,33,0,600,34,0,421,35,0,400,36,0,400,37,0,400,38,0,400,39,0,421,40,0,421,41,0,400,42,0,400,43,0,421,44,0,400,45,0,400,46,0,400,59,0,400,60,0,400,61,0,400,62,0,400*60
$PAIRDGP,0*45
$GNGGA,031843.100,2500.7792269,N,12132.4624798,E,4,50,0.57,16.662,M,15.25,M,1,3335*4D
$GNRMC,031843.100,A,2500.7792269,N,12132.4624798,E,0.02,330.95,090324,,,R,V*17
$GPHDT,,T*1B
$GNACCURACY,4.4*16
$GNGGA,031843.200,2500.7792277,N,12132.4624792,E,4,50,0.57,16.664,M,15.25,M,1,3335*4D
$GNRMC,031843.200,A,2500.7792277,N,12132.4624792,E,0.04,330.95,090324,,,R,V*17
$GPHDT,96.380,T*01
$GNACCURACY,4.4*16
$GNGGA,031843.300,2500.7792270,N,12132.4624786,E,4,50,0.57,16.659,M,15.25,M,1,3335*40
$GNRMC,031843.300,A,2500.7792270,N,12132.4624786,E,0.03,330.95,090324,,,R,V*13
$GPHDT,,T*1B
$GNACCURACY,4.4*16
$GNGGA,031843.400,2500.7792272,N,12132.4624810,E,4,50,0.57,16.664,M,15.25,M,1,3335*4B
$GNRMC,031843.400,A,2500.7792272,N,12132.4624810,E,0.03,330.95,090324,,,R,V*16
$GPHDT,96.362,T*0D
$GNACCURACY,4.4*16
$GNGGA,031843.500,2500.7792286,N,12132.4624809,E,4,50,0.57,16.671,M,15.25,M,1,3335*4D
$GNRMC,031843.500,A,2500.7792286,N,12132.4624809,E,0.02,330.95,090324,,,R,V*15
$GPHDT,,T*1B
$GNACCURACY,4.4*16
$GNGGA,031843.600,2500.7792247,N,12132.4624824,E,4,50,0.57,16.692,M,15.25,M,0,3335*40
$GNRMC,031843.600,A,2500.7792247,N,12132.4624824,E,0.01,330.95,090324,,,R,V*17
$GPHDT,96.074,T*09
$GNACCURACY,4.4*16
$GNGGA,031843.700,2500.7792261,N,12132.4624830,E,4,50,0.57,16.699,M,15.25,M,0,3335*4B
$GNRMC,031843.700,A,2500.7792261,N,12132.4624830,E,0.01,330.95,090324,,,R,V*17
$GPHDT,,T*1B
$GNACCURACY,4.4*16
$GNGGA,031843.800,2500.7792254,N,12132.4624812,E,4,50,0.57,16.687,M,15.25,M,0,3335*4D
$GNRMC,031843.800,A,2500.7792254,N,12132.4624812,E,0.05,330.95,090324,,,R,V*1A
$GPHDT,96.055,T*0A
$GNACCURACY,4.4*16
$GNGGA,031843.900,2500.7792245,N,12132.4624837,E,4,50,0.57,16.696,M,15.25,M,0,3335*4B
$GNRMC,031843.900,A,2500.7792245,N,12132.4624837,E,0.04,330.95,090324,,,R,V*1D
$GPHDT,,T*1B
$GNACCURACY,4.4*16
$GNGGA,031844.000,2500.7792263,N,12132.4624817,E,4,50,0.57,16.690,M,15.25,M,1,3335*44
$GNRMC,031844.000,A,2500.7792263,N,12132.4624817,E,0.03,330.95,090324,,,R,V*12
$GPHDT,96.012,T*09
$GNGSA,A,3,08,194,195,27,16,04,21,09,07,26,,,0.88,0.57,0.67,1*04
$GNGSA,A,3,88,78,77,87,,,,,,,,,0.88,0.57,0.67,2*01
$GNGSA,A,3,21,13,19,27,15,,,,,,,,0.88,0.57,0.67,3*08
$GNGSA,A,3,06,16,43,09,39,40,07,23,11,10,25,34,0.88,0.57,0.67,4*01
$GNGSA,A,3,28,,,,,,,,,,,,0.88,0.57,0.67,4*0D
$GPGSV,4,1,15,08,72,290,46,199,66,163,,194,63,045,41,195,56,125,41,1*54
$GPGSV,4,2,15,27,54,025,42,45,47,231,37,16,37,051,44,04,35,220,33,1*60
$GPGSV,4,3,15,21,35,171,43,09,31,272,32,02,24,182,18,07,22,320,24,1*69
$GPGSV,4,4,15,196,21,174,13,26,19,080,41,31,,,29,1*55
$GPGSV,2,1,07,08,72,290,43,194,63,045,43,195,56,125,38,27,54,025,43,8*60
$GPGSV,2,2,07,04,35,220,32,09,31,272,35,26,19,080,41,8*52
$GLGSV,2,1,05,88,72,093,39,78,43,359,20,77,34,080,29,87,25,031,26,1*74
$GLGSV,2,2,05,79,09,316,18,1*47
$GAGSV,2,1,07,21,50,344,19,13,48,113,28,19,38,262,39,27,35,058,40,7*78
$GAGSV,2,2,07,15,24,052,40,26,24,176,22,20,,,34,7*72
$GAGSV,2,1,06,21,50,344,21,13,48,113,37,19,38,262,35,27,35,058,40,1*76
$GAGSV,2,2,06,26,24,176,25,15,24,052,40,1*77
$GBGSV,4,1,13,06,84,233,38,16,81,186,42,43,76,075,45,09,74,308,43,1*76
$GBGSV,4,2,13,39,70,173,46,40,67,312,41,07,63,291,39,23,58,352,32,1*73
$GBGSV,4,3,13,11,52,049,42,10,52,274,40,25,49,091,42,28,35,206,17,1*76
$GBGSV,4,4,13,34,29,042,46,1*4C
$GBGSV,2,1,07,43,76,075,43,39,70,173,44,40,67,312,37,23,58,352,34,4*72
$GBGSV,2,2,07,25,49,091,40,28,35,206,22,34,29,042,39,4*4A
$GNACCURACY,4.4*16
$PAIRSAT,1,24,2,0,200,3,0,200,4,0,21,7,0,1,8,0,21,9,0,21,14,0,200,15,0,200,16,0,201,17,0,200,18,0,200,19,0,200,20,0,200,21,0,201,22,0,200,23,0,200,24,0,200,25,0,200,26,0,221,27,0,21,194,0,421,195,0,221,196,0,200,199,0,600*75
$PAIRSAT,2,14,70,0,200,71,0,200,74,0,200,75,0,200,77,0,1,78,0,1,79,0,1,82,0,200,83,0,200,84,0,200,85,0,200,86,0,200,87,0,201,88,0,201*78
$PAIRSAT,3,15,2,0,1200,3,0,1200,4,0,1000,13,0,21,15,0,21,19,0,21,21,0,221,25,0,1200,26,0,1200,27,0,1221,30,0,1200,31,0,1200,33,0,1200,34,0,1200,36,0,1200*6A
$PAIRSAT,4,45,1,0,200,2,0,200,3,0,400,4,0,200,5,0,200,6,0,201,7,0,201,8,0,200,9,0,201,10,0,201,11,0,201,12,0,200,13,0,200,16,0,1,19,0,400,20,0,400,21,0,400,22,0,400,23,0,421,24,0,600,25,0,621,26,0,600,27,0,400,28,0,621,29,0,600,30,0,600,32,0,600,33,0,600,34,0,421,35,0,400,36,0,400,37,0,400,38,0,400,39,0,421,40,0,421,41,0,400,42,0,400,43,0,421,44,0,400,45,0,400,46,0,400,59,0,400,60,0,400,61,0,400,62,0,400*60
$PAIRDGP,0*45
$GNGGA,031844.100,2500.7792261,N,12132.4624812,E,4,50,0.57,16.685,M,15.25,M,1,3335*46
$GNRMC,031844.100,A,2500.7792261,N,12132.4624812,E,0.04,330.95,090324,,,R,V*13
$GPHDT,,T*1B
$GNACCURACY,4.4*16
$GNGGA,031844.200,2500.7792258,N,12132.4624801,E,4,50,0.57,16.678,M,15.25,M,1,3335*4F
$GNRMC,031844.200,A,2500.7792258,N,12132.4624801,E,0.03,330.95,090324,,,R,V*1F
$GPHDT,95.880,T*09
$GNACCURACY,4.4*16
$GNGGA,031844.300,2500.7792252,N,12132.4624824,E,4,50,0.57,16.697,M,15.25,M,1,3335*42
$GNRMC,031844.300,A,2500.7792252,N,12132.4624824,E,0.04,330.95,090324,,,R,V*14
$GPHDT,,T*1B
$GNACCURACY,4.4*16
$GNGGA,031844.400,2500.7792256,N,12132.4624820,E,4,50,0.57,16.689,M,15.25,M,1,3335*4A
$GNRMC,031844.400,A,2500.7792256,N,12132.4624820,E,0.03,330.95,090324,,,R,V*14
$GPHDT,95.999,T*00
$GNACCURACY,4.4*16
$GNGGA,031844.500,2500.7792245,N,12132.4624801,E,4,50,0.57,16.685,M,15.25,M,0,3335*47
$GNRMC,031844.500,A,2500.7792245,N,12132.4624801,E,0.01,330.95,090324,,,R,V*16
$GPHDT,,T*1B
$GNACCURACY,4.4*16
$GNGGA,031844.600,2500.7792255,N,12132.4624764,E,4,50,0.57,16.668,M,15.25,M,0,3335*4A
$GNRMC,031844.600,A,2500.7792255,N,12132.4624764,E,0.03,330.95,090324,,,R,V*1A
$GPHDT,96.055,T*0A
$GNACCURACY,4.4*16
$GNGGA,031844.700,2500.7792234,N,12132.4624805,E,4,50,0.57,16.682,M,15.25,M,0,3335*40
$GNRMC,031844.700,A,2500.7792234,N,12132.4624805,E,0.03,330.95,090324,,,R,V*14
$GPHDT,,T*1B
$GNACCURACY,4.4*16
$GNGGA,031844.800,2500.7792253,N,12132.4624772,E,4,50,0.57,16.666,M,15.25,M,0,3335*4B
$GNRMC,031844.800,A,2500.7792253,N,12132.4624772,E,0.03,330.95,090324,,,R,V*15
$GPHDT,95.979,T*0E
$GNACCURACY,4.4*16
$GNGGA,031844.900,2500.7792243,N,12132.4624800,E,4,50,0.57,16.671,M,15.25,M,0,3335*47
$GNRMC,031844.900,A,2500.7792243,N,12132.4624800,E,0.01,330.95,090324,,,R,V*1D
$GPHDT,,T*1B
$GNACCURACY,4.4*16
$GNGGA,031845.000,2500.7792272,N,12132.4624798,E,4,50,0.57,16.688,M,15.25,M,1,3335*44
$GNRMC,031845.000,A,2500.7792272,N,12132.4624798,E,0.01,330.95,090324,,,R,V*19
$GPHDT,96.399,T*09
$GNGSA,A,3,08,194,195,27,16,04,21,09,07,26,,,0.88,0.57,0.67,1*04
$GNGSA,A,3,88,78,77,87,,,,,,,,,0.88,0.57,0.67,2*01
$GNGSA,A,3,21,13,19,27,15,,,,,,,,0.88,0.57,0.67,3*08
$GNGSA,A,3,06,16,43,09,39,40,07,23,11,10,25,34,0.88,0.57,0.67,4*01
$GNGSA,A,3,28,,,,,,,,,,,,0.88,0.57,0.67,4*0D
$GPGSV,4,1,15,08,72,290,46,199,66,163,,194,63,045,41,195,56,125,41,1*54
$GPGSV,4,2,15,27,54,025,42,45,47,231,37,16,37,051,44,04,35,220,32,1*61
$GPGSV,4,3,15,21,35,171,43,09,31,272,32,02,24,182,19,07,22,320,24,1*68
$GPGSV,4,4,15,196,21,174,14,26,19,080,40,31,,,28,1*52
$GPGSV,2,1,08,08,72,290,44,194,63,045,43,195,56,125,39,27,54,025,44,8*6E
$GPGSV,2,2,08,04,35,220,34,09,31,272,35,02,24,182,29,26,19,080,42,8*6C
$GLGSV,2,1,05,88,72,093,40,78,43,359,20,77,34,080,31,87,25,031,24,1*71
$GLGSV,2,2,05,79,09,316,17,1*48
$GAGSV,2,1,07,21,50,344,19,13,48,113,31,19,38,262,38,27,35,058,39,7*7F
$GAGSV,2,2,07,15,24,052,40,26,24,176,22,20,,,34,7*72
$GAGSV,2,1,06,21,50,344,23,13,48,113,37,19,38,262,34,27,35,058,40,1*75
$GAGSV,2,2,06,26,24,176,12,15,24,052,41,1*72
$GBGSV,4,1,13,06,84,233,38,16,81,186,42,43,76,075,45,09,74,308,43,1*76
$GBGSV,4,2,13,39,70,173,46,40,67,312,41,07,63,291,38,23,58,352,32,1*72
$GBGSV,4,3,13,11,52,049,42,10,52,274,39,25,49,091,42,28,35,206,17,1*78
$GBGSV,4,4,13,34,29,042,46,1*4C
$GBGSV,2,1,07,43,76,075,43,39,70,173,44,40,67,312,38,23,58,352,35,4*7C
$GBGSV,2,2,07,25,49,091,40,28,35,206,24,34,29,042,40,4*42
$GNACCURACY,4.4*16
$PAIRSAT,1,24,2,0,200,3,0,200,4,0,21,7,0,1,8,0,21,9,0,21,14,0,200,15,0,200,16,0,201,17,0,200,18,0,200,19,0,200,20,0,200,21,0,201,22,0,200,23,0,200,24,0,200,25,0,200,26,0,221,27,0,21,194,0,421,195,0,221,196,0,200,199,0,600*75
$PAIRSAT,2,14,70,0,200,71,0,200,74,0,200,75,0,200,77,0,1,78,0,1,79,0,1,82,0,200,83,0,200,84,0,200,85,0,200,86,0,200,87,0,201,88,0,201*78
$PAIRSAT,3,15,2,0,1200,3,0,1200,4,0,1000,13,0,21,15,0,21,19,0,21,21,0,221,25,0,1200,26,0,1200,27,0,1221,30,0,1200,31,0,1200,33,0,1200,34,0,1200,36,0,1200*6A
$PAIRSAT,4,45,1,0,200,2,0,200,3,0,400,4,0,200,5,0,200,6,0,201,7,0,201,8,0,200,9,0,201,10,0,201,11,0,201,12,0,200,13,0,200,16,0,1,19,0,400,20,0,400,21,0,400,22,0,400,23,0,421,24,0,600,25,0,621,26,0,600,27,0,400,28,0,621,29,0,600,30,0,600,32,0,600,33,0,600,34,0,421,35,0,400,36,0,400,37,0,400,38,0,400,39,0,421,40,0,421,41,0,400,42,0,400,43,0,421,44,0,400,45,0,400,46,0,400,59,0,400,60,0,400,61,0,400,62,0,400*60
$PAIRDGP,0*45
$GNGGA,031845.100,2500.7792217,N,12132.4624823,E,4,50,0.57,16.681,M,15.25,M,1,3335*40
$GNRMC,031845.100,A,2500.7792217,N,12132.4624823,E,0.01,330.95,090324,,,R,V*14
$GPHDT,,T*1B
$GNACCURACY,4.4*16
$GNGGA,031845.200,2500.7792261,N,12132.4624745,E,4,50,0.57,16.670,M,15.25,M,1,3335*43
$GNRMC,031845.200,A,2500.7792261,N,12132.4624745,E,0.01,330.95,090324,,,R,V*19
$GPHDT,95.800,T*01
$GNACCURACY,4.4*16
$GNGGA,031845.300,2500.7792255,N,12132.4624789,E,4,50,0.57,16.677,M,15.25,M,1,3335*42
$GNRMC,031845.300,A,2500.7792255,N,12132.4624789,E,0.02,330.95,090324,,,R,V*1C
$GPHDT,,T*1B
$GNACCURACY,4.4*16
$GNGGA,031845.400,2500.7792237,N,12132.4624814,E,4,50,0.57,16.699,M,15.25,M,1,3335*4A
$GNRMC,031845.400,A,2500.7792237,N,12132.4624814,E,0.04,330.95,090324,,,R,V*12
$GPHDT,95.490,T*04
$GNACCURACY,4.4*16
$GNGGA,031845.500,2500.7792265,N,12132.4624799,E,4,50,0.57,16.688,M,15.25,M,1,3335*46
$GNRMC,031845.500,A,2500.7792265,N,12132.4624799,E,0.04,330.95,090324,,,R,V*1E
$GPHDT,,T*1B
$GNACCURACY,4.4*16
$GNGGA,031845.600,2500.7792251,N,12132.4624799,E,4,50,0.57,16.699,M,15.25,M,0,3335*43
$GNRMC,031845.600,A,2500.7792251,N,12132.4624799,E,0.03,330.95,090324,,,R,V*1D
$GPHDT,94.952,T*06
$GNACCURACY,4.4*16
$GNGGA,031845.700,2500.7792256,N,12132.4624813,E,4,50,0.57,16.701,M,15.25,M,0,3335*48
$GNRMC,031845.700,A,2500.7792256,N,12132.4624813,E,0.03,330.95,090324,,,R,V*16
$GPHDT,,T*1B
$GNACCURACY,4.4*16
$GNGGA,031845.800,2500.7792258,N,12132.4624791,E,4,50,0.57,16.689,M,15.25,M,0,3335*4D
$GNRMC,031845.800,A,2500.7792258,N,12132.4624791,E,0.01,330.95,090324,,,R,V*10
$GPHDT,94.446,T*0E
$GNACCURACY,4.4*16
$GNGGA,031845.900,2500.7792257,N,12132.4624800,E,4,50,0.57,16.694,M,15.25,M,0,3335*48
$GNRMC,031845.900,A,2500.7792257,N,12132.4624800,E,0.09,330.95,090324,,,R,V*11
$GPHDT,,T*1B
$GNACCURACY,4.4*16
$GNGGA,031846.000,2500.7792264,N,12132.4624782,E,4,50,0.57,16.686,M,15.25,M,1,3335*45
$GNRMC,031846.000,A,2500.7792264,N,12132.4624782,E,0.06,330.95,090324,,,R,V*11
$GPHDT,93.947,T*05
$GNGSA,A,3,08,194,195,27,16,04,21,09,07,26,,,0.88,0.57,0.67,1*04
$GNGSA,A,3,88,78,77,87,,,,,,,,,0.88,0.57,0.67,2*01
$GNGSA,A,3,21,13,19,27,15,,,,,,,,0.88,0.57,0.67,3*08
$GNGSA,A,3,06,16,43,09,39,40,07,23,11,10,25,34,0.88,0.57,0.67,4*01
$GNGSA,A,3,28,,,,,,,,,,,,0.88,0.57,0.67,4*0D
$GPGSV,4,1,15,08,72,290,46,199,66,163,,194,63,045,41,195,56,125,41,1*54
$GPGSV,4,2,15,27,54,025,43,45,47,231,37,16,37,051,44,04,35,220,31,1*63
$GPGSV,4,3,15,21,35,171,43,09,31,272,33,02,24,182,19,07,22,320,22,1*6F
$GPGSV,4,4,15,196,21,174,13,26,19,080,40,31,,,28,1*55
$GPGSV,2,1,07,08,72,290,44,194,63,045,43,195,56,125,39,27,54,025,44,8*61
$GPGSV,2,2,07,04,35,220,34,09,31,272,36,26,19,080,42,8*54
$GLGSV,2,1,05,88,72,093,41,78,43,359,22,77,34,080,31,87,25,031,22,1*74
$GLGSV,2,2,05,79,09,316,17,1*48
$GAGSV,2,1,07,21,50,344,19,13,48,113,32,19,38,262,38,27,35,058,39,7*7C
$GAGSV,2,2,07,15,24,052,39,26,24,176,21,20,,,34,7*7F
$GAGSV,2,1,06,21,50,344,23,13,48,113,38,19,38,262,34,27,35,058,40,1*7A
$GAGSV,2,2,06,26,24,176,11,15,24,052,41,1*71
$GBGSV,4,1,13,06,84,233,38,16,81,186,42,43,76,075,44,09,74,308,43,1*77
$GBGSV,4,2,13,39,70,173,46,40,67,312,41,07,63,291,37,23,58,352,33,1*7C
$GBGSV,4,3,13,11,52,049,41,10,52,274,38,25,49,091,42,28,35,206,17,1*7A
$GBGSV,4,4,13,34,29,042,46,1*4C
$GBGSV,2,1,07,43,76,075,43,39,70,173,44,40,67,312,38,23,58,352,34,4*7D
$GBGSV,2,2,07,25,49,091,40,28,35,206,23,34,29,042,40,4*45
$GNACCURACY,4.4*16
$PAIRSAT,1,24,2,0,200,3,0,200,4,0,21,7,0,1,8,0,21,9,0,21,14,0,200,15,0,200,16,0,201,17,0,200,18,0,200,19,0,200,20,0,200,21,0,201,22,0,200,23,0,200,24,0,200,25,0,200,26,0,221,27,0,21,194,0,421,195,0,221,196,0,200,199,0,600*75
$PAIRSAT,2,14,70,0,200,71,0,200,74,0,200,75,0,200,77,0,1,78,0,1,79,0,1,82,0,200,83,0,200,84,0,200,85,0,200,86,0,200,87,0,201,88,0,201*78
$PAIRSAT,3,15,2,0,1200,3,0,1200,4,0,1000,13,0,21,15,0,21,19,0,21,21,0,221,25,0,1200,26,0,1200,27,0,1221,30,0,1200,31,0,1200,33,0,1200,34,0,1200,36,0,1200*6A
$PAIRSAT,4,45,1,0,200,2,0,200,3,0,400,4,0,200,5,0,200,6,0,201,7,0,201,8,0,200,9,0,201,10,0,201,11,0,201,12,0,200,13,0,200,16,0,1,19,0,400,20,0,400,21,0,400,22,0,400,23,0,421,24,0,600,25,0,621,26,0,600,27,0,400,28,0,621,29,0,600,30,0,600,32,0,600,33,0,600,34,0,421,35,0,400,36,0,400,37,0,400,38,0,400,39,0,421,40,0,421,41,0,400,42,0,400,43,0,421,44,0,400,45,0,400,46,0,400,59,0,400,60,0,400,61,0,400,62,0,400*60
$PAIRDGP,0*45
$GNGGA,031846.100,2500.7792250,N,12132.4624803,E,4,50,0.57,16.692,M,15.25,M,1,3335*40
$GNRMC,031846.100,A,2500.7792250,N,12132.4624803,E,0.05,330.95,090324,,,R,V*12
$GPHDT,,T*1B
$GNACCURACY,4.4*16
$GNGGA,031846.200,2500.7792245,N,12132.4624798,E,4,50,0.58,16.690,M,15.25,M,1,3335*47
$GNRMC,031846.200,A,2500.7792245,N,12132.4624798,E,0.01,330.95,090324,,,R,V*1C
$GPHDT,93.160,T*08
$GNACCURACY,4.4*16
$GNGGA,031846.300,2500.7792266,N,12132.4624811,E,4,50,0.58,16.693,M,15.25,M,1,3335*4A
$GNRMC,031846.300,A,2500.7792266,N,12132.4624811,E,0.01,330.95,090324,,,R,V*12
$GPHDT,,T*1B
$GNACCURACY,4.4*16
$GNGGA,031846.400,2500.7792279,N,12132.4624766,E,4,50,0.58,16.688,M,15.25,M,1,3335*46
$GNRMC,031846.400,A,2500.7792279,N,12132.4624766,E,0.01,330.95,090324,,,R,V*14
$GPHDT,93.054,T*0E
$GNACCURACY,4.4*16
$GNGGA,031846.500,2500.7792254,N,12132.4624798,E,4,50,0.58,16.695,M,15.25,M,1,3335*45
$GNRMC,031846.500,A,2500.7792254,N,12132.4624798,E,0.01,330.95,090324,,,R,V*1B
$GPHDT,,T*1B
$GNACCURACY,4.5*17
$GNGGA,031846.600,2500.7792276,N,12132.4624764,E,4,50,0.58,16.683,M,15.25,M,1,3335*42
$GNRMC,031846.600,A,2500.7792276,N,12132.4624764,E,0.04,330.95,090324,,,R,V*1E
$GPHDT,92.804,T*02
$GNACCURACY,4.5*17
$GNGGA,031846.700,2500.7792266,N,12132.4624795,E,4,50,0.58,16.694,M,15.25,M,1,3335*4A
$GNRMC,031846.700,A,2500.7792266,N,12132.4624795,E,0.02,330.95,090324,,,R,V*16
$GPHDT,,T*1B
$GNACCURACY,4.5*17
$GNGGA,031846.800,2500.7792298,N,12132.4624786,E,4,50,0.58,16.690,M,15.25,M,1,3335*42
$GNRMC,031846.800,A,2500.7792298,N,12132.4624786,E,0.04,330.95,090324,,,R,V*1C
$GPHDT,93.187,T*01
$GNACCURACY,4.5*17
$GNGGA,031846.900,2500.7792285,N,12132.4624781,E,4,50,0.58,16.679,M,15.25,M,0,3335*4E
$GNRMC,031846.900,A,2500.7792285,N,12132.4624781,E,0.02,330.95,090324,,,R,V*10
$GPHDT,,T*1B
$GNACCURACY,4.5*17
$GNGGA,031847.000,2500.7792283,N,12132.4624783,E,4,50,0.58,16.677,M,15.25,M,1,3335*4D
$GNRMC,031847.000,A,2500.7792283,N,12132.4624783,E,0.03,330.95,090324,,,R,V*1D
$GPHDT,93.481,T*02
$GNGSA,A,3,08,194,195,27,16,04,21,09,07,26,,,1.08,0.58,0.91,1*0B
$GNGSA,A,3,88,78,77,87,,,,,,,,,1.08,0.58,0.91,2*0E
$GNGSA,A,3,21,13,19,27,15,,,,,,,,1.08,0.58,0.91,3*07
$GNGSA,A,3,06,16,43,09,39,40,07,23,11,10,25,34,1.08,0.58,0.91,4*0E
$GNGSA,A,3,28,,,,,,,,,,,,1.08,0.58,0.91,4*02
$GPGSV,4,1,15,08,72,290,46,199,66,163,,194,63,045,41,195,56,125,41,1*54
$GPGSV,4,2,15,27,54,025,43,45,47,231,37,16,37,051,43,04,35,220,30,1*65
$GPGSV,4,3,15,21,35,171,42,09,31,272,34,02,24,182,19,07,22,320,22,1*69
$GPGSV,4,4,15,196,21,174,14,26,19,080,39,31,,,29,1*5D
$GPGSV,2,1,08,08,72,290,44,194,63,045,43,195,56,125,39,27,54,025,44,8*6E
$GPGSV,2,2,08,04,35,220,34,09,31,272,36,196,21,174,20,26,19,080,42,8*56
$GLGSV,2,1,05,88,72,093,41,78,43,359,23,77,34,080,31,87,25,031,22,1*75
$GLGSV,2,2,05,79,09,316,15,1*4A
$GAGSV,2,1,07,21,50,344,19,13,48,113,33,19,38,262,38,27,35,058,39,7*7D
$GAGSV,2,2,07,15,24,052,39,26,24,176,19,20,,,34,7*74
$GAGSV,2,1,06,21,50,344,22,13,48,113,38,19,38,262,34,27,35,058,41,1*7A
$GAGSV,2,2,06,26,24,176,11,15,24,052,41,1*71
$GBGSV,4,1,13,06,84,233,38,16,81,186,42,43,76,075,44,09,74,308,43,1*77
$GBGSV,4,2,13,39,70,173,46,40,67,312,40,07,63,291,37,23,58,352,33,1*7D
$GBGSV,4,3,13,11,52,049,41,10,52,274,37,25,49,091,41,28,35,206,16,1*77
$GBGSV,4,4,13,34,29,042,46,1*4C
$GBGSV,2,1,07,43,76,075,43,39,70,173,44,40,67,312,37,23,58,352,33,4*75
$GBGSV,2,2,07,25,49,091,40,28,35,206,22,34,29,042,39,4*4A
$GNACCURACY,4.5*17
$PAIRSAT,1,24,2,0,200,3,0,200,4,0,21,7,0,1,8,0,21,9,0,21,14,0,200,15,0,200,16,0,201,17,0,200,18,0,200,19,0,200,20,0,200,21,0,201,22,0,200,23,0,200,24,0,200,25,0,200,26,0,221,27,0,21,194,0,421,195,0,221,196,0,200,199,0,600*75
$PAIRSAT,2,14,70,0,200,71,0,200,74,0,200,75,0,200,77,0,1,78,0,1,79,0,1,82,0,200,83,0,200,84,0,200,85,0,200,86,0,200,87,0,201,88,0,201*78
$PAIRSAT,3,15,2,0,1200,3,0,1200,4,0,1000,13,0,21,15,0,21,19,0,21,21,0,221,25,0,1200,26,0,1200,27,0,1221,30,0,1200,31,0,1200,33,0,1200,34,0,1200,36,0,1200*6A
$PAIRSAT,4,45,1,0,200,2,0,200,3,0,400,4,0,200,5,0,200,6,0,201,7,0,201,8,0,200,9,0,201,10,0,201,11,0,201,12,0,200,13,0,200,16,0,1,19,0,400,20,0,400,21,0,400,22,0,400,23,0,421,24,0,600,25,0,621,26,0,600,27,0,400,28,0,621,29,0,600,30,0,600,32,0,600,33,0,600,34,0,421,35,0,400,36,0,400,37,0,400,38,0,400,39,0,421,40,0,421,41,0,400,42,0,400,43,0,421,44,0,400,45,0,400,46,0,400,59,0,400,60,0,400,61,0,400,62,0,400*60
$PAIRDGP,0*45
$GNGGA,031847.100,2500.7792281,N,12132.4624770,E,4,50,0.58,16.676,M,15.25,M,1,3335*43
$GNRMC,031847.100,A,2500.7792281,N,12132.4624770,E,0.07,330.95,090324,,,R,V*16
$GPHDT,,T*1B
$GNACCURACY,4.5*17
$GNGGA,031847.200,2500.7792259,N,12132.4624783,E,4,50,0.58,16.680,M,15.25,M,1,3335*40
$GNRMC,031847.200,A,2500.7792259,N,12132.4624783,E,0.02,330.95,090324,,,R,V*19
$GPHDT,93.771,T*0E
$GNACCURACY,4.5*17
$GNGGA,031847.300,2500.7792321,N,12132.4624754,E,4,50,0.58,16.678,M,15.25,M,1,3335*42
$GNRMC,031847.300,A,2500.7792321,N,12132.4624754,E,0.12,330.95,090324,,,R,V*1D
$GPHDT,,T*1B
$GNACCURACY,4.5*17
$GNGGA,031847.400,2500.7792281,N,12132.4624770,E,4,50,0.58,16.682,M,15.25,M,1,3335*4D
$GNRMC,031847.400,A,2500.7792281,N,12132.4624770,E,0.05,330.9