$FW : RTK35X,V1.1X0314AS,Lib20210517,1*54
$Tool : LOCOSYS , GNSS Firebird , v1.0.0.19*39
$---------------------------------------------------*2D
$GPHDT,45.402,T*02
$GNGGA,104942.800,2500.8006300,N,12132.4836800,E,2,56,0.49,27.17,M,15.25,M,5,3335*76
$GNRMC,104942.800,A,2500.8006300,N,12132.4836800,E,0.01,50.03,260623,,,D,V*31
$GPHDT,45.543,T*06
$GNGSA,A,3,24,196,18,199,15,195,23,05,194,13,,,0.80,0.49,0.63,1*02
$GNGSA,A,3,85,80,84,79,73,69,,,,,,,0.80,0.49,0.63,2*0E
$GNGSA,A,3,13,08,07,15,26,02,03,,,,,,0.80,0.49,0.63,3*0F
$GNGSA,A,3,38,39,08,16,06,13,46,09,20,19,29,36,0.80,0.49,0.63,4*01
$GPGSV,4,1,16,24,80,139,43,196,73,056,41,18,60,284,39,199,60,167,30,1*67
$GPGSV,4,2,16,45,47,231,39,15,46,028,39,195,40,179,28,23,36,327,42,1*53
$GPGSV,4,3,16,05,29,103,26,194,25,142,26,13,19,046,33,12,10,154,,1*5E
$GPGSV,4,4,16,29,09,209,22,20,08,120,,10,06,310,,32,01,255,,1*64
$GPGSV,2,1,07,24,80,139,50,196,73,056,44,199,60,167,38,18,60,284,41,8*68
$GPGSV,2,2,07,195,40,179,35,23,36,327,41,194,25,142,23,8*50
$GLGSV,3,1,09,85,45,272,28,80,43,107,38,70,38,346,17,84,26,197,26,1*78
$GLGSV,3,2,09,79,22,047,33,73,20,167,30,86,19,320,20,69,19,055,22,1*7A
$GLGSV,3,3,09,71,15,296,15,1*4A
$GAGSV,3,1,09,13,65,260,40,08,53,008,40,07,40,285,18,15,37,173,20,7*79
$GAGSV,3,2,09,26,24,318,25,02,20,100,17,03,17,053,26,30,15,153,,7*74
$GAGSV,3,3,09,25,05,054,,7*49
$GAGSV,2,1,07,13,65,260,46,08,53,008,41,07,40,285,20,15,37,173,36,1*7B
$GAGSV,2,2,07,26,24,318,21,02,20,100,27,03,17,053,20,1*4C
$GBGSV,4,1,14,38,79,053,42,39,73,254,42,08,70,007,33,16,65,235,38,1*7B
$GBGSV,4,2,14,06,63,232,41,13,62,342,43,46,49,136,39,09,47,225,40,1*7E
$GBGSV,4,3,14,20,46,041,45,19,42,326,43,37,31,060,20,29,30,224,44,1*70
$GBGSV,4,4,14,36,20,186,29,22,04,289,19,1*7F
$GBGSV,2,1,07,38,79,053,44,39,73,254,46,46,49,136,44,20,46,041,42,4*73
$GBGSV,2,2,07,19,42,326,32,29,30,224,44,36,20,186,29,4*43
$GNGGA,104943.000,2500.8006300,N,12132.4836800,E,2,56,0.49,27.21,M,15.25,M,6,3335*79
$GNRMC,104943.000,A,2500.8006300,N,12132.4836800,E,0.01,50.03,260623,,,D,V*38
$GPHDT,45.214,T*03
$GNGGA,104943.200,2500.8006200,N,12132.4836700,E,2,56,0.49,27.24,M,15.25,M,6,3335*70
$GNRMC,104943.200,A,2500.8006200,N,12132.4836700,E,0.02,50.03,260623,,,D,V*37
$GPHDT,45.296,T*09
$GNGGA,104943.400,2500.8006200,N,12132.4836700,E,2,56,0.49,27.27,M,15.25,M,5,3335*76
$GNRMC,104943.400,A,2500.8006200,N,12132.4836700,E,0.02,50.03,260623,,,D,V*31
$GPHDT,45.652,T*05
$GNGGA,104943.600,2500.8006200,N,12132.4836600,E,2,56,0.49,27.31,M,15.25,M,5,3335*72
$GNRMC,104943.600,A,2500.8006200,N,12132.4836600,E,0.01,50.03,260623,,,D,V*31
$GPHDT,45.545,T*00
$GNGGA,104943.800,2500.8006200,N,12132.4836600,E,2,56,0.49,27.34,M,15.25,M,5,3335*79
$GNRMC,104943.800,A,2500.8006200,N,12132.4836600,E,0.01,50.03,260623,,,D,V*3F
$GPHDT,45.746,T*01
$GNGSA,A,3,24,196,18,199,15,195,23,05,194,13,,,0.80,0.49,0.63,1*02
$GNGSA,A,3,85,80,84,79,73,69,,,,,,,0.80,0.49,0.63,2*0E
$GNGSA,A,3,13,08,07,15,26,02,03,,,,,,0.80,0.49,0.63,3*0F
$GNGSA,A,3,38,39,08,16,06,13,46,09,20,19,29,36,0.80,0.49,0.63,4*01
$GPGSV,4,1,16,24,80,139,43,196,73,056,41,18,60,284,39,199,60,167,30,1*67
$GPGSV,4,2,16,45,47,231,39,15,46,028,39,195,40,179,27,23,36,327,42,1*5C
$GPGSV,4,3,16,05,29,103,24,194,25,142,26,13,19,046,34,12,10,154,,1*5B
$GPGSV,4,4,16,29,09,209,21,20,08,120,,10,06,310,,32,01,255,,1*67
$GPGSV,2,1,07,24,80,139,49,196,73,056,44,199,60,167,38,18,60,284,42,8*63
$GPGSV,2,2,07,195,40,179,35,23,36,327,41,194,25,142,23,8*50
$GLGSV,3,1,09,85,45,272,28,80,43,107,37,70,38,346,15,84,26,197,28,1*7B
$GLGSV,3,2,09,79,22,047,33,73,20,167,31,86,19,320,20,69,19,055,21,1*78
$GLGSV,3,3,09,71,15,296,16,1*49
$GAGSV,2,1,08,13,65,260,40,08,53,008,40,07,40,285,18,15,37,173,20,7*79
$GAGSV,2,2,08,26,24,318,24,02,20,100,17,03,17,053,24,30,15,153,,7*77
$GAGSV,2,1,07,13,65,260,46,08,53,008,41,07,40,285,19,15,37,173,36,1*71
$GAGSV,2,2,07,26,24,318,21,02,20,100,27,03,17,053,21,1*4D
$GBGSV,4,1,14,38,79,053,42,39,73,254,42,08,70,007,32,16,65,235,37,1*75
$GBGSV,4,2,14,06,63,232,41,13,62,342,43,46,49,136,38,09,47,225,40,1*7F
$GBGSV,4,3,14,20,46,042,44,19,42,327,42,37,31,060,17,29,30,224,44,1*76
$GBGSV,4,4,14,36,20,186,29,22,04,289,19,1*7F
$GBGSV,2,1,07,38,79,053,44,39,73,254,46,46,49,136,44,20,46,042,42,4*70
$GBGSV,2,2,07,19,42,327,28,29,30,224,44,36,20,186,29,4*49
$GNGGA,104944.000,2500.8006100,N,12132.4836600,E,2,56,0.49,27.37,M,15.25,M,6,3335*75
$GNRMC,104944.000,A,2500.8006100,N,12132.4836600,E,0.01,50.03,260623,,,D,V*33
$GPHDT,45.787,T*0C
$GNGGA,104944.200,2500.8006000,N,12132.4836600,E,2,55,0.49,27.40,M,15.25,M,6,3335*75
$GNRMC,104944.200,A,2500.8006000,N,12132.4836600,E,0.02,50.03,260623,,,D,V*33
$GPHDT,45.655,T*02
$GNGGA,104944.400,2500.8006100,N,12132.4836600,E,2,55,0.49,27.42,M,15.25,M,6,3335*70
$GNRMC,104944.400,A,2500.8006100,N,12132.4836600,E,0.01,50.03,260623,,,D,V*37
$GPHDT,45.732,T*02
$GNGGA,104944.600,2500.8006000,N,12132.4836600,E,2,55,0.49,27.45,M,15.25,M,6,3335*74
$GNRMC,104944.600,A,2500.8006000,N,12132.4836600,E,0.02,50.03,260623,,,D,V*37
$GPHDT,45.863,T*09
$GNGGA,104944.800,2500.8006000,N,12132.4836500,E,2,55,0.49,27.47,M,15.25,M,6,3335*7B
$GNRMC,104944.800,A,2500.8006000,N,12132.4836500,E,0.01,50.03,260623,,,D,V*39
$GPHDT,46.060,T*01
$GNGSA,A,3,24,196,18,199,15,195,23,05,194,13,,,0.80,0.49,0.63,1*02
$GNGSA,A,3,85,80,84,79,73,69,,,,,,,0.80,0.49,0.63,2*0E
$GNGSA,A,3,13,08,07,15,26,02,03,,,,,,0.80,0.49,0.63,3*0F
$GNGSA,A,3,38,39,08,16,06,13,46,09,20,19,29,36,0.80,0.49,0.63,4*01
$GPGSV,4,1,16,24,80,139,43,196,73,056,41,18,60,284,39,199,60,167,30,1*67
$GPGSV,4,2,16,45,47,231,39,15,46,028,39,195,40,179,29,23,36,327,39,1*5E
$GPGSV,4,3,16,05,29,103,22,194,25,142,26,13,19,046,34,12,10,154,,1*5D
$GPGSV,4,4,16,29,09,209,20,20,08,120,,10,06,310,,32,01,255,,1*66
$GPGSV,2,1,07,24,80,139,49,196,73,056,44,199,60,167,38,18,60,284,41,8*60
$GPGSV,2,2,07,195,40,179,35,23,36,327,36,194,25,142,24,8*57
$GLGSV,3,1,09,85,45,272,27,80,43,107,37,70,38,346,18,84,26,197,27,1*76
$GLGSV,3,2,09,79,22,047,32,73,20,167,31,86,19,320,22,69,19,055,24,1*7E
$GLGSV,3,3,09,71,15,296,16,1*49
$GAGSV,2,1,08,13,65,260,41,08,53,008,41,07,40,285,18,15,37,173,19,7*73
$GAGSV,2,2,08,26,24,318,24,02,20,100,18,03,17,053,24,30,15,153,,7*78
$GAGSV,2,1,07,13,65,260,46,08,53,008,41,07,40,285,19,15,37,173,36,1*71
$GAGSV,2,2,07,26,24,318,21,02,20,100,27,03,17,053,21,1*4D
$GBGSV,4,1,14,38,79,053,42,39,73,254,42,08,70,007,32,16,65,235,36,1*74
$GBGSV,4,2,14,06,63,232,41,13,62,342,43,46,49,136,37,09,47,225,40,1*70
$GBGSV,4,3,14,20,46,042,44,19,42,327,36,37,31,060,17,29,30,224,44,1*75
$GBGSV,4,4,14,36,20,186,28,22,04,289,19,1*7E
$GBGSV,2,1,07,38,79,053,44,39,73,254,46,46,49,136,44,20,46,042,42,4*70
$GBGSV,2,2,07,19,42,327,25,29,30,224,43,36,20,186,30,4*4B
$GNGGA,104945.000,2500.8006000,N,12132.4836500,E,2,55,0.49,27.50,M,15.25,M,7,3335*75
$GNRMC,104945.000,A,2500.8006000,N,12132.4836500,E,0.02,50.03,260623,,,D,V*33
$GPHDT,46.178,T*09
$GNGGA,104945.200,2500.8006000,N,12132.4836500,E,2,55,0.49,27.52,M,15.25,M,7,3335*75
$GNRMC,104945.200,A,2500.8006000,N,12132.4836500,E,0.01,50.03,260623,,,D,V*32
$GPHDT,45.989,T*0C
$GNGGA,104945.400,2500.8006000,N,12132.4836500,E,2,56,0.48,27.55,M,15.25,M,7,3335*76
$GNRMC,104945.400,A,2500.8006000,N,12132.4836500,E,0.00,50.03,260623,,,D,V*35
$GPHDT,45.768,T*0D
$GNGGA,104945.600,2500.8006000,N,12132.4836500,E,2,56,0.48,27.58,M,15.25,M,7,3335*79
$GNRMC,104945.600,A,2500.8006000,N,12132.4836500,E,0.01,50.03,260623,,,D,V*36
$GPHDT,46.190,T*0F
$GNGGA,104945.800,2500.8006000,N,12132.4836500,E,2,56,0.48,27.60,M,15.25,M,7,3335*7C
$GNRMC,104945.800,A,2500.8006000,N,12132.4836500,E,0.02,50.03,260623,,,D,V*3B
$GPHDT,45.871,T*0A
$GNGSA,A,3,24,196,18,199,15,195,23,05,194,13,,,0.79,0.48,0.63,1*05
$GNGSA,A,3,85,80,70,84,79,73,69,,,,,,0.79,0.48,0.63,2*0E
$GNGSA,A,3,13,08,07,15,26,02,03,,,,,,0.79,0.48,0.63,3*08
$GNGSA,A,3,38,39,08,16,06,13,46,09,20,19,29,36,0.79,0.48,0.63,4*06
$GPGSV,4,1,16,24,80,139,43,196,73,056,41,18,60,284,39,199,60,167,30,1*67
$GPGSV,4,2,16,45,47,231,39,15,46,028,39,195,40,179,30,23,36,327,40,1*58
$GPGSV,4,3,16,05,29,103,20,194,25,142,25,13,19,046,33,12,10,154,,1*5B
$GPGSV,4,4,16,29,09,209,20,20,08,120,,10,06,310,,32,01,255,,1*66
$GPGSV,2,1,07,24,80,139,49,196,73,056,44,199,60,167,38,18,60,284,41,8*60
$GPGSV,2,2,07,195,40,179,35,23,36,327,38,194,25,142,24,8*59
$GLGSV,3,1,09,85,45,272,27,80,43,107,37,70,38,346,15,84,26,197,27,1*7B
$GLGSV,3,2,09,79,22,047,31,73,20,167,31,86,19,320,22,69,19,055,23,1*7A
$GLGSV,3,3,09,71,15,296,16,1*49
$GAGSV,2,1,08,13,65,260,41,08,53,008,41,07,40,285,18,15,37,173,19,7*73
$GAGSV,2,2,08,26,24,318,24,02,20,100,18,03,17,053,25,30,15,153,,7*79
$GAGSV,2,1,07,13,65,260,46,08,53,008,41,07,40,285,18,15,37,173,35,1*73
$GAGSV,2,2,07,26,24,318,23,02,20,100,27,03,17,053,21,1*4F
$GBGSV,4,1,14,38,79,053,42,39,73,254,42,08,70,007,32,16,65,235,37,1*75
$GBGSV,4,2,14,06,63,232,41,13,62,342,43,46,49,136,38,09,47,225,40,1*7F
$GBGSV,4,3,14,20,46,042,44,19,42,327,39,37,31,060,,29,30,223,44,1*7B
$GBGSV,4,4,14,36,20,186,28,22,04,289,19,1*7E
$GBGSV,2,1,07,38,79,053,44,39,73,254,46,46,49,136,44,20,46,042,42,4*70
$GBGSV,2,2,07,19,42,327,26,29,30,223,43,36,20,186,29,4*47
$GNGGA,104946.000,2500.8006000,N,12132.4836500,E,2,56,0.48,27.63,M,15.25,M,8,3335*7B
$GNRMC,104946.000,A,2500.8006000,N,12132.4836500,E,0.02,50.03,260623,,,D,V*30
$GPHDT,45.346,T*05
$GNGGA,104946.200,2500.8005900,N,12132.4836600,E,2,56,0.48,27.65,M,15.25,M,8,3335*76
$GNRMC,104946.200,A,2500.8005900,N,12132.4836600,E,0.02,50.03,260623,,,D,V*3B
$GPHDT,45.109,T*0C
$GNGGA,104946.400,2500.8005900,N,12132.4836600,E,2,56,0.48,27.68,M,15.25,M,8,3335*7D
$GNRMC,104946.400,A,2500.8005900,N,12132.4836600,E,0.04,50.03,260623,,,D,V*3B
$GPHDT,45.540,T*05
$GNGGA,104946.600,2500.8005800,N,12132.4836700,E,2,56,0.48,27.70,M,15.25,M,8,3335*76
$GNRMC,104946.600,A,2500.8005800,N,12132.4836700,E,0.04,50.03,260623,,,D,V*39
$GPHDT,45.241,T*03
$GNGGA,104946.800,2500.8005700,N,12132.4836600,E,2,56,0.49,27.73,M,15.25,M,8,3335*74
$GNRMC,104946.800,A,2500.8005700,N,12132.4836600,E,0.01,50.03,260623,,,D,V*3C
$GPHDT,45.206,T*00
$GNGSA,A,3,24,196,18,199,15,195,23,05,194,13,,,0.95,0.49,0.81,1*0A
$GNGSA,A,3,85,80,70,84,79,73,69,,,,,,0.95,0.49,0.81,2*01
$GNGSA,A,3,13,08,07,15,26,02,03,,,,,,0.95,0.49,0.81,3*07
$GNGSA,A,3,38,39,08,16,06,13,46,09,20,19,29,36,0.95,0.49,0.81,4*09
$GPGSV,4,1,16,24,80,139,43,196,73,056,41,18,60,284,39,199,60,167,31,1*66
$GPGSV,4,2,16,45,47,231,39,15,46,028,39,195,40,179,30,23,36,327,42,1*5A
$GPGSV,4,3,16,05,29,103,20,194,25,142,23,13,19,046,33,12,10,154,,1*5D
$GPGSV,4,4,16,29,09,209,20,20,08,120,,10,06,310,,32,01,255,,1*66
$GPGSV,2,1,07,24,80,139,49,196,73,056,44,199,60,167,38,18,60,284,41,8*60
$GPGSV,2,2,07,195,40,179,35,23,36,327,41,194,25,142,24,8*57
$GLGSV,3,1,09,85,45,272,29,80,43,107,37,70,38,346,15,84,26,197,27,1*75
$GLGSV,3,2,09,79,22,047,31,73,20,167,31,86,19,320,21,69,19,055,20,1*7A
$GLGSV,3,3,09,71,15,296,16,1*49
$GAGSV,2,1,08,13,65,260,41,08,53,008,41,07,40,285,18,15,37,173,19,7*73
$GAGSV,2,2,08,26,24,318,24,02,20,100,18,03,17,053,25,30,15,153,,7*79
$GAGSV,2,1,07,13,65,260,46,08,53,008,41,07,40,285,18,15,37,173,35,1*73
$GAGSV,2,2,07,26,24,318,24,02,20,100,28,03,17,053,22,1*44
$GBGSV,4,1,14,38,79,053,42,39,73,254,42,08,70,007,32,16,65,235,38,1*7A
$GBGSV,4,2,14,06,63,232,41,13,62,342,43,46,49,136,39,09,47,225,40,1*7E
$GBGSV,4,3,14,20,46,042,44,19,42,327,43,37,31,060,,29,30,223,44,1*76
$GBGSV,4,4,14,36,20,186,27,22,04,289,19,1*71
$GBGSV,2,1,07,38,79,053,44,39,73,254,46,46,49,136,44,20,46,042,42,4*70
$GBGSV,2,2,07,19,42,327,31,29,30,223,43,36,20,186,29,4*41
$GNGGA,104947.000,2500.8005700,N,12132.4836700,E,2,56,0.49,27.75,M,15.25,M,9,3335*7B
$GNRMC,104947.000,A,2500.8005700,N,12132.4836700,E,0.01,50.03,260623,,,D,V*34
$GPHDT,45.592,T*0A
$GNGGA,104947.200,2500.8005700,N,12132.4836800,E,2,56,0.49,27.77,M,15.25,M,9,3335*74
$GNRMC,104947.200,A,2500.8005700,N,12132.4836800,E,0.01,50.03,260623,,,D,V*39
$GPHDT,45.511,T*01
$GNGGA,104947.400,2500.8005700,N,12132.4836800,E,2,56,0.49,27.79,M,15.25,M,9,3335*7C
$GNRMC,104947.400,A,2500.8005700,N,12132.4836800,E,0.00,50.03,260623,,,D,V*3E
$GPHDT,45.504,T*05
$GNGGA,104947.600,2500.8005700,N,12132.4836900,E,2,56,0.49,27.81,M,15.25,M,9,3335*78
$GNRMC,104947.600,A,2500.8005700,N,12132.4836900,E,0.00,50.03,260623,,,D,V*3D
$GPHDT,45.402,T*02
$GNGGA,104947.800,2500.8005700,N,12132.4836900,E,2,55,0.50,27.83,M,15.25,M,9,3335*7F
$GNRMC,104947.800,A,2500.8005700,N,12132.4836900,E,0.01,50.03,260623,,,D,V*32
$GPHDT,45.806,T*0A
$GNGSA,A,3,24,196,18,199,15,195,23,05,194,13,,,0.95,0.50,0.81,1*02
$GNGSA,A,3,85,80,84,79,73,69,,,,,,,0.95,0.50,0.81,2*0E
$GNGSA,A,3,13,08,07,15,26,02,03,,,,,,0.95,0.50,0.81,3*0F
$GNGSA,A,3,38,39,08,16,06,13,46,09,20,19,29,36,0.95,0.50,0.81,4*01
$GPGSV,4,1,16,24,80,139,43,196,73,056,41,18,60,284,39,199,60,167,31,1*66
$GPGSV,4,2,16,45,47,231,39,15,46,028,39,195,40,179,29,23,36,327,42,1*52
$GPGSV,4,3,16,05,29,103,21,194,25,142,23,13,19,046,33,12,10,154,,1*5C
$GPGSV,4,4,16,29,09,209,21,20,08,120,,10,06,310,,32,01,255,,1*67
$GPGSV,2,1,07,24,80,139,49,196,73,056,44,199,60,167,38,18,60,284,41,8*60
$GPGSV,2,2,07,195,40,179,36,23,36,327,41,194,25,142,23,8*53
$GLGSV,3,1,09,85,45,272,29,80,43,107,37,70,38,346,13,84,26,197,28,1*7C
$GLGSV,3,2,09,79,22,047,31,73,20,167,31,86,19,320,21,69,19,055,20,1*7A
$GLGSV,3,3,09,71,15,296,16,1*49
$GAGSV,2,1,08,13,65,260,41,08,53,008,41,07,40,285,18,15,37,173,19,7*73
$GAGSV,2,2,08,26,24,318,24,02,20,100,19,03,17,053,24,30,15,153,,7*79
$GAGSV,2,1,07,13,65,260,46,08,53,008,41,07,40,285,17,15,37,173,35,1*7C
$GAGSV,2,2,07,26,24,318,24,02,20,100,28,03,17,053,21,1*47
$GBGSV,4,1,14,38,79,053,42,39,73,254,42,08,70,007,32,16,65,235,38,1*7A
$GBGSV,4,2,14,06,63,232,41,13,62,342,42,46,49,136,40,09,47,225,40,1*71
$GBGSV,4,3,14,20,46,042,44,19,42,327,43,37,31,060,,29,30,223,44,1*76
$GBGSV,4,4,14,36,20,186,27,22,04,289,19,1*71
$GBGSV,2,1,07,38,79,053,44,39,73,254,46,46,49,136,44,20,46,042,42,4*70
$GBGSV,2,2,07,19,42,327,33,29,30,223,43,36,20,186,30,4*4B
$GNGGA,104948.000,2500.8005700,N,12132.4836900,E,2,55,0.50,27.86,M,15.25,M,10,3335*45
$GNRMC,104948.000,A,2500.8005700,N,12132.4836900,E,0.00,50.03,260623,,,D,V*34
$PAIR010,0,0,2268,125406*31
$GPHDT,45.294,T*0B
$GNGGA,104948.200,2500.8005700,N,12132.4836900,E,2,55,0.50,27.88,M,15.25,M,10,3335*49
$GNRMC,104948.200,A,2500.8005700,N,12132.4836900,E,0.00,50.03,260623,,,D,V*36
$GPHDT,45.475,T*02
$GNGGA,104948.400,2500.8005600,N,12132.4837000,E,2,55,0.50,27.91,M,15.25,M,10,3335*4E
$GNRMC,104948.400,A,2500.8005600,N,12132.4837000,E,0.00,50.03,260623,,,D,V*39
$GPHDT,45.544,T*01
$GNGGA,104948.600,2500.8005600,N,12132.4837000,E,2,55,0.50,27.94,M,15.25,M,10,3335*49
$GNRMC,104948.600,A,2500.8005600,N,12132.4837000,E,0.00,50.03,260623,,,D,V*3B
$GPHDT,45.653,T*04
$GNGGA,104948.800,2500.8005600,N,12132.4837000,E,2,54,0.50,27.96,M,15.25,M,10,3335*44
$GNRMC,104948.800,A,2500.8005600,N,12132.4837000,E,0.00,50.03,260623,,,D,V*35
$GPHDT,45.545,T*00
$GNGSA,A,3,24,196,18,199,15,195,23,05,194,13,,,0.95,0.50,0.81,1*02
$GNGSA,A,3,85,80,84,79,73,69,,,,,,,0.95,0.50,0.81,2*0E
$GNGSA,A,3,13,08,07,15,26,02,03,,,,,,0.95,0.50,0.81,3*0F
$GNGSA,A,3,38,39,08,16,06,13,46,09,20,19,29,36,0.95,0.50,0.81,4*01
$GPGSV,4,1,16,24,80,139,43,196,73,056,41,18,60,284,39,199,60,167,31,1*66
$GPGSV,4,2,16,45,47,231,39,15,46,028,39,195,40,179,29,23,36,327,42,1*52
$GPGSV,4,3,16,05,29,103,21,194,25,142,22,13,19,046,33,12,10,154,,1*5D
$GPGSV,4,4,16,29,09,209,21,20,08,120,,10,06,310,,32,01,255,,1*67
$GPGSV,2,1,07,24,80,139,49,196,73,056,44,199,60,167,38,18,60,284,41,8*60
$GPGSV,2,2,07,195,40,179,36,23,36,327,42,194,25,142,23,8*50
$GLGSV,3,1,09,85,45,272,29,80,43,107,37,70,38,346,13,84,26,197,28,1*7C
$GLGSV,3,2,09,79,22,047,31,73,20,167,31,86,19,320,22,69,19,055,20,1*79
$GLGSV,3,3,09,71,15,296,14,1*4B
$GAGSV,2,1,08,13,65,260,41,08,53,008,41,07,40,285,18,15,37,173,19,7*73
$GAGSV,2,2,08,26,24,318,25,02,20,100,19,03,17,053,24,25,05,054,,7*7B
$GAGSV,2,1,06,13,65,260,46,08,53,008,41,15,37,173,35,26,24,318,26,1*7B
$GAGSV,2,2,06,02,20,100,28,03,17,053,21,1*78
$GBGSV,4,1,15,38,79,053,42,39,73,254,42,08,70,007,32,16,65,235,38,1*7B
$GBGSV,4,2,15,06,63,232,41,13,62,342,42,46,49,136,40,09,47,225,40,1*70
$GBGSV,4,3,15,20,46,042,44,19,42,327,43,37,31,060,,29,30,223,44,1*77
$GBGSV,4,4,15,36,20,186,27,30,05,175,,22,04,289,18,1*44
$GBGSV,2,1,07,38,79,053,44,39,73,254,46,46,49,136,45,20,46,042,43,4*70
$GBGSV,2,2,07,19,42,327,34,29,30,223,43,36,20,186,31,4*4D
$GNGGA,104949.000,2500.8005600,N,12132.4836900,E,2,54,0.50,27.98,M,15.25,M,11,3335*4A
$GNRMC,104949.000,A,2500.8005600,N,12132.4836900,E,0.00,50.03,260623,,,D,V*34
$GPHDT,45.296,T*09
$GNGGA,104949.200,2500.8005500,N,12132.4836900,E,2,54,0.50,28.00,M,15.25,M,11,3335*45
$GNRMC,104949.200,A,2500.8005500,N,12132.4836900,E,0.00,50.03,260623,,,D,V*35
$GPHDT,45.458,T*0D
$GNGGA,104949.400,2500.8005400,N,12132.4836900,E,2,53,0.51,28.02,M,15.25,M,11,3335*46
$GNRMC,104949.400,A,2500.8005400,N,12132.4836900,E,0.00,50.03,260623,,,D,V*32
$GPHDT,45.247,T*05
$GNGGA,104949.600,2500.8005400,N,12132.4836900,E,2,53,0.51,28.05,M,15.25,M,11,3335*43
$GNRMC,104949.600,A,2500.8005400,N,12132.4836900,E,0.00,50.03,260623,,,D,V*30
$GPHDT,45.170,T*02
$GNGGA,104949.800,2500.8005300,N,12132.4836900,E,2,53,0.51,28.07,M,15.25,M,11,3335*48
$GNRMC,104949.800,A,2500.8005300,N,12132.4836900,E,0.00,50.03,260623,,,D,V*39
$GPHDT,45.215,T*02
$GNGSA,A,3,24,196,18,199,15,195,23,194,13,,,,0.96,0.51,0.81,1*05
$GNGSA,A,3,85,80,84,79,73,69,,,,,,,0.96,0.51,0.81,2*0C
$GNGSA,A,3,13,08,07,15,26,02,03,,,,,,0.96,0.51,0.81,3*0D
$GNGSA,A,3,38,39,08,16,06,13,46,09,20,19,29,36,0.96,0.51,0.81,4*03
$GPGSV,4,1,15,24,80,139,43,196,73,056,41,18,60,284,39,199,60,167,31,1*65
$GPGSV,4,2,15,45,47,231,39,15,46,028,40,195,40,179,29,23,36,327,41,1*5C
$GPGSV,4,3,15,05,29,103,21,194,25,142,23,13,19,046,33,12,10,154,,1*5F
$GPGSV,4,4,15,29,09,209,22,20,08,120,,32,01,255,,1*52
$GPGSV,2,1,07,24,80,139,49,196,73,056,44,199,60,167,38,18,60,284,41,8*60
$GPGSV,2,2,07,195,40,179,36,23,36,327,42,194,25,142,23,8*50
$GLGSV,3,1,09,85,45,272,27,80,43,107,37,70,38,346,14,84,26,197,28,1*75
$GLGSV,3,2,09,79,22,047,32,73,20,167,31,69,19,055,20,86,19,320,22,1*7A
$GLGSV,3,3,09,71,15,296,15,1*4A
$GAGSV,2,1,08,13,65,260,41,08,53,008,41,07,40,285,19,15,37,173,21,7*79
$GAGSV,2,2,08,26,24,318,25,02,20,100,19,03,17,053,24,25,05,054,,7*7B
$GAGSV,2,1,06,13,65,260,46,08,53,008,41,15,37,173,35,26,24,318,25,1*78
$GAGSV,2,2,06,02,20,100,28,03,17,053,21,1*78
$GBGSV,4,1,16,38,79,053,42,39,73,254,42,08,70,007,33,16,65,235,38,1*79
$GBGSV,4,2,16,06,63,232,41,13,62,342,42,46,49,136,40,56,48,303,,1*77
$GBGSV,4,3,16,09,47,225,40,20,46,042,44,19,42,327,43,37,31,060,26,1*70
$GBGSV,4,4,16,29,30,223,44,35,24,285,,36,20,186,27,22,04,289,18,1*76
$GBGSV,2,1,07,38,79,053,44,39,73,254,46,46,49,136,45,20,46,042,43,4*70
$GBGSV,2,2,07,19,42,327,34,29,30,223,43,36,20,186,30,4*4C
$GNGGA,104950.000,2500.8005300,N,12132.4836900,E,2,53,0.51,28.09,M,15.25,M,12,3335*45
$GNRMC,104950.000,A,2500.8005300,N,12132.4836900,E,0.00,50.03,260623,,,D,V*39
$GPHDT,45.628,T*08
$GNGGA,104950.200,2500.8005300,N,12132.4836800,E,2,55,0.50,28.12,M,15.25,M,12,3335*4B
$GNRMC,104950.200,A,2500.8005300,N,12132.4836800,E,0.00,50.03,260623,,,D,V*3A
$GPHDT,45.463,T*05
$GNGGA,104950.400,2500.8005300,N,12132.4836800,E,2,55,0.50,28.14,M,15.25,M,12,3335*4B
$GNRMC,104950.400,A,2500.8005300,N,12132.4836800,E,0.00,50.03,260623,,,D,V*3C
$GPHDT,45.277,T*06
$GNGGA,104950.600,2500.8005200,N,12132.4836800,E,2,55,0.50,28.16,M,15.25,M,12,3335*4A
$GNRMC,104950.600,A,2500.8005200,N,12132.4836800,E,0.00,50.03,260623,,,D,V*3F
$GPHDT,45.375,T*05
$GNGGA,104950.800,2500.8005200,N,12132.4836800,E,2,55,0.50,28.18,M,15.25,M,12,3335*4A
$GNRMC,104950.800,A,2500.8005200,N,12132.4836800,E,0.00,50.03,260623,,,D,V*31
$GPHDT,45.577,T*01
$GNGSA,A,3,24,196,18,199,15,195,23,05,194,13,,,0.95,0.50,0.81,1*02
$GNGSA,A,3,85,80,84,79,73,69,,,,,,,0.95,0.50,0.81,2*0E
$GNGSA,A,3,13,08,07,15,26,02,03,,,,,,0.95,0.50,0.81,3*0F
$GNGSA,A,3,38,39,08,16,06,13,46,09,20,19,29,36,0.95,0.50,0.81,4*01
$GPGSV,4,1,16,24,80,139,43,196,73,056,41,18,60,284,39,199,60,167,30,1*67
$GPGSV,4,2,16,45,47,231,39,15,46,028,40,195,40,179,29,23,36,327,40,1*5E
$GPGSV,4,3,16,05,29,103,23,194,25,142,23,13,19,046,33,12,10,154,,1*5E
$GPGSV,4,4,16,29,09,209,21,20,08,120,,10,06,310,,32,01,255,,1*67
$GPGSV,2,1,07,24,80,139,49,196,73,056,44,199,60,167,38,18,60,284,41,8*60
$GPGSV,2,2,07,195,40,179,35,23,36,327,42,194,25,142,23,8*53
$GLGSV,3,1,09,85,45,272,27,80,43,107,37,70,38,346,12,84,26,197,28,1*73
$GLGSV,3,2,09,79,22,047,31,73,20,167,31,86,19,320,22,69,19,055,22,1*7B
$GLGSV,3,3,09,71,15,296,14,1*4B
$GAGSV,3,1,09,13,65,260,41,08,53,008,41,07,40,285,19,15,37,173,22,7*7A
$GAGSV,3,2,09,26,24,318,24,02,20,100,19,03,17,053,24,30,15,153,,7*79
$GAGSV,3,3,09,25,05,054,,7*49
$GAGSV,2,1,06,13,65,260,46,08,53,008,41,15,37,173,35,26,24,318,24,1*79
$GAGSV,2,2,06,02,20,100,27,03,17,053,21,1*77
$GBGSV,4,1,14,38,79,053,42,39,73,254,42,08,70,007,33,16,65,235,38,1*7B
$GBGSV,4,2,14,06,63,232,41,13,62,342,42,46,49,136,40,09,47,225,40,1*71
$GBGSV,4,3,14,20,46,042,44,19,42,327,43,37,31,060,27,29,30,223,44,1*73
$GBGSV,4,4,14,36,20,186,28,22,04,289,18,1*7F
$GBGSV,2,1,07,38,79,053,44,39,73,254,46,46,49,136,45,20,46,042,43,4*70
$GBGSV,2,2,07,19,42,327,36,29,30,223,43,36,20,186,30,4*4E
$GNGGA,104951.000,2500.8005200,N,12132.4836600,E,2,55,0.50,28.20,M,15.25,M,13,3335*47
$GNRMC,104951.000,A,2500.8005200,N,12132.4836600,E,0.01,50.03,260623,,,D,V*37
$GPHDT,45.103,T*06
$GNGGA,104951.200,2500.8005200,N,12132.4836600,E,2,55,0.50,28.22,M,15.25,M,13,3335*47
$GNRMC,104951.200,A,2500.8005200,N,12132.4836600,E,0.00,50.03,260623,,,D,V*34
$GPHDT,45.130,T*06
$GNGGA,104951.400,2500.8005100,N,12132.4836600,E,2,55,0.50,28.24,M,15.25,M,13,3335*44
$GNRMC,104951.400,A,2500.8005100,N,12132.4836600,E,0.00,50.03,260623,,,D,V*31
$GPHDT,45.408,T*08
$GNGGA,104951.600,2500.8005100,N,12132.4836600,E,2,55,0.50,28.26,M,15.25,M,13,3335*44
$GNRMC,104951.600,A,2500.8005100,N,12132.4836600,E,0.00,50.03,260623,,,D,V*33
$GPHDT,45.424,T*06
$GNGGA,104951.800,2500.8005100,N,12132.4836500,E,2,55,0.50,28.29,M,15.25,M,13,3335*46
$GNRMC,104951.800,A,2500.8005100,N,12132.4836500,E,0.00,50.03,260623,,,D,V*3E
$GPHDT,45.387,T*08
$GNGSA,A,3,24,196,18,199,15,195,23,05,194,13,,,0.95,0.50,0.81,1*02
$GNGSA,A,3,85,80,84,79,73,69,,,,,,,0.95,0.50,0.81,2*0E
$GNGSA,A,3,13,08,07,15,26,02,03,,,,,,0.95,0.50,0.81,3*0F
$GNGSA,A,3,38,39,08,16,06,13,46,09,20,19,29,36,0.95,0.50,0.81,4*01
$GPGSV,4,1,16,24,80,139,43,196,73,056,41,18,60,284,39,199,60,167,31,1*66
$GPGSV,4,2,16,45,47,231,39,15,46,028,40,195,40,179,30,23,36,327,40,1*56
$GPGSV,4,3,16,05,29,103,22,194,25,142,21,13,19,046,32,12,10,154,,1*5C
$GPGSV,4,4,16,29,09,209,20,20,08,120,,10,06,310,,32,01,255,,1*66
$GPGSV,2,1,07,24,80,139,49,196,73,056,44,199,60,167,38,18,60,284,40,8*61
$GPGSV,2,2,07,195,40,179,35,23,36,327,41,194,25,142,26,8*55
$GLGSV,3,1,09,85,45,272,28,80,43,107,37,70,38,346,12,84,26,197,27,1*73
$GLGSV,3,2,09,79,22,047,30,73,20,167,31,86,19,320,22,69,19,055,23,1*7B
$GLGSV,3,3,09,71,15,296,17,1*48
$GAGSV,3,1,09,13,65,260,41,08,53,008,41,07,40,285,19,15,37,173,23,7*7B
$GAGSV,3,2,09,26,24,318,24,02,20,100,19,03,17,053,24,30,15,153,,7*79
$GAGSV,3,3,09,25,05,054,,7*49
$GAGSV,2,1,06,13,65,260,46,08,53,008,41,15,37,173,34,26,24,318,24,1*78
$GAGSV,2,2,06,02,20,100,27,03,17,053,20,1*76
$GBGSV,4,1,14,38,79,053,42,39,73,254,42,08,70,007,33,16,65,235,38,1*7B
$GBGSV,4,2,14,06,63,232,41,13,62,342,42,46,49,136,40,09,47,225,40,1*71
$GBGSV,4,3,14,20,46,042,44,19,42,327,43,37,31,060,28,29,30,223,44,1*7C
$GBGSV,4,4,14,36,20,186,30,22,04,289,18,1*76
$GBGSV,2,1,07,38,79,053,44,39,73,254,46,46,49,136,45,20,46,042,43,4*70
$GBGSV,2,2,07,19,42,327,35,29,30,223,43,36,20,186,30,4*4D
$GNGGA,104952.000,2500.8005100,N,12132.4836600,E,2,55,0.50,28.31,M,15.25,M,14,3335*40
$GNRMC,104952.000,A,2500.8005100,N,12132.4836600,E,0.00,50.03,260623,,,D,V*36
$GPHDT,45.163,T*00
$GNGGA,104952.200,2500.8005000,N,12132.4836500,E,2,56,0.49,28.33,M,15.25,M,14,3335*49
$GNRMC,104952.200,A,2500.8005000,N,12132.4836500,E,0.00,50.03,260623,,,D,V*36
$GPHDT,45.089,T*05
$GNGGA,104952.400,2500.8005000,N,12132.4836500,E,2,56,0.49,28.34,M,15.25,M,14,3335*48
$GNRMC,104952.400,A,2500.8005000,N,12132.4836500,E,0.00,50.03,260623,,,D,V*30
$GPHDT,45.565,T*02
$GNGGA,104952.600,2500.8005000,N,12132.4836600,E,2,55,0.50,28.36,M,15.25,M,14,3335*40
$GNRMC,104952.600,A,2500.8005000,N,12132.4836600,E,0.00,50.03,260623,,,D,V*31
$GPHDT,45.598,T*00
$GNGGA,104952.800,2500.8005000,N,12132.4836500,E,2,56,0.49,28.37,M,15.25,M,14,3335*47
$GNRMC,104952.800,A,2500.8005000,N,12132.4836500,E,0.00,50.03,260623,,,D,V*3C
$GPHDT,45.060,T*02
$GNGSA,A,3,24,196,18,199,15,195,23,05,194,13,,,0.95,0.50,0.81,1*02
$GNGSA,A,3,85,80,84,79,73,69,,,,,,,0.95,0.50,0.81,2*0E
$GNGSA,A,3,13,08,07,15,26,02,03,,,,,,0.95,0.50,0.81,3*0F
$GNGSA,A,3,38,39,08,16,06,13,46,09,20,19,29,36,0.95,0.50,0.81,4*01
$GPGSV,4,1,16,24,80,139,43,196,73,056,41,18,60,284,39,199,60,167,31,1*66
$GPGSV,4,2,16,45,47,231,40,15,46,028,40,195,40,179,31,23,36,327,40,1*59
$GPGSV,4,3,16,05,29,104,25,194,25,142,21,13,19,046,32,12,10,154,,1*5C
$GPGSV,4,4,16,29,09,209,20,20,08,120,,10,06,310,,32,01,255,,1*66
$GPGSV,2,1,07,24,80,139,49,196,73,056,44,199,60,167,38,18,60,284,40,8*61
$GPGSV,2,2,07,195,40,179,34,23,36,327,41,194,25,142,25,8*57
$GLGSV,3,1,09,85,45,272,28,80,43,107,38,70,38,346,12,84,26,197,26,1*7D
$GLGSV,3,2,09,79,22,047,30,73,20,167,31,86,19,320,22,69,19,055,24,1*7C
$GLGSV,3,3,09,71,15,296,19,1*46
$GAGSV,3,1,09,13,65,260,41,08,53,008,41,07,40,285,20,15,37,173,22,7*70
$GAGSV,3,2,09,26,24,318,24,02,20,100,18,03,17,053,24,30,15,153,,7*78
$GAGSV,3,3,09,25,05,054,,7*49
$GAGSV,2,1,06,13,65,260,46,08,53,008,41,15,37,173,35,26,24,318,24,1*79
$GAGSV,2,2,06,02,20,100,28,03,17,053,20,1*79
$GBGSV,4,1,14,38,79,053,42,39,73,254,42,08,70,007,33,16,65,235,38,1*7B
$GBGSV,4,2,14,06,63,232,41,13,62,342,42,46,49,136,40,09,47,225,40,1*71
$GBGSV,4,3,14,20,46,042,44,19,42,327,43,37,31,060,28,29,30,223,44,1*7C
$GBGSV,4,4,14,36,20,186,30,22,04,289,18,1*76
$GBGSV,2,1,07,38,79,053,44,39,73,254,46,46,49,136,45,20,46,042,42,4*71
$GBGSV,2,2,07,19,42,327,35,29,30,223,43,36,20,186,30,4*4D
$GNGGA,104953.000,2500.8005000,N,12132.4836500,E,2,55,0.50,28.39,M,15.25,M,15,3335*4A
$GNRMC,104953.000,A,2500.8005000,N,12132.4836500,E,0.00,50.03,260623,,,D,V*35
$GPHDT,45.344,T*07
$GNGGA,104953.200,2500.8005000,N,12132.4836400,E,2,56,0.49,28.41,M,15.25,M,15,3335*4D
$GNRMC,104953.200,A,2500.8005000,N,12132.4836400,E,0.00,50.03,260623,,,D,V*36
$GPHDT,45.058,T*09
$GNGGA,104953.400,2500.8005000,N,12132.4836400,E,2,56,0.49,28.42,M,15.25,M,15,3335*48
$GNRMC,104953.400,A,2500.8005000,N,12132.4836400,E,0.00,50.03,260623,,,D,V*30
$GPHDT,45.189,T*04
$GNGGA,104953.600,2500.8004900,N,12132.4836300,E,2,56,0.49,28.44,M,15.25,M,15,3335*43
$GNRMC,104953.600,A,2500.8004900,N,12132.4836300,E,0.00,50.03,260623,,,D,V*3D
$GPHDT,45.238,T*0D
$GNGGA,104953.800,2500.8004800,N,12132.4836300,E,2,56,0.49,28.45,M,15.25,M,15,3335*4D
$GNRMC,104953.800,A,2500.8004800,N,12132.4836300,E,0.01,50.03,260623,,,D,V*33
$GPHDT,44.739,T*08
$GNGSA,A,3,24,196,18,199,15,195,23,05,194,13,,,0.95,0.50,0.81,1*02
$GNGSA,A,3,85,80,84,79,73,69,,,,,,,0.95,0.50,0.81,2*0E
$GNGSA,A,3,13,08,07,15,26,02,03,,,,,,0.95,0.50,0.81,3*0F
$GNGSA,A,3,38,39,08,16,06,13,46,09,20,19,29,36,0.95,0.50,0.81,4*01
$GPGSV,4,1,16,24,80,139,43,196,73,056,41,18,60,284,38,199,60,167,30,1*66
$GPGSV,4,2,16,45,47,231,40,15,46,028,40,195,40,179,32,23,36,327,38,1*55
$GPGSV,4,3,16,05,29,104,28,194,25,142,21,13,19,046,32,12,10,154,,1*51
$GPGSV,4,4,16,29,09,209,20,20,08,120,,10,07,310,,32,01,255,,1*67
$GPGSV,2,1,07,24,80,139,49,196,73,056,44,199,60,167,38,18,60,284,37,8*61
$GPGSV,2,2,07,195,40,179,34,23,36,327,41,194,25,142,25,8*57
$GLGSV,3,1,09,85,45,272,30,80,43,107,37,70,38,346,17,84,26,197,26,1*7E
$GLGSV,3,2,09,79,22,047,28,73,20,167,34,86,19,320,23,69,19,055,19,1*7F
$GLGSV,3,3,09,71,15,296,19,1*46
$GAGSV,3,1,09,13,65,260,42,08,53,008,41,07,40,285,19,15,37,173,20,7*7B
$GAGSV,3,2,09,26,24,318,24,02,20,100,15,03,17,053,24,30,15,153,,7*75
$GAGSV,3,3,09,25,05,054,,7*49
$GAGSV,2,1,06,13,65,260,46,08,53,008,41,15,37,173,34,26,24,318,22,1*7E
$GAGSV,2,2,06,02,20,100,27,03,17,053,20,1*76
$GBGSV,4,1,14,38,79,053,42,39,73,254,42,08,70,007,33,16,65,235,38,1*7B
$GBGSV,4,2,14,06,63,232,41,13,62,342,43,46,49,136,39,09,47,225,40,1*7E
$GBGSV,4,3,14,20,46,042,44,19,42,327,43,37,31,060,29,29,30,223,43,1*7A
$GBGSV,4,4,14,36,20,186,28,22,04,289,18,1*7F
$GBGSV,2,1,07,38,79,053,44,39,73,254,46,46,49,136,45,20,46,042,42,4*71
$GBGSV,2,2,07,19,42,327,37,29,30,223,43,36,20,186,30,4*4F
$GNGGA,104954.000,2500.8004800,N,12132.4836300,E,2,55,0.50,28.47,M,15.25,M,16,3335*48
$GNRMC,104954.000,A,2500.8004800,N,12132.4836300,E,0.00,50.03,260623,,,D,V*3D
$GPHDT,45.113,T*07
$GNGGA,104954.200,2500.8004800,N,12132.4836200,E,2,56,0.49,28.50,M,15.25,M,16,3335*46
$GNRMC,104954.200,A,2500.8004800,N,12132.4836200,E,0.00,50.03,260623,,,D,V*3E
$GPHDT,45.156,T*06
$GNGGA,104954.400,2500.8004700,N,12132.4836200,E,2,56,0.49,28.53,M,15.25,M,16,3335*4C
$GNRMC,104954.400,A,2500.8004700,N,12132.4836200,E,0.01,50.03,260623,,,D,V*36
