$FW : RTK35X,V1.1X0314AS,Lib20210517,1*54
$Tool : LOCOSYS , GNSS Firebird , v1.0.0.19*39
$---------------------------------------------------*2D
33,73,20,167,37,69,19,055,30,71,15,296,14,1*70
$GAGSV,2,1,08,13,65,259,41,08,53,008,41,07,40,285,25,15,37,173,21,7*7C
$GAGSV,2,2,08,26,24,317,26,02,20,100,14,03,17,054,25,25,05,054,,7*7C
$GAGSV,2,1,07,13,65,259,46,08,53,008,41,07,40,285,20,15,37,173,32,1*75
$GAGSV,2,2,07,26,24,317,29,02,20,100,30,03,17,054,13,1*4A
$GBGSV,4,1,14,38,79,053,42,39,73,254,42,08,70,007,35,16,65,235,38,1*7D
$GBGSV,4,2,14,06,63,232,41,13,62,342,44,46,49,136,38,09,47,225,37,1*78
$GBGSV,4,3,14,20,46,042,44,19,42,327,48,37,31,060,29,29,30,223,45,1*77
$GBGSV,4,4,14,36,20,186,29,22,04,289,17,1*71
$GBGSV,2,1,07,38,79,053,44,39,73,254,47,46,49,136,45,20,46,042,42,4*70
$GBGSV,2,2,07,19,42,327,45,29,30,223,41,36,20,186,32,4*4A
$GNGGA,105010.000,2500.8002400,N,12132.4844700,E,2,56,0.48,28.97,M,15.25,M,32,3335*4A
$GNRMC,105010.000,A,2500.8002400,N,12132.4844700,E,0.04,50.03,260623,,,D,V*3A
$GPHDT,,T*1B
$GNGGA,105010.200,2500.8002400,N,12132.4844800,E,2,56,0.48,28.97,M,15.25,M,32,3335*47
$GNRMC,105010.200,A,2500.8002400,N,12132.4844800,E,0.04,50.03,260623,,,D,V*37
$GPHDT,,T*1B
$GNGGA,105010.400,2500.8002300,N,12132.4845000,E,2,56,0.48,28.95,M,15.25,M,32,3335*4D
$GNRMC,105010.400,A,2500.8002300,N,12132.4845000,E,0.04,50.03,260623,,,D,V*3F
$GPHDT,,T*1B
$GNGGA,105010.600,2500.8002200,N,12132.4845100,E,2,56,0.48,28.95,M,15.25,M,32,3335*4F
$GNRMC,105010.600,A,2500.8002200,N,12132.4845100,E,0.03,50.03,260623,,,D,V*3A
$GPHDT,,T*1B
$GNGGA,105010.800,2500.8002100,N,12132.4845300,E,2,56,0.48,28.95,M,15.25,M,32,3335*40
$GNRMC,105010.800,A,2500.8002100,N,12132.4845300,E,0.05,50.03,260623,,,D,V*33
$GPHDT,,T*1B
$GNGSA,A,3,24,196,18,199,15,195,23,05,194,13,,,0.79,0.48,0.63,1*05
$GNGSA,A,3,85,80,70,84,79,73,69,,,,,,0.79,0.48,0.63,2*0E
$GNGSA,A,3,13,08,07,15,26,02,03,,,,,,0.79,0.48,0.63,3*08
$GNGSA,A,3,38,39,08,16,06,13,46,09,20,19,37,29,0.79,0.48,0.63,4*07
$GNGSA,A,3,36,,,,,,,,,,,,0.79,0.48,0.63,4*06
$GPGSV,4,1,16,24,81,137,44,196,73,056,40,18,60,284,41,199,60,167,27,1*67
$GPGSV,4,2,16,45,47,231,39,15,46,029,40,195,40,179,31,23,37,328,38,1*57
$GPGSV,4,3,16,05,29,104,34,194,25,142,22,13,19,046,32,12,10,153,,1*58
$GPGSV,4,4,16,29,09,208,,20,08,120,,10,07,310,,32,01,256,,1*67
$GPGSV,2,1,07,24,81,137,47,196,73,056,44,199,60,167,36,18,60,284,44,8*6A
$GPGSV,2,2,07,195,40,179,31,23,37,328,47,194,25,142,16,8*5A
$GLGSV,3,1,09,85,45,272,27,80,43,106,36,70,38,346,25,84,26,197,24,1*7B
$GLGSV,3,2,09,79,22,046,33,73,20,167,37,69,19,055,28,86,19,320,,1*74
$GLGSV,3,3,09,71,15,296,15,1*4A
$GAGSV,3,1,09,13,65,259,41,08,53,008,41,07,40,285,25,15,37,173,19,7*77
$GAGSV,3,2,09,26,24,317,26,02,20,100,12,03,17,054,26,30,16,152,,7*78
$GAGSV,3,3,09,25,05,054,,7*49
$GAGSV,2,1,07,13,65,259,46,08,53,008,41,07,40,285,20,15,37,173,31,1*76
$GAGSV,2,2,07,26,24,317,29,02,20,100,29,03,17,054,11,1*40
$GBGSV,4,1,14,38,79,053,43,39,73,254,42,08,70,007,34,16,65,235,39,1*7C
$GBGSV,4,2,14,06,63,232,42,13,62,342,44,46,49,136,38,09,47,225,39,1*75
$GBGSV,4,3,14,20,46,042,44,19,42,327,47,37,31,060,27,29,30,223,43,1*70
$GBGSV,4,4,14,36,20,186,31,22,04,289,17,1*78
$GBGSV,2,1,07,38,79,053,44,39,73,254,47,46,49,136,45,20,46,042,42,4*70
$GBGSV,2,2,07,19,42,327,45,29,30,223,41,36,20,186,31,4*49
$GNGGA,105011.000,2500.8002100,N,12132.4845500,E,2,56,0.48,28.95,M,15.25,M,33,3335*4E
$GNRMC,105011.000,A,2500.8002100,N,12132.4845500,E,0.03,50.03,260623,,,D,V*3A
$GPHDT,,T*1B
$GNGGA,105011.200,2500.8002000,N,12132.4845600,E,2,56,0.48,28.95,M,15.25,M,33,3335*4E
$GNRMC,105011.200,A,2500.8002000,N,12132.4845600,E,0.03,50.03,260623,,,D,V*3A
$GPHDT,,T*1B
$GNGGA,105011.400,2500.8001800,N,12132.4845700,E,2,56,0.48,28.94,M,15.25,M,33,3335*43
$GNRMC,105011.400,A,2500.8001800,N,12132.4845700,E,0.04,50.03,260623,,,D,V*31
$GPHDT,,T*1B
$GNGGA,105011.600,2500.8001700,N,12132.4845800,E,2,56,0.48,28.94,M,15.25,M,33,3335*41
$GNRMC,105011.600,A,2500.8001700,N,12132.4845800,E,0.04,50.03,260623,,,D,V*33
$GPHDT,,T*1B
$GNGGA,105011.800,2500.8001700,N,12132.4845900,E,2,56,0.48,28.94,M,15.25,M,33,3335*4E
$GNRMC,105011.800,A,2500.8001700,N,12132.4845900,E,0.03,50.03,260623,,,D,V*3B
$GPHDT,,T*1B
$GNGSA,A,3,24,196,18,199,15,195,23,05,194,13,,,0.79,0.48,0.63,1*05
$GNGSA,A,3,85,80,70,84,79,73,69,,,,,,0.79,0.48,0.63,2*0E
$GNGSA,A,3,13,08,07,15,26,02,03,,,,,,0.79,0.48,0.63,3*08
$GNGSA,A,3,38,39,08,16,06,13,46,09,20,19,37,29,0.79,0.48,0.63,4*07
$GNGSA,A,3,36,,,,,,,,,,,,0.79,0.48,0.63,4*06
$GPGSV,4,1,16,24,81,137,44,196,73,056,40,18,60,284,41,199,60,167,27,1*67
$GPGSV,4,2,16,45,47,231,39,15,46,029,40,195,40,179,33,23,37,328,37,1*5A
$GPGSV,4,3,16,05,29,104,34,194,25,142,18,13,19,046,33,12,10,153,,1*50
$GPGSV,4,4,16,29,09,208,,20,08,120,,10,07,310,,32,01,256,,1*67
$GPGSV,2,1,07,24,81,137,47,196,73,056,44,199,60,167,36,18,60,284,44,8*6A
$GPGSV,2,2,07,195,40,179,29,23,37,328,47,194,25,142,21,8*57
$GLGSV,3,1,09,85,45,271,27,80,43,106,37,70,38,346,24,84,26,197,24,1*78
$GLGSV,3,2,09,79,22,046,33,73,20,167,36,86,20,320,,69,19,055,30,1*76
$GLGSV,3,3,09,71,15,296,15,1*4A
$GAGSV,3,1,09,13,65,259,42,08,53,008,41,07,40,285,25,15,37,173,17,7*7A
$GAGSV,3,2,09,26,24,317,26,02,20,100,14,03,17,054,25,30,16,152,,7*7D
$GAGSV,3,3,09,25,05,054,,7*49
$GAGSV,2,1,07,13,65,259,46,08,53,008,41,07,40,285,21,15,37,173,31,1*77
$GAGSV,2,2,07,26,24,317,29,02,20,100,28,03,17,054,12,1*42
$GBGSV,4,1,14,38,79,053,43,39,73,254,42,08,70,007,34,16,65,235,37,1*72
$GBGSV,4,2,14,06,63,232,41,13,62,342,44,46,49,136,39,09,47,225,39,1*77
$GBGSV,4,3,14,20,46,042,44,19,42,327,47,37,31,060,28,29,30,223,43,1*7F
$GBGSV,4,4,14,36,20,186,29,22,04,289,17,1*71
$GBGSV,2,1,07,38,79,053,44,39,73,254,47,46,49,136,45,20,46,042,42,4*70
$GBGSV,2,2,07,19,42,327,45,29,30,223,40,36,20,186,31,4*48
$GNGGA,105012.000,2500.8001600,N,12132.4846000,E,2,56,0.48,28.93,M,15.25,M,34,3335*4E
$GNRMC,105012.000,A,2500.8001600,N,12132.4846000,E,0.02,50.03,260623,,,D,V*3A
$GPHDT,,T*1B
$GNGGA,105012.200,2500.8001500,N,12132.4846100,E,2,55,0.48,28.93,M,15.25,M,34,3335*4D
$GNRMC,105012.200,A,2500.8001500,N,12132.4846100,E,0.02,50.03,260623,,,D,V*3A
$GPHDT,,T*1B
$GNGGA,105012.400,2500.8001400,N,12132.4846100,E,2,56,0.48,28.93,M,15.25,M,34,3335*49
$GNRMC,105012.400,A,2500.8001400,N,12132.4846100,E,0.02,50.03,260623,,,D,V*3D
$GPHDT,,T*1B
$GNGGA,105012.600,2500.8001300,N,12132.4846100,E,2,56,0.48,28.94,M,15.25,M,34,3335*4B
$GNRMC,105012.600,A,2500.8001300,N,12132.4846100,E,0.02,50.03,260623,,,D,V*38
$GPHDT,,T*1B
$GNGGA,105012.800,2500.8001200,N,12132.4846200,E,2,55,0.48,28.93,M,15.25,M,34,3335*43
$GNRMC,105012.800,A,2500.8001200,N,12132.4846200,E,0.02,50.03,260623,,,D,V*34
$GPHDT,,T*1B
$GNGSA,A,3,24,196,18,199,15,195,23,05,194,13,,,0.79,0.48,0.63,1*05
$GNGSA,A,3,85,80,70,84,79,73,69,,,,,,0.79,0.48,0.63,2*0E
$GNGSA,A,3,13,08,07,15,26,02,03,,,,,,0.79,0.48,0.63,3*08
$GNGSA,A,3,38,39,08,16,06,13,46,09,20,19,37,29,0.79,0.48,0.63,4*07
$GNGSA,A,3,36,,,,,,,,,,,,0.79,0.48,0.63,4*06
$GPGSV,4,1,16,24,81,137,44,196,73,056,40,18,60,284,41,199,60,167,28,1*68
$GPGSV,4,2,16,45,47,231,39,15,46,029,40,195,40,179,32,23,37,328,37,1*5B
$GPGSV,4,3,16,05,29,104,34,194,25,142,18,13,19,046,32,12,10,153,,1*51
$GPGSV,4,4,16,29,09,208,,20,08,120,,10,07,310,,32,01,256,,1*67
$GPGSV,2,1,07,24,81,137,47,196,73,056,44,199,60,167,36,18,60,284,44,8*6A
$GPGSV,2,2,07,195,40,179,29,23,37,328,47,194,25,142,20,8*56
$GLGSV,2,1,08,85,45,271,29,80,43,106,37,70,38,346,24,84,26,197,24,1*76
$GLGSV,2,2,08,79,22,046,32,73,20,167,36,69,19,055,29,71,15,296,15,1*79
$GAGSV,3,1,09,13,65,259,42,08,53,008,41,07,40,285,24,15,37,173,17,7*7B
$GAGSV,3,2,09,26,24,317,26,02,20,100,17,03,17,054,24,30,16,152,,7*7F
$GAGSV,3,3,09,25,05,054,,7*49
$GAGSV,2,1,06,13,65,259,47,08,53,008,41,07,40,285,22,15,37,173,31,1*74
$GAGSV,2,2,06,26,24,317,29,02,20,100,28,1*74
$GBGSV,4,1,14,38,79,053,43,39,73,254,42,08,70,007,35,16,65,235,38,1*7C
$GBGSV,4,2,14,06,63,233,41,13,62,342,44,46,49,136,39,09,47,225,39,1*76
$GBGSV,4,3,14,20,46,042,44,19,42,327,47,37,31,060,29,29,30,223,43,1*7E
$GBGSV,4,4,14,36,20,186,28,22,04,289,17,1*70
$GBGSV,2,1,08,38,79,053,44,39,73,254,47,46,49,136,45,20,46,042,42,4*7F
$GBGSV,2,2,08,19,42,327,45,37,31,060,24,29,30,223,40,36,20,186,30,4*70
$GNGGA,105013.000,2500.8001100,N,12132.4846300,E,2,56,0.48,28.93,M,15.25,M,35,3335*4A
$GNRMC,105013.000,A,2500.8001100,N,12132.4846300,E,0.01,50.03,260623,,,D,V*3C
$GPHDT,,T*1B
$GNGGA,105013.200,2500.8001100,N,12132.4846400,E,2,56,0.48,28.93,M,15.25,M,35,3335*4F
$GNRMC,105013.200,A,2500.8001100,N,12132.4846400,E,0.01,50.03,260623,,,D,V*39
$GPHDT,,T*1B
$GNGGA,105013.400,2500.8001000,N,12132.4846400,E,2,55,0.48,28.93,M,15.25,M,35,3335*4B
$GNRMC,105013.400,A,2500.8001000,N,12132.4846400,E,0.01,50.03,260623,,,D,V*3E
$GPHDT,,T*1B
$GNGGA,105013.600,2500.8001000,N,12132.4846400,E,2,56,0.48,28.92,M,15.25,M,35,3335*4B
$GNRMC,105013.600,A,2500.8001000,N,12132.4846400,E,0.02,50.03,260623,,,D,V*3F
$GPHDT,,T*1B
$GNGGA,105013.800,2500.8000900,N,12132.4846500,E,2,56,0.48,28.91,M,15.25,M,35,3335*4F
$GNRMC,105013.800,A,2500.8000900,N,12132.4846500,E,0.03,50.03,260623,,,D,V*39
$GPHDT,,T*1B
$GNGSA,A,3,24,196,18,199,15,195,23,05,194,13,,,0.79,0.48,0.63,1*05
$GNGSA,A,3,85,80,70,84,79,73,69,,,,,,0.79,0.48,0.63,2*0E
$GNGSA,A,3,13,08,07,15,26,02,03,,,,,,0.79,0.48,0.63,3*08
$GNGSA,A,3,38,39,08,16,06,13,46,09,20,19,37,29,0.79,0.48,0.63,4*07
$GNGSA,A,3,36,,,,,,,,,,,,0.79,0.48,0.63,4*06
$GPGSV,4,1,16,24,81,137,45,196,73,056,40,18,60,284,41,199,60,167,27,1*66
$GPGSV,4,2,16,45,47,231,39,15,46,029,40,195,40,179,32,23,37,328,37,1*5B
$GPGSV,4,3,16,05,29,104,34,194,25,142,21,13,19,046,32,12,10,153,,1*5B
$GPGSV,4,4,16,29,09,208,,20,08,120,,10,07,310,,32,01,256,,1*67
$GPGSV,2,1,07,24,81,137,47,196,73,056,44,199,60,167,36,18,60,284,44,8*6A
$GPGSV,2,2,07,195,40,179,30,23,37,328,47,194,25,142,18,8*55
$GLGSV,2,1,08,85,45,271,30,80,43,106,37,70,38,346,24,84,26,197,24,1*7E
$GLGSV,2,2,08,79,22,046,32,73,20,167,37,69,19,055,29,71,15,296,14,1*79
$GAGSV,3,1,09,13,65,259,42,08,53,008,41,07,40,285,24,15,37,173,19,7*75
$GAGSV,3,2,09,26,24,317,27,02,20,100,18,03,17,054,24,30,16,152,,7*71
$GAGSV,3,3,09,25,05,054,,7*49
$GAGSV,2,1,07,13,65,259,47,08,53,008,41,07,40,285,23,15,37,173,31,1*74
$GAGSV,2,2,07,26,24,317,30,02,20,100,28,03,17,054,13,1*4B
$GBGSV,4,1,14,38,79,053,43,39,73,254,42,08,70,007,35,16,65,235,38,1*7C
$GBGSV,4,2,14,06,63,233,41,13,62,342,44,46,49,136,38,09,47,225,39,1*77
$GBGSV,4,3,14,20,46,042,44,19,42,327,47,37,31,060,29,29,30,223,43,1*7E
$GBGSV,4,4,14,36,20,186,28,22,04,289,19,1*7E
$GBGSV,2,1,08,38,79,053,44,39,73,254,47,46,49,136,45,20,46,042,42,4*7F
$GBGSV,2,2,08,19,42,327,46,37,31,060,24,29,30,223,40,36,20,186,31,4*72
$GNGGA,105014.000,2500.8000900,N,12132.4846500,E,2,56,0.48,28.91,M,15.25,M,36,3335*43
$GNRMC,105014.000,A,2500.8000900,N,12132.4846500,E,0.01,50.03,260623,,,D,V*34
$GPHDT,,T*1B
$GNGGA,105014.200,2500.8001000,N,12132.4846400,E,2,58,0.48,28.89,M,15.25,M,36,3335*4F
$GNRMC,105014.200,A,2500.8001000,N,12132.4846400,E,0.03,50.03,260623,,,D,V*3D
$GPHDT,,T*1B
$GNGGA,105014.400,2500.8001100,N,12132.4846300,E,2,58,0.48,28.87,M,15.25,M,36,3335*41
$GNRMC,105014.400,A,2500.8001100,N,12132.4846300,E,0.03,50.03,260623,,,D,V*3D
$GPHDT,,T*1B
$GNGGA,105014.600,2500.8001100,N,12132.4846200,E,2,58,0.48,28.86,M,15.25,M,36,3335*43
$GNRMC,105014.600,A,2500.8001100,N,12132.4846200,E,0.01,50.03,260623,,,D,V*3C
$GPHDT,,T*1B
$GNGGA,105014.800,2500.8001200,N,12132.4846100,E,2,58,0.48,28.84,M,15.25,M,36,3335*4F
$GNRMC,105014.800,A,2500.8001200,N,12132.4846100,E,0.01,50.03,260623,,,D,V*32
$GPHDT,,T*1B
$GNGSA,A,3,24,196,18,199,15,195,23,05,194,13,,,0.79,0.48,0.63,1*05
$GNGSA,A,3,85,80,70,84,79,73,69,,,,,,0.79,0.48,0.63,2*0E
$GNGSA,A,3,13,08,07,15,26,02,03,,,,,,0.79,0.48,0.63,3*08
$GNGSA,A,3,38,39,08,16,06,13,46,09,20,19,37,29,0.79,0.48,0.63,4*07
$GNGSA,A,3,36,,,,,,,,,,,,0.79,0.48,0.63,4*06
$GPGSV,4,1,16,24,81,137,45,196,73,056,40,18,60,284,41,199,60,167,27,1*66
$GPGSV,4,2,16,45,47,231,39,15,46,029,40,195,40,179,32,23,37,328,37,1*5B
$GPGSV,4,3,16,05,29,104,33,194,25,142,21,13,19,046,31,12,10,153,,1*5F
$GPGSV,4,4,16,29,09,208,,20,08,120,,10,07,310,,32,01,256,,1*67
$GPGSV,2,1,07,24,81,137,47,196,73,056,44,199,60,167,36,18,60,284,44,8*6A
$GPGSV,2,2,07,195,40,179,30,23,37,328,47,194,25,142,18,8*55
$GLGSV,2,1,08,85,45,271,30,80,43,106,37,70,38,346,24,84,26,197,24,1*7E
$GLGSV,2,2,08,79,22,046,32,73,20,167,37,69,19,055,29,71,15,296,14,1*79
$GAGSV,2,1,08,13,65,259,42,08,53,008,41,07,40,285,24,15,37,173,19,7*75
$GAGSV,2,2,08,26,24,317,27,02,20,100,18,03,17,054,24,30,16,152,,7*71
$GAGSV,2,1,06,13,65,259,47,08,53,008,41,07,40,285,24,15,37,173,31,1*72
$GAGSV,2,2,06,26,24,317,30,02,20,100,28,1*7C
$GBGSV,4,1,14,38,79,053,43,39,73,254,42,08,70,007,35,16,65,235,38,1*7C
$GBGSV,4,2,14,06,63,233,41,13,62,342,44,46,49,136,38,09,47,225,39,1*77
$GBGSV,4,3,14,20,46,042,44,19,42,327,47,37,31,060,29,29,30,223,43,1*7E
$GBGSV,4,4,14,36,20,186,29,22,04,289,19,1*7F
$GBGSV,2,1,08,38,79,053,44,39,73,254,47,46,49,136,45,20,46,042,42,4*7F
$GBGSV,2,2,08,19,42,327,46,37,31,060,23,29,30,223,40,36,20,186,31,4*75
$GNGGA,105015.000,2500.8001200,N,12132.4846100,E,2,58,0.48,28.83,M,15.25,M,37,3335*40
$GNRMC,105015.000,A,2500.8001200,N,12132.4846100,E,0.01,50.03,260623,,,D,V*3B
$GPHDT,,T*1B
$GNGGA,105015.200,2500.8001200,N,12132.4846000,E,2,58,0.48,28.82,M,15.25,M,37,3335*42
$GNRMC,105015.200,A,2500.8001200,N,12132.4846000,E,0.02,50.03,260623,,,D,V*3B
$GPHDT,,T*1B
$GNGGA,105015.400,2500.8001300,N,12132.4845900,E,2,58,0.48,28.78,M,15.25,M,37,3335*4A
$GNRMC,105015.400,A,2500.8001300,N,12132.4845900,E,0.02,50.03,260623,,,D,V*36
$GPHDT,,T*1B
$GNGGA,105015.600,2500.8001400,N,12132.4845800,E,2,58,0.48,28.75,M,15.25,M,37,3335*43
$GNRMC,105015.600,A,2500.8001400,N,12132.4845800,E,0.02,50.03,260623,,,D,V*32
$GPHDT,,T*1B
$GNGGA,105015.800,2500.8001400,N,12132.4845600,E,2,58,0.48,28.73,M,15.25,M,37,3335*45
$GNRMC,105015.800,A,2500.8001400,N,12132.4845600,E,0.02,50.03,260623,,,D,V*32
$GPHDT,,T*1B
$GNGSA,A,3,24,196,18,199,15,195,23,05,194,13,,,0.79,0.48,0.63,1*05
$GNGSA,A,3,85,80,70,84,79,73,69,,,,,,0.79,0.48,0.63,2*0E
$GNGSA,A,3,13,08,07,15,26,02,03,,,,,,0.79,0.48,0.63,3*08
$GNGSA,A,3,38,39,08,16,06,13,46,09,20,19,37,29,0.79,0.48,0.63,4*07
$GNGSA,A,3,36,,,,,,,,,,,,0.79,0.48,0.63,4*06
$GPGSV,4,1,16,24,81,137,45,196,73,056,40,18,60,284,41,199,60,167,28,1*69
$GPGSV,4,2,16,45,47,231,39,15,46,029,40,195,40,179,32,23,37,328,38,1*54
$GPGSV,4,3,16,05,29,104,32,194,25,142,20,13,19,046,30,12,10,153,,1*5E
$GPGSV,4,4,16,29,09,208,,20,08,120,,10,07,310,,32,01,256,,1*67
$GPGSV,2,1,07,24,81,137,47,196,73,056,44,199,60,167,36,18,60,284,44,8*6A
$GPGSV,2,2,07,195,40,179,30,23,37,328,47,194,25,142,18,8*55
$GLGSV,2,1,08,85,45,271,30,80,43,106,37,70,38,346,24,84,26,197,24,1*7E
$GLGSV,2,2,08,79,22,046,33,73,20,167,37,69,19,055,29,71,15,296,14,1*78
$GAGSV,3,1,09,13,65,259,42,08,53,008,41,07,40,285,24,15,37,173,22,7*7D
$GAGSV,3,2,09,26,24,317,27,02,20,100,19,03,17,054,23,30,16,152,,7*77
$GAGSV,3,3,09,25,05,054,,7*49
$GAGSV,2,1,06,13,65,259,47,08,53,008,41,07,40,285,23,15,37,173,31,1*75
$GAGSV,2,2,06,26,24,317,30,02,20,100,28,1*7C
$GBGSV,4,1,14,38,79,053,43,39,73,254,42,08,70,007,35,16,65,235,38,1*7C
$GBGSV,4,2,14,06,63,233,41,13,62,342,44,46,49,136,38,09,47,225,39,1*77
$GBGSV,4,3,14,20,46,042,44,19,42,327,47,37,31,060,29,29,30,223,43,1*7E
$GBGSV,4,4,14,36,20,186,28,22,04,289,19,1*7E
$GBGSV,2,1,08,38,79,053,45,39,73,254,47,46,49,136,45,20,46,042,42,4*7E
$GBGSV,2,2,08,19,42,327,46,37,31,060,26,29,30,223,40,36,20,186,31,4*70
$GNGGA,105016.000,2500.8001500,N,12132.4845600,E,2,58,0.48,28.70,M,15.25,M,38,3335*43
$GNRMC,105016.000,A,2500.8001500,N,12132.4845600,E,0.02,50.03,260623,,,D,V*38
$GPHDT,,T*1B
$GNGGA,105016.200,2500.8001600,N,12132.4845600,E,2,58,0.48,28.67,M,15.25,M,38,3335*44
$GNRMC,105016.200,A,2500.8001600,N,12132.4845600,E,0.04,50.03,260623,,,D,V*3F
$GPHDT,,T*1B
$GNGGA,105016.400,2500.8001600,N,12132.4845600,E,2,58,0.48,28.64,M,15.25,M,38,3335*41
$GNRMC,105016.400,A,2500.8001600,N,12132.4845600,E,0.04,50.03,260623,,,D,V*39
$GPHDT,,T*1B
$GNGGA,105016.600,2500.8001700,N,12132.4845600,E,2,58,0.48,28.62,M,15.25,M,38,3335*44
$GNRMC,105016.600,A,2500.8001700,N,12132.4845600,E,0.04,50.03,260623,,,D,V*3A
$GPHDT,,T*1B
$GNGGA,105016.800,2500.8001700,N,12132.4845500,E,2,58,0.48,28.59,M,15.25,M,38,3335*41
$GNRMC,105016.800,A,2500.8001700,N,12132.4845500,E,0.03,50.03,260623,,,D,V*30
$GPHDT,,T*1B
$GNGSA,A,3,24,196,18,199,15,195,23,05,194,13,,,0.79,0.48,0.63,1*05
$GNGSA,A,3,85,80,70,84,79,73,69,,,,,,0.79,0.48,0.63,2*0E
$GNGSA,A,3,13,08,07,15,26,02,03,,,,,,0.79,0.48,0.63,3*08
$GNGSA,A,3,38,39,08,16,06,13,46,09,20,19,37,29,0.79,0.48,0.63,4*07
$GNGSA,A,3,36,,,,,,,,,,,,0.79,0.48,0.63,4*06
$GPGSV,4,1,16,24,81,137,45,196,73,056,40,18,60,284,41,199,60,167,27,1*66
$GPGSV,4,2,16,45,47,231,39,15,46,029,40,195,40,179,32,23,37,328,38,1*54
$GPGSV,4,3,16,05,29,104,31,194,25,142,20,13,19,046,30,12,10,153,,1*5D
$GPGSV,4,4,16,29,09,208,,20,08,120,,10,07,310,,32,01,256,,1*67
$GPGSV,2,1,07,24,81,137,47,196,73,056,44,199,60,167,36,18,60,284,44,8*6A
$GPGSV,2,2,07,195,40,179,30,23,37,328,47,194,25,142,18,8*55
$GLGSV,2,1,08,85,45,271,29,80,43,106,37,70,38,346,24,84,26,197,24,1*76
$GLGSV,2,2,08,79,22,046,33,73,20,167,37,69,19,055,28,71,15,296,15,1*78
$GAGSV,2,1,08,13,65,259,42,08,53,008,41,07,40,285,23,15,37,173,21,7*79
$GAGSV,2,2,08,26,24,317,27,02,20,100,19,03,17,054,23,25,05,054,,7*76
$GAGSV,2,1,06,13,65,259,47,08,53,008,41,07,40,285,25,15,37,173,31,1*73
$GAGSV,2,2,06,26,24,317,30,02,20,100,28,1*7C
$GBGSV,4,1,14,38,79,053,43,39,73,254,42,08,70,007,35,16,65,235,38,1*7C
$GBGSV,4,2,14,06,63,233,41,13,62,342,44,46,49,136,38,09,47,225,39,1*77
$GBGSV,4,3,14,20,46,042,44,19,42,327,47,37,31,060,29,29,30,223,43,1*7E
$GBGSV,4,4,14,36,20,186,28,22,04,289,19,1*7E
$GBGSV,2,1,08,38,79,053,45,39,73,254,47,46,49,136,45,20,46,042,42,4*7E
$GBGSV,2,2,08,19,42,327,46,37,31,060,25,29,30,223,40,36,20,186,31,4*73
$GNGGA,105017.000,2500.8001800,N,12132.4845500,E,2,58,0.48,28.56,M,15.25,M,39,3335*49
$GNRMC,105017.000,A,2500.8001800,N,12132.4845500,E,0.03,50.03,260623,,,D,V*36
$GPHDT,,T*1B
$GNGGA,105017.200,2500.8001800,N,12132.4845400,E,2,58,0.48,28.54,M,15.25,M,39,3335*48
$GNRMC,105017.200,A,2500.8001800,N,12132.4845400,E,0.02,50.03,260623,,,D,V*34
$GPHDT,,T*1B
$GNGGA,105017.400,2500.8001800,N,12132.4845300,E,2,58,0.48,28.52,M,15.25,M,39,3335*4F
$GNRMC,105017.400,A,2500.8001800,N,12132.4845300,E,0.01,50.03,260623,,,D,V*36
$GPHDT,,T*1B
$GNGGA,105017.600,2500.8001900,N,12132.4845300,E,2,58,0.48,28.48,M,15.25,M,39,3335*47
$GNRMC,105017.600,A,2500.8001900,N,12132.4845300,E,0.01,50.03,260623,,,D,V*35
$GPHDT,,T*1B
$GNGGA,105017.800,2500.8002000,N,12132.4845300,E,2,58,0.48,28.45,M,15.25,M,39,3335*4E
$GNRMC,105017.800,A,2500.8002000,N,12132.4845300,E,0.01,50.03,260623,,,D,V*31
$GPHDT,,T*1B
$GNGSA,A,3,24,196,18,199,15,195,23,05,194,13,,,0.79,0.48,0.63,1*05
$GNGSA,A,3,85,80,70,84,79,73,69,,,,,,0.79,0.48,0.63,2*0E
$GNGSA,A,3,13,08,07,15,26,02,03,,,,,,0.79,0.48,0.63,3*08
$GNGSA,A,3,38,39,08,16,06,13,46,09,20,19,37,29,0.79,0.48,0.63,4*07
$GNGSA,A,3,36,,,,,,,,,,,,0.79,0.48,0.63,4*06
$GPGSV,4,1,16,24,81,137,45,196,73,056,40,18,60,284,41,199,60,167,29,1*68
$GPGSV,4,2,16,45,47,231,39,15,46,029,40,195,40,179,33,23,37,328,38,1*55
$GPGSV,4,3,16,05,29,104,31,194,25,142,21,13,19,046,30,12,10,153,,1*5C
$GPGSV,4,4,16,29,09,208,,20,08,120,,10,07,310,,32,01,256,,1*67
$GPGSV,2,1,07,24,81,137,47,196,73,056,44,199,60,167,36,18,60,284,44,8*6A
$GPGSV,2,2,07,195,40,179,30,23,37,328,47,194,25,142,18,8*55
$GLGSV,3,1,09,85,45,271,30,80,43,106,37,70,38,346,24,84,26,197,24,1*7E
$GLGSV,3,2,09,79,22,046,33,73,20,167,37,86,20,320,,69,19,055,28,1*7E
$GLGSV,3,3,09,71,15,296,15,1*4A
$GAGSV,3,1,09,13,65,259,42,08,53,008,41,07,40,285,23,15,37,173,21,7*79
$GAGSV,3,2,09,26,24,317,27,02,20,100,19,03,17,054,23,30,16,152,,7*77
$GAGSV,3,3,09,25,05,054,,7*49
$GAGSV,2,1,06,13,65,259,47,08,53,008,41,07,40,285,24,15,37,173,31,1*72
$GAGSV,2,2,06,26,24,317,30,02,20,100,28,1*7C
$GBGSV,4,1,14,38,79,053,43,39,73,254,42,08,70,007,35,16,65,235,38,1*7C
$GBGSV,4,2,14,06,63,233,41,13,62,342,44,46,49,136,38,09,47,225,39,1*77
$GBGSV,4,3,14,20,46,042,44,19,42,327,47,37,31,060,29,29,30,223,43,1*7E
$GBGSV,4,4,14,36,20,186,29,22,04,289,19,1*7F
$GBGSV,2,1,08,38,79,053,45,39,73,254,47,46,49,136,45,20,46,042,42,4*7E
$GBGSV,2,2,08,19,42,327,46,37,31,060,24,29,30,223,40,36,20,186,31,4*72
$GNGGA,105018.000,2500.8002000,N,12132.4845300,E,2,58,0.48,28.42,M,15.25,M,40,3335*40
$GNRMC,105018.000,A,2500.8002000,N,12132.4845300,E,0.01,50.03,260623,,,D,V*36
$GPHDT,,T*1B
$GNGGA,105018.200,2500.8002000,N,12132.4845200,E,2,58,0.48,28.39,M,15.25,M,40,3335*4F
$GNRMC,105018.200,A,2500.8002000,N,12132.4845200,E,0.02,50.03,260623,,,D,V*36
$GPHDT,,T*1B
$GNGGA,105018.400,2500.8002000,N,12132.4845200,E,2,58,0.48,28.35,M,15.25,M,40,3335*45
$GNRMC,105018.400,A,2500.8002000,N,12132.4845200,E,0.03,50.03,260623,,,D,V*31
$GPHDT,,T*1B
$GNGGA,105018.600,2500.8002000,N,12132.4845200,E,2,58,0.48,28.32,M,15.25,M,40,3335*40
$GNRMC,105018.600,A,2500.8002000,N,12132.4845200,E,0.03,50.03,260623,,,D,V*33
$GPHDT,,T*1B
$GNGGA,105018.800,2500.8002000,N,12132.4845200,E,2,58,0.48,28.29,M,15.25,M,40,3335*44
$GNRMC,105018.800,A,2500.8002000,N,12132.4845200,E,0.04,50.03,260623,,,D,V*3A
$GPHDT,,T*1B
$GNGSA,A,3,24,196,18,199,15,195,23,05,194,13,,,0.79,0.48,0.63,1*05
$GNGSA,A,3,85,80,70,84,79,73,69,,,,,,0.79,0.48,0.63,2*0E
$GNGSA,A,3,13,08,07,15,26,02,03,,,,,,0.79,0.48,0.63,3*08
$GNGSA,A,3,38,39,08,16,06,13,46,09,20,19,37,29,0.79,0.48,0.63,4*07
$GNGSA,A,3,36,,,,,,,,,,,,0.79,0.48,0.63,4*06
$GPGSV,4,1,16,24,81,137,45,196,73,056,40,18,60,284,41,199,60,167,28,1*69
$GPGSV,4,2,16,45,47,231,39,15,46,029,40,195,40,179,33,23,37,328,38,1*55
$GPGSV,4,3,16,05,29,104,32,194,25,142,21,13,19,046,30,12,10,153,,1*5F
$GPGSV,4,4,16,29,09,208,,20,08,120,,10,07,310,16,32,01,256,,1*60
$GPGSV,2,1,07,24,81,137,47,196,73,056,44,199,60,167,36,18,60,284,44,8*6A
$GPGSV,2,2,07,195,40,179,29,23,37,328,47,194,25,142,18,8*5D
$GLGSV,3,1,09,85,45,271,30,80,43,106,37,70,38,346,24,84,26,197,24,1*7E
$GLGSV,3,2,09,79,22,046,33,73,20,167,37,86,20,320,,69,19,055,28,1*7E
$GLGSV,3,3,09,71,15,296,15,1*4A
$GAGSV,3,1,09,13,65,259,42,08,53,008,41,07,40,285,21,15,37,173,21,7*7B
$GAGSV,3,2,09,26,24,317,27,02,20,100,19,03,17,054,23,30,16,152,,7*77
$GAGSV,3,3,09,25,05,054,,7*49
$GAGSV,2,1,06,13,65,259,47,08,53,008,41,07,40,285,24,15,37,173,31,1*72
$GAGSV,2,2,06,26,24,317,30,02,20,100,27,1*73
$GBGSV,4,1,14,38,79,053,43,39,73,254,42,08,70,007,35,16,65,235,38,1*7C
$GBGSV,4,2,14,06,63,233,41,13,62,342,44,46,49,136,38,09,47,225,39,1*77
$GBGSV,4,3,14,20,46,042,44,19,42,327,47,37,31,060,29,29,30,223,43,1*7E
$GBGSV,4,4,14,36,20,186,29,22,04,289,19,1*7F
$GBGSV,2,1,08,38,79,053,45,39,73,254,47,46,49,136,45,20,46,042,42,4*7E
$GBGSV,2,2,08,19,42,327,46,37,31,060,24,29,30,223,39,36,20,186,31,4*7C
$GNGGA,105019.000,2500.8002000,N,12132.4845200,E,2,58,0.48,28.26,M,15.25,M,41,3335*43
$GNRMC,105019.000,A,2500.8002000,N,12132.4845200,E,0.04,50.03,260623,,,D,V*33
$GPHDT,,T*1B
$GNGGA,105019.200,2500.8002000,N,12132.4845200,E,2,58,0.48,28.22,M,15.25,M,41,3335*45
$GNRMC,105019.200,A,2500.8002000,N,12132.4845200,E,0.03,50.03,260623,,,D,V*36
$GPHDT,0.995,T*30
$GNGGA,105019.400,2500.8002100,N,12132.4845200,E,2,59,0.48,28.19,M,15.25,M,41,3335*4B
$GNRMC,105019.400,A,2500.8002100,N,12132.4845200,E,0.02,50.03,260623,,,D,V*30
$GPHDT,0.963,T*39
$GNGGA,105019.600,2500.8002100,N,12132.4845300,E,2,59,0.48,28.15,M,15.25,M,41,3335*44
$GNRMC,105019.600,A,2500.8002100,N,12132.4845300,E,0.03,50.03,260623,,,D,V*32
$GPHDT,1.275,T*34
$GNGGA,105019.800,2500.8002100,N,12132.4845300,E,2,59,0.48,28.11,M,15.25,M,41,3335*4E
$GNRMC,105019.800,A,2500.8002100,N,12132.4845300,E,0.03,50.03,260623,,,D,V*3C
$GPHDT,1.156,T*36
$GNGSA,A,3,24,196,18,199,15,195,23,05,194,13,,,0.79,0.48,0.63,1*05
$GNGSA,A,3,85,80,70,84,79,73,69,,,,,,0.79,0.48,0.63,2*0E
$GNGSA,A,3,13,08,07,15,26,02,03,,,,,,0.79,0.48,0.63,3*08
$GNGSA,A,3,38,39,08,16,06,13,46,09,20,19,29,37,0.79,0.48,0.63,4*07
$GNGSA,A,3,36,,,,,,,,,,,,0.79,0.48,0.63,4*06
$GPGSV,4,1,16,24,81,137,45,196,73,056,40,18,60,284,41,199,60,167,28,1*69
$GPGSV,4,2,16,45,47,231,39,15,46,029,40,195,40,179,33,23,37,328,38,1*55
$GPGSV,4,3,16,05,29,104,31,194,25,142,21,13,19,046,30,12,10,153,,1*5C
$GPGSV,4,4,16,29,09,208,,20,08,120,,10,07,310,,32,01,256,,1*67
$GPGSV,2,1,07,24,81,137,47,196,73,056,45,199,60,167,37,18,60,284,44,8*6A
$GPGSV,2,2,07,195,40,179,29,23,37,328,47,194,25,142,19,8*5C
$GLGSV,3,1,09,85,45,271,30,80,43,106,37,70,38,346,24,84,26,197,24,1*7E
$GLGSV,3,2,09,79,22,046,33,73,20,167,36,86,20,320,25,69,19,055,28,1*78
$GLGSV,3,3,09,71,15,296,16,1*49
$GAGSV,3,1,09,13,65,259,42,08,53,008,41,07,40,285,21,15,37,173,21,7*7B
$GAGSV,3,2,09,26,24,317,26,02,20,100,18,03,17,054,23,30,16,152,,7*77
$GAGSV,3,3,09,25,05,054,,7*49
$GAGSV,2,1,07,13,65,259,47,08,53,008,41,07,40,285,24,15,37,173,31,1*73
$GAGSV,2,2,07,26,24,317,30,02,20,100,28,03,17,054,25,1*4E
$GBGSV,4,1,14,38,79,054,43,39,73,255,42,08,70,007,35,16,65,235,38,1*7A
$GBGSV,4,2,14,06,63,233,41,13,62,342,44,46,49,136,38,09,47,225,39,1*77
$GBGSV,4,3,14,20,46,042,44,19,42,327,47,29,30,223,43,37,30,060,28,1*7E
$GBGSV,4,4,14,36,20,186,30,22,04,289,19,1*77
$GBGSV,2,1,08,38,79,054,45,39,73,255,47,46,49,136,45,20,46,042,42,4*78
$GBGSV,2,2,08,19,42,327,46,29,30,223,39,37,30,060,24,36,20,186,31,4*7D
$GNGGA,105020.000,2500.8002200,N,12132.4845300,E,2,59,0.48,28.06,M,15.25,M,42,3335*4A
$GNRMC,105020.000,A,2500.8002200,N,12132.4845300,E,0.02,50.03,260623,,,D,V*3C
$GPHDT,0.890,T*34
$GNGGA,105020.200,2500.8002300,N,12132.4845300,E,2,58,0.48,28.03,M,15.25,M,42,3335*4D
$GNRMC,105020.200,A,2500.8002300,N,12132.4845300,E,0.01,50.03,260623,,,D,V*3C
$GPHDT,1.135,T*33
$GNGGA,105020.400,2500.8002200,N,12132.4845400,E,2,58,0.48,28.00,M,15.25,M,42,3335*4E
$GNRMC,105020.400,A,2500.8002200,N,12132.4845400,E,0.02,50.03,260623,,,D,V*3F
$GPHDT,1.153,T*33
$GNGGA,105020.600,2500.8002100,N,12132.4845500,E,2,58,0.48,27.96,M,15.25,M,42,3335*4E
$GNRMC,105020.600,A,2500.8002100,N,12132.4845500,E,0.03,50.03,260623,,,D,V*3E
$GPHDT,0.938,T*37
$GNGGA,105020.800,2500.8002100,N,12132.4845600,E,2,58,0.48,27.93,M,15.25,M,42,3335*46
$GNRMC,105020.800,A,2500.8002100,N,12132.4845600,E,0.03,50.03,260623,,,D,V*33
$GPHDT,0.868,T*33
$GNGSA,A,3,24,196,18,199,15,195,23,05,194,13,,,0.79,0.48,0.63,1*05
$GNGSA,A,3,85,80,70,84,79,73,69,,,,,,0.79,0.48,0.63,2*0E
$GNGSA,A,3,13,08,07,15,26,02,03,,,,,,0.79,0.48,0.63,3*08
$GNGSA,A,3,38,39,08,16,06,13,46,09,20,19,37,29,0.79,0.48,0.63,4*07
$GNGSA,A,3,36,,,,,,,,,,,,0.79,0.48,0.63,4*06
$GPGSV,4,1,16,24,81,137,45,196,73,056,40,18,60,284,41,199,60,167,27,1*66
$GPGSV,4,2,16,45,47,231,39,15,46,029,40,195,40,179,33,23,37,328,37,1*5A
$GPGSV,4,3,16,05,29,104,30,194,25,142,23,13,19,046,30,12,10,153,,1*5F
$GPGSV,4,4,16,29,09,208,,20,08,120,,10,07,310,17,32,01,256,,1*61
$GPGSV,2,1,07,24,81,137,47,196,73,056,45,199,60,167,37,18,60,284,44,8*6A
$GPGSV,2,2,07,195,40,179,29,23,37,328,47,194,25,142,17,8*52
$GLGSV,3,1,09,85,45,271,29,80,43,106,37,70,38,346,24,84,26,197,24,1*76
$GLGSV,3,2,09,79,22,046,33,73,20,167,35,86,20,320,26,69,19,055,28,1*78
$GLGSV,3,3,09,71,15,296,16,1*49
$GAGSV,2,1,08,13,65,259,42,08,53,008,41,07,40,285,21,15,37,173,22,7*78
$GAGSV,2,2,08,26,24,317,25,02,20,100,17,03,17,054,22,30,16,152,,7*7A
$GAGSV,2,1,07,13,65,259,47,08,53,008,41,07,40,285,24,15,37,173,30,1*72
$GAGSV,2,2,07,26,24,317,30,02,20,100,28,03,17,054,26,1*4D
$GBGSV,4,1,14,38,79,054,43,39,73,255,42,08,70,007,35,16,65,235,38,1*7A
$GBGSV,4,2,14,06,63,233,41,13,62,342,44,46,50,135,38,09,47,225,39,1*7C
$GBGSV,4,3,14,20,46,042,44,19,42,327,47,37,30,060,26,29,30,223,43,1*70
$GBGSV,4,4,14,36,20,186,30,22,04,289,18,1*76
$GBGSV,2,1,08,38,79,054,45,39,73,255,47,46,50,135,45,20,46,042,42,4*73
$GBGSV,2,2,08,19,42,327,46,29,30,223,39,37,30,060,24,36,20,186,31,4*7D
$GNGGA,105021.000,2500.8002100,N,12132.4845600,E,2,58,0.48,27.90,M,15.25,M,43,3335*4D
$GNRMC,105021.000,A,2500.8002100,N,12132.4845600,E,0.05,50.03,260623,,,D,V*3C
$GPHDT,1.048,T*38
$GNGGA,105021.200,2500.8002000,N,12132.4845800,E,2,58,0.48,27.86,M,15.25,M,43,3335*47
$GNRMC,105021.200,A,2500.8002000,N,12132.4845800,E,0.02,50.03,260623,,,D,V*36
$GPHDT,1.070,T*33
$GNGGA,105021.400,2500.8002000,N,12132.4845900,E,2,58,0.48,27.84,M,15.25,M,43,3335*42
$GNRMC,105021.400,A,2500.8002000,N,12132.4845900,E,0.01,50.03,260623,,,D,V*32
$GPHDT,0.944,T*3C
$GNGGA,105021.600,2500.8002000,N,12132.4846000,E,2,58,0.48,27.81,M,15.25,M,43,3335*4F
$GNRMC,105021.600,A,2500.8002000,N,12132.4846000,E,0.03,50.03,260623,,,D,V*38
$GPHDT,0.488,T*31
$GNGGA,105021.800,2500.8002000,N,12132.4846100,E,2,58,0.48,27.78,M,15.25,M,43,3335*46
$GNRMC,105021.800,A,2500.8002000,N,12132.4846100,E,0.03,50.03,260623,,,D,V*37
$GPHDT,0.495,T*3D
$GNGSA,A,3,24,196,18,199,15,195,23,05,194,13,,,0.79,0.48,0.63,1*05
$GNGSA,A,3,85,80,70,84,79,73,69,,,,,,0.79,0.48,0.63,2*0E
$GNGSA,A,3,13,08,07,15,26,02,03,,,,,,0.79,0.48,0.63,3*08
$GNGSA,A,3,38,39,08,16,06,13,46,09,20,19,37,29,0.79,0.48,0.63,4*07
$GNGSA,A,3,36,,,,,,,,,,,,0.79,0.48,0.63,4*06
$GPGSV,4,1,16,24,81,137,45,196,73,056,40,18,60,284,41,199,60,167,28,1*69
$GPGSV,4,2,16,45,47,231,39,15,46,029,40,195,40,179,33,23,37,328,32,1*5F
$GPGSV,4,3,16,05,29,104,26,194,25,142,24,13,19,046,31,12,10,153,,1*5E
$GPGSV,4,4,16,29,09,208,,20,08,120,,10,07,310,16,32,01,256,,1*60
$GPGSV,2,1,07,24,81,137,47,196,73,056,45,199,60,167,37,18,60,284,44,8*6A
$GPGSV,2,2,07,195,40,179,31,23,37,328,46,194,25,142,15,8*58
$GLGSV,3,1,09,85,45,271,27,80,43,106,37,70,38,346,24,84,26,197,24,1*78
$GLGSV,3,2,09,79,22,046,33,73,20,167,35,86,20,320,28,69,19,055,27,1*79
$GLGSV,3,3,09,71,15,296,16,1*49
$GAGSV,2,1,08,13,65,259,42,08,53,008,41,07,40,285,21,15,37,173,23,7*79
$GAGSV,2,2,08,26,24,317,25,02,20,100,14,03,17,054,22,30,16,152,,7*79
$GAGSV,2,1,07,13,65,259,47,08,53,008,41,07,40,285,24,15,37,173,30,1*72
$GAGSV,2,2,07,26,24,317,28,02,20,100,28,03,17,054,25,1*47
$GBGSV,4,1,14,38,79,054,43,39,73,255,42,08,70,007,35,16,65,235,38,1*7A
$GBGSV,4,2,14,06,63,233,41,13,62,342,44,46,50,135,38,09,47,225,39,1*7C
$GBGSV,4,3,14,20,46,042,44,19,42,327,47,37,30,060,27,29,30,223,43,1*71
$GBGSV,4,4,14,36,20,186,31,22,04,289,18,1*77
$GBGSV,2,1,08,38,79,054,45,39,73,255,47,46,50,135,45,20,46,042,42,4*73
$GBGSV,2,2,08,19,42,327,45,29,30,223,39,37,30,060,25,36,20,186,33,4*7D
$GNGGA,105022.000,2500.8001800,N,12132.4846200,E,2,58,0.48,27.74,M,15.25,M,44,3335*4E
$GNRMC,105022.000,A,2500.8001800,N,12132.4846200,E,0.03,50.03,260623,,,D,V*34
$GPHDT,0.898,T*3C
$GNGGA,105022.200,2500.8001900,N,12132.4846300,E,2,58,0.48,27.70,M,15.25,M,44,3335*48
$GNRMC,105022.200,A,2500.8001900,N,12132.4846300,E,0.02,50.03,260623,,,D,V*37
$GPHDT,0.896,T*32
$GNGGA,105022.400,2500.8001900,N,12132.4846500,E,2,58,0.48,27.66,M,15.25,M,44,3335*4F
$GNRMC,105022.400,A,2500.8001900,N,12132.4846500,E,0.02,50.03,260623,,,D,V*37
$GPHDT,1.170,T*32
$GNGGA,105022.600,2500.8001800,N,12132.4846700,E,2,58,0.48,27.62,M,15.25,M,44,3335*4A
$GNRMC,105022.600,A,2500.8001800,N,12132.4846700,E,0.03,50.03,260623,,,D,V*37
$GPHDT,1.313,T*35
$GNGGA,105022.800,2500.8001700,N,12132.4846700,E,2,58,0.48,27.58,M,15.25,M,44,3335*42
$GNRMC,105022.800,A,2500.8001700,N,12132.4846700,E,0.03,50.03,260623,,,D,V*36
$GPHDT,1.137,T*31
$GNGSA,A,3,24,196,18,199,15,195,23,05,194,13,,,0.79,0.48,0.63,1*05
$GNGSA,A,3,85,80,70,84,79,73,69,,,,,,0.79,0.48,0.63,2*0E
$GNGSA,A,3,13,08,07,15,26,02,03,,,,,,0.79,0.48,0.63,3*08
$GNGSA,A,3,38,39,08,16,06,13,46,09,20,19,37,29,0.79,0.48,0.63,4*07
$GNGSA,A,3,36,,,,,,,,,,,,0.79,0.48,0.63,4*06
$GPGSV,4,1,16,24,81,137,45,196,73,056,40,18,60,284,41,199,60,167,29,1*68
$GPGSV,4,2,16,45,47,231,39,15,46,029,40,195,40,179,33,23,37,328,37,1*5A
$GPGSV,4,3,16,05,29,104,27,194,25,142,24,13,19,046,31,12,10,153,,1*5F
$GPGSV,4,4,16,29,09,208,,20,08,120,,10,07,310,,32,01,256,,1*67
$GPGSV,2,1,07,24,81,137,47,196,73,056,45,199,60,167,37,18,60,284,44,8*6A
$GPGSV,2,2,07,195,40,179,30,23,37,328,47,194,25,142,14,8*59
$GLGSV,3,1,09,85,45,271,29,80,43,106,38,70,38,346,21,84,26,197,25,1*7D
$GLGSV,3,2,09,79,22,046,33,73,20,167,34,86,20,320,24,69,19,055,28,1*7B
$GLGSV,3,3,09,71,15,296,17,1*48
$GAGSV,3,1,09,13,65,259,42,08,53,008,39,07,40,285,19,15,37,173,25,7*7B
$GAGSV,3,2,09,26,24,317,24,02,20,100,14,03,17,054,20,30,16,152,,7*7A
$GAGSV,3,3,09,25,05,054,,7*49
$GAGSV,2,1,07,13,65,259,47,08,53,008,40,07,40,285,25,15,37,173,31,1*73
$GAGSV,2,2,07,26,24,317,28,02,20,100,28,03,17,054,26,1*44
$GBGSV,4,1,16,38,79,054,43,39,73,255,41,08,70,007,35,16,65,235,37,1*74
$GBGSV,4,2,16,06,63,233,41,13,62,342,44,46,50,135,38,09,47,225,39,1*7E
$GBGSV,4,3,16,20,46,042,44,19,42,327,47,37,30,060,28,29,30,223,43,1*7C
$GBGSV,4,4,16,36,20,186,31,32,08,086,,07,06,196,,22,04,289,18,1*7D
$GBGSV,2,1,08,38,79,054,45,39,73,255,47,46,50,135,45,20,46,042,43,4*72
$GBGSV,2,2,08,19,42,327,45,29,30,223,39,37,30,060,26,36,20,186,33,4*7E
$GNGGA,105023.000,2500.8001700,N,12132.4846700,E,2,58,0.48,27.55,M,15.25,M,45,3335*47
$GNRMC,105023.000,A,2500.8001700,N,12132.4846700,E,0.05,50.03,260623,,,D,V*39
$GPHDT,2.425,T*34
$GNGGA,105023.200,2500.8001700,N,12132.4846800,E,2,58,0.48,27.52,M,15.25,M,45,3335*4D
$GNRMC,105023.200,A,2500.8001700,N,12132.4846800,E,0.03,50.03,260623,,,D,V*32
$GPHDT,0.999,T*3C
$GNGGA,105023.400,2500.8001600,N,12132.4846900,E,2,58,0.48,27.49,M,15.25,M,45,3335*41
$GNRMC,105023.400,A,2500.8001600,N,12132.4846900,E,0.02,50.03,260623,,,D,V*35
