$FW : RTK35X,V1.1X0314AS,Lib20210517,1*54
$Tool : LOCOSYS , GNSS Firebird , v1.0.0.19*39
$---------------------------------------------------*2D
9,E,0.03,50.03,260623,,,R,V*20
$GPHDT,,T*1B
$GNGGA,105143.800,2500.7978295,N,12132.4840820,E,4,58,0.48,15.890,M,15.25,M,9,3335*4C
$GNRMC,105143.800,A,2500.7978295,N,12132.4840820,E,0.02,50.03,260623,,,R,V*2D
$GPHDT,,T*1B
$GNGSA,A,3,24,196,18,199,15,195,23,05,194,13,,,0.79,0.48,0.63,1*05
$GNGSA,A,3,85,80,70,84,79,73,69,,,,,,0.79,0.48,0.63,2*0E
$GNGSA,A,3,13,08,07,15,26,02,03,,,,,,0.79,0.48,0.63,3*08
$GNGSA,A,3,38,39,08,16,06,13,46,09,20,19,29,36,0.79,0.48,0.63,4*06
$GNGSA,A,3,37,,,,,,,,,,,,0.79,0.48,0.63,4*07
$GPGSV,4,1,16,24,81,133,43,196,73,056,43,18,60,282,41,199,60,167,21,1*67
$GPGSV,4,2,16,45,47,231,39,15,45,030,41,195,40,179,34,23,37,328,43,1*54
$GPGSV,4,3,16,05,29,104,21,194,25,142,26,13,18,046,29,12,11,153,,1*52
$GPGSV,4,4,16,29,08,208,16,20,08,120,,10,07,310,22,32,02,256,,1*62
$GPGSV,2,1,06,24,81,133,49,196,73,056,44,18,60,282,45,199,60,167,35,8*65
$GPGSV,2,2,06,195,40,179,26,23,37,328,46,8*57
$GLGSV,3,1,09,85,45,270,30,80,43,105,36,70,38,347,25,84,25,197,24,1*7E
$GLGSV,3,2,09,79,21,046,24,73,20,166,31,86,20,320,18,69,19,056,28,1*76
$GLGSV,3,3,09,71,15,297,29,1*44
$GAGSV,3,1,09,13,65,258,45,08,52,009,41,07,41,286,21,15,36,173,19,7*75
$GAGSV,3,2,09,26,24,317,26,02,21,099,17,03,17,054,19,30,16,152,,7*71
$GAGSV,3,3,09,25,05,054,,7*49
$GAGSV,2,1,07,13,65,258,45,08,52,009,40,07,41,286,24,15,36,173,36,1*75
$GAGSV,2,2,07,26,24,317,30,02,21,099,28,03,17,054,24,1*4F
$GBGSV,4,1,15,38,79,055,43,39,73,256,43,08,71,007,35,16,66,236,38,1*79
$GBGSV,4,2,15,06,63,233,42,13,62,341,43,46,50,135,31,09,47,225,38,1*72
$GBGSV,4,3,15,20,46,043,45,19,42,327,47,37,30,060,18,29,29,223,43,1*74
$GBGSV,4,4,15,35,24,284,24,36,21,186,27,22,04,290,,1*49
$GBGSV,3,1,09,38,79,055,45,39,73,256,47,46,50,135,41,20,46,043,44,4*72
$GBGSV,3,2,09,19,42,327,43,37,30,060,31,29,29,223,38,36,21,186,35,4*70
$GBGSV,3,3,09,22,04,290,17,4*43
$GNGGA,105144.000,2500.7978295,N,12132.4840811,E,4,57,0.48,15.882,M,15.25,M,10,3335*75
$GNRMC,105144.000,A,2500.7978295,N,12132.4840811,E,0.04,50.03,260623,,,R,V*26
$GPHDT,,T*1B
$GNGGA,105144.200,2500.7978293,N,12132.4840835,E,4,57,0.48,15.883,M,15.25,M,10,3335*76
$GNRMC,105144.200,A,2500.7978293,N,12132.4840835,E,0.04,50.03,260623,,,R,V*24
$GPHDT,,T*1B
$GNGGA,105144.400,2500.7978288,N,12132.4840842,E,4,59,0.48,15.899,M,15.25,M,10,3335*7F
$GNRMC,105144.400,A,2500.7978288,N,12132.4840842,E,0.03,50.03,260623,,,R,V*2F
$GPHDT,,T*1B
$GNGGA,105144.600,2500.7978271,N,12132.4840874,E,4,59,0.48,15.894,M,15.25,M,10,3335*73
$GNRMC,105144.600,A,2500.7978271,N,12132.4840874,E,0.03,50.03,260623,,,R,V*2E
$GPHDT,,T*1B
$GNGGA,105144.800,2500.7978276,N,12132.4840884,E,4,59,0.48,15.877,M,15.25,M,10,3335*78
$GNRMC,105144.800,A,2500.7978276,N,12132.4840884,E,0.03,50.03,260623,,,R,V*28
$GPHDT,,T*1B
$GNGSA,A,3,24,196,18,199,15,195,23,05,194,13,,,0.79,0.48,0.63,1*05
$GNGSA,A,3,85,80,70,84,79,73,69,,,,,,0.79,0.48,0.63,2*0E
$GNGSA,A,3,13,08,07,15,26,02,03,,,,,,0.79,0.48,0.63,3*08
$GNGSA,A,3,38,39,08,16,06,13,46,09,20,19,37,29,0.79,0.48,0.63,4*07
$GNGSA,A,3,36,,,,,,,,,,,,0.79,0.48,0.63,4*06
$GPGSV,4,1,16,24,81,133,43,196,73,056,43,18,60,282,42,199,60,167,22,1*67
$GPGSV,4,2,16,45,47,231,39,15,45,030,41,195,40,179,34,23,37,328,42,1*55
$GPGSV,4,3,16,05,29,104,21,194,25,142,29,13,18,046,30,12,11,153,,1*55
$GPGSV,4,4,16,29,08,208,18,20,08,120,,10,07,310,22,32,02,256,,1*6C
$GPGSV,2,1,07,24,81,133,49,196,73,056,44,199,60,167,36,18,60,282,45,8*67
$GPGSV,2,2,07,195,40,179,31,23,37,328,45,194,25,142,32,8*5E
$GLGSV,3,1,09,85,45,270,31,80,43,105,38,70,38,347,27,84,25,197,24,1*73
$GLGSV,3,2,09,79,21,046,23,73,20,166,31,86,20,320,18,69,19,056,28,1*71
$GLGSV,3,3,09,71,15,297,29,1*44
$GAGSV,3,1,09,13,65,258,45,08,52,009,41,07,41,286,21,15,36,173,19,7*75
$GAGSV,3,2,09,26,24,317,25,02,21,099,17,03,17,054,20,30,16,152,,7*78
$GAGSV,3,3,09,25,05,054,,7*49
$GAGSV,2,1,07,13,65,258,45,08,52,009,40,07,41,286,23,15,36,173,36,1*72
$GAGSV,2,2,07,26,24,317,30,02,21,099,28,03,17,054,21,1*4A
$GBGSV,4,1,16,38,79,055,43,39,73,256,43,08,71,007,35,16,66,236,40,1*75
$GBGSV,4,2,16,06,63,233,42,13,62,341,43,46,50,135,27,56,48,303,,1*7D
$GBGSV,4,3,16,09,47,225,38,20,46,043,45,19,42,327,47,37,30,060,19,1*76
$GBGSV,4,4,16,29,29,223,43,35,24,284,23,36,21,186,26,22,04,290,,1*78
$GBGSV,3,1,10,38,79,055,45,39,73,256,47,46,50,135,41,20,46,043,44,4*7A
$GBGSV,3,2,10,19,42,327,43,37,30,060,33,29,29,223,38,35,24,284,24,4*7D
$GBGSV,3,3,10,36,21,186,35,22,04,290,18,4*7B
$GNGGA,105145.000,2500.7978276,N,12132.4840870,E,4,59,0.48,15.886,M,15.25,M,11,3335*75
$GNRMC,105145.000,A,2500.7978276,N,12132.4840870,E,0.04,50.03,260623,,,R,V*2D
$GPHDT,,T*1B
$GNGGA,105145.200,2500.7978269,N,12132.4840867,E,4,59,0.48,15.895,M,15.25,M,11,3335*7D
$GNRMC,105145.200,A,2500.7978269,N,12132.4840867,E,0.05,50.03,260623,,,R,V*26
$GPHDT,,T*1B
$GNGGA,105145.400,2500.7978268,N,12132.4840854,E,4,59,0.48,15.884,M,15.25,M,11,3335*7A
$GNRMC,105145.400,A,2500.7978268,N,12132.4840854,E,0.03,50.03,260623,,,R,V*27
$GPHDT,,T*1B
$GNGGA,105145.600,2500.7978237,N,12132.4840872,E,4,59,0.48,15.882,M,15.25,M,11,3335*70
$GNRMC,105145.600,A,2500.7978237,N,12132.4840872,E,0.02,50.03,260623,,,R,V*2A
$GPHDT,,T*1B
$GNGGA,105145.800,2500.7978257,N,12132.4840848,E,4,59,0.48,15.879,M,15.25,M,11,3335*75
$GNRMC,105145.800,A,2500.7978257,N,12132.4840848,E,0.00,50.03,260623,,,R,V*29
$GPHDT,,T*1B
$GNGSA,A,3,24,196,18,199,15,195,23,05,194,13,,,0.79,0.48,0.63,1*05
$GNGSA,A,3,85,80,70,84,73,79,69,,,,,,0.79,0.48,0.63,2*0E
$GNGSA,A,3,13,08,07,15,26,02,03,,,,,,0.79,0.48,0.63,3*08
$GNGSA,A,3,38,39,08,16,06,13,46,09,20,19,37,29,0.79,0.48,0.63,4*07
$GNGSA,A,3,36,,,,,,,,,,,,0.79,0.48,0.63,4*06
$GPGSV,4,1,16,24,81,133,43,196,73,056,43,18,60,282,42,199,60,167,24,1*61
$GPGSV,4,2,16,45,47,231,39,15,45,030,41,195,40,179,34,23,37,328,42,1*55
$GPGSV,4,3,16,05,29,104,21,194,25,142,29,13,18,046,28,12,11,153,,1*5C
$GPGSV,4,4,16,29,08,208,18,20,08,120,,10,07,310,21,32,02,256,,1*6F
$GPGSV,2,1,07,24,81,133,49,196,73,056,44,199,60,167,35,18,60,282,45,8*64
$GPGSV,2,2,07,195,40,179,30,23,37,328,46,194,25,142,30,8*5E
$GLGSV,3,1,09,85,45,270,30,80,43,105,39,70,38,347,27,84,25,197,24,1*73
$GLGSV,3,2,09,73,21,166,31,79,21,046,23,86,20,320,19,69,19,056,28,1*71
$GLGSV,3,3,09,71,16,297,29,1*47
$GAGSV,3,1,09,13,65,258,45,08,52,009,41,07,41,286,22,15,36,173,18,7*77
$GAGSV,3,2,09,26,24,317,24,02,21,099,17,03,17,054,20,30,16,152,,7*79
$GAGSV,3,3,09,25,05,054,,7*49
$GAGSV,2,1,07,13,65,258,45,08,52,009,40,07,41,286,23,15,36,173,36,1*72
$GAGSV,2,2,07,26,24,317,30,02,21,099,26,03,17,054,22,1*47
$GBGSV,4,1,14,38,79,055,43,39,73,256,43,08,71,007,35,16,66,236,40,1*77
$GBGSV,4,2,14,06,63,233,42,13,62,341,43,46,50,135,29,09,47,225,38,1*7A
$GBGSV,4,3,14,20,46,043,45,19,42,327,47,37,30,060,22,29,29,223,44,1*7B
$GBGSV,4,4,14,35,24,284,22,36,21,186,24,1*72
$GBGSV,3,1,09,38,79,055,45,39,73,256,47,46,50,135,41,20,46,043,44,4*72
$GBGSV,3,2,09,19,42,327,43,37,30,060,33,29,29,223,38,36,21,186,35,4*72
$GBGSV,3,3,09,22,04,290,19,4*4D
$GNGGA,105146.000,2500.7978250,N,12132.4840867,E,4,59,0.48,15.874,M,15.25,M,12,3335*7A
$GNRMC,105146.000,A,2500.7978250,N,12132.4840867,E,0.01,50.03,260623,,,R,V*29
$GPHDT,,T*1B
$GNGGA,105146.200,2500.7978267,N,12132.4840840,E,4,59,0.48,15.878,M,15.25,M,12,3335*75
$GNRMC,105146.200,A,2500.7978267,N,12132.4840840,E,0.02,50.03,260623,,,R,V*29
$GPHDT,,T*1B
$GNGGA,105146.400,2500.7978259,N,12132.4840861,E,4,59,0.48,15.868,M,15.25,M,12,3335*7C
$GNRMC,105146.400,A,2500.7978259,N,12132.4840861,E,0.02,50.03,260623,,,R,V*21
$GPHDT,,T*1B
$GNGGA,105146.600,2500.7978249,N,12132.4840848,E,4,59,0.48,15.873,M,15.25,M,12,3335*7E
$GNRMC,105146.600,A,2500.7978249,N,12132.4840848,E,0.01,50.03,260623,,,R,V*2A
$GPHDT,,T*1B
$GNGGA,105146.800,2500.7978264,N,12132.4840840,E,4,58,0.48,15.867,M,15.25,M,12,3335*73
$GNRMC,105146.800,A,2500.7978264,N,12132.4840840,E,0.03,50.03,260623,,,R,V*21
$GPHDT,,T*1B
$GNGSA,A,3,24,196,18,199,15,195,23,194,13,,,,0.79,0.48,0.63,1*00
$GNGSA,A,3,85,80,70,84,73,79,69,,,,,,0.79,0.48,0.63,2*0E
$GNGSA,A,3,13,08,07,15,26,02,03,,,,,,0.79,0.48,0.63,3*08
$GNGSA,A,3,38,39,08,16,06,13,46,09,20,19,37,29,0.79,0.48,0.63,4*07
$GNGSA,A,3,36,,,,,,,,,,,,0.79,0.48,0.63,4*06
$GPGSV,4,1,16,24,81,133,43,196,73,056,43,18,60,282,42,199,60,167,24,1*61
$GPGSV,4,2,16,45,47,231,39,15,45,030,41,195,40,179,34,23,37,328,42,1*55
$GPGSV,4,3,16,05,29,104,17,194,25,142,27,13,18,046,30,12,11,153,,1*5E
$GPGSV,4,4,16,29,08,208,18,20,08,120,,10,07,310,20,32,02,256,,1*6E
$GPGSV,2,1,07,24,81,133,49,196,73,056,44,199,60,167,33,18,60,282,45,8*62
$GPGSV,2,2,07,195,40,179,29,23,37,328,46,194,25,142,31,8*57
$GLGSV,3,1,09,85,45,270,30,80,43,105,39,70,38,347,27,84,25,197,24,1*73
$GLGSV,3,2,09,73,21,166,31,79,21,046,23,86,20,320,18,69,19,056,28,1*70
$GLGSV,3,3,09,71,16,297,28,1*46
$GAGSV,3,1,09,13,65,258,45,08,52,009,41,07,41,286,20,15,36,173,18,7*75
$GAGSV,3,2,09,26,24,317,25,02,21,099,17,03,17,054,20,30,16,152,,7*78
$GAGSV,3,3,09,25,05,054,,7*49
$GAGSV,2,1,07,13,65,258,45,08,52,009,40,07,41,286,21,15,36,173,36,1*70
$GAGSV,2,2,07,26,24,317,30,02,21,099,26,03,17,054,20,1*45
$GBGSV,4,1,14,38,79,055,43,39,73,256,43,08,71,007,35,16,66,236,40,1*77
$GBGSV,4,2,14,06,63,233,42,13,62,341,43,46,50,135,31,09,47,225,38,1*73
$GBGSV,4,3,14,20,46,043,45,19,42,327,47,37,30,060,21,29,29,223,44,1*78
$GBGSV,4,4,14,35,24,284,22,36,21,186,24,1*72
$GBGSV,3,1,09,38,79,055,45,39,73,256,47,46,50,135,41,20,46,043,43,4*75
$GBGSV,3,2,09,19,42,327,43,37,30,060,33,29,29,223,38,36,21,186,34,4*73
$GBGSV,3,3,09,22,04,290,19,4*4D
$GNGGA,105147.000,2500.7978250,N,12132.4840832,E,4,58,0.48,15.870,M,15.25,M,13,3335*7F
$GNRMC,105147.000,A,2500.7978250,N,12132.4840832,E,0.03,50.03,260623,,,R,V*2A
$GPHDT,,T*1B
$GNGGA,105147.200,2500.7978290,N,12132.4840863,E,4,58,0.48,15.874,M,15.25,M,13,3335*71
$GNRMC,105147.200,A,2500.7978290,N,12132.4840863,E,0.03,50.03,260623,,,R,V*20
$GPHDT,,T*1B
$GNGGA,105147.400,2500.7978293,N,12132.4840810,E,4,58,0.48,15.870,M,15.25,M,13,3335*74
$GNRMC,105147.400,A,2500.7978293,N,12132.4840810,E,0.05,50.03,260623,,,R,V*27
$GPHDT,,T*1B
$GNGGA,105147.600,2500.7978261,N,12132.4840808,E,4,58,0.48,15.862,M,15.25,M,13,3335*71
$GNRMC,105147.600,A,2500.7978261,N,12132.4840808,E,0.02,50.03,260623,,,R,V*26
$GPHDT,,T*1B
$GNGGA,105147.800,2500.7978263,N,12132.4840832,E,4,57,0.48,15.854,M,15.25,M,13,3335*7E
$GNRMC,105147.800,A,2500.7978263,N,12132.4840832,E,0.01,50.03,260623,,,R,V*20
$GPHDT,,T*1B
$GNGSA,A,3,24,196,18,199,15,195,23,194,13,,,,0.79,0.48,0.63,1*00
$GNGSA,A,3,85,80,70,84,73,79,69,,,,,,0.79,0.48,0.63,2*0E
$GNGSA,A,3,13,08,07,15,26,02,03,,,,,,0.79,0.48,0.63,3*08
$GNGSA,A,3,38,39,08,16,06,13,46,09,20,19,37,29,0.79,0.48,0.63,4*07
$GNGSA,A,3,36,,,,,,,,,,,,0.79,0.48,0.63,4*06
$GPGSV,4,1,16,24,81,133,43,196,73,056,43,18,60,282,42,199,60,167,25,1*60
$GPGSV,4,2,16,45,47,231,39,15,45,030,41,195,40,179,33,23,37,328,42,1*52
$GPGSV,4,3,16,05,29,104,17,194,25,142,30,13,18,046,30,12,11,153,,1*58
$GPGSV,4,4,16,29,08,208,18,20,08,120,,10,07,310,18,32,02,256,,1*65
$GPGSV,2,1,07,24,81,133,49,196,73,056,44,199,60,167,35,18,60,282,45,8*64
$GPGSV,2,2,07,195,40,179,32,23,37,328,46,194,25,142,29,8*54
$GLGSV,3,1,09,85,45,270,33,80,43,105,39,70,38,347,26,84,25,197,23,1*76
$GLGSV,3,2,09,73,21,166,28,79,21,046,23,86,20,320,20,69,19,056,27,1*7C
$GLGSV,3,3,09,71,16,297,28,1*46
$GAGSV,3,1,09,13,65,258,45,08,52,009,41,07,41,286,21,15,36,173,20,7*7F
$GAGSV,3,2,09,26,24,317,24,02,21,099,17,03,17,054,19,30,16,152,,7*73
$GAGSV,3,3,09,25,05,054,,7*49
$GAGSV,2,1,06,13,65,258,45,08,52,009,40,07,41,286,23,15,36,173,36,1*73
$GAGSV,2,2,06,26,24,317,30,03,17,054,22,1*73
$GBGSV,4,1,14,38,79,055,43,39,73,256,43,08,71,007,35,16,66,236,40,1*77
$GBGSV,4,2,14,06,63,233,42,13,62,341,43,46,50,135,29,09,47,225,38,1*7A
$GBGSV,4,3,14,20,46,043,45,19,42,327,46,37,30,060,21,29,29,223,44,1*79
$GBGSV,4,4,14,35,24,284,22,36,21,186,24,1*72
$GBGSV,3,1,09,38,79,055,45,39,73,256,47,46,50,135,41,20,46,043,43,4*75
$GBGSV,3,2,09,19,42,327,43,37,30,060,33,29,29,223,38,36,21,186,36,4*71
$GBGSV,3,3,09,22,04,290,19,4*4D
$GNGGA,105148.000,2500.7978262,N,12132.4840849,E,4,57,0.48,15.869,M,15.25,M,14,3335*7D
$GNRMC,105148.000,A,2500.7978262,N,12132.4840849,E,0.02,50.03,260623,,,R,V*29
$PAIR010,0,0,2268,125526*32
$GPHDT,,T*1B
$GNGGA,105148.200,2500.7978237,N,12132.4840853,E,4,58,0.48,15.864,M,15.25,M,14,3335*76
$GNRMC,105148.200,A,2500.7978237,N,12132.4840853,E,0.04,50.03,260623,,,R,V*26
$GPHDT,,T*1B
$GNGGA,105148.400,2500.7978285,N,12132.4840822,E,4,58,0.48,15.865,M,15.25,M,14,3335*7E
$GNRMC,105148.400,A,2500.7978285,N,12132.4840822,E,0.00,50.03,260623,,,R,V*2B
$GPHDT,,T*1B
$GNGGA,105148.600,2500.7978268,N,12132.4840837,E,4,58,0.48,15.866,M,15.25,M,14,3335*78
$GNRMC,105148.600,A,2500.7978268,N,12132.4840837,E,0.01,50.03,260623,,,R,V*2F
$GPHDT,,T*1B
$GNGGA,105148.800,2500.7978251,N,12132.4840837,E,4,56,0.48,15.860,M,15.25,M,14,3335*74
$GNRMC,105148.800,A,2500.7978251,N,12132.4840837,E,0.01,50.03,260623,,,R,V*2B
$GPHDT,,T*1B
$GNGSA,A,3,24,196,18,199,15,195,23,194,13,,,,0.79,0.48,0.63,1*00
$GNGSA,A,3,85,80,70,84,79,73,69,,,,,,0.79,0.48,0.63,2*0E
$GNGSA,A,3,13,08,07,15,26,02,03,,,,,,0.79,0.48,0.63,3*08
$GNGSA,A,3,38,39,08,16,06,13,46,09,20,19,37,29,0.79,0.48,0.63,4*07
$GNGSA,A,3,36,,,,,,,,,,,,0.79,0.48,0.63,4*06
$GPGSV,4,1,16,24,81,133,43,196,73,056,43,18,60,282,42,199,60,167,25,1*60
$GPGSV,4,2,16,45,47,231,39,15,45,030,41,195,40,179,32,23,37,328,42,1*53
$GPGSV,4,3,16,05,29,104,17,194,25,142,31,13,18,046,30,12,11,153,,1*59
$GPGSV,4,4,16,29,08,208,18,20,08,120,,10,07,310,15,32,02,256,,1*68
$GPGSV,2,1,07,24,81,133,48,196,73,056,44,199,60,167,35,18,60,282,44,8*64
$GPGSV,2,2,07,195,40,179,32,23,37,328,46,194,25,142,27,8*5A
$GLGSV,3,1,09,85,45,270,33,80,43,105,39,70,38,347,27,84,25,196,22,1*77
$GLGSV,3,2,09,79,21,046,24,73,21,166,25,86,20,320,23,69,19,056,28,1*7A
$GLGSV,3,3,09,71,16,297,28,1*46
$GAGSV,3,1,09,13,65,258,45,08,52,009,42,07,41,286,21,15,36,173,18,7*77
$GAGSV,3,2,09,26,24,317,24,02,21,099,17,03,17,054,19,30,16,152,,7*73
$GAGSV,3,3,09,25,05,054,,7*49
$GAGSV,2,1,06,13,65,258,45,08,52,009,40,07,41,286,23,15,36,173,36,1*73
$GAGSV,2,2,06,26,24,317,30,03,17,054,21,1*70
$GBGSV,5,1,17,38,79,055,43,39,73,256,43,08,71,007,33,16,66,236,40,1*73
$GBGSV,5,2,17,06,63,233,42,13,62,341,43,46,50,135,31,09,47,225,38,1*71
$GBGSV,5,3,17,20,46,043,45,19,42,327,46,37,30,060,22,29,29,223,44,1*78
$GBGSV,5,4,17,35,24,284,20,36,21,186,23,32,08,086,,07,06,196,,1*7D
$GBGSV,5,5,17,10,04,206,,1*41
$GBGSV,3,1,09,38,79,055,45,39,73,256,47,46,50,135,41,20,46,043,43,4*75
$GBGSV,3,2,09,19,42,327,43,37,30,060,33,29,29,223,38,36,21,186,36,4*71
$GBGSV,3,3,09,22,04,290,18,4*4C
$GNGGA,105149.000,2500.7978253,N,12132.4840867,E,4,56,0.48,15.858,M,15.25,M,15,3335*70
$GNRMC,105149.000,A,2500.7978253,N,12132.4840867,E,0.02,50.03,260623,,,R,V*26
$GPHDT,,T*1B
$GNGGA,105149.200,2500.7978272,N,12132.4840873,E,4,57,0.48,15.860,M,15.25,M,15,3335*7E
$GNRMC,105149.200,A,2500.7978272,N,12132.4840873,E,0.01,50.03,260623,,,R,V*21
$GPHDT,,T*1B
$GNGGA,105149.400,2500.7978271,N,12132.4840859,E,4,57,0.48,15.867,M,15.25,M,15,3335*74
$GNRMC,105149.400,A,2500.7978271,N,12132.4840859,E,0.00,50.03,260623,,,R,V*2D
$GPHDT,,T*1B
$GNGGA,105149.600,2500.7978263,N,12132.4840839,E,4,57,0.48,15.859,M,15.25,M,15,3335*7E
$GNRMC,105149.600,A,2500.7978263,N,12132.4840839,E,0.02,50.03,260623,,,R,V*28
$GPHDT,,T*1B
$GNGGA,105149.800,2500.7978270,N,12132.4840871,E,4,57,0.48,15.866,M,15.25,M,15,3335*72
$GNRMC,105149.800,A,2500.7978270,N,12132.4840871,E,0.04,50.03,260623,,,R,V*2E
$GPHDT,,T*1B
$GNGSA,A,3,24,196,18,199,15,195,23,05,194,13,,,0.79,0.48,0.63,1*05
$GNGSA,A,3,85,80,70,84,73,79,69,,,,,,0.79,0.48,0.63,2*0E
$GNGSA,A,3,13,08,07,15,26,02,03,,,,,,0.79,0.48,0.63,3*08
$GNGSA,A,3,38,39,08,16,06,13,46,09,20,19,37,29,0.79,0.48,0.63,4*07
$GNGSA,A,3,36,,,,,,,,,,,,0.79,0.48,0.63,4*06
$GPGSV,4,1,16,24,81,133,43,196,73,056,43,18,60,282,42,199,60,167,25,1*60
$GPGSV,4,2,16,45,47,231,39,15,45,030,40,195,40,179,32,23,37,328,42,1*52
$GPGSV,4,3,16,05,29,104,19,194,25,142,30,13,18,046,30,12,11,153,,1*56
$GPGSV,4,4,16,29,08,208,18,20,08,120,,10,07,310,14,32,02,256,,1*69
$GPGSV,2,1,07,24,81,133,48,196,73,056,44,199,60,167,35,18,60,282,44,8*64
$GPGSV,2,2,07,195,40,179,32,23,37,328,46,194,25,142,30,8*5C
$GLGSV,3,1,09,85,45,270,33,80,43,105,39,70,38,347,27,84,25,196,22,1*77
$GLGSV,3,2,09,73,21,166,28,79,21,046,25,86,20,320,24,69,19,056,28,1*71
$GLGSV,3,3,09,71,16,297,26,1*48
$GAGSV,3,1,09,13,65,258,45,08,52,009,42,07,41,286,20,15,36,173,17,7*79
$GAGSV,3,2,09,26,24,317,24,02,21,099,16,03,17,054,21,30,16,152,,7*79
$GAGSV,3,3,09,25,05,054,,7*49
$GAGSV,2,1,06,13,65,258,45,08,52,009,40,07,41,286,23,15,36,173,36,1*73
$GAGSV,2,2,06,26,24,317,30,03,17,054,21,1*70
$GBGSV,4,1,14,38,79,055,43,39,73,256,43,08,71,007,33,16,66,236,40,1*71
$GBGSV,4,2,14,06,63,233,42,13,62,341,43,46,50,135,30,09,47,225,38,1*72
$GBGSV,4,3,14,20,46,043,45,19,42,327,46,37,30,060,21,29,29,223,44,1*79
$GBGSV,4,4,14,35,24,284,17,36,21,186,23,1*73
$GBGSV,3,1,09,38,79,055,45,39,73,256,47,46,50,135,41,20,46,043,43,4*75
$GBGSV,3,2,09,19,42,327,43,37,30,060,33,29,29,223,38,36,21,186,36,4*71
$GBGSV,3,3,09,22,04,290,19,4*4D
$GNGGA,105150.000,2500.7978278,N,12132.4840863,E,4,58,0.48,15.863,M,15.25,M,16,3335*70
$GNRMC,105150.000,A,2500.7978278,N,12132.4840863,E,0.04,50.03,260623,,,R,V*25
$GPHDT,,T*1B
$GNGGA,105150.200,2500.7978278,N,12132.4840846,E,4,58,0.48,15.859,M,15.25,M,16,3335*7C
$GNRMC,105150.200,A,2500.7978278,N,12132.4840846,E,0.04,50.03,260623,,,R,V*20
$GPHDT,,T*1B
$GNGGA,105150.400,2500.7978269,N,12132.4840837,E,4,58,0.48,15.857,M,15.25,M,16,3335*72
$GNRMC,105150.400,A,2500.7978269,N,12132.4840837,E,0.04,50.03,260623,,,R,V*20
$GPHDT,,T*1B
$GNGGA,105150.600,2500.7978262,N,12132.4840861,E,4,57,0.48,15.858,M,15.25,M,16,3335*78
$GNRMC,105150.600,A,2500.7978262,N,12132.4840861,E,0.04,50.03,260623,,,R,V*2A
$GPHDT,,T*1B
$GNGGA,105150.800,2500.7978274,N,12132.4840851,E,4,57,0.48,15.862,M,15.25,M,16,3335*7B
$GNRMC,105150.800,A,2500.7978274,N,12132.4840851,E,0.02,50.03,260623,,,R,V*26
$GPHDT,,T*1B
$GNGSA,A,3,24,196,18,199,15,195,23,05,194,13,,,0.79,0.48,0.63,1*05
$GNGSA,A,3,85,80,70,84,73,79,69,,,,,,0.79,0.48,0.63,2*0E
$GNGSA,A,3,13,08,07,15,26,02,03,,,,,,0.79,0.48,0.63,3*08
$GNGSA,A,3,38,39,08,16,06,13,46,09,20,19,37,29,0.79,0.48,0.63,4*07
$GNGSA,A,3,36,,,,,,,,,,,,0.79,0.48,0.63,4*06
$GPGSV,4,1,16,24,81,133,43,196,73,056,43,18,60,282,42,199,60,167,25,1*60
$GPGSV,4,2,16,45,47,231,39,15,45,030,40,195,40,179,31,23,37,328,42,1*51
$GPGSV,4,3,16,05,29,104,17,194,25,142,30,13,18,046,28,12,11,153,,1*51
$GPGSV,4,4,16,29,08,208,18,20,08,120,,10,07,310,14,32,02,256,,1*69
$GPGSV,2,1,07,24,81,133,48,196,73,056,44,199,60,167,35,18,60,282,44,8*64
$GPGSV,2,2,07,195,40,179,32,23,37,328,46,194,25,142,30,8*5C
$GLGSV,3,1,09,85,45,270,33,80,43,105,39,70,38,347,27,84,25,196,21,1*74
$GLGSV,3,2,09,73,21,166,29,79,21,046,26,86,20,320,24,69,19,056,28,1*73
$GLGSV,3,3,09,71,16,297,26,1*48
$GAGSV,3,1,09,13,65,258,45,08,52,009,42,07,41,286,19,15,36,173,17,7*73
$GAGSV,3,2,09,26,24,317,24,02,21,099,14,03,17,054,21,30,16,152,,7*7B
$GAGSV,3,3,09,25,05,054,,7*49
$GAGSV,2,1,06,13,65,258,45,08,52,009,40,07,41,286,21,15,36,173,36,1*71
$GAGSV,2,2,06,26,24,317,30,03,17,054,21,1*70
$GBGSV,4,1,14,38,79,055,43,39,73,256,43,08,71,007,33,16,66,236,40,1*71
$GBGSV,4,2,14,06,63,233,42,13,62,341,43,46,50,135,29,09,47,225,38,1*7A
$GBGSV,4,3,14,20,46,043,45,19,42,327,46,37,30,060,21,29,29,223,44,1*79
$GBGSV,4,4,14,35,24,284,14,36,21,186,,1*71
$GBGSV,3,1,10,38,79,055,45,39,73,256,48,46,50,135,41,20,46,043,43,4*72
$GBGSV,3,2,10,19,42,327,43,37,30,060,33,29,29,223,37,35,24,284,23,4*75
$GBGSV,3,3,10,36,21,186,36,22,04,290,19,4*79
$GNGGA,105151.000,2500.7978259,N,12132.4840838,E,4,57,0.48,15.851,M,15.25,M,17,3335*73
$GNRMC,105151.000,A,2500.7978259,N,12132.4840838,E,0.02,50.03,260623,,,R,V*2F
$GPHDT,,T*1B
$GNGGA,105151.200,2500.7978258,N,12132.4840884,E,4,57,0.48,15.849,M,15.25,M,17,3335*7E
$GNRMC,105151.200,A,2500.7978258,N,12132.4840884,E,0.00,50.03,260623,,,R,V*29
$GPHDT,,T*1B
$GNGGA,105151.400,2500.7978271,N,12132.4840834,E,4,57,0.48,15.865,M,15.25,M,17,3335*76
$GNRMC,105151.400,A,2500.7978271,N,12132.4840834,E,0.01,50.03,260623,,,R,V*2E
$GPHDT,,T*1B
$GNGGA,105151.600,2500.7978285,N,12132.4840842,E,4,57,0.48,15.871,M,15.25,M,17,3335*7B
$GNRMC,105151.600,A,2500.7978285,N,12132.4840842,E,0.01,50.03,260623,,,R,V*26
$GPHDT,,T*1B
$GNGGA,105151.800,2500.7978279,N,12132.4840864,E,4,57,0.48,15.847,M,15.25,M,17,3335*77
$GNRMC,105151.800,A,2500.7978279,N,12132.4840864,E,0.02,50.03,260623,,,R,V*2C
$GPHDT,,T*1B
$GNGSA,A,3,24,196,18,199,15,195,23,05,194,13,,,0.79,0.48,0.63,1*05
$GNGSA,A,3,85,80,70,84,73,79,69,,,,,,0.79,0.48,0.63,2*0E
$GNGSA,A,3,13,08,07,15,26,02,03,,,,,,0.79,0.48,0.63,3*08
$GNGSA,A,3,38,39,08,16,06,13,46,09,20,19,37,29,0.79,0.48,0.63,4*07
$GNGSA,A,3,36,,,,,,,,,,,,0.79,0.48,0.63,4*06
$GPGSV,4,1,16,24,81,133,43,196,73,056,43,18,60,282,42,199,60,167,27,1*62
$GPGSV,4,2,16,45,47,231,39,15,45,030,39,195,40,179,31,23,37,328,42,1*5F
$GPGSV,4,3,16,05,29,104,18,194,25,142,30,13,18,046,28,12,11,153,,1*5E
$GPGSV,4,4,16,29,08,208,17,20,08,120,,10,07,310,14,32,02,256,,1*66
$GPGSV,2,1,07,24,81,133,48,196,73,056,44,199,60,167,34,18,60,282,43,8*62
$GPGSV,2,2,07,195,40,179,32,23,37,328,46,194,25,142,28,8*55
$GLGSV,3,1,09,85,45,270,34,80,43,105,39,70,38,347,27,84,25,196,21,1*73
$GLGSV,3,2,09,73,21,166,29,79,21,046,26,86,20,320,26,69,19,056,30,1*78
$GLGSV,3,3,09,71,16,297,25,1*4B
$GAGSV,3,1,09,13,65,258,45,08,52,009,42,07,41,286,19,15,36,173,18,7*7C
$GAGSV,3,2,09,26,24,317,25,02,21,099,13,03,17,054,20,30,16,152,,7*7C
$GAGSV,3,3,09,25,05,054,,7*49
$GAGSV,2,1,07,13,65,258,45,08,52,009,40,07,41,286,22,15,36,173,37,1*72
$GAGSV,2,2,07,26,24,317,30,02,21,099,27,03,17,054,21,1*45
$GBGSV,4,1,14,38,79,055,43,39,73,256,43,08,71,007,34,16,66,236,40,1*76
$GBGSV,4,2,14,06,63,233,42,13,62,341,43,46,50,135,29,09,47,225,38,1*7A
$GBGSV,4,3,14,20,46,043,45,19,42,327,46,37,30,060,21,29,29,223,44,1*79
$GBGSV,4,4,14,35,24,284,16,36,21,186,,1*73
$GBGSV,3,1,09,38,79,055,45,39,73,256,48,46,50,135,41,20,46,043,43,4*7A
$GBGSV,3,2,09,19,42,327,43,37,30,060,33,29,29,223,37,36,21,186,36,4*7E
$GBGSV,3,3,09,22,04,290,18,4*4C
$GNGGA,105152.000,2500.7978271,N,12132.4840819,E,4,57,0.48,15.852,M,15.25,M,18,3335*75
$GNRMC,105152.000,A,2500.7978271,N,12132.4840819,E,0.04,50.03,260623,,,R,V*23
$GPHDT,,T*1B
$GNGGA,105152.200,2500.7978273,N,12132.4840835,E,4,58,0.48,15.846,M,15.25,M,18,3335*71
$GNRMC,105152.200,A,2500.7978273,N,12132.4840835,E,0.04,50.03,260623,,,R,V*2D
$GPHDT,,T*1B
$GNGGA,105152.400,2500.7978250,N,12132.4840846,E,4,58,0.48,15.846,M,15.25,M,18,3335*72
$GNRMC,105152.400,A,2500.7978250,N,12132.4840846,E,0.04,50.03,260623,,,R,V*2E
$GPHDT,,T*1B
$GNGGA,105152.600,2500.7978243,N,12132.4840863,E,4,57,0.48,15.846,M,15.25,M,18,3335*7A
$GNRMC,105152.600,A,2500.7978243,N,12132.4840863,E,0.03,50.03,260623,,,R,V*2E
$GPHDT,,T*1B
$GNGGA,105152.800,2500.7978265,N,12132.4840849,E,4,57,0.48,15.847,M,15.25,M,18,3335*79
$GNRMC,105152.800,A,2500.7978265,N,12132.4840849,E,0.02,50.03,260623,,,R,V*2D
$GPHDT,,T*1B
$GNGSA,A,3,24,196,18,199,15,195,23,05,194,13,,,0.79,0.48,0.63,1*05
$GNGSA,A,3,85,80,70,84,73,79,69,,,,,,0.79,0.48,0.63,2*0E
$GNGSA,A,3,13,08,07,15,26,02,03,,,,,,0.79,0.48,0.63,3*08
$GNGSA,A,3,38,39,08,16,06,13,46,09,20,19,37,29,0.79,0.48,0.63,4*07
$GNGSA,A,3,36,,,,,,,,,,,,0.79,0.48,0.63,4*06
$GPGSV,4,1,16,24,81,133,43,196,73,056,43,18,60,282,42,199,60,167,24,1*61
$GPGSV,4,2,16,45,47,231,39,15,45,030,39,195,40,179,31,23,37,328,42,1*5F
$GPGSV,4,3,16,05,29,104,17,194,25,142,30,13,18,046,28,12,11,153,,1*51
$GPGSV,4,4,16,29,08,208,17,20,08,120,,10,07,310,16,32,02,256,,1*64
$GPGSV,2,1,07,24,81,133,48,196,73,056,44,199,60,167,34,18,60,282,43,8*62
$GPGSV,2,2,07,195,40,179,32,23,37,328,46,194,25,142,29,8*54
$GLGSV,3,1,09,85,45,270,34,80,43,105,38,70,38,347,28,84,25,196,21,1*7D
$GLGSV,3,2,09,73,21,166,30,79,21,046,26,86,20,320,26,69,19,056,30,1*70
$GLGSV,3,3,09,71,16,297,25,1*4B
$GAGSV,3,1,09,13,65,258,45,08,52,009,42,07,41,286,19,15,36,173,17,7*73
$GAGSV,3,2,09,26,24,317,23,02,21,099,13,03,17,054,21,30,16,152,,7*7B
$GAGSV,3,3,09,25,05,054,,7*49
$GAGSV,2,1,06,13,65,258,45,08,52,009,40,07,41,286,21,15,36,173,37,1*70
$GAGSV,2,2,06,26,24,317,29,03,17,054,20,1*79
$GBGSV,4,1,14,38,79,055,43,39,73,256,43,08,71,007,33,16,66,236,40,1*71
$GBGSV,4,2,14,06,63,233,42,13,62,341,43,46,50,135,29,09,47,225,38,1*7A
$GBGSV,4,3,14,20,46,043,45,19,42,328,46,37,30,060,21,29,29,223,44,1*76
$GBGSV,4,4,14,35,24,284,16,36,21,186,,1*73
$GBGSV,3,1,09,38,79,055,45,39,73,256,48,46,50,135,41,20,46,043,43,4*7A
$GBGSV,3,2,09,19,42,328,42,37,30,060,33,29,29,223,37,36,21,186,35,4*73
$GBGSV,3,3,09,22,04,290,18,4*4C
$GNGGA,105153.000,2500.7978251,N,12132.4840853,E,4,57,0.48,15.846,M,15.25,M,19,3335*7C
$GNRMC,105153.000,A,2500.7978251,N,12132.4840853,E,0.03,50.03,260623,,,R,V*29
$GPHDT,,T*1B
$GNGGA,105153.200,2500.7978271,N,12132.4840825,E,4,57,0.48,15.845,M,15.25,M,19,3335*7E
$GNRMC,105153.200,A,2500.7978271,N,12132.4840825,E,0.02,50.03,260623,,,R,V*29
$GPHDT,,T*1B
$GNGGA,105153.400,2500.7978256,N,12132.4840867,E,4,57,0.48,15.854,M,15.25,M,19,3335*7B
$GNRMC,105153.400,A,2500.7978256,N,12132.4840867,E,0.02,50.03,260623,,,R,V*2C
$GPHDT,,T*1B
$GNGGA,105153.600,2500.7978244,N,12132.4840869,E,4,58,0.48,15.836,M,15.25,M,19,3335*7F
$GNRMC,105153.600,A,2500.7978244,N,12132.4840869,E,0.02,50.03,260623,,,R,V*23
$GPHDT,,T*1B
$GNGGA,105153.800,2500.7978270,N,12132.4840851,E,4,58,0.48,15.836,M,15.25,M,19,3335*7D
$GNRMC,105153.800,A,2500.7978270,N,12132.4840851,E,0.03,50.03,260623,,,R,V*20
$GPHDT,,T*1B
$GNGSA,A,3,24,196,18,199,15,195,23,05,194,13,,,0.79,0.48,0.63,1*05
$GNGSA,A,3,85,80,70,84,73,79,69,,,,,,0.79,0.48,0.63,2*0E
$GNGSA,A,3,13,08,07,15,26,02,03,,,,,,0.79,0.48,0.63,3*08
$GNGSA,A,3,38,39,08,16,06,13,46,09,20,19,37,29,0.79,0.48,0.63,4*07
$GNGSA,A,3,36,,,,,,,,,,,,0.79,0.48,0.63,4*06
$GPGSV,4,1,16,24,81,133,43,196,73,056,43,18,60,282,42,199,60,167,24,1*61
$GPGSV,4,2,16,45,47,231,39,15,45,030,39,195,40,179,32,23,37,328,42,1*5C
$GPGSV,4,3,16,05,29,104,17,194,25,142,29,13,18,046,28,12,11,153,,1*59
$GPGSV,4,4,16,29,08,208,18,20,08,120,,10,07,310,17,32,02,256,,1*6A
$GPGSV,2,1,07,24,81,133,48,196,73,056,44,199,60,167,34,18,60,282,43,8*62
$GPGSV,2,2,07,195,40,179,32,23,37,328,46,194,25,142,29,8*54
$GLGSV,3,1,09,85,45,270,34,80,43,105,37,70,38,347,28,84,25,196,20,1*73
$GLGSV,3,2,09,73,21,166,29,79,21,046,26,86,20,320,24,69,19,056,30,1*7A
$GLGSV,3,3,09,71,16,297,25,1*4B
$GAGSV,3,1,09,13,65,258,44,08,52,009,42,07,41,286,18,15,36,173,13,7*77
$GAGSV,3,2,09,26,24,317,24,02,21,099,15,03,17,054,21,30,16,152,,7*7A
$GAGSV,3,3,09,25,05,054,,7*49
$GAGSV,2,1,06,13,65,258,45,08,52,009,40,07,41,286,21,15,36,173,37,1*70
$GAGSV,2,2,06,26,24,317,29,03,17,054,21,1*78
$GBGSV,4,1,14,38,79,055,43,39,73,256,43,08,71,007,33,16,66,236,40,1*71
$GBGSV,4,2,14,06,63,233,42,13,62,341,43,46,50,135,31,09,47,225,38,1*73
$GBGSV,4,3,14,20,46,043,45,19,42,328,46,37,30,060,22,29,29,223,44,1*75
$GBGSV,4,4,14,35,24,284,17,36,21,186,24,1*74
$GBGSV,3,1,09,38,79,055,45,39,73,256,48,46,50,135,41,20,46,043,43,4*7A
$GBGSV,3,2,09,19,42,328,41,37,30,060,32,29,29,223,37,36,21,186,34,4*70
$GBGSV,3,3,09,22,04,290,19,4*4D
$GNGGA,105154.000,2500.7978251,N,12132.4840875,E,4,58,0.48,15.836,M,15.25,M,20,3335*7D
$GNRMC,105154.000,A,2500.7978251,N,12132.4840875,E,0.02,50.03,260623,,,R,V*2B
$GPHDT,,T*1B
$GNGGA,105154.200,2500.7978258,N,12132.4840864,E,4,58,0.48,15.836,M,15.25,M,20,3335*76
$GNRMC,105154.200,A,2500.7978258,N,12132.4840864,E,0.01,50.03,260623,,,R,V*23
$GPHDT,,T*1B
$GNGGA,105154.400,2500.7978254,N,12132.4840868,E,4,58,0.48,15.832,M,15.25,M,20,3335*74
$GNRMC,105154.400,A,2500.7978254,N,12132.4840868,E,0.03,50.03,260623,,,R,V*27
