$FW : RTK35X,V1.1X0314AS,Lib20210517,1*54
$Tool : LOCOSYS , GNSS Firebird , v1.0.0.19*39
$---------------------------------------------------*2D
$GPHDT,,T*1B
$GNGGA,105055.600,2500.8002900,N,12132.4841800,E,2,59,0.48,23.79,M,15.25,M,77,3335*4F
$GNRMC,105055.600,A,2500.8002900,N,12132.4841800,E,0.01,50.03,260623,,,D,V*3F
$GPHDT,,T*1B
$GNGGA,105055.800,2500.8003000,N,12132.4841800,E,2,57,0.48,23.78,M,15.25,M,77,3335*46
$GNRMC,105055.800,A,2500.8003000,N,12132.4841800,E,0.03,50.03,260623,,,D,V*3B
$GPHDT,,T*1B
$GNGSA,A,3,24,196,18,199,15,195,23,05,194,13,,,0.79,0.48,0.63,1*05
$GNGSA,A,3,85,80,70,84,79,73,69,,,,,,0.79,0.48,0.63,2*0E
$GNGSA,A,3,13,08,07,15,26,02,03,,,,,,0.79,0.48,0.63,3*08
$GNGSA,A,3,38,39,08,16,06,13,46,09,20,19,29,36,0.79,0.48,0.63,4*06
$GPGSV,4,1,16,24,81,136,43,196,73,056,41,18,60,283,41,199,60,167,23,1*63
$GPGSV,4,2,16,45,47,231,39,15,46,029,39,195,40,179,24,23,37,328,42,1*50
$GPGSV,4,3,16,05,29,104,25,194,25,142,21,13,18,046,30,12,10,153,,1*58
$GPGSV,4,4,16,29,09,208,16,20,08,120,,10,07,310,19,32,01,256,,1*68
$GPGSV,2,1,07,24,81,136,48,196,73,056,45,199,60,167,37,18,60,283,43,8*64
$GPGSV,2,2,07,195,40,179,28,23,37,328,44,194,25,142,30,8*55
$GLGSV,2,1,08,85,45,271,33,80,43,106,38,70,38,346,29,84,25,197,20,1*78
$GLGSV,2,2,08,79,22,046,27,73,20,166,18,86,20,320,22,69,19,056,30,1*7D
$GAGSV,3,1,09,13,65,259,43,08,53,009,41,07,41,285,20,15,37,173,22,7*78
$GAGSV,3,2,09,26,24,317,23,02,21,099,20,03,17,054,19,30,16,152,,7*70
$GAGSV,3,3,09,25,05,054,,7*49
$GAGSV,2,1,07,13,65,259,45,08,53,009,41,07,41,285,27,15,37,173,25,1*77
$GAGSV,2,2,07,26,24,317,27,02,21,099,28,03,17,054,20,1*4D
$GBGSV,4,1,14,38,79,054,43,39,73,255,43,08,71,007,34,16,66,235,39,1*79
$GBGSV,4,2,14,06,63,233,42,13,62,341,45,46,50,135,39,09,47,225,34,1*71
$GBGSV,4,3,14,20,46,042,45,19,42,327,47,37,30,060,,29,30,223,34,1*75
$GBGSV,4,4,14,36,21,186,28,22,04,289,21,1*74
$GBGSV,2,1,07,38,79,054,45,39,73,255,46,46,50,135,42,20,46,042,44,4*7C
$GBGSV,2,2,07,19,42,327,43,29,30,223,38,36,21,186,26,4*46
$GNGGA,105056.000,2500.8003000,N,12132.4841700,E,2,57,0.48,23.78,M,15.25,M,78,3335*4D
$GNRMC,105056.000,A,2500.8003000,N,12132.4841700,E,0.04,50.03,260623,,,D,V*38
$GPHDT,,T*1B
$GNGGA,105056.200,2500.8003000,N,12132.4841700,E,2,57,0.48,23.77,M,15.25,M,78,3335*40
$GNRMC,105056.200,A,2500.8003000,N,12132.4841700,E,0.02,50.03,260623,,,D,V*3C
$GPHDT,,T*1B
$GNGGA,105056.400,2500.8003100,N,12132.4841700,E,2,59,0.48,23.76,M,15.25,M,78,3335*48
$GNRMC,105056.400,A,2500.8003100,N,12132.4841700,E,0.01,50.03,260623,,,D,V*38
$GPHDT,,T*1B
$GNGGA,105056.600,2500.8003200,N,12132.4841700,E,2,59,0.48,23.75,M,15.25,M,78,3335*4A
$GNRMC,105056.600,A,2500.8003200,N,12132.4841700,E,0.01,50.03,260623,,,D,V*39
$GPHDT,,T*1B
$GNGGA,105056.800,2500.8003200,N,12132.4841600,E,2,59,0.48,23.74,M,15.25,M,78,3335*44
$GNRMC,105056.800,A,2500.8003200,N,12132.4841600,E,0.01,50.03,260623,,,D,V*36
$GPHDT,,T*1B
$GNGSA,A,3,24,196,18,199,15,195,23,05,194,13,,,0.79,0.48,0.63,1*05
$GNGSA,A,3,85,80,70,84,79,73,69,,,,,,0.79,0.48,0.63,2*0E
$GNGSA,A,3,13,08,07,15,26,02,03,,,,,,0.79,0.48,0.63,3*08
$GNGSA,A,3,38,39,08,16,06,13,46,09,20,19,37,29,0.79,0.48,0.63,4*07
$GNGSA,A,3,36,,,,,,,,,,,,0.79,0.48,0.63,4*06
$GPGSV,4,1,16,24,81,136,43,196,73,056,41,18,60,283,41,199,60,167,22,1*62
$GPGSV,4,2,16,45,47,231,39,15,46,029,40,195,40,179,23,23,37,328,42,1*59
$GPGSV,4,3,16,05,29,104,22,194,25,142,29,13,18,046,32,12,10,153,,1*55
$GPGSV,4,4,16,29,09,208,15,20,08,120,,10,07,310,20,32,01,256,,1*61
$GPGSV,2,1,07,24,81,136,48,196,73,056,45,199,60,167,36,18,60,283,43,8*65
$GPGSV,2,2,07,195,40,179,26,23,37,328,43,194,25,142,28,8*55
$GLGSV,2,1,08,85,45,271,32,80,43,106,39,70,38,346,29,84,25,197,18,1*73
$GLGSV,2,2,08,79,22,046,27,73,20,166,18,86,20,320,23,69,19,056,31,1*7D
$GAGSV,3,1,09,13,65,259,43,08,53,009,41,07,41,285,22,15,37,173,24,7*7C
$GAGSV,3,2,09,26,24,317,22,02,21,099,16,03,17,054,18,30,16,152,,7*75
$GAGSV,3,3,09,25,05,054,,7*49
$GAGSV,2,1,07,13,65,259,44,08,53,009,41,07,41,285,28,15,37,173,22,1*7E
$GAGSV,2,2,07,26,24,317,27,02,21,099,29,03,17,054,18,1*47
$GBGSV,4,1,14,38,79,054,43,39,73,255,43,08,71,007,34,16,66,235,40,1*77
$GBGSV,4,2,14,06,63,233,42,13,62,341,45,46,50,135,40,09,47,225,35,1*7E
$GBGSV,4,3,14,20,46,042,45,19,42,327,47,37,30,060,30,29,30,223,34,1*76
$GBGSV,4,4,14,36,21,186,26,22,04,289,20,1*7B
$GBGSV,2,1,08,38,79,054,45,39,73,255,46,46,50,135,42,20,46,042,44,4*73
$GBGSV,2,2,08,19,42,327,43,29,30,223,37,37,30,060,26,36,21,186,23,4*76
$GNGGA,105057.000,2500.8003200,N,12132.4841600,E,2,59,0.48,23.73,M,15.25,M,79,3335*4B
$GNRMC,105057.000,A,2500.8003200,N,12132.4841600,E,0.01,50.03,260623,,,D,V*3F
$GPHDT,,T*1B
$GNGGA,105057.200,2500.8003200,N,12132.4841500,E,2,59,0.48,23.72,M,15.25,M,79,3335*4B
$GNRMC,105057.200,A,2500.8003200,N,12132.4841500,E,0.01,50.03,260623,,,D,V*3E
$GPHDT,,T*1B
$GNGGA,105057.400,2500.8003200,N,12132.4841500,E,2,58,0.48,23.72,M,15.25,M,79,3335*4C
$GNRMC,105057.400,A,2500.8003200,N,12132.4841500,E,0.02,50.03,260623,,,D,V*3B
$GPHDT,,T*1B
$GNGGA,105057.600,2500.8003200,N,12132.4841300,E,2,58,0.48,23.72,M,15.25,M,79,3335*48
$GNRMC,105057.600,A,2500.8003200,N,12132.4841300,E,0.00,50.03,260623,,,D,V*3D
$GPHDT,,T*1B
$GNGGA,105057.800,2500.8003200,N,12132.4841300,E,2,58,0.48,23.72,M,15.25,M,79,3335*46
$GNRMC,105057.800,A,2500.8003200,N,12132.4841300,E,0.01,50.03,260623,,,D,V*32
$GPHDT,,T*1B
$GNGSA,A,3,24,196,18,199,15,195,23,05,194,13,,,0.79,0.48,0.63,1*05
$GNGSA,A,3,85,80,70,84,79,73,69,,,,,,0.79,0.48,0.63,2*0E
$GNGSA,A,3,13,08,07,15,26,02,03,,,,,,0.79,0.48,0.63,3*08
$GNGSA,A,3,38,39,08,16,06,13,46,09,20,19,37,29,0.79,0.48,0.63,4*07
$GNGSA,A,3,36,,,,,,,,,,,,0.79,0.48,0.63,4*06
$GPGSV,4,1,16,24,81,136,43,196,73,056,41,18,60,283,41,199,60,167,22,1*62
$GPGSV,4,2,16,45,47,231,39,15,46,029,40,195,40,179,21,23,37,328,42,1*5B
$GPGSV,4,3,16,05,29,104,23,194,25,142,28,13,18,046,32,12,10,153,,1*55
$GPGSV,4,4,16,29,09,208,14,20,08,120,,10,07,310,20,32,01,256,,1*60
$GPGSV,2,1,07,24,81,136,48,196,73,056,45,199,60,167,35,18,60,283,44,8*61
$GPGSV,2,2,07,195,40,179,27,23,37,328,43,194,25,142,27,8*5B
$GLGSV,2,1,08,85,45,271,31,80,43,106,39,70,38,346,30,84,25,197,16,1*76
$GLGSV,2,2,08,79,22,046,26,73,20,166,18,86,20,320,25,69,19,056,31,1*7A
$GAGSV,3,1,09,13,65,259,43,08,53,009,41,07,41,285,21,15,37,173,27,7*7C
$GAGSV,3,2,09,26,24,317,23,02,21,099,16,03,17,054,17,30,16,152,,7*7B
$GAGSV,3,3,09,25,05,054,,7*49
$GAGSV,2,1,07,13,65,259,44,08,53,009,41,07,41,285,28,15,37,173,25,1*79
$GAGSV,2,2,07,26,24,317,27,02,21,099,29,03,17,054,17,1*48
$GBGSV,4,1,14,38,79,054,44,39,73,255,43,08,71,007,34,16,66,235,40,1*70
$GBGSV,4,2,14,06,63,233,42,13,62,341,45,46,50,135,40,09,47,225,35,1*7E
$GBGSV,4,3,14,20,46,042,45,19,42,327,47,37,30,060,31,29,30,223,34,1*77
$GBGSV,4,4,14,36,21,186,25,22,04,289,20,1*78
$GBGSV,2,1,08,38,79,054,45,39,73,255,46,46,50,135,43,20,46,042,45,4*73
$GBGSV,2,2,08,19,42,327,43,29,30,223,37,37,30,060,14,36,21,186,25,4*71
$GNGGA,105058.000,2500.8003200,N,12132.4841000,E,2,58,0.48,23.73,M,15.25,M,80,3335*45
$GNRMC,105058.000,A,2500.8003200,N,12132.4841000,E,0.02,50.03,260623,,,D,V*35
$GPHDT,,T*1B
$GNGGA,105058.200,2500.8003300,N,12132.4841000,E,2,57,0.48,23.73,M,15.25,M,76,3335*40
$GNRMC,105058.200,A,2500.8003300,N,12132.4841000,E,0.01,50.03,260623,,,D,V*35
$GPHDT,,T*1B
$GNGGA,105058.400,2500.8003400,N,12132.4841000,E,2,57,0.48,23.73,M,15.25,M,76,3335*41
$GNRMC,105058.400,A,2500.8003400,N,12132.4841000,E,0.02,50.03,260623,,,D,V*37
$GPHDT,,T*1B
$GNGGA,105058.600,2500.8003400,N,12132.4840900,E,2,57,0.48,23.73,M,15.25,M,76,3335*4B
$GNRMC,105058.600,A,2500.8003400,N,12132.4840900,E,0.03,50.03,260623,,,D,V*3C
$GPHDT,,T*1B
$GNGGA,105058.800,2500.8003400,N,12132.4840800,E,2,57,0.48,23.72,M,15.25,M,76,3335*45
$GNRMC,105058.800,A,2500.8003400,N,12132.4840800,E,0.03,50.03,260623,,,D,V*33
$GPHDT,,T*1B
$GNGSA,A,3,24,196,18,199,15,195,23,05,194,13,,,0.79,0.48,0.63,1*05
$GNGSA,A,3,85,80,70,84,79,73,69,,,,,,0.79,0.48,0.63,2*0E
$GNGSA,A,3,13,08,07,15,26,02,03,,,,,,0.79,0.48,0.63,3*08
$GNGSA,A,3,38,39,08,16,06,13,46,09,20,19,29,36,0.79,0.48,0.63,4*06
$GPGSV,4,1,16,24,81,136,43,196,73,056,41,18,60,283,41,199,60,167,25,1*65
$GPGSV,4,2,16,45,47,231,39,15,46,029,40,195,40,179,31,23,37,328,42,1*5A
$GPGSV,4,3,16,05,29,104,23,194,25,142,30,13,18,046,31,12,10,153,,1*5F
$GPGSV,4,4,16,29,09,208,15,20,08,120,,10,07,310,19,32,01,256,,1*6B
$GPGSV,2,1,07,24,81,136,48,196,73,056,45,199,60,167,37,18,60,283,44,8*63
$GPGSV,2,2,07,195,40,179,27,23,37,328,43,194,25,142,26,8*5A
$GLGSV,3,1,09,85,45,271,32,80,43,106,38,70,38,346,30,84,25,197,16,1*74
$GLGSV,3,2,09,79,22,046,27,73,20,166,18,86,20,320,25,69,19,056,31,1*7B
$GLGSV,3,3,09,71,15,296,,1*4E
$GAGSV,3,1,09,13,65,259,43,08,53,009,41,07,41,285,23,15,37,173,27,7*7E
$GAGSV,3,2,09,26,24,317,24,02,21,099,17,03,17,054,16,30,16,152,,7*7C
$GAGSV,3,3,09,25,05,054,,7*49
$GAGSV,2,1,07,13,65,259,44,08,53,009,41,07,41,285,26,15,37,173,25,1*77
$GAGSV,2,2,07,26,24,317,27,02,21,099,28,03,17,054,17,1*49
$GBGSV,4,1,14,38,79,054,44,39,73,255,43,08,71,007,34,16,66,235,39,1*7E
$GBGSV,4,2,14,06,63,233,42,13,62,341,45,46,50,135,39,09,47,225,35,1*70
$GBGSV,4,3,14,20,46,042,45,19,42,327,47,29,30,223,37,37,30,060,,1*76
$GBGSV,4,4,14,36,21,186,21,22,04,289,20,1*7C
$GBGSV,2,1,07,38,79,054,45,39,73,255,46,46,50,135,43,20,46,042,45,4*7C
$GBGSV,2,2,07,19,42,327,43,29,30,223,37,36,21,186,27,4*48
$GNGGA,105059.000,2500.8003400,N,12132.4840800,E,2,57,0.48,23.72,M,15.25,M,77,3335*4D
$GNRMC,105059.000,A,2500.8003400,N,12132.4840800,E,0.02,50.03,260623,,,D,V*3B
$GPHDT,,T*1B
$GNGGA,105059.200,2500.8003500,N,12132.4840800,E,2,57,0.48,23.72,M,15.25,M,77,3335*4E
$GNRMC,105059.200,A,2500.8003500,N,12132.4840800,E,0.02,50.03,260623,,,D,V*38
$GPHDT,,T*1B
$GNGGA,105059.400,2500.8003500,N,12132.4840700,E,2,56,0.48,23.72,M,15.25,M,77,3335*46
$GNRMC,105059.400,A,2500.8003500,N,12132.4840700,E,0.02,50.03,260623,,,D,V*31
$GPHDT,,T*1B
$GNGGA,105059.600,2500.8003500,N,12132.4840800,E,2,56,0.48,23.71,M,15.25,M,77,3335*48
$GNRMC,105059.600,A,2500.8003500,N,12132.4840800,E,0.02,50.03,260623,,,D,V*3C
$GPHDT,,T*1B
$GNGGA,105059.800,2500.8003500,N,12132.4840600,E,2,57,0.48,23.72,M,15.25,M,77,3335*4A
$GNRMC,105059.800,A,2500.8003500,N,12132.4840600,E,0.02,50.03,260623,,,D,V*3C
$GPHDT,,T*1B
$GNGSA,A,3,24,196,18,199,15,195,23,05,194,13,,,0.79,0.48,0.63,1*05
$GNGSA,A,3,85,80,70,84,79,73,69,,,,,,0.79,0.48,0.63,2*0E
$GNGSA,A,3,13,08,07,15,26,02,03,,,,,,0.79,0.48,0.63,3*08
$GNGSA,A,3,38,39,08,16,06,13,46,09,20,19,37,29,0.79,0.48,0.63,4*07
$GNGSA,A,3,36,,,,,,,,,,,,0.79,0.48,0.63,4*06
$GPGSV,4,1,16,24,81,136,43,196,73,056,41,18,60,283,41,199,60,167,25,1*65
$GPGSV,4,2,16,45,47,231,39,15,45,029,40,195,40,179,28,23,37,328,42,1*51
$GPGSV,4,3,16,05,29,104,24,194,25,142,28,13,18,046,31,12,10,153,,1*51
$GPGSV,4,4,16,29,09,208,13,20,08,120,,10,07,310,,32,01,256,,1*65
$GPGSV,2,1,05,24,81,136,48,196,73,056,45,199,60,167,38,18,60,283,44,8*6E
$GPGSV,2,2,05,23,37,328,43,8*53
$GLGSV,2,1,08,85,45,271,33,80,43,106,38,70,38,346,31,84,25,197,19,1*7B
$GLGSV,2,2,08,79,22,046,27,73,20,166,19,86,20,320,26,69,19,056,30,1*78
$GAGSV,3,1,09,13,65,259,43,08,53,009,41,07,41,285,23,15,37,173,27,7*7E
$GAGSV,3,2,09,26,24,317,23,02,21,099,18,03,17,054,17,30,16,152,,7*75
$GAGSV,3,3,09,25,05,054,,7*49
$GAGSV,2,1,07,13,65,259,44,08,53,009,41,07,41,285,27,15,37,173,27,1*74
$GAGSV,2,2,07,26,24,317,28,02,21,099,28,03,17,054,17,1*46
$GBGSV,4,1,16,38,79,054,44,39,73,255,43,08,71,007,34,16,66,235,39,1*7C
$GBGSV,4,2,16,06,63,233,42,13,62,341,45,46,50,135,39,09,47,225,34,1*73
$GBGSV,4,3,16,20,46,042,45,19,42,327,47,37,30,060,32,29,30,223,38,1*7A
$GBGSV,4,4,16,36,21,186,22,30,05,175,,10,04,206,,22,04,289,20,1*79
$GBGSV,2,1,07,38,79,054,45,39,73,255,46,46,50,135,43,20,46,042,45,4*7C
$GBGSV,2,2,07,19,42,327,43,29,30,223,39,36,21,186,23,4*42
$GNGGA,105100.000,2500.8003600,N,12132.4840600,E,2,56,0.48,23.73,M,15.25,M,78,3335*43
$GNRMC,105100.000,A,2500.8003600,N,12132.4840600,E,0.02,50.03,260623,,,D,V*3A
$GPHDT,,T*1B
$GNGGA,105100.200,2500.8003600,N,12132.4840400,E,2,57,0.48,23.74,M,15.25,M,78,3335*45
$GNRMC,105100.200,A,2500.8003600,N,12132.4840400,E,0.01,50.03,260623,,,D,V*39
$GPHDT,,T*1B
$GNGGA,105100.400,2500.8003700,N,12132.4840300,E,2,57,0.48,23.76,M,15.25,M,78,3335*47
$GNRMC,105100.400,A,2500.8003700,N,12132.4840300,E,0.04,50.03,260623,,,D,V*3C
$GPHDT,,T*1B
$GNGGA,105100.600,2500.8003800,N,12132.4840200,E,2,57,0.48,23.77,M,15.25,M,78,3335*4A
$GNRMC,105100.600,A,2500.8003800,N,12132.4840200,E,0.02,50.03,260623,,,D,V*36
$GPHDT,,T*1B
$GNGGA,105100.800,2500.8003800,N,12132.4840100,E,2,57,0.48,23.79,M,15.25,M,78,3335*49
$GNRMC,105100.800,A,2500.8003800,N,12132.4840100,E,0.07,50.03,260623,,,D,V*3E
$GPHDT,,T*1B
$GNGSA,A,3,24,196,18,199,15,195,23,05,194,13,,,0.79,0.48,0.63,1*05
$GNGSA,A,3,85,80,70,84,79,73,69,,,,,,0.79,0.48,0.63,2*0E
$GNGSA,A,3,13,08,07,15,26,02,03,,,,,,0.79,0.48,0.63,3*08
$GNGSA,A,3,38,39,08,16,06,13,46,09,20,19,37,29,0.79,0.48,0.63,4*07
$GNGSA,A,3,36,,,,,,,,,,,,0.79,0.48,0.63,4*06
$GPGSV,4,1,16,24,81,136,43,196,73,056,41,18,60,283,41,199,60,167,25,1*65
$GPGSV,4,2,16,45,47,231,39,15,45,029,40,195,40,179,30,23,37,328,42,1*58
$GPGSV,4,3,16,05,29,104,28,194,25,142,28,13,18,046,31,12,10,153,,1*5D
$GPGSV,4,4,16,29,09,208,14,20,08,120,,10,07,310,,32,01,256,,1*62
$GPGSV,2,1,06,24,81,136,48,196,73,056,45,18,60,283,43,199,60,167,39,8*6B
$GPGSV,2,2,06,195,40,179,20,23,37,328,43,8*54
$GLGSV,2,1,08,85,45,271,33,80,43,106,38,70,38,346,31,84,25,197,22,1*73
$GLGSV,2,2,08,79,22,046,27,73,20,166,23,86,20,320,25,69,19,056,30,1*72
$GAGSV,3,1,09,13,65,259,43,08,53,009,41,07,41,285,24,15,37,173,29,7*77
$GAGSV,3,2,09,26,24,317,23,02,21,099,21,03,17,054,17,30,16,152,,7*7F
$GAGSV,3,3,09,25,05,054,,7*49
$GAGSV,2,1,07,13,65,259,44,08,53,009,41,07,41,285,27,15,37,173,31,1*73
$GAGSV,2,2,07,26,24,317,28,02,21,099,28,03,17,054,17,1*46
$GBGSV,4,1,14,38,79,054,44,39,73,255,43,08,71,007,34,16,66,235,39,1*7E
$GBGSV,4,2,14,06,63,233,42,13,62,341,45,46,50,135,37,09,47,225,34,1*7F
$GBGSV,4,3,14,20,46,042,45,19,42,327,47,37,30,060,33,29,30,223,38,1*79
$GBGSV,4,4,14,36,21,186,19,22,04,289,20,1*77
$GBGSV,2,1,07,38,79,054,45,39,73,255,46,46,50,135,42,20,46,042,45,4*7D
$GBGSV,2,2,07,19,42,327,43,29,30,223,38,36,21,186,29,4*49
$GNGGA,105101.000,2500.8003800,N,12132.4839900,E,2,57,0.48,23.80,M,15.25,M,79,3335*41
$GNRMC,105101.000,A,2500.8003800,N,12132.4839900,E,0.06,50.03,260623,,,D,V*30
$GPHDT,,T*1B
$GNGGA,105101.200,2500.8003900,N,12132.4839700,E,2,57,0.48,23.81,M,15.25,M,79,3335*4D
$GNRMC,105101.200,A,2500.8003900,N,12132.4839700,E,0.06,50.03,260623,,,D,V*3D
$GPHDT,,T*1B
$GNGGA,105101.400,2500.8003900,N,12132.4839600,E,2,57,0.48,23.82,M,15.25,M,79,3335*49
$GNRMC,105101.400,A,2500.8003900,N,12132.4839600,E,0.06,50.03,260623,,,D,V*3A
$GPHDT,,T*1B
$GNGGA,105101.600,2500.8003900,N,12132.4839500,E,2,57,0.48,23.83,M,15.25,M,79,3335*49
$GNRMC,105101.600,A,2500.8003900,N,12132.4839500,E,0.05,50.03,260623,,,D,V*38
$GPHDT,,T*1B
$GNGGA,105101.800,2500.8004100,N,12132.4839300,E,2,57,0.48,23.86,M,15.25,M,79,3335*4B
$GNRMC,105101.800,A,2500.8004100,N,12132.4839300,E,0.04,50.03,260623,,,D,V*3E
$GPHDT,,T*1B
$GNGSA,A,3,24,196,18,199,15,195,23,05,194,13,,,0.79,0.48,0.63,1*05
$GNGSA,A,3,85,80,70,84,79,73,69,,,,,,0.79,0.48,0.63,2*0E
$GNGSA,A,3,13,08,07,15,26,02,03,,,,,,0.79,0.48,0.63,3*08
$GNGSA,A,3,38,39,08,16,06,13,46,09,20,19,37,29,0.79,0.48,0.63,4*07
$GNGSA,A,3,36,,,,,,,,,,,,0.79,0.48,0.63,4*06
$GPGSV,4,1,16,24,81,134,43,196,73,056,42,18,60,283,41,199,60,167,21,1*60
$GPGSV,4,2,16,45,47,231,39,15,45,029,40,195,40,179,30,23,37,328,42,1*58
$GPGSV,4,3,16,05,29,104,26,194,25,142,29,13,18,046,30,12,10,153,,1*53
$GPGSV,4,4,16,29,09,208,14,20,08,120,,10,07,310,,32,01,256,,1*62
$GPGSV,2,1,05,24,81,134,48,196,73,056,45,199,60,167,39,18,60,283,43,8*6A
$GPGSV,2,2,05,23,37,328,43,8*53
$GLGSV,2,1,08,85,45,271,33,80,43,106,39,70,38,346,31,84,25,197,19,1*7A
$GLGSV,2,2,08,79,22,046,28,73,20,166,26,86,20,320,26,69,19,056,30,1*7B
$GAGSV,3,1,09,13,65,259,43,08,53,009,41,07,41,285,22,15,37,173,28,7*70
$GAGSV,3,2,09,26,24,317,24,02,21,099,21,03,17,054,17,30,16,152,,7*78
$GAGSV,3,3,09,25,05,054,,7*49
$GAGSV,2,1,07,13,65,259,44,08,53,009,41,07,41,285,29,15,37,173,31,1*7D
$GAGSV,2,2,07,26,24,317,28,02,21,099,24,03,17,054,17,1*4A
$GBGSV,4,1,14,38,79,054,44,39,73,255,43,08,71,007,34,16,66,235,39,1*7E
$GBGSV,4,2,14,06,63,233,42,13,62,341,45,46,50,135,38,09,47,225,34,1*70
$GBGSV,4,3,14,20,46,042,45,19,42,327,47,37,30,060,33,29,30,223,38,1*79
$GBGSV,4,4,14,36,21,186,20,22,04,289,20,1*7D
$GBGSV,2,1,07,38,79,054,45,39,73,255,46,46,50,135,42,20,46,042,45,4*7D
$GBGSV,2,2,07,19,42,327,43,29,30,223,37,36,21,186,29,4*46
$GNGGA,105102.000,2500.8004100,N,12132.4839200,E,2,56,0.48,23.88,M,15.25,M,80,3335*48
$GNRMC,105102.000,A,2500.8004100,N,12132.4839200,E,0.03,50.03,260623,,,D,V*33
$GPHDT,,T*1B
$GNGGA,105102.200,2500.8004200,N,12132.4839200,E,2,56,0.48,23.88,M,15.25,M,80,3335*49
$GNRMC,105102.200,A,2500.8004200,N,12132.4839200,E,0.03,50.03,260623,,,D,V*32
$GPHDT,,T*1B
$GNGGA,105102.400,2500.8004300,N,12132.4839100,E,2,56,0.48,23.90,M,15.25,M,80,3335*44
$GNRMC,105102.400,A,2500.8004300,N,12132.4839100,E,0.05,50.03,260623,,,D,V*30
$GPHDT,,T*1B
$GNGGA,105102.600,2500.8004300,N,12132.4839000,E,2,57,0.48,23.91,M,15.25,M,80,3335*47
$GNRMC,105102.600,A,2500.8004300,N,12132.4839000,E,0.02,50.03,260623,,,D,V*34
$GPHDT,,T*1B
$GNGGA,105102.800,2500.8004300,N,12132.4839000,E,2,57,0.48,23.92,M,15.25,M,80,3335*4A
$GNRMC,105102.800,A,2500.8004300,N,12132.4839000,E,0.03,50.03,260623,,,D,V*3B
$GPHDT,,T*1B
$GNGSA,A,3,24,196,18,199,15,195,23,05,194,13,,,0.79,0.48,0.63,1*05
$GNGSA,A,3,85,80,70,84,79,73,69,,,,,,0.79,0.48,0.63,2*0E
$GNGSA,A,3,13,08,07,15,26,02,03,,,,,,0.79,0.48,0.63,3*08
$GNGSA,A,3,38,39,08,16,06,13,46,09,20,19,37,29,0.79,0.48,0.63,4*07
$GNGSA,A,3,36,,,,,,,,,,,,0.79,0.48,0.63,4*06
$GPGSV,4,1,16,24,81,134,43,196,73,056,42,18,60,283,41,199,60,167,25,1*64
$GPGSV,4,2,16,45,47,231,39,15,45,029,40,195,40,179,30,23,37,328,41,1*5B
$GPGSV,4,3,16,05,29,104,27,194,25,142,28,13,18,046,30,12,10,153,,1*53
$GPGSV,4,4,16,29,09,208,14,20,08,120,,10,07,310,,32,01,256,,1*62
$GPGSV,2,1,06,24,81,134,48,196,73,056,45,18,60,283,43,199,60,167,38,8*68
$GPGSV,2,2,06,23,37,328,43,194,25,142,27,8*59
$GLGSV,2,1,08,85,45,271,31,80,43,106,39,70,38,346,31,84,25,197,19,1*78
$GLGSV,2,2,08,79,22,046,29,73,20,166,23,86,20,320,27,69,19,056,30,1*7E
$GAGSV,3,1,09,13,65,259,43,08,53,009,41,07,41,285,22,15,37,173,28,7*70
$GAGSV,3,2,09,26,24,317,23,02,21,099,21,03,17,054,18,30,16,152,,7*70
$GAGSV,3,3,09,25,05,054,,7*49
$GAGSV,2,1,07,13,65,259,44,08,53,009,41,07,41,285,28,15,37,173,31,1*7C
$GAGSV,2,2,07,26,24,317,28,02,21,099,27,03,17,054,17,1*49
$GBGSV,4,1,14,38,79,054,44,39,73,255,43,08,71,007,35,16,66,235,39,1*7F
$GBGSV,4,2,14,06,63,233,42,13,62,341,45,46,50,135,38,09,47,225,35,1*71
$GBGSV,4,3,14,20,46,042,45,19,42,327,47,37,30,060,32,29,30,223,39,1*79
$GBGSV,4,4,14,36,21,186,31,22,04,289,19,1*77
$GBGSV,2,1,07,38,79,054,45,39,73,255,46,46,50,135,42,20,46,042,45,4*7D
$GBGSV,2,2,07,19,42,327,43,29,30,223,39,36,21,186,27,4*46
$GNGGA,105103.000,2500.8004400,N,12132.4838900,E,2,57,0.48,23.93,M,15.25,M,81,3335*4C
$GNRMC,105103.000,A,2500.8004400,N,12132.4838900,E,0.02,50.03,260623,,,D,V*3C
$GPHDT,,T*1B
$GNGGA,105103.200,2500.8004300,N,12132.4838900,E,2,57,0.48,23.94,M,15.25,M,81,3335*4E
$GNRMC,105103.200,A,2500.8004300,N,12132.4838900,E,0.02,50.03,260623,,,D,V*39
$GPHDT,,T*1B
$GNGGA,105103.400,2500.8004400,N,12132.4838900,E,2,57,0.48,23.93,M,15.25,M,81,3335*48
$GNRMC,105103.400,A,2500.8004400,N,12132.4838900,E,0.01,50.03,260623,,,D,V*3B
$GPHDT,,T*1B
$GNGGA,105103.600,2500.8004400,N,12132.4838800,E,2,57,0.48,23.94,M,15.25,M,5,3335*70
$GNRMC,105103.600,A,2500.8004400,N,12132.4838800,E,0.01,50.03,260623,,,D,V*38
$GPHDT,,T*1B
$GNGGA,105103.800,2500.8004300,N,12132.4838700,E,2,57,0.48,23.95,M,15.25,M,2,3335*70
$GNRMC,105103.800,A,2500.8004300,N,12132.4838700,E,0.02,50.03,260623,,,D,V*3D
$GPHDT,,T*1B
$GNGSA,A,3,24,196,18,199,15,195,23,05,194,13,,,0.79,0.48,0.63,1*05
$GNGSA,A,3,85,80,70,84,79,73,69,,,,,,0.79,0.48,0.63,2*0E
$GNGSA,A,3,13,08,07,15,26,02,03,,,,,,0.79,0.48,0.63,3*08
$GNGSA,A,3,38,39,08,16,06,13,46,09,20,19,29,37,0.79,0.48,0.63,4*07
$GNGSA,A,3,36,,,,,,,,,,,,0.79,0.48,0.63,4*06
$GPGSV,4,1,15,24,81,134,43,196,73,056,42,18,60,283,41,199,60,167,26,1*64
$GPGSV,4,2,15,45,47,231,39,15,45,029,40,195,40,179,29,23,37,328,41,1*50
$GPGSV,4,3,15,05,29,104,29,194,25,142,27,13,18,046,32,12,10,153,,1*53
$GPGSV,4,4,15,29,09,208,12,20,08,120,,32,02,256,,1*50
$GPGSV,2,1,06,24,81,134,48,196,73,056,45,18,60,283,43,199,60,167,38,8*68
$GPGSV,2,2,06,23,37,328,42,194,25,142,28,8*57
$GLGSV,2,1,08,85,45,271,32,80,43,106,39,70,38,346,31,84,25,197,20,1*71
$GLGSV,2,2,08,79,22,046,31,73,20,166,18,86,20,320,26,69,19,056,28,1*77
$GAGSV,3,1,09,13,65,259,43,08,53,009,41,07,41,285,23,15,37,173,30,7*78
$GAGSV,3,2,09,26,24,317,23,02,21,099,21,03,17,054,19,30,16,152,,7*71
$GAGSV,3,3,09,25,05,054,,7*49
$GAGSV,2,1,07,13,65,259,44,08,53,009,41,07,41,285,28,15,37,173,32,1*7F
$GAGSV,2,2,07,26,24,317,28,02,21,099,27,03,17,054,16,1*48
$GBGSV,4,1,16,38,79,054,44,39,73,255,43,08,71,007,34,16,66,235,39,1*7C
$GBGSV,4,2,16,06,63,233,42,13,62,341,45,46,50,135,37,56,48,303,,1*7A
$GBGSV,4,3,16,09,47,225,35,20,46,042,45,19,42,327,47,29,30,223,41,1*7D
$GBGSV,4,4,16,37,30,060,32,35,24,285,,36,21,186,29,22,04,289,19,1*73
$GBGSV,2,1,07,38,79,054,45,39,73,255,46,46,50,135,42,20,46,042,45,4*7D
$GBGSV,2,2,07,19,42,327,43,29,30,223,40,36,21,186,28,4*47
$GNGGA,105104.000,2500.8004400,N,12132.4838700,E,2,57,0.48,23.97,M,15.25,M,3,3335*7B
$GNRMC,105104.000,A,2500.8004400,N,12132.4838700,E,0.01,50.03,260623,,,D,V*36
$GPHDT,,T*1B
$GNGGA,105104.200,2500.8004400,N,12132.4838700,E,2,57,0.48,23.97,M,15.25,M,1,3335*7B
$GNRMC,105104.200,A,2500.8004400,N,12132.4838700,E,0.01,50.03,260623,,,D,V*34
$GPHDT,,T*1B
$GNGGA,105104.400,2500.8004500,N,12132.4838700,E,2,57,0.48,23.98,M,15.25,M,1,3335*73
$GNRMC,105104.400,A,2500.8004500,N,12132.4838700,E,0.01,50.03,260623,,,D,V*33
$GPHDT,,T*1B
$GNGGA,105104.600,2500.8004600,N,12132.4838900,E,2,57,0.48,23.98,M,15.25,M,0,3335*7D
$GNRMC,105104.600,A,2500.8004600,N,12132.4838900,E,0.01,50.03,260623,,,D,V*3C
$GPHDT,,T*1B
$GNGGA,105104.800,2500.8004700,N,12132.4838900,E,2,57,0.48,23.99,M,15.25,M,0,3335*73
$GNRMC,105104.800,A,2500.8004700,N,12132.4838900,E,0.01,50.03,260623,,,D,V*33
$GPHDT,,T*1B
$GNGSA,A,3,24,196,18,199,15,195,23,05,194,13,,,0.79,0.48,0.63,1*05
$GNGSA,A,3,85,80,70,84,79,73,69,,,,,,0.79,0.48,0.63,2*0E
$GNGSA,A,3,13,08,07,15,26,02,03,,,,,,0.79,0.48,0.63,3*08
$GNGSA,A,3,38,39,08,16,06,13,46,09,20,19,37,29,0.79,0.48,0.63,4*07
$GNGSA,A,3,36,,,,,,,,,,,,0.79,0.48,0.63,4*06
$GPGSV,4,1,16,24,81,134,43,196,73,056,42,18,60,283,41,199,60,167,23,1*62
$GPGSV,4,2,16,45,47,231,40,15,45,029,40,195,40,179,31,23,37,328,41,1*54
$GPGSV,4,3,16,05,29,104,28,194,25,142,29,13,18,046,30,12,10,153,,1*5D
$GPGSV,4,4,16,29,09,208,13,20,08,120,,10,07,310,,32,02,256,,1*66
$GPGSV,2,1,06,24,81,134,48,196,73,056,45,18,60,283,43,199,60,167,37,8*67
$GPGSV,2,2,06,23,37,328,42,194,25,142,30,8*5E
$GLGSV,3,1,09,85,45,271,31,80,43,106,39,70,38,346,31,84,25,197,22,1*70
$GLGSV,3,2,09,79,22,046,31,86,20,320,26,73,20,166,20,69,19,056,27,1*73
$GLGSV,3,3,09,71,15,296,,1*4E
$GAGSV,2,1,07,13,65,259,43,08,53,009,41,07,41,285,23,15,37,173,33,7*74
$GAGSV,2,2,07,26,24,317,24,02,21,099,22,03,17,054,20,7*42
$GAGSV,2,1,07,13,65,259,44,08,53,009,41,07,41,285,28,15,37,173,35,1*78
$GAGSV,2,2,07,26,24,317,28,02,21,099,27,03,17,054,17,1*49
$GBGSV,4,1,14,38,79,054,44,39,73,255,43,08,71,007,35,16,66,235,38,1*7E
$GBGSV,4,2,14,06,63,233,42,13,62,341,45,46,50,135,34,09,47,225,37,1*7F
$GBGSV,4,3,14,20,46,042,45,19,42,327,47,37,30,060,31,29,30,223,41,1*75
$GBGSV,4,4,14,36,21,186,31,22,04,289,19,1*77
$GBGSV,2,1,07,38,79,054,45,39,73,255,46,46,50,135,42,20,46,042,45,4*7D
$GBGSV,2,2,07,19,42,327,43,29,30,223,41,36,21,186,27,4*49
$GNGGA,105105.000,2500.8004700,N,12132.4838700,E,2,57,0.48,24.00,M,15.25,M,1,3335*72
$GNRMC,105105.000,A,2500.8004700,N,12132.4838700,E,0.02,50.03,260623,,,D,V*37
$GPHDT,,T*1B
$GNGGA,105105.200,2500.8004700,N,12132.4838700,E,2,57,0.48,24.01,M,15.25,M,1,3335*71
$GNRMC,105105.200,A,2500.8004700,N,12132.4838700,E,0.02,50.03,260623,,,D,V*35
$GPHDT,,T*1B
$GNGGA,105105.400,2500.8004700,N,12132.4838600,E,2,57,0.48,24.02,M,15.25,M,1,3335*75
$GNRMC,105105.400,A,2500.8004700,N,12132.4838600,E,0.03,50.03,260623,,,D,V*33
$GPHDT,,T*1B
$GNGGA,105105.600,2500.8004700,N,12132.4838600,E,2,57,0.48,24.02,M,15.25,M,1,3335*77
$GNRMC,105105.600,A,2500.8004700,N,12132.4838600,E,0.08,50.03,260623,,,D,V*3A
$GPHDT,,T*1B
$GNGGA,105105.800,2500.8004800,N,12132.4838500,E,2,58,0.48,24.03,M,15.25,M,0,3335*7A
$GNRMC,105105.800,A,2500.8004800,N,12132.4838500,E,0.09,50.03,260623,,,D,V*39
$GPHDT,,T*1B
$GNGSA,A,3,24,196,18,199,15,195,23,05,194,13,,,0.79,0.48,0.63,1*05
$GNGSA,A,3,85,80,70,84,79,73,69,,,,,,0.79,0.48,0.63,2*0E
$GNGSA,A,3,13,08,07,15,26,02,03,,,,,,0.79,0.48,0.63,3*08
$GNGSA,A,3,38,39,08,16,06,13,46,09,20,19,37,29,0.79,0.48,0.63,4*07
$GNGSA,A,3,36,,,,,,,,,,,,0.79,0.48,0.63,4*06
$GPGSV,4,1,16,24,81,134,43,196,73,056,42,18,60,283,40,199,60,167,23,1*63
$GPGSV,4,2,16,45,47,231,40,15,45,029,40,195,40,179,30,23,37,328,41,1*55
$GPGSV,4,3,16,05,29,104,27,194,25,142,30,13,18,046,29,12,10,153,,1*52
$GPGSV,4,4,16,29,09,208,12,20,08,120,,10,07,310,,32,02,256,,1*67
$GPGSV,2,1,06,24,81,134,48,196,73,056,45,18,60,283,43,199,60,167,37,8*67
$GPGSV,2,2,06,23,37,328,42,194,25,142,26,8*59
$GLGSV,2,1,08,85,45,271,31,80,43,106,40,70,38,346,31,84,25,197,24,1*78
$GLGSV,2,2,08,79,22,046,32,86,20,320,24,73,20,166,27,69,19,056,26,1*74
$GAGSV,2,1,07,13,65,259,43,08,53,009,41,07,41,285,24,15,37,173,31,7*71
$GAGSV,2,2,07,26,24,317,24,02,21,099,22,03,17,054,19,7*48
$GAGSV,2,1,07,13,65,259,45,08,53,009,41,07,41,285,27,15,37,173,35,1*76
$GAGSV,2,2,07,26,24,317,29,02,21,099,28,03,17,054,18,1*48
$GBGSV,4,1,14,38,79,054,44,39,73,255,43,08,71,007,36,16,66,235,38,1*7D
$GBGSV,4,2,14,06,63,233,42,13,62,341,45,46,50,135,31,09,47,225,39,1*74
$GBGSV,4,3,14,20,46,042,45,19,42,327,47,37,30,060,33,29,30,223,42,1*74
$GBGSV,4,4,14,36,21,186,28,22,04,289,20,1*75
$GBGSV,2,1,08,38,79,054,45,39,73,255,47,46,50,135,42,20,46,042,45,4*73
$GBGSV,2,2,08,19,42,327,43,29,30,223,43,37,30,060,27,36,21,186,25,4*72
$GNGGA,105106.000,2500.8004800,N,12132.4838600,E,2,58,0.48,24.03,M,15.25,M,1,3335*73
$GNRMC,105106.000,A,2500.8004800,N,12132.4838600,E,0.07,50.03,260623,,,D,V*3F
$GPHDT,,T*1B
$GNGGA,105106.200,2500.8004800,N,12132.4838500,E,2,57,0.48,24.05,M,15.25,M,1,3335*7B
$GNRMC,105106.200,A,2500.8004800,N,12132.4838500,E,0.04,50.03,260623,,,D,V*3D
