$FW : RTK35X,V1.1X0314AS,Lib20210517,1*54
$Tool : LOCOSYS , GNSS Firebird , v1.0.0.19*39
$---------------------------------------------------*2D
$GNGGA,105033.400,2500.8000800,N,12132.4842900,E,2,57,0.48,26.24,M,15.25,M,55,3335*4F
$GNRMC,105033.400,A,2500.8000800,N,12132.4842900,E,0.01,50.03,260623,,,D,V*3C
$GPHDT,,T*1B
$GNGGA,105033.600,2500.8000600,N,12132.4843100,E,2,57,0.48,26.20,M,15.25,M,55,3335*4E
$GNRMC,105033.600,A,2500.8000600,N,12132.4843100,E,0.01,50.03,260623,,,D,V*39
$GPHDT,,T*1B
$GNGGA,105033.800,2500.8000500,N,12132.4843100,E,2,57,0.48,26.17,M,15.25,M,55,3335*47
$GNRMC,105033.800,A,2500.8000500,N,12132.4843100,E,0.02,50.03,260623,,,D,V*37
$GPHDT,,T*1B
$GNGSA,A,3,24,196,18,199,15,195,23,05,194,13,,,0.79,0.48,0.63,1*05
$GNGSA,A,3,85,80,70,84,79,73,69,,,,,,0.79,0.48,0.63,2*0E
$GNGSA,A,3,13,08,07,15,26,02,03,,,,,,0.79,0.48,0.63,3*08
$GNGSA,A,3,38,39,08,16,06,13,46,09,20,19,29,36,0.79,0.48,0.63,4*06
$GNGSA,A,3,37,,,,,,,,,,,,0.79,0.48,0.63,4*07
$GPGSV,4,1,16,24,81,136,44,196,73,056,41,18,60,283,43,199,60,167,29,1*6C
$GPGSV,4,2,16,45,47,231,35,15,46,029,39,195,40,179,34,23,37,328,39,1*51
$GPGSV,4,3,16,05,29,104,24,194,25,142,31,13,18,046,34,12,10,153,,1*5C
$GPGSV,4,4,16,29,09,208,,20,08,120,,10,07,310,18,32,01,256,,1*6E
$GPGSV,2,1,07,24,81,136,46,196,73,056,45,199,60,167,36,18,60,283,45,8*6D
$GPGSV,2,2,07,195,40,179,26,23,37,328,44,194,25,142,28,8*52
$GLGSV,3,1,09,85,45,271,28,80,43,106,39,70,38,346,24,84,26,197,24,1*79
$GLGSV,3,2,09,79,22,046,32,73,20,167,28,86,20,320,23,69,19,055,18,1*73
$GLGSV,3,3,09,71,15,296,21,1*4D
$GAGSV,3,1,09,13,65,259,41,08,53,009,41,07,41,285,15,15,37,173,25,7*7B
$GAGSV,3,2,09,26,24,317,27,02,21,099,16,03,17,054,14,30,16,152,,7*7C
$GAGSV,3,3,09,25,05,054,,7*49
$GAGSV,2,1,07,13,65,259,46,08,53,009,41,07,41,285,26,15,37,173,23,1*73
$GAGSV,2,2,07,26,24,317,31,02,21,099,29,03,17,054,24,1*4F
$GBGSV,4,1,14,38,79,054,42,39,73,255,43,08,70,007,34,16,65,235,38,1*7B
$GBGSV,4,2,14,06,63,233,40,13,62,342,44,46,50,135,39,09,47,225,31,1*74
$GBGSV,4,3,14,20,46,042,44,19,42,327,48,29,30,223,40,37,30,060,,1*78
$GBGSV,4,4,14,36,20,186,29,22,04,289,21,1*74
$GBGSV,2,1,08,38,79,054,45,39,73,255,46,46,50,135,44,20,46,042,44,4*75
$GBGSV,2,2,08,19,42,327,42,29,30,223,39,37,30,060,25,36,20,186,32,4*7B
$GNGGA,105034.000,2500.8000300,N,12132.4843100,E,2,57,0.48,26.13,M,15.25,M,56,3335*49
$GNRMC,105034.000,A,2500.8000300,N,12132.4843100,E,0.01,50.03,260623,,,D,V*3D
$GPHDT,,T*1B
$GNGGA,105034.200,2500.8000200,N,12132.4843100,E,2,57,0.48,26.10,M,15.25,M,56,3335*49
$GNRMC,105034.200,A,2500.8000200,N,12132.4843100,E,0.03,50.03,260623,,,D,V*3C
$GPHDT,,T*1B
$GNGGA,105034.400,2500.8000000,N,12132.4843100,E,2,57,0.48,26.07,M,15.25,M,56,3335*4B
$GNRMC,105034.400,A,2500.8000000,N,12132.4843100,E,0.04,50.03,260623,,,D,V*3F
$GPHDT,,T*1B
$GNGGA,105034.600,2500.7999900,N,12132.4843100,E,2,57,0.48,26.03,M,15.25,M,56,3335*42
$GNRMC,105034.600,A,2500.7999900,N,12132.4843100,E,0.05,50.03,260623,,,D,V*33
$GPHDT,,T*1B
$GNGGA,105034.800,2500.7999700,N,12132.4843200,E,2,57,0.48,26.00,M,15.25,M,56,3335*42
$GNRMC,105034.800,A,2500.7999700,N,12132.4843200,E,0.03,50.03,260623,,,D,V*36
$GPHDT,,T*1B
$GNGSA,A,3,24,196,18,199,15,195,23,05,194,13,,,0.79,0.48,0.63,1*05
$GNGSA,A,3,85,80,70,84,79,73,69,,,,,,0.79,0.48,0.63,2*0E
$GNGSA,A,3,13,08,07,15,26,02,03,,,,,,0.79,0.48,0.63,3*08
$GNGSA,A,3,38,39,08,16,06,13,46,09,20,19,29,36,0.79,0.48,0.63,4*06
$GNGSA,A,3,37,,,,,,,,,,,,0.79,0.48,0.63,4*07
$GPGSV,4,1,16,24,81,136,44,196,73,056,41,18,60,283,43,199,60,167,28,1*6D
$GPGSV,4,2,16,45,47,231,36,15,46,029,40,195,40,179,33,23,37,328,39,1*5B
$GPGSV,4,3,16,05,29,104,23,194,25,142,31,13,18,046,33,12,10,153,,1*5C
$GPGSV,4,4,16,29,09,208,,20,08,120,,10,07,310,19,32,01,256,,1*6F
$GPGSV,2,1,07,24,81,136,46,196,73,056,45,199,60,167,36,18,60,283,45,8*6D
$GPGSV,2,2,07,195,40,179,26,23,37,328,44,194,25,142,25,8*5F
$GLGSV,3,1,09,85,45,271,29,80,43,106,39,70,38,346,24,84,26,197,24,1*78
$GLGSV,3,2,09,79,22,046,31,73,20,167,26,86,20,320,23,69,19,055,17,1*71
$GLGSV,3,3,09,71,15,296,21,1*4D
$GAGSV,3,1,09,13,65,259,41,08,53,009,41,07,41,285,17,15,37,173,27,7*7B
$GAGSV,3,2,09,26,24,317,24,02,21,099,15,03,17,054,13,30,16,152,,7*7B
$GAGSV,3,3,09,25,05,054,,7*49
$GAGSV,2,1,07,13,65,259,46,08,53,009,41,07,41,285,27,15,37,173,24,1*75
$GAGSV,2,2,07,26,24,317,31,02,21,099,29,03,17,054,25,1*4E
$GBGSV,4,1,14,38,79,054,42,39,73,255,43,08,70,007,34,16,65,235,38,1*7B
$GBGSV,4,2,14,06,63,233,40,13,62,342,44,46,50,135,38,09,47,225,36,1*72
$GBGSV,4,3,14,20,46,042,44,19,42,327,48,29,30,223,41,37,30,060,,1*79
$GBGSV,4,4,14,36,20,186,30,22,04,289,22,1*7F
$GBGSV,2,1,08,38,79,054,45,39,73,255,46,46,50,135,44,20,46,042,44,4*75
$GBGSV,2,2,08,19,42,327,42,29,30,223,40,37,30,060,23,36,20,186,31,4*70
$GNGGA,105035.000,2500.7999400,N,12132.4843200,E,2,57,0.48,25.98,M,15.25,M,57,3335*4B
$GNRMC,105035.000,A,2500.7999400,N,12132.4843200,E,0.04,50.03,260623,,,D,V*3B
$GPHDT,,T*1B
$GNGGA,105035.200,2500.7999300,N,12132.4843200,E,2,57,0.48,25.95,M,15.25,M,57,3335*43
$GNRMC,105035.200,A,2500.7999300,N,12132.4843200,E,0.06,50.03,260623,,,D,V*3C
$GPHDT,,T*1B
$GNGGA,105035.400,2500.7999100,N,12132.4843100,E,2,57,0.48,25.92,M,15.25,M,57,3335*43
$GNRMC,105035.400,A,2500.7999100,N,12132.4843100,E,0.03,50.03,260623,,,D,V*3E
$GPHDT,,T*1B
$GNGGA,105035.600,2500.7999000,N,12132.4843100,E,2,57,0.48,25.89,M,15.25,M,57,3335*4A
$GNRMC,105035.600,A,2500.7999000,N,12132.4843100,E,0.04,50.03,260623,,,D,V*3A
$GPHDT,,T*1B
$GNGGA,105035.800,2500.7998800,N,12132.4843100,E,2,57,0.48,25.86,M,15.25,M,57,3335*42
$GNRMC,105035.800,A,2500.7998800,N,12132.4843100,E,0.03,50.03,260623,,,D,V*3A
$GPHDT,,T*1B
$GNGSA,A,3,24,196,18,199,15,195,23,05,194,13,,,0.79,0.48,0.63,1*05
$GNGSA,A,3,85,80,70,84,79,73,69,,,,,,0.79,0.48,0.63,2*0E
$GNGSA,A,3,13,08,07,15,26,02,03,,,,,,0.79,0.48,0.63,3*08
$GNGSA,A,3,38,39,08,16,06,13,46,09,20,19,29,36,0.79,0.48,0.63,4*06
$GNGSA,A,3,37,,,,,,,,,,,,0.79,0.48,0.63,4*07
$GPGSV,4,1,16,24,81,136,44,196,73,056,41,18,60,283,43,199,60,167,29,1*6C
$GPGSV,4,2,16,45,47,231,35,15,46,029,40,195,40,179,32,23,37,328,39,1*59
$GPGSV,4,3,16,05,29,104,23,194,25,142,30,13,18,046,34,12,10,153,,1*5A
$GPGSV,4,4,16,29,09,208,,20,08,120,,10,07,310,19,32,01,256,,1*6F
$GPGSV,2,1,07,24,81,136,46,196,73,056,45,199,60,167,36,18,60,283,45,8*6D
$GPGSV,2,2,07,195,40,179,28,23,37,328,44,194,25,142,25,8*51
$GLGSV,3,1,09,85,45,271,29,80,43,106,39,70,38,346,24,84,26,197,24,1*78
$GLGSV,3,2,09,79,22,046,29,73,20,167,27,86,20,320,23,69,19,055,17,1*79
$GLGSV,3,3,09,71,15,296,22,1*4E
$GAGSV,3,1,09,13,65,259,41,08,53,009,41,07,41,285,17,15,37,173,26,7*7A
$GAGSV,3,2,09,26,24,317,25,02,21,099,16,03,17,054,15,30,16,152,,7*7F
$GAGSV,3,3,09,25,05,054,,7*49
$GAGSV,2,1,07,13,65,259,46,08,53,009,41,07,41,285,26,15,37,173,25,1*75
$GAGSV,2,2,07,26,24,317,31,02,21,099,30,03,17,054,26,1*45
$GBGSV,4,1,14,38,79,054,42,39,73,255,43,08,70,007,35,16,65,235,38,1*7A
$GBGSV,4,2,14,06,63,233,41,13,62,342,44,46,50,135,39,09,47,225,36,1*72
$GBGSV,4,3,14,20,46,042,44,19,42,327,48,29,30,223,43,37,30,060,,1*7B
$GBGSV,4,4,14,36,20,186,30,22,04,289,22,1*7F
$GBGSV,2,1,08,38,79,054,45,39,73,255,46,46,50,135,44,20,46,042,44,4*75
$GBGSV,2,2,08,19,42,327,42,29,30,223,42,37,30,060,24,36,20,186,31,4*75
$GNGGA,105036.000,2500.7998700,N,12132.4843100,E,2,57,0.48,25.83,M,15.25,M,58,3335*4C
$GNRMC,105036.000,A,2500.7998700,N,12132.4843100,E,0.02,50.03,260623,,,D,V*3F
$GPHDT,,T*1B
$GNGGA,105036.200,2500.7998500,N,12132.4843100,E,2,57,0.48,25.80,M,15.25,M,58,3335*4F
$GNRMC,105036.200,A,2500.7998500,N,12132.4843100,E,0.01,50.03,260623,,,D,V*3C
$GPHDT,,T*1B
$GNGGA,105036.400,2500.7998400,N,12132.4843200,E,2,57,0.48,25.77,M,15.25,M,58,3335*43
$GNRMC,105036.400,A,2500.7998400,N,12132.4843200,E,0.01,50.03,260623,,,D,V*38
$GPHDT,,T*1B
$GNGGA,105036.600,2500.7998200,N,12132.4843200,E,2,57,0.48,25.75,M,15.25,M,58,3335*45
$GNRMC,105036.600,A,2500.7998200,N,12132.4843200,E,0.02,50.03,260623,,,D,V*3F
$GPHDT,,T*1B
$GNGGA,105036.800,2500.7998100,N,12132.4843200,E,2,57,0.48,25.72,M,15.25,M,58,3335*4F
$GNRMC,105036.800,A,2500.7998100,N,12132.4843200,E,0.03,50.03,260623,,,D,V*33
$GPHDT,,T*1B
$GNGSA,A,3,24,196,18,199,15,195,23,05,194,13,,,0.79,0.48,0.63,1*05
$GNGSA,A,3,85,80,70,84,79,73,69,,,,,,0.79,0.48,0.63,2*0E
$GNGSA,A,3,13,08,07,15,26,02,03,,,,,,0.79,0.48,0.63,3*08
$GNGSA,A,3,38,39,08,16,06,13,46,09,20,19,29,36,0.79,0.48,0.63,4*06
$GNGSA,A,3,37,,,,,,,,,,,,0.79,0.48,0.63,4*07
$GPGSV,4,1,16,24,81,136,44,196,73,056,41,18,60,283,43,199,60,167,29,1*6C
$GPGSV,4,2,16,45,47,231,37,15,46,029,39,195,40,179,31,23,37,328,39,1*56
$GPGSV,4,3,16,05,29,104,23,194,25,142,29,13,18,046,35,12,10,153,,1*53
$GPGSV,4,4,16,29,09,208,,20,08,120,,10,07,310,20,32,01,256,,1*65
$GPGSV,2,1,07,24,81,136,46,196,73,056,44,199,60,167,36,18,60,283,45,8*6C
$GPGSV,2,2,07,195,40,179,27,23,37,328,44,194,25,142,26,8*5D
$GLGSV,3,1,09,85,45,271,26,80,43,106,39,70,38,346,24,84,26,197,24,1*77
$GLGSV,3,2,09,79,22,046,29,86,20,320,21,73,20,167,26,69,19,055,17,1*7A
$GLGSV,3,3,09,71,15,296,23,1*4F
$GAGSV,2,1,08,13,65,259,41,08,53,009,41,07,41,285,16,15,37,173,25,7*78
$GAGSV,2,2,08,26,24,317,25,02,21,099,17,03,17,054,17,30,16,152,,7*7C
$GAGSV,2,1,07,13,65,259,46,08,53,009,41,07,41,285,26,15,37,173,25,1*75
$GAGSV,2,2,07,26,24,317,31,02,21,099,30,03,17,054,24,1*47
$GBGSV,4,1,15,38,79,054,42,39,73,255,43,08,70,007,34,16,65,235,38,1*7A
$GBGSV,4,2,15,06,63,233,41,13,62,342,44,46,50,135,39,56,48,303,,1*76
$GBGSV,4,3,15,09,47,225,37,20,46,042,44,19,42,327,48,37,30,060,,1*7D
$GBGSV,4,4,15,29,30,223,44,36,20,186,30,22,04,289,20,1*47
$GBGSV,2,1,08,38,79,054,45,39,73,255,47,46,50,135,44,20,46,042,44,4*74
$GBGSV,2,2,08,19,42,327,42,29,30,223,42,37,30,060,23,36,20,186,31,4*72
$GNGGA,105037.000,2500.7997900,N,12132.4843200,E,2,57,0.48,25.70,M,15.25,M,59,3335*42
$GNRMC,105037.000,A,2500.7997900,N,12132.4843200,E,0.04,50.03,260623,,,D,V*3A
$GPHDT,,T*1B
$GNGGA,105037.200,2500.7997800,N,12132.4843200,E,2,57,0.48,25.68,M,15.25,M,59,3335*48
$GNRMC,105037.200,A,2500.7997800,N,12132.4843200,E,0.02,50.03,260623,,,D,V*3F
$GPHDT,,T*1B
$GNGGA,105037.400,2500.7997700,N,12132.4843200,E,2,57,0.48,25.66,M,15.25,M,59,3335*4F
$GNRMC,105037.400,A,2500.7997700,N,12132.4843200,E,0.02,50.03,260623,,,D,V*36
$GPHDT,,T*1B
$GNGGA,105037.600,2500.7997600,N,12132.4843200,E,2,57,0.48,25.64,M,15.25,M,59,3335*4E
$GNRMC,105037.600,A,2500.7997600,N,12132.4843200,E,0.01,50.03,260623,,,D,V*36
$GPHDT,,T*1B
$GNGGA,105037.800,2500.7997600,N,12132.4843200,E,2,57,0.48,25.62,M,15.25,M,59,3335*46
$GNRMC,105037.800,A,2500.7997600,N,12132.4843200,E,0.01,50.03,260623,,,D,V*38
$GPHDT,,T*1B
$GNGSA,A,3,24,196,18,199,15,195,23,05,194,13,,,0.79,0.48,0.63,1*05
$GNGSA,A,3,85,80,70,84,79,73,69,,,,,,0.79,0.48,0.63,2*0E
$GNGSA,A,3,13,08,07,15,26,02,03,,,,,,0.79,0.48,0.63,3*08
$GNGSA,A,3,38,39,08,16,06,13,46,09,20,19,29,36,0.79,0.48,0.63,4*06
$GNGSA,A,3,37,,,,,,,,,,,,0.79,0.48,0.63,4*07
$GPGSV,4,1,16,24,81,136,44,196,73,056,41,18,60,283,43,199,60,167,29,1*6C
$GPGSV,4,2,16,45,47,231,37,15,46,029,40,195,40,179,31,23,37,328,39,1*58
$GPGSV,4,3,16,05,29,104,23,194,25,142,30,13,18,046,35,12,10,153,,1*5B
$GPGSV,4,4,16,29,09,208,,20,08,120,,10,07,310,21,32,01,256,,1*64
$GPGSV,2,1,07,24,81,136,46,196,73,056,44,199,60,167,36,18,60,283,45,8*6C
$GPGSV,2,2,07,195,40,179,26,23,37,328,44,194,25,142,27,8*5D
$GLGSV,2,1,08,85,45,271,25,80,43,106,40,70,38,346,24,84,26,197,22,1*7C
$GLGSV,2,2,08,79,22,046,29,86,20,320,21,73,20,167,26,69,19,055,17,1*7A
$GAGSV,2,1,08,13,65,259,41,08,53,009,41,07,41,285,15,15,37,173,26,7*78
$GAGSV,2,2,08,26,24,317,25,02,21,099,19,03,17,054,18,30,16,152,,7*7D
$GAGSV,2,1,07,13,65,259,46,08,53,009,41,07,41,285,26,15,37,173,25,1*75
$GAGSV,2,2,07,26,24,317,31,02,21,099,30,03,17,054,24,1*47
$GBGSV,4,1,14,38,79,054,43,39,73,255,43,08,70,007,32,16,65,235,38,1*7C
$GBGSV,4,2,14,06,63,233,41,13,62,342,44,46,50,135,39,09,47,225,37,1*73
$GBGSV,4,3,14,20,46,042,43,19,42,327,48,37,30,060,,29,30,223,44,1*7B
$GBGSV,4,4,14,36,20,186,29,22,04,289,19,1*7F
$GBGSV,2,1,08,38,79,054,45,39,73,255,47,46,50,135,44,20,46,042,44,4*74
$GBGSV,2,2,08,19,42,327,42,29,30,223,42,37,30,060,23,36,20,186,32,4*71
$GNGGA,105038.000,2500.7997500,N,12132.4843200,E,2,57,0.48,25.59,M,15.25,M,60,3335*40
$GNRMC,105038.000,A,2500.7997500,N,12132.4843200,E,0.02,50.03,260623,,,D,V*3F
$GPHDT,,T*1B
$GNGGA,105038.200,2500.7997500,N,12132.4843200,E,2,58,0.48,25.57,M,15.25,M,60,3335*43
$GNRMC,105038.200,A,2500.7997500,N,12132.4843200,E,0.02,50.03,260623,,,D,V*3D
$GPHDT,,T*1B
$GNGGA,105038.400,2500.7997500,N,12132.4843100,E,2,58,0.48,25.54,M,15.25,M,60,3335*45
$GNRMC,105038.400,A,2500.7997500,N,12132.4843100,E,0.01,50.03,260623,,,D,V*3B
$GPHDT,,T*1B
$GNGGA,105038.600,2500.7997500,N,12132.4843100,E,2,58,0.48,25.51,M,15.25,M,60,3335*42
$GNRMC,105038.600,A,2500.7997500,N,12132.4843100,E,0.01,50.03,260623,,,D,V*39
$GPHDT,,T*1B
$GNGGA,105038.800,2500.7997500,N,12132.4842900,E,2,58,0.48,25.48,M,15.25,M,60,3335*4D
$GNRMC,105038.800,A,2500.7997500,N,12132.4842900,E,0.01,50.03,260623,,,D,V*3E
$GPHDT,,T*1B
$GNGSA,A,3,24,196,18,199,15,195,23,05,194,13,,,0.79,0.48,0.63,1*05
$GNGSA,A,3,85,80,70,84,79,73,69,,,,,,0.79,0.48,0.63,2*0E
$GNGSA,A,3,13,08,07,15,26,02,03,,,,,,0.79,0.48,0.63,3*08
$GNGSA,A,3,38,39,08,16,06,13,46,09,20,19,29,36,0.79,0.48,0.63,4*06
$GNGSA,A,3,37,,,,,,,,,,,,0.79,0.48,0.63,4*07
$GPGSV,4,1,16,24,81,136,44,196,73,056,41,18,60,283,43,199,60,167,29,1*6C
$GPGSV,4,2,16,45,47,231,36,15,46,029,39,195,40,179,31,23,37,328,39,1*57
$GPGSV,4,3,16,05,29,104,22,194,25,142,30,13,18,046,34,12,10,153,,1*5B
$GPGSV,4,4,16,29,09,208,,20,08,120,,10,07,310,21,32,01,256,,1*64
$GPGSV,2,1,07,24,81,136,46,196,73,056,44,199,60,167,36,18,60,283,45,8*6C
$GPGSV,2,2,07,195,40,179,26,23,37,328,44,194,25,142,29,8*53
$GLGSV,2,1,08,85,45,271,27,80,43,106,40,70,38,346,25,84,26,197,24,1*79
$GLGSV,2,2,08,79,22,046,29,86,20,320,21,73,20,167,24,69,19,055,17,1*78
$GAGSV,2,1,08,13,65,259,41,08,53,009,41,07,41,285,15,15,37,173,26,7*78
$GAGSV,2,2,08,26,24,317,26,02,21,099,20,03,17,054,18,30,16,152,,7*74
$GAGSV,2,1,07,13,65,259,46,08,53,009,41,07,41,285,26,15,37,173,25,1*75
$GAGSV,2,2,07,26,24,317,31,02,21,099,30,03,17,054,23,1*40
$GBGSV,4,1,14,38,79,054,43,39,73,255,43,08,70,007,35,16,65,235,38,1*7B
$GBGSV,4,2,14,06,63,233,41,13,62,342,45,46,50,135,39,09,47,225,37,1*72
$GBGSV,4,3,14,20,46,042,43,19,42,327,48,37,30,060,,29,30,223,44,1*7B
$GBGSV,4,4,14,36,20,186,27,22,04,289,19,1*71
$GBGSV,2,1,08,38,79,054,46,39,73,255,47,46,50,135,44,20,46,042,44,4*77
$GBGSV,2,2,08,19,42,327,42,29,30,223,42,37,30,060,27,36,20,186,32,4*75
$GNGGA,105039.000,2500.7997500,N,12132.4842900,E,2,58,0.48,25.46,M,15.25,M,61,3335*4B
$GNRMC,105039.000,A,2500.7997500,N,12132.4842900,E,0.01,50.03,260623,,,D,V*37
$GPHDT,,T*1B
$GNGGA,105039.200,2500.7997400,N,12132.4842800,E,2,58,0.48,25.43,M,15.25,M,61,3335*4C
$GNRMC,105039.200,A,2500.7997400,N,12132.4842800,E,0.01,50.03,260623,,,D,V*35
$GPHDT,,T*1B
$GNGGA,105039.400,2500.7997400,N,12132.4842800,E,2,58,0.48,25.41,M,15.25,M,61,3335*48
$GNRMC,105039.400,A,2500.7997400,N,12132.4842800,E,0.01,50.03,260623,,,D,V*33
$GPHDT,,T*1B
$GNGGA,105039.600,2500.7997300,N,12132.4842700,E,2,58,0.48,25.37,M,15.25,M,61,3335*43
$GNRMC,105039.600,A,2500.7997300,N,12132.4842700,E,0.01,50.03,260623,,,D,V*39
$GPHDT,,T*1B
$GNGGA,105039.800,2500.7997300,N,12132.4842700,E,2,58,0.48,25.35,M,15.25,M,61,3335*4F
$GNRMC,105039.800,A,2500.7997300,N,12132.4842700,E,0.00,50.03,260623,,,D,V*36
$GPHDT,,T*1B
$GNGSA,A,3,24,196,18,199,15,195,23,05,194,13,,,0.94,0.48,0.81,1*0A
$GNGSA,A,3,85,80,70,84,79,73,69,,,,,,0.94,0.48,0.81,2*01
$GNGSA,A,3,13,08,07,15,26,02,03,,,,,,0.94,0.48,0.81,3*07
$GNGSA,A,3,38,39,08,16,06,13,46,09,20,19,29,36,0.94,0.48,0.81,4*09
$GNGSA,A,3,37,,,,,,,,,,,,0.94,0.48,0.81,4*08
$GPGSV,4,1,16,24,81,136,44,196,73,056,41,18,60,283,43,199,60,167,29,1*6C
$GPGSV,4,2,16,45,47,231,36,15,46,029,39,195,40,179,31,23,37,328,39,1*57
$GPGSV,4,3,16,05,29,104,23,194,25,142,30,13,18,046,34,12,10,153,,1*5A
$GPGSV,4,4,16,29,09,208,,20,08,120,,10,07,310,21,32,01,256,,1*64
$GPGSV,2,1,07,24,81,136,46,196,73,056,44,199,60,167,37,18,60,283,45,8*6D
$GPGSV,2,2,07,195,40,179,26,23,37,328,44,194,25,142,29,8*53
$GLGSV,3,1,09,85,45,271,27,80,43,106,40,70,38,346,25,84,26,197,24,1*79
$GLGSV,3,2,09,79,22,046,30,73,20,167,22,86,20,320,20,69,19,055,16,1*76
$GLGSV,3,3,09,71,15,296,,1*4E
$GAGSV,2,1,08,13,65,259,41,08,53,009,41,07,41,285,17,15,37,173,25,7*79
$GAGSV,2,2,08,26,24,317,26,02,21,099,21,03,17,054,18,30,16,152,,7*75
$GAGSV,2,1,07,13,65,259,46,08,53,009,41,07,41,285,26,15,37,173,26,1*76
$GAGSV,2,2,07,26,24,317,30,02,21,099,30,03,17,054,22,1*40
$GBGSV,4,1,13,38,79,054,43,39,73,255,43,08,70,007,35,16,65,235,38,1*7C
$GBGSV,4,2,13,06,63,233,41,13,62,342,45,46,50,135,39,09,47,225,37,1*75
$GBGSV,4,3,13,20,46,042,44,19,42,327,48,29,30,223,44,36,20,186,27,1*77
$GBGSV,4,4,13,22,04,289,19,1*4B
$GBGSV,2,1,08,38,79,054,46,39,73,255,47,46,50,135,44,20,46,042,44,4*77
$GBGSV,2,2,08,19,42,327,43,29,30,223,42,37,30,060,26,36,20,186,32,4*75
$GNGGA,105040.000,2500.7997300,N,12132.4842600,E,2,58,0.48,25.33,M,15.25,M,62,3335*4D
$GNRMC,105040.000,A,2500.7997300,N,12132.4842600,E,0.00,50.03,260623,,,D,V*31
$GPHDT,,T*1B
$GNGGA,105040.200,2500.7997200,N,12132.4842600,E,2,58,0.48,25.31,M,15.25,M,62,3335*4C
$GNRMC,105040.200,A,2500.7997200,N,12132.4842600,E,0.00,50.03,260623,,,D,V*32
$GPHDT,,T*1B
$GNGGA,105040.400,2500.7997200,N,12132.4842700,E,2,58,0.48,25.29,M,15.25,M,62,3335*42
$GNRMC,105040.400,A,2500.7997200,N,12132.4842700,E,0.01,50.03,260623,,,D,V*34
$GPHDT,,T*1B
$GNGGA,105040.600,2500.7997200,N,12132.4842600,E,2,58,0.48,25.27,M,15.25,M,62,3335*4F
$GNRMC,105040.600,A,2500.7997200,N,12132.4842600,E,0.01,50.03,260623,,,D,V*37
$GPHDT,,T*1B
$GNGGA,105040.800,2500.7997100,N,12132.4842600,E,2,58,0.48,25.23,M,15.25,M,62,3335*46
$GNRMC,105040.800,A,2500.7997100,N,12132.4842600,E,0.00,50.03,260623,,,D,V*3B
$GPHDT,,T*1B
$GNGSA,A,3,24,196,18,199,15,195,23,05,194,13,,,0.94,0.48,0.81,1*0A
$GNGSA,A,3,85,80,70,84,79,73,69,,,,,,0.94,0.48,0.81,2*01
$GNGSA,A,3,13,08,07,15,26,02,03,,,,,,0.94,0.48,0.81,3*07
$GNGSA,A,3,38,39,08,16,06,13,46,09,20,19,29,36,0.94,0.48,0.81,4*09
$GNGSA,A,3,37,,,,,,,,,,,,0.94,0.48,0.81,4*08
$GPGSV,4,1,16,24,81,136,44,196,73,056,41,18,60,283,43,199,60,167,29,1*6C
$GPGSV,4,2,16,45,47,231,36,15,46,029,39,195,40,179,30,23,37,328,39,1*56
$GPGSV,4,3,16,05,29,104,24,194,25,142,31,13,18,046,34,12,10,153,,1*5C
$GPGSV,4,4,16,29,09,208,,20,08,120,,10,07,310,20,32,01,256,,1*65
$GPGSV,2,1,07,24,81,136,46,196,73,056,44,199,60,167,37,18,60,283,44,8*6C
$GPGSV,2,2,07,195,40,179,26,23,37,328,44,194,25,142,28,8*52
$GLGSV,2,1,08,85,45,271,25,80,43,106,40,70,38,346,25,84,26,197,22,1*7D
$GLGSV,2,2,08,79,22,046,30,86,20,320,20,73,20,167,21,69,19,056,20,1*73
$GAGSV,2,1,08,13,65,259,42,08,53,009,41,07,41,285,16,15,37,173,25,7*7B
$GAGSV,2,2,08,26,24,317,26,02,21,099,22,03,17,054,17,30,16,152,,7*79
$GAGSV,2,1,07,13,65,259,45,08,53,009,41,07,41,285,26,15,37,173,26,1*75
$GAGSV,2,2,07,26,24,317,30,02,21,099,30,03,17,054,23,1*41
$GBGSV,4,1,14,38,79,054,43,39,73,255,43,08,70,007,34,16,65,235,39,1*7B
$GBGSV,4,2,14,06,63,233,40,13,62,342,45,46,50,135,40,09,47,225,37,1*7D
$GBGSV,4,3,14,20,46,042,44,19,42,327,48,37,30,060,,29,30,223,42,1*7A
$GBGSV,4,4,14,36,20,186,26,22,04,289,19,1*70
$GBGSV,2,1,08,38,79,054,46,39,73,255,47,46,50,135,44,20,46,042,44,4*77
$GBGSV,2,2,08,19,42,327,42,29,30,223,41,37,30,060,26,36,20,186,31,4*74
$GNGGA,105041.000,2500.7997200,N,12132.4842600,E,2,58,0.48,25.21,M,15.25,M,63,3335*4F
$GNRMC,105041.000,A,2500.7997200,N,12132.4842600,E,0.00,50.03,260623,,,D,V*31
$GPHDT,,T*1B
$GNGGA,105041.200,2500.7997200,N,12132.4842600,E,2,58,0.48,25.18,M,15.25,M,63,3335*47
$GNRMC,105041.200,A,2500.7997200,N,12132.4842600,E,0.00,50.03,260623,,,D,V*33
$GPHDT,,T*1B
$GNGGA,105041.400,2500.7997100,N,12132.4842600,E,2,58,0.48,25.14,M,15.25,M,63,3335*4E
$GNRMC,105041.400,A,2500.7997100,N,12132.4842600,E,0.00,50.03,260623,,,D,V*36
$GPHDT,,T*1B
$GNGGA,105041.600,2500.7997100,N,12132.4842600,E,2,58,0.48,25.11,M,15.25,M,63,3335*49
$GNRMC,105041.600,A,2500.7997100,N,12132.4842600,E,0.00,50.03,260623,,,D,V*34
$GPHDT,,T*1B
$GNGGA,105041.800,2500.7997100,N,12132.4842600,E,2,58,0.48,25.08,M,15.25,M,63,3335*4F
$GNRMC,105041.800,A,2500.7997100,N,12132.4842600,E,0.00,50.03,260623,,,D,V*3A
$GPHDT,,T*1B
$GNGSA,A,3,24,196,18,199,15,195,23,05,194,13,,,0.93,0.48,0.80,1*0C
$GNGSA,A,3,85,80,70,84,79,73,69,,,,,,0.93,0.48,0.80,2*07
$GNGSA,A,3,13,08,07,15,26,02,03,,,,,,0.93,0.48,0.80,3*01
$GNGSA,A,3,38,39,08,16,06,13,46,09,20,19,29,36,0.93,0.48,0.80,4*0F
$GNGSA,A,3,37,,,,,,,,,,,,0.93,0.48,0.80,4*0E
$GPGSV,4,1,16,24,81,136,44,196,73,056,41,18,60,283,41,199,60,167,29,1*6E
$GPGSV,4,2,16,45,47,231,35,15,46,029,40,195,40,179,30,23,37,328,38,1*5A
$GPGSV,4,3,16,05,29,104,24,194,25,142,31,13,18,046,33,12,10,153,,1*5B
$GPGSV,4,4,16,29,09,208,,20,08,120,,10,07,310,20,32,01,256,,1*65
$GPGSV,2,1,07,24,81,136,46,196,73,056,44,199,60,167,37,18,60,283,44,8*6C
$GPGSV,2,2,07,195,40,179,26,23,37,328,44,194,25,142,22,8*58
$GLGSV,2,1,08,85,45,271,26,80,43,106,40,70,38,346,25,84,26,197,23,1*7F
$GLGSV,2,2,08,79,22,046,31,86,20,320,19,73,20,166,19,69,19,056,20,1*72
$GAGSV,2,1,08,13,65,259,42,08,53,009,41,07,41,285,15,15,37,173,24,7*79
$GAGSV,2,2,08,26,24,317,27,02,21,099,22,03,17,054,16,30,16,152,,7*79
$GAGSV,2,1,07,13,65,259,45,08,53,009,41,07,41,285,26,15,37,173,27,1*74
$GAGSV,2,2,07,26,24,317,30,02,21,099,30,03,17,054,23,1*41
$GBGSV,4,1,14,38,79,054,43,39,73,255,43,08,70,007,34,16,65,235,39,1*7B
$GBGSV,4,2,14,06,63,233,40,13,62,342,45,46,50,135,41,09,47,225,36,1*7D
$GBGSV,4,3,14,20,46,042,44,19,42,327,48,37,30,060,,29,30,223,41,1*79
$GBGSV,4,4,14,36,20,186,25,22,04,289,19,1*73
$GBGSV,2,1,08,38,79,054,46,39,73,255,47,46,50,135,44,20,46,042,44,4*77
$GBGSV,2,2,08,19,42,327,42,29,30,223,39,37,30,060,26,36,20,186,31,4*7B
$GNGGA,105042.000,2500.7997100,N,12132.4842600,E,2,58,0.48,25.06,M,15.25,M,64,3335*4D
$GNRMC,105042.000,A,2500.7997100,N,12132.4842600,E,0.00,50.03,260623,,,D,V*31
$GPHDT,,T*1B
$GNGGA,105042.200,2500.7997100,N,12132.4842600,E,2,58,0.48,25.02,M,15.25,M,64,3335*4B
$GNRMC,105042.200,A,2500.7997100,N,12132.4842600,E,0.00,50.03,260623,,,D,V*33
$GPHDT,,T*1B
$GNGGA,105042.400,2500.7997000,N,12132.4842700,E,2,58,0.48,24.99,M,15.25,M,64,3335*4E
$GNRMC,105042.400,A,2500.7997000,N,12132.4842700,E,0.01,50.03,260623,,,D,V*34
$GPHDT,,T*1B
$GNGGA,105042.600,2500.7997200,N,12132.4842600,E,2,58,0.48,24.98,M,15.25,M,64,3335*4E
$GNRMC,105042.600,A,2500.7997200,N,12132.4842600,E,0.00,50.03,260623,,,D,V*34
$GPHDT,,T*1B
$GNGGA,105042.800,2500.7997300,N,12132.4842500,E,2,58,0.48,24.96,M,15.25,M,64,3335*4C
$GNRMC,105042.800,A,2500.7997300,N,12132.4842500,E,0.00,50.03,260623,,,D,V*38
$GPHDT,,T*1B
$GNGSA,A,3,24,196,18,199,15,195,23,05,194,13,,,0.94,0.48,0.81,1*0A
$GNGSA,A,3,85,80,70,84,79,73,69,,,,,,0.94,0.48,0.81,2*01
$GNGSA,A,3,13,08,07,15,26,02,03,,,,,,0.94,0.48,0.81,3*07
$GNGSA,A,3,38,39,08,16,06,13,46,09,20,19,29,36,0.94,0.48,0.81,4*09
$GNGSA,A,3,37,,,,,,,,,,,,0.94,0.48,0.81,4*08
$GPGSV,4,1,16,24,81,136,44,196,73,056,41,18,60,283,41,199,60,167,29,1*6E
$GPGSV,4,2,16,45,47,231,34,15,46,029,40,195,40,179,30,23,37,328,38,1*5B
$GPGSV,4,3,16,05,29,104,22,194,25,142,31,13,18,046,33,12,10,153,,1*5D
$GPGSV,4,4,16,29,09,208,,20,08,120,,10,07,310,20,32,01,256,,1*65
$GPGSV,2,1,07,24,81,136,46,196,73,056,44,199,60,167,36,18,60,283,44,8*6D
$GPGSV,2,2,07,195,40,179,23,23,37,328,44,194,25,142,20,8*5F
$GLGSV,2,1,08,85,45,271,26,80,43,106,40,70,38,346,25,84,26,197,22,1*7E
$GLGSV,2,2,08,79,22,046,31,86,20,320,19,73,20,166,18,69,19,056,17,1*77
$GAGSV,3,1,09,13,65,259,42,08,53,009,41,07,41,285,14,15,37,173,25,7*79
$GAGSV,3,2,09,26,24,317,27,02,21,099,20,03,17,054,16,30,16,152,,7*7B
$GAGSV,3,3,09,25,05,054,,7*49
$GAGSV,2,1,07,13,65,259,45,08,53,009,41,07,41,285,26,15,37,173,25,1*76
$GAGSV,2,2,07,26,24,317,30,02,21,099,30,03,17,054,22,1*40
$GBGSV,4,1,15,38,79,054,43,39,73,255,43,08,70,007,35,16,65,235,39,1*7B
$GBGSV,4,2,15,06,63,233,40,13,62,342,45,46,50,135,41,56,48,303,,1*79
$GBGSV,4,3,15,09,47,225,36,20,46,042,44,19,42,327,48,29,30,223,41,1*73
$GBGSV,4,4,15,37,30,060,,36,20,186,23,22,04,289,19,1*45
$GBGSV,2,1,08,38,79,054,46,39,73,255,47,46,50,135,44,20,46,042,44,4*77
$GBGSV,2,2,08,19,42,327,42,29,30,223,39,37,30,060,26,36,20,186,31,4*7B
$GNGGA,105043.000,2500.7997400,N,12132.4842500,E,2,58,0.48,24.93,M,15.25,M,65,3335*46
$GNRMC,105043.000,A,2500.7997400,N,12132.4842500,E,0.00,50.03,260623,,,D,V*36
$GPHDT,,T*1B
$GNGGA,105043.200,2500.7997400,N,12132.4842400,E,2,58,0.48,24.90,M,15.25,M,65,3335*46
$GNRMC,105043.200,A,2500.7997400,N,12132.4842400,E,0.00,50.03,260623,,,D,V*35
$GPHDT,,T*1B
$GNGGA,105043.400,2500.7997400,N,12132.4842400,E,2,58,0.48,24.86,M,15.25,M,65,3335*47
$GNRMC,105043.400,A,2500.7997400,N,12132.4842400,E,0.00,50.03,260623,,,D,V*33
$GPHDT,,T*1B
$GNGGA,105043.600,2500.7997400,N,12132.4842400,E,2,58,0.48,24.83,M,15.25,M,65,3335*40
$GNRMC,105043.600,A,2500.7997400,N,12132.4842400,E,0.00,50.03,260623,,,D,V*31
$GPHDT,,T*1B
$GNGGA,105043.800,2500.7997400,N,12132.4842400,E,2,58,0.48,24.80,M,15.25,M,65,3335*4D
$GNRMC,105043.800,A,2500.7997400,N,12132.4842400,E,0.00,50.03,260623,,,D,V*3F
$GPHDT,,T*1B
$GNGSA,A,3,24,196,18,199,15,195,23,05,194,13,,,0.94,0.48,0.81,1*0A
$GNGSA,A,3,85,80,70,84,79,73,69,,,,,,0.94,0.48,0.81,2*01
$GNGSA,A,3,13,08,07,15,26,02,03,,,,,,0.94,0.48,0.81,3*07
$GNGSA,A,3,38,39,08,16,06,13,46,09,20,19,29,36,0.94,0.48,0.81,4*09
$GNGSA,A,3,37,,,,,,,,,,,,0.94,0.48,0.81,4*08
$GPGSV,4,1,16,24,81,136,44,196,73,056,42,18,60,283,41,199,60,167,29,1*6D
$GPGSV,4,2,16,45,47,231,36,15,46,029,40,195,40,179,31,23,37,328,38,1*58
$GPGSV,4,3,16,05,29,104,20,194,25,142,30,13,18,046,33,12,10,153,,1*5E
$GPGSV,4,4,16,29,09,208,,20,08,120,,10,07,310,20,32,01,256,,1*65
$GPGSV,2,1,07,24,81,136,46,196,73,056,44,199,60,167,36,18,60,283,43,8*6A
$GPGSV,2,2,07,195,40,179,24,23,37,328,44,194,25,142,22,8*5A
$GLGSV,2,1,08,85,45,271,25,80,43,106,40,70,38,346,25,84,25,197,23,1*7F
$GLGSV,2,2,08,79,22,046,31,86,20,320,18,73,20,166,18,69,19,056,16,1*77
$GAGSV,3,1,09,13,65,259,42,08,53,009,41,07,41,285,14,15,37,173,26,7*7A
$GAGSV,3,2,09,26,24,317,26,02,21,099,20,03,17,054,16,30,16,152,,7*7A
$GAGSV,3,3,09,25,05,054,,7*49
$GAGSV,2,1,07,13,65,259,45,08,53,009,41,07,41,285,26,15,37,173,24,1*77
$GAGSV,2,2,07,26,24,317,30,02,21,099,30,03,17,054,22,1*40
$GBGSV,4,1,15,38,79,054,43,39,73,255,43,08,70,007,35,16,65,235,39,1*7B
$GBGSV,4,2,15,06,63,233,40,13,62,342,45,46,50,135,41,09,47,225,35,1*7F
$GBGSV,4,3,15,20,46,042,44,19,42,327,48,29,30,223,41,37,30,060,,1*78
$GBGSV,4,4,15,35,24,285,,36,20,186,24,22,04,289,20,1*46
$GBGSV,2,1,08,38,79,054,46,39,73,255,47,46,50,135,44,20,46,042,44,4*77
$GBGSV,2,2,08,19,42,327,42,29,30,223,40,37,30,060,26,36,20,186,30,4*74
$GNGGA,105044.000,2500.7997400,N,12132.4842500,E,2,58,0.48,24.77,M,15.25,M,66,3335*48
$GNRMC,105044.000,A,2500.7997400,N,12132.4842500,E,0.00,50.03,260623,,,D,V*31
$GPHDT,,T*1B
$GNGGA,105044.200,2500.7997300,N,12132.4842500,E,2,58,0.48,24.74,M,15.25,M,66,3335*4E
$GNRMC,105044.200,A,2500.7997300,N,12132.4842500,E,0.00,50.03,260623,,,D,V*34
