$FW : RTK35X,V1.1X0314AS,Lib20210517,1*54
$Tool : LOCOSYS , GNSS Firebird , v1.0.0.19*39
$---------------------------------------------------*2D
$GNGSA,A,3,24,196,18,199,15,195,23,05,194,13,,,0.87,0.46,0.74,1*0C
$GNGSA,A,3,80,85,70,84,73,79,69,71,,,,,0.87,0.46,0.74,2*01
$GNGSA,A,3,13,08,07,15,26,02,03,,,,,,0.87,0.46,0.74,3*01
$GNGSA,A,3,38,39,08,16,06,13,46,09,20,19,37,29,0.87,0.46,0.74,4*0E
$GNGSA,A,3,36,,,,,,,,,,,,0.87,0.46,0.74,4*0F
$GPGSV,4,1,16,24,81,129,44,196,73,056,42,18,60,281,43,199,60,167,29,1*63
$GPGSV,4,2,16,45,47,231,40,15,45,030,33,195,40,179,25,23,38,328,39,1*5D
$GPGSV,4,3,16,05,28,105,26,194,25,142,25,13,18,047,28,12,11,153,,1*56
$GPGSV,4,4,16,29,08,208,13,20,07,121,,10,07,311,22,32,02,257,,1*69
$GPGSV,2,1,07,24,81,129,50,196,73,056,44,199,60,167,36,18,60,281,44,8*66
$GPGSV,2,2,07,195,40,179,31,23,38,328,45,194,25,142,33,8*50
$GLGSV,3,1,09,80,44,104,31,85,44,269,22,70,38,348,24,84,24,196,29,1*76
$GLGSV,3,2,09,73,21,166,30,79,21,045,26,86,20,319,25,69,18,057,26,1*7D
$GLGSV,3,3,09,71,16,297,17,1*4A
$GAGSV,3,1,09,13,65,257,42,08,52,010,38,07,41,286,17,15,36,173,29,7*7D
$GAGSV,3,2,09,26,25,317,26,02,21,099,25,03,16,054,19,30,16,152,13,7*72
$GAGSV,3,3,09,25,05,053,,7*4E
$GAGSV,2,1,07,13,65,257,44,08,52,010,37,07,41,286,27,15,36,173,38,1*7E
$GAGSV,2,2,07,26,25,317,27,02,21,099,23,03,16,054,20,1*46
$GBGSV,4,1,14,38,80,056,44,39,73,257,42,08,71,007,36,16,66,237,43,1*74
$GBGSV,4,2,14,06,64,234,42,13,62,341,43,46,50,134,42,09,47,226,40,1*7A
$GBGSV,4,3,14,20,46,044,37,19,43,328,45,37,30,059,29,29,29,222,46,1*77
$GBGSV,4,4,14,35,24,284,,36,21,186,33,1*74
$GBGSV,2,1,08,38,80,056,44,39,73,257,48,46,50,134,45,20,46,044,40,4*7E
$GBGSV,2,2,08,19,43,328,38,37,30,059,28,29,29,222,40,36,21,186,28,4*72
$GNGGA,105258.000,2500.7979685,N,12132.4836614,E,2,60,0.46,13.276,M,15.25,M,17,3335*79
$GNRMC,105258.000,A,2500.7979685,N,12132.4836614,E,0.00,50.03,260623,,,D,V*34
$GPHDT,134.912,T*39
$GNGGA,105258.200,2500.7979685,N,12132.4836554,E,2,60,0.46,13.270,M,15.25,M,17,3335*7A
$GNRMC,105258.200,A,2500.7979685,N,12132.4836554,E,0.00,50.03,260623,,,D,V*31
$GPHDT,134.722,T*34
$GNGGA,105258.400,2500.7979685,N,12132.4836494,E,2,60,0.46,13.265,M,15.25,M,17,3335*75
$GNRMC,105258.400,A,2500.7979685,N,12132.4836494,E,0.00,50.03,260623,,,D,V*3A
$GPHDT,135.225,T*37
$GNGGA,105258.600,2500.7979745,N,12132.4836494,E,2,60,0.46,13.257,M,15.25,M,17,3335*7B
$GNRMC,105258.600,A,2500.7979745,N,12132.4836494,E,0.00,50.03,260623,,,D,V*35
$GPHDT,134.974,T*39
$GNGGA,105258.800,2500.7979685,N,12132.4836494,E,2,60,0.46,13.250,M,15.25,M,17,3335*7F
$GNRMC,105258.800,A,2500.7979685,N,12132.4836494,E,0.00,50.03,260623,,,D,V*36
$GPHDT,135.426,T*32
$GNGSA,A,3,24,196,18,199,15,195,23,05,194,13,,,0.87,0.46,0.74,1*0C
$GNGSA,A,3,80,85,70,84,73,79,69,71,,,,,0.87,0.46,0.74,2*01
$GNGSA,A,3,13,08,07,15,26,02,03,,,,,,0.87,0.46,0.74,3*01
$GNGSA,A,3,38,39,08,16,06,13,46,09,20,19,37,29,0.87,0.46,0.74,4*0E
$GNGSA,A,3,36,,,,,,,,,,,,0.87,0.46,0.74,4*0F
$GPGSV,4,1,16,24,81,129,43,196,73,056,43,18,60,281,43,199,60,167,29,1*65
$GPGSV,4,2,16,45,47,231,40,15,45,030,34,195,40,179,27,23,38,328,39,1*58
$GPGSV,4,3,16,05,28,105,26,194,25,142,28,13,18,047,27,12,11,153,,1*54
$GPGSV,4,4,16,29,08,208,15,20,07,121,,10,07,311,21,32,02,257,,1*6C
$GPGSV,2,1,07,24,81,129,49,196,73,056,45,199,60,167,36,18,60,281,46,8*6D
$GPGSV,2,2,07,195,40,179,34,23,38,328,44,194,25,142,33,8*54
$GLGSV,3,1,09,80,44,104,36,85,44,269,20,70,38,348,26,84,24,196,29,1*71
$GLGSV,3,2,09,73,21,166,31,79,21,045,26,86,20,319,24,69,18,057,26,1*7D
$GLGSV,3,3,09,71,16,297,18,1*45
$GAGSV,3,1,09,13,65,257,42,08,52,010,38,07,41,286,16,15,36,173,28,7*7D
$GAGSV,3,2,09,26,25,317,26,02,21,099,22,03,16,054,21,30,16,152,14,7*79
$GAGSV,3,3,09,25,05,053,,7*4E
$GAGSV,2,1,07,13,65,257,43,08,52,010,38,07,41,286,27,15,36,173,38,1*76
$GAGSV,2,2,07,26,25,317,28,02,21,099,23,03,16,054,20,1*49
$GBGSV,4,1,14,38,80,056,44,39,73,257,42,08,71,007,36,16,66,237,43,1*74
$GBGSV,4,2,14,06,64,234,42,13,62,341,43,46,50,134,42,09,47,226,40,1*7A
$GBGSV,4,3,14,20,46,044,40,19,43,328,45,37,30,059,27,29,29,222,46,1*79
$GBGSV,4,4,14,35,24,284,,36,21,186,33,1*74
$GBGSV,2,1,08,38,80,056,44,39,73,257,48,46,50,134,45,20,46,044,43,4*7D
$GBGSV,2,2,08,19,43,328,38,37,30,059,26,29,29,222,40,36,21,186,28,4*7C
$GNGGA,105259.000,2500.7979685,N,12132.4836494,E,2,60,0.46,13.247,M,15.25,M,18,3335*7F
$GNRMC,105259.000,A,2500.7979685,N,12132.4836494,E,0.00,50.03,260623,,,D,V*3F
$GPHDT,135.593,T*3D
$GNGGA,105259.200,2500.7979625,N,12132.4836494,E,2,60,0.46,13.244,M,15.25,M,18,3335*74
$GNRMC,105259.200,A,2500.7979625,N,12132.4836494,E,0.00,50.03,260623,,,D,V*37
$GPHDT,136.164,T*32
$GNGGA,105259.400,2500.7979625,N,12132.4836494,E,2,60,0.46,13.241,M,15.25,M,18,3335*77
$GNRMC,105259.400,A,2500.7979625,N,12132.4836494,E,0.00,50.03,260623,,,D,V*31
$GPHDT,136.323,T*33
$GNGGA,105259.600,2500.7979565,N,12132.4836494,E,2,60,0.46,13.233,M,15.25,M,18,3335*77
$GNRMC,105259.600,A,2500.7979565,N,12132.4836494,E,0.00,50.03,260623,,,D,V*34
$GPHDT,136.825,T*3E
$GNGGA,105259.800,2500.7979505,N,12132.4836494,E,2,60,0.46,13.232,M,15.25,M,18,3335*7E
$GNRMC,105259.800,A,2500.7979505,N,12132.4836494,E,0.00,50.03,260623,,,D,V*3C
$GPHDT,137.039,T*3A
$GNGSA,A,3,24,196,18,199,15,195,23,05,194,13,,,0.87,0.46,0.74,1*0C
$GNGSA,A,3,80,85,70,84,73,79,69,71,,,,,0.87,0.46,0.74,2*01
$GNGSA,A,3,13,08,07,15,26,02,03,,,,,,0.87,0.46,0.74,3*01
$GNGSA,A,3,38,39,08,16,06,13,46,09,20,19,37,29,0.87,0.46,0.74,4*0E
$GNGSA,A,3,36,,,,,,,,,,,,0.87,0.46,0.74,4*0F
$GPGSV,4,1,16,24,81,129,42,196,73,056,43,18,60,281,43,199,60,167,29,1*64
$GPGSV,4,2,16,45,47,231,40,15,45,030,38,195,40,179,26,23,38,328,39,1*55
$GPGSV,4,3,16,05,28,105,26,194,25,142,26,13,18,047,28,12,11,153,,1*55
$GPGSV,4,4,16,29,08,208,15,20,07,121,,10,07,311,20,32,02,257,,1*6D
$GPGSV,2,1,07,24,81,129,49,196,73,056,45,199,60,167,36,18,60,281,46,8*6D
$GPGSV,2,2,07,195,40,179,34,23,38,328,44,194,25,142,32,8*55
$GLGSV,3,1,09,80,44,104,39,85,44,269,20,70,38,348,26,84,24,196,29,1*7E
$GLGSV,3,2,09,73,21,166,31,79,21,045,25,86,20,319,23,69,18,057,27,1*78
$GLGSV,3,3,09,71,16,297,19,1*44
$GAGSV,3,1,09,13,65,257,42,08,52,010,39,07,41,286,16,15,36,173,29,7*7D
$GAGSV,3,2,09,26,25,317,26,02,21,099,20,03,16,054,20,30,16,152,15,7*7B
$GAGSV,3,3,09,25,05,053,,7*4E
$GAGSV,2,1,07,13,65,257,43,08,52,010,38,07,41,286,26,15,36,173,38,1*77
$GAGSV,2,2,07,26,25,317,26,02,21,099,25,03,16,054,20,1*41
$GBGSV,4,1,14,38,80,056,44,39,73,257,42,08,71,007,36,16,66,237,43,1*74
$GBGSV,4,2,14,06,64,234,42,13,62,341,43,46,50,134,42,09,47,226,40,1*7A
$GBGSV,4,3,14,20,46,044,41,19,43,328,45,37,30,059,26,29,29,222,46,1*79
$GBGSV,4,4,14,35,24,284,26,36,21,186,35,1*76
$GBGSV,2,1,08,38,80,056,44,39,73,257,48,46,50,134,45,20,46,044,43,4*7D
$GBGSV,2,2,08,19,43,328,38,37,30,059,26,29,29,222,39,36,21,186,26,4*7C
$GNGGA,105300.000,2500.7979445,N,12132.4836494,E,2,60,0.46,13.228,M,15.25,M,6,3335*4A
$GNRMC,105300.000,A,2500.7979445,N,12132.4836494,E,0.00,50.03,260623,,,D,V*3C
$GPHDT,136.864,T*3B
$GNGGA,105300.200,2500.7979505,N,12132.4836494,E,2,60,0.46,13.219,M,15.25,M,6,3335*4F
$GNRMC,105300.200,A,2500.7979505,N,12132.4836494,E,0.01,50.03,260623,,,D,V*3A
$GPHDT,137.010,T*31
$GNGGA,105300.400,2500.7979445,N,12132.4836494,E,2,60,0.46,13.209,M,15.25,M,6,3335*4D
$GNRMC,105300.400,A,2500.7979445,N,12132.4836494,E,0.00,50.03,260623,,,D,V*38
$GPHDT,136.961,T*3F
$GNGGA,105300.600,2500.7979445,N,12132.4836494,E,2,60,0.46,13.201,M,15.25,M,6,3335*47
$GNRMC,105300.600,A,2500.7979445,N,12132.4836494,E,0.00,50.03,260623,,,D,V*3A
$GPHDT,136.847,T*3A
$GNGGA,105300.800,2500.7979385,N,12132.4836494,E,2,60,0.46,13.191,M,15.25,M,6,3335*48
$GNRMC,105300.800,A,2500.7979385,N,12132.4836494,E,0.00,50.03,260623,,,D,V*3F
$GPHDT,136.872,T*3C
$GNGSA,A,3,24,196,18,199,15,195,23,05,194,13,,,0.87,0.46,0.74,1*0C
$GNGSA,A,3,80,85,70,84,73,79,69,71,,,,,0.87,0.46,0.74,2*01
$GNGSA,A,3,13,08,07,15,26,02,03,,,,,,0.87,0.46,0.74,3*01
$GNGSA,A,3,38,39,08,16,06,13,46,09,20,19,37,29,0.87,0.46,0.74,4*0E
$GNGSA,A,3,36,,,,,,,,,,,,0.87,0.46,0.74,4*0F
$GPGSV,4,1,16,24,81,129,42,196,73,056,43,18,60,281,43,199,60,167,29,1*64
$GPGSV,4,2,16,45,47,231,40,15,45,030,38,195,40,179,26,23,38,328,39,1*55
$GPGSV,4,3,16,05,28,105,24,194,25,142,27,13,18,047,28,12,11,153,,1*56
$GPGSV,4,4,16,29,08,208,16,20,07,121,,10,07,311,20,32,02,257,,1*6E
$GPGSV,2,1,07,24,81,129,49,196,73,056,45,199,60,167,36,18,60,281,46,8*6D
$GPGSV,2,2,07,195,40,179,34,23,38,328,44,194,25,142,32,8*55
$GLGSV,3,1,09,80,44,104,39,85,44,269,21,70,38,348,26,84,24,196,29,1*7F
$GLGSV,3,2,09,73,21,166,31,79,21,045,25,86,20,319,24,69,18,057,28,1*70
$GLGSV,3,3,09,71,16,297,20,1*4E
$GAGSV,3,1,09,13,65,257,42,08,52,010,39,07,41,286,16,15,36,173,29,7*7D
$GAGSV,3,2,09,26,25,317,26,02,21,099,21,03,16,054,19,30,16,152,14,7*71
$GAGSV,3,3,09,25,05,053,,7*4E
$GAGSV,2,1,07,13,65,257,43,08,52,010,38,07,41,286,25,15,36,173,38,1*74
$GAGSV,2,2,07,26,25,317,26,02,21,099,26,03,16,054,19,1*48
$GBGSV,4,1,14,38,80,056,44,39,73,257,42,08,71,007,36,16,66,237,43,1*74
$GBGSV,4,2,14,06,64,234,41,13,62,341,43,46,50,134,42,09,47,226,40,1*79
$GBGSV,4,3,14,20,46,044,41,19,43,328,45,37,30,059,25,29,29,222,46,1*7A
$GBGSV,4,4,14,35,24,284,27,36,21,186,35,1*77
$GBGSV,2,1,08,38,80,056,44,39,73,257,48,46,50,134,45,20,46,044,43,4*7D
$GBGSV,2,2,08,19,43,328,38,37,30,059,27,29,29,222,39,36,21,186,26,4*7D
$GNGGA,105301.000,2500.7979385,N,12132.4836494,E,2,60,0.46,13.183,M,15.25,M,7,3335*43
$GNRMC,105301.000,A,2500.7979385,N,12132.4836494,E,0.00,50.03,260623,,,D,V*36
$GPHDT,137.076,T*31
$GNGGA,105301.200,2500.7979385,N,12132.4836494,E,2,60,0.46,13.176,M,15.25,M,7,3335*4B
$GNRMC,105301.200,A,2500.7979385,N,12132.4836494,E,0.00,50.03,260623,,,D,V*34
$GPHDT,137.009,T*39
$GNGGA,105301.400,2500.7979325,N,12132.4836494,E,2,60,0.46,13.168,M,15.25,M,7,3335*48
$GNRMC,105301.400,A,2500.7979325,N,12132.4836494,E,0.00,50.03,260623,,,D,V*38
$GPHDT,137.051,T*34
$GNGGA,105301.600,2500.7979325,N,12132.4836494,E,2,60,0.46,13.158,M,15.25,M,7,3335*49
$GNRMC,105301.600,A,2500.7979325,N,12132.4836494,E,0.00,50.03,260623,,,D,V*3A
$GPHDT,136.788,T*36
$GNGGA,105301.800,2500.7979325,N,12132.4836494,E,2,60,0.46,13.150,M,15.25,M,7,3335*4F
$GNRMC,105301.800,A,2500.7979325,N,12132.4836494,E,0.00,50.03,260623,,,D,V*34
$GPHDT,137.341,T*36
$GNGSA,A,3,24,196,18,199,15,195,23,05,194,13,,,0.87,0.46,0.74,1*0C
$GNGSA,A,3,80,85,70,84,73,79,69,71,,,,,0.87,0.46,0.74,2*01
$GNGSA,A,3,13,08,07,15,26,02,03,,,,,,0.87,0.46,0.74,3*01
$GNGSA,A,3,38,39,08,16,06,13,46,09,20,19,37,29,0.87,0.46,0.74,4*0E
$GNGSA,A,3,36,,,,,,,,,,,,0.87,0.46,0.74,4*0F
$GPGSV,4,1,16,24,81,129,42,196,73,056,43,18,60,281,43,199,60,167,29,1*64
$GPGSV,4,2,16,45,47,231,40,15,45,030,37,195,40,179,26,23,38,328,39,1*5A
$GPGSV,4,3,16,05,28,105,24,194,25,142,27,13,18,047,27,12,11,153,,1*59
$GPGSV,4,4,16,29,08,208,16,20,07,121,,10,07,311,19,32,02,257,,1*64
$GPGSV,2,1,07,24,81,129,49,196,73,056,45,199,60,167,36,18,60,281,46,8*6D
$GPGSV,2,2,07,195,40,179,34,23,38,328,44,194,25,142,32,8*55
$GLGSV,3,1,09,80,44,104,39,85,44,269,22,70,38,348,25,84,24,196,29,1*7F
$GLGSV,3,2,09,73,21,166,31,79,21,045,22,86,20,319,24,69,18,057,28,1*77
$GLGSV,3,3,09,71,16,297,20,1*4E
$GAGSV,3,1,09,13,65,257,42,08,52,010,39,07,41,286,16,15,36,173,29,7*7D
$GAGSV,3,2,09,26,25,317,26,02,21,099,21,03,16,054,17,30,16,152,13,7*78
$GAGSV,3,3,09,25,05,053,,7*4E
$GAGSV,2,1,07,13,65,257,43,08,52,010,38,07,41,286,25,15,36,173,38,1*74
$GAGSV,2,2,07,26,25,317,27,02,21,099,26,03,16,054,18,1*48
$GBGSV,4,1,14,38,80,056,44,39,73,257,42,08,71,007,37,16,66,237,43,1*75
$GBGSV,4,2,14,06,64,234,41,13,62,341,43,46,50,134,42,09,47,226,40,1*79
$GBGSV,4,3,14,20,46,044,41,19,43,328,45,37,30,059,25,29,29,222,46,1*7A
$GBGSV,4,4,14,35,24,284,21,36,21,186,35,1*71
$GBGSV,2,1,08,38,80,056,44,39,73,257,48,46,50,134,45,20,46,044,43,4*7D
$GBGSV,2,2,08,19,43,328,38,37,30,059,26,29,29,222,39,36,21,186,27,4*7D
$GNGGA,105302.000,2500.7979265,N,12132.4836494,E,2,60,0.46,13.145,M,15.25,M,8,3335*4A
$GNRMC,105302.000,A,2500.7979265,N,12132.4836494,E,0.00,50.03,260623,,,D,V*3A
$GPHDT,136.858,T*34
$GNGGA,105302.200,2500.7979265,N,12132.4836614,E,2,60,0.46,13.130,M,15.25,M,8,3335*40
$GNRMC,105302.200,A,2500.7979265,N,12132.4836614,E,0.01,50.03,260623,,,D,V*33
$GPHDT,136.722,T*36
$GNGGA,105302.400,2500.7979265,N,12132.4836614,E,2,60,0.46,13.125,M,15.25,M,8,3335*42
$GNRMC,105302.400,A,2500.7979265,N,12132.4836614,E,0.00,50.03,260623,,,D,V*34
$GPHDT,136.961,T*3F
$GNGGA,105302.600,2500.7979265,N,12132.4836674,E,2,60,0.46,13.120,M,15.25,M,8,3335*43
$GNRMC,105302.600,A,2500.7979265,N,12132.4836674,E,0.00,50.03,260623,,,D,V*30
$GPHDT,136.095,T*3D
$GNGGA,105302.800,2500.7979265,N,12132.4836734,E,2,60,0.46,13.116,M,15.25,M,8,3335*4D
$GNRMC,105302.800,A,2500.7979265,N,12132.4836734,E,0.00,50.03,260623,,,D,V*3B
$GPHDT,135.997,T*35
$GNGSA,A,3,24,196,18,199,15,195,23,05,194,13,,,0.87,0.46,0.74,1*0C
$GNGSA,A,3,80,85,70,84,73,79,69,71,,,,,0.87,0.46,0.74,2*01
$GNGSA,A,3,13,08,07,15,26,02,03,,,,,,0.87,0.46,0.74,3*01
$GNGSA,A,3,38,39,08,16,06,13,46,09,20,19,37,29,0.87,0.46,0.74,4*0E
$GNGSA,A,3,36,,,,,,,,,,,,0.87,0.46,0.74,4*0F
$GPGSV,4,1,16,24,81,129,42,196,73,056,43,18,60,281,43,199,60,167,29,1*64
$GPGSV,4,2,16,45,47,231,40,15,45,030,37,195,40,179,26,23,38,328,40,1*54
$GPGSV,4,3,16,05,28,105,23,194,25,142,27,13,18,047,27,12,11,153,,1*5E
$GPGSV,4,4,16,29,08,208,16,20,07,121,,10,07,311,19,32,02,257,,1*64
$GPGSV,2,1,07,24,81,129,49,196,73,056,45,199,60,167,36,18,60,281,46,8*6D
$GPGSV,2,2,07,195,40,179,34,23,38,328,44,194,25,142,32,8*55
$GLGSV,3,1,09,80,44,104,39,85,44,269,23,70,38,348,25,84,24,196,29,1*7E
$GLGSV,3,2,09,73,21,166,30,79,21,045,21,86,20,319,24,69,18,057,28,1*75
$GLGSV,3,3,09,71,16,297,20,1*4E
$GAGSV,3,1,09,13,65,257,42,08,52,010,39,07,41,286,16,15,36,173,28,7*7C
$GAGSV,3,2,09,26,25,317,25,02,21,099,21,03,16,054,17,30,16,152,14,7*7C
$GAGSV,3,3,09,25,05,053,,7*4E
$GAGSV,2,1,07,13,65,257,43,08,52,010,38,07,41,286,26,15,36,173,38,1*77
$GAGSV,2,2,07,26,25,317,27,02,21,099,27,03,16,054,18,1*49
$GBGSV,4,1,16,38,80,056,44,39,73,257,41,08,71,007,37,16,66,237,43,1*74
$GBGSV,4,2,16,06,64,234,41,13,62,341,43,46,51,134,42,56,48,304,,1*7A
$GBGSV,4,3,16,09,47,226,40,20,46,044,41,19,43,328,45,37,30,059,25,1*70
$GBGSV,4,4,16,29,29,222,46,35,24,284,27,36,21,186,35,32,08,087,,1*73
$GBGSV,2,1,08,38,80,056,44,39,73,257,48,46,51,134,45,20,46,044,43,4*7C
$GBGSV,2,2,08,19,43,328,39,37,30,059,27,29,29,222,39,36,21,186,27,4*7D
$GNGGA,105303.000,2500.7979205,N,12132.4836734,E,2,60,0.46,13.112,M,15.25,M,9,3335*47
$GNRMC,105303.000,A,2500.7979205,N,12132.4836734,E,0.00,50.03,260623,,,D,V*34
$GPHDT,135.873,T*3E
$GNGGA,105303.200,2500.7979205,N,12132.4836734,E,2,60,0.46,13.102,M,15.25,M,9,3335*44
$GNRMC,105303.200,A,2500.7979205,N,12132.4836734,E,0.00,50.03,260623,,,D,V*36
$GPHDT,135.914,T*3E
$GNGGA,105303.400,2500.7979205,N,12132.4836794,E,2,60,0.46,13.094,M,15.25,M,1,3335*4E
$GNRMC,105303.400,A,2500.7979205,N,12132.4836794,E,0.00,50.03,260623,,,D,V*3A
$GPHDT,136.289,T*32
$GNGGA,105303.600,2500.7979205,N,12132.4836854,E,2,59,0.46,13.086,M,15.25,M,0,3335*47
$GNRMC,105303.600,A,2500.7979205,N,12132.4836854,E,0.00,50.03,260623,,,D,V*3B
$GPHDT,136.348,T*3E
$GNGGA,105303.800,2500.7979205,N,12132.4836914,E,2,59,0.46,13.076,M,15.25,M,0,3335*43
$GNRMC,105303.800,A,2500.7979205,N,12132.4836914,E,0.00,50.03,260623,,,D,V*30
$GPHDT,136.416,T*32
$GNGSA,A,3,24,196,18,199,15,195,23,05,194,13,,,0.87,0.46,0.74,1*0C
$GNGSA,A,3,80,85,70,84,73,79,69,71,,,,,0.87,0.46,0.74,2*01
$GNGSA,A,3,13,08,07,15,26,02,03,,,,,,0.87,0.46,0.74,3*01
$GNGSA,A,3,38,39,08,16,06,13,46,09,20,19,29,36,0.87,0.46,0.74,4*0F
$GNGSA,A,3,37,,,,,,,,,,,,0.87,0.46,0.74,4*0E
$GPGSV,4,1,16,24,81,129,42,196,73,056,43,18,60,281,43,199,60,167,29,1*64
$GPGSV,4,2,16,45,47,231,40,15,45,030,35,195,40,179,26,23,38,328,40,1*56
$GPGSV,4,3,16,05,28,105,23,194,25,142,27,13,18,047,27,12,11,153,,1*5E
$GPGSV,4,4,16,29,08,208,15,20,07,121,,10,07,311,19,32,02,257,,1*67
$GPGSV,2,1,07,24,81,129,48,196,73,056,45,199,60,167,36,18,60,281,46,8*6C
$GPGSV,2,2,07,195,40,179,33,23,38,328,44,194,25,142,32,8*52
$GLGSV,3,1,09,80,44,104,39,85,44,269,24,70,38,348,27,84,24,196,29,1*7B
$GLGSV,3,2,09,73,21,166,30,79,21,045,21,86,20,319,25,69,18,057,27,1*7B
$GLGSV,3,3,09,71,16,297,20,1*4E
$GAGSV,3,1,09,13,65,257,42,08,52,010,39,07,41,286,15,15,36,173,28,7*7F
$GAGSV,3,2,09,26,25,317,25,02,21,099,21,03,16,054,19,30,16,152,14,7*72
$GAGSV,3,3,09,25,05,053,,7*4E
$GAGSV,2,1,07,13,65,257,43,08,52,010,38,07,41,286,26,15,36,173,38,1*77
$GAGSV,2,2,07,26,25,317,26,02,21,099,26,03,16,054,18,1*49
$GBGSV,4,1,14,38,80,056,44,39,73,257,41,08,71,007,37,16,66,237,43,1*76
$GBGSV,4,2,14,06,64,234,41,13,62,341,43,46,51,134,42,09,47,226,40,1*78
$GBGSV,4,3,14,20,46,044,41,19,43,328,45,37,30,059,22,29,29,222,46,1*7D
$GBGSV,4,4,14,35,24,284,25,36,21,186,35,1*75
$GBGSV,2,1,08,38,80,056,44,39,73,257,47,46,51,134,45,20,46,044,43,4*73
$GBGSV,2,2,08,19,43,328,39,37,30,059,26,29,29,222,39,36,21,186,28,4*73
$GNGGA,105304.000,2500.7979205,N,12132.4836974,E,2,59,0.46,13.068,M,15.25,M,1,3335*44
$GNRMC,105304.000,A,2500.7979205,N,12132.4836974,E,0.00,50.03,260623,,,D,V*39
$GPHDT,136.185,T*3D
$GNGGA,105304.200,2500.7978343,N,12132.4840668,E,4,59,0.46,15.955,M,15.25,M,1,3335*40
$GNRMC,105304.200,A,2500.7978343,N,12132.4840668,E,0.00,50.03,260623,,,R,V*2C
$GPHDT,135.986,T*35
$GNGGA,105304.400,2500.7978339,N,12132.4840661,E,4,59,0.46,15.960,M,15.25,M,1,3335*44
$GNRMC,105304.400,A,2500.7978339,N,12132.4840661,E,0.00,50.03,260623,,,R,V*2E
$GPHDT,135.981,T*32
$GNGGA,105304.600,2500.7978363,N,12132.4840670,E,4,59,0.46,15.953,M,15.25,M,1,3335*49
$GNRMC,105304.600,A,2500.7978363,N,12132.4840670,E,0.00,50.03,260623,,,R,V*23
$GPHDT,136.227,T*36
$GNGGA,105304.800,2500.7978365,N,12132.4840670,E,4,60,0.45,15.952,M,15.25,M,1,3335*49
$GNRMC,105304.800,A,2500.7978365,N,12132.4840670,E,0.00,50.03,260623,,,R,V*2B
$GPHDT,136.398,T*33
$GNGSA,A,3,24,196,18,199,15,195,23,05,194,13,,,0.87,0.46,0.74,1*0C
$GNGSA,A,3,80,85,70,84,73,79,69,71,,,,,0.87,0.46,0.74,2*01
$GNGSA,A,3,13,08,07,15,26,02,03,,,,,,0.87,0.46,0.74,3*01
$GNGSA,A,3,38,39,08,16,06,13,46,09,20,19,29,36,0.87,0.46,0.74,4*0F
$GNGSA,A,3,37,,,,,,,,,,,,0.87,0.46,0.74,4*0E
$GPGSV,4,1,16,24,81,129,42,196,73,056,43,18,60,281,43,199,60,167,29,1*64
$GPGSV,4,2,16,45,47,231,40,15,45,030,35,195,40,179,26,23,38,328,40,1*56
$GPGSV,4,3,16,05,28,105,23,194,25,142,27,13,18,047,26,12,11,153,,1*5F
$GPGSV,4,4,16,29,08,208,16,20,07,121,,10,07,311,,32,02,257,,1*6C
$GPGSV,2,1,07,24,81,129,48,196,73,056,45,199,60,167,36,18,60,281,45,8*6F
$GPGSV,2,2,07,195,40,179,33,23,38,328,44,194,25,142,31,8*51
$GLGSV,3,1,09,80,44,104,39,85,44,269,26,70,38,348,27,84,24,196,28,1*78
$GLGSV,3,2,09,73,21,166,30,79,21,045,19,86,20,319,24,69,18,057,26,1*70
$GLGSV,3,3,09,71,16,297,20,1*4E
$GAGSV,3,1,09,13,65,257,42,08,52,010,39,07,41,286,15,15,36,173,28,7*7F
$GAGSV,3,2,09,26,25,317,24,02,21,099,21,30,16,152,14,03,16,054,19,7*73
$GAGSV,3,3,09,25,05,053,,7*4E
$GAGSV,2,1,07,13,65,257,43,08,52,010,37,07,41,286,25,15,36,173,37,1*74
$GAGSV,2,2,07,26,25,317,25,02,21,099,24,03,16,054,19,1*49
$GBGSV,4,1,15,38,80,056,44,39,73,257,41,08,71,007,37,16,66,237,43,1*77
$GBGSV,4,2,15,06,64,234,41,13,62,341,43,46,51,134,42,09,47,226,40,1*79
$GBGSV,4,3,15,20,46,044,41,19,43,328,45,37,30,059,19,29,29,222,46,1*74
$GBGSV,4,4,15,35,24,284,26,36,21,186,35,22,05,290,,1*49
$GBGSV,2,1,08,38,80,056,44,39,73,257,47,46,51,134,44,20,46,044,43,4*72
$GBGSV,2,2,08,19,43,328,39,37,30,059,26,29,29,222,38,36,21,186,27,4*7D
$GNGGA,105305.000,2500.7978357,N,12132.4840656,E,4,59,0.46,15.948,M,15.25,M,2,3335*44
$GNRMC,105305.000,A,2500.7978357,N,12132.4840656,E,0.00,50.03,260623,,,R,V*27
$GPHDT,136.024,T*37
$GNGGA,105305.200,2500.7978378,N,12132.4840662,E,4,59,0.46,15.955,M,15.25,M,1,3335*43
$GNRMC,105305.200,A,2500.7978378,N,12132.4840662,E,0.01,50.03,260623,,,R,V*2E
$GPHDT,136.333,T*32
$GNGGA,105305.400,2500.7978363,N,12132.4840662,E,4,59,0.46,15.958,M,15.25,M,1,3335*42
$GNRMC,105305.400,A,2500.7978363,N,12132.4840662,E,0.00,50.03,260623,,,R,V*23
$GPHDT,136.388,T*32
$GNGGA,105305.600,2500.7978372,N,12132.4840655,E,4,59,0.46,15.950,M,15.25,M,0,3335*4D
$GNRMC,105305.600,A,2500.7978372,N,12132.4840655,E,0.00,50.03,260623,,,R,V*25
$GPHDT,136.104,T*34
$GNGGA,105305.800,2500.7978371,N,12132.4840663,E,4,59,0.46,15.957,M,15.25,M,0,3335*42
$GNRMC,105305.800,A,2500.7978371,N,12132.4840663,E,0.00,50.03,260623,,,R,V*2D
$GPHDT,136.071,T*37
$GNGSA,A,3,24,196,18,199,15,195,23,05,194,13,,,0.87,0.46,0.74,1*0C
$GNGSA,A,3,80,85,70,84,73,79,69,71,,,,,0.87,0.46,0.74,2*01
$GNGSA,A,3,13,08,07,15,26,02,03,,,,,,0.87,0.46,0.74,3*01
$GNGSA,A,3,38,39,08,16,06,13,46,09,20,19,29,36,0.87,0.46,0.74,4*0F
$GNGSA,A,3,37,,,,,,,,,,,,0.87,0.46,0.74,4*0E
$GPGSV,4,1,16,24,81,129,43,196,73,056,43,18,60,281,43,199,60,167,30,1*6D
$GPGSV,4,2,16,45,47,231,39,15,45,030,36,195,40,179,28,23,38,328,40,1*55
$GPGSV,4,3,16,05,28,105,22,194,25,142,27,13,18,047,27,12,11,153,,1*5F
$GPGSV,4,4,16,29,08,208,17,20,07,121,,10,07,311,20,32,02,257,,1*6F
$GPGSV,2,1,07,24,81,129,48,196,73,056,45,199,60,167,36,18,60,281,45,8*6F
$GPGSV,2,2,07,195,40,179,33,23,38,328,44,194,25,142,31,8*51
$GLGSV,3,1,09,80,44,104,39,85,44,269,28,70,38,348,27,84,24,196,28,1*76
$GLGSV,3,2,09,73,21,166,30,79,21,045,18,86,20,319,21,69,18,057,25,1*77
$GLGSV,3,3,09,71,16,297,20,1*4E
$GAGSV,3,1,09,13,65,257,42,08,52,010,39,07,41,286,16,15,36,173,29,7*7D
$GAGSV,3,2,09,26,25,317,25,02,21,099,21,03,16,054,19,30,16,152,17,7*71
$GAGSV,3,3,09,25,05,053,,7*4E
$GAGSV,2,1,07,13,65,257,43,08,52,010,38,07,41,286,25,15,36,173,37,1*7B
$GAGSV,2,2,07,26,25,317,24,02,21,099,26,03,16,054,19,1*4A
$GBGSV,4,1,14,38,80,056,44,39,73,257,41,08,71,007,37,16,66,237,43,1*76
$GBGSV,4,2,14,06,64,234,41,13,62,341,43,46,51,134,42,09,47,226,40,1*78
$GBGSV,4,3,14,20,46,044,41,19,43,328,45,37,30,059,20,29,29,222,46,1*7F
$GBGSV,4,4,14,35,24,284,26,36,21,186,35,1*76
$GBGSV,2,1,08,38,80,056,44,39,73,257,47,46,51,134,44,20,46,044,43,4*72
$GBGSV,2,2,08,19,43,328,39,37,30,059,26,29,29,222,38,36,21,186,27,4*7D
$GNGGA,105306.000,2500.7978369,N,12132.4840673,E,4,59,0.46,15.956,M,15.25,M,1,3335*41
$GNRMC,105306.000,A,2500.7978369,N,12132.4840673,E,0.00,50.03,260623,,,R,V*2E
$GPHDT,136.130,T*33
$GNGGA,105306.200,2500.7978357,N,12132.4840679,E,4,60,0.45,15.962,M,15.25,M,1,3335*4A
$GNRMC,105306.200,A,2500.7978357,N,12132.4840679,E,0.01,50.03,260623,,,R,V*2A
$GPHDT,136.267,T*32
$GNGGA,105306.400,2500.7978374,N,12132.4840640,E,4,60,0.45,15.946,M,15.25,M,1,3335*41
$GNRMC,105306.400,A,2500.7978374,N,12132.4840640,E,0.00,50.03,260623,,,R,V*26
$GPHDT,135.877,T*3A
$GNGGA,105306.600,2500.7978413,N,12132.4840628,E,4,59,0.46,15.936,M,15.25,M,1,3335*45
$GNRMC,105306.600,A,2500.7978413,N,12132.4840628,E,0.00,50.03,260623,,,R,V*2C
$GPHDT,136.531,T*36
$GNGGA,105306.800,2500.7978355,N,12132.4840655,E,4,59,0.46,15.969,M,15.25,M,1,3335*4E
$GNRMC,105306.800,A,2500.7978355,N,12132.4840655,E,0.01,50.03,260623,,,R,V*2C
$GPHDT,135.783,T*3E
$GNGSA,A,3,24,196,18,199,15,195,23,05,194,13,,,0.74,0.45,0.59,1*0C
$GNGSA,A,3,80,85,70,84,73,79,69,71,,,,,0.74,0.45,0.59,2*01
$GNGSA,A,3,13,08,07,15,26,02,03,,,,,,0.74,0.45,0.59,3*01
$GNGSA,A,3,38,39,08,16,06,13,46,09,20,19,29,36,0.74,0.45,0.59,4*0F
$GNGSA,A,3,37,,,,,,,,,,,,0.74,0.45,0.59,4*0E
$GPGSV,4,1,16,24,81,129,43,196,73,056,43,18,60,281,43,199,60,167,30,1*6D
$GPGSV,4,2,16,45,47,231,39,15,45,030,34,195,40,179,25,23,38,328,38,1*55
$GPGSV,4,3,16,05,28,105,24,194,25,142,26,13,18,047,27,12,11,153,,1*58
$GPGSV,4,4,16,29,08,208,17,20,07,121,,10,07,311,22,32,02,257,,1*6D
$GPGSV,2,1,07,24,81,129,48,196,73,056,45,199,60,167,36,18,60,281,45,8*6F
$GPGSV,2,2,07,195,40,179,33,23,38,328,43,194,25,142,32,8*55
$GLGSV,3,1,09,80,44,104,39,85,44,269,30,70,38,348,26,84,24,196,28,1*7E
$GLGSV,3,2,09,73,21,166,30,79,21,045,18,86,20,319,21,69,18,057,26,1*74
$GLGSV,3,3,09,71,16,297,19,1*44
$GAGSV,3,1,09,13,65,257,42,08,52,010,38,07,41,286,16,15,36,173,29,7*7C
$GAGSV,3,2,09,26,25,317,25,02,21,099,21,03,16,054,19,30,16,152,17,7*71
$GAGSV,3,3,09,25,05,053,,7*4E
$GAGSV,2,1,07,13,65,257,43,08,52,010,38,07,41,286,25,15,36,173,37,1*7B
$GAGSV,2,2,07,26,25,317,24,02,21,099,26,03,16,054,20,1*40
$GBGSV,4,1,14,38,80,056,44,39,73,257,41,08,71,007,37,16,66,237,43,1*76
$GBGSV,4,2,14,06,64,234,41,13,62,341,42,46,51,134,42,09,47,226,40,1*79
$GBGSV,4,3,14,20,46,044,41,19,43,328,44,37,30,059,19,29,29,222,46,1*74
$GBGSV,4,4,14,35,24,284,26,36,21,186,35,1*76
$GBGSV,2,1,08,38,80,056,44,39,73,257,47,46,51,134,44,20,46,044,43,4*72
$GBGSV,2,2,08,19,43,328,36,37,30,059,25,29,29,222,38,36,21,186,27,4*71
$GNGGA,105307.000,2500.7978355,N,12132.4840701,E,4,59,0.45,15.966,M,15.25,M,2,3335*48
$GNRMC,105307.000,A,2500.7978355,N,12132.4840701,E,0.05,50.03,260623,,,R,V*21
$GPHDT,136.334,T*35
$GNGGA,105307.200,2500.7978288,N,12132.4840679,E,4,59,0.45,15.959,M,15.25,M,2,3335*49
$GNRMC,105307.200,A,2500.7978288,N,12132.4840679,E,0.03,50.03,260623,,,R,V*2A
$GPHDT,135.474,T*35
$GNGGA,105307.400,2500.7978361,N,12132.4840658,E,4,59,0.45,15.940,M,15.25,M,2,3335*42
$GNRMC,105307.400,A,2500.7978361,N,12132.4840658,E,0.03,50.03,260623,,,R,V*29
$GPHDT,136.055,T*31
$GNGGA,105307.600,2500.7978357,N,12132.4840644,E,4,59,0.45,15.955,M,15.25,M,2,3335*4C
$GNRMC,105307.600,A,2500.7978357,N,12132.4840644,E,0.04,50.03,260623,,,R,V*24
$GPHDT,135.777,T*35
$GNGGA,105307.800,2500.7978369,N,12132.4840616,E,4,59,0.45,15.939,M,15.25,M,2,3335*42
$GNRMC,105307.800,A,2500.7978369,N,12132.4840616,E,0.04,50.03,260623,,,R,V*20
$GPHDT,135.625,T*33
$GNGSA,A,3,24,196,18,199,15,195,23,05,194,13,,,0.74,0.45,0.59,1*0C
$GNGSA,A,3,80,85,70,84,73,79,69,71,,,,,0.74,0.45,0.59,2*01
$GNGSA,A,3,13,08,07,15,26,02,03,,,,,,0.74,0.45,0.59,3*01
$GNGSA,A,3,38,39,08,16,06,13,46,09,20,19,29,36,0.74,0.45,0.59,4*0F
$GNGSA,A,3,37,,,,,,,,,,,,0.74,0.45,0.59,4*0E
$GPGSV,4,1,16,24,81,129,43,196,73,056,43,18,60,281,43,199,60,167,29,1*65
$GPGSV,4,2,16,45,47,231,39,15,45,030,33,195,40,179,21,23,38,328,41,1*58
$GPGSV,4,3,16,05,28,105,25,194,25,142,28,13,18,047,25,12,11,153,,1*55
$GPGSV,4,4,16,29,08,208,17,20,07,121,,10,07,311,23,32,02,257,,1*6C
$GPGSV,2,1,07,24,81,129,48,196,73,056,45,199,60,167,36,18,60,281,44,8*6E
$GPGSV,2,2,07,195,40,179,32,23,38,328,44,194,25,142,29,8*59
$GLGSV,3,1,09,80,44,104,39,85,44,269,29,70,38,348,27,84,24,196,28,1*77
$GLGSV,3,2,09,73,21,166,32,79,21,045,18,86,20,319,22,69,18,057,27,1*74
$GLGSV,3,3,09,71,16,297,18,1*45
$GAGSV,3,1,09,13,65,257,42,08,52,010,38,07,41,286,16,15,36,173,28,7*7D
$GAGSV,3,2,09,26,25,317,24,02,21,099,19,03,16,054,19,30,16,152,17,7*7B
$GAGSV,3,3,09,25,05,053,,7*4E
$GAGSV,2,1,07,13,65,257,43,08,52,010,37,07,41,286,25,15,36,173,37,1*74
$GAGSV,2,2,07,26,25,317,22,02,21,099,25,03,16,054,23,1*46
$GBGSV,4,1,14,38,80,056,44,39,73,257,41,08,71,007,37,16,66,237,43,1*76
$GBGSV,4,2,14,06,64,234,41,13,62,341,42,46,51,134,42,09,47,226,40,1*79
$GBGSV,4,3,14,20,46,044,41,19,43,328,45,37,30,059,19,29,29,222,46,1*75
$GBGSV,4,4,14,35,24,284,25,36,21,186,35,1*75
$GBGSV,2,1,08,38,80,056,44,39,73,257,47,46,51,134,45,20,46,044,43,4*73
$GBGSV,2,2,08,19,43,328,39,37,30,059,25,29,29,222,40,36,21,186,27,4*71
$GNGGA,105308.000,2500.7978332,N,12132.4840687,E,4,59,0.45,15.940,M,15.25,M,2,3335*4D
$GNRMC,105308.000,A,2500.7978332,N,12132.4840687,E,0.03,50.03,260623,,,R,V*26
$GPHDT,135.796,T*3A
$GNGGA,105308.200,2500.7978334,N,12132.4840689,E,4,60,0.45,15.959,M,15.25,M,1,3335*46
$GNRMC,105308.200,A,2500.7978334,N,12132.4840689,E,0.01,50.03,260623,,,R,V*2E
$GPHDT,136.127,T*35
$GNGGA,105308.400,2500.7978300,N,12132.4840631,E,4,60,0.45,15.977,M,15.25,M,1,3335*48
$GNRMC,105308.400,A,2500.7978300,N,12132.4840631,E,0.00,50.03,260623,,,R,V*2D
$GPHDT,135.397,T*3F
$GNGGA,105308.600,2500.7978317,N,12132.4840638,E,4,60,0.45,15.968,M,15.25,M,1,3335*4B
$GNRMC,105308.600,A,2500.7978317,N,12132.4840638,E,0.02,50.03,260623,,,R,V*22
$GPHDT,135.752,T*32
$GNGGA,105308.800,2500.7978286,N,12132.4840659,E,4,60,0.45,15.963,M,15.25,M,1,3335*40
$GNRMC,105308.800,A,2500.7978286,N,12132.4840659,E,0.03,50.03,260623,,,R,V*23
$GPHDT,135.408,T*3E
