$FW : RTK35X,V1.1X0314AS,Lib20210517,1*54
$Tool : LOCOSYS , GNSS Firebird , v1.0.0.19*39
$---------------------------------------------------*2D
$GNGSA,A,3,24,196,18,199,15,195,23,05,194,13,,,0.93,0.48,0.80,1*0C
$GNGSA,A,3,85,80,70,84,79,73,69,,,,,,0.93,0.48,0.80,2*07
$GNGSA,A,3,13,08,07,15,26,02,03,,,,,,0.93,0.48,0.80,3*01
$GNGSA,A,3,38,39,08,16,06,13,46,09,20,19,37,29,0.93,0.48,0.80,4*0E
$GNGSA,A,3,36,,,,,,,,,,,,0.93,0.48,0.80,4*0F
$GPGSV,4,1,16,24,81,134,44,196,73,056,42,18,60,283,41,199,60,167,19,1*6C
$GPGSV,4,2,16,45,47,231,39,15,45,029,39,195,40,179,27,23,37,328,42,1*50
$GPGSV,4,3,16,05,29,104,29,194,25,142,20,13,18,046,32,12,10,153,,1*57
$GPGSV,4,4,16,29,09,208,16,20,08,120,,10,07,310,,32,02,256,,1*63
$GPGSV,2,1,06,24,81,134,47,196,73,056,46,18,60,283,44,199,60,167,37,8*6C
$GPGSV,2,2,06,195,40,179,31,23,37,328,44,8*53
$GLGSV,2,1,08,85,45,270,21,80,43,105,40,70,38,347,29,84,25,197,22,1*75
$GLGSV,2,2,08,79,21,046,20,86,20,320,18,73,20,166,21,69,19,056,23,1*78
$GAGSV,2,1,08,13,65,258,43,08,53,009,41,07,41,285,24,15,36,173,23,7*7D
$GAGSV,2,2,08,26,24,317,21,02,21,099,22,03,17,054,14,25,05,054,,7*7C
$GAGSV,2,1,07,13,65,258,45,08,53,009,41,07,41,285,29,15,36,173,29,1*75
$GAGSV,2,2,07,26,24,317,26,02,21,099,27,03,17,054,17,1*47
$GBGSV,4,1,14,38,79,054,44,39,73,255,42,08,71,007,34,16,66,236,39,1*7C
$GBGSV,4,2,14,06,63,233,41,13,62,341,44,46,50,135,36,09,47,225,38,1*70
$GBGSV,4,3,14,20,46,043,46,19,42,327,48,37,30,060,31,29,30,223,42,1*7B
$GBGSV,4,4,14,36,21,186,26,22,04,290,16,1*76
$GBGSV,3,1,09,38,79,054,45,39,73,255,47,46,50,135,42,20,46,043,44,4*73
$GBGSV,3,2,09,19,42,327,45,29,30,223,41,37,30,060,30,36,21,186,25,4*70
$GBGSV,3,3,09,22,04,290,17,4*43
$GNGGA,105122.000,2500.8003300,N,12132.4837200,E,2,58,0.48,24.17,M,15.25,M,12,3335*45
$GNRMC,105122.000,A,2500.8003300,N,12132.4837200,E,0.00,50.03,260623,,,D,V*39
$GPHDT,,T*1B
$GNGGA,105122.200,2500.8003300,N,12132.4837200,E,2,58,0.48,24.16,M,15.25,M,12,3335*46
$GNRMC,105122.200,A,2500.8003300,N,12132.4837200,E,0.00,50.03,260623,,,D,V*3B
$GPHDT,,T*1B
$GNGGA,105122.400,2500.8003200,N,12132.4837200,E,2,58,0.48,24.16,M,15.25,M,12,3335*41
$GNRMC,105122.400,A,2500.8003200,N,12132.4837200,E,0.00,50.03,260623,,,D,V*3C
$GPHDT,,T*1B
$GNGGA,105122.600,2500.8003200,N,12132.4837200,E,2,58,0.48,24.15,M,15.25,M,12,3335*40
$GNRMC,105122.600,A,2500.8003200,N,12132.4837200,E,0.00,50.03,260623,,,D,V*3E
$GPHDT,,T*1B
$GNGGA,105122.800,2500.8003200,N,12132.4837300,E,2,58,0.48,24.15,M,15.25,M,12,3335*4F
$GNRMC,105122.800,A,2500.8003200,N,12132.4837300,E,0.00,50.03,260623,,,D,V*31
$GPHDT,,T*1B
$GNGSA,A,3,24,196,18,199,15,195,23,05,194,13,,,0.93,0.48,0.80,1*0C
$GNGSA,A,3,85,80,70,84,79,73,69,,,,,,0.93,0.48,0.80,2*07
$GNGSA,A,3,13,08,07,15,26,02,03,,,,,,0.93,0.48,0.80,3*01
$GNGSA,A,3,38,39,08,16,06,13,46,09,20,19,37,29,0.93,0.48,0.80,4*0E
$GNGSA,A,3,36,,,,,,,,,,,,0.93,0.48,0.80,4*0F
$GPGSV,4,1,16,24,81,134,44,196,73,056,42,18,60,283,41,199,60,167,18,1*6D
$GPGSV,4,2,16,45,47,231,39,15,45,029,39,195,40,179,26,23,37,328,42,1*51
$GPGSV,4,3,16,05,29,104,29,194,25,142,18,13,18,046,32,12,10,153,,1*5C
$GPGSV,4,4,16,29,09,208,16,20,08,120,,10,07,310,,32,02,256,,1*63
$GPGSV,2,1,06,24,81,134,47,196,73,056,46,18,60,283,44,199,60,167,37,8*6C
$GPGSV,2,2,06,195,40,179,31,23,37,328,44,8*53
$GLGSV,2,1,08,85,45,270,20,80,43,105,40,70,38,347,29,84,25,197,22,1*74
$GLGSV,2,2,08,79,21,046,18,86,20,320,16,73,20,166,22,69,19,056,24,1*79
$GAGSV,2,1,08,13,65,258,43,08,53,009,41,07,41,285,24,15,36,173,24,7*7A
$GAGSV,2,2,08,26,24,317,21,02,21,099,21,03,17,054,10,25,05,054,,7*7B
$GAGSV,2,1,07,13,65,258,45,08,53,009,41,07,41,285,30,15,36,173,31,1*74
$GAGSV,2,2,07,26,24,317,26,02,21,099,26,03,17,054,17,1*46
$GBGSV,4,1,14,38,79,054,44,39,73,255,42,08,71,007,34,16,66,236,39,1*7C
$GBGSV,4,2,14,06,63,233,41,13,62,341,44,46,50,135,36,09,47,225,38,1*70
$GBGSV,4,3,14,20,46,043,46,19,42,327,48,37,30,060,31,29,29,223,42,1*73
$GBGSV,4,4,14,36,21,186,26,22,04,290,16,1*76
$GBGSV,3,1,09,38,79,054,46,39,73,255,47,46,50,135,42,20,46,043,45,4*71
$GBGSV,3,2,09,19,42,327,45,37,30,060,30,29,29,223,41,36,21,186,25,4*78
$GBGSV,3,3,09,22,04,290,17,4*43
$GNGGA,105123.000,2500.8003100,N,12132.4837300,E,2,58,0.48,24.15,M,15.25,M,13,3335*44
$GNRMC,105123.000,A,2500.8003100,N,12132.4837300,E,0.00,50.03,260623,,,D,V*3B
$GPHDT,,T*1B
$GNGGA,105123.200,2500.8003000,N,12132.4837300,E,2,57,0.48,24.15,M,15.25,M,13,3335*48
$GNRMC,105123.200,A,2500.8003000,N,12132.4837300,E,0.00,50.03,260623,,,D,V*38
$GPHDT,,T*1B
$GNGGA,105123.400,2500.8003000,N,12132.4837300,E,2,57,0.48,24.15,M,15.25,M,13,3335*4E
$GNRMC,105123.400,A,2500.8003000,N,12132.4837300,E,0.00,50.03,260623,,,D,V*3E
$GPHDT,,T*1B
$GNGGA,105123.600,2500.8002900,N,12132.4837200,E,2,57,0.48,24.15,M,15.25,M,13,3335*45
$GNRMC,105123.600,A,2500.8002900,N,12132.4837200,E,0.00,50.03,260623,,,D,V*35
$GPHDT,,T*1B
$GNGGA,105123.800,2500.8002900,N,12132.4837200,E,2,57,0.48,24.15,M,15.25,M,13,3335*4B
$GNRMC,105123.800,A,2500.8002900,N,12132.4837200,E,0.00,50.03,260623,,,D,V*3B
$GPHDT,,T*1B
$GNGSA,A,3,24,196,18,199,15,195,23,05,194,13,,,0.93,0.48,0.80,1*0C
$GNGSA,A,3,85,80,70,84,79,73,69,,,,,,0.93,0.48,0.80,2*07
$GNGSA,A,3,13,08,07,15,26,02,03,,,,,,0.93,0.48,0.80,3*01
$GNGSA,A,3,38,39,08,16,06,13,46,09,20,19,37,29,0.93,0.48,0.80,4*0E
$GNGSA,A,3,36,,,,,,,,,,,,0.93,0.48,0.80,4*0F
$GPGSV,4,1,16,24,81,134,44,196,73,056,42,18,60,283,41,199,60,167,17,1*62
$GPGSV,4,2,16,45,47,231,39,15,45,029,39,195,40,179,24,23,37,328,42,1*53
$GPGSV,4,3,16,05,29,104,29,194,25,142,20,13,18,046,32,12,10,153,,1*57
$GPGSV,4,4,16,29,09,208,14,20,08,120,,10,07,310,17,32,02,256,,1*67
$GPGSV,2,1,06,24,81,134,47,196,73,056,46,18,60,283,44,199,60,167,37,8*6C
$GPGSV,2,2,06,195,40,179,31,23,37,328,44,8*53
$GLGSV,2,1,08,85,45,270,19,80,43,105,40,70,38,347,29,84,25,197,23,1*7F
$GLGSV,2,2,08,79,21,046,18,86,20,320,16,73,20,166,20,69,19,056,24,1*7B
$GAGSV,2,1,08,13,65,258,43,08,53,009,41,07,41,285,24,15,36,173,24,7*7A
$GAGSV,2,2,08,26,24,317,21,02,21,099,21,03,17,054,,25,05,054,,7*7A
$GAGSV,2,1,07,13,65,258,45,08,53,009,41,07,41,285,29,15,36,173,31,1*7C
$GAGSV,2,2,07,26,24,317,26,02,21,099,27,03,17,054,17,1*47
$GBGSV,4,1,14,38,79,054,44,39,73,255,42,08,71,007,34,16,66,236,39,1*7C
$GBGSV,4,2,14,06,63,233,41,13,62,341,44,46,50,135,36,09,47,225,38,1*70
$GBGSV,4,3,14,20,46,043,46,19,42,327,48,37,30,060,30,29,29,223,42,1*72
$GBGSV,4,4,14,36,21,186,24,22,04,290,16,1*74
$GBGSV,3,1,09,38,79,054,46,39,73,255,47,46,50,135,42,20,46,043,45,4*71
$GBGSV,3,2,09,19,42,327,45,37,30,060,30,29,29,223,41,36,21,186,25,4*78
$GBGSV,3,3,09,22,04,290,17,4*43
$GNGGA,105124.000,2500.8002900,N,12132.4837200,E,2,57,0.48,24.15,M,15.25,M,14,3335*43
$GNRMC,105124.000,A,2500.8002900,N,12132.4837200,E,0.00,50.03,260623,,,D,V*34
$GPHDT,,T*1B
$GNGGA,105124.200,2500.8002800,N,12132.4837200,E,2,57,0.48,24.15,M,15.25,M,14,3335*40
$GNRMC,105124.200,A,2500.8002800,N,12132.4837200,E,0.00,50.03,260623,,,D,V*37
$GPHDT,,T*1B
$GNGGA,105124.400,2500.8002800,N,12132.4837100,E,2,57,0.48,24.15,M,15.25,M,14,3335*45
$GNRMC,105124.400,A,2500.8002800,N,12132.4837100,E,0.00,50.03,260623,,,D,V*32
$GPHDT,,T*1B
$GNGGA,105124.600,2500.8002700,N,12132.4837100,E,2,57,0.48,24.14,M,15.25,M,14,3335*49
$GNRMC,105124.600,A,2500.8002700,N,12132.4837100,E,0.00,50.03,260623,,,D,V*3F
$GPHDT,,T*1B
$GNGGA,105124.800,2500.8002700,N,12132.4837100,E,2,57,0.48,24.14,M,15.25,M,14,3335*47
$GNRMC,105124.800,A,2500.8002700,N,12132.4837100,E,0.00,50.03,260623,,,D,V*31
$GPHDT,,T*1B
$GNGSA,A,3,24,196,18,199,15,195,23,05,194,13,,,0.93,0.48,0.80,1*0C
$GNGSA,A,3,85,80,70,84,79,73,69,,,,,,0.93,0.48,0.80,2*07
$GNGSA,A,3,13,08,07,15,26,02,03,,,,,,0.93,0.48,0.80,3*01
$GNGSA,A,3,38,39,08,16,06,13,46,09,20,19,37,29,0.93,0.48,0.80,4*0E
$GNGSA,A,3,36,,,,,,,,,,,,0.93,0.48,0.80,4*0F
$GPGSV,4,1,16,24,81,134,44,196,73,056,41,18,60,283,41,199,60,167,22,1*67
$GPGSV,4,2,16,45,47,231,39,15,45,029,40,195,40,179,24,23,37,328,42,1*5D
$GPGSV,4,3,16,05,29,104,29,194,25,142,20,13,18,046,32,12,10,153,,1*57
$GPGSV,4,4,16,29,09,208,13,20,08,120,,10,07,310,,32,02,256,,1*66
$GPGSV,2,1,07,24,81,134,47,196,73,056,46,199,60,167,36,18,60,283,44,8*6C
$GPGSV,2,2,07,195,40,179,30,23,37,328,44,194,25,142,26,8*5B
$GLGSV,2,1,08,85,45,270,18,80,43,105,40,70,38,347,29,84,25,197,24,1*79
$GLGSV,2,2,08,79,21,046,18,73,20,166,18,86,20,320,16,69,19,056,25,1*71
$GAGSV,2,1,08,13,65,258,43,08,53,009,41,07,41,285,24,15,36,173,25,7*7B
$GAGSV,2,2,08,26,24,317,20,02,21,099,20,03,17,054,,25,05,054,,7*7A
$GAGSV,2,1,07,13,65,258,45,08,53,009,41,07,41,285,29,15,36,173,31,1*7C
$GAGSV,2,2,07,26,24,317,26,02,21,099,27,03,17,054,17,1*47
$GBGSV,4,1,15,38,79,055,44,39,73,256,42,08,71,007,34,16,66,236,39,1*7F
$GBGSV,4,2,15,06,63,233,41,13,62,341,44,46,50,135,35,09,47,225,38,1*72
$GBGSV,4,3,15,20,46,043,46,19,42,327,48,37,30,060,29,29,29,223,42,1*7B
$GBGSV,4,4,15,36,21,186,22,22,04,290,16,10,04,206,,1*42
$GBGSV,3,1,09,38,79,055,46,39,73,256,47,46,50,135,42,20,46,043,45,4*73
$GBGSV,3,2,09,19,42,327,45,37,30,060,29,29,29,223,39,36,21,186,29,4*73
$GBGSV,3,3,09,22,04,290,16,4*42
$GNGGA,105125.000,2500.8002700,N,12132.4837100,E,2,58,0.48,24.13,M,15.25,M,15,3335*47
$GNRMC,105125.000,A,2500.8002700,N,12132.4837100,E,0.00,50.03,260623,,,D,V*38
$GPHDT,,T*1B
$GNGGA,105125.200,2500.8002600,N,12132.4837100,E,2,57,0.48,24.12,M,15.25,M,15,3335*4A
$GNRMC,105125.200,A,2500.8002600,N,12132.4837100,E,0.00,50.03,260623,,,D,V*3B
$GPHDT,,T*1B
$GNGGA,105125.400,2500.8002600,N,12132.4837100,E,2,57,0.48,24.12,M,15.25,M,15,3335*4C
$GNRMC,105125.400,A,2500.8002600,N,12132.4837100,E,0.00,50.03,260623,,,D,V*3D
$GPHDT,,T*1B
$GNGGA,105125.600,2500.8002600,N,12132.4837100,E,2,57,0.48,24.11,M,15.25,M,5,3335*7C
$GNRMC,105125.600,A,2500.8002600,N,12132.4837100,E,0.00,50.03,260623,,,D,V*3F
$GPHDT,,T*1B
$GNGGA,105125.800,2500.8002600,N,12132.4837100,E,2,57,0.48,24.10,M,15.25,M,4,3335*72
$GNRMC,105125.800,A,2500.8002600,N,12132.4837100,E,0.00,50.03,260623,,,D,V*31
$GPHDT,,T*1B
$GNGSA,A,3,24,196,18,199,15,195,23,05,194,13,,,0.93,0.48,0.80,1*0C
$GNGSA,A,3,85,80,70,84,79,73,69,,,,,,0.93,0.48,0.80,2*07
$GNGSA,A,3,13,08,07,15,26,02,03,,,,,,0.93,0.48,0.80,3*01
$GNGSA,A,3,38,39,08,16,06,13,46,09,20,19,37,29,0.93,0.48,0.80,4*0E
$GNGSA,A,3,36,,,,,,,,,,,,0.93,0.48,0.80,4*0F
$GPGSV,4,1,16,24,81,134,44,196,73,056,41,18,60,283,41,199,60,167,20,1*65
$GPGSV,4,2,16,45,47,231,39,15,45,029,41,195,40,179,27,23,37,328,43,1*5E
$GPGSV,4,3,16,05,29,104,29,194,25,142,18,13,18,046,32,12,10,153,16,1*5B
$GPGSV,4,4,16,29,09,208,13,20,08,120,,10,07,310,,32,02,256,,1*66
$GPGSV,2,1,06,24,81,134,47,196,73,056,46,18,60,283,44,199,60,167,36,8*6D
$GPGSV,2,2,06,195,40,179,32,23,37,328,44,8*50
$GLGSV,2,1,08,85,45,270,19,80,43,105,40,70,38,347,29,84,25,197,24,1*78
$GLGSV,2,2,08,79,21,046,16,86,20,320,17,73,20,166,19,69,19,056,26,1*7C
$GAGSV,2,1,08,13,65,258,43,08,53,009,41,07,41,285,24,15,36,173,27,7*79
$GAGSV,2,2,08,26,24,317,20,02,21,099,20,03,17,054,,25,05,054,,7*7A
$GAGSV,2,1,07,13,65,258,45,08,53,009,41,07,41,285,29,15,36,173,32,1*7F
$GAGSV,2,2,07,26,24,317,26,02,21,099,28,03,17,054,18,1*47
$GBGSV,4,1,14,38,79,055,44,39,73,256,42,08,71,007,32,16,66,236,39,1*78
$GBGSV,4,2,14,06,63,233,41,13,62,341,44,46,50,135,34,09,47,225,38,1*72
$GBGSV,4,3,14,20,46,043,46,19,42,327,48,37,30,060,30,29,29,223,42,1*72
$GBGSV,4,4,14,36,21,186,22,22,04,290,13,1*77
$GBGSV,3,1,09,38,79,055,46,39,73,256,47,46,50,135,42,20,46,043,45,4*73
$GBGSV,3,2,09,19,42,327,45,37,30,060,29,29,29,223,39,36,21,186,29,4*73
$GBGSV,3,3,09,22,04,290,16,4*42
$GNGGA,105126.000,2500.8002600,N,12132.4837100,E,2,57,0.48,24.09,M,15.25,M,5,3335*70
$GNRMC,105126.000,A,2500.8002600,N,12132.4837100,E,0.00,50.03,260623,,,D,V*3A
$GPHDT,,T*1B
$GNGGA,105126.200,2500.8002500,N,12132.4837100,E,2,57,0.48,24.07,M,15.25,M,5,3335*7F
$GNRMC,105126.200,A,2500.8002500,N,12132.4837100,E,0.00,50.03,260623,,,D,V*3B
$GPHDT,,T*1B
$GNGGA,105126.400,2500.8002400,N,12132.4837100,E,2,57,0.48,24.06,M,15.25,M,5,3335*79
$GNRMC,105126.400,A,2500.8002400,N,12132.4837100,E,0.00,50.03,260623,,,D,V*3C
$GPHDT,,T*1B
$GNGGA,105126.600,2500.8002400,N,12132.4837100,E,2,57,0.48,24.05,M,15.25,M,0,3335*7D
$GNRMC,105126.600,A,2500.8002400,N,12132.4837100,E,0.00,50.03,260623,,,D,V*3E
$GPHDT,,T*1B
$GNGGA,105126.800,2500.8002300,N,12132.4837100,E,2,57,0.48,24.05,M,15.25,M,0,3335*74
$GNRMC,105126.800,A,2500.8002300,N,12132.4837100,E,0.00,50.03,260623,,,D,V*37
$GPHDT,,T*1B
$GNGSA,A,3,24,196,18,199,15,195,23,05,194,13,,,0.93,0.48,0.80,1*0C
$GNGSA,A,3,85,80,70,84,79,73,69,,,,,,0.93,0.48,0.80,2*07
$GNGSA,A,3,13,08,07,15,26,02,03,,,,,,0.93,0.48,0.80,3*01
$GNGSA,A,3,38,39,08,16,06,13,46,09,20,19,37,29,0.93,0.48,0.80,4*0E
$GNGSA,A,3,36,,,,,,,,,,,,0.93,0.48,0.80,4*0F
$GPGSV,4,1,16,24,81,134,44,196,73,056,41,18,60,283,41,199,60,167,19,1*6F
$GPGSV,4,2,16,45,47,231,39,15,45,029,40,195,40,179,24,23,37,328,42,1*5D
$GPGSV,4,3,16,05,29,104,29,194,25,142,22,13,18,046,32,12,10,153,,1*55
$GPGSV,4,4,16,29,09,208,13,20,08,120,,10,07,310,,32,02,256,,1*66
$GPGSV,2,1,06,24,81,134,47,196,73,056,46,18,60,283,44,199,60,167,37,8*6C
$GPGSV,2,2,06,195,40,179,32,23,37,328,44,8*50
$GLGSV,2,1,08,85,45,270,18,80,43,105,41,70,38,347,28,84,25,197,24,1*79
$GLGSV,2,2,08,79,21,046,17,86,20,320,16,73,20,166,20,69,19,056,26,1*76
$GAGSV,2,1,08,13,65,258,43,08,53,009,41,07,41,285,24,15,36,173,24,7*7A
$GAGSV,2,2,08,26,24,317,20,02,21,099,19,03,17,054,,25,05,054,,7*70
$GAGSV,2,1,07,13,65,258,45,08,53,009,41,07,41,285,27,15,36,173,31,1*72
$GAGSV,2,2,07,26,24,317,27,02,21,099,27,03,17,054,18,1*49
$GBGSV,4,1,14,38,79,055,43,39,73,256,42,08,71,007,34,16,66,236,39,1*79
$GBGSV,4,2,14,06,63,233,41,13,62,341,44,46,50,135,34,09,47,225,38,1*72
$GBGSV,4,3,14,20,46,043,46,19,42,327,48,37,30,060,30,29,29,223,42,1*72
$GBGSV,4,4,14,36,21,186,24,22,04,290,15,1*77
$GBGSV,3,1,09,38,79,055,46,39,73,256,47,46,50,135,42,20,46,043,45,4*73
$GBGSV,3,2,09,19,42,327,44,37,30,060,30,29,29,223,39,36,21,186,26,4*75
$GBGSV,3,3,09,22,04,290,17,4*43
$GNGGA,105127.000,2500.8002200,N,12132.4837100,E,2,57,0.48,24.04,M,15.25,M,1,3335*7C
$GNRMC,105127.000,A,2500.8002200,N,12132.4837100,E,0.00,50.03,260623,,,D,V*3F
$GPHDT,,T*1B
$GNGGA,105127.200,2500.8002100,N,12132.4837100,E,2,57,0.48,24.03,M,15.25,M,1,3335*7A
$GNRMC,105127.200,A,2500.8002100,N,12132.4837100,E,0.00,50.03,260623,,,D,V*3E
$GPHDT,,T*1B
$GNGGA,105127.400,2500.8002100,N,12132.4837100,E,2,57,0.48,24.02,M,15.25,M,1,3335*7D
$GNRMC,105127.400,A,2500.8002100,N,12132.4837100,E,0.00,50.03,260623,,,D,V*38
$GPHDT,,T*1B
$GNGGA,105127.600,2500.8002100,N,12132.4837000,E,2,58,0.48,24.02,M,15.25,M,0,3335*70
$GNRMC,105127.600,A,2500.8002100,N,12132.4837000,E,0.00,50.03,260623,,,D,V*3B
$GPHDT,,T*1B
$GNGGA,105127.800,2500.8002100,N,12132.4836900,E,2,58,0.48,24.03,M,15.25,M,0,3335*77
$GNRMC,105127.800,A,2500.8002100,N,12132.4836900,E,0.00,50.03,260623,,,D,V*3D
$GPHDT,,T*1B
$GNGSA,A,3,24,196,18,199,15,195,23,05,194,13,,,0.93,0.48,0.80,1*0C
$GNGSA,A,3,85,80,70,84,79,73,69,,,,,,0.93,0.48,0.80,2*07
$GNGSA,A,3,13,08,07,15,26,02,03,,,,,,0.93,0.48,0.80,3*01
$GNGSA,A,3,38,39,08,16,06,13,46,09,20,19,37,29,0.93,0.48,0.80,4*0E
$GNGSA,A,3,36,,,,,,,,,,,,0.93,0.48,0.80,4*0F
$GPGSV,4,1,16,24,81,134,44,196,73,056,42,18,60,283,40,199,60,167,25,1*62
$GPGSV,4,2,16,45,47,231,39,15,45,029,40,195,40,179,23,23,37,328,42,1*5A
$GPGSV,4,3,16,05,29,104,27,194,25,142,30,13,18,046,34,12,10,153,,1*5E
$GPGSV,4,4,16,29,09,208,15,20,08,120,,10,07,310,,32,02,256,,1*60
$GPGSV,2,1,07,24,81,134,48,196,73,056,46,199,60,167,37,18,60,283,44,8*62
$GPGSV,2,2,07,195,40,179,32,23,37,328,43,194,25,142,29,8*51
$GLGSV,2,1,08,85,45,270,18,80,43,105,39,70,38,347,29,84,25,197,21,1*72
$GLGSV,2,2,08,79,21,046,17,73,20,166,18,86,20,320,16,69,19,056,25,1*7E
$GAGSV,2,1,08,13,65,258,43,08,53,009,41,07,41,285,22,15,36,173,24,7*7C
$GAGSV,2,2,08,26,24,317,20,02,21,099,18,03,17,054,,25,05,054,,7*71
$GAGSV,2,1,07,13,65,258,45,08,53,009,41,07,41,285,24,15,36,173,27,1*76
$GAGSV,2,2,07,26,24,317,27,02,21,099,26,03,17,054,18,1*48
$GBGSV,4,1,16,38,79,055,43,39,73,256,42,08,71,007,34,16,66,236,39,1*7B
$GBGSV,4,2,16,06,63,233,41,13,62,341,44,46,50,135,34,56,48,303,,1*7B
$GBGSV,4,3,16,09,47,225,38,20,46,043,46,19,42,327,48,37,30,060,30,1*71
$GBGSV,4,4,16,29,29,223,42,35,24,284,,36,21,186,29,22,04,290,16,1*70
$GBGSV,3,1,09,38,79,055,44,39,73,256,47,46,50,135,42,20,46,043,45,4*71
$GBGSV,3,2,09,19,42,327,44,37,30,060,29,29,29,223,40,36,21,186,26,4*73
$GBGSV,3,3,09,22,04,290,17,4*43
$GNGGA,105128.000,2500.8002100,N,12132.4836900,E,2,58,0.48,24.03,M,15.25,M,1,3335*71
$GNRMC,105128.000,A,2500.8002100,N,12132.4836900,E,0.00,50.03,260623,,,D,V*3A
$GPHDT,,T*1B
$GNGGA,105128.200,2500.7978249,N,12132.4840779,E,4,58,0.48,15.910,M,15.25,M,1,3335*48
$GNRMC,105128.200,A,2500.7978249,N,12132.4840779,E,0.00,50.03,260623,,,R,V*2A
$GPHDT,,T*1B
$GNGGA,105128.400,2500.7978239,N,12132.4840792,E,4,58,0.48,15.917,M,15.25,M,1,3335*4B
$GNRMC,105128.400,A,2500.7978239,N,12132.4840792,E,0.00,50.03,260623,,,R,V*2E
$GPHDT,,T*1B
$GNGGA,105128.600,2500.7978230,N,12132.4840785,E,4,58,0.48,15.905,M,15.25,M,0,3335*44
$GNRMC,105128.600,A,2500.7978230,N,12132.4840785,E,0.00,50.03,260623,,,R,V*23
$GPHDT,,T*1B
$GNGGA,105128.800,2500.7978259,N,12132.4840771,E,4,58,0.48,15.910,M,15.25,M,0,3335*4A
$GNRMC,105128.800,A,2500.7978259,N,12132.4840771,E,0.00,50.03,260623,,,R,V*29
$GPHDT,,T*1B
$GNGSA,A,3,24,196,18,199,15,195,23,05,194,13,,,0.93,0.48,0.80,1*0C
$GNGSA,A,3,85,80,70,84,79,73,69,,,,,,0.93,0.48,0.80,2*07
$GNGSA,A,3,13,08,07,15,26,02,03,,,,,,0.93,0.48,0.80,3*01
$GNGSA,A,3,38,39,08,16,06,13,46,09,20,19,37,29,0.93,0.48,0.80,4*0E
$GNGSA,A,3,36,,,,,,,,,,,,0.93,0.48,0.80,4*0F
$GPGSV,4,1,16,24,81,134,44,196,73,056,42,18,60,283,40,199,60,167,27,1*60
$GPGSV,4,2,16,45,47,231,39,15,45,029,40,195,40,179,22,23,37,328,42,1*5B
$GPGSV,4,3,16,05,29,104,28,194,25,142,30,13,18,046,33,12,10,153,,1*56
$GPGSV,4,4,16,29,09,208,13,20,08,120,,10,07,310,,32,02,256,,1*66
$GPGSV,2,1,07,24,81,134,48,196,73,056,46,199,60,167,37,18,60,283,44,8*62
$GPGSV,2,2,07,195,40,179,32,23,37,328,43,194,25,142,32,8*5B
$GLGSV,2,1,08,85,45,270,20,80,43,105,39,70,38,347,29,84,25,197,20,1*78
$GLGSV,2,2,08,79,21,046,18,73,20,166,16,86,20,320,16,69,19,056,26,1*7C
$GAGSV,2,1,07,13,65,258,43,08,53,009,41,07,41,285,20,15,36,173,21,7*74
$GAGSV,2,2,07,26,24,317,20,02,21,099,17,03,17,054,,7*42
$GAGSV,2,1,07,13,65,258,45,08,53,009,41,07,41,285,24,15,36,173,28,1*79
$GAGSV,2,2,07,26,24,317,27,02,21,099,26,03,17,054,18,1*48
$GBGSV,4,1,16,38,79,055,43,39,73,256,42,08,71,007,34,16,66,236,39,1*7B
$GBGSV,4,2,16,06,63,233,41,13,62,341,44,46,50,135,32,56,48,303,,1*7D
$GBGSV,4,3,16,09,47,225,38,20,46,043,46,19,42,327,48,37,30,060,29,1*79
$GBGSV,4,4,16,29,29,223,42,35,24,284,,36,21,186,29,22,04,290,16,1*70
$GBGSV,3,1,09,38,79,055,44,39,73,256,47,46,50,135,42,20,46,043,44,4*70
$GBGSV,3,2,09,19,42,327,44,37,30,060,30,29,29,223,40,36,21,186,27,4*7A
$GBGSV,3,3,09,22,04,290,17,4*43
$GNGGA,105129.000,2500.7978248,N,12132.4840779,E,4,58,0.48,15.905,M,15.25,M,1,3335*4E
$GNRMC,105129.000,A,2500.7978248,N,12132.4840779,E,0.00,50.03,260623,,,R,V*28
$GPHDT,,T*1B
$GNGGA,105129.200,2500.7978248,N,12132.4840799,E,4,58,0.48,15.911,M,15.25,M,1,3335*47
$GNRMC,105129.200,A,2500.7978248,N,12132.4840799,E,0.00,50.03,260623,,,R,V*24
$GPHDT,,T*1B
$GNGGA,105129.400,2500.7978216,N,12132.4840791,E,4,58,0.48,15.907,M,15.25,M,1,3335*45
$GNRMC,105129.400,A,2500.7978216,N,12132.4840791,E,0.00,50.03,260623,,,R,V*21
$GPHDT,,T*1B
$GNGGA,105129.600,2500.7978240,N,12132.4840800,E,4,58,0.48,15.907,M,15.25,M,1,3335*43
$GNRMC,105129.600,A,2500.7978240,N,12132.4840800,E,0.00,50.03,260623,,,R,V*27
$GPHDT,,T*1B
$GNGGA,105129.800,2500.7978226,N,12132.4840802,E,4,58,0.48,15.899,M,15.25,M,0,3335*48
$GNRMC,105129.800,A,2500.7978226,N,12132.4840802,E,0.00,50.03,260623,,,R,V*2B
$GPHDT,,T*1B
$GNGSA,A,3,24,196,18,199,15,195,23,05,194,13,,,0.93,0.48,0.80,1*0C
$GNGSA,A,3,85,80,70,84,79,73,69,,,,,,0.93,0.48,0.80,2*07
$GNGSA,A,3,13,08,07,15,26,02,03,,,,,,0.93,0.48,0.80,3*01
$GNGSA,A,3,38,39,08,16,06,13,46,09,20,19,37,29,0.93,0.48,0.80,4*0E
$GNGSA,A,3,36,,,,,,,,,,,,0.93,0.48,0.80,4*0F
$GPGSV,4,1,16,24,81,134,44,196,73,056,42,18,60,283,40,199,60,167,26,1*61
$GPGSV,4,2,16,45,47,231,39,15,45,029,40,195,40,179,23,23,37,328,43,1*5B
$GPGSV,4,3,16,05,29,104,28,194,25,142,29,13,18,046,33,12,10,153,,1*5E
$GPGSV,4,4,16,29,09,208,13,20,08,120,,10,07,310,,32,02,256,,1*66
$GPGSV,2,1,07,24,81,134,48,196,73,056,46,199,60,167,37,18,60,283,44,8*62
$GPGSV,2,2,07,195,40,179,32,23,37,328,44,194,25,142,28,8*57
$GLGSV,2,1,08,85,45,270,23,80,43,105,39,70,38,347,29,84,25,197,21,1*7A
$GLGSV,2,2,08,79,21,046,17,73,20,166,16,86,20,320,16,69,19,056,26,1*73
$GAGSV,2,1,07,13,65,258,44,08,53,009,41,07,41,285,20,15,36,173,21,7*73
$GAGSV,2,2,07,26,24,317,19,02,21,099,15,03,17,054,,7*4A
$GAGSV,2,1,07,13,65,258,45,08,53,009,41,07,41,285,25,15,36,173,29,1*79
$GAGSV,2,2,07,26,24,317,27,02,21,099,26,03,17,054,17,1*47
$GBGSV,4,1,15,38,79,055,43,39,73,256,42,08,71,007,34,16,66,236,39,1*78
$GBGSV,4,2,15,06,63,233,41,13,62,341,44,46,50,135,33,09,47,225,38,1*74
$GBGSV,4,3,15,20,46,043,46,19,42,327,48,37,30,060,27,29,29,223,43,1*74
$GBGSV,4,4,15,35,24,284,,36,21,186,27,22,04,290,16,1*48
$GBGSV,3,1,09,38,79,055,45,39,73,256,47,46,50,135,42,20,46,043,44,4*71
$GBGSV,3,2,09,19,42,327,44,37,30,060,31,29,29,223,39,36,21,186,29,4*7B
$GBGSV,3,3,09,22,04,290,17,4*43
$GNGGA,105130.000,2500.7978185,N,12132.4840838,E,4,58,0.48,15.878,M,15.25,M,1,3335*45
$GNRMC,105130.000,A,2500.7978185,N,12132.4840838,E,0.00,50.03,260623,,,R,V*28
$GPHDT,,T*1B
$GNGGA,105130.200,2500.7978205,N,12132.4840848,E,4,58,0.48,15.906,M,15.25,M,1,3335*43
$GNRMC,105130.200,A,2500.7978205,N,12132.4840848,E,0.00,50.03,260623,,,R,V*26
$GPHDT,,T*1B
$GNGGA,105130.400,2500.7978241,N,12132.4840827,E,4,58,0.48,15.905,M,15.25,M,1,3335*4F
$GNRMC,105130.400,A,2500.7978241,N,12132.4840827,E,0.00,50.03,260623,,,R,V*29
$GPHDT,,T*1B
$GNGGA,105130.600,2500.7978259,N,12132.4840779,E,4,58,0.48,15.904,M,15.25,M,1,3335*41
$GNRMC,105130.600,A,2500.7978259,N,12132.4840779,E,0.00,50.03,260623,,,R,V*26
$GPHDT,,T*1B
$GNGGA,105130.800,2500.7978236,N,12132.4840783,E,4,58,0.48,15.904,M,15.25,M,0,3335*42
$GNRMC,105130.800,A,2500.7978236,N,12132.4840783,E,0.00,50.03,260623,,,R,V*24
$GPHDT,,T*1B
$GNGSA,A,3,24,196,18,199,15,195,23,05,194,13,,,0.93,0.48,0.80,1*0C
$GNGSA,A,3,85,80,70,84,79,73,69,,,,,,0.93,0.48,0.80,2*07
$GNGSA,A,3,13,08,07,15,26,02,03,,,,,,0.93,0.48,0.80,3*01
$GNGSA,A,3,38,39,08,16,06,13,46,09,20,19,37,29,0.93,0.48,0.80,4*0E
$GNGSA,A,3,36,,,,,,,,,,,,0.93,0.48,0.80,4*0F
$GPGSV,4,1,16,24,81,134,44,196,73,056,42,18,60,283,41,199,60,167,24,1*62
$GPGSV,4,2,16,45,47,231,39,15,45,029,41,195,40,179,28,23,37,328,43,1*51
$GPGSV,4,3,16,05,29,104,29,194,25,142,28,13,18,046,32,12,10,153,,1*5F
$GPGSV,4,4,16,29,09,208,11,20,08,120,,10,07,310,,32,02,256,,1*64
$GPGSV,2,1,07,24,81,134,48,196,73,056,46,199,60,167,37,18,60,283,45,8*63
$GPGSV,2,2,07,195,40,179,31,23,37,328,44,194,25,142,30,8*5D
$GLGSV,3,1,09,85,45,270,26,80,43,105,40,70,38,347,29,84,25,197,23,1*73
$GLGSV,3,2,09,79,21,046,17,73,20,166,16,86,20,320,14,69,19,056,27,1*70
$GLGSV,3,3,09,71,15,297,,1*4F
$GAGSV,2,1,08,13,65,258,44,08,53,009,41,07,41,285,20,15,36,173,21,7*7C
$GAGSV,2,2,08,26,24,317,19,02,21,099,15,03,17,054,,30,16,152,,7*77
$GAGSV,2,1,07,13,65,258,45,08,53,009,41,07,41,285,25,15,36,173,29,1*79
$GAGSV,2,2,07,26,24,317,28,02,21,099,27,03,17,054,17,1*49
$GBGSV,4,1,16,38,79,055,43,39,73,256,42,08,71,007,33,16,66,236,39,1*7C
$GBGSV,4,2,16,06,63,233,41,13,62,341,44,46,50,135,33,09,47,225,38,1*77
$GBGSV,4,3,16,20,46,043,46,19,42,327,47,37,30,060,26,29,29,223,42,1*78
$GBGSV,4,4,16,35,24,284,,36,21,186,28,32,08,086,,22,04,290,16,1*73
$GBGSV,3,1,09,38,79,055,45,39,73,256,47,46,50,135,43,20,46,043,44,4*70
$GBGSV,3,2,09,19,42,327,44,37,30,060,31,29,29,223,39,36,21,186,28,4*7A
$GBGSV,3,3,09,22,04,290,17,4*43
$GNGGA,105131.000,2500.7978246,N,12132.4840804,E,4,58,0.48,15.905,M,15.25,M,1,3335*4C
$GNRMC,105131.000,A,2500.7978246,N,12132.4840804,E,0.00,50.03,260623,,,R,V*2A
$GPHDT,,T*1B
$GNGGA,105131.200,2500.7978286,N,12132.4840795,E,4,58,0.48,15.912,M,15.25,M,1,3335*43
$GNRMC,105131.200,A,2500.7978286,N,12132.4840795,E,0.00,50.03,260623,,,R,V*23
$GPHDT,,T*1B
$GNGGA,105131.400,2500.7978265,N,12132.4840785,E,4,58,0.48,15.907,M,15.25,M,1,3335*4D
$GNRMC,105131.400,A,2500.7978265,N,12132.4840785,E,0.00,50.03,260623,,,R,V*29
$GPHDT,,T*1B
$GNGGA,105131.600,2500.7978276,N,12132.4840822,E,4,58,0.48,15.916,M,15.25,M,0,3335*4E
$GNRMC,105131.600,A,2500.7978276,N,12132.4840822,E,0.00,50.03,260623,,,R,V*2B
$GPHDT,,T*1B
$GNGGA,105131.800,2500.7978300,N,12132.4840803,E,4,58,0.48,15.913,M,15.25,M,0,3335*46
$GNRMC,105131.800,A,2500.7978300,N,12132.4840803,E,0.00,50.03,260623,,,R,V*26
$GPHDT,,T*1B
$GNGSA,A,3,24,196,18,199,15,195,23,05,194,13,,,0.93,0.48,0.80,1*0C
$GNGSA,A,3,85,80,70,84,79,73,69,,,,,,0.93,0.48,0.80,2*07
$GNGSA,A,3,13,08,07,15,26,02,03,,,,,,0.93,0.48,0.80,3*01
$GNGSA,A,3,38,39,08,16,06,13,46,09,20,19,37,29,0.93,0.48,0.80,4*0E
$GNGSA,A,3,36,,,,,,,,,,,,0.93,0.48,0.80,4*0F
$GPGSV,4,1,16,24,81,134,44,196,73,056,42,18,60,283,41,199,60,167,24,1*62
$GPGSV,4,2,16,45,47,231,39,15,45,029,41,195,40,179,26,23,37,328,42,1*5E
$GPGSV,4,3,16,05,29,104,28,194,25,142,26,13,18,046,31,12,11,153,,1*52
$GPGSV,4,4,16,29,09,208,11,20,08,120,,10,07,310,,32,02,256,,1*64
$GPGSV,2,1,07,24,81,134,48,196,73,056,46,199,60,167,38,18,60,283,45,8*6C
$GPGSV,2,2,07,195,40,179,30,23,37,328,44,194,25,142,30,8*5C
$GLGSV,3,1,09,85,45,270,25,80,43,105,40,70,38,347,29,84,25,197,21,1*72
$GLGSV,3,2,09,79,21,046,17,86,20,320,14,73,20,166,16,69,19,056,26,1*71
$GLGSV,3,3,09,71,15,297,29,1*44
$GAGSV,2,1,08,13,65,258,44,08,53,009,41,07,41,285,21,15,36,173,21,7*7D
$GAGSV,2,2,08,26,24,317,20,02,21,099,14,03,17,054,,30,16,152,,7*7C
$GAGSV,2,1,07,13,65,258,45,08,53,009,41,07,41,285,27,15,36,173,30,1*73
$GAGSV,2,2,07,26,24,317,28,02,21,099,28,03,17,054,15,1*44
$GBGSV,4,1,15,38,79,055,43,39,73,256,42,08,71,007,34,16,66,236,39,1*78
$GBGSV,4,2,15,06,63,233,41,13,62,341,43,46,50,135,33,09,47,225,38,1*73
$GBGSV,4,3,15,20,46,043,46,19,42,327,47,37,30,060,28,29,29,223,43,1*74
$GBGSV,4,4,15,35,24,284,29,36,21,186,28,22,04,290,17,1*4D
$GBGSV,3,1,09,38,79,055,45,39,73,256,47,46,50,135,43,20,46,043,44,4*70
$GBGSV,3,2,09,19,42,327,44,37,30,060,31,29,29,223,40,36,21,186,29,4*75
$GBGSV,3,3,09,22,04,290,17,4*43
$GNGGA,105132.000,2500.7978232,N,12132.4840825,E,4,58,0.48,15.911,M,15.25,M,1,3335*4A
$GNRMC,105132.000,A,2500.7978232,N,12132.4840825,E,0.00,50.03,260623,,,R,V*29
$GPHDT,,T*1B
$GNGGA,105132.200,2500.7978258,N,12132.4840820,E,4,58,0.48,15.915,M,15.25,M,1,3335*45
$GNRMC,105132.200,A,2500.7978258,N,12132.4840820,E,0.00,50.03,260623,,,R,V*22
$GPHDT,,T*1B
$GNGGA,105132.400,2500.7978244,N,12132.4840799,E,4,58,0.48,15.923,M,15.25,M,0,3335*47
$GNRMC,105132.400,A,2500.7978244,N,12132.4840799,E,0.00,50.03,260623,,,R,V*24
$GPHDT,,T*1B
$GNGGA,105132.600,2500.7978273,N,12132.4840780,E,4,58,0.48,15.916,M,15.25,M,0,3335*4F
$GNRMC,105132.600,A,2500.7978273,N,12132.4840780,E,0.00,50.03,260623,,,R,V*2A
$GPHDT,,T*1B
$GNGGA,105132.800,2500.7978202,N,12132.4840845,E,4,58,0.48,15.917,M,15.25,M,0,3335*40
$GNRMC,105132.800,A,2500.7978202,N,12132.4840845,E,0.01,50.03,260623,,,R,V*25
$GPHDT,,T*1B
$GNGSA,A,3,24,196,18,199,15,195,23,05,194,13,,,0.79,0.48,0.63,1*05
$GNGSA,A,3,85,80,70,84,79,73,69,,,,,,0.79,0.48,0.63,2*0E
$GNGSA,A,3,13,08,07,15,26,02,03,,,,,,0.79,0.48,0.63,3*08
$GNGSA,A,3,38,39,08,16,06,13,46,09,20,19,37,29,0.79,0.48,0.63,4*07
$GNGSA,A,3,36,,,,,,,,,,,,0.79,0.48,0.63,4*06
$GPGSV,4,1,16,24,81,134,44,196,73,056,42,18,60,282,41,199,60,167,26,1*61
$GPGSV,4,2,16,45,47,231,39,15,45,030,40,195,40,179,25,23,37,328,41,1*57
$GPGSV,4,3,16,05,29,104,27,194,25,142,25,13,18,046,31,12,11,153,,1*5E
$GPGSV,4,4,16,29,09,208,13,20,08,120,,10,07,310,23,32,02,256,,1*67
$GPGSV,2,1,07,24,81,134,48,196,73,056,46,199,60,167,38,18,60,282,45,8*6D
$GPGSV,2,2,07,195,40,179,29,23,37,328,42,194,25,142,27,8*54
$GLGSV,3,1,09,85,45,270,24,80,43,105,40,70,38,347,27,84,25,197,20,1*7C
$GLGSV,3,2,09,79,21,046,17,86,20,320,17,73,20,166,17,69,19,056,27,1*72
$GLGSV,3,3,09,71,15,297,26,1*4B
$GAGSV,2,1,08,13,65,258,44,08,53,009,41,07,41,285,23,15,36,173,20,7*7E
$GAGSV,2,2,08,26,24,317,19,02,21,099,14,03,17,054,,30,16,152,,7*76
$GAGSV,2,1,07,13,65,258,45,08,53,009,41,07,41,285,27,15,36,173,32,1*71
$GAGSV,2,2,07,26,24,317,27,02,21,099,29,03,17,054,14,1*4B
$GBGSV,4,1,15,38,79,055,44,39,73,256,41,08,71,007,34,16,66,236,39,1*7C
$GBGSV,4,2,15,06,63,233,41,13,62,341,43,46,50,135,31,09,47,225,38,1*71
$GBGSV,4,3,15,20,46,043,46,19,42,327,45,37,30,060,25,29,29,223,43,1*7B
$GBGSV,4,4,15,35,24,284,27,36,21,186,30,22,04,290,18,1*45
$GBGSV,3,1,09,38,79,055,45,39,73,256,48,46,50,135,43,20,46,043,44,4*7F
$GBGSV,3,2,09,19,42,327,42,37,30,060,30,29,29,223,40,36,21,186,28,4*73
$GBGSV,3,3,09,22,04,290,18,4*4C
$GNGGA,105133.000,2500.7978219,N,12132.4840860,E,4,58,0.48,15.925,M,15.25,M,1,3335*44
$GNRMC,105133.000,A,2500.7978219,N,12132.4840860,E,0.06,50.03,260623,,,R,V*26
$GPHDT,,T*1B
$GNGGA,105133.200,2500.7978270,N,12132.4840760,E,4,58,0.48,15.926,M,15.25,M,1,3335*45
$GNRMC,105133.200,A,2500.7978270,N,12132.4840760,E,0.05,50.03,260623,,,R,V*27
$GPHDT,,T*1B
$GNGGA,105133.400,2500.7978292,N,12132.4840774,E,4,58,0.48,15.905,M,15.25,M,1,3335*4B
$GNRMC,105133.400,A,2500.7978292,N,12132.4840774,E,0.06,50.03,260623,,,R,V*2B
$GPHDT,,T*1B
$GNGGA,105133.600,2500.7978284,N,12132.4840788,E,4,57,0.48,15.916,M,15.25,M,1,3335*40
$GNRMC,105133.600,A,2500.7978284,N,12132.4840788,E,0.02,50.03,260623,,,R,V*29
