$FW : RTK35X,V1.1X0314AS,Lib20210517,1*54
$Tool : LOCOSYS , GNSS Firebird , v1.0.0.19*39
$---------------------------------------------------*2D
MC,105341.000,A,2500.7978360,N,12132.4840632,E,0.02,50.03,260623,,,R,V*23
$GPHDT,90.307,T*08
$GNGGA,105341.200,2500.7978356,N,12132.4840650,E,4,59,0.44,15.959,M,15.25,M,6,3335*47
$GNRMC,105341.200,A,2500.7978356,N,12132.4840650,E,0.02,50.03,260623,,,R,V*20
$GPHDT,90.349,T*02
$GNGGA,105341.400,2500.7978340,N,12132.4840631,E,4,59,0.44,15.963,M,15.25,M,6,3335*48
$GNRMC,105341.400,A,2500.7978340,N,12132.4840631,E,0.03,50.03,260623,,,R,V*27
$GPHDT,90.685,T*07
$GNGGA,105341.600,2500.7978347,N,12132.4840619,E,4,59,0.44,15.959,M,15.25,M,6,3335*4E
$GNRMC,105341.600,A,2500.7978347,N,12132.4840619,E,0.05,50.03,260623,,,R,V*2E
$GPHDT,90.534,T*0E
$GNGGA,105341.800,2500.7978356,N,12132.4840615,E,4,59,0.44,15.956,M,15.25,M,6,3335*43
$GNRMC,105341.800,A,2500.7978356,N,12132.4840615,E,0.04,50.03,260623,,,R,V*2D
$GPHDT,90.945,T*04
$GNGSA,A,3,24,196,18,199,195,23,05,194,13,,,,0.73,0.44,0.58,1*0F
$GNGSA,A,3,80,85,70,84,73,86,69,71,,,,,0.73,0.44,0.58,2*06
$GNGSA,A,3,13,08,07,15,26,02,03,,,,,,0.73,0.44,0.58,3*06
$GNGSA,A,3,38,39,08,16,06,13,46,09,20,19,37,29,0.73,0.44,0.58,4*09
$GNGSA,A,3,36,35,,,,,,,,,,,0.73,0.44,0.58,4*0E
$GPGSV,4,1,16,24,82,128,45,196,73,057,44,18,60,281,43,199,60,167,26,1*68
$GPGSV,4,2,16,45,47,231,39,15,45,031,17,195,40,179,25,23,38,329,41,1*5A
$GPGSV,4,3,16,05,28,105,23,194,25,142,22,13,17,047,27,12,11,152,,1*55
$GPGSV,4,4,16,29,08,207,18,10,08,311,19,20,07,121,,32,02,257,,1*6A
$GPGSV,2,1,08,24,82,128,48,196,73,057,46,18,60,281,45,199,60,167,38,8*6E
$GPGSV,2,2,08,195,40,179,29,23,38,329,45,194,25,142,30,10,08,311,18,8*67
$GLGSV,3,1,09,80,44,104,40,85,44,269,29,70,38,348,29,84,24,196,28,1*77
$GLGSV,3,2,09,73,21,166,28,79,21,045,13,86,20,319,21,69,18,057,18,1*7B
$GLGSV,3,3,09,71,16,298,15,1*47
$GAGSV,3,1,09,13,65,256,41,08,52,010,36,07,41,287,24,15,35,173,33,7*78
$GAGSV,3,2,09,26,25,317,27,02,21,098,23,30,16,152,13,03,16,055,20,7*7F
$GAGSV,3,3,09,25,05,053,,7*4E
$GAGSV,2,1,06,13,65,256,43,08,52,010,34,15,35,173,36,26,25,317,19,1*72
$GAGSV,2,2,06,02,21,098,25,03,16,055,16,1*77
$GBGSV,4,1,15,38,80,057,43,39,73,258,41,08,71,007,38,16,66,237,43,1*71
$GBGSV,4,2,15,06,64,234,40,13,62,341,41,46,51,134,42,09,47,226,40,1*7A
$GBGSV,4,3,15,20,46,044,42,19,43,328,45,37,30,059,29,29,29,222,45,1*77
$GBGSV,4,4,15,35,24,283,13,36,22,186,37,07,05,195,,1*48
$GBGSV,3,1,09,38,80,057,44,39,73,258,47,46,51,134,45,20,46,044,39,4*70
$GBGSV,3,2,09,19,43,328,43,37,30,059,22,29,29,222,42,35,24,283,19,4*74
$GBGSV,3,3,09,36,22,186,30,4*43
$GNGGA,105342.000,2500.7978370,N,12132.4840647,E,4,59,0.44,15.955,M,15.25,M,7,3335*49
$GNRMC,105342.000,A,2500.7978370,N,12132.4840647,E,0.04,50.03,260623,,,R,V*25
$GPHDT,91.021,T*0E
$GNGGA,105342.200,2500.7978369,N,12132.4840604,E,4,59,0.44,15.951,M,15.25,M,7,3335*40
$GNRMC,105342.200,A,2500.7978369,N,12132.4840604,E,0.05,50.03,260623,,,R,V*29
$GPHDT,91.026,T*09
$GNGGA,105342.400,2500.7978393,N,12132.4840615,E,4,59,0.44,15.942,M,15.25,M,7,3335*41
$GNRMC,105342.400,A,2500.7978393,N,12132.4840615,E,0.04,50.03,260623,,,R,V*2B
$GPHDT,91.302,T*0C
$GNGGA,105342.600,2500.7978387,N,12132.4840578,E,4,59,0.44,15.949,M,15.25,M,7,3335*45
$GNRMC,105342.600,A,2500.7978387,N,12132.4840578,E,0.04,50.03,260623,,,R,V*24
$GPHDT,90.960,T*03
$GNGGA,105342.800,2500.7978372,N,12132.4840615,E,4,59,0.44,15.946,M,15.25,M,7,3335*46
$GNRMC,105342.800,A,2500.7978372,N,12132.4840615,E,0.01,50.03,260623,,,R,V*2D
$GPHDT,90.811,T*04
$GNGSA,A,3,24,196,18,199,15,195,23,05,194,13,,,0.73,0.44,0.58,1*0B
$GNGSA,A,3,80,85,70,84,73,86,69,71,,,,,0.73,0.44,0.58,2*06
$GNGSA,A,3,13,08,07,15,26,02,03,,,,,,0.73,0.44,0.58,3*06
$GNGSA,A,3,38,39,08,16,06,13,46,09,20,19,37,29,0.73,0.44,0.58,4*09
$GNGSA,A,3,36,35,,,,,,,,,,,0.73,0.44,0.58,4*0E
$GPGSV,4,1,16,24,82,128,45,196,73,057,43,18,61,280,43,199,60,167,27,1*6E
$GPGSV,4,2,16,45,47,231,39,15,45,031,24,195,40,179,22,23,38,329,42,1*5E
$GPGSV,4,3,16,05,28,105,21,194,25,142,22,13,17,047,25,12,11,152,,1*55
$GPGSV,4,4,16,29,08,207,18,10,08,311,19,20,07,121,,32,02,257,,1*6A
$GPGSV,2,1,08,24,82,128,48,196,73,057,46,18,61,280,45,199,60,167,39,8*6F
$GPGSV,2,2,08,195,40,179,31,23,38,329,45,194,25,142,31,10,08,311,19,8*6E
$GLGSV,3,1,09,80,44,104,40,85,44,269,29,70,38,348,28,84,24,196,28,1*76
$GLGSV,3,2,09,73,21,166,29,79,21,045,17,86,20,319,22,69,18,057,19,1*7C
$GLGSV,3,3,09,71,16,298,15,1*47
$GAGSV,3,1,09,13,65,256,41,08,52,010,36,07,41,287,23,15,35,173,33,7*7F
$GAGSV,3,2,09,26,25,317,26,02,21,098,24,30,16,152,11,03,16,055,21,7*7A
$GAGSV,3,3,09,25,05,053,,7*4E
$GAGSV,2,1,06,13,65,256,43,08,52,010,35,15,35,173,36,26,25,317,24,1*7D
$GAGSV,2,2,06,02,21,098,25,03,16,055,17,1*76
$GBGSV,4,1,15,38,80,057,43,39,73,258,42,08,71,007,38,16,66,237,43,1*72
$GBGSV,4,2,15,06,64,234,40,13,62,341,41,46,51,134,42,09,47,226,40,1*7A
$GBGSV,4,3,15,20,46,044,42,19,43,328,45,37,30,059,31,29,29,222,45,1*7E
$GBGSV,4,4,15,35,24,283,15,36,22,186,37,07,05,195,,1*4E
$GBGSV,3,1,09,38,80,057,44,39,73,258,47,46,51,134,45,20,46,044,42,4*7C
$GBGSV,3,2,09,19,43,328,43,37,30,059,23,29,29,222,43,35,24,283,19,4*74
$GBGSV,3,3,09,36,22,186,32,4*41
$GNGGA,105343.000,2500.7978385,N,12132.4840619,E,4,60,0.44,15.950,M,15.25,M,8,3335*49
$GNRMC,105343.000,A,2500.7978385,N,12132.4840619,E,0.01,50.03,260623,,,R,V*20
$GPHDT,90.784,T*07
$GNGGA,105343.200,2500.7978393,N,12132.4840628,E,4,60,0.44,15.927,M,15.25,M,8,3335*4E
$GNRMC,105343.200,A,2500.7978393,N,12132.4840628,E,0.01,50.03,260623,,,R,V*27
$GPHDT,89.974,T*0E
$GNGGA,105343.400,2500.7978443,N,12132.4840626,E,4,59,0.45,15.946,M,15.25,M,5,3335*4D
$GNRMC,105343.400,A,2500.7978443,N,12132.4840626,E,0.01,50.03,260623,,,R,V*25
$GPHDT,90.190,T*04
$GNGGA,105343.600,2500.7978503,N,12132.4840626,E,2,58,0.46,15.947,M,15.25,M,4,3335*4E
$GNRMC,105343.600,A,2500.7978503,N,12132.4840626,E,0.02,50.03,260623,,,D,V*37
$GPHDT,90.125,T*0A
$GNGGA,105343.800,2500.7978623,N,12132.4840686,E,2,59,0.45,15.939,M,15.25,M,4,3335*40
$GNRMC,105343.800,A,2500.7978623,N,12132.4840686,E,0.02,50.03,260623,,,D,V*32
$GPHDT,90.122,T*0D
$GNGSA,A,3,24,196,18,199,15,195,23,05,194,,,,0.75,0.45,0.60,1*05
$GNGSA,A,3,80,85,70,84,73,79,86,69,,,,,0.75,0.45,0.60,2*02
$GNGSA,A,3,13,08,07,15,26,02,03,,,,,,0.75,0.45,0.60,3*0A
$GNGSA,A,3,38,39,08,16,06,13,46,09,20,19,37,29,0.75,0.45,0.60,4*05
$GNGSA,A,3,36,35,,,,,,,,,,,0.75,0.45,0.60,4*02
$GPGSV,4,1,16,24,82,126,45,196,73,057,43,18,61,280,43,199,60,167,26,1*61
$GPGSV,4,2,16,45,47,231,39,15,45,031,35,195,40,179,22,23,38,329,42,1*5E
$GPGSV,4,3,16,05,28,105,19,194,25,142,21,13,17,047,23,12,11,152,,1*5B
$GPGSV,4,4,16,29,08,207,18,10,08,311,18,20,07,121,,32,02,257,,1*6B
$GPGSV,2,1,08,24,82,126,48,196,73,057,46,18,61,280,45,199,60,167,39,8*61
$GPGSV,2,2,08,195,40,179,31,23,38,329,45,194,25,142,32,10,08,311,19,8*6D
$GLGSV,3,1,09,80,44,104,41,85,44,269,29,70,38,348,28,84,24,196,28,1*77
$GLGSV,3,2,09,73,21,166,29,79,21,045,22,86,20,319,20,69,18,057,22,1*70
$GLGSV,3,3,09,71,16,298,16,1*44
$GAGSV,3,1,09,13,65,256,41,08,52,010,35,07,41,287,20,15,35,173,33,7*7F
$GAGSV,3,2,09,26,25,317,25,02,21,098,24,30,16,152,12,03,16,055,21,7*7A
$GAGSV,3,3,09,25,05,053,,7*4E
$GAGSV,2,1,06,13,65,256,43,08,52,010,36,15,35,173,35,26,25,317,22,1*7B
$GAGSV,2,2,06,02,21,098,26,03,16,055,17,1*75
$GBGSV,4,1,15,38,80,057,43,39,73,258,42,08,71,007,37,16,66,237,43,1*7D
$GBGSV,4,2,15,06,64,234,40,13,62,341,42,46,51,134,42,09,47,226,40,1*79
$GBGSV,4,3,15,20,46,044,42,19,43,328,45,37,30,059,32,29,29,222,45,1*7D
$GBGSV,4,4,15,35,24,283,17,36,22,186,37,30,04,175,,1*47
$GBGSV,3,1,09,38,80,057,44,39,73,258,47,46,51,134,45,20,46,044,41,4*7F
$GBGSV,3,2,09,19,43,328,41,37,30,059,23,29,29,222,43,35,24,283,19,4*76
$GBGSV,3,3,09,36,22,186,31,4*42
$GNGGA,105344.000,2500.7978743,N,12132.4840746,E,2,59,0.45,15.937,M,15.25,M,5,3335*4A
$GNRMC,105344.000,A,2500.7978743,N,12132.4840746,E,0.02,50.03,260623,,,D,V*37
$GPHDT,90.228,T*04
$GNGGA,105344.200,2500.7978863,N,12132.4840806,E,2,60,0.45,15.929,M,15.25,M,5,3335*4B
$GNRMC,105344.200,A,2500.7978863,N,12132.4840806,E,0.04,50.03,260623,,,D,V*35
$GPHDT,90.021,T*0F
$GNGGA,105344.400,2500.7978923,N,12132.4840866,E,2,60,0.45,15.923,M,15.25,M,5,3335*44
$GNRMC,105344.400,A,2500.7978923,N,12132.4840866,E,0.05,50.03,260623,,,D,V*31
$GPHDT,89.543,T*06
$GNGGA,105344.600,2500.7979043,N,12132.4840926,E,2,60,0.44,15.915,M,15.25,M,0,3335*4C
$GNRMC,105344.600,A,2500.7979043,N,12132.4840926,E,0.04,50.03,260623,,,D,V*39
$GPHDT,90.021,T*0F
$GNGGA,105344.800,2500.7979103,N,12132.4840986,E,2,60,0.44,15.907,M,15.25,M,0,3335*4E
$GNRMC,105344.800,A,2500.7979103,N,12132.4840986,E,0.04,50.03,260623,,,D,V*38
$GPHDT,90.131,T*0F
$GNGSA,A,3,24,196,18,199,15,195,23,05,194,,,,0.73,0.44,0.58,1*09
$GNGSA,A,3,80,85,70,84,73,79,86,69,71,,,,0.73,0.44,0.58,2*08
$GNGSA,A,3,13,08,07,15,26,02,03,,,,,,0.73,0.44,0.58,3*06
$GNGSA,A,3,38,39,08,16,06,13,46,09,20,19,37,29,0.73,0.44,0.58,4*09
$GNGSA,A,3,35,36,,,,,,,,,,,0.73,0.44,0.58,4*0E
$GPGSV,4,1,16,24,82,126,45,196,73,057,43,18,61,280,43,199,60,167,28,1*6F
$GPGSV,4,2,16,45,47,231,38,15,45,031,35,195,40,179,21,23,38,329,44,1*5A
$GPGSV,4,3,16,05,28,105,18,194,25,142,21,13,17,047,24,12,11,152,,1*5D
$GPGSV,4,4,16,29,08,207,19,10,08,311,17,20,07,121,,32,02,257,,1*65
$GPGSV,2,1,08,24,82,126,48,196,73,057,46,18,61,280,45,199,60,167,39,8*61
$GPGSV,2,2,08,195,40,179,33,23,38,329,45,194,25,142,33,10,08,311,19,8*6E
$GLGSV,3,1,09,80,44,104,42,85,44,269,29,70,38,348,23,84,24,196,27,1*70
$GLGSV,3,2,09,73,21,166,28,79,21,045,22,86,20,319,20,69,18,057,21,1*72
$GLGSV,3,3,09,71,16,298,18,1*4A
$GAGSV,3,1,09,13,65,256,41,08,52,010,35,07,41,287,20,15,35,173,33,7*7F
$GAGSV,3,2,09,26,25,317,26,02,21,098,24,03,16,055,20,30,16,152,13,7*79
$GAGSV,3,3,09,25,05,053,,7*4E
$GAGSV,2,1,06,13,65,256,44,08,52,010,37,15,35,173,36,26,25,317,23,1*7F
$GAGSV,2,2,06,02,21,098,26,03,16,055,17,1*75
$GBGSV,4,1,15,38,80,057,43,39,73,258,42,08,71,007,37,16,66,237,43,1*7D
$GBGSV,4,2,15,06,64,234,40,13,62,341,42,46,51,134,42,56,48,304,,1*79
$GBGSV,4,3,15,09,47,226,40,20,46,044,42,19,43,328,46,37,30,059,29,1*7F
$GBGSV,4,4,15,29,29,222,45,35,24,283,18,36,22,186,35,1*4D
$GBGSV,3,1,09,38,80,057,44,39,73,258,47,46,51,134,45,20,46,044,41,4*7F
$GBGSV,3,2,09,19,43,328,41,37,30,059,24,29,29,222,43,35,24,283,21,4*7A
$GBGSV,3,3,09,36,22,186,31,4*42
$GNGGA,105345.000,2500.7979223,N,12132.4840986,E,2,61,0.44,15.899,M,15.25,M,1,3335*40
$GNRMC,105345.000,A,2500.7979223,N,12132.4840986,E,0.02,50.03,260623,,,D,V*36
$GPHDT,90.218,T*07
$GNGGA,105345.200,2500.7979343,N,12132.4841046,E,2,61,0.43,15.891,M,15.25,M,1,3335*4E
$GNRMC,105345.200,A,2500.7979343,N,12132.4841046,E,0.02,50.03,260623,,,D,V*37
$GPHDT,89.940,T*09
$GNGGA,105345.400,2500.7979463,N,12132.4841166,E,2,60,0.43,15.882,M,15.25,M,1,3335*4D
$GNRMC,105345.400,A,2500.7979463,N,12132.4841166,E,0.04,50.03,260623,,,D,V*31
$GPHDT,90.456,T*0B
$GNGGA,105345.600,2500.7979463,N,12132.4841166,E,2,60,0.43,15.887,M,15.25,M,1,3335*4A
$GNRMC,105345.600,A,2500.7979463,N,12132.4841166,E,0.02,50.03,260623,,,D,V*35
$GPHDT,90.456,T*0B
$GNGGA,105345.800,2500.7979583,N,12132.4841286,E,2,60,0.43,15.881,M,15.25,M,0,3335*41
$GNRMC,105345.800,A,2500.7979583,N,12132.4841286,E,0.03,50.03,260623,,,D,V*38
$GPHDT,90.316,T*08
$GNGSA,A,3,24,196,18,199,15,195,23,05,194,13,,,0.71,0.43,0.57,1*01
$GNGSA,A,3,80,85,70,84,73,79,86,69,71,,,,0.71,0.43,0.57,2*02
$GNGSA,A,3,13,08,07,15,26,02,03,,,,,,0.71,0.43,0.57,3*0C
$GNGSA,A,3,38,39,08,16,06,13,46,09,20,19,37,29,0.71,0.43,0.57,4*03
$GNGSA,A,3,36,35,,,,,,,,,,,0.71,0.43,0.57,4*04
$GPGSV,4,1,16,24,82,126,45,196,74,057,43,18,61,280,43,199,60,167,27,1*67
$GPGSV,4,2,16,45,47,231,38,15,45,031,37,195,40,179,25,23,38,329,40,1*58
$GPGSV,4,3,16,05,28,105,18,194,25,142,21,13,17,047,25,12,11,152,,1*5C
$GPGSV,4,4,16,29,08,207,20,10,08,311,17,20,07,121,,32,02,257,,1*6F
$GPGSV,2,1,08,24,82,126,47,196,74,057,45,18,61,280,45,199,60,167,39,8*6A
$GPGSV,2,2,08,195,40,179,33,23,38,329,41,194,25,142,34,10,08,311,19,8*6D
$GLGSV,3,1,09,80,44,104,42,85,44,269,28,70,38,348,20,84,24,196,28,1*7D
$GLGSV,3,2,09,73,21,166,28,79,21,045,27,86,20,319,22,69,18,057,21,1*75
$GLGSV,3,3,09,71,16,298,16,1*44
$GAGSV,3,1,09,13,65,256,41,08,52,010,37,07,41,287,19,15,35,173,33,7*77
$GAGSV,3,2,09,26,25,317,26,02,21,098,25,03,16,055,18,30,16,152,13,7*73
$GAGSV,3,3,09,25,05,053,,7*4E
$GAGSV,2,1,06,13,65,256,44,08,52,010,37,15,35,173,36,26,25,317,26,1*7A
$GAGSV,2,2,06,02,21,098,27,03,16,055,22,1*72
$GBGSV,4,1,16,38,80,057,43,39,73,258,42,08,71,007,37,16,66,237,43,1*7E
$GBGSV,4,2,16,06,64,234,40,13,62,341,42,46,51,134,42,56,48,304,,1*7A
$GBGSV,4,3,16,09,47,226,40,20,46,044,41,19,43,328,44,37,30,059,28,1*7C
$GBGSV,4,4,16,29,29,222,45,35,24,283,18,36,22,186,35,32,08,087,,1*78
$GBGSV,3,1,09,38,80,057,43,39,73,258,47,46,51,134,44,20,46,044,39,4*76
$GBGSV,3,2,09,19,43,328,37,37,30,059,23,29,29,222,43,35,24,283,22,4*7F
$GBGSV,3,3,09,36,22,186,29,4*4B
$GNGGA,105346.000,2500.7979643,N,12132.4841286,E,2,61,0.43,15.884,M,15.25,M,1,3335*40
$GNRMC,105346.000,A,2500.7979643,N,12132.4841286,E,0.03,50.03,260623,,,D,V*3C
$GPHDT,90.240,T*0A
$GNGGA,105346.200,2500.7979763,N,12132.4841346,E,2,61,0.43,15.883,M,15.25,M,1,3335*4B
$GNRMC,105346.200,A,2500.7979763,N,12132.4841346,E,0.04,50.03,260623,,,D,V*37
$GPHDT,90.111,T*0D
$GNGGA,105346.400,2500.7979883,N,12132.4841346,E,2,63,0.43,15.884,M,15.25,M,1,3335*49
$GNRMC,105346.400,A,2500.7979883,N,12132.4841346,E,0.03,50.03,260623,,,D,V*37
$GPHDT,89.984,T*01
$GNGGA,105346.600,2500.7979943,N,12132.4841346,E,2,63,0.43,15.885,M,15.25,M,0,3335*46
$GNRMC,105346.600,A,2500.7979943,N,12132.4841346,E,0.02,50.03,260623,,,D,V*39
$GPHDT,90.223,T*0F
$GNGGA,105346.800,2500.7980003,N,12132.4841406,E,2,63,0.43,15.888,M,15.25,M,0,3335*4D
$GNRMC,105346.800,A,2500.7980003,N,12132.4841406,E,0.03,50.03,260623,,,D,V*3E
$GPHDT,90.294,T*03
$GNGSA,A,3,24,196,18,199,15,195,23,05,194,13,,,0.71,0.43,0.57,1*01
$GNGSA,A,3,80,85,70,84,73,79,86,69,71,,,,0.71,0.43,0.57,2*02
$GNGSA,A,3,13,08,07,15,26,02,03,,,,,,0.71,0.43,0.57,3*0C
$GNGSA,A,3,38,39,08,16,06,13,46,09,20,19,37,29,0.71,0.43,0.57,4*03
$GNGSA,A,3,35,36,,,,,,,,,,,0.71,0.43,0.57,4*04
$GPGSV,4,1,16,24,82,126,45,196,74,057,43,18,61,280,43,199,60,167,27,1*67
$GPGSV,4,2,16,45,47,231,38,15,45,031,37,195,40,179,25,23,38,329,36,1*59
$GPGSV,4,3,16,05,28,105,17,194,25,142,23,13,17,047,22,12,11,152,,1*56
$GPGSV,4,4,16,29,08,207,21,10,08,311,17,20,07,121,,32,02,257,,1*6E
$GPGSV,2,1,08,24,82,126,47,196,74,057,45,18,61,280,44,199,60,167,39,8*6B
$GPGSV,2,2,08,195,40,179,33,23,38,329,40,194,25,142,33,10,08,311,19,8*6B
$GLGSV,3,1,09,80,44,104,42,85,44,269,28,70,38,348,17,84,24,196,28,1*79
$GLGSV,3,2,09,73,21,166,27,79,21,045,24,86,20,319,18,69,18,057,21,1*70
$GLGSV,3,3,09,71,16,298,15,1*47
$GAGSV,3,1,09,13,65,256,41,08,52,010,37,07,41,287,18,15,35,173,33,7*76
$GAGSV,3,2,09,26,25,317,25,02,21,098,27,30,16,152,13,03,16,055,18,7*72
$GAGSV,3,3,09,25,05,053,,7*4E
$GAGSV,2,1,07,13,65,256,44,08,52,010,37,07,41,287,21,15,35,173,36,1*75
$GAGSV,2,2,07,26,25,317,22,02,21,098,25,03,16,055,23,1*46
$GBGSV,5,1,17,38,80,057,43,39,73,258,42,08,71,007,37,16,66,237,43,1*7E
$GBGSV,5,2,17,06,64,234,40,13,62,341,41,46,51,134,42,56,48,304,,1*79
$GBGSV,5,3,17,09,47,226,40,20,46,044,40,19,43,328,40,37,30,059,30,1*70
$GBGSV,5,4,17,29,29,222,45,35,24,283,21,36,22,186,35,22,05,290,,1*7A
$GBGSV,5,5,17,10,04,206,,1*41
$GBGSV,3,1,09,38,80,057,43,39,73,258,47,46,51,134,44,20,46,044,40,4*78
$GBGSV,3,2,09,19,43,328,35,37,30,059,24,29,29,222,43,35,24,283,20,4*78
$GBGSV,3,3,09,36,22,186,30,4*43
$GNGGA,105347.000,2500.7980003,N,12132.4841406,E,2,63,0.43,15.893,M,15.25,M,1,3335*4F
$GNRMC,105347.000,A,2500.7980003,N,12132.4841406,E,0.03,50.03,260623,,,D,V*37
$GPHDT,89.980,T*05
$GNGGA,105347.200,2500.7980123,N,12132.4841406,E,2,63,0.43,15.898,M,15.25,M,1,3335*45
$GNRMC,105347.200,A,2500.7980123,N,12132.4841406,E,0.04,50.03,260623,,,D,V*31
$GPHDT,89.641,T*07
$GNGGA,105347.400,2500.7980123,N,12132.4841466,E,2,63,0.43,15.896,M,15.25,M,1,3335*4B
$GNRMC,105347.400,A,2500.7980123,N,12132.4841466,E,0.05,50.03,260623,,,D,V*30
$GPHDT,89.413,T*02
$GNGGA,105347.600,2500.7980303,N,12132.4841466,E,2,62,0.44,15.896,M,15.25,M,1,3335*4F
$GNRMC,105347.600,A,2500.7980303,N,12132.4841466,E,0.03,50.03,260623,,,D,V*34
$GPHDT,90.057,T*0E
$GNGGA,105347.800,2500.7980363,N,12132.4841526,E,2,62,0.44,15.898,M,15.25,M,0,3335*4D
$GNRMC,105347.800,A,2500.7980363,N,12132.4841526,E,0.03,50.03,260623,,,D,V*39
$GPHDT,90.249,T*03
$GNGSA,A,3,24,196,18,199,15,195,23,05,194,13,,,0.71,0.43,0.57,1*01
$GNGSA,A,3,80,85,70,84,73,79,86,69,71,,,,0.71,0.43,0.57,2*02
$GNGSA,A,3,13,08,07,15,26,02,03,,,,,,0.71,0.43,0.57,3*0C
$GNGSA,A,3,38,39,08,16,06,13,46,09,20,19,37,29,0.71,0.43,0.57,4*03
$GNGSA,A,3,35,36,,,,,,,,,,,0.71,0.43,0.57,4*04
$GPGSV,4,1,16,24,82,126,45,196,74,057,43,18,61,280,43,199,60,167,28,1*68
$GPGSV,4,2,16,45,47,231,38,15,45,031,38,195,40,179,26,23,38,329,34,1*57
$GPGSV,4,3,16,05,28,105,18,194,25,142,23,13,17,047,24,12,11,152,,1*5F
$GPGSV,4,4,16,29,08,207,21,10,08,311,14,20,07,121,,32,02,257,,1*6D
$GPGSV,2,1,08,24,82,126,47,196,74,057,45,18,61,280,45,199,60,167,39,8*6A
$GPGSV,2,2,08,195,40,179,31,23,38,329,39,194,25,142,32,10,08,311,16,8*69
$GLGSV,3,1,09,80,44,104,42,85,44,269,29,70,38,348,17,84,24,196,28,1*78
$GLGSV,3,2,09,73,21,166,28,79,21,045,22,86,20,319,17,69,18,057,20,1*77
$GLGSV,3,3,09,71,16,298,20,1*41
$GAGSV,3,1,09,13,65,256,41,08,52,010,35,07,41,287,18,15,35,173,34,7*73
$GAGSV,3,2,09,26,25,317,25,02,21,098,27,03,16,055,18,30,16,152,13,7*72
$GAGSV,3,3,09,25,05,053,,7*4E
$GAGSV,2,1,07,13,65,256,43,08,52,010,37,07,41,287,17,15,35,173,35,1*74
$GAGSV,2,2,07,26,25,317,20,02,21,098,25,03,16,055,20,1*47
$GBGSV,4,1,14,38,80,057,43,39,73,258,41,08,71,007,37,16,66,237,43,1*7F
$GBGSV,4,2,14,06,64,234,40,13,62,341,40,46,51,134,42,09,47,226,40,1*7A
$GBGSV,4,3,14,20,46,044,40,19,43,328,39,37,30,059,30,29,29,222,45,1*77
$GBGSV,4,4,14,35,24,283,22,36,22,186,35,1*76
$GBGSV,3,1,09,38,80,057,43,39,73,258,46,46,51,134,44,20,46,044,40,4*79
$GBGSV,3,2,09,19,43,328,28,37,30,059,24,29,29,222,44,35,24,283,19,4*79
$GBGSV,3,3,09,36,22,186,30,4*43
$GNGGA,105348.000,2500.7980423,N,12132.4841526,E,2,63,0.43,15.901,M,15.25,M,1,3335*4F
$GNRMC,105348.000,A,2500.7980423,N,12132.4841526,E,0.03,50.03,260623,,,D,V*3D
$PAIR010,0,0,2268,125646*37
$GPHDT,90.433,T*08
$GNGGA,105348.200,2500.7980303,N,12132.4841466,E,2,63,0.43,15.909,M,15.25,M,1,3335*45
$GNRMC,105348.200,A,2500.7980303,N,12132.4841466,E,0.02,50.03,260623,,,D,V*3E
$GPHDT,90.375,T*0D
$GNGGA,105348.400,2500.7980243,N,12132.4841466,E,2,62,0.44,15.916,M,15.25,M,1,3335*4E
$GNRMC,105348.400,A,2500.7980243,N,12132.4841466,E,0.02,50.03,260623,,,D,V*3D
$GPHDT,90.359,T*03
$GNGGA,105348.600,2500.7980123,N,12132.4841466,E,2,62,0.44,15.926,M,15.25,M,1,3335*4A
$GNRMC,105348.600,A,2500.7980123,N,12132.4841466,E,0.01,50.03,260623,,,D,V*39
$GPHDT,90.235,T*08
$GNGGA,105348.800,2500.7980003,N,12132.4841406,E,2,62,0.44,15.933,M,15.25,M,0,3335*44
$GNRMC,105348.800,A,2500.7980003,N,12132.4841406,E,0.02,50.03,260623,,,D,V*31
$GPHDT,89.983,T*06
$GNGSA,A,3,24,196,18,199,15,195,23,05,194,,,,0.73,0.44,0.58,1*09
$GNGSA,A,3,80,85,70,84,73,79,86,69,71,,,,0.73,0.44,0.58,2*08
$GNGSA,A,3,13,08,07,15,26,02,03,,,,,,0.73,0.44,0.58,3*06
$GNGSA,A,3,38,39,08,16,06,13,46,09,20,19,37,29,0.73,0.44,0.58,4*09
$GNGSA,A,3,35,36,,,,,,,,,,,0.73,0.44,0.58,4*0E
$GPGSV,4,1,16,24,82,126,45,196,74,057,43,18,61,280,43,199,60,167,28,1*68
$GPGSV,4,2,16,45,47,231,38,15,45,031,38,195,40,179,23,23,38,329,38,1*5E
$GPGSV,4,3,16,05,28,105,19,194,25,142,20,13,17,047,21,12,11,152,,1*58
$GPGSV,4,4,16,29,08,207,20,10,08,311,13,20,07,121,,32,02,257,,1*6B
$GPGSV,2,1,08,24,82,126,47,196,74,057,45,18,61,280,45,199,60,167,39,8*6A
$GPGSV,2,2,08,195,40,179,31,23,38,329,40,194,25,142,33,10,08,311,15,8*65
$GLGSV,3,1,09,80,44,104,43,85,44,269,29,70,38,348,15,84,24,196,28,1*7B
$GLGSV,3,2,09,73,21,166,27,79,21,045,24,86,20,319,19,69,18,057,19,1*7A
$GLGSV,3,3,09,71,16,298,22,1*43
$GAGSV,3,1,09,13,65,256,41,08,52,010,24,07,41,287,18,15,35,173,34,7*73
$GAGSV,3,2,09,26,25,317,26,02,21,098,27,03,16,055,18,30,16,152,14,7*76
$GAGSV,3,3,09,25,05,053,,7*4E
$GAGSV,2,1,07,13,65,256,44,08,52,010,27,07,41,287,19,15,35,173,36,1*7F
$GAGSV,2,2,07,26,25,317,22,02,21,098,25,03,16,055,23,1*46
$GBGSV,4,1,14,38,80,057,43,39,73,258,41,08,71,007,37,16,66,237,43,1*7F
$GBGSV,4,2,14,06,64,234,40,13,62,341,39,46,51,134,42,09,47,226,40,1*74
$GBGSV,4,3,14,20,46,044,40,19,43,328,43,37,30,059,29,29,29,222,45,1*72
$GBGSV,4,4,14,35,24,283,21,36,22,186,36,1*76
$GBGSV,3,1,09,38,80,057,43,39,73,258,46,46,51,134,44,20,46,044,40,4*79
$GBGSV,3,2,09,19,43,328,33,37,30,059,26,29,29,222,43,35,24,283,20,4*7C
$GBGSV,3,3,09,36,22,186,31,4*42
$GNGGA,105349.000,2500.7979943,N,12132.4841406,E,2,62,0.44,15.929,M,15.25,M,1,3335*4C
$GNRMC,105349.000,A,2500.7979943,N,12132.4841406,E,0.02,50.03,260623,,,D,V*33
$GPHDT,90.151,T*09
$GNGGA,105349.200,2500.7979943,N,12132.4841466,E,2,62,0.44,15.933,M,15.25,M,1,3335*43
$GNRMC,105349.200,A,2500.7979943,N,12132.4841466,E,0.01,50.03,260623,,,D,V*34
$GPHDT,90.562,T*0D
$GNGGA,105349.400,2500.7979943,N,12132.4841526,E,2,62,0.44,15.940,M,15.25,M,1,3335*44
$GNRMC,105349.400,A,2500.7979943,N,12132.4841526,E,0.02,50.03,260623,,,D,V*34
$GPHDT,90.412,T*0B
$GNGGA,105349.600,2500.7980003,N,12132.4841586,E,2,63,0.43,15.944,M,15.25,M,0,3335*44
$GNRMC,105349.600,A,2500.7980003,N,12132.4841586,E,0.02,50.03,260623,,,D,V*37
$GPHDT,90.374,T*0C
$GNGGA,105349.800,2500.7979943,N,12132.4841586,E,2,63,0.43,15.946,M,15.25,M,0,3335*43
$GNRMC,105349.800,A,2500.7979943,N,12132.4841586,E,0.01,50.03,260623,,,D,V*31
$GPHDT,90.275,T*0C
$GNGSA,A,3,24,196,18,199,15,195,23,05,194,,,,0.73,0.44,0.58,1*09
$GNGSA,A,3,80,85,70,84,73,79,86,69,71,,,,0.73,0.44,0.58,2*08
$GNGSA,A,3,13,08,07,15,26,02,03,,,,,,0.73,0.44,0.58,3*06
$GNGSA,A,3,38,39,08,16,06,13,46,09,20,19,37,29,0.73,0.44,0.58,4*09
$GNGSA,A,3,35,36,,,,,,,,,,,0.73,0.44,0.58,4*0E
$GPGSV,4,1,16,24,82,126,45,196,74,057,43,18,61,280,43,199,60,167,28,1*68
$GPGSV,4,2,16,45,47,231,38,15,45,031,38,195,40,179,24,23,38,329,41,1*57
$GPGSV,4,3,16,05,28,105,19,194,25,142,20,13,17,047,22,12,11,152,,1*5B
$GPGSV,4,4,16,29,08,207,19,10,08,311,14,20,07,121,,32,02,257,,1*66
$GPGSV,2,1,08,24,82,126,47,196,74,057,45,18,61,280,45,199,60,167,39,8*6A
$GPGSV,2,2,08,195,40,179,32,23,38,329,41,194,25,142,34,10,08,311,17,8*62
$GLGSV,3,1,09,80,44,104,43,85,44,269,29,70,38,348,15,84,24,196,29,1*7A
$GLGSV,3,2,09,73,21,166,26,79,21,045,25,86,20,319,22,69,18,057,20,1*78
$GLGSV,3,3,09,71,16,298,22,1*43
$GAGSV,3,1,09,13,64,256,41,08,52,010,33,07,41,287,18,15,35,173,33,7*73
$GAGSV,3,2,09,26,25,317,27,02,21,098,27,03,16,055,18,30,16,152,15,7*76
$GAGSV,3,3,09,25,05,053,,7*4E
$GAGSV,2,1,07,13,64,256,45,08,52,010,36,07,41,287,20,15,35,173,36,1*75
$GAGSV,2,2,07,26,25,317,24,02,21,098,26,03,16,055,26,1*46
$GBGSV,4,1,14,38,80,057,43,39,73,258,41,08,71,007,37,16,66,237,43,1*7F
$GBGSV,4,2,14,06,64,234,40,13,62,341,41,46,51,134,42,09,47,226,40,1*7B
$GBGSV,4,3,14,20,46,044,42,19,43,328,44,37,30,059,27,29,29,222,45,1*79
$GBGSV,4,4,14,35,24,283,25,36,22,186,36,1*72
$GBGSV,3,1,09,38,80,057,43,39,73,258,46,46,51,134,44,20,46,044,40,4*79
$GBGSV,3,2,09,19,43,328,35,37,30,059,26,29,29,222,43,35,24,283,21,4*7B
$GBGSV,3,3,09,36,22,186,31,4*42
$GNGGA,105350.000,2500.7979943,N,12132.4841646,E,2,62,0.44,15.949,M,15.25,M,1,3335*44
$GNRMC,105350.000,A,2500.7979943,N,12132.4841646,E,0.01,50.03,260623,,,D,V*3E
$GPHDT,90.195,T*01
$GNGGA,105350.200,2500.7979883,N,12132.4841646,E,2,62,0.44,15.954,M,15.25,M,1,3335*47
$GNRMC,105350.200,A,2500.7979883,N,12132.4841646,E,0.01,50.03,260623,,,D,V*31
$GPHDT,90.420,T*0A
$GNGGA,105350.400,2500.7979883,N,12132.4841706,E,2,63,0.43,15.960,M,15.25,M,1,3335*45
$GNRMC,105350.400,A,2500.7979883,N,12132.4841706,E,0.02,50.03,260623,,,D,V*31
$GPHDT,90.128,T*07
$GNGGA,105350.600,2500.7979823,N,12132.4841706,E,2,63,0.43,15.963,M,15.25,M,1,3335*4E
$GNRMC,105350.600,A,2500.7979823,N,12132.4841706,E,0.01,50.03,260623,,,D,V*3A
$GPHDT,90.212,T*0D
$GNGGA,105350.800,2500.7979763,N,12132.4841766,E,2,62,0.44,15.968,M,15.25,M,0,3335*41
$GNRMC,105350.800,A,2500.7979763,N,12132.4841766,E,0.02,50.03,260623,,,D,V*3A
$GPHDT,89.903,T*0E
$GNGSA,A,3,24,196,18,199,15,195,23,05,194,13,,,0.71,0.43,0.57,1*01
$GNGSA,A,3,80,85,70,84,73,79,86,69,71,,,,0.71,0.43,0.57,2*02
$GNGSA,A,3,13,08,07,15,26,02,03,,,,,,0.71,0.43,0.57,3*0C
$GNGSA,A,3,38,39,08,16,06,13,46,09,20,19,37,29,0.71,0.43,0.57,4*03
$GNGSA,A,3,35,36,,,,,,,,,,,0.71,0.43,0.57,4*04
$GPGSV,4,1,16,24,82,126,45,196,74,057,43,18,61,280,43,199,60,167,28,1*68
$GPGSV,4,2,16,45,47,231,39,15,45,031,38,195,40,179,23,23,38,329,43,1*53
$GPGSV,4,3,16,05,28,105,19,194,25,142,20,13,17,047,24,12,11,152,,1*5D
$GPGSV,4,4,16,29,08,207,19,10,08,311,15,20,07,121,,32,02,257,,1*67
$GPGSV,2,1,08,24,82,126,47,196,74,057,45,18,61,280,45,199,60,167,39,8*6A
$GPGSV,2,2,08,195,40,179,32,23,38,329,43,194,25,142,33,10,08,311,17,8*67
$GLGSV,3,1,09,80,44,104,43,85,44,269,29,70,38,348,14,84,24,196,29,1*7B
$GLGSV,3,2,09,73,21,166,25,79,21,045,25,86,20,319,22,69,18,057,20,1*7B
$GLGSV,3,3,09,71,16,298,21,1*40
$GAGSV,3,1,09,13,64,256,41,08,52,010,34,07,41,287,19,15,35,173,33,7*75
$GAGSV,3,2,09,26,25,317,26,02,21,098,26,03,16,055,17,30,16,152,16,7*7A
$GAGSV,3,3,09,25,05,053,,7*4E
$GAGSV,2,1,07,13,64,256,44,08,52,010,36,07,41,287,19,15,35,173,36,1*7E
$GAGSV,2,2,07,26,25,317,24,02,21,098,27,03,16,055,25,1*44
$GBGSV,4,1,14,38,80,057,43,39,73,258,41,08,71,007,37,16,66,237,43,1*7F
$GBGSV,4,2,14,06,64,234,41,13,62,341,41,46,51,134,42,09,47,226,40,1*7A
$GBGSV,4,3,14,20,46,044,42,19,43,328,45,37,30,059,28,29,29,222,45,1*77
$GBGSV,4,4,14,35,24,283,27,36,22,186,35,1*73
$GBGSV,3,1,09,38,80,057,43,39,73,258,46,46,51,134,44,20,46,044,40,4*79
$GBGSV,3,2,09,19,43,328,40,37,30,059,24,29,29,222,43,35,24,283,21,4*7B
$GBGSV,3,3,09,36,22,186,31,4*42
$GNGGA,105351.000,2500.7979703,N,12132.4841766,E,2,63,0.43,15.972,M,15.25,M,1,3335*42
$GNRMC,105351.000,A,2500.7979703,N,12132.4841766,E,0.02,50.03,260623,,,D,V*35
$GPHDT,90.038,T*07
$GNGGA,105351.200,2500.7979703,N,12132.4841826,E,2,61,0.44,15.978,M,15.25,M,1,3335*44
$GNRMC,105351.200,A,2500.7979703,N,12132.4841826,E,0.01,50.03,260623,,,D,V*3F
$GPHDT,89.957,T*0F
$GNGGA,105351.400,2500.7979703,N,12132.4841886,E,2,61,0.44,15.984,M,15.25,M,1,3335*4B
$GNRMC,105351.400,A,2500.7979703,N,12132.4841886,E,0.01,50.03,260623,,,D,V*33
$GPHDT,89.844,T*0C
$GNGGA,105351.600,2500.7979643,N,12132.4841886,E,2,61,0.44,15.991,M,15.25,M,0,3335*49
$GNRMC,105351.600,A,2500.7979643,N,12132.4841886,E,0.02,50.03,260623,,,D,V*37
$GPHDT,90.004,T*08
$GNGGA,105351.800,2500.7979643,N,12132.4841886,E,2,62,0.44,16.000,M,15.25,M,0,3335*46
$GNRMC,105351.800,A,2500.7979643,N,12132.4841886,E,0.04,50.03,260623,,,D,V*3F
$GPHDT,89.942,T*0B
$GNGSA,A,3,24,196,18,199,15,195,23,05,194,,,,0.73,0.44,0.58,1*09
$GNGSA,A,3,80,85,84,73,79,86,69,71,,,,,0.73,0.44,0.58,2*0F
$GNGSA,A,3,13,08,07,15,26,02,03,,,,,,0.73,0.44,0.58,3*06
$GNGSA,A,3,38,39,08,16,06,13,46,09,20,19,37,29,0.73,0.44,0.58,4*09
$GNGSA,A,3,35,36,,,,,,,,,,,0.73,0.44,0.58,4*0E
$GPGSV,4,1,16,24,82,126,45,196,74,057,43,18,61,280,43,199,60,167,28,1*68
$GPGSV,4,2,16,45,47,231,39,15,45,031,38,195,40,179,23,23,38,329,43,1*53
$GPGSV,4,3,16,05,28,105,18,194,25,142,18,13,17,047,25,12,11,152,,1*56
$GPGSV,4,4,16,29,08,207,19,10,08,311,16,20,07,121,,32,02,257,,1*64
$GPGSV,2,1,08,24,82,126,47,196,74,057,45,18,61,280,45,199,60,167,39,8*6A
$GPGSV,2,2,08,195,40,179,32,23,38,329,43,194,25,142,33,10,08,311,17,8*67
$GLGSV,3,1,09,80,44,104,43,85,44,269,30,70,38,348,10,84,24,196,29,1*77
$GLGSV,3,2,09,73,21,166,26,79,21,045,25,86,20,319,23,69,18,057,22,1*7B
$GLGSV,3,3,09,71,16,298,21,1*40
$GAGSV,3,1,09,13,64,256,41,08,52,010,34,07,41,287,19,15,35,173,33,7*75
$GAGSV,3,2,09,26,25,317,25,02,21,098,26,03,16,055,17,30,16,152,17,7*78
$GAGSV,3,3,09,25,05,053,,7*4E
$GAGSV,2,1,07,13,64,256,44,08,52,010,37,07,41,287,19,15,35,173,36,1*7F
$GAGSV,2,2,07,26,25,317,24,02,21,098,27,03,16,055,25,1*44
$GBGSV,4,1,14,38,80,057,43,39,73,258,41,08,71,007,37,16,66,237,43,1*7F
$GBGSV,4,2,14,06,64,234,41,13,62,341,41,46,51,134,42,09,47,226,39,1*74
$GBGSV,4,3,14,20,46,044,42,19,43,328,45,37,30,059,28,29,29,222,45,1*77
$GBGSV,4,4,14,35,24,283,28,36,22,186,35,1*7C
$GBGSV,3,1,09,38,80,057,43,39,73,258,46,46,51,134,44,20,46,044,40,4*79
$GBGSV,3,2,09,19,43,328,41,37,30,059,22,29,29,222,43,35,24,283,21,4*7C
$GBGSV,3,3,09,36,22,186,31,4*42
$GNGGA,105352.000,2500.7979583,N,12132.4841946,E,2,61,0.44,16.010,M,15.25,M,1,3335*4C
$GNRMC,105352.000,A,2500.7979583,N,12132.4841946,E,0.04,50.03,260623,,,D,V*36
$GPHDT,90.027,T*09
$GNGGA,105352.200,2500.7979583,N,12132.4841946,E,2,61,0.44,16.018,M,15.25,M,1,3335*46
$GNRMC,105352.200,A,2500.7979583,N,12132.4841946,E,0.02,50.03,260623,,,D,V*32
$GPHDT,90.112,T*0E
$GNGGA,105352.400,2500.7979583,N,12132.4841946,E,2,62,0.44,16.027,M,15.25,M,1,3335*4F
$GNRMC,105352.400,A,2500.7979583,N,12132.4841946,E,0.02,50.03,260623,,,D,V*34
$GPHDT,90.187,T*02
$GNGGA,105352.600,2500.7979583,N,12132.4841946,E,2,62,0.44,16.033,M,15.25,M,0,3335*49
$GNRMC,105352.600,A,2500.7979583,N,12132.4841946,E,0.01,50.03,260623,,,D,V*35
$GPHDT,90.121,T*0E
$GNGGA,105352.800,2500.7979583,N,12132.4841946,E,2,62,0.44,16.043,M,15.25,M,0,3335*40
$GNRMC,105352.800,A,2500.7979583,N,12132.4841946,E,0.02,50.03,260623,,,D,V*38
$GPHDT,90.056,T*0F
$GNGSA,A,3,24,196,18,199,15,195,23,05,194,13,,,0.72,0.44,0.57,1*05
$GNGSA,A,3,80,85,84,73,79,86,69,71,,,,,0.72,0.44,0.57,2*01
$GNGSA,A,3,13,08,07,15,26,02,03,,,,,,0.72,0.44,0.57,3*08
$GNGSA,A,3,38,39,08,16,06,13,46,09,20,19,37,29,0.72,0.44,0.57,4*07
$GNGSA,A,3,35,36,,,,,,,,,,,0.72,0.44,0.57,4*00
$GPGSV,4,1,16,24,82,126,45,196,74,057,43,18,61,280,43,199,60,167,28,1*68
$GPGSV,4,2,16,45,47,231,39,15,45,031,38,195,40,179,23,23,38,329,43,1*53
$GPGSV,4,3,16,05,28,105,21,194,25,142,17,13,17,047,21,12,11,152,,1*57
$GPGSV,4,4,16,29,08,207,19,10,08,311,16,20,07,121,,32,02,257,,1*64
$GPGSV,2,1,08,24,82,126,47,196,74,057,45,18,61,280,45,199,60,167,39,8*6A
$GPGSV,2,2,08,195,40,179,32,23,38,329,43,194,25,142,33,10,08,311,17,8*67
$GLGSV,3,1,09,80,44,104,43,85,44,269,30,70,38,348,12,84,24,196,28,1*74
$GLGSV,3,2,09,73,21,166,27,79,21,045,25,86,20,319,24,69,18,057,23,1*7C
$GLGSV,3,3,09,71,16,298,21,1*40
$GAGSV,3,1,09,13,64,256,41,08,52,010,33,07,41,287,19,15,35,173,34,7*75
$GAGSV,3,2,09,26,25,317,25,02,21,098,26,30,17,152,16,03,16,055,17,7*78
$GAGSV,3,3,09,25,05,053,,7*4E
$GAGSV,2,1,07,13,64,256,44,08,52,010,36,07,41,287,19,15,35,173,36,1*7E
$GAGSV,2,2,07,26,25,317,25,02,21,098,27,03,16,055,25,1*45
$GBGSV,5,1,19,38,80,057,43,39,73,258,42,08,71,007,37,16,66,237,43,1*70
$GBGSV,5,2,19,06,64,234,41,13,62,341,42,46,51,134,42,56,48,304,,1*75
$GBGSV,5,3,19,09,47,226,39,20,46,044,42,19,43,328,45,31,32,203,,1*7D
$GBGSV,5,4,19,37,30,059,28,29,29,222,45,35,24,283,28,36,22,186,36,1*71
$GBGSV,5,5,19,32,08,087,,07,05,195,,10,04,206,,1*46
$GBGSV,3,1,09,38,80,057,43,39,73,258,46,46,51,134,44,20,46,044,40,4*79
$GBGSV,3,2,09,19,43,328,41,37,30,059,23,29,29,222,43,35,24,283,21,4*7D
$GBGSV,3,3,09,36,22,186,31,4*42
$GNGGA,105353.000,2500.7979583,N,12132.4841946,E,2,62,0.44,16.054,M,15.25,M,1,3335*4E
$GNRMC,105353.000,A,2500.7979583,N,12132.4841946,E,0.00,50.03,260623,,,D,V*33
$GPHDT,90.459,T*04
$GNGGA,105353.200,2500.7979523,N,12132.4841946,E,2,62,0.44,16.066,M,15.25,M,1,3335*47
$GNRMC,105353.200,A,2500.7979523,N,12132.4841946,E,0.02,50.03,260623,,,D,V*39
$GPHDT,90.578,T*06
$GNGGA,105353.400,2500.7979523,N,12132.4841946,E,2,62,0.44,16.080,M,15.25,M,1,3335*49
$GNRMC,105353.400,A,2500.7979523,N,12132.4841946,E,0.03,50.03,260623,,,D,V*3E
$GPHDT,90.222,T*0E
$GNGGA,105353.600,2500.7979463,N,12132.4842006,E,2,62,0.44,16.099,M,15.25,M,1,3335*48
$GNRMC,105353.600,A,2500.7979463,N,12132.4842006,E,0.02,50.03,260623,,,D,V*36
$GPHDT,90.019,T*04
$GNGGA,105353.800,2500.7979403,N,12132.4842066,E,2,62,0.44,16.120,M,15.25,M,0,3335*44
$GNRMC,105353.800,A,2500.7979403,N,12132.4842066,E,0.05,50.03,260623,,,D,V*3F
$GPHDT,90.088,T*0C
$GNGSA,A,3,24,196,18,199,15,195,23,05,194,13,,,0.72,0.44,0.57,1*05
$GNGSA,A,3,80,85,84,73,79,86,69,71,,,,,0.72,0.44,0.57,2*01
$GNGSA,A,3,13,08,07,15,26,02,03,,,,,,0.72,0.44,0.57,3*08
$GNGSA,A,3,38,39,08,16,06,13,46,09,20,19,37,29,0.72,0.44,0.57,4*07
$GNGSA,A,3,35,36,,,,,,,,,,,0.72,0.44,0.57,4*00
$GPGSV,4,1,16,24,82,126,45,196,74,057,43,18,61,280,43,199,60,167,28,1*68
$GPGSV,4,2,16,45,47,231,39,15,45,031,38,195,40,179,23,23,38,329,34,1*53
$GPGSV,4,3,16,05,28,105,21,194,25,142,17,13,17,047,21,12,11,152,,1*57
$GPGSV,4,4,16,29,08,207,19,10,08,311,16,20,07,121,,32,02,257,,1*64
$GPGSV,2,1,08,24,82,126,47,196,74,057,45,18,61,280,45,199,60,167,39,8*6A
$GPGSV,2,2,08,195,40,179,31,23,38,329,41,194,25,142,33,10,08,311,16,8*67
$GLGSV,3,1,09,80,44,104,43,85,44,269,29,70,38,348,16,84,24,196,28,1*78
$GLGSV,3,2,09,73,21,166,27,79,21,045,25,86,20,319,24,69,18,057,23,1*7C
$GLGSV,3,3,09,71,16,298,21,1*40
$GAGSV,3,1,09,13,64,256,41,08,52,010,26,07,41,287,19,15,35,173,34,7*71
$GAGSV,3,2,09,26,25,317,26,02,21,098,27,30,17,152,16,03,16,055,19,7*74
$GAGSV,3,3,09,25,05,053,,7*4E
$GAGSV,2,1,07,13,64,256,43,08,52,010,29,07,41,287,20,15,35,173,35,1*7E
$GAGSV,2,2,07,26,25,317,21,02,21,098,26,03,16,055,23,1*46
$GBGSV,4,1,16,38,80,057,43,39,73,258,42,08,71,007,37,16,66,237,43,1*7E
$GBGSV,4,2,16,06,64,234,41,13,62,341,40,46,51,134,43,09,47,226,39,1*76
$GBGSV,4,3,16,20,46,044,39,19,43,328,43,37,30,059,29,29,29,222,45,1*7E
$GBGSV,4,4,16,35,24,283,28,36,22,186,36,07,05,195,,10,04,206,,1*73
$GBGSV,3,1,09,38,80,057,43,39,73,258,46,46,51,134,44,20,46,044,41,4*78
$GBGSV,3,2,09,19,43,328,35,37,30,059,23,29,29,222,43,35,24,283,19,4*75
$GBGSV,3,3,09,36,22,186,31,4*42
$GNGGA,105354.000,2500.7979283,N,12132.4842006,E,2,62,0.44,16.128,M,15.25,M,1,3335*4A
$GNRMC,105354.000,A,2500.7979283,N,12132.4842006,E,0.06,50.03,260623,,,D,V*3B
$GPHDT,89.727,T*06
$GNGGA,105354.200,2500.7979223,N,12132.4841946,E,2,62,0.44,16.137,M,15.25,M,1,3335*42
$GNRMC,105354.200,A,2500.7979223,N,12132.4841946,E,0.11,50.03,260623,,,D,V*3B
$GPHDT,89.693,T*08
$GNGGA,105354.400,2500.7979163,N,12132.4841826,E,2,61,0.44,16.149,M,15.25,M,1,3335*4E
$GNRMC,105354.400,A,2500.7979163,N,12132.4841826,E,0.08,50.03,260623,,,D,V*35
$GPHDT,90.243,T*09
$GNGGA,105354.600,2500.7979103,N,12132.4841766,E,2,61,0.44,16.166,M,15.25,M,1,3335*4C
$GNRMC,105354.600,A,2500.7979103,N,12132.4841766,E,0.05,50.03,260623,,,D,V*37
