$FW : RTK35X,V1.1X0314AS,Lib20210517,1*54
$Tool : LOCOSYS , GNSS Firebird , v1.0.0.19*39
$---------------------------------------------------*2D
6,09,19,20,35,29,0.75,0.42,0.62,4*02
$GNGSA,A,3,22,37,,,,,,,,,,,0.75,0.42,0.62,4*00
$GPGSV,4,1,16,24,78,052,42,196,74,062,40,199,60,167,39,50,60,167,42,1*6B
$GPGSV,4,2,16,18,60,255,29,23,47,336,28,15,39,043,23,195,35,179,28,1*5B
$GPGSV,4,3,16,194,29,139,43,05,21,115,33,12,18,144,29,10,15,317,32,1*5D
$GPGSV,4,4,16,13,11,054,24,32,07,266,17,25,06,178,,29,03,199,,1*62
$GPGSV,3,1,09,24,78,052,46,196,74,062,44,18,60,255,40,199,60,167,44,8*6D
$GPGSV,3,2,09,23,47,336,26,195,35,179,13,194,29,139,42,10,15,317,32,8*68
$GPGSV,3,3,09,32,07,266,18,8*59
$GLGSV,2,1,08,80,48,084,41,70,40,004,28,85,38,251,40,73,33,161,42,1*73
$GLGSV,2,2,08,86,26,307,41,71,20,310,37,69,14,069,24,79,14,035,29,1*7C
$GAGSV,3,1,09,13,59,237,20,08,48,021,39,07,43,299,18,26,30,310,35,7*77
$GAGSV,3,2,09,15,26,174,37,02,25,089,30,30,23,146,40,03,12,062,23,7*7A
$GAGSV,3,3,09,25,04,045,,7*48
$GAGSV,2,1,08,13,59,237,31,08,48,021,40,07,43,299,28,26,30,310,26,1*7E
$GAGSV,2,2,08,15,26,174,36,02,25,089,34,30,23,146,39,03,12,062,22,1*76
$GBGSV,5,1,17,38,83,091,40,08,77,006,35,39,72,277,35,13,67,336,36,1*7B
$GBGSV,5,2,17,16,66,252,34,06,65,248,30,46,58,119,43,09,49,235,21,1*78
$GBGSV,5,3,17,56,48,310,,19,47,340,26,20,44,058,36,36,31,184,18,1*7A
$GBGSV,5,4,17,37,25,050,22,35,22,273,27,29,21,214,28,22,10,298,23,1*74
$GBGSV,5,5,17,44,01,315,,1*46
$GBGSV,2,1,08,38,83,091,39,39,72,277,34,46,58,119,44,19,47,340,28,4*70
$GBGSV,2,2,08,20,44,058,32,37,25,050,23,35,22,273,32,22,10,298,28,4*7B
$GNACCURACY,3.0*15
$PAIRSAT,1,35,1,0,200,2,0,200,3,0,200,4,0,200,5,0,201,6,0,200,7,0,200,8,0,200,9,0,200,10,0,221,11,0,200,12,0,201,13,0,201,14,0,200,15,0,201,16,0,200,17,0,200,18,0,221,19,0,200,20,0,200,21,0,200,23,0,221,24,0,221,25,0,200,26,0,200,27,0,200,28,0,200,29,0,200,30,0,200,31,0,200,32,0,200,194,0,621,195,0,621,196,0,620,199,0,621*6B
$PAIRSAT,2,23,65,0,200,67,0,200,68,0,200,69,0,201,70,0,201,71,0,201,72,0,200,73,0,201,74,0,200,75,0,200,76,0,200,77,0,200,78,0,200,79,0,201,80,0,201,81,0,200,82,0,200,83,0,200,84,0,200,85,0,201,86,0,201,87,0,200,88,0,200*53
$PAIRSAT,3,23,2,0,1221,3,0,1221,4,0,1200,5,0,200,7,0,1221,8,0,1221,9,0,1200,10,0,1200,11,0,1200,12,0,1200,13,0,1221,15,0,1221,19,0,1200,21,0,1200,24,0,1200,25,0,1200,26,0,1221,27,0,1200,30,0,1221,31,0,1200,33,0,1200,34,0,1200,36,0,1200*6A
$PAIRSAT,4,50,1,0,200,2,0,200,3,0,200,4,0,200,5,0,200,6,0,201,7,0,200,8,0,201,9,0,201,10,0,200,11,0,200,12,0,200,13,0,201,14,0,200,15,0,200,16,0,201,19,0,621,20,0,621,21,0,600,22,0,621,23,0,600,24,0,600,25,0,600,26,0,600,27,0,600,28,0,600,29,0,621,30,0,600,31,0,200,32,0,600,33,0,600,34,0,600,35,0,621,36,0,621,37,0,621,38,0,621,39,0,621,40,0,600,41,0,600,42,0,600,43,0,600,44,0,600,45,0,600,46,0,621,56,0,200,57,0,200,58,0,200,59,0,600,60,0,600,61,0,600*41
$PAIRDGP,8,5,10,12,13,15,18,23,24*72
$GNGGA,111754.200,2500.8080000,N,12132.4753800,E,2,65,0.42,19.20,M,15.25,M,1,3335*76
$GNRMC,111754.200,A,2500.8080000,N,12132.4753800,E,0.01,332.18,260623,,,D,V*0A
$GPHDT,,T*1B
$GNACCURACY,3.0*15
$GNGGA,111754.300,2500.8080000,N,12132.4753900,E,2,65,0.42,19.20,M,15.25,M,1,3335*76
$GNRMC,111754.300,A,2500.8080000,N,12132.4753900,E,0.01,332.18,260623,,,D,V*0A
$GPHDT,,T*1B
$GNACCURACY,3.0*15
$GNGGA,111754.400,2500.8080000,N,12132.4754000,E,2,66,0.42,19.19,M,15.25,M,1,3335*76
$GNRMC,111754.400,A,2500.8080000,N,12132.4754000,E,0.01,332.18,260623,,,D,V*03
$GPHDT,,T*1B
$GNACCURACY,3.0*15
$GNGGA,111754.500,2500.8080000,N,12132.4754000,E,2,66,0.42,19.18,M,15.25,M,1,3335*76
$GNRMC,111754.500,A,2500.8080000,N,12132.4754000,E,0.01,332.18,260623,,,D,V*02
$GPHDT,,T*1B
$GNACCURACY,3.0*15
$GNGGA,111754.600,2500.8080000,N,12132.4754100,E,2,66,0.42,19.17,M,15.25,M,1,3335*7B
$GNRMC,111754.600,A,2500.8080000,N,12132.4754100,E,0.01,332.18,260623,,,D,V*00
$GPHDT,,T*1B
$GNACCURACY,3.0*15
$GNGGA,111754.700,2500.8079900,N,12132.4754100,E,2,66,0.42,19.16,M,15.25,M,1,3335*74
$GNRMC,111754.700,A,2500.8079900,N,12132.4754100,E,0.01,332.18,260623,,,D,V*0E
$GPHDT,,T*1B
$GNACCURACY,3.0*15
$GNGGA,111754.800,2500.8079800,N,12132.4754200,E,2,65,0.42,19.15,M,15.25,M,0,3335*78
$GNRMC,111754.800,A,2500.8079800,N,12132.4754200,E,0.01,332.18,260623,,,D,V*03
$GPHDT,,T*1B
$GNACCURACY,3.0*15
$GNGGA,111754.900,2500.8079800,N,12132.4754300,E,2,65,0.42,19.14,M,15.25,M,0,3335*79
$GNRMC,111754.900,A,2500.8079800,N,12132.4754300,E,0.01,332.18,260623,,,D,V*03
$GPHDT,,T*1B
$GNACCURACY,3.0*15
$GNGGA,111755.000,2500.8079700,N,12132.4754300,E,2,65,0.42,19.13,M,15.25,M,1,3335*78
$GNRMC,111755.000,A,2500.8079700,N,12132.4754300,E,0.01,332.18,260623,,,D,V*04
$GPHDT,,T*1B
$GNACCURACY,3.0*15
$GNGGA,111755.100,2500.8079700,N,12132.4754400,E,2,65,0.42,19.11,M,15.25,M,1,3335*7C
$GNRMC,111755.100,A,2500.8079700,N,12132.4754400,E,0.01,332.18,260623,,,D,V*02
$GPHDT,,T*1B
$GNGSA,A,3,24,196,199,18,23,15,194,05,12,10,13,,0.74,0.42,0.61,1*3F
$GNGSA,A,3,80,70,85,73,86,71,69,79,,,,,0.74,0.42,0.61,2*0F
$GNGSA,A,3,13,08,07,26,15,02,30,03,,,,,0.74,0.42,0.61,3*0E
$GNGSA,A,3,38,08,39,13,16,06,46,09,19,20,37,35,0.74,0.42,0.61,4*0F
$GNGSA,A,3,29,22,36,,,,,,,,,,0.74,0.42,0.61,4*08
$GPGSV,4,1,16,24,78,052,42,196,74,062,39,199,60,167,39,50,60,167,42,1*65
$GPGSV,4,2,16,18,60,255,31,23,47,336,35,15,39,043,18,195,35,179,,1*5C
$GPGSV,4,3,16,194,29,139,43,05,21,115,32,12,18,144,29,10,15,317,36,1*58
$GPGSV,4,4,16,13,11,054,24,32,07,266,18,25,06,178,,29,03,199,,1*6D
$GPGSV,2,1,08,24,78,052,44,196,74,062,43,18,60,255,39,199,60,167,44,8*66
$GPGSV,2,2,08,23,47,336,28,194,29,139,40,10,15,317,37,32,07,266,20,8*51
$GLGSV,3,1,09,80,48,084,39,70,40,004,21,85,38,251,40,73,33,161,42,1*75
$GLGSV,3,2,09,86,26,307,42,71,20,310,39,69,14,069,25,79,14,035,29,1*70
$GLGSV,3,3,09,84,12,192,,1*44
$GAGSV,3,1,09,13,59,237,22,08,48,021,39,07,43,299,30,26,30,310,39,7*73
$GAGSV,3,2,09,15,26,174,36,02,25,089,31,30,23,146,40,03,12,062,23,7*7A
$GAGSV,3,3,09,25,04,045,,7*48
$GAGSV,2,1,08,13,59,237,30,08,48,021,39,07,43,299,31,26,30,310,33,1*7D
$GAGSV,2,2,08,15,26,174,35,02,25,089,32,30,23,146,39,03,12,062,20,1*71
$GBGSV,4,1,16,38,83,091,40,08,77,006,36,39,72,277,37,13,67,336,42,1*79
$GBGSV,4,2,16,16,66,252,32,06,65,248,30,46,58,119,43,09,49,235,20,1*7F
$GBGSV,4,3,16,19,47,340,34,20,44,058,36,31,35,208,,36,31,184,19,1*7B
$GBGSV,4,4,16,37,25,050,23,35,22,273,27,29,21,214,27,22,10,298,27,1*7E
$GBGSV,3,1,09,38,83,091,37,39,72,277,33,46,58,119,44,19,47,340,28,4*79
$GBGSV,3,2,09,20,44,058,33,36,31,184,23,37,25,050,23,35,22,273,32,4*79
$GBGSV,3,3,09,22,10,298,27,4*4D
$GNACCURACY,3.0*15
$PAIRSAT,1,35,1,0,200,2,0,200,3,0,200,4,0,200,5,0,201,6,0,200,7,0,200,8,0,200,9,0,200,10,0,221,11,0,200,12,0,201,13,0,201,14,0,200,15,0,201,16,0,200,17,0,200,18,0,221,19,0,200,20,0,200,21,0,200,23,0,221,24,0,221,25,0,200,26,0,200,27,0,200,28,0,200,29,0,200,30,0,200,31,0,200,32,0,200,194,0,621,195,0,621,196,0,620,199,0,621*6B
$PAIRSAT,2,23,65,0,200,67,0,200,68,0,200,69,0,201,70,0,201,71,0,201,72,0,200,73,0,201,74,0,200,75,0,200,76,0,200,77,0,200,78,0,200,79,0,201,80,0,201,81,0,200,82,0,200,83,0,200,84,0,200,85,0,201,86,0,201,87,0,200,88,0,200*53
$PAIRSAT,3,23,2,0,1221,3,0,1221,4,0,1200,5,0,200,7,0,1221,8,0,1221,9,0,1200,10,0,1200,11,0,1200,12,0,1200,13,0,1221,15,0,1221,19,0,1200,21,0,1200,24,0,1200,25,0,1200,26,0,1221,27,0,1200,30,0,1221,31,0,1200,33,0,1200,34,0,1200,36,0,1200*6A
$PAIRSAT,4,50,1,0,200,2,0,200,3,0,200,4,0,200,5,0,200,6,0,201,7,0,200,8,0,201,9,0,201,10,0,200,11,0,200,12,0,200,13,0,201,14,0,200,15,0,200,16,0,201,19,0,621,20,0,621,21,0,600,22,0,621,23,0,600,24,0,600,25,0,600,26,0,600,27,0,600,28,0,600,29,0,621,30,0,600,31,0,200,32,0,600,33,0,600,34,0,600,35,0,621,36,0,621,37,0,621,38,0,621,39,0,621,40,0,600,41,0,600,42,0,600,43,0,600,44,0,600,45,0,600,46,0,621,56,0,200,57,0,200,58,0,200,59,0,600,60,0,600,61,0,600*41
$PAIRDGP,8,5,10,12,13,15,18,23,24*72
$GNGGA,111755.200,2500.8079500,N,12132.4754400,E,2,65,0.42,19.10,M,15.25,M,1,3335*7C
$GNRMC,111755.200,A,2500.8079500,N,12132.4754400,E,0.01,332.18,260623,,,D,V*03
$GPHDT,,T*1B
$GNACCURACY,3.0*15
$GNGGA,111755.300,2500.8079500,N,12132.4754400,E,2,66,0.42,19.09,M,15.25,M,1,3335*76
$GNRMC,111755.300,A,2500.8079500,N,12132.4754400,E,0.01,332.18,260623,,,D,V*02
$GPHDT,,T*1B
$GNACCURACY,3.0*15
$GNGGA,111755.400,2500.8079400,N,12132.4754400,E,2,66,0.40,19.08,M,15.25,M,1,3335*73
$GNRMC,111755.400,A,2500.8079400,N,12132.4754400,E,0.01,332.18,260623,,,D,V*04
$GPHDT,,T*1B
$GNACCURACY,3.0*15
$GNGGA,111755.500,2500.8079300,N,12132.4754500,E,2,66,0.40,19.07,M,15.25,M,1,3335*7B
$GNRMC,111755.500,A,2500.8079300,N,12132.4754500,E,0.01,332.18,260623,,,D,V*03
$GPHDT,,T*1B
$GNACCURACY,3.0*15
$GNGGA,111755.600,2500.8079300,N,12132.4754500,E,2,66,0.40,19.05,M,15.25,M,1,3335*7A
$GNRMC,111755.600,A,2500.8079300,N,12132.4754500,E,0.01,332.18,260623,,,D,V*00
$GPHDT,,T*1B
$GNACCURACY,3.0*15
$GNGGA,111755.700,2500.8079200,N,12132.4754600,E,2,66,0.40,19.04,M,15.25,M,1,3335*78
$GNRMC,111755.700,A,2500.8079200,N,12132.4754600,E,0.01,332.18,260623,,,D,V*03
$GPHDT,,T*1B
$GNACCURACY,3.0*15
$GNGGA,111755.800,2500.8079200,N,12132.4754600,E,2,66,0.40,19.03,M,15.25,M,1,3335*70
$GNRMC,111755.800,A,2500.8079200,N,12132.4754600,E,0.01,332.18,260623,,,D,V*0C
$GPHDT,,T*1B
$GNACCURACY,3.0*15
$GNGGA,111755.900,2500.8079100,N,12132.4754600,E,2,66,0.40,19.02,M,15.25,M,1,3335*73
$GNRMC,111755.900,A,2500.8079100,N,12132.4754600,E,0.01,332.18,260623,,,D,V*0E
$GPHDT,,T*1B
$GNACCURACY,3.0*15
$GNGGA,111756.000,2500.8079100,N,12132.4754600,E,2,66,0.40,19.01,M,15.25,M,2,3335*79
$GNRMC,111756.000,A,2500.8079100,N,12132.4754600,E,0.01,332.18,260623,,,D,V*04
$GPHDT,,T*1B
$GNACCURACY,3.0*15
$GNGGA,111756.100,2500.8079000,N,12132.4754600,E,2,66,0.40,19.00,M,15.25,M,2,3335*78
$GNRMC,111756.100,A,2500.8079000,N,12132.4754600,E,0.01,332.18,260623,,,D,V*04
$GPHDT,,T*1B
$GNGSA,A,3,24,196,199,18,23,15,195,194,05,12,10,13,0.73,0.40,0.61,1*07
$GNGSA,A,3,80,70,85,73,86,71,79,69,,,,,0.73,0.40,0.61,2*0A
$GNGSA,A,3,13,08,07,26,15,02,30,03,,,,,0.73,0.40,0.61,3*0B
$GNGSA,A,3,38,08,39,13,16,06,46,09,19,20,37,35,0.73,0.40,0.61,4*0A
$GNGSA,A,3,29,22,36,,,,,,,,,,0.73,0.40,0.61,4*0D
$GPGSV,4,1,16,24,78,052,41,196,74,062,40,199,60,167,39,50,60,167,42,1*68
$GPGSV,4,2,16,18,60,255,30,23,47,336,35,15,39,043,18,195,35,179,29,1*56
$GPGSV,4,3,16,194,29,139,42,05,21,115,32,12,18,144,30,10,15,317,36,1*51
$GPGSV,4,4,16,13,11,054,24,32,07,266,18,25,06,178,,29,03,199,,1*6D
$GPGSV,2,1,08,24,78,052,45,196,74,062,44,18,60,255,39,199,60,167,44,8*60
$GPGSV,2,2,08,23,47,336,32,194,29,139,40,10,15,317,37,32,07,266,21,8*5B
$GLGSV,3,1,09,80,48,084,39,70,40,004,26,85,38,251,40,73,34,161,42,1*75
$GLGSV,3,2,09,86,26,307,43,71,20,310,40,79,14,035,30,69,14,069,25,1*77
$GLGSV,3,3,09,84,12,192,,1*44
$GAGSV,3,1,09,13,59,237,22,08,48,021,40,07,43,299,31,26,30,310,38,7*7D
$GAGSV,3,2,09,15,26,174,36,02,25,089,32,30,23,146,39,03,12,062,23,7*77
$GAGSV,3,3,09,25,04,045,,7*48
$GAGSV,2,1,08,13,59,237,29,08,48,021,41,07,43,299,32,26,30,310,34,1*7E
$GAGSV,2,2,08,15,26,174,37,02,25,089,31,30,23,146,40,03,12,062,21,1*7F
$GBGSV,4,1,15,38,83,091,40,08,77,006,37,39,72,277,37,13,67,336,42,1*7B
$GBGSV,4,2,15,16,66,252,30,06,65,248,32,46,58,119,43,09,49,235,19,1*76
$GBGSV,4,3,15,19,47,340,32,20,44,058,36,36,31,184,18,37,25,050,23,1*76
$GBGSV,4,4,15,35,22,273,26,29,21,214,26,22,10,298,27,1*4A
$GBGSV,3,1,09,38,83,091,38,39,72,277,34,46,58,119,44,19,47,340,29,4*70
$GBGSV,3,2,09,20,44,058,33,36,31,184,24,37,25,050,25,35,22,273,32,4*78
$GBGSV,3,3,09,22,10,298,27,4*4D
$GNACCURACY,3.0*15
$PAIRSAT,1,35,1,0,200,2,0,200,3,0,200,4,0,200,5,0,201,6,0,200,7,0,200,8,0,200,9,0,200,10,0,221,11,0,200,12,0,201,13,0,201,14,0,200,15,0,201,16,0,200,17,0,200,18,0,221,19,0,200,20,0,200,21,0,200,23,0,221,24,0,221,25,0,200,26,0,200,27,0,200,28,0,200,29,0,200,30,0,200,31,0,200,32,0,200,194,0,621,195,0,621,196,0,620,199,0,621*6B
$PAIRSAT,2,23,65,0,200,67,0,200,68,0,200,69,0,201,70,0,201,71,0,201,72,0,200,73,0,201,74,0,200,75,0,200,76,0,200,77,0,200,78,0,200,79,0,201,80,0,201,81,0,200,82,0,200,83,0,200,84,0,200,85,0,201,86,0,201,87,0,200,88,0,200*53
$PAIRSAT,3,23,2,0,1221,3,0,1221,4,0,1200,5,0,200,7,0,1221,8,0,1221,9,0,1200,10,0,1200,11,0,1200,12,0,1200,13,0,1221,15,0,1221,19,0,1200,21,0,1200,24,0,1200,25,0,1200,26,0,1221,27,0,1200,30,0,1221,31,0,1200,33,0,1200,34,0,1200,36,0,1200*6A
$PAIRSAT,4,50,1,0,200,2,0,200,3,0,200,4,0,200,5,0,200,6,0,201,7,0,200,8,0,201,9,0,201,10,0,200,11,0,200,12,0,200,13,0,201,14,0,200,15,0,200,16,0,201,19,0,621,20,0,621,21,0,600,22,0,621,23,0,600,24,0,600,25,0,600,26,0,600,27,0,600,28,0,600,29,0,621,30,0,600,31,0,200,32,0,600,33,0,600,34,0,600,35,0,621,36,0,621,37,0,621,38,0,621,39,0,621,40,0,600,41,0,600,42,0,600,43,0,600,44,0,600,45,0,600,46,0,621,56,0,200,57,0,200,58,0,200,59,0,600,60,0,600,61,0,600*41
$PAIRDGP,8,5,10,12,13,15,18,23,24*72
$GNGGA,111756.200,2500.8078900,N,12132.4754700,E,2,66,0.40,18.99,M,15.25,M,2,3335*73
$GNRMC,111756.200,A,2500.8078900,N,12132.4754700,E,0.01,332.18,260623,,,D,V*0E
$GPHDT,,T*1B
$GNACCURACY,3.0*15
$GNGGA,111756.300,2500.8078900,N,12132.4754700,E,2,66,0.40,18.99,M,15.25,M,2,3335*72
$GNRMC,111756.300,A,2500.8078900,N,12132.4754700,E,0.01,332.18,260623,,,D,V*0F
$GPHDT,,T*1B
$GNACCURACY,3.0*15
$GNGGA,111756.400,2500.8078900,N,12132.4754700,E,2,66,0.40,18.98,M,15.25,M,2,3335*74
$GNRMC,111756.400,A,2500.8078900,N,12132.4754700,E,0.01,332.18,260623,,,D,V*08
$GPHDT,,T*1B
$GNACCURACY,2.9*1D
$GNGGA,111756.500,2500.8078900,N,12132.4754800,E,2,66,0.40,18.97,M,15.25,M,2,3335*75
$GNRMC,111756.500,A,2500.8078900,N,12132.4754800,E,0.01,332.18,260623,,,D,V*06
$GPHDT,,T*1B
$GNACCURACY,2.9*1D
$GNGGA,111756.600,2500.8078800,N,12132.4754800,E,2,66,0.40,18.97,M,15.25,M,2,3335*77
$GNRMC,111756.600,A,2500.8078800,N,12132.4754800,E,0.01,332.18,260623,,,D,V*04
$GPHDT,,T*1B
$GNACCURACY,2.9*1D
$GNGGA,111756.700,2500.8078800,N,12132.4754800,E,2,66,0.40,18.97,M,15.25,M,2,3335*76
$GNRMC,111756.700,A,2500.8078800,N,12132.4754800,E,0.01,332.18,260623,,,D,V*05
$GPHDT,,T*1B
$GNACCURACY,2.9*1D
$GNGGA,111756.800,2500.8078700,N,12132.4754800,E,2,66,0.40,18.96,M,15.25,M,2,3335*77
$GNRMC,111756.800,A,2500.8078700,N,12132.4754800,E,0.01,332.18,260623,,,D,V*05
$GPHDT,,T*1B
$GNACCURACY,2.9*1D
$GNGGA,111756.900,2500.8078600,N,12132.4754800,E,2,66,0.40,18.96,M,15.25,M,2,3335*77
$GNRMC,111756.900,A,2500.8078600,N,12132.4754800,E,0.01,332.18,260623,,,D,V*05
$GPHDT,,T*1B
$GNACCURACY,2.9*1D
$GNGGA,111757.000,2500.8078600,N,12132.4754800,E,2,66,0.40,18.95,M,15.25,M,3,3335*7D
$GNRMC,111757.000,A,2500.8078600,N,12132.4754800,E,0.01,332.18,260623,,,D,V*0D
$GPHDT,,T*1B
$GNACCURACY,2.9*1D
$GNGGA,111757.100,2500.8078500,N,12132.4754800,E,2,66,0.40,18.95,M,15.25,M,3,3335*7F
$GNRMC,111757.100,A,2500.8078500,N,12132.4754800,E,0.01,332.18,260623,,,D,V*0F
$GPHDT,,T*1B
$GNGSA,A,3,24,196,199,18,23,15,195,194,05,12,10,13,0.73,0.40,0.61,1*07
$GNGSA,A,3,80,70,85,73,86,71,79,69,,,,,0.73,0.40,0.61,2*0A
$GNGSA,A,3,13,08,07,26,15,02,30,03,,,,,0.73,0.40,0.61,3*0B
$GNGSA,A,3,38,08,39,13,16,06,46,09,19,20,37,35,0.73,0.40,0.61,4*0A
$GNGSA,A,3,29,22,36,,,,,,,,,,0.73,0.40,0.61,4*0D
$GPGSV,4,1,16,24,78,052,41,196,74,062,39,199,60,167,39,50,60,167,42,1*66
$GPGSV,4,2,16,18,60,255,30,23,47,336,34,15,39,043,16,195,35,179,30,1*51
$GPGSV,4,3,16,194,29,139,42,05,21,115,31,12,18,144,30,10,15,317,36,1*52
$GPGSV,4,4,16,13,11,054,24,32,07,266,18,25,06,178,,29,03,199,,1*6D
$GPGSV,2,1,08,24,78,052,45,196,74,062,44,18,60,255,40,199,60,167,44,8*6E
$GPGSV,2,2,08,23,47,336,34,194,29,139,41,10,15,317,37,32,07,266,23,8*5E
$GLGSV,3,1,09,80,48,084,40,70,40,004,29,85,38,251,40,73,34,161,42,1*74
$GLGSV,3,2,09,86,26,307,43,71,20,310,40,79,14,035,29,69,14,069,28,1*72
$GLGSV,3,3,09,84,12,192,,1*44
$GAGSV,3,1,09,13,59,237,21,08,48,021,40,07,43,299,30,26,30,310,39,7*7E
$GAGSV,3,2,09,15,26,174,35,02,25,089,31,30,23,146,39,03,12,062,23,7*77
$GAGSV,3,3,09,25,04,045,,7*48
$GAGSV,2,1,08,13,59,237,29,08,48,021,44,07,43,299,31,26,30,310,35,1*79
$GAGSV,2,2,08,15,26,174,37,02,25,089,32,30,23,146,40,03,12,062,21,1*7C
$GBGSV,4,1,15,38,83,091,40,08,77,006,39,39,72,277,37,13,67,336,42,1*75
$GBGSV,4,2,15,16,66,252,31,06,65,248,32,46,58,119,44,09,49,235,18,1*71
$GBGSV,4,3,15,19,47,340,32,20,44,058,37,36,31,184,18,37,25,050,24,1*70
$GBGSV,4,4,15,35,22,273,24,29,21,214,26,22,10,298,28,1*47
$GBGSV,3,1,09,38,83,091,37,39,72,277,30,46,58,119,44,19,47,340,32,4*71
$GBGSV,3,2,09,20,44,058,33,36,31,184,22,37,25,050,25,35,22,273,33,4*7F
$GBGSV,3,3,09,22,10,298,27,4*4D
$GNACCURACY,2.9*1D
$PAIRSAT,1,35,1,0,200,2,0,200,3,0,200,4,0,200,5,0,201,6,0,200,7,0,200,8,0,200,9,0,200,10,0,221,11,0,200,12,0,201,13,0,201,14,0,200,15,0,201,16,0,200,17,0,200,18,0,221,19,0,200,20,0,200,21,0,200,23,0,221,24,0,221,25,0,200,26,0,200,27,0,200,28,0,200,29,0,200,30,0,200,31,0,200,32,0,200,194,0,621,195,0,621,196,0,620,199,0,621*6B
$PAIRSAT,2,23,65,0,200,67,0,200,68,0,200,69,0,201,70,0,201,71,0,201,72,0,200,73,0,201,74,0,200,75,0,200,76,0,200,77,0,200,78,0,200,79,0,201,80,0,201,81,0,200,82,0,200,83,0,200,84,0,200,85,0,201,86,0,201,87,0,200,88,0,200*53
$PAIRSAT,3,23,2,0,1221,3,0,1221,4,0,1200,5,0,200,7,0,1221,8,0,1221,9,0,1200,10,0,1200,11,0,1200,12,0,1200,13,0,1221,15,0,1221,19,0,1200,21,0,1200,24,0,1200,25,0,1200,26,0,1221,27,0,1200,30,0,1221,31,0,1200,33,0,1200,34,0,1200,36,0,1200*6A
$PAIRSAT,4,50,1,0,200,2,0,200,3,0,200,4,0,200,5,0,200,6,0,201,7,0,200,8,0,201,9,0,201,10,0,200,11,0,200,12,0,200,13,0,201,14,0,200,15,0,200,16,0,201,19,0,621,20,0,621,21,0,600,22,0,621,23,0,600,24,0,600,25,0,600,26,0,600,27,0,600,28,0,600,29,0,621,30,0,600,31,0,200,32,0,600,33,0,600,34,0,600,35,0,621,36,0,621,37,0,621,38,0,621,39,0,621,40,0,600,41,0,600,42,0,600,43,0,600,44,0,600,45,0,600,46,0,621,56,0,200,57,0,200,58,0,200,59,0,600,60,0,600,61,0,600*41
$PAIRDGP,8,5,10,12,13,15,18,23,24*72
$GNGGA,111757.200,2500.8078500,N,12132.4754700,E,2,66,0.40,18.95,M,15.25,M,3,3335*73
$GNRMC,111757.200,A,2500.8078500,N,12132.4754700,E,0.01,332.18,260623,,,D,V*03
$GPHDT,,T*1B
$GNACCURACY,2.9*1D
$GNGGA,111757.300,2500.8078500,N,12132.4754700,E,2,66,0.40,18.94,M,15.25,M,3,3335*73
$GNRMC,111757.300,A,2500.8078500,N,12132.4754700,E,0.01,332.18,260623,,,D,V*02
$GPHDT,,T*1B
$GNACCURACY,2.9*1D
$GNGGA,111757.400,2500.8078400,N,12132.4754700,E,2,66,0.40,18.94,M,15.25,M,3,3335*75
$GNRMC,111757.400,A,2500.8078400,N,12132.4754700,E,0.01,332.18,260623,,,D,V*04
$GPHDT,,T*1B
$GNACCURACY,2.9*1D
$GNGGA,111757.500,2500.8078400,N,12132.4754700,E,2,66,0.40,18.94,M,15.25,M,3,3335*74
$GNRMC,111757.500,A,2500.8078400,N,12132.4754700,E,0.01,332.18,260623,,,D,V*05
$GPHDT,,T*1B
$GNACCURACY,2.9*1D
$GNGGA,111757.600,2500.8078300,N,12132.4754700,E,2,67,0.40,18.94,M,15.25,M,3,3335*71
$GNRMC,111757.600,A,2500.8078300,N,12132.4754700,E,0.01,332.18,260623,,,D,V*01
$GPHDT,,T*1B
$GNACCURACY,2.9*1D
$GNGGA,111757.700,2500.8078300,N,12132.4754700,E,2,67,0.40,18.94,M,15.25,M,3,3335*70
$GNRMC,111757.700,A,2500.8078300,N,12132.4754700,E,0.01,332.18,260623,,,D,V*00
$GPHDT,,T*1B
$GNACCURACY,2.9*1D
$GNGGA,111757.800,2500.8078200,N,12132.4754700,E,2,67,0.40,18.94,M,15.25,M,3,3335*7E
$GNRMC,111757.800,A,2500.8078200,N,12132.4754700,E,0.01,332.18,260623,,,D,V*0E
$GPHDT,,T*1B
$GNACCURACY,2.9*1D
$GNGGA,111757.900,2500.8078200,N,12132.4754700,E,2,67,0.40,18.93,M,15.25,M,3,3335*78
$GNRMC,111757.900,A,2500.8078200,N,12132.4754700,E,0.01,332.18,260623,,,D,V*0F
$GPHDT,,T*1B
$GNACCURACY,2.9*1D
$GNGGA,111758.000,2500.8078200,N,12132.4754700,E,2,67,0.40,18.93,M,15.25,M,4,3335*79
$GNRMC,111758.000,A,2500.8078200,N,12132.4754700,E,0.01,332.18,260623,,,D,V*09
$GPHDT,,T*1B
$GNACCURACY,2.9*1D
$GNGGA,111758.100,2500.8078100,N,12132.4754700,E,2,67,0.40,18.93,M,15.25,M,4,3335*7B
$GNRMC,111758.100,A,2500.8078100,N,12132.4754700,E,0.01,332.18,260623,,,D,V*0B
$GPHDT,,T*1B
$GNGSA,A,3,24,196,199,18,23,15,195,194,05,12,10,13,0.73,0.40,0.61,1*07
$GNGSA,A,3,80,70,85,73,86,71,79,69,,,,,0.73,0.40,0.61,2*0A
$GNGSA,A,3,13,08,07,26,15,02,30,03,,,,,0.73,0.40,0.61,3*0B
$GNGSA,A,3,38,08,39,13,16,06,46,09,19,20,36,37,0.73,0.40,0.61,4*09
$GNGSA,A,3,35,29,22,,,,,,,,,,0.73,0.40,0.61,4*0E
$GPGSV,4,1,16,24,78,052,41,196,74,062,39,199,60,167,39,50,60,167,42,1*66
$GPGSV,4,2,16,18,60,255,31,23,47,336,34,15,39,043,16,195,35,179,29,1*58
$GPGSV,4,3,16,194,29,139,42,05,21,115,31,12,18,144,30,10,15,317,36,1*52
$GPGSV,4,4,16,13,11,054,26,32,07,266,18,25,06,178,,29,03,199,,1*6F
$GPGSV,2,1,08,24,78,052,45,196,74,062,44,18,60,255,40,199,60,167,44,8*6E
$GPGSV,2,2,08,23,47,336,35,194,29,139,40,10,15,317,37,32,07,266,23,8*5E
$GLGSV,3,1,09,80,48,084,40,70,40,004,29,85,38,251,40,73,34,161,42,1*74
$GLGSV,3,2,09,86,26,307,42,71,20,310,41,79,14,035,30,69,14,069,27,1*75
$GLGSV,3,3,09,84,12,192,,1*44
$GAGSV,3,1,09,13,59,237,23,08,48,021,41,07,43,299,30,26,30,310,39,7*7D
$GAGSV,3,2,09,15,26,174,36,02,25,089,32,30,23,146,40,03,12,062,23,7*79
$GAGSV,3,3,09,25,04,045,,7*48
$GAGSV,2,1,08,13,59,237,29,08,48,021,44,07,43,299,32,26,30,310,32,1*7D
$GAGSV,2,2,08,15,26,174,37,02,25,089,32,30,23,146,40,03,12,062,21,1*7C
$GBGSV,4,1,15,38,83,091,40,08,77,006,39,39,72,277,37,13,67,336,42,1*75
$GBGSV,4,2,15,16,66,252,32,06,65,248,32,46,58,119,44,09,49,235,17,1*7D
$GBGSV,4,3,15,19,47,340,32,20,44,058,37,36,31,184,24,37,25,050,23,1*78
$GBGSV,4,4,15,35,22,273,24,29,21,214,26,22,10,298,26,1*49
$GBGSV,3,1,09,38,83,091,37,39,72,277,32,46,58,119,44,19,47,340,33,4*72
$GBGSV,3,2,09,20,44,058,33,36,31,184,24,37,25,050,25,35,22,273,34,4*7E
$GBGSV,3,3,09,22,10,298,27,4*4D
$GNACCURACY,2.9*1D
$PAIRSAT,1,35,1,0,200,2,0,200,3,0,200,4,0,200,5,0,201,6,0,200,7,0,200,8,0,200,9,0,200,10,0,221,11,0,200,12,0,201,13,0,201,14,0,200,15,0,201,16,0,200,17,0,200,18,0,221,19,0,200,20,0,200,21,0,200,23,0,221,24,0,221,25,0,200,26,0,200,27,0,200,28,0,200,29,0,200,30,0,200,31,0,200,32,0,200,194,0,621,195,0,621,196,0,620,199,0,621*6B
$PAIRSAT,2,23,65,0,200,67,0,200,68,0,200,69,0,201,70,0,201,71,0,201,72,0,200,73,0,201,74,0,200,75,0,200,76,0,200,77,0,200,78,0,200,79,0,201,80,0,201,81,0,200,82,0,200,83,0,200,84,0,200,85,0,201,86,0,201,87,0,200,88,0,200*53
$PAIRSAT,3,23,2,0,1221,3,0,1221,4,0,1200,5,0,200,7,0,1221,8,0,1221,9,0,1200,10,0,1200,11,0,1200,12,0,1200,13,0,1221,15,0,1221,19,0,1200,21,0,1200,24,0,1200,25,0,1200,26,0,1221,27,0,1200,30,0,1221,31,0,1200,33,0,1200,34,0,1200,36,0,1200*6A
$PAIRSAT,4,50,1,0,200,2,0,200,3,0,200,4,0,200,5,0,200,6,0,201,7,0,200,8,0,201,9,0,201,10,0,200,11,0,200,12,0,200,13,0,201,14,0,200,15,0,200,16,0,201,19,0,621,20,0,621,21,0,600,22,0,621,23,0,600,24,0,600,25,0,600,26,0,600,27,0,600,28,0,600,29,0,621,30,0,600,31,0,200,32,0,600,33,0,600,34,0,600,35,0,621,36,0,621,37,0,621,38,0,621,39,0,621,40,0,600,41,0,600,42,0,600,43,0,600,44,0,600,45,0,600,46,0,621,56,0,200,57,0,200,58,0,200,59,0,600,60,0,600,61,0,600*41
$PAIRDGP,8,5,10,12,13,15,18,23,24*72
$GNGGA,111758.200,2500.8078100,N,12132.4754600,E,2,67,0.40,18.93,M,15.25,M,4,3335*79
$GNRMC,111758.200,A,2500.8078100,N,12132.4754600,E,0.01,332.18,260623,,,D,V*09
$GPHDT,,T*1B
$GNACCURACY,2.9*1D
$GNGGA,111758.300,2500.8078000,N,12132.4754600,E,2,67,0.40,18.93,M,15.25,M,4,3335*79
$GNRMC,111758.300,A,2500.8078000,N,12132.4754600,E,0.01,332.18,260623,,,D,V*09
$GPHDT,,T*1B
$GNACCURACY,2.9*1D
$GNGGA,111758.400,2500.8078000,N,12132.4754600,E,2,67,0.40,18.93,M,15.25,M,4,3335*7E
$GNRMC,111758.400,A,2500.8078000,N,12132.4754600,E,0.01,332.18,260623,,,D,V*0E
$GPHDT,,T*1B
$GNACCURACY,2.9*1D
$GNGGA,111758.500,2500.8078000,N,12132.4754700,E,2,67,0.40,18.93,M,15.25,M,4,3335*7E
$GNRMC,111758.500,A,2500.8078000,N,12132.4754700,E,0.01,332.18,260623,,,D,V*0E
$GPHDT,,T*1B
$GNACCURACY,2.9*1D
$GNGGA,111758.600,2500.8078000,N,12132.4754700,E,2,67,0.40,18.92,M,15.25,M,4,3335*7C
$GNRMC,111758.600,A,2500.8078000,N,12132.4754700,E,0.01,332.18,260623,,,D,V*0D
$GPHDT,,T*1B
$GNACCURACY,2.9*1D
$GNGGA,111758.700,2500.8077900,N,12132.4754600,E,2,67,0.40,18.92,M,15.25,M,4,3335*7A
$GNRMC,111758.700,A,2500.8077900,N,12132.4754600,E,0.01,332.18,260623,,,D,V*0B
$GPHDT,,T*1B
$GNACCURACY,2.9*1D
$GNGGA,111758.800,2500.8077900,N,12132.4754600,E,2,67,0.40,18.92,M,15.25,M,4,3335*75
$GNRMC,111758.800,A,2500.8077900,N,12132.4754600,E,0.01,332.18,260623,,,D,V*04
$GPHDT,,T*1B
$GNACCURACY,2.9*1D
$GNGGA,111758.900,2500.8077900,N,12132.4754600,E,2,67,0.40,18.92,M,15.25,M,4,3335*74
$GNRMC,111758.900,A,2500.8077900,N,12132.4754600,E,0.01,332.18,260623,,,D,V*05
$GPHDT,,T*1B
$GNACCURACY,2.9*1D
$GNGGA,111759.000,2500.8077900,N,12132.4754600,E,2,67,0.40,18.92,M,15.25,M,5,3335*7D
$GNRMC,111759.000,A,2500.8077900,N,12132.4754600,E,0.01,332.18,260623,,,D,V*0D
$GPHDT,,T*1B
$GNACCURACY,2.9*1D
$GNGGA,111759.100,2500.8077900,N,12132.4754600,E,2,67,0.40,18.92,M,15.25,M,5,3335*7C
$GNRMC,111759.100,A,2500.8077900,N,12132.4754600,E,0.01,332.18,260623,,,D,V*0C
$GPHDT,,T*1B
$GNGSA,A,3,24,196,199,18,23,15,195,194,05,12,10,13,0.73,0.40,0.61,1*07
$GNGSA,A,3,80,70,85,73,86,71,79,69,,,,,0.73,0.40,0.61,2*0A
$GNGSA,A,3,13,08,07,26,15,02,30,03,,,,,0.73,0.40,0.61,3*0B
$GNGSA,A,3,38,08,39,13,16,06,46,09,19,20,36,37,0.73,0.40,0.61,4*09
$GNGSA,A,3,35,29,22,,,,,,,,,,0.73,0.40,0.61,4*0E
$GPGSV,4,1,16,24,78,052,41,196,74,062,39,199,60,167,39,50,60,167,42,1*66
$GPGSV,4,2,16,18,60,255,31,23,47,336,34,15,39,043,15,195,35,179,29,1*5B
$GPGSV,4,3,16,194,29,139,42,05,21,115,31,12,18,144,30,10,15,317,37,1*53
$GPGSV,4,4,16,13,11,054,26,32,07,266,18,25,06,178,,29,03,199,,1*6F
$GPGSV,2,1,08,24,78,052,45,196,74,062,44,18,60,255,40,199,60,167,44,8*6E
$GPGSV,2,2,08,23,47,336,35,194,29,139,40,10,15,317,38,32,07,266,23,8*51
$GLGSV,3,1,09,80,48,084,40,70,40,004,30,85,38,251,40,73,34,161,42,1*7C
$GLGSV,3,2,09,86,26,307,43,71,20,310,41,79,14,035,30,69,14,069,27,1*74
$GLGSV,3,3,09,84,12,192,,1*44
$GAGSV,3,1,09,13,59,237,25,08,48,021,41,07,43,299,31,26,30,310,39,7*7A
$GAGSV,3,2,09,15,26,174,36,02,25,089,31,30,23,146,40,03,12,062,22,7*7B
$GAGSV,3,3,09,25,04,045,,7*48
$GAGSV,2,1,08,13,59,237,30,08,48,021,44,07,43,299,33,26,30,310,39,1*7F
$GAGSV,2,2,08,15,26,174,36,02,25,089,32,30,23,146,40,03,12,062,21,1*7D
$GBGSV,4,1,15,38,83,091,40,08,77,006,39,39,72,277,37,13,67,336,42,1*75
$GBGSV,4,2,15,16,66,252,32,06,65,248,33,46,58,119,44,09,49,235,17,1*7C
$GBGSV,4,3,15,19,47,340,32,20,44,058,38,36,31,184,24,37,25,050,22,1*76
$GBGSV,4,4,15,35,22,273,26,29,21,214,25,22,10,298,26,1*48
$GBGSV,3,1,09,38,83,091,37,39,72,277,32,46,58,119,45,19,47,340,34,4*74
$GBGSV,3,2,09,20,44,058,34,36,31,184,27,37,25,050,25,35,22,273,33,4*7D
$GBGSV,3,3,09,22,10,298,29,4*43
$GNACCURACY,2.9*1D
$PAIRSAT,1,35,1,0,200,2,0,200,3,0,200,4,0,200,5,0,201,6,0,200,7,0,200,8,0,200,9,0,200,10,0,221,11,0,200,12,0,201,13,0,201,14,0,200,15,0,201,16,0,200,17,0,200,18,0,221,19,0,200,20,0,200,21,0,200,23,0,221,24,0,221,25,0,200,26,0,200,27,0,200,28,0,200,29,0,200,30,0,200,31,0,200,32,0,200,194,0,621,195,0,621,196,0,620,199,0,621*6B
$PAIRSAT,2,23,65,0,200,67,0,200,68,0,200,69,0,201,70,0,201,71,0,201,72,0,200,73,0,201,74,0,200,75,0,200,76,0,200,77,0,200,78,0,200,79,0,201,80,0,201,81,0,200,82,0,200,83,0,200,84,0,200,85,0,201,86,0,201,87,0,200,88,0,200*53
$PAIRSAT,3,23,2,0,1221,3,0,1221,4,0,1200,5,0,200,7,0,1221,8,0,1221,9,0,1200,10,0,1200,11,0,1200,12,0,1200,13,0,1221,15,0,1221,19,0,1200,21,0,1200,24,0,1200,25,0,1200,26,0,1221,27,0,1200,30,0,1221,31,0,1200,33,0,1200,34,0,1200,36,0,1200*6A
$PAIRSAT,4,50,1,0,200,2,0,200,3,0,200,4,0,200,5,0,200,6,0,201,7,0,200,8,0,201,9,0,201,10,0,200,11,0,200,12,0,200,13,0,201,14,0,200,15,0,200,16,0,201,19,0,621,20,0,621,21,0,600,22,0,621,23,0,600,24,0,600,25,0,600,26,0,600,27,0,600,28,0,600,29,0,621,30,0,600,31,0,200,32,0,600,33,0,600,34,0,600,35,0,621,36,0,621,37,0,621,38,0,621,39,0,621,40,0,600,41,0,600,42,0,600,43,0,600,44,0,600,45,0,600,46,0,621,56,0,200,57,0,200,58,0,200,59,0,600,60,0,600,61,0,600*41
$PAIRDGP,8,5,10,12,13,15,18,23,24*72
$GNGGA,111759.200,2500.8077800,N,12132.4754600,E,2,67,0.40,18.92,M,15.25,M,5,3335*7E
$GNRMC,111759.200,A,2500.8077800,N,12132.4754600,E,0.01,332.18,260623,,,D,V*0E
$GPHDT,,T*1B
$GNACCURACY,2.9*1D
$GNGGA,111759.300,2500.8077800,N,12132.4754600,E,2,67,0.40,18.92,M,15.25,M,5,3335*7F
$GNRMC,111759.300,A,2500.8077800,N,12132.4754600,E,0.01,332.18,260623,,,D,V*0F
$GPHDT,,T*1B
$GNACCURACY,2.9*1D
$GNGGA,111759.400,2500.8077700,N,12132.4754600,E,2,67,0.40,18.92,M,15.25,M,5,3335*77
$GNRMC,111759.400,A,2500.8077700,N,12132.4754600,E,0.01,332.18,260623,,,D,V*07
$GPHDT,,T*1B
$GNACCURACY,2.9*1D
$GNGGA,111759.500,2500.8077700,N,12132.4754600,E,2,67,0.40,18.93,M,15.25,M,5,3335*77
$GNRMC,111759.500,A,2500.8077700,N,12132.4754600,E,0.02,332.18,260623,,,D,V*05
$GPHDT,,T*1B
$GNACCURACY,2.9*1D
$GNGGA,111759.600,2500.8077700,N,12132.4754600,E,2,67,0.40,18.93,M,15.25,M,5,3335*74
$GNRMC,111759.600,A,2500.8077700,N,12132.4754600,E,0.02,332.18,260623,,,D,V*06
$GPHDT,,T*1B
$GNACCURACY,2.9*1D
$GNGGA,111759.700,2500.8077700,N,12132.4754600,E,2,67,0.40,18.93,M,15.25,M,5,3335*75
$GNRMC,111759.700,A,2500.8077700,N,12132.4754600,E,0.02,332.18,260623,,,D,V*07
$GPHDT,,T*1B
$GNACCURACY,2.9*1D
$GNGGA,111759.800,2500.8077600,N,12132.4754600,E,2,67,0.40,18.93,M,15.25,M,5,3335*7B
$GNRMC,111759.800,A,2500.8077600,N,12132.4754600,E,0.02,332.18,260623,,,D,V*09
$GPHDT,,T*1B
$GNACCURACY,2.9*1D
$GNGGA,111759.900,2500.8077600,N,12132.4754500,E,2,67,0.40,18.93,M,15.25,M,5,3335*79
$GNRMC,111759.900,A,2500.8077600,N,12132.4754500,E,0.02,332.18,260623,,,D,V*0B
$GPHDT,,T*1B
$GNACCURACY,2.9*1D
$GNGGA,111800.000,2500.8077600,N,12132.4754400,E,2,67,0.40,18.94,M,15.25,M,6,3335*76
$GNRMC,111800.000,A,2500.8077600,N,12132.4754400,E,0.02,332.18,260623,,,D,V*00
$GPHDT,,T*1B
$GNACCURACY,2.9*1D
$GNGGA,111800.100,2500.8077600,N,12132.4754400,E,2,67,0.40,18.94,M,15.25,M,6,3335*77
$GNRMC,111800.100,A,2500.8077600,N,12132.4754400,E,0.02,332.18,260623,,,D,V*01
$GPHDT,,T*1B
$GNGSA,A,3,24,196,199,18,23,15,195,194,05,12,10,13,0.73,0.40,0.61,1*07
$GNGSA,A,3,80,70,85,73,86,71,79,69,,,,,0.73,0.40,0.61,2*0A
$GNGSA,A,3,13,08,07,26,15,02,30,03,,,,,0.73,0.40,0.61,3*0B
$GNGSA,A,3,38,08,39,13,16,06,46,09,19,20,36,37,0.73,0.40,0.61,4*09
$GNGSA,A,3,35,29,22,,,,,,,,,,0.73,0.40,0.61,4*0E
$GPGSV,4,1,16,24,78,052,41,196,74,062,39,199,60,167,39,50,60,167,42,1*66
$GPGSV,4,2,16,18,60,255,31,23,47,336,34,15,39,043,16,195,35,179,29,1*58
$GPGSV,4,3,16,194,29,139,42,05,21,115,29,12,18,144,30,10,15,317,36,1*5B
$GPGSV,4,4,16,13,11,054,26,32,07,266,18,25,06,178,,29,03,199,,1*6F
$GPGSV,2,1,08,24,78,052,45,196,74,062,44,18,60,255,40,199,60,167,45,8*6F
$GPGSV,2,2,08,23,47,336,35,194,29,139,40,10,15,317,38,32,07,266,23,8*51
$GLGSV,3,1,09,80,48,084,40,70,40,004,30,85,38,251,40,73,34,161,42,1*7C
$GLGSV,3,2,09,86,26,307,42,71,20,310,41,79,14,035,29,69,14,069,28,1*72
$GLGSV,3,3,09,84,12,192,,1*44
$GAGSV,3,1,09,13,59,237,24,08,48,021,40,07,43,299,31,26,30,310,37,7*74
$GAGSV,3,2,09,15,26,174,35,02,25,089,32,30,23,146,40,03,12,062,23,7*7A
$GAGSV,3,3,09,25,04,045,,7*48
$GAGSV,2,1,08,13,59,237,30,08,48,021,44,07,43,299,34,26,30,310,37,1*76
$GAGSV,2,2,08,15,26,174,36,02,25,089,32,30,23,146,40,03,12,062,21,1*7D
$GBGSV,4,1,15,38,83,091,40,08,77,006,38,39,72,277,37,13,67,336,41,1*77
$GBGSV,4,2,15,16,66,252,33,06,65,248,32,46,58,119,44,09,49,235,17,1*7C
$GBGSV,4,3,15,19,47,340,30,20,44,058,38,36,31,184,22,37,25,050,23,1*73
$GBGSV,4,4,15,35,22,273,27,29,21,214,24,22,10,298,26,1*48
$GBGSV,3,1,09,38,83,091,37,39,72,277,32,46,58,119,45,19,47,340,34,4*74
$GBGSV,3,2,09,20,44,058,34,36,31,184,26,37,25,050,25,35,22,273,34,4*7B
$GBGSV,3,3,09,22,10,298,26,4*4C
$GNACCURACY,2.9*1D
$PAIRSAT,1,35,1,0,200,2,0,200,3,0,200,4,0,200,5,0,201,6,0,200,7,0,200,8,0,200,9,0,200,10,0,221,11,0,200,12,0,201,13,0,201,14,0,200,15,0,201,16,0,200,17,0,200,18,0,221,19,0,200,20,0,200,21,0,200,23,0,221,24,0,221,25,0,200,26,0,200,27,0,200,28,0,200,29,0,2