$FW : RTK35X,V1.1X0314AS,Lib20210517,1*54
$Tool : LOCOSYS , GNSS Firebird , v1.0.0.19*39
$---------------------------------------------------*2D
5,26,30,310,39,7*70
$GAGSV,3,2,09,15,26,174,32,02,25,089,19,30,23,146,36,03,12,061,25,7*70
$GAGSV,3,3,09,25,04,046,,7*4B
$GAGSV,2,1,06,08,48,021,42,07,43,298,29,26,30,310,33,15,26,174,37,1*7A
$GAGSV,2,2,06,02,25,089,32,30,23,146,41,1*72
$GBGSV,5,1,17,38,83,089,38,08,77,006,38,39,72,276,39,16,66,251,34,1*7B
$GBGSV,5,2,17,13,66,337,41,06,65,248,35,46,57,120,40,09,49,234,19,1*74
$GBGSV,5,3,17,56,48,310,,19,47,340,34,20,44,057,25,31,35,208,,1*79
$GBGSV,5,4,17,36,31,184,26,37,25,050,24,35,22,273,27,29,22,215,29,1*7C
$GBGSV,5,5,17,22,09,298,33,1*4A
$GBGSV,2,1,08,38,83,089,39,39,72,276,29,46,57,120,46,19,47,340,35,4*7F
$GBGSV,2,2,08,20,44,057,33,37,25,050,28,35,22,273,32,22,09,298,21,4*7F
$GNACCURACY,3.3*16
$PAIRSAT,1,35,1,0,200,2,0,200,3,0,200,4,0,200,5,0,201,6,0,200,7,0,200,8,0,200,9,0,200,10,0,221,11,0,200,12,0,201,13,0,201,14,0,200,15,0,201,16,0,200,17,0,200,18,0,221,19,0,200,20,0,200,21,0,200,23,0,221,24,0,221,25,0,200,26,0,200,27,0,200,28,0,200,29,0,200,30,0,200,31,0,200,32,0,200,194,0,621,195,0,621,196,0,620,199,0,621*6B
$PAIRSAT,2,23,65,0,200,67,0,200,68,0,200,69,0,201,70,0,201,71,0,201,72,0,200,73,0,201,74,0,200,75,0,200,76,0,200,77,0,200,78,0,200,79,0,201,80,0,201,81,0,200,82,0,200,83,0,200,84,0,200,85,0,201,86,0,201,87,0,200,88,0,200*53
$PAIRSAT,3,23,2,0,1221,3,0,1221,4,0,1200,5,0,200,7,0,1221,8,0,1221,9,0,1200,10,0,1200,11,0,1200,12,0,1200,13,0,1221,15,0,1221,19,0,1200,21,0,1200,24,0,1200,25,0,1200,26,0,1221,27,0,1200,30,0,1221,31,0,1200,33,0,1200,34,0,1200,36,0,1200*6A
$PAIRSAT,4,50,1,0,200,2,0,200,3,0,200,4,0,200,5,0,200,6,0,201,7,0,200,8,0,201,9,0,201,10,0,200,11,0,200,12,0,200,13,0,201,14,0,200,15,0,200,16,0,201,19,0,621,20,0,621,21,0,600,22,0,621,23,0,600,24,0,600,25,0,600,26,0,600,27,0,600,28,0,600,29,0,621,30,0,600,31,0,200,32,0,600,33,0,600,34,0,600,35,0,621,36,0,621,37,0,621,38,0,621,39,0,621,40,0,600,41,0,600,42,0,600,43,0,600,44,0,600,45,0,600,46,0,621,56,0,200,57,0,200,58,0,200,59,0,600,60,0,600,61,0,600*41
$PAIRDGP,8,5,10,12,13,15,18,23,24*72
$GNGGA,111639.200,2500.8102400,N,12132.4763900,E,2,62,0.42,21.80,M,15.25,M,2,3335*74
$GNRMC,111639.200,A,2500.8102400,N,12132.4763900,E,0.02,332.18,260623,,,D,V*0E
$GPHDT,,T*1B
$GNACCURACY,3.3*16
$GNGGA,111639.300,2500.8102500,N,12132.4763900,E,2,63,0.42,21.80,M,15.25,M,1,3335*76
$GNRMC,111639.300,A,2500.8102500,N,12132.4763900,E,0.02,332.18,260623,,,D,V*0E
$GPHDT,,T*1B
$GNACCURACY,3.3*16
$GNGGA,111639.400,2500.8102500,N,12132.4763900,E,2,63,0.42,21.80,M,15.25,M,1,3335*71
$GNRMC,111639.400,A,2500.8102500,N,12132.4763900,E,0.03,332.18,260623,,,D,V*08
$GPHDT,,T*1B
$GNACCURACY,3.3*16
$GNGGA,111639.500,2500.8102500,N,12132.4763900,E,2,64,0.42,21.80,M,15.25,M,1,3335*77
$GNRMC,111639.500,A,2500.8102500,N,12132.4763900,E,0.02,332.18,260623,,,D,V*08
$GPHDT,,T*1B
$GNACCURACY,3.3*16
$GNGGA,111639.600,2500.8102500,N,12132.4763900,E,2,64,0.42,21.80,M,15.25,M,0,3335*75
$GNRMC,111639.600,A,2500.8102500,N,12132.4763900,E,0.03,332.18,260623,,,D,V*0A
$GPHDT,,T*1B
$GNACCURACY,3.3*16
$GNGGA,111639.700,2500.8102600,N,12132.4763900,E,2,64,0.42,21.80,M,15.25,M,0,3335*77
$GNRMC,111639.700,A,2500.8102600,N,12132.4763900,E,0.03,332.18,260623,,,D,V*08
$GPHDT,,T*1B
$GNACCURACY,3.3*16
$GNGGA,111639.800,2500.8102600,N,12132.4763900,E,2,64,0.42,21.80,M,15.25,M,0,3335*78
$GNRMC,111639.800,A,2500.8102600,N,12132.4763900,E,0.03,332.18,260623,,,D,V*07
$GPHDT,,T*1B
$GNACCURACY,3.3*16
$GNGGA,111639.900,2500.8102600,N,12132.4763900,E,2,64,0.42,21.81,M,15.25,M,0,3335*78
$GNRMC,111639.900,A,2500.8102600,N,12132.4763900,E,0.03,332.18,260623,,,D,V*06
$GPHDT,,T*1B
$GNACCURACY,3.3*16
$GNGGA,111640.000,2500.8102600,N,12132.4763900,E,2,64,0.42,21.81,M,15.25,M,1,3335*7E
$GNRMC,111640.000,A,2500.8102600,N,12132.4763900,E,0.02,332.18,260623,,,D,V*00
$GPHDT,,T*1B
$GNACCURACY,3.3*16
$GNGGA,111640.100,2500.8102600,N,12132.4763900,E,2,64,0.42,21.81,M,15.25,M,1,3335*7F
$GNRMC,111640.100,A,2500.8102600,N,12132.4763900,E,0.02,332.18,260623,,,D,V*01
$GPHDT,,T*1B
$GNGSA,A,3,24,196,199,18,23,15,195,194,05,12,10,,0.69,0.42,0.55,1*0B
$GNGSA,A,3,80,70,85,73,86,71,79,69,,,,,0.69,0.42,0.55,2*04
$GNGSA,A,3,13,08,07,26,15,02,30,03,,,,,0.69,0.42,0.55,3*05
$GNGSA,A,3,38,08,39,16,13,06,46,09,19,20,36,37,0.69,0.42,0.55,4*07
$GNGSA,A,3,35,29,,,,,,,,,,,0.69,0.42,0.55,4*00
$GPGSV,4,1,16,24,78,054,42,196,74,062,38,199,60,167,38,50,60,167,41,1*60
$GPGSV,4,2,16,18,60,256,38,23,47,335,21,15,39,042,23,195,36,179,28,1*50
$GPGSV,4,3,16,194,29,139,41,05,22,115,28,12,17,145,28,10,15,316,38,1*52
$GPGSV,4,4,16,13,11,054,18,32,07,265,12,25,06,179,,29,03,200,,1*69
$GPGSV,2,1,08,24,78,054,44,196,74,062,44,199,60,167,42,18,60,256,39,8*62
$GPGSV,2,2,08,23,47,335,37,195,36,179,24,194,29,139,44,10,15,316,38,8*61
$GLGSV,3,1,09,80,48,085,39,70,40,003,31,85,39,252,39,73,33,161,38,1*73
$GLGSV,3,2,09,86,26,307,42,71,20,309,37,79,14,035,28,69,14,069,23,1*71
$GLGSV,3,3,09,84,13,192,,1*45
$GAGSV,3,1,09,13,59,238,22,08,48,021,43,07,43,298,26,26,30,310,39,7*77
$GAGSV,3,2,09,15,26,174,31,02,25,089,22,30,23,146,38,03,12,061,25,7*75
$GAGSV,3,3,09,25,04,046,,7*4B
$GAGSV,2,1,07,13,59,238,25,08,48,021,43,07,43,298,28,26,30,310,33,1*7D
$GAGSV,2,2,07,15,26,174,36,02,25,089,33,30,23,146,41,1*45
$GBGSV,4,1,16,38,83,089,39,08,77,006,38,39,72,276,39,16,66,251,34,1*7A
$GBGSV,4,2,16,13,66,337,41,06,65,248,35,46,57,120,40,09,49,234,19,1*74
$GBGSV,4,3,16,19,47,340,34,20,44,057,25,36,31,184,24,37,25,050,24,1*76
$GBGSV,4,4,16,35,22,273,27,29,22,215,29,22,09,298,33,07,05,193,,1*71
$GBGSV,3,1,09,38,83,089,37,39,72,276,29,46,57,120,46,19,47,340,35,4*71
$GBGSV,3,2,09,20,44,057,34,36,31,184,19,37,25,050,28,35,22,273,32,4*73
$GBGSV,3,3,09,22,09,298,20,4*42
$GNACCURACY,3.3*16
$PAIRSAT,1,35,1,0,200,2,0,200,3,0,200,4,0,200,5,0,201,6,0,200,7,0,200,8,0,200,9,0,200,10,0,221,11,0,200,12,0,201,13,0,201,14,0,200,15,0,201,16,0,200,17,0,200,18,0,221,19,0,200,20,0,200,21,0,200,23,0,221,24,0,221,25,0,200,26,0,200,27,0,200,28,0,200,29,0,200,30,0,200,31,0,200,32,0,200,194,0,621,195,0,621,196,0,620,199,0,621*6B
$PAIRSAT,2,23,65,0,200,67,0,200,68,0,200,69,0,201,70,0,201,71,0,201,72,0,200,73,0,201,74,0,200,75,0,200,76,0,200,77,0,200,78,0,200,79,0,201,80,0,201,81,0,200,82,0,200,83,0,200,84,0,200,85,0,201,86,0,201,87,0,200,88,0,200*53
$PAIRSAT,3,23,2,0,1221,3,0,1221,4,0,1200,5,0,200,7,0,1221,8,0,1221,9,0,1200,10,0,1200,11,0,1200,12,0,1200,13,0,1221,15,0,1221,19,0,1200,21,0,1200,24,0,1200,25,0,1200,26,0,1221,27,0,1200,30,0,1221,31,0,1200,33,0,1200,34,0,1200,36,0,1200*6A
$PAIRSAT,4,50,1,0,200,2,0,200,3,0,200,4,0,200,5,0,200,6,0,201,7,0,200,8,0,201,9,0,201,10,0,200,11,0,200,12,0,200,13,0,201,14,0,200,15,0,200,16,0,201,19,0,621,20,0,621,21,0,600,22,0,621,23,0,600,24,0,600,25,0,600,26,0,600,27,0,600,28,0,600,29,0,621,30,0,600,31,0,200,32,0,600,33,0,600,34,0,600,35,0,621,36,0,621,37,0,621,38,0,621,39,0,621,40,0,600,41,0,600,42,0,600,43,0,600,44,0,600,45,0,600,46,0,621,56,0,200,57,0,200,58,0,200,59,0,600,60,0,600,61,0,600*41
$PAIRDGP,8,5,10,12,13,15,18,23,24*72
$GNGGA,111640.200,2500.8102600,N,12132.4763900,E,2,64,0.42,21.81,M,15.25,M,1,3335*7C
$GNRMC,111640.200,A,2500.8102600,N,12132.4763900,E,0.01,332.18,260623,,,D,V*01
$GPHDT,,T*1B
$GNACCURACY,3.1*14
$GNGGA,111640.300,2500.8102600,N,12132.4763900,E,2,63,0.42,21.81,M,15.25,M,1,3335*7A
$GNRMC,111640.300,A,2500.8102600,N,12132.4763900,E,0.01,332.18,260623,,,D,V*00
$GPHDT,,T*1B
$GNACCURACY,3.1*14
$GNGGA,111640.400,2500.8102600,N,12132.4763900,E,2,63,0.42,21.81,M,15.25,M,1,3335*7D
$GNRMC,111640.400,A,2500.8102600,N,12132.4763900,E,0.02,332.18,260623,,,D,V*04
$GPHDT,,T*1B
$GNACCURACY,3.1*14
$GNGGA,111640.500,2500.8102700,N,12132.4763900,E,2,63,0.42,21.81,M,15.25,M,0,3335*7C
$GNRMC,111640.500,A,2500.8102700,N,12132.4763900,E,0.02,332.18,260623,,,D,V*04
$GPHDT,,T*1B
$GNACCURACY,3.1*14
$GNGGA,111640.600,2500.8102600,N,12132.4763800,E,2,63,0.42,21.81,M,15.25,M,0,3335*7F
$GNRMC,111640.600,A,2500.8102600,N,12132.4763800,E,0.03,332.18,260623,,,D,V*06
$GPHDT,,T*1B
$GNACCURACY,3.1*14
$GNGGA,111640.700,2500.8102600,N,12132.4763800,E,2,63,0.42,21.81,M,15.25,M,0,3335*7E
$GNRMC,111640.700,A,2500.8102600,N,12132.4763800,E,0.03,332.18,260623,,,D,V*07
$GPHDT,,T*1B
$GNACCURACY,3.2*17
$GNGGA,111640.800,2500.8102700,N,12132.4763800,E,2,63,0.42,21.81,M,15.25,M,0,3335*70
$GNRMC,111640.800,A,2500.8102700,N,12132.4763800,E,0.03,332.18,260623,,,D,V*09
$GPHDT,,T*1B
$GNACCURACY,3.2*17
$GNGGA,111640.900,2500.8102700,N,12132.4763800,E,2,63,0.42,21.81,M,15.25,M,0,3335*71
$GNRMC,111640.900,A,2500.8102700,N,12132.4763800,E,0.03,332.18,260623,,,D,V*08
$GPHDT,,T*1B
$GNACCURACY,3.2*17
$GNGGA,111641.000,2500.8102800,N,12132.4763800,E,2,63,0.42,21.80,M,15.25,M,1,3335*76
$GNRMC,111641.000,A,2500.8102800,N,12132.4763800,E,0.03,332.18,260623,,,D,V*0F
$GPHDT,,T*1B
$GNACCURACY,3.1*14
$GNGGA,111641.100,2500.8102800,N,12132.4763800,E,2,63,0.42,21.80,M,15.25,M,1,3335*77
$GNRMC,111641.100,A,2500.8102800,N,12132.4763800,E,0.03,332.18,260623,,,D,V*0E
$GPHDT,,T*1B
$GNGSA,A,3,24,196,199,18,23,15,195,194,05,12,10,,0.69,0.42,0.55,1*0B
$GNGSA,A,3,80,70,85,73,86,71,79,69,,,,,0.69,0.42,0.55,2*04
$GNGSA,A,3,13,08,07,26,15,02,30,03,,,,,0.69,0.42,0.55,3*05
$GNGSA,A,3,38,08,39,16,13,06,46,09,19,20,36,37,0.69,0.42,0.55,4*07
$GNGSA,A,3,35,29,,,,,,,,,,,0.69,0.42,0.55,4*00
$GPGSV,4,1,16,24,78,054,42,196,74,062,38,199,60,167,38,50,60,167,41,1*60
$GPGSV,4,2,16,18,60,256,38,23,47,335,21,15,39,042,22,195,36,179,28,1*51
$GPGSV,4,3,16,194,29,139,40,05,22,115,26,12,17,145,27,10,15,316,38,1*52
$GPGSV,4,4,16,13,11,054,16,32,07,265,13,25,06,179,,29,03,200,,1*66
$GPGSV,2,1,08,24,78,054,44,196,74,062,44,18,60,256,39,199,60,167,42,8*62
$GPGSV,2,2,08,23,47,335,37,195,36,179,24,194,29,139,43,10,15,316,38,8*66
$GLGSV,3,1,09,80,48,085,39,70,40,003,31,85,39,252,39,73,33,161,39,1*72
$GLGSV,3,2,09,86,26,307,42,71,20,309,37,79,14,035,28,69,14,069,24,1*76
$GLGSV,3,3,09,84,13,192,,1*45
$GAGSV,3,1,09,13,59,238,23,08,48,021,43,07,43,298,26,26,30,310,39,7*76
$GAGSV,3,2,09,15,26,174,32,02,25,089,22,30,23,146,36,03,12,061,25,7*78
$GAGSV,3,3,09,25,04,046,,7*4B
$GAGSV,2,1,07,13,59,238,25,08,48,021,43,07,43,298,28,26,30,310,33,1*7D
$GAGSV,2,2,07,15,26,174,36,02,25,089,32,30,23,146,41,1*44
$GBGSV,4,1,16,38,83,089,39,08,77,006,38,39,72,276,39,16,66,251,34,1*7A
$GBGSV,4,2,16,13,66,337,41,06,65,248,35,46,58,119,40,09,49,234,18,1*70
$GBGSV,4,3,16,19,47,340,35,20,44,057,25,36,31,184,24,37,25,050,26,1*75
$GBGSV,4,4,16,35,22,273,28,29,22,215,29,22,09,298,33,10,03,203,,1*74
$GBGSV,2,1,08,38,83,089,38,39,72,276,30,46,58,119,46,19,47,340,35,4*73
$GBGSV,2,2,08,20,44,057,34,37,25,050,28,35,22,273,32,22,09,298,21,4*78
$GNACCURACY,3.1*14
$PAIRSAT,1,35,1,0,200,2,0,200,3,0,200,4,0,200,5,0,201,6,0,200,7,0,200,8,0,200,9,0,200,10,0,221,11,0,200,12,0,201,13,0,201,14,0,200,15,0,201,16,0,200,17,0,200,18,0,221,19,0,200,20,0,200,21,0,200,23,0,221,24,0,221,25,0,200,26,0,200,27,0,200,28,0,200,29,0,200,30,0,200,31,0,200,32,0,200,194,0,621,195,0,621,196,0,620,199,0,621*6B
$PAIRSAT,2,23,65,0,200,67,0,200,68,0,200,69,0,201,70,0,201,71,0,201,72,0,200,73,0,201,74,0,200,75,0,200,76,0,200,77,0,200,78,0,200,79,0,201,80,0,201,81,0,200,82,0,200,83,0,200,84,0,200,85,0,201,86,0,201,87,0,200,88,0,200*53
$PAIRSAT,3,23,2,0,1221,3,0,1221,4,0,1200,5,0,200,7,0,1221,8,0,1221,9,0,1200,10,0,1200,11,0,1200,12,0,1200,13,0,1221,15,0,1221,19,0,1200,21,0,1200,24,0,1200,25,0,1200,26,0,1221,27,0,1200,30,0,1221,31,0,1200,33,0,1200,34,0,1200,36,0,1200*6A
$PAIRSAT,4,50,1,0,200,2,0,200,3,0,200,4,0,200,5,0,200,6,0,201,7,0,200,8,0,201,9,0,201,10,0,200,11,0,200,12,0,200,13,0,201,14,0,200,15,0,200,16,0,201,19,0,621,20,0,621,21,0,600,22,0,621,23,0,600,24,0,600,25,0,600,26,0,600,27,0,600,28,0,600,29,0,621,30,0,600,31,0,200,32,0,600,33,0,600,34,0,600,35,0,621,36,0,621,37,0,621,38,0,621,39,0,621,40,0,600,41,0,600,42,0,600,43,0,600,44,0,600,45,0,600,46,0,621,56,0,200,57,0,200,58,0,200,59,0,600,60,0,600,61,0,600*41
$PAIRDGP,8,5,10,12,13,15,18,23,24*72
$GNGGA,111641.200,2500.8102800,N,12132.4763800,E,2,63,0.42,21.80,M,15.25,M,1,3335*74
$GNRMC,111641.200,A,2500.8102800,N,12132.4763800,E,0.03,332.18,260623,,,D,V*0D
$GPHDT,,T*1B
$GNACCURACY,3.1*14
$GNGGA,111641.300,2500.8102900,N,12132.4763800,E,2,63,0.42,21.80,M,15.25,M,1,3335*74
$GNRMC,111641.300,A,2500.8102900,N,12132.4763800,E,0.02,332.18,260623,,,D,V*0C
$GPHDT,,T*1B
$GNACCURACY,3.1*14
$GNGGA,111641.400,2500.8102900,N,12132.4763800,E,2,63,0.42,21.80,M,15.25,M,1,3335*73
$GNRMC,111641.400,A,2500.8102900,N,12132.4763800,E,0.02,332.18,260623,,,D,V*0B
$GPHDT,,T*1B
$GNACCURACY,3.1*14
$GNGGA,111641.500,2500.8102900,N,12132.4763800,E,2,63,0.42,21.79,M,15.25,M,1,3335*74
$GNRMC,111641.500,A,2500.8102900,N,12132.4763800,E,0.03,332.18,260623,,,D,V*0B
$GPHDT,,T*1B
$GNACCURACY,3.1*14
$GNGGA,111641.600,2500.8103000,N,12132.4763900,E,2,63,0.42,21.79,M,15.25,M,1,3335*7E
$GNRMC,111641.600,A,2500.8103000,N,12132.4763900,E,0.02,332.18,260623,,,D,V*00
$GPHDT,,T*1B
$GNACCURACY,3.1*14
$GNGGA,111641.700,2500.8103000,N,12132.4763900,E,2,63,0.42,21.79,M,15.25,M,1,3335*7F
$GNRMC,111641.700,A,2500.8103000,N,12132.4763900,E,0.02,332.18,260623,,,D,V*01
$GPHDT,,T*1B
$GNACCURACY,3.1*14
$GNGGA,111641.800,2500.8103100,N,12132.4763900,E,2,63,0.42,21.78,M,15.25,M,1,3335*70
$GNRMC,111641.800,A,2500.8103100,N,12132.4763900,E,0.02,332.18,260623,,,D,V*0F
$GPHDT,,T*1B
$GNACCURACY,3.1*14
$GNGGA,111641.900,2500.8103100,N,12132.4763900,E,2,63,0.42,21.78,M,15.25,M,1,3335*71
$GNRMC,111641.900,A,2500.8103100,N,12132.4763900,E,0.02,332.18,260623,,,D,V*0E
$GPHDT,,T*1B
$GNACCURACY,3.1*14
$GNGGA,111642.000,2500.8103100,N,12132.4763900,E,2,63,0.42,21.77,M,15.25,M,2,3335*77
$GNRMC,111642.000,A,2500.8103100,N,12132.4763900,E,0.01,332.18,260623,,,D,V*07
$GPHDT,,T*1B
$GNACCURACY,3.1*14
$GNGGA,111642.100,2500.8103100,N,12132.4763900,E,2,63,0.42,21.77,M,15.25,M,2,3335*76
$GNRMC,111642.100,A,2500.8103100,N,12132.4763900,E,0.02,332.18,260623,,,D,V*05
$GPHDT,,T*1B
$GNGSA,A,3,24,196,199,18,23,15,195,194,05,12,10,,0.69,0.42,0.55,1*0B
$GNGSA,A,3,80,70,85,73,86,71,79,69,,,,,0.69,0.42,0.55,2*04
$GNGSA,A,3,13,08,07,26,15,02,30,03,,,,,0.69,0.42,0.55,3*05
$GNGSA,A,3,38,08,39,16,13,06,46,09,19,20,36,37,0.69,0.42,0.55,4*07
$GNGSA,A,3,29,35,,,,,,,,,,,0.69,0.42,0.55,4*00
$GPGSV,4,1,16,24,78,054,42,196,74,062,37,199,60,167,39,50,60,167,41,1*6E
$GPGSV,4,2,16,18,60,256,38,23,47,335,21,15,39,042,21,195,36,179,30,1*5B
$GPGSV,4,3,16,194,29,139,42,05,22,115,24,12,17,145,27,10,15,316,38,1*52
$GPGSV,4,4,16,13,11,054,16,32,07,265,13,25,06,179,,29,03,200,,1*66
$GPGSV,2,1,08,24,78,054,44,196,74,062,44,18,60,256,39,199,60,167,43,8*63
$GPGSV,2,2,08,23,47,335,37,195,36,179,22,194,29,139,43,10,15,316,38,8*60
$GLGSV,3,1,09,80,48,085,39,70,40,003,31,85,39,252,39,73,33,161,39,1*72
$GLGSV,3,2,09,86,26,307,42,71,20,309,38,79,14,035,28,69,14,069,22,1*7F
$GLGSV,3,3,09,84,13,192,,1*45
$GAGSV,3,1,09,13,59,238,23,08,48,021,43,07,43,298,27,26,30,310,39,7*77
$GAGSV,3,2,09,15,26,174,33,02,25,089,20,30,23,146,35,03,12,061,26,7*7B
$GAGSV,3,3,09,25,04,046,,7*4B
$GAGSV,2,1,07,13,59,238,25,08,48,021,43,07,43,298,28,26,30,310,33,1*7D
$GAGSV,2,2,07,15,26,174,37,02,25,089,32,30,23,146,41,1*45
$GBGSV,4,1,15,38,83,089,39,08,77,006,38,39,72,276,39,16,66,251,34,1*79
$GBGSV,4,2,15,13,66,337,41,06,65,248,34,46,58,119,40,09,49,234,17,1*7D
$GBGSV,4,3,15,19,47,340,33,20,44,057,25,36,31,184,26,37,25,050,24,1*70
$GBGSV,4,4,15,29,22,215,29,35,22,273,26,22,09,298,34,1*4D
$GBGSV,2,1,08,38,83,089,38,39,72,276,30,46,58,119,46,19,47,340,36,4*70
$GBGSV,2,2,08,20,44,057,34,37,25,050,28,35,22,273,32,22,09,298,21,4*78
$GNACCURACY,3.1*14
$PAIRSAT,1,35,1,0,200,2,0,200,3,0,200,4,0,200,5,0,201,6,0,200,7,0,200,8,0,200,9,0,200,10,0,221,11,0,200,12,0,201,13,0,201,14,0,200,15,0,201,16,0,200,17,0,200,18,0,221,19,0,200,20,0,200,21,0,200,23,0,221,24,0,221,25,0,200,26,0,200,27,0,200,28,0,200,29,0,200,30,0,200,31,0,200,32,0,200,194,0,621,195,0,621,196,0,620,199,0,621*6B
$PAIRSAT,2,23,65,0,200,67,0,200,68,0,200,69,0,201,70,0,201,71,0,201,72,0,200,73,0,201,74,0,200,75,0,200,76,0,200,77,0,200,78,0,200,79,0,201,80,0,201,81,0,200,82,0,200,83,0,200,84,0,200,85,0,201,86,0,201,87,0,200,88,0,200*53
$PAIRSAT,3,23,2,0,1221,3,0,1221,4,0,1200,5,0,200,7,0,1221,8,0,1221,9,0,1200,10,0,1200,11,0,1200,12,0,1200,13,0,1221,15,0,1221,19,0,1200,21,0,1200,24,0,1200,25,0,1200,26,0,1221,27,0,1200,30,0,1221,31,0,1200,33,0,1200,34,0,1200,36,0,1200*6A
$PAIRSAT,4,50,1,0,200,2,0,200,3,0,200,4,0,200,5,0,200,6,0,201,7,0,200,8,0,201,9,0,201,10,0,200,11,0,200,12,0,200,13,0,201,14,0,200,15,0,200,16,0,201,19,0,621,20,0,621,21,0,600,22,0,621,23,0,600,24,0,600,25,0,600,26,0,600,27,0,600,28,0,600,29,0,621,30,0,600,31,0,200,32,0,600,33,0,600,34,0,600,35,0,621,36,0,621,37,0,621,38,0,621,39,0,621,40,0,600,41,0,600,42,0,600,43,0,600,44,0,600,45,0,600,46,0,621,56,0,200,57,0,200,58,0,200,59,0,600,60,0,600,61,0,600*41
$PAIRDGP,8,5,10,12,13,15,18,23,24*72
$GNGGA,111642.200,2500.8103100,N,12132.4763900,E,2,63,0.42,21.77,M,15.25,M,2,3335*75
$GNRMC,111642.200,A,2500.8103100,N,12132.4763900,E,0.01,332.18,260623,,,D,V*05
$GPHDT,,T*1B
$GNACCURACY,3.1*14
$GNGGA,111642.300,2500.8103100,N,12132.4763900,E,2,63,0.42,21.76,M,15.25,M,2,3335*75
$GNRMC,111642.300,A,2500.8103100,N,12132.4763900,E,0.01,332.18,260623,,,D,V*04
$GPHDT,,T*1B
$GNACCURACY,3.1*14
$GNGGA,111642.400,2500.8103200,N,12132.4763900,E,2,63,0.42,21.76,M,15.25,M,2,3335*71
$GNRMC,111642.400,A,2500.8103200,N,12132.4763900,E,0.02,332.18,260623,,,D,V*03
$GPHDT,,T*1B
$GNACCURACY,3.1*14
$GNGGA,111642.500,2500.8103200,N,12132.4763900,E,2,63,0.42,21.75,M,15.25,M,2,3335*73
$GNRMC,111642.500,A,2500.8103200,N,12132.4763900,E,0.02,332.18,260623,,,D,V*02
$GPHDT,,T*1B
$GNACCURACY,3.1*14
$GNGGA,111642.600,2500.8103200,N,12132.4763900,E,2,63,0.42,21.75,M,15.25,M,2,3335*70
$GNRMC,111642.600,A,2500.8103200,N,12132.4763900,E,0.01,332.18,260623,,,D,V*02
$GPHDT,,T*1B
$GNACCURACY,3.1*14
$GNGGA,111642.700,2500.8103200,N,12132.4763900,E,2,63,0.42,21.75,M,15.25,M,2,3335*71
$GNRMC,111642.700,A,2500.8103200,N,12132.4763900,E,0.01,332.18,260623,,,D,V*03
$GPHDT,,T*1B
$GNACCURACY,3.1*14
$GNGGA,111642.800,2500.8103200,N,12132.4763800,E,2,63,0.42,21.75,M,15.25,M,2,3335*7F
$GNRMC,111642.800,A,2500.8103200,N,12132.4763800,E,0.01,332.18,260623,,,D,V*0D
$GPHDT,,T*1B
$GNACCURACY,3.1*14
$GNGGA,111642.900,2500.8103200,N,12132.4763800,E,2,64,0.42,21.75,M,15.25,M,2,3335*79
$GNRMC,111642.900,A,2500.8103200,N,12132.4763800,E,0.02,332.18,260623,,,D,V*0F
$GPHDT,,T*1B
$GNACCURACY,3.1*14
$GNGGA,111643.000,2500.8103200,N,12132.4763700,E,2,64,0.42,21.75,M,15.25,M,3,3335*7F
$GNRMC,111643.000,A,2500.8103200,N,12132.4763700,E,0.02,332.18,260623,,,D,V*08
$GPHDT,,T*1B
$GNACCURACY,3.1*14
$GNGGA,111643.100,2500.8103200,N,12132.4763700,E,2,64,0.42,21.74,M,15.25,M,3,3335*7F
$GNRMC,111643.100,A,2500.8103200,N,12132.4763700,E,0.02,332.18,260623,,,D,V*09
$GPHDT,,T*1B
$GNGSA,A,3,24,196,199,18,23,15,195,194,05,12,10,,0.69,0.42,0.55,1*0B
$GNGSA,A,3,80,70,85,73,86,71,79,69,,,,,0.69,0.42,0.55,2*04
$GNGSA,A,3,13,08,07,26,15,02,30,03,,,,,0.69,0.42,0.55,3*05
$GNGSA,A,3,38,08,39,16,13,06,46,09,19,20,36,37,0.69,0.42,0.55,4*07
$GNGSA,A,3,29,35,,,,,,,,,,,0.69,0.42,0.55,4*00
$GPGSV,4,1,16,24,78,054,42,196,74,062,37,199,60,167,39,50,60,167,41,1*6E
$GPGSV,4,2,16,18,60,256,38,23,47,335,22,15,39,042,17,195,36,179,28,1*54
$GPGSV,4,3,16,194,29,139,40,05,22,115,23,12,17,145,28,10,15,316,38,1*58
$GPGSV,4,4,16,13,11,054,16,32,07,265,09,25,06,179,,29,03,200,,1*6D
$GPGSV,2,1,08,24,78,054,44,196,74,062,44,199,60,167,42,18,60,256,38,8*63
$GPGSV,2,2,08,23,47,335,37,195,36,179,24,194,29,139,43,10,15,316,38,8*66
$GLGSV,3,1,09,80,48,085,39,70,40,003,31,85,39,252,39,73,33,161,37,1*7C
$GLGSV,3,2,09,86,26,307,42,71,20,309,37,79,14,035,29,69,14,069,23,1*70
$GLGSV,3,3,09,84,13,192,,1*45
$GAGSV,3,1,09,13,59,238,23,08,48,021,43,07,43,298,26,26,30,310,39,7*76
$GAGSV,3,2,09,15,26,174,33,02,25,089,23,30,23,146,37,03,12,061,25,7*79
$GAGSV,3,3,09,25,04,046,,7*4B
$GAGSV,2,1,07,13,59,238,26,08,48,021,43,07,43,298,28,26,30,310,33,1*7E
$GAGSV,2,2,07,15,26,174,36,02,25,089,32,30,23,146,41,1*44
$GBGSV,4,1,15,38,83,089,39,08,77,006,38,39,72,276,39,16,66,251,34,1*79
$GBGSV,4,2,15,13,66,337,41,06,65,248,34,46,58,119,40,09,49,234,17,1*7D
$GBGSV,4,3,15,19,47,340,34,20,44,057,21,36,31,184,23,37,25,050,24,1*76
$GBGSV,4,4,15,29,22,215,29,35,22,273,27,22,09,298,33,1*4B
$GBGSV,3,1,09,38,83,089,38,39,72,276,30,46,58,119,46,19,47,340,36,4*70
$GBGSV,3,2,09,20,44,057,34,36,31,184,25,37,25,050,28,35,22,273,32,4*7C
$GBGSV,3,3,09,22,09,298,21,4*43
$GNACCURACY,3.1*14
$PAIRSAT,1,35,1,0,200,2,0,200,3,0,200,4,0,200,5,0,201,6,0,200,7,0,200,8,0,200,9,0,200,10,0,221,11,0,200,12,0,201,13,0,201,14,0,200,15,0,201,16,0,200,17,0,200,18,0,221,19,0,200,20,0,200,21,0,200,23,0,221,24,0,221,25,0,200,26,0,200,27,0,200,28,0,200,29,0,200,30,0,200,31,0,200,32,0,200,194,0,621,195,0,621,196,0,620,199,0,621*6B
$PAIRSAT,2,23,65,0,200,67,0,200,68,0,200,69,0,201,70,0,201,71,0,201,72,0,200,73,0,201,74,0,200,75,0,200,76,0,200,77,0,200,78,0,200,79,0,201,80,0,201,81,0,200,82,0,200,83,0,200,84,0,200,85,0,201,86,0,201,87,0,200,88,0,200*53
$PAIRSAT,3,23,2,0,1221,3,0,1221,4,0,1200,5,0,200,7,0,1221,8,0,1221,9,0,1200,10,0,1200,11,0,1200,12,0,1200,13,0,1221,15,0,1221,19,0,1200,21,0,1200,24,0,1200,25,0,1200,26,0,1221,27,0,1200,30,0,1221,31,0,1200,33,0,1200,34,0,1200,36,0,1200*6A
$PAIRSAT,4,50,1,0,200,2,0,200,3,0,200,4,0,200,5,0,200,6,0,201,7,0,200,8,0,201,9,0,201,10,0,200,11,0,200,12,0,200,13,0,201,14,0,200,15,0,200,16,0,201,19,0,621,20,0,621,21,0,600,22,0,621,23,0,600,24,0,600,25,0,600,26,0,600,27,0,600,28,0,600,29,0,621,30,0,600,31,0,200,32,0,600,33,0,600,34,0,600,35,0,621,36,0,621,37,0,621,38,0,621,39,0,621,40,0,600,41,0,600,42,0,600,43,0,600,44,0,600,45,0,600,46,0,621,56,0,200,57,0,200,58,0,200,59,0,600,60,0,600,61,0,600*41
$PAIRDGP,8,5,10,12,13,15,18,23,24*72
$GNGGA,111643.200,2500.8103200,N,12132.4763700,E,2,64,0.42,21.74,M,15.25,M,3,3335*7C
$GNRMC,111643.200,A,2500.8103200,N,12132.4763700,E,0.01,332.18,260623,,,D,V*09
$GPHDT,,T*1B
$GNACCURACY,3.1*14
$GNGGA,111643.300,2500.8103200,N,12132.4763700,E,2,64,0.42,21.74,M,15.25,M,3,3335*7D
$GNRMC,111643.300,A,2500.8103200,N,12132.4763700,E,0.01,332.18,260623,,,D,V*08
$GPHDT,,T*1B
$GNACCURACY,3.1*14
$GNGGA,111643.400,2500.8103200,N,12132.4763700,E,2,64,0.42,21.74,M,15.25,M,3,3335*7A
$GNRMC,111643.400,A,2500.8103200,N,12132.4763700,E,0.01,332.18,260623,,,D,V*0F
$GPHDT,,T*1B
$GNACCURACY,3.1*14
$GNGGA,111643.500,2500.8103200,N,12132.4763700,E,2,64,0.42,21.74,M,15.25,M,3,3335*7B
$GNRMC,111643.500,A,2500.8103200,N,12132.4763700,E,0.02,332.18,260623,,,D,V*0D
$GPHDT,,T*1B
$GNACCURACY,3.1*14
$GNGGA,111643.600,2500.8103200,N,12132.4763600,E,2,64,0.42,21.73,M,15.25,M,3,3335*7E
$GNRMC,111643.600,A,2500.8103200,N,12132.4763600,E,0.02,332.18,260623,,,D,V*0F
$GPHDT,,T*1B
$GNACCURACY,3.1*14
$GNGGA,111643.700,2500.8103300,N,12132.4763700,E,2,64,0.42,21.73,M,15.25,M,3,3335*7F
$GNRMC,111643.700,A,2500.8103300,N,12132.4763700,E,0.02,332.18,260623,,,D,V*0E
$GPHDT,,T*1B
$GNACCURACY,3.1*14
$GNGGA,111643.800,2500.8103300,N,12132.4763700,E,2,64,0.42,21.73,M,15.25,M,3,3335*70
$GNRMC,111643.800,A,2500.8103300,N,12132.4763700,E,0.02,332.18,260623,,,D,V*01
$GPHDT,,T*1B
$GNACCURACY,3.1*14
$GNGGA,111643.900,2500.8103400,N,12132.4763700,E,2,64,0.42,21.72,M,15.25,M,3,3335*77
$GNRMC,111643.900,A,2500.8103400,N,12132.4763700,E,0.01,332.18,260623,,,D,V*04
$GPHDT,,T*1B
$GNACCURACY,3.1*14
$GNGGA,111644.000,2500.8103400,N,12132.4763700,E,2,63,0.42,21.71,M,15.25,M,4,3335*7A
$GNRMC,111644.000,A,2500.8103400,N,12132.4763700,E,0.01,332.18,260623,,,D,V*0A
$GPHDT,,T*1B
$GNACCURACY,3.1*14
$GNGGA,111644.100,2500.8103400,N,12132.4763700,E,2,63,0.42,21.71,M,15.25,M,4,3335*7B
$GNRMC,111644.100,A,2500.8103400,N,12132.4763700,E,0.01,332.18,260623,,,D,V*0B
$GPHDT,,T*1B
$GNGSA,A,3,24,196,199,18,23,15,195,194,05,12,10,,0.69,0.42,0.55,1*0B
$GNGSA,A,3,80,70,85,73,86,71,79,69,,,,,0.69,0.42,0.55,2*04
$GNGSA,A,3,13,08,07,26,15,02,30,03,,,,,0.69,0.42,0.55,3*05
$GNGSA,A,3,38,08,39,16,13,06,46,09,19,20,36,37,0.69,0.42,0.55,4*07
$GNGSA,A,3,29,35,,,,,,,,,,,0.69,0.42,0.55,4*00
$GPGSV,4,1,16,24,78,054,42,196,74,062,37,199,60,167,39,50,60,167,42,1*6D
$GPGSV,4,2,16,18,60,256,38,23,47,335,21,15,39,042,12,195,36,179,29,1*53
$GPGSV,4,3,16,194,29,139,42,05,22,115,22,12,17,145,28,10,15,316,38,1*5B
$GPGSV,4,4,16,13,11,054,17,32,07,265,09,25,06,179,,29,03,200,,1*6C
$GPGSV,2,1,08,24,78,054,44,196,74,062,44,18,60,256,38,199,60,167,43,8*62
$GPGSV,2,2,08,23,47,335,37,195,36,179,24,194,29,139,42,10,15,316,38,8*67
$GLGSV,3,1,09,80,48,085,39,70,40,003,31,85,39,252,39,73,33,161,40,1*7C
$GLGSV,3,2,09,86,26,307,42,71,20,309,38,79,14,035,29,69,14,069,24,1*78
$GLGSV,3,3,09,84,13,192,,1*45
$GAGSV,3,1,09,13,59,238,24,08,48,021,43,07,43,298,27,26,30,310,39,7*70
$GAGSV,3,2,09,15,26,174,34,02,25,089,22,30,23,146,35,03,12,061,25,7*7D
$GAGSV,3,3,09,25,04,046,,7*4B
$GAGSV,2,1,07,13,59,238,24,08,48,021,43,07,43,298,28,26,30,310,31,1*7E
$GAGSV,2,2,07,15,26,174,36,02,25,089,33,30,23,146,41,1*45
$GBGSV,4,1,15,38,83,089,38,08,77,006,38,39,72,276,39,16,66,251,34,1*78
$GBGSV,4,2,15,13,66,337,41,06,65,248,34,46,58,119,40,09,49,234,18,1*72
$GBGSV,4,3,15,19,47,340,32,20,44,057,21,36,31,184,26,37,25,050,24,1*75
$GBGSV,4,4,15,29,22,215,29,35,22,273,27,22,09,298,33,1*4B
$GBGSV,2,1,08,38,83,089,38,39,72,276,30,46,58,119,46,19,47,340,35,4*73
$GBGSV,2,2,08,20,44,057,34,37,25,050,27,35,22,273,32,22,09,298,21,4*77
$GNACCURACY,3.1*14
$PAIRSAT,1,35,1,0,200,2,0,200,3,0,200,4,0,200,5,0,201,6,0,200,7,0,200,8,0,200,9,0,200,10,0,221,11,0,200,12,0,201,13,0,201,14,0,200,15,0,201,16,0,200,17,0,200,18,0,221,19,0,200,20,0,200,21,0,200,23,0,221,24,0,221,25,0,200,26,0,200,27,0,200,28,0,200,29,0,200,30,0,200,31,0,200,32,0,200,194,0,621,195,0,621,196,0,620,199,0,621*6B
$PAIRSAT,2,23,65,0,200,67,0,200,68,0,200,69,0,201,70,0,201,71,0,201,72,0,200,73,0,201,74,0,200,75,0,200,76,0,200,77,0,200,78,0,200,79,0,201,80,0,201,81,0,200,82,0,200,83,0,200,84,0,200,85,0,201,86,0,201,87,0,200,88,0,200*53
$PAIRSAT,3,23,2,0,1221,3,0,1221,4,0,1200,5,0,200,7,0,1221,8,0,1221,9,0,1200,10,0,1200,11,0,1200,12,0,1200,13,0,1221,15,0,1221,19,0,1200,21,0,1200,24,0,1200,25,0,1200,26,0,1221,27,0,1200,30,0,1221,31,0,1200,33,0,1200,34,0,1200,36,0,1200*6A
$PAIRSAT,4,50,1,0,200,2,0,200,3,0,200,4,0,200,5,0,200,6,0,201,7,0,200,8,0,201,9,0,201,10,0,200,11,0,200,12,0,200,13,0,201,14,0,200,15,0,200,16,0,201,19,0,621,20,0,621,21,0,600,22,0,621,23,0,600,24,0,600,25,0,600,26,0,600,27,0,600,28,0,600,29,0,621,30,0,600,31,0,200,32,0,600,33,0,600,34,0,600,35,0,621,36,0,621,37,0,621,38,0,621,39,0,621,40,0,600,41,0,600,42,0,600,43,0,600,44,0,600,45,0,600,46,0,621,56,0,200,57,0,200,58,0,200,59,0,600,60,0,600,61,0,600*41
$PAIRDGP,8,5,10,12,13,15,18,23,24*72
$GNGGA,111644.200,2500.8103400,N,12132.4763700,E,2,63,0.42,21.70,M,15.25,M,4,3335*79
$GNRMC,111644.200,A,2500.8103400,N,12132.4763700,E,0.02,332.18,260623,,,D,V*0B
$GPHDT,,T*1B
$GNACCURACY,3.1*14
$GNGGA,111644.300,2500.8103500,N,12132.4763800,E,2,63,0.42,21.70,M,15.25,M,3,3335*71
$GNRMC,111644.300,A,2500.8103500,N,12132.4763800,E,0.02,332.18,260623,,,D,V*04
$GPHDT,,T*1B
$GNACCURACY,3.1*14
$GNGGA,111644.400,2500.8103500,N,12132.4763800,E,2,63,0.42,21.69,M,15.25,M,3,3335*7E
$GNRMC,111644.400,A,2500.8103500,N,12132.4763800,E,0.02,332.18,260623,,,D,V*03
$GPHDT,,T*1B
$GNACCURACY,3.1*14
$GNGGA,111644.500,2500.8103500,N,12132.4763900,E,2,63,0.42,21.69,M,15.25,M,3,3335*7E
$GNRMC,111644.500,A,2500.8103500,N,12132.4763900,E,0.02,332.18,260623,,,D,V*03
$GPHDT,,T*1B
$GNACCURACY,3.1*14
$GNGGA,111644.600,2500.8103500,N,12132.4763900,E,2,63,0.42,21.68,M,15.25,M,3,3335*7C
$GNRMC,111644.600,A,2500.8103500,N,12132.4763900,E,0.01,332.18,260623,,,D,V*03
$GPHDT,,T*1B
$GNACCURACY,3.1*14
$GNGGA,111644.700,2500.8103500,N,12132.4763900,E,2,63,0.42,21.68,M,15.25,M,3,3335*7D
$GNRMC,111644.700,A,2500.8103500,N,12132.4763900,E,0.02,332.18,260623,,,D,V*01
$GPHDT,,T*1B
$GNACCURACY,3.1*14
$GNGGA,111644.800,2500.8103600,N,12132.4763900,E,2,63,0.42,21.68,M,15.25,M,3,3335*71
$GNRMC,111644.800,A,2500.8103600,N,12132.4763900,E,0.02,332.18,260623,,,D,V*0D
$GPHDT,,T*1B
$GNACCURACY,3.1*14
$GNGGA,111644.900,2500.8103700,N,12132.4763900,E,2,62,0.43,21.67,M,15.25,M,3,3335*7E
$GNRMC,111644.900,A,2500.8103700,N,12132.4763900,E,0.02,332.18,260623,,,D,V*0D
$GPHDT,,T*1B
$GNACCURACY,3.1*14
$GNGGA,111645.000,2500.8103700,N,12132.4763800,E,2,62,0.43,21.67,M,15.25,M,4,3335*70
$GNRMC,111645.000,A,2500.8103700,N,12132.4763800,E,0.02,332.18,260623,,,D,V*04
$GPHDT,,T*1B
$GNACCURACY,3.1*14
$GNGGA,111645.100,2500.8103700,N,12132.4763900,E,2,62,0.43,21.67,M,15.25,M,4,3335*70
$GNRMC,111645.100,A,2500.8103700,N,12132.4763900,E,0.01,332.18,260623,,,D,V*07
$GPHDT,,T*1B
$GNGSA,A,3,24,19