$FW : RTK35X,V1.1X0314AS,Lib20210517,1*54
$Tool : LOCOSYS , GNSS Firebird , v1.0.0.19*39
$---------------------------------------------------*2D
$GNACCURACY,3.0*15
$GNGGA,111737.000,2500.8092600,N,12132.4750600,E,2,66,0.42,19.79,M,15.25,M,2,3335*75
$GNRMC,111737.000,A,2500.8092600,N,12132.4750600,E,0.08,332.18,260623,,,D,V*0C
$GPHDT,,T*1B
$GNACCURACY,3.0*15
$GNGGA,111737.100,2500.8092400,N,12132.4750700,E,2,66,0.42,19.79,M,15.25,M,2,3335*77
$GNRMC,111737.100,A,2500.8092400,N,12132.4750700,E,0.08,332.18,260623,,,D,V*0E
$GPHDT,,T*1B
$GNGSA,A,3,24,196,199,18,23,15,195,194,05,12,10,13,0.68,0.42,0.54,1*09
$GNGSA,A,3,80,70,85,73,86,71,79,69,,,,,0.68,0.42,0.54,2*04
$GNGSA,A,3,13,08,07,26,15,02,30,03,,,,,0.68,0.42,0.54,3*05
$GNGSA,A,3,38,08,39,13,16,06,46,09,19,20,36,37,0.68,0.42,0.54,4*07
$GNGSA,A,3,29,35,,,,,,,,,,,0.68,0.42,0.54,4*00
$GPGSV,4,1,16,24,78,052,41,196,74,062,39,199,60,167,40,50,60,167,43,1*69
$GPGSV,4,2,16,18,60,255,33,23,47,336,33,15,39,043,24,195,35,179,26,1*53
$GPGSV,4,3,16,194,29,139,44,05,22,115,33,12,18,144,25,10,15,317,38,1*5F
$GPGSV,4,4,16,13,11,054,23,32,07,266,20,25,06,178,,29,03,199,,1*61
$GPGSV,3,1,09,24,78,052,45,196,74,062,44,18,60,255,39,199,60,167,44,8*60
$GPGSV,3,2,09,23,47,336,37,195,35,179,27,194,29,139,40,10,15,317,38,8*67
$GPGSV,3,3,09,32,07,266,25,8*57
$GLGSV,3,1,09,80,48,085,36,70,40,004,28,85,38,251,41,73,33,161,43,1*72
$GLGSV,3,2,09,86,26,307,44,71,20,309,41,79,14,035,30,69,14,069,26,1*7A
$GLGSV,3,3,09,84,12,192,,1*44
$GAGSV,3,1,09,13,59,237,21,08,48,021,38,07,43,299,31,26,30,310,39,7*70
$GAGSV,3,2,09,15,26,174,38,02,25,089,17,30,23,146,37,03,12,062,26,7*75
$GAGSV,3,3,09,25,04,045,,7*48
$GAGSV,2,1,08,13,59,237,29,08,48,021,40,07,43,299,34,26,30,310,31,1*7C
$GAGSV,2,2,08,15,26,174,30,02,25,089,34,30,23,146,38,03,12,062,22,1*71
$GBGSV,4,1,15,38,83,091,39,08,77,006,39,39,72,277,37,13,67,337,41,1*79
$GBGSV,4,2,15,16,66,252,34,06,65,248,31,46,58,119,41,09,49,235,26,1*7F
$GBGSV,4,3,15,19,47,340,36,20,44,058,36,36,31,184,20,37,25,050,26,1*7C
$GBGSV,4,4,15,29,22,214,28,35,22,273,26,22,09,298,34,1*4D
$GBGSV,3,1,10,38,83,091,39,39,72,277,30,46,58,119,46,19,47,340,31,4*76
$GBGSV,3,2,10,20,44,058,35,36,31,184,25,37,25,050,22,29,22,214,18,4*74
$GBGSV,3,3,10,35,22,273,35,22,09,298,29,4*75
$GNACCURACY,3.0*15
$PAIRSAT,1,35,1,0,200,2,0,200,3,0,200,4,0,200,5,0,201,6,0,200,7,0,200,8,0,200,9,0,200,10,0,221,11,0,200,12,0,201,13,0,201,14,0,200,15,0,201,16,0,200,17,0,200,18,0,221,19,0,200,20,0,200,21,0,200,23,0,221,24,0,221,25,0,200,26,0,200,27,0,200,28,0,200,29,0,200,30,0,200,31,0,200,32,0,200,194,0,621,195,0,621,196,0,620,199,0,621*6B
$PAIRSAT,2,23,65,0,200,67,0,200,68,0,200,69,0,201,70,0,201,71,0,201,72,0,200,73,0,201,74,0,200,75,0,200,76,0,200,77,0,200,78,0,200,79,0,201,80,0,201,81,0,200,82,0,200,83,0,200,84,0,200,85,0,201,86,0,201,87,0,200,88,0,200*53
$PAIRSAT,3,23,2,0,1221,3,0,1221,4,0,1200,5,0,200,7,0,1221,8,0,1221,9,0,1200,10,0,1200,11,0,1200,12,0,1200,13,0,1221,15,0,1221,19,0,1200,21,0,1200,24,0,1200,25,0,1200,26,0,1221,27,0,1200,30,0,1221,31,0,1200,33,0,1200,34,0,1200,36,0,1200*6A
$PAIRSAT,4,50,1,0,200,2,0,200,3,0,200,4,0,200,5,0,200,6,0,201,7,0,200,8,0,201,9,0,201,10,0,200,11,0,200,12,0,200,13,0,201,14,0,200,15,0,200,16,0,201,19,0,621,20,0,621,21,0,600,22,0,621,23,0,600,24,0,600,25,0,600,26,0,600,27,0,600,28,0,600,29,0,621,30,0,600,31,0,200,32,0,600,33,0,600,34,0,600,35,0,621,36,0,621,37,0,621,38,0,621,39,0,621,40,0,600,41,0,600,42,0,600,43,0,600,44,0,600,45,0,600,46,0,621,56,0,200,57,0,200,58,0,200,59,0,600,60,0,600,61,0,600*41
$PAIRDGP,8,5,10,12,13,15,18,23,24*72
$GNGGA,111737.200,2500.8092300,N,12132.4750700,E,2,66,0.42,19.78,M,15.25,M,2,3335*72
$GNRMC,111737.200,A,2500.8092300,N,12132.4750700,E,0.08,332.18,260623,,,D,V*0A
$GPHDT,,T*1B
$GNACCURACY,3.0*15
$GNGGA,111737.300,2500.8092100,N,12132.4750700,E,2,65,0.42,19.78,M,15.25,M,2,3335*72
$GNRMC,111737.300,A,2500.8092100,N,12132.4750700,E,0.08,332.18,260623,,,D,V*09
$GPHDT,,T*1B
$GNACCURACY,3.0*15
$GNGGA,111737.400,2500.8092000,N,12132.4750800,E,2,65,0.42,19.77,M,15.25,M,2,3335*74
$GNRMC,111737.400,A,2500.8092000,N,12132.4750800,E,0.08,332.18,260623,,,D,V*00
$GPHDT,,T*1B
$GNACCURACY,3.0*15
$GNGGA,111737.500,2500.8091800,N,12132.4750800,E,2,65,0.42,19.77,M,15.25,M,2,3335*7E
$GNRMC,111737.500,A,2500.8091800,N,12132.4750800,E,0.07,332.18,260623,,,D,V*05
$GPHDT,,T*1B
$GNACCURACY,3.0*15
$GNGGA,111737.600,2500.8091700,N,12132.4750800,E,2,65,0.42,19.77,M,15.25,M,2,3335*72
$GNRMC,111737.600,A,2500.8091700,N,12132.4750800,E,0.07,332.18,260623,,,D,V*09
$GPHDT,,T*1B
$GNACCURACY,3.1*14
$GNGGA,111737.700,2500.8091500,N,12132.4750800,E,2,65,0.42,19.76,M,15.25,M,2,3335*70
$GNRMC,111737.700,A,2500.8091500,N,12132.4750800,E,0.07,332.18,260623,,,D,V*0A
$GPHDT,,T*1B
$GNACCURACY,3.1*14
$GNGGA,111737.800,2500.8091400,N,12132.4750800,E,2,65,0.42,19.76,M,15.25,M,2,3335*7E
$GNRMC,111737.800,A,2500.8091400,N,12132.4750800,E,0.08,332.18,260623,,,D,V*0B
$GPHDT,,T*1B
$GNACCURACY,3.1*14
$GNGGA,111737.900,2500.8091200,N,12132.4750900,E,2,65,0.42,19.75,M,15.25,M,2,3335*7B
$GNRMC,111737.900,A,2500.8091200,N,12132.4750900,E,0.08,332.18,260623,,,D,V*0D
$GPHDT,,T*1B
$GNACCURACY,3.1*14
$GNGGA,111738.000,2500.8091100,N,12132.4751000,E,2,65,0.42,19.75,M,15.25,M,3,3335*77
$GNRMC,111738.000,A,2500.8091100,N,12132.4751000,E,0.07,332.18,260623,,,D,V*0F
$GPHDT,,T*1B
$GNACCURACY,3.1*14
$GNGGA,111738.100,2500.8091000,N,12132.4751000,E,2,66,0.42,19.74,M,15.25,M,3,3335*75
$GNRMC,111738.100,A,2500.8091000,N,12132.4751000,E,0.07,332.18,260623,,,D,V*0F
$GPHDT,,T*1B
$GNGSA,A,3,24,196,199,18,23,15,195,194,05,12,10,13,0.68,0.42,0.54,1*09
$GNGSA,A,3,80,70,85,73,86,71,79,69,,,,,0.68,0.42,0.54,2*04
$GNGSA,A,3,13,08,07,26,15,02,30,03,,,,,0.68,0.42,0.54,3*05
$GNGSA,A,3,38,08,39,13,16,06,46,09,19,20,37,29,0.68,0.42,0.54,4*09
$GNGSA,A,3,35,36,,,,,,,,,,,0.68,0.42,0.54,4*0E
$GPGSV,4,1,16,24,78,052,41,196,74,062,39,199,60,167,40,50,60,167,43,1*69
$GPGSV,4,2,16,18,60,255,32,23,47,336,35,15,39,043,23,195,35,179,26,1*53
$GPGSV,4,3,16,194,29,139,44,05,22,115,33,12,18,144,26,10,15,317,38,1*5C
$GPGSV,4,4,16,13,11,054,23,32,07,266,22,25,06,178,,29,03,199,,1*63
$GPGSV,3,1,09,24,78,052,45,196,74,062,43,18,60,255,39,199,60,167,44,8*67
$GPGSV,3,2,09,23,47,336,35,195,35,179,26,194,29,139,39,10,15,317,38,8*6A
$GPGSV,3,3,09,32,07,266,24,8*56
$GLGSV,3,1,09,80,48,085,36,70,40,004,28,85,38,251,41,73,33,161,43,1*72
$GLGSV,3,2,09,86,26,307,44,71,20,309,41,79,14,035,30,69,14,069,27,1*7B
$GLGSV,3,3,09,84,12,192,,1*44
$GAGSV,3,1,09,13,59,237,21,08,48,021,41,07,43,299,31,26,30,310,39,7*7E
$GAGSV,3,2,09,15,26,174,38,02,25,089,13,30,23,146,37,03,12,062,25,7*72
$GAGSV,3,3,09,25,04,045,,7*48
$GAGSV,2,1,08,13,59,237,28,08,48,021,43,07,43,299,34,26,30,310,31,1*7E
$GAGSV,2,2,08,15,26,174,32,02,25,089,34,30,23,146,38,03,12,062,21,1*70
$GBGSV,4,1,15,38,83,091,39,08,77,006,39,39,72,277,36,13,67,337,41,1*78
$GBGSV,4,2,15,16,66,252,34,06,65,248,32,46,58,119,41,09,49,235,26,1*7C
$GBGSV,4,3,15,19,47,340,34,20,44,058,36,36,31,184,18,37,25,050,24,1*77
$GBGSV,4,4,15,29,22,214,27,35,22,273,26,22,09,298,34,1*42
$GBGSV,3,1,10,38,83,091,39,39,72,277,31,46,58,119,46,19,47,340,33,4*75
$GBGSV,3,2,10,20,44,058,34,36,31,184,27,37,25,050,22,29,22,214,18,4*77
$GBGSV,3,3,10,35,22,273,35,22,09,298,29,4*75
$GNACCURACY,3.1*14
$PAIRSAT,1,35,1,0,200,2,0,200,3,0,200,4,0,200,5,0,201,6,0,200,7,0,200,8,0,200,9,0,200,10,0,221,11,0,200,12,0,201,13,0,201,14,0,200,15,0,201,16,0,200,17,0,200,18,0,221,19,0,200,20,0,200,21,0,200,23,0,221,24,0,221,25,0,200,26,0,200,27,0,200,28,0,200,29,0,200,30,0,200,31,0,200,32,0,200,194,0,621,195,0,621,196,0,620,199,0,621*6B
$PAIRSAT,2,23,65,0,200,67,0,200,68,0,200,69,0,201,70,0,201,71,0,201,72,0,200,73,0,201,74,0,200,75,0,200,76,0,200,77,0,200,78,0,200,79,0,201,80,0,201,81,0,200,82,0,200,83,0,200,84,0,200,85,0,201,86,0,201,87,0,200,88,0,200*53
$PAIRSAT,3,23,2,0,1221,3,0,1221,4,0,1200,5,0,200,7,0,1221,8,0,1221,9,0,1200,10,0,1200,11,0,1200,12,0,1200,13,0,1221,15,0,1221,19,0,1200,21,0,1200,24,0,1200,25,0,1200,26,0,1221,27,0,1200,30,0,1221,31,0,1200,33,0,1200,34,0,1200,36,0,1200*6A
$PAIRSAT,4,50,1,0,200,2,0,200,3,0,200,4,0,200,5,0,200,6,0,201,7,0,200,8,0,201,9,0,201,10,0,200,11,0,200,12,0,200,13,0,201,14,0,200,15,0,200,16,0,201,19,0,621,20,0,621,21,0,600,22,0,621,23,0,600,24,0,600,25,0,600,26,0,600,27,0,600,28,0,600,29,0,621,30,0,600,31,0,200,32,0,600,33,0,600,34,0,600,35,0,621,36,0,621,37,0,621,38,0,621,39,0,621,40,0,600,41,0,600,42,0,600,43,0,600,44,0,600,45,0,600,46,0,621,56,0,200,57,0,200,58,0,200,59,0,600,60,0,600,61,0,600*41
$PAIRDGP,8,5,10,12,13,15,18,23,24*72
$GNGGA,111738.200,2500.8090900,N,12132.4751000,E,2,66,0.42,19.74,M,15.25,M,3,3335*7E
$GNRMC,111738.200,A,2500.8090900,N,12132.4751000,E,0.06,332.18,260623,,,D,V*05
$GPHDT,,T*1B
$GNACCURACY,3.1*14
$GNGGA,111738.300,2500.8090700,N,12132.4751000,E,2,66,0.42,19.73,M,15.25,M,3,3335*76
$GNRMC,111738.300,A,2500.8090700,N,12132.4751000,E,0.06,332.18,260623,,,D,V*0A
$GPHDT,,T*1B
$GNACCURACY,3.1*14
$GNGGA,111738.400,2500.8090600,N,12132.4751100,E,2,66,0.42,19.73,M,15.25,M,3,3335*71
$GNRMC,111738.400,A,2500.8090600,N,12132.4751100,E,0.05,332.18,260623,,,D,V*0E
$GPHDT,,T*1B
$GNACCURACY,3.1*14
$GNGGA,111738.500,2500.8090500,N,12132.4751100,E,2,66,0.42,19.72,M,15.25,M,3,3335*72
$GNRMC,111738.500,A,2500.8090500,N,12132.4751100,E,0.05,332.18,260623,,,D,V*0C
$GPHDT,,T*1B
$GNACCURACY,3.1*14
$GNGGA,111738.600,2500.8090400,N,12132.4751100,E,2,66,0.42,19.72,M,15.25,M,3,3335*70
$GNRMC,111738.600,A,2500.8090400,N,12132.4751100,E,0.05,332.18,260623,,,D,V*0E
$GPHDT,,T*1B
$GNACCURACY,3.1*14
$GNGGA,111738.700,2500.8090200,N,12132.4751200,E,2,66,0.42,19.71,M,15.25,M,3,3335*77
$GNRMC,111738.700,A,2500.8090200,N,12132.4751200,E,0.05,332.18,260623,,,D,V*0A
$GPHDT,,T*1B
$GNACCURACY,3.1*14
$GNGGA,111738.800,2500.8090100,N,12132.4751300,E,2,66,0.42,19.70,M,15.25,M,3,3335*7B
$GNRMC,111738.800,A,2500.8090100,N,12132.4751300,E,0.04,332.18,260623,,,D,V*06
$GPHDT,,T*1B
$GNACCURACY,3.1*14
$GNGGA,111738.900,2500.8090000,N,12132.4751200,E,2,66,0.42,19.70,M,15.25,M,3,3335*7A
$GNRMC,111738.900,A,2500.8090000,N,12132.4751200,E,0.05,332.18,260623,,,D,V*06
$GPHDT,,T*1B
$GNACCURACY,3.1*14
$GNGGA,111739.000,2500.8089900,N,12132.4751300,E,2,66,0.42,19.69,M,15.25,M,3,3335*7A
$GNRMC,111739.000,A,2500.8089900,N,12132.4751300,E,0.04,332.18,260623,,,D,V*0F
$GPHDT,,T*1B
$GNACCURACY,3.1*14
$GNGGA,111739.100,2500.8089700,N,12132.4751300,E,2,66,0.42,19.69,M,15.25,M,3,3335*75
$GNRMC,111739.100,A,2500.8089700,N,12132.4751300,E,0.04,332.18,260623,,,D,V*00
$GPHDT,,T*1B
$GNGSA,A,3,24,196,199,18,23,15,195,194,05,12,10,13,0.68,0.42,0.54,1*09
$GNGSA,A,3,80,70,85,73,86,71,79,69,,,,,0.68,0.42,0.54,2*04
$GNGSA,A,3,13,08,07,26,15,02,30,03,,,,,0.68,0.42,0.54,3*05
$GNGSA,A,3,38,08,39,13,16,06,46,09,19,20,37,29,0.68,0.42,0.54,4*09
$GNGSA,A,3,35,36,,,,,,,,,,,0.68,0.42,0.54,4*0E
$GPGSV,4,1,16,24,78,052,41,196,74,062,39,199,60,167,40,50,60,167,43,1*69
$GPGSV,4,2,16,18,60,255,32,23,47,336,35,15,39,043,23,195,35,179,28,1*5D
$GPGSV,4,3,16,194,29,139,43,05,22,115,32,12,18,144,26,10,15,317,38,1*5A
$GPGSV,4,4,16,13,11,054,23,32,07,266,22,25,06,178,,29,03,199,,1*63
$GPGSV,3,1,09,24,78,052,45,196,74,062,43,18,60,255,39,199,60,167,44,8*67
$GPGSV,3,2,09,23,47,336,35,195,35,179,26,194,29,139,39,10,15,317,38,8*6A
$GPGSV,3,3,09,32,07,266,24,8*56
$GLGSV,3,1,09,80,48,085,36,70,40,004,28,85,38,251,41,73,33,161,43,1*72
$GLGSV,3,2,09,86,26,307,44,71,20,310,41,79,14,035,32,69,14,069,29,1*7F
$GLGSV,3,3,09,84,12,192,,1*44
$GAGSV,3,1,09,13,59,237,23,08,48,021,40,07,43,299,31,26,30,310,39,7*7D
$GAGSV,3,2,09,15,26,174,38,02,25,089,13,30,23,146,37,03,12,062,24,7*73
$GAGSV,3,3,09,25,04,045,,7*48
$GAGSV,2,1,08,13,59,237,27,08,48,021,44,07,43,299,33,26,30,310,31,1*71
$GAGSV,2,2,08,15,26,174,31,02,25,089,33,30,23,146,38,03,12,062,21,1*74
$GBGSV,4,1,15,38,83,091,40,08,77,006,39,39,72,277,36,13,67,337,41,1*76
$GBGSV,4,2,15,16,66,252,34,06,65,248,32,46,58,119,41,09,49,235,26,1*7C
$GBGSV,4,3,15,19,47,340,34,20,44,058,36,36,31,184,16,37,25,050,23,1*7E
$GBGSV,4,4,15,29,22,214,27,35,22,273,27,22,09,298,34,1*43
$GBGSV,3,1,10,38,83,091,39,39,72,277,31,46,58,119,46,19,47,340,33,4*75
$GBGSV,3,2,10,20,44,058,34,36,31,184,27,37,25,050,22,29,22,214,18,4*77
$GBGSV,3,3,10,35,22,273,35,22,09,298,29,4*75
$GNACCURACY,3.1*14
$PAIRSAT,1,35,1,0,200,2,0,200,3,0,200,4,0,200,5,0,201,6,0,200,7,0,200,8,0,200,9,0,200,10,0,221,11,0,200,12,0,201,13,0,201,14,0,200,15,0,201,16,0,200,17,0,200,18,0,221,19,0,200,20,0,200,21,0,200,23,0,221,24,0,221,25,0,200,26,0,200,27,0,200,28,0,200,29,0,200,30,0,200,31,0,200,32,0,200,194,0,621,195,0,621,196,0,620,199,0,621*6B
$PAIRSAT,2,23,65,0,200,67,0,200,68,0,200,69,0,201,70,0,201,71,0,201,72,0,200,73,0,201,74,0,200,75,0,200,76,0,200,77,0,200,78,0,200,79,0,201,80,0,201,81,0,200,82,0,200,83,0,200,84,0,200,85,0,201,86,0,201,87,0,200,88,0,200*53
$PAIRSAT,3,23,2,0,1221,3,0,1221,4,0,1200,5,0,200,7,0,1221,8,0,1221,9,0,1200,10,0,1200,11,0,1200,12,0,1200,13,0,1221,15,0,1221,19,0,1200,21,0,1200,24,0,1200,25,0,1200,26,0,1221,27,0,1200,30,0,1221,31,0,1200,33,0,1200,34,0,1200,36,0,1200*6A
$PAIRSAT,4,50,1,0,200,2,0,200,3,0,200,4,0,200,5,0,200,6,0,201,7,0,200,8,0,201,9,0,201,10,0,200,11,0,200,12,0,200,13,0,201,14,0,200,15,0,200,16,0,201,19,0,621,20,0,621,21,0,600,22,0,621,23,0,600,24,0,600,25,0,600,26,0,600,27,0,600,28,0,600,29,0,621,30,0,600,31,0,200,32,0,600,33,0,600,34,0,600,35,0,621,36,0,621,37,0,621,38,0,621,39,0,621,40,0,600,41,0,600,42,0,600,43,0,600,44,0,600,45,0,600,46,0,621,56,0,200,57,0,200,58,0,200,59,0,600,60,0,600,61,0,600*41
$PAIRDGP,8,5,10,12,13,15,18,23,24*72
$GNGGA,111739.200,2500.8089600,N,12132.4751300,E,2,66,0.42,19.68,M,15.25,M,3,3335*76
$GNRMC,111739.200,A,2500.8089600,N,12132.4751300,E,0.04,332.18,260623,,,D,V*02
$GPHDT,,T*1B
$GNACCURACY,3.1*14
$GNGGA,111739.300,2500.8089500,N,12132.4751300,E,2,66,0.42,19.68,M,15.25,M,1,3335*76
$GNRMC,111739.300,A,2500.8089500,N,12132.4751300,E,0.03,332.18,260623,,,D,V*07
$GPHDT,,T*1B
$GNACCURACY,3.1*14
$GNGGA,111739.400,2500.8089400,N,12132.4751300,E,2,66,0.42,19.67,M,15.25,M,1,3335*7F
$GNRMC,111739.400,A,2500.8089400,N,12132.4751300,E,0.03,332.18,260623,,,D,V*01
$GPHDT,,T*1B
$GNACCURACY,3.1*14
$GNGGA,111739.500,2500.8089300,N,12132.4751300,E,2,66,0.42,19.67,M,15.25,M,0,3335*78
$GNRMC,111739.500,A,2500.8089300,N,12132.4751300,E,0.03,332.18,260623,,,D,V*07
$GPHDT,,T*1B
$GNACCURACY,3.1*14
$GNGGA,111739.600,2500.8089200,N,12132.4751300,E,2,66,0.42,19.66,M,15.25,M,0,3335*7B
$GNRMC,111739.600,A,2500.8089200,N,12132.4751300,E,0.04,332.18,260623,,,D,V*02
$GPHDT,,T*1B
$GNACCURACY,3.1*14
$GNGGA,111739.700,2500.8089100,N,12132.4751300,E,2,66,0.42,19.65,M,15.25,M,0,3335*7A
$GNRMC,111739.700,A,2500.8089100,N,12132.4751300,E,0.04,332.18,260623,,,D,V*00
$GPHDT,,T*1B
$GNACCURACY,3.1*14
$GNGGA,111739.800,2500.8089000,N,12132.4751300,E,2,66,0.42,19.65,M,15.25,M,0,3335*74
$GNRMC,111739.800,A,2500.8089000,N,12132.4751300,E,0.04,332.18,260623,,,D,V*0E
$GPHDT,,T*1B
$GNACCURACY,3.1*14
$GNGGA,111739.900,2500.8088800,N,12132.4751300,E,2,66,0.42,19.64,M,15.25,M,0,3335*7D
$GNRMC,111739.900,A,2500.8088800,N,12132.4751300,E,0.05,332.18,260623,,,D,V*07
$GPHDT,,T*1B
$GNACCURACY,3.0*15
$GNGGA,111740.000,2500.8088700,N,12132.4751300,E,2,65,0.42,19.63,M,15.25,M,1,3335*70
$GNRMC,111740.000,A,2500.8088700,N,12132.4751300,E,0.05,332.18,260623,,,D,V*0F
$GPHDT,,T*1B
$GNACCURACY,3.0*15
$GNGGA,111740.100,2500.8088600,N,12132.4751400,E,2,66,0.42,19.62,M,15.25,M,1,3335*75
$GNRMC,111740.100,A,2500.8088600,N,12132.4751400,E,0.04,332.18,260623,,,D,V*09
$GPHDT,,T*1B
$GNGSA,A,3,24,196,199,18,23,15,195,194,05,12,10,13,0.68,0.42,0.54,1*09
$GNGSA,A,3,80,70,85,73,86,71,79,69,,,,,0.68,0.42,0.54,2*04
$GNGSA,A,3,13,08,07,26,15,02,30,03,,,,,0.68,0.42,0.54,3*05
$GNGSA,A,3,38,08,39,13,16,06,46,09,19,20,37,29,0.68,0.42,0.54,4*09
$GNGSA,A,3,35,36,,,,,,,,,,,0.68,0.42,0.54,4*0E
$GPGSV,4,1,16,24,78,052,41,196,74,062,39,199,60,167,40,50,60,167,43,1*69
$GPGSV,4,2,16,18,60,255,32,23,47,336,35,15,39,043,23,195,35,179,30,1*54
$GPGSV,4,3,16,194,29,139,43,05,22,115,32,12,18,144,25,10,15,317,38,1*59
$GPGSV,4,4,16,13,11,054,22,32,07,266,22,25,06,178,,29,03,199,,1*62
$GPGSV,3,1,09,24,78,052,45,196,74,062,43,18,60,255,39,199,60,167,44,8*67
$GPGSV,3,2,09,23,47,336,35,195,35,179,25,194,29,139,39,10,15,317,38,8*69
$GPGSV,3,3,09,32,07,266,23,8*51
$GLGSV,2,1,08,80,48,084,36,70,40,004,29,85,38,251,41,73,33,161,43,1*72
$GLGSV,2,2,08,86,26,307,44,71,20,310,41,79,14,035,32,69,14,069,28,1*7E
$GAGSV,3,1,09,13,59,237,23,08,48,021,40,07,43,299,31,26,30,310,40,7*73
$GAGSV,3,2,09,15,26,174,38,02,25,089,13,30,23,146,37,03,12,062,22,7*75
$GAGSV,3,3,09,25,04,045,,7*48
$GAGSV,2,1,08,13,59,237,27,08,48,021,44,07,43,299,33,26,30,310,31,1*71
$GAGSV,2,2,08,15,26,174,32,02,25,089,33,30,23,146,37,03,12,062,21,1*78
$GBGSV,4,1,15,38,83,091,40,08,77,006,39,39,72,277,36,13,67,337,40,1*77
$GBGSV,4,2,15,16,66,252,34,06,65,248,32,46,58,119,42,09,49,235,26,1*7F
$GBGSV,4,3,15,19,47,340,35,20,44,058,36,36,31,184,16,37,25,050,23,1*7F
$GBGSV,4,4,15,29,22,214,28,35,22,273,27,22,09,298,34,1*4C
$GBGSV,3,1,10,38,83,091,39,39,72,277,31,46,58,119,46,19,47,340,33,4*75
$GBGSV,3,2,10,20,44,058,33,36,31,184,25,37,25,050,21,29,22,214,18,4*71
$GBGSV,3,3,10,35,22,273,35,22,09,298,30,4*7D
$GNACCURACY,3.0*15
$PAIRSAT,1,35,1,0,200,2,0,200,3,0,200,4,0,200,5,0,201,6,0,200,7,0,200,8,0,200,9,0,200,10,0,221,11,0,200,12,0,201,13,0,201,14,0,200,15,0,201,16,0,200,17,0,200,18,0,221,19,0,200,20,0,200,21,0,200,23,0,221,24,0,221,25,0,200,26,0,200,27,0,200,28,0,200,29,0,200,30,0,200,31,0,200,32,0,200,194,0,621,195,0,621,196,0,620,199,0,621*6B
$PAIRSAT,2,23,65,0,200,67,0,200,68,0,200,69,0,201,70,0,201,71,0,201,72,0,200,73,0,201,74,0,200,75,0,200,76,0,200,77,0,200,78,0,200,79,0,201,80,0,201,81,0,200,82,0,200,83,0,200,84,0,200,85,0,201,86,0,201,87,0,200,88,0,200*53
$PAIRSAT,3,23,2,0,1221,3,0,1221,4,0,1200,5,0,200,7,0,1221,8,0,1221,9,0,1200,10,0,1200,11,0,1200,12,0,1200,13,0,1221,15,0,1221,19,0,1200,21,0,1200,24,0,1200,25,0,1200,26,0,1221,27,0,1200,30,0,1221,31,0,1200,33,0,1200,34,0,1200,36,0,1200*6A
$PAIRSAT,4,50,1,0,200,2,0,200,3,0,200,4,0,200,5,0,200,6,0,201,7,0,200,8,0,201,9,0,201,10,0,200,11,0,200,12,0,200,13,0,201,14,0,200,15,0,200,16,0,201,19,0,621,20,0,621,21,0,600,22,0,621,23,0,600,24,0,600,25,0,600,26,0,600,27,0,600,28,0,600,29,0,621,30,0,600,31,0,200,32,0,600,33,0,600,34,0,600,35,0,621,36,0,621,37,0,621,38,0,621,39,0,621,40,0,600,41,0,600,42,0,600,43,0,600,44,0,600,45,0,600,46,0,621,56,0,200,57,0,200,58,0,200,59,0,600,60,0,600,61,0,600*41
$PAIRDGP,8,5,10,12,13,15,18,23,24*72
$GNGGA,111740.200,2500.8088500,N,12132.4751400,E,2,66,0.42,19.61,M,15.25,M,1,3335*76
$GNRMC,111740.200,A,2500.8088500,N,12132.4751400,E,0.04,332.18,260623,,,D,V*09
$GPHDT,,T*1B
$GNACCURACY,3.0*15
$GNGGA,111740.300,2500.8088400,N,12132.4751500,E,2,66,0.42,19.61,M,15.25,M,1,3335*77
$GNRMC,111740.300,A,2500.8088400,N,12132.4751500,E,0.04,332.18,260623,,,D,V*08
$GPHDT,,T*1B
$GNACCURACY,3.0*15
$GNGGA,111740.400,2500.8088300,N,12132.4751500,E,2,66,0.42,19.60,M,15.25,M,1,3335*76
$GNRMC,111740.400,A,2500.8088300,N,12132.4751500,E,0.04,332.18,260623,,,D,V*08
$GPHDT,,T*1B
$GNACCURACY,3.0*15
$GNGGA,111740.500,2500.8088200,N,12132.4751600,E,2,66,0.42,19.59,M,15.25,M,1,3335*7F
$GNRMC,111740.500,A,2500.8088200,N,12132.4751600,E,0.04,332.18,260623,,,D,V*0B
$GPHDT,,T*1B
$GNACCURACY,3.0*15
$GNGGA,111740.600,2500.8088100,N,12132.4751600,E,2,66,0.42,19.58,M,15.25,M,1,3335*7E
$GNRMC,111740.600,A,2500.8088100,N,12132.4751600,E,0.04,332.18,260623,,,D,V*0B
$GPHDT,,T*1B
$GNACCURACY,3.0*15
$GNGGA,111740.700,2500.8088000,N,12132.4751700,E,2,66,0.42,19.57,M,15.25,M,1,3335*70
$GNRMC,111740.700,A,2500.8088000,N,12132.4751700,E,0.04,332.18,260623,,,D,V*0A
$GPHDT,,T*1B
$GNACCURACY,3.0*15
$GNGGA,111740.800,2500.8087900,N,12132.4751700,E,2,66,0.42,19.57,M,15.25,M,1,3335*79
$GNRMC,111740.800,A,2500.8087900,N,12132.4751700,E,0.04,332.18,260623,,,D,V*03
$GPHDT,,T*1B
$GNACCURACY,3.0*15
$GNGGA,111740.900,2500.8087800,N,12132.4751700,E,2,66,0.42,19.56,M,15.25,M,1,3335*78
$GNRMC,111740.900,A,2500.8087800,N,12132.4751700,E,0.04,332.18,260623,,,D,V*03
$GPHDT,,T*1B
$GNACCURACY,3.0*15
$GNGGA,111741.000,2500.8087800,N,12132.4751800,E,2,66,0.42,19.55,M,15.25,M,2,3335*7F
$GNRMC,111741.000,A,2500.8087800,N,12132.4751800,E,0.04,332.18,260623,,,D,V*04
$GPHDT,,T*1B
$GNACCURACY,3.0*15
$GNGGA,111741.100,2500.8087600,N,12132.4751900,E,2,66,0.42,19.55,M,15.25,M,2,3335*71
$GNRMC,111741.100,A,2500.8087600,N,12132.4751900,E,0.03,332.18,260623,,,D,V*0D
$GPHDT,,T*1B
$GNGSA,A,3,24,196,199,18,23,15,195,194,05,12,10,13,0.68,0.42,0.54,1*09
$GNGSA,A,3,80,70,85,73,86,71,79,69,,,,,0.68,0.42,0.54,2*04
$GNGSA,A,3,13,08,07,26,15,02,30,03,,,,,0.68,0.42,0.54,3*05
$GNGSA,A,3,38,08,39,13,16,06,46,09,19,20,37,29,0.68,0.42,0.54,4*09
$GNGSA,A,3,35,36,,,,,,,,,,,0.68,0.42,0.54,4*0E
$GPGSV,4,1,16,24,78,052,41,196,74,062,39,199,60,167,40,50,60,167,43,1*69
$GPGSV,4,2,16,18,60,255,32,23,47,336,35,15,39,043,21,195,35,179,28,1*5F
$GPGSV,4,3,16,194,29,139,43,05,22,115,32,12,18,144,26,10,15,317,38,1*5A
$GPGSV,4,4,16,13,11,054,22,32,07,266,22,25,06,178,,29,03,199,,1*62
$GPGSV,3,1,09,24,78,052,45,196,74,062,43,18,60,255,39,199,60,167,44,8*67
$GPGSV,3,2,09,23,47,336,35,195,35,179,25,194,29,139,39,10,15,317,38,8*69
$GPGSV,3,3,09,32,07,266,23,8*51
$GLGSV,2,1,08,80,48,084,37,70,40,004,29,85,38,251,40,73,33,161,43,1*72
$GLGSV,2,2,08,86,26,307,44,71,20,310,41,79,14,035,31,69,14,069,29,1*7C
$GAGSV,3,1,09,13,59,237,21,08,48,021,40,07,43,299,31,26,30,310,40,7*71
$GAGSV,3,2,09,15,26,174,38,02,25,089,14,30,23,146,37,03,12,062,23,7*73
$GAGSV,3,3,09,25,04,045,,7*48
$GAGSV,2,1,08,13,59,237,28,08,48,021,44,07,43,299,33,26,30,310,32,1*7D
$GAGSV,2,2,08,15,26,174,31,02,25,089,34,30,23,146,39,03,12,062,23,1*70
$GBGSV,4,1,15,38,83,091,40,08,77,006,39,39,72,277,36,13,67,337,40,1*77
$GBGSV,4,2,15,16,66,252,34,06,65,248,32,46,58,119,42,09,49,235,25,1*7C
$GBGSV,4,3,15,19,47,340,34,20,44,058,36,36,31,184,15,37,25,050,23,1*7D
$GBGSV,4,4,15,29,22,214,28,35,22,273,26,22,09,298,34,1*4D
$GBGSV,3,1,10,38,83,091,39,39,72,277,31,46,58,119,46,19,47,340,33,4*75
$GBGSV,3,2,10,20,44,058,33,36,31,184,26,37,25,050,21,29,22,214,18,4*72
$GBGSV,3,3,10,35,22,273,35,22,09,298,30,4*7D
$GNACCURACY,3.0*15
$PAIRSAT,1,35,1,0,200,2,0,200,3,0,200,4,0,200,5,0,201,6,0,200,7,0,200,8,0,200,9,0,200,10,0,221,11,0,200,12,0,201,13,0,201,14,0,200,15,0,201,16,0,200,17,0,200,18,0,221,19,0,200,20,0,200,21,0,200,23,0,221,24,0,221,25,0,200,26,0,200,27,0,200,28,0,200,29,0,200,30,0,200,31,0,200,32,0,200,194,0,621,195,0,621,196,0,620,199,0,621*6B
$PAIRSAT,2,23,65,0,200,67,0,200,68,0,200,69,0,201,70,0,201,71,0,201,72,0,200,73,0,201,74,0,200,75,0,200,76,0,200,77,0,200,78,0,200,79,0,201,80,0,201,81,0,200,82,0,200,83,0,200,84,0,200,85,0,201,86,0,201,87,0,200,88,0,200*53
$PAIRSAT,3,23,2,0,1221,3,0,1221,4,0,1200,5,0,200,7,0,1221,8,0,1221,9,0,1200,10,0,1200,11,0,1200,12,0,1200,13,0,1221,15,0,1221,19,0,1200,21,0,1200,24,0,1200,25,0,1200,26,0,1221,27,0,1200,30,0,1221,31,0,1200,33,0,1200,34,0,1200,36,0,1200*6A
$PAIRSAT,4,50,1,0,200,2,0,200,3,0,200,4,0,200,5,0,200,6,0,201,7,0,200,8,0,201,9,0,201,10,0,200,11,0,200,12,0,200,13,0,201,14,0,200,15,0,200,16,0,201,19,0,621,20,0,621,21,0,600,22,0,621,23,0,600,24,0,600,25,0,600,26,0,600,27,0,600,28,0,600,29,0,621,30,0,600,31,0,200,32,0,600,33,0,600,34,0,600,35,0,621,36,0,621,37,0,621,38,0,621,39,0,621,40,0,600,41,0,600,42,0,600,43,0,600,44,0,600,45,0,600,46,0,621,56,0,200,57,0,200,58,0,200,59,0,600,60,0,600,61,0,600*41
$PAIRDGP,8,5,10,12,13,15,18,23,24*72
$GNGGA,111741.200,2500.8087500,N,12132.4751900,E,2,66,0.42,19.54,M,15.25,M,1,3335*73
$GNRMC,111741.200,A,2500.8087500,N,12132.4751900,E,0.04,332.18,260623,,,D,V*0A
$GPHDT,,T*1B
$GNACCURACY,3.0*15
$GNGGA,111741.300,2500.8087500,N,12132.4751900,E,2,66,0.42,19.53,M,15.25,M,1,3335*75
$GNRMC,111741.300,A,2500.8087500,N,12132.4751900,E,0.04,332.18,260623,,,D,V*0B
$GPHDT,,T*1B
$GNACCURACY,3.0*15
$GNGGA,111741.400,2500.8087400,N,12132.4752000,E,2,66,0.42,19.53,M,15.25,M,1,3335*79
$GNRMC,111741.400,A,2500.8087400,N,12132.4752000,E,0.04,332.18,260623,,,D,V*07
$GPHDT,,T*1B
$GNACCURACY,3.0*15
$GNGGA,111741.500,2500.8087300,N,12132.4752000,E,2,66,0.42,19.52,M,15.25,M,1,3335*7E
$GNRMC,111741.500,A,2500.8087300,N,12132.4752000,E,0.04,332.18,260623,,,D,V*01
$GPHDT,,T*1B
$GNACCURACY,3.0*15
$GNGGA,111741.600,2500.8087200,N,12132.4752000,E,2,66,0.42,19.51,M,15.25,M,1,3335*7F
$GNRMC,111741.600,A,2500.8087200,N,12132.4752000,E,0.04,332.18,260623,,,D,V*03
$GPHDT,,T*1B
$GNACCURACY,3.0*15
$GNGGA,111741.700,2500.8087100,N,12132.4752000,E,2,66,0.42,19.51,M,15.25,M,1,3335*7D
$GNRMC,111741.700,A,2500.8087100,N,12132.4752000,E,0.04,332.18,260623,,,D,V*01
$GPHDT,,T*1B
$GNACCURACY,3.0*15
$GNGGA,111741.800,2500.8087000,N,12132.4752100,E,2,66,0.42,19.50,M,15.25,M,1,3335*73
$GNRMC,111741.800,A,2500.8087000,N,12132.4752100,E,0.04,332.18,260623,,,D,V*0E
$GPHDT,,T*1B
$GNACCURACY,3.0*15
$GNGGA,111741.900,2500.8086900,N,12132.4752100,E,2,66,0.42,19.49,M,15.25,M,1,3335*72
$GNRMC,111741.900,A,2500.8086900,N,12132.4752100,E,0.05,332.18,260623,,,D,V*06
$GPHDT,,T*1B
$GNACCURACY,3.0*15
$GNGGA,111742.000,2500.8086700,N,12132.4752100,E,2,65,0.42,19.49,M,15.25,M,2,3335*76
$GNRMC,111742.000,A,2500.8086700,N,12132.4752100,E,0.04,332.18,260623,,,D,V*03
$GPHDT,,T*1B
$GNACCURACY,3.0*15
$GNGGA,111742.100,2500.8086700,N,12132.4752100,E,2,65,0.42,19.48,M,15.25,M,2,3335*76
$GNRMC,111742.100,A,2500.8086700,N,12132.4752100,E,0.04,332.18,260623,,,D,V*02
$GPHDT,,T*1B
$GNGSA,A,3,24,196,199,18,23,15,195,194,05,12,10,,0.69,0.42,0.55,1*0B
$GNGSA,A,3,80,70,85,73,86,71,79,69,,,,,0.69,0.42,0.55,2*04
$GNGSA,A,3,13,08,07,26,15,02,30,03,,,,,0.69,0.42,0.55,3*05
$GNGSA,A,3,38,08,39,13,16,06,46,09,19,20,37,29,0.69,0.42,0.55,4*09
$GNGSA,A,3,35,36,,,,,,,,,,,0.69,0.42,0.55,4*0E
$GPGSV,4,1,16,24,78,052,41,196,74,062,39,199,60,167,40,50,60,167,43,1*69
$GPGSV,4,2,16,18,60,255,32,23,47,336,35,15,39,043,19,195,35,179,28,1*54
$GPGSV,4,3,16,194,29,139,43,05,22,115,31,12,18,144,26,10,15,317,38,1*59
$GPGSV,4,4,16,13,11,054,21,32,07,266,22,25,06,178,,29,03,199,,1*61
$GPGSV,3,1,09,24,78,052,45,196,74,062,43,18,60,255,39,199,60,167,44,8*67
$GPGSV,3,2,09,23,47,336,35,195,35,179,26,194,29,139,39,10,15,317,38,8*6A
$GPGSV,3,3,09,32,07,266,24,8*56
$GLGSV,2,1,08,80,48,084,38,70,40,004,28,85,38,251,40,73,33,161,43,1*7C
$GLGSV,2,2,08,86,26,307,44,71,20,310,41,79,14,035,30,69,14,069,29,1*7D
$GAGSV,3,1,09,13,59,237,20,08,48,021,40,07,43,299,32,26,30,310,40,7*73
$GAGSV,3,2,09,15,26,174,38,02,25,089,16,30,23,146,37,03,12,062,23,7*71
$GAGSV,3,3,09,25,04,045,,7*48
$GAGSV,2,1,08,13,59,237,29,08,48,021,42,07,43,299,33,26,30,310,32,1*7A
$GAGSV,2,2,08,15,26,174,30,02,25,089,34,30,23,146,38,03,12,062,21,1*72
$GBGSV,4,1,15,38,83,091,40,08,77,006,39,39,72,277,35,13,67,336,40,1*75
$GBGSV,4,2,15,16,66,252,33,06,65,248,32,46,58,119,42,09,49,235,25,1*7B
$GBGSV,4,3,15,19,47,340,34,20,44,058,37,36,31,184,13,37,25,050,22,1*7B
$GBGSV,4,4,15,29,22,214,28,35,22,273,26,22,09,298,34,1*4D
$GBGSV,3,1,10,38,83,091,39,39,72,277,31,46,58,119,46,19,47,340,34,4*72
$GBGSV,3,2,10,20,44,058,33,36,31,184,26,37,25,050,20,29,22,214,18,4*73
$GBGSV,3,3,10,35,22,273,35,22,09,298,30,4*7D
$GNACCURACY,3.0*15
$PAIRSAT,1,35,1,0,200,2,0,200,3,0,200,4,0,200,5,0,201,6,0,200,7,0,200,8,0,200,9,0,200,10,0,221,11,0,200,12,0,201,13,0,201,14,0,200,15,0,201,16,0,200,17,0,200,18,0,221,19,0,200,20,0,200,21,0,200,23,0,221,24,0,221,25,0,200,26,0,200,27,0,200,28,0,200,29,0,200,30,0,200,31,0,200,32,0,200,194,0,621,195,0,621,196,0,620,199,0,621*6B
$PAIRSAT,2,23,65,0,200,67,0,200,68,0,200,69,0,201,70,0,201,71,0,201,72,0,200,73,0,201,74,0,200,75,0,200,76,0,200,77,0,200,78,0,200,79,0,201,80,0,201,81,0,200,82,0,200,83,0,200,84,0,200,85,0,201,86,0,201,87,0,200,88,0,200*53
$PAIRSAT,3,23,2,0,1221,3,0,1221,4,0,1200,5,0,200,7,0,1221,8,0,1221,9,0,1200,10,0