$FW : RTK35X,V1.1X0314AS,Lib20210517,1*54
$Tool : LOCOSYS , GNSS Firebird , v1.0.0.19*39
$---------------------------------------------------*2D
$GNACCURACY,3.0*15
$GNGGA,111542.600,2500.8062998,N,12132.4774118,E,2,64,0.43,6.479,M,15.25,M,1,3335*70
$GNRMC,111542.600,A,2500.8062998,N,12132.4774118,E,0.01,332.18,260623,,,D,V*0A
$GPHDT,46.755,T*00
$GNACCURACY,3.0*15
$GNGGA,111542.700,2500.8062998,N,12132.4774178,E,2,64,0.43,6.477,M,15.25,M,1,3335*79
$GNRMC,111542.700,A,2500.8062998,N,12132.4774178,E,0.01,332.18,260623,,,D,V*0D
$GPHDT,,T*1B
$GNACCURACY,3.1*14
$GNGGA,111542.800,2500.8063058,N,12132.4774238,E,2,64,0.43,6.481,M,15.25,M,1,3335*7C
$GNRMC,111542.800,A,2500.8063058,N,12132.4774238,E,0.01,332.18,260623,,,D,V*01
$GPHDT,47.226,T*00
$GNACCURACY,3.1*14
$GNGGA,111542.900,2500.8063118,N,12132.4774298,E,2,64,0.43,6.482,M,15.25,M,1,3335*71
$GNRMC,111542.900,A,2500.8063118,N,12132.4774298,E,0.01,332.18,260623,,,D,V*0F
$GPHDT,,T*1B
$GNACCURACY,3.1*14
$GNGGA,111543.000,2500.8063118,N,12132.4774358,E,2,64,0.43,6.483,M,15.25,M,2,3335*76
$GNRMC,111543.000,A,2500.8063118,N,12132.4774358,E,0.01,332.18,260623,,,D,V*0A
$GPHDT,46.986,T*00
$GNACCURACY,3.1*14
$GNGGA,111543.100,2500.8063178,N,12132.4774418,E,2,65,0.42,6.484,M,15.25,M,2,3335*75
$GNRMC,111543.100,A,2500.8063178,N,12132.4774418,E,0.01,332.18,260623,,,D,V*0E
$GPHDT,,T*1B
$GNGSA,A,3,24,196,199,18,23,15,195,194,05,12,10,13,0.68,0.42,0.54,1*09
$GNGSA,A,3,80,70,85,73,86,71,79,69,,,,,0.68,0.42,0.54,2*04
$GNGSA,A,3,13,08,07,26,15,02,30,03,,,,,0.68,0.42,0.54,3*05
$GNGSA,A,3,38,08,39,16,13,06,46,09,19,20,36,37,0.68,0.42,0.54,4*07
$GNGSA,A,3,29,35,,,,,,,,,,,0.68,0.42,0.54,4*00
$GPGSV,4,1,16,24,79,055,42,196,74,062,38,199,60,167,39,50,60,167,42,1*62
$GPGSV,4,2,16,18,60,257,38,23,46,335,25,15,39,042,30,195,36,179,20,1*5E
$GPGSV,4,3,16,194,29,140,41,05,22,114,34,12,17,145,18,10,14,316,38,1*52
$GPGSV,4,4,16,13,11,053,19,32,07,265,16,25,06,179,,29,03,200,,1*6B
$GPGSV,2,1,08,24,79,055,48,196,74,062,44,199,60,167,44,18,60,257,42,8*65
$GPGSV,2,2,08,23,46,335,32,195,36,179,24,194,29,140,46,10,14,316,39,8*69
$GLGSV,3,1,09,80,48,086,39,70,40,003,27,85,39,253,38,73,32,161,41,1*78
$GLGSV,3,2,09,86,25,308,38,71,20,309,28,79,15,036,23,69,15,068,16,1*71
$GLGSV,3,3,09,84,13,192,,1*45
$GAGSV,3,1,09,13,59,238,28,08,48,020,41,07,43,298,29,26,30,311,32,7*7B
$GAGSV,3,2,09,15,27,174,37,02,24,090,19,30,23,146,38,03,12,061,24,7*72
$GAGSV,3,3,09,25,04,046,,7*4B
$GAGSV,2,1,07,13,59,238,26,08,48,020,41,07,43,298,30,26,30,311,37,1*71
$GAGSV,2,2,07,15,27,174,37,02,24,090,32,30,23,146,41,1*4D
$GBGSV,4,1,15,38,83,087,39,08,76,006,38,39,72,275,35,16,66,251,35,1*78
$GBGSV,4,2,15,13,66,337,38,06,65,247,33,46,57,120,44,09,49,234,16,1*7B
$GBGSV,4,3,15,19,47,339,34,20,44,057,25,36,30,184,31,37,25,051,21,1*7A
$GBGSV,4,4,15,29,22,215,16,35,22,273,20,22,09,298,24,1*46
$GBGSV,3,1,10,38,83,087,37,39,72,275,31,46,57,120,45,19,47,339,35,4*70
$GBGSV,3,2,10,20,44,057,30,36,30,184,25,37,25,051,31,29,22,215,18,4*7D
$GBGSV,3,3,10,35,22,273,28,22,09,298,27,4*77
$GNACCURACY,3.1*14
$PAIRSAT,1,35,1,0,200,2,0,200,3,0,200,4,0,200,5,0,201,6,0,200,7,0,200,8,0,200,9,0,200,10,0,221,11,0,200,12,0,201,13,0,201,14,0,200,15,0,201,16,0,200,17,0,200,18,0,221,19,0,200,20,0,200,21,0,200,23,0,221,24,0,221,25,0,200,26,0,200,27,0,200,28,0,200,29,0,200,30,0,200,31,0,200,32,0,200,194,0,621,195,0,621,196,0,620,199,0,621*6B
$PAIRSAT,2,23,65,0,200,67,0,200,68,0,200,69,0,201,70,0,201,71,0,201,72,0,200,73,0,201,74,0,200,75,0,200,76,0,200,77,0,200,78,0,200,79,0,201,80,0,201,81,0,200,82,0,200,83,0,200,84,0,200,85,0,201,86,0,201,87,0,200,88,0,200*53
$PAIRSAT,3,23,2,0,1221,3,0,1221,4,0,1200,5,0,200,7,0,1221,8,0,1221,9,0,1200,10,0,1200,11,0,1200,12,0,1200,13,0,1221,15,0,1221,19,0,1200,21,0,1200,24,0,1200,25,0,1200,26,0,1221,27,0,1200,30,0,1221,31,0,1200,33,0,1200,34,0,1200,36,0,1200*6A
$PAIRSAT,4,50,1,0,200,2,0,200,3,0,200,4,0,200,5,0,200,6,0,201,7,0,200,8,0,201,9,0,201,10,0,200,11,0,200,12,0,200,13,0,201,14,0,200,15,0,200,16,0,201,19,0,621,20,0,621,21,0,600,22,0,621,23,0,600,24,0,600,25,0,600,26,0,600,27,0,600,28,0,600,29,0,621,30,0,600,31,0,200,32,0,600,33,0,600,34,0,600,35,0,621,36,0,621,37,0,621,38,0,621,39,0,621,40,0,600,41,0,600,42,0,600,43,0,600,44,0,600,45,0,600,46,0,621,56,0,200,57,0,200,58,0,200,59,0,600,60,0,600,61,0,600*41
$PAIRDGP,8,5,10,12,13,15,18,23,24*72
$GNGGA,111543.200,2500.8063178,N,12132.4774478,E,2,66,0.42,6.485,M,15.25,M,2,3335*72
$GNRMC,111543.200,A,2500.8063178,N,12132.4774478,E,0.01,332.18,260623,,,D,V*0B
$GPHDT,47.091,T*0E
$GNACCURACY,3.1*14
$GNGGA,111543.300,2500.8063238,N,12132.4774538,E,2,65,0.42,6.487,M,15.25,M,2,3335*70
$GNRMC,111543.300,A,2500.8063238,N,12132.4774538,E,0.03,332.18,260623,,,D,V*0A
$GPHDT,,T*1B
$GNACCURACY,3.1*14
$GNGGA,111543.400,2500.8063238,N,12132.4774598,E,2,66,0.42,6.488,M,15.25,M,2,3335*71
$GNRMC,111543.400,A,2500.8063238,N,12132.4774598,E,0.02,332.18,260623,,,D,V*06
$GPHDT,46.084,T*0B
$GNACCURACY,3.1*14
$GNGGA,111543.500,2500.8063298,N,12132.4774658,E,2,66,0.42,6.492,M,15.25,M,2,3335*7E
$GNRMC,111543.500,A,2500.8063298,N,12132.4774658,E,0.02,332.18,260623,,,D,V*02
$GPHDT,,T*1B
$GNACCURACY,3.1*14
$GNGGA,111543.600,2500.8063238,N,12132.4774718,E,2,66,0.42,6.492,M,15.25,M,2,3335*72
$GNRMC,111543.600,A,2500.8063238,N,12132.4774718,E,0.02,332.18,260623,,,D,V*0E
$GPHDT,47.123,T*06
$GNACCURACY,3.1*14
$GNGGA,111543.700,2500.8063298,N,12132.4774778,E,2,66,0.42,6.496,M,15.25,M,2,3335*7B
$GNRMC,111543.700,A,2500.8063298,N,12132.4774778,E,0.01,332.18,260623,,,D,V*00
$GPHDT,,T*1B
$GNACCURACY,3.1*14
$GNGGA,111543.800,2500.8063298,N,12132.4774838,E,2,66,0.42,6.498,M,15.25,M,2,3335*71
$GNRMC,111543.800,A,2500.8063298,N,12132.4774838,E,0.02,332.18,260623,,,D,V*07
$GPHDT,47.023,T*07
$GNACCURACY,3.1*14
$GNGGA,111543.900,2500.8063358,N,12132.4774958,E,2,66,0.42,6.498,M,15.25,M,2,3335*7A
$GNRMC,111543.900,A,2500.8063358,N,12132.4774958,E,0.02,332.18,260623,,,D,V*0C
$GPHDT,,T*1B
$GNACCURACY,3.1*14
$GNGGA,111544.000,2500.8063418,N,12132.4775018,E,2,66,0.42,6.500,M,15.25,M,3,3335*7A
$GNRMC,111544.000,A,2500.8063418,N,12132.4775018,E,0.02,332.18,260623,,,D,V*0D
$GPHDT,45.528,T*0B
$GNACCURACY,3.1*14
$GNGGA,111544.100,2500.8063418,N,12132.4775018,E,2,65,0.42,6.505,M,15.25,M,3,3335*7D
$GNRMC,111544.100,A,2500.8063418,N,12132.4775018,E,0.02,332.18,260623,,,D,V*0C
$GPHDT,,T*1B
$GNGSA,A,3,24,196,199,18,23,15,195,194,05,10,13,,0.69,0.42,0.55,1*0A
$GNGSA,A,3,80,70,85,73,86,71,79,69,,,,,0.69,0.42,0.55,2*04
$GNGSA,A,3,13,08,07,26,15,02,30,03,,,,,0.69,0.42,0.55,3*05
$GNGSA,A,3,38,08,39,16,13,06,46,09,19,20,36,37,0.69,0.42,0.55,4*07
$GNGSA,A,3,29,35,,,,,,,,,,,0.69,0.42,0.55,4*00
$GPGSV,4,1,16,24,79,055,42,196,74,062,38,199,60,167,39,50,60,167,42,1*62
$GPGSV,4,2,16,18,60,257,37,23,46,335,25,15,39,042,34,195,36,179,20,1*55
$GPGSV,4,3,16,194,29,140,41,05,22,114,34,12,17,145,18,10,14,316,38,1*52
$GPGSV,4,4,16,13,11,053,18,32,07,265,16,25,06,179,,29,03,200,,1*6A
$GPGSV,2,1,08,24,79,055,48,196,74,062,44,199,60,167,45,18,60,257,41,8*67
$GPGSV,2,2,08,23,46,335,33,195,36,179,23,194,29,140,45,10,14,316,38,8*6D
$GLGSV,3,1,09,80,48,086,39,70,40,003,28,85,39,253,37,73,32,161,41,1*78
$GLGSV,3,2,09,86,25,308,41,71,20,309,21,79,15,036,25,69,15,068,17,1*71
$GLGSV,3,3,09,84,13,192,,1*45
$GAGSV,3,1,09,13,59,238,28,08,48,020,41,07,43,298,24,26,30,310,37,7*72
$GAGSV,3,2,09,15,27,174,37,02,24,090,19,30,23,146,38,03,12,061,25,7*73
$GAGSV,3,3,09,25,04,046,,7*4B
$GAGSV,2,1,07,13,59,238,27,08,48,020,40,07,43,298,24,26,30,310,38,1*7A
$GAGSV,2,2,07,15,27,174,37,02,24,090,31,30,23,146,40,1*4F
$GBGSV,4,1,15,38,83,087,39,08,76,006,38,39,72,275,36,16,66,251,36,1*78
$GBGSV,4,2,15,13,66,337,39,06,65,247,33,46,57,120,44,09,49,234,15,1*79
$GBGSV,4,3,15,19,47,339,34,20,44,057,26,36,30,184,31,37,25,051,22,1*7A
$GBGSV,4,4,15,29,22,215,18,35,22,273,21,22,09,298,25,1*48
$GBGSV,3,1,10,38,83,087,38,39,72,275,29,46,57,120,45,19,47,339,32,4*71
$GBGSV,3,2,10,20,44,057,30,36,30,184,25,37,25,051,33,29,22,215,18,4*7F
$GBGSV,3,3,10,35,22,273,28,22,09,298,28,4*78
$GNACCURACY,3.1*14
$PAIRSAT,1,35,1,0,200,2,0,200,3,0,200,4,0,200,5,0,201,6,0,200,7,0,200,8,0,200,9,0,200,10,0,221,11,0,200,12,0,201,13,0,201,14,0,200,15,0,201,16,0,200,17,0,200,18,0,221,19,0,200,20,0,200,21,0,200,23,0,221,24,0,221,25,0,200,26,0,200,27,0,200,28,0,200,29,0,200,30,0,200,31,0,200,32,0,200,194,0,621,195,0,621,196,0,620,199,0,621*6B
$PAIRSAT,2,23,65,0,200,67,0,200,68,0,200,69,0,201,70,0,201,71,0,201,72,0,200,73,0,201,74,0,200,75,0,200,76,0,200,77,0,200,78,0,200,79,0,201,80,0,201,81,0,200,82,0,200,83,0,200,84,0,200,85,0,201,86,0,201,87,0,200,88,0,200*53
$PAIRSAT,3,23,2,0,1221,3,0,1221,4,0,1200,5,0,200,7,0,1221,8,0,1221,9,0,1200,10,0,1200,11,0,1200,12,0,1200,13,0,1221,15,0,1221,19,0,1200,21,0,1200,24,0,1200,25,0,1200,26,0,1221,27,0,1200,30,0,1221,31,0,1200,33,0,1200,34,0,1200,36,0,1200*6A
$PAIRSAT,4,50,1,0,200,2,0,200,3,0,200,4,0,200,5,0,200,6,0,201,7,0,200,8,0,201,9,0,201,10,0,200,11,0,200,12,0,200,13,0,201,14,0,200,15,0,200,16,0,201,19,0,621,20,0,621,21,0,600,22,0,621,23,0,600,24,0,600,25,0,600,26,0,600,27,0,600,28,0,600,29,0,621,30,0,600,31,0,200,32,0,600,33,0,600,34,0,600,35,0,621,36,0,621,37,0,621,38,0,621,39,0,621,40,0,600,41,0,600,42,0,600,43,0,600,44,0,600,45,0,600,46,0,621,56,0,200,57,0,200,58,0,200,59,0,600,60,0,600,61,0,600*41
$PAIRDGP,8,5,10,12,13,15,18,23,24*72
$GNGGA,111544.200,2500.8063418,N,12132.4775078,E,2,65,0.42,6.506,M,15.25,M,3,3335*7B
$GNRMC,111544.200,A,2500.8063418,N,12132.4775078,E,0.02,332.18,260623,,,D,V*09
$GPHDT,48.280,T*03
$GNACCURACY,3.1*14
$GNGGA,111544.300,2500.8063478,N,12132.4775138,E,2,65,0.42,6.509,M,15.25,M,3,3335*76
$GNRMC,111544.300,A,2500.8063478,N,12132.4775138,E,0.02,332.18,260623,,,D,V*0B
$GPHDT,,T*1B
$GNACCURACY,3.1*14
$GNGGA,111544.400,2500.8063478,N,12132.4775138,E,2,65,0.42,6.510,M,15.25,M,3,3335*79
$GNRMC,111544.400,A,2500.8063478,N,12132.4775138,E,0.02,332.18,260623,,,D,V*0C
$GPHDT,47.196,T*08
$GNACCURACY,3.1*14
$GNGGA,111544.500,2500.8063538,N,12132.4775258,E,2,66,0.42,6.507,M,15.25,M,3,3335*7D
$GNRMC,111544.500,A,2500.8063538,N,12132.4775258,E,0.02,332.18,260623,,,D,V*0D
$GPHDT,,T*1B
$GNACCURACY,3.1*14
$GNGGA,111544.600,2500.8063538,N,12132.4775378,E,2,66,0.42,6.505,M,15.25,M,3,3335*7F
$GNRMC,111544.600,A,2500.8063538,N,12132.4775378,E,0.02,332.18,260623,,,D,V*0D
$GPHDT,46.808,T*07
$GNACCURACY,3.1*14
$GNGGA,111544.700,2500.8063538,N,12132.4775438,E,2,65,0.42,6.506,M,15.25,M,3,3335*7D
$GNRMC,111544.700,A,2500.8063538,N,12132.4775438,E,0.02,332.18,260623,,,D,V*0F
$GPHDT,,T*1B
$GNACCURACY,3.1*14
$GNGGA,111544.800,2500.8063598,N,12132.4775498,E,2,66,0.42,6.504,M,15.25,M,3,3335*73
$GNRMC,111544.800,A,2500.8063598,N,12132.4775498,E,0.02,332.18,260623,,,D,V*00
$GPHDT,47.096,T*09
$GNACCURACY,3.1*14
$GNGGA,111544.900,2500.8063598,N,12132.4775558,E,2,66,0.42,6.505,M,15.25,M,3,3335*7E
$GNRMC,111544.900,A,2500.8063598,N,12132.4775558,E,0.02,332.18,260623,,,D,V*0C
$GPHDT,,T*1B
$GNACCURACY,3.1*14
$GNGGA,111545.000,2500.8063598,N,12132.4775618,E,2,66,0.42,6.506,M,15.25,M,4,3335*75
$GNRMC,111545.000,A,2500.8063598,N,12132.4775618,E,0.02,332.18,260623,,,D,V*03
$GPHDT,47.273,T*00
$GNACCURACY,3.1*14
$GNGGA,111545.100,2500.8063598,N,12132.4775618,E,2,65,0.42,6.507,M,15.25,M,4,3335*76
$GNRMC,111545.100,A,2500.8063598,N,12132.4775618,E,0.01,332.18,260623,,,D,V*01
$GPHDT,,T*1B
$GNGSA,A,3,24,196,199,18,23,15,195,194,05,12,10,13,0.68,0.42,0.54,1*09
$GNGSA,A,3,80,70,85,73,86,71,79,69,,,,,0.68,0.42,0.54,2*04
$GNGSA,A,3,13,08,07,26,15,02,30,03,,,,,0.68,0.42,0.54,3*05
$GNGSA,A,3,38,08,39,16,13,06,46,09,19,20,36,37,0.68,0.42,0.54,4*07
$GNGSA,A,3,29,35,,,,,,,,,,,0.68,0.42,0.54,4*00
$GPGSV,4,1,16,24,79,055,42,196,74,062,38,199,60,167,39,50,60,167,42,1*62
$GPGSV,4,2,16,18,60,257,37,23,46,335,32,15,39,042,32,195,36,179,20,1*55
$GPGSV,4,3,16,194,29,140,41,05,22,114,34,12,17,145,18,10,14,316,38,1*52
$GPGSV,4,4,16,13,11,053,18,32,07,265,18,25,06,179,,29,03,200,,1*64
$GPGSV,2,1,08,24,79,055,48,196,74,062,44,199,60,167,44,18,60,257,41,8*66
$GPGSV,2,2,08,23,46,335,33,195,36,179,23,194,29,140,45,10,14,316,38,8*6D
$GLGSV,3,1,09,80,48,086,39,70,40,003,27,85,39,253,36,73,32,161,41,1*76
$GLGSV,3,2,09,86,25,308,41,71,20,309,24,79,15,036,24,69,15,068,17,1*75
$GLGSV,3,3,09,84,13,192,,1*45
$GAGSV,3,1,09,13,59,238,28,08,48,020,41,07,43,298,25,26,30,310,38,7*7C
$GAGSV,3,2,09,15,27,174,37,02,24,090,19,30,23,146,38,03,12,061,25,7*73
$GAGSV,3,3,09,25,04,046,,7*4B
$GAGSV,2,1,07,13,59,238,27,08,48,020,40,07,43,298,26,26,30,310,39,1*79
$GAGSV,2,2,07,15,27,174,37,02,24,090,31,30,23,146,41,1*4E
$GBGSV,4,1,15,38,83,087,39,08,76,006,37,39,72,275,37,16,66,251,36,1*76
$GBGSV,4,2,15,13,66,337,39,06,65,247,33,46,57,120,44,09,49,234,17,1*7B
$GBGSV,4,3,15,19,47,339,30,20,44,057,26,36,30,184,31,37,25,051,23,1*7F
$GBGSV,4,4,15,29,22,215,16,35,22,273,19,22,09,298,26,1*4E
$GBGSV,3,1,09,38,83,087,38,39,72,275,29,46,57,120,45,19,47,339,37,4*7C
$GBGSV,3,2,09,20,44,057,28,36,30,184,26,37,25,051,33,35,22,273,29,4*72
$GBGSV,3,3,09,22,09,298,28,4*4A
$GNACCURACY,3.1*14
$PAIRSAT,1,35,1,0,200,2,0,200,3,0,200,4,0,200,5,0,201,6,0,200,7,0,200,8,0,200,9,0,200,10,0,221,11,0,200,12,0,201,13,0,201,14,0,200,15,0,201,16,0,200,17,0,200,18,0,221,19,0,200,20,0,200,21,0,200,23,0,221,24,0,221,25,0,200,26,0,200,27,0,200,28,0,200,29,0,200,30,0,200,31,0,200,32,0,200,194,0,621,195,0,621,196,0,620,199,0,621*6B
$PAIRSAT,2,23,65,0,200,67,0,200,68,0,200,69,0,201,70,0,201,71,0,201,72,0,200,73,0,201,74,0,200,75,0,200,76,0,200,77,0,200,78,0,200,79,0,201,80,0,201,81,0,200,82,0,200,83,0,200,84,0,200,85,0,201,86,0,201,87,0,200,88,0,200*53
$PAIRSAT,3,23,2,0,1221,3,0,1221,4,0,1200,5,0,200,7,0,1221,8,0,1221,9,0,1200,10,0,1200,11,0,1200,12,0,1200,13,0,1221,15,0,1221,19,0,1200,21,0,1200,24,0,1200,25,0,1200,26,0,1221,27,0,1200,30,0,1221,31,0,1200,33,0,1200,34,0,1200,36,0,1200*6A
$PAIRSAT,4,50,1,0,200,2,0,200,3,0,200,4,0,200,5,0,200,6,0,201,7,0,200,8,0,201,9,0,201,10,0,200,11,0,200,12,0,200,13,0,201,14,0,200,15,0,200,16,0,201,19,0,621,20,0,621,21,0,600,22,0,621,23,0,600,24,0,600,25,0,600,26,0,600,27,0,600,28,0,600,29,0,621,30,0,600,31,0,200,32,0,600,33,0,600,34,0,600,35,0,621,36,0,621,37,0,621,38,0,621,39,0,621,40,0,600,41,0,600,42,0,600,43,0,600,44,0,600,45,0,600,46,0,621,56,0,200,57,0,200,58,0,200,59,0,600,60,0,600,61,0,600*41
$PAIRDGP,8,5,10,12,13,15,18,23,24*72
$GNGGA,111545.200,2500.8063598,N,12132.4775618,E,2,65,0.42,6.509,M,15.25,M,4,3335*7B
$GNRMC,111545.200,A,2500.8063598,N,12132.4775618,E,0.01,332.18,260623,,,D,V*02
$GPHDT,46.298,T*04
$GNACCURACY,3.1*14
$GNGGA,111545.300,2500.8063598,N,12132.4775618,E,2,65,0.42,6.509,M,15.25,M,4,3335*7A
$GNRMC,111545.300,A,2500.8063598,N,12132.4775618,E,0.01,332.18,260623,,,D,V*03
$GPHDT,,T*1B
$GNACCURACY,3.1*14
$GNGGA,111545.400,2500.8063598,N,12132.4775678,E,2,65,0.42,6.510,M,15.25,M,4,3335*73
$GNRMC,111545.400,A,2500.8063598,N,12132.4775678,E,0.01,332.18,260623,,,D,V*02
$GPHDT,46.220,T*07
$GNACCURACY,3.1*14
$GNGGA,111545.500,2500.8063598,N,12132.4775678,E,2,65,0.42,6.512,M,15.25,M,4,3335*70
$GNRMC,111545.500,A,2500.8063598,N,12132.4775678,E,0.01,332.18,260623,,,D,V*03
$GPHDT,,T*1B
$GNACCURACY,3.1*14
$GNGGA,111545.600,2500.8063598,N,12132.4775678,E,2,65,0.42,6.512,M,15.25,M,4,3335*73
$GNRMC,111545.600,A,2500.8063598,N,12132.4775678,E,0.01,332.18,260623,,,D,V*00
$GPHDT,44.794,T*0F
$GNACCURACY,3.1*14
$GNGGA,111545.700,2500.8063598,N,12132.4775738,E,2,65,0.42,6.514,M,15.25,M,4,3335*71
$GNRMC,111545.700,A,2500.8063598,N,12132.4775738,E,0.01,332.18,260623,,,D,V*04
$GPHDT,,T*1B
$GNACCURACY,3.1*14
$GNGGA,111545.800,2500.8063598,N,12132.4775738,E,2,65,0.42,6.515,M,15.25,M,4,3335*7F
$GNRMC,111545.800,A,2500.8063598,N,12132.4775738,E,0.01,332.18,260623,,,D,V*0B
$GPHDT,44.455,T*01
$GNACCURACY,3.1*14
$GNGGA,111545.900,2500.8063538,N,12132.4775798,E,2,65,0.42,6.514,M,15.25,M,4,3335*7F
$GNRMC,111545.900,A,2500.8063538,N,12132.4775798,E,0.00,332.18,260623,,,D,V*0B
$GPHDT,,T*1B
$GNACCURACY,3.1*14
$GNGGA,111546.000,2500.8063538,N,12132.4775798,E,2,65,0.42,6.514,M,15.25,M,5,3335*74
$GNRMC,111546.000,A,2500.8063538,N,12132.4775798,E,0.00,332.18,260623,,,D,V*01
$GPHDT,45.529,T*0A
$GNACCURACY,3.2*17
$GNGGA,111546.100,2500.8063538,N,12132.4775798,E,2,65,0.42,6.514,M,15.25,M,5,3335*75
$GNRMC,111546.100,A,2500.8063538,N,12132.4775798,E,0.00,332.18,260623,,,D,V*00
$GPHDT,,T*1B
$GNGSA,A,3,24,196,199,18,23,15,195,194,05,12,10,13,0.68,0.42,0.54,1*09
$GNGSA,A,3,80,70,85,73,86,71,79,69,,,,,0.68,0.42,0.54,2*04
$GNGSA,A,3,13,08,07,26,15,02,30,03,,,,,0.68,0.42,0.54,3*05
$GNGSA,A,3,38,08,39,16,13,06,46,09,19,20,36,37,0.68,0.42,0.54,4*07
$GNGSA,A,3,29,35,,,,,,,,,,,0.68,0.42,0.54,4*00
$GPGSV,4,1,16,24,79,055,42,196,74,062,38,199,60,167,39,50,60,167,42,1*62
$GPGSV,4,2,16,18,60,257,38,23,46,335,33,15,39,042,33,195,36,179,20,1*5A
$GPGSV,4,3,16,194,29,140,41,05,22,114,33,12,17,145,18,10,14,316,38,1*55
$GPGSV,4,4,16,13,11,053,16,32,07,265,20,25,06,179,,29,03,200,,1*61
$GPGSV,2,1,08,24,79,055,48,196,74,062,44,199,60,167,44,18,60,257,41,8*66
$GPGSV,2,2,08,23,46,335,33,195,36,179,24,194,29,140,45,10,14,316,38,8*6A
$GLGSV,2,1,08,80,48,086,39,70,40,003,28,85,39,253,36,73,32,161,41,1*79
$GLGSV,2,2,08,86,25,308,41,71,20,309,23,79,15,036,26,69,15,068,17,1*70
$GAGSV,3,1,09,13,59,238,27,08,48,020,41,07,43,298,26,26,30,310,38,7*70
$GAGSV,3,2,09,15,27,174,37,02,24,090,19,30,23,146,38,03,12,061,25,7*73
$GAGSV,3,3,09,25,04,046,,7*4B
$GAGSV,2,1,07,13,59,238,29,08,48,020,40,07,43,298,24,26,30,310,39,1*75
$GAGSV,2,2,07,15,27,174,37,02,24,090,31,30,23,146,41,1*4E
$GBGSV,4,1,15,38,83,087,38,08,76,006,37,39,72,275,37,16,66,251,36,1*77
$GBGSV,4,2,15,13,66,337,39,06,65,247,33,46,57,120,44,09,49,234,17,1*7B
$GBGSV,4,3,15,19,47,339,31,20,44,057,27,36,30,184,31,37,25,051,23,1*7F
$GBGSV,4,4,15,29,22,215,16,35,22,273,18,22,09,298,23,1*4A
$GBGSV,3,1,09,38,83,087,38,39,72,275,26,46,57,120,45,19,47,339,37,4*73
$GBGSV,3,2,09,20,44,057,28,36,30,184,26,37,25,051,33,35,22,273,28,4*73
$GBGSV,3,3,09,22,09,298,29,4*4B
$GNACCURACY,3.1*14
$PAIRSAT,1,35,1,0,200,2,0,200,3,0,200,4,0,200,5,0,201,6,0,200,7,0,200,8,0,200,9,0,200,10,0,221,11,0,200,12,0,201,13,0,201,14,0,200,15,0,201,16,0,200,17,0,200,18,0,221,19,0,200,20,0,200,21,0,200,23,0,221,24,0,221,25,0,200,26,0,200,27,0,200,28,0,200,29,0,200,30,0,200,31,0,200,32,0,200,194,0,621,195,0,621,196,0,620,199,0,621*6B
$PAIRSAT,2,23,65,0,200,67,0,200,68,0,200,69,0,201,70,0,201,71,0,201,72,0,200,73,0,201,74,0,200,75,0,200,76,0,200,77,0,200,78,0,200,79,0,201,80,0,201,81,0,200,82,0,200,83,0,200,84,0,200,85,0,201,86,0,201,87,0,200,88,0,200*53
$PAIRSAT,3,23,2,0,1221,3,0,1221,4,0,1200,5,0,200,7,0,1221,8,0,1221,9,0,1200,10,0,1200,11,0,1200,12,0,1200,13,0,1221,15,0,1221,19,0,1200,21,0,1200,24,0,1200,25,0,1200,26,0,1221,27,0,1200,30,0,1221,31,0,1200,33,0,1200,34,0,1200,36,0,1200*6A
$PAIRSAT,4,50,1,0,200,2,0,200,3,0,200,4,0,200,5,0,200,6,0,201,7,0,200,8,0,201,9,0,201,10,0,200,11,0,200,12,0,200,13,0,201,14,0,200,15,0,200,16,0,201,19,0,621,20,0,621,21,0,600,22,0,621,23,0,600,24,0,600,25,0,600,26,0,600,27,0,600,28,0,600,29,0,621,30,0,600,31,0,200,32,0,600,33,0,600,34,0,600,35,0,621,36,0,621,37,0,621,38,0,621,39,0,621,40,0,600,41,0,600,42,0,600,43,0,600,44,0,600,45,0,600,46,0,621,56,0,200,57,0,200,58,0,200,59,0,600,60,0,600,61,0,600*41
$PAIRDGP,8,5,10,12,13,15,18,23,24*72
$GNGGA,111546.200,2500.8063538,N,12132.4775798,E,2,65,0.42,6.513,M,15.25,M,5,3335*71
$GNRMC,111546.200,A,2500.8063538,N,12132.4775798,E,0.00,332.18,260623,,,D,V*03
$GPHDT,45.584,T*0D
$GNACCURACY,3.1*14
$GNGGA,111546.300,2500.8063538,N,12132.4775858,E,2,65,0.42,6.512,M,15.25,M,5,3335*72
$GNRMC,111546.300,A,2500.8063538,N,12132.4775858,E,0.01,332.18,260623,,,D,V*00
$GPHDT,,T*1B
$GNACCURACY,3.1*14
$GNGGA,111546.400,2500.8063538,N,12132.4775918,E,2,65,0.42,6.509,M,15.25,M,5,3335*7A
$GNRMC,111546.400,A,2500.8063538,N,12132.4775918,E,0.02,332.18,260623,,,D,V*01
$GPHDT,45.570,T*06
$GNACCURACY,3.1*14
$GNGGA,111546.500,2500.8063538,N,12132.4775918,E,2,65,0.42,6.506,M,15.25,M,5,3335*74
$GNRMC,111546.500,A,2500.8063538,N,12132.4775918,E,0.02,332.18,260623,,,D,V*00
$GPHDT,,T*1B
$GNACCURACY,3.1*14
$GNGGA,111546.600,2500.8063538,N,12132.4775918,E,2,65,0.42,6.503,M,15.25,M,5,3335*72
$GNRMC,111546.600,A,2500.8063538,N,12132.4775918,E,0.01,332.18,260623,,,D,V*00
$GPHDT,45.417,T*06
$GNACCURACY,3.1*14
$GNGGA,111546.700,2500.8063478,N,12132.4775858,E,2,65,0.42,6.500,M,15.25,M,5,3335*70
$GNRMC,111546.700,A,2500.8063478,N,12132.4775858,E,0.02,332.18,260623,,,D,V*02
$GPHDT,,T*1B
$GNACCURACY,3.1*14
$GNGGA,111546.800,2500.8063478,N,12132.4775858,E,2,65,0.42,6.498,M,15.25,M,5,3335*7F
$GNRMC,111546.800,A,2500.8063478,N,12132.4775858,E,0.03,332.18,260623,,,D,V*0C
$GPHDT,45.000,T*04
$GNACCURACY,3.1*14
$GNGGA,111546.900,2500.8063478,N,12132.4775798,E,2,65,0.42,6.494,M,15.25,M,5,3335*71
$GNRMC,111546.900,A,2500.8063478,N,12132.4775798,E,0.03,332.18,260623,,,D,V*0E
$GPHDT,,T*1B
$GNACCURACY,3.1*14
$GNGGA,111547.000,2500.8063478,N,12132.4775798,E,2,65,0.42,6.494,M,15.25,M,6,3335*7A
$GNRMC,111547.000,A,2500.8063478,N,12132.4775798,E,0.03,332.18,260623,,,D,V*06
$GPHDT,44.802,T*0F
$GNACCURACY,3.1*14
$GNGGA,111547.100,2500.8063478,N,12132.4775798,E,2,65,0.42,6.492,M,15.25,M,6,3335*7D
$GNRMC,111547.100,A,2500.8063478,N,12132.4775798,E,0.02,332.18,260623,,,D,V*06
$GPHDT,,T*1B
$GNGSA,A,3,24,196,199,18,23,15,195,194,05,12,10,13,0.68,0.42,0.54,1*09
$GNGSA,A,3,80,70,85,73,86,71,79,69,,,,,0.68,0.42,0.54,2*04
$GNGSA,A,3,13,08,07,26,15,02,30,03,,,,,0.68,0.42,0.54,3*05
$GNGSA,A,3,38,08,39,16,13,06,46,09,19,20,36,37,0.68,0.42,0.54,4*07
$GNGSA,A,3,29,35,,,,,,,,,,,0.68,0.42,0.54,4*00
$GPGSV,4,1,16,24,79,055,43,196,74,062,38,199,60,167,39,50,60,167,42,1*63
$GPGSV,4,2,16,18,60,257,38,23,46,335,33,15,39,042,32,195,36,179,19,1*51
$GPGSV,4,3,16,194,29,140,41,05,22,114,32,12,17,145,19,10,14,316,31,1*5C
$GPGSV,4,4,16,13,11,053,15,32,07,265,19,25,06,179,,29,03,200,,1*68
$GPGSV,2,1,08,24,79,055,47,196,74,062,43,199,60,167,44,18,60,257,40,8*6F
$GPGSV,2,2,08,23,46,335,32,195,36,179,22,194,29,140,45,10,14,316,39,8*6C
$GLGSV,2,1,08,80,48,086,39,70,40,003,28,85,39,252,40,73,32,161,41,1*79
$GLGSV,2,2,08,86,25,308,41,71,20,309,33,79,15,036,24,69,15,068,18,1*7C
$GAGSV,3,1,09,13,59,238,28,08,48,020,41,07,43,298,26,26,30,310,39,7*7E
$GAGSV,3,2,09,15,27,174,37,02,24,090,19,30,23,146,38,03,12,061,26,7*70
$GAGSV,3,3,09,25,04,046,,7*4B
$GAGSV,2,1,07,13,59,238,27,08,48,020,39,07,43,298,24,26,30,310,41,1*7A
$GAGSV,2,2,07,15,27,174,37,02,24,090,30,30,23,146,41,1*4F
$GBGSV,4,1,15,38,83,087,38,08,76,006,38,39,72,275,37,16,66,251,35,1*7B
$GBGSV,4,2,15,13,66,337,38,06,65,247,29,46,57,120,44,09,49,234,15,1*73
$GBGSV,4,3,15,19,47,339,30,20,44,057,25,36,30,184,30,37,25,051,22,1*7C
$GBGSV,4,4,15,29,22,215,16,35,22,273,20,22,09,298,26,1*44
$GBGSV,3,1,09,38,83,087,38,39,72,275,26,46,57,120,45,19,47,339,37,4*73
$GBGSV,3,2,09,20,44,057,29,36,30,184,26,37,25,051,33,35,22,273,29,4*73
$GBGSV,3,3,09,22,09,298,26,4*44
$GNACCURACY,3.1*14
$PAIRSAT,1,35,1,0,200,2,0,200,3,0,200,4,0,200,5,0,201,6,0,200,7,0,200,8,0,200,9,0,200,10,0,221,11,0,200,12,0,201,13,0,201,14,0,200,15,0,201,16,0,200,17,0,200,18,0,221,19,0,200,20,0,200,21,0,200,23,0,221,24,0,221,25,0,200,26,0,200,27,0,200,28,0,200,29,0,200,30,0,200,31,0,200,32,0,200,194,0,621,195,0,621,196,0,620,199,0,621*6B
$PAIRSAT,2,23,65,0,200,67,0,200,68,0,200,69,0,201,70,0,201,71,0,201,72,0,200,73,0,201,74,0,200,75,0,200,76,0,200,77,0,200,78,0,200,79,0,201,80,0,201,81,0,200,82,0,200,83,0,200,84,0,200,85,0,201,86,0,201,87,0,200,88,0,200*53
$PAIRSAT,3,23,2,0,1221,3,0,1221,4,0,1200,5,0,200,7,0,1221,8,0,1221,9,0,1200,10,0,1200,11,0,1200,12,0,1200,13,0,1221,15,0,1221,19,0,1200,21,0,1200,24,0,1200,25,0,1200,26,0,1221,27,0,1200,30,0,1221,31,0,1200,33,0,1200,34,0,1200,36,0,1200*6A
$PAIRSAT,4,50,1,0,200,2,0,200,3,0,200,4,0,200,5,0,200,6,0,201,7,0,200,8,0,201,9,0,201,10,0,200,11,0,200,12,0,200,13,0,201,14,0,200,15,0,200,16,0,201,19,0,621,20,0,621,21,0,600,22,0,621,23,0,600,24,0,600,25,0,600,26,0,600,27,0,600,28,0,600,29,0,621,30,0,600,31,0,200,32,0,600,33,0,600,34,0,600,35,0,621,36,0,621,37,0,621,38,0,621,39,0,621,40,0,600,41,0,600,42,0,600,43,0,600,44,0,600,45,0,600,46,0,621,56,0,200,57,0,200,58,0,200,59,0,600,60,0,600,61,0,600*41
$PAIRDGP,8,5,10,12,13,15,18,23,24*72
$GNGGA,111547.200,2500.8063478,N,12132.4775738,E,2,65,0.42,6.488,M,15.25,M,6,3335*7F
$GNRMC,111547.200,A,2500.8063478,N,12132.4775738,E,0.02,332.18,260623,,,D,V*0F
$GPHDT,45.380,T*0F
$GNACCURACY,3.0*15
$GNGGA,111547.300,2500.8063478,N,12132.4775738,E,2,65,0.42,6.486,M,15.25,M,6,3335*70
$GNRMC,111547.300,A,2500.8063478,N,12132.4775738,E,0.02,332.18,260623,,,D,V*0E
$GPHDT,,T*1B
$GNACCURACY,3.0*15
$GNGGA,111547.400,2500.8063478,N,12132.4775678,E,2,65,0.42,6.483,M,15.25,M,6,3335*77
$GNRMC,111547.400,A,2500.8063478,N,12132.4775678,E,0.02,332.18,260623,,,D,V*0C
$GPHDT,44.929,T*07
$GNACCURACY,3.0*15
$GNGGA,111547.500,2500.8063478,N,12132.4775618,E,2,65,0.42,6.479,M,15.25,M,5,3335*76
$GNRMC,111547.500,A,2500.8063478,N,12132.4775618,E,0.03,332.18,260623,,,D,V*0A
$GPHDT,,T*1B
$GNACCURACY,3.1*14
$GNGGA,111547.600,2500.8063478,N,12132.4775618,E,2,65,0.42,6.478,M,15.25,M,5,3335*74
$GNRMC,111547.600,A,2500.8063478,N,12132.4775618,E,0.03,332.18,260623,,,D,V*09
$GPHDT,44.912,T*0F
$GNACCURACY,3.1*14
$GNGGA,111547.700,2500.8063478,N,12132.4775558,E,2,65,0.42,6.475,M,15.25,M,5,3335*7F
$GNRMC,111547.700,A,2500.8063478,N,12132.4775558,E,0.03,332.18,260623,,,D,V*0F
$GPHDT,,T*1B
$GNACCURACY,3.0*15
$GNGGA,111547.800,2500.8063478,N,12132.4775498,E,2,65,0.42,6.474,M,15.25,M,5,3335*7C
$GNRMC,111547.800,A,2500.8063478,N,12132.4775498,E,0.03,332.18,260623,,,D,V*0D
$GPHDT,44.987,T*03
$GNACCURACY,3.0*15
$GNGGA,111547.900,2500.8063418,N,12132.4775438,E,2,65,0.42,6.472,M,15.25,M,5,3335*77
$GNRMC,111547.900,A,2500.8063418,N,12132.4775438,E,0.04,332.18,260623,,,D,V*07
$GPHDT,,T*1B
$GNACCURACY,3.0*15
$GNGGA,111548.000,2500.8063418,N,12132.4775438,E,2,65,0.42,6.471,M,15.25,M,6,3335*71
$GNRMC,111548.000,A,2500.8063418,N,12132.4775438,E,0.03,332.18,260623,,,D,V*06
$GPHDT,45.748,T*0F
$GNACCURACY,3.0*15
$GNGGA,111548.100,2500.8063418,N,12132.4775438,E,2,65,0.42,6.468,M,15.25,M,6,3335*78
$GNRMC,111548.100,A,2500.8063418,N,12132.4775438,E,0.02,332.18,260623,,,D,V*06
$GPHDT,,T*1B
$GNGSA,A,3,24,196,199,18,23,15,195,194,05,12,10,13,0.69,0.42,0.54,1*08
$GNGSA,A,3,80,70,85,73,86,71,79,69,,,,,0.69,0.42,0.54,2*05
$GNGSA,A,3,13,08,07,26,15,02,30,03,,,,,0.69,0.42,0.54,3*04
$GNGSA,A,3,38,08,39,16,13,06,46,19,20,36,37,29,0.69,0.42,0.54,4*04
$GNGSA,A,3,35,,,,,,,,,,,,0.69,0.42,0.54,4*0A
$GPGSV,4,1,16,24,79,055,43,196,74,062,38,199,60,167,39,50,60,167,42,1*63
$GPGSV,4,2,16,18,60,257,37,23,46,335,32,15,39,042,32,195,36,179,21,1*54
$GPGSV,4,3,16,194,29,140,41,05,22,114,32,12,17,145,20,10,14,316,34,1*53
$GPGSV,4,4,16,13,11,053,15,32,07,265,18,25,06,179,,29,03,200,,1*69
$GPGSV,2,1,08,24,79,055,48,196,74,062,43,199,60,167,44,18,60,257,39,8*6E
$GPGSV,2,2,08,23,46,335,32,195,36,179,25,194,29,140,46,10,14,316,40,8*66
$GLGSV,2,1,08,80,48,086,39,70,40,003,28,85,39,252,36,73,32,161,42,1*7B
$GLGSV,2,2,08,86,25,308,42,71,20,309,32,79,15,036,24,69,15,068,18,1*7E
$GAGSV,3,1,09,13,59,238,29,08,48,020,41,07,43,298,27,26,30,310,40,7*70
$GAGSV,3,2,09,15,27,174,37,02,24,090,18,30,23,146,38,03,12,061,26,7*71
$GAGSV,3,3,09,25,04,046,,7*4B
$GAGSV,2,1,07,13,59,238,29,08,48,020,39,07,43,298,26,26,30,310,41,1*76
$GAGSV,2,2,07,15,27,174,38,02,24,090,30,30,23,146,41,1*40
$GBGSV,4,1,15,38,83,087,38,08,76,006,37,39,72,275,37,16,66,251,34,1*75
$GBGSV,4,2,15,13,66,337,38,06,65,247,29,46,57,120,44,09,49,234,15,1*73
$GBGSV,4,3,15,19,47,339,29,20,44,057,25,36,30,184,29,37,25,051,21,1*7F
$GBGSV,4,4,15,29,22,215,15,35,22,273,22,22,09,298,26,1*45
$GBGSV,3,1,09,38,83,087,38,39,72,275,26,46,57,120,46,19,47,339,37,4*70
$GBGSV,3,2,09,20,44,057,27,36,30,184,27,37,25,051,33,35,22,273,29,4*7C
$GBGSV,3,3,09,22,09,298,26,4*44
$GNACCURACY,3.0*15
$PAIRSAT,1,35,1,0,200,2,0,200,3,0,200,4,0,200,5,0,201,6,0,200,7,0,200,8,0,200,9,0,200,10,0,221,11,0,200,12,0,201,13,0,201,14,0,200,15,0,201,16,0,200,17,0,200,18,0,221,19,0,200,20,0,200,21,0,200,23,0,221,24,0,221,25,0,200,26,0,200,27,0,200,28,0,200,29,0,200,30,0,200,31,0,200,32,0,200,194,0,621,195,0,621,196,0,620,199,0,621*6B
$PAIRSAT,2,23,65,0,200,67,0,200,68,0,200,69,0,201,70,0,201,71,0,201,72,0,200,73,0,201,74,0,200,75,0,200,76,0,200,77,0,200,78,0,200,79,0,201,80,0,201,81,0,200,82,0,200,83,0,200,84,0,200,85,0,201,86,0,201,87,0,200,88,0,200*53
$PAIRSAT,3,23,2,0,1221,3,0,1221,4,0,1200,5,0,200,7,0,1221,8,0,1221,9,0,1200,10,0,1200,11,0,1200,12,0,1200,13,0,1221,15,0,1221,19,0,1200,21,0,1200,24,0,1200,25,0,1200,26,0,1221,27,0,1200,30,0,1221,31,0,1200,33,0,1200,34,0,1200,36,0,1200*6A
$PAIRSAT,4,50,1,0,200,2,0,200,3,0,200,4,0,200,5,0,200,6,0,201,7,0,200,8,0,201,9,0,201,10,0,200,11,0,200,12,0,200,13,0,201,14,0,200,15,0,200,16,0,201,19,0,621,20,0,621,21,0,600,22,0,621,23,0,600,24,0,600,25,0,600,26,0,600,27,0,600,28,0,600,29,0,621,30,0,600,31,0,200,32,0,600,33,0,600,34,0,600,35,0,621,36,0,621,37,0,621,38,0,621,39,0,621,40,0,600,41,0,600,42,0,600,43,0,600,44,0,600,45,0,600,46,0,621,56,0,200,57,0,200,58,0,200,59,0,600,60,0,600,61,0,600*41
$PAIRDGP,8,5,10,12,13,15,18,23,24*72
$GNGGA,111548.200,2500.8063418,N,12132.4775438,E,2,64,0.42,6.468,M,15.25,M,6,3335*7A
$GNRMC,111548.200,A,2500.8063418,N,12132.4775438,E,0.02,332.18,260623,,,D,V*05
$GPHDT,46.691,T*09
$GNACCURACY,3.0*15
$GNGGA,111548.300,2500.8063358,N,12132.4775378,E,2,64,0.42,6.463,M,15.25,M,6,3335*70
$GNRMC,111548.300,A,2500.8063358,N,12132.4775378,E,0.03,332.18,260623,,,D,V*05
$GPHDT,,T*1B
$GNACCURACY,3.0*15
$GNGGA,111548.400,2500.8063358,N,12132.4775318,E,2,63,0.42,6.457,M,15.25,M,6,3335*71
$GNRMC,111548.400,A,2500.8063358,N,12132.4775318,E,0.03,332.18,260623,,,D,V*04
$GPHDT,46.637,T*05
$GNACCURACY,3.0*15
$GNGGA,111548.500,2500.8063358,N,12132.4775318,E,2,63,0.42,6.452,M,15.25,M,6,3335*75
$GNRMC,111548.500,A,2500.8063358,N,12132.4775318,E,0.04,332.18,260623,,,D,V*02
$GPHDT,,T*1B
$GNACCURACY,3.0*15
$GNGGA,111548.600,2500.8063358,N,12132.4775318,E,2,63,0.42,6.447,M,15.25,M,6,3335*72
$GNRMC,111548.600,A,2500.8063358,N,12132.4775318,E,0.03,332.18,260623,,,D,V*06
$GPHDT,46.747,T*03
$GNACCURACY,3.1*14
$GNGGA,111548.700,2500.8063298,N,12132.4775318,E,2,63,0.42,6.445,M,15.25,M,6,3335*7C
$GNRMC,111548.700,A,2500.8063298,N,12132.4775318,E,0.03,332.18,260623,,,D,V*0A
$GPHDT,,T*1B
$GNACCURACY,3.1*14
$GNGGA,111548.800,2500.8063298,N,12132.4775258,E,2,63,0.42,6.443,M,15.25,M,6,3335*70
$GNRMC,111548.800,A,2500.8063298,N,12132.4775258,E,0.03,332.18,260623,,,D,V*00
$GPHDT,45.690,T*0B
$GNACCURACY,3.1*14
$GNGGA,111548.900,2500.8063298,N,12132.4775198,E,2,63,0.42,6.442,M,15.25,M,6,3335*7F
$GNRMC,111548.900,A,2500.8063298,N,12132.4775198,E,0.03,332.18,260623,,,D,V*0E
$GPHDT,,T*1B
$GNACCURACY,3.0*15
$GNGGA,111549.000,2500.8063238,N,12132.4775198,E,2,63,0.42,6.440,M,15.25,M,7,3335*7E
$GNRMC,111549.000,A,2500.8063238,N,12132.4775198,E,0.03,332.18,260623,,,D,V*0C
$GPHDT,46.707,T*07
$GNACCURACY,3.0*15
$GNGGA,111549.100,2500.8063178,N,12132.4775138,E,2,63,0.42,6.436,M,15.25,M,7,3335*73
$GNRMC,111549.100,A,2500.8063178,N,12132.4775138,E,0.03,332.18,260623,,,D,V*00
$GPHDT,,T*1B
$GNGSA,A,3,24,196,199,18,23,15,195,194,05,12,10,,0.69,0.42,0.55,1*0B
$GNGSA,A,3,80,70,85,73,86,71,69,79,,,,,0.69,0.42,0.55,2*04
$GNGSA,A,3,13,08,07,26,15,02,30,03,,,,,0.69,0.42,0.55,3*05
$GNGSA,A,3,38,08,39,16,13,06,46,19,20,36,37,35,0.69,0.42,0.55,4*08
$GNGSA,A,3,29,,,,,,,,,,,,0.69,0.42,0.55,4*06
$GPGSV,4,1,16,24,79,055,43,196,74,062,38,199,60,167,39,50,60,167,42,1*63
$GPGSV,4,2,16,18,60,257,33,23,46,335,32,15,39,042,29,195,36,179,21,1*5A
$GPGSV,4,3,16,194,29,140,41,05,22,114,31,12,17,145,22,10,14,316,34,1*52
$GPGSV,4,4,16,13,11,053,16,32,07,265,18,25,06,179,,29,03,200,,1*6A
$GPGSV,2,1,08,24,79,055,48,196,74,062,43,199,60,167,44,18,60,257,35,8*62
$GPGSV,2,2,08,23,46,335,33,195,36,179,25,194,29,140,46,10,14,316,36,8*66
$GLGSV,3,1,09,80,48,086,39,70,40,003,29,85,39,252,38,73,32,161,41,1*77
$GLGSV,3,2,09,86,25,308,38,71,20,309,27,69,15,068,17,79,15,036,24,1*78
$GLGSV,3,3,09,84,13,192,,1*45
$GAGSV,3,1,09,13,59,238,28,08,48,020,41,07,43,298,26,26,30,310,38,7*7F
$GAGSV,3,2,09,15,27,174,37,02,24,090,18,30,23,146,37,03,12,061,27,7*7F
$GAGSV,3,3,09,25,04,046,,7*4B
$GAGSV,2,1,07,13,59,238,28,08,48,020,41,07,43,298,23,26,30,310,40,1*7C
$GAGSV,2,2,07,15,27,174,38,02,24,090,31,30,23,146,42,1*42
$GBGSV,4,1,16,38,83,087,38,08,76,006,36,39,72,275,31,16,66,251,30,1*75
$GBGSV,4,2,16,13,66,337,36,06,65,247,25,46,57,120,44,09,49,234,15,1*72
$GBGSV,4,3,16,19,47,339,32,20,44,057,27,31,35,207,,36,30,184,29,1*71
$GBGSV,4,4,16,37,25,051,20,35,22,273,26,29,22,215,15,22,09,298,26,1*77
$GBGSV,3,1,09,38,83,087,38,39,72,275,29,46,57,120,46,19,47,339,33,4*7B
$GBGSV,3,2,09,20,44,057,28,36,30,184,26,37,25,051,33,35,22,273,28,4*73
$GBGSV,3,3,09,22,09,298,26,4*44
$GNACCURACY,3.0*15
$PAIRSAT,1,35,1,0,200,2,0,200,3,0,200,4,0,200,5,0,201,6,0,200,7,0,200,8,0,200,9,0,200,10,0,221,11,0,200,12,0,201,13,0,201,14,0,200,15,0,201,16,0,200,17,0,200,18,0,221,19,0,200,20,0,200,21,0,200,23,0,221,24,0,221,25,0,200,26,0,200,27,0,200,28,0,200,29,0,200,30,0,200,31,0,200,32,0,200,194,0,621,195,0,621,196,0,620,199,0,621*6B
$PAIRSAT,2,23,65,0,200,67,0,200,68,0,200,69,0,201,70,0,201,71,0,201,72,0,200,73,0,201,74,0,200,75,0,200,76,0,200,77,0,200,78,0,200,79,0,201,80,0,201,81,0,200,82,0,200,83,0,200,84,0,200,85,0,201,86,0,201,87,0,200,88,0,200*53
$PAIRSAT,3,23,2,0,1221,3,0,1221,4,0,1200,5,0,200,7,0,1221,8,0,1221,9,0,1200,10,0,1200,11,0,1200,12,0,1200,13,0,1221,15,0,1221,19,0,1200,21,0,1200,24,0,1200,25,0,1200,26,0,1221,27,0,1200,30,0,1221,31,0,1200,33,0,1200,34,0,1200,36,0,1200*6A
$PAIRSAT,4,50,1,0,200,2,0,200,3,0,200,4,0,200,5,0,200,6,0,201,7,0,200,8,0,201,9,0,201,10,0,200,11,0,200,12,0,200,13,0,201,14,0,200,15,0,200,16,0,201,19,0,621,20,0,621,21,0,600,22,0,621,23,0,600,24,0,600,25,0,600,26,0,600,27,0,600,28,0,600,29,0,621,30,0,600,31,0,200,32,0,600,33,0,600,34,0,600,35,0,621,36,0,621,37,0,621,38,0,621,39,0,621,40,0,600,41,0,600,42,0,600,43,0,600,44,0,600,45,0,600,46,0,621,56,0,200,57,0,200,58,0,200,59,0,600,60,0,600,61,0,600*41
$PAIRDGP,8,5,10,12,13,15,18,23,24*72
$GNGGA,111549.200,2500.8063178,N,12132.4775138,E,2,63,0.42,6.433,M,15.25,M,7,3335*75
$GNRMC,111549.200,A,2500.8063178,N,12132.4775138,E,0.02,332.18,260623,,,D,V*02
$GPHDT,46.969,T*01
$GNACCURACY,3.0*15
$GNGGA,111549.300,2500.8063118,N,12132.4775078,E,2,63,0.42,6.429,M,15.25,M,7,3335*7C
$GNRMC,111549.300,A,2500.8063118,N,12132.4775078,E,0.01,332.18,260623,,,D,V*03
$GPHDT,,T*1B
$GNACCURACY,3.0*15
$GNGGA,111549.400,2500.8063058,N,12132.4775078,E,2,63,0.42,6.426,M,15.25,M,7,3335*71
$GNRMC,111549.400,A,2500.8063058,N,12132.4775078,E,0.01,332.18,260623,,,D,V*01
$GPHDT,,T*1B
$GNACCURACY,3.1*14
$GNGGA,111549.500,2500.8062998,N,12132.4775018,E,2,62,0.44,6.425,M,15.25,M,7,3335*76
$GNRMC,111549.500,A,2500.8062998,N,12132.4775018,E,0.02,332.18,260623,,,D,V*01
$GPHDT,,T*1B
