$FW : RTK35X,V1.1X0314AS,Lib20210517,1*54
$Tool : LOCOSYS , GNSS Firebird , v1.0.0.19*39
$---------------------------------------------------*2D
5,0,201,16,0,200,17,0,200,18,0,221,19,0,200,20,0,200,21,0,200,23,0,221,24,0,221,25,0,200,26,0,200,27,0,200,28,0,200,29,0,200,30,0,200,31,0,200,32,0,200,194,0,621,195,0,621,196,0,620,199,0,621*6B
$PAIRSAT,2,23,65,0,200,67,0,200,68,0,200,69,0,201,70,0,201,71,0,201,72,0,200,73,0,201,74,0,200,75,0,200,76,0,200,77,0,200,78,0,200,79,0,201,80,0,201,81,0,200,82,0,200,83,0,200,84,0,200,85,0,201,86,0,201,87,0,200,88,0,200*53
$PAIRSAT,3,23,2,0,1221,3,0,1221,4,0,1200,5,0,200,7,0,1221,8,0,1221,9,0,1200,10,0,1200,11,0,1200,12,0,1200,13,0,1221,15,0,1221,19,0,1200,21,0,1200,24,0,1200,25,0,1200,26,0,1221,27,0,1200,30,0,1221,31,0,1200,33,0,1200,34,0,1200,36,0,1200*6A
$PAIRSAT,4,50,1,0,200,2,0,200,3,0,200,4,0,200,5,0,200,6,0,201,7,0,200,8,0,201,9,0,201,10,0,200,11,0,200,12,0,200,13,0,201,14,0,200,15,0,200,16,0,201,19,0,621,20,0,621,21,0,600,22,0,621,23,0,600,24,0,600,25,0,600,26,0,600,27,0,600,28,0,600,29,0,621,30,0,600,31,0,200,32,0,600,33,0,600,34,0,600,35,0,621,36,0,621,37,0,621,38,0,621,39,0,621,40,0,600,41,0,600,42,0,600,43,0,600,44,0,600,45,0,600,46,0,621,56,0,200,57,0,200,58,0,200,59,0,600,60,0,600,61,0,600*41
$PAIRDGP,8,5,10,12,13,15,18,23,24*72
$GNGGA,111558.200,2500.8056878,N,12132.4774778,E,2,65,0.42,6.381,M,15.25,M,16,3335*41
$GNRMC,111558.200,A,2500.8056878,N,12132.4774778,E,0.02,332.18,260623,,,D,V*0E
$GPHDT,,T*1B
$GNACCURACY,3.0*15
$GNGGA,111558.300,2500.8056818,N,12132.4774838,E,2,65,0.42,6.380,M,15.25,M,16,3335*4C
$GNRMC,111558.300,A,2500.8056818,N,12132.4774838,E,0.01,332.18,260623,,,D,V*01
$GPHDT,,T*1B
$GNACCURACY,3.0*15
$GNGGA,111558.400,2500.8056818,N,12132.4774898,E,2,65,0.42,6.379,M,15.25,M,16,3335*47
$GNRMC,111558.400,A,2500.8056818,N,12132.4774898,E,0.01,332.18,260623,,,D,V*0C
$GPHDT,,T*1B
$GNACCURACY,3.0*15
$GNGGA,111558.500,2500.8056758,N,12132.4774958,E,2,65,0.42,6.379,M,15.25,M,16,3335*40
$GNRMC,111558.500,A,2500.8056758,N,12132.4774958,E,0.01,332.18,260623,,,D,V*0B
$GPHDT,,T*1B
$GNACCURACY,3.0*15
$GNGGA,111558.600,2500.8056698,N,12132.4775018,E,2,65,0.42,6.379,M,15.25,M,16,3335*42
$GNRMC,111558.600,A,2500.8056698,N,12132.4775018,E,0.01,332.18,260623,,,D,V*09
$GPHDT,,T*1B
$GNACCURACY,3.0*15
$GNGGA,111558.700,2500.8056638,N,12132.4775078,E,2,65,0.42,6.378,M,15.25,M,16,3335*4E
$GNRMC,111558.700,A,2500.8056638,N,12132.4775078,E,0.00,332.18,260623,,,D,V*05
$GPHDT,,T*1B
$GNACCURACY,3.0*15
$GNGGA,111558.800,2500.8056578,N,12132.4775138,E,2,66,0.42,6.377,M,15.25,M,16,3335*4F
$GNRMC,111558.800,A,2500.8056578,N,12132.4775138,E,0.01,332.18,260623,,,D,V*09
$GPHDT,,T*1B
$GNACCURACY,3.0*15
$GNGGA,111558.900,2500.8056518,N,12132.4775258,E,2,66,0.42,6.375,M,15.25,M,16,3335*4F
$GNRMC,111558.900,A,2500.8056518,N,12132.4775258,E,0.01,332.18,260623,,,D,V*0B
$GPHDT,,T*1B
$GNACCURACY,3.0*15
$GNGGA,111559.000,2500.8056458,N,12132.4775318,E,2,66,0.42,6.374,M,15.25,M,17,3335*47
$GNRMC,111559.000,A,2500.8056458,N,12132.4775318,E,0.01,332.18,260623,,,D,V*03
$GPHDT,,T*1B
$GNACCURACY,3.0*15
$GNGGA,111559.100,2500.8056458,N,12132.4775438,E,2,66,0.42,6.372,M,15.25,M,17,3335*45
$GNRMC,111559.100,A,2500.8056458,N,12132.4775438,E,0.00,332.18,260623,,,D,V*06
$GPHDT,,T*1B
$GNGSA,A,3,24,196,199,18,23,15,195,194,05,12,10,13,0.68,0.42,0.54,1*09
$GNGSA,A,3,80,70,85,73,86,71,79,69,,,,,0.68,0.42,0.54,2*04
$GNGSA,A,3,13,08,07,26,15,02,30,03,,,,,0.68,0.42,0.54,3*05
$GNGSA,A,3,38,08,39,16,13,06,46,09,19,20,36,37,0.68,0.42,0.54,4*07
$GNGSA,A,3,29,35,,,,,,,,,,,0.68,0.42,0.54,4*00
$GPGSV,4,1,16,24,78,055,43,196,74,062,39,199,60,167,39,50,60,167,42,1*63
$GPGSV,4,2,16,18,60,257,38,23,46,335,34,15,39,042,29,195,36,179,18,1*5D
$GPGSV,4,3,16,194,29,139,43,05,22,115,31,12,17,145,24,10,14,316,34,1*59
$GPGSV,4,4,16,13,11,053,17,32,07,265,21,25,06,179,,29,03,200,,1*61
$GPGSV,2,1,08,24,78,055,48,196,74,062,43,199,60,167,44,18,60,257,39,8*6F
$GPGSV,2,2,08,23,46,335,35,195,36,179,23,194,29,139,44,10,14,316,41,8*6A
$GLGSV,3,1,09,80,48,086,41,70,40,003,32,85,39,252,30,73,32,161,42,1*79
$GLGSV,3,2,09,86,25,308,37,71,20,309,32,79,15,036,27,69,15,068,19,1*7E
$GLGSV,3,3,09,84,13,192,,1*45
$GAGSV,3,1,09,13,59,238,29,08,48,020,42,07,43,298,31,26,30,310,33,7*70
$GAGSV,3,2,09,15,27,174,38,02,24,090,14,30,23,146,39,03,12,061,28,7*7D
$GAGSV,3,3,09,25,04,046,,7*4B
$GAGSV,2,1,08,13,59,238,29,08,48,020,41,07,43,298,26,26,30,310,27,1*76
$GAGSV,2,2,08,15,27,174,34,02,24,090,33,30,23,146,42,03,12,061,14,1*71
$GBGSV,4,1,15,38,83,088,39,08,76,006,39,39,72,275,37,16,66,251,33,1*72
$GBGSV,4,2,15,13,66,337,38,06,65,247,32,46,57,120,43,09,49,234,15,1*7E
$GBGSV,4,3,15,19,47,339,27,20,44,057,28,36,30,184,27,37,25,051,22,1*71
$GBGSV,4,4,15,29,22,215,27,35,22,273,20,22,09,298,23,1*43
$GBGSV,3,1,09,38,83,088,37,39,72,275,28,46,57,120,46,19,47,339,37,4*7E
$GBGSV,3,2,09,20,44,057,30,36,30,184,15,37,25,051,32,35,22,273,25,4*76
$GBGSV,3,3,09,22,09,298,24,4*46
$GNACCURACY,3.0*15
$PAIRSAT,1,35,1,0,200,2,0,200,3,0,200,4,0,200,5,0,201,6,0,200,7,0,200,8,0,200,9,0,200,10,0,221,11,0,200,12,0,201,13,0,201,14,0,200,15,0,201,16,0,200,17,0,200,18,0,221,19,0,200,20,0,200,21,0,200,23,0,221,24,0,221,25,0,200,26,0,200,27,0,200,28,0,200,29,0,200,30,0,200,31,0,200,32,0,200,194,0,621,195,0,621,196,0,620,199,0,621*6B
$PAIRSAT,2,23,65,0,200,67,0,200,68,0,200,69,0,201,70,0,201,71,0,201,72,0,200,73,0,201,74,0,200,75,0,200,76,0,200,77,0,200,78,0,200,79,0,201,80,0,201,81,0,200,82,0,200,83,0,200,84,0,200,85,0,201,86,0,201,87,0,200,88,0,200*53
$PAIRSAT,3,23,2,0,1221,3,0,1221,4,0,1200,5,0,200,7,0,1221,8,0,1221,9,0,1200,10,0,1200,11,0,1200,12,0,1200,13,0,1221,15,0,1221,19,0,1200,21,0,1200,24,0,1200,25,0,1200,26,0,1221,27,0,1200,30,0,1221,31,0,1200,33,0,1200,34,0,1200,36,0,1200*6A
$PAIRSAT,4,50,1,0,200,2,0,200,3,0,200,4,0,200,5,0,200,6,0,201,7,0,200,8,0,201,9,0,201,10,0,200,11,0,200,12,0,200,13,0,201,14,0,200,15,0,200,16,0,201,19,0,621,20,0,621,21,0,600,22,0,621,23,0,600,24,0,600,25,0,600,26,0,600,27,0,600,28,0,600,29,0,621,30,0,600,31,0,200,32,0,600,33,0,600,34,0,600,35,0,621,36,0,621,37,0,621,38,0,621,39,0,621,40,0,600,41,0,600,42,0,600,43,0,600,44,0,600,45,0,600,46,0,621,56,0,200,57,0,200,58,0,200,59,0,600,60,0,600,61,0,600*41
$PAIRDGP,8,5,10,12,13,15,18,23,24*72
$GNGGA,111559.200,2500.8056398,N,12132.4775498,E,2,66,0.42,6.374,M,15.25,M,17,3335*41
$GNRMC,111559.200,A,2500.8056398,N,12132.4775498,E,0.01,332.18,260623,,,D,V*05
$GPHDT,,T*1B
$GNACCURACY,3.0*15
$GNGGA,111559.300,2500.8056398,N,12132.4775618,E,2,66,0.42,6.372,M,15.25,M,17,3335*4C
$GNRMC,111559.300,A,2500.8056398,N,12132.4775618,E,0.01,332.18,260623,,,D,V*0E
$GPHDT,,T*1B
$GNACCURACY,3.0*15
$GNGGA,111559.400,2500.8056338,N,12132.4775678,E,2,66,0.42,6.371,M,15.25,M,17,3335*44
$GNRMC,111559.400,A,2500.8056338,N,12132.4775678,E,0.01,332.18,260623,,,D,V*05
$GPHDT,,T*1B
$GNACCURACY,3.0*15
$GNGGA,111559.500,2500.8056278,N,12132.4775738,E,2,66,0.42,6.371,M,15.25,M,17,3335*45
$GNRMC,111559.500,A,2500.8056278,N,12132.4775738,E,0.00,332.18,260623,,,D,V*05
$GPHDT,,T*1B
$GNACCURACY,3.0*15
$GNGGA,111559.600,2500.8056218,N,12132.4775858,E,2,66,0.42,6.371,M,15.25,M,17,3335*49
$GNRMC,111559.600,A,2500.8056218,N,12132.4775858,E,0.01,332.18,260623,,,D,V*08
$GPHDT,,T*1B
$GNACCURACY,3.0*15
$GNGGA,111559.700,2500.8056218,N,12132.4775918,E,2,67,0.42,6.370,M,15.25,M,17,3335*4D
$GNRMC,111559.700,A,2500.8056218,N,12132.4775918,E,0.01,332.18,260623,,,D,V*0C
$GPHDT,,T*1B
$GNACCURACY,3.1*14
$GNGGA,111559.800,2500.8056158,N,12132.4776038,E,2,67,0.42,6.369,M,15.25,M,17,3335*45
$GNRMC,111559.800,A,2500.8056158,N,12132.4776038,E,0.02,332.18,260623,,,D,V*0F
$GPHDT,,T*1B
$GNACCURACY,3.1*14
$GNGGA,111559.900,2500.8056098,N,12132.4776098,E,2,67,0.42,6.369,M,15.25,M,17,3335*43
$GNRMC,111559.900,A,2500.8056098,N,12132.4776098,E,0.01,332.18,260623,,,D,V*0A
$GPHDT,,T*1B
$GNACCURACY,3.1*14
$GNGGA,111600.000,2500.8056038,N,12132.4776158,E,2,67,0.42,6.368,M,15.25,M,18,3335*4C
$GNRMC,111600.000,A,2500.8056038,N,12132.4776158,E,0.01,332.18,260623,,,D,V*0B
$GPHDT,,T*1B
$GNACCURACY,3.1*14
$GNGGA,111600.100,2500.8055978,N,12132.4776218,E,2,67,0.42,6.367,M,15.25,M,18,3335*4B
$GNRMC,111600.100,A,2500.8055978,N,12132.4776218,E,0.01,332.18,260623,,,D,V*03
$GPHDT,,T*1B
$GNGSA,A,3,24,196,199,18,23,15,195,194,05,12,10,13,0.68,0.42,0.54,1*09
$GNGSA,A,3,80,70,85,73,86,71,79,69,,,,,0.68,0.42,0.54,2*04
$GNGSA,A,3,13,08,07,26,15,02,30,03,,,,,0.68,0.42,0.54,3*05
$GNGSA,A,3,38,08,39,16,13,06,46,09,19,20,36,37,0.68,0.42,0.54,4*07
$GNGSA,A,3,29,35,,,,,,,,,,,0.68,0.42,0.54,4*00
$GPGSV,4,1,16,24,78,055,43,196,74,062,39,199,60,167,39,50,60,167,42,1*63
$GPGSV,4,2,16,18,60,257,38,23,46,335,34,15,39,042,29,195,36,179,20,1*56
$GPGSV,4,3,16,194,29,139,43,05,22,115,31,12,17,145,25,10,14,316,35,1*59
$GPGSV,4,4,16,13,11,053,15,32,07,265,19,25,06,179,,29,03,200,,1*68
$GPGSV,2,1,08,24,78,055,48,196,74,062,43,18,60,257,37,199,60,167,44,8*61
$GPGSV,2,2,08,23,46,335,36,195,36,179,24,194,29,139,44,10,14,316,41,8*6E
$GLGSV,3,1,09,80,48,086,41,70,40,003,32,85,39,252,32,73,32,161,42,1*7B
$GLGSV,3,2,09,86,25,308,37,71,20,309,35,79,15,036,26,69,15,068,19,1*78
$GLGSV,3,3,09,84,13,192,,1*45
$GAGSV,3,1,09,13,59,238,29,08,48,020,42,07,43,298,30,26,30,310,34,7*76
$GAGSV,3,2,09,15,27,174,38,02,24,090,17,30,23,146,39,03,12,061,28,7*7E
$GAGSV,3,3,09,25,04,046,,7*4B
$GAGSV,2,1,08,13,59,238,29,08,48,020,41,07,43,298,26,26,30,310,31,1*71
$GAGSV,2,2,08,15,27,174,34,02,24,090,33,30,23,146,42,03,12,061,14,1*71
$GBGSV,4,1,15,38,83,088,39,08,76,006,39,39,72,275,37,16,66,251,33,1*72
$GBGSV,4,2,15,13,66,337,38,06,65,247,32,46,57,120,43,09,49,234,17,1*7C
$GBGSV,4,3,15,19,47,339,30,20,44,057,30,36,30,184,28,37,25,051,22,1*71
$GBGSV,4,4,15,29,22,215,28,35,22,273,20,22,09,298,22,1*4D
$GBGSV,3,1,10,38,83,088,37,39,72,275,27,46,57,120,46,19,47,339,37,4*79
$GBGSV,3,2,10,20,44,057,31,36,30,184,17,37,25,051,32,29,22,215,23,4*76
$GBGSV,3,3,10,35,22,273,24,22,09,298,24,4*78
$GNACCURACY,3.1*14
$PAIRSAT,1,35,1,0,200,2,0,200,3,0,200,4,0,200,5,0,201,6,0,200,7,0,200,8,0,200,9,0,200,10,0,221,11,0,200,12,0,201,13,0,201,14,0,200,15,0,201,16,0,200,17,0,200,18,0,221,19,0,200,20,0,200,21,0,200,23,0,221,24,0,221,25,0,200,26,0,200,27,0,200,28,0,200,29,0,200,30,0,200,31,0,200,32,0,200,194,0,621,195,0,621,196,0,620,199,0,621*6B
$PAIRSAT,2,23,65,0,200,67,0,200,68,0,200,69,0,201,70,0,201,71,0,201,72,0,200,73,0,201,74,0,200,75,0,200,76,0,200,77,0,200,78,0,200,79,0,201,80,0,201,81,0,200,82,0,200,83,0,200,84,0,200,85,0,201,86,0,201,87,0,200,88,0,200*53
$PAIRSAT,3,23,2,0,1221,3,0,1221,4,0,1200,5,0,200,7,0,1221,8,0,1221,9,0,1200,10,0,1200,11,0,1200,12,0,1200,13,0,1221,15,0,1221,19,0,1200,21,0,1200,24,0,1200,25,0,1200,26,0,1221,27,0,1200,30,0,1221,31,0,1200,33,0,1200,34,0,1200,36,0,1200*6A
$PAIRSAT,4,50,1,0,200,2,0,200,3,0,200,4,0,200,5,0,200,6,0,201,7,0,200,8,0,201,9,0,201,10,0,200,11,0,200,12,0,200,13,0,201,14,0,200,15,0,200,16,0,201,19,0,621,20,0,621,21,0,600,22,0,621,23,0,600,24,0,600,25,0,600,26,0,600,27,0,600,28,0,600,29,0,621,30,0,600,31,0,200,32,0,600,33,0,600,34,0,600,35,0,621,36,0,621,37,0,621,38,0,621,39,0,621,40,0,600,41,0,600,42,0,600,43,0,600,44,0,600,45,0,600,46,0,621,56,0,200,57,0,200,58,0,200,59,0,600,60,0,600,61,0,600*41
$PAIRDGP,8,5,10,12,13,15,18,23,24*72
$GNGGA,111600.200,2500.8055978,N,12132.4776278,E,2,67,0.42,6.368,M,15.25,M,18,3335*41
$GNRMC,111600.200,A,2500.8055978,N,12132.4776278,E,0.01,332.18,260623,,,D,V*06
$GPHDT,,T*1B
$GNACCURACY,3.1*14
$GNGGA,111600.300,2500.8055918,N,12132.4776278,E,2,67,0.42,6.368,M,15.25,M,18,3335*46
$GNRMC,111600.300,A,2500.8055918,N,12132.4776278,E,0.01,332.18,260623,,,D,V*01
$GPHDT,,T*1B
$GNACCURACY,3.1*14
$GNGGA,111600.400,2500.8055858,N,12132.4776278,E,2,67,0.42,6.369,M,15.25,M,18,3335*45
$GNRMC,111600.400,A,2500.8055858,N,12132.4776278,E,0.01,332.18,260623,,,D,V*03
$GPHDT,,T*1B
$GNACCURACY,3.1*14
$GNGGA,111600.500,2500.8055798,N,12132.4776278,E,2,67,0.42,6.370,M,15.25,M,18,3335*4F
$GNRMC,111600.500,A,2500.8055798,N,12132.4776278,E,0.01,332.18,260623,,,D,V*01
$GPHDT,,T*1B
$GNACCURACY,3.1*14
$GNGGA,111600.600,2500.8055738,N,12132.4776278,E,2,67,0.42,6.371,M,15.25,M,18,3335*47
$GNRMC,111600.600,A,2500.8055738,N,12132.4776278,E,0.01,332.18,260623,,,D,V*08
$GPHDT,,T*1B
$GNACCURACY,3.1*14
$GNGGA,111600.700,2500.8055678,N,12132.4776338,E,2,67,0.42,6.372,M,15.25,M,18,3335*45
$GNRMC,111600.700,A,2500.8055678,N,12132.4776338,E,0.01,332.18,260623,,,D,V*09
$GPHDT,,T*1B
$GNACCURACY,3.1*14
$GNGGA,111600.800,2500.8055618,N,12132.4776338,E,2,67,0.42,6.372,M,15.25,M,18,3335*4C
$GNRMC,111600.800,A,2500.8055618,N,12132.4776338,E,0.00,332.18,260623,,,D,V*01
$GPHDT,,T*1B
$GNACCURACY,3.1*14
$GNGGA,111600.900,2500.8055618,N,12132.4776398,E,2,67,0.42,6.371,M,15.25,M,18,3335*44
$GNRMC,111600.900,A,2500.8055618,N,12132.4776398,E,0.00,332.18,260623,,,D,V*0A
$GPHDT,,T*1B
$GNACCURACY,3.1*14
$GNGGA,111601.000,2500.8055558,N,12132.4776398,E,2,67,0.42,6.371,M,15.25,M,19,3335*4A
$GNRMC,111601.000,A,2500.8055558,N,12132.4776398,E,0.00,332.18,260623,,,D,V*05
$GPHDT,,T*1B
$GNACCURACY,3.1*14
$GNGGA,111601.100,2500.8055498,N,12132.4776458,E,2,67,0.42,6.370,M,15.25,M,19,3335*4C
$GNRMC,111601.100,A,2500.8055498,N,12132.4776458,E,0.01,332.18,260623,,,D,V*03
$GPHDT,,T*1B
$GNGSA,A,3,24,196,199,18,23,15,195,194,05,12,10,13,0.68,0.42,0.54,1*09
$GNGSA,A,3,80,70,85,73,86,71,79,69,,,,,0.68,0.42,0.54,2*04
$GNGSA,A,3,13,08,07,26,15,02,30,03,,,,,0.68,0.42,0.54,3*05
$GNGSA,A,3,38,08,39,16,13,06,46,09,19,20,36,37,0.68,0.42,0.54,4*07
$GNGSA,A,3,29,35,,,,,,,,,,,0.68,0.42,0.54,4*00
$GPGSV,4,1,16,24,78,055,43,196,74,062,39,199,60,167,39,50,60,167,42,1*63
$GPGSV,4,2,16,18,60,257,38,23,46,335,34,15,39,042,26,195,36,179,21,1*58
$GPGSV,4,3,16,194,29,139,42,05,22,115,28,12,17,145,24,10,14,316,36,1*52
$GPGSV,4,4,16,13,11,053,15,32,07,265,18,25,06,179,,29,03,200,,1*69
$GPGSV,2,1,08,24,78,055,48,196,74,062,43,18,60,257,37,199,60,167,44,8*61
$GPGSV,2,2,08,23,46,335,36,195,36,179,25,194,29,139,44,10,14,316,41,8*6F
$GLGSV,3,1,09,80,48,086,41,70,40,003,32,85,39,252,30,73,32,161,42,1*79
$GLGSV,3,2,09,86,25,308,36,71,20,309,34,79,15,036,26,69,15,068,22,1*70
$GLGSV,3,3,09,84,13,192,,1*45
$GAGSV,3,1,09,13,59,238,29,08,48,020,42,07,43,298,29,26,30,310,34,7*7E
$GAGSV,3,2,09,15,27,174,38,02,24,090,19,30,23,146,39,03,12,061,27,7*7F
$GAGSV,3,3,09,25,04,046,,7*4B
$GAGSV,2,1,08,13,59,238,26,08,48,020,41,07,43,298,26,26,30,310,31,1*7E
$GAGSV,2,2,08,15,27,174,34,02,24,090,32,30,23,146,42,03,12,061,13,1*77
$GBGSV,4,1,15,38,83,088,39,08,76,006,39,39,72,275,37,16,66,251,33,1*72
$GBGSV,4,2,15,13,66,337,37,06,65,247,32,46,57,120,42,09,49,234,17,1*72
$GBGSV,4,3,15,19,47,339,29,20,44,057,32,36,30,184,28,37,25,051,18,1*72
$GBGSV,4,4,15,29,22,215,29,35,22,273,28,22,09,298,24,1*42
$GBGSV,3,1,10,38,83,088,37,39,72,275,26,46,57,120,46,19,47,339,37,4*78
$GBGSV,3,2,10,20,44,057,31,36,30,184,15,37,25,051,32,29,22,215,25,4*72
$GBGSV,3,3,10,35,22,273,29,22,09,298,24,4*75
$GNACCURACY,3.1*14
$PAIRSAT,1,35,1,0,200,2,0,200,3,0,200,4,0,200,5,0,201,6,0,200,7,0,200,8,0,200,9,0,200,10,0,221,11,0,200,12,0,201,13,0,201,14,0,200,15,0,201,16,0,200,17,0,200,18,0,221,19,0,200,20,0,200,21,0,200,23,0,221,24,0,221,25,0,200,26,0,200,27,0,200,28,0,200,29,0,200,30,0,200,31,0,200,32,0,200,194,0,621,195,0,621,196,0,620,199,0,621*6B
$PAIRSAT,2,23,65,0,200,67,0,200,68,0,200,69,0,201,70,0,201,71,0,201,72,0,200,73,0,201,74,0,200,75,0,200,76,0,200,77,0,200,78,0,200,79,0,201,80,0,201,81,0,200,82,0,200,83,0,200,84,0,200,85,0,201,86,0,201,87,0,200,88,0,200*53
$PAIRSAT,3,23,2,0,1221,3,0,1221,4,0,1200,5,0,200,7,0,1221,8,0,1221,9,0,1200,10,0,1200,11,0,1200,12,0,1200,13,0,1221,15,0,1221,19,0,1200,21,0,1200,24,0,1200,25,0,1200,26,0,1221,27,0,1200,30,0,1221,31,0,1200,33,0,1200,34,0,1200,36,0,1200*6A
$PAIRSAT,4,50,1,0,200,2,0,200,3,0,200,4,0,200,5,0,200,6,0,201,7,0,200,8,0,201,9,0,201,10,0,200,11,0,200,12,0,200,13,0,201,14,0,200,15,0,200,16,0,201,19,0,621,20,0,621,21,0,600,22,0,621,23,0,600,24,0,600,25,0,600,26,0,600,27,0,600,28,0,600,29,0,621,30,0,600,31,0,200,32,0,600,33,0,600,34,0,600,35,0,621,36,0,621,37,0,621,38,0,621,39,0,621,40,0,600,41,0,600,42,0,600,43,0,600,44,0,600,45,0,600,46,0,621,56,0,200,57,0,200,58,0,200,59,0,600,60,0,600,61,0,600*41
$PAIRDGP,8,5,10,12,13,15,18,23,24*72
$GNGGA,111601.200,2500.8055498,N,12132.4776458,E,2,67,0.42,6.369,M,15.25,M,19,3335*47
$GNRMC,111601.200,A,2500.8055498,N,12132.4776458,E,0.00,332.18,260623,,,D,V*01
$GPHDT,,T*1B
$GNACCURACY,3.1*14
$GNGGA,111601.300,2500.8055438,N,12132.4776518,E,2,67,0.42,6.367,M,15.25,M,19,3335*47
$GNRMC,111601.300,A,2500.8055438,N,12132.4776518,E,0.00,332.18,260623,,,D,V*0F
$GPHDT,,T*1B
$GNACCURACY,3.1*14
$GNGGA,111601.400,2500.8055438,N,12132.4776518,E,2,67,0.42,6.366,M,15.25,M,19,3335*41
$GNRMC,111601.400,A,2500.8055438,N,12132.4776518,E,0.00,332.18,260623,,,D,V*08
$GPHDT,,T*1B
$GNACCURACY,3.1*14
$GNGGA,111601.500,2500.8055378,N,12132.4776578,E,2,67,0.42,6.362,M,15.25,M,19,3335*41
$GNRMC,111601.500,A,2500.8055378,N,12132.4776578,E,0.00,332.18,260623,,,D,V*0C
$GPHDT,,T*1B
$GNACCURACY,3.1*14
$GNGGA,111601.600,2500.8055318,N,12132.4776578,E,2,67,0.42,6.360,M,15.25,M,19,3335*46
$GNRMC,111601.600,A,2500.8055318,N,12132.4776578,E,0.00,332.18,260623,,,D,V*09
$GPHDT,,T*1B
$GNACCURACY,3.1*14
$GNGGA,111601.700,2500.8055318,N,12132.4776638,E,2,67,0.42,6.355,M,15.25,M,19,3335*46
$GNRMC,111601.700,A,2500.8055318,N,12132.4776638,E,0.00,332.18,260623,,,D,V*0F
$GPHDT,,T*1B
$GNACCURACY,3.1*14
$GNGGA,111601.800,2500.8055258,N,12132.4776758,E,2,67,0.42,6.351,M,15.25,M,19,3335*4F
$GNRMC,111601.800,A,2500.8055258,N,12132.4776758,E,0.01,332.18,260623,,,D,V*03
$GPHDT,,T*1B
$GNACCURACY,3.1*14
$GNGGA,111601.900,2500.8055258,N,12132.4776758,E,2,67,0.42,6.348,M,15.25,M,19,3335*46
$GNRMC,111601.900,A,2500.8055258,N,12132.4776758,E,0.00,332.18,260623,,,D,V*03
$GPHDT,,T*1B
$GNACCURACY,3.1*14
$GNGGA,111602.000,2500.8055198,N,12132.4776818,E,2,67,0.42,6.345,M,15.25,M,20,3335*4F
$GNRMC,111602.000,A,2500.8055198,N,12132.4776818,E,0.00,332.18,260623,,,D,V*0D
$GPHDT,,T*1B
$GNACCURACY,3.1*14
$GNGGA,111602.100,2500.8055138,N,12132.4776818,E,2,67,0.42,6.343,M,15.25,M,20,3335*42
$GNRMC,111602.100,A,2500.8055138,N,12132.4776818,E,0.00,332.18,260623,,,D,V*06
$GPHDT,,T*1B
$GNGSA,A,3,24,196,199,18,23,15,195,194,05,12,10,13,0.68,0.42,0.54,1*09
$GNGSA,A,3,80,70,85,73,86,71,79,69,,,,,0.68,0.42,0.54,2*04
$GNGSA,A,3,13,08,07,26,15,02,30,03,,,,,0.68,0.42,0.54,3*05
$GNGSA,A,3,38,08,39,16,13,06,46,09,19,20,36,37,0.68,0.42,0.54,4*07
$GNGSA,A,3,35,29,,,,,,,,,,,0.68,0.42,0.54,4*00
$GPGSV,4,1,16,24,78,055,43,196,74,062,39,199,60,167,39,50,60,167,42,1*63
$GPGSV,4,2,16,18,60,257,38,23,46,335,33,15,39,042,29,195,36,179,23,1*52
$GPGSV,4,3,16,194,29,139,42,05,22,115,31,12,17,145,26,10,14,316,33,1*5D
$GPGSV,4,4,16,13,11,053,13,32,07,265,17,25,06,179,,29,03,200,,1*60
$GPGSV,2,1,08,24,78,055,48,196,74,062,43,18,60,257,38,199,60,167,44,8*6E
$GPGSV,2,2,08,23,46,335,36,195,36,179,24,194,29,139,43,10,14,316,41,8*69
$GLGSV,2,1,08,80,48,086,41,70,40,003,32,85,39,252,26,73,33,161,42,1*7F
$GLGSV,2,2,08,86,25,308,36,71,20,309,30,79,15,036,25,69,14,068,21,1*75
$GAGSV,3,1,09,13,59,238,29,08,48,020,42,07,43,298,29,26,30,310,33,7*79
$GAGSV,3,2,09,15,27,174,38,02,24,090,18,30,23,146,39,03,12,061,26,7*7F
$GAGSV,3,3,09,25,04,046,,7*4B
$GAGSV,2,1,08,13,59,238,26,08,48,020,41,07,43,298,27,26,30,310,32,1*7C
$GAGSV,2,2,08,15,27,174,34,02,24,090,32,30,23,146,42,03,12,061,13,1*77
$GBGSV,5,1,17,38,83,088,38,08,76,006,38,39,72,275,38,16,66,251,34,1*79
$GBGSV,5,2,17,13,66,337,37,06,65,247,32,46,57,120,42,09,49,234,21,1*74
$GBGSV,5,3,17,19,47,339,25,20,44,057,31,36,30,184,28,37,25,051,20,1*75
$GBGSV,5,4,17,35,22,273,27,29,22,215,30,22,09,298,24,32,04,095,,1*7F
$GBGSV,5,5,17,44,01,315,,1*46
$GBGSV,3,1,10,38,83,088,37,39,72,275,27,46,57,120,46,19,47,339,37,4*79
$GBGSV,3,2,10,20,44,057,32,36,30,184,14,37,25,051,32,29,22,215,24,4*71
$GBGSV,3,3,10,35,22,273,30,22,09,298,22,4*7B
$GNACCURACY,3.1*14
$PAIRSAT,1,35,1,0,200,2,0,200,3,0,200,4,0,200,5,0,201,6,0,200,7,0,200,8,0,200,9,0,200,10,0,221,11,0,200,12,0,201,13,0,201,14,0,200,15,0,201,16,0,200,17,0,200,18,0,221,19,0,200,20,0,200,21,0,200,23,0,221,24,0,221,25,0,200,26,0,200,27,0,200,28,0,200,29,0,200,30,0,200,31,0,200,32,0,200,194,0,621,195,0,621,196,0,620,199,0,621*6B
$PAIRSAT,2,23,65,0,200,67,0,200,68,0,200,69,0,201,70,0,201,71,0,201,72,0,200,73,0,201,74,0,200,75,0,200,76,0,200,77,0,200,78,0,200,79,0,201,80,0,201,81,0,200,82,0,200,83,0,200,84,0,200,85,0,201,86,0,201,87,0,200,88,0,200*53
$PAIRSAT,3,23,2,0,1221,3,0,1221,4,0,1200,5,0,200,7,0,1221,8,0,1221,9,0,1200,10,0,1200,11,0,1200,12,0,1200,13,0,1221,15,0,1221,19,0,1200,21,0,1200,24,0,1200,25,0,1200,26,0,1221,27,0,1200,30,0,1221,31,0,1200,33,0,1200,34,0,1200,36,0,1200*6A
$PAIRSAT,4,50,1,0,200,2,0,200,3,0,200,4,0,200,5,0,200,6,0,201,7,0,200,8,0,201,9,0,201,10,0,200,11,0,200,12,0,200,13,0,201,14,0,200,15,0,200,16,0,201,19,0,621,20,0,621,21,0,600,22,0,621,23,0,600,24,0,600,25,0,600,26,0,600,27,0,600,28,0,600,29,0,621,30,0,600,31,0,200,32,0,600,33,0,600,34,0,600,35,0,621,36,0,621,37,0,621,38,0,621,39,0,621,40,0,600,41,0,600,42,0,600,43,0,600,44,0,600,45,0,600,46,0,621,56,0,200,57,0,200,58,0,200,59,0,600,60,0,600,61,0,600*41
$PAIRDGP,8,5,10,12,13,15,18,23,24*72
$GNGGA,111602.200,2500.8055138,N,12132.4776878,E,2,67,0.42,6.339,M,15.25,M,20,3335*4A
$GNRMC,111602.200,A,2500.8055138,N,12132.4776878,E,0.00,332.18,260623,,,D,V*03
$GPHDT,,T*1B
$GNACCURACY,3.1*14
$GNGGA,111602.300,2500.8055078,N,12132.4776878,E,2,67,0.42,6.336,M,15.25,M,20,3335*41
$GNRMC,111602.300,A,2500.8055078,N,12132.4776878,E,0.01,332.18,260623,,,D,V*06
$GPHDT,,T*1B
$GNACCURACY,3.1*14
$GNGGA,111602.400,2500.8055078,N,12132.4776938,E,2,67,0.42,6.333,M,15.25,M,20,3335*46
$GNRMC,111602.400,A,2500.8055078,N,12132.4776938,E,0.01,332.18,260623,,,D,V*04
$GPHDT,,T*1B
$GNACCURACY,3.1*14
$GNGGA,111602.500,2500.8055078,N,12132.4776998,E,2,67,0.42,6.328,M,15.25,M,20,3335*47
$GNRMC,111602.500,A,2500.8055078,N,12132.4776998,E,0.01,332.18,260623,,,D,V*0F
$GPHDT,,T*1B
$GNACCURACY,3.1*14
$GNGGA,111602.600,2500.8055018,N,12132.4777058,E,2,67,0.42,6.324,M,15.25,M,20,3335*4A
$GNRMC,111602.600,A,2500.8055018,N,12132.4777058,E,0.01,332.18,260623,,,D,V*0E
$GPHDT,,T*1B
$GNACCURACY,3.1*14
$GNGGA,111602.700,2500.8055018,N,12132.4777118,E,2,66,0.42,6.318,M,15.25,M,20,3335*40
$GNRMC,111602.700,A,2500.8055018,N,12132.4777118,E,0.01,332.18,260623,,,D,V*0A
$GPHDT,,T*1B
$GNACCURACY,3.1*14
$GNGGA,111602.800,2500.8055018,N,12132.4777178,E,2,66,0.42,6.313,M,15.25,M,20,3335*42
$GNRMC,111602.800,A,2500.8055018,N,12132.4777178,E,0.01,332.18,260623,,,D,V*03
$GPHDT,,T*1B
$GNACCURACY,3.1*14
$GNGGA,111602.900,2500.8054958,N,12132.4777238,E,2,66,0.42,6.308,M,15.25,M,20,3335*42
$GNRMC,111602.900,A,2500.8054958,N,12132.4777238,E,0.01,332.18,260623,,,D,V*09
$GPHDT,,T*1B
$GNACCURACY,3.1*14
$GNGGA,111603.000,2500.8054958,N,12132.4777238,E,2,66,0.42,6.304,M,15.25,M,21,3335*47
$GNRMC,111603.000,A,2500.8054958,N,12132.4777238,E,0.02,332.18,260623,,,D,V*02
$GPHDT,,T*1B
$GNACCURACY,3.1*14
$GNGGA,111603.100,2500.8054898,N,12132.4777298,E,2,66,0.42,6.300,M,15.25,M,21,3335*45
$GNRMC,111603.100,A,2500.8054898,N,12132.4777298,E,0.02,332.18,260623,,,D,V*04
$GPHDT,,T*1B
$GNGSA,A,3,24,196,199,18,23,15,195,194,05,12,10,,0.69,0.42,0.55,1*0B
$GNGSA,A,3,80,70,85,73,86,71,79,69,,,,,0.69,0.42,0.55,2*04
$GNGSA,A,3,13,08,07,26,15,02,30,03,,,,,0.69,0.42,0.55,3*05
$GNGSA,A,3,38,08,39,13,16,06,46,09,19,20,36,37,0.69,0.42,0.55,4*07
$GNGSA,A,3,35,29,,,,,,,,,,,0.69,0.42,0.55,4*00
$GPGSV,4,1,16,24,78,055,43,196,74,062,39,199,60,167,39,50,60,167,42,1*63
$GPGSV,4,2,16,18,60,257,38,23,46,335,33,15,39,042,29,195,36,179,23,1*52
$GPGSV,4,3,16,194,29,139,42,05,22,115,31,12,17,145,26,10,14,316,33,1*5D
$GPGSV,4,4,16,13,11,053,14,32,07,265,17,25,06,179,,29,03,200,,1*67
$GPGSV,2,1,08,24,78,055,48,196,74,062,43,18,60,257,39,199,60,167,44,8*6F
$GPGSV,2,2,08,23,46,335,36,195,36,179,24,194,29,139,44,10,14,316,41,8*6E
$GLGSV,3,1,09,80,48,086,41,70,40,003,32,85,39,252,25,73,33,161,42,1*7C
$GLGSV,3,2,09,86,25,308,36,71,20,309,30,79,15,035,25,69,14,068,21,1*76
$GLGSV,3,3,09,84,13,192,,1*45
$GAGSV,3,1,09,13,59,238,29,08,48,020,42,07,43,298,28,26,30,310,33,7*78
$GAGSV,3,2,09,15,27,174,37,02,24,090,18,30,23,146,39,03,12,061,27,7*71
$GAGSV,3,3,09,25,04,046,,7*4B
$GAGSV,2,1,08,13,59,238,27,08,48,020,41,07,43,298,29,26,30,310,33,1*72
$GAGSV,2,2,08,15,27,174,35,02,24,090,32,30,23,146,42,03,12,061,16,1*73
$GBGSV,5,1,18,38,83,088,38,08,76,006,38,39,72,275,38,13,66,337,37,1*71
$GBGSV,5,2,18,16,66,251,34,06,65,247,32,46,57,120,42,09,49,234,22,1*7F
$GBGSV,5,3,18,19,47,339,27,20,44,057,31,31,35,207,,36,30,184,28,1*7C
$GBGSV,5,4,18,37,25,051,20,35,22,273,26,29,22,215,30,22,09,298,24,1*7D
$GBGSV,5,5,18,32,04,095,,44,01,315,,1*70
$GBGSV,3,1,10,38,83,088,37,39,72,275,27,46,57,120,46,19,47,339,37,4*79
$GBGSV,3,2,10,20,44,057,32,36,30,184,17,37,25,051,33,29,22,215,25,4*72
$GBGSV,3,3,10,35,22,273,30,22,09,298,22,4*7B
$GNACCURACY,3.1*14
$PAIRSAT,1,35,1,0,200,2,0,200,3,0,200,4,0,200,5,0,201,6,0,200,7,0,200,8,0,200,9,0,200,10,0,221,11,0,200,12,0,201,13,0,201,14,0,200,15,0,201,16,0,200,17,0,200,18,0,221,19,0,200,20,0,200,21,0,200,23,0,221,24,0,221,25,0,200,26,0,200,27,0,200,28,0,200,29,0,200,30,0,200,31,0,200,32,0,200,194,0,621,195,0,621,196,0,620,199,0,621*6B
$PAIRSAT,2,23,65,0,200,67,0,200,68,0,200,69,0,201,70,0,201,71,0,201,72,0,200,73,0,201,74,0,200,75,0,200,76,0,200,77,0,200,78,0,200,79,0,201,80,0,201,81,0,200,82,0,200,83,0,200,84,0,200,85,0,201,86,0,201,87,0,200,88,0,200*53
$PAIRSAT,3,23,2,0,1221,3,0,1221,4,0,1200,5,0,200,7,0,1221,8,0,1221,9,0,1200,10,0,1200,11,0,1200,12,0,1200,13,0,1221,15,0,1221,19,0,1200,21,0,1200,24,0,1200,25,0,1200,26,0,1221,27,0,1200,30,0,1221,31,0,1200,33,0,1200,34,0,1200,36,0,1200*6A
$PAIRSAT,4,50,1,0,200,2,0,200,3,0,200,4,0,200,5,0,200,6,0,201,7,0,200,8,0,201,9,0,201,10,0,200,11,0,200,12,0,200,13,0,201,14,0,200,15,0,200,16,0,201,19,0,621,20,0,621,21,0,600,22,0,621,23,0,600,24,0,600,25,0,600,26,0,600,27,0,600,28,0,600,29,0,621,30,0,600,31,0,200,32,0,600,33,0,600,34,0,600,35,0,621,36,0,621,37,0,621,38,0,621,39,0,621,40,0,600,41,0,600,42,0,600,43,0,600,44,0,600,45,0,600,46,0,621,56,0,200,57,0,200,58,0,200,59,0,600,60,0,600,61,0,600*41
$PAIRDGP,8,5,10,12,13,15,18,23,24*72
$GNGGA,111603.200,2500.8054898,N,12132.4777358,E,2,66,0.42,6.295,M,15.25,M,21,3335*46
$GNRMC,111603.200,A,2500.8054898,N,12132.4777358,E,0.02,332.18,260623,,,D,V*0A
$GPHDT,,T*1B
$GNACCURACY,3.1*14
$GNGGA,111603.300,2500.8054898,N,12132.4777358,E,2,66,0.42,6.291,M,15.25,M,21,3335*43
$GNRMC,111603.300,A,2500.8054898,N,12132.4777358,E,0.03,332.18,260623,,,D,V*0A
$GPHDT,,T*1B
$GNACCURACY,3.1*14
$GNGGA,111603.400,2500.8054898,N,12132.4777358,E,2,66,0.42,6.287,M,15.25,M,21,3335*43
$GNRMC,111603.400,A,2500.8054898,N,12132.4777358,E,0.03,332.18,260623,,,D,V*0D
$GPHDT,,T*1B
$GNACCURACY,3.1*14
$GNGGA,111603.500,2500.8054898,N,12132.4777418,E,2,66,0.42,6.282,M,15.25,M,21,3335*44
$GNRMC,111603.500,A,2500.8054898,N,12132.4777418,E,0.02,332.18,260623,,,D,V*0E
$GPHDT,,T*1B
$GNACCURACY,3.1*14
$GNGGA,111603.600,2500.8054898,N,12132.4777478,E,2,66,0.42,6.277,M,15.25,M,21,3335*4B
$GNRMC,111603.600,A,2500.8054898,N,12132.4777478,E,0.02,332.18,260623,,,D,V*0B
$GPHDT,,T*1B
$GNACCURACY,3.1*14
$GNGGA,111603.700,2500.8054898,N,12132.4777478,E,2,66,0.42,6.271,M,15.25,M,21,3335*4C
$GNRMC,111603.700,A,2500.8054898,N,12132.4777478,E,0.03,332.18,260623,,,D,V*0B
$GPHDT,,T*1B
$GNACCURACY,3.1*14
$GNGGA,111603.800,2500.8054898,N,12132.4777538,E,2,66,0.42,6.265,M,15.25,M,21,3335*43
$GNRMC,111603.800,A,2500.8054898,N,12132.4777538,E,0.03,332.18,260623,,,D,V*01
$GPHDT,,T*1B
$GNACCURACY,3.1*14
$GNGGA,111603.900,2500.8054838,N,12132.4777538,E,2,66,0.42,6.261,M,15.25,M,21,3335*4C
$GNRMC,111603.900,A,2500.8054838,N,12132.4777538,E,0.02,332.18,260623,,,D,V*0B
$GPHDT,,T*1B
$GNACCURACY,3.1*14
$GNGGA,111604.000,2500.8054838,N,12132.4777538,E,2,66,0.42,6.257,M,15.25,M,22,3335*44
$GNRMC,111604.000,A,2500.8054838,N,12132.4777538,E,0.02,332.18,260623,,,D,V*05
$GPHDT,,T*1B
$GNACCURACY,3.1*14
$GNGGA,111604.100,2500.8054778,N,12132.4777478,E,2,66,0.42,6.252,M,15.25,M,22,3335*4E
$GNRMC,111604.100,A,2500.8054778,N,12132.4777478,E,0.01,332.18,260623,,,D,V*09
$GPHDT,,T*1B
$GNGSA,A,3,24,196,199,18,23,15,195,194,05,12,10,,0.69,0.42,0.55,1*0B
$GNGSA,A,3,80,70,85,73,86,71,79,69,,,,,0.69,0.42,0.55,2*04
$GNGSA,A,3,13,08,07,26,15,02,30,03,,,,,0.69,0.42,0.55,3*05
$GNGSA,A,3,38,08,39,13,16,06,46,09,19,20,36,37,0.69,0.42,0.55,4*07
$GNGSA,A,3,35,29,,,,,,,,,,,0.69,0.42,0.55,4*00
$GPGSV,4,1,16,24,78,055,43,196,74,062,39,199,60,167,39,50,60,167,42,1*63
$GPGSV,4,2,16,18,60,257,38,23,46,335,33,15,39,042,29,195,36,179,22,1*53
$GPGSV,4,3,16,194,29,139,42,05,22,115,31,12,17,145,26,10,14,316,33,1*5D
$GPGSV,4,4,16,13,11,053,17,32,07,265,17,25,06,179,,29,03,200,,1*64
$GPGSV,2,1,08,24,78,055,48,196,74,062,43,18,60,257,39,199,60,167,44,8*6F
$GPGSV,2,2,08,23,46,335,36,195,36,179,25,194,29,139,44,10,14,316,41,8*6F
$GLGSV,3,1,09,80,48,086,41,70,40,003,32,85,39,252,25,73,33,161,42,1*7C
$GLGSV,3,2,09,86,26,308,36,71,20,309,30,79,15,035,25,69,14,068,20,1*74
$GLGSV,3,3,09,84,13,192,,1*45
$GAGSV,3,1,09,13,59,238,28,08,48,020,42,07,43,298,27,26,30,310,33,7*76
$GAGSV,3,2,09,15,27,174,37,02,24,090,17,30,23,146,39,03,12,061,27,7*7E
$GAGSV,3,3,09,25,04,046,,7*4B
$GAGSV,2,1,08,13,59,238,27,08,48,020,41,07,43,298,29,26,30,310,33,1*72
$GAGSV,2,2,08,15,27,174,36,02,24,090,32,30,23,146,42,03,12,061,16,1*70
$GBGSV,5,1,18,38,83,088,38,08,76,006,38,39,72,275,38,13,66,337,37,1*71
$GBGSV,5,2,18,16,66,251,34,06,65,247,31,46,57,120,42,09,49,234,22,1*7C
$GBGSV,5,3,18,19,47,339,28,20,44,057,31,31,35,207,,36,30,184,28,1*73
$GBGSV,5,4,18,37,25,051,22,35,22,273,27,29,22,215,30,22,09,298,23,1*79
$GBGSV,5,5,18,07,05,193,,10,03,203,,1*75
$GBGSV,3,1,10,38,83,088,37,39,72,275,28,46,57,120,46,19,47,339,37,4*76
$GBGSV,3,2,10,20,44,057,32,36,30,184,16,37,25,051,32,29,22,215,26,4*71
$GBGSV,3,3,10,35,22,273,30,22,09,298,21,4*78
$GNACCURACY,3.1*14
$PAIRSAT,1,35,1,0,200,2,0,200,3,0,200,4,0,200,5,0,201,6,0,200,7,0,200,8,0,200,9,0,200,10,0,221,11,0,200,12,0,201,13,0,201,14,0,200,15,0,201,16,0,200,17,0,200,18,0,221,19,0,200,20,0,200,21,0,200,23,0,221,24,0,221,25,0,200,26,0,200,27,0,200,28,0,200,29,0,200,30,0,200,31,0,200,32,0,200,194,0,621,195,0,621,196,0,620,199,0,621*6B
$PAIRSAT,2,23,65,0,200,67,0,200,68,0,200,69,0,201,70,0,201,71,0,201,72,0,200,73,0,201,74,0,200,75,0,200,76,0,200,77,0,200,78,0,200,79,0,201,80,0,201,81,0,200,82,0,200,83,0,200,84,0,200,85,0,201,86,0,201,87,0,200,88,0,200*53
$PAIRSAT,3,23,2,0,1221,3,0,1221,4,0,1200,5,0,200,7,0,1221,8,0,1221,9,0,1200,10,0,1200,11,0,1200,12,0,1200,13,0,1221,15,0,1221,19,0,1200,21,0,1200,24,0,1200,25,0,1200,26,0,1221,27,0,1200,30,0,1221,31,0,1200,33,0,1200,34,0,1200,36,0,1200*6A
$PAIRSAT,4,50,1,0,200,2,0,200,3,0,200,4,0,200,5,0,200,6,0,201,7,0,200,8,0,201,9,0,201,10,0,200,11,0,200,12,0,200,13,0,201,14,0,200,15,0,200,16,0,201,19,0,621,20,0,621,21,0,600,22,0,621,23,0,600,24,0,600,25,0,600,26,0,600,27,0,600,28,0,600,29,0,621,30,0,600,31,0,200,32,0,600,33,0,600,34,0,600,35,0,621,36,0,621,37,0,621,38,0,621,39,0,621,40,0,600,41,0,600,42,0,600,43,0,600,44,0,600,45,0,600,46,0,621,56,0,200,57,0,200,58,0,200,59,0,600,60,0,600,61,0,600*41
$PAIRDGP,8,5,10,12,13,15,18,23,24*72
$GNGGA,111604.200,2500.8054778,N,12132.4777478,E,2,66,0.42,6.247,M,15.25,M,22,3335*49
$GNRMC,111604.200