$FW : RTK35X,V1.1X0314AS,Lib20210517,1*54
$Tool : LOCOSYS , GNSS Firebird , v1.0.0.19*39
$---------------------------------------------------*2D
,29,22,215,23,4*76
$GBGSV,3,3,10,35,22,273,31,22,09,298,21,4*79
$GNACCURACY,3.1*14
$PAIRSAT,1,35,1,0,200,2,0,200,3,0,200,4,0,200,5,0,201,6,0,200,7,0,200,8,0,200,9,0,200,10,0,221,11,0,200,12,0,201,13,0,201,14,0,200,15,0,201,16,0,200,17,0,200,18,0,221,19,0,200,20,0,200,21,0,200,23,0,221,24,0,221,25,0,200,26,0,200,27,0,200,28,0,200,29,0,200,30,0,200,31,0,200,32,0,200,194,0,621,195,0,621,196,0,620,199,0,621*6B
$PAIRSAT,2,23,65,0,200,67,0,200,68,0,200,69,0,201,70,0,201,71,0,201,72,0,200,73,0,201,74,0,200,75,0,200,76,0,200,77,0,200,78,0,200,79,0,201,80,0,201,81,0,200,82,0,200,83,0,200,84,0,200,85,0,201,86,0,201,87,0,200,88,0,200*53
$PAIRSAT,3,23,2,0,1221,3,0,1221,4,0,1200,5,0,200,7,0,1221,8,0,1221,9,0,1200,10,0,1200,11,0,1200,12,0,1200,13,0,1221,15,0,1221,19,0,1200,21,0,1200,24,0,1200,25,0,1200,26,0,1221,27,0,1200,30,0,1221,31,0,1200,33,0,1200,34,0,1200,36,0,1200*6A
$PAIRSAT,4,50,1,0,200,2,0,200,3,0,200,4,0,200,5,0,200,6,0,201,7,0,200,8,0,201,9,0,201,10,0,200,11,0,200,12,0,200,13,0,201,14,0,200,15,0,200,16,0,201,19,0,621,20,0,621,21,0,600,22,0,621,23,0,600,24,0,600,25,0,600,26,0,600,27,0,600,28,0,600,29,0,621,30,0,600,31,0,200,32,0,600,33,0,600,34,0,600,35,0,621,36,0,621,37,0,621,38,0,621,39,0,621,40,0,600,41,0,600,42,0,600,43,0,600,44,0,600,45,0,600,46,0,621,56,0,200,57,0,200,58,0,200,59,0,600,60,0,600,61,0,600*41
$PAIRDGP,8,5,10,12,13,15,18,23,24*72
$GNGGA,111658.200,2500.8106400,N,12132.4753800,E,2,63,0.43,20.32,M,15.25,M,2,3335*7D
$GNRMC,111658.200,A,2500.8106400,N,12132.4753800,E,0.05,332.18,260623,,,D,V*08
$GPHDT,,T*1B
$GNACCURACY,3.1*14
$GNGGA,111658.300,2500.8106500,N,12132.4753800,E,2,63,0.43,20.32,M,15.25,M,2,3335*7D
$GNRMC,111658.300,A,2500.8106500,N,12132.4753800,E,0.04,332.18,260623,,,D,V*09
$GPHDT,,T*1B
$GNACCURACY,3.1*14
$GNGGA,111658.400,2500.8106500,N,12132.4753800,E,2,64,0.42,20.32,M,15.25,M,1,3335*7F
$GNRMC,111658.400,A,2500.8106500,N,12132.4753800,E,0.03,332.18,260623,,,D,V*09
$GPHDT,,T*1B
$GNACCURACY,3.1*14
$GNGGA,111658.500,2500.8106600,N,12132.4753800,E,2,64,0.42,20.31,M,15.25,M,1,3335*7E
$GNRMC,111658.500,A,2500.8106600,N,12132.4753800,E,0.04,332.18,260623,,,D,V*0C
$GPHDT,,T*1B
$GNACCURACY,3.0*15
$GNGGA,111658.600,2500.8106700,N,12132.4753800,E,2,64,0.42,20.31,M,15.25,M,0,3335*7D
$GNRMC,111658.600,A,2500.8106700,N,12132.4753800,E,0.04,332.18,260623,,,D,V*0E
$GPHDT,,T*1B
$GNACCURACY,3.1*14
$GNGGA,111658.700,2500.8106700,N,12132.4753700,E,2,65,0.42,20.30,M,15.25,M,0,3335*73
$GNRMC,111658.700,A,2500.8106700,N,12132.4753700,E,0.04,332.18,260623,,,D,V*00
$GPHDT,,T*1B
$GNACCURACY,3.1*14
$GNGGA,111658.800,2500.8106800,N,12132.4753700,E,2,65,0.42,20.30,M,15.25,M,0,3335*73
$GNRMC,111658.800,A,2500.8106800,N,12132.4753700,E,0.04,332.18,260623,,,D,V*00
$GPHDT,,T*1B
$GNACCURACY,3.1*14
$GNGGA,111658.900,2500.8106800,N,12132.4753700,E,2,64,0.42,20.29,M,15.25,M,0,3335*7B
$GNRMC,111658.900,A,2500.8106800,N,12132.4753700,E,0.04,332.18,260623,,,D,V*01
$GPHDT,,T*1B
$GNACCURACY,3.1*14
$GNGGA,111659.000,2500.8106900,N,12132.4753700,E,2,63,0.43,20.28,M,15.25,M,1,3335*74
$GNRMC,111659.000,A,2500.8106900,N,12132.4753700,E,0.04,332.18,260623,,,D,V*08
$GPHDT,,T*1B
$GNACCURACY,3.1*14
$GNGGA,111659.100,2500.8106900,N,12132.4753700,E,2,63,0.43,20.28,M,15.25,M,1,3335*75
$GNRMC,111659.100,A,2500.8106900,N,12132.4753700,E,0.03,332.18,260623,,,D,V*0E
$GPHDT,,T*1B
$GNGSA,A,3,24,196,199,18,23,15,195,194,05,12,10,,0.71,0.43,0.56,1*00
$GNGSA,A,3,80,70,85,73,86,71,79,69,,,,,0.71,0.43,0.56,2*0F
$GNGSA,A,3,13,08,07,26,15,02,30,,,,,,0.71,0.43,0.56,3*0D
$GNGSA,A,3,38,08,39,13,16,06,46,09,19,20,36,37,0.71,0.43,0.56,4*0C
$GNGSA,A,3,29,35,,,,,,,,,,,0.71,0.43,0.56,4*0B
$GPGSV,4,1,16,24,78,054,40,196,74,062,39,199,60,167,38,50,60,167,41,1*63
$GPGSV,4,2,16,18,60,256,33,23,47,335,23,15,39,042,29,195,36,179,29,1*52
$GPGSV,4,3,16,194,29,139,41,05,22,115,26,12,17,145,23,10,15,316,36,1*59
$GPGSV,4,4,16,13,11,054,20,32,07,265,,25,06,179,,29,03,199,,1*62
$GPGSV,2,1,07,24,78,054,46,196,74,062,45,199,60,167,39,18,60,256,38,8*63
$GPGSV,2,2,07,23,47,335,38,194,29,139,44,10,15,316,41,8*6E
$GLGSV,2,1,08,80,48,085,38,70,40,004,28,85,38,252,40,73,33,161,40,1*7D
$GLGSV,2,2,08,86,26,307,42,71,20,309,39,79,14,035,26,69,14,069,26,1*74
$GAGSV,3,1,09,13,59,237,28,08,48,021,41,07,43,298,30,26,30,310,40,7*79
$GAGSV,3,2,09,15,26,174,35,02,25,089,28,30,23,146,23,03,12,061,,7*76
$GAGSV,3,3,09,25,04,046,,7*4B
$GAGSV,2,1,07,13,59,237,27,08,48,021,43,07,43,298,32,26,30,310,35,1*7D
$GAGSV,2,2,07,15,26,174,38,02,25,089,33,30,23,146,39,1*44
$GBGSV,4,1,15,38,83,090,40,08,77,006,38,39,72,276,39,13,67,337,40,1*79
$GBGSV,4,2,15,16,66,252,35,06,65,248,33,46,58,119,35,09,49,234,22,1*7A
$GBGSV,4,3,15,19,47,340,33,20,44,057,26,36,31,184,31,37,25,050,19,1*7B
$GBGSV,4,4,15,29,22,215,31,35,22,273,18,22,09,298,35,1*48
$GBGSV,3,1,10,38,83,090,39,39,72,276,30,46,58,119,40,19,47,340,34,4*75
$GBGSV,3,2,10,20,44,057,33,36,31,184,22,37,25,050,27,29,22,215,22,4*77
$GBGSV,3,3,10,35,22,273,32,22,09,298,23,4*78
$GNACCURACY,3.1*14
$PAIRSAT,1,35,1,0,200,2,0,200,3,0,200,4,0,200,5,0,201,6,0,200,7,0,200,8,0,200,9,0,200,10,0,221,11,0,200,12,0,201,13,0,201,14,0,200,15,0,201,16,0,200,17,0,200,18,0,221,19,0,200,20,0,200,21,0,200,23,0,221,24,0,221,25,0,200,26,0,200,27,0,200,28,0,200,29,0,200,30,0,200,31,0,200,32,0,200,194,0,621,195,0,621,196,0,620,199,0,621*6B
$PAIRSAT,2,23,65,0,200,67,0,200,68,0,200,69,0,201,70,0,201,71,0,201,72,0,200,73,0,201,74,0,200,75,0,200,76,0,200,77,0,200,78,0,200,79,0,201,80,0,201,81,0,200,82,0,200,83,0,200,84,0,200,85,0,201,86,0,201,87,0,200,88,0,200*53
$PAIRSAT,3,23,2,0,1221,3,0,1221,4,0,1200,5,0,200,7,0,1221,8,0,1221,9,0,1200,10,0,1200,11,0,1200,12,0,1200,13,0,1221,15,0,1221,19,0,1200,21,0,1200,24,0,1200,25,0,1200,26,0,1221,27,0,1200,30,0,1221,31,0,1200,33,0,1200,34,0,1200,36,0,1200*6A
$PAIRSAT,4,50,1,0,200,2,0,200,3,0,200,4,0,200,5,0,200,6,0,201,7,0,200,8,0,201,9,0,201,10,0,200,11,0,200,12,0,200,13,0,201,14,0,200,15,0,200,16,0,201,19,0,621,20,0,621,21,0,600,22,0,621,23,0,600,24,0,600,25,0,600,26,0,600,27,0,600,28,0,600,29,0,621,30,0,600,31,0,200,32,0,600,33,0,600,34,0,600,35,0,621,36,0,621,37,0,621,38,0,621,39,0,621,40,0,600,41,0,600,42,0,600,43,0,600,44,0,600,45,0,600,46,0,621,56,0,200,57,0,200,58,0,200,59,0,600,60,0,600,61,0,600*41
$PAIRDGP,8,5,10,12,13,15,18,23,24*72
$GNGGA,111659.200,2500.8107000,N,12132.4753700,E,2,63,0.43,20.27,M,15.25,M,1,3335*71
$GNRMC,111659.200,A,2500.8107000,N,12132.4753700,E,0.03,332.18,260623,,,D,V*05
$GPHDT,,T*1B
$GNACCURACY,3.0*15
$GNGGA,111659.300,2500.8107000,N,12132.4753600,E,2,63,0.43,20.27,M,15.25,M,1,3335*71
$GNRMC,111659.300,A,2500.8107000,N,12132.4753600,E,0.03,332.18,260623,,,D,V*05
$GPHDT,,T*1B
$GNACCURACY,3.0*15
$GNGGA,111659.400,2500.8107000,N,12132.4753600,E,2,63,0.43,20.26,M,15.25,M,1,3335*77
$GNRMC,111659.400,A,2500.8107000,N,12132.4753600,E,0.03,332.18,260623,,,D,V*02
$GPHDT,,T*1B
$GNACCURACY,3.0*15
$GNGGA,111659.500,2500.8107000,N,12132.4753600,E,2,63,0.43,20.25,M,15.25,M,1,3335*75
$GNRMC,111659.500,A,2500.8107000,N,12132.4753600,E,0.03,332.18,260623,,,D,V*03
$GPHDT,,T*1B
$GNACCURACY,3.0*15
$GNGGA,111659.600,2500.8107000,N,12132.4753500,E,2,63,0.43,20.25,M,15.25,M,1,3335*75
$GNRMC,111659.600,A,2500.8107000,N,12132.4753500,E,0.03,332.18,260623,,,D,V*03
$GPHDT,,T*1B
$GNACCURACY,3.0*15
$GNGGA,111659.700,2500.8107000,N,12132.4753500,E,2,63,0.43,20.25,M,15.25,M,1,3335*74
$GNRMC,111659.700,A,2500.8107000,N,12132.4753500,E,0.03,332.18,260623,,,D,V*02
$GPHDT,,T*1B
$GNACCURACY,3.0*15
$GNGGA,111659.800,2500.8107000,N,12132.4753500,E,2,63,0.43,20.24,M,15.25,M,1,3335*7A
$GNRMC,111659.800,A,2500.8107000,N,12132.4753500,E,0.03,332.18,260623,,,D,V*0D
$GPHDT,,T*1B
$GNACCURACY,3.0*15
$GNGGA,111659.900,2500.8107000,N,12132.4753500,E,2,63,0.43,20.24,M,15.25,M,1,3335*7B
$GNRMC,111659.900,A,2500.8107000,N,12132.4753500,E,0.03,332.18,260623,,,D,V*0C
$GPHDT,,T*1B
$GNACCURACY,3.0*15
$GNGGA,111700.000,2500.8107000,N,12132.4753500,E,2,63,0.43,20.24,M,15.25,M,2,3335*7C
$GNRMC,111700.000,A,2500.8107000,N,12132.4753500,E,0.03,332.18,260623,,,D,V*08
$GPHDT,,T*1B
$GNACCURACY,3.0*15
$GNGGA,111700.100,2500.8107000,N,12132.4753500,E,2,63,0.43,20.24,M,15.25,M,2,3335*7D
$GNRMC,111700.100,A,2500.8107000,N,12132.4753500,E,0.03,332.18,260623,,,D,V*09
$GPHDT,,T*1B
$GNGSA,A,3,24,196,199,18,23,15,195,194,05,12,10,,0.71,0.43,0.56,1*00
$GNGSA,A,3,80,70,85,73,86,71,79,69,,,,,0.71,0.43,0.56,2*0F
$GNGSA,A,3,13,08,07,26,15,02,30,,,,,,0.71,0.43,0.56,3*0D
$GNGSA,A,3,38,08,39,13,16,06,46,09,19,20,36,37,0.71,0.43,0.56,4*0C
$GNGSA,A,3,29,35,,,,,,,,,,,0.71,0.43,0.56,4*0B
$GPGSV,4,1,16,24,78,054,41,196,74,062,39,199,60,167,38,50,60,167,41,1*62
$GPGSV,4,2,16,18,60,255,33,23,47,335,20,15,39,042,29,195,36,179,26,1*5D
$GPGSV,4,3,16,194,29,139,39,05,22,115,23,12,17,144,26,10,15,317,36,1*56
$GPGSV,4,4,16,13,11,054,19,32,07,265,,25,06,179,,29,03,199,,1*68
$GPGSV,2,1,07,24,78,054,45,196,74,062,45,199,60,167,41,18,60,255,38,8*6C
$GPGSV,2,2,07,23,47,335,39,194,29,139,43,10,15,317,41,8*69
$GLGSV,2,1,08,80,48,085,38,70,40,004,28,85,38,252,40,73,33,161,41,1*7C
$GLGSV,2,2,08,86,26,307,41,71,20,309,38,79,14,035,26,69,14,069,27,1*77
$GAGSV,3,1,09,13,59,237,27,08,48,021,41,07,43,298,31,26,30,310,40,7*77
$GAGSV,3,2,09,15,26,174,35,02,25,089,29,30,23,146,29,03,12,061,,7*7D
$GAGSV,3,3,09,25,04,046,,7*4B
$GAGSV,2,1,07,13,59,237,28,08,48,021,43,07,43,298,33,26,30,310,35,1*73
$GAGSV,2,2,07,15,26,174,41,02,25,089,35,30,23,146,40,1*42
$GBGSV,4,1,15,38,83,090,40,08,77,006,38,39,72,276,39,13,67,337,39,1*77
$GBGSV,4,2,15,16,66,252,36,06,65,248,33,46,58,119,34,09,49,234,21,1*7B
$GBGSV,4,3,15,19,47,340,30,20,44,057,26,36,31,184,31,37,25,050,17,1*76
$GBGSV,4,4,15,29,22,215,31,35,22,273,19,22,09,298,35,1*49
$GBGSV,3,1,10,38,83,090,38,39,72,276,28,46,58,119,39,19,47,340,34,4*73
$GBGSV,3,2,10,20,44,057,33,36,31,184,23,37,25,050,25,29,22,215,20,4*76
$GBGSV,3,3,10,35,22,273,32,22,09,298,25,4*7E
$GNACCURACY,3.0*15
$PAIRSAT,1,35,1,0,200,2,0,200,3,0,200,4,0,200,5,0,201,6,0,200,7,0,200,8,0,200,9,0,200,10,0,221,11,0,200,12,0,201,13,0,201,14,0,200,15,0,201,16,0,200,17,0,200,18,0,221,19,0,200,20,0,200,21,0,200,23,0,221,24,0,221,25,0,200,26,0,200,27,0,200,28,0,200,29,0,200,30,0,200,31,0,200,32,0,200,194,0,621,195,0,621,196,0,620,199,0,621*6B
$PAIRSAT,2,23,65,0,200,67,0,200,68,0,200,69,0,201,70,0,201,71,0,201,72,0,200,73,0,201,74,0,200,75,0,200,76,0,200,77,0,200,78,0,200,79,0,201,80,0,201,81,0,200,82,0,200,83,0,200,84,0,200,85,0,201,86,0,201,87,0,200,88,0,200*53
$PAIRSAT,3,23,2,0,1221,3,0,1221,4,0,1200,5,0,200,7,0,1221,8,0,1221,9,0,1200,10,0,1200,11,0,1200,12,0,1200,13,0,1221,15,0,1221,19,0,1200,21,0,1200,24,0,1200,25,0,1200,26,0,1221,27,0,1200,30,0,1221,31,0,1200,33,0,1200,34,0,1200,36,0,1200*6A
$PAIRSAT,4,50,1,0,200,2,0,200,3,0,200,4,0,200,5,0,200,6,0,201,7,0,200,8,0,201,9,0,201,10,0,200,11,0,200,12,0,200,13,0,201,14,0,200,15,0,200,16,0,201,19,0,621,20,0,621,21,0,600,22,0,621,23,0,600,24,0,600,25,0,600,26,0,600,27,0,600,28,0,600,29,0,621,30,0,600,31,0,200,32,0,600,33,0,600,34,0,600,35,0,621,36,0,621,37,0,621,38,0,621,39,0,621,40,0,600,41,0,600,42,0,600,43,0,600,44,0,600,45,0,600,46,0,621,56,0,200,57,0,200,58,0,200,59,0,600,60,0,600,61,0,600*41
$PAIRDGP,8,5,10,12,13,15,18,23,24*72
$GNGGA,111700.200,2500.8107000,N,12132.4753400,E,2,63,0.43,20.24,M,15.25,M,2,3335*7F
$GNRMC,111700.200,A,2500.8107000,N,12132.4753400,E,0.03,332.18,260623,,,D,V*0B
$GPHDT,,T*1B
$GNACCURACY,3.0*15
$GNGGA,111700.300,2500.8107000,N,12132.4753500,E,2,63,0.43,20.24,M,15.25,M,2,3335*7F
$GNRMC,111700.300,A,2500.8107000,N,12132.4753500,E,0.02,332.18,260623,,,D,V*0A
$GPHDT,,T*1B
$GNACCURACY,3.0*15
$GNGGA,111700.400,2500.8106900,N,12132.4753400,E,2,62,0.45,20.24,M,15.25,M,2,3335*76
$GNRMC,111700.400,A,2500.8106900,N,12132.4753400,E,0.03,332.18,260623,,,D,V*05
$GPHDT,,T*1B
$GNACCURACY,3.0*15
$GNGGA,111700.500,2500.8106900,N,12132.4753400,E,2,62,0.45,20.24,M,15.25,M,2,3335*77
$GNRMC,111700.500,A,2500.8106900,N,12132.4753400,E,0.03,332.18,260623,,,D,V*04
$GPHDT,,T*1B
$GNACCURACY,3.0*15
$GNGGA,111700.600,2500.8106900,N,12132.4753400,E,2,62,0.45,20.24,M,15.25,M,2,3335*74
$GNRMC,111700.600,A,2500.8106900,N,12132.4753400,E,0.03,332.18,260623,,,D,V*07
$GPHDT,,T*1B
$GNACCURACY,3.0*15
$GNGGA,111700.700,2500.8106800,N,12132.4753400,E,2,62,0.45,20.24,M,15.25,M,2,3335*74
$GNRMC,111700.700,A,2500.8106800,N,12132.4753400,E,0.04,332.18,260623,,,D,V*00
$GPHDT,,T*1B
$GNACCURACY,3.0*15
$GNGGA,111700.800,2500.8106800,N,12132.4753400,E,2,63,0.43,20.24,M,15.25,M,2,3335*7C
$GNRMC,111700.800,A,2500.8106800,N,12132.4753400,E,0.04,332.18,260623,,,D,V*0F
$GPHDT,,T*1B
$GNACCURACY,3.0*15
$GNGGA,111700.900,2500.8106700,N,12132.4753400,E,2,64,0.43,20.25,M,15.25,M,2,3335*74
$GNRMC,111700.900,A,2500.8106700,N,12132.4753400,E,0.04,332.18,260623,,,D,V*01
$GPHDT,,T*1B
$GNACCURACY,3.0*15
$GNGGA,111701.000,2500.8106600,N,12132.4753500,E,2,64,0.43,20.25,M,15.25,M,3,3335*7D
$GNRMC,111701.000,A,2500.8106600,N,12132.4753500,E,0.04,332.18,260623,,,D,V*09
$GPHDT,,T*1B
$GNACCURACY,3.0*15
$GNGGA,111701.100,2500.8106500,N,12132.4753500,E,2,64,0.43,20.25,M,15.25,M,3,3335*7F
$GNRMC,111701.100,A,2500.8106500,N,12132.4753500,E,0.04,332.18,260623,,,D,V*0B
$GPHDT,,T*1B
$GNGSA,A,3,24,196,199,18,23,15,195,194,05,12,10,,0.71,0.43,0.56,1*00
$GNGSA,A,3,80,70,85,73,86,71,79,69,,,,,0.71,0.43,0.56,2*0F
$GNGSA,A,3,13,08,07,26,15,02,30,,,,,,0.71,0.43,0.56,3*0D
$GNGSA,A,3,38,08,39,13,16,06,46,09,19,20,36,37,0.71,0.43,0.56,4*0C
$GNGSA,A,3,29,35,,,,,,,,,,,0.71,0.43,0.56,4*0B
$GPGSV,4,1,16,24,78,053,41,196,74,062,38,199,60,167,39,50,60,167,41,1*65
$GPGSV,4,2,16,18,60,255,33,23,47,336,20,15,39,042,30,195,36,179,28,1*58
$GPGSV,4,3,16,194,29,139,38,05,22,115,29,12,17,144,25,10,15,317,36,1*5E
$GPGSV,4,4,16,13,11,054,18,32,07,265,20,25,06,179,,29,03,199,,1*6B
$GPGSV,2,1,08,24,78,053,45,196,74,062,45,199,60,167,42,18,60,255,38,8*67
$GPGSV,2,2,08,23,47,336,40,195,36,179,22,194,29,139,43,10,15,317,41,8*6C
$GLGSV,2,1,08,80,48,085,37,70,40,004,27,85,38,252,40,73,33,161,40,1*7D
$GLGSV,2,2,08,86,26,307,41,71,20,309,39,79,14,035,27,69,14,069,27,1*77
$GAGSV,3,1,09,13,59,237,27,08,48,021,41,07,43,298,31,26,30,310,39,7*79
$GAGSV,3,2,09,15,26,174,33,02,25,089,25,30,23,146,29,03,12,061,,7*77
$GAGSV,3,3,09,25,04,046,,7*4B
$GAGSV,2,1,07,13,59,237,27,08,48,021,43,07,43,298,33,26,30,310,36,1*7F
$GAGSV,2,2,07,15,26,174,40,02,25,089,34,30,23,146,39,1*4C
$GBGSV,4,1,15,38,83,090,39,08,77,006,38,39,72,276,39,13,67,337,39,1*79
$GBGSV,4,2,15,16,66,252,35,06,65,248,33,46,58,119,36,09,49,234,21,1*7A
$GBGSV,4,3,15,19,47,340,33,20,44,057,21,36,31,184,28,37,25,050,23,1*7D
$GBGSV,4,4,15,29,22,215,28,35,22,273,18,22,09,298,35,1*40
$GBGSV,3,1,10,38,83,090,39,39,72,276,29,46,58,119,43,19,47,340,34,4*7E
$GBGSV,3,2,10,20,44,057,34,36,31,184,22,37,25,050,27,29,22,215,23,4*71
$GBGSV,3,3,10,35,22,273,32,22,09,298,23,4*78
$GNACCURACY,3.1*14
$PAIRSAT,1,35,1,0,200,2,0,200,3,0,200,4,0,200,5,0,201,6,0,200,7,0,200,8,0,200,9,0,200,10,0,221,11,0,200,12,0,201,13,0,201,14,0,200,15,0,201,16,0,200,17,0,200,18,0,221,19,0,200,20,0,200,21,0,200,23,0,221,24,0,221,25,0,200,26,0,200,27,0,200,28,0,200,29,0,200,30,0,200,31,0,200,32,0,200,194,0,621,195,0,621,196,0,620,199,0,621*6B
$PAIRSAT,2,23,65,0,200,67,0,200,68,0,200,69,0,201,70,0,201,71,0,201,72,0,200,73,0,201,74,0,200,75,0,200,76,0,200,77,0,200,78,0,200,79,0,201,80,0,201,81,0,200,82,0,200,83,0,200,84,0,200,85,0,201,86,0,201,87,0,200,88,0,200*53
$PAIRSAT,3,23,2,0,1221,3,0,1221,4,0,1200,5,0,200,7,0,1221,8,0,1221,9,0,1200,10,0,1200,11,0,1200,12,0,1200,13,0,1221,15,0,1221,19,0,1200,21,0,1200,24,0,1200,25,0,1200,26,0,1221,27,0,1200,30,0,1221,31,0,1200,33,0,1200,34,0,1200,36,0,1200*6A
$PAIRSAT,4,50,1,0,200,2,0,200,3,0,200,4,0,200,5,0,200,6,0,201,7,0,200,8,0,201,9,0,201,10,0,200,11,0,200,12,0,200,13,0,201,14,0,200,15,0,200,16,0,201,19,0,621,20,0,621,21,0,600,22,0,621,23,0,600,24,0,600,25,0,600,26,0,600,27,0,600,28,0,600,29,0,621,30,0,600,31,0,200,32,0,600,33,0,600,34,0,600,35,0,621,36,0,621,37,0,621,38,0,621,39,0,621,40,0,600,41,0,600,42,0,600,43,0,600,44,0,600,45,0,600,46,0,621,56,0,200,57,0,200,58,0,200,59,0,600,60,0,600,61,0,600*41
$PAIRDGP,8,5,10,12,13,15,18,23,24*72
$GNGGA,111701.200,2500.8106500,N,12132.4753500,E,2,64,0.43,20.25,M,15.25,M,3,3335*7C
$GNRMC,111701.200,A,2500.8106500,N,12132.4753500,E,0.03,332.18,260623,,,D,V*0F
$GPHDT,,T*1B
$GNACCURACY,3.1*14
$GNGGA,111701.300,2500.8106500,N,12132.4753500,E,2,64,0.43,20.25,M,15.25,M,3,3335*7D
$GNRMC,111701.300,A,2500.8106500,N,12132.4753500,E,0.03,332.18,260623,,,D,V*0E
$GPHDT,,T*1B
$GNACCURACY,3.1*14
$GNGGA,111701.400,2500.8106400,N,12132.4753500,E,2,64,0.43,20.25,M,15.25,M,3,3335*7B
$GNRMC,111701.400,A,2500.8106400,N,12132.4753500,E,0.03,332.18,260623,,,D,V*08
$GPHDT,,T*1B
$GNACCURACY,3.1*14
$GNGGA,111701.500,2500.8106500,N,12132.4753500,E,2,64,0.43,20.25,M,15.25,M,3,3335*7B
$GNRMC,111701.500,A,2500.8106500,N,12132.4753500,E,0.02,332.18,260623,,,D,V*09
$GPHDT,,T*1B
$GNACCURACY,3.1*14
$GNGGA,111701.600,2500.8106400,N,12132.4753500,E,2,64,0.43,20.25,M,15.25,M,3,3335*79
$GNRMC,111701.600,A,2500.8106400,N,12132.4753500,E,0.02,332.18,260623,,,D,V*0B
$GPHDT,,T*1B
$GNACCURACY,3.1*14
$GNGGA,111701.700,2500.8106400,N,12132.4753500,E,2,64,0.43,20.25,M,15.25,M,3,3335*78
$GNRMC,111701.700,A,2500.8106400,N,12132.4753500,E,0.03,332.18,260623,,,D,V*0B
$GPHDT,,T*1B
$GNACCURACY,3.1*14
$GNGGA,111701.800,2500.8106400,N,12132.4753500,E,2,64,0.43,20.25,M,15.25,M,3,3335*77
$GNRMC,111701.800,A,2500.8106400,N,12132.4753500,E,0.02,332.18,260623,,,D,V*05
$GPHDT,,T*1B
$GNACCURACY,3.1*14
$GNGGA,111701.900,2500.8106400,N,12132.4753500,E,2,64,0.43,20.24,M,15.25,M,3,3335*77
$GNRMC,111701.900,A,2500.8106400,N,12132.4753500,E,0.03,332.18,260623,,,D,V*05
$GPHDT,,T*1B
$GNACCURACY,3.1*14
$GNGGA,111702.000,2500.8106300,N,12132.4753500,E,2,64,0.43,20.24,M,15.25,M,4,3335*7D
$GNRMC,111702.000,A,2500.8106300,N,12132.4753500,E,0.03,332.18,260623,,,D,V*08
$GPHDT,,T*1B
$GNACCURACY,3.1*14
$GNGGA,111702.100,2500.8106300,N,12132.4753600,E,2,64,0.43,20.24,M,15.25,M,4,3335*7F
$GNRMC,111702.100,A,2500.8106300,N,12132.4753600,E,0.03,332.18,260623,,,D,V*0A
$GPHDT,,T*1B
$GNGSA,A,3,24,196,199,18,23,15,195,194,05,12,10,,0.71,0.43,0.56,1*00
$GNGSA,A,3,80,70,85,73,86,71,79,69,,,,,0.71,0.43,0.56,2*0F
$GNGSA,A,3,13,08,07,26,15,02,30,,,,,,0.71,0.43,0.56,3*0D
$GNGSA,A,3,38,08,39,13,16,06,46,09,19,20,36,37,0.71,0.43,0.56,4*0C
$GNGSA,A,3,29,35,,,,,,,,,,,0.71,0.43,0.56,4*0B
$GPGSV,4,1,16,24,78,053,41,196,74,062,38,199,60,167,39,50,60,167,41,1*65
$GPGSV,4,2,16,18,60,255,33,23,47,336,21,15,39,042,30,195,35,179,29,1*5B
$GPGSV,4,3,16,194,29,139,38,05,22,115,26,12,17,144,25,10,15,317,36,1*51
$GPGSV,4,4,16,13,11,054,19,32,07,265,22,25,06,179,,29,03,199,,1*68
$GPGSV,2,1,08,24,78,053,45,196,74,062,44,199,60,167,41,18,60,255,38,8*65
$GPGSV,2,2,08,23,47,336,40,195,35,179,24,194,29,139,43,10,15,317,41,8*69
$GLGSV,2,1,08,80,48,085,36,70,40,004,27,85,38,252,40,73,33,161,40,1*7C
$GLGSV,2,2,08,86,26,307,42,71,20,309,39,79,14,035,27,69,14,069,27,1*74
$GAGSV,3,1,09,13,59,237,28,08,48,021,41,07,43,298,31,26,30,310,39,7*76
$GAGSV,3,2,09,15,26,174,34,02,25,089,25,30,23,146,29,03,12,061,,7*70
$GAGSV,3,3,09,25,04,046,,7*4B
$GAGSV,2,1,07,13,59,237,27,08,48,021,43,07,43,298,33,26,30,310,36,1*7F
$GAGSV,2,2,07,15,26,174,39,02,25,089,33,30,23,146,38,1*44
$GBGSV,4,1,15,38,83,090,38,08,77,006,38,39,72,276,39,13,67,337,39,1*78
$GBGSV,4,2,15,16,66,252,35,06,65,248,33,46,58,119,38,09,49,234,22,1*77
$GBGSV,4,3,15,19,47,340,34,20,44,057,20,36,31,184,28,37,25,050,25,1*7D
$GBGSV,4,4,15,29,22,215,28,35,22,273,18,22,09,298,35,1*40
$GBGSV,3,1,10,38,83,090,39,39,72,276,31,46,58,119,43,19,47,340,34,4*77
$GBGSV,3,2,10,20,44,057,33,36,31,184,21,37,25,050,27,29,22,215,23,4*75
$GBGSV,3,3,10,35,22,273,32,22,09,298,23,4*78
$GNACCURACY,3.1*14
$PAIRSAT,1,35,1,0,200,2,0,200,3,0,200,4,0,200,5,0,201,6,0,200,7,0,200,8,0,200,9,0,200,10,0,221,11,0,200,12,0,201,13,0,201,14,0,200,15,0,201,16,0,200,17,0,200,18,0,221,19,0,200,20,0,200,21,0,200,23,0,221,24,0,221,25,0,200,26,0,200,27,0,200,28,0,200,29,0,200,30,0,200,31,0,200,32,0,200,194,0,621,195,0,621,196,0,620,199,0,621*6B
$PAIRSAT,2,23,65,0,200,67,0,200,68,0,200,69,0,201,70,0,201,71,0,201,72,0,200,73,0,201,74,0,200,75,0,200,76,0,200,77,0,200,78,0,200,79,0,201,80,0,201,81,0,200,82,0,200,83,0,200,84,0,200,85,0,201,86,0,201,87,0,200,88,0,200*53
$PAIRSAT,3,23,2,0,1221,3,0,1221,4,0,1200,5,0,200,7,0,1221,8,0,1221,9,0,1200,10,0,1200,11,0,1200,12,0,1200,13,0,1221,15,0,1221,19,0,1200,21,0,1200,24,0,1200,25,0,1200,26,0,1221,27,0,1200,30,0,1221,31,0,1200,33,0,1200,34,0,1200,36,0,1200*6A
$PAIRSAT,4,50,1,0,200,2,0,200,3,0,200,4,0,200,5,0,200,6,0,201,7,0,200,8,0,201,9,0,201,10,0,200,11,0,200,12,0,200,13,0,201,14,0,200,15,0,200,16,0,201,19,0,621,20,0,621,21,0,600,22,0,621,23,0,600,24,0,600,25,0,600,26,0,600,27,0,600,28,0,600,29,0,621,30,0,600,31,0,200,32,0,600,33,0,600,34,0,600,35,0,621,36,0,621,37,0,621,38,0,621,39,0,621,40,0,600,41,0,600,42,0,600,43,0,600,44,0,600,45,0,600,46,0,621,56,0,200,57,0,200,58,0,200,59,0,600,60,0,600,61,0,600*41
$PAIRDGP,8,5,10,12,13,15,18,23,24*72
$GNGGA,111702.200,2500.8106300,N,12132.4753600,E,2,64,0.43,20.23,M,15.25,M,4,3335*7B
$GNRMC,111702.200,A,2500.8106300,N,12132.4753600,E,0.03,332.18,260623,,,D,V*09
$GPHDT,,T*1B
$GNACCURACY,3.1*14
$GNGGA,111702.300,2500.8106300,N,12132.4753600,E,2,64,0.43,20.23,M,15.25,M,4,3335*7A
$GNRMC,111702.300,A,2500.8106300,N,12132.4753600,E,0.03,332.18,260623,,,D,V*08
$GPHDT,,T*1B
$GNACCURACY,3.1*14
$GNGGA,111702.400,2500.8106300,N,12132.4753700,E,2,64,0.43,20.24,M,15.25,M,4,3335*7B
$GNRMC,111702.400,A,2500.8106300,N,12132.4753700,E,0.02,332.18,260623,,,D,V*0F
$GPHDT,,T*1B
$GNACCURACY,3.1*14
$GNGGA,111702.500,2500.8106300,N,12132.4753700,E,2,64,0.43,20.24,M,15.25,M,4,3335*7A
$GNRMC,111702.500,A,2500.8106300,N,12132.4753700,E,0.03,332.18,260623,,,D,V*0F
$GPHDT,,T*1B
$GNACCURACY,3.0*15
$GNGGA,111702.600,2500.8106200,N,12132.4753600,E,2,64,0.43,20.24,M,15.25,M,1,3335*7C
$GNRMC,111702.600,A,2500.8106200,N,12132.4753600,E,0.04,332.18,260623,,,D,V*0B
$GPHDT,,T*1B
$GNACCURACY,3.0*15
$GNGGA,111702.700,2500.8106200,N,12132.4753600,E,2,64,0.43,20.24,M,15.25,M,1,3335*7D
$GNRMC,111702.700,A,2500.8106200,N,12132.4753600,E,0.04,332.18,260623,,,D,V*0A
$GPHDT,,T*1B
$GNACCURACY,3.0*15
$GNGGA,111702.800,2500.8106200,N,12132.4753600,E,2,64,0.43,20.23,M,15.25,M,0,3335*74
$GNRMC,111702.800,A,2500.8106200,N,12132.4753600,E,0.05,332.18,260623,,,D,V*04
$GPHDT,,T*1B
$GNACCURACY,3.0*15
$GNGGA,111702.900,2500.8106200,N,12132.4753600,E,2,64,0.43,20.23,M,15.25,M,0,3335*75
$GNRMC,111702.900,A,2500.8106200,N,12132.4753600,E,0.05,332.18,260623,,,D,V*05
$GPHDT,,T*1B
$GNACCURACY,3.0*15
$GNGGA,111703.000,2500.8106200,N,12132.4753700,E,2,64,0.43,20.22,M,15.25,M,1,3335*7C
$GNRMC,111703.000,A,2500.8106200,N,12132.4753700,E,0.04,332.18,260623,,,D,V*0D
$GPHDT,,T*1B
$GNACCURACY,3.0*15
$GNGGA,111703.100,2500.8106100,N,12132.4753700,E,2,64,0.43,20.22,M,15.25,M,1,3335*7E
$GNRMC,111703.100,A,2500.8106100,N,12132.4753700,E,0.04,332.18,260623,,,D,V*0F
$GPHDT,,T*1B
$GNGSA,A,3,24,196,199,18,23,15,195,194,05,12,10,,0.71,0.43,0.56,1*00
$GNGSA,A,3,80,70,85,73,86,71,79,69,,,,,0.71,0.43,0.56,2*0F
$GNGSA,A,3,13,08,07,26,15,02,30,,,,,,0.71,0.43,0.56,3*0D
$GNGSA,A,3,38,08,39,13,16,06,46,09,19,20,36,37,0.71,0.43,0.56,4*0C
$GNGSA,A,3,29,35,,,,,,,,,,,0.71,0.43,0.56,4*0B
$GPGSV,4,1,16,24,78,053,41,196,74,062,38,199,60,167,39,50,60,167,42,1*66
$GPGSV,4,2,16,18,60,255,31,23,47,336,20,15,39,042,29,195,35,179,26,1*5F
$GPGSV,4,3,16,194,29,139,39,05,22,115,23,12,17,144,25,10,15,317,36,1*55
$GPGSV,4,4,16,13,11,054,19,32,07,265,21,25,06,179,,29,03,199,,1*6B
$GPGSV,2,1,08,24,78,053,46,196,74,062,44,199,60,167,41,18,60,255,38,8*66
$GPGSV,2,2,08,23,47,336,40,195,35,179,21,194,29,139,43,10,15,317,41,8*6C
$GLGSV,2,1,08,80,48,085,37,70,40,004,26,85,38,252,40,73,33,161,42,1*7E
$GLGSV,2,2,08,86,26,307,41,71,20,309,38,79,14,035,28,69,14,069,26,1*78
$GAGSV,3,1,09,13,59,237,28,08,48,021,41,07,43,298,31,26,30,310,39,7*76
$GAGSV,3,2,09,15,26,174,33,02,25,089,28,30,23,146,21,03,12,061,,7*72
$GAGSV,3,3,09,25,04,046,,7*4B
$GAGSV,2,1,07,13,59,237,26,08,48,021,43,07,43,298,33,26,30,310,35,1*7D
$GAGSV,2,2,07,15,26,174,40,02,25,089,33,30,23,146,38,1*4A
$GBGSV,4,1,15,38,83,090,39,08,77,006,38,39,72,276,40,13,67,337,40,1*79
$GBGSV,4,2,15,16,66,252,35,06,65,248,34,46,58,119,34,09,49,234,23,1*7D
$GBGSV,4,3,15,19,47,340,33,20,44,057,24,36,31,184,31,37,25,050,21,1*72
$GBGSV,4,4,15,29,22,215,29,35,22,273,18,22,09,298,35,1*41
$GBGSV,3,1,10,38,83,090,38,39,72,276,30,46,58,119,42,19,47,340,34,4*76
$GBGSV,3,2,10,20,44,057,31,36,31,184,21,37,25,050,25,29,22,215,20,4*76
$GBGSV,3,3,10,35,22,273,33,22,09,298,25,4*7F
$GNACCURACY,3.0*15
$PAIRSAT,1,35,1,0,200,2,0,200,3,0,200,4,0,200,5,0,201,6,0,200,7,0,200,8,0,200,9,0,200,10,0,221,11,0,200,12,0,201,13,0,201,14,0,200,15,0,201,16,0,200,17,0,200,18,0,221,19,0,200,20,0,200,21,0,200,23,0,221,24,0,221,25,0,200,26,0,200,27,0,200,28,0,200,29,0,200,30,0,200,31,0,200,32,0,200,194,0,621,195,0,621,196,0,620,199,0,621*6B
$PAIRSAT,2,23,65,0,200,67,0,200,68,0,200,69,0,201,70,0,201,71,0,201,72,0,200,73,0,201,74,0,200,75,0,200,76,0,200,77,0,200,78,0,200,79,0,201,80,0,201,81,0,200,82,0,200,83,0,200,84,0,200,85,0,201,86,0,201,87,0,200,88,0,200*53
$PAIRSAT,3,23,2,0,1221,3,0,1221,4,0,1200,5,0,200,7,0,1221,8,0,1221,9,0,1200,10,0,1200,11,0,1200,12,0,1200,13,0,1221,15,0,1221,19,0,1200,21,0,1200,24,0,1200,25,0,1200,26,0,1221,27,0,1200,30,0,1221,31,0,1200,33,0,1200,34,0,1200,36,0,1200*6A
$PAIRSAT,4,50,1,0,200,2,0,200,3,0,200,4,0,200,5,0,200,6,0,201,7,0,200,8,0,201,9,0,201,10,0,200,11,0,200,12,0,200,13,0,201,14,0,200,15,0,200,16,0,201,19,0,621,20,0,621,21,0,600,22,0,621,23,0,600,24,0,600,25,0,600,26,0,600,27,0,600,28,0,600,29,0,621,30,0,600,31,0,200,32,0,600,33,0,600,34,0,600,35,0,621,36,0,621,37,0,621,38,0,621,39,0,621,40,0,600,41,0,600,42,0,600,43,0,600,44,0,600,45,0,600,46,0,621,56,0,200,57,0,200,58,0,200,59,0,600,60,0,600,61,0,600*41
$PAIRDGP,8,5,10,12,13,15,18,23,24*72
$GNGGA,111703.200,2500.8106100,N,12132.4753700,E,2,64,0.43,20.21,M,15.25,M,1,3335*7E
$GNRMC,111703.200,A,2500.8106100,N,12132.4753700,E,0.04,332.18,260623,,,D,V*0C
$GPHDT,,T*1B
$GNACCURACY,3.0*15
$GNGGA,111703.300,2500.8106100,N,12132.4753700,E,2,64,0.43,20.21,M,15.25,M,1,3335*7F
$GNRMC,111703.300,A,2500.8106100,N,12132.4753700,E,0.03,332.18,260623,,,D,V*0A
$GPHDT,,T*1B
$GNACCURACY,3.0*15
$GNGGA,111703.400,2500.8106100,N,12132.4753700,E,2,63,0.43,20.20,M,15.25,M,1,3335*7E
$GNRMC,111703.400,A,2500.8106100,N,12132.4753700,E,0.03,332.18,260623,,,D,V*0D
$GPHDT,,T*1B
$GNACCURACY,3.0*15
$GNGGA,111703.500,2500.8106100,N,12132.4753700,E,2,64,0.43,20.19,M,15.25,M,1,3335*72
$GNRMC,111703.500,A,2500.8106100,N,12132.4753700,E,0.03,332.18,260623,,,D,V*0C
$GPHDT,,T*1B
$GNACCURACY,3.0*15
$GNGGA,111703.600,2500.8106100,N,12132.4753700,E,2,64,0.43,20.19,M,15.25,M,1,3335*71
$GNRMC,111703.600,A,2500.8106100,N,12132.4753700,E,0.03,332.18,260623,,,D,V*0F
$GPHDT,,T*1B
$GNACCURACY,3.0*15
$GNGGA,111703.700,2500.8106100,N,12132.4753700,E,2,64,0.43,20.18,M,15.25,M,1,3335*71
$GNRMC,111703.700,A,2500.8106100,N,12132.4753700,E,0.03,332.18,260623,,,D,V*0E
$GPHDT,,T*1B
$GNACCURACY,3.1*14
$GNGGA,111703.800,2500.8106100,N,12132.4753700,E,2,64,0.43,20.18,M,15.25,M,1,3335*7E
$GNRMC,111703.800,A,2500.8106100,N,12132.4753700,E,0.03,332.18,260623,,,D,V*01
$GPHDT,,T*1B
$GNACCURACY,3.1*14
$GNGGA,111703.900,2500.8106100,N,12132.4753800,E,2,65,0.42,20.17,M,15.25,M,1,3335*7F
$GNRMC,111703.900,A,2500.8106100,N,12132.4753800,E,0.02,332.18,260623,,,D,V*0E
$GPHDT,,T*1B
$GNACCURACY,3.1*14
$GNGGA,111704.000,2500.8106100,N,12132.4753900,E,2,65,0.42,20.17,M,15.25,M,1,3335*70
$GNRMC,111704.000,A,2500.8106100,N,12132.4753900,E,0.02,332.18,260623,,,D,V*01
$GPHDT,,T*1B
$GNACCURACY,3.1*14
$GNGGA,111704.100,2500.8106100,N,12132.4753900,E,2,65,0.42,20.17,M,15.25,M,1,3335*71
$GNRMC,111704.100,A,2500.8106100,N,12132.4753900,E,0.02,332.18,260623,,,D,V*00
$GPHDT,,T*1B
$GNGSA,A,3,24,196,199,18,23,15,195,194,05,12,10,13,0.69,0.42,0.55,1*09
$GNGSA,A,3,80,70,85,73,86,71,69,79,,,,,0.69,0.42,0.55,2*04
$GNGSA,A,3,13,08,07,26,15,02,30,,,,,,0.69,0.42,0.55,3*06
$GNGSA,A,3,38,08,39,13,16,06,46,09,19,20,36,37,0.69,0.42,0.55,4*07
$GNGSA,A,3,29,35,,,,,,,,,,,0.69,0.42,0.55,4*00
$GPGSV,4,1,16,24,78,053,41,196,74,062,37,199,60,167,39,50,60,167,42,1*69
$GPGSV,4,2,16,18,60,255,32,23,47,336,20,15,39,042,27,195,35,179,27,1*53
$GPGSV,4,3,16,194,29,139,40,05,22,115,30,12,17,144,26,10,15,317,36,1*5A
$GPGSV,4,4,16,13,11,054,19,32,07,265,21,25,06,179,,29,03,199,,1*6B
$GPGSV,2,1,08,24,78,053,46,196,74,062,45,199,60,167,41,18,60,255,38,8*67
$GPGSV,2,2,08,23,47,336,39,195,35,179,23,194,29,139,43,10,15,317,41,8*60
$GLGSV,2,1,08,80,48,085,37,70,40,004,28,85,38,252,40,73,33,161,42,1*70
$GLGSV,2,2,08,86,26,307,41,71,20,309,39,69,14,069,26,79,14,035,29,1*78
$GAGSV,3,1,09,13,59,237,28,08,48,021,41,07,43,298,31,26,30,310,39,7*76
$GAGSV,3,2,09,15,26,174,34,02,25,089,28,30,23,146,22,03,12,061,,7*76
$GAGSV,3,3,09,25,04,046,,7*4B
$GAGSV,2,1,07,13,59,237,26,08,48,021,44,07,43,298,33,26,30,310,35,1*7A
$GAGSV,2,2,07,15,26,174,40,02,25,089,33,30,23,146,38,1*4A
$GBGSV,5,1,17,38,83,090,40,08,77,006,38,39,72,276,40,13,67,337,40,1*74
$GBGSV,5,2,17,16,66,252,35,06,65,248,33,46,58,119,37,09,49,234,24,1*7D
$GBGSV,5,3,17,19,47,340,33,20,44,057,23,36,31,184,30,37,25,050,19,1*7C
$GBGSV,5,4,17,29,22,215,30,35,22,273,18,22,09,298,35,32,04,096,,1*70
$GBGSV,5,5,17,44,01,315,,1*46
$GBGSV,3,1,10,38,83,090,39,39,72,276,29,46,58,119,42,19,47,340,34,4*7F
$GBGSV,3,2,10,20,44,057,32,36,31,184,21,37,25,050,25,29,22,215,21,4*74
$GBGSV,3,3,10,35,22,273,32,22,09,298,26,4*7D
$GNACCURACY,3.1*14
$PAIRSAT,1,35,1,0,200,2,0,200,3,0,200,4,0,200,5,0,201,6,0,200,7,0,200,8,0,200,9,0,200,10,0,221,11,0,200,12,0,201,13,0,201,14,0,200,15,0,201,16,0,200,17,0,200,18,0,221,19,0,200,20,0,200,21,0,200,23,0,221,24,0,221,25,0,200,26,0,200,27,0,200,28,0,200,29,0,200,30,0,200,31,0,200,32,0,200,194,0,621,195,0,621,196,0,620,199,0,621*6B
$PAIRSAT,2,23,65,0,200,67,0,200,68,0,200,69,0,201,70,0,201,71,0,201,72,0,200,73,0,201,74,0,200,75,0,200,76,0,200,77,0,200,78,0,200,79,0,201,80,0,201,81,0,200,82,0,200,83,0,200,84,0,200,85,0,201,86,0,201,87,0,200,88,0,200*53
$PAIRSAT,3,23,2,0,1221,3,0,1221,4,0,1200,5,0,200,7,0,1221,8,0,1221,9,0,1200,10,0,1200,11,0,1200,12,0,1200,13,0,1221,15,0,1221,19,0,1200,21,0,1200,24,0,1200,25,0,1200,26,0,1221,27,0,1200,30,0,1221,31,0,1200,33,0,1200,34,0,1200,36,0,1200*6A
$PAIRSAT,4,50,1,0,200,2,0,200,3,0,200,4,0,200,5,0,200,6,0,201,7,0,200,8,0,201,9,0,201,10,0,200,11,0,200,12,0,200,13,0,201,14,0,200,15,0,200,16,0,201,19,0,621,20,0,621,21,0,600,22,0,621,23,0,600,24,0,600,25,0,600,26,0,600,27,0,600,28,0,600,29,0,621,30,0,600,31,0,200,32,0,600,33,0,600,34,0,600,35,0,621,36,0,621,37,0,621,38,0,621,39,0,621,40,0,600,41,0,600,42,0,600,43,0,600,44,0,600,45,0,600,46,0,621,56,0,200,57,0,200,58,0,200,59,0,600,60,0,600,61,0,600*41
$PAIRDGP,8,5,10,12,13,15,18,23,24*72
$GNGGA,111704.200,2500.8106100,N,12132.4754000,E,2,65,0.42,20.16,M,15.25,M,1,3335*7D
$GNRMC,111704.200,A,2500.8106100,N,12132.4754000,E,0.01,332.18,260623,,,D,V*0E
$GPHDT,,T*1B
$GNACCURACY,3.0*15
$GNGGA,111704.300,2500.8106100,N,12132.4754000,E,2,65,0.42,20.17,M,15.25,M,1,3335*7D
$GNRMC,111704.300,A,2500.8106100,N,12132.4754000,E,0.01,332.18,260623,,,D,V*0F
$GPHDT,,T*1B
$GNACCURACY,3.0*15
$GNGGA,111704.400,2500.8106000,N,12132.4754100,E,2,64,0.43,20.17,M,15.25,M,1,3335*7A
$GNRMC,111704.400,A,2500.8106000,N,12132.4754100,E,0.02,332.18,260623,,,D,V*0B
$GPHDT,,T*1B
$GNACCURACY,3.0*15
$GNGGA,111704.500,2500.8106000,N,12132.4754100,E,2,64,0.43,20.16,M,15.25,M,1,3335*7A
$GNRMC,111704.500,A,2500.8106000,N,12132.4754100,E,0.01,332.18,260623,,,D,V*09
$GPHDT,,T*1B
$GNACCURACY,3.0*15
$GNGGA,111704.600,2500.8105900,N,12132.4754100,E,2,64,0.43,20.16,M,15.25,M,1,3335*73
$GNRMC,111704.600,A,2500.8105900,N,12132.4754100,E,0.01,332.18,260623,,,D,V*00
$GPHDT,,T*1B
$GNACCURACY,3.0*15
$GNGGA,111704.700,2500.8105900,N,12132.4754200,E,2,65,0.42,20.16,M,15.25,M,1,3335*71
$GNRMC,111704.700,A,2500.8105900,N,12132.4754200,E,0.02,332.18,260623,,,D,V*01
$GPHDT,,T*1B
$GNACCURACY,3.0*15
$GNGGA,111704.800,2500.8105900,N,12132.4754200,E,2,65,0.42,20.16,M,15.25,M,1,3335*7E
$GNRMC,111704.800,A,2500.8105900,N,12132.4754200,E,0.02,332.18,260623,,,D,V*0E
$GPHDT,,T*1B
$GNACCURACY,3.0*15
$GNGGA,111704.900,2500.8105900,N,12132.4754300,E,2,65,0.42,20.16,M,15.25,M,1,3335*7E
$GNRMC,111704.900,A,2500.8105900,N,12132.4754300,E,0.02,332.18,260623,,,D,V*0E
$GPHDT,,T*1B
$GNACCURACY,3.0*15
$GNGGA,111705.000,2500.8105900,N,12132.4754300,E,2,65,0.42,20.15,M,15.25,M,2,3335*76
$GNRMC,111705.000,A,2500.8105900,N,12132.4754300,E,0.02,332.18,260623,,,D,V*06
$GPHDT,,T*1B
$GNACCURACY,3.0*15
$GNGGA,111705.100,2500.8105800,N,12132.4754300,E,2,64,0.43,20.15,M,15.25,M,2,3335*76
$GNRMC,111705.100,A,2500.8105800,N,12132.4754300,E,0.01,332.18,260623,,,D,V*05
$GPHDT,,T*1B
$GNGSA,A,3,24,196,199,18,23,15,195,194,05,12,10,,0.71,0.43,0.56,1*00
$GNGSA,A,3,80,70,85,73,86,71,69,79,,,,,0.71,0.43,0.56,2*0F
$GNGSA,A,3,13,08,07,26,15,02,30,,,,,,0.71,0.43,0.56,3*0D
$GNGSA,A,3,38,08,39,13,16,06,46,09,19,20,36,37,0.71,0.43,0.56,4*0C
$GNGSA,A,3,29,35,,,,,,,,,,,0.71,0.43,0.56,4*0B
$GPGSV,4,1,16,24,78,053,41,196,74,062,38,199,60,167,39,50,60,167,42,1*66
$GPGSV,4,2,16,18,60,255,32,23,47,336,22,15,39,042,27,195,35,179,25,1*53
$GPGSV,4,3,16,194,29,139,39,05,22,115,24,12,17,144,27,10,15,317,36,1*50
$GPGSV,4,4,16,13,11,054,19,32,07,265,23,25,06,179,,29,03,199,,1*69
$GPGSV,2,1,08,24,78,053,46,196,74,062,45,199,60,167,42,18,60,255,38,8*64
$GPGSV,2,2,08,23,47,336,39,195,35,179,23,194,29,139,43,10,15,317,40,8*61
$GLGSV,2,1,08,80,48,085,36,70,40,004,27,85,38,252,40,73,33,161,42,1*7E
$GLGSV,2,2,08,86,26,307,41,71,20,309,39,69,14,069,29,79,14,035,28,1*76
$GAGSV,3,1,09,13,59,237,28,08,48,021,41,07,43,298,31,26,30,310,39,7*76
$GAGSV,3,2,09,15,26,174,32,02,25,089,26,30,23,146,31,03,12,061,,7*7C
$GAGSV,3,3,09,25,04,046,,7*4B
$GAGSV,2,1,07,13,59,237,26,08,48,021,44,07,43,298,32,26,30,310,35,1*7B
$GAGSV,2,2,07,15,26,174,39,02,25,089,31,30,23,146,39,1*47
$GBGSV,4,1,16,38,83,090,39,08,77,006,38,39,72,276,40,13,67,337,39,1*74
$GBGSV,4,2,16,16,66,252,35,06,65,248,34,46,58,119,33,09,49,234,24,1*7E
$GBGSV,4,3,16,19,47,340,34,20,44,057,23,31,35,208,,36,31,184,30,1*7B
$GBGSV,4,4,16,37,25,050,21,29,22,215,28,35,22,273,18,22,09,298,35,1*76
$GBGSV,3,1,10,38,83,090,38,39,72,276,30,46,58,119,38,19,47,340,33,4*7C
$GBGSV,3,2,10,20,44,057,32,36,31,184,20,37,25,050,24,29,22,215,21,4*74
$GBGSV,3,3,10,35,22,273,31,22,09,298,26,4*7E
$GNACCURACY,3.0*15
$PAIRSAT,1,35,1,0,200,2,0,200,3,0,200,4,0,200,5,0,201,6,0,200,7,0,200,8,0,200,9,0,200,10,0,221,11,0,200,12,0,201,13,0,201,14,0,200,15,0,201,16,0,200,17,0,200,18,0,221,19,0,200,20,0,200,21,0,200,23,0,221,24,0,221,25,0,200,26,0,200,27,0,200,28,0,200,29,0,200,30,0,200,31,0,200,32,0,200,194,0,621,195,0,621,196,0,620,199,0,621*6B
$PAIRSAT,2,23,65,0,200,67,0,200,68,0,200,69,0,201,70,0,201,71,0,201,72,0,200,73,0,201,74,0,200,75,0,200,76,0,200,77,0,200,78,0,200,79,0,201,80,0,201,81,0,200,82,0,200,83,0,200,84,0,200,85,0,201,86,0,201,87,0,200,88,0,200*53
$PAIRSAT,3,23,2,0,1221,3,0,1221,4,0,1200,5,0,200,7,0,1221,8,0,1221,9,0,1200,10,0,1200,11,0,1200,12,0,1200,13,0,1221,15,0,1221,19,0,1200,21,0,1200,24,0,1200,25,0,1200,26,0,1221,27,0,1200,30,0,1221,31,0,1200,33,0,1200,34,0,1200,36,0,1200*6A
$PAIRSAT,4,50,1,0,200,2,0,200,3,0,200,4,0,200,5,0,200,6,0,201,7,0,200,8,0,201,9,0,201,10,0,200,11,0,200,12,0,200,13,0,201,14,0,200,15,0,200,16,0,201,19,0,621,20,0,621,21,0,600,22,0,621,23,0,600,24,0,600,25,0,600,26,0,600,27,0,600,28,0,600,29,0,621,30,0,600,31,0,200,32,0,600,33,0,600,34,0,600,35,0,621,36,0,621,37,0,621,38,0,621,39,0,621,40,0,600,41,0,600,42,0,600,43,0,600,44,0,600,45,0,600,46,0,621,56,0,200,57,0,200,58,0,200,59,0,600,60,0,600,61,0,600*41
$PAIRDGP,8,5,10,12,13,15,18,23,24*72
$GNGGA,111705.200,2500.8105800,N,12132.4754300,E,2,64,0.43,20.15,M,15.25,M,2,3335*75
$GNRMC,111705.200,A,2500.8105800,N,12132.4754300,E,0.01,332.18,260623,,,D,V*06
$GPHDT,,T*1B
$GNACCURACY,3.0*15
$GNGGA,111705.300,2500.8105800,N,12132.4754300,E,2,64,0.43,20.15,M,15.25,M,2,3335*74
$GNRMC,111705.300,A,2500.8105800,N,12132.4754300,E,0.00,332.18,260623,,,D,V*06
$GPHDT,,T*1B
$GNACCURACY,3.0*15
$GNGGA,111705.400,2500.8105700,N,12132.4754300,E,2,64,0.43,20.15,M,15.25,M,2,3335*7C
$GNRMC,111705.400,A,2500.8105700,N,12132.4754300,E,0.01,332.18,260623,,,D,V*0F
$GPHDT,,T*1B
$GNACCURACY,3.0*15
$GNGGA,111705.500,2500.8105700,N,12132.4754300,E,2,64,0.43,20.15,M,15.25,M,2,3335*7D
$GNRMC,111705.500,A,2500.8105700,N,12132.4754300,E,0.01,332.18,260623,,,D,V*0E
$GPHDT,,T*1B
$GNACCURACY,3.0*15
$GNGGA,111705.600,2500.8105600,N,12132.4754200,E,2,65,0.42,20.14,M,15.25,M,2,3335*7F
$GNRMC,111705.600,A,2500.8105600,N,12132.4754200,E,0.01,332.18,260623,,,D,V*0D
$GPHDT,,T*1B
$GNACCURACY,3.0*15
$GNGGA,111705.700,2500.8105600,N,12132.4754100,E,2,65,0.42,20.14,M,15.25,M,2,3335*7D
$GNRMC,111705.700,A,2500.8105600,N,12132.4754100,E,0.01,332.18,260623,,,D,V*0F
$GPHDT,,T*1B
