$FW : RTK35X,V1.1X0314AS,Lib20210517,1*54
$Tool : LOCOSYS , GNSS Firebird , v1.0.0.19*39
$---------------------------------------------------*2D
$GNACCURACY,3.0*15
$GNGGA,111717.600,2500.8107700,N,12132.4750800,E,2,65,0.43,19.76,M,15.25,M,8,3335*74
$GNRMC,111717.600,A,2500.8107700,N,12132.4750800,E,0.03,332.18,260623,,,D,V*01
$GPHDT,,T*1B
$GNACCURACY,3.0*15
$GNGGA,111717.700,2500.8107700,N,12132.4750800,E,2,65,0.43,19.77,M,15.25,M,8,3335*74
$GNRMC,111717.700,A,2500.8107700,N,12132.4750800,E,0.03,332.18,260623,,,D,V*00
$GPHDT,,T*1B
$GNACCURACY,3.0*15
$GNGGA,111717.800,2500.8107700,N,12132.4750800,E,2,65,0.43,19.77,M,15.25,M,8,3335*7B
$GNRMC,111717.800,A,2500.8107700,N,12132.4750800,E,0.03,332.18,260623,,,D,V*0F
$GPHDT,,T*1B
$GNACCURACY,3.0*15
$GNGGA,111717.900,2500.8107800,N,12132.4750800,E,2,65,0.43,19.77,M,15.25,M,8,3335*75
$GNRMC,111717.900,A,2500.8107800,N,12132.4750800,E,0.04,332.18,260623,,,D,V*06
$GPHDT,,T*1B
$GNACCURACY,3.0*15
$GNGGA,111718.000,2500.8107900,N,12132.4750800,E,2,65,0.43,19.77,M,15.25,M,9,3335*73
$GNRMC,111718.000,A,2500.8107900,N,12132.4750800,E,0.03,332.18,260623,,,D,V*06
$GPHDT,,T*1B
$GNACCURACY,3.1*14
$GNGGA,111718.100,2500.8107900,N,12132.4750800,E,2,65,0.43,19.77,M,15.25,M,9,3335*72
$GNRMC,111718.100,A,2500.8107900,N,12132.4750800,E,0.03,332.18,260623,,,D,V*07
$GPHDT,,T*1B
$GNGSA,A,3,24,196,199,18,23,15,195,194,05,10,,,0.71,0.43,0.56,1*03
$GNGSA,A,3,80,70,85,73,86,71,79,69,,,,,0.71,0.43,0.56,2*0F
$GNGSA,A,3,13,08,07,26,15,02,30,03,,,,,0.71,0.43,0.56,3*0E
$GNGSA,A,3,38,08,39,13,16,06,46,09,19,20,36,37,0.71,0.43,0.56,4*0C
$GNGSA,A,3,29,35,,,,,,,,,,,0.71,0.43,0.56,4*0B
$GPGSV,4,1,16,24,78,053,41,196,74,062,36,199,60,167,39,50,60,167,42,1*68
$GPGSV,4,2,16,18,60,255,34,23,47,336,27,15,39,042,29,195,35,179,28,1*53
$GPGSV,4,3,16,194,29,139,42,05,22,115,31,12,18,144,15,10,15,317,37,1*57
$GPGSV,4,4,16,13,11,054,,32,07,266,26,25,06,178,,29,03,199,,1*66
$GPGSV,2,1,08,24,78,053,43,196,74,062,42,18,60,255,39,199,60,167,43,8*66
$GPGSV,2,2,08,23,47,336,37,195,35,179,24,194,29,139,42,10,15,317,41,8*68
$GLGSV,2,1,08,80,48,085,31,70,40,004,29,85,38,252,39,73,33,161,44,1*7F
$GLGSV,2,2,08,86,26,307,42,71,20,309,39,79,14,035,31,69,14,069,24,1*70
$GAGSV,3,1,09,13,59,237,27,08,48,021,41,07,43,298,30,26,30,310,39,7*78
$GAGSV,3,2,09,15,26,174,36,02,25,089,20,30,23,146,35,03,12,061,23,7*7B
$GAGSV,3,3,09,25,04,046,,7*4B
$GAGSV,2,1,08,13,59,237,27,08,48,021,43,07,43,298,33,26,30,310,35,1*73
$GAGSV,2,2,08,15,26,174,32,02,25,089,32,30,23,146,43,03,12,061,19,1*72
$GBGSV,4,1,15,38,83,090,42,08,77,006,38,39,72,276,38,13,67,337,40,1*7A
$GBGSV,4,2,15,16,66,252,34,06,65,248,32,46,58,119,34,09,49,235,27,1*7F
$GBGSV,4,3,15,19,47,340,36,20,44,057,27,36,31,184,31,37,25,050,25,1*70
$GBGSV,4,4,15,29,22,215,28,35,22,273,20,22,09,298,34,1*4A
$GBGSV,3,1,10,38,83,090,37,39,72,276,30,46,58,119,42,19,47,340,35,4*78
$GBGSV,3,2,10,20,44,057,33,36,31,184,17,37,25,050,21,29,22,215,21,4*74
$GBGSV,3,3,10,35,22,273,34,22,09,298,28,4*75
$GNACCURACY,3.1*14
$PAIRSAT,1,35,1,0,200,2,0,200,3,0,200,4,0,200,5,0,201,6,0,200,7,0,200,8,0,200,9,0,200,10,0,221,11,0,200,12,0,201,13,0,201,14,0,200,15,0,201,16,0,200,17,0,200,18,0,221,19,0,200,20,0,200,21,0,200,23,0,221,24,0,221,25,0,200,26,0,200,27,0,200,28,0,200,29,0,200,30,0,200,31,0,200,32,0,200,194,0,621,195,0,621,196,0,620,199,0,621*6B
$PAIRSAT,2,23,65,0,200,67,0,200,68,0,200,69,0,201,70,0,201,71,0,201,72,0,200,73,0,201,74,0,200,75,0,200,76,0,200,77,0,200,78,0,200,79,0,201,80,0,201,81,0,200,82,0,200,83,0,200,84,0,200,85,0,201,86,0,201,87,0,200,88,0,200*53
$PAIRSAT,3,23,2,0,1221,3,0,1221,4,0,1200,5,0,200,7,0,1221,8,0,1221,9,0,1200,10,0,1200,11,0,1200,12,0,1200,13,0,1221,15,0,1221,19,0,1200,21,0,1200,24,0,1200,25,0,1200,26,0,1221,27,0,1200,30,0,1221,31,0,1200,33,0,1200,34,0,1200,36,0,1200*6A
$PAIRSAT,4,50,1,0,200,2,0,200,3,0,200,4,0,200,5,0,200,6,0,201,7,0,200,8,0,201,9,0,201,10,0,200,11,0,200,12,0,200,13,0,201,14,0,200,15,0,200,16,0,201,19,0,621,20,0,621,21,0,600,22,0,621,23,0,600,24,0,600,25,0,600,26,0,600,27,0,600,28,0,600,29,0,621,30,0,600,31,0,200,32,0,600,33,0,600,34,0,600,35,0,621,36,0,621,37,0,621,38,0,621,39,0,621,40,0,600,41,0,600,42,0,600,43,0,600,44,0,600,45,0,600,46,0,621,56,0,200,57,0,200,58,0,200,59,0,600,60,0,600,61,0,600*41
$PAIRDGP,8,5,10,12,13,15,18,23,24*72
$GNGGA,111718.200,2500.8107900,N,12132.4750800,E,2,65,0.43,19.78,M,15.25,M,9,3335*7E
$GNRMC,111718.200,A,2500.8107900,N,12132.4750800,E,0.03,332.18,260623,,,D,V*04
$GPHDT,,T*1B
$GNACCURACY,3.1*14
$GNGGA,111718.300,2500.8107900,N,12132.4750800,E,2,65,0.43,19.78,M,15.25,M,9,3335*7F
$GNRMC,111718.300,A,2500.8107900,N,12132.4750800,E,0.03,332.18,260623,,,D,V*05
$GPHDT,,T*1B
$GNACCURACY,3.1*14
$GNGGA,111718.400,2500.8107900,N,12132.4750900,E,2,65,0.43,19.79,M,15.25,M,9,3335*78
$GNRMC,111718.400,A,2500.8107900,N,12132.4750900,E,0.03,332.18,260623,,,D,V*03
$GPHDT,,T*1B
$GNACCURACY,3.1*14
$GNGGA,111718.500,2500.8108000,N,12132.4750900,E,2,65,0.43,19.79,M,15.25,M,9,3335*7F
$GNRMC,111718.500,A,2500.8108000,N,12132.4750900,E,0.03,332.18,260623,,,D,V*04
$GPHDT,,T*1B
$GNACCURACY,3.1*14
$GNGGA,111718.600,2500.8108000,N,12132.4750900,E,2,65,0.43,19.79,M,15.25,M,9,3335*7C
$GNRMC,111718.600,A,2500.8108000,N,12132.4750900,E,0.03,332.18,260623,,,D,V*07
$GPHDT,,T*1B
$GNACCURACY,3.1*14
$GNGGA,111718.700,2500.8108000,N,12132.4751000,E,2,65,0.43,19.79,M,15.25,M,9,3335*75
$GNRMC,111718.700,A,2500.8108000,N,12132.4751000,E,0.04,332.18,260623,,,D,V*09
$GPHDT,,T*1B
$GNACCURACY,3.0*15
$GNGGA,111718.800,2500.8108100,N,12132.4751000,E,2,65,0.43,19.79,M,15.25,M,9,3335*7B
$GNRMC,111718.800,A,2500.8108100,N,12132.4751000,E,0.05,332.18,260623,,,D,V*06
$GPHDT,,T*1B
$GNACCURACY,3.0*15
$GNGGA,111718.900,2500.8108100,N,12132.4750900,E,2,65,0.43,19.79,M,15.25,M,9,3335*72
$GNRMC,111718.900,A,2500.8108100,N,12132.4750900,E,0.06,332.18,260623,,,D,V*0C
$GPHDT,,T*1B
$GNACCURACY,3.0*15
$GNGGA,111719.000,2500.8108100,N,12132.4750900,E,2,65,0.43,19.79,M,15.25,M,10,3335*42
$GNRMC,111719.000,A,2500.8108100,N,12132.4750900,E,0.06,332.18,260623,,,D,V*04
$GPHDT,,T*1B
$GNACCURACY,3.0*15
$GNGGA,111719.100,2500.8108100,N,12132.4750900,E,2,65,0.43,19.80,M,15.25,M,10,3335*45
$GNRMC,111719.100,A,2500.8108100,N,12132.4750900,E,0.05,332.18,260623,,,D,V*06
$GPHDT,,T*1B
$GNGSA,A,3,24,196,199,18,23,15,195,194,05,10,,,0.71,0.43,0.56,1*03
$GNGSA,A,3,80,70,85,73,86,71,69,79,,,,,0.71,0.43,0.56,2*0F
$GNGSA,A,3,13,08,07,26,15,02,30,03,,,,,0.71,0.43,0.56,3*0E
$GNGSA,A,3,38,08,39,13,16,06,46,09,19,20,36,37,0.71,0.43,0.56,4*0C
$GNGSA,A,3,35,29,,,,,,,,,,,0.71,0.43,0.56,4*0B
$GPGSV,4,1,16,24,78,053,42,196,74,062,39,199,60,167,39,50,60,167,42,1*64
$GPGSV,4,2,16,18,60,255,34,23,47,336,28,15,39,042,29,195,35,179,28,1*5C
$GPGSV,4,3,16,194,29,139,42,05,22,115,30,12,18,144,15,10,15,317,37,1*56
$GPGSV,4,4,16,13,11,054,,32,07,266,27,25,06,178,,29,03,199,,1*67
$GPGSV,2,1,08,24,78,053,45,196,74,062,43,18,60,255,39,199,60,167,43,8*61
$GPGSV,2,2,08,23,47,336,37,195,35,179,25,194,29,139,42,10,15,317,41,8*69
$GLGSV,3,1,09,80,48,085,33,70,40,004,29,85,38,252,39,73,33,161,44,1*7D
$GLGSV,3,2,09,86,26,307,42,71,20,309,40,69,14,069,26,79,14,035,32,1*7F
$GLGSV,3,3,09,84,13,192,,1*45
$GAGSV,3,1,09,13,59,237,28,08,48,021,40,07,43,298,30,26,30,310,39,7*76
$GAGSV,3,2,09,15,26,174,36,02,25,089,19,30,23,146,36,03,12,061,24,7*75
$GAGSV,3,3,09,25,04,046,,7*4B
$GAGSV,2,1,08,13,59,237,27,08,48,021,42,07,43,298,34,26,30,310,35,1*75
$GAGSV,2,2,08,15,26,174,33,02,25,089,33,30,23,146,43,03,12,061,18,1*73
$GBGSV,4,1,16,38,83,090,42,08,77,006,38,39,72,276,38,13,67,337,40,1*79
$GBGSV,4,2,16,16,66,252,34,06,65,248,33,46,58,119,36,09,49,235,26,1*7E
$GBGSV,4,3,16,19,47,340,36,20,44,057,28,31,35,208,,36,31,184,31,1*73
$GBGSV,4,4,16,37,25,050,24,35,22,273,18,29,22,215,27,22,09,298,34,1*7D
$GBGSV,3,1,10,38,83,090,39,39,72,276,30,46,58,119,43,19,47,340,35,4*77
$GBGSV,3,2,10,20,44,057,34,36,31,184,18,37,25,050,22,29,22,215,20,4*7E
$GBGSV,3,3,10,35,22,273,35,22,09,298,28,4*74
$GNACCURACY,3.0*15
$PAIRSAT,1,35,1,0,200,2,0,200,3,0,200,4,0,200,5,0,201,6,0,200,7,0,200,8,0,200,9,0,200,10,0,221,11,0,200,12,0,201,13,0,201,14,0,200,15,0,201,16,0,200,17,0,200,18,0,221,19,0,200,20,0,200,21,0,200,23,0,221,24,0,221,25,0,200,26,0,200,27,0,200,28,0,200,29,0,200,30,0,200,31,0,200,32,0,200,194,0,621,195,0,621,196,0,620,199,0,621*6B
$PAIRSAT,2,23,65,0,200,67,0,200,68,0,200,69,0,201,70,0,201,71,0,201,72,0,200,73,0,201,74,0,200,75,0,200,76,0,200,77,0,200,78,0,200,79,0,201,80,0,201,81,0,200,82,0,200,83,0,200,84,0,200,85,0,201,86,0,201,87,0,200,88,0,200*53
$PAIRSAT,3,23,2,0,1221,3,0,1221,4,0,1200,5,0,200,7,0,1221,8,0,1221,9,0,1200,10,0,1200,11,0,1200,12,0,1200,13,0,1221,15,0,1221,19,0,1200,21,0,1200,24,0,1200,25,0,1200,26,0,1221,27,0,1200,30,0,1221,31,0,1200,33,0,1200,34,0,1200,36,0,1200*6A
$PAIRSAT,4,50,1,0,200,2,0,200,3,0,200,4,0,200,5,0,200,6,0,201,7,0,200,8,0,201,9,0,201,10,0,200,11,0,200,12,0,200,13,0,201,14,0,200,15,0,200,16,0,201,19,0,621,20,0,621,21,0,600,22,0,621,23,0,600,24,0,600,25,0,600,26,0,600,27,0,600,28,0,600,29,0,621,30,0,600,31,0,200,32,0,600,33,0,600,34,0,600,35,0,621,36,0,621,37,0,621,38,0,621,39,0,621,40,0,600,41,0,600,42,0,600,43,0,600,44,0,600,45,0,600,46,0,621,56,0,200,57,0,200,58,0,200,59,0,600,60,0,600,61,0,600*41
$PAIRDGP,8,5,10,12,13,15,18,23,24*72
$GNGGA,111719.200,2500.8108100,N,12132.4751000,E,2,65,0.43,19.79,M,15.25,M,10,3335*48
$GNRMC,111719.200,A,2500.8108100,N,12132.4751000,E,0.05,332.18,260623,,,D,V*0D
$GPHDT,,T*1B
$GNACCURACY,3.0*15
$GNGGA,111719.300,2500.8108100,N,12132.4751000,E,2,65,0.43,19.79,M,15.25,M,10,3335*49
$GNRMC,111719.300,A,2500.8108100,N,12132.4751000,E,0.05,332.18,260623,,,D,V*0C
$GPHDT,,T*1B
$GNACCURACY,3.0*15
$GNGGA,111719.400,2500.8108200,N,12132.4751000,E,2,65,0.43,19.79,M,15.25,M,10,3335*4D
$GNRMC,111719.400,A,2500.8108200,N,12132.4751000,E,0.04,332.18,260623,,,D,V*09
$GPHDT,,T*1B
$GNACCURACY,3.0*15
$GNGGA,111719.500,2500.8108200,N,12132.4751100,E,2,65,0.43,19.79,M,15.25,M,7,3335*7B
$GNRMC,111719.500,A,2500.8108200,N,12132.4751100,E,0.04,332.18,260623,,,D,V*09
$GPHDT,,T*1B
$GNACCURACY,3.0*15
$GNGGA,111719.600,2500.8108200,N,12132.4751100,E,2,65,0.43,19.79,M,15.25,M,7,3335*78
$GNRMC,111719.600,A,2500.8108200,N,12132.4751100,E,0.05,332.18,260623,,,D,V*0B
$GPHDT,,T*1B
$GNACCURACY,3.0*15
$GNGGA,111719.700,2500.8108200,N,12132.4751100,E,2,65,0.43,19.78,M,15.25,M,7,3335*78
$GNRMC,111719.700,A,2500.8108200,N,12132.4751100,E,0.05,332.18,260623,,,D,V*0A
$GPHDT,,T*1B
$GNACCURACY,3.0*15
$GNGGA,111719.800,2500.8108200,N,12132.4751100,E,2,65,0.43,19.78,M,15.25,M,7,3335*77
$GNRMC,111719.800,A,2500.8108200,N,12132.4751100,E,0.05,332.18,260623,,,D,V*05
$GPHDT,,T*1B
$GNACCURACY,3.0*15
$GNGGA,111719.900,2500.8108100,N,12132.4751100,E,2,65,0.43,19.78,M,15.25,M,7,3335*75
$GNRMC,111719.900,A,2500.8108100,N,12132.4751100,E,0.05,332.18,260623,,,D,V*07
$GPHDT,,T*1B
$GNACCURACY,3.0*15
$GNGGA,111720.000,2500.8108100,N,12132.4751200,E,2,65,0.43,19.77,M,15.25,M,8,3335*75
$GNRMC,111720.000,A,2500.8108100,N,12132.4751200,E,0.05,332.18,260623,,,D,V*07
$GPHDT,,T*1B
$GNACCURACY,3.0*15
$GNGGA,111720.100,2500.8108100,N,12132.4751200,E,2,65,0.43,19.77,M,15.25,M,8,3335*74
$GNRMC,111720.100,A,2500.8108100,N,12132.4751200,E,0.05,332.18,260623,,,D,V*06
$GPHDT,,T*1B
$GNGSA,A,3,24,196,199,18,23,15,195,194,05,10,,,0.71,0.43,0.56,1*03
$GNGSA,A,3,80,70,85,73,86,71,79,69,,,,,0.71,0.43,0.56,2*0F
$GNGSA,A,3,13,08,07,26,15,02,30,03,,,,,0.71,0.43,0.56,3*0E
$GNGSA,A,3,38,08,39,13,16,06,46,09,19,20,36,37,0.71,0.43,0.56,4*0C
$GNGSA,A,3,29,35,,,,,,,,,,,0.71,0.43,0.56,4*0B
$GPGSV,4,1,16,24,78,053,41,196,74,062,39,199,60,167,39,50,60,167,42,1*67
$GPGSV,4,2,16,18,60,255,34,23,47,336,29,15,39,042,29,195,35,179,28,1*5D
$GPGSV,4,3,16,194,29,139,42,05,22,115,30,12,18,144,14,10,15,317,37,1*57
$GPGSV,4,4,16,13,11,054,,32,07,266,27,25,06,178,,29,03,199,,1*67
$GPGSV,3,1,09,24,78,053,45,196,74,062,44,18,60,255,39,199,60,167,43,8*66
$GPGSV,3,2,09,23,47,336,36,195,35,179,26,194,29,139,42,10,15,317,41,8*6B
$GPGSV,3,3,09,32,07,266,24,8*56
$GLGSV,3,1,09,80,48,085,33,70,40,004,29,85,38,252,39,73,33,161,44,1*7D
$GLGSV,3,2,09,86,26,307,42,71,20,309,41,79,14,035,32,69,14,069,28,1*70
$GLGSV,3,3,09,84,13,192,,1*45
$GAGSV,3,1,09,13,59,237,28,08,48,021,40,07,43,298,30,26,30,310,39,7*76
$GAGSV,3,2,09,15,26,174,36,02,25,089,19,30,23,146,36,03,12,061,24,7*75
$GAGSV,3,3,09,25,04,046,,7*4B
$GAGSV,2,1,08,13,59,237,26,08,48,021,43,07,43,298,34,26,30,310,36,1*76
$GAGSV,2,2,08,15,26,174,34,02,25,089,33,30,23,146,43,03,12,061,19,1*75
$GBGSV,5,1,17,38,83,090,41,08,77,006,38,39,72,276,38,13,67,337,40,1*7A
$GBGSV,5,2,17,16,66,252,34,06,65,248,32,46,58,119,39,09,49,235,26,1*70
$GBGSV,5,3,17,19,47,340,36,20,44,057,28,36,31,184,30,37,25,050,24,1*7C
$GBGSV,5,4,17,29,22,215,28,35,22,273,13,22,09,298,34,32,04,096,,1*73
$GBGSV,5,5,17,10,03,203,,1*43
$GBGSV,3,1,10,38,83,090,39,39,72,276,31,46,58,119,44,19,47,340,34,4*70
$GBGSV,3,2,10,20,44,057,34,36,31,184,18,37,25,050,23,29,22,215,20,4*7F
$GBGSV,3,3,10,35,22,273,35,22,09,298,28,4*74
$GNACCURACY,3.0*15
$PAIRSAT,1,35,1,0,200,2,0,200,3,0,200,4,0,200,5,0,201,6,0,200,7,0,200,8,0,200,9,0,200,10,0,221,11,0,200,12,0,201,13,0,201,14,0,200,15,0,201,16,0,200,17,0,200,18,0,221,19,0,200,20,0,200,21,0,200,23,0,221,24,0,221,25,0,200,26,0,200,27,0,200,28,0,200,29,0,200,30,0,200,31,0,200,32,0,200,194,0,621,195,0,621,196,0,620,199,0,621*6B
$PAIRSAT,2,23,65,0,200,67,0,200,68,0,200,69,0,201,70,0,201,71,0,201,72,0,200,73,0,201,74,0,200,75,0,200,76,0,200,77,0,200,78,0,200,79,0,201,80,0,201,81,0,200,82,0,200,83,0,200,84,0,200,85,0,201,86,0,201,87,0,200,88,0,200*53
$PAIRSAT,3,23,2,0,1221,3,0,1221,4,0,1200,5,0,200,7,0,1221,8,0,1221,9,0,1200,10,0,1200,11,0,1200,12,0,1200,13,0,1221,15,0,1221,19,0,1200,21,0,1200,24,0,1200,25,0,1200,26,0,1221,27,0,1200,30,0,1221,31,0,1200,33,0,1200,34,0,1200,36,0,1200*6A
$PAIRSAT,4,50,1,0,200,2,0,200,3,0,200,4,0,200,5,0,200,6,0,201,7,0,200,8,0,201,9,0,201,10,0,200,11,0,200,12,0,200,13,0,201,14,0,200,15,0,200,16,0,201,19,0,621,20,0,621,21,0,600,22,0,621,23,0,600,24,0,600,25,0,600,26,0,600,27,0,600,28,0,600,29,0,621,30,0,600,31,0,200,32,0,600,33,0,600,34,0,600,35,0,621,36,0,621,37,0,621,38,0,621,39,0,621,40,0,600,41,0,600,42,0,600,43,0,600,44,0,600,45,0,600,46,0,621,56,0,200,57,0,200,58,0,200,59,0,600,60,0,600,61,0,600*41
$PAIRDGP,8,5,10,12,13,15,18,23,24*72
$GNGGA,111720.200,2500.8108100,N,12132.4751300,E,2,64,0.43,19.77,M,15.25,M,8,3335*77
$GNRMC,111720.200,A,2500.8108100,N,12132.4751300,E,0.05,332.18,260623,,,D,V*04
$GPHDT,,T*1B
$GNACCURACY,3.0*15
$GNGGA,111720.300,2500.8108200,N,12132.4751300,E,2,64,0.43,19.77,M,15.25,M,8,3335*75
$GNRMC,111720.300,A,2500.8108200,N,12132.4751300,E,0.05,332.18,260623,,,D,V*06
$GPHDT,,T*1B
$GNACCURACY,3.0*15
$GNGGA,111720.400,2500.8108200,N,12132.4751300,E,2,64,0.43,19.77,M,15.25,M,8,3335*72
$GNRMC,111720.400,A,2500.8108200,N,12132.4751300,E,0.05,332.18,260623,,,D,V*01
$GPHDT,,T*1B
$GNACCURACY,3.0*15
$GNGGA,111720.500,2500.8108200,N,12132.4751300,E,2,64,0.43,19.77,M,15.25,M,8,3335*73
$GNRMC,111720.500,A,2500.8108200,N,12132.4751300,E,0.05,332.18,260623,,,D,V*00
$GPHDT,,T*1B
$GNACCURACY,3.0*15
$GNGGA,111720.600,2500.8108200,N,12132.4751300,E,2,64,0.43,19.77,M,15.25,M,8,3335*70
$GNRMC,111720.600,A,2500.8108200,N,12132.4751300,E,0.05,332.18,260623,,,D,V*03
$GPHDT,,T*1B
$GNACCURACY,3.0*15
$GNGGA,111720.700,2500.8108200,N,12132.4751300,E,2,64,0.43,19.77,M,15.25,M,8,3335*71
$GNRMC,111720.700,A,2500.8108200,N,12132.4751300,E,0.06,332.18,260623,,,D,V*01
$GPHDT,,T*1B
$GNACCURACY,3.0*15
$GNGGA,111720.800,2500.8108200,N,12132.4751400,E,2,64,0.43,19.77,M,15.25,M,8,3335*79
$GNRMC,111720.800,A,2500.8108200,N,12132.4751400,E,0.05,332.18,260623,,,D,V*0A
$GPHDT,,T*1B
$GNACCURACY,3.0*15
$GNGGA,111720.900,2500.8108200,N,12132.4751400,E,2,64,0.43,19.76,M,15.25,M,8,3335*79
$GNRMC,111720.900,A,2500.8108200,N,12132.4751400,E,0.05,332.18,260623,,,D,V*0B
$GPHDT,,T*1B
$GNACCURACY,3.0*15
$GNGGA,111721.000,2500.8108200,N,12132.4751500,E,2,64,0.43,19.76,M,15.25,M,9,3335*71
$GNRMC,111721.000,A,2500.8108200,N,12132.4751500,E,0.05,332.18,260623,,,D,V*02
$GPHDT,,T*1B
$GNACCURACY,3.0*15
$GNGGA,111721.100,2500.8108300,N,12132.4751600,E,2,64,0.43,19.76,M,15.25,M,9,3335*72
$GNRMC,111721.100,A,2500.8108300,N,12132.4751600,E,0.04,332.18,260623,,,D,V*00
$GPHDT,,T*1B
$GNGSA,A,3,24,196,199,18,23,15,195,194,05,10,,,0.72,0.45,0.57,1*07
$GNGSA,A,3,80,70,85,73,86,71,79,69,,,,,0.72,0.45,0.57,2*0B
$GNGSA,A,3,13,08,07,26,15,02,30,03,,,,,0.72,0.45,0.57,3*0A
$GNGSA,A,3,38,08,39,13,16,06,46,09,19,20,36,37,0.72,0.45,0.57,4*08
$GNGSA,A,3,29,,,,,,,,,,,,0.72,0.45,0.57,4*09
$GPGSV,4,1,16,24,78,053,41,196,74,062,39,199,60,167,39,50,60,167,42,1*67
$GPGSV,4,2,16,18,60,255,34,23,47,336,29,15,39,042,30,195,35,179,28,1*55
$GPGSV,4,3,16,194,29,139,42,05,22,115,30,12,18,144,15,10,15,317,37,1*56
$GPGSV,4,4,16,13,11,054,,32,07,266,26,25,06,178,,29,03,199,,1*66
$GPGSV,3,1,09,24,78,053,45,196,74,062,44,18,60,255,39,199,60,167,43,8*66
$GPGSV,3,2,09,23,47,336,36,195,35,179,26,194,29,139,42,10,15,317,41,8*6B
$GPGSV,3,3,09,32,07,266,25,8*57
$GLGSV,3,1,09,80,48,085,33,70,40,004,29,85,38,252,39,73,33,161,44,1*7D
$GLGSV,3,2,09,86,26,307,42,71,20,309,40,79,14,035,31,69,14,069,28,1*72
$GLGSV,3,3,09,84,13,192,,1*45
$GAGSV,3,1,09,13,59,237,29,08,48,021,40,07,43,298,30,26,30,310,39,7*77
$GAGSV,3,2,09,15,26,174,36,02,25,089,21,30,23,146,36,03,12,061,23,7*79
$GAGSV,3,3,09,25,04,046,,7*4B
$GAGSV,2,1,08,13,59,237,26,08,48,021,43,07,43,298,34,26,30,310,36,1*76
$GAGSV,2,2,08,15,26,174,33,02,25,089,33,30,23,146,43,03,12,061,18,1*73
$GBGSV,4,1,15,38,83,090,40,08,77,006,38,39,72,276,38,13,67,337,40,1*78
$GBGSV,4,2,15,16,66,252,35,06,65,248,32,46,58,119,39,09,49,235,27,1*73
$GBGSV,4,3,15,19,47,340,36,20,44,057,30,36,31,184,30,37,25,050,25,1*77
$GBGSV,4,4,15,29,22,215,29,35,22,273,15,22,09,298,34,1*4D
$GBGSV,3,1,10,38,83,090,38,39,72,276,31,46,58,119,44,19,47,340,34,4*71
$GBGSV,3,2,10,20,44,057,34,36,31,184,18,37,25,050,23,29,22,215,20,4*7F
$GBGSV,3,3,10,35,22,273,35,22,09,298,28,4*74
$GNACCURACY,3.0*15
$PAIRSAT,1,35,1,0,200,2,0,200,3,0,200,4,0,200,5,0,201,6,0,200,7,0,200,8,0,200,9,0,200,10,0,221,11,0,200,12,0,201,13,0,201,14,0,200,15,0,201,16,0,200,17,0,200,18,0,221,19,0,200,20,0,200,21,0,200,23,0,221,24,0,221,25,0,200,26,0,200,27,0,200,28,0,200,29,0,200,30,0,200,31,0,200,32,0,200,194,0,621,195,0,621,196,0,620,199,0,621*6B
$PAIRSAT,2,23,65,0,200,67,0,200,68,0,200,69,0,201,70,0,201,71,0,201,72,0,200,73,0,201,74,0,200,75,0,200,76,0,200,77,0,200,78,0,200,79,0,201,80,0,201,81,0,200,82,0,200,83,0,200,84,0,200,85,0,201,86,0,201,87,0,200,88,0,200*53
$PAIRSAT,3,23,2,0,1221,3,0,1221,4,0,1200,5,0,200,7,0,1221,8,0,1221,9,0,1200,10,0,1200,11,0,1200,12,0,1200,13,0,1221,15,0,1221,19,0,1200,21,0,1200,24,0,1200,25,0,1200,26,0,1221,27,0,1200,30,0,1221,31,0,1200,33,0,1200,34,0,1200,36,0,1200*6A
$PAIRSAT,4,50,1,0,200,2,0,200,3,0,200,4,0,200,5,0,200,6,0,201,7,0,200,8,0,201,9,0,201,10,0,200,11,0,200,12,0,200,13,0,201,14,0,200,15,0,200,16,0,201,19,0,621,20,0,621,21,0,600,22,0,621,23,0,600,24,0,600,25,0,600,26,0,600,27,0,600,28,0,600,29,0,621,30,0,600,31,0,200,32,0,600,33,0,600,34,0,600,35,0,621,36,0,621,37,0,621,38,0,621,39,0,621,40,0,600,41,0,600,42,0,600,43,0,600,44,0,600,45,0,600,46,0,621,56,0,200,57,0,200,58,0,200,59,0,600,60,0,600,61,0,600*41
$PAIRDGP,8,5,10,12,13,15,18,23,24*72
$GNGGA,111721.200,2500.8108300,N,12132.4751600,E,2,63,0.45,19.76,M,15.25,M,9,3335*70
$GNRMC,111721.200,A,2500.8108300,N,12132.4751600,E,0.04,332.18,260623,,,D,V*03
$GPHDT,,T*1B
$GNACCURACY,3.0*15
$GNGGA,111721.300,2500.8108300,N,12132.4751600,E,2,63,0.45,19.75,M,15.25,M,9,3335*72
$GNRMC,111721.300,A,2500.8108300,N,12132.4751600,E,0.03,332.18,260623,,,D,V*05
$GPHDT,,T*1B
$GNACCURACY,3.0*15
$GNGGA,111721.400,2500.8108200,N,12132.4751700,E,2,63,0.45,19.75,M,15.25,M,9,3335*75
$GNRMC,111721.400,A,2500.8108200,N,12132.4751700,E,0.04,332.18,260623,,,D,V*05
$GPHDT,,T*1B
$GNACCURACY,3.0*15
$GNGGA,111721.500,2500.8108200,N,12132.4751700,E,2,63,0.45,19.75,M,15.25,M,9,3335*74
$GNRMC,111721.500,A,2500.8108200,N,12132.4751700,E,0.04,332.18,260623,,,D,V*04
$GPHDT,,T*1B
$GNACCURACY,3.0*15
$GNGGA,111721.600,2500.8108200,N,12132.4751700,E,2,63,0.45,19.75,M,15.25,M,9,3335*77
$GNRMC,111721.600,A,2500.8108200,N,12132.4751700,E,0.03,332.18,260623,,,D,V*00
$GPHDT,,T*1B
$GNACCURACY,3.0*15
$GNGGA,111721.700,2500.8108200,N,12132.4751700,E,2,63,0.45,19.75,M,15.25,M,9,3335*76
$GNRMC,111721.700,A,2500.8108200,N,12132.4751700,E,0.04,332.18,260623,,,D,V*06
$GPHDT,,T*1B
$GNACCURACY,3.0*15
$GNGGA,111721.800,2500.8108200,N,12132.4751800,E,2,63,0.45,19.74,M,15.25,M,9,3335*77
$GNRMC,111721.800,A,2500.8108200,N,12132.4751800,E,0.04,332.18,260623,,,D,V*06
$GPHDT,,T*1B
$GNACCURACY,3.0*15
$GNGGA,111721.900,2500.8108200,N,12132.4751900,E,2,63,0.45,19.74,M,15.25,M,9,3335*77
$GNRMC,111721.900,A,2500.8108200,N,12132.4751900,E,0.05,332.18,260623,,,D,V*07
$GPHDT,,T*1B
$GNACCURACY,3.0*15
$GNGGA,111722.000,2500.8108200,N,12132.4751900,E,2,63,0.45,19.73,M,15.25,M,10,3335*42
$GNRMC,111722.000,A,2500.8108200,N,12132.4751900,E,0.04,332.18,260623,,,D,V*0C
$GPHDT,,T*1B
$GNACCURACY,3.0*15
$GNGGA,111722.100,2500.8108200,N,12132.4751900,E,2,63,0.45,19.73,M,15.25,M,10,3335*43
$GNRMC,111722.100,A,2500.8108200,N,12132.4751900,E,0.04,332.18,260623,,,D,V*0D
$GPHDT,,T*1B
$GNGSA,A,3,24,196,199,18,23,15,195,194,05,10,,,0.72,0.45,0.57,1*07
$GNGSA,A,3,80,70,85,73,86,71,79,69,,,,,0.72,0.45,0.57,2*0B
$GNGSA,A,3,13,08,07,26,15,02,30,03,,,,,0.72,0.45,0.57,3*0A
$GNGSA,A,3,38,08,39,13,16,06,46,09,19,20,36,37,0.72,0.45,0.57,4*08
$GNGSA,A,3,29,,,,,,,,,,,,0.72,0.45,0.57,4*09
$GPGSV,4,1,16,24,78,053,40,196,74,062,39,199,60,167,39,50,60,167,42,1*66
$GPGSV,4,2,16,18,60,255,34,23,47,336,28,15,39,042,30,195,35,179,29,1*55
$GPGSV,4,3,16,194,29,139,42,05,22,115,30,12,18,144,17,10,15,317,37,1*54
$GPGSV,4,4,16,13,11,054,17,32,07,266,26,25,06,178,,29,03,199,,1*60
$GPGSV,3,1,09,24,78,053,45,196,74,062,44,18,60,255,40,199,60,167,43,8*68
$GPGSV,3,2,09,23,47,336,35,195,35,179,26,194,29,139,42,10,15,317,41,8*68
$GPGSV,3,3,09,32,07,266,25,8*57
$GLGSV,3,1,09,80,48,085,33,70,40,004,28,85,38,252,39,73,33,161,44,1*7C
$GLGSV,3,2,09,86,26,307,42,71,20,309,40,79,14,035,31,69,14,069,27,1*7D
$GLGSV,3,3,09,84,13,192,,1*45
$GAGSV,3,1,09,13,59,237,29,08,48,021,40,07,43,298,30,26,30,310,39,7*77
$GAGSV,3,2,09,15,26,174,36,02,25,089,21,30,23,146,35,03,12,061,23,7*7A
$GAGSV,3,3,09,25,04,046,,7*4B
$GAGSV,2,1,08,13,59,237,27,08,48,021,44,07,43,298,33,26,30,310,36,1*77
$GAGSV,2,2,08,15,26,174,33,02,25,089,33,30,23,146,43,03,12,061,18,1*73
$GBGSV,4,1,15,38,83,090,40,08,77,006,38,39,72,276,38,13,67,337,40,1*78
$GBGSV,4,2,15,16,66,252,35,06,65,248,33,46,58,119,39,09,49,235,26,1*73
$GBGSV,4,3,15,19,47,340,36,20,44,057,32,36,31,184,30,37,25,050,25,1*75
$GBGSV,4,4,15,29,22,215,29,35,22,273,15,22,09,298,34,1*4D
$GBGSV,3,1,10,38,83,090,38,39,72,276,31,46,58,119,45,19,47,340,33,4*77
$GBGSV,3,2,10,20,44,057,35,36,31,184,19,37,25,050,24,29,22,215,20,4*78
$GBGSV,3,3,10,35,22,273,35,22,09,298,29,4*75
$GNACCURACY,3.0*15
$PAIRSAT,1,35,1,0,200,2,0,200,3,0,200,4,0,200,5,0,201,6,0,200,7,0,200,8,0,200,9,0,200,10,0,221,11,0,200,12,0,201,13,0,201,14,0,200,15,0,201,16,0,200,17,0,200,18,0,221,19,0,200,20,0,200,21,0,200,23,0,221,24,0,221,25,0,200,26,0,200,27,0,200,28,0,200,29,0,200,30,0,200,31,0,200,32,0,200,194,0,621,195,0,621,196,0,620,199,0,621*6B
$PAIRSAT,2,23,65,0,200,67,0,200,68,0,200,69,0,201,70,0,201,71,0,201,72,0,200,73,0,201,74,0,200,75,0,200,76,0,200,77,0,200,78,0,200,79,0,201,80,0,201,81,0,200,82,0,200,83,0,200,84,0,200,85,0,201,86,0,201,87,0,200,88,0,200*53
$PAIRSAT,3,23,2,0,1221,3,0,1221,4,0,1200,5,0,200,7,0,1221,8,0,1221,9,0,1200,10,0,1200,11,0,1200,12,0,1200,13,0,1221,15,0,1221,19,0,1200,21,0,1200,24,0,1200,25,0,1200,26,0,1221,27,0,1200,30,0,1221,31,0,1200,33,0,1200,34,0,1200,36,0,1200*6A
$PAIRSAT,4,50,1,0,200,2,0,200,3,0,200,4,0,200,5,0,200,6,0,201,7,0,200,8,0,201,9,0,201,10,0,200,11,0,200,12,0,200,13,0,201,14,0,200,15,0,200,16,0,201,19,0,621,20,0,621,21,0,600,22,0,621,23,0,600,24,0,600,25,0,600,26,0,600,27,0,600,28,0,600,29,0,621,30,0,600,31,0,200,32,0,600,33,0,600,34,0,600,35,0,621,36,0,621,37,0,621,38,0,621,39,0,621,40,0,600,41,0,600,42,0,600,43,0,600,44,0,600,45,0,600,46,0,621,56,0,200,57,0,200,58,0,200,59,0,600,60,0,600,61,0,600*41
$PAIRDGP,8,5,10,12,13,15,18,23,24*72
$GNGGA,111722.200,2500.8108200,N,12132.4752000,E,2,63,0.45,19.72,M,15.25,M,10,3335*4B
$GNRMC,111722.200,A,2500.8108200,N,12132.4752000,E,0.04,332.18,260623,,,D,V*04
$GPHDT,,T*1B
$GNACCURACY,3.0*15
$GNGGA,111722.300,2500.8108100,N,12132.4752000,E,2,63,0.45,19.72,M,15.25,M,10,3335*49
$GNRMC,111722.300,A,2500.8108100,N,12132.4752000,E,0.04,332.18,260623,,,D,V*06
$GPHDT,,T*1B
$GNACCURACY,3.0*15
$GNGGA,111722.400,2500.8108100,N,12132.4752000,E,2,63,0.45,19.71,M,15.25,M,10,3335*4D
$GNRMC,111722.400,A,2500.8108100,N,12132.4752000,E,0.03,332.18,260623,,,D,V*06
$GPHDT,,T*1B
$GNACCURACY,3.0*15
$GNGGA,111722.500,2500.8108000,N,12132.4752100,E,2,63,0.45,19.71,M,15.25,M,10,3335*4C
$GNRMC,111722.500,A,2500.8108000,N,12132.4752100,E,0.04,332.18,260623,,,D,V*00
$GPHDT,,T*1B
$GNACCURACY,3.0*15
$GNGGA,111722.600,2500.8108000,N,12132.4752000,E,2,63,0.45,19.71,M,15.25,M,10,3335*4E
$GNRMC,111722.600,A,2500.8108000,N,12132.4752000,E,0.05,332.18,260623,,,D,V*03
$GPHDT,,T*1B
$GNACCURACY,3.0*15
$GNGGA,111722.700,2500.8108000,N,12132.4752000,E,2,63,0.45,19.71,M,15.25,M,10,3335*4F
$GNRMC,111722.700,A,2500.8108000,N,12132.4752000,E,0.05,332.18,260623,,,D,V*02
$GPHDT,,T*1B
$GNACCURACY,3.0*15
$GNGGA,111722.800,2500.8108000,N,12132.4751900,E,2,63,0.45,19.71,M,15.25,M,10,3335*4A
$GNRMC,111722.800,A,2500.8108000,N,12132.4751900,E,0.05,332.18,260623,,,D,V*07
$GPHDT,,T*1B
$GNACCURACY,3.0*15
$GNGGA,111722.900,2500.8108000,N,12132.4751900,E,2,63,0.45,19.72,M,15.25,M,10,3335*48
$GNRMC,111722.900,A,2500.8108000,N,12132.4751900,E,0.05,332.18,260623,,,D,V*06
$GPHDT,,T*1B
$GNACCURACY,3.0*15
$GNGGA,111723.000,2500.8107900,N,12132.4751900,E,2,63,0.45,19.72,M,15.25,M,11,3335*47
$GNRMC,111723.000,A,2500.8107900,N,12132.4751900,E,0.05,332.18,260623,,,D,V*08
$GPHDT,,T*1B
$GNACCURACY,3.0*15
$GNGGA,111723.100,2500.8107900,N,12132.4751900,E,2,63,0.45,19.72,M,15.25,M,11,3335*46
$GNRMC,111723.100,A,2500.8107900,N,12132.4751900,E,0.05,332.18,260623,,,D,V*09
$GPHDT,,T*1B
$GNGSA,A,3,24,196,199,18,23,15,195,194,05,10,,,0.72,0.45,0.57,1*07
$GNGSA,A,3,80,70,85,73,86,71,79,69,,,,,0.72,0.45,0.57,2*0B
$GNGSA,A,3,13,08,07,26,15,02,30,03,,,,,0.72,0.45,0.57,3*0A
$GNGSA,A,3,38,08,39,13,16,06,46,09,19,20,36,37,0.72,0.45,0.57,4*08
$GNGSA,A,3,29,,,,,,,,,,,,0.72,0.45,0.57,4*09
$GPGSV,4,1,16,24,78,053,40,196,74,062,40,199,60,167,39,50,60,167,42,1*68
$GPGSV,4,2,16,18,60,255,34,23,47,336,29,15,39,042,31,195,35,179,27,1*5B
$GPGSV,4,3,16,194,29,139,42,05,22,115,29,12,18,144,15,10,15,317,37,1*5E
$GPGSV,4,4,16,13,11,054,18,32,07,266,17,25,06,178,,29,03,199,,1*6D
$GPGSV,3,1,09,24,78,053,45,196,74,062,44,18,60,255,40,199,60,167,43,8*68
$GPGSV,3,2,09,23,47,336,35,195,35,179,26,194,29,139,42,10,15,317,40,8*69
$GPGSV,3,3,09,32,07,266,25,8*57
$GLGSV,3,1,09,80,48,085,33,70,40,004,28,85,38,252,39,73,33,161,43,1*7B
$GLGSV,3,2,09,86,26,307,42,71,20,309,40,79,14,035,30,69,14,069,27,1*7C
$GLGSV,3,3,09,84,13,192,,1*45
$GAGSV,3,1,09,13,59,237,29,08,48,021,40,07,43,298,31,26,30,310,39,7*76
$GAGSV,3,2,09,15,26,174,36,02,25,089,23,30,23,146,35,03,12,061,23,7*78
$GAGSV,3,3,09,25,04,046,,7*4B
$GAGSV,2,1,08,13,59,237,26,08,48,021,44,07,43,298,34,26,30,310,36,1*71
$GAGSV,2,2,08,15,26,174,33,02,25,089,32,30,23,146,43,03,12,061,18,1*72
$GBGSV,4,1,15,38,83,090,40,08,77,006,39,39,72,276,38,13,67,337,40,1*79
$GBGSV,4,2,15,16,66,252,35,06,65,248,33,46,58,119,39,09,49,235,26,1*73
$GBGSV,4,3,15,19,47,340,36,20,44,057,32,36,31,184,29,37,25,050,25,1*7D
$GBGSV,4,4,15,29,22,215,29,35,22,273,14,22,09,298,34,1*4C
$GBGSV,3,1,10,38,83,090,38,39,72,276,30,46,58,119,45,19,47,340,33,4*76
$GBGSV,3,2,10,20,44,057,35,36,31,184,19,37,25,050,24,29,22,215,20,4*78
$GBGSV,3,3,10,35,22,273,35,22,09,298,29,4*75
$GNACCURACY,3.0*15
$PAIRSAT,1,35,1,0,200,2,0,200,3,0,200,4,0,200,5,0,201,6,0,200,7,0,200,8,0,200,9,0,200,10,0,221,11,0,200,12,0,201,13,0,201,14,0,200,15,0,201,16,0,200,17,0,200,18,0,221,19,0,200,20,0,200,21,0,200,23,0,221,24,0,221,25,0,200,26,0,200,27,0,200,28,0,200,29,0,200,30,0,200,31,0,200,32,0,200,194,0,621,195,0,621,196,0,620,199,0,621*6B
$PAIRSAT,2,23,65,0,200,67,0,200,68,0,200,69,0,201,70,0,201,71,0,201,72,0,200,73,0,201,74,0,200,75,0,200,76,0,200,77,0,200,78,0,200,79,0,201,80,0,201,81,0,200,82,0,200,83,0,200,84,0,200,85,0,201,86,0,201,87,0,200,88,0,200*53
$PAIRSAT,3,23,2,0,1221,3,0,1221,4,0,1200,5,0,200,7,0,1221,8,0,1221,9,0,1200,10,0,1200,11,0,1200,12,0,1200,13,0,1221,15,0,1221,19,0,1200,21,0,1200,24,0,1200,25,0,1200,26,0,1221,27,0,1200,30,0,1221,31,0,1200,33,0,1200,34,0,1200,36,0,1200*6A
$PAIRSAT,4,50,1,0,200,2,0,200,3,0,200,4,0,200,5,0,200,6,0,201,7,0,200,8,0,201,9,0,201,10,0,200,11,0,200,12,0,200,13,0,201,14,0,200,15,0,200,16,0,201,19,0,621,20,0,621,21,0,600,22,0,621,23,0,600,24,0,600,25,0,600,26,0,600,27,0,600,28,0,600,29,0,621,30,0,600,31,0,200,32,0,600,33,0,600,34,0,600,35,0,621,36,0,621,37,0,621,38,0,621,39,0,621,40,0,600,41,0,600,42,0,600,43,0,600,44,0,600,45,0,600,46,0,621,56,0,200,57,0,200,58,0,200,59,0,600,60,0,600,61,0,600*41
$PAIRDGP,8,5,10,12,13,15,18,23,24*72
$GNGGA,111723.200,2500.8107900,N,12132.4751900,E,2,63,0.45,19.72,M,15.25,M,11,3335*45
$GNRMC,111723.200,A,2500.8107900,N,12132.4751900,E,0.05,332.18,260623,,,D,V*0A
$GPHDT,,T*1B
$GNACCURACY,3.0*15
$GNGGA,111723.300,2500.8107900,N,12132.4751900,E,2,63,0.45,19.71,M,15.25,M,11,3335*47
$GNRMC,111723.300,A,2500.8107900,N,12132.4751900,E,0.05,332.18,260623,,,D,V*0B
$GPHDT,,T*1B
$GNACCURACY,3.0*15
$GNGGA,111723.400,2500.8107900,N,12132.4751900,E,2,63,0.45,19.71,M,15.25,M,11,3335*40
$GNRMC,111723.400,A,2500.8107900,N,12132.4751900,E,0.05,332.18,260623,,,D,V*0C
$GPHDT,,T*1B
$GNACCURACY,3.0*15
$GNGGA,111723.500,2500.8107900,N,12132.4751900,E,2,63,0.45,19.72,M,15.25,M,11,3335*42
$GNRMC,111723.500,A,2500.8107900,N,12132.4751900,E,0.05,332.18,260623,,,D,V*0D
$GPHDT,,T*1B
$GNACCURACY,3.0*15
$GNGGA,111723.600,2500.8107800,N,12132.4751900,E,2,63,0.45,19.71,M,15.25,M,11,3335*43
$GNRMC,111723.600,A,2500.8107800,N,12132.4751900,E,0.04,332.18,260623,,,D,V*0E
$GPHDT,,T*1B
$GNACCURACY,3.0*15
$GNGGA,111723.700,2500.8107800,N,12132.4752000,E,2,62,0.45,19.71,M,15.25,M,11,3335*49
$GNRMC,111723.700,A,2500.8107800,N,12132.4752000,E,0.04,332.18,260623,,,D,V*05
$GPHDT,,T*1B
$GNACCURACY,3.0*15
$GNGGA,111723.800,2500.8107700,N,12132.4752000,E,2,63,0.43,19.71,M,15.25,M,11,3335*4E
$GNRMC,111723.800,A,2500.8107700,N,12132.4752000,E,0.04,332.18,260623,,,D,V*05
$GPHDT,,T*1B
$GNACCURACY,3.0*15
$GNGGA,111723.900,2500.8107700,N,12132.4752000,E,2,63,0.43,19.71,M,15.25,M,11,3335*4F
$GNRMC,111723.900,A,2500.8107700,N,12132.4752000,E,0.04,332.18,260623,,,D,V*04
$GPHDT,,T*1B
$GNACCURACY,3.0*15
$GNGGA,111724.000,2500.8107700,N,12132.4751900,E,2,63,0.43,19.71,M,15.25,M,12,3335*48
$GNRMC,111724.000,A,2500.8107700,N,12132.4751900,E,0.04,332.18,260623,,,D,V*00
$GPHDT,,T*1B
$GNACCURACY,3.0*15
$GNGGA,111724.100,2500.8107700,N,12132.4752000,E,2,64,0.43,19.72,M,15.25,M,12,3335*47
$GNRMC,111724.100,A,2500.8107700,N,12132.4752000,E,0.03,332.18,260623,,,D,V*0C
$GPHDT,,T*1B
