$FW : RTK35X,V1.1X0314AS,Lib20210517,1*54
$Tool : LOCOSYS , GNSS Firebird , v1.0.0.19*39
$---------------------------------------------------*2D
3335*40
$GNRMC,111617.900,A,2500.8098000,N,12132.4772600,E,0.01,332.18,260623,,,D,V*03
$GPHDT,,T*1B
$GNACCURACY,3.0*15
$GNGGA,111618.000,2500.8098100,N,12132.4772600,E,2,64,0.42,22.51,M,15.25,M,32,3335*47
$GNRMC,111618.000,A,2500.8098100,N,12132.4772600,E,0.01,332.18,260623,,,D,V*04
$GPHDT,,T*1B
$GNACCURACY,3.0*15
$GNGGA,111618.100,2500.8098100,N,12132.4772500,E,2,64,0.42,22.50,M,15.25,M,32,3335*44
$GNRMC,111618.100,A,2500.8098100,N,12132.4772500,E,0.00,332.18,260623,,,D,V*07
$GPHDT,,T*1B
$GNGSA,A,3,24,196,199,18,23,15,195,194,05,12,10,13,0.68,0.42,0.54,1*09
$GNGSA,A,3,80,70,85,73,86,71,79,69,,,,,0.68,0.42,0.54,2*04
$GNGSA,A,3,13,08,07,26,15,02,30,03,,,,,0.68,0.42,0.54,3*05
$GNGSA,A,3,38,08,39,16,13,06,46,09,19,20,36,37,0.68,0.42,0.54,4*07
$GNGSA,A,3,29,35,,,,,,,,,,,0.68,0.42,0.54,4*00
$GPGSV,4,1,16,24,78,054,43,196,74,062,37,199,60,167,39,50,60,167,42,1*6C
$GPGSV,4,2,16,18,60,256,38,23,46,335,32,15,39,042,32,195,36,179,23,1*58
$GPGSV,4,3,16,194,29,139,42,05,22,115,30,12,17,145,26,10,15,316,36,1*58
$GPGSV,4,4,16,13,11,054,16,32,07,265,17,25,06,179,,29,03,200,,1*62
$GPGSV,2,1,08,24,78,054,46,196,74,062,45,199,60,167,44,18,60,256,41,8*68
$GPGSV,2,2,08,23,46,335,36,195,36,179,20,194,29,139,42,10,15,316,40,8*6C
$GLGSV,2,1,08,80,48,086,40,70,40,003,32,85,39,252,41,73,33,161,34,1*7E
$GLGSV,2,2,08,86,26,308,37,71,20,309,36,79,15,035,22,69,14,069,21,1*74
$GAGSV,3,1,09,13,59,238,19,08,48,021,43,07,43,298,24,26,30,310,36,7*72
$GAGSV,3,2,09,15,27,174,36,02,24,090,21,30,23,146,39,03,12,061,24,7*79
$GAGSV,3,3,09,25,04,046,,7*4B
$GAGSV,2,1,07,13,59,238,26,08,48,021,44,07,43,298,30,26,30,310,38,1*7B
$GAGSV,2,2,07,15,27,174,37,02,24,090,34,30,23,146,41,1*4B
$GBGSV,4,1,15,38,83,088,37,08,77,006,39,39,72,276,38,16,66,251,35,1*77
$GBGSV,4,2,15,13,66,337,40,06,65,247,34,46,57,120,42,09,49,234,20,1*70
$GBGSV,4,3,15,19,47,339,32,20,44,057,32,36,31,184,31,37,25,050,22,1*79
$GBGSV,4,4,15,29,22,215,28,35,22,273,33,22,09,298,25,1*48
$GBGSV,3,1,09,38,83,088,36,39,72,276,31,46,57,120,45,19,47,339,34,4*74
$GBGSV,3,2,09,20,44,057,36,37,25,050,32,29,22,215,19,35,22,273,34,4*7B
$GBGSV,3,3,09,22,09,298,27,4*45
$GNACCURACY,3.0*15
$PAIRSAT,1,35,1,0,200,2,0,200,3,0,200,4,0,200,5,0,201,6,0,200,7,0,200,8,0,200,9,0,200,10,0,221,11,0,200,12,0,201,13,0,201,14,0,200,15,0,201,16,0,200,17,0,200,18,0,221,19,0,200,20,0,200,21,0,200,23,0,221,24,0,221,25,0,200,26,0,200,27,0,200,28,0,200,29,0,200,30,0,200,31,0,200,32,0,200,194,0,621,195,0,621,196,0,620,199,0,621*6B
$PAIRSAT,2,23,65,0,200,67,0,200,68,0,200,69,0,201,70,0,201,71,0,201,72,0,200,73,0,201,74,0,200,75,0,200,76,0,200,77,0,200,78,0,200,79,0,201,80,0,201,81,0,200,82,0,200,83,0,200,84,0,200,85,0,201,86,0,201,87,0,200,88,0,200*53
$PAIRSAT,3,23,2,0,1221,3,0,1221,4,0,1200,5,0,200,7,0,1221,8,0,1221,9,0,1200,10,0,1200,11,0,1200,12,0,1200,13,0,1221,15,0,1221,19,0,1200,21,0,1200,24,0,1200,25,0,1200,26,0,1221,27,0,1200,30,0,1221,31,0,1200,33,0,1200,34,0,1200,36,0,1200*6A
$PAIRSAT,4,50,1,0,200,2,0,200,3,0,200,4,0,200,5,0,200,6,0,201,7,0,200,8,0,201,9,0,201,10,0,200,11,0,200,12,0,200,13,0,201,14,0,200,15,0,200,16,0,201,19,0,621,20,0,621,21,0,600,22,0,621,23,0,600,24,0,600,25,0,600,26,0,600,27,0,600,28,0,600,29,0,621,30,0,600,31,0,200,32,0,600,33,0,600,34,0,600,35,0,621,36,0,621,37,0,621,38,0,621,39,0,621,40,0,600,41,0,600,42,0,600,43,0,600,44,0,600,45,0,600,46,0,621,56,0,200,57,0,200,58,0,200,59,0,600,60,0,600,61,0,600*41
$PAIRDGP,8,5,10,12,13,15,18,23,24*72
$GNGGA,111618.200,2500.8098100,N,12132.4772500,E,2,64,0.42,22.50,M,15.25,M,32,3335*47
$GNRMC,111618.200,A,2500.8098100,N,12132.4772500,E,0.01,332.18,260623,,,D,V*05
$GPHDT,,T*1B
$GNACCURACY,3.0*15
$GNGGA,111618.300,2500.8098100,N,12132.4772400,E,2,64,0.42,22.49,M,15.25,M,32,3335*4F
$GNRMC,111618.300,A,2500.8098100,N,12132.4772400,E,0.01,332.18,260623,,,D,V*05
$GPHDT,,T*1B
$GNACCURACY,3.1*14
$GNGGA,111618.400,2500.8098200,N,12132.4772400,E,2,65,0.42,22.48,M,15.25,M,32,3335*4B
$GNRMC,111618.400,A,2500.8098200,N,12132.4772400,E,0.01,332.18,260623,,,D,V*01
$GPHDT,,T*1B
$GNACCURACY,3.1*14
$GNGGA,111618.500,2500.8098200,N,12132.4772400,E,2,66,0.42,22.48,M,15.25,M,32,3335*49
$GNRMC,111618.500,A,2500.8098200,N,12132.4772400,E,0.02,332.18,260623,,,D,V*03
$GPHDT,,T*1B
$GNACCURACY,3.1*14
$GNGGA,111618.600,2500.8098300,N,12132.4772300,E,2,66,0.42,22.47,M,15.25,M,32,3335*43
$GNRMC,111618.600,A,2500.8098300,N,12132.4772300,E,0.02,332.18,260623,,,D,V*06
$GPHDT,,T*1B
$GNACCURACY,3.1*14
$GNGGA,111618.700,2500.8098300,N,12132.4772300,E,2,66,0.42,22.47,M,15.25,M,32,3335*42
$GNRMC,111618.700,A,2500.8098300,N,12132.4772300,E,0.02,332.18,260623,,,D,V*07
$GPHDT,,T*1B
$GNACCURACY,3.1*14
$GNGGA,111618.800,2500.8098300,N,12132.4772300,E,2,66,0.42,22.46,M,15.25,M,32,3335*4C
$GNRMC,111618.800,A,2500.8098300,N,12132.4772300,E,0.02,332.18,260623,,,D,V*08
$GPHDT,,T*1B
$GNACCURACY,3.1*14
$GNGGA,111618.900,2500.8098300,N,12132.4772300,E,2,65,0.42,22.45,M,15.25,M,32,3335*4D
$GNRMC,111618.900,A,2500.8098300,N,12132.4772300,E,0.03,332.18,260623,,,D,V*08
$GPHDT,,T*1B
$GNACCURACY,3.1*14
$GNGGA,111619.000,2500.8098300,N,12132.4772300,E,2,65,0.42,22.45,M,15.25,M,33,3335*44
$GNRMC,111619.000,A,2500.8098300,N,12132.4772300,E,0.03,332.18,260623,,,D,V*00
$GPHDT,,T*1B
$GNACCURACY,3.0*15
$GNGGA,111619.100,2500.8098300,N,12132.4772400,E,2,65,0.42,22.44,M,15.25,M,33,3335*43
$GNRMC,111619.100,A,2500.8098300,N,12132.4772400,E,0.03,332.18,260623,,,D,V*06
$GPHDT,,T*1B
$GNGSA,A,3,24,196,199,18,23,15,195,194,05,12,10,13,0.68,0.42,0.54,1*09
$GNGSA,A,3,80,70,85,73,86,71,79,69,,,,,0.68,0.42,0.54,2*04
$GNGSA,A,3,13,08,07,26,15,02,30,03,,,,,0.68,0.42,0.54,3*05
$GNGSA,A,3,38,08,39,13,16,06,46,09,19,20,36,37,0.68,0.42,0.54,4*07
$GNGSA,A,3,35,29,,,,,,,,,,,0.68,0.42,0.54,4*00
$GPGSV,4,1,16,24,78,054,43,196,74,062,37,199,60,167,39,50,60,167,42,1*6C
$GPGSV,4,2,16,18,60,256,39,23,46,335,31,15,39,042,31,195,36,179,23,1*59
$GPGSV,4,3,16,194,29,139,42,05,22,115,31,12,17,145,27,10,15,316,36,1*58
$GPGSV,4,4,16,13,11,054,16,32,07,265,16,25,06,179,,29,03,200,,1*63
$GPGSV,2,1,08,24,78,054,46,196,74,062,45,199,60,167,44,18,60,256,41,8*68
$GPGSV,2,2,08,23,46,335,36,195,36,179,22,194,29,139,41,10,15,316,40,8*6D
$GLGSV,3,1,09,80,48,085,40,70,40,003,32,85,39,252,42,73,33,161,39,1*73
$GLGSV,3,2,09,86,26,308,37,71,20,309,36,79,15,035,23,69,14,069,21,1*75
$GLGSV,3,3,09,84,13,192,,1*45
$GAGSV,3,1,09,13,59,238,19,08,48,021,43,07,43,298,24,26,30,310,36,7*72
$GAGSV,3,2,09,15,27,174,36,02,24,090,24,30,23,146,39,03,12,061,24,7*7C
$GAGSV,3,3,09,25,04,046,,7*4B
$GAGSV,2,1,08,13,59,238,29,08,48,021,44,07,43,298,30,26,30,310,38,1*7B
$GAGSV,2,2,08,15,27,174,37,02,24,090,33,30,23,146,41,03,12,061,19,1*7C
$GBGSV,5,1,18,38,83,088,37,08,77,006,39,39,72,276,38,13,66,337,40,1*7D
$GBGSV,5,2,18,16,66,251,35,06,65,247,34,46,57,120,42,09,49,234,22,1*78
$GBGSV,5,3,18,56,48,309,,19,47,339,31,20,44,057,32,31,35,207,,1*7C
$GBGSV,5,4,18,36,31,184,31,37,25,050,21,35,22,273,26,29,22,215,27,1*7F
$GBGSV,5,5,18,22,09,298,24,10,03,203,,1*70
$GBGSV,3,1,09,38,83,088,37,39,72,276,33,46,57,120,46,19,47,339,34,4*74
$GBGSV,3,2,09,20,44,057,35,37,25,050,32,29,22,215,19,35,22,273,31,4*7D
$GBGSV,3,3,09,22,09,298,27,4*45
$GNACCURACY,3.0*15
$PAIRSAT,1,35,1,0,200,2,0,200,3,0,200,4,0,200,5,0,201,6,0,200,7,0,200,8,0,200,9,0,200,10,0,221,11,0,200,12,0,201,13,0,201,14,0,200,15,0,201,16,0,200,17,0,200,18,0,221,19,0,200,20,0,200,21,0,200,23,0,221,24,0,221,25,0,200,26,0,200,27,0,200,28,0,200,29,0,200,30,0,200,31,0,200,32,0,200,194,0,621,195,0,621,196,0,620,199,0,621*6B
$PAIRSAT,2,23,65,0,200,67,0,200,68,0,200,69,0,201,70,0,201,71,0,201,72,0,200,73,0,201,74,0,200,75,0,200,76,0,200,77,0,200,78,0,200,79,0,201,80,0,201,81,0,200,82,0,200,83,0,200,84,0,200,85,0,201,86,0,201,87,0,200,88,0,200*53
$PAIRSAT,3,23,2,0,1221,3,0,1221,4,0,1200,5,0,200,7,0,1221,8,0,1221,9,0,1200,10,0,1200,11,0,1200,12,0,1200,13,0,1221,15,0,1221,19,0,1200,21,0,1200,24,0,1200,25,0,1200,26,0,1221,27,0,1200,30,0,1221,31,0,1200,33,0,1200,34,0,1200,36,0,1200*6A
$PAIRSAT,4,50,1,0,200,2,0,200,3,0,200,4,0,200,5,0,200,6,0,201,7,0,200,8,0,201,9,0,201,10,0,200,11,0,200,12,0,200,13,0,201,14,0,200,15,0,200,16,0,201,19,0,621,20,0,621,21,0,600,22,0,621,23,0,600,24,0,600,25,0,600,26,0,600,27,0,600,28,0,600,29,0,621,30,0,600,31,0,200,32,0,600,33,0,600,34,0,600,35,0,621,36,0,621,37,0,621,38,0,621,39,0,621,40,0,600,41,0,600,42,0,600,43,0,600,44,0,600,45,0,600,46,0,621,56,0,200,57,0,200,58,0,200,59,0,600,60,0,600,61,0,600*41
$PAIRDGP,8,5,10,12,13,15,18,23,24*72
$GNGGA,111619.200,2500.8098400,N,12132.4772400,E,2,66,0.42,22.44,M,15.25,M,33,3335*44
$GNRMC,111619.200,A,2500.8098400,N,12132.4772400,E,0.02,332.18,260623,,,D,V*03
$GPHDT,,T*1B
$GNACCURACY,3.0*15
$GNGGA,111619.300,2500.8098400,N,12132.4772400,E,2,66,0.42,22.43,M,15.25,M,33,3335*42
$GNRMC,111619.300,A,2500.8098400,N,12132.4772400,E,0.02,332.18,260623,,,D,V*02
$GPHDT,,T*1B
$GNACCURACY,3.0*15
$GNGGA,111619.400,2500.8098400,N,12132.4772300,E,2,66,0.42,22.43,M,15.25,M,33,3335*42
$GNRMC,111619.400,A,2500.8098400,N,12132.4772300,E,0.03,332.18,260623,,,D,V*03
$GPHDT,,T*1B
$GNACCURACY,3.0*15
$GNGGA,111619.500,2500.8098500,N,12132.4772400,E,2,66,0.42,22.43,M,15.25,M,33,3335*45
$GNRMC,111619.500,A,2500.8098500,N,12132.4772400,E,0.02,332.18,260623,,,D,V*05
$GPHDT,,T*1B
$GNACCURACY,3.0*15
$GNGGA,111619.600,2500.8098500,N,12132.4772400,E,2,66,0.42,22.42,M,15.25,M,33,3335*47
$GNRMC,111619.600,A,2500.8098500,N,12132.4772400,E,0.02,332.18,260623,,,D,V*06
$GPHDT,,T*1B
$GNACCURACY,3.0*15
$GNGGA,111619.700,2500.8098600,N,12132.4772400,E,2,66,0.42,22.41,M,15.25,M,33,3335*46
$GNRMC,111619.700,A,2500.8098600,N,12132.4772400,E,0.03,332.18,260623,,,D,V*05
$GPHDT,,T*1B
$GNACCURACY,3.0*15
$GNGGA,111619.800,2500.8098600,N,12132.4772400,E,2,66,0.42,22.41,M,15.25,M,33,3335*49
$GNRMC,111619.800,A,2500.8098600,N,12132.4772400,E,0.03,332.18,260623,,,D,V*0A
$GPHDT,,T*1B
$GNACCURACY,3.0*15
$GNGGA,111619.900,2500.8098600,N,12132.4772400,E,2,66,0.42,22.40,M,15.25,M,33,3335*49
$GNRMC,111619.900,A,2500.8098600,N,12132.4772400,E,0.03,332.18,260623,,,D,V*0B
$GPHDT,,T*1B
$GNACCURACY,3.0*15
$GNGGA,111620.000,2500.8098600,N,12132.4772400,E,2,66,0.42,22.39,M,15.25,M,34,3335*43
$GNRMC,111620.000,A,2500.8098600,N,12132.4772400,E,0.03,332.18,260623,,,D,V*08
$GPHDT,,T*1B
$GNACCURACY,3.0*15
$GNGGA,111620.100,2500.8098600,N,12132.4772400,E,2,66,0.42,22.39,M,15.25,M,34,3335*42
$GNRMC,111620.100,A,2500.8098600,N,12132.4772400,E,0.03,332.18,260623,,,D,V*09
$GPHDT,,T*1B
$GNGSA,A,3,24,196,199,18,23,15,195,194,05,12,10,13,0.68,0.42,0.54,1*09
$GNGSA,A,3,80,70,85,73,86,71,79,69,,,,,0.68,0.42,0.54,2*04
$GNGSA,A,3,13,08,07,26,15,02,30,03,,,,,0.68,0.42,0.54,3*05
$GNGSA,A,3,38,08,39,16,13,06,46,09,19,20,36,37,0.68,0.42,0.54,4*07
$GNGSA,A,3,29,35,,,,,,,,,,,0.68,0.42,0.54,4*00
$GPGSV,4,1,16,24,78,054,43,196,74,062,37,199,60,167,39,50,60,167,42,1*6C
$GPGSV,4,2,16,18,60,256,39,23,46,335,30,15,39,042,28,195,36,179,23,1*50
$GPGSV,4,3,16,194,29,139,42,05,22,115,32,12,17,145,24,10,15,316,35,1*5B
$GPGSV,4,4,16,13,11,054,16,32,07,265,16,25,06,179,,29,03,200,,1*63
$GPGSV,2,1,08,24,78,054,46,196,74,062,44,199,60,167,44,18,60,256,41,8*69
$GPGSV,2,2,08,23,46,335,36,195,36,179,23,194,29,139,41,10,15,316,41,8*6D
$GLGSV,3,1,09,80,48,085,40,70,40,003,32,85,39,252,42,73,33,161,39,1*73
$GLGSV,3,2,09,86,26,308,37,71,20,309,38,79,15,035,21,69,14,069,22,1*7A
$GLGSV,3,3,09,84,13,192,,1*45
$GAGSV,3,1,09,13,59,238,24,08,48,021,43,07,43,298,23,26,30,310,36,7*7B
$GAGSV,3,2,09,15,27,174,37,02,24,090,22,30,23,146,38,03,12,061,24,7*7A
$GAGSV,3,3,09,25,04,046,,7*4B
$GAGSV,2,1,08,13,59,238,28,08,48,021,44,07,43,298,31,26,30,310,37,1*74
$GAGSV,2,2,08,15,27,174,36,02,24,090,33,30,23,146,40,03,12,061,17,1*72
$GBGSV,5,1,17,38,83,088,37,08,77,006,39,39,72,276,37,16,66,251,35,1*7B
$GBGSV,5,2,17,13,66,337,40,06,65,247,34,46,57,120,41,09,49,234,23,1*73
$GBGSV,5,3,17,19,47,339,31,20,44,057,33,36,31,184,31,37,25,050,23,1*79
$GBGSV,5,4,17,29,22,215,28,35,22,273,28,22,09,298,23,07,05,193,,1*7E
$GBGSV,5,5,17,10,03,203,,1*43
$GBGSV,3,1,09,38,83,088,38,39,72,276,30,46,57,120,46,19,47,339,33,4*7F
$GBGSV,3,2,09,20,44,057,34,37,25,050,32,29,22,215,19,35,22,273,32,4*7F
$GBGSV,3,3,09,22,09,298,26,4*44
$GNACCURACY,3.0*15
$PAIRSAT,1,35,1,0,200,2,0,200,3,0,200,4,0,200,5,0,201,6,0,200,7,0,200,8,0,200,9,0,200,10,0,221,11,0,200,12,0,201,13,0,201,14,0,200,15,0,201,16,0,200,17,0,200,18,0,221,19,0,200,20,0,200,21,0,200,23,0,221,24,0,221,25,0,200,26,0,200,27,0,200,28,0,200,29,0,200,30,0,200,31,0,200,32,0,200,194,0,621,195,0,621,196,0,620,199,0,621*6B
$PAIRSAT,2,23,65,0,200,67,0,200,68,0,200,69,0,201,70,0,201,71,0,201,72,0,200,73,0,201,74,0,200,75,0,200,76,0,200,77,0,200,78,0,200,79,0,201,80,0,201,81,0,200,82,0,200,83,0,200,84,0,200,85,0,201,86,0,201,87,0,200,88,0,200*53
$PAIRSAT,3,23,2,0,1221,3,0,1221,4,0,1200,5,0,200,7,0,1221,8,0,1221,9,0,1200,10,0,1200,11,0,1200,12,0,1200,13,0,1221,15,0,1221,19,0,1200,21,0,1200,24,0,1200,25,0,1200,26,0,1221,27,0,1200,30,0,1221,31,0,1200,33,0,1200,34,0,1200,36,0,1200*6A
$PAIRSAT,4,50,1,0,200,2,0,200,3,0,200,4,0,200,5,0,200,6,0,201,7,0,200,8,0,201,9,0,201,10,0,200,11,0,200,12,0,200,13,0,201,14,0,200,15,0,200,16,0,201,19,0,621,20,0,621,21,0,600,22,0,621,23,0,600,24,0,600,25,0,600,26,0,600,27,0,600,28,0,600,29,0,621,30,0,600,31,0,200,32,0,600,33,0,600,34,0,600,35,0,621,36,0,621,37,0,621,38,0,621,39,0,621,40,0,600,41,0,600,42,0,600,43,0,600,44,0,600,45,0,600,46,0,621,56,0,200,57,0,200,58,0,200,59,0,600,60,0,600,61,0,600*41
$PAIRDGP,8,5,10,12,13,15,18,23,24*72
$GNGGA,111620.200,2500.8098600,N,12132.4772300,E,2,66,0.42,22.39,M,15.25,M,34,3335*46
$GNRMC,111620.200,A,2500.8098600,N,12132.4772300,E,0.04,332.18,260623,,,D,V*0A
$GPHDT,,T*1B
$GNACCURACY,3.0*15
$GNGGA,111620.300,2500.8098700,N,12132.4772400,E,2,66,0.42,22.38,M,15.25,M,34,3335*40
$GNRMC,111620.300,A,2500.8098700,N,12132.4772400,E,0.03,332.18,260623,,,D,V*0A
$GPHDT,,T*1B
$GNACCURACY,3.0*15
$GNGGA,111620.400,2500.8098700,N,12132.4772400,E,2,66,0.42,22.38,M,15.25,M,34,3335*47
$GNRMC,111620.400,A,2500.8098700,N,12132.4772400,E,0.03,332.18,260623,,,D,V*0D
$GPHDT,,T*1B
$GNACCURACY,3.0*15
$GNGGA,111620.500,2500.8098700,N,12132.4772400,E,2,66,0.42,22.38,M,15.25,M,34,3335*46
$GNRMC,111620.500,A,2500.8098700,N,12132.4772400,E,0.02,332.18,260623,,,D,V*0D
$GPHDT,,T*1B
$GNACCURACY,3.0*15
$GNGGA,111620.600,2500.8098800,N,12132.4772300,E,2,65,0.42,22.38,M,15.25,M,34,3335*4E
$GNRMC,111620.600,A,2500.8098800,N,12132.4772300,E,0.03,332.18,260623,,,D,V*07
$GPHDT,,T*1B
$GNACCURACY,3.0*15
$GNGGA,111620.700,2500.8098800,N,12132.4772400,E,2,65,0.42,22.38,M,15.25,M,34,3335*48
$GNRMC,111620.700,A,2500.8098800,N,12132.4772400,E,0.02,332.18,260623,,,D,V*00
$GPHDT,,T*1B
$GNACCURACY,3.0*15
$GNGGA,111620.800,2500.8098800,N,12132.4772400,E,2,65,0.42,22.37,M,15.25,M,34,3335*48
$GNRMC,111620.800,A,2500.8098800,N,12132.4772400,E,0.02,332.18,260623,,,D,V*0F
$GPHDT,,T*1B
$GNACCURACY,3.0*15
$GNGGA,111620.900,2500.8098800,N,12132.4772400,E,2,65,0.42,22.37,M,15.25,M,34,3335*49
$GNRMC,111620.900,A,2500.8098800,N,12132.4772400,E,0.03,332.18,260623,,,D,V*0F
$GPHDT,,T*1B
$GNACCURACY,3.0*15
$GNGGA,111621.000,2500.8098900,N,12132.4772400,E,2,65,0.42,22.37,M,15.25,M,35,3335*41
$GNRMC,111621.000,A,2500.8098900,N,12132.4772400,E,0.02,332.18,260623,,,D,V*07
$GPHDT,,T*1B
$GNACCURACY,3.0*15
$GNGGA,111621.100,2500.8098900,N,12132.4772400,E,2,65,0.42,22.37,M,15.25,M,35,3335*40
$GNRMC,111621.100,A,2500.8098900,N,12132.4772400,E,0.01,332.18,260623,,,D,V*05
$GPHDT,,T*1B
$GNGSA,A,3,24,196,199,18,23,15,195,194,05,12,10,,0.69,0.42,0.55,1*0B
$GNGSA,A,3,80,70,85,73,86,71,79,69,,,,,0.69,0.42,0.55,2*04
$GNGSA,A,3,13,08,07,26,15,02,30,03,,,,,0.69,0.42,0.55,3*05
$GNGSA,A,3,38,08,39,16,13,06,46,09,19,20,36,37,0.69,0.42,0.55,4*07
$GNGSA,A,3,29,35,,,,,,,,,,,0.69,0.42,0.55,4*00
$GPGSV,4,1,16,24,78,054,43,196,74,062,37,199,60,167,39,50,60,167,42,1*6C
$GPGSV,4,2,16,18,60,256,39,23,46,335,30,15,39,042,26,195,36,179,21,1*5C
$GPGSV,4,3,16,194,29,139,42,05,22,115,32,12,17,145,24,10,15,316,36,1*58
$GPGSV,4,4,16,13,11,054,18,32,07,265,15,25,06,179,,29,03,200,,1*6E
$GPGSV,2,1,08,24,78,054,46,196,74,062,44,199,60,167,44,18,60,256,40,8*68
$GPGSV,2,2,08,23,46,335,36,195,36,179,22,194,29,139,41,10,15,316,41,8*6C
$GLGSV,3,1,09,80,48,085,40,70,40,003,32,85,39,252,42,73,33,161,39,1*73
$GLGSV,3,2,09,86,26,308,37,71,20,309,37,79,15,035,19,69,14,069,21,1*7D
$GLGSV,3,3,09,84,13,192,,1*45
$GAGSV,3,1,09,13,59,238,24,08,48,021,43,07,43,298,22,26,30,310,36,7*7A
$GAGSV,3,2,09,15,27,174,36,02,24,090,22,30,23,146,38,03,12,061,24,7*7B
$GAGSV,3,3,09,25,04,046,,7*4B
$GAGSV,2,1,08,13,59,238,27,08,48,021,44,07,43,298,31,26,30,310,37,1*7B
$GAGSV,2,2,08,15,27,174,36,02,24,090,33,30,23,146,40,03,12,061,17,1*72
$GBGSV,4,1,15,38,83,088,37,08,77,006,39,39,72,276,37,16,66,251,36,1*7B
$GBGSV,4,2,15,13,66,337,40,06,65,248,34,46,57,120,41,09,49,234,20,1*7C
$GBGSV,4,3,15,19,47,339,30,20,44,057,33,36,31,184,32,37,25,050,24,1*7F
$GBGSV,4,4,15,29,22,215,28,35,22,273,29,22,09,298,24,1*42
$GBGSV,3,1,09,38,83,088,37,39,72,276,30,46,57,120,46,19,47,339,33,4*70
$GBGSV,3,2,09,20,44,057,35,37,25,050,31,29,22,215,19,35,22,273,32,4*7D
$GBGSV,3,3,09,22,09,298,25,4*47
$GNACCURACY,3.1*14
$PAIRSAT,1,35,1,0,200,2,0,200,3,0,200,4,0,200,5,0,201,6,0,200,7,0,200,8,0,200,9,0,200,10,0,221,11,0,200,12,0,201,13,0,201,14,0,200,15,0,201,16,0,200,17,0,200,18,0,221,19,0,200,20,0,200,21,0,200,23,0,221,24,0,221,25,0,200,26,0,200,27,0,200,28,0,200,29,0,200,30,0,200,31,0,200,32,0,200,194,0,621,195,0,621,196,0,620,199,0,621*6B
$PAIRSAT,2,23,65,0,200,67,0,200,68,0,200,69,0,201,70,0,201,71,0,201,72,0,200,73,0,201,74,0,200,75,0,200,76,0,200,77,0,200,78,0,200,79,0,201,80,0,201,81,0,200,82,0,200,83,0,200,84,0,200,85,0,201,86,0,201,87,0,200,88,0,200*53
$PAIRSAT,3,23,2,0,1221,3,0,1221,4,0,1200,5,0,200,7,0,1221,8,0,1221,9,0,1200,10,0,1200,11,0,1200,12,0,1200,13,0,1221,15,0,1221,19,0,1200,21,0,1200,24,0,1200,25,0,1200,26,0,1221,27,0,1200,30,0,1221,31,0,1200,33,0,1200,34,0,1200,36,0,1200*6A
$PAIRSAT,4,50,1,0,200,2,0,200,3,0,200,4,0,200,5,0,200,6,0,201,7,0,200,8,0,201,9,0,201,10,0,200,11,0,200,12,0,200,13,0,201,14,0,200,15,0,200,16,0,201,19,0,621,20,0,621,21,0,600,22,0,621,23,0,600,24,0,600,25,0,600,26,0,600,27,0,600,28,0,600,29,0,621,30,0,600,31,0,200,32,0,600,33,0,600,34,0,600,35,0,621,36,0,621,37,0,621,38,0,621,39,0,621,40,0,600,41,0,600,42,0,600,43,0,600,44,0,600,45,0,600,46,0,621,56,0,200,57,0,200,58,0,200,59,0,600,60,0,600,61,0,600*41
$PAIRDGP,8,5,10,12,13,15,18,23,24*72
$GNGGA,111621.200,2500.8098900,N,12132.4772400,E,2,65,0.42,22.36,M,15.25,M,35,3335*42
$GNRMC,111621.200,A,2500.8098900,N,12132.4772400,E,0.01,332.18,260623,,,D,V*06
$GPHDT,,T*1B
$GNACCURACY,3.1*14
$GNGGA,111621.300,2500.8098900,N,12132.4772400,E,2,65,0.42,22.36,M,15.25,M,35,3335*43
$GNRMC,111621.300,A,2500.8098900,N,12132.4772400,E,0.02,332.18,260623,,,D,V*04
$GPHDT,,T*1B
$GNACCURACY,3.1*14
$GNGGA,111621.400,2500.8099000,N,12132.4772400,E,2,65,0.42,22.36,M,15.25,M,35,3335*4C
$GNRMC,111621.400,A,2500.8099000,N,12132.4772400,E,0.01,332.18,260623,,,D,V*08
$GPHDT,,T*1B
$GNACCURACY,3.1*14
$GNGGA,111621.500,2500.8099000,N,12132.4772400,E,2,65,0.42,22.36,M,15.25,M,35,3335*4D
$GNRMC,111621.500,A,2500.8099000,N,12132.4772400,E,0.01,332.18,260623,,,D,V*09
$GPHDT,,T*1B
$GNACCURACY,3.1*14
$GNGGA,111621.600,2500.8099000,N,12132.4772400,E,2,65,0.42,22.36,M,15.25,M,35,3335*4E
$GNRMC,111621.600,A,2500.8099000,N,12132.4772400,E,0.01,332.18,260623,,,D,V*0A
$GPHDT,,T*1B
$GNACCURACY,3.1*14
$GNGGA,111621.700,2500.8099000,N,12132.4772300,E,2,65,0.42,22.36,M,15.25,M,35,3335*48
$GNRMC,111621.700,A,2500.8099000,N,12132.4772300,E,0.02,332.18,260623,,,D,V*0F
$GPHDT,,T*1B
$GNACCURACY,3.1*14
$GNGGA,111621.800,2500.8099100,N,12132.4772300,E,2,65,0.42,22.36,M,15.25,M,35,3335*46
$GNRMC,111621.800,A,2500.8099100,N,12132.4772300,E,0.02,332.18,260623,,,D,V*01
$GPHDT,,T*1B
$GNACCURACY,3.1*14
$GNGGA,111621.900,2500.8099100,N,12132.4772200,E,2,66,0.42,22.36,M,15.25,M,35,3335*45
$GNRMC,111621.900,A,2500.8099100,N,12132.4772200,E,0.03,332.18,260623,,,D,V*00
$GPHDT,,T*1B
$GNACCURACY,3.1*14
$GNGGA,111622.000,2500.8099200,N,12132.4772100,E,2,66,0.42,22.36,M,15.25,M,36,3335*4C
$GNRMC,111622.000,A,2500.8099200,N,12132.4772100,E,0.02,332.18,260623,,,D,V*0B
$GPHDT,,T*1B
$GNACCURACY,3.1*14
$GNGGA,111622.100,2500.8099200,N,12132.4772100,E,2,66,0.42,22.36,M,15.25,M,36,3335*4D
$GNRMC,111622.100,A,2500.8099200,N,12132.4772100,E,0.02,332.18,260623,,,D,V*0A
$GPHDT,,T*1B
$GNGSA,A,3,24,196,199,18,23,15,195,194,05,12,10,13,0.68,0.42,0.54,1*09
$GNGSA,A,3,80,70,85,73,86,71,79,69,,,,,0.68,0.42,0.54,2*04
$GNGSA,A,3,13,08,07,26,15,02,30,03,,,,,0.68,0.42,0.54,3*05
$GNGSA,A,3,38,08,39,16,13,06,46,09,19,20,36,37,0.68,0.42,0.54,4*07
$GNGSA,A,3,29,35,,,,,,,,,,,0.68,0.42,0.54,4*00
$GPGSV,4,1,16,24,78,054,43,196,74,062,37,199,60,167,39,50,60,167,42,1*6C
$GPGSV,4,2,16,18,60,256,39,23,46,335,30,15,39,042,26,195,36,179,22,1*5F
$GPGSV,4,3,16,194,29,139,42,05,22,115,32,12,17,145,24,10,15,316,36,1*58
$GPGSV,4,4,16,13,11,054,17,32,07,265,14,25,06,179,,29,03,200,,1*60
$GPGSV,2,1,08,24,78,054,46,196,74,062,44,199,60,167,44,18,60,256,40,8*68
$GPGSV,2,2,08,23,46,335,35,195,36,179,23,194,29,139,41,10,15,316,41,8*6E
$GLGSV,3,1,09,80,48,085,40,70,40,003,32,85,39,252,42,73,33,161,39,1*73
$GLGSV,3,2,09,86,26,308,37,71,20,309,37,79,15,035,17,69,14,069,20,1*72
$GLGSV,3,3,09,84,13,192,,1*45
$GAGSV,3,1,09,13,59,238,24,08,48,021,43,07,43,298,24,26,30,310,36,7*7C
$GAGSV,3,2,09,15,27,174,36,02,24,090,22,30,23,146,38,03,12,061,24,7*7B
$GAGSV,3,3,09,25,04,046,,7*4B
$GAGSV,2,1,08,13,59,238,27,08,48,021,44,07,43,298,30,26,30,310,37,1*7A
$GAGSV,2,2,08,15,27,174,36,02,24,090,33,30,23,146,39,03,12,061,17,1*7C
$GBGSV,4,1,15,38,83,088,37,08,77,006,39,39,72,276,37,16,66,251,36,1*7B
$GBGSV,4,2,15,13,66,337,40,06,65,248,35,46,57,120,41,09,49,234,21,1*7C
$GBGSV,4,3,15,19,47,340,30,20,44,057,34,36,31,184,32,37,25,050,24,1*76
$GBGSV,4,4,15,29,22,215,27,35,22,273,29,22,09,298,24,1*4D
$GBGSV,3,1,09,38,83,088,37,39,72,276,31,46,57,120,46,19,47,340,33,4*7F
$GBGSV,3,2,09,20,44,057,35,37,25,050,31,29,22,215,19,35,22,273,32,4*7D
$GBGSV,3,3,09,22,09,298,25,4*47
$GNACCURACY,3.1*14
$PAIRSAT,1,35,1,0,200,2,0,200,3,0,200,4,0,200,5,0,201,6,0,200,7,0,200,8,0,200,9,0,200,10,0,221,11,0,200,12,0,201,13,0,201,14,0,200,15,0,201,16,0,200,17,0,200,18,0,221,19,0,200,20,0,200,21,0,200,23,0,221,24,0,221,25,0,200,26,0,200,27,0,200,28,0,200,29,0,200,30,0,200,31,0,200,32,0,200,194,0,621,195,0,621,196,0,620,199,0,621*6B
$PAIRSAT,2,23,65,0,200,67,0,200,68,0,200,69,0,201,70,0,201,71,0,201,72,0,200,73,0,201,74,0,200,75,0,200,76,0,200,77,0,200,78,0,200,79,0,201,80,0,201,81,0,200,82,0,200,83,0,200,84,0,200,85,0,201,86,0,201,87,0,200,88,0,200*53
$PAIRSAT,3,23,2,0,1221,3,0,1221,4,0,1200,5,0,200,7,0,1221,8,0,1221,9,0,1200,10,0,1200,11,0,1200,12,0,1200,13,0,1221,15,0,1221,19,0,1200,21,0,1200,24,0,1200,25,0,1200,26,0,1221,27,0,1200,30,0,1221,31,0,1200,33,0,1200,34,0,1200,36,0,1200*6A
$PAIRSAT,4,50,1,0,200,2,0,200,3,0,200,4,0,200,5,0,200,6,0,201,7,0,200,8,0,201,9,0,201,10,0,200,11,0,200,12,0,200,13,0,201,14,0,200,15,0,200,16,0,201,19,0,621,20,0,621,21,0,600,22,0,621,23,0,600,24,0,600,25,0,600,26,0,600,27,0,600,28,0,600,29,0,621,30,0,600,31,0,200,32,0,600,33,0,600,34,0,600,35,0,621,36,0,621,37,0,621,38,0,621,39,0,621,40,0,600,41,0,600,42,0,600,43,0,600,44,0,600,45,0,600,46,0,621,56,0,200,57,0,200,58,0,200,59,0,600,60,0,600,61,0,600*41
$PAIRDGP,8,5,10,12,13,15,18,23,24*72
$GNGGA,111622.200,2500.8099200,N,12132.4772100,E,2,66,0.42,22.36,M,15.25,M,36,3335*4E
$GNRMC,111622.200,A,2500.8099200,N,12132.4772100,E,0.02,332.18,260623,,,D,V*09
$GPHDT,,T*1B
$GNACCURACY,3.1*14
$GNGGA,111622.300,2500.8099300,N,12132.4772100,E,2,66,0.42,22.36,M,15.25,M,36,3335*4E
$GNRMC,111622.300,A,2500.8099300,N,12132.4772100,E,0.01,332.18,260623,,,D,V*0A
$GPHDT,,T*1B
$GNACCURACY,3.1*14
$GNGGA,111622.400,2500.8099300,N,12132.4772100,E,2,66,0.42,22.36,M,15.25,M,36,3335*49
$GNRMC,111622.400,A,2500.8099300,N,12132.4772100,E,0.01,332.18,260623,,,D,V*0D
$GPHDT,,T*1B
$GNACCURACY,3.1*14
$GNGGA,111622.500,2500.8099400,N,12132.4772100,E,2,66,0.42,22.36,M,15.25,M,36,3335*4F
$GNRMC,111622.500,A,2500.8099400,N,12132.4772100,E,0.01,332.18,260623,,,D,V*0B
$GPHDT,,T*1B
$GNACCURACY,3.1*14
$GNGGA,111622.600,2500.8099400,N,12132.4772000,E,2,66,0.42,22.36,M,15.25,M,36,3335*4D
$GNRMC,111622.600,A,2500.8099400,N,12132.4772000,E,0.01,332.18,260623,,,D,V*09
$GPHDT,,T*1B
$GNACCURACY,3.1*14
$GNGGA,111622.700,2500.8099500,N,12132.4772000,E,2,66,0.42,22.36,M,15.25,M,36,3335*4D
$GNRMC,111622.700,A,2500.8099500,N,12132.4772000,E,0.02,332.18,260623,,,D,V*0A
$GPHDT,,T*1B
$GNACCURACY,3.1*14
$GNGGA,111622.800,2500.8099500,N,12132.4772000,E,2,66,0.42,22.36,M,15.25,M,36,3335*42
$GNRMC,111622.800,A,2500.8099500,N,12132.4772000,E,0.02,332.18,260623,,,D,V*05
$GPHDT,,T*1B
$GNACCURACY,3.1*14
$GNGGA,111622.900,2500.8099600,N,12132.4771900,E,2,66,0.42,22.36,M,15.25,M,36,3335*4A
$GNRMC,111622.900,A,2500.8099600,N,12132.4771900,E,0.02,332.18,260623,,,D,V*0D
$GPHDT,,T*1B
$GNACCURACY,3.1*14
$GNGGA,111623.000,2500.8099600,N,12132.4771900,E,2,66,0.42,22.36,M,15.25,M,37,3335*43
$GNRMC,111623.000,A,2500.8099600,N,12132.4771900,E,0.02,332.18,260623,,,D,V*05
$GPHDT,,T*1B
$GNACCURACY,3.1*14
$GNGGA,111623.100,2500.8099600,N,12132.4771800,E,2,66,0.42,22.36,M,15.25,M,37,3335*43
$GNRMC,111623.100,A,2500.8099600,N,12132.4771800,E,0.01,332.18,260623,,,D,V*06
$GPHDT,,T*1B
$GNGSA,A,3,24,196,199,18,23,15,195,194,05,12,10,13,0.68,0.42,0.54,1*09
$GNGSA,A,3,80,70,85,73,86,71,79,69,,,,,0.68,0.42,0.54,2*04
$GNGSA,A,3,13,08,07,26,15,02,30,03,,,,,0.68,0.42,0.54,3*05
$GNGSA,A,3,38,08,39,16,13,06,46,09,19,20,36,37,0.68,0.42,0.54,4*07
$GNGSA,A,3,29,35,,,,,,,,,,,0.68,0.42,0.54,4*00
$GPGSV,4,1,16,24,78,054,43,196,74,062,37,199,60,167,39,50,60,167,42,1*6C
$GPGSV,4,2,16,18,60,256,39,23,46,335,30,15,39,042,26,195,36,179,22,1*5F
$GPGSV,4,3,16,194,29,139,42,05,22,115,32,12,17,145,24,10,15,316,37,1*59
$GPGSV,4,4,16,13,11,054,15,32,07,265,14,25,06,179,,29,03,200,,1*62
$GPGSV,2,1,08,24,78,054,46,196,74,062,44,199,60,167,44,18,60,256,40,8*68
$GPGSV,2,2,08,23,46,335,35,195,36,179,21,194,29,139,41,10,15,316,41,8*6C
$GLGSV,3,1,09,80,48,085,40,70,40,003,32,85,39,252,42,73,33,161,39,1*73
$GLGSV,3,2,09,86,26,308,37,71,20,309,37,79,15,035,14,69,14,069,20,1*71
$GLGSV,3,3,09,84,13,192,,1*45
$GAGSV,3,1,09,13,59,238,23,08,48,021,43,07,43,298,23,26,30,310,36,7*7C
$GAGSV,3,2,09,15,27,174,36,02,24,090,22,30,23,146,38,03,12,061,24,7*7B
$GAGSV,3,3,09,25,04,046,,7*4B
$GAGSV,2,1,08,13,59,238,27,08,48,021,44,07,43,298,30,26,30,310,37,1*7A
$GAGSV,2,2,08,15,27,174,36,02,24,090,33,30,23,146,39,03,12,061,17,1*7C
$GBGSV,4,1,15,38,83,088,37,08,77,006,39,39,72,276,37,16,66,251,36,1*7B
$GBGSV,4,2,15,13,66,337,41,06,65,248,35,46,57,120,41,09,49,234,21,1*7D
$GBGSV,4,3,15,19,47,340,29,20,44,057,34,36,31,184,32,37,25,050,24,1*7E
$GBGSV,4,4,15,29,22,215,27,35,22,273,28,22,09,298,24,1*4C
$GBGSV,3,1,09,38,83,088,37,39,72,276,31,46,57,120,46,19,47,340,34,4*78
$GBGSV,3,2,09,20,44,057,35,37,25,050,31,29,22,215,19,35,22,273,33,4*7C
$GBGSV,3,3,09,22,09,298,26,4*44
$GNACCURACY,3.1*14
$PAIRSAT,1,35,1,0,200,2,0,200,3,0,200,4,0,200,5,0,201,6,0,200,7,0,200,8,0,200,9,0,200,10,0,221,11,0,200,12,0,201,13,0,201,14,0,200,15,0,201,16,0,200,17,0,200,18,0,221,19,0,200,20,0,200,21,0,200,23,0,221,24,0,221,25,0,200,26,0,200,27,0,200,28,0,200,29,0,200,30,0,200,31,0,200,32,0,200,194,0,621,195,0,621,196,0,620,199,0,621*6B
$PAIRSAT,2,23,65,0,200,67,0,200,68,0,200,69,0,201,70,0,201,71,0,201,72,0,200,73,0,201,74,0,200,75,0,200,76,0,200,77,0,200,78,0,200,79,0,201,80,0,201,81,0,200,82,0,200,83,0,200,84,0,200,85,0,201,86,0,201,87,0,200,88,0,200*53
$PAIRSAT,3,23,2,0,1221,3,0,1221,4,0,1200,5,0,200,7,0,1221,8,0,1221,9,0,1200,10,0,1200,11,0,1200,12,0,1200,13,0,1221,15,0,1221,19,0,1200,21,0,1200,24,0,1200,25,0,1200,26,0,1221,27,0,1200,30,0,1221,31,0,1200,33,0,1200,34,0,1200,36,0,1200*6A
$PAIRSAT,4,50,1,0,200,2,0,200,3,0,200,4,0,200,5,0,200,6,0,201,7,0,200,8,0,201,9,0,201,10,0,200,11,0,200,12,0,200,13,0,201,14,0,200,15,0,200,16,0,201,19,0,621,20,0,621,21,0,600,22,0,621,23,0,600,24,0,600,25,0,600,26,0,600,27,0,600,28,0,600,29,0,621,30,0,600,31,0,200,32,0,600,33,0,600,34,0,600,35,0,621,36,0,621,37,0,621,38,0,621,39,0,621,40,0,600,41,0,600,42,0,600,43,0,600,44,0,600,45,0,600,46,0,621,56,0,200,57,0,200,58,0,200,59,0,600,60,0,600,61,0,600*41
$PAIRDGP,8,5,10,12,13,15,18,23,24*72
$GNGGA,111623.200,2500.8099600,N,12132.4771800,E,2,66,0.42,22.36,M,15.25,M,37,3335*40
$GNRMC,111623.200,A,2500.8099600,N,12132.4771800,E,0.02,332.18,260623,,,D,V*06
$GPHDT,,T*1B
$GNACCURACY,3.1*14
$GNGGA,111623.300,2500.8099700,N,12132.4771700,E,2,66,0.42,22.35,M,15.25,M,37,3335*4C
$GNRMC,111623.300,A,2500.8099700,N,12132.4771700,E,0.02,332.18,260623,,,D,V*09
$GPHDT,,T*1B
$GNACCURACY,3.1*14
$GNGGA,111623.400,2500.8099800,N,12132.4771700,E,2,66,0.42,22.35,M,15.25,M,37,3335*44
$GNRMC,111623.400,A,2500.8099800,N,12132.4771700,E,0.02,332.18,260623,,,D,V*01
$GPHDT,,T*1B
$GNACCURACY,3.1*14
$GNGGA,111623.500,2500.8099800,N,12132.4771700,E,2,66,0.42,22.35,M,15.25,M,37,3335*45
$GNRMC,111623.500,A,2500.8099800,N,12132.4771700,E,0.01,332.18,260623,,,D,V*03
$GPHDT,,T*1B
$GNACCURACY,3.1*14
$GNGGA,111623.600,2500.8099900,N,12132.4771600,E,2,66,0.42,22.34,M,15.25,M,37,3335*47
$GNRMC,111623.600,A,2500.8099900,N,12132.4771600,E,0.02,332.18,260623,,,D,V*03
$GPHDT,,T*1B
$GNACCURACY,3.1*14
$GNGGA,111623.700,2500.8099900,N,12132.4771500,E,2,66,0.42,22.34,M,15.25,M,37,3335*45
$GNRMC,111623.700,A,2500.8099900,N,12132.4771500,E,0.02,332.18,260623,,,D,V*01
$GPHDT,,T*1B
$GNACCURACY,3.1*14
$GNGGA,111623.800,2500.8100000,N,12132.4771500,E,2,66,0.42,22.34,M,15.25,M,37,3335*42
$GNRMC,111623.800,A,2500.8100000,N,12132.4771500,E,0.01,332.18,260623,,,D,V*05
$GPHDT,,T*1B
$GNACCURACY,3.1*14
$GNGGA,111623.900,2500.8100100,N,12132.4771400,E,2,66,0.42,22.33,M,15.25,M,37,3335*44
$GNRMC,111623.900,A,2500.8100100,N,12132.4771400,E,0.01,332.18,260623,,,D,V*04
$GPHDT,,T*1B
$GNACCURACY,3.1*14
$GNGGA,111624.000,2500.8100100,N,12132.4771400,E,2,66,0.42,22.33,M,15.25,M,38,3335*45
$GNRMC,111624.000,A,2500.8100100,N,12132.4771400,E,0.01,332.18,260623,,,D,V*0A
$GPHDT,,T*1B
$GNACCURACY,3.1*14
$GNGGA,111624.100,2500.8100200,N,12132.4771400,E,2,66,0.42,22.33,M,15.25,M,38,3335*47
$GNRMC,111624.100,A,2500.8100200,N,12132.4771400,E,0.01,332.18,260623,,,D,V*08
$GPHDT,,T*1B
