$FW : RTK35X,V1.1X0314AS,Lib20210517,1*54
$Tool : LOCOSYS , GNSS Firebird , v1.0.0.19*39
$---------------------------------------------------*2D

$GAGSV,2,1,05,30,50,032,41,15,46,151,44,34,43,071,34,27,36,316,29,1*7C
$GAGSV,2,2,05,07,33,233,21,1*46
$GBGSV,4,1,16,34,83,072,41,06,79,218,44,16,76,194,43,09,75,291,39,1*7D
$GBGSV,4,2,16,11,69,197,40,39,65,180,46,40,64,319,40,07,62,298,34,1*7F
$GBGSV,4,3,16,25,58,345,46,12,51,043,31,24,49,097,39,43,44,214,39,1*7B
$GBGSV,4,4,16,44,27,040,19,23,14,314,31,33,03,212,,10,,,18,1*42
$GBGSV,2,1,08,34,83,072,45,39,65,180,44,40,64,319,43,25,58,345,45,4*73
$GBGSV,2,2,08,24,49,097,37,43,44,214,35,44,27,040,18,23,14,314,30,4*75
$GNACCURACY,5.3*10
$PAIRSAT,1,26,2,0,201,3,0,200,4,0,221,5,0,200,6,0,200,7,0,201,8,0,221,9,0,200,10,0,200,11,0,200,12,0,200,16,0,1,21,0,1,24,0,200,25,0,200,26,0,200,27,0,221,28,0,200,29,0,200,30,0,200,31,0,201,32,0,200,194,0,621,195,0,221,196,0,420,199,0,221*71
$PAIRSAT,2,24,65,0,200,66,0,200,67,0,200,68,0,200,69,0,200,70,0,200,71,0,200,72,0,200,73,0,200,74,0,200,75,0,200,76,0,200,77,0,200,78,0,200,79,0,201,80,0,201,81,0,200,82,0,201,83,0,201,84,0,200,85,0,200,86,0,200,87,0,200,88,0,200*7A
$PAIRSAT,3,22,2,0,1000,3,0,1000,4,0,1000,7,0,1021,8,0,1000,9,0,1000,10,0,1000,11,0,1000,12,0,1200,13,0,1200,15,0,221,19,0,1200,21,0,200,24,0,200,25,0,200,26,0,200,27,0,221,30,0,1221,31,0,1000,33,0,1000,34,0,1021,36,0,1000*73
$PAIRSAT,4,42,1,0,200,2,0,200,3,0,600,4,0,200,5,0,200,6,0,201,7,0,201,9,0,1,11,0,1,12,0,1,16,0,1,19,0,600,20,0,600,21,0,600,22,0,600,23,0,621,24,0,621,25,0,621,26,0,600,27,0,600,28,0,600,29,0,600,30,0,600,32,0,400,33,0,400,34,0,421,35,0,400,36,0,400,37,0,400,38,0,400,39,0,421,40,0,421,41,0,400,42,0,400,43,0,421,44,0,421,45,0,400,46,0,400,59,0,400,60,0,400,61,0,400,62,0,400*71
$PAIRDGP,8,2,4,7,8,9,16,21,27*7C
$GNGGA,040329.200,2500.8022451,N,12132.4804461,E,4,55,0.53,16.734,M,15.25,M,1,3335*4B
$GNRMC,040329.200,A,2500.8022451,N,12132.4804461,E,0.02,260.95,030324,,,R,V*1C
$GPHDT,45.970,T*0A
$GNACCURACY,5.4*17
$GNGGA,040329.300,2500.8022449,N,12132.4804463,E,4,55,0.53,16.757,M,15.25,M,1,3335*44
$GNRMC,040329.300,A,2500.8022449,N,12132.4804463,E,0.02,260.95,030324,,,R,V*16
$GPHDT,,T*1B
$GNACCURACY,5.4*17
$GNGGA,040329.400,2500.8022437,N,12132.4804455,E,4,55,0.53,16.751,M,15.25,M,1,3335*49
$GNRMC,040329.400,A,2500.8022437,N,12132.4804455,E,0.03,260.95,030324,,,R,V*1C
$GPHDT,45.859,T*00
$GNACCURACY,5.4*17
$GNGGA,040329.500,2500.8022441,N,12132.4804470,E,4,55,0.53,16.749,M,15.25,M,1,3335*47
$GNRMC,040329.500,A,2500.8022441,N,12132.4804470,E,0.08,260.95,030324,,,R,V*10
$GPHDT,,T*1B
$GNACCURACY,5.4*17
$GNGGA,040329.600,2500.8022446,N,12132.4804439,E,4,55,0.53,16.721,M,15.25,M,0,3335*41
$GNRMC,040329.600,A,2500.8022446,N,12132.4804439,E,0.03,260.95,030324,,,R,V*12
$GPHDT,45.923,T*0C
$GNACCURACY,5.4*17
$GNGGA,040329.700,2500.8022471,N,12132.4804371,E,4,55,0.53,16.699,M,15.25,M,0,3335*4D
$GNRMC,040329.700,A,2500.8022471,N,12132.4804371,E,0.01,260.95,030324,,,R,V*1E
$GPHDT,,T*1B
$GNACCURACY,5.4*17
$GNGGA,040329.800,2500.8022438,N,12132.4804412,E,4,55,0.53,16.717,M,15.25,M,0,3335*4A
$GNRMC,040329.800,A,2500.8022438,N,12132.4804412,E,0.04,260.95,030324,,,R,V*1B
$GPHDT,46.101,T*07
$GNACCURACY,5.3*10
$GNGGA,040329.900,2500.8022446,N,12132.4804402,E,4,55,0.53,16.696,M,15.25,M,0,3335*4B
$GNRMC,040329.900,A,2500.8022446,N,12132.4804402,E,0.10,260.95,030324,,,R,V*17
$GPHDT,,T*1B
$GNACCURACY,5.3*10
$GNGGA,040330.000,2500.8022434,N,12132.4804439,E,4,55,0.53,16.719,M,15.25,M,1,3335*40
$GNRMC,040330.000,A,2500.8022434,N,12132.4804439,E,0.06,260.95,030324,,,R,V*1C
$GPHDT,46.609,T*08
$GNACCURACY,5.3*10
$GNGGA,040330.100,2500.8022477,N,12132.4804421,E,4,55,0.53,16.690,M,15.25,M,1,3335*4F
$GNRMC,040330.100,A,2500.8022477,N,12132.4804421,E,0.05,260.95,030324,,,R,V*10
$GPHDT,,T*1B
$GNGSA,A,3,08,194,199,195,27,21,16,02,07,04,196,31,0.82,0.53,0.63,1*0C
$GNGSA,A,3,82,83,80,79,,,,,,,,,0.82,0.53,0.63,2*0C
$GNGSA,A,3,30,15,34,27,07,,,,,,,,0.82,0.53,0.63,3*08
$GNGSA,A,3,34,06,16,09,11,39,40,07,25,12,24,43,0.82,0.53,0.63,4*0E
$GNGSA,A,3,44,23,,,,,,,,,,,0.82,0.53,0.63,4*0C
$GPGSV,4,1,15,08,71,322,45,194,63,048,30,199,60,167,38,50,60,167,41,1*65
$GPGSV,4,2,15,195,60,121,40,27,45,029,31,21,45,166,45,16,33,061,32,1*55
$GPGSV,4,3,15,02,33,180,43,07,29,320,33,09,29,261,28,04,28,213,31,1*67
$GPGSV,4,4,15,196,20,172,34,26,15,088,17,31,11,139,24,1*66
$GPGSV,2,1,08,08,71,322,46,194,63,048,42,195,60,121,43,199,60,167,46,8*51
$GPGSV,2,2,08,27,45,029,29,09,29,261,24,04,28,213,20,196,20,172,43,8*53
$GLGSV,2,1,05,82,66,050,43,83,59,178,34,80,48,014,42,79,34,088,27,1*73
$GLGSV,2,2,05,81,18,028,25,1*40
$GAGSV,2,1,07,30,50,032,41,15,46,151,44,34,43,071,25,27,36,316,33,7*73
$GAGSV,2,2,07,07,33,233,30,02,16,081,18,36,05,035,,7*41
$GAGSV,2,1,05,30,50,032,41,15,46,151,44,34,43,071,33,27,36,316,29,1*7B
$GAGSV,2,2,05,07,33,233,22,1*45
$GBGSV,4,1,16,34,83,072,42,06,79,218,44,16,76,194,43,09,75,291,39,1*7E
$GBGSV,4,2,16,11,69,197,39,39,65,180,46,40,64,319,39,07,62,298,34,1*7F
$GBGSV,4,3,16,25,58,345,46,12,51,043,31,24,49,097,39,43,44,214,38,1*7A
$GBGSV,4,4,16,44,27,040,18,23,14,314,31,41,03,257,,10,,,19,1*46
$GBGSV,2,1,08,34,83,072,44,39,65,180,44,40,64,319,44,25,58,345,45,4*75
$GBGSV,2,2,08,24,49,097,35,43,44,214,35,44,27,040,18,23,14,314,30,4*77
$GNACCURACY,5.3*10
$PAIRSAT,1,26,2,0,201,3,0,200,4,0,221,5,0,200,6,0,200,7,0,201,8,0,221,9,0,200,10,0,200,11,0,200,12,0,200,16,0,1,21,0,1,24,0,200,25,0,200,26,0,200,27,0,221,28,0,200,29,0,200,30,0,200,31,0,201,32,0,200,194,0,621,195,0,221,196,0,420,199,0,221*71
$PAIRSAT,2,24,65,0,200,66,0,200,67,0,200,68,0,200,69,0,200,70,0,200,71,0,200,72,0,200,73,0,200,74,0,200,75,0,200,76,0,200,77,0,200,78,0,200,79,0,201,80,0,201,81,0,200,82,0,201,83,0,201,84,0,200,85,0,200,86,0,200,87,0,200,88,0,200*7A
$PAIRSAT,3,22,2,0,1000,3,0,1000,4,0,1000,7,0,1021,8,0,1000,9,0,1000,10,0,1000,11,0,1000,12,0,1200,13,0,1200,15,0,221,19,0,1200,21,0,200,24,0,200,25,0,200,26,0,200,27,0,221,30,0,1221,31,0,1000,33,0,1000,34,0,1021,36,0,1000*73
$PAIRSAT,4,42,1,0,200,2,0,200,3,0,600,4,0,200,5,0,200,6,0,201,7,0,201,9,0,1,11,0,1,12,0,1,16,0,1,19,0,600,20,0,600,21,0,600,22,0,600,23,0,621,24,0,621,25,0,621,26,0,600,27,0,600,28,0,600,29,0,600,30,0,600,32,0,400,33,0,400,34,0,421,35,0,400,36,0,400,37,0,400,38,0,400,39,0,421,40,0,421,41,0,400,42,0,400,43,0,421,44,0,421,45,0,400,46,0,400,59,0,400,60,0,400,61,0,400,62,0,400*71
$PAIRDGP,8,2,4,7,8,9,16,21,27*7C
$GNGGA,040330.200,2500.8022458,N,12132.4804412,E,4,55,0.53,16.709,M,15.25,M,1,3335*40
$GNRMC,040330.200,A,2500.8022458,N,12132.4804412,E,0.02,260.95,030324,,,R,V*19
$GPHDT,45.593,T*0B
$GNACCURACY,5.2*11
$GNGGA,040330.300,2500.8022441,N,12132.4804450,E,4,55,0.53,16.719,M,15.25,M,1,3335*4E
$GNRMC,040330.300,A,2500.8022441,N,12132.4804450,E,0.04,260.95,030324,,,R,V*10
$GPHDT,,T*1B
$GNACCURACY,5.2*11
$GNGGA,040330.400,2500.8022440,N,12132.4804449,E,4,55,0.53,16.731,M,15.25,M,1,3335*4A
$GNRMC,040330.400,A,2500.8022440,N,12132.4804449,E,0.01,260.95,030324,,,R,V*1B
$GPHDT,45.543,T*06
$GNACCURACY,5.2*11
$GNGGA,040330.500,2500.8022437,N,12132.4804451,E,4,55,0.53,16.743,M,15.25,M,1,3335*47
$GNRMC,040330.500,A,2500.8022437,N,12132.4804451,E,0.01,260.95,030324,,,R,V*13
$GPHDT,,T*1B
$GNACCURACY,5.2*11
$GNGGA,040330.600,2500.8022449,N,12132.4804446,E,4,55,0.53,16.743,M,15.25,M,1,3335*4B
$GNRMC,040330.600,A,2500.8022449,N,12132.4804446,E,0.01,260.95,030324,,,R,V*1F
$GPHDT,46.132,T*07
$GNACCURACY,5.2*11
$GNGGA,040330.700,2500.8022427,N,12132.4804475,E,4,55,0.53,16.746,M,15.25,M,1,3335*47
$GNRMC,040330.700,A,2500.8022427,N,12132.4804475,E,0.03,260.95,030324,,,R,V*14
$GPHDT,,T*1B
$GNACCURACY,5.2*11
$GNGGA,040330.800,2500.8022456,N,12132.4804436,E,4,54,0.53,16.729,M,15.25,M,0,3335*40
$GNRMC,040330.800,A,2500.8022456,N,12132.4804436,E,0.06,260.95,030324,,,R,V*1F
$GPHDT,45.851,T*08
$GNACCURACY,5.2*11
$GNGGA,040330.900,2500.8022432,N,12132.4804402,E,4,55,0.53,16.727,M,15.25,M,0,3335*4B
$GNRMC,040330.900,A,2500.8022432,N,12132.4804402,E,0.05,260.95,030324,,,R,V*18
$GPHDT,,T*1B
$GNACCURACY,5.2*11
$GNGGA,040331.000,2500.8022460,N,12132.4804406,E,4,54,0.53,16.714,M,15.25,M,1,3335*40
$GNRMC,040331.000,A,2500.8022460,N,12132.4804406,E,0.05,260.95,030324,,,R,V*13
$GPHDT,46.712,T*03
$GNACCURACY,5.2*11
$GNGGA,040331.100,2500.8022437,N,12132.4804447,E,4,54,0.53,16.743,M,15.25,M,1,3335*44
$GNRMC,040331.100,A,2500.8022437,N,12132.4804447,E,0.03,260.95,030324,,,R,V*13
$GPHDT,,T*1B
$GNGSA,A,3,08,194,199,195,27,21,16,02,07,04,196,31,0.82,0.53,0.63,1*0C
$GNGSA,A,3,82,83,80,79,,,,,,,,,0.82,0.53,0.63,2*0C
$GNGSA,A,3,30,15,34,27,07,,,,,,,,0.82,0.53,0.63,3*08
$GNGSA,A,3,34,06,16,09,11,39,40,07,25,12,24,43,0.82,0.53,0.63,4*0E
$GNGSA,A,3,44,23,,,,,,,,,,,0.82,0.53,0.63,4*0C
$GPGSV,4,1,15,08,71,322,46,194,63,048,29,199,60,167,39,50,60,167,41,1*6F
$GPGSV,4,2,15,195,60,121,39,27,45,029,31,21,45,166,45,16,33,061,31,1*58
$GPGSV,4,3,15,02,33,180,43,09,29,261,27,07,29,320,33,04,28,213,30,1*69
$GPGSV,4,4,15,196,20,172,33,26,15,088,17,31,11,139,25,1*60
$GPGSV,2,1,07,08,71,322,47,194,63,048,42,199,60,167,46,195,60,121,43,8*5F
$GPGSV,2,2,07,27,45,029,30,09,29,261,24,196,20,172,43,8*68
$GLGSV,2,1,05,82,66,050,43,83,60,178,35,80,48,014,42,79,34,088,28,1*77
$GLGSV,2,2,05,81,18,028,24,1*41
$GAGSV,2,1,07,30,50,032,41,15,46,151,44,34,43,071,27,27,36,316,35,7*77
$GAGSV,2,2,07,07,33,233,30,02,16,081,18,36,05,035,,7*41
$GAGSV,2,1,05,30,50,032,41,15,46,151,44,34,43,071,33,27,36,316,28,1*7A
$GAGSV,2,2,05,07,33,233,20,1*47
$GBGSV,4,1,15,34,83,072,40,06,79,218,44,16,76,194,43,09,75,291,40,1*71
$GBGSV,4,2,15,11,69,197,39,39,65,180,46,40,64,319,39,07,62,298,34,1*7C
$GBGSV,4,3,15,25,58,345,46,12,51,043,32,24,49,097,40,43,44,214,37,1*7B
$GBGSV,4,4,15,44,27,040,17,23,14,314,31,10,,,19,1*7C
$GBGSV,2,1,08,34,83,072,44,39,65,180,44,40,64,319,44,25,58,345,45,4*75
$GBGSV,2,2,08,24,49,097,31,43,44,214,34,44,27,040,17,23,14,314,30,4*7D
$GNACCURACY,5.2*11
$PAIRSAT,1,26,2,0,201,3,0,200,4,0,221,5,0,200,6,0,200,7,0,201,8,0,221,9,0,200,10,0,200,11,0,200,12,0,200,16,0,1,21,0,1,24,0,200,25,0,200,26,0,200,27,0,221,28,0,200,29,0,200,30,0,200,31,0,201,32,0,200,194,0,621,195,0,221,196,0,420,199,0,221*71
$PAIRSAT,2,24,65,0,200,66,0,200,67,0,200,68,0,200,69,0,200,70,0,200,71,0,200,72,0,200,73,0,200,74,0,200,75,0,200,76,0,200,77,0,200,78,0,200,79,0,201,80,0,201,81,0,200,82,0,201,83,0,201,84,0,200,85,0,200,86,0,200,87,0,200,88,0,200*7A
$PAIRSAT,3,22,2,0,1000,3,0,1000,4,0,1000,7,0,1021,8,0,1000,9,0,1000,10,0,1000,11,0,1000,12,0,1200,13,0,1200,15,0,221,19,0,1200,21,0,200,24,0,200,25,0,200,26,0,200,27,0,221,30,0,1221,31,0,1000,33,0,1000,34,0,1021,36,0,1000*73
$PAIRSAT,4,42,1,0,200,2,0,200,3,0,600,4,0,200,5,0,200,6,0,201,7,0,201,9,0,1,11,0,1,12,0,1,16,0,1,19,0,600,20,0,600,21,0,600,22,0,600,23,0,621,24,0,621,25,0,621,26,0,600,27,0,600,28,0,600,29,0,600,30,0,600,32,0,400,33,0,400,34,0,421,35,0,400,36,0,400,37,0,400,38,0,400,39,0,421,40,0,421,41,0,400,42,0,400,43,0,421,44,0,421,45,0,400,46,0,400,59,0,400,60,0,400,61,0,400,62,0,400*71
$PAIRDGP,8,2,4,7,8,9,16,21,27*7C
$GNGGA,040331.200,2500.8022425,N,12132.4804435,E,4,54,0.53,16.751,M,15.25,M,1,3335*42
$GNRMC,040331.200,A,2500.8022425,N,12132.4804435,E,0.05,260.95,030324,,,R,V*10
$GPHDT,46.314,T*01
$GNACCURACY,5.2*11
$GNGGA,040331.300,2500.8022455,N,12132.4804391,E,4,54,0.53,16.724,M,15.25,M,1,3335*4F
$GNRMC,040331.300,A,2500.8022455,N,12132.4804391,E,0.05,260.95,030324,,,R,V*1F
$GPHDT,,T*1B
$GNACCURACY,5.2*11
$GNGGA,040331.400,2500.8022450,N,12132.4804347,E,4,54,0.53,16.709,M,15.25,M,0,3335*48
$GNRMC,040331.400,A,2500.8022450,N,12132.4804347,E,0.05,260.95,030324,,,R,V*16
$GPHDT,46.029,T*0C
$GNACCURACY,5.2*11
$GNGGA,040331.500,2500.8022430,N,12132.4804398,E,4,54,0.53,16.729,M,15.25,M,0,3335*4F
$GNRMC,040331.500,A,2500.8022430,N,12132.4804398,E,0.04,260.95,030324,,,R,V*12
$GPHDT,,T*1B
$GNACCURACY,5.2*11
$GNGGA,040331.600,2500.8022461,N,12132.4804413,E,4,54,0.53,16.720,M,15.25,M,0,3335*45
$GNRMC,040331.600,A,2500.8022461,N,12132.4804413,E,0.02,260.95,030324,,,R,V*17
$GPHDT,46.863,T*0A
$GNACCURACY,5.3*10
$GNGGA,040331.700,2500.8022440,N,12132.4804397,E,4,54,0.53,16.720,M,15.25,M,0,3335*4C
$GNRMC,040331.700,A,2500.8022440,N,12132.4804397,E,0.02,260.95,030324,,,R,V*1E
$GPHDT,,T*1B
$GNACCURACY,5.3*10
$GNGGA,040331.800,2500.8022466,N,12132.4804414,E,4,54,0.53,16.715,M,15.25,M,0,3335*4D
$GNRMC,040331.800,A,2500.8022466,N,12132.4804414,E,0.12,260.95,030324,,,R,V*18
$GPHDT,46.866,T*0F
$GNACCURACY,5.3*10
$GNGGA,040331.900,2500.8022432,N,12132.4804411,E,4,53,0.53,16.730,M,15.25,M,0,3335*48
$GNRMC,040331.900,A,2500.8022432,N,12132.4804411,E,0.11,260.95,030324,,,R,V*1E
$GPHDT,,T*1B
$GNACCURACY,5.3*10
$GNGGA,040332.000,2500.8022472,N,12132.4804384,E,4,53,0.53,16.704,M,15.25,M,1,3335*4B
$GNRMC,040332.000,A,2500.8022472,N,12132.4804384,E,0.04,260.95,030324,,,R,V*1F
$GPHDT,47.264,T*06
$GNACCURACY,5.3*10
$GNGGA,040332.100,2500.8022455,N,12132.4804387,E,4,53,0.53,16.719,M,15.25,M,1,3335*40
$GNRMC,040332.100,A,2500.8022455,N,12132.4804387,E,0.05,260.95,030324,,,R,V*19
$GPHDT,,T*1B
$GNGSA,A,3,08,194,199,195,27,21,16,02,07,04,196,31,0.82,0.53,0.63,1*0C
$GNGSA,A,3,82,83,80,79,,,,,,,,,0.82,0.53,0.63,2*0C
$GNGSA,A,3,30,15,34,27,07,,,,,,,,0.82,0.53,0.63,3*08
$GNGSA,A,3,34,06,16,09,11,39,40,07,25,12,24,43,0.82,0.53,0.63,4*0E
$GNGSA,A,3,23,44,,,,,,,,,,,0.82,0.53,0.63,4*0C
$GPGSV,4,1,15,08,71,322,46,194,63,048,32,199,60,167,39,50,60,167,41,1*65
$GPGSV,4,2,15,195,60,121,39,27,45,029,31,21,45,166,45,16,33,061,31,1*58
$GPGSV,4,3,15,02,33,180,43,09,29,261,26,07,29,320,34,04,28,213,31,1*6E
$GPGSV,4,4,15,196,20,172,32,26,15,088,17,31,11,139,25,1*61
$GPGSV,2,1,07,08,71,322,47,194,63,048,43,199,60,167,45,195,60,121,44,8*5A
$GPGSV,2,2,07,27,45,029,30,09,29,261,26,196,20,172,43,8*6A
$GLGSV,2,1,05,82,66,050,43,83,60,178,35,80,48,014,42,79,34,088,29,1*76
$GLGSV,2,2,05,81,18,028,23,1*46
$GAGSV,2,1,07,30,50,032,41,15,46,151,44,34,43,071,27,27,36,316,34,7*76
$GAGSV,2,2,07,07,33,233,29,02,16,081,18,36,05,035,,7*49
$GAGSV,2,1,05,30,50,032,41,15,46,151,44,34,43,071,34,27,36,316,29,1*7C
$GAGSV,2,2,05,07,33,233,20,1*47
$GBGSV,4,1,15,34,83,072,40,06,79,218,44,16,76,194,42,09,75,291,40,1*70
$GBGSV,4,2,15,11,69,197,40,39,65,180,46,40,64,319,40,07,62,298,34,1*7C
$GBGSV,4,3,15,25,58,345,46,12,51,043,31,24,49,097,40,43,44,214,37,1*78
$GBGSV,4,4,15,44,27,040,17,23,14,314,30,10,,,20,1*77
$GBGSV,2,1,08,34,83,072,44,39,65,180,44,40,64,319,44,25,58,345,45,4*75
$GBGSV,2,2,08,24,49,097,32,43,44,214,34,44,27,040,15,23,14,314,30,4*7C
$GNACCURACY,5.3*10
$PAIRSAT,1,26,2,0,201,3,0,200,4,0,221,5,0,200,6,0,200,7,0,201,8,0,221,9,0,200,10,0,200,11,0,200,12,0,200,16,0,1,21,0,1,24,0,200,25,0,200,26,0,200,27,0,221,28,0,200,29,0,200,30,0,200,31,0,201,32,0,200,194,0,621,195,0,221,196,0,420,199,0,221*71
$PAIRSAT,2,24,65,0,200,66,0,200,67,0,200,68,0,200,69,0,200,70,0,200,71,0,200,72,0,200,73,0,200,74,0,200,75,0,200,76,0,200,77,0,200,78,0,200,79,0,201,80,0,201,81,0,200,82,0,201,83,0,201,84,0,200,85,0,200,86,0,200,87,0,200,88,0,200*7A
$PAIRSAT,3,22,2,0,1000,3,0,1000,4,0,1000,7,0,1021,8,0,1000,9,0,1000,10,0,1000,11,0,1000,12,0,1200,13,0,1200,15,0,221,19,0,1200,21,0,200,24,0,200,25,0,200,26,0,200,27,0,221,30,0,1221,31,0,1000,33,0,1000,34,0,1021,36,0,1000*73
$PAIRSAT,4,42,1,0,200,2,0,200,3,0,600,4,0,200,5,0,200,6,0,201,7,0,201,9,0,1,11,0,1,12,0,1,16,0,1,19,0,600,20,0,600,21,0,600,22,0,600,23,0,621,24,0,621,25,0,621,26,0,600,27,0,600,28,0,600,29,0,600,30,0,600,32,0,400,33,0,400,34,0,421,35,0,400,36,0,400,37,0,400,38,0,400,39,0,421,40,0,421,41,0,400,42,0,400,43,0,421,44,0,421,45,0,400,46,0,400,59,0,400,60,0,400,61,0,400,62,0,400*71
$PAIRDGP,8,2,4,7,8,9,16,21,27*7C
$GNGGA,040332.200,2500.8022463,N,12132.4804426,E,4,53,0.53,16.715,M,15.25,M,1,3335*46
$GNRMC,040332.200,A,2500.8022463,N,12132.4804426,E,0.05,260.95,030324,,,R,V*13
$GPHDT,46.785,T*0D
$GNACCURACY,5.3*10
$GNGGA,040332.300,2500.8022459,N,12132.4804419,E,4,53,0.53,16.717,M,15.25,M,1,3335*40
$GNRMC,040332.300,A,2500.8022459,N,12132.4804419,E,0.03,260.95,030324,,,R,V*11
$GPHDT,,T*1B
$GNACCURACY,5.3*10
$GNGGA,040332.400,2500.8022463,N,12132.4804411,E,4,53,0.53,16.708,M,15.25,M,1,3335*48
$GNRMC,040332.400,A,2500.8022463,N,12132.4804411,E,0.03,260.95,030324,,,R,V*17
$GPHDT,47.029,T*0D
$GNACCURACY,5.3*10
$GNGGA,040332.500,2500.8022479,N,12132.4804404,E,4,53,0.53,16.697,M,15.25,M,1,3335*41
$GNRMC,040332.500,A,2500.8022479,N,12132.4804404,E,0.02,260.95,030324,,,R,V*18
$GPHDT,,T*1B
$GNACCURACY,5.3*10
$GNGGA,040332.600,2500.8022446,N,12132.4804415,E,4,53,0.53,16.716,M,15.25,M,0,3335*47
$GNRMC,040332.600,A,2500.8022446,N,12132.4804415,E,0.03,260.95,030324,,,R,V*16
$GPHDT,46.858,T*02
$GNACCURACY,5.3*10
$GNGGA,040332.700,2500.8022460,N,12132.4804392,E,4,53,0.53,16.702,M,15.25,M,0,3335*4F
$GNRMC,040332.700,A,2500.8022460,N,12132.4804392,E,0.02,260.95,030324,,,R,V*1A
$GPHDT,,T*1B
$GNACCURACY,5.3*10
$GNGGA,040332.800,2500.8022458,N,12132.4804427,E,4,53,0.53,16.706,M,15.25,M,0,3335*46
$GNRMC,040332.800,A,2500.8022458,N,12132.4804427,E,0.02,260.95,030324,,,R,V*17
$GPHDT,47.203,T*07
$GNACCURACY,5.3*10
$GNGGA,040332.900,2500.8022440,N,12132.4804444,E,4,53,0.53,16.725,M,15.25,M,0,3335*4A
$GNRMC,040332.900,A,2500.8022440,N,12132.4804444,E,0.07,260.95,030324,,,R,V*1F
$GPHDT,,T*1B
$GNACCURACY,5.3*10
$GNGGA,040333.000,2500.8022463,N,12132.4804446,E,4,53,0.53,16.714,M,15.25,M,1,3335*42
$GNRMC,040333.000,A,2500.8022463,N,12132.4804446,E,0.06,260.95,030324,,,R,V*15
$GPHDT,46.401,T*02
$GNACCURACY,5.3*10
$GNGGA,040333.100,2500.8022446,N,12132.4804460,E,4,53,0.53,16.729,M,15.25,M,1,3335*4E
$GNRMC,040333.100,A,2500.8022446,N,12132.4804460,E,0.05,260.95,030324,,,R,V*14
$GPHDT,,T*1B
$GNGSA,A,3,08,194,199,195,21,27,16,02,07,04,196,31,0.82,0.53,0.63,1*0C
$GNGSA,A,3,82,83,80,79,,,,,,,,,0.82,0.53,0.63,2*0C
$GNGSA,A,3,30,15,34,27,07,,,,,,,,0.82,0.53,0.63,3*08
$GNGSA,A,3,34,06,16,09,11,39,40,07,25,12,24,43,0.82,0.53,0.63,4*0E
$GNGSA,A,3,23,44,,,,,,,,,,,0.82,0.53,0.63,4*0C
$GPGSV,4,1,15,08,71,322,46,194,63,048,33,199,60,167,38,195,60,121,39,1*50
$GPGSV,4,2,15,50,60,167,40,21,45,166,45,27,45,029,30,16,33,061,29,1*64
$GPGSV,4,3,15,02,33,180,43,09,29,261,25,07,29,320,33,04,28,213,30,1*6B
$GPGSV,4,4,15,196,20,172,34,26,15,088,17,31,11,139,25,1*67
$GPGSV,2,1,07,08,71,322,48,194,63,048,44,199,60,167,45,195,60,121,44,8*52
$GPGSV,2,2,07,27,45,029,30,09,29,261,26,196,20,172,43,8*6A
$GLGSV,2,1,05,82,66,050,43,83,60,178,34,80,48,014,42,79,34,088,26,1*78
$GLGSV,2,2,05,81,18,028,23,1*46
$GAGSV,2,1,06,30,50,032,41,15,46,151,44,34,43,071,31,27,36,316,33,7*77
$GAGSV,2,2,06,07,33,233,29,02,16,081,18,7*7E
$GAGSV,2,1,05,30,50,032,41,15,46,151,45,34,43,071,34,27,36,316,31,1*74
$GAGSV,2,2,05,07,33,233,22,1*45
$GBGSV,4,1,15,34,83,072,40,06,79,218,44,16,76,194,43,09,75,291,40,1*71
$GBGSV,4,2,15,11,69,197,41,39,65,180,45,40,64,319,40,07,62,298,33,1*79
$GBGSV,4,3,15,25,58,345,45,12,51,043,28,24,49,097,39,43,44,214,38,1*72
$GBGSV,4,4,15,44,27,040,13,23,14,314,30,10,,,20,1*73
$GBGSV,2,1,08,34,83,072,44,39,65,180,44,40,64,319,44,25,58,345,45,4*75
$GBGSV,2,2,08,24,49,097,29,43,44,214,35,44,27,040,14,23,14,314,31,4*77
$GNACCURACY,5.3*10
$PAIRSAT,1,26,2,0,201,3,0,200,4,0,221,5,0,200,6,0,200,7,0,201,8,0,221,9,0,200,10,0,200,11,0,200,12,0,200,16,0,1,21,0,1,24,0,200,25,0,200,26,0,200,27,0,221,28,0,200,29,0,200,30,0,200,31,0,201,32,0,200,194,0,621,195,0,221,196,0,420,199,0,221*71
$PAIRSAT,2,24,65,0,200,66,0,200,67,0,200,68,0,200,69,0,200,70,0,200,71,0,200,72,0,200,73,0,200,74,0,200,75,0,200,76,0,200,77,0,200,78,0,200,79,0,201,80,0,201,81,0,200,82,0,201,83,0,201,84,0,200,85,0,200,86,0,200,87,0,200,88,0,200*7A
$PAIRSAT,3,22,2,0,1000,3,0,1000,4,0,1000,7,0,1021,8,0,1000,9,0,1000,10,0,1000,11,0,1000,12,0,1200,13,0,1200,15,0,221,19,0,1200,21,0,200,24,0,200,25,0,200,26,0,200,27,0,221,30,0,1221,31,0,1000,33,0,1000,34,0,1021,36,0,1000*73
$PAIRSAT,4,42,1,0,200,2,0,200,3,0,600,4,0,200,5,0,200,6,0,201,7,0,201,9,0,1,11,0,1,12,0,1,16,0,1,19,0,600,20,0,600,21,0,600,22,0,600,23,0,621,24,0,621,25,0,621,26,0,600,27,0,600,28,0,600,29,0,600,30,0,600,32,0,400,33,0,400,34,0,421,35,0,400,36,0,400,37,0,400,38,0,400,39,0,421,40,0,421,41,0,400,42,0,400,43,0,421,44,0,421,45,0,400,46,0,400,59,0,400,60,0,400,61,0,400,62,0,400*71
$PAIRDGP,8,2,4,7,8,9,16,21,27*7C
$GNGGA,040333.200,2500.8022469,N,12132.4804412,E,4,53,0.53,16.714,M,15.25,M,1,3335*4B
$GNRMC,040333.200,A,2500.8022469,N,12132.4804412,E,0.02,260.95,030324,,,R,V*18
$GPHDT,46.772,T*05
$GNACCURACY,5.3*10
$GNGGA,040333.300,2500.8022468,N,12132.4804437,E,4,53,0.53,16.702,M,15.25,M,1,3335*4B
$GNRMC,040333.300,A,2500.8022468,N,12132.4804437,E,0.01,260.95,030324,,,R,V*1C
$GPHDT,,T*1B
$GNACCURACY,5.4*17
$GNGGA,040333.400,2500.8022448,N,12132.4804451,E,4,53,0.53,16.726,M,15.25,M,1,3335*48
$GNRMC,040333.400,A,2500.8022448,N,12132.4804451,E,0.01,260.95,030324,,,R,V*19
$GPHDT,46.148,T*0A
$GNACCURACY,5.4*17
$GNGGA,040333.500,2500.8022476,N,12132.4804422,E,4,53,0.53,16.699,M,15.25,M,0,3335*44
$GNRMC,040333.500,A,2500.8022476,N,12132.4804422,E,0.01,260.95,030324,,,R,V*11
$GPHDT,,T*1B
$GNACCURACY,5.4*17
$GNGGA,040333.600,2500.8022466,N,12132.4804422,E,4,53,0.53,16.707,M,15.25,M,0,3335*40
$GNRMC,040333.600,A,2500.8022466,N,12132.4804422,E,0.03,260.95,030324,,,R,V*11
$GPHDT,46.240,T*01
$GNACCURACY,5.4*17
$GNGGA,040333.700,2500.8022473,N,12132.4804445,E,4,53,0.53,16.705,M,15.25,M,0,3335*46
$GNRMC,040333.700,A,2500.8022473,N,12132.4804445,E,0.03,260.95,030324,,,R,V*15
$GPHDT,,T*1B
$GNACCURACY,5.3*10
$GNGGA,040333.800,2500.8022454,N,12132.4804448,E,4,53,0.53,16.725,M,15.25,M,0,3335*43
$GNRMC,040333.800,A,2500.8022454,N,12132.4804448,E,0.07,260.95,030324,,,R,V*16
$GPHDT,46.421,T*00
$GNACCURACY,5.3*10
$GNGGA,040333.900,2500.8022445,N,12132.4804431,E,4,53,0.53,16.715,M,15.25,M,0,3335*4F
$GNRMC,040333.900,A,2500.8022445,N,12132.4804431,E,0.12,260.95,030324,,,R,V*1D
$GPHDT,,T*1B
$GNACCURACY,5.3*10
$GNGGA,040334.000,2500.8022445,N,12132.4804448,E,4,53,0.53,16.714,M,15.25,M,1,3335*4F
$GNRMC,040334.000,A,2500.8022445,N,12132.4804448,E,0.04,260.95,030324,,,R,V*1A
$GPHDT,46.067,T*06
$GNACCURACY,5.3*10
$GNGGA,040334.100,2500.8022462,N,12132.4804499,E,4,53,0.53,16.716,M,15.25,M,1,3335*45
$GNRMC,040334.100,A,2500.8022462,N,12132.4804499,E,0.02,260.95,030324,,,R,V*14
$GPHDT,,T*1B
$GNGSA,A,3,08,194,199,195,21,27,16,02,07,04,196,31,0.82,0.53,0.63,1*0C
$GNGSA,A,3,82,83,80,79,,,,,,,,,0.82,0.53,0.63,2*0C
$GNGSA,A,3,30,15,34,27,07,,,,,,,,0.82,0.53,0.63,3*08
$GNGSA,A,3,34,06,16,09,11,39,40,07,25,12,24,43,0.82,0.53,0.63,4*0E
$GNGSA,A,3,23,44,,,,,,,,,,,0.82,0.53,0.63,4*0C
$GPGSV,4,1,15,08,71,322,46,194,63,048,32,199,60,167,38,195,60,121,39,1*51
$GPGSV,4,2,15,50,60,167,40,21,45,166,45,27,45,029,31,16,33,061,31,1*6C
$GPGSV,4,3,15,02,33,180,43,09,29,261,25,07,29,320,33,04,28,213,28,1*62
$GPGSV,4,4,15,196,20,172,35,26,15,088,17,31,11,139,25,1*66
$GPGSV,2,1,07,08,71,322,48,194,63,048,44,199,60,167,45,195,60,121,44,8*52
$GPGSV,2,2,07,27,45,029,30,09,29,261,27,196,20,172,43,8*6B
$GLGSV,2,1,05,82,66,050,43,83,60,178,34,80,48,014,42,79,34,088,26,1*78
$GLGSV,2,2,05,81,18,028,22,1*47
$GAGSV,2,1,06,30,50,032,41,15,46,151,43,34,43,071,28,27,36,316,33,7*78
$GAGSV,2,2,06,07,33,233,29,02,16,081,17,7*71
$GAGSV,2,1,05,30,50,032,41,15,46,151,45,34,43,071,34,27,36,316,31,1*74
$GAGSV,2,2,05,07,33,233,22,1*45
$GBGSV,4,1,15,34,83,072,40,06,79,218,44,16,76,194,43,09,75,291,40,1*71
$GBGSV,4,2,15,11,69,197,41,39,65,180,45,40,64,319,40,07,62,298,33,1*79
$GBGSV,4,3,15,25,59,345,45,12,51,043,28,24,49,097,39,43,44,214,38,1*73
$GBGSV,4,4,15,44,27,040,14,23,14,314,30,10,,,18,1*7F
$GBGSV,2,1,08,34,83,072,44,39,65,180,44,40,64,319,44,25,59,345,45,4*74
$GBGSV,2,2,08,24,49,097,31,43,44,214,35,44,27,040,13,23,14,314,30,4*78
$GNACCURACY,5.3*10
$PAIRSAT,1,26,2,0,201,3,0,200,4,0,221,5,0,200,6,0,200,7,0,201,8,0,221,9,0,200,10,0,200,11,0,200,12,0,200,16,0,1,21,0,1,24,0,200,25,0,200,26,0,200,27,0,221,28,0,200,29,0,200,30,0,200,31,0,201,32,0,200,194,0,621,195,0,221,196,0,420,199,0,221*71
$PAIRSAT,2,24,65,0,200,66,0,200,67,0,200,68,0,200,69,0,200,70,0,200,71,0,200,72,0,200,73,0,200,74,0,200,75,0,200,76,0,200,77,0,200,78,0,200,79,0,201,80,0,201,81,0,200,82,0,201,83,0,201,84,0,200,85,0,200,86,0,200,87,0,200,88,0,200*7A
$PAIRSAT,3,22,2,0,1000,3,0,1000,4,0,1000,7,0,1021,8,0,1000,9,0,1000,10,0,1000,11,0,1000,12,0,1200,13,0,1200,15,0,221,19,0,1200,21,0,200,24,0,200,25,0,200,26,0,200,27,0,221,30,0,1221,31,0,1000,33,0,1000,34,0,1021,36,0,1000*73
$PAIRSAT,4,42,1,0,200,2,0,200,3,0,600,4,0,200,5,0,200,6,0,201,7,0,201,9,0,1,11,0,1,12,0,1,16,0,1,19,0,600,20,0,600,21,0,600,22,0,600,23,0,621,24,0,621,25,0,621,26,0,600,27,0,600,28,0,600,29,0,600,30,0,600,32,0,400,33,0,400,34,0,421,35,0,400,36,0,400,37,0,400,38,0,400,39,0,421,40,0,421,41,0,400,42,0,400,43,0,421,44,0,421,45,0,400,46,0,400,59,0,400,60,0,400,61,0,400,62,0,400*71
$PAIRDGP,8,2,4,7,8,9,16,21,27*7C
$GNGGA,040334.200,2500.8022450,N,12132.4804458,E,4,53,0.53,16.719,M,15.25,M,1,3335*45
$GNRMC,040334.200,A,2500.8022450,N,12132.4804458,E,0.02,260.95,030324,,,R,V*1B
$GPHDT,46.514,T*07
$GNACCURACY,5.3*10
$GNGGA,040334.300,2500.8022448,N,12132.4804448,E,4,53,0.53,16.720,M,15.25,M,1,3335*46
$GNRMC,040334.300,A,2500.8022448,N,12132.4804448,E,0.04,260.95,030324,,,R,V*14
$GPHDT,,T*1B
$GNACCURACY,5.3*10
$GNGGA,040334.400,2500.8022457,N,12132.4804444,E,4,53,0.53,16.707,M,15.25,M,0,3335*47
$GNRMC,040334.400,A,2500.8022457,N,12132.4804444,E,0.02,260.95,030324,,,R,V*17
$GPHDT,46.725,T*07
$GNACCURACY,5.3*10
$GNGGA,040334.500,2500.8022459,N,12132.4804464,E,4,53,0.53,16.709,M,15.25,M,0,3335*44
$GNRMC,040334.500,A,2500.8022459,N,12132.4804464,E,0.03,260.95,030324,,,R,V*1B
$GPHDT,,T*1B
$GNACCURACY,5.3*10
$GNGGA,040334.600,2500.8022459,N,12132.4804450,E,4,53,0.53,16.697,M,15.25,M,0,3335*46
$GNRMC,040334.600,A,2500.8022459,N,12132.4804450,E,0.03,260.95,030324,,,R,V*1F
$GPHDT,46.070,T*00
$GNACCURACY,5.3*10
$GNGGA,040334.700,2500.8022460,N,12132.4804434,E,4,53,0.53,16.711,M,15.25,M,0,3335*40
$GNRMC,040334.700,A,2500.8022460,N,12132.4804434,E,0.03,260.95,030324,,,R,V*16
$GPHDT,,T*1B
$GNACCURACY,5.3*10
$GNGGA,040334.800,2500.8022482,N,12132.4804453,E,4,53,0.53,16.693,M,15.25,M,0,3335*49
$GNRMC,040334.800,A,2500.8022482,N,12132.4804453,E,0.09,260.95,030324,,,R,V*1E
$GPHDT,46.321,T*07
$GNACCURACY,5.3*10
$GNGGA,040334.900,2500.8022445,N,12132.4804490,E,4,53,0.53,16.723,M,15.25,M,0,3335*46
$GNRMC,040334.900,A,2500.8022445,N,12132.4804490,E,0.01,260.95,030324,,,R,V*13
$GPHDT,,T*1B
$GNACCURACY,5.3*10
$GNGGA,040335.000,2500.8022457,N,12132.4804440,E,4,53,0.53,16.697,M,15.25,M,1,3335*4F
$GNRMC,040335.000,A,2500.8022457,N,12132.4804440,E,0.01,260.95,030324,,,R,V*15
$GPHDT,46.502,T*00
$GNACCURACY,5.3*10
$GNGGA,040335.100,2500.8022474,N,12132.4804447,E,4,53,0.53,16.700,M,15.25,M,1,3335*47
$GNRMC,040335.100,A,2500.8022474,N,12132.4804447,E,0.01,260.95,030324,,,R,V*12
$GPHDT,,T*1B
$GNGSA,A,3,08,194,199,195,21,27,16,02,07,04,196,31,0.82,0.53,0.63,1*0C
$GNGSA,A,3,82,83,80,79,,,,,,,,,0.82,0.53,0.63,2*0C
$GNGSA,A,3,30,15,34,27,07,,,,,,,,0.82,0.53,0.63,3*08
$GNGSA,A,3,34,06,16,09,11,39,40,07,25,12,24,43,0.82,0.53,0.63,4*0E
$GNGSA,A,3,23,44,,,,,,,,,,,0.82,0.53,0.63,4*0C
$GPGSV,4,1,15,08,71,322,46,194,63,048,32,199,60,167,39,195,60,121,39,1*50
$GPGSV,4,2,15,50,60,167,40,21,45,166,45,27,45,029,31,16,33,061,31,1*6C
$GPGSV,4,3,15,02,33,180,44,09,29,261,23,07,29,320,34,04,28,213,27,1*6B
$GPGSV,4,4,15,196,20,172,34,26,15,088,19,31,11,139,25,1*69
$GPGSV,2,1,07,08,71,322,48,194,63,048,44,199,60,167,45,195,60,121,44,8*52
$GPGSV,2,2,07,27,45,029,30,09,29,261,26,196,20,172,43,8*6A
$GLGSV,2,1,05,82,66,050,43,83,60,178,34,80,48,014,42,79,34,088,26,1*78
$GLGSV,2,2,05,81,18,028,21,1*44
$GAGSV,2,1,06,30,50,032,41,15,46,151,43,34,43,071,27,27,36,316,33,7*77
$GAGSV,2,2,06,07,33,233,29,02,16,081,17,7*71
$GAGSV,2,1,05,30,50,032,41,15,46,151,45,34,43,071,36,27,36,316,31,1*76
$GAGSV,2,2,05,07,33,233,23,1*44
$GBGSV,4,1,15,34,83,071,39,06,79,218,44,16,76,194,43,09,75,291,40,1*7C
$GBGSV,4,2,15,11,69,197,41,39,65,180,45,40,64,319,40,07,62,298,34,1*7E
$GBGSV,4,3,15,25,59,345,45,12,51,043,30,24,49,097,39,43,44,214,38,1*7A
$GBGSV,4,4,15,44,27,040,14,23,14,314,31,10,,,18,1*7E
$GBGSV,2,1,08,34,83,071,44,39,65,180,44,40,64,319,44,25,59,345,45,4*77
$GBGSV,2,2,08,24,49,097,31,43,44,214,35,44,27,040,15,23,14,314,31,4*7F
$GNACCURACY,5.3*10
$PAIRSAT,1,26,2,0,201,3,0,200,4,0,221,5,0,200,6,0,200,7,0,201,8,0,221,9,0,200,10,0,200,11,0,200,12,0,200,16,0,1,21,0,1,24,0,200,25,0,200,26,0,200,27,0,221,28,0,200,29,0,200,30,0,200,31,0,201,32,0,200,194,0,621,195,0,221,196,0,420,199,0,221*71
$PAIRSAT,2,24,65,0,200,66,0,200,67,0,200,68,0,200,69,0,200,70,0,200,71,0,200,72,0,200,73,0,200,74,0,200,75,0,200,76,0,200,77,0,200,78,0,200,79,0,201,80,0,201,81,0,200,82,0,201,83,0,201,84,0,200,85,0,200,86,0,200,87,0,200,88,0,200*7A
$PAIRSAT,3,22,2,0,1000,3,0,1000,4,0,1000,7,0,1021,8,0,1000,9,0,1000,10,0,1000,11,0,1000,12,0,1200,13,0,1200,15,0,221,19,0,1200,21,0,200,24,0,200,25,0,200,26,0,200,27,0,221,30,0,1221,31,0,1000,33,0,1000,34,0,1021,36,0,1000*73
$PAIRSAT,4,42,1,0,200,2,0,200,3,0,600,4,0,200,5,0,200,6,0,201,7,0,201,9,0,1,11,0,1,12,0,1,16,0,1,19,0,600,20,0,600,21,0,600,22,0,600,23,0,621,24,0,621,25,0,621,26,0,600,27,0,600,28,0,600,29,0,600,30,0,600,32,0,400,33,0,400,34,0,421,35,0,400,36,0,400,37,0,400,38,0,400,39,0,421,40,0,421,41,0,400,42,0,400,43,0,421,44,0,421,45,0,400,46,0,400,59,0,400,60,0,400,61,0,400,62,0,400*71
$PAIRDGP,8,2,4,7,8,9,16,21,27*7C
$GNGGA,040335.200,2500.8022455,N,12132.4804476,E,4,53,0.53,16.721,M,15.25,M,1,3335*46
$GNRMC,040335.200,A,2500.8022455,N,12132.4804476,E,0.02,260.95,030324,,,R,V*13
$GPHDT,46.850,T*0A
$GNACCURACY,5.3*10
$GNGGA,040335.300,2500.8022457,N,12132.4804460,E,4,54,0.53,16.706,M,15.25,M,1,3335*40
$GNRMC,040335.300,A,2500.8022457,N,12132.4804460,E,0.02,260.95,030324,,,R,V*17
$GPHDT,,T*1B
$GNACCURACY,5.3*10
$GNGGA,040335.400,2500.8022474,N,12132.4804468,E,4,54,0.53,16.698,M,15.25,M,1,3335*48
$GNRMC,040335.400,A,2500.8022474,N,12132.4804468,E,0.02,260.95,030324,,,R,V*19
$GPHDT,46.735,T*06
$GNACCURACY,5.3*10
$GNGGA,040335.500,2500.8022457,N,12132.4804454,E,4,54,0.53,16.709,M,15.25,M,1,3335*4E
$GNRMC,040335.500,A,2500.8022457,N,12132.4804454,E,0.02,260.95,030324,,,R,V*16
$GPHDT,,T*1B
$GNACCURACY,5.3*10
$GNGGA,040335.600,2500.8022461,N,12132.4804448,E,4,54,0.53,16.693,M,15.25,M,0,3335*46
$GNRMC,040335.600,A,2500.8022461,N,12132.4804448,E,0.01,260.95,030324,,,R,V*1E
$GPHDT,46.736,T*05
$GNACCURACY,5.3*10
$GNGGA,040335.700,2500.8022441,N,12132.4804446,E,4,54,0.53,16.712,M,15.25,M,0,3335*43
$GNRMC,040335.700,A,2500.8022441,N,12132.4804446,E,0.01,260.95,030324,,,R,V*13
$GPHDT,,T*1B
$GNACCURACY,5.3*10
$GNGGA,040335.800,2500.8022449,N,12132.4804428,E,4,54,0.53,16.710,M,15.25,M,0,3335*4E
$GNRMC,040335.800,A,2500.8022449,N,12132.4804428,E,0.05,260.95,030324,,,R,V*18
$GPHDT,46.206,T*03
$GNACCURACY,5.3*10
$GNGGA,040335.900,2500.8022462,N,12132.4804457,E,4,54,0.53,16.704,M,15.25,M,0,3335*4B
$GNRMC,040335.900,A,2500.8022462,N,12132.4804457,E,0.03,260.95,030324,,,R,V*1E
$GPHDT,,T*1B
$GNACCURACY,5.3*10
$GNGGA,040336.000,2500.8022460,N,12132.4804432,E,4,54,0.53,16.708,M,15.25,M,1,3335*4D
$GNRMC,040336.000,A,2500.8022460,N,12132.4804432,E,0.04,260.95,030324,,,R,V*12
$GPHDT,46.559,T*0E
$GNACCURACY,5.3*10
$GNGGA,040336.100,2500.8022448,N,12132.4804424,E,4,54,0.53,16.711,M,15.25,M,1,3335*49
$GNRMC,040336.100,A,2500.8022448,N,12132.4804424,E,0.01,260.95,030324,,,R,V*1B
$GPHDT,,T*1B
$GNGSA,A,3,08,194,199,195,21,27,16,02,07,04,196,31,0.82,0.53,0.63,1*0C
$GNGSA,A,3,82,83,80,79,,,,,,,,,0.82,0.53,0.63,2*0C
$GNGSA,A,3,30,15,34,27,07,,,,,,,,0.82,0.53,0.63,3*08
$GNGSA,A,3,34,06,16,09,11,39,40,07,25,12,24,43,0.82,0.53,0.63,4*0E
$GNGSA,A,3,23,44,,,,,,,,,,,0.82,0.53,0.63,4*0C
$GPGSV,4,1,15,08,71,322,46,194,63,048,31,199,60,167,39,195,60,121,39,1*53
$GPGSV,4,2,15,50,60,167,41,21,45,166,45,27,45,029,32,16,33,061,31,1*6E
$GPGSV,4,3,15,02,33,180,44,09,29,261,24,07,29,320,33,04,28,213,26,1*6A
$GPGSV,4,4,15,196,20,172,34,26,15,088,18,31,11,139,26,1*6B
$GPGSV,2,1,08,08,71,322,48,194,63,048,44,195,60,121,44,199,60,167,46,8*5E
$GPGSV,2,2,08,27,45,029,29,09,29,261,26,04,28,213,23,196,20,172,44,8*55
$GLGSV,2,1,05,82,66,050,43,83,60,178,34,80,48,014,42,79,34,088,27,1*79
$GLGSV,2,2,05,81,18,028,20,1*45
$GAGSV,2,1,06,30,50,032,41,15,46,151,43,34,43,071,27,27,36,316,33,7*77
$GAGSV,2,2,06,07,33,233,29,02,16,081,17,7*71
$GAGSV,2,1,05,30,50,032,41,15,46,151,45,34,43,071,37,27,36,316,31,1*77
$GAGSV,2,2,05,07,33,233,24,1*43
$GBGSV,4,1,15,34,83,071,39,06,79,218,44,16,76,194,43,09,75,291,40,1*7C
$GBGSV,4,2,15,11,69,197,41,39,65,180,45,40,64,319,40,07,62,298,34,1*7E
$GBGSV,4,3,15,25,59,345,45,12,51,043,31,24,49,097,39,43,44,214,38,1*7B
$GBGSV,4,4,15,44,27,040,12,23,14,314,30,10,,,18,1*79
$GBGSV,2,1,08,34,83,071,44,39,65,180,45,40,64,319,45,25,59,345,45,4*77
$GBGSV,2,2,08,24,49,097,33,43,44,214,35,44,27,040,16,23,14,314,31,4*7E
$GNACCURACY,5.3*10
$PAIRSAT,1,26,2,0,201,3,0,200,4,0,221,5,0,200,6,0,200,7,0,201,8,0,221,9,0,200,10,0,200,11,0,200,12,0,200,16,0,1,21,0,1,24,0,200,25,0,200,26,0,200,27,0,221,28,0,200,29,0,200,30,0,200,31,0,201,32,0,200,194,0,621,195,0,221,196,0,420,199,0,221*71
$PAIRSAT,2,24,65,0,200,66,0,200,67,0,200,68,0,200,69,0,200,70,0,200,71,0,200,72,0,200,73,0,200,74,0,200,75,0,200,76,0,200,77,0,200,78,0,200,79,0,201,80,0,201,81,0,200,82,0,201,83,0,201,84,0,200,85,0,200,86,0,200,87,0,200,88,0,200*7A
$PAIRSAT,3,22,2,0,1000,3,0,1000,4,0,1000,7,0,1021,8,0,1000,9,0,1000,10,0,1000,11,0,1000,12,0,1200,13,0,1200,15,0,221,19,0,1200,21,0,200,24,0,200,25,0,200,26,0,200,27,0,221,30,0,1221,31,0,1000,33,0,1000,34,0,1021,36,0,1000*73
$PAIRSAT,4,42,1,0,200,2,0,200,3,0,600,4,0,200,5,0,200,6,0,201,7,0,201,9,0,1,11,0,1,12,0,1,16,0,1,19,0,600,20,0,600,21,0,600,22,0,600,23,0,621,24,0,621,25,0,621,26,0,600,27,0,600,28,0,600,29,0,600,30,0,600,32,0,400,33,0,400,34,0,421,35,0,400,36,0,400,37,0,400,38,0,400,39,0,421,40,0,421,41,0,400,42,0,400,43,0,421,44,0,421,45,0,400,46,0,400,59,0,400,60,0,400,61,0,400,62,0,400*71
$PAIRDGP,8,2,4,7,8,9,16,21,27*7C
$GNGGA,040336.200,2500.8022451,N,12132.4804451,E,4,54,0.53,16.697,M,15.25,M,1,3335*4F
$GNRMC,040336.200,A,2500.8022451,N,12132.4804451,E,0.01,260.95,030324,,,R,V*12
$GPHDT,46.669,T*0E
$GNACCURACY,5.2*11
$GNGGA,040336.300,2500.8022449,N,12132.4804443,E,4,54,0.53,16.712,M,15.25,M,1,3335*48
$GNRMC,040336.300,A,2500.8022449,N,12132.4804443,E,0.01,260.95,030324,,,R,V*19
$GPHDT,,T*1B
$GNACCURACY,5.2*11
$GNGGA,040336.400,2500.8022449,N,12132.4804418,E,4,54,0.53,16.709,M,15.25,M,1,3335*4B
$GNRMC,040336.400,A,2500.8022449,N,12132.4804418,E,0.01,260.95,030324,,,R,V*10
$GPHDT,47.024,T*00
$GNACCURACY,5.2*11
$GNGGA,040336.500,2500.8022465,N,12132.4804430,E,4,54,0.53,16.697,M,15.25,M,1,3335*48
$GNRMC,040336.500,A,2500.8022465,N,12132.4804430,E,0.01,260.95,030324,,,R,V*15
$GPHDT,,T*1B
$GNACCURACY,5.2*11
$GNGGA,040336.600,2500.8022451,N,12132.4804446,E,4,54,0.53,16.719,M,15.25,M,1,3335*4A
$GNRMC,040336.600,A,2500.8022451,N,12132.4804446,E,0.00,260.95,030324,,,R,V*11
$GPHDT,46.744,T*00
$GNACCURACY,5.2*11
$GNGGA,040336.700,2500.8022458,N,12132.4804411,E,4,54,0.53,16.700,M,15.25,M,0,3335*49
$GNRMC,040336.700,A,2500.8022458,N,12132.4804411,E,0.07,260.95,030324,,,R,V*1C
$GPHDT,,T*1B
$GNACCURACY,5.3*10
$GNGGA,040336.800,2500.8022448,N,12132.4804455,E,4,54,0.53,16.701,M,15.25,M,0,3335*46
$GNRMC,040336.800,A,2500.8022448,N,12132.4804455,E,0.03,260.95,030324,,,R,V*16
$GPHDT,46.405,T*06
$GNACCURACY,5.3*10
$GNGGA,040336.900,2500.8022459,N,12132.4804453,E,4,54,0.53,16.710,M,15.25,M,0,3335*41
$GNRMC,040336.900,A,2500.8022459,N,12132.4804453,E,0.15,260.95,030324,,,R,V*16
$GPHDT,,T*1B
$GNACCURACY,5.3*10
$GNGGA,040337.000,2500.8022459,N,12132.4804437,E,4,54,0.53,16.705,M,15.25,M,1,3335*4E
$GNRMC,040337.000,A,2500.8022459,N,12132.4804437,E,0.09,260.95,030324,,,R,V*11
$GPHDT,47.126,T*03
$GNACCURACY,5.3*10
$GNGGA,040337.100,2500.8022463,N,12132.4804466,E,4,54,0.53,16.705,M,15.25,M,1,3335*42
$GNRMC,040337.100,A,2500.8022463,N,12132.4804466,E,0.08,260.95,030324,,,R,V*1C
$GPHDT,,T*1B
$GNGSA,A,3,08,194,199,195,21,27,16,02,07,04,196,31,0.82,0.53,0.63,1*0C
$GNGSA,A,3,82,83,80,79,,,,,,,,,0.82,0.53,0.63,2*0C
$GNGSA,A,3,30,15,34,27,07,,,,,,,,0.82,0.53,0.63,3*08
$GNGSA,A,3,34,06,16,09,11,39,40,07,25,12,24,43,0.82,0.53,0.63,4*0E
$GNGSA,A,3,23,44,,,,,,,,,,,0.82,0.53,0.63,4*0C
$GPGSV,4,1,15,08,71,322,46,194,63,048,32,199,60,167,39,195,60,121,40,1*5E
$GPGSV,4,2,15,50,60,167,40,21,45,166,45,27,45,029,32,16,33,061,30,1*6E
$GPGSV,4,3,15,02,33,180,44,09,29,261,23,07,29,320,33,04,28,213,29,1*62
$GPGSV,4,4,15,196,20,172,32,26,15,088,18,31,11,139,25,1*6E
$GPGSV,2,1,08,08,71,322,48,194,63,048,44,195,60,121,42,199,60,167,46,8*58
$GPGSV,2,2,08,27,45,029,29,09,29,261,25,04,28,213,22,196,20,172,44,8*57
$GLGSV,2,1,05,82,66,050,43,83,60,178,35,80,48,014,42,79,34,088,24,1*7B
$GLGSV,2,2,05,81,18,028,18,1*4E
$GAGSV,2,1,06,30,50,032,41,15,46,151,43,34,43,071,26,27,36,316,34,7*71
$GAGSV,2,2,06,07,33,233,28,02,16,081,18,7*7F
$GAGSV,2,1,05,30,50,032,41,15,46,151,44,34,43,071,37,27,36,316,30,1*77
$GAGSV,2,2,05,07,33,233,24,1*43
$GBGSV,4,1,15,34,83,071,40,06,79,218,44,16,76,194,42,09,75,291,40,1*73
$GBGSV,4,2,15,11,69,197,41,39,65,180,45,40,64,319,40,07,62,298,34,1*7E
$GBGSV,4,3,15,25,59,345,45,12,51,043,29,24,49,097,39,43,44,214,38,1*72
$GBGSV,4,4,15,44,27,040,,23,14,314,30,10,,,18,1*7A
$GBGSV,2,1,08,34,83,071,44,39,65,180,45,40,64,319,45,25,59,345,45,4*77
$GBGSV,2,2,08,24,49,097,34,43,44,214,35,44,27,040,16,23,14,314,31,4*79
$GNACCURACY,5.3*10
$PAIRSAT,1,26,2,0,201,3,0,200,4,0,221,5,0,200,6,0,200,7,0,201,8,0,221,9,0,200,10,0,200,11,0,200,12,0,200,16,0,1,21,0,1,24,0,200,25,0,200,26,0,200,27,0,221,28,0,200,29,0,200,30,0,200,31,0,201,32,0,200,194,0,621,195,0,221,196,0,420,199,0,221*71
$PAIRSAT,2,24,65,0,200,66,0,200,67,0,200,68,0,200,69,0,200,70,0,200,71,0,200,72,0,200,73,0,200,74,0,200,75,0,200,76,0,200,77,0,200,78,0,200,79,0,201,80,0,201,81,0,200,82,0,201,83,0,201,84,0,200,85,0,200,86,0,200,87,0,200,88,0,200*7A
$PAIRSAT,3,22,2,0,1000,3,0,1000,4,0,1000,7,0,1021,8,0,1000,9,0,1000,10,0,1000,11,0,1000,12,0,1200,13,0,1200,15,0,221,19,0,1200,21,0,200,24,0,200,25,0,200,26,0,200,27,0,221,30,0,1221,31,0,1000,33,0,1000,34,0,1021,36,0,1000*73
$PAIRSAT,4,42,1,0,200,2,0,200,3,0,600,4,0,200,5,0,200,6,0,201,7,0,201,9,0,1,11,0,1,12,0,1,16,0,1,19,0,600,20,0,600,21,0,600,22,0,600,23,0,621,24,0,621,25,0,621,26,0,600,27,0,600,28,0,600,29,0,600,30,0,600,32,0,400,33,0,400,34,0,421,35,0,400,36,0,400,37,0,400,38,0,400,39,0,421,40,0,421,41,0,400,42,0,400,43,0,421,44,0,421,45,0,400,46,0,400,59,0,400,60,0,400,61,0,400,62,0,400*71
$PAIRDGP,8,2,4,7,8,9,16,21,27*7C
$GNGGA,040337.200,2500.8022470,N,12132.4804463,E,4,54,0.53,16.698,M,15.25,M,1,3335*43
$GNRMC,040337.200,A,2500.8022470,N,12132.4804463,E,0.06,260.95,030324,,,R,V*16
$GPHDT,46.787,T*0F
$GNACCURACY,5.3*10
$GNGGA,040337.300,2500.8022443,N,12132.4804384,E,4,54,0.53,16.699,M,15.25,M,1,3335*4D
$GNRMC,040337.300,A,2500.8022443,N,12132.4804384,E,0.03,260.95,030324,,,R,V*1C
$GPHDT,,T*1B
$GNACCURACY,5.3*10
$GNGGA,040337.400,2500.8022467,N,12132.4804476,E,4,54,0.53,16.700,M,15.25,M,1,3335*47
$GNRMC,040337.400,A,2500.8022467,N,12132.4804476,E,0.03,260.95,030324,,,R,V*17
$GPHDT,46.788,T*00
$GNACCURACY,5.3*10
$GNGGA,040337.500,2500.8022437,N,12132.4804447,E,4,54,0.53,16.707,M,15.25,M,0,3335*47
$GNRMC,040337.500,A,2500.8022437,N,12132.4804447,E,0.01,260.95,030324,,,R,V*13
$GPHDT,,T*1B
$GNACCURACY,5.4*17
$GNGGA,040337.600,2500.8022467,N,12132.4804443,E,4,54,0.53,16.677,M,15.25,M,0,3335*43
$GNRMC,040337.600,A,2500.8022467,N,12132.4804443,E,0.01,260.95,030324,,,R,V*11
$GPHDT,46.781,T*09
$GNACCURACY,5.4*17
$GNGGA,040337.700,2500.8022452,N,12132.4804451,E,4,54,0.53,16.687,M,15.25,M,0,3335*48
$GNRMC,040337.700,A,2500.8022452,N,12132.4804451,E,0.02,260.95,030324,,,R,V*16
$GPHDT,,T*1B
$GNACCURACY,5.4*17
$GNGGA,040337.800,2500.8022449,N,12132.4804430,E,4,54,0.53,16.688,M,15.25,M,0,3335*45
$GNRMC,040337.800,A,2500.8022449,N,12132.4804430,E,0.01,260.95,030324,,,R,V*17
$GPHDT,47.002,T*04
$GNACCURACY,5.4*17
$GNGGA,040337.900,2500.8022452,N,12132.4804462,E,4,54,0.53,16.688,M,15.25,M,0,3335*49
$GNRMC,040337.900,A,2500.8022452,N,12132.4804462,E,0.08,260.95,030324,,,R,V*12
$GPHDT,,T*1B
$GNACCURACY,5.4*17
$GNGGA,040338.000,2500.8022480,N,12132.4804453,E,4,54,0.53,16.677,M,15.25,M,1,3335*43
$GNRMC,040338.000,A,2500.8022480,N,12132.4804453,E,0.00,260.95,030324,,,R,V*11
$GPHDT,46.405,T*06
$GNACCURACY,5.4*17
$GNGGA,040338.100,2500.8022459,N,12132.4804463,E,4,54,0.53,16.693,M,15.25,M,1,3335*4F
$GNRMC,040338.100,A,2500.8022459,N,12132.4804463,E,0.01,260.95,030324,,,R,V*16
$GPHDT,,T*1B
$GNGSA,A,3,08,194,199,195,21,27,16,02,07,04,196,31,0.82,0.53,0.63,1*0C
$GNGSA,A,3,82,83,80,79,,,,,,,,,0.82,0.53,0.63,2*0C
$GNGSA,A,3,30,15,34,27,07,,,,,,,,0.82,0.53,0.63,3*08
$GNGSA,A,3,34,06,16,09,11,39,40,07,25,12,24,43,0.82,0.53,0.63,4*0E
$GNGSA,A,3,23,44,,,,,,,,,,,0.82,0.53,0.63,4*0C
$GPGSV,4,1,15,08,71,322,46,194,63,048,33,199,60,167,37,195,60,121,40,1*51
$GPGSV,4,2,15,50,60,167,39,21,45,166,45,27,45,029,30,16,33,061,27,1*64
$GPGSV,4,3,15,02,33,180,44,09,29,261,19,07,29,320,34,04,28,213,31,1*65
$GPGSV,4,4,15,196,20,172,31,26,15,088,17,31,11,139,24,1*63
$GPGSV,2,1,08,08,71,322,48,194,63,048,44,195,60,121,42,199,60,167,46,8*58
$GPGSV,2,2,08,27,45,029,33,09,29,261,24,04,28,213,24,196,20,172,43,8*5C
$GLGSV,2,1,05,82,66,050,43,83,60,178,33,80,48,014,42,79,34,088,19,1*73
$GLGSV,2,2,05,81,18,028,18,1*4E
$GAGSV,2,1,06,30,50,032,40,15,46,151,43,34,43,071,25,27,36,316,35,7*72
$GAGSV,2,2,06,07,33,233,28,02,16,081,19,7*7E
$GAGSV,2,1,05,30,50,032,41,15,46,151,44,34,43,071,37,27,36,316,31,1*76
$GAGSV,2,2,05,07,33,233,24,1*43
$GBGSV,4,1,15,34,83,071,43,06,79,218,44,16,76,194,42,09,75,291,39,1*7E
$GBGSV,4,2,15,11,69,197,41,39,65,180,45,40,64,319,40,07,62,298,32,1*78
$GBGSV,4,3,15,25,59,345,45,12,51,043,25,24,49,097,37,43,44,214,39,1*71
$GBGSV,4,4,15,44,27,040,,23,14,314,30,10,,,17,1*75
$GBGSV,2,1,08,34,83,071,43,39,65,180,45,40,64,319,45,25,59,345,45,4*70
$GBGSV,2,2,08,24,49,097,35,43,44,214,35,44,27,040,17,23,14,314,30,4*78
$GNACCURACY,5.4*17
$PAIRSAT,1,26,2,0,201,3,0,200,4,0,221,5,0,200,6,0,200,7,0,201,8,0,221,9,0,200,10,0,200,11,0,200,12,0,200,16,0,1,21,0,1,24,0,200,25,0,200,26,0,200,27,0,221,28,0,200,29,0,200,30,0,200,31,0,201,32,0,200,194,0,621,195,0,221,196,0,420,199,0,221*71
$PAIRSAT,2,24,65,0,200,66,0,200,67,0,200,68,0,200,69,0,200,70,0,200,71,0,200,72,0,200,73,0,200,74,0,200,75,0,200,76,0,200,77,0,200,78,0,200,79,0,201,80,0,201,81,0,200,82,0,201,83,0,201,84,0,200,85,0,200,86,0,200,87,0,200,88,0,200*7A
$PAIRSAT,3,22,2,0,1000,3,0,1000,4,0,1000,7,0,1021,8,0,1000,9,0,1000,10,0,1000,11,0,1000,12,0,1200,13,0,1200,15,0,221,19,0,1200,21,0,200,24,0,200,25,0,200,26,0,200,27,0,221,30,0,1221,31,0,1000,33,0,1000,34,0,1021,36,0,1000*73
$PAIRSAT,4,42,1,0,200,2,0,200,3,0,600,4,0,200,5,0,200,6,0,201,7,0,201,9,0,1,11,0,1,12,0,1,16,0,1,19,0,600,20,0,600,21,0,600,22,0,600,23,0,621,24,0,621,25,0,621,26,0,600,27,0,600,28,0,600,29,0,600,30,0,600,32,0,400,33,0,400,34,0,421,35,0,400,36,0,400,37,0,400,38,0,400,39,0,421,40,0,421,41,0,400,42,0,400,43,0,421,44,0,421,45,0,400,46,0,400,59,0,400,60,0,400,61,0,400,62,0,400*71
$PAIRDGP,8,2,4,7,8,9,16,21,27*7C
$GNGGA,040338.200,2500.8022459,N,12132.4804469,E,4,54,0.53,16.688,M,15.25,M,1,3335*4C
$GNRMC,040338.200,A,2500.8022459,N,12132.4804469,E,0.00,260.95,030324,,,R,V*1E
$GPHDT,46.466,T*03
$GNACCURACY,5.4*17
$GNGGA,040338.300,2500.8022478,N,12132.4804490,E,4,54,0.53,16.686,M,15.25,M,1,3335*46
$GNRMC,040338.300,A,2500.8022478,N,12132.4804490,E,0.01,260.95,030324,,,R,V*1B
$GPHDT,,T*1B
$GNACCURACY,5.4*17
$GNGGA,040338.400,2500.8022466,N,12132.4804481,E,4,54,0.53,16.703,M,15.25,M,1,3335*42
$GNRMC,040338.400,A,2500.8022466,N,12132.4804481,E,0.01,260.95,030324,,,R,V*13
$GPHDT,46.572,T*07
