$FW : RTK35X,V1.1X0314AS,Lib20210517,1*54
$Tool : LOCOSYS , GNSS Firebird , v1.0.0.19*39
$---------------------------------------------------*2D
$GNACCURACY,4.8*1A
$GNGGA,040302.900,2500.8022971,N,12132.4804603,E,4,53,0.53,16.870,M,15.25,M,0,3335*48
$GNRMC,040302.900,A,2500.8022971,N,12132.4804603,E,0.08,260.95,030324,,,R,V*1D
$GPHDT,,T*1B
$GNACCURACY,4.9*1B
$GNGGA,040303.000,2500.8022977,N,12132.4804647,E,4,53,0.53,16.886,M,15.25,M,1,3335*4E
$GNRMC,040303.000,A,2500.8022977,N,12132.4804647,E,0.05,260.95,030324,,,R,V*1E
$GPHDT,314.714,T*31
$GNACCURACY,4.9*1B
$GNGGA,040303.100,2500.8022982,N,12132.4804603,E,4,53,0.53,16.867,M,15.25,M,1,3335*4A
$GNRMC,040303.100,A,2500.8022982,N,12132.4804603,E,0.04,260.95,030324,,,R,V*14
$GPHDT,,T*1B
$GNGSA,A,3,08,194,195,199,21,27,16,02,07,04,196,31,0.82,0.53,0.63,1*0C
$GNGSA,A,3,82,83,80,79,,,,,,,,,0.82,0.53,0.63,2*0C
$GNGSA,A,3,30,15,34,27,07,,,,,,,,0.82,0.53,0.63,3*08
$GNGSA,A,3,34,06,16,09,39,40,07,25,12,24,43,44,0.82,0.53,0.63,4*0E
$GNGSA,A,3,23,,,,,,,,,,,,0.82,0.53,0.63,4*0C
$GPGSV,4,1,15,08,71,321,48,194,63,048,38,195,60,121,36,199,60,167,30,1*51
$GPGSV,4,2,15,50,60,167,33,21,45,166,36,27,45,029,29,16,33,061,38,1*6C
$GPGSV,4,3,15,02,33,180,30,09,29,261,17,07,29,320,30,04,28,213,23,1*6F
$GPGSV,4,4,15,196,20,173,17,26,15,088,20,31,11,139,19,1*6C
$GPGSV,2,1,08,08,71,321,46,194,63,048,44,195,60,121,42,199,60,167,38,8*5C
$GPGSV,2,2,08,27,45,029,33,09,29,261,18,04,28,213,22,196,20,173,32,8*52
$GLGSV,1,1,04,82,66,050,41,83,59,178,18,80,48,013,35,79,34,088,37,1*7B
$GAGSV,2,1,06,30,50,032,39,15,46,151,38,34,43,072,36,27,36,316,34,7*70
$GAGSV,2,2,06,07,34,234,25,02,16,081,19,7*73
$GAGSV,2,1,05,30,50,032,37,15,46,151,40,34,43,072,39,27,36,316,34,1*7B
$GAGSV,2,2,05,07,34,234,26,1*41
$GBGSV,4,1,15,34,83,073,45,06,79,218,40,16,76,194,37,09,75,291,41,1*73
$GBGSV,4,2,15,39,65,180,40,40,64,319,46,07,62,298,33,25,58,345,42,1*71
$GBGSV,4,3,15,12,51,043,33,24,49,097,46,43,44,213,28,44,28,040,22,1*71
$GBGSV,4,4,15,23,14,314,20,10,,,18,11,,,36,1*4F
$GBGSV,2,1,08,34,83,073,45,39,65,180,39,40,64,319,43,25,58,345,43,4*7E
$GBGSV,2,2,08,24,49,097,44,43,44,213,26,44,28,040,25,23,14,314,21,4*75
$GNACCURACY,4.9*1B
$PAIRSAT,1,25,2,0,201,3,0,200,4,0,221,5,0,200,6,0,200,7,0,201,8,0,221,9,0,200,10,0,200,11,0,200,16,0,1,21,0,1,24,0,200,25,0,200,26,0,200,27,0,221,28,0,200,29,0,200,30,0,200,31,0,201,32,0,200,194,0,621,195,0,21,196,0,420,199,0,221*6D
$PAIRSAT,2,23,65,0,200,66,0,200,67,0,200,68,0,200,69,0,200,70,0,200,72,0,200,73,0,200,74,0,200,75,0,200,76,0,200,77,0,200,78,0,200,79,0,201,80,0,201,81,0,200,82,0,201,83,0,201,84,0,200,85,0,200,86,0,200,87,0,200,88,0,200*55
$PAIRSAT,3,22,2,0,1000,3,0,1000,4,0,1000,7,0,1021,8,0,1000,9,0,1000,10,0,1000,11,0,1000,12,0,1200,13,0,1200,15,0,221,19,0,1200,21,0,200,24,0,200,25,0,200,26,0,200,27,0,221,30,0,1021,31,0,1000,33,0,1000,34,0,1021,36,0,1000*71
$PAIRSAT,4,41,1,0,200,2,0,200,3,0,600,4,0,200,5,0,200,6,0,201,7,0,1,9,0,1,12,0,1,16,0,1,19,0,600,20,0,600,21,0,600,22,0,600,23,0,621,24,0,621,25,0,621,26,0,600,27,0,600,28,0,600,29,0,600,30,0,600,32,0,400,33,0,400,34,0,421,35,0,400,36,0,400,37,0,400,38,0,400,39,0,421,40,0,421,41,0,400,42,0,400,43,0,421,44,0,421,45,0,400,46,0,400,59,0,400,60,0,400,61,0,400,62,0,400*5D
$PAIRDGP,6,2,4,7,9,16,21*4F
$GNGGA,040303.200,2500.8022959,N,12132.4804598,E,4,53,0.53,16.871,M,15.25,M,1,3335*49
$GNRMC,040303.200,A,2500.8022959,N,12132.4804598,E,0.10,260.95,030324,,,R,V*15
$GPHDT,315.035,T*34
$GNACCURACY,4.8*1A
$GNGGA,040303.300,2500.8022959,N,12132.4804638,E,4,53,0.53,16.874,M,15.25,M,1,3335*44
$GNRMC,040303.300,A,2500.8022959,N,12132.4804638,E,0.13,260.95,030324,,,R,V*1E
$GPHDT,,T*1B
$GNACCURACY,4.8*1A
$GNGGA,040303.400,2500.8022990,N,12132.4804581,E,4,53,0.53,16.841,M,15.25,M,1,3335*41
$GNRMC,040303.400,A,2500.8022990,N,12132.4804581,E,0.09,260.95,030324,,,R,V*16
$GPHDT,314.502,T*34
$GNACCURACY,4.8*1A
$GNGGA,040303.500,2500.8022947,N,12132.4804669,E,4,53,0.53,16.870,M,15.25,M,1,3335*4D
$GNRMC,040303.500,A,2500.8022947,N,12132.4804669,E,0.07,260.95,030324,,,R,V*16
$GPHDT,,T*1B
$GNACCURACY,4.8*1A
$GNGGA,040303.600,2500.8023014,N,12132.4804557,E,4,54,0.53,16.824,M,15.25,M,1,3335*48
$GNRMC,040303.600,A,2500.8023014,N,12132.4804557,E,0.05,260.95,030324,,,R,V*17
$GPHDT,314.654,T*34
$GNACCURACY,4.8*1A
$GNGGA,040303.700,2500.8022975,N,12132.4804461,E,4,54,0.53,16.791,M,15.25,M,0,3335*42
$GNRMC,040303.700,A,2500.8022975,N,12132.4804461,E,0.07,260.95,030324,,,R,V*1F
$GPHDT,,T*1B
$GNACCURACY,4.8*1A
$GNGGA,040303.800,2500.8022964,N,12132.4804514,E,4,54,0.53,16.780,M,15.25,M,0,3335*4E
$GNRMC,040303.800,A,2500.8022964,N,12132.4804514,E,0.11,260.95,030324,,,R,V*14
$GPHDT,314.723,T*35
$GNACCURACY,4.8*1A
$GNGGA,040303.900,2500.8022964,N,12132.4804507,E,4,54,0.53,16.801,M,15.25,M,0,3335*4B
$GNRMC,040303.900,A,2500.8022964,N,12132.4804507,E,0.04,260.95,030324,,,R,V*13
$GPHDT,,T*1B
$GNACCURACY,4.8*1A
$GNGGA,040304.000,2500.8022994,N,12132.4804524,E,4,54,0.53,16.804,M,15.25,M,1,3335*4F
$GNRMC,040304.000,A,2500.8022994,N,12132.4804524,E,0.02,260.95,030324,,,R,V*15
$GPHDT,314.782,T*3E
$GNACCURACY,4.8*1A
$GNGGA,040304.100,2500.8023000,N,12132.4804543,E,4,54,0.53,16.801,M,15.25,M,1,3335*4F
$GNRMC,040304.100,A,2500.8023000,N,12132.4804543,E,0.02,260.95,030324,,,R,V*10
$GPHDT,,T*1B
$GNGSA,A,3,08,194,199,195,21,16,02,07,04,196,31,27,0.82,0.53,0.63,1*0C
$GNGSA,A,3,82,83,80,79,,,,,,,,,0.82,0.53,0.63,2*0C
$GNGSA,A,3,30,15,34,27,07,,,,,,,,0.82,0.53,0.63,3*08
$GNGSA,A,3,34,06,16,09,39,40,07,25,12,24,43,44,0.82,0.53,0.63,4*0E
$GNGSA,A,3,23,,,,,,,,,,,,0.82,0.53,0.63,4*0C
$GPGSV,4,1,15,08,71,321,47,194,63,048,37,199,60,167,29,50,60,167,31,1*64
$GPGSV,4,2,15,195,60,121,27,27,45,029,28,21,45,166,38,16,33,061,38,1*5C
$GPGSV,4,3,15,02,33,180,27,09,29,261,15,07,29,320,33,04,28,213,22,1*69
$GPGSV,4,4,15,196,20,173,18,26,15,088,19,31,11,139,20,1*63
$GPGSV,2,1,08,08,71,321,46,194,63,048,44,195,60,121,40,199,60,167,39,8*5F
$GPGSV,2,2,08,27,45,029,34,09,29,261,19,04,28,213,18,196,20,173,31,8*5E
$GLGSV,2,1,07,82,66,050,42,83,59,178,18,80,48,013,35,79,34,088,37,1*78
$GLGSV,2,2,07,81,18,028,,73,13,322,,70,09,256,,1*4F
$GAGSV,2,1,06,30,50,032,38,15,46,151,38,34,43,072,36,27,36,316,34,7*71
$GAGSV,2,2,06,07,34,234,27,02,16,081,18,7*70
$GAGSV,2,1,05,30,50,032,39,15,46,151,40,34,43,072,41,27,36,316,35,1*7B
$GAGSV,2,2,05,07,34,234,27,1*40
$GBGSV,4,1,15,34,83,073,43,06,79,218,40,16,76,194,37,09,75,291,41,1*75
$GBGSV,4,2,15,39,65,180,40,40,64,319,46,07,62,298,33,25,58,345,41,1*72
$GBGSV,4,3,15,12,51,043,32,24,49,097,47,43,44,213,31,44,27,040,22,1*76
$GBGSV,4,4,15,23,14,314,20,10,,,19,11,,,36,1*4E
$GBGSV,2,1,08,34,83,073,45,39,65,180,41,40,64,319,43,25,58,345,41,4*73
$GBGSV,2,2,08,24,49,097,44,43,44,213,23,44,27,040,25,23,14,314,22,4*7C
$GNACCURACY,4.8*1A
$PAIRSAT,1,25,2,0,201,3,0,200,4,0,221,5,0,200,6,0,200,7,0,201,8,0,221,9,0,200,10,0,200,11,0,200,16,0,1,21,0,1,24,0,200,25,0,200,26,0,200,27,0,221,28,0,200,29,0,200,30,0,200,31,0,201,32,0,200,194,0,621,195,0,21,196,0,420,199,0,221*6D
$PAIRSAT,2,23,65,0,200,66,0,200,67,0,200,68,0,200,69,0,200,70,0,200,72,0,200,73,0,200,74,0,200,75,0,200,76,0,200,77,0,200,78,0,200,79,0,201,80,0,201,81,0,200,82,0,201,83,0,201,84,0,200,85,0,200,86,0,200,87,0,200,88,0,200*55
$PAIRSAT,3,22,2,0,1000,3,0,1000,4,0,1000,7,0,1021,8,0,1000,9,0,1000,10,0,1000,11,0,1000,12,0,1200,13,0,1200,15,0,221,19,0,1200,21,0,200,24,0,200,25,0,200,26,0,200,27,0,221,30,0,1021,31,0,1000,33,0,1000,34,0,1021,36,0,1000*71
$PAIRSAT,4,41,1,0,200,2,0,200,3,0,600,4,0,200,5,0,200,6,0,201,7,0,1,9,0,1,12,0,1,16,0,1,19,0,600,20,0,600,21,0,600,22,0,600,23,0,621,24,0,621,25,0,621,26,0,600,27,0,600,28,0,600,29,0,600,30,0,600,32,0,400,33,0,400,34,0,421,35,0,400,36,0,400,37,0,400,38,0,400,39,0,421,40,0,421,41,0,400,42,0,400,43,0,421,44,0,421,45,0,400,46,0,400,59,0,400,60,0,400,61,0,400,62,0,400*5D
$PAIRDGP,6,2,4,7,9,16,21*4F
$GNGGA,040304.200,2500.8023002,N,12132.4804543,E,4,53,0.53,16.808,M,15.25,M,1,3335*40
$GNRMC,040304.200,A,2500.8023002,N,12132.4804543,E,0.03,260.95,030324,,,R,V*10
$GPHDT,315.475,T*34
$GNACCURACY,4.7*15
$GNGGA,040304.300,2500.8022995,N,12132.4804497,E,4,53,0.53,16.781,M,15.25,M,1,3335*41
$GNRMC,040304.300,A,2500.8022995,N,12132.4804497,E,0.04,260.95,030324,,,R,V*18
$GPHDT,,T*1B
$GNACCURACY,4.7*15
$GNGGA,040304.400,2500.8022994,N,12132.4804507,E,4,53,0.53,16.799,M,15.25,M,1,3335*46
$GNRMC,040304.400,A,2500.8022994,N,12132.4804507,E,0.03,260.95,030324,,,R,V*11
$GPHDT,314.951,T*3E
$GNACCURACY,4.7*15
$GNGGA,040304.500,2500.8023003,N,12132.4804522,E,4,53,0.53,16.774,M,15.25,M,0,3335*44
$GNRMC,040304.500,A,2500.8023003,N,12132.4804522,E,0.02,260.95,030324,,,R,V*10
$GPHDT,,T*1B
$GNACCURACY,4.7*15
$GNGGA,040304.600,2500.8022995,N,12132.4804584,E,4,53,0.53,16.802,M,15.25,M,0,3335*42
$GNRMC,040304.600,A,2500.8022995,N,12132.4804584,E,0.03,260.95,030324,,,R,V*19
$GPHDT,314.740,T*30
$GNACCURACY,4.7*15
$GNGGA,040304.700,2500.8022998,N,12132.4804584,E,4,53,0.53,16.823,M,15.25,M,0,3335*4D
$GNRMC,040304.700,A,2500.8022998,N,12132.4804584,E,0.04,260.95,030324,,,R,V*12
$GPHDT,,T*1B
$GNACCURACY,4.7*15
$GNGGA,040304.800,2500.8022980,N,12132.4804552,E,4,53,0.53,16.793,M,15.25,M,0,3335*44
$GNRMC,040304.800,A,2500.8022980,N,12132.4804552,E,0.07,260.95,030324,,,R,V*1C
$GPHDT,315.526,T*33
$GNACCURACY,4.8*1A
$GNGGA,040304.900,2500.8023005,N,12132.4804636,E,4,53,0.53,16.837,M,15.25,M,0,3335*40
$GNRMC,040304.900,A,2500.8023005,N,12132.4804636,E,0.06,260.95,030324,,,R,V*18
$GPHDT,,T*1B
$GNACCURACY,4.7*15
$GNGGA,040305.000,2500.8023015,N,12132.4804565,E,4,53,0.53,16.820,M,15.25,M,1,3335*4B
$GNRMC,040305.000,A,2500.8023015,N,12132.4804565,E,0.01,260.95,030324,,,R,V*13
$GPHDT,315.153,T*35
$GNACCURACY,4.7*15
$GNGGA,040305.100,2500.8022999,N,12132.4804561,E,4,53,0.53,16.827,M,15.25,M,1,3335*45
$GNRMC,040305.100,A,2500.8022999,N,12132.4804561,E,0.01,260.95,030324,,,R,V*1A
$GPHDT,,T*1B
$GNGSA,A,3,08,194,195,199,21,16,02,07,04,196,31,27,0.82,0.53,0.63,1*0C
$GNGSA,A,3,82,83,80,79,,,,,,,,,0.82,0.53,0.63,2*0C
$GNGSA,A,3,30,15,34,27,07,,,,,,,,0.82,0.53,0.63,3*08
$GNGSA,A,3,34,06,16,09,39,40,07,25,12,24,43,44,0.82,0.53,0.63,4*0E
$GNGSA,A,3,23,,,,,,,,,,,,0.82,0.53,0.63,4*0C
$GPGSV,4,1,15,08,71,321,47,194,63,048,37,195,60,121,30,199,60,167,31,1*56
$GPGSV,4,2,15,50,60,167,33,21,45,166,37,27,45,029,22,16,33,061,38,1*66
$GPGSV,4,3,15,02,33,180,26,09,29,261,16,07,29,320,32,04,28,213,23,1*6B
$GPGSV,4,4,15,196,20,173,18,26,15,088,21,31,11,139,23,1*6B
$GPGSV,3,1,09,08,71,321,47,194,63,048,44,195,60,121,40,199,60,167,40,8*50
$GPGSV,3,2,09,27,45,029,34,09,29,261,22,04,28,213,16,196,20,173,31,8*58
$GPGSV,3,3,09,26,15,088,13,8*56
$GLGSV,1,1,04,82,66,050,42,83,59,178,19,80,48,013,34,79,34,088,40,1*78
$GAGSV,2,1,06,30,50,032,38,15,46,151,39,34,43,072,35,27,36,316,34,7*73
$GAGSV,2,2,06,07,34,234,28,02,16,081,18,7*7F
$GAGSV,2,1,05,30,50,032,40,15,46,151,40,34,43,072,41,27,36,316,36,1*76
$GAGSV,2,2,05,07,34,234,29,1*4E
$GBGSV,4,1,15,34,83,073,43,06,79,218,40,16,76,194,36,09,75,291,42,1*77
$GBGSV,4,2,15,39,65,180,41,40,64,319,46,07,62,298,33,25,58,345,41,1*73
$GBGSV,4,3,15,12,51,043,31,24,49,097,47,43,44,213,32,44,27,040,23,1*77
$GBGSV,4,4,15,23,14,314,25,10,,,19,11,,,36,1*4B
$GBGSV,2,1,08,34,83,073,45,39,65,180,42,40,64,319,44,25,58,345,41,4*77
$GBGSV,2,2,08,24,49,097,44,43,44,213,26,44,27,040,25,23,14,314,22,4*79
$GNACCURACY,4.7*15
$PAIRSAT,1,25,2,0,201,3,0,200,4,0,221,5,0,200,6,0,200,7,0,201,8,0,221,9,0,200,10,0,200,11,0,200,16,0,1,21,0,1,24,0,200,25,0,200,26,0,200,27,0,221,28,0,200,29,0,200,30,0,200,31,0,201,32,0,200,194,0,621,195,0,21,196,0,420,199,0,221*6D
$PAIRSAT,2,23,65,0,200,66,0,200,67,0,200,68,0,200,69,0,200,70,0,200,72,0,200,73,0,200,74,0,200,75,0,200,76,0,200,77,0,200,78,0,200,79,0,201,80,0,201,81,0,200,82,0,201,83,0,201,84,0,200,85,0,200,86,0,200,87,0,200,88,0,200*55
$PAIRSAT,3,22,2,0,1000,3,0,1000,4,0,1000,7,0,1021,8,0,1000,9,0,1000,10,0,1000,11,0,1000,12,0,1200,13,0,1200,15,0,221,19,0,1200,21,0,200,24,0,200,25,0,200,26,0,200,27,0,221,30,0,1021,31,0,1000,33,0,1000,34,0,1021,36,0,1000*71
$PAIRSAT,4,41,1,0,200,2,0,200,3,0,600,4,0,200,5,0,200,6,0,201,7,0,1,9,0,1,12,0,1,16,0,1,19,0,600,20,0,600,21,0,600,22,0,600,23,0,621,24,0,621,25,0,621,26,0,600,27,0,600,28,0,600,29,0,600,30,0,600,32,0,400,33,0,400,34,0,421,35,0,400,36,0,400,37,0,400,38,0,400,39,0,421,40,0,421,41,0,400,42,0,400,43,0,421,44,0,421,45,0,400,46,0,400,59,0,400,60,0,400,61,0,400,62,0,400*5D
$PAIRDGP,6,2,4,7,9,16,21*4F
$GNGGA,040305.200,2500.8023004,N,12132.4804588,E,4,53,0.53,16.848,M,15.25,M,1,3335*44
$GNRMC,040305.200,A,2500.8023004,N,12132.4804588,E,0.01,260.95,030324,,,R,V*12
$GPHDT,315.191,T*3B
$GNACCURACY,4.7*15
$GNGGA,040305.300,2500.8023005,N,12132.4804637,E,4,53,0.53,16.856,M,15.25,M,1,3335*4C
$GNRMC,040305.300,A,2500.8023005,N,12132.4804637,E,0.01,260.95,030324,,,R,V*15
$GPHDT,,T*1B
$GNACCURACY,4.7*15
$GNGGA,040305.400,2500.8022995,N,12132.4804592,E,4,53,0.53,16.838,M,15.25,M,1,3335*4E
$GNRMC,040305.400,A,2500.8022995,N,12132.4804592,E,0.02,260.95,030324,,,R,V*1C
$GPHDT,315.517,T*31
$GNACCURACY,4.8*1A
$GNGGA,040305.500,2500.8023049,N,12132.4804627,E,4,53,0.53,16.824,M,15.25,M,1,3335*46
$GNRMC,040305.500,A,2500.8023049,N,12132.4804627,E,0.01,260.95,030324,,,R,V*1A
$GPHDT,,T*1B
$GNACCURACY,4.8*1A
$GNGGA,040305.600,2500.8023012,N,12132.4805190,E,4,53,0.53,17.275,M,15.25,M,1,3335*4E
$GNRMC,040305.600,A,2500.8023012,N,12132.4805190,E,0.01,260.95,030324,,,R,V*1D
$GPHDT,316.108,T*38
$GNACCURACY,4.8*1A
$GNGGA,040305.700,2500.8023028,N,12132.4805316,E,4,53,0.53,17.439,M,15.25,M,0,3335*45
$GNRMC,040305.700,A,2500.8023028,N,12132.4805316,E,0.01,260.95,030324,,,R,V*19
$GPHDT,,T*1B
$GNACCURACY,4.8*1A
$GNGGA,040305.800,2500.8023018,N,12132.4805281,E,4,53,0.53,17.390,M,15.25,M,0,3335*42
$GNRMC,040305.800,A,2500.8023018,N,12132.4805281,E,0.08,260.95,030324,,,R,V*13
$GPHDT,316.109,T*39
$GNACCURACY,4.8*1A
$GNGGA,040305.900,2500.8023023,N,12132.4805305,E,4,53,0.53,17.410,M,15.25,M,0,3335*49
$GNRMC,040305.900,A,2500.8023023,N,12132.4805305,E,0.04,260.95,030324,,,R,V*1B
$GPHDT,,T*1B
$GNACCURACY,4.8*1A
$GNGGA,040306.000,2500.8023000,N,12132.4804890,E,4,53,0.53,17.299,M,15.25,M,1,3335*42
$GNRMC,040306.000,A,2500.8023000,N,12132.4804890,E,0.05,260.95,030324,,,R,V*17
$GPHDT,316.270,T*34
$GNACCURACY,4.8*1A
$GNGGA,040306.100,2500.8022953,N,12132.4804926,E,4,53,0.53,17.357,M,15.25,M,1,3335*42
$GNRMC,040306.100,A,2500.8022953,N,12132.4804926,E,0.05,260.95,030324,,,R,V*14
$GPHDT,,T*1B
$GNGSA,A,3,08,194,195,199,21,16,02,07,04,196,31,27,0.82,0.53,0.63,1*0C
$GNGSA,A,3,82,83,80,79,,,,,,,,,0.82,0.53,0.63,2*0C
$GNGSA,A,3,30,15,34,27,07,,,,,,,,0.82,0.53,0.63,3*08
$GNGSA,A,3,34,06,16,09,39,40,07,25,12,24,43,44,0.82,0.53,0.63,4*0E
$GNGSA,A,3,23,,,,,,,,,,,,0.82,0.53,0.63,4*0C
$GPGSV,4,1,15,08,71,321,47,194,63,048,36,195,60,121,31,199,60,167,32,1*55
$GPGSV,4,2,15,50,60,167,33,21,45,166,37,27,45,029,21,16,33,061,36,1*6B
$GPGSV,4,3,15,02,33,180,26,09,29,261,16,07,29,320,30,04,28,213,26,1*6C
$GPGSV,4,4,15,196,20,173,17,26,15,088,21,31,11,139,23,1*64
$GPGSV,3,1,09,08,71,321,46,194,63,048,44,195,60,121,40,199,60,167,40,8*51
$GPGSV,3,2,09,27,45,029,32,09,29,261,21,04,28,213,16,196,20,173,32,8*5E
$GPGSV,3,3,09,26,15,088,21,8*57
$GLGSV,1,1,04,82,66,050,42,83,59,178,19,80,48,013,36,79,34,088,39,1*74
$GAGSV,2,1,06,30,50,032,40,15,46,151,39,34,43,072,37,27,36,316,34,7*7E
$GAGSV,2,2,06,07,34,234,27,02,16,081,18,7*70
$GAGSV,2,1,05,30,50,032,39,15,46,151,40,34,43,072,41,27,36,316,34,1*7A
$GAGSV,2,2,05,07,34,234,29,1*4E
$GBGSV,4,1,15,34,83,073,43,06,79,218,40,16,76,194,36,09,75,291,42,1*77
$GBGSV,4,2,15,39,65,180,41,40,64,319,46,07,62,298,32,25,58,345,40,1*73
$GBGSV,4,3,15,12,51,043,31,24,49,097,47,43,44,213,32,44,27,040,24,1*70
$GBGSV,4,4,15,23,14,314,21,10,,,21,11,,,36,1*44
$GBGSV,2,1,08,34,83,073,45,39,65,180,41,40,64,319,43,25,58,345,41,4*73
$GBGSV,2,2,08,24,49,097,44,43,44,213,27,44,27,040,27,23,14,314,23,4*7B
$GNACCURACY,4.8*1A
$PAIRSAT,1,25,2,0,201,3,0,200,4,0,221,5,0,200,6,0,200,7,0,201,8,0,221,9,0,200,10,0,200,11,0,200,16,0,1,21,0,1,24,0,200,25,0,200,26,0,200,27,0,221,28,0,200,29,0,200,30,0,200,31,0,201,32,0,200,194,0,621,195,0,21,196,0,420,199,0,221*6D
$PAIRSAT,2,23,65,0,200,66,0,200,67,0,200,68,0,200,69,0,200,70,0,200,72,0,200,73,0,200,74,0,200,75,0,200,76,0,200,77,0,200,78,0,200,79,0,201,80,0,201,81,0,200,82,0,201,83,0,201,84,0,200,85,0,200,86,0,200,87,0,200,88,0,200*55
$PAIRSAT,3,22,2,0,1000,3,0,1000,4,0,1000,7,0,1021,8,0,1000,9,0,1000,10,0,1000,11,0,1000,12,0,1200,13,0,1200,15,0,221,19,0,1200,21,0,200,24,0,200,25,0,200,26,0,200,27,0,221,30,0,1021,31,0,1000,33,0,1000,34,0,1021,36,0,1000*71
$PAIRSAT,4,41,1,0,200,2,0,200,3,0,600,4,0,200,5,0,200,6,0,201,7,0,1,9,0,1,12,0,1,16,0,1,19,0,600,20,0,600,21,0,600,22,0,600,23,0,621,24,0,621,25,0,621,26,0,600,27,0,600,28,0,600,29,0,600,30,0,600,32,0,400,33,0,400,34,0,421,35,0,400,36,0,400,37,0,400,38,0,400,39,0,421,40,0,421,41,0,400,42,0,400,43,0,421,44,0,421,45,0,400,46,0,400,59,0,400,60,0,400,61,0,400,62,0,400*5D
$PAIRDGP,6,2,4,7,9,16,21*4F
$GNGGA,040306.200,2500.8022974,N,12132.4804957,E,4,53,0.53,17.388,M,15.25,M,1,3335*40
$GNRMC,040306.200,A,2500.8022974,N,12132.4804957,E,0.04,260.95,030324,,,R,V*15
$GPHDT,316.663,T*32
$GNACCURACY,4.7*15
$GNGGA,040306.300,2500.8022953,N,12132.4804917,E,4,53,0.53,17.367,M,15.25,M,1,3335*41
$GNRMC,040306.300,A,2500.8022953,N,12132.4804917,E,0.04,260.95,030324,,,R,V*15
$GPHDT,,T*1B
$GNACCURACY,4.7*15
$GNGGA,040306.400,2500.8022983,N,12132.4804951,E,4,53,0.53,17.367,M,15.25,M,1,3335*49
$GNRMC,040306.400,A,2500.8022983,N,12132.4804951,E,0.03,260.95,030324,,,R,V*1A
$GPHDT,316.366,T*32
$GNACCURACY,4.7*15
$GNGGA,040306.500,2500.8022942,N,12132.4804925,E,4,53,0.53,17.353,M,15.25,M,0,3335*40
$GNRMC,040306.500,A,2500.8022942,N,12132.4804925,E,0.03,260.95,030324,,,R,V*15
$GPHDT,,T*1B
$GNACCURACY,4.7*15
$GNGGA,040306.600,2500.8022969,N,12132.4804926,E,4,53,0.53,17.332,M,15.25,M,0,3335*4E
$GNRMC,040306.600,A,2500.8022969,N,12132.4804926,E,0.03,260.95,030324,,,R,V*1C
$GPHDT,315.128,T*39
$GNACCURACY,4.7*15
$GNGGA,040306.700,2500.8022947,N,12132.4804885,E,4,53,0.53,17.314,M,15.25,M,0,3335*4F
$GNRMC,040306.700,A,2500.8022947,N,12132.4804885,E,0.09,260.95,030324,,,R,V*13
$GPHDT,,T*1B
$GNACCURACY,4.7*15
$GNGGA,040306.800,2500.8022956,N,12132.4804884,E,4,53,0.53,17.337,M,15.25,M,0,3335*40
$GNRMC,040306.800,A,2500.8022956,N,12132.4804884,E,0.05,260.95,030324,,,R,V*11
$GPHDT,314.934,T*3D
$GNACCURACY,4.7*15
$GNGGA,040306.900,2500.8022938,N,12132.4804871,E,4,53,0.53,17.342,M,15.25,M,0,3335*41
$GNRMC,040306.900,A,2500.8022938,N,12132.4804871,E,0.14,260.95,030324,,,R,V*12
$GPHDT,,T*1B
$GNACCURACY,4.7*15
$GNGGA,040307.000,2500.8022940,N,12132.4804938,E,4,53,0.53,17.351,M,15.25,M,1,3335*49
$GNRMC,040307.000,A,2500.8022940,N,12132.4804938,E,0.03,260.95,030324,,,R,V*1F
$GPHDT,315.309,T*38
$GNACCURACY,4.7*15
$GNGGA,040307.100,2500.8022947,N,12132.4804887,E,4,53,0.53,17.347,M,15.25,M,1,3335*4D
$GNRMC,040307.100,A,2500.8022947,N,12132.4804887,E,0.06,260.95,030324,,,R,V*19
$GPHDT,,T*1B
$GNGSA,A,3,08,194,199,195,21,16,02,07,04,196,31,27,0.82,0.53,0.63,1*0C
$GNGSA,A,3,82,83,80,79,,,,,,,,,0.82,0.53,0.63,2*0C
$GNGSA,A,3,30,15,34,27,07,,,,,,,,0.82,0.53,0.63,3*08
$GNGSA,A,3,34,06,16,09,39,40,07,25,12,24,43,44,0.82,0.53,0.63,4*0E
$GNGSA,A,3,23,,,,,,,,,,,,0.82,0.53,0.63,4*0C
$GPGSV,4,1,15,08,71,322,47,194,63,048,37,199,60,167,32,195,60,121,30,1*56
$GPGSV,4,2,15,50,60,167,33,21,45,166,37,27,45,029,20,16,33,061,38,1*64
$GPGSV,4,3,15,02,33,180,29,09,29,261,16,07,29,320,30,04,28,213,20,1*65
$GPGSV,4,4,15,196,20,173,20,26,15,088,21,31,11,139,26,1*65
$GPGSV,3,1,09,08,71,322,46,194,63,048,44,195,60,121,40,199,60,167,38,8*5D
$GPGSV,3,2,09,27,45,029,31,09,29,261,20,04,28,213,17,196,20,173,32,8*5D
$GPGSV,3,3,09,26,15,088,28,8*5E
$GLGSV,1,1,04,82,66,050,42,83,59,178,18,80,48,013,36,79,34,088,40,1*7B
$GAGSV,2,1,07,30,50,032,41,15,46,151,39,34,43,072,35,27,36,316,34,7*7C
$GAGSV,2,2,07,07,34,234,26,02,16,081,17,36,05,035,,7*49
$GAGSV,2,1,05,30,50,032,39,15,46,151,41,34,43,072,41,27,36,316,34,1*7B
$GAGSV,2,2,05,07,34,234,29,1*4E
$GBGSV,4,1,16,34,83,073,43,06,79,218,40,16,76,194,36,09,75,291,42,1*74
$GBGSV,4,2,16,39,65,180,40,40,64,319,45,07,62,298,33,25,58,345,40,1*73
$GBGSV,4,3,16,12,51,043,32,24,49,097,47,43,44,213,33,44,27,040,26,1*73
$GBGSV,4,4,16,23,14,314,21,26,05,121,,10,,,20,11,,,36,1*75
$GBGSV,2,1,08,34,83,073,45,39,65,180,41,40,64,319,43,25,58,345,41,4*73
$GBGSV,2,2,08,24,49,097,44,43,44,213,28,44,27,040,26,23,14,314,23,4*75
$GNACCURACY,4.6*14
$PAIRSAT,1,25,2,0,201,3,0,200,4,0,221,5,0,200,6,0,200,7,0,201,8,0,221,9,0,200,10,0,200,11,0,200,16,0,1,21,0,1,24,0,200,25,0,200,26,0,200,27,0,221,28,0,200,29,0,200,30,0,200,31,0,201,32,0,200,194,0,621,195,0,21,196,0,420,199,0,221*6D
$PAIRSAT,2,23,65,0,200,66,0,200,67,0,200,68,0,200,69,0,200,70,0,200,72,0,200,73,0,200,74,0,200,75,0,200,76,0,200,77,0,200,78,0,200,79,0,201,80,0,201,81,0,200,82,0,201,83,0,201,84,0,200,85,0,200,86,0,200,87,0,200,88,0,200*55
$PAIRSAT,3,22,2,0,1000,3,0,1000,4,0,1000,7,0,1021,8,0,1000,9,0,1000,10,0,1000,11,0,1000,12,0,1200,13,0,1200,15,0,221,19,0,1200,21,0,200,24,0,200,25,0,200,26,0,200,27,0,221,30,0,1021,31,0,1000,33,0,1000,34,0,1021,36,0,1000*71
$PAIRSAT,4,41,1,0,200,2,0,200,3,0,600,4,0,200,5,0,200,6,0,201,7,0,1,9,0,1,12,0,1,16,0,1,19,0,600,20,0,600,21,0,600,22,0,600,23,0,621,24,0,621,25,0,621,26,0,600,27,0,600,28,0,600,29,0,600,30,0,600,32,0,400,33,0,400,34,0,421,35,0,400,36,0,400,37,0,400,38,0,400,39,0,421,40,0,421,41,0,400,42,0,400,43,0,421,44,0,421,45,0,400,46,0,400,59,0,400,60,0,400,61,0,400,62,0,400*5D
$PAIRDGP,6,2,4,7,9,16,21*4F
$GNGGA,040307.200,2500.8022929,N,12132.4804917,E,4,53,0.53,17.373,M,15.25,M,1,3335*49
$GNRMC,040307.200,A,2500.8022929,N,12132.4804917,E,0.02,260.95,030324,,,R,V*1E
$GPHDT,316.164,T*32
$GNACCURACY,4.6*14
$GNGGA,040307.300,2500.8022928,N,12132.4804943,E,4,53,0.53,17.376,M,15.25,M,1,3335*4D
$GNRMC,040307.300,A,2500.8022928,N,12132.4804943,E,0.03,260.95,030324,,,R,V*1E
$GPHDT,,T*1B
$GNACCURACY,4.6*14
$GNGGA,040307.400,2500.8022950,N,12132.4804927,E,4,53,0.53,17.361,M,15.25,M,1,3335*41
$GNRMC,040307.400,A,2500.8022950,N,12132.4804927,E,0.03,260.95,030324,,,R,V*14
$GPHDT,316.008,T*39
$GNACCURACY,4.7*15
$GNGGA,040307.500,2500.8022974,N,12132.4804899,E,4,53,0.53,17.357,M,15.25,M,0,3335*46
$GNRMC,040307.500,A,2500.8022974,N,12132.4804899,E,0.03,260.95,030324,,,R,V*17
$GPHDT,,T*1B
$GNACCURACY,4.7*15
$GNGGA,040307.600,2500.8022981,N,12132.4804871,E,4,52,0.53,17.339,M,15.25,M,0,3335*40
$GNRMC,040307.600,A,2500.8022981,N,12132.4804871,E,0.03,260.95,030324,,,R,V*18
$GPHDT,316.219,T*3B
$GNACCURACY,4.7*15
$GNGGA,040307.700,2500.8022973,N,12132.4804893,E,4,52,0.53,17.351,M,15.25,M,0,3335*4E
$GNRMC,040307.700,A,2500.8022973,N,12132.4804893,E,0.08,260.95,030324,,,R,V*13
$GPHDT,,T*1B
$GNACCURACY,4.7*15
$GNGGA,040307.800,2500.8022978,N,12132.4804938,E,4,52,0.53,17.362,M,15.25,M,0,3335*4A
$GNRMC,040307.800,A,2500.8022978,N,12132.4804938,E,0.04,260.95,030324,,,R,V*1B
$GPHDT,316.056,T*32
$GNACCURACY,4.7*15
$GNGGA,040307.900,2500.8022965,N,12132.4804895,E,4,52,0.53,17.351,M,15.25,M,0,3335*41
$GNRMC,040307.900,A,2500.8022965,N,12132.4804895,E,0.04,260.95,030324,,,R,V*10
$GPHDT,,T*1B
$GNACCURACY,4.7*15
$GNGGA,040308.000,2500.8022955,N,12132.4804875,E,4,52,0.53,17.348,M,15.25,M,1,3335*43
$GNRMC,040308.000,A,2500.8022955,N,12132.4804875,E,0.04,260.95,030324,,,R,V*1B
$GPHDT,316.036,T*34
$GNACCURACY,4.7*15
$GNGGA,040308.100,2500.8022980,N,12132.4804925,E,4,52,0.53,17.364,M,15.25,M,1,3335*40
$GNRMC,040308.100,A,2500.8022980,N,12132.4804925,E,0.04,260.95,030324,,,R,V*16
$GPHDT,,T*1B
$GNGSA,A,3,08,194,199,195,21,16,02,07,04,196,31,27,0.82,0.53,0.63,1*0C
$GNGSA,A,3,82,83,80,79,,,,,,,,,0.82,0.53,0.63,2*0C
$GNGSA,A,3,30,15,34,27,07,,,,,,,,0.82,0.53,0.63,3*08
$GNGSA,A,3,34,06,16,09,39,40,07,25,12,24,43,44,0.82,0.53,0.63,4*0E
$GNGSA,A,3,23,,,,,,,,,,,,0.82,0.53,0.63,4*0C
$GPGSV,4,1,15,08,71,322,47,194,63,048,38,199,60,167,31,50,60,167,32,1*62
$GPGSV,4,2,15,195,60,121,32,27,45,029,25,21,45,166,37,16,33,061,38,1*5A
$GPGSV,4,3,15,02,33,180,26,09,29,261,16,07,29,320,32,04,28,213,20,1*68
$GPGSV,4,4,15,196,20,173,21,26,15,088,21,31,11,139,27,1*65
$GPGSV,3,1,09,08,71,322,46,194,63,048,44,195,60,121,40,199,60,167,38,8*5D
$GPGSV,3,2,09,27,45,029,31,09,29,261,19,04,28,213,16,196,20,173,32,8*56
$GPGSV,3,3,09,26,15,088,27,8*51
$GLGSV,1,1,04,82,66,050,41,83,59,178,18,80,48,013,35,79,34,088,39,1*75
$GAGSV,2,1,07,30,50,032,41,15,46,151,39,34,43,072,36,27,36,316,34,7*7F
$GAGSV,2,2,07,07,34,234,26,02,16,081,17,36,05,035,,7*49
$GAGSV,2,1,05,30,50,032,39,15,46,151,41,34,43,072,41,27,36,316,35,1*7A
$GAGSV,2,2,05,07,34,234,28,1*4F
$GBGSV,4,1,15,34,83,073,43,06,79,218,40,16,76,194,36,09,75,291,42,1*77
$GBGSV,4,2,15,39,65,180,40,40,64,319,45,07,62,298,34,25,58,345,40,1*77
$GBGSV,4,3,15,12,51,043,31,24,49,097,47,43,44,213,33,44,27,040,26,1*73
$GBGSV,4,4,15,23,14,314,18,10,,,22,11,,,36,1*4D
$GBGSV,2,1,08,34,83,073,45,39,65,180,41,40,64,319,43,25,58,345,41,4*73
$GBGSV,2,2,08,24,49,097,44,43,44,213,27,44,27,040,26,23,14,314,22,4*7B
$GNACCURACY,4.7*15
$PAIRSAT,1,25,2,0,201,3,0,200,4,0,221,5,0,200,6,0,200,7,0,201,8,0,221,9,0,200,10,0,200,11,0,200,16,0,1,21,0,1,24,0,200,25,0,200,26,0,200,27,0,221,28,0,200,29,0,200,30,0,200,31,0,201,32,0,200,194,0,621,195,0,21,196,0,420,199,0,221*6D
$PAIRSAT,2,23,65,0,200,66,0,200,67,0,200,68,0,200,69,0,200,70,0,200,72,0,200,73,0,200,74,0,200,75,0,200,76,0,200,77,0,200,78,0,200,79,0,201,80,0,201,81,0,200,82,0,201,83,0,201,84,0,200,85,0,200,86,0,200,87,0,200,88,0,200*55
$PAIRSAT,3,22,2,0,1000,3,0,1000,4,0,1000,7,0,1021,8,0,1000,9,0,1000,10,0,1000,11,0,1000,12,0,1200,13,0,1200,15,0,221,19,0,1200,21,0,200,24,0,200,25,0,200,26,0,200,27,0,221,30,0,1021,31,0,1000,33,0,1000,34,0,1021,36,0,1000*71
$PAIRSAT,4,41,1,0,200,2,0,200,3,0,600,4,0,200,5,0,200,6,0,201,7,0,1,9,0,1,12,0,1,16,0,1,19,0,600,20,0,600,21,0,600,22,0,600,23,0,621,24,0,621,25,0,621,26,0,600,27,0,600,28,0,600,29,0,600,30,0,600,32,0,400,33,0,400,34,0,421,35,0,400,36,0,400,37,0,400,38,0,400,39,0,421,40,0,421,41,0,400,42,0,400,43,0,421,44,0,421,45,0,400,46,0,400,59,0,400,60,0,400,61,0,400,62,0,400*5D
$PAIRDGP,6,2,4,7,9,16,21*4F
$GNGGA,040308.200,2500.8022975,N,12132.4804879,E,4,52,0.53,17.350,M,15.25,M,1,3335*46
$GNRMC,040308.200,A,2500.8022975,N,12132.4804879,E,0.03,260.95,030324,,,R,V*10
$GPHDT,316.345,T*33
$GNACCURACY,4.7*15
$GNGGA,040308.300,2500.8022963,N,12132.4804847,E,4,52,0.53,17.338,M,15.25,M,1,3335*43
$GNRMC,040308.300,A,2500.8022963,N,12132.4804847,E,0.04,260.95,030324,,,R,V*1C
$GPHDT,,T*1B
$GNACCURACY,4.7*15
$GNGGA,040308.400,2500.8022960,N,12132.4804865,E,4,52,0.53,17.349,M,15.25,M,1,3335*41
$GNRMC,040308.400,A,2500.8022960,N,12132.4804865,E,0.03,260.95,030324,,,R,V*1F
$GPHDT,316.255,T*33
$GNACCURACY,4.7*15
$GNGGA,040308.500,2500.8022987,N,12132.4804911,E,4,52,0.53,17.363,M,15.25,M,1,3335*43
$GNRMC,040308.500,A,2500.8022987,N,12132.4804911,E,0.03,260.95,030324,,,R,V*15
$GPHDT,,T*1B
$GNACCURACY,4.7*15
$GNGGA,040308.600,2500.8022928,N,12132.4804931,E,4,52,0.53,17.400,M,15.25,M,0,3335*44
$GNRMC,040308.600,A,2500.8022928,N,12132.4804931,E,0.03,260.95,030324,,,R,V*11
$GPHDT,315.511,T*37
$GNACCURACY,4.7*15
$GNGGA,040308.700,2500.8022929,N,12132.4804887,E,4,52,0.53,17.380,M,15.25,M,0,3335*47
$GNRMC,040308.700,A,2500.8022929,N,12132.4804887,E,0.03,260.95,030324,,,R,V*1D
$GPHDT,,T*1B
$GNACCURACY,4.7*15
$GNGGA,040308.800,2500.8022930,N,12132.4804887,E,4,53,0.53,17.364,M,15.25,M,0,3335*4B
$GNRMC,040308.800,A,2500.8022930,N,12132.4804887,E,0.03,260.95,030324,,,R,V*1A
$GPHDT,317.028,T*3A
$GNACCURACY,4.7*15
$GNGGA,040308.900,2500.8022931,N,12132.4804867,E,4,53,0.53,17.351,M,15.25,M,0,3335*43
$GNRMC,040308.900,A,2500.8022931,N,12132.4804867,E,0.05,260.95,030324,,,R,V*12
$GPHDT,,T*1B
$GNACCURACY,4.7*15
$GNGGA,040309.000,2500.8022940,N,12132.4804923,E,4,53,0.53,17.374,M,15.25,M,1,3335*4A
$GNRMC,040309.000,A,2500.8022940,N,12132.4804923,E,0.02,260.95,030324,,,R,V*1A
$GPHDT,316.067,T*30
$GNACCURACY,4.7*15
$GNGGA,040309.100,2500.8022914,N,12132.4804898,E,4,53,0.53,17.372,M,15.25,M,1,3335*4D
$GNRMC,040309.100,A,2500.8022914,N,12132.4804898,E,0.02,260.95,030324,,,R,V*1B
$GPHDT,,T*1B
$GNGSA,A,3,08,194,199,195,21,16,02,07,04,196,31,27,0.82,0.53,0.63,1*0C
$GNGSA,A,3,82,83,80,79,,,,,,,,,0.82,0.53,0.63,2*0C
$GNGSA,A,3,30,15,34,27,07,,,,,,,,0.82,0.53,0.63,3*08
$GNGSA,A,3,34,06,16,09,39,40,07,25,12,24,43,44,0.82,0.53,0.63,4*0E
$GNGSA,A,3,23,,,,,,,,,,,,0.82,0.53,0.63,4*0C
$GPGSV,4,1,15,08,71,322,47,194,63,048,39,199,60,167,31,50,60,167,33,1*62
$GPGSV,4,2,15,195,60,121,26,27,45,029,23,21,45,166,38,16,33,061,38,1*56
$GPGSV,4,3,15,02,33,180,25,09,29,261,18,07,29,320,32,04,28,213,23,1*66
$GPGSV,4,4,15,196,20,172,21,26,15,088,23,31,11,139,27,1*66
$GPGSV,3,1,09,08,71,322,46,194,63,048,44,195,60,121,40,199,60,167,39,8*5C
$GPGSV,3,2,09,27,45,029,31,09,29,261,18,04,28,213,15,196,20,172,33,8*54
$GPGSV,3,3,09,26,15,088,28,8*5E
$GLGSV,1,1,04,82,66,050,41,83,59,178,18,80,48,013,35,79,34,088,39,1*75
$GAGSV,2,1,07,30,50,032,41,15,46,151,39,34,43,072,35,27,36,316,34,7*7C
$GAGSV,2,2,07,07,34,234,24,02,16,081,16,36,05,035,,7*4A
$GAGSV,2,1,05,30,50,032,40,15,46,151,41,34,43,072,41,27,36,316,35,1*74
$GAGSV,2,2,05,07,34,234,29,1*4E
$GBGSV,4,1,15,34,83,073,43,06,79,218,40,16,76,194,36,09,75,291,42,1*77
$GBGSV,4,2,15,39,65,180,41,40,64,319,45,07,62,298,34,25,58,345,41,1*77
$GBGSV,4,3,15,12,51,043,30,24,49,097,47,43,44,213,33,44,27,040,25,1*71
$GBGSV,4,4,15,23,14,314,21,10,,,24,11,,,36,1*41
$GBGSV,2,1,08,34,83,073,45,39,65,180,41,40,64,319,43,25,58,345,41,4*73
$GBGSV,2,2,08,24,49,097,44,43,44,213,26,44,27,040,25,23,14,314,24,4*7F
$GNACCURACY,4.7*15
$PAIRSAT,1,25,2,0,201,3,0,200,4,0,221,5,0,200,6,0,200,7,0,201,8,0,221,9,0,200,10,0,200,11,0,200,16,0,1,21,0,1,24,0,200,25,0,200,26,0,200,27,0,221,28,0,200,29,0,200,30,0,200,31,0,201,32,0,200,194,0,621,195,0,21,196,0,420,199,0,221*6D
$PAIRSAT,2,23,65,0,200,66,0,200,67,0,200,68,0,200,69,0,200,70,0,200,72,0,200,73,0,200,74,0,200,75,0,200,76,0,200,77,0,200,78,0,200,79,0,201,80,0,201,81,0,200,82,0,201,83,0,201,84,0,200,85,0,200,86,0,200,87,0,200,88,0,200*55
$PAIRSAT,3,22,2,0,1000,3,0,1000,4,0,1000,7,0,1021,8,0,1000,9,0,1000,10,0,1000,11,0,1000,12,0,1200,13,0,1200,15,0,221,19,0,1200,21,0,200,24,0,200,25,0,200,26,0,200,27,0,221,30,0,1021,31,0,1000,33,0,1000,34,0,1021,36,0,1000*71
$PAIRSAT,4,41,1,0,200,2,0,200,3,0,600,4,0,200,5,0,200,6,0,201,7,0,1,9,0,1,12,0,1,16,0,1,19,0,600,20,0,600,21,0,600,22,0,600,23,0,621,24,0,621,25,0,621,26,0,600,27,0,600,28,0,600,29,0,600,30,0,600,32,0,400,33,0,400,34,0,421,35,0,400,36,0,400,37,0,400,38,0,400,39,0,421,40,0,421,41,0,400,42,0,400,43,0,421,44,0,421,45,0,400,46,0,400,59,0,400,60,0,400,61,0,400,62,0,400*5D
$PAIRDGP,6,2,4,7,9,16,21*4F
$GNGGA,040309.200,2500.8022921,N,12132.4804909,E,4,53,0.53,17.365,M,15.25,M,1,3335*47
$GNRMC,040309.200,A,2500.8022921,N,12132.4804909,E,0.01,260.95,030324,,,R,V*14
$GPHDT,316.561,T*33
$GNACCURACY,4.7*15
$GNGGA,040309.300,2500.8022917,N,12132.4804910,E,4,53,0.53,17.377,M,15.25,M,1,3335*48
$GNRMC,040309.300,A,2500.8022917,N,12132.4804910,E,0.02,260.95,030324,,,R,V*1B
$GPHDT,,T*1B
$GNACCURACY,4.7*15
$GNGGA,040309.400,2500.8022943,N,12132.4804879,E,4,53,0.53,17.354,M,15.25,M,1,3335*41
$GNRMC,040309.400,A,2500.8022943,N,12132.4804879,E,0.08,260.95,030324,,,R,V*19
$GPHDT,316.371,T*34
$GNACCURACY,4.7*15
$GNGGA,040309.500,2500.8022929,N,12132.4804897,E,4,53,0.53,17.374,M,15.25,M,0,3335*4F
$GNRMC,040309.500,A,2500.8022929,N,12132.4804897,E,0.04,260.95,030324,,,R,V*18
$GPHDT,,T*1B
$GNACCURACY,4.7*15
$GNGGA,040309.600,2500.8022923,N,12132.4804893,E,4,53,0.53,17.371,M,15.25,M,0,3335*47
$GNRMC,040309.600,A,2500.8022923,N,12132.4804893,E,0.08,260.95,030324,,,R,V*19
$GPHDT,316.218,T*3A
$GNACCURACY,4.7*15
$GNGGA,040309.700,2500.8022941,N,12132.4804875,E,4,53,0.53,17.366,M,15.25,M,0,3335*4C
$GNRMC,040309.700,A,2500.8022941,N,12132.4804875,E,0.06,260.95,030324,,,R,V*1A
$GPHDT,,T*1B
$GNACCURACY,4.7*15
$GNGGA,040309.800,2500.8022932,N,12132.4804833,E,4,53,0.53,17.349,M,15.25,M,0,3335*48
$GNRMC,040309.800,A,2500.8022932,N,12132.4804833,E,0.07,260.95,030324,,,R,V*12
$GPHDT,316.478,T*3A
$GNACCURACY,4.7*15
$GNGGA,040309.900,2500.8022948,N,12132.4804882,E,4,53,0.53,17.367,M,15.25,M,0,3335*42
$GNRMC,040309.900,A,2500.8022948,N,12132.4804882,E,0.04,260.95,030324,,,R,V*17
$GPHDT,,T*1B
$GNACCURACY,4.7*15
$GNGGA,040310.000,2500.8022955,N,12132.4804881,E,4,53,0.53,17.368,M,15.25,M,1,3335*42
$GNRMC,040310.000,A,2500.8022955,N,12132.4804881,E,0.01,260.95,030324,,,R,V*1C
$GPHDT,316.430,T*36
$GNACCURACY,4.7*15
$GNGGA,040310.100,2500.8022931,N,12132.4804929,E,4,53,0.53,17.391,M,15.25,M,1,3335*44
$GNRMC,040310.100,A,2500.8022931,N,12132.4804929,E,0.07,260.95,030324,,,R,V*1A
$GPHDT,,T*1B
$GNGSA,A,3,08,194,199,195,21,16,02,07,04,196,31,27,0.82,0.53,0.63,1*0C
$GNGSA,A,3,82,83,80,79,,,,,,,,,0.82,0.53,0.63,2*0C
$GNGSA,A,3,30,15,34,27,07,,,,,,,,0.82,0.53,0.63,3*08
$GNGSA,A,3,34,06,16,09,39,40,07,25,12,24,43,44,0.82,0.53,0.63,4*0E
$GNGSA,A,3,23,,,,,,,,,,,,0.82,0.53,0.63,4*0C
$GPGSV,4,1,15,08,71,322,47,194,63,048,39,199,60,167,31,195,60,121,26,1*5C
$GPGSV,4,2,15,50,60,167,33,21,45,166,38,27,45,029,23,16,33,061,38,1*68
$GPGSV,4,3,15,02,33,180,24,09,29,261,18,07,29,320,33,04,28,213,24,1*61
$GPGSV,4,4,15,196,20,172,22,26,15,088,24,31,11,139,24,1*61
$GPGSV,3,1,09,08,71,322,46,194,63,048,44,195,60,121,40,199,60,167,39,8*5C
$GPGSV,3,2,09,27,45,029,31,09,29,261,17,04,28,213,17,196,20,172,33,8*59
$GPGSV,3,3,09,26,15,088,28,8*5E
$GLGSV,2,1,05,82,66,050,41,83,59,178,18,80,48,013,37,79,34,088,39,1*75
$GLGSV,2,2,05,84,01,199,,1*41
$GAGSV,2,1,06,30,50,032,41,15,46,151,39,34,43,072,35,27,36,316,35,7*7C
$GAGSV,2,2,06,07,34,234,24,02,16,081,14,7*7F
$GAGSV,2,1,05,30,50,032,41,15,46,151,41,34,43,072,41,27,36,316,35,1*75
$GAGSV,2,2,05,07,34,234,30,1*46
$GBGSV,5,1,17,34,83,073,43,06,79,218,40,16,76,194,37,09,75,291,42,1*75
$GBGSV,5,2,17,39,65,180,41,40,64,319,45,07,62,298,35,25,58,345,41,1*75
$GBGSV,5,3,17,12,51,043,30,24,49,097,47,43,44,213,31,44,27,040,24,1*71
$GBGSV,5,4,17,23,14,314,21,33,03,212,,41,03,257,,10,,,26,1*41
$GBGSV,5,5,17,11,,,36,1*75
$GBGSV,2,1,08,34,83,073,45,39,65,180,41,40,64,319,43,25,58,345,41,4*73
$GBGSV,2,2,08,24,49,097,44,43,44,213,25,44,27,040,24,23,14,314,24,4*7D
$GNACCURACY,4.7*15
$PAIRSAT,1,25,2,0,201,3,0,200,4,0,221,5,0,200,6,0,200,7,0,201,8,0,221,9,0,200,10,0,200,11,0,200,16,0,1,21,0,1,24,0,200,25,0,200,26,0,200,27,0,221,28,0,200,29,0,200,30,0,200,31,0,201,32,0,200,194,0,621,195,0,21,196,0,420,199,0,221*6D
$PAIRSAT,2,23,65,0,200,66,0,200,67,0,200,68,0,200,69,0,200,70,0,200,72,0,200,73,0,200,74,0,200,75,0,200,76,0,200,77,0,200,78,0,200,79,0,201,80,0,201,81,0,200,82,0,201,83,0,201,84,0,200,85,0,200,86,0,200,87,0,200,88,0,200*55
$PAIRSAT,3,22,2,0,1000,3,0,1000,4,0,1000,7,0,1021,8,0,1000,9,0,1000,10,0,1000,11,0,1000,12,0,1200,13,0,1200,15,0,221,19,0,1200,21,0,200,24,0,200,25,0,200,26,0,200,27,0,221,30,0,1021,31,0,1000,33,0,1000,34,0,1021,36,0,1000*71
$PAIRSAT,4,41,1,0,200,2,0,200,3,0,600,4,0,200,5,0,200,6,0,201,7,0,1,9,0,1,12,0,1,16,0,1,19,0,600,20,0,600,21,0,600,22,0,600,23,0,621,24,0,621,25,0,621,26,0,600,27,0,600,28,0,600,29,0,600,30,0,600,32,0,400,33,0,400,34,0,421,35,0,400,36,0,400,37,0,400,38,0,400,39,0,421,40,0,421,41,0,400,42,0,400,43,0,421,44,0,421,45,0,400,46,0,400,59,0,400,60,0,400,61,0,400,62,0,400*5D
$PAIRDGP,6,2,4,7,9,16,21*4F
$GNGGA,040310.200,2500.8022961,N,12132.4804861,E,4,53,0.53,17.363,M,15.25,M,1,3335*42
$GNRMC,040310.200,A,2500.8022961,N,12132.4804861,E,0.02,260.95,030324,,,R,V*14
$GPHDT,316.012,T*32
$GNACCURACY,4.6*14
$GNGGA,040310.300,2500.8022964,N,12132.4804900,E,4,53,0.53,17.360,M,15.25,M,1,3335*43
$GNRMC,040310.300,A,2500.8022964,N,12132.4804900,E,0.03,260.95,030324,,,R,V*17
$GPHDT,,T*1B
$GNACCURACY,4.6*14
$GNGGA,040310.400,2500.8022955,N,12132.4804819,E,4,53,0.53,17.348,M,15.25,M,1,3335*45
$GNRMC,040310.400,A,2500.8022955,N,12132.4804819,E,0.02,260.95,030324,,,R,V*1A
$GPHDT,316.567,T*35
$GNACCURACY,4.6*14
$GNGGA,040310.500,2500.8022949,N,12132.4804920,E,4,53,0.53,17.392,M,15.25,M,1,3335*45
$GNRMC,040310.500,A,2500.8022949,N,12132.4804920,E,0.04,260.95,030324,,,R,V*1B
$GPHDT,,T*1B
$GNACCURACY,4.6*14
$GNGGA,040310.600,2500.8022949,N,12132.4804861,E,4,53,0.53,17.368,M,15.25,M,0,3335*46
$GNRMC,040310.600,A,2500.8022949,N,12132.4804861,E,0.04,260.95,030324,,,R,V*1C
$GPHDT,316.032,T*30
$GNACCURACY,4.6*14
$GNGGA,040310.700,2500.8022963,N,12132.4804886,E,4,53,0.53,17.368,M,15.25,M,0,3335*46
$GNRMC,040310.700,A,2500.8022963,N,12132.4804886,E,0.04,260.95,030324,,,R,V*1C
$GPHDT,,T*1B
$GNACCURACY,4.5*17
$GNGGA,040310.800,2500.8022959,N,12132.4804893,E,4,53,0.53,17.372,M,15.25,M,0,3335*4F
$GNRMC,040310.800,A,2500.8022959,N,12132.4804893,E,0.06,260.95,030324,,,R,V*1C
$GPHDT,315.793,T*3F
$GNACCURACY,4.6*14
$GNGGA,040310.900,2500.8022956,N,12132.4804939,E,4,53,0.53,17.395,M,15.25,M,0,3335*49
$GNRMC,040310.900,A,2500.8022956,N,12132.4804939,E,0.04,260.95,030324,,,R,V*11
$GPHDT,,T*1B
$GNACCURACY,4.6*14
$GNGGA,040311.000,2500.8022956,N,12132.4804885,E,4,53,0.53,17.372,M,15.25,M,1,3335*4F
$GNRMC,040311.000,A,2500.8022956,N,12132.4804885,E,0.04,260.95,030324,,,R,V*1F
$GPHDT,316.187,T*3F
$GNACCURACY,4.6*14
$GNGGA,040311.100,2500.8022982,N,12132.4804927,E,4,53,0.53,17.376,M,15.25,M,1,3335*4A
$GNRMC,040311.100,A,2500.8022982,N,12132.4804927,E,0.02,260.95,030324,,,R,V*18
$GPHDT,,T*1B
$GNGSA,A,3,08,194,199,195,21,16,02,07,04,196,31,27,0.82,0.53,0.63,1*0C
$GNGSA,A,3,82,83,80,79,,,,,,,,,0.82,0.53,0.63,2*0C
$GNGSA,A,3,30,15,34,27,07,,,,,,,,0.82,0.53,0.63,3*08
$GNGSA,A,3,34,06,16,09,39,40,07,25,12,24,43,44,0.82,0.53,0.63,4*0E
$GNGSA,A,3,23,,,,,,,,,,,,0.82,0.53,0.63,4*0C
$GPGSV,4,1,15,08,71,322,47,194,63,048,39,199,60,167,31,50,60,167,33,1*62
$GPGSV,4,2,15,195,60,121,28,27,45,029,23,21,45,166,37,16,33,061,38,1*57
$GPGSV,4,3,15,02,33,180,25,09,29,261,18,07,29,320,33,04,28,213,23,1*67
$GPGSV,4,4,15,196,20,172,24,26,15,088,25,31,11,139,24,1*66
$GPGSV,3,1,09,08,71,322,46,194,63,048,44,195,60,121,41,199,60,167,39,8*5D
$GPGSV,3,2,09,27,45,029,32,09,29,261,16,04,28,213,19,196,20,172,33,8*55
$GPGSV,3,3,09,26,15,088,29,8*5F
$GLGSV,2,1,05,82,66,050,41,83,59,178,18,80,48,013,36,79,34,088,39,1*74
$GLGSV,2,2,05,84,01,199,,1*41
$GAGSV,2,1,06,30,50,032,41,15,46,151,39,34,43,072,34,27,36,316,35,7*7D
$GAGSV,2,2,06,07,34,234,24,02,16,081,13,7*78
$GAGSV,2,1,05,30,50,032,41,15,46,151,41,34,43,072,41,27,36,316,35,1*75
$GAGSV,2,2,05,07,34,234,30,1*46
$GBGSV,4,1,15,34,83,073,43,06,79,218,40,16,76,194,37,09,75,291,42,1*76
$GBGSV,4,2,15,39,65,180,41,40,64,319,45,07,62,298,35,25,58,345,40,1*77
$GBGSV,4,3,15,12,51,043,31,24,49,097,47,43,44,213,32,44,27,040,26,1*72
$GBGSV,4,4,15,23,14,314,21,11,,,36,10,,,21,1*44
$GBGSV,2,1,08,34,83,073,45,39,65,180,41,40,64,319,43,25,58,345,41,4*73
$GBGSV,2,2,08,24,49,097,44,43,44,213,25,44,27,040,24,23,14,314,24,4*7D
$GNACCURACY,4.6*14
$PAIRSAT,1,25,2,0,201,3,0,200,4,0,221,5,0,200,6,0,200,7,0,201,8,0,221,9,0,200,10,0,200,11,0,200,16,0,1,21,0,1,24,0,200,25,0,200,26,0,200,27,0,221,28,0,200,29,0,200,30,0,200,31,0,201,32,0,200,194,0,621,195,0,21,196,0,420,199,0,221*6D
$PAIRSAT,2,23,65,0,200,66,0,200,67,0,200,68,0,200,69,0,200,70,0,200,72,0,200,73,0,200,74,0,200,75,0,200,76,0,200,77,0,200,78,0,200,79,0,201,80,0,201,81,0,200,82,0,201,83,0,201,84,0,200,85,0,200,86,0,200,87,0,200,88,0,200*55
$PAIRSAT,3,22,2,0,1000,3,0,1000,4,0,1000,7,0,1021,8,0,1000,9,0,1000,10,0,1000,11,0,1000,12,0,1200,13,0,1200,15,0,221,19,0,1200,21,0,200,24,0,200,25,0,200,26,0,200,27,0,221,30,0,1021,31,0,1000,33,0,1000,34,0,1021,36,0,1000*71
$PAIRSAT,4,41,1,0,200,2,0,200,3,0,600,4,0,200,5,0,200,6,0,201,7,0,1,9,0,1,12,0,1,16,0,1,19,0,600,20,0,600,21,0,600,22,0,600,23,0,621,24,0,621,25,0,621,26,0,600,27,0,600,28,0,600,29,0,600,30,0,600,32,0,400,33,0,400,34,0,421,35,0,400,36,0,400,37,0,400,38,0,400,39,0,421,40,0,421,41,0,400,42,0,400,43,0,421,44,0,421,45,0,400,46,0,400,59,0,400,60,0,400,61,0,400,62,0,400*5D
$PAIRDGP,6,2,4,7,9,16,21*4F
$GNGGA,040311.200,2500.8022957,N,12132.4804872,E,4,53,0.53,17.352,M,15.25,M,1,3335*46
$GNRMC,040311.200,A,2500.8022957,N,12132.4804872,E,0.02,260.95,030324,,,R,V*12
$GPHDT,316.395,T*3E
$GNACCURACY,4.6*14
$GNGGA,040311.300,2500.8022951,N,12132.4804931,E,4,53,0.53,17.391,M,15.25,M,1,3335*48
$GNRMC,040311.300,A,2500.8022951,N,12132.4804931,E,0.02,260.95,030324,,,R,V*13
$GPHDT,,T*1B
$GNACCURACY,4.6*14
$GNGGA,040311.400,2500.8022946,N,12132.4804923,E,4,53,0.53,17.396,M,15.25,M,1,3335*4D
$GNRMC,040311.400,A,2500.8022946,N,12132.4804923,E,0.01,260.95,030324,,,R,V*12
$GPHDT,316.855,T*39
$GNACCURACY,4.6*14
$GNGGA,040311.500,2500.8022939,N,12132.4804817,E,4,53,0.53,17.357,M,15.25,M,0,3335*4E
$GNRMC,040311.500,A,2500.8022939,N,12132.4804817,E,0.02,260.95,030324,,,R,V*1E
$GPHDT,,T*1B
$GNACCURACY,4.7*15
$GNGGA,040311.600,2500.8022925,N,12132.4804789,E,4,53,0.53,17.330,M,15.25,M,0,3335*49
$GNRMC,040311.600,A,2500.8022925,N,12132.4804789,E,0.02,260.95,030324,,,R,V*18
$GPHDT,317.489,T*35
$GNACCURACY,4.6*14
$GNGGA,040311.700,2500.8022908,N,12132.4804755,E,4,53,0.53,17.316,M,15.25,M,0,3335*42
$GNRMC,040311.700,A,2500.8022908,N,12132.4804755,E,0.04,260.95,030324,,,R,V*11
$GPHDT,,T*1B
$GNACCURACY,4.6*14
$GNGGA,040311.800,2500.8022921,N,12132.4804736,E,4,53,0.53,17.319,M,15.25,M,0,3335*4C
$GNRMC,040311.800,A,2500.8022921,N,12132.4804736,E,0.10,260.95,030324,,,R,V*15
$GPHDT,317.259,T*3E
$GNACCURACY,4.6*14
$GNGGA,040311.900,2500.8022911,N,12132.4804783,E,4,53,0.53,17.346,M,15.25,M,0,3335*4A
$GNRMC,040311.900,A,2500.8022911,N,12132.4804783,E,0.09,260.95,030324,,,R,V*11
$GPHDT,,T*1B
$GNACCURACY,4.6*14
$GNGGA,040312.000,2500.8022928,N,12132.4804757,E,4,53,0.53,17.346,M,15.25,M,1,3335*42
$GNRMC,040312.000,A,2500.8022928,N,12132.4804757,E,0.04,260.95,030324,,,R,V*15
$GPHDT,317.010,T*31
$GNACCURACY,4.6*14
$GNGGA,040312.100,2500.8022956,N,12132.4804782,E,4,53,0.53,17.353,M,15.25,M,1,3335*46
$GNRMC,040312.100,A,2500.8022956,N,12132.4804782,E,0.05,260.95,030324,,,R,V*14
$GPHDT,,T*1B
$GNGSA,A,3,08,194,195,199,21,16,02,07,04,196,31,27,0.82,0.53,0.63,1*0C
$GNGSA,A,3,82,83,80,79,,,,,,,,,0.82,0.53,0.63,2*0C
$GNGSA,A,3,30,15,34,27,07,,,,,,,,0.82,0.53,0.63,3*08
$GNGSA,A,3,34,06,16,09,39,40,07,25,12,24,43,44,0.82,0.53,0.63,4*0E
$GNGSA,A,3,23,,,,,,,,,,,,0.82,0.53,0.63,4*0C
$GPGSV,4,1,15,08,71,322,46,194,63,048,39,195,60,121,37,199,60,167,31,1*5D
$GPGSV,4,2,15,50,60,167,32,21,45,166,37,27,45,029,24,16,33,061,36,1*6F
$GPGSV,4,3,15,02,33,180,27,09,29,261,24,07,29,320,32,04,28,213,23,1*6B
$GPGSV,4,4,15,196,20,172,19,26,15,088,25,31,11,139,25,1*69
$GPGSV,2,1,08,08,71,322,45,194,63,048,44,195,60,121,43,199,60,167,42,8*50
$GPGSV,2,2,08,27,45,029,31,04,28,213,18,196,20,172,32,26,15,088,28,8*5C
$GLGSV,1,1,04,82,66,050,43,83,59,178,18,80,48,013,33,79,34,088,39,1*71
$GAGSV,2,1,06,30,50,032,40,15,46,151,39,34,43,072,37,27,36,316,35,7*7F
$GAGSV,2,2,06,07,34,234,26,02,16,081,13,7*7A
$GAGSV,2,1,05,30,50,032,39,15,46,151,41,34,43,072,40,27,36,316,35,1*7B
$GAGSV,2,2,05,07,34,234,30,1*46
$GBGSV,4,1,15,34,83,073,43,06,79,218,36,16,76,194,35,09,75,291,39,1*79
$GBGSV,4,2,15,39,65,180,41,40,64,319,44,07,62,298,34,25,58,345,43,1*74
$GBGSV,4,3,15,12,51,043,32,24,49,097,46,43,44,213,32,44,27,040,28,1*7E
$GBGSV,4,4,15,23,14,314,21,10,,,22,11,,,36,1*47
$GBGSV,2,1,08,34,83,073,45,39,65,180,41,40,64,319,43,25,58,345,41,4*73
$GBGSV,2,2,08,24,49,097,45,43,44,213,23,44,27,040,26,23,14,314,27,4*7B
$GNACCURACY,4.6*14
$PAIRSAT,1,26,2,0,201,3,0,200,4,0,221,5,0,200,6,0,200,7,0,201,8,0,221,9,0,200,10,0,200,11,0,200,12,0,200,16,0,1,21,0,1,24,0,200,25,0,200,26,0,200,27,0,221,28,0,200,29,0,200,30,0,200,31,0,201,32,0,200,194,0,621,195,0,221,196,0,420,199,0,221*71
$PAIRSAT,2,23,65,0,200,66,0,200,67,0,200,68,0,200,69,0,200,70,0,200,72,0,200,73,0,200,74,0,200,75,0,200,76,0,200,77,0,200,78,0,200,79,0,201,80,0,201,81,0,200,82,0,201,83,0,201,84,0,200,85,0,200,86,0,200,87,0,200,88,0,200*55
$PAIRSAT,3,22,2,0,1000,3,0,1000,4,0,1000,7,0,1021,8,0,1000,9,0,1000,10,0,1000,11,0,1000,12,0,1200,13,0,1200,15,0,221,19,0,1200,21,0,200,24,0,200,25,0,200,26,0,200,27,0,221,30,0,1021,31,0,1000,33,0,1000,34,0,1021,36,0,1000*71
$PAIRSAT,4,41,1,0,200,2,0,200,3,0,600,4,0,200,5,0,200,6,0,201,7,0,1,9,0,1,12,0,1,16,0,1,19,0,600,20,0,600,21,0,600,22,0,600,23,0,621,24,0,621,25,0,621,26,0,600,27,0,600,28,0,600,29,0,600,30,0,600,32,0,400,33,0,400,34,0,421,35,0,400,36,0,400,37,0,400,38,0,400,39,0,421,40,0,421,41,0,400,42,0,400,43,0,421,44,0,421,45,0,400,46,0,400,59,0,400,60,0,400,61,0,400,62,0,400*5D
$PAIRDGP,6,2,4,7,9,16,21*4F
$GNGGA,040312.200,2500.8022947,N,12132.4804791,E,4,53,0.53,17.343,M,15.25,M,1,3335*46
$GNRMC,040312.200,A,2500.8022947,N,12132.4804791,E,0.07,260.95,030324,,,R,V*17
$GPHDT,317.401,T*35
$GNACCURACY,4.6*14
$GNGGA,040312.300,2500.8022932,N,12132.4804821,E,4,54,0.53,17.369,M,15.25,M,1,3335*4E
$GNRMC,040312.300,A,2500.8022932,N,12132.4804821,E,0.06,260.95,030324,,,R,V*11
$GPHDT,,T*1B
$GNACCURACY,4.6*14
$GNGGA,040312.400,2500.8022904,N,12132.4805016,E,4,54,0.53,17.435,M,15.25,M,1,3335*4F
$GNRMC,040312.400,A,2500.8022904,N,12132.4805016,E,0.06,260.95,030324,,,R,V*1E
$GPHDT,317.075,T*32
$GNACCURACY,4.6*14
$GNGGA,040312.500,2500.8022915,N,12132.4804947,E,4,54,0.53,17.416,M,15.25,M,1,3335*43
$GNRMC,040312.500,A,2500.8022915,N,12132.4804947,E,0.05,260.95,030324,,,R,V*10
$GPHDT,,T*1B
$GNACCURACY,4.6*14
$GNGGA,040312.600,2500.8022909,N,12132.4805019,E,4,54,0.53,17.453,M,15.25,M,1,3335*4F
$GNRMC,040312.600,A,2500.8022909,N,12132.4805019,E,0.05,260.95,030324,,,R,V*1D
$GPHDT,316.846,T*3B
$GNACCURACY,4.6*14
$GNGGA,040312.700,2500.8022889,N,12132.4805008,E,4,54,0.53,17.435,M,15.25,M,0,3335*46
$GNRMC,040312.700,A,2500.8022889,N,12132.4805008,E,0.05,260.95,030324,,,R,V*15
$GPHDT,,T*1B
