$FW : RTK35X,V1.1X0314AS,Lib20210517,1*54
$Tool : LOCOSYS , GNSS Firebird , v1.0.0.19*39
$---------------------------------------------------*2D
$GNACCURACY,4.5*17
$GNGGA,040407.800,2500.8022289,N,12132.4804430,E,4,54,0.53,16.714,M,15.25,M,0,3335*4F
$GNRMC,040407.800,A,2500.8022289,N,12132.4804430,E,0.04,260.95,030324,,,R,V*1C
$GPHDT,89.434,T*07
$GNACCURACY,4.5*17
$GNGGA,040407.900,2500.8022312,N,12132.4804466,E,4,54,0.53,16.702,M,15.25,M,0,3335*49
$GNRMC,040407.900,A,2500.8022312,N,12132.4804466,E,0.06,260.95,030324,,,R,V*1F
$GPHDT,,T*1B
$GNACCURACY,4.5*17
$GNGGA,040408.000,2500.8022304,N,12132.4804454,E,4,54,0.53,16.713,M,15.25,M,1,3335*48
$GNRMC,040408.000,A,2500.8022304,N,12132.4804454,E,0.05,260.95,030324,,,R,V*1C
$GPHDT,89.436,T*05
$GNACCURACY,4.4*16
$GNGGA,040408.100,2500.8022319,N,12132.4804430,E,4,53,0.53,16.702,M,15.25,M,1,3335*40
$GNRMC,040408.100,A,2500.8022319,N,12132.4804430,E,0.03,260.95,030324,,,R,V*15
$GPHDT,,T*1B
$GNGSA,A,3,08,194,199,195,27,21,02,16,07,04,196,31,0.82,0.53,0.63,1*0C
$GNGSA,A,3,82,83,80,79,,,,,,,,,0.82,0.53,0.63,2*0C
$GNGSA,A,3,30,15,34,27,07,,,,,,,,0.82,0.53,0.63,3*08
$GNGSA,A,3,34,06,16,09,11,39,40,07,25,12,24,43,0.82,0.53,0.63,4*0E
$GNGSA,A,3,23,44,,,,,,,,,,,0.82,0.53,0.63,4*0C
$GPGSV,4,1,15,08,71,323,41,194,63,048,39,199,60,167,37,50,60,167,39,1*69
$GPGSV,4,2,15,195,60,121,34,27,45,029,23,21,45,166,46,02,34,180,45,1*5A
$GPGSV,4,3,15,16,33,061,41,07,30,320,32,09,29,260,26,04,28,212,29,1*60
$GPGSV,4,4,15,196,20,172,33,26,15,088,,31,11,139,18,1*68
$GPGSV,3,1,09,08,71,323,41,194,63,048,45,195,60,121,42,199,60,167,46,8*51
$GPGSV,3,2,09,27,45,029,35,09,29,260,28,04,28,212,19,196,20,172,42,8*59
$GPGSV,3,3,09,26,15,088,15,8*50
$GLGSV,2,1,06,82,65,049,43,83,60,178,33,80,48,014,34,79,33,089,37,1*70
$GLGSV,2,2,06,81,18,028,18,70,09,256,,1*72
$GAGSV,2,1,06,30,50,033,33,15,47,151,40,34,43,071,34,27,37,316,24,7*74
$GAGSV,2,2,06,07,33,233,21,02,16,081,14,7*7A
$GAGSV,2,1,05,30,50,033,41,15,47,151,38,34,43,071,42,27,37,316,28,1*76
$GAGSV,2,2,05,07,33,233,29,1*4E
$GBGSV,4,1,15,34,83,070,44,06,78,218,45,16,76,195,45,09,75,290,42,1*73
$GBGSV,4,2,15,11,69,197,43,39,65,180,43,40,64,320,40,07,62,298,31,1*75
$GBGSV,4,3,15,25,59,346,42,12,51,043,38,24,49,097,37,43,44,214,37,1*77
$GBGSV,4,4,15,44,27,040,,23,14,314,27,10,,,23,1*74
$GBGSV,2,1,08,34,83,070,45,39,65,180,44,40,64,320,39,25,59,346,37,4*71
$GBGSV,2,2,08,24,49,097,40,43,44,214,37,44,27,040,25,23,14,314,17,4*7C
$GNACCURACY,4.4*16
$PAIRSAT,1,27,2,0,201,3,0,200,4,0,221,5,0,200,6,0,200,7,0,201,8,0,221,9,0,200,10,0,200,11,0,200,12,0,200,13,0,200,16,0,1,21,0,1,24,0,200,25,0,200,26,0,200,27,0,221,28,0,200,29,0,200,30,0,200,31,0,201,32,0,200,194,0,621,195,0,221,196,0,420,199,0,221*5C
$PAIRSAT,2,24,65,0,200,66,0,200,67,0,200,68,0,200,69,0,200,70,0,200,71,0,200,72,0,200,73,0,200,74,0,200,75,0,200,76,0,200,77,0,200,78,0,200,79,0,201,80,0,201,81,0,200,82,0,201,83,0,201,84,0,200,85,0,200,86,0,200,87,0,200,88,0,200*7A
$PAIRSAT,3,22,2,0,1000,3,0,1000,4,0,1000,7,0,1021,8,0,1000,9,0,1000,10,0,1000,11,0,1000,12,0,1200,13,0,1200,15,0,1221,19,0,1200,21,0,1200,24,0,200,25,0,200,26,0,200,27,0,221,30,0,1221,31,0,1200,33,0,1000,34,0,1021,36,0,1000*71
$PAIRSAT,4,43,1,0,200,2,0,200,3,0,600,4,0,200,5,0,200,6,0,201,7,0,201,8,0,200,9,0,1,11,0,1,12,0,1,16,0,1,19,0,600,20,0,600,21,0,600,22,0,600,23,0,621,24,0,621,25,0,621,26,0,600,27,0,600,28,0,600,29,0,600,30,0,600,32,0,400,33,0,400,34,0,421,35,0,400,36,0,400,37,0,400,38,0,400,39,0,421,40,0,421,41,0,400,42,0,400,43,0,421,44,0,421,45,0,400,46,0,400,59,0,400,60,0,400,61,0,400,62,0,400*66
$PAIRDGP,8,2,4,7,8,9,16,21,27*7C
$GNGGA,040408.200,2500.8022324,N,12132.4804448,E,4,53,0.53,16.684,M,15.25,M,1,3335*4D
$GNRMC,040408.200,A,2500.8022324,N,12132.4804448,E,0.02,260.95,030324,,,R,V*16
$GPHDT,88.930,T*0F
$GNACCURACY,4.4*16
$GNGGA,040408.300,2500.8022327,N,12132.4804431,E,4,53,0.53,16.689,M,15.25,M,1,3335*4C
$GNRMC,040408.300,A,2500.8022327,N,12132.4804431,E,0.01,260.95,030324,,,R,V*19
$GPHDT,,T*1B
$GNACCURACY,4.4*16
$GNGGA,040408.400,2500.8022316,N,12132.4804448,E,4,53,0.53,16.690,M,15.25,M,1,3335*4F
$GNRMC,040408.400,A,2500.8022316,N,12132.4804448,E,0.02,260.95,030324,,,R,V*11
$GPHDT,89.201,T*07
$GNACCURACY,4.4*16
$GNGGA,040408.500,2500.8022300,N,12132.4804484,E,4,53,0.53,16.696,M,15.25,M,1,3335*4F
$GNRMC,040408.500,A,2500.8022300,N,12132.4804484,E,0.02,260.95,030324,,,R,V*17
$GPHDT,,T*1B
$GNACCURACY,4.4*16
$GNGGA,040408.600,2500.8022288,N,12132.4804456,E,4,53,0.53,16.699,M,15.25,M,0,3335*4C
$GNRMC,040408.600,A,2500.8022288,N,12132.4804456,E,0.07,260.95,030324,,,R,V*1F
$GPHDT,89.200,T*06
$GNACCURACY,4.4*16
$GNGGA,040408.700,2500.8022266,N,12132.4804457,E,4,53,0.53,16.700,M,15.25,M,0,3335*4D
$GNRMC,040408.700,A,2500.8022266,N,12132.4804457,E,0.17,260.95,030324,,,R,V*1E
$GPHDT,,T*1B
$GNACCURACY,4.4*16
$GNGGA,040408.800,2500.8022234,N,12132.4804475,E,4,53,0.53,16.730,M,15.25,M,0,3335*46
$GNRMC,040408.800,A,2500.8022234,N,12132.4804475,E,0.09,260.95,030324,,,R,V*19
$GPHDT,88.795,T*0E
$GNACCURACY,4.4*16
$GNGGA,040408.900,2500.8022255,N,12132.4804479,E,4,53,0.53,16.708,M,15.25,M,0,3335*47
$GNRMC,040408.900,A,2500.8022255,N,12132.4804479,E,0.04,260.95,030324,,,R,V*1E
$GPHDT,,T*1B
$GNACCURACY,4.4*16
$GNGGA,040409.000,2500.8022236,N,12132.4804515,E,4,53,0.53,16.723,M,15.25,M,1,3335*49
$GNRMC,040409.000,A,2500.8022236,N,12132.4804515,E,0.04,260.95,030324,,,R,V*18
$GPHDT,88.902,T*0E
$GNACCURACY,4.4*16
$GNGGA,040409.100,2500.8022245,N,12132.4804506,E,4,53,0.53,16.715,M,15.25,M,1,3335*4B
$GNRMC,040409.100,A,2500.8022245,N,12132.4804506,E,0.04,260.95,030324,,,R,V*1F
$GPHDT,,T*1B
$GNGSA,A,3,08,194,199,195,27,21,02,16,07,04,196,31,0.82,0.53,0.63,1*0C
$GNGSA,A,3,82,83,80,79,,,,,,,,,0.82,0.53,0.63,2*0C
$GNGSA,A,3,30,15,34,27,07,,,,,,,,0.82,0.53,0.63,3*08
$GNGSA,A,3,34,06,16,09,11,39,40,07,25,12,24,43,0.82,0.53,0.63,4*0E
$GNGSA,A,3,44,23,,,,,,,,,,,0.82,0.53,0.63,4*0C
$GPGSV,4,1,15,08,71,323,42,194,63,048,39,199,60,167,38,50,60,167,39,1*65
$GPGSV,4,2,15,195,60,121,35,27,45,029,27,21,45,166,46,02,34,180,45,1*5F
$GPGSV,4,3,15,16,33,061,41,07,30,320,26,09,29,260,25,04,28,212,28,1*67
$GPGSV,4,4,15,196,20,172,33,26,15,088,,31,11,139,19,1*69
$GPGSV,3,1,09,08,71,323,43,194,63,048,45,195,60,121,41,199,60,167,46,8*50
$GPGSV,3,2,09,27,45,029,35,09,29,260,27,04,28,212,20,196,20,172,42,8*5C
$GPGSV,3,3,09,26,15,088,13,8*56
$GLGSV,2,1,05,82,65,049,43,83,60,178,34,80,48,014,32,79,33,089,33,1*76
$GLGSV,2,2,05,81,18,028,16,1*40
$GAGSV,2,1,07,30,50,033,36,15,47,151,39,34,43,071,32,27,37,316,23,7*7F
$GAGSV,2,2,07,07,33,233,21,02,16,081,14,36,05,035,,7*4D
$GAGSV,2,1,05,30,50,033,42,15,47,151,41,34,43,071,43,27,37,316,29,1*7B
$GAGSV,2,2,05,07,33,233,31,1*47
$GBGSV,4,1,16,34,83,070,44,06,78,218,45,16,76,195,44,09,75,290,41,1*72
$GBGSV,4,2,16,11,69,197,42,39,65,180,44,40,64,320,42,07,62,298,30,1*73
$GBGSV,4,3,16,25,59,346,42,12,51,043,38,24,49,097,38,43,44,214,39,1*75
$GBGSV,4,4,16,44,27,040,,23,14,314,20,38,06,170,,10,,,20,1*48
$GBGSV,2,1,08,34,83,070,45,39,65,180,44,40,64,320,41,25,59,346,37,4*7E
$GBGSV,2,2,08,24,49,097,38,43,44,214,38,44,27,040,26,23,14,314,16,4*7E
$GNACCURACY,4.4*16
$PAIRSAT,1,27,2,0,201,3,0,200,4,0,221,5,0,200,6,0,200,7,0,201,8,0,221,9,0,200,10,0,200,11,0,200,12,0,200,13,0,200,16,0,1,21,0,1,24,0,200,25,0,200,26,0,200,27,0,221,28,0,200,29,0,200,30,0,200,31,0,201,32,0,200,194,0,621,195,0,221,196,0,420,199,0,221*5C
$PAIRSAT,2,24,65,0,200,66,0,200,67,0,200,68,0,200,69,0,200,70,0,200,71,0,200,72,0,200,73,0,200,74,0,200,75,0,200,76,0,200,77,0,200,78,0,200,79,0,201,80,0,201,81,0,200,82,0,201,83,0,201,84,0,200,85,0,200,86,0,200,87,0,200,88,0,200*7A
$PAIRSAT,3,22,2,0,1000,3,0,1000,4,0,1000,7,0,1021,8,0,1000,9,0,1000,10,0,1000,11,0,1000,12,0,1200,13,0,1200,15,0,1221,19,0,1200,21,0,1200,24,0,200,25,0,200,26,0,200,27,0,221,30,0,1221,31,0,1200,33,0,1000,34,0,1021,36,0,1000*71
$PAIRSAT,4,43,1,0,200,2,0,200,3,0,600,4,0,200,5,0,200,6,0,201,7,0,201,8,0,200,9,0,1,11,0,1,12,0,1,16,0,1,19,0,600,20,0,600,21,0,600,22,0,600,23,0,621,24,0,621,25,0,621,26,0,600,27,0,600,28,0,600,29,0,600,30,0,600,32,0,400,33,0,400,34,0,421,35,0,400,36,0,400,37,0,400,38,0,400,39,0,421,40,0,421,41,0,400,42,0,400,43,0,421,44,0,421,45,0,400,46,0,400,59,0,400,60,0,400,61,0,400,62,0,400*66
$PAIRDGP,8,2,4,7,8,9,16,21,27*7C
$GNGGA,040409.200,2500.8022264,N,12132.4804461,E,4,52,0.53,16.713,M,15.25,M,1,3335*4C
$GNRMC,040409.200,A,2500.8022264,N,12132.4804461,E,0.03,260.95,030324,,,R,V*18
$GPHDT,88.623,T*02
$GNACCURACY,4.4*16
$GNGGA,040409.300,2500.8022240,N,12132.4804422,E,4,53,0.53,16.728,M,15.25,M,1,3335*45
$GNRMC,040409.300,A,2500.8022240,N,12132.4804422,E,0.02,260.95,030324,,,R,V*19
$GPHDT,,T*1B
$GNACCURACY,4.4*16
$GNGGA,040409.400,2500.8022237,N,12132.4804462,E,4,52,0.53,16.721,M,15.25,M,1,3335*4E
$GNRMC,040409.400,A,2500.8022237,N,12132.4804462,E,0.03,260.95,030324,,,R,V*1B
$GPHDT,88.383,T*0D
$GNACCURACY,4.4*16
$GNGGA,040409.500,2500.8022216,N,12132.4804474,E,4,52,0.53,16.734,M,15.25,M,1,3335*4F
$GNRMC,040409.500,A,2500.8022216,N,12132.4804474,E,0.03,260.95,030324,,,R,V*1E
$GPHDT,,T*1B
$GNACCURACY,4.4*16
$GNGGA,040409.600,2500.8022234,N,12132.4804506,E,4,52,0.53,16.723,M,15.25,M,1,3335*4E
$GNRMC,040409.600,A,2500.8022234,N,12132.4804506,E,0.03,260.95,030324,,,R,V*19
$GPHDT,88.030,T*06
$GNACCURACY,4.4*16
$GNGGA,040409.700,2500.8022230,N,12132.4804428,E,4,52,0.53,16.709,M,15.25,M,0,3335*4F
$GNRMC,040409.700,A,2500.8022230,N,12132.4804428,E,0.02,260.95,030324,,,R,V*10
$GPHDT,,T*1B
$GNACCURACY,4.4*16
$GNGGA,040409.800,2500.8022238,N,12132.4804494,E,4,52,0.53,16.727,M,15.25,M,0,3335*43
$GNRMC,040409.800,A,2500.8022238,N,12132.4804494,E,0.06,260.95,030324,,,R,V*14
$GPHDT,88.143,T*03
$GNACCURACY,4.4*16
$GNGGA,040409.900,2500.8022251,N,12132.4804492,E,4,52,0.53,16.715,M,15.25,M,0,3335*4A
$GNRMC,040409.900,A,2500.8022251,N,12132.4804492,E,0.07,260.95,030324,,,R,V*1D
$GPHDT,,T*1B
$GNACCURACY,4.4*16
$GNGGA,040410.000,2500.8022267,N,12132.4804481,E,4,52,0.53,16.707,M,15.25,M,1,3335*4E
$GNRMC,040410.000,A,2500.8022267,N,12132.4804481,E,0.05,260.95,030324,,,R,V*19
$GPHDT,88.220,T*05
$GNACCURACY,4.4*16
$GNGGA,040410.100,2500.8022228,N,12132.4804469,E,4,52,0.53,16.719,M,15.25,M,1,3335*4D
$GNRMC,040410.100,A,2500.8022228,N,12132.4804469,E,0.05,260.95,030324,,,R,V*15
$GPHDT,,T*1B
$GNGSA,A,3,08,194,199,195,21,27,02,16,07,04,196,31,0.82,0.53,0.63,1*0C
$GNGSA,A,3,82,83,80,79,,,,,,,,,0.82,0.53,0.63,2*0C
$GNGSA,A,3,30,15,34,27,07,,,,,,,,0.82,0.53,0.63,3*08
$GNGSA,A,3,34,06,16,09,11,39,40,07,25,12,24,43,0.82,0.53,0.63,4*0E
$GNGSA,A,3,44,23,,,,,,,,,,,0.82,0.53,0.63,4*0C
$GPGSV,4,1,15,08,71,323,45,194,63,048,39,199,60,167,36,195,60,121,36,1*59
$GPGSV,4,2,15,50,60,167,38,21,45,166,46,27,45,029,31,02,34,180,45,1*6F
$GPGSV,4,3,15,16,33,061,41,07,30,320,25,09,29,260,29,04,28,212,30,1*61
$GPGSV,4,4,15,196,20,172,34,26,15,088,,31,11,139,23,1*67
$GPGSV,3,1,09,08,71,323,45,194,63,048,47,195,60,121,42,199,60,167,47,8*56
$GPGSV,3,2,09,27,45,029,35,09,29,260,26,04,28,212,18,196,20,172,42,8*56
$GPGSV,3,3,09,26,15,088,15,8*50
$GLGSV,2,1,06,82,65,049,43,83,60,178,34,80,48,014,35,79,33,089,35,1*74
$GLGSV,2,2,06,81,18,028,19,71,05,302,,1*7E
$GAGSV,2,1,07,30,50,033,36,15,47,151,40,34,43,071,31,27,37,316,22,7*73
$GAGSV,2,2,07,07,33,233,29,02,16,081,17,36,05,035,,7*46
$GAGSV,2,1,05,30,50,033,43,15,47,151,42,34,43,071,43,27,37,316,25,1*75
$GAGSV,2,2,05,07,33,233,27,1*40
$GBGSV,4,1,15,34,83,070,45,06,78,218,43,16,76,195,43,09,75,290,42,1*72
$GBGSV,4,2,15,11,69,197,41,39,65,180,43,40,64,320,43,07,62,298,33,1*76
$GBGSV,4,3,15,25,59,346,45,12,51,043,35,24,49,097,39,43,44,214,36,1*72
$GBGSV,4,4,15,44,27,040,,23,14,314,18,10,,,23,1*78
$GBGSV,2,1,08,34,83,070,45,39,65,180,44,40,64,320,42,25,59,346,41,4*7C
$GBGSV,2,2,08,24,49,097,40,43,44,214,38,44,27,040,26,23,14,314,19,4*7E
$GNACCURACY,4.4*16
$PAIRSAT,1,27,2,0,201,3,0,200,4,0,221,5,0,200,6,0,200,7,0,201,8,0,221,9,0,200,10,0,200,11,0,200,12,0,200,13,0,200,16,0,1,21,0,1,24,0,200,25,0,200,26,0,200,27,0,221,28,0,200,29,0,200,30,0,200,31,0,201,32,0,200,194,0,621,195,0,221,196,0,420,199,0,221*5C
$PAIRSAT,2,24,65,0,200,66,0,200,67,0,200,68,0,200,69,0,200,70,0,200,71,0,200,72,0,200,73,0,200,74,0,200,75,0,200,76,0,200,77,0,200,78,0,200,79,0,201,80,0,201,81,0,200,82,0,201,83,0,201,84,0,200,85,0,200,86,0,200,87,0,200,88,0,200*7A
$PAIRSAT,3,22,2,0,1000,3,0,1000,4,0,1000,7,0,1021,8,0,1000,9,0,1000,10,0,1000,11,0,1000,12,0,1200,13,0,1200,15,0,1221,19,0,1200,21,0,1200,24,0,200,25,0,200,26,0,200,27,0,221,30,0,1221,31,0,1200,33,0,1000,34,0,1021,36,0,1000*71
$PAIRSAT,4,43,1,0,200,2,0,200,3,0,600,4,0,200,5,0,200,6,0,201,7,0,201,8,0,200,9,0,1,11,0,1,12,0,1,16,0,1,19,0,600,20,0,600,21,0,600,22,0,600,23,0,621,24,0,621,25,0,621,26,0,600,27,0,600,28,0,600,29,0,600,30,0,600,32,0,400,33,0,400,34,0,421,35,0,400,36,0,400,37,0,400,38,0,400,39,0,421,40,0,421,41,0,400,42,0,400,43,0,421,44,0,421,45,0,400,46,0,400,59,0,400,60,0,400,61,0,400,62,0,400*66
$PAIRDGP,8,2,4,7,8,9,16,21,27*7C
$GNGGA,040410.200,2500.8022250,N,12132.4804451,E,4,52,0.53,16.709,M,15.25,M,1,3335*4B
$GNRMC,040410.200,A,2500.8022250,N,12132.4804451,E,0.04,260.95,030324,,,R,V*13
$GPHDT,88.547,T*03
$GNACCURACY,4.4*16
$GNGGA,040410.300,2500.8022226,N,12132.4804472,E,4,51,0.53,16.725,M,15.25,M,1,3335*47
$GNRMC,040410.300,A,2500.8022226,N,12132.4804472,E,0.03,260.95,030324,,,R,V*15
$GPHDT,,T*1B
$GNACCURACY,4.4*16
$GNGGA,040410.400,2500.8022206,N,12132.4804437,E,4,52,0.53,16.712,M,15.25,M,1,3335*44
$GNRMC,040410.400,A,2500.8022206,N,12132.4804437,E,0.02,260.95,030324,,,R,V*10
$GPHDT,88.449,T*0C
$GNACCURACY,4.4*16
$GNGGA,040410.500,2500.8022227,N,12132.4804450,E,4,51,0.53,16.706,M,15.25,M,1,3335*41
$GNRMC,040410.500,A,2500.8022227,N,12132.4804450,E,0.02,260.95,030324,,,R,V*13
$GPHDT,,T*1B
$GNACCURACY,4.4*16
$GNGGA,040410.600,2500.8022181,N,12132.4804490,E,4,51,0.53,16.722,M,15.25,M,0,3335*46
$GNRMC,040410.600,A,2500.8022181,N,12132.4804490,E,0.01,260.95,030324,,,R,V*10
$GPHDT,88.023,T*04
$GNACCURACY,4.4*16
$GNGGA,040410.700,2500.8022195,N,12132.4804477,E,4,52,0.53,16.710,M,15.25,M,0,3335*49
$GNRMC,040410.700,A,2500.8022195,N,12132.4804477,E,0.01,260.95,030324,,,R,V*1D
$GPHDT,,T*1B
$GNACCURACY,4.4*16
$GNGGA,040410.800,2500.8022223,N,12132.4804501,E,4,52,0.53,16.717,M,15.25,M,0,3335*4F
$GNRMC,040410.800,A,2500.8022223,N,12132.4804501,E,0.04,260.95,030324,,,R,V*19
$GPHDT,87.720,T*0F
$GNACCURACY,4.4*16
$GNGGA,040410.900,2500.8022203,N,12132.4804516,E,4,52,0.53,16.715,M,15.25,M,0,3335*48
$GNRMC,040410.900,A,2500.8022203,N,12132.4804516,E,0.04,260.95,030324,,,R,V*1C
$GPHDT,,T*1B
$GNACCURACY,4.4*16
$GNGGA,040411.000,2500.8022204,N,12132.4804502,E,4,52,0.53,16.713,M,15.25,M,1,3335*45
$GNRMC,040411.000,A,2500.8022204,N,12132.4804502,E,0.03,260.95,030324,,,R,V*11
$GPHDT,87.835,T*04
$GNACCURACY,4.4*16
$GNGGA,040411.100,2500.8022182,N,12132.4804536,E,4,52,0.53,16.731,M,15.25,M,1,3335*4E
$GNRMC,040411.100,A,2500.8022182,N,12132.4804536,E,0.04,260.95,030324,,,R,V*1D
$GPHDT,,T*1B
$GNGSA,A,3,08,194,199,195,27,21,02,16,07,04,196,31,0.82,0.53,0.63,1*0C
$GNGSA,A,3,82,83,80,79,,,,,,,,,0.82,0.53,0.63,2*0C
$GNGSA,A,3,30,15,34,27,07,,,,,,,,0.82,0.53,0.63,3*08
$GNGSA,A,3,34,06,16,09,11,39,40,07,25,12,24,43,0.82,0.53,0.63,4*0E
$GNGSA,A,3,23,44,,,,,,,,,,,0.82,0.53,0.63,4*0C
$GPGSV,4,1,15,08,70,323,47,194,63,048,40,199,60,167,37,50,60,167,39,1*60
$GPGSV,4,2,15,195,60,121,34,27,45,029,29,21,45,166,46,02,34,180,44,1*51
$GPGSV,4,3,15,16,33,061,41,07,30,320,28,09,29,260,26,04,28,212,27,1*65
$GPGSV,4,4,15,196,20,172,32,26,15,088,,31,11,139,22,1*60
$GPGSV,2,1,08,08,70,323,45,194,63,048,47,195,60,121,40,199,60,167,47,8*55
$GPGSV,2,2,08,27,45,029,34,09,29,260,26,196,20,172,42,26,15,088,15,8*55
$GLGSV,2,1,05,82,65,049,43,83,60,178,35,80,48,014,36,79,33,089,35,1*75
$GLGSV,2,2,05,81,18,028,18,1*4E
$GAGSV,2,1,07,30,50,033,37,15,47,151,40,34,43,071,29,27,37,316,26,7*7F
$GAGSV,2,2,07,07,33,233,26,02,16,081,19,36,05,035,,7*47
$GAGSV,2,1,05,30,50,033,43,15,47,151,42,34,43,071,42,27,37,316,21,1*70
$GAGSV,2,2,05,07,33,233,27,1*40
$GBGSV,4,1,15,34,83,070,44,06,78,218,43,16,76,195,44,09,75,290,42,1*74
$GBGSV,4,2,15,11,69,197,41,39,65,180,44,40,64,320,45,07,62,298,34,1*70
$GBGSV,4,3,15,25,59,346,46,12,51,043,36,24,49,097,39,43,44,214,37,1*73
$GBGSV,4,4,15,44,27,040,,23,14,314,19,10,,,25,1*7F
$GBGSV,2,1,08,34,83,070,44,39,65,180,44,40,64,320,43,25,59,346,41,4*7C
$GBGSV,2,2,08,24,49,097,39,43,44,214,38,44,27,040,27,23,14,314,21,4*7A
$GNACCURACY,4.4*16
$PAIRSAT,1,27,2,0,201,3,0,200,4,0,221,5,0,200,6,0,200,7,0,201,8,0,221,9,0,200,10,0,200,11,0,200,12,0,200,13,0,200,16,0,1,21,0,1,24,0,200,25,0,200,26,0,200,27,0,221,28,0,200,29,0,200,30,0,200,31,0,201,32,0,200,194,0,621,195,0,221,196,0,420,199,0,221*5C
$PAIRSAT,2,24,65,0,200,66,0,200,67,0,200,68,0,200,69,0,200,70,0,200,71,0,200,72,0,200,73,0,200,74,0,200,75,0,200,76,0,200,77,0,200,78,0,200,79,0,201,80,0,201,81,0,200,82,0,201,83,0,201,84,0,200,85,0,200,86,0,200,87,0,200,88,0,200*7A
$PAIRSAT,3,22,2,0,1000,3,0,1000,4,0,1000,7,0,1021,8,0,1000,9,0,1000,10,0,1000,11,0,1000,12,0,1200,13,0,1200,15,0,1221,19,0,1200,21,0,1200,24,0,200,25,0,200,26,0,200,27,0,221,30,0,1221,31,0,1200,33,0,1000,34,0,1021,36,0,1000*71
$PAIRSAT,4,43,1,0,200,2,0,200,3,0,600,4,0,200,5,0,200,6,0,201,7,0,201,8,0,200,9,0,1,11,0,1,12,0,1,16,0,1,19,0,600,20,0,600,21,0,600,22,0,600,23,0,621,24,0,621,25,0,621,26,0,600,27,0,600,28,0,600,29,0,600,30,0,600,32,0,400,33,0,400,34,0,421,35,0,400,36,0,400,37,0,400,38,0,400,39,0,421,40,0,421,41,0,400,42,0,400,43,0,421,44,0,421,45,0,400,46,0,400,59,0,400,60,0,400,61,0,400,62,0,400*66
$PAIRDGP,8,2,4,7,8,9,16,21,27*7C
$GNGGA,040411.200,2500.8022213,N,12132.4804506,E,4,52,0.53,16.715,M,15.25,M,1,3335*43
$GNRMC,040411.200,A,2500.8022213,N,12132.4804506,E,0.03,260.95,030324,,,R,V*11
$GPHDT,87.503,T*0C
$GNACCURACY,4.4*16
$GNGGA,040411.300,2500.8022206,N,12132.4804535,E,4,52,0.53,16.723,M,15.25,M,1,3335*43
$GNRMC,040411.300,A,2500.8022206,N,12132.4804535,E,0.03,260.95,030324,,,R,V*14
$GPHDT,,T*1B
$GNACCURACY,4.4*16
$GNGGA,040411.400,2500.8022213,N,12132.4804525,E,4,52,0.53,16.720,M,15.25,M,1,3335*42
$GNRMC,040411.400,A,2500.8022213,N,12132.4804525,E,0.02,260.95,030324,,,R,V*17
$GPHDT,87.881,T*0B
$GNACCURACY,4.4*16
$GNGGA,040411.500,2500.8022226,N,12132.4804512,E,4,52,0.53,16.715,M,15.25,M,1,3335*47
$GNRMC,040411.500,A,2500.8022226,N,12132.4804512,E,0.03,260.95,030324,,,R,V*15
$GPHDT,,T*1B
$GNACCURACY,4.4*16
$GNGGA,040411.600,2500.8022204,N,12132.4804454,E,4,52,0.53,16.720,M,15.25,M,0,3335*40
$GNRMC,040411.600,A,2500.8022204,N,12132.4804454,E,0.03,260.95,030324,,,R,V*15
$GPHDT,88.116,T*03
$GNACCURACY,4.4*16
$GNGGA,040411.700,2500.8022207,N,12132.4804459,E,4,52,0.53,16.716,M,15.25,M,0,3335*4A
$GNRMC,040411.700,A,2500.8022207,N,12132.4804459,E,0.04,260.95,030324,,,R,V*1D
$GPHDT,,T*1B
$GNACCURACY,4.4*16
$GNGGA,040411.800,2500.8022210,N,12132.4804444,E,4,52,0.53,16.711,M,15.25,M,0,3335*48
$GNRMC,040411.800,A,2500.8022210,N,12132.4804444,E,0.03,260.95,030324,,,R,V*1F
$GPHDT,87.797,T*03
$GNACCURACY,4.4*16
$GNGGA,040411.900,2500.8022228,N,12132.4804453,E,4,52,0.53,16.718,M,15.25,M,0,3335*4D
$GNRMC,040411.900,A,2500.8022228,N,12132.4804453,E,0.05,260.95,030324,,,R,V*15
$GPHDT,,T*1B
$GNACCURACY,4.4*16
$GNGGA,040412.000,2500.8022225,N,12132.4804441,E,4,52,0.53,16.710,M,15.25,M,1,3335*40
$GNRMC,040412.000,A,2500.8022225,N,12132.4804441,E,0.02,260.95,030324,,,R,V*16
$GPHDT,88.120,T*06
$GNACCURACY,4.4*16
$GNGGA,040412.100,2500.8022210,N,12132.4804494,E,4,52,0.53,16.726,M,15.25,M,1,3335*4A
$GNRMC,040412.100,A,2500.8022210,N,12132.4804494,E,0.02,260.95,030324,,,R,V*19
$GPHDT,,T*1B
$GNGSA,A,3,08,194,199,195,27,21,02,16,07,04,196,31,0.82,0.53,0.63,1*0C
$GNGSA,A,3,82,83,80,79,,,,,,,,,0.82,0.53,0.63,2*0C
$GNGSA,A,3,30,15,34,27,07,,,,,,,,0.82,0.53,0.63,3*08
$GNGSA,A,3,34,06,16,09,11,39,40,07,25,12,24,43,0.82,0.53,0.63,4*0E
$GNGSA,A,3,23,44,,,,,,,,,,,0.82,0.53,0.63,4*0C
$GPGSV,4,1,15,08,70,323,47,194,63,048,39,199,60,167,37,50,60,167,39,1*6E
$GPGSV,4,2,15,195,60,121,35,27,45,029,28,21,45,166,46,02,34,180,44,1*51
$GPGSV,4,3,15,16,33,061,41,07,30,320,31,09,29,260,26,04,28,212,28,1*62
$GPGSV,4,4,15,196,20,172,30,26,15,088,,31,11,139,23,1*63
$GPGSV,2,1,08,08,70,323,45,194,63,048,47,195,60,121,40,199,60,167,47,8*55
$GPGSV,2,2,08,27,45,029,34,09,29,260,29,196,20,172,42,26,15,088,15,8*5A
$GLGSV,2,1,05,82,65,049,43,83,60,178,33,80,48,014,36,79,33,089,37,1*71
$GLGSV,2,2,05,81,18,028,17,1*41
$GAGSV,2,1,07,30,50,033,38,15,47,151,40,34,43,071,27,27,37,316,23,7*7B
$GAGSV,2,2,07,07,33,233,26,02,16,081,21,36,05,035,,7*4C
$GAGSV,2,1,05,30,50,033,43,15,47,151,42,34,43,071,42,27,37,316,19,1*7B
$GAGSV,2,2,05,07,33,233,26,1*41
$GBGSV,4,1,15,34,83,070,42,06,78,218,43,16,76,195,43,09,75,290,42,1*75
$GBGSV,4,2,15,11,69,197,43,39,65,180,44,40,64,320,46,07,62,298,36,1*73
$GBGSV,4,3,15,25,59,346,46,12,51,043,37,24,49,097,39,43,44,214,37,1*72
$GBGSV,4,4,15,44,27,040,,23,14,314,28,10,,,25,1*7D
$GBGSV,2,1,08,34,83,070,43,39,65,180,43,40,64,320,44,25,59,346,42,4*78
$GBGSV,2,2,08,24,49,097,39,43,44,214,38,44,27,040,28,23,14,314,22,4*76
$GNACCURACY,4.4*16
$PAIRSAT,1,28,2,0,201,3,0,200,4,0,221,5,0,200,6,0,200,7,0,201,8,0,221,9,0,200,10,0,200,11,0,200,12,0,200,13,0,200,14,0,200,16,0,1,21,0,1,24,0,200,25,0,200,26,0,200,27,0,221,28,0,200,29,0,200,30,0,200,31,0,201,32,0,200,194,0,621,195,0,221,196,0,620,199,0,221*7A
$PAIRSAT,2,24,65,0,200,66,0,200,67,0,200,68,0,200,69,0,200,70,0,200,71,0,200,72,0,200,73,0,200,74,0,200,75,0,200,76,0,200,77,0,200,78,0,200,79,0,201,80,0,201,81,0,200,82,0,201,83,0,201,84,0,200,85,0,200,86,0,200,87,0,200,88,0,200*7A
$PAIRSAT,3,22,2,0,1000,3,0,1000,4,0,1000,7,0,1021,8,0,1000,9,0,1000,10,0,1000,11,0,1000,12,0,1200,13,0,1200,15,0,1221,19,0,1200,21,0,1200,24,0,200,25,0,200,26,0,200,27,0,221,30,0,1221,31,0,1200,33,0,1000,34,0,1021,36,0,1000*71
$PAIRSAT,4,43,1,0,200,2,0,200,3,0,600,4,0,200,5,0,200,6,0,201,7,0,201,8,0,200,9,0,1,11,0,1,12,0,1,16,0,1,19,0,600,20,0,600,21,0,600,22,0,600,23,0,621,24,0,621,25,0,621,26,0,600,27,0,600,28,0,600,29,0,600,30,0,600,32,0,400,33,0,400,34,0,421,35,0,400,36,0,400,37,0,400,38,0,400,39,0,421,40,0,421,41,0,400,42,0,400,43,0,421,44,0,421,45,0,400,46,0,400,59,0,400,60,0,400,61,0,400,62,0,400*66
$PAIRDGP,8,2,4,7,8,9,16,21,27*7C
$GNGGA,040412.200,2500.8022216,N,12132.4804493,E,4,52,0.53,16.724,M,15.25,M,1,3335*4A
$GNRMC,040412.200,A,2500.8022216,N,12132.4804493,E,0.01,260.95,030324,,,R,V*18
$GPHDT,88.168,T*0A
$GNACCURACY,4.4*16
$GNGGA,040412.300,2500.8022233,N,12132.4804447,E,4,51,0.53,16.724,M,15.25,M,1,3335*46
$GNRMC,040412.300,A,2500.8022233,N,12132.4804447,E,0.01,260.95,030324,,,R,V*17
$GPHDT,,T*1B
$GNACCURACY,4.4*16
$GNGGA,040412.400,2500.8022216,N,12132.4804493,E,4,52,0.53,16.735,M,15.25,M,1,3335*4C
$GNRMC,040412.400,A,2500.8022216,N,12132.4804493,E,0.01,260.95,030324,,,R,V*1E
$GPHDT,88.215,T*03
$GNACCURACY,4.4*16
$GNGGA,040412.500,2500.8022221,N,12132.4804466,E,4,52,0.53,16.730,M,15.25,M,1,3335*46
$GNRMC,040412.500,A,2500.8022221,N,12132.4804466,E,0.02,260.95,030324,,,R,V*12
$GPHDT,,T*1B
$GNACCURACY,4.4*16
$GNGGA,040412.600,2500.8022249,N,12132.4804445,E,4,52,0.53,16.709,M,15.25,M,0,3335*41
$GNRMC,040412.600,A,2500.8022249,N,12132.4804445,E,0.08,260.95,030324,,,R,V*14
$GPHDT,88.190,T*0D
$GNACCURACY,4.4*16
$GNGGA,040412.700,2500.8022242,N,12132.4804467,E,4,52,0.53,16.715,M,15.25,M,0,3335*46
$GNRMC,040412.700,A,2500.8022242,N,12132.4804467,E,0.02,260.95,030324,,,R,V*14
$GPHDT,,T*1B
$GNACCURACY,4.1*13
$GNGGA,040412.800,2500.8022228,N,12132.4804443,E,4,54,0.51,16.709,M,15.25,M,0,3335*4A
$GNRMC,040412.800,A,2500.8022228,N,12132.4804443,E,0.04,260.95,030324,,,R,V*17
$GPHDT,88.117,T*02
$GNACCURACY,4.1*13
$GNGGA,040412.900,2500.8022225,N,12132.4804483,E,4,54,0.51,16.720,M,15.25,M,0,3335*41
$GNRMC,040412.900,A,2500.8022225,N,12132.4804483,E,0.02,260.95,030324,,,R,V*11
$GPHDT,,T*1B
$GNACCURACY,4.1*13
$GNGGA,040413.000,2500.8022235,N,12132.4804457,E,4,54,0.51,16.712,M,15.25,M,1,3335*41
$GNRMC,040413.000,A,2500.8022235,N,12132.4804457,E,0.02,260.95,030324,,,R,V*11
$GPHDT,87.943,T*04
$GNACCURACY,4.1*13
$GNGGA,040413.100,2500.8022242,N,12132.4804459,E,4,55,0.51,16.714,M,15.25,M,1,3335*49
$GNRMC,040413.100,A,2500.8022242,N,12132.4804459,E,0.01,260.95,030324,,,R,V*1D
$GPHDT,,T*1B
$GNGSA,A,3,08,194,199,195,21,27,02,16,07,09,04,196,0.80,0.51,0.62,1*06
$GNGSA,A,3,31,,,,,,,,,,,,0.80,0.51,0.62,1*0B
$GNGSA,A,3,82,83,80,79,,,,,,,,,0.80,0.51,0.62,2*0D
$GNGSA,A,3,30,15,34,27,07,,,,,,,,0.80,0.51,0.62,3*09
$GNGSA,A,3,34,06,16,09,11,39,40,07,25,12,24,43,0.80,0.51,0.62,4*0F
$GNGSA,A,3,23,44,,,,,,,,,,,0.80,0.51,0.62,4*0D
$GPGSV,4,1,15,08,70,323,47,194,63,048,38,199,60,167,36,50,60,167,39,1*6E
$GPGSV,4,2,15,195,60,121,36,21,46,166,46,27,45,029,28,02,34,180,44,1*51
$GPGSV,4,3,15,16,33,061,41,07,30,320,33,09,29,260,26,04,28,212,28,1*60
$GPGSV,4,4,15,196,20,172,31,26,15,088,,31,11,139,23,1*62
$GPGSV,2,1,08,08,70,323,45,194,63,048,47,195,60,121,40,199,60,167,48,8*5A
$GPGSV,2,2,08,27,45,029,34,09,29,260,28,04,28,212,21,196,20,172,42,8*53
$GLGSV,2,1,06,82,65,049,43,83,60,178,33,80,48,014,38,79,33,089,37,1*7C
$GLGSV,2,2,06,81,18,028,16,84,01,199,,1*7F
$GAGSV,2,1,06,30,50,033,38,15,47,151,40,34,43,071,28,27,37,316,23,7*75
$GAGSV,2,2,06,07,33,233,26,36,05,035,,7*72
$GAGSV,2,1,05,30,50,033,44,15,47,151,42,34,43,071,42,27,37,316,25,1*73
$GAGSV,2,2,05,07,33,233,28,1*4F
$GBGSV,4,1,16,34,83,070,42,06,78,218,43,16,76,195,43,09,75,290,42,1*76
$GBGSV,4,2,16,11,69,197,43,39,65,180,44,40,64,320,46,07,62,298,36,1*70
$GBGSV,4,3,16,25,59,346,46,12,51,043,37,24,49,097,39,43,44,214,36,1*70
$GBGSV,4,4,16,44,27,040,,23,14,314,28,26,05,121,,10,,,21,1*49
$GBGSV,2,1,08,34,83,070,43,39,65,180,43,40,64,320,44,25,59,346,43,4*79
$GBGSV,2,2,08,24,49,097,40,43,44,214,38,44,27,040,29,23,14,314,22,4*79
$GNACCURACY,4.1*13
$PAIRSAT,1,28,2,0,201,3,0,200,4,0,221,5,0,200,6,0,200,7,0,201,8,0,221,9,0,220,10,0,200,11,0,200,12,0,200,13,0,200,14,0,200,16,0,1,21,0,1,24,0,200,25,0,200,26,0,200,27,0,221,28,0,200,29,0,200,30,0,200,31,0,201,32,0,200,194,0,621,195,0,221,196,0,620,199,0,221*78
$PAIRSAT,2,24,65,0,200,66,0,200,67,0,200,68,0,200,69,0,200,70,0,200,71,0,200,72,0,200,73,0,200,74,0,200,75,0,200,76,0,200,77,0,200,78,0,200,79,0,201,80,0,201,81,0,200,82,0,201,83,0,201,84,0,200,85,0,200,86,0,200,87,0,200,88,0,200*7A
$PAIRSAT,3,22,2,0,1000,3,0,1000,4,0,1000,7,0,1021,8,0,1000,9,0,1000,10,0,1000,11,0,1000,12,0,1200,13,0,1200,15,0,1221,19,0,1200,21,0,1200,24,0,200,25,0,200,26,0,200,27,0,221,30,0,1221,31,0,1200,33,0,1000,34,0,1021,36,0,1000*71
$PAIRSAT,4,43,1,0,200,2,0,200,3,0,600,4,0,200,5,0,200,6,0,201,7,0,201,8,0,200,9,0,1,11,0,1,12,0,1,16,0,1,19,0,600,20,0,600,21,0,600,22,0,600,23,0,621,24,0,621,25,0,621,26,0,600,27,0,600,28,0,600,29,0,600,30,0,600,32,0,400,33,0,400,34,0,421,35,0,400,36,0,400,37,0,400,38,0,400,39,0,421,40,0,421,41,0,400,42,0,400,43,0,421,44,0,421,45,0,400,46,0,400,59,0,400,60,0,400,61,0,400,62,0,400*66
$PAIRDGP,8,2,4,7,8,9,16,21,27*7C
$GNGGA,040413.200,2500.8022249,N,12132.4804441,E,4,55,0.51,16.705,M,15.25,M,1,3335*48
$GNRMC,040413.200,A,2500.8022249,N,12132.4804441,E,0.01,260.95,030324,,,R,V*1C
$GPHDT,88.435,T*07
$GNACCURACY,4.1*13
$GNGGA,040413.300,2500.8022242,N,12132.4804464,E,4,55,0.51,16.711,M,15.25,M,1,3335*40
$GNRMC,040413.300,A,2500.8022242,N,12132.4804464,E,0.01,260.95,030324,,,R,V*11
$GPHDT,,T*1B
$GNACCURACY,4.1*13
$GNGGA,040413.400,2500.8022244,N,12132.4804466,E,4,55,0.51,16.713,M,15.25,M,1,3335*41
$GNRMC,040413.400,A,2500.8022244,N,12132.4804466,E,0.01,260.95,030324,,,R,V*12
$GPHDT,88.181,T*0D
$GNACCURACY,4.1*13
$GNGGA,040413.500,2500.8022229,N,12132.4804438,E,4,55,0.51,16.703,M,15.25,M,0,3335*40
$GNRMC,040413.500,A,2500.8022229,N,12132.4804438,E,0.02,260.95,030324,,,R,V*10
$GPHDT,,T*1B
$GNACCURACY,4.1*13
$GNGGA,040413.600,2500.8022231,N,12132.4804421,E,4,55,0.51,16.686,M,15.25,M,0,3335*4E
$GNRMC,040413.600,A,2500.8022231,N,12132.4804421,E,0.01,260.95,030324,,,R,V*11
$GPHDT,88.144,T*04
$GNACCURACY,4.1*13
$GNGGA,040413.700,2500.8022225,N,12132.4804469,E,4,55,0.51,16.717,M,15.25,M,0,3335*4F
$GNRMC,040413.700,A,2500.8022225,N,12132.4804469,E,0.01,260.95,030324,,,R,V*19
$GPHDT,,T*1B
$GNACCURACY,4.1*13
$GNGGA,040413.800,2500.8022240,N,12132.4804454,E,4,55,0.51,16.703,M,15.25,M,0,3335*48
$GNRMC,040413.800,A,2500.8022240,N,12132.4804454,E,0.13,260.95,030324,,,R,V*18
$GPHDT,88.210,T*06
$GNACCURACY,4.1*13
$GNGGA,040413.900,2500.8022232,N,12132.4804471,E,4,55,0.51,16.712,M,15.25,M,0,3335*4B
$GNRMC,040413.900,A,2500.8022232,N,12132.4804471,E,0.07,260.95,030324,,,R,V*1E
$GPHDT,,T*1B
$GNACCURACY,4.1*13
$GNGGA,040414.000,2500.8022215,N,12132.4804475,E,4,55,0.51,16.713,M,15.25,M,1,3335*44
$GNRMC,040414.000,A,2500.8022215,N,12132.4804475,E,0.02,260.95,030324,,,R,V*14
$GPHDT,87.968,T*0D
$GNACCURACY,4.1*13
$GNGGA,040414.100,2500.8022230,N,12132.4804484,E,4,56,0.51,16.704,M,15.25,M,1,3335*49
$GNRMC,040414.100,A,2500.8022230,N,12132.4804484,E,0.02,260.95,030324,,,R,V*1C
$GPHDT,,T*1B
$GNGSA,A,3,08,194,199,195,21,27,02,16,07,09,04,196,0.80,0.51,0.62,1*06
$GNGSA,A,3,31,,,,,,,,,,,,0.80,0.51,0.62,1*0B
$GNGSA,A,3,82,83,80,79,,,,,,,,,0.80,0.51,0.62,2*0D
$GNGSA,A,3,30,15,34,27,07,,,,,,,,0.80,0.51,0.62,3*09
$GNGSA,A,3,34,06,16,09,11,39,40,07,25,12,24,43,0.80,0.51,0.62,4*0F
$GNGSA,A,3,23,44,,,,,,,,,,,0.80,0.51,0.62,4*0D
$GPGSV,4,1,15,08,70,323,47,194,63,048,38,199,60,167,37,195,60,121,37,1*5B
$GPGSV,4,2,15,50,60,167,40,21,46,166,46,27,45,029,30,02,34,180,44,1*63
$GPGSV,4,3,15,16,33,061,41,07,30,320,34,09,29,260,24,04,28,212,29,1*64
$GPGSV,4,4,15,196,20,172,31,26,15,088,,31,11,139,23,1*62
$GPGSV,2,1,08,08,70,323,45,194,63,048,47,195,60,121,40,199,60,167,48,8*5A
$GPGSV,2,2,08,27,45,029,33,09,29,260,30,04,28,212,23,196,20,172,42,8*5F
$GLGSV,2,1,05,82,65,049,43,83,60,178,33,80,48,014,38,79,33,089,36,1*7E
$GLGSV,2,2,05,81,18,028,12,1*44
$GAGSV,2,1,06,30,50,033,38,15,47,151,40,34,43,071,27,27,37,316,23,7*7A
$GAGSV,2,2,06,07,33,233,28,36,05,035,,7*7C
$GAGSV,2,1,05,30,50,033,44,15,47,151,41,34,43,071,42,27,37,316,28,1*7D
$GAGSV,2,2,05,07,33,233,29,1*4E
$GBGSV,4,1,15,34,83,070,42,06,78,218,43,16,76,195,43,09,75,290,42,1*75
$GBGSV,4,2,15,11,69,197,43,39,65,180,44,40,64,320,46,07,62,298,36,1*73
$GBGSV,4,3,15,25,59,346,46,12,51,043,37,24,49,097,40,43,44,214,36,1*7D
$GBGSV,4,4,15,44,27,040,,23,14,314,28,10,,,21,1*79
$GBGSV,2,1,08,34,83,070,43,39,65,180,43,40,64,320,44,25,59,346,43,4*79
$GBGSV,2,2,08,24,49,097,40,43,44,214,38,44,27,040,29,23,14,314,27,4*7C
$GNACCURACY,4.1*13
$PAIRSAT,1,28,2,0,201,3,0,200,4,0,221,5,0,200,6,0,200,7,0,201,8,0,221,9,0,220,10,0,200,11,0,200,12,0,200,13,0,200,14,0,200,16,0,1,21,0,1,24,0,200,25,0,200,26,0,200,27,0,221,28,0,200,29,0,200,30,0,200,31,0,201,32,0,200,194,0,621,195,0,221,196,0,620,199,0,221*78
$PAIRSAT,2,24,65,0,200,66,0,200,67,0,200,68,0,200,69,0,200,70,0,200,71,0,200,72,0,200,73,0,200,74,0,200,75,0,200,76,0,200,77,0,200,78,0,200,79,0,201,80,0,201,81,0,200,82,0,201,83,0,201,84,0,200,85,0,200,86,0,200,87,0,200,88,0,200*7A
$PAIRSAT,3,22,2,0,1000,3,0,1000,4,0,1000,7,0,1021,8,0,1000,9,0,1000,10,0,1000,11,0,1000,12,0,1200,13,0,1200,15,0,1221,19,0,1200,21,0,1200,24,0,200,25,0,200,26,0,200,27,0,221,30,0,1221,31,0,1200,33,0,1000,34,0,1021,36,0,1000*71
$PAIRSAT,4,43,1,0,200,2,0,200,3,0,600,4,0,200,5,0,200,6,0,201,7,0,201,8,0,200,9,0,1,11,0,1,12,0,1,16,0,1,19,0,600,20,0,600,21,0,600,22,0,600,23,0,621,24,0,621,25,0,621,26,0,600,27,0,600,28,0,600,29,0,600,30,0,600,32,0,400,33,0,400,34,0,421,35,0,400,36,0,400,37,0,400,38,0,400,39,0,421,40,0,421,41,0,400,42,0,400,43,0,421,44,0,421,45,0,400,46,0,400,59,0,400,60,0,400,61,0,400,62,0,400*66
$PAIRDGP,8,2,4,7,8,9,16,21,27*7C
$GNGGA,040414.200,2500.8022235,N,12132.4804503,E,4,56,0.51,16.705,M,15.25,M,1,3335*40
$GNRMC,040414.200,A,2500.8022235,N,12132.4804503,E,0.04,260.95,030324,,,R,V*12
$GPHDT,88.031,T*07
$GNACCURACY,4.1*13
$GNGGA,040414.300,2500.8022224,N,12132.4804487,E,4,56,0.51,16.727,M,15.25,M,1,3335*4C
$GNRMC,040414.300,A,2500.8022224,N,12132.4804487,E,0.02,260.95,030324,,,R,V*18
$GPHDT,,T*1B
$GNACCURACY,4.1*13
$GNGGA,040414.400,2500.8022212,N,12132.4804504,E,4,56,0.51,16.715,M,15.25,M,1,3335*45
$GNRMC,040414.400,A,2500.8022212,N,12132.4804504,E,0.03,260.95,030324,,,R,V*11
$GPHDT,88.069,T*0A
$GNACCURACY,4.1*13
$GNGGA,040414.500,2500.8022194,N,12132.4804581,E,4,56,0.51,16.766,M,15.25,M,0,3335*41
$GNRMC,040414.500,A,2500.8022194,N,12132.4804581,E,0.03,260.95,030324,,,R,V*10
$GPHDT,,T*1B
$GNACCURACY,4.1*13
$GNGGA,040414.600,2500.8022237,N,12132.4804520,E,4,56,0.51,16.742,M,15.25,M,0,3335*45
$GNRMC,040414.600,A,2500.8022237,N,12132.4804520,E,0.03,260.95,030324,,,R,V*12
$GPHDT,88.276,T*06
$GNACCURACY,4.2*10
$GNGGA,040414.700,2500.8022198,N,12132.4804547,E,4,56,0.51,16.749,M,15.25,M,0,3335*48
$GNRMC,040414.700,A,2500.8022198,N,12132.4804547,E,0.03,260.95,030324,,,R,V*14
$GPHDT,,T*1B
$GNACCURACY,4.2*10
$GNGGA,040414.800,2500.8022215,N,12132.4804554,E,4,56,0.51,16.746,M,15.25,M,0,3335*4C
$GNRMC,040414.800,A,2500.8022215,N,12132.4804554,E,0.04,260.95,030324,,,R,V*18
$GPHDT,88.073,T*01
$GNACCURACY,4.2*10
$GNGGA,040414.900,2500.8022195,N,12132.4804541,E,4,56,0.51,16.746,M,15.25,M,0,3335*42
$GNRMC,040414.900,A,2500.8022195,N,12132.4804541,E,0.06,260.95,030324,,,R,V*14
$GPHDT,,T*1B
$GNACCURACY,4.2*10
$GNGGA,040415.000,2500.8022220,N,12132.4804536,E,4,56,0.51,16.731,M,15.25,M,1,3335*46
$GNRMC,040415.000,A,2500.8022220,N,12132.4804536,E,0.01,260.95,030324,,,R,V*16
$GPHDT,88.106,T*02
$GNACCURACY,4.2*10
$GNGGA,040415.100,2500.8022240,N,12132.4804518,E,4,56,0.51,16.722,M,15.25,M,1,3335*4F
$GNRMC,040415.100,A,2500.8022240,N,12132.4804518,E,0.02,260.95,030324,,,R,V*1E
$GPHDT,,T*1B
$GNGSA,A,3,08,194,199,195,21,27,02,16,07,09,04,196,0.80,0.51,0.62,1*06
$GNGSA,A,3,31,,,,,,,,,,,,0.80,0.51,0.62,1*0B
$GNGSA,A,3,82,83,80,79,,,,,,,,,0.80,0.51,0.62,2*0D
$GNGSA,A,3,30,15,34,27,07,,,,,,,,0.80,0.51,0.62,3*09
$GNGSA,A,3,34,06,16,09,11,39,40,07,25,12,24,43,0.80,0.51,0.62,4*0F
$GNGSA,A,3,23,44,,,,,,,,,,,0.80,0.51,0.62,4*0D
$GPGSV,4,1,15,08,70,323,47,194,63,048,39,199,60,167,37,50,60,167,39,1*6E
$GPGSV,4,2,15,195,60,121,38,21,46,166,46,27,45,029,33,02,34,180,44,1*55
$GPGSV,4,3,15,16,33,061,41,07,30,320,32,09,29,260,26,04,28,212,29,1*60
$GPGSV,4,4,15,196,20,172,28,26,15,088,,31,11,139,21,1*68
$GPGSV,2,1,08,08,70,323,45,194,63,048,47,195,60,121,39,199,60,167,48,8*54
$GPGSV,2,2,08,27,45,029,30,09,29,260,27,04,28,212,24,196,20,172,43,8*5C
$GLGSV,2,1,05,82,65,049,43,83,60,178,33,80,48,014,37,79,33,089,36,1*71
$GLGSV,2,2,05,81,18,028,14,1*42
$GAGSV,2,1,07,30,50,033,39,15,47,151,40,34,43,071,32,27,37,316,19,7*77
$GAGSV,2,2,07,07,33,233,28,02,16,082,,36,05,035,,7*42
$GAGSV,2,1,05,30,50,033,44,15,47,151,41,34,43,071,42,27,37,316,25,1*70
$GAGSV,2,2,05,07,33,233,29,1*4E
$GBGSV,4,1,16,34,83,070,42,06,78,218,43,16,76,195,43,09,75,290,42,1*76
$GBGSV,4,2,16,11,69,197,43,39,65,180,44,40,64,320,46,07,62,298,36,1*70
$GBGSV,4,3,16,25,59,346,46,12,51,043,37,24,49,097,40,43,44,214,35,1*7D
$GBGSV,4,4,16,44,27,040,,23,14,314,25,41,03,257,,10,,,22,1*42
$GBGSV,2,1,08,34,83,070,43,39,65,180,43,40,64,320,44,25,59,346,43,4*79
$GBGSV,2,2,08,24,49,097,40,43,44,214,38,44,27,040,29,23,14,314,22,4*79
$GNACCURACY,4.2*10
$PAIRSAT,1,28,2,0,201,3,0,200,4,0,221,5,0,200,6,0,200,7,0,201,8,0,221,9,0,220,10,0,200,11,0,200,12,0,200,13,0,200,14,0,200,16,0,1,21,0,1,24,0,200,25,0,200,26,0,200,27,0,221,28,0,200,29,0,200,30,0,200,31,0,201,32,0,200,194,0,621,195,0,221,196,0,620,199,0,221*78
$PAIRSAT,2,24,65,0,200,66,0,200,67,0,200,68,0,200,69,0,200,70,0,200,71,0,200,72,0,200,73,0,200,74,0,200,75,0,200,76,0,200,77,0,200,78,0,200,79,0,201,80,0,201,81,0,200,82,0,201,83,0,201,84,0,200,85,0,200,86,0,200,87,0,200,88,0,200*7A
$PAIRSAT,3,22,2,0,1000,3,0,1000,4,0,1000,7,0,1021,8,0,1000,9,0,1000,10,0,1000,11,0,1000,12,0,1200,13,0,1200,15,0,1221,19,0,1200,21,0,1200,24,0,200,25,0,200,26,0,200,27,0,221,30,0,1221,31,0,1200,33,0,1000,34,0,1021,36,0,1000*71
$PAIRSAT,4,43,1,0,200,2,0,200,3,0,600,4,0,200,5,0,200,6,0,201,7,0,201,8,0,200,9,0,1,11,0,1,12,0,1,16,0,1,19,0,600,20,0,600,21,0,600,22,0,600,23,0,621,24,0,621,25,0,621,26,0,600,27,0,600,28,0,600,29,0,600,30,0,600,32,0,400,33,0,400,34,0,421,35,0,400,36,0,400,37,0,400,38,0,400,39,0,421,40,0,421,41,0,400,42,0,400,43,0,421,44,0,421,45,0,400,46,0,400,59,0,400,60,0,400,61,0,400,62,0,400*66
$PAIRDGP,8,2,4,7,8,9,16,21,27*7C
$GNGGA,040415.200,2500.8022211,N,12132.4804530,E,4,56,0.51,16.736,M,15.25,M,1,3335*47
$GNRMC,040415.200,A,2500.8022211,N,12132.4804530,E,0.03,260.95,030324,,,R,V*12
$GPHDT,88.228,T*0D
$GNACCURACY,4.2*10
$GNGGA,040415.300,2500.8022231,N,12132.4804549,E,4,56,0.51,16.739,M,15.25,M,1,3335*45
$GNRMC,040415.300,A,2500.8022231,N,12132.4804549,E,0.04,260.95,030324,,,R,V*18
$GPHDT,,T*1B
$GNACCURACY,4.2*10
$GNGGA,040415.400,2500.8022223,N,12132.4804486,E,4,56,0.51,16.734,M,15.25,M,1,3335*4E
$GNRMC,040415.400,A,2500.8022223,N,12132.4804486,E,0.03,260.95,030324,,,R,V*19
$GPHDT,88.169,T*0B
$GNACCURACY,4.2*10
$GNGGA,040415.500,2500.8022251,N,12132.4804472,E,4,56,0.51,16.726,M,15.25,M,0,3335*43
$GNRMC,040415.500,A,2500.8022251,N,12132.4804472,E,0.02,260.95,030324,,,R,V*17
$GPHDT,,T*1B
$GNACCURACY,4.2*10
$GNGGA,040415.600,2500.8022230,N,12132.4804510,E,4,56,0.51,16.725,M,15.25,M,0,3335*41
$GNRMC,040415.600,A,2500.8022230,N,12132.4804510,E,0.02,260.95,030324,,,R,V*16
$GPHDT,87.842,T*04
$GNACCURACY,4.2*10
$GNGGA,040415.700,2500.8022227,N,12132.4804483,E,4,56,0.51,16.721,M,15.25,M,0,3335*49
$GNRMC,040415.700,A,2500.8022227,N,12132.4804483,E,0.04,260.95,030324,,,R,V*1C
$GPHDT,,T*1B
$GNACCURACY,4.2*10
$GNGGA,040415.800,2500.8022223,N,12132.4804501,E,4,56,0.51,16.725,M,15.25,M,0,3335*4D
$GNRMC,040415.800,A,2500.8022223,N,12132.4804501,E,0.06,260.95,030324,,,R,V*1E
$GPHDT,87.867,T*03
$GNACCURACY,4.2*10
$GNGGA,040415.900,2500.8022258,N,12132.4804454,E,4,56,0.51,16.716,M,15.25,M,0,3335*41
$GNRMC,040415.900,A,2500.8022258,N,12132.4804454,E,0.03,260.95,030324,,,R,V*17
$GPHDT,,T*1B
$GNACCURACY,4.2*10
$GNGGA,040416.000,2500.8022244,N,12132.4804523,E,4,56,0.51,16.724,M,15.25,M,1,3335*47
$GNRMC,040416.000,A,2500.8022244,N,12132.4804523,E,0.01,260.95,030324,,,R,V*13
$GPHDT,88.356,T*05
$GNACCURACY,4.2*10
$GNGGA,040416.100,2500.8022241,N,12132.4804483,E,4,56,0.51,16.726,M,15.25,M,1,3335*4A
$GNRMC,040416.100,A,2500.8022241,N,12132.4804483,E,0.02,260.95,030324,,,R,V*1F
$GPHDT,,T*1B
$GNGSA,A,3,08,194,199,195,21,27,02,16,07,09,04,196,0.80,0.51,0.62,1*06
$GNGSA,A,3,31,,,,,,,,,,,,0.80,0.51,0.62,1*0B
$GNGSA,A,3,82,83,80,79,,,,,,,,,0.80,0.51,0.62,2*0D
$GNGSA,A,3,30,15,34,27,07,,,,,,,,0.80,0.51,0.62,3*09
$GNGSA,A,3,34,06,16,09,11,39,40,07,25,12,24,43,0.80,0.51,0.62,4*0F
$GNGSA,A,3,23,44,,,,,,,,,,,0.80,0.51,0.62,4*0D
$GPGSV,4,1,15,08,70,323,46,194,63,048,37,199,60,167,37,50,60,167,39,1*61
$GPGSV,4,2,15,195,60,121,38,21,46,166,46,27,45,029,32,02,34,180,44,1*54
$GPGSV,4,3,15,16,33,061,41,07,30,320,30,09,29,260,27,04,28,212,30,1*6B
$GPGSV,4,4,15,196,20,172,29,26,15,088,,31,11,139,17,1*6C
$GPGSV,2,1,08,08,70,323,45,194,63,048,47,195,60,121,40,199,60,167,48,8*5A
$GPGSV,2,2,08,27,45,029,30,09,29,260,28,04,28,212,19,196,20,172,43,8*5D
$GLGSV,2,1,05,82,65,049,43,83,60,178,34,80,48,014,37,79,33,089,36,1*76
$GLGSV,2,2,05,81,18,028,13,1*45
$GAGSV,2,1,07,30,50,033,39,15,47,150,39,34,43,071,30,27,37,316,19,7*7A
$GAGSV,2,2,07,07,33,233,26,02,16,082,19,36,05,035,,7*44
$GAGSV,2,1,05,30,50,033,44,15,47,150,41,34,43,071,42,27,37,316,20,1*74
$GAGSV,2,2,05,07,33,233,29,1*4E
$GBGSV,4,1,15,34,83,070,42,06,78,218,43,16,76,195,43,09,75,290,42,1*75
$GBGSV,4,2,15,11,69,197,43,39,65,180,44,40,64,320,46,07,62,298,36,1*73
$GBGSV,4,3,15,25,59,346,46,12,51,043,38,24,49,097,41,43,44,214,37,1*72
$GBGSV,4,4,15,44,27,040,,23,14,314,25,10,,,23,1*76
$GBGSV,2,1,08,34,83,070,44,39,65,180,43,40,64,320,44,25,59,346,43,4*7E
$GBGSV,2,2,08,24,49,097,40,43,44,214,37,44,27,040,28,23,14,314,18,4*7E
$GNACCURACY,4.2*10
$PAIRSAT,1,28,2,0,201,3,0,200,4,0,221,5,0,200,6,0,200,7,0,201,8,0,221,9,0,220,10,0,200,11,0,200,12,0,200,13,0,200,14,0,200,16,0,1,21,0,1,24,0,200,25,0,200,26,0,200,27,0,221,28,0,200,29,0,200,30,0,200,31,0,201,32,0,200,194,0,621,195,0,221,196,0,620,199,0,221*78
$PAIRSAT,2,24,65,0,200,66,0,200,67,0,200,68,0,200,69,0,200,70,0,200,71,0,200,72,0,200,73,0,200,74,0,200,75,0,200,76,0,200,77,0,200,78,0,200,79,0,201,80,0,201,81,0,200,82,0,201,83,0,201,84,0,200,85,0,200,86,0,200,87,0,200,88,0,200*7A
$PAIRSAT,3,22,2,0,1000,3,0,1000,4,0,1000,7,0,1021,8,0,1000,9,0,1000,10,0,1000,11,0,1000,12,0,1200,13,0,1200,15,0,1221,19,0,1200,21,0,1200,24,0,200,25,0,200,26,0,200,27,0,221,30,0,1221,31,0,1200,33,0,1000,34,0,1021,36,0,1000*71
$PAIRSAT,4,43,1,0,200,2,0,200,3,0,600,4,0,200,5,0,200,6,0,201,7,0,201,8,0,200,9,0,1,11,0,1,12,0,1,16,0,1,19,0,600,20,0,600,21,0,600,22,0,600,23,0,621,24,0,621,25,0,621,26,0,600,27,0,600,28,0,600,29,0,600,30,0,600,32,0,400,33,0,400,34,0,421,35,0,400,36,0,400,37,0,400,38,0,400,39,0,421,40,0,421,41,0,400,42,0,400,43,0,421,44,0,421,45,0,400,46,0,400,59,0,400,60,0,400,61,0,400,62,0,400*66
$PAIRDGP,8,2,4,7,8,9,16,21,27*7C
$GNGGA,040416.200,2500.8022234,N,12132.4804512,E,4,56,0.51,16.746,M,15.25,M,1,3335*44
$GNRMC,040416.200,A,2500.8022234,N,12132.4804512,E,0.03,260.95,030324,,,R,V*16
$GPHDT,88.039,T*0F
$GNACCURACY,4.2*10
$GNGGA,040416.300,2500.8022234,N,12132.4804513,E,4,56,0.51,16.738,M,15.25,M,1,3335*4D
$GNRMC,040416.300,A,2500.8022234,N,12132.4804513,E,0.04,260.95,030324,,,R,V*11
$GPHDT,,T*1B
$GNACCURACY,4.2*10
$GNGGA,040416.400,2500.8022244,N,12132.4804493,E,4,56,0.51,16.733,M,15.25,M,1,3335*4F
$GNRMC,040416.400,A,2500.8022244,N,12132.4804493,E,0.02,260.95,030324,,,R,V*1E
$GPHDT,88.194,T*09
$GNACCURACY,4.2*10
$GNGGA,040416.500,2500.8022239,N,12132.4804527,E,4,56,0.51,16.747,M,15.25,M,1,3335*49
$GNRMC,040416.500,A,2500.8022239,N,12132.4804527,E,0.02,260.95,030324,,,R,V*1B
$GPHDT,,T*1B
$GNACCURACY,4.2*10
$GNGGA,040416.600,2500.8022215,N,12132.4804507,E,4,55,0.51,16.743,M,15.25,M,1,3335*41
$GNRMC,040416.600,A,2500.8022215,N,12132.4804507,E,0.01,260.95,030324,,,R,V*17
$GPHDT,87.943,T*04
$GNACCURACY,4.2*10
$GNGGA,040416.700,2500.8022228,N,12132.4804510,E,4,55,0.51,16.743,M,15.25,M,1,3335*48
$GNRMC,040416.700,A,2500.8022228,N,12132.4804510,E,0.01,260.95,030324,,,R,V*1E
$GPHDT,,T*1B
$GNACCURACY,4.2*10
$GNGGA,040416.800,2500.8022223,N,12132.4804515,E,4,55,0.51,16.734,M,15.25,M,0,3335*48
$GNRMC,040416.800,A,2500.8022223,N,12132.4804515,E,0.01,260.95,030324,,,R,V*1F
$GPHDT,88.405,T*04
$GNACCURACY,4.2*10
$GNGGA,040416.900,2500.8022214,N,12132.4804516,E,4,55,0.51,16.728,M,15.25,M,0,3335*43
$GNRMC,040416.900,A,2500.8022214,N,12132.4804516,E,0.04,260.95,030324,,,R,V*1C
$GPHDT,,T*1B
$GNACCURACY,4.2*10
$GNGGA,040417.000,2500.8022222,N,12132.4804503,E,4,55,0.51,16.735,M,15.25,M,1,3335*47
$GNRMC,040417.000,A,2500.8022222,N,12132.4804503,E,0.02,260.95,030324,,,R,V*13
$GPHDT,88.328,T*0C
$GNACCURACY,4.2*10
$GNGGA,040417.100,2500.8022230,N,12132.4804544,E,4,55,0.51,16.733,M,15.25,M,1,3335*40
$GNRMC,040417.100,A,2500.8022230,N,12132.4804544,E,0.04,260.95,030324,,,R,V*14
$GPHDT,,T*1B
$GNGSA,A,3,08,194,199,195,21,27,02,16,07,09,04,196,0.80,0.51,0.62,1*06
$GNGSA,A,3,31,,,,,,,,,,,,0.80,0.51,0.62,1*0B
$GNGSA,A,3,82,83,80,79,,,,,,,,,0.80,0.51,0.62,2*0D
$GNGSA,A,3,30,15,34,27,07,,,,,,,,0.80,0.51,0.62,3*09
$GNGSA,A,3,34,06,16,09,11,39,40,07,25,12,24,43,0.80,0.51,0.62,4*0F
$GNGSA,A,3,23,44,,,,,,,,,,,0.80,0.51,0.62,4*0D
$GPGSV,4,1,15,08,70,323,46,194,63,048,36,199,60,167,37,50,60,167,39,1*60
$GPGSV,4,2,15,195,60,121,37,21,46,166,46,27,45,029,32,02,34,180,44,1*5B
$GPGSV,4,3,15,16,33,061,41,07,30,320,27,09,29,260,28,04,28,212,30,1*62
$GPGSV,4,4,15,196,20,172,29,26,15,088,,31,11,139,17,1*6C
$GPGSV,2,1,08,08,70,323,45,194,63,048,47,195,60,121,40,199,60,167,48,8*5A
$GPGSV,2,2,08,27,45,029,33,09,29,260,29,04,28,212,17,196,20,172,43,8*51
$GLGSV,2,1,05,82,65,049,43,83,60,178,34,80,48,014,38,79,33,089,36,1*79
$GLGSV,2,2,05,81,18,028,13,1*45
$GAGSV,2,1,07,30,50,033,40,15,47,150,39,34,43,071,31,27,37,316,19,7*75
$GAGSV,2,2,07,07,33,233,25,02,16,082,24,36,05,035,,7*49
$GAGSV,2,1,05,30,50,033,44,15,47,150,41,34,43,071,42,27,37,316,21,1*75
$GAGSV,2,2,05,07,33,233,29,1*4E
$GBGSV,4,1,15,34,83,070,40,06,78,218,43,16,76,195,44,09,75,290,42,1*70
$GBGSV,4,2,15,11,69,197,43,39,65,180,43,40,64,320,46,07,62,298,36,1*74
$GBGSV,4,3,15,25,59,346,46,12,51,043,38,24,49,097,41,43,44,214,37,1*72
$GBGSV,4,4,15,44,27,040,,23,14,314,27,10,,,19,1*7D
$GBGSV,2,1,08,34,83,070,44,39,65,180,43,40,64,320,43,25,59,346,43,4*79
$GBGSV,2,2,08,24,49,097,40,43,44,214,37,44,27,040,27,23,14,314,16,4*7F
$GNACCURACY,4.3*11
$PAIRSAT,1,28,2,0,201,3,0,200,4,0,221,5,0,200,6,0,200,7,0,201,8,0,221,9,0,220,10,0,200,11,0,200,12,0,200,13,0,200,14,0,200,16,0,1,21,0,1,24,0,200,25,0,200,26,0,200,27,0,221,28,0,200,29,0,200,30,0,200,31,0,201,32,0,200,194,0,621,195,0,221,196,0,620,199,0,221*78
$PAIRSAT,2,24,65,0,200,66,0,200,67,0,200,68,0,200,69,0,200,70,0,200,71,0,200,72,0,200,73,0,200,74,0,200,75,0,200,76,0,200,77,0,200,78,0,200,79,0,201,80,0,201,81,0,200,82,0,201,83,0,201,84,0,200,85,0,200,86,0,200,87,0,200,88,0,200*7A
$PAIRSAT,3,22,2,0,1000,3,0,1000,4,0,1000,7,0,1021,8,0,1000,9,0,1000,10,0,1000,11,0,1000,12,0,1200,13,0,1200,15,0,1221,19,0,1200,21,0,1200,24,0,200,25,0,200,26,0,200,27,0,221,30,0,1221,31,0,1200,33,0,1000,34,0,1021,36,0,1000*71
$PAIRSAT,4,43,1,0,200,2,0,200,3,0,600,4,0,200,5,0,200,6,0,201,7,0,201,8,0,200,9,0,1,11,0,1,12,0,1,16,0,1,19,0,600,20,0,600,21,0,600,22,0,600,23,0,621,24,0,621,25,0,621,26,0,600,27,0,600,28,0,600,29,0,600,30,0,600,32,0,400,33,0,400,34,0,421,35,0,400,36,0,400,37,0,400,38,0,400,39,0,421,40,0,421,41,0,400,42,0,400,43,0,421,44,0,421,45,0,400,46,0,400,59,0,400,60,0,400,61,0,400,62,0,400*66
$PAIRDGP,8,2,4,7,8,9,16,21,27*7C
$GNGGA,040417.200,2500.8022225,N,12132.4804511,E,4,55,0.51,16.725,M,15.25,M,1,3335*40
$GNRMC,040417.200,A,2500.8022225,N,12132.4804511,E,0.04,260.95,030324,,,R,V*13
$GPHDT,88.496,T*0E
$GNACCURACY,4.3*11
$GNGGA,040417.300,2500.8022242,N,12132.4804531,E,4,55,0.51,16.727,M,15.25,M,1,3335*40
$GNRMC,040417.300,A,2500.8022242,N,12132.4804531,E,0.03,260.95,030324,,,R,V*16
$GPHDT,,T*1B
$GNACCURACY,4.3*11
$GNGGA,040417.400,2500.8022238,N,12132.4804529,E,4,55,0.51,16.730,M,15.25,M,1,3335*45
$GNRMC,040417.400,A,2500.8022238,N,12132.4804529,E,0.04,260.95,030324,,,R,V*12
$GPHDT,88.361,T*01
$GNACCURACY,4.3*11
$GNGGA,040417.500,2500.8022210,N,12132.4804544,E,4,55,0.51,16.745,M,15.25,M,1,3335*47
$GNRMC,040417.500,A,2500.8022210,N,12132.4804544,E,0.04,260.95,030324,,,R,V*12
$GPHDT,,T*1B
$GNACCURACY,4.3*11
$GNGGA,040417.600,2500.8022220,N,12132.4804482,E,4,55,0.51,16.741,M,15.25,M,0,3335*49
$GNRMC,040417.600,A,2500.8022220,N,12132.4804482,E,0.03,260.95,030324,,,R,V*1E
