$FW : RTK35X,V1.1X0314AS,Lib20210517,1*54
$Tool : LOCOSYS , GNSS Firebird , v1.0.0.19*39
$---------------------------------------------------*2D
$GNACCURACY,4.0*12
$GNGGA,040735.000,2500.8141400,N,12132.4730500,E,2,62,0.45,21.75,M,15.25,M,1,3335*7D
$GNRMC,040735.000,A,2500.8141400,N,12132.4730500,E,0.01,263.08,030324,,,D,V*0B
$GPHDT,,T*1B
$GNACCURACY,4.0*12
$GNGGA,040735.100,2500.8141300,N,12132.4730500,E,2,62,0.45,21.74,M,15.25,M,1,3335*7A
$GNRMC,040735.100,A,2500.8141300,N,12132.4730500,E,0.01,263.08,030324,,,D,V*0D
$GPHDT,,T*1B
$GNGSA,A,3,08,194,199,195,21,27,02,07,09,04,196,26,0.71,0.45,0.55,1*0A
$GNGSA,A,3,31,,,,,,,,,,,,0.71,0.45,0.55,1*04
$GNGSA,A,3,82,83,80,79,81,73,,,,,,,0.71,0.45,0.55,2*0F
$GNGSA,A,3,30,15,34,27,07,02,,,,,,,0.71,0.45,0.55,3*04
$GNGSA,A,3,34,06,09,16,11,40,39,07,25,10,12,24,0.71,0.45,0.55,4*06
$GNGSA,A,3,43,44,23,,,,,,,,,,0.71,0.45,0.55,4*05
$GPGSV,4,1,15,08,70,328,37,194,63,048,38,199,60,167,22,195,60,120,31,1*54
$GPGSV,4,2,15,21,47,165,20,27,43,030,22,02,35,179,30,16,32,063,17,1*6A
$GPGSV,4,3,15,07,31,320,38,09,28,259,28,04,27,211,24,196,20,172,18,1*5B
$GPGSV,4,4,15,26,14,089,17,31,10,140,25,30,02,319,23,1*5C
$GPGSV,3,1,09,08,70,328,42,194,63,048,43,195,60,120,43,199,60,167,39,8*56
$GPGSV,3,2,09,27,43,030,36,09,28,259,28,04,27,211,23,196,20,172,18,8*55
$GPGSV,3,3,09,30,02,319,24,8*58
$GLGSV,2,1,07,82,64,046,37,83,62,178,19,80,49,017,40,79,33,091,34,1*7D
$GLGSV,2,2,07,81,16,028,21,73,15,323,29,71,05,300,22,1*41
$GAGSV,2,1,07,30,50,034,40,15,48,150,24,34,43,069,26,27,37,317,40,7*73
$GAGSV,2,2,07,07,32,232,23,02,15,083,23,08,11,182,20,7*4D
$GAGSV,2,1,06,30,50,034,39,15,48,150,31,34,43,069,33,27,37,317,41,1*7B
$GAGSV,2,2,06,07,32,232,26,02,15,083,20,1*7D
$GBGSV,4,1,15,34,82,061,36,06,78,217,33,09,75,287,31,16,75,195,36,1*7C
$GBGSV,4,2,15,11,71,198,32,40,64,321,39,39,64,181,35,07,62,299,34,1*7F
$GBGSV,4,3,15,25,60,347,41,10,52,282,31,12,50,042,39,24,48,099,30,1*7E
$GBGSV,4,4,15,43,46,215,31,44,26,040,36,23,15,315,34,1*43
$GBGSV,2,1,08,34,82,061,35,39,64,181,26,40,64,321,39,25,60,347,41,4*78
$GBGSV,2,2,08,24,48,099,33,43,46,215,26,44,26,040,34,23,15,315,31,4*71
$GNACCURACY,4.0*12
$PAIRSAT,1,33,2,0,201,3,0,200,4,0,221,5,0,200,6,0,200,7,0,201,8,0,221,9,0,221,10,0,200,11,0,200,12,0,200,13,0,200,14,0,200,15,0,200,16,0,201,17,0,200,18,0,200,19,0,200,20,0,200,21,0,1,24,0,200,25,0,200,26,0,220,27,0,221,28,0,200,29,0,200,30,0,200,31,0,201,32,0,200,194,0,621,195,0,221,196,0,620,199,0,621*58
$PAIRSAT,2,24,65,0,200,66,0,200,67,0,200,68,0,200,69,0,200,70,0,200,71,0,200,72,0,200,73,0,201,74,0,200,75,0,200,76,0,200,77,0,200,78,0,200,79,0,201,80,0,201,81,0,201,82,0,201,83,0,201,84,0,200,85,0,200,86,0,200,87,0,200,88,0,200*7A
$PAIRSAT,3,23,2,0,1021,3,0,1200,4,0,1200,5,0,200,7,0,1021,8,0,1000,9,0,1000,10,0,1000,11,0,1000,12,0,1200,13,0,1200,15,0,1221,19,0,1200,21,0,1200,24,0,1200,25,0,1200,26,0,1200,27,0,1221,30,0,1221,31,0,1200,33,0,1200,34,0,1221,36,0,1200*6A
$PAIRSAT,4,46,1,0,200,2,0,200,3,0,600,4,0,200,5,0,200,6,0,201,7,0,201,8,0,200,9,0,201,10,0,201,11,0,201,12,0,201,13,0,200,14,0,200,16,0,1,19,0,600,20,0,600,21,0,600,22,0,600,23,0,621,24,0,621,25,0,621,26,0,600,27,0,600,28,0,600,29,0,600,30,0,600,32,0,600,33,0,600,34,0,621,35,0,600,36,0,400,37,0,400,38,0,400,39,0,421,40,0,421,41,0,400,42,0,400,43,0,421,44,0,421,45,0,400,46,0,400,59,0,400,60,0,400,61,0,400,62,0,400*48
$PAIRDGP,7,2,4,7,9,16,21,31*60
$GNGGA,040735.200,2500.8141300,N,12132.4730500,E,2,62,0.45,21.74,M,15.25,M,1,3335*79
$GNRMC,040735.200,A,2500.8141300,N,12132.4730500,E,0.01,263.08,030324,,,D,V*0E
$GPHDT,,T*1B
$GNACCURACY,4.0*12
$GNGGA,040735.300,2500.8141300,N,12132.4730600,E,2,62,0.45,21.74,M,15.25,M,1,3335*7B
$GNRMC,040735.300,A,2500.8141300,N,12132.4730600,E,0.01,263.08,030324,,,D,V*0C
$GPHDT,,T*1B
$GNACCURACY,4.0*12
$GNGGA,040735.400,2500.8141300,N,12132.4730600,E,2,62,0.45,21.73,M,15.25,M,1,3335*7B
$GNRMC,040735.400,A,2500.8141300,N,12132.4730600,E,0.03,263.08,030324,,,D,V*09
$GPHDT,,T*1B
$GNACCURACY,4.0*12
$GNGGA,040735.500,2500.8141300,N,12132.4730600,E,2,62,0.45,21.73,M,15.25,M,1,3335*7A
$GNRMC,040735.500,A,2500.8141300,N,12132.4730600,E,0.03,263.08,030324,,,D,V*08
$GPHDT,,T*1B
$GNACCURACY,4.0*12
$GNGGA,040735.600,2500.8141300,N,12132.4730600,E,2,62,0.45,21.72,M,15.25,M,1,3335*78
$GNRMC,040735.600,A,2500.8141300,N,12132.4730600,E,0.02,263.08,030324,,,D,V*0A
$GPHDT,,T*1B
$GNACCURACY,4.0*12
$GNGGA,040735.700,2500.8141200,N,12132.4730700,E,2,62,0.45,21.72,M,15.25,M,0,3335*78
$GNRMC,040735.700,A,2500.8141200,N,12132.4730700,E,0.03,263.08,030324,,,D,V*0A
$GPHDT,,T*1B
$GNACCURACY,4.0*12
$GNGGA,040735.800,2500.8141200,N,12132.4730700,E,2,62,0.45,21.71,M,15.25,M,0,3335*74
$GNRMC,040735.800,A,2500.8141200,N,12132.4730700,E,0.03,263.08,030324,,,D,V*05
$GPHDT,,T*1B
$GNACCURACY,4.0*12
$GNGGA,040735.900,2500.8141200,N,12132.4730700,E,2,62,0.45,21.70,M,15.25,M,0,3335*74
$GNRMC,040735.900,A,2500.8141200,N,12132.4730700,E,0.05,263.08,030324,,,D,V*02
$GPHDT,,T*1B
$GNACCURACY,4.0*12
$GNGGA,040736.000,2500.8141200,N,12132.4730800,E,2,62,0.45,21.70,M,15.25,M,1,3335*70
$GNRMC,040736.000,A,2500.8141200,N,12132.4730800,E,0.05,263.08,030324,,,D,V*07
$GPHDT,,T*1B
$GNACCURACY,4.0*12
$GNGGA,040736.100,2500.8141200,N,12132.4730800,E,2,62,0.45,21.69,M,15.25,M,1,3335*79
$GNRMC,040736.100,A,2500.8141200,N,12132.4730800,E,0.06,263.08,030324,,,D,V*05
$GPHDT,,T*1B
$GNGSA,A,3,08,194,199,195,21,27,02,07,09,04,196,26,0.71,0.45,0.55,1*0A
$GNGSA,A,3,31,,,,,,,,,,,,0.71,0.45,0.55,1*04
$GNGSA,A,3,82,83,80,79,81,73,,,,,,,0.71,0.45,0.55,2*0F
$GNGSA,A,3,30,15,34,27,07,02,,,,,,,0.71,0.45,0.55,3*04
$GNGSA,A,3,34,06,16,09,11,40,39,07,25,10,12,24,0.71,0.45,0.55,4*06
$GNGSA,A,3,43,44,23,,,,,,,,,,0.71,0.45,0.55,4*05
$GPGSV,4,1,15,08,70,328,38,194,63,048,40,199,60,167,23,195,60,120,29,1*5C
$GPGSV,4,2,15,21,47,165,20,27,43,030,24,02,35,179,28,16,32,063,16,1*64
$GPGSV,4,3,15,07,31,320,40,09,28,259,28,04,27,211,21,196,20,172,17,1*5E
$GPGSV,4,4,15,26,14,089,20,31,10,140,23,30,02,319,23,1*5E
$GPGSV,3,1,09,08,70,328,42,194,63,048,42,195,60,120,40,199,60,167,39,8*54
$GPGSV,3,2,09,27,43,030,36,09,28,259,27,04,27,211,21,196,20,172,19,8*59
$GPGSV,3,3,09,30,02,319,24,8*58
$GLGSV,2,1,08,82,64,046,39,83,62,178,18,80,49,017,40,79,33,091,36,1*7F
$GLGSV,2,2,08,81,16,028,20,73,15,323,29,70,08,254,,71,05,300,22,1*73
$GAGSV,2,1,07,30,50,034,41,15,48,150,24,34,43,069,24,27,37,317,41,7*71
$GAGSV,2,2,07,07,32,232,21,02,15,083,20,08,11,182,20,7*4C
$GAGSV,2,1,06,30,50,034,37,15,48,150,30,34,43,069,33,27,37,317,40,1*75
$GAGSV,2,2,06,07,32,232,26,02,15,083,17,1*79
$GBGSV,4,1,15,34,82,061,35,06,78,217,32,16,75,195,36,09,75,287,33,1*7C
$GBGSV,4,2,15,11,71,198,32,40,64,321,39,39,64,181,33,07,62,299,33,1*7E
$GBGSV,4,3,15,25,60,347,41,10,52,282,28,12,49,042,39,24,48,099,28,1*77
$GBGSV,4,4,15,43,46,215,31,44,26,040,35,23,15,315,33,1*47
$GBGSV,2,1,08,34,82,061,35,39,64,181,25,40,64,321,39,25,60,347,40,4*7A
$GBGSV,2,2,08,24,48,099,37,43,46,215,26,44,26,040,34,23,15,315,31,4*75
$GNACCURACY,4.0*12
$PAIRSAT,1,33,2,0,201,3,0,200,4,0,221,5,0,200,6,0,200,7,0,201,8,0,221,9,0,221,10,0,200,11,0,200,12,0,200,13,0,200,14,0,200,15,0,200,16,0,201,17,0,200,18,0,200,19,0,200,20,0,200,21,0,1,24,0,200,25,0,200,26,0,220,27,0,221,28,0,200,29,0,200,30,0,200,31,0,201,32,0,200,194,0,621,195,0,221,196,0,620,199,0,621*58
$PAIRSAT,2,24,65,0,200,66,0,200,67,0,200,68,0,200,69,0,200,70,0,200,71,0,200,72,0,200,73,0,201,74,0,200,75,0,200,76,0,200,77,0,200,78,0,200,79,0,201,80,0,201,81,0,201,82,0,201,83,0,201,84,0,200,85,0,200,86,0,200,87,0,200,88,0,200*7A
$PAIRSAT,3,23,2,0,1021,3,0,1200,4,0,1200,5,0,200,7,0,1021,8,0,1000,9,0,1000,10,0,1000,11,0,1000,12,0,1200,13,0,1200,15,0,1221,19,0,1200,21,0,1200,24,0,1200,25,0,1200,26,0,1200,27,0,1221,30,0,1221,31,0,1200,33,0,1200,34,0,1221,36,0,1200*6A
$PAIRSAT,4,46,1,0,200,2,0,200,3,0,600,4,0,200,5,0,200,6,0,201,7,0,201,8,0,200,9,0,201,10,0,201,11,0,201,12,0,201,13,0,200,14,0,200,16,0,1,19,0,600,20,0,600,21,0,600,22,0,600,23,0,621,24,0,621,25,0,621,26,0,600,27,0,600,28,0,600,29,0,600,30,0,600,32,0,600,33,0,600,34,0,621,35,0,600,36,0,400,37,0,400,38,0,400,39,0,421,40,0,421,41,0,400,42,0,400,43,0,421,44,0,421,45,0,400,46,0,400,59,0,400,60,0,400,61,0,400,62,0,400*48
$PAIRDGP,7,2,4,7,9,16,21,31*60
$GNGGA,040736.200,2500.8141200,N,12132.4730800,E,2,62,0.45,21.68,M,15.25,M,1,3335*7B
$GNRMC,040736.200,A,2500.8141200,N,12132.4730800,E,0.05,263.08,030324,,,D,V*05
$GPHDT,,T*1B
$GNACCURACY,4.0*12
$GNGGA,040736.300,2500.8141100,N,12132.4730800,E,2,62,0.45,21.68,M,15.25,M,1,3335*79
$GNRMC,040736.300,A,2500.8141100,N,12132.4730800,E,0.06,263.08,030324,,,D,V*04
$GPHDT,,T*1B
$GNACCURACY,4.0*12
$GNGGA,040736.400,2500.8141100,N,12132.4730800,E,2,62,0.45,21.66,M,15.25,M,1,3335*70
$GNRMC,040736.400,A,2500.8141100,N,12132.4730800,E,0.05,263.08,030324,,,D,V*00
$GPHDT,,T*1B
$GNACCURACY,4.0*12
$GNGGA,040736.500,2500.8141100,N,12132.4730700,E,2,62,0.45,21.65,M,15.25,M,1,3335*7D
$GNRMC,040736.500,A,2500.8141100,N,12132.4730700,E,0.06,263.08,030324,,,D,V*0D
$GPHDT,,T*1B
$GNACCURACY,3.9*1C
$GNGGA,040736.600,2500.8141000,N,12132.4730700,E,2,61,0.45,21.64,M,15.25,M,1,3335*7D
$GNRMC,040736.600,A,2500.8141000,N,12132.4730700,E,0.06,263.08,030324,,,D,V*0F
$GPHDT,,T*1B
$GNACCURACY,3.9*1C
$GNGGA,040736.700,2500.8141000,N,12132.4730800,E,2,61,0.45,21.63,M,15.25,M,0,3335*75
$GNRMC,040736.700,A,2500.8141000,N,12132.4730800,E,0.06,263.08,030324,,,D,V*01
$GPHDT,,T*1B
$GNACCURACY,3.9*1C
$GNGGA,040736.800,2500.8141100,N,12132.4730800,E,2,61,0.45,21.62,M,15.25,M,0,3335*7A
$GNRMC,040736.800,A,2500.8141100,N,12132.4730800,E,0.05,263.08,030324,,,D,V*0C
$GPHDT,,T*1B
$GNACCURACY,3.9*1C
$GNGGA,040736.900,2500.8141200,N,12132.4730800,E,2,63,0.45,21.61,M,15.25,M,0,3335*79
$GNRMC,040736.900,A,2500.8141200,N,12132.4730800,E,0.06,263.08,030324,,,D,V*0D
$GPHDT,,T*1B
$GNACCURACY,3.9*1C
$GNGGA,040737.000,2500.8141200,N,12132.4730800,E,2,63,0.45,21.59,M,15.25,M,1,3335*7B
$GNRMC,040737.000,A,2500.8141200,N,12132.4730800,E,0.06,263.08,030324,,,D,V*05
$GPHDT,,T*1B
$GNACCURACY,3.9*1C
$GNGGA,040737.100,2500.8141200,N,12132.4730900,E,2,63,0.45,21.59,M,15.25,M,1,3335*7B
$GNRMC,040737.100,A,2500.8141200,N,12132.4730900,E,0.05,263.08,030324,,,D,V*06
$GPHDT,,T*1B
$GNGSA,A,3,08,194,195,199,21,27,02,16,07,09,04,196,0.71,0.45,0.55,1*09
$GNGSA,A,3,26,31,,,,,,,,,,,0.71,0.45,0.55,1*00
$GNGSA,A,3,82,83,80,79,81,73,,,,,,,0.71,0.45,0.55,2*0F
$GNGSA,A,3,30,15,34,27,07,02,,,,,,,0.71,0.45,0.55,3*04
$GNGSA,A,3,34,06,09,16,11,40,39,07,25,10,12,24,0.71,0.45,0.55,4*06
$GNGSA,A,3,43,44,23,,,,,,,,,,0.71,0.45,0.55,4*05
$GPGSV,4,1,15,08,70,328,40,194,63,048,38,195,60,120,30,199,60,167,21,1*56
$GPGSV,4,2,15,21,47,165,19,27,43,030,28,02,35,179,30,16,32,063,20,1*6E
$GPGSV,4,3,15,07,31,320,43,09,28,259,25,04,27,211,19,196,20,172,16,1*5A
$GPGSV,4,4,15,26,14,089,17,31,10,140,20,30,02,319,21,1*5B
$GPGSV,3,1,09,08,70,328,43,194,63,048,42,195,60,120,41,199,60,167,40,8*5A
$GPGSV,3,2,09,27,43,030,37,09,28,259,28,04,27,211,20,196,20,172,19,8*56
$GPGSV,3,3,09,30,02,319,24,8*58
$GLGSV,3,1,09,82,64,046,39,83,62,178,19,80,49,017,40,79,33,091,35,1*7D
$GLGSV,3,2,09,81,16,028,18,73,15,323,28,70,08,254,,71,05,300,21,1*7A
$GLGSV,3,3,09,84,03,199,,1*4F
$GAGSV,2,1,08,30,50,034,40,15,48,150,26,34,43,069,24,27,37,317,41,7*7D
$GAGSV,2,2,08,07,32,232,19,02,15,083,22,08,11,182,19,36,04,034,,7*76
$GAGSV,2,1,06,30,50,034,38,15,48,150,31,34,43,069,33,27,37,317,40,1*7B
$GAGSV,2,2,06,07,32,232,27,02,15,083,19,1*76
$GBGSV,4,1,16,34,82,061,34,06,78,217,31,09,75,287,35,16,75,195,35,1*78
$GBGSV,4,2,16,11,71,198,31,40,64,321,39,39,64,181,34,07,62,299,34,1*7E
$GBGSV,4,3,16,25,60,347,40,10,52,282,23,12,49,042,38,24,48,099,32,1*74
$GBGSV,4,4,16,43,46,215,32,44,26,040,33,23,15,315,36,26,04,122,,1*75
$GBGSV,2,1,08,34,82,061,35,39,64,181,27,40,64,321,41,25,60,347,41,4*76
$GBGSV,2,2,08,24,48,099,36,43,46,215,24,44,26,040,34,23,15,315,37,4*70
$GNACCURACY,3.9*1C
$PAIRSAT,1,33,2,0,201,3,0,200,4,0,221,5,0,200,6,0,200,7,0,201,8,0,221,9,0,221,10,0,200,11,0,200,12,0,200,13,0,200,14,0,200,15,0,200,16,0,201,17,0,200,18,0,200,19,0,200,20,0,200,21,0,1,24,0,200,25,0,200,26,0,220,27,0,221,28,0,200,29,0,200,30,0,200,31,0,201,32,0,200,194,0,621,195,0,221,196,0,620,199,0,621*58
$PAIRSAT,2,24,65,0,200,66,0,200,67,0,200,68,0,200,69,0,200,70,0,200,71,0,200,72,0,200,73,0,201,74,0,200,75,0,200,76,0,200,77,0,200,78,0,200,79,0,201,80,0,201,81,0,201,82,0,201,83,0,201,84,0,200,85,0,200,86,0,200,87,0,200,88,0,200*7A
$PAIRSAT,3,23,2,0,1021,3,0,1200,4,0,1200,5,0,200,7,0,1021,8,0,1000,9,0,1000,10,0,1000,11,0,1000,12,0,1200,13,0,1200,15,0,1221,19,0,1200,21,0,1200,24,0,1200,25,0,1200,26,0,1200,27,0,1221,30,0,1221,31,0,1200,33,0,1200,34,0,1221,36,0,1200*6A
$PAIRSAT,4,46,1,0,200,2,0,200,3,0,600,4,0,200,5,0,200,6,0,201,7,0,201,8,0,200,9,0,201,10,0,201,11,0,201,12,0,201,13,0,200,14,0,200,16,0,1,19,0,600,20,0,600,21,0,600,22,0,600,23,0,621,24,0,621,25,0,621,26,0,600,27,0,600,28,0,600,29,0,600,30,0,600,32,0,600,33,0,600,34,0,621,35,0,600,36,0,400,37,0,400,38,0,400,39,0,421,40,0,421,41,0,400,42,0,400,43,0,421,44,0,421,45,0,400,46,0,400,59,0,400,60,0,400,61,0,400,62,0,400*48
$PAIRDGP,7,2,4,7,9,16,21,31*60
$GNGGA,040737.200,2500.8141200,N,12132.4730900,E,2,63,0.45,21.58,M,15.25,M,1,3335*79
$GNRMC,040737.200,A,2500.8141200,N,12132.4730900,E,0.05,263.08,030324,,,D,V*05
$GPHDT,,T*1B
$GNACCURACY,3.9*1C
$GNGGA,040737.300,2500.8141300,N,12132.4730900,E,2,63,0.45,21.57,M,15.25,M,1,3335*76
$GNRMC,040737.300,A,2500.8141300,N,12132.4730900,E,0.05,263.08,030324,,,D,V*05
$GPHDT,,T*1B
$GNACCURACY,3.9*1C
$GNGGA,040737.400,2500.8141300,N,12132.4731000,E,2,63,0.45,21.56,M,15.25,M,1,3335*78
$GNRMC,040737.400,A,2500.8141300,N,12132.4731000,E,0.05,263.08,030324,,,D,V*0A
$GPHDT,,T*1B
$GNACCURACY,3.9*1C
$GNGGA,040737.500,2500.8141300,N,12132.4731000,E,2,63,0.45,21.55,M,15.25,M,1,3335*7A
$GNRMC,040737.500,A,2500.8141300,N,12132.4731000,E,0.05,263.08,030324,,,D,V*0B
$GPHDT,,T*1B
$GNACCURACY,3.9*1C
$GNGGA,040737.600,2500.8141300,N,12132.4731000,E,2,63,0.45,21.55,M,15.25,M,0,3335*78
$GNRMC,040737.600,A,2500.8141300,N,12132.4731000,E,0.05,263.08,030324,,,D,V*08
$GPHDT,,T*1B
$GNACCURACY,3.9*1C
$GNGGA,040737.700,2500.8141500,N,12132.4731100,E,2,63,0.45,21.54,M,15.25,M,0,3335*7F
$GNRMC,040737.700,A,2500.8141500,N,12132.4731100,E,0.05,263.08,030324,,,D,V*0E
$GPHDT,,T*1B
$GNACCURACY,3.9*1C
$GNGGA,040737.800,2500.8141500,N,12132.4731200,E,2,62,0.45,21.53,M,15.25,M,0,3335*75
$GNRMC,040737.800,A,2500.8141500,N,12132.4731200,E,0.04,263.08,030324,,,D,V*03
$GPHDT,,T*1B
$GNACCURACY,3.9*1C
$GNGGA,040737.900,2500.8141600,N,12132.4731200,E,2,62,0.45,21.52,M,15.25,M,0,3335*76
$GNRMC,040737.900,A,2500.8141600,N,12132.4731200,E,0.03,263.08,030324,,,D,V*06
$GPHDT,,T*1B
$GNACCURACY,3.9*1C
$GNGGA,040738.000,2500.8141700,N,12132.4731200,E,2,62,0.45,21.51,M,15.25,M,1,3335*73
$GNRMC,040738.000,A,2500.8141700,N,12132.4731200,E,0.01,263.08,030324,,,D,V*03
$GPHDT,,T*1B
$GNACCURACY,3.9*1C
$GNGGA,040738.100,2500.8141800,N,12132.4731300,E,2,62,0.45,21.50,M,15.25,M,1,3335*7D
$GNRMC,040738.100,A,2500.8141800,N,12132.4731300,E,0.03,263.08,030324,,,D,V*0E
$GPHDT,,T*1B
$GNGSA,A,3,08,194,199,195,21,27,02,16,07,09,04,196,0.71,0.45,0.55,1*09
$GNGSA,A,3,26,31,,,,,,,,,,,0.71,0.45,0.55,1*00
$GNGSA,A,3,82,83,80,79,81,73,,,,,,,0.71,0.45,0.55,2*0F
$GNGSA,A,3,30,15,34,27,07,02,,,,,,,0.71,0.45,0.55,3*04
$GNGSA,A,3,34,06,09,16,11,40,39,07,25,10,12,24,0.71,0.45,0.55,4*06
$GNGSA,A,3,43,44,23,,,,,,,,,,0.71,0.45,0.55,4*05
$GPGSV,4,1,15,08,70,328,38,194,63,048,38,199,60,167,24,195,60,120,25,1*58
$GPGSV,4,2,15,21,47,165,17,27,43,030,25,02,35,179,31,16,32,063,22,1*6E
$GPGSV,4,3,15,07,31,320,43,09,28,259,24,04,27,211,16,196,20,172,16,1*54
$GPGSV,4,4,15,26,14,089,19,31,10,140,17,30,02,319,21,1*51
$GPGSV,2,1,08,08,70,328,44,194,63,048,44,195,60,120,42,199,60,167,40,8*58
$GPGSV,2,2,08,27,43,030,38,09,28,259,30,196,20,172,18,30,02,319,24,8*5C
$GLGSV,2,1,08,82,64,046,39,83,62,178,19,80,49,017,40,79,33,091,34,1*7C
$GLGSV,2,2,08,81,16,028,21,73,15,323,27,71,05,300,22,84,03,199,,1*7E
$GAGSV,2,1,08,30,50,034,40,15,48,150,24,34,43,069,25,27,37,317,42,7*7D
$GAGSV,2,2,08,07,32,232,23,02,15,083,24,08,11,182,19,36,04,034,,7*79
$GAGSV,2,1,06,30,50,034,39,15,48,150,32,34,43,069,34,27,37,317,41,1*7F
$GAGSV,2,2,06,07,32,232,27,02,15,083,23,1*7F
$GBGSV,4,1,15,34,82,060,35,06,78,217,31,09,75,287,35,16,75,195,34,1*7A
$GBGSV,4,2,15,11,71,198,32,40,64,321,40,39,64,181,35,07,62,299,34,1*71
$GBGSV,4,3,15,25,60,347,40,10,52,282,18,12,49,042,37,24,48,099,33,1*71
$GBGSV,4,4,15,43,46,215,34,44,26,040,35,23,15,315,37,1*46
$GBGSV,2,1,08,34,82,060,35,39,64,181,29,40,64,321,42,25,60,347,41,4*7A
$GBGSV,2,2,08,24,48,099,38,43,46,215,22,44,26,040,36,23,15,315,37,4*7A
$GNACCURACY,3.9*1C
$PAIRSAT,1,33,2,0,201,3,0,200,4,0,221,5,0,200,6,0,200,7,0,201,8,0,221,9,0,221,10,0,200,11,0,200,12,0,200,13,0,200,14,0,200,15,0,200,16,0,201,17,0,200,18,0,200,19,0,200,20,0,200,21,0,1,24,0,200,25,0,200,26,0,220,27,0,221,28,0,200,29,0,200,30,0,200,31,0,201,32,0,200,194,0,621,195,0,221,196,0,620,199,0,621*58
$PAIRSAT,2,24,65,0,200,66,0,200,67,0,200,68,0,200,69,0,200,70,0,200,71,0,200,72,0,200,73,0,201,74,0,200,75,0,200,76,0,200,77,0,200,78,0,200,79,0,201,80,0,201,81,0,201,82,0,201,83,0,201,84,0,200,85,0,200,86,0,200,87,0,200,88,0,200*7A
$PAIRSAT,3,23,2,0,1021,3,0,1200,4,0,1200,5,0,200,7,0,1021,8,0,1000,9,0,1000,10,0,1000,11,0,1000,12,0,1200,13,0,1200,15,0,1221,19,0,1200,21,0,1200,24,0,1200,25,0,1200,26,0,1200,27,0,1221,30,0,1221,31,0,1200,33,0,1200,34,0,1221,36,0,1200*6A
$PAIRSAT,4,46,1,0,200,2,0,200,3,0,600,4,0,200,5,0,200,6,0,201,7,0,201,8,0,200,9,0,201,10,0,201,11,0,201,12,0,201,13,0,200,14,0,200,16,0,1,19,0,600,20,0,600,21,0,600,22,0,600,23,0,621,24,0,621,25,0,621,26,0,600,27,0,600,28,0,600,29,0,600,30,0,600,32,0,600,33,0,600,34,0,621,35,0,600,36,0,400,37,0,400,38,0,400,39,0,421,40,0,421,41,0,400,42,0,400,43,0,421,44,0,421,45,0,400,46,0,400,59,0,400,60,0,400,61,0,400,62,0,400*48
$PAIRDGP,7,2,4,7,9,16,21,31*60
$GNGGA,040738.200,2500.8141900,N,12132.4731400,E,2,62,0.45,21.49,M,15.25,M,1,3335*70
$GNRMC,040738.200,A,2500.8141900,N,12132.4731400,E,0.07,263.08,030324,,,D,V*0F
$GPHDT,,T*1B
$GNACCURACY,3.9*1C
$GNGGA,040738.300,2500.8142100,N,12132.4731500,E,2,62,0.45,21.48,M,15.25,M,1,3335*7A
$GNRMC,040738.300,A,2500.8142100,N,12132.4731500,E,0.08,263.08,030324,,,D,V*0B
$GPHDT,,T*1B
$GNACCURACY,3.9*1C
$GNGGA,040738.400,2500.8142200,N,12132.4731600,E,2,62,0.45,21.47,M,15.25,M,1,3335*72
$GNRMC,040738.400,A,2500.8142200,N,12132.4731600,E,0.07,263.08,030324,,,D,V*03
$GPHDT,,T*1B
$GNACCURACY,3.9*1C
$GNGGA,040738.500,2500.8142300,N,12132.4731700,E,2,61,0.45,21.46,M,15.25,M,1,3335*71
$GNRMC,040738.500,A,2500.8142300,N,12132.4731700,E,0.08,263.08,030324,,,D,V*0D
$GPHDT,,T*1B
$GNACCURACY,3.9*1C
$GNGGA,040738.600,2500.8142400,N,12132.4731800,E,2,61,0.45,21.45,M,15.25,M,1,3335*79
$GNRMC,040738.600,A,2500.8142400,N,12132.4731800,E,0.09,263.08,030324,,,D,V*07
$GPHDT,,T*1B
$GNACCURACY,3.9*1C
$GNGGA,040738.700,2500.8142600,N,12132.4731900,E,2,62,0.45,21.44,M,15.25,M,0,3335*78
$GNRMC,040738.700,A,2500.8142600,N,12132.4731900,E,0.09,263.08,030324,,,D,V*05
$GPHDT,,T*1B
$GNACCURACY,3.9*1C
$GNGGA,040738.800,2500.8142700,N,12132.4732000,E,2,62,0.45,21.43,M,15.25,M,0,3335*7B
$GNRMC,040738.800,A,2500.8142700,N,12132.4732000,E,0.09,263.08,030324,,,D,V*01
$GPHDT,,T*1B
$GNACCURACY,3.9*1C
$GNGGA,040738.900,2500.8142900,N,12132.4732100,E,2,62,0.45,21.42,M,15.25,M,0,3335*74
$GNRMC,040738.900,A,2500.8142900,N,12132.4732100,E,0.10,263.08,030324,,,D,V*07
$GPHDT,,T*1B
$GNACCURACY,3.9*1C
$GNGGA,040739.000,2500.8143000,N,12132.4732200,E,2,63,0.45,21.41,M,15.25,M,1,3335*74
$GNRMC,040739.000,A,2500.8143000,N,12132.4732200,E,0.09,263.08,030324,,,D,V*0C
$GPHDT,,T*1B
$GNACCURACY,3.9*1C
$GNGGA,040739.100,2500.8143200,N,12132.4732200,E,2,62,0.46,21.41,M,15.25,M,1,3335*75
$GNRMC,040739.100,A,2500.8143200,N,12132.4732200,E,0.09,263.08,030324,,,D,V*0F
$GPHDT,,T*1B
$GNGSA,A,3,08,194,195,199,27,02,16,07,09,04,196,26,0.72,0.46,0.55,1*0E
$GNGSA,A,3,31,,,,,,,,,,,,0.72,0.46,0.55,1*04
$GNGSA,A,3,82,83,80,79,81,73,,,,,,,0.72,0.46,0.55,2*0F
$GNGSA,A,3,30,15,34,27,07,02,,,,,,,0.72,0.46,0.55,3*04
$GNGSA,A,3,34,06,09,16,11,39,40,07,25,10,12,24,0.72,0.46,0.55,4*06
$GNGSA,A,3,43,44,23,,,,,,,,,,0.72,0.46,0.55,4*05
$GPGSV,4,1,15,08,70,328,37,194,63,048,38,195,60,120,24,199,60,167,25,1*57
$GPGSV,4,2,15,21,47,165,14,27,43,030,27,02,35,179,32,16,32,063,21,1*6F
$GPGSV,4,3,15,07,31,320,43,09,28,259,21,04,27,211,20,196,20,172,16,1*54
$GPGSV,4,4,15,26,14,089,20,31,10,140,17,30,02,319,21,1*5B
$GPGSV,3,1,09,08,70,328,44,194,63,048,44,195,60,120,42,199,60,167,39,8*56
$GPGSV,3,2,09,27,43,030,39,09,28,259,30,196,20,172,18,26,14,089,17,8*57
$GPGSV,3,3,09,30,02,319,22,8*5E
$GLGSV,2,1,07,82,64,046,38,83,62,178,18,80,49,017,40,79,33,091,35,1*72
$GLGSV,2,2,07,81,16,028,17,73,15,323,27,71,05,300,23,1*4B
$GAGSV,2,1,08,30,50,034,40,15,48,150,26,34,43,069,27,27,37,317,42,7*7D
$GAGSV,2,2,08,07,32,232,24,02,15,083,23,08,11,182,19,36,04,034,,7*79
$GAGSV,2,1,06,30,50,034,39,15,48,150,33,34,43,069,34,27,37,317,42,1*7D
$GAGSV,2,2,06,07,32,232,26,02,15,083,19,1*77
$GBGSV,4,1,15,34,82,060,35,06,78,217,31,09,75,287,34,16,75,195,35,1*7A
$GBGSV,4,2,15,11,71,198,32,39,64,181,35,40,63,321,40,07,62,299,35,1*77
$GBGSV,4,3,15,25,60,347,39,10,52,282,18,12,49,042,38,24,48,099,34,1*77
$GBGSV,4,4,15,43,46,215,36,44,26,040,35,23,15,315,35,1*46
$GBGSV,2,1,08,34,82,060,34,39,64,181,30,40,63,321,42,25,60,347,41,4*74
$GBGSV,2,2,08,24,48,099,38,43,46,215,22,44,26,040,35,23,15,315,35,4*7B
$GNACCURACY,3.9*1C
$PAIRSAT,1,33,2,0,201,3,0,200,4,0,221,5,0,200,6,0,200,7,0,201,8,0,221,9,0,221,10,0,200,11,0,200,12,0,200,13,0,200,14,0,200,15,0,200,16,0,201,17,0,200,18,0,200,19,0,200,20,0,200,21,0,1,24,0,200,25,0,200,26,0,220,27,0,221,28,0,200,29,0,200,30,0,200,31,0,201,32,0,200,194,0,621,195,0,221,196,0,620,199,0,621*58
$PAIRSAT,2,24,65,0,200,66,0,200,67,0,200,68,0,200,69,0,200,70,0,200,71,0,200,72,0,200,73,0,201,74,0,200,75,0,200,76,0,200,77,0,200,78,0,200,79,0,201,80,0,201,81,0,201,82,0,201,83,0,201,84,0,200,85,0,200,86,0,200,87,0,200,88,0,200*7A
$PAIRSAT,3,23,2,0,1021,3,0,1200,4,0,1200,5,0,200,7,0,1021,8,0,1000,9,0,1000,10,0,1000,11,0,1000,12,0,1200,13,0,1200,15,0,1221,19,0,1200,21,0,1200,24,0,1200,25,0,1200,26,0,1200,27,0,1221,30,0,1221,31,0,1200,33,0,1200,34,0,1221,36,0,1200*6A
$PAIRSAT,4,46,1,0,200,2,0,200,3,0,600,4,0,200,5,0,200,6,0,201,7,0,201,8,0,200,9,0,201,10,0,201,11,0,201,12,0,201,13,0,200,14,0,200,16,0,1,19,0,600,20,0,600,21,0,600,22,0,600,23,0,621,24,0,621,25,0,621,26,0,600,27,0,600,28,0,600,29,0,600,30,0,600,32,0,600,33,0,600,34,0,621,35,0,600,36,0,400,37,0,400,38,0,400,39,0,421,40,0,421,41,0,400,42,0,400,43,0,421,44,0,421,45,0,400,46,0,400,59,0,400,60,0,400,61,0,400,62,0,400*48
$PAIRDGP,7,2,4,7,9,16,21,31*60
$GNGGA,040739.200,2500.8143400,N,12132.4732400,E,2,62,0.46,21.40,M,15.25,M,1,3335*77
$GNRMC,040739.200,A,2500.8143400,N,12132.4732400,E,0.09,263.08,030324,,,D,V*0C
$GPHDT,,T*1B
$GNACCURACY,3.9*1C
$GNGGA,040739.300,2500.8143600,N,12132.4732400,E,2,61,0.45,21.39,M,15.25,M,1,3335*7A
$GNRMC,040739.300,A,2500.8143600,N,12132.4732400,E,0.09,263.08,030324,,,D,V*0F
$GPHDT,,T*1B
$GNACCURACY,3.9*1C
$GNGGA,040739.400,2500.8143700,N,12132.4732500,E,2,60,0.46,21.38,M,15.25,M,1,3335*7E
$GNRMC,040739.400,A,2500.8143700,N,12132.4732500,E,0.09,263.08,030324,,,D,V*08
$GPHDT,,T*1B
$GNACCURACY,3.9*1C
$GNGGA,040739.500,2500.8143900,N,12132.4732500,E,2,59,0.45,21.38,M,15.25,M,1,3335*78
$GNRMC,040739.500,A,2500.8143900,N,12132.4732500,E,0.09,263.08,030324,,,D,V*07
$GPHDT,,T*1B
$GNACCURACY,3.9*1C
$GNGGA,040739.600,2500.8144100,N,12132.4732600,E,2,60,0.45,21.37,M,15.25,M,0,3335*73
$GNRMC,040739.600,A,2500.8144100,N,12132.4732600,E,0.08,263.08,030324,,,D,V*09
$GPHDT,,T*1B
$GNACCURACY,3.9*1C
$GNGGA,040739.700,2500.8144200,N,12132.4732700,E,2,60,0.45,21.36,M,15.25,M,0,3335*71
$GNRMC,040739.700,A,2500.8144200,N,12132.4732700,E,0.08,263.08,030324,,,D,V*0A
$GPHDT,,T*1B
$GNACCURACY,3.9*1C
$GNGGA,040739.800,2500.8144400,N,12132.4732800,E,2,60,0.45,21.36,M,15.25,M,0,3335*77
$GNRMC,040739.800,A,2500.8144400,N,12132.4732800,E,0.09,263.08,030324,,,D,V*0D
$GPHDT,,T*1B
$GNACCURACY,4.0*12
$GNGGA,040739.900,2500.8144600,N,12132.4732800,E,2,61,0.45,21.35,M,15.25,M,0,3335*76
$GNRMC,040739.900,A,2500.8144600,N,12132.4732800,E,0.08,263.08,030324,,,D,V*0F
$GPHDT,,T*1B
$GNACCURACY,4.0*12
$GNGGA,040740.000,2500.8144700,N,12132.4733000,E,2,61,0.45,21.34,M,15.25,M,1,3335*79
$GNRMC,040740.000,A,2500.8144700,N,12132.4733000,E,0.08,263.08,030324,,,D,V*00
$GPHDT,,T*1B
$GNACCURACY,4.0*12
$GNGGA,040740.100,2500.8144900,N,12132.4733000,E,2,60,0.45,21.34,M,15.25,M,1,3335*77
$GNRMC,040740.100,A,2500.8144900,N,12132.4733000,E,0.08,263.08,030324,,,D,V*0F
$GPHDT,,T*1B
$GNGSA,A,3,08,194,195,199,21,27,02,16,07,09,04,196,0.71,0.45,0.55,1*09
$GNGSA,A,3,26,31,,,,,,,,,,,0.71,0.45,0.55,1*00
$GNGSA,A,3,82,83,80,79,81,73,,,,,,,0.71,0.45,0.55,2*0F
$GNGSA,A,3,30,15,34,27,07,02,,,,,,,0.71,0.45,0.55,3*04
$GNGSA,A,3,34,06,09,16,11,39,40,07,25,10,12,24,0.71,0.45,0.55,4*06
$GNGSA,A,3,43,44,23,,,,,,,,,,0.71,0.45,0.55,4*05
$GPGSV,4,1,15,08,70,328,36,194,63,048,38,195,60,120,27,199,60,167,23,1*53
$GPGSV,4,2,15,21,47,165,17,27,43,030,27,02,35,179,32,16,32,063,20,1*6D
$GPGSV,4,3,15,07,31,320,42,09,28,259,21,04,27,211,23,196,20,172,16,1*56
$GPGSV,4,4,15,26,14,089,20,31,10,140,17,30,02,319,21,1*5B
$GPGSV,2,1,08,08,70,328,44,194,63,048,44,195,60,120,42,199,60,167,39,8*56
$GPGSV,2,2,08,27,43,030,39,09,28,259,30,196,20,172,18,30,02,319,22,8*5B
$GLGSV,2,1,07,82,64,046,38,83,62,178,17,80,49,017,39,79,33,091,34,1*72
$GLGSV,2,2,07,81,16,028,17,73,15,323,27,71,05,300,23,1*4B
$GAGSV,2,1,08,30,50,034,40,15,48,150,27,34,43,069,27,27,37,317,42,7*7C
$GAGSV,2,2,08,07,32,232,25,02,15,083,23,08,11,182,19,36,04,034,,7*78
$GAGSV,2,1,05,30,50,034,39,15,48,150,33,34,43,069,34,27,37,317,42,1*7E
$GAGSV,2,2,05,02,15,083,18,1*44
$GBGSV,4,1,15,34,82,060,35,06,78,217,31,09,75,287,34,16,75,195,35,1*7A
$GBGSV,4,2,15,11,71,198,32,39,64,181,35,40,63,321,39,07,62,299,35,1*79
$GBGSV,4,3,15,25,60,347,39,10,52,282,20,12,49,042,38,24,48,099,34,1*7C
$GBGSV,4,4,15,43,46,215,37,44,26,040,36,23,15,315,34,1*45
$GBGSV,2,1,07,34,82,060,34,39,64,181,30,40,63,321,42,25,60,347,41,4*7B
$GBGSV,2,2,07,24,48,099,38,44,26,040,35,23,15,315,34,4*46
$GNACCURACY,4.0*12
$PAIRSAT,1,33,2,0,201,3,0,200,4,0,221,5,0,200,6,0,200,7,0,201,8,0,221,9,0,221,10,0,200,11,0,200,12,0,200,13,0,200,14,0,200,15,0,200,16,0,201,17,0,200,18,0,200,19,0,200,20,0,200,21,0,1,24,0,200,25,0,200,26,0,220,27,0,221,28,0,200,29,0,200,30,0,200,31,0,201,32,0,200,194,0,621,195,0,221,196,0,620,199,0,621*58
$PAIRSAT,2,24,65,0,200,66,0,200,67,0,200,68,0,200,69,0,200,70,0,200,71,0,200,72,0,200,73,0,201,74,0,200,75,0,200,76,0,200,77,0,200,78,0,200,79,0,201,80,0,201,81,0,201,82,0,201,83,0,201,84,0,200,85,0,200,86,0,200,87,0,200,88,0,200*7A
$PAIRSAT,3,23,2,0,1021,3,0,1200,4,0,1200,5,0,200,7,0,1021,8,0,1000,9,0,1000,10,0,1000,11,0,1000,12,0,1200,13,0,1200,15,0,1221,19,0,1200,21,0,1200,24,0,1200,25,0,1200,26,0,1200,27,0,1221,30,0,1221,31,0,1200,33,0,1200,34,0,1221,36,0,1200*6A
$PAIRSAT,4,46,1,0,200,2,0,200,3,0,600,4,0,200,5,0,200,6,0,201,7,0,201,8,0,200,9,0,201,10,0,201,11,0,201,12,0,201,13,0,200,14,0,200,16,0,1,19,0,600,20,0,600,21,0,600,22,0,600,23,0,621,24,0,621,25,0,621,26,0,600,27,0,600,28,0,600,29,0,600,30,0,600,32,0,600,33,0,600,34,0,621,35,0,600,36,0,400,37,0,400,38,0,400,39,0,421,40,0,421,41,0,400,42,0,400,43,0,421,44,0,421,45,0,400,46,0,400,59,0,400,60,0,400,61,0,400,62,0,400*48
$PAIRDGP,7,2,4,7,9,16,21,31*60
$GNGGA,040740.200,2500.8145100,N,12132.4733100,E,2,60,0.45,21.33,M,15.25,M,1,3335*7B
$GNRMC,040740.200,A,2500.8145100,N,12132.4733100,E,0.08,263.08,030324,,,D,V*04
$GPHDT,,T*1B
$GNACCURACY,4.0*12
$GNGGA,040740.300,2500.8145200,N,12132.4733100,E,2,61,0.45,21.32,M,15.25,M,1,3335*79
$GNRMC,040740.300,A,2500.8145200,N,12132.4733100,E,0.08,263.08,030324,,,D,V*06
$GPHDT,,T*1B
$GNACCURACY,4.0*12
$GNGGA,040740.400,2500.8145400,N,12132.4733200,E,2,61,0.45,21.31,M,15.25,M,1,3335*78
$GNRMC,040740.400,A,2500.8145400,N,12132.4733200,E,0.08,263.08,030324,,,D,V*04
$GPHDT,,T*1B
$GNACCURACY,4.0*12
$GNGGA,040740.500,2500.8145600,N,12132.4733300,E,2,60,0.45,21.31,M,15.25,M,1,3335*7B
$GNRMC,040740.500,A,2500.8145600,N,12132.4733300,E,0.07,263.08,030324,,,D,V*09
$GPHDT,,T*1B
$GNACCURACY,4.0*12
$GNGGA,040740.600,2500.8145800,N,12132.4733300,E,2,60,0.45,21.30,M,15.25,M,0,3335*76
$GNRMC,040740.600,A,2500.8145800,N,12132.4733300,E,0.08,263.08,030324,,,D,V*0B
$GPHDT,,T*1B
$GNACCURACY,4.0*12
$GNGGA,040740.700,2500.8145900,N,12132.4733400,E,2,60,0.45,21.29,M,15.25,M,0,3335*79
$GNRMC,040740.700,A,2500.8145900,N,12132.4733400,E,0.07,263.08,030324,,,D,V*03
$GPHDT,,T*1B
$GNACCURACY,4.0*12
$GNGGA,040740.800,2500.8146100,N,12132.4733400,E,2,60,0.45,21.29,M,15.25,M,0,3335*7D
$GNRMC,040740.800,A,2500.8146100,N,12132.4733400,E,0.07,263.08,030324,,,D,V*07
$GPHDT,,T*1B
$GNACCURACY,4.0*12
$GNGGA,040740.900,2500.8146200,N,12132.4733500,E,2,60,0.45,21.28,M,15.25,M,0,3335*7F
$GNRMC,040740.900,A,2500.8146200,N,12132.4733500,E,0.08,263.08,030324,,,D,V*0B
$GPHDT,,T*1B
$GNACCURACY,4.0*12
$GNGGA,040741.000,2500.8146400,N,12132.4733600,E,2,60,0.45,21.28,M,15.25,M,1,3335*73
$GNRMC,040741.000,A,2500.8146400,N,12132.4733600,E,0.07,263.08,030324,,,D,V*09
$GPHDT,,T*1B
$GNACCURACY,4.0*12
$GNGGA,040741.100,2500.8146600,N,12132.4733600,E,2,60,0.45,21.27,M,15.25,M,1,3335*7F
$GNRMC,040741.100,A,2500.8146600,N,12132.4733600,E,0.08,263.08,030324,,,D,V*05
$GPHDT,,T*1B
$GNGSA,A,3,08,194,195,199,21,27,02,16,07,09,04,196,0.71,0.45,0.55,1*09
$GNGSA,A,3,26,31,,,,,,,,,,,0.71,0.45,0.55,1*00
$GNGSA,A,3,82,83,80,79,81,73,,,,,,,0.71,0.45,0.55,2*0F
$GNGSA,A,3,30,15,34,27,07,02,,,,,,,0.71,0.45,0.55,3*04
$GNGSA,A,3,34,06,09,16,11,39,40,07,25,10,12,24,0.71,0.45,0.55,4*06
$GNGSA,A,3,43,44,23,,,,,,,,,,0.71,0.45,0.55,4*05
$GPGSV,4,1,15,08,70,328,36,194,63,048,37,195,60,120,27,199,60,167,23,1*5C
$GPGSV,4,2,15,21,47,165,19,27,43,030,28,02,35,179,31,16,32,063,19,1*65
$GPGSV,4,3,15,07,31,320,42,09,28,259,20,04,27,211,24,196,20,172,17,1*51
$GPGSV,4,4,15,26,14,089,21,31,10,140,17,30,02,319,21,1*5A
$GPGSV,3,1,10,08,70,328,44,194,63,048,44,195,60,120,42,199,60,167,39,8*5E
$GPGSV,3,2,10,27,43,030,40,09,28,259,29,04,27,211,27,196,20,172,18,8*59
$GPGSV,3,3,10,26,14,089,18,30,02,319,22,8*6F
$GLGSV,2,1,07,82,64,046,38,83,62,178,16,80,49,017,39,79,33,091,33,1*74
$GLGSV,2,2,07,81,16,028,17,73,15,323,28,71,05,300,21,1*46
$GAGSV,2,1,08,30,50,034,40,15,48,150,27,34,43,069,27,27,37,317,42,7*7C
$GAGSV,2,2,08,07,32,232,23,02,15,083,24,08,11,182,23,36,04,034,,7*70
$GAGSV,2,1,05,30,50,034,39,15,48,150,33,34,43,069,34,27,37,317,42,1*7E
$GAGSV,2,2,05,02,15,083,17,1*4B
$GBGSV,4,1,15,34,82,060,35,06,78,217,31,09,75,287,34,16,75,195,36,1*79
$GBGSV,4,2,15,11,71,198,32,39,64,181,35,40,63,321,39,07,62,299,35,1*79
$GBGSV,4,3,15,25,60,347,39,10,52,282,20,12,49,042,38,24,48,099,34,1*7C
$GBGSV,4,4,15,43,46,215,37,44,26,040,36,23,15,315,34,1*45
$GBGSV,2,1,07,34,82,060,34,39,64,181,30,40,63,321,42,25,60,347,41,4*7B
$GBGSV,2,2,07,24,48,099,38,44,26,040,35,23,15,315,33,4*41
$GNACCURACY,4.0*12
$PAIRSAT,1,33,2,0,201,3,0,200,4,0,221,5,0,200,6,0,200,7,0,201,8,0,221,9,0,221,10,0,200,11,0,200,12,0,200,13,0,200,14,0,200,15,0,200,16,0,201,17,0,200,18,0,200,19,0,200,20,0,200,21,0,1,24,0,200,25,0,200,26,0,220,27,0,221,28,0,200,29,0,200,30,0,200,31,0,201,32,0,200,194,0,621,195,0,221,196,0,620,199,0,621*58
$PAIRSAT,2,24,65,0,200,66,0,200,67,0,200,68,0,200,69,0,200,70,0,200,71,0,200,72,0,200,73,0,201,74,0,200,75,0,200,76,0,200,77,0,200,78,0,200,79,0,201,80,0,201,81,0,201,82,0,201,83,0,201,84,0,200,85,0,200,86,0,200,87,0,200,88,0,200*7A
$PAIRSAT,3,23,2,0,1021,3,0,1200,4,0,1200,5,0,200,7,0,1021,8,0,1000,9,0,1000,10,0,1000,11,0,1000,12,0,1200,13,0,1200,15,0,1221,19,0,1200,21,0,1200,24,0,1200,25,0,1200,26,0,1200,27,0,1221,30,0,1221,31,0,1200,33,0,1200,34,0,1221,36,0,1200*6A
$PAIRSAT,4,46,1,0,200,2,0,200,3,0,600,4,0,200,5,0,200,6,0,201,7,0,201,8,0,200,9,0,201,10,0,201,11,0,201,12,0,201,13,0,200,14,0,200,16,0,1,19,0,600,20,0,600,21,0,600,22,0,600,23,0,621,24,0,621,25,0,621,26,0,600,27,0,600,28,0,600,29,0,600,30,0,600,32,0,600,33,0,600,34,0,621,35,0,600,36,0,400,37,0,400,38,0,400,39,0,421,40,0,421,41,0,400,42,0,400,43,0,421,44,0,421,45,0,400,46,0,400,59,0,400,60,0,400,61,0,400,62,0,400*48
$PAIRDGP,7,2,4,7,9,16,21,31*60
$GNGGA,040741.200,2500.8146700,N,12132.4733700,E,2,62,0.45,21.27,M,15.25,M,1,3335*7E
$GNRMC,040741.200,A,2500.8146700,N,12132.4733700,E,0.08,263.08,030324,,,D,V*06
$GPHDT,,T*1B
$GNACCURACY,4.0*12
$GNGGA,040741.300,2500.8147000,N,12132.4733700,E,2,62,0.45,21.26,M,15.25,M,1,3335*78
$GNRMC,040741.300,A,2500.8147000,N,12132.4733700,E,0.08,263.08,030324,,,D,V*01
$GPHDT,,T*1B
$GNACCURACY,4.0*12
$GNGGA,040741.400,2500.8147200,N,12132.4733800,E,2,62,0.45,21.26,M,15.25,M,1,3335*72
$GNRMC,040741.400,A,2500.8147200,N,12132.4733800,E,0.08,263.08,030324,,,D,V*0B
$GPHDT,,T*1B
$GNACCURACY,4.0*12
$GNGGA,040741.500,2500.8147300,N,12132.4733800,E,2,62,0.45,21.25,M,15.25,M,1,3335*71
$GNRMC,040741.500,A,2500.8147300,N,12132.4733800,E,0.07,263.08,030324,,,D,V*04
$GPHDT,,T*1B
$GNACCURACY,4.0*12
$GNGGA,040741.600,2500.8147600,N,12132.4733800,E,2,63,0.45,21.25,M,15.25,M,0,3335*77
$GNRMC,040741.600,A,2500.8147600,N,12132.4733800,E,0.06,263.08,030324,,,D,V*03
$GPHDT,,T*1B
$GNACCURACY,4.0*12
$GNGGA,040741.700,2500.8147800,N,12132.4733900,E,2,62,0.46,21.25,M,15.25,M,0,3335*7B
$GNRMC,040741.700,A,2500.8147800,N,12132.4733900,E,0.06,263.08,030324,,,D,V*0D
$GPHDT,,T*1B
$GNACCURACY,4.0*12
$GNGGA,040741.800,2500.8147900,N,12132.4733900,E,2,62,0.46,21.24,M,15.25,M,0,3335*74
$GNRMC,040741.800,A,2500.8147900,N,12132.4733900,E,0.06,263.08,030324,,,D,V*03
$GPHDT,,T*1B
$GNACCURACY,4.0*12
$GNGGA,040741.900,2500.8148100,N,12132.4733900,E,2,62,0.46,21.24,M,15.25,M,0,3335*72
$GNRMC,040741.900,A,2500.8148100,N,12132.4733900,E,0.05,263.08,030324,,,D,V*06
$GPHDT,,T*1B
$GNACCURACY,4.0*12
$GNGGA,040742.000,2500.8148200,N,12132.4733900,E,2,62,0.46,21.24,M,15.25,M,1,3335*7A
$GNRMC,040742.000,A,2500.8148200,N,12132.4733900,E,0.05,263.08,030324,,,D,V*0F
$GPHDT,,T*1B
$GNACCURACY,4.0*12
$GNGGA,040742.100,2500.8148500,N,12132.4733900,E,2,62,0.46,21.23,M,15.25,M,1,3335*7B
$GNRMC,040742.100,A,2500.8148500,N,12132.4733900,E,0.05,263.08,030324,,,D,V*09
$GPHDT,,T*1B
$GNGSA,A,3,08,194,199,195,27,02,16,07,09,04,196,26,0.72,0.46,0.55,1*0E
$GNGSA,A,3,31,,,,,,,,,,,,0.72,0.46,0.55,1*04
$GNGSA,A,3,82,83,80,79,81,73,,,,,,,0.72,0.46,0.55,2*0F
$GNGSA,A,3,30,15,34,27,07,02,,,,,,,0.72,0.46,0.55,3*04
$GNGSA,A,3,34,06,16,09,11,39,40,07,25,10,12,24,0.72,0.46,0.55,4*06
$GNGSA,A,3,43,44,23,,,,,,,,,,0.72,0.46,0.55,4*05
$GPGSV,4,1,15,08,70,328,36,194,63,048,37,199,60,167,24,195,60,120,26,1*5A
$GPGSV,4,2,15,21,47,165,15,27,43,030,29,02,35,179,32,16,32,063,22,1*63
$GPGSV,4,3,15,07,31,320,42,09,28,259,20,04,27,211,24,196,20,172,17,1*51
$GPGSV,4,4,15,26,14,089,20,31,10,140,16,30,02,319,21,1*5A
$GPGSV,3,1,10,08,70,328,44,194,63,048,44,195,60,120,42,199,60,167,39,8*5E
$GPGSV,3,2,10,27,43,030,40,09,28,259,30,04,27,211,27,196,20,172,18,8*51
$GPGSV,3,3,10,26,14,089,20,30,02,319,22,8*64
$GLGSV,2,1,07,82,64,046,37,83,62,178,16,80,49,017,39,79,33,091,32,1*7A
$GLGSV,2,2,07,81,16,028,19,73,15,323,25,71,05,300,21,1*45
$GAGSV,2,1,08,30,50,034,39,15,48,150,26,34,43,069,27,27,37,317,42,7*73
$GAGSV,2,2,08,07,32,232,24,02,15,083,23,08,11,182,23,36,04,034,,7*70
$GAGSV,2,1,05,30,50,034,39,15,48,150,34,34,43,069,34,27,37,317,43,1*78
$GAGSV,2,2,05,02,15,083,14,1*48
$GBGSV,5,1,17,34,82,060,34,06,78,217,31,16,75,195,36,09,75,287,34,1*7B
$GBGSV,5,2,17,11,71,198,32,39,64,181,34,40,63,321,39,07,62,299,35,1*7B
$GBGSV,5,3,17,25,60,347,39,10,52,282,25,12,49,042,38,24,48,099,33,1*7D
$GBGSV,5,4,17,43,46,215,37,44,26,040,36,23,15,315,33,33,02,210,,1*70
$GBGSV,5,5,17,41,02,256,,1*46
$GBGSV,2,1,08,34,82,060,34,39,64,181,29,40,63,321,42,25,60,347,41,4*7C
$GBGSV,2,2,08,24,48,099,38,43,46,215,22,44,26,040,35,23,15,315,33,4*7D
$GNACCURACY,4.0*12
$PAIRSAT,1,33,2,0,201,3,0,200,4,0,221,5,0,200,6,0,200,7,0,201,8,0,221,9,0,221,10,0,200,11,0,200,12,0,200,13,0,200,14,0,200,15,0,200,16,0,201,17,0,200,18,0,200,19,0,200,20,0,200,21,0,201,24,0,200,25,0,200,26,0,220,27,0,221,28,0,200,29,0,200,30,0,200,31,0,201,32,0,200,194,0,621,195,0,221,196,0,620,199,0,621*5A
$PAIRSAT,2,24,65,0,200,66,0,200,67,0,200,68,0,200,69,0,200,70,0,200,71,0,200,72,0,200,73,0,201,74,0,200,75,0,200,76,0,200,77,0,200,78,0,200,79,0,201,80,0,201,81,0,201,82,0,201,83,0,201,84,0,200,85,0,200,86,0,200,87,0,200,88,0,200*7A
$PAIRSAT,3,23,2,0,1021,3,0,1200,4,0,1200,5,0,200,7,0,1021,8,0,1000,9,0,1000,10,0,1000,11,0,1000,12,0,1200,13,0,1200,15,0,1221,19,0,1200,21,0,1200,24,0,1200,25,0,1200,26,0,1200,27,0,1221,30,0,1221,31,0,1200,33,0,1200,34,0,1221,36,0,1200*6A
$PAIRSAT,4,46,1,0,200,2,0,200,3,0,600,4,0,200,5,0,200,6,0,201,7,0,201,8,0,200,9,0,201,10,0,201,11,0,201,12,0,201,13,0,200,14,0,200,16,0,1,19,0,600,20,0,600,21,0,600,22,0,600,23,0,621,24,0,621,25,0,621,26,0,600,27,0,600,28,0,600,29,0,600,30,0,600,32,0,600,33,0,600,34,0,621,35,0,600,36,0,400,37,0,400,38,0,400,39,0,421,40,0,421,41,0,400,42,0,400,43,0,421,44,0,421,45,0,400,46,0,400,59,0,400,60,0,400,61,0,400,62,0,400*48
$PAIRDGP,7,2,4,7,9,16,21,31*60
$GNGGA,040742.200,2500.8148700,N,12132.4734000,E,2,62,0.46,21.23,M,15.25,M,1,3335*74
$GNRMC,040742.200,A,2500.8148700,N,12132.4734000,E,0.05,263.08,030324,,,D,V*06
$GPHDT,,T*1B
$GNACCURACY,4.0*12
$GNGGA,040742.300,2500.8148800,N,12132.4734000,E,2,62,0.46,21.23,M,15.25,M,1,3335*7A
$GNRMC,040742.300,A,2500.8148800,N,12132.4734000,E,0.04,263.08,030324,,,D,V*09
$GPHDT,,T*1B
$GNACCURACY,4.0*12
$GNGGA,040742.400,2500.8148800,N,12132.4734000,E,2,62,0.46,21.22,M,15.25,M,1,3335*7C
$GNRMC,040742.400,A,2500.8148800,N,12132.4734000,E,0.04,263.08,030324,,,D,V*0E
$GPHDT,,T*1B
$GNACCURACY,4.0*12
$GNGGA,040742.500,2500.8149100,N,12132.4734000,E,2,62,0.46,21.22,M,15.25,M,1,3335*75
$GNRMC,040742.500,A,2500.8149100,N,12132.4734000,E,0.04,263.08,030324,,,D,V*07
$GPHDT,,T*1B
$GNACCURACY,4.0*12
$GNGGA,040742.600,2500.8149100,N,12132.4734000,E,2,62,0.46,21.22,M,15.25,M,0,3335*77
$GNRMC,040742.600,A,2500.8149100,N,12132.4734000,E,0.03,263.08,030324,,,D,V*03
$GPHDT,,T*1B
$GNACCURACY,4.0*12
$GNGGA,040742.700,2500.8149300,N,12132.4734000,E,2,63,0.46,21.21,M,15.25,M,0,3335*76
$GNRMC,040742.700,A,2500.8149300,N,12132.4734000,E,0.04,263.08,030324,,,D,V*07
$GPHDT,,T*1B
$GNACCURACY,4.0*12
$GNGGA,040742.800,2500.8149400,N,12132.4734100,E,2,63,0.46,21.21,M,15.25,M,0,3335*7F
$GNRMC,040742.800,A,2500.8149400,N,12132.4734100,E,0.04,263.08,030324,,,D,V*0E
$GPHDT,,T*1B
$GNACCURACY,4.0*12
$GNGGA,040742.900,2500.8149500,N,12132.4734100,E,2,63,0.46,21.21,M,15.25,M,0,3335*7F
$GNRMC,040742.900,A,2500.8149500,N,12132.4734100,E,0.03,263.08,030324,,,D,V*09
$GPHDT,,T*1B
$GNACCURACY,4.0*12
$GNGGA,040743.000,2500.8149600,N,12132.4734200,E,2,63,0.46,21.20,M,15.25,M,1,3335*77
$GNRMC,040743.000,A,2500.8149600,N,12132.4734200,E,0.03,263.08,030324,,,D,V*01
$GPHDT,,T*1B
$GNACCURACY,4.0*12
$GNGGA,040743.100,2500.8149600,N,12132.4734200,E,2,63,0.46,21.20,M,15.25,M,1,3335*76
$GNRMC,040743.100,A,2500.8149600,N,12132.4734200,E,0.03,263.08,030324,,,D,V*00
$GPHDT,,T*1B
$GNGSA,A,3,08,194,195,199,27,02,16,07,09,04,196,26,0.72,0.46,0.55,1*0E
$GNGSA,A,3,31,,,,,,,,,,,,0.72,0.46,0.55,1*04
$GNGSA,A,3,82,83,80,79,81,73,,,,,,,0.72,0.46,0.55,2*0F
$GNGSA,A,3,30,15,34,27,07,02,,,,,,,0.72,0.46,0.55,3*04
$GNGSA,A,3,34,06,09,16,11,39,40,07,25,10,12,24,0.72,0.46,0.55,4*06
$GNGSA,A,3,43,44,23,,,,,,,,,,0.72,0.46,0.55,4*05
$GPGSV,4,1,15,08,70,328,36,194,63,048,37,195,60,120,26,199,60,167,24,1*5A
$GPGSV,4,2,15,21,47,165,15,27,43,030,28,02,35,179,33,16,32,063,23,1*62
$GPGSV,4,3,15,07,31,320,41,09,28,259,19,04,27,211,27,196,20,172,17,1*5B
$GPGSV,4,4,15,26,14,089,20,31,10,140,16,30,02,319,21,1*5A
$GPGSV,3,1,10,08,70,328,44,194,63,048,44,195,60,120,42,199,60,167,39,8*5E
$GPGSV,3,2,10,27,43,030,40,09,28,259,29,04,27,211,28,196,20,172,19,8*57
$GPGSV,3,3,10,26,14,089,22,30,02,319,22,8*66
$GLGSV,2,1,07,82,64,046,38,83,62,178,16,80,49,017,39,79,33,091,31,1*76
$GLGSV,2,2,07,81,16,028,21,73,15,323,25,71,05,300,20,1*4F
$GAGSV,2,1,08,30,50,034,39,15,48,150,26,34,43,069,27,27,37,317,42,7*73
$GAGSV,2,2,08,07,32,232,26,02,15,083,23,08,11,182,23,36,04,034,,7*72
$GAGSV,2,1,06,30,50,034,39,15,48,150,34,34,43,069,34,27,37,317,43,1*7B
$GAGSV,2,2,06,07,32,232,29,02,15,083,14,1*75
$GBGSV,4,1,16,34,82,060,35,06,78,217,31,09,75,287,34,16,75,195,36,1*7A
$GBGSV,4,2,16,11,71,198,31,39,64,181,34,40,63,321,39,07,62,299,35,1*78
$GBGSV,4,3,16,25,60,347,38,10,52,282,24,12,49,042,38,24,48,099,35,1*7B
$GBGSV,4,4,16,43,46,215,38,44,26,040,36,23,15,315,32,26,04,122,,1*7E
$GBGSV,2,1,08,34,82,060,34,39,64,181,29,40,63,321,42,25,60,347,41,4*7C
$GBGSV,2,2,08,24,48,099,38,43,46,215,24,44,26,040,35,23,15,315,33,4*7B
$GNACCURACY,4.0*12
$PAIRSAT,1,33,2,0,201,3,0,200,4,0,221,5,0,200,6,0,200,7,0,201,8,0,221,9,0,221,10,0,200,11,0,200,12,0,200,13,0,200,14,0,200,15,0,200,16,0,201,17,0,200,18,0,200,19,0,200,20,0,200,21,0,201,24,0,200,25,0,200,26,0,220,27,0,221,28,0,200,29,0,200,30,0,200,31,0,201,32,0,200,194,0,621,195,0,621,196,0,620,199,0,621*5E
$PAIRSAT,2,24,65,0,200,66,0,200,67,0,200,68,0,200,69,0,200,70,0,200,71,0,200,72,0,200,73,0,201,74,0,200,75,0,200,76,0,200,77,0,200,78,0,200,79,0,201,80,0,201,81,0,201,82,0,201,83,0,201,84,0,200,85,0,200,86,0,200,87,0,200,88,0,200*7A
$PAIRSAT,3,23,2,0,1021,3,0,1200,4,0,1200,5,0,200,7,0,1021,8,0,1000,9,0,1000,10,0,1000,11,0,1000,12,0,1200,13,0,1200,15,0,1221,19,0,1200,21,0,1200,24,0,1200,25,0,1200,26,0,1200,27,0,1221,30,0,1221,31,0,1200,33,0,1200,34,0,1221,36,0,1200*6A
$PAIRSAT,4,46,1,0,200,2,0,200,3,0,600,4,0,200,5,0,200,6,0,201,7,0,201,8,0,200,9,0,201,10,0,201,11,0,201,12,0,201,13,0,200,14,0,200,16,0,1,19,0,600,20,0,600,21,0,600,22,0,600,23,0,621,24,0,621,25,0,621,26,0,600,27,0,600,28,0,600,29,0,600,30,0,600,32,0,600,33,0,600,34,0,621,35,0,600,36,0,400,37,0,400,38,0,400,39,0,421,40,0,421,41,0,400,42,0,400,43,0,421,44,0,421,45,0,400,46,0,400,59,0,400,60,0,400,61,0,400,62,0,400*48
$PAIRDGP,7,2,4,7,9,16,21,31*60
$GNGGA,040743.200,2500.8149700,N,12132.4734200,E,2,63,0.46,21.20,M,15.25,M,1,3335*74
$GNRMC,040743.200,A,2500.8149700,N,12132.4734200,E,0.03,263.08,030324,,,D,V*02
$GPHDT,,T*1B
$GNACCURACY,4.0*12
$GNGGA,040743.300,2500.8149800,N,12132.4734200,E,2,63,0.46,21.19,M,15.25,M,1,3335*70
$GNRMC,040743.300,A,2500.8149800,N,12132.4734200,E,0.01,263.08,030324,,,D,V*0E
$GPHDT,,T*1B
$GNACCURACY,4.0*12
$GNGGA,040743.400,2500.8149900,N,12132.4734200,E,2,62,0.46,21.19,M,15.25,M,1,3335*77
$GNRMC,040743.400,A,2500.8149900,N,12132.4734200,E,0.01,263.08,030324,,,D,V*08
$GPHDT,,T*1B
$GNACCURACY,4.0*12
$GNGGA,040743.500,2500.8150000,N,12132.4734200,E,2,62,0.46,21.19,M,15.25,M,0,3335*76
$GNRMC,040743.500,A,2500.8150000,N,12132.4734200,E,0.02,263.08,030324,,,D,V*0B
$GPHDT,,T*1B
$GNACCURACY,4.0*12
$GNGGA,040743.600,2500.8150100,N,12132.4734200,E,2,62,0.46,21.18,M,15.25,M,0,3335*75
$GNRMC,040743.600,A,2500.8150100,N,12132.4734200,E,0.01,263.08,030324,,,D,V*0A
$GPHDT,,T*1B
$GNACCURACY,4.0*12
$GNGGA,040743.700,2500.8150200,N,12132.4734200,E,2,62,0.46,21.18,M,15.25,M,0,3335*77
$GNRMC,040743.700,A,2500.8150200,N,12132.4734200,E,0.00,263.08,030324,,,D,V*09
$GPHDT,,T*1B
$GNACCURACY,4.0*12
$GNGGA,040743.800,2500.8150500,N,12132.4734200,E,2,61,0.46,21.18,M,15.25,M,0,3335*7C
$GNRMC,040743.800,A,2500.8150500,N,12132.4734200,E,0.01,263.08,030324,,,D,V*00
$GPHDT,,T*1B
$GNACCURACY,4.0*12
$GNGGA,040743.900,2500.8150600,N,12132.4734300,E,2,61,0.47,21.17,M,15.25,M,0,3335*71
$GNRMC,040743.900,A,2500.8150600,N,12132.4734300,E,0.02,263.08,030324,,,D,V*00
$GPHDT,,T*1B
$GNACCURACY,4.0*12
$GNGGA,040744.000,2500.8150900,N,12132.4734400,E,2,61,0.47,21.17,M,15.25,M,1,3335*76
$GNRMC,040744.000,A,2500.8150900,N,12132.4734400,E,0.03,263.08,030324,,,D,V*07
$GPHDT,,T*1B
$GNACCURACY,4.0*12
$GNGGA,040744.100,2500.8151100,N,12132.4734400,E,2,61,0.47,21.16,M,15.25,M,1,3335*7F
$GNRMC,040744.100,A,2500.8151100,N,12132.4734400,E,0.03,263.08,030324,,,D,V*0F
$GPHDT,,T*1B
$GNGSA,A,3,08,194,199,195,27,02,16,07,09,04,26,196,0.74,0.47,0.57,1*0B
$GNGSA,A,3,82,83,80,79,81,73,,,,,,,0.74,0.47,0.57,2*0A
$GNGSA,A,3,30,15,34,27,07,02,,,,,,,0.74,0.47,0.57,3*01
$GNGSA,A,3,34,06,16,09,11,39,40,07,25,10,12,24,0.74,0.47,0.57,4*03
$GNGSA,A,3,43,44,23,,,,,,,,,,0.74,0.47,0.57,4*00
$GPGSV,4,1,15,08,70,328,36,194,63,048,37,199,60,167,24,195,60,120,25,1*59
$GPGSV,4,2,15,21,47,165,15,27,43,030,27,02,35,179,34,16,32,063,23,1*6A
$GPGSV,4,3,15,07,31,320,41,09,28,259,19,04,27,211,29,196,20,172,15,1*57
$GPGSV,4,4,15,26,14,090,20,31,09,140,18,30,02,320,21,1*5E
$GPGSV,3,1,10,08,70,328,44,194,63,048,44,195,60,120,42,199,60,167,39,8*5E
$GPGSV,3,2,10,27,43,030,40,09,28,259,29,04,27,211,28,196,20,172,21,8*5C
$GPGSV,3,3,10,26,14,090,22,30,02,320,22,8*64
$GLGSV,2,1,07,82,64,046,38,83,62,178,15,80,49,017,39,79,33,091,31,1*75
$GLGSV,2,2,07,81,16,028,21,73,15,323,25,71,05,300,21,1*4E
$GAGSV,2,1,08,30,50,034,39,15,48,150,22,34,43,069,26,27,37,317,42,7*76
$GAGSV,2,2,08,07,32,232,26,02,15,083,23,08,11,182,22,36,04,034,,7*73
$GAGSV,2,1,05,30,50,034,39,15,48,150,34,34,43,069,34,27,37,317,43,1*78
$GAGSV,2,2,05,07,32,232,30,1*46
$GBGSV,5,1,17,34,82,060,35,06,78,217,31,16,75,195,36,09,75,287,34,1*7A
$GBGSV,5,2,17,11,71,198,30,39,64,181,35,40,63,321,39,07,62,299,35,1*78
$GBGSV,5,3,17,25,60,347,38,10,52,282,21,12,49,042,39,24,48,099,35,1*7F
$GBGSV,5,4,17,43,46,215,38,44,26,040,36,23,15,315,32,33,02,210,,1*7E
$GBGSV,5,5,17,41,02,256,,1*46
$GBGSV,2,1,08,34,82,060,34,39,64,181,29,40,63,321,42,25,60,347,41,4*7C
$GBGSV,2,2,08,24,48,099,38,43,46,215,24,44,26,040,36,23,15,315,33,4*78
$GNACCURACY,4.0*12
$PAIRSAT,1,33,2,0,201,3,0,200,4,0,221,5,0,200,6,0,200,7,0,201,8,0,221,9,0,221,10,0,200,11,0,200,12,0,200,13,0,200,14,0,200,15,0,200,16,0,201,17,0,200,18,0,200,19,0,200,20,0,200,21,0,201,24,0,200,25,0,200,26,0,220,27,0,221,28,0,200,29,0,200,30,0,200,31,0,201,32,0,200,194,0,621,195,0,621,196,0,620,199,0,621*5E
$PAIRSAT,2,24,65,0,200,66,0,200,67,0,200,68,0,200,69,0,200,70,0,200,71,0,200,72,0,200,73,0,201,74,0,200,75,0,200,76,0,200,77,0,200,78,0,200,79,0,201,80,0,201,81,0,201,82,0,201,83,0,201,84,0,200,85,0,200,86,0,200,87,0,200,88,0,200*7A
$PAIRSAT,3,23,2,0,1021,3,0,1200,4,0,1200,5,0,200,7,0,1021,8,0,1000,9,0,1000,10,0,1000,11,0,1000,12,0,1200,13,0,1200,15,0,1221,19,0,1200,21,0,1200,24,0,1200,25,0,1200,26,0,1200,27,0,1221,30,0,1221,31,0,1200,33,0,1200,34,0,1221,36,0,1200*6A
$PAIRSAT,4,46,1,0,200,2,0,200,3,0,600,4,0,200,5,0,200,6,0,201,7,0,201,8,0,200,9,0,201,10,0,201,11,0,201,12,0,201,13,0,200,14,0,200,16,0,1,19,0,600,20,0,600,21,0,600,22,0,600,23,0,621,24,0,621,25,0,621,26,0,600,27,0,600,28,0,600,29,0,600,30,0,600,32,0,600,33,0,600,34,0,621,35,0,600,36,0,400,37,0,400,38,0,400,39,0,421,40,0,421,41,0,400,42,0,400,43,0,421,44,0,421,45,0,400,46,0,400,59,0,400,60,0,400,61,0,400,62,0,400*48
$PAIRDGP,7,2,4,7,9,16,21,31*60
$GNGGA,040744.200,2500.8151300,N,12132.4734500,E,2,60,0.47,21.16,M,15.25,M,1,3335*7E
$GNRMC,040744.200,A,2500.8151300,N,12132.4734500,E,0.03,263.08,030324,,,D,V*0F
$GPHDT,,T*1B
$GNACCURACY,4.0*12
$GNGGA,040744.300,2500.8151400,N,12132.4734500,E,2,60,0.47,21.16,M,15.25,M,1,3335*78
$GNRMC,040744.300,A,2500.8151400,N,12132.4734500,E,0.03,263.08,030324,,,D,V*09
$GPHDT,,T*1B
$GNACCURACY,4.0*12
$GNGGA,040744.400,2500.8151500,N,12132.4734500,E,2,60,0.47,21.15,M,15.25,M,1,3335*7D
$GNRMC,040744.400,A,2500.8151500,N,12132.4734500,E,0.03,263.08,030324,,,D,V*0F
$GPHDT,,T*1B
$GNACCURACY,4.0*12
$GNGGA,040744.500,2500.8151700,N,12132.4734500,E,2,60,0.47,21.15,M,15.25,M,1,3335*7E
$GNRMC,040744.500,A,2500.8151700,N,12132.4734500,E,0.04,263.08,030324,,,D,V*0B
$GPHDT,,T*1B
$GNACCURACY,4.0*12
$GNGGA,040744.600,2500.8151800,N,12132.4734500,E,2,60,0.47,21.15,M,15.25,M,0,3335*73
$GNRMC,040744.600,A,2500.8151800,N,12132.4734500,E,0.03,263.08,030324,,,D,V*00
$GPHDT,,T*1B
$GNACCURACY,4.0*12
$GNGGA,040744.700,2500.8152000,N,12132.4734400,E,2,60,0.47,21.14,M,15.25,M,0,3335*79
$GNRMC,040744.700,A,2500.8152000,N,12132.4734400,E,0.04,263.08,030324,,,D,V*0C
$GPHDT,,T*1B
$GNACCURACY,4.0*12
$GNGGA,040744.800,2500.8152200,N,12132.4734400,E,2,60,0.47,21.14,M,15.25,M,0,3335*74
$GNRMC,040744.800,A,2500.8152200,N,12132.4734400,E,0.04,263.08,030324,,,D,V*01
$GPHDT,,T*1B
$GNACCURACY,4.0*12
$GNGGA,040744.900,2500.8152400,N,12132.4734300,E,2,60,0.47,21.14,M,15.25,M,0,3335*74
$GNRMC,040744.900,A,2500.8152400,N,12132.4734300,E,0.04,263.08,030324,,,D,V*01
$GPHDT,,T*1B
$GNACCURACY,4.0*12
$GNGGA,040745.000,2500.8152500,N,12132.4734200,E,2,60,0.47,21.14,M,15.25,M,1,3335*7D
$GNRMC,040745.000,A,2500.8152500,N,12132.4734200,E,0.03,263.08,030324,,,D,V*0E
$GPHDT,,T*1B
$GNACCURACY,4.0*12
$GNGGA,040745.100,2500.8152600,N,12132.4734200,E,2,60,0.47,21.14,M,15.25,M,1,3335*7F
$GNRMC,040745.100,A,2500.8152600,N,12132.4734200,E,0.03,263.08,030324,,,D,V*0C
$GPHDT,,T*1B
$GNGSA,A,3,08,194,195,199,27,02,16,07,09,04,196,26,0.74,0.47,0.57,1*0B
$GNGSA,A,3,82,83,80,79,81,73,,,,,,,0.74,0.47,0.57,2*0A
$GNGSA,A,3,30,15,34,27,07,02,,,,,,,0.74,0.47,0.57,3*01
$GNGSA,A,3,34,06,09,16,11,39,40,07,25,10,12,24,0.74,0.47,0.57,4*03
$GNGSA,A,3,43,44,23,,,,,,,,,,0.74,0.47,0.57,4*00
$GPGSV,4,1,15,08,70,328,37,194,63,048,37,195,61,120,25,199,60,167,23,1*5E
$GPGSV,4,2,15,21,47,165,15,27,43,030,27,02,35,179,34,16,32,063,21,1*68
$GPGSV,4,3,15,07,31,320,41,09,28,259,22,04,27,211,31,196,20,172,15,1*56
$GPGSV,4,4,15,26,14,090,17,31,09,140,16,30,02,320,20,1*55
$GPGSV,3,1,10,08,70,328,44,194,63,048,43,195,61,120,40,199,60,167,39,8*5A
$GPGSV,3,2,10,27,43,030,40,09,28,259,30,04,27,211,28,196,20,172,20,8*55
$GPGSV,3,3,10,26,14,090,19,30,02,320,21,8*6F
$GLGSV,2,1,07,82,64,046,38,83,62,178,15,80,49,017,40,79,33,091,32,1*78
$GLGSV,2,2,07,81,16,028,23,73,15,323,24,71,05,300,22,1*4E
$GAGSV,2,1,08,30,50,034,39,15,48,150,19,34,43,069,26,27,37,317,42,7*7E
$GAGSV,2,2,08,07,32,232,25,02,15,083,23,08,11,182,21,36,04,034,,7*73
$GAGSV,2,1,05,30,50,034,39,15,48,150,32,34,43,069,33,27,37,317,42,1*78
$GAGSV,2,2,05,07,32,232,29,1*4E
$GBGSV,4,1,15,34,82,060,35,06,78,217,30,09,75,287,34,16,75,195,36,1*78
$GBGSV,4,2,15,11,71,198,30,39,64,181,35,40,63,321,39,07,62,299,35,1*7B
$GBGSV,4,3,15,25,60,347,38,10,52,282,20,12,49,042,39,24,48,099,36,1*7E
$GBGSV,4,4,15,43,46,215,36,44,26,040,36,23,15,315,36,1*46
$GBGSV,2,1,08,34,82,060,35,39,64,181,29,40,63,321,42,25,60,347,41,4*7D
$GBGSV,2,2,08,24,48,099,38,43,46,215,27,44,26,040,36,23,15,315,34,4*7C
$GNACCURACY,4.0*12
$PAIRSAT,1,33,2,0,201,3,0,200,4,0,221,5,0,200,6,0,200,7,0,201,8,0,221,9,0,221,10,0,200,11,0,200,12,0,200,13,0,200,14,0,200,15,0,200,16,0,201,17,0,200,18,0,200,19,0,200,20,0,200,21,0,201,24,0,200,25,0,200,26,0,220,27,0,221,28,0,200,29,0,200,30,0,200,31,0,201,32,0,200,194,0,621,195,0,621,196,0,620,199,0,621*5E
$PAIRSAT,2,24,65,0,200,66,0,200,67,0,200,68,0,200,69,0,200,70,0,200,71,0,200,72,0,200,73,0,201,74,0,200,75,0,200,76,0,200,77,0,200,78,0,200,79,0,201,80,0,201,81,0,201,82,0,201,83,0,201,84,0,200,85,0,200,86,0,200,87,0,200,88,0,200*7A
$PAIRSAT,3,23,2,0,1021,3,0,1200,4,0,1200,5,0,200,7,0,1021,8,0,1000,9,0,1000,10,0,1000,11,0,1000,12,0,1200,13,0,1200,15,0,1221,19,0,1200,21,0,1200,24,0,1200,25,0,1200,26,0,1200,27,0,1221,30,0,1221,31,0,1200,33,0,1200,34,0,1221,36,0,1200*6A
$PAIRSAT,4,46,1,0,200,2,0,200,3,0,600,4,0,200,5,0,200,6,0,201,7,0,201,8,0,200,9,0,201,10,0,201,11,0,201,12,0,201,13,0,200,14,0,200,16,0,1,19,0,600,20,0,600,21,0,600,22,0,600,23,0,621,24,0,621,25,0,621,26,0,600,27,0,600,28,0,600,29,0,600,30,0,600,32,0,600,33,0,600,34,0,621,35,0,600,36,0,400,37,0,400,38,0,400,39,0,421,40,0,421,41,0,400,42,0,400,43,0,421,44,0,421,45,0,400,46,0,400,59,0,400,60,0,400,61,0,400,62,0,400*48
$PAIRDGP,7,2,4,7,9,16,21,31*60
$GNGGA,040745.200,2500.8152800,N,12132.4734100,E,2,59,0.47,21.14,M,15.25,M,1,3335*7B
$GNRMC,040745.200,A,2500.8152800,N,12132.4734100,E,0.02,263.08,030324,,,D,V*03
$GPHDT,,T*1B
$GNACCURACY,4.0*12
$GNGGA,040745.300,2500.8152900,N,12132.4734000,E,2,59,0.47,21.14,M,15.25,M,1,3335*7A
$GNRMC,040745.300,A,2500.8152900,N,12132.4734000,E,0.02,263.08,030324,,,D,V*02
$GPHDT,,T*1B
$GNACCURACY,4.0*12
$GNGGA,040745.400,2500.8153100,N,12132.4733900,E,2,59,0.47,21.14,M,15.25,M,1,3335*7A
$GNRMC,040745.400,A,2500.8153100,N,12132.4733900,E,0.02,263.08,030324,,,D,V*02
$GPHDT,,T*1B
$GNACCURACY,4.0*12
$GNGGA,040745.500,2500.8153200,N,12132.4733900,E,2,59,0.47,21.14,M,15.25,M,0,3335*79
$GNRMC,040745.500,A,2500.8153200,N,12132.4733900,E,0.02,263.08,030324,,,D,V*00
$GPHDT,,T*1B
$GNACCURACY,4.0*12
$GNGGA,040745.600,2500.8153300,N,12132.4733800,E,2,58,0.47,21.14,M,15.25,M,0,3335*7B
$GNRMC,040745.600,A,2500.8153300,N,12132.4733800,E,0.01,263.08,030324,,,D,V*00
$GPHDT,,T*1B
$GNACCURACY,4.0*12
$GNGGA,040745.700,2500.8153500,N,12132.4733700,E,2,58,0.47,21.14,M,15.25,M,0,3335*73
$GNRMC,040745.700,A,2500.8153500,N,12132.4733700,E,0.01,263.08,030324,,,D,V*08
$GPHDT,,T*1B
$GNACCURACY,4.0*12
$GNGGA,040745.800,2500.8153600,N,12132.4733700,E,2,58,0.47,21.13,M,15.25,M,0,3335*78
$GNRMC,040745.800,A,2500.8153600,N,12132.4733700,E,0.01,263.08,030324,,,D,V*04
$GPHDT,,T*1B
$GNACCURACY,4.0*12
$GNGGA,040745.900,2500.8153700,N,12132.4733700,E,2,59,0.47,21.13,M,15.25,M,0,3335*79
$GNRMC,040745.900,A,2500.8153700,N,12132.4733700,E,0.01,263.08,030324,,,D,V*04
$GPHDT,,T*1B
$GNACCURACY,4.0*12
$GNGGA,040746.000,2500.8153900,N,12132.4733600,E,2,59,0.47,21.12,M,15.25,M,1,3335*7C
$GNRMC,040746.000,A,2500.8153900,N,12132.4733600,E,0.01,263.08,030324,,,D,V*01
$GPHDT,,T*1B
$GNACCURACY,4.0*12
$GNGGA,040746.100,2500.8153900,N,12132.4733600,E,2,58,0.47,21.12,M,15.25,M,1,3335*7C
$GNRMC,040746.100,A,2500.8153900,N,12132.4733600,E,0.01,263.08,030324,,,D,V*00
$GPHDT,,T*1B
$GNGSA,A,3,08,194,195,199,27,02,16,07,09,04,196,26,0.74,0.47,0.57,1*0B
$GNGSA,A,3,82,83,80,79,81,73,,,,,,,0.74,0.47,0.57,2*0A
$GNGSA,A,3,30,15,34,27,07,02,,,,,,,0.74,0.47,0.57,3*01
$GNGSA,A,3,34,06,09,16,11,39,40,07,25,10,12,24,0.74,0.47,0.57,4*03
$GNGSA,A,3,43,44,23,,,,,,,,,,0.74,0.47,0.57,4*00
$GPGSV,4,1,15,08,70,328,37,194,63,048,37,195,61,120,25,199,60,167,23,1*5E
$GPGSV,4,2,15,21,47,165,16,27,43,030,28,02,35,179,34,16,32,063,19,1*6F
$GPGSV,4,3,15,07,31,320,41,09,28,259,20,04,27,211,31,196,20,172,13,1*52
$GPGSV,4,4,15,26,14,090,17,31,09,140,18,30,02,320,21,1*5A
$GPGSV,3,1,10,08,70,328,44,194,63,048,43,195,61,120,40,199,60,167,39,8*5A
$GPGSV,3,2,10,27,43,030,40,09,28,259,30,04,27,211,29,196,20,172,22,8*56
$GPGSV,3,3,10,26,14,090,19,30,02,320,20,8*6E
$GLGSV,2,1,07,82,64,046,38,83,62,178,15,80,49,017,41,79,33,091,33,1*78
$GLGSV,2,2,07,81,16,028,25,73,15,323,25,71,05,300,22,1*49
$GAGSV,2,1,07,30,50,034,39,15,48,150,16,34,43,069,27,27,37,317,42,7*7F
$GAGSV,2,2,07,07,32,232,23,02,15,083,24,08,11,182,19,7*40
$GAGSV,1,1,04,30,50,034,39,15,48,150,32,34,43,069,33,27,37,317,42,1*7A
$GBGSV,4,1,15,34,82,060,35,06,78,217,30,09,75,287,34,16,75,195,36,1*78
$GBGSV,4,2,15,11,71,198,30,39,64,181,35,40,63,321,39,07,62,299,35,1*7B
$GBGSV,4,3,15,25,60,347,38,10,52,282,19,12,49,042,39,24,48,099,36,1*74
$GBGSV,4,4,15,43,46,215,36,44,26,040,36,23,15,315,36,1*46
$GBGSV,2,1,08,34,82,060,35,39,64,181,28,40,63,321,42,25,60,347,41,4*7C
$GBGSV,2,2,08,24,48,099,38,43,46,215,28,44,26,040,36,23,15,315,35,4*72
$GNACCURACY,4.0*12
$PAIRSAT,1,33,2,0,201,3,0,200,4,0,221,5,0,200,6,0,200,7,0,201,8,0,221,9,0,221,10,0,200,11,0,200,12,0,200,13,0,200,14,0,200,15,0,200,16,0,201,17,0,200,18,0,200,19,0,200,20,0,200,21,0,201,24,0,200,25,0,200,26,0,220,27,0,221,28,0,200,29,0,200,30,0,200,31,0,201,32,0,200,194,0,621,195,0,621,196,0,620,199,0,621*5E
$PAIRSAT,2,24,65,0,200,66,0,200,67,0,200,68,0,200,69,0,200,70,0,200,71,0,200,72,0,200,73,0,201,74,0,200,75,0,200,76,0,200,77,0,200,78,0,200,79,0,201,80,0,201,81,0,201,82,0,201,83,0,201,84,0,200,85,0,200,86,0,200,87,0,200,88,0,200*7A
$PAIRSAT,3,23,2,0,1021,3,0,1200,4,0,1200,5,0,200,7,0,1021,8,0,1000,9,0,1000,10,0,1000,11,0,1000,12,0,1200,13,0,1200,15,0,1221,19,0,1200,21,0,1200,24,0,1200,25,0,1200,26,0,1200,27,0,1221,30,0,1221,31,0,1200,33,0,1200,34,0,1221,36,0,1200*6A
$PAIRSAT,4,46,1,0,200,2,0,200,3,0,600,4,0,200,5,0,200,6,0,201,7,0,201,8,0,200,9,0,201,10,0,201,11,0,201,12,0,201,13,0,200,14,0,200,16,0,1,19,0,600,20,0,600,21,0,600,22,0,600,23,0,621,24,0,621,25,0,621,26,0,600,27,0,600,28,0,600,29,0,600,30,0,600,32,0,600,33,0,600,34,0,621,35,0,600,36,0,400,37,0,400,38,0,400,39,0,421,40,0,421,41,0,400,42,0,400,43,0,421,44,0,421,45,0,400,46,0,400,59,0,400,60,0,400,61,0,400,62,0,400*48
$PAIRDGP,7,2,4,7,9,16,21,31*60
$GNGGA,040746.200,2500.8154100,N,12132.473