$FW : RTK35X,V1.1X0314AS,Lib20210517,1*54
$Tool : LOCOSYS , GNSS Firebird , v1.0.0.19*39
$---------------------------------------------------*2D
$GNACCURACY,3.8*1D
$GNGGA,040807.900,2500.8151500,N,12132.4733700,E,2,59,0.47,21.16,M,15.25,M,0,3335*75
$GNRMC,040807.900,A,2500.8151500,N,12132.4733700,E,0.10,263.08,030324,,,D,V*0D
$GPHDT,,T*1B
$GNACCURACY,3.8*1D
$GNGGA,040808.000,2500.8151500,N,12132.4733700,E,2,59,0.47,21.16,M,15.25,M,1,3335*72
$GNRMC,040808.000,A,2500.8151500,N,12132.4733700,E,0.02,263.08,030324,,,D,V*08
$GPHDT,,T*1B
$GNACCURACY,3.8*1D
$GNGGA,040808.100,2500.8151500,N,12132.4733700,E,2,59,0.47,21.16,M,15.25,M,1,3335*73
$GNRMC,040808.100,A,2500.8151500,N,12132.4733700,E,0.03,263.08,030324,,,D,V*08
$GPHDT,,T*1B
$GNGSA,A,3,08,194,195,199,21,27,02,16,07,09,04,196,0.74,0.47,0.57,1*0C
$GNGSA,A,3,26,,,,,,,,,,,,0.74,0.47,0.57,1*07
$GNGSA,A,3,82,83,80,79,81,73,,,,,,,0.74,0.47,0.57,2*0A
$GNGSA,A,3,30,15,34,27,07,02,,,,,,,0.74,0.47,0.57,3*01
$GNGSA,A,3,34,06,16,09,11,39,40,07,25,10,12,24,0.74,0.47,0.57,4*03
$GNGSA,A,3,43,44,23,,,,,,,,,,0.74,0.47,0.57,4*00
$GPGSV,4,1,15,08,70,328,39,194,63,049,42,195,61,120,26,199,60,167,20,1*53
$GPGSV,4,2,15,21,47,165,28,27,43,030,26,02,36,179,21,16,32,063,31,1*61
$GPGSV,4,3,15,07,31,320,41,09,28,258,29,04,26,211,28,196,20,172,22,1*51
$GPGSV,4,4,15,26,14,090,,31,09,140,12,30,02,320,13,1*57
$GPGSV,3,1,09,08,70,328,41,194,63,049,46,195,61,120,38,199,60,167,34,8*51
$GPGSV,3,2,09,27,43,030,39,09,28,258,25,196,20,172,23,26,14,090,20,8*56
$GPGSV,3,3,09,30,02,320,21,8*57
$GLGSV,2,1,06,82,64,045,43,83,63,178,18,80,50,017,30,79,33,091,30,1*77
$GLGSV,2,2,06,81,16,028,26,73,15,324,24,1*7D
$GAGSV,2,1,07,30,50,035,43,15,48,149,29,34,43,069,29,27,37,317,39,7*75
$GAGSV,2,2,07,07,32,232,31,02,15,083,31,08,11,182,19,7*47
$GAGSV,2,1,05,30,50,035,44,34,43,069,24,27,37,317,38,07,32,232,36,1*75
$GAGSV,2,2,05,02,15,083,20,1*4F
$GBGSV,4,1,15,34,82,059,37,06,77,217,34,16,75,195,34,09,75,287,33,1*7E
$GBGSV,4,2,15,11,71,199,27,39,64,181,29,40,63,321,42,07,62,300,33,1*7A
$GBGSV,4,3,15,25,60,347,42,10,52,282,30,12,49,042,46,24,48,100,34,1*79
$GBGSV,4,4,15,43,46,215,31,44,26,040,39,23,16,315,34,1*4F
$GBGSV,2,1,07,34,82,059,35,39,64,181,28,40,63,321,37,25,60,347,33,4*7E
$GBGSV,2,2,07,24,48,100,33,44,26,040,38,23,16,315,28,4*4F
$GNACCURACY,3.8*1D
$PAIRSAT,1,33,2,0,201,3,0,200,4,0,221,5,0,200,6,0,200,7,0,201,8,0,221,9,0,221,10,0,200,11,0,200,12,0,200,13,0,200,14,0,200,15,0,200,16,0,201,17,0,200,18,0,200,19,0,200,20,0,200,21,0,201,24,0,200,25,0,200,26,0,220,27,0,221,28,0,200,29,0,200,30,0,200,31,0,201,32,0,200,194,0,621,195,0,621,196,0,620,199,0,621*5E
$PAIRSAT,2,24,65,0,200,66,0,200,67,0,200,68,0,200,69,0,200,70,0,200,71,0,200,72,0,200,73,0,201,74,0,200,75,0,200,76,0,200,77,0,200,78,0,200,79,0,201,80,0,201,81,0,201,82,0,201,83,0,201,84,0,200,85,0,200,86,0,200,87,0,200,88,0,200*7A
$PAIRSAT,3,23,2,0,1021,3,0,1200,4,0,1200,5,0,200,7,0,1221,8,0,1000,9,0,1000,10,0,1000,11,0,1000,12,0,1200,13,0,1200,15,0,1221,19,0,1200,21,0,1200,24,0,1200,25,0,1200,26,0,1200,27,0,1221,30,0,1221,31,0,1200,33,0,1200,34,0,1221,36,0,1200*68
$PAIRSAT,4,46,1,0,200,2,0,200,3,0,600,4,0,200,5,0,200,6,0,201,7,0,201,8,0,200,9,0,201,10,0,201,11,0,201,12,0,201,13,0,200,14,0,200,16,0,201,19,0,600,20,0,600,21,0,600,22,0,600,23,0,621,24,0,621,25,0,621,26,0,600,27,0,600,28,0,600,29,0,600,30,0,600,32,0,600,33,0,600,34,0,621,35,0,600,36,0,600,37,0,400,38,0,400,39,0,421,40,0,421,41,0,400,42,0,400,43,0,421,44,0,421,45,0,400,46,0,400,59,0,400,60,0,400,61,0,400,62,0,400*48
$PAIRDGP,7,2,4,7,9,16,21,31*60
$GNGGA,040808.200,2500.8151600,N,12132.4733700,E,2,59,0.47,21.16,M,15.25,M,1,3335*73
$GNRMC,040808.200,A,2500.8151600,N,12132.4733700,E,0.08,263.08,030324,,,D,V*03
$GPHDT,,T*1B
$GNACCURACY,3.8*1D
$GNGGA,040808.300,2500.8151700,N,12132.4733700,E,2,59,0.47,21.16,M,15.25,M,1,3335*73
$GNRMC,040808.300,A,2500.8151700,N,12132.4733700,E,0.04,263.08,030324,,,D,V*0F
$GPHDT,,T*1B
$GNACCURACY,3.8*1D
$GNGGA,040808.400,2500.8151700,N,12132.4733700,E,2,59,0.47,21.16,M,15.25,M,1,3335*74
$GNRMC,040808.400,A,2500.8151700,N,12132.4733700,E,0.06,263.08,030324,,,D,V*0A
$GPHDT,,T*1B
$GNACCURACY,3.8*1D
$GNGGA,040808.500,2500.8151700,N,12132.4733700,E,2,59,0.47,21.16,M,15.25,M,1,3335*75
$GNRMC,040808.500,A,2500.8151700,N,12132.4733700,E,0.03,263.08,030324,,,D,V*0E
$GPHDT,,T*1B
$GNACCURACY,3.8*1D
$GNGGA,040808.600,2500.8151800,N,12132.4733700,E,2,59,0.47,21.16,M,15.25,M,1,3335*79
$GNRMC,040808.600,A,2500.8151800,N,12132.4733700,E,0.04,263.08,030324,,,D,V*05
$GPHDT,,T*1B
$GNACCURACY,3.8*1D
$GNGGA,040808.700,2500.8151800,N,12132.4733700,E,2,60,0.47,21.16,M,15.25,M,0,3335*73
$GNRMC,040808.700,A,2500.8151800,N,12132.4733700,E,0.04,263.08,030324,,,D,V*04
$GPHDT,,T*1B
$GNACCURACY,3.8*1D
$GNGGA,040808.800,2500.8151800,N,12132.4733600,E,2,60,0.47,21.17,M,15.25,M,0,3335*7C
$GNRMC,040808.800,A,2500.8151800,N,12132.4733600,E,0.04,263.08,030324,,,D,V*0A
$GPHDT,,T*1B
$GNACCURACY,3.8*1D
$GNGGA,040808.900,2500.8151800,N,12132.4733600,E,2,60,0.47,21.17,M,15.25,M,0,3335*7D
$GNRMC,040808.900,A,2500.8151800,N,12132.4733600,E,0.03,263.08,030324,,,D,V*0C
$GPHDT,,T*1B
$GNACCURACY,3.8*1D
$GNGGA,040809.000,2500.8151800,N,12132.4733600,E,2,60,0.47,21.18,M,15.25,M,1,3335*7B
$GNRMC,040809.000,A,2500.8151800,N,12132.4733600,E,0.03,263.08,030324,,,D,V*04
$GPHDT,,T*1B
$GNACCURACY,3.8*1D
$GNGGA,040809.100,2500.8151800,N,12132.4733600,E,2,60,0.47,21.18,M,15.25,M,1,3335*7A
$GNRMC,040809.100,A,2500.8151800,N,12132.4733600,E,0.04,263.08,030324,,,D,V*02
$GPHDT,,T*1B
$GNGSA,A,3,08,194,195,199,21,27,02,16,07,09,04,196,0.74,0.47,0.57,1*0C
$GNGSA,A,3,26,,,,,,,,,,,,0.74,0.47,0.57,1*07
$GNGSA,A,3,82,83,80,79,81,73,,,,,,,0.74,0.47,0.57,2*0A
$GNGSA,A,3,30,15,34,27,07,02,,,,,,,0.74,0.47,0.57,3*01
$GNGSA,A,3,34,06,16,09,11,39,40,07,25,10,12,24,0.74,0.47,0.57,4*03
$GNGSA,A,3,43,44,23,,,,,,,,,,0.74,0.47,0.57,4*00
$GPGSV,4,1,15,08,70,328,41,194,63,049,43,195,61,120,27,199,60,167,17,1*58
$GPGSV,4,2,15,21,47,165,28,27,43,030,21,02,36,179,19,16,32,063,29,1*64
$GPGSV,4,3,15,07,31,320,41,09,28,258,28,04,26,211,26,196,20,172,19,1*56
$GPGSV,4,4,15,26,14,090,,31,09,140,17,30,02,320,16,1*57
$GPGSV,3,1,09,08,70,328,43,194,63,049,47,195,61,120,39,199,60,167,35,8*52
$GPGSV,3,2,09,27,43,030,41,09,28,258,25,196,20,172,24,26,14,090,23,8*5D
$GPGSV,3,3,09,30,02,320,23,8*55
$GLGSV,2,1,06,82,64,045,43,83,63,178,18,80,50,017,37,79,33,091,32,1*72
$GLGSV,2,2,06,81,16,028,28,73,15,324,26,1*71
$GAGSV,2,1,07,30,50,035,41,15,48,149,27,34,43,069,28,27,37,317,39,7*78
$GAGSV,2,2,07,07,32,232,31,02,15,083,31,08,11,182,19,7*47
$GAGSV,2,1,05,30,50,035,44,34,43,069,26,27,37,317,38,07,32,232,36,1*77
$GAGSV,2,2,05,02,15,083,21,1*4E
$GBGSV,4,1,15,34,82,059,37,06,77,217,34,16,75,195,35,09,75,287,36,1*7A
$GBGSV,4,2,15,11,71,199,26,39,64,181,29,40,63,321,42,07,62,300,33,1*7B
$GBGSV,4,3,15,25,60,347,40,10,52,282,31,12,49,042,45,24,48,100,37,1*7A
$GBGSV,4,4,15,43,46,215,27,44,26,040,38,23,16,315,34,1*49
$GBGSV,2,1,08,34,82,059,36,39,64,181,28,40,63,321,39,25,60,347,37,4*78
$GBGSV,2,2,08,24,48,100,36,43,46,215,31,44,26,040,39,23,16,315,32,4*7E
$GNACCURACY,3.8*1D
$PAIRSAT,1,33,2,0,201,3,0,200,4,0,221,5,0,200,6,0,200,7,0,201,8,0,221,9,0,221,10,0,200,11,0,200,12,0,200,13,0,200,14,0,200,15,0,200,16,0,201,17,0,200,18,0,200,19,0,200,20,0,200,21,0,201,24,0,200,25,0,200,26,0,220,27,0,221,28,0,200,29,0,200,30,0,200,31,0,201,32,0,200,194,0,621,195,0,621,196,0,620,199,0,621*5E
$PAIRSAT,2,24,65,0,200,66,0,200,67,0,200,68,0,200,69,0,200,70,0,200,71,0,200,72,0,200,73,0,201,74,0,200,75,0,200,76,0,200,77,0,200,78,0,200,79,0,201,80,0,201,81,0,201,82,0,201,83,0,201,84,0,200,85,0,200,86,0,200,87,0,200,88,0,200*7A
$PAIRSAT,3,23,2,0,1021,3,0,1200,4,0,1200,5,0,200,7,0,1221,8,0,1000,9,0,1000,10,0,1000,11,0,1000,12,0,1200,13,0,1200,15,0,1221,19,0,1200,21,0,1200,24,0,1200,25,0,1200,26,0,1200,27,0,1221,30,0,1221,31,0,1200,33,0,1200,34,0,1221,36,0,1200*68
$PAIRSAT,4,46,1,0,200,2,0,200,3,0,600,4,0,200,5,0,200,6,0,201,7,0,201,8,0,200,9,0,201,10,0,201,11,0,201,12,0,201,13,0,200,14,0,200,16,0,201,19,0,600,20,0,600,21,0,600,22,0,600,23,0,621,24,0,621,25,0,621,26,0,600,27,0,600,28,0,600,29,0,600,30,0,600,32,0,600,33,0,600,34,0,621,35,0,600,36,0,600,37,0,400,38,0,400,39,0,421,40,0,421,41,0,400,42,0,400,43,0,421,44,0,421,45,0,400,46,0,400,59,0,400,60,0,400,61,0,400,62,0,400*48
$PAIRDGP,7,2,4,7,9,16,21,31*60
$GNGGA,040809.200,2500.8151800,N,12132.4733500,E,2,60,0.47,21.18,M,15.25,M,1,3335*7A
$GNRMC,040809.200,A,2500.8151800,N,12132.4733500,E,0.03,263.08,030324,,,D,V*05
$GPHDT,,T*1B
$GNACCURACY,3.8*1D
$GNGGA,040809.300,2500.8151800,N,12132.4733500,E,2,60,0.47,21.19,M,15.25,M,1,3335*7A
$GNRMC,040809.300,A,2500.8151800,N,12132.4733500,E,0.02,263.08,030324,,,D,V*05
$GPHDT,,T*1B
$GNACCURACY,3.8*1D
$GNGGA,040809.400,2500.8151800,N,12132.4733400,E,2,60,0.47,21.19,M,15.25,M,1,3335*7C
$GNRMC,040809.400,A,2500.8151800,N,12132.4733400,E,0.02,263.08,030324,,,D,V*03
$GPHDT,,T*1B
$GNACCURACY,3.8*1D
$GNGGA,040809.500,2500.8151800,N,12132.4733400,E,2,60,0.47,21.19,M,15.25,M,1,3335*7D
$GNRMC,040809.500,A,2500.8151800,N,12132.4733400,E,0.02,263.08,030324,,,D,V*02
$GPHDT,,T*1B
$GNACCURACY,3.8*1D
$GNGGA,040809.600,2500.8151700,N,12132.4733400,E,2,60,0.47,21.19,M,15.25,M,1,3335*71
$GNRMC,040809.600,A,2500.8151700,N,12132.4733400,E,0.02,263.08,030324,,,D,V*0E
$GPHDT,,T*1B
$GNACCURACY,3.8*1D
$GNGGA,040809.700,2500.8151700,N,12132.4733300,E,2,60,0.47,21.20,M,15.25,M,0,3335*7C
$GNRMC,040809.700,A,2500.8151700,N,12132.4733300,E,0.02,263.08,030324,,,D,V*08
$GPHDT,,T*1B
$GNACCURACY,3.8*1D
$GNGGA,040809.800,2500.8151700,N,12132.4733300,E,2,60,0.47,21.20,M,15.25,M,0,3335*73
$GNRMC,040809.800,A,2500.8151700,N,12132.4733300,E,0.01,263.08,030324,,,D,V*04
$GPHDT,,T*1B
$GNACCURACY,3.8*1D
$GNGGA,040809.900,2500.8151700,N,12132.4733300,E,2,61,0.47,21.20,M,15.25,M,0,3335*73
$GNRMC,040809.900,A,2500.8151700,N,12132.4733300,E,0.01,263.08,030324,,,D,V*05
$GPHDT,,T*1B
$GNACCURACY,3.8*1D
$GNGGA,040810.000,2500.8151600,N,12132.4733300,E,2,61,0.47,21.20,M,15.25,M,1,3335*72
$GNRMC,040810.000,A,2500.8151600,N,12132.4733300,E,0.01,263.08,030324,,,D,V*05
$GPHDT,,T*1B
$GNACCURACY,3.8*1D
$GNGGA,040810.100,2500.8151500,N,12132.4733200,E,2,61,0.47,21.19,M,15.25,M,1,3335*7B
$GNRMC,040810.100,A,2500.8151500,N,12132.4733200,E,0.01,263.08,030324,,,D,V*06
$GPHDT,,T*1B
$GNGSA,A,3,08,194,195,199,21,27,02,16,07,09,04,196,0.74,0.47,0.57,1*0C
$GNGSA,A,3,26,,,,,,,,,,,,0.74,0.47,0.57,1*07
$GNGSA,A,3,82,83,80,79,81,73,,,,,,,0.74,0.47,0.57,2*0A
$GNGSA,A,3,30,15,34,27,07,02,,,,,,,0.74,0.47,0.57,3*01
$GNGSA,A,3,34,06,16,09,11,39,40,07,25,10,12,24,0.74,0.47,0.57,4*03
$GNGSA,A,3,43,44,23,,,,,,,,,,0.74,0.47,0.57,4*00
$GPGSV,4,1,15,08,70,328,40,194,63,049,41,195,61,120,24,199,60,167,19,1*56
$GPGSV,4,2,15,21,47,165,28,27,43,030,19,02,36,179,18,16,32,063,29,1*6E
$GPGSV,4,3,15,07,31,320,41,09,28,258,24,04,26,211,27,196,20,172,18,1*5A
$GPGSV,4,4,15,26,14,090,21,31,09,140,19,30,02,320,18,1*54
$GPGSV,3,1,09,08,70,328,43,194,63,049,47,195,61,120,40,199,60,167,36,8*5F
$GPGSV,3,2,09,27,43,030,41,09,28,258,28,196,20,172,24,26,14,090,21,8*52
$GPGSV,3,3,09,30,02,320,21,8*57
$GLGSV,2,1,08,82,64,045,42,83,63,178,18,80,50,017,36,79,33,091,32,1*7C
$GLGSV,2,2,08,81,16,028,29,73,15,324,27,70,07,254,,84,03,199,,1*72
$GAGSV,2,1,07,30,50,035,41,15,48,149,25,34,43,069,30,27,37,317,39,7*73
$GAGSV,2,2,07,07,32,232,28,02,15,083,33,08,11,182,20,7*47
$GAGSV,2,1,05,30,50,035,44,34,43,069,26,27,37,317,40,07,32,232,36,1*78
$GAGSV,2,2,05,02,15,083,22,1*4D
$GBGSV,4,1,16,34,82,059,36,06,77,217,32,16,75,195,35,09,75,287,36,1*7E
$GBGSV,4,2,16,11,71,199,26,39,64,181,31,40,63,321,43,07,62,300,33,1*70
$GBGSV,4,3,16,25,60,347,41,10,52,282,27,12,49,042,44,24,48,100,38,1*71
$GBGSV,4,4,16,43,46,215,29,44,26,040,38,23,16,315,33,38,06,170,,1*78
$GBGSV,2,1,08,34,82,059,35,39,64,181,29,40,63,321,39,25,60,347,37,4*7A
$GBGSV,2,2,08,24,48,100,36,43,46,215,30,44,26,040,39,23,16,315,31,4*7C
$GNACCURACY,3.8*1D
$PAIRSAT,1,33,2,0,201,3,0,200,4,0,221,5,0,200,6,0,200,7,0,201,8,0,221,9,0,221,10,0,200,11,0,200,12,0,200,13,0,200,14,0,200,15,0,200,16,0,201,17,0,200,18,0,200,19,0,200,20,0,200,21,0,201,24,0,200,25,0,200,26,0,220,27,0,221,28,0,200,29,0,200,30,0,200,31,0,201,32,0,200,194,0,621,195,0,621,196,0,620,199,0,621*5E
$PAIRSAT,2,24,65,0,200,66,0,200,67,0,200,68,0,200,69,0,200,70,0,200,71,0,200,72,0,200,73,0,201,74,0,200,75,0,200,76,0,200,77,0,200,78,0,200,79,0,201,80,0,201,81,0,201,82,0,201,83,0,201,84,0,200,85,0,200,86,0,200,87,0,200,88,0,200*7A
$PAIRSAT,3,23,2,0,1021,3,0,1200,4,0,1200,5,0,200,7,0,1221,8,0,1000,9,0,1000,10,0,1000,11,0,1000,12,0,1200,13,0,1200,15,0,1221,19,0,1200,21,0,1200,24,0,1200,25,0,1200,26,0,1200,27,0,1221,30,0,1221,31,0,1200,33,0,1200,34,0,1221,36,0,1200*68
$PAIRSAT,4,46,1,0,200,2,0,200,3,0,600,4,0,200,5,0,200,6,0,201,7,0,201,8,0,200,9,0,201,10,0,201,11,0,201,12,0,201,13,0,200,14,0,200,16,0,201,19,0,600,20,0,600,21,0,600,22,0,600,23,0,621,24,0,621,25,0,621,26,0,600,27,0,600,28,0,600,29,0,600,30,0,600,32,0,600,33,0,600,34,0,621,35,0,600,36,0,600,37,0,400,38,0,400,39,0,421,40,0,421,41,0,400,42,0,400,43,0,421,44,0,421,45,0,400,46,0,400,59,0,400,60,0,400,61,0,400,62,0,400*48
$PAIRDGP,7,2,4,7,9,16,21,31*60
$GNGGA,040810.200,2500.8151500,N,12132.4733200,E,2,61,0.47,21.19,M,15.25,M,1,3335*78
$GNRMC,040810.200,A,2500.8151500,N,12132.4733200,E,0.01,263.08,030324,,,D,V*05
$GPHDT,,T*1B
$GNACCURACY,3.8*1D
$GNGGA,040810.300,2500.8151500,N,12132.4733200,E,2,61,0.47,21.19,M,15.25,M,1,3335*79
$GNRMC,040810.300,A,2500.8151500,N,12132.4733200,E,0.02,263.08,030324,,,D,V*07
$GPHDT,,T*1B
$GNACCURACY,3.8*1D
$GNGGA,040810.400,2500.8151500,N,12132.4733100,E,2,61,0.47,21.19,M,15.25,M,1,3335*7D
$GNRMC,040810.400,A,2500.8151500,N,12132.4733100,E,0.01,263.08,030324,,,D,V*00
$GPHDT,,T*1B
$GNACCURACY,3.8*1D
$GNGGA,040810.500,2500.8151500,N,12132.4733100,E,2,62,0.47,21.19,M,15.25,M,0,3335*7E
$GNRMC,040810.500,A,2500.8151500,N,12132.4733100,E,0.02,263.08,030324,,,D,V*02
$GPHDT,,T*1B
$GNACCURACY,3.8*1D
$GNGGA,040810.600,2500.8151500,N,12132.4733100,E,2,61,0.47,21.19,M,15.25,M,0,3335*7E
$GNRMC,040810.600,A,2500.8151500,N,12132.4733100,E,0.02,263.08,030324,,,D,V*01
$GPHDT,,T*1B
$GNACCURACY,3.8*1D
$GNGGA,040810.700,2500.8151500,N,12132.4733000,E,2,61,0.47,21.19,M,15.25,M,0,3335*7E
$GNRMC,040810.700,A,2500.8151500,N,12132.4733000,E,0.07,263.08,030324,,,D,V*04
$GPHDT,,T*1B
$GNACCURACY,3.8*1D
$GNGGA,040810.800,2500.8151500,N,12132.4733000,E,2,63,0.47,21.19,M,15.25,M,0,3335*73
$GNRMC,040810.800,A,2500.8151500,N,12132.4733000,E,0.08,263.08,030324,,,D,V*04
$GPHDT,,T*1B
$GNACCURACY,3.8*1D
$GNGGA,040810.900,2500.8151500,N,12132.4733000,E,2,63,0.47,21.20,M,15.25,M,0,3335*78
$GNRMC,040810.900,A,2500.8151500,N,12132.4733000,E,0.05,263.08,030324,,,D,V*08
$GPHDT,,T*1B
$GNACCURACY,3.8*1D
$GNGGA,040811.000,2500.8151500,N,12132.4733000,E,2,63,0.47,21.20,M,15.25,M,1,3335*71
$GNRMC,040811.000,A,2500.8151500,N,12132.4733000,E,0.04,263.08,030324,,,D,V*01
$GPHDT,,T*1B
$GNACCURACY,3.8*1D
$GNGGA,040811.100,2500.8151500,N,12132.4732900,E,2,63,0.47,21.20,M,15.25,M,1,3335*78
$GNRMC,040811.100,A,2500.8151500,N,12132.4732900,E,0.04,263.08,030324,,,D,V*08
$GPHDT,,T*1B
$GNGSA,A,3,08,194,195,199,21,27,02,16,07,09,04,196,0.74,0.47,0.57,1*0C
$GNGSA,A,3,26,,,,,,,,,,,,0.74,0.47,0.57,1*07
$GNGSA,A,3,82,83,80,79,81,73,,,,,,,0.74,0.47,0.57,2*0A
$GNGSA,A,3,30,15,34,27,07,02,,,,,,,0.74,0.47,0.57,3*01
$GNGSA,A,3,34,06,16,09,11,39,40,07,25,10,12,24,0.74,0.47,0.57,4*03
$GNGSA,A,3,43,44,23,,,,,,,,,,0.74,0.47,0.57,4*00
$GPGSV,4,1,15,08,70,328,40,194,63,049,42,195,61,120,28,199,60,167,19,1*59
$GPGSV,4,2,15,21,47,165,25,27,43,030,20,02,36,179,18,16,32,063,30,1*61
$GPGSV,4,3,15,07,31,320,41,09,28,258,24,04,26,211,19,196,20,172,19,1*56
$GPGSV,4,4,15,26,14,090,26,31,09,140,17,30,02,320,17,1*52
$GPGSV,3,1,10,08,70,328,43,194,63,049,46,195,61,120,41,199,60,167,34,8*55
$GPGSV,3,2,10,27,43,030,41,09,28,258,24,04,26,211,34,196,20,172,24,8*58
$GPGSV,3,3,10,26,14,090,23,30,02,320,21,8*66
$GLGSV,3,1,09,82,64,045,42,83,63,178,19,80,50,017,36,79,33,091,36,1*79
$GLGSV,3,2,09,81,16,028,28,73,15,324,28,70,07,254,,71,05,300,,1*72
$GLGSV,3,3,09,84,03,199,,1*4F
$GAGSV,2,1,08,30,50,035,41,15,48,149,26,34,43,069,31,27,37,317,39,7*7E
$GAGSV,2,2,08,07,32,232,32,02,15,083,34,08,11,182,24,36,04,034,,7*76
$GAGSV,2,1,06,30,50,035,45,15,48,149,30,34,43,069,28,27,37,317,40,1*73
$GAGSV,2,2,06,07,32,232,35,02,15,083,26,1*79
$GBGSV,4,1,15,34,81,059,36,06,77,217,33,16,75,195,35,09,75,287,36,1*7F
$GBGSV,4,2,15,11,71,199,23,39,64,181,31,40,63,321,43,07,62,300,30,1*75
$GBGSV,4,3,15,25,60,347,41,10,52,282,29,12,49,042,44,24,48,100,38,1*7C
$GBGSV,4,4,15,43,46,215,34,44,26,040,38,23,16,315,33,1*4C
$GBGSV,2,1,08,34,81,059,35,39,64,181,29,40,63,321,39,25,60,347,37,4*79
$GBGSV,2,2,08,24,48,100,36,43,46,215,29,44,26,040,38,23,16,315,31,4*75
$GNACCURACY,3.8*1D
$PAIRSAT,1,33,2,0,201,3,0,200,4,0,221,5,0,200,6,0,200,7,0,201,8,0,221,9,0,221,10,0,200,11,0,200,12,0,200,13,0,200,14,0,200,15,0,200,16,0,201,17,0,200,18,0,200,19,0,200,20,0,200,21,0,201,24,0,200,25,0,200,26,0,220,27,0,221,28,0,200,29,0,200,30,0,200,31,0,201,32,0,200,194,0,621,195,0,621,196,0,620,199,0,621*5E
$PAIRSAT,2,24,65,0,200,66,0,200,67,0,200,68,0,200,69,0,200,70,0,200,71,0,200,72,0,200,73,0,201,74,0,200,75,0,200,76,0,200,77,0,200,78,0,200,79,0,201,80,0,201,81,0,201,82,0,201,83,0,201,84,0,200,85,0,200,86,0,200,87,0,200,88,0,200*7A
$PAIRSAT,3,23,2,0,1021,3,0,1200,4,0,1200,5,0,200,7,0,1221,8,0,1000,9,0,1000,10,0,1000,11,0,1000,12,0,1200,13,0,1200,15,0,1221,19,0,1200,21,0,1200,24,0,1200,25,0,1200,26,0,1200,27,0,1221,30,0,1221,31,0,1200,33,0,1200,34,0,1221,36,0,1200*68
$PAIRSAT,4,46,1,0,200,2,0,200,3,0,600,4,0,200,5,0,200,6,0,201,7,0,201,8,0,200,9,0,201,10,0,201,11,0,201,12,0,201,13,0,200,14,0,200,16,0,201,19,0,600,20,0,600,21,0,600,22,0,600,23,0,621,24,0,621,25,0,621,26,0,600,27,0,600,28,0,600,29,0,600,30,0,600,32,0,600,33,0,600,34,0,621,35,0,600,36,0,600,37,0,400,38,0,400,39,0,421,40,0,421,41,0,400,42,0,400,43,0,421,44,0,421,45,0,400,46,0,400,59,0,400,60,0,400,61,0,400,62,0,400*48
$PAIRDGP,7,2,4,7,9,16,21,31*60
$GNGGA,040811.200,2500.8151500,N,12132.4732800,E,2,63,0.47,21.20,M,15.25,M,1,3335*7A
$GNRMC,040811.200,A,2500.8151500,N,12132.4732800,E,0.06,263.08,030324,,,D,V*08
$GPHDT,,T*1B
$GNACCURACY,3.8*1D
$GNGGA,040811.300,2500.8151500,N,12132.4732700,E,2,63,0.47,21.21,M,15.25,M,1,3335*75
$GNRMC,040811.300,A,2500.8151500,N,12132.4732700,E,0.08,263.08,030324,,,D,V*08
$GPHDT,,T*1B
$GNACCURACY,3.8*1D
$GNGGA,040811.400,2500.8151500,N,12132.4732700,E,2,63,0.47,21.21,M,15.25,M,1,3335*72
$GNRMC,040811.400,A,2500.8151500,N,12132.4732700,E,0.11,263.08,030324,,,D,V*07
$GPHDT,,T*1B
$GNACCURACY,3.8*1D
$GNGGA,040811.500,2500.8151500,N,12132.4732700,E,2,62,0.47,21.22,M,15.25,M,0,3335*70
$GNRMC,040811.500,A,2500.8151500,N,12132.4732700,E,0.16,263.08,030324,,,D,V*01
$GPHDT,,T*1B
$GNACCURACY,3.8*1D
$GNGGA,040811.600,2500.8151500,N,12132.4732600,E,2,63,0.47,21.22,M,15.25,M,0,3335*73
$GNRMC,040811.600,A,2500.8151500,N,12132.4732600,E,0.19,263.08,030324,,,D,V*0C
$GPHDT,,T*1B
$GNACCURACY,3.8*1D
$GNGGA,040811.700,2500.8151500,N,12132.4732500,E,2,63,0.47,21.23,M,15.25,M,0,3335*70
$GNRMC,040811.700,A,2500.8151500,N,12132.4732500,E,0.18,263.08,030324,,,D,V*0F
$GPHDT,,T*1B
$GNACCURACY,3.8*1D
$GNGGA,040811.800,2500.8151500,N,12132.4732500,E,2,63,0.47,21.23,M,15.25,M,0,3335*7F
$GNRMC,040811.800,A,2500.8151500,N,12132.4732500,E,0.18,263.08,030324,,,D,V*00
$GPHDT,,T*1B
$GNACCURACY,3.8*1D
$GNGGA,040811.900,2500.8151500,N,12132.4732400,E,2,63,0.47,21.23,M,15.25,M,0,3335*7F
$GNRMC,040811.900,A,2500.8151500,N,12132.4732400,E,0.15,263.08,030324,,,D,V*0D
$GPHDT,,T*1B
$GNACCURACY,3.8*1D
$GNGGA,040812.000,2500.8151500,N,12132.4732400,E,2,63,0.47,21.23,M,15.25,M,1,3335*74
$GNRMC,040812.000,A,2500.8151500,N,12132.4732400,E,0.11,263.08,030324,,,D,V*03
$GPHDT,,T*1B
$GNACCURACY,3.8*1D
$GNGGA,040812.100,2500.8151500,N,12132.4732300,E,2,63,0.47,21.24,M,15.25,M,1,3335*75
$GNRMC,040812.100,A,2500.8151500,N,12132.4732300,E,0.14,263.08,030324,,,D,V*00
$GPHDT,,T*1B
$GNGSA,A,3,08,194,195,199,21,27,02,16,07,09,04,196,0.74,0.47,0.57,1*0C
$GNGSA,A,3,26,,,,,,,,,,,,0.74,0.47,0.57,1*07
$GNGSA,A,3,82,83,80,79,81,73,,,,,,,0.74,0.47,0.57,2*0A
$GNGSA,A,3,30,15,34,27,07,02,,,,,,,0.74,0.47,0.57,3*01
$GNGSA,A,3,34,06,16,09,11,39,40,07,25,10,12,24,0.74,0.47,0.57,4*03
$GNGSA,A,3,43,44,23,,,,,,,,,,0.74,0.47,0.57,4*00
$GPGSV,4,1,15,08,70,328,41,194,63,049,42,195,61,120,27,199,60,167,19,1*57
$GPGSV,4,2,15,21,47,165,24,27,43,030,18,02,36,179,24,16,32,063,32,1*66
$GPGSV,4,3,15,07,31,320,41,09,28,258,23,04,26,211,19,196,20,172,18,1*50
$GPGSV,4,4,15,26,14,090,25,31,09,140,15,30,02,320,15,1*51
$GPGSV,3,1,10,08,70,328,43,194,63,049,46,195,61,120,41,199,60,167,36,8*57
$GPGSV,3,2,10,27,43,030,42,09,28,258,26,04,26,211,34,196,20,172,25,8*58
$GPGSV,3,3,10,26,14,090,27,30,02,320,22,8*61
$GLGSV,2,1,06,82,64,045,42,83,63,178,17,80,50,017,32,79,33,091,37,1*7C
$GLGSV,2,2,06,81,16,028,31,73,15,324,22,1*7D
$GAGSV,2,1,08,30,50,035,41,15,48,149,26,34,43,069,31,27,37,317,39,7*7E
$GAGSV,2,2,08,07,32,232,31,02,15,083,34,08,11,182,21,36,04,034,,7*70
$GAGSV,2,1,06,30,50,035,45,15,48,149,30,34,43,069,28,27,37,317,39,1*7D
$GAGSV,2,2,06,07,32,232,35,02,15,083,26,1*79
$GBGSV,4,1,15,34,81,059,36,06,77,217,33,16,75,195,35,09,75,287,37,1*7E
$GBGSV,4,2,15,11,71,199,22,39,64,181,31,40,63,321,43,07,62,300,30,1*74
$GBGSV,4,3,15,25,60,347,40,10,52,282,26,12,49,042,44,24,48,100,39,1*73
$GBGSV,4,4,15,43,46,215,34,44,26,040,38,23,16,315,30,1*4F
$GBGSV,2,1,08,34,81,059,35,39,64,181,29,40,63,321,40,25,60,347,38,4*78
$GBGSV,2,2,08,24,48,100,36,43,46,215,28,44,26,040,38,23,16,315,31,4*74
$GNACCURACY,3.8*1D
$PAIRSAT,1,34,2,0,201,3,0,200,4,0,221,5,0,200,6,0,200,7,0,201,8,0,221,9,0,221,10,0,200,11,0,200,12,0,200,13,0,200,14,0,200,15,0,200,16,0,201,17,0,200,18,0,200,19,0,200,20,0,200,21,0,201,22,0,200,24,0,200,25,0,200,26,0,220,27,0,221,28,0,200,29,0,200,30,0,200,31,0,201,32,0,200,194,0,621,195,0,621,196,0,620,199,0,621*77
$PAIRSAT,2,24,65,0,200,66,0,200,67,0,200,68,0,200,69,0,200,70,0,200,71,0,200,72,0,200,73,0,201,74,0,200,75,0,200,76,0,200,77,0,200,78,0,200,79,0,201,80,0,201,81,0,201,82,0,201,83,0,201,84,0,200,85,0,200,86,0,200,87,0,200,88,0,200*7A
$PAIRSAT,3,23,2,0,1021,3,0,1200,4,0,1200,5,0,200,7,0,1221,8,0,1000,9,0,1000,10,0,1000,11,0,1000,12,0,1200,13,0,1200,15,0,1221,19,0,1200,21,0,1200,24,0,1200,25,0,1200,26,0,1200,27,0,1221,30,0,1221,31,0,1200,33,0,1200,34,0,1221,36,0,1200*68
$PAIRSAT,4,46,1,0,200,2,0,200,3,0,600,4,0,200,5,0,200,6,0,201,7,0,201,8,0,200,9,0,201,10,0,201,11,0,201,12,0,201,13,0,200,14,0,200,16,0,201,19,0,600,20,0,600,21,0,600,22,0,600,23,0,621,24,0,621,25,0,621,26,0,600,27,0,600,28,0,600,29,0,600,30,0,600,32,0,600,33,0,600,34,0,621,35,0,600,36,0,600,37,0,400,38,0,400,39,0,421,40,0,421,41,0,400,42,0,400,43,0,421,44,0,421,45,0,400,46,0,400,59,0,400,60,0,400,61,0,400,62,0,400*48
$PAIRDGP,7,2,4,7,9,16,21,31*60
$GNGGA,040812.200,2500.8151500,N,12132.4732200,E,2,63,0.47,21.24,M,15.25,M,1,3335*77
$GNRMC,040812.200,A,2500.8151500,N,12132.4732200,E,0.10,263.08,030324,,,D,V*06
$GPHDT,,T*1B
$GNACCURACY,3.8*1D
$GNGGA,040812.300,2500.8151500,N,12132.4732100,E,2,63,0.47,21.24,M,15.25,M,1,3335*75
$GNRMC,040812.300,A,2500.8151500,N,12132.4732100,E,0.13,263.08,030324,,,D,V*07
$GPHDT,,T*1B
$GNACCURACY,3.8*1D
$GNGGA,040812.400,2500.8151400,N,12132.4732100,E,2,63,0.47,21.24,M,15.25,M,1,3335*73
$GNRMC,040812.400,A,2500.8151400,N,12132.4732100,E,0.12,263.08,030324,,,D,V*00
$GPHDT,,T*1B
$GNACCURACY,3.8*1D
$GNGGA,040812.500,2500.8151400,N,12132.4732000,E,2,62,0.47,21.25,M,15.25,M,1,3335*73
$GNRMC,040812.500,A,2500.8151400,N,12132.4732000,E,0.10,263.08,030324,,,D,V*02
$GPHDT,,T*1B
$GNACCURACY,3.8*1D
$GNGGA,040812.600,2500.8151400,N,12132.4731900,E,2,61,0.47,21.25,M,15.25,M,0,3335*78
$GNRMC,040812.600,A,2500.8151400,N,12132.4731900,E,0.09,263.08,030324,,,D,V*03
$GPHDT,,T*1B
$GNACCURACY,3.8*1D
$GNGGA,040812.700,2500.8151300,N,12132.4731900,E,2,61,0.47,21.25,M,15.25,M,0,3335*7E
$GNRMC,040812.700,A,2500.8151300,N,12132.4731900,E,0.06,263.08,030324,,,D,V*0A
$GPHDT,,T*1B
$GNACCURACY,3.8*1D
$GNGGA,040812.800,2500.8151300,N,12132.4731800,E,2,62,0.47,21.25,M,15.25,M,0,3335*73
$GNRMC,040812.800,A,2500.8151300,N,12132.4731800,E,0.06,263.08,030324,,,D,V*04
$GPHDT,,T*1B
$GNACCURACY,3.8*1D
$GNGGA,040812.900,2500.8151200,N,12132.4731800,E,2,62,0.47,21.25,M,15.25,M,0,3335*73
$GNRMC,040812.900,A,2500.8151200,N,12132.4731800,E,0.05,263.08,030324,,,D,V*07
$GPHDT,,T*1B
$GNACCURACY,3.8*1D
$GNGGA,040813.000,2500.8151200,N,12132.4731800,E,2,62,0.47,21.25,M,15.25,M,1,3335*7A
$GNRMC,040813.000,A,2500.8151200,N,12132.4731800,E,0.06,263.08,030324,,,D,V*0C
$GPHDT,,T*1B
$GNACCURACY,3.8*1D
$GNGGA,040813.100,2500.8151200,N,12132.4731700,E,2,62,0.47,21.25,M,15.25,M,1,3335*74
$GNRMC,040813.100,A,2500.8151200,N,12132.4731700,E,0.04,263.08,030324,,,D,V*00
$GPHDT,,T*1B
$GNGSA,A,3,08,194,195,199,27,02,16,07,09,04,196,26,0.74,0.47,0.57,1*0B
$GNGSA,A,3,82,83,80,79,81,73,,,,,,,0.74,0.47,0.57,2*0A
$GNGSA,A,3,30,15,34,27,07,02,,,,,,,0.74,0.47,0.57,3*01
$GNGSA,A,3,34,06,16,09,11,39,40,07,25,10,12,24,0.74,0.47,0.57,4*03
$GNGSA,A,3,43,44,23,,,,,,,,,,0.74,0.47,0.57,4*00
$GPGSV,4,1,15,08,70,328,40,194,63,049,42,195,61,120,23,199,60,167,19,1*52
$GPGSV,4,2,15,21,47,165,21,27,43,030,25,02,36,179,24,16,32,063,26,1*68
$GPGSV,4,3,15,07,31,320,41,09,28,258,23,04,26,211,23,196,20,172,18,1*59
$GPGSV,4,4,15,26,14,090,23,31,09,140,15,30,02,320,12,1*50
$GPGSV,3,1,10,08,70,328,43,194,63,049,46,195,61,120,41,199,60,167,34,8*55
$GPGSV,3,2,10,27,43,030,42,09,28,258,25,04,26,211,34,196,20,172,24,8*5A
$GPGSV,3,3,10,26,14,090,27,30,02,320,22,8*61
$GLGSV,2,1,06,82,64,045,42,83,63,178,17,80,50,017,31,79,33,091,34,1*7C
$GLGSV,2,2,06,81,16,028,30,73,15,324,22,1*7C
$GAGSV,2,1,07,30,50,035,41,15,48,149,25,34,43,069,28,27,37,317,39,7*7A
$GAGSV,2,2,07,07,32,232,29,02,15,083,34,08,11,182,22,7*43
$GAGSV,2,1,06,30,50,035,45,15,48,149,28,34,43,069,28,27,37,317,39,1*74
$GAGSV,2,2,06,07,32,232,35,02,15,083,23,1*7C
$GBGSV,4,1,16,34,81,059,35,06,77,217,33,16,75,195,35,09,75,287,37,1*7E
$GBGSV,4,2,16,11,71,199,23,39,64,181,31,40,63,321,43,07,62,300,30,1*76
$GBGSV,4,3,16,25,60,347,40,10,52,282,26,12,49,042,44,24,48,100,40,1*7E
$GBGSV,4,4,16,43,46,215,35,44,26,040,37,23,16,315,33,26,04,122,,1*70
$GBGSV,2,1,08,34,81,059,36,39,64,181,28,40,63,321,40,25,60,347,38,4*7A
$GBGSV,2,2,08,24,48,100,36,43,46,215,29,44,26,040,38,23,16,315,31,4*75
$GNACCURACY,3.8*1D
$PAIRSAT,1,34,2,0,201,3,0,200,4,0,221,5,0,200,6,0,200,7,0,201,8,0,221,9,0,221,10,0,200,11,0,200,12,0,200,13,0,200,14,0,200,15,0,200,16,0,201,17,0,200,18,0,200,19,0,200,20,0,200,21,0,201,22,0,200,24,0,200,25,0,200,26,0,220,27,0,221,28,0,200,29,0,200,30,0,200,31,0,201,32,0,200,194,0,621,195,0,621,196,0,620,199,0,621*77
$PAIRSAT,2,24,65,0,200,66,0,200,67,0,200,68,0,200,69,0,200,70,0,200,71,0,200,72,0,200,73,0,201,74,0,200,75,0,200,76,0,200,77,0,200,78,0,200,79,0,201,80,0,201,81,0,201,82,0,201,83,0,201,84,0,200,85,0,200,86,0,200,87,0,200,88,0,200*7A
$PAIRSAT,3,23,2,0,1021,3,0,1200,4,0,1200,5,0,200,7,0,1221,8,0,1000,9,0,1000,10,0,1000,11,0,1000,12,0,1200,13,0,1200,15,0,1221,19,0,1200,21,0,1200,24,0,1200,25,0,1200,26,0,1200,27,0,1221,30,0,1221,31,0,1200,33,0,1200,34,0,1221,36,0,1200*68
$PAIRSAT,4,46,1,0,200,2,0,200,3,0,600,4,0,200,5,0,200,6,0,201,7,0,201,8,0,200,9,0,201,10,0,201,11,0,201,12,0,201,13,0,200,14,0,200,16,0,201,19,0,600,20,0,600,21,0,600,22,0,600,23,0,621,24,0,621,25,0,621,26,0,600,27,0,600,28,0,600,29,0,600,30,0,600,32,0,600,33,0,600,34,0,621,35,0,600,36,0,600,37,0,400,38,0,400,39,0,421,40,0,421,41,0,400,42,0,400,43,0,421,44,0,421,45,0,400,46,0,400,59,0,400,60,0,400,61,0,400,62,0,400*48
$PAIRDGP,7,2,4,7,9,16,21,31*60
$GNGGA,040813.200,2500.8151200,N,12132.4731600,E,2,62,0.47,21.25,M,15.25,M,1,3335*76
$GNRMC,040813.200,A,2500.8151200,N,12132.4731600,E,0.04,263.08,030324,,,D,V*02
$GPHDT,,T*1B
$GNACCURACY,3.8*1D
$GNGGA,040813.300,2500.8151200,N,12132.4731600,E,2,62,0.47,21.25,M,15.25,M,1,3335*77
$GNRMC,040813.300,A,2500.8151200,N,12132.4731600,E,0.03,263.08,030324,,,D,V*04
$GPHDT,,T*1B
$GNACCURACY,3.8*1D
$GNGGA,040813.400,2500.8151200,N,12132.4731600,E,2,62,0.47,21.25,M,15.25,M,1,3335*70
$GNRMC,040813.400,A,2500.8151200,N,12132.4731600,E,0.04,263.08,030324,,,D,V*04
$GPHDT,,T*1B
$GNACCURACY,3.8*1D
$GNGGA,040813.500,2500.8151200,N,12132.4731600,E,2,62,0.47,21.25,M,15.25,M,0,3335*70
$GNRMC,040813.500,A,2500.8151200,N,12132.4731600,E,0.05,263.08,030324,,,D,V*04
$GPHDT,,T*1B
$GNACCURACY,3.8*1D
$GNGGA,040813.600,2500.8151100,N,12132.4731600,E,2,63,0.47,21.25,M,15.25,M,0,3335*71
$GNRMC,040813.600,A,2500.8151100,N,12132.4731600,E,0.08,263.08,030324,,,D,V*09
$GPHDT,,T*1B
$GNACCURACY,3.8*1D
$GNGGA,040813.700,2500.8151100,N,12132.4731500,E,2,63,0.47,21.25,M,15.25,M,0,3335*73
$GNRMC,040813.700,A,2500.8151100,N,12132.4731500,E,0.08,263.08,030324,,,D,V*0B
$GPHDT,,T*1B
$GNACCURACY,3.9*1C
$GNGGA,040813.800,2500.8151100,N,12132.4731500,E,2,63,0.47,21.26,M,15.25,M,0,3335*7F
$GNRMC,040813.800,A,2500.8151100,N,12132.4731500,E,0.08,263.08,030324,,,D,V*04
$GPHDT,,T*1B
$GNACCURACY,3.9*1C
$GNGGA,040813.900,2500.8151100,N,12132.4731500,E,2,62,0.47,21.26,M,15.25,M,0,3335*7F
$GNRMC,040813.900,A,2500.8151100,N,12132.4731500,E,0.08,263.08,030324,,,D,V*05
$GPHDT,,T*1B
$GNACCURACY,3.9*1C
$GNGGA,040814.000,2500.8151100,N,12132.4731400,E,2,62,0.47,21.26,M,15.25,M,1,3335*71
$GNRMC,040814.000,A,2500.8151100,N,12132.4731400,E,0.07,263.08,030324,,,D,V*05
$GPHDT,,T*1B
$GNACCURACY,3.9*1C
$GNGGA,040814.100,2500.8151000,N,12132.4731300,E,2,63,0.47,21.26,M,15.25,M,1,3335*77
$GNRMC,040814.100,A,2500.8151000,N,12132.4731300,E,0.08,263.08,030324,,,D,V*0D
$GPHDT,,T*1B
$GNGSA,A,3,08,194,195,199,21,27,02,16,07,09,04,196,0.74,0.47,0.57,1*0C
$GNGSA,A,3,26,,,,,,,,,,,,0.74,0.47,0.57,1*07
$GNGSA,A,3,82,83,80,79,81,73,,,,,,,0.74,0.47,0.57,2*0A
$GNGSA,A,3,30,15,34,27,07,02,,,,,,,0.74,0.47,0.57,3*01
$GNGSA,A,3,34,06,16,09,11,39,40,07,25,10,12,24,0.74,0.47,0.57,4*03
$GNGSA,A,3,43,44,23,,,,,,,,,,0.74,0.47,0.57,4*00
$GPGSV,4,1,15,08,70,329,39,194,63,049,42,195,61,120,27,199,60,167,19,1*59
$GPGSV,4,2,15,21,47,165,24,27,43,030,29,02,36,179,20,16,32,063,26,1*65
$GPGSV,4,3,15,07,31,320,40,09,28,258,25,04,26,211,21,196,20,172,18,1*5C
$GPGSV,4,4,15,26,14,090,23,31,09,140,14,30,02,320,10,1*53
$GPGSV,3,1,10,08,70,329,43,194,63,049,46,195,61,120,41,199,60,167,34,8*54
$GPGSV,3,2,10,27,43,030,42,09,28,258,26,04,26,211,34,196,20,172,24,8*59
$GPGSV,3,3,10,26,14,090,24,30,02,320,21,8*61
$GLGSV,2,1,06,82,64,045,42,83,63,178,17,80,50,017,32,79,33,091,34,1*7F
$GLGSV,2,2,06,81,16,028,31,73,15,324,25,1*7A
$GAGSV,2,1,07,30,50,035,41,15,48,149,28,34,43,069,28,27,37,317,39,7*77
$GAGSV,2,2,07,07,32,232,29,02,15,083,34,08,11,182,23,7*42
$GAGSV,2,1,06,30,50,035,45,15,48,149,27,34,43,069,28,27,37,317,39,1*7B
$GAGSV,2,2,06,07,32,232,35,02,15,083,23,1*7C
$GBGSV,4,1,16,34,81,059,36,06,77,217,32,16,75,195,35,09,75,287,37,1*7C
$GBGSV,4,2,16,11,71,199,23,39,64,181,32,40,63,321,43,07,62,300,30,1*75
$GBGSV,4,3,16,25,60,347,40,10,52,282,28,12,49,042,44,24,48,100,41,1*71
$GBGSV,4,4,16,43,46,215,34,44,26,040,37,23,16,315,32,33,02,210,,1*70
$GBGSV,2,1,08,34,81,059,35,39,64,181,28,40,63,321,40,25,60,347,38,4*79
$GBGSV,2,2,08,24,48,100,36,43,46,215,29,44,26,040,38,23,16,315,30,4*74
$GNACCURACY,3.9*1C
$PAIRSAT,1,34,2,0,201,3,0,200,4,0,221,5,0,200,6,0,200,7,0,201,8,0,221,9,0,221,10,0,200,11,0,200,12,0,200,13,0,200,14,0,200,15,0,200,16,0,201,17,0,200,18,0,200,19,0,200,20,0,200,21,0,201,22,0,200,24,0,200,25,0,200,26,0,220,27,0,221,28,0,200,29,0,200,30,0,200,31,0,201,32,0,200,194,0,621,195,0,621,196,0,620,199,0,621*77
$PAIRSAT,2,24,65,0,200,66,0,200,67,0,200,68,0,200,69,0,200,70,0,200,71,0,200,72,0,200,73,0,201,74,0,200,75,0,200,76,0,200,77,0,200,78,0,200,79,0,201,80,0,201,81,0,201,82,0,201,83,0,201,84,0,200,85,0,200,86,0,200,87,0,200,88,0,200*7A
$PAIRSAT,3,23,2,0,1021,3,0,1200,4,0,1200,5,0,200,7,0,1221,8,0,1000,9,0,1000,10,0,1000,11,0,1000,12,0,1200,13,0,1200,15,0,1221,19,0,1200,21,0,1200,24,0,1200,25,0,1200,26,0,1200,27,0,1221,30,0,1221,31,0,1200,33,0,1200,34,0,1221,36,0,1200*68
$PAIRSAT,4,46,1,0,200,2,0,200,3,0,600,4,0,200,5,0,200,6,0,201,7,0,201,8,0,200,9,0,201,10,0,201,11,0,201,12,0,201,13,0,200,14,0,200,16,0,201,19,0,600,20,0,600,21,0,600,22,0,600,23,0,621,24,0,621,25,0,621,26,0,600,27,0,600,28,0,600,29,0,600,30,0,600,32,0,600,33,0,600,34,0,621,35,0,600,36,0,600,37,0,400,38,0,400,39,0,421,40,0,421,41,0,400,42,0,400,43,0,421,44,0,421,45,0,400,46,0,400,59,0,400,60,0,400,61,0,400,62,0,400*48
$PAIRDGP,7,2,4,7,9,16,21,31*60
$GNGGA,040814.200,2500.8151000,N,12132.4731300,E,2,63,0.47,21.26,M,15.25,M,1,3335*74
$GNRMC,040814.200,A,2500.8151000,N,12132.4731300,E,0.07,263.08,030324,,,D,V*01
$GPHDT,,T*1B
$GNACCURACY,3.9*1C
$GNGGA,040814.300,2500.8151000,N,12132.4731300,E,2,63,0.47,21.27,M,15.25,M,1,3335*74
$GNRMC,040814.300,A,2500.8151000,N,12132.4731300,E,0.06,263.08,030324,,,D,V*01
$GPHDT,,T*1B
$GNACCURACY,3.9*1C
$GNGGA,040814.400,2500.8151000,N,12132.4731200,E,2,63,0.47,21.27,M,15.25,M,1,3335*72
$GNRMC,040814.400,A,2500.8151000,N,12132.4731200,E,0.05,263.08,030324,,,D,V*04
$GPHDT,,T*1B
$GNACCURACY,3.9*1C
$GNGGA,040814.500,2500.8151000,N,12132.4731200,E,2,63,0.47,21.27,M,15.25,M,0,3335*72
$GNRMC,040814.500,A,2500.8151000,N,12132.4731200,E,0.05,263.08,030324,,,D,V*05
$GPHDT,,T*1B
$GNACCURACY,3.9*1C
$GNGGA,040814.600,2500.8151000,N,12132.4731200,E,2,63,0.47,21.27,M,15.25,M,0,3335*71
$GNRMC,040814.600,A,2500.8151000,N,12132.4731200,E,0.04,263.08,030324,,,D,V*07
$GPHDT,,T*1B
$GNACCURACY,3.9*1C
$GNGGA,040814.700,2500.8151000,N,12132.4731200,E,2,63,0.47,21.27,M,15.25,M,0,3335*70
$GNRMC,040814.700,A,2500.8151000,N,12132.4731200,E,0.04,263.08,030324,,,D,V*06
$GPHDT,,T*1B
$GNACCURACY,3.9*1C
$GNGGA,040814.800,2500.8151000,N,12132.4731200,E,2,63,0.47,21.28,M,15.25,M,0,3335*70
$GNRMC,040814.800,A,2500.8151000,N,12132.4731200,E,0.04,263.08,030324,,,D,V*09
$GPHDT,,T*1B
$GNACCURACY,3.9*1C
$GNGGA,040814.900,2500.8150900,N,12132.4731100,E,2,63,0.47,21.28,M,15.25,M,0,3335*7A
$GNRMC,040814.900,A,2500.8150900,N,12132.4731100,E,0.05,263.08,030324,,,D,V*02
$GPHDT,,T*1B
$GNACCURACY,3.9*1C
$GNGGA,040815.000,2500.8150900,N,12132.4731000,E,2,63,0.47,21.28,M,15.25,M,1,3335*72
$GNRMC,040815.000,A,2500.8150900,N,12132.4731000,E,0.04,263.08,030324,,,D,V*0A
$GPHDT,,T*1B
$GNACCURACY,3.9*1C
$GNGGA,040815.100,2500.8150900,N,12132.4731000,E,2,63,0.47,21.28,M,15.25,M,1,3335*73
$GNRMC,040815.100,A,2500.8150900,N,12132.4731000,E,0.04,263.08,030324,,,D,V*0B
$GPHDT,,T*1B
$GNGSA,A,3,08,194,195,199,21,27,02,16,07,09,04,196,0.74,0.47,0.57,1*0C
$GNGSA,A,3,26,,,,,,,,,,,,0.74,0.47,0.57,1*07
$GNGSA,A,3,82,83,80,79,81,73,,,,,,,0.74,0.47,0.57,2*0A
$GNGSA,A,3,30,15,34,27,07,02,,,,,,,0.74,0.47,0.57,3*01
$GNGSA,A,3,34,06,16,09,11,39,40,07,25,10,12,24,0.74,0.47,0.57,4*03
$GNGSA,A,3,43,44,23,,,,,,,,,,0.74,0.47,0.57,4*00
$GPGSV,4,1,15,08,70,329,39,194,63,049,42,195,61,120,27,199,60,167,18,1*58
$GPGSV,4,2,15,21,47,165,27,27,43,030,27,02,36,179,18,16,32,063,26,1*63
$GPGSV,4,3,15,07,31,320,40,09,28,258,25,04,26,211,21,196,20,172,18,1*5C
$GPGSV,4,4,15,26,14,090,24,31,09,140,17,30,02,320,13,1*54
$GPGSV,3,1,10,08,70,329,43,194,63,049,46,195,61,120,41,199,60,167,35,8*55
$GPGSV,3,2,10,27,43,030,42,09,28,258,26,04,26,211,33,196,20,172,24,8*5E
$GPGSV,3,3,10,26,14,090,23,30,02,320,22,8*65
$GLGSV,2,1,06,82,64,045,42,83,63,178,17,80,50,017,31,79,33,091,33,1*7B
$GLGSV,2,2,06,81,16,028,33,73,15,324,23,1*7E
$GAGSV,2,1,07,30,50,035,41,15,48,149,26,34,43,069,29,27,37,317,39,7*78
$GAGSV,2,2,07,07,32,232,31,02,15,083,35,08,11,182,22,7*4B
$GAGSV,2,1,06,30,50,035,45,15,48,149,28,34,43,069,28,27,37,317,39,1*74
$GAGSV,2,2,06,07,32,232,35,02,15,083,23,1*7C
$GBGSV,4,1,16,34,81,059,36,06,77,217,32,16,75,195,36,09,75,287,37,1*7F
$GBGSV,4,2,16,11,71,199,24,39,64,181,32,40,63,321,42,07,62,300,30,1*73
$GBGSV,4,3,16,25,60,347,40,10,52,282,28,12,49,042,44,24,48,100,42,1*72
$GBGSV,4,4,16,43,46,215,33,44,26,040,37,23,16,315,32,41,02,256,,1*70
$GBGSV,2,1,08,34,81,059,35,39,64,181,28,40,63,321,40,25,60,347,38,4*79
$GBGSV,2,2,08,24,48,100,36,43,46,215,31,44,26,040,38,23,16,315,30,4*7D
$GNACCURACY,3.9*1C
$PAIRSAT,1,34,2,0,201,3,0,200,4,0,221,5,0,200,6,0,200,7,0,201,8,0,221,9,0,221,10,0,200,11,0,200,12,0,200,13,0,200,14,0,200,15,0,200,16,0,201,17,0,200,18,0,200,19,0,200,20,0,200,21,0,201,22,0,200,24,0,200,25,0,200,26,0,220,27,0,221,28,0,200,29,0,200,30,0,200,31,0,201,32,0,200,194,0,621,195,0,621,196,0,620,199,0,621*77
$PAIRSAT,2,24,65,0,200,66,0,200,67,0,200,68,0,200,69,0,200,70,0,200,71,0,200,72,0,200,73,0,201,74,0,200,75,0,200,76,0,200,77,0,200,78,0,200,79,0,201,80,0,201,81,0,201,82,0,201,83,0,201,84,0,200,85,0,200,86,0,200,87,0,200,88,0,200*7A
$PAIRSAT,3,23,2,0,1021,3,0,1200,4,0,1200,5,0,200,7,0,1221,8,0,1000,9,0,1000,10,0,1000,11,0,1000,12,0,1200,13,0,1200,15,0,1221,19,0,1200,21,0,1200,24,0,1200,25,0,1200,26,0,1200,27,0,1221,30,0,1221,31,0,1200,33,0,1200,34,0,1221,36,0,1200*68
$PAIRSAT,4,46,1,0,200,2,0,200,3,0,600,4,0,200,5,0,200,6,0,201,7,0,201,8,0,200,9,0,201,10,0,201,11,0,201,12,0,201,13,0,200,14,0,200,16,0,201,19,0,600,20,0,600,21,0,600,22,0,600,23,0,621,24,0,621,25,0,621,26,0,600,27,0,600,28,0,600,29,0,600,30,0,600,32,0,600,33,0,600,34,0,621,35,0,600,36,0,600,37,0,400,38,0,400,39,0,421,40,0,421,41,0,400,42,0,400,43,0,421,44,0,421,45,0,400,46,0,400,59,0,400,60,0,400,61,0,400,62,0,400*48
$PAIRDGP,7,2,4,7,9,16,21,31*60
$GNGGA,040815.200,2500.8150800,N,12132.4730900,E,2,63,0.47,21.28,M,15.25,M,1,3335*79
$GNRMC,040815.200,A,2500.8150800,N,12132.4730900,E,0.04,263.08,030324,,,D,V*01
$GPHDT,,T*1B
$GNACCURACY,3.9*1C
$GNGGA,040815.300,2500.8150800,N,12132.4730900,E,2,63,0.47,21.28,M,15.25,M,1,3335*78
$GNRMC,040815.300,A,2500.8150800,N,12132.4730900,E,0.04,263.08,030324,,,D,V*00
$GPHDT,,T*1B
$GNACCURACY,3.9*1C
$GNGGA,040815.400,2500.8150700,N,12132.4730800,E,2,63,0.47,21.28,M,15.25,M,1,3335*71
$GNRMC,040815.400,A,2500.8150700,N,12132.4730800,E,0.03,263.08,030324,,,D,V*0E
$GPHDT,,T*1B
$GNACCURACY,3.9*1C
$GNGGA,040815.500,2500.8150600,N,12132.4730700,E,2,63,0.47,21.28,M,15.25,M,0,3335*7F
$GNRMC,040815.500,A,2500.8150600,N,12132.4730700,E,0.03,263.08,030324,,,D,V*01
$GPHDT,,T*1B
$GNACCURACY,3.8*1D
$GNGGA,040815.600,2500.8150600,N,12132.4730700,E,2,63,0.47,21.28,M,15.25,M,0,3335*7C
$GNRMC,040815.600,A,2500.8150600,N,12132.4730700,E,0.03,263.08,030324,,,D,V*02
$GPHDT,,T*1B
$GNACCURACY,3.8*1D
$GNGGA,040815.700,2500.8150600,N,12132.4730700,E,2,63,0.47,21.28,M,15.25,M,0,3335*7D
$GNRMC,040815.700,A,2500.8150600,N,12132.4730700,E,0.04,263.08,030324,,,D,V*04
$GPHDT,,T*1B
$GNACCURACY,3.8*1D
$GNGGA,040815.800,2500.8150600,N,12132.4730600,E,2,63,0.47,21.28,M,15.25,M,0,3335*73
$GNRMC,040815.800,A,2500.8150600,N,12132.4730600,E,0.03,263.08,030324,,,D,V*0D
$GPHDT,,T*1B
$GNACCURACY,3.8*1D
$GNGGA,040815.900,2500.8150500,N,12132.4730500,E,2,63,0.47,21.28,M,15.25,M,0,3335*72
$GNRMC,040815.900,A,2500.8150500,N,12132.4730500,E,0.03,263.08,030324,,,D,V*0C
$GPHDT,,T*1B
$GNACCURACY,3.8*1D
$GNGGA,040816.000,2500.8150500,N,12132.4730400,E,2,63,0.47,21.29,M,15.25,M,1,3335*79
$GNRMC,040816.000,A,2500.8150500,N,12132.4730400,E,0.02,263.08,030324,,,D,V*06
$GPHDT,,T*1B
$GNACCURACY,3.8*1D
$GNGGA,040816.100,2500.8150500,N,12132.4730400,E,2,63,0.47,21.29,M,15.25,M,1,3335*78
$GNRMC,040816.100,A,2500.8150500,N,12132.4730400,E,0.00,263.08,030324,,,D,V*05
$GPHDT,,T*1B
$GNGSA,A,3,08,194,195,199,21,27,02,16,07,09,04,196,0.74,0.47,0.57,1*0C
$GNGSA,A,3,26,,,,,,,,,,,,0.74,0.47,0.57,1*07
$GNGSA,A,3,82,83,80,79,81,73,,,,,,,0.74,0.47,0.57,2*0A
$GNGSA,A,3,30,15,34,27,07,02,,,,,,,0.74,0.47,0.57,3*01
$GNGSA,A,3,34,06,16,09,11,39,40,07,25,10,12,24,0.74,0.47,0.57,4*03
$GNGSA,A,3,43,44,23,,,,,,,,,,0.74,0.47,0.57,4*00
$GPGSV,4,1,15,08,70,329,41,194,63,049,42,195,61,120,23,199,60,167,18,1*53
$GPGSV,4,2,15,21,48,165,23,27,43,030,26,02,36,179,18,16,32,063,29,1*66
$GPGSV,4,3,15,07,31,320,41,09,28,258,23,04,26,211,26,196,20,172,17,1*53
$GPGSV,4,4,15,26,14,090,28,31,09,140,18,30,02,320,15,1*51
$GPGSV,3,1,10,08,70,329,43,194,63,049,46,195,61,120,41,199,60,167,35,8*55
$GPGSV,3,2,10,27,43,030,42,09,28,258,27,04,26,211,32,196,20,172,24,8*5E
$GPGSV,3,3,10,26,14,090,27,30,02,320,24,8*67
$GLGSV,2,1,06,82,64,045,42,83,63,178,17,80,50,017,34,79,33,091,36,1*7B
$GLGSV,2,2,06,81,16,028,34,73,15,324,18,1*71
$GAGSV,2,1,07,30,50,035,40,15,48,149,26,34,43,069,27,27,37,317,38,7*76
$GAGSV,2,2,07,07,32,232,31,02,15,083,35,08,11,182,22,7*4B
$GAGSV,2,1,06,30,50,035,45,15,48,149,29,34,43,069,29,27,37,317,39,1*74
$GAGSV,2,2,06,07,32,232,35,02,15,083,25,1*7A
$GBGSV,4,1,15,34,81,059,35,06,77,217,33,16,75,195,36,09,75,287,36,1*7F
$GBGSV,4,2,15,11,71,199,26,39,64,181,32,40,63,321,42,07,62,300,31,1*73
$GBGSV,4,3,15,25,60,347,40,10,52,282,24,12,49,042,44,24,48,100,42,1*7D
$GBGSV,4,4,15,43,46,215,33,44,26,040,37,23,16,315,30,1*47
$GBGSV,2,1,08,34,81,059,36,39,64,181,28,40,63,321,39,25,60,347,37,4*7B
$GBGSV,2,2,08,24,48,100,39,43,46,215,30,44,26,040,38,23,16,315,31,4*72
$GNACCURACY,3.8*1D
$PAIRSAT,1,34,2,0,201,3,0,200,4,0,221,5,0,200,6,0,200,7,0,201,8,0,221,9,0,221,10,0,200,11,0,200,12,0,200,13,0,200,14,0,200,15,0,200,16,0,201,17,0,200,18,0,200,19,0,200,20,0,200,21,0,201,22,0,200,24,0,200,25,0,200,26,0,220,27,0,221,28,0,200,29,0,200,30,0,200,31,0,201,32,0,200,194,0,621,195,0,621,196,0,620,199,0,621*77
$PAIRSAT,2,24,65,0,200,66,0,200,67,0,200,68,0,200,69,0,200,70,0,200,71,0,200,72,0,200,73,0,201,74,0,200,75,0,200,76,0,200,77,0,200,78,0,200,79,0,201,80,0,201,81,0,201,82,0,201,83,0,201,84,0,200,85,0,200,86,0,200,87,0,200,88,0,200*7A
$PAIRSAT,3,23,2,0,1021,3,0,1200,4,0,1200,5,0,200,7,0,1221,8,0,1000,9,0,1000,10,0,1000,11,0,1000,12,0,1200,13,0,1200,15,0,1221,19,0,1200,21,0,1200,24,0,1200,25,0,1200,26,0,1200,27,0,1221,30,0,1221,31,0,1200,33,0,1200,34,0,1221,36,0,1200*68
$PAIRSAT,4,46,1,0,200,2,0,200,3,0,600,4,0,200,5,0,200,6,0,201,7,0,201,8,0,200,9,0,201,10,0,201,11,0,201,12,0,201,13,0,200,14,0,200,16,0,201,19,0,600,20,0,600,21,0,600,22,0,600,23,0,621,24,0,621,25,0,621,26,0,600,27,0,600,28,0,600,29,0,600,30,0,600,32,0,600,33,0,600,34,0,621,35,0,600,36,0,600,37,0,400,38,0,400,39,0,421,40,0,421,41,0,400,42,0,400,43,0,421,44,0,421,45,0,400,46,0,400,59,0,400,60,0,400,61,0,400,62,0,400*48
$PAIRDGP,7,2,4,7,9,16,21,31*60
$GNGGA,040816.200,2500.8150500,N,12132.4730300,E,2,63,0.47,21.29,M,15.25,M,1,3335*7C
$GNRMC,040816.200,A,2500.8150500,N,12132.4730300,E,0.01,263.08,030324,,,D,V*00
$GPHDT,,T*1B
$GNACCURACY,3.8*1D
$GNGGA,040816.300,2500.8150400,N,12132.4730300,E,2,63,0.47,21.29,M,15.25,M,1,3335*7C
$GNRMC,040816.300,A,2500.8150400,N,12132.4730300,E,0.01,263.08,030324,,,D,V*00
$GPHDT,,T*1B
$GNACCURACY,3.8*1D
$GNGGA,040816.400,2500.8150400,N,12132.4730200,E,2,63,0.47,21.29,M,15.25,M,1,3335*7A
$GNRMC,040816.400,A,2500.8150400,N,12132.4730200,E,0.02,263.08,030324,,,D,V*05
$GPHDT,,T*1B
$GNACCURACY,3.8*1D
$GNGGA,040816.500,2500.8150400,N,12132.4730100,E,2,63,0.47,21.29,M,15.25,M,0,3335*79
$GNRMC,040816.500,A,2500.8150400,N,12132.4730100,E,0.03,263.08,030324,,,D,V*06
$GPHDT,,T*1B
$GNACCURACY,3.8*1D
$GNGGA,040816.600,2500.8150400,N,12132.4730100,E,2,63,0.47,21.29,M,15.25,M,0,3335*7A
$GNRMC,040816.600,A,2500.8150400,N,12132.4730100,E,0.03,263.08,030324,,,D,V*05
$GPHDT,,T*1B
$GNACCURACY,3.8*1D
$GNGGA,040816.700,2500.8150400,N,12132.4730100,E,2,63,0.47,21.29,M,15.25,M,0,3335*7B
$GNRMC,040816.700,A,2500.8150400,N,12132.4730100,E,0.03,263.08,030324,,,D,V*04
$GPHDT,,T*1B
$GNACCURACY,3.8*1D
$GNGGA,040816.800,2500.8150400,N,12132.4730000,E,2,62,0.47,21.29,M,15.25,M,0,3335*74
$GNRMC,040816.800,A,2500.8150400,N,12132.4730000,E,0.04,263.08,030324,,,D,V*0D
$GPHDT,,T*1B
$GNACCURACY,3.8*1D
$GNGGA,040816.900,2500.8150400,N,12132.4730000,E,2,62,0.47,21.29,M,15.25,M,0,3335*75
$GNRMC,040816.900,A,2500.8150400,N,12132.4730000,E,0.03,263.08,030324,,,D,V*0B
$GPHDT,,T*1B
$GNACCURACY,3.8*1D
$GNGGA,040817.000,2500.8150300,N,12132.4729900,E,2,62,0.47,21.29,M,15.25,M,1,3335*7A
$GNRMC,040817.000,A,2500.8150300,N,12132.4729900,E,0.03,263.08,030324,,,D,V*05
$GPHDT,,T*1B
$GNACCURACY,3.8*1D
$GNGGA,040817.100,2500.8150300,N,12132.4729800,E,2,63,0.47,21.29,M,15.25,M,1,3335*7B
$GNRMC,040817.100,A,2500.8150300,N,12132.4729800,E,0.03,263.08,030324,,,D,V*05
$GPHDT,,T*1B
$GNGSA,A,3,08,194,195,199,21,27,02,16,07,09,04,196,0.74,0.47,0.57,1*0C
$GNGSA,A,3,26,,,,,,,,,,,,0.74,0.47,0.57,1*07
$GNGSA,A,3,82,83,80,79,81,73,,,,,,,0.74,0.47,0.57,2*0A
$GNGSA,A,3,30,15,34,27,07,02,,,,,,,0.74,0.47,0.57,3*01
$GNGSA,A,3,34,06,09,16,11,39,40,07,25,10,12,24,0.74,0.47,0.57,4*03
$GNGSA,A,3,43,44,23,,,,,,,,,,0.74,0.47,0.57,4*00
$GPGSV,4,1,16,08,70,329,41,194,63,049,42,195,61,120,25,50,60,167,,1*6B
$GPGSV,4,2,16,199,60,167,20,21,48,165,23,27,43,030,24,02,36,179,22,1*53
$GPGSV,4,3,16,16,32,063,29,07,31,320,41,09,28,258,23,04,26,211,24,1*64
$GPGSV,4,4,16,196,20,172,19,26,14,090,25,31,09,140,17,30,02,320,14,1*51
$GPGSV,3,1,10,08,70,329,43,194,63,049,46,195,61,120,41,199,60,167,35,8*55
$GPGSV,3,2,10,27,43,030,42,09,28,258,27,04,26,211,33,196,20,172,24,8*5F
$GPGSV,3,3,10,26,14,090,28,30,02,320,25,8*69
$GLGSV,2,1,06,82,64,045,42,83,63,178,17,80,50,017,32,79,33,091,36,1*7D
$GLGSV,2,2,06,81,16,028,34,73,15,324,15,1*7C
$GAGSV,2,1,07,30,50,035,40,15,48,149,27,34,43,069,26,27,37,317,38,7*76
$GAGSV,2,2,07,07,32,232,32,02,15,083,34,08,11,182,24,7*4F
$GAGSV,2,1,06,30,50,035,45,15,48,149,31,34,43,069,28,27,37,317,38,1*7D
$GAGSV,2,2,06,07,32,232,35,02,15,083,26,1*79
$GBGSV,4,1,15,34,81,059,35,06,77,217,33,09,75,287,36,16,75,195,36,1*7F
$GBGSV,4,2,15,11,71,199,26,39,64,181,34,40,63,321,41,07,62,300,31,1*76
$GBGSV,4,3,15,25,60,347,40,10,52,282,24,12,49,042,44,24,48,100,42,1*7D
$GBGSV,4,4,15,43,46,215,31,44,26,040,37,23,16,315,30,1*45
$GBGSV,2,1,08,34,81,059,36,39,64,181,28,40,63,321,39,25,60,347,37,4*7B
$GBGSV,2,2,08,24,48,100,40,43,46,215,30,44,26,040,39,23,16,315,31,4*7D
$GNACCURACY,3.8*1D
$PAIRSAT,1,34,2,0,201,3,0,200,4,0,221,5,0,200,6,0,200,7,0,201,8,0,221,9,0,221,10,0,200,11,0,200,12,0,200,13,0,200,14,0,200,15,0,200,16,0,201,17,0,200,18,0,200,19,0,200,20,0,200,21,0,201,22,0,200,24,0,200,25,0,200,26,0,220,27,0,221,28,0,200,29,0,200,30,0,200,31,0,201,32,0,200,194,0,621,195,0,621,196,0,620,199,0,621*77
$PAIRSAT,2,24,65,0,200,66,0,200,67,0,200,68,0,200,69,0,200,70,0,200,71,0,200,72,0,200,73,0,201,74,0,200,75,0,200,76,0,200,77,0,200,78,0,200,79,0,201,80,0,201,81,0,201,82,0,201,83,0,201,84,0,200,85,0,200,86,0,200,87,0,200,88,0,200*7A
$PAIRSAT,3,23,2,0,1021,3,0,1200,4,0,1200,5,0,200,7,0,1221,8,0,1000,9,0,1000,10,0,1000,11,0,1000,12,0,1200,13,0,1200,15,0,1221,19,0,1200,21,0,1200,24,0,1200,25,0,1200,26,0,1200,27,0,1221,30,0,1221,31,0,1200,33,0,1200,34,0,1221,36,0,1200*68
$PAIRSAT,4,46,1,0,200,2,0,200,3,0,600,4,0,200,5,0,200,6,0,201,7,0,201,8,0,200,9,0,201,10,0,201,11,0,201,12,0,201,13,0,200,14,0,200,16,0,201,19,0,600,20,0,600,21,0,600,22,0,600,23,0,621,24,0,621,25,0,621,26,0,600,27,0,600,28,0,600,29,0,600,30,0,600,32,0,600,33,0,600,34,0,621,35,0,600,36,0,600,37,0,400,38,0,400,39,0,421,40,0,421,41,0,400,42,0,400,43,0,421,44,0,421,45,0,400,46,0,400,59,0,400,60,0,400,61,0,400,62,0,400*48
$PAIRDGP,7,2,4,7,9,16,21,31*60
$GNGGA,040817.200,2500.8150300,N,12132.4729800,E,2,63,0.47,21.29,M,15.25,M,1,3335*78
$GNRMC,040817.200,A,2500.8150300,N,12132.4729800,E,0.03,263.08,030324,,,D,V*06
$GPHDT,,T*1B
$GNACCURACY,3.8*1D
$GNGGA,040817.300,2500.8150300,N,12132.4729800,E,2,63,0.47,21.29,M,15.25,M,1,3335*79
$GNRMC,040817.300,A,2500.8150300,N,12132.4729800,E,0.02,263.08,030324,,,D,V*06
$GPHDT,,T*1B
$GNACCURACY,3.8*1D
$GNGGA,040817.400,2500.8150300,N,12132.4729700,E,2,63,0.47,21.29,M,15.25,M,1,3335*71
$GNRMC,040817.400,A,2500.8150300,N,12132.4729700,E,0.02,263.08,030324,,,D,V*0E
$GPHDT,,T*1B
$GNACCURACY,3.9*1C
$GNGGA,040817.500,2500.8150300,N,12132.4729600,E,2,63,0.47,21.29,M,15.25,M,1,3335*71
$GNRMC,040817.500,A,2500.8150300,N,12132.4729600,E,0.01,263.08,030324,,,D,V*0D
$GPHDT,,T*1B
$GNACCURACY,3.9*1C
$GNGGA,040817.600,2500.8150300,N,12132.4729600,E,2,63,0.47,21.29,M,15.25,M,0,3335*73
$GNRMC,040817.600,A,2500.8150300,N,12132.4729600,E,0.01,263.08,030324,,,D,V*0E
$GPHDT,,T*1B
$GNACCURACY,3.9*1C
$GNGGA,040817.700,2500.8150300,N,12132.4729500,E,2,63,0.47,21.29,M,15.25,M,0,3335*71
$GNRMC,040817.700,A,2500.8150300,N,12132.4729500,E,0.01,263.08,030324,,,D,V*0C
$GPHDT,,T*1B
$GNACCURACY,3.9*1C
$GNGGA,040817.800,2500.8150300,N,12132.4729500,E,2,63,0.47,21.29,M,15.25,M,0,3335*7E
$GNRMC,040817.800,A,2500.8150300,N,12132.4729500,E,0.01,263.08,030324,,,D,V*03
$GPHDT,,T*1B
$GNACCURACY,3.9*1C
$GNGGA,040817.900,2500.8150300,N,12132.4729400,E,2,62,0.47,21.29,M,15.25,M,0,3335*7F
$GNRMC,040817.900,A,2500.8150300,N,12132.4729400,E,0.01,263.08,030324,,,D,V*03
$GPHDT,,T*1B
$GNACCURACY,3.9*1C
$GNGGA,040818.000,2500.8150300,N,12132.4729400,E,2,62,0.47,21.29,M,15.25,M,1,3335*78
$GNRMC,040818.000,A,2500.8150300,N,12132.4729400,E,0.02,263.08,030324,,,D,V*06
$GPHDT,,T*1B
$GNACCURACY,3.9*1C
$GNGGA,040818.100,2500.8150300,N,12132.4729300,E,2,63,0.47,21.30,M,15.25,M,1,3335*77
$GNRMC,040818.100,A,2500.8150300,N,12132.4729300,E,0.02,263.08,030324,,,D,V*00
$GPHDT,,T*1B
$GNGSA,A,3,08,194,195,199,21,02,16,07,09,04,196,26,0.74,0.47,0.57,1*0D
$GNGSA,A,3,27,,,,,,,,,,,,0.74,0.47,0.57,1*06
$GNGSA,A,3,82,83,80,79,81,73,,,,,,,0.74,0.47,0.57,2*0A
$GNGSA,A,3,30,15,34,27,07,02,,,,,,,0.74,0.47,0.57,3*01
$GNGSA,A,3,34,06,09,16,11,39,40,07,25,10,12,24,0.74,0.47,0.57,4*03
$GNGSA,A,3,43,44,23,,,,,,,,,,0.74,0.47,0.57,4*00
$GPGSV,4,1,16,08,70,329,41,194,63,049,42,195,61,120,26,50,60,167,,1*68
$GPGSV,4,2,16,199,60,167,20,21,48,165,27,27,43,030,18,02,36,179,25,1*5F
$GPGSV,4,3,16,16,32,063,28,07,31,320,42,09,28,258,23,04,26,211,23,1*61
$GPGSV,4,4,16,196,20,172,19,26,14,090,28,31,09,140,17,30,02,320,14,1*5C
$GPGSV,3,1,10,08,70,329,43,194,63,049,46,195,61,120,41,199,60,167,35,8*55
$GPGSV,3,2,10,27,43,030,42,09,28,258,25,04,26,211,32,196,20,172,23,8*5B
$GPGSV,3,3,10,26,14,090,27,30,02,320,24,8*67
$GLGSV,2,1,06,82,64,045,42,83,63,178,16,80,50,017,31,79,33,091,37,1*7E
$GLGSV,2,2,06,81,16,028,34,73,15,324,15,1*7C
$GAGSV,2,1,07,30,50,035,40,15,48,149,25,34,43,069,28,27,37,317,38,7*7A
$GAGSV,2,2,07,07,32,232,33,02,15,083,34,08,11,182,23,7*49
$GAGSV,2,1,06,30,50,035,45,15,48,149,30,34,43,069,26,27,37,317,38,1*72
$GAGSV,2,2,06,07,32,232,35,02,15,083,26,1*79
$GBGSV,4,1,15,34,81,059,35,06,77,217,34,09,75,287,36,16,75,195,37,1*79
$GBGSV,4,2,15,11,71,199,26,39,64,181,34,40,63,321,41,07,62,300,32,1*75
$GBGSV,4,3,15,25,60,347,40,10,52,282,25,12,49,042,44,24,48,100,42,1*7C
$GBGSV,4,4,15,43,46,215,31,44,26,040,37,23,16,315,31,1*44
$GBGSV,2,1,08,34,81,059,36,39,64,181,29,40,63,321,39,25,60,347,37,4*7A
$GBGSV,2,2,08,24,48,100,40,43,46,215,30,44,26,040,39,23,16,315,31,4*7D
$GNACCURACY,3.9*1C
$PAIRSAT,1,34,2,0,201,3,0,200,4,0,221,5,0,200,6,0,200,7,0,201,8,0,221,9,0,221,10,0,200,11,0,200,12,0,200,13,0,200,14,0,200,15,0,200,16,0,201,17,0,200,18,0,200,19,0,200,20,0,200,21,0,201,22,0,200,24,0,200,25,0,200,26,0,220,27,0,221,28,0,200,29,0,200,30,0,200,31,0,201,32,0,200,194,0,621,195,0,621,196,0,620,199,0,621*77
$PAIRSAT,2,24,65,0,200,66,0,200,67,0,200,68,0,200,69,0,200,70,0,200,71,0,200,72,0,200,73,0,201,74,0,200,75,0,200,76,0,200,77,0,200,78,0,200,79,0,201,80,0,201,81,0,201,82,0,201,83,0,201,84,0,200,85,0,200,86,0,200,87,0,200,88,0,200*7A
$PAIRSAT,3,23,2,0,1021,3,0,1200,4,0,1200,5,0,200,7,0,1221,8,0,1000,9,0,1000,10,0,1000,11,0,1000,12,0,1200,13,0,1200,15,0,1221,19,0,1200,21,0,1200,24,0,1200,25,0,1200,26,0,1200,27,0,1221,30,0,1221,31,0,1200,33,0,1200,34,0,1221,36,0,1200*68
$PAIRSAT,4,46,1,0,200,2,0,200,3,0,600,4,0,200,5,0,200,6,0,201,7,0,201,8,0,200,9,0,201,10,0,201,11,0,201,12,0,201,13,0,200,14,0,200,16,0,201,19,0,600,20,0,600,21,0,600,22,0,600,23,0,621,24,0,621,25,0,621,26,0,600,27,0,600,28,0,600,29,0,600,30,0,600,32,0,600,33,0,600,34,0,621,35,0,600,36,0,600,37,0,400,38,0,400,39,0,421,40,0,421,41,0,400,42,0,400,43,0,421,44,0,421,45,0,400,46,0,400,59,0,400,60,0,400,61,0,400,62,0,400*48
$PAIRDGP,7,2,4,7,9,16,21,31*60
$GNGGA,040818.200,2500.8150300,N,12132.4729200,E,2,62,0.47,21.30,M,15.25,M,1,3335*74
$GNRMC,040818.200,A,2500.8150300,N,12132.4729200,E,0.03,263.08,030324,,,D,V*03
$GPHDT,,T*1B
$GNACCURACY,3.9*1C
$GNGGA,040818.300,2500.8150300,N,12132.4729200,E,2,62,0.47,21.30,M,15.25,M,1,3335*75
$GNRMC,040818.300,A,2500.8150300,N,12132.4729200,E,0.03,263.08,030324,,,D,V*02
$GPHDT,,T*1B
$GNACCURACY,3.8*1D
$GNGGA,040818.400,2500.8150300,N,12132.4729100,E,2,62,0.47,21.30,M,15.25,M,1,3335*71
$GNRMC,040818.400,A,2500.8150300,N,12132.4729100,E,0.04,263.08,030324,,,D,V*01
$GPHDT,,T*1B
$GNACCURACY,3.8*1D
$GNGGA,040818.500,2500.8150300,N,12132.4729100,E,2,62,0.47,21.30,M,15.25,M,1,3335*70
$GNRMC,040818.500,A,2500.8150300,N,12132.4729100,E,0.04,263.08,030324,,,D,V*00
