$FW : RTK35X,V1.1X0314AS,Lib20210517,1*54
$Tool : LOCOSYS , GNSS Firebird , v1.0.0.19*39
$---------------------------------------------------*2D
$GNGSA,A,3,08,194,195,199,21,27,07,09,04,196,31,26,0.75,0.48,0.57,1*01
$GNGSA,A,3,82,83,80,79,81,,,,,,,,0.75,0.48,0.57,2*00
$GNGSA,A,3,30,15,34,27,07,02,,,,,,,0.75,0.48,0.57,3*0F
$GNGSA,A,3,34,06,09,16,11,40,39,07,25,10,12,24,0.75,0.48,0.57,4*0D
$GNGSA,A,3,43,23,44,,,,,,,,,,0.75,0.48,0.57,4*0E
$GPGSV,4,1,14,08,70,327,32,194,63,048,44,195,60,120,24,199,60,167,16,1*57
$GPGSV,4,2,14,21,47,165,33,27,43,030,28,02,35,179,13,16,32,063,25,1*63
$GPGSV,4,3,14,07,31,320,35,09,29,259,35,04,27,211,29,196,20,172,18,1*57
$GPGSV,4,4,14,26,14,089,,31,10,140,22,1*67
$GPGSV,3,1,09,08,70,327,40,194,63,048,45,195,60,120,42,199,60,167,37,8*52
$GPGSV,3,2,09,27,43,030,30,09,29,259,23,04,27,211,32,196,20,172,23,8*51
$GPGSV,3,3,09,26,14,089,28,8*5E
$GLGSV,2,1,07,82,64,046,43,83,62,178,16,80,49,016,32,79,33,090,38,1*78
$GLGSV,2,2,07,81,17,028,19,73,15,323,30,71,05,300,15,1*47
$GAGSV,2,1,08,30,50,034,38,15,48,150,28,34,43,070,28,27,37,317,34,7*7A
$GAGSV,2,2,08,07,32,232,23,02,15,082,30,08,11,182,15,36,04,034,,7*71
$GAGSV,2,1,06,30,50,034,37,15,48,150,16,34,43,070,36,27,37,317,31,1*7A
$GAGSV,2,2,06,07,32,232,31,02,15,082,29,1*73
$GBGSV,4,1,16,34,82,062,40,06,78,217,37,09,75,288,37,16,75,195,39,1*7F
$GBGSV,4,2,16,11,71,198,34,40,64,321,38,39,64,181,26,07,62,299,27,1*7B
$GBGSV,4,3,16,25,60,347,36,10,52,282,27,12,50,042,32,24,48,099,28,1*78
$GBGSV,4,4,16,43,45,215,16,44,26,040,22,23,15,315,35,33,02,211,,1*72
$GBGSV,2,1,08,34,82,062,32,39,64,181,23,40,64,321,34,25,60,347,27,4*74
$GBGSV,2,2,08,24,48,099,33,43,45,215,27,44,26,040,36,23,15,315,29,4*78
$GNACCURACY,4.0*12
$PAIRSAT,1,32,2,0,201,3,0,200,4,0,221,5,0,200,6,0,200,7,0,201,8,0,221,9,0,221,10,0,200,11,0,200,12,0,200,13,0,200,14,0,200,15,0,200,16,0,201,17,0,200,18,0,200,19,0,200,21,0,1,24,0,200,25,0,200,26,0,220,27,0,221,28,0,200,29,0,200,30,0,200,31,0,201,32,0,200,194,0,621,195,0,221,196,0,620,199,0,621*75
$PAIRSAT,2,24,65,0,200,66,0,200,67,0,200,68,0,200,69,0,200,70,0,200,71,0,200,72,0,200,73,0,200,74,0,200,75,0,200,76,0,200,77,0,200,78,0,200,79,0,201,80,0,201,81,0,201,82,0,201,83,0,201,84,0,200,85,0,200,86,0,200,87,0,200,88,0,200*7B
$PAIRSAT,3,22,2,0,1021,3,0,1200,4,0,1200,7,0,1021,8,0,1000,9,0,1000,10,0,1000,11,0,1000,12,0,1200,13,0,1200,15,0,1221,19,0,1200,21,0,1200,24,0,1200,25,0,1200,26,0,200,27,0,221,30,0,1221,31,0,1200,33,0,1200,34,0,1221,36,0,1200*70
$PAIRSAT,4,46,1,0,200,2,0,200,3,0,600,4,0,200,5,0,200,6,0,201,7,0,201,8,0,200,9,0,201,10,0,201,11,0,201,12,0,201,13,0,200,14,0,200,16,0,1,19,0,600,20,0,600,21,0,600,22,0,600,23,0,621,24,0,621,25,0,621,26,0,600,27,0,600,28,0,600,29,0,600,30,0,600,32,0,600,33,0,600,34,0,621,35,0,400,36,0,400,37,0,400,38,0,400,39,0,421,40,0,421,41,0,400,42,0,400,43,0,421,44,0,421,45,0,400,46,0,400,59,0,400,60,0,400,61,0,400,62,0,400*4A
$PAIRDGP,7,2,4,7,9,16,21,31*60
$GNGGA,040705.200,2500.8135500,N,12132.4714500,E,2,59,0.48,23.00,M,15.25,M,1,3335*7D
$GNRMC,040705.200,A,2500.8135500,N,12132.4714500,E,0.04,263.08,030324,,,D,V*0B
$GPHDT,,T*1B
$GNACCURACY,4.0*12
$GNGGA,040705.300,2500.8135500,N,12132.4714500,E,2,60,0.48,23.00,M,15.25,M,1,3335*76
$GNRMC,040705.300,A,2500.8135500,N,12132.4714500,E,0.03,263.08,030324,,,D,V*0D
$GPHDT,,T*1B
$GNACCURACY,4.0*12
$GNGGA,040705.400,2500.8135700,N,12132.4714700,E,2,60,0.48,23.00,M,15.25,M,1,3335*71
$GNRMC,040705.400,A,2500.8135700,N,12132.4714700,E,0.04,263.08,030324,,,D,V*0D
$GPHDT,,T*1B
$GNACCURACY,4.0*12
$GNGGA,040705.500,2500.8135800,N,12132.4714600,E,2,59,0.48,23.00,M,15.25,M,1,3335*74
$GNRMC,040705.500,A,2500.8135800,N,12132.4714600,E,0.04,263.08,030324,,,D,V*02
$GPHDT,,T*1B
$GNACCURACY,4.0*12
$GNGGA,040705.600,2500.8135900,N,12132.4714600,E,2,60,0.48,22.99,M,15.25,M,1,3335*7D
$GNRMC,040705.600,A,2500.8135900,N,12132.4714600,E,0.04,263.08,030324,,,D,V*00
$GPHDT,,T*1B
$GNACCURACY,4.0*12
$GNGGA,040705.700,2500.8135900,N,12132.4714500,E,2,59,0.48,22.99,M,15.25,M,1,3335*75
$GNRMC,040705.700,A,2500.8135900,N,12132.4714500,E,0.04,263.08,030324,,,D,V*02
$GPHDT,,T*1B
$GNACCURACY,4.0*12
$GNGGA,040705.800,2500.8136000,N,12132.4714500,E,2,59,0.48,22.99,M,15.25,M,0,3335*71
$GNRMC,040705.800,A,2500.8136000,N,12132.4714500,E,0.04,263.08,030324,,,D,V*07
$GPHDT,,T*1B
$GNACCURACY,4.0*12
$GNGGA,040705.900,2500.8136100,N,12132.4714500,E,2,59,0.48,22.99,M,15.25,M,0,3335*71
$GNRMC,040705.900,A,2500.8136100,N,12132.4714500,E,0.04,263.08,030324,,,D,V*07
$GPHDT,,T*1B
$GNACCURACY,4.0*12
$GNGGA,040706.000,2500.8136100,N,12132.4714400,E,2,59,0.48,22.99,M,15.25,M,1,3335*7B
$GNRMC,040706.000,A,2500.8136100,N,12132.4714400,E,0.04,263.08,030324,,,D,V*0C
$GPHDT,,T*1B
$GNACCURACY,4.0*12
$GNGGA,040706.100,2500.8136200,N,12132.4714400,E,2,59,0.48,22.99,M,15.25,M,1,3335*79
$GNRMC,040706.100,A,2500.8136200,N,12132.4714400,E,0.04,263.08,030324,,,D,V*0E
$GPHDT,,T*1B
$GNGSA,A,3,08,194,195,199,21,27,07,09,04,196,31,26,0.75,0.48,0.57,1*01
$GNGSA,A,3,82,83,80,79,81,,,,,,,,0.75,0.48,0.57,2*00
$GNGSA,A,3,30,15,34,27,07,02,,,,,,,0.75,0.48,0.57,3*0F
$GNGSA,A,3,34,06,09,16,11,40,39,07,25,10,12,24,0.75,0.48,0.57,4*0D
$GNGSA,A,3,44,23,43,,,,,,,,,,0.75,0.48,0.57,4*0E
$GPGSV,4,1,14,08,70,327,33,194,63,048,44,195,60,120,26,199,60,167,16,1*54
$GPGSV,4,2,14,21,47,165,33,27,43,030,27,02,35,179,12,16,32,063,,1*6A
$GPGSV,4,3,14,07,31,320,36,09,29,259,35,04,27,211,28,196,20,172,18,1*55
$GPGSV,4,4,14,26,14,089,,31,10,140,22,1*67
$GPGSV,3,1,09,08,70,327,38,194,63,048,45,195,60,120,42,199,60,167,36,8*5C
$GPGSV,3,2,09,27,43,030,29,09,29,259,23,04,27,211,32,196,20,172,22,8*58
$GPGSV,3,3,09,26,14,089,27,8*51
$GLGSV,2,1,07,82,64,046,43,83,62,178,16,80,49,016,34,79,33,090,37,1*71
$GLGSV,2,2,07,81,17,028,21,73,15,323,28,71,05,300,18,1*48
$GAGSV,2,1,08,30,50,034,39,15,48,150,27,34,43,070,26,27,37,317,34,7*7A
$GAGSV,2,2,08,07,32,232,24,02,15,082,28,08,11,182,16,36,04,034,,7*7C
$GAGSV,2,1,06,30,50,034,38,15,48,150,12,34,43,070,35,27,37,317,30,1*73
$GAGSV,2,2,06,07,32,232,32,02,15,082,30,1*78
$GBGSV,4,1,16,34,82,061,40,06,78,217,38,09,75,288,37,16,75,195,39,1*73
$GBGSV,4,2,16,11,71,198,33,40,64,321,38,39,64,181,26,07,62,299,26,1*7D
$GBGSV,4,3,16,25,60,347,36,10,52,282,28,12,50,042,35,24,48,099,26,1*7E
$GBGSV,4,4,16,43,45,215,17,44,26,040,31,23,15,315,35,33,02,211,,1*71
$GBGSV,2,1,08,34,82,061,32,39,64,181,24,40,64,321,32,25,60,347,26,4*77
$GBGSV,2,2,08,24,48,099,35,43,45,215,28,44,26,040,35,23,15,315,27,4*7C
$GNACCURACY,4.0*12
$PAIRSAT,1,32,2,0,201,3,0,200,4,0,221,5,0,200,6,0,200,7,0,201,8,0,221,9,0,221,10,0,200,11,0,200,12,0,200,13,0,200,14,0,200,15,0,200,16,0,201,17,0,200,18,0,200,19,0,200,21,0,1,24,0,200,25,0,200,26,0,220,27,0,221,28,0,200,29,0,200,30,0,200,31,0,201,32,0,200,194,0,621,195,0,221,196,0,620,199,0,621*75
$PAIRSAT,2,24,65,0,200,66,0,200,67,0,200,68,0,200,69,0,200,70,0,200,71,0,200,72,0,200,73,0,200,74,0,200,75,0,200,76,0,200,77,0,200,78,0,200,79,0,201,80,0,201,81,0,201,82,0,201,83,0,201,84,0,200,85,0,200,86,0,200,87,0,200,88,0,200*7B
$PAIRSAT,3,22,2,0,1021,3,0,1200,4,0,1200,7,0,1021,8,0,1000,9,0,1000,10,0,1000,11,0,1000,12,0,1200,13,0,1200,15,0,1221,19,0,1200,21,0,1200,24,0,1200,25,0,1200,26,0,200,27,0,221,30,0,1221,31,0,1200,33,0,1200,34,0,1221,36,0,1200*70
$PAIRSAT,4,46,1,0,200,2,0,200,3,0,600,4,0,200,5,0,200,6,0,201,7,0,201,8,0,200,9,0,201,10,0,201,11,0,201,12,0,201,13,0,200,14,0,200,16,0,1,19,0,600,20,0,600,21,0,600,22,0,600,23,0,621,24,0,621,25,0,621,26,0,600,27,0,600,28,0,600,29,0,600,30,0,600,32,0,600,33,0,600,34,0,621,35,0,400,36,0,400,37,0,400,38,0,400,39,0,421,40,0,421,41,0,400,42,0,400,43,0,421,44,0,421,45,0,400,46,0,400,59,0,400,60,0,400,61,0,400,62,0,400*4A
$PAIRDGP,7,2,4,7,9,16,21,31*60
$GNGGA,040706.200,2500.8136300,N,12132.4714300,E,2,59,0.48,22.99,M,15.25,M,1,3335*7C
$GNRMC,040706.200,A,2500.8136300,N,12132.4714300,E,0.05,263.08,030324,,,D,V*0A
$GPHDT,,T*1B
$GNACCURACY,4.0*12
$GNGGA,040706.300,2500.8136400,N,12132.4714300,E,2,59,0.48,22.99,M,15.25,M,1,3335*7A
$GNRMC,040706.300,A,2500.8136400,N,12132.4714300,E,0.04,263.08,030324,,,D,V*0D
$GPHDT,,T*1B
$GNACCURACY,4.0*12
$GNGGA,040706.400,2500.8136500,N,12132.4714300,E,2,59,0.48,22.99,M,15.25,M,1,3335*7C
$GNRMC,040706.400,A,2500.8136500,N,12132.4714300,E,0.03,263.08,030324,,,D,V*0C
$GPHDT,,T*1B
$GNACCURACY,4.0*12
$GNGGA,040706.500,2500.8136500,N,12132.4714300,E,2,59,0.48,22.98,M,15.25,M,1,3335*7C
$GNRMC,040706.500,A,2500.8136500,N,12132.4714300,E,0.03,263.08,030324,,,D,V*0D
$GPHDT,,T*1B
$GNACCURACY,4.0*12
$GNGGA,040706.600,2500.8136600,N,12132.4714300,E,2,59,0.48,22.98,M,15.25,M,0,3335*7D
$GNRMC,040706.600,A,2500.8136600,N,12132.4714300,E,0.03,263.08,030324,,,D,V*0D
$GPHDT,,T*1B
$GNACCURACY,4.0*12
$GNGGA,040706.700,2500.8136700,N,12132.4714200,E,2,60,0.48,22.98,M,15.25,M,0,3335*76
$GNRMC,040706.700,A,2500.8136700,N,12132.4714200,E,0.02,263.08,030324,,,D,V*0D
$GPHDT,,T*1B
$GNACCURACY,4.0*12
$GNGGA,040706.800,2500.8136700,N,12132.4714200,E,2,60,0.48,22.97,M,15.25,M,0,3335*76
$GNRMC,040706.800,A,2500.8136700,N,12132.4714200,E,0.02,263.08,030324,,,D,V*02
$GPHDT,,T*1B
$GNACCURACY,4.0*12
$GNGGA,040706.900,2500.8136700,N,12132.4714200,E,2,60,0.48,22.96,M,15.25,M,0,3335*76
$GNRMC,040706.900,A,2500.8136700,N,12132.4714200,E,0.03,263.08,030324,,,D,V*02
$GPHDT,,T*1B
$GNACCURACY,4.0*12
$GNGGA,040707.000,2500.8136700,N,12132.4714200,E,2,60,0.48,22.95,M,15.25,M,1,3335*7C
$GNRMC,040707.000,A,2500.8136700,N,12132.4714200,E,0.06,263.08,030324,,,D,V*0F
$GPHDT,,T*1B
$GNACCURACY,4.0*12
$GNGGA,040707.100,2500.8136800,N,12132.4714200,E,2,60,0.48,22.93,M,15.25,M,1,3335*74
$GNRMC,040707.100,A,2500.8136800,N,12132.4714200,E,0.03,263.08,030324,,,D,V*04
$GPHDT,,T*1B
$GNGSA,A,3,08,194,199,195,21,27,16,07,09,04,196,31,0.74,0.47,0.57,1*0C
$GNGSA,A,3,26,,,,,,,,,,,,0.74,0.47,0.57,1*07
$GNGSA,A,3,82,83,80,79,81,,,,,,,,0.74,0.47,0.57,2*0E
$GNGSA,A,3,30,15,34,27,07,02,,,,,,,0.74,0.47,0.57,3*01
$GNGSA,A,3,34,06,16,09,11,39,40,07,25,10,12,24,0.74,0.47,0.57,4*03
$GNGSA,A,3,44,23,43,,,,,,,,,,0.74,0.47,0.57,4*00
$GPGSV,4,1,14,08,70,327,34,194,63,048,43,199,60,167,16,195,60,120,22,1*50
$GPGSV,4,2,14,21,47,165,33,27,43,030,28,02,35,179,17,16,32,063,27,1*65
$GPGSV,4,3,14,07,31,320,34,09,29,259,35,04,27,211,25,196,20,172,18,1*5A
$GPGSV,4,4,14,26,14,089,,31,10,140,22,1*67
$GPGSV,3,1,09,08,70,327,42,194,63,048,46,195,60,120,41,199,60,167,37,8*50
$GPGSV,3,2,09,27,43,030,25,09,29,259,25,04,27,211,35,196,20,172,24,8*53
$GPGSV,3,3,09,26,14,089,25,8*53
$GLGSV,2,1,07,82,64,046,43,83,62,178,16,80,49,016,36,79,33,090,37,1*73
$GLGSV,2,2,07,81,17,028,20,73,15,323,28,71,05,300,22,1*40
$GAGSV,2,1,08,30,50,034,40,15,48,150,25,34,43,070,23,27,37,317,29,7*7F
$GAGSV,2,2,08,07,32,232,21,02,15,082,27,08,11,182,14,36,04,034,,7*74
$GAGSV,2,1,06,30,50,034,41,15,48,150,12,34,43,070,36,27,37,317,40,1*79
$GAGSV,2,2,06,07,32,232,30,02,15,082,30,1*7A
$GBGSV,4,1,15,34,82,061,40,06,78,217,34,16,75,195,37,09,75,288,35,1*70
$GBGSV,4,2,15,11,71,198,35,39,64,181,26,40,64,321,42,07,62,299,25,1*76
$GBGSV,4,3,15,25,60,347,40,10,52,282,28,12,50,042,35,24,48,099,27,1*7D
$GBGSV,4,4,15,43,45,215,19,44,26,040,34,23,15,315,27,1*4A
$GBGSV,2,1,08,34,82,061,30,39,64,181,26,40,64,321,39,25,60,347,31,4*7A
$GBGSV,2,2,08,24,48,099,34,43,45,215,27,44,26,040,36,23,15,315,23,4*75
$GNACCURACY,4.0*12
$PAIRSAT,1,32,2,0,201,3,0,200,4,0,221,5,0,200,6,0,200,7,0,201,8,0,221,9,0,221,10,0,200,11,0,200,12,0,200,13,0,200,14,0,200,15,0,200,16,0,201,17,0,200,18,0,200,19,0,200,21,0,1,24,0,200,25,0,200,26,0,220,27,0,221,28,0,200,29,0,200,30,0,200,31,0,201,32,0,200,194,0,621,195,0,221,196,0,620,199,0,621*75
$PAIRSAT,2,24,65,0,200,66,0,200,67,0,200,68,0,200,69,0,200,70,0,200,71,0,200,72,0,200,73,0,200,74,0,200,75,0,200,76,0,200,77,0,200,78,0,200,79,0,201,80,0,201,81,0,201,82,0,201,83,0,201,84,0,200,85,0,200,86,0,200,87,0,200,88,0,200*7B
$PAIRSAT,3,22,2,0,1021,3,0,1200,4,0,1200,7,0,1021,8,0,1000,9,0,1000,10,0,1000,11,0,1000,12,0,1200,13,0,1200,15,0,1221,19,0,1200,21,0,1200,24,0,1200,25,0,1200,26,0,200,27,0,221,30,0,1221,31,0,1200,33,0,1200,34,0,1221,36,0,1200*70
$PAIRSAT,4,46,1,0,200,2,0,200,3,0,600,4,0,200,5,0,200,6,0,201,7,0,201,8,0,200,9,0,201,10,0,201,11,0,201,12,0,201,13,0,200,14,0,200,16,0,1,19,0,600,20,0,600,21,0,600,22,0,600,23,0,621,24,0,621,25,0,621,26,0,600,27,0,600,28,0,600,29,0,600,30,0,600,32,0,600,33,0,600,34,0,621,35,0,400,36,0,400,37,0,400,38,0,400,39,0,421,40,0,421,41,0,400,42,0,400,43,0,421,44,0,421,45,0,400,46,0,400,59,0,400,60,0,400,61,0,400,62,0,400*4A
$PAIRDGP,7,2,4,7,9,16,21,31*60
$GNGGA,040707.200,2500.8136800,N,12132.4714200,E,2,60,0.47,22.92,M,15.25,M,1,3335*79
$GNRMC,040707.200,A,2500.8136800,N,12132.4714200,E,0.02,263.08,030324,,,D,V*06
$GPHDT,,T*1B
$GNACCURACY,4.0*12
$GNGGA,040707.300,2500.8136800,N,12132.4714300,E,2,60,0.47,22.91,M,15.25,M,1,3335*7A
$GNRMC,040707.300,A,2500.8136800,N,12132.4714300,E,0.01,263.08,030324,,,D,V*05
$GPHDT,,T*1B
$GNACCURACY,4.0*12
$GNGGA,040707.400,2500.8136800,N,12132.4714400,E,2,60,0.47,22.90,M,15.25,M,1,3335*7B
$GNRMC,040707.400,A,2500.8136800,N,12132.4714400,E,0.01,263.08,030324,,,D,V*05
$GPHDT,,T*1B
$GNACCURACY,4.0*12
$GNGGA,040707.500,2500.8136800,N,12132.4714500,E,2,60,0.48,22.88,M,15.25,M,0,3335*7C
$GNRMC,040707.500,A,2500.8136800,N,12132.4714500,E,0.02,263.08,030324,,,D,V*06
$GPHDT,,T*1B
$GNACCURACY,4.0*12
$GNGGA,040707.600,2500.8137000,N,12132.4714700,E,2,59,0.47,22.87,M,15.25,M,0,3335*7E
$GNRMC,040707.600,A,2500.8137000,N,12132.4714700,E,0.03,263.08,030324,,,D,V*0F
$GPHDT,,T*1B
$GNACCURACY,4.0*12
$GNGGA,040707.700,2500.8137000,N,12132.4714900,E,2,59,0.47,22.86,M,15.25,M,0,3335*70
$GNRMC,040707.700,A,2500.8137000,N,12132.4714900,E,0.03,263.08,030324,,,D,V*00
$GPHDT,,T*1B
$GNACCURACY,4.0*12
$GNGGA,040707.800,2500.8137100,N,12132.4715100,E,2,59,0.47,22.85,M,15.25,M,0,3335*74
$GNRMC,040707.800,A,2500.8137100,N,12132.4715100,E,0.03,263.08,030324,,,D,V*07
$GPHDT,,T*1B
$GNACCURACY,4.0*12
$GNGGA,040707.900,2500.8137200,N,12132.4715400,E,2,59,0.48,22.84,M,15.25,M,0,3335*7D
$GNRMC,040707.900,A,2500.8137200,N,12132.4715400,E,0.04,263.08,030324,,,D,V*07
$GPHDT,,T*1B
$GNACCURACY,4.0*12
$GNGGA,040708.000,2500.8137300,N,12132.4715600,E,2,57,0.48,22.82,M,15.25,M,1,3335*71
$GNRMC,040708.000,A,2500.8137300,N,12132.4715600,E,0.04,263.08,030324,,,D,V*02
$GPHDT,,T*1B
$GNACCURACY,4.0*12
$GNGGA,040708.100,2500.8137300,N,12132.4715800,E,2,57,0.48,22.81,M,15.25,M,1,3335*7D
$GNRMC,040708.100,A,2500.8137300,N,12132.4715800,E,0.03,263.08,030324,,,D,V*0A
$GPHDT,,T*1B
$GNGSA,A,3,08,194,199,195,21,27,16,07,09,04,31,196,0.75,0.48,0.57,1*02
$GNGSA,A,3,26,,,,,,,,,,,,0.75,0.48,0.57,1*09
$GNGSA,A,3,82,83,80,79,81,,,,,,,,0.75,0.48,0.57,2*00
$GNGSA,A,3,30,15,34,27,07,02,,,,,,,0.75,0.48,0.57,3*0F
$GNGSA,A,3,34,06,16,09,11,39,40,07,25,10,12,24,0.75,0.48,0.57,4*0D
$GNGSA,A,3,44,23,43,,,,,,,,,,0.75,0.48,0.57,4*0E
$GPGSV,4,1,14,08,70,327,37,194,63,048,43,199,60,167,17,195,60,120,18,1*5B
$GPGSV,4,2,14,21,47,165,34,27,43,030,26,02,35,179,18,16,32,063,26,1*62
$GPGSV,4,3,14,07,31,320,37,09,29,259,34,04,27,211,22,196,20,172,19,1*5E
$GPGSV,4,4,14,26,14,089,,31,10,140,26,1*63
$GPGSV,2,1,08,08,70,327,42,194,63,048,47,195,60,120,41,199,60,167,37,8*51
$GPGSV,2,2,08,27,43,030,22,04,27,211,36,196,20,172,26,26,14,089,24,8*58
$GLGSV,2,1,07,82,64,046,43,83,62,178,15,80,49,016,38,79,33,090,37,1*7E
$GLGSV,2,2,07,81,17,028,21,73,15,323,26,71,05,300,18,1*46
$GAGSV,2,1,08,30,50,034,39,15,48,150,22,34,43,070,21,27,37,317,34,7*78
$GAGSV,2,2,08,07,32,232,21,02,15,082,29,08,11,182,14,36,04,034,,7*7A
$GAGSV,2,1,05,30,50,034,41,34,43,070,37,27,37,317,40,07,32,232,29,1*7A
$GAGSV,2,2,05,02,15,082,27,1*49
$GBGSV,4,1,15,34,82,061,40,06,78,217,34,16,75,195,38,09,75,288,35,1*7F
$GBGSV,4,2,15,11,71,198,35,39,64,181,24,40,64,321,43,07,62,299,20,1*70
$GBGSV,4,3,15,25,60,347,41,10,52,282,28,12,50,042,37,24,48,099,30,1*78
$GBGSV,4,4,15,43,45,215,21,44,26,040,33,23,15,315,31,1*41
$GBGSV,2,1,08,34,82,061,31,39,64,181,24,40,64,321,39,25,60,347,30,4*78
$GBGSV,2,2,08,24,48,099,32,43,45,215,26,44,26,040,40,23,15,315,18,4*7B
$GNACCURACY,4.0*12
$PAIRSAT,1,32,2,0,201,3,0,200,4,0,221,5,0,200,6,0,200,7,0,201,8,0,221,9,0,221,10,0,200,11,0,200,12,0,200,13,0,200,14,0,200,15,0,200,16,0,201,17,0,200,18,0,200,19,0,200,21,0,1,24,0,200,25,0,200,26,0,220,27,0,221,28,0,200,29,0,200,30,0,200,31,0,201,32,0,200,194,0,621,195,0,221,196,0,620,199,0,621*75
$PAIRSAT,2,24,65,0,200,66,0,200,67,0,200,68,0,200,69,0,200,70,0,200,71,0,200,72,0,200,73,0,200,74,0,200,75,0,200,76,0,200,77,0,200,78,0,200,79,0,201,80,0,201,81,0,201,82,0,201,83,0,201,84,0,200,85,0,200,86,0,200,87,0,200,88,0,200*7B
$PAIRSAT,3,22,2,0,1021,3,0,1200,4,0,1200,7,0,1021,8,0,1000,9,0,1000,10,0,1000,11,0,1000,12,0,1200,13,0,1200,15,0,1221,19,0,1200,21,0,1200,24,0,1200,25,0,1200,26,0,200,27,0,221,30,0,1221,31,0,1200,33,0,1200,34,0,1221,36,0,1200*70
$PAIRSAT,4,46,1,0,200,2,0,200,3,0,600,4,0,200,5,0,200,6,0,201,7,0,201,8,0,200,9,0,201,10,0,201,11,0,201,12,0,201,13,0,200,14,0,200,16,0,1,19,0,600,20,0,600,21,0,600,22,0,600,23,0,621,24,0,621,25,0,621,26,0,600,27,0,600,28,0,600,29,0,600,30,0,600,32,0,600,33,0,600,34,0,621,35,0,400,36,0,400,37,0,400,38,0,400,39,0,421,40,0,421,41,0,400,42,0,400,43,0,421,44,0,421,45,0,400,46,0,400,59,0,400,60,0,400,61,0,400,62,0,400*4A
$PAIRDGP,7,2,4,7,9,16,21,31*60
$GNGGA,040708.200,2500.8137400,N,12132.4716000,E,2,57,0.48,22.80,M,15.25,M,1,3335*73
$GNRMC,040708.200,A,2500.8137400,N,12132.4716000,E,0.04,263.08,030324,,,D,V*02
$GPHDT,,T*1B
$GNACCURACY,4.0*12
$GNGGA,040708.300,2500.8137600,N,12132.4716300,E,2,58,0.47,22.79,M,15.25,M,1,3335*75
$GNRMC,040708.300,A,2500.8137600,N,12132.4716300,E,0.04,263.08,030324,,,D,V*02
$GPHDT,,T*1B
$GNACCURACY,4.0*12
$GNGGA,040708.400,2500.8137600,N,12132.4716500,E,2,57,0.48,22.78,M,15.25,M,1,3335*75
$GNRMC,040708.400,A,2500.8137600,N,12132.4716500,E,0.03,263.08,030324,,,D,V*04
$GPHDT,,T*1B
$GNACCURACY,4.0*12
$GNGGA,040708.500,2500.8137700,N,12132.4716700,E,2,57,0.48,22.77,M,15.25,M,1,3335*78
$GNRMC,040708.500,A,2500.8137700,N,12132.4716700,E,0.03,263.08,030324,,,D,V*06
$GPHDT,,T*1B
$GNACCURACY,4.0*12
$GNGGA,040708.600,2500.8137700,N,12132.4716900,E,2,57,0.48,22.76,M,15.25,M,0,3335*75
$GNRMC,040708.600,A,2500.8137700,N,12132.4716900,E,0.03,263.08,030324,,,D,V*0B
$GPHDT,,T*1B
$GNACCURACY,4.0*12
$GNGGA,040708.700,2500.8137900,N,12132.4717100,E,2,57,0.48,22.75,M,15.25,M,0,3335*70
$GNRMC,040708.700,A,2500.8137900,N,12132.4717100,E,0.04,263.08,030324,,,D,V*0A
$GPHDT,,T*1B
$GNACCURACY,4.0*12
$GNGGA,040708.800,2500.8137900,N,12132.4717200,E,2,57,0.49,22.73,M,15.25,M,0,3335*7B
$GNRMC,040708.800,A,2500.8137900,N,12132.4717200,E,0.04,263.08,030324,,,D,V*06
$GPHDT,,T*1B
$GNACCURACY,4.0*12
$GNGGA,040708.900,2500.8138000,N,12132.4717400,E,2,57,0.49,22.73,M,15.25,M,0,3335*7A
$GNRMC,040708.900,A,2500.8138000,N,12132.4717400,E,0.03,263.08,030324,,,D,V*00
$GPHDT,,T*1B
$GNACCURACY,4.0*12
$GNGGA,040709.000,2500.8138000,N,12132.4717700,E,2,57,0.49,22.72,M,15.25,M,1,3335*71
$GNRMC,040709.000,A,2500.8138000,N,12132.4717700,E,0.03,263.08,030324,,,D,V*0B
$GPHDT,,T*1B
$GNACCURACY,4.0*12
$GNGGA,040709.100,2500.8138200,N,12132.4717700,E,2,58,0.48,22.70,M,15.25,M,1,3335*7E
$GNRMC,040709.100,A,2500.8138200,N,12132.4717700,E,0.03,263.08,030324,,,D,V*08
$GPHDT,,T*1B
$GNGSA,A,3,08,194,199,195,21,27,16,07,09,04,196,31,0.74,0.47,0.57,1*0C
$GNGSA,A,3,26,,,,,,,,,,,,0.74,0.47,0.57,1*07
$GNGSA,A,3,82,83,80,79,81,,,,,,,,0.74,0.47,0.57,2*0E
$GNGSA,A,3,30,15,34,27,07,02,,,,,,,0.74,0.47,0.57,3*01
$GNGSA,A,3,34,06,16,09,11,39,40,07,25,10,12,24,0.74,0.47,0.57,4*03
$GNGSA,A,3,44,23,43,,,,,,,,,,0.74,0.47,0.57,4*00
$GPGSV,4,1,14,08,70,327,37,194,63,048,43,199,60,167,18,195,60,120,18,1*54
$GPGSV,4,2,14,21,47,165,34,27,43,030,28,02,35,179,18,16,32,063,23,1*69
$GPGSV,4,3,14,07,31,320,37,09,29,259,33,04,27,211,24,196,20,172,22,1*57
$GPGSV,4,4,14,26,14,089,,31,10,140,27,1*62
$GPGSV,3,1,09,08,70,327,42,194,63,048,47,195,60,120,41,199,60,167,37,8*51
$GPGSV,3,2,09,27,43,030,19,09,29,259,28,04,27,211,37,196,20,172,26,8*51
$GPGSV,3,3,09,26,14,089,22,8*54
$GLGSV,2,1,07,82,64,046,43,83,62,178,16,80,49,016,38,79,33,090,37,1*7D
$GLGSV,2,2,07,81,17,028,24,73,15,323,28,71,05,300,16,1*43
$GAGSV,2,1,08,30,50,034,39,15,48,150,23,34,43,070,21,27,37,317,33,7*7E
$GAGSV,2,2,08,07,32,232,20,02,15,082,28,08,11,182,13,36,04,034,,7*7D
$GAGSV,2,1,05,30,50,034,42,34,43,070,37,27,37,317,37,07,32,232,31,1*70
$GAGSV,2,2,05,02,15,082,26,1*48
$GBGSV,4,1,15,34,82,061,40,06,78,217,34,16,75,195,38,09,75,288,35,1*7F
$GBGSV,4,2,15,11,71,198,35,39,64,181,24,40,64,321,43,07,62,299,23,1*73
$GBGSV,4,3,15,25,60,347,41,10,52,282,27,12,50,042,37,24,48,099,30,1*77
$GBGSV,4,4,15,43,45,215,17,44,26,040,34,23,15,315,31,1*43
$GBGSV,2,1,08,34,82,061,31,39,64,181,24,40,64,321,39,25,60,347,27,4*7E
$GBGSV,2,2,08,24,48,099,33,43,45,215,25,44,26,040,40,23,15,315,14,4*75
$GNACCURACY,4.1*13
$PAIRSAT,1,32,2,0,201,3,0,200,4,0,221,5,0,200,6,0,200,7,0,201,8,0,221,9,0,221,10,0,200,11,0,200,12,0,200,13,0,200,14,0,200,15,0,200,16,0,201,17,0,200,18,0,200,19,0,200,21,0,1,24,0,200,25,0,200,26,0,220,27,0,221,28,0,200,29,0,200,30,0,200,31,0,201,32,0,200,194,0,621,195,0,221,196,0,620,199,0,621*75
$PAIRSAT,2,24,65,0,200,66,0,200,67,0,200,68,0,200,69,0,200,70,0,200,71,0,200,72,0,200,73,0,200,74,0,200,75,0,200,76,0,200,77,0,200,78,0,200,79,0,201,80,0,201,81,0,201,82,0,201,83,0,201,84,0,200,85,0,200,86,0,200,87,0,200,88,0,200*7B
$PAIRSAT,3,22,2,0,1021,3,0,1200,4,0,1200,7,0,1021,8,0,1000,9,0,1000,10,0,1000,11,0,1000,12,0,1200,13,0,1200,15,0,1221,19,0,1200,21,0,1200,24,0,1200,25,0,1200,26,0,200,27,0,221,30,0,1221,31,0,1200,33,0,1200,34,0,1221,36,0,1200*70
$PAIRSAT,4,46,1,0,200,2,0,200,3,0,600,4,0,200,5,0,200,6,0,201,7,0,201,8,0,200,9,0,201,10,0,201,11,0,201,12,0,201,13,0,200,14,0,200,16,0,1,19,0,600,20,0,600,21,0,600,22,0,600,23,0,621,24,0,621,25,0,621,26,0,600,27,0,600,28,0,600,29,0,600,30,0,600,32,0,600,33,0,600,34,0,621,35,0,400,36,0,400,37,0,400,38,0,400,39,0,421,40,0,421,41,0,400,42,0,400,43,0,421,44,0,421,45,0,400,46,0,400,59,0,400,60,0,400,61,0,400,62,0,400*4A
$PAIRDGP,7,2,4,7,9,16,21,31*60
$GNGGA,040709.200,2500.8138200,N,12132.4717800,E,2,59,0.47,22.70,M,15.25,M,1,3335*7C
$GNRMC,040709.200,A,2500.8138200,N,12132.4717800,E,0.03,263.08,030324,,,D,V*04
$GPHDT,,T*1B
$GNACCURACY,4.1*13
$GNGGA,040709.300,2500.8138300,N,12132.4718000,E,2,59,0.47,22.69,M,15.25,M,1,3335*73
$GNRMC,040709.300,A,2500.8138300,N,12132.4718000,E,0.03,263.08,030324,,,D,V*03
$GPHDT,,T*1B
$GNACCURACY,4.1*13
$GNGGA,040709.400,2500.8138400,N,12132.4718000,E,2,59,0.47,22.68,M,15.25,M,1,3335*72
$GNRMC,040709.400,A,2500.8138400,N,12132.4718000,E,0.02,263.08,030324,,,D,V*02
$GPHDT,,T*1B
$GNACCURACY,4.1*13
$GNGGA,040709.500,2500.8138500,N,12132.4718100,E,2,58,0.48,22.67,M,15.25,M,0,3335*73
$GNRMC,040709.500,A,2500.8138500,N,12132.4718100,E,0.01,263.08,030324,,,D,V*00
$GPHDT,,T*1B
$GNACCURACY,4.1*13
$GNGGA,040709.600,2500.8138500,N,12132.4718300,E,2,57,0.48,22.66,M,15.25,M,0,3335*7C
$GNRMC,040709.600,A,2500.8138500,N,12132.4718300,E,0.01,263.08,030324,,,D,V*01
$GPHDT,,T*1B
$GNACCURACY,4.1*13
$GNGGA,040709.700,2500.8138500,N,12132.4718400,E,2,56,0.48,22.65,M,15.25,M,0,3335*78
$GNRMC,040709.700,A,2500.8138500,N,12132.4718400,E,0.02,263.08,030324,,,D,V*04
$GPHDT,,T*1B
$GNACCURACY,4.1*13
$GNGGA,040709.800,2500.8138600,N,12132.4718600,E,2,58,0.45,22.64,M,15.25,M,0,3335*74
$GNRMC,040709.800,A,2500.8138600,N,12132.4718600,E,0.02,263.08,030324,,,D,V*0A
$GPHDT,,T*1B
$GNACCURACY,4.1*13
$GNGGA,040709.900,2500.8138700,N,12132.4718700,E,2,58,0.45,22.63,M,15.25,M,0,3335*72
$GNRMC,040709.900,A,2500.8138700,N,12132.4718700,E,0.01,263.08,030324,,,D,V*08
$GPHDT,,T*1B
$GNACCURACY,4.1*13
$GNGGA,040710.000,2500.8138800,N,12132.4718800,E,2,58,0.45,22.62,M,15.25,M,1,3335*73
$GNRMC,040710.000,A,2500.8138800,N,12132.4718800,E,0.02,263.08,030324,,,D,V*0A
$GPHDT,,T*1B
$GNACCURACY,4.1*13
$GNGGA,040710.100,2500.8138900,N,12132.4718900,E,2,57,0.45,22.61,M,15.25,M,1,3335*7E
$GNRMC,040710.100,A,2500.8138900,N,12132.4718900,E,0.02,263.08,030324,,,D,V*0B
$GPHDT,,T*1B
$GNGSA,A,3,08,194,199,21,27,02,07,09,04,196,31,195,0.71,0.45,0.55,1*0C
$GNGSA,A,3,26,,,,,,,,,,,,0.71,0.45,0.55,1*02
$GNGSA,A,3,82,83,80,79,81,73,,,,,,,0.71,0.45,0.55,2*0F
$GNGSA,A,3,30,15,34,27,07,02,,,,,,,0.71,0.45,0.55,3*04
$GNGSA,A,3,34,06,16,09,11,39,40,07,25,10,12,24,0.71,0.45,0.55,4*06
$GNGSA,A,3,44,23,43,,,,,,,,,,0.71,0.45,0.55,4*05
$GPGSV,4,1,14,08,70,327,37,194,63,048,43,199,60,167,19,195,60,120,19,1*54
$GPGSV,4,2,14,21,47,165,34,27,43,030,23,02,35,179,20,16,32,063,24,1*6E
$GPGSV,4,3,14,07,31,320,34,09,29,259,33,04,27,211,26,196,20,172,19,1*5E
$GPGSV,4,4,14,26,14,089,,31,10,140,27,1*62
$GPGSV,2,1,08,08,70,327,42,194,63,048,47,195,60,120,42,199,60,167,37,8*52
$GPGSV,2,2,08,09,29,259,30,04,27,211,37,196,20,172,26,26,14,089,23,8*50
$GLGSV,2,1,07,82,64,046,43,83,62,178,16,80,49,016,38,79,33,090,37,1*7D
$GLGSV,2,2,07,81,17,028,24,73,15,323,28,71,05,300,16,1*43
$GAGSV,2,1,08,30,50,034,40,15,48,150,23,34,43,070,19,27,37,317,31,7*79
$GAGSV,2,2,08,07,32,232,22,02,15,082,28,08,11,182,13,36,04,034,,7*7F
$GAGSV,2,1,05,30,50,034,42,34,43,070,37,27,37,317,40,07,32,232,32,1*73
$GAGSV,2,2,05,02,15,082,26,1*48
$GBGSV,4,1,15,34,82,061,40,06,78,217,31,16,75,195,37,09,75,288,37,1*77
$GBGSV,4,2,15,11,71,198,35,39,64,181,23,40,64,321,43,07,62,299,18,1*7C
$GBGSV,4,3,15,25,60,347,41,10,52,282,21,12,50,042,37,24,48,099,31,1*70
$GBGSV,4,4,15,43,45,215,18,44,26,040,35,23,15,315,32,1*4E
$GBGSV,2,1,07,34,82,061,32,39,64,181,25,40,64,321,39,25,60,347,30,4*75
$GBGSV,2,2,07,24,48,099,33,43,45,215,29,44,26,040,40,4*41
$GNACCURACY,4.1*13
$PAIRSAT,1,32,2,0,201,3,0,200,4,0,221,5,0,200,6,0,200,7,0,201,8,0,221,9,0,221,10,0,200,11,0,200,12,0,200,13,0,200,14,0,200,15,0,200,16,0,201,17,0,200,18,0,200,19,0,200,21,0,1,24,0,200,25,0,200,26,0,220,27,0,221,28,0,200,29,0,200,30,0,200,31,0,201,32,0,200,194,0,621,195,0,221,196,0,620,199,0,621*75
$PAIRSAT,2,24,65,0,200,66,0,200,67,0,200,68,0,200,69,0,200,70,0,200,71,0,200,72,0,200,73,0,201,74,0,200,75,0,200,76,0,200,77,0,200,78,0,200,79,0,201,80,0,201,81,0,201,82,0,201,83,0,201,84,0,200,85,0,200,86,0,200,87,0,200,88,0,200*7A
$PAIRSAT,3,22,2,0,1021,3,0,1200,4,0,1200,7,0,1021,8,0,1000,9,0,1000,10,0,1000,11,0,1000,12,0,1200,13,0,1200,15,0,1221,19,0,1200,21,0,1200,24,0,1200,25,0,1200,26,0,200,27,0,221,30,0,1221,31,0,1200,33,0,1200,34,0,1221,36,0,1200*70
$PAIRSAT,4,46,1,0,200,2,0,200,3,0,600,4,0,200,5,0,200,6,0,201,7,0,201,8,0,200,9,0,201,10,0,201,11,0,201,12,0,201,13,0,200,14,0,200,16,0,1,19,0,600,20,0,600,21,0,600,22,0,600,23,0,621,24,0,621,25,0,621,26,0,600,27,0,600,28,0,600,29,0,600,30,0,600,32,0,600,33,0,600,34,0,621,35,0,400,36,0,400,37,0,400,38,0,400,39,0,421,40,0,421,41,0,400,42,0,400,43,0,421,44,0,421,45,0,400,46,0,400,59,0,400,60,0,400,61,0,400,62,0,400*4A
$PAIRDGP,7,2,4,7,9,16,21,31*60
$GNGGA,040710.200,2500.8139000,N,12132.4719000,E,2,57,0.45,22.60,M,15.25,M,1,3335*7C
$GNRMC,040710.200,A,2500.8139000,N,12132.4719000,E,0.02,263.08,030324,,,D,V*08
$GPHDT,,T*1B
$GNACCURACY,4.1*13
$GNGGA,040710.300,2500.8139100,N,12132.4719100,E,2,57,0.45,22.59,M,15.25,M,1,3335*77
$GNRMC,040710.300,A,2500.8139100,N,12132.4719100,E,0.03,263.08,030324,,,D,V*08
$GPHDT,,T*1B
$GNACCURACY,4.1*13
$GNGGA,040710.400,2500.8139200,N,12132.4719200,E,2,58,0.45,22.58,M,15.25,M,1,3335*7E
$GNRMC,040710.400,A,2500.8139200,N,12132.4719200,E,0.03,263.08,030324,,,D,V*0F
$GPHDT,,T*1B
$GNACCURACY,4.1*13
$GNGGA,040710.500,2500.8139400,N,12132.4719300,E,2,58,0.45,22.57,M,15.25,M,0,3335*76
$GNRMC,040710.500,A,2500.8139400,N,12132.4719300,E,0.03,263.08,030324,,,D,V*09
$GPHDT,,T*1B
$GNACCURACY,4.1*13
$GNGGA,040710.600,2500.8139400,N,12132.4719400,E,2,58,0.45,22.56,M,15.25,M,0,3335*73
$GNRMC,040710.600,A,2500.8139400,N,12132.4719400,E,0.02,263.08,030324,,,D,V*0C
$GPHDT,,T*1B
$GNACCURACY,4.1*13
$GNGGA,040710.700,2500.8139500,N,12132.4719500,E,2,58,0.45,22.55,M,15.25,M,0,3335*71
$GNRMC,040710.700,A,2500.8139500,N,12132.4719500,E,0.03,263.08,030324,,,D,V*0C
$GPHDT,,T*1B
$GNACCURACY,4.1*13
$GNGGA,040710.800,2500.8139600,N,12132.4719600,E,2,58,0.45,22.54,M,15.25,M,0,3335*7F
$GNRMC,040710.800,A,2500.8139600,N,12132.4719600,E,0.03,263.08,030324,,,D,V*03
$GPHDT,,T*1B
$GNACCURACY,4.1*13
$GNGGA,040710.900,2500.8139700,N,12132.4719800,E,2,58,0.45,22.53,M,15.25,M,0,3335*76
$GNRMC,040710.900,A,2500.8139700,N,12132.4719800,E,0.04,263.08,030324,,,D,V*0A
$GPHDT,,T*1B
$GNACCURACY,4.1*13
$GNGGA,040711.000,2500.8139800,N,12132.4719900,E,2,58,0.45,22.52,M,15.25,M,1,3335*70
$GNRMC,040711.000,A,2500.8139800,N,12132.4719900,E,0.04,263.08,030324,,,D,V*0C
$GPHDT,,T*1B
$GNACCURACY,4.1*13
$GNGGA,040711.100,2500.8139800,N,12132.4720000,E,2,58,0.45,22.52,M,15.25,M,1,3335*72
$GNRMC,040711.100,A,2500.8139800,N,12132.4720000,E,0.05,263.08,030324,,,D,V*0F
$GPHDT,,T*1B
$GNGSA,A,3,08,194,199,195,21,27,02,07,09,04,196,31,0.71,0.45,0.55,1*0C
$GNGSA,A,3,26,,,,,,,,,,,,0.71,0.45,0.55,1*02
$GNGSA,A,3,82,83,80,79,81,73,,,,,,,0.71,0.45,0.55,2*0F
$GNGSA,A,3,30,15,34,27,07,02,,,,,,,0.71,0.45,0.55,3*04
$GNGSA,A,3,34,06,16,09,11,39,40,07,25,10,12,24,0.71,0.45,0.55,4*06
$GNGSA,A,3,44,23,43,,,,,,,,,,0.71,0.45,0.55,4*05
$GPGSV,4,1,14,08,70,327,37,194,63,048,43,199,60,167,19,195,60,120,17,1*5A
$GPGSV,4,2,14,21,47,165,34,27,43,030,23,02,35,179,20,16,32,063,22,1*68
$GPGSV,4,3,14,07,31,320,37,09,29,259,33,04,27,211,25,196,20,172,18,1*5F
$GPGSV,4,4,14,26,14,089,,31,10,140,27,1*62
$GPGSV,2,1,08,08,70,327,42,194,63,048,47,195,60,120,42,199,60,167,37,8*52
$GPGSV,2,2,08,09,29,259,29,04,27,211,37,196,20,172,26,26,14,089,23,8*58
$GLGSV,2,1,07,82,64,046,43,83,62,178,17,80,49,016,37,79,33,090,37,1*73
$GLGSV,2,2,07,81,17,028,23,73,15,323,28,71,05,300,16,1*44
$GAGSV,2,1,08,30,50,034,40,15,48,150,20,34,43,070,20,27,37,317,31,7*70
$GAGSV,2,2,08,07,32,232,23,02,15,082,29,08,11,182,13,36,04,034,,7*7F
$GAGSV,2,1,06,30,50,034,42,15,48,150,19,34,43,070,37,27,37,317,40,1*70
$GAGSV,2,2,06,07,32,232,31,02,15,082,26,1*7C
$GBGSV,4,1,15,34,82,061,41,06,78,217,31,16,75,195,37,09,75,288,37,1*76
$GBGSV,4,2,15,11,71,198,36,39,64,181,23,40,64,321,42,07,62,299,19,1*7F
$GBGSV,4,3,15,25,60,347,41,10,52,282,19,12,50,042,37,24,48,099,31,1*7B
$GBGSV,4,4,15,43,45,215,16,44,26,040,35,23,15,315,31,1*43
$GBGSV,2,1,07,34,82,061,32,39,64,181,25,40,64,321,39,25,60,347,30,4*75
$GBGSV,2,2,07,24,48,099,33,43,45,215,25,44,26,040,40,4*4D
$GNACCURACY,4.1*13
$PAIRSAT,1,32,2,0,201,3,0,200,4,0,221,5,0,200,6,0,200,7,0,201,8,0,221,9,0,221,10,0,200,11,0,200,12,0,200,13,0,200,14,0,200,15,0,200,16,0,201,17,0,200,18,0,200,19,0,200,21,0,1,24,0,200,25,0,200,26,0,220,27,0,221,28,0,200,29,0,200,30,0,200,31,0,201,32,0,200,194,0,621,195,0,221,196,0,620,199,0,621*75
$PAIRSAT,2,24,65,0,200,66,0,200,67,0,200,68,0,200,69,0,200,70,0,200,71,0,200,72,0,200,73,0,201,74,0,200,75,0,200,76,0,200,77,0,200,78,0,200,79,0,201,80,0,201,81,0,201,82,0,201,83,0,201,84,0,200,85,0,200,86,0,200,87,0,200,88,0,200*7A
$PAIRSAT,3,22,2,0,1021,3,0,1200,4,0,1200,7,0,1021,8,0,1000,9,0,1000,10,0,1000,11,0,1000,12,0,1200,13,0,1200,15,0,1221,19,0,1200,21,0,1200,24,0,1200,25,0,1200,26,0,200,27,0,221,30,0,1221,31,0,1200,33,0,1200,34,0,1221,36,0,1200*70
$PAIRSAT,4,46,1,0,200,2,0,200,3,0,600,4,0,200,5,0,200,6,0,201,7,0,201,8,0,200,9,0,201,10,0,201,11,0,201,12,0,201,13,0,200,14,0,200,16,0,1,19,0,600,20,0,600,21,0,600,22,0,600,23,0,621,24,0,621,25,0,621,26,0,600,27,0,600,28,0,600,29,0,600,30,0,600,32,0,600,33,0,600,34,0,621,35,0,400,36,0,400,37,0,400,38,0,400,39,0,421,40,0,421,41,0,400,42,0,400,43,0,421,44,0,421,45,0,400,46,0,400,59,0,400,60,0,400,61,0,400,62,0,400*4A
$PAIRDGP,7,2,4,7,9,16,21,31*60
$GNGGA,040711.200,2500.8139900,N,12132.4720200,E,2,59,0.45,22.51,M,15.25,M,1,3335*70
$GNRMC,040711.200,A,2500.8139900,N,12132.4720200,E,0.04,263.08,030324,,,D,V*0E
$GPHDT,,T*1B
$GNACCURACY,4.1*13
$GNGGA,040711.300,2500.8140000,N,12132.4720400,E,2,57,0.47,22.50,M,15.25,M,1,3335*7D
$GNRMC,040711.300,A,2500.8140000,N,12132.4720400,E,0.04,263.08,030324,,,D,V*0E
$GPHDT,,T*1B
$GNACCURACY,4.1*13
$GNGGA,040711.400,2500.8140000,N,12132.4720500,E,2,57,0.47,22.49,M,15.25,M,1,3335*73
$GNRMC,040711.400,A,2500.8140000,N,12132.4720500,E,0.04,263.08,030324,,,D,V*08
$GPHDT,,T*1B
$GNACCURACY,4.1*13
$GNGGA,040711.500,2500.8140100,N,12132.4720700,E,2,57,0.47,22.48,M,15.25,M,1,3335*70
$GNRMC,040711.500,A,2500.8140100,N,12132.4720700,E,0.04,263.08,030324,,,D,V*0A
$GPHDT,,T*1B
$GNACCURACY,4.1*13
$GNGGA,040711.600,2500.8140100,N,12132.4720800,E,2,57,0.47,22.47,M,15.25,M,1,3335*73
$GNRMC,040711.600,A,2500.8140100,N,12132.4720800,E,0.03,263.08,030324,,,D,V*01
$GPHDT,,T*1B
$GNACCURACY,4.1*13
$GNGGA,040711.700,2500.8140200,N,12132.4720900,E,2,58,0.47,22.46,M,15.25,M,0,3335*7F
$GNRMC,040711.700,A,2500.8140200,N,12132.4720900,E,0.03,263.08,030324,,,D,V*02
$GPHDT,,T*1B
$GNACCURACY,4.1*13
$GNGGA,040711.800,2500.8140300,N,12132.4721000,E,2,58,0.47,22.45,M,15.25,M,0,3335*7A
$GNRMC,040711.800,A,2500.8140300,N,12132.4721000,E,0.04,263.08,030324,,,D,V*03
$GPHDT,,T*1B
$GNACCURACY,4.1*13
$GNGGA,040711.900,2500.8140400,N,12132.4721200,E,2,58,0.47,22.44,M,15.25,M,0,3335*7F
$GNRMC,040711.900,A,2500.8140400,N,12132.4721200,E,0.04,263.08,030324,,,D,V*07
$GPHDT,,T*1B
$GNACCURACY,4.1*13
$GNGGA,040712.000,2500.8140600,N,12132.4721400,E,2,58,0.47,22.43,M,15.25,M,1,3335*77
$GNRMC,040712.000,A,2500.8140600,N,12132.4721400,E,0.04,263.08,030324,,,D,V*09
$GPHDT,,T*1B
$GNACCURACY,4.1*13
$GNGGA,040712.100,2500.8140600,N,12132.4721600,E,2,58,0.47,22.42,M,15.25,M,1,3335*75
$GNRMC,040712.100,A,2500.8140600,N,12132.4721600,E,0.04,263.08,030324,,,D,V*0A
$GPHDT,,T*1B
$GNGSA,A,3,08,194,199,195,21,27,02,07,09,04,196,31,0.72,0.47,0.55,1*0D
$GNGSA,A,3,26,,,,,,,,,,,,0.72,0.47,0.55,1*03
$GNGSA,A,3,82,83,80,79,81,73,,,,,,,0.72,0.47,0.55,2*0E
$GNGSA,A,3,30,15,34,27,07,02,,,,,,,0.72,0.47,0.55,3*05
$GNGSA,A,3,34,06,16,09,11,40,39,07,25,10,12,24,0.72,0.47,0.55,4*07
$GNGSA,A,3,44,23,,,,,,,,,,,0.72,0.47,0.55,4*03
$GPGSV,4,1,14,08,70,327,37,194,63,048,43,199,60,167,20,195,60,120,17,1*50
$GPGSV,4,2,14,21,47,165,34,27,43,030,26,02,35,179,17,16,32,063,20,1*6B
$GPGSV,4,3,14,07,31,320,38,09,29,259,33,04,27,211,25,196,20,172,18,1*50
$GPGSV,4,4,14,26,14,089,,31,10,140,27,1*62
$GPGSV,2,1,08,08,70,327,42,194,63,048,47,195,60,120,42,199,60,167,37,8*52
$GPGSV,2,2,08,27,43,030,26,04,27,211,37,196,20,172,26,26,14,089,24,8*5D
$GLGSV,2,1,07,82,64,046,43,83,62,178,16,80,49,016,37,79,33,090,37,1*72
$GLGSV,2,2,07,81,17,028,20,73,15,323,28,71,05,300,17,1*46
$GAGSV,2,1,07,30,50,034,40,15,48,150,20,34,43,070,19,27,37,317,32,7*76
$GAGSV,2,2,07,07,32,232,20,02,15,082,30,08,11,182,,7*4F
$GAGSV,2,1,06,30,50,034,42,15,48,150,22,34,43,070,37,27,37,317,39,1*76
$GAGSV,2,2,06,07,32,232,31,02,15,082,27,1*7D
$GBGSV,4,1,15,34,82,061,41,06,78,217,34,16,75,195,37,09,75,288,36,1*72
$GBGSV,4,2,15,11,71,198,36,40,64,321,43,39,64,181,23,07,62,299,25,1*71
$GBGSV,4,3,15,25,60,347,41,10,52,282,22,12,50,042,37,24,48,099,31,1*73
$GBGSV,4,4,15,43,45,215,17,44,26,040,35,23,15,315,31,1*42
$GBGSV,2,1,06,34,82,061,32,39,64,181,24,40,64,321,39,25,60,347,26,4*72
$GBGSV,2,2,06,24,48,099,33,44,26,040,40,4*7B
$GNACCURACY,4.1*13
$PAIRSAT,1,33,2,0,201,3,0,200,4,0,221,5,0,200,6,0,200,7,0,201,8,0,221,9,0,221,10,0,200,11,0,200,12,0,200,13,0,200,14,0,200,15,0,200,16,0,201,17,0,200,18,0,200,19,0,200,20,0,200,21,0,1,24,0,200,25,0,200,26,0,220,27,0,221,28,0,200,29,0,200,30,0,200,31,0,201,32,0,200,194,0,621,195,0,221,196,0,620,199,0,621*58
$PAIRSAT,2,24,65,0,200,66,0,200,67,0,200,68,0,200,69,0,200,70,0,200,71,0,200,72,0,200,73,0,201,74,0,200,75,0,200,76,0,200,77,0,200,78,0,200,79,0,201,80,0,201,81,0,201,82,0,201,83,0,201,84,0,200,85,0,200,86,0,200,87,0,200,88,0,200*7A
$PAIRSAT,3,22,2,0,1021,3,0,1200,4,0,1200,7,0,1021,8,0,1000,9,0,1000,10,0,1000,11,0,1000,12,0,1200,13,0,1200,15,0,1221,19,0,1200,21,0,1200,24,0,1200,25,0,1200,26,0,1200,27,0,1221,30,0,1221,31,0,1200,33,0,1200,34,0,1221,36,0,1200*70
$PAIRSAT,4,46,1,0,200,2,0,200,3,0,600,4,0,200,5,0,200,6,0,201,7,0,201,8,0,200,9,0,201,10,0,201,11,0,201,12,0,201,13,0,200,14,0,200,16,0,1,19,0,600,20,0,600,21,0,600,22,0,600,23,0,621,24,0,621,25,0,621,26,0,600,27,0,600,28,0,600,29,0,600,30,0,600,32,0,600,33,0,600,34,0,621,35,0,400,36,0,400,37,0,400,38,0,400,39,0,421,40,0,421,41,0,400,42,0,400,43,0,421,44,0,421,45,0,400,46,0,400,59,0,400,60,0,400,61,0,400,62,0,400*4A
$PAIRDGP,7,2,4,7,9,16,21,31*60
$GNGGA,040712.200,2500.8140700,N,12132.4721700,E,2,58,0.47,22.41,M,15.25,M,1,3335*75
$GNRMC,040712.200,A,2500.8140700,N,12132.4721700,E,0.04,263.08,030324,,,D,V*09
$GPHDT,,T*1B
$GNACCURACY,4.1*13
$GNGGA,040712.300,2500.8140900,N,12132.4721900,E,2,59,0.47,22.40,M,15.25,M,1,3335*74
$GNRMC,040712.300,A,2500.8140900,N,12132.4721900,E,0.04,263.08,030324,,,D,V*08
$GPHDT,,T*1B
$GNACCURACY,3.9*1C
$GNGGA,040712.400,2500.8140700,N,12132.4721700,E,2,59,0.47,22.41,M,15.25,M,1,3335*72
$GNRMC,040712.400,A,2500.8140700,N,12132.4721700,E,0.08,263.08,030324,,,D,V*03
$GPHDT,,T*1B
$GNACCURACY,3.9*1C
$GNGGA,040712.500,2500.8140800,N,12132.4721900,E,2,59,0.47,22.41,M,15.25,M,1,3335*72
$GNRMC,040712.500,A,2500.8140800,N,12132.4721900,E,0.08,263.08,030324,,,D,V*03
$GPHDT,,T*1B
$GNACCURACY,3.9*1C
$GNGGA,040712.600,2500.8140800,N,12132.4721900,E,2,59,0.47,22.41,M,15.25,M,0,3335*70
$GNRMC,040712.600,A,2500.8140800,N,12132.4721900,E,0.03,263.08,030324,,,D,V*0B
$GPHDT,,T*1B
$GNACCURACY,3.9*1C
$GNGGA,040712.700,2500.8140900,N,12132.4721900,E,2,59,0.47,22.41,M,15.25,M,0,3335*70
$GNRMC,040712.700,A,2500.8140900,N,12132.4721900,E,0.03,263.08,030324,,,D,V*0B
$GPHDT,,T*1B
$GNACCURACY,3.9*1C
$GNGGA,040712.800,2500.8140900,N,12132.4721900,E,2,59,0.47,22.41,M,15.25,M,0,3335*7F
$GNRMC,040712.800,A,2500.8140900,N,12132.4721900,E,0.06,263.08,030324,,,D,V*01
$GPHDT,,T*1B
$GNACCURACY,3.9*1C
$GNGGA,040712.900,2500.8140900,N,12132.4721900,E,2,59,0.47,22.41,M,15.25,M,0,3335*7E
$GNRMC,040712.900,A,2500.8140900,N,12132.4721900,E,0.08,263.08,030324,,,D,V*0E
$GPHDT,,T*1B
$GNACCURACY,3.9*1C
$GNGGA,040713.000,2500.8140900,N,12132.4721900,E,2,59,0.47,22.41,M,15.25,M,1,3335*77
$GNRMC,040713.000,A,2500.8140900,N,12132.4721900,E,0.08,263.08,030324,,,D,V*06
$GPHDT,,T*1B
$GNACCURACY,3.9*1C
$GNGGA,040713.100,2500.8141000,N,12132.4721900,E,2,59,0.47,22.41,M,15.25,M,1,3335*7E
$GNRMC,040713.100,A,2500.8141000,N,12132.4721900,E,0.10,263.08,030324,,,D,V*06
$GPHDT,,T*1B
$GNGSA,A,3,08,194,199,195,21,27,02,07,09,04,196,31,0.72,0.47,0.55,1*0D
$GNGSA,A,3,26,,,,,,,,,,,,0.72,0.47,0.55,1*03
$GNGSA,A,3,82,83,80,79,81,73,,,,,,,0.72,0.47,0.55,2*0E
$GNGSA,A,3,30,15,34,27,07,02,,,,,,,0.72,0.47,0.55,3*05
$GNGSA,A,3,34,06,16,09,11,40,39,07,25,10,12,24,0.72,0.47,0.55,4*07
$GNGSA,A,3,44,23,,,,,,,,,,,0.72,0.47,0.55,4*03
$GPGSV,4,1,14,08,70,327,37,194,63,048,43,199,60,167,21,195,60,120,16,1*50
$GPGSV,4,2,14,21,47,165,34,27,43,030,25,02,35,179,14,16,32,063,16,1*6E
$GPGSV,4,3,14,07,31,320,38,09,29,259,33,04,27,211,25,196,20,172,19,1*51
$GPGSV,4,4,14,26,14,089,,31,10,140,26,1*63
$GPGSV,3,1,09,08,70,327,41,194,63,048,47,195,60,120,42,199,60,167,37,8*51
$GPGSV,3,2,09,27,43,030,26,09,29,259,27,04,27,211,37,196,20,172,25,8*51
$GPGSV,3,3,09,26,14,089,25,8*53
$GLGSV,2,1,07,82,64,046,43,83,62,178,16,80,49,016,37,79,33,090,37,1*72
$GLGSV,2,2,07,81,17,028,24,73,15,323,28,71,05,300,19,1*4C
$GAGSV,2,1,07,30,50,034,40,15,48,150,21,34,43,070,21,27,37,317,32,7*7C
$GAGSV,2,2,07,07,32,232,18,02,15,083,30,08,11,182,,7*45
$GAGSV,2,1,06,30,50,034,42,15,48,150,19,34,43,070,37,27,37,317,37,1*70
$GAGSV,2,2,06,07,32,232,30,02,15,083,27,1*7D
$GBGSV,4,1,15,34,82,061,41,06,78,217,33,16,75,195,37,09,75,288,35,1*76
$GBGSV,4,2,15,11,71,198,36,40,64,321,43,39,64,181,24,07,62,299,26,1*75
$GBGSV,4,3,15,25,60,347,40,10,52,282,27,12,50,042,38,24,48,099,31,1*78
$GBGSV,4,4,15,43,45,215,16,44,26,040,36,23,15,315,31,1*40
$GBGSV,2,1,06,34,82,061,30,39,64,181,23,40,64,321,37,25,60,347,22,4*7D
$GBGSV,2,2,06,24,48,099,31,44,26,040,40,4*79
$GNACCURACY,3.9*1C
$PAIRSAT,1,33,2,0,201,3,0,200,4,0,221,5,0,200,6,0,200,7,0,201,8,0,221,9,0,221,10,0,200,11,0,200,12,0,200,13,0,200,14,0,200,15,0,200,16,0,201,17,0,200,18,0,200,19,0,200,20,0,200,21,0,1,24,0,200,25,0,200,26,0,220,27,0,221,28,0,200,29,0,200,30,0,200,31,0,201,32,0,200,194,0,621,195,0,221,196,0,620,199,0,621*58
$PAIRSAT,2,24,65,0,200,66,0,200,67,0,200,68,0,200,69,0,200,70,0,200,71,0,200,72,0,200,73,0,201,74,0,200,75,0,200,76,0,200,77,0,200,78,0,200,79,0,201,80,0,201,81,0,201,82,0,201,83,0,201,84,0,200,85,0,200,86,0,200,87,0,200,88,0,200*7A
$PAIRSAT,3,22,2,0,1021,3,0,1200,4,0,1200,7,0,1021,8,0,1000,9,0,1000,10,0,1000,11,0,1000,12,0,1200,13,0,1200,15,0,1221,19,0,1200,21,0,1200,24,0,1200,25,0,1200,26,0,1200,27,0,1221,30,0,1221,31,0,1200,33,0,1200,34,0,1221,36,0,1200*70
$PAIRSAT,4,46,1,0,200,2,0,200,3,0,600,4,0,200,5,0,200,6,0,201,7,0,201,8,0,200,9,0,201,10,0,201,11,0,201,12,0,201,13,0,200,14,0,200,16,0,1,19,0,600,20,0,600,21,0,600,22,0,600,23,0,621,24,0,621,25,0,621,26,0,600,27,0,600,28,0,600,29,0,600,30,0,600,32,0,600,33,0,600,34,0,621,35,0,400,36,0,400,37,0,400,38,0,400,39,0,421,40,0,421,41,0,400,42,0,400,43,0,421,44,0,421,45,0,400,46,0,400,59,0,400,60,0,400,61,0,400,62,0,400*4A
$PAIRDGP,7,2,4,7,9,16,21,31*60
$GNGGA,040713.200,2500.8141000,N,12132.4721900,E,2,59,0.47,22.41,M,15.25,M,1,3335*7D
$GNRMC,040713.200,A,2500.8141000,N,12132.4721900,E,0.09,263.08,030324,,,D,V*0D
$GPHDT,,T*1B
$GNACCURACY,3.9*1C
$GNGGA,040713.300,2500.8141000,N,12132.4721900,E,2,59,0.47,22.41,M,15.25,M,1,3335*7C
$GNRMC,040713.300,A,2500.8141000,N,12132.4721900,E,0.10,263.08,030324,,,D,V*04
$GPHDT,,T*1B
$GNACCURACY,3.9*1C
$GNGGA,040713.400,2500.8141000,N,12132.4721900,E,2,59,0.47,22.41,M,15.25,M,1,3335*7B
$GNRMC,040713.400,A,2500.8141000,N,12132.4721900,E,0.09,263.08,030324,,,D,V*0B
$GPHDT,,T*1B
$GNACCURACY,3.9*1C
$GNGGA,040713.500,2500.8141000,N,12132.4721900,E,2,59,0.47,22.41,M,15.25,M,0,3335*7B
$GNRMC,040713.500,A,2500.8141000,N,12132.4721900,E,0.08,263.08,030324,,,D,V*0B
$GPHDT,,T*1B
$GNACCURACY,3.9*1C
$GNGGA,040713.600,2500.8141100,N,12132.4721900,E,2,59,0.47,22.41,M,15.25,M,0,3335*79
$GNRMC,040713.600,A,2500.8141100,N,12132.4721900,E,0.08,263.08,030324,,,D,V*09
$GPHDT,,T*1B
$GNACCURACY,3.9*1C
$GNGGA,040713.700,2500.8141100,N,12132.4721900,E,2,57,0.47,22.41,M,15.25,M,0,3335*76
$GNRMC,040713.700,A,2500.8141100,N,12132.4721900,E,0.07,263.08,030324,,,D,V*07
$GPHDT,,T*1B
$GNACCURACY,3.9*1C
$GNGGA,040713.800,2500.8141100,N,12132.4722000,E,2,58,0.47,22.41,M,15.25,M,0,3335*7C
$GNRMC,040713.800,A,2500.8141100,N,12132.4722000,E,0.07,263.08,030324,,,D,V*02
$GPHDT,,T*1B
$GNACCURACY,3.9*1C
$GNGGA,040713.900,2500.8141100,N,12132.4722000,E,2,58,0.47,22.41,M,15.25,M,0,3335*7D
$GNRMC,040713.900,A,2500.8141100,N,12132.4722000,E,0.06,263.08,030324,,,D,V*02
$GPHDT,,T*1B
$GNACCURACY,3.9*1C
$GNGGA,040714.000,2500.8141100,N,12132.4722000,E,2,58,0.47,22.41,M,15.25,M,1,3335*72
$GNRMC,040714.000,A,2500.8141100,N,12132.4722000,E,0.05,263.08,030324,,,D,V*0F
$GPHDT,,T*1B
$GNACCURACY,3.9*1C
$GNGGA,040714.100,2500.8141100,N,12132.4722000,E,2,58,0.47,22.41,M,15.25,M,1,3335*73
$GNRMC,040714.100,A,2500.8141100,N,12132.4722000,E,0.04,263.08,030324,,,D,V*0F
$GPHDT,,T*1B
$GNGSA,A,3,08,194,199,195,21,27,07,09,04,196,31,26,0.73,0.47,0.55,1*0A
$GNGSA,A,3,82,83,80,79,81,73,,,,,,,0.73,0.47,0.55,2*0F
$GNGSA,A,3,30,15,34,27,07,02,,,,,,,0.73,0.47,0.55,3*04
$GNGSA,A,3,34,06,09,16,11,40,39,07,25,10,12,24,0.73,0.47,0.55,4*06
$GNGSA,A,3,44,23,,,,,,,,,,,0.73,0.47,0.55,4*02
$GPGSV,4,1,14,08,70,327,29,194,63,048,43,199,60,167,22,195,60,120,19,1*53
$GPGSV,4,2,14,21,47,165,34,27,43,030,24,02,35,179,14,16,32,063,16,1*6F
$GPGSV,4,3,14,07,31,320,35,09,29,259,34,04,27,211,24,196,20,172,18,1*5B
$GPGSV,4,4,14,26,14,089,,31,10,140,26,1*63
$GPGSV,3,1,09,08,70,327,38,194,63,048,47,195,60,120,42,199,60,167,37,8*5F
$GPGSV,3,2,09,27,43,030,29,09,29,259,24,04,27,211,38,196,20,172,26,8*51
$GPGSV,3,3,09,26,14,089,23,8*55
$GLGSV,2,1,07,82,64,046,43,83,62,178,16,80,49,016,37,79,33,090,37,1*72
$GLGSV,2,2,07,81,17,028,26,73,15,323,27,71,05,300,21,1*4A
$GAGSV,2,1,06,30,50,034,38,15,48,150,21,34,43,070,24,27,37,317,31,7*74
$GAGSV,2,2,06,07,32,232,19,02,15,083,30,7*76
$GAGSV,2,1,06,30,50,034,42,15,48,150,17,34,43,070,37,27,37,317,31,1*78
$GAGSV,2,2,06,07,32,232,28,02,15,083,27,1*74
$GBGSV,4,1,15,34,82,061,41,06,78,217,35,09,75,288,35,16,75,195,38,1*7F
$GBGSV,4,2,15,11,71,198,36,40,64,321,40,39,64,181,25,07,62,299,26,1*77
$GBGSV,4,3,15,25,60,347,38,10,52,282,21,12,50,042,34,24,48,099,32,1*7E
$GBGSV,4,4,15,43,45,215,,44,26,040,38,23,15,315,32,1*4A
$GBGSV,2,1,06,34,82,061,26,39,64,181,23,40,64,321,32,25,60,347,23,4*7E
$GBGSV,2,2,06,24,48,099,35,44,26,040,40,4*7D
$GNACCURACY,3.9*1C
$PAIRSAT,1,33,2,0,201,3,0,200,4,0,221,5,0,200,6,0,200,7,0,201,8,0,221,9,0,221,10,0,200,11,0,200,12,0,200,13,0,200,14,0,200,15,0,200,16,0,201,17,0,200,18,0,200,19,0,200,20,0,200,21,0,1,24,0,200,25,0,200,26,0,220,27,0,221,28,0,200,29,0,200,30,0,200,31,0,201,32,0,200,194,0,621,195,0,221,196,0,620,199,0,621*58
$PAIRSAT,2,24,65,0,200,66,0,200,67,0,200,68,0,200,69,0,200,70,0,200,71,0,200,72,0,200,73,0,201,74,0,200,75,0,200,76,0,200,77,0,200,78,0,200,79,0,201,80,0,201,81,0,201,82,0,201,83,0,201,84,0,200,85,0,200,86,0,200,87,0,200,88,0,200*7A
$PAIRSAT,3,22,2,0,1021,3,0,1200,4,0,1200,7,0,1021,8,0,1000,9,0,1000,10,0,1000,11,0,1000,12,0,1200,13,0,1200,15,0,1221,19,0,1200,21,0,1200,24,0,1200,25,0,1200,26,0,1200,27,0,1221,30,0,1221,31,0,1200,33,0,1200,34,0,1221,36,0,1200*70
$PAIRSAT,4,46,1,0,200,2,0,200,3,0,600,4,0,200,5,0,200,6,0,201,7,0,201,8,0,200,9,0,201,10,0,201,11,0,201,12,0,201,13,0,200,14,0,200,16,0,1,19,0,600,20,0,600,21,0,600,22,0,600,23,0,621,24,0,621,25,0,621,26,0,600,27,0,600,28,0,600,29,0,600,30,0,600,32,0,600,33,0,600,34,0,621,35,0,400,36,0,400,37,0,400,38,0,400,39,0,421,40,0,421,41,0,400,42,0,400,43,0,421,44,0,421,45,0,400,46,0,400,59,0,400,60,0,400,61,0,400,62,0,400*4A
$PAIRDGP,7,2,4,7,9,16,21,31*60
$GNGGA,040714.200,2500.8141200,N,12132.4722000,E,2,58,0.47,22.42,M,15.25,M,1,3335*70
$GNRMC,040714.200,A,2500.8141200,N,12132.4722000,E,0.04,263.08,030324,,,D,V*0F
$GPHDT,,T*1B
$GNACCURACY,3.9*1C
$GNGGA,040714.300,2500.8141100,N,12132.4722000,E,2,57,0.47,22.42,M,15.25,M,1,3335*7D
$GNRMC,040714.300,A,2500.8141100,N,12132.4722000,E,0.03,263.08,030324,,,D,V*0A
$GPHDT,,T*1B
$GNACCURACY,3.9*1C
$GNGGA,040714.400,2500.8141100,N,12132.4722000,E,2,57,0.47,22.42,M,15.25,M,1,3335*7A
$GNRMC,040714.400,A,2500.8141100,N,12132.4722000,E,0.02,263.08,030324,,,D,V*0C
$GPHDT,,T*1B
$GNACCURACY,3.9*1C
$GNGGA,040714.500,2500.8141100,N,12132.4722000,E,2,57,0.47,22.42,M,15.25,M,1,3335*7B
$GNRMC,040714.500,A,2500.8141100,N,12132.4722000,E,0.02,263.08,030324,,,D,V*0D
$GPHDT,,T*1B
$GNACCURACY,3.9*1C
$GNGGA,040714.600,2500.8141100,N,12132.4722000,E,2,57,0.47,22.42,M,15.25,M,1,3335*78
$GNRMC,040714.600,A,2500.8141100,N,12132.4722000,E,0.02,263.08,030324,,,D,V*0E
$GPHDT,,T*1B
$GNACCURACY,3.9*1C
$GNGGA,040714.700,2500.8141100,N,12132.4722100,E,2,57,0.47,22.42,M,15.25,M,0,3335*79
$GNRMC,040714.700,A,2500.8141100,N,12132.4722100,E,0.02,263.08,030324,,,D,V*0E
$GPHDT,,T*1B
$GNACCURACY,3.9*1C
$GNGGA,040714.800,2500.8141200,N,12132.4722100,E,2,57,0.47,22.42,M,15.25,M,0,3335*75
$GNRMC,040714.800,A,2500.8141200,N,12132.4722100,E,0.02,263.08,030324,,,D,V*02
$GPHDT,,T*1B
$GNACCURACY,3.9*1C
$GNGGA,040714.900,2500.8141200,N,12132.4722200,E,2,57,0.47,22.42,M,15.25,M,0,3335*77
$GNRMC,040714.900,A,2500.8141200,N,12132.4722200,E,0.02,263.08,030324,,,D,V*00
$GPHDT,,T*1B
$GNACCURACY,3.9*1C
$GNGGA,040715.000,2500.8141200,N,12132.4722200,E,2,57,0.47,22.42,M,15.25,M,1,3335*7E
$GNRMC,040715.000,A,2500.8141200,N,12132.4722200,E,0.02,263.08,030324,,,D,V*08
$GPHDT,,T*1B
$GNACCURACY,3.9*1C
$GNGGA,040715.100,2500.8141200,N,12132.4722300,E,2,57,0.47,22.42,M,15.25,M,1,3335*7E
$GNRMC,040715.100,A,2500.8141200,N,12132.4722300,E,0.02,263.08,030324,,,D,V*08
$GPHDT,,T*1B
$GNGSA,A,3,08,194,199,195,21,07,09,04,196,31,27,26,0.73,0.47,0.55,1*0A
$GNGSA,A,3,82,83,80,79,81,73,,,,,,,0.73,0.47,0.55,2*0F
$GNGSA,A,3,30,15,34,27,07,02,,,,,,,0.73,0.47,0.55,3*04
$GNGSA,A,3,34,06,09,16,11,40,39,07,25,10,12,24,0.73,0.47,0.55,4*06
$GNGSA,A,3,44,23,,,,,,,,,,,0.73,0.47,0.55,4*02
$GPGSV,4,1,14,08,70,327,29,194,63,048,43,199,60,167,22,195,60,120,26,1*5F
$GPGSV,4,2,14,21,47,165,34,27,43,030,25,02,35,179,17,16,32,063,18,1*63
$GPGSV,4,3,14,07,31,320,32,09,29,259,34,04,27,211,26,196,20,172,22,1*57
$GPGSV,4,4,14,26,14,089,,31,10,140,26,1*63
$GPGSV,3,1,09,08,70,327,38,194,63,048,47,195,60,120,42,199,60,167,37,8*5F
$GPGSV,3,2,09,27,43,030,30,09,29,259,22,04,27,211,38,196,20,172,27,8*5E
$GPGSV,3,3,09,26,14,089,22,8*54
$GLGSV,2,1,07,82,64,046,43,83,62,178,15,80,49,016,37,79,33,090,37,1*71
$GLGSV,2,2,07,81,17,028,27,73,15,323,27,71,05,300,19,1*40
$GAGSV,2,1,06,30,50,034,38,15,48,150,23,34,43,070,24,27,37,317,31,7*76
$GAGSV,2,2,06,07,32,232,21,02,15,083,27,7*7B
$GAGSV,2,1,06,30,50,034,42,15,48,150,18,34,43,070,37,27,37,317,29,1*7E
$GAGSV,2,2,06,07,32,232,28,02,15,083,28,1*7B
$GBGSV,4,1,15,34,82,061,41,06,78,217,35,09,75,288,35,16,75,195,39,1*7E
$GBGSV,4,2,15,11,71,198,36,40,64,321,40,39,64,181,25,07,62,299,26,1*77
$GBGSV,4,3,15,25,60,347,38,10,52,282,21,12,50,042,34,24,48,099,33,1*7F
$GBGSV,4,4,15,43,45,215,,44,26,040,39,23,15,315,32,1*4B
$GBGSV,2,1,06,34,82,061,27,39,64,181,23,40,64,321,32,25,60,347,26,4*7A
$GBGSV,2,2,06,24,48,099,35,44,26,040,40,4*7D
$GNACCURACY,3.9*1C
$PAIRSAT,1,33,2,0,201,3,0,200,4,0,221,5,0,200,6,0,200,7,0,201,8,0,221,9,0,221,10,0,200,11,0,200,12,0,200,13,0,200,14,0,200,15,0,200,16,0,201,17,0,200,18,0,200,19,0,200,20,0,200,21,0,1,24,0,200,25,0,200,26,0,220,27,0,221,28,0,200,29,0,200,30,0,200,31,0,201,32,0,200,194,0,621,195,0,221,196,0,620,199,0,621*58
$PAIRSAT,2,24,65,0,200,66,0,200,67,0,200,68,0,200,69,0,200,70,0,200,71,0,200,72,0,200,73,0,201,74,0,200,75,0,200,76,0,200,77,0,200,78,0,200,79,0,201,80,0,201,81,0,201,82,0,201,83,0,201,84,0,200,85,0,200,86,0,200,87,0,200,88,0,200*7A
$PAIRSAT,3,22,2,0,1021,3,0,1200,4,0,1200,7,0,1021,8,0,1000,9,0,1000,10,0,1000,11,0,1000,12,0,1200,13,0,1200,15,0,1221,19,0,1200,21,0,1200,24,0,1200,25,0,1200,26,0,1200,27,0,1221,30,0,1221,31,0,1200,33,0,1200,34,0,1221,36,0,1200*70
$PAIRSAT,4,46,1,0,200,2,0,200,3,0,600,4,0,200,5,0,200,6,0,201,7,0,201,8,0,200,9,0,201,10,0,201,11,0,201,12,0,201,13,0,200,14,0,200,16,0,1,19,0,600,20,0,600,21,0,600,22,0,600,23,0,621,24,0,621,25,0,621,26,0,600,27,0,600,28,0,600,29,0,600,30,0,600,32,0,600,33,0,600,34,0,621,35,0,400,36,0,400,37,0,400,38,0,400,39,0,421,40,0,421,41,0,400,42,0,400,43,0,421,44,0,421,45,0,400,46,0,400,59,0,400,60,0,400,61,0,400,62,0,400*4A
$PAIRDGP,7,2,4,7,9,16,21,31*60
$GNGGA,040715.200,2500.8141200,N,12132.4722300,E,2,57,0.47,22.42,M,15.25,M,1,3335*7D
$GNRMC,040715.200,A,2500.8141200,N,12132.4722300,E,0.02,263.08,030324,,,D,V*0B
$GPHDT,,T*1B
$GNACCURACY,3.9*1C
$GNGGA,040715.300,2500.8141200,N,12132.4722300,E,2,58,0.47,22.42,M,15.25,M,1,3335*73
$GNRMC,040715.300,A,2500.8141200,N,12132.4722300,E,0.02,263.08,030324,,,D,V*0A
$GPHDT,,T*1B
$GNACCURACY,3.9*1C
$GNGGA,040715.400,2500.8141200,N,12132.4722400,E,2,58,0.47,22.42,M,15.25,M,1,3335*73
$GNRMC,040715.400,A,2500.8141200,N,12132.4722400,E,0.02,263.08,030324,,,D,V*0A
$GPHDT,,T*1B
$GNACCURACY,3.9*1C
$GNGGA,040715.500,2500.8141200,N,12132.4722400,E,2,58,0.47,22.42,M,15.25,M,1,3335*72
$GNRMC,040715.500,A,2500.8141200,N,12132.4722400,E,0.02,263.08,030324,,,D,V*0B
$GPHDT,,T*1B
$GNACCURACY,3.9*1C
$GNGGA,040715.600,2500.8141200,N,12132.4722400,E,2,57,0.47,22.42,M,15.25,M,0,3335*7F
$GNRMC,040715.600,A,2500.8141200,N,12132.4722400,E,0.02,263.08,030324,,,D,V*08
