$FW : RTK35X,V1.1X0314AS,Lib20210517,1*54
$Tool : LOCOSYS , GNSS Firebird , v1.0.0.19*39
$---------------------------------------------------*2D
$GNACCURACY,3.9*1C
$GNGGA,040903.700,2500.8138800,N,12132.4731500,E,2,62,0.47,23.67,M,15.25,M,0,3335*70
$GNRMC,040903.700,A,2500.8138800,N,12132.4731500,E,0.03,53.69,030324,,,D,V*30
$GPHDT,,T*1B
$GNACCURACY,3.9*1C
$GNGGA,040903.800,2500.8138800,N,12132.4731500,E,2,62,0.47,23.66,M,15.25,M,0,3335*7E
$GNRMC,040903.800,A,2500.8138800,N,12132.4731500,E,0.03,53.69,030324,,,D,V*3F
$GPHDT,,T*1B
$GNACCURACY,3.9*1C
$GNGGA,040903.900,2500.8138800,N,12132.4731500,E,2,62,0.47,23.66,M,15.25,M,0,3335*7F
$GNRMC,040903.900,A,2500.8138800,N,12132.4731500,E,0.03,53.69,030324,,,D,V*3E
$GPHDT,,T*1B
$GNACCURACY,3.9*1C
$GNGGA,040904.000,2500.8138800,N,12132.4731600,E,2,62,0.47,23.65,M,15.25,M,1,3335*70
$GNRMC,040904.000,A,2500.8138800,N,12132.4731600,E,0.03,53.69,030324,,,D,V*33
$GPHDT,,T*1B
$GNACCURACY,3.9*1C
$GNGGA,040904.100,2500.8138800,N,12132.4731600,E,2,62,0.47,23.64,M,15.25,M,1,3335*70
$GNRMC,040904.100,A,2500.8138800,N,12132.4731600,E,0.03,53.69,030324,,,D,V*32
$GPHDT,,T*1B
$GNGSA,A,3,08,194,195,199,21,27,02,16,07,04,196,26,0.83,0.47,0.69,1*04
$GNGSA,A,3,09,,,,,,,,,,,,0.83,0.47,0.69,1*0F
$GNGSA,A,3,83,82,80,79,81,73,,,,,,,0.83,0.47,0.69,2*0F
$GNGSA,A,3,30,15,34,27,07,02,,,,,,,0.83,0.47,0.69,3*04
$GNGSA,A,3,34,06,09,16,11,40,39,07,25,10,12,24,0.83,0.47,0.69,4*06
$GNGSA,A,3,44,23,,,,,,,,,,,0.83,0.47,0.69,4*02
$GPGSV,4,1,15,08,69,330,46,194,63,049,44,195,61,120,32,199,60,167,24,1*5D
$GPGSV,4,2,15,21,48,165,32,27,43,030,32,02,36,179,18,16,32,064,32,1*6E
$GPGSV,4,3,15,07,32,320,37,09,28,258,15,04,26,211,17,196,20,172,14,1*55
$GPGSV,4,4,15,26,14,090,24,31,09,140,26,30,02,320,14,1*51
$GPGSV,3,1,10,08,69,330,46,194,63,049,46,195,61,120,15,199,60,167,21,8*54
$GPGSV,3,2,10,27,43,030,30,09,28,258,23,04,26,211,28,196,20,172,17,8*54
$GPGSV,3,3,10,26,14,090,33,30,02,320,25,8*63
$GLGSV,2,1,06,83,63,178,20,82,63,044,43,80,50,018,39,79,33,092,35,1*7A
$GLGSV,2,2,06,81,16,028,24,73,15,324,31,1*7B
$GAGSV,2,1,08,30,50,035,42,15,48,149,29,34,43,069,31,27,37,318,35,7*71
$GAGSV,2,2,08,07,32,232,33,02,15,083,31,08,11,182,,36,04,034,,7*74
$GAGSV,2,1,06,30,50,035,43,15,48,149,22,34,43,069,35,27,37,318,34,1*76
$GAGSV,2,2,06,07,32,232,24,02,15,083,30,1*7E
$GBGSV,4,1,16,34,81,057,38,06,77,216,33,09,75,286,39,16,74,196,28,1*7D
$GBGSV,4,2,16,11,71,199,34,40,63,321,26,39,63,182,32,07,61,300,39,1*7E
$GBGSV,4,3,16,25,60,347,25,10,52,282,37,12,49,041,45,24,48,100,44,1*7B
$GBGSV,4,4,16,43,46,215,20,44,25,040,28,23,16,315,18,33,02,210,,1*70
$GBGSV,2,1,08,34,81,057,41,39,63,182,27,40,63,321,39,25,60,347,26,4*7E
$GBGSV,2,2,08,24,48,100,46,43,46,215,27,44,25,040,37,23,16,315,31,4*70
$GNACCURACY,3.9*1C
$PAIRSAT,1,35,2,0,201,3,0,200,4,0,221,5,0,200,6,0,200,7,0,201,8,0,221,9,0,221,10,0,200,11,0,200,12,0,200,13,0,200,14,0,200,15,0,200,16,0,201,17,0,200,18,0,200,19,0,200,20,0,200,21,0,201,22,0,200,23,0,200,24,0,200,25,0,200,26,0,220,27,0,221,28,0,200,29,0,200,30,0,220,31,0,201,32,0,200,194,0,621,195,0,621,196,0,620,199,0,621*5B
$PAIRSAT,2,24,65,0,200,66,0,200,67,0,200,68,0,200,69,0,200,70,0,200,71,0,200,72,0,200,73,0,201,74,0,200,75,0,200,76,0,200,77,0,200,78,0,200,79,0,201,80,0,201,81,0,201,82,0,201,83,0,201,84,0,200,85,0,200,86,0,200,87,0,200,88,0,200*7A
$PAIRSAT,3,23,2,0,1021,3,0,1200,4,0,1200,5,0,200,7,0,1221,8,0,1200,9,0,1200,10,0,1200,11,0,1000,12,0,1200,13,0,1200,15,0,1221,19,0,1200,21,0,1200,24,0,1200,25,0,1200,26,0,1200,27,0,1221,30,0,1221,31,0,1200,33,0,1200,34,0,1221,36,0,1200*6A
$PAIRSAT,4,46,1,0,200,2,0,200,3,0,600,4,0,200,5,0,200,6,0,201,7,0,201,8,0,200,9,0,201,10,0,201,11,0,201,12,0,201,13,0,200,14,0,200,16,0,201,19,0,600,20,0,600,21,0,600,22,0,600,23,0,621,24,0,621,25,0,621,26,0,600,27,0,600,28,0,600,29,0,600,30,0,600,32,0,600,33,0,600,34,0,621,35,0,600,36,0,600,37,0,600,38,0,600,39,0,421,40,0,421,41,0,400,42,0,400,43,0,421,44,0,421,45,0,400,46,0,400,59,0,400,60,0,400,61,0,400,62,0,400*48
$PAIRDGP,7,2,4,7,9,16,21,31*60
$GNGGA,040904.200,2500.8138700,N,12132.4731600,E,2,60,0.47,23.64,M,15.25,M,1,3335*7E
$GNRMC,040904.200,A,2500.8138700,N,12132.4731600,E,0.03,53.69,030324,,,D,V*3E
$GPHDT,,T*1B
$GNACCURACY,3.9*1C
$GNGGA,040904.300,2500.8138700,N,12132.4731600,E,2,60,0.47,23.63,M,15.25,M,1,3335*78
$GNRMC,040904.300,A,2500.8138700,N,12132.4731600,E,0.03,53.69,030324,,,D,V*3F
$GPHDT,,T*1B
$GNACCURACY,3.9*1C
$GNGGA,040904.400,2500.8138700,N,12132.4731700,E,2,60,0.47,23.63,M,15.25,M,1,3335*7E
$GNRMC,040904.400,A,2500.8138700,N,12132.4731700,E,0.03,53.69,030324,,,D,V*39
$GPHDT,,T*1B
$GNACCURACY,3.9*1C
$GNGGA,040904.500,2500.8138700,N,12132.4731800,E,2,59,0.47,23.63,M,15.25,M,1,3335*7A
$GNRMC,040904.500,A,2500.8138700,N,12132.4731800,E,0.03,53.69,030324,,,D,V*37
$GPHDT,,T*1B
$GNACCURACY,3.9*1C
$GNGGA,040904.600,2500.8138600,N,12132.4731800,E,2,60,0.47,23.62,M,15.25,M,1,3335*73
$GNRMC,040904.600,A,2500.8138600,N,12132.4731800,E,0.03,53.69,030324,,,D,V*35
$GPHDT,,T*1B
$GNACCURACY,3.9*1C
$GNGGA,040904.700,2500.8138600,N,12132.4731800,E,2,60,0.47,23.62,M,15.25,M,0,3335*73
$GNRMC,040904.700,A,2500.8138600,N,12132.4731800,E,0.03,53.69,030324,,,D,V*34
$GPHDT,,T*1B
$GNACCURACY,3.9*1C
$GNGGA,040904.800,2500.8138600,N,12132.4731900,E,2,59,0.47,23.62,M,15.25,M,0,3335*77
$GNRMC,040904.800,A,2500.8138600,N,12132.4731900,E,0.03,53.69,030324,,,D,V*3A
$GPHDT,,T*1B
$GNACCURACY,3.9*1C
$GNGGA,040904.900,2500.8138600,N,12132.4731900,E,2,59,0.47,23.62,M,15.25,M,0,3335*76
$GNRMC,040904.900,A,2500.8138600,N,12132.4731900,E,0.03,53.69,030324,,,D,V*3B
$GPHDT,,T*1B
$GNACCURACY,3.9*1C
$GNGGA,040905.000,2500.8138600,N,12132.4731900,E,2,59,0.47,23.61,M,15.25,M,1,3335*7C
$GNRMC,040905.000,A,2500.8138600,N,12132.4731900,E,0.03,53.69,030324,,,D,V*33
$GPHDT,,T*1B
$GNACCURACY,3.9*1C
$GNGGA,040905.100,2500.8138600,N,12132.4731900,E,2,59,0.47,23.61,M,15.25,M,1,3335*7D
$GNRMC,040905.100,A,2500.8138600,N,12132.4731900,E,0.03,53.69,030324,,,D,V*32
$GPHDT,,T*1B
$GNGSA,A,3,08,194,195,199,21,27,02,16,07,09,04,26,0.83,0.47,0.69,1*33
$GNGSA,A,3,196,,,,,,,,,,,,0.83,0.47,0.69,1*38
$GNGSA,A,3,83,82,80,79,81,73,,,,,,,0.83,0.47,0.69,2*0F
$GNGSA,A,3,30,15,34,27,07,02,,,,,,,0.83,0.47,0.69,3*04
$GNGSA,A,3,34,06,09,16,11,39,40,07,25,10,12,24,0.83,0.47,0.69,4*06
$GNGSA,A,3,44,23,,,,,,,,,,,0.83,0.47,0.69,4*02
$GPGSV,4,1,15,08,69,330,46,194,63,049,45,195,61,120,34,199,60,167,25,1*5B
$GPGSV,4,2,15,21,48,165,31,27,43,030,34,02,36,179,16,16,32,064,33,1*64
$GPGSV,4,3,15,07,32,320,38,09,28,258,18,04,26,211,19,196,20,172,17,1*5A
$GPGSV,4,4,15,26,13,090,24,31,09,140,25,30,02,320,17,1*56
$GPGSV,3,1,09,08,69,330,46,194,63,049,46,199,60,167,21,27,43,030,32,8*61
$GPGSV,3,2,09,09,28,258,21,04,26,211,25,196,20,172,17,26,13,090,34,8*59
$GPGSV,3,3,09,30,02,320,25,8*53
$GLGSV,2,1,06,83,63,178,20,82,63,044,45,80,50,018,39,79,33,092,33,1*7A
$GLGSV,2,2,06,81,16,028,23,73,15,324,32,1*7F
$GAGSV,2,1,08,30,50,035,42,15,48,149,29,34,43,069,29,27,37,318,36,7*7B
$GAGSV,2,2,08,07,32,232,32,02,15,083,31,08,11,182,,36,04,034,,7*75
$GAGSV,2,1,06,30,50,035,44,15,48,149,21,34,43,069,34,27,37,318,35,1*72
$GAGSV,2,2,06,07,32,232,24,02,15,083,30,1*7E
$GBGSV,4,1,15,34,81,057,38,06,77,216,33,09,75,286,39,16,74,196,31,1*76
$GBGSV,4,2,15,11,71,199,33,39,63,182,32,40,63,321,26,07,61,300,40,1*74
$GBGSV,4,3,15,25,60,347,24,10,52,282,37,12,49,041,44,24,48,100,44,1*78
$GBGSV,4,4,15,43,46,215,24,44,25,040,25,23,16,315,31,1*40
$GBGSV,2,1,08,34,81,057,41,39,63,182,28,40,63,321,39,25,60,347,25,4*72
$GBGSV,2,2,08,24,48,100,46,43,46,215,24,44,25,040,37,23,16,315,31,4*73
$GNACCURACY,3.9*1C
$PAIRSAT,1,35,2,0,201,3,0,200,4,0,221,5,0,200,6,0,200,7,0,201,8,0,221,9,0,221,10,0,200,11,0,200,12,0,200,13,0,200,14,0,200,15,0,200,16,0,201,17,0,200,18,0,200,19,0,200,20,0,200,21,0,201,22,0,200,23,0,200,24,0,200,25,0,200,26,0,220,27,0,221,28,0,200,29,0,200,30,0,220,31,0,201,32,0,200,194,0,621,195,0,621,196,0,620,199,0,621*5B
$PAIRSAT,2,24,65,0,200,66,0,200,67,0,200,68,0,200,69,0,200,70,0,200,71,0,200,72,0,200,73,0,201,74,0,200,75,0,200,76,0,200,77,0,200,78,0,200,79,0,201,80,0,201,81,0,201,82,0,201,83,0,201,84,0,200,85,0,200,86,0,200,87,0,200,88,0,200*7A
$PAIRSAT,3,23,2,0,1021,3,0,1200,4,0,1200,5,0,200,7,0,1221,8,0,1200,9,0,1200,10,0,1200,11,0,1000,12,0,1200,13,0,1200,15,0,1221,19,0,1200,21,0,1200,24,0,1200,25,0,1200,26,0,1200,27,0,1221,30,0,1221,31,0,1200,33,0,1200,34,0,1221,36,0,1200*6A
$PAIRSAT,4,46,1,0,200,2,0,200,3,0,600,4,0,200,5,0,200,6,0,201,7,0,201,8,0,200,9,0,201,10,0,201,11,0,201,12,0,201,13,0,200,14,0,200,16,0,201,19,0,600,20,0,600,21,0,600,22,0,600,23,0,621,24,0,621,25,0,621,26,0,600,27,0,600,28,0,600,29,0,600,30,0,600,32,0,600,33,0,600,34,0,621,35,0,600,36,0,600,37,0,600,38,0,600,39,0,421,40,0,421,41,0,400,42,0,400,43,0,421,44,0,421,45,0,400,46,0,400,59,0,400,60,0,400,61,0,400,62,0,400*48
$PAIRDGP,7,2,4,7,9,16,21,31*60
$GNGGA,040905.200,2500.8138600,N,12132.4732000,E,2,59,0.47,23.60,M,15.25,M,1,3335*75
$GNRMC,040905.200,A,2500.8138600,N,12132.4732000,E,0.03,53.69,030324,,,D,V*3B
$GPHDT,,T*1B
$GNACCURACY,3.9*1C
$GNGGA,040905.300,2500.8138600,N,12132.4732000,E,2,60,0.47,23.60,M,15.25,M,1,3335*7E
$GNRMC,040905.300,A,2500.8138600,N,12132.4732000,E,0.03,53.69,030324,,,D,V*3A
$GPHDT,,T*1B
$GNACCURACY,3.9*1C
$GNGGA,040905.400,2500.8138600,N,12132.4732100,E,2,60,0.47,23.59,M,15.25,M,1,3335*72
$GNRMC,040905.400,A,2500.8138600,N,12132.4732100,E,0.03,53.69,030324,,,D,V*3C
$GPHDT,,T*1B
$GNACCURACY,3.9*1C
$GNGGA,040905.500,2500.8138600,N,12132.4732100,E,2,60,0.47,23.59,M,15.25,M,0,3335*72
$GNRMC,040905.500,A,2500.8138600,N,12132.4732100,E,0.03,53.69,030324,,,D,V*3D
$GPHDT,,T*1B
$GNACCURACY,3.9*1C
$GNGGA,040905.600,2500.8138600,N,12132.4732100,E,2,60,0.47,23.59,M,15.25,M,0,3335*71
$GNRMC,040905.600,A,2500.8138600,N,12132.4732100,E,0.03,53.69,030324,,,D,V*3E
$GPHDT,,T*1B
$GNACCURACY,3.9*1C
$GNGGA,040905.700,2500.8138600,N,12132.4732100,E,2,60,0.47,23.59,M,15.25,M,0,3335*70
$GNRMC,040905.700,A,2500.8138600,N,12132.4732100,E,0.03,53.69,030324,,,D,V*3F
$GPHDT,,T*1B
$GNACCURACY,3.9*1C
$GNGGA,040905.800,2500.8138600,N,12132.4732200,E,2,61,0.47,23.58,M,15.25,M,0,3335*7C
$GNRMC,040905.800,A,2500.8138600,N,12132.4732200,E,0.03,53.69,030324,,,D,V*33
$GPHDT,,T*1B
$GNACCURACY,3.9*1C
$GNGGA,040905.900,2500.8138600,N,12132.4732200,E,2,61,0.47,23.58,M,15.25,M,0,3335*7D
$GNRMC,040905.900,A,2500.8138600,N,12132.4732200,E,0.03,53.69,030324,,,D,V*32
$GPHDT,,T*1B
$GNACCURACY,3.9*1C
$GNGGA,040906.000,2500.8138600,N,12132.4732200,E,2,61,0.47,23.57,M,15.25,M,1,3335*79
$GNRMC,040906.000,A,2500.8138600,N,12132.4732200,E,0.02,53.69,030324,,,D,V*39
$GPHDT,,T*1B
$GNACCURACY,3.9*1C
$GNGGA,040906.100,2500.8138600,N,12132.4732300,E,2,63,0.47,23.56,M,15.25,M,1,3335*7A
$GNRMC,040906.100,A,2500.8138600,N,12132.4732300,E,0.03,53.69,030324,,,D,V*38
$GPHDT,,T*1B
$GNGSA,A,3,08,194,195,199,21,27,02,16,07,09,04,196,0.83,0.47,0.69,1*09
$GNGSA,A,3,26,,,,,,,,,,,,0.83,0.47,0.69,1*02
$GNGSA,A,3,83,82,80,79,81,73,,,,,,,0.83,0.47,0.69,2*0F
$GNGSA,A,3,30,15,34,27,07,02,,,,,,,0.83,0.47,0.69,3*04
$GNGSA,A,3,34,06,09,16,11,39,40,07,25,10,12,24,0.83,0.47,0.69,4*06
$GNGSA,A,3,43,44,23,,,,,,,,,,0.83,0.47,0.69,4*05
$GPGSV,4,1,15,08,69,330,46,194,63,049,45,195,61,120,33,199,60,167,25,1*5C
$GPGSV,4,2,15,21,48,165,33,27,43,030,32,02,36,179,16,16,32,064,33,1*60
$GPGSV,4,3,15,07,32,320,38,09,28,258,19,04,26,211,20,196,20,172,19,1*5F
$GPGSV,4,4,15,26,13,090,27,31,09,140,24,30,02,320,15,1*56
$GPGSV,3,1,10,08,69,330,46,194,63,049,46,195,61,120,17,199,60,167,23,8*54
$GPGSV,3,2,10,27,43,030,33,09,28,258,23,04,26,211,27,196,20,172,19,8*56
$GPGSV,3,3,10,26,13,090,34,30,02,320,22,8*64
$GLGSV,2,1,06,83,63,178,19,82,63,044,45,80,50,018,40,79,33,092,34,1*79
$GLGSV,2,2,06,81,16,028,20,73,15,324,32,1*7C
$GAGSV,2,1,08,30,50,035,42,15,48,149,30,34,43,069,28,27,37,318,36,7*72
$GAGSV,2,2,08,07,32,232,31,02,15,083,31,08,11,182,,36,04,034,,7*76
$GAGSV,2,1,06,30,50,035,45,15,48,149,21,34,43,069,36,27,37,318,36,1*72
$GAGSV,2,2,06,07,32,232,24,02,15,083,30,1*7E
$GBGSV,4,1,15,34,81,057,38,06,77,216,33,09,75,286,38,16,74,196,31,1*77
$GBGSV,4,2,15,11,71,199,32,39,63,182,30,40,63,321,28,07,61,300,40,1*79
$GBGSV,4,3,15,25,60,347,29,10,52,282,37,12,49,041,43,24,48,100,44,1*72
$GBGSV,4,4,15,43,46,215,27,44,25,040,26,23,16,315,31,1*40
$GBGSV,2,1,08,34,81,057,41,39,63,182,26,40,63,321,39,25,60,347,25,4*7C
$GBGSV,2,2,08,24,48,100,47,43,46,215,24,44,25,040,37,23,16,315,31,4*72
$GNACCURACY,3.9*1C
$PAIRSAT,1,35,2,0,201,3,0,200,4,0,221,5,0,200,6,0,200,7,0,201,8,0,221,9,0,221,10,0,200,11,0,200,12,0,200,13,0,200,14,0,200,15,0,200,16,0,201,17,0,200,18,0,200,19,0,200,20,0,200,21,0,201,22,0,200,23,0,200,24,0,200,25,0,200,26,0,220,27,0,221,28,0,200,29,0,200,30,0,220,31,0,201,32,0,200,194,0,621,195,0,621,196,0,620,199,0,621*5B
$PAIRSAT,2,24,65,0,200,66,0,200,67,0,200,68,0,200,69,0,200,70,0,200,71,0,200,72,0,200,73,0,201,74,0,200,75,0,200,76,0,200,77,0,200,78,0,200,79,0,201,80,0,201,81,0,201,82,0,201,83,0,201,84,0,200,85,0,200,86,0,200,87,0,200,88,0,200*7A
$PAIRSAT,3,23,2,0,1021,3,0,1200,4,0,1200,5,0,200,7,0,1221,8,0,1200,9,0,1200,10,0,1200,11,0,1000,12,0,1200,13,0,1200,15,0,1221,19,0,1200,21,0,1200,24,0,1200,25,0,1200,26,0,1200,27,0,1221,30,0,1221,31,0,1200,33,0,1200,34,0,1221,36,0,1200*6A
$PAIRSAT,4,46,1,0,200,2,0,200,3,0,600,4,0,200,5,0,200,6,0,201,7,0,201,8,0,200,9,0,201,10,0,201,11,0,201,12,0,201,13,0,200,14,0,200,16,0,201,19,0,600,20,0,600,21,0,600,22,0,600,23,0,621,24,0,621,25,0,621,26,0,600,27,0,600,28,0,600,29,0,600,30,0,600,32,0,600,33,0,600,34,0,621,35,0,600,36,0,600,37,0,600,38,0,600,39,0,421,40,0,421,41,0,400,42,0,400,43,0,421,44,0,421,45,0,400,46,0,400,59,0,400,60,0,400,61,0,400,62,0,400*48
$PAIRDGP,7,2,4,7,9,16,21,31*60
$GNGGA,040906.200,2500.8138600,N,12132.4732400,E,2,63,0.47,23.55,M,15.25,M,1,3335*7D
$GNRMC,040906.200,A,2500.8138600,N,12132.4732400,E,0.03,53.69,030324,,,D,V*3C
$GPHDT,,T*1B
$GNACCURACY,3.9*1C
$GNGGA,040906.300,2500.8138600,N,12132.4732400,E,2,63,0.47,23.55,M,15.25,M,1,3335*7C
$GNRMC,040906.300,A,2500.8138600,N,12132.4732400,E,0.03,53.69,030324,,,D,V*3D
$GPHDT,,T*1B
$GNACCURACY,3.9*1C
$GNGGA,040906.400,2500.8138600,N,12132.4732400,E,2,63,0.47,23.55,M,15.25,M,1,3335*7B
$GNRMC,040906.400,A,2500.8138600,N,12132.4732400,E,0.03,53.69,030324,,,D,V*3A
$GPHDT,,T*1B
$GNACCURACY,3.9*1C
$GNGGA,040906.500,2500.8138600,N,12132.4732500,E,2,63,0.47,23.55,M,15.25,M,1,3335*7B
$GNRMC,040906.500,A,2500.8138600,N,12132.4732500,E,0.03,53.69,030324,,,D,V*3A
$GPHDT,,T*1B
$GNACCURACY,3.9*1C
$GNGGA,040906.600,2500.8138600,N,12132.4732500,E,2,62,0.47,23.55,M,15.25,M,0,3335*78
$GNRMC,040906.600,A,2500.8138600,N,12132.4732500,E,0.03,53.69,030324,,,D,V*39
$GPHDT,,T*1B
$GNACCURACY,3.9*1C
$GNGGA,040906.700,2500.8138600,N,12132.4732500,E,2,63,0.47,23.55,M,15.25,M,0,3335*78
$GNRMC,040906.700,A,2500.8138600,N,12132.4732500,E,0.03,53.69,030324,,,D,V*38
$GPHDT,,T*1B
$GNACCURACY,3.9*1C
$GNGGA,040906.800,2500.8138600,N,12132.4732500,E,2,62,0.47,23.55,M,15.25,M,0,3335*76
$GNRMC,040906.800,A,2500.8138600,N,12132.4732500,E,0.03,53.69,030324,,,D,V*37
$GPHDT,,T*1B
$GNACCURACY,3.9*1C
$GNGGA,040906.900,2500.8138600,N,12132.4732600,E,2,62,0.47,23.55,M,15.25,M,0,3335*74
$GNRMC,040906.900,A,2500.8138600,N,12132.4732600,E,0.03,53.69,030324,,,D,V*35
$GPHDT,,T*1B
$GNACCURACY,3.9*1C
$GNGGA,040907.000,2500.8138600,N,12132.4732600,E,2,62,0.47,23.55,M,15.25,M,1,3335*7D
$GNRMC,040907.000,A,2500.8138600,N,12132.4732600,E,0.03,53.69,030324,,,D,V*3D
$GPHDT,,T*1B
$GNACCURACY,3.9*1C
$GNGGA,040907.100,2500.8138600,N,12132.4732700,E,2,62,0.47,23.54,M,15.25,M,1,3335*7C
$GNRMC,040907.100,A,2500.8138600,N,12132.4732700,E,0.03,53.69,030324,,,D,V*3D
$GPHDT,,T*1B
$GNGSA,A,3,08,194,195,199,21,27,02,16,07,09,04,196,0.83,0.47,0.69,1*09
$GNGSA,A,3,26,,,,,,,,,,,,0.83,0.47,0.69,1*02
$GNGSA,A,3,83,82,80,79,81,73,,,,,,,0.83,0.47,0.69,2*0F
$GNGSA,A,3,30,15,34,27,07,02,,,,,,,0.83,0.47,0.69,3*04
$GNGSA,A,3,34,06,09,16,11,40,39,07,25,10,12,24,0.83,0.47,0.69,4*06
$GNGSA,A,3,44,23,43,,,,,,,,,,0.83,0.47,0.69,4*05
$GPGSV,4,1,15,08,69,330,46,194,63,049,45,195,61,120,31,199,60,167,24,1*5F
$GPGSV,4,2,15,21,48,165,30,27,43,030,30,02,36,179,18,16,32,064,32,1*6E
$GPGSV,4,3,15,07,32,320,38,09,28,258,16,04,26,211,20,196,20,172,20,1*5A
$GPGSV,4,4,15,26,13,090,28,31,09,140,25,30,02,320,15,1*58
$GPGSV,3,1,10,08,69,330,45,194,63,049,45,195,61,120,14,199,60,167,21,8*55
$GPGSV,3,2,10,27,43,030,32,09,28,258,25,04,26,211,26,196,20,172,20,8*5A
$GPGSV,3,3,10,26,13,090,34,30,02,320,23,8*65
$GLGSV,2,1,06,83,63,178,19,82,63,044,44,80,50,018,40,79,33,092,34,1*78
$GLGSV,2,2,06,81,16,028,18,73,15,324,32,1*77
$GAGSV,2,1,08,30,50,035,42,15,48,149,29,34,43,069,28,27,37,318,36,7*7A
$GAGSV,2,2,08,07,32,232,31,02,15,083,30,08,11,182,,36,04,034,,7*77
$GAGSV,2,1,06,30,50,035,44,15,48,149,20,34,43,069,35,27,37,318,34,1*73
$GAGSV,2,2,06,07,32,232,24,02,15,083,31,1*7F
$GBGSV,4,1,16,34,81,057,38,06,77,216,32,09,75,286,36,16,74,196,30,1*7A
$GBGSV,4,2,16,11,71,199,31,40,63,321,31,39,63,182,28,07,61,300,40,1*78
$GBGSV,4,3,16,25,60,347,30,10,52,282,36,12,49,041,43,24,48,100,44,1*78
$GBGSV,4,4,16,43,46,215,25,44,25,040,27,23,16,315,28,38,07,170,,1*72
$GBGSV,2,1,08,34,81,057,40,39,63,182,25,40,63,321,38,25,60,347,24,4*7E
$GBGSV,2,2,08,24,48,100,47,43,46,215,23,44,25,040,36,23,16,315,30,4*75
$GNACCURACY,3.9*1C
$PAIRSAT,1,35,2,0,201,3,0,200,4,0,221,5,0,200,6,0,200,7,0,201,8,0,221,9,0,221,10,0,200,11,0,200,12,0,200,13,0,200,14,0,200,15,0,200,16,0,201,17,0,200,18,0,200,19,0,200,20,0,200,21,0,201,22,0,200,23,0,200,24,0,200,25,0,200,26,0,220,27,0,221,28,0,200,29,0,200,30,0,220,31,0,201,32,0,200,194,0,621,195,0,621,196,0,620,199,0,621*5B
$PAIRSAT,2,24,65,0,200,66,0,200,67,0,200,68,0,200,69,0,200,70,0,200,71,0,200,72,0,200,73,0,201,74,0,200,75,0,200,76,0,200,77,0,200,78,0,200,79,0,201,80,0,201,81,0,201,82,0,201,83,0,201,84,0,200,85,0,200,86,0,200,87,0,200,88,0,200*7A
$PAIRSAT,3,23,2,0,1021,3,0,1200,4,0,1200,5,0,200,7,0,1221,8,0,1200,9,0,1200,10,0,1200,11,0,1000,12,0,1200,13,0,1200,15,0,1221,19,0,1200,21,0,1200,24,0,1200,25,0,1200,26,0,1200,27,0,1221,30,0,1221,31,0,1200,33,0,1200,34,0,1221,36,0,1200*6A
$PAIRSAT,4,46,1,0,200,2,0,200,3,0,600,4,0,200,5,0,200,6,0,201,7,0,201,8,0,200,9,0,201,10,0,201,11,0,201,12,0,201,13,0,200,14,0,200,16,0,201,19,0,600,20,0,600,21,0,600,22,0,600,23,0,621,24,0,621,25,0,621,26,0,600,27,0,600,28,0,600,29,0,600,30,0,600,32,0,600,33,0,600,34,0,621,35,0,600,36,0,600,37,0,600,38,0,600,39,0,421,40,0,421,41,0,400,42,0,400,43,0,421,44,0,421,45,0,400,46,0,400,59,0,400,60,0,400,61,0,400,62,0,400*48
$PAIRDGP,7,2,4,7,9,16,21,31*60
$GNGGA,040907.200,2500.8138600,N,12132.4732700,E,2,62,0.47,23.54,M,15.25,M,1,3335*7F
$GNRMC,040907.200,A,2500.8138600,N,12132.4732700,E,0.03,53.69,030324,,,D,V*3E
$GPHDT,,T*1B
$GNACCURACY,3.9*1C
$GNGGA,040907.300,2500.8138600,N,12132.4732700,E,2,62,0.47,23.53,M,15.25,M,1,3335*79
$GNRMC,040907.300,A,2500.8138600,N,12132.4732700,E,0.03,53.69,030324,,,D,V*3F
$GPHDT,,T*1B
$GNACCURACY,3.9*1C
$GNGGA,040907.400,2500.8138600,N,12132.4732700,E,2,62,0.47,23.54,M,15.25,M,1,3335*79
$GNRMC,040907.400,A,2500.8138600,N,12132.4732700,E,0.03,53.69,030324,,,D,V*38
$GPHDT,,T*1B
$GNACCURACY,3.9*1C
$GNGGA,040907.500,2500.8138600,N,12132.4732800,E,2,62,0.47,23.53,M,15.25,M,0,3335*71
$GNRMC,040907.500,A,2500.8138600,N,12132.4732800,E,0.03,53.69,030324,,,D,V*36
$GPHDT,,T*1B
$GNACCURACY,3.9*1C
$GNGGA,040907.600,2500.8138600,N,12132.4732800,E,2,62,0.47,23.53,M,15.25,M,0,3335*72
$GNRMC,040907.600,A,2500.8138600,N,12132.4732800,E,0.03,53.69,030324,,,D,V*35
$GPHDT,,T*1B
$GNACCURACY,3.9*1C
$GNGGA,040907.700,2500.8138600,N,12132.4732800,E,2,62,0.47,23.53,M,15.25,M,0,3335*73
$GNRMC,040907.700,A,2500.8138600,N,12132.4732800,E,0.03,53.69,030324,,,D,V*34
$GPHDT,,T*1B
$GNACCURACY,3.9*1C
$GNGGA,040907.800,2500.8138600,N,12132.4732800,E,2,62,0.47,23.52,M,15.25,M,0,3335*7D
$GNRMC,040907.800,A,2500.8138600,N,12132.4732800,E,0.02,53.69,030324,,,D,V*3A
$GPHDT,,T*1B
$GNACCURACY,3.9*1C
$GNGGA,040907.900,2500.8138600,N,12132.4732800,E,2,62,0.47,23.52,M,15.25,M,0,3335*7C
$GNRMC,040907.900,A,2500.8138600,N,12132.4732800,E,0.02,53.69,030324,,,D,V*3B
$GPHDT,,T*1B
$GNACCURACY,3.9*1C
$GNGGA,040908.000,2500.8138700,N,12132.4732900,E,2,62,0.47,23.52,M,15.25,M,1,3335*7B
$GNRMC,040908.000,A,2500.8138700,N,12132.4732900,E,0.02,53.69,030324,,,D,V*3D
$GPHDT,,T*1B
$GNACCURACY,3.9*1C
$GNGGA,040908.100,2500.8138600,N,12132.4733000,E,2,61,0.47,23.52,M,15.25,M,1,3335*70
$GNRMC,040908.100,A,2500.8138600,N,12132.4733000,E,0.02,53.69,030324,,,D,V*35
$GPHDT,,T*1B
$GNGSA,A,3,08,194,195,199,21,27,02,16,07,09,196,26,0.83,0.47,0.69,1*09
$GNGSA,A,3,04,,,,,,,,,,,,0.83,0.47,0.69,1*02
$GNGSA,A,3,83,82,80,79,81,73,,,,,,,0.83,0.47,0.69,2*0F
$GNGSA,A,3,30,15,34,27,07,02,,,,,,,0.83,0.47,0.69,3*04
$GNGSA,A,3,34,06,09,16,11,40,39,07,25,10,12,24,0.83,0.47,0.69,4*06
$GNGSA,A,3,43,44,23,,,,,,,,,,0.83,0.47,0.69,4*05
$GPGSV,4,1,15,08,69,330,46,194,63,049,45,195,61,120,32,199,60,167,25,1*5D
$GPGSV,4,2,15,21,48,165,28,27,43,030,30,02,36,179,18,16,32,064,31,1*64
$GPGSV,4,3,15,07,32,320,38,09,28,258,13,04,26,211,24,196,20,172,18,1*50
$GPGSV,4,4,15,26,13,090,28,31,09,140,26,30,02,320,17,1*59
$GPGSV,3,1,10,08,69,330,45,194,63,049,45,195,61,120,13,199,60,167,20,8*53
$GPGSV,3,2,10,27,43,030,32,09,28,258,25,04,26,211,24,196,20,172,22,8*5A
$GPGSV,3,3,10,26,13,090,34,30,02,320,23,8*65
$GLGSV,2,1,06,83,63,178,18,82,63,044,44,80,50,018,40,79,33,092,35,1*78
$GLGSV,2,2,06,81,16,028,16,73,15,324,33,1*78
$GAGSV,2,1,07,30,50,035,42,15,49,149,29,34,43,069,28,27,37,318,36,7*74
$GAGSV,2,2,07,07,32,232,31,02,15,083,31,08,11,182,,7*4F
$GAGSV,2,1,06,30,50,035,44,15,49,149,21,34,43,069,35,27,37,318,34,1*73
$GAGSV,2,2,06,07,32,232,24,02,15,083,31,1*7F
$GBGSV,4,1,15,34,81,057,38,06,77,216,33,09,75,286,37,16,74,196,30,1*79
$GBGSV,4,2,15,11,71,199,32,40,63,321,31,39,63,182,29,07,61,300,40,1*79
$GBGSV,4,3,15,25,60,347,30,10,52,282,37,12,49,041,43,24,48,100,44,1*7A
$GBGSV,4,4,15,43,46,215,27,44,25,040,27,23,16,315,29,1*48
$GBGSV,2,1,08,34,81,057,40,39,63,182,26,40,63,321,38,25,60,347,25,4*7C
$GBGSV,2,2,08,24,48,100,47,43,46,215,24,44,25,040,36,23,16,315,31,4*73
$GNACCURACY,3.9*1C
$PAIRSAT,1,35,2,0,201,3,0,200,4,0,221,5,0,200,6,0,200,7,0,201,8,0,221,9,0,221,10,0,200,11,0,200,12,0,200,13,0,200,14,0,200,15,0,200,16,0,201,17,0,200,18,0,200,19,0,200,20,0,200,21,0,201,22,0,200,23,0,200,24,0,200,25,0,200,26,0,220,27,0,221,28,0,200,29,0,200,30,0,220,31,0,201,32,0,200,194,0,621,195,0,621,196,0,620,199,0,621*5B
$PAIRSAT,2,24,65,0,200,66,0,200,67,0,200,68,0,200,69,0,200,70,0,200,71,0,200,72,0,200,73,0,201,74,0,200,75,0,200,76,0,200,77,0,200,78,0,200,79,0,201,80,0,201,81,0,201,82,0,201,83,0,201,84,0,200,85,0,200,86,0,200,87,0,200,88,0,200*7A
$PAIRSAT,3,23,2,0,1021,3,0,1200,4,0,1200,5,0,200,7,0,1221,8,0,1200,9,0,1200,10,0,1200,11,0,1000,12,0,1200,13,0,1200,15,0,1221,19,0,1200,21,0,1200,24,0,1200,25,0,1200,26,0,1200,27,0,1221,30,0,1221,31,0,1200,33,0,1200,34,0,1221,36,0,1200*6A
$PAIRSAT,4,46,1,0,200,2,0,200,3,0,600,4,0,200,5,0,200,6,0,201,7,0,201,8,0,200,9,0,201,10,0,201,11,0,201,12,0,201,13,0,200,14,0,200,16,0,201,19,0,600,20,0,600,21,0,600,22,0,600,23,0,621,24,0,621,25,0,621,26,0,600,27,0,600,28,0,600,29,0,600,30,0,600,32,0,600,33,0,600,34,0,621,35,0,600,36,0,600,37,0,600,38,0,600,39,0,421,40,0,421,41,0,400,42,0,400,43,0,421,44,0,421,45,0,400,46,0,400,59,0,400,60,0,400,61,0,400,62,0,400*48
$PAIRDGP,7,2,4,7,9,16,21,31*60
$GNGGA,040908.200,2500.8138700,N,12132.4733000,E,2,62,0.47,23.52,M,15.25,M,1,3335*71
$GNRMC,040908.200,A,2500.8138700,N,12132.4733000,E,0.02,53.69,030324,,,D,V*37
$GPHDT,,T*1B
$GNACCURACY,3.9*1C
$GNGGA,040908.300,2500.8138700,N,12132.4733000,E,2,63,0.47,23.51,M,15.25,M,1,3335*72
$GNRMC,040908.300,A,2500.8138700,N,12132.4733000,E,0.02,53.69,030324,,,D,V*36
$GPHDT,,T*1B
$GNACCURACY,3.9*1C
$GNGGA,040908.400,2500.8138700,N,12132.4733000,E,2,63,0.47,23.51,M,15.25,M,1,3335*75
$GNRMC,040908.400,A,2500.8138700,N,12132.4733000,E,0.02,53.69,030324,,,D,V*31
$GPHDT,,T*1B
$GNACCURACY,3.9*1C
$GNGGA,040908.500,2500.8138800,N,12132.4733000,E,2,63,0.47,23.50,M,15.25,M,1,3335*7A
$GNRMC,040908.500,A,2500.8138800,N,12132.4733000,E,0.02,53.69,030324,,,D,V*3F
$GPHDT,,T*1B
$GNACCURACY,3.9*1C
$GNGGA,040908.600,2500.8138800,N,12132.4733100,E,2,63,0.47,23.50,M,15.25,M,0,3335*79
$GNRMC,040908.600,A,2500.8138800,N,12132.4733100,E,0.02,53.69,030324,,,D,V*3D
$GPHDT,,T*1B
$GNACCURACY,3.9*1C
$GNGGA,040908.700,2500.8138800,N,12132.4733100,E,2,63,0.47,23.50,M,15.25,M,0,3335*78
$GNRMC,040908.700,A,2500.8138800,N,12132.4733100,E,0.02,53.69,030324,,,D,V*3C
$GPHDT,,T*1B
$GNACCURACY,3.9*1C
$GNGGA,040908.800,2500.8138800,N,12132.4733100,E,2,63,0.47,23.50,M,15.25,M,0,3335*77
$GNRMC,040908.800,A,2500.8138800,N,12132.4733100,E,0.02,53.69,030324,,,D,V*33
$GPHDT,,T*1B
$GNACCURACY,3.9*1C
$GNGGA,040908.900,2500.8138800,N,12132.4733100,E,2,63,0.47,23.50,M,15.25,M,0,3335*76
$GNRMC,040908.900,A,2500.8138800,N,12132.4733100,E,0.02,53.69,030324,,,D,V*32
$GPHDT,,T*1B
$GNACCURACY,3.9*1C
$GNGGA,040909.000,2500.8138800,N,12132.4733200,E,2,63,0.47,23.50,M,15.25,M,1,3335*7C
$GNRMC,040909.000,A,2500.8138800,N,12132.4733200,E,0.02,53.69,030324,,,D,V*39
$GPHDT,,T*1B
$GNACCURACY,3.9*1C
$GNGGA,040909.100,2500.8138900,N,12132.4733200,E,2,62,0.47,23.49,M,15.25,M,1,3335*75
$GNRMC,040909.100,A,2500.8138900,N,12132.4733200,E,0.02,53.69,030324,,,D,V*39
$GPHDT,,T*1B
$GNGSA,A,3,08,194,195,199,21,27,02,16,07,04,196,26,0.83,0.47,0.69,1*04
$GNGSA,A,3,09,,,,,,,,,,,,0.83,0.47,0.69,1*0F
$GNGSA,A,3,82,83,80,79,81,73,,,,,,,0.83,0.47,0.69,2*0F
$GNGSA,A,3,30,15,34,27,07,02,,,,,,,0.83,0.47,0.69,3*04
$GNGSA,A,3,34,06,09,16,11,40,39,07,25,10,12,24,0.83,0.47,0.69,4*06
$GNGSA,A,3,43,44,23,,,,,,,,,,0.83,0.47,0.69,4*05
$GPGSV,4,1,15,08,69,330,46,194,63,049,45,195,61,120,33,199,60,167,25,1*5C
$GPGSV,4,2,15,21,48,165,29,27,43,030,31,02,36,179,22,16,32,064,32,1*6E
$GPGSV,4,3,15,07,32,320,38,09,28,258,14,04,26,211,24,196,20,172,17,1*58
$GPGSV,4,4,15,26,13,090,27,31,09,140,26,30,02,320,18,1*59
$GPGSV,3,1,10,08,69,330,46,194,63,049,46,195,61,120,16,199,60,167,24,8*52
$GPGSV,3,2,10,27,43,030,34,09,28,258,25,04,26,211,23,196,20,172,21,8*58
$GPGSV,3,3,10,26,13,090,35,30,02,320,25,8*62
$GLGSV,2,1,07,82,63,044,44,83,63,178,18,80,50,018,40,79,33,092,34,1*78
$GLGSV,2,2,07,81,16,028,16,73,15,324,34,70,07,254,,1*4D
$GAGSV,2,1,07,30,50,035,41,15,49,149,32,34,43,069,28,27,37,318,36,7*7D
$GAGSV,2,2,07,07,32,232,31,02,15,083,31,08,11,182,,7*4F
$GAGSV,2,1,06,30,50,035,45,15,49,149,22,34,43,069,36,27,37,318,36,1*70
$GAGSV,2,2,06,07,32,232,24,02,15,083,31,1*7F
$GBGSV,4,1,15,34,81,057,36,06,77,216,33,09,75,286,38,16,74,196,30,1*78
$GBGSV,4,2,15,11,71,199,33,40,63,321,31,39,63,182,30,07,61,300,40,1*70
$GBGSV,4,3,15,25,60,347,30,10,52,282,38,12,49,041,43,24,48,100,44,1*75
$GBGSV,4,4,15,43,46,215,29,44,25,040,26,23,16,315,31,1*4E
$GBGSV,2,1,08,34,81,057,41,39,63,182,27,40,63,321,39,25,60,347,25,4*7D
$GBGSV,2,2,08,24,48,100,47,43,46,215,23,44,25,040,36,23,16,315,31,4*74
$GNACCURACY,3.9*1C
$PAIRSAT,1,35,2,0,201,3,0,200,4,0,221,5,0,200,6,0,200,7,0,201,8,0,221,9,0,221,10,0,200,11,0,200,12,0,200,13,0,200,14,0,200,15,0,200,16,0,201,17,0,200,18,0,200,19,0,200,20,0,200,21,0,201,22,0,200,23,0,200,24,0,200,25,0,200,26,0,220,27,0,221,28,0,200,29,0,200,30,0,220,31,0,201,32,0,200,194,0,621,195,0,621,196,0,620,199,0,621*5B
$PAIRSAT,2,24,65,0,200,66,0,200,67,0,200,68,0,200,69,0,200,70,0,200,71,0,200,72,0,200,73,0,201,74,0,200,75,0,200,76,0,200,77,0,200,78,0,200,79,0,201,80,0,201,81,0,201,82,0,201,83,0,201,84,0,200,85,0,200,86,0,200,87,0,200,88,0,200*7A
$PAIRSAT,3,23,2,0,1021,3,0,1200,4,0,1200,5,0,200,7,0,1221,8,0,1200,9,0,1200,10,0,1200,11,0,1000,12,0,1200,13,0,1200,15,0,1221,19,0,1200,21,0,1200,24,0,1200,25,0,1200,26,0,1200,27,0,1221,30,0,1221,31,0,1200,33,0,1200,34,0,1221,36,0,1200*6A
$PAIRSAT,4,46,1,0,200,2,0,200,3,0,600,4,0,200,5,0,200,6,0,201,7,0,201,8,0,200,9,0,201,10,0,201,11,0,201,12,0,201,13,0,200,14,0,200,16,0,201,19,0,600,20,0,600,21,0,600,22,0,600,23,0,621,24,0,621,25,0,621,26,0,600,27,0,600,28,0,600,29,0,600,30,0,600,32,0,600,33,0,600,34,0,621,35,0,600,36,0,600,37,0,600,38,0,600,39,0,421,40,0,421,41,0,400,42,0,400,43,0,421,44,0,421,45,0,400,46,0,400,59,0,400,60,0,400,61,0,400,62,0,400*48
$PAIRDGP,7,2,4,7,9,16,21,31*60
$GNGGA,040909.200,2500.8138900,N,12132.4733200,E,2,62,0.47,23.49,M,15.25,M,1,3335*76
$GNRMC,040909.200,A,2500.8138900,N,12132.4733200,E,0.02,53.69,030324,,,D,V*3A
$GPHDT,,T*1B
$GNACCURACY,3.9*1C
$GNGGA,040909.300,2500.8139100,N,12132.4733300,E,2,62,0.47,23.48,M,15.25,M,1,3335*7E
$GNRMC,040909.300,A,2500.8139100,N,12132.4733300,E,0.02,53.69,030324,,,D,V*33
$GPHDT,,T*1B
$GNACCURACY,3.9*1C
$GNGGA,040909.400,2500.8139100,N,12132.4733300,E,2,62,0.47,23.49,M,15.25,M,1,3335*78
$GNRMC,040909.400,A,2500.8139100,N,12132.4733300,E,0.02,53.69,030324,,,D,V*34
$GPHDT,,T*1B
$GNACCURACY,3.9*1C
$GNGGA,040909.500,2500.8139100,N,12132.4733300,E,2,63,0.47,23.48,M,15.25,M,1,3335*79
$GNRMC,040909.500,A,2500.8139100,N,12132.4733300,E,0.02,53.69,030324,,,D,V*35
$GPHDT,,T*1B
$GNACCURACY,3.9*1C
$GNGGA,040909.600,2500.8139100,N,12132.4733300,E,2,63,0.47,23.48,M,15.25,M,0,3335*7B
$GNRMC,040909.600,A,2500.8139100,N,12132.4733300,E,0.02,53.69,030324,,,D,V*36
$GPHDT,,T*1B
$GNACCURACY,3.9*1C
$GNGGA,040909.700,2500.8139200,N,12132.4733300,E,2,63,0.47,23.48,M,15.25,M,0,3335*79
$GNRMC,040909.700,A,2500.8139200,N,12132.4733300,E,0.02,53.69,030324,,,D,V*34
$GPHDT,,T*1B
$GNACCURACY,3.9*1C
$GNGGA,040909.800,2500.8139300,N,12132.4733300,E,2,63,0.47,23.48,M,15.25,M,0,3335*77
$GNRMC,040909.800,A,2500.8139300,N,12132.4733300,E,0.02,53.69,030324,,,D,V*3A
$GPHDT,,T*1B
$GNACCURACY,3.9*1C
$GNGGA,040909.900,2500.8139300,N,12132.4733400,E,2,63,0.47,23.47,M,15.25,M,0,3335*7E
$GNRMC,040909.900,A,2500.8139300,N,12132.4733400,E,0.02,53.69,030324,,,D,V*3C
$GPHDT,,T*1B
$GNACCURACY,3.9*1C
$GNGGA,040910.000,2500.8139400,N,12132.4733400,E,2,63,0.47,23.47,M,15.25,M,1,3335*79
$GNRMC,040910.000,A,2500.8139400,N,12132.4733400,E,0.02,53.69,030324,,,D,V*3A
$GPHDT,,T*1B
$GNACCURACY,3.9*1C
$GNGGA,040910.100,2500.8139400,N,12132.4733400,E,2,63,0.47,23.47,M,15.25,M,1,3335*78
$GNRMC,040910.100,A,2500.8139400,N,12132.4733400,E,0.02,53.69,030324,,,D,V*3B
$GPHDT,,T*1B
$GNGSA,A,3,08,194,195,199,21,27,02,16,07,09,04,196,0.83,0.47,0.69,1*09
$GNGSA,A,3,26,,,,,,,,,,,,0.83,0.47,0.69,1*02
$GNGSA,A,3,82,83,80,79,81,73,,,,,,,0.83,0.47,0.69,2*0F
$GNGSA,A,3,30,15,34,27,07,02,,,,,,,0.83,0.47,0.69,3*04
$GNGSA,A,3,34,06,09,16,11,40,39,07,25,10,12,24,0.83,0.47,0.69,4*06
$GNGSA,A,3,43,44,23,,,,,,,,,,0.83,0.47,0.69,4*05
$GPGSV,4,1,15,08,69,330,47,194,63,049,45,195,61,120,35,199,60,167,25,1*5B
$GPGSV,4,2,15,21,48,165,30,27,43,030,30,02,36,179,20,16,32,064,31,1*66
$GPGSV,4,3,15,07,32,320,38,09,28,258,21,04,26,211,28,196,20,172,17,1*52
$GPGSV,4,4,15,26,13,090,29,31,09,140,30,30,02,320,21,1*5A
$GPGSV,3,1,10,08,69,330,46,194,63,049,47,195,61,120,16,199,60,167,27,8*50
$GPGSV,3,2,10,27,43,030,34,09,28,258,28,04,26,211,33,196,20,172,22,8*57
$GPGSV,3,3,10,26,13,090,32,30,02,320,22,8*62
$GLGSV,2,1,07,82,63,044,45,83,63,178,19,80,50,018,40,79,33,092,33,1*7F
$GLGSV,2,2,07,81,16,028,15,73,15,324,31,84,03,200,,1*45
$GAGSV,2,1,07,30,50,035,42,15,49,149,34,34,43,068,30,27,37,318,37,7*71
$GAGSV,2,2,07,07,32,232,31,02,15,083,30,08,11,182,,7*4E
$GAGSV,2,1,06,30,50,035,44,15,49,149,20,34,43,068,36,27,37,318,36,1*72
$GAGSV,2,2,06,07,32,232,24,02,15,083,28,1*77
$GBGSV,4,1,15,34,81,057,36,06,77,216,33,09,75,286,38,16,74,196,31,1*79
$GBGSV,4,2,15,11,71,199,33,40,63,321,28,39,63,182,35,07,61,300,41,1*7C
$GBGSV,4,3,15,25,60,347,29,10,52,282,38,12,49,041,43,24,48,100,44,1*7D
$GBGSV,4,4,15,43,46,215,24,44,25,040,31,23,16,315,30,1*44
$GBGSV,2,1,08,34,81,057,41,39,63,182,28,40,63,321,38,25,60,347,24,4*72
$GBGSV,2,2,08,24,48,100,46,43,46,215,21,44,25,040,37,23,16,315,31,4*76
$GNACCURACY,3.9*1C
$PAIRSAT,1,35,2,0,201,3,0,200,4,0,221,5,0,200,6,0,200,7,0,201,8,0,221,9,0,221,10,0,200,11,0,200,12,0,200,13,0,200,14,0,200,15,0,200,16,0,201,17,0,200,18,0,200,19,0,200,20,0,200,21,0,201,22,0,200,23,0,200,24,0,200,25,0,200,26,0,220,27,0,221,28,0,200,29,0,200,30,0,220,31,0,201,32,0,200,194,0,621,195,0,621,196,0,620,199,0,621*5B
$PAIRSAT,2,24,65,0,200,66,0,200,67,0,200,68,0,200,69,0,200,70,0,200,71,0,200,72,0,200,73,0,201,74,0,200,75,0,200,76,0,200,77,0,200,78,0,200,79,0,201,80,0,201,81,0,201,82,0,201,83,0,201,84,0,200,85,0,200,86,0,200,87,0,200,88,0,200*7A
$PAIRSAT,3,23,2,0,1021,3,0,1200,4,0,1200,5,0,200,7,0,1221,8,0,1200,9,0,1200,10,0,1200,11,0,1000,12,0,1200,13,0,1200,15,0,1221,19,0,1200,21,0,1200,24,0,1200,25,0,1200,26,0,1200,27,0,1221,30,0,1221,31,0,1200,33,0,1200,34,0,1221,36,0,1200*6A
$PAIRSAT,4,46,1,0,200,2,0,200,3,0,600,4,0,200,5,0,200,6,0,201,7,0,201,8,0,200,9,0,201,10,0,201,11,0,201,12,0,201,13,0,200,14,0,200,16,0,201,19,0,600,20,0,600,21,0,600,22,0,600,23,0,621,24,0,621,25,0,621,26,0,600,27,0,600,28,0,600,29,0,600,30,0,600,32,0,600,33,0,600,34,0,621,35,0,600,36,0,600,37,0,600,38,0,600,39,0,421,40,0,421,41,0,400,42,0,400,43,0,421,44,0,421,45,0,400,46,0,400,59,0,400,60,0,400,61,0,400,62,0,400*48
$PAIRDGP,7,2,4,7,9,16,21,31*60
$GNGGA,040910.200,2500.8139500,N,12132.4733400,E,2,63,0.47,23.47,M,15.25,M,1,3335*7A
$GNRMC,040910.200,A,2500.8139500,N,12132.4733400,E,0.02,53.69,030324,,,D,V*39
$GPHDT,,T*1B
$GNACCURACY,3.9*1C
$GNGGA,040910.300,2500.8139500,N,12132.4733500,E,2,63,0.47,23.46,M,15.25,M,1,3335*7B
$GNRMC,040910.300,A,2500.8139500,N,12132.4733500,E,0.02,53.69,030324,,,D,V*39
$GPHDT,,T*1B
$GNACCURACY,3.9*1C
$GNGGA,040910.400,2500.8139500,N,12132.4733500,E,2,63,0.47,23.46,M,15.25,M,1,3335*7C
$GNRMC,040910.400,A,2500.8139500,N,12132.4733500,E,0.02,53.69,030324,,,D,V*3E
$GPHDT,,T*1B
$GNACCURACY,3.9*1C
$GNGGA,040910.500,2500.8139600,N,12132.4733500,E,2,63,0.47,23.46,M,15.25,M,1,3335*7E
$GNRMC,040910.500,A,2500.8139600,N,12132.4733500,E,0.01,53.69,030324,,,D,V*3F
$GPHDT,,T*1B
$GNACCURACY,3.9*1C
$GNGGA,040910.600,2500.8139700,N,12132.4733500,E,2,63,0.47,23.45,M,15.25,M,0,3335*7E
$GNRMC,040910.600,A,2500.8139700,N,12132.4733500,E,0.02,53.69,030324,,,D,V*3E
$GPHDT,,T*1B
$GNACCURACY,3.9*1C
$GNGGA,040910.700,2500.8139700,N,12132.4733500,E,2,63,0.47,23.45,M,15.25,M,0,3335*7F
$GNRMC,040910.700,A,2500.8139700,N,12132.4733500,E,0.02,53.69,030324,,,D,V*3F
$GPHDT,,T*1B
$GNACCURACY,3.9*1C
$GNGGA,040910.800,2500.8139700,N,12132.4733500,E,2,63,0.47,23.44,M,15.25,M,0,3335*71
$GNRMC,040910.800,A,2500.8139700,N,12132.4733500,E,0.02,53.69,030324,,,D,V*30
$GPHDT,,T*1B
$GNACCURACY,3.9*1C
$GNGGA,040910.900,2500.8139700,N,12132.4733500,E,2,63,0.47,23.44,M,15.25,M,0,3335*70
$GNRMC,040910.900,A,2500.8139700,N,12132.4733500,E,0.01,53.69,030324,,,D,V*32
$GPHDT,,T*1B
$GNACCURACY,3.9*1C
$GNGGA,040911.000,2500.8139800,N,12132.4733500,E,2,62,0.47,23.43,M,15.25,M,1,3335*70
$GNRMC,040911.000,A,2500.8139800,N,12132.4733500,E,0.01,53.69,030324,,,D,V*35
$GPHDT,,T*1B
$GNACCURACY,3.9*1C
$GNGGA,040911.100,2500.8139800,N,12132.4733500,E,2,62,0.47,23.43,M,15.25,M,1,3335*71
$GNRMC,040911.100,A,2500.8139800,N,12132.4733500,E,0.01,53.69,030324,,,D,V*34
$GPHDT,,T*1B
$GNGSA,A,3,08,194,195,199,21,27,02,07,16,09,196,26,0.83,0.47,0.69,1*09
$GNGSA,A,3,04,,,,,,,,,,,,0.83,0.47,0.69,1*02
$GNGSA,A,3,82,83,80,79,81,73,,,,,,,0.83,0.47,0.69,2*0F
$GNGSA,A,3,30,15,34,27,07,02,,,,,,,0.83,0.47,0.69,3*04
$GNGSA,A,3,34,06,09,16,11,39,40,07,25,10,12,24,0.83,0.47,0.69,4*06
$GNGSA,A,3,43,44,23,,,,,,,,,,0.83,0.47,0.69,4*05
$GPGSV,4,1,16,08,69,330,47,194,63,049,45,195,61,120,36,199,60,167,25,1*5B
$GPGSV,4,2,16,21,48,165,27,27,43,030,32,02,36,179,19,07,32,320,37,1*6E
$GPGSV,4,3,16,16,32,064,31,09,28,258,16,04,26,211,17,196,20,172,18,1*5C
$GPGSV,4,4,16,26,13,090,27,31,09,140,31,30,02,320,21,49,01,265,,1*6B
$GPGSV,3,1,10,08,69,330,46,194,63,049,47,195,61,120,14,199,60,167,27,8*52
$GPGSV,3,2,10,27,43,030,36,09,28,258,28,04,26,211,30,196,20,172,19,8*5E
$GPGSV,3,3,10,26,13,090,32,30,02,320,20,8*60
$GLGSV,3,1,09,82,63,044,44,83,63,178,18,80,50,018,40,79,33,092,32,1*71
$GLGSV,3,2,09,81,16,028,16,73,15,324,30,70,07,253,,71,05,299,,1*70
$GLGSV,3,3,09,84,03,200,,1*4C
$GAGSV,2,1,08,30,50,035,42,15,49,149,34,34,43,068,33,27,37,318,38,7*72
$GAGSV,2,2,08,07,32,232,32,02,15,083,31,08,11,182,,36,03,034,,7*72
$GAGSV,2,1,06,30,50,035,44,15,49,149,18,34,43,068,36,27,37,318,35,1*7A
$GAGSV,2,2,06,07,32,232,24,02,15,083,25,1*7A
$GBGSV,4,1,16,34,81,057,38,06,77,216,32,09,75,286,38,16,74,196,32,1*76
$GBGSV,4,2,16,11,71,199,34,39,63,182,36,40,63,321,22,07,61,300,41,1*71
$GBGSV,4,3,16,25,60,347,32,10,52,282,38,12,49,041,43,24,48,100,44,1*74
$GBGSV,4,4,16,43,46,215,25,44,25,040,31,23,16,315,25,26,04,122,,1*73
$GBGSV,2,1,08,34,81,057,40,39,63,182,28,40,63,321,38,25,60,347,27,4*70
$GBGSV,2,2,08,24,48,100,46,43,46,215,22,44,25,040,37,23,16,315,31,4*75
$GNACCURACY,3.9*1C
$PAIRSAT,1,35,2,0,201,3,0,200,4,0,221,5,0,200,6,0,200,7,0,201,8,0,221,9,0,221,10,0,200,11,0,200,12,0,200,13,0,200,14,0,200,15,0,200,16,0,201,17,0,200,18,0,200,19,0,200,20,0,200,21,0,201,22,0,200,23,0,200,24,0,200,25,0,200,26,0,220,27,0,221,28,0,200,29,0,200,30,0,220,31,0,201,32,0,200,194,0,621,195,0,621,196,0,620,199,0,621*5B
$PAIRSAT,2,24,65,0,200,66,0,200,67,0,200,68,0,200,69,0,200,70,0,200,71,0,200,72,0,200,73,0,201,74,0,200,75,0,200,76,0,200,77,0,200,78,0,200,79,0,201,80,0,201,81,0,201,82,0,201,83,0,201,84,0,200,85,0,200,86,0,200,87,0,200,88,0,200*7A
$PAIRSAT,3,23,2,0,1021,3,0,1200,4,0,1200,5,0,200,7,0,1221,8,0,1200,9,0,1200,10,0,1200,11,0,1000,12,0,1200,13,0,1200,15,0,1221,19,0,1200,21,0,1200,24,0,1200,25,0,1200,26,0,1200,27,0,1221,30,0,1221,31,0,1200,33,0,1200,34,0,1221,36,0,1200*6A
$PAIRSAT,4,46,1,0,200,2,0,200,3,0,600,4,0,200,5,0,200,6,0,201,7,0,201,8,0,200,9,0,201,10,0,201,11,0,201,12,0,201,13,0,200,14,0,200,16,0,201,19,0,600,20,0,600,21,0,600,22,0,600,23,0,621,24,0,621,25,0,621,26,0,600,27,0,600,28,0,600,29,0,600,30,0,600,32,0,600,33,0,600,34,0,621,35,0,600,36,0,600,37,0,600,38,0,600,39,0,421,40,0,421,41,0,400,42,0,400,43,0,421,44,0,421,45,0,400,46,0,400,59,0,400,60,0,400,61,0,400,62,0,400*48
$PAIRDGP,7,2,4,7,9,16,21,31*60
$GNGGA,040911.200,2500.8139900,N,12132.4733500,E,2,62,0.47,23.43,M,15.25,M,1,3335*73
$GNRMC,040911.200,A,2500.8139900,N,12132.4733500,E,0.01,53.69,030324,,,D,V*36
$GPHDT,,T*1B
$GNACCURACY,3.9*1C
$GNGGA,040911.300,2500.8140000,N,12132.4733600,E,2,62,0.47,23.42,M,15.25,M,1,3335*77
$GNRMC,040911.300,A,2500.8140000,N,12132.4733600,E,0.01,53.69,030324,,,D,V*33
$GPHDT,,T*1B
$GNACCURACY,3.9*1C
$GNGGA,040911.400,2500.8140000,N,12132.4733600,E,2,62,0.47,23.42,M,15.25,M,1,3335*70
$GNRMC,040911.400,A,2500.8140000,N,12132.4733600,E,0.01,53.69,030324,,,D,V*34
$GPHDT,,T*1B
$GNACCURACY,3.9*1C
$GNGGA,040911.500,2500.8140100,N,12132.4733600,E,2,62,0.47,23.42,M,15.25,M,1,3335*70
$GNRMC,040911.500,A,2500.8140100,N,12132.4733600,E,0.01,53.69,030324,,,D,V*34
$GPHDT,,T*1B
$GNACCURACY,3.9*1C
$GNGGA,040911.600,2500.8140100,N,12132.4733600,E,2,63,0.47,23.41,M,15.25,M,0,3335*70
$GNRMC,040911.600,A,2500.8140100,N,12132.4733600,E,0.01,53.69,030324,,,D,V*37
$GPHDT,,T*1B
$GNACCURACY,3.9*1C
$GNGGA,040911.700,2500.8140200,N,12132.4733600,E,2,62,0.47,23.41,M,15.25,M,0,3335*73
$GNRMC,040911.700,A,2500.8140200,N,12132.4733600,E,0.01,53.69,030324,,,D,V*35
$GPHDT,,T*1B
$GNACCURACY,3.9*1C
$GNGGA,040911.800,2500.8140300,N,12132.4733600,E,2,62,0.47,23.40,M,15.25,M,0,3335*7C
$GNRMC,040911.800,A,2500.8140300,N,12132.4733600,E,0.01,53.69,030324,,,D,V*3B
$GPHDT,,T*1B
$GNACCURACY,3.9*1C
$GNGGA,040911.900,2500.8140300,N,12132.4733700,E,2,62,0.47,23.39,M,15.25,M,0,3335*72
$GNRMC,040911.900,A,2500.8140300,N,12132.4733700,E,0.01,53.69,030324,,,D,V*3B
$GPHDT,,T*1B
$GNACCURACY,3.8*1D
$GNGGA,040912.000,2500.8140400,N,12132.4733700,E,2,61,0.47,23.39,M,15.25,M,1,3335*7D
$GNRMC,040912.000,A,2500.8140400,N,12132.4733700,E,0.01,53.69,030324,,,D,V*36
$GPHDT,,T*1B
$GNACCURACY,3.8*1D
$GNGGA,040912.100,2500.8140400,N,12132.4733700,E,2,62,0.47,23.38,M,15.25,M,1,3335*7E
$GNRMC,040912.100,A,2500.8140400,N,12132.4733700,E,0.01,53.69,030324,,,D,V*37
$GPHDT,,T*1B
$GNGSA,A,3,08,194,195,199,21,27,02,07,16,09,04,196,0.83,0.47,0.69,1*09
$GNGSA,A,3,26,,,,,,,,,,,,0.83,0.47,0.69,1*02
$GNGSA,A,3,82,83,80,79,81,73,,,,,,,0.83,0.47,0.69,2*0F
$GNGSA,A,3,30,15,34,27,07,02,,,,,,,0.83,0.47,0.69,3*04
$GNGSA,A,3,34,06,09,16,11,39,40,07,25,10,12,24,0.83,0.47,0.69,4*06
$GNGSA,A,3,43,44,23,,,,,,,,,,0.83,0.47,0.69,4*05
$GPGSV,4,1,16,08,69,330,47,194,63,049,45,195,61,120,33,199,60,167,24,1*5F
$GPGSV,4,2,16,21,48,165,28,27,43,030,31,02,36,179,19,07,32,320,36,1*63
$GPGSV,4,3,16,16,32,064,30,09,28,258,17,04,26,211,23,196,20,172,18,1*5B
$GPGSV,4,4,16,26,13,090,27,31,09,140,31,30,02,320,19,49,01,265,,1*60
$GPGSV,3,1,10,08,69,330,46,194,63,049,45,195,61,120,11,199,60,167,25,8*57
$GPGSV,3,2,10,27,43,030,34,09,28,258,28,04,26,211,30,196,20,172,18,8*5D
$GPGSV,3,3,10,26,13,090,32,30,02,320,19,8*6A
$GLGSV,2,1,06,82,63,044,44,83,63,178,18,80,50,018,40,79,33,092,31,1*7C
$GLGSV,2,2,06,81,16,028,16,73,15,324,29,1*73
$GAGSV,2,1,08,30,50,035,42,15,49,149,34,34,43,068,32,27,37,318,38,7*73
$GAGSV,2,2,08,07,32,232,30,02,15,083,31,08,11,182,,36,03,034,,7*70
$GAGSV,2,1,05,30,50,035,44,15,49,149,20,34,43,068,36,27,37,318,34,1*73
$GAGSV,2,2,05,02,15,083,25,1*4A
$GBGSV,4,1,15,34,81,057,38,06,77,216,32,09,75,286,38,16,74,196,33,1*74
$GBGSV,4,2,15,11,71,199,34,39,63,182,34,40,63,321,20,07,61,300,41,1*72
$GBGSV,4,3,15,25,60,347,32,10,52,282,38,12,49,041,43,24,48,100,44,1*77
$GBGSV,4,4,15,43,46,215,27,44,25,040,31,23,16,315,24,1*42
$GBGSV,2,1,08,34,81,057,40,39,63,182,27,40,63,321,38,25,60,347,27,4*7F
$GBGSV,2,2,08,24,48,100,46,43,46,215,17,44,25,040,37,23,16,315,31,4*73
$GNACCURACY,3.8*1D
$PAIRSAT,1,35,2,0,201,3,0,200,4,0,221,5,0,200,6,0,200,7,0,201,8,0,221,9,0,221,10,0,200,11,0,200,12,0,200,13,0,200,14,0,200,15,0,200,16,0,201,17,0,200,18,0,200,19,0,200,20,0,200,21,0,201,22,0,200,23,0,200,24,0,200,25,0,200,26,0,220,27,0,221,28,0,200,29,0,200,30,0,220,31,0,201,32,0,200,194,0,621,195,0,621,196,0,620,199,0,621*5B
$PAIRSAT,2,24,65,0,200,66,0,200,67,0,200,68,0,200,69,0,200,70,0,200,71,0,200,72,0,200,73,0,201,74,0,200,75,0,200,76,0,200,77,0,200,78,0,200,79,0,201,80,0,201,81,0,201,82,0,201,83,0,201,84,0,200,85,0,200,86,0,200,87,0,200,88,0,200*7A
$PAIRSAT,3,23,2,0,1021,3,0,1200,4,0,1200,5,0,200,7,0,1221,8,0,1200,9,0,1200,10,0,1200,11,0,1000,12,0,1200,13,0,1200,15,0,1221,19,0,1200,21,0,1200,24,0,1200,25,0,1200,26,0,1200,27,0,1221,30,0,1221,31,0,1200,33,0,1200,34,0,1221,36,0,1200*6A
$PAIRSAT,4,46,1,0,200,2,0,200,3,0,600,4,0,200,5,0,200,6,0,201,7,0,201,8,0,200,9,0,201,10,0,201,11,0,201,12,0,201,13,0,200,14,0,200,16,0,201,19,0,600,20,0,600,21,0,600,22,0,600,23,0,621,24,0,621,25,0,621,26,0,600,27,0,600,28,0,600,29,0,600,30,0,600,32,0,600,33,0,600,34,0,621,35,0,600,36,0,600,37,0,600,38,0,600,39,0,421,40,0,421,41,0,400,42,0,400,43,0,421,44,0,421,45,0,400,46,0,400,59,0,400,60,0,400,61,0,400,62,0,400*48
$PAIRDGP,7,2,4,7,9,16,21,31*60
$GNGGA,040912.200,2500.8140500,N,12132.4733700,E,2,62,0.47,23.38,M,15.25,M,1,3335*7C
$GNRMC,040912.200,A,2500.8140500,N,12132.4733700,E,0.01,53.69,030324,,,D,V*35
$GPHDT,,T*1B
$GNACCURACY,3.8*1D
$GNGGA,040912.300,2500.8140600,N,12132.4733700,E,2,62,0.47,23.37,M,15.25,M,1,3335*71
$GNRMC,040912.300,A,2500.8140600,N,12132.4733700,E,0.01,53.69,030324,,,D,V*37
$GPHDT,,T*1B
$GNACCURACY,3.9*1C
$GNGGA,040912.400,2500.8140600,N,12132.4733700,E,2,62,0.47,23.37,M,15.25,M,1,3335*76
$GNRMC,040912.400,A,2500.8140600,N,12132.4733700,E,0.01,53.69,030324,,,D,V*30
$GPHDT,,T*1B
$GNACCURACY,3.9*1C
$GNGGA,040912.500,2500.8140700,N,12132.4733800,E,2,61,0.47,23.36,M,15.25,M,0,3335*7A
$GNRMC,040912.500,A,2500.8140700,N,12132.4733800,E,0.01,53.69,030324,,,D,V*3F
$GPHDT,,T*1B
$GNACCURACY,3.9*1C
$GNGGA,040912.600,2500.8140700,N,12132.4733800,E,2,61,0.47,23.35,M,15.25,M,0,3335*7A
$GNRMC,040912.600,A,2500.8140700,N,12132.4733800,E,0.01,53.69,030324,,,D,V*3C
$GPHDT,,T*1B
$GNACCURACY,3.9*1C
$GNGGA,040912.700,2500.8140800,N,12132.4733800,E,2,61,0.47,23.35,M,15.25,M,0,3335*74
$GNRMC,040912.700,A,2500.8140800,N,12132.4733800,E,0.01,53.69,030324,,,D,V*32
$GPHDT,,T*1B
$GNACCURACY,3.9*1C
$GNGGA,040912.800,2500.8140900,N,12132.4733900,E,2,61,0.47,23.34,M,15.25,M,0,3335*7A
$GNRMC,040912.800,A,2500.8140900,N,12132.4733900,E,0.01,53.69,030324,,,D,V*3D
$GPHDT,,T*1B
$GNACCURACY,3.9*1C
$GNGGA,040912.900,2500.8140900,N,12132.4733900,E,2,60,0.47,23.34,M,15.25,M,0,3335*7A
$GNRMC,040912.900,A,2500.8140900,N,12132.4733900,E,0.01,53.69,030324,,,D,V*3C
$GPHDT,,T*1B
$GNACCURACY,3.9*1C
$GNGGA,040913.000,2500.8141000,N,12132.4733900,E,2,60,0.47,23.33,M,15.25,M,1,3335*7C
$GNRMC,040913.000,A,2500.8141000,N,12132.4733900,E,0.01,53.69,030324,,,D,V*3C
$GPHDT,,T*1B
$GNACCURACY,3.9*1C
$GNGGA,040913.100,2500.8141000,N,12132.4733900,E,2,59,0.47,23.32,M,15.25,M,1,3335*76
$GNRMC,040913.100,A,2500.8141000,N,12132.4733900,E,0.01,53.69,030324,,,D,V*3D
$GPHDT,,T*1B
$GNGSA,A,3,08,194,195,199,21,27,02,16,07,09,196,26,0.83,0.47,0.69,1*09
$GNGSA,A,3,04,,,,,,,,,,,,0.83,0.47,0.69,1*02
$GNGSA,A,3,83,82,80,79,81,73,,,,,,,0.83,0.47,0.69,2*0F
$GNGSA,A,3,30,15,34,27,07,02,,,,,,,0.83,0.47,0.69,3*04
$GNGSA,A,3,34,06,09,16,11,40,39,07,25,10,12,24,0.83,0.47,0.69,4*06
$GNGSA,A,3,43,44,23,,,,,,,,,,0.83,0.47,0.69,4*05
$GPGSV,4,1,15,08,69,330,47,194,63,049,45,195,61,120,34,199,60,167,24,1*5B
$GPGSV,4,2,15,21,48,165,25,27,43,030,30,02,36,179,22,16,32,064,29,1*69
$GPGSV,4,3,15,07,32,320,37,09,28,258,20,04,26,211,23,196,20,172,18,1*58
$GPGSV,4,4,15,26,13,090,27,31,09,140,31,30,02,320,17,1*50
$GPGSV,3,1,09,08,69,330,46,194,63,049,46,199,60,167,25,27,43,030,34,8*63
$GPGSV,3,2,09,09,28,258,28,04,26,211,30,196,20,172,17,26,13,090,32,8*52
$GPGSV,3,3,09,30,02,320,19,8*5C
$GLGSV,2,1,06,83,63,178,16,82,63,044,44,80,50,018,40,79,33,092,33,1*70
$GLGSV,2,2,06,81,16,028,14,73,15,324,29,1*71
$GAGSV,2,1,07,30,50,035,42,15,49,149,34,34,43,068,31,27,37,318,38,7*7F
$GAGSV,2,2,07,07,32,232,29,02,15,083,31,36,03,034,,7*44
$GAGSV,2,1,05,30,50,035,44,15,49,149,22,34,43,068,36,27,37,318,35,1*70
$GAGSV,2,2,05,02,15,083,25,1*4A
$GBGSV,4,1,15,34,81,057,38,06,77,216,33,09,75,286,39,16,74,196,32,1*75
$GBGSV,4,2,15,11,72,199,35,40,63,321,20,39,63,182,34,07,61,300,41,1*70
$GBGSV,4,3,15,25,60,347,34,10,52,282,38,12,49,041,43,24,48,100,44,1*71
$GBGSV,4,4,15,43,46,215,26,44,25,040,31,23,16,315,24,1*43
$GBGSV,2,1,07,34,81,057,41,39,63,182,29,40,63,321,38,25,60,347,27,4*7F
$GBGSV,2,2,07,24,48,100,46,44,25,040,37,23,16,315,31,4*49
$GNACCURACY,3.9*1C
$PAIRSAT,1,35,2,0,201,3,0,200,4,0,221,5,0,200,6,0,200,7,0,201,8,0,221,9,0,221,10,0,200,11,0,200,12,0,200,13,0,200,14,0,200,15,0,200,16,0,201,17,0,200,18,0,200,19,0,200,20,0,200,21,0,201,22,0,200,23,0,200,24,0,200,25,0,200,26,0,220,27,0,221,28,0,200,29,0,200,30,0,220,31,0,201,32,0,200,194,0,621,195,0,621,196,0,620,199,0,621*5B
$PAIRSAT,2,24,65,0,200,66,0,200,67,0,200,68,0,200,69,0,200,70,0,200,71,0,200,72,0,200,73,0,201,74,0,200,75,0,200,76,0,200,77,0,200,78,0,200,79,0,201,80,0,201,81,0,201,82,0,201,83,0,201,84,0,200,85,0,200,86,0,200,87,0,200,88,0,200*7A
$PAIRSAT,3,23,2,0,1021,3,0,1200,4,0,1200,5,0,200,7,0,1221,8,0,1200,9,0,1200,10,0,1200,11,0,1000,12,0,1200,13,0,1200,15,0,1221,19,0,1200,21,0,1200,24,0,1200,25,0,1200,26,0,1200,27,0,1221,30,0,1221,31,0,1200,33,0,1200,34,0,1221,36,0,1200*6A
$PAIRSAT,4,46,1,0,200,2,0,200,3,0,600,4,0,200,5,0,200,6,0,201,7,0,201,8,0,200,9,0,201,10,0,201,11,0,201,12,0,201,13,0,200,14,0,200,16,0,201,19,0,600,20,0,600,21,0,600,22,0,600,23,0,621,24,0,621,25,0,621,26,0,600,27,0,600,28,0,600,29,0,600,30,0,600,32,0,600,33,0,600,34,0,621,35,0,600,36,0,600,37,0,600,38,0,600,39,0,421,40,0,421,41,0,400,42,0,400,43,0,421,44,0,421,45,0,400,46,0,400,59,0,400,60,0,400,61,0,400,62,0,400*48
$PAIRDGP,7,2,4,7,9,16,21,31*60
$GNGGA,040913.200,2500.8141000,N,12132.4734000,E,2,59,0.47,23.32,M,15.25,M,1,3335*7B
$GNRMC,040913.200,A,2500.8141000,N,12132.4734000,E,0.01,53.69,030324,,,D,V*30
$GPHDT,,T*1B
$GNACCURACY,3.9*1C
$GNGGA,040913.300,2500.8141100,N,12132.4734000,E,2,60,0.47,23.31,M,15.25,M,1,3335*72
$GNRMC,040913.300,A,2500.8141100,N,12132.4734000,E,0.01,53.69,030324,,,D,V*30
$GPHDT,,T*1B
$GNACCURACY,3.9*1C
$GNGGA,040913.400,2500.8141200,N,12132.4734000,E,2,58,0.47,23.30,M,15.25,M,1,3335*7C
$GNRMC,040913.400,A,2500.8141200,N,12132.4734000,E,0.01,53.69,030324,,,D,V*34
$GPHDT,,T*1B
$GNACCURACY,3.9*1C
$GNGGA,040913.500,2500.8141200,N,12132.4734000,E,2,58,0.47,23.30,M,15.25,M,1,3335*7D
$GNRMC,040913.500,A,2500.8141200,N,12132.4734000,E,0.01,53.69,030324,,,D,V*35
$GPHDT,,T*1B
