$FW : RTK35X,V1.1X0314AS,Lib20210517,1*54
$Tool : LOCOSYS , GNSS Firebird , v1.0.0.19*39
$---------------------------------------------------*2D
,08,69,330,46,194,63,049,34,195,61,120,25,199,60,167,24,1*5C
$GPGSV,4,2,15,21,48,165,29,27,42,030,21,02,36,179,28,16,32,064,26,1*61
$GPGSV,4,3,15,07,32,320,39,09,28,258,21,04,26,210,27,196,20,172,,1*5B
$GPGSV,4,4,15,26,13,090,26,31,09,140,28,30,02,320,24,1*59
$GPGSV,2,1,08,08,69,330,42,194,63,049,29,195,61,120,30,199,60,167,32,8*54
$GPGSV,2,2,08,27,42,030,28,196,20,172,21,26,13,090,24,30,02,320,26,8*59
$GLGSV,2,1,06,82,63,044,37,83,63,178,16,80,50,018,32,79,32,092,18,1*79
$GLGSV,2,2,06,73,15,324,23,81,15,028,15,1*79
$GAGSV,2,1,06,30,50,036,30,15,49,149,33,34,43,068,22,27,37,318,35,7*70
$GAGSV,2,2,06,07,32,231,16,02,15,083,17,7*7F
$GAGSV,2,1,05,30,50,036,19,34,43,068,27,27,37,318,42,07,32,231,29,1*73
$GAGSV,2,2,05,02,15,083,21,1*4E
$GBGSV,4,1,15,34,81,056,30,06,77,216,27,09,75,285,34,16,74,196,29,1*7D
$GBGSV,4,2,15,11,72,199,28,39,63,182,36,40,63,321,33,07,61,300,39,1*73
$GBGSV,4,3,15,25,61,348,29,10,52,282,31,12,49,041,24,24,48,101,39,1*70
$GBGSV,4,4,15,43,46,215,29,44,25,040,24,23,16,315,35,1*48
$GBGSV,2,1,08,34,81,056,37,39,63,182,32,40,63,321,37,25,61,348,31,4*7C
$GBGSV,2,2,08,24,48,101,41,43,46,215,17,44,25,040,23,23,16,315,34,4*75
$GNACCURACY,4.3*11
$PAIRSAT,1,35,2,0,201,3,0,200,4,0,221,5,0,200,6,0,200,7,0,201,8,0,221,9,0,221,10,0,200,11,0,200,12,0,200,13,0,200,14,0,200,15,0,200,16,0,201,17,0,200,18,0,200,19,0,200,20,0,200,21,0,201,22,0,200,23,0,200,24,0,200,25,0,200,26,0,220,27,0,221,28,0,200,29,0,200,30,0,220,31,0,201,32,0,200,194,0,621,195,0,621,196,0,620,199,0,621*5B
$PAIRSAT,2,24,65,0,200,66,0,200,67,0,200,68,0,200,69,0,200,70,0,200,71,0,200,72,0,200,73,0,201,74,0,200,75,0,200,76,0,200,77,0,200,78,0,200,79,0,201,80,0,201,81,0,201,82,0,201,83,0,201,84,0,200,85,0,200,86,0,200,87,0,200,88,0,200*7A
$PAIRSAT,3,23,2,0,1021,3,0,1200,4,0,1200,5,0,200,7,0,1221,8,0,1200,9,0,1200,10,0,1200,11,0,1200,12,0,1200,13,0,1200,15,0,1221,19,0,1200,21,0,1200,24,0,1200,25,0,1200,26,0,1200,27,0,1221,30,0,1221,31,0,1200,33,0,1200,34,0,1221,36,0,1200*68
$PAIRSAT,4,46,1,0,200,2,0,200,3,0,600,4,0,200,5,0,200,6,0,201,7,0,201,8,0,200,9,0,201,10,0,201,11,0,201,12,0,201,13,0,200,14,0,200,16,0,201,19,0,600,20,0,600,21,0,600,22,0,600,23,0,621,24,0,621,25,0,621,26,0,600,27,0,600,28,0,600,29,0,600,30,0,600,32,0,600,33,0,600,34,0,621,35,0,600,36,0,600,37,0,600,38,0,600,39,0,621,40,0,421,41,0,400,42,0,400,43,0,421,44,0,421,45,0,400,46,0,400,59,0,400,60,0,400,61,0,400,62,0,400*4A
$PAIRDGP,7,2,4,7,9,16,21,31*60
$GNGGA,040938.200,2500.8147300,N,12132.4731900,E,2,59,0.47,22.74,M,15.25,M,1,3335*78
$GNRMC,040938.200,A,2500.8147300,N,12132.4731900,E,0.03,53.69,030324,,,D,V*32
$GPHDT,,T*1B
$GNACCURACY,4.3*11
$GNGGA,040938.300,2500.8147400,N,12132.4731900,E,2,59,0.47,22.74,M,15.25,M,1,3335*7E
$GNRMC,040938.300,A,2500.8147400,N,12132.4731900,E,0.08,53.69,030324,,,D,V*3F
$GPHDT,,T*1B
$GNACCURACY,4.2*10
$GNGGA,040938.400,2500.8147400,N,12132.4731900,E,2,59,0.47,22.73,M,15.25,M,1,3335*7E
$GNRMC,040938.400,A,2500.8147400,N,12132.4731900,E,0.08,53.69,030324,,,D,V*38
$GPHDT,,T*1B
$GNACCURACY,4.2*10
$GNGGA,040938.500,2500.8147400,N,12132.4731900,E,2,60,0.47,22.73,M,15.25,M,1,3335*75
$GNRMC,040938.500,A,2500.8147400,N,12132.4731900,E,0.15,53.69,030324,,,D,V*35
$GPHDT,,T*1B
$GNACCURACY,4.2*10
$GNGGA,040938.600,2500.8147300,N,12132.4731900,E,2,61,0.47,22.73,M,15.25,M,0,3335*71
$GNRMC,040938.600,A,2500.8147300,N,12132.4731900,E,0.07,53.69,030324,,,D,V*32
$GPHDT,,T*1B
$GNACCURACY,4.2*10
$GNGGA,040938.700,2500.8147300,N,12132.4731900,E,2,61,0.47,22.73,M,15.25,M,0,3335*70
$GNRMC,040938.700,A,2500.8147300,N,12132.4731900,E,0.09,53.69,030324,,,D,V*3D
$GPHDT,,T*1B
$GNACCURACY,4.2*10
$GNGGA,040938.800,2500.8147300,N,12132.4731900,E,2,61,0.47,22.73,M,15.25,M,0,3335*7F
$GNRMC,040938.800,A,2500.8147300,N,12132.4731900,E,0.11,53.69,030324,,,D,V*3B
$GPHDT,,T*1B
$GNACCURACY,4.2*10
$GNGGA,040938.900,2500.8147300,N,12132.4731900,E,2,61,0.47,22.72,M,15.25,M,0,3335*7F
$GNRMC,040938.900,A,2500.8147300,N,12132.4731900,E,0.09,53.69,030324,,,D,V*33
$GPHDT,,T*1B
$GNACCURACY,4.2*10
$GNGGA,040939.000,2500.8147300,N,12132.4731900,E,2,61,0.47,22.72,M,15.25,M,1,3335*76
$GNRMC,040939.000,A,2500.8147300,N,12132.4731900,E,0.20,53.69,030324,,,D,V*30
$GPHDT,,T*1B
$GNACCURACY,4.2*10
$GNGGA,040939.100,2500.8147300,N,12132.4731900,E,2,60,0.47,22.72,M,15.25,M,1,3335*76
$GNRMC,040939.100,A,2500.8147300,N,12132.4731900,E,0.13,53.69,030324,,,D,V*31
$GPHDT,,T*1B
$GNGSA,A,3,08,194,195,199,21,27,02,16,07,09,04,26,0.74,0.47,0.57,1*36
$GNGSA,A,3,196,,,,,,,,,,,,0.74,0.47,0.57,1*3D
$GNGSA,A,3,82,83,80,79,73,81,,,,,,,0.74,0.47,0.57,2*0A
$GNGSA,A,3,30,15,34,27,07,02,,,,,,,0.74,0.47,0.57,3*01
$GNGSA,A,3,34,06,09,16,11,39,40,07,25,10,12,24,0.74,0.47,0.57,4*03
$GNGSA,A,3,43,44,23,,,,,,,,,,0.74,0.47,0.57,4*00
$GPGSV,4,1,15,08,69,330,43,194,63,049,30,195,61,120,23,199,60,167,24,1*5B
$GPGSV,4,2,15,21,48,165,31,27,42,030,19,02,36,179,28,16,32,064,26,1*63
$GPGSV,4,3,15,07,32,320,37,09,28,258,25,04,26,210,26,196,20,172,,1*50
$GPGSV,4,4,15,26,13,090,25,31,09,140,28,30,02,320,22,1*5C
$GPGSV,3,1,09,08,69,330,41,194,63,049,26,195,61,120,31,199,60,167,32,8*59
$GPGSV,3,2,09,27,42,030,26,09,28,258,25,196,20,172,19,26,13,090,24,8*53
$GPGSV,3,3,09,30,02,320,24,8*52
$GLGSV,2,1,06,82,63,044,35,83,63,178,18,80,50,018,34,79,32,092,18,1*73
$GLGSV,2,2,06,73,15,324,26,81,15,028,16,1*7F
$GAGSV,2,1,06,30,50,036,26,15,49,149,32,34,43,068,24,27,37,318,35,7*70
$GAGSV,2,2,06,07,32,231,16,02,15,083,17,7*7F
$GAGSV,2,1,06,30,50,036,18,15,49,149,23,34,43,068,27,27,37,318,39,1*74
$GAGSV,2,2,06,07,32,231,28,02,15,083,22,1*72
$GBGSV,4,1,15,34,81,056,29,06,77,216,29,09,75,285,34,16,74,196,28,1*7A
$GBGSV,4,2,15,11,72,199,29,39,63,182,37,40,63,321,33,07,61,300,39,1*73
$GBGSV,4,3,15,25,61,348,27,10,52,282,29,12,49,041,22,24,48,101,38,1*70
$GBGSV,4,4,15,43,46,215,27,44,25,040,23,23,16,315,36,1*42
$GBGSV,2,1,08,34,81,056,37,39,63,182,32,40,63,321,37,25,61,348,30,4*7D
$GBGSV,2,2,08,24,48,101,42,43,46,215,16,44,25,040,21,23,16,315,36,4*77
$GNACCURACY,4.2*10
$PAIRSAT,1,35,2,0,201,3,0,200,4,0,221,5,0,200,6,0,200,7,0,201,8,0,221,9,0,221,10,0,200,11,0,200,12,0,200,13,0,200,14,0,200,15,0,200,16,0,201,17,0,200,18,0,200,19,0,200,20,0,200,21,0,201,22,0,200,23,0,200,24,0,200,25,0,200,26,0,220,27,0,221,28,0,200,29,0,200,30,0,220,31,0,201,32,0,200,194,0,621,195,0,621,196,0,620,199,0,621*5B
$PAIRSAT,2,24,65,0,200,66,0,200,67,0,200,68,0,200,69,0,200,70,0,200,71,0,200,72,0,200,73,0,201,74,0,200,75,0,200,76,0,200,77,0,200,78,0,200,79,0,201,80,0,201,81,0,201,82,0,201,83,0,201,84,0,200,85,0,200,86,0,200,87,0,200,88,0,200*7A
$PAIRSAT,3,23,2,0,1021,3,0,1200,4,0,1200,5,0,200,7,0,1221,8,0,1200,9,0,1200,10,0,1200,11,0,1200,12,0,1200,13,0,1200,15,0,1221,19,0,1200,21,0,1200,24,0,1200,25,0,1200,26,0,1200,27,0,1221,30,0,1221,31,0,1200,33,0,1200,34,0,1221,36,0,1200*68
$PAIRSAT,4,46,1,0,200,2,0,200,3,0,600,4,0,200,5,0,200,6,0,201,7,0,201,8,0,200,9,0,201,10,0,201,11,0,201,12,0,201,13,0,200,14,0,200,16,0,201,19,0,600,20,0,600,21,0,600,22,0,600,23,0,621,24,0,621,25,0,621,26,0,600,27,0,600,28,0,600,29,0,600,30,0,600,32,0,600,33,0,600,34,0,621,35,0,600,36,0,600,37,0,600,38,0,600,39,0,621,40,0,421,41,0,400,42,0,400,43,0,421,44,0,421,45,0,400,46,0,400,59,0,400,60,0,400,61,0,400,62,0,400*4A
$PAIRDGP,7,2,4,7,9,16,21,31*60
$GNGGA,040939.200,2500.8147300,N,12132.4731900,E,2,61,0.47,22.72,M,15.25,M,1,3335*74
$GNRMC,040939.200,A,2500.8147300,N,12132.4731900,E,0.08,53.69,030324,,,D,V*38
$GPHDT,,T*1B
$GNACCURACY,4.2*10
$GNGGA,040939.300,2500.8147300,N,12132.4731900,E,2,60,0.47,22.72,M,15.25,M,1,3335*74
$GNRMC,040939.300,A,2500.8147300,N,12132.4731900,E,0.20,53.69,030324,,,D,V*33
$GPHDT,,T*1B
$GNACCURACY,4.2*10
$GNGGA,040939.400,2500.8147300,N,12132.4732000,E,2,61,0.47,22.72,M,15.25,M,1,3335*78
$GNRMC,040939.400,A,2500.8147300,N,12132.4732000,E,0.10,53.69,030324,,,D,V*3D
$GPHDT,,T*1B
$GNACCURACY,4.2*10
$GNGGA,040939.500,2500.8147300,N,12132.4732000,E,2,61,0.47,22.72,M,15.25,M,1,3335*79
$GNRMC,040939.500,A,2500.8147300,N,12132.4732000,E,0.24,53.69,030324,,,D,V*3B
$GPHDT,,T*1B
$GNACCURACY,4.2*10
$GNGGA,040939.600,2500.8147200,N,12132.4731900,E,2,61,0.47,22.72,M,15.25,M,0,3335*70
$GNRMC,040939.600,A,2500.8147200,N,12132.4731900,E,0.01,53.69,030324,,,D,V*34
$GPHDT,,T*1B
$GNACCURACY,4.2*10
$GNGGA,040939.700,2500.8147200,N,12132.4731900,E,2,61,0.47,22.72,M,15.25,M,0,3335*71
$GNRMC,040939.700,A,2500.8147200,N,12132.4731900,E,0.08,53.69,030324,,,D,V*3C
$GPHDT,,T*1B
$GNACCURACY,4.2*10
$GNGGA,040939.800,2500.8147200,N,12132.4731900,E,2,60,0.47,22.72,M,15.25,M,0,3335*7F
$GNRMC,040939.800,A,2500.8147200,N,12132.4731900,E,0.18,53.69,030324,,,D,V*32
$GPHDT,,T*1B
$GNACCURACY,4.2*10
$GNGGA,040939.900,2500.8147200,N,12132.4731900,E,2,60,0.47,22.72,M,15.25,M,0,3335*7E
$GNRMC,040939.900,A,2500.8147200,N,12132.4731900,E,0.08,53.69,030324,,,D,V*32
$GPHDT,,T*1B
$GNACCURACY,4.2*10
$GNGGA,040940.000,2500.8147200,N,12132.4732000,E,2,60,0.47,22.72,M,15.25,M,1,3335*72
$GNRMC,040940.000,A,2500.8147200,N,12132.4732000,E,0.12,53.69,030324,,,D,V*34
$GPHDT,,T*1B
$GNACCURACY,4.1*13
$GNGGA,040940.100,2500.8147200,N,12132.4732000,E,2,60,0.47,22.71,M,15.25,M,1,3335*70
$GNRMC,040940.100,A,2500.8147200,N,12132.4732000,E,0.10,53.69,030324,,,D,V*37
$GPHDT,,T*1B
$GNGSA,A,3,08,194,195,199,21,27,02,16,07,09,04,196,0.74,0.47,0.57,1*0C
$GNGSA,A,3,26,,,,,,,,,,,,0.74,0.47,0.57,1*07
$GNGSA,A,3,82,83,80,79,73,81,,,,,,,0.74,0.47,0.57,2*0A
$GNGSA,A,3,30,15,34,27,07,02,,,,,,,0.74,0.47,0.57,3*01
$GNGSA,A,3,34,06,09,16,11,39,40,07,25,10,12,24,0.74,0.47,0.57,4*03
$GNGSA,A,3,43,23,44,,,,,,,,,,0.74,0.47,0.57,4*00
$GPGSV,4,1,15,08,69,330,45,194,63,049,35,195,61,120,20,199,60,167,21,1*5E
$GPGSV,4,2,15,21,48,165,30,27,42,030,18,02,36,179,25,16,32,064,28,1*60
$GPGSV,4,3,15,07,32,320,41,09,28,258,20,04,26,210,27,196,20,172,,1*55
$GPGSV,4,4,15,26,13,090,24,31,09,140,28,30,02,320,23,1*5C
$GPGSV,3,1,09,08,69,330,44,194,63,049,35,195,61,120,31,199,60,167,33,8*5F
$GPGSV,3,2,09,27,42,030,27,09,28,258,28,196,20,172,18,26,13,090,24,8*5E
$GPGSV,3,3,09,30,02,320,24,8*52
$GLGSV,2,1,06,82,63,044,39,83,63,178,18,80,50,018,33,79,32,092,24,1*77
$GLGSV,2,2,06,73,15,324,30,81,15,028,21,1*7C
$GAGSV,2,1,06,30,50,036,34,15,49,149,31,34,43,068,21,27,37,318,39,7*79
$GAGSV,2,2,06,07,32,231,18,02,15,083,17,7*71
$GAGSV,2,1,06,30,50,036,31,15,49,149,23,34,43,068,26,27,37,318,38,1*7F
$GAGSV,2,2,06,07,32,231,29,02,15,083,19,1*7B
$GBGSV,4,1,15,34,81,056,30,06,77,216,28,09,75,285,34,16,74,196,25,1*7E
$GBGSV,4,2,15,11,72,199,32,39,63,182,34,40,63,321,33,07,61,300,35,1*76
$GBGSV,4,3,15,25,61,348,27,10,52,282,28,12,49,041,35,24,48,101,38,1*77
$GBGSV,4,4,15,43,46,215,23,44,25,040,21,23,16,315,38,1*4A
$GBGSV,2,1,08,34,81,056,38,39,63,182,34,40,63,321,41,25,61,348,28,4*7C
$GBGSV,2,2,08,24,48,101,42,43,46,215,14,44,25,040,19,23,16,315,37,4*7F
$GNACCURACY,4.1*13
$PAIRSAT,1,35,2,0,201,3,0,200,4,0,221,5,0,200,6,0,200,7,0,201,8,0,221,9,0,221,10,0,200,11,0,200,12,0,200,13,0,200,14,0,200,15,0,200,16,0,201,17,0,200,18,0,200,19,0,200,20,0,200,21,0,201,22,0,200,23,0,200,24,0,200,25,0,200,26,0,220,27,0,221,28,0,200,29,0,200,30,0,220,31,0,201,32,0,200,194,0,621,195,0,621,196,0,620,199,0,621*5B
$PAIRSAT,2,24,65,0,200,66,0,200,67,0,200,68,0,200,69,0,200,70,0,200,71,0,200,72,0,200,73,0,201,74,0,200,75,0,200,76,0,200,77,0,200,78,0,200,79,0,201,80,0,201,81,0,201,82,0,201,83,0,201,84,0,200,85,0,200,86,0,200,87,0,200,88,0,200*7A
$PAIRSAT,3,23,2,0,1021,3,0,1200,4,0,1200,5,0,200,7,0,1221,8,0,1200,9,0,1200,10,0,1200,11,0,1200,12,0,1200,13,0,1200,15,0,1221,19,0,1200,21,0,1200,24,0,1200,25,0,1200,26,0,1200,27,0,1221,30,0,1221,31,0,1200,33,0,1200,34,0,1221,36,0,1200*68
$PAIRSAT,4,46,1,0,200,2,0,200,3,0,600,4,0,200,5,0,200,6,0,201,7,0,201,8,0,200,9,0,201,10,0,201,11,0,201,12,0,201,13,0,200,14,0,200,16,0,201,19,0,600,20,0,600,21,0,600,22,0,600,23,0,621,24,0,621,25,0,621,26,0,600,27,0,600,28,0,600,29,0,600,30,0,600,32,0,600,33,0,600,34,0,621,35,0,600,36,0,600,37,0,600,38,0,600,39,0,621,40,0,421,41,0,400,42,0,400,43,0,421,44,0,421,45,0,400,46,0,400,59,0,400,60,0,400,61,0,400,62,0,400*4A
$PAIRDGP,7,2,4,7,9,16,21,31*60
$GNGGA,040940.200,2500.8147200,N,12132.4732000,E,2,59,0.47,22.71,M,15.25,M,1,3335*79
$GNRMC,040940.200,A,2500.8147200,N,12132.4732000,E,0.26,53.69,030324,,,D,V*31
$GPHDT,,T*1B
$GNACCURACY,4.1*13
$GNGGA,040940.300,2500.8147200,N,12132.4732100,E,2,60,0.47,22.71,M,15.25,M,1,3335*73
$GNRMC,040940.300,A,2500.8147200,N,12132.4732100,E,0.12,53.69,030324,,,D,V*36
$GPHDT,,T*1B
$GNACCURACY,4.0*12
$GNGGA,040940.400,2500.8147200,N,12132.4732100,E,2,59,0.48,22.71,M,15.25,M,1,3335*71
$GNRMC,040940.400,A,2500.8147200,N,12132.4732100,E,0.08,53.69,030324,,,D,V*3A
$GPHDT,,T*1B
$GNACCURACY,4.0*12
$GNGGA,040940.500,2500.8147200,N,12132.4732100,E,2,61,0.47,22.71,M,15.25,M,1,3335*74
$GNRMC,040940.500,A,2500.8147200,N,12132.4732100,E,0.05,53.69,030324,,,D,V*36
$GPHDT,,T*1B
$GNACCURACY,4.0*12
$GNGGA,040940.600,2500.8147200,N,12132.4732100,E,2,61,0.47,22.71,M,15.25,M,0,3335*76
$GNRMC,040940.600,A,2500.8147200,N,12132.4732100,E,0.18,53.69,030324,,,D,V*39
$GPHDT,,T*1B
$GNACCURACY,4.0*12
$GNGGA,040940.700,2500.8147200,N,12132.4732100,E,2,61,0.47,22.70,M,15.25,M,0,3335*76
$GNRMC,040940.700,A,2500.8147200,N,12132.4732100,E,0.13,53.69,030324,,,D,V*33
$GPHDT,,T*1B
$GNACCURACY,3.9*1C
$GNGGA,040940.800,2500.8147200,N,12132.4732100,E,2,61,0.47,22.70,M,15.25,M,0,3335*79
$GNRMC,040940.800,A,2500.8147200,N,12132.4732100,E,0.09,53.69,030324,,,D,V*37
$GPHDT,,T*1B
$GNACCURACY,3.9*1C
$GNGGA,040940.900,2500.8147200,N,12132.4732100,E,2,61,0.47,22.70,M,15.25,M,0,3335*78
$GNRMC,040940.900,A,2500.8147200,N,12132.4732100,E,0.07,53.69,030324,,,D,V*38
$GPHDT,,T*1B
$GNACCURACY,3.9*1C
$GNGGA,040941.000,2500.8147200,N,12132.4732100,E,2,61,0.47,22.70,M,15.25,M,1,3335*71
$GNRMC,040941.000,A,2500.8147200,N,12132.4732100,E,0.05,53.69,030324,,,D,V*32
$GPHDT,,T*1B
$GNACCURACY,3.9*1C
$GNGGA,040941.100,2500.8147200,N,12132.4732100,E,2,61,0.47,22.70,M,15.25,M,1,3335*70
$GNRMC,040941.100,A,2500.8147200,N,12132.4732100,E,0.06,53.69,030324,,,D,V*30
$GPHDT,,T*1B
$GNGSA,A,3,08,194,195,199,21,27,02,16,07,09,04,26,0.74,0.47,0.57,1*36
$GNGSA,A,3,196,,,,,,,,,,,,0.74,0.47,0.57,1*3D
$GNGSA,A,3,82,83,80,79,73,81,,,,,,,0.74,0.47,0.57,2*0A
$GNGSA,A,3,30,15,34,27,07,02,,,,,,,0.74,0.47,0.57,3*01
$GNGSA,A,3,34,06,09,16,11,39,40,07,25,10,12,24,0.74,0.47,0.57,4*03
$GNGSA,A,3,43,44,23,,,,,,,,,,0.74,0.47,0.57,4*00
$GPGSV,4,1,15,08,69,330,47,194,63,049,43,195,61,120,29,199,60,167,23,1*56
$GPGSV,4,2,15,21,48,165,30,27,42,030,20,02,36,179,22,16,32,064,27,1*63
$GPGSV,4,3,15,07,32,320,45,09,28,258,19,04,26,210,26,196,20,172,,1*5A
$GPGSV,4,4,15,26,13,090,30,31,09,140,28,30,02,320,25,1*5F
$GPGSV,3,1,09,08,69,330,47,194,63,049,44,195,61,120,20,199,60,167,35,8*5C
$GPGSV,3,2,09,27,42,030,31,09,28,258,26,196,20,172,23,26,13,090,25,8*5E
$GPGSV,3,3,09,30,02,320,28,8*5E
$GLGSV,2,1,06,82,63,044,42,83,63,178,16,80,50,018,40,79,32,092,26,1*73
$GLGSV,2,2,06,73,15,324,33,81,15,028,24,1*7A
$GAGSV,2,1,06,30,50,036,38,15,49,149,31,34,43,068,19,27,37,318,41,7*71
$GAGSV,2,2,06,07,32,231,23,02,15,083,24,7*79
$GAGSV,2,1,06,30,50,036,41,15,49,149,24,34,43,068,33,27,37,318,44,1*70
$GAGSV,2,2,06,07,32,231,29,02,15,083,23,1*72
$GBGSV,4,1,15,34,81,056,39,06,77,216,32,09,75,285,38,16,74,196,28,1*7D
$GBGSV,4,2,15,11,72,199,34,39,63,182,35,40,63,321,33,07,61,300,40,1*73
$GBGSV,4,3,15,25,61,348,34,10,52,282,34,12,49,041,35,24,48,101,40,1*77
$GBGSV,4,4,15,43,46,215,23,44,25,040,27,23,16,315,41,1*42
$GBGSV,2,1,08,34,81,056,40,39,63,182,35,40,63,321,38,25,61,348,32,4*77
$GBGSV,2,2,08,24,48,101,41,43,46,215,13,44,25,040,25,23,16,315,32,4*71
$GNACCURACY,3.9*1C
$PAIRSAT,1,35,2,0,201,3,0,200,4,0,221,5,0,200,6,0,200,7,0,201,8,0,221,9,0,221,10,0,200,11,0,200,12,0,200,13,0,200,14,0,200,15,0,200,16,0,201,17,0,200,18,0,200,19,0,200,20,0,200,21,0,201,22,0,200,23,0,200,24,0,200,25,0,200,26,0,220,27,0,221,28,0,200,29,0,200,30,0,220,31,0,201,32,0,200,194,0,621,195,0,621,196,0,620,199,0,621*5B
$PAIRSAT,2,24,65,0,200,66,0,200,67,0,200,68,0,200,69,0,200,70,0,200,71,0,200,72,0,200,73,0,201,74,0,200,75,0,200,76,0,200,77,0,200,78,0,200,79,0,201,80,0,201,81,0,201,82,0,201,83,0,201,84,0,200,85,0,200,86,0,200,87,0,200,88,0,200*7A
$PAIRSAT,3,23,2,0,1021,3,0,1200,4,0,1200,5,0,200,7,0,1221,8,0,1200,9,0,1200,10,0,1200,11,0,1200,12,0,1200,13,0,1200,15,0,1221,19,0,1200,21,0,1200,24,0,1200,25,0,1200,26,0,1200,27,0,1221,30,0,1221,31,0,1200,33,0,1200,34,0,1221,36,0,1200*68
$PAIRSAT,4,46,1,0,200,2,0,200,3,0,600,4,0,200,5,0,200,6,0,201,7,0,201,8,0,200,9,0,201,10,0,201,11,0,201,12,0,201,13,0,200,14,0,200,16,0,201,19,0,600,20,0,600,21,0,600,22,0,600,23,0,621,24,0,621,25,0,621,26,0,600,27,0,600,28,0,600,29,0,600,30,0,600,32,0,600,33,0,600,34,0,621,35,0,600,36,0,600,37,0,600,38,0,600,39,0,621,40,0,421,41,0,400,42,0,400,43,0,421,44,0,421,45,0,400,46,0,400,59,0,400,60,0,400,61,0,400,62,0,400*4A
$PAIRDGP,7,2,4,7,9,16,21,31*60
$GNGGA,040941.200,2500.8147200,N,12132.4732100,E,2,61,0.47,22.70,M,15.25,M,1,3335*73
$GNRMC,040941.200,A,2500.8147200,N,12132.4732100,E,0.05,53.69,030324,,,D,V*30
$GPHDT,,T*1B
$GNACCURACY,4.0*12
$GNGGA,040941.300,2500.8147100,N,12132.4732100,E,2,61,0.47,22.70,M,15.25,M,1,3335*71
$GNRMC,040941.300,A,2500.8147100,N,12132.4732100,E,0.06,53.69,030324,,,D,V*31
$GPHDT,,T*1B
$GNACCURACY,3.9*1C
$GNGGA,040941.400,2500.8147100,N,12132.4732100,E,2,61,0.47,22.70,M,15.25,M,0,3335*77
$GNRMC,040941.400,A,2500.8147100,N,12132.4732100,E,0.05,53.69,030324,,,D,V*35
$GPHDT,,T*1B
$GNACCURACY,3.9*1C
$GNGGA,040941.500,2500.8147100,N,12132.4732100,E,2,60,0.47,22.70,M,15.25,M,0,3335*77
$GNRMC,040941.500,A,2500.8147100,N,12132.4732100,E,0.04,53.69,030324,,,D,V*35
$GPHDT,,T*1B
$GNACCURACY,3.9*1C
$GNGGA,040941.600,2500.8147100,N,12132.4732000,E,2,60,0.47,22.70,M,15.25,M,0,3335*75
$GNRMC,040941.600,A,2500.8147100,N,12132.4732000,E,0.04,53.69,030324,,,D,V*37
$GPHDT,,T*1B
$GNACCURACY,3.9*1C
$GNGGA,040941.700,2500.8147200,N,12132.4732000,E,2,60,0.47,22.70,M,15.25,M,0,3335*77
$GNRMC,040941.700,A,2500.8147200,N,12132.4732000,E,0.03,53.69,030324,,,D,V*32
$GPHDT,,T*1B
$GNACCURACY,3.9*1C
$GNGGA,040941.800,2500.8147200,N,12132.4732000,E,2,60,0.47,22.70,M,15.25,M,0,3335*78
$GNRMC,040941.800,A,2500.8147200,N,12132.4732000,E,0.02,53.69,030324,,,D,V*3C
$GPHDT,,T*1B
$GNACCURACY,3.9*1C
$GNGGA,040941.900,2500.8147200,N,12132.4731900,E,2,61,0.47,22.70,M,15.25,M,0,3335*72
$GNRMC,040941.900,A,2500.8147200,N,12132.4731900,E,0.02,53.69,030324,,,D,V*37
$GPHDT,,T*1B
$GNACCURACY,3.9*1C
$GNGGA,040942.000,2500.8147200,N,12132.4731900,E,2,61,0.47,22.70,M,15.25,M,1,3335*79
$GNRMC,040942.000,A,2500.8147200,N,12132.4731900,E,0.01,53.69,030324,,,D,V*3E
$GPHDT,,T*1B
$GNACCURACY,3.9*1C
$GNGGA,040942.100,2500.8147200,N,12132.4731900,E,2,61,0.47,22.70,M,15.25,M,1,3335*78
$GNRMC,040942.100,A,2500.8147200,N,12132.4731900,E,0.01,53.69,030324,,,D,V*3F
$GPHDT,,T*1B
$GNGSA,A,3,08,194,195,199,21,27,02,16,07,09,04,26,0.74,0.47,0.57,1*36
$GNGSA,A,3,196,,,,,,,,,,,,0.74,0.47,0.57,1*3D
$GNGSA,A,3,82,83,80,79,73,81,,,,,,,0.74,0.47,0.57,2*0A
$GNGSA,A,3,30,15,34,27,07,02,,,,,,,0.74,0.47,0.57,3*01
$GNGSA,A,3,34,06,09,16,11,39,40,07,25,10,12,24,0.74,0.47,0.57,4*03
$GNGSA,A,3,43,44,23,,,,,,,,,,0.74,0.47,0.57,4*00
$GPGSV,4,1,15,08,69,330,47,194,63,049,43,195,61,120,29,199,60,167,23,1*56
$GPGSV,4,2,15,21,48,165,30,27,42,030,19,02,36,179,25,16,32,064,28,1*61
$GPGSV,4,3,15,07,32,320,45,09,28,258,20,04,26,210,28,196,20,172,,1*5E
$GPGSV,4,4,15,26,13,090,29,31,09,140,27,30,02,320,25,1*58
$GPGSV,3,1,09,08,69,330,48,194,63,049,45,195,61,120,18,199,60,167,35,8*59
$GPGSV,3,2,09,27,42,030,34,09,28,258,26,196,20,172,25,26,13,090,23,8*5B
$GPGSV,3,3,09,30,02,320,29,8*5F
$GLGSV,2,1,06,82,63,044,42,83,63,178,16,80,50,018,41,79,32,092,29,1*7D
$GLGSV,2,2,06,73,15,324,33,81,15,028,27,1*79
$GAGSV,2,1,06,30,50,036,39,15,49,149,31,34,43,068,16,27,37,318,42,7*7C
$GAGSV,2,2,06,07,32,231,24,02,15,083,26,7*7C
$GAGSV,2,1,06,30,50,036,43,15,49,149,23,34,43,068,33,27,37,318,45,1*74
$GAGSV,2,2,06,07,32,231,29,02,15,083,26,1*77
$GBGSV,4,1,15,34,81,056,38,06,77,216,32,09,75,285,37,16,74,196,28,1*73
$GBGSV,4,2,15,11,72,199,34,39,63,182,35,40,63,321,34,07,61,300,40,1*74
$GBGSV,4,3,15,25,61,348,34,10,52,282,33,12,49,041,35,24,48,101,40,1*70
$GBGSV,4,4,15,43,46,215,25,44,25,040,26,23,16,315,41,1*45
$GBGSV,2,1,08,34,81,056,40,39,63,182,35,40,63,321,40,25,61,348,32,4*78
$GBGSV,2,2,08,24,48,101,41,43,46,215,14,44,25,040,29,23,16,315,30,4*78
$GNACCURACY,3.9*1C
$PAIRSAT,1,35,2,0,201,3,0,200,4,0,221,5,0,200,6,0,200,7,0,201,8,0,221,9,0,221,10,0,200,11,0,200,12,0,200,13,0,200,14,0,200,15,0,200,16,0,201,17,0,200,18,0,200,19,0,200,20,0,200,21,0,201,22,0,200,23,0,200,24,0,200,25,0,200,26,0,220,27,0,221,28,0,200,29,0,200,30,0,220,31,0,201,32,0,200,194,0,621,195,0,621,196,0,620,199,0,621*5B
$PAIRSAT,2,24,65,0,200,66,0,200,67,0,200,68,0,200,69,0,200,70,0,200,71,0,200,72,0,200,73,0,201,74,0,200,75,0,200,76,0,200,77,0,200,78,0,200,79,0,201,80,0,201,81,0,201,82,0,201,83,0,201,84,0,200,85,0,200,86,0,200,87,0,200,88,0,200*7A
$PAIRSAT,3,23,2,0,1021,3,0,1200,4,0,1200,5,0,200,7,0,1221,8,0,1200,9,0,1200,10,0,1200,11,0,1200,12,0,1200,13,0,1200,15,0,1221,19,0,1200,21,0,1200,24,0,1200,25,0,1200,26,0,1200,27,0,1221,30,0,1221,31,0,1200,33,0,1200,34,0,1221,36,0,1200*68
$PAIRSAT,4,46,1,0,200,2,0,200,3,0,600,4,0,200,5,0,200,6,0,201,7,0,201,8,0,200,9,0,201,10,0,201,11,0,201,12,0,201,13,0,200,14,0,200,16,0,201,19,0,600,20,0,600,21,0,600,22,0,600,23,0,621,24,0,621,25,0,621,26,0,600,27,0,600,28,0,600,29,0,600,30,0,600,32,0,600,33,0,600,34,0,621,35,0,600,36,0,600,37,0,600,38,0,600,39,0,621,40,0,421,41,0,400,42,0,400,43,0,421,44,0,421,45,0,400,46,0,400,59,0,400,60,0,400,61,0,400,62,0,400*4A
$PAIRDGP,7,2,4,7,9,16,21,31*60
$GNGGA,040942.200,2500.8147200,N,12132.4731900,E,2,61,0.47,22.70,M,15.25,M,1,3335*7B
$GNRMC,040942.200,A,2500.8147200,N,12132.4731900,E,0.02,53.69,030324,,,D,V*3F
$GPHDT,,T*1B
$GNACCURACY,3.9*1C
$GNGGA,040942.300,2500.8147300,N,12132.4731800,E,2,61,0.47,22.70,M,15.25,M,1,3335*7A
$GNRMC,040942.300,A,2500.8147300,N,12132.4731800,E,0.02,53.69,030324,,,D,V*3E
$GPHDT,,T*1B
$GNACCURACY,3.9*1C
$GNGGA,040942.400,2500.8147300,N,12132.4731800,E,2,61,0.47,22.70,M,15.25,M,1,3335*7D
$GNRMC,040942.400,A,2500.8147300,N,12132.4731800,E,0.02,53.69,030324,,,D,V*39
$GPHDT,,T*1B
$GNACCURACY,3.9*1C
$GNGGA,040942.500,2500.8147300,N,12132.4731800,E,2,61,0.47,22.71,M,15.25,M,0,3335*7C
$GNRMC,040942.500,A,2500.8147300,N,12132.4731800,E,0.01,53.69,030324,,,D,V*3B
$GPHDT,,T*1B
$GNACCURACY,3.9*1C
$GNGGA,040942.600,2500.8147400,N,12132.4731800,E,2,60,0.47,22.71,M,15.25,M,0,3335*79
$GNRMC,040942.600,A,2500.8147400,N,12132.4731800,E,0.01,53.69,030324,,,D,V*3F
$GPHDT,,T*1B
$GNACCURACY,3.9*1C
$GNGGA,040942.700,2500.8147400,N,12132.4731800,E,2,60,0.47,22.71,M,15.25,M,0,3335*78
$GNRMC,040942.700,A,2500.8147400,N,12132.4731800,E,0.01,53.69,030324,,,D,V*3E
$GPHDT,,T*1B
$GNACCURACY,3.9*1C
$GNGGA,040942.800,2500.8147500,N,12132.4731700,E,2,60,0.47,22.71,M,15.25,M,0,3335*79
$GNRMC,040942.800,A,2500.8147500,N,12132.4731700,E,0.01,53.69,030324,,,D,V*3F
$GPHDT,,T*1B
$GNACCURACY,3.9*1C
$GNGGA,040942.900,2500.8147500,N,12132.4731700,E,2,60,0.47,22.71,M,15.25,M,0,3335*78
$GNRMC,040942.900,A,2500.8147500,N,12132.4731700,E,0.02,53.69,030324,,,D,V*3D
$GPHDT,,T*1B
$GNACCURACY,3.9*1C
$GNGGA,040943.000,2500.8147500,N,12132.4731600,E,2,60,0.47,22.71,M,15.25,M,1,3335*70
$GNRMC,040943.000,A,2500.8147500,N,12132.4731600,E,0.01,53.69,030324,,,D,V*37
$GPHDT,,T*1B
$GNACCURACY,3.9*1C
$GNGGA,040943.100,2500.8147600,N,12132.4731600,E,2,60,0.47,22.71,M,15.25,M,1,3335*72
$GNRMC,040943.100,A,2500.8147600,N,12132.4731600,E,0.02,53.69,030324,,,D,V*36
$GPHDT,,T*1B
$GNGSA,A,3,08,194,195,199,21,27,02,16,07,09,04,26,0.74,0.47,0.57,1*36
$GNGSA,A,3,196,,,,,,,,,,,,0.74,0.47,0.57,1*3D
$GNGSA,A,3,82,83,80,79,73,81,,,,,,,0.74,0.47,0.57,2*0A
$GNGSA,A,3,30,15,34,27,07,02,,,,,,,0.74,0.47,0.57,3*01
$GNGSA,A,3,34,06,09,16,11,39,40,07,25,10,12,24,0.74,0.47,0.57,4*03
$GNGSA,A,3,43,44,23,,,,,,,,,,0.74,0.47,0.57,4*00
$GPGSV,4,1,15,08,69,330,47,194,63,049,43,195,61,120,29,199,60,167,23,1*56
$GPGSV,4,2,15,21,48,165,29,27,42,030,17,02,36,179,25,16,32,064,30,1*6E
$GPGSV,4,3,15,07,32,320,45,09,28,258,25,04,26,210,27,196,20,172,,1*54
$GPGSV,4,4,15,26,13,090,29,31,09,140,26,30,02,320,24,1*58
$GPGSV,3,1,09,08,69,330,49,194,63,049,43,199,60,167,35,27,42,030,35,8*68
$GPGSV,3,2,09,09,28,258,28,04,26,210,25,196,20,172,27,26,13,090,24,8*53
$GPGSV,3,3,09,30,02,320,29,8*5F
$GLGSV,2,1,06,82,63,044,42,83,63,178,16,80,50,018,42,79,32,092,29,1*7E
$GLGSV,2,2,06,73,16,324,35,81,15,028,27,1*7C
$GAGSV,2,1,06,30,50,036,39,15,49,149,32,34,43,068,25,27,37,318,42,7*7F
$GAGSV,2,2,06,07,32,231,24,02,15,083,27,7*7D
$GAGSV,2,1,05,30,50,036,43,34,43,068,32,27,37,318,45,07,32,231,30,1*77
$GAGSV,2,2,05,02,15,083,26,1*49
$GBGSV,4,1,15,34,81,056,34,06,77,216,30,09,75,285,37,16,74,196,30,1*74
$GBGSV,4,2,15,11,72,199,34,39,63,182,35,40,63,321,35,07,61,300,40,1*75
$GBGSV,4,3,15,25,61,348,34,10,52,282,32,12,49,041,37,24,48,101,40,1*73
$GBGSV,4,4,15,43,46,215,24,44,25,040,20,23,16,315,42,1*41
$GBGSV,2,1,08,34,81,056,40,39,63,182,35,40,63,321,40,25,61,348,32,4*78
$GBGSV,2,2,08,24,48,101,41,43,46,215,15,44,25,040,29,23,16,315,26,4*7E
$GNACCURACY,3.9*1C
$PAIRSAT,1,35,2,0,201,3,0,200,4,0,221,5,0,200,6,0,200,7,0,201,8,0,221,9,0,221,10,0,200,11,0,200,12,0,200,13,0,200,14,0,200,15,0,200,16,0,201,17,0,200,18,0,200,19,0,200,20,0,200,21,0,201,22,0,200,23,0,200,24,0,200,25,0,200,26,0,220,27,0,221,28,0,200,29,0,200,30,0,220,31,0,201,32,0,200,194,0,621,195,0,621,196,0,620,199,0,621*5B
$PAIRSAT,2,24,65,0,200,66,0,200,67,0,200,68,0,200,69,0,200,70,0,200,71,0,200,72,0,200,73,0,201,74,0,200,75,0,200,76,0,200,77,0,200,78,0,200,79,0,201,80,0,201,81,0,201,82,0,201,83,0,201,84,0,200,85,0,200,86,0,200,87,0,200,88,0,200*7A
$PAIRSAT,3,23,2,0,1021,3,0,1200,4,0,1200,5,0,200,7,0,1221,8,0,1200,9,0,1200,10,0,1200,11,0,1200,12,0,1200,13,0,1200,15,0,1221,19,0,1200,21,0,1200,24,0,1200,25,0,1200,26,0,1200,27,0,1221,30,0,1221,31,0,1200,33,0,1200,34,0,1221,36,0,1200*68
$PAIRSAT,4,46,1,0,200,2,0,200,3,0,600,4,0,200,5,0,200,6,0,201,7,0,201,8,0,200,9,0,201,10,0,201,11,0,201,12,0,201,13,0,200,14,0,200,16,0,201,19,0,600,20,0,600,21,0,600,22,0,600,23,0,621,24,0,621,25,0,621,26,0,600,27,0,600,28,0,600,29,0,600,30,0,600,32,0,600,33,0,600,34,0,621,35,0,600,36,0,600,37,0,600,38,0,600,39,0,621,40,0,421,41,0,400,42,0,400,43,0,421,44,0,421,45,0,400,46,0,400,59,0,400,60,0,400,61,0,400,62,0,400*4A
$PAIRDGP,7,2,4,7,9,16,21,31*60
$GNGGA,040943.200,2500.8147600,N,12132.4731600,E,2,60,0.47,22.71,M,15.25,M,1,3335*71
$GNRMC,040943.200,A,2500.8147600,N,12132.4731600,E,0.03,53.69,030324,,,D,V*34
$GPHDT,,T*1B
$GNACCURACY,3.9*1C
$GNGGA,040943.300,2500.8147600,N,12132.4731600,E,2,60,0.47,22.71,M,15.25,M,1,3335*70
$GNRMC,040943.300,A,2500.8147600,N,12132.4731600,E,0.03,53.69,030324,,,D,V*35
$GPHDT,,T*1B
$GNACCURACY,3.9*1C
$GNGGA,040943.400,2500.8147700,N,12132.4731500,E,2,60,0.47,22.71,M,15.25,M,1,3335*75
$GNRMC,040943.400,A,2500.8147700,N,12132.4731500,E,0.04,53.69,030324,,,D,V*37
$GPHDT,,T*1B
$GNACCURACY,3.9*1C
$GNGGA,040943.500,2500.8147700,N,12132.4731500,E,2,59,0.47,22.71,M,15.25,M,0,3335*7F
$GNRMC,040943.500,A,2500.8147700,N,12132.4731500,E,0.05,53.69,030324,,,D,V*37
$GPHDT,,T*1B
$GNACCURACY,3.9*1C
$GNGGA,040943.600,2500.8147800,N,12132.4731400,E,2,59,0.47,22.72,M,15.25,M,0,3335*71
$GNRMC,040943.600,A,2500.8147800,N,12132.4731400,E,0.04,53.69,030324,,,D,V*3B
$GPHDT,,T*1B
$GNACCURACY,3.9*1C
$GNGGA,040943.700,2500.8147800,N,12132.4731400,E,2,59,0.47,22.72,M,15.25,M,0,3335*70
$GNRMC,040943.700,A,2500.8147800,N,12132.4731400,E,0.06,53.69,030324,,,D,V*38
$GPHDT,,T*1B
$GNACCURACY,3.9*1C
$GNGGA,040943.800,2500.8147900,N,12132.4731400,E,2,59,0.47,22.72,M,15.25,M,0,3335*7E
$GNRMC,040943.800,A,2500.8147900,N,12132.4731400,E,0.08,53.69,030324,,,D,V*38
$GPHDT,,T*1B
$GNACCURACY,3.9*1C
$GNGGA,040943.900,2500.8148000,N,12132.4731300,E,2,59,0.47,22.72,M,15.25,M,0,3335*7E
$GNRMC,040943.900,A,2500.8148000,N,12132.4731300,E,0.07,53.69,030324,,,D,V*37
$GPHDT,,T*1B
$GNACCURACY,3.9*1C
$GNGGA,040944.000,2500.8148100,N,12132.4731300,E,2,58,0.47,22.72,M,15.25,M,1,3335*71
$GNRMC,040944.000,A,2500.8148100,N,12132.4731300,E,0.06,53.69,030324,,,D,V*39
$GPHDT,,T*1B
$GNACCURACY,3.9*1C
$GNGGA,040944.100,2500.8148100,N,12132.4731200,E,2,59,0.47,22.72,M,15.25,M,1,3335*70
$GNRMC,040944.100,A,2500.8148100,N,12132.4731200,E,0.06,53.69,030324,,,D,V*39
$GPHDT,,T*1B
$GNGSA,A,3,08,194,195,199,21,02,16,07,09,04,26,27,0.74,0.47,0.57,1*36
$GNGSA,A,3,196,,,,,,,,,,,,0.74,0.47,0.57,1*3D
$GNGSA,A,3,83,82,80,79,73,81,,,,,,,0.74,0.47,0.57,2*0A
$GNGSA,A,3,30,15,34,27,07,02,,,,,,,0.74,0.47,0.57,3*01
$GNGSA,A,3,34,06,09,16,11,39,40,25,07,10,12,24,0.74,0.47,0.57,4*03
$GNGSA,A,3,43,44,23,,,,,,,,,,0.74,0.47,0.57,4*00
$GPGSV,4,1,15,08,69,330,47,194,63,049,43,195,61,120,32,199,60,167,25,1*5A
$GPGSV,4,2,15,21,48,165,29,27,42,030,15,02,36,179,24,16,32,064,30,1*6D
$GPGSV,4,3,15,07,32,320,45,09,28,258,23,04,26,210,30,196,20,172,,1*54
$GPGSV,4,4,15,26,13,090,29,31,09,140,27,30,02,320,24,1*59
$GPGSV,3,1,09,08,69,330,49,194,63,049,44,199,60,167,35,27,42,030,34,8*6E
$GPGSV,3,2,09,09,28,258,28,04,26,210,23,196,20,172,25,26,13,090,24,8*57
$GPGSV,3,3,09,30,02,320,27,8*51
$GLGSV,3,1,09,83,64,178,16,82,63,044,42,80,50,018,42,79,32,092,32,1*7D
$GLGSV,3,2,09,73,16,324,35,81,15,028,26,70,07,253,,71,05,299,,1*76
$GLGSV,3,3,09,84,04,200,,1*4B
$GAGSV,2,1,07,30,50,036,39,15,49,149,32,34,43,068,21,27,37,318,41,7*79
$GAGSV,2,2,07,07,32,231,25,02,15,083,25,36,03,034,,7*4E
$GAGSV,2,1,05,30,50,036,42,34,43,068,32,27,37,318,45,07,32,231,30,1*76
$GAGSV,2,2,05,02,15,083,26,1*49
$GBGSV,5,1,17,34,81,056,37,06,77,216,32,09,75,285,37,16,74,196,27,1*70
$GBGSV,5,2,17,11,72,199,34,39,63,182,35,40,63,321,36,25,61,348,34,1*7A
$GBGSV,5,3,17,07,61,300,41,10,52,282,33,12,49,041,36,24,48,101,40,1*7E
$GBGSV,5,4,17,43,46,215,28,44,25,040,25,23,16,315,42,38,07,170,,1*71
$GBGSV,5,5,17,26,04,122,,1*41
$GBGSV,2,1,07,34,81,056,40,39,63,182,34,40,63,321,40,25,61,348,32,4*76
$GBGSV,2,2,07,24,48,101,41,44,25,040,30,23,16,315,31,4*48
$GNACCURACY,3.9*1C
$PAIRSAT,1,35,2,0,201,3,0,200,4,0,221,5,0,200,6,0,200,7,0,201,8,0,221,9,0,221,10,0,200,11,0,200,12,0,200,13,0,200,14,0,200,15,0,200,16,0,201,17,0,200,18,0,200,19,0,200,20,0,200,21,0,201,22,0,200,23,0,200,24,0,200,25,0,200,26,0,220,27,0,221,28,0,200,29,0,200,30,0,220,31,0,201,32,0,200,194,0,621,195,0,621,196,0,620,199,0,621*5B
$PAIRSAT,2,24,65,0,200,66,0,200,67,0,200,68,0,200,69,0,200,70,0,200,71,0,200,72,0,200,73,0,201,74,0,200,75,0,200,76,0,200,77,0,200,78,0,200,79,0,201,80,0,201,81,0,201,82,0,201,83,0,201,84,0,200,85,0,200,86,0,200,87,0,200,88,0,200*7A
$PAIRSAT,3,23,2,0,1021,3,0,1200,4,0,1200,5,0,200,7,0,1221,8,0,1200,9,0,1200,10,0,1200,11,0,1200,12,0,1200,13,0,1200,15,0,1221,19,0,1200,21,0,1200,24,0,1200,25,0,1200,26,0,1200,27,0,1221,30,0,1221,31,0,1200,33,0,1200,34,0,1221,36,0,1200*68
$PAIRSAT,4,46,1,0,200,2,0,200,3,0,600,4,0,200,5,0,200,6,0,201,7,0,201,8,0,200,9,0,201,10,0,201,11,0,201,12,0,201,13,0,200,14,0,200,16,0,201,19,0,600,20,0,600,21,0,600,22,0,600,23,0,621,24,0,621,25,0,621,26,0,600,27,0,600,28,0,600,29,0,600,30,0,600,32,0,600,33,0,600,34,0,621,35,0,600,36,0,600,37,0,600,38,0,600,39,0,621,40,0,421,41,0,400,42,0,400,43,0,421,44,0,421,45,0,400,46,0,400,59,0,400,60,0,400,61,0,400,62,0,400*4A
$PAIRDGP,7,2,4,7,9,16,21,31*60
$GNGGA,040944.200,2500.8148200,N,12132.4731200,E,2,58,0.47,22.72,M,15.25,M,1,3335*71
$GNRMC,040944.200,A,2500.8148200,N,12132.4731200,E,0.06,53.69,030324,,,D,V*39
$GPHDT,,T*1B
$GNACCURACY,3.9*1C
$GNGGA,040944.300,2500.8148200,N,12132.4731200,E,2,58,0.47,22.72,M,15.25,M,1,3335*70
$GNRMC,040944.300,A,2500.8148200,N,12132.4731200,E,0.06,53.69,030324,,,D,V*38
$GPHDT,,T*1B
$GNACCURACY,3.9*1C
$GNGGA,040944.400,2500.8148300,N,12132.4731100,E,2,58,0.47,22.72,M,15.25,M,1,3335*75
$GNRMC,040944.400,A,2500.8148300,N,12132.4731100,E,0.06,53.69,030324,,,D,V*3D
$GPHDT,,T*1B
$GNACCURACY,3.9*1C
$GNGGA,040944.500,2500.8148400,N,12132.4731000,E,2,59,0.47,22.72,M,15.25,M,0,3335*72
$GNRMC,040944.500,A,2500.8148400,N,12132.4731000,E,0.05,53.69,030324,,,D,V*39
$GPHDT,,T*1B
$GNACCURACY,3.9*1C
$GNGGA,040944.600,2500.8148400,N,12132.4731000,E,2,59,0.47,22.72,M,15.25,M,0,3335*71
$GNRMC,040944.600,A,2500.8148400,N,12132.4731000,E,0.05,53.69,030324,,,D,V*3A
$GPHDT,,T*1B
$GNACCURACY,3.9*1C
$GNGGA,040944.700,2500.8148500,N,12132.4730900,E,2,59,0.47,22.72,M,15.25,M,0,3335*79
$GNRMC,040944.700,A,2500.8148500,N,12132.4730900,E,0.05,53.69,030324,,,D,V*32
$GPHDT,,T*1B
$GNACCURACY,3.9*1C
$GNGGA,040944.800,2500.8148500,N,12132.4730900,E,2,58,0.47,22.72,M,15.25,M,0,3335*77
$GNRMC,040944.800,A,2500.8148500,N,12132.4730900,E,0.04,53.69,030324,,,D,V*3C
$GPHDT,,T*1B
$GNACCURACY,3.9*1C
$GNGGA,040944.900,2500.8148600,N,12132.4730800,E,2,58,0.47,22.72,M,15.25,M,0,3335*74
$GNRMC,040944.900,A,2500.8148600,N,12132.4730800,E,0.04,53.69,030324,,,D,V*3F
$GPHDT,,T*1B
$GNACCURACY,3.9*1C
$GNGGA,040945.000,2500.8148700,N,12132.4730700,E,2,58,0.47,22.72,M,15.25,M,1,3335*73
$GNRMC,040945.000,A,2500.8148700,N,12132.4730700,E,0.04,53.69,030324,,,D,V*39
$GPHDT,,T*1B
$GNACCURACY,3.9*1C
$GNGGA,040945.100,2500.8148700,N,12132.4730600,E,2,58,0.47,22.72,M,15.25,M,1,3335*73
$GNRMC,040945.100,A,2500.8148700,N,12132.4730600,E,0.04,53.69,030324,,,D,V*39
$GPHDT,,T*1B
$GNGSA,A,3,08,194,195,199,21,02,16,07,09,04,26,27,0.74,0.47,0.57,1*36
$GNGSA,A,3,196,,,,,,,,,,,,0.74,0.47,0.57,1*3D
$GNGSA,A,3,83,82,80,79,73,81,,,,,,,0.74,0.47,0.57,2*0A
$GNGSA,A,3,30,15,34,27,07,02,,,,,,,0.74,0.47,0.57,3*01
$GNGSA,A,3,34,06,09,16,11,40,39,25,07,10,12,24,0.74,0.47,0.57,4*03
$GNGSA,A,3,43,44,23,,,,,,,,,,0.74,0.47,0.57,4*00
$GPGSV,4,1,15,08,69,330,47,194,63,049,43,195,61,120,31,199,60,167,25,1*59
$GPGSV,4,2,15,21,48,165,29,27,42,030,13,02,36,179,23,16,32,064,29,1*64
$GPGSV,4,3,15,07,32,320,45,09,28,258,23,04,26,210,29,196,20,172,,1*5C
$GPGSV,4,4,15,26,13,090,29,31,09,140,27,30,02,320,29,1*54
$GPGSV,3,1,09,08,69,330,49,194,63,049,44,199,60,167,35,27,42,030,34,8*6E
$GPGSV,3,2,09,09,28,258,27,04,26,210,22,196,20,172,25,26,13,090,23,8*5E
$GPGSV,3,3,09,30,02,320,27,8*51
$GLGSV,2,1,07,83,64,178,16,82,63,044,42,80,50,018,42,79,32,092,32,1*72
$GLGSV,2,2,07,73,16,324,35,81,15,028,25,71,05,299,28,1*44
$GAGSV,2,1,07,30,50,036,39,15,49,149,32,34,43,068,19,27,37,318,41,7*72
$GAGSV,2,2,07,07,32,231,25,02,15,083,25,36,03,034,,7*4E
$GAGSV,2,1,05,30,50,036,42,34,43,068,33,27,37,318,45,07,32,231,30,1*77
$GAGSV,2,2,05,02,15,083,26,1*49
$GBGSV,4,1,15,34,81,056,38,06,77,216,33,09,75,285,37,16,74,196,27,1*7D
$GBGSV,4,2,15,11,72,199,34,40,63,321,36,39,63,182,36,25,61,348,35,1*7B
$GBGSV,4,3,15,07,61,300,41,10,52,282,33,12,49,041,36,24,48,101,39,1*73
$GBGSV,4,4,15,43,46,215,25,44,25,040,25,23,16,315,42,1*45
$GBGSV,2,1,07,34,81,056,40,39,63,182,34,40,63,321,41,25,61,348,32,4*77
$GBGSV,2,2,07,24,48,101,41,44,25,040,29,23,16,315,32,4*43
$GNACCURACY,3.9*1C
$PAIRSAT,1,35,2,0,201,3,0,200,4,0,221,5,0,200,6,0,200,7,0,201,8,0,221,9,0,221,10,0,200,11,0,200,12,0,200,13,0,200,14,0,200,15,0,200,16,0,201,17,0,200,18,0,200,19,0,200,20,0,200,21,0,201,22,0,200,23,0,200,24,0,200,25,0,200,26,0,220,27,0,221,28,0,200,29,0,200,30,0,220,31,0,201,32,0,200,194,0,621,195,0,621,196,0,620,199,0,621*5B
$PAIRSAT,2,24,65,0,200,66,0,200,67,0,200,68,0,200,69,0,200,70,0,200,71,0,200,72,0,200,73,0,201,74,0,200,75,0,200,76,0,200,77,0,200,78,0,200,79,0,201,80,0,201,81,0,201,82,0,201,83,0,201,84,0,200,85,0,200,86,0,200,87,0,200,88,0,200*7A
$PAIRSAT,3,23,2,0,1021,3,0,1200,4,0,1200,5,0,200,7,0,1221,8,0,1200,9,0,1200,10,0,1200,11,0,1200,12,0,1200,13,0,1200,15,0,1221,19,0,1200,21,0,1200,24,0,1200,25,0,1200,26,0,1200,27,0,1221,30,0,1221,31,0,1200,33,0,1200,34,0,1221,36,0,1200*68
$PAIRSAT,4,46,1,0,200,2,0,200,3,0,600,4,0,200,5,0,200,6,0,201,7,0,201,8,0,200,9,0,201,10,0,201,11,0,201,12,0,201,13,0,200,14,0,200,16,0,201,19,0,600,20,0,600,21,0,600,22,0,600,23,0,621,24,0,621,25,0,621,26,0,600,27,0,600,28,0,600,29,0,600,30,0,600,32,0,600,33,0,600,34,0,621,35,0,600,36,0,600,37,0,600,38,0,600,39,0,621,40,0,421,41,0,400,42,0,400,43,0,421,44,0,421,45,0,400,46,0,400,59,0,400,60,0,400,61,0,400,62,0,400*4A
$PAIRDGP,7,2,4,7,9,16,21,31*60
$GNGGA,040945.200,2500.8148800,N,12132.4730500,E,2,58,0.47,22.72,M,15.25,M,1,3335*7C
$GNRMC,040945.200,A,2500.8148800,N,12132.4730500,E,0.04,53.69,030324,,,D,V*36
$GPHDT,,T*1B
$GNACCURACY,3.9*1C
$GNGGA,040945.300,2500.8148800,N,12132.4730400,E,2,59,0.47,22.73,M,15.25,M,1,3335*7C
$GNRMC,040945.300,A,2500.8148800,N,12132.4730400,E,0.04,53.69,030324,,,D,V*36
$GPHDT,,T*1B
$GNACCURACY,3.9*1C
$GNGGA,040945.400,2500.8148800,N,12132.4730300,E,2,59,0.47,22.73,M,15.25,M,1,3335*7C
$GNRMC,040945.400,A,2500.8148800,N,12132.4730300,E,0.04,53.69,030324,,,D,V*36
$GPHDT,,T*1B
$GNACCURACY,3.9*1C
$GNGGA,040945.500,2500.8148900,N,12132.4730300,E,2,59,0.47,22.73,M,15.25,M,1,3335*7C
$GNRMC,040945.500,A,2500.8148900,N,12132.4730300,E,0.04,53.69,030324,,,D,V*36
$GPHDT,,T*1B
$GNACCURACY,3.9*1C
$GNGGA,040945.600,2500.8148900,N,12132.4730100,E,2,59,0.47,22.73,M,15.25,M,0,3335*7C
$GNRMC,040945.600,A,2500.8148900,N,12132.4730100,E,0.04,53.69,030324,,,D,V*37
$GPHDT,,T*1B
$GNACCURACY,3.9*1C
$GNGGA,040945.700,2500.8149000,N,12132.4730100,E,2,59,0.47,22.73,M,15.25,M,0,3335*75
$GNRMC,040945.700,A,2500.8149000,N,12132.4730100,E,0.04,53.69,030324,,,D,V*3E
$GPHDT,,T*1B
$GNACCURACY,3.9*1C
$GNGGA,040945.800,2500.8149100,N,12132.4730000,E,2,59,0.47,22.73,M,15.25,M,0,3335*7A
$GNRMC,040945.800,A,2500.8149100,N,12132.4730000,E,0.05,53.69,030324,,,D,V*30
$GPHDT,,T*1B
$GNACCURACY,3.9*1C
$GNGGA,040945.900,2500.8149100,N,12132.4729900,E,2,59,0.47,22.73,M,15.25,M,0,3335*7A
$GNRMC,040945.900,A,2500.8149100,N,12132.4729900,E,0.05,53.69,030324,,,D,V*30
$GPHDT,,T*1B
$GNACCURACY,3.9*1C
$GNGGA,040946.000,2500.8149200,N,12132.4729800,E,2,59,0.47,22.73,M,15.25,M,1,3335*73
$GNRMC,040946.000,A,2500.8149200,N,12132.4729800,E,0.04,53.69,030324,,,D,V*39
$GPHDT,,T*1B
$GNACCURACY,3.9*1C
$GNGGA,040946.100,2500.8149300,N,12132.4729700,E,2,59,0.47,22.73,M,15.25,M,1,3335*7C
$GNRMC,040946.100,A,2500.8149300,N,12132.4729700,E,0.04,53.69,030324,,,D,V*36
$GPHDT,,T*1B
$GNGSA,A,3,08,194,195,199,21,02,16,07,09,04,26,27,0.74,0.47,0.57,1*36
$GNGSA,A,3,196,,,,,,,,,,,,0.74,0.47,0.57,1*3D
$GNGSA,A,3,83,82,80,79,73,81,,,,,,,0.74,0.47,0.57,2*0A
$GNGSA,A,3,30,15,34,27,07,02,,,,,,,0.74,0.47,0.57,3*01
$GNGSA,A,3,34,06,09,16,11,40,39,25,07,10,12,24,0.74,0.47,0.57,4*03
$GNGSA,A,3,43,44,23,,,,,,,,,,0.74,0.47,0.57,4*00
$GPGSV,4,1,15,08,69,330,47,194,63,049,43,195,61,120,30,199,60,167,25,1*58
$GPGSV,4,2,15,21,48,165,28,27,42,030,17,02,36,179,24,16,32,064,30,1*6E
$GPGSV,4,3,15,07,32,320,45,09,28,258,25,04,26,210,27,196,20,172,,1*54
$GPGSV,4,4,15,26,13,090,29,31,09,140,27,30,02,320,31,1*5D
$GPGSV,3,1,09,08,69,330,49,194,63,049,44,199,60,167,35,27,42,030,34,8*6E
$GPGSV,3,2,09,09,28,258,27,04,26,210,22,196,20,172,25,26,13,090,24,8*59
$GPGSV,3,3,09,30,02,320,32,8*55
$GLGSV,2,1,07,83,64,178,16,82,63,044,42,80,50,018,41,79,32,092,31,1*72
$GLGSV,2,2,07,73,16,324,35,81,15,028,26,71,05,299,26,1*49
$GAGSV,2,1,07,30,50,036,39,15,49,149,32,34,43,068,21,27,37,318,41,7*79
$GAGSV,2,2,07,07,32,231,25,02,15,083,26,36,03,034,,7*4D
$GAGSV,2,1,05,30,50,036,43,34,43,068,34,27,37,318,45,07,32,231,31,1*70
$GAGSV,2,2,05,02,15,083,27,1*48
$GBGSV,4,1,15,34,81,056,37,06,77,216,32,09,75,285,37,16,74,196,26,1*72
$GBGSV,4,2,15,11,72,199,34,40,63,321,35,39,63,182,36,25,61,348,35,1*78
$GBGSV,4,3,15,07,61,300,41,10,52,282,33,12,49,041,37,24,48,101,39,1*72
$GBGSV,4,4,15,43,46,215,24,44,25,040,25,23,16,315,42,1*44
$GBGSV,2,1,08,34,81,056,40,39,63,182,34,40,63,321,41,25,61,348,33,4*79
$GBGSV,2,2,08,24,48,101,41,43,46,215,28,44,25,040,29,23,16,315,29,4*7F
$GNACCURACY,3.9*1C
$PAIRSAT,1,35,2,0,201,3,0,200,4,0,221,5,0,200,6,0,200,7,0,201,8,0,221,9,0,221,10,0,200,11,0,200,12,0,200,13,0,200,14,0,200,15,0,200,16,0,201,17,0,200,18,0,200,19,0,200,20,0,200,21,0,201,22,0,200,23,0,200,24,0,200,25,0,200,26,0,220,27,0,221,28,0,200,29,0,200,30,0,220,31,0,201,32,0,200,194,0,621,195,0,621,196,0,620,199,0,621*5B
$PAIRSAT,2,24,65,0,200,66,0,200,67,0,200,68,0,200,69,0,200,70,0,200,71,0,200,72,0,200,73,0,201,74,0,200,75,0,200,76,0,200,77,0,200,78,0,200,79,0,201,80,0,201,81,0,201,82,0,201,83,0,201,84,0,200,85,0,200,86,0,200,87,0,200,88,0,200*7A
$PAIRSAT,3,23,2,0,1021,3,0,1200,4,0,1200,5,0,200,7,0,1221,8,0,1200,9,0,1200,10,0,1200,11,0,1200,12,0,1200,13,0,1200,15,0,1221,19,0,1200,21,0,1200,24,0,1200,25,0,1200,26,0,1200,27,0,1221,30,0,1221,31,0,1200,33,0,1200,34,0,1221,36,0,1200*68
$PAIRSAT,4,46,1,0,200,2,0,200,3,0,600,4,0,200,5,0,200,6,0,201,7,0,201,8,0,200,9,0,201,10,0,201,11,0,201,12,0,201,13,0,200,14,0,200,16,0,201,19,0,600,20,0,600,21,0,600,22,0,600,23,0,621,24,0,621,25,0,621,26,0,600,27,0,600,28,0,600,29,0,600,30,0,600,32,0,600,33,0,600,34,0,621,35,0,600,36,0,600,37,0,600,38,0,600,39,0,621,40,0,421,41,0,400,42,0,400,43,0,421,44,0,421,45,0,400,46,0,400,59,0,400,60,0,400,61,0,400,62,0,400*4A
$PAIRDGP,7,2,4,7,9,16,21,31*60
$GNGGA,040946.200,2500.8149300,N,12132.4729700,E,2,59,0.47,22.73,M,15.25,M,1,3335*7F
$GNRMC,040946.200,A,2500.8149300,N,12132.4729700,E,0.04,53.69,030324,,,D,V*35
$GPHDT,,T*1B
$GNACCURACY,3.9*1C
$GNGGA,040946.300,2500.8149400,N,12132.4729600,E,2,59,0.47,22.73,M,15.25,M,1,3335*78
$GNRMC,040946.300,A,2500.8149400,N,12132.4729600,E,0.04,53.69,030324,,,D,V*32
$GPHDT,,T*1B
$GNACCURACY,3.9*1C
$GNGGA,040946.400,2500.8149500,N,12132.4729500,E,2,59,0.47,22.73,M,15.25,M,1,3335*7D
$GNRMC,040946.400,A,2500.8149500,N,12132.4729500,E,0.03,53.69,030324,,,D,V*30
$GPHDT,,T*1B
$GNACCURACY,3.9*1C
$GNGGA,040946.500,2500.8149600,N,12132.4729400,E,2,59,0.47,22.73,M,15.25,M,1,3335*7E
$GNRMC,040946.500,A,2500.8149600,N,12132.4729400,E,0.03,53.69,030324,,,D,V*33
$GPHDT,,T*1B
$GNACCURACY,3.9*1C
$GNGGA,040946.600,2500.8149600,N,12132.4729400,E,2,59,0.47,22.73,M,15.25,M,0,3335*7C
$GNRMC,040946.600,A,2500.8149600,N,12132.4729400,E,0.04,53.69,030324,,,D,V*37
$GPHDT,,T*1B
$GNACCURACY,3.9*1C
$GNGGA,040946.700,2500.8149700,N,12132.4729300,E,2,59,0.47,22.73,M,15.25,M,0,3335*7B
$GNRMC,040946.700,A,2500.8149700,N,12132.4729300,E,0.04,53.69,030324,,,D,V*30
$GPHDT,,T*1B
$GNACCURACY,3.9*1C
$GNGGA,040946.800,2500.8149700,N,12132.4729200,E,2,59,0.47,22.73,M,15.25,M,0,3335*75
$GNRMC,040946.800,A,2500.8149700,N,12132.4729200,E,0.04,53.69,030324,,,D,V*3E
$GPHDT,,T*1B
$GNACCURACY,3.9*1C
$GNGGA,040946.900,2500.8149900,N,12132.4729100,E,2,59,0.47,22.73,M,15.25,M,0,3335*79
$GNRMC,040946.900,A,2500.8149900,N,12132.4729100,E,0.04,53.69,030324,,,D,V*32
$GPHDT,,T*1B
$GNACCURACY,3.9*1C
$GNGGA,040947.000,2500.8149900,N,12132.4729100,E,2,59,0.47,22.73,M,15.25,M,1,3335*70
$GNRMC,040947.000,A,2500.8149900,N,12132.4729100,E,0.04,53.69,030324,,,D,V*3A
$GPHDT,,T*1B
$GNACCURACY,3.9*1C
$GNGGA,040947.100,2500.8150000,N,12132.4729000,E,2,59,0.47,22.73,M,15.25,M,1,3335*71
$GNRMC,040947.100,A,2500.8150000,N,12132.4729000,E,0.05,53.69,030324,,,D,V*3A
$GPHDT,,T*1B
$GNGSA,A,3,08,194,195,199,21,02,16,07,09,04,26,27,0.74,0.47,0.57,1*36
$GNGSA,A,3,196,,,,,,,,,,,,0.74,0.47,0.57,1*3D
$GNGSA,A,3,83,82,80,79,73,81,,,,,,,0.74,0.47,0.57,2*0A
$GNGSA,A,3,30,15,34,27,07,02,,,,,,,0.74,0.47,0.57,3*01
$GNGSA,A,3,34,06,09,16,11,40,39,07,25,10,12,24,0.74,0.47,0.57,4*03
$GNGSA,A,3,43,44,23,,,,,,,,,,0.74,0.47,0.57,4*00
$GPGSV,4,1,15,08,69,330,47,194,63,049,42,195,61,120,30,199,60,167,25,1*59
$GPGSV,4,2,15,21,48,165,25,27,42,030,15,02,36,179,25,16,32,064,29,1*68
$GPGSV,4,3,15,07,32,320,45,09,28,258,25,04,26,210,25,196,20,172,,1*56
$GPGSV,4,4,15,26,13,090,29,31,09,140,28,30,02,320,29,1*5B
$GPGSV,3,1,09,08,69,330,48,194,63,049,42,199,60,167,35,27,42,030,34,8*69
$GPGSV,3,2,09,09,28,258,25,04,26,210,24,196,20,172,24,26,13,090,25,8*5D
$GPGSV,3,3,09,30,02,320,32,8*55
$GLGSV,2,1,07,83,64,178,16,82,63,044,42,80,50,018,40,79,32,092,30,1*72
$GLGSV,2,2,07,73,16,324,35,81,15,028,25,71,05,299,25,1*49
$GAGSV,2,1,07,30,50,036,39,15,49,149,33,34,43,068,21,27,37,318,42,7*7B
$GAGSV,2,2,07,07,32,231,25,02,15,083,27,36,03,034,,7*4C
$GAGSV,2,1,05,30,50,036,43,34,43,068,33,27,37,318,45,07,32,231,31,1*77
$GAGSV,2,2,05,02,15,083,27,1*48
$GBGSV,5,1,17,34,81,056,37,06,77,216,32,09,75,285,37,16,74,196,27,1*70
$GBGSV,5,2,17,11,72,199,34,40,63,321,33,39,63,182,36,07,61,300,41,1*72
$GBGSV,5,3,17,25,61,348,34,10,52,282,34,12,49,041,36,24,48,101,39,1*79
$GBGSV,5,4,17,43,46,215,27,44,25,040,26,23,16,315,42,33,02,210,,1*76
$GBGSV,5,5,17,41,02,255,,1*45
$GBGSV,2,1,08,34,81,056,40,39,63,182,34,40,63,321,40,25,61,348,31,4*7A
$GBGSV,2,2,08,24,48,101,40,43,46,215,27,44,25,040,29,23,16,315,27,4*7F
$GNACCURACY,3.9*1C
$PAIRSAT,1,35,2,0,201,3,0,200,4,0,221,5,0,200,6,0,200,7,0,201,8,0,221,9,0,221,10,0,200,11,0,200,12,0,200,13,0,200,14,0,200,15,0,200,16,0,201,17,0,200,18,0,200,19,0,200,20,0,200,21,0,201,22,0,200,23,0,200,24,0,200,25,0,200,26,0,220,27,0,221,28,0,200,29,0,200,30,0,220,31,0,201,32,0,200,194,0,621,195,0,621,196,0,620,199,0,621*5B
$PAIRSAT,2,24,65,0,200,66,0,200,67,0,200,68,0,200,69,0,200,70,0,200,71,0,200,72,0,200,73,0,201,74,0,200,75,0,200,76,0,200,77,0,200,78,0,200,79,0,201,80,0,201,81,0,201,82,0,201,83,0,201,84,0,200,85,0,200,86,0,200,87,0,200,88,0,200*7A
$PAIRSAT,3,23,2,0,1021,3,0,1200,4,0,1200,5,0,200,7,0,1221,8,0,1200,9,0,1200,10,0,1200,11,0,1200,12,0,1200,13,0,1200,15,0,1221,19,0,1200,21,0,1200,24,0,1200,25,0,1200,26,0,1200,27,0,1221,30,0,1221,31,0,1200,33,0,1200,34,0,1221,36,0,1200*68
$PAIRSAT,4,46,1,0,200,2,0,200,3,0,600,4,0,200,5,0,200,6,0,201,7,0,201,8,0,200,9,0,201,10,0,201,11,0,201,12,0,201,13,0,200,14,0,200,16,0,201,19,0,600,20,0,600,21,0,600,22,0,600,23,0,621,24,0,621,25,0,621,26,0,600,27,0,600,28,0,600,29,0,600,30,0,600,32,0,600,33,0,600,34,0,621,35,0,600,36,0,600,37,0,600,38,0,600,39,0,621,40,0,421,41,0,400,42,0,400,43,0,421,44,0,421,45,0,400,46,0,400,59,0,400,60,0,400,61,0,400,62,0,400*4A
$PAIRDGP,7,2,4,7,9,16,21,31*60
$GNGGA,040947.200,2500.8150100,N,12132.4728900,E,2,59,0.47,22.73,M,15.25,M,1,3335*7B
$GNRMC,040947.200,A,2500.8150100,N,12132.4728900,E,0.04,53.69,030324,,,D,V*31
$GPHDT,,T*1B
$GNACCURACY,3.9*1C
$GNGGA,040947.300,2500.8150200,N,12132.4728900,E,2,59,0.47,22.73,M,15.25,M,1,3335*79
$GNRMC,040947.300,A,2500.8150200,N,12132.4728900,E,0.04,53.69,030324,,,D,V*33
$GPHDT,,T*1B
$GNACCURACY,3.9*1C
$GNGGA,040947.400,2500.8150200,N,12132.4728800,E,2,59,0.47,22.73,M,15.25,M,1,3335*7F
$GNRMC,040947.400,A,2500.8150200,N,12132.4728800,E,0.04,53.69,030324,,,D,V*35
$GPHDT,,T*1B
$GNACCURACY,4.0*12
$GNGGA,040947.500,2500.8150300,N,12132.4728700,E,2,59,0.47,22.74,M,15.25,M,1,3335*77
$GNRMC,040947.500,A,2500.8150300,N,12132.4728700,E,0.03,53.69,030324,,,D,V*3D
$GPHDT,,T*1B
$GNACCURACY,4.0*12
$GNGGA,040947.600,2500.8150300,N,12132.4728600,E,2,59,0.47,22.74,M,15.25,M,0,3335*74
$GNRMC,040947.600,A,2500.8150300,N,12132.4728600,E,0.03,53.69,030324,,,D,V*3F
$GPHDT,,T*1B
$GNACCURACY,4.0*12
$GNGGA,040947.700,2500.8150500,N,12132.4728600,E,2,60,0.47,22.74,M,15.25,M,0,3335*79
$GNRMC,040947.700,A,2500.8150500,N,12132.4728600,E,0.04,53.69,030324,,,D,V*3F
$GPHDT,,T*1B
$GNACCURACY,4.0*12
$GNGGA,040947.800,2500.8150500,N,12132.4728500,E,2,60,0.47,22.74,M,15.25,M,0,3335*75
$GNRMC,040947.800,A,2500.8150500,N,12132.4728500,E,0.04,53.69,030324,,,D,V*33
$GPHDT,,T*1B
$GNACCURACY,4.0*12
$GNGGA,040947.900,2500.8150600,N,12132.4728500,E,2,60,0.47,22.74,M,15.25,M,0,3335*77
$GNRMC,040947.900,A,2500.8150600,N,12132.4728500,E,0.04,53.69,030324,,,D,V*31
$GPHDT,,T*1B
$GNACCURACY,4.0*12
$GNGGA,040948.000,2500.8150700,N,12132.4728400,E,2,60,0.47,22.74,M,15.25,M,1,3335*70
$GNRMC,040948.000,A,2500.8150700,N,12132.4728400,E,0.04,53.69,030324,,,D,V*37
$GPHDT,,T*1B
$GNACCURACY,4.0*12
$GNGGA,040948.100,2500.8150800,N,12132.4728300,E,2,60,0.47,22.74,M,15.25,M,1,3335*79
$GNRMC,040948.100,A,2500.8150800,N,12132.4728300,E,0.04,53.69,030324,,,D,V*3E
$GPHDT,,T*1B
$GNGSA,A,3,08,194,195,199,21,27,02,16,07,09,04,26,0.74,0.47,0.57,1*36
$GNGSA,A,3,196,,,,,,,,,,,,0.74,0.47,0.57,1*3D
$GNGSA,A,3,83,82,80,79,73,81,,,,,,,0.74,0.47,0.57,2*0A
$GNGSA,A,3,30,15,34,27,07,02,,,,,,,0.74,0.47,0.57,3*01
$GNGSA,A,3,34,06,09,16,11,40,39,07,25,10,12,24,0.74,0.47,0.57,4*03
$GNGSA,A,3,43,44,23,,,,,,,,,,0.74,0.47,0.57,4*00
$GPGSV,4,1,15,08,69,330,47,194,63,049,42,195,61,120,30,199,60,167,25,1*59
$GPGSV,4,2,15,21,48,165,25,27,42,030,17,02,36,179,24,16,32,064,29,1*6B
$GPGSV,4,3,15,07,32,320,45,09,28,258,26,04,26,210,25,196,20,172,,1*55
$GPGSV,4,4,15,26,13,090,29,31,09,140,27,30,02,320,29,1*54
$GPGSV,3,1,09,08,69,330,48,194,63,049,42,199,60,167,35,27,42,030,35,8*68
$GPGSV,3,2,09,09,28,258,25,04,26,210,21,196,20,172,25,26,13,090,26,8*5A
$GPGSV,3,3,09,30,02,320,31,8*56
$GLGSV,2,1,07,83,64,178,16,82,63,044,42,80,50,018,40,79,32,092,30,1*72
$GLGSV,2,2,07,73,16,324,35,81,15,028,25,71,05,299,27,1*4B
$GAGSV,2,1,08,30,50,036,39,15,49,149,32,34,43,068,23,27,37,318,42,7*77
$GAGSV,2,2,08,07,32,231,25,02,15,083,26,08,10,182,,36,03,034,,7*70
$GAGSV,2,1,05,30,50,036,43,34,43,068,33,27,37,318,44,07,32,231,31,1*76
$GAGSV,2,2,05,02,15,083,27,1*48
$GBGSV,4,1,15,34,81,055,37,06,77,216,31,09,75,285,36,16,74,196,27,1*72
$GBGSV,4,2,15,11,72,199,33,40,63,321,30,39,63,182,36,07,61,300,41,1*75
$GBGSV,4,3,15,25,61,348,34,10,52,282,33,12,49,041,38,24,48,101,39,1*73
$GBGSV,4,4,15,43,46,215,28,44,25,040,26,23,16,315,42,1*4B
$GBGSV,2,1,08,34,81,055,40,39,63,182,34,40,63,321,39,25,61,348,32,4*74
$GBGSV,2,2,08,24,48,101,39,43,46,215,27,44,25,040,28,23,16,315,25,4*72
$GNACCURACY,4.0*12
$PAIRSAT,1,35,2,0,201,3,0,200,4,0,221,5,0,200,6,0,200,7,0,201,8,0,221,9,0,221,10,0,200,11,0,200,12,0,200,13,0,200,14,0,200,15,0,200,16,0,201,17,0,200,18,0,200,19,0,200,20,0,200,21,0,201,22,0,200,23,0,200,24,0,200,25,0,200,26,0,220,27,0,221,28,0,200,29,0,200,30,0,220,31,0,201,32,0,200,194,0,621,195,0,621,196,0,620,199,0,621*5B
$PAIRSAT,2,24,65,0,200,66,0,200,67,0,200,68,0,200,69,0,200,70,0,200,71,0,200,72,0,200,73,0,201,74,0,200,75,0,200,76,0,200,77,0,200,78,0,200,79,0,201,80,0,201,81,0,201,82,0,201,83,0,201,84,0,200,85,0,200,86,0,200,87,0,200,88,0,200*7A
$PAIRSAT,3,23,2,0,1021,3,0,1200,4,0,1200,5,0,200,7,0,1221,8,0,1200,9,0,1200,10,0,1200,11,0,1200,12,0,1200,13,0,1200,15,0,1221,19,0,1200,21,0,1200,24,0,1200,25,0,1200,26,0,1200,27,0,1221,30,0,1221,31,0,1200,33,0,1200,34,0,1221,36,0,1200*68
$PAIRSAT,4,46,1,0,200,2,0,200,3,0,600,4,0,200,5,0,200,6,0,201,7,0,201,8,0,200,9,0,201,10,0,201,11,0,201,12,0,201,13,0,200,14,0,200,16,0,201,19,0,600,20,0,600,21,0,600,22,0,600,23,0,621,24,0,621,25,0,621,26,0,600,27,0,600,28,0,600,29,0,600,30,0,600,32,0,600,33,0,600,34,0,621,35,0,600,36,0,600,37,0,600,38,0,600,39,0,621,40,0,421,41,0,400,42,0,400,43,0,421,44,0,421,45,0,400,46,0,400,59,0,400,60,0,400,61,0,400,62,0,400*4A
$PAIRDGP,7,2,4,7,9,16,21,31*60
$GNGGA,040948.200,2500.8150800,N,12132.4728200,E,2,60,0.47,22.74,M,15.25,M,1,3335*7B
$GNRMC,040948.200,A,2500.8150800,N,12132.4728200,E,0.04,53.69,030324,,,D,V*3C
$GPHDT,,T*1B
$GNACCURACY,4.0*12
$GNGGA,040948.300,2500.8150900,N,12132.4728200,E,2,60,0.47,22.74,M,15.25,M,1,3335*7B
$GNRMC,040948.300,A,2500.8150900,N,12132.4728200,E,0.03,53.69,030324,,,D,V*3B
$GPHDT,,T*1B
$GNACCURACY,4.0*12
$GNGGA,040948.400,2500.8150900,N,12132.4728100,E,2,60,0.47,22.75,M,15.25,M,1,3335*7E
$GNRMC,040948.400,A,2500.8150900,N,12132.4728100,E,0.04,53.69,030324,,,D,V*38
$GPHDT,,T*1B
$GNACCURACY,4.0*12
$GNGGA,040948.500,2500.8151000,N,12132.4728000,E,2,60,0.47,22.75,M,15.25,M,0,3335*77
$GNRMC,040948.500,A,2500.8151000,N,12132.4728000,E,0.04,53.69,030324,,,D,V*30
$