$FW : RTK35X,V1.1X0314AS,Lib20210517,1*54
$Tool : LOCOSYS , GNSS Firebird , v1.0.0.19*39
$---------------------------------------------------*2D
$GNGSA,A,3,08,194,195,199,21,27,02,07,09,196,26,04,0.74,0.47,0.57,1*0F
$GNGSA,A,3,83,82,80,79,73,81,,,,,,,0.74,0.47,0.57,2*0A
$GNGSA,A,3,30,15,34,27,07,02,,,,,,,0.74,0.47,0.57,3*01
$GNGSA,A,3,34,06,09,16,11,40,39,25,07,10,12,24,0.74,0.47,0.57,4*03
$GNGSA,A,3,43,44,23,,,,,,,,,,0.74,0.47,0.57,4*00
$GPGSV,4,1,15,08,69,331,45,194,63,049,44,195,61,120,33,199,60,167,24,1*5E
$GPGSV,4,2,15,21,48,165,17,27,42,030,28,02,37,179,28,16,32,064,19,1*68
$GPGSV,4,3,15,07,32,320,23,09,28,257,27,04,26,210,23,196,20,172,19,1*55
$GPGSV,4,4,15,26,13,090,26,31,09,141,17,30,03,320,23,1*52
$GPGSV,2,1,07,08,69,331,42,194,63,049,48,195,61,120,25,27,42,030,37,8*6B
$GPGSV,2,2,07,09,28,257,24,04,26,210,32,26,13,090,27,8*57
$GLGSV,2,1,07,83,64,178,21,82,63,043,43,80,50,018,39,79,32,092,26,1*79
$GLGSV,2,2,07,73,16,324,21,81,15,028,26,71,05,299,19,1*40
$GAGSV,2,1,07,30,50,036,39,15,49,149,34,34,43,068,31,27,37,318,29,7*70
$GAGSV,2,2,07,07,32,231,31,02,15,084,29,08,10,182,,7*43
$GAGSV,2,1,05,30,50,036,44,34,43,068,33,27,37,318,31,07,32,231,29,1*7A
$GAGSV,2,2,05,02,15,084,25,1*4D
$GBGSV,4,1,15,34,81,054,37,06,77,216,31,09,75,285,35,16,74,196,23,1*74
$GBGSV,4,2,15,11,72,199,32,40,63,322,32,39,63,182,36,25,61,348,34,1*7B
$GBGSV,4,3,15,07,61,300,35,10,52,283,29,12,48,041,42,24,48,101,35,1*74
$GBGSV,4,4,15,43,47,216,33,44,25,040,26,23,16,315,23,1*44
$GBGSV,2,1,08,34,81,054,43,39,63,182,31,40,63,322,30,25,61,348,33,4*78
$GBGSV,2,2,08,24,48,101,43,43,47,216,31,44,25,040,36,23,16,315,30,4*71
$GNACCURACY,4.1*13
$PAIRSAT,1,35,2,0,201,3,0,200,4,0,221,5,0,200,6,0,200,7,0,201,8,0,221,9,0,221,10,0,200,11,0,200,12,0,200,13,0,200,14,0,200,15,0,200,16,0,201,17,0,200,18,0,200,19,0,200,20,0,200,21,0,201,22,0,200,23,0,200,24,0,200,25,0,200,26,0,220,27,0,221,28,0,200,29,0,200,30,0,220,31,0,201,32,0,200,194,0,621,195,0,621,196,0,620,199,0,621*5B
$PAIRSAT,2,24,65,0,200,66,0,200,67,0,200,68,0,200,69,0,200,70,0,200,71,0,200,72,0,200,73,0,201,74,0,200,75,0,200,76,0,200,77,0,200,78,0,200,79,0,201,80,0,201,81,0,201,82,0,201,83,0,201,84,0,200,85,0,200,86,0,200,87,0,200,88,0,200*7A
$PAIRSAT,3,23,2,0,1021,3,0,1200,4,0,1200,5,0,200,7,0,1221,8,0,1200,9,0,1200,10,0,1200,11,0,1200,12,0,1200,13,0,1200,15,0,1221,19,0,1200,21,0,1200,24,0,1200,25,0,1200,26,0,1200,27,0,1221,30,0,1221,31,0,1200,33,0,1200,34,0,1221,36,0,1200*68
$PAIRSAT,4,46,1,0,200,2,0,200,3,0,600,4,0,200,5,0,200,6,0,201,7,0,201,8,0,200,9,0,201,10,0,201,11,0,201,12,0,201,13,0,200,14,0,200,16,0,201,19,0,600,20,0,600,21,0,600,22,0,600,23,0,621,24,0,621,25,0,621,26,0,600,27,0,600,28,0,600,29,0,600,30,0,600,32,0,600,33,0,600,34,0,621,35,0,600,36,0,600,37,0,600,38,0,600,39,0,621,40,0,621,41,0,400,42,0,400,43,0,421,44,0,421,45,0,400,46,0,400,59,0,400,60,0,400,61,0,400,62,0,400*48
$PAIRDGP,6,2,4,7,9,16,21*4F
$GNGGA,041007.200,2500.8155100,N,12132.4716100,E,2,58,0.47,23.14,M,15.25,M,1,3335*76
$GNRMC,041007.200,A,2500.8155100,N,12132.4716100,E,0.03,53.69,030324,,,D,V*3A
$GPHDT,,T*1B
$GNACCURACY,4.1*13
$GNGGA,041007.300,2500.8155100,N,12132.4716100,E,2,58,0.47,23.15,M,15.25,M,1,3335*76
$GNRMC,041007.300,A,2500.8155100,N,12132.4716100,E,0.03,53.69,030324,,,D,V*3B
$GPHDT,,T*1B
$GNACCURACY,4.1*13
$GNGGA,041007.400,2500.8155100,N,12132.4716100,E,2,58,0.47,23.15,M,15.25,M,1,3335*71
$GNRMC,041007.400,A,2500.8155100,N,12132.4716100,E,0.03,53.69,030324,,,D,V*3C
$GPHDT,,T*1B
$GNACCURACY,4.0*12
$GNGGA,041007.500,2500.8155100,N,12132.4716100,E,2,58,0.47,23.15,M,15.25,M,0,3335*71
$GNRMC,041007.500,A,2500.8155100,N,12132.4716100,E,0.03,53.69,030324,,,D,V*3D
$GPHDT,,T*1B
$GNACCURACY,4.0*12
$GNGGA,041007.600,2500.8155100,N,12132.4716100,E,2,58,0.47,23.15,M,15.25,M,0,3335*72
$GNRMC,041007.600,A,2500.8155100,N,12132.4716100,E,0.03,53.69,030324,,,D,V*3E
$GPHDT,,T*1B
$GNACCURACY,4.0*12
$GNGGA,041007.700,2500.8155100,N,12132.4716100,E,2,58,0.47,23.15,M,15.25,M,0,3335*73
$GNRMC,041007.700,A,2500.8155100,N,12132.4716100,E,0.02,53.69,030324,,,D,V*3E
$GPHDT,,T*1B
$GNACCURACY,3.9*1C
$GNGGA,041007.800,2500.8155100,N,12132.4716000,E,2,59,0.47,23.15,M,15.25,M,0,3335*7C
$GNRMC,041007.800,A,2500.8155100,N,12132.4716000,E,0.03,53.69,030324,,,D,V*31
$GPHDT,,T*1B
$GNACCURACY,3.9*1C
$GNGGA,041007.900,2500.8155100,N,12132.4716000,E,2,59,0.47,23.16,M,15.25,M,0,3335*7E
$GNRMC,041007.900,A,2500.8155100,N,12132.4716000,E,0.03,53.69,030324,,,D,V*30
$GPHDT,,T*1B
$GNACCURACY,3.9*1C
$GNGGA,041008.000,2500.8155100,N,12132.4716000,E,2,60,0.47,23.16,M,15.25,M,1,3335*73
$GNRMC,041008.000,A,2500.8155100,N,12132.4716000,E,0.03,53.69,030324,,,D,V*36
$GPHDT,,T*1B
$GNACCURACY,3.9*1C
$GNGGA,041008.100,2500.8155100,N,12132.4715900,E,2,59,0.47,23.16,M,15.25,M,1,3335*72
$GNRMC,041008.100,A,2500.8155100,N,12132.4715900,E,0.04,53.69,030324,,,D,V*3A
$GPHDT,,T*1B
$GNGSA,A,3,08,194,195,199,21,27,02,16,07,09,04,196,0.74,0.47,0.57,1*0C
$GNGSA,A,3,26,,,,,,,,,,,,0.74,0.47,0.57,1*07
$GNGSA,A,3,83,82,80,79,73,81,,,,,,,0.74,0.47,0.57,2*0A
$GNGSA,A,3,30,15,34,27,07,02,,,,,,,0.74,0.47,0.57,3*01
$GNGSA,A,3,34,06,09,16,11,40,39,25,07,10,12,24,0.74,0.47,0.57,4*03
$GNGSA,A,3,43,44,23,,,,,,,,,,0.74,0.47,0.57,4*00
$GPGSV,4,1,15,08,69,331,45,194,63,049,44,195,61,120,34,199,60,167,24,1*59
$GPGSV,4,2,15,21,48,165,18,27,42,030,30,02,37,179,29,16,32,064,20,1*65
$GPGSV,4,3,15,07,32,320,34,09,28,257,25,04,26,210,28,196,20,172,22,1*52
$GPGSV,4,4,15,26,13,090,27,31,09,141,17,30,03,320,24,1*54
$GPGSV,2,1,07,08,69,331,43,194,63,049,48,195,61,120,26,27,42,030,38,8*66
$GPGSV,2,2,07,09,28,257,27,04,26,210,30,26,13,090,26,8*57
$GLGSV,2,1,07,83,64,178,22,82,63,043,43,80,50,018,40,79,32,092,24,1*76
$GLGSV,2,2,07,73,16,324,20,81,15,028,25,71,05,299,18,1*43
$GAGSV,2,1,07,30,50,036,39,15,49,149,33,34,43,068,30,27,37,318,36,7*78
$GAGSV,2,2,07,07,32,231,31,02,15,084,31,08,10,182,,7*4A
$GAGSV,2,1,05,30,50,036,45,34,43,068,33,27,37,318,37,07,32,231,30,1*75
$GAGSV,2,2,05,02,15,084,22,1*4A
$GBGSV,4,1,15,34,81,054,37,06,77,216,29,09,75,285,37,16,74,196,21,1*7D
$GBGSV,4,2,15,11,72,199,32,40,63,322,33,39,63,182,36,25,61,348,34,1*7A
$GBGSV,4,3,15,07,61,300,35,10,52,283,33,12,48,041,42,24,48,101,37,1*7D
$GBGSV,4,4,15,43,47,216,36,44,25,040,27,23,16,315,19,1*49
$GBGSV,2,1,08,34,81,054,43,39,63,182,33,40,63,322,34,25,61,348,33,4*7E
$GBGSV,2,2,08,24,48,101,41,43,47,216,30,44,25,040,36,23,16,315,31,4*73
$GNACCURACY,3.9*1C
$PAIRSAT,1,35,2,0,201,3,0,200,4,0,221,5,0,200,6,0,200,7,0,201,8,0,221,9,0,221,10,0,200,11,0,200,12,0,200,13,0,200,14,0,200,15,0,200,16,0,201,17,0,200,18,0,200,19,0,200,20,0,200,21,0,201,22,0,200,23,0,200,24,0,200,25,0,200,26,0,220,27,0,221,28,0,200,29,0,200,30,0,220,31,0,201,32,0,200,194,0,621,195,0,621,196,0,620,199,0,621*5B
$PAIRSAT,2,24,65,0,200,66,0,200,67,0,200,68,0,200,69,0,200,70,0,200,71,0,200,72,0,200,73,0,201,74,0,200,75,0,200,76,0,200,77,0,200,78,0,200,79,0,201,80,0,201,81,0,201,82,0,201,83,0,201,84,0,200,85,0,200,86,0,200,87,0,200,88,0,200*7A
$PAIRSAT,3,23,2,0,1021,3,0,1200,4,0,1200,5,0,200,7,0,1221,8,0,1200,9,0,1200,10,0,1200,11,0,1200,12,0,1200,13,0,1200,15,0,1221,19,0,1200,21,0,1200,24,0,1200,25,0,1200,26,0,1200,27,0,1221,30,0,1221,31,0,1200,33,0,1200,34,0,1221,36,0,1200*68
$PAIRSAT,4,46,1,0,200,2,0,200,3,0,600,4,0,200,5,0,200,6,0,201,7,0,201,8,0,200,9,0,201,10,0,201,11,0,201,12,0,201,13,0,200,14,0,200,16,0,201,19,0,600,20,0,600,21,0,600,22,0,600,23,0,621,24,0,621,25,0,621,26,0,600,27,0,600,28,0,600,29,0,600,30,0,600,32,0,600,33,0,600,34,0,621,35,0,600,36,0,600,37,0,600,38,0,600,39,0,621,40,0,621,41,0,400,42,0,400,43,0,421,44,0,421,45,0,400,46,0,400,59,0,400,60,0,400,61,0,400,62,0,400*48
$PAIRDGP,6,2,4,7,9,16,21*4F
$GNGGA,041008.200,2500.8155100,N,12132.4715900,E,2,60,0.47,23.16,M,15.25,M,1,3335*7B
$GNRMC,041008.200,A,2500.8155100,N,12132.4715900,E,0.04,53.69,030324,,,D,V*39
$GPHDT,,T*1B
$GNACCURACY,3.9*1C
$GNGGA,041008.300,2500.8155100,N,12132.4716000,E,2,59,0.47,23.16,M,15.25,M,1,3335*7A
$GNRMC,041008.300,A,2500.8155100,N,12132.4716000,E,0.03,53.69,030324,,,D,V*35
$GPHDT,,T*1B
$GNACCURACY,3.9*1C
$GNGGA,041008.400,2500.8155000,N,12132.4716000,E,2,59,0.47,23.16,M,15.25,M,1,3335*7C
$GNRMC,041008.400,A,2500.8155000,N,12132.4716000,E,0.02,53.69,030324,,,D,V*32
$GPHDT,,T*1B
$GNACCURACY,3.9*1C
$GNGGA,041008.500,2500.8155000,N,12132.4716000,E,2,59,0.47,23.16,M,15.25,M,1,3335*7D
$GNRMC,041008.500,A,2500.8155000,N,12132.4716000,E,0.02,53.69,030324,,,D,V*33
$GPHDT,,T*1B
$GNACCURACY,3.9*1C
$GNGGA,041008.600,2500.8155000,N,12132.4716000,E,2,59,0.47,23.16,M,15.25,M,0,3335*7F
$GNRMC,041008.600,A,2500.8155000,N,12132.4716000,E,0.03,53.69,030324,,,D,V*31
$GPHDT,,T*1B
$GNACCURACY,3.9*1C
$GNGGA,041008.700,2500.8155000,N,12132.4716100,E,2,59,0.47,23.16,M,15.25,M,0,3335*7F
$GNRMC,041008.700,A,2500.8155000,N,12132.4716100,E,0.03,53.69,030324,,,D,V*31
$GPHDT,,T*1B
$GNACCURACY,3.9*1C
$GNGGA,041008.800,2500.8154900,N,12132.4716200,E,2,59,0.47,23.16,M,15.25,M,0,3335*7B
$GNRMC,041008.800,A,2500.8154900,N,12132.4716200,E,0.03,53.69,030324,,,D,V*35
$GPHDT,,T*1B
$GNACCURACY,3.9*1C
$GNGGA,041008.900,2500.8154800,N,12132.4716200,E,2,59,0.47,23.16,M,15.25,M,0,3335*7B
$GNRMC,041008.900,A,2500.8154800,N,12132.4716200,E,0.03,53.69,030324,,,D,V*35
$GPHDT,,T*1B
$GNACCURACY,3.9*1C
$GNGGA,041009.000,2500.8154800,N,12132.4716300,E,2,58,0.47,23.16,M,15.25,M,1,3335*72
$GNRMC,041009.000,A,2500.8154800,N,12132.4716300,E,0.03,53.69,030324,,,D,V*3C
$GPHDT,,T*1B
$GNACCURACY,3.9*1C
$GNGGA,041009.100,2500.8154700,N,12132.4716300,E,2,58,0.47,23.16,M,15.25,M,1,3335*7C
$GNRMC,041009.100,A,2500.8154700,N,12132.4716300,E,0.03,53.69,030324,,,D,V*32
$GPHDT,,T*1B
$GNGSA,A,3,08,194,195,199,21,27,02,07,09,04,196,26,0.74,0.47,0.57,1*0F
$GNGSA,A,3,83,82,80,79,73,81,,,,,,,0.74,0.47,0.57,2*0A
$GNGSA,A,3,30,15,34,27,07,02,,,,,,,0.74,0.47,0.57,3*01
$GNGSA,A,3,34,06,09,16,11,39,40,25,07,10,24,12,0.74,0.47,0.57,4*03
$GNGSA,A,3,43,44,23,,,,,,,,,,0.74,0.47,0.57,4*00
$GPGSV,4,1,15,08,69,331,46,194,63,049,44,195,61,120,35,199,60,167,24,1*5B
$GPGSV,4,2,15,21,48,165,19,27,42,030,27,02,37,179,26,16,32,064,17,1*69
$GPGSV,4,3,15,07,32,320,40,09,28,257,27,04,26,210,27,196,20,172,24,1*5A
$GPGSV,4,4,15,26,13,090,25,31,09,141,17,30,03,320,20,1*52
$GPGSV,2,1,07,08,69,331,45,194,63,049,48,195,61,120,32,27,42,030,38,8*65
$GPGSV,2,2,07,09,28,257,29,04,26,210,31,26,13,090,26,8*58
$GLGSV,2,1,07,83,64,178,23,82,63,043,43,80,50,018,41,79,32,092,25,1*77
$GLGSV,2,2,07,73,16,324,19,81,15,028,25,71,05,299,21,1*43
$GAGSV,2,1,06,30,50,036,39,15,49,149,32,34,43,068,30,27,37,318,35,7*7B
$GAGSV,2,2,06,07,32,231,29,02,15,084,28,7*78
$GAGSV,2,1,05,30,50,036,46,34,43,068,32,27,37,318,40,07,32,231,32,1*75
$GAGSV,2,2,05,02,15,084,21,1*49
$GBGSV,4,1,15,34,81,054,36,06,77,216,31,09,75,285,37,16,74,196,23,1*77
$GBGSV,4,2,15,11,72,199,31,39,63,182,37,40,63,322,32,25,61,348,36,1*7B
$GBGSV,4,3,15,07,61,300,39,10,52,283,37,24,48,101,35,12,48,041,43,1*76
$GBGSV,4,4,15,43,47,216,37,44,25,040,27,23,16,315,34,1*47
$GBGSV,2,1,08,34,81,054,42,39,63,182,31,40,63,322,38,25,61,348,34,4*76
$GBGSV,2,2,08,24,48,101,42,43,47,216,28,44,25,040,36,23,16,315,18,4*72
$GNACCURACY,3.9*1C
$PAIRSAT,1,35,2,0,201,3,0,200,4,0,221,5,0,200,6,0,200,7,0,201,8,0,221,9,0,221,10,0,200,11,0,200,12,0,200,13,0,200,14,0,200,15,0,200,16,0,201,17,0,200,18,0,200,19,0,200,20,0,200,21,0,201,22,0,200,23,0,200,24,0,200,25,0,200,26,0,220,27,0,221,28,0,200,29,0,200,30,0,220,31,0,201,32,0,200,194,0,621,195,0,621,196,0,620,199,0,621*5B
$PAIRSAT,2,24,65,0,200,66,0,200,67,0,200,68,0,200,69,0,200,70,0,200,71,0,200,72,0,200,73,0,201,74,0,200,75,0,200,76,0,200,77,0,200,78,0,200,79,0,201,80,0,201,81,0,201,82,0,201,83,0,201,84,0,200,85,0,200,86,0,200,87,0,200,88,0,200*7A
$PAIRSAT,3,23,2,0,1021,3,0,1200,4,0,1200,5,0,200,7,0,1221,8,0,1200,9,0,1200,10,0,1200,11,0,1200,12,0,1200,13,0,1200,15,0,1221,19,0,1200,21,0,1200,24,0,1200,25,0,1200,26,0,1200,27,0,1221,30,0,1221,31,0,1200,33,0,1200,34,0,1221,36,0,1200*68
$PAIRSAT,4,46,1,0,200,2,0,200,3,0,600,4,0,200,5,0,200,6,0,201,7,0,201,8,0,200,9,0,201,10,0,201,11,0,201,12,0,201,13,0,200,14,0,200,16,0,201,19,0,600,20,0,600,21,0,600,22,0,600,23,0,621,24,0,621,25,0,621,26,0,600,27,0,600,28,0,600,29,0,600,30,0,600,32,0,600,33,0,600,34,0,621,35,0,600,36,0,600,37,0,600,38,0,600,39,0,621,40,0,621,41,0,400,42,0,400,43,0,421,44,0,421,45,0,400,46,0,400,59,0,400,60,0,400,61,0,400,62,0,400*48
$PAIRDGP,6,2,4,7,9,16,21*4F
$GNGGA,041009.200,2500.8154700,N,12132.4716300,E,2,59,0.47,23.16,M,15.25,M,1,3335*7E
$GNRMC,041009.200,A,2500.8154700,N,12132.4716300,E,0.03,53.69,030324,,,D,V*31
$GPHDT,,T*1B
$GNACCURACY,3.9*1C
$GNGGA,041009.300,2500.8154700,N,12132.4716400,E,2,58,0.47,23.17,M,15.25,M,1,3335*78
$GNRMC,041009.300,A,2500.8154700,N,12132.4716400,E,0.03,53.69,030324,,,D,V*37
$GPHDT,,T*1B
$GNACCURACY,3.9*1C
$GNGGA,041009.400,2500.8154600,N,12132.4716500,E,2,57,0.47,23.17,M,15.25,M,1,3335*70
$GNRMC,041009.400,A,2500.8154600,N,12132.4716500,E,0.03,53.69,030324,,,D,V*30
$GPHDT,,T*1B
$GNACCURACY,3.9*1C
$GNGGA,041009.500,2500.8154500,N,12132.4716500,E,2,58,0.47,23.17,M,15.25,M,1,3335*7D
$GNRMC,041009.500,A,2500.8154500,N,12132.4716500,E,0.03,53.69,030324,,,D,V*32
$GPHDT,,T*1B
$GNACCURACY,3.9*1C
$GNGGA,041009.600,2500.8154500,N,12132.4716600,E,2,58,0.47,23.17,M,15.25,M,0,3335*7C
$GNRMC,041009.600,A,2500.8154500,N,12132.4716600,E,0.03,53.69,030324,,,D,V*32
$GPHDT,,T*1B
$GNACCURACY,3.9*1C
$GNGGA,041009.700,2500.8154400,N,12132.4716600,E,2,58,0.47,23.17,M,15.25,M,0,3335*7C
$GNRMC,041009.700,A,2500.8154400,N,12132.4716600,E,0.02,53.69,030324,,,D,V*33
$GPHDT,,T*1B
$GNACCURACY,3.9*1C
$GNGGA,041009.800,2500.8154400,N,12132.4716700,E,2,58,0.47,23.17,M,15.25,M,0,3335*72
$GNRMC,041009.800,A,2500.8154400,N,12132.4716700,E,0.02,53.69,030324,,,D,V*3D
$GPHDT,,T*1B
$GNACCURACY,3.9*1C
$GNGGA,041009.900,2500.8154300,N,12132.4716800,E,2,58,0.47,23.17,M,15.25,M,0,3335*7B
$GNRMC,041009.900,A,2500.8154300,N,12132.4716800,E,0.02,53.69,030324,,,D,V*34
$GPHDT,,T*1B
$GNACCURACY,3.9*1C
$GNGGA,041010.000,2500.8154200,N,12132.4716800,E,2,58,0.47,23.18,M,15.25,M,1,3335*75
$GNRMC,041010.000,A,2500.8154200,N,12132.4716800,E,0.02,53.69,030324,,,D,V*34
$GPHDT,,T*1B
$GNACCURACY,3.9*1C
$GNGGA,041010.100,2500.8154200,N,12132.4716900,E,2,58,0.47,23.18,M,15.25,M,1,3335*75
$GNRMC,041010.100,A,2500.8154200,N,12132.4716900,E,0.02,53.69,030324,,,D,V*34
$GPHDT,,T*1B
$GNGSA,A,3,08,194,195,199,21,27,02,07,09,196,26,04,0.74,0.47,0.57,1*0F
$GNGSA,A,3,83,82,80,79,73,81,,,,,,,0.74,0.47,0.57,2*0A
$GNGSA,A,3,30,15,34,27,07,02,,,,,,,0.74,0.47,0.57,3*01
$GNGSA,A,3,34,06,09,16,11,39,40,25,07,10,24,12,0.74,0.47,0.57,4*03
$GNGSA,A,3,43,44,23,,,,,,,,,,0.74,0.47,0.57,4*00
$GPGSV,4,1,15,08,69,331,46,194,63,049,44,195,61,120,34,199,60,167,23,1*5D
$GPGSV,4,2,15,21,48,165,20,27,42,030,26,02,37,179,26,16,32,064,17,1*62
$GPGSV,4,3,15,07,32,320,40,09,28,257,29,04,26,210,26,196,20,172,25,1*54
$GPGSV,4,4,15,26,13,090,24,31,09,141,18,30,03,320,20,1*5C
$GPGSV,2,1,08,08,69,331,45,194,63,049,48,195,61,120,32,199,60,167,26,8*52
$GPGSV,2,2,08,27,42,030,38,09,28,257,28,04,26,210,31,26,13,090,25,8*6E
$GLGSV,2,1,07,83,64,178,23,82,63,043,43,80,50,018,42,79,32,092,22,1*73
$GLGSV,2,2,07,73,16,324,23,81,15,028,26,71,05,299,25,1*4D
$GAGSV,2,1,06,30,50,036,39,15,49,149,32,34,43,068,31,27,37,318,36,7*79
$GAGSV,2,2,06,07,32,231,29,02,15,084,29,7*79
$GAGSV,2,1,05,30,50,036,46,34,43,068,32,27,37,318,40,07,32,231,32,1*75
$GAGSV,2,2,05,02,15,084,18,1*43
$GBGSV,4,1,15,34,81,054,36,06,77,216,30,09,75,285,37,16,74,196,23,1*76
$GBGSV,4,2,15,11,72,199,29,39,63,182,37,40,63,322,32,25,61,348,36,1*72
$GBGSV,4,3,15,07,61,300,40,10,52,283,38,24,48,101,35,12,48,041,43,1*77
$GBGSV,4,4,15,43,47,216,37,44,25,040,28,23,16,315,34,1*48
$GBGSV,2,1,07,34,81,054,42,39,63,182,30,40,63,322,39,25,61,348,34,4*79
$GBGSV,2,2,07,24,48,101,42,43,47,216,28,44,25,040,36,4*45
$GNACCURACY,3.9*1C
$PAIRSAT,1,35,2,0,201,3,0,200,4,0,221,5,0,200,6,0,200,7,0,201,8,0,221,9,0,221,10,0,200,11,0,200,12,0,200,13,0,200,14,0,200,15,0,200,16,0,201,17,0,200,18,0,200,19,0,200,20,0,200,21,0,201,22,0,200,23,0,200,24,0,200,25,0,200,26,0,220,27,0,221,28,0,200,29,0,200,30,0,220,31,0,201,32,0,200,194,0,621,195,0,621,196,0,620,199,0,621*5B
$PAIRSAT,2,24,65,0,200,66,0,200,67,0,200,68,0,200,69,0,200,70,0,200,71,0,200,72,0,200,73,0,201,74,0,200,75,0,200,76,0,200,77,0,200,78,0,200,79,0,201,80,0,201,81,0,201,82,0,201,83,0,201,84,0,200,85,0,200,86,0,200,87,0,200,88,0,200*7A
$PAIRSAT,3,23,2,0,1021,3,0,1200,4,0,1200,5,0,200,7,0,1221,8,0,1200,9,0,1200,10,0,1200,11,0,1200,12,0,1200,13,0,1200,15,0,1221,19,0,1200,21,0,1200,24,0,1200,25,0,1200,26,0,1200,27,0,1221,30,0,1221,31,0,1200,33,0,1200,34,0,1221,36,0,1200*68
$PAIRSAT,4,46,1,0,200,2,0,200,3,0,600,4,0,200,5,0,200,6,0,201,7,0,201,8,0,200,9,0,201,10,0,201,11,0,201,12,0,201,13,0,200,14,0,200,16,0,201,19,0,600,20,0,600,21,0,600,22,0,600,23,0,621,24,0,621,25,0,621,26,0,600,27,0,600,28,0,600,29,0,600,30,0,600,32,0,600,33,0,600,34,0,621,35,0,600,36,0,600,37,0,600,38,0,600,39,0,621,40,0,621,41,0,400,42,0,400,43,0,421,44,0,421,45,0,400,46,0,400,59,0,400,60,0,400,61,0,400,62,0,400*48
$PAIRDGP,6,2,4,7,9,16,21*4F
$GNGGA,041010.200,2500.8154200,N,12132.4716900,E,2,58,0.47,23.18,M,15.25,M,1,3335*76
$GNRMC,041010.200,A,2500.8154200,N,12132.4716900,E,0.02,53.69,030324,,,D,V*37
$GPHDT,,T*1B
$GNACCURACY,3.9*1C
$GNGGA,041010.300,2500.8154100,N,12132.4717000,E,2,58,0.47,23.18,M,15.25,M,1,3335*7C
$GNRMC,041010.300,A,2500.8154100,N,12132.4717000,E,0.03,53.69,030324,,,D,V*3C
$GPHDT,,T*1B
$GNACCURACY,3.9*1C
$GNGGA,041010.400,2500.8154100,N,12132.4717100,E,2,58,0.47,23.18,M,15.25,M,1,3335*7A
$GNRMC,041010.400,A,2500.8154100,N,12132.4717100,E,0.03,53.69,030324,,,D,V*3A
$GPHDT,,T*1B
$GNACCURACY,3.9*1C
$GNGGA,041010.500,2500.8154000,N,12132.4717100,E,2,58,0.47,23.18,M,15.25,M,1,3335*7A
$GNRMC,041010.500,A,2500.8154000,N,12132.4717100,E,0.03,53.69,030324,,,D,V*3A
$GPHDT,,T*1B
$GNACCURACY,3.9*1C
$GNGGA,041010.600,2500.8153900,N,12132.4717200,E,2,58,0.47,23.19,M,15.25,M,1,3335*75
$GNRMC,041010.600,A,2500.8153900,N,12132.4717200,E,0.03,53.69,030324,,,D,V*34
$GPHDT,,T*1B
$GNACCURACY,3.9*1C
$GNGGA,041010.700,2500.8153900,N,12132.4717300,E,2,58,0.47,23.19,M,15.25,M,0,3335*74
$GNRMC,041010.700,A,2500.8153900,N,12132.4717300,E,0.03,53.69,030324,,,D,V*34
$GPHDT,,T*1B
$GNACCURACY,3.9*1C
$GNGGA,041010.800,2500.8153800,N,12132.4717400,E,2,58,0.47,23.19,M,15.25,M,0,3335*7D
$GNRMC,041010.800,A,2500.8153800,N,12132.4717400,E,0.03,53.69,030324,,,D,V*3D
$GPHDT,,T*1B
$GNACCURACY,3.9*1C
$GNGGA,041010.900,2500.8153800,N,12132.4717400,E,2,58,0.47,23.19,M,15.25,M,0,3335*7C
$GNRMC,041010.900,A,2500.8153800,N,12132.4717400,E,0.03,53.69,030324,,,D,V*3C
$GPHDT,,T*1B
$GNACCURACY,3.9*1C
$GNGGA,041011.000,2500.8153700,N,12132.4717500,E,2,58,0.47,23.19,M,15.25,M,1,3335*7B
$GNRMC,041011.000,A,2500.8153700,N,12132.4717500,E,0.03,53.69,030324,,,D,V*3A
$GPHDT,,T*1B
$GNACCURACY,3.9*1C
$GNGGA,041011.100,2500.8153700,N,12132.4717500,E,2,58,0.47,23.20,M,15.25,M,1,3335*70
$GNRMC,041011.100,A,2500.8153700,N,12132.4717500,E,0.03,53.69,030324,,,D,V*3B
$GPHDT,,T*1B
$GNGSA,A,3,08,194,195,199,21,27,02,07,09,196,26,04,0.74,0.47,0.57,1*0F
$GNGSA,A,3,83,82,80,79,73,81,,,,,,,0.74,0.47,0.57,2*0A
$GNGSA,A,3,30,15,34,27,07,02,,,,,,,0.74,0.47,0.57,3*01
$GNGSA,A,3,34,06,09,16,11,40,39,25,07,10,12,24,0.74,0.47,0.57,4*03
$GNGSA,A,3,43,44,23,,,,,,,,,,0.74,0.47,0.57,4*00
$GPGSV,4,1,15,08,69,331,46,194,63,049,44,195,61,120,34,199,60,167,24,1*5A
$GPGSV,4,2,15,21,48,165,18,27,42,030,25,02,37,179,26,16,32,064,19,1*64
$GPGSV,4,3,15,07,32,320,40,09,28,257,29,04,26,210,26,196,20,172,25,1*54
$GPGSV,4,4,15,26,13,090,24,31,09,141,19,30,03,320,20,1*5D
$GPGSV,2,1,08,08,69,331,45,194,63,049,48,195,61,120,32,199,60,167,26,8*52
$GPGSV,2,2,08,27,42,030,38,09,28,257,27,04,26,210,31,26,13,090,25,8*61
$GLGSV,2,1,07,83,64,178,23,82,63,043,43,80,50,018,42,79,32,092,21,1*70
$GLGSV,2,2,07,73,16,324,22,81,15,028,27,71,05,299,24,1*4C
$GAGSV,2,1,07,30,50,036,39,15,49,149,32,34,43,068,31,27,37,318,36,7*78
$GAGSV,2,2,07,07,32,231,30,02,15,084,29,13,11,192,,7*48
$GAGSV,2,1,05,30,50,036,46,34,43,068,32,27,37,318,40,07,32,231,32,1*75
$GAGSV,2,2,05,02,15,084,18,1*43
$GBGSV,4,1,15,34,81,054,36,06,77,216,30,09,75,285,37,16,74,196,23,1*76
$GBGSV,4,2,15,11,72,199,29,40,63,322,32,39,63,182,37,25,61,348,36,1*72
$GBGSV,4,3,15,07,61,300,40,10,52,283,38,12,48,041,43,24,48,101,35,1*77
$GBGSV,4,4,15,43,47,216,37,44,25,040,28,23,16,315,34,1*48
$GBGSV,2,1,07,34,81,054,42,39,63,182,29,40,63,322,39,25,61,348,34,4*71
$GBGSV,2,2,07,24,48,101,42,43,47,216,28,44,25,040,36,4*45
$GNACCURACY,3.9*1C
$PAIRSAT,1,35,2,0,201,3,0,200,4,0,221,5,0,200,6,0,200,7,0,201,8,0,221,9,0,221,10,0,200,11,0,200,12,0,200,13,0,200,14,0,200,15,0,200,16,0,201,17,0,200,18,0,200,19,0,200,20,0,200,21,0,201,22,0,200,23,0,200,24,0,200,25,0,200,26,0,220,27,0,221,28,0,200,29,0,200,30,0,220,31,0,201,32,0,200,194,0,621,195,0,621,196,0,620,199,0,621*5B
$PAIRSAT,2,24,65,0,200,66,0,200,67,0,200,68,0,200,69,0,200,70,0,200,71,0,200,72,0,200,73,0,201,74,0,200,75,0,200,76,0,200,77,0,200,78,0,200,79,0,201,80,0,201,81,0,201,82,0,201,83,0,201,84,0,200,85,0,200,86,0,200,87,0,200,88,0,200*7A
$PAIRSAT,3,23,2,0,1021,3,0,1200,4,0,1200,5,0,200,7,0,1221,8,0,1200,9,0,1200,10,0,1200,11,0,1200,12,0,1200,13,0,1200,15,0,1221,19,0,1200,21,0,1200,24,0,1200,25,0,1200,26,0,1200,27,0,1221,30,0,1221,31,0,1200,33,0,1200,34,0,1221,36,0,1200*68
$PAIRSAT,4,46,1,0,200,2,0,200,3,0,600,4,0,200,5,0,200,6,0,201,7,0,201,8,0,200,9,0,201,10,0,201,11,0,201,12,0,201,13,0,200,14,0,200,16,0,201,19,0,600,20,0,600,21,0,600,22,0,600,23,0,621,24,0,621,25,0,621,26,0,600,27,0,600,28,0,600,29,0,600,30,0,600,32,0,600,33,0,600,34,0,621,35,0,600,36,0,600,37,0,600,38,0,600,39,0,621,40,0,621,41,0,400,42,0,400,43,0,421,44,0,421,45,0,400,46,0,400,59,0,400,60,0,400,61,0,400,62,0,400*48
$PAIRDGP,6,2,4,7,9,16,21*4F
$GNGGA,041011.200,2500.8153600,N,12132.4717600,E,2,58,0.47,23.20,M,15.25,M,1,3335*71
$GNRMC,041011.200,A,2500.8153600,N,12132.4717600,E,0.02,53.69,030324,,,D,V*3B
$GPHDT,,T*1B
$GNACCURACY,3.9*1C
$GNGGA,041011.300,2500.8153600,N,12132.4717700,E,2,58,0.47,23.20,M,15.25,M,1,3335*71
$GNRMC,041011.300,A,2500.8153600,N,12132.4717700,E,0.02,53.69,030324,,,D,V*3B
$GPHDT,,T*1B
$GNACCURACY,3.9*1C
$GNGGA,041011.400,2500.8153500,N,12132.4717800,E,2,58,0.47,23.20,M,15.25,M,1,3335*7A
$GNRMC,041011.400,A,2500.8153500,N,12132.4717800,E,0.02,53.69,030324,,,D,V*30
$GPHDT,,T*1B
$GNACCURACY,3.9*1C
$GNGGA,041011.500,2500.8153500,N,12132.4717800,E,2,57,0.47,23.21,M,15.25,M,1,3335*75
$GNRMC,041011.500,A,2500.8153500,N,12132.4717800,E,0.02,53.69,030324,,,D,V*31
$GPHDT,,T*1B
$GNACCURACY,3.9*1C
$GNGGA,041011.600,2500.8153500,N,12132.4717900,E,2,57,0.47,23.21,M,15.25,M,0,3335*76
$GNRMC,041011.600,A,2500.8153500,N,12132.4717900,E,0.02,53.69,030324,,,D,V*33
$GPHDT,,T*1B
$GNACCURACY,3.9*1C
$GNGGA,041011.700,2500.8153400,N,12132.4718000,E,2,58,0.47,23.21,M,15.25,M,0,3335*7F
$GNRMC,041011.700,A,2500.8153400,N,12132.4718000,E,0.02,53.69,030324,,,D,V*35
$GPHDT,,T*1B
$GNACCURACY,3.9*1C
$GNGGA,041011.800,2500.8153300,N,12132.4718000,E,2,59,0.47,23.21,M,15.25,M,0,3335*76
$GNRMC,041011.800,A,2500.8153300,N,12132.4718000,E,0.02,53.69,030324,,,D,V*3D
$GPHDT,,T*1B
$GNACCURACY,3.9*1C
$GNGGA,041011.900,2500.8153300,N,12132.4718100,E,2,59,0.47,23.22,M,15.25,M,0,3335*75
$GNRMC,041011.900,A,2500.8153300,N,12132.4718100,E,0.02,53.69,030324,,,D,V*3D
$GPHDT,,T*1B
$GNACCURACY,3.9*1C
$GNGGA,041012.000,2500.8153200,N,12132.4718100,E,2,59,0.47,23.22,M,15.25,M,1,3335*7F
$GNRMC,041012.000,A,2500.8153200,N,12132.4718100,E,0.01,53.69,030324,,,D,V*35
$GPHDT,,T*1B
$GNACCURACY,3.9*1C
$GNGGA,041012.100,2500.8153200,N,12132.4718100,E,2,59,0.47,23.22,M,15.25,M,1,3335*7E
$GNRMC,041012.100,A,2500.8153200,N,12132.4718100,E,0.01,53.69,030324,,,D,V*34
$GPHDT,,T*1B
$GNGSA,A,3,08,194,195,199,21,27,02,07,09,04,196,26,0.74,0.47,0.57,1*0F
$GNGSA,A,3,83,82,80,79,73,81,,,,,,,0.74,0.47,0.57,2*0A
$GNGSA,A,3,30,15,34,27,07,02,,,,,,,0.74,0.47,0.57,3*01
$GNGSA,A,3,34,06,09,16,11,40,39,25,07,10,12,24,0.74,0.47,0.57,4*03
$GNGSA,A,3,43,44,23,,,,,,,,,,0.74,0.47,0.57,4*00
$GPGSV,4,1,15,08,69,331,46,194,63,049,44,195,61,120,33,199,60,167,24,1*5D
$GPGSV,4,2,15,21,48,165,18,27,42,030,25,02,37,179,24,16,32,064,18,1*67
$GPGSV,4,3,15,07,32,320,40,09,28,257,27,04,26,210,27,196,20,172,25,1*5B
$GPGSV,4,4,15,26,13,090,23,31,09,141,19,30,03,320,20,1*5A
$GPGSV,3,1,09,08,69,331,45,194,63,049,48,195,61,120,32,199,60,167,27,8*53
$GPGSV,3,2,09,27,42,030,38,09,28,257,28,04,26,210,30,196,20,172,20,8*5D
$GPGSV,3,3,09,26,13,090,25,8*5C
$GLGSV,2,1,07,83,64,178,23,82,63,043,44,80,50,018,42,79,32,092,21,1*77
$GLGSV,2,2,07,73,16,324,21,81,15,028,27,71,05,299,22,1*49
$GAGSV,2,1,07,30,50,036,39,15,49,149,32,34,43,068,31,27,37,318,35,7*7B
$GAGSV,2,2,07,07,32,231,30,02,15,084,28,13,11,192,,7*49
$GAGSV,2,1,05,30,50,036,46,34,43,068,32,27,37,318,40,07,32,231,32,1*75
$GAGSV,2,2,05,02,15,084,18,1*43
$GBGSV,4,1,15,34,81,054,36,06,77,216,30,09,75,285,37,16,74,196,21,1*74
$GBGSV,4,2,15,11,72,199,29,40,63,322,32,39,63,182,37,25,61,348,36,1*72
$GBGSV,4,3,15,07,61,300,40,10,52,283,38,12,48,041,43,24,48,101,35,1*77
$GBGSV,4,4,15,43,47,216,37,44,25,040,28,23,16,315,35,1*49
$GBGSV,2,1,07,34,81,054,42,39,63,182,29,40,63,322,39,25,61,348,34,4*71
$GBGSV,2,2,07,24,48,101,42,43,47,216,27,44,25,040,36,4*4A
$GNACCURACY,3.9*1C
$PAIRSAT,1,35,2,0,201,3,0,200,4,0,221,5,0,200,6,0,200,7,0,201,8,0,221,9,0,221,10,0,200,11,0,200,12,0,200,13,0,200,14,0,200,15,0,200,16,0,201,17,0,200,18,0,200,19,0,200,20,0,200,21,0,201,22,0,200,23,0,200,24,0,200,25,0,200,26,0,220,27,0,221,28,0,200,29,0,200,30,0,220,31,0,201,32,0,200,194,0,621,195,0,621,196,0,620,199,0,621*5B
$PAIRSAT,2,24,65,0,200,66,0,200,67,0,200,68,0,200,69,0,200,70,0,200,71,0,200,72,0,200,73,0,201,74,0,200,75,0,200,76,0,200,77,0,200,78,0,200,79,0,201,80,0,201,81,0,201,82,0,201,83,0,201,84,0,200,85,0,200,86,0,200,87,0,200,88,0,200*7A
$PAIRSAT,3,23,2,0,1021,3,0,1200,4,0,1200,5,0,200,7,0,1221,8,0,1200,9,0,1200,10,0,1200,11,0,1200,12,0,1200,13,0,1200,15,0,1221,19,0,1200,21,0,1200,24,0,1200,25,0,1200,26,0,1200,27,0,1221,30,0,1221,31,0,1200,33,0,1200,34,0,1221,36,0,1200*68
$PAIRSAT,4,46,1,0,200,2,0,200,3,0,600,4,0,200,5,0,200,6,0,201,7,0,201,8,0,200,9,0,201,10,0,201,11,0,201,12,0,201,13,0,200,14,0,200,16,0,201,19,0,600,20,0,600,21,0,600,22,0,600,23,0,621,24,0,621,25,0,621,26,0,600,27,0,600,28,0,600,29,0,600,30,0,600,32,0,600,33,0,600,34,0,621,35,0,600,36,0,600,37,0,600,38,0,600,39,0,621,40,0,621,41,0,400,42,0,400,43,0,421,44,0,421,45,0,400,46,0,400,59,0,400,60,0,400,61,0,400,62,0,400*48
$PAIRDGP,6,2,4,7,9,16,21*4F
$GNGGA,041012.200,2500.8153100,N,12132.4718300,E,2,60,0.47,23.22,M,15.25,M,1,3335*76
$GNRMC,041012.200,A,2500.8153100,N,12132.4718300,E,0.02,53.69,030324,,,D,V*35
$GPHDT,,T*1B
$GNACCURACY,3.9*1C
$GNGGA,041012.300,2500.8153000,N,12132.4718300,E,2,59,0.47,23.23,M,15.25,M,1,3335*7D
$GNRMC,041012.300,A,2500.8153000,N,12132.4718300,E,0.02,53.69,030324,,,D,V*35
$GPHDT,,T*1B
$GNACCURACY,3.9*1C
$GNGGA,041012.400,2500.8153000,N,12132.4718400,E,2,59,0.47,23.23,M,15.25,M,1,3335*7D
$GNRMC,041012.400,A,2500.8153000,N,12132.4718400,E,0.02,53.69,030324,,,D,V*35
$GPHDT,,T*1B
$GNACCURACY,3.9*1C
$GNGGA,041012.500,2500.8153000,N,12132.4718400,E,2,59,0.47,23.23,M,15.25,M,1,3335*7C
$GNRMC,041012.500,A,2500.8153000,N,12132.4718400,E,0.02,53.69,030324,,,D,V*34
$GPHDT,,T*1B
$GNACCURACY,3.9*1C
$GNGGA,041012.600,2500.8152900,N,12132.4718500,E,2,59,0.47,23.23,M,15.25,M,0,3335*77
$GNRMC,041012.600,A,2500.8152900,N,12132.4718500,E,0.02,53.69,030324,,,D,V*3E
$GPHDT,,T*1B
$GNACCURACY,3.9*1C
$GNGGA,041012.700,2500.8152900,N,12132.4718600,E,2,59,0.47,23.23,M,15.25,M,0,3335*75
$GNRMC,041012.700,A,2500.8152900,N,12132.4718600,E,0.03,53.69,030324,,,D,V*3D
$GPHDT,,T*1B
$GNACCURACY,3.9*1C
$GNGGA,041012.800,2500.8152800,N,12132.4718600,E,2,59,0.47,23.24,M,15.25,M,0,3335*7C
$GNRMC,041012.800,A,2500.8152800,N,12132.4718600,E,0.03,53.69,030324,,,D,V*33
$GPHDT,,T*1B
$GNACCURACY,3.9*1C
$GNGGA,041012.900,2500.8152700,N,12132.4718700,E,2,59,0.47,23.24,M,15.25,M,0,3335*73
$GNRMC,041012.900,A,2500.8152700,N,12132.4718700,E,0.03,53.69,030324,,,D,V*3C
$GPHDT,,T*1B
$GNACCURACY,3.9*1C
$GNGGA,041013.000,2500.8152700,N,12132.4718700,E,2,59,0.47,23.24,M,15.25,M,1,3335*7A
$GNRMC,041013.000,A,2500.8152700,N,12132.4718700,E,0.04,53.69,030324,,,D,V*33
$GPHDT,,T*1B
$GNACCURACY,3.9*1C
$GNGGA,041013.100,2500.8152600,N,12132.4718800,E,2,59,0.47,23.25,M,15.25,M,1,3335*74
$GNRMC,041013.100,A,2500.8152600,N,12132.4718800,E,0.04,53.69,030324,,,D,V*3C
$GPHDT,,T*1B
$GNGSA,A,3,08,194,195,199,21,27,02,07,09,196,26,04,0.74,0.47,0.57,1*0F
$GNGSA,A,3,83,82,80,79,73,81,,,,,,,0.74,0.47,0.57,2*0A
$GNGSA,A,3,30,15,34,27,07,02,,,,,,,0.74,0.47,0.57,3*01
$GNGSA,A,3,34,06,09,16,11,40,39,25,07,10,12,24,0.74,0.47,0.57,4*03
$GNGSA,A,3,43,44,23,,,,,,,,,,0.74,0.47,0.57,4*00
$GPGSV,4,1,15,08,69,331,46,194,63,049,44,195,61,120,33,199,60,167,23,1*5A
$GPGSV,4,2,15,21,48,165,17,27,42,030,24,02,37,179,24,16,32,064,19,1*68
$GPGSV,4,3,15,07,32,320,40,09,28,257,27,04,26,210,25,196,20,172,27,1*5B
$GPGSV,4,4,15,26,13,090,23,31,09,141,19,30,03,320,20,1*5A
$GPGSV,3,1,10,08,69,331,45,194,63,049,48,195,61,120,31,199,60,167,27,8*58
$GPGSV,3,2,10,27,42,030,38,09,28,257,28,04,26,210,31,196,20,172,19,8*5E
$GPGSV,3,3,10,26,13,090,25,30,03,320,18,8*6C
$GLGSV,2,1,07,83,64,178,23,82,63,043,44,80,50,018,42,79,32,092,21,1*77
$GLGSV,2,2,07,73,16,324,21,81,15,028,27,71,05,299,22,1*49
$GAGSV,2,1,07,30,50,036,39,15,49,149,32,34,43,068,31,27,37,318,35,7*7B
$GAGSV,2,2,07,07,32,231,30,02,15,084,28,13,11,192,,7*49
$GAGSV,2,1,05,30,50,036,46,34,43,068,32,27,37,318,40,07,32,231,32,1*75
$GAGSV,2,2,05,02,15,084,18,1*43
$GBGSV,4,1,15,34,81,054,37,06,77,216,30,09,75,285,37,16,74,196,21,1*75
$GBGSV,4,2,15,11,72,199,29,40,63,322,33,39,63,182,37,25,61,348,36,1*73
$GBGSV,4,3,15,07,61,300,40,10,52,283,38,12,48,041,43,24,48,101,35,1*77
$GBGSV,4,4,15,43,47,216,37,44,25,040,29,23,16,315,35,1*48
$GBGSV,2,1,07,34,81,054,41,39,63,182,28,40,63,322,39,25,61,348,34,4*73
$GBGSV,2,2,07,24,48,101,42,43,47,216,26,44,25,040,36,4*4B
$GNACCURACY,3.9*1C
$PAIRSAT,1,35,2,0,201,3,0,200,4,0,221,5,0,200,6,0,200,7,0,201,8,0,221,9,0,221,10,0,200,11,0,200,12,0,200,13,0,200,14,0,200,15,0,200,16,0,201,17,0,200,18,0,200,19,0,200,20,0,200,21,0,201,22,0,200,23,0,200,24,0,200,25,0,200,26,0,220,27,0,221,28,0,200,29,0,200,30,0,220,31,0,201,32,0,200,194,0,621,195,0,621,196,0,620,199,0,621*5B
$PAIRSAT,2,24,65,0,200,66,0,200,67,0,200,68,0,200,69,0,200,70,0,200,71,0,200,72,0,200,73,0,201,74,0,200,75,0,200,76,0,200,77,0,200,78,0,200,79,0,201,80,0,201,81,0,201,82,0,201,83,0,201,84,0,200,85,0,200,86,0,200,87,0,200,88,0,200*7A
$PAIRSAT,3,23,2,0,1021,3,0,1200,4,0,1200,5,0,200,7,0,1221,8,0,1200,9,0,1200,10,0,1200,11,0,1200,12,0,1200,13,0,1200,15,0,1221,19,0,1200,21,0,1200,24,0,1200,25,0,1200,26,0,1200,27,0,1221,30,0,1221,31,0,1200,33,0,1200,34,0,1221,36,0,1200*68
$PAIRSAT,4,46,1,0,200,2,0,200,3,0,600,4,0,200,5,0,200,6,0,201,7,0,201,8,0,200,9,0,201,10,0,201,11,0,201,12,0,201,13,0,200,14,0,200,16,0,201,19,0,600,20,0,600,21,0,600,22,0,600,23,0,621,24,0,621,25,0,621,26,0,600,27,0,600,28,0,600,29,0,600,30,0,600,32,0,600,33,0,600,34,0,621,35,0,600,36,0,600,37,0,600,38,0,600,39,0,621,40,0,621,41,0,400,42,0,400,43,0,421,44,0,421,45,0,400,46,0,400,59,0,400,60,0,400,61,0,400,62,0,400*48
$PAIRDGP,6,2,4,7,9,16,21*4F
$GNGGA,041013.200,2500.8152600,N,12132.4718900,E,2,59,0.47,23.25,M,15.25,M,1,3335*76
$GNRMC,041013.200,A,2500.8152600,N,12132.4718900,E,0.04,53.69,030324,,,D,V*3E
$GPHDT,,T*1B
$GNACCURACY,3.9*1C
$GNGGA,041013.300,2500.8152500,N,12132.4718900,E,2,59,0.47,23.25,M,15.25,M,1,3335*74
$GNRMC,041013.300,A,2500.8152500,N,12132.4718900,E,0.03,53.69,030324,,,D,V*3B
$GPHDT,,T*1B
$GNACCURACY,3.9*1C
$GNGGA,041013.400,2500.8152400,N,12132.4719000,E,2,60,0.47,23.25,M,15.25,M,1,3335*70
$GNRMC,041013.400,A,2500.8152400,N,12132.4719000,E,0.03,53.69,030324,,,D,V*35
$GPHDT,,T*1B
$GNACCURACY,3.9*1C
$GNGGA,041013.500,2500.8152300,N,12132.4719000,E,2,60,0.47,23.25,M,15.25,M,1,3335*76
$GNRMC,041013.500,A,2500.8152300,N,12132.4719000,E,0.03,53.69,030324,,,D,V*33
$GPHDT,,T*1B
$GNACCURACY,3.9*1C
$GNGGA,041013.600,2500.8152300,N,12132.4719100,E,2,61,0.47,23.26,M,15.25,M,0,3335*77
$GNRMC,041013.600,A,2500.8152300,N,12132.4719100,E,0.03,53.69,030324,,,D,V*31
$GPHDT,,T*1B
$GNACCURACY,3.9*1C
$GNGGA,041013.700,2500.8152300,N,12132.4719200,E,2,61,0.47,23.26,M,15.25,M,0,3335*75
$GNRMC,041013.700,A,2500.8152300,N,12132.4719200,E,0.03,53.69,030324,,,D,V*33
$GPHDT,,T*1B
$GNACCURACY,3.9*1C
$GNGGA,041013.800,2500.8152200,N,12132.4719200,E,2,61,0.47,23.26,M,15.25,M,0,3335*7B
$GNRMC,041013.800,A,2500.8152200,N,12132.4719200,E,0.03,53.69,030324,,,D,V*3D
$GPHDT,,T*1B
$GNACCURACY,3.9*1C
$GNGGA,041013.900,2500.8152100,N,12132.4719300,E,2,61,0.47,23.27,M,15.25,M,0,3335*79
$GNRMC,041013.900,A,2500.8152100,N,12132.4719300,E,0.04,53.69,030324,,,D,V*39
$GPHDT,,T*1B
$GNACCURACY,3.9*1C
$GNGGA,041014.000,2500.8152100,N,12132.4719400,E,2,60,0.47,23.27,M,15.25,M,1,3335*70
$GNRMC,041014.000,A,2500.8152100,N,12132.4719400,E,0.04,53.69,030324,,,D,V*30
$GPHDT,,T*1B
$GNACCURACY,3.9*1C
$GNGGA,041014.100,2500.8152000,N,12132.4719400,E,2,60,0.47,23.27,M,15.25,M,1,3335*70
$GNRMC,041014.100,A,2500.8152000,N,12132.4719400,E,0.03,53.69,030324,,,D,V*37
$GPHDT,,T*1B
$GNGSA,A,3,08,194,195,199,21,27,02,16,07,09,04,196,0.74,0.47,0.57,1*0C
$GNGSA,A,3,26,,,,,,,,,,,,0.74,0.47,0.57,1*07
$GNGSA,A,3,83,82,80,79,73,81,,,,,,,0.74,0.47,0.57,2*0A
$GNGSA,A,3,30,15,34,27,07,02,,,,,,,0.74,0.47,0.57,3*01
$GNGSA,A,3,34,06,09,16,11,40,39,25,07,10,12,24,0.74,0.47,0.57,4*03
$GNGSA,A,3,43,44,23,,,,,,,,,,0.74,0.47,0.57,4*00
$GPGSV,4,1,15,08,69,331,46,194,63,049,44,195,61,120,32,199,60,167,23,1*5B
$GPGSV,4,2,15,21,48,165,17,27,42,030,23,02,37,179,23,16,32,064,20,1*62
$GPGSV,4,3,15,07,32,320,40,09,28,257,27,04,26,210,24,196,20,172,27,1*5A
$GPGSV,4,4,15,26,13,090,19,31,09,141,19,30,03,320,21,1*52
$GPGSV,3,1,10,08,69,331,45,194,63,049,48,195,61,120,31,199,60,167,27,8*58
$GPGSV,3,2,10,27,42,030,38,09,28,257,28,04,26,210,31,196,20,172,20,8*54
$GPGSV,3,3,10,26,13,090,25,30,03,320,18,8*6C
$GLGSV,2,1,07,83,64,178,23,82,63,043,44,80,50,018,42,79,32,092,20,1*76
$GLGSV,2,2,07,73,16,324,22,81,15,028,28,71,05,299,20,1*47
$GAGSV,2,1,07,30,50,036,39,15,49,149,31,34,42,068,31,27,38,318,35,7*76
$GAGSV,2,2,07,07,32,231,29,02,15,084,28,13,11,192,,7*41
$GAGSV,2,1,05,30,50,036,46,34,42,068,32,27,38,318,40,07,32,231,32,1*7B
$GAGSV,2,2,05,02,15,084,18,1*43
$GBGSV,4,1,16,34,81,054,37,06,77,216,30,09,75,285,37,16,74,196,22,1*75
$GBGSV,4,2,16,11,72,199,29,40,63,322,33,39,63,182,37,25,61,348,36,1*70
$GBGSV,4,3,16,07,61,300,40,10,52,283,38,12,48,041,43,24,48,101,34,1*75
$GBGSV,4,4,16,43,47,216,37,44,25,040,31,23,16,315,35,38,07,170,,1*78
$GBGSV,2,1,07,34,81,054,41,39,63,182,28,40,63,322,39,25,61,348,34,4*73
$GBGSV,2,2,07,24,48,101,42,43,47,216,26,44,25,040,36,4*4B
$GNACCURACY,3.9*1C
$PAIRSAT,1,35,2,0,201,3,0,200,4,0,221,5,0,200,6,0,200,7,0,201,8,0,221,9,0,221,10,0,200,11,0,200,12,0,200,13,0,200,14,0,200,15,0,200,16,0,201,17,0,200,18,0,200,19,0,200,20,0,200,21,0,201,22,0,200,23,0,200,24,0,200,25,0,200,26,0,220,27,0,221,28,0,200,29,0,200,30,0,220,31,0,201,32,0,200,194,0,621,195,0,621,196,0,620,199,0,621*5B
$PAIRSAT,2,24,65,0,200,66,0,200,67,0,200,68,0,200,69,0,200,70,0,200,71,0,200,72,0,200,73,0,201,74,0,200,75,0,200,76,0,200,77,0,200,78,0,200,79,0,201,80,0,201,81,0,201,82,0,201,83,0,201,84,0,200,85,0,200,86,0,200,87,0,200,88,0,200*7A
$PAIRSAT,3,23,2,0,1021,3,0,1200,4,0,1200,5,0,200,7,0,1221,8,0,1200,9,0,1200,10,0,1200,11,0,1200,12,0,1200,13,0,1200,15,0,1221,19,0,1200,21,0,1200,24,0,1200,25,0,1200,26,0,1200,27,0,1221,30,0,1221,31,0,1200,33,0,1200,34,0,1221,36,0,1200*68
$PAIRSAT,4,46,1,0,200,2,0,200,3,0,600,4,0,200,5,0,200,6,0,201,7,0,201,8,0,200,9,0,201,10,0,201,11,0,201,12,0,201,13,0,200,14,0,200,16,0,201,19,0,600,20,0,600,21,0,600,22,0,600,23,0,621,24,0,621,25,0,621,26,0,600,27,0,600,28,0,600,29,0,600,30,0,600,32,0,600,33,0,600,34,0,621,35,0,600,36,0,600,37,0,600,38,0,600,39,0,621,40,0,621,41,0,400,42,0,400,43,0,421,44,0,421,45,0,400,46,0,400,59,0,400,60,0,400,61,0,400,62,0,400*48
$PAIRDGP,6,2,4,7,9,16,21*4F
$GNGGA,041014.200,2500.8152000,N,12132.4719500,E,2,61,0.47,23.27,M,15.25,M,1,3335*73
$GNRMC,041014.200,A,2500.8152000,N,12132.4719500,E,0.03,53.69,030324,,,D,V*35
$GPHDT,,T*1B
$GNACCURACY,3.9*1C
$GNGGA,041014.300,2500.8151900,N,12132.4719500,E,2,60,0.47,23.28,M,15.25,M,1,3335*76
$GNRMC,041014.300,A,2500.8151900,N,12132.4719500,E,0.03,53.69,030324,,,D,V*3E
$GPHDT,,T*1B
$GNACCURACY,3.9*1C
$GNGGA,041014.400,2500.8151800,N,12132.4719600,E,2,60,0.47,23.28,M,15.25,M,1,3335*73
$GNRMC,041014.400,A,2500.8151800,N,12132.4719600,E,0.04,53.69,030324,,,D,V*3C
$GPHDT,,T*1B
$GNACCURACY,3.9*1C
$GNGGA,041014.500,2500.8151700,N,12132.4719700,E,2,60,0.47,23.28,M,15.25,M,1,3335*7C
$GNRMC,041014.500,A,2500.8151700,N,12132.4719700,E,0.05,53.69,030324,,,D,V*32
$GPHDT,,T*1B
$GNACCURACY,3.9*1C
$GNGGA,041014.600,2500.8151700,N,12132.4719800,E,2,60,0.47,23.29,M,15.25,M,1,3335*71
$GNRMC,041014.600,A,2500.8151700,N,12132.4719800,E,0.05,53.69,030324,,,D,V*3E
$GPHDT,,T*1B
$GNACCURACY,3.9*1C
$GNGGA,041014.700,2500.8151500,N,12132.4719800,E,2,60,0.47,23.29,M,15.25,M,1,3335*72
$GNRMC,041014.700,A,2500.8151500,N,12132.4719800,E,0.05,53.69,030324,,,D,V*3D
$GPHDT,,T*1B
$GNACCURACY,3.9*1C
$GNGGA,041014.800,2500.8151500,N,12132.4719900,E,2,60,0.47,23.29,M,15.25,M,0,3335*7D
$GNRMC,041014.800,A,2500.8151500,N,12132.4719900,E,0.06,53.69,030324,,,D,V*30
$GPHDT,,T*1B
$GNACCURACY,3.9*1C
$GNGGA,041014.900,2500.8151400,N,12132.4720000,E,2,60,0.47,23.29,M,15.25,M,0,3335*7E
$GNRMC,041014.900,A,2500.8151400,N,12132.4720000,E,0.06,53.69,030324,,,D,V*33
$GPHDT,,T*1B
$GNACCURACY,3.9*1C
$GNGGA,041015.000,2500.8151400,N,12132.4720100,E,2,60,0.47,23.30,M,15.25,M,1,3335*7E
$GNRMC,041015.000,A,2500.8151400,N,12132.4720100,E,0.06,53.69,030324,,,D,V*3A
$GPHDT,,T*1B
$GNACCURACY,3.9*1C
$GNGGA,041015.100,2500.8151300,N,12132.4720100,E,2,60,0.47,23.30,M,15.25,M,1,3335*78
$GNRMC,041015.100,A,2500.8151300,N,12132.4720100,E,0.01,53.69,030324,,,D,V*3B
$GPHDT,,T*1B
$GNGSA,A,3,08,194,195,199,21,27,02,16,07,09,196,26,0.83,0.47,0.69,1*09
$GNGSA,A,3,04,,,,,,,,,,,,0.83,0.47,0.69,1*02
$GNGSA,A,3,83,82,80,79,73,81,,,,,,,0.83,0.47,0.69,2*0F
$GNGSA,A,3,30,15,34,27,07,02,,,,,,,0.83,0.47,0.69,3*04
$GNGSA,A,3,34,06,09,16,11,39,40,25,07,10,24,12,0.83,0.47,0.69,4*06
$GNGSA,A,3,43,44,23,,,,,,,,,,0.83,0.47,0.69,4*05
$GPGSV,4,1,15,08,69,331,46,194,63,049,44,195,61,120,31,199,60,167,23,1*58
$GPGSV,4,2,15,21,48,165,16,27,42,030,21,02,37,179,23,16,32,064,20,1*61
$GPGSV,4,3,15,07,32,320,40,09,28,257,27,04,26,210,24,196,20,172,25,1*58
$GPGSV,4,4,15,26,13,090,18,31,09,141,19,30,03,320,21,1*53
$GPGSV,3,1,10,08,69,331,45,194,63,049,48,195,61,120,31,199,60,167,28,8*57
$GPGSV,3,2,10,27,42,030,38,09,28,257,28,04,26,210,31,196,20,172,20,8*54
$GPGSV,3,3,10,26,13,090,25,30,03,320,17,8*63
$GLGSV,3,1,09,83,64,178,24,82,63,043,44,80,50,018,42,79,32,092,20,1*7E
$GLGSV,3,2,09,73,16,324,22,81,15,028,28,70,07,253,,71,05,299,20,1*7C
$GLGSV,3,3,09,84,04,200,,1*4B
$GAGSV,2,1,07,30,50,036,39,15,49,149,31,34,42,068,31,27,38,318,35,7*76
$GAGSV,2,2,07,07,32,231,30,02,15,084,28,13,11,192,,7*49
$GAGSV,2,1,05,30,50,036,46,34,42,068,32,27,38,318,40,07,32,231,32,1*7B
$GAGSV,2,2,05,02,15,084,19,1*42
$GBGSV,4,1,16,34,81,054,37,06,77,216,30,09,75,285,37,16,74,196,22,1*75
$GBGSV,4,2,16,11,72,199,29,39,63,182,38,40,63,322,31,25,61,348,36,1*7D
$GBGSV,4,3,16,07,61,300,40,10,52,283,38,24,48,101,34,12,48,041,43,1*75
$GBGSV,4,4,16,43,47,216,37,44,25,040,32,23,16,315,35,38,07,170,,1*7B
$GBGSV,2,1,07,34,81,054,41,39,63,182,28,40,63,322,39,25,61,348,34,4*73
$GBGSV,2,2,07,24,48,101,42,43,47,216,27,44,25,040,36,4*4A
$GNACCURACY,3.9*1C
$PAIRSAT,1,35,2,0,201,3,0,200,4,0,221,5,0,200,6,0,200,7,0,201,8,0,221,9,0,221,10,0,200,11,0,200,12,0,200,13,0,200,14,0,200,15,0,200,16,0,201,17,0,200,18,0,200,19,0,200,20,0,200,21,0,201,22,0,200,23,0,200,24,0,200,25,0,200,26,0,220,27,0,221,28,0,200,29,0,200,30,0,220,31,0,201,32,0,200,194,0,621,195,0,621,196,0,620,199,0,621*5B
$PAIRSAT,2,24,65,0,200,66,0,200,67,0,200,68,0,200,69,0,200,70,0,200,71,0,200,72,0,200,73,0,201,74,0,200,75,0,200,76,0,200,77,0,200,78,0,200,79,0,201,80,0,201,81,0,201,82,0,201,83,0,201,84,0,200,85,0,200,86,0,200,87,0,200,88,0,200*7A
$PAIRSAT,3,23,2,0,1021,3,0,1200,4,0,1200,5,0,200,7,0,1221,8,0,1200,9,0,1200,10,0,1200,11,0,1200,12,0,1200,13,0,1200,15,0,1221,19,0,1200,21,0,1200,24,0,1200,25,0,1200,26,0,1200,27,0,1221,30,0,1221,31,0,1200,33,0,1200,34,0,1221,36,0,1200*68
$PAIRSAT,4,46,1,0,200,2,0,200,3,0,600,4,0,200,5,0,200,6,0,201,7,0,201,8,0,200,9,0,201,10,0,201,11,0,201,12,0,201,13,0,200,14,0,200,16,0,201,19,0,600,20,0,600,21,0,600,22,0,600,23,0,621,24,0,621,25,0,621,26,0,600,27,0,600,28,0,600,29,0,600,30,0,600,32,0,600,33,0,600,34,0,621,35,0,600,36,0,600,37,0,600,38,0,600,39,0,621,40,0,621,41,0,400,42,0,400,43,0,421,44,0,421,45,0,400,46,0,400,59,0,400,60,0,400,61,0,400,62,0,400*48
$PAIRDGP,6,2,4,7,9,16,21*4F
$GNGGA,041015.200,2500.8151200,N,12132.4720200,E,2,60,0.47,23.30,M,15.25,M,1,3335*79
$GNRMC,041015.200,A,2500.8151200,N,12132.4720200,E,0.00,53.69,030324,,,D,V*3B
$GPHDT,,T*1B
$GNACCURACY,3.9*1C
$GNGGA,041015.300,2500.8151100,N,12132.4720200,E,2,60,0.47,23.31,M,15.25,M,1,3335*7A
$GNRMC,041015.300,A,2500.8151100,N,12132.4720200,E,0.00,53.69,030324,,,D,V*39
$GPHDT,,T*1B
$GNACCURACY,3.9*1C
$GNGGA,041015.400,2500.8151100,N,12132.4720300,E,2,60,0.47,23.31,M,15.25,M,1,3335*7C
$GNRMC,041015.400,A,2500.8151100,N,12132.4720300,E,0.00,53.69,030324,,,D,V*3F
$GPHDT,,T*1B
$GNACCURACY,3.9*1C
$GNGGA,041015.500,2500.8151100,N,12132.4720400,E,2,60,0.47,23.32,M,15.25,M,1,3335*79
$GNRMC,041015.500,A,2500.8151100,N,12132.4720400,E,0.00,53.69,030324,,,D,V*39
$GPHDT,,T*1B
$GNACCURACY,3.9*1C
$GNGGA,041015.600,2500.8151000,N,12132.4720400,E,2,60,0.47,23.32,M,15.25,M,0,3335*7A
$GNRMC,041015.600,A,2500.8151000,N,12132.4720400,E,0.01,53.69,030324,,,D,V*3A
$GPHDT,,T*1B
$GNACCURACY,3.9*1C
$GNGGA,041015.700,2500.8150900,N,12132.4720500,E,2,59,0.47,23.32,M,15.25,M,0,3335*78
$GNRMC,041015.700,A,2500.8150900,N,12132.4720500,E,0.01,53.69,030324,,,D,V*32
$GPHDT,,T*1B
$GNACCURACY,3.9*1C
$GNGGA,041015.800,2500.8150900,N,12132.4720500,E,2,59,0.47,23.33,M,15.25,M,0,3335*76
$GNRMC,041015.800,A,2500.8150900,N,12132.4720500,E,0.00,53.69,030324,,,D,V*3C
$GPHDT,,T*1B
$GNACCURACY,3.9*1C
$GNGGA,041015.900,2500.8150800,N,12132.4720600,E,2,60,0.47,23.34,M,15.25,M,0,3335*78
$GNRMC,041015.900,A,2500.8150800,N,12132.4720600,E,0.00,53.69,030324,,,D,V*3F
$GPHDT,,T*1B
$GNACCURACY,3.9*1C
$GNGGA,041016.000,2500.8150700,N,12132.4720700,E,2,59,0.47,23.34,M,15.25,M,1,3335*77
$GNRMC,041016.000,A,2500.8150700,N,12132.4720700,E,0.00,53.69,030324,,,D,V*3B
$GPHDT,,T*1B
$GNACCURACY,3.9*1C
$GNGGA,041016.100,2500.8150600,N,12132.4720700,E,2,59,0.47,23.34,M,15.25,M,1,3335*77
$GNRMC,041016.100,A,2500.8150600,N,12132.4720700,E,0.00,53.69,030324,,,D,V*3B
$GPHDT,,T*1B
$GNGSA,A,3,08,194,195,199,21,27,02,07,09,196,26,04,0.84,0.47,0.69,1*0D
$GNGSA,A,3,83,82,80,79,73,81,,,,,,,0.84,0.47,0.69,2*08
$GNGSA,A,3,30,15,34,27,07,02,,,,,,,0.84,0.47,0.69,3*03
$GNGSA,A,3,34,06,09,16,11,40,39,07,25,10,24,12,0.84,0.47,0.69,4*01
$GNGSA,A,3,43,44,23,,,,,,,,,,0.84,0.47,0.69,4*02
$GPGSV,4,1,15,08,69,331,46,194,63,049,44,195,61,120,32,199,60,167,23,1*5B
$GPGSV,4,2,15,21,48,165,17,27,42,030,23,02,37,179,21,16,32,064,22,1*62
$GPGSV,4,3,15,07,32,320,40,09,28,257,28,04,26,210,20,196,20,172,25,1*53
$GPGSV,4,4,15,26,13,090,18,31,09,141,19,30,03,320,22,1*50
$GPGSV,3,1,10,08,69,331,43,194,63,049,48,195,61,120,28,199,60,167,29,8*58
$GPGSV,3,2,10,27,42,030,38,09,28,257,28,04,26,210,31,196,20,172,19,8*5E
$GPGSV,3,3,10,26,13,090,25,30,03,320,15,8*61
$GLGSV,2,1,08,83,64,178,25,82,63,043,44,80,50,019,41,79,32,093,21,1*7D
$GLGSV,2,2,08,73,16,324,20,81,15,028,31,71,05,299,17,84,04,200,,1*7C
$GAGSV,2,1,08,30,50,036,38,15,49,149,31,34,42,068,30,27,38,318,35,7*79
$GAGSV,2,2,08,07,32,231,31,02,15,084,26,13,11,192,,36,03,034,,7*78
$GAGSV,2,1,05,30,50,036,46,34,42,068,32,27,38,318,39,07,32,231,31,1*76
$GAGSV,2,2,05,02,15,084,22,1*4A
$GBGSV,4,1,15,34,81,054,37,06,77,216,30,09,75,285,38,16,74,196,20,1*7B
$GBGSV,4,2,15,11,72,199,31,40,63,322,28,39,63,182,38,07,61,300,40,1*72
$GBGSV,4,3,15,25,61,348,35,10,52,283,37,24,48,101,33,12,48,041,43,1*70
$GBGSV,4,4,15,43,47,216,38,44,25,040,32,23,16,315,36,1*4E
$GBGSV,2,1,07,34,81,054,42,39,63,182,32,40,63,322,38,25,61,348,35,4*7B
$GBGSV,2,2,07,24,48,101,42,43,47,216,29,44,25,040,37,4*45
$GNACCURACY,3.9*1C
$PAIRSAT,1,35,2,0,201,3,0,200,4,0,221,5,0,200,6,0,200,7,0,201,8,0,221,9,0,221,10,0,200,11,0,200,12,0,200,13,0,200,14,0,200,15,0,200,16,0,201,17,0,200,18,0,200,19,0,200,20,0,200,21,0,201,22,0,200,23,0,200,24,0,200,25,0,200,26,0,220,27,0,221,28,0,200,29,0,200,30,0,220,31,0,201,32,0,200,194,0,621,195,0,621,196,0,620,199,0,621*5B
$PAIRSAT,2,24,65,0,200,66,0,200,67,0,200,68,0,200,69,0,200,70,0,200,71,0,200,72,0,200,73,0,201,74,0,200,75,0,200,76,0,200,77,0,200,78,0,200,79,0,201,80,0,201,81,0,201,82,0,201,83,0,201,84,0,200,85,0,200,86,0,200,87,0,200,88,0,200*7A
$PAIRSAT,3,23,2,0,1021,3,0,1200,4,0,1200,5,0,200,7,0,1221,8,0,1200,9,0,1200,10,0,1200,11,0,1200,12,0,1200,13,0,1200,15,0,1221,19,0,1200,21,0,1200,24,0,1200,25,0,1200,26,0,1200,27,0,1221,30,0,1221,31,0,1200,33,0,1200,34,0,1221,36,0,1200*68
$PAIRSAT,4,46,1,0,200,2,0,200,3,0,600,4,0,200,5,0,200,6,0,201,7,0,201,8,0,200,9,0,201,10,0,201,11,0,201,12,0,201,13,0,200,14,0,200,16,0,201,19,0,600,20,0,600,21,0,600,22,0,600,23,0,621,24,0,621,25,0,621,26,0,600,27,0,600,28,0,600,29,0,600,30,0,600,32,0,600,33,0,600,34,0,621,35,0,600,36,0,600,37,0,600,38,0,600,39,0,621,40,0,621,41,0,400,42,0,400,43,0,421,44,0,421,45,0,400,46,0,400,59,0,400,60,0,400,61,0,400,62,0,400*48
$PAIRDGP,6,2,4,7,9,16,21*4F
$GNGGA,041016.200,2500.8150600,N,12132.4720700,E,2,59,0.47,23.35,M,15.25,M,1,3335*75
$GNRMC,041016.200,A,2500.8150600,N,12132.4720700,E,0.00,53.69,030324,,,D,V*38
$GPHDT,,T*1B
$GNACCURACY,3.9*1C
$GNGGA,041016.300,2500.8150500,N,12132.4720800,E,2,59,0.47,23.35,M,15.25,M,1,3335*78
$GNRMC,041016.300,A,2500.8150500,N,12132.4720800,E,0.00,53.69,030324,,,D,V*35
$GPHDT,,T*1B
$GNACCURACY,3.9*1C
$GNGGA,041016.400,2500.8150400,N,12132.4720800,E,2,59,0.47,23.36,M,15.25,M,1,3335*7D
$GNRMC,041016.400,A,2500.8150400,N,12132.4720800,E,0.00,53.69,030324,,,D,V*33
$GPHDT,,T*1B
$GNACCURACY,4.0*12
$GNGGA,041016.500,2500.8150300,N,12132.4720900,E,2,60,0.47,23.36,M,15.25,M,1,3335*70
$GNRMC,041016.500,A,2500.8150300,N,12132.4720900,E,0.00,53.69,030324,,,D,V*34
$GPHDT,,T*1B
$GNACCURACY,4.0*12
$GNGGA,041016.600,2500.8150300,N,12132.4721000,E,2,60,0.47,23.37,M,15.25,M,1,3335*7A
$GNRMC,041016.600,A,2500.8150300,N,12132.4721000,E,0.00,53.69,030324,,,D,V*3F
$GPHDT,,T*1B
$GNACCURACY,4.0*12
$GNGGA,041016.700,2500.8150200,N,12132.4721000,E,2,60,0.47,23.37,M,15.25,M,0,3335*7B
$GNRMC,041016.700,A,2500.8150200,N,12132.4721000,E,0.00,53.69,030324,,,D,V*3F
$GPHDT,,T*1B
$GNACCURACY,4.0*12
$GNGGA,041016.800,2500.8150200,N,12132.4721000,E,2,60,0.47,23.38,M,15.25,M,0,3335*7B
$GNRMC,041016.800,A,2500.8150200,N,12132.4721000,E,0.00,53.69,030324,,,D,V*30
$GPHDT,,T*1B
