$FW : RTK35X,V1.1X0314AS,Lib20210517,1*54
$Tool : LOCOSYS , GNSS Firebird , v1.0.0.19*39
$---------------------------------------------------*2D
$GNGSA,A,3,08,194,195,199,21,27,02,07,16,09,04,196,0.75,0.48,0.58,1*0D
$GNGSA,A,3,26,,,,,,,,,,,,0.75,0.48,0.58,1*06
$GNGSA,A,3,83,82,80,79,81,,,,,,,,0.75,0.48,0.58,2*0F
$GNGSA,A,3,30,15,34,27,07,02,,,,,,,0.75,0.48,0.58,3*00
$GNGSA,A,3,34,06,09,16,11,40,39,25,07,10,12,24,0.75,0.48,0.58,4*02
$GNGSA,A,3,43,44,23,,,,,,,,,,0.75,0.48,0.58,4*01
$GPGSV,4,1,15,08,69,332,38,194,63,049,41,195,61,120,42,199,60,167,33,1*52
$GPGSV,4,2,15,21,49,164,39,27,42,031,20,02,37,179,19,07,32,320,38,1*6F
$GPGSV,4,3,15,16,31,065,36,09,28,257,19,04,25,210,22,196,20,172,25,1*50
$GPGSV,4,4,15,26,13,091,14,31,08,141,18,30,03,320,21,1*5E
$GPGSV,3,1,09,08,69,332,43,194,63,049,35,195,61,120,36,199,60,167,40,8*59
$GPGSV,3,2,09,27,42,031,26,09,28,257,24,04,25,210,22,196,20,172,29,8*56
$GPGSV,3,3,09,26,13,091,28,8*50
$GLGSV,2,1,06,83,64,178,22,82,62,042,39,80,50,019,36,79,32,093,31,1*7F
$GLGSV,2,2,06,73,16,325,11,81,15,028,24,1*78
$GAGSV,2,1,07,30,50,036,29,15,49,149,30,34,42,067,37,27,38,319,37,7*7C
$GAGSV,2,2,07,07,31,231,30,02,15,084,25,08,10,182,17,7*4B
$GAGSV,2,1,05,30,50,036,32,15,49,149,39,34,42,067,40,27,38,319,36,1*7A
$GAGSV,2,2,05,02,15,084,20,1*48
$GBGSV,4,1,15,34,81,053,42,06,77,216,43,09,75,284,39,16,74,196,38,1*73
$GBGSV,4,2,15,11,72,200,38,40,63,322,27,39,63,182,28,25,61,348,39,1*74
$GBGSV,4,3,15,07,61,301,36,10,51,283,32,12,48,041,31,24,47,101,40,1*76
$GBGSV,4,4,15,43,47,216,33,44,25,040,28,23,16,316,39,1*42
$GBGSV,2,1,08,34,81,053,44,39,63,182,28,40,63,322,26,25,61,348,40,4*73
$GBGSV,2,2,08,24,47,101,42,43,47,216,26,44,25,040,22,23,16,316,31,4*7E
$GNACCURACY,3.9*1C
$PAIRSAT,1,35,2,0,201,3,0,200,4,0,221,5,0,200,6,0,200,7,0,201,8,0,221,9,0,221,10,0,200,11,0,200,12,0,200,13,0,200,14,0,200,15,0,200,16,0,201,17,0,200,18,0,200,19,0,200,20,0,200,21,0,201,22,0,200,23,0,200,24,0,200,25,0,200,26,0,220,27,0,221,28,0,200,29,0,200,30,0,221,31,0,201,32,0,200,194,0,621,195,0,621,196,0,620,199,0,621*5A
$PAIRSAT,2,24,65,0,200,66,0,200,67,0,200,68,0,200,69,0,200,70,0,200,71,0,200,72,0,200,73,0,201,74,0,200,75,0,200,76,0,200,77,0,200,78,0,200,79,0,201,80,0,201,81,0,201,82,0,201,83,0,201,84,0,200,85,0,200,86,0,200,87,0,200,88,0,200*7A
$PAIRSAT,3,23,2,0,1021,3,0,1200,4,0,1200,5,0,200,7,0,1221,8,0,1200,9,0,1200,10,0,1200,11,0,1200,12,0,1200,13,0,1200,15,0,1221,19,0,1200,21,0,1200,24,0,1200,25,0,1200,26,0,1200,27,0,1221,30,0,1221,31,0,1200,33,0,1200,34,0,1221,36,0,1200*68
$PAIRSAT,4,46,1,0,200,2,0,200,3,0,600,4,0,200,5,0,200,6,0,201,7,0,201,8,0,200,9,0,201,10,0,201,11,0,201,12,0,201,13,0,200,14,0,200,16,0,201,19,0,600,20,0,600,21,0,600,22,0,600,23,0,621,24,0,621,25,0,621,26,0,600,27,0,600,28,0,600,29,0,600,30,0,600,32,0,600,33,0,600,34,0,621,35,0,600,36,0,600,37,0,600,38,0,600,39,0,621,40,0,621,41,0,600,42,0,600,43,0,421,44,0,421,45,0,400,46,0,400,59,0,400,60,0,400,61,0,400,62,0,400*48
$PAIRDGP,6,2,4,7,9,16,21*4F
$GNGGA,041106.200,2500.8110800,N,12132.4782300,E,2,60,0.48,25.86,M,15.25,M,1,3335*78
$GNRMC,041106.200,A,2500.8110800,N,12132.4782300,E,0.02,144.58,030324,,,D,V*09
$GPHDT,,T*1B
$GNACCURACY,3.9*1C
$GNGGA,041106.300,2500.8110700,N,12132.4782400,E,2,61,0.48,25.86,M,15.25,M,1,3335*70
$GNRMC,041106.300,A,2500.8110700,N,12132.4782400,E,0.02,144.58,030324,,,D,V*00
$GPHDT,,T*1B
$GNACCURACY,3.9*1C
$GNGGA,041106.400,2500.8110600,N,12132.4782400,E,2,61,0.48,25.87,M,15.25,M,1,3335*77
$GNRMC,041106.400,A,2500.8110600,N,12132.4782400,E,0.01,144.58,030324,,,D,V*05
$GPHDT,,T*1B
$GNACCURACY,3.9*1C
$GNGGA,041106.500,2500.8110500,N,12132.4782400,E,2,61,0.48,25.87,M,15.25,M,0,3335*74
$GNRMC,041106.500,A,2500.8110500,N,12132.4782400,E,0.02,144.58,030324,,,D,V*04
$GPHDT,,T*1B
$GNACCURACY,3.9*1C
$GNGGA,041106.600,2500.8110400,N,12132.4782400,E,2,60,0.48,25.88,M,15.25,M,0,3335*78
$GNRMC,041106.600,A,2500.8110400,N,12132.4782400,E,0.03,144.58,030324,,,D,V*07
$GPHDT,,T*1B
$GNACCURACY,3.9*1C
$GNGGA,041106.700,2500.8110300,N,12132.4782400,E,2,61,0.48,25.88,M,15.25,M,0,3335*7F
$GNRMC,041106.700,A,2500.8110300,N,12132.4782400,E,0.05,144.58,030324,,,D,V*07
$GPHDT,,T*1B
$GNACCURACY,3.9*1C
$GNGGA,041106.800,2500.8110100,N,12132.4782400,E,2,61,0.48,25.89,M,15.25,M,0,3335*73
$GNRMC,041106.800,A,2500.8110100,N,12132.4782400,E,0.07,144.58,030324,,,D,V*08
$GPHDT,,T*1B
$GNACCURACY,3.9*1C
$GNGGA,041106.900,2500.8110100,N,12132.4782400,E,2,61,0.48,25.89,M,15.25,M,0,3335*72
$GNRMC,041106.900,A,2500.8110100,N,12132.4782400,E,0.08,144.58,030324,,,D,V*06
$GPHDT,,T*1B
$GNACCURACY,3.9*1C
$GNGGA,041107.000,2500.8110000,N,12132.4782500,E,2,61,0.48,25.90,M,15.25,M,1,3335*73
$GNRMC,041107.000,A,2500.8110000,N,12132.4782500,E,0.06,144.58,030324,,,D,V*00
$GPHDT,,T*1B
$GNACCURACY,3.9*1C
$GNGGA,041107.100,2500.8110000,N,12132.4782500,E,2,61,0.48,25.90,M,15.25,M,1,3335*72
$GNRMC,041107.100,A,2500.8110000,N,12132.4782500,E,0.05,144.58,030324,,,D,V*02
$GPHDT,,T*1B
$GNGSA,A,3,08,194,195,199,21,27,02,07,16,09,04,196,0.75,0.48,0.58,1*0D
$GNGSA,A,3,26,,,,,,,,,,,,0.75,0.48,0.58,1*06
$GNGSA,A,3,83,82,80,79,81,,,,,,,,0.75,0.48,0.58,2*0F
$GNGSA,A,3,30,15,34,27,07,02,,,,,,,0.75,0.48,0.58,3*00
$GNGSA,A,3,34,06,09,16,11,40,39,25,07,10,12,24,0.75,0.48,0.58,4*02
$GNGSA,A,3,43,44,23,,,,,,,,,,0.75,0.48,0.58,4*01
$GPGSV,4,1,15,08,69,332,41,194,63,049,41,195,61,120,42,199,60,167,33,1*5C
$GPGSV,4,2,15,21,49,164,36,27,42,031,26,02,37,179,25,07,32,320,39,1*68
$GPGSV,4,3,15,16,31,065,38,09,28,257,18,04,25,210,26,196,20,172,20,1*5E
$GPGSV,4,4,15,26,13,091,15,31,08,141,18,30,03,320,24,1*5A
$GPGSV,2,1,08,08,69,332,43,194,63,049,38,195,61,120,34,199,60,167,40,8*56
$GPGSV,2,2,08,27,42,031,26,04,25,210,18,196,20,172,30,26,13,091,26,8*58
$GLGSV,2,1,06,83,64,178,22,82,62,042,41,80,50,019,36,79,32,093,31,1*70
$GLGSV,2,2,06,73,16,325,12,81,15,028,21,1*7E
$GAGSV,2,1,07,30,50,036,31,15,49,149,32,34,42,067,36,27,38,319,38,7*79
$GAGSV,2,2,07,07,31,231,31,02,15,084,27,08,10,182,14,7*4B
$GAGSV,2,1,06,30,50,036,31,15,49,149,35,34,42,067,40,27,38,319,35,1*75
$GAGSV,2,2,06,07,31,231,21,02,15,084,23,1*7E
$GBGSV,4,1,15,34,81,053,43,06,77,216,43,09,75,284,38,16,74,196,38,1*73
$GBGSV,4,2,15,11,72,200,38,40,63,322,27,39,63,182,26,25,61,348,40,1*74
$GBGSV,4,3,15,07,61,301,37,10,51,283,35,12,48,041,30,24,47,101,40,1*71
$GBGSV,4,4,15,43,47,216,32,44,25,040,30,23,16,316,42,1*46
$GBGSV,2,1,08,34,81,053,44,39,63,182,25,40,63,322,23,25,61,348,39,4*75
$GBGSV,2,2,08,24,47,101,42,43,47,216,25,44,25,040,23,23,16,316,35,4*78
$GNACCURACY,3.9*1C
$PAIRSAT,1,35,2,0,201,3,0,200,4,0,221,5,0,200,6,0,200,7,0,201,8,0,221,9,0,221,10,0,200,11,0,200,12,0,200,13,0,200,14,0,200,15,0,200,16,0,201,17,0,200,18,0,200,19,0,200,20,0,200,21,0,201,22,0,200,23,0,200,24,0,200,25,0,200,26,0,220,27,0,221,28,0,200,29,0,200,30,0,221,31,0,201,32,0,200,194,0,621,195,0,621,196,0,620,199,0,621*5A
$PAIRSAT,2,24,65,0,200,66,0,200,67,0,200,68,0,200,69,0,200,70,0,200,71,0,200,72,0,200,73,0,201,74,0,200,75,0,200,76,0,200,77,0,200,78,0,200,79,0,201,80,0,201,81,0,201,82,0,201,83,0,201,84,0,200,85,0,200,86,0,200,87,0,200,88,0,200*7A
$PAIRSAT,3,23,2,0,1021,3,0,1200,4,0,1200,5,0,200,7,0,1221,8,0,1200,9,0,1200,10,0,1200,11,0,1200,12,0,1200,13,0,1200,15,0,1221,19,0,1200,21,0,1200,24,0,1200,25,0,1200,26,0,1200,27,0,1221,30,0,1221,31,0,1200,33,0,1200,34,0,1221,36,0,1200*68
$PAIRSAT,4,46,1,0,200,2,0,200,3,0,600,4,0,200,5,0,200,6,0,201,7,0,201,8,0,200,9,0,201,10,0,201,11,0,201,12,0,201,13,0,200,14,0,200,16,0,201,19,0,600,20,0,600,21,0,600,22,0,600,23,0,621,24,0,621,25,0,621,26,0,600,27,0,600,28,0,600,29,0,600,30,0,600,32,0,600,33,0,600,34,0,621,35,0,600,36,0,600,37,0,600,38,0,600,39,0,621,40,0,621,41,0,600,42,0,600,43,0,421,44,0,421,45,0,400,46,0,400,59,0,400,60,0,400,61,0,400,62,0,400*48
$PAIRDGP,6,2,4,7,9,16,21*4F
$GNGGA,041107.200,2500.8109900,N,12132.4782600,E,2,60,0.48,25.91,M,15.25,M,1,3335*73
$GNRMC,041107.200,A,2500.8109900,N,12132.4782600,E,0.03,144.58,030324,,,D,V*05
$GPHDT,,T*1B
$GNACCURACY,3.9*1C
$GNGGA,041107.300,2500.8109800,N,12132.4782600,E,2,60,0.48,25.91,M,15.25,M,1,3335*73
$GNRMC,041107.300,A,2500.8109800,N,12132.4782600,E,0.03,144.58,030324,,,D,V*05
$GPHDT,,T*1B
$GNACCURACY,3.8*1D
$GNGGA,041107.400,2500.8109800,N,12132.4782600,E,2,61,0.48,25.92,M,15.25,M,1,3335*76
$GNRMC,041107.400,A,2500.8109800,N,12132.4782600,E,0.02,144.58,030324,,,D,V*03
$GPHDT,,T*1B
$GNACCURACY,3.8*1D
$GNGGA,041107.500,2500.8109700,N,12132.4782600,E,2,60,0.48,25.92,M,15.25,M,1,3335*79
$GNRMC,041107.500,A,2500.8109700,N,12132.4782600,E,0.02,144.58,030324,,,D,V*0D
$GPHDT,,T*1B
$GNACCURACY,3.8*1D
$GNGGA,041107.600,2500.8109700,N,12132.4782700,E,2,60,0.48,25.92,M,15.25,M,0,3335*7A
$GNRMC,041107.600,A,2500.8109700,N,12132.4782700,E,0.00,144.58,030324,,,D,V*0D
$GPHDT,,T*1B
$GNACCURACY,3.8*1D
$GNGGA,041107.700,2500.8109500,N,12132.4782800,E,2,60,0.48,25.93,M,15.25,M,0,3335*77
$GNRMC,041107.700,A,2500.8109500,N,12132.4782800,E,0.01,144.58,030324,,,D,V*00
$GPHDT,,T*1B
$GNACCURACY,3.9*1C
$GNGGA,041107.800,2500.8109400,N,12132.4782900,E,2,60,0.48,25.93,M,15.25,M,0,3335*78
$GNRMC,041107.800,A,2500.8109400,N,12132.4782900,E,0.02,144.58,030324,,,D,V*0C
$GPHDT,,T*1B
$GNACCURACY,3.9*1C
$GNGGA,041107.900,2500.8109200,N,12132.4782900,E,2,60,0.48,25.93,M,15.25,M,0,3335*7F
$GNRMC,041107.900,A,2500.8109200,N,12132.4782900,E,0.02,144.58,030324,,,D,V*0B
$GPHDT,,T*1B
$GNACCURACY,3.9*1C
$GNGGA,041108.000,2500.8109200,N,12132.4782900,E,2,60,0.48,25.94,M,15.25,M,1,3335*7F
$GNRMC,041108.000,A,2500.8109200,N,12132.4782900,E,0.02,144.58,030324,,,D,V*0D
$GPHDT,,T*1B
$GNACCURACY,3.9*1C
$GNGGA,041108.100,2500.8109000,N,12132.4783000,E,2,59,0.48,25.95,M,15.25,M,1,3335*7F
$GNRMC,041108.100,A,2500.8109000,N,12132.4783000,E,0.03,144.58,030324,,,D,V*07
$GPHDT,,T*1B
$GNGSA,A,3,08,194,195,199,21,27,02,07,16,09,04,196,0.75,0.48,0.58,1*0D
$GNGSA,A,3,26,,,,,,,,,,,,0.75,0.48,0.58,1*06
$GNGSA,A,3,83,82,80,79,81,,,,,,,,0.75,0.48,0.58,2*0F
$GNGSA,A,3,30,15,34,27,07,02,,,,,,,0.75,0.48,0.58,3*00
$GNGSA,A,3,34,06,09,16,11,40,39,25,07,10,12,24,0.75,0.48,0.58,4*02
$GNGSA,A,3,43,44,23,,,,,,,,,,0.75,0.48,0.58,4*01
$GPGSV,4,1,15,08,69,332,42,194,63,049,41,195,61,120,42,199,60,167,29,1*54
$GPGSV,4,2,15,21,49,164,37,27,42,031,25,02,37,179,32,07,32,320,42,1*60
$GPGSV,4,3,15,16,31,065,39,09,28,257,17,04,25,210,25,196,20,172,19,1*59
$GPGSV,4,4,15,26,13,091,13,31,08,141,15,30,03,320,29,1*5C
$GPGSV,2,1,08,08,69,332,46,194,63,049,42,195,61,120,36,199,60,167,42,8*5E
$GPGSV,2,2,08,09,28,257,25,04,25,210,17,196,20,172,31,26,13,091,23,8*52
$GLGSV,2,1,06,83,64,178,22,82,62,042,41,80,50,019,40,79,32,093,30,1*70
$GLGSV,2,2,06,73,16,325,13,81,15,028,21,1*7F
$GAGSV,2,1,07,30,50,036,35,15,49,149,32,34,42,067,36,27,38,319,39,7*7C
$GAGSV,2,2,07,07,31,231,32,02,15,084,28,08,10,182,16,7*45
$GAGSV,2,1,06,30,50,036,34,15,49,149,36,34,42,067,40,27,38,319,37,1*71
$GAGSV,2,2,06,07,31,231,21,02,15,084,23,1*7E
$GBGSV,4,1,15,34,81,053,43,06,77,216,43,09,75,284,35,16,74,196,38,1*7E
$GBGSV,4,2,15,11,72,200,38,40,63,322,34,39,63,182,28,25,61,348,43,1*7B
$GBGSV,4,3,15,07,61,301,38,10,51,283,31,12,48,041,25,24,47,101,41,1*7F
$GBGSV,4,4,15,43,47,216,27,44,25,040,27,23,17,316,43,1*44
$GBGSV,2,1,08,34,81,053,44,39,63,182,25,40,63,322,38,25,61,348,40,4*71
$GBGSV,2,2,08,24,47,101,42,43,47,216,23,44,25,040,29,23,17,316,41,4*76
$GNACCURACY,3.9*1C
$PAIRSAT,1,35,2,0,201,3,0,200,4,0,221,5,0,200,6,0,200,7,0,201,8,0,221,9,0,221,10,0,200,11,0,200,12,0,200,13,0,200,14,0,200,15,0,200,16,0,201,17,0,200,18,0,200,19,0,200,20,0,200,21,0,201,22,0,200,23,0,200,24,0,200,25,0,200,26,0,220,27,0,221,28,0,200,29,0,200,30,0,221,31,0,201,32,0,200,194,0,621,195,0,621,196,0,620,199,0,621*5A
$PAIRSAT,2,24,65,0,200,66,0,200,67,0,200,68,0,200,69,0,200,70,0,200,71,0,200,72,0,200,73,0,201,74,0,200,75,0,200,76,0,200,77,0,200,78,0,200,79,0,201,80,0,201,81,0,201,82,0,201,83,0,201,84,0,200,85,0,200,86,0,200,87,0,200,88,0,200*7A
$PAIRSAT,3,23,2,0,1021,3,0,1200,4,0,1200,5,0,200,7,0,1221,8,0,1200,9,0,1200,10,0,1200,11,0,1200,12,0,1200,13,0,1200,15,0,1221,19,0,1200,21,0,1200,24,0,1200,25,0,1200,26,0,1200,27,0,1221,30,0,1221,31,0,1200,33,0,1200,34,0,1221,36,0,1200*68
$PAIRSAT,4,46,1,0,200,2,0,200,3,0,600,4,0,200,5,0,200,6,0,201,7,0,201,8,0,200,9,0,201,10,0,201,11,0,201,12,0,201,13,0,200,14,0,200,16,0,201,19,0,600,20,0,600,21,0,600,22,0,600,23,0,621,24,0,621,25,0,621,26,0,600,27,0,600,28,0,600,29,0,600,30,0,600,32,0,600,33,0,600,34,0,621,35,0,600,36,0,600,37,0,600,38,0,600,39,0,621,40,0,621,41,0,600,42,0,600,43,0,421,44,0,421,45,0,400,46,0,400,59,0,400,60,0,400,61,0,400,62,0,400*48
$PAIRDGP,6,2,4,7,9,16,21*4F
$GNGGA,041108.200,2500.8108900,N,12132.4783100,E,2,59,0.48,25.95,M,15.25,M,1,3335*75
$GNRMC,041108.200,A,2500.8108900,N,12132.4783100,E,0.02,144.58,030324,,,D,V*0C
$GPHDT,,T*1B
$GNACCURACY,3.9*1C
$GNGGA,041108.300,2500.8108800,N,12132.4783100,E,2,59,0.48,25.96,M,15.25,M,1,3335*76
$GNRMC,041108.300,A,2500.8108800,N,12132.4783100,E,0.02,144.58,030324,,,D,V*0C
$GPHDT,,T*1B
$GNACCURACY,3.9*1C
$GNGGA,041108.400,2500.8108800,N,12132.4783100,E,2,59,0.48,25.96,M,15.25,M,1,3335*71
$GNRMC,041108.400,A,2500.8108800,N,12132.4783100,E,0.02,144.58,030324,,,D,V*0B
$GPHDT,,T*1B
$GNACCURACY,3.9*1C
$GNGGA,041108.500,2500.8108700,N,12132.4783100,E,2,60,0.48,25.97,M,15.25,M,1,3335*74
$GNRMC,041108.500,A,2500.8108700,N,12132.4783100,E,0.02,144.58,030324,,,D,V*05
$GPHDT,,T*1B
$GNACCURACY,3.9*1C
$GNGGA,041108.600,2500.8108600,N,12132.4783100,E,2,60,0.48,25.98,M,15.25,M,1,3335*79
$GNRMC,041108.600,A,2500.8108600,N,12132.4783100,E,0.03,144.58,030324,,,D,V*06
$GPHDT,,T*1B
$GNACCURACY,3.9*1C
$GNGGA,041108.700,2500.8108500,N,12132.4783100,E,2,60,0.48,25.98,M,15.25,M,0,3335*7A
$GNRMC,041108.700,A,2500.8108500,N,12132.4783100,E,0.03,144.58,030324,,,D,V*04
$GPHDT,,T*1B
$GNACCURACY,3.9*1C
$GNGGA,041108.800,2500.8108500,N,12132.4783100,E,2,60,0.48,25.99,M,15.25,M,0,3335*74
$GNRMC,041108.800,A,2500.8108500,N,12132.4783100,E,0.02,144.58,030324,,,D,V*0A
$GPHDT,,T*1B
$GNACCURACY,3.9*1C
$GNGGA,041108.900,2500.8108400,N,12132.4783100,E,2,60,0.48,26.00,M,15.25,M,0,3335*77
$GNRMC,041108.900,A,2500.8108400,N,12132.4783100,E,0.02,144.58,030324,,,D,V*0A
$GPHDT,,T*1B
$GNACCURACY,3.9*1C
$GNGGA,041109.000,2500.8108300,N,12132.4783100,E,2,60,0.48,26.00,M,15.25,M,1,3335*79
$GNRMC,041109.000,A,2500.8108300,N,12132.4783100,E,0.01,144.58,030324,,,D,V*06
$GPHDT,,T*1B
$GNACCURACY,3.9*1C
$GNGGA,041109.100,2500.8108300,N,12132.4783100,E,2,60,0.48,26.01,M,15.25,M,1,3335*79
$GNRMC,041109.100,A,2500.8108300,N,12132.4783100,E,0.01,144.58,030324,,,D,V*07
$GPHDT,,T*1B
$GNGSA,A,3,08,194,195,199,21,27,02,07,16,09,04,196,0.75,0.48,0.58,1*0D
$GNGSA,A,3,26,,,,,,,,,,,,0.75,0.48,0.58,1*06
$GNGSA,A,3,83,82,80,79,81,,,,,,,,0.75,0.48,0.58,2*0F
$GNGSA,A,3,30,15,34,27,07,02,,,,,,,0.75,0.48,0.58,3*00
$GNGSA,A,3,34,06,09,16,11,40,39,25,07,10,12,24,0.75,0.48,0.58,4*02
$GNGSA,A,3,43,44,23,,,,,,,,,,0.75,0.48,0.58,4*01
$GPGSV,4,1,15,08,69,332,42,194,63,049,42,195,61,120,41,199,60,167,30,1*5C
$GPGSV,4,2,15,21,49,164,33,27,42,031,31,02,37,179,32,07,32,320,42,1*61
$GPGSV,4,3,15,16,31,065,39,09,28,257,16,04,25,210,26,196,20,172,16,1*54
$GPGSV,4,4,15,26,13,091,15,31,08,141,16,30,03,320,29,1*59
$GPGSV,2,1,08,08,69,332,46,194,63,049,42,195,61,120,36,199,60,167,42,8*5E
$GPGSV,2,2,08,09,28,257,23,04,25,210,20,196,20,172,30,26,13,091,25,8*57
$GLGSV,2,1,06,83,64,178,23,82,62,042,41,80,50,019,40,79,32,093,29,1*79
$GLGSV,2,2,06,73,16,325,14,81,15,028,19,1*73
$GAGSV,2,1,07,30,50,036,32,15,49,149,31,34,42,067,36,27,38,319,39,7*78
$GAGSV,2,2,07,07,31,231,32,02,15,084,27,08,10,182,17,7*4B
$GAGSV,2,1,06,30,50,036,31,15,49,149,36,34,42,067,40,27,38,319,37,1*74
$GAGSV,2,2,06,07,31,231,19,02,15,084,25,1*73
$GBGSV,4,1,15,34,80,052,43,06,77,216,43,09,75,284,35,16,74,196,38,1*7E
$GBGSV,4,2,15,11,72,200,38,40,63,322,35,39,63,182,28,25,61,348,43,1*7A
$GBGSV,4,3,15,07,61,301,37,10,51,283,31,12,48,041,25,24,47,101,41,1*70
$GBGSV,4,4,15,43,47,216,25,44,25,040,26,23,17,316,44,1*40
$GBGSV,2,1,07,34,80,052,44,39,63,182,29,40,63,322,39,25,61,348,41,4*72
$GBGSV,2,2,07,24,47,101,42,44,25,040,29,23,17,316,41,4*49
$GNACCURACY,3.9*1C
$PAIRSAT,1,35,2,0,201,3,0,200,4,0,221,5,0,200,6,0,200,7,0,201,8,0,221,9,0,221,10,0,200,11,0,200,12,0,200,13,0,200,14,0,200,15,0,200,16,0,201,17,0,200,18,0,200,19,0,200,20,0,200,21,0,201,22,0,200,23,0,200,24,0,200,25,0,200,26,0,220,27,0,221,28,0,200,29,0,200,30,0,221,31,0,201,32,0,200,194,0,621,195,0,621,196,0,620,199,0,621*5A
$PAIRSAT,2,24,65,0,200,66,0,200,67,0,200,68,0,200,69,0,200,70,0,200,71,0,200,72,0,200,73,0,201,74,0,200,75,0,200,76,0,200,77,0,200,78,0,200,79,0,201,80,0,201,81,0,201,82,0,201,83,0,201,84,0,200,85,0,200,86,0,200,87,0,200,88,0,200*7A
$PAIRSAT,3,23,2,0,1021,3,0,1200,4,0,1200,5,0,200,7,0,1221,8,0,1200,9,0,1200,10,0,1200,11,0,1200,12,0,1200,13,0,1200,15,0,1221,19,0,1200,21,0,1200,24,0,1200,25,0,1200,26,0,1200,27,0,1221,30,0,1221,31,0,1200,33,0,1200,34,0,1221,36,0,1200*68
$PAIRSAT,4,46,1,0,200,2,0,200,3,0,600,4,0,200,5,0,200,6,0,201,7,0,201,8,0,200,9,0,201,10,0,201,11,0,201,12,0,201,13,0,200,14,0,200,16,0,201,19,0,600,20,0,600,21,0,600,22,0,600,23,0,621,24,0,621,25,0,621,26,0,600,27,0,600,28,0,600,29,0,600,30,0,600,32,0,600,33,0,600,34,0,621,35,0,600,36,0,600,37,0,600,38,0,600,39,0,621,40,0,621,41,0,600,42,0,600,43,0,421,44,0,421,45,0,400,46,0,400,59,0,400,60,0,400,61,0,400,62,0,400*48
$PAIRDGP,6,2,4,7,9,16,21*4F
$GNGGA,041109.200,2500.8108300,N,12132.4783100,E,2,60,0.48,26.02,M,15.25,M,1,3335*79
$GNRMC,041109.200,A,2500.8108300,N,12132.4783100,E,0.01,144.58,030324,,,D,V*04
$GPHDT,,T*1B
$GNACCURACY,3.9*1C
$GNGGA,041109.300,2500.8108300,N,12132.4783100,E,2,60,0.48,26.02,M,15.25,M,1,3335*78
$GNRMC,041109.300,A,2500.8108300,N,12132.4783100,E,0.01,144.58,030324,,,D,V*05
$GPHDT,,T*1B
$GNACCURACY,3.9*1C
$GNGGA,041109.400,2500.8108200,N,12132.4783100,E,2,60,0.48,26.03,M,15.25,M,1,3335*7F
$GNRMC,041109.400,A,2500.8108200,N,12132.4783100,E,0.00,144.58,030324,,,D,V*02
$GPHDT,,T*1B
$GNACCURACY,3.9*1C
$GNGGA,041109.500,2500.8108200,N,12132.4783100,E,2,60,0.48,26.04,M,15.25,M,1,3335*79
$GNRMC,041109.500,A,2500.8108200,N,12132.4783100,E,0.01,144.58,030324,,,D,V*02
$GPHDT,,T*1B
$GNACCURACY,4.0*12
$GNGGA,041109.600,2500.8108200,N,12132.4783100,E,2,60,0.48,26.04,M,15.25,M,0,3335*7B
$GNRMC,041109.600,A,2500.8108200,N,12132.4783100,E,0.00,144.58,030324,,,D,V*00
$GPHDT,,T*1B
$GNACCURACY,4.0*12
$GNGGA,041109.700,2500.8108200,N,12132.4783100,E,2,60,0.48,26.05,M,15.25,M,0,3335*7B
$GNRMC,041109.700,A,2500.8108200,N,12132.4783100,E,0.01,144.58,030324,,,D,V*00
$GPHDT,,T*1B
$GNACCURACY,4.0*12
$GNGGA,041109.800,2500.8108200,N,12132.4783100,E,2,60,0.48,26.05,M,15.25,M,0,3335*74
$GNRMC,041109.800,A,2500.8108200,N,12132.4783100,E,0.01,144.58,030324,,,D,V*0F
$GPHDT,,T*1B
$GNACCURACY,4.0*12
$GNGGA,041109.900,2500.8108100,N,12132.4783100,E,2,60,0.48,26.06,M,15.25,M,0,3335*75
$GNRMC,041109.900,A,2500.8108100,N,12132.4783100,E,0.00,144.58,030324,,,D,V*0C
$GPHDT,,T*1B
$GNACCURACY,4.0*12
$GNGGA,041110.000,2500.8108100,N,12132.4783100,E,2,59,0.48,26.07,M,15.25,M,1,3335*7E
$GNRMC,041110.000,A,2500.8108100,N,12132.4783100,E,0.01,144.58,030324,,,D,V*0C
$GPHDT,,T*1B
$GNACCURACY,4.0*12
$GNGGA,041110.100,2500.8108000,N,12132.4783100,E,2,59,0.48,26.07,M,15.25,M,1,3335*7E
$GNRMC,041110.100,A,2500.8108000,N,12132.4783100,E,0.01,144.58,030324,,,D,V*0C
$GPHDT,,T*1B
$GNGSA,A,3,08,194,195,199,21,27,02,07,16,09,04,196,0.75,0.48,0.58,1*0D
$GNGSA,A,3,26,,,,,,,,,,,,0.75,0.48,0.58,1*06
$GNGSA,A,3,83,82,80,79,81,,,,,,,,0.75,0.48,0.58,2*0F
$GNGSA,A,3,30,15,34,27,07,02,,,,,,,0.75,0.48,0.58,3*00
$GNGSA,A,3,34,06,09,16,11,40,39,25,07,10,12,24,0.75,0.48,0.58,4*02
$GNGSA,A,3,43,44,23,,,,,,,,,,0.75,0.48,0.58,4*01
$GPGSV,4,1,15,08,69,332,42,194,63,049,42,195,61,120,40,199,60,167,31,1*5C
$GPGSV,4,2,15,21,49,164,36,27,42,031,31,02,37,179,31,07,32,320,42,1*67
$GPGSV,4,3,15,16,31,065,40,09,28,257,14,04,25,210,23,196,20,172,18,1*53
$GPGSV,4,4,15,26,13,091,18,31,08,141,16,30,03,320,31,1*5D
$GPGSV,2,1,07,08,69,332,46,194,63,049,42,195,61,120,38,199,60,167,42,8*5F
$GPGSV,2,2,07,09,28,257,24,196,20,172,30,26,13,091,25,8*6D
$GLGSV,2,1,06,83,64,178,21,82,62,042,41,80,50,019,39,79,32,093,29,1*75
$GLGSV,2,2,06,73,16,325,,81,15,028,18,1*77
$GAGSV,2,1,07,30,50,036,28,15,49,149,32,34,42,067,36,27,38,319,39,7*70
$GAGSV,2,2,07,07,31,231,31,02,15,084,28,08,10,182,16,7*46
$GAGSV,2,1,05,30,50,036,29,15,49,149,36,34,42,067,40,27,38,319,37,1*7E
$GAGSV,2,2,05,02,15,084,24,1*4C
$GBGSV,4,1,15,34,80,052,43,06,77,216,43,09,75,284,35,16,74,196,38,1*7E
$GBGSV,4,2,15,11,72,200,38,40,63,322,34,39,63,182,29,25,61,348,43,1*7A
$GBGSV,4,3,15,07,61,301,37,10,51,283,31,12,48,041,30,24,47,101,41,1*74
$GBGSV,4,4,15,43,47,216,27,44,25,040,25,23,17,316,44,1*41
$GBGSV,2,1,07,34,80,052,44,39,63,182,28,40,63,322,39,25,61,348,41,4*73
$GBGSV,2,2,07,24,47,101,42,44,25,040,29,23,17,316,41,4*49
$GNACCURACY,4.0*12
$PAIRSAT,1,35,2,0,201,3,0,200,4,0,221,5,0,200,6,0,200,7,0,201,8,0,221,9,0,221,10,0,200,11,0,200,12,0,200,13,0,200,14,0,200,15,0,200,16,0,201,17,0,200,18,0,200,19,0,200,20,0,200,21,0,201,22,0,200,23,0,200,24,0,200,25,0,200,26,0,220,27,0,221,28,0,200,29,0,200,30,0,221,31,0,201,32,0,200,194,0,621,195,0,621,196,0,620,199,0,621*5A
$PAIRSAT,2,24,65,0,200,66,0,200,67,0,200,68,0,200,69,0,200,70,0,200,71,0,200,72,0,200,73,0,201,74,0,200,75,0,200,76,0,200,77,0,200,78,0,200,79,0,201,80,0,201,81,0,201,82,0,201,83,0,201,84,0,200,85,0,200,86,0,200,87,0,200,88,0,200*7A
$PAIRSAT,3,23,2,0,1021,3,0,1200,4,0,1200,5,0,200,7,0,1221,8,0,1200,9,0,1200,10,0,1200,11,0,1200,12,0,1200,13,0,1200,15,0,1221,19,0,1200,21,0,1200,24,0,1200,25,0,1200,26,0,1200,27,0,1221,30,0,1221,31,0,1200,33,0,1200,34,0,1221,36,0,1200*68
$PAIRSAT,4,46,1,0,200,2,0,200,3,0,600,4,0,200,5,0,200,6,0,201,7,0,201,8,0,200,9,0,201,10,0,201,11,0,201,12,0,201,13,0,200,14,0,200,16,0,201,19,0,600,20,0,600,21,0,600,22,0,600,23,0,621,24,0,621,25,0,621,26,0,600,27,0,600,28,0,600,29,0,600,30,0,600,32,0,600,33,0,600,34,0,621,35,0,600,36,0,600,37,0,600,38,0,600,39,0,621,40,0,621,41,0,600,42,0,600,43,0,421,44,0,421,45,0,400,46,0,400,59,0,400,60,0,400,61,0,400,62,0,400*48
$PAIRDGP,6,2,4,7,9,16,21*4F
$GNGGA,041110.200,2500.8108000,N,12132.4783100,E,2,58,0.48,26.08,M,15.25,M,1,3335*73
$GNRMC,041110.200,A,2500.8108000,N,12132.4783100,E,0.01,144.58,030324,,,D,V*0F
$GPHDT,,T*1B
$GNACCURACY,4.0*12
$GNGGA,041110.300,2500.8108000,N,12132.4783100,E,2,58,0.48,26.09,M,15.25,M,1,3335*73
$GNRMC,041110.300,A,2500.8108000,N,12132.4783100,E,0.01,144.58,030324,,,D,V*0E
$GPHDT,,T*1B
$GNACCURACY,4.0*12
$GNGGA,041110.400,2500.8108000,N,12132.4783100,E,2,58,0.48,26.10,M,15.25,M,1,3335*7C
$GNRMC,041110.400,A,2500.8108000,N,12132.4783100,E,0.01,144.58,030324,,,D,V*09
$GPHDT,,T*1B
$GNACCURACY,4.0*12
$GNGGA,041110.500,2500.8108000,N,12132.4783000,E,2,57,0.49,26.11,M,15.25,M,1,3335*73
$GNRMC,041110.500,A,2500.8108000,N,12132.4783000,E,0.01,144.58,030324,,,D,V*09
$GPHDT,,T*1B
$GNACCURACY,4.0*12
$GNGGA,041110.600,2500.8108000,N,12132.4783000,E,2,57,0.49,26.12,M,15.25,M,0,3335*72
$GNRMC,041110.600,A,2500.8108000,N,12132.4783000,E,0.01,144.58,030324,,,D,V*0A
$GPHDT,,T*1B
$GNACCURACY,4.0*12
$GNGGA,041110.700,2500.8108000,N,12132.4783000,E,2,57,0.49,26.13,M,15.25,M,0,3335*72
$GNRMC,041110.700,A,2500.8108000,N,12132.4783000,E,0.01,144.58,030324,,,D,V*0B
$GPHDT,,T*1B
$GNACCURACY,4.0*12
$GNGGA,041110.800,2500.8108000,N,12132.4782900,E,2,57,0.49,26.14,M,15.25,M,0,3335*72
$GNRMC,041110.800,A,2500.8108000,N,12132.4782900,E,0.01,144.58,030324,,,D,V*0C
$GPHDT,,T*1B
$GNACCURACY,4.0*12
$GNGGA,041110.900,2500.8107900,N,12132.4782900,E,2,57,0.49,26.14,M,15.25,M,0,3335*75
$GNRMC,041110.900,A,2500.8107900,N,12132.4782900,E,0.02,144.58,030324,,,D,V*08
$GPHDT,,T*1B
$GNACCURACY,4.0*12
$GNGGA,041111.000,2500.8108000,N,12132.4782900,E,2,57,0.49,26.15,M,15.25,M,1,3335*7B
$GNRMC,041111.000,A,2500.8108000,N,12132.4782900,E,0.02,144.58,030324,,,D,V*06
$GPHDT,,T*1B
$GNACCURACY,4.0*12
$GNGGA,041111.100,2500.8108000,N,12132.4783000,E,2,57,0.49,26.16,M,15.25,M,1,3335*71
$GNRMC,041111.100,A,2500.8108000,N,12132.4783000,E,0.01,144.58,030324,,,D,V*0C
$GPHDT,,T*1B
$GNGSA,A,3,08,194,195,199,21,27,02,07,16,09,196,26,0.78,0.49,0.60,1*0A
$GNGSA,A,3,83,82,80,79,81,,,,,,,,0.78,0.49,0.60,2*08
$GNGSA,A,3,30,15,34,27,07,02,,,,,,,0.78,0.49,0.60,3*07
$GNGSA,A,3,34,06,09,16,11,40,39,25,07,10,12,24,0.78,0.49,0.60,4*05
$GNGSA,A,3,43,44,23,,,,,,,,,,0.78,0.49,0.60,4*06
$GPGSV,4,1,15,08,69,332,42,194,63,049,42,195,61,120,40,199,60,167,31,1*5C
$GPGSV,4,2,15,21,49,164,31,27,42,031,30,02,37,179,34,07,32,320,42,1*64
$GPGSV,4,3,15,16,31,065,40,09,28,257,14,04,25,210,21,196,20,172,18,1*51
$GPGSV,4,4,15,26,13,091,19,31,08,141,15,30,03,320,31,1*5F
$GPGSV,2,1,07,08,69,332,46,194,63,049,43,195,61,120,38,199,60,167,42,8*5E
$GPGSV,2,2,07,09,28,257,24,196,20,172,30,26,13,091,25,8*6D
$GLGSV,2,1,06,83,64,178,20,82,62,042,41,80,50,019,39,79,32,093,30,1*7C
$GLGSV,2,2,06,73,16,325,,81,15,028,19,1*76
$GAGSV,2,1,07,30,50,036,28,15,49,149,34,34,42,067,36,27,38,319,39,7*76
$GAGSV,2,2,07,07,31,231,30,02,15,084,27,08,10,182,15,7*4B
$GAGSV,2,1,05,30,50,036,33,15,49,149,38,34,42,067,40,27,38,319,38,1*74
$GAGSV,2,2,05,02,15,084,25,1*4D
$GBGSV,4,1,15,34,80,052,43,06,77,216,43,09,75,284,35,16,74,196,37,1*71
$GBGSV,4,2,15,11,72,200,38,40,63,322,35,39,63,182,26,25,61,348,44,1*73
$GBGSV,4,3,15,07,61,301,37,10,51,283,31,12,48,041,23,24,47,101,41,1*76
$GBGSV,4,4,15,43,47,216,29,44,25,040,23,23,17,316,44,1*49
$GBGSV,2,1,07,34,80,052,44,39,63,182,24,40,63,322,39,25,61,348,42,4*7C
$GBGSV,2,2,07,24,47,101,42,44,25,040,29,23,17,316,41,4*49
$GNACCURACY,4.0*12
$PAIRSAT,1,35,2,0,201,3,0,200,4,0,221,5,0,200,6,0,200,7,0,201,8,0,221,9,0,221,10,0,200,11,0,200,12,0,200,13,0,200,14,0,200,15,0,200,16,0,201,17,0,200,18,0,200,19,0,200,20,0,200,21,0,201,22,0,200,23,0,200,24,0,200,25,0,200,26,0,220,27,0,221,28,0,200,29,0,200,30,0,221,31,0,201,32,0,200,194,0,621,195,0,621,196,0,620,199,0,621*5A
$PAIRSAT,2,24,65,0,200,66,0,200,67,0,200,68,0,200,69,0,200,70,0,200,71,0,200,72,0,200,73,0,201,74,0,200,75,0,200,76,0,200,77,0,200,78,0,200,79,0,201,80,0,201,81,0,201,82,0,201,83,0,201,84,0,200,85,0,200,86,0,200,87,0,200,88,0,200*7A
$PAIRSAT,3,23,2,0,1021,3,0,1200,4,0,1200,5,0,200,7,0,1221,8,0,1200,9,0,1200,10,0,1200,11,0,1200,12,0,1200,13,0,1200,15,0,1221,19,0,1200,21,0,1200,24,0,1200,25,0,1200,26,0,1200,27,0,1221,30,0,1221,31,0,1200,33,0,1200,34,0,1221,36,0,1200*68
$PAIRSAT,4,46,1,0,200,2,0,200,3,0,600,4,0,200,5,0,200,6,0,201,7,0,201,8,0,200,9,0,201,10,0,201,11,0,201,12,0,201,13,0,200,14,0,200,16,0,201,19,0,600,20,0,600,21,0,600,22,0,600,23,0,621,24,0,621,25,0,621,26,0,600,27,0,600,28,0,600,29,0,600,30,0,600,32,0,600,33,0,600,34,0,621,35,0,600,36,0,600,37,0,600,38,0,600,39,0,621,40,0,621,41,0,600,42,0,600,43,0,421,44,0,421,45,0,400,46,0,400,59,0,400,60,0,400,61,0,400,62,0,400*48
$PAIRDGP,6,2,4,7,9,16,21*4F
$GNGGA,041111.200,2500.8108000,N,12132.4783000,E,2,57,0.49,26.17,M,15.25,M,1,3335*73
$GNRMC,041111.200,A,2500.8108000,N,12132.4783000,E,0.02,144.58,030324,,,D,V*0C
$GPHDT,,T*1B
$GNACCURACY,4.0*12
$GNGGA,041111.300,2500.8108000,N,12132.4783000,E,2,58,0.48,26.18,M,15.25,M,1,3335*73
$GNRMC,041111.300,A,2500.8108000,N,12132.4783000,E,0.02,144.58,030324,,,D,V*0D
$GPHDT,,T*1B
$GNACCURACY,4.0*12
$GNGGA,041111.400,2500.8108000,N,12132.4783000,E,2,56,0.49,26.18,M,15.25,M,1,3335*7B
$GNRMC,041111.400,A,2500.8108000,N,12132.4783000,E,0.02,144.58,030324,,,D,V*0A
$GPHDT,,T*1B
$GNACCURACY,4.0*12
$GNGGA,041111.500,2500.8108000,N,12132.4783000,E,2,56,0.49,26.19,M,15.25,M,0,3335*7A
$GNRMC,041111.500,A,2500.8108000,N,12132.4783000,E,0.01,144.58,030324,,,D,V*08
$GPHDT,,T*1B
$GNACCURACY,4.0*12
$GNGGA,041111.600,2500.8108000,N,12132.4783000,E,2,57,0.49,26.20,M,15.25,M,0,3335*72
$GNRMC,041111.600,A,2500.8108000,N,12132.4783000,E,0.01,144.58,030324,,,D,V*0B
$GPHDT,,T*1B
$GNACCURACY,4.0*12
$GNGGA,041111.700,2500.8108000,N,12132.4783000,E,2,57,0.49,26.21,M,15.25,M,0,3335*72
$GNRMC,041111.700,A,2500.8108000,N,12132.4783000,E,0.01,144.58,030324,,,D,V*0A
$GPHDT,,T*1B
$GNACCURACY,4.0*12
$GNGGA,041111.800,2500.8108100,N,12132.4783000,E,2,57,0.49,26.22,M,15.25,M,0,3335*7F
$GNRMC,041111.800,A,2500.8108100,N,12132.4783000,E,0.02,144.58,030324,,,D,V*07
$GPHDT,,T*1B
$GNACCURACY,4.0*12
$GNGGA,041111.900,2500.8108100,N,12132.4783100,E,2,57,0.49,26.23,M,15.25,M,0,3335*7E
$GNRMC,041111.900,A,2500.8108100,N,12132.4783100,E,0.02,144.58,030324,,,D,V*07
$GPHDT,,T*1B
$GNACCURACY,4.0*12
$GNGGA,041112.000,2500.8108100,N,12132.4783100,E,2,57,0.49,26.25,M,15.25,M,1,3335*73
$GNRMC,041112.000,A,2500.8108100,N,12132.4783100,E,0.02,144.58,030324,,,D,V*0D
$GPHDT,,T*1B
$GNACCURACY,4.0*12
$GNGGA,041112.100,2500.8108200,N,12132.4783100,E,2,57,0.49,26.26,M,15.25,M,1,3335*72
$GNRMC,041112.100,A,2500.8108200,N,12132.4783100,E,0.02,144.58,030324,,,D,V*0F
$GPHDT,,T*1B
$GNGSA,A,3,08,194,195,199,21,27,02,07,16,09,196,26,0.78,0.49,0.60,1*0A
$GNGSA,A,3,83,82,80,79,81,,,,,,,,0.78,0.49,0.60,2*08
$GNGSA,A,3,30,15,34,27,07,02,,,,,,,0.78,0.49,0.60,3*07
$GNGSA,A,3,34,06,09,16,11,39,40,07,25,10,12,43,0.78,0.49,0.60,4*04
$GNGSA,A,3,24,44,23,,,,,,,,,,0.78,0.49,0.60,4*07
$GPGSV,4,1,15,08,69,332,42,194,63,049,42,195,61,120,41,199,60,167,30,1*5C
$GPGSV,4,2,15,21,49,164,34,27,42,031,29,02,37,179,35,07,32,320,43,1*69
$GPGSV,4,3,15,16,31,065,40,09,28,257,17,04,25,210,20,196,20,172,16,1*5D
$GPGSV,4,4,15,26,13,091,19,31,08,141,12,30,03,320,30,1*59
$GPGSV,2,1,08,08,69,332,46,194,63,049,43,195,61,120,37,199,60,167,42,8*5E
$GPGSV,2,2,08,09,28,257,24,196,20,172,30,26,13,091,27,30,03,320,23,8*50
$GLGSV,2,1,06,83,64,178,19,82,62,042,42,80,50,019,39,79,32,093,29,1*7D
$GLGSV,2,2,06,73,16,325,,81,15,028,17,1*78
$GAGSV,2,1,08,30,50,036,28,15,49,149,35,34,42,067,35,27,38,319,39,7*7B
$GAGSV,2,2,08,07,31,231,31,02,15,084,27,13,11,192,,08,10,182,14,7*7C
$GAGSV,2,1,05,30,50,036,33,15,49,149,38,34,42,067,40,27,38,319,38,1*74
$GAGSV,2,2,05,02,15,084,25,1*4D
$GBGSV,4,1,15,34,80,052,43,06,77,216,43,09,75,284,35,16,74,196,37,1*71
$GBGSV,4,2,15,11,72,200,37,39,63,182,28,40,63,322,36,07,61,301,37,1*78
$GBGSV,4,3,15,25,61,348,44,10,51,283,32,12,48,041,26,43,47,216,26,1*7C
$GBGSV,4,4,15,24,47,101,41,44,25,040,25,23,17,316,44,1*45
$GBGSV,2,1,07,34,80,052,44,39,63,182,24,40,63,322,39,25,61,348,42,4*7C
$GBGSV,2,2,07,24,47,101,42,44,25,040,30,23,17,316,41,4*41
$GNACCURACY,4.0*12
$PAIRSAT,1,35,2,0,201,3,0,200,4,0,221,5,0,200,6,0,200,7,0,201,8,0,221,9,0,221,10,0,200,11,0,200,12,0,200,13,0,200,14,0,200,15,0,200,16,0,201,17,0,200,18,0,200,19,0,200,20,0,200,21,0,201,22,0,200,23,0,200,24,0,200,25,0,200,26,0,220,27,0,221,28,0,200,29,0,200,30,0,221,31,0,201,32,0,200,194,0,621,195,0,621,196,0,620,199,0,621*5A
$PAIRSAT,2,24,65,0,200,66,0,200,67,0,200,68,0,200,69,0,200,70,0,200,71,0,200,72,0,200,73,0,201,74,0,200,75,0,200,76,0,200,77,0,200,78,0,200,79,0,201,80,0,201,81,0,201,82,0,201,83,0,201,84,0,200,85,0,200,86,0,200,87,0,200,88,0,200*7A
$PAIRSAT,3,23,2,0,1021,3,0,1200,4,0,1200,5,0,200,7,0,1221,8,0,1200,9,0,1200,10,0,1200,11,0,1200,12,0,1200,13,0,1200,15,0,1221,19,0,1200,21,0,1200,24,0,1200,25,0,1200,26,0,1200,27,0,1221,30,0,1221,31,0,1200,33,0,1200,34,0,1221,36,0,1200*68
$PAIRSAT,4,46,1,0,200,2,0,200,3,0,600,4,0,200,5,0,200,6,0,201,7,0,201,8,0,200,9,0,201,10,0,201,11,0,201,12,0,201,13,0,200,14,0,200,16,0,201,19,0,600,20,0,600,21,0,600,22,0,600,23,0,621,24,0,621,25,0,621,26,0,600,27,0,600,28,0,600,29,0,600,30,0,600,32,0,600,33,0,600,34,0,621,35,0,600,36,0,600,37,0,600,38,0,600,39,0,621,40,0,621,41,0,600,42,0,600,43,0,421,44,0,421,45,0,400,46,0,400,59,0,400,60,0,400,61,0,400,62,0,400*48
$PAIRDGP,6,2,4,7,9,16,21*4F
$GNGGA,041112.200,2500.8108200,N,12132.4783000,E,2,57,0.49,26.27,M,15.25,M,1,3335*71
$GNRMC,041112.200,A,2500.8108200,N,12132.4783000,E,0.01,144.58,030324,,,D,V*0E
$GPHDT,,T*1B
$GNACCURACY,4.0*12
$GNGGA,041112.300,2500.8108200,N,12132.4783000,E,2,58,0.49,26.27,M,15.25,M,1,3335*7F
$GNRMC,041112.300,A,2500.8108200,N,12132.4783000,E,0.01,144.58,030324,,,D,V*0F
$GPHDT,,T*1B
$GNACCURACY,4.0*12
$GNGGA,041112.400,2500.8108200,N,12132.4783000,E,2,57,0.49,26.29,M,15.25,M,1,3335*79
$GNRMC,041112.400,A,2500.8108200,N,12132.4783000,E,0.01,144.58,030324,,,D,V*08
$GPHDT,,T*1B
$GNACCURACY,4.0*12
$GNGGA,041112.500,2500.8108200,N,12132.4783100,E,2,57,0.49,26.30,M,15.25,M,0,3335*70
$GNRMC,041112.500,A,2500.8108200,N,12132.4783100,E,0.02,144.58,030324,,,D,V*0B
$GPHDT,,T*1B
$GNACCURACY,4.0*12
$GNGGA,041112.600,2500.8108200,N,12132.4783100,E,2,57,0.49,26.31,M,15.25,M,0,3335*72
$GNRMC,041112.600,A,2500.8108200,N,12132.4783100,E,0.02,144.58,030324,,,D,V*08
$GPHDT,,T*1B
$GNACCURACY,4.0*12
$GNGGA,041112.700,2500.8108200,N,12132.4783100,E,2,57,0.49,26.32,M,15.25,M,0,3335*70
$GNRMC,041112.700,A,2500.8108200,N,12132.4783100,E,0.02,144.58,030324,,,D,V*09
$GPHDT,,T*1B
$GNACCURACY,4.0*12
$GNGGA,041112.800,2500.8108200,N,12132.4783100,E,2,57,0.49,26.33,M,15.25,M,0,3335*7E
$GNRMC,041112.800,A,2500.8108200,N,12132.4783100,E,0.02,144.58,030324,,,D,V*06
$GPHDT,,T*1B
$GNACCURACY,4.0*12
$GNGGA,041112.900,2500.8108200,N,12132.4783100,E,2,57,0.49,26.34,M,15.25,M,0,3335*78
$GNRMC,041112.900,A,2500.8108200,N,12132.4783100,E,0.01,144.58,030324,,,D,V*04
$GPHDT,,T*1B
$GNACCURACY,4.0*12
$GNGGA,041113.000,2500.8108200,N,12132.4783100,E,2,58,0.48,26.34,M,15.25,M,1,3335*7F
$GNRMC,041113.000,A,2500.8108200,N,12132.4783100,E,0.02,144.58,030324,,,D,V*0F
$GPHDT,,T*1B
$GNACCURACY,4.0*12
$GNGGA,041113.100,2500.8108200,N,12132.4783100,E,2,58,0.48,26.36,M,15.25,M,1,3335*7C
$GNRMC,041113.100,A,2500.8108200,N,12132.4783100,E,0.02,144.58,030324,,,D,V*0E
$GPHDT,,T*1B
$GNGSA,A,3,08,194,195,199,21,27,02,07,16,09,196,26,0.75,0.48,0.58,1*0D
$GNGSA,A,3,83,82,80,79,73,81,,,,,,,0.75,0.48,0.58,2*0B
$GNGSA,A,3,30,15,34,27,07,02,,,,,,,0.75,0.48,0.58,3*00
$GNGSA,A,3,34,06,09,16,11,39,40,07,25,10,12,43,0.75,0.48,0.58,4*03
$GNGSA,A,3,24,44,23,,,,,,,,,,0.75,0.48,0.58,4*00
$GPGSV,4,1,15,08,69,332,42,194,63,049,42,195,61,120,41,199,60,167,32,1*5E
$GPGSV,4,2,15,21,49,164,36,27,42,031,22,02,37,179,33,07,32,320,43,1*66
$GPGSV,4,3,15,16,31,065,40,09,28,257,20,04,25,210,18,196,20,172,16,1*52
$GPGSV,4,4,15,26,13,091,19,31,08,141,16,30,03,320,30,1*5D
$GPGSV,3,1,09,08,69,332,46,194,63,049,42,195,61,120,36,199,60,167,42,8*5E
$GPGSV,3,2,09,27,42,031,27,09,28,257,25,196,20,172,30,26,13,091,28,8*5A
$GPGSV,3,3,09,30,03,320,24,8*53
$GLGSV,2,1,06,83,64,178,19,82,62,042,41,80,50,019,38,79,32,093,26,1*70
$GLGSV,2,2,06,73,16,325,22,81,15,028,21,1*7D
$GAGSV,2,1,08,30,50,036,33,15,49,149,35,34,42,067,36,27,38,319,38,7*73
$GAGSV,2,2,08,07,31,231,31,02,15,084,26,13,11,192,,08,10,182,14,7*7D
$GAGSV,2,1,05,30,50,036,32,15,49,149,38,34,42,067,40,27,38,319,38,1*75
$GAGSV,2,2,05,02,15,084,25,1*4D
$GBGSV,4,1,15,34,80,052,43,06,77,216,43,09,75,284,36,16,74,196,37,1*72
$GBGSV,4,2,15,11,72,200,38,39,63,182,26,40,63,322,36,07,61,301,38,1*76
$GBGSV,4,3,15,25,61,348,44,10,51,283,32,12,48,041,24,43,47,216,29,1*71
$GBGSV,4,4,15,24,47,101,41,44,25,040,28,23,17,316,42,1*4E
$GBGSV,2,1,07,34,80,052,44,39,63,182,23,40,63,322,38,25,61,348,41,4*79
$GBGSV,2,2,07,24,47,101,42,44,25,040,29,23,17,316,41,4*49
$GNACCURACY,4.0*12
$PAIRSAT,1,35,2,0,201,3,0,200,4,0,221,5,0,200,6,0,200,7,0,201,8,0,221,9,0,221,10,0,200,11,0,200,12,0,200,13,0,200,14,0,200,15,0,200,16,0,201,17,0,200,18,0,200,19,0,200,20,0,200,21,0,201,22,0,200,23,0,200,24,0,200,25,0,200,26,0,220,27,0,221,28,0,200,29,0,200,30,0,221,31,0,201,32,0,200,194,0,621,195,0,621,196,0,620,199,0,621*5A
$PAIRSAT,2,24,65,0,200,66,0,200,67,0,200,68,0,200,69,0,200,70,0,200,71,0,200,72,0,200,73,0,201,74,0,200,75,0,200,76,0,200,77,0,200,78,0,200,79,0,201,80,0,201,81,0,201,82,0,201,83,0,201,84,0,200,85,0,200,86,0,200,87,0,200,88,0,200*7A
$PAIRSAT,3,23,2,0,1021,3,0,1200,4,0,1200,5,0,200,7,0,1221,8,0,1200,9,0,1200,10,0,1200,11,0,1200,12,0,1200,13,0,1200,15,0,1221,19,0,1200,21,0,1200,24,0,1200,25,0,1200,26,0,1200,27,0,1221,30,0,1221,31,0,1200,33,0,1200,34,0,1221,36,0,1200*68
$PAIRSAT,4,46,1,0,200,2,0,200,3,0,600,4,0,200,5,0,200,6,0,201,7,0,201,8,0,200,9,0,201,10,0,201,11,0,201,12,0,201,13,0,200,14,0,200,16,0,201,19,0,600,20,0,600,21,0,600,22,0,600,23,0,621,24,0,621,25,0,621,26,0,600,27,0,600,28,0,600,29,0,600,30,0,600,32,0,600,33,0,600,34,0,621,35,0,600,36,0,600,37,0,600,38,0,600,39,0,621,40,0,621,41,0,600,42,0,600,43,0,421,44,0,421,45,0,400,46,0,400,59,0,400,60,0,400,61,0,400,62,0,400*48
$PAIRDGP,6,2,4,7,9,16,21*4F
$GNGGA,041113.200,2500.8108200,N,12132.4783100,E,2,58,0.48,26.36,M,15.25,M,1,3335*7F
$GNRMC,041113.200,A,2500.8108200,N,12132.4783100,E,0.01,144.58,030324,,,D,V*0E
$GPHDT,,T*1B
$GNACCURACY,4.0*12
$GNGGA,041113.300,2500.8108200,N,12132.4783100,E,2,59,0.48,26.38,M,15.25,M,1,3335*71
$GNRMC,041113.300,A,2500.8108200,N,12132.4783100,E,0.01,144.58,030324,,,D,V*0F
$GPHDT,,T*1B
$GNACCURACY,4.0*12
$GNGGA,041113.400,2500.8108200,N,12132.4783100,E,2,60,0.48,26.39,M,15.25,M,1,3335*7D
$GNRMC,041113.400,A,2500.8108200,N,12132.4783100,E,0.01,144.58,030324,,,D,V*08
$GPHDT,,T*1B
$GNACCURACY,4.0*12
$GNGGA,041113.500,2500.8108100,N,12132.4783100,E,2,60,0.48,26.39,M,15.25,M,1,3335*7F
$GNRMC,041113.500,A,2500.8108100,N,12132.4783100,E,0.01,144.58,030324,,,D,V*0A
$GPHDT,,T*1B
$GNACCURACY,4.0*12
$GNGGA,041113.600,2500.8108200,N,12132.4783100,E,2,60,0.48,26.40,M,15.25,M,1,3335*71
$GNRMC,041113.600,A,2500.8108200,N,12132.4783100,E,0.02,144.58,030324,,,D,V*09
$GPHDT,,T*1B
$GNACCURACY,4.0*12
$GNGGA,041113.700,2500.8108200,N,12132.4783100,E,2,60,0.48,26.41,M,15.25,M,0,3335*70
$GNRMC,041113.700,A,2500.8108200,N,12132.4783100,E,0.02,144.58,030324,,,D,V*08
$GPHDT,,T*1B
$GNACCURACY,4.0*12
$GNGGA,041113.800,2500.8108200,N,12132.4783100,E,2,60,0.48,26.43,M,15.25,M,0,3335*7D
$GNRMC,041113.800,A,2500.8108200,N,12132.4783100,E,0.04,144.58,030324,,,D,V*01
$GPHDT,,T*1B
$GNACCURACY,4.0*12
$GNGGA,041113.900,2500.8108300,N,12132.4783100,E,2,59,0.48,26.44,M,15.25,M,0,3335*70
$GNRMC,041113.900,A,2500.8108300,N,12132.4783100,E,0.03,144.58,030324,,,D,V*06
$GPHDT,,T*1B
$GNACCURACY,4.0*12
$GNGGA,041114.000,2500.8108400,N,12132.4783100,E,2,59,0.48,26.45,M,15.25,M,1,3335*79
$GNRMC,041114.000,A,2500.8108400,N,12132.4783100,E,0.03,144.58,030324,,,D,V*0F
$GPHDT,,T*1B
$GNACCURACY,4.0*12
$GNGGA,041114.100,2500.8108400,N,12132.4783100,E,2,58,0.48,26.46,M,15.25,M,1,3335*7A
$GNRMC,041114.100,A,2500.8108400,N,12132.4783100,E,0.04,144.58,030324,,,D,V*09
$GPHDT,,T*1B
$GNGSA,A,3,08,194,195,199,21,27,02,07,16,09,196,26,0.75,0.48,0.58,1*0D
$GNGSA,A,3,83,82,80,79,73,81,,,,,,,0.75,0.48,0.58,2*0B
$GNGSA,A,3,30,15,34,27,07,02,,,,,,,0.75,0.48,0.58,3*00
$GNGSA,A,3,34,06,09,16,11,39,40,07,25,10,12,43,0.75,0.48,0.58,4*03
$GNGSA,A,3,24,44,23,,,,,,,,,,0.75,0.48,0.58,4*00
$GPGSV,4,1,15,08,69,332,42,194,63,049,40,195,61,120,41,199,60,167,31,1*5F
$GPGSV,4,2,15,21,49,164,36,27,42,031,23,02,37,179,27,07,32,320,43,1*62
$GPGSV,4,3,15,16,31,065,40,09,28,257,21,04,25,210,18,196,20,172,16,1*53
$GPGSV,4,4,15,26,13,091,20,31,08,141,13,30,03,320,30,1*52
$GPGSV,3,1,09,08,69,332,46,194,63,049,40,195,61,120,37,199,60,167,43,8*5C
$GPGSV,3,2,09,27,42,031,26,09,28,257,24,196,20,172,32,26,13,091,28,8*58
$GPGSV,3,3,09,30,03,320,24,8*53
$GLGSV,2,1,06,83,64,178,19,82,62,042,40,80,50,019,38,79,32,093,25,1*72
$GLGSV,2,2,06,73,16,325,23,81,15,028,20,1*7D
$GAGSV,2,1,08,30,50,036,26,15,49,149,32,34,42,067,36,27,38,319,38,7*70
$GAGSV,2,2,08,07,31,231,31,02,15,084,26,13,11,192,,08,10,182,13,7*7A
$GAGSV,2,1,05,30,50,036,32,15,49,149,38,34,42,067,40,27,38,319,38,1*75
$GAGSV,2,2,05,02,15,084,26,1*4E
$GBGSV,4,1,15,34,80,052,44,06,77,216,43,09,75,284,35,16,74,196,38,1*79
$GBGSV,4,2,15,11,72,200,38,39,63,182,27,40,63,322,35,07,61,301,38,1*74
$GBGSV,4,3,15,25,61,348,44,10,51,283,33,12,48,041,26,43,47,216,24,1*7F
$GBGSV,4,4,15,24,47,101,40,44,25,040,26,23,17,316,42,1*41
$GBGSV,2,1,07,34,80,052,44,39,63,182,20,40,63,322,38,25,61,348,41,4*7A
$GBGSV,2,2,07,24,47,101,42,44,25,040,29,23,17,316,41,4*49
$GNACCURACY,4.0*12
$PAIRSAT,1,35,2,0,201,3,0,200,4,0,221,5,0,200,6,0,200,7,0,201,8,0,221,9,0,221,10,0,200,11,0,200,12,0,200,13,0,200,14,0,200,15,0,200,16,0,201,17,0,200,18,0,200,19,0,200,20,0,200,21,0,201,22,0,200,23,0,200,24,0,200,25,0,200,26,0,220,27,0,221,28,0,200,29,0,200,30,0,221,31,0,201,32,0,200,194,0,621,195,0,621,196,0,620,199,0,621*5A
$PAIRSAT,2,24,65,0,200,66,0,200,67,0,200,68,0,200,69,0,200,70,0,200,71,0,200,72,0,200,73,0,201,74,0,200,75,0,200,76,0,200,77,0,200,78,0,200,79,0,201,80,0,201,81,0,201,82,0,201,83,0,201,84,0,200,85,0,200,86,0,200,87,0,200,88,0,200*7A
$PAIRSAT,3,23,2,0,1021,3,0,1200,4,0,1200,5,0,200,7,0,1221,8,0,1200,9,0,1200,10,0,1200,11,0,1200,12,0,1200,13,0,1200,15,0,1221,19,0,1200,21,0,1200,24,0,1200,25,0,1200,26,0,1200,27,0,1221,30,0,1221,31,0,1200,33,0,1200,34,0,1221,36,0,1200*68
$PAIRSAT,4,46,1,0,200,2,0,200,3,0,600,4,0,200,5,0,200,6,0,201,7,0,201,8,0,200,9,0,201,10,0,201,11,0,201,12,0,201,13,0,200,14,0,200,16,0,201,19,0,600,20,0,600,21,0,600,22,0,600,23,0,621,24,0,621,25,0,621,26,0,600,27,0,600,28,0,600,29,0,600,30,0,600,32,0,600,33,0,600,34,0,621,35,0,600,36,0,600,37,0,600,38,0,600,39,0,621,40,0,621,41,0,600,42,0,600,43,0,421,44,0,421,45,0,400,46,0,400,59,0,400,60,0,400,61,0,400,62,0,400*48
$PAIRDGP,6,2,4,7,9,16,21*4F
$GNGGA,041114.200,2500.8108500,N,12132.4783100,E,2,58,0.48,26.48,M,15.25,M,1,3335*76
$GNRMC,041114.200,A,2500.8108500,N,12132.4783100,E,0.04,144.58,030324,,,D,V*0B
$GPHDT,,T*1B
$GNACCURACY,4.0*12
$GNGGA,041114.300,2500.8108500,N,12132.4783100,E,2,58,0.48,26.49,M,15.25,M,1,3335*76
$GNRMC,041114.300,A,2500.8108500,N,12132.4783100,E,0.03,144.58,030324,,,D,V*0D
$GPHDT,,T*1B
$GNACCURACY,4.0*12
$GNGGA,041114.400,2500.8108500,N,12132.4783200,E,2,59,0.48,26.50,M,15.25,M,1,3335*7B
$GNRMC,041114.400,A,2500.8108500,N,12132.4783200,E,0.02,144.58,030324,,,D,V*08
$GPHDT,,T*1B
$GNACCURACY,4.0*12
$GNGGA,041114.500,2500.8108600,N,12132.4783200,E,2,59,0.48,26.52,M,15.25,M,1,3335*7B
$GNRMC,041114.500,A,2500.8108600,N,12132.4783200,E,0.02,144.58,030324,,,D,V*0A
$GPHDT,,T*1B
$GNACCURACY,4.0*12
$GNGGA,041114.600,2500.8108600,N,12132.4783200,E,2,59,0.48,26.53,M,15.25,M,0,3335*78
$GNRMC,041114.600,A,2500.8108600,N,12132.4783200,E,0.02,144.58,030324,,,D,V*09
$GPHDT,,T*1B
$GNACCURACY,4.0*12
$GNGGA,041114.700,2500.8108700,N,12132.4783200,E,2,59,0.48,26.54,M,15.25,M,0,3335*7F
$GNRMC,041114.700,A,2500.8108700,N,12132.4783200,E,0.02,144.58,030324,,,D,V*09
$GPHDT,,T*1B
$GNACCURACY,4.0*12
$GNGGA,041114.800,2500.8108800,N,12132.4783300,E,2,59,0.48,26.55,M,15.25,M,0,3335*7F
$GNRMC,041114.800,A,2500.8108800,N,12132.4783300,E,0.02,144.58,030324,,,D,V*08
$GPHDT,,T*1B
$GNACCURACY,4.0*12
$GNGGA,041114.900,2500.8108800,N,12132.4783300,E,2,59,0.48,26.56,M,15.25,M,0,3335*7D
$GNRMC,041114.900,A,2500.8108800,N,12132.4783300,E,0.02,144.58,030324,,,D,V*09
$GPHDT,,T*1B
$GNACCURACY,4.0*12
$GNGGA,041115.000,2500.8108900,N,12132.4783400,E,2,59,0.48,26.58,M,15.25,M,1,3335*7C
$GNRMC,041115.000,A,2500.8108900,N,12132.4783400,E,0.02,144.58,030324,,,D,V*07
$GPHDT,,T*1B
$GNACCURACY,4.0*12
$GNGGA,041115.100,2500.8108900,N,12132.4783400,E,2,59,0.48,26.59,M,15.25,M,1,3335*7C
$GNRMC,041115.100,A,2500.8108900,N,12132.4783400,E,0.02,144.58,030324,,,D,V*06
$GPHDT,,T*1B
$GNGSA,A,3,08,194,195,199,21,27,02,07,16,09,196,26,0.75,0.48,0.58,1*0D
$GNGSA,A,3,83,82,80,79,73,81,,,,,,,0.75,0.48,0.58,2*0B
$GNGSA,A,3,30,15,34,27,07,02,,,,,,,0.75,0.48,0.58,3*00
$GNGSA,A,3,34,06,09,16,11,39,40,07,25,10,12,43,0.75,0.48,0.58,4*03
$GNGSA,A,3,24,44,23,,,,,,,,,,0.75,0.48,0.58,4*00
$GPGSV,4,1,15,08,69,332,42,194,63,049,40,195,61,120,40,199,60,167,31,1*5E
$GPGSV,4,2,15,21,49,164,35,27,42,031,21,02,37,179,28,07,32,320,43,1*6C
$GPGSV,4,3,15,16,31,065,39,09,28,257,21,04,25,210,16,196,20,172,18,1*5D
$GPGSV,4,4,15,26,13,091,22,31,08,141,14,30,03,320,30,1*57
$GPGSV,3,1,09,08,69,332,46,194,63,049,40,195,61,120,37,199,60,167,43,8*5C
$GPGSV,3,2,09,27,42,031,28,09,28,257,24,196,20,172,32,26,13,091,28,8*56
$GPGSV,3,3,09,30,03,320,25,8*52
$GLGSV,2,1,06,83,64,178,20,82,62,042,40,80,50,019,38,79,32,093,27,1*7A
$GLGSV,2,2,06,73,16,325,19,81,15,028,19,1*7E
$GAGSV,2,1,08,30,50,036,28,15,49,149,31,34,42,067,36,27,38,319,39,7*7C
$GAGSV,2,2,08,07,31,231,32,02,15,084,25,13,11,192,,08,10,182,13,7*7A
$GAGSV,2,1,05,30,50,036,32,15,49,149,38,34,42,067,40,27,38,319,38,1*75
$GAGSV,2,2,05,02,15,084,26,1*4E
$GBGSV,4,1,15,34,80,052,44,06,77,216,43,09,75,284,36,16,74,196,39,1*7B
$GBGSV,4,2,15,11,72,200,39,39,63,182,28,40,63,322,35,07,61,301,38,1*7A
$GBGSV,4,3,15,25,61,348,44,10,51,283,32,12,48,041,29,43,47,216,22,1*77
$GBGSV,4,4,15,24,47,101,40,44,25,040,29,23,17,316,41,1*4D
$GBGSV,2,1,07,34,80,052,44,39,63,182,20,40,63,322,38,25,61,348,41,4*7A
$GBGSV,2,2,07,24,47,101,42,44,25,040,30,23,17,316,41,4*41
$GNACCURACY,4.0*12
$PAIRSAT,1,35,2,0,201,3,0,200,4,0,221,5,0,200,6,0,200,7,0,201,8,0,221,9,0,221,10,0,200,11,0,200,12,0,200,13,0,200,14,0,200,15,0,200,16,0,201,17,0,200,18,0,200,19,0,200,20,0,200,21,0,201,22,0,200,23,0,200,24,0,200,25,0,200,26,0,220,27,0,221,28,0,200,29,0,200,30,0,221,31,0,201,32,0,200,194,0,621,195,0,621,196,0,620,199,0,621*5A
$PAIRSAT,2,24,65,0,200,66,0,200,67,0,200,68,0,200,69,0,200,70,0,200,71,0,200,72,0,200,73,0,201,74,0,200,75,0,200,76,0,200,77,0,200,78,0,200,79,0,201,80,0,201,81,0,201,82,0,201,83,0,201,84,0,200,85,0,200,86,0,200,87,0,200,88,0,200*7A
$PAIRSAT,3,23,2,0,1021,3,0,1200,4,0,1200,5,0,200,7,0,1221,8,0,1200,9,0,1200,10,0,1200,11,0,1200,12,0,1200,13,0,1200,15,0,1221,19,0,1200,21,0,1200,24,0,1200,25,0,1200,26,0,1200,27,0,1221,30,0,1221,31,0,1200,33,0,1200,34,0,1221,36,0,1200*68
$PAIRSAT,4,46,1,0,200,2,0,200,3,0,600,4,0,200,5,0,200,6,0,201,7,0,201,8,0,200,9,0,201,10,0,201,11,0,201,12,0,201,13,0,200,14,0,200,16,0,201,19,0,600,20,0,600,21,0,600,22,0,600,23,0,621,24,0,621,25,0,621,26,0,600,27,0,600,28,0,600,29,0,600,30,0,600,32,0,600,33,0,600,34,0,621,35,0,600,36,0,600,37,0,600,38,0,600,39,0,621,40,0,621,41,0,600,42,0,600,43,0,421,44,0,421,45,0,400,46,0,400,59,0,400,60,0,400,61,0,400,62,0,400*48
$PAIRDGP,6,2,4,7,9,16,21*4F
$GNGGA,041115.200,2500.8109000,N,12132.4783500,E,2,59,0.48,26.60,M,15.25,M,1,3335*7C
$GNRMC,041115.200,A,2500.8109000,N,12132.4783500,E,0.02,144.58,030324,,,D,V*0C
$GPHDT,,T*1B
$GNACCURACY,4.0*12
$GNGGA,041115.300,2500.8109100,N,12132.4783500,E,2,59,0.48,26.62,M,15.25,M,1,3335*7E
$GNRMC,041115.300,A,2500.8109100,N,12132.4783500,E,0.02,144.58,030324,,,D,V*0C
$GPHDT,,T*1B
$GNACCURACY,4.0*12
$GNGGA,041115.400,2500.8109100,N,12132.4783600,E,2,59,0.48,26.63,M,15.25,M,1,3335*7B
$GNRMC,041115.400,A,2500.8109100,N,12132.4783600,E,0.02,144.58,030324,,,D,V*08
$GPHDT,,T*1B
$GNACCURACY,4.0*12
$GNGGA,041115.500,2500.8109200,N,12132.4783700,E,2,59,0.48,26.64,M,15.25,M,0,3335*7E
$GNRMC,041115.500,A,2500.8109200,N,12132.4783700,E,0.02,144.58,030324,,,D,V*0B
$GPHDT,,T*1B
$GNACCURACY,4.1*13
$GNGGA,041115.600,2500.8109200,N,12132.4783700,E,2,59,0.48,26.66,M,15.25,M,0,3335*7F
$GNRMC,041115.600,A,2500.8109200,N,12132.4783700,E,0.02,144.58,030324,,,D,V*08
$GPHDT,,T*1B
$GNACCURACY,4.1*13
$GNGGA,041115.700,2500.8109300,N,12132.4783800,E,2,59,0.48,26.67,M,15.25,M,0,3335*71
$GNRMC,041115.700,A,2500.8109300,N,12132.4783800,E,0.02,144.58,030324,,,D,V*07
$GPHDT,,T*1B
$GNAC