$FW : RTK35X,V1.1X0314AS,Lib20210517,1*54
$Tool : LOCOSYS , GNSS Firebird , v1.0.0.19*39
$---------------------------------------------------*2D
9,38,195,61,119,37,199,60,167,33,1*5B
$GPGSV,4,2,15,21,49,164,36,27,41,031,31,02,37,179,35,07,33,320,39,1*6D
$GPGSV,4,3,15,16,31,065,37,09,28,257,25,04,25,210,26,196,20,172,34,1*5A
$GPGSV,4,4,15,26,13,091,18,31,08,141,23,30,03,320,15,1*5D
$GPGSV,3,1,10,08,69,333,46,194,63,049,43,195,61,119,41,199,60,167,45,8*5B
$GPGSV,3,2,10,27,41,031,31,09,28,257,21,04,25,210,21,196,20,172,38,8*5D
$GPGSV,3,3,10,26,13,091,26,30,03,320,32,8*66
$GLGSV,2,1,06,83,65,178,20,82,62,042,42,80,51,020,37,79,32,094,29,1*74
$GLGSV,2,2,06,73,16,325,29,81,14,028,27,1*71
$GAGSV,2,1,07,15,50,148,40,30,50,037,36,34,42,067,36,27,38,319,37,7*7C
$GAGSV,2,2,07,07,31,231,18,02,14,084,20,08,10,181,,7*40
$GAGSV,2,1,05,30,50,037,38,15,50,148,43,34,42,067,41,27,38,319,38,1*7A
$GAGSV,2,2,05,07,31,231,27,1*40
$GBGSV,4,1,15,34,80,051,39,06,76,216,41,09,75,283,37,16,74,196,37,1*79
$GBGSV,4,2,15,11,73,200,39,39,63,182,27,40,63,322,34,25,62,349,44,1*71
$GBGSV,4,3,15,07,61,301,37,10,51,283,29,12,48,041,34,24,47,102,44,1*7F
$GBGSV,4,4,15,43,47,216,31,44,24,040,29,23,17,316,44,1*4B
$GBGSV,2,1,07,34,80,051,44,39,63,182,27,40,63,322,38,25,62,349,43,4*7E
$GBGSV,2,2,07,24,47,102,34,44,24,040,24,23,17,316,44,4*42
$GNACCURACY,3.9*1C
$PAIRSAT,1,35,2,0,201,3,0,200,4,0,221,5,0,200,6,0,200,7,0,201,8,0,221,9,0,221,10,0,200,11,0,200,12,0,200,13,0,200,14,0,200,15,0,200,16,0,201,17,0,200,18,0,200,19,0,200,20,0,200,21,0,201,22,0,200,23,0,200,24,0,200,25,0,200,26,0,220,27,0,221,28,0,200,29,0,200,30,0,221,31,0,201,32,0,200,194,0,621,195,0,621,196,0,620,199,0,621*5A
$PAIRSAT,2,24,65,0,200,66,0,200,67,0,200,68,0,200,69,0,200,70,0,200,71,0,200,72,0,200,73,0,201,74,0,200,75,0,200,76,0,200,77,0,200,78,0,200,79,0,201,80,0,201,81,0,201,82,0,201,83,0,201,84,0,200,85,0,200,86,0,200,87,0,200,88,0,200*7A
$PAIRSAT,3,23,2,0,1021,3,0,1200,4,0,1200,5,0,200,7,0,1221,8,0,1200,9,0,1200,10,0,1200,11,0,1200,12,0,1200,13,0,1200,15,0,1221,19,0,1200,21,0,1200,24,0,1200,25,0,1200,26,0,1200,27,0,1221,30,0,1221,31,0,1200,33,0,1200,34,0,1221,36,0,1200*68
$PAIRSAT,4,46,1,0,200,2,0,200,3,0,600,4,0,200,5,0,200,6,0,201,7,0,201,8,0,200,9,0,201,10,0,201,11,0,201,12,0,201,13,0,200,14,0,200,16,0,201,19,0,600,20,0,600,21,0,600,22,0,600,23,0,621,24,0,621,25,0,621,26,0,600,27,0,600,28,0,600,29,0,600,30,0,600,32,0,600,33,0,600,34,0,621,35,0,600,36,0,600,37,0,600,38,0,600,39,0,621,40,0,621,41,0,600,42,0,600,43,0,621,44,0,421,45,0,400,46,0,400,59,0,400,60,0,400,61,0,400,62,0,400*4A
$PAIRDGP,6,2,4,7,9,16,21*4F
$GNGGA,041158.200,2500.8108000,N,12132.4776800,E,2,60,0.47,28.05,M,15.25,M,1,3335*7B
$GNRMC,041158.200,A,2500.8108000,N,12132.4776800,E,0.01,144.58,030324,,,D,V*00
$GPHDT,,T*1B
$GNACCURACY,3.9*1C
$GNGGA,041158.300,2500.8107900,N,12132.4776800,E,2,60,0.47,28.06,M,15.25,M,1,3335*7F
$GNRMC,041158.300,A,2500.8107900,N,12132.4776800,E,0.01,144.58,030324,,,D,V*07
$GPHDT,,T*1B
$GNACCURACY,3.9*1C
$GNGGA,041158.400,2500.8107800,N,12132.4776800,E,2,60,0.47,28.06,M,15.25,M,1,3335*79
$GNRMC,041158.400,A,2500.8107800,N,12132.4776800,E,0.01,144.58,030324,,,D,V*01
$GPHDT,,T*1B
$GNACCURACY,3.9*1C
$GNGGA,041158.500,2500.8107700,N,12132.4776800,E,2,60,0.47,28.07,M,15.25,M,0,3335*77
$GNRMC,041158.500,A,2500.8107700,N,12132.4776800,E,0.01,144.58,030324,,,D,V*0F
$GPHDT,,T*1B
$GNACCURACY,3.9*1C
$GNGGA,041158.600,2500.8107600,N,12132.4776800,E,2,60,0.47,28.07,M,15.25,M,0,3335*75
$GNRMC,041158.600,A,2500.8107600,N,12132.4776800,E,0.01,144.58,030324,,,D,V*0D
$GPHDT,,T*1B
$GNACCURACY,3.9*1C
$GNGGA,041158.700,2500.8107600,N,12132.4776900,E,2,60,0.47,28.08,M,15.25,M,0,3335*7A
$GNRMC,041158.700,A,2500.8107600,N,12132.4776900,E,0.01,144.58,030324,,,D,V*0D
$GPHDT,,T*1B
$GNACCURACY,3.9*1C
$GNGGA,041158.800,2500.8107500,N,12132.4776900,E,2,59,0.47,28.08,M,15.25,M,0,3335*7C
$GNRMC,041158.800,A,2500.8107500,N,12132.4776900,E,0.01,144.58,030324,,,D,V*01
$GPHDT,,T*1B
$GNACCURACY,3.9*1C
$GNGGA,041158.900,2500.8107400,N,12132.4776900,E,2,59,0.47,28.09,M,15.25,M,0,3335*7D
$GNRMC,041158.900,A,2500.8107400,N,12132.4776900,E,0.01,144.58,030324,,,D,V*01
$GPHDT,,T*1B
$GNACCURACY,3.9*1C
$GNGGA,041159.000,2500.8107300,N,12132.4777000,E,2,59,0.47,28.10,M,15.25,M,1,3335*73
$GNRMC,041159.000,A,2500.8107300,N,12132.4777000,E,0.01,144.58,030324,,,D,V*06
$GPHDT,,T*1B
$GNACCURACY,3.9*1C
$GNGGA,041159.100,2500.8107100,N,12132.4777000,E,2,59,0.47,28.10,M,15.25,M,1,3335*70
$GNRMC,041159.100,A,2500.8107100,N,12132.4777000,E,0.01,144.58,030324,,,D,V*05
$GPHDT,,T*1B
$GNGSA,A,3,08,194,195,199,21,27,02,07,16,09,04,196,0.83,0.47,0.69,1*09
$GNGSA,A,3,26,,,,,,,,,,,,0.83,0.47,0.69,1*02
$GNGSA,A,3,83,82,80,79,73,81,,,,,,,0.83,0.47,0.69,2*0F
$GNGSA,A,3,15,30,34,27,07,02,,,,,,,0.83,0.47,0.69,3*04
$GNGSA,A,3,34,06,09,16,11,40,39,25,07,10,12,43,0.83,0.47,0.69,4*07
$GNGSA,A,3,24,44,23,,,,,,,,,,0.83,0.47,0.69,4*04
$GPGSV,4,1,15,08,69,333,40,194,63,049,38,195,61,119,37,199,60,167,32,1*5B
$GPGSV,4,2,15,21,49,164,37,27,41,031,30,02,37,179,37,07,33,320,39,1*6F
$GPGSV,4,3,15,16,31,065,37,09,28,257,26,04,25,210,27,196,20,172,35,1*59
$GPGSV,4,4,15,26,13,091,18,31,08,141,23,30,03,320,14,1*5C
$GPGSV,3,1,10,08,69,333,46,194,63,049,43,195,61,119,41,199,60,167,46,8*58
$GPGSV,3,2,10,27,41,031,35,09,28,257,23,04,25,210,24,196,20,172,38,8*5E
$GPGSV,3,3,10,26,13,091,26,30,03,320,32,8*66
$GLGSV,2,1,06,83,65,178,18,82,62,042,42,80,51,020,37,79,32,094,26,1*70
$GLGSV,2,2,06,73,16,325,30,81,14,028,29,1*77
$GAGSV,2,1,06,15,50,148,39,30,50,037,36,34,42,067,38,27,38,319,37,7*7D
$GAGSV,2,2,06,07,31,231,19,02,14,084,19,7*7B
$GAGSV,1,1,04,30,50,037,38,15,50,148,44,34,42,067,41,27,38,319,38,1*7F
$GBGSV,4,1,15,34,80,051,39,06,76,216,41,09,75,283,38,16,74,196,36,1*77
$GBGSV,4,2,15,11,73,200,39,40,63,322,34,39,63,182,27,25,62,349,42,1*77
$GBGSV,4,3,15,07,61,301,37,10,51,283,28,12,48,041,29,43,47,216,30,1*76
$GBGSV,4,4,15,24,47,102,44,44,24,040,31,23,17,316,44,1*47
$GBGSV,2,1,07,34,80,051,44,39,63,182,30,40,63,322,38,25,62,349,43,4*78
$GBGSV,2,2,07,24,47,102,33,44,24,040,24,23,17,316,44,4*45
$GNACCURACY,3.9*1C
$PAIRSAT,1,35,2,0,201,3,0,200,4,0,221,5,0,200,6,0,200,7,0,201,8,0,221,9,0,221,10,0,200,11,0,200,12,0,200,13,0,200,14,0,200,15,0,200,16,0,201,17,0,200,18,0,200,19,0,200,20,0,200,21,0,201,22,0,200,23,0,200,24,0,200,25,0,200,26,0,220,27,0,221,28,0,200,29,0,200,30,0,221,31,0,201,32,0,200,194,0,621,195,0,621,196,0,620,199,0,621*5A
$PAIRSAT,2,24,65,0,200,66,0,200,67,0,200,68,0,200,69,0,200,70,0,200,71,0,200,72,0,200,73,0,201,74,0,200,75,0,200,76,0,200,77,0,200,78,0,200,79,0,201,80,0,201,81,0,201,82,0,201,83,0,201,84,0,200,85,0,200,86,0,200,87,0,200,88,0,200*7A
$PAIRSAT,3,23,2,0,1021,3,0,1200,4,0,1200,5,0,200,7,0,1221,8,0,1200,9,0,1200,10,0,1200,11,0,1200,12,0,1200,13,0,1200,15,0,1221,19,0,1200,21,0,1200,24,0,1200,25,0,1200,26,0,1200,27,0,1221,30,0,1221,31,0,1200,33,0,1200,34,0,1221,36,0,1200*68
$PAIRSAT,4,46,1,0,200,2,0,200,3,0,600,4,0,200,5,0,200,6,0,201,7,0,201,8,0,200,9,0,201,10,0,201,11,0,201,12,0,201,13,0,200,14,0,200,16,0,201,19,0,600,20,0,600,21,0,600,22,0,600,23,0,621,24,0,621,25,0,621,26,0,600,27,0,600,28,0,600,29,0,600,30,0,600,32,0,600,33,0,600,34,0,621,35,0,600,36,0,600,37,0,600,38,0,600,39,0,621,40,0,621,41,0,600,42,0,600,43,0,621,44,0,421,45,0,400,46,0,400,59,0,400,60,0,400,61,0,400,62,0,400*4A
$PAIRDGP,6,2,4,7,9,16,21*4F
$GNGGA,041159.200,2500.8107100,N,12132.4777100,E,2,59,0.47,28.11,M,15.25,M,1,3335*73
$GNRMC,041159.200,A,2500.8107100,N,12132.4777100,E,0.00,144.58,030324,,,D,V*06
$GPHDT,,T*1B
$GNACCURACY,3.9*1C
$GNGGA,041159.300,2500.8107000,N,12132.4777100,E,2,59,0.47,28.11,M,15.25,M,1,3335*73
$GNRMC,041159.300,A,2500.8107000,N,12132.4777100,E,0.00,144.58,030324,,,D,V*06
$GPHDT,,T*1B
$GNACCURACY,3.9*1C
$GNGGA,041159.400,2500.8106900,N,12132.4777100,E,2,59,0.47,28.11,M,15.25,M,1,3335*7C
$GNRMC,041159.400,A,2500.8106900,N,12132.4777100,E,0.00,144.58,030324,,,D,V*09
$GPHDT,,T*1B
$GNACCURACY,3.9*1C
$GNGGA,041159.500,2500.8106800,N,12132.4777100,E,2,59,0.47,28.12,M,15.25,M,0,3335*7E
$GNRMC,041159.500,A,2500.8106800,N,12132.4777100,E,0.00,144.58,030324,,,D,V*09
$GPHDT,,T*1B
$GNACCURACY,3.9*1C
$GNGGA,041159.600,2500.8106700,N,12132.4777100,E,2,59,0.47,28.13,M,15.25,M,0,3335*73
$GNRMC,041159.600,A,2500.8106700,N,12132.4777100,E,0.00,144.58,030324,,,D,V*05
$GPHDT,,T*1B
$GNACCURACY,3.9*1C
$GNGGA,041159.700,2500.8106600,N,12132.4777200,E,2,60,0.47,28.14,M,15.25,M,0,3335*7D
$GNRMC,041159.700,A,2500.8106600,N,12132.4777200,E,0.00,144.58,030324,,,D,V*06
$GPHDT,,T*1B
$GNACCURACY,3.9*1C
$GNGGA,041159.800,2500.8106500,N,12132.4777200,E,2,60,0.47,28.14,M,15.25,M,0,3335*71
$GNRMC,041159.800,A,2500.8106500,N,12132.4777200,E,0.00,144.58,030324,,,D,V*0A
$GPHDT,,T*1B
$GNACCURACY,3.9*1C
$GNGGA,041159.900,2500.8106400,N,12132.4777200,E,2,60,0.47,28.14,M,15.25,M,0,3335*71
$GNRMC,041159.900,A,2500.8106400,N,12132.4777200,E,0.00,144.58,030324,,,D,V*0A
$GPHDT,,T*1B
$GNACCURACY,3.9*1C
$GNGGA,041200.000,2500.8106300,N,12132.4777200,E,2,60,0.47,28.15,M,15.25,M,1,3335*70
$GNRMC,041200.000,A,2500.8106300,N,12132.4777200,E,0.00,144.58,030324,,,D,V*0B
$GPHDT,,T*1B
$GNACCURACY,3.9*1C
$GNGGA,041200.100,2500.8106200,N,12132.4777300,E,2,60,0.47,28.15,M,15.25,M,1,3335*71
$GNRMC,041200.100,A,2500.8106200,N,12132.4777300,E,0.00,144.58,030324,,,D,V*0A
$GPHDT,,T*1B
$GNGSA,A,3,08,194,195,199,21,27,02,07,16,09,04,196,0.83,0.47,0.69,1*09
$GNGSA,A,3,26,,,,,,,,,,,,0.83,0.47,0.69,1*02
$GNGSA,A,3,83,82,80,79,73,81,,,,,,,0.83,0.47,0.69,2*0F
$GNGSA,A,3,15,30,34,27,07,02,,,,,,,0.83,0.47,0.69,3*04
$GNGSA,A,3,34,06,09,16,11,40,39,25,07,10,12,43,0.83,0.47,0.69,4*07
$GNGSA,A,3,24,44,23,,,,,,,,,,0.83,0.47,0.69,4*04
$GPGSV,4,1,15,08,69,333,41,194,63,049,40,195,61,119,39,199,60,167,31,1*58
$GPGSV,4,2,15,21,49,164,37,27,41,031,30,02,37,179,37,07,33,320,39,1*6F
$GPGSV,4,3,15,16,31,065,34,09,28,257,26,04,25,210,26,196,20,172,35,1*5B
$GPGSV,4,4,15,26,13,091,18,31,08,141,21,30,03,320,15,1*5F
$GPGSV,3,1,10,08,69,333,46,194,63,049,43,195,61,119,42,199,60,167,46,8*5B
$GPGSV,3,2,10,27,41,031,36,09,28,257,25,04,25,210,24,196,20,172,38,8*5B
$GPGSV,3,3,10,26,13,091,26,30,03,320,32,8*66
$GLGSV,2,1,06,83,65,178,17,82,62,042,44,80,51,020,38,79,32,094,25,1*75
$GLGSV,2,2,06,73,16,325,27,81,14,028,28,1*70
$GAGSV,2,1,06,15,50,148,39,30,50,037,34,34,42,067,38,27,38,319,38,7*70
$GAGSV,2,2,06,07,31,231,19,02,14,084,16,7*74
$GAGSV,1,1,04,30,50,037,37,15,50,148,43,34,42,067,40,27,38,319,38,1*76
$GBGSV,4,1,15,34,80,051,40,06,76,216,41,09,75,283,37,16,74,196,36,1*76
$GBGSV,4,2,15,11,73,200,38,40,63,322,33,39,63,182,24,25,62,349,43,1*73
$GBGSV,4,3,15,07,61,301,38,10,51,283,27,12,48,041,32,43,47,216,33,1*7F
$GBGSV,4,4,15,24,47,102,44,44,24,040,31,23,17,316,43,1*40
$GBGSV,2,1,07,34,80,051,44,39,63,182,28,40,63,322,39,25,62,349,43,4*70
$GBGSV,2,2,07,24,47,102,36,44,24,040,25,23,17,316,44,4*41
$GNACCURACY,3.9*1C
$PAIRSAT,1,35,2,0,201,3,0,200,4,0,221,5,0,200,6,0,200,7,0,201,8,0,221,9,0,221,10,0,200,11,0,200,12,0,200,13,0,200,14,0,200,15,0,200,16,0,201,17,0,200,18,0,200,19,0,200,20,0,200,21,0,201,22,0,200,23,0,200,24,0,200,25,0,200,26,0,220,27,0,221,28,0,200,29,0,200,30,0,221,31,0,201,32,0,200,194,0,621,195,0,621,196,0,620,199,0,621*5A
$PAIRSAT,2,24,65,0,200,66,0,200,67,0,200,68,0,200,69,0,200,70,0,200,71,0,200,72,0,200,73,0,201,74,0,200,75,0,200,76,0,200,77,0,200,78,0,200,79,0,201,80,0,201,81,0,201,82,0,201,83,0,201,84,0,200,85,0,200,86,0,200,87,0,200,88,0,200*7A
$PAIRSAT,3,23,2,0,1021,3,0,1200,4,0,1200,5,0,200,7,0,1221,8,0,1200,9,0,1200,10,0,1200,11,0,1200,12,0,1200,13,0,1200,15,0,1221,19,0,1200,21,0,1200,24,0,1200,25,0,1200,26,0,1200,27,0,1221,30,0,1221,31,0,1200,33,0,1200,34,0,1221,36,0,1200*68
$PAIRSAT,4,46,1,0,200,2,0,200,3,0,600,4,0,200,5,0,200,6,0,201,7,0,201,8,0,200,9,0,201,10,0,201,11,0,201,12,0,201,13,0,200,14,0,200,16,0,201,19,0,600,20,0,600,21,0,600,22,0,600,23,0,621,24,0,621,25,0,621,26,0,600,27,0,600,28,0,600,29,0,600,30,0,600,32,0,600,33,0,600,34,0,621,35,0,600,36,0,600,37,0,600,38,0,600,39,0,621,40,0,621,41,0,600,42,0,600,43,0,621,44,0,421,45,0,400,46,0,400,59,0,400,60,0,400,61,0,400,62,0,400*4A
$PAIRDGP,6,2,4,7,9,16,21*4F
$GNGGA,041200.200,2500.8106100,N,12132.4777300,E,2,59,0.47,28.16,M,15.25,M,1,3335*78
$GNRMC,041200.200,A,2500.8106100,N,12132.4777300,E,0.00,144.58,030324,,,D,V*0A
$GPHDT,,T*1B
$GNACCURACY,3.9*1C
$GNGGA,041200.300,2500.8106100,N,12132.4777400,E,2,59,0.47,28.16,M,15.25,M,1,3335*7E
$GNRMC,041200.300,A,2500.8106100,N,12132.4777400,E,0.00,144.58,030324,,,D,V*0C
$GPHDT,,T*1B
$GNACCURACY,3.9*1C
$GNGGA,041200.400,2500.8106000,N,12132.4777400,E,2,59,0.47,28.16,M,15.25,M,1,3335*78
$GNRMC,041200.400,A,2500.8106000,N,12132.4777400,E,0.00,144.58,030324,,,D,V*0A
$GPHDT,,T*1B
$GNACCURACY,3.9*1C
$GNGGA,041200.500,2500.8105900,N,12132.4777500,E,2,59,0.47,28.17,M,15.25,M,1,3335*73
$GNRMC,041200.500,A,2500.8105900,N,12132.4777500,E,0.00,144.58,030324,,,D,V*00
$GPHDT,,T*1B
$GNACCURACY,3.9*1C
$GNGGA,041200.600,2500.8105900,N,12132.4777600,E,2,59,0.47,28.17,M,15.25,M,1,3335*73
$GNRMC,041200.600,A,2500.8105900,N,12132.4777600,E,0.00,144.58,030324,,,D,V*00
$GPHDT,,T*1B
$GNACCURACY,3.9*1C
$GNGGA,041200.700,2500.8105800,N,12132.4777700,E,2,59,0.47,28.18,M,15.25,M,0,3335*7C
$GNRMC,041200.700,A,2500.8105800,N,12132.4777700,E,0.00,144.58,030324,,,D,V*01
$GPHDT,,T*1B
$GNACCURACY,3.9*1C
$GNGGA,041200.800,2500.8105800,N,12132.4777700,E,2,59,0.47,28.18,M,15.25,M,0,3335*73
$GNRMC,041200.800,A,2500.8105800,N,12132.4777700,E,0.00,144.58,030324,,,D,V*0E
$GPHDT,,T*1B
$GNACCURACY,3.9*1C
$GNGGA,041200.900,2500.8105700,N,12132.4777800,E,2,59,0.47,28.19,M,15.25,M,0,3335*73
$GNRMC,041200.900,A,2500.8105700,N,12132.4777800,E,0.00,144.58,030324,,,D,V*0F
$GPHDT,,T*1B
$GNACCURACY,3.9*1C
$GNGGA,041201.000,2500.8105600,N,12132.4777800,E,2,59,0.47,28.19,M,15.25,M,1,3335*7B
$GNRMC,041201.000,A,2500.8105600,N,12132.4777800,E,0.00,144.58,030324,,,D,V*06
$GPHDT,,T*1B
$GNACCURACY,3.9*1C
$GNGGA,041201.100,2500.8105600,N,12132.4777900,E,2,59,0.47,28.20,M,15.25,M,1,3335*71
$GNRMC,041201.100,A,2500.8105600,N,12132.4777900,E,0.00,144.58,030324,,,D,V*06
$GPHDT,,T*1B
$GNGSA,A,3,08,194,195,199,21,27,02,07,16,09,04,196,0.83,0.47,0.69,1*09
$GNGSA,A,3,26,,,,,,,,,,,,0.83,0.47,0.69,1*02
$GNGSA,A,3,83,82,80,79,73,81,,,,,,,0.83,0.47,0.69,2*0F
$GNGSA,A,3,15,30,34,27,07,02,,,,,,,0.83,0.47,0.69,3*04
$GNGSA,A,3,34,06,09,16,11,40,39,25,07,10,12,43,0.83,0.47,0.69,4*07
$GNGSA,A,3,24,44,23,,,,,,,,,,0.83,0.47,0.69,4*04
$GPGSV,4,1,15,08,69,333,41,194,63,049,41,195,61,119,40,199,60,167,32,1*54
$GPGSV,4,2,15,21,49,164,32,27,41,031,24,02,37,179,36,07,33,320,39,1*6E
$GPGSV,4,3,15,16,31,065,35,09,28,256,24,04,25,210,27,196,20,172,36,1*5B
$GPGSV,4,4,15,26,13,091,18,31,08,141,20,30,03,320,17,1*5C
$GPGSV,3,1,10,08,69,333,46,194,63,049,39,195,61,119,41,199,60,167,46,8*55
$GPGSV,3,2,10,27,41,031,34,09,28,256,28,04,25,210,23,196,20,172,38,8*52
$GPGSV,3,3,10,26,13,091,24,30,03,320,33,8*65
$GLGSV,2,1,06,83,65,178,15,82,62,042,43,80,51,020,38,79,32,094,30,1*74
$GLGSV,2,2,06,73,16,325,24,81,14,028,29,1*72
$GAGSV,2,1,06,15,50,148,39,30,50,037,35,34,42,067,35,27,38,319,38,7*7C
$GAGSV,2,2,06,07,31,231,21,02,14,084,18,7*71
$GAGSV,1,1,04,30,50,037,39,15,50,148,43,34,42,067,41,27,38,319,39,1*78
$GBGSV,4,1,15,34,80,051,41,06,76,216,41,09,75,283,37,16,74,196,36,1*77
$GBGSV,4,2,15,11,73,200,38,40,63,322,35,39,63,182,26,25,62,349,44,1*70
$GBGSV,4,3,15,07,61,301,37,10,51,283,21,12,48,041,34,43,47,216,28,1*7A
$GBGSV,4,4,15,24,47,102,44,44,24,040,30,23,17,316,43,1*41
$GBGSV,2,1,07,34,80,051,45,39,63,182,29,40,63,322,39,25,62,349,44,4*77
$GBGSV,2,2,07,24,47,102,36,44,24,040,25,23,17,316,44,4*41
$GNACCURACY,3.9*1C
$PAIRSAT,1,35,2,0,201,3,0,200,4,0,221,5,0,200,6,0,200,7,0,201,8,0,221,9,0,221,10,0,200,11,0,200,12,0,200,13,0,200,14,0,200,15,0,200,16,0,201,17,0,200,18,0,200,19,0,200,20,0,200,21,0,201,22,0,200,23,0,200,24,0,200,25,0,200,26,0,220,27,0,221,28,0,200,29,0,200,30,0,221,31,0,201,32,0,200,194,0,621,195,0,621,196,0,620,199,0,621*5A
$PAIRSAT,2,24,65,0,200,66,0,200,67,0,200,68,0,200,69,0,200,70,0,200,71,0,200,72,0,200,73,0,201,74,0,200,75,0,200,76,0,200,77,0,200,78,0,200,79,0,201,80,0,201,81,0,201,82,0,201,83,0,201,84,0,200,85,0,200,86,0,200,87,0,200,88,0,200*7A
$PAIRSAT,3,23,2,0,1021,3,0,1200,4,0,1200,5,0,200,7,0,1221,8,0,1200,9,0,1200,10,0,1200,11,0,1200,12,0,1200,13,0,1200,15,0,1221,19,0,1200,21,0,1200,24,0,1200,25,0,1200,26,0,1200,27,0,1221,30,0,1221,31,0,1200,33,0,1200,34,0,1221,36,0,1200*68
$PAIRSAT,4,46,1,0,200,2,0,200,3,0,600,4,0,200,5,0,200,6,0,201,7,0,201,8,0,200,9,0,201,10,0,201,11,0,201,12,0,201,13,0,200,14,0,200,16,0,201,19,0,600,20,0,600,21,0,600,22,0,600,23,0,621,24,0,621,25,0,621,26,0,600,27,0,600,28,0,600,29,0,600,30,0,600,32,0,600,33,0,600,34,0,621,35,0,600,36,0,600,37,0,600,38,0,600,39,0,621,40,0,621,41,0,600,42,0,600,43,0,621,44,0,421,45,0,400,46,0,400,59,0,400,60,0,400,61,0,400,62,0,400*4A
$PAIRDGP,6,2,4,7,9,16,21*4F
$GNGGA,041201.200,2500.8105600,N,12132.4778000,E,2,59,0.47,28.20,M,15.25,M,1,3335*74
$GNRMC,041201.200,A,2500.8105600,N,12132.4778000,E,0.00,144.58,030324,,,D,V*03
$GPHDT,,T*1B
$GNACCURACY,3.9*1C
$GNGGA,041201.300,2500.8105600,N,12132.4778100,E,2,59,0.47,28.21,M,15.25,M,1,3335*75
$GNRMC,041201.300,A,2500.8105600,N,12132.4778100,E,0.00,144.58,030324,,,D,V*03
$GPHDT,,T*1B
$GNACCURACY,3.9*1C
$GNGGA,041201.400,2500.8105500,N,12132.4778100,E,2,59,0.47,28.21,M,15.25,M,1,3335*71
$GNRMC,041201.400,A,2500.8105500,N,12132.4778100,E,0.00,144.58,030324,,,D,V*07
$GPHDT,,T*1B
$GNACCURACY,3.9*1C
$GNGGA,041201.500,2500.8105500,N,12132.4778200,E,2,59,0.47,28.21,M,15.25,M,1,3335*73
$GNRMC,041201.500,A,2500.8105500,N,12132.4778200,E,0.00,144.58,030324,,,D,V*05
$GPHDT,,T*1B
$GNACCURACY,3.9*1C
$GNGGA,041201.600,2500.8105500,N,12132.4778300,E,2,59,0.47,28.22,M,15.25,M,0,3335*73
$GNRMC,041201.600,A,2500.8105500,N,12132.4778300,E,0.00,144.58,030324,,,D,V*07
$GPHDT,,T*1B
$GNACCURACY,3.9*1C
$GNGGA,041201.700,2500.8105500,N,12132.4778400,E,2,59,0.47,28.22,M,15.25,M,0,3335*75
$GNRMC,041201.700,A,2500.8105500,N,12132.4778400,E,0.00,144.58,030324,,,D,V*01
$GPHDT,,T*1B
$GNACCURACY,3.9*1C
$GNGGA,041201.800,2500.8105400,N,12132.4778400,E,2,59,0.47,28.23,M,15.25,M,0,3335*7A
$GNRMC,041201.800,A,2500.8105400,N,12132.4778400,E,0.00,144.58,030324,,,D,V*0F
$GPHDT,,T*1B
$GNACCURACY,3.9*1C
$GNGGA,041201.900,2500.8105500,N,12132.4778500,E,2,59,0.47,28.23,M,15.25,M,0,3335*7B
$GNRMC,041201.900,A,2500.8105500,N,12132.4778500,E,0.00,144.58,030324,,,D,V*0E
$GPHDT,,T*1B
$GNACCURACY,3.9*1C
$GNGGA,041202.000,2500.8105400,N,12132.4778600,E,2,59,0.47,28.24,M,15.25,M,1,3335*75
$GNRMC,041202.000,A,2500.8105400,N,12132.4778600,E,0.00,144.58,030324,,,D,V*06
$GPHDT,,T*1B
$GNACCURACY,3.9*1C
$GNGGA,041202.100,2500.8105400,N,12132.4778600,E,2,60,0.47,28.24,M,15.25,M,1,3335*7E
$GNRMC,041202.100,A,2500.8105400,N,12132.4778600,E,0.00,144.58,030324,,,D,V*07
$GPHDT,,T*1B
$GNGSA,A,3,08,194,195,199,21,27,02,07,16,09,04,196,0.83,0.47,0.69,1*09
$GNGSA,A,3,26,,,,,,,,,,,,0.83,0.47,0.69,1*02
$GNGSA,A,3,83,82,80,79,73,81,,,,,,,0.83,0.47,0.69,2*0F
$GNGSA,A,3,15,30,34,27,07,02,,,,,,,0.83,0.47,0.69,3*04
$GNGSA,A,3,34,06,09,16,11,40,39,25,07,10,12,43,0.83,0.47,0.69,4*07
$GNGSA,A,3,24,44,23,,,,,,,,,,0.83,0.47,0.69,4*04
$GPGSV,4,1,15,08,69,333,41,194,63,049,41,195,61,119,42,199,60,167,29,1*5C
$GPGSV,4,2,15,21,49,164,34,27,41,031,24,02,37,179,36,07,33,320,39,1*68
$GPGSV,4,3,15,16,31,065,35,09,28,256,23,04,25,210,25,196,20,172,36,1*5E
$GPGSV,4,4,15,26,13,091,19,31,08,141,20,30,03,320,19,1*53
$GPGSV,3,1,10,08,69,333,46,194,63,049,39,195,61,119,38,199,60,167,46,8*5B
$GPGSV,3,2,10,27,41,031,30,09,28,256,27,04,25,210,21,196,20,172,38,8*5B
$GPGSV,3,3,10,26,13,091,24,30,03,320,33,8*65
$GLGSV,2,1,06,83,65,178,16,82,62,042,43,80,51,020,38,79,32,094,29,1*7F
$GLGSV,2,2,06,73,16,325,21,81,14,028,29,1*77
$GAGSV,2,1,06,15,50,148,38,30,50,037,35,34,42,067,32,27,38,319,36,7*74
$GAGSV,2,2,06,07,31,231,25,02,14,084,20,7*7E
$GAGSV,1,1,04,30,50,037,40,15,50,148,42,34,42,067,41,27,38,319,39,1*77
$GBGSV,4,1,15,34,80,051,41,06,76,216,41,09,75,283,37,16,74,196,35,1*74
$GBGSV,4,2,15,11,73,200,38,40,63,322,36,39,63,182,24,25,62,349,44,1*71
$GBGSV,4,3,15,07,61,301,37,10,51,283,24,12,48,041,31,43,47,216,30,1*73
$GBGSV,4,4,15,24,47,102,41,44,24,040,25,23,17,316,44,1*47
$GBGSV,2,1,07,34,80,051,45,39,63,182,30,40,63,322,39,25,62,349,44,4*7F
$GBGSV,2,2,07,24,47,102,36,44,24,040,28,23,17,316,44,4*4C
$GNACCURACY,3.9*1C
$PAIRSAT,1,35,2,0,201,3,0,200,4,0,221,5,0,200,6,0,200,7,0,201,8,0,221,9,0,221,10,0,200,11,0,200,12,0,200,13,0,200,14,0,200,15,0,200,16,0,201,17,0,200,18,0,200,19,0,200,20,0,200,21,0,201,22,0,200,23,0,200,24,0,200,25,0,200,26,0,220,27,0,221,28,0,200,29,0,200,30,0,221,31,0,201,32,0,200,194,0,621,195,0,621,196,0,620,199,0,621*5A
$PAIRSAT,2,24,65,0,200,66,0,200,67,0,200,68,0,200,69,0,200,70,0,200,71,0,200,72,0,200,73,0,201,74,0,200,75,0,200,76,0,200,77,0,200,78,0,200,79,0,201,80,0,201,81,0,201,82,0,201,83,0,201,84,0,200,85,0,200,86,0,200,87,0,200,88,0,200*7A
$PAIRSAT,3,23,2,0,1021,3,0,1200,4,0,1200,5,0,200,7,0,1221,8,0,1200,9,0,1200,10,0,1200,11,0,1200,12,0,1200,13,0,1200,15,0,1221,19,0,1200,21,0,1200,24,0,1200,25,0,1200,26,0,1200,27,0,1221,30,0,1221,31,0,1200,33,0,1200,34,0,1221,36,0,1200*68
$PAIRSAT,4,46,1,0,200,2,0,200,3,0,600,4,0,200,5,0,200,6,0,201,7,0,201,8,0,200,9,0,201,10,0,201,11,0,201,12,0,201,13,0,200,14,0,200,16,0,201,19,0,600,20,0,600,21,0,600,22,0,600,23,0,621,24,0,621,25,0,621,26,0,600,27,0,600,28,0,600,29,0,600,30,0,600,32,0,600,33,0,600,34,0,621,35,0,600,36,0,600,37,0,600,38,0,600,39,0,621,40,0,621,41,0,600,42,0,600,43,0,621,44,0,421,45,0,400,46,0,400,59,0,400,60,0,400,61,0,400,62,0,400*4A
$PAIRDGP,6,2,4,7,9,16,21*4F
$GNGGA,041202.200,2500.8105400,N,12132.4778700,E,2,60,0.47,28.25,M,15.25,M,1,3335*7D
$GNRMC,041202.200,A,2500.8105400,N,12132.4778700,E,0.00,144.58,030324,,,D,V*05
$GPHDT,,T*1B
$GNACCURACY,3.9*1C
$GNGGA,041202.300,2500.8105400,N,12132.4778700,E,2,61,0.47,28.26,M,15.25,M,1,3335*7E
$GNRMC,041202.300,A,2500.8105400,N,12132.4778700,E,0.00,144.58,030324,,,D,V*04
$GPHDT,,T*1B
$GNACCURACY,3.9*1C
$GNGGA,041202.400,2500.8105300,N,12132.4778700,E,2,61,0.47,28.27,M,15.25,M,1,3335*7F
$GNRMC,041202.400,A,2500.8105300,N,12132.4778700,E,0.00,144.58,030324,,,D,V*04
$GPHDT,,T*1B
$GNACCURACY,3.9*1C
$GNGGA,041202.500,2500.8105300,N,12132.4778700,E,2,61,0.47,28.27,M,15.25,M,0,3335*7F
$GNRMC,041202.500,A,2500.8105300,N,12132.4778700,E,0.00,144.58,030324,,,D,V*05
$GPHDT,,T*1B
$GNACCURACY,3.9*1C
$GNGGA,041202.600,2500.8105300,N,12132.4778800,E,2,61,0.47,28.28,M,15.25,M,0,3335*7C
$GNRMC,041202.600,A,2500.8105300,N,12132.4778800,E,0.00,144.58,030324,,,D,V*09
$GPHDT,,T*1B
$GNACCURACY,3.9*1C
$GNGGA,041202.700,2500.8105300,N,12132.4778900,E,2,61,0.47,28.28,M,15.25,M,0,3335*7C
$GNRMC,041202.700,A,2500.8105300,N,12132.4778900,E,0.00,144.58,030324,,,D,V*09
$GPHDT,,T*1B
$GNACCURACY,3.9*1C
$GNGGA,041202.800,2500.8105300,N,12132.4778900,E,2,61,0.47,28.29,M,15.25,M,0,3335*72
$GNRMC,041202.800,A,2500.8105300,N,12132.4778900,E,0.00,144.58,030324,,,D,V*06
$GPHDT,,T*1B
$GNACCURACY,3.9*1C
$GNGGA,041202.900,2500.8105300,N,12132.4778900,E,2,61,0.47,28.29,M,15.25,M,0,3335*73
$GNRMC,041202.900,A,2500.8105300,N,12132.4778900,E,0.00,144.58,030324,,,D,V*07
$GPHDT,,T*1B
$GNACCURACY,3.9*1C
$GNGGA,041203.000,2500.8105300,N,12132.4779000,E,2,61,0.47,28.29,M,15.25,M,1,3335*72
$GNRMC,041203.000,A,2500.8105300,N,12132.4779000,E,0.00,144.58,030324,,,D,V*07
$GPHDT,,T*1B
$GNACCURACY,3.9*1C
$GNGGA,041203.100,2500.8105300,N,12132.4779000,E,2,62,0.47,28.29,M,15.25,M,1,3335*70
$GNRMC,041203.100,A,2500.8105300,N,12132.4779000,E,0.00,144.58,030324,,,D,V*06
$GPHDT,,T*1B
$GNGSA,A,3,08,194,195,199,21,27,02,07,16,09,04,196,0.83,0.47,0.69,1*09
$GNGSA,A,3,26,,,,,,,,,,,,0.83,0.47,0.69,1*02
$GNGSA,A,3,83,82,80,79,73,81,,,,,,,0.83,0.47,0.69,2*0F
$GNGSA,A,3,15,30,34,27,07,02,,,,,,,0.83,0.47,0.69,3*04
$GNGSA,A,3,34,06,09,16,11,40,39,25,07,10,12,43,0.83,0.47,0.69,4*07
$GNGSA,A,3,24,44,23,,,,,,,,,,0.83,0.47,0.69,4*04
$GPGSV,4,1,15,08,69,333,40,194,63,049,41,195,61,119,41,199,60,167,32,1*54
$GPGSV,4,2,15,21,49,164,34,27,41,031,28,02,37,179,36,07,33,320,37,1*6A
$GPGSV,4,3,15,16,31,065,37,09,28,256,26,04,25,210,23,196,20,172,36,1*5F
$GPGSV,4,4,15,26,13,091,18,31,08,141,18,30,03,320,18,1*58
$GPGSV,3,1,10,08,69,333,46,194,63,049,41,195,61,119,38,199,60,167,46,8*54
$GPGSV,3,2,10,27,41,031,29,09,28,256,27,04,25,210,21,196,20,172,40,8*5C
$GPGSV,3,3,10,26,13,091,25,30,03,320,33,8*64
$GLGSV,2,1,06,83,65,178,15,82,62,042,43,80,51,020,39,79,32,094,26,1*72
$GLGSV,2,2,06,73,16,325,22,81,14,028,29,1*74
$GAGSV,2,1,06,15,50,148,37,30,50,037,35,34,42,067,33,27,38,319,36,7*7A
$GAGSV,2,2,06,07,31,231,21,02,14,084,20,7*7A
$GAGSV,2,1,06,30,50,037,38,15,50,148,41,34,42,067,41,27,38,319,39,1*7A
$GAGSV,2,2,06,07,31,231,25,02,14,084,18,1*73
$GBGSV,4,1,15,34,80,051,40,06,76,216,41,09,75,283,37,16,74,196,36,1*76
$GBGSV,4,2,15,11,73,200,38,40,63,322,36,39,63,182,22,25,62,349,44,1*77
$GBGSV,4,3,15,07,61,301,38,10,51,283,22,12,48,041,23,43,47,216,28,1*70
$GBGSV,4,4,15,24,47,102,42,44,24,040,25,23,17,316,44,1*44
$GBGSV,2,1,07,34,80,051,45,39,63,182,26,40,63,322,38,25,62,349,43,4*7E
$GBGSV,2,2,07,24,47,102,36,44,24,040,27,23,17,316,44,4*43
$GNACCURACY,3.9*1C
$PAIRSAT,1,35,2,0,201,3,0,200,4,0,221,5,0,200,6,0,200,7,0,201,8,0,221,9,0,221,10,0,200,11,0,200,12,0,200,13,0,200,14,0,200,15,0,200,16,0,201,17,0,200,18,0,200,19,0,200,20,0,200,21,0,201,22,0,200,23,0,200,24,0,200,25,0,200,26,0,220,27,0,221,28,0,200,29,0,200,30,0,221,31,0,201,32,0,200,194,0,621,195,0,621,196,0,620,199,0,621*5A
$PAIRSAT,2,24,65,0,200,66,0,200,67,0,200,68,0,200,69,0,200,70,0,200,71,0,200,72,0,200,73,0,201,74,0,200,75,0,200,76,0,200,77,0,200,78,0,200,79,0,201,80,0,201,81,0,201,82,0,201,83,0,201,84,0,200,85,0,200,86,0,200,87,0,200,88,0,200*7A
$PAIRSAT,3,23,2,0,1021,3,0,1200,4,0,1200,5,0,200,7,0,1221,8,0,1200,9,0,1200,10,0,1200,11,0,1200,12,0,1200,13,0,1200,15,0,1221,19,0,1200,21,0,1200,24,0,1200,25,0,1200,26,0,1200,27,0,1221,30,0,1221,31,0,1200,33,0,1200,34,0,1221,36,0,1200*68
$PAIRSAT,4,46,1,0,200,2,0,200,3,0,600,4,0,200,5,0,200,6,0,201,7,0,201,8,0,200,9,0,201,10,0,201,11,0,201,12,0,201,13,0,200,14,0,200,16,0,201,19,0,600,20,0,600,21,0,600,22,0,600,23,0,621,24,0,621,25,0,621,26,0,600,27,0,600,28,0,600,29,0,600,30,0,600,32,0,600,33,0,600,34,0,621,35,0,600,36,0,600,37,0,600,38,0,600,39,0,621,40,0,621,41,0,600,42,0,600,43,0,621,44,0,421,45,0,400,46,0,400,59,0,400,60,0,400,61,0,400,62,0,400*4A
$PAIRDGP,6,2,4,7,9,16,21*4F
$GNGGA,041203.200,2500.8105400,N,12132.4779000,E,2,62,0.47,28.29,M,15.25,M,1,3335*74
$GNRMC,041203.200,A,2500.8105400,N,12132.4779000,E,0.00,144.58,030324,,,D,V*02
$GPHDT,,T*1B
$GNACCURACY,3.9*1C
$GNGGA,041203.300,2500.8105400,N,12132.4779000,E,2,62,0.47,28.30,M,15.25,M,1,3335*7D
$GNRMC,041203.300,A,2500.8105400,N,12132.4779000,E,0.00,144.58,030324,,,D,V*03
$GPHDT,,T*1B
$GNACCURACY,3.9*1C
$GNGGA,041203.400,2500.8105400,N,12132.4779100,E,2,62,0.47,28.30,M,15.25,M,1,3335*7B
$GNRMC,041203.400,A,2500.8105400,N,12132.4779100,E,0.00,144.58,030324,,,D,V*05
$GPHDT,,T*1B
$GNACCURACY,3.9*1C
$GNGGA,041203.500,2500.8105400,N,12132.4779200,E,2,62,0.47,28.30,M,15.25,M,1,3335*79
$GNRMC,041203.500,A,2500.8105400,N,12132.4779200,E,0.00,144.58,030324,,,D,V*07
$GPHDT,,T*1B
$GNACCURACY,3.9*1C
$GNGGA,041203.600,2500.8105400,N,12132.4779200,E,2,62,0.47,28.32,M,15.25,M,0,3335*79
$GNRMC,041203.600,A,2500.8105400,N,12132.4779200,E,0.01,144.58,030324,,,D,V*05
$GPHDT,,T*1B
$GNACCURACY,3.9*1C
$GNGGA,041203.700,2500.8105400,N,12132.4779200,E,2,62,0.47,28.32,M,15.25,M,0,3335*78
$GNRMC,041203.700,A,2500.8105400,N,12132.4779200,E,0.01,144.58,030324,,,D,V*04
$GPHDT,,T*1B
$GNACCURACY,3.9*1C
$GNGGA,041203.800,2500.8105400,N,12132.4779200,E,2,62,0.47,28.32,M,15.25,M,0,3335*77
$GNRMC,041203.800,A,2500.8105400,N,12132.4779200,E,0.00,144.58,030324,,,D,V*0A
$GPHDT,,T*1B
$GNACCURACY,3.9*1C
$GNGGA,041203.900,2500.8105400,N,12132.4779300,E,2,62,0.47,28.33,M,15.25,M,0,3335*76
$GNRMC,041203.900,A,2500.8105400,N,12132.4779300,E,0.01,144.58,030324,,,D,V*0B
$GPHDT,,T*1B
$GNACCURACY,3.9*1C
$GNGGA,041204.000,2500.8105400,N,12132.4779300,E,2,62,0.47,28.34,M,15.25,M,1,3335*7E
$GNRMC,041204.000,A,2500.8105400,N,12132.4779300,E,0.00,144.58,030324,,,D,V*04
$GPHDT,,T*1B
$GNACCURACY,4.0*12
$GNGGA,041204.100,2500.8105400,N,12132.4779300,E,2,60,0.47,28.34,M,15.25,M,1,3335*7D
$GNRMC,041204.100,A,2500.8105400,N,12132.4779300,E,0.01,144.58,030324,,,D,V*04
$GPHDT,,T*1B
$GNGSA,A,3,08,194,195,199,21,27,02,07,16,09,04,196,0.84,0.47,0.69,1*0E
$GNGSA,A,3,26,,,,,,,,,,,,0.84,0.47,0.69,1*05
$GNGSA,A,3,83,82,80,79,73,81,,,,,,,0.84,0.47,0.69,2*08
$GNGSA,A,3,15,30,34,27,07,02,,,,,,,0.84,0.47,0.69,3*03
$GNGSA,A,3,34,06,09,16,11,39,40,25,07,12,24,43,0.84,0.47,0.69,4*07
$GNGSA,A,3,44,23,,,,,,,,,,,0.84,0.47,0.69,4*05
$GPGSV,4,1,15,08,69,333,40,194,63,049,41,195,61,119,41,199,60,167,33,1*55
$GPGSV,4,2,15,21,49,164,37,27,41,031,26,02,37,179,37,07,33,320,40,1*66
$GPGSV,4,3,15,16,31,065,34,09,28,256,29,04,25,210,28,196,20,172,36,1*58
$GPGSV,4,4,15,26,13,091,15,31,08,141,16,30,03,320,15,1*56
$GPGSV,3,1,10,08,69,333,46,194,63,049,40,195,61,119,38,199,60,167,46,8*55
$GPGSV,3,2,10,27,41,031,25,09,28,256,24,04,25,210,22,196,20,172,39,8*5E
$GPGSV,3,3,10,26,13,091,27,30,03,320,32,8*67
$GLGSV,2,1,06,83,65,178,16,82,62,042,43,80,51,020,38,79,32,094,26,1*70
$GLGSV,2,2,06,73,16,325,20,81,14,028,29,1*76
$GAGSV,2,1,07,15,50,148,37,30,50,037,33,34,42,067,35,27,38,319,38,7*75
$GAGSV,2,2,07,07,31,231,19,02,14,084,17,13,12,192,,7*4F
$GAGSV,2,1,06,30,50,037,37,15,50,148,42,34,42,067,40,27,38,319,39,1*77
$GAGSV,2,2,06,07,31,231,24,02,14,084,22,1*7B
$GBGSV,4,1,15,34,80,051,40,06,76,216,40,09,75,283,37,16,74,196,33,1*72
$GBGSV,4,2,15,11,73,200,38,39,63,182,30,40,63,322,38,25,62,349,45,1*7B
$GBGSV,4,3,15,07,61,301,38,10,51,283,17,12,48,041,29,24,47,102,44,1*71
$GBGSV,4,4,15,43,47,216,28,44,24,040,31,23,17,316,45,1*4B
$GBGSV,2,1,06,34,80,051,45,40,63,322,38,25,62,349,43,24,47,102,33,4*79
$GBGSV,2,2,06,44,24,040,27,23,17,316,44,4*71
$GNACCURACY,4.0*12
$PAIRSAT,1,35,2,0,201,3,0,200,4,0,221,5,0,200,6,0,200,7,0,201,8,0,221,9,0,221,10,0,200,11,0,200,12,0,200,13,0,200,14,0,200,15,0,200,16,0,201,17,0,200,18,0,200,19,0,200,20,0,200,21,0,201,22,0,200,23,0,200,24,0,200,25,0,200,26,0,220,27,0,221,28,0,200,29,0,200,30,0,221,31,0,201,32,0,200,194,0,621,195,0,621,196,0,620,199,0,621*5A
$PAIRSAT,2,24,65,0,200,66,0,200,67,0,200,68,0,200,69,0,200,70,0,200,71,0,200,72,0,200,73,0,201,74,0,200,75,0,200,76,0,200,77,0,200,78,0,200,79,0,201,80,0,201,81,0,201,82,0,201,83,0,201,84,0,200,85,0,200,86,0,200,87,0,200,88,0,200*7A
$PAIRSAT,3,23,2,0,1021,3,0,1200,4,0,1200,5,0,200,7,0,1221,8,0,1200,9,0,1200,10,0,1200,11,0,1200,12,0,1200,13,0,1200,15,0,1221,19,0,1200,21,0,1200,24,0,1200,25,0,1200,26,0,1200,27,0,1221,30,0,1221,31,0,1200,33,0,1200,34,0,1221,36,0,1200*68
$PAIRSAT,4,46,1,0,200,2,0,200,3,0,600,4,0,200,5,0,200,6,0,201,7,0,201,8,0,200,9,0,201,10,0,201,11,0,201,12,0,201,13,0,200,14,0,200,16,0,201,19,0,600,20,0,600,21,0,600,22,0,600,23,0,621,24,0,621,25,0,621,26,0,600,27,0,600,28,0,600,29,0,600,30,0,600,32,0,600,33,0,600,34,0,621,35,0,600,36,0,600,37,0,600,38,0,600,39,0,621,40,0,621,41,0,600,42,0,600,43,0,621,44,0,421,45,0,400,46,0,400,59,0,400,60,0,400,61,0,400,62,0,400*4A
$PAIRDGP,6,2,4,7,9,16,21*4F
$GNGGA,041204.200,2500.8105300,N,12132.4779400,E,2,59,0.47,28.34,M,15.25,M,1,3335*74
$GNRMC,041204.200,A,2500.8105300,N,12132.4779400,E,0.01,144.58,030324,,,D,V*07
$GPHDT,,T*1B
$GNACCURACY,4.0*12
$GNGGA,041204.300,2500.8105300,N,12132.4779500,E,2,59,0.47,28.34,M,15.25,M,1,3335*74
$GNRMC,041204.300,A,2500.8105300,N,12132.4779500,E,0.01,144.58,030324,,,D,V*07
$GPHDT,,T*1B
$GNACCURACY,4.0*12
$GNGGA,041204.400,2500.8105300,N,12132.4779600,E,2,59,0.47,28.34,M,15.25,M,1,3335*70
$GNRMC,041204.400,A,2500.8105300,N,12132.4779600,E,0.01,144.58,030324,,,D,V*03
$GPHDT,,T*1B
$GNACCURACY,4.0*12
$GNGGA,041204.500,2500.8105300,N,12132.4779600,E,2,60,0.47,28.35,M,15.25,M,0,3335*7B
$GNRMC,041204.500,A,2500.8105300,N,12132.4779600,E,0.01,144.58,030324,,,D,V*02
$GPHDT,,T*1B
$GNACCURACY,4.0*12
$GNGGA,041204.600,2500.8105300,N,12132.4779700,E,2,59,0.47,28.35,M,15.25,M,0,3335*73
$GNRMC,041204.600,A,2500.8105300,N,12132.4779700,E,0.01,144.58,030324,,,D,V*00
$GPHDT,,T*1B
$GNACCURACY,4.0*12
$GNGGA,041204.700,2500.8105300,N,12132.4779800,E,2,59,0.47,28.35,M,15.25,M,0,3335*7D
$GNRMC,041204.700,A,2500.8105300,N,12132.4779800,E,0.01,144.58,030324,,,D,V*0E
$GPHDT,,T*1B
$GNACCURACY,4.0*12
$GNGGA,041204.800,2500.8105300,N,12132.4779800,E,2,59,0.47,28.36,M,15.25,M,0,3335*71
$GNRMC,041204.800,A,2500.8105300,N,12132.4779800,E,0.01,144.58,030324,,,D,V*01
$GPHDT,,T*1B
$GNACCURACY,4.0*12
$GNGGA,041204.900,2500.8105300,N,12132.4779800,E,2,60,0.47,28.36,M,15.25,M,0,3335*7A
$GNRMC,041204.900,A,2500.8105300,N,12132.4779800,E,0.01,144.58,030324,,,D,V*00
$GPHDT,,T*1B
$GNACCURACY,4.0*12
$GNGGA,041205.000,2500.8105400,N,12132.4779900,E,2,61,0.47,28.37,M,15.25,M,1,3335*75
$GNRMC,041205.000,A,2500.8105400,N,12132.4779900,E,0.01,144.58,030324,,,D,V*0E
$GPHDT,,T*1B
$GNACCURACY,4.0*12
$GNGGA,041205.100,2500.8105400,N,12132.4779900,E,2,61,0.47,28.37,M,15.25,M,1,3335*74
$GNRMC,041205.100,A,2500.8105400,N,12132.4779900,E,0.01,144.58,030324,,,D,V*0F
$GPHDT,,T*1B
$GNGSA,A,3,08,194,195,199,21,27,02,07,16,09,04,196,0.83,0.47,0.69,1*09
$GNGSA,A,3,26,,,,,,,,,,,,0.83,0.47,0.69,1*02
$GNGSA,A,3,83,82,80,79,73,81,,,,,,,0.83,0.47,0.69,2*0F
$GNGSA,A,3,15,30,34,27,07,02,,,,,,,0.83,0.47,0.69,3*04
$GNGSA,A,3,34,06,09,16,11,39,40,25,07,10,12,43,0.83,0.47,0.69,4*07
$GNGSA,A,3,24,44,23,,,,,,,,,,0.83,0.47,0.69,4*04
$GPGSV,4,1,15,08,69,333,39,194,63,049,41,195,61,119,39,199,60,167,33,1*54
$GPGSV,4,2,15,21,49,164,38,27,41,031,27,02,37,179,35,07,33,320,39,1*64
$GPGSV,4,3,15,16,31,065,34,09,28,256,29,04,25,210,27,196,20,172,35,1*54
$GPGSV,4,4,15,26,13,091,16,31,08,141,16,30,03,320,22,1*51
$GPGSV,3,1,10,08,69,333,46,194,63,049,40,195,61,119,38,199,60,167,46,8*55
$GPGSV,3,2,10,27,41,031,32,09,28,256,29,04,25,210,19,196,20,172,39,8*5D
$GPGSV,3,3,10,26,13,091,23,30,03,320,33,8*62
$GLGSV,2,1,06,83,65,178,16,82,62,042,41,80,51,020,39,79,32,094,26,1*73
$GLGSV,2,2,06,73,16,325,18,81,14,028,30,1*75
$GAGSV,2,1,08,15,50,148,38,30,50,037,36,34,42,067,34,27,38,319,39,7*70
$GAGSV,2,2,08,07,31,231,19,02,14,084,15,13,12,192,,08,10,181,,7*73
$GAGSV,2,1,06,30,50,037,38,15,50,148,43,34,42,067,39,27,38,319,39,1*77
$GAGSV,2,2,06,07,31,231,27,02,14,084,18,1*71
$GBGSV,4,1,15,34,80,051,41,06,76,216,40,09,75,283,38,16,74,196,35,1*7A
$GBGSV,4,2,15,11,73,200,38,39,63,182,26,40,63,322,38,25,62,349,45,1*7C
$GBGSV,4,3,15,07,61,301,38,10,51,283,19,12,48,041,29,43,47,216,30,1*7B
$GBGSV,4,4,15,24,47,102,44,44,24,040,30,23,17,316,45,1*47
$GBGSV,2,1,06,34,80,051,45,40,63,322,37,25,62,349,43,24,47,102,36,4*73
$GBGSV,2,2,06,44,24,040,25,23,17,316,44,4*73
$GNACCURACY,4.0*12
$PAIRSAT,1,35,2,0,201,3,0,200,4,0,221,5,0,200,6,0,200,7,0,201,8,0,221,9,0,221,10,0,200,11,0,200,12,0,200,13,0,200,14,0,200,15,0,200,16,0,201,17,0,200,18,0,200,19,0,200,20,0,200,21,0,201,22,0,200,23,0,200,24,0,200,25,0,200,26,0,220,27,0,221,28,0,200,29,0,200,30,0,221,31,0,201,32,0,200,194,0,621,195,0,621,196,0,620,199,0,621*5A
$PAIRSAT,2,24,65,0,200,66,0,200,67,0,200,68,0,200,69,0,200,70,0,200,71,0,200,72,0,200,73,0,201,74,0,200,75,0,200,76,0,200,77,0,200,78,0,200,79,0,201,80,0,201,81,0,201,82,0,201,83,0,201,84,0,200,85,0,200,86,0,200,87,0,200,88,0,200*7A
$PAIRSAT,3,23,2,0,1021,3,0,1200,4,0,1200,5,0,200,7,0,1221,8,0,1200,9,0,1200,10,0,1200,11,0,1200,12,0,1200,13,0,1200,15,0,1221,19,0,1200,21,0,1200,24,0,1200,25,0,1200,26,0,1200,27,0,1221,30,0,1221,31,0,1200,33,0,1200,34,0,1221,36,0,1200*68
$PAIRSAT,4,46,1,0,200,2,0,200,3,0,600,4,0,200,5,0,200,6,0,201,7,0,201,8,0,200,9,0,201,10,0,201,11,0,201,12,0,201,13,0,200,14,0,200,16,0,201,19,0,600,20,0,600,21,0,600,22,0,600,23,0,621,24,0,621,25,0,621,26,0,600,27,0,600,28,0,600,29,0,600,30,0,600,32,0,600,33,0,600,34,0,621,35,0,600,36,0,600,37,0,600,38,0,600,39,0,621,40,0,621,41,0,600,42,0,600,43,0,621,44,0,421,45,0,400,46,0,400,59,0,400,60,0,400,61,0,400,62,0,400*4A
$PAIRDGP,6,2,4,7,9,16,21*4F
$GNGGA,041205.200,2500.8105300,N,12132.4779900,E,2,61,0.47,28.37,M,15.25,M,1,3335*70
$GNRMC,041205.200,A,2500.8105300,N,12132.4779900,E,0.01,144.58,030324,,,D,V*0B
$GPHDT,,T*1B
$GNACCURACY,4.0*12
$GNGGA,041205.300,2500.8105300,N,12132.4779900,E,2,61,0.47,28.37,M,15.25,M,1,3335*71
$GNRMC,041205.300,A,2500.8105300,N,12132.4779900,E,0.01,144.58,030324,,,D,V*0A
$GPHDT,,T*1B
$GNACCURACY,4.0*12
$GNGGA,041205.400,2500.8105300,N,12132.4780000,E,2,61,0.47,28.37,M,15.25,M,1,3335*79
$GNRMC,041205.400,A,2500.8105300,N,12132.4780000,E,0.01,144.58,030324,,,D,V*02
$GPHDT,,T*1B
$GNACCURACY,4.0*12
$GNGGA,041205.500,2500.8105300,N,12132.4779900,E,2,61,0.47,28.37,M,15.25,M,1,3335*77
$GNRMC,041205.500,A,2500.8105300,N,12132.4779900,E,0.01,144.58,030324,,,D,V*0C
$GPHDT,,T*1B
$GNACCURACY,4.0*12
$GNGGA,041205.600,2500.8105300,N,12132.4780000,E,2,61,0.47,28.37,M,15.25,M,0,3335*7A
$GNRMC,041205.600,A,2500.8105300,N,12132.4780000,E,0.01,144.58,030324,,,D,V*00
$GPHDT,,T*1B
$GNACCURACY,4.0*12
$GNGGA,041205.700,2500.8105200,N,12132.4780000,E,2,61,0.47,28.37,M,15.25,M,0,3335*7A
$GNRMC,041205.700,A,2500.8105200,N,12132.4780000,E,0.01,144.58,030324,,,D,V*00
$GPHDT,,T*1B
$GNACCURACY,4.0*12
$GNGGA,041205.800,2500.8105200,N,12132.4780000,E,2,61,0.47,28.37,M,15.25,M,0,3335*75
$GNRMC,041205.800,A,2500.8105200,N,12132.4780000,E,0.01,144.58,030324,,,D,V*0F
$GPHDT,,T*1B
$GNACCURACY,4.0*12
$GNGGA,041205.900,2500.8105200,N,12132.4780000,E,2,61,0.47,28.37,M,15.25,M,0,3335*74
$GNRMC,041205.900,A,2500.8105200,N,12132.4780000,E,0.01,144.58,030324,,,D,V*0E
$GPHDT,,T*1B
$GNACCURACY,4.0*12
$GNGGA,041206.000,2500.8105100,N,12132.4780000,E,2,61,0.47,28.37,M,15.25,M,1,3335*7C
$GNRMC,041206.000,A,2500.8105100,N,12132.4780000,E,0.01,144.58,030324,,,D,V*07
$GPHDT,,T*1B
$GNACCURACY,4.0*12
$GNGGA,041206.100,2500.8105100,N,12132.4780000,E,2,62,0.47,28.38,M,15.25,M,1,3335*71
$GNRMC,041206.100,A,2500.8105100,N,12132.4780000,E,0.01,144.58,030324,,,D,V*06
$GPHDT,,T*1B
$GNGSA,A,3,08,194,195,199,21,27,02,07,16,09,04,196,0.83,0.47,0.69,1*09
$GNGSA,A,3,26,,,,,,,,,,,,0.83,0.47,0.69,1*02
$GNGSA,A,3,83,82,80,79,73,81,,,,,,,0.83,0.47,0.69,2*0F
$GNGSA,A,3,15,30,34,27,07,02,,,,,,,0.83,0.47,0.69,3*04
$GNGSA,A,3,34,06,09,16,11,39,40,25,07,10,12,43,0.83,0.47,0.69,4*07
$GNGSA,A,3,24,44,23,,,,,,,,,,0.83,0.47,0.69,4*04
$GPGSV,4,1,15,08,69,333,41,194,63,049,41,195,61,119,38,199,60,167,33,1*5A
$GPGSV,4,2,15,21,49,164,40,27,41,031,34,02,37,179,35,07,33,320,38,1*68
$GPGSV,4,3,15,16,31,065,29,09,28,256,24,04,25,210,24,196,20,172,35,1*56
$GPGSV,4,4,15,26,13,091,18,31,08,141,16,30,03,320,20,1*5D
$GPGSV,3,1,10,08,69,333,46,194,63,049,40,195,61,119,38,199,60,167,45,8*56
$GPGSV,3,2,10,27,41,031,31,09,28,256,26,04,25,210,16,196,20,172,39,8*5E
$GPGSV,3,3,10,26,13,091,19,30,03,320,33,8*6B
$GLGSV,2,1,06,83,65,178,15,82,62,042,41,80,51,020,40,79,32,094,27,1*7F
$GLGSV,2,2,06,73,16,325,20,81,14,028,31,1*7F
$GAGSV,2,1,08,15,50,148,39,30,50,037,34,34,42,067,35,27,38,319,38,7*73
$GAGSV,2,2,08,07,31,231,19,02,14,084,16,13,12,192,,08,10,181,,7*70
$GAGSV,2,1,06,30,50,037,38,15,50,148,44,34,42,067,39,27,38,319,39,1*70
$GAGSV,2,2,06,07,31,231,23,02,14,084,16,1*7B
$GBGSV,4,1,15,34,80,051,41,06,76,216,40,09,75,283,36,16,74,196,35,1*74
$GBGSV,4,2,15,11,73,200,39,39,63,182,29,40,63,322,36,25,62,349,45,1*7C
$GBGSV,4,3,15,07,61,301,38,10,51,283,23,12,48,041,30,43,47,216,32,1*78
$GBGSV,4,4,15,24,47,102,44,44,24,040,31,23,17,316,45,1*46
$GBGSV,2,1,07,34,80,051,45,39,63,182,25,40,63,322,37,25,62,349,43,4*72
$GBGSV,2,2,07,24,47,102,35,44,24,040,26,23,17,316,44,4*41
$GNACCURACY,4.0*12
$PAIRSAT,1,35,2,0,201,3,0,200,4,0,221,5,0,200,6,0,200,7,0,201,8,0,221,9,0,221,10,0,200,11,0,200,12,0,200,13,0,200,14,0,200,15,0,200,16,0,201,17,0,200,18,0,200,19,0,200,20,0,200,21,0,201,22,0,200,23,0,200,24,0,200,25,0,200,26,0,220,27,0,221,28,0,200,29,0,200,30,0,221,31,0,201,32,0,200,194,0,621,195,0,621,196,0,620,199,0,621*5A
$PAIRSAT,2,24,65,0,200,66,0,200,67,0,200,68,0,200,69,0,200,70,0,200,71,0,200,72,0,200,73,0,201,74,0,200,75,0,200,76,0,200,77,0,200,78,0,200,79,0,201,80,0,201,81,0,201,82,0,201,83,0,201,84,0,200,85,0,200,86,0,200,87,0,200,88,0,200*7A
$PAIRSAT,3,23,2,0,1021,3,0,1200,4,0,1200,5,0,200,7,0,1221,8,0,1200,9,0,1200,10,0,1200,11,0,1200,12,0,1200,13,0,1200,15,0,1221,19,0,1200,21,0,1200,24,0,1200,25,0,1200,26,0,1200,27,0,1221,30,0,1221,31,0,1200,33,0,1200,34,0,1221,36,0,1200*68
$PAIRSAT,4,46,1,0,200,2,0,200,3,0,600,4,0,200,5,0,200,6,0,201,7,0,201,8,0,200,9,0,201,10,0,201,11,0,201,12,0,201,13,0,200,14,0,200,16,0,201,19,0,600,20,0,600,21,0,600,22,0,600,23,0,621,24,0,621,25,0,621,26,0,600,27,0,600,28,0,600,29,0,600,30,0,600,32,0,600,33,0,600,34,0,621,35,0,600,36,0,600,37,0,600,38,0,600,39,0,621,40,0,621,41,0,600,42,0,600,43,0,621,44,0,421,45,0,400,46,0,400,59,0,400,60,0,400,61,0,400,62,0,400*4A
$PAIRDGP,6,2,4,7,9,16,21*4F
$GNGGA,041206.200,2500.8105000,N,12132.4780000,E,2,62,0.47,28.38,M,15.25,M,1,3335*73
$GNRMC,041206.200,A,2500.8105000,N,12132.4780000,E,0.01,144.58,030324,,,D,V*04
$GPHDT,,T*1B
$GNACCURACY,4.0*12
$GNGGA,041206.300,2500.8105000,N,12132.4780000,E,2,62,0.47,28.38,M,15.25,M,1,3335*72
$GNRMC,041206.300,A,2500.8105000,N,12132.4780000,E,0.01,144.58,030324,,,D,V*05
$GPHDT,,T*1B
$GNACCURACY,4.0*12
$GNGGA,041206.400,2500.8105000,N,12132.4780000,E,2,61,0.47,28.38,M,15.25,M,1,3335*76
$GNRMC,041206.400,A,2500.8105000,N,12132.4780000,E,0.01,144.58,030324,,,D,V*02
$GPHDT,,T*1B
$GNACCURACY,4.0*12
$GNGGA,041206.500,2500.8105000,N,12132.4780100,E,2,61,0.47,28.38,M,15.25,M,1,3335*76
$GNRMC,041206.500,A,2500.8105000,N,12132.4780100,E,0.01,144.58,030324,,,D,V*02
$GPHDT,,T*1B
$GNACCURACY,4.0*12
$GNGGA,041206.600,2500.8105000,N,12132.4780100,E,2,61,0.47,28.38,M,15.25,M,0,3335*74
$GNRMC,041206.600,A,2500.8105000,N,12132.4780100,E,0.01,144.58,030324,,,D,V*01
$GPHDT,,T*1B
$GNACCURACY,4.0*12
$GNGGA,041206.700,2500.8105000,N,12132.4780000,E,2,61,0.47,28.38,M,15.25,M,0,3335*74
$GNRMC,041206.700,A,2500.8105000,N,12132.4780000,E,0.01,144.58,030324,,,D,V*01
$GPHDT,,T*1B
$GNACCURACY,4.0*12
$GNGGA,041206.800,2500.8105000,N,12132.4780000,E,2,60,0.47,28.38,M,15.25,M,0,3335*7A
$GNRMC,041206.800,A,2500.8105000,N,12132.4780000,E,0.01,144.58,030324,,,D,V*0E
$GPHDT,,T*1B
$GNACCURACY,4.0*12
$GNGGA,041206.900,2500.8105000,N,12132.4780000,E,2,60,0.47,28.38,M,15.25,M,0,3335*7B
$GNRMC,041206.900,A,2500.8105000,N,12132.4780000,E,0.01,144.58,030324,,,D,V*0F
$GPHDT,,T*1B
$GNACCURACY,4.0*12
$GNGGA,041207.000,2500.8105000,N,12132.4780000,E,2,60,0.47,28.39,M,15.25,M,1,3335*73
$GNRMC,041207.000,A,2500.8105000,N,12132.4780000,E,0.01,144.58,030324,,,D,V*07
$GPHDT,,T*1B
$GNACCURACY,4.0*12
$GNGGA,041207.100,2500.8105000,N,12132.4780000,E,2,60,0.47,28.39,M,15.25,M,1,3335*72
$GNRMC,041207.100,A,2500.8105000,N,12132.4780000,E,0.01,144.58,030324,,,D,V*06
$GPHDT,,T*1B
$GNGSA,A,3,08,194,195,199,21,27,02,07,16,09,04,196,0.83,0.47,0.69,1*09
$GNGSA,A,3,26,,,,,,,,,,,,0.83,0.47,0.69,1*02
$GNGSA,A,3,83,82,80,79,73,81,,,,,,,0.83,0.47,0.69,2*0F
$GNGSA,A,3,15,30,34,27,07,02,,,,,,,0.83,0.47,0.69,3*04
$GNGSA,A,3,34,06,09,16,11,39,40,25,07,10,12,43,0.83,0.47,0.69,4*07
$GNGSA,A,3,24,44,23,,,,,,,,,,0.83,0.47,0.69,4*04
$GPGSV,4,1,15,08,69,333,41,194,63,049,40,195,61,119,41,199,60,167,35,1*53
$GPGSV,4,2,15,21,49,164,35,27,41,031,31,02,37,179,35,07,33,320,37,1*60
$GPGSV,4,3,15,16,31,065,34,09,28,256,25,04,25,210,25,196,20,172,36,1*59
$GPGSV,4,4,15,26,13,091,18,31,08,141,18,30,03,320,17,1*57
$GPGSV,3,1,09,08,69,333,46,194,63,049,41,195,61,119,40,199,60,167,45,8*50
$GPGSV,3,2,09,27,41,031,30,09,28,256,22,196,20,172,39,26,13,091,21,8*59
$GPGSV,3,3,09,30,03,320,33,8*55
$GLGSV,2,1,06,83,65,178,13,82,62,042,42,80,51,020,38,79,32,094,30,1*73
$GLGSV,2,2,06,73,16,325,21,81,14,028,30,1*7F
$GAGSV,2,1,08,15,50,148,40,30,50,037,36,34,42,067,37,27,38,319,36,7*73
$GAGSV,2,2,08,07,31,231,22,02,14,084,17,13,12,192,,08,10,181,,7*79
$GAGSV,2,1,05,30,50,037,37,15,50,148,43,34,42,067,40,27,38,319,39,1*75
$GAGSV,2,2,05,07,31,231,24,1*43
$GBGSV,4,1,15,34,80,051,41,06,76,216,41,09,75,283,36,16,74,196,33,1*73
$GBGSV,4,2,15,11,73,200,40,39,63,182,28,40,63,322,35,25,62,349,45,1*70
$GBGSV,4,3,15,07,61,301,38,10,51,283,21,12,48,041,30,43,47,216,27,1*7E
$GBGSV,4,4,15,24,47,102,43,44,24,040,28,23,17,316,45,1*49
$GBGSV,2,1,07,34,80,051,44,39,63,182,30,40,63,322,38,25,62,349,43,4*78
$GBGSV,2,2,07,24,47,102,34,44,24,040,27,23,17,316,44,4*41
$GNACCURACY,3.9*1C
$PAIRSAT,1,35,2,0,201,3,0,200,4,0,221,5,0,200,6,0,200,7,0,201,8,0,221,9,0,221,10,0,200,11,0,200,12,0,200,13,0,200,14,0,200,15,0,200,16,0,201,17,0,200,18,0,200,19,0,200,20,0,200,21,0,201,22,0,200,23,0,200,24,0,200,25,0,200,26,0,220,27,0,221,28,0,200,29,0,200,30,0,221,31,0,201,32,0,200,194,0,621,195,0,621,196,0,620,199,0,621*5A
$PAIRSAT,2,24,65,0,200,66,0,200,67,0,200,68,0,200,69,0,200,70,0,200,71,0,200,72,0,200,73,0,201,74,0,200,75,0,200,76,0,200,77,0,200,78,0,200,79,0,201,80,0,201,81,0,201,82,0,201,83,0,201,84,0,200,85,0,200,86,0,200,87,0,200,88,0,200*7A
$PAIRSAT,3,23,2,0,1021,3,0,1200,4,0,1200,5,0,200,7,0,1221,8,0,1200,9,0,1200,10,0,1200,11,0,1200,12,0,1200,13,0,1200,15,0,1221,19,0,1200,21,0,1200,24,0,1200,25,0,1200,26,0,1200,27,0,1221,30,0,1221,31,0,1200,33,0,1200,34,0,1221,36,0,1200*68
$PAIRSAT,4,46,1,0,200,2,0,200,3,0,600,4,0,200,5,0,200,6,0,201,7,0,201,8,0,200,9,0,201,10,0,201,11,0,201,12,0,201,13,0,200,14,0,200,16,0,201,19,0,600,20,0,600,21,0,600,22,0,600,23,0,621,24,0,621,25,0,621,26,0,600,27,0,600,28,0,600,29,0,600,30,0,600,32,0,600,33,0,600,34,0,621,35,0,600,36,0,600,37,0,600,38,0,600,39,0,621,40,0,621,41,0,600,42,0,600,43,0,621,44,0,421,45,0,400,46,0,400,59,0,400,60,0,400,61,0,400,62,0,400*4A
$PAIRDGP,6,2,4,7,9,16,21*4F
$GNGGA,041207.200,2500.8105000,N,12132.4780000,E,2,60,0.47,28.39,M,15.25,M,1,3335*71
$GNRMC,041207.200,A,2500.8105000,N,12132.4780000,E,0.01,144.58,030324,,,D,V*05
$GPHDT,,T*1B
$GNACCURACY,4.0*12
$GNGGA,041207.300,2500.8105000,N,12132.4780000,E,2,60,0.47,28.39,M,15.25,M,1,3335*70
$GNRMC,041207.300,A,2500.8105000,N,12132.4780000,E,0.01,144.58,030324,,,D,V*04
$GPHDT,,T*1B
$GNACCURACY,3.9*1C
$GNGGA,041207.400,2500.8104900,N,12132.4780000,E,2,59,0.48,28.39,M,15.25,M,1,3335*7A
$GNRMC,041207.400,A,2500.8104900,N,12132.4780000,E,0.01,144.58,030324,,,D,V*0B
$GPHDT,,T*1B
$GNACCURACY,3.9*1C
$GNGGA,041207.500,2500.8104900,N,12132.4779900,E,2,59,0.48,28.39,M,15.25,M,0,3335*75
$GNRMC,041207.500,A,2500.8104900,N,12132.4779900,E,0.01,144.58,030324,,,D,V*05
$GPHDT,,T*1B
$GNACCURACY,3.9*1C
$GNGGA,041207.600,2500.8104900,N,12132.4779900,E,2,59,0.48,28.39,M,15.25,M,0,3335*76
$GNRMC,041207.600,A,2500.8104900,N,12132.4779900,E,0.01,144.58,030324,,,D,V*06
$GPHDT,,T*1B
$GNACCURACY,3.9*1C
$GNGGA,041207.700,2500.8104900,N,12132.4779800,E,2,60,0.48,28.39,M,15.25,M,0,3335*7C
$GNRMC,041207.700,A,2500.8104900,N,12132.4779800,E,0.01,144.58,030324,,,D,V*06
$GPHDT,,T*1B
$GNACCURACY,3.9*1C
$GNGGA,041207.800,2500.8104900,N,12132.4779800,E,2,60,0.48,28.39,M,15.25,M,0,3335*73
$GNRMC,041207.800,A,2500.8104900,N,12132.4779800,E,0.01,144.58,030324,,,D,V*09
$GPHDT,,T*1B
$GNACCURACY,4.0*12
$GNGGA,041207.900,2500.8104800,N,12132.4779700,E,2,59,0.49,28.39,M,15.25,M,0,3335*77
$GNRMC,041207.900,A,2500.8104800,N,12132.4779700,E,0.01,144.58,030324,,,D,V*06
$GPHDT,,T*1B
$GNACCURACY,4.0*12
$GNGGA,041208.000,2500.8104800,N,12132.4779600,E,2,60,0.47,28.39,M,15.25,M,1,3335*75
$GNRMC,041208.000,A,2500.8104800,N,12132.4779600,E,0.01,144.58,030324,,,D,V*01
$GPHDT,,T*1B
