$FW : RTK35X,V1.1X0314AS,Lib20210517,1*54
$Tool : LOCOSYS , GNSS Firebird , v1.0.0.19*39
$---------------------------------------------------*2D
$GNACCURACY,4.0*12
$GNGGA,041126.900,2500.8112100,N,12132.4783100,E,2,58,0.48,26.82,M,15.25,M,0,3335*74
$GNRMC,041126.900,A,2500.8112100,N,12132.4783100,E,0.01,144.58,030324,,,D,V*0B
$GPHDT,,T*1B
$GNACCURACY,4.0*12
$GNGGA,041127.000,2500.8111900,N,12132.4783100,E,2,58,0.48,26.82,M,15.25,M,1,3335*76
$GNRMC,041127.000,A,2500.8111900,N,12132.4783100,E,0.02,144.58,030324,,,D,V*0B
$GPHDT,,T*1B
$GNACCURACY,4.0*12
$GNGGA,041127.100,2500.8111900,N,12132.4783200,E,2,58,0.48,26.83,M,15.25,M,1,3335*75
$GNRMC,041127.100,A,2500.8111900,N,12132.4783200,E,0.02,144.58,030324,,,D,V*09
$GPHDT,,T*1B
$GNGSA,A,3,08,194,195,199,21,27,02,07,16,09,196,04,0.75,0.48,0.58,1*0D
$GNGSA,A,3,26,,,,,,,,,,,,0.75,0.48,0.58,1*06
$GNGSA,A,3,83,82,80,79,73,81,,,,,,,0.75,0.48,0.58,2*0B
$GNGSA,A,3,30,15,34,27,07,,,,,,,,0.75,0.48,0.58,3*02
$GNGSA,A,3,34,06,09,16,11,40,39,25,07,10,12,24,0.75,0.48,0.58,4*02
$GNGSA,A,3,43,44,23,,,,,,,,,,0.75,0.48,0.58,4*01
$GPGSV,4,1,15,08,69,332,36,194,63,049,43,195,61,120,31,199,60,167,35,1*5C
$GPGSV,4,2,15,21,49,164,42,27,42,031,38,02,37,179,35,07,32,320,36,1*6A
$GPGSV,4,3,15,16,31,065,36,09,28,257,19,04,25,210,17,196,20,172,39,1*5B
$GPGSV,4,4,15,26,13,091,13,31,08,141,18,30,03,320,17,1*5C
$GPGSV,3,1,10,08,69,332,44,194,63,049,47,195,61,120,32,199,60,167,43,8*54
$GPGSV,3,2,10,27,42,031,36,09,28,257,26,04,25,210,18,196,20,172,41,8*5A
$GPGSV,3,3,10,26,13,091,19,30,03,320,21,8*68
$GLGSV,2,1,06,83,65,178,22,82,62,042,43,80,50,019,39,79,32,093,19,1*76
$GLGSV,2,2,06,73,16,325,20,81,15,028,33,1*7C
$GAGSV,2,1,07,30,50,037,38,15,49,149,34,34,42,067,37,27,38,319,27,7*78
$GAGSV,2,2,07,07,31,231,17,02,15,084,,08,10,181,17,7*4A
$GAGSV,1,1,04,30,50,037,37,15,49,149,39,34,42,067,41,07,31,231,28,1*72
$GBGSV,4,1,15,34,80,052,43,06,77,216,44,09,75,284,37,16,74,196,39,1*7A
$GBGSV,4,2,15,11,73,200,37,40,63,322,34,39,63,182,26,25,61,348,41,1*79
$GBGSV,4,3,15,07,61,301,38,10,51,283,20,12,48,041,33,24,47,102,38,1*75
$GBGSV,4,4,15,43,47,216,33,44,24,040,30,23,17,316,32,1*40
$GBGSV,2,1,07,34,80,052,43,39,63,182,24,40,63,322,33,25,61,348,37,4*73
$GBGSV,2,2,07,24,47,102,30,44,24,040,22,23,17,316,31,4*42
$GNACCURACY,4.0*12
$PAIRSAT,1,35,2,0,201,3,0,200,4,0,221,5,0,200,6,0,200,7,0,201,8,0,221,9,0,221,10,0,200,11,0,200,12,0,200,13,0,200,14,0,200,15,0,200,16,0,201,17,0,200,18,0,200,19,0,200,20,0,200,21,0,201,22,0,200,23,0,200,24,0,200,25,0,200,26,0,220,27,0,221,28,0,200,29,0,200,30,0,221,31,0,201,32,0,200,194,0,621,195,0,621,196,0,620,199,0,621*5A
$PAIRSAT,2,24,65,0,200,66,0,200,67,0,200,68,0,200,69,0,200,70,0,200,71,0,200,72,0,200,73,0,201,74,0,200,75,0,200,76,0,200,77,0,200,78,0,200,79,0,201,80,0,201,81,0,201,82,0,201,83,0,201,84,0,200,85,0,200,86,0,200,87,0,200,88,0,200*7A
$PAIRSAT,3,23,2,0,1021,3,0,1200,4,0,1200,5,0,200,7,0,1221,8,0,1200,9,0,1200,10,0,1200,11,0,1200,12,0,1200,13,0,1200,15,0,1221,19,0,1200,21,0,1200,24,0,1200,25,0,1200,26,0,1200,27,0,1221,30,0,1221,31,0,1200,33,0,1200,34,0,1221,36,0,1200*68
$PAIRSAT,4,46,1,0,200,2,0,200,3,0,600,4,0,200,5,0,200,6,0,201,7,0,201,8,0,200,9,0,201,10,0,201,11,0,201,12,0,201,13,0,200,14,0,200,16,0,201,19,0,600,20,0,600,21,0,600,22,0,600,23,0,621,24,0,621,25,0,621,26,0,600,27,0,600,28,0,600,29,0,600,30,0,600,32,0,600,33,0,600,34,0,621,35,0,600,36,0,600,37,0,600,38,0,600,39,0,621,40,0,621,41,0,600,42,0,600,43,0,621,44,0,421,45,0,400,46,0,400,59,0,400,60,0,400,61,0,400,62,0,400*4A
$PAIRDGP,6,2,4,7,9,16,21*4F
$GNGGA,041127.200,2500.8111800,N,12132.4783200,E,2,57,0.48,26.83,M,15.25,M,1,3335*78
$GNRMC,041127.200,A,2500.8111800,N,12132.4783200,E,0.01,144.58,030324,,,D,V*08
$GPHDT,,T*1B
$GNACCURACY,4.0*12
$GNGGA,041127.300,2500.8111800,N,12132.4783200,E,2,57,0.48,26.84,M,15.25,M,1,3335*7E
$GNRMC,041127.300,A,2500.8111800,N,12132.4783200,E,0.01,144.58,030324,,,D,V*09
$GPHDT,,T*1B
$GNACCURACY,4.0*12
$GNGGA,041127.400,2500.8111700,N,12132.4783200,E,2,57,0.48,26.85,M,15.25,M,1,3335*77
$GNRMC,041127.400,A,2500.8111700,N,12132.4783200,E,0.00,144.58,030324,,,D,V*00
$GPHDT,,T*1B
$GNACCURACY,4.0*12
$GNGGA,041127.500,2500.8111600,N,12132.4783300,E,2,57,0.48,26.85,M,15.25,M,1,3335*76
$GNRMC,041127.500,A,2500.8111600,N,12132.4783300,E,0.01,144.58,030324,,,D,V*00
$GPHDT,,T*1B
$GNACCURACY,4.0*12
$GNGGA,041127.600,2500.8111500,N,12132.4783400,E,2,57,0.48,26.86,M,15.25,M,0,3335*73
$GNRMC,041127.600,A,2500.8111500,N,12132.4783400,E,0.01,144.58,030324,,,D,V*07
$GPHDT,,T*1B
$GNACCURACY,4.0*12
$GNGGA,041127.700,2500.8111400,N,12132.4783400,E,2,58,0.48,26.86,M,15.25,M,0,3335*7C
$GNRMC,041127.700,A,2500.8111400,N,12132.4783400,E,0.00,144.58,030324,,,D,V*06
$GPHDT,,T*1B
$GNACCURACY,4.0*12
$GNGGA,041127.800,2500.8111400,N,12132.4783400,E,2,57,0.48,26.86,M,15.25,M,0,3335*7C
$GNRMC,041127.800,A,2500.8111400,N,12132.4783400,E,0.01,144.58,030324,,,D,V*08
$GPHDT,,T*1B
$GNACCURACY,4.0*12
$GNGGA,041127.900,2500.8111300,N,12132.4783400,E,2,56,0.48,26.87,M,15.25,M,0,3335*7A
$GNRMC,041127.900,A,2500.8111300,N,12132.4783400,E,0.01,144.58,030324,,,D,V*0E
$GPHDT,,T*1B
$GNACCURACY,4.0*12
$GNGGA,041128.000,2500.8111300,N,12132.4783400,E,2,58,0.48,26.87,M,15.25,M,1,3335*73
$GNRMC,041128.000,A,2500.8111300,N,12132.4783400,E,0.01,144.58,030324,,,D,V*08
$GPHDT,,T*1B
$GNACCURACY,4.0*12
$GNGGA,041128.100,2500.8111300,N,12132.4783300,E,2,59,0.48,26.87,M,15.25,M,1,3335*74
$GNRMC,041128.100,A,2500.8111300,N,12132.4783300,E,0.00,144.58,030324,,,D,V*0F
$GPHDT,,T*1B
$GNGSA,A,3,08,194,195,199,21,27,02,07,16,09,04,196,0.75,0.48,0.58,1*0D
$GNGSA,A,3,26,,,,,,,,,,,,0.75,0.48,0.58,1*06
$GNGSA,A,3,83,82,80,79,73,81,,,,,,,0.75,0.48,0.58,2*0B
$GNGSA,A,3,30,15,34,27,07,,,,,,,,0.75,0.48,0.58,3*02
$GNGSA,A,3,34,06,09,16,11,40,39,25,07,10,12,24,0.75,0.48,0.58,4*02
$GNGSA,A,3,43,44,23,,,,,,,,,,0.75,0.48,0.58,4*01
$GPGSV,4,1,15,08,69,332,38,194,63,049,43,195,61,120,33,199,60,167,35,1*50
$GPGSV,4,2,15,21,49,164,41,27,42,031,38,02,37,179,35,07,32,320,26,1*68
$GPGSV,4,3,15,16,31,065,34,09,28,257,16,04,25,210,18,196,20,172,37,1*57
$GPGSV,4,4,15,26,13,091,14,31,08,141,16,30,03,320,18,1*5A
$GPGSV,3,1,10,08,69,332,45,194,63,049,47,195,61,120,35,199,60,167,44,8*55
$GPGSV,3,2,10,27,42,031,37,09,28,257,28,04,25,210,22,196,20,172,41,8*5C
$GPGSV,3,3,10,26,13,091,19,30,03,320,20,8*69
$GLGSV,2,1,06,83,65,178,22,82,62,042,43,80,50,019,39,79,32,093,20,1*7C
$GLGSV,2,2,06,73,16,325,21,81,15,028,32,1*7C
$GAGSV,2,1,07,30,50,037,37,15,49,149,29,34,42,067,37,27,38,319,33,7*7E
$GAGSV,2,2,07,07,31,231,16,02,15,084,,08,10,181,16,7*4A
$GAGSV,2,1,05,30,50,037,39,15,49,149,39,34,42,067,41,27,38,319,34,1*73
$GAGSV,2,2,05,07,31,231,29,1*4E
$GBGSV,4,1,15,34,80,052,43,06,77,216,44,09,75,284,38,16,74,196,39,1*75
$GBGSV,4,2,15,11,73,200,37,40,63,322,32,39,63,182,27,25,61,348,43,1*7C
$GBGSV,4,3,15,07,61,301,38,10,51,283,31,12,48,041,31,24,47,102,39,1*76
$GBGSV,4,4,15,43,47,216,32,44,24,040,29,23,17,316,30,1*4B
$GBGSV,2,1,07,34,80,052,43,39,63,182,25,40,63,322,34,25,61,348,43,4*76
$GBGSV,2,2,07,24,47,102,33,44,24,040,21,23,17,316,33,4*40
$GNACCURACY,4.0*12
$PAIRSAT,1,35,2,0,201,3,0,200,4,0,221,5,0,200,6,0,200,7,0,201,8,0,221,9,0,221,10,0,200,11,0,200,12,0,200,13,0,200,14,0,200,15,0,200,16,0,201,17,0,200,18,0,200,19,0,200,20,0,200,21,0,201,22,0,200,23,0,200,24,0,200,25,0,200,26,0,220,27,0,221,28,0,200,29,0,200,30,0,221,31,0,201,32,0,200,194,0,621,195,0,621,196,0,620,199,0,621*5A
$PAIRSAT,2,24,65,0,200,66,0,200,67,0,200,68,0,200,69,0,200,70,0,200,71,0,200,72,0,200,73,0,201,74,0,200,75,0,200,76,0,200,77,0,200,78,0,200,79,0,201,80,0,201,81,0,201,82,0,201,83,0,201,84,0,200,85,0,200,86,0,200,87,0,200,88,0,200*7A
$PAIRSAT,3,23,2,0,1021,3,0,1200,4,0,1200,5,0,200,7,0,1221,8,0,1200,9,0,1200,10,0,1200,11,0,1200,12,0,1200,13,0,1200,15,0,1221,19,0,1200,21,0,1200,24,0,1200,25,0,1200,26,0,1200,27,0,1221,30,0,1221,31,0,1200,33,0,1200,34,0,1221,36,0,1200*68
$PAIRSAT,4,46,1,0,200,2,0,200,3,0,600,4,0,200,5,0,200,6,0,201,7,0,201,8,0,200,9,0,201,10,0,201,11,0,201,12,0,201,13,0,200,14,0,200,16,0,201,19,0,600,20,0,600,21,0,600,22,0,600,23,0,621,24,0,621,25,0,621,26,0,600,27,0,600,28,0,600,29,0,600,30,0,600,32,0,600,33,0,600,34,0,621,35,0,600,36,0,600,37,0,600,38,0,600,39,0,621,40,0,621,41,0,600,42,0,600,43,0,621,44,0,421,45,0,400,46,0,400,59,0,400,60,0,400,61,0,400,62,0,400*4A
$PAIRDGP,6,2,4,7,9,16,21*4F
$GNGGA,041128.200,2500.8111300,N,12132.4783300,E,2,59,0.48,26.87,M,15.25,M,1,3335*77
$GNRMC,041128.200,A,2500.8111300,N,12132.4783300,E,0.00,144.58,030324,,,D,V*0C
$GPHDT,,T*1B
$GNACCURACY,4.0*12
$GNGGA,041128.300,2500.8111200,N,12132.4783400,E,2,57,0.48,26.88,M,15.25,M,1,3335*71
$GNRMC,041128.300,A,2500.8111200,N,12132.4783400,E,0.01,144.58,030324,,,D,V*0A
$GPHDT,,T*1B
$GNACCURACY,4.0*12
$GNGGA,041128.400,2500.8111200,N,12132.4783400,E,2,58,0.48,26.88,M,15.25,M,1,3335*79
$GNRMC,041128.400,A,2500.8111200,N,12132.4783400,E,0.02,144.58,030324,,,D,V*0E
$GPHDT,,T*1B
$GNACCURACY,4.0*12
$GNGGA,041128.500,2500.8111100,N,12132.4783400,E,2,59,0.48,26.89,M,15.25,M,1,3335*7B
$GNRMC,041128.500,A,2500.8111100,N,12132.4783400,E,0.01,144.58,030324,,,D,V*0F
$GPHDT,,T*1B
$GNACCURACY,4.0*12
$GNGGA,041128.600,2500.8111000,N,12132.4783400,E,2,59,0.48,26.89,M,15.25,M,0,3335*78
$GNRMC,041128.600,A,2500.8111000,N,12132.4783400,E,0.02,144.58,030324,,,D,V*0E
$GPHDT,,T*1B
$GNACCURACY,4.0*12
$GNGGA,041128.700,2500.8111000,N,12132.4783300,E,2,59,0.48,26.89,M,15.25,M,0,3335*7E
$GNRMC,041128.700,A,2500.8111000,N,12132.4783300,E,0.01,144.58,030324,,,D,V*0B
$GPHDT,,T*1B
$GNACCURACY,4.0*12
$GNGGA,041128.800,2500.8111000,N,12132.4783300,E,2,59,0.48,26.89,M,15.25,M,0,3335*71
$GNRMC,041128.800,A,2500.8111000,N,12132.4783300,E,0.01,144.58,030324,,,D,V*04
$GPHDT,,T*1B
$GNACCURACY,4.0*12
$GNGGA,041128.900,2500.8111000,N,12132.4783300,E,2,59,0.48,26.89,M,15.25,M,0,3335*70
$GNRMC,041128.900,A,2500.8111000,N,12132.4783300,E,0.02,144.58,030324,,,D,V*06
$GPHDT,,T*1B
$GNACCURACY,4.0*12
$GNGGA,041129.000,2500.8111000,N,12132.4783300,E,2,58,0.48,26.89,M,15.25,M,1,3335*78
$GNRMC,041129.000,A,2500.8111000,N,12132.4783300,E,0.02,144.58,030324,,,D,V*0E
$GPHDT,,T*1B
$GNACCURACY,4.0*12
$GNGGA,041129.100,2500.8111000,N,12132.4783300,E,2,58,0.48,26.90,M,15.25,M,1,3335*71
$GNRMC,041129.100,A,2500.8111000,N,12132.4783300,E,0.02,144.58,030324,,,D,V*0F
$GPHDT,,T*1B
$GNGSA,A,3,08,194,195,199,21,27,02,07,16,04,196,09,0.75,0.48,0.58,1*0D
$GNGSA,A,3,26,,,,,,,,,,,,0.75,0.48,0.58,1*06
$GNGSA,A,3,83,82,80,79,73,81,,,,,,,0.75,0.48,0.58,2*0B
$GNGSA,A,3,30,15,34,27,07,,,,,,,,0.75,0.48,0.58,3*02
$GNGSA,A,3,34,06,09,16,11,40,39,25,07,10,12,24,0.75,0.48,0.58,4*02
$GNGSA,A,3,43,44,23,,,,,,,,,,0.75,0.48,0.58,4*01
$GPGSV,4,1,15,08,69,333,39,194,63,049,43,195,61,120,27,199,60,167,35,1*55
$GPGSV,4,2,15,21,49,164,40,27,42,031,38,02,37,179,36,07,33,320,29,1*64
$GPGSV,4,3,15,16,31,065,33,09,28,257,18,04,25,210,20,196,20,172,38,1*5A
$GPGSV,4,4,15,26,13,091,14,31,08,141,15,30,03,320,19,1*58
$GPGSV,3,1,10,08,69,333,45,194,63,049,47,195,61,120,34,199,60,167,45,8*54
$GPGSV,3,2,10,27,42,031,38,09,28,257,27,04,25,210,23,196,20,172,41,8*5D
$GPGSV,3,3,10,26,13,091,23,30,03,320,20,8*60
$GLGSV,2,1,06,83,65,178,22,82,62,042,43,80,50,019,38,79,32,093,23,1*7E
$GLGSV,2,2,06,73,16,325,22,81,15,028,32,1*7F
$GAGSV,2,1,07,30,50,037,37,15,49,149,30,34,42,067,37,27,38,319,34,7*71
$GAGSV,2,2,07,07,31,231,17,02,15,084,,08,10,181,15,7*48
$GAGSV,2,1,05,30,50,037,39,15,49,149,38,34,42,067,42,27,38,319,33,1*76
$GAGSV,2,2,05,07,31,231,31,1*47
$GBGSV,4,1,15,34,80,052,43,06,77,216,44,09,75,284,38,16,74,196,39,1*75
$GBGSV,4,2,15,11,73,200,35,40,63,322,33,39,63,182,25,25,61,348,44,1*7A
$GBGSV,4,3,15,07,61,301,39,10,51,283,33,12,48,041,33,24,47,102,39,1*77
$GBGSV,4,4,15,43,47,216,30,44,24,040,28,23,17,316,24,1*4D
$GBGSV,2,1,07,34,80,052,43,39,63,182,25,40,63,322,31,25,61,348,43,4*73
$GBGSV,2,2,07,24,47,102,32,44,24,040,21,23,17,316,30,4*42
$GNACCURACY,4.0*12
$PAIRSAT,1,35,2,0,201,3,0,200,4,0,221,5,0,200,6,0,200,7,0,201,8,0,221,9,0,221,10,0,200,11,0,200,12,0,200,13,0,200,14,0,200,15,0,200,16,0,201,17,0,200,18,0,200,19,0,200,20,0,200,21,0,201,22,0,200,23,0,200,24,0,200,25,0,200,26,0,220,27,0,221,28,0,200,29,0,200,30,0,221,31,0,201,32,0,200,194,0,621,195,0,621,196,0,620,199,0,621*5A
$PAIRSAT,2,24,65,0,200,66,0,200,67,0,200,68,0,200,69,0,200,70,0,200,71,0,200,72,0,200,73,0,201,74,0,200,75,0,200,76,0,200,77,0,200,78,0,200,79,0,201,80,0,201,81,0,201,82,0,201,83,0,201,84,0,200,85,0,200,86,0,200,87,0,200,88,0,200*7A
$PAIRSAT,3,23,2,0,1021,3,0,1200,4,0,1200,5,0,200,7,0,1221,8,0,1200,9,0,1200,10,0,1200,11,0,1200,12,0,1200,13,0,1200,15,0,1221,19,0,1200,21,0,1200,24,0,1200,25,0,1200,26,0,1200,27,0,1221,30,0,1221,31,0,1200,33,0,1200,34,0,1221,36,0,1200*68
$PAIRSAT,4,46,1,0,200,2,0,200,3,0,600,4,0,200,5,0,200,6,0,201,7,0,201,8,0,200,9,0,201,10,0,201,11,0,201,12,0,201,13,0,200,14,0,200,16,0,201,19,0,600,20,0,600,21,0,600,22,0,600,23,0,621,24,0,621,25,0,621,26,0,600,27,0,600,28,0,600,29,0,600,30,0,600,32,0,600,33,0,600,34,0,621,35,0,600,36,0,600,37,0,600,38,0,600,39,0,621,40,0,621,41,0,600,42,0,600,43,0,621,44,0,421,45,0,400,46,0,400,59,0,400,60,0,400,61,0,400,62,0,400*4A
$PAIRDGP,6,2,4,7,9,16,21*4F
$GNGGA,041129.200,2500.8110900,N,12132.4783300,E,2,58,0.48,26.90,M,15.25,M,1,3335*7A
$GNRMC,041129.200,A,2500.8110900,N,12132.4783300,E,0.02,144.58,030324,,,D,V*04
$GPHDT,,T*1B
$GNACCURACY,4.0*12
$GNGGA,041129.300,2500.8110900,N,12132.4783400,E,2,58,0.48,26.90,M,15.25,M,1,3335*7C
$GNRMC,041129.300,A,2500.8110900,N,12132.4783400,E,0.01,144.58,030324,,,D,V*01
$GPHDT,,T*1B
$GNACCURACY,4.0*12
$GNGGA,041129.400,2500.8110900,N,12132.4783400,E,2,58,0.48,26.90,M,15.25,M,1,3335*7B
$GNRMC,041129.400,A,2500.8110900,N,12132.4783400,E,0.01,144.58,030324,,,D,V*06
$GPHDT,,T*1B
$GNACCURACY,4.0*12
$GNGGA,041129.500,2500.8110900,N,12132.4783400,E,2,58,0.48,26.91,M,15.25,M,1,3335*7B
$GNRMC,041129.500,A,2500.8110900,N,12132.4783400,E,0.01,144.58,030324,,,D,V*07
$GPHDT,,T*1B
$GNACCURACY,4.0*12
$GNGGA,041129.600,2500.8110900,N,12132.4783400,E,2,58,0.48,26.91,M,15.25,M,1,3335*78
$GNRMC,041129.600,A,2500.8110900,N,12132.4783400,E,0.01,144.58,030324,,,D,V*04
$GPHDT,,T*1B
$GNACCURACY,4.0*12
$GNGGA,041129.700,2500.8110900,N,12132.4783400,E,2,58,0.48,26.91,M,15.25,M,0,3335*78
$GNRMC,041129.700,A,2500.8110900,N,12132.4783400,E,0.01,144.58,030324,,,D,V*05
$GPHDT,,T*1B
$GNACCURACY,4.0*12
$GNGGA,041129.800,2500.8110900,N,12132.4783400,E,2,58,0.48,26.91,M,15.25,M,0,3335*77
$GNRMC,041129.800,A,2500.8110900,N,12132.4783400,E,0.01,144.58,030324,,,D,V*0A
$GPHDT,,T*1B
$GNACCURACY,4.0*12
$GNGGA,041129.900,2500.8110900,N,12132.4783400,E,2,58,0.48,26.92,M,15.25,M,0,3335*75
$GNRMC,041129.900,A,2500.8110900,N,12132.4783400,E,0.02,144.58,030324,,,D,V*08
$GPHDT,,T*1B
$GNACCURACY,4.0*12
$GNGGA,041130.000,2500.8110900,N,12132.4783400,E,2,58,0.48,26.92,M,15.25,M,1,3335*75
$GNRMC,041130.000,A,2500.8110900,N,12132.4783400,E,0.01,144.58,030324,,,D,V*0A
$GPHDT,,T*1B
$GNACCURACY,4.0*12
$GNGGA,041130.100,2500.8110800,N,12132.4783400,E,2,58,0.48,26.92,M,15.25,M,1,3335*75
$GNRMC,041130.100,A,2500.8110800,N,12132.4783400,E,0.01,144.58,030324,,,D,V*0A
$GPHDT,,T*1B
$GNGSA,A,3,08,194,195,199,21,27,02,07,16,04,196,09,0.75,0.48,0.58,1*0D
$GNGSA,A,3,26,,,,,,,,,,,,0.75,0.48,0.58,1*06
$GNGSA,A,3,83,82,80,79,73,81,,,,,,,0.75,0.48,0.58,2*0B
$GNGSA,A,3,30,15,34,27,07,,,,,,,,0.75,0.48,0.58,3*02
$GNGSA,A,3,34,06,09,16,11,40,39,25,07,10,12,24,0.75,0.48,0.58,4*02
$GNGSA,A,3,43,44,23,,,,,,,,,,0.75,0.48,0.58,4*01
$GPGSV,4,1,15,08,69,333,39,194,63,049,43,195,61,120,29,199,60,167,34,1*5A
$GPGSV,4,2,15,21,49,164,41,27,42,031,38,02,37,179,35,07,33,320,29,1*66
$GPGSV,4,3,15,16,31,065,34,09,28,257,17,04,25,210,22,196,20,172,38,1*50
$GPGSV,4,4,15,26,13,091,14,31,08,141,16,30,03,320,20,1*51
$GPGSV,3,1,10,08,69,333,45,194,63,049,47,195,61,120,33,199,60,167,45,8*53
$GPGSV,3,2,10,27,42,031,37,09,28,257,28,04,25,210,21,196,20,172,40,8*5E
$GPGSV,3,3,10,26,13,091,23,30,03,320,20,8*60
$GLGSV,2,1,06,83,65,178,22,82,62,042,43,80,50,019,38,79,32,093,24,1*79
$GLGSV,2,2,06,73,16,325,25,81,15,028,33,1*79
$GAGSV,2,1,07,30,50,037,37,15,49,149,28,34,42,067,37,27,38,319,34,7*78
$GAGSV,2,2,07,07,31,231,21,02,15,084,,08,10,181,14,7*4C
$GAGSV,2,1,05,30,50,037,38,15,49,149,37,34,42,067,42,27,38,319,31,1*7A
$GAGSV,2,2,05,07,31,231,30,1*46
$GBGSV,4,1,15,34,80,052,42,06,77,216,44,09,75,284,38,16,74,196,39,1*74
$GBGSV,4,2,15,11,73,200,35,40,63,322,33,39,63,182,23,25,61,348,44,1*7C
$GBGSV,4,3,15,07,61,301,39,10,51,283,34,12,48,041,32,24,47,102,39,1*71
$GBGSV,4,4,15,43,47,216,29,44,24,040,27,23,17,316,30,1*4F
$GBGSV,2,1,07,34,80,052,43,39,63,182,23,40,63,322,31,25,61,348,43,4*75
$GBGSV,2,2,07,24,47,102,33,44,24,040,22,23,17,316,30,4*40
$GNACCURACY,4.0*12
$PAIRSAT,1,35,2,0,201,3,0,200,4,0,221,5,0,200,6,0,200,7,0,201,8,0,221,9,0,221,10,0,200,11,0,200,12,0,200,13,0,200,14,0,200,15,0,200,16,0,201,17,0,200,18,0,200,19,0,200,20,0,200,21,0,201,22,0,200,23,0,200,24,0,200,25,0,200,26,0,220,27,0,221,28,0,200,29,0,200,30,0,221,31,0,201,32,0,200,194,0,621,195,0,621,196,0,620,199,0,621*5A
$PAIRSAT,2,24,65,0,200,66,0,200,67,0,200,68,0,200,69,0,200,70,0,200,71,0,200,72,0,200,73,0,201,74,0,200,75,0,200,76,0,200,77,0,200,78,0,200,79,0,201,80,0,201,81,0,201,82,0,201,83,0,201,84,0,200,85,0,200,86,0,200,87,0,200,88,0,200*7A
$PAIRSAT,3,23,2,0,1021,3,0,1200,4,0,1200,5,0,200,7,0,1221,8,0,1200,9,0,1200,10,0,1200,11,0,1200,12,0,1200,13,0,1200,15,0,1221,19,0,1200,21,0,1200,24,0,1200,25,0,1200,26,0,1200,27,0,1221,30,0,1221,31,0,1200,33,0,1200,34,0,1221,36,0,1200*68
$PAIRSAT,4,46,1,0,200,2,0,200,3,0,600,4,0,200,5,0,200,6,0,201,7,0,201,8,0,200,9,0,201,10,0,201,11,0,201,12,0,201,13,0,200,14,0,200,16,0,201,19,0,600,20,0,600,21,0,600,22,0,600,23,0,621,24,0,621,25,0,621,26,0,600,27,0,600,28,0,600,29,0,600,30,0,600,32,0,600,33,0,600,34,0,621,35,0,600,36,0,600,37,0,600,38,0,600,39,0,621,40,0,621,41,0,600,42,0,600,43,0,621,44,0,421,45,0,400,46,0,400,59,0,400,60,0,400,61,0,400,62,0,400*4A
$PAIRDGP,6,2,4,7,9,16,21*4F
$GNGGA,041130.200,2500.8110700,N,12132.4783400,E,2,58,0.48,26.93,M,15.25,M,1,3335*78
$GNRMC,041130.200,A,2500.8110700,N,12132.4783400,E,0.01,144.58,030324,,,D,V*06
$GPHDT,,T*1B
$GNACCURACY,4.0*12
$GNGGA,041130.300,2500.8110700,N,12132.4783400,E,2,59,0.48,26.93,M,15.25,M,1,3335*78
$GNRMC,041130.300,A,2500.8110700,N,12132.4783400,E,0.01,144.58,030324,,,D,V*07
$GPHDT,,T*1B
$GNACCURACY,4.0*12
$GNGGA,041130.400,2500.8110700,N,12132.4783400,E,2,59,0.48,26.93,M,15.25,M,0,3335*7E
$GNRMC,041130.400,A,2500.8110700,N,12132.4783400,E,0.01,144.58,030324,,,D,V*00
$GPHDT,,T*1B
$GNACCURACY,4.0*12
$GNGGA,041130.500,2500.8110800,N,12132.4783400,E,2,59,0.48,26.94,M,15.25,M,0,3335*77
$GNRMC,041130.500,A,2500.8110800,N,12132.4783400,E,0.01,144.58,030324,,,D,V*0E
$GPHDT,,T*1B
$GNACCURACY,4.0*12
$GNGGA,041130.600,2500.8110900,N,12132.4783400,E,2,59,0.48,26.94,M,15.25,M,0,3335*75
$GNRMC,041130.600,A,2500.8110900,N,12132.4783400,E,0.01,144.58,030324,,,D,V*0C
$GPHDT,,T*1B
$GNACCURACY,4.0*12
$GNGGA,041130.700,2500.8110900,N,12132.4783400,E,2,59,0.48,26.95,M,15.25,M,0,3335*75
$GNRMC,041130.700,A,2500.8110900,N,12132.4783400,E,0.01,144.58,030324,,,D,V*0D
$GPHDT,,T*1B
$GNACCURACY,4.0*12
$GNGGA,041130.800,2500.8110900,N,12132.4783300,E,2,59,0.48,26.95,M,15.25,M,0,3335*7D
$GNRMC,041130.800,A,2500.8110900,N,12132.4783300,E,0.02,144.58,030324,,,D,V*06
$GPHDT,,T*1B
$GNACCURACY,4.0*12
$GNGGA,041130.900,2500.8110900,N,12132.4783400,E,2,59,0.48,26.95,M,15.25,M,0,3335*7B
$GNRMC,041130.900,A,2500.8110900,N,12132.4783400,E,0.01,144.58,030324,,,D,V*03
$GPHDT,,T*1B
$GNACCURACY,4.0*12
$GNGGA,041131.000,2500.8110900,N,12132.4783300,E,2,59,0.48,26.96,M,15.25,M,1,3335*76
$GNRMC,041131.000,A,2500.8110900,N,12132.4783300,E,0.02,144.58,030324,,,D,V*0F
$GPHDT,,T*1B
$GNACCURACY,4.0*12
$GNGGA,041131.100,2500.8110900,N,12132.4783300,E,2,59,0.48,26.96,M,15.25,M,1,3335*77
$GNRMC,041131.100,A,2500.8110900,N,12132.4783300,E,0.02,144.58,030324,,,D,V*0E
$GPHDT,,T*1B
$GNGSA,A,3,08,194,195,199,21,27,02,07,16,09,04,196,0.75,0.48,0.58,1*0D
$GNGSA,A,3,26,,,,,,,,,,,,0.75,0.48,0.58,1*06
$GNGSA,A,3,83,82,80,79,73,81,,,,,,,0.75,0.48,0.58,2*0B
$GNGSA,A,3,30,15,34,27,07,,,,,,,,0.75,0.48,0.58,3*02
$GNGSA,A,3,34,06,09,16,11,40,39,25,07,10,12,24,0.75,0.48,0.58,4*02
$GNGSA,A,3,43,44,23,,,,,,,,,,0.75,0.48,0.58,4*01
$GPGSV,4,1,15,08,69,333,39,194,63,049,43,195,61,120,31,199,60,167,35,1*52
$GPGSV,4,2,15,21,49,164,39,27,42,031,38,02,37,179,35,07,33,320,23,1*63
$GPGSV,4,3,15,16,31,065,35,09,28,257,17,04,25,210,24,196,20,172,37,1*58
$GPGSV,4,4,15,26,13,091,14,31,08,141,16,30,03,320,19,1*5B
$GPGSV,3,1,10,08,69,333,45,194,63,049,47,195,61,120,36,199,60,167,44,8*57
$GPGSV,3,2,10,27,42,031,36,09,28,257,28,04,25,210,21,196,20,172,40,8*5F
$GPGSV,3,3,10,26,13,091,21,30,03,320,19,8*68
$GLGSV,2,1,06,83,65,178,22,82,62,042,42,80,50,019,38,79,32,093,21,1*7D
$GLGSV,2,2,06,73,16,325,25,81,15,028,33,1*79
$GAGSV,2,1,07,30,50,037,37,15,49,149,30,34,42,067,37,27,38,319,30,7*75
$GAGSV,2,2,07,07,31,231,25,02,15,084,,08,10,181,15,7*49
$GAGSV,2,1,05,30,50,037,38,15,49,149,39,34,42,067,42,27,38,319,25,1*71
$GAGSV,2,2,05,07,31,231,30,1*46
$GBGSV,4,1,15,34,80,052,42,06,77,216,44,09,75,284,38,16,74,196,39,1*74
$GBGSV,4,2,15,11,73,200,37,40,63,322,31,39,63,182,27,25,61,348,43,1*7F
$GBGSV,4,3,15,07,61,301,39,10,51,283,29,12,48,041,32,24,47,102,39,1*7D
$GBGSV,4,4,15,43,47,216,31,44,24,040,28,23,17,316,30,1*49
$GBGSV,2,1,07,34,80,052,43,39,63,182,23,40,63,322,31,25,61,348,42,4*74
$GBGSV,2,2,07,24,47,102,33,44,24,040,21,23,17,316,17,4*46
$GNACCURACY,4.0*12
$PAIRSAT,1,35,2,0,201,3,0,200,4,0,221,5,0,200,6,0,200,7,0,201,8,0,221,9,0,221,10,0,200,11,0,200,12,0,200,13,0,200,14,0,200,15,0,200,16,0,201,17,0,200,18,0,200,19,0,200,20,0,200,21,0,201,22,0,200,23,0,200,24,0,200,25,0,200,26,0,220,27,0,221,28,0,200,29,0,200,30,0,221,31,0,201,32,0,200,194,0,621,195,0,621,196,0,620,199,0,621*5A
$PAIRSAT,2,24,65,0,200,66,0,200,67,0,200,68,0,200,69,0,200,70,0,200,71,0,200,72,0,200,73,0,201,74,0,200,75,0,200,76,0,200,77,0,200,78,0,200,79,0,201,80,0,201,81,0,201,82,0,201,83,0,201,84,0,200,85,0,200,86,0,200,87,0,200,88,0,200*7A
$PAIRSAT,3,23,2,0,1021,3,0,1200,4,0,1200,5,0,200,7,0,1221,8,0,1200,9,0,1200,10,0,1200,11,0,1200,12,0,1200,13,0,1200,15,0,1221,19,0,1200,21,0,1200,24,0,1200,25,0,1200,26,0,1200,27,0,1221,30,0,1221,31,0,1200,33,0,1200,34,0,1221,36,0,1200*68
$PAIRSAT,4,46,1,0,200,2,0,200,3,0,600,4,0,200,5,0,200,6,0,201,7,0,201,8,0,200,9,0,201,10,0,201,11,0,201,12,0,201,13,0,200,14,0,200,16,0,201,19,0,600,20,0,600,21,0,600,22,0,600,23,0,621,24,0,621,25,0,621,26,0,600,27,0,600,28,0,600,29,0,600,30,0,600,32,0,600,33,0,600,34,0,621,35,0,600,36,0,600,37,0,600,38,0,600,39,0,621,40,0,621,41,0,600,42,0,600,43,0,621,44,0,421,45,0,400,46,0,400,59,0,400,60,0,400,61,0,400,62,0,400*4A
$PAIRDGP,6,2,4,7,9,16,21*4F
$GNGGA,041131.200,2500.8111000,N,12132.4783200,E,2,59,0.48,26.96,M,15.25,M,1,3335*7D
$GNRMC,041131.200,A,2500.8111000,N,12132.4783200,E,0.02,144.58,030324,,,D,V*04
$GPHDT,,T*1B
$GNACCURACY,4.0*12
$GNGGA,041131.300,2500.8111000,N,12132.4783200,E,2,59,0.48,26.96,M,15.25,M,1,3335*7C
$GNRMC,041131.300,A,2500.8111000,N,12132.4783200,E,0.02,144.58,030324,,,D,V*05
$GPHDT,,T*1B
$GNACCURACY,4.0*12
$GNGGA,041131.400,2500.8111000,N,12132.4783200,E,2,59,0.48,26.97,M,15.25,M,1,3335*7A
$GNRMC,041131.400,A,2500.8111000,N,12132.4783200,E,0.02,144.58,030324,,,D,V*02
$GPHDT,,T*1B
$GNACCURACY,4.0*12
$GNGGA,041131.500,2500.8111000,N,12132.4783200,E,2,59,0.48,26.97,M,15.25,M,1,3335*7B
$GNRMC,041131.500,A,2500.8111000,N,12132.4783200,E,0.02,144.58,030324,,,D,V*03
$GPHDT,,T*1B
$GNACCURACY,4.0*12
$GNGGA,041131.600,2500.8111000,N,12132.4783200,E,2,59,0.48,26.97,M,15.25,M,0,3335*79
$GNRMC,041131.600,A,2500.8111000,N,12132.4783200,E,0.02,144.58,030324,,,D,V*00
$GPHDT,,T*1B
$GNACCURACY,4.0*12
$GNGGA,041131.700,2500.8111000,N,12132.4783100,E,2,59,0.48,26.97,M,15.25,M,0,3335*7B
$GNRMC,041131.700,A,2500.8111000,N,12132.4783100,E,0.02,144.58,030324,,,D,V*02
$GPHDT,,T*1B
$GNACCURACY,4.0*12
$GNGGA,041131.800,2500.8111000,N,12132.4783100,E,2,59,0.48,26.98,M,15.25,M,0,3335*7B
$GNRMC,041131.800,A,2500.8111000,N,12132.4783100,E,0.02,144.58,030324,,,D,V*0D
$GPHDT,,T*1B
$GNACCURACY,4.0*12
$GNGGA,041131.900,2500.8111000,N,12132.4783100,E,2,59,0.48,26.98,M,15.25,M,0,3335*7A
$GNRMC,041131.900,A,2500.8111000,N,12132.4783100,E,0.01,144.58,030324,,,D,V*0F
$GPHDT,,T*1B
$GNACCURACY,4.0*12
$GNGGA,041132.000,2500.8111000,N,12132.4783000,E,2,58,0.48,26.98,M,15.25,M,1,3335*71
$GNRMC,041132.000,A,2500.8111000,N,12132.4783000,E,0.02,144.58,030324,,,D,V*07
$GPHDT,,T*1B
$GNACCURACY,4.0*12
$GNGGA,041132.100,2500.8111000,N,12132.4782900,E,2,58,0.48,26.98,M,15.25,M,1,3335*78
$GNRMC,041132.100,A,2500.8111000,N,12132.4782900,E,0.03,144.58,030324,,,D,V*0F
$GPHDT,,T*1B
$GNGSA,A,3,08,194,195,199,21,27,02,07,16,09,04,196,0.75,0.48,0.58,1*0D
$GNGSA,A,3,26,,,,,,,,,,,,0.75,0.48,0.58,1*06
$GNGSA,A,3,83,82,80,79,73,81,,,,,,,0.75,0.48,0.58,2*0B
$GNGSA,A,3,30,15,34,27,07,,,,,,,,0.75,0.48,0.58,3*02
$GNGSA,A,3,34,06,09,16,11,39,40,07,25,10,12,43,0.75,0.48,0.58,4*03
$GNGSA,A,3,24,44,23,,,,,,,,,,0.75,0.48,0.58,4*00
$GPGSV,4,1,15,08,69,333,38,194,63,049,43,195,61,119,28,199,60,167,35,1*51
$GPGSV,4,2,15,21,49,164,40,27,42,031,39,02,37,179,35,07,33,320,25,1*6A
$GPGSV,4,3,15,16,31,065,34,09,28,257,18,04,25,210,21,196,20,172,39,1*5D
$GPGSV,4,4,15,26,13,091,13,31,08,141,17,30,03,320,18,1*5C
$GPGSV,3,1,10,08,69,333,45,194,63,049,47,195,61,119,38,199,60,167,44,8*53
$GPGSV,3,2,10,27,42,031,36,09,28,257,28,04,25,210,23,196,20,172,40,8*5D
$GPGSV,3,3,10,26,13,091,23,30,03,320,18,8*6B
$GLGSV,2,1,06,83,65,178,22,82,62,042,42,80,50,019,38,79,32,093,22,1*7E
$GLGSV,2,2,06,73,16,325,25,81,15,028,33,1*79
$GAGSV,2,1,08,30,50,037,37,15,49,149,31,34,42,067,37,27,38,319,30,7*7B
$GAGSV,2,2,08,07,31,231,25,02,15,084,,13,12,192,,08,10,181,15,7*7D
$GAGSV,2,1,05,30,50,037,38,15,49,149,39,34,42,067,42,27,38,319,27,1*73
$GAGSV,2,2,05,07,31,231,30,1*46
$GBGSV,4,1,15,34,80,052,42,06,77,216,44,09,75,284,38,16,74,196,39,1*74
$GBGSV,4,2,15,11,73,200,37,39,63,182,25,40,63,322,27,07,61,301,39,1*7A
$GBGSV,4,3,15,25,61,348,43,10,51,283,29,12,48,041,34,43,47,216,33,1*76
$GBGSV,4,4,15,24,47,102,39,44,24,040,28,23,17,316,31,1*47
$GBGSV,2,1,06,34,80,052,43,39,63,182,21,40,63,322,30,25,61,348,42,4*76
$GBGSV,2,2,06,24,47,102,31,44,24,040,24,4*75
$GNACCURACY,4.0*12
$PAIRSAT,1,35,2,0,201,3,0,200,4,0,221,5,0,200,6,0,200,7,0,201,8,0,221,9,0,221,10,0,200,11,0,200,12,0,200,13,0,200,14,0,200,15,0,200,16,0,201,17,0,200,18,0,200,19,0,200,20,0,200,21,0,201,22,0,200,23,0,200,24,0,200,25,0,200,26,0,220,27,0,221,28,0,200,29,0,200,30,0,221,31,0,201,32,0,200,194,0,621,195,0,621,196,0,620,199,0,621*5A
$PAIRSAT,2,24,65,0,200,66,0,200,67,0,200,68,0,200,69,0,200,70,0,200,71,0,200,72,0,200,73,0,201,74,0,200,75,0,200,76,0,200,77,0,200,78,0,200,79,0,201,80,0,201,81,0,201,82,0,201,83,0,201,84,0,200,85,0,200,86,0,200,87,0,200,88,0,200*7A
$PAIRSAT,3,23,2,0,1021,3,0,1200,4,0,1200,5,0,200,7,0,1221,8,0,1200,9,0,1200,10,0,1200,11,0,1200,12,0,1200,13,0,1200,15,0,1221,19,0,1200,21,0,1200,24,0,1200,25,0,1200,26,0,1200,27,0,1221,30,0,1221,31,0,1200,33,0,1200,34,0,1221,36,0,1200*68
$PAIRSAT,4,46,1,0,200,2,0,200,3,0,600,4,0,200,5,0,200,6,0,201,7,0,201,8,0,200,9,0,201,10,0,201,11,0,201,12,0,201,13,0,200,14,0,200,16,0,201,19,0,600,20,0,600,21,0,600,22,0,600,23,0,621,24,0,621,25,0,621,26,0,600,27,0,600,28,0,600,29,0,600,30,0,600,32,0,600,33,0,600,34,0,621,35,0,600,36,0,600,37,0,600,38,0,600,39,0,621,40,0,621,41,0,600,42,0,600,43,0,621,44,0,421,45,0,400,46,0,400,59,0,400,60,0,400,61,0,400,62,0,400*4A
$PAIRDGP,6,2,4,7,9,16,21*4F
$GNGGA,041132.200,2500.8111000,N,12132.4782900,E,2,58,0.48,26.98,M,15.25,M,1,3335*7B
$GNRMC,041132.200,A,2500.8111000,N,12132.4782900,E,0.03,144.58,030324,,,D,V*0C
$GPHDT,,T*1B
$GNACCURACY,4.0*12
$GNGGA,041132.300,2500.8111000,N,12132.4782800,E,2,58,0.48,26.99,M,15.25,M,1,3335*7A
$GNRMC,041132.300,A,2500.8111000,N,12132.4782800,E,0.03,144.58,030324,,,D,V*0C
$GPHDT,,T*1B
$GNACCURACY,4.0*12
$GNGGA,041132.400,2500.8111000,N,12132.4782800,E,2,58,0.48,26.99,M,15.25,M,1,3335*7D
$GNRMC,041132.400,A,2500.8111000,N,12132.4782800,E,0.03,144.58,030324,,,D,V*0B
$GPHDT,,T*1B
$GNACCURACY,3.8*1D
$GNGGA,041132.500,2500.8111000,N,12132.4782800,E,2,58,0.48,26.99,M,15.25,M,1,3335*7C
$GNRMC,041132.500,A,2500.8111000,N,12132.4782800,E,0.02,144.58,030324,,,D,V*0B
$GPHDT,,T*1B
$GNACCURACY,3.9*1C
$GNGGA,041132.600,2500.8111000,N,12132.4782800,E,2,58,0.48,26.99,M,15.25,M,0,3335*7E
$GNRMC,041132.600,A,2500.8111000,N,12132.4782800,E,0.05,144.58,030324,,,D,V*0F
$GPHDT,,T*1B
$GNACCURACY,3.9*1C
$GNGGA,041132.700,2500.8111000,N,12132.4782800,E,2,58,0.48,26.99,M,15.25,M,0,3335*7F
$GNRMC,041132.700,A,2500.8111000,N,12132.4782800,E,0.04,144.58,030324,,,D,V*0F
$GPHDT,,T*1B
$GNACCURACY,3.9*1C
$GNGGA,041132.800,2500.8111000,N,12132.4782800,E,2,58,0.48,26.99,M,15.25,M,0,3335*70
$GNRMC,041132.800,A,2500.8111000,N,12132.4782800,E,0.05,144.58,030324,,,D,V*01
$GPHDT,,T*1B
$GNACCURACY,3.9*1C
$GNGGA,041132.900,2500.8111000,N,12132.4782900,E,2,58,0.48,26.99,M,15.25,M,0,3335*70
$GNRMC,041132.900,A,2500.8111000,N,12132.4782900,E,0.06,144.58,030324,,,D,V*02
$GPHDT,,T*1B
$GNACCURACY,3.9*1C
$GNGGA,041133.000,2500.8111000,N,12132.4782900,E,2,58,0.48,27.00,M,15.25,M,1,3335*78
$GNRMC,041133.000,A,2500.8111000,N,12132.4782900,E,0.04,144.58,030324,,,D,V*08
$GPHDT,,T*1B
$GNACCURACY,3.9*1C
$GNGGA,041133.100,2500.8111000,N,12132.4782900,E,2,58,0.48,27.00,M,15.25,M,1,3335*79
$GNRMC,041133.100,A,2500.8111000,N,12132.4782900,E,0.04,144.58,030324,,,D,V*09
$GPHDT,,T*1B
$GNGSA,A,3,08,194,195,199,21,27,02,07,16,09,04,196,0.74,0.47,0.57,1*0C
$GNGSA,A,3,26,,,,,,,,,,,,0.74,0.47,0.57,1*07
$GNGSA,A,3,83,82,80,79,73,81,,,,,,,0.74,0.47,0.57,2*0A
$GNGSA,A,3,30,15,34,27,07,02,,,,,,,0.74,0.47,0.57,3*01
$GNGSA,A,3,34,06,09,16,11,40,39,25,07,10,12,43,0.74,0.47,0.57,4*02
$GNGSA,A,3,24,44,23,,,,,,,,,,0.74,0.47,0.57,4*01
$GPGSV,4,1,16,08,69,333,38,194,63,049,43,195,61,119,28,199,60,167,35,1*52
$GPGSV,4,2,16,21,49,164,39,27,42,031,39,02,37,179,33,07,33,320,25,1*61
$GPGSV,4,3,16,16,31,065,34,09,28,257,22,04,25,210,21,196,20,172,39,1*57
$GPGSV,4,4,16,26,13,091,15,31,08,141,19,30,03,320,18,43,,,,1*50
$GPGSV,3,1,10,08,69,333,45,194,63,049,47,195,61,119,40,199,60,167,44,8*5C
$GPGSV,3,2,10,27,42,031,36,09,28,257,28,04,25,210,24,196,20,172,40,8*5A
$GPGSV,3,3,10,26,13,091,25,30,03,320,18,8*6D
$GLGSV,2,1,06,83,65,178,22,82,62,042,42,80,50,019,37,79,32,093,21,1*72
$GLGSV,2,2,06,73,16,325,27,81,15,028,33,1*7B
$GAGSV,2,1,07,30,50,037,37,15,50,148,32,34,42,067,37,27,38,319,29,7*76
$GAGSV,2,2,07,07,31,231,25,02,15,084,17,08,10,181,15,7*4F
$GAGSV,2,1,05,30,50,037,37,15,50,148,39,34,42,067,42,27,38,319,24,1*76
$GAGSV,2,2,05,07,31,231,30,1*46
$GBGSV,4,1,16,34,80,052,42,06,77,216,44,09,75,284,38,16,74,196,39,1*77
$GBGSV,4,2,16,11,73,200,37,40,63,322,27,39,63,182,26,25,61,348,43,1*7A
$GBGSV,4,3,16,07,61,301,39,10,51,283,28,12,48,041,34,43,47,216,33,1*74
$GBGSV,4,4,16,24,47,102,38,44,24,040,27,23,17,316,30,38,07,170,,1*71
$GBGSV,2,1,06,34,80,052,43,39,63,182,18,40,63,322,30,25,61,348,42,4*7C
$GBGSV,2,2,06,24,47,102,32,44,24,040,24,4*76
$GNACCURACY,3.9*1C
$PAIRSAT,1,35,2,0,201,3,0,200,4,0,221,5,0,200,6,0,200,7,0,201,8,0,221,9,0,221,10,0,200,11,0,200,12,0,200,13,0,200,14,0,200,15,0,200,16,0,201,17,0,200,18,0,200,19,0,200,20,0,200,21,0,201,22,0,200,23,0,200,24,0,200,25,0,200,26,0,220,27,0,221,28,0,200,29,0,200,30,0,221,31,0,201,32,0,200,194,0,621,195,0,621,196,0,620,199,0,621*5A
$PAIRSAT,2,24,65,0,200,66,0,200,67,0,200,68,0,200,69,0,200,70,0,200,71,0,200,72,0,200,73,0,201,74,0,200,75,0,200,76,0,200,77,0,200,78,0,200,79,0,201,80,0,201,81,0,201,82,0,201,83,0,201,84,0,200,85,0,200,86,0,200,87,0,200,88,0,200*7A
$PAIRSAT,3,23,2,0,1021,3,0,1200,4,0,1200,5,0,200,7,0,1221,8,0,1200,9,0,1200,10,0,1200,11,0,1200,12,0,1200,13,0,1200,15,0,1221,19,0,1200,21,0,1200,24,0,1200,25,0,1200,26,0,1200,27,0,1221,30,0,1221,31,0,1200,33,0,1200,34,0,1221,36,0,1200*68
$PAIRSAT,4,46,1,0,200,2,0,200,3,0,600,4,0,200,5,0,200,6,0,201,7,0,201,8,0,200,9,0,201,10,0,201,11,0,201,12,0,201,13,0,200,14,0,200,16,0,201,19,0,600,20,0,600,21,0,600,22,0,600,23,0,621,24,0,621,25,0,621,26,0,600,27,0,600,28,0,600,29,0,600,30,0,600,32,0,600,33,0,600,34,0,621,35,0,600,36,0,600,37,0,600,38,0,600,39,0,621,40,0,621,41,0,600,42,0,600,43,0,621,44,0,421,45,0,400,46,0,400,59,0,400,60,0,400,61,0,400,62,0,400*4A
$PAIRDGP,6,2,4,7,9,16,21*4F
$GNGGA,041133.200,2500.8111000,N,12132.4782900,E,2,59,0.47,27.00,M,15.25,M,1,3335*74
$GNRMC,041133.200,A,2500.8111000,N,12132.4782900,E,0.03,144.58,030324,,,D,V*0D
$GPHDT,,T*1B
$GNACCURACY,3.9*1C
$GNGGA,041133.300,2500.8111000,N,12132.4782900,E,2,59,0.47,27.00,M,15.25,M,1,3335*75
$GNRMC,041133.300,A,2500.8111000,N,12132.4782900,E,0.03,144.58,030324,,,D,V*0C
$GPHDT,,T*1B
$GNACCURACY,3.9*1C
$GNGGA,041133.400,2500.8111000,N,12132.4782900,E,2,59,0.47,27.00,M,15.25,M,1,3335*72
$GNRMC,041133.400,A,2500.8111000,N,12132.4782900,E,0.02,144.58,030324,,,D,V*0A
$GPHDT,,T*1B
$GNACCURACY,3.9*1C
$GNGGA,041133.500,2500.8111000,N,12132.4782800,E,2,59,0.47,27.00,M,15.25,M,0,3335*73
$GNRMC,041133.500,A,2500.8111000,N,12132.4782800,E,0.01,144.58,030324,,,D,V*09
$GPHDT,,T*1B
$GNACCURACY,3.9*1C
$GNGGA,041133.600,2500.8111000,N,12132.4782800,E,2,59,0.47,27.00,M,15.25,M,0,3335*70
$GNRMC,041133.600,A,2500.8111000,N,12132.4782800,E,0.01,144.58,030324,,,D,V*0A
$GPHDT,,T*1B
$GNACCURACY,3.9*1C
$GNGGA,041133.700,2500.8111000,N,12132.4782800,E,2,59,0.47,27.00,M,15.25,M,0,3335*71
$GNRMC,041133.700,A,2500.8111000,N,12132.4782800,E,0.00,144.58,030324,,,D,V*0A
$GPHDT,,T*1B
$GNACCURACY,3.9*1C
$GNGGA,041133.800,2500.8111000,N,12132.4782800,E,2,59,0.47,27.00,M,15.25,M,0,3335*7E
$GNRMC,041133.800,A,2500.8111000,N,12132.4782800,E,0.00,144.58,030324,,,D,V*05
$GPHDT,,T*1B
$GNACCURACY,3.9*1C
$GNGGA,041133.900,2500.8111000,N,12132.4782800,E,2,59,0.47,27.00,M,15.25,M,0,3335*7F
$GNRMC,041133.900,A,2500.8111000,N,12132.4782800,E,0.01,144.58,030324,,,D,V*05
$GPHDT,,T*1B
$GNACCURACY,3.9*1C
$GNGGA,041134.000,2500.8111000,N,12132.4782800,E,2,59,0.47,27.00,M,15.25,M,1,3335*70
$GNRMC,041134.000,A,2500.8111000,N,12132.4782800,E,0.00,144.58,030324,,,D,V*0A
$GPHDT,,T*1B
$GNACCURACY,3.9*1C
$GNGGA,041134.100,2500.8111000,N,12132.4782800,E,2,58,0.47,27.00,M,15.25,M,1,3335*70
$GNRMC,041134.100,A,2500.8111000,N,12132.4782800,E,0.00,144.58,030324,,,D,V*0B
$GPHDT,,T*1B
$GNGSA,A,3,08,194,195,199,21,27,02,16,09,04,196,26,0.84,0.47,0.69,1*0D
$GNGSA,A,3,83,82,80,79,73,81,,,,,,,0.84,0.47,0.69,2*08
$GNGSA,A,3,15,30,34,27,07,02,,,,,,,0.84,0.47,0.69,3*03
$GNGSA,A,3,34,06,09,16,11,40,39,07,25,10,12,24,0.84,0.47,0.69,4*01
$GNGSA,A,3,43,44,23,,,,,,,,,,0.84,0.47,0.69,4*02
$GPGSV,4,1,16,08,69,333,39,194,63,049,43,195,61,119,31,199,60,167,36,1*58
$GPGSV,4,2,16,21,49,164,39,27,42,031,39,02,37,179,33,07,33,320,24,1*60
$GPGSV,4,3,16,16,31,065,34,09,28,257,22,04,25,210,21,196,20,172,39,1*57
$GPGSV,4,4,16,26,13,091,15,31,08,141,18,30,03,320,17,43,,,,1*5E
$GPGSV,3,1,10,08,69,333,45,194,63,049,47,195,61,119,40,199,60,167,44,8*5C
$GPGSV,3,2,10,27,42,031,36,09,28,257,28,04,25,210,20,196,20,172,41,8*5F
$GPGSV,3,3,10,26,13,091,25,30,03,320,19,8*6C
$GLGSV,3,1,09,83,65,178,24,82,62,042,42,80,50,019,37,79,32,093,20,1*7B
$GLGSV,3,2,09,73,16,325,26,81,15,028,34,70,07,252,,71,05,298,,1*76
$GLGSV,3,3,09,84,04,200,,1*4B
$GAGSV,2,1,08,15,50,148,31,30,50,037,36,34,42,067,37,27,38,319,29,7*7B
$GAGSV,2,2,08,07,31,231,25,02,15,084,16,13,12,192,,08,10,181,13,7*7C
$GAGSV,2,1,05,30,50,037,37,15,50,148,39,34,42,067,42,27,38,319,26,1*74
$GAGSV,2,2,05,07,31,231,30,1*46
$GBGSV,4,1,15,34,80,052,42,06,77,216,44,09,75,284,38,16,74,196,40,1*7A
$GBGSV,4,2,15,11,73,200,37,40,63,322,29,39,63,182,28,07,61,301,39,1*79
$GBGSV,4,3,15,25,61,348,43,10,51,283,30,12,48,041,35,24,47,102,36,1*7D
$GBGSV,4,4,15,43,47,216,33,44,24,040,26,23,17,316,28,1*4C
$GBGSV,2,1,06,34,80,052,43,39,63,182,26,40,63,322,32,25,61,348,42,4*73
$GBGSV,2,2,06,24,47,102,32,44,24,040,24,4*76
$GNACCURACY,3.9*1C
$PAIRSAT,1,35,2,0,201,3,0,200,4,0,221,5,0,200,6,0,200,7,0,201,8,0,221,9,0,221,10,0,200,11,0,200,12,0,200,13,0,200,14,0,200,15,0,200,16,0,201,17,0,200,18,0,200,19,0,200,20,0,200,21,0,201,22,0,200,23,0,200,24,0,200,25,0,200,26,0,220,27,0,221,28,0,200,29,0,200,30,0,221,31,0,201,32,0,200,194,0,621,195,0,621,196,0,620,199,0,621*5A
$PAIRSAT,2,24,65,0,200,66,0,200,67,0,200,68,0,200,69,0,200,70,0,200,71,0,200,72,0,200,73,0,201,74,0,200,75,0,200,76,0,200,77,0,200,78,0,200,79,0,201,80,0,201,81,0,201,82,0,201,83,0,201,84,0,200,85,0,200,86,0,200,87,0,200,88,0,200*7A
$PAIRSAT,3,23,2,0,1021,3,0,1200,4,0,1200,5,0,200,7,0,1221,8,0,1200,9,0,1200,10,0,1200,11,0,1200,12,0,1200,13,0,1200,15,0,1221,19,0,1200,21,0,1200,24,0,1200,25,0,1200,26,0,1200,27,0,1221,30,0,1221,31,0,1200,33,0,1200,34,0,1221,36,0,1200*68
$PAIRSAT,4,46,1,0,200,2,0,200,3,0,600,4,0,200,5,0,200,6,0,201,7,0,201,8,0,200,9,0,201,10,0,201,11,0,201,12,0,201,13,0,200,14,0,200,16,0,201,19,0,600,20,0,600,21,0,600,22,0,600,23,0,621,24,0,621,25,0,621,26,0,600,27,0,600,28,0,600,29,0,600,30,0,600,32,0,600,33,0,600,34,0,621,35,0,600,36,0,600,37,0,600,38,0,600,39,0,621,40,0,621,41,0,600,42,0,600,43,0,621,44,0,421,45,0,400,46,0,400,59,0,400,60,0,400,61,0,400,62,0,400*4A
$PAIRDGP,6,2,4,7,9,16,21*4F
$GNGGA,041134.200,2500.8111000,N,12132.4782800,E,2,58,0.47,27.00,M,15.25,M,1,3335*73
$GNRMC,041134.200,A,2500.8111000,N,12132.4782800,E,0.00,144.58,030324,,,D,V*08
$GPHDT,,T*1B
$GNACCURACY,3.9*1C
$GNGGA,041134.300,2500.8111100,N,12132.4782800,E,2,58,0.47,27.00,M,15.25,M,1,3335*73
$GNRMC,041134.300,A,2500.8111100,N,12132.4782800,E,0.00,144.58,030324,,,D,V*08
$GPHDT,,T*1B
$GNACCURACY,3.9*1C
$GNGGA,041134.400,2500.8111100,N,12132.4782800,E,2,58,0.47,27.00,M,15.25,M,1,3335*74
$GNRMC,041134.400,A,2500.8111100,N,12132.4782800,E,0.00,144.58,030324,,,D,V*0F
$GPHDT,,T*1B
$GNACCURACY,3.9*1C
$GNGGA,041134.500,2500.8111100,N,12132.4782800,E,2,58,0.47,27.00,M,15.25,M,0,3335*74
$GNRMC,041134.500,A,2500.8111100,N,12132.4782800,E,0.00,144.58,030324,,,D,V*0E
$GPHDT,,T*1B
$GNACCURACY,3.9*1C
$GNGGA,041134.600,2500.8111100,N,12132.4782800,E,2,59,0.47,27.00,M,15.25,M,0,3335*76
$GNRMC,041134.600,A,2500.8111100,N,12132.4782800,E,0.00,144.58,030324,,,D,V*0D
$GPHDT,,T*1B
$GNACCURACY,3.9*1C
$GNGGA,041134.700,2500.8111000,N,12132.4782800,E,2,59,0.47,27.01,M,15.25,M,0,3335*77
$GNRMC,041134.700,A,2500.8111000,N,12132.4782800,E,0.00,144.58,030324,,,D,V*0D
$GPHDT,,T*1B
$GNACCURACY,3.9*1C
$GNGGA,041134.800,2500.8111000,N,12132.4782800,E,2,59,0.47,27.01,M,15.25,M,0,3335*78
$GNRMC,041134.800,A,2500.8111000,N,12132.4782800,E,0.00,144.58,030324,,,D,V*02
$GPHDT,,T*1B
$GNACCURACY,3.9*1C
$GNGGA,041134.900,2500.8111100,N,12132.4782800,E,2,60,0.47,27.01,M,15.25,M,0,3335*72
$GNRMC,041134.900,A,2500.8111100,N,12132.4782800,E,0.00,144.58,030324,,,D,V*02
$GPHDT,,T*1B
$GNACCURACY,3.9*1C
$GNGGA,041135.000,2500.8111100,N,12132.4782800,E,2,60,0.47,27.01,M,15.25,M,1,3335*7B
$GNRMC,041135.000,A,2500.8111100,N,12132.4782800,E,0.00,144.58,030324,,,D,V*0A
$GPHDT,,T*1B
$GNACCURACY,3.9*1C
$GNGGA,041135.100,2500.8111000,N,12132.4782900,E,2,59,0.47,27.01,M,15.25,M,1,3335*70
$GNRMC,041135.100,A,2500.8111000,N,12132.4782900,E,0.00,144.58,030324,,,D,V*0B
$GPHDT,,T*1B
$GNGSA,A,3,08,194,195,199,21,27,02,07,16,09,196,04,0.83,0.47,0.69,1*09
$GNGSA,A,3,26,,,,,,,,,,,,0.83,0.47,0.69,1*02
$GNGSA,A,3,83,82,80,79,73,81,,,,,,,0.83,0.47,0.69,2*0F
$GNGSA,A,3,30,15,34,27,07,02,,,,,,,0.83,0.47,0.69,3*04
$GNGSA,A,3,34,06,09,16,11,40,39,07,25,10,12,43,0.83,0.47,0.69,4*07
$GNGSA,A,3,24,44,23,,,,,,,,,,0.83,0.47,0.69,4*04
$GPGSV,4,1,16,08,69,333,39,194,63,049,43,195,61,119,32,199,60,167,36,1*5B
$GPGSV,4,2,16,21,49,164,37,27,42,031,38,02,37,179,32,07,33,320,27,1*6D
$GPGSV,4,3,16,16,31,065,35,09,28,257,20,04,25,210,18,196,20,172,39,1*5E
$GPGSV,4,4,16,26,13,091,15,31,08,141,18,30,03,320,17,43,,,,1*5E
$GPGSV,3,1,10,08,69,333,45,194,63,049,47,195,61,119,40,199,60,167,44,8*5C
$GPGSV,3,2,10,27,42,031,36,09,28,257,28,04,25,210,23,196,20,172,41,8*5C
$GPGSV,3,3,10,26,13,091,23,30,03,320,19,8*6A
$GLGSV,2,1,06,83,65,178,24,82,62,042,41,80,50,019,38,79,32,093,21,1*78
$GLGSV,2,2,06,73,16,325,25,81,15,028,35,1*7F
$GAGSV,3,1,09,30,50,037,37,15,50,148,33,34,42,067,37,27,38,319,29,7*78
$GAGSV,3,2,09,07,31,231,27,02,15,084,15,13,12,192,,08,10,181,13,7*7D
$GAGSV,3,3,09,36,03,034,,7*4B
$GAGSV,2,1,05,30,50,037,37,15,50,148,40,34,42,067,43,27,38,319,24,1*79
$GAGSV,2,2,05,07,31,231,31,1*47
$GBGSV,4,1,15,34,80,052,42,06,77,216,44,09,75,284,38,16,74,196,40,1*7A
$GBGSV,4,2,15,11,73,200,37,40,63,322,31,39,63,182,23,07,61,301,39,1*7B
$GBGSV,4,3,15,25,61,348,42,10,51,283,30,12,48,041,36,43,47,216,31,1*7F
$GBGSV,4,4,15,24,47,102,39,44,24,040,25,23,17,316,25,1*4F
$GBGSV,2,1,07,34,80,052,43,39,63,182,25,40,63,322,32,25,61,348,42,4*71
$GBGSV,2,2,07,24,47,102,32,44,24,040,25,23,17,316,17,4*43
$GNACCURACY,3.9*1C
$PAIRSAT,1,35,2,0,201,3,0,200,4,0,221,5,0,200,6,0,200,7,0,201,8,0,221,9,0,221,10,0,200,11,0,200,12,0,200,13,0,200,14,0,200,15,0,200,16,0,201,17,0,200,18,0,200,19,0,200,20,0,200,21,0,201,22,0,200,23,0,200,24,0,200,25,0,200,26,0,220,27,0,221,28,0,200,29,0,200,30,0,221,31,0,201,32,0,200,194,0,621,195,0,621,196,0,620,199,0,621*5A
$PAIRSAT,2,24,65,0,200,66,0,200,67,0,200,68,0,200,69,0,200,70,0,200,71,0,200,72,0,200,73,0,201,74,0,200,75,0,200,76,0,200,77,0,200,78,0,200,79,0,201,80,0,201,81,0,201,82,0,201,83,0,201,84,0,200,85,0,200,86,0,200,87,0,200,88,0,200*7A
$PAIRSAT,3,23,2,0,1021,3,0,1200,4,0,1200,5,0,200,7,0,1221,8,0,1200,9,0,1200,10,0,1200,11,0,1200,12,0,1200,13,0,1200,15,0,1221,19,0,1200,21,0,1200,24,0,1200,25,0,1200,26,0,1200,27,0,1221,30,0,1221,31,0,1200,33,0,1200,34,0,1221,36,0,1200*68
$PAIRSAT,4,46,1,0,200,2,0,200,3,0,600,4,0,200,5,0,200,6,0,201,7,0,201,8,0,200,9,0,201,10,0,201,11,0,201,12,0,201,13,0,200,14,0,200,16,0,201,19,0,600,20,0,600,21,0,600,22,0,600,23,0,621,24,0,621,25,0,621,26,0,600,27,0,600,28,0,600,29,0,600,30,0,600,32,0,600,33,0,600,34,0,621,35,0,600,36,0,600,37,0,600,38,0,600,39,0,621,40,0,621,41,0,600,42,0,600,43,0,621,44,0,421,45,0,400,46,0,400,59,0,400,60,0,400,61,0,400,62,0,400*4A
$PAIRDGP,6,2,4,7,9,16,21*4F
$GNGGA,041135.200,2500.8111000,N,12132.4782900,E,2,59,0.47,27.01,M,15.25,M,1,3335*73
$GNRMC,041135.200,A,2500.8111000,N,12132.4782900,E,0.00,144.58,030324,,,D,V*08
$GPHDT,,T*1B
$GNACCURACY,3.9*1C
$GNGGA,041135.300,2500.8111000,N,12132.4782900,E,2,59,0.47,27.01,M,15.25,M,1,3335*72
$GNRMC,041135.300,A,2500.8111000,N,12132.4782900,E,0.00,144.58,030324,,,D,V*09
$GPHDT,,T*1B
$GNACCURACY,3.9*1C
$GNGGA,041135.400,2500.8111000,N,12132.4782900,E,2,59,0.47,27.02,M,15.25,M,1,3335*76
$GNRMC,041135.400,A,2500.8111000,N,12132.4782900,E,0.00,144.58,030324,,,D,V*0E
$GPHDT,,T*1B
$GNACCURACY,3.9*1C
$GNGGA,041135.500,2500.8111000,N,12132.4783000,E,2,59,0.47,27.02,M,15.25,M,0,3335*7E
$GNRMC,041135.500,A,2500.8111000,N,12132.4783000,E,0.00,144.58,030324,,,D,V*07
$GPHDT,,T*1B
$GNACCURACY,3.9*1C
$GNGGA,041135.600,2500.8111000,N,12132.4783000,E,2,59,0.47,27.02,M,15.25,M,0,3335*7D
$GNRMC,041135.600,A,2500.8111000,N,12132.4783000,E,0.00,144.58,030324,,,D,V*04
$GPHDT,,T*1B
$GNACCURACY,3.9*1C
$GNGGA,041135.700,2500.8111000,N,12132.4783000,E,2,59,0.47,27.02,M,15.25,M,0,3335*7C
$GNRMC,041135.700,A,2500.8111000,N,12132.4783000,E,0.00,144.58,030324,,,D,V*05
$GPHDT,,T*1B
$GNACCURACY,3.9*1C
$GNGGA,041135.800,2500.8111000,N,12132.4783000,E,2,59,0.47,27.02,M,15.25,M,0,3335*73
$GNRMC,041135.800,A,2500.8111000,N,12132.4783000,E,0.00,144.58,030324,,,D,V*0A
$GPHDT,,T*1B
$GNACCURACY,3.9*1C
$GNGGA,041135.900,2500.8111000,N,12132.4783100,E,2,59,0.47,27.02,M,15.25,M,0,3335*73
$GNRMC,041135.900,A,2500.8111000,N,12132.4783100,E,0.00,144.58,030324,,,D,V*0A
$GPHDT,,T*1B
$GNACCURACY,3.9*1C
$GNGGA,041136.000,2500.8111000,N,12132.4783100,E,2,59,0.47,27.02,M,15.25,M,1,3335*78
$GNRMC,041136.000,A,2500.8111000,N,12132.4783100,E,0.00,144.58,030324,,,D,V*00
$GPHDT,,T*1B
$GNACCURACY,3.9*1C
$GNGGA,041136.100,2500.8111000,N,12132.4783100,E,2,59,0.47,27.03,M,15.25,M,1,3335*78
$GNRMC,041136.100,A,2500.8111000,N,12132.4783100,E,0.00,144.58,030324,,,D,V*01
$GPHDT,,T*1B
$GNGSA,A,3,08,194,195,199,21,27,02,07,16,09,04,196,0.83,0.47,0.69,1*09
$GNGSA,A,3,26,,,,,,,,,,,,0.83,0.47,0.69,1*02
$GNGSA,A,3,83,82,80,79,73,81,,,,,,,0.83,0.47,0.69,2*0F
$GNGSA,A,3,30,15,34,27,07,02,,,,,,,0.83,0.47,0.69,3*04
$GNGSA,A,3,34,06,09,16,11,40,39,07,25,10,12,43,0.83,0.47,0.69,4*07
$GNGSA,A,3,24,44,23,,,,,,,,,,0.83,0.47,0.69,4*04
$GPGSV,4,1,16,08,69,333,37,194,63,049,43,195,61,119,33,199,60,167,36,1*54
$GPGSV,4,2,16,21,49,164,38,27,42,031,37,02,37,179,34,07,33,320,23,1*6F
$GPGSV,4,3,16,16,31,065,34,09,28,257,19,04,25,210,17,196,20,172,39,1*5A
$GPGSV,4,4,16,26,13,091,16,31,08,141,18,30,03,320,17,43,,,38,1*56
$GPGSV,3,1,10,08,69,333,45,194,63,049,47,195,61,119,37,199,60,167,43,8*5B
$GPGSV,3,2,10,27,42,031,37,09,28,257,28,04,25,210,23,196,20,172,40,8*5C
$GPGSV,3,3,10,26,13,091,24,30,03,320,21,8*66
$GLGSV,2,1,06,83,65,178,24,82,62,042,42,80,50,019,38,79,32,093,17,1*7E
$GLGSV,2,2,06,73,16,325,25,81,15,028,35,1*7F
$GAGSV,3,1,09,30,50,037,39,15,50,148,32,34,42,067,36,27,38,319,31,7*7F
$GAGSV,3,2,09,07,31,231,27,02,15,084,15,13,12,192,,08,10,181,11,7*7F
$GAGSV,3,3,09,36,03,034,,7*4B
$GAGSV,1,1,04,30,50,037,37,15,50,148,40,34,42,067,43,27,38,319,27,1*78
$GBGSV,4,1,15,34,80,052,42,06,77,216,44,09,75,284,38,16,74,196,40,1*7A
$GBGSV,4,2,15,11,73,200,36,40,63,322,26,39,63,182,28,07,61,301,38,1*76
$GBGSV,4,3,15,25,61,348,40,10,51,283,30,12,48,041,35,43,47,216,32,1*7D
$GBGSV,4,4,15,24,47,102,40,44,24,040,28,23,17,316,29,1*40
$GBGSV,2,1,07,34,80,052,43,39,63,182,22,40,63,322,26,25,61,348,42,4*73
$GBGSV,2,2,07,24,47,102,31,44,24,040,24,23,17,316,23,4*46
$GNACCURACY,3.9*1C
$PAIRSAT,1,35,2,0,201,3,0,200,4,0,221,5,0,200,6,0,200,7,0,201,8,0,221,9,0,221,10,0,200,11,0,200,12,0,200,13,0,200,14,0,200,15,0,200,16,0,201,17,0,200,18,0,200,19,0,200,20,0,200,21,0,201,22,0,200,23,0,200,24,0,200,25,0,200,26,0,220,27,0,221,28,0,200,29,0,200,30,0,221,31,0,201,32,0,200,194,0,621,195,0,621,196,0,620,199,0,621*5A
$PAIRSAT,2,24,65,0,200,66,0,200,67,0,200,68,0,200,69,0,200,70,0,200,71,0,200,72,0,200,73,0,201,74,0,200,75,0,200,76,0,200,77,0,200,78,0,200,79,0,201,80,0,201,81,0,201,82,0,201,83,0,201,84,0,200,85,0,200,86,0,200,87,0,200,88,0,200*7A
$PAIRSAT,3,23,2,0,1021,3,0,1200,4,0,1200,5,0,200,7,0,1221,8,0,1200,9,0,1200,10,0,1200,11,0,1200,12,0,1200,13,0,1200,15,0,1221,19,0,1200,21,0,1200,24,0,1200,25,0,1200,26,0,1200,27,0,1221,30,0,1221,31,0,1200,33,0,1200,34,0,1221,36,0,1200*68
$PAIRSAT,4,46,1,0,200,2,0,200,3,0,600,4,0,200,5,0,200,6,0,201,7,0,201,8,0,200,9,0,201,10,0,201,11,0,201,12,0,201,13,0,200,14,0,200,16,0,201,19,0,600,20,0,600,21,0,600,22,0,600,23,0,621,24,0,621,25,0,621,26,0,600,27,0,600,28,0,600,29,0,600,30,0,600,32,0,600,33,0,600,34,0,621,35,0,600,36,0,600,37,0,600,38,0,600,39,0,621,40,0,621,41,0,600,42,0,600,43,0,621,44,0,421,45,0,400,46,0,400,59,0,400,60,0,400,61,0,400,62,0,400*4A
$PAIRDGP,6,2,4,7,9,16,21*4F
$GNGGA,041136.200,2500.8111000,N,12132.4783100,E,2,59,0.47,27.03,M,15.25,M,1,3335*7B
$GNRMC,041136.200,A,2500.8111000,N,12132.4783100,E,0.00,144.58,030324,,,D,V*02
$GPHDT,,T*1B
$GNACCURACY,3.9*1C
$GNGGA,041136.300,2500.8111000,N,12132.4783100,E,2,59,0.47,27.03,M,15.25,M,1,3335*7A
$GNRMC,041136.300,A,2500.8111000,N,12132.4783100,E,0.00,144.58,030324,,,D,V*03
$GPHDT,,T*1B
$GNACCURACY,3.9*1C
$GNGGA,041136.400,2500.8111000,N,12132.4783100,E,2,59,0.47,27.03,M,15.25,M,0,3335*7C
$GNRMC,041136.400,A,2500.8111000,N,12132.4783100,E,0.00,144.58,030324,,,D,V*04
$GPHDT,,T*1B
$GNACCURACY,3.9*1C
$GNGGA,041136.500,2500.8111000,N,12132.4783100,E,2,59,0.47,27.04,M,15.25,M,0,3335*7A
$GNRMC,041136.500,A,2500.8111000,N,12132.4783100,E,0.00,144.58,030324,,,D,V*05
$GPHDT,,T*1B
$GNACCURACY,3.9*1C
$GNGGA,041136.600,2500.8111000,N,12132.4783100,E,2,59,0.47,27.04,M,15.25,M,0,3335*79
$GNRMC,041136.600,A,2500.8111000,N,12132.4783100,E,0.00,144.58,030324,,,D,V*06
$GPHDT,,T*1B
$GNACCURACY,3.9*1C
$GNGGA,041136.700,2500.8111000,N,12132.4783100,E,2,58,0.47,27.04,M,15.25,M,0,3335*79
$GNRMC,041136.700,A,2500.8111000,N,12132.4783100,E,0.01,144.58,030324,,,D,V*06
$GPHDT,,T*1B
$GNACCURACY,3.9*1C
$GNGGA,041136.800,2500.8110900,N,12132.4783200,E,2,59,0.47,27.04,M,15.25,M,0,3335*7C
$GNRMC,041136.800,A,2500.8110900,N,12132.4783200,E,0.01,144.58,030324,,,D,V*02
$GPHDT,,T*1B
$GNACCURACY,3.9*1C
$GNGGA,041136.900,2500.8110900,N,12132.4783200,E,2,59,0.47,27.05,M,15.25,M,0,3335*7C
$GNRMC,041136.900,A,2500.8110900,N,12132.4783200,E,0.01,144.58,030324,,,D,V*03
$GPHDT,,T*1B
