$FW : RTK35X,V1.1X0314AS,Lib20210517,1*54
$Tool : LOCOSYS , GNSS Firebird , v1.0.0.19*39
$---------------------------------------------------*2D
A
$GAGSV,2,2,05,27,,,30,7*70
$GAGSV,2,1,05,30,50,030,40,15,45,152,40,34,43,074,33,07,35,235,42,1*75
$GAGSV,2,2,05,27,,,42,1*73
$GBGSV,3,1,12,34,83,087,43,06,80,219,37,09,75,294,44,39,66,179,43,1*75
$GBGSV,3,2,12,40,65,318,40,07,62,297,26,25,57,344,40,12,52,044,39,1*7A
$GBGSV,3,3,12,24,50,094,43,43,42,212,41,44,29,041,33,11,,,39,1*4D
$GBGSV,2,1,06,34,83,087,45,39,66,179,43,40,65,318,36,25,57,344,33,4*78
$GBGSV,2,2,06,24,50,094,44,44,29,041,25,4*72
$GNACCURACY,5.7*14
$PAIRSAT,1,16,2,0,201,3,0,200,4,0,221,7,0,1,8,0,21,16,0,1,21,0,1,24,0,200,25,0,200,26,0,200,27,0,221,31,0,1,194,0,21,195,0,21,196,0,420,199,0,21*4D
$PAIRSAT,2,10,72,0,200,75,0,200,76,0,200,77,0,200,78,0,200,80,0,201,81,0,200,82,0,201,83,0,201,84,0,200*7B
$PAIRSAT,3,6,7,0,1021,12,0,200,13,0,200,15,0,221,30,0,21,34,0,1021*4D
$PAIRSAT,4,36,3,0,400,6,0,1,7,0,1,9,0,1,12,0,1,19,0,600,20,0,600,21,0,600,22,0,600,23,0,600,24,0,421,25,0,421,26,0,400,27,0,400,28,0,400,29,0,400,30,0,400,32,0,400,33,0,400,34,0,421,35,0,400,36,0,400,37,0,400,38,0,400,39,0,421,40,0,421,41,0,400,42,0,400,43,0,421,44,0,421,45,0,400,46,0,400,59,0,400,60,0,400,61,0,400,62,0,400*74
$PAIRDGP,0*45
$GNGGA,035931.200,2500.7997608,N,12132.4862283,E,4,45,0.72,16.725,M,15.25,M,1,3335*44
$GNRMC,035931.200,A,2500.7997608,N,12132.4862283,E,0.02,133.34,030324,,,R,V*1F
$GPHDT,354.956,T*3D
$GNACCURACY,5.8*1B
$GNGGA,035931.300,2500.7997587,N,12132.4862297,E,4,45,0.72,16.727,M,15.25,M,1,3335*46
$GNRMC,035931.300,A,2500.7997587,N,12132.4862297,E,0.01,133.34,030324,,,R,V*1C
$GPHDT,,T*1B
$GNACCURACY,5.8*1B
$GNGGA,035931.400,2500.7997585,N,12132.4862305,E,4,45,0.72,16.728,M,15.25,M,1,3335*46
$GNRMC,035931.400,A,2500.7997585,N,12132.4862305,E,0.02,133.34,030324,,,R,V*10
$GPHDT,354.829,T*34
$GNACCURACY,5.8*1B
$GNGGA,035931.500,2500.7997580,N,12132.4862288,E,4,46,0.71,16.732,M,15.25,M,1,3335*4D
$GNRMC,035931.500,A,2500.7997580,N,12132.4862288,E,0.01,133.34,030324,,,R,V*13
$GPHDT,,T*1B
$GNACCURACY,5.8*1B
$GNGGA,035931.600,2500.7997592,N,12132.4862297,E,4,46,0.71,16.728,M,15.25,M,0,3335*49
$GNRMC,035931.600,A,2500.7997592,N,12132.4862297,E,0.01,133.34,030324,,,R,V*1D
$GPHDT,354.318,T*3D
$GNACCURACY,5.8*1B
$GNGGA,035931.700,2500.7997588,N,12132.4862262,E,4,46,0.71,16.730,M,15.25,M,0,3335*40
$GNRMC,035931.700,A,2500.7997588,N,12132.4862262,E,0.01,133.34,030324,,,R,V*1D
$GPHDT,,T*1B
$GNACCURACY,5.8*1B
$GNGGA,035931.800,2500.7997588,N,12132.4862306,E,4,46,0.71,16.737,M,15.25,M,0,3335*4B
$GNRMC,035931.800,A,2500.7997588,N,12132.4862306,E,0.14,133.34,030324,,,R,V*15
$GPHDT,354.631,T*33
$GNACCURACY,5.8*1B
$GNGGA,035931.900,2500.7997576,N,12132.4862312,E,4,46,0.71,16.736,M,15.25,M,0,3335*4F
$GNRMC,035931.900,A,2500.7997576,N,12132.4862312,E,0.11,133.34,030324,,,R,V*15
$GPHDT,,T*1B
$GNACCURACY,5.8*1B
$GNGGA,035932.000,2500.7997579,N,12132.4862279,E,4,46,0.71,16.741,M,15.25,M,1,3335*47
$GNRMC,035932.000,A,2500.7997579,N,12132.4862279,E,0.07,133.34,030324,,,R,V*1B
$GPHDT,354.622,T*31
$GNACCURACY,5.7*14
$GNGGA,035932.100,2500.7997578,N,12132.4862305,E,4,45,0.71,16.739,M,15.25,M,1,3335*41
$GNRMC,035932.100,A,2500.7997578,N,12132.4862305,E,0.01,133.34,030324,,,R,V*17
$GPHDT,,T*1B
$GNGSA,A,3,08,194,199,195,27,21,16,02,04,196,31,,1.32,0.71,1.12,1*06
$GNGSA,A,3,82,83,80,,,,,,,,,,1.32,0.71,1.12,2*0F
$GNGSA,A,3,30,15,34,07,,,,,,,,,1.32,0.71,1.12,3*00
$GNGSA,A,3,34,06,09,39,40,07,25,12,24,43,44,,1.32,0.71,1.12,4*04
$GPGSV,4,1,14,08,71,316,45,194,63,047,41,50,60,167,40,199,60,167,37,1*64
$GPGSV,4,2,14,195,59,122,42,27,47,028,36,21,43,167,34,16,33,059,24,1*56
$GPGSV,4,3,14,02,31,180,36,04,29,214,36,07,28,320,14,196,21,173,28,1*5C
$GPGSV,4,4,14,26,16,086,18,31,12,139,37,1*6B
$GPGSV,2,1,07,08,71,316,46,194,63,047,41,199,60,167,45,195,59,122,44,8*58
$GPGSV,2,2,07,27,47,028,38,04,29,214,36,196,21,173,26,8*6C
$GLGSV,1,1,03,82,67,055,43,83,57,178,31,80,47,011,34,1*4E
$GAGSV,2,1,05,30,50,030,37,15,45,152,41,34,43,074,28,07,35,235,41,7*7B
$GAGSV,2,2,05,27,,,29,7*78
$GAGSV,2,1,05,30,50,030,40,15,45,152,40,34,43,074,33,07,35,235,43,1*74
$GAGSV,2,2,05,27,,,42,1*73
$GBGSV,3,1,12,34,83,086,43,06,80,219,37,09,75,294,44,39,66,179,43,1*74
$GBGSV,3,2,12,40,65,318,41,07,62,297,27,25,57,344,40,12,52,044,39,1*7A
$GBGSV,3,3,12,24,50,094,43,43,42,212,41,44,29,041,33,11,,,39,1*4D
$GBGSV,2,1,07,34,83,086,45,39,66,179,43,40,65,318,36,25,57,344,32,4*79
$GBGSV,2,2,07,24,50,094,44,43,42,212,39,44,29,041,26,4*4A
$GNACCURACY,5.7*14
$PAIRSAT,1,16,2,0,201,3,0,200,4,0,221,7,0,1,8,0,21,16,0,1,21,0,1,24,0,200,25,0,200,26,0,200,27,0,221,31,0,1,194,0,21,195,0,21,196,0,420,199,0,21*4D
$PAIRSAT,2,10,72,0,200,75,0,200,76,0,200,77,0,200,78,0,200,80,0,201,81,0,200,82,0,201,83,0,201,84,0,200*7B
$PAIRSAT,3,6,7,0,1021,12,0,200,13,0,200,15,0,221,30,0,21,34,0,1021*4D
$PAIRSAT,4,36,3,0,400,6,0,1,7,0,1,9,0,1,12,0,1,19,0,600,20,0,600,21,0,600,22,0,600,23,0,600,24,0,421,25,0,421,26,0,400,27,0,400,28,0,400,29,0,400,30,0,400,32,0,400,33,0,400,34,0,421,35,0,400,36,0,400,37,0,400,38,0,400,39,0,421,40,0,421,41,0,400,42,0,400,43,0,421,44,0,421,45,0,400,46,0,400,59,0,400,60,0,400,61,0,400,62,0,400*74
$PAIRDGP,0*45
$GNGGA,035932.200,2500.7997592,N,12132.4862282,E,4,45,0.71,16.740,M,15.25,M,1,3335*46
$GNRMC,035932.200,A,2500.7997592,N,12132.4862282,E,0.01,133.34,030324,,,R,V*1E
$GPHDT,354.752,T*37
$GNACCURACY,5.7*14
$GNGGA,035932.300,2500.7997587,N,12132.4862290,E,4,44,0.72,16.744,M,15.25,M,1,3335*46
$GNRMC,035932.300,A,2500.7997587,N,12132.4862290,E,0.01,133.34,030324,,,R,V*18
$GPHDT,,T*1B
$GNACCURACY,5.7*14
$GNGGA,035932.400,2500.7997593,N,12132.4862286,E,4,44,0.72,16.740,M,15.25,M,1,3335*47
$GNRMC,035932.400,A,2500.7997593,N,12132.4862286,E,0.00,133.34,030324,,,R,V*1C
$GPHDT,354.688,T*31
$GNACCURACY,5.7*14
$GNGGA,035932.500,2500.7997578,N,12132.4862285,E,4,44,0.72,16.742,M,15.25,M,1,3335*42
$GNRMC,035932.500,A,2500.7997578,N,12132.4862285,E,0.01,133.34,030324,,,R,V*1A
$GPHDT,,T*1B
$GNACCURACY,5.7*14
$GNGGA,035932.600,2500.7997555,N,12132.4862296,E,4,44,0.72,16.736,M,15.25,M,0,3335*4E
$GNRMC,035932.600,A,2500.7997555,N,12132.4862296,E,0.02,133.34,030324,,,R,V*17
$GPHDT,354.845,T*3E
$GNACCURACY,5.8*1B
$GNGGA,035932.700,2500.7997544,N,12132.4862307,E,4,45,0.71,16.741,M,15.25,M,0,3335*44
$GNRMC,035932.700,A,2500.7997544,N,12132.4862307,E,0.05,133.34,030324,,,R,V*18
$GPHDT,,T*1B
$GNACCURACY,5.8*1B
$GNGGA,035932.800,2500.7997534,N,12132.4862315,E,4,45,0.71,16.747,M,15.25,M,0,3335*49
$GNRMC,035932.800,A,2500.7997534,N,12132.4862315,E,0.03,133.34,030324,,,R,V*15
$GPHDT,354.446,T*31
$GNACCURACY,5.8*1B
$GNGGA,035932.900,2500.7997569,N,12132.4862318,E,4,45,0.71,16.736,M,15.25,M,0,3335*4B
$GNRMC,035932.900,A,2500.7997569,N,12132.4862318,E,0.15,133.34,030324,,,R,V*16
$GPHDT,,T*1B
$GNACCURACY,5.8*1B
$GNGGA,035933.000,2500.7997607,N,12132.4862302,E,4,45,0.71,16.710,M,15.25,M,1,3335*46
$GNRMC,035933.000,A,2500.7997607,N,12132.4862302,E,0.05,133.34,030324,,,R,V*1F
$GPHDT,354.795,T*3C
$GNACCURACY,5.7*14
$GNGGA,035933.100,2500.7997598,N,12132.4862293,E,4,45,0.71,16.714,M,15.25,M,1,3335*4F
$GNRMC,035933.100,A,2500.7997598,N,12132.4862293,E,0.02,133.34,030324,,,R,V*15
$GPHDT,,T*1B
$GNGSA,A,3,08,194,199,195,27,21,16,02,04,196,31,,1.32,0.71,1.12,1*06
$GNGSA,A,3,82,83,80,,,,,,,,,,1.32,0.71,1.12,2*0F
$GNGSA,A,3,30,15,34,07,,,,,,,,,1.32,0.71,1.12,3*00
$GNGSA,A,3,34,06,09,39,40,07,25,12,24,43,44,,1.32,0.71,1.12,4*04
$GPGSV,4,1,14,08,71,316,46,194,63,047,40,50,60,167,40,199,60,167,38,1*69
$GPGSV,4,2,14,195,59,122,42,27,47,028,36,21,43,167,33,16,33,059,24,1*51
$GPGSV,4,3,14,02,31,180,36,04,29,214,35,07,28,320,13,196,21,173,31,1*50
$GPGSV,4,4,14,26,16,086,17,31,12,139,36,1*65
$GPGSV,2,1,07,08,71,316,46,194,63,047,41,199,60,167,45,195,59,122,44,8*58
$GPGSV,2,2,07,27,47,028,36,04,29,214,37,196,21,173,27,8*62
$GLGSV,1,1,03,82,67,055,41,83,57,178,31,80,47,011,32,1*4A
$GAGSV,2,1,05,30,50,030,37,15,45,152,41,34,43,074,30,07,35,235,41,7*72
$GAGSV,2,2,05,27,,,30,7*70
$GAGSV,2,1,05,30,50,030,40,15,45,152,40,34,43,074,31,07,35,235,43,1*76
$GAGSV,2,2,05,27,,,42,1*73
$GBGSV,3,1,12,34,83,086,44,06,80,219,37,09,75,294,44,39,66,179,43,1*73
$GBGSV,3,2,12,40,65,318,41,07,62,297,28,25,57,344,40,12,52,044,39,1*75
$GBGSV,3,3,12,24,50,094,43,43,42,212,40,44,29,041,34,11,,,39,1*4B
$GBGSV,2,1,06,34,83,086,44,39,66,179,43,40,65,318,36,25,57,344,32,4*79
$GBGSV,2,2,06,24,50,094,44,44,29,041,27,4*70
$GNACCURACY,5.7*14
$PAIRSAT,1,16,2,0,201,3,0,200,4,0,221,7,0,1,8,0,21,16,0,1,21,0,1,24,0,200,25,0,200,26,0,200,27,0,221,31,0,1,194,0,21,195,0,21,196,0,420,199,0,21*4D
$PAIRSAT,2,10,72,0,200,75,0,200,76,0,200,77,0,200,78,0,200,80,0,201,81,0,200,82,0,201,83,0,201,84,0,200*7B
$PAIRSAT,3,6,7,0,1021,12,0,200,13,0,200,15,0,221,30,0,21,34,0,1021*4D
$PAIRSAT,4,36,3,0,400,6,0,1,7,0,1,9,0,1,12,0,1,19,0,600,20,0,600,21,0,600,22,0,600,23,0,600,24,0,421,25,0,421,26,0,400,27,0,400,28,0,400,29,0,400,30,0,400,32,0,400,33,0,400,34,0,421,35,0,400,36,0,400,37,0,400,38,0,400,39,0,421,40,0,421,41,0,400,42,0,400,43,0,421,44,0,421,45,0,400,46,0,400,59,0,400,60,0,400,61,0,400,62,0,400*74
$PAIRDGP,0*45
$GNGGA,035933.200,2500.7997623,N,12132.4862306,E,4,44,0.71,16.716,M,15.25,M,1,3335*41
$GNRMC,035933.200,A,2500.7997623,N,12132.4862306,E,0.02,133.34,030324,,,R,V*18
$GPHDT,355.117,T*31
$GNACCURACY,5.7*14
$GNGGA,035933.300,2500.7997543,N,12132.4862366,E,4,44,0.71,16.768,M,15.25,M,1,3335*4A
$GNRMC,035933.300,A,2500.7997543,N,12132.4862366,E,0.03,133.34,030324,,,R,V*1B
$GPHDT,,T*1B
$GNACCURACY,5.7*14
$GNGGA,035933.400,2500.7997572,N,12132.4862335,E,4,45,0.71,16.760,M,15.25,M,1,3335*40
$GNRMC,035933.400,A,2500.7997572,N,12132.4862335,E,0.02,133.34,030324,,,R,V*19
$GPHDT,355.159,T*3B
$GNACCURACY,5.7*14
$GNGGA,035933.500,2500.7997573,N,12132.4862334,E,4,45,0.71,16.738,M,15.25,M,0,3335*4D
$GNRMC,035933.500,A,2500.7997573,N,12132.4862334,E,0.03,133.34,030324,,,R,V*19
$GPHDT,,T*1B
$GNACCURACY,5.7*14
$GNGGA,035933.600,2500.7997558,N,12132.4862305,E,4,45,0.71,16.724,M,15.25,M,0,3335*48
$GNRMC,035933.600,A,2500.7997558,N,12132.4862305,E,0.02,133.34,030324,,,R,V*10
$GPHDT,355.060,T*30
$GNACCURACY,5.7*14
$GNGGA,035933.700,2500.7997579,N,12132.4862279,E,4,45,0.71,16.723,M,15.25,M,0,3335*47
$GNRMC,035933.700,A,2500.7997579,N,12132.4862279,E,0.03,133.34,030324,,,R,V*19
$GPHDT,,T*1B
$GNACCURACY,5.7*14
$GNGGA,035933.800,2500.7997552,N,12132.4862309,E,4,45,0.71,16.726,M,15.25,M,0,3335*42
$GNRMC,035933.800,A,2500.7997552,N,12132.4862309,E,0.03,133.34,030324,,,R,V*19
$GPHDT,354.888,T*3F
$GNACCURACY,5.8*1B
$GNGGA,035933.900,2500.7997548,N,12132.4862315,E,4,44,0.72,16.735,M,15.25,M,0,3335*45
$GNRMC,035933.900,A,2500.7997548,N,12132.4862315,E,0.12,133.34,030324,,,R,V*1E
$GPHDT,,T*1B
$GNACCURACY,5.8*1B
$GNGGA,035934.000,2500.7997580,N,12132.4862338,E,4,44,0.72,16.742,M,15.25,M,1,3335*41
$GNRMC,035934.000,A,2500.7997580,N,12132.4862338,E,0.09,133.34,030324,,,R,V*11
$GPHDT,354.717,T*36
$GNACCURACY,5.8*1B
$GNGGA,035934.100,2500.7997542,N,12132.4862362,E,4,44,0.72,16.752,M,15.25,M,1,3335*40
$GNRMC,035934.100,A,2500.7997542,N,12132.4862362,E,0.04,133.34,030324,,,R,V*1C
$GPHDT,,T*1B
$GNGSA,A,3,08,194,199,195,27,21,02,04,196,31,,,1.35,0.72,1.14,1*03
$GNGSA,A,3,82,83,80,,,,,,,,,,1.35,0.72,1.14,2*0D
$GNGSA,A,3,30,15,34,07,,,,,,,,,1.35,0.72,1.14,3*02
$GNGSA,A,3,34,06,09,39,40,07,25,12,24,43,44,,1.35,0.72,1.14,4*06
$GPGSV,4,1,14,08,71,316,46,194,63,047,40,50,60,167,39,199,60,167,38,1*67
$GPGSV,4,2,14,195,59,122,42,27,47,028,36,21,43,167,34,16,33,059,20,1*52
$GPGSV,4,3,14,02,31,180,36,04,29,214,35,07,28,320,12,196,21,173,31,1*51
$GPGSV,4,4,14,26,16,086,16,31,12,139,36,1*64
$GPGSV,2,1,07,08,71,316,46,194,63,047,41,199,60,167,45,195,59,122,43,8*5F
$GPGSV,2,2,07,27,47,028,36,04,29,214,37,196,21,173,27,8*62
$GLGSV,1,1,03,82,67,055,40,83,57,178,31,80,47,011,32,1*4B
$GAGSV,2,1,05,30,50,030,37,15,45,152,41,34,43,074,26,07,35,235,41,7*75
$GAGSV,2,2,05,27,,,33,7*73
$GAGSV,2,1,05,30,50,030,40,15,45,152,39,34,43,074,32,07,35,235,43,1*7B
$GAGSV,2,2,05,27,,,42,1*73
$GBGSV,3,1,12,34,83,086,44,06,80,219,37,09,75,294,44,39,66,179,43,1*73
$GBGSV,3,2,12,40,65,318,41,07,62,297,28,25,57,344,40,12,52,044,39,1*75
$GBGSV,3,3,12,24,50,094,42,43,42,212,40,44,29,041,33,11,,,39,1*4D
$GBGSV,2,1,07,34,83,086,44,39,66,179,43,40,65,318,36,25,57,344,32,4*78
$GBGSV,2,2,07,24,50,094,44,43,42,212,37,44,29,041,25,4*47
$GNACCURACY,5.8*1B
$PAIRSAT,1,16,2,0,201,3,0,200,4,0,221,7,0,1,8,0,21,16,0,1,21,0,1,24,0,200,25,0,200,26,0,200,27,0,221,31,0,1,194,0,21,195,0,21,196,0,420,199,0,21*4D
$PAIRSAT,2,10,72,0,200,75,0,200,76,0,200,77,0,200,78,0,200,80,0,201,81,0,200,82,0,201,83,0,201,84,0,200*7B
$PAIRSAT,3,6,7,0,1021,12,0,200,13,0,200,15,0,221,30,0,21,34,0,1021*4D
$PAIRSAT,4,36,3,0,400,6,0,1,7,0,1,9,0,1,12,0,1,19,0,600,20,0,600,21,0,600,22,0,600,23,0,600,24,0,421,25,0,421,26,0,400,27,0,400,28,0,400,29,0,400,30,0,400,32,0,400,33,0,400,34,0,421,35,0,400,36,0,400,37,0,400,38,0,400,39,0,421,40,0,421,41,0,400,42,0,400,43,0,421,44,0,421,45,0,400,46,0,400,59,0,400,60,0,400,61,0,400,62,0,400*74
$PAIRDGP,0*45
$GNGGA,035934.200,2500.7997579,N,12132.4862301,E,4,44,0.72,16.724,M,15.25,M,1,3335*4F
$GNRMC,035934.200,A,2500.7997579,N,12132.4862301,E,0.05,133.34,030324,,,R,V*13
$GPHDT,354.735,T*36
$GNACCURACY,5.7*14
$GNGGA,035934.300,2500.7997560,N,12132.4862301,E,4,44,0.72,16.726,M,15.25,M,1,3335*44
$GNRMC,035934.300,A,2500.7997560,N,12132.4862301,E,0.04,133.34,030324,,,R,V*1B
$GPHDT,,T*1B
$GNACCURACY,5.7*14
$GNGGA,035934.400,2500.7997577,N,12132.4862300,E,4,44,0.72,16.726,M,15.25,M,1,3335*44
$GNRMC,035934.400,A,2500.7997577,N,12132.4862300,E,0.04,133.34,030324,,,R,V*1B
$GPHDT,354.630,T*32
$GNACCURACY,5.7*14
$GNGGA,035934.500,2500.7997562,N,12132.4862293,E,4,44,0.72,16.720,M,15.25,M,0,3335*4D
$GNRMC,035934.500,A,2500.7997562,N,12132.4862293,E,0.03,133.34,030324,,,R,V*12
$GPHDT,,T*1B
$GNACCURACY,5.7*14
$GNGGA,035934.600,2500.7997562,N,12132.4862290,E,4,44,0.72,16.711,M,15.25,M,0,3335*4F
$GNRMC,035934.600,A,2500.7997562,N,12132.4862290,E,0.02,133.34,030324,,,R,V*13
$GPHDT,354.834,T*38
$GNACCURACY,5.7*14
$GNGGA,035934.700,2500.7997558,N,12132.4862288,E,4,44,0.72,16.722,M,15.25,M,0,3335*4E
$GNRMC,035934.700,A,2500.7997558,N,12132.4862288,E,0.03,133.34,030324,,,R,V*13
$GPHDT,,T*1B
$GNACCURACY,5.7*14
$GNGGA,035934.800,2500.7997583,N,12132.4862274,E,4,44,0.72,16.717,M,15.25,M,0,3335*42
$GNRMC,035934.800,A,2500.7997583,N,12132.4862274,E,0.03,133.34,030324,,,R,V*19
$GPHDT,355.058,T*3B
$GNACCURACY,5.7*14
$GNGGA,035934.900,2500.7997567,N,12132.4862274,E,4,44,0.72,16.711,M,15.25,M,0,3335*4F
$GNRMC,035934.900,A,2500.7997567,N,12132.4862274,E,0.03,133.34,030324,,,R,V*12
$GPHDT,,T*1B
$GNACCURACY,5.8*1B
$GNGGA,035935.000,2500.7997568,N,12132.4862276,E,4,44,0.72,16.715,M,15.25,M,1,3335*4F
$GNRMC,035935.000,A,2500.7997568,N,12132.4862276,E,0.03,133.34,030324,,,R,V*17
$GPHDT,355.249,T*39
$GNACCURACY,5.8*1B
$GNGGA,035935.100,2500.7997560,N,12132.4862277,E,4,44,0.72,16.723,M,15.25,M,1,3335*42
$GNRMC,035935.100,A,2500.7997560,N,12132.4862277,E,0.03,133.34,030324,,,R,V*1F
$GPHDT,,T*1B
$GNGSA,A,3,08,194,199,195,27,21,16,02,04,196,31,,1.32,0.71,1.12,1*06
$GNGSA,A,3,82,83,80,,,,,,,,,,1.32,0.71,1.12,2*0F
$GNGSA,A,3,30,15,34,07,,,,,,,,,1.32,0.71,1.12,3*00
$GNGSA,A,3,34,06,09,39,40,07,25,12,24,43,44,,1.32,0.71,1.12,4*04
$GPGSV,4,1,14,08,71,316,46,194,63,047,40,50,60,167,38,199,60,167,37,1*69
$GPGSV,4,2,14,195,59,122,42,27,47,028,36,21,43,167,34,16,33,059,21,1*53
$GPGSV,4,3,14,02,32,180,37,04,29,214,35,07,28,320,15,196,21,173,30,1*55
$GPGSV,4,4,14,26,16,086,16,31,12,139,36,1*64
$GPGSV,2,1,07,08,71,316,46,194,63,047,41,199,60,167,46,195,59,122,43,8*5C
$GPGSV,2,2,07,27,47,028,35,04,29,214,38,196,21,173,27,8*6E
$GLGSV,1,1,03,82,67,055,40,83,57,178,31,80,47,011,32,1*4B
$GAGSV,2,1,05,30,50,030,37,15,45,152,40,34,43,074,25,07,35,235,41,7*77
$GAGSV,2,2,05,27,,,33,7*73
$GAGSV,2,1,05,30,50,030,40,15,45,152,39,34,43,074,32,07,35,235,43,1*7B
$GAGSV,2,2,05,27,,,42,1*73
$GBGSV,3,1,12,34,83,086,44,06,80,219,37,09,75,294,44,39,66,179,43,1*73
$GBGSV,3,2,12,40,65,318,42,07,62,297,31,25,57,344,40,12,52,044,39,1*7E
$GBGSV,3,3,12,24,50,094,42,43,42,212,40,44,29,041,30,11,,,39,1*4E
$GBGSV,2,1,06,34,83,086,44,39,66,179,43,40,65,318,36,25,57,344,32,4*79
$GBGSV,2,2,06,24,50,094,44,44,29,041,24,4*73
$GNACCURACY,5.8*1B
$PAIRSAT,1,16,2,0,201,3,0,200,4,0,221,7,0,1,8,0,21,16,0,1,21,0,1,24,0,200,25,0,200,26,0,200,27,0,221,31,0,1,194,0,21,195,0,21,196,0,420,199,0,21*4D
$PAIRSAT,2,10,72,0,200,75,0,200,76,0,200,77,0,200,78,0,200,80,0,201,81,0,200,82,0,201,83,0,201,84,0,200*7B
$PAIRSAT,3,6,7,0,1021,12,0,200,13,0,200,15,0,221,30,0,21,34,0,1021*4D
$PAIRSAT,4,36,3,0,400,6,0,1,7,0,1,9,0,1,12,0,1,19,0,600,20,0,600,21,0,600,22,0,600,23,0,600,24,0,421,25,0,421,26,0,400,27,0,400,28,0,400,29,0,400,30,0,400,32,0,400,33,0,400,34,0,421,35,0,400,36,0,400,37,0,400,38,0,400,39,0,421,40,0,421,41,0,400,42,0,400,43,0,421,44,0,421,45,0,400,46,0,400,59,0,400,60,0,400,61,0,400,62,0,400*74
$PAIRDGP,0*45
$GNGGA,035935.200,2500.7997564,N,12132.4862269,E,4,45,0.71,16.718,M,15.25,M,1,3335*40
$GNRMC,035935.200,A,2500.7997564,N,12132.4862269,E,0.02,133.34,030324,,,R,V*16
$GPHDT,355.007,T*31
$GNACCURACY,5.8*1B
$GNGGA,035935.300,2500.7997589,N,12132.4862284,E,4,45,0.71,16.719,M,15.25,M,1,3335*40
$GNRMC,035935.300,A,2500.7997589,N,12132.4862284,E,0.03,133.34,030324,,,R,V*16
$GPHDT,,T*1B
$GNACCURACY,5.8*1B
$GNGGA,035935.400,2500.7997579,N,12132.4862260,E,4,45,0.71,16.718,M,15.25,M,1,3335*43
$GNRMC,035935.400,A,2500.7997579,N,12132.4862260,E,0.02,133.34,030324,,,R,V*15
$GPHDT,354.854,T*3E
$GNACCURACY,5.8*1B
$GNGGA,035935.500,2500.7997573,N,12132.4862267,E,4,45,0.71,16.719,M,15.25,M,1,3335*4E
$GNRMC,035935.500,A,2500.7997573,N,12132.4862267,E,0.01,133.34,030324,,,R,V*1A
$GPHDT,,T*1B
$GNACCURACY,5.8*1B
$GNGGA,035935.600,2500.7997562,N,12132.4862278,E,4,45,0.71,16.729,M,15.25,M,1,3335*40
$GNRMC,035935.600,A,2500.7997562,N,12132.4862278,E,0.06,133.34,030324,,,R,V*10
$GPHDT,354.901,T*3F
$GNACCURACY,5.8*1B
$GNGGA,035935.700,2500.7997576,N,12132.4862267,E,4,45,0.71,16.717,M,15.25,M,0,3335*46
$GNRMC,035935.700,A,2500.7997576,N,12132.4862267,E,0.04,133.34,030324,,,R,V*18
$GPHDT,,T*1B
$GNACCURACY,5.8*1B
$GNGGA,035935.800,2500.7997568,N,12132.4862273,E,4,44,0.72,16.724,M,15.25,M,0,3335*41
$GNRMC,035935.800,A,2500.7997568,N,12132.4862273,E,0.04,133.34,030324,,,R,V*1D
$GPHDT,355.008,T*3E
$GNACCURACY,5.8*1B
$GNGGA,035935.900,2500.7997570,N,12132.4862255,E,4,44,0.72,16.719,M,15.25,M,0,3335*43
$GNRMC,035935.900,A,2500.7997570,N,12132.4862255,E,0.05,133.34,030324,,,R,V*10
$GPHDT,,T*1B
$GNACCURACY,5.8*1B
$GNGGA,035936.000,2500.7997576,N,12132.4862275,E,4,44,0.72,16.719,M,15.25,M,1,3335*4C
$GNRMC,035936.000,A,2500.7997576,N,12132.4862275,E,0.07,133.34,030324,,,R,V*1C
$GPHDT,354.664,T*33
$GNACCURACY,5.8*1B
$GNGGA,035936.100,2500.7997570,N,12132.4862271,E,4,44,0.72,16.725,M,15.25,M,1,3335*40
$GNRMC,035936.100,A,2500.7997570,N,12132.4862271,E,0.04,133.34,030324,,,R,V*1C
$GPHDT,,T*1B
$GNGSA,A,3,08,194,199,195,27,21,16,02,04,07,196,31,1.17,0.62,0.99,1*06
$GNGSA,A,3,82,83,80,,,,,,,,,,1.17,0.62,0.99,2*08
$GNGSA,A,3,30,15,34,07,,,,,,,,,1.17,0.62,0.99,3*07
$GNGSA,A,3,34,06,09,39,40,07,25,12,24,43,44,,1.17,0.62,0.99,4*03
$GPGSV,4,1,14,08,71,316,46,194,63,047,40,50,60,167,38,199,60,167,37,1*69
$GPGSV,4,2,14,195,59,122,42,27,47,028,36,21,43,167,34,16,33,059,24,1*56
$GPGSV,4,3,14,02,32,180,37,04,29,214,35,07,28,320,17,196,21,173,31,1*56
$GPGSV,4,4,14,26,16,086,18,31,12,139,36,1*6A
$GPGSV,2,1,07,08,71,316,46,194,63,047,41,199,60,167,46,195,59,122,43,8*5C
$GPGSV,2,2,07,27,47,028,35,04,29,214,38,196,21,173,27,8*6E
$GLGSV,1,1,03,82,67,055,40,83,57,178,31,80,47,011,32,1*4B
$GAGSV,2,1,05,30,50,030,38,15,45,152,40,34,43,074,26,07,35,235,41,7*7B
$GAGSV,2,2,05,27,,,33,7*73
$GAGSV,2,1,05,30,50,030,40,15,45,152,39,34,43,074,32,07,35,235,43,1*7B
$GAGSV,2,2,05,27,,,42,1*73
$GBGSV,4,1,13,34,83,086,44,06,80,219,37,09,75,294,44,39,66,179,44,1*72
$GBGSV,4,2,13,40,65,318,42,07,62,297,31,25,57,344,40,12,52,044,39,1*78
$GBGSV,4,3,13,24,50,094,43,43,42,212,40,44,29,041,30,11,,,39,1*49
$GBGSV,4,4,13,10,,,36,1*70
$GBGSV,2,1,07,34,83,086,44,39,66,179,43,40,65,318,36,25,57,344,33,4*79
$GBGSV,2,2,07,24,50,094,45,43,42,212,38,44,29,041,24,4*48
$GNACCURACY,6.4*14
$PAIRSAT,1,17,2,0,201,3,0,200,4,0,221,7,0,1,8,0,21,16,0,1,21,0,1,24,0,200,25,0,200,26,0,200,27,0,221,28,0,200,31,0,1,194,0,21,195,0,21,196,0,420,199,0,21*68
$PAIRSAT,2,10,72,0,200,75,0,200,76,0,200,77,0,200,78,0,200,80,0,201,81,0,200,82,0,201,83,0,201,84,0,200*7B
$PAIRSAT,3,6,7,0,1021,12,0,200,13,0,200,15,0,221,30,0,21,34,0,1021*4D
$PAIRSAT,4,36,3,0,400,6,0,1,7,0,1,9,0,1,12,0,1,19,0,600,20,0,600,21,0,600,22,0,600,23,0,600,24,0,421,25,0,421,26,0,400,27,0,400,28,0,400,29,0,400,30,0,400,32,0,400,33,0,400,34,0,421,35,0,400,36,0,400,37,0,400,38,0,400,39,0,421,40,0,421,41,0,400,42,0,400,43,0,421,44,0,421,45,0,400,46,0,400,59,0,400,60,0,400,61,0,400,62,0,400*74
$PAIRDGP,0*45
$GNGGA,035936.200,2500.7997577,N,12132.4862320,E,4,46,0.62,16.749,M,15.25,M,1,3335*48
$GNRMC,035936.200,A,2500.7997577,N,12132.4862320,E,0.03,133.34,030324,,,R,V*1A
$GPHDT,355.100,T*37
$GNACCURACY,6.4*14
$GNGGA,035936.300,2500.7997587,N,12132.4862323,E,4,46,0.62,16.742,M,15.25,M,1,3335*4E
$GNRMC,035936.300,A,2500.7997587,N,12132.4862323,E,0.04,133.34,030324,,,R,V*10
$GPHDT,,T*1B
$GNACCURACY,6.4*14
$GNGGA,035936.400,2500.7997557,N,12132.4862302,E,4,46,0.62,16.733,M,15.25,M,0,3335*40
$GNRMC,035936.400,A,2500.7997557,N,12132.4862302,E,0.03,133.34,030324,,,R,V*1E
$GPHDT,354.617,T*37
$GNACCURACY,6.5*15
$GNGGA,035936.500,2500.7997539,N,12132.4862281,E,4,46,0.62,16.727,M,15.25,M,0,3335*46
$GNRMC,035936.500,A,2500.7997539,N,12132.4862281,E,0.02,133.34,030324,,,R,V*1C
$GPHDT,,T*1B
$GNACCURACY,6.4*14
$GNGGA,035936.600,2500.7997559,N,12132.4862311,E,4,46,0.62,16.744,M,15.25,M,0,3335*4E
$GNRMC,035936.600,A,2500.7997559,N,12132.4862311,E,0.03,133.34,030324,,,R,V*10
$GPHDT,355.516,T*34
$GNACCURACY,6.4*14
$GNGGA,035936.700,2500.7997547,N,12132.4862346,E,4,46,0.62,16.755,M,15.25,M,0,3335*42
$GNRMC,035936.700,A,2500.7997547,N,12132.4862346,E,0.04,133.34,030324,,,R,V*1B
$GPHDT,,T*1B
$GNACCURACY,6.3*13
$GNGGA,035936.800,2500.7997553,N,12132.4862340,E,4,46,0.62,16.745,M,15.25,M,0,3335*4F
$GNRMC,035936.800,A,2500.7997553,N,12132.4862340,E,0.04,133.34,030324,,,R,V*17
$GPHDT,354.914,T*3B
$GNACCURACY,6.3*13
$GNGGA,035936.900,2500.7997557,N,12132.4862284,E,4,46,0.62,16.725,M,15.25,M,0,3335*45
$GNRMC,035936.900,A,2500.7997557,N,12132.4862284,E,0.09,133.34,030324,,,R,V*16
$GPHDT,,T*1B
$GNACCURACY,6.3*13
$GNGGA,035937.000,2500.7997554,N,12132.4862285,E,4,45,0.63,16.734,M,15.25,M,1,3335*4C
$GNRMC,035937.000,A,2500.7997554,N,12132.4862285,E,0.06,133.34,030324,,,R,V*13
$GPHDT,354.690,T*38
$GNACCURACY,6.3*13
$GNGGA,035937.100,2500.7997549,N,12132.4862293,E,4,45,0.63,16.727,M,15.25,M,1,3335*44
$GNRMC,035937.100,A,2500.7997549,N,12132.4862293,E,0.04,133.34,030324,,,R,V*1B
$GPHDT,,T*1B
$GNGSA,A,3,08,194,199,195,27,21,02,04,07,196,31,,1.19,0.63,1.01,1*0E
$GNGSA,A,3,82,83,80,,,,,,,,,,1.19,0.63,1.01,2*07
$GNGSA,A,3,30,15,34,07,,,,,,,,,1.19,0.63,1.01,3*08
$GNGSA,A,3,34,06,09,39,40,07,25,12,24,43,44,,1.19,0.63,1.01,4*0C
$GPGSV,4,1,14,08,71,316,46,194,63,047,40,50,60,167,38,199,60,167,37,1*69
$GPGSV,4,2,14,195,59,122,42,27,47,028,36,21,43,167,35,16,33,059,24,1*57
$GPGSV,4,3,14,02,32,180,37,04,29,214,35,07,28,320,21,196,21,173,31,1*53
$GPGSV,4,4,14,26,16,086,18,31,12,139,36,1*6A
$GPGSV,2,1,07,08,71,316,46,194,63,047,41,199,60,167,46,195,59,122,43,8*5C
$GPGSV,2,2,07,27,47,028,35,04,29,214,38,196,21,173,27,8*6E
$GLGSV,1,1,03,82,67,055,40,83,57,178,31,80,47,011,34,1*4D
$GAGSV,2,1,05,30,50,030,38,15,45,152,40,34,43,074,26,07,35,235,41,7*7B
$GAGSV,2,2,05,27,,,33,7*73
$GAGSV,2,1,05,30,50,030,40,15,45,152,39,34,43,074,31,07,35,235,43,1*78
$GAGSV,2,2,05,27,,,42,1*73
$GBGSV,3,1,12,34,83,086,44,06,80,219,37,09,75,294,44,39,66,179,44,1*74
$GBGSV,3,2,12,40,65,318,42,07,62,297,31,25,57,344,40,12,52,044,39,1*7E
$GBGSV,3,3,12,24,50,094,43,43,42,212,40,44,29,041,31,11,,,39,1*4E
$GBGSV,2,1,06,34,83,086,44,39,66,179,43,40,65,318,36,25,57,344,33,4*78
$GBGSV,2,2,06,24,50,094,45,44,29,041,26,4*70
$GNACCURACY,6.3*13
$PAIRSAT,1,17,2,0,201,3,0,200,4,0,221,7,0,1,8,0,21,16,0,1,21,0,1,24,0,200,25,0,200,26,0,200,27,0,221,28,0,200,31,0,1,194,0,21,195,0,21,196,0,420,199,0,21*68
$PAIRSAT,2,10,72,0,200,75,0,200,76,0,200,77,0,200,78,0,200,80,0,201,81,0,200,82,0,201,83,0,201,84,0,200*7B
$PAIRSAT,3,6,7,0,1021,12,0,200,13,0,200,15,0,221,30,0,21,34,0,1021*4D
$PAIRSAT,4,36,3,0,400,6,0,1,7,0,1,9,0,1,12,0,1,19,0,600,20,0,600,21,0,600,22,0,600,23,0,600,24,0,421,25,0,421,26,0,400,27,0,400,28,0,400,29,0,400,30,0,400,32,0,400,33,0,400,34,0,421,35,0,400,36,0,400,37,0,400,38,0,400,39,0,421,40,0,421,41,0,400,42,0,400,43,0,421,44,0,421,45,0,400,46,0,400,59,0,400,60,0,400,61,0,400,62,0,400*74
$PAIRDGP,0*45
$GNGGA,035937.200,2500.7997575,N,12132.4862281,E,4,45,0.63,16.731,M,15.25,M,1,3335*4C
$GNRMC,035937.200,A,2500.7997575,N,12132.4862281,E,0.04,133.34,030324,,,R,V*14
$GPHDT,355.094,T*3B
$GNACCURACY,6.3*13
$GNGGA,035937.300,2500.7997559,N,12132.4862302,E,4,45,0.63,16.729,M,15.25,M,1,3335*40
$GNRMC,035937.300,A,2500.7997559,N,12132.4862302,E,0.04,133.34,030324,,,R,V*11
$GPHDT,,T*1B
$GNACCURACY,6.3*13
$GNGGA,035937.400,2500.7997567,N,12132.4862270,E,4,46,0.62,16.728,M,15.25,M,1,3335*4D
$GNRMC,035937.400,A,2500.7997567,N,12132.4862270,E,0.03,133.34,030324,,,R,V*18
$GPHDT,355.429,T*39
$GNACCURACY,6.3*13
$GNGGA,035937.500,2500.7997567,N,12132.4862287,E,4,46,0.62,16.718,M,15.25,M,0,3335*46
$GNRMC,035937.500,A,2500.7997567,N,12132.4862287,E,0.04,133.34,030324,,,R,V*16
$GPHDT,,T*1B
$GNACCURACY,6.3*13
$GNGGA,035937.600,2500.7997571,N,12132.4862286,E,4,46,0.62,16.720,M,15.25,M,0,3335*48
$GNRMC,035937.600,A,2500.7997571,N,12132.4862286,E,0.04,133.34,030324,,,R,V*13
$GPHDT,355.226,T*30
$GNACCURACY,6.3*13
$GNGGA,035937.700,2500.7997558,N,12132.4862275,E,4,46,0.62,16.719,M,15.25,M,0,3335*44
$GNRMC,035937.700,A,2500.7997558,N,12132.4862275,E,0.07,133.34,030324,,,R,V*16
$GPHDT,,T*1B
$GNACCURACY,6.2*12
$GNGGA,035937.800,2500.7997560,N,12132.4862289,E,4,46,0.62,16.727,M,15.25,M,0,3335*4E
$GNRMC,035937.800,A,2500.7997560,N,12132.4862289,E,0.07,133.34,030324,,,R,V*11
$GPHDT,355.267,T*35
$GNACCURACY,6.3*13
$GNGGA,035937.900,2500.7997555,N,12132.4862312,E,4,46,0.62,16.720,M,15.25,M,0,3335*4D
$GNRMC,035937.900,A,2500.7997555,N,12132.4862312,E,0.09,133.34,030324,,,R,V*1B
$GPHDT,,T*1B
$GNACCURACY,6.3*13
$GNGGA,035938.000,2500.7997564,N,12132.4862298,E,4,46,0.62,16.724,M,15.25,M,1,3335*4F
$GNRMC,035938.000,A,2500.7997564,N,12132.4862298,E,0.06,133.34,030324,,,R,V*13
$GPHDT,355.142,T*31
$GNACCURACY,6.3*13
$GNGGA,035938.100,2500.7997573,N,12132.4862299,E,4,46,0.62,16.720,M,15.25,M,1,3335*4D
$GNRMC,035938.100,A,2500.7997573,N,12132.4862299,E,0.05,133.34,030324,,,R,V*16
$GPHDT,,T*1B
$GNGSA,A,3,08,194,199,195,27,21,16,02,04,07,196,31,1.17,0.62,0.99,1*06
$GNGSA,A,3,82,83,80,,,,,,,,,,1.17,0.62,0.99,2*08
$GNGSA,A,3,30,15,34,07,,,,,,,,,1.17,0.62,0.99,3*07
$GNGSA,A,3,34,06,09,39,40,07,25,12,24,43,44,,1.17,0.62,0.99,4*03
$GPGSV,4,1,14,08,71,316,46,194,63,047,40,50,60,167,39,199,60,167,36,1*69
$GPGSV,4,2,14,195,59,122,42,27,47,028,37,21,43,167,35,16,33,059,24,1*56
$GPGSV,4,3,14,02,32,180,37,04,29,214,35,07,28,320,19,196,21,173,30,1*59
$GPGSV,4,4,14,26,15,086,18,31,12,139,36,1*69
$GPGSV,2,1,07,08,71,316,46,194,63,047,40,199,60,167,46,195,59,122,43,8*5D
$GPGSV,2,2,07,27,47,028,35,04,29,214,38,196,21,173,27,8*6E
$GLGSV,1,1,03,82,67,055,40,83,57,178,31,80,47,011,33,1*4A
$GAGSV,2,1,05,30,50,030,38,15,45,152,40,34,43,074,26,07,35,235,41,7*7B
$GAGSV,2,2,05,27,,,33,7*73
$GAGSV,2,1,05,30,50,030,40,15,45,152,39,34,43,074,31,07,35,235,43,1*78
$GAGSV,2,2,05,27,,,42,1*73
$GBGSV,3,1,12,34,83,086,44,06,80,219,37,09,75,294,44,39,66,179,44,1*74
$GBGSV,3,2,12,40,65,318,42,07,62,297,31,25,57,344,40,12,52,044,39,1*7E
$GBGSV,3,3,12,24,50,094,43,43,42,212,40,44,29,041,31,11,,,39,1*4E
$GBGSV,2,1,07,34,83,086,44,39,66,179,43,40,65,318,36,25,57,344,32,4*78
$GBGSV,2,2,07,24,50,094,45,43,42,212,37,44,29,041,26,4*45
$GNACCURACY,6.3*13
$PAIRSAT,1,17,2,0,201,3,0,200,4,0,221,7,0,1,8,0,21,16,0,1,21,0,1,24,0,200,25,0,200,26,0,200,27,0,221,28,0,200,31,0,1,194,0,21,195,0,21,196,0,420,199,0,21*68
$PAIRSAT,2,10,72,0,200,75,0,200,76,0,200,77,0,200,78,0,200,80,0,201,81,0,200,82,0,201,83,0,201,84,0,200*7B
$PAIRSAT,3,6,7,0,1021,12,0,200,13,0,200,15,0,221,30,0,21,34,0,1021*4D
$PAIRSAT,4,36,3,0,400,6,0,1,7,0,1,9,0,1,12,0,1,19,0,600,20,0,600,21,0,600,22,0,600,23,0,600,24,0,421,25,0,421,26,0,400,27,0,400,28,0,400,29,0,400,30,0,400,32,0,400,33,0,400,34,0,421,35,0,400,36,0,400,37,0,400,38,0,400,39,0,421,40,0,421,41,0,400,42,0,400,43,0,421,44,0,421,45,0,400,46,0,400,59,0,400,60,0,400,61,0,400,62,0,400*74
$PAIRDGP,0*45
$GNGGA,035938.200,2500.7997561,N,12132.4862271,E,4,46,0.62,16.720,M,15.25,M,1,3335*4B
$GNRMC,035938.200,A,2500.7997561,N,12132.4862271,E,0.02,133.34,030324,,,R,V*17
$GPHDT,355.356,T*36
$GNACCURACY,6.3*13
$GNGGA,035938.300,2500.7997556,N,12132.4862288,E,4,46,0.62,16.730,M,15.25,M,1,3335*49
$GNRMC,035938.300,A,2500.7997556,N,12132.4862288,E,0.03,133.34,030324,,,R,V*15
$GPHDT,,T*1B
$GNACCURACY,6.3*13
$GNGGA,035938.400,2500.7997579,N,12132.4862281,E,4,46,0.62,16.720,M,15.25,M,1,3335*4B
$GNRMC,035938.400,A,2500.7997579,N,12132.4862281,E,0.04,133.34,030324,,,R,V*11
$GPHDT,354.976,T*3F
$GNACCURACY,6.3*13
$GNGGA,035938.500,2500.7997567,N,12132.4862288,E,4,46,0.62,16.727,M,15.25,M,1,3335*4B
$GNRMC,035938.500,A,2500.7997567,N,12132.4862288,E,0.03,133.34,030324,,,R,V*11
$GPHDT,,T*1B
$GNACCURACY,6.3*13
$GNGGA,035938.600,2500.7997566,N,12132.4862278,E,4,46,0.62,16.719,M,15.25,M,0,3335*4A
$GNRMC,035938.600,A,2500.7997566,N,12132.4862278,E,0.03,133.34,030324,,,R,V*1C
$GPHDT,354.892,T*34
$GNACCURACY,6.3*13
$GNGGA,035938.700,2500.7997565,N,12132.4862283,E,4,46,0.62,16.717,M,15.25,M,0,3335*42
$GNRMC,035938.700,A,2500.7997565,N,12132.4862283,E,0.06,133.34,030324,,,R,V*1F
$GPHDT,,T*1B
$GNACCURACY,6.3*13
$GNGGA,035938.800,2500.7997544,N,12132.4862286,E,4,46,0.62,16.724,M,15.25,M,0,3335*4B
$GNRMC,035938.800,A,2500.7997544,N,12132.4862286,E,0.12,133.34,030324,,,R,V*13
$GPHDT,355.393,T*3F
$GNACCURACY,6.3*13
$GNGGA,035938.900,2500.7997547,N,12132.4862289,E,4,46,0.62,16.728,M,15.25,M,0,3335*4A
$GNRMC,035938.900,A,2500.7997547,N,12132.4862289,E,0.10,133.34,030324,,,R,V*1C
$GPHDT,,T*1B
$GNACCURACY,6.2*12
$GNGGA,035939.000,2500.7997578,N,12132.4862296,E,4,46,0.62,16.714,M,15.25,M,1,3335*4E
$GNRMC,035939.000,A,2500.7997578,N,12132.4862296,E,0.10,133.34,030324,,,R,V*16
$GPHDT,355.046,T*34
$GNACCURACY,6.2*12
$GNGGA,035939.100,2500.7997574,N,12132.4862303,E,4,46,0.62,16.721,M,15.25,M,1,3335*48
$GNRMC,035939.100,A,2500.7997574,N,12132.4862303,E,0.07,133.34,030324,,,R,V*10
$GPHDT,,T*1B
$GNGSA,A,3,08,194,199,195,27,21,16,02,04,07,196,31,1.17,0.62,0.99,1*06
$GNGSA,A,3,82,83,80,,,,,,,,,,1.17,0.62,0.99,2*08
$GNGSA,A,3,30,15,34,07,,,,,,,,,1.17,0.62,0.99,3*07
$GNGSA,A,3,34,06,09,39,40,07,25,12,24,43,44,,1.17,0.62,0.99,4*03
$GPGSV,4,1,14,08,71,316,46,194,63,047,40,50,60,167,39,199,60,167,36,1*69
$GPGSV,4,2,14,195,59,122,42,27,47,028,37,21,43,167,35,16,33,059,27,1*55
$GPGSV,4,3,14,02,32,180,37,04,29,214,35,07,28,320,20,196,21,173,30,1*53
$GPGSV,4,4,14,26,15,086,18,31,12,139,36,1*69
$GPGSV,2,1,07,08,71,316,46,194,63,047,40,199,60,167,46,195,59,122,43,8*5D
$GPGSV,2,2,07,27,47,028,35,04,29,214,38,196,21,173,28,8*61
$GLGSV,1,1,03,82,67,055,40,83,57,178,31,80,47,011,33,1*4A
$GAGSV,2,1,05,30,50,030,38,15,45,152,40,34,43,074,27,07,35,235,41,7*7A
$GAGSV,2,2,05,27,,,33,7*73
$GAGSV,2,1,05,30,50,030,40,15,45,152,39,34,43,074,31,07,35,235,42,1*79
$GAGSV,2,2,05,27,,,42,1*73
$GBGSV,3,1,12,34,83,086,44,06,80,219,37,09,75,294,44,39,66,179,44,1*74
$GBGSV,3,2,12,40,65,318,42,07,62,297,32,25,57,344,40,12,52,044,39,1*7D
$GBGSV,3,3,12,24,50,094,43,43,42,212,40,44,29,041,30,11,,,39,1*4F
$GBGSV,2,1,06,34,83,086,44,39,66,179,42,40,65,318,36,25,57,344,33,4*79
$GBGSV,2,2,06,24,50,094,45,44,29,041,26,4*70
$GNACCURACY,6.1*11
$PAIRSAT,1,17,2,0,201,3,0,200,4,0,221,7,0,1,8,0,21,16,0,1,21,0,1,24,0,200,25,0,200,26,0,200,27,0,221,28,0,200,31,0,1,194,0,21,195,0,21,196,0,420,199,0,21*68
$PAIRSAT,2,10,72,0,200,75,0,200,76,0,200,77,0,200,78,0,200,80,0,201,81,0,200,82,0,201,83,0,201,84,0,200*7B
$PAIRSAT,3,6,7,0,1021,12,0,200,13,0,200,15,0,221,30,0,21,34,0,1021*4D
$PAIRSAT,4,36,3,0,400,6,0,1,7,0,1,9,0,1,12,0,1,19,0,600,20,0,600,21,0,600,22,0,600,23,0,600,24,0,421,25,0,421,26,0,400,27,0,400,28,0,400,29,0,400,30,0,400,32,0,400,33,0,400,34,0,421,35,0,400,36,0,400,37,0,400,38,0,400,39,0,421,40,0,421,41,0,400,42,0,400,43,0,421,44,0,421,45,0,400,46,0,400,59,0,400,60,0,400,61,0,400,62,0,400*74
$PAIRDGP,0*45
$GNGGA,035939.200,2500.7997556,N,12132.4862284,E,4,46,0.62,16.724,M,15.25,M,1,3335*40
$GNRMC,035939.200,A,2500.7997556,N,12132.4862284,E,0.04,133.34,030324,,,R,V*1E
$GPHDT,354.888,T*3F
$GNACCURACY,6.1*11
$GNGGA,035939.300,2500.7997533,N,12132.4862349,E,4,46,0.62,16.760,M,15.25,M,1,3335*42
$GNRMC,035939.300,A,2500.7997533,N,12132.4862349,E,0.03,133.34,030324,,,R,V*1B
$GPHDT,,T*1B
$GNACCURACY,6.1*11
$GNGGA,035939.400,2500.7997567,N,12132.4862337,E,4,46,0.62,16.736,M,15.25,M,0,3335*4F
$GNRMC,035939.400,A,2500.7997567,N,12132.4862337,E,0.05,133.34,030324,,,R,V*12
$GPHDT,355.150,T*32
$GNACCURACY,6.1*11
$GNGGA,035939.500,2500.7997543,N,12132.4862315,E,4,46,0.62,16.721,M,15.25,M,0,3335*4E
$GNRMC,035939.500,A,2500.7997543,N,12132.4862315,E,0.04,133.34,030324,,,R,V*14
$GPHDT,,T*1B
$GNACCURACY,6.1*11
$GNGGA,035939.600,2500.7997552,N,12132.4862305,E,4,46,0.62,16.725,M,15.25,M,0,3335*48
$GNRMC,035939.600,A,2500.7997552,N,12132.4862305,E,0.05,133.34,030324,,,R,V*17
$GPHDT,355.094,T*3B
$GNACCURACY,6.1*11
$GNGGA,035939.700,2500.7997537,N,12132.4862332,E,4,46,0.62,16.729,M,15.25,M,0,3335*42
$GNRMC,035939.700,A,2500.7997537,N,12132.4862332,E,0.05,133.34,030324,,,R,V*11
$GPHDT,,T*1B
$GNACCURACY,6.1*11
$GNGGA,035939.800,2500.7997556,N,12132.4862320,E,4,46,0.62,16.712,M,15.25,M,0,3335*41
$GNRMC,035939.800,A,2500.7997556,N,12132.4862320,E,0.06,133.34,030324,,,R,V*19
$GPHDT,355.054,T*37
$GNACCURACY,6.1*11
$GNGGA,035939.900,2500.7997561,N,12132.4862320,E,4,46,0.62,16.723,M,15.25,M,0,3335*46
$GNRMC,035939.900,A,2500.7997561,N,12132.4862320,E,0.17,133.34,030324,,,R,V*1C
$GPHDT,,T*1B
$GNACCURACY,6.1*11
$GNGGA,035940.000,2500.7997538,N,12132.4862292,E,4,46,0.62,16.717,M,15.25,M,1,3335*43
$GNRMC,035940.000,A,2500.7997538,N,12132.4862292,E,0.03,133.34,030324,,,R,V*1A
$GPHDT,355.001,T*37
$GNACCURACY,6.1*11
$GNGGA,035940.100,2500.7997535,N,12132.4862325,E,4,46,0.62,16.724,M,15.25,M,1,3335*42
$GNRMC,035940.100,A,2500.7997535,N,12132.4862325,E,0.03,133.34,030324,,,R,V*1B
$GPHDT,,T*1B
$GNGSA,A,3,08,194,199,195,27,21,16,02,04,07,196,31,1.17,0.62,0.99,1*06
$GNGSA,A,3,82,83,80,,,,,,,,,,1.17,0.62,0.99,2*08
$GNGSA,A,3,30,15,34,07,,,,,,,,,1.17,0.62,0.99,3*07
$GNGSA,A,3,34,06,09,39,40,07,25,12,24,43,44,,1.17,0.62,0.99,4*03
$GPGSV,4,1,14,08,71,316,46,194,63,047,40,50,60,167,38,199,60,167,36,1*68
$GPGSV,4,2,14,195,59,122,42,27,47,028,37,21,43,167,36,16,33,059,29,1*58
$GPGSV,4,3,14,02,32,180,37,04,29,214,35,07,28,320,20,196,21,173,30,1*53
$GPGSV,4,4,14,26,15,086,18,31,12,139,36,1*69
$GPGSV,2,1,07,08,71,316,46,194,63,047,40,199,60,167,46,195,59,122,43,8*5D
$GPGSV,2,2,07,27,47,028,35,04,29,214,39,196,21,173,28,8*60
$GLGSV,1,1,03,82,67,055,40,83,57,178,31,80,47,011,34,1*4D
$GAGSV,2,1,05,30,50,030,38,15,45,152,40,34,43,074,25,07,34,235,41,7*79
$GAGSV,2,2,05,27,,,33,7*73
$GAGSV,2,1,05,30,50,030,40,15,45,152,39,34,43,074,32,07,34,235,42,1*7B
$GAGSV,2,2,05,27,,,42,1*73
$GBGSV,4,1,14,34,83,086,44,06,80,219,37,09,75,294,44,39,66,179,44,1*75
$GBGSV,4,2,14,40,65,318,42,07,62,297,31,25,57,344,40,12,52,044,39,1*7F
$GBGSV,4,3,14,24,50,094,42,43,42,212,40,44,29,041,31,10,,,39,1*4F
$GBGSV,4,4,14,11,,,39,16,,,35,1*78
$GBGSV,2,1,06,34,83,086,44,39,66,179,42,40,65,318,36,25,57,344,33,4*79
$GBGSV,2,2,06,24,50,094,45,44,29,041,28,4*7E
$GNACCURACY,6.1*11
$PAIRSAT,1,17,2,0,201,3,0,200,4,0,221,7,0,1,8,0,21,16,0,1,21,0,1,24,0,200,25,0,200,26,0,200,27,0,221,28,0,200,31,0,1,194,0,21,195,0,21,196,0,420,199,0,21*68
$PAIRSAT,2,10,72,0,200,75,0,200,76,0,200,77,0,200,78,0,200,80,0,201,81,0,200,82,0,201,83,0,201,84,0,200*7B
$PAIRSAT,3,6,7,0,1021,12,0,200,13,0,200,15,0,221,30,0,21,34,0,1021*4D
$PAIRSAT,4,36,3,0,400,6,0,1,7,0,1,9,0,1,12,0,1,19,0,600,20,0,600,21,0,600,22,0,600,23,0,600,24,0,421,25,0,421,26,0,400,27,0,400,28,0,400,29,0,400,30,0,400,32,0,400,33,0,400,34,0,421,35,0,400,36,0,400,37,0,400,38,0,400,39,0,421,40,0,421,41,0,400,42,0,400,43,0,421,44,0,421,45,0,400,46,0,400,59,0,400,60,0,400,61,0,400,62,0,400*74
$PAIRDGP,0*45
$GNGGA,035940.200,2500.7997549,N,12132.4862386,E,4,46,0.62,16.740,M,15.25,M,1,3335*41
$GNRMC,035940.200,A,2500.7997549,N,12132.4862386,E,0.04,133.34,030324,,,R,V*1D
$GPHDT,355.413,T*30
$GNACCURACY,6.1*11
$GNGGA,035940.300,2500.7997550,N,12132.4862388,E,4,46,0.62,16.746,M,15.25,M,1,3335*40
$GNRMC,035940.300,A,2500.7997550,N,12132.4862388,E,0.04,133.34,030324,,,R,V*1A
$GPHDT,,T*1B
$GNACCURACY,6.1*11
$GNGGA,035940.400,2500.7997550,N,12132.4862351,E,4,46,0.62,16.730,M,15.25,M,1,3335*42
$GNRMC,035940.400,A,2500.7997550,N,12132.4862351,E,0.04,133.34,030324,,,R,V*19
$GPHDT,354.954,T*3F
$GNACCURACY,6.1*11
$GNGGA,035940.500,2500.7997520,N,12132.4862355,E,4,46,0.62,16.733,M,15.25,M,1,3335*43
$GNRMC,035940.500,A,2500.7997520,N,12132.4862355,E,0.04,133.34,030324,,,R,V*1B
$GPHDT,,T*1B
$GNACCURACY,6.1*11
$GNGGA,035940.600,2500.7997532,N,12132.4862395,E,4,46,0.62,16.731,M,15.25,M,0,3335*4C
$GNRMC,035940.600,A,2500.7997532,N,12132.4862395,E,0.04,133.34,030324,,,R,V*17
$GPHDT,355.268,T*3A
$GNACCURACY,6.1*11
$GNGGA,035940.700,2500.7997537,N,12132.4862391,E,4,46,0.62,16.763,M,15.25,M,0,3335*4B
$GNRMC,035940.700,A,2500.7997537,N,12132.4862391,E,0.05,133.34,030324,,,R,V*16
$GPHDT,,T*1B
$GNACCURACY,6.1*11
$GNGGA,035940.800,2500.7997530,N,12132.4862402,E,4,46,0.62,16.751,M,15.25,M,0,3335*4F
$GNRMC,035940.800,A,2500.7997530,N,12132.4862402,E,0.06,133.34,030324,,,R,V*10
$GPHDT,355.365,T*36
$GNACCURACY,6.1*11
$GNGGA,035940.900,2500.7997544,N,12132.4862384,E,4,46,0.62,16.739,M,15.25,M,0,3335*4A
$GNRMC,035940.900,A,2500.7997544,N,12132.4862384,E,0.03,133.34,030324,,,R,V*1E
$GPHDT,,T*1B
$GNACCURACY,6.1*11
$GNGGA,035941.000,2500.7997534,N,12132.4862391,E,4,46,0.62,16.760,M,15.25,M,1,3335*4C
$GNRMC,035941.000,A,2500.7997534,N,12132.4862391,E,0.05,133.34,030324,,,R,V*13
$GPHDT,355.019,T*3E
$GNACCURACY,6.1*11
$GNGGA,035941.100,2500.7997556,N,12132.4862410,E,4,47,0.62,16.748,M,15.25,M,1,3335*4C
$GNRMC,035941.100,A,2500.7997556,N,12132.4862410,E,0.05,133.34,030324,,,R,V*18
$GPHDT,,T*1B
$GNGSA,A,3,08,194,199,195,27,21,16,02,04,07,196,31,1.17,0.62,0.99,1*06
$GNGSA,A,3,82,83,80,,,,,,,,,,1.17,0.62,0.99,2*08
$GNGSA,A,3,30,15,34,07,,,,,,,,,1.17,0.62,0.99,3*07
$GNGSA,A,3,34,06,09,39,40,07,25,12,24,43,44,,1.17,0.62,0.99,4*03
$GPGSV,4,1,14,08,71,316,46,194,63,047,40,50,60,167,38,199,60,167,36,1*68
$GPGSV,4,2,14,195,59,122,42,27,47,028,38,21,43,167,37,16,33,059,27,1*58
$GPGSV,4,3,14,02,32,180,37,04,29,214,34,07,28,320,21,196,21,173,30,1*53
$GPGSV,4,4,14,26,15,086,16,31,12,139,38,1*69
$GPGSV,2,1,07,08,71,316,46,194,63,047,40,199,60,167,46,195,59,122,43,8*5D
$GPGSV,2,2,07,27,47,028,35,04,29,214,38,196,21,173,26,8*6F
$GLGSV,1,1,03,82,67,055,41,83,57,178,31,80,47,011,34,1*4C
$GAGSV,2,1,05,30,50,030,38,15,45,152,40,34,43,074,26,07,34,235,41,7*7A
$GAGSV,2,2,05,27,,,34,7*74
$GAGSV,2,1,05,30,50,030,40,15,45,152,39,34,43,074,30,07,34,235,42,1*79
$GAGSV,2,2,05,27,,,42,1*73
$GBGSV,4,1,14,34,83,086,44,06,80,219,37,09,75,294,44,39,66,179,44,1*75
$GBGSV,4,2,14,40,65,318,42,07,62,297,31,25,57,344,40,12,52,044,40,1*71
$GBGSV,4,3,14,24,50,094,42,43,42,212,40,44,29,041,32,10,,,19,1*4E
$GBGSV,4,4,14,11,,,39,16,,,34,1*79
$GBGSV,2,1,06,34,83,086,44,39,66,179,42,40,65,318,37,25,57,344,34,4*7F
$GBGSV,2,2,06,24,50,094,45,44,29,041,26,4*70
$GNACCURACY,6.1*11
$PAIRSAT,1,17,2,0,201,3,0,200,4,0,221,7,0,1,8,0,21,16,0,1,21,0,1,24,0,200,25,0,200,26,0,200,27,0,221,28,0,200,31,0,1,194,0,21,195,0,21,196,0,420,199,0,21*68
$PAIRSAT,2,10,72,0,200,75,0,200,76,0,200,77,0,200,78,0,200,80,0,201,81,0,200,82,0,201,83,0,201,84,0,200*7B
$PAIRSAT,3,6,7,0,1021,12,0,200,13,0,200,15,0,221,30,0,21,34,0,1021*4D
$PAIRSAT,4,36,3,0,400,6,0,1,7,0,1,9,0,1,12,0,1,19,0,600,20,0,600,21,0,600,22,0,600,23,0,600,24,0,421,25,0,421,26,0,400,27,0,400,28,0,400,29,0,400,30,0,400,32,0,400,33,0,400,34,0,421,35,0,400,36,0,400,37,0,400,38,0,400,39,0,421,40,0,421,41,0,400,42,0,400,43,0,421,44,0,421,45,0,400,46,0,400,59,0,400,60,0,400,61,0,400,62,0,400*74
$PAIRDGP,0*45
$GNGGA,035941.200,2500.7997549,N,12132.4862408,E,4,47,0.62,16.756,M,15.25,M,1,3335*47
$GNRMC,035941.200,A,2500.7997549,N,12132.4862408,E,0.05,133.34,030324,,,R,V*1C
$GPHDT,354.567,T*33
$GNACCURACY,6.1*11
$GNGGA,035941.300,2500.7997545,N,12132.4862416,E,4,47,0.62,16.761,M,15.25,M,1,3335*41
$GNRMC,035941.300,A,2500.7997545,N,12132.4862416,E,0.04,133.34,030324,,,R,V*1F
$GPHDT,,T*1B
$GNACCURACY,6.1*11
$GNGGA,035941.400,2500.7997540,N,12132.4862418,E,4,47,0.62,16.769,M,15.25,M,1,3335*45
$GNRMC,035941.400,A,2500.7997540,N,12132.4862418,E,0.04,133.34,030324,,,R,V*13
$GPHDT,354.976,T*3F
$GNACCURACY,6.1*11
$GNGGA,035941.500,2500.7997551,N,12132.4862396,E,4,48,0.62,16.756,M,15.25,M,0,3335*47
$GNRMC,035941.500,A,2500.7997551,N,12132.4862396,E,0.04,133.34,030324,,,R,V*13
$GPHDT,,T*1B
$GNACCURACY,6.2*12
$GNGGA,035941.600,2500.7997546,N,12132.4862386,E,4,48,0.62,16.747,M,15.25,M,0,3335*43
$GNRMC,035941.600,A,2500.7997546,N,12132.4862386,E,0.10,133.34,030324,,,R,V*12
$GPHDT,355.118,T*3E
$GNACCURACY,6.2*12
$GNGGA,035941.700,2500.7997541,N,12132.4862385,E,4,48,0.62,16.757,M,15.25,M,0,3335*47
$GNRMC,035941.700,A,2500.7997541,N,12132.4862385,E,0.06,133.34,030324,,,R,V*10
$GPHDT,,T*1B
$GNACCURACY,6.2*12
$GNGGA,035941.800,2500.7997563,N,12132.4862414,E,4,48,0.62,16.754,M,15.25,M,0,3335*44
$GNRMC,035941.800,A,2500.7997563,N,12132.4862414,E,0.11,133.34,030324,,,R,V*16
$GPHDT,354.116,T*31
$GNACCURACY,6.2*12
$GNGGA,035941.900,2500.7997546,N,12132.4862386,E,4,48,0.62,16.758,M,15.25,M,0,3335*42
$GNRMC,035941.900,A,2500.7997546,N,12132.4862386,E,0.16,133.34,030324,,,R,V*1B
$GPHDT,,T*1B
$GNACCURACY,6.2*12
$GNGGA,035942.000,2500.7997548,N,12132.4862385,E,4,48,0.62,16.754,M,15.25,M,1,3335*48
$GNRMC,035942.000,A,2500.7997548,N,12132.4862385,E,0.05,133.34,030324,,,R,V*1E
$GPHDT,354.534,T*35
$GNACCURACY,6.2*12
$GNGGA,035942.100,2500.7997548,N,12132.4862406,E,4,48,0.62,16.757,M,15.25,M,1,3335*46
$GNRMC,035942.100,A,2500.7997548,N,12132.4862406,E,0.05,133.34,030324,,,R,V*13
$GPHDT,,T*1B
$GNGSA,A,3,08,194,199,195,27,21,16,02,04,07,196,31,1.17,0.62,0.99,1*06
$GNGSA,A,3,82,83,80,,,,,,,,,,1.17,0.62,0.99,2*08
$GNGSA,A,3,30,15,34,07,,,,,,,,,1.17,0.62,0.99,3*07
$GNGSA,A,3,34,06,09,39,40,07,25,12,24,43,44,,1.17,0.62,0.99,4*03
$GPGSV,4,1,14,08,71,316,46,194,63,047,40,50,60,167,38,199,60,167,36,1*68
$GPGSV,4,2,14,195,59,122,42,27,47,028,38,21,43,167,37,16,33,059,27,1*58
$GPGSV,4,3,14,02,32,180,37,04,29,214,34,07,28,320,20,196,21,173,30,1*52
$GPGSV,4,4,14,26,15,086,16,31,12,139,38,1*69
$GPGSV,2,1,07,08,71,316,46,194,63,047,40,199,60,167,46,195,59,122,43,8*5D
$GPGSV,2,2,07,27,47,028,36,04,29,214,38,196,21,173,27,8*6D
$GLGSV,1,1,03,82,67,055,41,83,57,178,32,80,47,011,34,1*4F
$GAGSV,2,1,05,30,50,030,38,15,45,152,40,34,43,074,26,07,34,235,41,7*7A
$GAGSV,2,2,05,27,,,34,7*74
$GAGSV,2,1,05,30,50,030,40,15,45,152,39,34,43,074,30,07,34,235,43,1*78
$GAGSV,2,2,05,27,,,42,1*73
$GBGSV,4,1,14,34,83,086,44,06,80,219,37,09,75,294,44,39,66,179,44,1*75
$GBGSV,4,2,14,40,65,318,42,07,62,297,32,25,57,344,38,12,52,044,40,1*7D
$GBGSV,4,3,14,24,50,094,42,43,42,212,40,44,29,041,32,10,,,19,1*4E
$GBGSV,4,4,14,11,,,39,16,,,33,1*7E
$GBGSV,2,1,07,34,83,086,44,39,66,179,42,40,65,318,37,25,57,344,34,4*7E
$GBGSV,2,2,07,24,50,094,45,43,42,212,37,44,29,041,28,4*4B
$GNACCURACY,6.2*12
$PAIRSAT,1,18,2,0,201,3,0,200,4,0,221,5,0,200,7,0,1,8,0,21,16,0,1,21,0,1,24,0,200,25,0,200,26,0,200,27,0,221,28,0,200,31,0,1,194,0,21,195,0,21,196,0,420,199,0,21*7C
$PAIRSAT,2,10,72,0,200,75,0,200,76,0,200,77,0,200,78,0,200,80,0,201,81,0,200,82,0,201,83,0,201,84,0,200*7B
$PAIRSAT,3,8,2,0,1000,7,0,1021,12,0,200,13,0,200,15,0,221,30,0,1021,31,0,1000,34,0,1021*72
$PAIRSAT,4,36,3,0,400,6,0,1,7,0,1,9,0,1,12,0,1,19,0,600,20,0,600,21,0,600,22,0,600,23,0,600,24,0,421,25,0,421,26,0,400,27,0,400,28,0,400,29,0,400,30,0,400,32,0,400,33,0,400,34,0,421,35,0,400,36,0,400,37,0,400,38,0,400,39,0,421,40,0,421,41,0,400,42,0,400,43,0,421,44,0,421,45,0,400,46,0,400,59,0,400,60,0,400,61,0,400,62,0,400*74
$PAIRDGP,0*45
$GNGGA,035942.200,2500.7997555,N,12132.4862416,E,4,48,0.62,16.752,M,15.25,M,1,3335*4D
$GNRMC,035942.200,A,2500.7997555,N,12132.4862416,E,0.04,133.34,030324,,,R,V*1C
$GPHDT,354.382,T*3E
$GNACCURACY,6.2*12
$GNGGA,035942.300,2500.7997534,N,12132.4862428,E,4,48,0.62,16.762,M,15.25,M,1,3335*45
$GNRMC,035942.300,A,2500.7997534,N,12132.4862428,E,0.03,133.34,030324,,,R,V*10
$GPHDT,,T*1B
$GNACCURACY,6.2*12
$GNGGA,035942.400,2500.7997560,N,12132.4862366,E,4,48,0.62,16.714,M,15.25,M,0,3335*4E
$GNRMC,035942.400,A,2500.7997560,N,12132.4862366,E,0.04,133.34,030324,,,R,V*1C
$GPHDT,354.415,T*37
$GNACCURACY,6.2*12
$GNGGA,035942.500,2500.7997534,N,12132.4862372,E,4,48,0.62,16.723,M,15.25,M,0,3335*4F
$GNRMC,035942.500,A,2500.7997534,N,12132.4862372,E,0.04,133.34,030324,,,R,V*19
$GPHDT,,T*1B
$GNACCURACY,6.2*12
$GNGGA,035942.600,2500.7997551,N,12132.4862386,E,4,48,0.62,16.729,M,15.25,M,0,3335*4E
$GNRMC,035942.600,A,2500.7997551,N,12132.4862386,E,0.05,133.34,030324,,,R,V*13
$GPHDT,354.223,T*34
$GNACCURACY,6.2*12
$GNGGA,035942.700,2500.7997553,N,12132.4862348,E,4,48,0.62,16.719,M,15.25,M,0,3335*4C
$GNRMC,035942.700,A,2500.7997553,N,12132.4862348,E,0.05,133.34,030324,,,R,V*12
$GPHDT,,T*1B
$GNACCURACY,6.3*13
$GNGGA,035942.800,2500.7997549,N,12132.4862367,E,4,48,0.62,16.721,M,15.25,M,0,3335*4E
$GNRMC,035942.800,A,2500.7997549,N,12132.4862367,E,0.06,133.34,030324,,,R,V*18
$GPHDT,354.270,T*32
$GNACCURACY,6.3*13
$GNGGA,035942.900,2500.7997554,N,12132.4862369,E,4,48,0.62,16.729,M,15.25,M,0,3335*45
$GNRMC,035942.900,A,2500.7997554,N,12132.4862369,E,0.16,133.34,030324,,,R,V*1A
$GPHDT,,T*1B
$GNACCURACY,6.3*13
$GNGGA,035943.000,2500.7997545,N,12132.4862357,E,4,48,0.62,16.728,M,15.25,M,1,3335*40
$GNRMC,035943.000,A,2500.7997545,N,12132.4862357,E,0.07,133.34,030324,,,R,V*1F
$GPHDT,354.411,T*33
$GNACCURACY,6.3*13
$GNGGA,035943.100,2500.7997566,N,12132.4862412,E,4,48,0.62,16.740,M,15.25,M,1,3335*48
$GNRMC,035943.100,A,2500.7997566,N,12132.4862412,E,0.06,133.34,030324,,,R,V*18
$GPHDT,,T*1B
$GNGSA,A,3,08,194,199,195,27,21,16,02,04,07,196,31,1.17,0.62,0.99,1*06
$GNGSA,A,3,82,