$FW : RTK35X,V1.1X0314AS,Lib20210517,1*54
$Tool : LOCOSYS , GNSS Firebird , v1.0.0.19*39
$---------------------------------------------------*2D
B
$GNACCURACY,5.4*17
$GNGGA,040009.600,2500.7997573,N,12132.4862393,E,4,49,0.58,16.660,M,15.25,M,0,3335*4A
$GNRMC,040009.600,A,2500.7997573,N,12132.4862393,E,0.01,133.34,030324,,,R,V*17
$GPHDT,177.492,T*3B
$GNACCURACY,5.4*17
$GNGGA,040009.700,2500.7997542,N,12132.4862395,E,4,49,0.58,16.683,M,15.25,M,0,3335*42
$GNRMC,040009.700,A,2500.7997542,N,12132.4862395,E,0.01,133.34,030324,,,R,V*12
$GPHDT,,T*1B
$GNACCURACY,5.4*17
$GNGGA,040009.800,2500.7997532,N,12132.4862349,E,4,50,0.58,16.665,M,15.25,M,0,3335*4B
$GNRMC,040009.800,A,2500.7997532,N,12132.4862349,E,0.01,133.34,030324,,,R,V*1B
$GPHDT,176.706,T*34
$GNACCURACY,5.4*17
$GNGGA,040009.900,2500.7997540,N,12132.4862372,E,4,50,0.58,16.657,M,15.25,M,0,3335*46
$GNRMC,040009.900,A,2500.7997540,N,12132.4862372,E,0.01,133.34,030324,,,R,V*17
$GPHDT,,T*1B
$GNACCURACY,5.4*17
$GNGGA,040010.000,2500.7997541,N,12132.4862342,E,4,50,0.58,16.648,M,15.25,M,1,3335*4A
$GNRMC,040010.000,A,2500.7997541,N,12132.4862342,E,0.01,133.34,030324,,,R,V*14
$GPHDT,177.061,T*33
$GNACCURACY,5.4*17
$GNGGA,040010.100,2500.7997531,N,12132.4862354,E,4,50,0.58,16.648,M,15.25,M,1,3335*4B
$GNRMC,040010.100,A,2500.7997531,N,12132.4862354,E,0.01,133.34,030324,,,R,V*15
$GPHDT,,T*1B
$GNGSA,A,3,08,194,199,195,27,21,16,02,04,07,196,31,1.12,0.58,0.96,1*05
$GNGSA,A,3,82,83,80,,,,,,,,,,1.12,0.58,0.96,2*0B
$GNGSA,A,3,30,15,34,27,07,,,,,,,,1.12,0.58,0.96,3*01
$GNGSA,A,3,34,06,09,39,40,07,25,12,24,43,44,,1.12,0.58,0.96,4*00
$GPGSV,4,1,14,08,71,317,43,194,63,047,41,50,60,167,39,199,60,167,37,1*6D
$GPGSV,4,2,14,195,59,122,41,27,46,028,41,21,44,167,38,16,33,059,34,1*5E
$GPGSV,4,3,14,02,32,180,32,04,29,214,23,07,28,320,31,196,21,173,26,1*56
$GPGSV,4,4,14,26,15,087,17,31,12,139,34,1*65
$GPGSV,2,1,07,08,71,317,46,194,63,047,39,199,60,167,46,195,59,122,45,8*54
$GPGSV,2,2,07,27,46,028,41,04,29,214,35,196,21,173,32,8*65
$GLGSV,1,1,03,82,67,054,39,83,57,178,25,80,47,011,32,1*41
$GAGSV,2,1,06,30,50,030,40,15,45,151,42,34,43,073,21,27,36,314,40,7*74
$GAGSV,2,2,06,07,34,235,37,02,16,080,,7*78
$GAGSV,2,1,05,30,50,030,40,15,45,151,43,34,43,073,31,27,36,314,43,1*72
$GAGSV,2,2,05,07,34,235,40,1*40
$GBGSV,4,1,13,34,83,084,46,06,79,219,38,09,75,294,42,39,66,179,43,1*7A
$GBGSV,4,2,13,40,64,318,40,07,62,297,38,25,57,344,36,12,52,044,43,1*7E
$GBGSV,4,3,13,24,50,095,38,43,43,213,35,44,28,041,27,23,13,314,35,1*78
$GBGSV,4,4,13,56,,,43,1*70
$GBGSV,2,1,07,34,83,084,42,39,66,179,42,40,64,318,32,25,57,344,29,4*72
$GBGSV,2,2,07,24,50,095,34,43,43,213,25,44,28,041,28,4*4E
$GNACCURACY,5.4*17
$PAIRSAT,1,18,2,0,201,3,0,200,4,0,221,5,0,200,7,0,1,8,0,21,16,0,1,21,0,1,24,0,200,25,0,200,26,0,200,27,0,221,28,0,200,31,0,1,194,0,21,195,0,21,196,0,420,199,0,21*7C
$PAIRSAT,2,14,72,0,200,75,0,200,76,0,200,77,0,200,78,0,200,80,0,201,81,0,200,82,0,201,83,0,201,84,0,200,85,0,200,86,0,200,87,0,200,88,0,200*73
$PAIRSAT,3,10,2,0,1000,7,0,1021,12,0,200,13,0,200,15,0,221,19,0,200,27,0,1,30,0,1021,31,0,1000,34,0,1021*45
$PAIRSAT,4,36,3,0,400,6,0,1,7,0,1,9,0,1,12,0,1,19,0,600,20,0,600,21,0,600,22,0,600,23,0,600,24,0,621,25,0,421,26,0,400,27,0,400,28,0,400,29,0,400,30,0,400,32,0,400,33,0,400,34,0,421,35,0,400,36,0,400,37,0,400,38,0,400,39,0,421,40,0,421,41,0,400,42,0,400,43,0,421,44,0,421,45,0,400,46,0,400,59,0,400,60,0,400,61,0,400,62,0,400*76
$PAIRDGP,6,2,7,8,16,21,27*7F
$GNGGA,040010.200,2500.7997536,N,12132.4862346,E,4,50,0.58,16.638,M,15.25,M,1,3335*4B
$GNRMC,040010.200,A,2500.7997536,N,12132.4862346,E,0.01,133.34,030324,,,R,V*12
$GPHDT,177.208,T*3E
$GNACCURACY,5.5*16
$GNGGA,040010.300,2500.7997548,N,12132.4862326,E,4,50,0.58,16.652,M,15.25,M,1,3335*49
$GNRMC,040010.300,A,2500.7997548,N,12132.4862326,E,0.01,133.34,030324,,,R,V*1C
$GPHDT,,T*1B
$GNACCURACY,5.5*16
$GNGGA,040010.400,2500.7997541,N,12132.4862340,E,4,50,0.58,16.628,M,15.25,M,1,3335*4A
$GNRMC,040010.400,A,2500.7997541,N,12132.4862340,E,0.01,133.34,030324,,,R,V*12
$GPHDT,176.928,T*36
$GNACCURACY,5.4*17
$GNGGA,040010.500,2500.7997521,N,12132.4862345,E,4,50,0.58,16.634,M,15.25,M,0,3335*44
$GNRMC,040010.500,A,2500.7997521,N,12132.4862345,E,0.01,133.34,030324,,,R,V*10
$GPHDT,,T*1B
$GNACCURACY,5.4*17
$GNGGA,040010.600,2500.7997532,N,12132.4862356,E,4,50,0.58,16.621,M,15.25,M,0,3335*43
$GNRMC,040010.600,A,2500.7997532,N,12132.4862356,E,0.01,133.34,030324,,,R,V*13
$GPHDT,177.230,T*35
$GNACCURACY,5.4*17
$GNGGA,040010.700,2500.7997523,N,12132.4862332,E,4,50,0.58,16.611,M,15.25,M,0,3335*43
$GNRMC,040010.700,A,2500.7997523,N,12132.4862332,E,0.01,133.34,030324,,,R,V*10
$GPHDT,,T*1B
$GNACCURACY,5.4*17
$GNGGA,040010.800,2500.7997500,N,12132.4862336,E,4,50,0.58,16.615,M,15.25,M,0,3335*4D
$GNRMC,040010.800,A,2500.7997500,N,12132.4862336,E,0.01,133.34,030324,,,R,V*1A
$GPHDT,177.153,T*33
$GNACCURACY,5.4*17
$GNGGA,040010.900,2500.7997498,N,12132.4862371,E,4,50,0.58,16.635,M,15.25,M,0,3335*4D
$GNRMC,040010.900,A,2500.7997498,N,12132.4862371,E,0.01,133.34,030324,,,R,V*18
$GPHDT,,T*1B
$GNACCURACY,5.4*17
$GNGGA,040011.000,2500.7997533,N,12132.4862395,E,4,50,0.58,16.639,M,15.25,M,1,3335*42
$GNRMC,040011.000,A,2500.7997533,N,12132.4862395,E,0.01,133.34,030324,,,R,V*1A
$GPHDT,176.879,T*33
$GNACCURACY,5.4*17
$GNGGA,040011.100,2500.7997516,N,12132.4862415,E,4,50,0.58,16.665,M,15.25,M,1,3335*42
$GNRMC,040011.100,A,2500.7997516,N,12132.4862415,E,0.01,133.34,030324,,,R,V*13
$GPHDT,,T*1B
$GNGSA,A,3,08,194,199,195,27,21,16,02,04,07,196,31,1.12,0.58,0.96,1*05
$GNGSA,A,3,82,83,80,,,,,,,,,,1.12,0.58,0.96,2*0B
$GNGSA,A,3,30,15,34,27,07,,,,,,,,1.12,0.58,0.96,3*01
$GNGSA,A,3,34,06,09,39,40,07,25,12,24,43,44,,1.12,0.58,0.96,4*00
$GPGSV,4,1,14,08,71,317,43,194,63,047,41,50,60,167,39,199,60,167,37,1*6D
$GPGSV,4,2,14,195,59,122,43,27,46,028,41,21,44,167,38,16,33,059,34,1*5C
$GPGSV,4,3,14,02,32,180,35,04,29,214,29,07,28,320,31,196,21,173,27,1*5A
$GPGSV,4,4,14,26,15,087,17,31,12,139,34,1*65
$GPGSV,2,1,07,08,71,317,47,194,63,047,39,199,60,167,45,195,59,122,46,8*55
$GPGSV,2,2,07,27,46,028,39,04,29,214,33,196,21,173,33,8*6D
$GLGSV,1,1,03,82,67,054,37,83,57,178,28,80,47,011,32,1*42
$GAGSV,2,1,06,30,50,030,40,15,45,151,41,34,43,073,27,27,36,314,42,7*73
$GAGSV,2,2,06,07,34,235,35,02,16,080,,7*7A
$GAGSV,2,1,05,30,50,030,41,15,45,151,44,34,43,073,32,27,36,314,42,1*76
$GAGSV,2,2,05,07,34,235,40,1*40
$GBGSV,4,1,13,34,83,084,46,06,79,219,38,09,75,294,43,39,66,179,43,1*7B
$GBGSV,4,2,13,40,64,318,41,07,62,297,38,25,57,344,36,12,52,044,43,1*7F
$GBGSV,4,3,13,24,50,095,39,43,43,213,34,44,28,041,30,23,13,314,38,1*73
$GBGSV,4,4,13,56,,,43,1*70
$GBGSV,2,1,08,34,83,084,43,39,66,179,42,40,64,318,33,25,57,344,29,4*7D
$GBGSV,2,2,08,24,50,095,37,43,43,213,29,44,28,041,30,23,13,314,32,4*73
$GNACCURACY,5.4*17
$PAIRSAT,1,18,2,0,201,3,0,200,4,0,221,5,0,200,7,0,1,8,0,21,16,0,1,21,0,1,24,0,200,25,0,200,26,0,200,27,0,221,28,0,200,31,0,1,194,0,21,195,0,21,196,0,420,199,0,21*7C
$PAIRSAT,2,14,72,0,200,75,0,200,76,0,200,77,0,200,78,0,200,80,0,201,81,0,200,82,0,201,83,0,201,84,0,200,85,0,200,86,0,200,87,0,200,88,0,200*73
$PAIRSAT,3,10,2,0,1000,7,0,1021,12,0,200,13,0,200,15,0,221,19,0,200,27,0,1,30,0,1021,31,0,1000,34,0,1021*45
$PAIRSAT,4,36,3,0,400,6,0,1,7,0,1,9,0,1,12,0,1,19,0,600,20,0,600,21,0,600,22,0,600,23,0,600,24,0,621,25,0,421,26,0,400,27,0,400,28,0,400,29,0,400,30,0,400,32,0,400,33,0,400,34,0,421,35,0,400,36,0,400,37,0,400,38,0,400,39,0,421,40,0,421,41,0,400,42,0,400,43,0,421,44,0,421,45,0,400,46,0,400,59,0,400,60,0,400,61,0,400,62,0,400*76
$PAIRDGP,6,2,7,8,16,21,27*7F
$GNGGA,040011.200,2500.7997510,N,12132.4862406,E,4,50,0.58,16.645,M,15.25,M,1,3335*47
$GNRMC,040011.200,A,2500.7997510,N,12132.4862406,E,0.01,133.34,030324,,,R,V*14
$GPHDT,176.920,T*3E
$GNACCURACY,5.4*17
$GNGGA,040011.300,2500.7997485,N,12132.4862333,E,4,50,0.58,16.617,M,15.25,M,1,3335*4D
$GNRMC,040011.300,A,2500.7997485,N,12132.4862333,E,0.01,133.34,030324,,,R,V*19
$GPHDT,,T*1B
$GNACCURACY,5.4*17
$GNGGA,040011.400,2500.7997481,N,12132.4862316,E,4,50,0.58,16.640,M,15.25,M,1,3335*4B
$GNRMC,040011.400,A,2500.7997481,N,12132.4862316,E,0.01,133.34,030324,,,R,V*1D
$GPHDT,176.492,T*3A
$GNACCURACY,5.4*17
$GNGGA,040011.500,2500.7997483,N,12132.4862307,E,4,50,0.58,16.630,M,15.25,M,0,3335*4E
$GNRMC,040011.500,A,2500.7997483,N,12132.4862307,E,0.01,133.34,030324,,,R,V*1E
$GPHDT,,T*1B
$GNACCURACY,5.4*17
$GNGGA,040011.600,2500.7997463,N,12132.4862365,E,4,50,0.58,16.657,M,15.25,M,0,3335*46
$GNRMC,040011.600,A,2500.7997463,N,12132.4862365,E,0.01,133.34,030324,,,R,V*17
$GPHDT,177.606,T*34
$GNACCURACY,5.4*17
$GNGGA,040011.700,2500.7997485,N,12132.4862366,E,4,50,0.58,16.651,M,15.25,M,0,3335*4A
$GNRMC,040011.700,A,2500.7997485,N,12132.4862366,E,0.01,133.34,030324,,,R,V*1D
$GPHDT,,T*1B
$GNACCURACY,5.4*17
$GNGGA,040011.800,2500.7997453,N,12132.4862385,E,4,50,0.58,16.681,M,15.25,M,0,3335*4E
$GNRMC,040011.800,A,2500.7997453,N,12132.4862385,E,0.01,133.34,030324,,,R,V*14
$GPHDT,177.474,T*33
$GNACCURACY,5.4*17
$GNGGA,040011.900,2500.7997477,N,12132.4862402,E,4,50,0.58,16.659,M,15.25,M,0,3335*44
$GNRMC,040011.900,A,2500.7997477,N,12132.4862402,E,0.01,133.34,030324,,,R,V*1B
$GPHDT,,T*1B
$GNACCURACY,5.4*17
$GNGGA,040012.000,2500.7997487,N,12132.4862362,E,4,50,0.58,16.662,M,15.25,M,1,3335*49
$GNRMC,040012.000,A,2500.7997487,N,12132.4862362,E,0.01,133.34,030324,,,R,V*1F
$GPHDT,176.723,T*33
$GNACCURACY,5.5*16
$GNGGA,040012.100,2500.7997457,N,12132.4862394,E,4,50,0.58,16.669,M,15.25,M,1,3335*47
$GNRMC,040012.100,A,2500.7997457,N,12132.4862394,E,0.00,133.34,030324,,,R,V*1B
$GPHDT,,T*1B
$GNGSA,A,3,08,194,199,195,27,21,16,02,04,07,196,31,1.12,0.58,0.96,1*05
$GNGSA,A,3,82,83,80,,,,,,,,,,1.12,0.58,0.96,2*0B
$GNGSA,A,3,30,15,34,27,07,,,,,,,,1.12,0.58,0.96,3*01
$GNGSA,A,3,34,06,09,39,40,07,25,12,24,43,44,,1.12,0.58,0.96,4*00
$GPGSV,4,1,14,08,71,317,42,194,63,047,41,50,60,167,39,199,60,167,38,1*63
$GPGSV,4,2,14,195,59,122,43,27,46,028,41,21,44,167,37,16,33,059,34,1*53
$GPGSV,4,3,14,02,32,180,34,04,29,214,28,07,28,320,27,196,21,173,29,1*53
$GPGSV,4,4,14,26,15,087,18,31,12,139,32,1*6C
$GPGSV,2,1,07,08,71,317,47,194,63,047,38,199,60,167,45,195,59,122,46,8*54
$GPGSV,2,2,07,27,46,028,39,04,29,214,34,196,21,173,33,8*6A
$GLGSV,1,1,03,82,67,054,39,83,57,178,30,80,47,011,33,1*44
$GAGSV,2,1,06,30,50,030,41,15,45,151,41,34,43,073,22,27,36,314,41,7*74
$GAGSV,2,2,06,07,34,235,38,02,16,080,,7*77
$GAGSV,2,1,05,30,50,030,41,15,45,151,44,34,43,073,32,27,36,314,43,1*77
$GAGSV,2,2,05,07,34,235,41,1*41
$GBGSV,4,1,13,34,83,084,46,06,79,219,40,09,75,294,43,39,66,179,43,1*74
$GBGSV,4,2,13,40,64,318,41,07,62,297,38,25,57,344,36,12,52,044,43,1*7F
$GBGSV,4,3,13,24,50,095,41,43,43,213,35,44,28,041,28,23,13,314,39,1*75
$GBGSV,4,4,13,56,,,43,1*70
$GBGSV,2,1,08,34,83,084,43,39,66,179,41,40,64,318,31,25,57,344,34,4*70
$GBGSV,2,2,08,24,50,095,37,43,43,213,31,44,28,041,30,23,13,314,36,4*7E
$GNACCURACY,5.5*16
$PAIRSAT,1,19,2,0,201,3,0,200,4,0,221,5,0,200,6,0,200,7,0,1,8,0,21,16,0,1,21,0,1,24,0,200,25,0,200,26,0,200,27,0,221,28,0,200,31,0,1,194,0,21,195,0,21,196,0,420,199,0,21*65
$PAIRSAT,2,14,72,0,200,75,0,200,76,0,200,77,0,200,78,0,200,80,0,201,81,0,200,82,0,201,83,0,201,84,0,200,85,0,200,86,0,200,87,0,200,88,0,200*73
$PAIRSAT,3,10,2,0,1000,7,0,1021,12,0,200,13,0,200,15,0,221,19,0,200,27,0,1,30,0,1021,31,0,1000,34,0,1021*45
$PAIRSAT,4,36,3,0,400,6,0,1,7,0,1,9,0,1,12,0,1,19,0,600,20,0,600,21,0,600,22,0,600,23,0,600,24,0,621,25,0,421,26,0,400,27,0,400,28,0,400,29,0,400,30,0,400,32,0,400,33,0,400,34,0,421,35,0,400,36,0,400,37,0,400,38,0,400,39,0,421,40,0,421,41,0,400,42,0,400,43,0,421,44,0,421,45,0,400,46,0,400,59,0,400,60,0,400,61,0,400,62,0,400*76
$PAIRDGP,6,2,7,8,16,21,27*7F
$GNGGA,040012.200,2500.7997475,N,12132.4862392,E,4,50,0.58,16.684,M,15.25,M,1,3335*41
$GNRMC,040012.200,A,2500.7997475,N,12132.4862392,E,0.01,133.34,030324,,,R,V*1F
$GPHDT,176.858,T*30
$GNACCURACY,5.5*16
$GNGGA,040012.300,2500.7997485,N,12132.4862388,E,4,50,0.58,16.676,M,15.25,M,1,3335*49
$GNRMC,040012.300,A,2500.7997485,N,12132.4862388,E,0.00,133.34,030324,,,R,V*1B
$GPHDT,,T*1B
$GNACCURACY,5.5*16
$GNGGA,040012.400,2500.7997491,N,12132.4862362,E,4,50,0.58,16.638,M,15.25,M,1,3335*45
$GNRMC,040012.400,A,2500.7997491,N,12132.4862362,E,0.00,133.34,030324,,,R,V*1D
$GPHDT,176.947,T*3F
$GNACCURACY,5.5*16
$GNGGA,040012.500,2500.7997490,N,12132.4862358,E,4,50,0.58,16.657,M,15.25,M,0,3335*44
$GNRMC,040012.500,A,2500.7997490,N,12132.4862358,E,0.00,133.34,030324,,,R,V*14
$GPHDT,,T*1B
$GNACCURACY,5.5*16
$GNGGA,040012.600,2500.7997499,N,12132.4862348,E,4,50,0.58,16.649,M,15.25,M,0,3335*40
$GNRMC,040012.600,A,2500.7997499,N,12132.4862348,E,0.02,133.34,030324,,,R,V*1D
$GPHDT,177.272,T*33
$GNACCURACY,5.5*16
$GNGGA,040012.700,2500.7997490,N,12132.4862353,E,4,50,0.58,16.658,M,15.25,M,0,3335*42
$GNRMC,040012.700,A,2500.7997490,N,12132.4862353,E,0.03,133.34,030324,,,R,V*1E
$GPHDT,,T*1B
$GNACCURACY,5.6*15
$GNGGA,040012.800,2500.7997507,N,12132.4862337,E,4,50,0.58,16.652,M,15.25,M,0,3335*4A
$GNRMC,040012.800,A,2500.7997507,N,12132.4862337,E,0.03,133.34,030324,,,R,V*1C
$GPHDT,177.064,T*36
$GNACCURACY,5.6*15
$GNGGA,040012.900,2500.7997477,N,12132.4862378,E,4,50,0.58,16.692,M,15.25,M,0,3335*4A
$GNRMC,040012.900,A,2500.7997477,N,12132.4862378,E,0.05,133.34,030324,,,R,V*16
$GPHDT,,T*1B
$GNACCURACY,5.6*15
$GNGGA,040013.000,2500.7997501,N,12132.4862367,E,4,50,0.58,16.660,M,15.25,M,1,3335*40
$GNRMC,040013.000,A,2500.7997501,N,12132.4862367,E,0.04,133.34,030324,,,R,V*11
$GPHDT,177.214,T*33
$GNACCURACY,5.6*15
$GNGGA,040013.100,2500.7997494,N,12132.4862373,E,4,50,0.58,16.681,M,15.25,M,1,3335*46
$GNRMC,040013.100,A,2500.7997494,N,12132.4862373,E,0.04,133.34,030324,,,R,V*18
$GPHDT,,T*1B
$GNGSA,A,3,08,194,199,195,27,21,16,02,04,07,196,31,1.12,0.58,0.96,1*05
$GNGSA,A,3,82,83,80,,,,,,,,,,1.12,0.58,0.96,2*0B
$GNGSA,A,3,30,15,34,27,07,,,,,,,,1.12,0.58,0.96,3*01
$GNGSA,A,3,34,06,09,39,40,07,25,12,24,43,44,,1.12,0.58,0.96,4*00
$GPGSV,4,1,14,08,71,317,43,194,63,047,41,50,60,167,40,199,60,167,38,1*6C
$GPGSV,4,2,14,195,59,122,43,27,46,028,41,21,44,167,38,16,33,059,33,1*5B
$GPGSV,4,3,14,02,32,180,33,04,29,214,24,07,28,320,25,196,21,173,28,1*5B
$GPGSV,4,4,14,26,15,087,21,31,12,139,32,1*66
$GPGSV,2,1,07,08,71,317,47,194,63,047,38,199,60,167,46,195,59,122,46,8*57
$GPGSV,2,2,07,27,46,028,41,04,29,214,35,196,21,173,33,8*64
$GLGSV,1,1,03,82,67,054,39,83,57,178,31,80,47,011,35,1*43
$GAGSV,2,1,06,30,50,030,41,15,45,151,41,34,43,073,23,27,36,314,40,7*74
$GAGSV,2,2,06,07,34,235,38,02,16,080,,7*77
$GAGSV,2,1,05,30,50,030,41,15,45,151,44,34,43,073,32,27,36,314,43,1*77
$GAGSV,2,2,05,07,34,235,41,1*41
$GBGSV,4,1,13,34,83,084,46,06,79,219,40,09,75,294,43,39,66,179,43,1*74
$GBGSV,4,2,13,40,64,318,41,07,62,297,38,25,57,344,36,12,52,044,43,1*7F
$GBGSV,4,3,13,24,50,095,42,43,43,213,36,44,28,041,30,23,13,314,40,1*72
$GBGSV,4,4,13,56,,,43,1*70
$GBGSV,2,1,08,34,83,084,43,39,66,179,41,40,64,318,32,25,57,344,34,4*73
$GBGSV,2,2,08,24,50,095,37,43,43,213,31,44,28,041,30,23,13,314,36,4*7E
$GNACCURACY,5.6*15
$PAIRSAT,1,19,2,0,201,3,0,200,4,0,221,5,0,200,6,0,200,7,0,1,8,0,21,16,0,1,21,0,1,24,0,200,25,0,200,26,0,200,27,0,221,28,0,200,31,0,1,194,0,21,195,0,21,196,0,420,199,0,21*65
$PAIRSAT,2,14,72,0,200,75,0,200,76,0,200,77,0,200,78,0,200,80,0,201,81,0,200,82,0,201,83,0,201,84,0,200,85,0,200,86,0,200,87,0,200,88,0,200*73
$PAIRSAT,3,10,2,0,1000,7,0,1021,12,0,200,13,0,200,15,0,221,19,0,200,27,0,1,30,0,1021,31,0,1000,34,0,1021*45
$PAIRSAT,4,36,3,0,400,6,0,1,7,0,1,9,0,1,12,0,1,19,0,600,20,0,600,21,0,600,22,0,600,23,0,600,24,0,621,25,0,421,26,0,400,27,0,400,28,0,400,29,0,400,30,0,400,32,0,400,33,0,400,34,0,421,35,0,400,36,0,400,37,0,400,38,0,400,39,0,421,40,0,421,41,0,400,42,0,400,43,0,421,44,0,421,45,0,400,46,0,400,59,0,400,60,0,400,61,0,400,62,0,400*76
$PAIRDGP,6,2,7,8,16,21,27*7F
$GNGGA,040013.200,2500.7997491,N,12132.4862389,E,4,50,0.58,16.681,M,15.25,M,1,3335*45
$GNRMC,040013.200,A,2500.7997491,N,12132.4862389,E,0.04,133.34,030324,,,R,V*1B
$GPHDT,177.740,T*37
$GNACCURACY,5.6*15
$GNGGA,040013.300,2500.7997510,N,12132.4862373,E,4,50,0.58,16.673,M,15.25,M,1,3335*44
$GNRMC,040013.300,A,2500.7997510,N,12132.4862373,E,0.04,133.34,030324,,,R,V*17
$GPHDT,,T*1B
$GNACCURACY,5.6*15
$GNGGA,040013.400,2500.7997502,N,12132.4862364,E,4,50,0.58,16.672,M,15.25,M,1,3335*47
$GNRMC,040013.400,A,2500.7997502,N,12132.4862364,E,0.04,133.34,030324,,,R,V*15
$GPHDT,177.131,T*37
$GNACCURACY,5.6*15
$GNGGA,040013.500,2500.7997503,N,12132.4862367,E,4,50,0.58,16.665,M,15.25,M,1,3335*42
$GNRMC,040013.500,A,2500.7997503,N,12132.4862367,E,0.05,133.34,030324,,,R,V*17
$GPHDT,,T*1B
$GNACCURACY,5.6*15
$GNGGA,040013.600,2500.7997502,N,12132.4862402,E,4,50,0.58,16.680,M,15.25,M,0,3335*4E
$GNRMC,040013.600,A,2500.7997502,N,12132.4862402,E,0.05,133.34,030324,,,R,V*11
$GPHDT,177.406,T*36
$GNACCURACY,5.6*15
$GNGGA,040013.700,2500.7997505,N,12132.4862371,E,4,50,0.58,16.674,M,15.25,M,0,3335*40
$GNRMC,040013.700,A,2500.7997505,N,12132.4862371,E,0.05,133.34,030324,,,R,V*14
$GPHDT,,T*1B
$GNACCURACY,5.6*15
$GNGGA,040013.800,2500.7997501,N,12132.4862394,E,4,50,0.58,16.688,M,15.25,M,0,3335*43
$GNRMC,040013.800,A,2500.7997501,N,12132.4862394,E,0.06,133.34,030324,,,R,V*17
$GPHDT,176.749,T*3F
$GNACCURACY,5.6*15
$GNGGA,040013.900,2500.7997511,N,12132.4862392,E,4,50,0.58,16.678,M,15.25,M,0,3335*4A
$GNRMC,040013.900,A,2500.7997511,N,12132.4862392,E,0.06,133.34,030324,,,R,V*11
$GPHDT,,T*1B
$GNACCURACY,5.6*15
$GNGGA,040014.000,2500.7997503,N,12132.4862385,E,4,50,0.58,16.663,M,15.25,M,1,3335*4A
$GNRMC,040014.000,A,2500.7997503,N,12132.4862385,E,0.07,133.34,030324,,,R,V*1B
$GPHDT,176.577,T*30
$GNACCURACY,5.6*15
$GNGGA,040014.100,2500.7997510,N,12132.4862379,E,4,50,0.58,16.664,M,15.25,M,1,3335*4D
$GNRMC,040014.100,A,2500.7997510,N,12132.4862379,E,0.06,133.34,030324,,,R,V*1A
$GPHDT,,T*1B
$GNGSA,A,3,08,194,199,195,27,21,16,02,04,07,196,31,1.12,0.58,0.96,1*05
$GNGSA,A,3,82,83,80,,,,,,,,,,1.12,0.58,0.96,2*0B
$GNGSA,A,3,30,15,34,27,07,,,,,,,,1.12,0.58,0.96,3*01
$GNGSA,A,3,34,06,09,39,40,07,25,12,24,43,44,,1.12,0.58,0.96,4*00
$GPGSV,4,1,14,08,71,317,44,194,63,047,41,50,60,167,40,199,60,167,38,1*6B
$GPGSV,4,2,14,195,59,122,43,27,46,028,41,21,44,167,38,16,33,059,33,1*5B
$GPGSV,4,3,14,02,32,180,31,04,29,214,25,07,28,320,26,196,21,173,27,1*54
$GPGSV,4,4,14,26,15,087,23,31,12,139,32,1*64
$GPGSV,2,1,07,08,71,317,47,194,63,047,37,199,60,167,46,195,59,122,45,8*5B
$GPGSV,2,2,07,27,46,028,41,04,29,214,36,196,21,173,33,8*67
$GLGSV,1,1,03,82,67,054,39,83,57,178,31,80,47,011,36,1*40
$GAGSV,2,1,06,30,50,030,40,15,45,151,41,34,43,073,24,27,36,314,39,7*7C
$GAGSV,2,2,06,07,34,235,38,02,16,080,,7*77
$GAGSV,2,1,05,30,50,030,41,15,45,151,43,34,43,073,32,27,36,314,43,1*70
$GAGSV,2,2,05,07,34,235,41,1*41
$GBGSV,4,1,13,34,83,084,45,06,79,219,40,09,75,294,43,39,66,179,43,1*77
$GBGSV,4,2,13,40,64,318,40,07,62,297,39,25,57,344,36,12,52,044,43,1*7F
$GBGSV,4,3,13,24,50,095,42,43,43,213,36,44,28,041,30,23,13,314,40,1*72
$GBGSV,4,4,13,56,,,43,1*70
$GBGSV,2,1,08,34,83,084,42,39,66,179,42,40,64,318,30,25,57,344,34,4*73
$GBGSV,2,2,08,24,50,095,37,43,43,213,32,44,28,041,28,23,13,314,36,4*74
$GNACCURACY,5.6*15
$PAIRSAT,1,19,2,0,201,3,0,200,4,0,221,5,0,200,6,0,200,7,0,1,8,0,21,16,0,1,21,0,1,24,0,200,25,0,200,26,0,200,27,0,221,28,0,200,31,0,1,194,0,21,195,0,21,196,0,420,199,0,21*65
$PAIRSAT,2,14,72,0,200,75,0,200,76,0,200,77,0,200,78,0,200,80,0,201,81,0,200,82,0,201,83,0,201,84,0,200,85,0,200,86,0,200,87,0,200,88,0,200*73
$PAIRSAT,3,10,2,0,1000,7,0,1021,12,0,200,13,0,200,15,0,221,19,0,200,27,0,1,30,0,1021,31,0,1000,34,0,1021*45
$PAIRSAT,4,36,3,0,400,6,0,1,7,0,1,9,0,1,12,0,1,19,0,600,20,0,600,21,0,600,22,0,600,23,0,600,24,0,621,25,0,421,26,0,400,27,0,400,28,0,400,29,0,400,30,0,400,32,0,400,33,0,400,34,0,421,35,0,400,36,0,400,37,0,400,38,0,400,39,0,421,40,0,421,41,0,400,42,0,400,43,0,421,44,0,421,45,0,400,46,0,400,59,0,400,60,0,400,61,0,400,62,0,400*76
$PAIRDGP,6,2,7,8,16,21,27*7F
$GNGGA,040014.200,2500.7997516,N,12132.4862382,E,4,50,0.58,16.664,M,15.25,M,1,3335*4C
$GNRMC,040014.200,A,2500.7997516,N,12132.4862382,E,0.06,133.34,030324,,,R,V*1B
$GPHDT,176.592,T*3B
$GNACCURACY,5.6*15
$GNGGA,040014.300,2500.7997494,N,12132.4862386,E,4,50,0.58,16.669,M,15.25,M,1,3335*4F
$GNRMC,040014.300,A,2500.7997494,N,12132.4862386,E,0.06,133.34,030324,,,R,V*15
$GPHDT,,T*1B
$GNACCURACY,5.6*15
$GNGGA,040014.400,2500.7997529,N,12132.4862373,E,4,50,0.58,16.650,M,15.25,M,1,3335*4F
$GNRMC,040014.400,A,2500.7997529,N,12132.4862373,E,0.06,133.34,030324,,,R,V*1F
$GPHDT,176.277,T*37
$GNACCURACY,5.6*15
$GNGGA,040014.500,2500.7997517,N,12132.4862389,E,4,50,0.58,16.664,M,15.25,M,1,3335*41
$GNRMC,040014.500,A,2500.7997517,N,12132.4862389,E,0.05,133.34,030324,,,R,V*15
$GPHDT,,T*1B
$GNACCURACY,5.6*15
$GNGGA,040014.600,2500.7997474,N,12132.4862385,E,4,50,0.58,16.679,M,15.25,M,0,3335*47
$GNRMC,040014.600,A,2500.7997474,N,12132.4862385,E,0.05,133.34,030324,,,R,V*1E
$GPHDT,176.318,T*3F
$GNACCURACY,5.6*15
$GNGGA,040014.700,2500.7997486,N,12132.4862401,E,4,50,0.58,16.674,M,15.25,M,0,3335*4D
$GNRMC,040014.700,A,2500.7997486,N,12132.4862401,E,0.06,133.34,030324,,,R,V*1A
$GPHDT,,T*1B
$GNACCURACY,5.6*15
$GNGGA,040014.800,2500.7997482,N,12132.4862385,E,4,50,0.58,16.672,M,15.25,M,0,3335*4B
$GNRMC,040014.800,A,2500.7997482,N,12132.4862385,E,0.06,133.34,030324,,,R,V*1A
$GPHDT,176.250,T*32
$GNACCURACY,5.6*15
$GNGGA,040014.900,2500.7997469,N,12132.4862396,E,4,50,0.58,16.675,M,15.25,M,0,3335*4A
$GNRMC,040014.900,A,2500.7997469,N,12132.4862396,E,0.06,133.34,030324,,,R,V*1C
$GPHDT,,T*1B
$GNACCURACY,5.6*15
$GNGGA,040015.000,2500.7997501,N,12132.4862388,E,4,50,0.58,16.677,M,15.25,M,1,3335*41
$GNRMC,040015.000,A,2500.7997501,N,12132.4862388,E,0.06,133.34,030324,,,R,V*14
$GPHDT,176.271,T*31
$GNACCURACY,5.6*15
$GNGGA,040015.100,2500.7997480,N,12132.4862423,E,4,50,0.58,16.680,M,15.25,M,1,3335*46
$GNRMC,040015.100,A,2500.7997480,N,12132.4862423,E,0.06,133.34,030324,,,R,V*1B
$GPHDT,,T*1B
$GNGSA,A,3,08,194,199,195,27,21,16,02,04,07,196,31,1.12,0.58,0.96,1*05
$GNGSA,A,3,82,83,80,,,,,,,,,,1.12,0.58,0.96,2*0B
$GNGSA,A,3,30,15,34,27,07,,,,,,,,1.12,0.58,0.96,3*01
$GNGSA,A,3,34,06,09,39,40,07,25,12,24,43,44,,1.12,0.58,0.96,4*00
$GPGSV,4,1,14,08,71,317,45,194,63,047,41,50,60,167,40,199,60,167,38,1*6A
$GPGSV,4,2,14,195,59,122,43,27,46,028,41,21,44,167,38,16,33,059,34,1*5C
$GPGSV,4,3,14,02,32,180,32,04,29,214,25,07,28,320,24,196,21,173,28,1*5A
$GPGSV,4,4,14,26,15,087,23,31,12,139,32,1*64
$GPGSV,2,1,07,08,71,317,47,194,63,047,31,199,60,167,46,195,59,122,45,8*5D
$GPGSV,2,2,07,27,46,028,40,04,29,214,36,196,21,173,34,8*61
$GLGSV,1,1,03,82,67,054,39,83,57,178,31,80,47,011,36,1*40
$GAGSV,2,1,06,30,50,030,39,15,45,151,41,34,43,073,24,27,36,314,39,7*72
$GAGSV,2,2,06,07,34,235,38,02,16,080,,7*77
$GAGSV,2,1,05,30,50,030,40,15,45,151,43,34,43,073,30,27,36,314,43,1*73
$GAGSV,2,2,05,07,34,235,41,1*41
$GBGSV,4,1,13,34,83,084,45,06,79,219,40,09,75,294,43,39,66,179,43,1*77
$GBGSV,4,2,13,40,64,318,40,07,62,297,38,25,57,344,36,12,52,044,43,1*7E
$GBGSV,4,3,13,24,50,095,42,43,43,213,37,44,28,041,30,23,13,314,40,1*73
$GBGSV,4,4,13,56,,,43,1*70
$GBGSV,2,1,08,34,83,084,42,39,66,179,42,40,64,318,30,25,57,344,34,4*73
$GBGSV,2,2,08,24,50,095,37,43,43,213,32,44,28,041,29,23,13,314,35,4*76
$GNACCURACY,5.6*15
$PAIRSAT,1,19,2,0,201,3,0,200,4,0,221,5,0,200,6,0,200,7,0,1,8,0,21,16,0,1,21,0,1,24,0,200,25,0,200,26,0,200,27,0,221,28,0,200,31,0,1,194,0,21,195,0,21,196,0,420,199,0,21*65
$PAIRSAT,2,14,72,0,200,75,0,200,76,0,200,77,0,200,78,0,200,80,0,201,81,0,200,82,0,201,83,0,201,84,0,200,85,0,200,86,0,200,87,0,200,88,0,200*73
$PAIRSAT,3,10,2,0,1000,7,0,1021,12,0,200,13,0,200,15,0,221,19,0,200,27,0,1,30,0,1021,31,0,1000,34,0,1021*45
$PAIRSAT,4,36,3,0,400,6,0,1,7,0,1,9,0,1,12,0,1,19,0,600,20,0,600,21,0,600,22,0,600,23,0,600,24,0,621,25,0,421,26,0,400,27,0,400,28,0,400,29,0,400,30,0,400,32,0,400,33,0,400,34,0,421,35,0,400,36,0,400,37,0,400,38,0,400,39,0,421,40,0,421,41,0,400,42,0,400,43,0,421,44,0,421,45,0,400,46,0,400,59,0,400,60,0,400,61,0,400,62,0,400*76
$PAIRDGP,6,2,7,8,16,21,27*7F
$GNGGA,040015.200,2500.7997484,N,12132.4862407,E,4,50,0.58,16.675,M,15.25,M,1,3335*4D
$GNRMC,040015.200,A,2500.7997484,N,12132.4862407,E,0.05,133.34,030324,,,R,V*19
$GPHDT,176.448,T*3D
$GNACCURACY,5.6*15
$GNGGA,040015.300,2500.7997486,N,12132.4862400,E,4,50,0.58,16.679,M,15.25,M,1,3335*45
$GNRMC,040015.300,A,2500.7997486,N,12132.4862400,E,0.05,133.34,030324,,,R,V*1D
$GPHDT,,T*1B
$GNACCURACY,5.6*15
$GNGGA,040015.400,2500.7997501,N,12132.4862415,E,4,50,0.58,16.676,M,15.25,M,1,3335*47
$GNRMC,040015.400,A,2500.7997501,N,12132.4862415,E,0.05,133.34,030324,,,R,V*10
$GPHDT,176.185,T*39
$GNACCURACY,5.6*15
$GNGGA,040015.500,2500.7997517,N,12132.4862413,E,4,50,0.58,16.624,M,15.25,M,0,3335*41
$GNRMC,040015.500,A,2500.7997517,N,12132.4862413,E,0.06,133.34,030324,,,R,V*13
$GPHDT,,T*1B
$GNACCURACY,5.6*15
$GNGGA,040015.600,2500.7997515,N,12132.4862396,E,4,50,0.58,16.626,M,15.25,M,0,3335*48
$GNRMC,040015.600,A,2500.7997515,N,12132.4862396,E,0.05,133.34,030324,,,R,V*1B
$GPHDT,176.304,T*32
$GNACCURACY,5.5*16
$GNGGA,040015.700,2500.7997514,N,12132.4862421,E,4,50,0.58,16.628,M,15.25,M,0,3335*4D
$GNRMC,040015.700,A,2500.7997514,N,12132.4862421,E,0.06,133.34,030324,,,R,V*13
$GPHDT,,T*1B
$GNACCURACY,5.5*16
$GNGGA,040015.800,2500.7997515,N,12132.4862416,E,4,50,0.58,16.625,M,15.25,M,0,3335*4A
$GNRMC,040015.800,A,2500.7997515,N,12132.4862416,E,0.06,133.34,030324,,,R,V*19
$GPHDT,176.122,T*34
$GNACCURACY,5.5*16
$GNGGA,040015.900,2500.7997500,N,12132.4862408,E,4,50,0.58,16.632,M,15.25,M,0,3335*46
$GNRMC,040015.900,A,2500.7997500,N,12132.4862408,E,0.07,133.34,030324,,,R,V*12
$GPHDT,,T*1B
$GNACCURACY,5.5*16
$GNGGA,040016.000,2500.7997482,N,12132.4862363,E,4,50,0.58,16.669,M,15.25,M,1,3335*42
$GNRMC,040016.000,A,2500.7997482,N,12132.4862363,E,0.06,133.34,030324,,,R,V*18
$GPHDT,176.261,T*30
$GNACCURACY,5.5*16
$GNGGA,040016.100,2500.7997493,N,12132.4862344,E,4,50,0.58,16.683,M,15.25,M,1,3335*42
$GNRMC,040016.100,A,2500.7997493,N,12132.4862344,E,0.06,133.34,030324,,,R,V*1C
$GPHDT,,T*1B
$GNGSA,A,3,08,194,199,195,27,21,16,02,04,07,196,31,1.12,0.58,0.96,1*05
$GNGSA,A,3,82,83,80,,,,,,,,,,1.12,0.58,0.96,2*0B
$GNGSA,A,3,30,15,34,27,07,,,,,,,,1.12,0.58,0.96,3*01
$GNGSA,A,3,34,06,09,39,40,07,25,12,24,43,44,,1.12,0.58,0.96,4*00
$GPGSV,4,1,14,08,71,317,46,194,63,047,37,50,60,167,40,199,60,167,38,1*68
$GPGSV,4,2,14,195,59,122,43,27,46,028,41,21,44,167,38,16,33,059,34,1*5C
$GPGSV,4,3,14,02,32,180,32,04,29,214,25,07,28,320,29,196,21,173,28,1*57
$GPGSV,4,4,14,26,15,087,21,31,12,139,32,1*66
$GPGSV,2,1,07,08,71,317,45,194,63,047,30,199,60,167,46,195,59,122,45,8*5E
$GPGSV,2,2,07,27,46,028,40,04,29,214,35,196,21,173,33,8*65
$GLGSV,1,1,03,82,67,054,39,83,57,178,31,80,47,011,35,1*43
$GAGSV,2,1,06,30,50,030,41,15,45,151,41,34,43,073,24,27,36,314,39,7*7D
$GAGSV,2,2,06,07,34,235,39,02,16,080,,7*76
$GAGSV,2,1,05,30,50,030,40,15,45,151,42,34,43,073,31,27,36,314,43,1*73
$GAGSV,2,2,05,07,34,235,41,1*41
$GBGSV,4,1,13,34,83,084,45,06,79,219,40,09,75,294,43,39,66,179,43,1*77
$GBGSV,4,2,13,40,64,318,35,07,62,297,38,25,57,344,37,12,52,044,43,1*7D
$GBGSV,4,3,13,24,50,095,42,43,43,213,37,44,28,041,29,23,13,314,38,1*74
$GBGSV,4,4,13,56,,,42,1*71
$GBGSV,2,1,08,34,83,084,42,39,66,179,42,40,64,318,34,25,57,344,32,4*71
$GBGSV,2,2,08,24,50,095,36,43,43,213,32,44,28,041,28,23,13,314,36,4*75
$GNACCURACY,5.4*17
$PAIRSAT,1,19,2,0,201,3,0,200,4,0,221,5,0,200,6,0,200,7,0,1,8,0,21,16,0,1,21,0,1,24,0,200,25,0,200,26,0,200,27,0,221,28,0,200,31,0,1,194,0,21,195,0,21,196,0,420,199,0,21*65
$PAIRSAT,2,14,72,0,200,75,0,200,76,0,200,77,0,200,78,0,200,80,0,201,81,0,200,82,0,201,83,0,201,84,0,200,85,0,200,86,0,200,87,0,200,88,0,200*73
$PAIRSAT,3,10,2,0,1000,7,0,1021,12,0,200,13,0,200,15,0,221,19,0,200,27,0,1,30,0,1021,31,0,1000,34,0,1021*45
$PAIRSAT,4,36,3,0,400,6,0,1,7,0,1,9,0,1,12,0,1,19,0,600,20,0,600,21,0,600,22,0,600,23,0,600,24,0,621,25,0,421,26,0,400,27,0,400,28,0,400,29,0,400,30,0,400,32,0,400,33,0,400,34,0,421,35,0,400,36,0,400,37,0,400,38,0,400,39,0,421,40,0,421,41,0,400,42,0,400,43,0,421,44,0,421,45,0,400,46,0,400,59,0,400,60,0,400,61,0,400,62,0,400*76
$PAIRDGP,6,2,7,8,16,21,27*7F
$GNGGA,040016.200,2500.7997465,N,12132.4862373,E,4,50,0.58,16.697,M,15.25,M,1,3335*49
$GNRMC,040016.200,A,2500.7997465,N,12132.4862373,E,0.06,133.34,030324,,,R,V*12
$GPHDT,176.925,T*3B
$GNACCURACY,5.4*17
$GNGGA,040016.300,2500.7997467,N,12132.4862384,E,4,50,0.58,16.693,M,15.25,M,1,3335*46
$GNRMC,040016.300,A,2500.7997467,N,12132.4862384,E,0.06,133.34,030324,,,R,V*19
$GPHDT,,T*1B
$GNACCURACY,5.4*17
$GNGGA,040016.400,2500.7997458,N,12132.4862345,E,4,50,0.58,16.701,M,15.25,M,1,3335*4A
$GNRMC,040016.400,A,2500.7997458,N,12132.4862345,E,0.06,133.34,030324,,,R,V*1F
$GPHDT,176.362,T*32
$GNACCURACY,5.4*17
$GNGGA,040016.500,2500.7997469,N,12132.4862373,E,4,50,0.58,16.680,M,15.25,M,1,3335*44
$GNRMC,040016.500,A,2500.7997469,N,12132.4862373,E,0.06,133.34,030324,,,R,V*19
$GPHDT,,T*1B
$GNACCURACY,5.4*17
$GNGGA,040016.600,2500.7997468,N,12132.4862353,E,4,50,0.58,16.704,M,15.25,M,1,3335*49
$GNRMC,040016.600,A,2500.7997468,N,12132.4862353,E,0.06,133.34,030324,,,R,V*19
$GPHDT,176.399,T*36
$GNACCURACY,5.4*17
$GNGGA,040016.700,2500.7997446,N,12132.4862378,E,4,50,0.58,16.693,M,15.25,M,0,3335*43
$GNRMC,040016.700,A,2500.7997446,N,12132.4862378,E,0.06,133.34,030324,,,R,V*1D
$GPHDT,,T*1B
$GNACCURACY,5.4*17
$GNGGA,040016.800,2500.7997432,N,12132.4862362,E,4,50,0.58,16.699,M,15.25,M,0,3335*4E
$GNRMC,040016.800,A,2500.7997432,N,12132.4862362,E,0.06,133.34,030324,,,R,V*1A
$GPHDT,176.578,T*3F
$GNACCURACY,5.4*17
$GNGGA,040016.900,2500.7997443,N,12132.4862399,E,4,50,0.58,16.703,M,15.25,M,0,3335*4F
$GNRMC,040016.900,A,2500.7997443,N,12132.4862399,E,0.06,133.34,030324,,,R,V*19
$GPHDT,,T*1B
$GNACCURACY,5.4*17
$GNGGA,040017.000,2500.7997449,N,12132.4862376,E,4,50,0.58,16.706,M,15.25,M,1,3335*48
$GNRMC,040017.000,A,2500.7997449,N,12132.4862376,E,0.06,133.34,030324,,,R,V*1A
$GPHDT,176.788,T*32
$GNACCURACY,5.4*17
$GNGGA,040017.100,2500.7997435,N,12132.4862378,E,4,50,0.58,16.708,M,15.25,M,1,3335*42
$GNRMC,040017.100,A,2500.7997435,N,12132.4862378,E,0.06,133.34,030324,,,R,V*1E
$GPHDT,,T*1B
$GNGSA,A,3,08,194,199,195,27,21,16,02,04,07,196,31,1.12,0.58,0.96,1*05
$GNGSA,A,3,82,83,80,,,,,,,,,,1.12,0.58,0.96,2*0B
$GNGSA,A,3,30,15,34,27,07,,,,,,,,1.12,0.58,0.96,3*01
$GNGSA,A,3,34,06,09,39,40,07,25,12,24,43,44,,1.12,0.58,0.96,4*00
$GPGSV,4,1,14,08,71,317,45,194,63,047,38,50,60,167,39,199,60,167,38,1*6A
$GPGSV,4,2,14,195,59,122,43,27,46,028,40,21,44,167,38,16,33,059,34,1*5D
$GPGSV,4,3,14,02,32,180,32,04,29,214,24,07,28,320,27,196,21,173,28,1*58
$GPGSV,4,4,14,26,15,087,20,31,12,139,33,1*66
$GPGSV,2,1,07,08,71,317,45,194,63,047,34,199,60,167,46,195,59,122,45,8*5A
$GPGSV,2,2,07,27,46,028,40,04,29,214,35,196,21,173,32,8*64
$GLGSV,1,1,03,82,67,054,39,83,58,178,31,80,47,011,35,1*4C
$GAGSV,2,1,05,30,50,030,40,15,45,151,41,34,43,073,22,27,36,314,40,7*77
$GAGSV,2,2,05,07,34,235,39,7*48
$GAGSV,2,1,05,30,50,030,40,15,45,151,43,34,43,073,28,27,36,314,43,1*7A
$GAGSV,2,2,05,07,34,235,41,1*41
$GBGSV,4,1,13,34,83,084,44,06,79,219,40,09,75,294,42,39,66,179,43,1*77
$GBGSV,4,2,13,40,64,318,30,07,62,297,38,25,57,344,39,12,52,044,43,1*76
$GBGSV,4,3,13,24,50,095,42,43,43,213,38,44,28,041,28,23,13,314,38,1*7A
$GBGSV,4,4,13,56,,,42,1*71
$GBGSV,2,1,08,34,83,084,43,39,66,179,42,40,64,318,34,25,57,344,33,4*71
$GBGSV,2,2,08,24,50,095,33,43,43,213,32,44,28,041,32,23,13,314,34,4*79
$GNACCURACY,5.4*17
$PAIRSAT,1,19,2,0,201,3,0,200,4,0,221,5,0,200,6,0,200,7,0,1,8,0,21,16,0,1,21,0,1,24,0,200,25,0,200,26,0,200,27,0,221,28,0,200,31,0,1,194,0,21,195,0,21,196,0,420,199,0,21*65
$PAIRSAT,2,14,72,0,200,75,0,200,76,0,200,77,0,200,78,0,200,80,0,201,81,0,200,82,0,201,83,0,201,84,0,200,85,0,200,86,0,200,87,0,200,88,0,200*73
$PAIRSAT,3,10,2,0,1000,7,0,1021,12,0,200,13,0,200,15,0,221,19,0,200,27,0,1,30,0,1021,31,0,1000,34,0,1021*45
$PAIRSAT,4,36,3,0,400,6,0,1,7,0,1,9,0,1,12,0,1,19,0,600,20,0,600,21,0,600,22,0,600,23,0,600,24,0,621,25,0,421,26,0,400,27,0,400,28,0,400,29,0,400,30,0,400,32,0,400,33,0,400,34,0,421,35,0,400,36,0,400,37,0,400,38,0,400,39,0,421,40,0,421,41,0,400,42,0,400,43,0,421,44,0,421,45,0,400,46,0,400,59,0,400,60,0,400,61,0,400,62,0,400*76
$PAIRDGP,6,2,7,8,16,21,27*7F
$GNGGA,040017.200,2500.7997453,N,12132.4862365,E,4,50,0.58,16.683,M,15.25,M,1,3335*4F
$GNRMC,040017.200,A,2500.7997453,N,12132.4862365,E,0.06,133.34,030324,,,R,V*11
$GPHDT,176.543,T*37
$GNACCURACY,5.4*17
$GNGGA,040017.300,2500.7997473,N,12132.4862352,E,4,50,0.58,16.681,M,15.25,M,1,3335*4A
$GNRMC,040017.300,A,2500.7997473,N,12132.4862352,E,0.06,133.34,030324,,,R,V*16
$GPHDT,,T*1B
$GNACCURACY,5.4*17
$GNGGA,040017.400,2500.7997476,N,12132.4862356,E,4,50,0.58,16.696,M,15.25,M,1,3335*4A
$GNRMC,040017.400,A,2500.7997476,N,12132.4862356,E,0.06,133.34,030324,,,R,V*10
$GPHDT,176.864,T*3F
$GNACCURACY,5.4*17
$GNGGA,040017.500,2500.7997473,N,12132.4862370,E,4,50,0.58,16.709,M,15.25,M,1,3335*4D
$GNRMC,040017.500,A,2500.7997473,N,12132.4862370,E,0.06,133.34,030324,,,R,V*10
$GPHDT,,T*1B
$GNACCURACY,5.4*17
$GNGGA,040017.600,2500.7997494,N,12132.4862354,E,4,50,0.58,16.680,M,15.25,M,1,3335*41
$GNRMC,040017.600,A,2500.7997494,N,12132.4862354,E,0.06,133.34,030324,,,R,V*1C
$GPHDT,176.974,T*3F
$GNACCURACY,5.4*17
$GNGGA,040017.700,2500.7997477,N,12132.4862351,E,4,50,0.58,16.708,M,15.25,M,0,3335*48
$GNRMC,040017.700,A,2500.7997477,N,12132.4862351,E,0.05,133.34,030324,,,R,V*16
$GPHDT,,T*1B
$GNACCURACY,5.4*17
$GNGGA,040017.800,2500.7997476,N,12132.4862364,E,4,50,0.58,16.696,M,15.25,M,0,3335*46
$GNRMC,040017.800,A,2500.7997476,N,12132.4862364,E,0.05,133.34,030324,,,R,V*1E
$GPHDT,176.897,T*33
$GNACCURACY,5.4*17
$GNGGA,040017.900,2500.7997477,N,12132.4862391,E,4,50,0.58,16.703,M,15.25,M,0,3335*41
$GNRMC,040017.900,A,2500.7997477,N,12132.4862391,E,0.05,133.34,030324,,,R,V*14
$GPHDT,,T*1B
$GNACCURACY,5.4*17
$GNGGA,040018.000,2500.7997463,N,12132.4862413,E,4,50,0.58,16.703,M,15.25,M,1,3335*4E
$GNRMC,040018.000,A,2500.7997463,N,12132.4862413,E,0.05,133.34,030324,,,R,V*1A
$GPHDT,177.441,T*35
$GNACCURACY,5.4*17
$GNGGA,040018.100,2500.7997471,N,12132.4862369,E,4,50,0.58,16.676,M,15.25,M,1,3335*45
$GNRMC,040018.100,A,2500.7997471,N,12132.4862369,E,0.05,133.34,030324,,,R,V*12
$GPHDT,,T*1B
$GNGSA,A,3,08,194,199,195,27,21,16,02,04,07,196,31,1.12,0.58,0.96,1*05
$GNGSA,A,3,82,83,80,,,,,,,,,,1.12,0.58,0.96,2*0B
$GNGSA,A,3,30,15,34,27,07,,,,,,,,1.12,0.58,0.96,3*01
$GNGSA,A,3,34,06,09,39,40,07,25,12,24,43,44,,1.12,0.58,0.96,4*00
$GPGSV,4,1,14,08,71,317,43,194,63,047,39,50,60,167,39,199,60,167,37,1*62
$GPGSV,4,2,14,195,59,122,43,27,46,028,40,21,44,167,38,16,33,059,32,1*5B
$GPGSV,4,3,14,02,32,180,31,04,29,214,20,07,28,320,29,196,21,173,26,1*5F
$GPGSV,4,4,14,26,15,087,20,31,12,139,33,1*66
$GPGSV,2,1,07,08,71,317,45,194,63,047,34,199,60,167,46,195,59,122,44,8*5B
$GPGSV,2,2,07,27,46,028,40,04,29,214,35,196,21,173,31,8*67
$GLGSV,1,1,03,82,67,054,39,83,58,178,30,80,47,011,35,1*4D
$GAGSV,2,1,05,30,50,030,40,15,45,151,41,34,43,073,19,27,36,314,39,7*71
$GAGSV,2,2,05,07,34,235,39,7*48
$GAGSV,2,1,05,30,50,030,41,15,45,151,42,34,43,073,29,27,36,314,43,1*7B
$GAGSV,2,2,05,07,34,235,41,1*41
$GBGSV,4,1,13,34,83,084,44,06,79,219,40,09,75,293,40,39,66,179,43,1*72
$GBGSV,4,2,13,40,64,318,35,07,62,297,39,25,57,344,39,12,52,044,42,1*73
$GBGSV,4,3,13,24,50,095,42,43,43,213,39,44,28,041,26,23,13,314,39,1*74
$GBGSV,4,4,13,56,,,41,1*72
$GBGSV,2,1,08,34,83,084,43,39,66,179,42,40,64,318,30,25,57,344,38,4*7E
$GBGSV,2,2,08,24,50,095,30,43,43,213,33,44,28,041,31,23,13,314,34,4*78
$GNACCURACY,5.4*17
$PAIRSAT,1,19,2,0,201,3,0,200,4,0,221,5,0,200,6,0,200,7,0,1,8,0,21,16,0,1,21,0,1,24,0,200,25,0,200,26,0,200,27,0,221,28,0,200,31,0,1,194,0,21,195,0,21,196,0,420,199,0,21*65
$PAIRSAT,2,14,72,0,200,75,0,200,76,0,200,77,0,200,78,0,200,80,0,201,81,0,200,82,0,201,83,0,201,84,0,200,85,0,200,86,0,200,87,0,200,88,0,200*73
$PAIRSAT,3,10,2,0,1000,7,0,1021,12,0,200,13,0,200,15,0,221,19,0,200,27,0,1,30,0,1021,31,0,1000,34,0,1021*45
$PAIRSAT,4,36,3,0,400,6,0,1,7,0,1,9,0,1,12,0,1,19,0,600,20,0,600,21,0,600,22,0,600,23,0,600,24,0,621,25,0,421,26,0,400,27,0,400,28,0,400,29,0,400,30,0,400,32,0,400,33,0,400,34,0,421,35,0,400,36,0,400,37,0,400,38,0,400,39,0,421,40,0,421,41,0,400,42,0,400,43,0,421,44,0,421,45,0,400,46,0,400,59,0,400,60,0,400,61,0,400,62,0,400*76
$PAIRDGP,6,2,7,8,16,21,27*7F
$GNGGA,040018.200,2500.7997494,N,12132.4862382,E,4,50,0.58,16.654,M,15.25,M,1,3335*48
$GNRMC,040018.200,A,2500.7997494,N,12132.4862382,E,0.05,133.34,030324,,,R,V*1F
$GPHDT,178.520,T*3C
$GNACCURACY,5.4*17
$GNGGA,040018.300,2500.7997494,N,12132.4862403,E,4,50,0.58,16.681,M,15.25,M,1,3335*4F
$GNRMC,040018.300,A,2500.7997494,N,12132.4862403,E,0.05,133.34,030324,,,R,V*10
$GPHDT,,T*1B
$GNACCURACY,5.4*17
$GNGGA,040018.400,2500.7997481,N,12132.4862435,E,4,50,0.58,16.654,M,15.25,M,1,3335*41
$GNRMC,040018.400,A,2500.7997481,N,12132.4862435,E,0.05,133.34,030324,,,R,V*16
$GPHDT,179.092,T*31
$GNACCURACY,5.3*10
$GNGGA,040018.500,2500.7997500,N,12132.4862410,E,4,50,0.58,16.653,M,15.25,M,0,3335*49
$GNRMC,040018.500,A,2500.7997500,N,12132.4862410,E,0.05,133.34,030324,,,R,V*18
$GPHDT,,T*1B
$GNACCURACY,5.4*17
$GNGGA,040018.600,2500.7997457,N,12132.4862413,E,4,50,0.58,16.666,M,15.25,M,0,3335*4C
$GNRMC,040018.600,A,2500.7997457,N,12132.4862413,E,0.05,133.34,030324,,,R,V*1B
$GPHDT,179.103,T*38
$GNACCURACY,5.3*10
$GNGGA,040018.700,2500.7997492,N,12132.4862408,E,4,50,0.58,16.654,M,15.25,M,0,3335*4F
$GNRMC,040018.700,A,2500.7997492,N,12132.4862408,E,0.05,133.34,030324,,,R,V*19
$GPHDT,,T*1B
$GNACCURACY,5.4*17
$GNGGA,040018.800,2500.7997458,N,12132.4862432,E,4,50,0.58,16.665,M,15.25,M,0,3335*4D
$GNRMC,040018.800,A,2500.7997458,N,12132.4862432,E,0.05,133.34,030324,,,R,V*19
$GPHDT,178.583,T*35
$GNACCURACY,5.4*17
$GNGGA,040018.900,2500.7997482,N,12132.4862414,E,4,50,0.58,16.645,M,15.25,M,0,3335*4D
$GNRMC,040018.900,A,2500.7997482,N,12132.4862414,E,0.05,133.34,030324,,,R,V*1B
$GPHDT,,T*1B
$GNACCURACY,5.4*17
$GNGGA,040019.000,2500.7997487,N,12132.4862425,E,4,50,0.58,16.645,M,15.25,M,1,3335*43
$GNRMC,040019.000,A,2500.7997487,N,12132.4862425,E,0.05,133.34,030324,,,R,V*14
$GPHDT,178.291,T*31
$GNACCURACY,5.4*17
$GNGGA,040019.100,2500.7997485,N,12132.4862441,E,4,50,0.58,16.662,M,15.25,M,1,3335*47
$GNRMC,040019.100,A,2500.7997485,N,12132.4862441,E,0.05,133.34,030324,,,R,V*15
$GPHDT,,T*1B
$GNGSA,A,3,08,194,199,195,27,21,16,02,04,07,196,31,1.12,0.58,0.96,1*05
$GNGSA,A,3,82,83,80,,,,,,,,,,1.12,0.58,0.96,2*0B
$GNGSA,A,3,30,15,34,27,07,,,,,,,,1.12,0.58,0.96,3*01
$GNGSA,A,3,34,06,09,39,40,07,25,12,24,43,44,,1.12,0.58,0.96,4*00
$GPGSV,4,1,14,08,71,317,42,194,63,047,40,50,60,167,40,199,60,167,37,1*63
$GPGSV,4,2,14,195,59,122,42,27,46,028,41,21,44,167,38,16,33,059,31,1*58
$GPGSV,4,3,14,02,32,180,31,04,29,214,24,07,28,320,30,196,21,173,29,1*5C
$GPGSV,4,4,14,26,15,087,22,31,12,139,33,1*64
$GPGSV,2,1,07,08,71,317,45,194,63,047,32,199,60,167,46,195,59,122,44,8*5D
$GPGSV,2,2,07,27,46,028,40,04,29,214,35,196,21,173,31,8*67
$GLGSV,1,1,03,82,67,054,40,83,58,178,31,80,47,011,32,1*45
$GAGSV,2,1,05,30,50,030,41,15,45,151,41,34,43,073,16,27,36,314,39,7*7F
$GAGSV,2,2,05,07,34,235,39,7*48
$GAGSV,2,1,05,30,50,030,41,15,45,151,42,34,43,073,29,27,36,314,43,1*7B
$GAGSV,2,2,05,07,34,235,41,1*41
$GBGSV,4,1,13,34,83,084,46,06,79,219,41,09,75,293,41,39,66,179,43,1*70
$GBGSV,4,2,13,40,64,318,39,07,62,297,37,25,57,344,40,12,52,044,42,1*7F
$GBGSV,4,3,13,24,50,095,42,43,43,213,39,44,28,041,25,23,13,314,38,1*76
$GBGSV,4,4,13,56,,,40,1*73
$GBGSV,2,1,08,34,83,084,43,39,66,179,42,40,64,318,34,25,57,344,38,4*7A
$GBGSV,2,2,08,24,50,095,30,43,43,213,31,44,28,041,31,23,13,314,35,4*7B
$GNACCURACY,5.3*10
$PAIRSAT,1,19,2,0,201,3,0,200,4,0,221,5,0,200,6,0,200,7,0,1,8,0,21,16,0,1,21,0,1,24,0,200,25,0,200,26,0,200,27,0,221,28,0,200,31,0,1,194,0,21,195,0,21,196,0,420,199,0,21*65
$PAIRSAT,2,14,72,0,200,75,0,200,76,0,200,77,0,200,78,0,200,80,0,201,81,0,200,82,0,201,83,0,201,84,0,200,85,0,200,86,0,200,87,0,200,88,0,200*73
$PAIRSAT,3,10,2,0,1000,7,0,1021,12,0,200,13,0,200,15,0,221,19,0,200,27,0,1,30,0,1021,31,0,1000,34,0,1021*45
$PAIRSAT,4,36,3,0,400,6,0,1,7,0,1,9,0,1,12,0,1,19,0,600,20,0,600,21,0,600,22,0,600,23,0,600,24,0,621,25,0,421,26,0,400,27,0,400,28,0,400,29,0,400,30,0,400,32,0,400,33,0,400,34,0,421,35,0,400,36,0,400,37,0,400,38,0,400,39,0,421,40,0,421,41,0,400,42,0,400,43,0,421,44,0,421,45,0,400,46,0,400,59,0,400,60,0,400,61,0,400,62,0,400*76
$PAIRDGP,6,2,7,8,16,21,27*7F
$GNGGA,040019.200,2500.7997483,N,12132.4862425,E,4,50,0.58,16.650,M,15.25,M,1,3335*41
$GNRMC,040019.200,A,2500.7997483,N,12132.4862425,E,0.05,133.34,030324,,,R,V*12
$GPHDT,177.763,T*36
$GNACCURACY,5.3*10
$GNGGA,040019.300,2500.7997481,N,12132.4862464,E,4,50,0.58,16.653,M,15.25,M,1,3335*44
$GNRMC,040019.300,A,2500.7997481,N,12132.4862464,E,0.05,133.34,030324,,,R,V*14
$GPHDT,,T*1B
$GNACCURACY,5.3*10
$GNGGA,040019.400,2500.7997498,N,12132.4862412,E,4,50,0.58,16.643,M,15.25,M,1,3335*4B
$GNRMC,040019.400,A,2500.7997498,N,12132.4862412,E,0.05,133.34,030324,,,R,V*1A
$GPHDT,176.198,T*35
$GNACCURACY,5.3*10
$GNGGA,040019.500,2500.7997458,N,12132.4862439,E,4,50,0.58,16.661,M,15.25,M,1,3335*4F
$GNRMC,040019.500,A,2500.7997458,N,12132.4862439,E,0.05,133.34,030324,,,R,V*1E
$GPHDT,,T*1B
$GNACCURACY,5.3*10
$GNGGA,040019.600,2500.7997474,N,12132.4862414,E,4,50,0.58,16.664,M,15.25,M,0,3335*49
$GNRMC,040019.600,A,2500.7997474,N,12132.4862414,E,0.05,133.34,030324,,,R,V*1C
$GPHDT,176.431,T*33
$GNACCURACY,5.3*10
$GNGGA,040019.700,2500.7997457,N,12132.4862404,E,4,50,0.58,16.672,M,15.25,M,0,3335*4F
$GNRMC,040019.700,A,2500.7997457,N,12132.4862404,E,0.05,133.34,030324,,,R,V*1D
$GPHDT,,T*1B
$GNACCURACY,5.3*10
$GNGGA,040019.800,2500.7997481,N,12132.4862410,E,4,50,0.58,16.676,M,15.25,M,0,3335*4A
$GNRMC,040019.800,A,2500.7997481,N,12132.4862410,E,0.05,133.34,030324,,,R,V*1C
$GPHDT,176.239,T*3D
$GNACCURACY,5.3*10
$GNGGA,040019.900,2500.7997480,N,12132.4862393,E,4,50,0.58,16.671,M,15.25,M,0,3335*41
$GNRMC,040019.900,A,2500.7997480,N,12132.4862393,E,0.05,133.34,030324,,,R,V*10
$GPHDT,,T*1B
$GNACCURACY,5.3*10
$GNGGA,040020.000,2500.7997462,N,12132.4862409,E,4,50,0.58,16.671,M,15.25,M,1,3335*4B
$GNRMC,040020.000,A,2500.7997462,N,12132.4862409,E,0.05,133.34,030324,,,R,V*1B
$GPHDT,176.401,T*30
$GNACCURACY,5.3*10
$GNGGA,040020.100,2500.7997475,N,12132.4862391,E,4,49,0.58,16.683,M,15.25,M,1,3335*4F
$GNRMC,040020.100,A,2500.7997475,N,12132.4862391,E,0.05,133.34,030324,,,R,V*1A
$GPHDT,,T*1B
$GNGSA,A,3,08,194,199,195,27,21,16,02,04,07,196,31,1.12,0.58,0.96,1*05
$GNGSA,A,3,82,83