$FW : RTK35X,V1.1X0314AS,Lib20210517,1*54
$Tool : LOCOSYS , GNSS Firebird , v1.0.0.19*39
$---------------------------------------------------*2D
421,40,0,421,41,0,400,42,0,400,43,0,421,44,0,421,45,0,400,46,0,400,59,0,400,60,0,400,61,0,400,62,0,400*51
$PAIRDGP,7,2,7,8,16,21,27,31*50
$GNGGA,040123.200,2500.7997497,N,12132.4862464,E,4,53,0.55,16.669,M,15.25,M,1,3335*4D
$GNRMC,040123.200,A,2500.7997497,N,12132.4862464,E,0.01,133.34,030324,,,R,V*1E
$GPHDT,135.372,T*34
$GNACCURACY,5.4*17
$GNGGA,040123.300,2500.7997472,N,12132.4862501,E,4,53,0.55,16.689,M,15.25,M,1,3335*4B
$GNRMC,040123.300,A,2500.7997472,N,12132.4862501,E,0.01,133.34,030324,,,R,V*16
$GPHDT,,T*1B
$GNACCURACY,5.4*17
$GNGGA,040123.400,2500.7997452,N,12132.4862455,E,4,53,0.55,16.656,M,15.25,M,1,3335*4C
$GNRMC,040123.400,A,2500.7997452,N,12132.4862455,E,0.01,133.34,030324,,,R,V*13
$GPHDT,134.980,T*32
$GNACCURACY,5.4*17
$GNGGA,040123.500,2500.7997461,N,12132.4862472,E,4,53,0.55,16.675,M,15.25,M,1,3335*49
$GNRMC,040123.500,A,2500.7997461,N,12132.4862472,E,0.07,133.34,030324,,,R,V*11
$GPHDT,,T*1B
$GNACCURACY,5.4*17
$GNGGA,040123.600,2500.7997477,N,12132.4862513,E,4,53,0.55,16.676,M,15.25,M,1,3335*48
$GNRMC,040123.600,A,2500.7997477,N,12132.4862513,E,0.03,133.34,030324,,,R,V*17
$GPHDT,135.451,T*32
$GNACCURACY,5.4*17
$GNGGA,040123.700,2500.7997479,N,12132.4862495,E,4,53,0.55,16.700,M,15.25,M,0,3335*49
$GNRMC,040123.700,A,2500.7997479,N,12132.4862495,E,0.05,133.34,030324,,,R,V*11
$GPHDT,,T*1B
$GNACCURACY,5.4*17
$GNGGA,040123.800,2500.7997492,N,12132.4862450,E,4,53,0.55,16.656,M,15.25,M,0,3335*48
$GNRMC,040123.800,A,2500.7997492,N,12132.4862450,E,0.09,133.34,030324,,,R,V*1E
$GPHDT,135.520,T*35
$GNACCURACY,5.4*17
$GNGGA,040123.900,2500.7997495,N,12132.4862405,E,4,53,0.55,16.624,M,15.25,M,0,3335*4B
$GNRMC,040123.900,A,2500.7997495,N,12132.4862405,E,0.05,133.34,030324,,,R,V*14
$GPHDT,,T*1B
$GNACCURACY,5.4*17
$GNGGA,040124.000,2500.7997503,N,12132.4862383,E,4,53,0.55,16.619,M,15.25,M,1,3335*4D
$GNRMC,040124.000,A,2500.7997503,N,12132.4862383,E,0.03,133.34,030324,,,R,V*1B
$GPHDT,135.441,T*33
$GNACCURACY,5.4*17
$GNGGA,040124.100,2500.7997496,N,12132.4862344,E,4,53,0.55,16.660,M,15.25,M,1,3335*44
$GNRMC,040124.100,A,2500.7997496,N,12132.4862344,E,0.05,133.34,030324,,,R,V*1A
$GPHDT,,T*1B
$GNGSA,A,3,08,194,199,195,27,21,16,02,07,04,196,31,0.99,0.55,0.83,1*0E
$GNGSA,A,3,82,83,80,,,,,,,,,,0.99,0.55,0.83,2*00
$GNGSA,A,3,30,15,34,27,07,,,,,,,,0.99,0.55,0.83,3*0A
$GNGSA,A,3,34,06,16,09,39,40,07,25,12,24,43,44,0.99,0.55,0.83,4*0C
$GNGSA,A,3,23,,,,,,,,,,,,0.99,0.55,0.83,4*0E
$GPGSV,4,1,16,08,71,319,36,194,63,048,40,50,60,167,34,199,60,167,33,1*64
$GPGSV,4,2,16,195,59,122,43,27,46,029,35,21,44,167,33,16,33,060,18,1*53
$GPGSV,4,3,16,02,32,180,31,07,29,320,26,04,29,213,28,196,21,173,28,1*52
$GPGSV,4,4,16,26,15,087,20,31,12,139,18,17,,,21,12,,,19,1*63
$GPGSV,2,1,07,08,71,319,36,194,63,048,37,199,60,167,45,195,59,122,41,8*5B
$GPGSV,2,2,07,27,46,029,32,04,29,213,35,196,21,173,22,8*66
$GLGSV,1,1,03,82,66,052,39,83,58,178,28,80,48,012,35,1*4F
$GAGSV,2,1,06,30,50,031,36,15,46,151,32,34,43,073,21,27,36,315,40,7*71
$GAGSV,2,2,06,07,34,234,43,02,16,080,17,7*7C
$GAGSV,2,1,05,30,50,031,25,15,46,151,38,34,43,073,25,27,36,315,37,1*78
$GAGSV,2,2,05,07,34,234,43,1*42
$GBGSV,4,1,15,34,83,080,43,06,79,218,42,16,76,194,40,09,75,292,42,1*7B
$GBGSV,4,2,15,39,65,179,40,40,64,319,38,07,62,297,39,25,58,344,21,1*7F
$GBGSV,4,3,15,12,52,044,37,24,49,095,45,43,43,213,40,44,28,041,33,1*78
$GBGSV,4,4,15,23,14,314,34,10,,,42,11,,,37,1*44
$GBGSV,2,1,08,34,83,080,43,39,65,179,42,40,64,319,32,25,58,344,22,4*7E
$GBGSV,2,2,08,24,49,095,43,43,43,213,33,44,28,041,20,23,14,314,30,4*77
$GNACCURACY,5.3*10
$PAIRSAT,1,21,2,0,201,3,0,200,4,0,221,5,0,200,6,0,200,7,0,201,8,0,221,16,0,1,21,0,1,24,0,200,25,0,200,26,0,200,27,0,221,28,0,200,29,0,200,30,0,200,31,0,1,194,0,221,195,0,21,196,0,420,199,0,21*64
$PAIRSAT,2,17,70,0,200,72,0,200,73,0,200,74,0,200,75,0,200,76,0,200,77,0,200,78,0,200,80,0,201,81,0,200,82,0,201,83,0,201,84,0,200,85,0,200,86,0,200,87,0,200,88,0,200*5E
$PAIRSAT,3,19,2,0,1000,3,0,1000,4,0,1000,7,0,1021,8,0,1000,9,0,1000,10,0,1000,12,0,200,13,0,200,15,0,221,19,0,200,21,0,200,24,0,200,27,0,21,30,0,1021,31,0,1000,33,0,1000,34,0,1021,36,0,1000*64
$PAIRSAT,4,39,1,0,200,2,0,200,3,0,600,6,0,1,7,0,1,9,0,1,12,0,1,16,0,1,19,0,600,20,0,600,21,0,600,22,0,600,23,0,621,24,0,621,25,0,621,26,0,600,27,0,400,28,0,400,29,0,400,30,0,400,32,0,400,33,0,400,34,0,421,35,0,400,36,0,400,37,0,400,38,0,400,39,0,421,40,0,421,41,0,400,42,0,400,43,0,421,44,0,421,45,0,400,46,0,400,59,0,400,60,0,400,61,0,400,62,0,400*51
$PAIRDGP,7,2,7,8,16,21,27,31*50
$GNGGA,040124.200,2500.7997535,N,12132.4862317,E,4,53,0.55,16.634,M,15.25,M,1,3335*48
$GNRMC,040124.200,A,2500.7997535,N,12132.4862317,E,0.03,133.34,030324,,,R,V*11
$GPHDT,135.040,T*36
$GNACCURACY,5.3*10
$GNGGA,040124.300,2500.7997513,N,12132.4862329,E,4,53,0.55,16.624,M,15.25,M,1,3335*41
$GNRMC,040124.300,A,2500.7997513,N,12132.4862329,E,0.03,133.34,030324,,,R,V*19
$GPHDT,,T*1B
$GNACCURACY,5.3*10
$GNGGA,040124.400,2500.7997617,N,12132.4862241,E,4,53,0.55,16.651,M,15.25,M,1,3335*4C
$GNRMC,040124.400,A,2500.7997617,N,12132.4862241,E,0.03,133.34,030324,,,R,V*16
$GPHDT,135.202,T*32
$GNACCURACY,5.3*10
$GNGGA,040124.500,2500.7997486,N,12132.4862346,E,4,53,0.55,16.663,M,15.25,M,0,3335*41
$GNRMC,040124.500,A,2500.7997486,N,12132.4862346,E,0.03,133.34,030324,,,R,V*1B
$GPHDT,,T*1B
$GNACCURACY,5.3*10
$GNGGA,040124.600,2500.7997533,N,12132.4862336,E,4,53,0.55,16.606,M,15.25,M,0,3335*49
$GNRMC,040124.600,A,2500.7997533,N,12132.4862336,E,0.03,133.34,030324,,,R,V*10
$GPHDT,135.359,T*3D
$GNACCURACY,5.2*11
$GNGGA,040124.700,2500.7997481,N,12132.4862357,E,4,53,0.55,16.640,M,15.25,M,0,3335*45
$GNRMC,040124.700,A,2500.7997481,N,12132.4862357,E,0.04,133.34,030324,,,R,V*19
$GPHDT,,T*1B
$GNACCURACY,5.3*10
$GNGGA,040124.800,2500.7997492,N,12132.4862346,E,4,53,0.55,16.599,M,15.25,M,0,3335*4F
$GNRMC,040124.800,A,2500.7997492,N,12132.4862346,E,0.08,133.34,030324,,,R,V*18
$GPHDT,134.992,T*31
$GNACCURACY,5.2*11
$GNGGA,040124.900,2500.7997447,N,12132.4862369,E,4,53,0.55,16.632,M,15.25,M,0,3335*49
$GNRMC,040124.900,A,2500.7997447,N,12132.4862369,E,0.07,133.34,030324,,,R,V*13
$GPHDT,,T*1B
$GNACCURACY,5.2*11
$GNGGA,040125.000,2500.7997418,N,12132.4862373,E,4,53,0.55,16.638,M,15.25,M,1,3335*4B
$GNRMC,040125.000,A,2500.7997418,N,12132.4862373,E,0.04,133.34,030324,,,R,V*19
$GPHDT,134.870,T*3C
$GNACCURACY,5.1*12
$GNGGA,040125.100,2500.7997414,N,12132.4862344,E,4,53,0.55,16.642,M,15.25,M,1,3335*4F
$GNRMC,040125.100,A,2500.7997414,N,12132.4862344,E,0.01,133.34,030324,,,R,V*15
$GPHDT,,T*1B
$GNGSA,A,3,08,194,199,195,27,21,16,02,07,04,196,31,0.99,0.55,0.83,1*0E
$GNGSA,A,3,82,83,80,,,,,,,,,,0.99,0.55,0.83,2*00
$GNGSA,A,3,30,15,34,27,07,,,,,,,,0.99,0.55,0.83,3*0A
$GNGSA,A,3,34,06,16,09,39,40,07,25,12,24,43,44,0.99,0.55,0.83,4*0C
$GNGSA,A,3,23,,,,,,,,,,,,0.99,0.55,0.83,4*0E
$GPGSV,4,1,16,08,71,319,41,194,63,048,42,50,60,167,34,199,60,167,33,1*66
$GPGSV,4,2,16,195,59,122,43,27,46,029,31,21,44,167,35,16,33,060,19,1*50
$GPGSV,4,3,16,02,32,180,25,07,29,320,29,04,29,213,32,196,21,173,28,1*53
$GPGSV,4,4,16,26,15,087,19,31,12,139,22,17,,,19,12,,,18,1*6A
$GPGSV,2,1,08,08,71,319,41,194,63,048,40,199,60,167,45,195,59,122,43,8*56
$GPGSV,2,2,08,27,46,029,38,04,29,213,35,196,21,173,22,26,15,087,21,8*5F
$GLGSV,1,1,03,82,66,052,39,83,58,178,27,80,48,012,36,1*43
$GAGSV,2,1,06,30,50,031,37,15,46,151,34,34,43,073,21,27,36,315,40,7*76
$GAGSV,2,2,06,07,34,234,43,02,16,080,17,7*7C
$GAGSV,2,1,05,30,50,031,34,15,46,151,37,34,43,073,21,27,36,315,41,1*72
$GAGSV,2,2,05,07,34,234,46,1*47
$GBGSV,4,1,15,34,83,080,44,06,79,218,43,16,76,194,40,09,75,292,44,1*7B
$GBGSV,4,2,15,39,65,179,39,40,64,319,40,07,62,297,42,25,58,345,25,1*77
$GBGSV,4,3,15,12,52,044,38,24,49,096,45,43,43,213,40,44,28,041,32,1*75
$GBGSV,4,4,15,23,14,314,34,10,,,42,11,,,36,1*45
$GBGSV,2,1,08,34,83,080,44,39,65,179,41,40,64,319,36,25,58,345,23,4*7E
$GBGSV,2,2,08,24,49,096,44,43,43,213,33,44,28,041,16,23,14,314,32,4*74
$GNACCURACY,5.1*12
$PAIRSAT,1,21,2,0,201,3,0,200,4,0,221,5,0,200,6,0,200,7,0,201,8,0,221,16,0,1,21,0,1,24,0,200,25,0,200,26,0,200,27,0,221,28,0,200,29,0,200,30,0,200,31,0,1,194,0,221,195,0,21,196,0,420,199,0,21*64
$PAIRSAT,2,17,70,0,200,72,0,200,73,0,200,74,0,200,75,0,200,76,0,200,77,0,200,78,0,200,80,0,201,81,0,200,82,0,201,83,0,201,84,0,200,85,0,200,86,0,200,87,0,200,88,0,200*5E
$PAIRSAT,3,19,2,0,1000,3,0,1000,4,0,1000,7,0,1021,8,0,1000,9,0,1000,10,0,1000,12,0,200,13,0,200,15,0,221,19,0,200,21,0,200,24,0,200,27,0,21,30,0,1021,31,0,1000,33,0,1000,34,0,1021,36,0,1000*64
$PAIRSAT,4,39,1,0,200,2,0,200,3,0,600,6,0,1,7,0,1,9,0,1,12,0,1,16,0,1,19,0,600,20,0,600,21,0,600,22,0,600,23,0,621,24,0,621,25,0,621,26,0,600,27,0,400,28,0,400,29,0,400,30,0,400,32,0,400,33,0,400,34,0,421,35,0,400,36,0,400,37,0,400,38,0,400,39,0,421,40,0,421,41,0,400,42,0,400,43,0,421,44,0,421,45,0,400,46,0,400,59,0,400,60,0,400,61,0,400,62,0,400*51
$PAIRDGP,7,2,7,8,16,21,27,31*50
$GNGGA,040125.200,2500.7997382,N,12132.4862387,E,4,53,0.55,16.656,M,15.25,M,1,3335*4E
$GNRMC,040125.200,A,2500.7997382,N,12132.4862387,E,0.07,133.34,030324,,,R,V*17
$GPHDT,134.875,T*39
$GNACCURACY,5.1*12
$GNGGA,040125.300,2500.7997362,N,12132.4862385,E,4,53,0.55,16.645,M,15.25,M,1,3335*41
$GNRMC,040125.300,A,2500.7997362,N,12132.4862385,E,0.03,133.34,030324,,,R,V*1E
$GPHDT,,T*1B
$GNACCURACY,5.1*12
$GNGGA,040125.400,2500.7997381,N,12132.4862395,E,4,53,0.55,16.636,M,15.25,M,1,3335*4E
$GNRMC,040125.400,A,2500.7997381,N,12132.4862395,E,0.02,133.34,030324,,,R,V*14
$GPHDT,135.421,T*35
$GNACCURACY,5.1*12
$GNGGA,040125.500,2500.7997349,N,12132.4862383,E,4,53,0.55,16.665,M,15.25,M,0,3335*4B
$GNRMC,040125.500,A,2500.7997349,N,12132.4862383,E,0.02,133.34,030324,,,R,V*16
$GPHDT,,T*1B
$GNACCURACY,5.1*12
$GNGGA,040125.600,2500.7997367,N,12132.4862377,E,4,53,0.55,16.650,M,15.25,M,0,3335*49
$GNRMC,040125.600,A,2500.7997367,N,12132.4862377,E,0.03,133.34,030324,,,R,V*13
$GPHDT,135.192,T*38
$GNACCURACY,5.1*12
$GNGGA,040125.700,2500.7997362,N,12132.4862396,E,4,53,0.55,16.647,M,15.25,M,0,3335*44
$GNRMC,040125.700,A,2500.7997362,N,12132.4862396,E,0.03,133.34,030324,,,R,V*18
$GPHDT,,T*1B
$GNACCURACY,5.1*12
$GNGGA,040125.800,2500.7997334,N,12132.4862402,E,4,53,0.55,16.657,M,15.25,M,0,3335*43
$GNRMC,040125.800,A,2500.7997334,N,12132.4862402,E,0.07,133.34,030324,,,R,V*1A
$GPHDT,135.196,T*3C
$GNACCURACY,5.1*12
$GNGGA,040125.900,2500.7997400,N,12132.4862380,E,4,53,0.55,16.628,M,15.25,M,0,3335*47
$GNRMC,040125.900,A,2500.7997400,N,12132.4862380,E,0.06,133.34,030324,,,R,V*17
$GPHDT,,T*1B
$GNACCURACY,5.1*12
$GNGGA,040126.000,2500.7997378,N,12132.4862396,E,4,53,0.55,16.645,M,15.25,M,1,3335*48
$GNRMC,040126.000,A,2500.7997378,N,12132.4862396,E,0.03,133.34,030324,,,R,V*17
$PAIR010,0,1,2304,14504*0B
$GPHDT,135.278,T*3F
$GNACCURACY,5.1*12
$GNGGA,040126.100,2500.7997411,N,12132.4862377,E,4,53,0.55,16.633,M,15.25,M,1,3335*4F
$GNRMC,040126.100,A,2500.7997411,N,12132.4862377,E,0.02,133.34,030324,,,R,V*10
$GPHDT,,T*1B
$GNGSA,A,3,08,194,199,195,27,21,16,02,07,04,196,31,0.99,0.55,0.83,1*0E
$GNGSA,A,3,82,83,80,,,,,,,,,,0.99,0.55,0.83,2*00
$GNGSA,A,3,30,15,34,27,07,,,,,,,,0.99,0.55,0.83,3*0A
$GNGSA,A,3,34,06,16,09,39,40,07,25,12,24,43,44,0.99,0.55,0.83,4*0C
$GNGSA,A,3,23,,,,,,,,,,,,0.99,0.55,0.83,4*0E
$GPGSV,4,1,16,08,71,319,42,194,63,048,42,50,60,167,35,199,60,167,34,1*63
$GPGSV,4,2,16,195,59,122,43,27,46,029,32,21,44,167,33,16,33,060,26,1*59
$GPGSV,4,3,16,02,32,180,24,07,29,320,31,04,29,213,34,196,21,173,26,1*53
$GPGSV,4,4,16,26,15,087,18,31,12,139,22,17,,,18,12,,,18,1*6A
$GPGSV,2,1,08,08,71,319,43,194,63,048,42,199,60,167,44,195,59,122,44,8*50
$GPGSV,2,2,08,27,46,029,39,04,29,213,34,196,21,173,24,26,15,087,22,8*5A
$GLGSV,1,1,03,82,66,052,39,83,58,178,29,80,48,012,34,1*4F
$GAGSV,2,1,06,30,50,031,37,15,46,151,33,34,43,073,23,27,36,315,40,7*73
$GAGSV,2,2,06,07,34,234,44,02,16,080,16,7*7A
$GAGSV,2,1,05,30,50,031,36,15,46,151,37,34,43,073,18,27,36,315,42,1*79
$GAGSV,2,2,05,07,34,234,47,1*46
$GBGSV,4,1,15,34,83,079,45,06,79,218,42,16,76,194,38,09,75,292,44,1*72
$GBGSV,4,2,15,39,65,180,39,40,64,319,41,07,62,297,42,25,58,345,29,1*7C
$GBGSV,4,3,15,12,52,044,39,24,49,096,45,43,43,213,39,44,28,041,27,1*7E
$GBGSV,4,4,15,23,14,314,34,10,,,42,11,,,37,1*44
$GBGSV,2,1,08,34,83,079,45,39,65,180,39,40,64,319,37,25,58,345,29,4*7B
$GBGSV,2,2,08,24,49,096,44,43,43,213,36,44,28,041,16,23,14,314,31,4*72
$GNACCURACY,5.1*12
$PAIRSAT,1,21,2,0,201,3,0,200,4,0,221,5,0,200,6,0,200,7,0,201,8,0,221,16,0,1,21,0,1,24,0,200,25,0,200,26,0,200,27,0,221,28,0,200,29,0,200,30,0,200,31,0,1,194,0,221,195,0,21,196,0,420,199,0,21*64
$PAIRSAT,2,17,70,0,200,72,0,200,73,0,200,74,0,200,75,0,200,76,0,200,77,0,200,78,0,200,80,0,201,81,0,200,82,0,201,83,0,201,84,0,200,85,0,200,86,0,200,87,0,200,88,0,200*5E
$PAIRSAT,3,19,2,0,1000,3,0,1000,4,0,1000,7,0,1021,8,0,1000,9,0,1000,10,0,1000,12,0,200,13,0,200,15,0,221,19,0,200,21,0,200,24,0,200,27,0,21,30,0,1021,31,0,1000,33,0,1000,34,0,1021,36,0,1000*64
$PAIRSAT,4,39,1,0,200,2,0,200,3,0,600,6,0,1,7,0,1,9,0,1,12,0,1,16,0,1,19,0,600,20,0,600,21,0,600,22,0,600,23,0,621,24,0,621,25,0,621,26,0,600,27,0,400,28,0,400,29,0,400,30,0,400,32,0,400,33,0,400,34,0,421,35,0,400,36,0,400,37,0,400,38,0,400,39,0,421,40,0,421,41,0,400,42,0,400,43,0,421,44,0,421,45,0,400,46,0,400,59,0,400,60,0,400,61,0,400,62,0,400*51
$PAIRDGP,7,2,7,8,16,21,27,31*50
$GNGGA,040126.200,2500.7997392,N,12132.4862358,E,4,53,0.55,16.644,M,15.25,M,1,3335*4D
$GNRMC,040126.200,A,2500.7997392,N,12132.4862358,E,0.02,133.34,030324,,,R,V*12
$GPHDT,134.920,T*38
$GNACCURACY,5.1*12
$GNGGA,040126.300,2500.7997441,N,12132.4862340,E,4,53,0.55,16.682,M,15.25,M,1,3335*46
$GNRMC,040126.300,A,2500.7997441,N,12132.4862340,E,0.01,133.34,030324,,,R,V*10
$GPHDT,,T*1B
$GNACCURACY,5.1*12
$GNGGA,040126.400,2500.7997406,N,12132.4862376,E,4,53,0.55,16.684,M,15.25,M,1,3335*41
$GNRMC,040126.400,A,2500.7997406,N,12132.4862376,E,0.01,133.34,030324,,,R,V*11
$GPHDT,134.884,T*37
$GNACCURACY,5.1*12
$GNGGA,040126.500,2500.7997400,N,12132.4862392,E,4,53,0.55,16.690,M,15.25,M,1,3335*49
$GNRMC,040126.500,A,2500.7997400,N,12132.4862392,E,0.00,133.34,030324,,,R,V*1D
$GPHDT,,T*1B
$GNACCURACY,5.1*12
$GNGGA,040126.600,2500.7997436,N,12132.4862389,E,4,53,0.55,16.678,M,15.25,M,1,3335*43
$GNRMC,040126.600,A,2500.7997436,N,12132.4862389,E,0.00,133.34,030324,,,R,V*11
$GPHDT,135.111,T*33
$GNACCURACY,5.1*12
$GNGGA,040126.700,2500.7997424,N,12132.4862401,E,4,52,0.55,16.652,M,15.25,M,1,3335*4F
$GNRMC,040126.700,A,2500.7997424,N,12132.4862401,E,0.06,133.34,030324,,,R,V*12
$GPHDT,,T*1B
$GNACCURACY,5.1*12
$GNGGA,040126.800,2500.7997467,N,12132.4862341,E,4,52,0.55,16.635,M,15.25,M,0,3335*44
$GNRMC,040126.800,A,2500.7997467,N,12132.4862341,E,0.04,133.34,030324,,,R,V*1B
$GPHDT,135.438,T*3D
$GNACCURACY,5.1*12
$GNGGA,040126.900,2500.7997485,N,12132.4862354,E,4,52,0.55,16.636,M,15.25,M,0,3335*4E
$GNRMC,040126.900,A,2500.7997485,N,12132.4862354,E,0.04,133.34,030324,,,R,V*12
$GPHDT,,T*1B
$GNACCURACY,5.1*12
$GNGGA,040127.000,2500.7997468,N,12132.4862352,E,4,52,0.55,16.656,M,15.25,M,1,3335*44
$GNRMC,040127.000,A,2500.7997468,N,12132.4862352,E,0.03,133.34,030324,,,R,V*18
$GPHDT,135.772,T*30
$GNACCURACY,5.1*12
$GNGGA,040127.100,2500.7997453,N,12132.4862395,E,4,52,0.55,16.626,M,15.25,M,1,3335*41
$GNRMC,040127.100,A,2500.7997453,N,12132.4862395,E,0.02,133.34,030324,,,R,V*1B
$GPHDT,,T*1B
$GNGSA,A,3,08,194,199,195,27,21,16,02,04,07,196,31,0.99,0.55,0.83,1*0E
$GNGSA,A,3,82,83,80,,,,,,,,,,0.99,0.55,0.83,2*00
$GNGSA,A,3,30,15,34,27,07,,,,,,,,0.99,0.55,0.83,3*0A
$GNGSA,A,3,34,06,16,09,39,40,07,25,12,24,43,44,0.99,0.55,0.83,4*0C
$GNGSA,A,3,23,,,,,,,,,,,,0.99,0.55,0.83,4*0E
$GPGSV,4,1,15,08,71,319,38,194,63,048,42,50,60,167,36,199,60,167,33,1*69
$GPGSV,4,2,15,195,59,122,43,27,46,029,32,21,44,167,36,16,33,060,23,1*5A
$GPGSV,4,3,15,02,32,180,27,04,29,213,33,07,29,320,29,196,21,173,28,1*53
$GPGSV,4,4,15,26,15,087,16,31,12,139,22,12,,,18,1*68
$GPGSV,2,1,08,08,71,319,39,194,63,048,41,199,60,167,44,195,59,122,42,8*58
$GPGSV,2,2,08,27,46,029,34,04,29,213,35,196,21,173,26,26,15,087,22,8*54
$GLGSV,1,1,03,82,66,052,39,83,58,178,27,80,48,012,34,1*41
$GAGSV,2,1,06,30,50,031,38,15,46,151,34,34,43,073,25,27,36,315,41,7*7C
$GAGSV,2,2,06,07,34,234,43,02,16,080,16,7*7D
$GAGSV,2,1,05,30,50,031,34,15,46,151,35,34,43,073,19,27,36,315,41,1*7B
$GAGSV,2,2,05,07,34,234,46,1*47
$GBGSV,4,1,15,34,83,079,44,06,79,218,43,16,76,194,41,09,75,292,44,1*7C
$GBGSV,4,2,15,39,65,180,39,40,64,319,39,07,62,297,42,25,58,345,26,1*7C
$GBGSV,4,3,15,12,52,044,40,24,49,096,45,43,43,213,39,44,28,041,32,1*74
$GBGSV,4,4,15,23,14,314,34,10,,,43,11,,,24,1*47
$GBGSV,2,1,07,34,83,079,45,39,65,180,40,40,64,319,36,25,58,345,29,4*7B
$GBGSV,2,2,07,24,49,096,44,43,43,213,33,23,14,314,31,4*40
$GNACCURACY,5.1*12
$PAIRSAT,1,21,2,0,201,3,0,200,4,0,221,5,0,200,6,0,200,7,0,201,8,0,221,16,0,1,21,0,1,24,0,200,25,0,200,26,0,200,27,0,221,28,0,200,29,0,200,30,0,200,31,0,1,194,0,221,195,0,21,196,0,420,199,0,21*64
$PAIRSAT,2,17,70,0,200,72,0,200,73,0,200,74,0,200,75,0,200,76,0,200,77,0,200,78,0,200,80,0,201,81,0,200,82,0,201,83,0,201,84,0,200,85,0,200,86,0,200,87,0,200,88,0,200*5E
$PAIRSAT,3,19,2,0,1000,3,0,1000,4,0,1000,7,0,1021,8,0,1000,9,0,1000,10,0,1000,12,0,200,13,0,200,15,0,221,19,0,200,21,0,200,24,0,200,27,0,21,30,0,1021,31,0,1000,33,0,1000,34,0,1021,36,0,1000*64
$PAIRSAT,4,39,1,0,200,2,0,200,3,0,600,6,0,1,7,0,1,9,0,1,12,0,1,16,0,1,19,0,600,20,0,600,21,0,600,22,0,600,23,0,621,24,0,621,25,0,621,26,0,600,27,0,600,28,0,400,29,0,400,30,0,400,32,0,400,33,0,400,34,0,421,35,0,400,36,0,400,37,0,400,38,0,400,39,0,421,40,0,421,41,0,400,42,0,400,43,0,421,44,0,421,45,0,400,46,0,400,59,0,400,60,0,400,61,0,400,62,0,400*53
$PAIRDGP,7,2,7,8,16,21,27,31*50
$GNGGA,040127.200,2500.7997456,N,12132.4862375,E,4,52,0.55,16.645,M,15.25,M,1,3335*4C
$GNRMC,040127.200,A,2500.7997456,N,12132.4862375,E,0.02,133.34,030324,,,R,V*13
$GPHDT,135.847,T*39
$GNACCURACY,5.1*12
$GNGGA,040127.300,2500.7997497,N,12132.4862405,E,4,52,0.55,16.602,M,15.25,M,1,3335*43
$GNRMC,040127.300,A,2500.7997497,N,12132.4862405,E,0.03,133.34,030324,,,R,V*1E
$GPHDT,,T*1B
$GNACCURACY,5.1*12
$GNGGA,040127.400,2500.7997457,N,12132.4862417,E,4,52,0.55,16.630,M,15.25,M,1,3335*4A
$GNRMC,040127.400,A,2500.7997457,N,12132.4862417,E,0.02,133.34,030324,,,R,V*17
$GPHDT,136.123,T*31
$GNACCURACY,5.2*11
$GNGGA,040127.500,2500.7997507,N,12132.4862398,E,4,52,0.55,16.612,M,15.25,M,0,3335*4E
$GNRMC,040127.500,A,2500.7997507,N,12132.4862398,E,0.02,133.34,030324,,,R,V*12
$GPHDT,,T*1B
$GNACCURACY,5.2*11
$GNGGA,040127.600,2500.7997436,N,12132.4862437,E,4,52,0.55,16.645,M,15.25,M,0,3335*4E
$GNRMC,040127.600,A,2500.7997436,N,12132.4862437,E,0.01,133.34,030324,,,R,V*13
$GPHDT,136.033,T*31
$GNACCURACY,5.2*11
$GNGGA,040127.700,2500.7997512,N,12132.4862386,E,4,52,0.55,16.611,M,15.25,M,0,3335*44
$GNRMC,040127.700,A,2500.7997512,N,12132.4862386,E,0.02,133.34,030324,,,R,V*1B
$GPHDT,,T*1B
$GNACCURACY,5.2*11
$GNGGA,040127.800,2500.7997479,N,12132.4862418,E,4,52,0.55,16.606,M,15.25,M,0,3335*41
$GNRMC,040127.800,A,2500.7997479,N,12132.4862418,E,0.07,133.34,030324,,,R,V*1D
$GPHDT,135.812,T*39
$GNACCURACY,5.2*11
$GNGGA,040127.900,2500.7997457,N,12132.4862450,E,4,52,0.55,16.594,M,15.25,M,0,3335*48
$GNRMC,040127.900,A,2500.7997457,N,12132.4862450,E,0.05,133.34,030324,,,R,V*1E
$GPHDT,,T*1B
$GNACCURACY,5.3*10
$GNGGA,040128.000,2500.7997483,N,12132.4862400,E,4,52,0.55,16.606,M,15.25,M,1,3335*4B
$GNRMC,040128.000,A,2500.7997483,N,12132.4862400,E,0.03,133.34,030324,,,R,V*12
$GPHDT,135.504,T*33
$GNACCURACY,5.3*10
$GNGGA,040128.100,2500.7997467,N,12132.4862399,E,4,52,0.55,16.606,M,15.25,M,1,3335*47
$GNRMC,040128.100,A,2500.7997467,N,12132.4862399,E,0.01,133.34,030324,,,R,V*1C
$GPHDT,,T*1B
$GNGSA,A,3,08,194,199,195,27,21,16,02,04,07,196,31,0.99,0.55,0.83,1*0E
$GNGSA,A,3,82,83,80,,,,,,,,,,0.99,0.55,0.83,2*00
$GNGSA,A,3,30,15,34,27,07,,,,,,,,0.99,0.55,0.83,3*0A
$GNGSA,A,3,34,06,16,09,39,40,07,25,12,24,43,44,0.99,0.55,0.83,4*0C
$GNGSA,A,3,23,,,,,,,,,,,,0.99,0.55,0.83,4*0E
$GPGSV,4,1,15,08,71,319,37,194,63,048,40,50,60,167,34,199,60,167,32,1*67
$GPGSV,4,2,15,195,59,122,43,27,46,029,31,21,44,167,35,16,33,060,19,1*53
$GPGSV,4,3,15,02,32,180,25,04,29,213,32,07,29,320,29,196,21,173,27,1*5F
$GPGSV,4,4,15,26,15,087,16,31,12,139,20,12,,,20,1*61
$GPGSV,2,1,08,08,71,319,39,194,63,048,41,199,60,167,44,195,59,122,41,8*5B
$GPGSV,2,2,08,27,46,029,34,04,29,213,34,196,21,173,25,26,15,087,20,8*54
$GLGSV,1,1,03,82,66,052,39,83,58,178,27,80,48,012,34,1*41
$GAGSV,2,1,06,30,50,031,39,15,46,151,34,34,43,073,23,27,36,315,41,7*7B
$GAGSV,2,2,06,07,34,234,43,02,16,080,15,7*7E
$GAGSV,2,1,05,30,50,031,33,15,46,151,34,34,43,073,16,27,36,315,39,1*7D
$GAGSV,2,2,05,07,34,234,45,1*44
$GBGSV,4,1,15,34,83,079,44,06,79,218,42,16,76,194,41,09,75,292,42,1*7B
$GBGSV,4,2,15,39,65,180,39,40,64,319,37,07,62,297,41,25,58,345,20,1*77
$GBGSV,4,3,15,12,52,044,40,24,49,096,45,43,43,213,40,44,28,041,32,1*7A
$GBGSV,4,4,15,23,14,314,34,10,,,43,11,,,20,1*43
$GBGSV,2,1,07,34,83,079,45,39,65,180,42,40,64,319,35,25,58,345,27,4*74
$GBGSV,2,2,07,24,49,096,44,43,43,213,33,23,14,314,30,4*41
$GNACCURACY,5.3*10
$PAIRSAT,1,21,2,0,201,3,0,200,4,0,221,5,0,200,6,0,200,7,0,201,8,0,221,16,0,1,21,0,1,24,0,200,25,0,200,26,0,200,27,0,221,28,0,200,29,0,200,30,0,200,31,0,1,194,0,221,195,0,21,196,0,420,199,0,21*64
$PAIRSAT,2,17,70,0,200,72,0,200,73,0,200,74,0,200,75,0,200,76,0,200,77,0,200,78,0,200,80,0,201,81,0,200,82,0,201,83,0,201,84,0,200,85,0,200,86,0,200,87,0,200,88,0,200*5E
$PAIRSAT,3,19,2,0,1000,3,0,1000,4,0,1000,7,0,1021,8,0,1000,9,0,1000,10,0,1000,12,0,200,13,0,200,15,0,221,19,0,200,21,0,200,24,0,200,27,0,21,30,0,1021,31,0,1000,33,0,1000,34,0,1021,36,0,1000*64
$PAIRSAT,4,39,1,0,200,2,0,200,3,0,600,6,0,1,7,0,1,9,0,1,12,0,1,16,0,1,19,0,600,20,0,600,21,0,600,22,0,600,23,0,621,24,0,621,25,0,621,26,0,600,27,0,600,28,0,400,29,0,400,30,0,400,32,0,400,33,0,400,34,0,421,35,0,400,36,0,400,37,0,400,38,0,400,39,0,421,40,0,421,41,0,400,42,0,400,43,0,421,44,0,421,45,0,400,46,0,400,59,0,400,60,0,400,61,0,400,62,0,400*53
$PAIRDGP,7,2,7,8,16,21,27,31*50
$GNGGA,040128.200,2500.7997473,N,12132.4862432,E,4,52,0.55,16.585,M,15.25,M,1,3335*4F
$GNRMC,040128.200,A,2500.7997473,N,12132.4862432,E,0.02,133.34,030324,,,R,V*1F
$GPHDT,135.493,T*3C
$GNACCURACY,5.3*10
$GNGGA,040128.300,2500.7997443,N,12132.4862436,E,4,52,0.55,16.624,M,15.25,M,1,3335*41
$GNRMC,040128.300,A,2500.7997443,N,12132.4862436,E,0.02,133.34,030324,,,R,V*19
$GPHDT,,T*1B
$GNACCURACY,5.3*10
$GNGGA,040128.400,2500.7997431,N,12132.4862448,E,4,52,0.55,16.614,M,15.25,M,1,3335*49
$GNRMC,040128.400,A,2500.7997431,N,12132.4862448,E,0.01,133.34,030324,,,R,V*11
$GPHDT,135.879,T*34
$GNACCURACY,5.2*11
$GNGGA,040128.500,2500.7997489,N,12132.4862393,E,4,52,0.55,16.596,M,15.25,M,0,3335*42
$GNRMC,040128.500,A,2500.7997489,N,12132.4862393,E,0.02,133.34,030324,,,R,V*11
$GPHDT,,T*1B
$GNACCURACY,5.2*11
$GNGGA,040128.600,2500.7997548,N,12132.4862312,E,4,53,0.55,16.543,M,15.25,M,0,3335*4D
$GNRMC,040128.600,A,2500.7997548,N,12132.4862312,E,0.02,133.34,030324,,,R,V*17
$GPHDT,136.195,T*3C
$GNACCURACY,5.2*11
$GNGGA,040128.700,2500.7997507,N,12132.4862348,E,4,52,0.55,16.561,M,15.25,M,0,3335*49
$GNRMC,040128.700,A,2500.7997507,N,12132.4862348,E,0.02,133.34,030324,,,R,V*12
$GPHDT,,T*1B
$GNACCURACY,5.2*11
$GNGGA,040128.800,2500.7997474,N,12132.4862328,E,4,52,0.55,16.572,M,15.25,M,0,3335*47
$GNRMC,040128.800,A,2500.7997474,N,12132.4862328,E,0.03,133.34,030324,,,R,V*1F
$GPHDT,135.368,T*3F
$GNACCURACY,5.2*11
$GNGGA,040128.900,2500.7997527,N,12132.4862317,E,4,52,0.55,16.553,M,15.25,M,0,3335*4E
$GNRMC,040128.900,A,2500.7997527,N,12132.4862317,E,0.04,133.34,030324,,,R,V*12
$GPHDT,,T*1B
$GNACCURACY,5.2*11
$GNGGA,040129.000,2500.7997511,N,12132.4862356,E,4,52,0.55,16.551,M,15.25,M,1,3335*45
$GNRMC,040129.000,A,2500.7997511,N,12132.4862356,E,0.03,133.34,030324,,,R,V*1D
$GPHDT,136.163,T*35
$GNACCURACY,5.2*11
$GNGGA,040129.100,2500.7997515,N,12132.4862337,E,4,52,0.55,16.577,M,15.25,M,1,3335*43
$GNRMC,040129.100,A,2500.7997515,N,12132.4862337,E,0.03,133.34,030324,,,R,V*1F
$GPHDT,,T*1B
$GNGSA,A,3,08,194,199,195,27,21,16,02,07,04,196,31,0.99,0.55,0.83,1*0E
$GNGSA,A,3,82,83,80,,,,,,,,,,0.99,0.55,0.83,2*00
$GNGSA,A,3,30,15,34,27,07,,,,,,,,0.99,0.55,0.83,3*0A
$GNGSA,A,3,34,06,16,09,39,40,07,25,12,24,43,44,0.99,0.55,0.83,4*0C
$GNGSA,A,3,23,,,,,,,,,,,,0.99,0.55,0.83,4*0E
$GPGSV,4,1,16,08,71,319,36,194,63,048,40,50,60,167,35,199,60,167,33,1*65
$GPGSV,4,2,16,195,59,122,43,27,46,029,33,21,44,167,36,16,33,060,17,1*5F
$GPGSV,4,3,16,02,32,180,28,07,29,320,31,04,29,213,32,196,21,173,26,1*59
$GPGSV,4,4,16,26,15,087,15,31,12,139,22,17,,,18,12,,,19,1*66
$GPGSV,2,1,08,08,71,319,38,194,63,048,40,199,60,167,44,195,59,122,41,8*5B
$GPGSV,2,2,08,27,46,029,31,04,29,213,33,196,21,173,23,26,15,087,18,8*5B
$GLGSV,1,1,03,82,66,052,40,83,58,178,27,80,48,012,35,1*4E
$GAGSV,2,1,06,30,50,031,39,15,46,151,35,34,43,073,24,27,36,315,41,7*7D
$GAGSV,2,2,06,07,34,234,43,02,16,080,15,7*7E
$GAGSV,1,1,04,30,50,031,31,15,46,151,34,27,36,315,38,07,34,234,45,1*7B
$GBGSV,4,1,15,34,83,079,44,06,79,218,42,16,76,194,41,09,75,292,42,1*7B
$GBGSV,4,2,15,39,65,180,39,40,64,319,38,07,62,297,41,25,58,345,18,1*73
$GBGSV,4,3,15,12,52,044,40,24,49,096,45,43,43,213,41,44,28,041,32,1*7B
$GBGSV,4,4,15,23,14,314,34,10,,,43,11,,,18,1*48
$GBGSV,2,1,08,34,83,079,45,39,65,180,42,40,64,319,35,25,58,345,28,4*74
$GBGSV,2,2,08,24,49,096,44,43,43,213,34,44,28,041,20,23,14,314,28,4*7D
$GNACCURACY,5.2*11
$PAIRSAT,1,21,2,0,201,3,0,200,4,0,221,5,0,200,6,0,200,7,0,201,8,0,221,16,0,1,21,0,1,24,0,200,25,0,200,26,0,200,27,0,221,28,0,200,29,0,200,30,0,200,31,0,1,194,0,221,195,0,21,196,0,420,199,0,21*64
$PAIRSAT,2,17,70,0,200,72,0,200,73,0,200,74,0,200,75,0,200,76,0,200,77,0,200,78,0,200,80,0,201,81,0,200,82,0,201,83,0,201,84,0,200,85,0,200,86,0,200,87,0,200,88,0,200*5E
$PAIRSAT,3,19,2,0,1000,3,0,1000,4,0,1000,7,0,1021,8,0,1000,9,0,1000,10,0,1000,12,0,200,13,0,200,15,0,221,19,0,200,21,0,200,24,0,200,27,0,21,30,0,1021,31,0,1000,33,0,1000,34,0,1021,36,0,1000*64
$PAIRSAT,4,39,1,0,200,2,0,200,3,0,600,6,0,1,7,0,1,9,0,1,12,0,1,16,0,1,19,0,600,20,0,600,21,0,600,22,0,600,23,0,621,24,0,621,25,0,621,26,0,600,27,0,600,28,0,400,29,0,400,30,0,400,32,0,400,33,0,400,34,0,421,35,0,400,36,0,400,37,0,400,38,0,400,39,0,421,40,0,421,41,0,400,42,0,400,43,0,421,44,0,421,45,0,400,46,0,400,59,0,400,60,0,400,61,0,400,62,0,400*53
$PAIRDGP,7,2,7,8,16,21,27,31*50
$GNGGA,040129.200,2500.7997472,N,12132.4862356,E,4,52,0.55,16.591,M,15.25,M,1,3335*4F
$GNRMC,040129.200,A,2500.7997472,N,12132.4862356,E,0.02,133.34,030324,,,R,V*1A
$GPHDT,135.780,T*3D
$GNACCURACY,5.2*11
$GNGGA,040129.300,2500.7997586,N,12132.4862320,E,4,52,0.55,16.534,M,15.25,M,1,3335*4A
$GNRMC,040129.300,A,2500.7997586,N,12132.4862320,E,0.03,133.34,030324,,,R,V*11
$GPHDT,,T*1B
$GNACCURACY,5.2*11
$GNGGA,040129.400,2500.7997579,N,12132.4862305,E,4,52,0.55,16.540,M,15.25,M,1,3335*49
$GNRMC,040129.400,A,2500.7997579,N,12132.4862305,E,0.02,133.34,030324,,,R,V*10
$GPHDT,136.687,T*38
$GNACCURACY,5.2*11
$GNGGA,040129.500,2500.7997489,N,12132.4862323,E,4,52,0.55,16.597,M,15.25,M,1,3335*48
$GNRMC,040129.500,A,2500.7997489,N,12132.4862323,E,0.01,133.34,030324,,,R,V*18
$GPHDT,,T*1B
$GNACCURACY,5.2*11
$GNGGA,040129.600,2500.7997516,N,12132.4862356,E,4,52,0.55,16.565,M,15.25,M,1,3335*43
$GNRMC,040129.600,A,2500.7997516,N,12132.4862356,E,0.02,133.34,030324,,,R,V*1D
$GPHDT,136.148,T*3C
$GNACCURACY,5.2*11
$GNGGA,040129.700,2500.7997608,N,12132.4862327,E,4,52,0.55,16.543,M,15.25,M,0,3335*4D
$GNRMC,040129.700,A,2500.7997608,N,12132.4862327,E,0.02,133.34,030324,,,R,V*16
$GPHDT,,T*1B
$GNACCURACY,5.2*11
$GNGGA,040129.800,2500.7997531,N,12132.4862366,E,4,52,0.55,16.559,M,15.25,M,0,3335*45
$GNRMC,040129.800,A,2500.7997531,N,12132.4862366,E,0.04,133.34,030324,,,R,V*13
$GPHDT,136.246,T*31
$GNACCURACY,5.2*11
$GNGGA,040129.900,2500.7997482,N,12132.4862359,E,4,52,0.55,16.601,M,15.25,M,0,3335*4F
$GNRMC,040129.900,A,2500.7997482,N,12132.4862359,E,0.03,133.34,030324,,,R,V*10
$GPHDT,,T*1B
$GNACCURACY,5.2*11
$GNGGA,040130.000,2500.7997547,N,12132.4862313,E,4,52,0.55,16.580,M,15.25,M,1,3335*43
$GNRMC,040130.000,A,2500.7997547,N,12132.4862313,E,0.02,133.34,030324,,,R,V*16
$GPHDT,136.117,T*36
$GNACCURACY,5.2*11
$GNGGA,040130.100,2500.7997562,N,12132.4862325,E,4,52,0.55,16.578,M,15.25,M,1,3335*47
$GNRMC,040130.100,A,2500.7997562,N,12132.4862325,E,0.03,133.34,030324,,,R,V*14
$GPHDT,,T*1B
$GNGSA,A,3,08,194,199,195,27,21,16,02,07,04,196,31,0.99,0.55,0.83,1*0E
$GNGSA,A,3,82,83,80,,,,,,,,,,0.99,0.55,0.83,2*00
$GNGSA,A,3,30,15,34,27,07,,,,,,,,0.99,0.55,0.83,3*0A
$GNGSA,A,3,34,06,16,09,39,40,07,25,12,24,43,44,0.99,0.55,0.83,4*0C
$GNGSA,A,3,23,,,,,,,,,,,,0.99,0.55,0.83,4*0E
$GPGSV,4,1,16,08,71,319,36,194,63,048,39,50,60,167,34,199,60,167,32,1*6B
$GPGSV,4,2,16,195,59,122,43,27,46,029,33,21,44,167,35,16,33,060,17,1*5C
$GPGSV,4,3,16,02,32,180,28,07,29,320,31,04,29,213,32,196,21,173,29,1*56
$GPGSV,4,4,16,26,15,087,16,31,12,139,25,17,,,19,12,,,20,1*69
$GPGSV,2,1,08,08,71,319,35,194,63,048,39,199,60,167,44,195,59,122,41,8*58
$GPGSV,2,2,08,27,46,029,30,04,29,213,31,196,21,173,21,26,15,087,15,8*57
$GLGSV,1,1,03,82,66,052,39,83,58,178,27,80,48,012,35,1*40
$GAGSV,2,1,06,30,50,031,39,15,46,151,36,34,43,073,24,27,36,315,41,7*7E
$GAGSV,2,2,06,07,34,234,43,02,16,080,15,7*7E
$GAGSV,1,1,04,30,50,031,30,15,46,151,33,27,36,315,38,07,34,234,44,1*7C
$GBGSV,4,1,15,34,83,079,44,06,79,218,40,16,76,194,41,09,75,292,42,1*79
$GBGSV,4,2,15,39,65,180,39,40,64,319,38,07,62,297,41,25,58,345,21,1*79
$GBGSV,4,3,15,12,52,044,39,24,49,096,45,43,43,213,41,44,28,041,32,1*75
$GBGSV,4,4,15,23,14,314,34,10,,,43,11,,,16,1*46
$GBGSV,2,1,08,34,83,079,45,39,65,180,42,40,64,319,33,25,58,345,25,4*7F
$GBGSV,2,2,08,24,49,096,44,43,43,213,34,44,28,041,21,23,14,314,26,4*72
$GNACCURACY,5.2*11
$PAIRSAT,1,21,2,0,201,3,0,200,4,0,221,5,0,200,6,0,200,7,0,201,8,0,221,16,0,1,21,0,1,24,0,200,25,0,200,26,0,200,27,0,221,28,0,200,29,0,200,30,0,200,31,0,1,194,0,221,195,0,21,196,0,420,199,0,21*64
$PAIRSAT,2,18,70,0,200,72,0,200,73,0,200,74,0,200,75,0,200,76,0,200,77,0,200,78,0,200,79,0,200,80,0,201,81,0,200,82,0,201,83,0,201,84,0,200,85,0,200,86,0,200,87,0,200,88,0,200*71
$PAIRSAT,3,19,2,0,1000,3,0,1000,4,0,1000,7,0,1021,8,0,1000,9,0,1000,10,0,1000,12,0,200,13,0,200,15,0,221,19,0,200,21,0,200,24,0,200,27,0,21,30,0,1021,31,0,1000,33,0,1000,34,0,1021,36,0,1000*64
$PAIRSAT,4,39,1,0,200,2,0,200,3,0,600,6,0,1,7,0,1,9,0,1,12,0,1,16,0,1,19,0,600,20,0,600,21,0,600,22,0,600,23,0,621,24,0,621,25,0,621,26,0,600,27,0,600,28,0,400,29,0,400,30,0,400,32,0,400,33,0,400,34,0,421,35,0,400,36,0,400,37,0,400,38,0,400,39,0,421,40,0,421,41,0,400,42,0,400,43,0,421,44,0,421,45,0,400,46,0,400,59,0,400,60,0,400,61,0,400,62,0,400*53
$PAIRDGP,7,2,7,8,16,21,27,31*50
$GNGGA,040130.200,2500.7997566,N,12132.4862313,E,4,52,0.55,16.595,M,15.25,M,1,3335*46
$GNRMC,040130.200,A,2500.7997566,N,12132.4862313,E,0.03,133.34,030324,,,R,V*16
$GPHDT,135.929,T*30
$GNACCURACY,5.2*11
$GNGGA,040130.300,2500.7997533,N,12132.4862327,E,4,52,0.55,16.616,M,15.25,M,1,3335*48
$GNRMC,040130.300,A,2500.7997533,N,12132.4862327,E,0.03,133.34,030324,,,R,V*10
$GPHDT,,T*1B
$GNACCURACY,5.3*10
$GNGGA,040130.400,2500.7997580,N,12132.4862304,E,4,52,0.55,16.608,M,15.25,M,1,3335*49
$GNRMC,040130.400,A,2500.7997580,N,12132.4862304,E,0.02,133.34,030324,,,R,V*1F
$GPHDT,135.639,T*3E
$GNACCURACY,5.3*10
$GNGGA,040130.500,2500.7997561,N,12132.4862299,E,4,52,0.55,16.603,M,15.25,M,1,3335*49
$GNRMC,040130.500,A,2500.7997561,N,12132.4862299,E,0.02,133.34,030324,,,R,V*14
$GPHDT,,T*1B
$GNACCURACY,5.3*10
$GNGGA,040130.600,2500.7997577,N,12132.4862281,E,4,52,0.55,16.600,M,15.25,M,0,3335*46
$GNRMC,040130.600,A,2500.7997577,N,12132.4862281,E,0.01,133.34,030324,,,R,V*1A
$GPHDT,135.315,T*35
$GNACCURACY,5.3*10
$GNGGA,040130.700,2500.7997551,N,12132.4862337,E,4,52,0.55,16.604,M,15.25,M,0,3335*4B
$GNRMC,040130.700,A,2500.7997551,N,12132.4862337,E,0.02,133.34,030324,,,R,V*10
$GPHDT,,T*1B
$GNACCURACY,5.3*10
$GNGGA,040130.800,2500.7997553,N,12132.4862282,E,4,52,0.55,16.620,M,15.25,M,0,3335*4F
$GNRMC,040130.800,A,2500.7997553,N,12132.4862282,E,0.01,133.34,030324,,,R,V*11
$GPHDT,135.101,T*32
$GNACCURACY,5.3*10
$GNGGA,040130.900,2500.7997515,N,12132.4862289,E,4,52,0.55,16.627,M,15.25,M,0,3335*40
$GNRMC,040130.900,A,2500.7997515,N,12132.4862289,E,0.06,133.34,030324,,,R,V*1E
$GPHDT,,T*1B
$GNACCURACY,5.3*10
$GNGGA,040131.000,2500.7997553,N,12132.4862286,E,4,52,0.55,16.613,M,15.25,M,1,3335*43
$GNRMC,040131.000,A,2500.7997553,N,12132.4862286,E,0.06,133.34,030324,,,R,V*1B
$GPHDT,135.010,T*33
$GNACCURACY,5.3*10
$GNGGA,040131.100,2500.7997554,N,12132.4862293,E,4,52,0.55,16.618,M,15.25,M,1,3335*4A
$GNRMC,040131.100,A,2500.7997554,N,12132.4862293,E,0.03,133.34,030324,,,R,V*1C
$GPHDT,,T*1B
$GNGSA,A,3,08,194,199,195,27,21,16,02,04,07,196,31,0.99,0.55,0.83,1*0E
$GNGSA,A,3,82,83,80,,,,,,,,,,0.99,0.55,0.83,2*00
$GNGSA,A,3,30,15,34,27,07,,,,,,,,0.99,0.55,0.83,3*0A
$GNGSA,A,3,34,06,16,09,39,40,07,25,12,24,43,44,0.99,0.55,0.83,4*0C
$GNGSA,A,3,23,,,,,,,,,,,,0.99,0.55,0.83,4*0E
$GPGSV,4,1,15,08,71,319,35,194,63,048,38,50,60,167,34,199,60,167,31,1*69
$GPGSV,4,2,15,195,59,122,43,27,46,029,31,21,44,167,34,16,33,060,18,1*53
$GPGSV,4,3,15,02,32,180,27,04,29,213,31,07,29,320,28,196,21,173,29,1*51
$GPGSV,4,4,15,26,15,087,14,31,12,139,24,12,,,19,1*6D
$GPGSV,2,1,08,08,71,319,33,194,63,048,38,199,60,167,44,195,59,122,39,8*50
$GPGSV,2,2,08,27,46,029,29,04,29,213,30,196,21,173,18,26,15,087,18,8*59
$GLGSV,1,1,03,82,66,052,39,83,58,178,27,80,48,012,35,1*40
$GAGSV,2,1,06,30,50,031,37,15,46,151,36,34,43,073,25,27,36,315,41,7*71
$GAGSV,2,2,06,07,34,234,43,02,16,080,15,7*7E
$GAGSV,1,1,04,30,50,031,29,15,46,151,31,27,36,315,37,07,34,234,42,1*7F
$GBGSV,4,1,15,34,83,079,44,06,79,218,40,16,76,194,40,09,75,292,42,1*78
$GBGSV,4,2,15,39,65,180,39,40,64,319,37,07,62,297,40,25,58,345,24,1*72
$GBGSV,4,3,15,12,52,044,39,24,49,096,44,43,43,213,41,44,28,041,31,1*77
$GBGSV,4,4,15,23,14,314,33,10,,,43,11,,,14,1*43
$GBGSV,2,1,08,34,83,079,45,39,65,180,42,40,64,319,33,25,58,345,24,4*7E
$GBGSV,2,2,08,24,49,096,43,43,43,213,33,44,28,041,19,23,14,314,26,4*79
$GNACCURACY,5.3*10
$PAIRSAT,1,21,2,0,201,3,0,200,4,0,221,5,0,200,6,0,200,7,0,201,8,0,221,16,0,1,21,0,1,24,0,200,25,0,200,26,0,200,27,0,221,28,0,200,29,0,200,30,0,200,31,0,1,194,0,221,195,0,21,196,0,420,199,0,21*64
$PAIRSAT,2,18,70,0,200,72,0,200,73,0,200,74,0,200,75,0,200,76,0,200,77,0,200,78,0,200,79,0,200,80,0,201,81,0,200,82,0,201,83,0,201,84,0,200,85,0,200,86,0,200,87,0,200,88,0,200*71
$PAIRSAT,3,19,2,0,1000,3,0,1000,4,0,1000,7,0,1021,8,0,1000,9,0,1000,10,0,1000,12,0,200,13,0,200,15,0,221,19,0,200,21,0,200,24,0,200,27,0,21,30,0,1021,31,0,1000,33,0,1000,34,0,1021,36,0,1000*64
$PAIRSAT,4,39,1,0,200,2,0,200,3,0,600,6,0,1,7,0,1,9,0,1,12,0,1,16,0,1,19,0,600,20,0,600,21,0,600,22,0,600,23,0,621,24,0,621,25,0,621,26,0,600,27,0,600,28,0,400,29,0,400,30,0,400,32,0,400,33,0,400,34,0,421,35,0,400,36,0,400,37,0,400,38,0,400,39,0,421,40,0,421,41,0,400,42,0,400,43,0,421,44,0,421,45,0,400,46,0,400,59,0,400,60,0,400,61,0,400,62,0,400*53
$PAIRDGP,7,2,7,8,16,21,27,31*50
$GNGGA,040131.200,2500.7997523,N,12132.4862284,E,4,52,0.55,16.634,M,15.25,M,1,3335*41
$GNRMC,040131.200,A,2500.7997523,N,12132.4862284,E,0.02,133.34,030324,,,R,V*18
$GPHDT,135.066,T*32
$GNACCURACY,5.3*10
$GNGGA,040131.300,2500.7997550,N,12132.4862280,E,4,52,0.55,16.616,M,15.25,M,1,3335*40
$GNRMC,040131.300,A,2500.7997550,N,12132.4862280,E,0.01,133.34,030324,,,R,V*1A
$GPHDT,,T*1B
$GNACCURACY,5.3*10
$GNGGA,040131.400,2500.7997556,N,12132.4862285,E,4,53,0.55,16.612,M,15.25,M,1,3335*41
$GNRMC,040131.400,A,2500.7997556,N,12132.4862285,E,0.01,133.34,030324,,,R,V*1E
$GPHDT,135.179,T*3D
$GNACCURACY,5.3*10
$GNGGA,040131.500,2500.7997535,N,12132.4862285,E,4,53,0.55,16.607,M,15.25,M,0,3335*40
$GNRMC,040131.500,A,2500.7997535,N,12132.4862285,E,0.02,133.34,030324,,,R,V*19
$GPHDT,,T*1B
$GNACCURACY,5.3*10
$GNGGA,040131.600,2500.7997566,N,12132.4862316,E,4,53,0.55,16.572,M,15.25,M,0,3335*4F
$GNRMC,040131.600,A,2500.7997566,N,12132.4862316,E,0.01,133.34,030324,,,R,V*14
$GPHDT,134.938,T*31
$GNACCURACY,5.3*10
$GNGGA,040131.700,2500.7997499,N,12132.4862307,E,4,53,0.55,16.605,M,15.25,M,0,3335*4C
$GNRMC,040131.700,A,2500.7997499,N,12132.4862307,E,0.01,133.34,030324,,,R,V*14
$GPHDT,,T*1B
$GNACCURACY,5.3*10
$GNGGA,040131.800,2500.7997519,N,12132.4862292,E,4,53,0.55,16.584,M,15.25,M,0,3335*4D
$GNRMC,040131.800,A,2500.7997519,N,12132.4862292,E,0.02,133.34,030324,,,R,V*1C
$GPHDT,134.924,T*3C
$GNACCURACY,5.2*11
$GNGGA,040131.900,2500.7997546,N,12132.4862312,E,4,53,0.55,16.596,M,15.25,M,0,3335*4C
$GNRMC,040131.900,A,2500.7997546,N,12132.4862312,E,0.04,133.34,030324,,,R,V*18
$GPHDT,,T*1B
$GNACCURACY,5.2*11
$GNGGA,040132.000,2500.7997491,N,12132.4862291,E,4,53,0.55,16.610,M,15.25,M,1,3335*4B
$GNRMC,040132.000,A,2500.7997491,N,12132.4862291,E,0.04,133.34,030324,,,R,V*13
$GPHDT,135.028,T*38
$GNACCURACY,5.2*11
$GNGGA,040132.100,2500.7997572,N,12132.4862244,E,4,53,0.55,16.582,M,15.25,M,1,3335*46
$GNRMC,040132.100,A,2500.7997572,N,12132.4862244,E,0.04,133.34,030324,,,R,V*16
$GPHDT,,T*1B
$GNGSA,A,3,08,194,199,195,27,21,16,02,04,07,196,31,0.99,0.55,0.83,1*0E
$GNGSA,A,3,82,83,80,,,,,,,,,,0.99,0.55,0.83,2*00
$GNGSA,A,3,30,15,34,27,07,,,,,,,,0.99,0.55,0.83,3*0A
$GNGSA,A,3,34,06,16,09,39,40,07,25,12,24,43,44,0.99,0.55,0.83,4*0C
$GNGSA,A,3,23,,,,,,,,,,,,0.99,0.55,0.83,4*0E
$GPGSV,4,1,15,08,71,319,33,194,63,048,38,50,60,167,35,199,60,167,31,1*6E
$GPGSV,4,2,15,195,59,121,43,27,46,029,32,21,44,167,35,16,33,060,18,1*52
$GPGSV,4,3,15,02,32,180,28,04,29,213,31,07,29,320,28,196,21,173,29,1*5E
$GPGSV,4,4,15,26,15,087,14,31,12,139,21,12,,,19,1*68
$GPGSV,2,1,08,08,71,319,35,194,63,048,39,199,60,167,44,195,59,121,40,8*5A
$GPGSV,2,2,08,27,46,029,32,04,29,213,32,196,21,173,16,26,15,087,17,8*50
$GLGSV,1,1,03,82,66,052,40,83,58,178,27,80,48,012,35,1*4E
$GAGSV,2,1,06,30,50,031,37,15,46,151,36,34,43,073,25,27,36,315,41,7*71
$GAGSV,2,2,06,07,34,234,43,02,16,080,13,7*78
$GAGSV,2,1,05,30,50,031,29,15,46,151,34,34,43,073,28,27,36,315,37,1*75
$GAGSV,2,2,05,07,34,234,42,1*43
$GBGSV,4,1,15,34,83,079,44,06,79,218,40,16,76,194,40,09,75,292,42,1*78
$GBGSV,4,2,15,39,65,180,39,40,64,319,38,07,62,297,41,25,58,345,25,1*7D
$GBGSV,4,3,15,12,52,044,39,24,49,096,44,43,43,213,41,44,28,041,32,1*74
$GBGSV,4,4,15,23,14,314,34,10,,,43,11,,,11,1*41
$GBGSV,2,1,08,34,83,079,45,39,65,180,41,40,64,319,33,25,58,345,23,4*7A
$GBGSV,2,2,08,24,49,096,43,43,43,213,32,44,28,041,20,23,14,314,25,4*71
$GNACCURACY,5.2*11
$PAIRSAT,1,21,2,0,201,3,0,200,4,0,221,5,0,200,6,0,200,7,0,201,8,0,221,16,0,1,21,0,1,24,0,200,25,0,200,26,0,200,27,0,221,28,0,200,29,0,200,30,0,200,31,0,1,194,0,221,195,0,21,196,0,420,199,0,21*64
$PAIRSAT,2,18,70,0,200,72,0,200,73,0,200,74,0,200,75,0,200,76,0,200,77,0,200,78,0,200,79,0,200,80,0,201,81,0,200,82,0,201,83,0,201,84,0,200,85,0,200,86,0,200,87,0,200,88,0,200*71
$PAIRSAT,3,19,2,0,1000,3,0,1000,4,0,1000,7,0,1021,8,0,1000,9,0,1000,10,0,1000,12,0,200,13,0,200,15,0,221,19,0,200,21,0,200,24,0,200,27,0,21,30,0,1021,31,0,1000,33,0,1000,34,0,1021,36,0,1000*64
$PAIRSAT,4,39,1,0,200,2,0,200,3,0,600,6,0,1,7,0,1,9,0,1,12,0,1,16,0,1,19,0,600,20,0,600,21,0,600,22,0,600,23,0,621,24,0,621,25,0,621,26,0,600,27,0,600,28,0,400,29,0,400,30,0,400,32,0,400,33,0,400,34,0,421,35,0,400,36,0,400,37,0,400,38,0,400,39,0,421,40,0,421,41,0,400,42,0,400,43,0,421,44,0,421,45,0,400,46,0,400,59,0,400,60,0,400,61,0,400,62,0,400*53
$PAIRDGP,7,2,7,8,16,21,27,31*50
$GNGGA,040132.200,2500.7997530,N,12132.4862285,E,4,53,0.55,16.594,M,15.25,M,1,3335*49
$GNRMC,040132.200,A,2500.7997530,N,12132.4862285,E,0.02,133.34,030324,,,R,V*18
$GPHDT,135.078,T*3D
$GNACCURACY,5.2*11
$GNGGA,040132.300,2500.7997477,N,12132.4862296,E,4,53,0.55,16.630,M,15.25,M,1,3335*45
$GNRMC,040132.300,A,2500.7997477,N,12132.4862296,E,0.02,133.34,030324,,,R,V*19
$GPHDT,,T*1B
$GNACCURACY,5.2*11
$GNGGA,040132.400,2500.7997509,N,12132.4862257,E,4,53,0.55,16.639,M,15.25,M,1,3335*4E
$GNRMC,040132.400,A,2500.7997509,N,12132.4862257,E,0.02,133.34,030324,,,R,V*1B
$GPHDT,135.120,T*31
$GNACCURACY,5.1*12
$GNGGA,040132.500,2500.7997509,N,12132.4862270,E,4,53,0.55,16.624,M,15.25,M,1,3335*46
$GNRMC,040132.500,A,2500.7997509,N,12132.4862270,E,0.02,133.34,030324,,,R,V*1F
$GPHDT,,T*1B
$GNACCURACY,5.1*12
$GNGGA,040132.600,2500.7997485,N,12132.4862316,E,4,53,0.55,16.624,M,15.25,M,0,3335*40
$GNRMC,040132.600,A,2500.7997485,N,12132.4862316,E,0.02,133.34,030324,,,R,V*18
$GPHDT,135.144,T*33
$GNACCURACY,5.1*12
$GNGGA,040132.700,2500.7997528,N,12132.4862285,E,4,53,0.55,16.599,M,15.25,M,0,3335*49
$GNRMC,040132.700,A,2500.7997528,N,12132.4862285,E,0.00,133.34,030324,,,R,V*16
$GPHDT,,T*1B
$GNACCURACY,5.1*12
$GNGGA,040132.800,2500.7997517,N,12132.4862280,E,4,53,0.55,16.606,M,15.25,M,0,3335*4A
$GNRMC,040132.800,A,2500.7997517,N,12132.4862280,E,0.03,133.34,030324,,,R,V*13
$GPHDT,135.127,T*36
$GNACCURACY,5.1*12
$GNGGA,040132.900,2500.7997509,N,12132.4862278,E,4,53,0.55,16.643,M,15.25,M,0,3335*42
$GNRMC,040132.900,A,2500.7997509,N,12132.4862278,E,0.08,133.34,030324,,,R,V*11
$GPHDT,,T*1B
$GNACCURACY,5.1*12
$GNGGA,040133.000,2500.7997522,N,12132.4862255,E,4,53,0.55,16.646,M,15.25,M,1,3335*48
$GNRMC,040133.000,A,2500.7997522,N,12132.4862255,E,0.03,133.34,030324,,,R,V*14
$GPHDT,134.800,T*3B
$GNACCURACY,5.1*12
$GNGGA,040133.100,2500.7997533,N,12132.4862249,E,4,53,0.55,16.654,M,15.25,M,1,3335*47
$GNRMC,040133.100,A,2500.7997533,N,12132.4862249,E,0.01,133.34,030324,,,R,V*1A
$GPHDT,,T*1B
$GNGSA,A,3,08,194,199,195,27,21,16,02,04,07,196,31,0.99,0.55,0.83,1*0E
$GNGSA,A,3,82,83,80,,,,,,,,,,0.99,0.55,0.83,2*00
$GNGSA,A,3,30,15,34,27,07,,,,,,,,0.99,0.55,0.83,3*0A
$GNGSA,A,3,34,06,16,09,39,40,07,25,12,24,43,44,0.99,0.55,0.83,4*0C
$GNGSA,A,3,23,,,,,,,,,,,,0.99,0.55,0.83,4*0E
$GPGSV,4,1,15,08,71,319,33,194,63,048,38,50,60,167,34,199,60,167,33,1*6D
$GPGSV,4,2,15,195,59,121,43,27,46,029,35,21,44,167,34,16,33,060,18,1*54
$GPGSV,4,3,15,02,32,180,29,04,29,213,32,07,29,320,29,196,21,173,29,1*5D
$GPGSV,4,4,15,26,15,087,16,31,12,139,21,12,,,19,1*6A
$GPGSV,2,1,08,08,71,319,35,194,63,048,40,199,60,167,44,195,59,121,40,8*54
$GPGSV,2,2,08,27,46,029,35,04,29,213,32,196,21,173,16,26,15,087,17,8*57
$GLGSV,1,1,03,82,66,052,40,83,58,178,29,80,48,012,34,1*41
$GAGSV,2,1,06,30,50,031,37,15,46,151,37,34,43,073,24,27,36,315,41,7*71
$GAGSV,2,2,06,07,34,234,43,02,16,081,13,7*79
$GAGSV,2,1,05,30,50,031,30,15,46,151,34,34,43,073,27,27,36,315,38,1*7D
$GAGSV,2,2,05,07,34,234,43,1*42
$GBGSV,4,1,14,34,83,079,44,06,79,218,41,16,76,194,41,09,75,292,42,1*79
$GBGSV,4,2,14,39,65,180,40,40,64,319,38,07,62,297,41,25,58,345,26,1*71
$GBGSV,4,3,14,12,52,044,39,24,49,096,44,43,43,213,41,44,28,041,32,1*75
$GBGSV,4,4,14,23,14,314,34,10,,,43,1*40
$GBGSV,2,1,08,34,83,079,45,39,65,180,42,40,64,319,33,25,58,345,24,4*7E
$GBGSV,2,2,08,24,49,096,43,43,43,213,31,44,28,041,21,23,14,314,27,4*71
$GNACCURACY,5.1*12
$PAIRSAT,1,21,2,0,201,3,0,200,4,0,221,5,0,200,6,0,200,7,0,201,8,0,221,16,0,1,21,0,1,24,0,200,25,0,200,26,0,200,27,0,221,28,0,200,29,0,200,30,0,200,31,0,1,194,0,221,195,0,21,196,0,420,199,0,21*64
$PAIRSAT,2,18,70,0,200,72,0,200,73,0,200,74,0,200,75,0,200,76,0,200,77,0,200,78,0,200,79,0,200,80,0,201,81,0,200,82,0,201,83,0,201,84,0,200,85,0,200,86,0,200,87,0,200,88,0,200*71
$PAIRSAT,3,19,2,0,1000,3,0,1000,4,0,1000,7,0,1021,8,0,1000,9,0,1000,10,0,1000,12,0,200,13,0,200,15,0,221,19,0,200,21,0,200,24,0,200,27,0,21,30,0,1021,31,0,1000,33,0,1000,34,0,1021,36,0,1000*64
$PAIRSAT,4,39,1,0,200,2,0,200,3,0,600,6,0,1,7,0,1,9,0,1,12,0,1,16,0,1,19,0,600,20,0,600,21,0,600,22,0,600,23,0,621,24,0,621,25,0,621,26,0,600,27,0,600,28,0,400,29,0,400,30,0,400,32,0,400,33,0,400,34,0,421,35,0,400,36,0,400,37,0,400,38,0,400,39,0,421,40,0,421,41,0,400,42,0,400,43,0,421,44,0,421,45,0,400,46,0,400,59,0,400,60,0,400,61,0,400,62,0,400*53
$PAIRDGP,7,2,7,8,16,21,27,31*50
$GNGGA,040133.200,2500.7997591,N,12132.4862264,E,4,53,0.55,16.664,M,15.25,M,1,3335*40
$GNRMC,040133.200,A,2500.7997591,N,12132.4862264,E,0.03,133.34,030324,,,R,V*1C
$GPHDT,134.860,T*3D
$GNACCURACY,5.1*12
$GNGGA,040133.300,2500.7997613,N,12132.4862243,E,4,53,0.55,16.681,M,15.25,M,1,3335*46
$GNRMC,040133.300,A,2500.7997613,N,12132.4862243,E,0.01,133.34,030324,,,R,V*13
$GPHDT,,T*1B
$GNACCURACY,5.1*12
$GNGGA,040133.400,2500.7997652,N,12132.4862242,E,4,53,0.55,16.633,M,15.25,M,1,3335*4C
$GNRMC,040133.400,A,2500.7997652,N,12132.4862242,E,0.01,133.34,030324,,,R,V*10
$GPHDT,135.350,T*34
$GNACCURACY,5.1*12
$GNGGA,040133.500,2500.7997641,N,12132.4862231,E,4,53,0.55,16.640,M,15.25,M,1,3335*4F
$GNRMC,040133.500,A,2500.7997641,N,12132.4862231,E,0.01,133.34,030324,,,R,V*17
$GPHDT,,T*1B
$GNACCURACY,5.1*12
$GNGGA,040133.600,2500.7997615,N,12132.4862228,E,4,53,0.55,16.627,M,15.25,M,0,3335*45
$GNRMC,040133.600,A,2500.7997615,N,12132.4862228,E,0.01,133.34,030324,,,R,V*1D
$GPHDT,135.386,T*3F
$GNACCURACY,5.1*12
$GNGGA,040133.700,2500.7997622,N,12132.4862215,E,4,53,0.55,16.626,M,15.25,M,0,3335*4F
$GNRMC,040133.700,A,2500.7997622,N,12132.4862215,E,0.00,133.34,030324,,,R,V*17
$GPHDT,,T*1B
$GNACCURACY,5.1*12
$GNGGA,040133.800,2500.7997592,N,12132.4862232,E,4,53,0.55,16.622,M,15.25,M,0,3335*49
$GNRMC,040133.800,A,2500.7997592,N,12132.4862232,E,0.13,133.34,030324,,,R,V*17
$GPHDT,135.720,T*37
$GNACCURACY,5.1*12
$GNGGA,040133.900,2500.7997566,N,12132.4862248,E,4,53,0.55,16.591,M,15.25,M,0,3335*45
$GNRMC,040133.900,A,2500.7997566,N,12132.4862248,E,0.02,133.34,030324,,,R,V*10
$GPHDT,,T*1B
$GNACCURACY,5.1*12
$GNGGA,040134.000,2500.7997478,N,12132.4862244,E,4,53,0.55,16.590,M,15.25,M,1,3335*49
$GNRMC,040134.000,A,2500.7997478,N,12132.4862244,E,0.03,133.34,030324,,,R,V*1D
$GPHDT,134.072,T*36
$GNACCURACY,5.1*12
$GNGGA,040134.100,2500.7997503,N,12132.4862291,E,4,53,0.55,16.574,M,15.25,M,1,3335*47
$GNRMC,040134.100,A,2500.7997503,N,12132.4862291,E,0.03,133.34,030324,,,R,V*19
$GPHDT,,T*1B
$GNGSA,A,3,08,194,199,195,27,21,16,02,07,04,196,31,0.99,0.55,0.83,1*0E
$GNGSA,A,3,82,83,80,,,,,,,,,,0.99,0.55,0.83,2*00
$GNGSA,A,3,30,15,34,27,07,,,,,,,,0.99,0.55,0.83,3*0A
$GNGSA,A,3,34,06,16,09,39,40,07,25,12,24,43,44,0.99,0.55,0.83,4*0C
$GNGSA,A,3,23,,,,,,,,,,,,0.99,0.55,0.83,4*0E
$GPGSV,4,1,16,08,71,319,33,194,63,048,37,50,60,167,35,199,60,167,33,1*60
$GPGSV,4,2,16,195,59,121,43,27,46,029,29,21,44,167,32,16,33,060,20,1*57
$GPGSV,4,3,16,02,32,180,26,07,29,320,32,04,29,213,31,196,21,173,28,1*59
$GPGSV,4,4,16,26,15,087,15,31,12,139,24,12,,,19,17,,,19,1*61
$GPGSV,2,1,08,08,71,319,36,194,63,048,37,199,60,167,46,195,59,121,42,8*57
$GPGSV,2,2,08,27,46,029,33,04,29,213,34,196,21,173,18,26,15,087,18,8*56
$GLGSV,1,1,03,82,66,052,40,83,58,178,27,80,48,012,33,1*48
$GAGSV,2,1,06,30,50,031,32,15,46,151,36,34,43,073,26,27,36,315,41,7*77
$GAGSV,2,2,06,07,34,234,44,02,16,081,14,7*79
$GAGSV,2,1,05,30,50,031,26,15,46,151,38,34,43,073,23,27,36,315,39,1*73
$GAGSV,2,2,05,07,34,234,43,1*42
$GBGSV,4,1,14,34,83,079,44,06,79,218,42,16,76,194,41,09,75,292,41,1*79
$GBGSV,4,2,14,39,65,180,39,40,64,319,38,07,62,297,41,25,58,345,21,1*78
$GBGSV,4,3,14,12,52,044,39,24,49,096,44,43,43,213,42,44,28,041,33,1*77
$GBGSV,4,4,14,23,14,314,34,10,,,43,1*40
$GBGSV,2,1,08,34,83,079,45,39,65,180,43,40,64,319,33,25,58,345,27,4*7C
$GBGSV,2,2,08,24,49,096,43,43,43,213,32,44,28,041,22,23,14,314,29,4*7F
$GNACCURACY,5.1*12
$PAIRSAT,1,21,2,0,201,3,0,200,4,0,221,5,0,200,6,0,200,7,0,201,8,0,221,16,0,1,21,0,1,24,0,200,25,0,200,26,0,200,27,0,221,28,0,200,29,0,200,30,0,200,31,0,1,194,0,221,195,0,21,196,0,420,199,0,21*64
$PAIRSAT,2,18,70,0,200,72,0,200,73,0,200,74,0,200,75,0,200,76,0,200,77,0,200,78,0,200,79,0,200,80,0,201,81,0,200,82,0,201,83,0,201,84,0,200,85,0,200,86,0,200,87,0,200,88,0,200*71
$PAIRSAT,3,19,2,0,1000,3,0,1000,4,0,1000,7,0,1021,8,0,1000,9,0,1000,10,0,1000,12,0,200,13,0,200,15,0,221,19,0,200,21,0,200,24,0,200,27,0,21,30,0,1021,31,0,1000,33,0,1000,34,0,1021,36,0,1000*64
$PAIRSAT,4,39,1,0,200,2,0,200,3,0,600,6,0,1,7,0,1,9,0,1,12,0,1,16,0,1,19,0,600,20,0,600,21,0,600,22,0,600,23,0,621,24,0,621,25,0,621,26,0,600,27,0,600,28,0,400,29,0,400,30,0,400,32,0,400,33,0,400,34,0,421,35,0,400,36,0,400,37,0,400,38,0,400,39,0,421,40,0,421,41,0,400,42,0,400,43,0,421,44,0,421,45,0,400,46,0,400,59,0,400,60,0,400,61,0,400,62,0,400*53
$PAIRDGP,7,2,7,8,16,21,27,31*50
$GNGGA,040134.200,2500.7997446,N,12132.4862254,E,4,53,0.55,16.576,M,15.25,M,1,3335*4F
$GNRMC,040134.200,A,2500.7997446,N,12132.4862254,E,0.04,133.34,030324,,,R,V*14
$GPHDT,134.620,T*37
$GNACCURACY,5.1*12
$GNGGA,040134.300,2500.7997510,N,12132.4862274,E,4,53,0.55,16.576,M,15.25,M,1,3335*4E
$GNRMC,040134.300,A,2500.7997510,N,12132.4862274,E,0.02,133.34,030324,,,R,V*13
$GPHDT,,T*1B
$GNACCURACY,5.1*12
$GNGGA,040134.400,2500.7997565,N,12132.4862271,E,4,53,0.55,16.567,M,15.25,M,1,3335*4E
$GNRMC,040134.400,A,2500.7997565,N,12132.4862271,E,0.02,133.34,030324,,,R,V*13
$GPHDT,135.032,T*33
$GNACCURACY,5.1*12
$GNGGA,040134.500,2500.7997512,N,12132.4862265,E,4,53,0.55,16.572,M,15.25,M,1,3335*4E
$GNRMC,040134.500,A,2500.7997512,N,12132.4862265,E,0.02,133.34,030324,,,R,V*17
$GPHDT,,T*1B
$GNACCURACY,5.1*12
$GNGGA,040134.600,2500.7997544,N,12132.4862292,E,4,53,0.55,16.594,M,15.25,M,0,3335*4F
$GNRMC,040134.600,A,2500.7997544,N,12132.4862292,E,0.02,133.34,030324,,,R,V*1F
$GPHDT,135.095,T*3E
$GNACCURACY,5.1*12
$GNGGA,040134.700,2500.7997532,N,12132.4862273,E,4,53,0.55,16.583,M,15.25,M,0,3335*46
$GNRMC,040134.700,A,2500.7997532,N,12132.4862273,E,0.02,133.34,030324,,,R,V*10
$GPHDT,,T*1B
