$FW : RTK35X,V1.1X0314AS,Lib20210517,1*54
$Tool : LOCOSYS , GNSS Firebird , v1.0.0.19*39
$---------------------------------------------------*2D
$GNACCURACY,4.4*16
$GNGGA,040447.500,2500.8078007,N,12132.4780583,E,2,51,0.52,17.062,M,15.25,M,0,3335*42
$GNRMC,040447.500,A,2500.8078007,N,12132.4780583,E,0.02,355.73,030324,,,D,V*0B
$GPHDT,,T*1B
$GNACCURACY,4.4*16
$GNGGA,040447.600,2500.8078007,N,12132.4780583,E,2,51,0.54,17.062,M,15.25,M,0,3335*47
$GNRMC,040447.600,A,2500.8078007,N,12132.4780583,E,0.02,355.73,030324,,,D,V*08
$GPHDT,,T*1B
$GNACCURACY,4.4*16
$GNGGA,040447.700,2500.8078007,N,12132.4780583,E,2,51,0.54,17.063,M,15.25,M,0,3335*47
$GNRMC,040447.700,A,2500.8078007,N,12132.4780583,E,0.01,355.73,030324,,,D,V*0A
$GPHDT,,T*1B
$GNACCURACY,4.4*16
$GNGGA,040447.800,2500.8078007,N,12132.4780583,E,2,51,0.54,17.063,M,15.25,M,0,3335*48
$GNRMC,040447.800,A,2500.8078007,N,12132.4780583,E,0.04,355.73,030324,,,D,V*00
$GPHDT,,T*1B
$GNACCURACY,4.4*16
$GNGGA,040447.900,2500.8078007,N,12132.4780583,E,2,51,0.54,17.065,M,15.25,M,0,3335*4F
$GNRMC,040447.900,A,2500.8078007,N,12132.4780583,E,0.09,355.73,030324,,,D,V*0C
$GPHDT,,T*1B
$GNACCURACY,4.4*16
$GNGGA,040448.000,2500.8078007,N,12132.4780583,E,2,50,0.54,17.066,M,15.25,M,1,3335*4A
$GNRMC,040448.000,A,2500.8078007,N,12132.4780583,E,0.05,355.73,030324,,,D,V*06
$GPHDT,,T*1B
$GNACCURACY,4.4*16
$GNGGA,040448.100,2500.8078007,N,12132.4780583,E,2,50,0.54,17.068,M,15.25,M,1,3335*45
$GNRMC,040448.100,A,2500.8078007,N,12132.4780583,E,0.03,355.73,030324,,,D,V*01
$GPHDT,,T*1B
$GNGSA,A,3,08,194,199,195,21,27,02,07,09,04,196,31,0.84,0.54,0.64,1*04
$GNGSA,A,3,82,83,80,79,,,,,,,,,0.84,0.54,0.64,2*0A
$GNGSA,A,3,30,15,34,27,07,,,,,,,,0.84,0.54,0.64,3*0E
$GNGSA,A,3,34,06,16,09,11,40,39,07,25,12,24,43,0.84,0.54,0.64,4*08
$GNGSA,A,3,23,,,,,,,,,,,,0.84,0.54,0.64,4*0A
$GPGSV,4,1,15,08,70,324,47,194,63,048,40,199,60,167,33,50,60,167,35,1*6F
$GPGSV,4,2,15,195,60,121,24,21,46,166,44,27,44,029,38,02,34,180,35,1*56
$GPGSV,4,3,15,16,33,062,24,07,30,320,31,09,29,260,18,04,28,212,27,1*60
$GPGSV,4,4,15,196,20,172,38,26,14,088,18,31,11,140,25,1*6B
$GPGSV,2,1,08,08,70,324,48,194,63,048,43,195,60,121,39,199,60,167,36,8*53
$GPGSV,2,2,08,27,44,029,26,09,29,260,28,196,20,172,38,26,14,088,22,8*51
$GLGSV,2,1,06,82,65,049,40,83,60,178,24,80,49,014,38,79,33,089,36,1*79
$GLGSV,2,2,06,81,18,028,19,70,08,255,,1*71
$GAGSV,2,1,08,30,50,033,31,15,47,150,38,34,43,071,35,27,37,316,36,7*74
$GAGSV,2,2,08,07,33,233,25,02,15,082,22,08,12,183,26,36,05,035,,7*76
$GAGSV,1,1,04,30,50,033,23,15,47,150,38,34,43,071,39,27,37,316,37,1*73
$GBGSV,4,1,15,34,82,068,44,06,78,217,35,16,76,195,38,09,75,290,41,1*7A
$GBGSV,4,2,15,11,69,197,36,40,64,320,42,39,64,181,30,07,62,298,28,1*79
$GBGSV,4,3,15,25,59,346,46,12,51,043,31,24,49,098,43,43,44,214,28,1*78
$GBGSV,4,4,15,44,27,040,,23,15,314,35,10,,,24,1*71
$GBGSV,2,1,06,34,82,068,46,39,64,181,34,40,64,320,45,25,59,346,45,4*7D
$GBGSV,2,2,06,24,49,098,40,23,15,314,33,4*78
$GNACCURACY,4.4*16
$PAIRSAT,1,29,2,0,201,3,0,200,4,0,221,5,0,200,6,0,200,7,0,201,8,0,221,9,0,221,10,0,200,11,0,200,12,0,200,13,0,200,14,0,200,15,0,200,16,0,1,21,0,1,24,0,200,25,0,200,26,0,200,27,0,221,28,0,200,29,0,200,30,0,200,31,0,201,32,0,200,194,0,621,195,0,221,196,0,620,199,0,221*52
$PAIRSAT,2,24,65,0,200,66,0,200,67,0,200,68,0,200,69,0,200,70,0,200,71,0,200,72,0,200,73,0,200,74,0,200,75,0,200,76,0,200,77,0,200,78,0,200,79,0,201,80,0,201,81,0,200,82,0,201,83,0,201,84,0,200,85,0,200,86,0,200,87,0,200,88,0,200*7A
$PAIRSAT,3,22,2,0,1000,3,0,1000,4,0,1000,7,0,1021,8,0,1000,9,0,1000,10,0,1000,11,0,1000,12,0,1200,13,0,1200,15,0,1221,19,0,1200,21,0,1200,24,0,200,25,0,200,26,0,200,27,0,221,30,0,1221,31,0,1200,33,0,1200,34,0,1021,36,0,1000*73
$PAIRSAT,4,43,1,0,200,2,0,200,3,0,600,4,0,200,5,0,200,6,0,201,7,0,201,8,0,200,9,0,201,11,0,1,12,0,1,16,0,1,19,0,600,20,0,600,21,0,600,22,0,600,23,0,621,24,0,621,25,0,621,26,0,600,27,0,600,28,0,600,29,0,600,30,0,600,32,0,400,33,0,400,34,0,421,35,0,400,36,0,400,37,0,400,38,0,400,39,0,421,40,0,421,41,0,400,42,0,400,43,0,421,44,0,421,45,0,400,46,0,400,59,0,400,60,0,400,61,0,400,62,0,400*64
$PAIRDGP,8,2,4,7,8,9,16,21,27*7C
$GNGGA,040448.200,2500.8078007,N,12132.4780643,E,2,51,0.54,17.069,M,15.25,M,1,3335*49
$GNRMC,040448.200,A,2500.8078007,N,12132.4780643,E,0.03,355.73,030324,,,D,V*0D
$GPHDT,,T*1B
$GNACCURACY,4.3*11
$GNGGA,040448.300,2500.8078007,N,12132.4780643,E,2,51,0.54,17.070,M,15.25,M,1,3335*40
$GNRMC,040448.300,A,2500.8078007,N,12132.4780643,E,0.03,355.73,030324,,,D,V*0C
$GPHDT,,T*1B
$GNACCURACY,4.4*16
$GNGGA,040448.400,2500.8078007,N,12132.4780643,E,2,50,0.54,17.071,M,15.25,M,1,3335*47
$GNRMC,040448.400,A,2500.8078007,N,12132.4780643,E,0.02,355.73,030324,,,D,V*0A
$GPHDT,,T*1B
$GNACCURACY,4.4*16
$GNGGA,040448.500,2500.8078007,N,12132.4780643,E,2,51,0.54,17.071,M,15.25,M,1,3335*47
$GNRMC,040448.500,A,2500.8078007,N,12132.4780643,E,0.02,355.73,030324,,,D,V*0B
$GPHDT,,T*1B
$GNACCURACY,4.4*16
$GNGGA,040448.600,2500.8078007,N,12132.4780643,E,2,51,0.54,17.072,M,15.25,M,0,3335*46
$GNRMC,040448.600,A,2500.8078007,N,12132.4780643,E,0.02,355.73,030324,,,D,V*08
$GPHDT,,T*1B
$GNACCURACY,4.4*16
$GNGGA,040448.700,2500.8078007,N,12132.4780643,E,2,52,0.52,17.073,M,15.25,M,0,3335*43
$GNRMC,040448.700,A,2500.8078007,N,12132.4780643,E,0.01,355.73,030324,,,D,V*0A
$GPHDT,,T*1B
$GNACCURACY,4.4*16
$GNGGA,040448.800,2500.8078007,N,12132.4780643,E,2,52,0.52,17.073,M,15.25,M,0,3335*4C
$GNRMC,040448.800,A,2500.8078007,N,12132.4780643,E,0.04,355.73,030324,,,D,V*00
$GPHDT,,T*1B
$GNACCURACY,4.4*16
$GNGGA,040448.900,2500.8078007,N,12132.4780643,E,2,52,0.52,17.072,M,15.25,M,0,3335*4C
$GNRMC,040448.900,A,2500.8078007,N,12132.4780643,E,0.09,355.73,030324,,,D,V*0C
$GPHDT,,T*1B
$GNACCURACY,4.4*16
$GNGGA,040449.000,2500.8078007,N,12132.4780643,E,2,52,0.52,17.071,M,15.25,M,1,3335*46
$GNRMC,040449.000,A,2500.8078007,N,12132.4780643,E,0.01,355.73,030324,,,D,V*0C
$GPHDT,,T*1B
$GNACCURACY,4.4*16
$GNGGA,040449.100,2500.8078007,N,12132.4780643,E,2,52,0.52,17.070,M,15.25,M,1,3335*46
$GNRMC,040449.100,A,2500.8078007,N,12132.4780643,E,0.01,355.73,030324,,,D,V*0D
$GPHDT,,T*1B
$GNGSA,A,3,08,194,199,195,21,27,02,16,07,09,04,196,0.82,0.52,0.63,1*06
$GNGSA,A,3,31,,,,,,,,,,,,0.82,0.52,0.63,1*0B
$GNGSA,A,3,82,83,80,79,,,,,,,,,0.82,0.52,0.63,2*0D
$GNGSA,A,3,30,15,34,27,07,,,,,,,,0.82,0.52,0.63,3*09
$GNGSA,A,3,34,06,16,09,11,40,39,07,25,12,24,43,0.82,0.52,0.63,4*0F
$GNGSA,A,3,23,,,,,,,,,,,,0.82,0.52,0.63,4*0D
$GPGSV,4,1,15,08,70,324,46,194,63,048,40,199,60,167,33,195,60,121,27,1*57
$GPGSV,4,2,15,50,60,167,34,21,46,166,44,27,44,029,34,02,34,180,35,1*61
$GPGSV,4,3,15,16,33,062,28,07,30,320,30,09,29,260,19,04,28,212,25,1*6E
$GPGSV,4,4,15,196,20,172,39,26,14,088,18,31,11,140,24,1*6B
$GPGSV,2,1,08,08,70,324,48,194,63,048,44,199,60,167,39,195,60,121,40,8*55
$GPGSV,2,2,08,27,44,029,33,09,29,260,23,196,20,172,40,26,14,088,25,8*56
$GLGSV,2,1,05,82,65,049,40,83,60,178,25,80,49,014,38,79,33,089,35,1*78
$GLGSV,2,2,05,81,18,028,23,1*46
$GAGSV,2,1,08,30,50,033,33,15,47,150,41,34,43,071,37,27,37,316,37,7*7B
$GAGSV,2,2,08,07,33,233,26,02,15,082,22,08,12,183,25,36,05,035,,7*76
$GAGSV,2,1,05,30,50,033,23,15,47,150,38,34,43,071,37,27,37,316,38,1*70
$GAGSV,2,2,05,08,12,183,26,1*45
$GBGSV,4,1,15,34,82,068,43,06,78,217,35,16,76,195,38,09,75,290,41,1*7D
$GBGSV,4,2,15,11,69,197,36,40,64,320,42,39,64,181,27,07,62,298,32,1*74
$GBGSV,4,3,15,25,59,346,46,12,51,043,35,24,49,098,44,43,44,214,22,1*71
$GBGSV,4,4,15,44,27,040,,23,15,314,37,10,,,21,1*76
$GBGSV,2,1,07,34,82,068,45,40,64,320,45,39,64,181,35,25,59,346,45,4*7E
$GBGSV,2,2,07,24,49,098,39,43,44,214,17,23,15,314,33,4*41
$GNACCURACY,4.4*16
$PAIRSAT,1,29,2,0,201,3,0,200,4,0,221,5,0,200,6,0,200,7,0,201,8,0,221,9,0,221,10,0,200,11,0,200,12,0,200,13,0,200,14,0,200,15,0,200,16,0,1,21,0,1,24,0,200,25,0,200,26,0,200,27,0,221,28,0,200,29,0,200,30,0,200,31,0,201,32,0,200,194,0,621,195,0,221,196,0,620,199,0,221*52
$PAIRSAT,2,24,65,0,200,66,0,200,67,0,200,68,0,200,69,0,200,70,0,200,71,0,200,72,0,200,73,0,200,74,0,200,75,0,200,76,0,200,77,0,200,78,0,200,79,0,201,80,0,201,81,0,200,82,0,201,83,0,201,84,0,200,85,0,200,86,0,200,87,0,200,88,0,200*7A
$PAIRSAT,3,22,2,0,1000,3,0,1000,4,0,1000,7,0,1021,8,0,1000,9,0,1000,10,0,1000,11,0,1000,12,0,1200,13,0,1200,15,0,1221,19,0,1200,21,0,1200,24,0,200,25,0,200,26,0,200,27,0,221,30,0,1221,31,0,1200,33,0,1200,34,0,1021,36,0,1000*73
$PAIRSAT,4,43,1,0,200,2,0,200,3,0,600,4,0,200,5,0,200,6,0,201,7,0,201,8,0,200,9,0,201,11,0,1,12,0,1,16,0,1,19,0,600,20,0,600,21,0,600,22,0,600,23,0,621,24,0,621,25,0,621,26,0,600,27,0,600,28,0,600,29,0,600,30,0,600,32,0,400,33,0,400,34,0,421,35,0,400,36,0,400,37,0,400,38,0,400,39,0,421,40,0,421,41,0,400,42,0,400,43,0,421,44,0,421,45,0,400,46,0,400,59,0,400,60,0,400,61,0,400,62,0,400*64
$PAIRDGP,8,2,4,7,8,9,16,21,27*7C
$GNGGA,040449.200,2500.8078007,N,12132.4780643,E,2,52,0.52,17.069,M,15.25,M,1,3335*4D
$GNRMC,040449.200,A,2500.8078007,N,12132.4780643,E,0.01,355.73,030324,,,D,V*0E
$GPHDT,,T*1B
$GNACCURACY,4.4*16
$GNGGA,040449.300,2500.8078007,N,12132.4780643,E,2,52,0.52,17.069,M,15.25,M,1,3335*4C
$GNRMC,040449.300,A,2500.8078007,N,12132.4780643,E,0.01,355.73,030324,,,D,V*0F
$GPHDT,,T*1B
$GNACCURACY,4.4*16
$GNGGA,040449.400,2500.8078007,N,12132.4780643,E,2,52,0.52,17.068,M,15.25,M,1,3335*4A
$GNRMC,040449.400,A,2500.8078007,N,12132.4780643,E,0.01,355.73,030324,,,D,V*08
$GPHDT,,T*1B
$GNACCURACY,4.3*11
$GNGGA,040449.500,2500.8078007,N,12132.4780643,E,2,52,0.52,17.068,M,15.25,M,1,3335*4B
$GNRMC,040449.500,A,2500.8078007,N,12132.4780643,E,0.01,355.73,030324,,,D,V*09
$GPHDT,,T*1B
$GNACCURACY,4.4*16
$GNGGA,040449.600,2500.8078067,N,12132.4780643,E,2,52,0.52,17.067,M,15.25,M,1,3335*41
$GNRMC,040449.600,A,2500.8078067,N,12132.4780643,E,0.02,355.73,030324,,,D,V*0F
$GPHDT,,T*1B
$GNACCURACY,4.4*16
$GNGGA,040449.700,2500.8078067,N,12132.4780643,E,2,52,0.52,17.067,M,15.25,M,0,3335*41
$GNRMC,040449.700,A,2500.8078067,N,12132.4780643,E,0.02,355.73,030324,,,D,V*0E
$GPHDT,,T*1B
$GNACCURACY,4.4*16
$GNGGA,040449.800,2500.8078067,N,12132.4780643,E,2,52,0.52,17.065,M,15.25,M,0,3335*4C
$GNRMC,040449.800,A,2500.8078067,N,12132.4780643,E,0.09,355.73,030324,,,D,V*0A
$GPHDT,,T*1B
$GNACCURACY,4.4*16
$GNGGA,040449.900,2500.8078067,N,12132.4780643,E,2,52,0.52,17.067,M,15.25,M,0,3335*4F
$GNRMC,040449.900,A,2500.8078067,N,12132.4780643,E,0.07,355.73,030324,,,D,V*05
$GPHDT,,T*1B
$GNACCURACY,4.4*16
$GNGGA,040450.000,2500.8078067,N,12132.4780643,E,2,52,0.52,17.065,M,15.25,M,1,3335*4D
$GNRMC,040450.000,A,2500.8078067,N,12132.4780643,E,0.02,355.73,030324,,,D,V*01
$GPHDT,,T*1B
$GNACCURACY,4.4*16
$GNGGA,040450.100,2500.8078067,N,12132.4780643,E,2,52,0.52,17.064,M,15.25,M,1,3335*4D
$GNRMC,040450.100,A,2500.8078067,N,12132.4780643,E,0.02,355.73,030324,,,D,V*00
$GPHDT,,T*1B
$GNGSA,A,3,08,194,199,195,21,27,02,16,07,09,04,196,0.82,0.52,0.63,1*06
$GNGSA,A,3,31,,,,,,,,,,,,0.82,0.52,0.63,1*0B
$GNGSA,A,3,82,83,80,79,,,,,,,,,0.82,0.52,0.63,2*0D
$GNGSA,A,3,30,15,34,27,07,,,,,,,,0.82,0.52,0.63,3*09
$GNGSA,A,3,34,06,16,09,11,40,39,07,25,12,24,43,0.82,0.52,0.63,4*0F
$GNGSA,A,3,23,,,,,,,,,,,,0.82,0.52,0.63,4*0D
$GPGSV,4,1,15,08,70,324,46,194,63,048,39,199,60,167,34,195,60,121,26,1*5F
$GPGSV,4,2,15,50,60,167,35,21,46,166,44,27,44,029,35,02,34,180,34,1*60
$GPGSV,4,3,15,16,33,062,27,07,30,320,30,09,29,260,15,04,28,212,23,1*6B
$GPGSV,4,4,15,196,20,172,40,26,14,088,18,31,11,140,18,1*6A
$GPGSV,2,1,08,08,70,324,49,194,63,048,45,199,60,167,40,195,60,121,41,8*5A
$GPGSV,2,2,08,27,44,029,35,09,29,260,24,196,20,172,42,26,14,088,27,8*57
$GLGSV,2,1,05,82,65,049,40,83,60,178,27,80,49,014,37,79,33,089,36,1*76
$GLGSV,2,2,05,81,18,028,24,1*41
$GAGSV,2,1,08,30,50,033,33,15,47,150,41,34,43,071,38,27,37,316,37,7*74
$GAGSV,2,2,08,07,33,233,28,02,15,082,22,08,12,183,25,36,05,035,,7*78
$GAGSV,2,1,05,30,50,033,26,15,47,150,38,34,43,071,41,27,37,316,39,1*75
$GAGSV,2,2,05,08,12,183,24,1*47
$GBGSV,4,1,15,34,82,068,45,06,78,217,34,16,76,195,40,09,75,290,41,1*75
$GBGSV,4,2,15,11,69,197,37,40,64,320,42,39,64,181,31,07,62,298,33,1*73
$GBGSV,4,3,15,25,59,346,45,12,51,043,36,24,49,098,44,43,44,214,25,1*76
$GBGSV,4,4,15,44,27,040,,23,15,314,38,10,,,23,1*7B
$GBGSV,2,1,07,34,82,068,45,40,64,320,46,39,64,181,35,25,59,346,45,4*7D
$GBGSV,2,2,07,24,49,098,40,43,44,214,17,23,15,314,33,4*4F
$GNACCURACY,4.4*16
$PAIRSAT,1,29,2,0,201,3,0,200,4,0,221,5,0,200,6,0,200,7,0,201,8,0,221,9,0,221,10,0,200,11,0,200,12,0,200,13,0,200,14,0,200,15,0,200,16,0,1,21,0,1,24,0,200,25,0,200,26,0,200,27,0,221,28,0,200,29,0,200,30,0,200,31,0,201,32,0,200,194,0,621,195,0,221,196,0,620,199,0,221*52
$PAIRSAT,2,24,65,0,200,66,0,200,67,0,200,68,0,200,69,0,200,70,0,200,71,0,200,72,0,200,73,0,200,74,0,200,75,0,200,76,0,200,77,0,200,78,0,200,79,0,201,80,0,201,81,0,200,82,0,201,83,0,201,84,0,200,85,0,200,86,0,200,87,0,200,88,0,200*7A
$PAIRSAT,3,22,2,0,1000,3,0,1000,4,0,1000,7,0,1021,8,0,1000,9,0,1000,10,0,1000,11,0,1000,12,0,1200,13,0,1200,15,0,1221,19,0,1200,21,0,1200,24,0,200,25,0,200,26,0,200,27,0,221,30,0,1221,31,0,1200,33,0,1200,34,0,1021,36,0,1000*73
$PAIRSAT,4,43,1,0,200,2,0,200,3,0,600,4,0,200,5,0,200,6,0,201,7,0,201,8,0,200,9,0,201,11,0,1,12,0,1,16,0,1,19,0,600,20,0,600,21,0,600,22,0,600,23,0,621,24,0,621,25,0,621,26,0,600,27,0,600,28,0,600,29,0,600,30,0,600,32,0,400,33,0,400,34,0,421,35,0,400,36,0,400,37,0,400,38,0,400,39,0,421,40,0,421,41,0,400,42,0,400,43,0,421,44,0,421,45,0,400,46,0,400,59,0,400,60,0,400,61,0,400,62,0,400*64
$PAIRDGP,8,2,4,7,8,9,16,21,27*7C
$GNGGA,040450.200,2500.8078067,N,12132.4780643,E,2,52,0.52,17.063,M,15.25,M,1,3335*49
$GNRMC,040450.200,A,2500.8078067,N,12132.4780643,E,0.02,355.73,030324,,,D,V*03
$GPHDT,,T*1B
$GNACCURACY,4.4*16
$GNGGA,040450.300,2500.8078067,N,12132.4780643,E,2,52,0.52,17.062,M,15.25,M,1,3335*49
$GNRMC,040450.300,A,2500.8078067,N,12132.4780643,E,0.02,355.73,030324,,,D,V*02
$GPHDT,,T*1B
$GNACCURACY,4.4*16
$GNGGA,040450.400,2500.8078067,N,12132.4780643,E,2,52,0.52,17.061,M,15.25,M,1,3335*4D
$GNRMC,040450.400,A,2500.8078067,N,12132.4780643,E,0.02,355.73,030324,,,D,V*05
$GPHDT,,T*1B
$GNACCURACY,4.4*16
$GNGGA,040450.500,2500.8078067,N,12132.4780643,E,2,52,0.52,17.060,M,15.25,M,0,3335*4C
$GNRMC,040450.500,A,2500.8078067,N,12132.4780643,E,0.01,355.73,030324,,,D,V*07
$GPHDT,,T*1B
$GNACCURACY,4.4*16
$GNGGA,040450.600,2500.8078067,N,12132.4780643,E,2,53,0.52,17.059,M,15.25,M,0,3335*44
$GNRMC,040450.600,A,2500.8078067,N,12132.4780643,E,0.02,355.73,030324,,,D,V*07
$GPHDT,,T*1B
$GNACCURACY,4.3*11
$GNGGA,040450.700,2500.8078067,N,12132.4780643,E,2,53,0.52,17.059,M,15.25,M,0,3335*45
$GNRMC,040450.700,A,2500.8078067,N,12132.4780643,E,0.11,355.73,030324,,,D,V*04
$GPHDT,,T*1B
$GNACCURACY,4.3*11
$GNGGA,040450.800,2500.8078067,N,12132.4780703,E,2,53,0.52,17.061,M,15.25,M,0,3335*44
$GNRMC,040450.800,A,2500.8078067,N,12132.4780703,E,0.05,355.73,030324,,,D,V*0B
$GPHDT,,T*1B
$GNACCURACY,4.3*11
$GNGGA,040450.900,2500.8078067,N,12132.4780703,E,2,53,0.52,17.060,M,15.25,M,0,3335*44
$GNRMC,040450.900,A,2500.8078067,N,12132.4780703,E,0.06,355.73,030324,,,D,V*09
$GPHDT,,T*1B
$GNACCURACY,4.4*16
$GNGGA,040451.000,2500.8078067,N,12132.4780703,E,2,53,0.52,17.060,M,15.25,M,1,3335*4D
$GNRMC,040451.000,A,2500.8078067,N,12132.4780703,E,0.04,355.73,030324,,,D,V*03
$GPHDT,,T*1B
$GNACCURACY,4.4*16
$GNGGA,040451.100,2500.8078067,N,12132.4780703,E,2,53,0.52,17.060,M,15.25,M,1,3335*4C
$GNRMC,040451.100,A,2500.8078067,N,12132.4780703,E,0.04,355.73,030324,,,D,V*02
$GPHDT,,T*1B
$GNGSA,A,3,08,194,199,195,21,27,02,16,07,09,04,196,0.82,0.52,0.63,1*06
$GNGSA,A,3,31,,,,,,,,,,,,0.82,0.52,0.63,1*0B
$GNGSA,A,3,82,83,80,79,,,,,,,,,0.82,0.52,0.63,2*0D
$GNGSA,A,3,30,15,34,27,07,,,,,,,,0.82,0.52,0.63,3*09
$GNGSA,A,3,34,06,16,09,11,39,40,07,25,12,24,43,0.82,0.52,0.63,4*0F
$GNGSA,A,3,23,,,,,,,,,,,,0.82,0.52,0.63,4*0D
$GPGSV,4,1,15,08,70,324,46,194,63,048,39,50,60,167,35,199,60,167,34,1*67
$GPGSV,4,2,15,195,60,121,30,21,46,166,44,27,44,029,35,02,34,180,33,1*58
$GPGSV,4,3,15,16,33,062,31,07,30,320,33,09,29,260,21,04,28,212,25,1*6E
$GPGSV,4,4,15,196,20,172,41,26,14,088,16,31,11,140,24,1*6A
$GPGSV,2,1,08,08,70,324,49,194,63,048,45,195,60,121,42,199,60,167,41,8*58
$GPGSV,2,2,08,27,44,029,35,09,29,260,27,196,20,172,42,26,14,088,29,8*5A
$GLGSV,2,1,05,82,65,049,40,83,60,178,26,80,49,014,38,79,33,089,34,1*7A
$GLGSV,2,2,05,81,18,028,25,1*40
$GAGSV,2,1,08,30,50,033,31,15,47,150,41,34,43,071,38,27,37,316,37,7*76
$GAGSV,2,2,08,07,33,233,28,02,15,082,24,08,12,183,27,36,05,035,,7*7C
$GAGSV,2,1,06,30,50,033,30,15,47,150,41,34,43,071,42,27,37,316,39,1*7C
$GAGSV,2,2,06,07,33,233,24,08,12,183,26,1*75
$GBGSV,4,1,15,34,82,068,44,06,78,217,35,16,76,195,40,09,75,290,41,1*75
$GBGSV,4,2,15,11,69,197,37,39,64,181,31,40,64,320,41,07,62,298,34,1*77
$GBGSV,4,3,15,25,59,346,45,10,52,281,23,12,51,043,35,24,49,098,44,1*7E
$GBGSV,4,4,15,43,44,214,24,44,27,040,,23,15,314,38,1*4D
$GBGSV,2,1,07,34,82,068,45,40,64,320,46,39,64,181,37,25,59,346,46,4*7C
$GBGSV,2,2,07,24,49,098,40,43,44,214,15,23,15,314,34,4*4A
$GNACCURACY,4.4*16
$PAIRSAT,1,29,2,0,201,3,0,200,4,0,221,5,0,200,6,0,200,7,0,201,8,0,221,9,0,221,10,0,200,11,0,200,12,0,200,13,0,200,14,0,200,15,0,200,16,0,1,21,0,1,24,0,200,25,0,200,26,0,200,27,0,221,28,0,200,29,0,200,30,0,200,31,0,201,32,0,200,194,0,621,195,0,221,196,0,620,199,0,221*52
$PAIRSAT,2,24,65,0,200,66,0,200,67,0,200,68,0,200,69,0,200,70,0,200,71,0,200,72,0,200,73,0,200,74,0,200,75,0,200,76,0,200,77,0,200,78,0,200,79,0,201,80,0,201,81,0,200,82,0,201,83,0,201,84,0,200,85,0,200,86,0,200,87,0,200,88,0,200*7A
$PAIRSAT,3,22,2,0,1000,3,0,1000,4,0,1000,7,0,1021,8,0,1000,9,0,1000,10,0,1000,11,0,1000,12,0,1200,13,0,1200,15,0,1221,19,0,1200,21,0,1200,24,0,200,25,0,200,26,0,200,27,0,221,30,0,1221,31,0,1200,33,0,1200,34,0,1021,36,0,1000*73
$PAIRSAT,4,44,1,0,200,2,0,200,3,0,600,4,0,200,5,0,200,6,0,201,7,0,201,8,0,200,9,0,201,10,0,200,11,0,1,12,0,1,16,0,1,19,0,600,20,0,600,21,0,600,22,0,600,23,0,621,24,0,621,25,0,621,26,0,600,27,0,600,28,0,600,29,0,600,30,0,600,32,0,400,33,0,400,34,0,421,35,0,400,36,0,400,37,0,400,38,0,400,39,0,421,40,0,421,41,0,400,42,0,400,43,0,421,44,0,421,45,0,400,46,0,400,59,0,400,60,0,400,61,0,400,62,0,400*4C
$PAIRDGP,8,2,4,7,8,9,16,21,27*7C
$GNGGA,040451.200,2500.8078067,N,12132.4780703,E,2,53,0.52,17.060,M,15.25,M,1,3335*4F
$GNRMC,040451.200,A,2500.8078067,N,12132.4780703,E,0.05,355.73,030324,,,D,V*00
$GPHDT,,T*1B
$GNACCURACY,4.4*16
$GNGGA,040451.300,2500.8078067,N,12132.4780703,E,2,53,0.52,17.060,M,15.25,M,1,3335*4E
$GNRMC,040451.300,A,2500.8078067,N,12132.4780703,E,0.04,355.73,030324,,,D,V*00
$GPHDT,,T*1B
$GNACCURACY,4.4*16
$GNGGA,040451.400,2500.8078067,N,12132.4780703,E,2,53,0.52,17.060,M,15.25,M,1,3335*49
$GNRMC,040451.400,A,2500.8078067,N,12132.4780703,E,0.03,355.73,030324,,,D,V*00
$GPHDT,,T*1B
$GNACCURACY,4.4*16
$GNGGA,040451.500,2500.8078067,N,12132.4780703,E,2,53,0.52,17.060,M,15.25,M,0,3335*49
$GNRMC,040451.500,A,2500.8078067,N,12132.4780703,E,0.02,355.73,030324,,,D,V*00
$GPHDT,,T*1B
$GNACCURACY,4.4*16
$GNGGA,040451.600,2500.8078067,N,12132.4780763,E,2,53,0.52,17.060,M,15.25,M,0,3335*4C
$GNRMC,040451.600,A,2500.8078067,N,12132.4780763,E,0.02,355.73,030324,,,D,V*05
$GPHDT,,T*1B
$GNACCURACY,4.4*16
$GNGGA,040451.700,2500.8078067,N,12132.4780763,E,2,53,0.52,17.060,M,15.25,M,0,3335*4D
$GNRMC,040451.700,A,2500.8078067,N,12132.4780763,E,0.09,355.73,030324,,,D,V*0F
$GPHDT,,T*1B
$GNACCURACY,4.4*16
$GNGGA,040451.800,2500.8078067,N,12132.4780763,E,2,53,0.52,17.061,M,15.25,M,0,3335*43
$GNRMC,040451.800,A,2500.8078067,N,12132.4780763,E,0.06,355.73,030324,,,D,V*0F
$GPHDT,,T*1B
$GNACCURACY,4.4*16
$GNGGA,040451.900,2500.8078127,N,12132.4780763,E,2,53,0.52,17.062,M,15.25,M,0,3335*44
$GNRMC,040451.900,A,2500.8078127,N,12132.4780763,E,0.03,355.73,030324,,,D,V*0E
$GPHDT,,T*1B
$GNACCURACY,4.4*16
$GNGGA,040452.000,2500.8078127,N,12132.4780763,E,2,53,0.52,17.062,M,15.25,M,1,3335*4F
$GNRMC,040452.000,A,2500.8078127,N,12132.4780763,E,0.02,355.73,030324,,,D,V*05
$GPHDT,,T*1B
$GNACCURACY,4.4*16
$GNGGA,040452.100,2500.8078127,N,12132.4780763,E,2,53,0.52,17.062,M,15.25,M,1,3335*4E
$GNRMC,040452.100,A,2500.8078127,N,12132.4780763,E,0.02,355.73,030324,,,D,V*04
$GPHDT,,T*1B
$GNGSA,A,3,08,194,199,195,21,27,02,16,07,09,04,196,0.82,0.52,0.63,1*06
$GNGSA,A,3,31,,,,,,,,,,,,0.82,0.52,0.63,1*0B
$GNGSA,A,3,82,83,80,79,,,,,,,,,0.82,0.52,0.63,2*0D
$GNGSA,A,3,30,15,34,27,07,,,,,,,,0.82,0.52,0.63,3*09
$GNGSA,A,3,34,06,16,09,11,40,39,07,25,12,24,43,0.82,0.52,0.63,4*0F
$GNGSA,A,3,23,,,,,,,,,,,,0.82,0.52,0.63,4*0D
$GPGSV,4,1,15,08,70,324,46,194,63,048,40,199,60,167,35,50,60,167,36,1*6B
$GPGSV,4,2,15,195,60,121,33,21,46,166,45,27,44,029,36,02,34,180,33,1*59
$GPGSV,4,3,15,16,33,062,32,07,30,320,30,09,29,260,23,04,28,212,19,1*63
$GPGSV,4,4,15,196,20,172,41,26,14,088,17,31,11,140,24,1*6B
$GPGSV,2,1,08,08,70,324,49,194,63,048,46,195,60,121,42,199,60,167,41,8*5B
$GPGSV,2,2,08,27,44,029,35,09,29,260,25,196,20,172,42,26,14,088,29,8*58
$GLGSV,2,1,06,82,65,048,41,83,60,178,23,80,49,015,38,79,33,089,35,1*7C
$GLGSV,2,2,06,81,17,028,26,71,05,301,,1*7E
$GAGSV,2,1,08,30,50,033,31,15,47,150,41,34,43,071,39,27,37,316,37,7*77
$GAGSV,2,2,08,07,33,233,28,02,15,082,20,08,12,183,29,36,05,035,,7*76
$GAGSV,2,1,06,30,50,033,27,15,47,150,42,34,43,071,42,27,37,316,40,1*77
$GAGSV,2,2,06,07,33,233,25,08,12,183,26,1*74
$GBGSV,4,1,15,34,82,068,43,06,78,217,38,16,76,195,40,09,75,290,40,1*7E
$GBGSV,4,2,15,11,69,197,38,40,64,320,41,39,64,181,34,07,62,298,32,1*7B
$GBGSV,4,3,15,25,59,346,45,10,52,281,19,12,51,043,35,24,49,098,44,1*77
$GBGSV,4,4,15,43,44,214,29,44,27,040,,23,15,314,38,1*40
$GBGSV,2,1,07,34,82,068,45,40,64,320,46,39,64,181,37,25,59,346,47,4*7D
$GBGSV,2,2,07,24,49,098,40,43,44,214,25,23,15,314,35,4*48
$GNACCURACY,4.4*16
$PAIRSAT,1,29,2,0,201,3,0,200,4,0,221,5,0,200,6,0,200,7,0,201,8,0,221,9,0,221,10,0,200,11,0,200,12,0,200,13,0,200,14,0,200,15,0,200,16,0,1,21,0,1,24,0,200,25,0,200,26,0,200,27,0,221,28,0,200,29,0,200,30,0,200,31,0,201,32,0,200,194,0,621,195,0,221,196,0,620,199,0,221*52
$PAIRSAT,2,24,65,0,200,66,0,200,67,0,200,68,0,200,69,0,200,70,0,200,71,0,200,72,0,200,73,0,200,74,0,200,75,0,200,76,0,200,77,0,200,78,0,200,79,0,201,80,0,201,81,0,200,82,0,201,83,0,201,84,0,200,85,0,200,86,0,200,87,0,200,88,0,200*7A
$PAIRSAT,3,22,2,0,1000,3,0,1000,4,0,1000,7,0,1021,8,0,1000,9,0,1000,10,0,1000,11,0,1000,12,0,1200,13,0,1200,15,0,1221,19,0,1200,21,0,1200,24,0,200,25,0,200,26,0,200,27,0,221,30,0,1221,31,0,1200,33,0,1200,34,0,1021,36,0,1000*73
$PAIRSAT,4,44,1,0,200,2,0,200,3,0,600,4,0,200,5,0,200,6,0,201,7,0,201,8,0,200,9,0,201,10,0,200,11,0,1,12,0,1,16,0,1,19,0,600,20,0,600,21,0,600,22,0,600,23,0,621,24,0,621,25,0,621,26,0,600,27,0,600,28,0,600,29,0,600,30,0,600,32,0,400,33,0,400,34,0,421,35,0,400,36,0,400,37,0,400,38,0,400,39,0,421,40,0,421,41,0,400,42,0,400,43,0,421,44,0,421,45,0,400,46,0,400,59,0,400,60,0,400,61,0,400,62,0,400*4C
$PAIRDGP,8,2,4,7,8,9,16,21,27*7C
$GNGGA,040452.200,2500.8078127,N,12132.4780763,E,2,53,0.52,17.062,M,15.25,M,1,3335*4D
$GNRMC,040452.200,A,2500.8078127,N,12132.4780763,E,0.03,355.73,030324,,,D,V*06
$GPHDT,,T*1B
$GNACCURACY,4.4*16
$GNGGA,040452.300,2500.8078127,N,12132.4780763,E,2,53,0.52,17.063,M,15.25,M,1,3335*4D
$GNRMC,040452.300,A,2500.8078127,N,12132.4780763,E,0.04,355.73,030324,,,D,V*00
$GPHDT,,T*1B
$GNACCURACY,4.4*16
$GNGGA,040452.400,2500.8078127,N,12132.4780763,E,2,53,0.52,17.063,M,15.25,M,1,3335*4A
$GNRMC,040452.400,A,2500.8078127,N,12132.4780763,E,0.04,355.73,030324,,,D,V*07
$GPHDT,,T*1B
$GNACCURACY,4.4*16
$GNGGA,040452.500,2500.8078127,N,12132.4780763,E,2,52,0.52,17.063,M,15.25,M,1,3335*4A
$GNRMC,040452.500,A,2500.8078127,N,12132.4780763,E,0.03,355.73,030324,,,D,V*01
$GPHDT,,T*1B
$GNACCURACY,4.4*16
$GNGGA,040452.600,2500.8078127,N,12132.4780763,E,2,52,0.52,17.063,M,15.25,M,0,3335*48
$GNRMC,040452.600,A,2500.8078127,N,12132.4780763,E,0.02,355.73,030324,,,D,V*03
$GPHDT,,T*1B
$GNACCURACY,4.4*16
$GNGGA,040452.700,2500.8078127,N,12132.4780823,E,2,52,0.52,17.063,M,15.25,M,0,3335*42
$GNRMC,040452.700,A,2500.8078127,N,12132.4780823,E,0.03,355.73,030324,,,D,V*08
$GPHDT,,T*1B
$GNACCURACY,4.4*16
$GNGGA,040452.800,2500.8078127,N,12132.4780823,E,2,52,0.52,17.063,M,15.25,M,0,3335*4D
$GNRMC,040452.800,A,2500.8078127,N,12132.4780823,E,0.03,355.73,030324,,,D,V*07
$GPHDT,,T*1B
$GNACCURACY,4.4*16
$GNGGA,040452.900,2500.8078127,N,12132.4780823,E,2,52,0.52,17.062,M,15.25,M,0,3335*4D
$GNRMC,040452.900,A,2500.8078127,N,12132.4780823,E,0.04,355.73,030324,,,D,V*01
$GPHDT,,T*1B
$GNACCURACY,4.4*16
$GNGGA,040453.000,2500.8078127,N,12132.4780763,E,2,53,0.52,17.060,M,15.25,M,1,3335*4C
$GNRMC,040453.000,A,2500.8078127,N,12132.4780763,E,0.05,355.73,030324,,,D,V*03
$GPHDT,,T*1B
$GNACCURACY,4.4*16
$GNGGA,040453.100,2500.8078127,N,12132.4780763,E,2,53,0.52,17.059,M,15.25,M,1,3335*47
$GNRMC,040453.100,A,2500.8078127,N,12132.4780763,E,0.02,355.73,030324,,,D,V*05
$GPHDT,,T*1B
$GNGSA,A,3,08,194,199,195,21,27,02,16,07,09,04,196,0.82,0.52,0.63,1*06
$GNGSA,A,3,31,,,,,,,,,,,,0.82,0.52,0.63,1*0B
$GNGSA,A,3,82,83,80,79,,,,,,,,,0.82,0.52,0.63,2*0D
$GNGSA,A,3,30,15,34,27,07,,,,,,,,0.82,0.52,0.63,3*09
$GNGSA,A,3,34,06,16,09,11,39,40,07,25,12,24,43,0.82,0.52,0.63,4*0F
$GNGSA,A,3,23,,,,,,,,,,,,0.82,0.52,0.63,4*0D
$GPGSV,4,1,15,08,70,324,46,194,63,048,40,50,60,167,36,199,60,167,34,1*6A
$GPGSV,4,2,15,195,60,121,27,21,46,166,45,27,44,029,36,02,34,180,33,1*5C
$GPGSV,4,3,15,16,33,062,32,07,30,320,32,09,29,260,20,04,28,212,19,1*62
$GPGSV,4,4,15,196,20,172,41,26,14,088,21,31,11,140,23,1*69
$GPGSV,2,1,08,08,70,324,49,194,63,048,46,195,60,121,42,199,60,167,41,8*5B
$GPGSV,2,2,08,27,44,029,35,04,28,212,19,196,20,172,42,26,14,088,26,8*51
$GLGSV,2,1,05,82,65,048,41,83,60,178,22,80,49,015,38,79,33,089,35,1*7E
$GLGSV,2,2,05,81,17,028,27,1*4D
$GAGSV,2,1,08,30,50,033,31,15,47,150,41,34,43,071,38,27,37,316,37,7*76
$GAGSV,2,2,08,07,33,233,29,02,15,082,19,08,12,183,29,36,05,035,,7*7D
$GAGSV,2,1,07,30,50,033,28,15,47,150,42,34,43,071,42,27,37,316,40,1*79
$GAGSV,2,2,07,07,33,233,23,02,15,082,29,08,12,183,25,1*47
$GBGSV,4,1,15,34,82,068,43,06,78,217,38,16,76,195,40,09,75,290,40,1*7E
$GBGSV,4,2,15,11,69,197,38,39,64,181,33,40,64,320,42,07,62,298,31,1*7C
$GBGSV,4,3,15,25,59,346,45,10,52,281,18,12,51,043,34,24,49,098,44,1*77
$GBGSV,4,4,15,43,44,214,27,44,27,040,,23,15,314,38,1*4E
$GBGSV,2,1,07,34,82,068,46,40,64,320,46,39,64,181,37,25,59,346,47,4*7E
$GBGSV,2,2,07,24,49,098,40,43,44,214,26,23,15,314,35,4*4B
$GNACCURACY,4.4*16
$PAIRSAT,1,29,2,0,201,3,0,200,4,0,221,5,0,200,6,0,200,7,0,201,8,0,221,9,0,221,10,0,200,11,0,200,12,0,200,13,0,200,14,0,200,15,0,200,16,0,1,21,0,1,24,0,200,25,0,200,26,0,200,27,0,221,28,0,200,29,0,200,30,0,200,31,0,201,32,0,200,194,0,621,195,0,221,196,0,620,199,0,221*52
$PAIRSAT,2,24,65,0,200,66,0,200,67,0,200,68,0,200,69,0,200,70,0,200,71,0,200,72,0,200,73,0,200,74,0,200,75,0,200,76,0,200,77,0,200,78,0,200,79,0,201,80,0,201,81,0,200,82,0,201,83,0,201,84,0,200,85,0,200,86,0,200,87,0,200,88,0,200*7A
$PAIRSAT,3,22,2,0,1000,3,0,1000,4,0,1000,7,0,1021,8,0,1000,9,0,1000,10,0,1000,11,0,1000,12,0,1200,13,0,1200,15,0,1221,19,0,1200,21,0,1200,24,0,200,25,0,200,26,0,200,27,0,221,30,0,1221,31,0,1200,33,0,1200,34,0,1221,36,0,1000*71
$PAIRSAT,4,44,1,0,200,2,0,200,3,0,600,4,0,200,5,0,200,6,0,201,7,0,201,8,0,200,9,0,201,10,0,200,11,0,1,12,0,1,16,0,1,19,0,600,20,0,600,21,0,600,22,0,600,23,0,621,24,0,621,25,0,621,26,0,600,27,0,600,28,0,600,29,0,600,30,0,600,32,0,400,33,0,400,34,0,421,35,0,400,36,0,400,37,0,400,38,0,400,39,0,421,40,0,421,41,0,400,42,0,400,43,0,421,44,0,421,45,0,400,46,0,400,59,0,400,60,0,400,61,0,400,62,0,400*4C
$PAIRDGP,8,2,4,7,8,9,16,21,27*7C
$GNGGA,040453.200,2500.8078127,N,12132.4780763,E,2,53,0.52,17.057,M,15.25,M,1,3335*4A
$GNRMC,040453.200,A,2500.8078127,N,12132.4780763,E,0.02,355.73,030324,,,D,V*06
$GPHDT,,T*1B
$GNACCURACY,4.4*16
$GNGGA,040453.300,2500.8078127,N,12132.4780763,E,2,52,0.52,17.055,M,15.25,M,1,3335*48
$GNRMC,040453.300,A,2500.8078127,N,12132.4780763,E,0.02,355.73,030324,,,D,V*07
$GPHDT,,T*1B
$GNACCURACY,4.4*16
$GNGGA,040453.400,2500.8078127,N,12132.4780763,E,2,53,0.52,17.053,M,15.25,M,0,3335*49
$GNRMC,040453.400,A,2500.8078127,N,12132.4780763,E,0.02,355.73,030324,,,D,V*00
$GPHDT,,T*1B
$GNACCURACY,4.4*16
$GNGGA,040453.500,2500.8078127,N,12132.4780763,E,2,53,0.52,17.051,M,15.25,M,0,3335*4A
$GNRMC,040453.500,A,2500.8078127,N,12132.4780763,E,0.02,355.73,030324,,,D,V*01
$GPHDT,,T*1B
$GNACCURACY,4.4*16
$GNGGA,040453.600,2500.8078127,N,12132.4780763,E,2,53,0.52,17.050,M,15.25,M,0,3335*48
$GNRMC,040453.600,A,2500.8078127,N,12132.4780763,E,0.02,355.73,030324,,,D,V*02
$GPHDT,,T*1B
$GNACCURACY,4.4*16
$GNGGA,040453.700,2500.8078187,N,12132.4780823,E,2,53,0.52,17.048,M,15.25,M,0,3335*41
$GNRMC,040453.700,A,2500.8078187,N,12132.4780823,E,0.03,355.73,030324,,,D,V*03
$GPHDT,,T*1B
$GNACCURACY,4.4*16
$GNGGA,040453.800,2500.8078187,N,12132.4780823,E,2,54,0.52,17.047,M,15.25,M,0,3335*46
$GNRMC,040453.800,A,2500.8078187,N,12132.4780823,E,0.02,355.73,030324,,,D,V*0D
$GPHDT,,T*1B
$GNACCURACY,4.4*16
$GNGGA,040453.900,2500.8078187,N,12132.4780823,E,2,54,0.52,17.046,M,15.25,M,0,3335*46
$GNRMC,040453.900,A,2500.8078187,N,12132.4780823,E,0.05,355.73,030324,,,D,V*0B
$GPHDT,,T*1B
$GNACCURACY,4.4*16
$GNGGA,040454.000,2500.8078187,N,12132.4780823,E,2,54,0.52,17.047,M,15.25,M,1,3335*48
$GNRMC,040454.000,A,2500.8078187,N,12132.4780823,E,0.06,355.73,030324,,,D,V*06
$GPHDT,,T*1B
$GNACCURACY,4.4*16
$GNGGA,040454.100,2500.8078187,N,12132.4780823,E,2,54,0.52,17.049,M,15.25,M,1,3335*47
$GNRMC,040454.100,A,2500.8078187,N,12132.4780823,E,0.02,355.73,030324,,,D,V*03
$GPHDT,,T*1B
$GNGSA,A,3,08,194,199,195,21,27,02,16,07,09,04,196,0.82,0.52,0.63,1*06
$GNGSA,A,3,31,,,,,,,,,,,,0.82,0.52,0.63,1*0B
$GNGSA,A,3,82,83,80,79,,,,,,,,,0.82,0.52,0.63,2*0D
$GNGSA,A,3,30,15,34,27,07,,,,,,,,0.82,0.52,0.63,3*09
$GNGSA,A,3,34,06,16,09,11,40,39,07,25,12,24,43,0.82,0.52,0.63,4*0F
$GNGSA,A,3,23,,,,,,,,,,,,0.82,0.52,0.63,4*0D
$GPGSV,4,1,15,08,70,324,46,194,63,048,40,199,60,167,34,50,60,167,36,1*6A
$GPGSV,4,2,15,195,60,121,29,21,46,166,45,27,44,029,36,02,34,180,33,1*52
$GPGSV,4,3,15,16,33,062,32,07,30,320,32,09,29,260,21,04,28,212,18,1*62
$GPGSV,4,4,15,196,20,172,41,26,14,088,22,31,11,140,23,1*6A
$GPGSV,3,1,09,08,70,324,49,194,63,048,45,195,60,121,42,199,60,167,41,8*58
$GPGSV,3,2,09,27,44,029,36,09,29,260,20,04,28,212,21,196,20,172,42,8*58
$GPGSV,3,3,09,26,14,088,25,8*52
$GLGSV,2,1,06,82,65,048,41,83,60,178,25,80,49,015,39,79,33,089,35,1*7B
$GLGSV,2,2,06,81,17,028,28,84,01,199,,1*7D
$GAGSV,2,1,08,30,50,033,27,15,47,150,41,34,43,071,37,27,37,316,37,7*7E
$GAGSV,2,2,08,07,33,233,25,02,15,082,21,08,12,183,29,36,05,035,,7*7A
$GAGSV,2,1,07,30,50,033,24,15,47,150,42,34,43,071,42,27,37,316,40,1*75
$GAGSV,2,2,07,07,33,233,25,02,15,082,28,08,12,183,22,1*47
$GBGSV,4,1,15,34,82,068,43,06,78,217,38,16,76,195,41,09,75,289,40,1*77
$GBGSV,4,2,15,11,70,197,38,40,64,320,42,39,64,181,33,07,62,299,32,1*76
$GBGSV,4,3,15,25,59,346,45,10,52,281,16,12,50,043,32,24,49,098,45,1*7F
$GBGSV,4,4,15,43,44,214,31,44,27,040,,23,15,314,38,1*49
$GBGSV,2,1,07,34,82,068,46,40,64,320,46,39,64,181,37,25,59,346,47,4*7E
$GBGSV,2,2,07,24,49,098,40,43,44,214,25,23,15,314,35,4*48
$GNACCURACY,4.4*16
$PAIRSAT,1,29,2,0,201,3,0,200,4,0,221,5,0,200,6,0,200,7,0,201,8,0,221,9,0,221,10,0,200,11,0,200,12,0,200,13,0,200,14,0,200,15,0,200,16,0,1,21,0,1,24,0,200,25,0,200,26,0,200,27,0,221,28,0,200,29,0,200,30,0,200,31,0,201,32,0,200,194,0,621,195,0,221,196,0,620,199,0,221*52
$PAIRSAT,2,24,65,0,200,66,0,200,67,0,200,68,0,200,69,0,200,70,0,200,71,0,200,72,0,200,73,0,200,74,0,200,75,0,200,76,0,200,77,0,200,78,0,200,79,0,201,80,0,201,81,0,200,82,0,201,83,0,201,84,0,200,85,0,200,86,0,200,87,0,200,88,0,200*7A
$PAIRSAT,3,22,2,0,1000,3,0,1000,4,0,1000,7,0,1021,8,0,1000,9,0,1000,10,0,1000,11,0,1000,12,0,1200,13,0,1200,15,0,1221,19,0,1200,21,0,1200,24,0,200,25,0,200,26,0,200,27,0,221,30,0,1221,31,0,1200,33,0,1200,34,0,1221,36,0,1000*71
$PAIRSAT,4,44,1,0,200,2,0,200,3,0,600,4,0,200,5,0,200,6,0,201,7,0,201,8,0,200,9,0,201,10,0,200,11,0,1,12,0,1,16,0,1,19,0,600,20,0,600,21,0,600,22,0,600,23,0,621,24,0,621,25,0,621,26,0,600,27,0,600,28,0,600,29,0,600,30,0,600,32,0,400,33,0,400,34,0,421,35,0,400,36,0,400,37,0,400,38,0,400,39,0,421,40,0,421,41,0,400,42,0,400,43,0,421,44,0,421,45,0,400,46,0,400,59,0,400,60,0,400,61,0,400,62,0,400*4C
$PAIRDGP,8,2,4,7,8,9,16,21,27*7C
$GNGGA,040454.200,2500.8078187,N,12132.4780823,E,2,54,0.52,17.050,M,15.25,M,1,3335*4C
$GNRMC,040454.200,A,2500.8078187,N,12132.4780823,E,0.02,355.73,030324,,,D,V*00
$GPHDT,,T*1B
$GNACCURACY,4.3*11
$GNGGA,040454.300,2500.8078187,N,12132.4780823,E,2,54,0.52,17.052,M,15.25,M,1,3335*4F
$GNRMC,040454.300,A,2500.8078187,N,12132.4780823,E,0.02,355.73,030324,,,D,V*01
$GPHDT,,T*1B
$GNACCURACY,4.3*11
$GNGGA,040454.400,2500.8078187,N,12132.4780823,E,2,54,0.52,17.053,M,15.25,M,1,3335*49
$GNRMC,040454.400,A,2500.8078187,N,12132.4780823,E,0.01,355.73,030324,,,D,V*05
$GPHDT,,T*1B
$GNACCURACY,4.3*11
$GNGGA,040454.500,2500.8078187,N,12132.4780823,E,2,54,0.52,17.054,M,15.25,M,1,3335*4F
$GNRMC,040454.500,A,2500.8078187,N,12132.4780823,E,0.02,355.73,030324,,,D,V*07
$GPHDT,,T*1B
$GNACCURACY,4.3*11
$GNGGA,040454.600,2500.8078187,N,12132.4780823,E,2,54,0.52,17.055,M,15.25,M,0,3335*4C
$GNRMC,040454.600,A,2500.8078187,N,12132.4780823,E,0.03,355.73,030324,,,D,V*05
$GPHDT,,T*1B
$GNACCURACY,4.3*11
$GNGGA,040454.700,2500.8078187,N,12132.4780823,E,2,54,0.52,17.057,M,15.25,M,0,3335*4F
$GNRMC,040454.700,A,2500.8078187,N,12132.4780823,E,0.05,355.73,030324,,,D,V*02
$GPHDT,,T*1B
$GNACCURACY,4.3*11
$GNGGA,040454.800,2500.8078187,N,12132.4780823,E,2,54,0.52,17.059,M,15.25,M,0,3335*4E
$GNRMC,040454.800,A,2500.8078187,N,12132.4780823,E,0.02,355.73,030324,,,D,V*0A
$GPHDT,,T*1B
$GNACCURACY,4.3*11
$GNGGA,040454.900,2500.8078187,N,12132.4780823,E,2,53,0.52,17.061,M,15.25,M,0,3335*43
$GNRMC,040454.900,A,2500.8078187,N,12132.4780823,E,0.06,355.73,030324,,,D,V*0F
$GPHDT,,T*1B
$GNACCURACY,4.3*11
$GNGGA,040455.000,2500.8078187,N,12132.4780823,E,2,53,0.52,17.066,M,15.25,M,1,3335*4D
$GNRMC,040455.000,A,2500.8078187,N,12132.4780823,E,0.08,355.73,030324,,,D,V*09
$GPHDT,,T*1B
$GNACCURACY,4.3*11
$GNGGA,040455.100,2500.8078187,N,12132.4780823,E,2,53,0.52,17.069,M,15.25,M,1,3335*43
$GNRMC,040455.100,A,2500.8078187,N,12132.4780823,E,0.04,355.73,030324,,,D,V*04
$GPHDT,,T*1B
$GNGSA,A,3,08,194,199,21,27,02,16,07,09,04,196,31,0.82,0.52,0.63,1*39
$GNGSA,A,3,195,,,,,,,,,,,,0.82,0.52,0.63,1*34
$GNGSA,A,3,82,83,80,79,,,,,,,,,0.82,0.52,0.63,2*0D
$GNGSA,A,3,30,15,34,27,07,,,,,,,,0.82,0.52,0.63,3*09
$GNGSA,A,3,34,06,16,09,11,39,40,07,25,12,24,43,0.82,0.52,0.63,4*0F
$GNGSA,A,3,23,,,,,,,,,,,,0.82,0.52,0.63,4*0D
$GPGSV,4,1,15,08,70,324,46,194,63,048,39,199,60,167,34,50,60,167,36,1*64
$GPGSV,4,2,15,195,60,121,24,21,46,166,45,27,44,029,34,02,34,180,34,1*5A
$GPGSV,4,3,15,16,33,062,32,07,30,320,32,09,29,260,19,04,28,212,18,1*69
$GPGSV,4,4,15,196,20,172,41,26,14,088,22,31,11,140,26,1*6F
$GPGSV,3,1,09,08,70,324,48,194,63,048,45,195,60,121,42,199,60,167,41,8*59
$GPGSV,3,2,09,27,44,029,33,09,29,260,24,04,28,212,19,196,20,172,42,8*52
$GPGSV,3,3,09,26,14,088,28,8*5F
$GLGSV,2,1,05,82,65,048,39,83,60,178,26,80,49,015,39,79,33,089,34,1*75
$GLGSV,2,2,05,81,17,028,29,1*43
$GAGSV,2,1,07,30,50,033,32,15,47,150,41,34,43,071,35,27,37,316,37,7*77
$GAGSV,2,2,07,07,33,233,27,02,15,082,20,08,12,183,27,7*4E
$GAGSV,2,1,07,30,50,033,19,15,47,150,42,34,43,071,41,27,37,316,40,1*78
$GAGSV,2,2,07,07,33,233,26,02,15,082,30,08,12,183,22,1*4D
$GBGSV,4,1,16,34,82,068,44,06,78,217,36,16,76,195,41,09,75,289,38,1*72
$GBGSV,4,2,16,11,70,197,38,39,64,181,32,40,64,320,41,07,62,299,30,1*75
$GBGSV,4,3,16,25,59,346,45,10,52,281,17,12,50,043,32,24,49,098,45,1*7D
$GBGSV,4,4,16,43,44,214,30,44,27,040,,23,15,314,38,41,02,257,,1*7C
$GBGSV,2,1,07,34,82,068,46,40,64,320,46,39,64,181,37,25,59,346,47,4*7E
$GBGSV,2,2,07,24,49,098,40,43,44,214,24,23,15,314,35,4*49
$GNACCURACY,4.3*11
$PAIRSAT,1,29,2,0,201,3,0,200,4,0,221,5,0,200,6,0,200,7,0,201,8,0,221,9,0,221,10,0,200,11,0,200,12,0,200,13,0,200,14,0,200,15,0,200,16,0,1,21,0,1,24,0,200,25,0,200,26,0,200,27,0,221,28,0,200,29,0,200,30,0,200,31,0,201,32,0,200,194,0,621,195,0,221,196,0,620,199,0,221*52
$PAIRSAT,2,24,65,0,200,66,0,200,67,0,200,68,0,200,69,0,200,70,0,200,71,0,200,72,0,200,73,0,200,74,0,200,75,0,200,76,0,200,77,0,200,78,0,200,79,0,201,80,0,201,81,0,200,82,0,201,83,0,201,84,0,200,85,0,200,86,0,200,87,0,200,88,0,200*7A
$PAIRSAT,3,22,2,0,1000,3,0,1000,4,0,1000,7,0,1021,8,0,1000,9,0,1000,10,0,1000,11,0,1000,12,0,1200,13,0,1200,15,0,1221,19,0,1200,21,0,1200,24,0,200,25,0,200,26,0,200,27,0,221,30,0,1221,31,0,1200,33,0,1200,34,0,1221,36,0,1000*71
$PAIRSAT,4,44,1,0,200,2,0,200,3,0,600,4,0,200,5,0,200,6,0,201,7,0,201,8,0,200,9,0,201,10,0,200,11,0,1,12,0,1,16,0,1,19,0,600,20,0,600,21,0,600,22,0,600,23,0,621,24,0,621,25,0,621,26,0,600,27,0,600,28,0,600,29,0,600,30,0,600,32,0,400,33,0,400,34,0,421,35,0,400,36,0,400,37,0,400,38,0,400,39,0,421,40,0,421,41,0,400,42,0,400,43,0,421,44,0,421,45,0,400,46,0,400,59,0,400,60,0,400,61,0,400,62,0,400*4C
$PAIRDGP,8,2,4,7,8,9,16,21,27*7C
$GNGGA,040455.200,2500.8078187,N,12132.4780763,E,2,53,0.52,17.073,M,15.25,M,1,3335*40
$GNRMC,040455.200,A,2500.8078187,N,12132.4780763,E,0.06,355.73,030324,,,D,V*0E
$GPHDT,,T*1B
$GNACCURACY,4.3*11
$GNGGA,040455.300,2500.8078187,N,12132.4780763,E,2,53,0.52,17.075,M,15.25,M,1,3335*47
$GNRMC,040455.300,A,2500.8078187,N,12132.4780763,E,0.04,355.73,030324,,,D,V*0D
$GPHDT,,T*1B
$GNACCURACY,4.3*11
$GNGGA,040455.400,2500.8078127,N,12132.4780763,E,2,53,0.52,17.078,M,15.25,M,1,3335*47
$GNRMC,040455.400,A,2500.8078127,N,12132.4780763,E,0.04,355.73,030324,,,D,V*00
$GPHDT,,T*1B
$GNACCURACY,4.3*11
$GNGGA,040455.500,2500.8078127,N,12132.4780763,E,2,53,0.52,17.080,M,15.25,M,1,3335*41
$GNRMC,040455.500,A,2500.8078127,N,12132.4780763,E,0.03,355.73,030324,,,D,V*06
$GPHDT,,T*1B
$GNACCURACY,4.3*11
$GNGGA,040455.600,2500.8078127,N,12132.4780763,E,2,53,0.52,17.082,M,15.25,M,1,3335*40
$GNRMC,040455.600,A,2500.8078127,N,12132.4780763,E,0.03,355.73,030324,,,D,V*05
$GPHDT,,T*1B
$GNACCURACY,4.3*11
$GNGGA,040455.700,2500.8078127,N,12132.4780763,E,2,53,0.52,17.084,M,15.25,M,0,3335*46
$GNRMC,040455.700,A,2500.8078127,N,12132.4780763,E,0.03,355.73,030324,,,D,V*04
$GPHDT,,T*1B
$GNACCURACY,4.3*11
$GNGGA,040455.800,2500.8078127,N,12132.4780763,E,2,53,0.52,17.086,M,15.25,M,0,3335*4B
$GNRMC,040455.800,A,2500.8078127,N,12132.4780763,E,0.05,355.73,030324,,,D,V*0D
$GPHDT,,T*1B
$GNACCURACY,4.3*11
$GNGGA,040455.900,2500.8078127,N,12132.4780763,E,2,53,0.52,17.088,M,15.25,M,0,3335*44
$GNRMC,040455.900,A,2500.8078127,N,12132.4780763,E,0.02,355.73,030324,,,D,V*0B
$GPHDT,,T*1B
$GNACCURACY,4.3*11
$GNGGA,040456.000,2500.8078127,N,12132.4780763,E,2,53,0.52,17.090,M,15.25,M,1,3335*46
$GNRMC,040456.000,A,2500.8078127,N,12132.4780763,E,0.00,355.73,030324,,,D,V*03
$GPHDT,,T*1B
$GNACCURACY,4.3*11
$GNGGA,040456.100,2500.8078127,N,12132.4780763,E,2,54,0.52,17.091,M,15.25,M,1,3335*41
$GNRMC,040456.100,A,2500.8078127,N,12132.4780763,E,0.02,355.73,030324,,,D,V*00
$GPHDT,,T*1B
$GNGSA,A,3,08,194,199,21,27,02,16,07,09,04,196,31,0.96,0.52,0.81,1*30
$GNGSA,A,3,195,,,,,,,,,,,,0.96,0.52,0.81,1*3D
$GNGSA,A,3,82,83,80,79,,,,,,,,,0.96,0.52,0.81,2*04
$GNGSA,A,3,30,15,34,27,07,,,,,,,,0.96,0.52,0.81,3*00
$GNGSA,A,3,34,06,16,09,11,39,40,07,25,12,24,43,0.96,0.52,0.81,4*06
$GNGSA,A,3,23,,,,,,,,,,,,0.96,0.52,0.81,4*04
$GPGSV,4,1,15,08,70,324,46,194,63,048,40,199,60,167,35,50,60,167,37,1*6A
$GPGSV,4,2,15,195,60,121,20,21,46,166,46,27,44,029,36,02,34,180,34,1*5F
$GPGSV,4,3,15,16,33,062,33,07,30,320,32,09,29,260,21,04,28,212,18,1*63
$GPGSV,4,4,15,196,20,172,41,26,14,088,20,31,11,140,29,1*62
$GPGSV,3,1,09,08,70,324,48,194,63,048,44,195,60,121,42,199,60,167,40,8*59
$GPGSV,3,2,09,27,44,029,31,09,29,260,25,04,28,212,14,196,20,172,42,8*5C
$GPGSV,3,3,09,26,14,088,26,8*51
$GLGSV,2,1,05,82,65,048,41,83,60,178,28,80,49,015,39,79,33,089,35,1*75
$GLGSV,2,2,05,81,17,028,29,1*43
$GAGSV,2,1,07,30,50,033,33,15,47,150,41,34,43,071,35,27,37,316,37,7*76
$GAGSV,2,2,07,07,33,233,27,02,15,082,21,08,12,183,28,7*40
$GAGSV,2,1,07,30,50,033,18,15,47,150,42,34,43,071,40,27,37,316,40,1*78
$GAGSV,2,2,07,07,33,233,24,02,15,082,29,08,12,183,22,1*47
$GBGSV,4,1,16,34,82,067,44,06,78,217,35,16,76,195,41,09,75,289,38,1*7E
$GBGSV,4,2,16,11,70,197,38,39,64,181,32,40,64,320,41,07,62,299,30,1*75
$GBGSV,4,3,16,25,59,346,46,10,52,281,16,12,50,043,32,24,49,098,45,1*7F
$GBGSV,4,4,16,43,44,214,29,44,27,040,,23,15,314,38,41,02,257,,1*74
$GBGSV,2,1,07,34,82,067,46,40,64,320,45,39,64,181,37,25,59,346,47,4*72
$GBGSV,2,2,07,24,49,098,40,43,44,214,23,23,15,314,35,4*4E
$GNACCURACY,4.3*11
$PAIRSAT,1,29,2,0,201,3,0,200,4,0,221,5,0,200,6,0,200,7,0,201,8,0,221,9,0,221,10,0,200,11,0,200,12,0,200,13,0,200,14,0,200,15,0,200,16,0,1,21,0,1,24,0,200,25,0,200,26,0,200,27,0,221,28,0,200,29,0,200,30,0,200,31,0,201,32,0,200,194,0,621,195,0,221,196,0,620,199,0,221*52
$PAIRSAT,2,24,65,0,200,66,0,200,67,0,200,68,0,200,69,0,200,70,0,200,71,0,200,72,0,200,73,0,200,74,0,200,75,0,200,76,0,200,77,0,200,78,0,200,79,0,201,80,0,201,81,0,200,82,0,201,83,0,201,84,0,200,85,0,200,86,0,200,87,0,200,88,0,200*7A
$PAIRSAT,3,22,2,0,1000,3,0,1000,4,0,1000,7,0,1021,8,0,1000,9,0,1000,10,0,1000,11,0,1000,12,0,1200,13,0,1200,15,0,1221,19,0,1200,21,0,1200,24,0,200,25,0,200,26,0,200,27,0,221,30,0,1221,31,0,1200,33,0,1200,34,0,1221,36,0,1000*71
$PAIRSAT,4,44,1,0,200,2,0,200,3,0,600,4,0,200,5,0,200,6,0,201,7,0,201,8,0,200,9,0,201,10,0,200,11,0,1,12,0,1,16,0,1,19,0,600,20,0,600,21,0,600,22,0,600,23,0,621,24,0,621,25,0,621,26,0,600,27,0,600,28,0,600,29,0,600,30,0,600,32,0,400,33,0,400,34,0,421,35,0,400,36,0,400,37,0,400,38,0,400,39,0,421,40,0,421,41,0,400,42,0,400,43,0,421,44,0,421,45,0,400,46,0,400,59,0,400,60,0,400,61,0,400,62,0,400*4C
$PAIRDGP,8,2,4,7,8,9,16,21,27*7C
$GNGGA,040456.200,2500.8078127,N,12132.4780763,E,2,54,0.52,17.092,M,15.25,M,1,3335*41
$GNRMC,040456.200,A,2500.8078127,N,12132.4780763,E,0.01,355.73,030324,,,D,V*00
$GPHDT,,T*1B
$GNACCURACY,4.3*11
$GNGGA,040456.300,2500.8078127,N,12132.4780763,E,2,53,0.52,17.092,M,15.25,M,1,3335*47
$GNRMC,040456.300,A,2500.8078127,N,12132.4780763,E,0.01,355.73,030324,,,D,V*01
$GPHDT,,T*1B
$GNACCURACY,4.3*11
$GNGGA,040456.400,2500.8078127,N,12132.4780763,E,2,53,0.52,17.092,M,15.25,M,1,3335*40
$GNRMC,040456.400,A,2500.8078127,N,12132.4780763,E,0.01,355.73,030324,,,D,V*06
$GPHDT,,T*1B
$GNACCURACY,4.3*11
$GNGGA,040456.500,2500.8078127,N,12132.4780763,E,2,53,0.52,17.092,M,15.25,M,1,3335*41
$GNRMC,040456.500,A,2500.8078127,N,12132.4780763,E,0.01,355.73,030324,,,D,V*07
$GPHDT,,T*1B
$GNACCURACY,4.3*11
$GNGGA,040456.600,2500.8078127,N,12132.4780763,E,2,53,0.52,17.093,M,15.25,M,1,3335*43
$GNRMC,040456.600,A,2500.8078127,N,12132.4780763,E,0.01,355.73,030324,,,D,V*04
$GPHDT,,T*1B
$GNACCURACY,4.3*11
$GNGGA,040456.700,2500.8078127,N,12132.4780763,E,2,53,0.52,17.092,M,15.25,M,0,3335*42
$GNRMC,040456.700,A,2500.8078127,N,12132.4780763,E,0.05,355.73,030324,,,D,V*01
$GPHDT,,T*1B
$GNACCURACY,4.3*11
$GNGGA,040456.800,2500.8078127,N,12132.4780763,E,2,53,0.52,17.092,M,15.25,M,0,3335*4D
$GNRMC,040456.800,A,2500.8078127,N,12132.4780763,E,0.02,355.73,030324,,,D,V*09
$GPHDT,,T*1B
$GNACCURACY,4.3*11
$GNGGA,040456.900,2500.8078127,N,12132.4780763,E,2,52,0.52,17.092,M,15.25,M,0,3335*4D
$GNRMC,040456.900,A,2500.8078127,N,12132.4780763,E,0.06,355.73,030324,,,D,V*0C
$GPHDT,,T*1B
$GNACCURACY,4.3*11
$GNGGA,040457.000,2500.8078127,N,12132.4780763,E,2,52,0.52,17.092,M,15.25,M,1,3335*44
$GNRMC,040457.000,A,2500.8078127,N,12132.4780763,E,0.02,355.73,030324,,,D,V*00
$GPHDT,,T*1B
$GNACCURACY,4.3*11
$GNGGA,040457.100,2500.8078127,N,12132.4780763,E,2,52,0.52,17.093,M,15.25,M,1,3335*44
$GNRMC,040457.100,A,2500.8078127,N,12132.4780763,E,0.00,355.73,030324,,,D,V*03
$GPHDT,,T*1B
$GNGSA,A,3,08,194,199,21,27,02,16,07,09,04,196,31,0.96,0.52,0.81,1*30
$GNGSA,A,3,195,,,,,,,,,,,,0.96,0.52,0.81,1*3D
$GNGSA,A,3,82,83,80,79,,,,,,,,,0.96,0.52,0.81,2*04
$GNGSA,A,3,30,15,34,27,07,,,,,,,,0.96,0.52,0.81,3*00
$GNGSA,A,3,34,06,16,09,11,39,40,07,25,12,24