$FW : RTK35X,V1.1X0314AS,Lib20210517,1*54
$Tool : LOCOSYS , GNSS Firebird , v1.0.0.19*39
$---------------------------------------------------*2D
$GNACCURACY,4.4*16
$GNGGA,040549.700,2500.8080047,N,12132.4783403,E,2,53,0.52,17.010,M,15.25,M,0,3335*41
$GNRMC,040549.700,A,2500.8080047,N,12132.4783403,E,0.10,355.73,030324,,,D,V*0C
$GPHDT,,T*1B
$GNACCURACY,4.4*16
$GNGGA,040549.800,2500.8080107,N,12132.4783403,E,2,53,0.52,17.008,M,15.25,M,0,3335*42
$GNRMC,040549.800,A,2500.8080107,N,12132.4783403,E,0.17,355.73,030324,,,D,V*01
$GPHDT,,T*1B
$GNACCURACY,4.4*16
$GNGGA,040549.900,2500.8080107,N,12132.4783403,E,2,53,0.52,17.005,M,15.25,M,0,3335*4E
$GNRMC,040549.900,A,2500.8080107,N,12132.4783403,E,0.17,355.73,030324,,,D,V*00
$GPHDT,,T*1B
$GNACCURACY,4.4*16
$GNGGA,040550.000,2500.8080107,N,12132.4783463,E,2,53,0.52,17.003,M,15.25,M,1,3335*4E
$GNRMC,040550.000,A,2500.8080107,N,12132.4783463,E,0.12,355.73,030324,,,D,V*02
$GPHDT,,T*1B
$GNACCURACY,4.4*16
$GNGGA,040550.100,2500.8080107,N,12132.4783463,E,2,53,0.52,17.001,M,15.25,M,1,3335*4D
$GNRMC,040550.100,A,2500.8080107,N,12132.4783463,E,0.06,355.73,030324,,,D,V*06
$GPHDT,,T*1B
$GNGSA,A,3,08,194,199,195,21,02,07,09,04,196,31,27,0.80,0.52,0.61,1*03
$GNGSA,A,3,82,83,80,79,81,,,,,,,,0.80,0.52,0.61,2*04
$GNGSA,A,3,30,15,34,27,07,,,,,,,,0.80,0.52,0.61,3*09
$GNGSA,A,3,34,06,09,16,11,39,40,07,25,12,24,43,0.80,0.52,0.61,4*0F
$GNGSA,A,3,23,,,,,,,,,,,,0.80,0.52,0.61,4*0D
$GPGSV,4,1,15,08,70,325,48,194,63,048,40,199,60,167,36,50,60,167,38,1*69
$GPGSV,4,2,15,195,60,121,28,21,46,166,47,27,44,029,24,02,34,180,37,1*56
$GPGSV,4,3,15,16,32,062,18,07,30,320,29,09,29,260,27,04,27,212,26,1*65
$GPGSV,4,4,15,196,20,172,34,26,14,089,21,31,10,140,27,1*6F
$GPGSV,2,1,08,08,70,325,48,194,63,048,40,195,60,121,42,199,60,167,41,8*5D
$GPGSV,2,2,08,27,44,029,30,09,29,260,28,04,27,212,18,196,20,172,36,8*50
$GLGSV,2,1,05,82,65,047,41,83,61,178,24,80,49,015,38,79,33,090,33,1*78
$GLGSV,2,2,05,81,17,028,31,1*4A
$GAGSV,2,1,06,30,50,033,24,15,47,150,42,34,43,070,33,27,37,317,39,7*7A
$GAGSV,2,2,06,07,33,233,21,08,12,182,24,7*75
$GAGSV,2,1,07,30,50,033,33,15,47,150,43,34,43,070,39,27,37,317,38,1*71
$GAGSV,2,2,07,07,33,233,32,02,15,082,26,08,12,182,23,1*4F
$GBGSV,4,1,15,34,82,065,44,06,78,217,38,09,75,289,42,16,75,195,42,1*7F
$GBGSV,4,2,15,11,70,198,37,39,64,181,36,40,64,320,42,07,62,299,31,1*70
$GBGSV,4,3,15,25,59,346,42,10,52,281,27,12,50,042,31,24,49,098,40,1*7D
$GBGSV,4,4,15,43,45,214,28,44,26,040,,23,15,315,36,1*4E
$GBGSV,2,1,06,34,82,065,45,40,64,320,46,39,64,181,36,25,59,346,43,4*74
$GBGSV,2,2,06,24,49,098,37,23,15,315,39,4*73
$GNACCURACY,4.3*11
$PAIRSAT,1,30,2,0,201,3,0,200,4,0,221,5,0,200,6,0,200,7,0,201,8,0,221,9,0,221,10,0,200,11,0,200,12,0,200,13,0,200,14,0,200,15,0,200,16,0,201,17,0,200,21,0,1,24,0,200,25,0,200,26,0,200,27,0,221,28,0,200,29,0,200,30,0,200,31,0,201,32,0,200,194,0,621,195,0,221,196,0,620,199,0,621*74
$PAIRSAT,2,24,65,0,200,66,0,200,67,0,200,68,0,200,69,0,200,70,0,200,71,0,200,72,0,200,73,0,200,74,0,200,75,0,200,76,0,200,77,0,200,78,0,200,79,0,201,80,0,201,81,0,201,82,0,201,83,0,201,84,0,200,85,0,200,86,0,200,87,0,200,88,0,200*7B
$PAIRSAT,3,22,2,0,1000,3,0,1000,4,0,1000,7,0,1021,8,0,1000,9,0,1000,10,0,1000,11,0,1000,12,0,1200,13,0,1200,15,0,1221,19,0,1200,21,0,1200,24,0,200,25,0,200,26,0,200,27,0,221,30,0,1221,31,0,1200,33,0,1200,34,0,1221,36,0,1200*73
$PAIRSAT,4,44,1,0,200,2,0,200,3,0,600,4,0,200,5,0,200,6,0,201,7,0,201,8,0,200,9,0,201,10,0,200,11,0,201,12,0,1,16,0,1,19,0,600,20,0,600,21,0,600,22,0,600,23,0,621,24,0,621,25,0,621,26,0,600,27,0,600,28,0,600,29,0,600,30,0,600,32,0,400,33,0,400,34,0,421,35,0,400,36,0,400,37,0,400,38,0,400,39,0,421,40,0,421,41,0,400,42,0,400,43,0,421,44,0,421,45,0,400,46,0,400,59,0,400,60,0,400,61,0,400,62,0,400*4E
$PAIRDGP,9,2,4,7,8,9,16,21,27,31*53
$GNGGA,040550.200,2500.8080107,N,12132.4783463,E,2,53,0.52,17.000,M,15.25,M,1,3335*4F
$GNRMC,040550.200,A,2500.8080107,N,12132.4783463,E,0.08,355.73,030324,,,D,V*0B
$GPHDT,,T*1B
$GNACCURACY,4.3*11
$GNGGA,040550.300,2500.8080107,N,12132.4783463,E,2,53,0.52,16.998,M,15.25,M,1,3335*47
$GNRMC,040550.300,A,2500.8080107,N,12132.4783463,E,0.04,355.73,030324,,,D,V*06
$GPHDT,,T*1B
$GNACCURACY,4.3*11
$GNGGA,040550.400,2500.8080107,N,12132.4783463,E,2,53,0.52,16.997,M,15.25,M,1,3335*4F
$GNRMC,040550.400,A,2500.8080107,N,12132.4783463,E,0.02,355.73,030324,,,D,V*07
$GPHDT,,T*1B
$GNACCURACY,4.3*11
$GNGGA,040550.500,2500.8080167,N,12132.4783463,E,2,53,0.52,16.995,M,15.25,M,1,3335*4A
$GNRMC,040550.500,A,2500.8080167,N,12132.4783463,E,0.01,355.73,030324,,,D,V*03
$GPHDT,,T*1B
$GNACCURACY,4.3*11
$GNGGA,040550.600,2500.8080167,N,12132.4783463,E,2,53,0.52,16.994,M,15.25,M,0,3335*49
$GNRMC,040550.600,A,2500.8080167,N,12132.4783463,E,0.01,355.73,030324,,,D,V*00
$GPHDT,,T*1B
$GNACCURACY,4.3*11
$GNGGA,040550.700,2500.8080167,N,12132.4783463,E,2,53,0.52,16.993,M,15.25,M,0,3335*4F
$GNRMC,040550.700,A,2500.8080167,N,12132.4783463,E,0.04,355.73,030324,,,D,V*04
$GPHDT,,T*1B
$GNACCURACY,4.3*11
$GNGGA,040550.800,2500.8080167,N,12132.4783463,E,2,53,0.52,16.995,M,15.25,M,0,3335*46
$GNRMC,040550.800,A,2500.8080167,N,12132.4783463,E,0.16,355.73,030324,,,D,V*08
$GPHDT,,T*1B
$GNACCURACY,4.3*11
$GNGGA,040550.900,2500.8080107,N,12132.4783463,E,2,53,0.52,16.996,M,15.25,M,0,3335*42
$GNRMC,040550.900,A,2500.8080107,N,12132.4783463,E,0.11,355.73,030324,,,D,V*08
$GPHDT,,T*1B
$GNACCURACY,4.3*11
$GNGGA,040551.000,2500.8080107,N,12132.4783523,E,2,53,0.52,16.999,M,15.25,M,1,3335*41
$GNRMC,040551.000,A,2500.8080107,N,12132.4783523,E,0.06,355.73,030324,,,D,V*03
$GPHDT,,T*1B
$GNACCURACY,4.3*11
$GNGGA,040551.100,2500.8080107,N,12132.4783463,E,2,53,0.52,17.002,M,15.25,M,1,3335*4F
$GNRMC,040551.100,A,2500.8080107,N,12132.4783463,E,0.07,355.73,030324,,,D,V*06
$GPHDT,,T*1B
$GNGSA,A,3,08,194,199,195,21,02,07,09,04,196,31,27,0.80,0.52,0.61,1*03
$GNGSA,A,3,82,83,80,79,81,,,,,,,,0.80,0.52,0.61,2*04
$GNGSA,A,3,30,15,34,27,07,,,,,,,,0.80,0.52,0.61,3*09
$GNGSA,A,3,34,06,09,16,11,39,40,07,25,12,24,43,0.80,0.52,0.61,4*0F
$GNGSA,A,3,23,,,,,,,,,,,,0.80,0.52,0.61,4*0D
$GPGSV,4,1,15,08,70,325,48,194,63,048,41,199,60,167,36,50,60,167,37,1*67
$GPGSV,4,2,15,195,60,121,34,21,46,166,47,27,44,030,24,02,34,180,39,1*5D
$GPGSV,4,3,15,16,32,062,19,07,30,320,31,09,29,260,25,04,27,212,26,1*6F
$GPGSV,4,4,15,196,20,172,33,26,14,089,22,31,10,140,21,1*6D
$GPGSV,3,1,09,08,70,325,49,194,63,048,43,195,60,121,43,199,60,167,42,8*5D
$GPGSV,3,2,09,27,44,030,30,09,29,260,28,04,27,212,18,196,20,172,39,8*57
$GPGSV,3,3,09,26,14,089,29,8*5F
$GLGSV,2,1,05,82,65,047,42,83,61,178,24,80,49,015,40,79,33,090,34,1*73
$GLGSV,2,2,05,81,17,028,31,1*4A
$GAGSV,2,1,06,30,50,033,27,15,47,150,41,34,43,070,33,27,37,317,39,7*7A
$GAGSV,2,2,06,07,33,233,25,08,12,182,23,7*76
$GAGSV,2,1,07,30,50,033,34,15,47,150,43,34,43,070,40,27,37,317,40,1*77
$GAGSV,2,2,07,07,33,233,30,02,15,082,28,08,12,182,21,1*41
$GBGSV,4,1,15,34,82,065,44,06,78,217,38,09,75,289,42,16,75,195,42,1*7F
$GBGSV,4,2,15,11,70,198,34,39,64,181,36,40,64,320,42,07,62,299,25,1*76
$GBGSV,4,3,15,25,59,346,44,10,52,281,28,12,50,042,33,24,49,098,40,1*76
$GBGSV,4,4,15,43,45,214,32,44,26,040,,23,15,315,36,1*45
$GBGSV,2,1,06,34,82,065,46,40,64,320,46,39,64,181,38,25,59,346,46,4*7C
$GBGSV,2,2,06,24,49,098,40,23,15,315,40,4*7D
$GNACCURACY,4.3*11
$PAIRSAT,1,30,2,0,201,3,0,200,4,0,221,5,0,200,6,0,200,7,0,201,8,0,221,9,0,221,10,0,200,11,0,200,12,0,200,13,0,200,14,0,200,15,0,200,16,0,201,17,0,200,21,0,1,24,0,200,25,0,200,26,0,200,27,0,221,28,0,200,29,0,200,30,0,200,31,0,201,32,0,200,194,0,621,195,0,221,196,0,620,199,0,621*74
$PAIRSAT,2,24,65,0,200,66,0,200,67,0,200,68,0,200,69,0,200,70,0,200,71,0,200,72,0,200,73,0,200,74,0,200,75,0,200,76,0,200,77,0,200,78,0,200,79,0,201,80,0,201,81,0,201,82,0,201,83,0,201,84,0,200,85,0,200,86,0,200,87,0,200,88,0,200*7B
$PAIRSAT,3,22,2,0,1000,3,0,1000,4,0,1000,7,0,1021,8,0,1000,9,0,1000,10,0,1000,11,0,1000,12,0,1200,13,0,1200,15,0,1221,19,0,1200,21,0,1200,24,0,200,25,0,200,26,0,200,27,0,221,30,0,1221,31,0,1200,33,0,1200,34,0,1221,36,0,1200*73
$PAIRSAT,4,44,1,0,200,2,0,200,3,0,600,4,0,200,5,0,200,6,0,201,7,0,201,8,0,200,9,0,201,10,0,200,11,0,201,12,0,201,16,0,1,19,0,600,20,0,600,21,0,600,22,0,600,23,0,621,24,0,621,25,0,621,26,0,600,27,0,600,28,0,600,29,0,600,30,0,600,32,0,400,33,0,400,34,0,421,35,0,400,36,0,400,37,0,400,38,0,400,39,0,421,40,0,421,41,0,400,42,0,400,43,0,421,44,0,421,45,0,400,46,0,400,59,0,400,60,0,400,61,0,400,62,0,400*4C
$PAIRDGP,9,2,4,7,8,9,16,21,27,31*53
$GNGGA,040551.200,2500.8080107,N,12132.4783463,E,2,53,0.52,17.004,M,15.25,M,1,3335*4A
$GNRMC,040551.200,A,2500.8080107,N,12132.4783463,E,0.07,355.73,030324,,,D,V*05
$GPHDT,,T*1B
$GNACCURACY,4.3*11
$GNGGA,040551.300,2500.8080107,N,12132.4783463,E,2,53,0.52,17.007,M,15.25,M,1,3335*48
$GNRMC,040551.300,A,2500.8080107,N,12132.4783463,E,0.06,355.73,030324,,,D,V*05
$GPHDT,,T*1B
$GNACCURACY,4.3*11
$GNGGA,040551.400,2500.8080107,N,12132.4783463,E,2,53,0.52,17.009,M,15.25,M,1,3335*41
$GNRMC,040551.400,A,2500.8080107,N,12132.4783463,E,0.06,355.73,030324,,,D,V*02
$GPHDT,,T*1B
$GNACCURACY,4.3*11
$GNGGA,040551.500,2500.8080047,N,12132.4783463,E,2,53,0.52,17.011,M,15.25,M,1,3335*4C
$GNRMC,040551.500,A,2500.8080047,N,12132.4783463,E,0.05,355.73,030324,,,D,V*05
$GPHDT,,T*1B
$GNACCURACY,4.3*11
$GNGGA,040551.600,2500.8080047,N,12132.4783463,E,2,53,0.52,17.013,M,15.25,M,0,3335*4C
$GNRMC,040551.600,A,2500.8080047,N,12132.4783463,E,0.04,355.73,030324,,,D,V*07
$GPHDT,,T*1B
$GNACCURACY,4.3*11
$GNGGA,040551.700,2500.8080047,N,12132.4783463,E,2,54,0.52,17.014,M,15.25,M,0,3335*4D
$GNRMC,040551.700,A,2500.8080047,N,12132.4783463,E,0.02,355.73,030324,,,D,V*00
$GPHDT,,T*1B
$GNACCURACY,4.3*11
$GNGGA,040551.800,2500.8080047,N,12132.4783463,E,2,54,0.52,17.016,M,15.25,M,0,3335*40
$GNRMC,040551.800,A,2500.8080047,N,12132.4783463,E,0.04,355.73,030324,,,D,V*09
$GPHDT,,T*1B
$GNACCURACY,4.3*11
$GNGGA,040551.900,2500.8080047,N,12132.4783463,E,2,55,0.52,17.017,M,15.25,M,0,3335*41
$GNRMC,040551.900,A,2500.8080047,N,12132.4783463,E,0.09,355.73,030324,,,D,V*05
$GPHDT,,T*1B
$GNACCURACY,4.3*11
$GNGGA,040552.000,2500.8080047,N,12132.4783463,E,2,54,0.52,17.018,M,15.25,M,1,3335*44
$GNRMC,040552.000,A,2500.8080047,N,12132.4783463,E,0.01,355.73,030324,,,D,V*07
$GPHDT,,T*1B
$GNACCURACY,4.3*11
$GNGGA,040552.100,2500.8080107,N,12132.4783463,E,2,54,0.52,17.019,M,15.25,M,1,3335*41
$GNRMC,040552.100,A,2500.8080107,N,12132.4783463,E,0.02,355.73,030324,,,D,V*00
$GPHDT,,T*1B
$GNGSA,A,3,08,194,199,21,27,02,07,09,04,196,31,195,0.80,0.52,0.61,1*03
$GNGSA,A,3,82,83,80,79,81,,,,,,,,0.80,0.52,0.61,2*04
$GNGSA,A,3,30,15,34,27,07,,,,,,,,0.80,0.52,0.61,3*09
$GNGSA,A,3,34,06,09,16,11,39,40,07,25,12,24,43,0.80,0.52,0.61,4*0F
$GNGSA,A,3,23,,,,,,,,,,,,0.80,0.52,0.61,4*0D
$GPGSV,4,1,15,08,70,325,48,194,63,048,42,199,60,167,35,50,60,167,37,1*67
$GPGSV,4,2,15,195,60,121,27,21,46,166,47,27,44,030,28,02,34,180,40,1*5D
$GPGSV,4,3,15,16,32,062,20,07,30,320,31,09,29,260,25,04,27,212,25,1*66
$GPGSV,4,4,15,196,20,172,36,26,14,089,20,31,10,140,29,1*62
$GPGSV,3,1,09,08,70,325,49,194,63,048,43,195,60,121,43,199,60,167,42,8*5D
$GPGSV,3,2,09,27,44,030,30,09,29,260,28,04,27,212,18,196,20,172,38,8*56
$GPGSV,3,3,09,26,14,089,27,8*51
$GLGSV,2,1,05,82,65,047,42,83,61,178,24,80,49,015,40,79,33,090,32,1*75
$GLGSV,2,2,05,81,17,028,30,1*4B
$GAGSV,2,1,06,30,50,033,30,15,47,150,41,34,43,070,32,27,37,317,39,7*7D
$GAGSV,2,2,06,07,33,233,22,08,12,182,24,7*76
$GAGSV,2,1,07,30,50,033,35,15,47,150,43,34,43,070,38,27,37,317,40,1*79
$GAGSV,2,2,07,07,33,233,30,02,15,082,22,08,12,182,19,1*40
$GBGSV,4,1,15,34,82,065,44,06,78,217,38,09,75,289,42,16,75,195,42,1*7F
$GBGSV,4,2,15,11,70,198,36,39,64,181,36,40,64,320,41,07,62,299,34,1*77
$GBGSV,4,3,15,25,59,346,46,10,52,281,26,12,50,042,33,24,49,098,39,1*74
$GBGSV,4,4,15,43,45,214,33,44,26,040,,23,15,315,38,1*4A
$GBGSV,2,1,07,34,82,065,46,40,64,320,45,39,64,181,36,25,59,346,47,4*71
$GBGSV,2,2,07,24,49,098,40,43,45,214,21,23,15,315,40,4*4E
$GNACCURACY,4.3*11
$PAIRSAT,1,30,2,0,201,3,0,200,4,0,221,5,0,200,6,0,200,7,0,201,8,0,221,9,0,221,10,0,200,11,0,200,12,0,200,13,0,200,14,0,200,15,0,200,16,0,201,17,0,200,21,0,1,24,0,200,25,0,200,26,0,200,27,0,221,28,0,200,29,0,200,30,0,200,31,0,201,32,0,200,194,0,621,195,0,221,196,0,620,199,0,621*74
$PAIRSAT,2,24,65,0,200,66,0,200,67,0,200,68,0,200,69,0,200,70,0,200,71,0,200,72,0,200,73,0,200,74,0,200,75,0,200,76,0,200,77,0,200,78,0,200,79,0,201,80,0,201,81,0,201,82,0,201,83,0,201,84,0,200,85,0,200,86,0,200,87,0,200,88,0,200*7B
$PAIRSAT,3,22,2,0,1000,3,0,1000,4,0,1000,7,0,1021,8,0,1000,9,0,1000,10,0,1000,11,0,1000,12,0,1200,13,0,1200,15,0,1221,19,0,1200,21,0,1200,24,0,200,25,0,200,26,0,200,27,0,221,30,0,1221,31,0,1200,33,0,1200,34,0,1221,36,0,1200*73
$PAIRSAT,4,44,1,0,200,2,0,200,3,0,600,4,0,200,5,0,200,6,0,201,7,0,201,8,0,200,9,0,201,10,0,200,11,0,201,12,0,201,16,0,1,19,0,600,20,0,600,21,0,600,22,0,600,23,0,621,24,0,621,25,0,621,26,0,600,27,0,600,28,0,600,29,0,600,30,0,600,32,0,400,33,0,400,34,0,421,35,0,400,36,0,400,37,0,400,38,0,400,39,0,421,40,0,421,41,0,400,42,0,400,43,0,421,44,0,421,45,0,400,46,0,400,59,0,400,60,0,400,61,0,400,62,0,400*4C
$PAIRDGP,9,2,4,7,8,9,16,21,27,31*53
$GNGGA,040552.200,2500.8080107,N,12132.4783463,E,2,54,0.52,17.021,M,15.25,M,1,3335*49
$GNRMC,040552.200,A,2500.8080107,N,12132.4783463,E,0.02,355.73,030324,,,D,V*03
$GPHDT,,T*1B
$GNACCURACY,4.3*11
$GNGGA,040552.300,2500.8080107,N,12132.4783463,E,2,54,0.52,17.022,M,15.25,M,1,3335*4B
$GNRMC,040552.300,A,2500.8080107,N,12132.4783463,E,0.02,355.73,030324,,,D,V*02
$GPHDT,,T*1B
$GNACCURACY,4.3*11
$GNGGA,040552.400,2500.8080107,N,12132.4783463,E,2,54,0.52,17.023,M,15.25,M,1,3335*4D
$GNRMC,040552.400,A,2500.8080107,N,12132.4783463,E,0.02,355.73,030324,,,D,V*05
$GPHDT,,T*1B
$GNACCURACY,4.3*11
$GNGGA,040552.500,2500.8080107,N,12132.4783463,E,2,54,0.52,17.024,M,15.25,M,1,3335*4B
$GNRMC,040552.500,A,2500.8080107,N,12132.4783463,E,0.02,355.73,030324,,,D,V*04
$GPHDT,,T*1B
$GNACCURACY,4.3*11
$GNGGA,040552.600,2500.8080107,N,12132.4783463,E,2,54,0.52,17.025,M,15.25,M,0,3335*48
$GNRMC,040552.600,A,2500.8080107,N,12132.4783463,E,0.02,355.73,030324,,,D,V*07
$GPHDT,,T*1B
$GNACCURACY,4.3*11
$GNGGA,040552.700,2500.8080107,N,12132.4783463,E,2,55,0.52,17.026,M,15.25,M,0,3335*4B
$GNRMC,040552.700,A,2500.8080107,N,12132.4783463,E,0.02,355.73,030324,,,D,V*06
$GPHDT,,T*1B
$GNACCURACY,4.3*11
$GNGGA,040552.800,2500.8080107,N,12132.4783463,E,2,54,0.52,17.027,M,15.25,M,0,3335*44
$GNRMC,040552.800,A,2500.8080107,N,12132.4783463,E,0.03,355.73,030324,,,D,V*08
$GPHDT,,T*1B
$GNACCURACY,4.3*11
$GNGGA,040552.900,2500.8080107,N,12132.4783463,E,2,55,0.52,17.028,M,15.25,M,0,3335*4B
$GNRMC,040552.900,A,2500.8080107,N,12132.4783463,E,0.03,355.73,030324,,,D,V*09
$GPHDT,,T*1B
$GNACCURACY,4.3*11
$GNGGA,040553.000,2500.8080107,N,12132.4783403,E,2,55,0.52,17.029,M,15.25,M,1,3335*45
$GNRMC,040553.000,A,2500.8080107,N,12132.4783403,E,0.05,355.73,030324,,,D,V*01
$GPHDT,,T*1B
$GNACCURACY,4.3*11
$GNGGA,040553.100,2500.8080107,N,12132.4783403,E,2,55,0.52,17.030,M,15.25,M,1,3335*4C
$GNRMC,040553.100,A,2500.8080107,N,12132.4783403,E,0.02,355.73,030324,,,D,V*07
$GPHDT,,T*1B
$GNGSA,A,3,08,194,199,195,21,27,02,07,09,04,196,31,0.80,0.52,0.61,1*03
$GNGSA,A,3,82,83,80,79,81,,,,,,,,0.80,0.52,0.61,2*04
$GNGSA,A,3,30,15,34,27,07,,,,,,,,0.80,0.52,0.61,3*09
$GNGSA,A,3,34,06,09,16,11,39,40,07,25,12,24,43,0.80,0.52,0.61,4*0F
$GNGSA,A,3,23,,,,,,,,,,,,0.80,0.52,0.61,4*0D
$GPGSV,4,1,15,08,70,325,48,194,63,048,42,199,60,167,34,50,60,167,36,1*67
$GPGSV,4,2,15,195,60,121,26,21,46,166,47,27,44,030,32,02,34,180,40,1*57
$GPGSV,4,3,15,16,32,062,21,07,30,320,33,09,29,260,21,04,27,212,25,1*61
$GPGSV,4,4,15,196,20,172,36,26,14,089,18,31,10,140,28,1*68
$GPGSV,3,1,09,08,70,325,49,194,63,048,43,195,60,121,43,199,60,167,42,8*5D
$GPGSV,3,2,09,27,44,030,31,09,29,260,26,04,27,212,18,196,20,172,38,8*59
$GPGSV,3,3,09,26,14,089,29,8*5F
$GLGSV,2,1,05,82,65,047,42,83,61,178,24,80,49,015,40,79,33,090,30,1*77
$GLGSV,2,2,05,81,17,028,29,1*43
$GAGSV,2,1,06,30,50,033,31,15,47,150,42,34,43,070,32,27,37,317,39,7*7F
$GAGSV,2,2,06,07,33,233,20,08,11,182,21,7*72
$GAGSV,2,1,07,30,50,033,36,15,47,150,43,34,43,070,39,27,37,317,40,1*7B
$GAGSV,2,2,07,07,33,233,30,02,15,082,21,08,11,182,22,1*48
$GBGSV,4,1,15,34,82,065,44,06,78,217,38,09,75,289,42,16,75,195,42,1*7F
$GBGSV,4,2,15,11,70,198,36,39,64,181,33,40,64,320,41,07,62,299,31,1*77
$GBGSV,4,3,15,25,59,346,46,10,52,281,25,12,50,042,33,24,49,098,38,1*76
$GBGSV,4,4,15,43,45,214,33,44,26,040,,23,15,315,38,1*4A
$GBGSV,2,1,07,34,82,065,46,40,64,320,45,39,64,181,36,25,59,346,47,4*71
$GBGSV,2,2,07,24,49,098,40,43,45,214,17,23,15,315,40,4*4B
$GNACCURACY,4.3*11
$PAIRSAT,1,30,2,0,201,3,0,200,4,0,221,5,0,200,6,0,200,7,0,201,8,0,221,9,0,221,10,0,200,11,0,200,12,0,200,13,0,200,14,0,200,15,0,200,16,0,201,17,0,200,21,0,1,24,0,200,25,0,200,26,0,200,27,0,221,28,0,200,29,0,200,30,0,200,31,0,201,32,0,200,194,0,621,195,0,221,196,0,620,199,0,621*74
$PAIRSAT,2,24,65,0,200,66,0,200,67,0,200,68,0,200,69,0,200,70,0,200,71,0,200,72,0,200,73,0,200,74,0,200,75,0,200,76,0,200,77,0,200,78,0,200,79,0,201,80,0,201,81,0,201,82,0,201,83,0,201,84,0,200,85,0,200,86,0,200,87,0,200,88,0,200*7B
$PAIRSAT,3,22,2,0,1000,3,0,1000,4,0,1000,7,0,1021,8,0,1000,9,0,1000,10,0,1000,11,0,1000,12,0,1200,13,0,1200,15,0,1221,19,0,1200,21,0,1200,24,0,200,25,0,200,26,0,200,27,0,221,30,0,1221,31,0,1200,33,0,1200,34,0,1221,36,0,1200*73
$PAIRSAT,4,44,1,0,200,2,0,200,3,0,600,4,0,200,5,0,200,6,0,201,7,0,201,8,0,200,9,0,201,10,0,200,11,0,201,12,0,201,16,0,1,19,0,600,20,0,600,21,0,600,22,0,600,23,0,621,24,0,621,25,0,621,26,0,600,27,0,600,28,0,600,29,0,600,30,0,600,32,0,400,33,0,400,34,0,421,35,0,400,36,0,400,37,0,400,38,0,400,39,0,421,40,0,421,41,0,400,42,0,400,43,0,421,44,0,421,45,0,400,46,0,400,59,0,400,60,0,400,61,0,400,62,0,400*4C
$PAIRDGP,9,2,4,7,8,9,16,21,27,31*53
$GNGGA,040553.200,2500.8080107,N,12132.4783403,E,2,55,0.52,17.032,M,15.25,M,1,3335*4D
$GNRMC,040553.200,A,2500.8080107,N,12132.4783403,E,0.02,355.73,030324,,,D,V*04
$GPHDT,,T*1B
$GNACCURACY,4.3*11
$GNGGA,040553.300,2500.8080107,N,12132.4783403,E,2,55,0.52,17.033,M,15.25,M,1,3335*4D
$GNRMC,040553.300,A,2500.8080107,N,12132.4783403,E,0.01,355.73,030324,,,D,V*06
$GPHDT,,T*1B
$GNACCURACY,4.3*11
$GNGGA,040553.400,2500.8080107,N,12132.4783403,E,2,55,0.52,17.034,M,15.25,M,1,3335*4D
$GNRMC,040553.400,A,2500.8080107,N,12132.4783403,E,0.04,355.73,030324,,,D,V*04
$GPHDT,,T*1B
$GNACCURACY,4.3*11
$GNGGA,040553.500,2500.8080107,N,12132.4783403,E,2,55,0.52,17.035,M,15.25,M,1,3335*4D
$GNRMC,040553.500,A,2500.8080107,N,12132.4783403,E,0.02,355.73,030324,,,D,V*03
$GPHDT,,T*1B
$GNACCURACY,4.3*11
$GNGGA,040553.600,2500.8080107,N,12132.4783403,E,2,55,0.52,17.036,M,15.25,M,1,3335*4D
$GNRMC,040553.600,A,2500.8080107,N,12132.4783403,E,0.05,355.73,030324,,,D,V*07
$GPHDT,,T*1B
$GNACCURACY,4.3*11
$GNGGA,040553.700,2500.8080107,N,12132.4783403,E,2,54,0.52,17.035,M,15.25,M,0,3335*4F
$GNRMC,040553.700,A,2500.8080107,N,12132.4783403,E,0.04,355.73,030324,,,D,V*07
$GPHDT,,T*1B
$GNACCURACY,4.3*11
$GNGGA,040553.800,2500.8080107,N,12132.4783403,E,2,54,0.52,17.035,M,15.25,M,0,3335*40
$GNRMC,040553.800,A,2500.8080107,N,12132.4783403,E,0.09,355.73,030324,,,D,V*05
$GPHDT,,T*1B
$GNACCURACY,4.3*11
$GNGGA,040553.900,2500.8080107,N,12132.4783463,E,2,54,0.52,17.034,M,15.25,M,0,3335*46
$GNRMC,040553.900,A,2500.8080107,N,12132.4783463,E,0.14,355.73,030324,,,D,V*0E
$GPHDT,,T*1B
$GNACCURACY,4.3*11
$GNGGA,040554.000,2500.8080107,N,12132.4783463,E,2,54,0.52,17.034,M,15.25,M,1,3335*49
$GNRMC,040554.000,A,2500.8080107,N,12132.4783463,E,0.09,355.73,030324,,,D,V*0C
$GPHDT,,T*1B
$GNACCURACY,4.3*11
$GNGGA,040554.100,2500.8080107,N,12132.4783463,E,2,54,0.52,17.033,M,15.25,M,1,3335*4F
$GNRMC,040554.100,A,2500.8080107,N,12132.4783463,E,0.06,355.73,030324,,,D,V*02
$GPHDT,,T*1B
$GNGSA,A,3,08,194,199,195,21,27,02,07,09,04,196,31,0.80,0.52,0.61,1*03
$GNGSA,A,3,82,83,80,79,81,,,,,,,,0.80,0.52,0.61,2*04
$GNGSA,A,3,30,15,34,27,07,,,,,,,,0.80,0.52,0.61,3*09
$GNGSA,A,3,34,06,09,16,11,39,40,07,25,12,24,43,0.80,0.52,0.61,4*0F
$GNGSA,A,3,23,,,,,,,,,,,,0.80,0.52,0.61,4*0D
$GPGSV,4,1,15,08,70,325,48,194,63,048,42,199,60,167,34,50,60,167,35,1*64
$GPGSV,4,2,15,195,60,121,31,21,46,166,47,27,44,030,32,02,34,180,40,1*51
$GPGSV,4,3,15,16,32,062,20,07,30,320,33,09,29,260,23,04,27,212,25,1*62
$GPGSV,4,4,15,196,20,172,36,26,14,089,20,31,10,140,28,1*63
$GPGSV,3,1,09,08,70,325,49,194,63,048,43,195,60,121,43,199,60,167,42,8*5D
$GPGSV,3,2,09,27,44,030,32,09,29,260,26,04,27,212,16,196,20,172,38,8*54
$GPGSV,3,3,09,26,14,089,27,8*51
$GLGSV,2,1,05,82,65,047,42,83,61,178,23,80,49,015,39,79,33,090,30,1*7E
$GLGSV,2,2,05,81,17,028,27,1*4D
$GAGSV,2,1,06,30,50,033,31,15,47,150,42,34,43,070,32,27,37,317,39,7*7F
$GAGSV,2,2,06,07,33,233,23,08,11,182,23,7*73
$GAGSV,2,1,07,30,50,033,36,15,47,150,44,34,43,070,39,27,37,317,40,1*7C
$GAGSV,2,2,07,07,33,233,28,02,15,082,23,08,11,182,24,1*45
$GBGSV,4,1,15,34,82,065,44,06,78,217,38,09,75,289,42,16,75,195,42,1*7F
$GBGSV,4,2,15,11,70,198,36,39,64,181,33,40,64,320,41,07,62,299,32,1*74
$GBGSV,4,3,15,25,59,346,46,10,52,281,24,12,50,042,33,24,49,098,38,1*77
$GBGSV,4,4,15,43,45,214,33,44,26,040,,23,15,315,38,1*4A
$GBGSV,2,1,06,34,82,065,46,40,64,320,45,39,64,181,37,25,59,346,47,4*71
$GBGSV,2,2,06,24,49,098,40,23,15,315,40,4*7D
$GNACCURACY,4.3*11
$PAIRSAT,1,30,2,0,201,3,0,200,4,0,221,5,0,200,6,0,200,7,0,201,8,0,221,9,0,221,10,0,200,11,0,200,12,0,200,13,0,200,14,0,200,15,0,200,16,0,201,17,0,200,21,0,1,24,0,200,25,0,200,26,0,200,27,0,221,28,0,200,29,0,200,30,0,200,31,0,201,32,0,200,194,0,621,195,0,221,196,0,620,199,0,621*74
$PAIRSAT,2,24,65,0,200,66,0,200,67,0,200,68,0,200,69,0,200,70,0,200,71,0,200,72,0,200,73,0,200,74,0,200,75,0,200,76,0,200,77,0,200,78,0,200,79,0,201,80,0,201,81,0,201,82,0,201,83,0,201,84,0,200,85,0,200,86,0,200,87,0,200,88,0,200*7B
$PAIRSAT,3,22,2,0,1000,3,0,1000,4,0,1000,7,0,1021,8,0,1000,9,0,1000,10,0,1000,11,0,1000,12,0,1200,13,0,1200,15,0,1221,19,0,1200,21,0,1200,24,0,200,25,0,200,26,0,200,27,0,221,30,0,1221,31,0,1200,33,0,1200,34,0,1221,36,0,1200*73
$PAIRSAT,4,44,1,0,200,2,0,200,3,0,600,4,0,200,5,0,200,6,0,201,7,0,201,8,0,200,9,0,201,10,0,200,11,0,201,12,0,201,16,0,1,19,0,600,20,0,600,21,0,600,22,0,600,23,0,621,24,0,621,25,0,621,26,0,600,27,0,600,28,0,600,29,0,600,30,0,600,32,0,400,33,0,400,34,0,421,35,0,400,36,0,400,37,0,400,38,0,400,39,0,421,40,0,421,41,0,400,42,0,400,43,0,421,44,0,421,45,0,400,46,0,400,59,0,400,60,0,400,61,0,400,62,0,400*4C
$PAIRDGP,9,2,4,7,8,9,16,21,27,31*53
$GNGGA,040554.200,2500.8080107,N,12132.4783463,E,2,54,0.52,17.033,M,15.25,M,1,3335*4C
$GNRMC,040554.200,A,2500.8080107,N,12132.4783463,E,0.06,355.73,030324,,,D,V*01
$GPHDT,,T*1B
$GNACCURACY,4.3*11
$GNGGA,040554.300,2500.8080107,N,12132.4783463,E,2,54,0.52,17.032,M,15.25,M,1,3335*4C
$GNRMC,040554.300,A,2500.8080107,N,12132.4783463,E,0.04,355.73,030324,,,D,V*02
$GPHDT,,T*1B
$GNACCURACY,4.3*11
$GNGGA,040554.400,2500.8080167,N,12132.4783463,E,2,54,0.52,17.032,M,15.25,M,1,3335*4D
$GNRMC,040554.400,A,2500.8080167,N,12132.4783463,E,0.05,355.73,030324,,,D,V*02
$GPHDT,,T*1B
$GNACCURACY,4.3*11
$GNGGA,040554.500,2500.8080167,N,12132.4783463,E,2,54,0.52,17.031,M,15.25,M,0,3335*4E
$GNRMC,040554.500,A,2500.8080167,N,12132.4783463,E,0.05,355.73,030324,,,D,V*03
$GPHDT,,T*1B
$GNACCURACY,4.3*11
$GNGGA,040554.600,2500.8080167,N,12132.4783463,E,2,54,0.52,17.030,M,15.25,M,0,3335*4C
$GNRMC,040554.600,A,2500.8080167,N,12132.4783463,E,0.07,355.73,030324,,,D,V*02
$GPHDT,,T*1B
$GNACCURACY,4.3*11
$GNGGA,040554.700,2500.8080167,N,12132.4783523,E,2,54,0.52,17.030,M,15.25,M,0,3335*48
$GNRMC,040554.700,A,2500.8080167,N,12132.4783523,E,0.03,355.73,030324,,,D,V*02
$GPHDT,,T*1B
$GNACCURACY,4.3*11
$GNGGA,040554.800,2500.8080167,N,12132.4783463,E,2,53,0.52,17.030,M,15.25,M,0,3335*45
$GNRMC,040554.800,A,2500.8080167,N,12132.4783463,E,0.08,355.73,030324,,,D,V*03
$GPHDT,,T*1B
$GNACCURACY,4.3*11
$GNGGA,040554.900,2500.8080167,N,12132.4783523,E,2,54,0.52,17.029,M,15.25,M,0,3335*4E
$GNRMC,040554.900,A,2500.8080167,N,12132.4783523,E,0.08,355.73,030324,,,D,V*07
$GPHDT,,T*1B
$GNACCURACY,4.3*11
$GNGGA,040555.000,2500.8080167,N,12132.4783523,E,2,55,0.52,17.028,M,15.25,M,1,3335*47
$GNRMC,040555.000,A,2500.8080167,N,12132.4783523,E,0.12,355.73,030324,,,D,V*04
$GPHDT,,T*1B
$GNACCURACY,4.3*11
$GNGGA,040555.100,2500.8080167,N,12132.4783523,E,2,55,0.52,17.026,M,15.25,M,1,3335*48
$GNRMC,040555.100,A,2500.8080167,N,12132.4783523,E,0.08,355.73,030324,,,D,V*0E
$GPHDT,,T*1B
$GNGSA,A,3,08,194,199,195,21,27,02,07,09,04,196,31,0.80,0.52,0.61,1*03
$GNGSA,A,3,82,83,80,79,81,,,,,,,,0.80,0.52,0.61,2*04
$GNGSA,A,3,30,15,34,27,07,,,,,,,,0.80,0.52,0.61,3*09
$GNGSA,A,3,34,06,09,16,11,39,40,07,25,12,24,43,0.80,0.52,0.61,4*0F
$GNGSA,A,3,23,,,,,,,,,,,,0.80,0.52,0.61,4*0D
$GPGSV,4,1,15,08,70,325,48,194,63,048,42,199,60,167,34,50,60,167,36,1*67
$GPGSV,4,2,15,195,60,121,33,21,46,166,47,27,44,030,32,02,34,180,40,1*53
$GPGSV,4,3,15,16,32,062,19,07,30,320,34,09,29,260,24,04,27,212,28,1*65
$GPGSV,4,4,15,196,20,172,36,26,14,089,21,31,10,140,26,1*6C
$GPGSV,3,1,09,08,70,325,49,194,63,048,43,195,60,121,43,199,60,167,42,8*5D
$GPGSV,3,2,09,27,44,030,31,09,29,260,25,04,27,212,13,196,20,172,39,8*50
$GPGSV,3,3,09,26,14,089,25,8*53
$GLGSV,2,1,05,82,65,047,42,83,61,178,24,80,49,015,39,79,33,090,32,1*7B
$GLGSV,2,2,05,81,17,028,26,1*4C
$GAGSV,2,1,06,30,50,034,32,15,47,150,42,34,43,070,34,27,37,317,39,7*7D
$GAGSV,2,2,06,07,33,233,24,08,11,182,23,7*74
$GAGSV,2,1,07,30,50,034,35,15,47,150,44,34,43,070,39,27,37,317,40,1*78
$GAGSV,2,2,07,07,33,233,26,02,15,082,21,08,11,182,26,1*4B
$GBGSV,4,1,15,34,82,065,44,06,78,217,38,09,75,289,42,16,75,195,42,1*7F
$GBGSV,4,2,15,11,70,198,36,39,64,181,33,40,64,320,41,07,62,299,33,1*75
$GBGSV,4,3,15,25,59,346,46,10,52,281,24,12,50,042,34,24,49,098,38,1*70
$GBGSV,4,4,15,43,45,214,33,44,26,040,,23,15,315,38,1*4A
$GBGSV,2,1,07,34,82,065,46,40,64,320,45,39,64,181,36,25,59,346,47,4*71
$GBGSV,2,2,07,24,49,098,40,43,45,214,19,23,15,315,40,4*45
$GNACCURACY,4.3*11
$PAIRSAT,1,30,2,0,201,3,0,200,4,0,221,5,0,200,6,0,200,7,0,201,8,0,221,9,0,221,10,0,200,11,0,200,12,0,200,13,0,200,14,0,200,15,0,200,16,0,201,17,0,200,21,0,1,24,0,200,25,0,200,26,0,200,27,0,221,28,0,200,29,0,200,30,0,200,31,0,201,32,0,200,194,0,621,195,0,221,196,0,620,199,0,621*74
$PAIRSAT,2,24,65,0,200,66,0,200,67,0,200,68,0,200,69,0,200,70,0,200,71,0,200,72,0,200,73,0,200,74,0,200,75,0,200,76,0,200,77,0,200,78,0,200,79,0,201,80,0,201,81,0,201,82,0,201,83,0,201,84,0,200,85,0,200,86,0,200,87,0,200,88,0,200*7B
$PAIRSAT,3,22,2,0,1000,3,0,1000,4,0,1000,7,0,1021,8,0,1000,9,0,1000,10,0,1000,11,0,1000,12,0,1200,13,0,1200,15,0,1221,19,0,1200,21,0,1200,24,0,200,25,0,200,26,0,200,27,0,221,30,0,1221,31,0,1200,33,0,1200,34,0,1221,36,0,1200*73
$PAIRSAT,4,44,1,0,200,2,0,200,3,0,600,4,0,200,5,0,200,6,0,201,7,0,201,8,0,200,9,0,201,10,0,200,11,0,201,12,0,201,16,0,1,19,0,600,20,0,600,21,0,600,22,0,600,23,0,621,24,0,621,25,0,621,26,0,600,27,0,600,28,0,600,29,0,600,30,0,600,32,0,400,33,0,400,34,0,421,35,0,400,36,0,400,37,0,400,38,0,400,39,0,421,40,0,421,41,0,400,42,0,400,43,0,421,44,0,421,45,0,400,46,0,400,59,0,400,60,0,400,61,0,400,62,0,400*4C
$PAIRDGP,9,2,4,7,8,9,16,21,27,31*53
$GNGGA,040555.200,2500.8080167,N,12132.4783523,E,2,55,0.52,17.025,M,15.25,M,1,3335*48
$GNRMC,040555.200,A,2500.8080167,N,12132.4783523,E,0.07,355.73,030324,,,D,V*02
$GPHDT,,T*1B
$GNACCURACY,4.3*11
$GNGGA,040555.300,2500.8080227,N,12132.4783523,E,2,55,0.52,17.023,M,15.25,M,1,3335*48
$GNRMC,040555.300,A,2500.8080227,N,12132.4783523,E,0.07,355.73,030324,,,D,V*04
$GPHDT,,T*1B
$GNACCURACY,4.3*11
$GNGGA,040555.400,2500.8080227,N,12132.4783583,E,2,55,0.52,17.021,M,15.25,M,1,3335*47
$GNRMC,040555.400,A,2500.8080227,N,12132.4783583,E,0.07,355.73,030324,,,D,V*09
$GPHDT,,T*1B
$GNACCURACY,4.3*11
$GNGGA,040555.500,2500.8080227,N,12132.4783583,E,2,55,0.52,17.019,M,15.25,M,0,3335*4C
$GNRMC,040555.500,A,2500.8080227,N,12132.4783583,E,0.06,355.73,030324,,,D,V*09
$GPHDT,,T*1B
$GNACCURACY,4.3*11
$GNGGA,040555.600,2500.8080227,N,12132.4783583,E,2,54,0.52,17.017,M,15.25,M,0,3335*40
$GNRMC,040555.600,A,2500.8080227,N,12132.4783583,E,0.06,355.73,030324,,,D,V*0A
$GPHDT,,T*1B
$GNACCURACY,4.3*11
$GNGGA,040555.700,2500.8080227,N,12132.4783583,E,2,54,0.52,17.016,M,15.25,M,0,3335*40
$GNRMC,040555.700,A,2500.8080227,N,12132.4783583,E,0.06,355.73,030324,,,D,V*0B
$GPHDT,,T*1B
$GNACCURACY,4.4*16
$GNGGA,040555.800,2500.8080227,N,12132.4783583,E,2,54,0.52,17.014,M,15.25,M,0,3335*4D
$GNRMC,040555.800,A,2500.8080227,N,12132.4783583,E,0.09,355.73,030324,,,D,V*0B
$GPHDT,,T*1B
$GNACCURACY,4.3*11
$GNGGA,040555.900,2500.8080227,N,12132.4783583,E,2,55,0.52,17.013,M,15.25,M,0,3335*4A
$GNRMC,040555.900,A,2500.8080227,N,12132.4783583,E,0.09,355.73,030324,,,D,V*0A
$GPHDT,,T*1B
$GNACCURACY,4.3*11
$GNGGA,040556.000,2500.8080227,N,12132.4783643,E,2,55,0.52,17.013,M,15.25,M,1,3335*4E
$GNRMC,040556.000,A,2500.8080227,N,12132.4783643,E,0.08,355.73,030324,,,D,V*0E
$GPHDT,,T*1B
$GNACCURACY,4.3*11
$GNGGA,040556.100,2500.8080287,N,12132.4783643,E,2,55,0.52,17.012,M,15.25,M,1,3335*44
$GNRMC,040556.100,A,2500.8080287,N,12132.4783643,E,0.05,355.73,030324,,,D,V*08
$GPHDT,,T*1B
$GNGSA,A,3,08,194,199,195,21,27,02,07,09,04,196,31,0.80,0.52,0.61,1*03
$GNGSA,A,3,82,83,80,79,81,,,,,,,,0.80,0.52,0.61,2*04
$GNGSA,A,3,30,15,34,27,07,,,,,,,,0.80,0.52,0.61,3*09
$GNGSA,A,3,34,06,09,16,11,39,40,07,25,12,24,43,0.80,0.52,0.61,4*0F
$GNGSA,A,3,23,,,,,,,,,,,,0.80,0.52,0.61,4*0D
$GPGSV,4,1,15,08,70,325,48,194,63,048,42,199,60,167,34,50,60,167,37,1*66
$GPGSV,4,2,15,195,60,121,34,21,46,166,47,27,44,030,33,02,34,180,40,1*55
$GPGSV,4,3,15,16,32,062,17,07,30,320,33,09,29,260,25,04,27,212,27,1*62
$GPGSV,4,4,15,196,20,172,36,26,14,089,21,31,10,140,28,1*62
$GPGSV,3,1,09,08,70,325,49,194,63,048,43,195,60,121,43,199,60,167,42,8*5D
$GPGSV,3,2,09,27,44,030,31,09,29,260,25,04,27,212,11,196,20,172,38,8*53
$GPGSV,3,3,09,26,14,089,25,8*53
$GLGSV,2,1,05,82,65,047,42,83,61,178,24,80,49,015,39,79,33,090,31,1*78
$GLGSV,2,2,05,81,17,028,26,1*4C
$GAGSV,2,1,06,30,50,034,32,15,47,150,42,34,43,070,32,27,37,317,39,7*7B
$GAGSV,2,2,06,07,33,233,24,08,11,182,23,7*74
$GAGSV,2,1,07,30,50,034,34,15,47,150,44,34,43,070,39,27,37,317,40,1*79
$GAGSV,2,2,07,07,33,233,26,02,15,082,20,08,11,182,25,1*49
$GBGSV,4,1,15,34,82,065,44,06,78,217,38,09,75,289,42,16,75,195,42,1*7F
$GBGSV,4,2,15,11,70,198,36,39,64,181,33,40,64,320,41,07,62,299,33,1*75
$GBGSV,4,3,15,25,59,346,46,10,52,281,24,12,50,042,34,24,49,098,38,1*70
$GBGSV,4,4,15,43,45,214,33,44,26,040,,23,15,315,38,1*4A
$GBGSV,2,1,07,34,82,065,46,40,64,320,45,39,64,181,36,25,59,346,47,4*71
$GBGSV,2,2,07,24,49,098,40,43,45,214,18,23,15,315,40,4*44
$GNACCURACY,4.3*11
$PAIRSAT,1,30,2,0,201,3,0,200,4,0,221,5,0,200,6,0,200,7,0,201,8,0,221,9,0,221,10,0,200,11,0,200,12,0,200,13,0,200,14,0,200,15,0,200,16,0,201,17,0,200,21,0,1,24,0,200,25,0,200,26,0,200,27,0,221,28,0,200,29,0,200,30,0,200,31,0,201,32,0,200,194,0,621,195,0,221,196,0,620,199,0,621*74
$PAIRSAT,2,24,65,0,200,66,0,200,67,0,200,68,0,200,69,0,200,70,0,200,71,0,200,72,0,200,73,0,200,74,0,200,75,0,200,76,0,200,77,0,200,78,0,200,79,0,201,80,0,201,81,0,201,82,0,201,83,0,201,84,0,200,85,0,200,86,0,200,87,0,200,88,0,200*7B
$PAIRSAT,3,22,2,0,1000,3,0,1000,4,0,1000,7,0,1021,8,0,1000,9,0,1000,10,0,1000,11,0,1000,12,0,1200,13,0,1200,15,0,1221,19,0,1200,21,0,1200,24,0,200,25,0,200,26,0,200,27,0,221,30,0,1221,31,0,1200,33,0,1200,34,0,1221,36,0,1200*73
$PAIRSAT,4,44,1,0,200,2,0,200,3,0,600,4,0,200,5,0,200,6,0,201,7,0,201,8,0,200,9,0,201,10,0,200,11,0,201,12,0,201,16,0,1,19,0,600,20,0,600,21,0,600,22,0,600,23,0,621,24,0,621,25,0,621,26,0,600,27,0,600,28,0,600,29,0,600,30,0,600,32,0,400,33,0,400,34,0,421,35,0,400,36,0,400,37,0,400,38,0,400,39,0,421,40,0,421,41,0,400,42,0,400,43,0,421,44,0,421,45,0,400,46,0,400,59,0,400,60,0,400,61,0,400,62,0,400*4C
$PAIRDGP,9,2,4,7,8,9,16,21,27,31*53
$GNGGA,040556.200,2500.8080287,N,12132.4783583,E,2,55,0.52,17.013,M,15.25,M,1,3335*49
$GNRMC,040556.200,A,2500.8080287,N,12132.4783583,E,0.02,355.73,030324,,,D,V*03
$GPHDT,,T*1B
$GNACCURACY,4.4*16
$GNGGA,040556.300,2500.8080287,N,12132.4783583,E,2,55,0.52,17.013,M,15.25,M,1,3335*48
$GNRMC,040556.300,A,2500.8080287,N,12132.4783583,E,0.02,355.73,030324,,,D,V*02
$GPHDT,,T*1B
$GNACCURACY,4.4*16
$GNGGA,040556.400,2500.8080287,N,12132.4783583,E,2,55,0.52,17.014,M,15.25,M,1,3335*48
$GNRMC,040556.400,A,2500.8080287,N,12132.4783583,E,0.02,355.73,030324,,,D,V*05
$GPHDT,,T*1B
$GNACCURACY,4.4*16
$GNGGA,040556.500,2500.8080287,N,12132.4783583,E,2,55,0.52,17.014,M,15.25,M,1,3335*49
$GNRMC,040556.500,A,2500.8080287,N,12132.4783583,E,0.02,355.73,030324,,,D,V*04
$GPHDT,,T*1B
$GNACCURACY,4.4*16
$GNGGA,040556.600,2500.8080287,N,12132.4783583,E,2,55,0.52,17.015,M,15.25,M,0,3335*4A
$GNRMC,040556.600,A,2500.8080287,N,12132.4783583,E,0.07,355.73,030324,,,D,V*02
$GPHDT,,T*1B
$GNACCURACY,4.4*16
$GNGGA,040556.700,2500.8080287,N,12132.4783583,E,2,55,0.52,17.017,M,15.25,M,0,3335*49
$GNRMC,040556.700,A,2500.8080287,N,12132.4783583,E,0.09,355.73,030324,,,D,V*0D
$GPHDT,,T*1B
$GNACCURACY,4.4*16
$GNGGA,040556.800,2500.8080287,N,12132.4783583,E,2,55,0.52,17.021,M,15.25,M,0,3335*43
$GNRMC,040556.800,A,2500.8080287,N,12132.4783583,E,0.05,355.73,030324,,,D,V*0E
$GPHDT,,T*1B
$GNACCURACY,4.4*16
$GNGGA,040556.900,2500.8080287,N,12132.4783583,E,2,55,0.52,17.023,M,15.25,M,0,3335*40
$GNRMC,040556.900,A,2500.8080287,N,12132.4783583,E,0.07,355.73,030324,,,D,V*0D
$GPHDT,,T*1B
$GNACCURACY,4.4*16
$GNGGA,040557.000,2500.8080287,N,12132.4783583,E,2,55,0.52,17.026,M,15.25,M,1,3335*4C
$GNRMC,040557.000,A,2500.8080287,N,12132.4783583,E,0.04,355.73,030324,,,D,V*06
$GPHDT,,T*1B
$GNACCURACY,4.4*16
$GNGGA,040557.100,2500.8080287,N,12132.4783523,E,2,55,0.52,17.030,M,15.25,M,1,3335*40
$GNRMC,040557.100,A,2500.8080287,N,12132.4783523,E,0.06,355.73,030324,,,D,V*0F
$GPHDT,,T*1B
$GNGSA,A,3,08,194,199,195,21,27,02,07,09,04,196,31,0.80,0.52,0.61,1*03
$GNGSA,A,3,82,83,80,79,81,,,,,,,,0.80,0.52,0.61,2*04
$GNGSA,A,3,30,15,34,27,07,,,,,,,,0.80,0.52,0.61,3*09
$GNGSA,A,3,34,06,09,16,11,39,40,07,25,12,24,43,0.80,0.52,0.61,4*0F
$GNGSA,A,3,23,,,,,,,,,,,,0.80,0.52,0.61,4*0D
$GPGSV,4,1,15,08,70,325,48,194,63,048,42,199,60,167,34,50,60,167,37,1*66
$GPGSV,4,2,15,195,60,121,33,21,46,166,47,27,44,030,33,02,34,180,39,1*5C
$GPGSV,4,3,15,16,32,062,19,07,30,320,32,09,29,260,25,04,27,212,27,1*6D
$GPGSV,4,4,15,196,20,172,37,26,14,089,21,31,10,140,29,1*62
$GPGSV,3,1,09,08,70,325,49,194,63,048,43,195,60,121,43,199,60,167,42,8*5D
$GPGSV,3,2,09,27,44,030,31,09,29,260,25,04,27,212,11,196,20,172,38,8*53
$GPGSV,3,3,09,26,14,089,25,8*53
$GLGSV,2,1,05,82,65,047,42,83,61,178,24,80,49,015,39,79,33,090,31,1*78
$GLGSV,2,2,05,81,17,028,27,1*4D
$GAGSV,2,1,06,30,50,034,31,15,47,150,42,34,43,070,32,27,37,317,39,7*78
$GAGSV,2,2,06,07,33,233,24,08,11,182,23,7*74
$GAGSV,2,1,07,30,50,034,34,15,47,150,44,34,43,070,39,27,37,317,40,1*79
$GAGSV,2,2,07,07,33,233,27,02,15,082,22,08,11,182,26,1*49
$GBGSV,4,1,15,34,82,065,44,06,78,217,38,09,75,289,42,16,75,195,42,1*7F
$GBGSV,4,2,15,11,70,198,36,39,64,181,34,40,64,320,41,07,62,299,33,1*72
$GBGSV,4,3,15,25,59,346,46,10,52,281,23,12,50,042,34,24,49,098,38,1*77
$GBGSV,4,4,15,43,45,214,34,44,26,040,,23,15,315,38,1*4D
$GBGSV,2,1,07,34,82,065,46,40,64,320,45,39,64,181,36,25,59,346,47,4*71
$GBGSV,2,2,07,24,49,098,40,43,45,214,18,23,15,315,40,4*44
$GNACCURACY,4.3*11
$PAIRSAT,1,30,2,0,201,3,0,200,4,0,221,5,0,200,6,0,200,7,0,201,8,0,221,9,0,221,10,0,200,11,0,200,12,0,200,13,0,200,14,0,200,15,0,200,16,0,201,17,0,200,21,0,1,24,0,200,25,0,200,26,0,200,27,0,221,28,0,200,29,0,200,30,0,200,31,0,201,32,0,200,194,0,621,195,0,221,196,0,620,199,0,621*74
$PAIRSAT,2,24,65,0,200,66,0,200,67,0,200,68,0,200,69,0,200,70,0,200,71,0,200,72,0,200,73,0,200,74,0,200,75,0,200,76,0,200,77,0,200,78,0,200,79,0,201,80,0,201,81,0,201,82,0,201,83,0,201,84,0,200,85,0,200,86,0,200,87,0,200,88,0,200*7B
$PAIRSAT,3,22,2,0,1000,3,0,1000,4,0,1000,7,0,1021,8,0,1000,9,0,1000,10,0,1000,11,0,1000,12,0,1200,13,0,1200,15,0,1221,19,0,1200,21,0,1200,24,0,200,25,0,200,26,0,200,27,0,221,30,0,1221,31,0,1200,33,0,1200,34,0,1221,36,0,1200*73
$PAIRSAT,4,44,1,0,200,2,0,200,3,0,600,4,0,200,5,0,200,6,0,201,7,0,201,8,0,200,9,0,201,10,0,200,11,0,201,12,0,201,16,0,1,19,0,600,20,0,600,21,0,600,22,0,600,23,0,621,24,0,621,25,0,621,26,0,600,27,0,600,28,0,600,29,0,600,30,0,600,32,0,600,33,0,400,34,0,421,35,0,400,36,0,400,37,0,400,38,0,400,39,0,421,40,0,421,41,0,400,42,0,400,43,0,421,44,0,421,45,0,400,46,0,400,59,0,400,60,0,400,61,0,400,62,0,400*4E
$PAIRDGP,9,2,4,7,8,9,16,21,27,31*53
$GNGGA,040557.200,2500.8080227,N,12132.4783523,E,2,55,0.52,17.033,M,15.25,M,1,3335*4A
$GNRMC,040557.200,A,2500.8080227,N,12132.4783523,E,0.06,355.73,030324,,,D,V*06
$GPHDT,,T*1B
$GNACCURACY,4.3*11
$GNGGA,040557.300,2500.8080227,N,12132.4783523,E,2,55,0.52,17.036,M,15.25,M,1,3335*4E
$GNRMC,040557.300,A,2500.8080227,N,12132.4783523,E,0.05,355.73,030324,,,D,V*04
$GPHDT,,T*1B
$GNACCURACY,4.3*11
$GNGGA,040557.400,2500.8080227,N,12132.4783523,E,2,55,0.52,17.038,M,15.25,M,1,3335*47
$GNRMC,040557.400,A,2500.8080227,N,12132.4783523,E,0.05,355.73,030324,,,D,V*03
$GPHDT,,T*1B
$GNACCURACY,4.3*11
$GNGGA,040557.500,2500.8080227,N,12132.4783523,E,2,55,0.52,17.041,M,15.25,M,0,3335*49
$GNRMC,040557.500,A,2500.8080227,N,12132.4783523,E,0.05,355.73,030324,,,D,V*02
$GPHDT,,T*1B
$GNACCURACY,4.3*11
$GNGGA,040557.600,2500.8080227,N,12132.4783523,E,2,55,0.52,17.043,M,15.25,M,0,3335*48
$GNRMC,040557.600,A,2500.8080227,N,12132.4783523,E,0.04,355.73,030324,,,D,V*00
$GPHDT,,T*1B
$GNACCURACY,4.3*11
$GNGGA,040557.700,2500.8080227,N,12132.4783463,E,2,55,0.52,17.045,M,15.25,M,0,3335*4A
$GNRMC,040557.700,A,2500.8080227,N,12132.4783463,E,0.03,355.73,030324,,,D,V*03
$GPHDT,,T*1B
$GNACCURACY,4.3*11
$GNGGA,040557.800,2500.8080227,N,12132.4783463,E,2,55,0.52,17.047,M,15.25,M,0,3335*47
$GNRMC,040557.800,A,2500.8080227,N,12132.4783463,E,0.07,355.73,030324,,,D,V*08
$GPHDT,,T*1B
$GNACCURACY,4.3*11
$GNGGA,040557.900,2500.8080227,N,12132.4783463,E,2,55,0.52,17.047,M,15.25,M,0,3335*46
$GNRMC,040557.900,A,2500.8080227,N,12132.4783463,E,0.03,355.73,030324,,,D,V*0D
$GPHDT,,T*1B
$GNACCURACY,4.3*11
$GNGGA,040558.000,2500.8080227,N,12132.4783523,E,2,55,0.52,17.047,M,15.25,M,1,3335*44
$GNRMC,040558.000,A,2500.8080227,N,12132.4783523,E,0.03,355.73,030324,,,D,V*0E
$GPHDT,,T*1B
$GNACCURACY,4.3*11
$GNGGA,040558.100,2500.8080227,N,12132.4783523,E,2,55,0.52,17.047,M,15.25,M,1,3335*45
$GNRMC,040558.100,A,2500.8080227,N,12132.4783523,E,0.01,355.73,030324,,,D,V*0D
$GPHDT,,T*1B
$GNGSA,A,3,08,194,199,195,21,27,02,07,09,04,196,31,0.80,0.52,0.61,1*03
$GNGSA,A,3,82,83,80,79,81,,,,,,,,0.80,0.52,0.61,2*04
$GNGSA,A,3,30,15,34,27,07,,,,,,,,0.80,0.52,0.61,3*09
$GNGSA,A,3,34,06,09,16,11,39,40,07,25,12,24,43,0.80,0.52,0.61,4*0F
$GNGSA,A,3,23,,,,,,,,,,,,0.80,0.52,0.61,4*0D
$GPGSV,4,1,15,08,70,325,48,194,63,048,42,199,60,167,34,50,60,167,36,1*67
$GPGSV,4,2,15,195,60,121,32,21,46,166,47,27,44,030,33,02,34,180,39,1*5D
$GPGSV,4,3,15,16,32,062,18,07,30,320,33,09,29,260,24,04,27,212,26,1*6D
$GPGSV,4,4,15,196,20,172,37,26,14,089,21,31,10,140,29,1*62
$GPGSV,3,1,09,08,70,325,49,194,63,048,43,195,60,121,43,199,60,167,42,8*5D
$GPGSV,3,2,09,27,44,030,30,09,29,260,24,04,27,212,12,196,20,172,38,8*50
$GPGSV,3,3,09,26,14,089,26,8*50
$GLGSV,2,1,05,82,65,047,42,83,61,178,25,80,49,015,39,79,33,090,31,1*79
$GLGSV,2,2,05,81,17,028,27,1*4D
$GAGSV,2,1,06,30,50,034,31,15,47,150,42,34,43,070,31,27,37,317,39,7*7B
$GAGSV,2,2,06,07,33,233,25,08,11,182,23,7*75
$GAGSV,2,1,07,30,50,034,34,15,47,150,44,34,43,070,39,27,37,317,40,1*79
$GAGSV,2,2,07,07,33,233,27,02,15,082,22,08,11,182,26,1*49
$GBGSV,4,1,15,34,82,065,44,06,78,217,38,09,75,289,42,16,75,195,42,1*7F
$GBGSV,4,2,15,11,70,198,36,39,64,181,34,40,64,320,41,07,62,299,33,1*72
$GBGSV,4,3,15,25,59,346,46,10,52,281,25,12,50,042,34,24,49,098,38,1*71
$GBGSV,4,4,15,43,45,214,35,44,26,040,,23,15,315,38,1*4C
$GBGSV,2,1,07,34,82,065,46,40,64,320,45,39,64,181,36,25,59,346,47,4*71
$GBGSV,2,2,07,24,49,098,39,43,45,214,19,23,15,315,40,4*4B
$GNACCURACY,4.4*16
$PAIRSAT,1,30,2,0,201,3,0,200,4,0,221,5,0,200,6,0,200,7,0,201,8,0,221,9,0,221,10,0,200,11,0,200,12,0,200,13,0,200,14,0,200,15,0,200,16,0,201,17,0,200,21,0,1,24,0,200,25,0,200,26,0,200,27,0,221,28,0,200,29,0,200,30,0,200,31,0,201,32,0,200,194,0,621,195,0,221,196,0,620,199,0,621*74
$PAIRSAT,2,24,65,0,200,66,0,200,67,0,200,68,0,200,69,0,200,70,0,200,71,0,200,72,0,200,73,0,200,74,0,200,75,0,200,76,0,200,77,0,200,78,0,200,79,0,201,80,0,201,81,0,201,82,0,201,83,0,201,84,0,200,85,0,200,86,0,200,87,0,200,88,0,200*7B
$PAIRSAT,3,22,2,0,1000,3,0,1000,4,0,1000,7,0,1021,8,0,1000,9,0,1000,10,0,1000,11,0,1000,12,0,1200,13,0,1200,15,0,1221,19,0,1200,21,0,1200,24,0,200,25,0,200,26,0,200,27,0,221,30,0,1221,31,0,1200,33,0,1200,34,0,1221,36,0,1200*73
$PAIRSAT,4,44,1,0,200,2,0,200,3,0,600,4,0,200,5,0,200,6,0,201,7,0,201,8,0,200,9,0,201,10,0,200,11,0,201,12,0,201,16,0,1,19,0,600,20,0,600,21,0,600,22,0,600,23,0,621,24,0,621,25,0,621,26,0,600,27,0,600,28,0,600,29,0,600,30,0,600,32,0,600,33,0,400,34,0,421,35,0,400,36,0,400,37,0,400,38,0,400,39,0,421,40,0,421,41,0,400,42,0,400,43,0,421,44,0,421,45,0,400,46,0,400,59,0,400,60,0,400,61,0,400,62,0,400*4E
$PAIRDGP,9,2,4,7,8,9,16,21,27,31*53
$GNGGA,040558.200,2500.8080227,N,12132.4783523,E,2,55,0.52,17.046,M,15.25,M,1,3335*47
$GNRMC,040558.200,A,2500.8080227,N,12132.4783523,E,0.02,355.73,030324,,,D,V*0D
$GPHDT,,T*1B
$GNACCURACY,4.3*11
$GNGGA,040558.300,2500.8080227,N,12132.4783523,E,2,55,0.52,17.045,M,15.25,M,1,3335*45
$GNRMC,040558.300,A,2500.8080227,N,12132.4783523,E,0.01,355.73,030324,,,D,V*0F
$GPHDT,,T*1B
$GNACCURACY,4.3*11
$GNGGA,040558.400,2500.8080227,N,12132.4783523,E,2,55,0.52,17.045,M,15.25,M,1,3335*42
$GNRMC,040558.400,A,2500.8080227,N,12132.4783523,E,0.02,355.73,030324,,,D,V*0B
$GPHDT,,T*1B
$GNACCURACY,4.3*11
$GNGGA,040558.500,2500.8080227,N,12132.4783523,E,2,55,0.52,17.045,M,15.25,M,1,3335*43
$GNRMC,040558.500,A,2500.8080227,N,12132.4783523,E,0.02,355.73,030324,,,D,V*0A
$GPHDT,,T*1B
$GNACCURACY,4.3*11
$GNGGA,040558.600,2500.8080227,N,12132.4783523,E,2,55,0.52,17.044,M,15.25,M,0,3335*40
$GNRMC,040558.600,A,2500.8080227,N,12132.4783523,E,0.02,355.73,030324,,,D,V*09
$GPHDT,,T*1B
$GNACCURACY,4.3*11
$GNGGA,040558.700,2500.8080227,N,12132.4783523,E,2,55,0.52,17.044,M,15.25,M,0,3335*41
$GNRMC,040558.700,A,2500.8080227,N,12132.4783523,E,0.02,355.73,030324,,,D,V*08
$GPHDT,,T*1B
$GNACCURACY,4.4*16
$GNGGA,040558.800,2500.8080227,N,12132.4783523,E,2,54,0.52,17.043,M,15.25,M,0,3335*48
$GNRMC,040558.800,A,2500.8080227,N,12132.4783523,E,0.02,355.73,030324,,,D,V*07
$GPHDT,,T*1B
$GNACCURACY,4.4*16
$GNGGA,040558.900,2500.8080227,N,12132.4783523,E,2,55,0.52,17.043,M,15.25,M,0,3335*48
$GNRMC,040558.900,A,2500.8080227,N,12132.4783523,E,0.09,355.73,030324,,,D,V*0D
$GPHDT,,T*1B
$GNACCURACY,4.4*16
$GNGGA,040559.000,2500.8080227,N,12132.4783523,E,2,55,0.52,17.042,M,15.25,M,1,3335*40
$GNRMC,040559.000,A,2500.8080227,N,12132.4783523,E,0.08,355.73,030324,,,D,V*04
$GPHDT,,T*1B
$GNACCURACY,4.4*16
$GNGGA,040559.100,2500.8080227,N,12132.4783523,E,2,55,0.52,17.041,M,15.25,M,1,3335*42
$GNRMC,040559.100,A,2500.8080227,N,12132.4783523,E,0.07,355.73,030324,,,D,V*0A
$GPHDT,,T*1B
$GNGSA,A,3,08,194,199,195,21,27,02,07,09,04,196,31,0.80,0.52,0.61,1*03
$GNGSA,A,3,82,83,80,79,81,,,,,,,,0.80,0.52,0.61,2*04
$GNGSA,A,3,30,15,34,27,07,,,,,,,,0.80,0.52,0.61,3*09
$GNGSA,A,3,34,06,09,16,11,40,39,07,25,12,24,43,0.80,0.52,0.61,4*0F
$GNGSA,A,3,23,,,,,,,,,,,,0.80,0.52,0.61,4*0D
$GPGSV,4,1,15,08,70,325,47,194,63,048,42,199,60,167,34,50,60,167,36,1*68
$GPGSV,4,2,15,195,60,121,32,21,46,166,47,27,44,030,32,02,34,180,39,1*5C
$GPGSV,4,3,15,16,32,062,17,07,30,320,33,09,29,260,25,04,27,212,25,1*60
$GPGSV,4,4,15,196,20,172,36,26,14,089,22,31,10,140,29,1*60
$GPGSV,3,1,09,08,70,325,49,194,63,048,43,195,60,121,43,199,60,167,42,8*5D
$GPGSV,3,2,09,27,44,030,30,09,29,260,24,04,27,212,13,196,20,172,38,8*51
$GPGSV,3,3,09,26,14,089,25,8*53
$GLGSV,2,1,07,82,65,047,42,83,61,178,25,80,49,015,39,79,33,090,31,1*7B
$GLGSV,2,2,07,81,17,028,27,73,14,323,,70,08,255,,1*41
$GAGSV,2,1,06,30,50,034,31,15,47,150,42,34,43,070,32,27,37,317,39,7*78
$GAGSV,2,2,06,07,33,233,24,08,11,182,24,7*73
$GAGSV,2,1,07,30,50,034,34,15,47,150,44,34,43,070,39,27,37,317,40,1*79
$GAGSV,2,2,07,07,33,233,28,02,15,082,21,08,11,182,26,1*45
$GBGSV,4,1,15,34,82,065,44,06,78,217,38,09,75,288,42,16,75,195,42,1*7E
$GBGSV,4,2,15,11,70,198,35,40,64,320,41,39,64,181,34,07,62,299,33,1*71
$GBGSV,4,3,15,25,59,346,46,10,52,281,26,12,50,042,34,24,49,098,38,1*72
$GBGSV,4,4,15,43,45,214,35,44,26,040,,23,15,315,38,1*4C
$GBGSV,2,1,07,34,82,065,46,40,64,320,45,39,64,181,36,25,59,346,47,4*71
$GBGSV,2,2,07,24,49,098,39,43,45,214,18,23,15,315,40,4*4A
$GNACCURACY,4.4*16
$PAIRSAT,1,30,2,0,201,3,0,200,4,0,221,5,0,200,6,0,200,7,0,201,8,0,221,9,0,221,10,0,200,11,0,200,12,0,200,13,0,200,14,0,200,15,0,200,16,0,201,17,0,200,21,0,1,24,0,200,25,0,200,26,0,200,27,0,221,28,0,200,29,0,200,30,0,200,31,0,201,32,0,200,194,0,621,195,0,221,196,0,620,199,0,621*74
$PAIRSAT,2,24,65,0,200,66,0,200,67,0,200,68,0,200,69,0,200,70,0,200,71,0,200,72,0,200,73,0,200,74,0,200,75,0,200,76,0,200,77,0,200,78,0,200,79,0,201,80,0,201,81,0,201,82,0,201,83,0,201,84,0,200,85,0,200,86,0,200,87,0,200,88,0,200*7B
$PAIRSAT,3,22,2,0,1000,3,0,1000,4,0,1000,7,0,1021,8,0,1000,9,0,1000,10,0,1000,11,0,1000,12,0,1200,13,0,1200,15,0,1221,19,0,1200,21,0,1200,24,0,200,25,0,200,26,0,200,27,0,221,30,0,1221,31,0,1200,33,0,1200,34,0,1221,36,0,1200*73
$PAIRSAT,4,44,1,0,200,2,0,200,3,0,600,4,0,200,5,0,200,6,0,201,7,0,201,8,0,200,9,0,201,10,0,200,11,0,201,12,0,201,16,0,1,19,0,600,20,0,600,21,0,600,22,0,600,23,0,621,24,0,621,25,0,621,26,0,600,27,0,600,28,0,600,29,0,600,30,0,600,32,0,600,33,0,400,34,0,421,35,0,400,36,0,400,37,0,400,38,0,400,39,0,421,40,0,421,41,0,400,42,0,400,43,0,421,44,0,421,45,0,400,46,0,400,59,0,400,60,0,400,61,0,400,62,0,400*4E
$PAIRDGP,9,2,4,7,8,9,16,21,27,31*53
$GNGGA,040559.200,2500.8080227,N,12132.4783583,E,2,55,0.52,17.040,M,15.25,M,1,3335*4A
$GNRMC,040559.200,A,2500.8080227,N,12132.4783583,E,0.07,355.73,030324,,,D,V*03
$GPHDT,,T*1B
$GNACCURACY,4.4*16
$GNGGA,040559.300,2500.8080227,N,12132.4783583,E,2,55,0.52,17.040,M,15.25,M,1,3335*4B
$GNRMC,040559.300,A,2500.8080227,N,12132.4783583,E,0.08,355.73,030324,,,D,V*0D
$GPHDT,,T*1B
$GNACCURACY,4.4*16
$GNGGA,040559.400,2500.8080227,N,12132.4783583,E,2,55,0.52,17.039,M,15.25,M,1,3335*42
$GNRMC,040559.400,A,2500.8080227,N,12132.4783583,E,0.07,355.73,030324,,,D,V*05
$GPHDT,,T*1B
$GNACCURACY,4.4*16
$GNGGA,040559.500,2500.8080287,N,12132.4783583,E,2,54,0.52,17.039,M,15.25,M,0,3335*49
$GNRMC,040559.500,A,2500.8080287,N,12132.4783583,E,0.07,355.73,030324,,,D,V*0E
$GPHDT,,T*1B
$GNACCURACY,4.4*16
$GNGGA,040559.600,2500.8080287,N,12132.4783583,E,2,54,0.52,17.038,M,15.25,M,0,3335*4B
$GNRMC,040559.600,A,2500.8080287,N,12132.4783583,E,0.07,355.73,030324,,,D,V*0D
$GPHDT,,T*1B
$GNACCURACY,4.4*16
$GNGGA,040559.700,2500.8080287,N,12132.4783643,E,2,54,0.52,17.037,M,15.25,M,0,3335*4A
$GNRMC,040559.700,A,2500.8080287,N,12132.4783643,E,0.07,355.73,030324,,,D,V*03
$GPHDT,,T*1B
$GNACCURACY,4.4*16
$GNGGA,040559.800,2500.8080287,N,12132.4783643,E,2,54,0.52,17.036,M,15.25,M,0,3335*44
$GNRMC,040559.800,A,2500.8080287,N,12132.4783643,E,0.08,355.73,030324,,,D,V*03
$GPHDT,,T*1B
$GNACCURACY,4.4*16
$GNGGA,040559.900,2500.8080287,N,12132.4783643,E,2,54,0.52,17.035,M,15.25,M,0,3335*46
$GNRMC,040559.900,A,2500.8080287,N,12132.4783643,E,0.07,355.73,030324,,,D,V*0D
$GPHDT,,T*1B
$GNACCURACY,4.4*16
$GNGGA,040600.000,2500.8080287,N,12132.4783643,E,2,54,0.52,17.033,M,15.25,M,1,3335*47
$GNRMC,040600.000,A,2500.8080287,N,12132.4783643,E,0.05,355.73,030324,,,D,V*09
$GPHDT,,T*1B
$GNACCURACY,4.4*16
$GNGGA,040600.100,2500.8080287,N,12132.4783643,E,2,54,0.52,17.032,M,15.25,M,1,3335*47
$GNRMC,040600.100,A,2500.8080287,N,12132.4783643,E,0.01,355.73,030324,,,D,V*0C
$GPHDT,,T*1B
$GNGSA,A,3,08,194,199,195,21,27,02,07,09,04,196,31,0.80,0.52,0.61,1*03
$GNGSA,A,3,82,83,80,79,81,,,,,,,,0.80,0.52,0.61,2*04
$GNGSA,A,3,30,15,34,27,07,,,,,,,,0.80,0.52,0.61,3*09
$GNGSA,A,3,34,06,16,09,11,39,40,07,25,12,24,43,0.80,0.52,0.61,4*0F
$GNGSA,A,3,23,,,,,,,,,,,,0.80,0.52,0.61,4*0D
$GPGSV,4,1,15,08,70,325,47,194,63,048,42,199,60,167,34,50,60,167,36,1*68
$GPGSV,4,2,15,195,60,121,33,21,46,166,47,27,44,030,31,02,34,180,39,1*5E
$GPGSV,4,3,15,16,32,062,19,07,30,320,33,09,29,260,24,04,27,212,25,1*6F
$GPGSV,4,4,15,196,20,172,36,26,14,089,21,31,10,140,29,1*63
$GPGSV,2,1,08,08,70,325,49,194,63,048,43,195,60,121,43,199,60,167,42,8*5D
$GPGSV,2,2,08,27,44,030,30,09,29,260,24,196,20,172,38,26,14,089,27,8*56
$GLGSV,2,1,08,82,65,047,42,83,61,178,25,80,49,015,39,79,33,090,30,1*75
$GLGSV,2,2,08,81,17,028,26,73,14,323,,71,05,301,30,84,02,199,,1*7F
$GAGSV,2,1,06,30,50,034,32,15,47,150,42,34,43,070,31,27,37,317,39,7*78
$GAGSV,2,2,06,07,33,233,24,08,11,182,23,7*74
$GAGSV,2,1,07,30,50,034,34,15,47,150,44,34,43,070,39,27,37,317,40,1*79
$GAGSV,2,2,07,07,33,233,28,02,15,082,21,08,11,182,27,1*44
$GBGSV,4,1,15,34,82,065,44,06,78,217,38,16,75,195,42,09,75,288,42,1*7E
$GBGSV,4,2,15,11,70,198,35,39,64,181,34,40,64,320,41,07,62,299,33,1*71
$GBGSV,4,3,15,25,59,346,46,10,52,281,27,12,50,042,34,24,49,098,38,1*73
$GBGSV,4,4,15,43,45,214,35,44,26,040,,23,15,315,38,1*4C
$GBGSV,2,1,07,34,82,065,46,40,64,320,45,39,64,181,36,25,59,346,47,4*71
$GBGSV,2,2,07,24,49,098,40,43,45,214,22,23,15,315,40,4*4D
$GNACCURACY,4.4*16
$PAIRSAT,1,30,2,0,201,3,0,200,4,0,221,5,0,200,6,0,200,7,0,201,8,0,221,9,0,221,10,0,200,11,0,200,12,0,200,13,0,200,14,0,200,15,0,200,16,0,201,17,0,200,21,0,1,24,0,200,25,0,200,26,0,200,27,0,221,28,0,200,29,0,200,30,0,200,31,0,201,32,0,200,194,0,621,195,0,221,196,0,620,199,0,621*74
$PAIRSAT,2,24,65,0,200,66,0,200,67,0,200,68,0,200,69,0,200,70,0,200,71,0,200,72,0,200,73,0,200,74,0,200,75,0,200,76,0,200,77,0,200,78,0,200,79,0,201,80,0,201,81,0,201,82,0,201,83,0,201,84,0,200,85,0,200,86,0,200,87,0,200,88,0,200*7B
$PAIRSAT,3,22,2,0,1000,3,0,1000,4,0,1000,7,0,1021,8,0,1000,9,0,1000,10,0,1000,11,0,1000,12,0,1200,13,0,1200,15,0,1221,19,0,1200,21,0,1200,24,0,200,25,0,200,26,0,200,27,0,221,30,0,1221,31,0,1200,33,0,1200,34,0,1221,36,0,1200*73
$PAIRSAT,4,44,1,0,200,2,0,200,3,0,600,4,0,200,5,0,200,6,0,201,7,0,201,8,0,200,9,0,201,10,0,200,11,0,201,12,0,201,16,0,1,19,0,600,20,0,600,21,0,600,22,0,600,23,0,621,24,0,621,25,0,621,26,0,600,27,0,600,28,0,600,29,0,600,30,0,600,32,0,600,33,0,400,34,0,421,35,0,400,36,0,400,37,0,400,38,0,400,39,0,421,40,0,421,41,0,400,42,0,400,43,0,421,44,0,421,45,0,400,46,0,400,59,0,400,60,0,400,61,0,400,62,0,400*4E
$PAIRDGP,9,2,4,7,8,9,16,21,27,31*53
$GNGGA,040600.200,2500.8080287,N,12132.4783643,E,2,54,0.52,17.031,M,15.25,M,1,3335*47
$GNRMC,040600.200,A,2500.8080287,N,12132.4783643,E,0.03,355.73,030324,,,D,V*0D
$GPHDT,,T*1B
$GNACCURACY,4.3*11
$GNGGA,040600.300,2500.8080287,N,12132.4783643,E,2,54,0.52,17.030,M,15.25,M,1,3335*47
$GNRMC,040600.300,A,2500.8080287,N,12132.4783643,E,0.04,355.73,030324,,,D,V*0B
$GPHDT,,T*1B
$GNACCURACY,4.3*11
$GNGGA,040600.400,2500.8080287,N,12132.4783643,E,2,54,0.52,17.030,M,15.25,M,1,3335*40
$GNRMC,040600.400,A,2500.8080287,N,12132.4783643,E,0.04,355.73,030324,,,D,V*0C
$GPHDT,,T*1B
$GNACCURACY,4.3*11
$GNGGA,040600.500,2500.8080287,N,12132.4783643,E,2,53,0.52,17.030,M,15.25,M,1,3335*46
$GNRMC,040600.500,A,2500.8080287,N,12132.4783643,E,0.04,355.73,030324,,,D,V*0D
$GPHDT,,T*1B
$GNACCURACY,4.3*11
$GNGGA,040600.600,2500.8080287,N,12132.4783643,E,2,53,0.52,17.029,M,15.25,M,0,3335*4C
$GNRMC,040600.600,A,2500.8080287,N,12132.4783643,E,0.04,355.73,030324,,,D,V*0E
$GPHDT,,T*1B
$GNACCURACY,4.3*11
$GNGGA,040600.700,2500.8080347,N,12132.4783703,E,2,54,0.52,17.028,M,15.25,M,0,3335*43
$GNRMC,040600.700,A,2500.8080347,N,12132.4783703,E,0.09,355.73,030324,,,D,V*0A
$GPHDT,,T*1B
$GNACCURACY,4.3*11
$GNGGA,040600.800,2500.8080347,N,12132.4783643,E,2,54,0.52,17.030,M,15.25,M,0,3335*40
$GNRMC,040600.800,A,2500.8080347,N,12132.4783643,E,0.06,355.73,030324,,,D,V*0F
$GPHDT,,T*1B
$GNACCURACY,4.3*11
$GNGGA,040600.900,2500.8080287,N,12132.4783643,E,2,53,0.52,17.034,M,15.25,M,0,3335*4F
$GNRMC,040600.900,A,2500.8080287,N,12132.4783643,E,0.09,355.73,030324,,,D,V*0C
$GPHDT,,T*1B
$GNACCURACY,4.3*11
$GNGGA,040601.000,2500.8080287,N,12132.4783643,E,2,53,0.52,17.036,M,15.25,M,1,3335*44
$GNRMC,040601.000,A,2500.8080287,N,12132.4783643,E,0.04,355.73,030324,,,D,V*09
$GPHDT,,T*1B
$GNACCURACY,4.4*16
$GNGGA,040601.100,2500.8080287,N,12132.4783643,E,2,54,0.52,17.038,M,15.25,M,1,3335*4C
$GNRMC,040601.100,A,2500.8080287,N,12132.4783643,E,0.07,355.73,030324,,,D,V*0B
$GPHDT,,T*1B
$GNGSA,A,3,08,194,199,195,21,27,02,07,09,04,196,31,0.80,0.52,0.61,1*03
$GNGSA,A,3,82,83,80,79,81,,,,,,,,0.80,0.52,0.61,2*04
$GNGSA,A,3,30,15,34,27,07,,,,,,,,0.80,0.52,0.61,3*09
$GNGSA,A,3,34,06,16,09,11,39,40,07,25,12,24,43,0.80,0.52,0.61,4*0F
$GNGSA,A,3,23,,,,,,,,,,,,0.80,0.52,0.61,4*0D
$GPGSV,4,1,15,08,70,325,47,194,63,048,41,199,60,167,34,50,60,167,36,1*6B
$GPGSV,4,2,15,195,60,121,35,21,46,166,47,27,44,030,31,02,34,180,37,1*56
$GPGSV,4,3,15,16,32,062,17,07,30,320,33,09,29,260,23,04,27,212,28,1*6B
$GPGSV,4,4,15,196,20,172,37,26,14,089,21,31,10,140,28,1*63
$GPGSV,2,1,08,08,70,325,49,194,63,048,42,195,60,121,43,199,60,167,42,8*5C
$GPGSV,2,2,08,27,44,030,26,09,29,260,26,196,20,172,38,26,14,089,26,8*52
$GLGSV,2,1,08,82,65,047,42,83,61,178,26,80,49,015,38,79,33,090,34,1*73
$GLGSV,2,2,08,81,17,028,25,73,14,323,20,71,05,301,32,84,02,199,,1*7C
$GAGSV,2,1,06,30,50,034,32,15,47,150,42,34,43,070,32,27,37,317,39,7*7B
$GAGSV,2,2,06,07,33,233,25,08,11,182,23,7*75
$GAGSV,2,1,07,30,50,034,35,15,47,150,44,34,43,070,39,27,37,317,40,1*78
$GAGSV,2,2,07,07,33,233,25,02,15,082,24,08,11,182,27,1*4C
$GBGSV,4,1,15,34,82,064,44,06,78,217,38,16,75,195,42,09,75,288,42,1*7F
$GBGSV,4,2,15,11,70,198,35,39,64,181,34,40,64,320,41,07,62,299,31,1*73
$GBGSV,4,3,15,25,59,346,46,10,52,281,29,12,50,042,34,24,49,098,39,1*7C
$GBGSV,4,4,15,43,45,214,36,44,26,040,,23,15,315,38,1*4F
$GBGSV,2,1,07,34,82,064,47,40,64,320,45,39,64,181,36,25,59,346,47,4*71
$GBGSV,2,2,07,24,49,098,40,43,45,214,20,23,15,315,40,4*4F
$GNACCURACY,4.4*16
$PAIRSAT,1,30,2,0,201,3,0,200,4,0,221,5,0,200,6,0,200,7,0,201,8,0,221,9,0,221,10,0,200,11,0,200,12,0,200,13,0,200,14,0,200,15,0,200,16,0,201,17,0,200,21,0,1,24,0,200,25,0,200,26,0,200,27,0,221,28,0,200,29,0,200,30,0,200,31,0,201,32,0,200,194,0,621,195,0,221,196,0,620,199,0,621*74
$PAIRSAT,2,24,65,0,200,66,0,200,67,0,200,68,0,200,69,0,200,70,0,200,71,0,200,72,0,200,73,0,200,74,0,200,75,0,200,76,0,200,77,0,200,78,0,200,79,0,201,80,0,201,81,0,201,82,0,201,83,0,201,84,0,200,85,0,200,86,0,200,87,0,200,88,0,200*7B
$PAIRSAT,3,22,2,0,1000,3,0,1000,4,0,1000,7,0,1021,8,0,1000,9,0,1000,10,0,1000,11,0,1000,12,0,1200,13,0,1200,15,0,1221,19,0,1200,21,0,1200,24,0,200,25,0,200,26,0,200,27,0,221,30,0,1221,31,0,1200,33,0,1200,34,0,1221,36,0,1200*73
$PAIRSAT,4,44,1,0,200,2,0,200,3,0,600,4,0,200,5,0,200,6,0,201,7,0,201,8,0,200,9,0,201,10,0,200,11,0,201,12,0,201,16,0,1,19,0,600,20,0,600,21,0,600,22,0,600,23,0,621,24,0,621,25,0,621,26,0,600,27,0,600,28,0,600,29,0,600,30,0,600,32,0,600,33,0,400,34,0,421,35,0,400,36,0,400,37,0,400,38,0,400,39,0,421,40,0,421,41,0,400,42,0,400,43,0,421,44,0,421,45,0,400,46,0,400,59,0,400,60,0,400,61,0,400,62,0,400*4E
$PAIRDGP,9,2,4,7,8,9,16,21,27,31*53
$GNGGA,040601.200,2500.8080287,N,12132.4783643,E,2,54,0.52,17.040,M,15.25,M,1,3335*40
$GNRMC,040601.200,A,2500.8080287,N,12132.4783643,E,0.05,355.73,030324,,,D,V*0A
$GPHDT,,T*1B
$GNACCURACY,4.4*16
$GNGGA,040601.300,2500.8080287,N,12132.4783643,E,2,54,0.52,17.041,M,15.25,M,1,3335*40
$GNRMC,040601.300,A,2500.8080287,N,12132.4783643,E,0.04,355.73,030324,,,D,V*0A
$GPHDT,,T*1B
$GNACCURACY,4.4*16
$GNGGA,040601.400,2500.8080287,N,12132.4783643,E,2,54,0.52,17.043,M,15.25,M,1,3335*45
$GNRMC,040601.400,A,2500.8080287,N,12132.4783643,E,0.04,355.73,030324,,,D,V*0D
$GPHDT,,T*1B
$GNACCURACY,4.4*16
$GNGGA,040601.500,2500.8080287,N,12132.4783583,E,2,54,0.52,17.044,M,15.25,M,1,3335*4C
$GNRMC,040601.500,A,2500.8080287,N,12132.4783583,E,0.03,355.73,030324,,,D,V*04
$GPHDT,,T*1B
$GNACCURACY,4.4*16
$GNGGA,040601.600,2500.8080287,N,12132.4783583,E,2,54,0.52,17.045,M,15.25,M,1,3335*4E
$GNRMC,040601.600,A,2500.8080287,N,12132.4783583,E,0.03,355.73,030324,,,D,V*07
$GPHDT,,T*1B
$GNACCURACY,4.4*16
$GNGGA,040601.700,2500.8080287,N,12132.4783583,E,2,54,0.52,17.046,M,15.25,M,0,3335*4D
$GNRMC,040601.700,A,2500.8080287,N,12132.4783583,E,0.03,355.73,030324,,,D,V*06
$GPHDT,,T*1B
$GNACCURACY,4.4*16
$GNGGA,040601.800,2500.8080287,N,12132.4783583,E,2,54,0.52,17.047,M,15.25,M,0,3335*43
$GNRMC,040601.800,A,2500.8080287,N,12132.4783583,E,0.10,355.73,030324,,,D,V*0B
$GPHDT,,T*1B
