$FW : RTK35X,V1.1X0314AS,Lib20210517,1*54
$Tool : LOCOSYS , GNSS Firebird , v1.0.0.19*39
$---------------------------------------------------*2D
$GNACCURACY,4.5*17
$GNGGA,040521.800,2500.8079147,N,12132.4782143,E,2,54,0.52,17.016,M,15.25,M,0,3335*46
$GNRMC,040521.800,A,2500.8079147,N,12132.4782143,E,0.08,355.73,030324,,,D,V*03
$GPHDT,,T*1B
$GNACCURACY,4.5*17
$GNGGA,040521.900,2500.8079147,N,12132.4782143,E,2,54,0.52,17.016,M,15.25,M,0,3335*47
$GNRMC,040521.900,A,2500.8079147,N,12132.4782143,E,0.16,355.73,030324,,,D,V*0D
$GPHDT,,T*1B
$GNACCURACY,4.5*17
$GNGGA,040522.000,2500.8079207,N,12132.4782143,E,2,54,0.52,17.016,M,15.25,M,1,3335*4B
$GNRMC,040522.000,A,2500.8079207,N,12132.4782143,E,0.06,355.73,030324,,,D,V*01
$GPHDT,,T*1B
$GNACCURACY,4.5*17
$GNGGA,040522.100,2500.8079207,N,12132.4782143,E,2,54,0.52,17.016,M,15.25,M,1,3335*4A
$GNRMC,040522.100,A,2500.8079207,N,12132.4782143,E,0.05,355.73,030324,,,D,V*03
$GPHDT,,T*1B
$GNGSA,A,3,08,194,199,195,21,27,02,07,09,04,196,31,0.80,0.52,0.61,1*03
$GNGSA,A,3,82,83,80,79,81,,,,,,,,0.80,0.52,0.61,2*04
$GNGSA,A,3,30,15,34,27,07,,,,,,,,0.80,0.52,0.61,3*09
$GNGSA,A,3,34,06,09,16,11,39,40,07,25,12,24,43,0.80,0.52,0.61,4*0F
$GNGSA,A,3,23,,,,,,,,,,,,0.80,0.52,0.61,4*0D
$GPGSV,4,1,15,08,70,325,47,194,63,048,41,199,60,167,34,50,60,167,35,1*68
$GPGSV,4,2,15,195,60,121,28,21,46,166,41,27,44,029,40,02,34,180,32,1*57
$GPGSV,4,3,15,16,32,062,20,07,30,320,27,09,29,260,15,04,27,212,18,1*6C
$GPGSV,4,4,15,196,20,172,34,26,14,089,23,31,10,140,32,1*69
$GPGSV,2,1,08,08,70,325,49,194,63,048,42,195,60,121,30,199,60,167,39,8*54
$GPGSV,2,2,08,27,44,029,36,09,29,260,26,04,27,212,23,196,20,172,36,8*50
$GLGSV,2,1,05,82,65,048,40,83,61,178,28,80,49,015,43,79,33,089,31,1*7C
$GLGSV,2,2,05,81,17,028,40,1*4C
$GAGSV,2,1,07,30,50,033,29,15,47,150,32,34,43,071,29,27,37,316,40,7*74
$GAGSV,2,2,07,07,33,233,27,02,15,082,18,08,12,182,18,7*48
$GAGSV,2,1,07,30,50,033,37,15,47,150,32,34,43,071,34,27,37,316,33,1*75
$GAGSV,2,2,07,07,33,233,26,02,15,082,23,08,12,182,27,1*4B
$GBGSV,4,1,16,34,82,066,42,06,78,217,41,09,75,289,39,16,75,195,45,1*7C
$GBGSV,4,2,16,11,70,198,41,39,64,181,37,40,64,320,46,07,62,299,29,1*7E
$GBGSV,4,3,16,25,59,346,45,10,52,281,19,12,50,042,20,24,49,098,33,1*70
$GBGSV,4,4,16,43,45,214,28,44,27,040,,23,15,315,39,26,05,121,,1*70
$GBGSV,2,1,06,34,82,066,43,40,64,320,45,39,64,181,38,25,59,346,45,4*7A
$GBGSV,2,2,06,24,49,098,31,23,15,315,34,4*78
$GNACCURACY,4.5*17
$PAIRSAT,1,29,2,0,201,3,0,200,4,0,221,5,0,200,6,0,200,7,0,201,8,0,221,9,0,221,10,0,200,11,0,200,12,0,200,13,0,200,14,0,200,15,0,200,16,0,201,21,0,1,24,0,200,25,0,200,26,0,200,27,0,221,28,0,200,29,0,200,30,0,200,31,0,201,32,0,200,194,0,621,195,0,221,196,0,620,199,0,621*54
$PAIRSAT,2,24,65,0,200,66,0,200,67,0,200,68,0,200,69,0,200,70,0,200,71,0,200,72,0,200,73,0,200,74,0,200,75,0,200,76,0,200,77,0,200,78,0,200,79,0,201,80,0,201,81,0,201,82,0,201,83,0,201,84,0,200,85,0,200,86,0,200,87,0,200,88,0,200*7B
$PAIRSAT,3,22,2,0,1000,3,0,1000,4,0,1000,7,0,1021,8,0,1000,9,0,1000,10,0,1000,11,0,1000,12,0,1200,13,0,1200,15,0,1221,19,0,1200,21,0,1200,24,0,200,25,0,200,26,0,200,27,0,221,30,0,1221,31,0,1200,33,0,1200,34,0,1221,36,0,1000*71
$PAIRSAT,4,44,1,0,200,2,0,200,3,0,600,4,0,200,5,0,200,6,0,201,7,0,201,8,0,200,9,0,201,10,0,200,11,0,201,12,0,1,16,0,1,19,0,600,20,0,600,21,0,600,22,0,600,23,0,621,24,0,621,25,0,621,26,0,600,27,0,600,28,0,600,29,0,600,30,0,600,32,0,400,33,0,400,34,0,421,35,0,400,36,0,400,37,0,400,38,0,400,39,0,421,40,0,421,41,0,400,42,0,400,43,0,421,44,0,421,45,0,400,46,0,400,59,0,400,60,0,400,61,0,400,62,0,400*4E
$PAIRDGP,7,2,4,7,8,9,16,21*5A
$GNGGA,040522.200,2500.8079207,N,12132.4782143,E,2,54,0.52,17.016,M,15.25,M,1,3335*49
$GNRMC,040522.200,A,2500.8079207,N,12132.4782143,E,0.02,355.73,030324,,,D,V*07
$GPHDT,,T*1B
$GNACCURACY,4.6*14
$GNGGA,040522.300,2500.8079207,N,12132.4782143,E,2,54,0.52,17.017,M,15.25,M,1,3335*49
$GNRMC,040522.300,A,2500.8079207,N,12132.4782143,E,0.03,355.73,030324,,,D,V*07
$GPHDT,,T*1B
$GNACCURACY,4.6*14
$GNGGA,040522.400,2500.8079207,N,12132.4782143,E,2,54,0.52,17.017,M,15.25,M,1,3335*4E
$GNRMC,040522.400,A,2500.8079207,N,12132.4782143,E,0.05,355.73,030324,,,D,V*06
$GPHDT,,T*1B
$GNACCURACY,4.6*14
$GNGGA,040522.500,2500.8079207,N,12132.4782143,E,2,54,0.52,17.017,M,15.25,M,1,3335*4F
$GNRMC,040522.500,A,2500.8079207,N,12132.4782143,E,0.04,355.73,030324,,,D,V*06
$GPHDT,,T*1B
$GNACCURACY,4.6*14
$GNGGA,040522.600,2500.8079207,N,12132.4782203,E,2,54,0.52,17.018,M,15.25,M,0,3335*45
$GNRMC,040522.600,A,2500.8079207,N,12132.4782203,E,0.04,355.73,030324,,,D,V*02
$GPHDT,,T*1B
$GNACCURACY,4.6*14
$GNGGA,040522.700,2500.8079267,N,12132.4782203,E,2,54,0.52,17.018,M,15.25,M,0,3335*42
$GNRMC,040522.700,A,2500.8079267,N,12132.4782203,E,0.04,355.73,030324,,,D,V*05
$GPHDT,,T*1B
$GNACCURACY,4.6*14
$GNGGA,040522.800,2500.8079267,N,12132.4782203,E,2,54,0.52,17.018,M,15.25,M,0,3335*4D
$GNRMC,040522.800,A,2500.8079267,N,12132.4782203,E,0.05,355.73,030324,,,D,V*0B
$GPHDT,,T*1B
$GNACCURACY,4.6*14
$GNGGA,040522.900,2500.8079267,N,12132.4782203,E,2,54,0.52,17.018,M,15.25,M,0,3335*4C
$GNRMC,040522.900,A,2500.8079267,N,12132.4782203,E,0.19,355.73,030324,,,D,V*07
$GPHDT,,T*1B
$GNACCURACY,4.6*14
$GNGGA,040523.000,2500.8079267,N,12132.4782203,E,2,54,0.52,17.017,M,15.25,M,1,3335*4A
$GNRMC,040523.000,A,2500.8079267,N,12132.4782203,E,0.16,355.73,030324,,,D,V*00
$GPHDT,,T*1B
$GNACCURACY,4.6*14
$GNGGA,040523.100,2500.8079267,N,12132.4782263,E,2,54,0.52,17.016,M,15.25,M,1,3335*4C
$GNRMC,040523.100,A,2500.8079267,N,12132.4782263,E,0.09,355.73,030324,,,D,V*09
$GPHDT,,T*1B
$GNGSA,A,3,08,194,199,195,21,27,02,07,09,04,196,31,0.80,0.52,0.61,1*03
$GNGSA,A,3,82,83,80,79,81,,,,,,,,0.80,0.52,0.61,2*04
$GNGSA,A,3,30,15,34,27,07,,,,,,,,0.80,0.52,0.61,3*09
$GNGSA,A,3,34,06,16,09,11,39,40,07,25,12,24,43,0.80,0.52,0.61,4*0F
$GNGSA,A,3,23,,,,,,,,,,,,0.80,0.52,0.61,4*0D
$GPGSV,4,1,16,08,70,325,47,194,63,048,41,199,60,167,34,50,60,167,36,1*68
$GPGSV,4,2,16,195,60,121,30,21,46,166,44,27,44,029,39,02,34,180,33,1*57
$GPGSV,4,3,16,16,32,062,22,07,30,320,29,09,29,260,18,04,27,212,18,1*6E
$GPGSV,4,4,16,196,20,172,36,26,14,089,21,31,10,140,32,30,01,319,,1*53
$GPGSV,2,1,08,08,70,325,49,194,63,048,43,195,60,121,32,199,60,167,40,8*59
$GPGSV,2,2,08,27,44,029,36,09,29,260,26,04,27,212,22,196,20,172,37,8*50
$GLGSV,2,1,07,82,65,048,42,83,61,178,27,80,49,015,43,79,33,089,33,1*71
$GLGSV,2,2,07,81,17,028,40,73,14,323,,70,08,255,,1*40
$GAGSV,2,1,07,30,50,033,30,15,47,150,37,34,43,070,29,27,37,316,38,7*77
$GAGSV,2,2,07,07,33,233,26,02,15,082,16,08,12,182,18,7*47
$GAGSV,2,1,07,30,50,033,36,15,47,150,34,34,43,070,33,27,37,316,33,1*74
$GAGSV,2,2,07,07,33,233,26,02,15,082,24,08,12,182,28,1*43
$GBGSV,4,1,16,34,82,066,44,06,78,217,41,16,75,195,45,09,75,289,38,1*7B
$GBGSV,4,2,16,11,70,198,41,39,64,181,37,40,64,320,46,07,62,299,31,1*77
$GBGSV,4,3,16,25,59,346,45,10,52,281,18,12,50,042,19,24,49,098,34,1*7C
$GBGSV,4,4,16,43,45,214,29,44,27,040,,23,15,315,37,26,05,121,,1*7F
$GBGSV,2,1,06,34,82,066,43,40,64,320,44,39,64,181,38,25,59,346,46,4*78
$GBGSV,2,2,06,24,49,098,30,23,15,315,35,4*78
$GNACCURACY,4.6*14
$PAIRSAT,1,29,2,0,201,3,0,200,4,0,221,5,0,200,6,0,200,7,0,201,8,0,221,9,0,221,10,0,200,11,0,200,12,0,200,13,0,200,14,0,200,15,0,200,16,0,201,21,0,1,24,0,200,25,0,200,26,0,200,27,0,221,28,0,200,29,0,200,30,0,200,31,0,201,32,0,200,194,0,621,195,0,221,196,0,620,199,0,621*54
$PAIRSAT,2,24,65,0,200,66,0,200,67,0,200,68,0,200,69,0,200,70,0,200,71,0,200,72,0,200,73,0,200,74,0,200,75,0,200,76,0,200,77,0,200,78,0,200,79,0,201,80,0,201,81,0,201,82,0,201,83,0,201,84,0,200,85,0,200,86,0,200,87,0,200,88,0,200*7B
$PAIRSAT,3,22,2,0,1000,3,0,1000,4,0,1000,7,0,1021,8,0,1000,9,0,1000,10,0,1000,11,0,1000,12,0,1200,13,0,1200,15,0,1221,19,0,1200,21,0,1200,24,0,200,25,0,200,26,0,200,27,0,221,30,0,1221,31,0,1200,33,0,1200,34,0,1221,36,0,1200*73
$PAIRSAT,4,44,1,0,200,2,0,200,3,0,600,4,0,200,5,0,200,6,0,201,7,0,201,8,0,200,9,0,201,10,0,200,11,0,201,12,0,1,16,0,1,19,0,600,20,0,600,21,0,600,22,0,600,23,0,621,24,0,621,25,0,621,26,0,600,27,0,600,28,0,600,29,0,600,30,0,600,32,0,400,33,0,400,34,0,421,35,0,400,36,0,400,37,0,400,38,0,400,39,0,421,40,0,421,41,0,400,42,0,400,43,0,421,44,0,421,45,0,400,46,0,400,59,0,400,60,0,400,61,0,400,62,0,400*4E
$PAIRDGP,7,2,4,7,8,9,16,21*5A
$GNGGA,040523.200,2500.8079267,N,12132.4782263,E,2,54,0.52,17.015,M,15.25,M,1,3335*4C
$GNRMC,040523.200,A,2500.8079267,N,12132.4782263,E,0.10,355.73,030324,,,D,V*02
$GPHDT,,T*1B
$GNACCURACY,4.6*14
$GNGGA,040523.300,2500.8079327,N,12132.4782263,E,2,54,0.52,17.014,M,15.25,M,1,3335*49
$GNRMC,040523.300,A,2500.8079327,N,12132.4782263,E,0.09,355.73,030324,,,D,V*0E
$GPHDT,,T*1B
$GNACCURACY,4.6*14
$GNGGA,040523.400,2500.8079327,N,12132.4782263,E,2,54,0.52,17.013,M,15.25,M,1,3335*49
$GNRMC,040523.400,A,2500.8079327,N,12132.4782263,E,0.09,355.73,030324,,,D,V*09
$GPHDT,,T*1B
$GNACCURACY,4.6*14
$GNGGA,040523.500,2500.8079327,N,12132.4782323,E,2,54,0.52,17.012,M,15.25,M,1,3335*4C
$GNRMC,040523.500,A,2500.8079327,N,12132.4782323,E,0.04,355.73,030324,,,D,V*00
$GPHDT,,T*1B
$GNACCURACY,4.6*14
$GNGGA,040523.600,2500.8079327,N,12132.4782323,E,2,54,0.52,17.010,M,15.25,M,0,3335*4C
$GNRMC,040523.600,A,2500.8079327,N,12132.4782323,E,0.06,355.73,030324,,,D,V*01
$GPHDT,,T*1B
$GNACCURACY,4.6*14
$GNGGA,040523.700,2500.8079327,N,12132.4782323,E,2,54,0.52,17.009,M,15.25,M,0,3335*45
$GNRMC,040523.700,A,2500.8079327,N,12132.4782323,E,0.12,355.73,030324,,,D,V*05
$GPHDT,,T*1B
$GNACCURACY,4.7*15
$GNGGA,040523.800,2500.8079327,N,12132.4782323,E,2,54,0.52,17.010,M,15.25,M,0,3335*42
$GNRMC,040523.800,A,2500.8079327,N,12132.4782323,E,0.11,355.73,030324,,,D,V*09
$GPHDT,,T*1B
$GNACCURACY,4.7*15
$GNGGA,040523.900,2500.8079327,N,12132.4782323,E,2,53,0.52,17.010,M,15.25,M,0,3335*44
$GNRMC,040523.900,A,2500.8079327,N,12132.4782323,E,0.05,355.73,030324,,,D,V*0D
$GPHDT,,T*1B
$GNACCURACY,4.7*15
$GNGGA,040524.000,2500.8079387,N,12132.4782323,E,2,53,0.52,17.010,M,15.25,M,1,3335*41
$GNRMC,040524.000,A,2500.8079387,N,12132.4782323,E,0.04,355.73,030324,,,D,V*08
$GPHDT,,T*1B
$GNACCURACY,4.7*15
$GNGGA,040524.100,2500.8079387,N,12132.4782323,E,2,53,0.52,17.010,M,15.25,M,1,3335*40
$GNRMC,040524.100,A,2500.8079387,N,12132.4782323,E,0.02,355.73,030324,,,D,V*0F
$GPHDT,,T*1B
$GNGSA,A,3,08,194,199,21,27,02,07,09,04,196,31,195,0.80,0.52,0.61,1*03
$GNGSA,A,3,82,83,80,79,81,,,,,,,,0.80,0.52,0.61,2*04
$GNGSA,A,3,30,15,34,27,07,,,,,,,,0.80,0.52,0.61,3*09
$GNGSA,A,3,34,06,16,09,11,39,40,07,25,12,24,43,0.80,0.52,0.61,4*0F
$GNGSA,A,3,23,,,,,,,,,,,,0.80,0.52,0.61,4*0D
$GPGSV,4,1,15,08,70,325,48,194,63,048,37,199,60,167,30,50,60,167,32,1*65
$GPGSV,4,2,15,195,60,121,21,21,46,166,42,27,44,029,39,02,34,180,28,1*58
$GPGSV,4,3,15,16,32,062,18,07,30,320,24,09,29,260,15,04,27,212,20,1*6F
$GPGSV,4,4,15,196,20,172,30,26,14,089,22,31,10,140,31,1*6F
$GPGSV,2,1,08,08,70,325,49,194,63,048,37,195,60,121,29,199,60,167,40,8*50
$GPGSV,2,2,08,27,44,029,34,09,29,260,23,04,27,212,22,196,20,172,31,8*51
$GLGSV,2,1,07,82,65,048,36,83,61,178,26,80,49,015,40,79,33,089,25,1*77
$GLGSV,2,2,07,81,17,028,40,71,05,301,,84,02,199,,1*40
$GAGSV,2,1,08,30,50,033,30,15,47,150,36,34,43,070,25,27,37,316,40,7*7A
$GAGSV,2,2,08,07,33,233,24,02,15,082,17,08,12,182,19,36,04,035,,7*7D
$GAGSV,2,1,07,30,50,033,31,15,47,150,36,34,43,070,30,27,37,316,33,1*72
$GAGSV,2,2,07,07,33,233,26,02,15,082,23,08,12,182,24,1*48
$GBGSV,5,1,18,34,82,066,41,06,78,217,41,16,75,195,45,09,75,289,39,1*70
$GBGSV,5,2,18,11,70,198,40,39,64,181,31,40,64,320,46,07,62,299,34,1*7A
$GBGSV,5,3,18,25,59,346,45,10,52,281,22,12,50,042,20,24,49,098,30,1*74
$GBGSV,5,4,18,43,45,214,26,44,27,040,,23,15,315,37,26,05,121,,1*7F
$GBGSV,5,5,18,33,02,211,,41,02,257,,1*78
$GBGSV,2,1,06,34,82,066,44,40,64,320,44,39,64,181,37,25,59,346,45,4*73
$GBGSV,2,2,06,24,49,098,23,23,15,315,32,4*7D
$GNACCURACY,4.7*15
$PAIRSAT,1,29,2,0,201,3,0,200,4,0,221,5,0,200,6,0,200,7,0,201,8,0,221,9,0,221,10,0,200,11,0,200,12,0,200,13,0,200,14,0,200,15,0,200,16,0,201,21,0,1,24,0,200,25,0,200,26,0,200,27,0,221,28,0,200,29,0,200,30,0,200,31,0,201,32,0,200,194,0,621,195,0,221,196,0,620,199,0,621*54
$PAIRSAT,2,24,65,0,200,66,0,200,67,0,200,68,0,200,69,0,200,70,0,200,71,0,200,72,0,200,73,0,200,74,0,200,75,0,200,76,0,200,77,0,200,78,0,200,79,0,201,80,0,201,81,0,201,82,0,201,83,0,201,84,0,200,85,0,200,86,0,200,87,0,200,88,0,200*7B
$PAIRSAT,3,22,2,0,1000,3,0,1000,4,0,1000,7,0,1021,8,0,1000,9,0,1000,10,0,1000,11,0,1000,12,0,1200,13,0,1200,15,0,1221,19,0,1200,21,0,1200,24,0,200,25,0,200,26,0,200,27,0,221,30,0,1221,31,0,1200,33,0,1200,34,0,1221,36,0,1200*73
$PAIRSAT,4,44,1,0,200,2,0,200,3,0,600,4,0,200,5,0,200,6,0,201,7,0,201,8,0,200,9,0,201,10,0,200,11,0,201,12,0,1,16,0,1,19,0,600,20,0,600,21,0,600,22,0,600,23,0,621,24,0,621,25,0,621,26,0,600,27,0,600,28,0,600,29,0,600,30,0,600,32,0,400,33,0,400,34,0,421,35,0,400,36,0,400,37,0,400,38,0,400,39,0,421,40,0,421,41,0,400,42,0,400,43,0,421,44,0,421,45,0,400,46,0,400,59,0,400,60,0,400,61,0,400,62,0,400*4E
$PAIRDGP,8,2,4,7,8,9,16,21,27*7C
$GNGGA,040524.200,2500.8079387,N,12132.4782323,E,2,53,0.52,17.010,M,15.25,M,1,3335*43
$GNRMC,040524.200,A,2500.8079387,N,12132.4782323,E,0.03,355.73,030324,,,D,V*0D
$GPHDT,,T*1B
$GNACCURACY,4.3*11
$GNGGA,040524.300,2500.8079387,N,12132.4782323,E,2,54,0.52,17.010,M,15.25,M,1,3335*45
$GNRMC,040524.300,A,2500.8079387,N,12132.4782323,E,0.04,355.73,030324,,,D,V*0B
$GPHDT,,T*1B
$GNACCURACY,4.3*11
$GNGGA,040524.400,2500.8079387,N,12132.4782323,E,2,53,0.52,17.010,M,15.25,M,1,3335*45
$GNRMC,040524.400,A,2500.8079387,N,12132.4782323,E,0.02,355.73,030324,,,D,V*0A
$GPHDT,,T*1B
$GNACCURACY,4.3*11
$GNGGA,040524.500,2500.8079387,N,12132.4782383,E,2,53,0.52,17.010,M,15.25,M,0,3335*4F
$GNRMC,040524.500,A,2500.8079387,N,12132.4782383,E,0.07,355.73,030324,,,D,V*04
$GPHDT,,T*1B
$GNACCURACY,4.3*11
$GNGGA,040524.600,2500.8079387,N,12132.4782323,E,2,53,0.52,17.009,M,15.25,M,0,3335*4E
$GNRMC,040524.600,A,2500.8079387,N,12132.4782323,E,0.02,355.73,030324,,,D,V*08
$GPHDT,,T*1B
$GNACCURACY,4.3*11
$GNGGA,040524.700,2500.8079387,N,12132.4782323,E,2,53,0.52,17.008,M,15.25,M,0,3335*4E
$GNRMC,040524.700,A,2500.8079387,N,12132.4782323,E,0.10,355.73,030324,,,D,V*0A
$GPHDT,,T*1B
$GNACCURACY,4.3*11
$GNGGA,040524.800,2500.8079387,N,12132.4782323,E,2,53,0.52,17.009,M,15.25,M,0,3335*40
$GNRMC,040524.800,A,2500.8079387,N,12132.4782323,E,0.10,355.73,030324,,,D,V*05
$GPHDT,,T*1B
$GNACCURACY,4.3*11
$GNGGA,040524.900,2500.8079387,N,12132.4782383,E,2,54,0.52,17.011,M,15.25,M,0,3335*45
$GNRMC,040524.900,A,2500.8079387,N,12132.4782383,E,0.12,355.73,030324,,,D,V*0C
$GPHDT,,T*1B
$GNACCURACY,4.3*11
$GNGGA,040525.000,2500.8079447,N,12132.4782383,E,2,53,0.52,17.012,M,15.25,M,1,3335*43
$GNRMC,040525.000,A,2500.8079447,N,12132.4782383,E,0.05,355.73,030324,,,D,V*09
$GPHDT,,T*1B
$GNACCURACY,4.3*11
$GNGGA,040525.100,2500.8079447,N,12132.4782383,E,2,54,0.52,17.012,M,15.25,M,1,3335*45
$GNRMC,040525.100,A,2500.8079447,N,12132.4782383,E,0.05,355.73,030324,,,D,V*08
$GPHDT,,T*1B
$GNGSA,A,3,08,194,199,195,21,27,02,07,09,04,196,31,0.80,0.52,0.61,1*03
$GNGSA,A,3,82,83,80,79,81,,,,,,,,0.80,0.52,0.61,2*04
$GNGSA,A,3,30,15,34,27,07,,,,,,,,0.80,0.52,0.61,3*09
$GNGSA,A,3,34,06,09,16,11,40,39,07,25,12,24,43,0.80,0.52,0.61,4*0F
$GNGSA,A,3,23,,,,,,,,,,,,0.80,0.52,0.61,4*0D
$GPGSV,4,1,16,08,70,325,48,194,63,048,35,199,60,167,31,50,60,167,33,1*64
$GPGSV,4,2,16,195,60,121,21,21,46,166,41,27,44,029,38,02,34,180,29,1*58
$GPGSV,4,3,16,16,32,062,19,07,30,320,23,09,29,260,16,04,27,212,21,1*68
$GPGSV,4,4,16,196,20,172,32,26,14,089,23,31,10,140,31,30,01,319,,1*56
$GPGSV,2,1,08,08,70,325,49,194,63,048,38,195,60,121,29,199,60,167,41,8*5E
$GPGSV,2,2,08,27,44,029,34,09,29,260,20,04,27,212,20,196,20,172,32,8*53
$GLGSV,2,1,05,82,65,048,37,83,61,178,26,80,49,015,40,79,33,089,28,1*79
$GLGSV,2,2,05,81,17,028,40,1*4C
$GAGSV,2,1,07,30,50,033,31,15,47,150,36,34,43,070,26,27,37,316,41,7*76
$GAGSV,2,2,07,07,33,233,24,02,15,082,18,08,12,182,19,7*4A
$GAGSV,2,1,07,30,50,033,31,15,47,150,36,34,43,070,30,27,37,316,32,1*73
$GAGSV,2,2,07,07,33,233,27,02,15,082,21,08,12,182,24,1*4B
$GBGSV,4,1,16,34,82,066,43,06,78,217,41,09,75,289,41,16,75,195,45,1*72
$GBGSV,4,2,16,11,70,198,40,40,64,320,46,39,64,181,34,07,62,299,35,1*71
$GBGSV,4,3,16,25,59,346,45,10,52,281,23,12,50,042,23,24,49,098,32,1*7B
$GBGSV,4,4,16,43,45,214,21,44,27,040,,23,15,315,39,41,02,257,,1*7D
$GBGSV,2,1,06,34,82,066,44,40,64,320,44,39,64,181,36,25,59,346,45,4*72
$GBGSV,2,2,06,24,49,098,24,23,15,315,35,4*7D
$GNACCURACY,4.3*11
$PAIRSAT,1,29,2,0,201,3,0,200,4,0,221,5,0,200,6,0,200,7,0,201,8,0,221,9,0,221,10,0,200,11,0,200,12,0,200,13,0,200,14,0,200,15,0,200,16,0,201,21,0,1,24,0,200,25,0,200,26,0,200,27,0,221,28,0,200,29,0,200,30,0,200,31,0,201,32,0,200,194,0,621,195,0,221,196,0,620,199,0,621*54
$PAIRSAT,2,24,65,0,200,66,0,200,67,0,200,68,0,200,69,0,200,70,0,200,71,0,200,72,0,200,73,0,200,74,0,200,75,0,200,76,0,200,77,0,200,78,0,200,79,0,201,80,0,201,81,0,201,82,0,201,83,0,201,84,0,200,85,0,200,86,0,200,87,0,200,88,0,200*7B
$PAIRSAT,3,22,2,0,1000,3,0,1000,4,0,1000,7,0,1021,8,0,1000,9,0,1000,10,0,1000,11,0,1000,12,0,1200,13,0,1200,15,0,1221,19,0,1200,21,0,1200,24,0,200,25,0,200,26,0,200,27,0,221,30,0,1221,31,0,1200,33,0,1200,34,0,1221,36,0,1200*73
$PAIRSAT,4,44,1,0,200,2,0,200,3,0,600,4,0,200,5,0,200,6,0,201,7,0,201,8,0,200,9,0,201,10,0,200,11,0,201,12,0,1,16,0,1,19,0,600,20,0,600,21,0,600,22,0,600,23,0,621,24,0,621,25,0,621,26,0,600,27,0,600,28,0,600,29,0,600,30,0,600,32,0,400,33,0,400,34,0,421,35,0,400,36,0,400,37,0,400,38,0,400,39,0,421,40,0,421,41,0,400,42,0,400,43,0,421,44,0,421,45,0,400,46,0,400,59,0,400,60,0,400,61,0,400,62,0,400*4E
$PAIRDGP,8,2,4,7,8,9,16,21,27*7C
$GNGGA,040525.200,2500.8079447,N,12132.4782383,E,2,54,0.52,17.012,M,15.25,M,1,3335*46
$GNRMC,040525.200,A,2500.8079447,N,12132.4782383,E,0.07,355.73,030324,,,D,V*09
$GPHDT,,T*1B
$GNACCURACY,4.3*11
$GNGGA,040525.300,2500.8079447,N,12132.4782383,E,2,54,0.52,17.010,M,15.25,M,1,3335*45
$GNRMC,040525.300,A,2500.8079447,N,12132.4782383,E,0.08,355.73,030324,,,D,V*07
$GPHDT,,T*1B
$GNACCURACY,4.3*11
$GNGGA,040525.400,2500.8079447,N,12132.4782383,E,2,54,0.52,17.009,M,15.25,M,1,3335*4A
$GNRMC,040525.400,A,2500.8079447,N,12132.4782383,E,0.06,355.73,030324,,,D,V*0E
$GPHDT,,T*1B
$GNACCURACY,4.3*11
$GNGGA,040525.500,2500.8079447,N,12132.4782383,E,2,54,0.52,17.009,M,15.25,M,1,3335*4B
$GNRMC,040525.500,A,2500.8079447,N,12132.4782383,E,0.04,355.73,030324,,,D,V*0D
$GPHDT,,T*1B
$GNACCURACY,4.3*11
$GNGGA,040525.600,2500.8079447,N,12132.4782383,E,2,53,0.52,17.008,M,15.25,M,0,3335*4F
$GNRMC,040525.600,A,2500.8079447,N,12132.4782383,E,0.02,355.73,030324,,,D,V*08
$GPHDT,,T*1B
$GNACCURACY,4.3*11
$GNGGA,040525.700,2500.8079447,N,12132.4782443,E,2,53,0.52,17.008,M,15.25,M,0,3335*45
$GNRMC,040525.700,A,2500.8079447,N,12132.4782443,E,0.04,355.73,030324,,,D,V*04
$GPHDT,,T*1B
$GNACCURACY,4.3*11
$GNGGA,040525.800,2500.8079447,N,12132.4782383,E,2,52,0.53,17.009,M,15.25,M,0,3335*40
$GNRMC,040525.800,A,2500.8079447,N,12132.4782383,E,0.03,355.73,030324,,,D,V*07
$GPHDT,,T*1B
$GNACCURACY,4.3*11
$GNGGA,040525.900,2500.8079447,N,12132.4782443,E,2,52,0.53,17.011,M,15.25,M,0,3335*43
$GNRMC,040525.900,A,2500.8079447,N,12132.4782443,E,0.07,355.73,030324,,,D,V*09
$GPHDT,,T*1B
$GNACCURACY,4.4*16
$GNGGA,040526.000,2500.8079447,N,12132.4782443,E,2,52,0.53,17.013,M,15.25,M,1,3335*4A
$GNRMC,040526.000,A,2500.8079447,N,12132.4782443,E,0.03,355.73,030324,,,D,V*07
$PAIR010,0,1,2304,14744*0D
$GPHDT,,T*1B
$GNACCURACY,4.4*16
$GNGGA,040526.100,2500.8079447,N,12132.4782443,E,2,52,0.53,17.015,M,15.25,M,1,3335*4D
$GNRMC,040526.100,A,2500.8079447,N,12132.4782443,E,0.01,355.73,030324,,,D,V*04
$GPHDT,,T*1B
$GNGSA,A,3,08,194,199,195,21,27,02,09,04,196,31,,0.82,0.53,0.62,1*04
$GNGSA,A,3,82,83,80,79,81,,,,,,,,0.82,0.53,0.62,2*04
$GNGSA,A,3,30,15,34,27,07,,,,,,,,0.82,0.53,0.62,3*09
$GNGSA,A,3,34,06,09,16,11,39,40,07,25,12,24,43,0.82,0.53,0.62,4*0F
$GNGSA,A,3,23,,,,,,,,,,,,0.82,0.53,0.62,4*0D
$GPGSV,4,1,15,08,70,325,48,194,63,048,35,199,60,167,31,50,60,167,34,1*60
$GPGSV,4,2,15,195,60,121,23,21,46,166,43,27,44,029,36,02,34,180,24,1*58
$GPGSV,4,3,15,16,32,062,17,07,30,320,25,09,29,260,16,04,27,212,22,1*60
$GPGSV,4,4,15,196,20,172,31,26,14,089,20,31,10,140,32,1*6F
$GPGSV,2,1,08,08,70,325,49,194,63,048,35,195,60,121,29,199,60,167,41,8*53
$GPGSV,2,2,08,27,44,029,34,09,29,260,21,04,27,212,20,196,20,172,34,8*54
$GLGSV,2,1,05,82,65,048,36,83,61,178,26,80,49,015,40,79,33,089,28,1*78
$GLGSV,2,2,05,81,17,028,41,1*4D
$GAGSV,2,1,07,30,50,033,32,15,47,150,35,34,43,070,26,27,37,316,41,7*76
$GAGSV,2,2,07,07,33,233,23,02,15,082,21,08,12,182,19,7*47
$GAGSV,2,1,07,30,50,033,35,15,47,150,34,34,43,070,28,27,37,316,34,1*7A
$GAGSV,2,2,07,07,33,233,27,02,15,082,21,08,12,182,22,1*4D
$GBGSV,4,1,15,34,82,066,43,06,78,217,41,09,75,289,39,16,75,195,45,1*7E
$GBGSV,4,2,15,11,70,198,40,39,64,181,34,40,64,320,46,07,62,299,34,1*73
$GBGSV,4,3,15,25,59,346,46,10,52,281,23,12,50,042,20,24,49,098,32,1*78
$GBGSV,4,4,15,43,45,214,22,44,27,040,,23,15,315,39,1*4A
$GBGSV,2,1,06,34,82,066,44,40,64,320,44,39,64,181,35,25,59,346,45,4*71
$GBGSV,2,2,06,24,49,098,23,23,15,315,33,4*7C
$GNACCURACY,4.4*16
$PAIRSAT,1,29,2,0,201,3,0,200,4,0,221,5,0,200,6,0,200,7,0,201,8,0,221,9,0,221,10,0,200,11,0,200,12,0,200,13,0,200,14,0,200,15,0,200,16,0,201,21,0,1,24,0,200,25,0,200,26,0,200,27,0,221,28,0,200,29,0,200,30,0,200,31,0,201,32,0,200,194,0,621,195,0,221,196,0,620,199,0,621*54
$PAIRSAT,2,24,65,0,200,66,0,200,67,0,200,68,0,200,69,0,200,70,0,200,71,0,200,72,0,200,73,0,200,74,0,200,75,0,200,76,0,200,77,0,200,78,0,200,79,0,201,80,0,201,81,0,201,82,0,201,83,0,201,84,0,200,85,0,200,86,0,200,87,0,200,88,0,200*7B
$PAIRSAT,3,22,2,0,1000,3,0,1000,4,0,1000,7,0,1021,8,0,1000,9,0,1000,10,0,1000,11,0,1000,12,0,1200,13,0,1200,15,0,1221,19,0,1200,21,0,1200,24,0,200,25,0,200,26,0,200,27,0,221,30,0,1221,31,0,1200,33,0,1200,34,0,1221,36,0,1200*73
$PAIRSAT,4,44,1,0,200,2,0,200,3,0,600,4,0,200,5,0,200,6,0,201,7,0,201,8,0,200,9,0,201,10,0,200,11,0,201,12,0,1,16,0,1,19,0,600,20,0,600,21,0,600,22,0,600,23,0,621,24,0,621,25,0,621,26,0,600,27,0,600,28,0,600,29,0,600,30,0,600,32,0,400,33,0,400,34,0,421,35,0,400,36,0,400,37,0,400,38,0,400,39,0,421,40,0,421,41,0,400,42,0,400,43,0,421,44,0,421,45,0,400,46,0,400,59,0,400,60,0,400,61,0,400,62,0,400*4E
$PAIRDGP,8,2,4,7,8,9,16,21,27*7C
$GNGGA,040526.200,2500.8079447,N,12132.4782443,E,2,53,0.53,17.016,M,15.25,M,1,3335*4C
$GNRMC,040526.200,A,2500.8079447,N,12132.4782443,E,0.01,355.73,030324,,,D,V*07
$GPHDT,,T*1B
$GNACCURACY,4.3*11
$GNGGA,040526.300,2500.8079447,N,12132.4782443,E,2,54,0.52,17.018,M,15.25,M,1,3335*45
$GNRMC,040526.300,A,2500.8079447,N,12132.4782443,E,0.02,355.73,030324,,,D,V*05
$GPHDT,,T*1B
$GNACCURACY,4.3*11
$GNGGA,040526.400,2500.8079447,N,12132.4782443,E,2,54,0.52,17.020,M,15.25,M,1,3335*49
$GNRMC,040526.400,A,2500.8079447,N,12132.4782443,E,0.02,355.73,030324,,,D,V*02
$GPHDT,,T*1B
$GNACCURACY,4.3*11
$GNGGA,040526.500,2500.8079447,N,12132.4782443,E,2,54,0.52,17.021,M,15.25,M,1,3335*49
$GNRMC,040526.500,A,2500.8079447,N,12132.4782443,E,0.08,355.73,030324,,,D,V*09
$GPHDT,,T*1B
$GNACCURACY,4.3*11
$GNGGA,040526.600,2500.8079507,N,12132.4782443,E,2,54,0.52,17.020,M,15.25,M,1,3335*4E
$GNRMC,040526.600,A,2500.8079507,N,12132.4782443,E,0.06,355.73,030324,,,D,V*01
$GPHDT,,T*1B
$GNACCURACY,4.3*11
$GNGGA,040526.700,2500.8079507,N,12132.4782443,E,2,55,0.52,17.020,M,15.25,M,1,3335*4E
$GNRMC,040526.700,A,2500.8079507,N,12132.4782443,E,0.05,355.73,030324,,,D,V*03
$GPHDT,,T*1B
$GNACCURACY,4.3*11
$GNGGA,040526.800,2500.8079507,N,12132.4782443,E,2,55,0.52,17.020,M,15.25,M,0,3335*40
$GNRMC,040526.800,A,2500.8079507,N,12132.4782443,E,0.05,355.73,030324,,,D,V*0C
$GPHDT,,T*1B
$GNACCURACY,4.3*11
$GNGGA,040526.900,2500.8079507,N,12132.4782443,E,2,55,0.52,17.021,M,15.25,M,0,3335*40
$GNRMC,040526.900,A,2500.8079507,N,12132.4782443,E,0.08,355.73,030324,,,D,V*00
$GPHDT,,T*1B
$GNACCURACY,4.3*11
$GNGGA,040527.000,2500.8079507,N,12132.4782443,E,2,54,0.52,17.020,M,15.25,M,1,3335*49
$GNRMC,040527.000,A,2500.8079507,N,12132.4782443,E,0.02,355.73,030324,,,D,V*02
$GPHDT,,T*1B
$GNACCURACY,4.3*11
$GNGGA,040527.100,2500.8079507,N,12132.4782443,E,2,54,0.52,17.019,M,15.25,M,1,3335*42
$GNRMC,040527.100,A,2500.8079507,N,12132.4782443,E,0.04,355.73,030324,,,D,V*05
$GPHDT,,T*1B
$GNGSA,A,3,08,194,199,21,27,02,07,09,04,196,31,195,0.80,0.52,0.61,1*03
$GNGSA,A,3,82,83,80,79,81,,,,,,,,0.80,0.52,0.61,2*04
$GNGSA,A,3,30,15,34,27,07,,,,,,,,0.80,0.52,0.61,3*09
$GNGSA,A,3,34,06,09,16,11,39,40,07,25,12,24,43,0.80,0.52,0.61,4*0F
$GNGSA,A,3,23,,,,,,,,,,,,0.80,0.52,0.61,4*0D
$GPGSV,4,1,15,08,70,325,48,194,63,048,37,199,60,167,32,50,60,167,34,1*61
$GPGSV,4,2,15,195,60,121,20,21,46,166,42,27,44,029,36,02,34,180,31,1*5E
$GPGSV,4,3,15,16,32,062,16,07,30,320,20,09,29,260,15,04,27,212,23,1*66
$GPGSV,4,4,15,196,20,172,32,26,14,089,16,31,10,140,33,1*68
$GPGSV,2,1,08,08,70,325,49,194,63,048,36,195,60,121,29,199,60,167,41,8*50
$GPGSV,2,2,08,27,44,029,35,09,29,260,21,04,27,212,21,196,20,172,35,8*55
$GLGSV,2,1,05,82,65,048,37,83,61,178,26,80,49,015,40,79,33,089,29,1*78
$GLGSV,2,2,05,81,17,028,41,1*4D
$GAGSV,2,1,07,30,50,033,33,15,47,150,35,34,43,070,25,27,37,316,40,7*75
$GAGSV,2,2,07,07,33,233,24,02,15,082,21,08,12,182,19,7*40
$GAGSV,2,1,07,30,50,033,35,15,47,150,36,34,43,070,31,27,37,316,33,1*77
$GAGSV,2,2,07,07,33,233,25,02,15,082,21,08,12,182,22,1*4F
$GBGSV,4,1,15,34,82,066,43,06,78,217,41,09,75,289,39,16,75,195,45,1*7E
$GBGSV,4,2,15,11,70,198,40,39,64,181,34,40,64,320,46,07,62,299,35,1*72
$GBGSV,4,3,15,25,59,346,46,10,52,281,20,12,50,042,24,24,49,098,33,1*7E
$GBGSV,4,4,15,43,45,214,26,44,27,040,26,23,15,315,39,1*4A
$GBGSV,2,1,07,34,82,066,45,40,64,320,43,39,64,181,36,25,59,346,45,4*75
$GBGSV,2,2,07,24,49,098,22,43,45,214,20,23,15,315,33,4*4F
$GNACCURACY,4.3*11
$PAIRSAT,1,29,2,0,201,3,0,200,4,0,221,5,0,200,6,0,200,7,0,201,8,0,221,9,0,221,10,0,200,11,0,200,12,0,200,13,0,200,14,0,200,15,0,200,16,0,201,21,0,1,24,0,200,25,0,200,26,0,200,27,0,221,28,0,200,29,0,200,30,0,200,31,0,201,32,0,200,194,0,621,195,0,221,196,0,620,199,0,621*54
$PAIRSAT,2,24,65,0,200,66,0,200,67,0,200,68,0,200,69,0,200,70,0,200,71,0,200,72,0,200,73,0,200,74,0,200,75,0,200,76,0,200,77,0,200,78,0,200,79,0,201,80,0,201,81,0,201,82,0,201,83,0,201,84,0,200,85,0,200,86,0,200,87,0,200,88,0,200*7B
$PAIRSAT,3,22,2,0,1000,3,0,1000,4,0,1000,7,0,1021,8,0,1000,9,0,1000,10,0,1000,11,0,1000,12,0,1200,13,0,1200,15,0,1221,19,0,1200,21,0,1200,24,0,200,25,0,200,26,0,200,27,0,221,30,0,1221,31,0,1200,33,0,1200,34,0,1221,36,0,1200*73
$PAIRSAT,4,44,1,0,200,2,0,200,3,0,600,4,0,200,5,0,200,6,0,201,7,0,201,8,0,200,9,0,201,10,0,200,11,0,201,12,0,1,16,0,1,19,0,600,20,0,600,21,0,600,22,0,600,23,0,621,24,0,621,25,0,621,26,0,600,27,0,600,28,0,600,29,0,600,30,0,600,32,0,400,33,0,400,34,0,421,35,0,400,36,0,400,37,0,400,38,0,400,39,0,421,40,0,421,41,0,400,42,0,400,43,0,421,44,0,421,45,0,400,46,0,400,59,0,400,60,0,400,61,0,400,62,0,400*4E
$PAIRDGP,8,2,4,7,8,9,16,21,27*7C
$GNGGA,040527.200,2500.8079507,N,12132.4782443,E,2,54,0.52,17.020,M,15.25,M,1,3335*4B
$GNRMC,040527.200,A,2500.8079507,N,12132.4782443,E,0.07,355.73,030324,,,D,V*05
$GPHDT,,T*1B
$GNACCURACY,4.3*11
$GNGGA,040527.300,2500.8079507,N,12132.4782443,E,2,54,0.52,17.021,M,15.25,M,1,3335*4B
$GNRMC,040527.300,A,2500.8079507,N,12132.4782443,E,0.06,355.73,030324,,,D,V*05
$GPHDT,,T*1B
$GNACCURACY,4.3*11
$GNGGA,040527.400,2500.8079507,N,12132.4782383,E,2,54,0.52,17.023,M,15.25,M,1,3335*45
$GNRMC,040527.400,A,2500.8079507,N,12132.4782383,E,0.05,355.73,030324,,,D,V*0A
$GPHDT,,T*1B
$GNACCURACY,4.3*11
$GNGGA,040527.500,2500.8079507,N,12132.4782383,E,2,54,0.52,17.023,M,15.25,M,0,3335*45
$GNRMC,040527.500,A,2500.8079507,N,12132.4782383,E,0.05,355.73,030324,,,D,V*0B
$GPHDT,,T*1B
$GNACCURACY,4.3*11
$GNGGA,040527.600,2500.8079507,N,12132.4782383,E,2,54,0.52,17.024,M,15.25,M,0,3335*41
$GNRMC,040527.600,A,2500.8079507,N,12132.4782383,E,0.03,355.73,030324,,,D,V*0E
$GPHDT,,T*1B
$GNACCURACY,4.3*11
$GNGGA,040527.700,2500.8079507,N,12132.4782383,E,2,54,0.52,17.025,M,15.25,M,0,3335*41
$GNRMC,040527.700,A,2500.8079507,N,12132.4782383,E,0.05,355.73,030324,,,D,V*09
$GPHDT,,T*1B
$GNACCURACY,4.3*11
$GNGGA,040527.800,2500.8079507,N,12132.4782383,E,2,54,0.52,17.025,M,15.25,M,0,3335*4E
$GNRMC,040527.800,A,2500.8079507,N,12132.4782383,E,0.02,355.73,030324,,,D,V*01
$GPHDT,,T*1B
$GNACCURACY,4.3*11
$GNGGA,040527.900,2500.8079507,N,12132.4782383,E,2,54,0.52,17.026,M,15.25,M,0,3335*4C
$GNRMC,040527.900,A,2500.8079507,N,12132.4782383,E,0.10,355.73,030324,,,D,V*03
$GPHDT,,T*1B
$GNACCURACY,4.3*11
$GNGGA,040528.000,2500.8079507,N,12132.4782383,E,2,53,0.52,17.025,M,15.25,M,1,3335*4F
$GNRMC,040528.000,A,2500.8079507,N,12132.4782383,E,0.04,355.73,030324,,,D,V*00
$GPHDT,,T*1B
$GNACCURACY,4.3*11
$GNGGA,040528.100,2500.8079507,N,12132.4782383,E,2,53,0.52,17.025,M,15.25,M,1,3335*4E
$GNRMC,040528.100,A,2500.8079507,N,12132.4782383,E,0.02,355.73,030324,,,D,V*07
$GPHDT,,T*1B
$GNGSA,A,3,08,194,199,21,27,02,07,09,04,196,31,195,0.80,0.52,0.61,1*03
$GNGSA,A,3,82,83,80,79,81,,,,,,,,0.80,0.52,0.61,2*04
$GNGSA,A,3,30,15,34,27,07,,,,,,,,0.80,0.52,0.61,3*09
$GNGSA,A,3,34,06,09,16,11,39,40,07,25,12,24,43,0.80,0.52,0.61,4*0F
$GNGSA,A,3,23,,,,,,,,,,,,0.80,0.52,0.61,4*0D
$GPGSV,4,1,15,08,70,325,48,194,63,048,37,199,60,167,32,50,60,167,34,1*61
$GPGSV,4,2,15,195,60,121,16,21,46,166,42,27,44,029,34,02,34,180,33,1*5B
$GPGSV,4,3,15,16,32,062,18,07,30,320,17,09,29,260,15,04,27,212,23,1*6C
$GPGSV,4,4,15,196,20,172,35,26,14,089,15,31,10,140,33,1*6C
$GPGSV,2,1,08,08,70,325,49,194,63,048,38,195,60,121,29,199,60,167,41,8*5E
$GPGSV,2,2,08,27,44,029,34,09,29,260,21,04,27,212,20,196,20,172,36,8*56
$GLGSV,2,1,05,82,65,048,38,83,61,178,26,80,49,015,40,79,33,089,30,1*7F
$GLGSV,2,2,05,81,17,028,41,1*4D
$GAGSV,2,1,07,30,50,033,32,15,47,150,36,34,43,070,23,27,37,316,40,7*71
$GAGSV,2,2,07,07,33,233,24,02,15,082,19,08,12,182,18,7*4A
$GAGSV,2,1,07,30,50,033,33,15,47,150,37,34,43,070,32,27,37,316,32,1*72
$GAGSV,2,2,07,07,33,233,27,02,15,082,23,08,12,182,21,1*4C
$GBGSV,4,1,15,34,82,066,43,06,78,217,41,09,75,289,39,16,75,195,45,1*7E
$GBGSV,4,2,15,11,70,198,40,39,64,181,34,40,64,320,46,07,62,299,34,1*73
$GBGSV,4,3,15,25,59,346,46,10,52,281,20,12,50,042,25,24,49,098,34,1*78
$GBGSV,4,4,15,43,45,214,25,44,27,040,26,23,15,315,39,1*49
$GBGSV,2,1,06,34,82,066,45,40,64,320,43,39,64,181,37,25,59,346,45,4*75
$GBGSV,2,2,06,24,49,098,26,23,15,315,35,4*7F
$GNACCURACY,4.3*11
$PAIRSAT,1,29,2,0,201,3,0,200,4,0,221,5,0,200,6,0,200,7,0,201,8,0,221,9,0,221,10,0,200,11,0,200,12,0,200,13,0,200,14,0,200,15,0,200,16,0,201,21,0,1,24,0,200,25,0,200,26,0,200,27,0,221,28,0,200,29,0,200,30,0,200,31,0,201,32,0,200,194,0,621,195,0,221,196,0,620,199,0,621*54
$PAIRSAT,2,24,65,0,200,66,0,200,67,0,200,68,0,200,69,0,200,70,0,200,71,0,200,72,0,200,73,0,200,74,0,200,75,0,200,76,0,200,77,0,200,78,0,200,79,0,201,80,0,201,81,0,201,82,0,201,83,0,201,84,0,200,85,0,200,86,0,200,87,0,200,88,0,200*7B
$PAIRSAT,3,22,2,0,1000,3,0,1000,4,0,1000,7,0,1021,8,0,1000,9,0,1000,10,0,1000,11,0,1000,12,0,1200,13,0,1200,15,0,1221,19,0,1200,21,0,1200,24,0,200,25,0,200,26,0,200,27,0,221,30,0,1221,31,0,1200,33,0,1200,34,0,1221,36,0,1200*73
$PAIRSAT,4,44,1,0,200,2,0,200,3,0,600,4,0,200,5,0,200,6,0,201,7,0,201,8,0,200,9,0,201,10,0,200,11,0,201,12,0,1,16,0,1,19,0,600,20,0,600,21,0,600,22,0,600,23,0,621,24,0,621,25,0,621,26,0,600,27,0,600,28,0,600,29,0,600,30,0,600,32,0,400,33,0,400,34,0,421,35,0,400,36,0,400,37,0,400,38,0,400,39,0,421,40,0,421,41,0,400,42,0,400,43,0,421,44,0,421,45,0,400,46,0,400,59,0,400,60,0,400,61,0,400,62,0,400*4E
$PAIRDGP,8,2,4,7,8,9,16,21,27*7C
$GNGGA,040528.200,2500.8079507,N,12132.4782383,E,2,53,0.52,17.025,M,15.25,M,1,3335*4D
$GNRMC,040528.200,A,2500.8079507,N,12132.4782383,E,0.02,355.73,030324,,,D,V*04
$GPHDT,,T*1B
$GNACCURACY,4.3*11
$GNGGA,040528.300,2500.8079507,N,12132.4782383,E,2,53,0.52,17.025,M,15.25,M,1,3335*4C
$GNRMC,040528.300,A,2500.8079507,N,12132.4782383,E,0.02,355.73,030324,,,D,V*05
$GPHDT,,T*1B
$GNACCURACY,4.3*11
$GNGGA,040528.400,2500.8079507,N,12132.4782383,E,2,53,0.52,17.025,M,15.25,M,1,3335*4B
$GNRMC,040528.400,A,2500.8079507,N,12132.4782383,E,0.02,355.73,030324,,,D,V*02
$GPHDT,,T*1B
$GNACCURACY,4.3*11
$GNGGA,040528.500,2500.8079507,N,12132.4782383,E,2,53,0.52,17.025,M,15.25,M,0,3335*4B
$GNRMC,040528.500,A,2500.8079507,N,12132.4782383,E,0.02,355.73,030324,,,D,V*03
$GPHDT,,T*1B
$GNACCURACY,4.3*11
$GNGGA,040528.600,2500.8079507,N,12132.4782383,E,2,53,0.52,17.025,M,15.25,M,0,3335*48
$GNRMC,040528.600,A,2500.8079507,N,12132.4782383,E,0.02,355.73,030324,,,D,V*00
$GPHDT,,T*1B
$GNACCURACY,4.3*11
$GNGGA,040528.700,2500.8079507,N,12132.4782383,E,2,53,0.52,17.025,M,15.25,M,0,3335*49
$GNRMC,040528.700,A,2500.8079507,N,12132.4782383,E,0.02,355.73,030324,,,D,V*01
$GPHDT,,T*1B
$GNACCURACY,4.3*11
$GNGGA,040528.800,2500.8079507,N,12132.4782383,E,2,53,0.52,17.025,M,15.25,M,0,3335*46
$GNRMC,040528.800,A,2500.8079507,N,12132.4782383,E,0.16,355.73,030324,,,D,V*0B
$GPHDT,,T*1B
$GNACCURACY,4.4*16
$GNGGA,040528.900,2500.8079567,N,12132.4782383,E,2,53,0.52,17.023,M,15.25,M,0,3335*47
$GNRMC,040528.900,A,2500.8079567,N,12132.4782383,E,0.05,355.73,030324,,,D,V*0E
$GPHDT,,T*1B
$GNACCURACY,4.4*16
$GNGGA,040529.000,2500.8079567,N,12132.4782443,E,2,53,0.52,17.022,M,15.25,M,1,3335*44
$GNRMC,040529.000,A,2500.8079567,N,12132.4782443,E,0.04,355.73,030324,,,D,V*0C
$GPHDT,,T*1B
$GNACCURACY,4.4*16
$GNGGA,040529.100,2500.8079567,N,12132.4782443,E,2,53,0.52,17.020,M,15.25,M,1,3335*47
$GNRMC,040529.100,A,2500.8079567,N,12132.4782443,E,0.00,355.73,030324,,,D,V*09
$GPHDT,,T*1B
$GNGSA,A,3,08,194,199,21,27,02,07,09,04,196,31,195,0.80,0.52,0.61,1*03
$GNGSA,A,3,82,83,80,79,81,,,,,,,,0.80,0.52,0.61,2*04
$GNGSA,A,3,30,15,34,27,07,,,,,,,,0.80,0.52,0.61,3*09
$GNGSA,A,3,34,06,09,16,11,39,40,07,25,12,24,43,0.80,0.52,0.61,4*0F
$GNGSA,A,3,23,,,,,,,,,,,,0.80,0.52,0.61,4*0D
$GPGSV,4,1,15,08,70,325,48,194,63,048,38,199,60,167,32,50,60,167,34,1*6E
$GPGSV,4,2,15,195,60,121,17,21,46,166,42,27,44,029,32,02,34,180,33,1*5C
$GPGSV,4,3,15,16,32,062,20,07,30,320,19,09,29,260,17,04,27,212,22,1*6A
$GPGSV,4,4,15,196,20,172,34,26,14,089,15,31,10,140,33,1*6D
$GPGSV,2,1,08,08,70,325,49,194,63,048,37,195,60,121,30,199,60,167,41,8*59
$GPGSV,2,2,08,27,44,029,34,09,29,260,20,04,27,212,20,196,20,172,37,8*56
$GLGSV,2,1,05,82,65,048,38,83,61,178,26,80,49,015,40,79,33,089,31,1*7E
$GLGSV,2,2,05,81,17,028,41,1*4D
$GAGSV,2,1,07,30,50,033,32,15,47,150,36,34,43,070,26,27,37,316,40,7*74
$GAGSV,2,2,07,07,33,233,26,02,15,082,19,08,12,182,15,7*45
$GAGSV,2,1,07,30,50,033,34,15,47,150,36,34,43,070,28,27,37,316,31,1*7C
$GAGSV,2,2,07,07,33,233,28,02,15,082,23,08,12,182,21,1*43
$GBGSV,4,1,15,34,82,066,43,06,78,217,41,09,75,289,40,16,75,195,45,1*70
$GBGSV,4,2,15,11,70,198,40,39,64,181,35,40,64,320,46,07,62,299,35,1*73
$GBGSV,4,3,15,25,59,346,46,10,52,281,18,12,50,042,23,24,49,098,34,1*75
$GBGSV,4,4,15,43,45,214,23,44,27,040,23,23,15,315,39,1*4A
$GBGSV,2,1,06,34,82,066,45,40,64,320,43,39,64,181,37,25,59,346,45,4*75
$GBGSV,2,2,06,24,49,098,27,23,15,315,35,4*7E
$GNACCURACY,4.4*16
$PAIRSAT,1,29,2,0,201,3,0,200,4,0,221,5,0,200,6,0,200,7,0,201,8,0,221,9,0,221,10,0,200,11,0,200,12,0,200,13,0,200,14,0,200,15,0,200,16,0,201,21,0,1,24,0,200,25,0,200,26,0,200,27,0,221,28,0,200,29,0,200,30,0,200,31,0,201,32,0,200,194,0,621,195,0,221,196,0,620,199,0,621*54
$PAIRSAT,2,24,65,0,200,66,0,200,67,0,200,68,0,200,69,0,200,70,0,200,71,0,200,72,0,200,73,0,200,74,0,200,75,0,200,76,0,200,77,0,200,78,0,200,79,0,201,80,0,201,81,0,201,82,0,201,83,0,201,84,0,200,85,0,200,86,0,200,87,0,200,88,0,200*7B
$PAIRSAT,3,22,2,0,1000,3,0,1000,4,0,1000,7,0,1021,8,0,1000,9,0,1000,10,0,1000,11,0,1000,12,0,1200,13,0,1200,15,0,1221,19,0,1200,21,0,1200,24,0,200,25,0,200,26,0,200,27,0,221,30,0,1221,31,0,1200,33,0,1200,34,0,1221,36,0,1200*73
$PAIRSAT,4,44,1,0,200,2,0,200,3,0,600,4,0,200,5,0,200,6,0,201,7,0,201,8,0,200,9,0,201,10,0,200,11,0,201,12,0,1,16,0,1,19,0,600,20,0,600,21,0,600,22,0,600,23,0,621,24,0,621,25,0,621,26,0,600,27,0,600,28,0,600,29,0,600,30,0,600,32,0,400,33,0,400,34,0,421,35,0,400,36,0,400,37,0,400,38,0,400,39,0,421,40,0,421,41,0,400,42,0,400,43,0,421,44,0,421,45,0,400,46,0,400,59,0,400,60,0,400,61,0,400,62,0,400*4E
$PAIRDGP,8,2,4,7,8,9,16,21,27*7C
$GNGGA,040529.200,2500.8079567,N,12132.4782443,E,2,53,0.52,17.019,M,15.25,M,1,3335*4E
$GNRMC,040529.200,A,2500.8079567,N,12132.4782443,E,0.01,355.73,030324,,,D,V*0B
$GPHDT,,T*1B
$GNACCURACY,4.4*16
$GNGGA,040529.300,2500.8079567,N,12132.4782443,E,2,53,0.52,17.018,M,15.25,M,1,3335*4E
$GNRMC,040529.300,A,2500.8079567,N,12132.4782443,E,0.02,355.73,030324,,,D,V*09
$GPHDT,,T*1B
$GNACCURACY,4.4*16
$GNGGA,040529.400,2500.8079567,N,12132.4782443,E,2,53,0.52,17.018,M,15.25,M,1,3335*49
$GNRMC,040529.400,A,2500.8079567,N,12132.4782443,E,0.02,355.73,030324,,,D,V*0E
$GPHDT,,T*1B
$GNACCURACY,4.4*16
$GNGGA,040529.500,2500.8079567,N,12132.4782443,E,2,53,0.52,17.017,M,15.25,M,1,3335*47
$GNRMC,040529.500,A,2500.8079567,N,12132.4782443,E,0.02,355.73,030324,,,D,V*0F
$GPHDT,,T*1B
$GNACCURACY,4.4*16
$GNGGA,040529.600,2500.8079567,N,12132.4782443,E,2,53,0.52,17.017,M,15.25,M,1,3335*44
$GNRMC,040529.600,A,2500.8079567,N,12132.4782443,E,0.02,355.73,030324,,,D,V*0C
$GPHDT,,T*1B
$GNACCURACY,4.4*16
$GNGGA,040529.700,2500.8079567,N,12132.4782443,E,2,53,0.52,17.016,M,15.25,M,0,3335*45
$GNRMC,040529.700,A,2500.8079567,N,12132.4782443,E,0.04,355.73,030324,,,D,V*0B
$GPHDT,,T*1B
$GNACCURACY,4.4*16
$GNGGA,040529.800,2500.8079567,N,12132.4782443,E,2,53,0.52,17.016,M,15.25,M,0,3335*4A
$GNRMC,040529.800,A,2500.8079567,N,12132.4782443,E,0.13,355.73,030324,,,D,V*02
$GPHDT,,T*1B
$GNACCURACY,4.4*16
$GNGGA,040529.900,2500.8079567,N,12132.4782443,E,2,53,0.52,17.014,M,15.25,M,0,3335*49
$GNRMC,040529.900,A,2500.8079567,N,12132.4782443,E,0.07,355.73,030324,,,D,V*06
$GPHDT,,T*1B
$GNACCURACY,4.4*16
$GNGGA,040530.000,2500.8079567,N,12132.4782443,E,2,53,0.52,17.013,M,15.25,M,1,3335*4E
$GNRMC,040530.000,A,2500.8079567,N,12132.4782443,E,0.07,355.73,030324,,,D,V*07
$GPHDT,,T*1B
$GNACCURACY,4.4*16
$GNGGA,040530.100,2500.8079567,N,12132.4782503,E,2,53,0.52,17.011,M,15.25,M,1,3335*48
$GNRMC,040530.100,A,2500.8079567,N,12132.4782503,E,0.03,355.73,030324,,,D,V*07
$GPHDT,,T*1B
$GNGSA,A,3,08,194,199,21,27,02,07,09,04,196,31,195,0.80,0.52,0.61,1*03
$GNGSA,A,3,82,83,80,79,81,,,,,,,,0.80,0.52,0.61,2*04
$GNGSA,A,3,30,15,34,27,07,,,,,,,,0.80,0.52,0.61,3*09
$GNGSA,A,3,34,06,09,16,11,39,40,07,25,12,24,43,0.80,0.52,0.61,4*0F
$GNGSA,A,3,23,,,,,,,,,,,,0.80,0.52,0.61,4*0D
$GPGSV,4,1,15,08,70,325,48,194,63,048,38,199,60,167,32,50,60,167,33,1*69
$GPGSV,4,2,15,195,60,121,19,21,46,166,42,27,44,029,34,02,34,180,33,1*54
$GPGSV,4,3,15,16,32,062,19,07,30,320,23,09,29,260,17,04,27,212,23,1*68
$GPGSV,4,4,15,196,20,172,35,26,14,089,16,31,10,140,34,1*68
$GPGSV,2,1,08,08,70,325,49,194,63,048,37,195,60,121,23,199,60,167,41,8*5B
$GPGSV,2,2,08,27,44,029,34,09,29,260,20,04,27,212,20,196,20,172,37,8*56
$GLGSV,2,1,05,82,65,048,39,83,61,178,25,80,49,015,41,79,33,089,33,1*7F
$GLGSV,2,2,05,81,17,028,41,1*4D
$GAGSV,2,1,07,30,50,033,31,15,47,150,33,34,43,070,26,27,37,316,40,7*72
$GAGSV,2,2,07,07,33,233,23,02,15,082,20,08,12,182,13,7*4C
$GAGSV,2,1,07,30,50,033,31,15,47,150,35,34,43,070,30,27,37,316,34,1*76
$GAGSV,2,2,07,07,33,233,28,02,15,082,23,08,12,182,20,1*42
$GBGSV,4,1,15,34,82,066,39,06,78,217,41,09,75,289,40,16,75,195,45,1*7D
$GBGSV,4,2,15,11,70,198,40,39,64,181,36,40,64,320,46,07,62,299,35,1*70
$GBGSV,4,3,15,25,59,346,46,10,52,281,18,12,50,042,25,24,49,098,32,1*75
$GBGSV,4,4,15,43,45,214,25,44,27,040,25,23,15,315,37,1*44
$GBGSV,2,1,06,34,82,066,45,40,64,320,43,39,64,181,37,25,59,346,45,4*75
$GBGSV,2,2,06,24,49,098,22,23,15,315,33,4*7D
$GNACCURACY,4.4*16
$PAIRSAT,1,29,2,0,201,3,0,200,4,0,221,5,0,200,6,0,200,7,0,201,8,0,221,9,0,221,10,0,200,11,0,200,12,0,200,13,0,200,14,0,200,15,0,200,16,0,201,21,0,1,24,0,200,25,0,200,26,0,200,27,0,221,28,0,200,29,0,200,30,0,200,31,0,201,32,0,200,194,0,621,195,0,221,196,0,620,199,0,621*54
$PAIRSAT,2,24,65,0,200,66,0,200,67,0,200,68,0,200,69,0,200,70,0,200,71,0,200,72,0,200,73,0,200,74,0,200,75,0,200,76,0,200,77,0,200,78,0,200,79,0,201,80,0,201,81,0,201,82,0,201,83,0,201,84,0,200,85,0,200,86,0,200,87,0,200,88,0,200*7B
$PAIRSAT,3,22,2,0,1000,3,0,1000,4,0,1000,7,0,1021,8,0,1000,9,0,1000,10,0,1000,11,0,1000,12,0,1200,13,0,1200,15,0,1221,19,0,1200,21,0,1200,24,0,200,25,0,200,26,0,200,27,0,221,30,0,1221,31,0,1200,33,0,1200,34,0,1221,36,0,1200*73
$PAIRSAT,4,44,1,0,200,2,0,200,3,0,600,4,0,200,5,0,200,6,0,201,7,0,201,8,0,200,9,0,201,10,0,200,11,0,201,12,0,1,16,0,1,19,0,600,20,0,600,21,0,600,22,0,600,23,0,621,24,0,621,25,0,621,26,0,600,27,0,600,28,0,600,29,0,600,30,0,600,32,0,400,33,0,400,34,0,421,35,0,400,36,0,400,37,0,400,38,0,400,39,0,421,40,0,421,41,0,400,42,0,400,43,0,421,44,0,421,45,0,400,46,0,400,59,0,400,60,0,400,61,0,400,62,0,400*4E
$PAIRDGP,8,2,4,7,8,9,16,21,27*7C
$GNGGA,040530.200,2500.8079627,N,12132.4782503,E,2,53,0.52,17.010,M,15.25,M,1,3335*4D
$GNRMC,040530.200,A,2500.8079627,N,12132.4782503,E,0.03,355.73,030324,,,D,V*03
$GPHDT,,T*1B
$GNACCURACY,4.4*16
$GNGGA,040530.300,2500.8079627,N,12132.4782503,E,2,53,0.52,17.009,M,15.25,M,1,3335*44
$GNRMC,040530.300,A,2500.8079627,N,12132.4782503,E,0.02,355.73,030324,,,D,V*03
$GPHDT,,T*1B
$GNACCURACY,4.4*16
$GNGGA,040530.400,2500.8079627,N,12132.4782503,E,2,53,0.52,17.008,M,15.25,M,1,3335*42
$GNRMC,040530.400,A,2500.8079627,N,12132.4782503,E,0.03,355.73,030324,,,D,V*05
$GPHDT,,T*1B
$GNACCURACY,4.4*16
$GNGGA,040530.500,2500.8079627,N,12132.4782503,E,2,53,0.52,17.007,M,15.25,M,0,3335*4D
$GNRMC,040530.500,A,2500.8079627,N,12132.4782503,E,0.03,355.73,030324,,,D,V*04
$GPHDT,,T*1B
$GNACCURACY,4.4*16
$GNGGA,040530.600,2500.8079627,N,12132.4782503,E,2,53,0.52,17.006,M,15.25,M,0,3335*4F
$GNRMC,040530.600,A,2500.8079627,N,12132.4782503,E,0.04,355.73,030324,,,D,V*00
$GPHDT,,T*1B
$GNACCURACY,4.4*16
$GNGGA,040530.700,2500.8079627,N,12132.4782503,E,2,53,0.52,17.005,M,15.25,M,0,3335*4D
$GNRMC,040530.700,A,2500.8079627,N,12132.4782503,E,0.04,355.73,030324,,,D,V*01
$GPHDT,,T*1B
$GNACCURACY,4.4*16
$GNGGA,040530.800,2500.8079627,N,12132.4782503,E,2,53,0.52,17.004,M,15.25,M,0,3335*43
$GNRMC,040530.800,A,2500.8079627,N,12132.4782503,E,0.10,355.73,030324,,,D,V*0B
$GPHDT,,T*1B
$GNACCURACY,4.4*16
$GNGGA,040530.900,2500.8079627,N,12132.4782503,E,2,54,0.52,17.002,M,15.25,M,0,3335*43
$GNRMC,040530.900,A,2500.8079627,N,12132.4782503,E,0.04,355.73,030324,,,D,V*0F
$GPHDT,,T*1B
$GNACCURACY,4.4*16
$GNGGA,040531.000,2500.8079627,N,12132.4782503,E,2,54,0.52,17.002,M,15.25,M,1,3335*4A
$GNRMC,040531.000,A,2500.8079627,N,12132.4782503,E,0.02,355.73,030324,,,D,V*01
$GPHDT,,T*1B
$GNACCURACY,4.4*16
$GNGGA,040531.100,2500.8079627,N,12132.4782503,E,2,54,0.52,17.002,M,15.25,M,1,3335*4B
$GNRMC,040531.100,A,2500.8079627,N,12132.4782503,E,0.01,355.73,030324,,,D,V*03
$GPHDT,,T*1B
$GNGSA,A,3,08,194,199,195,21,27,02,07,09,04,196,31,0.80,0.52,0.61,1*03
$GNGSA,A,3,82,83,80,79,81,,,,,,,,0.80,0.52,0.61,2*04
$GNGSA,A,3,30,15,34,27,07,,,,,,,,0.80,0.52,0.61,3*09
$GNGSA,A,3,34,06,09,16,11,39,40,07,25,12,24,43,0.80,0.52,0.61,4*0F
$GNGSA,A,3,23,,,,,,,,,,,,0.80,0.52,0.61,4*0D
$GPGSV,4,1,15,08,70,325,48,194,63,048,38,199,60,167,29,50,60,167,30,1*60
$GPGSV,4,2,15,195,60,121,25,21,46,166,42,27,44,029,36,02,34,180,31,1*5B
$GPGSV,4,3,15,16,32,062,25,07,30,320,26,09,29,260,19,04,27,212,25,1*6A
$GPGSV,4,4,15,196,20,172,38,26,14,089,16,31,10,140,33,1*62
$GPGSV,2,1,08,08,70,325,49,194,63,048,40,195,60,121,29,199,60,167,41,8*51
$GPGSV,2,2,08,27,44,029,34,09,29,260,20,04,27,212,18,196,20,172,36,8*5C
$GLGSV,2,1,05,82,65,048,40,83,61,178,21,80,49,015,43,79,33,089,34,1*70
$GLGSV,2,2,05,81,17,028,41,1*4D
$GAGSV,2,1,07,30,50,033,32,15,47,150,36,34,43,070,25,27,37,316,40,7*77
$GAGSV,2,2,07,07,33,233,22,02,15,082,20,08,12,182,15,7*4B
$GAGSV,2,1,07,30,50,033,25,15,47,150,34,34,43,070,30,27,37,316,33,1*75
$GAGSV,2,2,07,07,33,233,28,02,15,082,22,08,12,182,19,1*49
$GBGSV,4,1,15,34,82,066,39,06,78,217,39,09,75,289,38,16,75,195,44,1*7C
$GBGSV,4,2,15,11,70,198,40,39,64,181,34,40,64,320,46,07,62,299,34,1*73
$GBGSV,4,3,15,25,59,346,44,10,52,281,22,12,50,042,26,24,49,098,36,1*79
$GBGSV,4,4,15,43,45,214,21,44,27,040,26,23,15,315,37,1*43
$GBGSV,2,1,06,34,82,066,45,40,64,320,44,39,64,181,36,25,59,346,44,4*72
$GBGSV,2,2,06,24,49,098,25,23,15,315,37,4*7E
$GNACCURACY,4.4*16
$PAIRSAT,1,29,2,0,201,3,0,200,4,0,221,5,0,200,6,0,200,7,0,201,8,0,221,9,0,221,10,0,200,11,0,200,12,0,200,13,0,200,14,0,200,15,0,200,16,0,201,21,0,1,24,0,200,25,0,200,26,0,200,27,0,221,28,0,200,29,0,200,30,0,200,31,0,201,32,0,200,194,0,621,195,0,221,196,0,620,199,0,621*54
$PAIRSAT,2,24,65,0,200,66,0,200,67,0,200,68,0,200,69,0,200,70,0,200,71,0,200,72,0,200,73,0,200,74,0,200,75,0,200,76,0,200,77,0,200,78,0,200,79,0,201,80,0,201,81,0,201,82,0,201,83,0,201,84,0,200,85,0,200,86,0,200,87,0,200,88,0,200*7B
$PAIRSAT,3,22,2,0,1000,3,0,1000,4,0,1000,7,0,1021,8,0,1000,9,0,1000,10,0,1000,11,0,1000,12,0,1200,13,0,1200,15,0,1221,19,0,1200,21,0,1200,24,0,200,25,0,200,26,0,200,27,0,221,30,0,1221,31,0,1200,33,0,1200,34,0,1221,36,0,1200*73
$PAIRSAT,4,44,1,0,200,2,0,200,3,0,600,4,0,200,5,0,200,6,0,201,7,0,201,8,0,200,9,0,201,10,0,200,11,0,201,12,0,1,16,0,1,19,0,600,20,0,600,21,0,600,22,0,600,23,0,621,24,0,621,25,0,621,26,0,600,27,0,600,28,0,600,29,0,600,30,0,600,32,0,400,33,0,400,34,0,421,35,0,400,36,0,400,37,0,400,38,0,400,39,0,421,40,0,421,41,0,400,42,0,400,43,0,421,44,0,421,45,0,400,46,0,400,59,0,400,60,0,400,61,0,400,62,0,400*4E
$PAIRDGP,8,2,4,7,8,9,16,21,27*7C
$GNGGA,040531.200,2500.8079627,N,12132.4782503,E,2,54,0.52,17.001,M,15.25,M,1,3335*4B
$GNRMC,040531.200,A,2500.8079627,N,12132.4782503,E,0.01,355.73,030324,,,D,V*00
$GPHDT,,T*1B
$GNACCURACY,4.4*16
$GNGGA,040531.300,2500.8079687,N,12132.4782503,E,2,54,0.52,17.001,M,15.25,M,1,3335*40
$GNRMC,040531.300,A,2500.8079687,N,12132.4782503,E,0.02,355.73,030324,,,D,V*08
$GPHDT,,T*1B
$GNACCURACY,4.4*16
$GNGGA,040531.400,2500.8079687,N,12132.4782503,E,2,54,0.52,17.001,M,15.25,M,1,3335*47
$GNRMC,040531.400,A,2500.8079687,N,12132.4782503,E,0.01,355.73,030324,,,D,V*0C
$GPHDT,,T*1B
$GNACCURACY,4.4*16
$GNGGA,040531.500,2500.8079687,N,12132.4782503,E,2,54,0.52,17.001,M,15.25,M,1,3335*46
$GNRMC,040531.500,A,2500.8079687,N,12132.4782503,E,0.01,355.73,030324,,,D,V*0D
$GPHDT,,T*1B
$GNACCURACY,4.4*16
$GNGGA,040531.600,2500.8079687,N,12132.4782503,E,2,54,0.52,17.001,M,15.25,M,0,3335*44
$GNRMC,040531.600,A,2500.8079687,N,12132.4782503,E,0.02,355.73,030324,,,D,V*0D
$GPHDT,,T*1B
$GNACCURACY,4.4*16
$GNGGA,040531.700,2500.8079687,N,12132.4782503,E,2,54,0.52,17.001,M,15.25,M,0,3335*45
$GNRMC,040531.700,A,2500.8079687,N,12132.4782503,E,0.10,355.73,030324,,,D,V*0F
$GPHDT,,T*1B
