$FW : RTK35X,V1.1X0314AS,Lib20210517,1*54
$Tool : LOCOSYS , GNSS Firebird , v1.0.0.19*39
$---------------------------------------------------*2D
$GNGSA,A,3,195,17,19,196,199,06,194,09,14,11,04,03,0.83,0.44,0.70,1*00
$GNGSA,A,3,12,,,,,,,,,,,,0.83,0.44,0.70,1*0E
$GNGSA,A,3,67,68,82,83,80,73,,,,,,,0.83,0.44,0.70,2*0C
$GNGSA,A,3,24,12,10,11,31,19,04,25,33,,,,0.83,0.44,0.70,3*02
$GNGSA,A,3,40,07,10,14,33,08,43,13,42,28,11,34,0.83,0.44,0.70,4*09
$GNGSA,A,3,37,,,,,,,,,,,,0.83,0.44,0.70,4*0C
$GPGSV,4,1,15,195,67,041,42,17,64,065,42,19,63,011,43,196,62,129,42,1*67
$GPGSV,4,2,15,199,60,167,35,06,50,333,43,194,43,171,42,41,38,242,42,1*66
$GPGSV,4,3,15,09,31,110,37,14,30,177,40,11,26,281,37,20,25,228,18,1*64
$GPGSV,4,4,15,04,21,077,23,03,13,038,23,12,10,320,16,1*59
$GPGSV,3,1,10,195,67,041,46,196,62,129,43,199,60,167,45,06,50,333,45,8*55
$GPGSV,3,2,10,194,43,171,45,09,31,110,40,14,30,177,40,11,26,281,37,8*57
$GPGSV,3,3,10,04,21,077,28,03,13,038,22,8*6B
$GLGSV,2,1,08,67,48,069,39,68,44,151,42,82,37,031,43,83,32,336,32,1*70
$GLGSV,2,2,08,80,28,234,23,73,23,295,38,66,09,029,28,79,04,188,,1*75
$GAGSV,3,1,09,24,54,248,40,12,49,010,35,10,49,329,40,11,34,296,36,7*73
$GAGSV,3,2,09,31,31,182,38,19,30,090,25,04,25,156,31,25,24,310,24,7*78
$GAGSV,3,3,09,33,16,061,25,7*4D
$GAGSV,3,1,09,24,54,248,45,10,49,329,45,12,49,010,40,11,34,296,37,1*76
$GAGSV,3,2,09,31,31,182,40,19,30,090,20,04,25,156,37,25,24,310,31,1*76
$GAGSV,3,3,09,33,16,061,26,1*48
$GBGSV,4,1,15,40,84,109,41,07,82,256,40,10,72,295,39,14,61,091,41,1*75
$GBGSV,4,2,15,33,59,154,43,08,59,265,41,43,53,048,44,13,49,254,39,1*74
$GBGSV,4,3,15,42,42,058,40,28,35,321,43,11,34,076,35,23,21,224,,1*71
$GBGSV,4,4,15,34,19,093,40,41,18,197,,37,17,277,25,1*47
$GBGSV,2,1,07,40,84,109,45,33,59,154,46,43,53,048,44,42,42,058,43,4*7F
$GBGSV,2,2,07,28,35,321,40,34,19,093,37,37,17,277,30,4*4E
$GNGGA,033658.000,2500.8127421,N,12132.4383599,E,4,66,0.44,17.627,M,15.25,M,1,3335*4B
$GNRMC,033658.000,A,2500.8127421,N,12132.4383599,E,0.00,119.92,270623,,,R,V*14
$GPHDT,2.582,T*38
$GNGGA,033658.200,2500.8127425,N,12132.4383609,E,4,66,0.44,17.623,M,15.25,M,1,3335*43
$GNRMC,033658.200,A,2500.8127425,N,12132.4383609,E,0.00,119.92,270623,,,R,V*18
$GPHDT,2.434,T*34
$GNGGA,033658.400,2500.8127433,N,12132.4383610,E,4,65,0.44,17.637,M,15.25,M,1,3335*4C
$GNRMC,033658.400,A,2500.8127433,N,12132.4383610,E,0.00,119.92,270623,,,R,V*11
$GPHDT,2.295,T*39
$GNGGA,033658.600,2500.8127426,N,12132.4383605,E,4,66,0.44,17.627,M,15.25,M,0,3335*4D
$GNRMC,033658.600,A,2500.8127426,N,12132.4383605,E,0.00,119.92,270623,,,R,V*13
$GPHDT,2.594,T*3F
$GNGGA,033658.800,2500.8127389,N,12132.4383641,E,4,66,0.44,17.626,M,15.25,M,0,3335*40
$GNRMC,033658.800,A,2500.8127389,N,12132.4383641,E,0.00,119.92,270623,,,R,V*1F
$GPHDT,2.501,T*33
$GNGSA,A,3,195,17,19,196,199,06,194,09,14,11,03,12,0.83,0.44,0.70,1*07
$GNGSA,A,3,04,,,,,,,,,,,,0.83,0.44,0.70,1*09
$GNGSA,A,3,67,68,82,83,80,73,,,,,,,0.83,0.44,0.70,2*0C
$GNGSA,A,3,24,12,10,11,31,19,04,25,33,,,,0.83,0.44,0.70,3*02
$GNGSA,A,3,40,07,10,14,33,08,43,13,42,28,11,34,0.83,0.44,0.70,4*09
$GNGSA,A,3,37,,,,,,,,,,,,0.83,0.44,0.70,4*0C
$GPGSV,4,1,15,195,67,041,42,17,64,065,42,19,63,011,43,196,62,129,42,1*67
$GPGSV,4,2,15,199,60,167,35,06,50,333,43,194,43,171,42,41,38,242,42,1*66
$GPGSV,4,3,15,09,31,110,37,14,30,177,40,11,26,281,37,20,25,228,17,1*6B
$GPGSV,4,4,15,04,21,077,23,03,13,038,20,12,10,320,16,1*5A
$GPGSV,3,1,10,195,67,041,46,196,62,129,43,199,60,167,45,06,50,333,45,8*55
$GPGSV,3,2,10,194,43,171,45,09,31,110,40,14,30,177,40,11,26,281,37,8*57
$GPGSV,3,3,10,04,21,077,27,03,13,038,23,8*65
$GLGSV,2,1,08,67,48,069,39,68,44,151,42,82,37,031,44,83,32,336,32,1*77
$GLGSV,2,2,08,80,28,234,22,73,23,295,38,66,09,029,28,79,04,188,,1*74
$GAGSV,3,1,09,24,54,248,40,12,49,010,35,10,49,329,40,11,34,296,36,7*73
$GAGSV,3,2,09,31,31,182,38,19,30,090,25,04,25,156,31,25,24,310,25,7*79
$GAGSV,3,3,09,33,16,061,24,7*4C
$GAGSV,3,1,09,24,54,248,45,10,49,329,45,12,49,010,40,11,34,296,37,1*76
$GAGSV,3,2,09,31,31,182,40,19,30,090,22,04,25,156,37,25,24,310,31,1*74
$GAGSV,3,3,09,33,16,061,26,1*48
$GBGSV,4,1,15,40,84,109,41,07,82,256,40,10,72,295,39,14,61,091,41,1*75
$GBGSV,4,2,15,33,59,154,43,08,59,265,41,43,53,048,44,13,49,254,39,1*74
$GBGSV,4,3,15,42,42,058,40,28,35,321,43,11,34,076,35,23,21,224,,1*71
$GBGSV,4,4,15,34,19,093,40,41,18,197,,37,17,277,23,1*41
$GBGSV,2,1,07,40,84,109,45,33,59,154,46,43,53,048,44,42,42,058,43,4*7F
$GBGSV,2,2,07,28,35,321,40,34,19,093,37,37,17,277,30,4*4E
$GNGGA,033659.000,2500.8127411,N,12132.4383617,E,4,65,0.44,17.637,M,15.25,M,1,3335*4E
$GNRMC,033659.000,A,2500.8127411,N,12132.4383617,E,0.00,119.92,270623,,,R,V*13
$GPHDT,2.602,T*33
$GNGGA,033659.200,2500.8127417,N,12132.4383617,E,4,66,0.44,17.633,M,15.25,M,1,3335*4D
$GNRMC,033659.200,A,2500.8127417,N,12132.4383617,E,0.00,119.92,270623,,,R,V*17
$GPHDT,2.708,T*38
$GNGGA,033659.400,2500.8127399,N,12132.4383611,E,4,66,0.44,17.633,M,15.25,M,1,3335*4C
$GNRMC,033659.400,A,2500.8127399,N,12132.4383611,E,0.00,119.92,270623,,,R,V*16
$GPHDT,2.608,T*39
$GNGGA,033659.600,2500.8127422,N,12132.4383627,E,4,66,0.44,17.612,M,15.25,M,0,3335*4E
$GNRMC,033659.600,A,2500.8127422,N,12132.4383627,E,0.00,119.92,270623,,,R,V*16
$GPHDT,2.669,T*3E
$GNGGA,033659.800,2500.8127423,N,12132.4383622,E,4,66,0.44,17.619,M,15.25,M,0,3335*4F
$GNRMC,033659.800,A,2500.8127423,N,12132.4383622,E,0.00,119.92,270623,,,R,V*1C
$GPHDT,2.450,T*36
$GNGSA,A,3,195,17,19,196,199,06,194,09,14,11,04,03,0.83,0.44,0.70,1*00
$GNGSA,A,3,12,,,,,,,,,,,,0.83,0.44,0.70,1*0E
$GNGSA,A,3,67,68,82,83,80,73,,,,,,,0.83,0.44,0.70,2*0C
$GNGSA,A,3,24,12,10,11,31,19,04,25,33,,,,0.83,0.44,0.70,3*02
$GNGSA,A,3,40,07,10,14,33,08,43,13,42,28,11,34,0.83,0.44,0.70,4*09
$GNGSA,A,3,37,,,,,,,,,,,,0.83,0.44,0.70,4*0C
$GPGSV,4,1,15,195,67,041,42,17,64,065,42,19,63,011,43,196,62,129,42,1*67
$GPGSV,4,2,15,199,60,167,34,06,50,333,43,194,43,171,42,41,38,242,42,1*67
$GPGSV,4,3,15,09,31,110,38,14,30,177,40,11,26,281,38,20,25,228,17,1*6B
$GPGSV,4,4,15,04,21,077,27,03,13,038,22,12,10,320,16,1*5C
$GPGSV,3,1,10,195,67,041,46,196,62,129,43,199,60,167,45,06,50,333,45,8*55
$GPGSV,3,2,10,194,43,171,45,09,31,110,39,14,30,177,39,11,26,281,37,8*57
$GPGSV,3,3,10,04,21,077,29,03,13,038,22,8*6A
$GLGSV,2,1,08,67,48,069,39,68,44,151,42,82,37,031,44,83,32,336,31,1*74
$GLGSV,2,2,08,80,28,234,20,73,23,295,38,66,09,029,28,79,04,188,,1*76
$GAGSV,3,1,09,24,54,248,40,12,49,010,35,10,49,329,40,11,34,296,36,7*73
$GAGSV,3,2,09,31,31,182,38,19,30,090,22,04,25,156,29,25,24,310,25,7*77
$GAGSV,3,3,09,33,16,061,23,7*4B
$GAGSV,3,1,09,24,54,248,45,10,49,329,45,12,49,010,40,11,34,296,37,1*76
$GAGSV,3,2,09,31,31,182,39,19,30,090,24,04,25,156,37,25,24,310,30,1*7D
$GAGSV,3,3,09,33,16,061,25,1*4B
$GBGSV,4,1,15,40,84,109,41,07,82,256,40,10,72,295,39,14,61,091,41,1*75
$GBGSV,4,2,15,33,60,153,43,08,59,265,41,43,53,048,44,13,49,254,39,1*79
$GBGSV,4,3,15,42,42,058,39,28,35,321,43,11,34,076,35,23,21,224,,1*7F
$GBGSV,4,4,15,34,19,093,40,41,18,197,,37,17,277,20,1*42
$GBGSV,2,1,07,40,84,109,45,33,60,153,46,43,53,048,44,42,42,058,43,4*72
$GBGSV,2,2,07,28,35,321,40,34,19,093,37,37,17,277,30,4*4E
$GNGGA,033700.000,2500.8127456,N,12132.4383592,E,4,66,0.44,17.635,M,15.25,M,1,3335*4F
$GNRMC,033700.000,A,2500.8127456,N,12132.4383592,E,0.00,119.92,270623,,,R,V*13
$GPHDT,2.486,T*3D
$GNGGA,033700.200,2500.8127407,N,12132.4383615,E,4,66,0.44,17.624,M,15.25,M,1,3335*45
$GNRMC,033700.200,A,2500.8127407,N,12132.4383615,E,0.00,119.92,270623,,,R,V*19
$GPHDT,2.507,T*35
$GNGGA,033700.400,2500.8127382,N,12132.4383641,E,4,66,0.44,17.613,M,15.25,M,1,3335*4C
$GNRMC,033700.400,A,2500.8127382,N,12132.4383641,E,0.00,119.92,270623,,,R,V*14
$GPHDT,2.563,T*37
$GNGGA,033700.600,2500.8127459,N,12132.4383598,E,4,66,0.44,17.630,M,15.25,M,1,3335*49
$GNRMC,033700.600,A,2500.8127459,N,12132.4383598,E,0.00,119.92,270623,,,R,V*10
$GPHDT,2.444,T*33
$GNGGA,033700.800,2500.8127401,N,12132.4383629,E,4,66,0.44,17.617,M,15.25,M,1,3335*46
$GNRMC,033700.800,A,2500.8127401,N,12132.4383629,E,0.00,119.92,270623,,,R,V*1A
$GPHDT,2.557,T*30
$GNGSA,A,3,195,17,19,196,199,06,194,09,14,11,04,03,0.83,0.44,0.70,1*00
$GNGSA,A,3,12,,,,,,,,,,,,0.83,0.44,0.70,1*0E
$GNGSA,A,3,67,68,82,83,80,73,,,,,,,0.83,0.44,0.70,2*0C
$GNGSA,A,3,24,12,10,11,31,19,04,25,33,,,,0.83,0.44,0.70,3*02
$GNGSA,A,3,40,07,10,14,33,08,43,13,42,28,11,34,0.83,0.44,0.70,4*09
$GNGSA,A,3,37,,,,,,,,,,,,0.83,0.44,0.70,4*0C
$GPGSV,4,1,15,195,67,041,42,17,64,065,42,19,63,011,43,196,62,129,42,1*67
$GPGSV,4,2,15,199,60,167,33,06,50,333,43,194,43,171,42,41,38,242,42,1*60
$GPGSV,4,3,15,09,31,110,40,14,30,177,40,11,26,281,38,20,25,228,17,1*64
$GPGSV,4,4,15,04,21,077,30,03,13,038,20,12,10,320,14,1*5A
$GPGSV,3,1,10,195,67,041,46,196,62,129,43,199,60,167,45,06,50,333,45,8*55
$GPGSV,3,2,10,194,43,171,45,09,31,110,39,14,30,177,39,11,26,281,37,8*57
$GPGSV,3,3,10,04,21,077,29,03,13,038,22,8*6A
$GLGSV,2,1,08,67,48,069,40,68,44,151,42,82,37,031,43,83,32,336,31,1*7D
$GLGSV,2,2,08,80,28,234,20,73,23,295,38,66,09,029,28,79,04,188,,1*76
$GAGSV,3,1,09,24,54,248,40,12,49,010,35,10,49,329,40,11,34,296,36,7*73
$GAGSV,3,2,09,31,31,182,38,19,30,090,23,04,25,156,29,25,24,310,25,7*76
$GAGSV,3,3,09,33,16,061,22,7*4A
$GAGSV,3,1,09,24,54,248,45,10,49,329,45,12,49,010,40,11,34,296,36,1*77
$GAGSV,3,2,09,31,31,182,39,19,30,090,23,04,25,156,37,25,24,310,30,1*7A
$GAGSV,3,3,09,33,16,061,25,1*4B
$GBGSV,4,1,15,40,84,109,41,07,82,256,40,10,72,295,39,14,61,091,42,1*76
$GBGSV,4,2,15,33,60,153,43,08,59,265,41,43,53,048,44,13,49,254,39,1*79
$GBGSV,4,3,15,42,42,058,39,28,35,321,44,11,34,076,34,23,21,224,,1*79
$GBGSV,4,4,15,34,19,093,41,41,18,197,,37,17,277,19,1*49
$GBGSV,2,1,07,40,84,109,45,33,60,153,46,43,53,048,44,42,42,058,43,4*72
$GBGSV,2,2,07,28,35,321,40,34,19,093,37,37,17,277,30,4*4E
$GNGGA,033701.000,2500.8127423,N,12132.4383650,E,4,66,0.44,17.623,M,15.25,M,2,3335*45
$GNRMC,033701.000,A,2500.8127423,N,12132.4383650,E,0.00,119.92,270623,,,R,V*1D
$GPHDT,2.460,T*35
$GNGGA,033701.200,2500.8127468,N,12132.4383605,E,4,66,0.44,17.656,M,15.25,M,1,3335*49
$GNRMC,033701.200,A,2500.8127468,N,12132.4383605,E,0.00,119.92,270623,,,R,V*10
$GPHDT,2.440,T*37
$GNGGA,033701.400,2500.8127443,N,12132.4383642,E,4,66,0.44,17.640,M,15.25,M,1,3335*42
$GNRMC,033701.400,A,2500.8127443,N,12132.4383642,E,0.00,119.92,270623,,,R,V*1C
$GPHDT,2.547,T*31
$GNGGA,033701.600,2500.8127445,N,12132.4383606,E,4,66,0.44,17.645,M,15.25,M,1,3335*43
$GNRMC,033701.600,A,2500.8127445,N,12132.4383606,E,0.00,119.92,270623,,,R,V*18
$GPHDT,2.738,T*3B
$GNGGA,033701.800,2500.8127437,N,12132.4383581,E,4,66,0.44,17.643,M,15.25,M,0,3335*43
$GNRMC,033701.800,A,2500.8127437,N,12132.4383581,E,0.00,119.92,270623,,,R,V*1F
$GPHDT,2.539,T*38
$GNGSA,A,3,195,17,19,196,199,06,194,09,14,11,04,03,0.83,0.44,0.70,1*00
$GNGSA,A,3,12,,,,,,,,,,,,0.83,0.44,0.70,1*0E
$GNGSA,A,3,67,68,82,83,80,73,,,,,,,0.83,0.44,0.70,2*0C
$GNGSA,A,3,24,12,10,11,31,19,04,25,33,,,,0.83,0.44,0.70,3*02
$GNGSA,A,3,40,07,10,14,33,08,43,13,42,28,11,34,0.83,0.44,0.70,4*09
$GNGSA,A,3,37,,,,,,,,,,,,0.83,0.44,0.70,4*0C
$GPGSV,4,1,15,195,67,041,42,17,64,065,42,19,63,011,43,196,62,129,42,1*67
$GPGSV,4,2,15,199,60,167,33,06,50,333,43,194,43,171,42,41,38,242,41,1*63
$GPGSV,4,3,15,09,31,110,40,14,30,177,40,11,26,281,38,20,25,228,16,1*65
$GPGSV,4,4,15,04,21,077,30,03,13,038,22,12,10,320,15,1*59
$GPGSV,3,1,10,195,67,041,46,196,62,129,43,199,60,167,45,06,50,333,45,8*55
$GPGSV,3,2,10,194,43,171,45,09,31,110,39,14,30,177,39,11,26,281,37,8*57
$GPGSV,3,3,10,04,21,077,29,03,13,038,22,8*6A
$GLGSV,2,1,08,67,48,069,41,68,44,151,42,82,37,031,43,83,32,336,31,1*7C
$GLGSV,2,2,08,80,28,234,23,73,23,295,38,66,09,029,29,79,04,188,,1*74
$GAGSV,3,1,09,24,54,248,40,12,49,010,35,10,49,329,40,11,34,296,36,7*73
$GAGSV,3,2,09,31,31,182,38,19,30,090,25,04,25,156,29,25,24,310,25,7*70
$GAGSV,3,3,09,33,16,061,24,7*4C
$GAGSV,3,1,09,24,54,248,45,10,49,329,45,12,49,010,41,11,34,296,35,1*75
$GAGSV,3,2,09,31,31,182,39,19,30,090,23,04,25,156,37,25,24,310,31,1*7B
$GAGSV,3,3,09,33,16,061,25,1*4B
$GBGSV,4,1,15,40,84,111,41,07,82,256,40,10,72,295,39,14,61,091,42,1*7F
$GBGSV,4,2,15,33,60,153,43,08,59,265,41,43,53,049,44,13,49,254,39,1*78
$GBGSV,4,3,15,42,42,057,39,28,35,321,44,11,34,076,32,23,21,224,,1*70
$GBGSV,4,4,15,34,19,093,41,41,18,197,,37,17,277,20,1*43
$GBGSV,2,1,07,40,84,111,45,33,60,153,46,43,53,049,44,42,42,057,43,4*75
$GBGSV,2,2,07,28,35,321,41,34,19,093,37,37,17,277,31,4*4E
$GNGGA,033702.000,2500.8127447,N,12132.4383594,E,4,66,0.44,17.636,M,15.25,M,1,3335*48
$GNRMC,033702.000,A,2500.8127447,N,12132.4383594,E,0.00,119.92,270623,,,R,V*17
$GPHDT,2.519,T*3A
$GNGGA,033702.200,2500.8127435,N,12132.4383614,E,4,67,0.44,17.634,M,15.25,M,1,3335*47
$GNRMC,033702.200,A,2500.8127435,N,12132.4383614,E,0.00,119.92,270623,,,R,V*1B
$GPHDT,2.284,T*39
$GNGGA,033702.400,2500.8127417,N,12132.4383612,E,4,66,0.44,17.636,M,15.25,M,1,3335*44
$GNRMC,033702.400,A,2500.8127417,N,12132.4383612,E,0.00,119.92,270623,,,R,V*1B
$GPHDT,2.662,T*35
$GNGGA,033702.600,2500.8127419,N,12132.4383587,E,4,66,0.44,17.640,M,15.25,M,0,3335*47
$GNRMC,033702.600,A,2500.8127419,N,12132.4383587,E,0.00,119.92,270623,,,R,V*18
$GPHDT,2.579,T*3C
$GNGGA,033702.800,2500.8127422,N,12132.4383587,E,4,66,0.44,17.642,M,15.25,M,0,3335*43
$GNRMC,033702.800,A,2500.8127422,N,12132.4383587,E,0.00,119.92,270623,,,R,V*1E
$GPHDT,2.634,T*36
$GNGSA,A,3,195,17,19,196,199,06,194,09,14,11,04,03,0.85,0.44,0.73,1*05
$GNGSA,A,3,67,68,82,83,80,73,,,,,,,0.85,0.44,0.73,2*09
$GNGSA,A,3,24,12,10,11,31,19,04,25,33,,,,0.85,0.44,0.73,3*07
$GNGSA,A,3,40,07,10,14,33,08,43,13,42,28,11,34,0.85,0.44,0.73,4*0C
$GNGSA,A,3,37,,,,,,,,,,,,0.85,0.44,0.73,4*09
$GPGSV,4,1,15,195,67,041,42,17,64,065,42,19,63,011,43,196,62,129,42,1*67
$GPGSV,4,2,15,199,60,167,33,06,50,333,43,194,43,171,42,41,38,242,42,1*60
$GPGSV,4,3,15,09,31,110,40,14,30,177,40,11,26,281,38,20,25,228,,1*62
$GPGSV,4,4,15,04,21,077,29,03,13,038,23,12,10,320,17,1*52
$GPGSV,3,1,10,195,67,041,46,196,62,129,43,199,60,167,45,06,50,333,45,8*55
$GPGSV,3,2,10,194,43,171,45,09,31,110,39,14,30,177,39,11,26,281,37,8*57
$GPGSV,3,3,10,04,21,077,29,03,13,038,20,8*68
$GLGSV,2,1,08,67,48,069,41,68,44,151,42,82,37,031,43,83,32,336,31,1*7C
$GLGSV,2,2,08,80,28,234,20,73,23,295,38,66,09,029,29,79,04,188,,1*77
$GAGSV,3,1,09,24,54,248,40,12,49,010,35,10,49,329,40,11,34,296,36,7*73
$GAGSV,3,2,09,31,31,182,38,19,30,090,25,04,25,156,29,25,24,310,25,7*70
$GAGSV,3,3,09,33,16,061,24,7*4C
$GAGSV,3,1,09,24,54,248,45,10,49,329,45,12,49,010,41,11,34,296,35,1*75
$GAGSV,3,2,09,31,31,182,39,19,30,090,24,04,25,156,37,25,24,310,30,1*7D
$GAGSV,3,3,09,33,16,061,24,1*4A
$GBGSV,4,1,15,40,84,111,41,07,82,256,40,10,72,295,39,14,61,091,42,1*7F
$GBGSV,4,2,15,33,60,153,43,08,59,265,41,43,53,049,44,13,49,254,39,1*78
$GBGSV,4,3,15,42,42,057,39,28,35,321,44,11,34,076,32,23,21,224,,1*70
$GBGSV,4,4,15,34,19,093,41,41,18,197,,37,17,277,18,1*48
$GBGSV,2,1,07,40,84,111,45,33,60,153,46,43,53,049,44,42,42,057,43,4*75
$GBGSV,2,2,07,28,35,321,40,34,19,093,38,37,17,277,31,4*40
$GNGGA,033703.000,2500.8127418,N,12132.4383625,E,4,66,0.44,17.638,M,15.25,M,1,3335*44
$GNRMC,033703.000,A,2500.8127418,N,12132.4383625,E,0.00,119.92,270623,,,R,V*15
$GPHDT,2.683,T*3A
$GNGGA,033703.200,2500.8127414,N,12132.4383627,E,4,66,0.44,17.632,M,15.25,M,1,3335*42
$GNRMC,033703.200,A,2500.8127414,N,12132.4383627,E,0.00,119.92,270623,,,R,V*19
$GPHDT,2.357,T*36
$GNGGA,033703.400,2500.8127397,N,12132.4383628,E,4,66,0.44,17.637,M,15.25,M,1,3335*42
$GNRMC,033703.400,A,2500.8127397,N,12132.4383628,E,0.00,119.92,270623,,,R,V*1C
$GPHDT,2.510,T*33
$GNGGA,033703.600,2500.8127448,N,12132.4383614,E,4,67,0.44,17.643,M,15.25,M,1,3335*48
$GNRMC,033703.600,A,2500.8127448,N,12132.4383614,E,0.00,119.92,270623,,,R,V*14
$GPHDT,2.570,T*35
$GNGGA,033703.800,2500.8127453,N,12132.4383565,E,4,67,0.44,17.647,M,15.25,M,0,3335*4C
$GNRMC,033703.800,A,2500.8127453,N,12132.4383565,E,0.00,119.92,270623,,,R,V*15
$GPHDT,2.636,T*34
$GNGSA,A,3,195,17,19,196,199,06,194,09,14,11,04,03,0.83,0.44,0.70,1*00
$GNGSA,A,3,12,,,,,,,,,,,,0.83,0.44,0.70,1*0E
$GNGSA,A,3,67,68,82,83,80,73,,,,,,,0.83,0.44,0.70,2*0C
$GNGSA,A,3,24,12,10,11,31,19,04,25,33,,,,0.83,0.44,0.70,3*02
$GNGSA,A,3,40,07,10,14,33,08,43,13,42,28,11,34,0.83,0.44,0.70,4*09
$GNGSA,A,3,37,,,,,,,,,,,,0.83,0.44,0.70,4*0C
$GPGSV,4,1,15,195,67,041,42,17,64,065,42,19,63,011,43,196,62,129,42,1*67
$GPGSV,4,2,15,199,60,167,33,06,50,333,43,194,43,171,42,41,38,242,42,1*60
$GPGSV,4,3,15,09,31,110,40,14,30,177,40,11,26,281,38,20,25,228,,1*62
$GPGSV,4,4,15,04,21,077,30,03,13,038,22,12,10,320,19,1*55
$GPGSV,3,1,10,195,67,041,46,196,62,129,43,199,60,167,45,06,50,333,45,8*55
$GPGSV,3,2,10,194,43,171,45,09,31,110,39,14,30,177,39,11,26,281,37,8*57
$GPGSV,3,3,10,04,21,077,29,03,13,038,20,8*68
$GLGSV,3,1,09,67,48,069,41,68,44,151,42,82,37,031,43,83,32,336,31,1*7C
$GLGSV,3,2,09,80,28,234,19,73,23,295,39,66,09,029,29,69,06,186,,1*71
$GLGSV,3,3,09,79,04,188,,1*4A
$GAGSV,3,1,09,24,54,248,40,12,49,010,35,10,49,329,40,11,34,296,36,7*73
$GAGSV,3,2,09,31,31,182,38,19,30,090,25,04,25,156,29,25,24,310,26,7*73
$GAGSV,3,3,09,33,16,061,24,7*4C
$GAGSV,3,1,09,24,54,248,45,10,49,329,45,12,49,010,41,11,34,296,35,1*75
$GAGSV,3,2,09,31,31,182,39,19,30,090,25,04,25,156,37,25,24,310,30,1*7C
$GAGSV,3,3,09,33,16,061,24,1*4A
$GBGSV,4,1,16,40,84,111,41,07,82,256,40,10,72,295,39,14,61,091,42,1*7C
$GBGSV,4,2,16,33,60,153,43,08,59,265,41,43,53,049,44,13,49,254,39,1*7B
$GBGSV,4,3,16,42,42,057,39,28,35,321,44,11,34,076,32,23,21,224,,1*73
$GBGSV,4,4,16,34,19,093,41,41,18,197,,37,17,277,20,39,02,179,,1*77
$GBGSV,2,1,07,40,84,111,45,33,60,153,46,43,53,049,44,42,42,057,43,4*75
$GBGSV,2,2,07,28,35,321,40,34,19,093,38,37,17,277,31,4*40
$GNGGA,033704.000,2500.8127451,N,12132.4383604,E,4,67,0.44,17.637,M,15.25,M,1,3335*43
$GNRMC,033704.000,A,2500.8127451,N,12132.4383604,E,0.00,119.92,270623,,,R,V*1C
$GPHDT,2.526,T*36
$GNGGA,033704.200,2500.8127453,N,12132.4383589,E,4,67,0.44,17.634,M,15.25,M,1,3335*46
$GNRMC,033704.200,A,2500.8127453,N,12132.4383589,E,0.00,119.92,270623,,,R,V*1A
$GPHDT,2.544,T*32
$GNGGA,033704.400,2500.8127444,N,12132.4383611,E,4,67,0.44,17.632,M,15.25,M,1,3335*42
$GNRMC,033704.400,A,2500.8127444,N,12132.4383611,E,0.00,119.92,270623,,,R,V*18
$GPHDT,2.515,T*36
$GNGGA,033704.600,2500.8127407,N,12132.4383634,E,4,67,0.44,17.628,M,15.25,M,0,3335*4A
$GNRMC,033704.600,A,2500.8127407,N,12132.4383634,E,0.00,119.92,270623,,,R,V*1A
$GPHDT,2.404,T*37
$GNGGA,033704.800,2500.8127411,N,12132.4383598,E,4,67,0.44,17.630,M,15.25,M,0,3335*4F
$GNRMC,033704.800,A,2500.8127411,N,12132.4383598,E,0.00,119.92,270623,,,R,V*16
$GPHDT,2.659,T*3D
$GNGSA,A,3,195,17,19,196,199,06,194,09,14,11,04,03,0.83,0.44,0.70,1*00
$GNGSA,A,3,12,,,,,,,,,,,,0.83,0.44,0.70,1*0E
$GNGSA,A,3,67,68,82,83,80,73,,,,,,,0.83,0.44,0.70,2*0C
$GNGSA,A,3,24,12,10,11,31,19,04,25,33,,,,0.83,0.44,0.70,3*02
$GNGSA,A,3,40,07,10,14,33,08,43,13,42,28,11,34,0.83,0.44,0.70,4*09
$GNGSA,A,3,37,,,,,,,,,,,,0.83,0.44,0.70,4*0C
$GPGSV,4,1,15,195,67,041,42,17,64,065,42,19,63,011,43,196,62,129,42,1*67
$GPGSV,4,2,15,199,60,167,33,06,50,333,43,194,43,171,42,41,38,242,42,1*60
$GPGSV,4,3,15,09,31,110,40,14,30,177,40,11,26,281,38,20,25,228,,1*62
$GPGSV,4,4,15,04,21,077,28,03,13,038,21,12,10,320,20,1*55
$GPGSV,3,1,10,195,67,041,45,196,62,129,43,199,60,167,45,06,50,333,45,8*56
$GPGSV,3,2,10,194,43,171,44,09,31,110,39,14,30,177,39,11,26,281,36,8*57
$GPGSV,3,3,10,04,21,077,29,03,13,038,20,8*68
$GLGSV,3,1,09,67,48,069,41,68,44,151,42,82,37,031,43,83,32,336,30,1*7D
$GLGSV,3,2,09,80,28,234,21,73,23,295,39,66,09,029,30,79,04,188,,1*7F
$GLGSV,3,3,09,74,01,331,,1*42
$GAGSV,3,1,09,24,54,248,40,12,49,010,35,10,49,329,41,11,34,296,36,7*72
$GAGSV,3,2,09,31,31,182,38,19,30,090,25,04,25,156,30,25,24,310,28,7*75
$GAGSV,3,3,09,33,16,061,24,7*4C
$GAGSV,3,1,09,24,54,248,45,10,49,329,45,12,49,010,41,11,34,296,35,1*75
$GAGSV,3,2,09,31,31,182,39,19,30,090,25,04,25,156,36,25,24,310,30,1*7D
$GAGSV,3,3,09,33,16,061,23,1*4D
$GBGSV,4,1,15,40,84,111,41,07,82,256,40,10,72,295,39,14,61,091,42,1*7F
$GBGSV,4,2,15,33,60,153,44,08,59,265,41,43,53,049,44,13,49,254,37,1*71
$GBGSV,4,3,15,42,42,057,38,28,35,321,44,11,34,076,32,23,21,224,,1*71
$GBGSV,4,4,15,34,19,093,40,41,18,197,,37,17,277,22,1*40
$GBGSV,2,1,07,40,84,111,44,33,60,153,46,43,53,049,44,42,42,057,43,4*74
$GBGSV,2,2,07,28,35,321,39,34,19,093,38,37,17,277,30,4*4F
$GNGGA,033705.000,2500.8127412,N,12132.4383595,E,4,67,0.44,17.636,M,15.25,M,1,3335*4F
$GNRMC,033705.000,A,2500.8127412,N,12132.4383595,E,0.00,119.92,270623,,,R,V*11
$GPHDT,2.582,T*38
$GNGGA,033705.200,2500.8127420,N,12132.4383577,E,4,67,0.44,17.638,M,15.25,M,1,3335*4E
$GNRMC,033705.200,A,2500.8127420,N,12132.4383577,E,0.00,119.92,270623,,,R,V*1E
$GPHDT,3.065,T*35
$GNGGA,033705.400,2500.8127403,N,12132.4383606,E,4,67,0.44,17.632,M,15.25,M,1,3335*46
$GNRMC,033705.400,A,2500.8127403,N,12132.4383606,E,0.00,119.92,270623,,,R,V*1C
$GPHDT,2.695,T*3D
$GNGGA,033705.600,2500.8127373,N,12132.4383610,E,4,67,0.44,17.627,M,15.25,M,1,3335*47
$GNRMC,033705.600,A,2500.8127373,N,12132.4383610,E,0.00,119.92,270623,,,R,V*19
$GPHDT,2.895,T*33
$GNGGA,033705.800,2500.8127381,N,12132.4383610,E,4,67,0.44,17.620,M,15.25,M,1,3335*43
$GNRMC,033705.800,A,2500.8127381,N,12132.4383610,E,0.00,119.92,270623,,,R,V*1A
$GPHDT,2.993,T*34
$GNGSA,A,3,195,17,19,196,199,06,194,09,14,11,03,12,0.83,0.44,0.70,1*07
$GNGSA,A,3,04,,,,,,,,,,,,0.83,0.44,0.70,1*09
$GNGSA,A,3,67,68,82,83,80,73,,,,,,,0.83,0.44,0.70,2*0C
$GNGSA,A,3,24,12,10,11,31,19,04,25,33,,,,0.83,0.44,0.70,3*02
$GNGSA,A,3,40,07,10,14,33,08,43,13,42,28,11,34,0.83,0.44,0.70,4*09
$GNGSA,A,3,37,,,,,,,,,,,,0.83,0.44,0.70,4*0C
$GPGSV,4,1,15,195,67,041,42,17,64,065,42,19,63,011,43,196,62,129,42,1*67
$GPGSV,4,2,15,199,60,167,33,06,50,333,43,194,43,171,42,41,38,242,41,1*63
$GPGSV,4,3,15,09,31,110,38,14,30,177,40,11,26,281,39,20,25,228,,1*6C
$GPGSV,4,4,15,04,21,077,24,03,13,038,21,12,10,320,18,1*52
$GPGSV,3,1,10,195,67,041,45,196,62,129,43,199,60,167,45,06,50,333,45,8*56
$GPGSV,3,2,10,194,43,171,44,09,31,110,41,14,30,177,39,11,26,281,35,8*5B
$GPGSV,3,3,10,04,21,077,30,03,13,038,22,8*62
$GLGSV,2,1,08,67,48,069,42,68,44,151,42,82,37,031,43,83,32,336,31,1*7F
$GLGSV,2,2,08,80,28,234,22,73,23,295,39,66,09,029,29,79,04,188,,1*74
$GAGSV,3,1,09,24,54,248,41,12,49,010,35,10,49,329,41,11,34,296,35,7*70
$GAGSV,3,2,09,31,31,182,38,19,30,090,27,04,25,156,30,25,24,310,28,7*77
$GAGSV,3,3,09,33,16,061,23,7*4B
$GAGSV,3,1,09,24,54,248,45,10,49,329,45,12,49,010,41,11,34,296,37,1*77
$GAGSV,3,2,09,31,31,182,39,19,30,090,23,04,25,156,36,25,24,310,29,1*73
$GAGSV,3,3,09,33,16,061,23,1*4D
$GBGSV,4,1,15,40,84,111,41,07,82,256,40,10,72,295,38,14,61,091,41,1*7D
$GBGSV,4,2,15,33,60,153,44,08,59,265,40,43,53,049,44,13,49,254,37,1*70
$GBGSV,4,3,15,42,42,057,38,28,35,321,44,11,34,076,28,23,21,224,,1*7A
$GBGSV,4,4,15,34,19,093,41,41,18,197,,37,17,277,18,1*48
$GBGSV,2,1,07,40,84,111,45,33,60,153,46,43,53,049,44,42,42,057,43,4*75
$GBGSV,2,2,07,28,35,321,39,34,19,093,38,37,17,277,31,4*4E
$GNGGA,033706.000,2500.8127387,N,12132.4383602,E,4,66,0.44,17.635,M,15.25,M,1,3335*48
$GNRMC,033706.000,A,2500.8127387,N,12132.4383602,E,0.00,119.92,270623,,,R,V*14
$GPHDT,2.895,T*33
$GNGGA,033706.200,2500.8127411,N,12132.4383605,E,4,67,0.44,17.638,M,15.25,M,1,3335*49
$GNRMC,033706.200,A,2500.8127411,N,12132.4383605,E,0.00,119.92,270623,,,R,V*19
$GPHDT,2.802,T*3D
$GNGGA,033706.400,2500.8127382,N,12132.4383628,E,4,66,0.45,17.628,M,15.25,M,1,3335*4C
$GNRMC,033706.400,A,2500.8127382,N,12132.4383628,E,0.00,119.92,270623,,,R,V*1D
$GPHDT,2.747,T*33
$GNGGA,033706.600,2500.8127387,N,12132.4383641,E,4,66,0.45,17.626,M,15.25,M,0,3335*4B
$GNRMC,033706.600,A,2500.8127387,N,12132.4383641,E,0.00,119.92,270623,,,R,V*15
$GPHDT,2.649,T*3C
$GNGGA,033706.800,2500.8127428,N,12132.4383584,E,4,65,0.45,17.662,M,15.25,M,0,3335*4E
$GNRMC,033706.800,A,2500.8127428,N,12132.4383584,E,0.00,119.92,270623,,,R,V*13
$GPHDT,2.604,T*35
$GNGSA,A,3,195,17,19,196,199,06,194,09,14,11,04,03,0.83,0.45,0.70,1*01
$GNGSA,A,3,12,,,,,,,,,,,,0.83,0.45,0.70,1*0F
$GNGSA,A,3,67,68,82,83,80,73,,,,,,,0.83,0.45,0.70,2*0D
$GNGSA,A,3,24,10,12,11,31,19,04,25,33,,,,0.83,0.45,0.70,3*03
$GNGSA,A,3,40,07,10,14,33,08,43,13,42,28,34,37,0.83,0.45,0.70,4*0C
$GPGSV,4,1,15,195,67,041,42,17,64,065,42,19,63,011,43,196,62,129,42,1*67
$GPGSV,4,2,15,199,60,167,34,06,50,333,43,194,43,171,42,41,38,242,41,1*64
$GPGSV,4,3,15,09,31,110,38,14,30,177,40,11,26,281,39,20,25,228,22,1*6C
$GPGSV,4,4,15,04,21,077,25,03,12,038,22,12,10,320,17,1*5E
$GPGSV,3,1,10,195,67,041,45,196,62,129,43,199,60,167,45,06,50,333,46,8*55
$GPGSV,3,2,10,194,43,171,44,09,31,110,41,14,30,177,39,11,26,281,35,8*5B
$GPGSV,3,3,10,04,21,077,30,03,12,038,23,8*62
$GLGSV,3,1,10,67,48,069,42,68,44,151,42,82,37,031,43,83,32,336,31,1*77
$GLGSV,3,2,10,80,28,234,24,73,23,295,38,66,09,029,29,69,06,186,,1*76
$GLGSV,3,3,10,79,04,188,,74,01,331,,1*71
$GAGSV,3,1,09,24,54,248,41,10,49,329,41,12,49,010,36,11,34,296,35,7*73
$GAGSV,3,2,09,31,31,182,38,19,30,090,27,04,25,156,31,25,24,310,30,7*7F
$GAGSV,3,3,09,33,16,061,22,7*4A
$GAGSV,3,1,09,24,54,248,45,10,49,329,45,12,49,010,41,11,34,296,37,1*77
$GAGSV,3,2,09,31,31,182,39,19,30,090,22,04,25,156,36,25,24,310,28,1*73
$GAGSV,3,3,09,33,16,061,23,1*4D
$GBGSV,4,1,15,40,84,111,41,07,82,256,40,10,72,295,38,14,61,091,41,1*7D
$GBGSV,4,2,15,33,60,153,44,08,59,265,40,43,53,049,44,13,49,254,37,1*70
$GBGSV,4,3,15,42,42,057,38,28,35,321,44,11,34,076,,23,21,224,,1*70
$GBGSV,4,4,15,34,19,093,41,41,18,197,,37,17,277,19,1*49
$GBGSV,2,1,07,40,84,111,45,33,60,153,46,43,53,049,44,42,42,057,43,4*75
$GBGSV,2,2,07,28,35,321,39,34,19,093,38,37,17,277,31,4*4E
$GNGGA,033707.000,2500.8127441,N,12132.4383589,E,4,66,0.45,17.654,M,15.25,M,1,3335*42
$GNRMC,033707.000,A,2500.8127441,N,12132.4383589,E,0.00,119.92,270623,,,R,V*18
$GPHDT,2.619,T*39
$GNGGA,033707.200,2500.8127436,N,12132.4383587,E,4,66,0.45,17.660,M,15.25,M,1,3335*49
$GNRMC,033707.200,A,2500.8127436,N,12132.4383587,E,0.00,119.92,270623,,,R,V*14
$GPHDT,2.729,T*3B
$GNGGA,033707.400,2500.8127416,N,12132.4383579,E,4,66,0.43,17.652,M,15.25,M,1,3335*4B
$GNRMC,033707.400,A,2500.8127416,N,12132.4383579,E,0.00,119.92,270623,,,R,V*11
$GPHDT,2.685,T*3C
$GNGGA,033707.600,2500.8127422,N,12132.4383580,E,4,66,0.43,17.655,M,15.25,M,1,3335*4F
$GNRMC,033707.600,A,2500.8127422,N,12132.4383580,E,0.01,119.92,270623,,,R,V*13
$GPHDT,2.792,T*3B
$GNGGA,033707.800,2500.8127433,N,12132.4383577,E,4,67,0.43,17.657,M,15.25,M,1,3335*4A
$GNRMC,033707.800,A,2500.8127433,N,12132.4383577,E,0.00,119.92,270623,,,R,V*14
$GPHDT,2.957,T*3C
$GNGSA,A,3,195,17,19,196,199,06,194,09,14,11,20,04,0.81,0.43,0.69,1*0C
$GNGSA,A,3,03,12,,,,,,,,,,,0.81,0.43,0.69,1*00
$GNGSA,A,3,67,68,82,83,80,73,,,,,,,0.81,0.43,0.69,2*01
$GNGSA,A,3,24,12,10,11,31,19,04,25,33,,,,0.81,0.43,0.69,3*0F
$GNGSA,A,3,40,07,10,14,33,08,43,13,42,28,34,37,0.81,0.43,0.69,4*00
$GPGSV,4,1,15,195,67,041,42,17,64,065,42,19,63,011,43,196,62,129,42,1*67
$GPGSV,4,2,15,199,60,167,34,06,50,333,43,194,43,171,42,41,38,242,41,1*64
$GPGSV,4,3,15,09,31,110,38,14,30,177,40,11,26,281,39,20,25,228,21,1*6F
$GPGSV,4,4,15,04,21,077,27,03,12,038,22,12,10,320,20,1*58
$GPGSV,3,1,10,195,67,041,45,196,62,129,43,199,60,167,45,06,50,333,46,8*55
$GPGSV,3,2,10,194,43,171,44,09,31,110,41,14,30,177,39,11,26,281,37,8*59
$GPGSV,3,3,10,04,21,077,31,03,12,038,23,8*63
$GLGSV,3,1,09,67,48,069,42,68,44,151,42,82,37,031,43,83,32,336,31,1*7F
$GLGSV,3,2,09,80,28,234,24,73,23,295,38,66,09,029,31,69,06,186,,1*77
$GLGSV,3,3,09,79,04,188,,1*4A
$GAGSV,3,1,09,24,54,248,41,12,49,010,36,10,49,329,41,11,34,296,35,7*73
$GAGSV,3,2,09,31,31,182,38,19,30,090,27,04,25,156,31,25,24,310,28,7*76
$GAGSV,3,3,09,33,16,061,22,7*4A
$GAGSV,3,1,09,24,54,248,45,10,49,329,45,12,49,010,41,11,34,296,37,1*77
$GAGSV,3,2,09,31,31,182,39,19,30,090,23,04,25,156,36,25,24,310,29,1*73
$GAGSV,3,3,09,33,16,061,23,1*4D
$GBGSV,4,1,15,40,84,111,41,07,82,256,40,10,72,295,39,14,61,091,41,1*7C
$GBGSV,4,2,15,33,60,153,44,08,59,265,40,43,53,049,44,13,49,254,37,1*70
$GBGSV,4,3,15,42,42,057,38,28,35,321,44,11,34,076,30,23,21,224,,1*73
$GBGSV,4,4,15,34,19,093,41,41,18,197,,37,17,277,19,1*49
$GBGSV,2,1,07,40,84,111,45,33,60,153,46,43,53,049,44,42,42,057,43,4*75
$GBGSV,2,2,07,28,35,321,39,34,19,093,38,37,17,277,30,4*4F
$GNGGA,033708.000,2500.8127420,N,12132.4383586,E,4,67,0.43,17.653,M,15.25,M,2,3335*46
$GNRMC,033708.000,A,2500.8127420,N,12132.4383586,E,0.00,119.92,270623,,,R,V*1F
$GPHDT,2.842,T*39
$GNGGA,033708.200,2500.8127407,N,12132.4383620,E,4,64,0.45,17.621,M,15.25,M,1,3335*4D
$GNRMC,033708.200,A,2500.8127407,N,12132.4383620,E,0.00,119.92,270623,,,R,V*17
$GPHDT,2.665,T*32
$GNGGA,033708.400,2500.8127362,N,12132.4383637,E,4,64,0.44,17.616,M,15.25,M,1,3335*4C
$GNRMC,033708.400,A,2500.8127362,N,12132.4383637,E,0.00,119.92,270623,,,R,V*13
$GPHDT,2.771,T*36
$GNGGA,033708.600,2500.8127438,N,12132.4383558,E,4,64,0.44,17.639,M,15.25,M,0,3335*40
$GNRMC,033708.600,A,2500.8127438,N,12132.4383558,E,0.00,119.92,270623,,,R,V*13
$GPHDT,2.767,T*31
