$FW : RTK35X,V1.1X0314AS,Lib20210517,1*54
$Tool : LOCOSYS , GNSS Firebird , v1.0.0.19*39
$---------------------------------------------------*2D
57,44,4*73
$GBGSV,2,2,07,28,36,321,23,34,19,094,41,37,17,276,29,4*47
$GNGGA,033810.000,2500.8127493,N,12132.4383987,E,4,66,0.43,17.461,M,15.25,M,3,3335*46
$GNRMC,033810.000,A,2500.8127493,N,12132.4383987,E,0.00,119.92,270623,,,R,V*1C
$GPHDT,226.882,T*31
$GNGGA,033810.200,2500.8127474,N,12132.4383921,E,4,67,0.43,17.482,M,15.25,M,3,3335*4D
$GNRMC,033810.200,A,2500.8127474,N,12132.4383921,E,0.00,119.92,270623,,,R,V*1B
$GPHDT,226.906,T*3C
$GNGGA,033810.400,2500.8127529,N,12132.4383912,E,4,68,0.43,17.494,M,15.25,M,3,3335*4A
$GNRMC,033810.400,A,2500.8127529,N,12132.4383912,E,0.00,119.92,270623,,,R,V*14
$GPHDT,226.834,T*3C
$GNGGA,033810.600,2500.8127540,N,12132.4383846,E,4,68,0.43,17.513,M,15.25,M,3,3335*49
$GNRMC,033810.600,A,2500.8127540,N,12132.4383846,E,0.00,119.92,270623,,,R,V*19
$GPHDT,226.510,T*37
$GNGGA,033810.800,2500.8127520,N,12132.4383907,E,4,68,0.43,17.492,M,15.25,M,3,3335*4D
$GNRMC,033810.800,A,2500.8127520,N,12132.4383907,E,0.00,119.92,270623,,,R,V*15
$GPHDT,226.873,T*3F
$GNGSA,A,3,195,17,196,19,199,06,194,09,14,11,20,04,0.81,0.43,0.69,1*0C
$GNGSA,A,3,03,12,,,,,,,,,,,0.81,0.43,0.69,1*00
$GNGSA,A,3,67,68,82,83,80,73,,,,,,,0.81,0.43,0.69,2*01
$GNGSA,A,3,24,10,12,11,19,31,04,25,33,,,,0.81,0.43,0.69,3*0F
$GNGSA,A,3,40,07,10,14,33,08,43,13,42,28,11,34,0.81,0.43,0.69,4*04
$GNGSA,A,3,37,,,,,,,,,,,,0.81,0.43,0.69,4*01
$GPGSV,4,1,15,195,67,042,39,17,64,066,41,196,63,129,41,19,63,012,35,1*68
$GPGSV,4,2,15,199,60,167,35,06,50,334,24,194,42,171,43,41,38,242,43,1*61
$GPGSV,4,3,15,09,31,110,44,14,29,177,41,11,26,281,41,20,26,228,20,1*60
$GPGSV,4,4,15,04,21,077,26,03,12,038,20,12,10,320,22,1*59
$GPGSV,3,1,10,195,67,042,42,196,63,129,46,199,60,167,46,06,50,334,29,8*58
$GPGSV,3,2,10,194,42,171,44,09,31,110,44,14,29,177,40,11,26,281,40,8*5B
$GPGSV,3,3,10,04,21,077,33,03,12,038,31,8*62
$GLGSV,2,1,08,67,48,068,43,68,45,151,41,82,37,032,45,83,32,336,21,1*79
$GLGSV,2,2,08,80,27,234,26,73,23,294,25,66,09,029,30,79,03,188,19,1*74
$GAGSV,3,1,09,24,53,247,40,10,49,330,31,12,49,011,34,11,34,296,26,7*74
$GAGSV,3,2,09,19,30,090,33,31,30,182,36,04,25,155,31,25,24,310,30,7*76
$GAGSV,3,3,09,33,16,061,25,7*4D
$GAGSV,3,1,09,24,53,247,44,10,49,330,18,12,49,011,31,11,34,296,33,1*7C
$GAGSV,3,2,09,19,30,090,37,31,30,182,41,04,25,155,40,25,24,310,24,1*77
$GAGSV,3,3,09,33,16,061,23,1*4D
$GBGSV,4,1,15,40,84,113,41,07,82,255,41,10,72,295,41,14,61,090,41,1*72
$GBGSV,4,2,15,33,60,153,44,08,59,266,40,43,53,049,39,13,49,254,43,1*7A
$GBGSV,4,3,15,42,42,057,43,28,36,321,40,11,34,076,41,23,21,223,,1*79
$GBGSV,4,4,15,34,19,094,45,41,19,197,,37,17,276,28,1*48
$GBGSV,2,1,07,40,84,113,45,33,60,153,45,43,53,049,44,42,42,057,44,4*73
$GBGSV,2,2,07,28,36,321,24,34,19,094,41,37,17,276,29,4*40
$GNGGA,033811.000,2500.8127543,N,12132.4383808,E,4,68,0.43,17.537,M,15.25,M,4,3335*46
$GNRMC,033811.000,A,2500.8127543,N,12132.4383808,E,0.00,119.92,270623,,,R,V*17
$GPHDT,226.437,T*33
$GNGGA,033811.200,2500.8127671,N,12132.4383708,E,4,68,0.43,17.564,M,15.25,M,4,3335*4F
$GNRMC,033811.200,A,2500.8127671,N,12132.4383708,E,0.00,119.92,270623,,,R,V*18
$GPHDT,226.219,T*39
$GNGGA,033811.400,2500.8127809,N,12132.4383358,E,4,68,0.43,17.687,M,15.25,M,1,3335*42
$GNRMC,033811.400,A,2500.8127809,N,12132.4383358,E,0.00,119.92,270623,,,R,V*1E
$GPHDT,226.246,T*33
$GNGGA,033811.600,2500.8127776,N,12132.4383370,E,4,68,0.43,17.677,M,15.25,M,1,3335*42
$GNRMC,033811.600,A,2500.8127776,N,12132.4383370,E,0.00,119.92,270623,,,R,V*11
$GPHDT,226.358,T*3D
$GNGGA,033811.800,2500.8127725,N,12132.4383390,E,4,68,0.43,17.670,M,15.25,M,1,3335*43
$GNRMC,033811.800,A,2500.8127725,N,12132.4383390,E,0.00,119.92,270623,,,R,V*17
$GPHDT,226.352,T*37
$GNGSA,A,3,195,17,196,19,199,06,194,09,14,11,20,04,0.81,0.43,0.69,1*0C
$GNGSA,A,3,03,12,,,,,,,,,,,0.81,0.43,0.69,1*00
$GNGSA,A,3,67,68,82,83,80,73,,,,,,,0.81,0.43,0.69,2*01
$GNGSA,A,3,24,10,12,11,19,31,04,25,33,,,,0.81,0.43,0.69,3*0F
$GNGSA,A,3,40,07,10,14,33,08,43,13,42,28,11,34,0.81,0.43,0.69,4*04
$GNGSA,A,3,37,,,,,,,,,,,,0.81,0.43,0.69,4*01
$GPGSV,4,1,15,195,67,042,40,17,64,066,41,196,63,129,40,19,63,012,35,1*67
$GPGSV,4,2,15,199,60,167,35,06,50,334,34,194,42,171,43,41,38,242,43,1*60
$GPGSV,4,3,15,09,31,110,44,14,29,177,40,11,26,281,41,20,26,228,19,1*6B
$GPGSV,4,4,15,04,21,076,26,03,12,038,20,12,10,320,25,1*5F
$GPGSV,3,1,10,195,67,042,42,196,63,129,46,199,60,167,46,06,50,334,29,8*58
$GPGSV,3,2,10,194,42,171,44,09,31,110,44,14,29,177,40,11,26,281,40,8*5B
$GPGSV,3,3,10,04,21,076,30,03,12,038,29,8*69
$GLGSV,2,1,08,67,48,068,43,68,45,151,41,82,37,032,45,83,32,336,23,1*7B
$GLGSV,2,2,08,80,27,234,26,73,23,294,30,66,09,029,28,79,03,188,21,1*72
$GAGSV,3,1,09,24,53,247,40,10,49,330,31,12,49,011,34,11,34,296,24,7*76
$GAGSV,3,2,09,19,30,090,33,31,30,182,36,04,25,155,32,25,24,310,29,7*7D
$GAGSV,3,3,09,33,16,061,25,7*4D
$GAGSV,3,1,09,24,53,247,44,10,49,330,18,12,49,011,30,11,34,296,33,1*7D
$GAGSV,3,2,09,19,30,090,37,31,30,182,41,04,25,155,40,25,24,310,24,1*77
$GAGSV,3,3,09,33,16,061,20,1*4E
$GBGSV,4,1,15,40,84,113,41,07,82,255,40,10,72,295,41,14,61,090,40,1*72
$GBGSV,4,2,15,33,60,153,44,08,59,266,40,43,53,049,40,13,49,254,43,1*74
$GBGSV,4,3,15,42,42,057,43,28,36,321,38,11,34,076,41,23,21,223,,1*76
$GBGSV,4,4,15,34,19,094,45,41,19,197,,37,17,276,26,1*46
$GBGSV,2,1,07,40,84,113,45,33,60,153,45,43,53,049,44,42,42,057,44,4*73
$GBGSV,2,2,07,28,36,321,24,34,19,094,39,37,17,276,30,4*47
$GNGGA,033812.000,2500.8127758,N,12132.4383360,E,4,68,0.43,17.689,M,15.25,M,2,3335*48
$GNRMC,033812.000,A,2500.8127758,N,12132.4383360,E,0.00,119.92,270623,,,R,V*19
$GPHDT,226.473,T*33
$GNGGA,033812.200,2500.8127873,N,12132.4383345,E,4,67,0.43,17.692,M,15.25,M,2,3335*4E
$GNRMC,033812.200,A,2500.8127873,N,12132.4383345,E,0.00,119.92,270623,,,R,V*1A
$GPHDT,226.467,T*36
$GNGGA,033812.400,2500.8127853,N,12132.4383341,E,4,67,0.43,17.682,M,15.25,M,2,3335*4F
$GNRMC,033812.400,A,2500.8127853,N,12132.4383341,E,0.00,119.92,270623,,,R,V*1A
$GPHDT,226.014,T*36
$GNGGA,033812.600,2500.8127825,N,12132.4383399,E,4,68,0.43,17.650,M,15.25,M,2,3335*49
$GNRMC,033812.600,A,2500.8127825,N,12132.4383399,E,0.00,119.92,270623,,,R,V*1C
$GPHDT,226.093,T*39
$GNGGA,033812.800,2500.8127751,N,12132.4383439,E,4,68,0.43,17.640,M,15.25,M,2,3335*47
$GNRMC,033812.800,A,2500.8127751,N,12132.4383439,E,0.00,119.92,270623,,,R,V*13
$GPHDT,226.266,T*31
$GNGSA,A,3,195,17,196,19,199,06,194,09,14,11,20,04,0.81,0.43,0.69,1*0C
$GNGSA,A,3,03,12,,,,,,,,,,,0.81,0.43,0.69,1*00
$GNGSA,A,3,67,68,82,83,80,73,,,,,,,0.81,0.43,0.69,2*01
$GNGSA,A,3,24,10,12,11,19,31,04,25,33,,,,0.81,0.43,0.69,3*0F
$GNGSA,A,3,40,07,10,14,33,08,43,13,42,28,11,34,0.81,0.43,0.69,4*04
$GNGSA,A,3,37,,,,,,,,,,,,0.81,0.43,0.69,4*01
$GPGSV,4,1,15,195,67,042,40,17,64,066,41,196,63,129,40,19,63,012,40,1*65
$GPGSV,4,2,15,199,60,167,35,06,50,334,31,194,42,171,43,41,38,242,42,1*64
$GPGSV,4,3,15,09,31,110,44,14,29,177,40,11,26,282,41,20,26,228,19,1*68
$GPGSV,4,4,15,04,21,076,28,03,12,038,25,12,10,320,24,1*55
$GPGSV,3,1,10,195,67,042,45,196,63,129,46,199,60,167,46,06,50,334,38,8*5F
$GPGSV,3,2,10,194,42,171,44,09,31,110,44,14,29,177,40,11,26,282,39,8*56
$GPGSV,3,3,10,04,21,076,33,03,12,038,28,8*6B
$GLGSV,2,1,08,67,48,068,43,68,45,151,41,82,37,032,44,83,32,336,25,1*7C
$GLGSV,2,2,08,80,27,234,24,73,23,294,28,66,09,029,31,79,03,188,19,1*7A
$GAGSV,3,1,09,24,53,247,39,10,49,330,30,12,49,011,37,11,34,296,27,7*79
$GAGSV,3,2,09,19,30,090,32,31,30,182,35,04,25,155,32,25,24,310,28,7*7E
$GAGSV,3,3,09,33,16,061,27,7*4F
$GAGSV,3,1,09,24,53,247,44,10,49,330,23,12,49,011,38,11,34,296,32,1*7C
$GAGSV,3,2,09,19,30,090,37,31,30,182,41,04,25,155,40,25,24,310,25,1*76
$GAGSV,3,3,09,33,16,061,21,1*4F
$GBGSV,4,1,15,40,84,113,39,07,82,255,40,10,72,295,41,14,61,090,41,1*7C
$GBGSV,4,2,15,33,60,153,43,08,59,266,40,43,53,049,40,13,49,254,43,1*73
$GBGSV,4,3,15,42,42,057,44,28,36,321,34,11,34,076,41,23,21,223,,1*7D
$GBGSV,4,4,15,34,19,094,45,41,19,197,,37,17,276,24,1*44
$GBGSV,2,1,07,40,84,113,45,33,60,153,46,43,53,049,44,42,42,057,43,4*77
$GBGSV,2,2,07,28,36,321,21,34,19,094,39,37,17,276,31,4*43
$GNGGA,033813.000,2500.8127333,N,12132.4383540,E,4,68,0.43,17.627,M,15.25,M,3,3335*41
$GNRMC,033813.000,A,2500.8127333,N,12132.4383540,E,0.00,119.92,270623,,,R,V*15
$GPHDT,227.732,T*34
$GNGGA,033813.200,2500.8127394,N,12132.4383552,E,4,68,0.43,17.627,M,15.25,M,3,3335*4D
$GNRMC,033813.200,A,2500.8127394,N,12132.4383552,E,0.00,119.92,270623,,,R,V*19
$GPHDT,228.157,T*3E
$GNGGA,033813.400,2500.8127358,N,12132.4383530,E,4,68,0.43,17.633,M,15.25,M,3,3335*4A
$GNRMC,033813.400,A,2500.8127358,N,12132.4383530,E,0.00,119.92,270623,,,R,V*1B
$GPHDT,227.743,T*32
$GNGGA,033813.600,2500.8127438,N,12132.4383502,E,4,68,0.43,17.642,M,15.25,M,3,3335*4E
$GNRMC,033813.600,A,2500.8127438,N,12132.4383502,E,0.00,119.92,270623,,,R,V*19
$GPHDT,227.186,T*3D
$GNGGA,033813.800,2500.8127354,N,12132.4383530,E,4,68,0.43,17.645,M,15.25,M,3,3335*4B
$GNRMC,033813.800,A,2500.8127354,N,12132.4383530,E,0.00,119.92,270623,,,R,V*1B
$GPHDT,227.635,T*32
$GNGSA,A,3,195,17,196,19,199,06,194,09,14,11,20,04,0.81,0.43,0.69,1*0C
$GNGSA,A,3,03,12,,,,,,,,,,,0.81,0.43,0.69,1*00
$GNGSA,A,3,67,68,82,83,80,73,,,,,,,0.81,0.43,0.69,2*01
$GNGSA,A,3,24,10,12,11,19,31,04,25,33,,,,0.81,0.43,0.69,3*0F
$GNGSA,A,3,40,07,10,14,33,08,43,13,42,28,11,34,0.81,0.43,0.69,4*04
$GNGSA,A,3,37,,,,,,,,,,,,0.81,0.43,0.69,4*01
$GPGSV,4,1,15,195,67,042,40,17,64,066,41,196,63,129,40,19,63,012,40,1*65
$GPGSV,4,2,15,199,60,167,35,06,50,334,33,194,42,171,43,41,38,242,42,1*66
$GPGSV,4,3,15,09,31,110,44,14,29,177,40,11,26,282,42,20,26,228,18,1*6A
$GPGSV,4,4,15,04,21,076,19,03,12,038,26,12,11,320,24,1*55
$GPGSV,3,1,10,195,67,042,45,196,63,129,46,199,60,167,47,06,50,334,38,8*5E
$GPGSV,3,2,10,194,42,171,44,09,31,110,44,14,29,177,40,11,26,282,39,8*56
$GPGSV,3,3,10,04,21,076,33,03,12,038,29,8*6A
$GLGSV,2,1,08,67,48,068,43,68,45,151,41,82,37,032,44,83,32,336,25,1*7C
$GLGSV,2,2,08,80,27,234,19,73,23,294,28,66,09,029,31,79,03,188,17,1*7A
$GAGSV,3,1,09,24,53,247,39,10,49,330,29,12,49,011,37,11,34,296,28,7*7E
$GAGSV,3,2,09,19,30,090,32,31,30,182,35,04,25,155,32,25,24,310,25,7*73
$GAGSV,3,3,09,33,16,061,27,7*4F
$GAGSV,3,1,09,24,53,247,44,10,49,330,29,12,49,011,38,11,34,296,32,1*76
$GAGSV,3,2,09,19,30,090,37,31,30,182,41,04,25,155,39,25,24,310,23,1*7E
$GAGSV,3,3,09,33,16,061,23,1*4D
$GBGSV,4,1,16,40,84,113,39,07,82,255,40,10,72,295,41,14,61,090,41,1*7F
$GBGSV,4,2,16,33,60,153,43,08,59,266,40,43,53,049,42,13,49,254,43,1*72
$GBGSV,4,3,16,42,42,057,44,28,36,321,31,11,34,076,41,23,21,223,,1*7B
$GBGSV,4,4,16,41,19,197,,34,19,094,45,37,17,276,24,25,04,180,,1*7D
$GBGSV,2,1,07,40,84,113,44,33,60,153,46,43,53,049,44,42,42,057,43,4*76
$GBGSV,2,2,07,28,36,321,18,34,19,094,39,37,17,276,31,4*49
$GNGGA,033814.000,2500.8127297,N,12132.4383570,E,4,68,0.43,17.628,M,15.25,M,4,3335*42
$GNRMC,033814.000,A,2500.8127297,N,12132.4383570,E,0.00,119.92,270623,,,R,V*1E
$GPHDT,227.989,T*3A
$GNGGA,033814.200,2500.8127358,N,12132.4383549,E,4,68,0.43,17.612,M,15.25,M,2,3335*47
$GNRMC,033814.200,A,2500.8127358,N,12132.4383549,E,0.00,119.92,270623,,,R,V*14
$GPHDT,227.265,T*33
$GNGGA,033814.400,2500.8127288,N,12132.4383574,E,4,68,0.43,17.604,M,15.25,M,1,3335*47
$GNRMC,033814.400,A,2500.8127288,N,12132.4383574,E,0.00,119.92,270623,,,R,V*10
$GPHDT,227.425,T*31
$GNGGA,033814.600,2500.8127248,N,12132.4383591,E,4,68,0.43,17.605,M,15.25,M,1,3335*43
$GNRMC,033814.600,A,2500.8127248,N,12132.4383591,E,0.00,119.92,270623,,,R,V*15
$GPHDT,227.719,T*3D
$GNGGA,033814.800,2500.8127208,N,12132.4383617,E,4,68,0.43,17.604,M,15.25,M,1,3335*45
$GNRMC,033814.800,A,2500.8127208,N,12132.4383617,E,0.00,119.92,270623,,,R,V*12
$GPHDT,227.906,T*3D
$GNGSA,A,3,195,19,17,196,199,06,194,09,14,11,20,04,0.81,0.43,0.69,1*0C
$GNGSA,A,3,03,12,,,,,,,,,,,0.81,0.43,0.69,1*00
$GNGSA,A,3,67,68,82,83,80,73,,,,,,,0.81,0.43,0.69,2*01
$GNGSA,A,3,24,12,10,11,31,19,04,25,33,,,,0.81,0.43,0.69,3*0F
$GNGSA,A,3,40,07,10,14,33,08,43,13,42,28,11,34,0.81,0.43,0.69,4*04
$GNGSA,A,3,37,,,,,,,,,,,,0.81,0.43,0.69,4*01
$GPGSV,4,1,15,195,67,042,40,19,64,012,40,17,64,067,41,196,63,129,40,1*63
$GPGSV,4,2,15,199,60,167,35,06,50,334,35,194,42,171,43,41,38,242,42,1*60
$GPGSV,4,3,15,09,31,110,43,14,29,177,40,11,26,282,42,20,26,228,18,1*6D
$GPGSV,4,4,15,04,21,076,22,03,12,038,25,12,11,320,25,1*5F
$GPGSV,3,1,10,195,67,042,45,196,63,129,46,199,60,167,47,06,50,334,37,8*51
$GPGSV,3,2,10,194,42,171,44,09,31,110,44,14,29,177,40,11,26,282,39,8*56
$GPGSV,3,3,10,04,21,076,33,03,12,038,30,8*62
$GLGSV,3,1,10,67,48,068,42,68,45,151,41,82,37,032,44,83,32,336,25,1*75
$GLGSV,3,2,10,80,27,234,22,73,23,294,30,66,09,029,31,69,06,186,,1*7F
$GLGSV,3,3,10,79,03,188,17,74,01,331,,1*70
$GAGSV,3,1,09,24,53,247,39,12,49,011,37,10,49,330,31,11,34,296,29,7*76
$GAGSV,3,2,09,31,30,182,35,19,30,090,32,04,25,155,31,25,24,310,25,7*70
$GAGSV,3,3,09,33,16,061,28,7*40
$GAGSV,3,1,09,24,53,247,44,10,49,330,29,12,49,011,38,11,34,296,32,1*76
$GAGSV,3,2,09,19,30,090,37,31,30,182,41,04,25,155,39,25,24,310,23,1*7E
$GAGSV,3,3,09,33,16,061,21,1*4F
$GBGSV,5,1,17,40,84,113,40,07,82,255,40,10,72,295,41,14,61,090,41,1*71
$GBGSV,5,2,17,33,60,153,43,08,59,266,40,43,53,049,42,13,49,254,43,1*72
$GBGSV,5,3,17,42,42,057,44,28,36,321,31,11,34,076,42,23,21,223,,1*78
$GBGSV,5,4,17,41,19,197,,34,19,094,45,37,17,276,21,25,04,180,,1*78
$GBGSV,5,5,17,06,01,189,,1*47
$GBGSV,2,1,07,40,84,113,44,33,60,153,46,43,53,049,44,42,42,057,43,4*76
$GBGSV,2,2,07,28,36,321,15,34,19,094,39,37,17,276,31,4*44
$GNGGA,033815.000,2500.8127220,N,12132.4383595,E,4,68,0.43,17.601,M,15.25,M,2,3335*49
$GNRMC,033815.000,A,2500.8127220,N,12132.4383595,E,0.00,119.92,270623,,,R,V*18
$GPHDT,227.841,T*3F
$GNGGA,033815.200,2500.8127116,N,12132.4383646,E,4,68,0.43,17.593,M,15.25,M,2,3335*48
$GNRMC,033815.200,A,2500.8127116,N,12132.4383646,E,0.00,119.92,270623,,,R,V*11
$GPHDT,228.257,T*3D
$GNGGA,033815.400,2500.8127209,N,12132.4383602,E,4,68,0.43,17.602,M,15.25,M,2,3335*48
$GNRMC,033815.400,A,2500.8127209,N,12132.4383602,E,0.00,119.92,270623,,,R,V*1A
$GPHDT,228.179,T*32
$GNGGA,033815.600,2500.8127154,N,12132.4383651,E,4,68,0.43,17.592,M,15.25,M,2,3335*4D
$GNRMC,033815.600,A,2500.8127154,N,12132.4383651,E,0.00,119.92,270623,,,R,V*15
$GPHDT,227.817,T*3C
$GNGGA,033815.800,2500.8127192,N,12132.4383616,E,4,68,0.43,17.605,M,15.25,M,2,3335*47
$GNRMC,033815.800,A,2500.8127192,N,12132.4383616,E,0.00,119.92,270623,,,R,V*12
$GPHDT,227.911,T*3B
$GNGSA,A,3,195,19,17,196,199,06,194,09,14,11,20,04,0.81,0.43,0.69,1*0C
$GNGSA,A,3,03,12,,,,,,,,,,,0.81,0.43,0.69,1*00
$GNGSA,A,3,67,68,82,83,80,73,,,,,,,0.81,0.43,0.69,2*01
$GNGSA,A,3,24,12,10,11,31,19,04,25,33,,,,0.81,0.43,0.69,3*0F
$GNGSA,A,3,40,07,10,14,33,08,43,13,42,28,11,34,0.81,0.43,0.69,4*04
$GNGSA,A,3,37,,,,,,,,,,,,0.81,0.43,0.69,4*01
$GPGSV,4,1,15,195,67,042,40,19,64,012,40,17,64,067,41,196,63,129,40,1*63
$GPGSV,4,2,15,199,60,167,35,06,50,334,36,194,42,171,43,41,38,242,42,1*63
$GPGSV,4,3,15,09,31,110,43,14,29,177,40,11,26,282,42,20,26,228,18,1*6D
$GPGSV,4,4,15,04,21,076,25,03,12,038,25,12,11,320,25,1*58
$GPGSV,3,1,10,195,67,042,46,196,63,129,46,199,60,167,47,06,50,334,38,8*5D
$GPGSV,3,2,10,194,42,171,45,09,31,110,44,14,29,177,40,11,26,282,39,8*57
$GPGSV,3,3,10,04,21,076,33,03,12,038,30,8*62
$GLGSV,3,1,10,67,48,068,42,68,45,151,41,82,37,032,44,83,32,336,25,1*75
$GLGSV,3,2,10,80,27,234,23,73,23,294,30,66,09,029,31,69,06,186,,1*7E
$GLGSV,3,3,10,79,03,188,17,74,01,331,,1*70
$GAGSV,3,1,09,24,53,247,39,12,49,011,37,10,49,330,30,11,34,296,29,7*77
$GAGSV,3,2,09,31,30,182,34,19,30,090,33,04,25,155,31,25,24,310,25,7*70
$GAGSV,3,3,09,33,16,061,28,7*40
$GAGSV,3,1,09,24,53,247,44,10,49,330,30,12,49,011,39,11,34,296,32,1*7F
$GAGSV,3,2,09,19,30,090,37,31,30,182,41,04,25,155,39,25,24,310,23,1*7E
$GAGSV,3,3,09,33,16,061,22,1*4C
$GBGSV,5,1,17,40,84,113,40,07,82,255,40,10,72,295,41,14,61,090,41,1*71
$GBGSV,5,2,17,33,60,153,43,08,59,266,40,43,53,049,42,13,49,254,43,1*72
$GBGSV,5,3,17,42,42,057,44,28,36,321,31,11,34,076,42,23,21,223,,1*78
$GBGSV,5,4,17,41,19,197,,34,19,094,45,37,17,276,20,25,04,180,,1*79
$GBGSV,5,5,17,39,02,179,,1*47
$GBGSV,2,1,07,40,84,113,44,33,60,153,46,43,53,049,44,42,42,057,43,4*76
$GBGSV,2,2,07,28,36,321,14,34,19,094,39,37,17,276,32,4*46
$GNGGA,033816.000,2500.8127139,N,12132.4383642,E,4,68,0.43,17.604,M,15.25,M,3,3335*4C
$GNRMC,033816.000,A,2500.8127139,N,12132.4383642,E,0.00,119.92,270623,,,R,V*19
$GPHDT,228.344,T*3E
$GNGGA,033816.200,2500.8127247,N,12132.4383609,E,4,68,0.43,17.599,M,15.25,M,3,3335*4C
$GNRMC,033816.200,A,2500.8127247,N,12132.4383609,E,0.00,119.92,270623,,,R,V*1E
$GPHDT,228.019,T*35
$GNGGA,033816.400,2500.8127243,N,12132.4383605,E,4,67,0.44,17.608,M,15.25,M,3,3335*41
$GNRMC,033816.400,A,2500.8127243,N,12132.4383605,E,0.00,119.92,270623,,,R,V*10
$GPHDT,228.546,T*3A
$GNGGA,033816.600,2500.8127193,N,12132.4383607,E,4,67,0.44,17.609,M,15.25,M,3,3335*4E
$GNRMC,033816.600,A,2500.8127193,N,12132.4383607,E,0.00,119.92,270623,,,R,V*1E
$GPHDT,228.371,T*38
$GNGGA,033816.800,2500.8127262,N,12132.4383576,E,4,67,0.44,17.622,M,15.25,M,3,3335*41
$GNRMC,033816.800,A,2500.8127262,N,12132.4383576,E,0.00,119.92,270623,,,R,V*18
$GPHDT,227.775,T*37
$GNGSA,A,3,195,19,17,196,199,06,194,09,14,11,04,03,0.82,0.44,0.69,1*09
$GNGSA,A,3,12,,,,,,,,,,,,0.82,0.44,0.69,1*07
$GNGSA,A,3,67,68,82,83,80,73,,,,,,,0.82,0.44,0.69,2*05
$GNGSA,A,3,24,12,10,11,19,31,04,25,33,,,,0.82,0.44,0.69,3*0B
$GNGSA,A,3,40,07,10,14,33,08,43,13,42,28,11,34,0.82,0.44,0.69,4*00
$GNGSA,A,3,37,,,,,,,,,,,,0.82,0.44,0.69,4*05
$GPGSV,4,1,15,195,67,042,40,19,64,012,40,17,64,067,41,196,63,129,40,1*63
$GPGSV,4,2,15,199,60,167,35,06,50,334,36,194,42,171,42,41,38,242,42,1*62
$GPGSV,4,3,15,09,31,110,43,14,29,177,40,11,26,282,42,20,26,228,17,1*62
$GPGSV,4,4,15,04,21,076,23,03,12,038,24,12,11,320,25,1*5F
$GPGSV,3,1,10,195,67,042,46,196,63,129,46,199,60,167,47,06,50,334,37,8*52
$GPGSV,3,2,10,194,42,171,45,09,31,110,45,14,29,177,41,11,26,282,40,8*59
$GPGSV,3,3,10,04,21,076,33,03,12,038,30,8*62
$GLGSV,3,1,09,67,48,068,42,68,45,151,41,82,37,032,44,83,32,336,25,1*7D
$GLGSV,3,2,09,80,27,234,24,73,23,294,32,66,09,029,31,79,03,188,17,1*7F
$GLGSV,3,3,09,74,01,331,,1*42
$GAGSV,3,1,09,24,53,247,38,12,49,011,38,10,49,330,27,11,34,296,28,7*7E
$GAGSV,3,2,09,19,30,090,32,31,30,182,34,04,25,155,31,25,24,310,24,7*70
$GAGSV,3,3,09,33,16,061,29,7*41
$GAGSV,3,1,09,24,53,247,44,10,49,330,33,12,49,011,39,11,34,296,33,1*7D
$GAGSV,3,2,09,19,30,090,37,31,30,182,41,04,25,155,39,25,24,310,23,1*7E
$GAGSV,3,3,09,33,16,061,23,1*4D
$GBGSV,5,1,17,40,84,113,40,07,82,255,40,10,72,295,41,14,61,090,41,1*71
$GBGSV,5,2,17,33,60,153,43,08,59,266,40,43,53,049,42,13,49,254,43,1*72
$GBGSV,5,3,17,42,42,057,44,28,36,321,30,11,34,076,42,23,21,223,,1*79
$GBGSV,5,4,17,34,19,094,45,41,19,197,,37,17,276,20,25,04,180,,1*79
$GBGSV,5,5,17,39,02,179,,1*47
$GBGSV,2,1,07,40,84,113,44,33,60,153,47,43,53,049,44,42,42,057,43,4*77
$GBGSV,2,2,07,28,36,321,15,34,19,094,39,37,17,276,31,4*44
$GNGGA,033817.000,2500.8127204,N,12132.4383613,E,4,67,0.44,17.611,M,15.25,M,4,3335*4F
$GNRMC,033817.000,A,2500.8127204,N,12132.4383613,E,0.00,119.92,270623,,,R,V*11
$GPHDT,227.916,T*3C
$GNGGA,033817.200,2500.8127189,N,12132.4383602,E,4,67,0.44,17.619,M,15.25,M,4,3335*43
$GNRMC,033817.200,A,2500.8127189,N,12132.4383602,E,0.00,119.92,270623,,,R,V*15
$GPHDT,227.913,T*39
$GNGGA,033817.400,2500.8127277,N,12132.4383573,E,4,67,0.44,17.632,M,15.25,M,4,3335*4B
$GNRMC,033817.400,A,2500.8127277,N,12132.4383573,E,0.00,119.92,270623,,,R,V*14
$GPHDT,227.960,T*3D
$GNGGA,033817.600,2500.8127331,N,12132.4383553,E,4,67,0.44,17.646,M,15.25,M,2,3335*4D
$GNRMC,033817.600,A,2500.8127331,N,12132.4383553,E,0.00,119.92,270623,,,R,V*17
$GPHDT,228.016,T*3A
$GNGGA,033817.800,2500.8127172,N,12132.4383630,E,4,67,0.44,17.599,M,15.25,M,0,3335*43
$GNRMC,033817.800,A,2500.8127172,N,12132.4383630,E,0.00,119.92,270623,,,R,V*1A
$GPHDT,228.325,T*39
$GNGSA,A,3,195,19,17,196,199,06,194,09,14,11,04,03,0.82,0.44,0.69,1*09
$GNGSA,A,3,12,,,,,,,,,,,,0.82,0.44,0.69,1*07
$GNGSA,A,3,67,68,82,83,80,73,,,,,,,0.82,0.44,0.69,2*05
$GNGSA,A,3,24,10,12,11,19,31,04,25,33,,,,0.82,0.44,0.69,3*0B
$GNGSA,A,3,40,07,10,14,33,08,43,13,42,28,11,34,0.82,0.44,0.69,4*00
$GNGSA,A,3,37,,,,,,,,,,,,0.82,0.44,0.69,4*05
$GPGSV,4,1,15,195,67,042,40,19,64,012,40,17,64,067,42,196,63,128,40,1*61
$GPGSV,4,2,15,199,60,167,35,06,50,334,34,194,42,171,42,41,38,242,42,1*60
$GPGSV,4,3,15,09,31,110,42,14,29,177,40,11,26,282,42,20,26,228,17,1*63
$GPGSV,4,4,15,04,21,076,23,03,12,038,24,12,11,320,26,1*5C
$GPGSV,3,1,10,195,67,042,46,196,63,128,46,199,60,167,47,06,50,334,36,8*52
$GPGSV,3,2,10,194,42,171,45,09,31,110,43,14,29,177,41,11,26,282,40,8*5F
$GPGSV,3,3,10,04,21,076,32,03,12,038,30,8*63
$GLGSV,2,1,08,67,48,068,42,68,45,151,41,82,37,032,44,83,32,336,25,1*7D
$GLGSV,2,2,08,80,27,234,25,73,23,294,32,66,09,029,31,79,03,188,17,1*7E
$GAGSV,3,1,09,24,53,247,38,10,49,330,24,12,49,011,38,11,34,296,28,7*7D
$GAGSV,3,2,09,19,30,090,33,31,30,182,34,04,25,155,32,25,24,310,23,7*75
$GAGSV,3,3,09,33,16,061,29,7*41
$GAGSV,3,1,09,24,53,247,44,10,49,330,34,12,49,011,39,11,34,296,33,1*7A
$GAGSV,3,2,09,19,30,090,37,31,30,182,41,04,25,155,39,25,24,310,22,1*7F
$GAGSV,3,3,09,33,16,061,23,1*4D
$GBGSV,4,1,16,40,84,113,40,07,82,255,40,10,72,295,41,14,61,090,41,1*71
$GBGSV,4,2,16,33,60,153,43,08,59,266,39,43,53,049,43,13,49,254,43,1*7D
$GBGSV,4,3,16,42,42,057,44,28,36,321,32,11,34,076,42,23,21,223,,1*7B
$GBGSV,4,4,16,41,19,197,,34,19,094,44,37,17,276,21,25,04,180,,1*79
$GBGSV,2,1,07,40,84,113,44,33,60,153,47,43,53,049,43,42,42,057,43,4*70
$GBGSV,2,2,07,28,36,321,16,34,19,094,38,37,17,276,31,4*46
$GNGGA,033818.000,2500.8127308,N,12132.4383555,E,4,67,0.44,17.617,M,15.25,M,1,3335*4F
$GNRMC,033818.000,A,2500.8127308,N,12132.4383555,E,0.01,119.92,270623,,,R,V*13
$GPHDT,228.081,T*34
$GNGGA,033818.200,2500.8127271,N,12132.4383597,E,4,67,0.44,17.597,M,15.25,M,1,3335*47
$GNRMC,033818.200,A,2500.8127271,N,12132.4383597,E,0.00,119.92,270623,,,R,V*11
$GPHDT,227.480,T*3E
$GNGGA,033818.400,2500.8127297,N,12132.4383595,E,4,67,0.44,17.595,M,15.25,M,1,3335*49
$GNRMC,033818.400,A,2500.8127297,N,12132.4383595,E,0.00,119.92,270623,,,R,V*1D
$GPHDT,227.539,T*3D
$GNGGA,033818.600,2500.8127263,N,12132.4383590,E,4,67,0.44,17.585,M,15.25,M,1,3335*44
$GNRMC,033818.600,A,2500.8127263,N,12132.4383590,E,0.00,119.92,270623,,,R,V*11
$GPHDT,227.701,T*34
$GNGGA,033818.800,2500.8127205,N,12132.4383585,E,4,67,0.44,17.612,M,15.25,M,1,3335*43
$GNRMC,033818.800,A,2500.8127205,N,12132.4383585,E,0.00,119.92,270623,,,R,V*1B
$GPHDT,228.110,T*3D
$GNGSA,A,3,195,19,17,196,199,06,194,09,14,11,04,03,0.82,0.44,0.69,1*09
$GNGSA,A,3,12,,,,,,,,,,,,0.82,0.44,0.69,1*07
$GNGSA,A,3,67,68,82,83,80,73,,,,,,,0.82,0.44,0.69,2*05
$GNGSA,A,3,24,10,12,11,19,31,04,25,33,,,,0.82,0.44,0.69,3*0B
$GNGSA,A,3,40,07,10,14,33,08,43,13,42,28,11,34,0.82,0.44,0.69,4*00
$GNGSA,A,3,37,,,,,,,,,,,,0.82,0.44,0.69,4*05
$GPGSV,4,1,15,195,67,042,40,19,64,012,40,17,64,067,42,196,63,128,40,1*61
$GPGSV,4,2,15,199,60,167,35,06,50,334,33,194,42,171,42,41,38,242,42,1*67
$GPGSV,4,3,15,09,31,110,42,14,29,177,40,11,26,282,42,20,26,228,18,1*6C
$GPGSV,4,4,15,04,21,076,24,03,12,038,24,12,11,320,26,1*5B
$GPGSV,3,1,10,195,67,042,46,196,63,128,45,199,60,167,47,06,50,334,36,8*51
$GPGSV,3,2,10,194,42,171,45,09,31,110,44,14,29,177,41,11,26,282,40,8*58
$GPGSV,3,3,10,04,21,076,32,03,12,038,30,8*63
$GLGSV,2,1,08,67,48,068,42,68,45,151,41,82,37,032,44,83,32,336,27,1*7F
$GLGSV,2,2,08,80,27,234,25,73,23,294,30,66,09,029,31,79,03,188,17,1*7C
$GAGSV,3,1,09,24,53,247,38,10,49,330,22,12,49,011,38,11,34,296,29,7*7A
$GAGSV,3,2,09,19,30,090,33,31,30,182,34,04,25,155,32,25,24,310,22,7*74
$GAGSV,3,3,09,33,16,061,29,7*41
$GAGSV,3,1,09,24,53,247,44,10,49,330,34,12,49,011,39,11,34,296,32,1*7B
$GAGSV,3,2,09,19,30,090,38,31,30,182,41,04,25,155,39,25,24,310,23,1*71
$GAGSV,3,3,09,33,16,061,23,1*4D
$GBGSV,4,1,15,40,84,113,40,07,82,255,40,10,72,295,41,14,61,090,41,1*72
$GBGSV,4,2,15,33,60,153,43,08,59,266,39,43,53,049,43,13,49,254,43,1*7E
$GBGSV,4,3,15,42,42,057,44,28,36,321,33,11,34,076,42,23,21,223,,1*79
$GBGSV,4,4,15,34,19,094,43,41,19,197,,37,17,276,21,1*47
$GBGSV,2,1,07,40,84,113,44,33,60,153,47,43,53,049,42,42,42,057,43,4*71
$GBGSV,2,2,07,28,36,321,16,34,19,094,39,37,17,276,31,4*47
$GNGGA,033819.000,2500.8127267,N,12132.4383591,E,4,67,0.44,17.606,M,15.25,M,2,3335*4D
$GNRMC,033819.000,A,2500.8127267,N,12132.4383591,E,0.00,119.92,270623,,,R,V*13
$GPHDT,227.771,T*33
$GNGGA,033819.200,2500.8127256,N,12132.4383585,E,4,66,0.44,17.614,M,15.25,M,2,3335*4A
$GNRMC,033819.200,A,2500.8127256,N,12132.4383585,E,0.00,119.92,270623,,,R,V*16
$GPHDT,227.973,T*3F
$GNGGA,033819.400,2500.8127217,N,12132.4383600,E,4,67,0.43,17.600,M,15.25,M,2,3335*44
$GNRMC,033819.400,A,2500.8127217,N,12132.4383600,E,0.00,119.92,270623,,,R,V*1B
$GPHDT,227.813,T*38
$GNGGA,033819.600,2500.8127403,N,12132.4383528,E,4,67,0.43,17.619,M,15.25,M,2,3335*44
$GNRMC,033819.600,A,2500.8127403,N,12132.4383528,E,0.00,119.92,270623,,,R,V*13
$GPHDT,227.303,T*32
$GNGGA,033819.800,2500.8127289,N,12132.4383585,E,4,68,0.43,17.608,M,15.25,M,2,3335*46
$GNRMC,033819.800,A,2500.8127289,N,12132.4383585,E,0.00,119.92,270623,,,R,V*1E
$GPHDT,227.867,T*3B
$GNGSA,A,3,195,19,17,196,199,06,194,09,14,11,20,04,0.81,0.43,0.69,1*0C
$GNGSA,A,3,03,12,,,,,,,,,,,0.81,0.43,0.69,1*00
$GNGSA,A,3,67,68,82,83,80,73,,,,,,,0.81,0.43,0.69,2*01
$GNGSA,A,3,24,10,12,11,19,31,04,25,33,,,,0.81,0.43,0.69,3*0F
$GNGSA,A,3,40,07,10,14,33,08,43,13,42,28,11,34,0.81,0.43,0.69,4*04
$GNGSA,A,3,37,,,,,,,,,,,,0.81,0.43,0.69,4*01
$GPGSV,4,1,15,195,67,042,40,19,64,012,40,17,64,067,42,196,63,128,40,1*61
$GPGSV,4,2,15,199,60,167,35,06,50,334,34,194,42,171,42,41,38,242,42,1*60
$GPGSV,4,3,15,09,31,110,42,14,29,177,40,11,26,282,42,20,26,228,21,1*66
$GPGSV,4,4,15,04,21,076,24,03,12,038,25,12,11,320,25,1*59
$GPGSV,3,1,10,195,67,042,46,196,63,128,45,199,60,167,47,06,50,334,36,8*51
$GPGSV,3,2,10,194,42,171,45,09,31,110,44,14,29,177,41,11,26,282,40,8*58
$GPGSV,3,3,10,04,21,076,32,03,12,038,29,8*6B
$GLGSV,2,1,08,67,48,068,42,68,45,151,41,82,37,032,44,83,32,336,27,1*7F
$GLGSV,2,2,08,80,27,234,24,73,23,294,31,66,09,029,30,79,03,188,17,1*7D
$GAGSV,3,1,09,24,53,247,39,10,49,330,24,12,49,011,38,11,34,296,29,7*7D
$GAGSV,3,2,09,19,30,090,33,31,30,182,33,04,25,155,32,25,24,310,22,7*73
$GAGSV,3,3,09,33,16,061,30,7*49
$GAGSV,3,1,09,24,53,247,44,10,49,330,32,12,49,011,39,11,34,296,32,1*7D
$GAGSV,3,2,09,19,30,090,38,31,30,182,41,04,25,155,39,25,24,310,23,1*71
$GAGSV,3,3,09,33,16,061,24,1*4A
$GBGSV,4,1,15,40,84,113,39,07,82,255,40,10,72,295,41,14,61,090,41,1*7C
$GBGSV,4,2,15,33,60,153,43,08,59,266,39,43,53,049,44,13,49,254,43,1*79
$GBGSV,4,3,15,42,42,057,44,28,36,321,33,11,34,076,42,23,21,223,,1*79
$GBGSV,4,4,15,34,19,094,43,41,19,197,,37,17,276,20,1*46
$GBGSV,2,1,07,40,84,113,44,33,60,153,47,43,53,049,43,42,42,057,43,4*70
$GBGSV,2,2,07,28,36,321,16,34,19,094,39,37,17,276,31,4*47
$GNGGA,033820.000,2500.8127358,N,12132.4383568,E,4,68,0.43,17.607,M,15.25,M,3,3335*44
$GNRMC,033820.000,A,2500.8127358,N,12132.4383568,E,0.00,119.92,270623,,,R,V*12
$GPHDT,227.863,T*3F
$GNGGA,033820.200,2500.8127345,N,12132.4383558,E,4,68,0.43,17.612,M,15.25,M,3,3335*4D
$GNRMC,033820.200,A,2500.8127345,N,12132.4383558,E,0.00,119.92,270623,,,R,V*1F
$GPHDT,227.404,T*32
$GNGGA,033820.400,2500.8127242,N,12132.4383606,E,4,68,0.43,17.604,M,15.25,M,3,3335*42
$GNRMC,033820.400,A,2500.8127242,N,12132.4383606,E,0.00,119.92,270623,,,R,V*17
$GPHDT,227.308,T*39
$GNGGA,033820.600,2500.8127298,N,12132.4383582,E,4,68,0.43,17.620,M,15.25,M,3,3335*4E
$GNRMC,033820.600,A,2500.8127298,N,12132.4383582,E,0.00,119.92,270623,,,R,V*1D
$GPHDT,227.221,T*33
$GNGGA,033820.800,2500.8127314,N,12132.4383585,E,4,68,0.43,17.618,M,15.25,M,3,3335*49
$GNRMC,033820.800,A,2500.8127314,N,12132.4383585,E,0.00,119.92,270623,,,R,V*11
$GPHDT,227.689,T*35
$GNGSA,A,3,195,19,17,196,199,06,194,09,14,11,20,04,0.81,0.43,0.69,1*0C
$GNGSA,A,3,03,12,,,,,,,,,,,0.81,0.43,0.69,1*00
$GNGSA,A,3,67,68,82,83,80,73,,,,,,,0.81,0.43,0.69,2*01
$GNGSA,A,3,24,10,12,11,19,31,04,25,33,,,,0.81,0.43,0.69,3*0F
$GNGSA,A,3,40,07,10,14,33,08,43,13,42,28,11,34,0.81,0.43,0.69,4*04
$GNGSA,A,3,37,,,,,,,,,,,,0.81,0.43,0.69,4*01
$GPGSV,4,1,15,195,67,042,41,19,64,012,40,17,64,067,42,196,63,128,40,1*60
$GPGSV,4,2,15,199,60,167,35,06,50,334,32,194,42,171,42,41,38,242,42,1*66
$GPGSV,4,3,15,09,31,110,42,14,29,177