$FW : RTK35X,V1.1X0314AS,Lib20210517,1*54
$Tool : LOCOSYS , GNSS Firebird , v1.0.0.19*39
$---------------------------------------------------*2D
,153,45,43,53,049,45,42,42,057,45,4*73
$GBGSV,2,2,07,28,36,321,32,34,19,094,41,37,17,276,25,4*4B
$GNGGA,033830.000,2500.8128237,N,12132.4384213,E,4,68,0.43,17.281,M,15.25,M,2,3335*45
$GNRMC,033830.000,A,2500.8128237,N,12132.4384213,E,0.00,119.92,270623,,,R,V*18
$GPHDT,179.556,T*3C
$GNGGA,033830.200,2500.8128360,N,12132.4384147,E,4,68,0.43,17.319,M,15.25,M,2,3335*46
$GNRMC,033830.200,A,2500.8128360,N,12132.4384147,E,0.00,119.92,270623,,,R,V*1B
$GPHDT,179.269,T*37
$GNGGA,033830.400,2500.8128329,N,12132.4384153,E,4,68,0.43,17.314,M,15.25,M,2,3335*45
$GNRMC,033830.400,A,2500.8128329,N,12132.4384153,E,0.00,119.92,270623,,,R,V*15
$GPHDT,179.517,T*39
$GNGGA,033830.600,2500.8128120,N,12132.4384302,E,4,67,0.44,17.268,M,15.25,M,2,3335*48
$GNRMC,033830.600,A,2500.8128120,N,12132.4384302,E,0.00,119.92,270623,,,R,V*1A
$GPHDT,179.365,T*3A
$GNGGA,033830.800,2500.8128117,N,12132.4384327,E,4,67,0.44,17.250,M,15.25,M,2,3335*4E
$GNRMC,033830.800,A,2500.8128117,N,12132.4384327,E,0.00,119.92,270623,,,R,V*17
$GPHDT,179.391,T*31
$GNGSA,A,3,195,19,17,196,199,06,194,09,14,11,04,03,0.82,0.44,0.69,1*09
$GNGSA,A,3,12,,,,,,,,,,,,0.82,0.44,0.69,1*07
$GNGSA,A,3,67,68,82,83,80,73,,,,,,,0.82,0.44,0.69,2*05
$GNGSA,A,3,24,10,12,11,19,31,04,25,33,,,,0.82,0.44,0.69,3*0B
$GNGSA,A,3,40,07,10,14,33,08,43,13,42,28,11,34,0.82,0.44,0.69,4*00
$GNGSA,A,3,37,,,,,,,,,,,,0.82,0.44,0.69,4*05
$GPGSV,4,1,15,195,67,042,38,19,64,012,41,17,64,067,43,196,63,128,40,1*6E
$GPGSV,4,2,15,199,60,167,37,06,50,334,39,194,42,171,43,41,38,242,42,1*6E
$GPGSV,4,3,15,09,31,110,42,14,29,177,39,11,26,282,41,20,26,228,14,1*6D
$GPGSV,4,4,15,04,21,076,30,03,12,038,24,12,11,320,19,1*52
$GPGSV,3,1,10,195,67,042,45,196,63,128,45,199,60,167,47,06,50,334,41,8*52
$GPGSV,3,2,10,194,42,171,43,09,31,110,44,14,29,177,37,11,26,282,40,8*5F
$GPGSV,3,3,10,04,21,076,34,03,12,038,26,8*62
$GLGSV,2,1,08,67,48,067,41,68,45,150,42,82,37,032,41,83,32,337,31,1*72
$GLGSV,2,2,08,80,27,233,25,73,23,294,33,66,09,029,28,79,03,188,16,1*71
$GAGSV,3,1,09,24,53,247,38,10,49,330,27,12,49,011,36,11,34,296,22,7*7A
$GAGSV,3,2,09,19,30,089,35,31,30,182,38,04,25,155,31,25,24,310,22,7*75
$GAGSV,3,3,09,33,16,061,27,7*4F
$GAGSV,3,1,09,24,53,247,43,10,49,330,36,12,49,011,41,11,34,296,31,1*72
$GAGSV,3,2,09,19,30,089,40,31,30,182,39,04,25,155,38,25,24,310,22,1*79
$GAGSV,3,3,09,33,16,061,29,1*47
$GBGSV,4,1,16,40,84,113,41,07,82,255,41,10,72,295,39,14,61,090,39,1*71
$GBGSV,4,2,16,33,60,153,43,08,59,266,38,43,53,049,45,13,49,254,38,1*76
$GBGSV,4,3,16,42,42,057,44,28,36,321,41,11,34,076,43,23,21,223,,1*7E
$GBGSV,4,4,16,41,19,197,,34,19,094,40,37,17,276,27,39,02,179,,1*76
$GBGSV,2,1,07,40,84,113,45,33,60,153,45,43,53,049,45,42,42,057,45,4*73
$GBGSV,2,2,07,28,36,321,31,34,19,094,42,37,17,276,25,4*4B
$GNGGA,033831.000,2500.8128085,N,12132.4384313,E,4,67,0.44,17.269,M,15.25,M,3,3335*41
$GNRMC,033831.000,A,2500.8128085,N,12132.4384313,E,0.00,119.92,270623,,,R,V*13
$GPHDT,179.556,T*3C
$GNGGA,033831.200,2500.8128093,N,12132.4384300,E,4,67,0.44,17.274,M,15.25,M,3,3335*4A
$GNRMC,033831.200,A,2500.8128093,N,12132.4384300,E,0.00,119.92,270623,,,R,V*14
$GPHDT,179.457,T*3C
$GNGGA,033831.400,2500.8128053,N,12132.4384314,E,4,67,0.44,17.263,M,15.25,M,3,3335*43
$GNRMC,033831.400,A,2500.8128053,N,12132.4384314,E,0.00,119.92,270623,,,R,V*1B
$GPHDT,179.655,T*3C
$GNGGA,033831.600,2500.8128121,N,12132.4384321,E,4,67,0.44,17.251,M,15.25,M,3,3335*42
$GNRMC,033831.600,A,2500.8128121,N,12132.4384321,E,0.00,119.92,270623,,,R,V*1B
$GPHDT,179.489,T*3F
$GNGGA,033831.800,2500.8128147,N,12132.4384286,E,4,67,0.44,17.261,M,15.25,M,3,3335*43
$GNRMC,033831.800,A,2500.8128147,N,12132.4384286,E,0.00,119.92,270623,,,R,V*19
$GPHDT,179.103,T*38
$GNGSA,A,3,195,19,17,196,199,06,194,09,14,11,04,03,0.82,0.44,0.69,1*09
$GNGSA,A,3,12,,,,,,,,,,,,0.82,0.44,0.69,1*07
$GNGSA,A,3,67,68,82,83,80,73,,,,,,,0.82,0.44,0.69,2*05
$GNGSA,A,3,24,12,10,11,19,31,04,25,33,,,,0.82,0.44,0.69,3*0B
$GNGSA,A,3,40,07,10,14,33,08,43,13,42,28,11,34,0.82,0.44,0.69,4*00
$GNGSA,A,3,37,,,,,,,,,,,,0.82,0.44,0.69,4*05
$GPGSV,4,1,15,195,67,042,38,19,64,012,41,17,64,067,43,196,63,128,41,1*6F
$GPGSV,4,2,15,199,60,167,37,06,50,334,39,194,42,171,43,41,38,242,42,1*6E
$GPGSV,4,3,15,09,31,110,42,14,29,177,39,11,26,282,41,20,26,228,14,1*6D
$GPGSV,4,4,15,04,21,076,30,03,12,038,24,12,11,320,18,1*53
$GPGSV,3,1,10,195,67,042,45,196,63,128,45,199,60,167,47,06,50,334,41,8*52
$GPGSV,3,2,10,194,42,171,44,09,31,110,45,14,29,177,37,11,26,282,41,8*58
$GPGSV,3,3,10,04,21,076,34,03,12,038,23,8*67
$GLGSV,3,1,09,67,48,067,39,68,45,150,42,82,37,032,41,83,32,337,31,1*7D
$GLGSV,3,2,09,80,27,233,27,73,23,294,32,66,09,029,30,79,03,188,14,1*79
$GLGSV,3,3,09,74,01,331,,1*42
$GAGSV,3,1,09,24,53,247,38,12,49,011,36,10,49,330,24,11,34,296,23,7*78
$GAGSV,3,2,09,19,30,089,36,31,30,182,38,04,25,155,30,25,24,310,22,7*77
$GAGSV,3,3,09,33,16,061,27,7*4F
$GAGSV,3,1,09,24,53,247,43,10,49,330,36,12,49,011,41,11,34,296,31,1*72
$GAGSV,3,2,09,19,30,089,40,31,30,182,39,04,25,155,39,25,24,310,20,1*7A
$GAGSV,3,3,09,33,16,061,28,1*46
$GBGSV,4,1,16,40,84,113,41,07,82,254,41,10,72,295,39,14,61,090,40,1*7E
$GBGSV,4,2,16,33,60,153,43,08,59,266,38,43,53,049,45,13,49,254,38,1*76
$GBGSV,4,3,16,42,42,057,44,28,36,321,42,11,34,076,43,23,21,223,,1*7D
$GBGSV,4,4,16,34,19,094,40,41,19,197,,37,17,276,28,06,01,189,,1*79
$GBGSV,2,1,07,40,84,113,45,33,60,153,45,43,53,049,45,42,42,057,45,4*73
$GBGSV,2,2,07,28,36,321,33,34,19,094,43,37,17,276,26,4*4B
$GNGGA,033832.000,2500.8128080,N,12132.4384277,E,4,67,0.44,17.235,M,15.25,M,2,3335*4C
$GNRMC,033832.000,A,2500.8128080,N,12132.4384277,E,0.00,119.92,270623,,,R,V*16
$GPHDT,179.768,T*33
$GNGGA,033832.200,2500.8128114,N,12132.4384318,E,4,67,0.44,17.228,M,15.25,M,1,3335*45
$GNRMC,033832.200,A,2500.8128114,N,12132.4384318,E,0.00,119.92,270623,,,R,V*10
$GPHDT,179.736,T*38
$GNGGA,033832.400,2500.8128117,N,12132.4384298,E,4,67,0.44,17.252,M,15.25,M,1,3335*44
$GNRMC,033832.400,A,2500.8128117,N,12132.4384298,E,0.00,119.92,270623,,,R,V*1C
$GPHDT,179.463,T*3B
$GNGGA,033832.600,2500.8128118,N,12132.4384320,E,4,67,0.44,17.256,M,15.25,M,1,3335*4F
$GNRMC,033832.600,A,2500.8128118,N,12132.4384320,E,0.00,119.92,270623,,,R,V*13
$GPHDT,179.708,T*35
$GNGGA,033832.800,2500.8128186,N,12132.4384367,E,4,67,0.44,17.221,M,15.25,M,1,3335*45
$GNRMC,033832.800,A,2500.8128186,N,12132.4384367,E,0.00,119.92,270623,,,R,V*19
$GPHDT,179.733,T*3D
$GNGSA,A,3,195,19,17,196,199,06,194,09,14,11,04,03,0.82,0.44,0.69,1*09
$GNGSA,A,3,12,,,,,,,,,,,,0.82,0.44,0.69,1*07
$GNGSA,A,3,67,68,82,83,80,73,,,,,,,0.82,0.44,0.69,2*05
$GNGSA,A,3,24,10,12,11,19,31,04,25,33,,,,0.82,0.44,0.69,3*0B
$GNGSA,A,3,40,07,10,14,33,08,43,13,42,28,11,34,0.82,0.44,0.69,4*00
$GNGSA,A,3,37,,,,,,,,,,,,0.82,0.44,0.69,4*05
$GPGSV,4,1,15,195,67,042,39,19,64,012,39,17,64,067,43,196,63,128,41,1*61
$GPGSV,4,2,15,199,60,167,36,06,50,334,42,194,42,171,43,41,38,242,40,1*61
$GPGSV,4,3,15,09,31,110,42,14,29,177,39,11,26,282,41,20,26,228,16,1*6F
$GPGSV,4,4,15,04,21,076,32,03,12,038,24,12,11,320,16,1*5F
$GPGSV,3,1,10,195,67,042,45,196,63,128,45,199,60,167,46,06,50,334,44,8*56
$GPGSV,3,2,10,194,42,171,44,09,31,110,45,14,29,177,38,11,26,282,38,8*59
$GPGSV,3,3,10,04,21,076,34,03,12,038,21,8*65
$GLGSV,2,1,08,67,48,067,39,68,45,150,42,82,37,032,41,83,32,337,33,1*7F
$GLGSV,2,2,08,80,27,233,27,73,23,294,33,66,09,029,30,79,03,188,15,1*79
$GAGSV,3,1,09,24,53,247,37,10,49,330,35,12,49,011,36,11,34,296,23,7*77
$GAGSV,3,2,09,19,30,089,35,31,30,182,37,04,25,155,30,25,24,310,22,7*7B
$GAGSV,3,3,09,33,16,061,29,7*41
$GAGSV,3,1,09,24,53,247,42,10,49,330,39,12,49,011,41,11,34,296,31,1*7C
$GAGSV,3,2,09,19,30,089,40,31,30,182,38,04,25,155,39,25,24,310,21,1*7A
$GAGSV,3,3,09,33,16,061,25,1*4B
$GBGSV,4,1,15,40,84,113,41,07,82,254,41,10,72,294,41,14,61,090,40,1*73
$GBGSV,4,2,15,33,60,153,41,08,59,266,38,43,53,049,43,13,49,254,37,1*7E
$GBGSV,4,3,15,42,42,057,44,28,36,321,40,11,34,077,43,23,21,223,,1*7D
$GBGSV,4,4,15,34,19,094,40,41,19,197,,37,17,276,27,1*42
$GBGSV,2,1,07,40,84,113,45,33,60,153,46,43,53,049,45,42,42,057,45,4*70
$GBGSV,2,2,07,28,36,321,35,34,19,094,43,37,17,276,25,4*4E
$GNGGA,033833.000,2500.8128213,N,12132.4384361,E,4,67,0.44,17.251,M,15.25,M,2,3335*41
$GNRMC,033833.000,A,2500.8128213,N,12132.4384361,E,0.00,119.92,270623,,,R,V*19
$GPHDT,179.645,T*3D
$GNGGA,033833.200,2500.8128020,N,12132.4384369,E,4,67,0.44,17.243,M,15.25,M,2,3335*4A
$GNRMC,033833.200,A,2500.8128020,N,12132.4384369,E,0.00,119.92,270623,,,R,V*11
$GPHDT,179.724,T*3B
$GNGGA,033833.400,2500.8128221,N,12132.4384399,E,4,67,0.44,17.253,M,15.25,M,2,3335*41
$GNRMC,033833.400,A,2500.8128221,N,12132.4384399,E,0.00,119.92,270623,,,R,V*1B
$GPHDT,179.472,T*3B
$GNGGA,033833.600,2500.8128211,N,12132.4384355,E,4,67,0.44,17.261,M,15.25,M,2,3335*41
$GNRMC,033833.600,A,2500.8128211,N,12132.4384355,E,0.00,119.92,270623,,,R,V*1A
$GPHDT,179.008,T*32
$GNGGA,033833.800,2500.8128321,N,12132.4384366,E,4,67,0.44,17.235,M,15.25,M,2,3335*4C
$GNRMC,033833.800,A,2500.8128321,N,12132.4384366,E,0.00,119.92,270623,,,R,V*16
$GPHDT,179.552,T*38
$GNGSA,A,3,195,19,17,196,199,06,194,09,14,11,04,03,0.82,0.44,0.69,1*09
$GNGSA,A,3,12,,,,,,,,,,,,0.82,0.44,0.69,1*07
$GNGSA,A,3,67,68,82,83,80,73,,,,,,,0.82,0.44,0.69,2*05
$GNGSA,A,3,24,10,12,11,19,31,04,25,33,,,,0.82,0.44,0.69,3*0B
$GNGSA,A,3,40,07,10,14,33,08,43,13,42,28,11,34,0.82,0.44,0.69,4*00
$GNGSA,A,3,37,,,,,,,,,,,,0.82,0.44,0.69,4*05
$GPGSV,4,1,15,195,67,042,40,19,64,012,38,17,64,067,43,196,63,128,41,1*6E
$GPGSV,4,2,15,199,60,167,36,06,50,334,43,194,42,171,43,41,38,242,37,1*60
$GPGSV,4,3,15,09,31,110,42,14,29,177,39,11,26,282,42,20,26,228,15,1*6F
$GPGSV,4,4,15,04,21,076,33,03,12,038,25,12,11,320,17,1*5E
$GPGSV,3,1,10,195,67,042,45,196,63,128,44,199,60,167,46,06,50,334,45,8*56
$GPGSV,3,2,10,194,42,171,44,09,31,110,45,14,29,177,38,11,26,282,38,8*59
$GPGSV,3,3,10,04,21,076,36,03,12,038,21,8*67
$GLGSV,2,1,08,67,48,067,38,68,45,150,40,82,37,032,41,83,32,337,34,1*7B
$GLGSV,2,2,08,80,27,233,24,73,23,294,37,66,09,029,30,79,03,188,15,1*7E
$GAGSV,3,1,09,24,53,247,35,10,49,330,39,12,49,011,36,11,34,296,20,7*7A
$GAGSV,3,2,09,19,30,089,35,31,30,182,36,04,25,155,29,25,24,310,24,7*74
$GAGSV,3,3,09,33,16,061,29,7*41
$GAGSV,3,1,09,24,53,247,40,10,49,330,40,12,49,011,41,11,34,296,29,1*79
$GAGSV,3,2,09,19,30,089,40,31,30,182,39,04,25,155,39,25,24,310,17,1*7E
$GAGSV,3,3,09,33,16,061,25,1*4B
$GBGSV,4,1,15,40,84,113,41,07,82,254,41,10,72,294,41,14,61,090,40,1*73
$GBGSV,4,2,15,33,60,153,40,08,59,266,38,43,53,049,43,13,49,255,35,1*7C
$GBGSV,4,3,15,42,42,057,44,28,36,321,37,11,34,077,43,23,21,223,,1*7D
$GBGSV,4,4,15,34,19,094,41,41,19,197,,37,17,276,27,1*43
$GBGSV,2,1,07,40,84,113,45,33,60,153,46,43,53,049,44,42,42,057,45,4*71
$GBGSV,2,2,07,28,36,321,34,34,19,094,43,37,17,276,30,4*4B
$GNGGA,033834.000,2500.8128246,N,12132.4384363,E,4,67,0.44,17.215,M,15.25,M,3,3335*45
$GNRMC,033834.000,A,2500.8128246,N,12132.4384363,E,0.00,119.92,270623,,,R,V*1C
$GPHDT,179.773,T*39
$GNGGA,033834.200,2500.8128377,N,12132.4384184,E,4,67,0.44,17.263,M,15.25,M,3,3335*4E
$GNRMC,033834.200,A,2500.8128377,N,12132.4384184,E,0.00,119.92,270623,,,R,V*16
$GPHDT,178.949,T*3F
$GNGGA,033834.400,2500.8128499,N,12132.4384197,E,4,67,0.44,17.287,M,15.25,M,3,3335*47
$GNRMC,033834.400,A,2500.8128499,N,12132.4384197,E,0.00,119.92,270623,,,R,V*15
$GPHDT,179.820,T*30
$GNGGA,033834.600,2500.8128495,N,12132.4384203,E,4,67,0.44,17.272,M,15.25,M,3,3335*4D
$GNRMC,033834.600,A,2500.8128495,N,12132.4384203,E,0.00,119.92,270623,,,R,V*15
$GPHDT,179.792,T*36
$GNGGA,033834.800,2500.8128487,N,12132.4384192,E,4,67,0.44,17.281,M,15.25,M,3,3335*47
$GNRMC,033834.800,A,2500.8128487,N,12132.4384192,E,0.00,119.92,270623,,,R,V*13
$GPHDT,179.905,T*36
$GNGSA,A,3,195,19,17,196,199,06,194,09,14,11,04,03,0.82,0.44,0.69,1*09
$GNGSA,A,3,12,,,,,,,,,,,,0.82,0.44,0.69,1*07
$GNGSA,A,3,67,68,82,83,80,73,,,,,,,0.82,0.44,0.69,2*05
$GNGSA,A,3,24,10,12,11,19,31,04,25,33,,,,0.82,0.44,0.69,3*0B
$GNGSA,A,3,40,07,10,14,33,08,43,13,42,28,11,34,0.82,0.44,0.69,4*00
$GNGSA,A,3,37,,,,,,,,,,,,0.82,0.44,0.69,4*05
$GPGSV,4,1,15,195,67,042,40,19,64,012,38,17,64,067,43,196,63,128,40,1*6F
$GPGSV,4,2,15,199,60,167,36,06,50,334,43,194,42,171,43,41,38,242,36,1*61
$GPGSV,4,3,15,09,31,110,42,14,29,177,39,11,26,282,42,20,26,228,12,1*68
$GPGSV,4,4,15,04,21,076,35,03,12,038,25,12,11,320,17,1*58
$GPGSV,3,1,10,195,67,042,44,196,63,128,44,199,60,167,46,06,50,334,45,8*57
$GPGSV,3,2,10,194,42,171,44,09,31,110,45,14,29,177,39,11,26,282,38,8*58
$GPGSV,3,3,10,04,21,076,36,03,12,038,20,8*66
$GLGSV,2,1,08,67,48,067,38,68,45,150,41,82,37,032,41,83,32,337,34,1*7A
$GLGSV,2,2,08,80,27,233,25,73,23,294,37,66,09,029,30,79,03,188,15,1*7F
$GAGSV,3,1,09,24,53,247,34,10,49,330,39,12,49,011,36,11,34,296,21,7*7A
$GAGSV,3,2,09,19,30,089,35,31,30,182,38,04,25,155,28,25,24,310,26,7*79
$GAGSV,3,3,09,33,16,061,28,7*40
$GAGSV,3,1,09,24,53,247,40,10,49,330,40,12,49,011,41,11,34,296,30,1*71
$GAGSV,3,2,09,19,30,089,40,31,30,182,39,04,25,155,39,25,24,310,16,1*7F
$GAGSV,3,3,09,33,16,061,26,1*48
$GBGSV,4,1,15,40,84,113,41,07,82,254,41,10,72,294,41,14,61,090,41,1*72
$GBGSV,4,2,15,33,60,153,40,08,59,266,38,43,53,049,43,13,49,255,37,1*7E
$GBGSV,4,3,15,42,42,057,44,28,36,321,39,11,34,077,43,23,21,223,,1*73
$GBGSV,4,4,15,34,19,094,41,41,19,197,,37,17,276,26,1*42
$GBGSV,2,1,07,40,84,113,45,33,60,153,46,43,53,049,44,42,42,057,45,4*71
$GBGSV,2,2,07,28,36,321,36,34,19,094,43,37,17,276,30,4*49
$GNGGA,033835.000,2500.8128566,N,12132.4384188,E,4,67,0.44,17.299,M,15.25,M,4,3335*45
$GNRMC,033835.000,A,2500.8128566,N,12132.4384188,E,0.00,119.92,270623,,,R,V*1F
$GPHDT,179.804,T*36
$GNGGA,033835.200,2500.8128488,N,12132.4384199,E,4,67,0.44,17.295,M,15.25,M,2,3335*4C
$GNRMC,033835.200,A,2500.8128488,N,12132.4384199,E,0.00,119.92,270623,,,R,V*1C
$GPHDT,179.378,T*36
$GNGGA,033835.400,2500.8128417,N,12132.4384213,E,4,66,0.44,17.284,M,15.25,M,1,3335*4F
$GNRMC,033835.400,A,2500.8128417,N,12132.4384213,E,0.00,119.92,270623,,,R,V*1D
$GPHDT,179.092,T*31
$GNGGA,033835.600,2500.8128252,N,12132.4384355,E,4,67,0.44,17.234,M,15.25,M,1,3335*43
$GNRMC,033835.600,A,2500.8128252,N,12132.4384355,E,0.00,119.92,270623,,,R,V*1B
$GPHDT,179.307,T*3E
$GNGGA,033835.800,2500.8128293,N,12132.4384319,E,4,67,0.44,17.249,M,15.25,M,1,3335*42
$GNRMC,033835.800,A,2500.8128293,N,12132.4384319,E,0.00,119.92,270623,,,R,V*10
$GPHDT,179.034,T*3D
$GNGSA,A,3,195,19,17,196,199,06,194,09,14,11,04,03,0.82,0.44,0.69,1*09
$GNGSA,A,3,12,,,,,,,,,,,,0.82,0.44,0.69,1*07
$GNGSA,A,3,67,68,82,83,80,73,,,,,,,0.82,0.44,0.69,2*05
$GNGSA,A,3,24,10,12,11,19,31,04,25,33,,,,0.82,0.44,0.69,3*0B
$GNGSA,A,3,40,07,10,14,33,08,43,13,42,28,11,34,0.82,0.44,0.69,4*00
$GNGSA,A,3,37,,,,,,,,,,,,0.82,0.44,0.69,4*05
$GPGSV,4,1,15,195,67,042,40,19,64,012,39,17,64,067,42,196,63,128,40,1*6F
$GPGSV,4,2,15,199,60,167,36,06,50,334,43,194,42,171,43,41,38,242,30,1*67
$GPGSV,4,3,15,09,31,110,42,14,29,177,39,11,26,282,37,20,26,228,17,1*6F
$GPGSV,4,4,15,04,21,076,34,03,12,038,24,12,11,320,16,1*59
$GPGSV,3,1,10,195,67,042,44,196,63,128,44,199,60,167,46,06,50,334,45,8*57
$GPGSV,3,2,10,194,42,171,44,09,31,110,45,14,29,177,39,11,26,282,38,8*58
$GPGSV,3,3,10,04,21,076,35,03,12,038,17,8*61
$GLGSV,2,1,08,67,48,067,38,68,45,150,41,82,37,032,41,83,32,337,34,1*7A
$GLGSV,2,2,08,80,27,233,26,73,23,294,36,66,09,029,30,79,03,188,15,1*7D
$GAGSV,3,1,09,24,53,247,37,10,49,330,39,12,49,011,36,11,34,296,26,7*7E
$GAGSV,3,2,09,19,30,089,35,31,30,182,37,04,25,155,28,25,24,310,27,7*77
$GAGSV,3,3,09,33,16,061,26,7*4E
$GAGSV,3,1,09,24,53,247,43,10,49,330,41,12,49,011,41,11,34,296,31,1*72
$GAGSV,3,2,09,19,30,089,40,31,30,182,39,04,25,155,39,25,24,310,24,1*7E
$GAGSV,3,3,09,33,16,061,25,1*4B
$GBGSV,4,1,15,40,84,113,41,07,82,254,41,10,72,294,41,14,61,090,42,1*71
$GBGSV,4,2,15,33,60,153,40,08,59,266,37,43,53,049,43,13,49,255,39,1*7F
$GBGSV,4,3,15,42,42,057,44,28,36,321,44,11,34,077,43,23,20,223,,1*78
$GBGSV,4,4,15,34,19,094,40,41,19,197,,37,17,276,25,1*40
$GBGSV,2,1,07,40,84,113,46,33,60,153,46,43,53,049,44,42,42,057,45,4*72
$GBGSV,2,2,07,28,36,321,38,34,19,094,43,37,17,276,27,4*41
$GNGGA,033836.000,2500.8128252,N,12132.4384323,E,4,67,0.44,17.241,M,15.25,M,2,3335*46
$GNRMC,033836.000,A,2500.8128252,N,12132.4384323,E,0.00,119.92,270623,,,R,V*1F
$GPHDT,178.972,T*37
$GNGGA,033836.200,2500.8128257,N,12132.4384332,E,4,67,0.44,17.239,M,15.25,M,2,3335*4E
$GNRMC,033836.200,A,2500.8128257,N,12132.4384332,E,0.00,119.92,270623,,,R,V*18
$GPHDT,179.307,T*3E
$GNGGA,033836.400,2500.8128296,N,12132.4384305,E,4,67,0.44,17.252,M,15.25,M,2,3335*4C
$GNRMC,033836.400,A,2500.8128296,N,12132.4384305,E,0.00,119.92,270623,,,R,V*17
$GPHDT,178.960,T*34
$GNGGA,033836.600,2500.8128296,N,12132.4384332,E,4,66,0.44,17.248,M,15.25,M,2,3335*40
$GNRMC,033836.600,A,2500.8128296,N,12132.4384332,E,0.00,119.92,270623,,,R,V*11
$GPHDT,179.280,T*30
$GNGGA,033836.800,2500.8128325,N,12132.4384328,E,4,66,0.44,17.261,M,15.25,M,2,3335*47
$GNRMC,033836.800,A,2500.8128325,N,12132.4384328,E,0.00,119.92,270623,,,R,V*1D
$GPHDT,179.510,T*3E
$GNGSA,A,3,195,19,17,196,199,06,194,09,14,11,04,03,0.82,0.44,0.69,1*09
$GNGSA,A,3,12,,,,,,,,,,,,0.82,0.44,0.69,1*07
$GNGSA,A,3,67,68,82,83,80,73,,,,,,,0.82,0.44,0.69,2*05
$GNGSA,A,3,24,10,12,11,19,31,04,25,33,,,,0.82,0.44,0.69,3*0B
$GNGSA,A,3,40,07,10,14,33,08,43,13,42,28,11,34,0.82,0.44,0.69,4*00
$GNGSA,A,3,37,,,,,,,,,,,,0.82,0.44,0.69,4*05
$GPGSV,4,1,15,195,67,042,40,19,64,012,40,17,64,067,42,196,63,128,40,1*61
$GPGSV,4,2,15,199,60,167,36,06,50,334,43,194,42,171,43,41,38,242,31,1*66
$GPGSV,4,3,15,09,31,110,42,14,29,177,38,11,26,282,36,20,26,228,17,1*6F
$GPGSV,4,4,15,04,21,076,33,03,12,038,24,12,11,320,16,1*5E
$GPGSV,3,1,09,195,67,042,44,196,63,128,44,199,60,167,46,06,50,334,46,8*5C
$GPGSV,3,2,09,194,42,171,44,09,31,110,45,14,29,177,39,11,26,282,38,8*50
$GPGSV,3,3,09,04,21,076,36,8*57
$GLGSV,2,1,08,67,48,067,38,68,45,150,41,82,37,032,42,83,32,337,34,1*79
$GLGSV,2,2,08,80,27,233,25,73,23,294,36,66,09,029,29,79,03,188,15,1*76
$GAGSV,3,1,09,24,53,247,37,10,49,330,39,12,49,011,36,11,34,296,28,7*70
$GAGSV,3,2,09,19,30,089,35,31,30,182,37,04,25,155,29,25,24,310,28,7*79
$GAGSV,3,3,09,33,16,061,25,7*4D
$GAGSV,3,1,09,24,53,247,43,10,49,330,41,12,49,011,41,11,34,296,31,1*72
$GAGSV,3,2,09,19,30,089,40,31,30,182,40,04,25,155,39,25,24,310,25,1*71
$GAGSV,3,3,09,33,16,061,26,1*48
$GBGSV,4,1,16,40,84,113,41,07,82,254,41,10,72,294,40,14,61,090,42,1*73
$GBGSV,4,2,16,33,60,153,40,08,59,266,36,43,53,049,43,13,49,255,39,1*7D
$GBGSV,4,3,16,42,42,057,43,28,36,322,45,11,34,077,43,23,20,223,,1*7E
$GBGSV,4,4,16,41,19,197,,34,19,094,40,37,17,276,26,25,04,180,,1*7A
$GBGSV,2,1,07,40,84,113,46,33,60,153,47,43,53,049,44,42,42,057,45,4*73
$GBGSV,2,2,07,28,36,322,38,34,19,094,43,37,17,276,26,4*43
$GNGGA,033837.000,2500.8128292,N,12132.4384335,E,4,66,0.44,17.266,M,15.25,M,3,3335*49
$GNRMC,033837.000,A,2500.8128292,N,12132.4384335,E,0.00,119.92,270623,,,R,V*15
$GPHDT,179.574,T*3C
$GNGGA,033837.200,2500.8128329,N,12132.4384341,E,4,66,0.44,17.271,M,15.25,M,3,3335*4F
$GNRMC,033837.200,A,2500.8128329,N,12132.4384341,E,0.00,119.92,270623,,,R,V*15
$GPHDT,179.198,T*3A
$GNGGA,033837.400,2500.8128315,N,12132.4384328,E,4,66,0.44,17.278,M,15.25,M,3,3335*40
$GNRMC,033837.400,A,2500.8128315,N,12132.4384328,E,0.00,119.92,270623,,,R,V*13
$GPHDT,179.199,T*3B
$GNGGA,033837.600,2500.8128340,N,12132.4384294,E,4,66,0.44,17.295,M,15.25,M,3,3335*47
$GNRMC,033837.600,A,2500.8128340,N,12132.4384294,E,0.00,119.92,270623,,,R,V*17
$GPHDT,179.333,T*39
$GNGGA,033837.800,2500.8128311,N,12132.4384338,E,4,66,0.44,17.273,M,15.25,M,3,3335*42
$GNRMC,033837.800,A,2500.8128311,N,12132.4384338,E,0.00,119.92,270623,,,R,V*1A
$GPHDT,179.484,T*32
$GNGSA,A,3,195,19,17,196,199,06,194,09,14,11,04,03,0.82,0.44,0.69,1*09
$GNGSA,A,3,12,,,,,,,,,,,,0.82,0.44,0.69,1*07
$GNGSA,A,3,67,68,82,83,80,73,,,,,,,0.82,0.44,0.69,2*05
$GNGSA,A,3,24,12,10,11,19,31,04,25,33,,,,0.82,0.44,0.69,3*0B
$GNGSA,A,3,40,07,10,14,33,08,43,13,42,28,11,34,0.82,0.44,0.69,4*00
$GNGSA,A,3,37,,,,,,,,,,,,0.82,0.44,0.69,4*05
$GPGSV,4,1,15,195,67,042,39,19,64,012,40,17,64,067,42,196,63,128,40,1*6F
$GPGSV,4,2,15,199,60,167,36,06,50,334,43,194,42,171,43,41,38,242,30,1*67
$GPGSV,4,3,15,09,31,110,42,14,29,177,38,11,26,282,36,20,26,228,18,1*60
$GPGSV,4,4,15,04,21,076,34,03,12,038,24,12,11,320,16,1*59
$GPGSV,3,1,09,195,67,042,44,196,63,128,44,199,60,167,46,06,50,334,46,8*5C
$GPGSV,3,2,09,194,42,171,44,09,31,110,45,14,29,177,38,11,26,282,38,8*51
$GPGSV,3,3,09,04,21,076,36,8*57
$GLGSV,3,1,09,67,48,067,38,68,45,150,41,82,37,032,42,83,32,337,34,1*79
$GLGSV,3,2,09,80,27,233,25,73,23,294,37,66,09,029,29,79,03,188,15,1*77
$GLGSV,3,3,09,74,01,331,,1*42
$GAGSV,3,1,09,24,53,247,37,12,49,011,35,10,49,330,39,11,34,296,29,7*72
$GAGSV,3,2,09,19,30,089,35,31,30,182,37,04,25,155,29,25,24,310,28,7*79
$GAGSV,3,3,09,33,16,061,25,7*4D
$GAGSV,3,1,09,24,53,247,43,10,49,330,41,12,49,011,41,11,34,296,31,1*72
$GAGSV,3,2,09,19,30,089,40,31,30,182,40,04,25,155,39,25,24,310,17,1*70
$GAGSV,3,3,09,33,16,061,27,1*49
$GBGSV,5,1,17,40,84,113,41,07,82,254,41,10,72,294,39,14,61,090,42,1*7D
$GBGSV,5,2,17,33,60,153,40,08,59,266,36,43,53,049,43,13,49,255,38,1*7C
$GBGSV,5,3,17,42,42,057,43,28,36,322,44,11,34,077,43,23,20,223,,1*7F
$GBGSV,5,4,17,34,19,094,40,41,19,197,,37,17,276,26,25,04,180,,1*7A
$GBGSV,5,5,17,06,01,189,,1*47
$GBGSV,2,1,07,40,84,113,46,33,60,153,47,43,53,049,44,42,42,057,45,4*73
$GBGSV,2,2,07,28,36,322,38,34,19,094,43,37,17,276,26,4*43
$GNGGA,033838.000,2500.8128328,N,12132.4384329,E,4,66,0.44,17.261,M,15.25,M,2,3335*4D
$GNRMC,033838.000,A,2500.8128328,N,12132.4384329,E,0.00,119.92,270623,,,R,V*17
$GPHDT,179.162,T*3F
$GNGGA,033838.200,2500.8128341,N,12132.4384301,E,4,67,0.43,17.257,M,15.25,M,1,3335*4A
$GNRMC,033838.200,A,2500.8128341,N,12132.4384301,E,0.00,119.92,270623,,,R,V*10
$GPHDT,179.687,T*33
$GNGGA,033838.400,2500.8128363,N,12132.4384265,E,4,67,0.43,17.268,M,15.25,M,1,3335*43
$GNRMC,033838.400,A,2500.8128363,N,12132.4384265,E,0.00,119.92,270623,,,R,V*15
$GPHDT,179.251,T*3C
$GNGGA,033838.600,2500.8128338,N,12132.4384308,E,4,67,0.43,17.251,M,15.25,M,0,3335*4E
$GNRMC,033838.600,A,2500.8128338,N,12132.4384308,E,0.00,119.92,270623,,,R,V*13
$GPHDT,179.433,T*3E
$GNGGA,033838.800,2500.8128319,N,12132.4384311,E,4,67,0.43,17.238,M,15.25,M,0,3335*44
$GNRMC,033838.800,A,2500.8128319,N,12132.4384311,E,0.00,119.92,270623,,,R,V*16
$GPHDT,179.412,T*3D
$GNGSA,A,3,195,19,17,196,199,06,194,09,14,11,20,04,0.80,0.43,0.68,1*0C
$GNGSA,A,3,03,12,,,,,,,,,,,0.80,0.43,0.68,1*00
$GNGSA,A,3,67,68,82,83,80,73,,,,,,,0.80,0.43,0.68,2*01
$GNGSA,A,3,24,12,10,11,19,31,04,25,33,,,,0.80,0.43,0.68,3*0F
$GNGSA,A,3,40,07,10,14,33,08,43,13,42,28,11,34,0.80,0.43,0.68,4*04
$GNGSA,A,3,37,,,,,,,,,,,,0.80,0.43,0.68,4*01
$GPGSV,4,1,15,195,67,042,39,19,64,012,40,17,64,067,41,196,63,128,40,1*6C
$GPGSV,4,2,15,199,60,167,36,06,50,334,43,194,42,171,43,41,38,242,30,1*67
$GPGSV,4,3,15,09,31,110,42,14,29,177,38,11,26,282,36,20,26,228,19,1*61
$GPGSV,4,4,15,04,21,076,34,03,12,038,22,12,11,320,16,1*5F
$GPGSV,3,1,09,195,67,042,44,196,63,128,44,199,60,167,46,06,50,334,46,8*5C
$GPGSV,3,2,09,194,42,171,44,09,31,110,44,14,29,177,37,11,26,282,38,8*5F
$GPGSV,3,3,09,04,21,076,36,8*57
$GLGSV,3,1,09,67,48,067,38,68,45,150,41,82,37,032,42,83,32,337,34,1*79
$GLGSV,3,2,09,80,27,233,24,73,23,294,37,66,09,029,27,69,07,186,,1*77
$GLGSV,3,3,09,79,03,188,15,1*49
$GAGSV,3,1,09,24,53,247,37,12,49,011,35,10,49,330,39,11,34,296,27,7*7C
$GAGSV,3,2,09,19,30,089,35,31,30,182,37,04,25,155,29,25,24,310,29,7*78
$GAGSV,3,3,09,33,16,061,26,7*4E
$GAGSV,3,1,09,24,53,247,43,10,49,330,40,12,49,011,41,11,34,296,31,1*73
$GAGSV,3,2,09,19,30,089,40,31,30,182,40,04,25,155,39,25,24,310,18,1*7F
$GAGSV,3,3,09,33,16,061,27,1*49
$GBGSV,4,1,16,40,84,114,41,07,82,254,41,10,72,294,39,14,61,090,42,1*7A
$GBGSV,4,2,16,33,60,153,40,08,59,266,36,43,53,049,43,13,49,255,38,1*7C
$GBGSV,4,3,16,42,42,057,43,28,36,322,44,11,34,077,43,23,20,223,,1*7F
$GBGSV,4,4,16,34,19,094,40,41,19,197,,37,17,276,27,25,04,180,,1*7B
$GBGSV,2,1,07,40,84,114,46,33,60,153,47,43,53,049,44,42,42,057,45,4*74
$GBGSV,2,2,07,28,36,322,38,34,19,094,43,37,17,276,26,4*43
$GNGGA,033839.000,2500.8128314,N,12132.4384268,E,4,67,0.43,17.259,M,15.25,M,1,3335*49
$GNRMC,033839.000,A,2500.8128314,N,12132.4384268,E,0.00,119.92,270623,,,R,V*1D
$GPHDT,179.058,T*37
$GNGGA,033839.200,2500.8128334,N,12132.4384289,E,4,67,0.43,17.252,M,15.25,M,1,3335*4D
$GNRMC,033839.200,A,2500.8128334,N,12132.4384289,E,0.00,119.92,270623,,,R,V*12
$GPHDT,179.348,T*35
$GNGGA,033839.400,2500.8128308,N,12132.4384299,E,4,67,0.43,17.252,M,15.25,M,1,3335*45
$GNRMC,033839.400,A,2500.8128308,N,12132.4384299,E,0.00,119.92,270623,,,R,V*1A
$GPHDT,179.198,T*3A
$GNGGA,033839.600,2500.8128321,N,12132.4384329,E,4,67,0.43,17.255,M,15.25,M,0,3335*40
$GNRMC,033839.600,A,2500.8128321,N,12132.4384329,E,0.00,119.92,270623,,,R,V*19
$GPHDT,179.246,T*3A
$GNGGA,033839.800,2500.8128289,N,12132.4384295,E,4,67,0.43,17.256,M,15.25,M,0,3335*48
$GNRMC,033839.800,A,2500.8128289,N,12132.4384295,E,0.00,119.92,270623,,,R,V*12
$GPHDT,179.025,T*3D
$GNGSA,A,3,195,19,17,196,199,06,194,09,14,11,20,04,0.80,0.43,0.68,1*0C
$GNGSA,A,3,03,12,,,,,,,,,,,0.80,0.43,0.68,1*00
$GNGSA,A,3,67,68,82,83,80,73,,,,,,,0.80,0.43,0.68,2*01
$GNGSA,A,3,24,12,10,11,19,31,04,25,33,,,,0.80,0.43,0.68,3*0F
$GNGSA,A,3,40,07,10,14,33,08,43,13,42,28,11,34,0.80,0.43,0.68,4*04
$GNGSA,A,3,37,,,,,,,,,,,,0.80,0.43,0.68,4*01
$GPGSV,4,1,15,195,67,042,39,19,64,012,41,17,64,067,41,196,63,128,40,1*6D
$GPGSV,4,2,15,199,60,167,36,06,50,334,43,194,42,171,43,41,38,242,32,1*65
$GPGSV,4,3,15,09,31,110,42,14,29,177,38,11,26,282,35,20,26,228,17,1*6C
$GPGSV,4,4,15,04,21,076,34,03,12,038,22,12,11,320,19,1*50
$GPGSV,3,1,09,195,67,042,44,196,63,128,44,199,60,167,46,06,50,334,46,8*5C
$GPGSV,3,2,09,194,42,171,44,09,31,110,44,14,29,177,37,11,26,282,38,8*5F
$GPGSV,3,3,09,04,21,076,36,8*57
$GLGSV,3,1,09,67,48,067,38,68,45,150,41,82,37,032,42,83,32,337,34,1*79
$GLGSV,3,2,09,80,27,233,24,73,23,294,38,66,09,029,26,79,03,188,16,1*75
$GLGSV,3,3,09,74,01,331,,1*42
$GAGSV,3,1,09,24,53,247,38,12,49,011,35,10,49,330,39,11,34,296,28,7*7C
$GAGSV,3,2,09,19,30,089,35,31,30,182,37,04,25,155,29,25,24,310,29,7*78
$GAGSV,3,3,09,33,16,061,26,7*4E
$GAGSV,3,1,09,24,53,247,43,10,49,330,41,12,49,011,41,11,34,296,31,1*72
$GAGSV,3,2,09,19,30,089,40,31,30,182,40,04,25,155,38,25,24,310,18,1*7E
$GAGSV,3,3,09,33,16,061,27,1*49
$GBGSV,4,1,16,40,84,114,41,07,82,254,41,10,72,294,39,14,61,090,42,1*7A
$GBGSV,4,2,16,33,60,153,41,08,59,266,36,43,53,050,43,13,49,255,38,1*75
$GBGSV,4,3,16,42,42,057,42,28,36,322,44,11,34,077,43,23,20,223,,1*7E
$GBGSV,4,4,16,34,19,094,40,41,19,197,,37,17,276,28,39,02,179,,1*79
$GBGSV,2,1,07,40,84,114,46,33,60,153,47,43,53,050,44,42,42,057,45,4*7C
$GBGSV,2,2,07,28,36,322,38,34,19,094,43,37,17,276,25,4*40
$GNGGA,033840.000,2500.8128297,N,12132.4384273,E,4,67,0.43,17.227,M,15.25,M,1,3335*4E
$GNRMC,033840.000,A,2500.8128297,N,12132.4384273,E,0.00,119.92,270623,,,R,V*13
$GPHDT,179.075,T*38
$GNGGA,033840.200,2500.8128223,N,12132.4384343,E,4,67,0.43,17.193,M,15.25,M,1,3335*4D
$GNRMC,033840.200,A,2500.8128223,N,12132.4384343,E,0.00,119.92,270623,,,R,V*1C
$GPHDT,179.321,T*3A
$GNGGA,033840.400,2500.8128244,N,12132.4384317,E,4,67,0.43,17.207,M,15.25,M,1,3335*45
$GNRMC,033840.400,A,2500.8128244,N,12132.4384317,E,0.00,119.92,270623,,,R,V*1A
$GPHDT,179.078,T*35
$GNGGA,033840.600,2500.8128239,N,12132.4384302,E,4,67,0.43,17.202,M,15.25,M,0,3335*4D
$GNRMC,033840.600,A,2500.8128239,N,12132.4384302,E,0.00,119.92,270623,,,R,V*16
$GPHDT,179.203,T*3B
$GNGGA,033840.800,2500.8128231,N,12132.4384322,E,4,67,0.43,17.209,M,15.25,M,0,3335*42
$GNRMC,033840.800,A,2500.8128231,N,12132.4384322,E,0.00,119.92,270623,,,R,V*12
$GPHDT,179.068,T*34
$GNGSA,A,3,195,19,17,196,199,06,194,09,14,11,20,04,0.80,0.43,0.68,1*0C
$GNGSA,A,3,03,12,,,,,,,,,,,0.80,0.43,0.68,1*00
$GNGSA,A,3,67,68,82,83,80,73,,,,,,,0.80,0.43,0.68,2*01
$GNGSA,A,3,24,10,12,11,19,31,04,25,33,,,,0.80,0.43,0.68,3*0F
$GNGSA,A,3,40,07,10,14,33,08,43,13,42,28,11,34,0.80,0.43,0.68,4*04
$GNGSA,A,3,37,,,,,,,,,,,,0.80,0.43,0.68,4*01
$GPGSV,4,1,15,195,67,042,39,19,64,012,41,17,64,067,41,196,63,128,40,1*6D
$GPGSV,4,2,15,199,60,167,36,06,50,334,43,194,42,171,43,41,38,242,33,1*64
$GPGSV,4,3,15,09,31,110,42,14,29,177,37,11,26,282,35,20,26,228,16,1*62
$GPGSV,4,4,15,04,21,076,35,03,12,038,22,12,11,320,19,1*51
$GPGSV,3,1,09,195,67,042,44,196,63,128,44,199,60,167,46,06,50,334,46,8*5C
$GPGSV,3,2,09,194,42,171,44,09,31,110,44,14,29,177,37,11,26,282,38,8*5F
$GPGSV,3,3,09,04,21,076,36,8*57
$GLGSV,2,1,08,67,48,067,38,68,45,150,41,82,37,032,42,83,32,337,34,1*79
$GLGSV,2,2,08,80,27,233,23,73,23,294,36,66,09,029,26,79,03,188,16,1*7C
$GAGSV,3,1,09,24,53,247,38,10,49,330,39,12,49,011,35,11,34,296,28,7*7C
$GAGSV,3,2,09,19,30,089,36,31,30,182,37,04,25,155,29,25,24,310,29,7*7B
$GAGSV,3,3,09,33,16,061,26,7*4E
$GAGSV,3,1,09,24,53,247,43,10,49,330,41,12,49,011,41,11,34,296,31,1*72
$GAGSV,3,2,09,19,30,089,40,31,30,182,40,04,25,155,38,25