$FW : RTK35X,V1.1X0314AS,Lib20210517,1*54
$Tool : LOCOSYS , GNSS Firebird , v1.0.0.19*39
$---------------------------------------------------*2D
$GNGSA,A,3,195,19,17,196,199,06,194,09,14,11,04,03,0.82,0.44,0.69,1*09
$GNGSA,A,3,12,,,,,,,,,,,,0.82,0.44,0.69,1*07
$GNGSA,A,3,67,68,82,83,80,73,,,,,,,0.82,0.44,0.69,2*05
$GNGSA,A,3,24,12,10,11,19,31,04,25,33,,,,0.82,0.44,0.69,3*0B
$GNGSA,A,3,40,07,10,14,33,08,43,13,42,28,11,34,0.82,0.44,0.69,4*00
$GNGSA,A,3,37,,,,,,,,,,,,0.82,0.44,0.69,4*05
$GPGSV,4,1,15,195,67,042,40,19,64,013,40,17,64,068,42,196,63,128,40,1*6F
$GPGSV,4,2,15,199,60,167,37,06,50,335,44,194,42,171,44,41,38,242,28,1*6E
$GPGSV,4,3,15,09,32,109,43,14,29,177,39,11,26,282,41,20,26,228,16,1*65
$GPGSV,4,4,15,04,21,076,28,03,12,038,25,12,11,319,17,1*5E
$GPGSV,3,1,10,195,67,042,44,196,63,128,45,199,60,167,47,06,50,335,46,8*55
$GPGSV,3,2,10,194,42,171,46,09,32,109,42,14,29,177,40,11,26,282,42,8*55
$GPGSV,3,3,10,04,21,076,37,03,12,038,30,8*66
$GLGSV,3,1,09,67,48,067,43,68,45,150,42,82,37,032,41,83,32,337,32,1*73
$GLGSV,3,2,09,80,27,233,21,73,23,294,40,66,09,029,24,69,07,186,,1*71
$GLGSV,3,3,09,79,03,188,14,1*48
$GAGSV,3,1,09,24,53,247,33,12,49,011,36,10,49,330,38,11,34,296,36,7*7A
$GAGSV,3,2,09,19,30,089,35,31,30,182,38,04,25,155,33,25,24,310,30,7*74
$GAGSV,3,3,09,33,16,061,28,7*40
$GAGSV,3,1,09,24,53,247,36,10,49,330,43,12,49,011,40,11,34,296,33,1*71
$GAGSV,3,2,09,19,30,089,38,31,30,182,41,04,25,155,37,25,24,310,25,1*71
$GAGSV,3,3,09,33,16,061,28,1*46
$GBGSV,4,1,16,40,84,114,40,07,82,254,41,10,72,294,39,14,61,090,41,1*78
$GBGSV,4,2,16,33,60,153,42,08,59,266,40,43,53,050,44,13,49,255,38,1*70
$GBGSV,4,3,16,42,42,057,43,28,36,322,43,11,34,077,42,23,20,223,,1*79
$GBGSV,4,4,16,34,19,094,38,41,19,197,,37,17,276,30,39,02,179,,1*7F
$GBGSV,2,1,07,40,84,114,45,33,60,153,46,43,53,050,45,42,42,057,45,4*7F
$GBGSV,2,2,07,28,36,322,43,34,19,094,43,37,17,276,31,4*49
$GNGGA,033851.000,2500.8128136,N,12132.4384391,E,4,67,0.44,17.246,M,15.25,M,3,3335*49
$GNRMC,033851.000,A,2500.8128136,N,12132.4384391,E,0.00,119.92,270623,,,R,V*16
$GPHDT,137.302,T*31
$GNGGA,033851.200,2500.8128134,N,12132.4384399,E,4,67,0.44,17.239,M,15.25,M,3,3335*49
$GNRMC,033851.200,A,2500.8128134,N,12132.4384399,E,0.00,119.92,270623,,,R,V*1E
$GPHDT,137.626,T*32
$GNGGA,033851.400,2500.8128284,N,12132.4384390,E,4,67,0.44,17.241,M,15.25,M,3,3335*41
$GNRMC,033851.400,A,2500.8128284,N,12132.4384390,E,0.00,119.92,270623,,,R,V*19
$GPHDT,137.278,T*3D
$GNGGA,033851.600,2500.8128259,N,12132.4384385,E,4,67,0.44,17.256,M,15.25,M,3,3335*41
$GNRMC,033851.600,A,2500.8128259,N,12132.4384385,E,0.00,119.92,270623,,,R,V*1F
$GPHDT,137.135,T*37
$GNGGA,033851.800,2500.8128270,N,12132.4384419,E,4,67,0.44,17.246,M,15.25,M,3,3335*47
$GNRMC,033851.800,A,2500.8128270,N,12132.4384419,E,0.00,119.92,270623,,,R,V*18
$GPHDT,137.447,T*37
$GNGSA,A,3,195,19,17,196,199,06,194,09,14,11,04,03,0.82,0.44,0.69,1*09
$GNGSA,A,3,12,,,,,,,,,,,,0.82,0.44,0.69,1*07
$GNGSA,A,3,67,68,82,83,80,73,,,,,,,0.82,0.44,0.69,2*05
$GNGSA,A,3,24,12,10,11,31,19,04,25,33,,,,0.82,0.44,0.69,3*0B
$GNGSA,A,3,40,07,10,14,33,08,43,13,42,28,11,34,0.82,0.44,0.69,4*00
$GNGSA,A,3,37,,,,,,,,,,,,0.82,0.44,0.69,4*05
$GPGSV,4,1,15,195,67,042,40,19,64,013,41,17,64,068,42,196,63,128,40,1*6E
$GPGSV,4,2,15,199,60,167,37,06,50,335,44,194,42,171,44,41,38,242,32,1*65
$GPGSV,4,3,15,09,32,109,43,14,29,177,39,11,26,282,41,20,26,228,17,1*64
$GPGSV,4,4,15,04,21,076,30,03,12,038,25,12,11,319,17,1*57
$GPGSV,3,1,10,195,67,042,44,196,63,128,45,199,60,167,47,06,50,335,46,8*55
$GPGSV,3,2,10,194,42,171,46,09,32,109,42,14,29,177,40,11,26,282,42,8*55
$GPGSV,3,3,10,04,21,076,37,03,12,038,30,8*66
$GLGSV,3,1,10,67,48,067,43,68,45,150,43,82,37,032,41,83,32,337,30,1*78
$GLGSV,3,2,10,80,27,233,21,73,23,294,41,66,09,029,28,69,07,186,,1*74
$GLGSV,3,3,10,79,03,188,15,74,01,331,,1*72
$GAGSV,3,1,09,24,53,247,35,12,49,011,36,10,49,330,38,11,34,296,37,7*7D
$GAGSV,3,2,09,31,30,182,38,19,30,089,35,04,25,155,32,25,24,310,30,7*75
$GAGSV,3,3,09,33,16,061,28,7*40
$GAGSV,3,1,09,24,53,247,37,10,49,330,43,12,49,011,40,11,34,296,31,1*72
$GAGSV,3,2,09,19,30,089,38,31,30,182,41,04,25,155,37,25,24,310,18,1*7F
$GAGSV,3,3,09,33,16,061,28,1*46
$GBGSV,5,1,17,40,84,114,40,07,82,254,41,10,72,294,39,14,61,090,41,1*78
$GBGSV,5,2,17,33,60,153,42,08,59,266,40,43,53,050,43,13,49,255,40,1*78
$GBGSV,5,3,17,42,42,057,43,28,36,322,43,11,34,077,42,23,20,223,,1*79
$GBGSV,5,4,17,41,19,197,,34,19,094,39,37,17,276,29,25,04,180,,1*7B
$GBGSV,5,5,17,39,02,179,,1*47
$GBGSV,2,1,07,40,84,114,45,33,60,153,46,43,53,050,45,42,42,057,45,4*7F
$GBGSV,2,2,07,28,36,322,42,34,19,094,43,37,17,276,33,4*4A
$GNGGA,033852.000,2500.8128246,N,12132.4384422,E,4,67,0.44,17.251,M,15.25,M,4,3335*40
$GNRMC,033852.000,A,2500.8128246,N,12132.4384422,E,0.00,119.92,270623,,,R,V*1E
$GPHDT,137.172,T*34
$GNGGA,033852.200,2500.8128240,N,12132.4384433,E,4,67,0.44,17.249,M,15.25,M,4,3335*4D
$GNRMC,033852.200,A,2500.8128240,N,12132.4384433,E,0.00,119.92,270623,,,R,V*1A
$GPHDT,137.399,T*33
$GNGGA,033852.400,2500.8128253,N,12132.4384438,E,4,67,0.44,17.248,M,15.25,M,4,3335*43
$GNRMC,033852.400,A,2500.8128253,N,12132.4384438,E,0.00,119.92,270623,,,R,V*15
$GPHDT,137.512,T*36
$GNGGA,033852.600,2500.8128246,N,12132.4384422,E,4,66,0.44,17.248,M,15.25,M,4,3335*4F
$GNRMC,033852.600,A,2500.8128246,N,12132.4384422,E,0.00,119.92,270623,,,R,V*18
$GPHDT,137.074,T*33
$GNGGA,033852.800,2500.8128265,N,12132.4384452,E,4,66,0.44,17.246,M,15.25,M,4,3335*49
$GNRMC,033852.800,A,2500.8128265,N,12132.4384452,E,0.00,119.92,270623,,,R,V*10
$GPHDT,137.540,T*31
$GNGSA,A,3,195,19,17,196,199,06,194,09,14,11,04,03,0.84,0.44,0.72,1*05
$GNGSA,A,3,67,68,82,83,80,73,,,,,,,0.84,0.44,0.72,2*09
$GNGSA,A,3,24,10,12,11,19,31,04,25,33,,,,0.84,0.44,0.72,3*07
$GNGSA,A,3,40,07,10,14,33,08,43,13,42,28,11,34,0.84,0.44,0.72,4*0C
$GNGSA,A,3,37,,,,,,,,,,,,0.84,0.44,0.72,4*09
$GPGSV,4,1,15,195,67,042,40,19,64,013,41,17,64,068,42,196,63,128,40,1*6E
$GPGSV,4,2,15,199,60,167,37,06,50,335,44,194,42,171,44,41,38,242,32,1*65
$GPGSV,4,3,15,09,32,109,43,14,29,177,39,11,26,282,41,20,26,228,15,1*66
$GPGSV,4,4,15,04,21,076,28,03,12,038,25,12,11,319,18,1*51
$GPGSV,3,1,10,195,67,042,44,196,63,128,45,199,60,167,47,06,50,335,46,8*55
$GPGSV,3,2,10,194,42,171,46,09,32,109,42,14,29,177,40,11,26,282,42,8*55
$GPGSV,3,3,10,04,21,076,37,03,12,038,30,8*66
$GLGSV,2,1,08,67,48,067,43,68,45,150,43,82,37,032,41,83,32,337,30,1*70
$GLGSV,2,2,08,80,27,233,20,73,23,294,41,66,09,029,29,79,03,188,12,1*74
$GAGSV,3,1,09,24,53,247,35,10,49,330,39,12,49,011,36,11,34,296,37,7*7C
$GAGSV,3,2,09,19,30,089,35,31,30,182,38,04,25,155,32,25,24,310,30,7*75
$GAGSV,3,3,09,33,16,061,28,7*40
$GAGSV,3,1,09,24,53,247,37,10,49,330,43,12,49,011,40,11,34,296,31,1*72
$GAGSV,3,2,09,19,30,089,38,31,30,182,42,04,25,155,37,25,24,310,15,1*71
$GAGSV,3,3,09,33,16,061,28,1*46
$GBGSV,4,1,15,40,84,114,40,07,82,254,41,10,72,294,39,14,61,090,41,1*7B
$GBGSV,4,2,15,33,60,153,42,08,59,266,40,43,53,050,43,13,49,255,40,1*7B
$GBGSV,4,3,15,42,42,057,43,28,36,322,43,11,34,077,42,23,20,223,,1*7A
$GBGSV,4,4,15,34,19,094,39,41,19,197,,37,17,276,29,1*42
$GBGSV,2,1,07,40,84,114,45,33,60,153,46,43,53,050,45,42,42,057,45,4*7F
$GBGSV,2,2,07,28,36,322,42,34,19,094,43,37,17,276,33,4*4A
$GNGGA,033853.000,2500.8128278,N,12132.4384451,E,4,66,0.44,17.255,M,15.25,M,5,3335*4C
$GNRMC,033853.000,A,2500.8128278,N,12132.4384451,E,0.00,119.92,270623,,,R,V*16
$GPHDT,137.608,T*3E
$GNGGA,033853.200,2500.8128291,N,12132.4384444,E,4,67,0.44,17.256,M,15.25,M,5,3335*4F
$GNRMC,033853.200,A,2500.8128291,N,12132.4384444,E,0.00,119.92,270623,,,R,V*17
$GPHDT,137.345,T*32
$GNGGA,033853.400,2500.8128269,N,12132.4384425,E,4,67,0.44,17.259,M,15.25,M,5,3335*46
$GNRMC,033853.400,A,2500.8128269,N,12132.4384425,E,0.00,119.92,270623,,,R,V*11
$GPHDT,137.527,T*30
$GNGGA,033853.600,2500.8128252,N,12132.4384459,E,4,68,0.43,17.259,M,15.25,M,5,3335*4F
$GNRMC,033853.600,A,2500.8128252,N,12132.4384459,E,0.00,119.92,270623,,,R,V*10
$GPHDT,137.658,T*3B
$GNGGA,033853.800,2500.8128282,N,12132.4384474,E,4,68,0.43,17.261,M,15.25,M,5,3335*48
$GNRMC,033853.800,A,2500.8128282,N,12132.4384474,E,0.00,119.92,270623,,,R,V*1C
$GPHDT,137.845,T*39
$GNGSA,A,3,195,19,17,196,199,06,194,09,14,11,20,04,0.80,0.43,0.68,1*0C
$GNGSA,A,3,03,12,,,,,,,,,,,0.80,0.43,0.68,1*00
$GNGSA,A,3,67,68,82,83,80,73,,,,,,,0.80,0.43,0.68,2*01
$GNGSA,A,3,24,10,12,11,19,31,04,25,33,,,,0.80,0.43,0.68,3*0F
$GNGSA,A,3,40,07,10,14,33,08,43,13,42,28,11,34,0.80,0.43,0.68,4*04
$GNGSA,A,3,37,,,,,,,,,,,,0.80,0.43,0.68,4*01
$GPGSV,4,1,15,195,67,042,40,19,64,013,41,17,64,068,42,196,63,128,40,1*6E
$GPGSV,4,2,15,199,60,167,37,06,50,335,44,194,42,171,44,41,38,242,34,1*63
$GPGSV,4,3,15,09,32,109,43,14,29,177,39,11,26,282,41,20,26,228,15,1*66
$GPGSV,4,4,15,04,21,076,26,03,12,038,26,12,11,319,19,1*5D
$GPGSV,3,1,10,195,67,042,44,196,63,128,44,199,60,167,47,06,50,335,46,8*54
$GPGSV,3,2,10,194,42,171,46,09,32,109,42,14,29,177,41,11,26,282,42,8*54
$GPGSV,3,3,10,04,21,076,37,03,12,038,30,8*66
$GLGSV,2,1,08,67,48,067,43,68,45,150,43,82,37,032,41,83,32,337,31,1*71
$GLGSV,2,2,08,80,27,233,18,73,23,294,41,66,09,029,29,79,03,188,11,1*7C
$GAGSV,3,1,09,24,53,247,37,10,49,330,39,12,49,011,36,11,34,297,37,7*7F
$GAGSV,3,2,09,19,30,089,35,31,30,182,38,04,25,155,32,25,24,310,30,7*75
$GAGSV,3,3,09,33,16,061,28,7*40
$GAGSV,3,1,09,24,53,247,38,10,49,330,43,12,49,011,41,11,34,297,32,1*7E
$GAGSV,3,2,09,19,30,089,39,31,30,182,42,04,25,155,38,25,24,310,19,1*73
$GAGSV,3,3,09,33,16,061,29,1*47
$GBGSV,4,1,16,40,84,114,40,07,82,254,41,10,72,294,39,14,61,090,41,1*78
$GBGSV,4,2,16,33,60,153,42,08,59,266,40,43,53,050,43,13,49,255,40,1*78
$GBGSV,4,3,16,42,42,057,43,28,36,322,43,11,34,077,42,23,20,223,,1*79
$GBGSV,4,4,16,41,19,197,,34,19,094,40,37,17,276,27,06,01,189,,1*76
$GBGSV,2,1,07,40,84,114,45,33,60,153,46,43,53,050,45,42,42,057,45,4*7F
$GBGSV,2,2,07,28,36,322,41,34,19,094,43,37,17,276,34,4*4E
$GNGGA,033854.000,2500.8128285,N,12132.4384460,E,4,68,0.43,17.254,M,15.25,M,6,3335*40
$GNRMC,033854.000,A,2500.8128285,N,12132.4384460,E,0.00,119.92,270623,,,R,V*11
$GPHDT,137.451,T*30
$GNGGA,033854.200,2500.8128277,N,12132.4384482,E,4,68,0.43,17.261,M,15.25,M,6,3335*45
$GNRMC,033854.200,A,2500.8128277,N,12132.4384482,E,0.00,119.92,270623,,,R,V*12
$GPHDT,137.438,T*3F
$GNGGA,033854.400,2500.8128282,N,12132.4384484,E,4,68,0.43,17.261,M,15.25,M,6,3335*4F
$GNRMC,033854.400,A,2500.8128282,N,12132.4384484,E,0.00,119.92,270623,,,R,V*18
$GPHDT,137.734,T*30
$GNGGA,033854.600,2500.8128431,N,12132.4384294,E,4,68,0.43,17.311,M,15.25,M,4,3335*40
$GNRMC,033854.600,A,2500.8128431,N,12132.4384294,E,0.00,119.92,270623,,,R,V*13
$GPHDT,137.893,T*32
$GNGGA,033854.800,2500.8128390,N,12132.4384302,E,4,68,0.43,17.293,M,15.25,M,2,3335*41
$GNRMC,033854.800,A,2500.8128390,N,12132.4384302,E,0.00,119.92,270623,,,R,V*1F
$GPHDT,137.591,T*3D
$GNGSA,A,3,195,19,17,196,199,06,194,09,14,11,20,04,0.80,0.43,0.68,1*0C
$GNGSA,A,3,03,12,,,,,,,,,,,0.80,0.43,0.68,1*00
$GNGSA,A,3,67,68,82,83,80,73,,,,,,,0.80,0.43,0.68,2*01
$GNGSA,A,3,24,10,12,11,19,31,04,25,33,,,,0.80,0.43,0.68,3*0F
$GNGSA,A,3,40,07,10,14,33,08,43,13,42,28,11,34,0.80,0.43,0.68,4*04
$GNGSA,A,3,37,,,,,,,,,,,,0.80,0.43,0.68,4*01
$GPGSV,4,1,15,195,67,042,40,19,64,013,41,17,64,068,41,196,63,128,40,1*6D
$GPGSV,4,2,15,199,60,167,37,06,50,335,44,194,42,171,44,41,38,242,35,1*62
$GPGSV,4,3,15,09,32,109,43,14,29,177,39,11,26,282,41,20,26,228,17,1*64
$GPGSV,4,4,15,04,21,076,26,03,12,038,25,12,11,319,19,1*5E
$GPGSV,3,1,10,195,67,042,44,196,63,128,44,199,60,167,47,06,50,335,46,8*54
$GPGSV,3,2,10,194,42,171,46,09,32,109,42,14,29,177,41,11,26,282,42,8*54
$GPGSV,3,3,10,04,21,076,37,03,12,038,30,8*66
$GLGSV,2,1,08,67,48,067,43,68,45,150,43,82,37,032,42,83,32,337,31,1*72
$GLGSV,2,2,08,80,27,233,18,73,23,294,41,66,09,029,28,79,03,188,13,1*7F
$GAGSV,3,1,09,24,53,247,37,10,49,330,39,12,49,011,36,11,34,297,37,7*7F
$GAGSV,3,2,09,19,30,089,35,31,30,182,38,04,25,155,33,25,24,310,29,7*7C
$GAGSV,3,3,09,33,16,061,29,7*41
$GAGSV,3,1,09,24,53,247,39,10,49,330,43,12,49,011,41,11,34,297,35,1*78
$GAGSV,3,2,09,19,30,089,39,31,30,182,42,04,25,155,38,25,24,310,19,1*73
$GAGSV,3,3,09,33,16,061,30,1*4F
$GBGSV,4,1,16,40,84,114,40,07,82,254,40,10,72,294,39,14,61,090,42,1*7A
$GBGSV,4,2,16,33,60,153,42,08,59,266,40,43,53,050,44,13,49,255,40,1*7F
$GBGSV,4,3,16,42,42,057,43,28,36,322,43,11,34,077,42,23,20,223,,1*79
$GBGSV,4,4,16,41,19,197,,34,19,094,41,37,17,276,27,06,01,189,,1*77
$GBGSV,2,1,07,40,84,114,45,33,60,153,46,43,53,050,45,42,42,057,45,4*7F
$GBGSV,2,2,07,28,36,322,41,34,19,094,43,37,17,276,34,4*4E
$GNGGA,033855.000,2500.8128278,N,12132.4384419,E,4,68,0.43,17.250,M,15.25,M,1,3335*4E
$GNRMC,033855.000,A,2500.8128278,N,12132.4384419,E,0.00,119.92,270623,,,R,V*1C
$GPHDT,137.509,T*3C
$GNGGA,033855.200,2500.8128289,N,12132.4384420,E,4,68,0.43,17.257,M,15.25,M,1,3335*4F
$GNRMC,033855.200,A,2500.8128289,N,12132.4384420,E,0.00,119.92,270623,,,R,V*1A
$GPHDT,137.348,T*3F
$GNGGA,033855.400,2500.8128305,N,12132.4384423,E,4,68,0.43,17.246,M,15.25,M,1,3335*4F
$GNRMC,033855.400,A,2500.8128305,N,12132.4384423,E,0.00,119.92,270623,,,R,V*1A
$GPHDT,137.626,T*32
$GNGGA,033855.600,2500.8128265,N,12132.4384450,E,4,68,0.43,17.246,M,15.25,M,1,3335*4E
$GNRMC,033855.600,A,2500.8128265,N,12132.4384450,E,0.00,119.92,270623,,,R,V*1B
$GPHDT,137.753,T*31
$GNGGA,033855.800,2500.8128285,N,12132.4384417,E,4,68,0.43,17.262,M,15.25,M,1,3335*4B
$GNRMC,033855.800,A,2500.8128285,N,12132.4384417,E,0.00,119.92,270623,,,R,V*18
$GPHDT,137.505,T*30
$GNGSA,A,3,195,19,17,196,199,06,194,09,14,11,20,04,0.80,0.43,0.68,1*0C
$GNGSA,A,3,03,12,,,,,,,,,,,0.80,0.43,0.68,1*00
$GNGSA,A,3,67,68,82,83,80,73,,,,,,,0.80,0.43,0.68,2*01
$GNGSA,A,3,24,10,12,11,19,31,04,25,33,,,,0.80,0.43,0.68,3*0F
$GNGSA,A,3,40,07,10,14,33,08,43,13,42,28,11,34,0.80,0.43,0.68,4*04
$GNGSA,A,3,37,,,,,,,,,,,,0.80,0.43,0.68,4*01
$GPGSV,4,1,15,195,67,042,40,19,64,013,41,17,64,068,41,196,63,128,40,1*6D
$GPGSV,4,2,15,199,60,167,37,06,50,335,44,194,42,171,44,41,38,242,38,1*6F
$GPGSV,4,3,15,09,32,109,43,14,29,177,39,11,26,282,41,20,26,228,17,1*64
$GPGSV,4,4,15,04,21,076,27,03,12,038,27,12,11,319,19,1*5D
$GPGSV,3,1,10,195,67,042,44,196,63,128,44,199,60,167,47,06,50,335,46,8*54
$GPGSV,3,2,10,194,42,171,45,09,32,109,42,14,29,177,41,11,26,282,42,8*57
$GPGSV,3,3,10,04,21,076,37,03,12,038,29,8*6E
$GLGSV,2,1,08,67,48,067,43,68,45,150,43,82,37,032,42,83,32,337,31,1*72
$GLGSV,2,2,08,80,27,233,18,73,23,294,41,66,09,029,28,79,03,188,13,1*7F
$GAGSV,3,1,09,24,53,247,37,10,49,330,39,12,49,011,36,11,34,297,37,7*7F
$GAGSV,3,2,09,19,30,089,35,31,30,182,38,04,25,155,34,25,24,309,29,7*73
$GAGSV,3,3,09,33,16,061,29,7*41
$GAGSV,3,1,09,24,53,247,39,10,49,330,43,12,49,011,41,11,34,297,35,1*78
$GAGSV,3,2,09,19,30,089,39,31,30,182,42,04,25,155,38,25,24,309,19,1*7B
$GAGSV,3,3,09,33,16,061,30,1*4F
$GBGSV,4,1,15,40,84,114,40,07,82,254,40,10,72,294,39,14,61,090,42,1*79
$GBGSV,4,2,15,33,60,153,42,08,59,266,40,43,53,050,44,13,49,255,40,1*7C
$GBGSV,4,3,15,42,42,057,43,28,36,322,43,11,34,077,42,23,20,223,,1*7A
$GBGSV,4,4,15,34,19,094,41,41,19,197,,37,17,276,28,1*4C
$GBGSV,2,1,07,40,84,114,45,33,60,153,46,43,53,050,45,42,42,057,45,4*7F
$GBGSV,2,2,07,28,36,322,41,34,19,094,43,37,17,276,35,4*4F
$GNGGA,033856.000,2500.8128292,N,12132.4384393,E,4,68,0.43,17.266,M,15.25,M,2,3335*4A
$GNRMC,033856.000,A,2500.8128292,N,12132.4384393,E,0.00,119.92,270623,,,R,V*1E
$GPHDT,137.379,T*3D
$GNGGA,033856.200,2500.8128288,N,12132.4384413,E,4,67,0.43,17.254,M,15.25,M,2,3335*42
$GNRMC,033856.200,A,2500.8128288,N,12132.4384413,E,0.00,119.92,270623,,,R,V*18
$GPHDT,137.381,T*3A
$GNGGA,033856.400,2500.8128298,N,12132.4384431,E,4,67,0.43,17.253,M,15.25,M,2,3335*42
$GNRMC,033856.400,A,2500.8128298,N,12132.4384431,E,0.00,119.92,270623,,,R,V*1F
$GPHDT,137.618,T*3F
$GNGGA,033856.600,2500.8128291,N,12132.4384469,E,4,67,0.43,17.252,M,15.25,M,2,3335*45
$GNRMC,033856.600,A,2500.8128291,N,12132.4384469,E,0.00,119.92,270623,,,R,V*19
$GPHDT,137.824,T*3E
$GNGGA,033856.800,2500.8128266,N,12132.4384469,E,4,67,0.43,17.250,M,15.25,M,2,3335*41
$GNRMC,033856.800,A,2500.8128266,N,12132.4384469,E,0.00,119.92,270623,,,R,V*1F
$GPHDT,137.847,T*3B
$GNGSA,A,3,195,19,17,196,199,06,194,09,14,11,20,04,0.80,0.43,0.68,1*0C
$GNGSA,A,3,03,12,,,,,,,,,,,0.80,0.43,0.68,1*00
$GNGSA,A,3,67,68,82,83,80,73,,,,,,,0.80,0.43,0.68,2*01
$GNGSA,A,3,24,10,12,11,19,31,04,25,33,,,,0.80,0.43,0.68,3*0F
$GNGSA,A,3,40,07,10,14,33,08,43,13,42,28,11,34,0.80,0.43,0.68,4*04
$GNGSA,A,3,37,,,,,,,,,,,,0.80,0.43,0.68,4*01
$GPGSV,4,1,15,195,67,042,40,19,64,013,41,17,64,068,41,196,63,128,40,1*6D
$GPGSV,4,2,15,199,60,167,37,06,50,335,44,194,42,171,44,41,38,242,36,1*61
$GPGSV,4,3,15,09,32,109,43,14,29,177,39,11,26,282,41,20,26,228,18,1*6B
$GPGSV,4,4,15,04,21,076,24,03,12,038,27,12,11,319,18,1*5F
$GPGSV,3,1,10,195,67,042,44,196,63,128,44,199,60,167,47,06,50,335,46,8*54
$GPGSV,3,2,10,194,42,171,45,09,32,109,42,14,29,177,41,11,26,282,42,8*57
$GPGSV,3,3,10,04,21,076,37,03,12,038,29,8*6E
$GLGSV,2,1,08,67,48,067,43,68,45,150,43,82,37,032,42,83,32,337,30,1*73
$GLGSV,2,2,08,80,27,233,18,73,23,294,41,66,09,029,29,79,03,188,12,1*7F
$GAGSV,3,1,09,24,53,247,37,10,49,330,39,12,49,011,36,11,34,297,38,7*70
$GAGSV,3,2,09,19,30,089,35,31,30,182,38,04,25,155,34,25,24,309,29,7*73
$GAGSV,3,3,09,33,16,061,29,7*41
$GAGSV,3,1,09,24,53,247,39,10,49,330,43,12,49,011,41,11,34,297,35,1*78
$GAGSV,3,2,09,19,30,089,39,31,30,182,42,04,25,155,38,25,24,309,21,1*70
$GAGSV,3,3,09,33,16,061,32,1*4D
$GBGSV,4,1,15,40,84,114,40,07,82,254,40,10,72,294,39,14,61,090,42,1*79
$GBGSV,4,2,15,33,60,153,42,08,59,266,40,43,53,050,44,13,49,255,40,1*7C
$GBGSV,4,3,15,42,42,057,43,28,36,322,43,11,34,077,42,23,20,223,,1*7A
$GBGSV,4,4,15,34,19,094,41,41,19,197,,37,17,276,29,1*4D
$GBGSV,2,1,07,40,84,114,45,33,60,153,46,43,53,050,45,42,42,057,45,4*7F
$GBGSV,2,2,07,28,36,322,41,34,19,094,43,37,17,276,35,4*4F
$GNGGA,033857.000,2500.8128306,N,12132.4384466,E,4,67,0.43,17.247,M,15.25,M,3,3335*47
$GNRMC,033857.000,A,2500.8128306,N,12132.4384466,E,0.00,119.92,270623,,,R,V*1E
$GPHDT,137.718,T*3E
$GNGGA,033857.200,2500.8128277,N,12132.4384460,E,4,67,0.43,17.250,M,15.25,M,3,3335*42
$GNRMC,033857.200,A,2500.8128277,N,12132.4384460,E,0.00,119.92,270623,,,R,V*1D
$GPHDT,137.584,T*39
$GNGGA,033857.400,2500.8128258,N,12132.4384460,E,4,67,0.43,17.249,M,15.25,M,3,3335*41
$GNRMC,033857.400,A,2500.8128258,N,12132.4384460,E,0.00,119.92,270623,,,R,V*16
$GPHDT,137.514,T*30
$GNGGA,033857.600,2500.8128282,N,12132.4384439,E,4,67,0.43,17.258,M,15.25,M,3,3335*48
$GNRMC,033857.600,A,2500.8128282,N,12132.4384439,E,0.00,119.92,270623,,,R,V*1F
$GPHDT,137.278,T*3D
$GNGGA,033857.800,2500.8128277,N,12132.4384453,E,4,67,0.43,17.253,M,15.25,M,3,3335*4B
$GNRMC,033857.800,A,2500.8128277,N,12132.4384453,E,0.00,119.92,270623,,,R,V*17
$GPHDT,137.396,T*3C
$GNGSA,A,3,195,19,17,196,199,06,194,09,14,11,20,04,0.80,0.43,0.68,1*0C
$GNGSA,A,3,03,12,,,,,,,,,,,0.80,0.43,0.68,1*00
$GNGSA,A,3,67,68,82,83,80,73,,,,,,,0.80,0.43,0.68,2*01
$GNGSA,A,3,24,10,12,11,19,31,04,25,33,,,,0.80,0.43,0.68,3*0F
$GNGSA,A,3,40,07,10,14,33,08,43,13,42,28,11,34,0.80,0.43,0.68,4*04
$GNGSA,A,3,37,,,,,,,,,,,,0.80,0.43,0.68,4*01
$GPGSV,4,1,15,195,67,042,40,19,64,013,41,17,64,068,40,196,63,128,40,1*6C
$GPGSV,4,2,15,199,60,167,37,06,50,335,44,194,42,171,44,41,38,242,36,1*61
$GPGSV,4,3,15,09,32,109,43,14,29,177,39,11,26,282,41,20,26,228,18,1*6B
$GPGSV,4,4,15,04,21,076,25,03,12,038,27,12,11,319,20,1*55
$GPGSV,3,1,10,195,67,042,44,196,63,128,44,199,60,167,47,06,50,335,46,8*54
$GPGSV,3,2,10,194,42,171,45,09,32,109,42,14,29,177,41,11,26,282,41,8*54
$GPGSV,3,3,10,04,21,076,37,03,12,038,30,8*66
$GLGSV,2,1,08,67,48,067,43,68,45,150,43,82,37,032,42,83,32,337,30,1*73
$GLGSV,2,2,08,80,27,233,22,73,23,294,41,66,09,029,29,79,03,188,13,1*77
$GAGSV,3,1,09,24,53,247,37,10,49,330,39,12,49,011,37,11,34,297,38,7*71
$GAGSV,3,2,09,19,30,089,35,31,30,182,38,04,25,155,34,25,24,309,30,7*7B
$GAGSV,3,3,09,33,16,062,29,7*42
$GAGSV,3,1,09,24,53,247,39,10,49,330,43,12,49,011,41,11,34,297,32,1*7F
$GAGSV,3,2,09,19,30,089,39,31,30,182,42,04,25,155,38,25,24,309,19,1*7B
$GAGSV,3,3,09,33,16,062,30,1*4C
$GBGSV,4,1,15,40,84,114,40,07,82,254,40,10,72,294,39,14,61,090,42,1*79
$GBGSV,4,2,15,33,60,153,42,08,59,266,40,43,53,050,44,13,49,255,40,1*7C
$GBGSV,4,3,15,42,42,057,43,28,36,322,43,11,34,077,42,23,20,223,,1*7A
$GBGSV,4,4,15,34,19,094,41,41,19,197,,37,17,276,29,1*4D
$GBGSV,2,1,07,40,84,114,45,33,60,153,46,43,53,050,45,42,42,057,45,4*7F
$GBGSV,2,2,07,28,36,322,41,34,19,094,44,37,17,276,34,4*49
$GNGGA,033858.000,2500.8128264,N,12132.4384430,E,4,67,0.43,17.255,M,15.25,M,4,3335*4A
$GNRMC,033858.000,A,2500.8128264,N,12132.4384430,E,0.00,119.92,270623,,,R,V*17
$GPHDT,137.327,T*36
$GNGGA,033858.200,2500.8128306,N,12132.4384427,E,4,66,0.43,17.261,M,15.25,M,2,3335*4B
$GNRMC,033858.200,A,2500.8128306,N,12132.4384427,E,0.00,119.92,270623,,,R,V*16
$GPHDT,137.572,T*30
$GNGGA,033858.400,2500.8127352,N,12132.4383635,E,4,66,0.43,17.636,M,15.25,M,1,3335*40
$GNRMC,033858.400,A,2500.8127352,N,12132.4383635,E,0.00,119.92,270623,,,R,V*18
$GPHDT,137.592,T*3E
$GNGGA,033858.600,2500.8127358,N,12132.4383660,E,4,65,0.43,17.632,M,15.25,M,1,3335*4F
$GNRMC,033858.600,A,2500.8127358,N,12132.4383660,E,0.00,119.92,270623,,,R,V*10
$GPHDT,137.558,T*38
$GNGGA,033858.800,2500.8127364,N,12132.4383657,E,4,65,0.43,17.623,M,15.25,M,1,3335*4A
$GNRMC,033858.800,A,2500.8127364,N,12132.4383657,E,0.00,119.92,270623,,,R,V*15
$GPHDT,137.423,T*35
$GNGSA,A,3,195,19,17,196,199,06,194,09,14,11,20,04,0.80,0.43,0.68,1*0C
$GNGSA,A,3,03,12,,,,,,,,,,,0.80,0.43,0.68,1*00
$GNGSA,A,3,67,68,82,83,80,73,,,,,,,0.80,0.43,0.68,2*01
$GNGSA,A,3,24,10,12,11,19,31,04,25,33,,,,0.80,0.43,0.68,3*0F
$GNGSA,A,3,40,07,10,14,33,08,43,13,42,28,11,34,0.80,0.43,0.68,4*04
$GNGSA,A,3,37,,,,,,,,,,,,0.80,0.43,0.68,4*01
$GPGSV,4,1,15,195,67,042,40,19,64,013,41,17,64,068,40,196,63,128,40,1*6C
$GPGSV,4,2,15,199,60,167,37,06,50,335,44,194,42,171,44,41,38,242,36,1*61
$GPGSV,4,3,15,09,32,109,43,14,29,177,39,11,26,282,41,20,26,228,17,1*64
$GPGSV,4,4,15,04,21,076,28,03,12,038,27,12,11,319,21,1*59
$GPGSV,3,1,10,195,67,042,44,196,63,128,44,199,60,167,47,06,50,335,46,8*54
$GPGSV,3,2,10,194,42,171,45,09,32,109,42,14,29,177,41,11,26,282,41,8*54
$GPGSV,3,3,10,04,21,076,37,03,12,038,27,8*60
$GLGSV,2,1,08,67,48,067,43,68,46,150,43,82,37,032,42,83,32,337,30,1*70
$GLGSV,2,2,08,80,27,233,22,73,23,294,41,66,08,029,29,79,03,188,13,1*76
$GAGSV,3,1,09,24,53,247,37,10,49,330,38,12,49,011,37,11,34,297,38,7*70
$GAGSV,3,2,09,19,30,089,35,31,30,182,38,04,25,155,34,25,24,309,29,7*73
$GAGSV,3,3,09,33,16,062,30,7*4A
$GAGSV,2,1,08,24,53,247,39,12,49,011,41,10,49,330,43,11,34,297,31,1*7C
$GAGSV,2,2,08,19,30,089,39,31,30,182,42,04,25,155,38,33,16,062,30,1*78
$GBGSV,4,1,15,40,84,114,41,07,82,254,40,10,72,294,39,14,61,090,42,1*78
$GBGSV,4,2,15,33,60,153,42,08,59,266,40,43,53,050,44,13,49,255,40,1*7C
$GBGSV,4,3,15,42,42,057,43,28,36,322,43,11,34,077,42,23,20,223,,1*7A
$GBGSV,4,4,15,34,19,094,41,41,19,197,,37,17,276,28,1*4C
$GBGSV,2,1,07,40,84,114,45,33,60,153,46,43,53,050,45,42,42,057,45,4*7F
$GBGSV,2,2,07,28,36,322,41,34,19,094,44,37,17,276,34,4*49
$GNGGA,033859.000,2500.8127372,N,12132.4383672,E,4,66,0.43,17.629,M,15.25,M,2,3335*49
$GNRMC,033859.000,A,2500.8127372,N,12132.4383672,E,0.00,119.92,270623,,,R,V*1C
$GPHDT,137.703,T*34
$GNGGA,033859.200,2500.8127345,N,12132.4383645,E,4,67,0.43,17.626,M,15.25,M,2,3335*45
$GNRMC,033859.200,A,2500.8127345,N,12132.4383645,E,0.00,119.92,270623,,,R,V*1E
$GPHDT,137.582,T*3F
$GNGGA,033859.400,2500.8127363,N,12132.4383646,E,4,67,0.43,17.638,M,15.25,M,2,3335*4B
$GNRMC,033859.400,A,2500.8127363,N,12132.4383646,E,0.00,119.92,270623,,,R,V*1F
$GPHDT,137.700,T*37
$GNGGA,033859.600,2500.8127305,N,12132.4383659,E,4,67,0.43,17.621,M,15.25,M,2,3335*4F
$GNRMC,033859.600,A,2500.8127305,N,12132.4383659,E,0.00,119.92,270623,,,R,V*13
$GPHDT,137.360,T*35
$GNGGA,033859.800,2500.8127367,N,12132.4383655,E,4,67,0.43,17.629,M,15.25,M,2,3335*41
$GNRMC,033859.800,A,2500.8127367,N,12132.4383655,E,0.00,119.92,270623,,,R,V*15
$GPHDT,137.532,T*34
$GNGSA,A,3,195,19,17,196,199,06,194,09,14,11,20,04,0.80,0.43,0.68,1*0C
$GNGSA,A,3,03,12,,,,,,,,,,,0.80,0.43,0.68,1*00
$GNGSA,A,3,67,68,82,83,80,73,,,,,,,0.80,0.43,0.68,2*01
$GNGSA,A,3,24,10,12,11,19,31,04,25,33,,,,0.80,0.43,0.68,3*0F
$GNGSA,A,3,40,07,10,14,33,08,43,13,42,28,11,34,0.80,0.43,0.68,4*04
$GNGSA,A,3,37,,,,,,,,,,,,0.80,0.43,0.68,4*01
$GPGSV,4,1,15,195,67,042,40,19,64,013,41,17,64,068,40,196,63,128,40,1*6C
$GPGSV,4,2,15,199,60,167,37,06,50,335,44,194,42,171,44,41,38,242,35,1*62
$GPGSV,4,3,15,09,32,109,43,14,29,177,39,11,26,282,41,20,26,228,16,1*65
$GPGSV,4,4,15,04,21,076,30,03,12,038,28,12,11,319,20,1*5E
$GPGSV,3,1,10,195,67,042,44,196,63,128,44,199,60,167,47,06,50,335,46,8*54
$GPGSV,3,2,10,194,42,171,45,09,32,109,42,14,29,177,40,11,26,282,41,8*55
$GPGSV,3,3,10,04,21,076,36,03,12,038,27,8*61
$GLGSV,2,1,08,67,48,067,43,68,46,150,43,82,37,032,42,83,32,337,30,1*70
$GLGSV,2,2,08,80,27,233,22,73,23,293,41,66,08,029,29,79,03,188,13,1*71
$GAGSV,3,1,09,24,53,247,37,10,49,330,38,12,49,011,37,11,34,297,38,7*70
$GAGSV,3,2,09,19,30,089,35,31,30,182,38,04,25,155,34,25,24,309,29,7*73
$GAGSV,3,3,09,33,16,062,31,7*4B
$GAGSV,3,1,09,24,53,247,39,10,49,330,43,12,49,011,41,11,34,297,31,1*7C
$GAGSV,3,2,09,19,30,089,39,31,30,182,42,04,25,155,38,25,24,309,22,1*73
$GAGSV,3,3,09,33,16,062,31,1*4D
$GBGSV,4,1,15,40,84,114,41,07,82,254,40,10,72,294,39,14,61,090,42,1*78
$GBGSV,4,2,15,33,60,153,42,08,59,266,40,43,53,050,44,13,49,255,40,1*7C
$GBGSV,4,3,15,42,42,057,43,28,36,322,43,11,34,077,42,23,20,223,,1*7A
$GBGSV,4,4,15,34,19,094,41,41,19,197,,37,17,276,28,1*4C
$GBGSV,2,1,07,40,84,114,45,33,60,153,46,43,53,050,44,42,42,057,45,4*7E
$GBGSV,2,2,07,28,36,322,41,34,19,094,44,37,17,276,33,4*4E
$GNGGA,033900.000,2500.8127322,N,12132.4383682,E,4,67,0.43,17.625,M,15.25,M,3,3335*42
$GNRMC,033900.000,A,2500.8127322,N,12132.4383682,E,0.00,119.92,270623,,,R,V*1B
$GPHDT,137.394,T*3E
$GNGGA,033900.200,2500.8127376,N,12132.4383655,E,4,67,0.43,17.635,M,15.25,M,3,3335*4A
$GNRMC,033900.200,A,2500.8127376,N,12132.4383655,E,0.00,119.92,270623,,,R,V*12
$GPHDT,137.564,T*37
$GNGGA,033900.400,2500.8127390,N,12132.4383650,E,4,66,0.44,17.640,M,15.25,M,3,3335*45
$GNRMC,033900.400,A,2500.8127390,N,12132.4383650,E,0.00,119.92,270623,,,R,V*19
$GPHDT,137.656,T*35
$GNGGA,033900.600,2500.8127395,N,12132.4383675,E,4,66,0.44,17.643,M,15.25,M,3,3335*46
$GNRMC,033900.600,A,2500.8127395,N,12132.4383675,E,0.00,119.92,270623,,,R,V*19
$GPHDT,137.876,T*39
$GNGGA,033900.800,2500.8127351,N,12132.4383652,E,4,66,0.44,17.642,M,15.25,M,3,3335*44
$GNRMC,033900.800,A,2500.8127351,N,12132.4383652,E,0.00,119.92,270623,,,R,V*1A
$GPHDT,137.394,T*3E
$GNGSA,A,3,195,19,17,196,199,06,194,09,14,11,04,03,0.82,0.44,0.69,1*09
$GNGSA,A,3,12,,,,,,,,,,,,0.82,0.44,0.69,1*07
$GNGSA,A,3,67,68,82,83,80,73,,,,,,,0.82,0.44,0.69,2*05
$GNGSA,A,3,24,12,10,11,19,31,04,25,33,,,,0.82,0.44,0.69,3*0B
$GNGSA,A,3,40,07,10,14,33,08,43,13,42,28,11,34,0.82,0.44,0.69,4*00
$GNGSA,A,3,37,,,,,,,,,,,,0.82,0.44,0.69,4*05
$GPGSV,4,1,15,195,67,042,40,19,64,013,42,17,64,068,40,196,63,128,40,1*6F
$GPGSV,4,2,15,199,60,167,37,06,50,335,44,194,42,171,44,41,38,242,35,1*62
$GPGSV,4,3,15,09,32,109,43,14,29,177,39,11,26,282,41,20,26,228,13,1*60
$GPGSV,4,4,15,04,21,076,29,03,12,038,28,12,11,319,21,1*57
$GPGSV,3,1,10,195,67,042,44,196,63,128,44,199,60,167,47,06,50,335,46,8*54
$GPGSV,3,2,10,194,42,171,46,09,32,109,42,14,29,177,40,11,26,282,41,8*56
$GPGSV,3,3,10,04,21,076,36,03,12,038,28,8*6E
$GLGSV,3,1,09,67,48,067,43,68,46,150,43,82,37,032,42,83,32,337,30,1*70
$GLGSV,3,2,09,80,27,233,20,73,23,293,41,66,08,029,29,79,03,188,14,1*74
$GLGSV,3,3,09,74,01,331,,1*42
$GAGSV,3,1,09,24,53,247,36,12,49,011,37,10,49,330,38,11,34,297,38,7*71
$GAGSV,3,2,09,19,30,089,35,31,30,182,38,04,25,155,34,25,24,309,29,7*73
$GAGSV,3,3,09,33,16,062,31,7*4B
$GAGSV,3,1,09,24,53,247,39,10,49,330,43,12,49,011,41,11,34,297,31,1*7C
$GAGSV,3,2,09,19,30,089,39,31,30,182,42,04,25,155,38,25,24,309,21,1*70
$GAGSV,3,3,09,33,16,062,31,1*4D
$GBGSV,4,1,15,40,84,114,41,07,82,254,40,10,72,294,39,14,61,090,42,1*78
$GBGSV,4,2,15,33,60,153,42,08,59,266,40,43,53,050,44,13,49,255,40,1*7C
$GBGSV,4,3,15,42,42,057,43,28,36,322,43,11,34,077,42,23,20,223,,1*7A
$GBGSV,4,4,15,34,19,094,41,41,19,197,,37,17,276,28,1*4C
$GBGSV,2,1,07,40,84,114,45,33,60,153,46,43,53,050,44,42,42,057,45,4*7E
$GBGSV,2,2,07,28,36,322,41,34,19,094,44,37,17,276,33,4*4E
$GNGGA,033901.000,2500.8127404,N,12132.4383634,E,4,66,0.44,17.642,M,15.25,M,4,3335*4D
$GNRMC,033901.000,A,2500.8127404,N,12132.4383634,E,0.00,119.92,270623,,,R,V*14
$GPHDT,137.527,T*30
$GNGGA,033901.200,2500.8127410,N,12132.4383655,E,4,66,0.44,17.655,M,15.25,M,4,3335*4B
$GNRMC,033901.200,A,2500.8127410,N,12132.4383655,E,0.00,119.92,270623,,,R,V*14
