$FW : RTK35X,V1.1X0314AS,Lib20210517,1*54
$Tool : LOCOSYS , GNSS Firebird , v1.0.0.19*39
$---------------------------------------------------*2D
$GNGGA,033624.400,2500.8146900,N,12132.4377500,E,2,67,0.44,16.16,M,15.25,M,1,3335*74
$GNRMC,033624.400,A,2500.8146900,N,12132.4377500,E,0.00,119.92,270623,,,D,V*0F
$GPHDT,47.200,T*04
$GNGGA,033624.600,2500.8146900,N,12132.4377400,E,2,68,0.43,16.18,M,15.25,M,1,3335*71
$GNRMC,033624.600,A,2500.8146900,N,12132.4377400,E,0.00,119.92,270623,,,D,V*0C
$GPHDT,47.272,T*01
$GNGGA,033624.800,2500.8146900,N,12132.4377400,E,2,68,0.43,16.19,M,15.25,M,0,3335*7F
$GNRMC,033624.800,A,2500.8146900,N,12132.4377400,E,0.00,119.92,270623,,,D,V*02
$GPHDT,47.209,T*0D
$GNGSA,A,3,195,17,19,196,199,06,194,09,14,11,20,04,0.84,0.43,0.72,1*03
$GNGSA,A,3,03,,,,,,,,,,,,0.84,0.43,0.72,1*0C
$GNGSA,A,3,67,68,82,83,80,73,,,,,,,0.84,0.43,0.72,2*0E
$GNGSA,A,3,24,12,10,11,31,19,04,25,33,,,,0.84,0.43,0.72,3*00
$GNGSA,A,3,40,07,10,14,08,33,43,13,42,28,11,34,0.84,0.43,0.72,4*0B
$GNGSA,A,3,37,,,,,,,,,,,,0.84,0.43,0.72,4*0E
$GPGSV,4,1,15,195,67,041,41,17,64,064,42,19,63,011,43,196,62,129,42,1*65
$GPGSV,4,2,15,199,60,167,35,06,50,333,43,194,43,171,43,41,38,242,41,1*64
$GPGSV,4,3,15,09,31,111,29,14,30,177,38,11,25,281,35,20,25,227,24,1*64
$GPGSV,4,4,15,04,21,077,28,03,13,038,18,12,10,320,18,1*54
$GPGSV,3,1,10,195,67,041,45,196,62,129,45,199,60,167,46,06,50,333,47,8*51
$GPGSV,3,2,10,194,43,171,44,09,31,111,35,14,30,177,41,11,25,281,31,8*51
$GPGSV,3,3,10,04,21,077,27,03,13,038,33,8*64
$GLGSV,2,1,08,67,48,069,42,68,44,151,45,82,37,031,43,83,32,335,32,1*78
$GLGSV,2,2,08,80,28,234,30,73,23,295,38,66,09,030,28,79,04,188,,1*7F
$GAGSV,3,1,09,24,54,248,41,12,49,010,37,10,49,329,41,11,34,296,32,7*75
$GAGSV,3,2,09,31,31,182,41,19,30,090,31,04,25,156,29,25,24,310,32,7*7D
$GAGSV,3,3,09,33,16,061,27,7*4F
$GAGSV,3,1,09,24,54,248,43,10,49,329,46,12,49,010,41,11,34,296,37,1*72
$GAGSV,3,2,09,31,31,182,41,19,30,090,34,04,25,156,38,25,24,310,31,1*7D
$GAGSV,3,3,09,33,16,061,27,1*49
$GBGSV,5,1,18,40,84,108,41,07,82,257,40,10,72,296,37,14,61,092,41,1*77
$GBGSV,5,2,18,08,59,265,39,33,59,154,44,43,53,048,45,13,49,254,40,1*7F
$GBGSV,5,3,18,42,42,058,45,28,35,321,45,11,34,075,46,23,21,224,,1*79
$GBGSV,5,4,18,34,19,093,38,41,18,197,,37,17,277,29,06,01,189,,1*7F
$GBGSV,5,5,18,56,,,40,38,,,42,1*75
$GBGSV,2,1,07,40,84,108,45,33,59,154,46,43,53,048,43,42,42,058,43,4*79
$GBGSV,2,2,07,28,35,321,41,34,19,093,32,37,17,277,27,4*4C
$GNGGA,033625.000,2500.8146900,N,12132.4377300,E,2,67,0.43,16.21,M,15.25,M,1,3335*74
$GNRMC,033625.000,A,2500.8146900,N,12132.4377300,E,0.00,119.92,270623,,,D,V*0C
$GPHDT,47.104,T*03
$GNGGA,033625.200,2500.8146800,N,12132.4377300,E,2,67,0.43,16.23,M,15.25,M,1,3335*75
$GNRMC,033625.200,A,2500.8146800,N,12132.4377300,E,0.00,119.92,270623,,,D,V*0F
$GPHDT,47.120,T*05
$GNGGA,033625.400,2500.8146900,N,12132.4377200,E,2,67,0.43,16.24,M,15.25,M,1,3335*74
$GNRMC,033625.400,A,2500.8146900,N,12132.4377200,E,0.00,119.92,270623,,,D,V*09
$GPHDT,47.293,T*0E
$GNGGA,033625.600,2500.8146900,N,12132.4377200,E,2,66,0.43,16.26,M,15.25,M,1,3335*75
$GNRMC,033625.600,A,2500.8146900,N,12132.4377200,E,0.00,119.92,270623,,,D,V*0B
$GPHDT,47.296,T*0B
$GNGGA,033625.800,2500.8146900,N,12132.4377200,E,2,66,0.43,16.27,M,15.25,M,0,3335*7B
$GNRMC,033625.800,A,2500.8146900,N,12132.4377200,E,0.00,119.92,270623,,,D,V*05
$GPHDT,47.220,T*06
$GNGSA,A,3,195,17,19,196,199,06,194,09,14,20,11,03,0.84,0.43,0.72,1*04
$GNGSA,A,3,04,,,,,,,,,,,,0.84,0.43,0.72,1*0B
$GNGSA,A,3,67,68,82,83,80,73,,,,,,,0.84,0.43,0.72,2*0E
$GNGSA,A,3,24,12,10,11,31,19,04,25,33,,,,0.84,0.43,0.72,3*00
$GNGSA,A,3,40,07,10,14,08,33,43,13,42,28,11,34,0.84,0.43,0.72,4*0B
$GNGSA,A,3,37,,,,,,,,,,,,0.84,0.43,0.72,4*0E
$GPGSV,4,1,15,195,67,041,41,17,64,064,41,19,63,011,43,196,62,129,42,1*66
$GPGSV,4,2,15,199,60,167,35,06,50,333,43,194,43,171,43,41,38,242,41,1*64
$GPGSV,4,3,15,09,31,111,31,14,30,177,38,20,25,227,26,11,25,281,34,1*6E
$GPGSV,4,4,15,04,21,077,23,03,13,038,20,12,10,320,18,1*54
$GPGSV,3,1,10,195,67,041,45,196,62,129,45,199,60,167,46,06,50,333,47,8*51
$GPGSV,3,2,10,194,43,171,43,09,31,111,34,14,30,177,41,11,25,281,32,8*54
$GPGSV,3,3,10,04,21,077,27,03,13,038,33,8*64
$GLGSV,2,1,08,67,48,069,44,68,44,151,45,82,37,031,43,83,32,335,32,1*7E
$GLGSV,2,2,08,80,28,234,29,73,23,295,38,66,09,030,31,79,04,188,,1*7F
$GAGSV,3,1,09,24,54,248,41,12,49,010,37,10,49,329,41,11,34,296,33,7*74
$GAGSV,3,2,09,31,31,182,41,19,30,090,30,04,25,156,29,25,24,310,31,7*7F
$GAGSV,3,3,09,33,16,061,25,7*4D
$GAGSV,3,1,09,24,54,248,43,10,49,329,46,12,49,010,41,11,34,296,37,1*72
$GAGSV,3,2,09,31,31,182,41,19,30,090,34,04,25,156,38,25,24,310,31,1*7D
$GAGSV,3,3,09,33,16,061,27,1*49
$GBGSV,5,1,17,40,84,108,41,07,82,257,40,10,72,296,37,14,61,092,42,1*7B
$GBGSV,5,2,17,08,59,265,39,33,59,154,44,43,53,048,45,13,49,254,40,1*70
$GBGSV,5,3,17,42,42,058,45,28,35,321,45,11,34,075,46,23,21,224,,1*76
$GBGSV,5,4,17,34,19,093,38,41,18,197,,37,17,277,29,56,,,41,1*41
$GBGSV,5,5,17,38,,,42,1*7D
$GBGSV,2,1,07,40,84,108,45,33,59,154,46,43,53,048,43,42,42,058,44,4*7E
$GBGSV,2,2,07,28,35,321,42,34,19,093,34,37,17,277,28,4*46
$GNGGA,033626.000,2500.8146900,N,12132.4377100,E,2,66,0.43,16.29,M,15.25,M,1,3335*7C
$GNRMC,033626.000,A,2500.8146900,N,12132.4377100,E,0.00,119.92,270623,,,D,V*0D
$GPHDT,47.252,T*03
$GNGGA,033626.200,2500.8146900,N,12132.4377000,E,2,66,0.43,16.31,M,15.25,M,1,3335*76
$GNRMC,033626.200,A,2500.8146900,N,12132.4377000,E,0.00,119.92,270623,,,D,V*0E
$GPHDT,47.221,T*07
$GNGGA,033626.400,2500.8146900,N,12132.4377000,E,2,65,0.44,16.33,M,15.25,M,1,3335*76
$GNRMC,033626.400,A,2500.8146900,N,12132.4377000,E,0.00,119.92,270623,,,D,V*08
$GPHDT,47.107,T*00
$GNGGA,033626.600,2500.8146900,N,12132.4377000,E,2,66,0.44,16.35,M,15.25,M,0,3335*70
$GNRMC,033626.600,A,2500.8146900,N,12132.4377000,E,0.00,119.92,270623,,,D,V*0A
$GPHDT,47.278,T*0B
$GNGGA,033626.800,2500.8146900,N,12132.4377000,E,2,66,0.44,16.36,M,15.25,M,0,3335*7D
$GNRMC,033626.800,A,2500.8146900,N,12132.4377000,E,0.00,119.92,270623,,,D,V*04
$GPHDT,47.151,T*03
$GNGSA,A,3,195,17,19,196,199,06,194,09,14,11,03,04,0.85,0.44,0.73,1*05
$GNGSA,A,3,67,68,82,83,80,73,,,,,,,0.85,0.44,0.73,2*09
$GNGSA,A,3,24,12,10,11,31,19,04,25,33,,,,0.85,0.44,0.73,3*07
$GNGSA,A,3,40,07,10,14,08,33,43,13,42,28,11,34,0.85,0.44,0.73,4*0C
$GNGSA,A,3,37,,,,,,,,,,,,0.85,0.44,0.73,4*09
$GPGSV,4,1,15,195,67,041,41,17,64,064,42,19,63,011,42,196,62,129,42,1*64
$GPGSV,4,2,15,199,60,167,35,06,50,333,43,194,43,171,43,41,38,242,41,1*64
$GPGSV,4,3,15,09,31,111,32,14,30,177,38,20,25,227,24,11,25,281,34,1*6F
$GPGSV,4,4,15,04,21,077,22,03,13,038,20,12,10,320,19,1*54
$GPGSV,3,1,10,195,67,041,45,196,62,129,45,199,60,167,46,06,50,333,47,8*51
$GPGSV,3,2,10,194,43,171,43,09,31,111,34,14,30,177,41,11,25,281,32,8*54
$GPGSV,3,3,10,04,21,077,29,03,13,038,33,8*6A
$GLGSV,2,1,08,67,48,069,45,68,44,151,45,82,37,031,43,83,32,335,32,1*7F
$GLGSV,2,2,08,80,28,234,29,73,23,295,38,66,09,030,30,79,04,188,,1*7E
$GAGSV,3,1,09,24,54,248,41,12,49,010,38,10,49,329,40,11,34,296,33,7*7A
$GAGSV,3,2,09,31,31,182,41,19,30,090,31,04,25,156,29,25,24,310,31,7*7E
$GAGSV,3,3,09,33,16,061,26,7*4E
$GAGSV,3,1,09,24,54,248,43,10,49,329,46,12,49,010,41,11,34,296,38,1*7D
$GAGSV,3,2,09,31,31,182,41,19,30,090,34,04,25,156,38,25,24,310,32,1*7E
$GAGSV,3,3,09,33,16,061,28,1*46
$GBGSV,5,1,17,40,84,108,41,07,82,257,40,10,72,296,37,14,61,092,42,1*7B
$GBGSV,5,2,17,08,59,265,39,33,59,154,44,43,53,048,45,13,49,254,40,1*70
$GBGSV,5,3,17,42,42,058,45,28,35,321,45,11,34,075,45,23,21,224,,1*75
$GBGSV,5,4,17,34,19,093,39,41,18,197,,37,17,277,29,56,,,41,1*40
$GBGSV,5,5,17,38,,,42,1*7D
$GBGSV,2,1,07,40,84,108,45,33,59,154,46,43,53,048,43,42,42,058,45,4*7F
$GBGSV,2,2,07,28,35,321,42,34,19,093,34,37,17,277,28,4*46
$GNGGA,033627.000,2500.8146900,N,12132.4376900,E,2,65,0.44,16.38,M,15.25,M,1,3335*70
$GNRMC,033627.000,A,2500.8146900,N,12132.4376900,E,0.00,119.92,270623,,,D,V*05
$GPHDT,47.167,T*06
$GNGGA,033627.200,2500.8146900,N,12132.4376900,E,2,66,0.43,16.40,M,15.25,M,1,3335*79
$GNRMC,033627.200,A,2500.8146900,N,12132.4376900,E,0.00,119.92,270623,,,D,V*07
$GPHDT,47.220,T*06
$GNGGA,033627.400,2500.8146900,N,12132.4376900,E,2,67,0.43,16.42,M,15.25,M,1,3335*7C
$GNRMC,033627.400,A,2500.8146900,N,12132.4376900,E,0.00,119.92,270623,,,D,V*01
$GPHDT,47.023,T*07
$GNGGA,033627.600,2500.8146800,N,12132.4376800,E,2,67,0.43,16.43,M,15.25,M,1,3335*7F
$GNRMC,033627.600,A,2500.8146800,N,12132.4376800,E,0.00,119.92,270623,,,D,V*03
$GPHDT,46.942,T*08
$GNGGA,033627.800,2500.8146800,N,12132.4376700,E,2,67,0.43,16.45,M,15.25,M,0,3335*79
$GNRMC,033627.800,A,2500.8146800,N,12132.4376700,E,0.00,119.92,270623,,,D,V*02
$GPHDT,47.191,T*0F
$GNGSA,A,3,195,17,19,196,199,06,194,09,14,20,11,04,0.84,0.43,0.72,1*03
$GNGSA,A,3,03,,,,,,,,,,,,0.84,0.43,0.72,1*0C
$GNGSA,A,3,67,68,82,83,80,73,,,,,,,0.84,0.43,0.72,2*0E
$GNGSA,A,3,24,12,10,11,31,19,04,25,33,,,,0.84,0.43,0.72,3*00
$GNGSA,A,3,40,07,10,14,08,33,43,13,42,28,11,34,0.84,0.43,0.72,4*0B
$GNGSA,A,3,37,,,,,,,,,,,,0.84,0.43,0.72,4*0E
$GPGSV,4,1,15,195,67,041,41,17,64,064,42,19,63,011,42,196,62,129,42,1*64
$GPGSV,4,2,15,199,60,167,35,06,50,333,43,194,43,171,43,41,38,242,41,1*64
$GPGSV,4,3,15,09,31,111,29,14,30,177,38,20,25,227,25,11,25,281,34,1*64
$GPGSV,4,4,15,04,21,077,19,03,13,038,19,12,10,320,20,1*5C
$GPGSV,3,1,10,195,67,041,45,196,62,129,45,199,60,167,46,06,50,333,47,8*51
$GPGSV,3,2,10,194,43,171,43,09,31,111,33,14,30,177,40,11,25,281,30,8*50
$GPGSV,3,3,10,04,21,077,29,03,13,038,33,8*6A
$GLGSV,2,1,08,67,48,069,45,68,44,151,45,82,37,031,43,83,32,335,32,1*7F
$GLGSV,2,2,08,80,28,234,25,73,23,295,39,66,09,030,28,79,04,188,,1*7A
$GAGSV,3,1,09,24,54,248,41,12,49,010,37,10,49,329,40,11,34,296,33,7*75
$GAGSV,3,2,09,31,31,182,41,19,30,090,32,04,25,156,27,25,24,310,32,7*70
$GAGSV,3,3,09,33,16,061,25,7*4D
$GAGSV,3,1,09,24,54,248,43,10,49,329,46,12,49,010,41,11,34,296,38,1*7D
$GAGSV,3,2,09,31,31,182,41,19,30,090,34,04,25,156,38,25,24,310,31,1*7D
$GAGSV,3,3,09,33,16,061,28,1*46
$GBGSV,5,1,17,40,84,108,41,07,82,257,40,10,72,296,36,14,61,092,42,1*7A
$GBGSV,5,2,17,08,59,265,39,33,59,154,44,43,53,048,45,13,49,254,40,1*70
$GBGSV,5,3,17,42,42,058,45,28,35,321,45,11,34,075,45,23,21,224,,1*75
$GBGSV,5,4,17,34,19,093,39,41,18,197,,37,17,277,30,56,,,41,1*48
$GBGSV,5,5,17,38,,,42,1*7D
$GBGSV,2,1,07,40,84,108,45,33,59,154,46,43,53,048,43,42,42,058,45,4*7F
$GBGSV,2,2,07,28,35,321,42,34,19,093,34,37,17,277,27,4*49
$GNGGA,033628.000,2500.8146700,N,12132.4376700,E,2,67,0.43,16.47,M,15.25,M,1,3335*72
$GNRMC,033628.000,A,2500.8146700,N,12132.4376700,E,0.00,119.92,270623,,,D,V*0A
$GPHDT,47.133,T*07
$GNGGA,033628.200,2500.8146700,N,12132.4376600,E,2,67,0.43,16.49,M,15.25,M,1,3335*7F
$GNRMC,033628.200,A,2500.8146700,N,12132.4376600,E,0.00,119.92,270623,,,D,V*09
$GPHDT,47.238,T*0F
$GNGGA,033628.400,2500.8146700,N,12132.4376600,E,2,66,0.44,16.51,M,15.25,M,1,3335*76
$GNRMC,033628.400,A,2500.8146700,N,12132.4376600,E,0.00,119.92,270623,,,D,V*0F
$GPHDT,47.023,T*07
$GNGGA,033628.600,2500.8146600,N,12132.4376400,E,2,66,0.44,16.52,M,15.25,M,1,3335*74
$GNRMC,033628.600,A,2500.8146600,N,12132.4376400,E,0.00,119.92,270623,,,D,V*0E
$GPHDT,47.040,T*02
$GNGGA,033628.800,2500.8146600,N,12132.4376400,E,2,67,0.43,16.54,M,15.25,M,1,3335*7A
$GNRMC,033628.800,A,2500.8146600,N,12132.4376400,E,0.00,119.92,270623,,,D,V*00
$GPHDT,46.938,T*05
$GNGSA,A,3,195,17,19,196,199,06,194,09,14,20,11,03,0.81,0.43,0.69,1*0B
$GNGSA,A,3,12,04,,,,,,,,,,,0.81,0.43,0.69,1*07
$GNGSA,A,3,67,68,82,83,80,73,,,,,,,0.81,0.43,0.69,2*01
$GNGSA,A,3,24,12,10,11,31,19,04,25,33,,,,0.81,0.43,0.69,3*0F
$GNGSA,A,3,40,07,10,14,08,33,43,13,42,28,11,34,0.81,0.43,0.69,4*04
$GNGSA,A,3,37,,,,,,,,,,,,0.81,0.43,0.69,4*01
$GPGSV,4,1,15,195,67,041,41,17,64,064,42,19,63,011,42,196,62,129,42,1*64
$GPGSV,4,2,15,199,60,167,35,06,50,333,43,194,43,171,43,41,38,242,41,1*64
$GPGSV,4,3,15,09,31,111,22,14,30,177,38,20,25,227,25,11,25,281,34,1*6F
$GPGSV,4,4,15,04,21,077,19,03,13,038,18,12,10,320,20,1*5D
$GPGSV,3,1,10,195,67,041,45,196,62,129,45,199,60,167,46,06,50,333,47,8*51
$GPGSV,3,2,10,194,43,171,43,09,31,111,31,14,30,177,40,11,25,281,32,8*50
$GPGSV,3,3,10,04,21,077,29,03,13,038,33,8*6A
$GLGSV,2,1,08,67,48,069,45,68,44,151,45,82,37,031,43,83,32,335,32,1*7F
$GLGSV,2,2,08,80,28,234,25,73,23,295,39,66,09,030,29,79,04,188,,1*7B
$GAGSV,3,1,09,24,54,248,41,12,49,010,37,10,49,329,40,11,34,296,33,7*75
$GAGSV,3,2,09,31,31,182,41,19,30,090,33,04,25,156,26,25,24,310,32,7*70
$GAGSV,3,3,09,33,16,061,22,7*4A
$GAGSV,3,1,09,24,54,248,43,10,49,329,46,12,49,010,41,11,34,296,38,1*7D
$GAGSV,3,2,09,31,31,182,42,19,30,090,35,04,25,156,38,25,24,310,31,1*7F
$GAGSV,3,3,09,33,16,061,27,1*49
$GBGSV,5,1,17,40,84,109,41,07,82,257,40,10,72,296,36,14,61,092,42,1*7B
$GBGSV,5,2,17,08,59,265,39,33,59,154,44,43,53,048,45,13,49,254,40,1*70
$GBGSV,5,3,17,42,42,058,45,28,35,321,45,11,34,075,45,23,21,224,,1*75
$GBGSV,5,4,17,34,19,093,39,41,18,197,,37,17,277,28,56,,,41,1*41
$GBGSV,5,5,17,38,,,42,1*7D
$GBGSV,2,1,07,40,84,109,45,33,59,154,46,43,53,048,43,42,42,058,45,4*7E
$GBGSV,2,2,07,28,35,321,42,34,19,093,34,37,17,277,28,4*46
$GNGGA,033629.000,2500.8146600,N,12132.4376300,E,2,67,0.43,16.55,M,15.25,M,2,3335*76
$GNRMC,033629.000,A,2500.8146600,N,12132.4376300,E,0.00,119.92,270623,,,D,V*0E
$GPHDT,47.184,T*0B
$GNGGA,033629.200,2500.8127414,N,12132.4383610,E,4,67,0.43,17.673,M,15.25,M,2,3335*4F
$GNRMC,033629.200,A,2500.8127414,N,12132.4383610,E,0.00,119.92,270623,,,R,V*14
$GPHDT,47.063,T*03
$GNGGA,033629.400,2500.8127416,N,12132.4383583,E,4,67,0.43,17.677,M,15.25,M,2,3335*46
$GNRMC,033629.400,A,2500.8127416,N,12132.4383583,E,0.00,119.92,270623,,,R,V*19
$GPHDT,47.091,T*0E
$GNGGA,033629.600,2500.8127371,N,12132.4383638,E,4,67,0.43,17.664,M,15.25,M,2,3335*43
$GNRMC,033629.600,A,2500.8127371,N,12132.4383638,E,0.00,119.92,270623,,,R,V*1E
$GPHDT,47.034,T*01
$GNGGA,033629.800,2500.8127369,N,12132.4383633,E,4,67,0.43,17.649,M,15.25,M,2,3335*40
$GNRMC,033629.800,A,2500.8127369,N,12132.4383633,E,0.00,119.92,270623,,,R,V*12
$GPHDT,47.199,T*07
$GNGSA,A,3,195,17,19,196,199,06,194,09,14,20,11,03,0.81,0.43,0.69,1*0B
$GNGSA,A,3,12,04,,,,,,,,,,,0.81,0.43,0.69,1*07
$GNGSA,A,3,67,68,82,83,80,73,,,,,,,0.81,0.43,0.69,2*01
$GNGSA,A,3,24,12,10,11,31,19,04,25,33,,,,0.81,0.43,0.69,3*0F
$GNGSA,A,3,40,07,10,14,08,33,43,13,42,28,11,34,0.81,0.43,0.69,4*04
$GNGSA,A,3,37,,,,,,,,,,,,0.81,0.43,0.69,4*01
$GPGSV,4,1,15,195,67,041,41,17,64,064,42,19,63,011,42,196,62,129,42,1*64
$GPGSV,4,2,15,199,60,167,35,06,50,333,43,194,43,171,43,41,38,242,41,1*64
$GPGSV,4,3,15,09,31,111,23,14,30,177,38,20,25,227,27,11,25,281,34,1*6C
$GPGSV,4,4,15,04,21,077,22,03,13,038,18,12,10,320,19,1*5F
$GPGSV,3,1,10,195,67,041,45,196,62,129,45,199,60,167,46,06,50,333,47,8*51
$GPGSV,3,2,10,194,43,171,43,09,31,111,32,14,30,177,40,11,25,281,31,8*50
$GPGSV,3,3,10,04,21,077,28,03,13,038,32,8*6A
$GLGSV,2,1,08,67,48,069,45,68,44,151,45,82,37,031,43,83,32,335,32,1*7F
$GLGSV,2,2,08,80,28,234,26,73,23,295,39,66,09,030,27,79,04,188,,1*76
$GAGSV,3,1,09,24,54,248,41,12,49,010,37,10,49,329,40,11,34,296,33,7*75
$GAGSV,3,2,09,31,31,182,41,19,30,090,33,04,25,156,26,25,24,310,31,7*73
$GAGSV,3,3,09,33,16,061,23,7*4B
$GAGSV,3,1,09,24,54,248,43,10,49,329,45,12,49,010,41,11,34,296,38,1*7E
$GAGSV,3,2,09,31,31,182,42,19,30,090,35,04,25,156,38,25,24,310,31,1*7F
$GAGSV,3,3,09,33,16,061,27,1*49
$GBGSV,5,1,17,40,84,109,41,07,82,257,40,10,72,296,36,14,61,092,42,1*7B
$GBGSV,5,2,17,08,59,265,39,33,59,154,44,43,53,048,45,13,49,254,40,1*70
$GBGSV,5,3,17,42,42,058,45,28,35,321,45,11,34,075,45,23,21,224,,1*75
$GBGSV,5,4,17,34,19,093,40,41,18,197,,37,17,277,28,56,,,41,1*4F
$GBGSV,5,5,17,38,,,42,1*7D
$GBGSV,2,1,07,40,84,109,45,33,59,154,46,43,53,048,43,42,42,058,45,4*7E
$GBGSV,2,2,07,28,35,321,42,34,19,093,33,37,17,277,27,4*4E
$GNGGA,033630.000,2500.8127401,N,12132.4383613,E,4,67,0.43,17.681,M,15.25,M,3,3335*4E
$GNRMC,033630.000,A,2500.8127401,N,12132.4383613,E,0.00,119.92,270623,,,R,V*19
$GPHDT,47.169,T*08
$GNGGA,033630.200,2500.8127347,N,12132.4383659,E,4,68,0.43,17.650,M,15.25,M,3,3335*44
$GNRMC,033630.200,A,2500.8127347,N,12132.4383659,E,0.00,119.92,270623,,,R,V*10
$GPHDT,47.032,T*07
$GNGGA,033630.400,2500.8127363,N,12132.4383640,E,4,68,0.43,17.660,M,15.25,M,3,3335*4F
$GNRMC,033630.400,A,2500.8127363,N,12132.4383640,E,0.00,119.92,270623,,,R,V*18
$GPHDT,47.213,T*06
$GNGGA,033630.600,2500.8127351,N,12132.4383630,E,4,67,0.43,17.658,M,15.25,M,3,3335*4F
$GNRMC,033630.600,A,2500.8127351,N,12132.4383630,E,0.00,119.92,270623,,,R,V*1C
$GPHDT,47.153,T*01
$GNGGA,033630.800,2500.8127332,N,12132.4383643,E,4,67,0.43,17.656,M,15.25,M,3,3335*4E
$GNRMC,033630.800,A,2500.8127332,N,12132.4383643,E,0.00,119.92,270623,,,R,V*13
$GPHDT,47.314,T*00
$GNGSA,A,3,195,17,19,196,199,06,194,09,14,20,11,03,0.81,0.43,0.69,1*0B
$GNGSA,A,3,12,04,,,,,,,,,,,0.81,0.43,0.69,1*07
$GNGSA,A,3,67,68,82,83,80,73,,,,,,,0.81,0.43,0.69,2*01
$GNGSA,A,3,24,12,10,11,31,19,04,25,33,,,,0.81,0.43,0.69,3*0F
$GNGSA,A,3,40,07,10,14,08,33,43,13,42,28,11,34,0.81,0.43,0.69,4*04
$GNGSA,A,3,37,,,,,,,,,,,,0.81,0.43,0.69,4*01
$GPGSV,4,1,15,195,67,041,41,17,64,064,42,19,63,011,42,196,62,129,42,1*64
$GPGSV,4,2,15,199,60,167,35,06,50,333,43,194,43,171,43,41,38,242,41,1*64
$GPGSV,4,3,15,09,31,111,24,14,30,177,39,20,25,227,25,11,25,281,34,1*68
$GPGSV,4,4,15,04,21,077,23,03,13,038,17,12,10,320,19,1*51
$GPGSV,3,1,10,195,67,041,45,196,62,129,45,199,60,167,46,06,50,333,47,8*51
$GPGSV,3,2,10,194,43,171,43,09,31,111,33,14,30,177,40,11,25,281,31,8*51
$GPGSV,3,3,10,04,21,077,28,03,13,038,32,8*6A
$GLGSV,2,1,08,67,48,069,45,68,44,151,45,82,37,031,43,83,32,335,32,1*7F
$GLGSV,2,2,08,80,28,234,24,73,23,295,39,66,09,030,25,79,04,188,,1*76
$GAGSV,3,1,09,24,54,248,41,12,49,010,37,10,49,329,40,11,34,296,33,7*75
$GAGSV,3,2,09,31,31,182,41,19,30,090,33,04,25,156,27,25,24,310,31,7*72
$GAGSV,3,3,09,33,16,061,25,7*4D
$GAGSV,3,1,09,24,54,248,43,10,49,329,45,12,49,010,41,11,34,296,38,1*7E
$GAGSV,3,2,09,31,31,182,42,19,30,090,35,04,25,156,38,25,24,310,32,1*7C
$GAGSV,3,3,09,33,16,061,27,1*49
$GBGSV,5,1,17,40,84,109,41,07,82,257,40,10,72,296,36,14,61,092,42,1*7B
$GBGSV,5,2,17,08,59,265,39,33,59,154,44,43,53,048,45,13,49,254,40,1*70
$GBGSV,5,3,17,42,42,058,45,28,35,321,45,11,34,075,45,23,21,224,,1*75
$GBGSV,5,4,17,34,19,093,40,41,18,197,,37,17,277,29,56,,,41,1*4E
$GBGSV,5,5,17,38,,,42,1*7D
$GBGSV,2,1,07,40,84,109,45,33,59,154,46,43,53,048,43,42,42,058,45,4*7E
$GBGSV,2,2,07,28,35,321,42,34,19,093,33,37,17,277,27,4*4E
$GNGGA,033631.000,2500.8127357,N,12132.4383610,E,4,67,0.43,17.667,M,15.25,M,4,3335*47
$GNRMC,033631.000,A,2500.8127357,N,12132.4383610,E,0.00,119.92,270623,,,R,V*1F
$GPHDT,47.110,T*06
$GNGGA,033631.200,2500.8127346,N,12132.4383609,E,4,66,0.44,17.646,M,15.25,M,4,3335*48
$GNRMC,033631.200,A,2500.8127346,N,12132.4383609,E,0.00,119.92,270623,,,R,V*15
$GPHDT,46.965,T*0D
$GNGGA,033631.400,2500.8127359,N,12132.4383626,E,4,66,0.44,17.646,M,15.25,M,4,3335*4D
$GNRMC,033631.400,A,2500.8127359,N,12132.4383626,E,0.00,119.92,270623,,,R,V*10
$GPHDT,47.475,T*00
$GNGGA,033631.600,2500.8127344,N,12132.4383622,E,4,67,0.44,17.653,M,15.25,M,4,3335*42
$GNRMC,033631.600,A,2500.8127344,N,12132.4383622,E,0.00,119.92,270623,,,R,V*1A
$GPHDT,47.158,T*0A
$GNGGA,033631.800,2500.8127315,N,12132.4383643,E,4,67,0.44,17.622,M,15.25,M,4,3335*49
$GNRMC,033631.800,A,2500.8127315,N,12132.4383643,E,0.00,119.92,270623,,,R,V*17
$GPHDT,47.220,T*06
$GNGSA,A,3,195,17,19,196,199,06,194,09,14,20,11,04,0.81,0.43,0.69,1*0C
$GNGSA,A,3,03,12,,,,,,,,,,,0.81,0.43,0.69,1*00
$GNGSA,A,3,67,68,82,83,80,73,,,,,,,0.81,0.43,0.69,2*01
$GNGSA,A,3,24,12,10,11,31,19,04,25,33,,,,0.81,0.43,0.69,3*0F
$GNGSA,A,3,40,07,10,14,08,33,43,13,42,28,11,34,0.81,0.43,0.69,4*04
$GNGSA,A,3,37,,,,,,,,,,,,0.81,0.43,0.69,4*01
$GPGSV,4,1,15,195,67,041,41,17,64,064,42,19,63,011,42,196,62,129,42,1*64
$GPGSV,4,2,15,199,60,167,35,06,50,333,43,194,43,171,43,41,38,242,41,1*64
$GPGSV,4,3,15,09,31,111,22,14,30,177,39,20,25,227,26,11,25,281,34,1*6D
$GPGSV,4,4,15,04,21,077,26,03,13,038,17,12,10,320,18,1*55
$GPGSV,3,1,10,195,67,041,45,196,62,129,45,199,60,167,46,06,50,333,47,8*51
$GPGSV,3,2,10,194,43,171,43,09,31,111,33,14,30,177,40,11,25,281,31,8*51
$GPGSV,3,3,10,04,21,077,28,03,13,038,32,8*6A
$GLGSV,2,1,08,67,48,069,45,68,44,151,45,82,37,031,43,83,32,335,32,1*7F
$GLGSV,2,2,08,80,28,234,20,73,23,295,39,66,09,030,24,79,04,188,,1*73
$GAGSV,3,1,09,24,54,248,41,12,49,010,37,10,49,329,40,11,34,296,33,7*75
$GAGSV,3,2,09,31,31,182,41,19,30,090,33,04,25,156,27,25,24,310,32,7*71
$GAGSV,3,3,09,33,16,061,25,7*4D
$GAGSV,3,1,09,24,54,248,43,10,49,329,45,12,49,010,41,11,34,296,38,1*7E
$GAGSV,3,2,09,31,31,182,42,19,30,090,35,04,25,156,38,25,24,310,33,1*7D
$GAGSV,3,3,09,33,16,061,27,1*49
$GBGSV,5,1,17,40,84,109,41,07,82,257,39,10,72,296,36,14,61,092,42,1*75
$GBGSV,5,2,17,08,59,265,39,33,59,154,44,43,53,048,45,13,49,254,40,1*70
$GBGSV,5,3,17,42,42,058,45,28,35,321,45,11,34,075,45,23,21,224,,1*75
$GBGSV,5,4,17,34,19,093,40,41,18,197,,37,17,277,28,56,,,41,1*4F
$GBGSV,5,5,17,38,,,42,1*7D
$GBGSV,2,1,07,40,84,109,45,33,59,154,46,43,53,048,43,42,42,058,45,4*7E
$GBGSV,2,2,07,28,35,321,42,34,19,093,33,37,17,277,26,4*4F
$GNGGA,033632.000,2500.8127343,N,12132.4383629,E,4,68,0.43,17.628,M,15.25,M,5,3335*4E
$GNRMC,033632.000,A,2500.8127343,N,12132.4383629,E,0.00,119.92,270623,,,R,V*13
$GPHDT,47.349,T*08
$GNGGA,033632.200,2500.8127340,N,12132.4383624,E,4,67,0.44,17.644,M,15.25,M,5,3335*40
$GNRMC,033632.200,A,2500.8127340,N,12132.4383624,E,0.00,119.92,270623,,,R,V*1F
$GPHDT,46.828,T*05
$GNGGA,033632.400,2500.8127368,N,12132.4383638,E,4,66,0.44,17.638,M,15.25,M,5,3335*4B
$GNRMC,033632.400,A,2500.8127368,N,12132.4383638,E,0.00,119.92,270623,,,R,V*1E
$GPHDT,47.248,T*08
$GNGGA,033632.600,2500.8127330,N,12132.4383686,E,4,67,0.43,17.633,M,15.25,M,5,3335*4C
$GNRMC,033632.600,A,2500.8127330,N,12132.4383686,E,0.00,119.92,270623,,,R,V*14
$GPHDT,47.167,T*06
$GNGGA,033632.800,2500.8127341,N,12132.4383643,E,4,68,0.43,17.650,M,15.25,M,5,3335*47
$GNRMC,033632.800,A,2500.8127341,N,12132.4383643,E,0.00,119.92,270623,,,R,V*15
$GPHDT,46.917,T*08
$GNGSA,A,3,195,17,19,196,199,06,194,09,14,11,20,04,0.81,0.43,0.69,1*0C
$GNGSA,A,3,03,12,,,,,,,,,,,0.81,0.43,0.69,1*00
$GNGSA,A,3,67,68,82,83,80,73,,,,,,,0.81,0.43,0.69,2*01
$GNGSA,A,3,24,12,10,11,31,19,04,25,33,,,,0.81,0.43,0.69,3*0F
$GNGSA,A,3,40,07,10,14,33,08,43,13,42,28,11,34,0.81,0.43,0.69,4*04
$GNGSA,A,3,37,,,,,,,,,,,,0.81,0.43,0.69,4*01
$GPGSV,4,1,15,195,67,041,41,17,64,064,42,19,63,011,42,196,62,129,42,1*64
$GPGSV,4,2,15,199,60,167,35,06,50,333,43,194,43,171,43,41,38,242,41,1*64
$GPGSV,4,3,15,09,31,111,26,14,30,177,39,11,25,281,34,20,25,227,24,1*6B
$GPGSV,4,4,15,04,21,077,28,03,13,038,16,12,10,320,22,1*53
$GPGSV,3,1,09,195,67,041,45,196,62,129,46,199,60,167,46,06,50,333,47,8*5A
$GPGSV,3,2,09,194,43,171,43,09,31,111,34,14,30,177,40,11,25,281,33,8*5C
$GPGSV,3,3,09,03,13,038,32,8*5F
$GLGSV,3,1,09,67,48,069,45,68,44,151,45,82,37,031,43,83,32,335,32,1*7F
$GLGSV,3,2,09,80,28,234,22,73,23,295,39,66,09,030,24,69,06,186,,1*7C
$GLGSV,3,3,09,79,04,188,,1*4A
$GAGSV,3,1,09,24,54,248,41,12,49,010,37,10,49,329,40,11,34,296,33,7*75
$GAGSV,3,2,09,31,31,182,41,19,30,090,32,04,25,156,29,25,24,310,32,7*7E
$GAGSV,3,3,09,33,16,061,27,7*4F
$GAGSV,3,1,09,24,54,248,43,10,49,329,45,12,49,010,41,11,34,296,38,1*7E
$GAGSV,3,2,09,31,31,182,42,19,30,090,35,04,25,156,38,25,24,310,32,1*7C
$GAGSV,3,3,09,33,16,061,26,1*48
$GBGSV,4,1,15,40,84,109,41,07,82,257,39,10,72,296,36,14,61,092,42,1*76
$GBGSV,4,2,15,33,59,154,44,08,59,265,39,43,53,048,45,13,49,254,40,1*73
$GBGSV,4,3,15,42,42,058,45,28,35,321,45,11,34,075,45,23,21,224,,1*76
$GBGSV,4,4,15,34,19,093,40,41,18,197,,37,17,277,28,1*4A
$GBGSV,2,1,07,40,84,109,45,33,59,154,46,43,53,048,43,42,42,058,45,4*7E
$GBGSV,2,2,07,28,35,321,42,34,19,093,33,37,17,277,26,4*4F
$GNGGA,033633.000,2500.8127309,N,12132.4383663,E,4,67,0.43,17.621,M,15.25,M,6,3335*4A
$GNRMC,033633.000,A,2500.8127309,N,12132.4383663,E,0.00,119.92,270623,,,R,V*12
$GPHDT,47.347,T*06
$GNGGA,033633.200,2500.8127293,N,12132.4383691,E,4,67,0.43,17.630,M,15.25,M,6,3335*47
$GNRMC,033633.200,A,2500.8127293,N,12132.4383691,E,0.00,119.92,270623,,,R,V*1F
$GPHDT,46.874,T*0C
$GNGGA,033633.400,2500.8127343,N,12132.4383653,E,4,67,0.43,17.643,M,15.25,M,5,3335*44
$GNRMC,033633.400,A,2500.8127343,N,12132.4383653,E,0.00,119.92,270623,,,R,V*1B
$GPHDT,47.280,T*0C
$GNGGA,033633.600,2500.8127342,N,12132.4383653,E,4,67,0.43,17.662,M,15.25,M,5,3335*44
$GNRMC,033633.600,A,2500.8127342,N,12132.4383653,E,0.00,119.92,270623,,,R,V*18
$GPHDT,47.183,T*0C
$GNGGA,033633.800,2500.8127342,N,12132.4383533,E,2,67,0.43,17.675,M,15.25,M,3,3335*49
$GNRMC,033633.800,A,2500.8127342,N,12132.4383533,E,0.00,119.92,270623,,,D,V*05
$GPHDT,47.243,T*03
$GNGSA,A,3,195,17,19,196,199,06,194,09,14,11,20,04,0.81,0.43,0.69,1*0C
$GNGSA,A,3,03,12,,,,,,,,,,,0.81,0.43,0.69,1*00
$GNGSA,A,3,67,68,82,83,80,73,,,,,,,0.81,0.43,0.69,2*01
$GNGSA,A,3,24,12,10,11,31,19,04,25,33,,,,0.81,0.43,0.69,3*0F
$GNGSA,A,3,40,07,10,14,33,08,43,13,42,28,11,34,0.81,0.43,0.69,4*04
$GNGSA,A,3,37,,,,,,,,,,,,0.81,0.43,0.69,4*01
$GPGSV,4,1,15,195,67,041,41,17,64,064,42,19,63,011,42,196,62,129,42,1*64
$GPGSV,4,2,15,199,60,167,35,06,50,333,43,194,43,171,43,41,38,242,41,1*64
$GPGSV,4,3,15,09,31,111,23,14,30,177,39,11,25,281,34,20,25,227,24,1*6E
$GPGSV,4,4,15,04,21,077,30,03,13,038,20,12,10,320,22,1*5F
$GPGSV,3,1,10,195,67,041,45,196,62,129,46,199,60,167,46,06,50,333,47,8*52
$GPGSV,3,2,10,194,43,171,43,09,31,111,34,14,30,177,40,11,25,281,32,8*55
$GPGSV,3,3,10,04,21,077,30,03,13,038,32,8*63
$GLGSV,2,1,08,67,48,069,45,68,44,151,45,82,37,031,43,83,32,335,32,1*7F
$GLGSV,2,2,08,80,28,234,20,73,23,295,39,66,09,030,24,79,04,188,,1*73
$GAGSV,3,1,09,24,54,248,41,12,49,010,37,10,49,329,40,11,34,296,33,7*75
$GAGSV,3,2,09,31,31,182,41,19,30,090,32,04,25,156,29,25,24,310,32,7*7E
$GAGSV,3,3,09,33,16,061,28,7*40
$GAGSV,3,1,09,24,54,248,43,10,49,329,45,12,49,010,41,11,34,296,38,1*7E
$GAGSV,3,2,09,31,31,182,42,19,30,090,35,04,25,156,38,25,24,310,32,1*7C
$GAGSV,3,3,09,33,16,061,26,1*48
$GBGSV,4,1,15,40,84,109,41,07,82,257,39,10,72,296,36,14,61,092,42,1*76
$GBGSV,4,2,15,33,59,154,44,08,59,265,39,43,53,048,45,13,49,254,40,1*73
$GBGSV,4,3,15,42,42,058,45,28,35,321,45,11,34,075,45,23,21,224,,1*76
$GBGSV,4,4,15,34,19,093,40,41,18,197,,37,17,277,26,1*44
$GBGSV,2,1,07,40,84,109,45,33,59,154,46,43,53,048,43,42,42,058,45,4*7E
$GBGSV,2,2,07,28,35,321,42,34,19,093,33,37,17,277,27,4*4E
$GNGGA,033634.000,2500.8127282,N,12132.4383473,E,2,68,0.43,17.689,M,15.25,M,1,3335*40
$GNRMC,033634.000,A,2500.8127282,N,12132.4383473,E,0.00,119.92,270623,,,D,V*02
$GPHDT,47.286,T*0A
$GNGGA,033634.200,2500.8127282,N,12132.4383413,E,2,68,0.43,17.705,M,15.25,M,1,3335*41
$GNRMC,033634.200,A,2500.8127282,N,12132.4383413,E,0.00,119.92,270623,,,D,V*06
$GPHDT,46.834,T*08
$GNGGA,033634.400,2500.8127222,N,12132.4383293,E,2,67,0.44,17.721,M,15.25,M,1,3335*4D
$GNRMC,033634.400,A,2500.8127222,N,12132.4383293,E,0.00,119.92,270623,,,D,V*04
$GPHDT,47.156,T*04
$GNGGA,033634.600,2500.8127162,N,12132.4383233,E,2,67,0.44,17.738,M,15.25,M,1,3335*4A
$GNRMC,033634.600,A,2500.8127162,N,12132.4383233,E,0.00,119.92,270623,,,D,V*0B
$GPHDT,47.202,T*06
$GNGGA,033634.800,2500.8127102,N,12132.4383173,E,2,66,0.44,17.754,M,15.25,M,0,3335*4F
$GNRMC,033634.800,A,2500.8127102,N,12132.4383173,E,0.00,119.92,270623,,,D,V*04
