$FW : RTK35X,V1.1X0314AS,Lib20210517,1*54
$Tool : LOCOSYS , GNSS Firebird , v1.0.0.19*39
$---------------------------------------------------*2D
$GPHDT,316.640,T*33
$GNGGA,033726.600,2500.8127303,N,12132.4383863,E,4,65,0.44,17.523,M,15.25,M,0,3335*4F
$GNRMC,033726.600,A,2500.8127303,N,12132.4383863,E,0.00,119.92,270623,,,R,V*15
$GPHDT,316.982,T*32
$GNGGA,033726.800,2500.8127316,N,12132.4383877,E,4,65,0.44,17.527,M,15.25,M,0,3335*44
$GNRMC,033726.800,A,2500.8127316,N,12132.4383877,E,0.00,119.92,270623,,,R,V*1A
$GPHDT,316.936,T*3D
$GNGSA,A,3,195,17,19,196,199,06,194,09,14,11,04,03,0.85,0.44,0.73,1*05
$GNGSA,A,3,67,68,82,83,80,73,,,,,,,0.85,0.44,0.73,2*09
$GNGSA,A,3,24,12,10,11,31,19,04,25,33,,,,0.85,0.44,0.73,3*07
$GNGSA,A,3,40,07,10,14,33,08,43,13,42,28,11,34,0.85,0.44,0.73,4*0C
$GNGSA,A,3,37,,,,,,,,,,,,0.85,0.44,0.73,4*09
$GPGSV,4,1,15,195,67,042,41,17,64,066,40,19,63,011,43,196,62,129,39,1*6A
$GPGSV,4,2,15,199,60,167,34,06,50,333,42,194,43,171,43,41,38,242,42,1*67
$GPGSV,4,3,15,09,31,110,43,14,29,177,40,11,26,281,38,20,25,228,14,1*6C
$GPGSV,4,4,15,04,21,077,31,03,12,038,17,12,10,320,17,1*5D
$GPGSV,3,1,10,195,67,042,42,196,62,129,47,199,60,167,46,06,50,333,48,8*58
$GPGSV,3,2,10,194,43,171,45,09,31,110,46,14,29,177,41,11,26,281,35,8*5A
$GPGSV,3,3,10,04,21,077,28,03,12,038,28,8*60
$GLGSV,3,1,09,67,48,068,36,68,45,151,40,82,37,032,39,83,32,336,31,1*70
$GLGSV,3,2,09,80,28,234,26,73,23,294,38,66,09,029,30,69,06,186,,1*75
$GLGSV,3,3,09,79,03,188,,1*4D
$GAGSV,3,1,09,24,53,248,40,12,49,010,35,10,49,329,40,11,34,296,36,7*74
$GAGSV,3,2,09,31,31,182,39,19,30,090,35,04,25,156,28,25,24,310,30,7*75
$GAGSV,3,3,09,33,16,061,26,7*4E
$GAGSV,3,1,09,24,53,248,42,10,49,329,45,12,49,010,41,11,34,296,34,1*74
$GAGSV,3,2,09,31,31,182,42,19,30,090,35,04,25,156,37,25,24,310,27,1*77
$GAGSV,3,3,09,33,16,061,29,1*47
$GBGSV,4,1,16,40,84,111,42,07,82,256,40,10,72,295,39,14,61,091,38,1*72
$GBGSV,4,2,16,33,60,153,44,08,59,265,40,43,53,049,28,13,49,254,42,1*7B
$GBGSV,4,3,16,42,42,057,26,28,35,321,44,11,34,076,34,23,21,224,,1*7B
$GBGSV,4,4,16,34,19,093,45,41,18,197,,37,17,277,17,39,02,179,,1*77
$GBGSV,2,1,07,40,84,111,44,33,60,153,44,43,53,049,35,42,42,057,26,4*73
$GBGSV,2,2,07,28,35,321,41,34,19,093,42,37,17,277,27,4*4B
$GNGGA,033727.000,2500.8127306,N,12132.4383835,E,4,65,0.44,17.546,M,15.25,M,1,3335*4C
$GNRMC,033727.000,A,2500.8127306,N,12132.4383835,E,0.01,119.92,270623,,,R,V*15
$GPHDT,316.833,T*39
$GNGGA,033727.200,2500.8127318,N,12132.4383857,E,4,66,0.44,17.520,M,15.25,M,1,3335*46
$GNRMC,033727.200,A,2500.8127318,N,12132.4383857,E,0.00,119.92,270623,,,R,V*1D
$GPHDT,316.583,T*3F
$GNGGA,033727.400,2500.8127358,N,12132.4383744,E,4,66,0.44,17.562,M,15.25,M,1,3335*4F
$GNRMC,033727.400,A,2500.8127358,N,12132.4383744,E,0.00,119.92,270623,,,R,V*12
$GPHDT,317.027,T*35
$GNGGA,033727.600,2500.8127336,N,12132.4383736,E,4,66,0.44,17.570,M,15.25,M,1,3335*43
$GNRMC,033727.600,A,2500.8127336,N,12132.4383736,E,0.00,119.92,270623,,,R,V*1D
$GPHDT,316.846,T*3B
$GNGGA,033727.800,2500.8127392,N,12132.4383689,E,4,65,0.44,17.586,M,15.25,M,1,3335*4C
$GNRMC,033727.800,A,2500.8127392,N,12132.4383689,E,0.00,119.92,270623,,,R,V*18
$GPHDT,316.607,T*30
$GNGSA,A,3,195,17,19,196,199,06,194,09,14,11,04,03,0.85,0.44,0.73,1*05
$GNGSA,A,3,67,68,82,83,80,73,,,,,,,0.85,0.44,0.73,2*09
$GNGSA,A,3,24,12,10,11,31,19,04,25,33,,,,0.85,0.44,0.73,3*07
$GNGSA,A,3,40,07,10,14,33,08,13,42,28,11,34,37,0.85,0.44,0.73,4*0F
$GNGSA,A,3,43,,,,,,,,,,,,0.85,0.44,0.73,4*0A
$GPGSV,4,1,15,195,67,042,41,17,64,066,39,19,63,011,43,196,62,129,39,1*64
$GPGSV,4,2,15,199,60,167,34,06,50,333,42,194,43,171,42,41,38,242,42,1*66
$GPGSV,4,3,15,09,31,110,42,14,29,177,40,11,26,281,39,20,25,228,17,1*6F
$GPGSV,4,4,15,04,21,077,29,03,12,038,16,12,10,320,17,1*55
$GPGSV,3,1,10,195,67,042,44,196,62,129,46,199,60,167,46,06,50,333,48,8*5F
$GPGSV,3,2,10,194,43,171,44,09,31,110,46,14,29,177,41,11,26,281,38,8*56
$GPGSV,3,3,10,04,21,077,29,03,12,038,28,8*61
$GLGSV,2,1,08,67,48,068,37,68,45,151,40,82,37,032,39,83,32,336,31,1*71
$GLGSV,2,2,08,80,28,234,27,73,23,294,38,66,09,029,28,79,03,188,,1*77
$GAGSV,3,1,09,24,53,248,40,12,49,010,36,10,49,329,41,11,34,296,35,7*75
$GAGSV,3,2,09,31,31,182,39,19,30,090,35,04,25,156,27,25,24,310,29,7*72
$GAGSV,3,3,09,33,16,061,26,7*4E
$GAGSV,3,1,09,24,53,248,42,10,49,329,44,12,49,010,41,11,34,296,34,1*75
$GAGSV,3,2,09,31,31,182,42,19,30,090,35,04,25,156,36,25,24,310,27,1*76
$GAGSV,3,3,09,33,16,061,29,1*47
$GBGSV,4,1,15,40,84,111,42,07,82,256,40,10,72,295,38,14,61,091,38,1*70
$GBGSV,4,2,15,33,60,153,44,08,59,265,40,43,53,049,25,13,49,254,42,1*75
$GBGSV,4,3,15,42,42,057,28,28,35,321,44,11,34,076,36,23,21,224,,1*74
$GBGSV,4,4,15,34,19,093,46,41,18,197,,37,17,277,17,1*40
$GBGSV,2,1,07,40,84,111,44,33,60,153,44,43,53,049,34,42,42,057,32,4*77
$GBGSV,2,2,07,28,35,321,41,34,19,093,42,37,17,277,28,4*44
$GNGGA,033728.000,2500.8127323,N,12132.4383737,E,4,65,0.44,17.570,M,15.25,M,2,3335*4F
$GNRMC,033728.000,A,2500.8127323,N,12132.4383737,E,0.00,119.92,270623,,,R,V*11
$GPHDT,317.173,T*35
$GNGGA,033728.200,2500.8127318,N,12132.4383828,E,4,66,0.44,17.554,M,15.25,M,2,3335*41
$GNRMC,033728.200,A,2500.8127318,N,12132.4383828,E,0.00,119.92,270623,,,R,V*1A
$GPHDT,316.668,T*39
$GNGGA,033728.400,2500.8127336,N,12132.4383727,E,4,67,0.44,17.583,M,15.25,M,2,3335*40
$GNRMC,033728.400,A,2500.8127336,N,12132.4383727,E,0.00,119.92,270623,,,R,V*10
$GPHDT,316.766,T*36
$GNGGA,033728.600,2500.8127347,N,12132.4383720,E,4,66,0.44,17.588,M,15.25,M,2,3335*49
$GNRMC,033728.600,A,2500.8127347,N,12132.4383720,E,0.00,119.92,270623,,,R,V*13
$GPHDT,316.711,T*36
$GNGGA,033728.800,2500.8127297,N,12132.4383778,E,4,67,0.44,17.566,M,15.25,M,2,3335*47
$GNRMC,033728.800,A,2500.8127297,N,12132.4383778,E,0.00,119.92,270623,,,R,V*1C
$GPHDT,317.176,T*30
$GNGSA,A,3,195,17,19,196,199,06,194,09,14,11,04,03,0.83,0.44,0.70,1*00
$GNGSA,A,3,12,,,,,,,,,,,,0.83,0.44,0.70,1*0E
$GNGSA,A,3,67,68,82,83,80,73,,,,,,,0.83,0.44,0.70,2*0C
$GNGSA,A,3,24,12,10,11,31,19,04,25,33,,,,0.83,0.44,0.70,3*02
$GNGSA,A,3,40,07,10,14,33,08,43,13,42,28,11,34,0.83,0.44,0.70,4*09
$GNGSA,A,3,37,,,,,,,,,,,,0.83,0.44,0.70,4*0C
$GPGSV,4,1,15,195,67,042,42,17,64,066,39,19,63,011,43,196,62,129,39,1*67
$GPGSV,4,2,15,199,60,167,34,06,50,333,42,194,43,171,42,41,38,242,42,1*66
$GPGSV,4,3,15,09,31,110,42,14,29,177,40,11,26,281,39,20,25,228,19,1*61
$GPGSV,4,4,15,04,21,077,32,03,12,038,17,12,10,320,17,1*5E
$GPGSV,3,1,10,195,67,042,45,196,62,129,46,199,60,167,46,06,50,333,48,8*5E
$GPGSV,3,2,10,194,43,171,44,09,31,110,46,14,29,177,41,11,26,281,38,8*56
$GPGSV,3,3,10,04,21,077,30,03,12,038,29,8*68
$GLGSV,2,1,08,67,48,068,38,68,45,151,40,82,37,032,39,83,32,336,31,1*7E
$GLGSV,2,2,08,80,28,234,28,73,23,294,37,66,09,029,28,79,03,188,,1*77
$GAGSV,3,1,09,24,53,248,41,12,49,010,36,10,49,329,41,11,34,296,34,7*75
$GAGSV,3,2,09,31,31,182,39,19,30,090,35,04,25,156,29,25,24,310,29,7*7C
$GAGSV,3,3,09,33,16,061,27,7*4F
$GAGSV,3,1,09,24,53,248,43,10,49,329,44,12,49,010,41,11,34,296,34,1*74
$GAGSV,3,2,09,31,31,182,42,19,30,090,36,04,25,156,36,25,24,310,28,1*7A
$GAGSV,3,3,09,33,16,061,31,1*4E
$GBGSV,4,1,15,40,84,111,41,07,82,256,39,10,72,295,38,14,61,091,38,1*7D
$GBGSV,4,2,15,33,60,153,44,08,59,265,41,43,53,049,28,13,49,254,42,1*79
$GBGSV,4,3,15,42,42,057,28,28,35,321,44,11,34,076,36,23,21,224,,1*74
$GBGSV,4,4,15,34,19,093,46,41,18,197,,37,17,277,20,1*44
$GBGSV,2,1,07,40,84,111,45,33,60,153,44,43,53,049,35,42,42,057,32,4*77
$GBGSV,2,2,07,28,35,321,41,34,19,093,42,37,17,277,28,4*44
$GNGGA,033729.000,2500.8127335,N,12132.4383747,E,4,67,0.44,17.568,M,15.25,M,3,3335*44
$GNRMC,033729.000,A,2500.8127335,N,12132.4383747,E,0.00,119.92,270623,,,R,V*10
$GPHDT,316.857,T*3B
$GNGGA,033729.200,2500.8127335,N,12132.4383740,E,4,67,0.44,17.576,M,15.25,M,3,3335*4E
$GNRMC,033729.200,A,2500.8127335,N,12132.4383740,E,0.00,119.92,270623,,,R,V*15
$GPHDT,316.734,T*31
$GNGGA,033729.400,2500.8127330,N,12132.4383779,E,4,67,0.44,17.570,M,15.25,M,3,3335*41
$GNRMC,033729.400,A,2500.8127330,N,12132.4383779,E,0.00,119.92,270623,,,R,V*1C
$GPHDT,316.924,T*3E
$GNGGA,033729.600,2500.8127286,N,12132.4383886,E,4,67,0.44,17.520,M,15.25,M,3,3335*45
$GNRMC,033729.600,A,2500.8127286,N,12132.4383886,E,0.00,119.92,270623,,,R,V*1D
$GPHDT,316.945,T*39
$GNGGA,033729.800,2500.8127320,N,12132.4383828,E,4,65,0.44,17.537,M,15.25,M,3,3335*46
$GNRMC,033729.800,A,2500.8127320,N,12132.4383828,E,0.00,119.92,270623,,,R,V*1A
$GPHDT,316.863,T*3C
$GNGSA,A,3,195,17,19,196,199,06,194,09,14,11,20,04,0.84,0.43,0.72,1*03
$GNGSA,A,3,03,,,,,,,,,,,,0.84,0.43,0.72,1*0C
$GNGSA,A,3,67,68,82,83,80,73,,,,,,,0.84,0.43,0.72,2*0E
$GNGSA,A,3,24,12,10,11,31,19,04,25,33,,,,0.84,0.43,0.72,3*00
$GNGSA,A,3,40,07,10,14,33,08,43,13,42,28,11,34,0.84,0.43,0.72,4*0B
$GNGSA,A,3,37,,,,,,,,,,,,0.84,0.43,0.72,4*0E
$GPGSV,4,1,15,195,67,042,42,17,64,066,40,19,63,011,43,196,62,129,39,1*69
$GPGSV,4,2,15,199,60,167,34,06,50,333,42,194,43,171,42,41,38,242,42,1*66
$GPGSV,4,3,15,09,31,110,42,14,29,177,40,11,26,281,39,20,25,228,22,1*69
$GPGSV,4,4,15,04,21,077,32,03,12,038,18,12,10,320,19,1*5F
$GPGSV,3,1,10,195,67,042,45,196,62,129,46,199,60,167,46,06,50,333,48,8*5E
$GPGSV,3,2,10,194,43,171,44,09,31,110,46,14,29,177,41,11,26,281,38,8*56
$GPGSV,3,3,10,04,21,077,30,03,12,038,29,8*68
$GLGSV,2,1,08,67,48,068,38,68,45,151,40,82,37,032,39,83,32,336,31,1*7E
$GLGSV,2,2,08,80,28,234,27,73,23,294,37,66,09,029,29,79,03,188,,1*79
$GAGSV,3,1,09,24,53,248,41,12,49,010,36,10,49,329,41,11,34,296,35,7*74
$GAGSV,3,2,09,31,31,182,39,19,30,090,36,04,25,156,29,25,24,310,29,7*7F
$GAGSV,3,3,09,33,16,061,27,7*4F
$GAGSV,3,1,09,24,53,248,43,10,49,329,44,12,49,010,41,11,34,296,34,1*74
$GAGSV,3,2,09,31,31,182,42,19,30,090,36,04,25,156,36,25,24,310,28,1*7A
$GAGSV,3,3,09,33,16,061,31,1*4E
$GBGSV,4,1,15,40,84,111,41,07,82,256,40,10,72,295,37,14,61,091,39,1*7D
$GBGSV,4,2,15,33,60,153,44,08,59,265,41,43,53,049,32,13,49,254,42,1*72
$GBGSV,4,3,15,42,42,057,27,28,35,321,44,11,34,076,34,23,21,224,,1*79
$GBGSV,4,4,15,34,19,093,46,41,18,197,,37,17,277,20,1*44
$GBGSV,2,1,07,40,84,111,45,33,60,153,44,43,53,049,35,42,42,057,30,4*75
$GBGSV,2,2,07,28,35,321,41,34,19,093,42,37,17,277,28,4*44
$GNGGA,033730.000,2500.8127307,N,12132.4383806,E,4,66,0.43,17.559,M,15.25,M,4,3335*44
$GNRMC,033730.000,A,2500.8127307,N,12132.4383806,E,0.00,119.92,270623,,,R,V*13
$GPHDT,317.116,T*36
$GNGGA,033730.200,2500.8127285,N,12132.4383882,E,4,67,0.43,17.531,M,15.25,M,4,3335*4E
$GNRMC,033730.200,A,2500.8127285,N,12132.4383882,E,0.00,119.92,270623,,,R,V*16
$GPHDT,316.863,T*3C
$GNGGA,033730.400,2500.8127300,N,12132.4383872,E,4,67,0.43,17.536,M,15.25,M,4,3335*4C
$GNRMC,033730.400,A,2500.8127300,N,12132.4383872,E,0.00,119.92,270623,,,R,V*13
$GPHDT,316.848,T*35
$GNGGA,033730.600,2500.8127304,N,12132.4383801,E,4,66,0.44,17.554,M,15.25,M,4,3335*4C
$GNRMC,033730.600,A,2500.8127304,N,12132.4383801,E,0.00,119.92,270623,,,R,V*11
$GPHDT,316.843,T*3E
$GNGGA,033730.800,2500.8127318,N,12132.4383778,E,4,66,0.44,17.571,M,15.25,M,4,3335*49
$GNRMC,033730.800,A,2500.8127318,N,12132.4383778,E,0.00,119.92,270623,,,R,V*13
$GPHDT,317.148,T*3D
$GNGSA,A,3,195,17,19,196,199,06,194,09,14,11,04,03,0.82,0.44,0.69,1*09
$GNGSA,A,3,12,,,,,,,,,,,,0.82,0.44,0.69,1*07
$GNGSA,A,3,67,68,82,83,80,73,,,,,,,0.82,0.44,0.69,2*05
$GNGSA,A,3,24,12,10,11,31,19,04,25,33,,,,0.82,0.44,0.69,3*0B
$GNGSA,A,3,40,07,10,14,33,08,43,13,42,28,11,34,0.82,0.44,0.69,4*00
$GNGSA,A,3,37,,,,,,,,,,,,0.82,0.44,0.69,4*05
$GPGSV,4,1,15,195,67,042,42,17,64,066,40,19,63,011,43,196,62,129,39,1*69
$GPGSV,4,2,15,199,60,167,34,06,50,333,41,194,43,171,42,41,38,242,43,1*64
$GPGSV,4,3,15,09,31,110,42,14,29,177,40,11,26,281,37,20,25,228,22,1*67
$GPGSV,4,4,15,04,21,077,33,03,12,038,17,12,10,320,18,1*50
$GPGSV,3,1,10,195,67,042,45,196,62,129,46,199,60,167,46,06,50,333,48,8*5E
$GPGSV,3,2,10,194,43,171,44,09,31,110,46,14,29,177,41,11,26,281,38,8*56
$GPGSV,3,3,10,04,21,077,30,03,12,038,29,8*68
$GLGSV,3,1,10,67,48,068,36,68,45,151,40,82,37,032,39,83,32,336,32,1*7B
$GLGSV,3,2,10,80,28,234,25,73,23,294,37,66,09,029,30,69,06,186,,1*71
$GLGSV,3,3,10,79,03,188,,74,01,331,,1*76
$GAGSV,3,1,09,24,53,248,40,12,49,010,36,10,49,329,41,11,34,296,35,7*75
$GAGSV,3,2,09,31,31,182,39,19,30,090,36,04,25,156,30,25,24,310,29,7*77
$GAGSV,3,3,09,33,16,061,27,7*4F
$GAGSV,3,1,09,24,53,248,43,10,49,329,44,12,49,010,41,11,34,296,34,1*74
$GAGSV,3,2,09,31,31,182,42,19,30,090,36,04,25,156,36,25,24,310,27,1*75
$GAGSV,3,3,09,33,16,061,30,1*4F
$GBGSV,4,1,16,40,84,111,41,07,82,256,40,10,72,295,37,14,61,091,39,1*7E
$GBGSV,4,2,16,33,60,153,44,08,59,265,41,43,53,049,29,13,49,254,42,1*7B
$GBGSV,4,3,16,42,42,057,26,28,35,321,44,11,34,076,33,23,21,224,,1*7C
$GBGSV,4,4,16,34,19,093,46,41,18,197,,37,17,277,20,25,04,180,,1*7D
$GBGSV,2,1,07,40,84,111,45,33,60,153,44,43,53,049,34,42,42,057,30,4*74
$GBGSV,2,2,07,28,35,321,41,34,19,093,42,37,17,277,27,4*4B
$GNGGA,033731.000,2500.8127307,N,12132.4383787,E,4,67,0.44,17.570,M,15.25,M,5,3335*4F
$GNRMC,033731.000,A,2500.8127307,N,12132.4383787,E,0.00,119.92,270623,,,R,V*14
$GPHDT,317.141,T*34
$GNGGA,033731.200,2500.8127317,N,12132.4383776,E,4,68,0.43,17.579,M,15.25,M,5,3335*43
$GNRMC,033731.200,A,2500.8127317,N,12132.4383776,E,0.00,119.92,270623,,,R,V*19
$GPHDT,317.024,T*36
$GNGGA,033731.400,2500.8127333,N,12132.4383831,E,4,67,0.43,17.553,M,15.25,M,5,3335*48
$GNRMC,033731.400,A,2500.8127333,N,12132.4383831,E,0.00,119.92,270623,,,R,V*15
$GPHDT,316.968,T*36
$GNGGA,033731.600,2500.8127282,N,12132.4383865,E,4,67,0.43,17.548,M,15.25,M,5,3335*4A
$GNRMC,033731.600,A,2500.8127282,N,12132.4383865,E,0.00,119.92,270623,,,R,V*1D
$GPHDT,316.961,T*3F
$GNGGA,033731.800,2500.8127290,N,12132.4383899,E,4,67,0.43,17.537,M,15.25,M,5,3335*4C
$GNRMC,033731.800,A,2500.8127290,N,12132.4383899,E,0.00,119.92,270623,,,R,V*13
$GPHDT,316.978,T*37
$GNGSA,A,3,195,17,19,196,199,06,194,09,14,11,20,04,0.84,0.43,0.72,1*03
$GNGSA,A,3,03,,,,,,,,,,,,0.84,0.43,0.72,1*0C
$GNGSA,A,3,67,68,82,83,80,73,,,,,,,0.84,0.43,0.72,2*0E
$GNGSA,A,3,24,12,10,11,31,19,04,25,33,,,,0.84,0.43,0.72,3*00
$GNGSA,A,3,40,07,10,14,33,08,43,13,42,28,11,34,0.84,0.43,0.72,4*0B
$GNGSA,A,3,37,,,,,,,,,,,,0.84,0.43,0.72,4*0E
$GPGSV,4,1,15,195,67,042,42,17,64,066,40,19,63,011,43,196,62,129,39,1*69
$GPGSV,4,2,15,199,60,167,34,06,50,333,41,194,43,171,42,41,38,242,42,1*65
$GPGSV,4,3,15,09,31,110,42,14,29,177,40,11,26,281,37,20,25,228,24,1*61
$GPGSV,4,4,15,04,21,077,33,03,12,038,17,12,10,320,18,1*50
$GPGSV,3,1,10,195,67,042,45,196,62,129,46,199,60,167,46,06,50,333,48,8*5E
$GPGSV,3,2,10,194,43,171,44,09,31,110,46,14,29,177,41,11,26,281,38,8*56
$GPGSV,3,3,10,04,21,077,31,03,12,038,28,8*68
$GLGSV,2,1,08,67,48,068,34,68,45,151,40,82,37,032,39,83,32,336,32,1*71
$GLGSV,2,2,08,80,28,234,26,73,23,294,37,66,09,029,30,79,03,188,,1*70
$GAGSV,3,1,09,24,53,248,40,12,49,010,36,10,49,329,41,11,34,296,35,7*75
$GAGSV,3,2,09,31,31,182,39,19,30,090,36,04,25,156,29,25,24,310,29,7*7F
$GAGSV,3,3,09,33,16,061,26,7*4E
$GAGSV,3,1,09,24,53,248,43,10,49,329,44,12,49,010,41,11,34,296,34,1*74
$GAGSV,3,2,09,31,31,182,42,19,30,090,36,04,25,156,36,25,24,310,25,1*77
$GAGSV,3,3,09,33,16,061,28,1*46
$GBGSV,4,1,15,40,84,111,42,07,82,256,40,10,72,295,36,14,61,091,39,1*7F
$GBGSV,4,2,15,33,60,153,44,08,59,265,41,43,53,049,28,13,49,254,42,1*79
$GBGSV,4,3,15,42,42,057,23,28,35,321,44,11,34,076,33,23,21,224,,1*7A
$GBGSV,4,4,15,34,19,093,46,41,18,197,,37,17,277,22,1*46
$GBGSV,2,1,07,40,84,111,45,33,60,153,44,43,53,049,34,42,42,057,28,4*7D
$GBGSV,2,2,07,28,35,321,41,34,19,093,41,37,17,277,27,4*48
$GNGGA,033732.000,2500.8127305,N,12132.4383851,E,4,67,0.43,17.552,M,15.25,M,6,3335*4E
$GNRMC,033732.000,A,2500.8127305,N,12132.4383851,E,0.00,119.92,270623,,,R,V*11
$GPHDT,317.150,T*34
$GNGGA,033732.200,2500.8127296,N,12132.4383852,E,4,67,0.43,17.557,M,15.25,M,6,3335*41
$GNRMC,033732.200,A,2500.8127296,N,12132.4383852,E,0.00,119.92,270623,,,R,V*1B
$GPHDT,316.915,T*3C
$GNGGA,033732.400,2500.8127310,N,12132.4383794,E,4,68,0.43,17.580,M,15.25,M,6,3335*48
$GNRMC,033732.400,A,2500.8127310,N,12132.4383794,E,0.00,119.92,270623,,,R,V*17
$GPHDT,316.943,T*3F
$GNGGA,033732.600,2500.8127301,N,12132.4383681,E,4,68,0.43,17.590,M,15.25,M,5,3335*4D
$GNRMC,033732.600,A,2500.8127301,N,12132.4383681,E,0.00,119.92,270623,,,R,V*10
$GPHDT,317.121,T*32
$GNGGA,033732.800,2500.8127335,N,12132.4383664,E,4,68,0.43,17.603,M,15.25,M,3,3335*40
$GNRMC,033732.800,A,2500.8127335,N,12132.4383664,E,0.00,119.92,270623,,,R,V*12
$GPHDT,317.059,T*3C
$GNGSA,A,3,195,17,19,196,199,06,194,09,14,11,20,04,0.81,0.43,0.69,1*0C
$GNGSA,A,3,03,12,,,,,,,,,,,0.81,0.43,0.69,1*00
$GNGSA,A,3,67,68,82,83,80,73,,,,,,,0.81,0.43,0.69,2*01
$GNGSA,A,3,24,10,12,11,31,19,04,25,33,,,,0.81,0.43,0.69,3*0F
$GNGSA,A,3,40,07,10,14,33,08,43,13,42,28,11,34,0.81,0.43,0.69,4*04
$GNGSA,A,3,37,,,,,,,,,,,,0.81,0.43,0.69,4*01
$GPGSV,4,1,15,195,67,042,42,17,64,066,40,19,63,011,43,196,62,129,39,1*69
$GPGSV,4,2,15,199,60,167,34,06,50,333,41,194,43,171,42,41,38,242,42,1*65
$GPGSV,4,3,15,09,31,110,42,14,29,177,40,11,26,281,37,20,25,228,20,1*65
$GPGSV,4,4,15,04,21,077,35,03,12,038,18,12,10,320,17,1*56
$GPGSV,3,1,10,195,67,042,45,196,62,129,46,199,60,167,46,06,50,333,48,8*5E
$GPGSV,3,2,10,194,43,171,44,09,31,110,46,14,29,177,41,11,26,281,39,8*57
$GPGSV,3,3,10,04,21,077,31,03,12,038,28,8*68
$GLGSV,2,1,08,67,48,068,34,68,45,151,40,82,37,032,36,83,32,336,32,1*7E
$GLGSV,2,2,08,80,28,234,26,73,23,294,37,66,09,029,29,79,03,188,,1*78
$GAGSV,3,1,09,24,53,248,40,10,49,329,41,12,49,010,36,11,34,296,35,7*75
$GAGSV,3,2,09,31,31,182,39,19,30,090,37,04,25,156,29,25,24,310,31,7*77
$GAGSV,3,3,09,33,16,061,27,7*4F
$GAGSV,3,1,09,24,53,248,43,10,49,329,44,12,49,010,41,11,34,296,34,1*74
$GAGSV,3,2,09,31,31,182,42,19,30,090,36,04,25,156,36,25,24,310,24,1*76
$GAGSV,3,3,09,33,16,061,28,1*46
$GBGSV,4,1,16,40,84,111,42,07,82,256,40,10,72,295,37,14,61,091,39,1*7D
$GBGSV,4,2,16,33,60,153,44,08,59,265,41,43,53,049,30,13,49,254,42,1*73
$GBGSV,4,3,16,42,42,057,30,28,35,321,44,11,34,076,34,23,21,224,,1*7C
$GBGSV,4,4,16,34,19,094,46,41,18,197,,37,17,277,21,06,01,189,,1*76
$GBGSV,2,1,07,40,84,111,45,33,60,153,44,43,53,049,34,42,42,057,30,4*74
$GBGSV,2,2,07,28,35,321,41,34,19,094,42,37,17,277,27,4*4C
$GNGGA,033733.000,2500.8127353,N,12132.4383590,E,4,68,0.43,17.610,M,15.25,M,2,3335*42
$GNRMC,033733.000,A,2500.8127353,N,12132.4383590,E,0.00,119.92,270623,,,R,V*13
$GPHDT,316.618,T*3E
$GNGGA,033733.200,2500.8127364,N,12132.4383628,E,4,68,0.43,17.593,M,15.25,M,1,3335*4F
$GNRMC,033733.200,A,2500.8127364,N,12132.4383628,E,0.00,119.92,270623,,,R,V*15
$GPHDT,316.509,T*3D
$GNGGA,033733.400,2500.8127320,N,12132.4383687,E,4,68,0.43,17.573,M,15.25,M,1,3335*42
$GNRMC,033733.400,A,2500.8127320,N,12132.4383687,E,0.00,119.92,270623,,,R,V*16
$GPHDT,316.786,T*38
$GNGGA,033733.600,2500.8127289,N,12132.4383794,E,4,68,0.43,17.538,M,15.25,M,0,3335*4F
$GNRMC,033733.600,A,2500.8127289,N,12132.4383794,E,0.00,119.92,270623,,,R,V*15
$GPHDT,316.877,T*39
$GNGGA,033733.800,2500.8127326,N,12132.4383781,E,4,68,0.43,17.550,M,15.25,M,0,3335*4F
$GNRMC,033733.800,A,2500.8127326,N,12132.4383781,E,0.00,119.92,270623,,,R,V*1B
$GPHDT,316.521,T*37
$GNGSA,A,3,195,17,19,196,199,06,194,09,14,11,20,04,0.81,0.43,0.69,1*0C
$GNGSA,A,3,03,12,,,,,,,,,,,0.81,0.43,0.69,1*00
$GNGSA,A,3,67,68,82,83,80,73,,,,,,,0.81,0.43,0.69,2*01
$GNGSA,A,3,24,12,10,11,31,19,04,25,33,,,,0.81,0.43,0.69,3*0F
$GNGSA,A,3,40,07,10,14,33,08,43,13,42,28,11,34,0.81,0.43,0.69,4*04
$GNGSA,A,3,37,,,,,,,,,,,,0.81,0.43,0.69,4*01
$GPGSV,4,1,15,195,67,042,42,17,64,066,40,19,63,011,43,196,62,129,38,1*68
$GPGSV,4,2,15,199,60,167,34,06,50,333,41,194,43,171,42,41,38,242,42,1*65
$GPGSV,4,3,15,09,31,110,42,14,29,177,40,11,26,281,37,20,25,228,20,1*65
$GPGSV,4,4,15,04,21,077,35,03,12,038,18,12,10,320,15,1*54
$GPGSV,3,1,10,195,67,042,45,196,62,129,46,199,60,167,46,06,50,333,48,8*5E
$GPGSV,3,2,10,194,43,171,44,09,31,110,46,14,29,177,41,11,26,281,39,8*57
$GPGSV,3,3,10,04,21,077,31,03,12,038,28,8*68
$GLGSV,3,1,09,67,48,068,35,68,45,151,40,82,37,032,36,83,32,336,32,1*7F
$GLGSV,3,2,09,80,28,234,25,73,23,294,37,66,09,029,29,79,03,188,,1*7B
$GLGSV,3,3,09,74,01,331,,1*42
$GAGSV,3,1,09,24,53,248,40,12,49,010,36,10,49,329,41,11,34,296,35,7*75
$GAGSV,3,2,09,31,31,182,39,19,30,090,37,04,25,156,30,25,24,310,30,7*7E
$GAGSV,3,3,09,33,16,061,26,7*4E
$GAGSV,3,1,09,24,53,248,44,10,49,329,44,12,49,010,41,11,34,296,34,1*73
$GAGSV,3,2,09,31,31,182,42,19,30,090,36,04,25,156,36,25,24,310,23,1*71
$GAGSV,3,3,09,33,16,061,26,1*48
$GBGSV,4,1,15,40,84,112,42,07,82,256,40,10,72,295,38,14,61,091,39,1*72
$GBGSV,4,2,15,33,60,153,44,08,59,265,40,43,53,049,31,13,49,254,42,1*70
$GBGSV,4,3,15,42,42,057,29,28,35,321,44,11,34,076,34,23,21,224,,1*77
$GBGSV,4,4,15,34,19,094,46,41,19,197,,37,17,276,18,1*48
$GBGSV,2,1,07,40,84,112,45,33,60,153,44,43,53,049,33,42,42,057,32,4*72
$GBGSV,2,2,07,28,35,321,41,34,19,094,42,37,17,276,26,4*4C
$GNGGA,033734.000,2500.8127315,N,12132.4383740,E,4,68,0.43,17.562,M,15.25,M,1,3335*4D
$GNRMC,033734.000,A,2500.8127315,N,12132.4383740,E,0.00,119.92,270623,,,R,V*19
$GPHDT,316.535,T*32
$GNGGA,033734.200,2500.8127329,N,12132.4383780,E,4,68,0.43,17.560,M,15.25,M,1,3335*4E
$GNRMC,033734.200,A,2500.8127329,N,12132.4383780,E,0.00,119.92,270623,,,R,V*18
$GPHDT,316.447,T*36
$GNGGA,033734.400,2500.8127369,N,12132.4383765,E,4,68,0.43,17.573,M,15.25,M,1,3335*45
$GNRMC,033734.400,A,2500.8127369,N,12132.4383765,E,0.00,119.92,270623,,,R,V*11
$GPHDT,316.038,T*3A
$GNGGA,033734.600,2500.8127328,N,12132.4383813,E,4,68,0.43,17.548,M,15.25,M,1,3335*44
$GNRMC,033734.600,A,2500.8127328,N,12132.4383813,E,0.00,119.92,270623,,,R,V*18
$GPHDT,316.292,T*38
$GNGGA,033734.800,2500.8127337,N,12132.4383823,E,4,68,0.43,17.552,M,15.25,M,1,3335*4C
$GNRMC,033734.800,A,2500.8127337,N,12132.4383823,E,0.00,119.92,270623,,,R,V*1B
$GPHDT,316.291,T*3B
$GNGSA,A,3,195,17,19,196,199,06,194,09,14,11,20,04,0.84,0.43,0.72,1*03
$GNGSA,A,3,03,,,,,,,,,,,,0.84,0.43,0.72,1*0C
$GNGSA,A,3,67,68,82,83,80,73,,,,,,,0.84,0.43,0.72,2*0E
$GNGSA,A,3,24,12,10,11,31,19,04,25,33,,,,0.84,0.43,0.72,3*00
$GNGSA,A,3,40,07,10,14,33,08,43,13,42,28,11,34,0.84,0.43,0.72,4*0B
$GNGSA,A,3,37,,,,,,,,,,,,0.84,0.43,0.72,4*0E
$GPGSV,4,1,15,195,67,042,42,17,64,066,40,19,63,011,43,196,62,129,38,1*68
$GPGSV,4,2,15,199,60,167,34,06,50,333,41,194,43,171,42,41,38,242,42,1*65
$GPGSV,4,3,15,09,31,110,42,14,29,177,40,11,26,281,37,20,25,228,20,1*65
$GPGSV,4,4,15,04,21,077,35,03,12,038,18,12,10,320,15,1*54
$GPGSV,3,1,10,195,67,042,44,196,62,129,46,199,60,167,46,06,50,333,48,8*5F
$GPGSV,3,2,10,194,43,171,44,09,31,110,46,14,29,177,41,11,26,281,39,8*57
$GPGSV,3,3,10,04,21,077,31,03,12,038,28,8*68
$GLGSV,2,1,08,67,48,068,37,68,45,151,40,82,37,032,37,83,32,336,32,1*7C
$GLGSV,2,2,08,80,28,234,26,73,23,294,37,66,09,029,26,79,03,188,,1*77
$GAGSV,3,1,09,24,53,248,40,12,49,010,35,10,49,329,41,11,34,296,35,7*76
$GAGSV,3,2,09,31,31,182,39,19,30,090,37,04,25,156,31,25,24,310,31,7*7E
$GAGSV,3,3,09,33,16,061,25,7*4D
$GAGSV,3,1,09,24,53,248,44,10,49,329,44,12,49,010,41,11,34,296,35,1*72
$GAGSV,3,2,09,31,31,182,42,19,30,090,36,04,25,156,36,25,24,310,26,1*74
$GAGSV,3,3,09,33,16,061,26,1*48
$GBGSV,4,1,16,40,84,112,42,07,82,256,38,10,72,295,39,14,61,091,34,1*72
$GBGSV,4,2,16,33,60,153,44,08,59,265,39,43,53,049,26,13,49,254,42,1*7B
$GBGSV,4,3,16,42,42,057,28,28,35,321,44,11,34,076,37,23,21,224,,1*76
$GBGSV,4,4,16,41,19,197,,34,19,094,46,37,17,276,23,25,04,180,,1*79
$GBGSV,2,1,07,40,84,112,45,33,60,153,44,43,53,049,29,42,42,057,29,4*73
$GBGSV,2,2,07,28,35,321,41,34,19,094,42,37,17,276,26,4*4C
$GNGGA,033735.000,2500.8127311,N,12132.4383793,E,4,67,0.43,17.557,M,15.25,M,2,3335*4C
$GNRMC,033735.000,A,2500.8127311,N,12132.4383793,E,0.00,119.92,270623,,,R,V*12
$GPHDT,316.453,T*33
$GNGGA,033735.200,2500.8127350,N,12132.4383795,E,4,66,0.44,17.561,M,15.25,M,2,3335*4E
$GNRMC,033735.200,A,2500.8127350,N,12132.4383795,E,0.00,119.92,270623,,,R,V*13
$GPHDT,316.309,T*3B
$GNGGA,033735.400,2500.8127302,N,12132.4383780,E,4,66,0.44,17.560,M,15.25,M,2,3335*4A
$GNRMC,033735.400,A,2500.8127302,N,12132.4383780,E,0.00,119.92,270623,,,R,V*16
$GPHDT,316.710,T*37
$GNGGA,033735.600,2500.8127311,N,12132.4383817,E,4,68,0.43,17.560,M,15.25,M,2,3335*42
$GNRMC,033735.600,A,2500.8127311,N,12132.4383817,E,0.00,119.92,270623,,,R,V*17
$GPHDT,316.864,T*3B
$GNGGA,033735.800,2500.8127321,N,12132.4383727,E,4,68,0.43,17.580,M,15.25,M,2,3335*4D
$GNRMC,033735.800,A,2500.8127321,N,12132.4383727,E,0.00,119.92,270623,,,R,V*16
$GPHDT,317.094,T*3D
$GNGSA,A,3,195,17,19,196,199,06,194,09,14,11,20,04,0.81,0.43,0.69,1*0C
$GNGSA,A,3,03,12,,,,,,,,,,,0.81,0.43,0.69,1*00
$GNGSA,A,3,67,68,82,83,80,73,,,,,,,0.81,0.43,0.69,2*01
$GNGSA,A,3,24,12,10,11,31,19,04,25,33,,,,0.81,0.43,0.69,3*0F
$GNGSA,A,3,40,07,10,14,33,08,43,13,42,28,11,34,0.81,0.43,0.69,4*04
$GNGSA,A,3,37,,,,,,,,,,,,0.81,0.43,0.69,4*01
$GPGSV,4,1,15,195,67,042,41,17,64,066,41,19,63,011,43,196,62,129,38,1*6A
$GPGSV,4,2,15,199,60,167,34,06,50,333,41,194,43,171,42,41,38,242,42,1*65
$GPGSV,4,3,15,09,31,110,42,14,29,177,40,11,26,281,37,20,25,228,23,1*66
$GPGSV,4,4,15,04,21,077,34,03,12,038,18,12,10,320,18,1*58
$GPGSV,3,1,10,195,67,042,44,196,62,129,46,199,60,167,46,06,50,333,47,8*50
$GPGSV,3,2,10,194,43,171,44,09,31,110,46,14,29,177,40,11,26,281,39,8*56
$GPGSV,3,3,10,04,21,077,31,03,12,038,28,8*68
$GLGSV,2,1,08,67,48,068,37,68,45,151,40,82,37,032,37,83,32,336,32,1*7C
$GLGSV,2,2,08,80,28,234,25,73,23,294,37,66,09,029,27,79,03,188,,1*75
$GAGSV,3,1,09,24,53,248,40,12,49,010,35,10,49,329,41,11,34,296,35,7*76
$GAGSV,3,2,09,31,31,182,39,19,30,090,37,04,25,156,30,25,24,310,30,7*7E
$GAGSV,3,3,09,33,16,061,25,7*4D
$GAGSV,3,1,09,24,53,248,44,10,49,329,43,12,49,010,41,11,34,296,36,1*76
$GAGSV,3,2,09,31,31,182,42,19,30,090,36,04,25,156,36,25,24,310,26,1*74
$GAGSV,3,3,09,33,16,061,27,1*49
$GBGSV,4,1,16,40,84,112,42,07,82,256,38,10,72,295,39,14,61,091,33,1*75
$GBGSV,4,2,16,33,60,153,44,08,59,265,39,43,53,049,27,13,49,254,43,1*7B
$GBGSV,4,3,16,42,42,057,28,28,35,321,44,11,34,076,35,23,21,224,,1*74
$GBGSV,4,4,16,41,19,197,,34,19,094,46,37,17,276,24,39,02,179,,1*73
$GBGSV,2,1,07,40,84,112,45,33,60,153,44,43,53,049,29,42,42,057,28,4*72
$GBGSV,2,2,07,28,35,321,41,34,19,094,42,37,17,276,26,4*4C
$GNGGA,033736.000,2500.8127333,N,12132.4383795,E,4,68,0.43,17.553,M,15.25,M,3,3335*43
$GNRMC,033736.000,A,2500.8127333,N,12132.4383795,E,0.00,119.92,270623,,,R,V*17
$GPHDT,317.417,T*32
$GNGGA,033736.200,2500.8127336,N,12132.4383786,E,4,68,0.43,17.563,M,15.25,M,3,3335*45
$GNRMC,033736.200,A,2500.8127336,N,12132.4383786,E,0.00,119.92,270623,,,R,V*12
$GPHDT,316.467,T*34
$GNGGA,033736.400,2500.8127327,N,12132.4383825,E,4,67,0.43,17.556,M,15.25,M,3,3335*4C
$GNRMC,033736.400,A,2500.8127327,N,12132.4383825,E,0.00,119.92,270623,,,R,V*12
$GPHDT,316.993,T*32
$GNGGA,033736.600,2500.8127339,N,12132.4383791,E,4,67,0.43,17.570,M,15.25,M,3,3335*45
$GNRMC,033736.600,A,2500.8127339,N,12132.4383791,E,0.00,119.92,270623,,,R,V*1F
$GPHDT,317.000,T*30
$GNGGA,033736.800,2500.8127288,N,12132.4383861,E,4,67,0.43,17.538,M,15.25,M,3,3335*4C
$GNRMC,033736.800,A,2500.8127288,N,12132.4383861,E,0.00,119.92,270623,,,R,V*1A
$GPHDT,317.138,T*3A
$GNGSA,A,3,195,17,19,196,199,06,194,09,14,11,20,04,0.84,0.43,0.72,1*03
$GNGSA,A,3,03,,,,,,,,,,,,0.84,0.43,0.72,1*0C
$GNGSA,A,3,67,68,82,83,80,73,,,,,,,0.84,0.43,0.72,2*0E
$GNGSA,A,3,24,10,12,11,31,19,04,25,33,,,,0.84,0.43,0.72,3*00
$GNGSA,A,3,40,07,10,14,33,08,43,13,42,28,11,34,0.84,0.43,0.72,4*0B
$GNGSA,A,3,37,,,,,,,,,,,,0.84,0.43,0.72,4*0E
$GPGSV,4,1,15,195,67,042,41,17,64,066,41,19,63,011,43,196,62,129,38,1*6A
$GPGSV,4,2,15,199,60,167,34,06,50,333,41,194,43,171,42,41,38,242,41,1*66
$GPGSV,4,3,15,09,31,110,42,14,29,177,40,11,26,281,37,20,25,228,23,1*66
$GPGSV,4,4,15,04,21,077,34,03,12,038,19,12,10,320,18,1*59
$GPGSV,3,1,10,195,67,042,44,196,62,129,46,199,60,167,46,06,50,333,47,8*50
$GPGSV,3,2,10,194,43,171,44,09,31,110,46,14,29,177,40,11,26,281,39,8*56
$GPGSV,3,3,10,04,21,077,31,03,12,038,28,8*68
$GLGSV,2,1,08,67,48,068,37,68,45,151,40,82,37,032,38,83,32,336,32,1*73
$GLGSV,2,2,08,80,28,234,24,73,23,294,36,66,09,029,27,79,03,188,,1*75
$GAGSV,3,1,09,24,53,248,39,10,49,329,41,12,49,010,35,11,34,296,35,7*78
$GAGSV,3,2,09,31,31,182,39,19,30,090,37,04,25,156,30,25,24,310,30,7*7E
$GAGSV,3,3,09,33,16,061,25,7*4D
$GAGSV,3,1,09,24,53,248,44,10,49,329,43,12,49,010,41,11,34,296,35,1*75
$GAGSV,3,2,09,31,31,182,41,19,30,090,36,04,25,156,36,25,24,310,26,1*77
$GAGSV,3,3,09,33,16,061,27,1*49
$GBGSV,4,1,16,40,84,112,42,07,82,256,39,10,72,295,39,14,61,091,35,1*72
$GBGSV,4,2,16,33,60,153,44,08,59,265,39,43,53,049,31,13,49,254,43,1*7C
$GBGSV,4,3,16,42,42,057,28,28,35,321,45,11,34,076,34,23,21,224,,1*74
$GBGSV,4,4,16,41,19,197,,34,19,094,46,37,17,276,24,06,01,189,,1*73
$GBGSV,2,1,07,40,84,112,45,33,60,153,44,43,53,049,30,42,42,057,27,4*75
$GBGSV,2,2,07,28,35,321,41,34,19,094,42,37,17,276,27,4*4D
$GNGGA,033737.000,2500.8127304,N,12132.4383815,E,4,67,0.43,17.552,M,15.25,M,4,3335*48
$GNRMC,033737.000,A,2500.8127304,N,12132.4383815,E,0.00,119.92,270623,,,R,V*15
$GPHDT,317.138,T*3A
$GNGGA,033737.200,2500.8127284,N,12132.4383859,E,4,67,0.43,17.536,M,15.25,M,4,3335*49
$GNRMC,033737.200,A,2500.8127284,N,12132.4383859,E,0.00,119.92,270623,,,R,V*16
$GPHDT,316.857,T*3B
$GNGGA,033737.400,2500.8127299,N,12132.4383839,E,4,67,0.43,17.551,M,15.25,M,4,3335*44
$GNRMC,033737.400,A,2500.8127299,N,12132.4383839,E,0.00,119.92,270623,,,R,V*1A
