$FW : RTK35X,V1.1X0314AS,Lib20210517,1*54
$Tool : LOCOSYS , GNSS Firebird , v1.0.0.19*39
$---------------------------------------------------*2D
$GNGGA,033914.800,2500.8127393,N,12132.4383700,E,4,67,0.43,17.671,M,15.25,M,13,3335*7E
$GNRMC,033914.800,A,2500.8127393,N,12132.4383700,E,0.00,119.92,270623,,,R,V*17
$GPHDT,93.718,T*01
$GNGSA,A,3,195,19,17,196,199,06,194,09,14,11,20,04,0.80,0.43,0.68,1*0C
$GNGSA,A,3,03,12,,,,,,,,,,,0.80,0.43,0.68,1*00
$GNGSA,A,3,67,68,82,83,80,73,,,,,,,0.80,0.43,0.68,2*01
$GNGSA,A,3,24,10,12,11,19,31,04,25,33,,,,0.80,0.43,0.68,3*0F
$GNGSA,A,3,40,07,10,33,14,08,43,13,42,28,11,34,0.80,0.43,0.68,4*04
$GNGSA,A,3,37,,,,,,,,,,,,0.80,0.43,0.68,4*01
$GPGSV,4,1,15,195,67,042,41,19,64,013,41,17,64,068,42,196,63,128,42,1*6D
$GPGSV,4,2,15,199,60,167,31,06,50,335,42,194,42,171,33,41,38,242,42,1*62
$GPGSV,4,3,15,09,32,109,42,14,29,177,27,11,26,282,41,20,26,228,15,1*68
$GPGSV,4,4,15,04,21,076,34,03,12,038,22,12,11,319,20,1*50
$GPGSV,3,1,10,195,67,042,45,196,63,128,45,199,60,167,42,06,50,335,47,8*50
$GPGSV,3,2,10,194,42,171,37,09,32,109,42,14,29,177,30,11,26,282,39,8*58
$GPGSV,3,3,10,04,21,076,33,03,12,038,31,8*63
$GLGSV,2,1,08,67,48,067,42,68,46,150,36,82,37,033,43,83,32,337,31,1*72
$GLGSV,2,2,08,80,27,233,32,73,23,293,39,66,08,029,24,79,03,188,,1*70
$GAGSV,3,1,09,24,53,247,40,10,49,330,39,12,49,011,37,11,34,297,36,7*7F
$GAGSV,3,2,09,19,30,089,35,31,30,182,30,04,25,155,26,25,24,309,30,7*70
$GAGSV,3,3,09,33,16,062,27,7*4C
$GAGSV,3,1,09,24,53,247,45,10,49,330,45,12,49,011,42,11,34,297,35,1*76
$GAGSV,3,2,09,19,30,089,38,31,30,182,32,04,25,155,35,25,24,309,21,1*7B
$GAGSV,3,3,09,33,16,062,28,1*45
$GBGSV,4,1,15,40,84,116,42,07,82,254,41,10,72,294,40,33,61,152,41,1*7F
$GBGSV,4,2,15,14,61,089,42,08,59,266,40,43,53,050,44,13,49,255,42,1*7C
$GBGSV,4,3,15,42,42,056,44,28,36,322,44,11,34,077,42,23,20,223,,1*7B
$GBGSV,4,4,15,34,19,094,44,41,19,197,,37,17,276,31,1*41
$GBGSV,2,1,07,40,84,116,45,33,61,152,43,43,53,050,44,42,42,056,44,4*79
$GBGSV,2,2,07,28,36,322,42,34,19,094,42,37,17,276,27,4*4E
$GNGGA,033915.000,2500.8127409,N,12132.4383675,E,4,67,0.43,17.694,M,15.25,M,14,3335*7C
$GNRMC,033915.000,A,2500.8127409,N,12132.4383675,E,0.00,119.92,270623,,,R,V*19
$GPHDT,93.694,T*04
$GNGGA,033915.200,2500.8127396,N,12132.4383710,E,4,67,0.43,17.679,M,15.25,M,14,3335*7E
$GNRMC,033915.200,A,2500.8127396,N,12132.4383710,E,0.00,119.92,270623,,,R,V*18
$GPHDT,93.854,T*06
$GNGGA,033915.400,2500.8127407,N,12132.4383698,E,4,67,0.43,17.688,M,15.25,M,14,3335*78
$GNRMC,033915.400,A,2500.8127407,N,12132.4383698,E,0.00,119.92,270623,,,R,V*10
$GPHDT,93.879,T*09
$GNGGA,033915.600,2500.8127415,N,12132.4383712,E,4,67,0.43,17.692,M,15.25,M,14,3335*71
$GNRMC,033915.600,A,2500.8127415,N,12132.4383712,E,0.00,119.92,270623,,,R,V*12
$GPHDT,93.834,T*00
$GNGGA,033915.800,2500.8127420,N,12132.4383706,E,4,67,0.43,17.708,M,15.25,M,14,3335*7E
$GNRMC,033915.800,A,2500.8127420,N,12132.4383706,E,0.00,119.92,270623,,,R,V*1F
$GPHDT,93.950,T*03
$GNGSA,A,3,195,19,17,196,199,06,194,09,14,11,20,04,0.80,0.43,0.68,1*0C
$GNGSA,A,3,03,12,,,,,,,,,,,0.80,0.43,0.68,1*00
$GNGSA,A,3,67,68,82,83,80,73,,,,,,,0.80,0.43,0.68,2*01
$GNGSA,A,3,24,10,12,11,19,31,04,25,33,,,,0.80,0.43,0.68,3*0F
$GNGSA,A,3,40,07,10,33,14,08,43,13,42,28,11,34,0.80,0.43,0.68,4*04
$GNGSA,A,3,37,,,,,,,,,,,,0.80,0.43,0.68,4*01
$GPGSV,4,1,15,195,67,042,40,19,64,013,41,17,64,068,42,196,63,128,42,1*6C
$GPGSV,4,2,15,199,60,167,32,06,50,335,42,194,42,171,33,41,38,242,42,1*61
$GPGSV,4,3,15,09,32,109,42,14,29,177,31,11,26,282,41,20,26,228,15,1*6F
$GPGSV,4,4,15,04,21,076,32,03,12,038,22,12,11,319,21,1*57
$GPGSV,3,1,10,195,67,042,45,196,63,128,45,199,60,167,42,06,50,335,47,8*50
$GPGSV,3,2,10,194,42,171,37,09,32,109,42,14,29,177,33,11,26,282,39,8*5B
$GPGSV,3,3,10,04,21,076,33,03,12,038,30,8*62
$GLGSV,2,1,08,67,48,067,42,68,46,150,37,82,37,033,43,83,32,337,32,1*70
$GLGSV,2,2,08,80,27,233,32,73,23,293,38,66,08,029,21,79,03,188,,1*74
$GAGSV,3,1,09,24,53,247,38,10,49,330,38,12,49,011,37,11,34,297,37,7*70
$GAGSV,3,2,09,19,30,089,35,31,30,182,33,04,25,155,22,25,24,309,29,7*7F
$GAGSV,3,3,09,33,16,062,27,7*4C
$GAGSV,3,1,09,24,53,247,45,10,49,330,45,12,49,011,42,11,34,297,34,1*77
$GAGSV,3,2,09,19,30,089,38,31,30,182,32,04,25,155,33,25,24,309,20,1*7C
$GAGSV,3,3,09,33,16,062,27,1*4A
$GBGSV,4,1,15,40,84,116,42,07,82,254,40,10,72,294,40,33,61,152,42,1*7D
$GBGSV,4,2,15,14,61,089,42,08,59,266,40,43,53,050,44,13,49,255,42,1*7C
$GBGSV,4,3,15,42,42,056,44,28,36,322,44,11,34,077,42,23,20,223,,1*7B
$GBGSV,4,4,15,34,19,094,44,41,19,197,,37,17,276,31,1*41
$GBGSV,2,1,07,40,84,116,45,33,61,152,43,43,53,050,44,42,42,056,43,4*7E
$GBGSV,2,2,07,28,36,322,41,34,19,094,41,37,17,276,27,4*4E
$GNGGA,033916.000,2500.8127379,N,12132.4383708,E,4,67,0.43,17.693,M,15.25,M,15,3335*72
$GNRMC,033916.000,A,2500.8127379,N,12132.4383708,E,0.00,119.92,270623,,,R,V*11
$GPHDT,93.499,T*0B
$GNGGA,033916.200,2500.8127401,N,12132.4383731,E,4,67,0.43,17.692,M,15.25,M,15,3335*73
$GNRMC,033916.200,A,2500.8127401,N,12132.4383731,E,0.00,119.92,270623,,,R,V*11
$GPHDT,93.730,T*0B
$GNGGA,033916.400,2500.8127350,N,12132.4383742,E,4,67,0.43,17.681,M,15.25,M,15,3335*70
$GNRMC,033916.400,A,2500.8127350,N,12132.4383742,E,0.00,119.92,270623,,,R,V*10
$GPHDT,93.246,T*0F
$GNGGA,033916.600,2500.8127351,N,12132.4383731,E,4,67,0.43,17.689,M,15.25,M,15,3335*7F
$GNRMC,033916.600,A,2500.8127351,N,12132.4383731,E,0.00,119.92,270623,,,R,V*17
$GPHDT,93.491,T*03
$GNGGA,033916.800,2500.8127368,N,12132.4383741,E,4,67,0.43,17.687,M,15.25,M,15,3335*72
$GNRMC,033916.800,A,2500.8127368,N,12132.4383741,E,0.00,119.92,270623,,,R,V*14
$GPHDT,93.509,T*03
$GNGSA,A,3,195,19,17,196,199,06,194,09,14,11,20,04,0.80,0.43,0.68,1*0C
$GNGSA,A,3,12,03,,,,,,,,,,,0.80,0.43,0.68,1*00
$GNGSA,A,3,67,68,82,83,80,73,,,,,,,0.80,0.43,0.68,2*01
$GNGSA,A,3,24,10,12,11,19,31,04,25,33,,,,0.80,0.43,0.68,3*0F
$GNGSA,A,3,40,07,10,33,14,08,43,13,42,28,11,34,0.80,0.43,0.68,4*04
$GNGSA,A,3,37,,,,,,,,,,,,0.80,0.43,0.68,4*01
$GPGSV,4,1,15,195,67,042,40,19,64,013,41,17,64,068,42,196,63,128,42,1*6C
$GPGSV,4,2,15,199,60,167,33,06,50,335,42,194,42,171,32,41,38,242,42,1*61
$GPGSV,4,3,15,09,32,109,42,14,29,177,31,11,26,282,41,20,26,228,15,1*6F
$GPGSV,4,4,15,04,21,076,31,12,11,319,18,03,11,038,23,1*5C
$GPGSV,3,1,10,195,67,042,46,196,63,128,46,199,60,167,43,06,50,335,47,8*51
$GPGSV,3,2,10,194,42,171,36,09,32,109,43,14,29,177,34,11,26,282,40,8*52
$GPGSV,3,3,10,04,21,076,33,03,11,038,31,8*60
$GLGSV,2,1,08,67,48,067,42,68,46,150,37,82,37,033,43,83,32,337,31,1*73
$GLGSV,2,2,08,80,27,233,32,73,23,293,38,66,08,029,23,79,03,188,,1*76
$GAGSV,3,1,09,24,53,247,38,10,49,330,38,12,49,011,38,11,34,297,37,7*7F
$GAGSV,3,2,09,19,30,089,35,31,30,182,34,04,25,155,22,25,24,309,27,7*76
$GAGSV,3,3,09,33,16,062,25,7*4E
$GAGSV,3,1,09,24,53,247,45,10,49,330,45,12,49,011,42,11,34,297,35,1*76
$GAGSV,3,2,09,19,30,089,38,31,30,182,35,04,25,155,33,25,24,309,21,1*7A
$GAGSV,3,3,09,33,16,062,27,1*4A
$GBGSV,4,1,15,40,84,116,42,07,82,254,40,10,72,294,40,33,61,152,42,1*7D
$GBGSV,4,2,15,14,61,089,42,08,59,266,40,43,53,050,44,13,49,255,42,1*7C
$GBGSV,4,3,15,42,42,056,44,28,36,322,44,11,34,077,42,23,20,223,,1*7B
$GBGSV,4,4,15,34,19,094,44,41,19,197,,37,17,276,32,1*42
$GBGSV,2,1,07,40,84,116,45,33,61,152,45,43,53,050,44,42,42,056,43,4*78
$GBGSV,2,2,07,28,36,322,43,34,19,094,41,37,17,276,26,4*4D
$GNGGA,033917.000,2500.8127362,N,12132.4383731,E,4,67,0.43,17.690,M,15.25,M,16,3335*73
$GNRMC,033917.000,A,2500.8127362,N,12132.4383731,E,0.00,119.92,270623,,,R,V*10
$GPHDT,93.454,T*0A
$GNGGA,033917.200,2500.8127341,N,12132.4383722,E,4,68,0.43,17.695,M,15.25,M,16,3335*78
$GNRMC,033917.200,A,2500.8127341,N,12132.4383722,E,0.00,119.92,270623,,,R,V*11
$GPHDT,93.283,T*06
$GNGGA,033917.400,2500.8127383,N,12132.4383725,E,4,68,0.43,17.701,M,15.25,M,16,3335*7B
$GNRMC,033917.400,A,2500.8127383,N,12132.4383725,E,0.00,119.92,270623,,,R,V*1E
$GPHDT,93.602,T*0B
$GNGGA,033917.600,2500.8127362,N,12132.4383742,E,4,68,0.43,17.676,M,15.25,M,16,3335*76
$GNRMC,033917.600,A,2500.8127362,N,12132.4383742,E,0.00,119.92,270623,,,R,V*12
$GPHDT,93.422,T*0B
$GNGGA,033917.800,2500.8127370,N,12132.4383736,E,4,68,0.43,17.688,M,15.25,M,16,3335*79
$GNRMC,033917.800,A,2500.8127370,N,12132.4383736,E,0.00,119.92,270623,,,R,V*1C
$GPHDT,93.564,T*08
$GNGSA,A,3,195,19,17,196,199,06,194,09,14,11,20,04,0.80,0.43,0.68,1*0C
$GNGSA,A,3,12,03,,,,,,,,,,,0.80,0.43,0.68,1*00
$GNGSA,A,3,67,68,82,83,80,73,,,,,,,0.80,0.43,0.68,2*01
$GNGSA,A,3,24,10,12,11,19,31,04,25,33,,,,0.80,0.43,0.68,3*0F
$GNGSA,A,3,40,07,10,33,14,08,43,13,42,28,11,34,0.80,0.43,0.68,4*04
$GNGSA,A,3,37,,,,,,,,,,,,0.80,0.43,0.68,4*01
$GPGSV,4,1,15,195,67,042,40,19,64,013,41,17,64,068,42,196,63,128,42,1*6C
$GPGSV,4,2,15,199,60,167,33,06,50,335,42,194,42,171,31,41,38,242,41,1*61
$GPGSV,4,3,15,09,32,109,42,14,29,177,29,11,26,282,41,20,26,228,16,1*65
$GPGSV,4,4,15,04,21,076,31,12,11,319,19,03,11,038,23,1*5D
$GPGSV,3,1,10,195,67,042,46,196,63,128,46,199,60,167,43,06,50,335,47,8*51
$GPGSV,3,2,10,194,42,171,36,09,32,109,43,14,29,177,34,11,26,282,40,8*52
$GPGSV,3,3,10,04,21,076,33,03,11,038,31,8*60
$GLGSV,2,1,08,67,48,067,42,68,46,150,37,82,37,033,43,83,32,337,31,1*73
$GLGSV,2,2,08,80,27,233,32,73,23,293,39,66,08,029,24,79,03,188,,1*70
$GAGSV,3,1,09,24,53,247,38,10,49,330,38,12,49,011,38,11,34,297,37,7*7F
$GAGSV,3,2,09,19,30,089,35,31,30,182,34,04,25,155,22,25,24,309,29,7*78
$GAGSV,3,3,09,33,16,062,26,7*4D
$GAGSV,3,1,09,24,53,247,45,10,49,330,45,12,49,011,42,11,34,297,33,1*70
$GAGSV,3,2,09,19,30,089,38,31,30,182,35,04,25,155,33,25,24,309,21,1*7A
$GAGSV,3,3,09,33,16,062,28,1*45
$GBGSV,4,1,15,40,84,116,42,07,82,254,40,10,72,294,40,33,61,152,42,1*7D
$GBGSV,4,2,15,14,61,089,42,08,59,266,40,43,53,050,44,13,49,255,42,1*7C
$GBGSV,4,3,15,42,42,056,44,28,36,322,44,11,34,077,42,23,20,223,,1*7B
$GBGSV,4,4,15,34,19,094,44,41,19,197,,37,17,276,32,1*42
$GBGSV,2,1,07,40,84,116,45,33,61,152,45,43,53,050,44,42,42,056,43,4*78
$GBGSV,2,2,07,28,36,322,43,34,19,094,41,37,17,276,26,4*4D
$GNGGA,033918.000,2500.8127380,N,12132.4383727,E,4,68,0.43,17.691,M,15.25,M,17,3335*78
$GNRMC,033918.000,A,2500.8127380,N,12132.4383727,E,0.00,119.92,270623,,,R,V*14
$GPHDT,93.988,T*06
$GNGGA,033918.200,2500.8127353,N,12132.4383756,E,4,68,0.43,17.683,M,15.25,M,17,3335*71
$GNRMC,033918.200,A,2500.8127353,N,12132.4383756,E,0.00,119.92,270623,,,R,V*1E
$GPHDT,93.729,T*03
$GNGGA,033918.400,2500.8127377,N,12132.4383713,E,4,68,0.43,17.699,M,15.25,M,17,3335*7B
$GNRMC,033918.400,A,2500.8127377,N,12132.4383713,E,0.00,119.92,270623,,,R,V*1F
$GPHDT,93.596,T*05
$GNGGA,033918.600,2500.8127365,N,12132.4383733,E,4,68,0.43,17.689,M,15.25,M,17,3335*79
$GNRMC,033918.600,A,2500.8127365,N,12132.4383733,E,0.00,119.92,270623,,,R,V*1C
$GPHDT,93.529,T*01
$GNGGA,033918.800,2500.8127376,N,12132.4383751,E,4,68,0.43,17.687,M,15.25,M,17,3335*7F
$GNRMC,033918.800,A,2500.8127376,N,12132.4383751,E,0.00,119.92,270623,,,R,V*14
$GPHDT,93.641,T*0C
$GNGSA,A,3,195,19,17,196,199,06,194,09,14,11,04,12,0.82,0.44,0.69,1*09
$GNGSA,A,3,03,,,,,,,,,,,,0.82,0.44,0.69,1*07
$GNGSA,A,3,67,68,82,83,80,73,,,,,,,0.82,0.44,0.69,2*05
$GNGSA,A,3,24,10,12,11,19,31,04,25,33,,,,0.82,0.44,0.69,3*0B
$GNGSA,A,3,40,07,10,33,14,08,43,13,42,28,11,34,0.82,0.44,0.69,4*00
$GNGSA,A,3,37,,,,,,,,,,,,0.82,0.44,0.69,4*05
$GPGSV,4,1,15,195,67,042,40,19,64,013,41,17,64,068,42,196,63,128,42,1*6C
$GPGSV,4,2,15,199,60,167,33,06,50,335,42,194,42,171,33,41,38,242,42,1*60
$GPGSV,4,3,15,09,32,109,42,14,28,177,30,11,26,282,41,20,26,228,17,1*6D
$GPGSV,4,4,15,04,21,076,32,12,11,319,18,03,11,038,23,1*5F
$GPGSV,3,1,10,195,67,042,46,196,63,128,46,199,60,167,43,06,50,335,47,8*51
$GPGSV,3,2,10,194,42,171,36,09,32,109,43,14,28,177,34,11,26,282,40,8*53
$GPGSV,3,3,10,04,21,076,33,03,11,038,31,8*60
$GLGSV,2,1,08,67,48,067,42,68,46,150,37,82,37,033,43,83,32,337,31,1*73
$GLGSV,2,2,08,80,27,233,32,73,23,293,39,66,08,029,25,79,03,188,,1*71
$GAGSV,3,1,09,24,53,247,38,10,49,330,38,12,49,011,38,11,34,297,37,7*7F
$GAGSV,3,2,09,19,30,089,35,31,30,182,34,04,25,155,23,25,24,309,30,7*71
$GAGSV,3,3,09,33,16,062,27,7*4C
$GAGSV,3,1,09,24,53,247,45,10,49,330,45,12,49,011,42,11,34,297,33,1*70
$GAGSV,3,2,09,19,30,089,38,31,30,182,36,04,25,155,33,25,24,309,21,1*79
$GAGSV,3,3,09,33,16,062,28,1*45
$GBGSV,4,1,15,40,84,116,42,07,82,254,40,10,72,294,40,33,61,152,42,1*7D
$GBGSV,4,2,15,14,61,089,42,08,59,266,40,43,53,050,44,13,49,255,42,1*7C
$GBGSV,4,3,15,42,42,056,44,28,36,322,44,11,34,077,42,23,20,223,,1*7B
$GBGSV,4,4,15,34,19,094,44,41,19,197,,37,17,276,32,1*42
$GBGSV,2,1,07,40,84,116,45,33,61,152,45,43,53,050,44,42,42,056,43,4*78
$GBGSV,2,2,07,28,36,322,43,34,19,094,41,37,17,276,27,4*4C
$GNGGA,033919.000,2500.8127350,N,12132.4383739,E,4,67,0.44,17.689,M,15.25,M,18,3335*75
$GNRMC,033919.000,A,2500.8127350,N,12132.4383739,E,0.00,119.92,270623,,,R,V*17
$GPHDT,93.423,T*0A
$GNGGA,033919.200,2500.8127363,N,12132.4383751,E,4,67,0.44,17.689,M,15.25,M,18,3335*79
$GNRMC,033919.200,A,2500.8127363,N,12132.4383751,E,0.00,119.92,270623,,,R,V*1B
$GPHDT,94.028,T*02
$GNGGA,033919.400,2500.8127375,N,12132.4383744,E,4,67,0.44,17.681,M,15.25,M,18,3335*74
$GNRMC,033919.400,A,2500.8127375,N,12132.4383744,E,0.00,119.92,270623,,,R,V*1E
$GPHDT,93.732,T*09
$GNGGA,033919.600,2500.8127352,N,12132.4383781,E,4,67,0.44,17.673,M,15.25,M,18,3335*77
$GNRMC,033919.600,A,2500.8127352,N,12132.4383781,E,0.00,119.92,270623,,,R,V*10
$GPHDT,93.637,T*0D
$GNGGA,033919.800,2500.8127316,N,12132.4383773,E,4,67,0.44,17.672,M,15.25,M,18,3335*75
$GNRMC,033919.800,A,2500.8127316,N,12132.4383773,E,0.00,119.92,270623,,,R,V*13
$GPHDT,93.493,T*01
$GNGSA,A,3,195,19,17,196,199,06,194,09,14,11,04,12,0.82,0.44,0.69,1*09
$GNGSA,A,3,03,,,,,,,,,,,,0.82,0.44,0.69,1*07
$GNGSA,A,3,67,68,82,83,80,73,,,,,,,0.82,0.44,0.69,2*05
$GNGSA,A,3,24,10,12,11,19,31,04,25,33,,,,0.82,0.44,0.69,3*0B
$GNGSA,A,3,40,07,10,33,14,08,43,13,42,28,11,34,0.82,0.44,0.69,4*00
$GNGSA,A,3,37,,,,,,,,,,,,0.82,0.44,0.69,4*05
$GPGSV,4,1,15,195,67,042,40,19,64,013,41,17,64,068,42,196,63,128,42,1*6C
$GPGSV,4,2,15,199,60,167,33,06,50,335,42,194,42,171,33,41,38,242,42,1*60
$GPGSV,4,3,15,09,32,109,42,14,28,177,29,11,26,282,41,20,26,228,14,1*66
$GPGSV,4,4,15,04,21,076,33,12,11,319,18,03,11,038,22,1*5F
$GPGSV,3,1,10,195,67,042,46,196,63,128,46,199,60,167,43,06,50,335,47,8*51
$GPGSV,3,2,10,194,42,171,36,09,32,109,43,14,28,177,33,11,26,282,39,8*5A
$GPGSV,3,3,10,04,21,076,33,03,11,038,30,8*61
$GLGSV,2,1,08,67,48,067,42,68,46,150,38,82,37,033,43,83,32,337,32,1*7F
$GLGSV,2,2,08,80,27,233,32,73,23,293,39,66,08,029,25,79,03,188,,1*71
$GAGSV,3,1,09,24,53,247,38,10,49,330,38,12,49,011,37,11,34,297,37,7*70
$GAGSV,3,2,09,19,30,089,35,31,30,182,34,04,25,155,22,25,24,309,30,7*70
$GAGSV,3,3,09,33,16,062,26,7*4D
$GAGSV,3,1,09,24,53,247,45,10,49,330,45,12,49,011,42,11,34,297,33,1*70
$GAGSV,3,2,09,19,30,089,38,31,30,182,36,04,25,155,33,25,24,309,20,1*78
$GAGSV,3,3,09,33,16,062,27,1*4A
$GBGSV,4,1,15,40,84,116,42,07,82,254,39,10,72,294,40,33,61,152,42,1*73
$GBGSV,4,2,15,14,61,089,42,08,59,266,40,43,53,050,44,13,49,255,41,1*7F
$GBGSV,4,3,15,42,42,056,44,28,36,322,44,11,34,077,42,23,20,223,,1*7B
$GBGSV,4,4,15,34,19,094,44,41,19,197,,37,17,276,32,1*42
$GBGSV,2,1,07,40,84,116,45,33,61,152,45,43,53,050,44,42,42,056,43,4*78
$GBGSV,2,2,07,28,36,322,43,34,19,094,40,37,17,276,26,4*4C
$GNGGA,033920.000,2500.8127349,N,12132.4383782,E,4,67,0.44,17.673,M,15.25,M,19,3335*73
$GNRMC,033920.000,A,2500.8127349,N,12132.4383782,E,0.00,119.92,270623,,,R,V*15
$GPHDT,93.676,T*08
$GNGGA,033920.200,2500.8127326,N,12132.4383770,E,4,66,0.44,17.684,M,15.25,M,19,3335*7C
$GNRMC,033920.200,A,2500.8127326,N,12132.4383770,E,0.00,119.92,270623,,,R,V*13
$GPHDT,93.336,T*09
$GNGGA,033920.400,2500.8127356,N,12132.4383770,E,4,66,0.44,17.685,M,15.25,M,19,3335*7C
$GNRMC,033920.400,A,2500.8127356,N,12132.4383770,E,0.00,119.92,270623,,,R,V*12
$GPHDT,93.692,T*02
$GNGGA,033920.600,2500.8127362,N,12132.4383762,E,4,66,0.44,17.689,M,15.25,M,19,3335*76
$GNRMC,033920.600,A,2500.8127362,N,12132.4383762,E,0.00,119.92,270623,,,R,V*14
$GPHDT,93.697,T*07
$GNGGA,033920.800,2500.8127346,N,12132.4383798,E,4,66,0.44,17.677,M,15.25,M,19,3335*7A
$GNRMC,033920.800,A,2500.8127346,N,12132.4383798,E,0.00,119.92,270623,,,R,V*19
$GPHDT,93.439,T*01
$GNGSA,A,3,195,19,17,196,199,06,194,09,14,11,04,03,0.82,0.44,0.69,1*09
$GNGSA,A,3,12,,,,,,,,,,,,0.82,0.44,0.69,1*07
$GNGSA,A,3,67,68,82,83,80,73,,,,,,,0.82,0.44,0.69,2*05
$GNGSA,A,3,24,10,12,11,19,31,04,25,33,,,,0.82,0.44,0.69,3*0B
$GNGSA,A,3,40,07,10,14,33,08,43,13,42,28,11,34,0.82,0.44,0.69,4*00
$GNGSA,A,3,37,,,,,,,,,,,,0.82,0.44,0.69,4*05
$GPGSV,4,1,16,195,67,042,40,19,64,013,41,17,64,068,42,196,63,128,42,1*6F
$GPGSV,4,2,16,199,60,167,33,06,50,335,42,194,42,171,33,41,38,242,42,1*63
$GPGSV,4,3,16,09,32,109,42,14,28,177,28,20,26,228,14,11,26,282,41,1*64
$GPGSV,4,4,16,04,21,076,33,03,11,038,21,12,11,319,18,05,01,220,,1*6B
$GPGSV,3,1,10,195,67,042,46,196,63,128,46,199,60,167,43,06,50,335,47,8*51
$GPGSV,3,2,10,194,42,171,36,09,32,109,43,14,28,177,34,11,26,282,39,8*5D
$GPGSV,3,3,10,04,21,076,33,03,11,038,31,8*60
$GLGSV,2,1,08,67,48,067,42,68,46,150,38,82,37,033,43,83,32,337,32,1*7F
$GLGSV,2,2,08,80,27,233,32,73,23,293,39,66,08,029,26,79,03,188,,1*72
$GAGSV,3,1,09,24,53,247,38,10,49,330,38,12,49,011,37,11,34,297,37,7*70
$GAGSV,3,2,09,19,30,089,35,31,30,182,34,04,25,155,22,25,24,309,30,7*70
$GAGSV,3,3,09,33,16,062,26,7*4D
$GAGSV,3,1,09,24,53,247,45,10,49,330,45,12,49,011,42,11,34,297,34,1*77
$GAGSV,3,2,09,19,30,089,38,31,30,182,36,04,25,155,33,25,24,309,20,1*78
$GAGSV,3,3,09,33,16,062,28,1*45
$GBGSV,4,1,16,40,84,116,42,07,82,254,39,10,72,294,40,14,61,089,42,1*72
$GBGSV,4,2,16,33,61,152,42,08,59,266,40,43,53,050,44,13,49,255,41,1*7E
$GBGSV,4,3,16,42,42,056,44,28,36,322,44,11,34,077,42,23,20,223,,1*78
$GBGSV,4,4,16,34,19,094,44,41,19,197,,37,17,276,33,39,02,179,,1*77
$GBGSV,2,1,07,40,84,116,45,33,61,152,45,43,53,050,44,42,42,056,43,4*78
$GBGSV,2,2,07,28,36,322,43,34,19,094,40,37,17,276,26,4*4C
$GNGGA,033921.000,2500.8127346,N,12132.4383813,E,4,66,0.44,17.687,M,15.25,M,20,3335*7A
$GNRMC,033921.000,A,2500.8127346,N,12132.4383813,E,0.00,119.92,270623,,,R,V*1C
$GPHDT,93.571,T*0C
$GNGGA,033921.200,2500.8127365,N,12132.4383776,E,4,66,0.44,17.694,M,15.25,M,20,3335*77
$GNRMC,033921.200,A,2500.8127365,N,12132.4383776,E,0.00,119.92,270623,,,R,V*13
$GPHDT,93.865,T*04
$GNGGA,033921.400,2500.8127353,N,12132.4383777,E,4,66,0.44,17.702,M,15.25,M,20,3335*7B
$GNRMC,033921.400,A,2500.8127353,N,12132.4383777,E,0.00,119.92,270623,,,R,V*11
$GPHDT,93.598,T*0B
$GNGGA,033921.600,2500.8127367,N,12132.4383777,E,4,66,0.44,17.698,M,15.25,M,20,3335*7C
$GNRMC,033921.600,A,2500.8127367,N,12132.4383777,E,0.00,119.92,270623,,,R,V*14
$GPHDT,93.749,T*05
$GNGGA,033921.800,2500.8127382,N,12132.4383806,E,4,66,0.44,17.699,M,15.25,M,20,3335*71
$GNRMC,033921.800,A,2500.8127382,N,12132.4383806,E,0.00,119.92,270623,,,R,V*18
$GPHDT,93.616,T*0E
$GNGSA,A,3,195,19,17,196,199,06,194,09,14,11,04,12,0.82,0.44,0.69,1*09
$GNGSA,A,3,03,,,,,,,,,,,,0.82,0.44,0.69,1*07
$GNGSA,A,3,67,68,82,83,80,73,,,,,,,0.82,0.44,0.69,2*05
$GNGSA,A,3,24,12,10,11,19,31,04,25,33,,,,0.82,0.44,0.69,3*0B
$GNGSA,A,3,40,07,10,14,33,08,43,13,42,28,11,34,0.82,0.44,0.69,4*00
$GNGSA,A,3,37,,,,,,,,,,,,0.82,0.44,0.69,4*05
$GPGSV,4,1,15,195,67,042,40,19,64,013,41,17,64,068,42,196,63,128,42,1*6C
$GPGSV,4,2,15,199,60,167,33,06,50,335,42,194,42,171,33,41,38,242,42,1*60
$GPGSV,4,3,15,09,32,109,42,14,28,177,29,11,26,282,41,20,26,228,13,1*61
$GPGSV,4,4,15,04,21,076,33,12,11,319,18,03,11,038,21,1*5C
$GPGSV,3,1,10,195,67,042,47,196,63,128,46,199,60,167,44,06,50,335,47,8*57
$GPGSV,3,2,10,194,42,171,37,09,32,109,43,14,28,177,35,11,26,282,39,8*5D
$GPGSV,3,3,10,04,21,076,34,03,11,038,32,8*64
$GLGSV,3,1,09,67,48,067,42,68,46,150,38,82,37,033,43,83,32,337,32,1*7F
$GLGSV,3,2,09,80,27,233,32,73,23,293,39,66,08,029,26,79,03,188,,1*72
$GLGSV,3,3,09,74,01,331,,1*42
$GAGSV,3,1,09,24,53,247,38,12,49,011,37,10,49,330,38,11,34,297,37,7*70
$GAGSV,3,2,09,19,30,089,35,31,30,182,35,04,25,155,24,25,24,309,28,7*7E
$GAGSV,3,3,09,33,16,062,27,7*4C
$GAGSV,3,1,09,24,53,247,45,10,49,330,45,12,49,011,43,11,34,297,35,1*77
$GAGSV,3,2,09,19,30,089,38,31,30,182,36,04,25,155,34,25,24,309,20,1*7F
$GAGSV,3,3,09,33,16,062,28,1*45
$GBGSV,4,1,15,40,84,116,42,07,82,254,39,10,72,294,40,14,61,089,42,1*71
$GBGSV,4,2,15,33,61,152,42,08,59,266,40,43,53,050,44,13,49,255,41,1*7D
$GBGSV,4,3,15,42,42,056,44,28,36,322,44,11,34,077,42,23,20,223,,1*7B
$GBGSV,4,4,15,34,19,094,44,41,19,197,,37,17,276,34,1*44
$GBGSV,2,1,07,40,84,116,45,33,61,152,45,43,53,050,45,42,42,056,44,4*7E
$GBGSV,2,2,07,28,36,322,43,34,19,094,42,37,17,276,27,4*4F
$GNGGA,033922.000,2500.8127374,N,12132.4383774,E,4,66,0.44,17.707,M,15.25,M,21,3335*7E
$GNRMC,033922.000,A,2500.8127374,N,12132.4383774,E,0.00,119.92,270623,,,R,V*10
$GPHDT,93.582,T*00
$GNGGA,033922.200,2500.8127394,N,12132.4383785,E,4,66,0.44,17.701,M,15.25,M,21,3335*7A
$GNRMC,033922.200,A,2500.8127394,N,12132.4383785,E,0.00,119.92,270623,,,R,V*12
$GPHDT,93.824,T*01
$GNGGA,033922.400,2500.8127350,N,12132.4383796,E,4,66,0.44,17.699,M,15.25,M,21,3335*76
$GNRMC,033922.400,A,2500.8127350,N,12132.4383796,E,0.00,119.92,270623,,,R,V*1E
$GPHDT,93.503,T*09
$GNGGA,033922.600,2500.8127339,N,12132.4383801,E,4,66,0.44,17.701,M,15.25,M,21,3335*7A
$GNRMC,033922.600,A,2500.8127339,N,12132.4383801,E,0.00,119.92,270623,,,R,V*12
$GPHDT,93.655,T*09
$GNGGA,033922.800,2500.8127357,N,12132.4383798,E,4,66,0.44,17.704,M,15.25,M,21,3335*76
$GNRMC,033922.800,A,2500.8127357,N,12132.4383798,E,0.00,119.92,270623,,,R,V*1B
$GPHDT,93.327,T*09
$GNGSA,A,3,195,19,17,196,199,06,194,09,14,11,04,12,0.82,0.44,0.69,1*09
$GNGSA,A,3,03,,,,,,,,,,,,0.82,0.44,0.69,1*07
$GNGSA,A,3,67,68,82,83,80,73,,,,,,,0.82,0.44,0.69,2*05
$GNGSA,A,3,24,12,10,11,19,31,04,25,33,,,,0.82,0.44,0.69,3*0B
$GNGSA,A,3,40,07,10,14,33,08,43,13,42,28,11,34,0.82,0.44,0.69,4*00
$GNGSA,A,3,37,,,,,,,,,,,,0.82,0.44,0.69,4*05
$GPGSV,4,1,15,195,67,042,40,19,64,013,41,17,64,068,42,196,63,128,42,1*6C
$GPGSV,4,2,15,199,60,167,33,06,50,335,42,194,42,171,34,41,38,242,42,1*67
$GPGSV,4,3,15,09,32,109,42,14,28,177,31,11,26,282,41,20,26,228,12,1*69
$GPGSV,4,4,15,04,21,076,34,12,11,319,18,03,11,038,21,1*5B
$GPGSV,3,1,10,195,67,042,47,196,63,128,46,199,60,167,44,06,50,335,47,8*57
$GPGSV,3,2,10,194,42,171,37,09,32,109,43,14,28,177,35,11,26,282,38,8*5C
$GPGSV,3,3,10,04,21,076,34,03,11,038,32,8*64
$GLGSV,3,1,09,67,48,067,42,68,46,150,38,82,37,033,43,83,32,337,32,1*7F
$GLGSV,3,2,09,80,27,233,32,73,23,293,39,66,08,029,27,79,03,188,,1*73
$GLGSV,3,3,09,74,01,331,,1*42
$GAGSV,3,1,09,24,53,247,38,12,49,011,37,10,49,330,38,11,34,297,37,7*70
$GAGSV,3,2,09,19,30,089,35,31,30,182,35,04,25,155,23,25,24,309,27,7*76
$GAGSV,3,3,09,33,16,062,27,7*4C
$GAGSV,3,1,09,24,53,247,45,10,49,330,45,12,49,011,43,11,34,297,35,1*77
$GAGSV,3,2,09,19,30,089,38,31,30,182,36,04,25,155,33,25,24,309,21,1*79
$GAGSV,3,3,09,33,16,062,28,1*45
$GBGSV,4,1,15,40,84,116,42,07,82,254,39,10,72,294,40,14,61,089,42,1*71
$GBGSV,4,2,15,33,61,152,42,08,59,266,40,43,53,050,44,13,49,255,41,1*7D
$GBGSV,4,3,15,42,42,056,45,28,36,322,44,11,34,077,42,23,20,223,,1*7A
$GBGSV,4,4,15,34,19,094,44,41,19,197,,37,17,276,34,1*44
$GBGSV,2,1,07,40,84,116,45,33,61,152,45,43,53,050,45,42,42,056,44,4*7E
$GBGSV,2,2,07,28,36,322,43,34,19,094,42,37,17,276,27,4*4F
$GNGGA,033923.000,2500.8127343,N,12132.4383820,E,4,66,0.44,17.695,M,15.25,M,22,3335*7C
$GNRMC,033923.000,A,2500.8127343,N,12132.4383820,E,0.00,119.92,270623,,,R,V*1B
$GPHDT,93.504,T*0E
$GNGGA,033923.200,2500.8127373,N,12132.4383775,E,4,66,0.44,17.711,M,15.25,M,22,3335*7F
$GNRMC,033923.200,A,2500.8127373,N,12132.4383775,E,0.00,119.92,270623,,,R,V*15
$GPHDT,93.510,T*0B
$GNGGA,033923.400,2500.8127367,N,12132.4383796,E,4,66,0.44,17.702,M,15.25,M,22,3335*73
$GNRMC,033923.400,A,2500.8127367,N,12132.4383796,E,0.00,119.92,270623,,,R,V*1B
$GPHDT,93.772,T*0D
$GNGGA,033923.600,2500.8127402,N,12132.4383808,E,4,66,0.44,17.706,M,15.25,M,22,3335*79
$GNRMC,033923.600,A,2500.8127402,N,12132.4383808,E,0.00,119.92,270623,,,R,V*15
$GPHDT,94.289,T*0B
$GNGGA,033923.800,2500.8127365,N,12132.4383835,E,4,66,0.44,17.702,M,15.25,M,22,3335*7B
$GNRMC,033923.800,A,2500.8127365,N,12132.4383835,E,0.00,119.92,270623,,,R,V*13
$GPHDT,93.871,T*01
$GNGSA,A,3,195,19,17,196,199,06,194,09,14,11,04,12,0.82,0.44,0.69,1*09
$GNGSA,A,3,03,,,,,,,,,,,,0.82,0.44,0.69,1*07
$GNGSA,A,3,67,68,82,83,80,73,,,,,,,0.82,0.44,0.69,2*05
$GNGSA,A,3,24,10,12,11,19,31,04,25,33,,,,0.82,0.44,0.69,3*0B
$GNGSA,A,3,40,07,10,33,14,08,43,13,42,28,11,34,0.82,0.44,0.69,4*00
$GNGSA,A,3,37,,,,,,,,,,,,0.82,0.44,0.69,4*05
$GPGSV,4,1,15,195,67,042,40,19,64,013,41,17,64,068,42,196,63,128,42,1*6C
$GPGSV,4,2,15,199,60,167,34,06,50,335,42,194,42,171,34,41,38,242,41,1*63
$GPGSV,4,3,15,09,32,109,42,14,28,177,31,11,26,282,41,20,26,228,12,1*69
$GPGSV,4,4,15,04,21,076,34,12,11,319,18,03,11,038,21,1*5B
$GPGSV,3,1,10,195,67,042,47,196,63,128,46,199,60,167,44,06,50,335,47,8*57
$GPGSV,3,2,10,194,42,171,37,09,32,109,43,14,28,177,35,11,26,282,38,8*5C
$GPGSV,3,3,10,04,21,076,34,03,11,038,31,8*67
$GLGSV,2,1,08,67,48,067,42,68,46,150,38,82,37,033,43,83,32,337,32,1*7F
$GLGSV,2,2,08,80,27,233,32,73,23,293,39,66,08,029,27,79,03,188,,1*73
$GAGSV,3,1,09,24,53,247,38,10,49,330,38,12,49,011,37,11,34,297,37,7*70
$GAGSV,3,2,09,19,30,089,35,31,30,182,35,04,25,155,22,25,24,309,28,7*78
$GAGSV,3,3,09,33,16,062,27,7*4C
$GAGSV,3,1,09,24,53,247,45,10,49,330,45,12,49,011,43,11,34,297,35,1*77
$GAGSV,3,2,09,19,30,089,38,31,30,182,36,04,25,155,33,25,24,309,20,1*78
$GAGSV,3,3,09,33,16,062,28,1*45
$GBGSV,4,1,16,40,84,116,42,07,82,254,39,10,72,294,40,33,61,152,42,1*70
$GBGSV,4,2,16,14,61,089,42,08,59,266,40,43,53,050,44,13,49,255,41,1*7C
$GBGSV,4,3,16,42,42,056,45,28,36,322,44,11,34,077,42,23,20,223,,1*79
$GBGSV,4,4,16,41,19,197,,34,19,094,44,37,17,276,33,06,01,189,,1*77
$GBGSV,2,1,07,40,84,116,45,33,61,152,45,43,53,050,45,42,42,056,44,4*7E
$GBGSV,2,2,07,28,36,322,42,34,19,094,42,37,17,276,27,4*4E
$GNGGA,033924.000,2500.8127392,N,12132.4383799,E,4,66,0.44,17.711,M,15.25,M,23,3335*76
$GNRMC,033924.000,A,2500.8127392,N,12132.4383799,E,0.00,119.92,270623,,,R,V*1D
$GPHDT,94.298,T*0B
$GNGGA,033924.200,2500.8127396,N,12132.4383804,E,4,66,0.44,17.701,M,15.25,M,23,3335*7A
$GNRMC,033924.200,A,2500.8127396,N,12132.4383804,E,0.00,119.92,270623,,,R,V*10
$GPHDT,93.656,T*0A
$GNGGA,033924.400,2500.8127352,N,12132.4383836,E,4,66,0.44,17.707,M,15.25,M,23,3335*73
$GNRMC,033924.400,A,2500.8127352,N,12132.4383836,E,0.00,119.92,270623,,,R,V*1F
$GPHDT,93.791,T*00
$GNGGA,033924.600,2500.8127390,N,12132.4383820,E,4,66,0.44,17.705,M,15.25,M,23,3335*7A
$GNRMC,033924.600,A,2500.8127390,N,12132.4383820,E,0.00,119.92,270623,,,R,V*14
$GPHDT,93.934,T*01
$GNGGA,033924.800,2500.8127349,N,12132.4383839,E,4,66,0.44,17.698,M,15.25,M,23,3335*7D
$GNRMC,033924.800,A,2500.8127349,N,12132.4383839,E,0.00,119.92,270623,,,R,V*16
$GPHDT,93.760,T*0E
$GNGSA,A,3,195,19,17,196,199,06,194,09,14,11,04,12,0.82,0.44,0.69,1*09
$GNGSA,A,3,03,,,,,,,,,,,,0.82,0.44,0.69,1*07
$GNGSA,A,3,67,68,82,83,80,73,,,,,,,0.82,0.44,0.69,2*05
$GNGSA,A,3,24,12,10,11,19,31,04,25,33,,,,0.82,0.44,0.69,3*0B
$GNGSA,A,3,40,07,10,14,33,08,43,13,42,28,11,34,0.82,0.44,0.69,4*00
$GNGSA,A,3,37,,,,,,,,,,,,0.82,0.44,0.69,4*05
$GPGSV,4,1,15,195,67,042,40,19,64,013,41,17,64,068,42,196,63,128,42,1*6C
$GPGSV,4,2,15,199,60,167,34,06,50,335,42,194,42,171,34,41,38,242,41,1*63
$GPGSV,4,3,15,09,32,109,42,14,28,177,30,11,26,282,41,20,26,228,15,1*6F
$GPGSV,4,4,15,04,21,076,34,12,11,319,18,03,11,038,21,1*5B
$GPGSV,3,1,10,195,67,042,47,196,63,128,46,199,60,167,44,06,50,335,47,8*57
$GPGSV,3,2,10,194,42,171,37,09,32,109,43,14,28,177,35,11,26,282,38,8*5C
$GPGSV,3,3,10,04,21,076,34,03,11,038,31,8*67
$GLGSV,3,1,09,67,48,067,42,68,46,150,38,82,37,033,43,83,32,337,32,1*7F
$GLGSV,3,2,09,80,27,233,33,73,23,293,39,66,08,029,28,69,07,185,,1*75
$GLGSV,3,3,09,79,03,188,,1*4D
$GAGSV,3,1,09,24,53,247,38,12,49,011,37,10,49,330,38,11,34,297,37,7*70
$GAGSV,3,2,09,19,30,089,35,31,30,182,35,04,26,155,21,25,24,309,28,7*78
$GAGSV,3,3,09,33,16,062,27,7*4C
$GAGSV,3,1,09,24,53,247,45,10,49,330,45,12,49,011,43,11,34,297,34,1*76
$GAGSV,3,2,09,19,30,089,38,31,30,182,36,04,26,155,33,25,24,309,17,1*7F
$GAGSV,3,3,09,33,16,062,28,1*45
$GBGSV,4,1,15,40,84,116,42,07,82,254,38,10,72,294,40,14,61,089,42,1*70
$GBGSV,4,2,15,33,61,152,42,08,59,266,40,43,53,050,44,13,49,255,41,1*7D
$GBGSV,4,3,15,42,42,056,45,28,36,322,44,11,34,077,42,23,20,223,,1*7A
$GBGSV,4,4,15,34,19,094,44,41,19,197,,37,17,276,33,1*43
$GBGSV,2,1,07,40,84,116,45,33,61,152,45,43,53,050,45,42,42,056,44,4*7E
$GBGSV,2,2,07,28,36,322,42,34,19,094,41,37,17,276,27,4*4D
$GNGGA,033925.000,2500.8127362,N,12132.4383830,E,4,66,0.44,17.696,M,15.25,M,24,3335*7D
$GNRMC,033925.000,A,2500.8127362,N,12132.4383830,E,0.00,119.92,270623,,,R,V*1F
$GPHDT,94.071,T*0E
$GNGGA,033925.200,2500.8127373,N,12132.4383842,E,4,66,0.44,17.698,M,15.25,M,24,3335*74
$GNRMC,033925.200,A,2500.8127373,N,12132.4383842,E,0.00,119.92,270623,,,R,V*18
$GPHDT,93.930,T*05
$GNGGA,033925.400,2500.8127421,N,12132.4383808,E,4,66,0.44,17.714,M,15.25,M,24,3335*79
$GNRMC,033925.400,A,2500.8127421,N,12132.4383808,E,0.00,119.92,270623,,,R,V*10
$GPHDT,93.602,T*0B
$GNGGA,033925.600,2500.8127350,N,12132.4383868,E,4,66,0.44,17.693,M,15.25,M,24,3335*72
$GNRMC,033925.600,A,2500.8127350,N,12132.4383868,E,0.00,119.92,270623,,,R,V*15
