$FW : RTK35X,V1.1X0314AS,Lib20210517,1*54
$Tool : LOCOSYS , GNSS Firebird , v1.0.0.19*39
$---------------------------------------------------*2D
$GPHDT,270.827,T*3D
$GNGGA,033750.400,2500.8127340,N,12132.4383562,E,4,68,0.43,17.625,M,15.25,M,1,3335*49
$GNRMC,033750.400,A,2500.8127340,N,12132.4383562,E,0.00,119.92,270623,,,R,V*1D
$GPHDT,270.702,T*35
$GNGGA,033750.600,2500.8127337,N,12132.4383577,E,4,68,0.43,17.619,M,15.25,M,1,3335*40
$GNRMC,033750.600,A,2500.8127337,N,12132.4383577,E,0.00,119.92,270623,,,R,V*1B
$GPHDT,270.091,T*38
$GNGGA,033750.800,2500.8127374,N,12132.4383553,E,4,68,0.43,17.624,M,15.25,M,1,3335*41
$GNRMC,033750.800,A,2500.8127374,N,12132.4383553,E,0.00,119.92,270623,,,R,V*14
$GPHDT,270.054,T*31
$GNGSA,A,3,195,17,196,19,199,06,194,09,14,11,20,04,0.84,0.43,0.72,1*03
$GNGSA,A,3,03,,,,,,,,,,,,0.84,0.43,0.72,1*0C
$GNGSA,A,3,67,68,82,83,80,73,,,,,,,0.84,0.43,0.72,2*0E
$GNGSA,A,3,24,12,10,11,31,19,04,25,33,,,,0.84,0.43,0.72,3*00
$GNGSA,A,3,40,07,10,14,33,08,43,13,42,28,11,34,0.84,0.43,0.72,4*0B
$GNGSA,A,3,37,,,,,,,,,,,,0.84,0.43,0.72,4*0E
$GPGSV,4,1,15,195,67,042,37,17,64,066,42,196,63,129,38,19,63,012,37,1*69
$GPGSV,4,2,15,199,60,167,33,06,50,334,37,194,42,171,42,41,38,242,40,1*67
$GPGSV,4,3,15,09,31,110,44,14,29,177,41,11,26,281,40,20,26,228,17,1*65
$GPGSV,4,4,15,04,21,077,22,03,12,038,20,12,10,320,25,1*5A
$GPGSV,3,1,10,195,67,042,43,196,63,129,45,199,60,167,45,06,50,334,42,8*54
$GPGSV,3,2,10,194,42,171,45,09,31,110,44,14,29,177,43,11,26,281,37,8*59
$GPGSV,3,3,10,04,21,077,34,03,12,038,27,8*62
$GLGSV,2,1,08,67,48,068,43,68,45,151,40,82,37,032,37,83,32,336,26,1*7A
$GLGSV,2,2,08,80,28,234,27,73,23,294,38,66,09,029,29,79,03,188,,1*76
$GAGSV,3,1,09,24,53,247,39,12,49,011,28,10,49,330,38,11,34,296,36,7*7F
$GAGSV,3,2,09,31,31,182,38,19,30,090,32,04,25,155,31,25,24,310,29,7*70
$GAGSV,3,3,09,33,16,061,26,7*4E
$GAGSV,3,1,09,24,53,247,42,10,49,330,39,12,49,011,31,11,34,296,37,1*7D
$GAGSV,3,2,09,31,31,182,44,19,30,090,35,04,25,155,38,25,24,310,30,1*7B
$GAGSV,3,3,09,33,16,061,26,1*48
$GBGSV,4,1,15,40,84,112,40,07,82,256,38,10,72,295,41,14,61,091,37,1*7F
$GBGSV,4,2,15,33,60,153,43,08,59,265,38,43,53,049,43,13,49,254,43,1*7C
$GBGSV,4,3,15,42,42,057,45,28,35,321,40,11,34,076,39,23,21,224,,1*74
$GBGSV,4,4,15,34,19,094,45,41,19,197,,37,17,276,25,1*45
$GBGSV,2,1,07,40,84,112,45,33,60,153,43,43,53,049,42,42,42,057,44,4*72
$GBGSV,2,2,07,28,35,321,37,34,19,094,36,37,17,276,26,4*4E
$GNGGA,033751.000,2500.8127390,N,12132.4383567,E,4,67,0.43,17.623,M,15.25,M,2,3335*4E
$GNRMC,033751.000,A,2500.8127390,N,12132.4383567,E,0.00,119.92,270623,,,R,V*10
$GPHDT,270.144,T*31
$GNGGA,033751.200,2500.8127363,N,12132.4383530,E,4,67,0.43,17.618,M,15.25,M,2,3335*4A
$GNRMC,033751.200,A,2500.8127363,N,12132.4383530,E,0.00,119.92,270623,,,R,V*1C
$GPHDT,270.116,T*36
$GNGGA,033751.400,2500.8127373,N,12132.4383569,E,4,66,0.43,17.622,M,15.25,M,2,3335*49
$GNRMC,033751.400,A,2500.8127373,N,12132.4383569,E,0.00,119.92,270623,,,R,V*17
$GPHDT,270.416,T*33
$GNGGA,033751.600,2500.8127386,N,12132.4383550,E,4,68,0.43,17.643,M,15.25,M,2,3335*42
$GNRMC,033751.600,A,2500.8127386,N,12132.4383550,E,0.00,119.92,270623,,,R,V*15
$GPHDT,270.226,T*36
$GNGGA,033751.800,2500.8127391,N,12132.4383558,E,4,68,0.43,17.641,M,15.25,M,2,3335*40
$GNRMC,033751.800,A,2500.8127391,N,12132.4383558,E,0.00,119.92,270623,,,R,V*15
$GPHDT,270.164,T*33
$GNGSA,A,3,195,17,196,19,199,06,194,09,14,11,20,04,0.81,0.43,0.69,1*0C
$GNGSA,A,3,03,12,,,,,,,,,,,0.81,0.43,0.69,1*00
$GNGSA,A,3,67,68,82,83,80,73,,,,,,,0.81,0.43,0.69,2*01
$GNGSA,A,3,24,12,10,11,31,19,04,25,33,,,,0.81,0.43,0.69,3*0F
$GNGSA,A,3,40,07,10,14,33,08,43,13,42,28,11,34,0.81,0.43,0.69,4*04
$GNGSA,A,3,37,,,,,,,,,,,,0.81,0.43,0.69,4*01
$GPGSV,4,1,15,195,67,042,37,17,64,066,42,196,63,129,38,19,63,012,37,1*69
$GPGSV,4,2,15,199,60,167,33,06,50,334,37,194,42,171,42,41,38,242,41,1*66
$GPGSV,4,3,15,09,31,110,44,14,29,177,41,11,26,281,40,20,26,228,16,1*64
$GPGSV,4,4,15,04,21,077,23,03,12,038,20,12,10,320,25,1*5B
$GPGSV,3,1,10,195,67,042,43,196,63,129,45,199,60,167,45,06,50,334,42,8*54
$GPGSV,3,2,10,194,42,171,45,09,31,110,44,14,29,177,43,11,26,281,37,8*59
$GPGSV,3,3,10,04,21,077,31,03,12,038,28,8*68
$GLGSV,2,1,08,67,48,068,42,68,45,151,41,82,37,032,37,83,32,336,26,1*7A
$GLGSV,2,2,08,80,28,234,27,73,23,294,38,66,09,029,28,79,03,188,,1*77
$GAGSV,3,1,09,24,53,247,39,12,49,011,27,10,49,330,38,11,34,296,36,7*70
$GAGSV,3,2,09,31,31,182,38,19,30,090,32,04,25,155,31,25,24,310,31,7*79
$GAGSV,3,3,09,33,16,061,25,7*4D
$GAGSV,3,1,09,24,53,247,42,10,49,330,39,12,49,011,30,11,34,296,37,1*7C
$GAGSV,3,2,09,31,31,182,44,19,30,090,35,04,25,155,38,25,24,310,29,1*73
$GAGSV,3,3,09,33,16,061,28,1*46
$GBGSV,4,1,15,40,84,112,40,07,82,256,37,10,72,295,41,14,61,091,37,1*70
$GBGSV,4,2,15,33,60,153,43,08,59,265,38,43,53,049,43,13,49,254,43,1*7C
$GBGSV,4,3,15,42,42,057,45,28,35,321,40,11,34,076,40,23,21,224,,1*7A
$GBGSV,4,4,15,34,19,094,45,41,19,197,,37,17,276,27,1*47
$GBGSV,2,1,07,40,84,112,45,33,60,153,43,43,53,049,41,42,42,057,44,4*71
$GBGSV,2,2,07,28,35,321,36,34,19,094,36,37,17,276,27,4*4E
$GNGGA,033752.000,2500.8127350,N,12132.4383613,E,4,68,0.43,17.617,M,15.25,M,1,3335*4A
$GNRMC,033752.000,A,2500.8127350,N,12132.4383613,E,0.00,119.92,270623,,,R,V*1F
$GPHDT,270.249,T*3F
$GNGGA,033752.200,2500.8127349,N,12132.4383598,E,4,68,0.43,17.637,M,15.25,M,1,3335*42
$GNRMC,033752.200,A,2500.8127349,N,12132.4383598,E,0.00,119.92,270623,,,R,V*15
$GPHDT,270.365,T*30
$GNGGA,033752.400,2500.8127348,N,12132.4383593,E,4,68,0.43,17.624,M,15.25,M,1,3335*4C
$GNRMC,033752.400,A,2500.8127348,N,12132.4383593,E,0.00,119.92,270623,,,R,V*19
$GPHDT,270.087,T*3F
$GNGGA,033752.600,2500.8127367,N,12132.4383568,E,4,68,0.43,17.634,M,15.25,M,1,3335*46
$GNRMC,033752.600,A,2500.8127367,N,12132.4383568,E,0.00,119.92,270623,,,R,V*12
$GPHDT,270.384,T*3F
$GNGGA,033752.800,2500.8127382,N,12132.4383578,E,4,67,0.43,17.651,M,15.25,M,1,3335*4E
$GNRMC,033752.800,A,2500.8127382,N,12132.4383578,E,0.00,119.92,270623,,,R,V*16
$GPHDT,269.887,T*3F
$GNGSA,A,3,195,17,196,19,199,06,194,09,14,11,20,04,0.84,0.43,0.72,1*03
$GNGSA,A,3,03,,,,,,,,,,,,0.84,0.43,0.72,1*0C
$GNGSA,A,3,67,68,82,83,80,73,,,,,,,0.84,0.43,0.72,2*0E
$GNGSA,A,3,24,10,12,11,19,31,04,25,33,,,,0.84,0.43,0.72,3*00
$GNGSA,A,3,40,07,10,14,33,08,43,13,42,28,11,34,0.84,0.43,0.72,4*0B
$GNGSA,A,3,37,,,,,,,,,,,,0.84,0.43,0.72,4*0E
$GPGSV,4,1,15,195,67,042,37,17,64,066,42,196,63,129,38,19,63,012,38,1*66
$GPGSV,4,2,15,199,60,167,33,06,50,334,38,194,42,171,42,41,38,242,41,1*69
$GPGSV,4,3,15,09,31,110,44,14,29,177,41,11,26,281,40,20,26,228,15,1*67
$GPGSV,4,4,15,04,21,077,21,03,12,038,22,12,10,320,25,1*5B
$GPGSV,3,1,10,195,67,042,43,196,63,129,46,199,60,167,46,06,50,334,42,8*54
$GPGSV,3,2,10,194,42,171,45,09,31,110,44,14,29,177,43,11,26,281,37,8*59
$GPGSV,3,3,10,04,21,077,33,03,12,038,29,8*6B
$GLGSV,2,1,08,67,48,068,42,68,45,151,41,82,37,032,37,83,32,336,28,1*74
$GLGSV,2,2,08,80,28,234,28,73,23,294,38,66,09,029,28,79,03,188,,1*78
$GAGSV,3,1,09,24,53,247,38,10,49,330,38,12,49,011,28,11,34,296,36,7*7E
$GAGSV,3,2,09,19,30,090,31,31,30,182,38,04,25,155,31,25,24,310,31,7*7B
$GAGSV,3,3,09,33,16,061,27,7*4F
$GAGSV,3,1,09,24,53,247,42,10,49,330,40,12,49,011,30,11,34,296,37,1*72
$GAGSV,3,2,09,19,30,090,35,31,30,182,44,04,25,155,38,25,24,310,30,1*7A
$GAGSV,3,3,09,33,16,061,27,1*49
$GBGSV,4,1,15,40,84,112,40,07,82,256,37,10,72,295,41,14,61,091,37,1*70
$GBGSV,4,2,15,33,60,153,43,08,59,265,38,43,53,049,43,13,49,254,43,1*7C
$GBGSV,4,3,15,42,42,057,46,28,35,321,38,11,34,076,41,23,21,224,,1*77
$GBGSV,4,4,15,34,19,094,45,41,19,197,,37,17,276,27,1*47
$GBGSV,2,1,07,40,84,112,45,33,60,153,43,43,53,049,41,42,42,057,45,4*70
$GBGSV,2,2,07,28,35,321,35,34,19,094,36,37,17,276,27,4*4D
$GNGGA,033753.000,2500.8127403,N,12132.4383575,E,4,67,0.43,17.629,M,15.25,M,2,3335*48
$GNRMC,033753.000,A,2500.8127403,N,12132.4383575,E,0.00,119.92,270623,,,R,V*1C
$GPHDT,270.062,T*34
$GNGGA,033753.200,2500.8127428,N,12132.4383569,E,4,67,0.43,17.643,M,15.25,M,2,3335*42
$GNRMC,033753.200,A,2500.8127428,N,12132.4383569,E,0.00,119.92,270623,,,R,V*1A
$GPHDT,269.973,T*35
$GNGGA,033753.400,2500.8127383,N,12132.4383560,E,4,67,0.43,17.650,M,15.25,M,2,3335*49
$GNRMC,033753.400,A,2500.8127383,N,12132.4383560,E,0.00,119.92,270623,,,R,V*13
$GPHDT,269.881,T*39
$GNGGA,033753.600,2500.8127355,N,12132.4383571,E,4,67,0.43,17.651,M,15.25,M,2,3335*41
$GNRMC,033753.600,A,2500.8127355,N,12132.4383571,E,0.00,119.92,270623,,,R,V*1A
$GPHDT,270.111,T*31
$GNGGA,033753.800,2500.8127376,N,12132.4383565,E,4,66,0.43,17.652,M,15.25,M,2,3335*49
$GNRMC,033753.800,A,2500.8127376,N,12132.4383565,E,0.00,119.92,270623,,,R,V*10
$GPHDT,270.183,T*3A
$GNGSA,A,3,195,17,196,19,199,06,194,09,14,11,20,04,0.84,0.43,0.72,1*03
$GNGSA,A,3,03,,,,,,,,,,,,0.84,0.43,0.72,1*0C
$GNGSA,A,3,67,68,82,83,80,73,,,,,,,0.84,0.43,0.72,2*0E
$GNGSA,A,3,24,10,12,11,19,31,04,25,33,,,,0.84,0.43,0.72,3*00
$GNGSA,A,3,40,07,10,14,33,08,43,13,42,28,11,34,0.84,0.43,0.72,4*0B
$GNGSA,A,3,37,,,,,,,,,,,,0.84,0.43,0.72,4*0E
$GPGSV,4,1,15,195,67,042,37,17,64,066,42,196,63,129,38,19,63,012,39,1*67
$GPGSV,4,2,15,199,60,167,34,06,50,334,38,194,42,171,42,41,38,242,41,1*6E
$GPGSV,4,3,15,09,31,110,44,14,29,177,41,11,26,281,40,20,26,228,16,1*64
$GPGSV,4,4,15,04,21,077,23,03,12,038,22,12,10,320,,1*5E
$GPGSV,3,1,10,195,67,042,43,196,63,129,46,199,60,167,46,06,50,334,42,8*54
$GPGSV,3,2,10,194,42,171,45,09,31,110,44,14,29,177,43,11,26,281,36,8*58
$GPGSV,3,3,10,04,21,077,34,03,12,038,29,8*6C
$GLGSV,2,1,08,67,48,068,42,68,45,151,41,82,37,032,37,83,32,336,28,1*74
$GLGSV,2,2,08,80,28,234,28,73,23,294,38,66,09,029,28,79,03,188,,1*78
$GAGSV,3,1,09,24,53,247,38,10,49,330,38,12,49,011,28,11,34,296,36,7*7E
$GAGSV,3,2,09,19,30,090,32,31,30,182,38,04,25,155,33,25,24,310,31,7*7A
$GAGSV,3,3,09,33,16,061,27,7*4F
$GAGSV,3,1,09,24,53,247,43,10,49,330,40,12,49,011,31,11,34,296,37,1*72
$GAGSV,3,2,09,19,30,090,36,31,30,182,44,04,25,155,38,25,24,310,30,1*79
$GAGSV,3,3,09,33,16,061,28,1*46
$GBGSV,4,1,15,40,84,112,40,07,82,256,37,10,72,295,41,14,61,091,38,1*7F
$GBGSV,4,2,15,33,60,153,42,08,59,265,38,43,53,049,43,13,49,254,43,1*7D
$GBGSV,4,3,15,42,42,057,46,28,35,321,38,11,34,076,41,23,21,224,,1*77
$GBGSV,4,4,15,34,19,094,45,41,19,197,,37,17,276,25,1*45
$GBGSV,2,1,07,40,84,112,45,33,60,153,44,43,53,049,41,42,42,057,45,4*77
$GBGSV,2,2,07,28,35,321,37,34,19,094,36,37,17,276,28,4*40
$GNGGA,033754.000,2500.8127379,N,12132.4383603,E,4,67,0.43,17.645,M,15.25,M,3,3335*4C
$GNRMC,033754.000,A,2500.8127379,N,12132.4383603,E,0.00,119.92,270623,,,R,V*13
$GPHDT,270.257,T*30
$GNGGA,033754.200,2500.8127386,N,12132.4383588,E,4,67,0.43,17.653,M,15.25,M,3,3335*49
$GNRMC,033754.200,A,2500.8127386,N,12132.4383588,E,0.00,119.92,270623,,,R,V*11
$GPHDT,270.080,T*38
$GNGGA,033754.400,2500.8127340,N,12132.4383576,E,4,67,0.43,17.648,M,15.25,M,3,3335*4E
$GNRMC,033754.400,A,2500.8127340,N,12132.4383576,E,0.00,119.92,270623,,,R,V*1C
$GPHDT,270.392,T*38
$GNGGA,033754.600,2500.8127361,N,12132.4383616,E,4,67,0.43,17.649,M,15.25,M,3,3335*4B
$GNRMC,033754.600,A,2500.8127361,N,12132.4383616,E,0.00,119.92,270623,,,R,V*18
$GPHDT,270.322,T*33
$GNGGA,033754.800,2500.8127318,N,12132.4383609,E,4,67,0.43,17.647,M,15.25,M,3,3335*4B
$GNRMC,033754.800,A,2500.8127318,N,12132.4383609,E,0.00,119.92,270623,,,R,V*16
$GPHDT,270.554,T*34
$GNGSA,A,3,195,17,196,19,199,06,194,09,14,11,20,04,0.84,0.43,0.72,1*03
$GNGSA,A,3,03,,,,,,,,,,,,0.84,0.43,0.72,1*0C
$GNGSA,A,3,67,68,82,83,80,73,,,,,,,0.84,0.43,0.72,2*0E
$GNGSA,A,3,24,10,12,11,19,31,04,25,33,,,,0.84,0.43,0.72,3*00
$GNGSA,A,3,40,07,10,14,33,08,43,13,42,28,11,34,0.84,0.43,0.72,4*0B
$GNGSA,A,3,37,,,,,,,,,,,,0.84,0.43,0.72,4*0E
$GPGSV,4,1,15,195,67,042,38,17,64,066,42,196,63,129,37,19,63,012,40,1*69
$GPGSV,4,2,15,199,60,167,35,06,50,334,38,194,42,171,42,41,38,242,40,1*6E
$GPGSV,4,3,15,09,31,110,44,14,29,177,41,11,26,281,41,20,26,228,17,1*64
$GPGSV,4,4,15,04,21,077,17,03,12,038,22,12,10,320,26,1*5D
$GPGSV,3,1,10,195,67,042,43,196,63,129,46,199,60,167,46,06,50,334,42,8*54
$GPGSV,3,2,10,194,42,171,45,09,31,110,43,14,29,177,43,11,26,281,37,8*5E
$GPGSV,3,3,10,04,21,077,34,03,12,038,28,8*6D
$GLGSV,2,1,08,67,48,068,43,68,45,151,41,82,37,032,38,83,32,336,28,1*7A
$GLGSV,2,2,08,80,28,234,28,73,23,294,38,66,09,029,27,79,03,188,,1*77
$GAGSV,3,1,09,24,53,247,38,10,49,330,38,12,49,011,29,11,34,296,36,7*7F
$GAGSV,3,2,09,19,30,090,32,31,30,182,38,04,25,155,33,25,24,310,30,7*7B
$GAGSV,3,3,09,33,16,061,27,7*4F
$GAGSV,3,1,09,24,53,247,43,10,49,330,40,12,49,011,31,11,34,296,37,1*72
$GAGSV,3,2,09,19,30,090,36,31,30,182,44,04,25,155,38,25,24,310,30,1*79
$GAGSV,3,3,09,33,16,061,29,1*47
$GBGSV,4,1,15,40,84,112,40,07,82,256,38,10,72,295,41,14,61,091,39,1*71
$GBGSV,4,2,15,33,60,153,42,08,59,265,38,43,53,049,43,13,49,254,43,1*7D
$GBGSV,4,3,15,42,42,057,46,28,35,321,38,11,34,076,41,23,21,224,,1*77
$GBGSV,4,4,15,34,19,094,45,41,19,197,,37,17,276,25,1*45
$GBGSV,2,1,07,40,84,112,45,33,60,153,44,43,53,049,41,42,42,057,45,4*77
$GBGSV,2,2,07,28,35,321,37,34,19,094,39,37,17,276,28,4*4F
$GNGGA,033755.000,2500.8127317,N,12132.4383662,E,4,67,0.43,17.633,M,15.25,M,4,3335*44
$GNRMC,033755.000,A,2500.8127317,N,12132.4383662,E,0.00,119.92,270623,,,R,V*1D
$GPHDT,270.561,T*32
$GNGGA,033755.200,2500.8127312,N,12132.4383628,E,4,67,0.43,17.636,M,15.25,M,4,3335*48
$GNRMC,033755.200,A,2500.8127312,N,12132.4383628,E,0.00,119.92,270623,,,R,V*14
$GPHDT,270.613,T*34
$GNGGA,033755.400,2500.8127373,N,12132.4383562,E,4,67,0.43,17.652,M,15.25,M,4,3335*46
$GNRMC,033755.400,A,2500.8127373,N,12132.4383562,E,0.00,119.92,270623,,,R,V*18
$GPHDT,270.498,T*35
$GNGGA,033755.600,2500.8127327,N,12132.4383637,E,4,67,0.43,17.635,M,15.25,M,2,3335*41
$GNRMC,033755.600,A,2500.8127327,N,12132.4383637,E,0.00,119.92,270623,,,R,V*18
$GPHDT,270.401,T*35
$GNGGA,033755.800,2500.8127331,N,12132.4383631,E,4,67,0.43,17.627,M,15.25,M,2,3335*4D
$GNRMC,033755.800,A,2500.8127331,N,12132.4383631,E,0.00,119.92,270623,,,R,V*17
$GPHDT,270.426,T*30
$GNGSA,A,3,195,17,196,19,199,06,194,09,14,11,20,04,0.84,0.43,0.72,1*03
$GNGSA,A,3,03,,,,,,,,,,,,0.84,0.43,0.72,1*0C
$GNGSA,A,3,67,68,82,83,80,73,,,,,,,0.84,0.43,0.72,2*0E
$GNGSA,A,3,24,10,12,11,19,31,04,25,33,,,,0.84,0.43,0.72,3*00
$GNGSA,A,3,40,07,10,14,33,08,43,13,42,28,11,34,0.84,0.43,0.72,4*0B
$GNGSA,A,3,37,,,,,,,,,,,,0.84,0.43,0.72,4*0E
$GPGSV,4,1,15,195,67,042,38,17,64,066,43,196,63,129,36,19,63,012,40,1*69
$GPGSV,4,2,15,199,60,167,34,06,50,334,38,194,42,171,42,41,38,242,40,1*6F
$GPGSV,4,3,15,09,31,110,44,14,29,177,41,11,26,281,41,20,26,228,17,1*64
$GPGSV,4,4,15,04,21,077,14,03,12,038,22,12,10,320,,1*5A
$GPGSV,3,1,10,195,67,042,43,196,63,129,46,199,60,167,46,06,50,334,42,8*54
$GPGSV,3,2,10,194,42,171,45,09,31,110,43,14,29,177,43,11,26,281,36,8*5F
$GPGSV,3,3,10,04,21,077,34,03,12,038,29,8*6C
$GLGSV,2,1,08,67,48,068,43,68,45,151,41,82,37,032,38,83,32,336,28,1*7A
$GLGSV,2,2,08,80,28,234,30,73,23,294,38,66,09,029,28,79,03,188,,1*71
$GAGSV,3,1,09,24,53,247,38,10,49,330,38,12,49,011,29,11,34,296,36,7*7F
$GAGSV,3,2,09,19,30,090,32,31,30,182,38,04,25,155,32,25,24,310,28,7*73
$GAGSV,3,3,09,33,16,061,28,7*40
$GAGSV,3,1,09,24,53,247,43,10,49,330,40,12,49,011,30,11,34,296,37,1*73
$GAGSV,3,2,09,19,30,090,36,31,30,182,44,04,25,155,38,25,24,310,28,1*70
$GAGSV,3,3,09,33,16,061,29,1*47
$GBGSV,4,1,15,40,84,112,40,07,82,256,38,10,72,295,41,14,61,091,39,1*71
$GBGSV,4,2,15,33,60,153,42,08,59,265,39,43,53,049,42,13,49,254,43,1*7D
$GBGSV,4,3,15,42,42,057,46,28,35,321,38,11,34,076,41,23,21,224,,1*77
$GBGSV,4,4,15,34,19,094,45,41,19,197,,37,17,276,28,1*48
$GBGSV,2,1,07,40,84,112,44,33,60,153,44,43,53,049,41,42,42,057,45,4*76
$GBGSV,2,2,07,28,35,321,37,34,19,094,39,37,17,276,26,4*41
$GNGGA,033756.000,2500.8127354,N,12132.4383650,E,4,67,0.43,17.621,M,15.25,M,3,3335*45
$GNRMC,033756.000,A,2500.8127354,N,12132.4383650,E,0.00,119.92,270623,,,R,V*18
$GPHDT,270.346,T*31
$GNGGA,033756.200,2500.8127312,N,12132.4383626,E,4,67,0.43,17.638,M,15.25,M,3,3335*4C
$GNRMC,033756.200,A,2500.8127312,N,12132.4383626,E,0.00,119.92,270623,,,R,V*19
$GPHDT,270.472,T*31
$GNGGA,033756.400,2500.8127352,N,12132.4383632,E,4,67,0.43,17.633,M,15.25,M,3,3335*40
$GNRMC,033756.400,A,2500.8127352,N,12132.4383632,E,0.00,119.92,270623,,,R,V*1E
$GPHDT,270.223,T*33
$GNGGA,033756.600,2500.8127307,N,12132.4383640,E,4,67,0.43,17.632,M,15.25,M,3,3335*46
$GNRMC,033756.600,A,2500.8127307,N,12132.4383640,E,0.00,119.92,270623,,,R,V*19
$GPHDT,270.365,T*30
$GNGGA,033756.800,2500.8127287,N,12132.4383685,E,4,67,0.43,17.612,M,15.25,M,3,3335*4A
$GNRMC,033756.800,A,2500.8127287,N,12132.4383685,E,0.00,119.92,270623,,,R,V*17
$GPHDT,270.189,T*30
$GNGSA,A,3,195,17,196,19,199,06,194,09,14,11,20,04,0.84,0.43,0.72,1*03
$GNGSA,A,3,03,,,,,,,,,,,,0.84,0.43,0.72,1*0C
$GNGSA,A,3,67,68,82,83,80,73,,,,,,,0.84,0.43,0.72,2*0E
$GNGSA,A,3,24,10,12,11,19,31,04,25,33,,,,0.84,0.43,0.72,3*00
$GNGSA,A,3,40,07,10,14,33,08,43,13,42,28,11,34,0.84,0.43,0.72,4*0B
$GNGSA,A,3,37,,,,,,,,,,,,0.84,0.43,0.72,4*0E
$GPGSV,4,1,15,195,67,042,38,17,64,066,43,196,63,129,36,19,63,012,39,1*67
$GPGSV,4,2,15,199,60,167,36,06,50,334,40,194,42,171,42,41,38,242,40,1*62
$GPGSV,4,3,15,09,31,110,44,14,29,177,40,11,26,281,41,20,26,228,17,1*65
$GPGSV,4,4,15,04,21,077,14,03,12,038,19,12,10,320,,1*52
$GPGSV,3,1,10,195,67,042,43,196,63,129,46,199,60,167,46,06,50,334,42,8*54
$GPGSV,3,2,10,194,42,171,45,09,31,110,43,14,29,177,43,11,26,281,37,8*5E
$GPGSV,3,3,10,04,21,077,35,03,12,038,31,8*64
$GLGSV,2,1,08,67,48,068,42,68,45,151,39,82,37,032,38,83,32,336,28,1*74
$GLGSV,2,2,08,80,27,234,31,73,23,294,38,66,09,029,25,79,03,188,,1*72
$GAGSV,3,1,09,24,53,247,38,10,49,330,38,12,49,011,30,11,34,296,35,7*74
$GAGSV,3,2,09,19,30,090,33,31,30,182,37,04,25,155,32,25,24,310,28,7*7D
$GAGSV,3,3,09,33,16,061,27,7*4F
$GAGSV,3,1,09,24,53,247,43,10,49,330,40,12,49,011,31,11,34,296,37,1*72
$GAGSV,3,2,09,19,30,090,36,31,30,182,44,04,25,155,39,25,24,310,26,1*7F
$GAGSV,3,3,09,33,16,061,29,1*47
$GBGSV,4,1,15,40,84,112,40,07,82,256,39,10,72,295,41,14,61,091,39,1*70
$GBGSV,4,2,15,33,60,153,44,08,59,265,39,43,53,049,41,13,49,254,43,1*78
$GBGSV,4,3,15,42,42,057,46,28,35,321,38,11,34,076,41,23,21,224,,1*77
$GBGSV,4,4,15,34,19,094,45,41,19,197,,37,17,276,29,1*49
$GBGSV,2,1,07,40,84,112,44,33,60,153,44,43,53,049,41,42,42,057,45,4*76
$GBGSV,2,2,07,28,35,321,37,34,19,094,39,37,17,276,25,4*42
$GNGGA,033757.000,2500.8127322,N,12132.4383649,E,4,67,0.43,17.617,M,15.25,M,4,3335*4F
$GNRMC,033757.000,A,2500.8127322,N,12132.4383649,E,0.00,119.92,270623,,,R,V*10
$GPHDT,270.206,T*34
$GNGGA,033757.200,2500.8127304,N,12132.4383657,E,4,66,0.43,17.614,M,15.25,M,4,3335*44
$GNRMC,033757.200,A,2500.8127304,N,12132.4383657,E,0.00,119.92,270623,,,R,V*19
$GPHDT,270.524,T*33
$GNGGA,033757.400,2500.8127273,N,12132.4383667,E,4,67,0.43,17.612,M,15.25,M,4,3335*47
$GNRMC,033757.400,A,2500.8127273,N,12132.4383667,E,0.00,119.92,270623,,,R,V*1D
$GPHDT,270.560,T*33
$GNGGA,033757.600,2500.8127280,N,12132.4383664,E,4,68,0.43,17.613,M,15.25,M,4,3335*44
$GNRMC,033757.600,A,2500.8127280,N,12132.4383664,E,0.00,119.92,270623,,,R,V*10
$GPHDT,270.311,T*33
$GNGGA,033757.800,2500.8127283,N,12132.4383668,E,4,68,0.43,17.617,M,15.25,M,4,3335*41
$GNRMC,033757.800,A,2500.8127283,N,12132.4383668,E,0.00,119.92,270623,,,R,V*11
$GPHDT,270.304,T*37
$GNGSA,A,3,195,17,196,19,199,06,194,09,14,11,20,04,0.81,0.43,0.69,1*0C
$GNGSA,A,3,03,12,,,,,,,,,,,0.81,0.43,0.69,1*00
$GNGSA,A,3,67,68,82,83,80,73,,,,,,,0.81,0.43,0.69,2*01
$GNGSA,A,3,24,10,12,11,19,31,04,25,33,,,,0.81,0.43,0.69,3*0F
$GNGSA,A,3,40,07,10,14,33,08,43,13,42,28,11,34,0.81,0.43,0.69,4*04
$GNGSA,A,3,37,,,,,,,,,,,,0.81,0.43,0.69,4*01
$GPGSV,4,1,15,195,67,042,38,17,64,066,43,196,63,129,37,19,63,012,38,1*67
$GPGSV,4,2,15,199,60,167,36,06,50,334,41,194,42,171,42,41,38,242,41,1*62
$GPGSV,4,3,15,09,31,110,44,14,29,177,40,11,26,281,40,20,26,228,17,1*64
$GPGSV,4,4,15,04,21,077,19,03,12,038,20,12,10,320,27,1*50
$GPGSV,3,1,10,195,67,042,44,196,63,129,45,199,60,167,46,06,50,334,43,8*51
$GPGSV,3,2,10,194,42,171,45,09,31,110,43,14,29,177,43,11,26,281,37,8*5E
$GPGSV,3,3,10,04,21,077,35,03,12,038,32,8*67
$GLGSV,2,1,08,67,48,068,42,68,45,151,39,82,37,032,40,83,32,336,28,1*7B
$GLGSV,2,2,08,80,27,234,31,73,23,294,38,66,09,029,24,79,03,188,,1*73
$GAGSV,3,1,09,24,53,247,38,10,49,330,38,12,49,011,29,11,34,296,35,7*7C
$GAGSV,3,2,09,19,30,090,33,31,30,182,36,04,25,155,32,25,24,310,28,7*7C
$GAGSV,3,3,09,33,16,061,27,7*4F
$GAGSV,3,1,09,24,53,247,43,10,49,330,40,12,49,011,30,11,34,296,38,1*7C
$GAGSV,3,2,09,19,30,090,36,31,30,182,44,04,25,155,39,25,24,310,26,1*7F
$GAGSV,3,3,09,33,16,061,29,1*47
$GBGSV,4,1,15,40,84,112,40,07,82,256,40,10,72,295,41,14,61,091,39,1*7E
$GBGSV,4,2,15,33,60,153,44,08,59,265,39,43,53,049,41,13,49,254,43,1*78
$GBGSV,4,3,15,42,42,057,46,28,35,321,38,11,34,076,41,23,21,224,,1*77
$GBGSV,4,4,15,34,19,094,45,41,19,197,,37,17,276,30,1*41
$GBGSV,2,1,07,40,84,112,44,33,60,153,44,43,53,049,41,42,42,057,45,4*76
$GBGSV,2,2,07,28,35,321,37,34,19,094,38,37,17,276,24,4*42
$GNGGA,033758.000,2500.8127308,N,12132.4383689,E,4,68,0.43,17.593,M,15.25,M,5,3335*45
$GNRMC,033758.000,A,2500.8127308,N,12132.4383689,E,0.00,119.92,270623,,,R,V*1B
$GPHDT,270.191,T*39
$GNGGA,033758.200,2500.8127256,N,12132.4383707,E,4,68,0.43,17.596,M,15.25,M,5,3335*4F
$GNRMC,033758.200,A,2500.8127256,N,12132.4383707,E,0.00,119.92,270623,,,R,V*14
$GPHDT,270.743,T*30
$GNGGA,033758.400,2500.8127299,N,12132.4383603,E,4,68,0.43,17.595,M,15.25,M,1,3335*48
$GNRMC,033758.400,A,2500.8127299,N,12132.4383603,E,0.00,119.92,270623,,,R,V*14
$GPHDT,270.480,T*3C
$GNGGA,033758.600,2500.8127317,N,12132.4383606,E,4,68,0.43,17.603,M,15.25,M,1,3335*44
$GNRMC,033758.600,A,2500.8127317,N,12132.4383606,E,0.00,119.92,270623,,,R,V*14
$GPHDT,270.367,T*32
$GNGGA,033758.800,2500.8127368,N,12132.4383567,E,4,68,0.43,17.616,M,15.25,M,1,3335*42
$GNRMC,033758.800,A,2500.8127368,N,12132.4383567,E,0.00,119.92,270623,,,R,V*16
$GPHDT,270.287,T*3D
$GNGSA,A,3,195,17,196,19,199,06,194,09,14,11,20,04,0.84,0.43,0.72,1*03
$GNGSA,A,3,03,,,,,,,,,,,,0.84,0.43,0.72,1*0C
$GNGSA,A,3,67,68,82,83,80,73,,,,,,,0.84,0.43,0.72,2*0E
$GNGSA,A,3,24,12,10,11,19,31,04,25,33,,,,0.84,0.43,0.72,3*00
$GNGSA,A,3,40,07,10,14,33,08,43,13,42,28,11,34,0.84,0.43,0.72,4*0B
$GNGSA,A,3,37,,,,,,,,,,,,0.84,0.43,0.72,4*0E
$GPGSV,4,1,15,195,67,042,38,17,64,066,43,196,63,129,37,19,63,012,38,1*67
$GPGSV,4,2,15,199,60,167,36,06,50,334,41,194,42,171,43,41,38,242,41,1*63
$GPGSV,4,3,15,09,31,110,44,14,29,177,40,11,26,281,40,20,26,228,14,1*67
$GPGSV,4,4,15,04,21,077,21,03,12,038,21,12,10,320,24,1*59
$GPGSV,3,1,10,195,67,042,44,196,63,129,45,199,60,167,46,06,50,334,43,8*51
$GPGSV,3,2,10,194,42,171,45,09,31,110,43,14,29,177,43,11,26,281,37,8*5E
$GPGSV,3,3,10,04,21,077,35,03,12,038,32,8*67
$GLGSV,3,1,09,67,48,068,42,68,45,151,39,82,37,032,40,83,32,336,29,1*7A
$GLGSV,3,2,09,80,27,234,31,73,23,294,38,66,09,029,24,79,03,188,,1*73
$GLGSV,3,3,09,74,01,331,,1*42
$GAGSV,3,1,09,24,53,247,38,12,49,011,28,10,49,330,38,11,34,296,35,7*7D
$GAGSV,3,2,09,19,30,090,33,31,30,182,35,04,25,155,32,25,24,310,29,7*7E
$GAGSV,3,3,09,33,16,061,27,7*4F
$GAGSV,3,1,09,24,53,247,43,10,49,330,40,12,49,011,30,11,34,296,39,1*7D
$GAGSV,3,2,09,19,30,090,36,31,30,182,44,04,25,155,39,25,24,310,26,1*7F
$GAGSV,3,3,09,33,16,061,29,1*47
$GBGSV,4,1,15,40,84,112,40,07,82,256,40,10,72,295,41,14,61,091,39,1*7E
$GBGSV,4,2,15,33,60,153,44,08,59,265,40,43,53,049,41,13,49,254,42,1*77
$GBGSV,4,3,15,42,42,057,46,28,35,321,38,11,34,076,42,23,21,224,,1*74
$GBGSV,4,4,15,34,19,094,45,41,19,197,,37,17,276,30,1*41
$GBGSV,2,1,07,40,84,112,44,33,60,153,44,43,53,049,41,42,42,057,45,4*76
$GBGSV,2,2,07,28,35,321,37,34,19,094,38,37,17,276,25,4*43
$GNGGA,033759.000,2500.8127358,N,12132.4383586,E,4,67,0.43,17.613,M,15.25,M,2,3335*4E
$GNRMC,033759.000,A,2500.8127358,N,12132.4383586,E,0.00,119.92,270623,,,R,V*13
$GPHDT,270.184,T*3D
$GNGGA,033759.200,2500.8127336,N,12132.4383587,E,4,67,0.43,17.604,M,15.25,M,2,3335*43
$GNRMC,033759.200,A,2500.8127336,N,12132.4383587,E,0.00,119.92,270623,,,R,V*18
$GPHDT,270.249,T*3F
$GNGGA,033759.400,2500.8127292,N,12132.4383614,E,4,67,0.43,17.611,M,15.25,M,2,3335*47
$GNRMC,033759.400,A,2500.8127292,N,12132.4383614,E,0.00,119.92,270623,,,R,V*18
$GPHDT,270.117,T*37
$GNGGA,033759.600,2500.8127325,N,12132.4383589,E,4,67,0.43,17.605,M,15.25,M,2,3335*4A
$GNRMC,033759.600,A,2500.8127325,N,12132.4383589,E,0.00,119.92,270623,,,R,V*10
$GPHDT,270.195,T*3D
$GNGGA,033759.800,2500.8127339,N,12132.4383604,E,4,67,0.43,17.614,M,15.25,M,2,3335*4F
$GNRMC,033759.800,A,2500.8127339,N,12132.4383604,E,0.00,119.92,270623,,,R,V*15
$GPHDT,270.185,T*3C
$GNGSA,A,3,195,17,196,19,199,06,194,09,14,11,20,04,0.84,0.43,0.72,1*03
$GNGSA,A,3,03,,,,,,,,,,,,0.84,0.43,0.72,1*0C
$GNGSA,A,3,67,68,82,83,80,73,,,,,,,0.84,0.43,0.72,2*0E
$GNGSA,A,3,24,12,10,11,19,31,04,25,33,,,,0.84,0.43,0.72,3*00
$GNGSA,A,3,40,07,10,14,33,08,43,13,42,28,11,34,0.84,0.43,0.72,4*0B
$GNGSA,A,3,37,,,,,,,,,,,,0.84,0.43,0.72,4*0E
$GPGSV,4,1,15,195,67,042,38,17,64,066,43,196,63,129,38,19,63,012,38,1*68
$GPGSV,4,2,15,199,60,167,36,06,50,334,41,194,42,171,43,41,38,242,41,1*63
$GPGSV,4,3,15,09,31,110,44,14,29,177,40,11,26,281,40,20,26,228,14,1*67
$GPGSV,4,4,15,04,21,077,24,03,12,038,22,12,10,320,26,1*5D
$GPGSV,3,1,10,195,67,042,44,196,63,129,45,199,60,167,46,06,50,334,43,8*51
$GPGSV,3,2,10,194,42,171,45,09,31,110,43,14,29,177,43,11,26,281,37,8*5E
$GPGSV,3,3,10,04,21,077,35,03,12,038,32,8*67
$GLGSV,3,1,09,67,48,068,42,68,45,151,39,82,37,032,40,83,32,336,29,1*7A
$GLGSV,3,2,09,80,27,234,32,73,23,294,38,66,09,029,24,79,03,188,,1*70
$GLGSV,3,3,09,74,01,331,,1*42
$GAGSV,3,1,09,24,53,247,38,12,49,011,28,10,49,330,38,11,34,296,35,7*7D
$GAGSV,3,2,09,19,30,090,33,31,30,182,35,04,25,155,31,25,24,310,29,7*7D
$GAGSV,3,3,09,33,16,061,27,7*4F
$GAGSV,3,1,09,24,53,247,44,10,49,330,41,12,49,011,30,11,34,296,39,1*7B
$GAGSV,3,2,09,19,30,090,36,31,30,182,44,04,25,155,39,25,24,310,26,1*7F
$GAGSV,3,3,09,33,16,061,29,1*47
$GBGSV,4,1,16,40,84,112,40,07,82,255,40,10,72,295,41,14,61,091,39,1*7E
$GBGSV,4,2,16,33,60,153,44,08,59,266,40,43,53,049,41,13,49,254,42,1*77
$GBGSV,4,3,16,42,42,057,46,28,35,321,38,11,34,076,42,23,21,224,,1*77
$GBGSV,4,4,16,34,19,094,45,41,19,197,,37,17,276,30,06,01,189,,1*75
$GBGSV,2,1,07,40,84,112,45,33,60,153,44,43,53,049,41,42,42,057,45,4*77
$GBGSV,2,2,07,28,35,321,38,34,19,094,38,37,17,276,26,4*4F
$GNGGA,033800.000,2500.8127307,N,12132.4383588,E,4,67,0.43,17.615,M,15.25,M,3,3335*4E
$GNRMC,033800.000,A,2500.8127307,N,12132.4383588,E,0.00,119.92,270623,,,R,V*14
$GPHDT,270.294,T*3F
$GNGGA,033800.200,2500.8127284,N,12132.4383636,E,4,68,0.43,17.607,M,15.25,M,3,3335*4C
$GNRMC,033800.200,A,2500.8127284,N,12132.4383636,E,0.00,119.92,270623,,,R,V*1A
$GPHDT,270.335,T*35
$GNGGA,033800.400,2500.8127294,N,12132.4383609,E,4,68,0.43,17.621,M,15.25,M,3,3335*43
$GNRMC,033800.400,A,2500.8127294,N,12132.4383609,E,0.00,119.92,270623,,,R,V*11
$GPHDT,270.318,T*3A
$GNGGA,033800.600,2500.8127302,N,12132.4383641,E,4,68,0.43,17.614,M,15.25,M,3,3335*45
$GNRMC,033800.600,A,2500.8127302,N,12132.4383641,E,0.00,119.92,270623,,,R,V*11
$GPHDT,270.197,T*3F
$GNGGA,033800.800,2500.8127337,N,12132.4383597,E,4,68,0.43,17.615,M,15.25,M,3,3335*44
$GNRMC,033800.800,A,2500.8127337,N,12132.4383597,E,0.00,119.92,270623,,,R,V*11
$GPHDT,270.394,T*3E
$GNGSA,A,3,195,17,196,19,199,06,194,09,14,11,20,04,0.81,0.43,0.69,1*0C
$GNGSA,A,3,03,12,,,,,,,,,,,0.81,0.43,0.69,1*00
$GNGSA,A,3,67,68,82,83,80,73,,,,,,,0.81,0.43,0.69,2*01
$GNGSA,A,3,24,10,12,11,19,31,04,25,33,,,,0.81,0.43,0.69,3*0F
$GNGSA,A,3,40,07,10,14,33,08,43,13,42,28,11,34,0.81,0.43,0.69,4*04
$GNGSA,A,3,37,,,,,,,,,,,,0.81,0.43,0.69,4*01
$GPGSV,4,1,15,195,67,042,38,17,64,066,43,196,63,129,38,19,63,012,39,1*69
$GPGSV,4,2,15,199,60,167,36,06,50,334,41,194,42,171,43,41,38,242,42,1*60
$GPGSV,4,3,15,09,31,110,44,14,29,177,40,11,26,281,40,20,26,228,14,1*67
$GPGSV,4,4,15,04,21,077,24,03,12,038,22,12,10,320,25,1*5E
$GPGSV,3,1,10,195,67,042,44,196,63,129,45,199,60,167,46,06,50,334,43,8*51
$GPGSV,3,2,10,194,42,171,45,09,31,110,43,14,29,177,43,11,26,281,37,8*5E
$GPGSV,3,3,10,04,21,077,35,03,12,038,32,8*67
$GLGSV,2,1,08,67,48,068,42,68,45,151,39,82,37,032,40,83,32,336,29,1*7A
$GLGSV,2,2,08,80,27,234,31,73,23,294,38,66,09,029,25,79,03,188,,1*72
$GAGSV,3,1,09,24,53,247,38,10,49,330,38,12,49,011,28,11,34,296,35,7*7D
$GAGSV,3,2,09,19,30,090,33,31,30,182,35,04,25,155,31,25,24,310,29,7*7D
$GAGSV,3,3,09,33,16,061,27,7*4F
$GAGSV,3,1,09,24,53,247,44,10,49,330,41,12,49,011,30,11,34,296,39,1*7B
$GAGSV,3,2,09,19,30,090,36,31,30,182,44,04,25,155,39,25,24,310,26,1*7F
$GAGSV,3,3,09,33,16,061,27,1*49
$GBGSV,4,1,16,40,84,112,40,07,82,255,40,10,72,295,41,14,61,090,39,1*7F
$GBGSV,4,2,16,33,60,153,44,08,59,266,40,43,53,049,41,13,49,254,42,1*77
$GBGSV,4,3,16,42,42,057,46,28,35,321,38,11,34,076,42,23,21,224,,1*77
$GBGSV,4,4,16,41,19,197,,34,19,094,45,37,17,276,30,06,01,189,,1*75
$GBGSV,2,1,07,40,84,112,45,33,60,153,44,43,53,049,41,42,42,057,45,4*77
$GBGSV,2,2,07,28,35,321,38,34,19,094,38,37,17,276,26,4*4F
$GNGGA,033801.000,2500.8127312,N,12132.4383593,E,4,68,0.43,17.623,M,15.25,M,4,3335*4C
$GNRMC,033801.000,A,2500.8127312,N,12132.4383593,E,0.00,119.92,270623,,,R,V*1B
$GPHDT,270.159,T*3D
$GNGGA,033801.200,2500.8127354,N,12132.4383591,E,4,68,0.43,17.636,M,15.25,M,4,3335*4A
$GNRMC,033801.200,A,2500.8127354,N,12132.4383591,E,0.00,119.92,270623,,,R,V*19
$GPHDT,270.342,T*35
$GNGGA,033801.400,2500.8127287,N,12132.4383618,E,4,68,0.43,17.632,M,15.25,M,4,3335*45
$GNRMC,033801.400,A,2500.8127287,N,12132.4383618,E,0.00,119.92,270623,,,R,V*12
$GPHDT,270.494,T*39
$GNGGA,033801.600,2500.8127270,N,12132.4383622,E,4,67,0.44,17.623,M,15.25,M,4,3335*4E
$GNRMC,033801.600,A,2500.8127270,N,12132.4383622,E,0.00,119.92,270623,,,R,V*11
$GPHDT,270.609,T*3F
$GNGGA,033801.800,2500.8127314,N,12132.4383605,E,4,66,0.44,17.633,M,15.25,M,4,3335*46
$GNRMC,033801.800,A,2500.8127314,N,12132.4383605,E,0.00,119.92,270623,,,R,V*19
$GPHDT,270.402,T*36
