$FW : RTK35X,V1.1X0314AS,Lib20210517,1*54
$Tool : LOCOSYS , GNSS Firebird , v1.0.0.19*39
$---------------------------------------------------*2D
$GPHDT,,T*1B
$GNGGA,101745.600,2500.7915200,N,12132.4724300,E,2,36,0.75,19.86,M,15.25,M,1,3335*7E
$GNRMC,101745.600,A,2500.7915200,N,12132.4724300,E,0.14,191.91,260623,,,D,V*02
$GPHDT,,T*1B
$GNGGA,101745.800,2500.7915100,N,12132.4724300,E,2,36,0.75,19.79,M,15.25,M,1,3335*73
$GNRMC,101745.800,A,2500.7915100,N,12132.4724300,E,0.21,191.91,260623,,,D,V*09
$GPHDT,,T*1B
$GNGSA,A,3,196,24,15,195,05,13,194,29,,,,,1.26,0.75,1.02,1*34
$GNGSA,A,3,80,79,69,,,,,,,,,,1.26,0.75,1.02,2*0F
$GNGSA,A,3,15,03,,,,,,,,,,,1.26,0.75,1.02,3*00
$GNGSA,A,3,38,39,16,06,20,09,29,46,37,30,32,,1.26,0.75,1.02,4*04
$GPGSV,4,1,13,196,73,051,35,199,73,011,,24,66,171,37,15,54,010,34,1*68
$GPGSV,4,2,13,45,47,231,32,195,46,177,35,05,36,087,46,13,29,037,38,1*50
$GPGSV,4,3,13,194,20,146,28,29,17,220,26,11,04,149,,12,03,164,,1*54
$GPGSV,4,4,13,18,,,26,1*6B
$GPGSV,2,1,05,196,73,051,39,24,66,171,39,195,46,177,34,194,20,146,28,8*5A
$GPGSV,2,2,05,18,,,22,8*61
$GLGSV,1,1,04,84,43,204,17,80,31,125,39,79,26,064,41,69,25,039,35,1*78
$GAGSV,1,1,02,15,50,170,32,03,24,045,38,7*78
$GAGSV,1,1,02,15,50,170,33,03,24,045,39,1*7E
$GBGSV,3,1,12,38,73,035,34,39,72,227,35,08,64,005,19,16,62,217,34,1*70
$GBGSV,3,2,12,06,60,216,26,20,49,023,28,09,43,214,35,29,40,236,32,1*77
$GBGSV,3,3,12,46,38,148,32,37,34,075,45,30,15,181,22,32,14,074,21,1*7B
$GBGSV,2,1,07,38,73,035,44,39,72,227,32,20,49,023,39,29,40,236,28,4*71
$GBGSV,2,2,07,46,38,148,36,37,34,075,46,32,14,074,27,4*44
$GNGGA,101746.000,2500.7915100,N,12132.4724400,E,2,36,0.75,19.81,M,15.25,M,2,3335*7B
$GNRMC,101746.000,A,2500.7915100,N,12132.4724400,E,0.12,191.91,260623,,,D,V*05
$GPHDT,,T*1B
$GNGGA,101746.200,2500.7915100,N,12132.4724400,E,2,36,0.75,19.79,M,15.25,M,2,3335*7E
$GNRMC,101746.200,A,2500.7915100,N,12132.4724400,E,0.05,191.91,260623,,,D,V*01
$GPHDT,,T*1B
$GNGGA,101746.400,2500.7915000,N,12132.4724500,E,2,36,0.75,19.78,M,15.25,M,2,3335*79
$GNRMC,101746.400,A,2500.7915000,N,12132.4724500,E,0.08,191.91,260623,,,D,V*0A
$GPHDT,,T*1B
$GNGGA,101746.600,2500.7915000,N,12132.4724500,E,2,37,0.75,19.73,M,15.25,M,2,3335*71
$GNRMC,101746.600,A,2500.7915000,N,12132.4724500,E,0.10,191.91,260623,,,D,V*01
$GPHDT,,T*1B
$GNGGA,101746.800,2500.7914900,N,12132.4724500,E,2,37,0.75,19.70,M,15.25,M,2,3335*74
$GNRMC,101746.800,A,2500.7914900,N,12132.4724500,E,0.22,191.91,260623,,,D,V*06
$GPHDT,,T*1B
$GNGSA,A,3,196,24,15,195,05,13,194,29,,,,,1.26,0.75,1.02,1*34
$GNGSA,A,3,84,80,79,69,,,,,,,,,1.26,0.75,1.02,2*03
$GNGSA,A,3,15,03,,,,,,,,,,,1.26,0.75,1.02,3*00
$GNGSA,A,3,38,39,16,06,20,09,29,46,37,30,32,,1.26,0.75,1.02,4*04
$GPGSV,4,1,13,196,73,051,35,199,73,011,,24,66,171,37,15,54,010,34,1*68
$GPGSV,4,2,13,45,47,231,32,195,46,177,34,05,36,087,46,13,29,037,38,1*51
$GPGSV,4,3,13,194,20,146,28,29,17,220,26,11,04,149,,12,03,164,,1*54
$GPGSV,4,4,13,18,,,26,1*6B
$GPGSV,2,1,05,196,73,051,39,24,66,171,40,195,46,177,33,194,20,146,28,8*53
$GPGSV,2,2,05,18,,,23,8*60
$GLGSV,1,1,04,84,43,204,18,80,31,125,40,79,26,064,40,69,25,039,37,1*7A
$GAGSV,1,1,02,15,50,170,32,03,24,045,39,7*79
$GAGSV,1,1,02,15,50,170,32,03,24,045,39,1*7F
$GBGSV,3,1,12,38,73,035,32,39,72,227,34,08,64,005,19,16,62,217,34,1*77
$GBGSV,3,2,12,06,60,216,26,20,49,023,25,09,43,214,36,29,40,236,33,1*78
$GBGSV,3,3,12,46,38,148,32,37,34,075,45,30,15,181,24,32,14,074,23,1*7F
$GBGSV,2,1,07,38,73,035,44,39,72,227,31,20,49,023,39,29,40,236,29,4*73
$GBGSV,2,2,07,46,38,148,36,37,34,075,46,32,14,074,29,4*4A
$GNGGA,101747.000,2500.7914900,N,12132.4724600,E,2,37,0.75,19.69,M,15.25,M,3,3335*77
$GNRMC,101747.000,A,2500.7914900,N,12132.4724600,E,0.16,191.91,260623,,,D,V*0B
$GPHDT,,T*1B
$GNGGA,101747.200,2500.7914800,N,12132.4724700,E,2,37,0.75,19.68,M,15.25,M,3,3335*74
$GNRMC,101747.200,A,2500.7914800,N,12132.4724700,E,0.08,191.91,260623,,,D,V*06
$GPHDT,,T*1B
$GNGGA,101747.400,2500.7914800,N,12132.4724700,E,2,36,0.75,19.67,M,15.25,M,3,3335*7C
$GNRMC,101747.400,A,2500.7914800,N,12132.4724700,E,0.07,191.91,260623,,,D,V*0F
$GPHDT,,T*1B
$GNGGA,101747.600,2500.7914800,N,12132.4724700,E,2,36,0.75,19.64,M,15.25,M,3,3335*7D
$GNRMC,101747.600,A,2500.7914800,N,12132.4724700,E,0.09,191.91,260623,,,D,V*03
$GPHDT,,T*1B
$GNGGA,101747.800,2500.7914700,N,12132.4724900,E,2,36,0.75,19.60,M,15.25,M,3,3335*76
$GNRMC,101747.800,A,2500.7914700,N,12132.4724900,E,0.11,191.91,260623,,,D,V*05
$GPHDT,,T*1B
$GNGSA,A,3,196,24,15,195,05,13,194,29,,,,,1.26,0.75,1.02,1*34
$GNGSA,A,3,84,80,79,69,,,,,,,,,1.26,0.75,1.02,2*03
$GNGSA,A,3,15,03,,,,,,,,,,,1.26,0.75,1.02,3*00
$GNGSA,A,3,38,39,16,06,09,29,46,37,30,20,32,,1.26,0.75,1.02,4*04
$GPGSV,4,1,13,196,73,051,35,199,73,011,,24,66,171,37,15,54,010,34,1*68
$GPGSV,4,2,13,45,47,231,32,195,46,177,34,05,36,087,46,13,29,037,38,1*51
$GPGSV,4,3,13,194,20,146,29,29,17,220,26,11,04,149,,12,03,164,,1*55
$GPGSV,4,4,13,18,,,25,1*68
$GPGSV,2,1,05,196,73,051,39,24,66,171,40,195,46,177,31,194,20,146,28,8*51
$GPGSV,2,2,05,18,,,23,8*60
$GLGSV,1,1,04,84,43,204,17,80,31,125,40,79,26,064,40,69,25,039,38,1*7A
$GAGSV,1,1,02,15,50,170,32,03,24,045,39,7*79
$GAGSV,1,1,02,15,50,170,31,03,24,045,39,1*7C
$GBGSV,3,1,12,38,73,035,32,39,72,227,34,08,64,005,19,16,62,217,34,1*77
$GBGSV,3,2,12,06,60,216,26,20,49,023,22,09,43,214,36,29,40,236,33,1*7F
$GBGSV,3,3,12,46,38,148,32,37,34,075,45,30,15,181,24,32,14,074,23,1*7F
$GBGSV,2,1,07,38,73,035,44,39,72,227,29,20,49,023,39,29,40,236,26,4*75
$GBGSV,2,2,07,46,38,148,35,37,34,075,46,32,14,074,29,4*49
$GNGGA,101748.000,2500.7914700,N,12132.4724900,E,2,36,0.75,19.60,M,15.25,M,4,3335*76
$GNRMC,101748.000,A,2500.7914700,N,12132.4724900,E,0.10,191.91,260623,,,D,V*03
$GPHDT,,T*1B
$GNGGA,101748.200,2500.7914700,N,12132.4724900,E,2,36,0.75,19.59,M,15.25,M,4,3335*7E
$GNRMC,101748.200,A,2500.7914700,N,12132.4724900,E,0.08,191.91,260623,,,D,V*08
$GPHDT,,T*1B
$GNGGA,101748.400,2500.7914700,N,12132.4725000,E,2,36,0.75,19.57,M,15.25,M,1,3335*7B
$GNRMC,101748.400,A,2500.7914700,N,12132.4725000,E,0.08,191.91,260623,,,D,V*06
$GPHDT,,T*1B
$GNGGA,101748.600,2500.7914700,N,12132.4725000,E,2,36,0.75,19.55,M,15.25,M,0,3335*7A
$GNRMC,101748.600,A,2500.7914700,N,12132.4725000,E,0.09,191.91,260623,,,D,V*05
$GPHDT,,T*1B
$GNGGA,101748.800,2500.7914700,N,12132.4725100,E,2,36,0.75,19.51,M,15.25,M,0,3335*71
$GNRMC,101748.800,A,2500.7914700,N,12132.4725100,E,0.10,191.91,260623,,,D,V*02
$GPHDT,,T*1B
$GNGSA,A,3,196,24,15,195,05,13,194,29,,,,,1.26,0.75,1.02,1*34
$GNGSA,A,3,84,80,79,69,,,,,,,,,1.26,0.75,1.02,2*03
$GNGSA,A,3,15,03,,,,,,,,,,,1.26,0.75,1.02,3*00
$GNGSA,A,3,38,39,16,06,09,29,46,37,30,20,32,,1.26,0.75,1.02,4*04
$GPGSV,4,1,13,196,73,051,35,199,73,011,,24,66,171,37,15,54,010,34,1*68
$GPGSV,4,2,13,45,47,231,31,195,46,177,33,05,36,087,46,13,29,037,38,1*55
$GPGSV,4,3,13,194,20,146,29,29,17,220,26,11,04,149,,12,03,164,,1*55
$GPGSV,4,4,13,18,,,24,1*69
$GPGSV,2,1,05,196,73,051,39,24,66,171,40,195,46,177,31,194,20,146,28,8*51
$GPGSV,2,2,05,18,,,23,8*60
$GLGSV,1,1,04,84,43,204,17,80,31,125,40,79,26,064,40,69,25,039,38,1*7A
$GAGSV,1,1,02,15,50,170,32,03,24,045,39,7*79
$GAGSV,1,1,02,15,50,170,33,03,24,045,39,1*7E
$GBGSV,3,1,12,38,73,035,32,39,72,227,35,08,64,005,19,16,62,217,34,1*76
$GBGSV,3,2,12,06,60,216,26,20,49,023,,09,43,214,36,29,40,236,34,1*78
$GBGSV,3,3,12,46,38,148,32,37,34,075,45,30,15,181,24,32,14,074,23,1*7F
$GBGSV,2,1,07,38,73,035,44,39,72,227,31,20,49,023,39,29,40,236,28,4*72
$GBGSV,2,2,07,46,38,148,35,37,34,075,46,32,14,074,28,4*48
$GNGGA,101749.000,2500.7914600,N,12132.4725200,E,2,36,0.75,19.50,M,15.25,M,1,3335*7A
$GNRMC,101749.000,A,2500.7914600,N,12132.4725200,E,0.09,191.91,260623,,,D,V*01
$GPHDT,,T*1B
$GNGGA,101749.200,2500.7914600,N,12132.4725200,E,2,37,0.75,19.49,M,15.25,M,1,3335*71
$GNRMC,101749.200,A,2500.7914600,N,12132.4725200,E,0.08,191.91,260623,,,D,V*02
$GPHDT,,T*1B
$GNGGA,101749.400,2500.7914600,N,12132.4725300,E,2,37,0.75,19.47,M,15.25,M,1,3335*78
$GNRMC,101749.400,A,2500.7914600,N,12132.4725300,E,0.07,191.91,260623,,,D,V*0A
$GPHDT,,T*1B
$GNGGA,101749.600,2500.7914600,N,12132.4725300,E,2,37,0.75,19.44,M,15.25,M,1,3335*79
$GNRMC,101749.600,A,2500.7914600,N,12132.4725300,E,0.08,191.91,260623,,,D,V*07
$GPHDT,,T*1B
$GNGGA,101749.800,2500.7914600,N,12132.4725300,E,2,37,0.75,19.42,M,15.25,M,1,3335*71
$GNRMC,101749.800,A,2500.7914600,N,12132.4725300,E,0.23,191.91,260623,,,D,V*00
$GPHDT,,T*1B
$GNGSA,A,3,196,24,15,195,05,13,194,29,,,,,1.26,0.75,1.02,1*34
$GNGSA,A,3,84,80,79,69,,,,,,,,,1.26,0.75,1.02,2*03
$GNGSA,A,3,15,03,,,,,,,,,,,1.26,0.75,1.02,3*00
$GNGSA,A,3,38,39,16,06,09,29,46,37,30,20,32,,1.26,0.75,1.02,4*04
$GPGSV,4,1,13,196,73,051,35,199,73,011,,24,66,171,37,15,54,010,34,1*68
$GPGSV,4,2,13,45,47,231,31,195,46,177,33,05,36,087,46,13,29,037,37,1*5A
$GPGSV,4,3,13,194,20,146,29,29,17,220,26,11,04,149,,12,03,164,,1*55
$GPGSV,4,4,13,18,,,23,1*6E
$GPGSV,2,1,05,196,73,051,39,24,66,171,40,195,46,177,31,194,20,146,29,8*50
$GPGSV,2,2,05,18,,,23,8*60
$GLGSV,1,1,04,84,43,204,19,80,31,125,40,79,26,064,40,69,25,039,39,1*75
$GAGSV,1,1,02,15,50,170,32,03,24,045,39,7*79
$GAGSV,1,1,02,15,50,170,33,03,24,045,39,1*7E
$GBGSV,3,1,12,38,73,035,33,39,72,227,35,08,64,005,18,16,62,217,34,1*76
$GBGSV,3,2,12,06,60,216,26,20,49,023,,09,43,214,36,29,40,236,34,1*78
$GBGSV,3,3,12,46,38,148,32,37,34,075,45,30,15,181,24,32,14,074,22,1*7E
$GBGSV,2,1,08,38,73,035,44,39,72,227,32,20,49,023,39,29,40,236,29,4*7F
$GBGSV,2,2,08,46,38,148,36,37,34,075,46,30,15,181,19,32,14,074,28,4*73
$GNGGA,101750.000,2500.7914600,N,12132.4725500,E,2,37,0.75,19.40,M,15.25,M,2,3335*76
$GNRMC,101750.000,A,2500.7914600,N,12132.4725500,E,0.12,191.91,260623,,,D,V*04
$GPHDT,,T*1B
$GNGGA,101750.200,2500.7914600,N,12132.4725500,E,2,37,0.75,19.39,M,15.25,M,2,3335*7A
$GNRMC,101750.200,A,2500.7914600,N,12132.4725500,E,0.06,191.91,260623,,,D,V*03
$GPHDT,,T*1B
$GNGGA,101750.400,2500.7914600,N,12132.4725500,E,2,37,0.75,19.38,M,15.25,M,2,3335*7D
$GNRMC,101750.400,A,2500.7914600,N,12132.4725500,E,0.06,191.91,260623,,,D,V*05
$GPHDT,,T*1B
$GNGGA,101750.600,2500.7914600,N,12132.4725600,E,2,37,0.75,19.35,M,15.25,M,2,3335*71
$GNRMC,101750.600,A,2500.7914600,N,12132.4725600,E,0.07,191.91,260623,,,D,V*05
$GPHDT,,T*1B
$GNGGA,101750.800,2500.7914600,N,12132.4725700,E,2,37,0.75,19.33,M,15.25,M,2,3335*78
$GNRMC,101750.800,A,2500.7914600,N,12132.4725700,E,0.09,191.91,260623,,,D,V*04
$GPHDT,,T*1B
$GNGSA,A,3,196,24,15,195,05,13,194,29,,,,,1.26,0.75,1.02,1*34
$GNGSA,A,3,84,80,79,69,,,,,,,,,1.26,0.75,1.02,2*03
$GNGSA,A,3,15,03,,,,,,,,,,,1.26,0.75,1.02,3*00
$GNGSA,A,3,38,39,16,06,09,29,46,37,30,20,32,,1.26,0.75,1.02,4*04
$GPGSV,4,1,13,196,73,051,35,199,73,011,,24,66,171,37,15,54,010,34,1*68
$GPGSV,4,2,13,45,47,231,31,195,46,177,33,05,36,087,46,13,29,037,36,1*5B
$GPGSV,4,3,13,194,20,146,30,29,17,220,27,11,04,149,,12,03,164,,1*5C
$GPGSV,4,4,13,18,,,23,1*6E
$GPGSV,2,1,05,196,73,051,39,24,66,171,40,195,46,177,31,194,20,146,29,8*50
$GPGSV,2,2,05,18,,,21,8*62
$GLGSV,1,1,04,84,43,204,19,80,31,125,40,79,26,064,40,69,25,039,39,1*75
$GAGSV,1,1,02,15,50,170,33,03,24,045,39,7*78
$GAGSV,1,1,02,15,50,170,33,03,24,045,39,1*7E
$GBGSV,3,1,12,38,73,035,33,39,72,227,36,08,64,005,18,16,62,217,33,1*72
$GBGSV,3,2,12,06,60,216,27,20,49,023,,09,43,214,36,29,40,236,34,1*79
$GBGSV,3,3,12,46,38,148,31,37,34,075,45,30,15,181,24,32,14,074,22,1*7D
$GBGSV,2,1,08,38,73,035,44,39,72,227,32,20,49,023,39,29,40,236,28,4*7E
$GBGSV,2,2,08,46,38,148,35,37,34,075,46,30,15,181,17,32,14,074,26,4*70
$GNGGA,101751.000,2500.7914600,N,12132.4725800,E,2,37,0.75,19.32,M,15.25,M,3,3335*7E
$GNRMC,101751.000,A,2500.7914600,N,12132.4725800,E,0.08,191.91,260623,,,D,V*03
$GPHDT,,T*1B
$GNGGA,101751.200,2500.7914600,N,12132.4725800,E,2,37,0.75,19.31,M,15.25,M,3,3335*7F
$GNRMC,101751.200,A,2500.7914600,N,12132.4725800,E,0.06,191.91,260623,,,D,V*0F
$GPHDT,,T*1B
$GNGGA,101751.400,2500.7914600,N,12132.4725800,E,2,37,0.75,19.29,M,15.25,M,1,3335*72
$GNRMC,101751.400,A,2500.7914600,N,12132.4725800,E,0.05,191.91,260623,,,D,V*0A
$GPHDT,,T*1B
$GNGGA,101751.600,2500.7914600,N,12132.4725900,E,2,36,0.75,19.27,M,15.25,M,0,3335*7F
$GNRMC,101751.600,A,2500.7914600,N,12132.4725900,E,0.07,191.91,260623,,,D,V*0B
$GPHDT,,T*1B
$GNGGA,101751.800,2500.7914600,N,12132.4726000,E,2,36,0.75,19.23,M,15.25,M,0,3335*7F
$GNRMC,101751.800,A,2500.7914600,N,12132.4726000,E,0.09,191.91,260623,,,D,V*01
$GPHDT,,T*1B
$GNGSA,A,3,196,24,15,195,05,13,194,29,,,,,1.26,0.75,1.02,1*34
$GNGSA,A,3,84,80,79,69,,,,,,,,,1.26,0.75,1.02,2*03
$GNGSA,A,3,15,03,,,,,,,,,,,1.26,0.75,1.02,3*00
$GNGSA,A,3,38,39,16,06,09,29,46,37,20,30,32,,1.26,0.75,1.02,4*04
$GPGSV,4,1,13,196,73,051,35,199,73,011,,24,66,171,37,15,54,010,34,1*68
$GPGSV,4,2,13,45,47,231,31,195,46,177,33,05,36,087,46,13,29,037,35,1*58
$GPGSV,4,3,13,194,20,146,30,29,17,220,26,11,04,149,,12,03,164,,1*5D
$GPGSV,4,4,13,18,,,23,1*6E
$GPGSV,2,1,05,196,73,051,40,24,66,171,40,195,46,177,32,194,20,146,29,8*5D
$GPGSV,2,2,05,18,,,24,8*67
$GLGSV,2,1,06,85,45,298,,84,43,204,19,70,36,325,,80,31,125,40,1*79
$GLGSV,2,2,06,79,26,064,40,69,25,039,39,1*7A
$GAGSV,1,1,02,15,50,170,33,03,24,045,39,7*78
$GAGSV,1,1,02,15,50,170,34,03,24,045,40,1*77
$GBGSV,3,1,12,38,73,035,33,39,72,227,36,08,64,005,18,16,62,217,33,1*72
$GBGSV,3,2,12,06,60,216,27,20,49,023,,09,43,214,36,29,40,236,34,1*79
$GBGSV,3,3,12,46,38,148,31,37,34,075,45,30,15,181,21,32,14,074,23,1*79
$GBGSV,2,1,08,38,73,035,44,39,72,227,32,20,49,023,38,29,40,236,28,4*7F
$GBGSV,2,2,08,46,38,148,35,37,34,075,46,30,15,181,17,32,14,074,26,4*70
$GNGGA,101752.000,2500.7914700,N,12132.4726000,E,2,36,0.75,19.22,M,15.25,M,1,3335*75
$GNRMC,101752.000,A,2500.7914700,N,12132.4726000,E,0.07,191.91,260623,,,D,V*05
$GPHDT,,T*1B
$GNGGA,101752.200,2500.7914700,N,12132.4726100,E,2,36,0.75,19.21,M,15.25,M,1,3335*75
$GNRMC,101752.200,A,2500.7914700,N,12132.4726100,E,0.06,191.91,260623,,,D,V*07
$GPHDT,,T*1B
$GNGGA,101752.400,2500.7914700,N,12132.4726100,E,2,37,0.75,19.19,M,15.25,M,1,3335*79
$GNRMC,101752.400,A,2500.7914700,N,12132.4726100,E,0.05,191.91,260623,,,D,V*02
$GPHDT,,T*1B
$GNGGA,101752.600,2500.7914700,N,12132.4726200,E,2,37,0.75,19.17,M,15.25,M,1,3335*76
$GNRMC,101752.600,A,2500.7914700,N,12132.4726200,E,0.06,191.91,260623,,,D,V*00
$GPHDT,,T*1B
$GNGGA,101752.800,2500.7914700,N,12132.4726300,E,2,37,0.75,19.14,M,15.25,M,0,3335*7B
$GNRMC,101752.800,A,2500.7914700,N,12132.4726300,E,0.09,191.91,260623,,,D,V*00
$GPHDT,,T*1B
$GNGSA,A,3,196,24,15,195,05,13,194,29,,,,,1.26,0.75,1.02,1*34
$GNGSA,A,3,84,80,79,69,,,,,,,,,1.26,0.75,1.02,2*03
$GNGSA,A,3,15,03,,,,,,,,,,,1.26,0.75,1.02,3*00
$GNGSA,A,3,38,39,16,06,09,29,46,37,20,30,32,,1.26,0.75,1.02,4*04
$GPGSV,4,1,13,196,73,051,35,199,73,011,,24,66,171,37,15,54,010,34,1*68
$GPGSV,4,2,13,45,47,231,30,195,46,177,34,05,36,087,46,13,29,037,35,1*5E
$GPGSV,4,3,13,194,20,146,30,29,17,220,26,11,04,149,,12,03,164,,1*5D
$GPGSV,4,4,13,18,,,23,1*6E
$GPGSV,2,1,05,196,73,051,39,24,66,171,40,195,46,177,34,194,20,146,29,8*55
$GPGSV,2,2,05,18,,,23,8*60
$GLGSV,2,1,05,84,43,204,19,70,36,325,,80,31,125,40,79,26,064,40,1*79
$GLGSV,2,2,05,69,25,039,38,1*44
$GAGSV,1,1,02,15,50,170,33,03,24,045,39,7*78
$GAGSV,1,1,02,15,50,170,34,03,24,045,40,1*77
$GBGSV,3,1,12,38,73,035,33,39,72,227,36,08,64,005,18,16,62,217,33,1*72
$GBGSV,3,2,12,06,60,216,25,20,49,023,,09,43,214,36,29,40,236,34,1*7B
$GBGSV,3,3,12,46,38,148,28,37,34,075,45,30,15,181,19,32,14,074,24,1*7D
$GBGSV,2,1,08,38,73,035,44,39,72,227,32,20,49,023,39,29,40,236,28,4*7E
$GBGSV,2,2,08,46,38,148,35,37,34,075,46,30,15,181,16,32,14,074,26,4*71
$GNGGA,101753.000,2500.7914700,N,12132.4726400,E,2,36,0.75,19.13,M,15.25,M,1,3335*72
$GNRMC,101753.000,A,2500.7914700,N,12132.4726400,E,0.07,191.91,260623,,,D,V*00
$GPHDT,,T*1B
$GNGGA,101753.200,2500.7914700,N,12132.4726400,E,2,36,0.75,19.12,M,15.25,M,1,3335*71
$GNRMC,101753.200,A,2500.7914700,N,12132.4726400,E,0.06,191.91,260623,,,D,V*03
$GPHDT,,T*1B
$GNGGA,101753.400,2500.7914700,N,12132.4726400,E,2,36,0.75,19.10,M,15.25,M,1,3335*75
$GNRMC,101753.400,A,2500.7914700,N,12132.4726400,E,0.06,191.91,260623,,,D,V*05
$GPHDT,,T*1B
$GNGGA,101753.600,2500.7914700,N,12132.4726500,E,2,36,0.75,19.08,M,15.25,M,0,3335*7E
$GNRMC,101753.600,A,2500.7914700,N,12132.4726500,E,0.06,191.91,260623,,,D,V*06
$GPHDT,,T*1B
$GNGGA,101753.800,2500.7914700,N,12132.4726600,E,2,36,0.75,19.05,M,15.25,M,0,3335*7E
$GNRMC,101753.800,A,2500.7914700,N,12132.4726600,E,0.08,191.91,260623,,,D,V*05
$GPHDT,,T*1B
$GNGSA,A,3,196,24,15,195,05,13,194,29,,,,,1.26,0.75,1.02,1*34
$GNGSA,A,3,84,80,79,69,,,,,,,,,1.26,0.75,1.02,2*03
$GNGSA,A,3,15,03,,,,,,,,,,,1.26,0.75,1.02,3*00
$GNGSA,A,3,38,39,16,06,09,29,46,37,20,30,32,,1.26,0.75,1.02,4*04
$GPGSV,4,1,13,196,73,051,34,199,73,011,,24,66,171,37,15,54,010,34,1*69
$GPGSV,4,2,13,45,47,231,30,195,46,177,34,05,36,087,46,13,29,037,37,1*5C
$GPGSV,4,3,13,194,20,146,30,29,17,220,26,11,04,149,,12,03,164,,1*5D
$GPGSV,4,4,13,18,,,23,1*6E
$GPGSV,2,1,05,196,73,051,40,24,66,171,40,195,46,177,34,194,20,146,29,8*5B
$GPGSV,2,2,05,18,,,21,8*62
$GLGSV,1,1,04,84,43,204,19,80,31,125,40,79,26,064,40,69,25,039,38,1*74
$GAGSV,1,1,03,15,50,170,32,03,24,045,39,26,15,323,,7*4A
$GAGSV,1,1,02,15,50,170,34,03,24,045,40,1*77
$GBGSV,3,1,12,38,73,035,34,39,72,227,36,08,64,005,16,16,62,217,33,1*7B
$GBGSV,3,2,12,06,60,216,25,20,49,023,,09,43,214,36,29,40,236,33,1*7C
$GBGSV,3,3,12,46,38,148,26,37,34,075,45,30,15,181,17,32,14,074,25,1*7C
$GBGSV,2,1,08,38,73,035,44,39,72,227,32,20,49,023,39,29,40,236,28,4*7E
$GBGSV,2,2,08,46,38,148,35,37,34,075,46,30,15,181,17,32,14,074,25,4*73
$GNGGA,101754.000,2500.7914700,N,12132.4726600,E,2,36,0.75,19.04,M,15.25,M,1,3335*71
$GNRMC,101754.000,A,2500.7914700,N,12132.4726600,E,0.07,191.91,260623,,,D,V*05
$GPHDT,,T*1B
$GNGGA,101754.200,2500.7914700,N,12132.4726700,E,2,36,0.75,19.03,M,15.25,M,1,3335*75
$GNRMC,101754.200,A,2500.7914700,N,12132.4726700,E,0.06,191.91,260623,,,D,V*07
$GPHDT,,T*1B
$GNGGA,101754.400,2500.7914700,N,12132.4726700,E,2,36,0.75,19.01,M,15.25,M,1,3335*71
$GNRMC,101754.400,A,2500.7914700,N,12132.4726700,E,0.06,191.91,260623,,,D,V*01
$GPHDT,,T*1B
$GNGGA,101754.600,2500.7914700,N,12132.4726800,E,2,36,0.75,18.98,M,15.25,M,1,3335*7D
$GNRMC,101754.600,A,2500.7914700,N,12132.4726800,E,0.07,191.91,260623,,,D,V*0D
$GPHDT,,T*1B
$GNGGA,101754.800,2500.7914700,N,12132.4726800,E,2,36,0.75,18.97,M,15.25,M,1,3335*7C
$GNRMC,101754.800,A,2500.7914700,N,12132.4726800,E,0.01,191.91,260623,,,D,V*05
$GPHDT,,T*1B
$GNGSA,A,3,196,24,15,195,05,13,194,29,,,,,1.26,0.75,1.02,1*34
$GNGSA,A,3,84,80,79,69,,,,,,,,,1.26,0.75,1.02,2*03
$GNGSA,A,3,15,03,,,,,,,,,,,1.26,0.75,1.02,3*00
$GNGSA,A,3,38,39,16,06,09,29,46,37,20,30,32,,1.26,0.75,1.02,4*04
$GPGSV,4,1,13,196,73,051,34,199,73,011,,24,66,171,37,15,54,010,34,1*69
$GPGSV,4,2,13,45,47,231,31,195,46,177,35,05,36,087,47,13,29,037,37,1*5D
$GPGSV,4,3,13,194,20,146,30,29,17,220,27,11,04,149,,12,03,164,,1*5C
$GPGSV,4,4,13,18,,,22,1*6F
$GPGSV,2,1,05,196,73,051,40,24,66,171,40,195,46,177,35,194,20,146,29,8*5A
$GPGSV,2,2,05,18,,,23,8*60
$GLGSV,2,1,05,84,43,204,19,80,32,125,40,79,26,064,38,69,25,039,37,1*75
$GLGSV,2,2,05,71,10,280,,1*40
$GAGSV,1,1,03,15,50,170,33,03,24,045,39,26,15,323,,7*4B
$GAGSV,1,1,02,15,50,170,36,03,24,045,40,1*75
$GBGSV,3,1,12,38,73,035,34,39,72,227,36,08,64,005,16,16,62,217,32,1*7A
$GBGSV,3,2,12,06,60,216,26,20,49,023,,09,43,214,36,29,40,236,32,1*7E
$GBGSV,3,3,12,46,38,148,24,37,34,075,45,30,15,181,18,32,14,074,23,1*77
$GBGSV,2,1,08,38,73,035,44,39,72,227,32,20,49,023,39,29,40,236,26,4*70
$GBGSV,2,2,08,46,38,148,38,37,34,075,46,30,15,181,18,32,14,074,26,4*72
$GNGGA,101755.000,2500.7914700,N,12132.4726800,E,2,36,0.75,18.94,M,15.25,M,2,3335*75
$GNRMC,101755.000,A,2500.7914700,N,12132.4726800,E,0.06,191.91,260623,,,D,V*0B
$GPHDT,,T*1B
$GNGGA,101755.200,2500.7914700,N,12132.4726800,E,2,36,0.75,18.92,M,15.25,M,2,3335*71
$GNRMC,101755.200,A,2500.7914700,N,12132.4726800,E,0.06,191.91,260623,,,D,V*09
$GPHDT,,T*1B
$GNGGA,101755.400,2500.7914700,N,12132.4726800,E,2,36,0.75,18.89,M,15.25,M,2,3335*7D
$GNRMC,101755.400,A,2500.7914700,N,12132.4726800,E,0.06,191.91,260623,,,D,V*0F
$GPHDT,,T*1B
$GNGGA,101755.600,2500.7914700,N,12132.4726800,E,2,36,0.75,18.86,M,15.25,M,2,3335*70
$GNRMC,101755.600,A,2500.7914700,N,12132.4726800,E,0.08,191.91,260623,,,D,V*03
$GPHDT,,T*1B
$GNGGA,101755.800,2500.7914600,N,12132.4726900,E,2,36,0.75,18.84,M,15.25,M,2,3335*7C
$GNRMC,101755.800,A,2500.7914600,N,12132.4726900,E,0.12,191.91,260623,,,D,V*06
$GPHDT,,T*1B
$GNGSA,A,3,196,24,15,195,05,13,194,29,,,,,1.26,0.75,1.02,1*34
$GNGSA,A,3,84,80,79,69,,,,,,,,,1.26,0.75,1.02,2*03
$GNGSA,A,3,15,03,,,,,,,,,,,1.26,0.75,1.02,3*00
$GNGSA,A,3,38,39,16,06,09,29,46,37,20,30,32,,1.26,0.75,1.02,4*04
$GPGSV,4,1,13,196,73,051,34,199,73,011,,24,66,171,38,15,54,010,34,1*66
$GPGSV,4,2,13,45,47,231,31,195,46,177,35,05,36,087,47,13,29,037,38,1*52
$GPGSV,4,3,13,194,20,146,30,29,17,220,27,11,04,149,,12,03,164,,1*5C
$GPGSV,4,4,13,18,,,22,1*6F
$GPGSV,2,1,05,196,73,051,40,24,66,171,40,195,46,177,36,194,20,146,29,8*59
$GPGSV,2,2,05,18,,,23,8*60
$GLGSV,1,1,04,84,43,203,19,80,32,125,40,79,26,064,38,69,25,039,36,1*71
$GAGSV,1,1,03,15,50,170,33,03,24,045,39,26,15,323,,7*4B
$GAGSV,1,1,02,15,50,170,36,03,24,045,40,1*75
$GBGSV,3,1,12,38,73,035,34,39,72,227,36,08,64,005,16,16,62,217,32,1*7A
$GBGSV,3,2,12,06,60,216,26,20,49,023,,09,43,214,36,29,40,236,32,1*7E
$GBGSV,3,3,12,46,38,148,24,37,34,075,45,30,15,181,18,32,14,074,21,1*75
$GBGSV,2,1,08,38,73,035,44,39,72,227,32,20,49,023,39,29,40,236,25,4*73
$GBGSV,2,2,08,46,38,148,38,37,34,075,46,30,15,181,18,32,14,074,26,4*72
$GNGGA,101756.000,2500.7914600,N,12132.4726900,E,2,36,0.75,18.81,M,15.25,M,3,3335*73
$GNRMC,101756.000,A,2500.7914600,N,12132.4726900,E,0.07,191.91,260623,,,D,V*09
$GPHDT,,T*1B
$GNGGA,101756.200,2500.7914500,N,12132.4726900,E,2,36,0.75,18.77,M,15.25,M,3,3335*7B
$GNRMC,101756.200,A,2500.7914500,N,12132.4726900,E,0.10,191.91,260623,,,D,V*0E
