$FW : RTK35X,V1.1X0314AS,Lib20210517,1*54
$Tool : LOCOSYS , GNSS Firebird , v1.0.0.19*39
$---------------------------------------------------*2D
$GPHDT,,T*1B
$GNGGA,101840.800,2500.7910900,N,12132.4727200,E,2,39,0.69,15.19,M,15.25,M,4,3335*7B
$GNRMC,101840.800,A,2500.7910900,N,12132.4727200,E,0.13,191.91,260623,,,D,V*0D
$GPHDT,,T*1B
$GNGSA,A,3,196,24,15,18,195,05,13,194,,,,,1.03,0.69,0.76,1*3E
$GNGSA,A,3,80,79,69,,,,,,,,,,1.03,0.69,0.76,2*07
$GNGSA,A,3,15,03,,,,,,,,,,,1.03,0.69,0.76,3*08
$GNGSA,A,3,38,39,16,06,20,09,29,46,37,30,32,,1.03,0.69,0.76,4*0C
$GPGSV,3,1,12,199,73,011,,196,73,051,35,24,66,171,40,15,54,010,34,1*6E
$GPGSV,3,2,12,18,52,308,30,195,46,177,35,05,36,088,44,13,29,038,39,1*50
$GPGSV,3,3,12,194,20,146,31,29,17,219,21,11,04,149,,12,03,164,,1*57
$GPGSV,2,1,05,196,73,051,41,24,66,171,33,18,52,308,24,195,46,177,38,8*67
$GPGSV,2,2,05,194,20,146,31,8*67
$GLGSV,2,1,05,85,45,297,24,84,43,203,14,80,32,125,42,79,26,064,37,1*72
$GLGSV,2,2,05,69,25,039,40,1*4B
$GAGSV,2,1,06,15,50,170,31,03,24,045,38,26,15,323,17,02,14,111,,7*7E
$GAGSV,2,2,06,30,08,160,,25,05,065,,7*78
$GAGSV,1,1,02,15,50,170,28,03,24,045,39,1*74
$GBGSV,4,1,13,38,73,036,36,39,72,228,27,08,64,005,,16,62,217,31,1*76
$GBGSV,4,2,13,06,60,216,27,13,56,343,31,20,49,023,30,09,43,215,33,1*70
$GBGSV,4,3,13,29,39,236,20,46,38,148,27,37,34,075,46,30,15,181,19,1*72
$GBGSV,4,4,13,32,14,074,20,1*41
$GBGSV,2,1,08,38,73,036,44,39,72,228,36,20,49,023,39,29,39,236,22,4*72
$GBGSV,2,2,08,46,38,148,27,37,34,075,48,30,15,181,19,32,14,074,29,4*7C
$GNGGA,101841.000,2500.7910900,N,12132.4727200,E,2,39,0.69,15.18,M,15.25,M,5,3335*72
$GNRMC,101841.000,A,2500.7910900,N,12132.4727200,E,0.04,191.91,260623,,,D,V*02
$GPHDT,,T*1B
$GNGGA,101841.200,2500.7910900,N,12132.4727300,E,2,39,0.69,15.18,M,15.25,M,5,3335*71
$GNRMC,101841.200,A,2500.7910900,N,12132.4727300,E,0.04,191.91,260623,,,D,V*01
$GPHDT,,T*1B
$GNGGA,101841.400,2500.7910900,N,12132.4727200,E,2,39,0.69,15.18,M,15.25,M,5,3335*76
$GNRMC,101841.400,A,2500.7910900,N,12132.4727200,E,0.04,191.91,260623,,,D,V*06
$GPHDT,,T*1B
$GNGGA,101841.600,2500.7910900,N,12132.4727200,E,2,39,0.69,15.18,M,15.25,M,5,3335*74
$GNRMC,101841.600,A,2500.7910900,N,12132.4727200,E,0.12,191.91,260623,,,D,V*03
$GPHDT,,T*1B
$GNGGA,101841.800,2500.7910900,N,12132.4727200,E,2,40,0.68,15.18,M,15.25,M,5,3335*75
$GNRMC,101841.800,A,2500.7910900,N,12132.4727200,E,0.13,191.91,260623,,,D,V*0C
$GPHDT,,T*1B
$GNGSA,A,3,196,24,15,18,195,05,13,194,,,,,1.02,0.68,0.76,1*3E
$GNGSA,A,3,84,80,79,69,,,,,,,,,1.02,0.68,0.76,2*0B
$GNGSA,A,3,15,03,,,,,,,,,,,1.02,0.68,0.76,3*08
$GNGSA,A,3,38,39,16,06,20,09,29,46,37,30,32,,1.02,0.68,0.76,4*0C
$GPGSV,3,1,12,199,73,011,,196,73,051,35,24,66,171,40,15,54,010,34,1*6E
$GPGSV,3,2,12,18,52,308,30,195,46,177,34,05,36,088,44,13,29,038,39,1*51
$GPGSV,3,3,12,194,20,146,30,29,17,219,22,11,04,149,,12,03,164,,1*55
$GPGSV,2,1,05,196,73,051,41,24,66,171,32,18,52,308,25,195,46,177,38,8*67
$GPGSV,2,2,05,194,20,146,32,8*64
$GLGSV,2,1,05,85,45,297,24,84,43,203,16,80,32,125,42,79,26,064,37,1*70
$GLGSV,2,2,05,69,25,039,40,1*4B
$GAGSV,2,1,07,15,50,170,32,03,24,045,39,26,15,323,17,02,14,111,,7*7D
$GAGSV,2,2,07,30,08,160,,25,05,065,,34,03,153,,7*4A
$GAGSV,1,1,02,15,50,170,26,03,24,045,39,1*7A
$GBGSV,4,1,13,38,73,036,36,39,72,228,26,08,64,005,,16,62,217,31,1*77
$GBGSV,4,2,13,06,60,216,26,13,56,343,32,20,49,023,32,09,43,215,33,1*70
$GBGSV,4,3,13,29,39,236,18,46,38,148,26,37,34,075,46,30,15,181,20,1*72
$GBGSV,4,4,13,32,14,074,21,1*40
$GBGSV,2,1,08,38,73,036,44,39,72,228,36,20,49,023,39,29,39,236,23,4*73
$GBGSV,2,2,08,46,38,148,27,37,34,075,48,30,15,181,19,32,14,074,31,4*75
$GNGGA,101842.000,2500.7910800,N,12132.4727300,E,2,40,0.68,15.18,M,15.25,M,6,3335*7D
$GNRMC,101842.000,A,2500.7910800,N,12132.4727300,E,0.05,191.91,260623,,,D,V*00
$GPHDT,,T*1B
$GNGGA,101842.200,2500.7910800,N,12132.4727300,E,2,39,0.68,15.18,M,15.25,M,6,3335*71
$GNRMC,101842.200,A,2500.7910800,N,12132.4727300,E,0.07,191.91,260623,,,D,V*00
$GPHDT,,T*1B
$GNGGA,101842.400,2500.7910800,N,12132.4727300,E,2,39,0.68,15.18,M,15.25,M,5,3335*74
$GNRMC,101842.400,A,2500.7910800,N,12132.4727300,E,0.15,191.91,260623,,,D,V*05
$GPHDT,,T*1B
$GNGGA,101842.600,2500.7910800,N,12132.4727300,E,2,39,0.68,15.18,M,15.25,M,5,3335*76
$GNRMC,101842.600,A,2500.7910800,N,12132.4727300,E,0.05,191.91,260623,,,D,V*06
$GPHDT,,T*1B
$GNGGA,101842.800,2500.7910800,N,12132.4727300,E,2,39,0.68,15.18,M,15.25,M,2,3335*7F
$GNRMC,101842.800,A,2500.7910800,N,12132.4727300,E,0.06,191.91,260623,,,D,V*0B
$GPHDT,,T*1B
$GNGSA,A,3,196,24,15,18,195,05,13,194,,,,,1.02,0.68,0.76,1*3E
$GNGSA,A,3,84,80,79,69,,,,,,,,,1.02,0.68,0.76,2*0B
$GNGSA,A,3,15,03,,,,,,,,,,,1.02,0.68,0.76,3*08
$GNGSA,A,3,38,39,16,06,20,09,29,46,37,30,32,,1.02,0.68,0.76,4*0C
$GPGSV,3,1,12,199,73,011,,196,73,051,35,24,66,171,40,15,54,010,34,1*6E
$GPGSV,3,2,12,18,52,308,30,195,46,177,34,05,36,088,44,13,29,038,39,1*51
$GPGSV,3,3,12,194,20,146,30,29,17,219,19,11,04,149,,12,03,164,,1*5D
$GPGSV,1,1,04,196,73,051,40,18,52,308,26,195,46,177,40,194,20,146,32,8*54
$GLGSV,2,1,06,85,45,297,22,84,43,203,15,80,32,125,42,79,26,064,34,1*75
$GLGSV,2,2,06,69,25,039,40,86,09,331,,1*7E
$GAGSV,2,1,07,15,50,170,31,03,24,045,39,26,15,323,17,02,14,111,,7*7E
$GAGSV,2,2,07,30,08,160,,25,05,065,,34,03,153,,7*4A
$GAGSV,1,1,01,03,24,045,38,1*4B
$GBGSV,4,1,13,38,73,036,36,39,72,228,26,08,64,005,,16,62,217,31,1*77
$GBGSV,4,2,13,06,60,216,26,13,56,343,32,20,49,023,32,09,43,215,33,1*70
$GBGSV,4,3,13,29,39,236,18,46,38,148,24,37,34,075,46,30,15,181,20,1*70
$GBGSV,4,4,13,32,14,074,21,1*40
$GBGSV,2,1,08,38,73,036,44,39,72,228,37,20,49,023,39,29,39,236,21,4*70
$GBGSV,2,2,08,46,38,148,28,37,34,075,48,30,15,181,19,32,14,074,31,4*7A
$GNGGA,101843.000,2500.7910800,N,12132.4727300,E,2,38,0.68,15.18,M,15.25,M,1,3335*74
$GNRMC,101843.000,A,2500.7910800,N,12132.4727300,E,0.04,191.91,260623,,,D,V*00
$GPHDT,,T*1B
$GNGGA,101843.200,2500.7910800,N,12132.4727400,E,2,38,0.68,15.19,M,15.25,M,1,3335*70
$GNRMC,101843.200,A,2500.7910800,N,12132.4727400,E,0.04,191.91,260623,,,D,V*05
$GPHDT,,T*1B
$GNGGA,101843.400,2500.7910800,N,12132.4727400,E,2,38,0.68,15.19,M,15.25,M,1,3335*76
$GNRMC,101843.400,A,2500.7910800,N,12132.4727400,E,0.03,191.91,260623,,,D,V*04
$GPHDT,,T*1B
$GNGGA,101843.600,2500.7910800,N,12132.4727400,E,2,38,0.68,15.19,M,15.25,M,1,3335*74
$GNRMC,101843.600,A,2500.7910800,N,12132.4727400,E,0.02,191.91,260623,,,D,V*07
$GPHDT,,T*1B
$GNGGA,101843.800,2500.7910800,N,12132.4727400,E,2,38,0.68,15.19,M,15.25,M,0,3335*7B
$GNRMC,101843.800,A,2500.7910800,N,12132.4727400,E,0.32,191.91,260623,,,D,V*0A
$GPHDT,,T*1B
$GNGSA,A,3,196,24,15,18,195,05,13,194,,,,,1.02,0.68,0.76,1*3E
$GNGSA,A,3,84,80,79,69,,,,,,,,,1.02,0.68,0.76,2*0B
$GNGSA,A,3,15,03,,,,,,,,,,,1.02,0.68,0.76,3*08
$GNGSA,A,3,38,39,16,06,20,09,29,46,37,30,32,,1.02,0.68,0.76,4*0C
$GPGSV,3,1,12,199,73,011,,196,73,051,35,24,66,171,40,15,54,010,34,1*6E
$GPGSV,3,2,12,18,52,308,29,195,46,177,34,05,36,088,41,13,29,038,39,1*5C
$GPGSV,3,3,12,194,20,146,30,29,17,219,19,11,04,149,,12,03,164,,1*5D
$GPGSV,1,1,04,196,73,051,40,18,52,308,26,195,46,177,40,194,20,146,32,8*54
$GLGSV,2,1,05,85,45,297,21,84,43,203,14,80,32,125,42,79,26,064,35,1*75
$GLGSV,2,2,05,69,25,039,40,1*4B
$GAGSV,2,1,06,15,50,170,31,03,24,045,39,26,15,323,16,30,08,160,,7*74
$GAGSV,2,2,06,25,05,065,,34,03,153,,7*77
$GAGSV,1,1,01,03,24,045,38,1*4B
$GBGSV,4,1,13,38,73,036,36,39,72,228,27,08,64,005,,16,62,217,30,1*77
$GBGSV,4,2,13,06,60,216,26,13,56,343,32,20,49,023,33,09,43,215,33,1*71
$GBGSV,4,3,13,29,39,236,18,46,38,148,27,37,34,075,46,30,15,181,22,1*71
$GBGSV,4,4,13,32,14,074,21,1*40
$GBGSV,2,1,08,38,73,036,44,39,72,228,37,20,49,023,39,29,39,236,22,4*73
$GBGSV,2,2,08,46,38,148,28,37,34,075,46,30,15,181,17,32,14,074,31,4*7A
$GNGGA,101844.000,2500.7910800,N,12132.4727400,E,2,38,0.68,15.19,M,15.25,M,1,3335*75
$GNRMC,101844.000,A,2500.7910800,N,12132.4727400,E,0.12,191.91,260623,,,D,V*07
$GPHDT,,T*1B
$GNGGA,101844.200,2500.7910600,N,12132.4727500,E,2,38,0.68,15.19,M,15.25,M,1,3335*78
$GNRMC,101844.200,A,2500.7910600,N,12132.4727500,E,0.03,191.91,260623,,,D,V*0A
$GPHDT,,T*1B
$GNGGA,101844.400,2500.7910600,N,12132.4727400,E,2,37,0.69,15.19,M,15.25,M,1,3335*71
$GNRMC,101844.400,A,2500.7910600,N,12132.4727400,E,0.04,191.91,260623,,,D,V*0A
$GPHDT,,T*1B
$GNGGA,101844.600,2500.7910600,N,12132.4727500,E,2,37,0.69,15.18,M,15.25,M,1,3335*73
$GNRMC,101844.600,A,2500.7910600,N,12132.4727500,E,0.07,191.91,260623,,,D,V*0A
$GPHDT,,T*1B
$GNGGA,101844.800,2500.7910600,N,12132.4727500,E,2,37,0.69,15.18,M,15.25,M,1,3335*7D
$GNRMC,101844.800,A,2500.7910600,N,12132.4727500,E,0.07,191.91,260623,,,D,V*04
$GPHDT,,T*1B
$GNGSA,A,3,196,24,15,18,195,05,13,194,,,,,1.03,0.69,0.76,1*3E
$GNGSA,A,3,80,79,69,,,,,,,,,,1.03,0.69,0.76,2*07
$GNGSA,A,3,15,03,,,,,,,,,,,1.03,0.69,0.76,3*08
$GNGSA,A,3,38,39,16,06,20,09,29,46,37,30,32,,1.03,0.69,0.76,4*0C
$GPGSV,3,1,12,199,73,011,,196,73,051,35,24,66,171,40,15,54,011,35,1*6E
$GPGSV,3,2,12,18,52,307,29,195,46,177,34,05,36,088,42,13,29,038,39,1*50
$GPGSV,3,3,12,194,20,146,30,29,17,219,19,11,04,149,,12,03,164,,1*5D
$GPGSV,1,1,04,196,73,051,39,18,52,307,26,195,46,177,40,194,20,146,31,8*56
$GLGSV,2,1,05,85,45,297,20,84,43,203,14,80,32,125,39,79,26,064,35,1*78
$GLGSV,2,2,05,69,25,039,40,1*4B
$GAGSV,2,1,06,15,50,170,31,03,24,045,39,26,15,323,16,30,08,160,,7*74
$GAGSV,2,2,06,25,05,065,,34,03,153,,7*77
$GAGSV,1,1,02,15,50,170,29,03,24,045,39,1*75
$GBGSV,4,1,13,38,73,036,36,39,72,228,28,08,64,005,,16,62,217,30,1*78
$GBGSV,4,2,13,06,60,216,26,13,56,343,32,20,49,023,34,09,43,215,33,1*76
$GBGSV,4,3,13,29,39,236,18,46,38,148,28,37,34,075,46,30,15,181,24,1*78
$GBGSV,4,4,13,32,14,074,21,1*40
$GBGSV,2,1,08,38,73,036,44,39,72,228,37,20,49,023,39,29,39,236,24,4*75
$GBGSV,2,2,08,46,38,148,29,37,34,075,48,30,15,181,18,32,14,074,31,4*7A
$GNGGA,101845.000,2500.7910600,N,12132.4727500,E,2,38,0.69,15.19,M,15.25,M,2,3335*79
$GNRMC,101845.000,A,2500.7910600,N,12132.4727500,E,0.07,191.91,260623,,,D,V*0D
$GPHDT,,T*1B
$GNGGA,101845.200,2500.7910700,N,12132.4727400,E,2,39,0.69,15.19,M,15.25,M,2,3335*7A
$GNRMC,101845.200,A,2500.7910700,N,12132.4727400,E,0.11,191.91,260623,,,D,V*08
$GPHDT,,T*1B
$GNGGA,101845.400,2500.7910700,N,12132.4727400,E,2,38,0.69,15.19,M,15.25,M,2,3335*7D
$GNRMC,101845.400,A,2500.7910700,N,12132.4727400,E,0.08,191.91,260623,,,D,V*06
$GPHDT,,T*1B
$GNGGA,101845.600,2500.7910700,N,12132.4727400,E,2,37,0.69,15.19,M,15.25,M,2,3335*70
$GNRMC,101845.600,A,2500.7910700,N,12132.4727400,E,0.05,191.91,260623,,,D,V*09
$GPHDT,,T*1B
$GNGGA,101845.800,2500.7910700,N,12132.4727400,E,2,37,0.69,15.19,M,15.25,M,2,3335*7E
$GNRMC,101845.800,A,2500.7910700,N,12132.4727400,E,0.11,191.91,260623,,,D,V*02
$GPHDT,,T*1B
$GNGSA,A,3,196,24,15,18,195,05,13,194,,,,,1.03,0.69,0.76,1*3E
$GNGSA,A,3,80,79,69,,,,,,,,,,1.03,0.69,0.76,2*07
$GNGSA,A,3,15,03,,,,,,,,,,,1.03,0.69,0.76,3*08
$GNGSA,A,3,38,39,16,06,20,09,46,37,30,32,29,,1.03,0.69,0.76,4*0C
$GPGSV,3,1,12,199,73,011,,196,73,051,34,24,66,171,39,15,54,011,35,1*61
$GPGSV,3,2,12,18,52,307,27,195,46,177,34,05,36,088,42,13,29,038,39,1*5E
$GPGSV,3,3,12,194,20,146,29,29,17,219,19,11,04,149,,12,03,164,,1*55
$GPGSV,2,1,05,196,73,051,39,24,66,171,30,18,52,307,26,195,46,177,40,8*69
$GPGSV,2,2,05,194,20,146,31,8*67
$GLGSV,2,1,05,85,45,297,22,84,43,203,14,80,32,125,41,79,26,064,35,1*75
$GLGSV,2,2,05,69,25,039,40,1*4B
$GAGSV,2,1,06,15,50,170,28,03,24,045,39,26,15,323,15,30,08,160,,7*7F
$GAGSV,2,2,06,25,05,065,,34,03,153,,7*77
$GAGSV,1,1,01,03,24,045,39,1*4A
$GBGSV,4,1,13,38,73,036,36,39,72,228,25,08,64,005,,16,62,217,30,1*75
$GBGSV,4,2,13,06,60,216,25,13,56,343,32,20,49,023,34,09,43,215,33,1*75
$GBGSV,4,3,13,29,39,236,20,46,38,148,29,37,34,075,46,30,15,181,23,1*75
$GBGSV,4,4,13,32,14,074,20,1*41
$GBGSV,2,1,08,38,73,036,44,39,72,228,37,20,49,023,39,29,39,236,24,4*75
$GBGSV,2,2,08,46,38,148,28,37,34,075,48,30,15,181,18,32,14,074,31,4*7B
$GNGGA,101846.000,2500.7910700,N,12132.4727400,E,2,37,0.69,15.19,M,15.25,M,3,3335*74
$GNRMC,101846.000,A,2500.7910700,N,12132.4727400,E,0.03,191.91,260623,,,D,V*0A
$GPHDT,,T*1B
$GNGGA,101846.200,2500.7910700,N,12132.4727400,E,2,37,0.69,15.19,M,15.25,M,3,3335*76
$GNRMC,101846.200,A,2500.7910700,N,12132.4727400,E,0.03,191.91,260623,,,D,V*08
$GPHDT,,T*1B
$GNGGA,101846.400,2500.7910700,N,12132.4727400,E,2,37,0.69,15.19,M,15.25,M,3,3335*70
$GNRMC,101846.400,A,2500.7910700,N,12132.4727400,E,0.01,191.91,260623,,,D,V*0C
$GPHDT,,T*1B
$GNGGA,101846.600,2500.7910700,N,12132.4727400,E,2,37,0.69,15.19,M,15.25,M,3,3335*72
$GNRMC,101846.600,A,2500.7910700,N,12132.4727400,E,0.14,191.91,260623,,,D,V*0A
$GPHDT,,T*1B
$GNGGA,101846.800,2500.7910700,N,12132.4727400,E,2,37,0.69,15.19,M,15.25,M,3,3335*7C
$GNRMC,101846.800,A,2500.7910700,N,12132.4727400,E,0.05,191.91,260623,,,D,V*04
$GPHDT,,T*1B
$GNGSA,A,3,196,24,15,18,195,05,13,194,,,,,1.03,0.69,0.76,1*3E
$GNGSA,A,3,80,79,69,,,,,,,,,,1.03,0.69,0.76,2*07
$GNGSA,A,3,15,03,,,,,,,,,,,1.03,0.69,0.76,3*08
$GNGSA,A,3,38,39,16,06,20,09,29,46,37,30,32,,1.03,0.69,0.76,4*0C
$GPGSV,3,1,12,199,73,011,,196,73,051,34,24,66,171,39,15,54,011,35,1*61
$GPGSV,3,2,12,18,52,307,26,195,46,177,33,05,36,088,43,13,29,038,37,1*57
$GPGSV,3,3,12,194,20,146,29,29,17,219,18,11,04,149,,12,03,164,,1*54
$GPGSV,2,1,05,196,73,051,39,24,66,171,33,18,52,307,25,195,46,177,39,8*67
$GPGSV,2,2,05,194,20,146,32,8*64
$GLGSV,2,1,05,85,45,297,21,84,43,203,16,80,32,125,41,79,26,064,35,1*74
$GLGSV,2,2,05,69,25,039,40,1*4B
$GAGSV,2,1,06,15,50,170,28,03,24,045,39,26,15,323,16,30,08,160,,7*7C
$GAGSV,2,2,06,25,05,065,,34,03,153,,7*77
$GAGSV,1,1,01,03,24,045,38,1*4B
$GBGSV,4,1,15,38,73,036,36,39,72,228,25,08,64,005,,16,62,217,31,1*72
$GBGSV,4,2,15,06,60,216,25,13,56,343,32,20,49,023,36,09,43,215,32,1*70
$GBGSV,4,3,15,29,39,236,23,46,38,148,29,37,34,075,46,35,22,299,,1*7A
$GBGSV,4,4,15,30,15,181,23,32,14,074,21,36,09,189,,1*44
$GBGSV,2,1,08,38,73,036,44,39,72,228,37,20,49,023,39,29,39,236,25,4*74
$GBGSV,2,2,08,46,38,148,29,37,34,075,48,30,15,181,18,32,14,074,31,4*7A
$GNGGA,101847.000,2500.7910600,N,12132.4727500,E,2,38,0.69,15.19,M,15.25,M,4,3335*7D
$GNRMC,101847.000,A,2500.7910600,N,12132.4727500,E,0.02,191.91,260623,,,D,V*0A
$GPHDT,,T*1B
$GNGGA,101847.200,2500.7910700,N,12132.4727400,E,2,37,0.69,15.19,M,15.25,M,4,3335*70
$GNRMC,101847.200,A,2500.7910700,N,12132.4727400,E,0.03,191.91,260623,,,D,V*09
$GPHDT,,T*1B
$GNGGA,101847.400,2500.7910600,N,12132.4727400,E,2,38,0.69,15.19,M,15.25,M,4,3335*78
$GNRMC,101847.400,A,2500.7910600,N,12132.4727400,E,0.01,191.91,260623,,,D,V*0C
$GPHDT,,T*1B
$GNGGA,101847.600,2500.7910600,N,12132.4727400,E,2,38,0.69,15.19,M,15.25,M,4,3335*7A
$GNRMC,101847.600,A,2500.7910600,N,12132.4727400,E,0.08,191.91,260623,,,D,V*07
$GPHDT,,T*1B
$GNGGA,101847.800,2500.7910600,N,12132.4727400,E,2,38,0.69,15.19,M,15.25,M,4,3335*74
$GNRMC,101847.800,A,2500.7910600,N,12132.4727400,E,0.14,191.91,260623,,,D,V*04
$GPHDT,,T*1B
$GNGSA,A,3,196,24,15,18,195,05,13,194,,,,,1.03,0.69,0.76,1*3E
$GNGSA,A,3,80,79,69,,,,,,,,,,1.03,0.69,0.76,2*07
$GNGSA,A,3,15,03,,,,,,,,,,,1.03,0.69,0.76,3*08
$GNGSA,A,3,38,39,16,06,20,09,29,46,37,30,32,,1.03,0.69,0.76,4*0C
$GPGSV,3,1,12,199,73,011,,196,73,051,34,24,66,171,39,15,54,011,33,1*67
$GPGSV,3,2,12,18,52,307,26,195,46,177,33,05,36,088,43,13,29,038,37,1*57
$GPGSV,3,3,12,194,20,146,30,29,17,219,19,11,04,149,,12,03,164,,1*5D
$GPGSV,2,1,05,196,73,051,39,24,66,171,33,18,52,307,23,195,46,177,38,8*60
$GPGSV,2,2,05,194,20,146,30,8*66
$GLGSV,2,1,06,85,45,297,20,84,43,203,16,80,32,125,41,79,26,064,35,1*76
$GLGSV,2,2,06,69,25,039,40,73,06,173,,1*7F
$GAGSV,2,1,06,15,50,170,29,03,24,045,39,26,15,323,16,30,08,160,,7*7D
$GAGSV,2,2,06,25,05,065,,34,03,153,,7*77
$GAGSV,1,1,02,15,50,170,32,03,24,045,38,1*7E
$GBGSV,4,1,13,38,73,036,36,39,72,228,27,08,64,005,,16,62,217,31,1*76
$GBGSV,4,2,13,06,60,216,26,13,56,343,32,20,49,023,36,09,43,215,31,1*76
$GBGSV,4,3,13,29,39,236,32,46,38,148,27,37,34,075,46,30,15,181,22,1*79
$GBGSV,4,4,13,32,14,074,21,1*40
$GBGSV,2,1,08,38,73,036,44,39,72,228,37,20,49,023,39,29,39,236,26,4*77
$GBGSV,2,2,08,46,38,148,30,37,34,075,48,30,15,181,18,32,14,074,30,4*73
$GNGGA,101848.000,2500.7910600,N,12132.4727500,E,2,39,0.69,15.19,M,15.25,M,5,3335*72
$GNRMC,101848.000,A,2500.7910600,N,12132.4727500,E,0.10,191.91,260623,,,D,V*06
$GPHDT,,T*1B
$GNGGA,101848.200,2500.7910600,N,12132.4727500,E,2,39,0.69,15.19,M,15.25,M,5,3335*70
$GNRMC,101848.200,A,2500.7910600,N,12132.4727500,E,0.07,191.91,260623,,,D,V*02
$GPHDT,,T*1B
$GNGGA,101848.400,2500.7910600,N,12132.4727600,E,2,39,0.69,15.19,M,15.25,M,5,3335*75
$GNRMC,101848.400,A,2500.7910600,N,12132.4727600,E,0.07,191.91,260623,,,D,V*07
$GPHDT,,T*1B
$GNGGA,101848.600,2500.7910600,N,12132.4727600,E,2,39,0.69,15.19,M,15.25,M,5,3335*77
$GNRMC,101848.600,A,2500.7910600,N,12132.4727600,E,0.05,191.91,260623,,,D,V*07
$GPHDT,,T*1B
$GNGGA,101848.800,2500.7910600,N,12132.4727600,E,2,39,0.69,15.19,M,15.25,M,5,3335*79
$GNRMC,101848.800,A,2500.7910600,N,12132.4727600,E,0.05,191.91,260623,,,D,V*09
$GPHDT,,T*1B
$GNGSA,A,3,196,24,15,18,195,05,13,194,,,,,1.03,0.69,0.76,1*3E
$GNGSA,A,3,80,79,69,,,,,,,,,,1.03,0.69,0.76,2*07
$GNGSA,A,3,15,03,,,,,,,,,,,1.03,0.69,0.76,3*08
$GNGSA,A,3,38,39,16,06,20,09,29,46,37,30,32,,1.03,0.69,0.76,4*0C
$GPGSV,3,1,12,199,73,011,,196,73,051,34,24,66,171,39,15,54,011,35,1*61
$GPGSV,3,2,12,18,52,307,26,195,46,177,34,05,36,088,43,13,29,038,37,1*50
$GPGSV,3,3,12,194,21,145,29,29,17,219,18,11,04,149,,12,03,164,,1*56
$GPGSV,1,1,04,196,73,051,39,18,52,307,24,195,46,177,38,194,21,145,31,8*59
$GLGSV,2,1,06,85,45,297,20,84,43,203,15,80,32,125,41,79,26,064,34,1*74
$GLGSV,2,2,06,69,25,039,40,73,06,173,,1*7F
$GAGSV,2,1,06,15,50,170,28,03,24,045,39,26,15,323,16,30,08,160,,7*7C
$GAGSV,2,2,06,25,05,065,,34,03,153,,7*77
$GAGSV,1,1,02,15,50,170,24,03,24,045,38,1*79
$GBGSV,4,1,13,38,73,036,36,39,72,228,27,08,64,005,,16,62,217,29,1*7F
$GBGSV,4,2,13,06,60,216,22,13,56,343,32,20,49,023,35,09,43,215,32,1*72
$GBGSV,4,3,13,29,39,236,22,46,38,148,27,37,34,075,46,30,15,181,21,1*7B
$GBGSV,4,4,13,32,14,074,21,1*40
$GBGSV,2,1,08,38,73,036,44,39,72,228,37,20,49,023,39,29,39,236,22,4*73
$GBGSV,2,2,08,46,38,148,28,37,34,075,48,30,15,181,18,32,14,074,30,4*7A
$GNGGA,101849.000,2500.7910600,N,12132.4727600,E,2,38,0.69,15.19,M,15.25,M,6,3335*72
$GNRMC,101849.000,A,2500.7910600,N,12132.4727600,E,0.04,191.91,260623,,,D,V*01
$GPHDT,,T*1B
$GNGGA,101849.200,2500.7910500,N,12132.4727600,E,2,38,0.69,15.19,M,15.25,M,6,3335*73
$GNRMC,101849.200,A,2500.7910500,N,12132.4727600,E,0.04,191.91,260623,,,D,V*00
$GPHDT,,T*1B
$GNGGA,101849.400,2500.7910500,N,12132.4727600,E,2,39,0.68,15.19,M,15.25,M,6,3335*75
$GNRMC,101849.400,A,2500.7910500,N,12132.4727600,E,0.04,191.91,260623,,,D,V*06
$GPHDT,,T*1B
$GNGGA,101849.600,2500.7910500,N,12132.4727600,E,2,39,0.68,15.19,M,15.25,M,4,3335*75
$GNRMC,101849.600,A,2500.7910500,N,12132.4727600,E,0.03,191.91,260623,,,D,V*03
$GPHDT,,T*1B
$GNGGA,101849.800,2500.7910500,N,12132.4727600,E,2,39,0.68,15.19,M,15.25,M,2,3335*7D
$GNRMC,101849.800,A,2500.7910500,N,12132.4727600,E,0.10,191.91,260623,,,D,V*0F
$GPHDT,,T*1B
$GNGSA,A,3,196,24,15,18,195,05,13,194,,,,,1.02,0.68,0.76,1*3E
$GNGSA,A,3,84,80,79,69,,,,,,,,,1.02,0.68,0.76,2*0B
$GNGSA,A,3,15,03,,,,,,,,,,,1.02,0.68,0.76,3*08
$GNGSA,A,3,38,39,16,06,20,09,29,46,37,30,32,,1.02,0.68,0.76,4*0C
$GPGSV,3,1,12,199,73,011,,196,73,051,34,24,66,171,39,15,54,011,35,1*61
$GPGSV,3,2,12,18,52,307,24,195,46,177,34,05,36,088,43,13,29,038,37,1*52
$GPGSV,3,3,12,194,21,145,29,29,17,219,18,11,04,149,,12,03,164,,1*56
$GPGSV,1,1,04,196,73,051,39,18,52,307,25,195,46,177,39,194,21,145,31,8*59
$GLGSV,2,1,05,85,45,297,17,84,43,203,15,80,32,125,41,79,26,064,33,1*74
$GLGSV,2,2,05,69,25,039,40,1*4B
$GAGSV,2,1,06,15,50,170,26,03,24,045,39,26,15,323,16,30,08,160,,7*72
$GAGSV,2,2,06,25,05,065,,34,03,153,,7*77
$GAGSV,1,1,02,15,50,170,25,03,24,045,37,1*77
$GBGSV,4,1,13,38,73,036,36,39,72,228,26,08,64,005,,16,62,217,30,1*76
$GBGSV,4,2,13,06,60,216,24,13,56,343,32,20,49,023,35,09,43,215,33,1*75
$GBGSV,4,3,13,29,39,236,20,46,38,148,28,37,34,075,46,30,15,181,21,1*76
$GBGSV,4,4,13,32,14,074,21,1*40
$GBGSV,2,1,08,38,73,036,44,39,72,228,37,20,49,023,39,29,39,236,20,4*71
$GBGSV,2,2,08,46,38,148,30,37,34,075,48,30,15,181,17,32,14,074,30,4*7C
$GNGGA,101850.000,2500.7910500,N,12132.4727600,E,2,39,0.68,15.19,M,15.25,M,2,3335*7D
$GNRMC,101850.000,A,2500.7910500,N,12132.4727600,E,0.02,191.91,260623,,,D,V*0C
$GPHDT,,T*1B
$GNGGA,101850.200,2500.7910500,N,12132.4727600,E,2,40,0.68,15.19,M,15.25,M,1,3335*72
$GNRMC,101850.200,A,2500.7910500,N,12132.4727600,E,0.01,191.91,260623,,,D,V*0D
$GPHDT,,T*1B
$GNGGA,101850.400,2500.7910500,N,12132.4727600,E,2,39,0.68,15.19,M,15.25,M,1,3335*7A
$GNRMC,101850.400,A,2500.7910500,N,12132.4727600,E,0.00,191.91,260623,,,D,V*0A
$GPHDT,,T*1B
$GNGGA,101850.600,2500.7910500,N,12132.4727600,E,2,39,0.68,15.19,M,15.25,M,0,3335*79
$GNRMC,101850.600,A,2500.7910500,N,12132.4727600,E,0.01,191.91,260623,,,D,V*09
$GPHDT,,T*1B
$GNGGA,101850.800,2500.7910500,N,12132.4727600,E,2,39,0.68,15.19,M,15.25,M,0,3335*77
$GNRMC,101850.800,A,2500.7910500,N,12132.4727600,E,0.11,191.91,260623,,,D,V*06
$GPHDT,,T*1B
$GNGSA,A,3,196,24,15,18,195,05,13,194,,,,,1.02,0.68,0.76,1*3E
$GNGSA,A,3,84,80,79,69,,,,,,,,,1.02,0.68,0.76,2*0B
$GNGSA,A,3,15,03,,,,,,,,,,,1.02,0.68,0.76,3*08
$GNGSA,A,3,38,39,16,06,20,09,29,46,37,30,32,,1.02,0.68,0.76,4*0C
$GPGSV,3,1,12,199,73,011,,196,73,051,34,24,66,171,39,15,54,011,35,1*61
$GPGSV,3,2,12,18,52,307,24,195,46,177,34,05,36,088,43,13,29,038,37,1*52
$GPGSV,3,3,12,194,21,145,29,29,17,219,18,11,04,149,,12,03,164,,1*56
$GPGSV,1,1,04,196,73,051,39,18,52,307,24,195,46,177,39,194,21,145,31,8*58
$GLGSV,2,1,05,85,45,297,17,84,43,203,16,80,32,125,41,79,26,064,34,1*70
$GLGSV,2,2,05,69,25,039,40,1*4B
$GAGSV,2,1,06,15,50,170,26,03,24,045,39,26,15,323,16,30,08,160,,7*72
$GAGSV,2,2,06,25,05,065,,34,03,153,,7*77
$GAGSV,1,1,02,15,50,170,25,03,24,045,37,1*77
$GBGSV,4,1,13,38,73,036,36,39,72,228,26,08,64,005,,16,62,217,30,1*76
$GBGSV,4,2,13,06,60,216,27,13,56,343,32,20,49,023,36,09,43,215,33,1*75
$GBGSV,4,3,13,29,39,236,18,46,38,148,29,37,34,075,46,30,15,181,21,1*7C
$GBGSV,4,4,13,32,14,074,22,1*43
$GBGSV,2,1,08,38,73,036,44,39,72,228,37,20,49,023,39,29,39,236,19,4*7B
$GBGSV,2,2,08,46,38,148,28,37,34,075,48,30,15,181,13,32,14,074,30,4*71
$GNGGA,101851.000,2500.7910500,N,12132.4727600,E,2,39,0.68,15.18,M,15.25,M,1,3335*7E
$GNRMC,101851.000,A,2500.7910500,N,12132.4727600,E,0.11,191.91,260623,,,D,V*0F
$GPHDT,,T*1B
$GNGGA,101851.200,2500.7910500,N,12132.4727600,E,2,39,0.68,15.18,M,15.25,M,1,3335*7C
$GNRMC,101851.200,A,2500.7910500,N,12132.4727600,E,0.11,191.91,260623,,,D,V*0D
$GPHDT,,T*1B
$GNGGA,101851.400,2500.7910400,N,12132.4727500,E,2,40,0.68,15.18,M,15.25,M,1,3335*76
$GNRMC,101851.400,A,2500.7910400,N,12132.4727500,E,0.10,191.91,260623,,,D,V*08
$GPHDT,,T*1B
$GNGGA,101851.600,2500.7910400,N,12132.4727400,E,2,40,0.68,15.18,M,15.25,M,0,3335*74
$GNRMC,101851.600,A,2500.7910400,N,12132.4727400,E,0.05,191.91,260623,,,D,V*0F
$GPHDT,,T*1B
$GNGGA,101851.800,2500.7910400,N,12132.4727400,E,2,39,0.68,15.17,M,15.25,M,0,3335*7B
$GNRMC,101851.800,A,2500.7910400,N,12132.4727400,E,0.02,191.91,260623,,,D,V*06
