$FW : RTK35X,V1.1X0314AS,Lib20210517,1*54
$Tool : LOCOSYS , GNSS Firebird , v1.0.0.19*39
$---------------------------------------------------*2D
$GPHDT,,T*1B
$GNGGA,101943.400,2500.7912400,N,12132.4729500,E,2,39,0.63,14.25,M,15.25,M,3,3335*70
$GNRMC,101943.400,A,2500.7912400,N,12132.4729500,E,0.04,65.77,260623,,,D,V*31
$GPHDT,,T*1B
$GNGGA,101943.600,2500.7912400,N,12132.4729500,E,2,39,0.63,14.23,M,15.25,M,3,3335*74
$GNRMC,101943.600,A,2500.7912400,N,12132.4729500,E,0.13,65.77,260623,,,D,V*35
$GPHDT,,T*1B
$GNGGA,101943.800,2500.7912400,N,12132.4729700,E,2,39,0.63,14.21,M,15.25,M,3,3335*7A
$GNRMC,101943.800,A,2500.7912400,N,12132.4729700,E,0.20,65.77,260623,,,D,V*39
$GPHDT,,T*1B
$GNGSA,A,3,196,24,15,18,195,05,13,194,,,,,1.01,0.66,0.76,1*33
$GNGSA,A,3,80,79,69,,,,,,,,,,1.01,0.66,0.76,2*0A
$GNGSA,A,3,15,03,,,,,,,,,,,1.01,0.66,0.76,3*05
$GNGSA,A,3,38,39,08,16,06,13,20,09,29,46,37,30,1.01,0.66,0.76,4*0A
$GNGSA,A,3,32,,,,,,,,,,,,1.01,0.66,0.76,4*04
$GPGSV,4,1,13,196,73,051,35,199,72,011,,24,67,171,32,15,54,011,38,1*60
$GPGSV,4,2,13,18,52,307,25,195,46,177,32,05,36,088,37,13,29,038,36,1*51
$GPGSV,4,3,13,194,21,145,15,29,17,219,19,20,17,109,,12,03,163,,1*5D
$GPGSV,4,4,13,11,03,149,,1*59
$GPGSV,1,1,04,196,73,051,40,24,67,171,38,195,46,177,34,194,21,145,27,8*5B
$GLGSV,2,1,05,85,45,297,12,84,42,203,11,80,32,124,40,79,26,063,34,1*74
$GLGSV,2,2,05,69,24,040,40,1*44
$GAGSV,1,1,03,15,49,171,26,03,23,046,38,26,15,322,20,7*40
$GAGSV,1,1,02,15,49,171,30,03,23,046,40,1*7E
$GBGSV,4,1,13,38,73,036,31,39,72,229,32,08,64,005,26,16,63,218,32,1*7D
$GBGSV,4,2,13,06,60,217,28,13,56,343,21,20,48,024,34,09,43,215,30,1*7E
$GBGSV,4,3,13,29,39,235,34,46,39,148,28,37,34,074,45,30,15,181,21,1*73
$GBGSV,4,4,13,32,14,075,,1*42
$GBGSV,2,1,08,38,73,036,44,39,72,229,36,20,48,024,39,46,39,148,33,4*76
$GBGSV,2,2,08,29,39,235,26,37,34,074,40,30,15,181,25,32,14,075,24,4*76
$GNGGA,101944.000,2500.7912400,N,12132.4729800,E,2,38,0.66,14.20,M,15.25,M,4,3335*78
$GNRMC,101944.000,A,2500.7912400,N,12132.4729800,E,0.06,65.77,260623,,,D,V*3D
$GPHDT,,T*1B
$GNGGA,101944.200,2500.7912400,N,12132.4729800,E,2,38,0.66,14.20,M,15.25,M,4,3335*7A
$GNRMC,101944.200,A,2500.7912400,N,12132.4729800,E,0.03,65.77,260623,,,D,V*3A
$GPHDT,,T*1B
$GNGGA,101944.400,2500.7912400,N,12132.4729800,E,2,38,0.66,14.18,M,15.25,M,1,3335*72
$GNRMC,101944.400,A,2500.7912400,N,12132.4729800,E,0.04,65.77,260623,,,D,V*3B
$GPHDT,,T*1B
$GNGGA,101944.600,2500.7912400,N,12132.4729900,E,2,38,0.66,14.16,M,15.25,M,1,3335*7F
$GNRMC,101944.600,A,2500.7912400,N,12132.4729900,E,0.13,65.77,260623,,,D,V*3E
$GPHDT,,T*1B
$GNGGA,101944.800,2500.7912400,N,12132.4730000,E,2,38,0.66,14.14,M,15.25,M,0,3335*73
$GNRMC,101944.800,A,2500.7912400,N,12132.4730000,E,0.21,65.77,260623,,,D,V*30
$GPHDT,,T*1B
$GNGSA,A,3,196,24,15,18,195,05,13,194,,,,,1.01,0.66,0.76,1*33
$GNGSA,A,3,80,79,69,,,,,,,,,,1.01,0.66,0.76,2*0A
$GNGSA,A,3,15,03,,,,,,,,,,,1.01,0.66,0.76,3*05
$GNGSA,A,3,38,39,08,16,06,13,20,09,29,46,37,30,1.01,0.66,0.76,4*0A
$GNGSA,A,3,32,,,,,,,,,,,,1.01,0.66,0.76,4*04
$GPGSV,4,1,13,196,73,051,35,199,72,011,,24,67,171,31,15,54,011,38,1*63
$GPGSV,4,2,13,18,52,307,25,195,46,177,31,05,36,088,37,13,29,038,36,1*52
$GPGSV,4,3,13,194,21,145,15,29,17,219,18,20,17,109,,12,03,163,,1*5C
$GPGSV,4,4,13,11,03,149,,1*59
$GPGSV,1,1,04,196,73,051,39,24,67,171,38,195,46,177,34,194,21,145,27,8*55
$GLGSV,2,1,05,85,45,297,15,84,42,203,14,80,32,124,40,79,26,063,35,1*77
$GLGSV,2,2,05,69,24,040,40,1*44
$GAGSV,1,1,02,15,49,171,26,03,23,046,38,7*70
$GAGSV,1,1,02,15,49,171,29,03,23,046,40,1*76
$GBGSV,4,1,13,38,73,036,32,39,72,229,31,08,64,005,26,16,63,218,32,1*7D
$GBGSV,4,2,13,06,60,217,28,13,56,343,22,20,48,024,34,09,43,215,31,1*7C
$GBGSV,4,3,13,29,39,235,34,46,39,148,29,37,34,074,45,30,15,181,20,1*73
$GBGSV,4,4,13,32,14,075,,1*42
$GBGSV,2,1,08,38,73,036,44,39,72,229,36,20,48,024,40,46,39,148,32,4*79
$GBGSV,2,2,08,29,39,235,27,37,34,074,40,30,15,181,26,32,14,075,24,4*74
$GNGGA,101945.000,2500.7912400,N,12132.4730100,E,2,38,0.66,14.13,M,15.25,M,1,3335*7D
$GNRMC,101945.000,A,2500.7912400,N,12132.4730100,E,0.10,65.77,260623,,,D,V*3A
$GPHDT,,T*1B
$GNGGA,101945.200,2500.7912400,N,12132.4730100,E,2,38,0.66,14.12,M,15.25,M,1,3335*7E
$GNRMC,101945.200,A,2500.7912400,N,12132.4730100,E,0.03,65.77,260623,,,D,V*3A
$GPHDT,,T*1B
$GNGGA,101945.400,2500.7912500,N,12132.4730100,E,2,38,0.66,14.11,M,15.25,M,1,3335*7A
$GNRMC,101945.400,A,2500.7912500,N,12132.4730100,E,0.06,65.77,260623,,,D,V*38
$GPHDT,,T*1B
$GNGGA,101945.600,2500.7912400,N,12132.4730200,E,2,38,0.66,14.09,M,15.25,M,1,3335*73
$GNRMC,101945.600,A,2500.7912400,N,12132.4730200,E,0.16,65.77,260623,,,D,V*39
$GPHDT,,T*1B
$GNGGA,101945.800,2500.7912400,N,12132.4730300,E,2,38,0.66,14.06,M,15.25,M,1,3335*73
$GNRMC,101945.800,A,2500.7912400,N,12132.4730300,E,0.22,65.77,260623,,,D,V*31
$GPHDT,,T*1B
$GNGSA,A,3,196,24,15,18,195,05,13,29,194,,,,0.94,0.63,0.70,1*36
$GNGSA,A,3,80,79,69,,,,,,,,,,0.94,0.63,0.70,2*04
$GNGSA,A,3,15,03,,,,,,,,,,,0.94,0.63,0.70,3*0B
$GNGSA,A,3,38,39,08,16,06,13,20,09,29,46,37,30,0.94,0.63,0.70,4*04
$GNGSA,A,3,32,,,,,,,,,,,,0.94,0.63,0.70,4*0A
$GPGSV,4,1,13,196,73,051,35,199,72,011,,24,67,171,32,15,54,011,38,1*60
$GPGSV,4,2,13,18,52,307,25,195,46,177,31,05,36,088,37,13,29,038,36,1*52
$GPGSV,4,3,13,194,21,145,16,29,17,219,18,20,17,109,,12,03,163,,1*5F
$GPGSV,4,4,13,11,03,149,,1*59
$GPGSV,1,1,04,196,73,051,39,24,67,171,38,195,46,177,33,194,21,145,26,8*53
$GLGSV,2,1,05,85,45,297,16,84,42,203,14,80,32,124,40,79,26,063,35,1*74
$GLGSV,2,2,05,69,24,040,40,1*44
$GAGSV,1,1,02,15,49,171,27,03,23,046,38,7*71
$GAGSV,1,1,02,15,49,171,29,03,23,046,40,1*76
$GBGSV,4,1,13,38,73,036,32,39,72,229,30,08,64,005,27,16,63,218,32,1*7D
$GBGSV,4,2,13,06,60,217,29,13,56,343,21,20,48,024,33,09,43,215,31,1*79
$GBGSV,4,3,13,29,39,235,34,46,39,148,29,37,34,074,45,30,15,181,19,1*79
$GBGSV,4,4,13,32,14,075,,1*42
$GBGSV,2,1,08,38,73,036,44,39,72,229,36,20,48,024,40,46,39,148,32,4*79
$GBGSV,2,2,08,29,39,235,27,37,34,074,40,30,15,181,26,32,14,075,24,4*74
$GNGGA,101946.000,2500.7912400,N,12132.4730400,E,2,39,0.63,14.05,M,15.25,M,2,3335*7B
$GNRMC,101946.000,A,2500.7912400,N,12132.4730400,E,0.13,65.77,260623,,,D,V*3F
$GPHDT,,T*1B
$GNGGA,101946.200,2500.7912400,N,12132.4730500,E,2,39,0.63,14.05,M,15.25,M,2,3335*78
$GNRMC,101946.200,A,2500.7912400,N,12132.4730500,E,0.05,65.77,260623,,,D,V*3B
$GPHDT,,T*1B
$GNGGA,101946.400,2500.7912400,N,12132.4730500,E,2,39,0.63,14.03,M,15.25,M,2,3335*78
$GNRMC,101946.400,A,2500.7912400,N,12132.4730500,E,0.03,65.77,260623,,,D,V*3B
$GPHDT,,T*1B
$GNGGA,101946.600,2500.7912400,N,12132.4730600,E,2,38,0.66,14.01,M,15.25,M,2,3335*7F
$GNRMC,101946.600,A,2500.7912400,N,12132.4730600,E,0.14,65.77,260623,,,D,V*3C
$GPHDT,,T*1B
$GNGGA,101946.800,2500.7912300,N,12132.4730700,E,2,38,0.66,13.98,M,15.25,M,2,3335*70
$GNRMC,101946.800,A,2500.7912300,N,12132.4730700,E,0.22,65.77,260623,,,D,V*31
$GPHDT,,T*1B
$GNGSA,A,3,196,24,15,18,195,05,13,194,,,,,1.01,0.66,0.76,1*33
$GNGSA,A,3,80,79,69,,,,,,,,,,1.01,0.66,0.76,2*0A
$GNGSA,A,3,15,03,,,,,,,,,,,1.01,0.66,0.76,3*05
$GNGSA,A,3,38,39,08,16,06,13,20,09,29,46,37,30,1.01,0.66,0.76,4*0A
$GNGSA,A,3,32,,,,,,,,,,,,1.01,0.66,0.76,4*04
$GPGSV,4,1,13,196,73,051,35,199,72,011,,24,67,171,31,15,54,011,38,1*63
$GPGSV,4,2,13,18,52,307,25,195,46,177,31,05,36,088,37,13,29,038,36,1*52
$GPGSV,4,3,13,194,21,145,17,29,17,219,17,20,17,109,,12,03,163,,1*51
$GPGSV,4,4,13,11,03,149,,1*59
$GPGSV,1,1,04,196,73,051,39,24,67,171,38,195,46,177,32,194,21,145,26,8*52
$GLGSV,2,1,05,85,45,297,16,84,42,203,14,80,32,124,40,79,26,063,35,1*74
$GLGSV,2,2,05,69,24,040,40,1*44
$GAGSV,1,1,02,15,49,171,28,03,23,046,38,7*7E
$GAGSV,1,1,02,15,49,171,29,03,23,046,39,1*78
$GBGSV,4,1,13,38,73,036,31,39,72,229,29,08,64,005,28,16,63,218,32,1*79
$GBGSV,4,2,13,06,60,217,29,13,56,343,21,20,48,024,33,09,43,215,32,1*7A
$GBGSV,4,3,13,29,39,235,34,46,39,148,29,37,34,074,45,30,15,181,21,1*72
$GBGSV,4,4,13,32,14,075,,1*42
$GBGSV,2,1,08,38,73,036,44,39,72,229,35,20,48,024,40,46,39,148,32,4*7A
$GBGSV,2,2,08,29,39,235,26,37,34,074,40,30,15,181,25,32,14,075,23,4*71
$GNGGA,101947.000,2500.7912300,N,12132.4730700,E,2,38,0.66,13.97,M,15.25,M,3,3335*77
$GNRMC,101947.000,A,2500.7912300,N,12132.4730700,E,0.13,65.77,260623,,,D,V*3A
$GPHDT,,T*1B
$GNGGA,101947.200,2500.7912300,N,12132.4730700,E,2,39,0.66,13.96,M,15.25,M,3,3335*75
$GNRMC,101947.200,A,2500.7912300,N,12132.4730700,E,0.05,65.77,260623,,,D,V*3F
$GPHDT,,T*1B
$GNGGA,101947.400,2500.7912400,N,12132.4730800,E,2,39,0.66,13.94,M,15.25,M,3,3335*79
$GNRMC,101947.400,A,2500.7912400,N,12132.4730800,E,0.07,65.77,260623,,,D,V*33
$GPHDT,,T*1B
$GNGGA,101947.600,2500.7912400,N,12132.4730900,E,2,39,0.66,13.92,M,15.25,M,3,3335*7C
$GNRMC,101947.600,A,2500.7912400,N,12132.4730900,E,0.11,65.77,260623,,,D,V*37
$GPHDT,,T*1B
$GNGGA,101947.800,2500.7912300,N,12132.4731000,E,2,39,0.66,13.89,M,15.25,M,3,3335*77
$GNRMC,101947.800,A,2500.7912300,N,12132.4731000,E,0.24,65.77,260623,,,D,V*30
$GPHDT,,T*1B
$GNGSA,A,3,196,24,15,18,195,05,13,194,,,,,1.01,0.66,0.76,1*33
$GNGSA,A,3,80,79,69,,,,,,,,,,1.01,0.66,0.76,2*0A
$GNGSA,A,3,15,03,,,,,,,,,,,1.01,0.66,0.76,3*05
$GNGSA,A,3,38,39,08,16,06,13,20,09,29,46,37,30,1.01,0.66,0.76,4*0A
$GNGSA,A,3,32,,,,,,,,,,,,1.01,0.66,0.76,4*04
$GPGSV,4,1,13,196,73,051,36,199,72,011,,24,67,171,31,15,54,011,38,1*60
$GPGSV,4,2,13,18,52,307,25,195,46,177,30,05,36,089,37,13,29,038,36,1*52
$GPGSV,4,3,13,194,21,145,17,29,17,219,17,20,17,109,,12,03,163,,1*51
$GPGSV,4,4,13,11,03,149,,1*59
$GPGSV,1,1,04,196,73,051,39,24,67,171,39,195,46,177,33,194,21,145,28,8*5C
$GLGSV,2,1,05,85,45,297,16,84,42,203,15,80,32,124,40,79,26,063,36,1*76
$GLGSV,2,2,05,69,24,040,40,1*44
$GAGSV,1,1,02,15,49,171,28,03,23,046,38,7*7E
$GAGSV,1,1,02,15,49,171,31,03,23,046,40,1*7F
$GBGSV,4,1,13,38,73,036,32,39,72,229,29,08,64,005,28,16,63,218,32,1*7A
$GBGSV,4,2,13,06,60,217,29,13,56,343,20,20,48,024,33,09,43,215,32,1*7B
$GBGSV,4,3,13,29,39,235,34,46,39,148,29,37,34,074,45,30,15,181,22,1*71
$GBGSV,4,4,13,32,14,075,,1*42
$GBGSV,2,1,08,38,73,036,44,39,72,229,36,20,48,024,40,46,39,148,32,4*79
$GBGSV,2,2,08,29,39,235,26,37,34,074,40,30,15,181,25,32,14,075,23,4*71
$GNGGA,101948.000,2500.7912300,N,12132.4731000,E,2,39,0.66,13.89,M,15.25,M,4,3335*77
$GNRMC,101948.000,A,2500.7912300,N,12132.4731000,E,0.13,65.77,260623,,,D,V*33
$GPHDT,,T*1B
$GNGGA,101948.200,2500.7912400,N,12132.4731100,E,2,39,0.66,13.88,M,15.25,M,4,3335*72
$GNRMC,101948.200,A,2500.7912400,N,12132.4731100,E,0.05,65.77,260623,,,D,V*30
$GPHDT,,T*1B
$GNGGA,101948.400,2500.7912400,N,12132.4731100,E,2,39,0.66,13.87,M,15.25,M,4,3335*7B
$GNRMC,101948.400,A,2500.7912400,N,12132.4731100,E,0.07,65.77,260623,,,D,V*34
$GPHDT,,T*1B
$GNGGA,101948.600,2500.7912300,N,12132.4731200,E,2,38,0.66,13.85,M,15.25,M,1,3335*7B
$GNRMC,101948.600,A,2500.7912300,N,12132.4731200,E,0.13,65.77,260623,,,D,V*37
$GPHDT,,T*1B
$GNGGA,101948.800,2500.7912300,N,12132.4731200,E,2,39,0.66,13.83,M,15.25,M,1,3335*72
$GNRMC,101948.800,A,2500.7912300,N,12132.4731200,E,0.31,65.77,260623,,,D,V*39
$GPHDT,,T*1B
$GNGSA,A,3,196,24,15,18,195,05,13,194,,,,,1.01,0.66,0.76,1*33
$GNGSA,A,3,80,79,69,,,,,,,,,,1.01,0.66,0.76,2*0A
$GNGSA,A,3,15,03,,,,,,,,,,,1.01,0.66,0.76,3*05
$GNGSA,A,3,38,39,08,16,06,13,20,09,29,46,37,30,1.01,0.66,0.76,4*0A
$GNGSA,A,3,32,,,,,,,,,,,,1.01,0.66,0.76,4*04
$GPGSV,4,1,13,196,73,051,35,199,72,011,,24,67,171,31,15,54,011,39,1*62
$GPGSV,4,2,13,18,52,307,25,195,46,177,29,05,36,089,36,13,29,038,34,1*59
$GPGSV,4,3,13,194,21,145,20,29,17,219,17,20,17,109,,12,03,163,,1*55
$GPGSV,4,4,13,11,03,149,,1*59
$GPGSV,2,1,05,196,73,051,39,24,67,171,39,18,52,307,18,195,46,177,34,8*6F
$GPGSV,2,2,05,194,21,145,28,8*6D
$GLGSV,2,1,05,85,45,297,15,84,42,203,12,80,32,124,40,79,26,063,36,1*72
$GLGSV,2,2,05,69,24,040,41,1*45
$GAGSV,1,1,02,15,49,171,31,03,23,046,40,7*79
$GAGSV,1,1,02,15,49,171,29,03,23,046,39,1*78
$GBGSV,4,1,13,38,73,036,32,39,72,229,28,08,64,005,29,16,63,218,30,1*78
$GBGSV,4,2,13,06,60,217,26,13,56,343,20,20,48,024,33,09,43,215,32,1*74
$GBGSV,4,3,13,29,39,235,34,46,39,148,30,37,34,074,47,30,15,181,23,1*7A
$GBGSV,4,4,13,32,14,075,,1*42
$GBGSV,2,1,08,38,73,036,44,39,72,229,36,20,48,024,40,29,39,235,26,4*7C
$GBGSV,2,2,08,46,39,148,32,37,34,074,43,30,15,181,25,32,14,075,25,4*71
$GNGGA,101949.000,2500.7912300,N,12132.4731300,E,2,39,0.66,13.82,M,15.25,M,2,3335*78
$GNRMC,101949.000,A,2500.7912300,N,12132.4731300,E,0.15,65.77,260623,,,D,V*37
$GPHDT,,T*1B
$GNGGA,101949.200,2500.7912300,N,12132.4731400,E,2,39,0.66,13.81,M,15.25,M,2,3335*7E
$GNRMC,101949.200,A,2500.7912300,N,12132.4731400,E,0.03,65.77,260623,,,D,V*35
$GPHDT,,T*1B
$GNGGA,101949.400,2500.7912300,N,12132.4731500,E,2,39,0.66,13.80,M,15.25,M,2,3335*78
$GNRMC,101949.400,A,2500.7912300,N,12132.4731500,E,0.03,65.77,260623,,,D,V*32
$GPHDT,,T*1B
$GNGGA,101949.600,2500.7912300,N,12132.4731500,E,2,39,0.66,13.79,M,15.25,M,2,3335*7C
$GNRMC,101949.600,A,2500.7912300,N,12132.4731500,E,0.17,65.77,260623,,,D,V*35
$GPHDT,,T*1B
$GNGGA,101949.800,2500.7912300,N,12132.4731600,E,2,39,0.66,13.78,M,15.25,M,2,3335*70
$GNRMC,101949.800,A,2500.7912300,N,12132.4731600,E,0.22,65.77,260623,,,D,V*3E
$GPHDT,,T*1B
$GNGSA,A,3,196,24,15,18,195,05,13,194,,,,,1.01,0.66,0.76,1*33
$GNGSA,A,3,80,79,69,,,,,,,,,,1.01,0.66,0.76,2*0A
$GNGSA,A,3,15,03,,,,,,,,,,,1.01,0.66,0.76,3*05
$GNGSA,A,3,38,39,08,16,06,13,20,09,46,29,37,30,1.01,0.66,0.76,4*0A
$GNGSA,A,3,32,,,,,,,,,,,,1.01,0.66,0.76,4*04
$GPGSV,4,1,14,196,73,051,34,199,72,011,,24,67,171,32,15,53,011,39,1*60
$GPGSV,4,2,14,18,52,307,23,195,46,177,26,41,38,241,,05,36,089,34,1*59
$GPGSV,4,3,14,13,29,038,35,194,21,145,20,20,17,109,,29,17,219,16,1*53
$GPGSV,4,4,14,11,03,149,,12,03,163,,1*6A
$GPGSV,2,1,05,196,73,051,39,24,67,171,39,18,52,307,18,195,46,177,34,8*6F
$GPGSV,2,2,05,194,21,145,29,8*6C
$GLGSV,2,1,06,85,45,297,16,84,42,203,15,70,37,326,,80,32,124,40,1*7B
$GLGSV,2,2,06,79,26,063,37,69,24,040,41,1*7D
$GAGSV,1,1,02,15,49,171,28,03,23,046,40,7*71
$GAGSV,1,1,02,15,49,171,29,03,23,046,39,1*78
$GBGSV,4,1,13,38,73,036,33,39,72,229,29,08,64,005,29,16,63,218,30,1*78
$GBGSV,4,2,13,06,60,217,25,13,56,343,20,20,48,024,33,09,43,215,32,1*77
$GBGSV,4,3,13,46,39,148,31,29,39,235,35,37,34,074,46,30,15,181,23,1*7B
$GBGSV,4,4,13,32,14,075,,1*42
$GBGSV,2,1,08,38,73,036,44,39,72,229,35,20,48,024,39,29,39,235,26,4*71
$GBGSV,2,2,08,46,39,148,31,37,34,074,41,30,15,181,22,32,14,075,25,4*77
$GNGGA,101950.000,2500.7912300,N,12132.4731700,E,2,39,0.66,13.77,M,15.25,M,3,3335*7F
$GNRMC,101950.000,A,2500.7912300,N,12132.4731700,E,0.12,65.77,260623,,,D,V*3C
$GPHDT,,T*1B
$GNGGA,101950.200,2500.7912300,N,12132.4731800,E,2,39,0.66,13.76,M,15.25,M,3,3335*73
$GNRMC,101950.200,A,2500.7912300,N,12132.4731800,E,0.08,65.77,260623,,,D,V*3A
$GPHDT,,T*1B
$GNGGA,101950.400,2500.7912300,N,12132.4731800,E,2,39,0.66,13.75,M,15.25,M,3,3335*76
$GNRMC,101950.400,A,2500.7912300,N,12132.4731800,E,0.06,65.77,260623,,,D,V*32
$GPHDT,,T*1B
$GNGGA,101950.600,2500.7912300,N,12132.4731800,E,2,39,0.66,13.73,M,15.25,M,3,3335*72
$GNRMC,101950.600,A,2500.7912300,N,12132.4731800,E,0.13,65.77,260623,,,D,V*34
$GPHDT,,T*1B
$GNGGA,101950.800,2500.7912300,N,12132.4731900,E,2,39,0.66,13.70,M,15.25,M,3,3335*7E
$GNRMC,101950.800,A,2500.7912300,N,12132.4731900,E,0.23,65.77,260623,,,D,V*38
$GPHDT,,T*1B
$GNGSA,A,3,196,24,15,18,195,05,13,194,,,,,1.01,0.66,0.76,1*33
$GNGSA,A,3,80,79,69,,,,,,,,,,1.01,0.66,0.76,2*0A
$GNGSA,A,3,15,03,,,,,,,,,,,1.01,0.66,0.76,3*05
$GNGSA,A,3,38,39,08,16,06,13,20,09,46,29,37,30,1.01,0.66,0.76,4*0A
$GNGSA,A,3,32,,,,,,,,,,,,1.01,0.66,0.76,4*04
$GPGSV,4,1,14,196,73,051,34,199,72,011,,24,67,171,32,15,53,011,39,1*60
$GPGSV,4,2,14,18,52,307,22,195,46,177,28,41,38,241,31,05,36,089,38,1*58
$GPGSV,4,3,14,13,29,038,34,194,21,145,20,20,17,110,,29,17,219,17,1*5B
$GPGSV,4,4,14,11,03,149,,12,03,163,,1*6A
$GPGSV,1,1,04,196,73,051,39,24,67,171,39,195,46,177,33,194,21,145,28,8*5C
$GLGSV,2,1,06,85,45,297,18,84,42,203,13,70,37,326,,80,32,124,40,1*73
$GLGSV,2,2,06,79,26,063,37,69,24,040,41,1*7D
$GAGSV,1,1,02,15,49,171,31,03,23,046,38,7*76
$GAGSV,1,1,02,15,49,171,29,03,23,046,39,1*78
$GBGSV,4,1,13,38,73,036,34,39,72,229,29,08,64,005,28,16,63,218,29,1*76
$GBGSV,4,2,13,06,60,217,26,13,56,343,19,20,48,024,33,09,43,215,32,1*7E
$GBGSV,4,3,13,46,39,148,27,29,39,235,35,37,34,074,42,30,15,181,23,1*78
$GBGSV,4,4,13,32,14,075,,1*42
$GBGSV,2,1,08,38,73,036,44,39,72,229,35,20,48,024,38,46,39,148,32,4*75
$GBGSV,2,2,08,29,39,235,27,37,34,074,37,30,15,181,22,32,14,075,24,4*70
$GNGGA,101951.000,2500.7912300,N,12132.4732100,E,2,39,0.66,13.70,M,15.25,M,4,3335*7B
$GNRMC,101951.000,A,2500.7912300,N,12132.4732100,E,0.15,65.77,260623,,,D,V*3F
$GPHDT,,T*1B
$GNGGA,101951.200,2500.7912300,N,12132.4732100,E,2,39,0.66,13.69,M,15.25,M,3,3335*76
$GNRMC,101951.200,A,2500.7912300,N,12132.4732100,E,0.11,65.77,260623,,,D,V*39
$GPHDT,,T*1B
$GNGGA,101951.400,2500.7912300,N,12132.4732200,E,2,39,0.66,13.67,M,15.25,M,1,3335*7F
$GNRMC,101951.400,A,2500.7912300,N,12132.4732200,E,0.06,65.77,260623,,,D,V*3A
$GPHDT,,T*1B
$GNGGA,101951.600,2500.7912300,N,12132.4732200,E,2,39,0.66,13.66,M,15.25,M,0,3335*7D
$GNRMC,101951.600,A,2500.7912300,N,12132.4732200,E,0.16,65.77,260623,,,D,V*39
$GPHDT,,T*1B
$GNGGA,101951.800,2500.7912300,N,12132.4732400,E,2,39,0.66,13.63,M,15.25,M,0,3335*70
$GNRMC,101951.800,A,2500.7912300,N,12132.4732400,E,0.24,65.77,260623,,,D,V*30
$GPHDT,,T*1B
$GNGSA,A,3,196,24,15,18,195,05,13,194,,,,,1.01,0.66,0.76,1*33
$GNGSA,A,3,80,79,69,,,,,,,,,,1.01,0.66,0.76,2*0A
$GNGSA,A,3,15,03,,,,,,,,,,,1.01,0.66,0.76,3*05
$GNGSA,A,3,38,39,08,16,06,13,20,09,46,29,37,30,1.01,0.66,0.76,4*0A
$GNGSA,A,3,32,,,,,,,,,,,,1.01,0.66,0.76,4*04
$GPGSV,4,1,14,196,73,051,32,199,72,011,,24,67,171,32,15,53,011,39,1*66
$GPGSV,4,2,14,18,52,307,20,195,46,177,27,41,38,241,30,05,36,089,38,1*54
$GPGSV,4,3,14,13,29,038,32,194,21,145,22,20,17,110,18,29,17,219,17,1*56
$GPGSV,4,4,14,11,03,149,,12,03,163,,1*6A
$GPGSV,1,1,04,196,73,051,40,24,67,171,38,195,46,177,31,194,21,145,28,8*51
$GLGSV,2,1,05,85,45,297,20,84,42,203,14,80,32,124,40,79,26,063,38,1*7C
$GLGSV,2,2,05,69,24,040,41,1*45
$GAGSV,1,1,03,15,49,171,32,03,23,046,40,02,15,110,,7*4D
$GAGSV,1,1,02,15,49,171,29,03,23,046,39,1*78
$GBGSV,4,1,14,38,73,036,33,39,72,229,29,08,64,005,28,16,63,218,30,1*7E
$GBGSV,4,2,14,06,60,217,28,13,56,343,18,20,48,024,33,09,43,215,31,1*75
$GBGSV,4,3,14,46,39,148,27,29,39,235,32,37,34,074,44,31,26,198,,1*76
$GBGSV,4,4,14,30,15,181,23,32,14,075,,1*7B
$GBGSV,2,1,08,38,73,036,44,39,72,229,35,20,48,024,39,46,39,148,32,4*74
$GBGSV,2,2,08,29,39,235,26,37,34,074,39,30,15,181,23,32,14,075,24,4*7E
$GNGGA,101952.000,2500.7912200,N,12132.4732400,E,2,39,0.66,13.62,M,15.25,M,1,3335*7A
$GNRMC,101952.000,A,2500.7912200,N,12132.4732400,E,0.14,65.77,260623,,,D,V*39
$GPHDT,,T*1B
$GNGGA,101952.200,2500.7912300,N,12132.4732400,E,2,39,0.66,13.61,M,15.25,M,1,3335*7A
$GNRMC,101952.200,A,2500.7912300,N,12132.4732400,E,0.03,65.77,260623,,,D,V*3C
$GPHDT,,T*1B
$GNGGA,101952.400,2500.7912300,N,12132.4732500,E,2,39,0.66,13.61,M,15.25,M,1,3335*7D
$GNRMC,101952.400,A,2500.7912300,N,12132.4732500,E,0.06,65.77,260623,,,D,V*3E
$GPHDT,,T*1B
$GNGGA,101952.600,2500.7912300,N,12132.4732500,E,2,39,0.66,13.59,M,15.25,M,1,3335*74
$GNRMC,101952.600,A,2500.7912300,N,12132.4732500,E,0.15,65.77,260623,,,D,V*3E
$GPHDT,,T*1B
$GNGGA,101952.800,2500.7912300,N,12132.4732600,E,2,39,0.66,13.57,M,15.25,M,1,3335*77
$GNRMC,101952.800,A,2500.7912300,N,12132.4732600,E,0.41,65.77,260623,,,D,V*32
$GPHDT,,T*1B
$GNGSA,A,3,196,24,15,18,195,05,13,194,,,,,1.01,0.66,0.76,1*33
$GNGSA,A,3,80,79,69,,,,,,,,,,1.01,0.66,0.76,2*0A
$GNGSA,A,3,15,03,,,,,,,,,,,1.01,0.66,0.76,3*05
$GNGSA,A,3,38,39,08,16,06,13,20,09,46,29,37,30,1.01,0.66,0.76,4*0A
$GNGSA,A,3,32,,,,,,,,,,,,1.01,0.66,0.76,4*04
$GPGSV,4,1,14,196,73,051,33,199,72,011,,24,67,171,32,15,53,011,39,1*67
$GPGSV,4,2,14,18,52,307,20,195,46,177,29,41,38,241,29,05,36,089,35,1*5F
$GPGSV,4,3,14,13,29,038,28,194,21,145,23,20,17,110,19,29,17,219,17,1*5D
$GPGSV,4,4,14,11,03,149,,12,03,163,,1*6A
$GPGSV,1,1,04,196,73,051,40,24,67,171,38,195,46,177,32,194,21,145,28,8*52
$GLGSV,2,1,05,85,45,297,20,84,42,203,14,80,32,124,40,79,26,063,36,1*72
$GLGSV,2,2,05,69,24,040,41,1*45
$GAGSV,1,1,04,15,49,171,33,03,23,046,40,26,15,322,,02,15,110,,7*78
$GAGSV,1,1,02,15,49,171,29,03,23,046,39,1*78
$GBGSV,4,1,13,38,73,036,33,39,72,229,28,08,64,005,28,16,63,218,30,1*78
$GBGSV,4,2,13,06,60,217,28,13,56,343,18,20,48,024,33,09,43,215,31,1*72
$GBGSV,4,3,13,46,39,148,27,29,39,235,33,37,34,074,46,30,15,181,22,1*7B
$GBGSV,4,4,13,32,14,075,,1*42
$GBGSV,2,1,08,38,73,036,44,39,72,229,35,20,48,024,39,46,39,148,32,4*74
$GBGSV,2,2,08,29,39,235,27,37,34,074,43,30,15,181,23,32,14,075,24,4*72
$GNGGA,101953.000,2500.7912200,N,12132.4732800,E,2,39,0.66,13.56,M,15.25,M,2,3335*73
$GNRMC,101953.000,A,2500.7912200,N,12132.4732800,E,0.03,65.77,260623,,,D,V*32
$GPHDT,,T*1B
$GNGGA,101953.200,2500.7912200,N,12132.4732800,E,2,39,0.66,13.55,M,15.25,M,2,3335*72
$GNRMC,101953.200,A,2500.7912200,N,12132.4732800,E,0.05,65.77,260623,,,D,V*36
$GPHDT,,T*1B
$GNGGA,101953.400,2500.7912300,N,12132.4732900,E,2,39,0.66,13.54,M,15.25,M,2,3335*75
$GNRMC,101953.400,A,2500.7912300,N,12132.4732900,E,0.06,65.77,260623,,,D,V*33
$GPHDT,,T*1B
$GNGGA,101953.600,2500.7912200,N,12132.4733000,E,2,39,0.73,13.51,M,15.25,M,2,3335*7F
$GNRMC,101953.600,A,2500.7912200,N,12132.4733000,E,0.08,65.77,260623,,,D,V*36
$GPHDT,,T*1B
$GNGGA,101953.800,2500.7912200,N,12132.4733000,E,2,39,0.73,13.47,M,15.25,M,2,3335*76
$GNRMC,101953.800,A,2500.7912200,N,12132.4733000,E,0.13,65.77,260623,,,D,V*32
$GPHDT,,T*1B
$GNGSA,A,3,196,24,15,18,195,05,13,194,,,,,1.37,0.73,1.16,1*35
$GNGSA,A,3,80,79,69,,,,,,,,,,1.37,0.73,1.16,2*0C
$GNGSA,A,3,15,03,,,,,,,,,,,1.37,0.73,1.16,3*03
$GNGSA,A,3,38,39,08,16,06,13,20,09,46,29,37,30,1.37,0.73,1.16,4*0C
$GNGSA,A,3,32,,,,,,,,,,,,1.37,0.73,1.16,4*02
$GPGSV,4,1,14,196,73,051,33,199,72,011,,24,67,171,32,15,53,011,40,1*69
$GPGSV,4,2,14,18,52,307,22,195,46,177,26,41,38,241,30,05,36,089,43,1*5B
$GPGSV,4,3,14,13,29,038,31,194,21,145,22,20,17,110,19,29,17,219,19,1*5A
$GPGSV,4,4,14,11,03,149,,12,03,163,,1*6A
$GPGSV,1,1,04,196,73,051,40,24,67,171,38,195,46,177,33,194,21,145,27,8*5C
$GLGSV,2,1,05,85,45,297,17,84,42,203,13,80,32,124,38,79,26,063,37,1*7F
$GLGSV,2,2,05,69,24,040,40,1*44
$GAGSV,1,1,04,15,49,171,33,03,23,046,38,26,15,322,19,02,15,110,,7*7F
$GAGSV,1,1,02,15,49,171,28,03,23,046,38,1*78
$GBGSV,4,1,13,38,73,036,33,39,72,229,29,08,64,005,28,16,63,218,32,1*7B
$GBGSV,4,2,13,06,60,217,26,13,56,343,19,20,48,024,34,09,43,215,30,1*7B
$GBGSV,4,3,13,46,39,148,30,29,39,235,34,37,34,074,45,30,15,181,23,1*78
$GBGSV,4,4,13,32,14,075,,1*42
$GBGSV,2,1,08,38,73,036,44,39,72,229,35,20,48,024,39,46,39,148,30,4*76
$GBGSV,2,2,08,29,39,235,25,37,34,074,44,30,15,181,24,32,14,075,25,4*71
$GNGGA,101954.000,2500.7912200,N,12132.4733100,E,2,39,0.73,13.46,M,15.25,M,3,3335*78
$GNRMC,101954.000,A,2500.7912200,N,12132.4733100,E,0.10,65.77,260623,,,D,V*3F
$GPHDT,,T*1B
$GNGGA,101954.200,2500.7912300,N,12132.4733100,E,2,39,0.66,13.45,M,15.25,M,2,3335*7D
$GNRMC,101954.200,A,2500.7912300,N,12132.4733100,E,0.09,65.77,260623,,,D,V*34
$GPHDT,,T*1B
$GNGGA,101954.400,2500.7912300,N,12132.4733100,E,2,39,0.66,13.44,M,15.25,M,2,3335*7A
$GNRMC,101954.400,A,2500.7912300,N,12132.4733100,E,0.15,65.77,260623,,,D,V*3F
$GPHDT,,T*1B
$GNGGA,101954.600,2500.7912300,N,12132.4733200,E,2,40,0.63,13.42,M,15.25,M,2,3335*76
$GNRMC,101954.600,A,2500.7912300,N,12132.4733200,E,0.15,65.77,260623,,,D,V*3E
$GPHDT,,T*1B
$GNGGA,101954.800,2500.7912300,N,12132.4733300,E,2,40,0.63,13.39,M,15.25,M,2,3335*75
$GNRMC,101954.800,A,2500.7912300,N,12132.4733300,E,0.23,65.77,260623,,,D,V*34
$GPHDT,,T*1B
$GNGSA,A,3,196,24,15,18,195,05,13,194,29,,,,0.94,0.63,0.70,1*36
$GNGSA,A,3,80,79,69,,,,,,,,,,0.94,0.63,0.70,2*04
$GNGSA,A,3,15,03,,,,,,,,,,,0.94,0.63,0.70,3*0B
$GNGSA,A,3,38,39,08,16,06,13,20,09,46,29,37,30,0.94,0.63,0.70,4*04
$GNGSA,A,3,32,,,,,,,,,,,,0.94,0.63,0.70,4*0A
$GPGSV,4,1,14,196,73,051,33,199,72,011,,24,67,171,31,15,53,011,40,1*6A
$GPGSV,4,2,14,18,52,307,22,195,46,177,28,41,38,241,30,05,36,089,38,1*59
$GPGSV,4,3,14,13,29,038,31,194,21,145,21,20,17,110,20,29,17,219,19,1*53
$GPGSV,4,4,14,11,03,149,,12,03,163,,1*6A
$GPGSV,1,1,04,196,73,051,39,24,67,171,38,195,46,177,33,194,21,145,26,8*53
$GLGSV,2,1,05,85,45,297,15,84,42,203,15,80,32,124,38,79,26,063,35,1*79
$GLGSV,2,2,05,69,24,040,40,1*44
$GAGSV,1,1,04,15,49,171,34,03,23,046,40,26,15,322,23,02,15,110,,7*7E
$GAGSV,1,1,02,15,49,171,28,03,23,046,39,1*79
$GBGSV,4,1,13,38,73,036,33,39,72,229,28,08,64,005,28,16,63,218,30,1*78
$GBGSV,4,2,13,06,60,217,27,13,56,343,19,20,48,024,33,09,43,215,30,1*7D
$GBGSV,4,3,13,46,39,148,31,29,39,235,34,37,34,074,45,30,15,181,23,1*79
$GBGSV,4,4,13,32,14,075,,1*42
$GBGSV,2,1,08,38,73,036,44,39,72,229,35,20,48,024,39,46,39,148,32,4*74
$GBGSV,2,2,08,29,39,235,25,37,34,074,44,30,15,181,24,32,14,075,24,4*70
$GNGGA,101955.000,2500.7912300,N,12132.4733300,E,2,40,0.63,13.37,M,15.25,M,3,3335*73
$GNRMC,101955.000,A,2500.7912300,N,12132.4733300,E,0.02,65.77,260623,,,D,V*3E
$GPHDT,,T*1B
$GNGGA,101955.200,2500.7912300,N,12132.4733400,E,2,40,0.63,13.37,M,15.25,M,3,3335*76
$GNRMC,101955.200,A,2500.7912300,N,12132.4733400,E,0.09,65.77,260623,,,D,V*30
$GPHDT,,T*1B
$GNGGA,101955.400,2500.7912400,N,12132.4733400,E,2,40,0.63,13.36,M,15.25,M,3,3335*76
$GNRMC,101955.400,A,2500.7912400,N,12132.4733400,E,0.04,65.77,260623,,,D,V*3C
$GPHDT,,T*1B
$GNGGA,101955.600,2500.7912400,N,12132.4733400,E,2,40,0.63,13.35,M,15.25,M,3,3335*77
$GNRMC,101955.600,A,2500.7912400,N,12132.4733400,E,0.26,65.77,260623,,,D,V*3E
$GPHDT,,T*1B
$GNGGA,101955.800,2500.7912400,N,12132.4733500,E,2,40,0.63,13.32,M,15.25,M,3,3335*7F
$GNRMC,101955.800,A,2500.7912400,N,12132.4733500,E,0.12,65.77,260623,,,D,V*36
$GPHDT,,T*1B
$GNGSA,A,3,196,24,15,18,195,05,13,194,29,,,,0.94,0.63,0.70,1*36
$GNGSA,A,3,80,79,69,,,,,,,,,,0.94,0.63,0.70,2*04
$GNGSA,A,3,15,03,,,,,,,,,,,0.94,0.63,0.70,3*0B
$GNGSA,A,3,38,39,08,16,06,13,20,09,46,29,37,30,0.94,0.63,0.70,4*04
$GNGSA,A,3,32,,,,,,,,,,,,0.94,0.63,0.70,4*0A
$GPGSV,4,1,14,196,73,051,32,199,72,011,,24,67,171,28,15,53,011,40,1*63
$GPGSV,4,2,14,18,52,307,20,195,46,177,29,41,38,241,28,05,36,089,35,1*5E
$GPGSV,4,3,14,13,29,038,33,194,21,145,23,20,17,110,20,29,17,219,19,1*53
$GPGSV,4,4,14,11,03,149,,12,03,163,,1*6A
$GPGSV,2,1,05,196,73,051,38,24,67,171,38,18,52,307,19,195,46,177,33,8*69
$GPGSV,2,2,05,194,21,145,26,8*63
$GLGSV,2,1,07,85,45,297,17,84,42,203,13,80,32,124,40,79,26,063,36,1*73
$GLGSV,2,2,07,69,24,040,41,71,10,281,,86,09,330,,1*4C
$GAGSV,2,1,05,15,49,171,33,03,23,046,38,02,15,110,,26,15,322,22,7*75
$GAGSV,2,2,05,30,08,160,,7*4A
$GAGSV,1,1,02,15,49,171,27,03,23,046,39,1*76
$GBGSV,4,1,13,38,73,036,31,39,72,229,30,08,64,005,27,16,63,218,31,1*7D
$GBGSV,4,2,13,06,60,217,28,13,56,343,18,20,48,024,34,09,43,215,30,1*74
$GBGSV,4,3,13,46,39,148,24,29,39,235,32,37,34,074,41,30,15,181,22,1*7E
$GBGSV,4,4,13,32,14,075,,1*42
$GBGSV,2,1,08,38,73,036,43,39,72,229,34,20,48,024,39,29,39,235,25,4*74
$GBGSV,2,2,08,46,39,148,31,37,34,074,39,30,15,181,24,32,14,075,24,4*7F
$GNGGA,101956.000,2500.7912400,N,12132.4733600,E,2,40,0.63,13.32,M,15.25,M,4,3335*70
$GNRMC,101956.000,A,2500.7912400,N,12132.4733600,E,0.15,65.77,260623,,,D,V*39
$GPHDT,,T*1B
$GNGGA,101956.200,2500.7912300,N,12132.4733700,E,2,39,0.66,13.32,M,15.25,M,4,3335*7F
$GNRMC,101956.200,A,2500.7912300,N,12132.4733700,E,0.17,65.77,260623,,,D,V*3F
$GPHDT,,T*1B
$GNGGA,101956.400,2500.7912300,N,12132.4733700,E,2,39,0.66,13.31,M,15.25,M,4,3335*7A
$GNRMC,101956.400,A,2500.7912300,N,12132.4733700,E,0.12,65.77,260623,,,D,V*3C
$GPHDT,,T*1B
$GNGGA,101956.600,2500.7912300,N,12132.4733700,E,2,39,0.66,13.29,M,15.25,M,4,3335*71
$GNRMC,101956.600,A,2500.7912300,N,12132.4733700,E,0.25,65.77,260623,,,D,V*3A
$GPHDT,,T*1B
$GNGGA,101956.800,2500.7912300,N,12132.4733900,E,2,38,0.66,13.26,M,15.25,M,4,3335*7F
$GNRMC,101956.800,A,2500.7912300,N,12132.4733900,E,0.18,65.77,260623,,,D,V*34
$GPHDT,,T*1B
$GNGSA,A,3,196,24,15,18,195,05,13,194,29,,,,0.94,0.63,0.70,1*36
$GNGSA,A,3,80,79,69,,,,,,,,,,0.94,0.63,0.70,2*04
$GNGSA,A,3,15,03,,,,,,,,,,,0.94,0.63,0.70,3*0B
$GNGSA,A,3,38,39,08,16,06,13,20,09,46,29,37,30,0.94,0.63,0.70,4*04
$GNGSA,A,3,32,,,,,,,,,,,,0.94,0.63,0.70,4*0A
$GPGSV,4,1,14,196,73,051,28,199,72,011,,24,67,171,32,15,53,011,30,1*64
$GPGSV,4,2,14,18,52,307,18,195,46,177,29,41,38,241,31,05,36,089,39,1*51
$GPGSV,4,3,14,13,29,038,28,194,21,145,19,20,17,110,21,29,17,219,19,1*51
$GPGSV,4,4,14,11,03,149,,12,03,163,,1*6A
$GPGSV,2,1,05,196,73,051,34,24,67,171,35,18,52,307,24,195,46,177,35,8*60
$GPGSV,2,2,05,194,21,145,25,8*60
$GLGSV,2,1,07,85,45,297,17,84,42,203,17,80,32,124,29,79,26,063,29,1*76
$GLGSV,2,2,07,69,24,040,29,71,10,281,,86,09,330,,1*42
$GAGSV,2,1,05,15,49,171,35,03,23,046,29,02,15,110,,26,15,322,20,7*71
$GAGSV,2,2,05,30,08,160,,7*4A
$GAGSV,1,1,02,15,49,171,30,03,23,046,35,1*7C
$GBGSV,4,1,13,38,73,036,25,39,72,229,27,08,64,005,26,16,63,218,30,1*7E
$GBGSV,4,2,13,06,60,217,28,13,56,343,23,20,48,024,25,09,43,215,29,1*74
$GBGSV,4,3,13,46,39,148,29,29,39,235,32,37,34,074,34,30,15,181,19,1*79
$GBGSV,4,4,13,32,14,075,,1*42
$GBGSV,2,1,08,38,73,036,41,39,72,229,34,20,48,024,37,29,39,235,25,4*78
$GBGSV,2,2,08,46,39,148,30,37,34,074,37,30,15,181,24,32,14,075,23,4*77
$GNGGA,101957.000,2500.7912400,N,12132.4733900,E,2,39,0.63,13.24,M,15.25,M,5,3335*76
$GNRMC,101957.000,A,2500.7912400,N,12132.4733900,E,0.61,260.21,260623,,,D,V*00
$GPHDT,,T*1B
$GNGGA,101957.200,2500.7912400,N,12132.4733600,E,2,40,0.63,13.24,M,15.25,M,5,3335*75
$GNRMC,101957.200,A,2500.7912400,N,12132.4733600,E,0.22,260.21,260623,,,D,V*0A
$GPHDT,,T*1B
$GNGGA,101957.400,2500.7912400,N,12132.4733500,E,2,41,0.63,13.24,M,15.25,M,5,3335*71
$GNRMC,101957.400,A,2500.7912400,N,12132.4733500,E,0.20,260.21,260623,,,D,V*0D
$GPHDT,,T*1B
$GNGGA,101957.600,2500.7912600,N,12132.4733400,E,2,39,0.63,13.25,M,15.25,M,5,3335*7E
$GNRMC,101957.600,A,2500.7912600,N,12132.4733400,E,0.21,260.21,260623,,,D,V*0D
$GPHDT,,T*1B
$GNGGA,101957.800,2500.7912700,N,12132.4733500,E,2,38,0.64,13.24,M,15.25,M,5,3335*77
$GNRMC,101957.800,A,2500.7912700,N,12132.4733500,E,0.22,260.21,260623,,,D,V*00
$GPHDT,,T*1B
$GNGSA,A,3,196,24,18,195,05,13,194,29,,,,,0.95,0.64,0.70,1*34
$GNGSA,A,3,80,79,69,,,,,,,,,,0.95,0.64,0.70,2*02
$GNGSA,A,3,15,03,,,,,,,,,,,0.95,0.64,0.70,3*0D
$GNGSA,A,3,38,39,08,16,06,13,20,09,46,29,37,30,0.95,0.64,0.70,4*02
$GNGSA,A,3,32,,,,,,,,,,,,0.95,0.64,0.70,4*0C
$GPGSV,4,1,14,196,73,051,23,199,72,011,,24,67,171,31,15,53,011,26,1*6B
$GPGSV,4,2,14,18,52,307,18,195,46,177,30,41,38,241,29,05,36,089,26,1*5E
$GPGSV,4,3,14,13,29,038,25,194,21,145,28,20,17,110,17,29,17,219,20,1*51
$GPGSV,4,4,14,11,03,149,,12,03,163,,1*6A
$GPGSV,2,1,05,196,73,051,30,24,67,171,38,18,52,307,25,195,46,177,38,8*65
$GPGSV,2,2,05,194,21,145,23,8*66
$GLGSV,2,1,05,85,45,297,22,84,42,203,19,80,32,124,33,79,26,063,29,1*77
$GLGSV,2,2,05,69,24,040,29,1*4B
$GAGSV,2,1,05,15,49,171,29,03,23,046,26,26,15,322,,02,15,110,,7*71
$GAGSV,2,2,05,30,08,160,,7*4A
$GAGSV,1,1,02,15,49,171,33,03,23,046,28,1*73
$GBGSV,4,1,13,38,73,036,26,39,72,229,33,08,64,005,19,16,63,218,32,1*76
$GBGSV,4,2,13,06,60,217,23,13,56,343,24,20,48,024,25,09,43,215,24,1*75
$GBGSV,4,3,13,46,39,148,36,29,39,235,36,37,34,074,35,30,15,181,21,1*79
$GBGSV,4,4,13,32,14,075,,1*42
$GBGSV,2,1,07,38,73,036,39,39,72,229,35,20,48,024,34,46,39,148,28,4*77
$GBGSV,2,2,07,37,34,074,37,30,15,181,23,32,14,075,23,4*49
$GNGGA,101958.000,2500.7912800,N,12132.4733600,E,2,38,0.64,13.22,M,15.25,M,6,3335*79
$GNRMC,101958