$FW : RTK35X,V1.1X0314AS,Lib20210517,1*54
$Tool : LOCOSYS , GNSS Firebird , v1.0.0.19*39
$---------------------------------------------------*2D
$GPHDT,,T*1B
$GNGGA,102505.600,2500.7935020,N,12132.4728393,E,2,43,0.62,18.905,M,15.25,M,4,3335*4D
$GNRMC,102505.600,A,2500.7935020,N,12132.4728393,E,0.02,262.55,260623,,,D,V*03
$GPHDT,,T*1B
$GNGGA,102505.800,2500.7934960,N,12132.4728513,E,2,43,0.62,18.910,M,15.25,M,4,3335*45
$GNRMC,102505.800,A,2500.7934960,N,12132.4728513,E,0.02,262.55,260623,,,D,V*0F
$GPHDT,,T*1B
$GNGSA,A,3,196,24,199,18,15,195,05,13,194,,,,0.99,0.62,0.77,1*07
$GNGSA,A,3,84,80,79,69,,,,,,,,,0.99,0.62,0.77,2*03
$GNGSA,A,3,13,08,15,07,03,,,,,,,,0.99,0.62,0.77,3*0D
$GNGSA,A,3,38,39,06,20,09,46,29,37,,,,,0.99,0.62,0.77,4*01
$GPGSV,3,1,12,196,73,052,33,24,69,168,40,199,60,167,18,50,60,167,24,1*61
$GPGSV,3,2,12,18,54,304,17,15,52,014,38,195,45,177,36,05,35,091,43,1*56
$GPGSV,3,3,12,23,28,320,19,13,27,039,32,194,21,145,20,29,,,24,1*69
$GPGSV,2,1,06,196,73,052,39,24,69,168,35,199,60,167,43,18,54,304,27,8*65
$GPGSV,2,2,06,195,45,177,35,194,21,145,25,8*68
$GLGSV,1,1,04,84,39,202,21,80,34,121,39,79,25,060,33,69,23,043,37,1*7C
$GAGSV,2,1,05,13,65,285,25,08,58,355,19,15,47,171,31,07,37,273,24,7*73
$GAGSV,2,2,05,03,22,047,29,7*4D
$GAGSV,2,1,05,13,65,285,30,08,58,355,23,15,47,171,40,07,37,273,21,1*7B
$GAGSV,2,2,05,03,22,047,38,1*4B
$GBGSV,2,1,08,38,74,038,41,39,72,233,32,06,61,219,37,20,48,027,22,1*73
$GBGSV,2,2,08,09,44,216,31,46,40,146,32,29,38,233,36,37,33,072,44,1*72
$GBGSV,2,1,06,38,74,038,44,39,72,233,31,20,48,027,39,46,40,146,37,4*7A
$GBGSV,2,2,06,29,38,233,36,37,33,072,45,4*72
$GNGGA,102506.000,2500.7934840,N,12132.4728633,E,2,43,0.62,18.910,M,15.25,M,5,3335*4D
$GNRMC,102506.000,A,2500.7934840,N,12132.4728633,E,0.01,262.55,260623,,,D,V*05
$GPHDT,,T*1B
$GNGGA,102506.200,2500.7934780,N,12132.4728693,E,2,42,0.62,18.913,M,15.25,M,5,3335*44
$GNRMC,102506.200,A,2500.7934780,N,12132.4728693,E,0.01,262.55,260623,,,D,V*0E
$GPHDT,,T*1B
$GNGGA,102506.400,2500.7934660,N,12132.4728753,E,2,42,0.62,18.914,M,15.25,M,5,3335*47
$GNRMC,102506.400,A,2500.7934660,N,12132.4728753,E,0.06,262.55,260623,,,D,V*0D
$GPHDT,,T*1B
$GNGGA,102506.600,2500.7934600,N,12132.4728873,E,2,42,0.62,18.920,M,15.25,M,5,3335*49
$GNRMC,102506.600,A,2500.7934600,N,12132.4728873,E,0.07,262.55,260623,,,D,V*05
$GPHDT,,T*1B
$GNGGA,102506.800,2500.7934600,N,12132.4728933,E,2,42,0.62,18.919,M,15.25,M,5,3335*48
$GNRMC,102506.800,A,2500.7934600,N,12132.4728933,E,0.06,262.55,260623,,,D,V*0F
$GPHDT,,T*1B
$GNGSA,A,3,196,24,199,18,15,195,05,194,,,,,1.01,0.64,0.78,1*0C
$GNGSA,A,3,84,80,79,69,,,,,,,,,1.01,0.64,0.78,2*0A
$GNGSA,A,3,13,08,15,07,03,,,,,,,,1.01,0.64,0.78,3*04
$GNGSA,A,3,38,39,06,09,46,29,37,20,,,,,1.01,0.64,0.78,4*08
$GPGSV,3,1,12,196,73,052,32,24,69,168,41,199,60,167,18,50,60,167,23,1*66
$GPGSV,3,2,12,18,54,304,16,15,52,014,38,195,45,177,36,05,35,091,43,1*57
$GPGSV,3,3,12,23,28,320,19,13,27,039,31,194,21,145,21,29,,,25,1*6A
$GPGSV,2,1,06,196,73,052,39,24,69,168,35,199,60,167,43,18,54,304,26,8*64
$GPGSV,2,2,06,195,45,177,34,194,21,145,26,8*6A
$GLGSV,1,1,04,84,39,202,21,80,34,121,39,79,25,060,32,69,23,043,37,1*7D
$GAGSV,2,1,05,13,65,285,25,08,58,355,19,15,47,171,30,07,37,273,24,7*72
$GAGSV,2,2,05,03,22,047,29,7*4D
$GAGSV,2,1,05,13,65,285,31,08,58,355,20,15,47,171,40,07,37,273,20,1*78
$GAGSV,2,2,05,03,22,047,38,1*4B
$GBGSV,2,1,08,38,74,038,41,39,72,233,33,06,61,219,37,20,48,027,18,1*7B
$GBGSV,2,2,08,09,44,216,30,46,40,146,32,29,38,233,36,37,33,072,44,1*73
$GBGSV,2,1,06,38,74,038,44,39,72,233,31,20,48,027,39,46,40,146,37,4*7A
$GBGSV,2,2,06,29,38,233,36,37,33,072,45,4*72
$GNGGA,102507.000,2500.7934540,N,12132.4728993,E,1,41,0.64,18.915,M,15.25,M,6,3335*45
$GNRMC,102507.000,A,2500.7934540,N,12132.4728993,E,0.06,262.55,260623,,,A,V*0E
$GPHDT,,T*1B
$GNGGA,102507.200,2500.7934480,N,12132.4729053,E,1,40,0.64,18.909,M,15.25,M,6,3335*42
$GNRMC,102507.200,A,2500.7934480,N,12132.4729053,E,0.08,262.55,260623,,,A,V*0B
$GPHDT,,T*1B
$GNGGA,102507.400,2500.7934480,N,12132.4729113,E,2,41,0.62,18.904,M,15.25,M,5,3335*4B
$GNRMC,102507.400,A,2500.7934480,N,12132.4729113,E,0.12,262.55,260623,,,D,V*06
$GPHDT,,T*1B
$GNGGA,102507.600,2500.7934420,N,12132.4729233,E,2,41,0.62,18.897,M,15.25,M,3,3335*4F
$GNRMC,102507.600,A,2500.7934420,N,12132.4729233,E,0.05,262.55,260623,,,D,V*09
$GPHDT,,T*1B
$GNGGA,102507.800,2500.7934480,N,12132.4729293,E,2,41,0.62,18.886,M,15.25,M,3,3335*41
$GNRMC,102507.800,A,2500.7934480,N,12132.4729293,E,0.03,262.55,260623,,,D,V*01
$GPHDT,,T*1B
$GNGSA,A,3,196,24,199,18,15,195,05,13,194,,,,0.99,0.62,0.77,1*07
$GNGSA,A,3,84,80,79,69,,,,,,,,,0.99,0.62,0.77,2*03
$GNGSA,A,3,13,08,15,07,03,,,,,,,,0.99,0.62,0.77,3*0D
$GNGSA,A,3,38,39,06,09,46,29,37,20,,,,,0.99,0.62,0.77,4*01
$GPGSV,3,1,12,196,73,052,33,24,69,168,41,199,60,167,18,50,60,167,23,1*67
$GPGSV,3,2,12,18,54,304,15,15,52,014,38,195,45,177,36,05,35,091,44,1*53
$GPGSV,3,3,12,23,28,320,19,13,27,039,30,194,21,145,23,29,,,26,1*6A
$GPGSV,2,1,06,196,73,052,39,24,69,168,35,199,60,167,43,18,54,304,26,8*64
$GPGSV,2,2,06,195,45,177,35,194,21,145,27,8*6A
$GLGSV,1,1,04,84,39,202,22,80,34,121,39,79,25,060,32,69,23,043,37,1*7E
$GAGSV,2,1,05,13,65,285,25,08,58,355,17,15,47,171,31,07,37,273,24,7*7D
$GAGSV,2,2,05,03,22,047,31,7*44
$GAGSV,1,1,04,13,65,285,31,15,47,171,40,07,37,273,21,03,22,047,38,1*74
$GBGSV,2,1,08,38,74,038,41,39,72,233,33,06,61,219,37,20,48,027,20,1*70
$GBGSV,2,2,08,09,44,216,31,46,40,146,32,29,38,233,36,37,33,072,44,1*72
$GBGSV,2,1,06,38,74,038,44,39,72,233,32,20,48,027,39,46,40,146,37,4*79
$GBGSV,2,2,06,29,38,233,36,37,33,072,45,4*72
$GNGGA,102508.000,2500.7934480,N,12132.4729413,E,2,41,0.62,18.875,M,15.25,M,1,3335*46
$GNRMC,102508.000,A,2500.7934480,N,12132.4729413,E,0.05,262.55,260623,,,D,V*0E
$GPHDT,,T*1B
$GNGGA,102508.200,2500.7934480,N,12132.4729533,E,2,41,0.62,18.860,M,15.25,M,1,3335*43
$GNRMC,102508.200,A,2500.7934480,N,12132.4729533,E,0.02,262.55,260623,,,D,V*08
$GPHDT,,T*1B
$GNGGA,102508.400,2500.7934420,N,12132.4729593,E,2,41,0.62,18.853,M,15.25,M,1,3335*45
$GNRMC,102508.400,A,2500.7934420,N,12132.4729593,E,0.01,262.55,260623,,,D,V*0D
$GPHDT,,T*1B
$GNGGA,102508.600,2500.7934480,N,12132.4729653,E,2,41,0.62,18.845,M,15.25,M,1,3335*45
$GNRMC,102508.600,A,2500.7934480,N,12132.4729653,E,0.02,262.55,260623,,,D,V*09
$GPHDT,,T*1B
$GNGGA,102508.800,2500.7934420,N,12132.4729773,E,2,41,0.62,18.839,M,15.25,M,0,3335*48
$GNRMC,102508.800,A,2500.7934420,N,12132.4729773,E,0.01,262.55,260623,,,D,V*0D
$GPHDT,,T*1B
$GNGSA,A,3,196,24,199,15,195,05,13,194,18,,,,0.99,0.62,0.77,1*07
$GNGSA,A,3,84,80,79,69,,,,,,,,,0.99,0.62,0.77,2*03
$GNGSA,A,3,13,08,15,07,03,,,,,,,,0.99,0.62,0.77,3*0D
$GNGSA,A,3,38,39,06,20,09,46,29,37,,,,,0.99,0.62,0.77,4*01
$GPGSV,3,1,12,196,73,052,32,24,69,168,41,199,60,167,18,50,60,167,25,1*60
$GPGSV,3,2,12,18,54,304,16,15,52,014,38,195,45,177,36,05,35,091,44,1*50
$GPGSV,3,3,12,23,28,320,18,13,27,039,30,194,21,145,22,29,,,26,1*6A
$GPGSV,2,1,06,196,73,052,37,24,69,168,35,199,60,167,43,18,54,304,26,8*6A
$GPGSV,2,2,06,195,45,177,35,194,21,145,24,8*69
$GLGSV,1,1,04,84,39,202,22,80,34,121,39,79,25,060,32,69,23,043,37,1*7E
$GAGSV,2,1,05,13,65,285,26,08,58,355,18,15,47,171,31,07,37,273,24,7*71
$GAGSV,2,2,05,03,22,047,29,7*4D
$GAGSV,1,1,04,13,65,285,31,15,47,171,40,07,37,273,21,03,22,047,38,1*74
$GBGSV,2,1,08,38,74,038,42,39,72,233,33,06,61,220,37,20,48,027,25,1*7C
$GBGSV,2,2,08,09,44,217,31,46,40,146,33,29,38,233,36,37,33,072,44,1*72
$GBGSV,2,1,06,38,74,038,44,39,72,233,31,20,48,027,39,46,40,146,37,4*7A
$GBGSV,2,2,06,29,38,233,36,37,33,072,45,4*72
$GNGGA,102509.000,2500.7934540,N,12132.4729773,E,2,41,0.62,18.833,M,15.25,M,1,3335*4D
$GNRMC,102509.000,A,2500.7934540,N,12132.4729773,E,0.04,262.55,260623,,,D,V*06
$GPHDT,,T*1B
$GNGGA,102509.200,2500.7934540,N,12132.4729773,E,2,41,0.62,18.823,M,15.25,M,1,3335*4E
$GNRMC,102509.200,A,2500.7934540,N,12132.4729773,E,0.06,262.55,260623,,,D,V*06
$GPHDT,,T*1B
$GNGGA,102509.400,2500.7934480,N,12132.4729893,E,1,39,0.64,18.816,M,15.25,M,1,3335*48
$GNRMC,102509.400,A,2500.7934480,N,12132.4729893,E,0.03,262.55,260623,,,A,V*0C
$GPHDT,,T*1B
$GNGGA,102509.600,2500.7934600,N,12132.4729893,E,1,41,0.64,18.808,M,15.25,M,0,3335*41
$GNRMC,102509.600,A,2500.7934600,N,12132.4729893,E,0.04,262.55,260623,,,A,V*03
$GPHDT,,T*1B
$GNGGA,102509.800,2500.7934720,N,12132.4729893,E,1,41,0.64,18.799,M,15.25,M,0,3335*4B
$GNRMC,102509.800,A,2500.7934720,N,12132.4729893,E,0.02,262.55,260623,,,A,V*08
$GPHDT,,T*1B
$GNGSA,A,3,196,24,199,15,195,05,194,18,,,,,1.01,0.64,0.78,1*0C
$GNGSA,A,3,84,80,79,69,,,,,,,,,1.01,0.64,0.78,2*0A
$GNGSA,A,3,13,08,15,07,03,,,,,,,,1.01,0.64,0.78,3*04
$GNGSA,A,3,38,39,06,20,09,46,29,37,,,,,1.01,0.64,0.78,4*08
$GPGSV,3,1,12,196,73,052,32,24,69,168,41,199,60,167,20,50,60,167,26,1*68
$GPGSV,3,2,12,18,54,304,16,15,52,014,38,195,45,177,36,05,35,091,44,1*50
$GPGSV,3,3,12,23,28,320,18,13,27,039,27,194,21,145,22,29,,,27,1*6D
$GPGSV,2,1,06,196,73,052,38,24,69,168,36,199,60,167,43,18,54,304,26,8*66
$GPGSV,2,2,06,195,45,177,35,194,21,145,27,8*6A
$GLGSV,1,1,04,84,39,202,21,80,34,121,38,79,25,060,32,69,23,043,37,1*7C
$GAGSV,2,1,05,13,65,285,26,08,58,355,23,15,47,171,30,07,37,273,24,7*78
$GAGSV,2,2,05,03,22,047,28,7*4C
$GAGSV,2,1,05,13,65,285,32,08,58,355,25,15,47,171,40,07,37,273,21,1*7F
$GAGSV,2,2,05,03,22,047,38,1*4B
$GBGSV,2,1,08,38,74,038,42,39,72,233,33,06,61,220,37,20,48,027,21,1*78
$GBGSV,2,2,08,09,44,217,31,46,40,146,34,29,38,233,36,37,33,072,44,1*75
$GBGSV,2,1,06,38,74,038,44,39,72,233,31,20,48,027,39,46,40,146,38,4*75
$GBGSV,2,2,06,29,38,233,37,37,33,072,45,4*73
$GNGGA,102510.000,2500.7934720,N,12132.4729953,E,1,41,0.64,18.792,M,15.25,M,1,3335*4C
$GNRMC,102510.000,A,2500.7934720,N,12132.4729953,E,0.01,262.55,260623,,,A,V*06
$GPHDT,,T*1B
$GNGGA,102510.200,2500.7934660,N,12132.4730073,E,2,41,0.62,18.784,M,15.25,M,1,3335*4A
$GNRMC,102510.200,A,2500.7934660,N,12132.4730073,E,0.00,262.55,260623,,,D,V*06
$GPHDT,,T*1B
$GNGGA,102510.400,2500.7934660,N,12132.4730133,E,2,41,0.62,18.777,M,15.25,M,1,3335*45
$GNRMC,102510.400,A,2500.7934660,N,12132.4730133,E,0.01,262.55,260623,,,D,V*04
$GPHDT,,T*1B
$GNGGA,102510.600,2500.7934720,N,12132.4730133,E,2,41,0.62,18.768,M,15.25,M,1,3335*4C
$GNRMC,102510.600,A,2500.7934720,N,12132.4730133,E,0.02,262.55,260623,,,D,V*00
$GPHDT,,T*1B
$GNGGA,102510.800,2500.7934660,N,12132.4730193,E,2,42,0.62,18.758,M,15.25,M,1,3335*4D
$GNRMC,102510.800,A,2500.7934660,N,12132.4730193,E,0.04,262.55,260623,,,D,V*07
$GPHDT,,T*1B
$GNGSA,A,3,196,24,199,18,15,195,05,13,194,,,,0.99,0.62,0.77,1*07
$GNGSA,A,3,84,80,79,69,,,,,,,,,0.99,0.62,0.77,2*03
$GNGSA,A,3,13,08,15,07,03,,,,,,,,0.99,0.62,0.77,3*0D
$GNGSA,A,3,38,39,06,09,46,29,37,20,,,,,0.99,0.62,0.77,4*01
$GPGSV,3,1,12,196,73,052,32,24,69,168,41,199,60,167,19,50,60,167,23,1*67
$GPGSV,3,2,12,18,54,304,17,15,52,014,38,195,45,177,36,05,35,091,44,1*51
$GPGSV,3,3,12,23,28,320,18,13,27,039,30,194,21,145,21,29,,,27,1*68
$GPGSV,2,1,06,196,73,052,38,24,69,168,36,199,60,167,43,18,54,304,26,8*66
$GPGSV,2,2,06,195,45,177,34,194,21,145,27,8*6B
$GLGSV,1,1,04,84,39,202,21,80,34,121,38,79,25,060,32,69,23,043,37,1*7C
$GAGSV,2,1,05,13,65,285,25,08,58,355,23,15,47,171,30,07,37,273,24,7*7B
$GAGSV,2,2,05,03,22,047,27,7*43
$GAGSV,2,1,05,13,65,285,31,08,58,355,27,15,47,171,40,07,37,273,20,1*7F
$GAGSV,2,2,05,03,22,047,38,1*4B
$GBGSV,2,1,08,38,74,038,42,39,72,233,33,06,61,220,37,20,48,027,,1*7B
$GBGSV,2,2,08,09,44,217,31,46,40,146,33,29,38,233,37,37,33,072,44,1*73
$GBGSV,2,1,06,38,74,038,44,39,72,233,30,20,48,027,39,46,40,146,38,4*74
$GBGSV,2,2,06,29,38,233,37,37,33,072,45,4*73
$GNGGA,102511.000,2500.7934660,N,12132.4730253,E,2,42,0.62,18.749,M,15.25,M,2,3335*48
$GNRMC,102511.000,A,2500.7934660,N,12132.4730253,E,0.06,262.55,260623,,,D,V*03
$GPHDT,,T*1B
$GNGGA,102511.200,2500.7934840,N,12132.4730253,E,2,42,0.62,18.742,M,15.25,M,2,3335*4D
$GNRMC,102511.200,A,2500.7934840,N,12132.4730253,E,0.06,262.55,260623,,,D,V*0D
$GPHDT,,T*1B
$GNGGA,102511.400,2500.7935020,N,12132.4730253,E,2,42,0.62,18.722,M,15.25,M,2,3335*42
$GNRMC,102511.400,A,2500.7935020,N,12132.4730253,E,0.05,262.55,260623,,,D,V*07
$GPHDT,,T*1B
$GNGGA,102511.600,2500.7935140,N,12132.4730253,E,2,42,0.62,18.706,M,15.25,M,2,3335*41
$GNRMC,102511.600,A,2500.7935140,N,12132.4730253,E,0.04,262.55,260623,,,D,V*03
$GPHDT,,T*1B
$GNGGA,102511.800,2500.7935080,N,12132.4730373,E,2,42,0.62,18.696,M,15.25,M,2,3335*49
$GNRMC,102511.800,A,2500.7935080,N,12132.4730373,E,0.06,262.55,260623,,,D,V*01
$GPHDT,,T*1B
$GNGSA,A,3,196,24,199,18,15,195,05,13,194,,,,0.99,0.62,0.77,1*07
$GNGSA,A,3,84,80,79,69,,,,,,,,,0.99,0.62,0.77,2*03
$GNGSA,A,3,13,08,15,07,03,,,,,,,,0.99,0.62,0.77,3*0D
$GNGSA,A,3,38,39,06,09,46,29,37,20,,,,,0.99,0.62,0.77,4*01
$GPGSV,3,1,12,196,73,052,33,24,69,168,41,199,60,167,21,50,60,167,26,1*68
$GPGSV,3,2,12,18,54,304,18,15,52,014,38,195,45,177,36,05,35,091,44,1*5E
$GPGSV,3,3,12,23,28,320,16,13,27,039,29,194,21,145,21,29,,,27,1*6E
$GPGSV,2,1,06,196,73,052,38,24,69,168,36,199,60,167,43,18,54,304,26,8*66
$GPGSV,2,2,06,195,45,177,34,194,21,145,27,8*6B
$GLGSV,1,1,04,84,39,202,21,80,34,121,40,79,25,060,32,69,23,043,37,1*73
$GAGSV,2,1,05,13,65,285,24,08,58,355,23,15,47,171,30,07,37,273,25,7*7B
$GAGSV,2,2,05,03,22,047,27,7*43
$GAGSV,2,1,05,13,65,285,31,08,58,355,26,15,47,171,40,07,37,273,20,1*7E
$GAGSV,2,2,05,03,22,047,37,1*44
$GBGSV,2,1,08,38,74,038,42,39,72,233,32,06,61,220,37,20,48,027,,1*7A
$GBGSV,2,2,08,09,44,217,31,46,40,146,33,29,38,233,37,37,33,072,44,1*73
$GBGSV,2,1,06,38,74,038,44,39,72,233,30,20,48,027,39,46,40,146,38,4*74
$GBGSV,2,2,06,29,38,233,36,37,33,072,45,4*72
$GNGGA,102512.000,2500.7935080,N,12132.4730433,E,2,42,0.62,18.688,M,15.25,M,3,3335*4F
$GNRMC,102512.000,A,2500.7935080,N,12132.4730433,E,0.03,262.55,260623,,,D,V*0C
$GPHDT,,T*1B
$GNGGA,102512.200,2500.7935080,N,12132.4730493,E,2,42,0.62,18.677,M,15.25,M,3,3335*47
$GNRMC,102512.200,A,2500.7935080,N,12132.4730493,E,0.02,262.55,260623,,,D,V*05
$GPHDT,,T*1B
$GNGGA,102512.400,2500.7935020,N,12132.4730613,E,2,42,0.62,18.669,M,15.25,M,3,3335*4E
$GNRMC,102512.400,A,2500.7935020,N,12132.4730613,E,0.02,262.55,260623,,,D,V*03
$GPHDT,,T*1B
$GNGGA,102512.600,2500.7934960,N,12132.4730673,E,2,42,0.62,18.660,M,15.25,M,3,3335*4F
$GNRMC,102512.600,A,2500.7934960,N,12132.4730673,E,0.02,262.55,260623,,,D,V*0B
$GPHDT,,T*1B
$GNGGA,102512.800,2500.7935080,N,12132.4730673,E,2,42,0.62,18.637,M,15.25,M,3,3335*45
$GNRMC,102512.800,A,2500.7935080,N,12132.4730673,E,0.03,262.55,260623,,,D,V*02
$GPHDT,,T*1B
$GNGSA,A,3,196,24,199,18,15,195,05,13,194,,,,0.99,0.62,0.77,1*07
$GNGSA,A,3,84,80,79,69,,,,,,,,,0.99,0.62,0.77,2*03
$GNGSA,A,3,13,08,15,07,03,,,,,,,,0.99,0.62,0.77,3*0D
$GNGSA,A,3,38,39,06,09,46,29,37,20,,,,,0.99,0.62,0.77,4*01
$GPGSV,3,1,12,196,73,052,33,24,69,168,41,199,60,167,23,50,60,167,26,1*6A
$GPGSV,3,2,12,18,54,304,16,15,52,014,37,195,45,177,36,05,35,091,44,1*5F
$GPGSV,3,3,12,23,28,320,14,13,27,039,31,194,21,145,21,29,,,27,1*65
$GPGSV,2,1,06,196,73,052,37,24,69,168,36,199,60,167,43,18,54,304,26,8*69
$GPGSV,2,2,06,195,45,177,34,194,21,145,25,8*69
$GLGSV,1,1,04,84,39,202,21,80,34,121,40,79,25,060,31,69,23,043,37,1*70
$GAGSV,2,1,05,13,65,285,24,08,58,355,25,15,47,171,30,07,37,273,26,7*7E
$GAGSV,2,2,05,03,22,047,29,7*4D
$GAGSV,2,1,05,13,65,285,31,08,58,355,26,15,47,171,40,07,37,273,21,1*7F
$GAGSV,2,2,05,03,22,047,37,1*44
$GBGSV,2,1,08,38,74,038,42,39,72,233,32,06,61,220,37,20,48,027,,1*7A
$GBGSV,2,2,08,09,44,217,30,46,40,146,34,29,37,233,37,37,33,072,44,1*7A
$GBGSV,2,1,06,38,74,038,44,39,72,233,30,20,48,027,39,46,40,146,38,4*74
$GBGSV,2,2,06,29,37,233,36,37,33,072,45,4*7D
$GNGGA,102513.000,2500.7935260,N,12132.4730793,E,2,42,0.62,18.613,M,15.25,M,4,3335*4E
$GNRMC,102513.000,A,2500.7935260,N,12132.4730793,E,0.02,262.55,260623,,,D,V*09
$GPHDT,,T*1B
$GNGGA,102513.200,2500.7935320,N,12132.4730793,E,2,43,0.62,18.590,M,15.25,M,2,3335*46
$GNRMC,102513.200,A,2500.7935320,N,12132.4730793,E,0.03,262.55,260623,,,D,V*0F
$GPHDT,,T*1B
$GNGGA,102513.400,2500.7935260,N,12132.4730913,E,2,43,0.62,18.578,M,15.25,M,1,3335*46
$GNRMC,102513.400,A,2500.7935260,N,12132.4730913,E,0.03,262.55,260623,,,D,V*0A
$GPHDT,,T*1B
$GNGGA,102513.600,2500.7935260,N,12132.4730973,E,2,43,0.62,18.565,M,15.25,M,1,3335*4E
$GNRMC,102513.600,A,2500.7935260,N,12132.4730973,E,0.03,262.55,260623,,,D,V*0E
$GPHDT,,T*1B
$GNGGA,102513.800,2500.7935320,N,12132.4730973,E,2,43,0.62,18.552,M,15.25,M,1,3335*41
$GNRMC,102513.800,A,2500.7935320,N,12132.4730973,E,0.04,262.55,260623,,,D,V*02
$GPHDT,,T*1B
$GNGSA,A,3,196,24,199,18,15,195,05,13,194,,,,0.99,0.62,0.77,1*07
$GNGSA,A,3,84,80,79,69,,,,,,,,,0.99,0.62,0.77,2*03
$GNGSA,A,3,13,08,15,07,03,,,,,,,,0.99,0.62,0.77,3*0D
$GNGSA,A,3,38,39,06,20,09,46,29,37,,,,,0.99,0.62,0.77,4*01
$GPGSV,3,1,12,196,73,052,33,24,69,168,41,199,60,167,21,50,60,167,26,1*68
$GPGSV,3,2,12,18,54,304,18,15,52,014,37,195,45,177,36,05,35,091,44,1*51
$GPGSV,3,3,12,23,28,320,14,13,27,039,30,194,21,145,21,29,,,28,1*6B
$GPGSV,2,1,06,196,73,052,37,24,69,168,36,199,60,167,43,18,54,304,26,8*69
$GPGSV,2,2,06,195,45,177,35,194,21,145,27,8*6A
$GLGSV,1,1,04,84,39,202,21,80,34,121,39,79,25,060,31,69,23,043,36,1*7F
$GAGSV,2,1,05,13,65,285,21,08,58,355,25,15,47,171,30,07,37,273,26,7*7B
$GAGSV,2,2,05,03,22,047,29,7*4D
$GAGSV,2,1,05,13,65,285,31,08,58,355,27,15,47,171,40,07,37,273,21,1*7E
$GAGSV,2,2,05,03,22,047,37,1*44
$GBGSV,2,1,08,38,74,038,42,39,72,233,32,06,61,220,37,20,48,027,25,1*7D
$GBGSV,2,2,08,09,44,217,31,46,40,146,32,29,37,233,36,37,33,072,44,1*7C
$GBGSV,2,1,06,38,74,038,44,39,72,233,30,20,48,027,39,46,40,146,38,4*74
$GBGSV,2,2,06,29,37,233,36,37,33,072,45,4*7D
$GNGGA,102514.000,2500.7935320,N,12132.4731033,E,2,43,0.62,18.540,M,15.25,M,2,3335*42
$GNRMC,102514.000,A,2500.7935320,N,12132.4731033,E,0.02,262.55,260623,,,D,V*07
$GPHDT,,T*1B
$GNGGA,102514.200,2500.7935440,N,12132.4731033,E,2,43,0.62,18.515,M,15.25,M,2,3335*41
$GNRMC,102514.200,A,2500.7935440,N,12132.4731033,E,0.02,262.55,260623,,,D,V*04
$GPHDT,,T*1B
$GNGGA,102514.400,2500.7935500,N,12132.4730973,E,2,43,0.62,18.501,M,15.25,M,2,3335*4B
$GNRMC,102514.400,A,2500.7935500,N,12132.4730973,E,0.01,262.55,260623,,,D,V*08
$GPHDT,,T*1B
$GNGGA,102514.600,2500.7935800,N,12132.4730973,E,2,43,0.62,18.469,M,15.25,M,2,3335*4B
$GNRMC,102514.600,A,2500.7935800,N,12132.4730973,E,0.01,262.55,260623,,,D,V*07
$GPHDT,,T*1B
$GNGGA,102514.800,2500.7935980,N,12132.4731033,E,2,43,0.62,18.436,M,15.25,M,2,3335*4A
$GNRMC,102514.800,A,2500.7935980,N,12132.4731033,E,0.01,262.55,260623,,,D,V*0C
$GPHDT,,T*1B
$GNGSA,A,3,196,24,199,18,15,195,05,13,194,,,,0.99,0.62,0.77,1*07
$GNGSA,A,3,84,80,79,69,,,,,,,,,0.99,0.62,0.77,2*03
$GNGSA,A,3,13,08,15,07,03,,,,,,,,0.99,0.62,0.77,3*0D
$GNGSA,A,3,38,39,06,20,09,46,29,37,,,,,0.99,0.62,0.77,4*01
$GPGSV,3,1,12,196,73,052,34,24,69,168,40,199,60,167,21,50,60,167,26,1*6E
$GPGSV,3,2,12,18,54,304,18,15,52,014,37,195,45,177,36,05,35,091,44,1*51
$GPGSV,3,3,12,23,28,320,15,13,27,039,31,194,21,145,19,29,,,29,1*61
$GPGSV,2,1,06,196,73,052,37,24,69,168,36,199,60,167,43,18,54,304,26,8*69
$GPGSV,2,2,06,195,45,177,35,194,21,145,27,8*6A
$GLGSV,2,1,05,85,45,292,,84,39,202,20,80,34,121,39,79,25,060,30,1*74
$GLGSV,2,2,05,69,23,043,36,1*41
$GAGSV,2,1,05,13,65,285,22,08,58,355,25,15,47,171,29,07,37,273,26,7*70
$GAGSV,2,2,05,03,22,047,28,7*4C
$GAGSV,2,1,05,13,65,285,32,08,58,355,25,15,47,171,40,07,37,273,22,1*7C
$GAGSV,2,2,05,03,22,047,37,1*44
$GBGSV,2,1,08,38,74,039,42,39,72,234,31,06,61,220,37,20,48,027,21,1*7C
$GBGSV,2,2,08,09,44,217,31,46,40,146,33,29,37,233,36,37,33,072,44,1*7D
$GBGSV,2,1,06,38,74,039,44,39,72,234,30,20,48,027,39,46,40,146,38,4*72
$GBGSV,2,2,06,29,37,233,36,37,33,072,45,4*7D
$GNGGA,102515.000,2500.7936100,N,12132.4731153,E,2,43,0.62,18.408,M,15.25,M,3,3335*4B
$GNRMC,102515.000,A,2500.7936100,N,12132.4731153,E,0.04,262.55,260623,,,D,V*04
$GPHDT,,T*1B
$GNGGA,102515.200,2500.7936280,N,12132.4731213,E,2,43,0.62,18.386,M,15.25,M,3,3335*44
$GNRMC,102515.200,A,2500.7936280,N,12132.4731213,E,0.05,262.55,260623,,,D,V*0B
$GPHDT,,T*1B
$GNGGA,102515.400,2500.7936460,N,12132.4731213,E,2,43,0.62,18.358,M,15.25,M,3,3335*49
$GNRMC,102515.400,A,2500.7936460,N,12132.4731213,E,0.04,262.55,260623,,,D,V*04
$GPHDT,,T*1B
$GNGGA,102515.600,2500.7936580,N,12132.4731213,E,2,43,0.62,18.328,M,15.25,M,3,3335*43
$GNRMC,102515.600,A,2500.7936580,N,12132.4731213,E,0.01,262.55,260623,,,D,V*0C
$GPHDT,,T*1B
$GNGGA,102515.800,2500.7936760,N,12132.4731333,E,2,43,0.62,18.294,M,15.25,M,3,3335*44
$GNRMC,102515.800,A,2500.7936760,N,12132.4731333,E,0.02,262.55,260623,,,D,V*0E
