$FW : RTK35X,V1.1X0314AS,Lib20210517,1*54
$Tool : LOCOSYS , GNSS Firebird , v1.0.0.19*39
$---------------------------------------------------*2D
0,49,023,31,09,43,214,34,29,39,236,31,1*7E
$GBGSV,3,3,12,46,38,148,21,37,34,075,43,30,15,181,30,32,14,074,23,1*7E
$GBGSV,2,1,08,38,73,036,44,39,72,228,33,20,49,023,37,29,39,236,31,4*7B
$GBGSV,2,2,08,46,38,148,36,37,34,075,46,30,15,181,12,32,14,074,29,4*79
$GNGGA,101812.000,2500.7912500,N,12132.4726700,E,2,38,0.83,16.70,M,15.25,M,1,3335*72
$GNRMC,101812.000,A,2500.7912500,N,12132.4726700,E,0.05,191.91,260623,,,D,V*0F
$GPHDT,,T*1B
$GNGGA,101812.200,2500.7912600,N,12132.4726700,E,2,38,0.82,16.67,M,15.25,M,1,3335*74
$GNRMC,101812.200,A,2500.7912600,N,12132.4726700,E,0.05,191.91,260623,,,D,V*0E
$GPHDT,,T*1B
$GNGGA,101812.400,2500.7912600,N,12132.4726700,E,2,38,0.82,16.65,M,15.25,M,1,3335*70
$GNRMC,101812.400,A,2500.7912600,N,12132.4726700,E,0.07,191.91,260623,,,D,V*0A
$GPHDT,,T*1B
$GNGGA,101812.600,2500.7912700,N,12132.4726700,E,2,38,0.82,16.63,M,15.25,M,1,3335*75
$GNRMC,101812.600,A,2500.7912700,N,12132.4726700,E,0.05,191.91,260623,,,D,V*0B
$GPHDT,,T*1B
$GNGGA,101812.800,2500.7912700,N,12132.4726700,E,2,37,0.83,16.60,M,15.25,M,1,3335*76
$GNRMC,101812.800,A,2500.7912700,N,12132.4726700,E,0.08,191.91,260623,,,D,V*08
$GPHDT,,T*1B
$GNGSA,A,3,196,24,15,195,05,13,194,,,,,,1.46,0.83,1.20,1*30
$GNGSA,A,3,84,80,79,69,,,,,,,,,1.46,0.83,1.20,2*0C
$GNGSA,A,3,15,03,,,,,,,,,,,1.46,0.83,1.20,3*0F
$GNGSA,A,3,38,39,16,06,20,09,29,46,37,30,32,,1.46,0.83,1.20,4*0B
$GPGSV,4,1,13,196,73,051,36,199,73,011,,24,66,171,38,15,54,010,38,1*68
$GPGSV,4,2,13,45,47,231,28,195,46,177,33,05,36,088,47,13,29,038,34,1*50
$GPGSV,4,3,13,194,20,146,31,29,17,220,16,11,04,149,,12,03,164,,1*5F
$GPGSV,4,4,13,18,,,18,1*66
$GPGSV,2,1,05,196,73,051,40,24,66,171,42,195,46,177,38,194,20,146,30,8*5D
$GPGSV,2,2,05,18,,,26,8*65
$GLGSV,1,1,04,84,43,203,24,80,32,125,42,79,26,064,37,69,25,039,41,1*72
$GAGSV,1,1,02,15,50,170,35,03,24,045,38,7*7F
$GAGSV,1,1,02,15,50,170,32,03,24,045,37,1*71
$GBGSV,3,1,12,38,73,036,33,39,72,228,25,08,64,005,19,16,62,217,32,1*7C
$GBGSV,3,2,12,06,60,216,18,20,49,023,29,09,43,214,33,29,39,236,30,1*71
$GBGSV,3,3,12,46,38,148,23,37,34,075,43,30,15,181,30,32,14,074,23,1*7C
$GBGSV,2,1,07,38,73,036,44,39,72,228,32,20,49,023,37,29,39,236,30,4*74
$GBGSV,2,2,07,46,38,148,37,37,34,075,46,32,14,074,29,4*4B
$GNGGA,101813.000,2500.7912700,N,12132.4726700,E,2,37,0.83,16.60,M,15.25,M,1,3335*7F
$GNRMC,101813.000,A,2500.7912700,N,12132.4726700,E,0.04,191.91,260623,,,D,V*0D
$GPHDT,,T*1B
$GNGGA,101813.200,2500.7912700,N,12132.4726700,E,2,38,0.82,16.58,M,15.25,M,1,3335*78
$GNRMC,101813.200,A,2500.7912700,N,12132.4726700,E,0.08,191.91,260623,,,D,V*03
$GPHDT,,T*1B
$GNGGA,101813.400,2500.7912700,N,12132.4726600,E,2,38,0.82,16.57,M,15.25,M,1,3335*70
$GNRMC,101813.400,A,2500.7912700,N,12132.4726600,E,0.08,191.91,260623,,,D,V*04
$GPHDT,,T*1B
$GNGGA,101813.600,2500.7912700,N,12132.4726600,E,2,37,0.82,16.56,M,15.25,M,1,3335*7C
$GNRMC,101813.600,A,2500.7912700,N,12132.4726600,E,0.08,191.91,260623,,,D,V*06
$GPHDT,,T*1B
$GNGGA,101813.800,2500.7912700,N,12132.4726500,E,2,37,0.82,16.55,M,15.25,M,1,3335*72
$GNRMC,101813.800,A,2500.7912700,N,12132.4726500,E,0.08,191.91,260623,,,D,V*0B
$GPHDT,,T*1B
$GNGSA,A,3,196,24,15,195,05,13,194,,,,,,1.44,0.82,1.19,1*39
$GNGSA,A,3,84,80,79,69,,,,,,,,,1.44,0.82,1.19,2*05
$GNGSA,A,3,15,03,,,,,,,,,,,1.44,0.82,1.19,3*06
$GNGSA,A,3,38,39,08,16,06,20,09,29,46,37,30,32,1.44,0.82,1.19,4*0A
$GPGSV,4,1,13,196,73,051,36,199,73,011,,24,66,171,38,15,54,010,38,1*68
$GPGSV,4,2,13,45,47,231,28,195,46,177,34,05,36,088,46,13,29,038,36,1*54
$GPGSV,4,3,13,194,20,146,31,29,17,220,14,11,04,149,,12,03,164,,1*5D
$GPGSV,4,4,13,18,,,20,1*6D
$GPGSV,2,1,05,196,73,051,40,24,66,171,42,195,46,177,38,194,20,146,30,8*5D
$GPGSV,2,2,05,18,,,26,8*65
$GLGSV,1,1,04,84,43,203,23,80,32,125,42,79,26,064,35,69,25,039,41,1*77
$GAGSV,1,1,02,15,50,170,35,03,24,045,38,7*7F
$GAGSV,1,1,02,15,50,170,32,03,24,045,36,1*70
$GBGSV,3,1,12,38,73,036,34,39,72,228,27,08,64,005,19,16,62,217,32,1*79
$GBGSV,3,2,12,06,60,216,18,20,49,023,29,09,43,214,33,29,39,236,29,1*79
$GBGSV,3,3,12,46,38,148,25,37,34,075,43,30,15,181,29,32,14,074,22,1*73
$GBGSV,2,1,07,38,73,036,44,39,72,228,33,20,49,023,37,29,39,236,29,4*7D
$GBGSV,2,2,07,46,38,148,37,37,34,075,48,32,14,074,30,4*4D
$GNGGA,101814.000,2500.7912700,N,12132.4726500,E,2,38,0.82,16.54,M,15.25,M,2,3335*70
$GNRMC,101814.000,A,2500.7912700,N,12132.4726500,E,0.09,191.91,260623,,,D,V*05
$GPHDT,,T*1B
$GNGGA,101814.200,2500.7912700,N,12132.4726500,E,2,38,0.82,16.53,M,15.25,M,2,3335*75
$GNRMC,101814.200,A,2500.7912700,N,12132.4726500,E,0.09,191.91,260623,,,D,V*07
$GPHDT,,T*1B
$GNGGA,101814.400,2500.7912700,N,12132.4726500,E,2,38,0.82,16.52,M,15.25,M,2,3335*72
$GNRMC,101814.400,A,2500.7912700,N,12132.4726500,E,0.08,191.91,260623,,,D,V*00
$GPHDT,,T*1B
$GNGGA,101814.600,2500.7912700,N,12132.4726400,E,2,38,0.82,16.51,M,15.25,M,2,3335*72
$GNRMC,101814.600,A,2500.7912700,N,12132.4726400,E,0.08,191.91,260623,,,D,V*03
$GPHDT,,T*1B
$GNGGA,101814.800,2500.7912700,N,12132.4726400,E,2,37,0.83,16.50,M,15.25,M,2,3335*73
$GNRMC,101814.800,A,2500.7912700,N,12132.4726400,E,0.08,191.91,260623,,,D,V*0D
$GPHDT,,T*1B
$GNGSA,A,3,196,24,15,195,05,13,194,,,,,,1.46,0.83,1.20,1*30
$GNGSA,A,3,84,80,79,69,,,,,,,,,1.46,0.83,1.20,2*0C
$GNGSA,A,3,15,03,,,,,,,,,,,1.46,0.83,1.20,3*0F
$GNGSA,A,3,38,39,16,06,20,09,29,46,37,30,32,,1.46,0.83,1.20,4*0B
$GPGSV,4,1,13,196,73,051,35,199,73,011,,24,66,171,38,15,54,010,38,1*6B
$GPGSV,4,2,13,45,47,231,29,195,46,177,35,05,36,088,45,13,29,038,37,1*56
$GPGSV,4,3,13,194,20,146,31,29,17,219,15,11,04,149,,12,03,164,,1*56
$GPGSV,4,4,13,18,,,20,1*6D
$GPGSV,2,1,05,196,73,051,40,24,66,171,42,195,46,177,38,194,20,146,29,8*55
$GPGSV,2,2,05,18,,,25,8*66
$GLGSV,1,1,04,84,43,203,21,80,32,125,42,79,26,064,35,69,25,039,41,1*75
$GAGSV,1,1,02,15,50,170,35,03,24,045,38,7*7F
$GAGSV,1,1,02,15,50,170,32,03,24,045,36,1*70
$GBGSV,3,1,12,38,73,036,34,39,72,228,30,08,64,005,19,16,62,217,31,1*7C
$GBGSV,3,2,12,06,60,216,19,20,49,023,29,09,43,214,32,29,39,236,30,1*71
$GBGSV,3,3,12,46,38,148,27,37,34,075,44,30,15,181,29,32,14,074,23,1*77
$GBGSV,2,1,07,38,73,036,44,39,72,228,33,20,49,023,37,29,39,236,29,4*7D
$GBGSV,2,2,07,46,38,148,37,37,34,075,48,32,14,074,30,4*4D
$GNGGA,101815.000,2500.7912700,N,12132.4726400,E,2,37,0.83,16.48,M,15.25,M,3,3335*72
$GNRMC,101815.000,A,2500.7912700,N,12132.4726400,E,0.08,191.91,260623,,,D,V*04
$GPHDT,,T*1B
$GNGGA,101815.200,2500.7912700,N,12132.4726300,E,2,37,0.83,16.47,M,15.25,M,3,3335*78
$GNRMC,101815.200,A,2500.7912700,N,12132.4726300,E,0.08,191.91,260623,,,D,V*01
$GPHDT,,T*1B
$GNGGA,101815.400,2500.7912700,N,12132.4726300,E,2,37,0.83,16.46,M,15.25,M,3,3335*7F
$GNRMC,101815.400,A,2500.7912700,N,12132.4726300,E,0.08,191.91,260623,,,D,V*07
$GPHDT,,T*1B
$GNGGA,101815.600,2500.7912800,N,12132.4726200,E,2,37,0.83,16.45,M,15.25,M,3,3335*70
$GNRMC,101815.600,A,2500.7912800,N,12132.4726200,E,0.05,191.91,260623,,,D,V*06
$GPHDT,,T*1B
$GNGGA,101815.800,2500.7912800,N,12132.4726200,E,2,37,0.83,16.44,M,15.25,M,3,3335*7F
$GNRMC,101815.800,A,2500.7912800,N,12132.4726200,E,0.16,191.91,260623,,,D,V*0A
$GPHDT,,T*1B
$GNGSA,A,3,196,24,15,195,05,13,194,,,,,,1.46,0.83,1.20,1*30
$GNGSA,A,3,84,80,79,69,,,,,,,,,1.46,0.83,1.20,2*0C
$GNGSA,A,3,15,03,,,,,,,,,,,1.46,0.83,1.20,3*0F
$GNGSA,A,3,38,39,16,06,20,09,29,46,37,30,32,,1.46,0.83,1.20,4*0B
$GPGSV,4,1,13,196,73,051,35,199,73,011,,24,66,171,39,15,54,010,38,1*6A
$GPGSV,4,2,13,45,47,231,30,195,46,177,36,05,36,088,45,13,29,038,37,1*5D
$GPGSV,4,3,13,194,20,146,31,29,17,219,15,11,04,149,,12,03,164,,1*56
$GPGSV,4,4,13,18,,,21,1*6C
$GPGSV,2,1,05,196,73,051,40,24,66,171,42,195,46,177,37,194,20,146,29,8*5A
$GPGSV,2,2,05,18,,,25,8*66
$GLGSV,1,1,04,84,43,203,21,80,32,125,42,79,26,064,36,69,25,039,41,1*76
$GAGSV,1,1,02,15,50,170,35,03,24,045,38,7*7F
$GAGSV,1,1,02,15,50,170,32,03,24,045,36,1*70
$GBGSV,3,1,12,38,73,036,34,39,72,228,32,08,64,005,17,16,62,217,31,1*70
$GBGSV,3,2,12,06,60,216,22,20,49,023,31,09,43,214,32,29,39,236,30,1*70
$GBGSV,3,3,12,46,38,148,26,37,34,075,44,30,15,181,29,32,14,074,24,1*71
$GBGSV,2,1,07,38,73,036,44,39,72,228,33,20,49,023,37,29,39,236,29,4*7D
$GBGSV,2,2,07,46,38,148,37,37,34,075,48,32,14,074,30,4*4D
$GNGGA,101816.000,2500.7912800,N,12132.4726300,E,2,37,0.83,16.44,M,15.25,M,4,3335*72
$GNRMC,101816.000,A,2500.7912800,N,12132.4726300,E,0.11,191.91,260623,,,D,V*07
$GPHDT,,T*1B
$GNGGA,101816.200,2500.7912800,N,12132.4726300,E,2,37,0.83,16.44,M,15.25,M,4,3335*70
$GNRMC,101816.200,A,2500.7912800,N,12132.4726300,E,0.06,191.91,260623,,,D,V*03
$GPHDT,,T*1B
$GNGGA,101816.400,2500.7912800,N,12132.4726400,E,2,37,0.83,16.45,M,15.25,M,4,3335*70
$GNRMC,101816.400,A,2500.7912800,N,12132.4726400,E,0.06,191.91,260623,,,D,V*02
$GPHDT,,T*1B
$GNGGA,101816.600,2500.7912700,N,12132.4726400,E,2,37,0.83,16.45,M,15.25,M,4,3335*7D
$GNRMC,101816.600,A,2500.7912700,N,12132.4726400,E,0.06,191.91,260623,,,D,V*0F
$GPHDT,,T*1B
$GNGGA,101816.800,2500.7912700,N,12132.4726400,E,2,37,0.83,16.45,M,15.25,M,4,3335*73
$GNRMC,101816.800,A,2500.7912700,N,12132.4726400,E,0.14,191.91,260623,,,D,V*02
$GPHDT,,T*1B
$GNGSA,A,3,196,24,15,195,05,13,194,,,,,,1.61,0.85,1.37,1*35
$GNGSA,A,3,84,80,79,69,,,,,,,,,1.61,0.85,1.37,2*09
$GNGSA,A,3,15,03,,,,,,,,,,,1.61,0.85,1.37,3*0A
$GNGSA,A,3,38,39,16,06,20,09,29,46,37,32,,,1.61,0.85,1.37,4*0D
$GPGSV,4,1,13,196,73,051,36,199,73,011,,24,66,171,29,15,54,010,38,1*68
$GPGSV,4,2,13,45,47,231,30,195,46,177,36,05,36,088,45,13,29,038,38,1*52
$GPGSV,4,3,13,194,20,146,31,29,17,219,18,11,04,149,,12,03,164,,1*5B
$GPGSV,4,4,13,18,,,22,1*6F
$GPGSV,2,1,05,196,73,051,40,24,66,171,39,195,46,177,35,194,20,146,30,8*5C
$GPGSV,2,2,05,18,,,24,8*67
$GLGSV,1,1,04,84,43,203,19,80,32,125,43,79,26,064,36,69,25,039,40,1*7D
$GAGSV,1,1,02,15,50,170,34,03,24,045,38,7*7E
$GAGSV,1,1,02,15,50,170,29,03,24,045,37,1*7B
$GBGSV,3,1,12,38,73,036,35,39,72,228,32,08,64,005,16,16,62,217,28,1*78
$GBGSV,3,2,12,06,60,216,22,20,49,023,34,09,43,214,32,29,39,236,29,1*7D
$GBGSV,3,3,12,46,38,148,31,37,34,075,45,30,15,181,27,32,14,074,25,1*79
$GBGSV,2,1,07,38,73,036,43,39,72,228,33,20,49,023,38,29,39,236,31,4*7C
$GBGSV,2,2,07,46,38,148,36,37,34,075,48,32,14,074,30,4*4C
$GNGGA,101817.000,2500.7912700,N,12132.4726400,E,2,35,0.85,16.45,M,15.25,M,5,3335*7F
$GNRMC,101817.000,A,2500.7912700,N,12132.4726400,E,0.09,191.91,260623,,,D,V*07
$GPHDT,,T*1B
$GNGGA,101817.200,2500.7912700,N,12132.4726400,E,2,35,0.85,16.46,M,15.25,M,5,3335*7E
$GNRMC,101817.200,A,2500.7912700,N,12132.4726400,E,0.07,191.91,260623,,,D,V*0B
$GPHDT,,T*1B
$GNGGA,101817.400,2500.7912700,N,12132.4726500,E,2,35,0.85,16.46,M,15.25,M,5,3335*79
$GNRMC,101817.400,A,2500.7912700,N,12132.4726500,E,0.06,191.91,260623,,,D,V*0D
$GPHDT,,T*1B
$GNGGA,101817.600,2500.7912700,N,12132.4726500,E,2,35,0.85,16.46,M,15.25,M,5,3335*7B
$GNRMC,101817.600,A,2500.7912700,N,12132.4726500,E,0.06,191.91,260623,,,D,V*0F
$GPHDT,,T*1B
$GNGGA,101817.800,2500.7912700,N,12132.4726500,E,2,37,0.83,16.45,M,15.25,M,5,3335*72
$GNRMC,101817.800,A,2500.7912700,N,12132.4726500,E,0.07,191.91,260623,,,D,V*00
$GPHDT,,T*1B
$GNGSA,A,3,196,24,15,195,05,13,194,,,,,,1.46,0.83,1.20,1*30
$GNGSA,A,3,84,80,79,69,,,,,,,,,1.46,0.83,1.20,2*0C
$GNGSA,A,3,15,03,,,,,,,,,,,1.46,0.83,1.20,3*0F
$GNGSA,A,3,38,39,16,06,20,09,29,46,37,30,32,,1.46,0.83,1.20,4*0B
$GPGSV,3,1,10,196,73,051,36,24,66,171,37,15,54,010,38,45,47,231,28,1*5E
$GPGSV,3,2,10,195,46,177,35,05,36,088,45,13,29,038,38,194,20,146,30,1*6A
$GPGSV,3,3,10,29,17,219,17,18,,,21,1*5E
$GPGSV,2,1,05,196,73,051,40,24,66,171,39,195,46,177,37,194,20,146,30,8*5E
$GPGSV,2,2,05,18,,,24,8*67
$GLGSV,1,1,04,84,43,203,18,80,32,125,43,79,26,064,37,69,25,039,40,1*7D
$GAGSV,1,1,02,15,50,170,33,03,24,045,38,7*79
$GAGSV,1,1,02,15,50,170,28,03,24,045,37,1*7A
$GBGSV,3,1,12,38,73,036,35,39,72,228,32,08,64,005,16,16,62,217,29,1*79
$GBGSV,3,2,12,06,60,216,23,20,49,023,35,09,43,214,31,29,39,236,30,1*76
$GBGSV,3,3,12,46,38,148,31,37,34,075,45,30,15,181,27,32,14,074,26,1*7A
$GBGSV,2,1,08,38,73,036,43,39,72,228,33,20,49,023,38,29,39,236,29,4*7A
$GBGSV,2,2,08,46,38,148,35,37,34,075,48,30,15,181,26,32,14,074,30,4*7B
$GNGGA,101818.000,2500.7912700,N,12132.4726500,E,2,38,0.83,16.46,M,15.25,M,6,3335*7A
$GNRMC,101818.000,A,2500.7912700,N,12132.4726500,E,0.05,191.91,260623,,,D,V*05
$GPHDT,,T*1B
$GNGGA,101818.200,2500.7912700,N,12132.4726600,E,2,38,0.83,16.46,M,15.25,M,6,3335*7B
$GNRMC,101818.200,A,2500.7912700,N,12132.4726600,E,0.06,191.91,260623,,,D,V*07
$GPHDT,,T*1B
$GNGGA,101818.400,2500.7912700,N,12132.4726700,E,2,38,0.83,16.45,M,15.25,M,6,3335*7F
$GNRMC,101818.400,A,2500.7912700,N,12132.4726700,E,0.06,191.91,260623,,,D,V*00
$GPHDT,,T*1B
$GNGGA,101818.600,2500.7912700,N,12132.4726700,E,2,38,0.83,16.45,M,15.25,M,6,3335*7D
$GNRMC,101818.600,A,2500.7912700,N,12132.4726700,E,0.06,191.91,260623,,,D,V*02
$GPHDT,,T*1B
$GNGGA,101818.800,2500.7912700,N,12132.4726700,E,2,40,0.75,16.45,M,15.25,M,4,3335*77
$GNRMC,101818.800,A,2500.7912700,N,12132.4726700,E,0.06,191.91,260623,,,D,V*0C
$GPHDT,,T*1B
$GNGSA,A,3,196,24,15,18,195,05,13,194,,,,,1.40,0.75,1.18,1*3D
$GNGSA,A,3,84,80,79,69,,,,,,,,,1.40,0.75,1.18,2*08
$GNGSA,A,3,15,03,,,,,,,,,,,1.40,0.75,1.18,3*0B
$GNGSA,A,3,38,39,16,06,20,09,29,46,37,30,32,,1.40,0.75,1.18,4*0F
$GPGSV,4,1,13,196,73,051,35,199,73,011,,24,66,171,37,15,54,010,39,1*65
$GPGSV,4,2,13,18,52,308,20,45,47,231,28,195,46,177,35,05,36,088,45,1*56
$GPGSV,4,3,13,13,29,038,38,194,20,146,29,29,17,219,18,11,04,149,,1*58
$GPGSV,4,4,13,12,03,164,,1*55
$GPGSV,2,1,05,196,73,051,40,24,66,171,42,18,52,308,24,195,46,177,37,8*6F
$GPGSV,2,2,05,194,20,146,30,8*66
$GLGSV,1,1,04,84,43,203,20,80,32,125,43,79,26,064,36,69,25,039,40,1*77
$GAGSV,1,1,02,15,50,170,35,03,24,045,38,7*7F
$GAGSV,1,1,02,15,50,170,32,03,24,045,38,1*7E
$GBGSV,3,1,12,38,73,036,34,39,72,228,30,08,64,005,16,16,62,217,32,1*70
$GBGSV,3,2,12,06,60,216,19,20,49,023,33,09,43,214,32,29,39,236,27,1*7C
$GBGSV,3,3,12,46,38,148,26,37,34,075,45,30,15,181,28,32,14,074,28,1*7D
$GBGSV,2,1,08,38,73,036,43,39,72,228,33,20,49,023,38,29,39,236,30,4*72
$GBGSV,2,2,08,46,38,148,36,37,34,075,48,30,15,181,26,32,14,074,30,4*78
$GNGGA,101819.000,2500.7912600,N,12132.4726700,E,2,40,0.75,16.45,M,15.25,M,3,3335*78
$GNRMC,101819.000,A,2500.7912600,N,12132.4726700,E,0.06,191.91,260623,,,D,V*04
$GPHDT,,T*1B
$GNGGA,101819.200,2500.7912600,N,12132.4726700,E,2,40,0.75,16.45,M,15.25,M,1,3335*78
$GNRMC,101819.200,A,2500.7912600,N,12132.4726700,E,0.05,191.91,260623,,,D,V*05
$GPHDT,,T*1B
$GNGGA,101819.400,2500.7912600,N,12132.4726700,E,2,40,0.75,16.45,M,15.25,M,1,3335*7E
$GNRMC,101819.400,A,2500.7912600,N,12132.4726700,E,0.05,191.91,260623,,,D,V*03
$GPHDT,,T*1B
$GNGGA,101819.600,2500.7912600,N,12132.4726700,E,2,40,0.75,16.45,M,15.25,M,1,3335*7C
$GNRMC,101819.600,A,2500.7912600,N,12132.4726700,E,0.05,191.91,260623,,,D,V*01
$GPHDT,,T*1B
$GNGGA,101819.800,2500.7912600,N,12132.4726700,E,2,40,0.75,16.45,M,15.25,M,1,3335*72
$GNRMC,101819.800,A,2500.7912600,N,12132.4726700,E,0.05,191.91,260623,,,D,V*0F
$GPHDT,,T*1B
$GNGSA,A,3,196,24,15,18,195,05,13,194,,,,,1.56,0.78,1.35,1*38
$GNGSA,A,3,84,80,79,69,,,,,,,,,1.56,0.78,1.35,2*0D
$GNGSA,A,3,15,03,,,,,,,,,,,1.56,0.78,1.35,3*0E
$GNGSA,A,3,38,39,16,06,20,09,29,46,37,32,,,1.56,0.78,1.35,4*09
$GPGSV,4,1,13,196,73,051,35,199,73,011,,24,66,171,37,15,54,010,39,1*65
$GPGSV,4,2,13,18,52,308,18,45,47,231,28,195,46,177,36,05,36,088,45,1*5E
$GPGSV,4,3,13,13,29,038,38,194,20,146,29,29,17,219,18,11,04,149,,1*58
$GPGSV,4,4,13,12,03,164,,1*55
$GPGSV,2,1,05,196,73,051,39,24,66,171,42,18,52,308,23,195,46,177,38,8*69
$GPGSV,2,2,05,194,20,146,30,8*66
$GLGSV,1,1,04,84,43,203,21,80,32,125,43,79,26,064,37,69,25,039,40,1*77
$GAGSV,1,1,02,15,50,170,34,03,24,045,38,7*7E
$GAGSV,1,1,02,15,50,170,31,03,24,045,38,1*7D
$GBGSV,3,1,12,38,73,036,34,39,72,228,30,08,64,005,13,16,62,217,33,1*74
$GBGSV,3,2,12,06,60,216,21,20,49,023,33,09,43,214,31,29,39,236,30,1*72
$GBGSV,3,3,12,46,38,148,29,37,34,075,45,30,15,181,,32,14,074,29,1*79
$GBGSV,2,1,07,38,73,036,43,39,72,228,33,20,49,023,37,29,39,236,27,4*74
$GBGSV,2,2,07,46,38,148,34,37,34,075,48,32,14,074,28,4*47
$GNGGA,101820.000,2500.7912600,N,12132.4726800,E,2,38,0.78,16.45,M,15.25,M,2,3335*7E
$GNRMC,101820.000,A,2500.7912600,N,12132.4726800,E,0.05,191.91,260623,,,D,V*02
$GPHDT,,T*1B
$GNGGA,101820.200,2500.7912600,N,12132.4726800,E,2,39,0.75,16.45,M,15.25,M,2,3335*70
$GNRMC,101820.200,A,2500.7912600,N,12132.4726800,E,0.05,191.91,260623,,,D,V*00
$GPHDT,,T*1B
$GNGGA,101820.400,2500.7912600,N,12132.4726800,E,2,39,0.75,16.45,M,15.25,M,2,3335*76
$GNRMC,101820.400,A,2500.7912600,N,12132.4726800,E,0.05,191.91,260623,,,D,V*06
$GPHDT,,T*1B
$GNGGA,101820.600,2500.7912600,N,12132.4726800,E,2,39,0.75,16.45,M,15.25,M,2,3335*74
$GNRMC,101820.600,A,2500.7912600,N,12132.4726800,E,0.05,191.91,260623,,,D,V*04
$GPHDT,,T*1B
$GNGGA,101820.800,2500.7912600,N,12132.4726800,E,2,40,0.68,16.45,M,15.25,M,2,3335*78
$GNRMC,101820.800,A,2500.7912600,N,12132.4726800,E,0.05,191.91,260623,,,D,V*0A
$GPHDT,,T*1B
$GNGSA,A,3,196,24,15,18,195,05,13,194,,,,,1.56,0.78,1.35,1*38
$GNGSA,A,3,84,80,79,69,,,,,,,,,1.56,0.78,1.35,2*0D
$GNGSA,A,3,15,03,,,,,,,,,,,1.56,0.78,1.35,3*0E
$GNGSA,A,3,38,39,16,06,20,09,29,46,37,32,,,1.56,0.78,1.35,4*09
$GPGSV,4,1,13,196,73,051,34,199,73,011,,24,66,171,37,15,54,010,39,1*64
$GPGSV,4,2,13,18,52,308,18,45,47,231,28,195,46,177,35,05,36,088,45,1*5D
$GPGSV,4,3,13,13,29,038,38,194,20,146,29,29,17,219,20,11,04,149,,1*53
$GPGSV,4,4,13,12,03,164,,1*55
$GPGSV,2,1,05,196,73,051,40,24,66,171,41,18,52,308,22,195,46,177,40,8*6A
$GPGSV,2,2,05,194,20,146,29,8*6E
$GLGSV,1,1,04,84,43,203,20,80,32,125,43,79,26,064,38,69,25,039,40,1*79
$GAGSV,1,1,02,15,50,170,35,03,24,045,38,7*7F
$GAGSV,1,1,02,15,50,170,27,03,24,045,38,1*7A
$GBGSV,3,1,12,38,73,036,35,39,72,228,32,08,64,005,16,16,62,217,33,1*72
$GBGSV,3,2,12,06,60,216,24,20,49,023,33,09,43,214,31,29,39,236,31,1*76
$GBGSV,3,3,12,46,38,148,29,37,34,075,45,30,15,181,26,32,14,074,28,1*7C
$GBGSV,2,1,07,38,73,036,43,39,72,228,34,20,49,023,38,29,39,236,29,4*72
$GBGSV,2,2,07,46,38,148,31,37,34,075,48,32,14,074,29,4*43
$GNGGA,101821.000,2500.7912500,N,12132.4726900,E,2,37,0.78,16.45,M,15.25,M,3,3335*73
$GNRMC,101821.000,A,2500.7912500,N,12132.4726900,E,0.05,191.91,260623,,,D,V*01
$GPHDT,,T*1B
$GNGGA,101821.200,2500.7912500,N,12132.4726900,E,2,38,0.70,16.45,M,15.25,M,3,3335*76
$GNRMC,101821.200,A,2500.7912500,N,12132.4726900,E,0.05,191.91,260623,,,D,V*03
$GPHDT,,T*1B
$GNGGA,101821.400,2500.7912500,N,12132.4727000,E,2,40,0.68,16.45,M,15.25,M,3,3335*7E
$GNRMC,101821.400,A,2500.7912500,N,12132.4727000,E,0.05,191.91,260623,,,D,V*0D
$GPHDT,,T*1B
$GNGGA,101821.600,2500.7912500,N,12132.4727000,E,2,39,0.75,16.45,M,15.25,M,3,3335*7E
$GNRMC,101821.600,A,2500.7912500,N,12132.4727000,E,0.05,191.91,260623,,,D,V*0F
$GPHDT,,T*1B
$GNGGA,101821.800,2500.7912500,N,12132.4727000,E,2,39,0.75,16.45,M,15.25,M,3,3335*70
$GNRMC,101821.800,A,2500.7912500,N,12132.4727000,E,0.13,191.91,260623,,,D,V*06
$GPHDT,,T*1B
$GNGSA,A,3,196,24,15,18,195,05,13,194,,,,,1.40,0.75,1.18,1*3D
$GNGSA,A,3,84,80,79,69,,,,,,,,,1.40,0.75,1.18,2*08
$GNGSA,A,3,15,03,,,,,,,,,,,1.40,0.75,1.18,3*0B
$GNGSA,A,3,38,39,16,06,20,09,29,46,37,30,32,,1.40,0.75,1.18,4*0F
$GPGSV,4,1,13,196,73,051,33,199,73,011,,24,66,171,37,15,54,010,39,1*63
$GPGSV,4,2,13,18,52,308,19,45,47,231,26,195,46,177,35,05,36,088,45,1*52
$GPGSV,4,3,13,13,29,038,38,194,20,146,29,29,17,219,19,11,04,149,,1*59
$GPGSV,4,4,13,12,03,164,,1*55
$GPGSV,2,1,05,196,73,051,40,24,66,171,41,18,52,308,22,195,46,177,39,8*64
$GPGSV,2,2,05,194,20,146,29,8*6E
$GLGSV,1,1,04,84,43,203,19,80,32,125,43,79,26,064,39,69,25,039,40,1*72
$GAGSV,1,1,02,15,50,170,35,03,24,045,38,7*7F
$GAGSV,1,1,02,15,50,170,29,03,24,045,38,1*74
$GBGSV,3,1,12,38,73,036,35,39,72,228,33,08,64,005,15,16,62,217,32,1*71
$GBGSV,3,2,12,06,60,216,26,20,49,023,34,09,43,214,31,29,39,236,31,1*73
$GBGSV,3,3,12,46,38,148,24,37,34,075,45,30,15,181,26,32,14,074,27,1*7E
$GBGSV,2,1,07,38,73,036,43,39,72,228,34,20,49,023,38,29,39,236,29,4*72
$GBGSV,2,2,07,46,38,148,33,37,34,075,48,32,14,074,30,4*49
$GNGGA,101822.000,2500.7912400,N,12132.4727000,E,2,39,0.75,16.45,M,15.25,M,4,3335*7D
$GNRMC,101822.000,A,2500.7912400,N,12132.4727000,E,0.06,191.91,260623,,,D,V*08
$GPHDT,,T*1B
$GNGGA,101822.200,2500.7912400,N,12132.4727000,E,2,39,0.75,16.45,M,15.25,M,4,3335*7F
$GNRMC,101822.200,A,2500.7912400,N,12132.4727000,E,0.05,191.91,260623,,,D,V*09
$GPHDT,,T*1B
$GNGGA,101822.400,2500.7912400,N,12132.4727100,E,2,39,0.75,16.44,M,15.25,M,4,3335*79
$GNRMC,101822.400,A,2500.7912400,N,12132.4727100,E,0.06,191.91,260623,,,D,V*0D
$GPHDT,,T*1B
$GNGGA,101822.600,2500.7912400,N,12132.4727100,E,2,39,0.75,16.43,M,15.25,M,4,3335*7C
$GNRMC,101822.600,A,2500.7912400,N,12132.4727100,E,0.06,191.91,260623,,,D,V*0F
$GPHDT,,T*1B
$GNGGA,101822.800,2500.7912400,N,12132.4727100,E,2,39,0.75,16.43,M,15.25,M,4,3335*72
$GNRMC,101822.800,A,2500.7912400,N,12132.4727100,E,0.08,191.91,260623,,,D,V*0F
