$FW : RTK35X,V1.1X0314AS,Lib20210517,1*54
$Tool : LOCOSYS , GNSS Firebird , v1.0.0.19*39
$---------------------------------------------------*2D
$GPHDT,,T*1B
$GNGGA,102407.800,2500.7909100,N,12132.4746393,E,1,37,0.73,13.685,M,15.25,M,1,3335*4D
$GNRMC,102407.800,A,2500.7909100,N,12132.4746393,E,0.17,14.44,260623,,,A,V*38
$GPHDT,,T*1B
$GNGSA,A,3,196,24,199,18,15,195,05,,,,,,1.11,0.73,0.83,1*33
$GNGSA,A,3,80,79,69,,,,,,,,,,1.11,0.73,0.83,2*05
$GNGSA,A,3,13,08,15,03,,,,,,,,,1.11,0.73,0.83,3*00
$GNGSA,A,3,38,39,06,20,09,46,29,37,,,,,1.11,0.73,0.83,4*0B
$GPGSV,3,1,12,196,73,051,37,24,69,169,38,199,60,167,18,50,60,167,24,1*68
$GPGSV,3,2,12,18,54,304,26,15,52,014,36,195,45,177,35,05,35,091,34,1*59
$GPGSV,3,3,12,23,28,320,,13,27,039,28,194,21,145,26,29,,,25,1*6D
$GPGSV,2,1,07,196,73,051,38,24,69,169,34,199,60,167,43,18,54,304,32,8*62
$GPGSV,2,2,07,195,45,177,37,23,28,320,20,194,21,145,26,8*50
$GLGSV,1,1,04,84,39,202,15,80,34,122,31,79,25,060,40,69,24,042,38,1*7D
$GAGSV,2,1,05,13,65,286,31,08,58,355,30,15,47,171,26,07,37,272,26,7*7B
$GAGSV,2,2,05,03,22,047,31,7*44
$GAGSV,2,1,05,13,65,286,32,08,58,355,22,15,47,171,38,07,37,272,27,1*73
$GAGSV,2,2,05,03,22,047,36,1*45
$GBGSV,3,1,09,38,74,038,41,39,72,232,35,06,61,219,36,20,48,027,28,1*7E
$GBGSV,3,2,09,09,44,216,32,46,40,146,33,29,38,233,36,37,33,072,40,1*74
$GBGSV,3,3,09,30,13,180,22,1*47
$GBGSV,2,1,07,38,74,038,45,39,72,232,33,20,48,027,37,46,40,146,36,4*76
$GBGSV,2,2,07,29,38,233,34,37,33,072,40,30,13,180,17,4*4A
$GNGGA,102408.000,2500.7909280,N,12132.4746393,E,1,37,0.73,13.688,M,15.25,M,2,3335*4F
$GNRMC,102408.000,A,2500.7909280,N,12132.4746393,E,0.14,14.44,260623,,,A,V*37
$GPHDT,,T*1B
$GNGGA,102408.200,2500.7909400,N,12132.4746333,E,2,38,0.72,13.693,M,15.25,M,2,3335*4E
$GNRMC,102408.200,A,2500.7909400,N,12132.4746333,E,0.13,14.44,260623,,,D,V*33
$GPHDT,,T*1B
$GNGGA,102408.400,2500.7909580,N,12132.4746333,E,2,38,0.72,13.695,M,15.25,M,2,3335*47
$GNRMC,102408.400,A,2500.7909580,N,12132.4746333,E,0.12,14.44,260623,,,D,V*3D
$GPHDT,,T*1B
$GNGGA,102408.600,2500.7909760,N,12132.4746273,E,2,38,0.72,13.697,M,15.25,M,2,3335*4E
$GNRMC,102408.600,A,2500.7909760,N,12132.4746273,E,0.11,14.44,260623,,,D,V*35
$GPHDT,,T*1B
$GNGGA,102408.800,2500.7910000,N,12132.4746213,E,2,38,0.72,13.704,M,15.25,M,2,3335*44
$GNRMC,102408.800,A,2500.7910000,N,12132.4746213,E,0.12,14.44,260623,,,D,V*37
$GPHDT,,T*1B
$GNGSA,A,3,196,24,199,18,15,195,05,13,,,,,1.09,0.72,0.82,1*38
$GNGSA,A,3,80,79,69,,,,,,,,,,1.09,0.72,0.82,2*0C
$GNGSA,A,3,13,08,15,03,,,,,,,,,1.09,0.72,0.82,3*09
$GNGSA,A,3,38,39,06,20,09,46,29,37,,,,,1.09,0.72,0.82,4*02
$GPGSV,3,1,12,196,73,051,37,24,69,169,38,199,60,167,20,50,60,167,25,1*62
$GPGSV,3,2,12,18,54,304,26,15,52,014,36,195,45,177,35,05,35,091,36,1*5B
$GPGSV,3,3,12,23,28,320,,13,27,039,30,194,21,145,28,29,,,26,1*69
$GPGSV,2,1,07,196,73,051,37,24,69,169,33,199,60,167,43,18,54,304,31,8*69
$GPGSV,2,2,07,195,45,177,37,23,28,320,20,194,21,145,27,8*51
$GLGSV,1,1,04,84,39,202,14,80,34,122,31,79,25,060,41,69,24,042,38,1*7D
$GAGSV,2,1,05,13,65,286,31,08,58,355,30,15,47,171,27,07,37,272,26,7*7A
$GAGSV,2,2,05,03,22,047,30,7*45
$GAGSV,2,1,05,13,65,286,32,08,58,355,22,15,47,171,38,07,37,272,25,1*71
$GAGSV,2,2,05,03,22,047,35,1*46
$GBGSV,3,1,09,38,74,038,41,39,72,232,35,06,61,219,36,20,48,027,29,1*7F
$GBGSV,3,2,09,09,44,216,32,46,40,146,32,29,38,233,36,37,33,072,42,1*77
$GBGSV,3,3,09,30,13,180,20,1*45
$GBGSV,2,1,07,38,74,038,45,39,72,232,33,20,48,027,36,46,40,146,36,4*77
$GBGSV,2,2,07,29,38,233,34,37,33,072,37,30,13,180,18,4*45
$GNGGA,102409.000,2500.7910000,N,12132.4746213,E,2,38,0.72,13.703,M,15.25,M,3,3335*4B
$GNRMC,102409.000,A,2500.7910000,N,12132.4746213,E,0.09,14.44,260623,,,D,V*34
$GPHDT,,T*1B
$GNGGA,102409.200,2500.7910120,N,12132.4746153,E,2,38,0.72,13.711,M,15.25,M,3,3335*4E
$GNRMC,102409.200,A,2500.7910120,N,12132.4746153,E,0.09,14.44,260623,,,D,V*32
$GPHDT,,T*1B
$GNGGA,102409.400,2500.7910300,N,12132.4746033,E,2,38,0.72,13.726,M,15.25,M,3,3335*4B
$GNRMC,102409.400,A,2500.7910300,N,12132.4746033,E,0.11,14.44,260623,,,D,V*3A
$GPHDT,,T*1B
$GNGGA,102409.600,2500.7910480,N,12132.4746033,E,2,38,0.72,13.735,M,15.25,M,3,3335*44
$GNRMC,102409.600,A,2500.7910480,N,12132.4746033,E,0.12,14.44,260623,,,D,V*34
$GPHDT,,T*1B
$GNGGA,102409.800,2500.7910660,N,12132.4745973,E,2,38,0.72,13.747,M,15.25,M,3,3335*4D
$GNRMC,102409.800,A,2500.7910660,N,12132.4745973,E,0.13,14.44,260623,,,D,V*39
$GPHDT,,T*1B
$GNGSA,A,3,196,24,199,18,15,195,05,13,,,,,1.09,0.72,0.82,1*38
$GNGSA,A,3,80,79,69,,,,,,,,,,1.09,0.72,0.82,2*0C
$GNGSA,A,3,13,08,15,03,,,,,,,,,1.09,0.72,0.82,3*09
$GNGSA,A,3,38,39,06,20,09,46,29,37,,,,,1.09,0.72,0.82,4*02
$GPGSV,3,1,12,196,73,051,35,24,69,169,37,199,60,167,21,50,60,167,26,1*6D
$GPGSV,3,2,12,18,54,304,26,15,52,014,36,195,45,177,35,05,35,091,40,1*5A
$GPGSV,3,3,12,23,28,320,19,13,27,039,28,194,21,145,26,29,,,26,1*66
$GPGSV,2,1,07,196,73,051,37,24,69,169,34,199,60,167,43,18,54,304,31,8*6E
$GPGSV,2,2,07,195,45,177,37,23,28,320,19,194,21,145,25,8*59
$GLGSV,1,1,04,84,39,202,17,80,34,122,30,79,25,060,41,69,24,042,40,1*70
$GAGSV,2,1,05,13,65,286,31,08,58,355,29,15,47,171,25,07,37,272,26,7*70
$GAGSV,2,2,05,03,22,047,30,7*45
$GAGSV,2,1,05,13,65,286,32,08,58,355,23,15,47,171,38,07,37,272,26,1*73
$GAGSV,2,2,05,03,22,047,32,1*41
$GBGSV,3,1,09,38,74,038,41,39,72,233,35,06,61,219,37,20,48,027,28,1*7E
$GBGSV,3,2,09,09,44,216,31,46,40,146,31,29,38,233,35,37,33,072,43,1*75
$GBGSV,3,3,09,30,13,180,19,1*4F
$GBGSV,2,1,07,38,74,038,45,39,72,233,33,20,48,027,36,46,40,146,37,4*77
$GBGSV,2,2,07,29,38,233,34,37,33,072,34,30,13,180,16,4*48
$GNGGA,102410.000,2500.7910900,N,12132.4745853,E,2,38,0.72,13.756,M,15.25,M,4,3335*40
$GNRMC,102410.000,A,2500.7910900,N,12132.4745853,E,0.11,14.44,260623,,,D,V*31
$GPHDT,,T*1B
$GNGGA,102410.200,2500.7911200,N,12132.4745793,E,2,38,0.72,13.760,M,15.25,M,2,3335*48
$GNRMC,102410.200,A,2500.7911200,N,12132.4745793,E,0.10,14.44,260623,,,D,V*3B
$GPHDT,,T*1B
$GNGGA,102410.400,2500.7911380,N,12132.4745733,E,2,38,0.72,13.767,M,15.25,M,2,3335*4A
$GNRMC,102410.400,A,2500.7911380,N,12132.4745733,E,0.11,14.44,260623,,,D,V*3F
$GPHDT,,T*1B
$GNGGA,102410.600,2500.7911560,N,12132.4745733,E,2,38,0.72,13.774,M,15.25,M,2,3335*42
$GNRMC,102410.600,A,2500.7911560,N,12132.4745733,E,0.11,14.44,260623,,,D,V*35
$GPHDT,,T*1B
$GNGGA,102410.800,2500.7911800,N,12132.4745613,E,2,38,0.72,13.783,M,15.25,M,0,3335*4E
$GNRMC,102410.800,A,2500.7911800,N,12132.4745613,E,0.12,14.44,260623,,,D,V*30
$GPHDT,,T*1B
$GNGSA,A,3,196,24,199,18,15,195,05,13,,,,,1.09,0.72,0.82,1*38
$GNGSA,A,3,80,79,69,,,,,,,,,,1.09,0.72,0.82,2*0C
$GNGSA,A,3,13,08,15,03,,,,,,,,,1.09,0.72,0.82,3*09
$GNGSA,A,3,38,39,06,20,09,46,29,37,,,,,1.09,0.72,0.82,4*02
$GPGSV,3,1,12,196,73,051,35,24,69,169,38,199,60,167,21,50,60,167,25,1*61
$GPGSV,3,2,12,18,54,304,23,15,52,014,36,195,45,177,35,05,35,091,40,1*5F
$GPGSV,3,3,12,23,28,320,19,13,27,039,32,194,21,145,26,29,,,26,1*6D
$GPGSV,2,1,07,196,73,051,37,24,69,169,35,199,60,167,43,18,54,304,31,8*6F
$GPGSV,2,2,07,195,45,177,36,23,28,320,19,194,21,145,25,8*58
$GLGSV,1,1,04,84,39,202,16,80,34,122,30,79,25,060,40,69,24,042,40,1*70
$GAGSV,2,1,05,13,65,286,31,08,58,355,29,15,47,171,25,07,37,272,26,7*70
$GAGSV,2,2,05,03,22,047,28,7*4C
$GAGSV,2,1,05,13,65,286,33,08,58,355,25,15,47,171,39,07,37,272,26,1*75
$GAGSV,2,2,05,03,22,047,32,1*41
$GBGSV,3,1,09,38,74,038,41,39,72,233,35,06,61,219,37,20,48,027,27,1*71
$GBGSV,3,2,09,09,44,216,31,46,40,146,31,29,38,233,35,37,33,072,46,1*70
$GBGSV,3,3,09,30,13,180,20,1*45
$GBGSV,2,1,07,38,74,038,45,39,72,233,33,20,48,027,35,46,40,146,38,4*7B
$GBGSV,2,2,07,29,38,233,34,37,33,072,40,30,13,180,16,4*4B
$GNGGA,102411.000,2500.7911980,N,12132.4745493,E,2,38,0.72,13.786,M,15.25,M,1,3335*40
$GNRMC,102411.000,A,2500.7911980,N,12132.4745493,E,0.10,14.44,260623,,,D,V*38
$GPHDT,,T*1B
$GNGGA,102411.200,2500.7912220,N,12132.4745373,E,2,38,0.72,13.791,M,15.25,M,1,3335*4F
$GNRMC,102411.200,A,2500.7912220,N,12132.4745373,E,0.10,14.44,260623,,,D,V*31
$GPHDT,,T*1B
$GNGGA,102411.400,2500.7912460,N,12132.4745373,E,2,38,0.72,13.796,M,15.25,M,1,3335*4C
$GNRMC,102411.400,A,2500.7912460,N,12132.4745373,E,0.08,14.44,260623,,,D,V*3C
$GPHDT,,T*1B
$GNGGA,102411.600,2500.7912760,N,12132.4745253,E,2,38,0.72,13.797,M,15.25,M,1,3335*4F
$GNRMC,102411.600,A,2500.7912760,N,12132.4745253,E,0.09,14.44,260623,,,D,V*3F
$GPHDT,,T*1B
$GNGGA,102411.800,2500.7913000,N,12132.4745133,E,2,38,0.72,13.806,M,15.25,M,1,3335*43
$GNRMC,102411.800,A,2500.7913000,N,12132.4745133,E,0.09,14.44,260623,,,D,V*34
$GPHDT,,T*1B
$GNGSA,A,3,196,24,199,18,15,195,05,13,,,,,1.08,0.71,0.81,1*39
$GNGSA,A,3,84,80,79,69,,,,,,,,,1.08,0.71,0.81,2*01
$GNGSA,A,3,13,08,15,03,,,,,,,,,1.08,0.71,0.81,3*08
$GNGSA,A,3,38,39,06,20,09,46,29,37,,,,,1.08,0.71,0.81,4*03
$GPGSV,3,1,12,196,73,051,35,24,69,169,38,199,60,167,21,50,60,167,26,1*62
$GPGSV,3,2,12,18,54,304,22,15,52,014,36,195,45,177,35,05,35,091,41,1*5F
$GPGSV,3,3,12,23,28,320,19,13,27,039,31,194,21,145,26,29,,,28,1*60
$GPGSV,2,1,07,196,73,051,38,24,69,169,36,199,60,167,43,18,54,304,31,8*63
$GPGSV,2,2,07,195,45,177,36,23,28,320,19,194,21,145,26,8*5B
$GLGSV,1,1,04,84,39,202,15,80,34,122,32,79,25,060,40,69,24,042,40,1*71
$GAGSV,2,1,05,13,65,286,30,08,58,355,29,15,47,171,26,07,37,272,25,7*71
$GAGSV,2,2,05,03,22,047,30,7*45
$GAGSV,2,1,05,13,65,286,33,08,58,355,25,15,47,171,39,07,37,272,28,1*7B
$GAGSV,2,2,05,03,22,047,34,1*47
$GBGSV,3,1,09,38,74,038,41,39,72,233,35,06,61,219,37,20,48,027,28,1*7E
$GBGSV,3,2,09,09,44,216,30,46,40,146,32,29,38,233,35,37,33,072,45,1*71
$GBGSV,3,3,09,30,13,180,22,1*47
$GBGSV,2,1,07,38,74,038,45,39,72,233,33,20,48,027,36,46,40,146,38,4*78
$GBGSV,2,2,07,29,38,233,35,37,33,072,42,30,13,180,14,4*4A
$GNGGA,102412.000,2500.7913300,N,12132.4745013,E,2,39,0.71,13.808,M,15.25,M,2,3335*47
$GNRMC,102412.000,A,2500.7913300,N,12132.4745013,E,0.10,14.44,260623,,,D,V*37
$GPHDT,,T*1B
$GNGGA,102412.200,2500.7913480,N,12132.4745013,E,2,39,0.71,13.811,M,15.25,M,2,3335*42
$GNRMC,102412.200,A,2500.7913480,N,12132.4745013,E,0.09,14.44,260623,,,D,V*32
$GPHDT,,T*1B
$GNGGA,102412.400,2500.7913540,N,12132.4744893,E,2,39,0.71,13.813,M,15.25,M,2,3335*4A
$GNRMC,102412.400,A,2500.7913540,N,12132.4744893,E,0.08,14.44,260623,,,D,V*39
$GPHDT,,T*1B
$GNGGA,102412.600,2500.7913900,N,12132.4744773,E,2,39,0.71,13.817,M,15.25,M,2,3335*45
$GNRMC,102412.600,A,2500.7913900,N,12132.4744773,E,0.11,14.44,260623,,,D,V*3A
$GPHDT,,T*1B
$GNGGA,102412.800,2500.7914200,N,12132.4744653,E,2,39,0.71,13.823,M,15.25,M,2,3335*43
$GNRMC,102412.800,A,2500.7914200,N,12132.4744653,E,0.12,14.44,260623,,,D,V*38
$GPHDT,,T*1B
$GNGSA,A,3,196,24,199,18,15,195,05,13,,,,,1.08,0.71,0.81,1*39
$GNGSA,A,3,84,80,79,69,,,,,,,,,1.08,0.71,0.81,2*01
$GNGSA,A,3,13,08,15,03,,,,,,,,,1.08,0.71,0.81,3*08
$GNGSA,A,3,38,39,06,20,09,46,29,37,,,,,1.08,0.71,0.81,4*03
$GPGSV,3,1,12,196,73,051,33,24,69,169,38,199,60,167,21,50,60,167,24,1*66
$GPGSV,3,2,12,18,54,304,22,15,52,014,36,195,45,177,34,05,35,091,42,1*5D
$GPGSV,3,3,12,23,28,320,17,13,27,039,29,194,21,145,26,29,,,27,1*68
$GPGSV,2,1,07,196,73,051,38,24,69,169,36,199,60,167,43,18,54,304,30,8*62
$GPGSV,2,2,07,195,45,177,36,23,28,320,18,194,21,145,26,8*5A
$GLGSV,1,1,04,84,39,202,16,80,34,122,23,79,25,060,39,69,24,042,39,1*72
$GAGSV,2,1,05,13,65,286,28,08,58,355,29,15,47,171,25,07,37,272,25,7*7B
$GAGSV,2,2,05,03,22,047,32,7*47
$GAGSV,2,1,05,13,65,286,31,08,58,355,23,15,47,171,37,07,37,272,27,1*7E
$GAGSV,2,2,05,03,22,047,34,1*47
$GBGSV,3,1,09,38,74,038,41,39,72,233,34,06,61,219,37,20,48,027,30,1*76
$GBGSV,3,2,09,09,44,216,31,46,40,146,30,29,38,233,36,37,33,072,44,1*70
$GBGSV,3,3,09,30,13,180,20,1*45
$GBGSV,2,1,07,38,74,038,45,39,72,233,32,20,48,027,37,46,40,146,37,4*77
$GBGSV,2,2,07,29,38,233,34,37,33,072,43,30,13,180,14,4*4A
$GNGGA,102413.000,2500.7914260,N,12132.4744593,E,2,39,0.71,13.822,M,15.25,M,3,3335*43
$GNRMC,102413.000,A,2500.7914260,N,12132.4744593,E,0.11,14.44,260623,,,D,V*3B
$GPHDT,,T*1B
$GNGGA,102413.200,2500.7914440,N,12132.4744473,E,2,39,0.71,13.820,M,15.25,M,3,3335*48
$GNRMC,102413.200,A,2500.7914440,N,12132.4744473,E,0.10,14.44,260623,,,D,V*33
$GPHDT,,T*1B
$GNGGA,102413.400,2500.7914560,N,12132.4744353,E,2,39,0.71,13.822,M,15.25,M,3,3335*4A
$GNRMC,102413.400,A,2500.7914560,N,12132.4744353,E,0.10,14.44,260623,,,D,V*33
$GPHDT,,T*1B
$GNGGA,102413.600,2500.7914740,N,12132.4744233,E,2,39,0.71,13.823,M,15.25,M,3,3335*4E
$GNRMC,102413.600,A,2500.7914740,N,12132.4744233,E,0.10,14.44,260623,,,D,V*36
$GPHDT,,T*1B
$GNGGA,102413.800,2500.7914860,N,12132.4744113,E,2,39,0.71,13.828,M,15.25,M,3,3335*47
$GNRMC,102413.800,A,2500.7914860,N,12132.4744113,E,0.09,14.44,260623,,,D,V*3C
$GPHDT,,T*1B
$GNGSA,A,3,196,24,199,18,15,195,05,13,,,,,1.08,0.71,0.81,1*39
$GNGSA,A,3,84,80,79,69,,,,,,,,,1.08,0.71,0.81,2*01
$GNGSA,A,3,13,08,15,03,,,,,,,,,1.08,0.71,0.81,3*08
$GNGSA,A,3,38,39,06,20,09,46,29,37,,,,,1.08,0.71,0.81,4*03
$GPGSV,3,1,12,196,73,051,33,24,69,169,39,199,60,167,20,50,60,167,26,1*64
$GPGSV,3,2,12,18,54,304,22,15,52,014,36,195,45,177,32,05,35,091,43,1*5A
$GPGSV,3,3,12,23,28,320,14,13,27,039,27,194,21,145,25,29,,,26,1*67
$GPGSV,2,1,07,196,73,051,37,24,69,169,33,199,60,167,43,18,54,304,30,8*68
$GPGSV,2,2,07,195,45,177,36,23,28,320,19,194,21,145,26,8*5B
$GLGSV,1,1,04,84,39,202,19,80,34,122,23,79,25,060,35,69,24,042,39,1*71
$GAGSV,2,1,05,13,65,286,28,08,58,355,29,15,47,171,27,07,37,272,27,7*7B
$GAGSV,2,2,05,03,22,047,34,7*41
$GAGSV,2,1,05,13,65,286,32,08,58,355,20,15,47,171,37,07,37,272,26,1*7F
$GAGSV,2,2,05,03,22,047,36,1*45
$GBGSV,3,1,09,38,74,038,41,39,72,233,31,06,61,219,37,20,48,027,27,1*75
$GBGSV,3,2,09,09,44,216,31,46,40,146,26,29,38,233,36,37,33,072,44,1*77
$GBGSV,3,3,09,30,13,180,17,1*41
$GBGSV,2,1,07,38,74,038,45,39,72,233,32,20,48,027,36,46,40,146,36,4*77
$GBGSV,2,2,07,29,38,233,34,37,33,072,43,30,13,180,14,4*4A
$GNGGA,102414.000,2500.7915040,N,12132.4743993,E,2,39,0.71,13.829,M,15.25,M,4,3335*42
$GNRMC,102414.000,A,2500.7915040,N,12132.4743993,E,0.09,14.44,260623,,,D,V*3F
$GPHDT,,T*1B
$GNGGA,102414.200,2500.7915160,N,12132.4743993,E,2,39,0.71,13.831,M,15.25,M,4,3335*4A
$GNRMC,102414.200,A,2500.7915160,N,12132.4743993,E,0.07,14.44,260623,,,D,V*30
$GPHDT,,T*1B
$GNGGA,102414.400,2500.7915160,N,12132.4743993,E,2,38,0.71,13.841,M,15.25,M,4,3335*4A
$GNRMC,102414.400,A,2500.7915160,N,12132.4743993,E,0.08,14.44,260623,,,D,V*39
$GPHDT,,T*1B
$GNGGA,102414.600,2500.7915400,N,12132.4743933,E,2,38,0.71,13.853,M,15.25,M,4,3335*42
$GNRMC,102414.600,A,2500.7915400,N,12132.4743933,E,0.08,14.44,260623,,,D,V*32
$GPHDT,,T*1B
$GNGGA,102414.800,2500.7915580,N,12132.4743873,E,2,38,0.71,13.864,M,15.25,M,4,3335*44
$GNRMC,102414.800,A,2500.7915580,N,12132.4743873,E,0.08,14.44,260623,,,D,V*30
$GPHDT,,T*1B
$GNGSA,A,3,196,24,199,18,15,195,05,13,,,,,1.08,0.71,0.81,1*39
$GNGSA,A,3,84,80,79,69,,,,,,,,,1.08,0.71,0.81,2*01
$GNGSA,A,3,13,08,15,03,,,,,,,,,1.08,0.71,0.81,3*08
$GNGSA,A,3,38,39,06,09,46,29,37,20,,,,,1.08,0.71,0.81,4*03
$GPGSV,3,1,12,196,73,051,33,24,69,169,39,199,60,167,22,50,60,167,26,1*66
$GPGSV,3,2,12,18,54,304,22,15,52,014,36,195,45,177,32,05,35,091,41,1*58
$GPGSV,3,3,12,23,28,320,,13,27,039,28,194,21,145,26,29,,,25,1*6D
$GPGSV,2,1,07,196,73,051,37,24,69,169,32,199,60,167,43,18,54,304,30,8*69
$GPGSV,2,2,07,195,45,177,37,23,28,320,19,194,21,145,26,8*5A
$GLGSV,1,1,04,84,39,202,20,80,34,122,25,79,25,060,38,69,24,042,39,1*70
$GAGSV,2,1,05,13,65,286,28,08,58,355,28,15,47,171,28,07,37,272,26,7*74
$GAGSV,2,2,05,03,22,047,34,7*41
$GAGSV,2,1,05,13,65,286,32,08,58,355,22,15,47,171,37,07,37,272,26,1*7D
$GAGSV,2,2,05,03,22,047,36,1*45
$GBGSV,3,1,09,38,74,038,41,39,72,233,31,06,61,219,37,20,48,027,,1*70
$GBGSV,3,2,09,09,44,216,31,46,40,146,25,29,38,233,36,37,33,072,44,1*74
$GBGSV,3,3,09,30,13,180,19,1*4F
$GBGSV,2,1,06,38,74,038,45,39,72,233,33,20,48,027,36,46,40,146,36,4*77
$GBGSV,2,2,06,29,38,233,34,37,33,072,44,4*71
$GNGGA,102415.000,2500.7915640,N,12132.4743753,E,2,38,0.71,13.875,M,15.25,M,5,3335*4E
$GNRMC,102415.000,A,2500.7915640,N,12132.4743753,E,0.09,14.44,260623,,,D,V*3A
$GPHDT,,T*1B
$GNGGA,102415.200,2500.7915760,N,12132.4743813,E,2,38,0.71,13.885,M,15.25,M,5,3335*4B
$GNRMC,102415.200,A,2500.7915760,N,12132.4743813,E,0.08,14.44,260623,,,D,V*31
$GPHDT,,T*1B
$GNGGA,102415.400,2500.7915940,N,12132.4743813,E,2,38,0.71,13.899,M,15.25,M,5,3335*4C
$GNRMC,102415.400,A,2500.7915940,N,12132.4743813,E,0.08,14.44,260623,,,D,V*3B
$GPHDT,,T*1B
$GNGGA,102415.600,2500.7916180,N,12132.4743873,E,2,38,0.71,13.910,M,15.25,M,5,3335*4F
$GNRMC,102415.600,A,2500.7916180,N,12132.4743873,E,0.07,14.44,260623,,,D,V*37
$GPHDT,,T*1B
$GNGGA,102415.800,2500.7916420,N,12132.4743873,E,2,38,0.71,13.926,M,15.25,M,5,3335*4B
$GNRMC,102415.800,A,2500.7916420,N,12132.4743873,E,0.09,14.44,260623,,,D,V*38
$GPHDT,,T*1B
$GNGSA,A,3,196,24,199,18,15,195,05,13,,,,,1.08,0.71,0.81,1*39
$GNGSA,A,3,84,80,79,69,,,,,,,,,1.08,0.71,0.81,2*01
$GNGSA,A,3,13,08,15,03,,,,,,,,,1.08,0.71,0.81,3*08
$GNGSA,A,3,38,39,06,09,46,29,37,20,,,,,1.08,0.71,0.81,4*03
$GPGSV,3,1,12,196,73,051,31,24,69,169,39,199,60,167,23,50,60,167,26,1*65
$GPGSV,3,2,12,18,54,304,22,15,52,014,37,195,45,177,32,05,35,091,38,1*57
$GPGSV,3,3,12,23,28,320,,13,27,039,29,194,21,145,26,29,,,26,1*6F
$GPGSV,2,1,07,196,73,051,36,24,69,169,33,199,60,167,43,18,54,304,30,8*69
$GPGSV,2,2,07,195,45,177,37,23,28,320,19,194,21,145,25,8*59
$GLGSV,1,1,04,84,39,202,20,80,34,122,29,79,25,060,38,69,24,042,40,1*72
$GAGSV,2,1,05,13,65,286,27,08,58,355,28,15,47,171,27,07,37,272,25,7*77
$GAGSV,2,2,05,03,22,047,34,7*41
$GAGSV,2,1,05,13,65,286,32,08,58,355,25,15,47,171,37,07,37,272,27,1*7B
$GAGSV,2,2,05,03,22,047,37,1*44
$GBGSV,3,1,09,38,74,038,41,39,72,233,33,06,61,219,37,20,48,027,,1*72
$GBGSV,3,2,09,09,44,216,31,46,40,146,23,29,38,233,35,37,33,072,44,1*71
$GBGSV,3,3,09,30,13,180,19,1*4F
$GBGSV,2,1,06,38,74,038,45,39,72,233,33,20,48,027,36,46,40,146,36,4*77
$GBGSV,2,2,06,29,38,233,33,37,33,072,44,4*76
$GNGGA,102416.000,2500.7916720,N,12132.4743873,E,2,38,0.71,13.933,M,15.25,M,6,3335*44
$GNRMC,102416.000,A,2500.7916720,N,12132.4743873,E,0.08,14.44,260623,,,D,V*31
$GPHDT,,T*1B
$GNGGA,102416.200,2500.7917080,N,12132.4743873,E,2,38,0.71,13.949,M,15.25,M,6,3335*47
$GNRMC,102416.200,A,2500.7917080,N,12132.4743873,E,0.10,14.44,260623,,,D,V*36
$GPHDT,,T*1B
$GNGGA,102416.400,2500.7917380,N,12132.4743873,E,2,38,0.71,13.957,M,15.25,M,5,3335*4E
$GNRMC,102416.400,A,2500.7917380,N,12132.4743873,E,0.10,14.44,260623,,,D,V*33
$GPHDT,,T*1B
$GNGGA,102416.600,2500.7917620,N,12132.4743813,E,2,38,0.71,13.967,M,15.25,M,3,3335*40
$GNRMC,102416.600,A,2500.7917620,N,12132.4743813,E,0.11,14.44,260623,,,D,V*39
$GPHDT,,T*1B
$GNGGA,102416.800,2500.7917740,N,12132.4743753,E,2,38,0.71,13.976,M,15.25,M,1,3335*40
$GNRMC,102416.800,A,2500.7917740,N,12132.4743753,E,0.11,14.44,260623,,,D,V*3B
$GPHDT,,T*1B
$GNGSA,A,3,196,24,199,18,15,195,05,13,,,,,1.08,0.71,0.81,1*39
$GNGSA,A,3,84,80,79,69,,,,,,,,,1.08,0.71,0.81,2*01
$GNGSA,A,3,13,08,15,03,,,,,,,,,1.08,0.71,0.81,3*08
$GNGSA,A,3,38,39,06,09,46,29,37,20,,,,,1.08,0.71,0.81,4*03
$GPGSV,3,1,12,196,73,051,31,24,69,169,40,199,60,167,23,50,60,167,26,1*6B
$GPGSV,3,2,12,18,54,304,22,15,52,014,37,195,45,177,33,05,35,091,38,1*56
$GPGSV,3,3,12,23,28,320,,13,27,039,29,194,21,145,26,29,,,25,1*6C
$GPGSV,2,1,07,196,73,051,36,24,69,169,32,199,60,167,43,18,54,304,30,8*68
$GPGSV,2,2,07,195,45,177,36,23,28,320,19,194,21,145,25,8*58
$GLGSV,1,1,04,84,39,202,18,80,34,122,30,79,25,060,38,69,24,042,40,1*71
$GAGSV,2,1,05,13,65,286,26,08,58,355,29,15,47,171,25,07,37,272,25,7*75
$GAGSV,2,2,05,03,22,047,34,7*41
$GAGSV,2,1,05,13,65,286,31,08,58,355,25,15,47,171,37,07,37,272,27,1*78
$GAGSV,2,2,05,03,22,047,37,1*44
$GBGSV,3,1,09,38,74,038,41,39,72,233,34,06,61,219,37,20,48,027,,1*75
$GBGSV,3,2,09,09,44,216,30,46,40,146,21,29,38,233,35,37,33,072,44,1*72
$GBGSV,3,3,09,30,13,180,21,1*44
$GBGSV,2,1,06,38,74,038,45,39,72,233,33,20,48,027,36,46,40,146,36,4*77
$GBGSV,2,2,06,29,38,233,33,37,33,072,44,4*76
$GNGGA,102417.000,2500.7917860,N,12132.4743693,E,2,38,0.71,13.989,M,15.25,M,1,3335*49
$GNRMC,102417.000,A,2500.7917860,N,12132.4743693,E,0.09,14.44,260623,,,D,V*3B
$GPHDT,,T*1B
$GNGGA,102417.200,2500.7918040,N,12132.4743693,E,2,38,0.71,14.006,M,15.25,M,1,3335*47
$GNRMC,102417.200,A,2500.7918040,N,12132.4743693,E,0.10,14.44,260623,,,D,V*34
$GPHDT,,T*1B
$GNGGA,102417.400,2500.7918220,N,12132.4743633,E,2,38,0.71,14.016,M,15.25,M,1,3335*4E
$GNRMC,102417.400,A,2500.7918220,N,12132.4743633,E,0.10,14.44,260623,,,D,V*3C
$GPHDT,,T*1B
$GNGGA,102417.600,2500.7918460,N,12132.4743573,E,2,38,0.71,14.032,M,15.25,M,0,3335*4E
$GNRMC,102417.600,A,2500.7918460,N,12132.4743573,E,0.12,14.44,260623,,,D,V*39
$GPHDT,,T*1B
$GNGGA,102417.800,2500.7918700,N,12132.4743573,E,2,38,0.71,14.053,M,15.25,M,0,3335*42
$GNRMC,102417.800,A,2500.7918700,N,12132.4743573,E,0.12,14.44,260623,,,D,V*32
$GPHDT,,T*1B
$GNGSA,A,3,196,24,199,18,15,195,05,13,,,,,1.08,0.71,0.81,1*39
$GNGSA,A,3,84,80,79,69,,,,,,,,,1.08,0.71,0.81,2*01
$GNGSA,A,3,13,08,15,03,,,,,,,,,1.08,0.71,0.81,3*08
$GNGSA,A,3,38,39,06,09,46,29,37,20,,,,,1.08,0.71,0.81,4*03
$GPGSV,3,1,12,196,73,051,31,24,69,169,40,199,60,167,23,50,60,167,26,1*6B
$GPGSV,3,2,12,18,54,304,21,15,52,014,37,195,45,177,33,05,35,091,37,1*5A
$GPGSV,3,3,12,23,28,320,,13,27,039,28,194,21,145,26,29,,,24,1*6C
$GPGSV,2,1,07,196,73,051,36,24,69,169,32,199,60,167,43,18,54,304,29,8*60
$GPGSV,2,2,07,195,45,177,36,23,28,320,20,194,21,145,25,8*52
$GLGSV,1,1,04,84,39,202,18,80,34,122,31,79,25,060,38,69,24,042,40,1*70
$GAGSV,2,1,05,13,65,286,26,08,58,355,29,15,47,171,25,07,37,272,24,7*74
$GAGSV,2,2,05,03,22,047,33,7*46
$GAGSV,2,1,05,13,65,286,31,08,58,355,25,15,47,171,37,07,37,272,27,1*78
$GAGSV,2,2,05,03,22,047,37,1*44
$GBGSV,3,1,09,38,74,038,41,39,72,233,35,06,61,219,37,20,48,027,,1*74
$GBGSV,3,2,09,09,44,216,30,46,40,146,21,29,38,233,35,37,33,072,44,1*72
$GBGSV,3,3,09,30,13,180,21,1*44
$GBGSV,2,1,06,38,74,038,45,39,72,233,33,20,48,027,36,46,40,146,36,4*77
$GBGSV,2,2,06,29,38,233,34,37,33,072,44,4*71
$GNGGA,102418.000,2500.7918880,N,12132.4743573,E,2,38,0.71,14.070,M,15.25,M,1,3335*42
$GNRMC,102418.000,A,2500.7918880,N,12132.4743573,E,0.12,14.44,260623,,,D,V*32
$GPHDT,,T*1B
$GNGGA,102418.200,2500.7919000,N,12132.4743633,E,2,38,0.71,14.084,M,15.25,M,1,3335*4D
$GNRMC,102418.200,A,2500.7919000,N,12132.4743633,E,0.11,14.44,260623,,,D,V*35
$GPHDT,,T*1B
$GNGGA,102418.400,2500.7919180,N,12132.4743633,E,2,38,0.71,14.101,M,15.25,M,1,3335*4E
$GNRMC,102418.400,A,2500.7919180,N,12132.4743633,E,0.11,14.44,260623,,,D,V*3A
$GPHDT,,T*1B
$GNGGA,102418.600,2500.7919480,N,12132.4743513,E,2,38,0.71,14.118,M,15.25,M,1,3335*40
$GNRMC,102418.600,A,2500.7919480,N,12132.4743513,E,0.12,14.44,260623,,,D,V*3F
