$FW : RTK35X,V1.1X0314AS,Lib20210517,1*54
$Tool : LOCOSYS , GNSS Firebird , v1.0.0.19*39
$---------------------------------------------------*2D
$GPHDT,,T*1B
$GNGGA,102437.200,2500.7916300,N,12132.4745193,E,2,38,0.71,15.735,M,15.25,M,3,3335*49
$GNRMC,102437.200,A,2500.7916300,N,12132.4745193,E,0.55,262.55,260623,,,D,V*0C
$GPHDT,,T*1B
$GNGGA,102437.400,2500.7916120,N,12132.4745013,E,2,37,0.71,15.760,M,15.25,M,3,3335*49
$GNRMC,102437.400,A,2500.7916120,N,12132.4745013,E,0.52,262.55,260623,,,D,V*04
$GPHDT,,T*1B
$GNGGA,102437.600,2500.7916060,N,12132.4744833,E,2,37,0.71,15.786,M,15.25,M,3,3335*4D
$GNRMC,102437.600,A,2500.7916060,N,12132.4744833,E,0.49,262.55,260623,,,D,V*02
$GPHDT,,T*1B
$GNGGA,102437.800,2500.7916000,N,12132.4744713,E,2,37,0.71,15.813,M,15.25,M,3,3335*4B
$GNRMC,102437.800,A,2500.7916000,N,12132.4744713,E,0.45,262.55,260623,,,D,V*0B
$GPHDT,,T*1B
$GNGSA,A,3,196,24,199,18,15,195,05,13,,,,,1.08,0.71,0.81,1*39
$GNGSA,A,3,84,80,79,69,,,,,,,,,1.08,0.71,0.81,2*01
$GNGSA,A,3,13,08,15,03,,,,,,,,,1.08,0.71,0.81,3*08
$GNGSA,A,3,38,39,06,20,09,46,29,37,,,,,1.08,0.71,0.81,4*03
$GPGSV,3,1,12,196,73,051,28,24,69,169,40,199,60,167,26,50,60,167,29,1*69
$GPGSV,3,2,12,18,54,304,24,15,52,014,37,195,45,177,35,05,35,091,28,1*57
$GPGSV,3,3,12,23,28,320,22,13,27,039,26,194,21,145,31,29,,,19,1*6A
$GPGSV,2,1,06,196,73,051,34,24,69,169,37,199,60,167,44,18,54,304,27,8*6F
$GPGSV,2,2,06,195,45,177,29,194,21,145,28,8*68
$GLGSV,1,1,04,84,39,202,18,80,34,122,32,79,25,060,37,69,23,042,34,1*78
$GAGSV,2,1,05,13,65,286,24,08,58,355,20,15,47,171,30,07,37,273,24,7*7A
$GAGSV,2,2,05,03,22,047,18,7*4F
$GAGSV,2,1,05,13,65,286,31,08,58,355,27,15,47,171,41,07,37,273,22,1*7F
$GAGSV,2,2,05,03,22,047,35,1*46
$GBGSV,3,1,09,38,74,038,37,39,72,233,33,06,61,219,37,20,48,027,20,1*71
$GBGSV,3,2,09,09,44,216,31,46,40,146,29,29,38,233,39,37,33,072,39,1*7D
$GBGSV,3,3,09,30,13,180,19,1*4F
$GBGSV,2,1,07,38,74,038,44,39,72,233,36,20,48,027,34,46,40,146,35,4*73
$GBGSV,2,2,07,29,38,233,36,37,33,072,39,30,13,180,18,4*49
$GNGGA,102438.000,2500.7915940,N,12132.4744593,E,2,38,0.71,15.839,M,15.25,M,4,3335*48
$GNRMC,102438.000,A,2500.7915940,N,12132.4744593,E,0.40,262.55,260623,,,D,V*0D
$GPHDT,,T*1B
$GNGGA,102438.200,2500.7916000,N,12132.4744473,E,2,39,0.71,15.872,M,15.25,M,4,3335*45
$GNRMC,102438.200,A,2500.7916000,N,12132.4744473,E,0.37,262.55,260623,,,D,V*0E
$GPHDT,,T*1B
$GNGGA,102438.400,2500.7916120,N,12132.4744293,E,2,39,0.71,15.898,M,15.25,M,4,3335*4C
$GNRMC,102438.400,A,2500.7916120,N,12132.4744293,E,0.34,262.55,260623,,,D,V*00
$GPHDT,,T*1B
$GNGGA,102438.600,2500.7916180,N,12132.4744173,E,2,39,0.71,15.928,M,15.25,M,4,3335*43
$GNRMC,102438.600,A,2500.7916180,N,12132.4744173,E,0.30,262.55,260623,,,D,V*01
$GPHDT,,T*1B
$GNGGA,102438.800,2500.7916240,N,12132.4744473,E,2,39,0.71,15.957,M,15.25,M,4,3335*4F
$GNRMC,102438.800,A,2500.7916240,N,12132.4744473,E,0.25,262.55,260623,,,D,V*01
$GPHDT,,T*1B
$GNGSA,A,3,196,24,199,18,15,195,05,13,,,,,1.08,0.71,0.81,1*39
$GNGSA,A,3,84,80,79,69,,,,,,,,,1.08,0.71,0.81,2*01
$GNGSA,A,3,13,08,15,03,,,,,,,,,1.08,0.71,0.81,3*08
$GNGSA,A,3,38,39,06,20,09,46,29,37,,,,,1.08,0.71,0.81,4*03
$GPGSV,3,1,12,196,73,051,29,24,69,169,41,199,60,167,26,50,60,167,29,1*69
$GPGSV,3,2,12,18,54,304,24,15,52,014,36,195,45,177,35,05,35,091,31,1*5E
$GPGSV,3,3,12,23,28,320,22,13,27,039,24,194,21,145,31,29,,,18,1*69
$GPGSV,2,1,06,196,73,051,33,24,69,169,36,199,60,167,44,18,54,304,27,8*69
$GPGSV,2,2,06,195,45,177,29,194,21,145,28,8*68
$GLGSV,1,1,04,84,39,202,18,80,34,122,32,79,25,060,36,69,23,042,34,1*79
$GAGSV,2,1,05,13,65,286,25,08,58,355,19,15,47,171,31,07,37,273,24,7*70
$GAGSV,2,2,05,03,22,047,18,7*4F
$GAGSV,2,1,05,13,65,286,31,08,58,355,25,15,47,171,41,07,37,273,22,1*7D
$GAGSV,2,2,05,03,22,047,35,1*46
$GBGSV,3,1,09,38,74,038,37,39,72,233,34,06,61,219,37,20,48,027,29,1*7F
$GBGSV,3,2,09,09,44,216,31,46,40,146,32,29,38,233,39,37,33,072,40,1*79
$GBGSV,3,3,09,30,13,180,21,1*44
$GBGSV,2,1,07,38,74,038,44,39,72,233,35,20,48,027,34,46,40,146,36,4*73
$GBGSV,2,2,07,29,38,233,37,37,33,072,40,30,13,180,19,4*47
$GNGGA,102439.000,2500.7916180,N,12132.4744893,E,2,39,0.71,15.981,M,15.25,M,5,3335*41
$GNRMC,102439.000,A,2500.7916180,N,12132.4744893,E,0.22,262.55,260623,,,D,V*02
$GPHDT,,T*1B
$GNGGA,102439.200,2500.7916240,N,12132.4745313,E,2,39,0.71,16.009,M,15.25,M,5,3335*44
$GNRMC,102439.200,A,2500.7916240,N,12132.4745313,E,0.19,262.55,260623,,,D,V*05
$GPHDT,,T*1B
$GNGGA,102439.400,2500.7916300,N,12132.4745493,E,2,39,0.71,16.039,M,15.25,M,5,3335*4B
$GNRMC,102439.400,A,2500.7916300,N,12132.4745493,E,0.18,262.55,260623,,,D,V*08
$GPHDT,,T*1B
$GNGGA,102439.600,2500.7916420,N,12132.4745433,E,1,38,0.72,16.073,M,15.25,M,5,3335*49
$GNRMC,102439.600,A,2500.7916420,N,12132.4745433,E,0.17,262.55,260623,,,A,V*0F
$GPHDT,,T*1B
$GNGGA,102439.800,2500.7916660,N,12132.4745253,E,1,38,0.72,16.105,M,15.25,M,5,3335*41
$GNRMC,102439.800,A,2500.7916660,N,12132.4745253,E,0.18,262.55,260623,,,A,V*08
$GPHDT,,T*1B
$GNGSA,A,3,196,24,199,18,15,195,13,,,,,,1.09,0.73,0.81,1*3F
$GNGSA,A,3,84,80,79,69,,,,,,,,,1.09,0.73,0.81,2*02
$GNGSA,A,3,13,08,15,03,,,,,,,,,1.09,0.73,0.81,3*0B
$GNGSA,A,3,38,39,06,20,09,46,29,37,,,,,1.09,0.73,0.81,4*00
$GPGSV,3,1,12,196,73,051,31,24,69,169,41,199,60,167,24,50,60,167,27,1*6C
$GPGSV,3,2,12,18,54,304,19,15,52,014,36,195,45,177,34,05,35,091,23,1*52
$GPGSV,3,3,12,23,28,320,21,13,27,039,33,194,21,145,31,29,,,18,1*6C
$GPGSV,2,1,06,196,73,051,35,24,69,169,38,199,60,167,44,18,54,304,28,8*6E
$GPGSV,2,2,06,195,45,177,32,194,21,145,27,8*6D
$GLGSV,1,1,04,84,39,202,19,80,34,122,34,79,25,060,35,69,23,042,37,1*7E
$GAGSV,2,1,06,13,65,286,25,08,58,355,18,15,47,171,31,07,37,273,25,7*73
$GAGSV,2,2,06,03,22,047,22,34,01,153,,7*74
$GAGSV,2,1,05,13,65,286,33,08,58,355,26,15,47,171,40,07,37,273,23,1*7C
$GAGSV,2,2,05,03,22,047,35,1*46
$GBGSV,3,1,11,38,74,038,39,39,72,233,34,06,61,219,37,20,48,027,27,1*76
$GBGSV,3,2,11,09,44,216,31,46,40,146,28,29,38,233,38,37,33,072,39,1*74
$GBGSV,3,3,11,35,23,296,,30,13,180,22,32,13,076,,1*46
$GBGSV,2,1,07,38,74,038,44,39,72,233,35,20,48,027,34,46,40,146,37,4*72
$GBGSV,2,2,07,29,38,233,37,37,33,072,41,30,13,180,20,4*4C
$GNGGA,102440.000,2500.7916960,N,12132.4745133,E,2,38,0.73,16.141,M,15.25,M,6,3335*4C
$GNRMC,102440.000,A,2500.7916960,N,12132.4745133,E,0.15,262.55,260623,,,D,V*0C
$GPHDT,,T*1B
$GNGGA,102440.200,2500.7917200,N,12132.4745073,E,2,38,0.73,16.182,M,15.25,M,6,3335*48
$GNRMC,102440.200,A,2500.7917200,N,12132.4745073,E,0.15,262.55,260623,,,D,V*07
$GPHDT,,T*1B
$GNGGA,102440.400,2500.7917440,N,12132.4744953,E,2,38,0.73,16.224,M,15.25,M,6,3335*49
$GNRMC,102440.400,A,2500.7917440,N,12132.4744953,E,0.15,262.55,260623,,,D,V*09
$GPHDT,,T*1B
$GNGGA,102440.600,2500.7917680,N,12132.4744833,E,2,38,0.71,16.255,M,15.25,M,6,3335*46
$GNRMC,102440.600,A,2500.7917680,N,12132.4744833,E,0.15,262.55,260623,,,D,V*02
$GPHDT,,T*1B
$GNGGA,102440.800,2500.7917920,N,12132.4744713,E,2,39,0.71,16.292,M,15.25,M,4,3335*48
$GNRMC,102440.800,A,2500.7917920,N,12132.4744713,E,0.15,262.55,260623,,,D,V*04
$GPHDT,,T*1B
$GNGSA,A,3,196,24,199,18,15,195,05,13,,,,,1.08,0.71,0.81,1*39
$GNGSA,A,3,84,80,79,69,,,,,,,,,1.08,0.71,0.81,2*01
$GNGSA,A,3,13,08,15,03,,,,,,,,,1.08,0.71,0.81,3*08
$GNGSA,A,3,38,39,06,20,09,46,29,37,,,,,1.08,0.71,0.81,4*03
$GPGSV,3,1,12,196,73,051,32,24,69,169,41,199,60,167,22,50,60,167,26,1*68
$GPGSV,3,2,12,18,54,304,17,15,52,014,36,195,45,177,34,05,35,091,29,1*56
$GPGSV,3,3,12,23,28,320,21,13,27,039,31,194,21,145,30,29,,,19,1*6E
$GPGSV,2,1,06,196,73,051,38,24,69,169,38,199,60,167,44,18,54,304,29,8*62
$GPGSV,2,2,06,195,45,177,33,194,21,145,27,8*6C
$GLGSV,1,1,04,84,39,202,18,80,34,122,36,79,25,060,38,69,23,042,37,1*70
$GAGSV,2,1,06,13,65,286,23,08,58,355,19,15,47,171,30,07,37,273,25,7*75
$GAGSV,2,2,06,03,22,047,23,34,01,153,,7*75
$GAGSV,2,1,05,13,65,286,34,08,58,355,25,15,47,171,40,07,37,273,23,1*78
$GAGSV,2,2,05,03,22,047,37,1*44
$GBGSV,3,1,09,38,74,038,40,39,72,233,33,06,61,219,37,20,48,027,30,1*70
$GBGSV,3,2,09,09,44,216,31,46,40,146,28,29,38,233,38,37,33,072,40,1*73
$GBGSV,3,3,09,30,13,180,22,1*47
$GBGSV,2,1,07,38,74,038,44,39,72,233,35,20,48,027,36,46,40,146,37,4*70
$GBGSV,2,2,07,29,38,233,37,37,33,072,44,30,13,180,21,4*48
$GNGGA,102441.000,2500.7918100,N,12132.4744653,E,2,39,0.71,16.335,M,15.25,M,4,3335*4D
$GNRMC,102441.000,A,2500.7918100,N,12132.4744653,E,0.14,262.55,260623,,,D,V*0C
$GPHDT,,T*1B
$GNGGA,102441.200,2500.7918400,N,12132.4744473,E,2,39,0.71,16.361,M,15.25,M,1,3335*4E
$GNRMC,102441.200,A,2500.7918400,N,12132.4744473,E,0.14,262.55,260623,,,D,V*0B
$GPHDT,,T*1B
$GNGGA,102441.400,2500.7918640,N,12132.4744413,E,2,39,0.71,16.407,M,15.25,M,1,3335*4F
$GNRMC,102441.400,A,2500.7918640,N,12132.4744413,E,0.13,262.55,260623,,,D,V*0A
$GPHDT,,T*1B
$GNGGA,102441.600,2500.7918940,N,12132.4744293,E,2,39,0.71,16.439,M,15.25,M,1,3335*41
$GNRMC,102441.600,A,2500.7918940,N,12132.4744293,E,0.12,262.55,260623,,,D,V*08
$GPHDT,,T*1B
$GNGGA,102441.800,2500.7919360,N,12132.4744173,E,2,39,0.71,16.468,M,15.25,M,1,3335*4F
$GNRMC,102441.800,A,2500.7919360,N,12132.4744173,E,0.12,262.55,260623,,,D,V*02
$GPHDT,,T*1B
$GNGSA,A,3,196,24,199,18,15,195,05,13,,,,,1.08,0.71,0.81,1*39
$GNGSA,A,3,84,80,79,69,,,,,,,,,1.08,0.71,0.81,2*01
$GNGSA,A,3,13,08,15,03,,,,,,,,,1.08,0.71,0.81,3*08
$GNGSA,A,3,38,39,06,20,09,46,29,37,,,,,1.08,0.71,0.81,4*03
$GPGSV,3,1,12,196,73,051,29,24,69,169,41,199,60,167,22,50,60,167,26,1*62
$GPGSV,3,2,12,18,54,304,16,15,52,014,37,195,45,177,34,05,35,091,23,1*5C
$GPGSV,3,3,12,23,28,320,20,13,27,039,32,194,21,145,30,29,,,19,1*6C
$GPGSV,2,1,06,196,73,051,38,24,69,169,38,199,60,167,44,18,54,304,28,8*63
$GPGSV,2,2,06,195,45,177,33,194,21,145,27,8*6C
$GLGSV,1,1,04,84,39,202,18,80,34,122,36,79,25,060,38,69,23,042,38,1*7F
$GAGSV,2,1,06,13,65,286,23,08,58,355,19,15,47,171,29,07,37,273,26,7*7E
$GAGSV,2,2,06,03,22,047,25,34,01,153,,7*73
$GAGSV,2,1,05,13,65,286,34,08,58,355,24,15,47,171,40,07,37,273,21,1*7B
$GAGSV,2,2,05,03,22,047,37,1*44
$GBGSV,3,1,09,38,74,038,40,39,72,233,33,06,61,219,37,20,48,027,24,1*75
$GBGSV,3,2,09,09,44,216,30,46,40,146,29,29,38,233,38,37,33,072,39,1*7D
$GBGSV,3,3,09,30,13,180,21,1*44
$GBGSV,2,1,07,38,74,038,45,39,72,233,35,20,48,027,37,46,40,146,37,4*70
$GBGSV,2,2,07,29,38,233,36,37,33,072,44,30,13,180,21,4*49
$GNGGA,102442.000,2500.7919600,N,12132.4744053,E,2,39,0.71,16.502,M,15.25,M,2,3335*4A
$GNRMC,102442.000,A,2500.7919600,N,12132.4744053,E,0.12,262.55,260623,,,D,V*09
$GPHDT,,T*1B
$GNGGA,102442.200,2500.7919960,N,12132.4743873,E,2,39,0.71,16.537,M,15.25,M,2,3335*4A
$GNRMC,102442.200,A,2500.7919960,N,12132.4743873,E,0.13,262.55,260623,,,D,V*0E
$GPHDT,,T*1B
$GNGGA,102442.400,2500.7920260,N,12132.4743753,E,2,39,0.71,16.572,M,15.25,M,2,3335*41
$GNRMC,102442.400,A,2500.7920260,N,12132.4743753,E,0.14,262.55,260623,,,D,V*03
$GPHDT,,T*1B
$GNGGA,102442.600,2500.7920560,N,12132.4743693,E,2,39,0.71,16.607,M,15.25,M,2,3335*48
$GNRMC,102442.600,A,2500.7920560,N,12132.4743693,E,0.15,262.55,260623,,,D,V*0A
$GPHDT,,T*1B
$GNGGA,102442.800,2500.7920740,N,12132.4743693,E,2,39,0.71,16.638,M,15.25,M,2,3335*4A
$GNRMC,102442.800,A,2500.7920740,N,12132.4743693,E,0.14,262.55,260623,,,D,V*05
$GPHDT,,T*1B
$GNGSA,A,3,196,24,199,18,15,195,05,13,,,,,1.08,0.71,0.81,1*39
$GNGSA,A,3,84,80,79,69,,,,,,,,,1.08,0.71,0.81,2*01
$GNGSA,A,3,13,08,15,03,,,,,,,,,1.08,0.71,0.81,3*08
$GNGSA,A,3,38,39,06,20,09,46,29,37,,,,,1.08,0.71,0.81,4*03
$GPGSV,3,1,12,196,73,051,30,24,69,169,41,199,60,167,22,50,60,167,26,1*6A
$GPGSV,3,2,12,18,54,304,17,15,52,014,38,195,45,177,34,05,35,091,24,1*55
$GPGSV,3,3,12,23,28,320,19,13,27,039,32,194,21,145,29,29,,,19,1*6E
$GPGSV,2,1,06,196,73,051,38,24,69,169,38,199,60,167,44,18,54,304,28,8*63
$GPGSV,2,2,06,195,45,177,34,194,21,145,26,8*6A
$GLGSV,1,1,04,84,39,202,18,80,34,122,36,79,25,060,37,69,23,042,38,1*70
$GAGSV,2,1,06,13,65,286,20,08,58,355,19,15,47,171,29,07,37,273,26,7*7D
$GAGSV,2,2,06,03,22,047,27,34,01,153,,7*71
$GAGSV,2,1,05,13,65,286,34,08,58,355,22,15,47,171,40,07,37,273,21,1*7D
$GAGSV,2,2,05,03,22,047,36,1*45
$GBGSV,3,1,10,38,74,038,40,39,72,233,33,06,61,219,37,20,48,027,17,1*7D
$GBGSV,3,2,10,09,44,216,29,46,40,146,30,29,38,233,38,37,33,072,40,1*7B
$GBGSV,3,3,10,30,13,180,21,36,11,189,,1*79
$GBGSV,2,1,07,38,74,038,45,39,72,233,35,20,48,027,37,46,40,146,37,4*70
$GBGSV,2,2,07,29,38,233,36,37,33,072,44,30,13,180,20,4*48
$GNGGA,102443.000,2500.7921040,N,12132.4743513,E,2,39,0.71,16.674,M,15.25,M,3,3335*47
$GNRMC,102443.000,A,2500.7921040,N,12132.4743513,E,0.14,262.55,260623,,,D,V*01
$GPHDT,,T*1B
$GNGGA,102443.200,2500.7920500,N,12132.4743873,E,2,39,0.71,16.706,M,15.25,M,3,3335*4A
$GNRMC,102443.200,A,2500.7920500,N,12132.4743873,E,0.01,262.55,260623,,,D,V*0C
$GPHDT,,T*1B
$GNGGA,102443.400,2500.7920680,N,12132.4743813,E,2,39,0.71,16.685,M,15.25,M,3,3335*4B
$GNRMC,102443.400,A,2500.7920680,N,12132.4743813,E,0.08,262.55,260623,,,D,V*0E
$GPHDT,,T*1B
$GNGGA,102443.600,2500.7920680,N,12132.4743813,E,2,38,0.73,16.641,M,15.25,M,3,3335*42
$GNRMC,102443.600,A,2500.7920680,N,12132.4743813,E,0.23,262.55,260623,,,D,V*05
$GPHDT,,T*1B
$GNGGA,102443.800,2500.7920800,N,12132.4743813,E,2,38,0.73,16.549,M,15.25,M,3,3335*41
$GNRMC,102443.800,A,2500.7920800,N,12132.4743813,E,0.34,262.55,260623,,,D,V*0B
$GPHDT,,T*1B
$GNGSA,A,3,196,24,199,18,15,195,13,,,,,,1.09,0.73,0.81,1*3F
$GNGSA,A,3,84,80,79,69,,,,,,,,,1.09,0.73,0.81,2*02
$GNGSA,A,3,13,08,15,03,,,,,,,,,1.09,0.73,0.81,3*0B
$GNGSA,A,3,38,39,06,20,09,46,29,37,,,,,1.09,0.73,0.81,4*00
$GPGSV,3,1,12,196,73,051,30,24,69,169,41,199,60,167,21,50,60,167,26,1*69
$GPGSV,3,2,12,18,54,304,17,15,52,014,38,195,45,177,34,05,35,091,27,1*56
$GPGSV,3,3,12,23,28,320,19,13,27,039,29,194,21,145,29,29,,,20,1*6E
$GPGSV,2,1,06,196,73,051,38,24,69,169,38,199,60,167,44,18,54,304,28,8*63
$GPGSV,2,2,06,195,45,177,34,194,21,145,27,8*6B
$GLGSV,1,1,04,84,39,202,18,80,34,122,36,79,25,060,37,69,23,042,37,1*7F
$GAGSV,2,1,06,13,65,286,23,08,58,355,19,15,47,171,29,07,37,273,26,7*7E
$GAGSV,2,2,06,03,22,047,26,34,01,153,,7*70
$GAGSV,2,1,05,13,65,286,33,08,58,355,21,15,47,171,40,07,37,273,21,1*79
$GAGSV,2,2,05,03,22,047,35,1*46
$GBGSV,3,1,09,38,74,038,40,39,72,233,33,06,61,219,37,20,48,027,19,1*7B
$GBGSV,3,2,09,09,44,216,31,46,40,146,31,29,38,233,38,37,33,072,39,1*75
$GBGSV,3,3,09,30,13,180,21,1*44
$GBGSV,2,1,07,38,74,038,45,39,72,233,35,20,48,027,37,46,40,146,36,4*71
$GBGSV,2,2,07,29,38,233,36,37,33,072,43,30,13,180,18,4*44
$GNGGA,102444.000,2500.7920980,N,12132.4743813,E,2,38,0.73,16.593,M,15.25,M,4,3335*47
$GNRMC,102444.000,A,2500.7920980,N,12132.4743813,E,0.18,262.55,260623,,,D,V*03
$GPHDT,,T*1B
$GNGGA,102444.200,2500.7921340,N,12132.4743633,E,2,37,0.73,16.620,M,15.25,M,4,3335*4A
$GNRMC,102444.200,A,2500.7921340,N,12132.4743633,E,0.18,262.55,260623,,,D,V*0A
$GPHDT,,T*1B
$GNGGA,102444.400,2500.7921700,N,12132.4743453,E,2,38,0.71,16.650,M,15.25,M,1,3335*47
$GNRMC,102444.400,A,2500.7921700,N,12132.4743453,E,0.17,262.55,260623,,,D,V*07
$GPHDT,,T*1B
$GNGGA,102444.600,2500.7921880,N,12132.4743393,E,2,38,0.71,16.678,M,15.25,M,1,3335*43
$GNRMC,102444.600,A,2500.7921880,N,12132.4743393,E,0.17,262.55,260623,,,D,V*09
$GPHDT,,T*1B
$GNGGA,102444.800,2500.7922000,N,12132.4743393,E,2,38,0.71,16.704,M,15.25,M,0,3335*45
$GNRMC,102444.800,A,2500.7922000,N,12132.4743393,E,0.16,262.55,260623,,,D,V*05
$GPHDT,,T*1B
$GNGSA,A,3,196,24,199,18,15,195,05,13,,,,,1.08,0.71,0.81,1*39
$GNGSA,A,3,84,80,79,69,,,,,,,,,1.08,0.71,0.81,2*01
$GNGSA,A,3,13,08,15,03,,,,,,,,,1.08,0.71,0.81,3*08
$GNGSA,A,3,38,39,06,20,09,46,29,37,,,,,1.08,0.71,0.81,4*03
$GPGSV,3,1,12,196,73,051,30,24,69,169,41,199,60,167,22,50,60,167,26,1*6A
$GPGSV,3,2,12,18,54,304,17,15,52,014,38,195,45,177,33,05,35,091,28,1*5E
$GPGSV,3,3,12,23,28,320,17,13,27,039,32,194,21,145,29,29,,,20,1*6A
$GPGSV,2,1,06,196,73,051,37,24,69,169,38,199,60,167,44,18,54,304,28,8*6C
$GPGSV,2,2,06,195,45,177,33,194,21,145,27,8*6C
$GLGSV,1,1,04,84,39,202,15,80,34,122,36,79,25,060,38,69,23,042,36,1*7C
$GAGSV,2,1,06,13,65,286,23,08,58,355,19,15,47,171,29,07,37,273,26,7*7E
$GAGSV,2,2,06,03,22,047,26,34,01,153,,7*70
$GAGSV,2,1,05,13,65,286,33,08,58,355,22,15,47,171,40,07,37,273,21,1*7A
$GAGSV,2,2,05,03,22,047,34,1*47
$GBGSV,3,1,09,38,74,038,39,39,72,233,33,06,61,219,37,20,48,027,19,1*75
$GBGSV,3,2,09,09,44,216,31,46,40,146,32,29,38,233,38,37,33,072,38,1*77
$GBGSV,3,3,09,30,13,180,20,1*45
$GBGSV,2,1,07,38,74,038,45,39,72,233,35,20,48,027,37,46,40,146,35,4*72
$GBGSV,2,2,07,29,38,233,36,37,33,072,42,30,13,180,18,4*45
$GNGGA,102445.000,2500.7922060,N,12132.4743333,E,2,38,0.71,16.743,M,15.25,M,1,3335*42
$GNRMC,102445.000,A,2500.7922060,N,12132.4743333,E,0.14,262.55,260623,,,D,V*02
$GPHDT,,T*1B
$GNGGA,102445.200,2500.7922420,N,12132.4743033,E,2,38,0.71,16.772,M,15.25,M,1,3335*41
$GNRMC,102445.200,A,2500.7922420,N,12132.4743033,E,0.13,262.55,260623,,,D,V*04
$GPHDT,,T*1B
$GNGGA,102445.400,2500.7922660,N,12132.4742793,E,2,38,0.71,16.800,M,15.25,M,1,3335*47
$GNRMC,102445.400,A,2500.7922660,N,12132.4742793,E,0.12,262.55,260623,,,D,V*09
$GPHDT,,T*1B
$GNGGA,102445.600,2500.7922900,N,12132.4742613,E,2,38,0.71,16.831,M,15.25,M,1,3335*47
$GNRMC,102445.600,A,2500.7922900,N,12132.4742613,E,0.11,262.55,260623,,,D,V*08
$GPHDT,,T*1B
$GNGGA,102445.800,2500.7923080,N,12132.4742553,E,2,38,0.71,16.869,M,15.25,M,1,3335*43
$GNRMC,102445.800,A,2500.7923080,N,12132.4742553,E,0.10,262.55,260623,,,D,V*00
$GPHDT,,T*1B
$GNGSA,A,3,196,24,199,18,15,195,05,13,,,,,1.08,0.71,0.81,1*39
$GNGSA,A,3,84,80,79,69,,,,,,,,,1.08,0.71,0.81,2*01
$GNGSA,A,3,13,08,15,03,,,,,,,,,1.08,0.71,0.81,3*08
$GNGSA,A,3,38,39,06,20,09,46,29,37,,,,,1.08,0.71,0.81,4*03
$GPGSV,3,1,12,196,73,051,30,24,69,169,41,50,60,167,25,199,60,167,23,1*68
$GPGSV,3,2,12,18,54,304,17,15,52,014,38,195,45,177,33,05,35,091,29,1*5F
$GPGSV,3,3,12,23,28,320,17,13,27,039,30,194,21,145,29,29,,,19,1*62
$GPGSV,2,1,06,196,73,051,37,24,69,169,37,199,60,167,44,18,54,304,28,8*63
$GPGSV,2,2,06,195,45,177,34,194,21,145,27,8*6B
$GLGSV,1,1,04,84,39,202,15,80,34,122,37,79,25,060,36,69,23,042,37,1*72
$GAGSV,2,1,06,13,65,286,22,08,58,355,19,15,47,171,30,07,37,273,27,7*76
$GAGSV,2,2,06,03,22,047,29,34,01,153,,7*7F
$GAGSV,2,1,05,13,65,286,33,08,58,355,21,15,47,171,40,07,37,273,21,1*79
$GAGSV,2,2,05,03,22,047,35,1*46
$GBGSV,3,1,10,38,74,038,39,39,72,233,33,06,61,219,37,20,48,027,18,1*7C
$GBGSV,3,2,10,09,44,216,31,46,40,146,31,29,38,233,38,37,33,072,41,1*72
$GBGSV,3,3,10,30,13,180,20,16,,,20,1*48
$GBGSV,2,1,07,38,74,038,45,39,72,233,34,20,48,027,37,46,40,146,35,4*73
$GBGSV,2,2,07,29,38,233,36,37,33,072,42,30,13,180,17,4*4A
$GNGGA,102446.000,2500.7923380,N,12132.4742313,E,2,38,0.71,16.907,M,15.25,M,2,3335*43
$GNRMC,102446.000,A,2500.7923380,N,12132.4742313,E,0.10,262.55,260623,,,D,V*0A
$GPHDT,,T*1B
$GNGGA,102446.200,2500.7923620,N,12132.4742073,E,2,38,0.71,16.950,M,15.25,M,2,3335*49
$GNRMC,102446.200,A,2500.7923620,N,12132.4742073,E,0.10,262.55,260623,,,D,V*02
$GPHDT,,T*1B
$GNGGA,102446.400,2500.7923860,N,12132.4741833,E,2,38,0.71,16.983,M,15.25,M,2,3335*44
$GNRMC,102446.400,A,2500.7923860,N,12132.4741833,E,0.09,262.55,260623,,,D,V*09
$GPHDT,,T*1B
$GNGGA,102446.600,2500.7924160,N,12132.4741593,E,2,38,0.71,17.025,M,15.25,M,2,3335*4B
$GNRMC,102446.600,A,2500.7924160,N,12132.4741593,E,0.09,262.55,260623,,,D,V*02
$GPHDT,,T*1B
$GNGGA,102446.800,2500.7924460,N,12132.4741413,E,2,38,0.71,17.078,M,15.25,M,2,3335*41
$GNRMC,102446.800,A,2500.7924460,N,12132.4741413,E,0.08,262.55,260623,,,D,V*01
$GPHDT,,T*1B
$GNGSA,A,3,196,24,199,18,15,195,05,13,,,,,1.08,0.71,0.81,1*39
$GNGSA,A,3,84,80,79,69,,,,,,,,,1.08,0.71,0.81,2*01
$GNGSA,A,3,13,08,15,03,,,,,,,,,1.08,0.71,0.81,3*08
$GNGSA,A,3,38,39,06,20,09,46,29,37,,,,,1.08,0.71,0.81,4*03
$GPGSV,3,1,12,196,73,051,29,24,69,169,41,50,60,167,27,199,60,167,24,1*65
$GPGSV,3,2,12,18,54,304,18,15,52,014,39,195,45,177,33,05,35,091,24,1*5C
$GPGSV,3,3,12,23,28,320,17,13,27,039,32,194,21,145,28,29,,,20,1*6B
$GPGSV,2,1,06,196,73,051,38,24,69,169,37,199,60,167,44,18,54,304,28,8*6C
$GPGSV,2,2,06,195,45,177,33,194,21,145,26,8*6D
$GLGSV,1,1,04,84,39,202,16,80,34,122,37,79,25,060,34,69,23,042,36,1*72
$GAGSV,2,1,06,13,65,286,24,08,58,355,22,15,47,171,29,07,37,273,26,7*71
$GAGSV,2,2,06,03,22,047,27,34,01,153,,7*71
$GAGSV,2,1,05,13,65,286,32,08,58,355,19,15,47,171,40,07,37,273,21,1*73
$GAGSV,2,2,05,03,22,047,34,1*47
$GBGSV,3,1,10,38,74,038,39,39,72,233,33,06,61,219,37,20,48,027,20,1*77
$GBGSV,3,2,10,09,44,216,31,46,40,146,33,29,38,233,38,37,33,072,40,1*71
$GBGSV,3,3,10,30,13,180,20,16,,,20,1*48
$GBGSV,2,1,07,38,74,038,45,39,72,233,36,20,48,027,34,46,40,146,37,4*70
$GBGSV,2,2,07,29,38,233,35,37,33,072,42,30,13,180,16,4*48
$GNGGA,102447.000,2500.7924820,N,12132.4741113,E,2,38,0.71,17.116,M,15.25,M,3,3335*4D
$GNRMC,102447.000,A,2500.7924820,N,12132.4741113,E,0.08,262.55,260623,,,D,V*05
$GPHDT,,T*1B
$GNGGA,102447.200,2500.7925000,N,12132.4740933,E,2,39,0.67,17.162,M,15.25,M,3,3335*4A
$GNRMC,102447.200,A,2500.7925000,N,12132.4740933,E,0.07,262.55,260623,,,D,V*08
$GPHDT,,T*1B
$GNGGA,102447.400,2500.7925240,N,12132.4740813,E,2,39,0.67,17.207,M,15.25,M,3,3335*49
$GNRMC,102447.400,A,2500.7925240,N,12132.4740813,E,0.07,262.55,260623,,,D,V*0B
$GPHDT,,T*1B
$GNGGA,102447.600,2500.7925540,N,12132.4740633,E,2,39,0.67,17.253,M,15.25,M,3,3335*41
$GNRMC,102447.600,A,2500.7925540,N,12132.4740633,E,0.07,262.55,260623,,,D,V*02
$GPHDT,,T*1B
$GNGGA,102447.800,2500.7925840,N,12132.4740513,E,2,40,0.65,17.284,M,15.25,M,3,3335*45
$GNRMC,102447.800,A,2500.7925840,N,12132.4740513,E,0.07,262.55,260623,,,D,V*00
$GPHDT,,T*1B
$GNGSA,A,3,196,24,199,18,15,195,05,13,,,,,1.02,0.65,0.79,1*31
$GNGSA,A,3,84,80,79,69,,,,,,,,,1.02,0.65,0.79,2*09
$GNGSA,A,3,13,08,15,07,03,,,,,,,,1.02,0.65,0.79,3*07
$GNGSA,A,3,38,39,06,20,09,46,29,37,,,,,1.02,0.65,0.79,4*0B
$GPGSV,3,1,12,196,73,051,30,24,69,169,41,199,60,167,23,50,60,167,27,1*6A
$GPGSV,3,2,12,18,54,304,19,15,52,014,39,195,45,177,34,05,35,091,23,1*5D
$GPGSV,3,3,12,23,28,320,,13,27,039,31,194,21,145,29,29,,,21,1*6E
$GPGSV,2,1,06,196,73,051,39,24,69,169,37,199,60,167,44,18,54,304,27,8*62
$GPGSV,2,2,06,195,45,177,33,194,21,145,27,8*6C
$GLGSV,1,1,04,84,39,202,16,80,34,122,38,79,25,060,33,69,23,042,36,1*7A
$GAGSV,2,1,05,13,65,286,24,08,58,355,22,15,47,171,30,07,37,273,25,7*79
$GAGSV,2,2,05,03,22,047,26,7*42
$GAGSV,2,1,05,13,65,286,31,08,58,355,19,15,47,171,40,07,37,273,20,1*71
$GAGSV,2,2,05,03,22,047,34,1*47
$GBGSV,3,1,10,38,74,038,39,39,72,233,33,06,61,219,37,20,48,027,22,1*75
$GBGSV,3,2,10,09,44,216,32,46,40,146,33,29,38,233,38,37,33,072,40,1*72
$GBGSV,3,3,10,30,13,180,21,16,,,19,1*43
$GBGSV,2,1,07,38,74,038,45,39,72,233,36,20,48,027,34,46,40,146,37,4*70
$GBGSV,2,2,07,29,38,233,35,37,33,072,42,30,13,180,16,4*48
$GNGGA,102448.000,2500.7926200,N,12132.4740213,E,2,40,0.65,17.318,M,15.25,M,4,3335*4B
$GNRMC,102448.000,A,2500.7926200,N,12132.4740213,E,0.05,262.55,260623,,,D,V*0F
$GPHDT,,T*1B
$GNGGA,102448.200,2500.7926320,N,12132.4740153,E,2,39,0.67,17.351,M,15.25,M,4,3335*4C
$GNRMC,102448.200,A,2500.7926320,N,12132.4740153,E,0.05,262.55,260623,,,D,V*09
$GPHDT,,T*1B
$GNGGA,102448.400,2500.7926620,N,12132.4739973,E,2,39,0.67,17.384,M,15.25,M,4,3335*43
$GNRMC,102448.400,A,2500.7926620,N,12132.4739973,E,0.05,262.55,260623,,,D,V*0E
$GPHDT,,T*1B
$GNGGA,102448.600,2500.7926920,N,12132.4739793,E,2,40,0.65,17.417,M,15.25,M,4,3335*4F
$GNRMC,102448.600,A,2500.7926920,N,12132.4739793,E,0.04,262.55,260623,,,D,V*02
$GPHDT,,T*1B
$GNGGA,102448.800,2500.7927280,N,12132.4739673,E,2,42,0.62,17.450,M,15.25,M,4,3335*48
$GNRMC,102448.800,A,2500.7927280,N,12132.4739673,E,0.05,262.55,260623,,,D,V*02
$GPHDT,,T*1B
$GNGSA,A,3,196,24,199,18,15,195,05,13,194,,,,0.99,0.62,0.77,1*07
$GNGSA,A,3,84,80,79,69,,,,,,,,,0.99,0.62,0.77,2*03
$GNGSA,A,3,13,08,15,07,03,,,,,,,,0.99,0.62,0.77,3*0D
$GNGSA,A,3,38,39,06,20,09,46,29,37,,,,,0.99,0.62,0.77,4*01
$GPGSV,3,1,12,196,73,051,29,24,69,169,41,199,60,167,22,50,60,167,27,1*63
$GPGSV,3,2,12,18,54,304,19,15,52,014,39,195,45,177,34,05,35,091,32,1*5D
$GPGSV,3,3,12,23,28,320,,13,27,039,26,194,21,145,29,29,,,20,1*69
$GPGSV,2,1,06,196,73,051,39,24,69,169,37,199,60,167,44,18,54,304,28,8*6D
$GPGSV,2,2,06,195,45,177,34,194,21,145,27,8*6B
$GLGSV,1,1,04,84,39,202,17,80,34,122,38,79,25,060,36,69,23,042,36,1*7E
$GAGSV,2,1,05,13,65,286,26,08,58,355,20,15,47,171,29,07,37,273,27,7*73
$GAGSV,2,2,05,03,22,047,28,7*4C
$GAGSV,2,1,05,13,65,286,32,08,58,355,22,15,47,171,39,07,37,273,20,1*74
$GAGSV,2,2,05,03,22,047,35,1*46
$GBGSV,3,1,10,38,74,038,39,39,72,233,33,06,61,219,37,20,48,027,19,1*7D
$GBGSV,3,2,10,09,44,216,32,46,40,146,32,29,38,233,37,37,33,072,39,1*72
$GBGSV,3,3,10,30,13,180,21,16,,,21,1*48
$GBGSV,2,1,07,38,74,038,45,39,72,233,36,20,48,027,36,46,40,146,37,4*72
$GBGSV,2,2,07,29,38,233,35,37,33,072,42,30,13,180,15,4*4B
$GNGGA,102449.000,2500.7927580,N,12132.4739433,E,2,42,0.62,17.482,M,15.25,M,5,3335*4E
$GNRMC,102449.000,A,2500.7927580,N,12132.4739433,E,0.04,262.55,260623,,,D,V*0B
$GPHDT,,T*1B
$GNGGA,102449.200,2500.7927940,N,12132.4739133,E,2,41,0.62,17.513,M,15.25,M,5,3335*43
$GNRMC,102449.200,A,2500.7927940,N,12132.4739133,E,0.02,262.55,260623,,,D,V*0A
$GPHDT,,T*1B
$GNGGA,102449.400,2500.7928360,N,12132.4738833,E,2,41,0.62,17.545,M,15.25,M,5,3335*49
$GNRMC,102449.400,A,2500.7928360,N,12132.4738833,E,0.03,262.55,260623,,,D,V*02
$GPHDT,,T*1B
$GNGGA,102449.600,2500.7928540,N,12132.4738653,E,2,41,0.62,17.574,M,15.25,M,5,3335*45
$GNRMC,102449.600,A,2500.7928540,N,12132.4738653,E,0.03,262.55,260623,,,D,V*0C
$GPHDT,,T*1B
$GNGGA,102449.800,2500.7928840,N,12132.4738473,E,2,41,0.62,17.604,M,15.25,M,5,3335*42
$GNRMC,102449.800,A,2500.7928840,N,12132.4738473,E,0.04,262.55,260623,,,D,V*08
$GPHDT,,T*1B
$GNGSA,A,3,196,24,199,18,15,195,05,13,194,,,,0.99,0.62,0.77,1*07
$GNGSA,A,3,84,80,79,69,,,,,,,,,0.99,0.62,0.77,2*03
$GNGSA,A,3,13,08,15,07,03,,,,,,,,0.99,0.62,0.77,3*0D
$GNGSA,A,3,38,39,06,20,09,46,29,37,,,,,0.99,0.62,0.77,4*01
$GPGSV,3,1,12,196,73,051,28,24,69,169,41,199,60,167,23,50,60,167,27,1*63
$GPGSV,3,2,12,18,54,304,23,15,52,014,39,195,45,177,34,05,35,091,33,1*55
$GPGSV,3,3,12,23,28,320,,13,27,039,26,194,21,145,29,29,,,21,1*68
$GPGSV,2,1,06,196,73,051,39,24,69,169,36,199,60,167,44,18,54,304,26,8*62
$GPGSV,2,2,06,195,45,177,33,194,21,145,26,8*6D
$GLGSV,1,1,04,84,39,202,17,80,34,122,38,79,25,060,37,69,23,042,37,1*7E
$GAGSV,2,1,05,13,65,286,26,08,58,355,20,15,47,171,29,07,37,273,28,7*7C
$GAGSV,2,2,05,03,22,047,31,7*44
$GAGSV,2,1,05,13,65,286,32,08,58,355,23,15,47,171,39,07,37,273,19,1*7F
$GAGSV,2,2,05,03,22,047,36,1*45
$GBGSV,3,1,10,38,74,038,39,39,72,233,34,06,61,219,37,20,48,027,18,1*7B
$GBGSV,3,2,10,09,44,216,32,46,40,146,33,29,38,233,37,37,33,072,41,1*7C
$GBGSV,3,3,10,30,13,180,20,16,,,22,1*4A
$GBGSV,2,1,07,38,74,038,45,39,72,233,36,20,48,027,36,46,40,146,36,4*73
$GBGSV,2,2,07,29,38,233,35,37,33,072,42,30,13,180,12,4*4C
$GNGGA,102450.000,2500.7929260,N,12132.4738233,E,2,42,0.62,17.638,M,15.25,M,6,3335*46
$GNRMC,102450.000,A,2500.7929260,N,12132.4738233,E,0.05,262.55,260623,,,D,V*02
$GPHDT,,T*1B
$GNGGA,102450.200,2500.7929440,N,12132.4737993,E,2,42,0.62,17.668,M,15.25,M,6,3335*4B
$GNRMC,102450.200,A,2500.7929440,N,12132.4737993,E,0.03,262.55,260623,,,D,V*0C
$GPHDT,,T*1B
$GNGGA,102450.400,2500.7929620,N,12132.4737813,E,2,42,0.62,17.693,M,15.25,M,6,3335*44
$GNRMC,102450.400,A,2500.7929620,N,12132.4737813,E,0.03,262.55,260623,,,D,V*07
