$FW : RTK35X,V1.1X0314AS,Lib20210517,1*54
$Tool : LOCOSYS , GNSS Firebird , v1.0.0.19*39
$---------------------------------------------------*2D
$GNGGA,101913.600,2500.7912000,N,12132.4727900,E,2,39,0.66,15.06,M,15.25,M,5,3335*72
$GNRMC,101913.600,A,2500.7912000,N,12132.4727900,E,0.03,65.77,260623,,,D,V*37
$GPHDT,,T*1B
$GNGGA,101913.800,2500.7912000,N,12132.4728000,E,2,39,0.66,15.06,M,15.25,M,5,3335*7A
$GNRMC,101913.800,A,2500.7912000,N,12132.4728000,E,0.05,65.77,260623,,,D,V*39
$GPHDT,,T*1B
$GNGSA,A,3,196,24,15,18,195,05,13,194,,,,,1.01,0.66,0.76,1*33
$GNGSA,A,3,84,80,79,69,,,,,,,,,1.01,0.66,0.76,2*06
$GNGSA,A,3,15,03,,,,,,,,,,,1.01,0.66,0.76,3*05
$GNGSA,A,3,38,39,16,06,13,20,09,29,46,37,30,32,1.01,0.66,0.76,4*03
$GPGSV,3,1,12,199,73,011,,196,73,051,30,24,66,171,32,15,54,011,38,1*63
$GPGSV,3,2,12,18,52,307,17,195,46,177,35,05,36,088,47,13,29,038,38,1*58
$GPGSV,3,3,12,194,21,145,24,29,17,219,24,11,04,149,,12,03,164,,1*54
$GPGSV,2,1,05,196,73,051,41,24,66,171,38,18,52,307,19,195,46,177,33,8*66
$GPGSV,2,2,05,194,21,145,30,8*64
$GLGSV,2,1,06,85,45,297,15,84,42,203,16,80,32,124,41,79,26,063,35,1*77
$GLGSV,2,2,06,69,25,040,37,86,09,331,,1*70
$GAGSV,2,1,05,15,50,171,23,03,24,045,38,02,15,111,,26,15,322,17,7*7F
$GAGSV,2,2,05,30,08,160,,7*4A
$GAGSV,1,1,01,03,24,045,42,1*46
$GBGSV,4,1,13,38,73,036,34,39,72,229,32,08,64,005,22,16,62,217,30,1*70
$GBGSV,4,2,13,06,60,217,27,13,56,343,31,20,48,024,40,09,43,215,29,1*7B
$GBGSV,4,3,13,29,39,236,31,46,38,148,33,37,34,075,46,30,15,181,19,1*77
$GBGSV,4,4,13,32,14,075,33,1*42
$GBGSV,2,1,08,38,73,036,45,39,72,229,37,20,48,024,41,29,39,236,22,4*7A
$GBGSV,2,2,08,46,38,148,34,37,34,075,46,30,15,181,19,32,14,075,29,4*71
$GNGGA,101914.000,2500.7912000,N,12132.4728000,E,2,40,0.66,15.06,M,15.25,M,6,3335*78
$GNRMC,101914.000,A,2500.7912000,N,12132.4728000,E,0.04,65.77,260623,,,D,V*37
$GPHDT,,T*1B
$GNGGA,101914.200,2500.7912000,N,12132.4728000,E,2,39,0.66,15.07,M,15.25,M,6,3335*75
$GNRMC,101914.200,A,2500.7912000,N,12132.4728000,E,0.02,65.77,260623,,,D,V*33
$GPHDT,,T*1B
$GNGGA,101914.400,2500.7912000,N,12132.4728000,E,2,39,0.66,15.07,M,15.25,M,6,3335*73
$GNRMC,101914.400,A,2500.7912000,N,12132.4728000,E,0.01,65.77,260623,,,D,V*36
$GPHDT,,T*1B
$GNGGA,101914.600,2500.7912000,N,12132.4728000,E,2,39,0.66,15.07,M,15.25,M,6,3335*71
$GNRMC,101914.600,A,2500.7912000,N,12132.4728000,E,0.02,65.77,260623,,,D,V*37
$GPHDT,,T*1B
$GNGGA,101914.800,2500.7912000,N,12132.4728000,E,2,39,0.66,15.07,M,15.25,M,4,3335*7D
$GNRMC,101914.800,A,2500.7912000,N,12132.4728000,E,0.05,65.77,260623,,,D,V*3E
$GPHDT,,T*1B
$GNGSA,A,3,196,24,15,195,05,13,194,18,,,,,1.01,0.66,0.76,1*33
$GNGSA,A,3,84,80,79,69,,,,,,,,,1.01,0.66,0.76,2*06
$GNGSA,A,3,15,03,,,,,,,,,,,1.01,0.66,0.76,3*05
$GNGSA,A,3,38,39,16,06,13,20,09,29,46,37,30,32,1.01,0.66,0.76,4*03
$GPGSV,3,1,12,199,73,011,,196,73,051,30,24,66,171,32,15,54,011,38,1*63
$GPGSV,3,2,12,18,52,307,16,195,46,177,35,05,36,088,47,13,29,038,38,1*59
$GPGSV,3,3,12,194,21,145,25,29,17,219,24,11,04,149,,12,03,164,,1*55
$GPGSV,2,1,05,196,73,051,41,24,66,171,36,18,52,307,19,195,46,177,33,8*68
$GPGSV,2,2,05,194,21,145,29,8*6C
$GLGSV,2,1,05,85,45,297,16,84,42,203,16,80,32,124,41,79,26,063,35,1*77
$GLGSV,2,2,05,69,25,040,37,1*45
$GAGSV,2,1,05,15,50,171,20,03,24,045,38,02,15,111,,26,15,322,17,7*7C
$GAGSV,2,2,05,30,08,160,,7*4A
$GAGSV,1,1,01,03,24,045,42,1*46
$GBGSV,4,1,14,38,73,036,33,39,72,229,31,08,64,005,22,16,62,217,30,1*73
$GBGSV,4,2,14,06,60,217,28,13,56,343,31,20,48,024,40,09,43,215,29,1*73
$GBGSV,4,3,14,29,39,236,32,46,38,148,32,37,34,075,46,30,15,181,19,1*72
$GBGSV,4,4,14,32,14,075,33,07,07,199,,1*74
$GBGSV,2,1,08,38,73,036,45,39,72,229,37,20,48,024,42,29,39,236,25,4*7E
$GBGSV,2,2,08,46,38,148,33,37,34,075,46,30,15,181,19,32,14,075,29,4*76
$GNGGA,101915.000,2500.7912000,N,12132.4728000,E,2,39,0.66,15.07,M,15.25,M,4,3335*74
$GNRMC,101915.000,A,2500.7912000,N,12132.4728000,E,0.02,65.77,260623,,,D,V*30
$GPHDT,,T*1B
$GNGGA,101915.200,2500.7912000,N,12132.4728000,E,2,40,0.66,15.07,M,15.25,M,1,3335*7D
$GNRMC,101915.200,A,2500.7912000,N,12132.4728000,E,0.08,65.77,260623,,,D,V*38
$GPHDT,,T*1B
$GNGGA,101915.400,2500.7912000,N,12132.4728000,E,2,40,0.66,15.07,M,15.25,M,1,3335*7B
$GNRMC,101915.400,A,2500.7912000,N,12132.4728000,E,0.06,65.77,260623,,,D,V*30
$GPHDT,,T*1B
$GNGGA,101915.600,2500.7912000,N,12132.4728000,E,2,41,0.66,15.07,M,15.25,M,0,3335*79
$GNRMC,101915.600,A,2500.7912000,N,12132.4728000,E,0.07,65.77,260623,,,D,V*33
$GPHDT,,T*1B
$GNGGA,101915.800,2500.7912000,N,12132.4728000,E,2,41,0.66,15.07,M,15.25,M,0,3335*77
$GNRMC,101915.800,A,2500.7912000,N,12132.4728000,E,0.12,65.77,260623,,,D,V*39
$GPHDT,,T*1B
$GNGSA,A,3,196,24,15,18,195,05,13,194,,,,,1.01,0.66,0.76,1*33
$GNGSA,A,3,84,80,79,69,,,,,,,,,1.01,0.66,0.76,2*06
$GNGSA,A,3,15,03,,,,,,,,,,,1.01,0.66,0.76,3*05
$GNGSA,A,3,38,39,08,16,06,13,20,09,29,46,37,30,1.01,0.66,0.76,4*0A
$GNGSA,A,3,32,,,,,,,,,,,,1.01,0.66,0.76,4*04
$GPGSV,3,1,12,199,73,011,,196,73,051,30,24,66,171,32,15,54,011,38,1*63
$GPGSV,3,2,12,18,52,307,16,195,46,177,35,05,36,088,47,13,29,038,36,1*57
$GPGSV,3,3,12,194,21,145,23,29,17,219,24,12,03,164,,11,03,149,,1*54
$GPGSV,2,1,05,196,73,051,40,24,66,171,37,18,52,307,19,195,46,177,34,8*6F
$GPGSV,2,2,05,194,21,145,29,8*6C
$GLGSV,2,1,05,85,45,297,16,84,42,203,15,80,32,124,41,79,26,063,35,1*74
$GLGSV,2,2,05,69,25,040,38,1*4A
$GAGSV,2,1,05,15,50,171,23,03,24,045,39,02,15,111,,26,15,322,17,7*7E
$GAGSV,2,2,05,30,08,160,,7*4A
$GAGSV,1,1,01,03,24,045,42,1*46
$GBGSV,4,1,14,38,73,036,32,39,72,229,32,08,64,005,23,16,62,217,30,1*70
$GBGSV,4,2,14,06,60,217,28,13,56,343,31,20,48,024,40,09,43,215,30,1*7B
$GBGSV,4,3,14,29,39,236,33,46,38,148,32,37,34,075,46,30,15,181,19,1*73
$GBGSV,4,4,14,32,14,075,34,07,07,199,,1*73
$GBGSV,2,1,08,38,73,036,44,39,72,229,37,20,48,024,42,29,39,236,25,4*7F
$GBGSV,2,2,08,46,38,148,34,37,34,075,46,30,15,181,19,32,14,075,29,4*71
$GNGGA,101916.000,2500.7912000,N,12132.4728000,E,2,41,0.66,15.08,M,15.25,M,1,3335*72
$GNRMC,101916.000,A,2500.7912000,N,12132.4728000,E,0.12,65.77,260623,,,D,V*32
$GPHDT,,T*1B
$GNGGA,101916.200,2500.7911900,N,12132.4728100,E,2,41,0.66,15.08,M,15.25,M,1,3335*7B
$GNRMC,101916.200,A,2500.7911900,N,12132.4728100,E,0.09,65.77,260623,,,D,V*31
$GPHDT,,T*1B
$GNGGA,101916.400,2500.7911900,N,12132.4728200,E,2,41,0.66,15.08,M,15.25,M,1,3335*7E
$GNRMC,101916.400,A,2500.7911900,N,12132.4728200,E,0.05,65.77,260623,,,D,V*38
$GPHDT,,T*1B
$GNGGA,101916.600,2500.7911900,N,12132.4728200,E,2,42,0.66,15.08,M,15.25,M,1,3335*7F
$GNRMC,101916.600,A,2500.7911900,N,12132.4728200,E,0.02,65.77,260623,,,D,V*3D
$GPHDT,,T*1B
$GNGGA,101916.800,2500.7911900,N,12132.4728200,E,2,41,0.66,15.08,M,15.25,M,1,3335*72
$GNRMC,101916.800,A,2500.7911900,N,12132.4728200,E,0.05,65.77,260623,,,D,V*34
$GPHDT,,T*1B
$GNGSA,A,3,196,24,15,18,195,05,13,194,,,,,1.01,0.66,0.76,1*33
$GNGSA,A,3,84,80,79,69,,,,,,,,,1.01,0.66,0.76,2*06
$GNGSA,A,3,15,03,,,,,,,,,,,1.01,0.66,0.76,3*05
$GNGSA,A,3,38,39,08,16,06,13,20,09,29,46,37,30,1.01,0.66,0.76,4*0A
$GNGSA,A,3,32,,,,,,,,,,,,1.01,0.66,0.76,4*04
$GPGSV,3,1,12,199,73,011,,196,73,051,32,24,66,171,33,15,54,011,39,1*61
$GPGSV,3,2,12,18,52,307,18,195,46,177,33,05,36,088,47,13,29,038,35,1*5C
$GPGSV,3,3,12,194,21,145,23,29,17,219,24,12,03,163,,11,03,149,,1*53
$GPGSV,2,1,05,196,73,051,39,24,66,171,37,18,52,307,20,195,46,177,35,8*6A
$GPGSV,2,2,05,194,21,145,29,8*6C
$GLGSV,2,1,06,85,45,297,15,84,42,203,14,80,32,124,40,79,26,063,36,1*77
$GLGSV,2,2,06,69,25,040,39,73,06,173,,1*7F
$GAGSV,2,1,06,15,50,171,24,03,24,045,39,02,15,111,,26,15,322,18,7*75
$GAGSV,2,2,06,30,08,160,,25,05,065,,7*78
$GAGSV,1,1,02,15,50,171,24,03,24,045,42,1*75
$GBGSV,4,1,13,38,73,036,32,39,72,229,31,08,64,005,24,16,62,217,32,1*71
$GBGSV,4,2,13,06,60,217,24,13,56,343,31,20,48,024,40,09,43,215,30,1*70
$GBGSV,4,3,13,29,39,236,32,46,38,148,32,37,34,075,46,30,15,181,21,1*7E
$GBGSV,4,4,13,32,14,075,34,1*45
$GBGSV,2,1,08,38,73,036,44,39,72,229,37,20,48,024,42,29,39,236,24,4*7E
$GBGSV,2,2,08,46,38,148,33,37,34,075,46,30,15,181,20,32,14,075,29,4*7C
$GNGGA,101917.000,2500.7911900,N,12132.4728200,E,2,42,0.66,15.08,M,15.25,M,1,3335*78
$GNRMC,101917.000,A,2500.7911900,N,12132.4728200,E,0.03,65.77,260623,,,D,V*3B
$GPHDT,,T*1B
$GNGGA,101917.200,2500.7911900,N,12132.4728200,E,2,42,0.66,15.08,M,15.25,M,1,3335*7A
$GNRMC,101917.200,A,2500.7911900,N,12132.4728200,E,0.03,65.77,260623,,,D,V*39
$GPHDT,,T*1B
$GNGGA,101917.400,2500.7911800,N,12132.4728200,E,2,40,0.66,15.08,M,15.25,M,1,3335*7F
$GNRMC,101917.400,A,2500.7911800,N,12132.4728200,E,0.03,65.77,260623,,,D,V*3E
$GPHDT,,T*1B
$GNGGA,101917.600,2500.7911800,N,12132.4728200,E,2,41,0.66,15.08,M,15.25,M,1,3335*7C
$GNRMC,101917.600,A,2500.7911800,N,12132.4728200,E,0.03,65.77,260623,,,D,V*3C
$GPHDT,,T*1B
$GNGGA,101917.800,2500.7911800,N,12132.4728200,E,2,41,0.66,15.08,M,15.25,M,1,3335*72
$GNRMC,101917.800,A,2500.7911800,N,12132.4728200,E,0.05,65.77,260623,,,D,V*34
$GPHDT,,T*1B
$GNGSA,A,3,196,24,15,18,195,05,13,194,,,,,1.01,0.66,0.76,1*33
$GNGSA,A,3,80,79,69,,,,,,,,,,1.01,0.66,0.76,2*0A
$GNGSA,A,3,15,03,,,,,,,,,,,1.01,0.66,0.76,3*05
$GNGSA,A,3,38,39,08,16,06,13,20,09,29,46,37,30,1.01,0.66,0.76,4*0A
$GNGSA,A,3,32,,,,,,,,,,,,1.01,0.66,0.76,4*04
$GPGSV,3,1,12,199,73,011,,196,73,051,33,24,66,171,36,15,54,011,39,1*65
$GPGSV,3,2,12,18,52,307,20,195,46,177,34,05,36,088,47,13,29,038,36,1*53
$GPGSV,3,3,12,194,21,145,25,29,17,219,24,12,03,163,,11,03,149,,1*55
$GPGSV,2,1,05,196,73,051,39,24,66,171,37,18,52,307,19,195,46,177,37,8*62
$GPGSV,2,2,05,194,21,145,29,8*6C
$GLGSV,2,1,05,85,45,297,13,84,42,203,15,80,32,124,40,79,26,063,34,1*71
$GLGSV,2,2,05,69,25,040,39,1*4B
$GAGSV,2,1,06,15,50,171,27,03,24,045,39,02,15,111,,26,15,322,18,7*76
$GAGSV,2,2,06,30,08,160,,25,05,065,,7*78
$GAGSV,1,1,02,15,50,171,30,03,24,045,42,1*70
$GBGSV,4,1,13,38,73,036,31,39,72,229,30,08,64,005,25,16,62,217,30,1*70
$GBGSV,4,2,13,06,60,217,28,13,56,343,31,20,48,024,40,09,43,215,30,1*7C
$GBGSV,4,3,13,29,39,236,30,46,38,148,32,37,34,075,46,30,15,181,21,1*7C
$GBGSV,4,4,13,32,14,075,34,1*45
$GBGSV,2,1,08,38,73,036,44,39,72,229,36,20,48,024,42,29,39,236,21,4*7A
$GBGSV,2,2,08,46,38,148,30,37,34,075,46,30,15,181,21,32,14,075,28,4*7F
$GNGGA,101918.000,2500.7911800,N,12132.4728200,E,2,41,0.66,15.08,M,15.25,M,2,3335*76
$GNRMC,101918.000,A,2500.7911800,N,12132.4728200,E,0.02,65.77,260623,,,D,V*34
$GPHDT,,T*1B
$GNGGA,101918.200,2500.7911800,N,12132.4728200,E,2,41,0.66,15.08,M,15.25,M,2,3335*74
$GNRMC,101918.200,A,2500.7911800,N,12132.4728200,E,0.06,65.77,260623,,,D,V*32
$GPHDT,,T*1B
$GNGGA,101918.400,2500.7911800,N,12132.4728200,E,2,41,0.66,15.08,M,15.25,M,2,3335*72
$GNRMC,101918.400,A,2500.7911800,N,12132.4728200,E,0.06,65.77,260623,,,D,V*34
$GPHDT,,T*1B
$GNGGA,101918.600,2500.7911800,N,12132.4728200,E,2,41,0.66,15.08,M,15.25,M,2,3335*70
$GNRMC,101918.600,A,2500.7911800,N,12132.4728200,E,0.03,65.77,260623,,,D,V*33
$GPHDT,,T*1B
$GNGGA,101918.800,2500.7911800,N,12132.4728200,E,2,41,0.66,15.08,M,15.25,M,0,3335*7C
$GNRMC,101918.800,A,2500.7911800,N,12132.4728200,E,0.01,65.77,260623,,,D,V*3F
$GPHDT,,T*1B
$GNGSA,A,3,196,24,15,18,195,05,13,194,,,,,1.01,0.66,0.76,1*33
$GNGSA,A,3,80,79,69,,,,,,,,,,1.01,0.66,0.76,2*0A
$GNGSA,A,3,15,03,,,,,,,,,,,1.01,0.66,0.76,3*05
$GNGSA,A,3,38,39,08,16,06,13,20,09,29,46,37,30,1.01,0.66,0.76,4*0A
$GNGSA,A,3,32,,,,,,,,,,,,1.01,0.66,0.76,4*04
$GPGSV,3,1,12,199,73,011,,196,73,051,33,24,67,171,36,15,54,011,39,1*64
$GPGSV,3,2,12,18,52,307,20,195,46,177,33,05,36,088,46,13,29,038,35,1*56
$GPGSV,3,3,12,194,21,145,22,29,17,219,23,12,03,163,,11,03,149,,1*55
$GPGSV,2,1,05,196,73,051,39,24,67,171,37,18,52,307,20,195,46,177,37,8*69
$GPGSV,2,2,05,194,21,145,29,8*6C
$GLGSV,2,1,05,85,45,297,12,84,42,203,13,80,32,124,40,79,26,063,35,1*77
$GLGSV,2,2,05,69,25,040,39,1*4B
$GAGSV,2,1,06,15,50,171,27,03,24,045,39,02,15,111,,26,15,322,16,7*78
$GAGSV,2,2,06,30,08,160,,25,05,065,,7*78
$GAGSV,1,1,02,15,50,171,30,03,24,045,42,1*70
$GBGSV,4,1,13,38,73,036,33,39,72,229,28,08,64,005,25,16,62,217,31,1*7A
$GBGSV,4,2,13,06,60,217,30,13,56,343,31,20,48,024,40,09,43,215,31,1*74
$GBGSV,4,3,13,29,39,236,29,46,38,148,32,37,34,075,45,30,15,181,21,1*77
$GBGSV,4,4,13,32,14,075,34,1*45
$GBGSV,2,1,08,38,73,036,44,39,72,229,36,20,48,024,42,29,39,236,19,4*71
$GBGSV,2,2,08,46,38,148,30,37,34,075,46,30,15,181,20,32,14,075,28,4*7E
$GNGGA,101919.000,2500.7911800,N,12132.4728200,E,2,41,0.66,15.08,M,15.25,M,1,3335*74
$GNRMC,101919.000,A,2500.7911800,N,12132.4728200,E,0.02,65.77,260623,,,D,V*35
$GPHDT,,T*1B
$GNGGA,101919.200,2500.7911800,N,12132.4728200,E,2,41,0.66,15.08,M,15.25,M,1,3335*76
$GNRMC,101919.200,A,2500.7911800,N,12132.4728200,E,0.04,65.77,260623,,,D,V*31
$GPHDT,,T*1B
$GNGGA,101919.400,2500.7911800,N,12132.4728200,E,2,41,0.66,15.08,M,15.25,M,1,3335*70
$GNRMC,101919.400,A,2500.7911800,N,12132.4728200,E,0.02,65.77,260623,,,D,V*31
$GPHDT,,T*1B
$GNGGA,101919.600,2500.7911800,N,12132.4728200,E,2,41,0.66,15.08,M,15.25,M,1,3335*72
$GNRMC,101919.600,A,2500.7911800,N,12132.4728200,E,0.02,65.77,260623,,,D,V*33
$GPHDT,,T*1B
$GNGGA,101919.800,2500.7911800,N,12132.4728200,E,2,40,0.66,15.08,M,15.25,M,1,3335*7D
$GNRMC,101919.800,A,2500.7911800,N,12132.4728200,E,0.02,65.77,260623,,,D,V*3D
$GPHDT,,T*1B
$GNGSA,A,3,196,24,15,18,195,05,13,194,,,,,1.01,0.66,0.76,1*33
$GNGSA,A,3,80,79,69,,,,,,,,,,1.01,0.66,0.76,2*0A
$GNGSA,A,3,15,03,,,,,,,,,,,1.01,0.66,0.76,3*05
$GNGSA,A,3,38,39,08,16,06,13,20,09,29,46,37,30,1.01,0.66,0.76,4*0A
$GNGSA,A,3,32,,,,,,,,,,,,1.01,0.66,0.76,4*04
$GPGSV,3,1,12,199,73,011,,196,73,051,33,24,67,171,33,15,54,011,39,1*61
$GPGSV,3,2,12,18,52,307,19,195,46,177,33,05,36,088,46,13,29,038,34,1*5D
$GPGSV,3,3,12,194,21,145,19,29,17,219,25,12,03,163,,11,03,149,,1*5B
$GPGSV,2,1,05,196,73,051,39,24,67,171,37,18,52,307,21,195,46,177,37,8*68
$GPGSV,2,2,05,194,21,145,29,8*6C
$GLGSV,2,1,05,85,45,297,12,84,42,203,13,80,32,124,40,79,26,063,34,1*76
$GLGSV,2,2,05,69,25,040,39,1*4B
$GAGSV,2,1,06,15,50,171,27,03,24,045,39,02,15,111,,26,15,322,16,7*78
$GAGSV,2,2,06,30,08,160,,25,05,065,,7*78
$GAGSV,1,1,01,03,24,045,42,1*46
$GBGSV,4,1,13,38,73,036,33,39,72,229,29,08,64,005,22,16,62,217,31,1*7C
$GBGSV,4,2,13,06,60,217,28,13,56,343,31,20,48,024,40,09,43,215,30,1*7C
$GBGSV,4,3,13,29,39,236,29,46,38,148,30,37,34,075,45,30,15,181,18,1*7F
$GBGSV,4,4,13,32,14,075,34,1*45
$GBGSV,2,1,08,38,73,036,44,39,72,229,36,20,48,024,42,29,39,236,17,4*7F
$GBGSV,2,2,08,46,38,148,32,37,34,075,46,30,15,181,19,32,14,075,28,4*76
$GNGGA,101920.000,2500.7911800,N,12132.4728300,E,2,40,0.66,15.09,M,15.25,M,1,3335*7F
$GNRMC,101920.000,A,2500.7911800,N,12132.4728300,E,0.04,65.77,260623,,,D,V*38
$GPHDT,,T*1B
$GNGGA,101920.200,2500.7911800,N,12132.4728300,E,2,40,0.66,15.09,M,15.25,M,1,3335*7D
$GNRMC,101920.200,A,2500.7911800,N,12132.4728300,E,0.04,65.77,260623,,,D,V*3A
$GPHDT,,T*1B
$GNGGA,101920.400,2500.7911800,N,12132.4728300,E,2,39,0.66,15.09,M,15.25,M,1,3335*75
$GNRMC,101920.400,A,2500.7911800,N,12132.4728300,E,0.03,65.77,260623,,,D,V*3B
$GPHDT,,T*1B
$GNGGA,101920.600,2500.7911800,N,12132.4728300,E,2,39,0.66,15.09,M,15.25,M,1,3335*77
$GNRMC,101920.600,A,2500.7911800,N,12132.4728300,E,0.05,65.77,260623,,,D,V*3F
$GPHDT,,T*1B
$GNGGA,101920.800,2500.7911800,N,12132.4728300,E,2,38,0.66,15.09,M,15.25,M,1,3335*78
$GNRMC,101920.800,A,2500.7911800,N,12132.4728300,E,0.01,65.77,260623,,,D,V*35
$GPHDT,,T*1B
$GNGSA,A,3,196,24,15,195,05,13,18,194,,,,,1.01,0.66,0.76,1*33
$GNGSA,A,3,80,79,69,,,,,,,,,,1.01,0.66,0.76,2*0A
$GNGSA,A,3,15,03,,,,,,,,,,,1.01,0.66,0.76,3*05
$GNGSA,A,3,38,39,08,16,06,13,20,09,29,46,37,30,1.01,0.66,0.76,4*0A
$GNGSA,A,3,32,,,,,,,,,,,,1.01,0.66,0.76,4*04
$GPGSV,3,1,12,199,73,011,,196,73,051,32,24,67,171,34,15,54,011,38,1*66
$GPGSV,3,2,12,18,52,307,18,195,46,177,33,05,36,088,46,13,29,038,34,1*5C
$GPGSV,3,3,12,194,21,145,18,29,17,219,23,12,03,163,,11,03,149,,1*5C
$GPGSV,2,1,05,196,73,051,39,24,67,171,37,18,52,307,22,195,46,177,36,8*6A
$GPGSV,2,2,05,194,21,145,29,8*6C
$GLGSV,2,1,05,85,45,297,13,84,42,203,16,80,32,124,40,79,26,063,34,1*72
$GLGSV,2,2,05,69,25,040,39,1*4B
$GAGSV,2,1,06,15,50,171,26,03,24,045,39,02,15,111,,26,15,322,17,7*78
$GAGSV,2,2,06,30,08,160,,25,05,065,,7*78
$GAGSV,1,1,01,03,24,045,42,1*46
$GBGSV,4,1,13,38,73,036,34,39,72,229,29,08,64,005,21,16,62,217,31,1*78
$GBGSV,4,2,13,06,60,217,29,13,56,343,31,20,48,024,40,09,43,215,29,1*75
$GBGSV,4,3,13,29,39,236,31,46,38,148,30,37,34,075,46,30,15,181,18,1*75
$GBGSV,4,4,13,32,14,075,33,1*42
$GBGSV,2,1,08,38,73,036,44,39,72,229,36,20,48,024,42,29,39,236,17,4*7F
$GBGSV,2,2,08,46,38,148,32,37,34,075,46,30,15,181,19,32,14,075,28,4*76
$GNGGA,101921.000,2500.7911800,N,12132.4728300,E,2,38,0.66,15.09,M,15.25,M,1,3335*71
$GNRMC,101921.000,A,2500.7911800,N,12132.4728300,E,0.01,65.77,260623,,,D,V*3C
$GPHDT,,T*1B
$GNGGA,101921.200,2500.7911800,N,12132.4728300,E,2,38,0.66,15.09,M,15.25,M,1,3335*73
$GNRMC,101921.200,A,2500.7911800,N,12132.4728300,E,0.02,65.77,260623,,,D,V*3D
$GPHDT,,T*1B
$GNGGA,101921.400,2500.7911800,N,12132.4728300,E,2,39,0.66,15.09,M,15.25,M,1,3335*74
$GNRMC,101921.400,A,2500.7911800,N,12132.4728300,E,0.00,65.77,260623,,,D,V*39
$GPHDT,,T*1B
$GNGGA,101921.600,2500.7911800,N,12132.4728300,E,2,39,0.66,15.09,M,15.25,M,1,3335*76
$GNRMC,101921.600,A,2500.7911800,N,12132.4728300,E,0.01,65.77,260623,,,D,V*3A
$GPHDT,,T*1B
$GNGGA,101921.800,2500.7911800,N,12132.4728300,E,2,39,0.66,15.09,M,15.25,M,1,3335*78
$GNRMC,101921.800,A,2500.7911800,N,12132.4728300,E,0.01,65.77,260623,,,D,V*34
$GPHDT,,T*1B
$GNGSA,A,3,196,24,15,18,195,05,13,194,,,,,1.01,0.66,0.76,1*33
$GNGSA,A,3,80,79,69,,,,,,,,,,1.01,0.66,0.76,2*0A
$GNGSA,A,3,15,03,,,,,,,,,,,1.01,0.66,0.76,3*05
$GNGSA,A,3,38,39,08,16,06,13,20,09,29,46,37,30,1.01,0.66,0.76,4*0A
$GNGSA,A,3,32,,,,,,,,,,,,1.01,0.66,0.76,4*04
$GPGSV,3,1,12,196,73,051,32,199,72,011,,24,67,171,34,15,54,011,38,1*67
$GPGSV,3,2,12,18,52,307,19,195,46,177,33,05,36,088,46,13,29,038,33,1*5A
$GPGSV,3,3,12,194,21,145,18,29,17,219,22,12,03,163,,11,03,149,,1*5D
$GPGSV,2,1,05,196,73,051,39,24,67,171,37,18,52,307,22,195,46,177,36,8*6A
$GPGSV,2,2,05,194,21,145,30,8*64
$GLGSV,2,1,05,85,45,297,,84,42,203,14,80,32,124,39,79,26,063,34,1*7C
$GLGSV,2,2,05,69,25,040,39,1*4B
$GAGSV,2,1,06,15,50,171,26,03,24,045,39,26,15,322,18,30,08,160,,7*7C
$GAGSV,2,2,06,25,05,065,,34,02,153,,7*76
$GAGSV,1,1,01,03,24,045,42,1*46
$GBGSV,4,1,14,38,73,036,34,39,72,229,28,08,64,005,19,16,62,217,32,1*76
$GBGSV,4,2,14,06,60,217,29,13,56,343,30,20,48,024,39,09,43,215,29,1*7D
$GBGSV,4,3,14,29,39,236,31,46,38,148,29,37,34,075,46,30,15,181,17,1*75
$GBGSV,4,4,14,32,14,075,33,40,02,191,,1*7A
$GBGSV,2,1,08,38,73,036,44,39,72,229,36,20,48,024,42,29,39,236,19,4*71
$GBGSV,2,2,08,46,38,148,34,37,34,075,46,30,15,181,20,32,14,075,28,4*7A
$GNGGA,101922.000,2500.7911800,N,12132.4728300,E,2,39,0.66,15.09,M,15.25,M,2,3335*70
$GNRMC,101922.000,A,2500.7911800,N,12132.4728300,E,0.02,65.77,260623,,,D,V*3C
$GPHDT,,T*1B
$GNGGA,101922.200,2500.7911800,N,12132.4728300,E,2,39,0.66,15.09,M,15.25,M,2,3335*72
$GNRMC,101922.200,A,2500.7911800,N,12132.4728300,E,0.02,65.77,260623,,,D,V*3E
$GPHDT,,T*1B
$GNGGA,101922.400,2500.7911800,N,12132.4728300,E,2,40,0.66,15.09,M,15.25,M,2,3335*7A
$GNRMC,101922.400,A,2500.7911800,N,12132.4728300,E,0.01,65.77,260623,,,D,V*3B
$GPHDT,,T*1B
$GNGGA,101922.600,2500.7911800,N,12132.4728300,E,2,40,0.66,15.09,M,15.25,M,1,3335*7B
$GNRMC,101922.600,A,2500.7911800,N,12132.4728300,E,0.01,65.77,260623,,,D,V*39
$GPHDT,,T*1B
$GNGGA,101922.800,2500.7911800,N,12132.4728300,E,2,40,0.66,15.09,M,15.25,M,1,3335*75
$GNRMC,101922.800,A,2500.7911800,N,12132.4728300,E,0.06,65.77,260623,,,D,V*30
$GPHDT,,T*1B
$GNGSA,A,3,196,24,15,18,195,05,13,194,,,,,1.01,0.66,0.76,1*33
$GNGSA,A,3,80,79,69,,,,,,,,,,1.01,0.66,0.76,2*0A
$GNGSA,A,3,15,03,,,,,,,,,,,1.01,0.66,0.76,3*05
$GNGSA,A,3,38,39,08,16,06,13,20,09,29,46,37,30,1.01,0.66,0.76,4*0A
$GNGSA,A,3,32,,,,,,,,,,,,1.01,0.66,0.76,4*04
$GPGSV,3,1,12,196,73,051,31,199,72,011,,24,67,171,34,15,54,011,38,1*64
$GPGSV,3,2,12,18,52,307,20,195,46,177,33,05,36,088,46,13,29,038,33,1*50
$GPGSV,3,3,12,194,21,145,18,29,17,219,19,12,03,163,,11,03,149,,1*55
$GPGSV,2,1,05,196,73,051,40,24,67,171,36,18,52,307,22,195,46,177,37,8*64
$GPGSV,2,2,05,194,21,145,30,8*64
$GLGSV,2,1,05,85,45,297,,84,42,203,13,80,32,124,40,79,26,063,34,1*75
$GLGSV,2,2,05,69,25,040,39,1*4B
$GAGSV,2,1,06,15,50,171,25,03,23,046,39,26,15,322,19,30,08,160,,7*7A
$GAGSV,2,2,06,25,05,065,,34,02,153,,7*76
$GAGSV,1,1,02,15,50,171,26,03,23,046,42,1*73
$GBGSV,4,1,13,38,73,036,34,39,72,229,29,08,64,005,20,16,62,217,32,1*7A
$GBGSV,4,2,13,06,60,217,29,13,56,343,30,20,48,024,39,09,43,215,29,1*7A
$GBGSV,4,3,13,29,39,236,29,46,38,148,30,37,34,075,46,30,15,181,17,1*73
$GBGSV,4,4,13,32,14,075,32,1*43
$GBGSV,2,1,08,38,73,036,44,39,72,229,36,20,48,024,42,29,39,236,19,4*71
$GBGSV,2,2,08,46,38,148,34,37,34,075,46,30,15,181,20,32,14,075,28,4*7A
$GNGGA,101923.000,2500.7911800,N,12132.4728300,E,2,40,0.66,15.09,M,15.25,M,2,3335*7F
$GNRMC,101923.000,A,2500.7911800,N,12132.4728300,E,0.06,65.77,260623,,,D,V*39
$GPHDT,,T*1B
$GNGGA,101923.200,2500.7911800,N,12132.4728300,E,2,40,0.66,15.09,M,15.25,M,2,3335*7D
$GNRMC,101923.200,A,2500.7911800,N,12132.4728300,E,0.08,65.77,260623,,,D,V*35
$GPHDT,,T*1B
$GNGGA,101923.400,2500.7911800,N,12132.4728300,E,2,40,0.66,15.09,M,15.25,M,2,3335*7B
$GNRMC,101923.400,A,2500.7911800,N,12132.4728300,E,0.08,65.77,260623,,,D,V*33
$GPHDT,,T*1B
$GNGGA,101923.600,2500.7911800,N,12132.4728200,E,2,40,0.66,15.09,M,15.25,M,2,3335*78
$GNRMC,101923.600,A,2500.7911800,N,12132.4728200,E,0.07,65.77,260623,,,D,V*3F
$GPHDT,,T*1B
$GNGGA,101923.800,2500.7911800,N,12132.4728200,E,2,40,0.66,15.09,M,15.25,M,2,3335*76
$GNRMC,101923.800,A,2500.7911800,N,12132.4728200,E,0.06,65.77,260623,,,D,V*30
$GPHDT,,T*1B
$GNGSA,A,3,196,24,15,18,195,05,13,194,,,,,1.01,0.66,0.76,1*33
$GNGSA,A,3,80,79,69,,,,,,,,,,1.01,0.66,0.76,2*0A
$GNGSA,A,3,15,03,,,,,,,,,,,1.01,0.66,0.76,3*05
$GNGSA,A,3,38,39,08,16,06,13,20,09,29,46,37,30,1.01,0.66,0.76,4*0A
$GNGSA,A,3,32,,,,,,,,,,,,1.01,0.66,0.76,4*04
$GPGSV,3,1,12,196,73,051,32,199,72,011,,24,67,171,32,15,54,011,38,1*61
$GPGSV,3,2,12,18,52,307,21,195,46,177,33,05,36,088,46,13,29,038,33,1*51
$GPGSV,3,3,12,194,21,145,17,29,17,219,20,12,03,163,,11,03,149,,1*50
$GPGSV,2,1,05,196,73,051,40,24,67,171,36,18,52,307,22,195,46,177,37,8*64
$GPGSV,2,2,05,194,21,145,30,8*64
$GLGSV,2,1,05,85,45,297,,84,42,203,13,80,32,124,39,79,26,063,33,1*7C
$GLGSV,2,2,05,69,25,040,40,1*45
$GAGSV,2,1,06,15,50,171,26,03,23,046,39,26,15,322,19,30,08,160,,7*79
$GAGSV,2,2,06,25,05,065,,34,02,153,,7*76
$GAGSV,1,1,02,15,50,171,28,03,23,046,42,1*7D
$GBGSV,4,1,14,38,73,036,34,39,72,229,29,08,64,005,22,16,62,217,32,1*7F
$GBGSV,4,2,14,06,60,217,30,13,56,343,30,20,48,024,38,09,43,215,29,1*74
$GBGSV,4,3,14,29,39,236,29,46,38,148,31,19,37,312,,37,34,075,46,1*70
$GBGSV,4,4,14,30,15,181,17,32,14,075,32,1*7D
$GBGSV,2,1,08,38,73,036,44,39,72,229,36,20,48,024,42,29,39,236,19,4*71
$GBGSV,2,2,08,46,38,148,34,37,34,075,46,30,15,181,20,32,14,075,28,4*7A
$GNGGA,101924.000,2500.7911800,N,12132.4728200,E,2,40,0.66,15.09,M,15.25,M,3,3335*78
$GNRMC,101924.000,A,2500.7911800,N,12132.4728200,E,0.05,65.77,260623,,,D,V*3C
$GPHDT,,T*1B
$GNGGA,101924.200,2500.7911800,N,12132.4728200,E,2,40,0.66,15.09,M,15.25,M,3,3335*7A
$GNRMC,101924.200,A,2500.7911800,N,12132.4728200,E,0.03,65.77,260623,,,D,V*38
$GPHDT,,T*1B
$GNGGA,101924.400,2500.7911800,N,12132.4728200,E,2,40,0.66,15.08,M,15.25,M,3,3335*7D
$GNRMC,