$FW : RTK35X,V1.1X0314AS,Lib20210517,0*55
$Tool : LOCOSYS , GNSS Firebird , v1.0.0.19*39
$---------------------------------------------------*2D
$GNACCURACY,3.2*17
$GNGGA,095757.600,2500.8049739,N,12132.4798389,E,4,55,0.53,17.671,M,15.25,M,26,3335*75
$GNRMC,095757.600,A,2500.8049739,N,12132.4798389,E,0.03,67.49,120523,,,R,V*22
$GNACCURACY,3.2*17
$GNGGA,095757.700,2500.8049671,N,12132.4798047,E,4,55,0.53,17.645,M,15.25,M,26,3335*7F
$GNRMC,095757.700,A,2500.8049671,N,12132.4798047,E,0.03,67.49,120523,,,R,V*2F
$GNACCURACY,3.2*17
$GNGGA,095757.800,2500.8049640,N,12132.4798058,E,4,55,0.53,17.631,M,15.25,M,26,3335*7F
$GNRMC,095757.800,A,2500.8049640,N,12132.4798058,E,0.03,67.49,120523,,,R,V*2C
$GNACCURACY,3.2*17
$GNGGA,095757.900,2500.8049632,N,12132.4798085,E,4,55,0.53,17.630,M,15.25,M,26,3335*7A
$GNRMC,095757.900,A,2500.8049632,N,12132.4798085,E,0.04,67.49,120523,,,R,V*2F
$GNGSA,A,3,196,195,199,11,20,13,05,06,15,29,19,194,0.84,0.53,0.66,1*01
$GNGSA,A,3,30,,,,,,,,,,,,0.84,0.53,0.66,1*08
$GNGSA,A,3,71,86,85,72,,,,,,,,,0.84,0.53,0.66,2*08
$GNGSA,A,3,19,33,12,04,10,,,,,,,,0.84,0.53,0.66,3*07
$GNGSA,A,3,44,12,21,38,22,08,13,10,07,35,40,34,0.84,0.53,0.66,4*0C
$GNGSA,A,3,39,,,,,,,,,,,,0.84,0.53,0.66,4*04
$GPGSV,5,1,18,196,74,061,36,195,71,114,37,199,60,167,36,50,60,167,38,1*57
$GPGSV,5,2,18,11,60,041,40,20,54,354,47,13,50,184,43,05,50,309,36,1*6D
$GPGSV,5,3,18,06,33,098,33,15,25,215,29,29,23,318,31,30,18,099,23,1*6B
$GPGSV,5,4,18,19,16,156,19,194,15,171,32,12,12,238,14,07,09,067,18,1*5D
$GPGSV,5,5,18,25,06,269,14,09,01,037,,1*68
$GPGSV,2,1,08,196,74,061,39,195,71,114,43,199,60,167,46,11,60,041,34,8*5F
$GPGSV,2,2,08,06,33,098,38,30,18,099,28,194,15,171,31,25,06,269,15,8*5C
$GLGSV,1,1,04,71,67,348,44,86,61,004,44,85,55,113,37,72,48,237,20,1*7E
$GAGSV,2,1,07,19,78,089,30,33,54,078,34,12,48,341,38,04,34,208,22,7*70
$GAGSV,2,2,07,10,27,322,25,31,07,218,15,11,04,311,,7*49
$GAGSV,2,1,06,19,78,089,37,33,54,078,31,12,48,341,39,04,34,208,27,1*71
$GAGSV,2,2,06,10,27,322,34,31,07,218,25,1*7A
$GBGSV,4,1,14,44,88,169,46,12,66,328,36,21,65,274,39,38,53,356,47,1*70
$GBGSV,4,2,14,22,48,027,39,08,46,336,40,13,41,318,42,10,40,228,22,1*78
$GBGSV,4,3,14,07,37,208,22,35,35,141,44,40,35,197,32,34,34,321,29,1*7E
$GBGSV,4,4,14,39,32,170,45,42,18,238,21,1*7A
$GBGSV,2,1,08,44,88,169,44,21,65,274,39,38,53,356,43,22,48,027,20,4*7C
$GBGSV,2,2,08,40,35,197,38,35,35,141,45,34,34,321,38,39,32,170,44,4*7E
$GNACCURACY,3.2*17
$PAIRSAT,1,33,1,0,200,2,0,200,3,0,200,4,0,200,5,0,201,6,0,221,7,0,200,8,0,200,9,0,200,11,0,221,12,0,200,13,0,201,14,0,200,15,0,201,16,0,200,17,0,200,18,0,200,19,0,201,20,0,201,21,0,200,23,0,200,24,0,200,25,0,220,26,0,200,27,0,200,28,0,200,29,0,201,30,0,221,31,0,200,194,0,621,195,0,621,196,0,620,199,0,621*6C
$PAIRSAT,2,24,65,0,200,66,0,200,67,0,200,68,0,200,69,0,200,70,0,200,71,0,201,72,0,201,73,0,200,74,0,200,75,0,200,76,0,200,77,0,200,78,0,200,79,0,200,80,0,200,81,0,200,82,0,200,83,0,200,84,0,200,85,0,201,86,0,201,87,0,200,88,0,200*7A
$PAIRSAT,3,22,2,0,200,4,0,1221,5,0,200,7,0,1200,8,0,200,9,0,1200,10,0,1221,11,0,1200,12,0,1221,13,0,1200,15,0,1200,19,0,1221,21,0,1000,24,0,1200,25,0,1200,26,0,1200,27,0,1200,30,0,200,31,0,220,33,0,1221,34,0,1200,36,0,200*75
$PAIRSAT,4,45,1,0,200,2,0,200,3,0,201,4,0,200,5,0,200,6,0,200,7,0,201,8,0,201,9,0,200,10,0,201,11,0,200,12,0,201,13,0,201,14,0,200,16,0,201,19,0,600,20,0,600,21,0,621,22,0,621,23,0,600,24,0,600,25,0,600,26,0,600,27,0,600,28,0,600,29,0,600,30,0,600,32,0,600,33,0,600,34,0,621,35,0,621,36,0,600,37,0,600,38,0,621,39,0,621,40,0,621,41,0,400,42,0,421,43,0,400,44,0,621,45,0,600,46,0,600,59,0,400,60,0,400,61,0,400*62
$PAIRDGP,11,5,6,7,9,11,13,15,19,20,29,30*50
$GNGGA,095758.000,2500.8049639,N,12132.4798122,E,4,54,0.53,17.626,M,15.25,M,27,3335*7C
$GNRMC,095758.000,A,2500.8049639,N,12132.4798122,E,0.04,67.49,120523,,,R,V*2E
$GNACCURACY,3.3*16
$GNGGA,095758.100,2500.8049658,N,12132.4798093,E,4,54,0.53,17.622,M,15.25,M,27,3335*75
$GNRMC,095758.100,A,2500.8049658,N,12132.4798093,E,0.01,67.49,120523,,,R,V*26
$GNACCURACY,3.3*16
$GNGGA,095758.200,2500.8049695,N,12132.4798123,E,4,53,0.55,17.621,M,15.25,M,27,3335*7F
$GNRMC,095758.200,A,2500.8049695,N,12132.4798123,E,0.00,67.49,120523,,,R,V*2F
$GNACCURACY,3.2*17
$GNGGA,095758.300,2500.8049682,N,12132.4798114,E,4,53,0.55,17.637,M,15.25,M,27,3335*7B
$GNRMC,095758.300,A,2500.8049682,N,12132.4798114,E,0.01,67.49,120523,,,R,V*2D
$GNACCURACY,3.2*17
$GNGGA,095758.400,2500.8049686,N,12132.4798113,E,4,54,0.55,17.632,M,15.25,M,27,3335*7D
$GNRMC,095758.400,A,2500.8049686,N,12132.4798113,E,0.01,67.49,120523,,,R,V*29
$GNACCURACY,3.2*17
$GNGGA,095758.500,2500.8049686,N,12132.4798046,E,4,54,0.55,17.639,M,15.25,M,27,3335*76
$GNRMC,095758.500,A,2500.8049686,N,12132.4798046,E,0.02,67.49,120523,,,R,V*2A
$GNACCURACY,3.2*17
$GNGGA,095758.600,2500.8049717,N,12132.4798132,E,4,54,0.55,17.637,M,15.25,M,27,3335*70
$GNRMC,095758.600,A,2500.8049717,N,12132.4798132,E,0.03,67.49,120523,,,R,V*23
$GNACCURACY,3.2*17
$GNGGA,095758.700,2500.8049709,N,12132.4798093,E,4,54,0.55,17.636,M,15.25,M,27,3335*75
$GNRMC,095758.700,A,2500.8049709,N,12132.4798093,E,0.03,67.49,120523,,,R,V*27
$GNACCURACY,3.2*17
$GNGGA,095758.800,2500.8049686,N,12132.4798105,E,4,54,0.55,17.632,M,15.25,M,27,3335*76
$GNRMC,095758.800,A,2500.8049686,N,12132.4798105,E,0.01,67.49,120523,,,R,V*22
$GNACCURACY,3.2*17
$GNGGA,095758.900,2500.8049708,N,12132.4798183,E,4,54,0.55,17.635,M,15.25,M,27,3335*79
$GNRMC,095758.900,A,2500.8049708,N,12132.4798183,E,0.02,67.49,120523,,,R,V*29
$GNGSA,A,3,196,195,199,11,20,13,05,06,15,29,30,19,0.86,0.55,0.66,1*3A
$GNGSA,A,3,194,,,,,,,,,,,,0.86,0.55,0.66,1*33
$GNGSA,A,3,71,86,85,72,,,,,,,,,0.86,0.55,0.66,2*0C
$GNGSA,A,3,19,33,12,04,10,,,,,,,,0.86,0.55,0.66,3*03
$GNGSA,A,3,44,12,21,38,22,08,13,07,35,40,34,39,0.86,0.55,0.66,4*03
$GPGSV,5,1,18,196,74,061,37,195,71,114,37,199,60,167,37,50,60,167,38,1*57
$GPGSV,5,2,18,11,60,041,40,20,54,354,47,13,50,184,43,05,50,309,37,1*6C
$GPGSV,5,3,18,06,33,098,33,15,25,215,29,29,23,318,32,30,18,099,20,1*6B
$GPGSV,5,4,18,19,16,156,18,194,15,171,33,12,12,238,17,07,09,067,18,1*5E
$GPGSV,5,5,18,25,06,269,11,09,01,037,,1*6D
$GPGSV,2,1,08,196,74,061,39,195,71,114,43,199,60,167,46,11,60,041,36,8*5D
$GPGSV,2,2,08,06,33,098,37,30,18,099,27,194,15,171,31,25,06,269,15,8*5C
$GLGSV,1,1,04,71,67,348,44,86,61,004,43,85,55,113,36,72,48,237,23,1*7B
$GAGSV,2,1,07,19,78,089,30,33,54,078,34,12,48,341,38,04,34,208,21,7*73
$GAGSV,2,2,07,10,27,322,21,31,07,218,15,11,04,311,,7*4D
$GAGSV,2,1,06,19,78,089,37,33,54,078,31,12,48,341,39,04,34,208,25,1*73
$GAGSV,2,2,06,10,27,322,34,31,07,218,25,1*7A
$GBGSV,4,1,14,44,88,169,46,12,66,328,36,21,65,274,38,38,53,356,47,1*71
$GBGSV,4,2,14,22,48,027,39,08,46,336,40,13,41,318,41,10,40,228,20,1*79
$GBGSV,4,3,14,07,37,208,22,35,35,142,44,40,35,197,32,34,34,321,28,1*7C
$GBGSV,4,4,14,39,32,170,45,42,18,238,21,1*7A
$GBGSV,2,1,08,44,88,169,44,21,65,274,40,38,53,356,42,22,48,027,20,4*73
$GBGSV,2,2,08,40,35,197,38,35,35,142,46,34,34,321,37,39,32,170,44,4*71
$GNACCURACY,3.2*17
$PAIRSAT,1,33,1,0,200,2,0,200,3,0,200,4,0,200,5,0,201,6,0,221,7,0,200,8,0,200,9,0,200,11,0,221,12,0,200,13,0,201,14,0,200,15,0,201,16,0,200,17,0,200,18,0,200,19,0,201,20,0,201,21,0,200,23,0,200,24,0,200,25,0,220,26,0,200,27,0,200,28,0,200,29,0,201,30,0,221,31,0,200,194,0,621,195,0,621,196,0,620,199,0,621*6C
$PAIRSAT,2,24,65,0,200,66,0,200,67,0,200,68,0,200,69,0,200,70,0,200,71,0,201,72,0,201,73,0,200,74,0,200,75,0,200,76,0,200,77,0,200,78,0,200,79,0,200,80,0,200,81,0,200,82,0,200,83,0,200,84,0,200,85,0,201,86,0,201,87,0,200,88,0,200*7A
$PAIRSAT,3,22,2,0,200,4,0,1221,5,0,200,7,0,1200,8,0,200,9,0,1200,10,0,1221,11,0,1200,12,0,1221,13,0,1200,15,0,1200,19,0,1221,21,0,1000,24,0,1200,25,0,1200,26,0,1200,27,0,1200,30,0,200,31,0,220,33,0,1221,34,0,1200,36,0,200*75
$PAIRSAT,4,45,1,0,200,2,0,200,3,0,201,4,0,200,5,0,200,6,0,200,7,0,201,8,0,201,9,0,200,10,0,201,11,0,200,12,0,201,13,0,201,14,0,200,16,0,201,19,0,600,20,0,600,21,0,621,22,0,621,23,0,600,24,0,600,25,0,600,26,0,600,27,0,600,28,0,600,29,0,600,30,0,600,32,0,600,33,0,600,34,0,621,35,0,621,36,0,600,37,0,600,38,0,621,39,0,621,40,0,621,41,0,400,42,0,421,43,0,400,44,0,621,45,0,600,46,0,600,59,0,400,60,0,400,61,0,400*62
$PAIRDGP,11,5,6,7,9,11,13,15,19,20,29,30*50
$GNGGA,095759.000,2500.8049689,N,12132.4798154,E,4,54,0.55,17.642,M,15.25,M,28,3335*7C
$GNRMC,095759.000,A,2500.8049689,N,12132.4798154,E,0.02,67.49,120523,,,R,V*23
$GNACCURACY,3.2*17
$GNGGA,095759.100,2500.8049663,N,12132.4798158,E,4,54,0.55,17.621,M,15.25,M,28,3335*70
$GNRMC,095759.100,A,2500.8049663,N,12132.4798158,E,0.03,67.49,120523,,,R,V*2B
$GNACCURACY,3.2*17
$GNGGA,095759.200,2500.8049635,N,12132.4798190,E,4,54,0.55,17.633,M,15.25,M,28,3335*77
$GNRMC,095759.200,A,2500.8049635,N,12132.4798190,E,0.04,67.49,120523,,,R,V*28
$GNACCURACY,3.2*17
$GNGGA,095759.300,2500.8049625,N,12132.4798133,E,4,54,0.55,17.622,M,15.25,M,28,3335*7E
$GNRMC,095759.300,A,2500.8049625,N,12132.4798133,E,0.04,67.49,120523,,,R,V*21
$GNACCURACY,3.2*17
$GNGGA,095759.400,2500.8049603,N,12132.4798125,E,4,54,0.55,17.634,M,15.25,M,28,3335*7D
$GNRMC,095759.400,A,2500.8049603,N,12132.4798125,E,0.03,67.49,120523,,,R,V*22
$GNACCURACY,3.2*17
$GNGGA,095759.500,2500.8049564,N,12132.4798095,E,4,54,0.55,17.646,M,15.25,M,28,3335*71
$GNRMC,095759.500,A,2500.8049564,N,12132.4798095,E,0.04,67.49,120523,,,R,V*2C
$GNACCURACY,3.2*17
$GNGGA,095759.600,2500.8049618,N,12132.4798478,E,4,54,0.55,17.660,M,15.25,M,28,3335*79
$GNRMC,095759.600,A,2500.8049618,N,12132.4798478,E,0.03,67.49,120523,,,R,V*27
$GNACCURACY,3.2*17
$GNGGA,095759.700,2500.8049606,N,12132.4798449,E,4,54,0.55,17.664,M,15.25,M,28,3335*71
$GNRMC,095759.700,A,2500.8049606,N,12132.4798449,E,0.02,67.49,120523,,,R,V*2A
$GNACCURACY,3.2*17
$GNGGA,095759.800,2500.8049670,N,12132.4798379,E,4,54,0.55,17.680,M,15.25,M,28,3335*71
$GNRMC,095759.800,A,2500.8049670,N,12132.4798379,E,0.04,67.49,120523,,,R,V*26
$GNACCURACY,3.2*17
$GNGGA,095759.900,2500.8049721,N,12132.4798314,E,4,54,0.55,17.696,M,15.25,M,28,3335*79
$GNRMC,095759.900,A,2500.8049721,N,12132.4798314,E,0.08,67.49,120523,,,R,V*25
$GNGSA,A,3,196,195,199,11,20,13,05,06,15,29,30,19,0.84,0.53,0.66,1*3E
$GNGSA,A,3,194,,,,,,,,,,,,0.84,0.53,0.66,1*37
$GNGSA,A,3,71,86,85,72,,,,,,,,,0.84,0.53,0.66,2*08
$GNGSA,A,3,19,33,12,04,10,,,,,,,,0.84,0.53,0.66,3*07
$GNGSA,A,3,44,12,21,38,22,08,13,10,07,35,40,34,0.84,0.53,0.66,4*0C
$GNGSA,A,3,39,,,,,,,,,,,,0.84,0.53,0.66,4*04
$GPGSV,5,1,18,196,74,061,37,195,71,114,37,199,60,167,38,50,60,167,40,1*57
$GPGSV,5,2,18,11,60,041,36,20,54,354,47,13,50,184,41,05,50,309,37,1*6F
$GPGSV,5,3,18,06,33,098,32,15,25,215,26,29,23,318,32,30,18,099,20,1*65
$GPGSV,5,4,18,19,16,156,20,194,15,171,30,12,12,238,17,07,09,067,17,1*59
$GPGSV,5,5,18,25,06,269,11,09,01,037,,1*6D
$GPGSV,2,1,08,196,74,061,39,195,71,114,43,199,60,167,46,11,60,041,32,8*59
$GPGSV,2,2,08,06,33,098,37,30,18,099,28,194,15,171,31,25,06,269,16,8*50
$GLGSV,1,1,04,71,67,348,43,86,61,004,43,85,55,113,37,72,48,237,23,1*7D
$GAGSV,2,1,06,19,78,089,32,33,54,078,35,12,48,341,39,04,34,208,24,7*75
$GAGSV,2,2,06,10,27,322,19,31,07,218,17,7*72
$GAGSV,2,1,06,19,78,089,38,33,54,078,34,12,48,341,37,04,34,208,25,1*77
$GAGSV,2,2,06,10,27,322,34,31,07,218,24,1*7B
$GBGSV,4,1,14,44,88,169,46,12,66,328,38,21,65,274,41,38,53,356,47,1*71
$GBGSV,4,2,14,22,48,027,39,08,46,336,40,13,41,318,40,10,40,228,20,1*78
$GBGSV,4,3,14,07,37,208,23,35,35,142,44,40,35,197,36,34,34,321,29,1*78
$GBGSV,4,4,14,39,32,170,45,42,18,238,20,1*7B
$GBGSV,2,1,08,44,88,169,44,21,65,274,39,38,53,356,42,22,48,027,26,4*7B
$GBGSV,2,2,08,40,35,197,39,35,35,142,45,34,34,321,37,39,32,170,44,4*73
$GNACCURACY,3.2*17
$PAIRSAT,1,33,1,0,200,2,0,200,3,0,200,4,0,200,5,0,201,6,0,221,7,0,200,8,0,200,9,0,200,11,0,221,12,0,200,13,0,201,14,0,200,15,0,201,16,0,200,17,0,200,18,0,200,19,0,201,20,0,201,21,0,200,23,0,200,24,0,200,25,0,220,26,0,200,27,0,200,28,0,200,29,0,201,30,0,221,31,0,200,194,0,621,195,0,621,196,0,620,199,0,621*6C
$PAIRSAT,2,24,65,0,200,66,0,200,67,0,200,68,0,200,69,0,200,70,0,200,71,0,201,72,0,201,73,0,200,74,0,200,75,0,200,76,0,200,77,0,200,78,0,200,79,0,200,80,0,200,81,0,200,82,0,200,83,0,200,84,0,200,85,0,201,86,0,201,87,0,200,88,0,200*7A
$PAIRSAT,3,22,2,0,200,4,0,1221,5,0,200,7,0,1200,8,0,200,9,0,1200,10,0,1221,11,0,1200,12,0,1221,13,0,1200,15,0,1200,19,0,1221,21,0,1000,24,0,1200,25,0,1200,26,0,1200,27,0,1200,30,0,200,31,0,220,33,0,1221,34,0,1200,36,0,200*75
$PAIRSAT,4,45,1,0,200,2,0,200,3,0,201,4,0,200,5,0,200,6,0,200,7,0,201,8,0,201,9,0,200,10,0,201,11,0,200,12,0,201,13,0,201,14,0,200,16,0,201,19,0,600,20,0,600,21,0,621,22,0,621,23,0,600,24,0,600,25,0,600,26,0,600,27,0,600,28,0,600,29,0,600,30,0,600,32,0,600,33,0,600,34,0,621,35,0,621,36,0,600,37,0,600,38,0,621,39,0,621,40,0,621,41,0,400,42,0,421,43,0,400,44,0,621,45,0,600,46,0,600,59,0,400,60,0,400,61,0,400*62
$PAIRDGP,11,5,6,7,9,11,13,15,19,20,29,30*50
$GNGGA,095800.000,2500.8049931,N,12132.4798423,E,4,55,0.53,17.704,M,15.25,M,29,3335*73
$GNRMC,095800.000,A,2500.8049931,N,12132.4798423,E,0.13,67.49,120523,,,R,V*29
$GNACCURACY,3.2*17
$GNGGA,095800.100,2500.8050122,N,12132.4798380,E,4,55,0.53,17.712,M,15.25,M,29,3335*79
$GNRMC,095800.100,A,2500.8050122,N,12132.4798380,E,0.22,67.49,120523,,,R,V*26
$GNACCURACY,3.2*17
$GNGGA,095800.200,2500.8050375,N,12132.4798108,E,4,55,0.53,17.699,M,15.25,M,29,3335*7A
$GNRMC,095800.200,A,2500.8050375,N,12132.4798108,E,0.30,67.49,120523,,,R,V*24
$GNACCURACY,3.2*17
$GNGGA,095800.300,2500.8050482,N,12132.4797828,E,4,55,0.53,17.691,M,15.25,M,29,3335*78
$GNRMC,095800.300,A,2500.8050482,N,12132.4797828,E,0.40,67.49,120523,,,R,V*29
$GNACCURACY,3.2*17
$GNGGA,095800.400,2500.8050840,N,12132.4797636,E,4,55,0.53,17.700,M,15.25,M,29,3335*75
$GNRMC,095800.400,A,2500.8050840,N,12132.4797636,E,0.53,67.49,120523,,,R,V*2F
$GNACCURACY,3.2*17
$GNGGA,095800.500,2500.8051236,N,12132.4797403,E,4,55,0.53,17.684,M,15.25,M,29,3335*77
$GNRMC,095800.500,A,2500.8051236,N,12132.4797403,E,0.66,335.18,120523,,,R,V*16
$GNACCURACY,3.2*17
$GNGGA,095800.600,2500.8051504,N,12132.4797047,E,4,55,0.53,17.680,M,15.25,M,29,3335*72
$GNRMC,095800.600,A,2500.8051504,N,12132.4797047,E,0.76,335.86,120523,,,R,V*11
$GNACCURACY,3.2*17
$GNGGA,095800.700,2500.8051894,N,12132.4797011,E,4,55,0.53,17.673,M,15.25,M,29,3335*78
$GNRMC,095800.700,A,2500.8051894,N,12132.4797011,E,0.85,335.02,120523,,,R,V*17
$GNACCURACY,3.2*17
$GNGGA,095800.800,2500.8052155,N,12132.4796694,E,4,55,0.53,17.660,M,15.25,M,29,3335*78
$GNRMC,095800.800,A,2500.8052155,N,12132.4796694,E,0.91,334.43,120523,,,R,V*14
$GNACCURACY,3.2*17
$GNGGA,095800.900,2500.8052505,N,12132.4796325,E,4,55,0.53,17.650,M,15.25,M,29,3335*74
$GNRMC,095800.900,A,2500.8052505,N,12132.4796325,E,1.14,333.26,120523,,,R,V*13
$GNGSA,A,3,196,195,199,11,20,13,05,06,15,29,30,19,0.84,0.53,0.66,1*3E
$GNGSA,A,3,194,,,,,,,,,,,,0.84,0.53,0.66,1*37
$GNGSA,A,3,71,86,85,72,,,,,,,,,0.84,0.53,0.66,2*08
$GNGSA,A,3,19,33,12,04,10,,,,,,,,0.84,0.53,0.66,3*07
$GNGSA,A,3,44,12,21,38,22,08,13,10,07,35,40,34,0.84,0.53,0.66,4*0C
$GNGSA,A,3,39,,,,,,,,,,,,0.84,0.53,0.66,4*04
$GPGSV,5,1,18,196,74,061,40,195,71,114,37,199,60,167,37,50,60,167,40,1*58
$GPGSV,5,2,18,11,60,041,38,20,54,354,45,13,50,184,41,05,50,309,33,1*67
$GPGSV,5,3,18,06,33,098,38,15,25,215,25,29,23,318,31,30,18,099,22,1*6D
$GPGSV,5,4,18,19,16,156,20,194,15,171,27,12,12,238,17,07,09,067,22,1*59
$GPGSV,5,5,18,25,06,269,15,09,01,037,,1*69
$GPGSV,2,1,08,196,74,061,39,195,71,114,41,199,60,167,46,11,60,041,45,8*5B
$GPGSV,2,2,08,06,33,098,40,30,18,099,24,194,15,171,32,25,06,269,16,8*5F
$GLGSV,1,1,04,71,67,348,43,86,61,004,44,85,55,113,39,72,48,237,26,1*71
$GAGSV,2,1,06,19,78,089,37,33,54,078,38,12,48,341,36,04,34,208,26,7*70
$GAGSV,2,2,06,10,27,322,24,31,07,218,16,7*7D
$GAGSV,2,1,06,19,78,089,39,33,54,078,35,12,48,341,40,04,34,208,23,1*71
$GAGSV,2,2,06,10,27,322,25,31,07,218,24,1*7B
$GBGSV,4,1,14,44,88,169,45,12,66,328,39,21,65,274,38,38,53,356,45,1*7F
$GBGSV,4,2,14,22,48,027,35,08,46,336,39,13,41,318,38,10,40,228,24,1*71
$GBGSV,4,3,14,07,37,208,23,35,35,142,43,40,35,197,32,34,34,321,35,1*76
$GBGSV,4,4,14,39,32,170,43,42,18,238,23,1*7E
$GBGSV,2,1,08,44,88,169,43,21,65,274,43,38,53,356,43,22,48,027,25,4*73
$GBGSV,2,2,08,40,35,197,34,35,35,142,42,34,34,321,33,39,32,170,44,4*7D
$GNACCURACY,3.2*17
$PAIRSAT,1,33,1,0,200,2,0,200,3,0,200,4,0,200,5,0,201,6,0,221,7,0,200,8,0,200,9,0,200,11,0,221,12,0,200,13,0,201,14,0,200,15,0,201,16,0,200,17,0,200,18,0,200,19,0,201,20,0,201,21,0,200,23,0,200,24,0,200,25,0,220,26,0,200,27,0,200,28,0,200,29,0,201,30,0,221,31,0,200,194,0,621,195,0,621,196,0,620,199,0,621*6C
$PAIRSAT,2,24,65,0,200,66,0,200,67,0,200,68,0,200,69,0,200,70,0,200,71,0,201,72,0,201,73,0,200,74,0,200,75,0,200,76,0,200,77,0,200,78,0,200,79,0,200,80,0,200,81,0,200,82,0,200,83,0,200,84,0,200,85,0,201,86,0,201,87,0,200,88,0,200*7A
$PAIRSAT,3,22,2,0,200,4,0,1221,5,0,200,7,0,1200,8,0,200,9,0,1200,10,0,1221,11,0,1200,12,0,1221,13,0,1200,15,0,1200,19,0,1221,21,0,1000,24,0,1200,25,0,1200,26,0,1200,27,0,1200,30,0,200,31,0,220,33,0,1221,34,0,1200,36,0,200*75
$PAIRSAT,4,45,1,0,200,2,0,200,3,0,201,4,0,200,5,0,200,6,0,200,7,0,201,8,0,201,9,0,200,10,0,201,11,0,200,12,0,201,13,0,201,14,0,200,16,0,201,19,0,600,20,0,600,21,0,621,22,0,621,23,0,600,24,0,600,25,0,600,26,0,600,27,0,600,28,0,600,29,0,600,30,0,600,32,0,600,33,0,600,34,0,621,35,0,621,36,0,600,37,0,600,38,0,621,39,0,621,40,0,621,41,0,400,42,0,421,43,0,400,44,0,621,45,0,600,46,0,600,59,0,400,60,0,400,61,0,400*62
$PAIRDGP,11,5,6,7,9,11,13,15,19,20,29,30*50
$GNGGA,095801.000,2500.8052841,N,12132.4796253,E,4,55,0.53,17.647,M,15.25,M,30,3335*7F
$GNRMC,095801.000,A,2500.8052841,N,12132.4796253,E,1.27,327.91,120523,,,R,V*1F
$GNACCURACY,3.2*17
$GNGGA,095801.100,2500.8053121,N,12132.4795944,E,4,55,0.53,17.679,M,15.25,M,30,3335*73
$GNRMC,095801.100,A,2500.8053121,N,12132.4795944,E,1.27,323.88,120523,,,R,V*12
$GNACCURACY,3.2*17
$GNGGA,095801.200,2500.8053301,N,12132.4795420,E,4,55,0.53,17.654,M,15.25,M,30,3335*70
$GNRMC,095801.200,A,2500.8053301,N,12132.4795420,E,1.27,319.98,120523,,,R,V*16
$GNACCURACY,3.2*17
$GNGGA,095801.300,2500.8053545,N,12132.4795376,E,4,56,0.51,17.680,M,15.25,M,30,3335*7B
$GNRMC,095801.300,A,2500.8053545,N,12132.4795376,E,1.39,318.29,120523,,,R,V*11
$GNACCURACY,3.2*17
$GNGGA,095801.400,2500.8053870,N,12132.4794996,E,4,55,0.53,17.707,M,15.25,M,30,3335*7D
$GNRMC,095801.400,A,2500.8053870,N,12132.4794996,E,1.46,317.54,120523,,,R,V*15
$GNACCURACY,3.2*17
$GNGGA,095801.500,2500.8054102,N,12132.4794577,E,4,55,0.53,17.750,M,15.25,M,30,3335*76
$GNRMC,095801.500,A,2500.8054102,N,12132.4794577,E,1.51,315.16,120523,,,R,V*1E
$GNACCURACY,3.2*17
$GNGGA,095801.600,2500.8054323,N,12132.4794305,E,4,55,0.53,17.757,M,15.25,M,30,3335*70
$GNRMC,095801.600,A,2500.8054323,N,12132.4794305,E,1.41,314.89,120523,,,R,V*19
$GNACCURACY,3.2*17
$GNGGA,095801.700,2500.8054703,N,12132.4794064,E,4,55,0.53,17.750,M,15.25,M,30,3335*74
$GNRMC,095801.700,A,2500.8054703,N,12132.4794064,E,1.43,316.37,120523,,,R,V*1F
$GNACCURACY,3.2*17
$GNGGA,095801.800,2500.8055056,N,12132.4793768,E,4,55,0.53,17.696,M,15.25,M,30,3335*7A
$GNRMC,095801.800,A,2500.8055056,N,12132.4793768,E,1.45,316.58,120523,,,R,V*15
$GNACCURACY,3.2*17
$GNGGA,095801.900,2500.8055395,N,12132.4793514,E,4,55,0.53,17.749,M,15.25,M,30,3335*7D
$GNRMC,095801.900,A,2500.8055395,N,12132.4793514,E,1.47,318.66,120523,,,R,V*10
$GNGSA,A,3,196,195,199,11,20,13,05,06,15,29,30,19,0.84,0.53,0.66,1*3E
$GNGSA,A,3,194,,,,,,,,,,,,0.84,0.53,0.66,1*37
$GNGSA,A,3,71,86,85,72,,,,,,,,,0.84,0.53,0.66,2*08
$GNGSA,A,3,19,33,12,04,10,,,,,,,,0.84,0.53,0.66,3*07
$GNGSA,A,3,44,12,21,38,22,08,13,10,07,35,40,34,0.84,0.53,0.66,4*0C
$GNGSA,A,3,39,,,,,,,,,,,,0.84,0.53,0.66,4*04
$GPGSV,5,1,18,196,74,061,41,195,71,114,37,199,60,167,36,50,60,167,39,1*56
$GPGSV,5,2,18,11,60,041,36,20,54,354,44,13,50,184,41,05,50,309,40,1*6C
$GPGSV,5,3,18,06,33,098,42,15,25,215,23,29,23,318,30,30,18,099,21,1*64
$GPGSV,5,4,18,19,16,156,19,194,15,171,35,12,12,238,17,07,09,067,18,1*59
$GPGSV,5,5,18,25,06,269,16,09,01,037,,1*6A
$GPGSV,2,1,08,196,74,061,44,195,71,114,41,199,60,167,44,11,60,041,44,8*52
$GPGSV,2,2,08,06,33,098,39,30,18,099,26,194,15,171,35,25,06,269,17,8*55
$GLGSV,1,1,04,71,67,348,44,86,61,004,44,85,55,113,37,72,48,237,25,1*7B
$GAGSV,2,1,06,19,78,089,35,33,54,078,39,12,48,341,36,04,34,208,22,7*77
$GAGSV,2,2,06,10,27,322,22,31,07,218,15,7*78
$GAGSV,2,1,06,19,78,089,36,33,54,078,42,12,48,341,42,04,34,208,26,1*79
$GAGSV,2,2,06,10,27,322,30,31,07,218,19,1*71
$GBGSV,4,1,14,44,88,169,45,12,66,328,41,21,65,274,42,38,53,356,43,1*7B
$GBGSV,4,2,14,22,48,027,37,08,46,336,37,13,41,318,36,10,40,228,23,1*74
$GBGSV,4,3,14,07,37,208,23,35,35,142,45,40,35,197,29,34,34,321,30,1*7F
$GBGSV,4,4,14,39,32,170,42,42,18,238,22,1*7E
$GBGSV,2,1,08,44,88,169,44,21,65,274,37,38,53,356,43,22,48,027,38,4*7B
$GBGSV,2,2,08,40,35,197,28,35,35,142,43,34,34,321,30,39,32,170,44,4*72
$GNACCURACY,3.2*17
$PAIRSAT,1,33,1,0,200,2,0,200,3,0,200,4,0,200,5,0,201,6,0,221,7,0,200,8,0,200,9,0,200,11,0,221,12,0,200,13,0,201,14,0,200,15,0,201,16,0,200,17,0,200,18,0,200,19,0,201,20,0,201,21,0,200,23,0,200,24,0,200,25,0,220,26,0,200,27,0,200,28,0,200,29,0,201,30,0,221,31,0,200,194,0,621,195,0,621,196,0,620,199,0,621*6C
$PAIRSAT,2,24,65,0,200,66,0,200,67,0,200,68,0,200,69,0,200,70,0,200,71,0,201,72,0,201,73,0,200,74,0,200,75,0,200,76,0,200,77,0,200,78,0,200,79,0,200,80,0,200,81,0,200,82,0,200,83,0,200,84,0,200,85,0,201,86,0,201,87,0,200,88,0,200*7A
$PAIRSAT,3,22,2,0,200,4,0,1221,5,0,200,7,0,1200,8,0,200,9,0,1200,10,0,1221,11,0,1200,12,0,1221,13,0,1200,15,0,1200,19,0,1221,21,0,1000,24,0,1200,25,0,1200,26,0,1200,27,0,1200,30,0,200,31,0,220,33,0,1221,34,0,1200,36,0,200*75
$PAIRSAT,4,45,1,0,200,2,0,200,3,0,201,4,0,200,5,0,200,6,0,200,7,0,201,8,0,201,9,0,200,10,0,201,11,0,200,12,0,201,13,0,201,14,0,200,16,0,201,19,0,600,20,0,600,21,0,621,22,0,621,23,0,600,24,0,600,25,0,600,26,0,600,27,0,600,28,0,600,29,0,600,30,0,600,32,0,600,33,0,600,34,0,621,35,0,621,36,0,600,37,0,600,38,0,621,39,0,621,40,0,621,41,0,400,42,0,421,43,0,400,44,0,621,45,0,600,46,0,600,59,0,400,60,0,400,61,0,400*62
$PAIRDGP,11,5,6,7,9,11,13,15,19,20,29,30*50
$GNGGA,095802.000,2500.8055802,N,12132.4792987,E,4,55,0.53,17.727,M,15.25,M,31,3335*7C
$GNRMC,095802.000,A,2500.8055802,N,12132.4792987,E,1.55,319.18,120523,,,R,V*13
$GNACCURACY,3.2*17
$GNGGA,095802.100,2500.8056325,N,12132.4792594,E,4,55,0.53,17.652,M,15.25,M,31,3335*7D
$GNRMC,095802.100,A,2500.8056325,N,12132.4792594,E,1.69,323.74,120523,,,R,V*1D
$GNACCURACY,3.2*17
$GNGGA,095802.200,2500.8056899,N,12132.4792627,E,4,55,0.53,17.718,M,15.25,M,31,3335*76
$GNRMC,095802.200,A,2500.8056899,N,12132.4792627,E,1.81,327.81,120523,,,R,V*11
$GNACCURACY,3.3*16
$GNGGA,095802.300,2500.8057346,N,12132.4792219,E,4,55,0.53,17.726,M,15.25,M,31,3335*7B
$GNRMC,095802.300,A,2500.8057346,N,12132.4792219,E,1.88,330.17,120523,,,R,V*11
$GNACCURACY,3.3*16
$GNGGA,095802.400,2500.8057724,N,12132.4791627,E,4,55,0.53,17.762,M,15.25,M,31,3335*76
$GNRMC,095802.400,A,2500.8057724,N,12132.4791627,E,1.94,331.28,120523,,,R,V*1C
$GNACCURACY,3.2*17
$GNGGA,095802.500,2500.8058194,N,12132.4791539,E,4,55,0.53,17.835,M,15.25,M,31,3335*74
$GNRMC,095802.500,A,2500.8058194,N,12132.4791539,E,1.87,330.45,120523,,,R,V*1B
$GNACCURACY,3.2*17
$GNGGA,095802.600,2500.8058646,N,12132.4791282,E,4,54,0.55,17.844,M,15.25,M,31,3335*79
$GNRMC,095802.600,A,2500.8058646,N,12132.4791282,E,1.82,329.08,120523,,,R,V*13
$GNACCURACY,3.2*17
$GNGGA,095802.700,2500.8059143,N,12132.4790782,E,4,54,0.55,17.760,M,15.25,M,31,3335*76
$GNRMC,095802.700,A,2500.8059143,N,12132.4790782,E,1.79,326.33,120523,,,R,V*16
$GNACCURACY,3.3*16
$GNGGA,095802.800,2500.8059947,N,12132.4790890,E,4,55,0.53,17.767,M,15.25,M,31,3335*79
$GNRMC,095802.800,A,2500.8059947,N,12132.4790890,E,1.96,320.51,120523,,,R,V*1A
$GNACCURACY,3.3*16
$GNGGA,095802.900,2500.8060310,N,12132.4790581,E,4,54,0.53,17.756,M,15.25,M,31,3335*74
$GNRMC,095802.900,A,2500.8060310,N,12132.4790581,E,2.00,318.98,120523,,,R,V*16
$GNGSA,A,3,196,195,199,11,20,13,05,06,15,29,30,19,0.84,0.53,0.66,1*3E
$GNGSA,A,3,194,,,,,,,,,,,,0.84,0.53,0.66,1*37
$GNGSA,A,3,71,86,85,72,,,,,,,,,0.84,0.53,0.66,2*08
$GNGSA,A,3,19,33,12,04,10,,,,,,,,0.84,0.53,0.66,3*07
$GNGSA,A,3,44,12,21,38,22,08,13,10,07,35,40,34,0.84,0.53,0.66,4*0C
$GNGSA,A,3,39,,,,,,,,,,,,0.84,0.53,0.66,4*04
$GPGSV,5,1,18,196,74,061,41,195,71,114,41,199,60,167,38,50,60,167,41,1*56
$GPGSV,5,2,18,11,60,041,43,20,54,354,47,13,50,184,31,05,50,309,40,1*6A
$GPGSV,5,3,18,06,33,098,35,15,25,215,26,29,23,318,36,30,18,099,28,1*6E
$GPGSV,5,4,18,19,16,156,20,194,15,171,38,12,12,238,16,07,09,067,20,1*54
$GPGSV,5,5,18,25,06,269,15,09,01,037,,1*69
$GPGSV,2,1,08,196,74,061,44,195,71,114,43,199,60,167,46,11,60,041,44,8*52
$GPGSV,2,2,08,06,33,098,36,30,18,099,27,194,15,171,37,25,06,269,15,8*5B
$GLGSV,1,1,04,71,67,348,42,86,61,004,42,85,55,113,40,72,48,237,27,1*79
$GAGSV,2,1,06,19,78,089,33,33,54,078,32,12,48,341,38,04,34,208,21,7*77
$GAGSV,2,2,06,10,27,322,,31,07,218,17,7*7A
$GAGSV,2,1,06,19,78,089,35,33,54,078,40,12,48,341,43,04,34,208,24,1*7B
$GAGSV,2,2,06,10,27,322,25,31,07,218,18,1*74
$GBGSV,4,1,14,44,88,169,42,12,66,328,37,21,65,274,41,38,53,356,43,1*7E
$GBGSV,4,2,14,22,48,027,37,08,46,336,39,13,41,318,32,10,40,228,21,1*7C
$GBGSV,4,3,14,07,37,208,23,35,35,142,44,40,35,197,27,34,34,321,35,1*75
$GBGSV,4,4,14,39,32,170,44,42,18,238,19,1*70
$GBGSV,2,1,08,44,88,169,39,21,65,274,39,38,53,356,44,22,48,027,28,4*79
$GBGSV,2,2,08,40,35,197,24,35,35,142,42,34,34,321,35,39,32,170,43,4*7D
$GNACCURACY,3.3*16
$PAIRSAT,1,33,1,0,200,2,0,200,3,0,200,4,0,200,5,0,201,6,0,221,7,0,200,8,0,200,9,0,200,11,0,221,12,0,200,13,0,201,14,0,200,15,0,201,16,0,200,17,0,200,18,0,200,19,0,201,20,0,201,21,0,200,23,0,200,24,0,200,25,0,220,26,0,200,27,0,200,28,0,200,29,0,201,30,0,221,31,0,200,194,0,621,195,0,621,196,0,620,199,0,621*6C
$PAIRSAT,2,24,65,0,200,66,0,200,67,0,200,68,0,200,69,0,200,70,0,200,71,0,201,72,0,201,73,0,200,74,0,200,75,0,200,76,0,200,77,0,200,78,0,200,79,0,200,80,0,200,81,0,200,82,0,200,83,0,200,84,0,200,85,0,201,86,0,201,87,0,200,88,0,200*7A
$PAIRSAT,3,22,2,0,200,4,0,1221,5,0,200,7,0,1200,8,0,200,9,0,1200,10,0,1221,11,0,1200,12,0,1221,13,0,1200,15,0,1200,19,0,1221,21,0,1000,24,0,1200,25,0,1200,26,0,1200,27,0,1200,30,0,200,31,0,220,33,0,1221,34,0,1200,36,0,200*75
$PAIRSAT,4,45,1,0,200,2,0,200,3,0,201,4,0,200,5,0,200,6,0,200,7,0,201,8,0,201,9,0,200,10,0,201,11,0,200,12,0,201,13,0,201,14,0,200,16,0,201,19,0,600,20,0,600,21,0,621,22,0,621,23,0,600,24,0,600,25,0,600,26,0,600,27,0,600,28,0,600,29,0,600,30,0,600,32,0,600,33,0,600,34,0,621,35,0,621,36,0,600,37,0,600,38,0,621,39,0,621,40,0,621,41,0,400,42,0,421,43,0,400,44,0,621,45,0,600,46,0,600,59,0,400,60,0,400,61,0,400*62
$PAIRDGP,11,5,6,7,9,11,13,15,19,20,29,30*50
$GNGGA,095803.000,2500.8060856,N,12132.4790010,E,4,54,0.53,17.679,M,15.25,M,32,3335*77
$GNRMC,095803.000,A,2500.8060856,N,12132.4790010,E,2.13,315.44,120523,,,R,V*14
$GNACCURACY,3.3*16
$GNGGA,095803.100,2500.8061299,N,12132.4789715,E,4,53,0.55,17.733,M,15.25,M,32,3335*7A
$GNRMC,095803.100,A,2500.8061299,N,12132.4789715,E,2.02,318.83,120523,,,R,V*11
$GNACCURACY,3.3*16
$GNGGA,095803.200,2500.8061601,N,12132.4789317,E,4,54,0.53,17.743,M,15.25,M,32,3335*7C
$GNRMC,095803.200,A,2500.8061601,N,12132.4789317,E,1.80,315.26,120523,,,R,V*1A
$GNACCURACY,3.3*16
$GNGGA,095803.300,2500.8061744,N,12132.4788685,E,4,55,0.53,17.778,M,15.25,M,32,3335*7B
$GNRMC,095803.300,A,2500.8061744,N,12132.4788685,E,1.77,310.82,120523,,,R,V*17
$GNACCURACY,3.3*16
$GNGGA,095803.400,2500.8062150,N,12132.4788564,E,4,55,0.53,17.726,M,15.25,M,32,3335*7B
$GNRMC,095803.400,A,2500.8062150,N,12132.4788564,E,1.67,313.40,120523,,,R,V*10
$GNACCURACY,3.3*16
$GNGGA,095803.500,2500.8062613,N,12132.4788417,E,4,55,0.53,17.762,M,15.25,M,32,3335*7F
$GNRMC,095803.500,A,2500.8062613,N,12132.4788417,E,1.71,318.83,120523,,,R,V*17
$GNACCURACY,3.3*16
$GNGGA,095803.600,2500.8062979,N,12132.4787902,E,4,55,0.53,17.760,M,15.25,M,32,3335*7B
$GNRMC,095803.600,A,2500.8062979,N,12132.4787902,E,1.77,318.30,120523,,,R,V*1F
$GNACCURACY,3.3*16
$GNGGA,095803.700,2500.8063455,N,12132.4787640,E,4,55,0.53,17.754,M,15.25,M,32,3335*76
$GNRMC,095803.700,A,2500.8063455,N,12132.4787640,E,1.95,325.55,120523,,,R,V*14
$GNACCURACY,3.3*16
$GNGGA,095803.800,2500.8063970,N,12132.4787444,E,4,55,0.53,17.754,M,15.25,M,32,3335*75
$GNRMC,095803.800,A,2500.8063970,N,12132.4787444,E,1.78,329.69,120523,,,R,V*17
$GNACCURACY,3.3*16
$GNGGA,095803.900,2500.8064296,N,12132.4786738,E,4,55,0.53,17.789,M,15.25,M,32,3335*79
$GNRMC,095803.900,A,2500.8064296,N,12132.4786738,E,1.90,327.56,120523,,,R,V*1F
$GNGSA,A,3,196,195,199,11,20,13,05,06,15,29,30,19,0.84,0.53,0.66,1*3E
$GNGSA,A,3,194,,,,,,,,,,,,0.84,0.53,0.66,1*37
$GNGSA,A,3,71,86,85,72,,,,,,,,,0.84,0.53,0.66,2*08
$GNGSA,A,3,19,33,12,04,10,,,,,,,,0.84,0.53,0.66,3*07
$GNGSA,A,3,44,12,21,38,22,08,13,10,07,35,40,34,0.84,0.53,0.66,4*0C
$GNGSA,A,3,39,,,,,,,,,,,,0.84,0.53,0.66,4*04
$GPGSV,5,1,18,196,74,061,42,195,71,114,43,199,60,167,37,50,60,167,38,1*56
$GPGSV,5,2,18,11,60,041,41,20,54,354,46,13,50,184,32,05,50,309,31,1*6C
$GPGSV,5,3,18,06,33,098,36,15,25,215,26,29,23,318,38,30,18,099,25,1*6E
$GPGSV,5,4,18,19,16,156,22,194,15,171,37,12,12,238,16,07,09,067,19,1*53
$GPGSV,5,5,18,25,06,269,16,09,01,037,,1*6A
$GPGSV,2,1,08,196,74,061,42,195,71,114,44,199,60,167,46,11,60,041,45,8*52
$GPGSV,2,2,08,06,33,098,36,30,18,099,22,194,15,171,41,25,06,269,13,8*59
$GLGSV,1,1,04,71,67,348,42,86,61,004,45,85,55,113,37,72,48,237,26,1*7F
$GAGSV,2,1,06,19,78,089,36,33,54,078,39,12,48,341,40,04,34,208,20,7*77
$GAGSV,2,2,06,10,27,322,27,31,07,218,17,7*7F
$GAGSV,2,1,06,19,78,089,38,33,54,078,35,12,48,341,40,04,34,208,21,1*72
$GAGSV,2,2,06,10,27,322,29,31,07,218,18,1*78
$GBGSV,4,1,14,44,88,169,44,12,66,328,36,21,65,274,33,38,53,356,43,1*7C
$GBGSV,4,2,14,22,48,027,42,08,46,336,36,13,41,318,31,10,40,228,23,1*70
$GBGSV,4,3,14,07,37,208,24,35,35,142,43,40,35,197,24,34,34,321,31,1*72
$GBGSV,4,4,14,39,32,170,43,42,18,238,23,1*7E
$GBGSV,2,1,08,44,88,169,41,21,65,274,37,38,53,356,42,22,48,027,40,4*70
$GBGSV,2,2,08,40,35,197,29,35,35,142,44,34,34,321,31,39,32,170,43,4*72
$GNACCURACY,3.3*16
$PAIRSAT,1,33,1,0,200,2,0,200,3,0,200,4,0,200,5,0,201,6,0,221,7,0,200,8,0,200,9,0,200,11,0,221,12,0,200,13,0,201,14,0,200,15,0,201,16,0,200,17,0,200,18,0,200,19,0,201,20,0,201,21,0,200,23,0,200,24,0,200,25,0,220,26,0,200,27,0,200,28,0,200,29,0,201,30,0,221,31,0,200,194,0,621,195,0,621,196,0,620,199,0,621*6C
$PAIRSAT,2,24,65,0,200,66,0,200,67,0,200,68,0,200,69,0,200,70,0,200,71,0,201,72,0,201,73,0,200,74,0,200,75,0,200,76,0,200,77,0,200,78,0,200,79,0,200,80,0,200,81,0,200,82,0,200,83,0,200,84,0,200,85,0,201,86,0,201,87,0,200,88,0,200*7A
$PAIRSAT,3,22,2,0,200,4,0,1221,5,0,200,7,0,1200,8,0,200,9,0,1200,10,0,1221,11,0,1200,12,0,1221,13,0,1200,15,0,1200,19,0,1221,21,0,1000,24,0,1200,25,0,1200,26,0,1200,27,0,1200,30,0,200,31,0,220,33,0,1221,34,0,1200,36,0,200*75
$PAIRSAT,4,45,1,0,200,2,0,200,3,0,201,4,0,200,5,0,200,6,0,200,7,0,201,8,0,201,9,0,200,10,0,201,11,0,200,12,0,201,13,0,201,14,0,200,16,0,201,19,0,600,20,0,600,21,0,621,22,0,621,23,0,600,24,0,600,25,0,600,26,0,600,27,0,600,28,0,600,29,0,600,30,0,600,32,0,600,33,0,600,34,0,621,35,0,621,36,0,600,37,0,600,38,0,621,39,0,621,40,0,621,41,0,400,42,0,421,43,0,400,44,0,621,45,0,600,46,0,600,59,0,400,60,0,400,61,0,400*62
$PAIRDGP,11,5,6,7,9,11,13,15,19,20,29,30*50
$GNGGA,095804.000,2500.8064257,N,12132.4785947,E,4,55,0.53,17.885,M,15.25,M,33,3335*7D
$GNRMC,095804.000,A,2500.8064257,N,12132.4785947,E,1.96,326.39,120523,,,R,V*17
$GNACCURACY,3.3*16
$GNGGA,095804.100,2500.8064737,N,12132.4785767,E,2,55,0.53,17.906,M,15.25,M,33,3335*7F
$GNRMC,095804.100,A,2500.8064737,N,12132.4785767,E,1.81,329.38,120523,,,D,V*07
$GNACCURACY,3.3*16
$GNGGA,095804.200,2500.8065157,N,12132.4785467,E,2,55,0.53,17.924,M,15.25,M,33,3335*7E
$GNRMC,095804.200,A,2500.8065157,N,12132.4785467,E,1.85,324.15,120523,,,D,V*00
$GNACCURACY,3.3*16
$GNGGA,095804.300,2500.8065577,N,12132.4785167,E,2,55,0.53,17.941,M,15.25,M,33,3335*7F
$GNRMC,095804.300,A,2500.8065577,N,12132.4785167,E,1.83,322.85,120523,,,D,V*0B
$GNACCURACY,3.3*16
$GNGGA,095804.400,2500.8066057,N,12132.4784927,E,2,55,0.53,17.951,M,15.25,M,33,3335*70
$GNRMC,095804.400,A,2500.8066057,N,12132.4784927,E,1.82,321.06,120523,,,D,V*0C
$GNACCURACY,3.3*16
$GNGGA,095804.500,2500.8066417,N,12132.4784447,E,2,55,0.53,17.975,M,15.25,M,33,3335*7C
$GNRMC,095804.500,A,2500.8066417,N,12132.4784447,E,1.85,314.06,120523,,,D,V*07
$GNACCURACY,3.3*16
$GNGGA,095804.600,2500.8066777,N,12132.4784207,E,2,55,0.53,18.000,M,15.25,M,33,3335*7C
$GNRMC,095804.600,A,2500.8066777,N,12132.4784207,E,1.83,315.17,120523,,,D,V*04
$GNACCURACY,3.3*16
$GNGGA,095804.700,2500.8067197,N,12132.4783907,E,2,55,0.53,18.015,M,15.25,M,33,3335*7C
$GNRMC,095804.700,A,2500.8067197,N,12132.4783907,E,1.85,313.85,120523,,,D,V*0B
$GNACCURACY,3.3*16
$GNGGA,095804.800,2500.8067617,N,12132.4783787,E,2,55,0.53,18.031,M,15.25,M,33,3335*7C
$GNRMC,095804.800,A,2500.8067617,N,12132.4783787,E,1.75,314.46,120523,,,D,V*0A
$GNACCURACY,3.3*16
$GNGGA,095804.900,2500.8068037,N,12132.4783547,E,2,55,0.53,18.050,M,15.25,M,33,3335*7F
$GNRMC,095804.900,A,2500.8068037,N,12132.4783547,E,1.64,313.99,120523,,,D,V*0B
$GNGSA,A,3,196,195,199,11,20,13,05,06,15,29,30,19,0.84,0.53,0.66,1*3E
$GNGSA,A,3,194,,,,,,,,,,,,0.84,0.53,0.66,1*37
$GNGSA,A,3,71,86,85,72,,,,,,,,,0.84,0.53,0.66,2*08
$GNGSA,A,3,19,33,12,04,10,,,,,,,,0.84,0.53,0.66,3*07
$GNGSA,A,3,44,12,21,38,22,08,13,10,07,35,40,34,0.84,0.53,0.66,4*0C
$GNGSA,A,3,39,,,,,,,,,,,,0.84,0.53,0.66,4*04
$GPGSV,5,1,18,196,74,061,42,195,71,114,42,199,60,167,37,50,60,167,39,1*56
$GPGSV,5,2,18,11,60,041,41,20,54,354,45,13,50,184,33,05,50,309,34,1*6B
$GPGSV,5,3,18,06,33,098,33,15,25,215,25,29,23,318,39,30,18,099,23,1*6F
$GPGSV,5,4,18,19,16,156,22,194,15,171,38,12,12,238,15,07,09,067,18,1*5E
$GPGSV,5,5,18,25,06,269,16,09,01,037,,1*6A
$GPGSV,2,1,08,196,74,061,43,195,71,114,42,199,60,167,44,11,60,041,46,8*54
$GPGSV,2,2,08,06,33,098,29,30,18,099,22,194,15,171,40,25,06,269,12,8*57
$GLGSV,1,1,04,71,67,348,44,86,61,004,44,85,55,113,31,72,48,237,23,1*7B
$GAGSV,2,1,06,19,78,089,36,33,54,078,35,12,48,341,35,04,34,208,26,7*7F
$GAGSV,2,2,06,10,27,322,21,31,07,218,17,7*79
$GAGSV,2,1,06,19,78,089,37,33,54,078,38,12,48,341,37,04,34,208,23,1*72
$GAGSV,2,2,06,10,27,322,29,31,07,218,18,1*78
$GBGSV,4,1,14,44,88,169,44,12,66,328,44,21,65,274,43,38,53,356,45,1*78
$GBGSV,4,2,14,22,48,027,39,08,46,336,36,13,41,318,33,10,40,228,22,1*7F
$GBGSV,4,3,14,07,37,208,22,35,35,142,44,40,35,197,23,34,34,321,33,1*76
$GBGSV,4,4,14,39,32,170,44,42,18,238,20,1*7A
$GBGSV,2,1,08,44,88,169,43,21,65,274,41,38,53,356,44,22,48,027,40,4*75
$GBGSV,2,2,08,40,35,197,24,35,35,142,40,34,34,321,34,39,32,170,42,4*7F
$GNACCURACY,3.3*16
$PAIRSAT,1,33,1,0,200,2,0,200,3,0,200,4,0,200,5,0,201,6,0,221,7,0,200,8,0,200,9,0,200,11,0,221,12,0,200,13,0,201,14,0,200,15,0,201,16,0,200,17,0,200,18,0,200,19,0,201,20,0,201,21,0,200,23,0,200,24,0,200,25,0,220,26,0,200,27,0,200,28,0,200,29,0,201,30,0,221,31,0,200,194,0,621,195,0,621,196,0,620,199,0,621*6C
$PAIRSAT,2,24,65,0,200,66,0,200,67,0,200,68,0,200,69,0,200,70,0,200,71,0,201,72,0,201,73,0,200,74,0,200,75,0,200,76,0,200,77,0,200,78,0,200,79,0,200,80,0,200,81,0,200,82,0,200,83,0,200,84,0,200,85,0,201,86,0,201,87,0,200,88,0,200*7A
$PAIRSAT,3,22,2,0,200,4,0,1221,5,0,200,7,0,1200,8,0,200,9,0,1200,10,0,1221,11,0,1200,12,0,1221,13,0,1200,15,0,1200,19,0,1221,21,0,1000,24,0,1200,25,0,1200,26,0,1200,27,0,1200,30,0,200,31,0,220,33,0,1221,34,0,1200,36,0,200*75
$PAIRSAT,4,45,1,0,200,2,0,200,3,0,201,4,0,200,5,0,200,6,0,200,7,0,201,8,0,201,9,0,200,10,0,201,11,0,200,12,0,201,13,0,201,14,0,200,16,0,201,19,0,600,20,0,600,21,0,621,22,0,621,23,0,600,24,0,600,25,0,600,26,0,600,27,0,600,28,0,600,29,0,600,30,0,600,32,0,600,33,0,600,34,0,621,35,0,621,36,0,600,37,0,600,38,0,621,39,0,621,40,0,621,41,0,400,42,0,421,43,0,400,44,0,621,45,0,600,46,0,600,59,0,400,60,0,400,61,0,400*62
$PAIRDGP,11,5,6,7,9,11,13,15,19,20,29,30*50
$GNGGA,095805.000,2500.8068457,N,12132.4783247,E,2,55,0.53,18.064,M,15.25,M,34,3335*72
$GNRMC,095805.000,A,2500.8068457,N,12132.4783247,E,1.83,315.90,120523,,,D,V*00
$GNACCURACY,3.3*16
$GNGGA,095805.100,2500.8068817,N,12132.4782887,E,2,55,0.53,18.082,M,15.25,M,34,3335*74
$GNRMC,095805.100,A,2500.8068817,N,12132.4782887,E,1.86,313.65,120523,,,D,V*07
$GNACCURACY,3.3*16
$GNGGA,095805.200,2500.8069297,N,12132.4782707,E,2,54,0.53,18.090,M,15.25,M,34,3335*71
$GNRMC,095805.200,A,2500.8069297,N,12132.4782707,E,1.81,318.79,120523,,,D,V*01
$GNACCURACY,3.3*16
$GNGGA,095805.300,2500.8069717,N,12132.4782407,E,2,54,0.53,18.105,M,15.25,M,34,3335*73
$GNRMC,095805.300,A,2500.8069717,N,12132.4782407,E,1.90,318.28,120523,,,D,V*0A
$GNACCURACY,3.3*16
$GNGGA,095805.400,2500.8070197,N,12132.4782167,E,2,52,0.55,18.126,M,15.25,M,34,3335*70
$GNRMC,095805.400,A,2500.8070197,N,12132.4782167,E,1.99,323.07,120523,,,D,V*04
$GNACCURACY,3.3*16
$GNGGA,095805.500,2500.8070617,N,12132.4781807,E,2,53,0.55,18.142,M,15.25,M,34,3335*71
$GNRMC,095805.500,A,2500.8070617,N,12132.4781807,E,2.00,320.12,120523,,,D,V*02
$GNACCURACY,3.3*16
$GNGGA,095805.600,2500.8071097,N,12132.4781447,E,2,53,0.55,18.152,M,15.25,M,34,3335*74
$GNRMC,095805.600,A,2500.8071097,N,12132.4781447,E,1.87,320.28,120523,,,D,V*03
$GNACCURACY,3.3*16
$GNGGA,095805.700,2500.8071577,N,12132.4781267,E,2,53,0.55,18.162,M,15.25,M,34,3335*79
$GNRMC,095805.700,A,2500.8071577,N,12132.4781267,E,1.80,324.10,120523,,,D,V*05
$GNACCURACY,3.3*16
$GNGGA,095805.800,2500.8071997,N,12132.4780907,E,2,54,0.55,18.190,M,15.25,M,34,3335*72
$GNRMC,095805.800,A,2500.8071997,N,12132.4780907,E,1.90,320.23,120523,,,D,V*01
$GNACCURACY,3.3*16
$GNGGA,095805.900,2500.8072477,N,12132.4780667,E,2,55,0.52,18.206,M,15.25,M,34,3335*70
$GNRMC,095805.900,A,2500.8072477,N,12132.4780667,E,1.88,318.40,120523,,,D,V*0E
$GNGSA,A,3,196,195,199,11,20,13,05,06,15,29,30,19,0.86,0.55,0.66,1*3A
$GNGSA,A,3,194,,,,,,,,,,,,0.86,0.55,0.66,1*33
$GNGSA,A,3,71,86,85,72,,,,,,,,,0.86,0.55,0.66,2*0C
$GNGSA,A,3,19,33,12,04,10,,,,,,,,0.86,0.55,0.66,3*03
$GNGSA,A,3,44,12,21,38,22,08,13,07,35,40,34,39,0.86,0.55,0.66,4*03
$GPGSV,5,1,18,196,74,061,42,195,71,115,39,199,60,167,38,50,60,167,39,1*54
$GPGSV,5,2,18,11,60,041,43,20,54,354,46,13,50,184,35,05,50,309,38,1*60
$GPGSV,5,3,18,06,33,098,30,15,25,215,25,29,23,318,38,30,18,099,23,1*6D
$GPGSV,5,4,18,19,16,156,24,194,15,171,36,12,12,238,15,07,09,067,17,1*59
$GPGSV,5,5,18,25,06,269,16,09,01,037,,1*6A
$GPGSV,2,1,08,196,74,061,45,195,71,115,42,199,60,167,46,11,60,041,45,8*52
$GPGSV,2,2,08,06,33,098,31,30,18,099,22,194,15,171,41,25,06,269,12,8*5F
$GLGSV,1,1,04,71,67,348,44,86,61,004,45,85,55,113,34,72,48,237,26,1*7A
$GAGSV,2,1,06,19,78,089,37,33,54,078,37,12,48,341,29,04,35,208,20,7*76
$GAGSV,2,2,06,10,27,322,28,31,07,218,16,7*71
$GAGSV,2,1,06,19,78,089,40,33,54,078,42,12,48,341,34,04,35,208,24,1*7A
$GAGSV,2,2,06,10,27,322,34,31,07,218,17,1*7B
$GBGSV,4,1,14,44,88,169,43,12,66,328,40,21,65,274,42,38,53,356,44,1*7B
$GBGSV,4,2,14,22,48,027,39,08,46,336,34,13,41,318,28,10,40,228,20,1*75
$GBGSV,4,3,14,07,37,208,21,35,35,142,42,40,35,197,21,34,34,321,34,1*76
$GBGSV,4,4,14,39,32,170,44,42,18,238,25,1*7F
$GBGSV,2,1,08,44,88,169,41,21,65,274,39,38,53,356,44,22,48,027,42,4*7A
$GBGSV,2,2,08,40,35,197,21,35,35,142,43,34,34,321,37,39,32,170,43,4*7B
$GNACCURACY,3.3*16
$PAIRSAT,1,33,1,0,200,2,0,200,3,0,200,4,0,200,5,0,201,6,0,221,7,0,200,8,0,200,9,0,200,11,0,221,12,0,200,13,0,201,14,0,200,15,0,201,16,0,200,17,0,200,18,0,200,19,0,201,20,0,201,21,0,200,23,0,200,24,0,200,25,0,220,26,0,200,27,0,200,28,0,200,29,0,201,30,0,221,31,0,200,194,0,621,195,0,621,196,0,620,199,0,621*6C
$PAIRSAT,2,24,65,0,200,66,0,200,67,0,200,68,0,200,69,0,200,70,0,200,71,0,201,72,0,201,73,0,200,74,0,200,75,0,200,76,0,200,77,0,200,78,0,200,79,0,200,80,0,200,81,0,200,82,0,200,83,0,200,84,0,200,85,0,201,86,0,201,87,0,200,88,0,200*7A
$PAIRSAT,3,22,2,0,200,4,0,1221,5,0,200,7,0,1200,8,0,200,9,0,1200,10,0,1221,11,0,1200,12,0,1221,13,0,1200,15,0,1200,19,0,1221,21,0,1000,24,0,1200,25,0,1200,26,0,1200,27,0,1200,30,0,200,31,0,220,33,0,1221,34,0,1200,36,0,200*75
$PAIRSAT,4,45,1,0,200,2,0,200,3,0,201,4,0,200,5,0,200,6,0,200,7,0,201,8,0,201,9,0,200,10,0,201,11,0,200,12,0,201,13,0,201,14,0,200,16,0,201,19,0,600,20,0,600,21,0,621,22,0,621,23,0,600,24,0,600,25,0,600,26,0,600,27,0,600,28,0,600,29,0,600,30,0,600,32,0,600,33,0,600,34,0,621,35,0,621,36,0,600,37,0,600,38,0,621,39,0,621,40,0,621,41,0,400,42,0,421,43,0,400,44,0,621,45,0,600,46,0,600,59,0,400,60,0,400,61,0,400*62
$PAIRDGP,11,5,6,7,9,11,13,15,19,20,29,30*50
$GNGGA,095806.000,2500.8072837,N,12132.4780367,E,2,54,0.55,18.218,M,15.25,M,35,3335*7F
$GNRMC,095806.000,A,2500.8072837,N,12132.4780367,E,1.82,312.15,120523,,,D,V*09
$GNACCURACY,3.3*16
$GNGGA,095806.100,2500.8073137,N,12132.4779887,E,2,54,0.53,18.243,M,15.25,M,35,3335*7D
$GNRMC,095806.100,A,2500.8073137,N,12132.4779887,E,1.83,304.97,120523,,,D,V*0F
$GNACCURACY,3.3*16
$GNGGA,095806.200,2500.8073497,N,12132.4779527,E,2,54,0.53,18.242,M,15.25,M,35,3335*77
$GNRMC,095806.200,A,2500.8073497,N,12132.4779527,E,1.98,309.18,120523,,,D,V*04
$GNACCURACY,3.3*16
$GNGGA,095806.300,2500.8073797,N,12132.4779227,E,2,55,0.53,18.253,M,15.25,M,35,3335*73
$GNRMC,095806.300,A,2500.8073797,N,12132.4779227,E,1.79,311.70,120523,,,D,V*09
$GNACCURACY,3.3*16
$GNGGA,095806.400,2500.8074157,N,12132.4778867,E,2,55,0.53,18.282,M,15.25,M,35,3335*7A
$GNRMC,095806.400,A,2500.8074157,N,12132.4778867,E,1.83,316.21,120523,,,D,V*0A
$GNACCURACY,3.3*16
$GNGGA,095806.500,2500.8074577,N,12132.4778447,E,2,55,0.53,18.304,M,15.25,M,35,3335*7C
$GNRMC,095806.500,A,2500.8074577,N,12132.4778447,E,1.82,315.04,120523,,,D,V*06
$GNACCURACY,3.3*16
$GNGGA,095806.600,2500.8074997,N,12132.4778027,E,2,55,0.53,18.322,M,15.25,M,35,3335*7B
$GNRMC,095806.600,A,2500.8074997,N,12132.4778027,E,1.85,313.98,120523,,,D,V*01
$GNACCURACY,3.3*16
$GNGGA,095806.700,2500.8075537,N,12132.4777547,E,2,55,0.53,18.347,M,15.25,M,35,3335*72
$GNRMC,095806.700,A,2500.8075537,N,12132.4777547,E,2.01,315.12,120523,,,D,V*00
$GNACCURACY,3.3*16
$GNGGA,095806.800,2500.8076017,N,12132.4777127,E,2,54,0.55,18.354,M,15.25,M,35,3335*7E
$GNRMC,095806.800,A,2500.8076017,N,12132.4777127,E,2.01,317.07,120523,,,D,V*0F
$GNACCURACY,3.3*16
$GNGGA,095806.900,2500.8076557,N,12132.4776827,E,2,55,0.53,18.347,M,15.25,M,35,3335*73
$GNRMC,095806.900,A,2500.8076557,N,12132.4776827,E,2.04,322.86,120523,,,D,V*0D
$GNGSA,A,3,196,195,199,11,20,13,05,06,15,29,30,19,0.84,0.53,0.66,1*3E
$GNGSA,A,3,194,,,,,,,,,,,,0.84,0.53,0.66,1*37
$GNGSA,A,3,71,86,85,72,,,,,,,,,0.84,0.53,0.66,2*08
$GNGSA,A,3,19,33,12,04,10,,,,,,,,0.84,0.53,0.66,3*07
$GNGSA,A,3,44,12,21,38,22,08,13,10,07,35,40,34,0.84,0.53,0.66,4*0C
$GNGSA,A,3,39,,,,,,,,,,,,0.84,0.53,0.66,4*04
$GPGSV,5,1,18,196,74,061,42,195,71,115,41,199,60,167,33,50,60,167,36,1*5F
$GPGSV,5,2,18,11,60,041,44,20,54,354,42,13,50,184,26,05,50,309,39,1*60
$GPGSV,5,3,18,06,33,098,32,15,25,215,27,29,23,318,37,30,18,099,23,1*62
$GPGSV,5,4,18,19,16,156,23,194,15,171,38,12,12,238,15,07,09,067,17,1*50
$GPGSV,5,5,18,25,06,269,17,09,01,037,,1*6B
$GPGSV,2,1,07,196,74,061,44,195,71,115,44,11,60,041,48,199,60,167,40,8*51
$GPGSV,2,2,07,06,33,098,38,30,18,099,31,194,15,171,38,8*6A
$GLGSV,1,1,04,71,67,348,43,86,61,004,44,85,55,113,33,72,48,237,29,1*74
$GAGSV,2,1,06,19,78,089,35,33,54,078,36,12,49,341,27,04,35,208,22,7*78
$GAGSV,2,2,06,10,27,322,25,31,07,218,15,7*7F
$GAGSV,2,1,06,19,78,089,38,33,54,078,40,12,49,341,26,04,35,208,25,1*74
$GAGSV,2,2,06,10,27,322,31,31,07,218,17,1*7E
$GBGSV,4,1,14,44,88,169,43,12,66,328,37,21,65,274,40,38,53,356,45,1*78
$GBGSV,4,2,14,22,48,027,40,08,46,336,28,13,41,318,37,10,40,228,20,1*78
$GBGSV,4,3,14,07,37,208,21,35,35,142,44,40,35,197,25,34,34,321,34,1*74
$GBGSV,4,4,14,39,32,170,42,42,18,238,23,1*7F
$GBGSV,2,1,08,44,88,169,41,21,65,274,38,38,53,356,44,22,48,027,43,4*7A
$GBGSV,2,2,08,35,35,142,42,40,35,197,19,34,34,321,34,39,32,170,40,4*71
$GNACCURACY,3.3*16
$PAIRSAT,1,33,1,0,200,2,0,200,3,0,200,4,0,200,5,0,201,6,0,221,7,0,200,8,0,200,9,0,200,11,0,221,12,0,200,13,0,201,14,0,200,15,0,201,16,0,200,17,0,200,18,0,200,19,0,201,20,0,201,21,0,200,23,0,200,24,0,200,25,0,220,26,0,200,27,0,200,28,0,200,29,0,201,30,0,221,31,0,200,194,0,621,195,0,621,196,0,620,199,0,621*6C
$PAIRSAT,2,24,65,0,200,66,0,200,67,0,200,68,0,200,69,0,200,70,0,200,71,0,201,72,0,201,73,0,200,74,0,200,75,0,200,76,0,200,77,0,200,78,0,200,79,0,200,80,0,200,81,0,200,82,0,200,83,0,200,84,0,200,85,0,201,86,0,201,87,0,200,88,0,200*7A
$PAIRSAT,3,22,2,0,200,4,0,1221,5,0,200,7,0,1200,8,0,200,9,0,1200,10,0,1221,11,0,1200,12,0,1221,13,0,1200,15,0,1200,19,0,1221,21,0,1000,24,0,1200,25,0,1200,26,0,1200,27,0,1200,30,0,200,31,0,220,33,0,1221,34,0,1200,36,0,200*75
$PAIRSAT,4,45,1,0,200,2,0,200,3,0,201,4,0,200,5,0,200,6,0,200,7,0,201,8,0,201,9,0,200,10,0,201,11,0,200,12,0,201,13,0,201,14,0,200,16,0,201,19,0,600,20,0,600,21,0,621,22,0,621,23,0,600,24,0,600,25,0,600,26,0,600,27,0,600,28,0,600,29,0,600,30,0,600,32,0,600,33,0,600,34,0,621,35,0,621,36,0,600,37,0,600,38,0,621,39,0,621,40,0,621,41,0,400,42,0,421,43,0,400,44,0,621,45,0,600,46,0,600,59,0,400,60,0,400,61,0,400*62
$PAIRDGP,11,5,6,7,9,11,13,15,19,20,29,30*50
$GNGGA,095807.000,2500.8077037,N,12132.4776407,E,2,55,0.53,18.357,M,15.25,M,36,3335*75
$GNRMC,095807.000,A,2500.8077037,N,12132.4776407,E,2.04,323.35,120523,,,D,V*00
$GNACCURACY,3.3*16
$GNGGA,095807.100,2500.8077517,N,12132.4776107,E,2,55,0.53,18.373,M,15.25,M,36,3335*70
$GNRMC,095807.100,A,2500.8077517,N,12132.4776107,E,1.86,323.68,120523,,,D,V*02
$GNACCURACY,3.3*16
$GNGGA,095807.200,2500.8077997,N,12132.4775807,E,2,55,0.53,18.383,M,15.25,M,36,3335*72
$GNRMC,095807.200,A,2500.8077997,N,12132.4775807,E,1.80,320.07,120523,,,D,V*03
$GNACCURACY,3.3*16
$GNGGA,095807.300,2500.8078417,N,12132.4775507,E,2,55,0.53,18.388,M,15.25,M,36,3335*7F
$GNRMC,095807.300,A,2500.8078417,N,12132.4775507,E,1.74,317.58,120523,,,D,V*00
$GNACCURACY,3.3*16
$GNGGA,095807.400,2500.8078897,N,12132.4775207,E,2,55,0.53,18.394,M,15.25,M,36,3335*76
$GNRMC,095807.400,A,2500.8078897,N,12132.4775207,E,1.71,315.92,120523,,,D,V*05
$GNACCURACY,3.4*11
$GNGGA,095807.500,2500.8079257,N,12132.4774787,E,2,55,0.53,18.400,M,15.25,M,36,3335*76
$GNRMC,095807.500,A,2500.8079257,N,12132.4774787,E,1.79,311.83,120523,,,D,V*03
$GNACCURACY,3.4*11
$GNGGA,095807.600,2500.8079737,N,12132.4774427,E,2,55,0.53,18.403,M,15.25,M,36,3335*7C
$GNRMC,095807.600,A,2500.8079737,N,12132.4774427,E,1.79,313.72,120523,,,D,V*06
$GNACCURACY,3.4*11
$GNGGA,095807.700,2500.8080217,N,12132.4774007,E,2,55,0.53,18.413,M,15.25,M,36,3335*7B
$GNRMC,095807.700,A,2500.8080217,N,12132.4774007,E,1.94,314.63,120523,,,D,V*04
$GNACCURACY,3.4*11
$GNGGA,095807.800,2500.8080697,N,12132.4773647,E,2,55,0.53,18.410,M,15.25,M,36,3335*7E
$GNRMC,095807.800,A,2500.8080697,N,12132.4773647,E,1.76,316.34,120523,,,D,V*0E
$GNACCURACY,3.4*11
$GNGGA,095807.900,2500.8081177,N,12132.4773407,E,2,54,0.53,18.425,M,15.25,M,36,3335*76
$GNRMC,095807.900,A,2500.8081177,N,12132.4773407,E,1.70,318.47,120523,,,D,V*0D
$GNGSA,A,3,196,195,199,11,20,13,05,06,15,29,30,194,0.86,0.53,0.68,1*06
$GNGSA,A,3,71,86,85,72,,,,,,,,,0.86,0.53,0.68,2*04
$GNGSA,A,3,19,33,12,04,10,,,,,,,,0.86,0.53,0.68,3*0B
$GNGSA,A,3,44,12,21,38,22,08,13,10,07,35,40,34,0.86,0.53,0.68,4*00
$GNGSA,A,3,39,,,,,,,,,,,,0.86,0.53,0.68,4*08
$GPGSV,5,1,18,196,74,061,41,195,71,115,40,199,60,167,32,50,60,167,34,1*5E
$GPGSV,5,2,18,11,60,041,41,20,54,354,46,13,50,184,30,05,50,309,33,1*6C
$GPGSV,5,3,18,06,33,098,36,15,25,215,28,29,23,318,36,30,18,099,21,1*6A
$GPGSV,5,4,18,19,16,156,21,194,15,171,40,12,12,238,14,07,09,067,17,1*5C
$GPGSV,5,5,18,25,06,269,18,09,01,037,,1*64
$GPGSV,2,1,07,196,74,061,45,195,71,115,44,11,60,041,49,199,60,167,39,8*5F
$GPGSV,2,2,07,06,33,098,43,30,18,099,29,194,15,171,31,8*66
$GLGSV,1,1,04,71,67,348,43,86,61,004,43,85,55,113,36,72,48,237,31,1*7F
$GAGSV,2,1,06,19,78,088,34,33,54,078,36,12,49,341,24,04,35,208,21,7*78
$GAGSV,2,2,06,10,27,322,22,31,07,218,16,7*7B
$GAGSV,2,1,06,19,78,088,37,33,54,078,41,12,49,341,30,04,35,208,22,1*7B
$GAGSV,2,2,06,10,27,322,28,31,07,218,16,1*77
$GBGSV,4,1,14,44,88,169,41,12,66,328,41,21,65,274,36,38,53,356,45,1*7A
$GBGSV,4,2,14,22,48,027,44,08,46,336,24,13,41,318,37,10,40,228,24,1*74
$GBGSV,4,3,14,07,37,208,21,35,35,142,44,40,35,197,25,34,34,321,41,1*76
$GBGSV,4,4,14,39,32,170,37,42,18,238,21,1*7F
$GBGSV,2,1,08,44,88,169,43,21,65,274,29,38,53,356,45,22,48,027,44,4*7E
$GBGSV,2,2,08,35,35,142,40,40,35,197,18,34,34,321,38,39,32,170,39,4*70
$GNACCURACY,3.4*11
$PAIRSAT,1,33,1,0,200,2,0,200,3,0,200,4,0,200,5,0,201,6,0,221,7,0,200,8,0,200,9,0,200,11,0,221,12,0,200,13,0,201,14,0,200,15,0,201,16,0,200,17,0,200,18,0,200,19,0,201,20,0,201,21,0,200,23,0,200,24,0,200,25,0,220,26,0,200,27,0,200,28,0,200,29,0,201,30,0,221,31,0,200,194,0,621,195,0,621,196,0,620,199,0,621*6C
$PAIRSAT,2,24,65,0,200,66,0,200,67,0,200,68,0,200,69,0,200,70,0,200,71,0,201,72,0,201,73,0,200,74,0,200,75,0,200,76,0,200,77,0,200,78,0,200,79,0,200,80,0,200,81,0,200,82,0,200,83,0,200,84,0,200,85,0,201,86,0,201,87,0,200,88,0,200*7A
$PAIRSAT,3,22,2,0,200,4,0,1221,5,0,200,7,0,1200,8,0,200,9,0,1200,10,0,1221,11,0,1200,12,0,1221,13,0,1200,15,0,1200,19,0,1221,21,0,1000,24,0,1200,25,0,1200,26,0,1200,27,0,1200,30,0,200,31,0,220,33,0,1221,34,0,1200,36,0,200*75
$PAIRSAT,4,45,1,0,200,2,0,200,3,0,201,4,0,200,5,0,200,6,0,200,7,0,201,8,0,201,9,0,200,10,0,201,11,0,200,12,0,201,13,0,201,14,0,200,16,0,201,19,0,600,20,0,600,21,0,621,22,0,621,23,0,600,24,0,600,25,0,600,26,0,600,27,0,600,28,0,600,29,0,600,30,0,600,32,0,600,33,0,600,34,0,621,35,0,621,36,0,600,37,0,600,38,0,621,39,0,621,40,0,621,41,0,400,42,0,421,43,0,400,44,0,621,45,0,600,46,0,600,59,0,400,60,0,400,61,0,400*62
$PAIRDGP,11,5,6,7,9,11,13,15,19,20,29,30*50
$GNGGA,095808.000,2500.8081597,N,12132.4773107,E,2,54,0.53,18.439,M,15.25,M,37,3335*73
$GNRMC,095808.000,A,2500.8081597,N,12132.4773107,E,1.47,319.08,120523,,,D,V*0A
$GNACCURACY,3.4*11
$GNGGA,095808.100,2500.8081957,N,12132.4772567,E,2,54,0.53,18.449,M,15.25,M,37,3335*76
$GNRMC,095808.100,A,2500.8081957,N,12132.4772567,E,1.60,310.95,120523,,,D,V*00
$GNACCURACY,3.4*11
$GNGGA,095808.200,2500.8082437,N,12132.4772207,E,2,53,0.53,18.439,M,15.25,M,37,3335*7C
$GNRMC,095808.200,A,2500.8082437,N,12132.4772207,E,1.69,315.75,120523,,,D,V*08
$GNACCURACY,3.4*11
$GNGGA,095808.300,2500.8082917,N,12132.4771727,E,2,53,0.53,18.434,M,15.25,M,37,3335*7B
$GNRMC,095808.300,A,2500.8082917,N,12132.4771727,E,1.86,314.19,120523,,,D,V*08
$GNACCURACY,3.4*11
$GNGGA,095808.400,2500.8083457,N,12132.4771427,E,2,55,0.53,18.443,M,15.25,M,37,3335*71
$GNRMC,095808.400,A,2500.8083457,N,12132.4771427,E,1.86,318.31,120523,,,D,V*02
$GNACCURACY,3.4*11
$GNGGA,095808.500,2500.8083937,N,12132.4771067,E,2,55,0.53,18.435,M,15.25,M,37,3335*7A
$GNRMC,095808.500,A,2500.8083937,N,12132.4771067,E,1.88,320.17,120523,,,D,V*09
$GNACCURACY,3.4*11
$GNGGA,095808.600,2500.8084357,N,12132.4770827,E,2,55,0.53,18.438,M,15.25,M,37,3335*72
$GNRMC,095808.600,A,2500.8084357,N,12132.4770827,E,1.70,320.01,120523,,,D,V*0C
$GNACCURACY,3.4*11
$GNGGA,095808.700,2500.8084837,N,12132.4770647,E,2,55,0.53,18.441,M,15.25,M,37,3335*78
$GNRMC,095808.700,A,2500.8084837,N,12132.4770647,E,1.79,327.12,120523,,,D,V*04
$GNACCURACY,3.4*11
$GNGGA,095808.800,2500.8085317,N,12132.4770407,E,2,55,0.53,18.429,M,15.25,M,37,3335*77
$GNRMC,095808.800,A,2500.8085317,N,12132.4770407,E,1.74,323.33,120523,,,D,V*0F
$GNACCURACY,3.4*11
$GNGGA,095808.900,2500.8085737,N,12132.4770047,E,2,55,0.53,18.421,M,15.25,M,37,3335*78
$GNRMC,095808.900,A,2500.8085737,N,12132.4770047,E,1.84,316.07,120523,,,D,V*06
$GNGSA,A,3,196,195,199,11,20,13,05,06,15,29,30,19,0.84,0.53,0.66,1*3E
$GNGSA,A,3,194,,,,,,,,,,,,0.84,0.53,0.66,1*37
$GNGSA,A,3,71,86,85,72,,,,,,,,,0.84,0.53,0.66,2*08
$GNGSA,A,3,19,33,12,04,10,,,,,,,,0.84,0.53,0.66,3*07
$GNGSA,A,3,44,12,21,38,22,08,13,10,07,35,40,34,0.84,0.53,0.66,4*0C
$GNGSA,A,3,39,,,,,,,,,,,,0.84,0.53,0.66,4*04
$GPGSV,5,1,18,196,74,061,43,195,71,115,40,199,60,167,27,50,60,167,30,1*5C
$GPGSV,5,2,18,11,60,041,44,20,54,354,43,13,50,184,33,05,50,309,31,1*6D
$GPGSV,5,3,18,06,33,098,39,15,25,215,26,29,23,318,38,30,18,099,22,1*66
$GPGSV,5,4,18,19,16,156,20,194,15,171,36,12,12,238,14,07,09,067,17,1*5C
$GPGSV,5,5,18,25,06,269,18,09,01,037,,1*64
$GPGSV,2,1,07,196,74,061,46,195,71,115,42,11,60,041,48,199,60,167,29,8*5A
$GPGSV,2,2,07,06,33,098,25,30,18,099,30,194,15,171,27,8*69
$GLGSV,1,1,04,71,67,348,43,86,61,004,43,85,55,113,30,72,48,237,33,1*7B
$GAGSV,2,1,06,19,78,088,36,33,54,079,41,12,49,341,24,04,35,208,23,7*79
$GAGSV,2,2,06,10,27,322,20,31,07,218,15,7*7A
$GAGSV,2,1,06,19,78,088,39,33,54,079,44,12,49,341,26,04,35,208,21,1*75
$GAGSV,2,2,06,10,27,322,32,31,07,218,15,1*7F
$GBGSV,4,1,14,44,88,169,43,12,66,328,36,21,65,274,37,38,53,356,42,1*7E
$GBGSV,4,2,14,22,48,027,45,08,46,336,21,13,41,318,37,10,40,228,30,1*75
$GBGSV,4,3,14,07,37,208,20,35,35,142,43,40,35,197,22,34,34,321,40,1*76
$GBGSV,4,4,14,39,32,170,33,42,18,238,20,1*7A
$GBGSV,2,1,08,44,88,169,45,21,65,274,37,38,53,356,45,22,48,027,44,4*77
$GBGSV,2,2,08,35,35,142,39,40,35,197,20,34,34,321,37,39,32,170,35,4*76
$GNACCURACY,3.4*11
$PAIRSAT,1,33,1,0,200,2,0,200,3,0,200,4,0,200,5,0,201,6,0,221,7,0,200,8,0,200,9,0,200,11,0,221,12,0,200,13,0,201,14,0,200,15,0,201,16,0,200,17,0,200,18,0,200,19,0,201,20,0,201,21,0,200,23,0,200,24,0,200,25,0,220,26,0,200,27,0,200,28,0,200,29,0,201,30,0,221,31,0,200,194,0,621,195,0,621,196,0,620,199,0,621*6C
$PAIRSAT,2,24,65,0,200,66,0,200,67,0,200,68,0,200,69,0,200,70,0,200,71,0,201,72,0,201,73,0,200,74,0,200,75,0,200,76,0,200,77,0,200,78,0,200,79,0,200,80,0,200,81,0,200,82,0,200,83,0,200,84,0,200,85,0,201,86,0,201,87,0,200,88,0,200*7A
$PAIRSAT,3,22,2,0,200,4,0,1221,5,0,200,7,0,1200,8,0,200,9,0,1200,10,0,1221,11,0,1200,12,0,1221,13,0,1200,15,0,1200,19,0,1221,21,0,1000,24,0,1200,25,0,1200,26,0,1200,27,0,1200,30,0,200,31,0,220,33,0,1221,34,0,1200,36,0,200*75
$PAIRSAT,4,45,1,0,200,2,0,200,3,0,201,4,0,200,5,0,200,6,0,200,7,0,201,8,0,201,9,0,200,10,0,201,11,0,200,12,0,201,13,0,201,14,0,200,16,0,201,19,0,600,20,0,600,21,0,621,22,0,621,23,0,600,24,0,600,25,0,600,26,0,600,27,0,600,28,0,600,29,0,600,30,0,600,32,0,600,33,0,600,34,0,621,35,0,621,36,0,600,37,0,600,38,0,621,39,0,621,40,0,621,41,0,400,42,0,421,43,0,400,44,0,621,45,0,600,46,0,600,59,0,400,60,0,400,61,0,400*62
$PAIRDGP,11,5,6,7,9,11,13,15,19,20,29,30*50
$GNGGA,095809.000,2500.8086157,N,12132.4769627,E,2,55,0.53,18.434,M,15.25,M,38,3335*70
$GNRMC,095809.000,A,2500.8086157,N,12132.4769627,E,1.94,316.95,120523,,,D,V*0F
$GNACCURACY,3.9*1C
$GNGGA,095809.100,2500.8086637,N,12132.4769147,E,2,54,0.53,18.440,M,15.25,M,38,3335*73
$GNRMC,095809.100,A,2500.8086637,N,12132.4769147,E,1.94,314.27,120523,,,D,V*05
$GNACCURACY,3.9*1C
$GNGGA,095809.200,2500.8087057,N,12132.4768667,E,2,55,0.53,18.446,M,15.25,M,38,3335*72
$GNRMC,095809.200,A,2500.8087057,N,12132.4768667,E,1.91,312.82,120523,,,D,V*0F
$GNACCURACY,3.9*1C
$GNGGA,095809.300,2500.8087477,N,12132.4768367,E,2,55,0.53,18.446,M,15.25,M,38,3335*70
$GNRMC,095809.300,A,2500.8087477,N,12132.4768367,E,1.86,316.52,120523,,,D,V*02
$GNACCURACY,3.9*1C
$GNGGA,095809.400,2500.8087957,N,12132.4768007,E,2,55,0.53,18.433,M,15.25,M,38,3335*7F
$GNRMC,095809.400,A,2500.8087957,N,12132.4768007,E,1.83,317.32,120523,,,D,V*0D
$GNACCURACY,3.9*1C
$GNGGA,095809.500,2500.8088317,N,12132.4767587,E,2,55,0.53,18.442,M,15.25,M,38,3335*7B
$GNRMC,095809.500,A,2500.8088317,N,12132.4767587,E,1.71,312.92,120523,,,D,V*0D
$GNACCURACY,3.8*1D
$GNGGA,095809.600,2500.8088737,N,12132.4767407,E,2,55,0.53,18.427,M,15.25,M,38,3335*74
$GNRMC,095809.600,A,2500.8088737,N,12132.4767407,E,1.73,313.77,120523,,,D,V*09
$GNACCURACY,3.8*1D
$GNGGA,095809.700,2500.8089157,N,12132.4767107,E,2,55,0.53,18.437,M,15.25,M,38,3335*70
$GNRMC,095809.700,A,2500.8089157,N,12132.4767107,E,1.75,315.99,120523,,,D,V*0C
$GNACCURACY,3.8*1D
$GNGGA,095809.800,2500.8089637,N,12132.4766807,E,2,54,0.53,18.456,M,15.25,M,38,3335*70
$GNRMC,095809.800,A,2500.8089637,N,12132.4766807,E,1.78,313.94,120523,,,D,V*0C
$GNACCURACY,3.8*1D
$GNGGA,095809.900,2500.8090117,N,12132.4766447,E,2,55,0.53,18.465,M,15.25,M,38,3335*75
$GNRMC,095809.900,A,2500.8090117,N,12132.4766447,E,1.92,318.03,120523,,,D,V*09
$GNGSA,A,3,196,195,199,11,20,13,05,06,15,29,30,19,0.84,0.53,0.66,1*3E
$GNGSA,A,3,194,,,,,,,,,,,,0.84,0.53,0.66,1*37
$GNGSA,A,3,71,86,85,72,,,,,,,,,0.84,0.53,0.66,2*08
$GNGSA,A,3,19,33,12,04,10,,,,,,,,0.84,0.53,0.66,3*07
$GNGSA,A,3,44,12,21,38,22,08,13,10,07,35,40,34,0.84,0.53,0.66,4*0C
$GNGSA,A,3,39,,,,,,,,,,,,0.84,0.53,0.66,4*04
$GPGSV,5,1,18,196,74,061,42,195,71,115,42,199,60,167,25,50,60,167,28,1*54
$GPGSV,5,2,18,11,60,041,44,20,54,354,40,13,50,184,24,05,50,309,30,1*69
$GPGSV,5,3,18,06,33,098,33,15,25,215,27,29,23,318,38,30,18,099,30,1*6E
$GPGSV,5,4,18,19,16,156,23,194,15,171,29,12,12,238,15,07,09,067,15,1*52
$GPGSV,5,5,18,25,06,269,18,09,01,037,,1*64
$GPGSV,2,1,07,196,74,061,47,195,71,115,43,11,60,041,47,199,60,167,36,8*5B
$GPGSV,2,2,07,06,33,098,29,30,18,099,32,194,15,171,26,8*66
$GLGSV,2,1,05,71,67,348,33,86,61,004,44,85,55,113,40,72,48,238,35,1*77
$GLGSV,2,2,05,70,21,027,,1*4C
$GAGSV,2,1,06,19,78,088,37,33,54,079,42,12,49,341,25,04,35,208,22,7*7B
$GAGSV,2,2,06,10,27,322,28,31,07,218,17,7*70
$GAGSV,2,1,05,19,78,088,40,33,54,079,43,12,49,341,28,04,35,208,24,1*74
$GAGSV,2,2,05,10,27,322,32,1*46
$GBGSV,4,1,14,44,88,169,41,12,66,328,39,21,65,274,27,38,53,356,39,1*7E
$GBGSV,4,2,14,22,48,027,45,08,46,336,21,13,41,318,37,10,40,228,25,1*71
$GBGSV,4,3,14,07,37,208,21,35,35,142,42,40,35,197,25,34,34,321,41,1*70
$GBGSV,4,4,14,39,32,170,31,42,18,238,22,1*7A
$GBGSV,2,1,08,44,88,169,41,21,65,274,35,38,53,356,40,22,48,027,47,4*77
$GBGSV,2,2,08,35,35,142,40,40,35,197,20,34,34,321,40,39,32,170,29,4*75
$GNACCURACY,3.8*1D
$PAIRSAT,1,33,1,0,200,2,0,200,3,0,200,4,0,200,5,0,201,6,0,221,7,0,200,8,0,200,9,0,200,11,0,221,12,0,200,13,0,201,14,0,200,15,0,201,16,0,200,17,0,200,18,0,200,19,0,201,20,0,201,21,0,200,23,0,200,24,0,200,25,0,220,26,0,200,27,0,200,28,0,200,29,0,201,30,0,221,31,0,200,194,0,621,195,0,621,196,0,620,199,0,621*6C
$PAIRSAT,2,24,65,0,200,66,0,200,67,0,200,68,0,200,69,0,200,70,0,200,71,0,201,72,0,201,73,0,200,74,0,200,75,0,200,76,0,200,77,0,200,78,0,200,79,0,200,80,0,200,81,0,200,82,0,200,83,0,200,84,0,200,85,0,201,86,0,201,87,0,200,88,0,200*7A
$PAIRSAT,3,22,2,0,200,4,0,1221,5,0,200,7,0,1200,8,0,200,9,0,1200,10,0,1221,11,0,1200,12,0,1221,13,0,1200,15,0,1200,19,0,1221,21,0,1000,24,0,1200,25,0,1200,26,0,1200,27,0,1200,30,0,200,31,0,220,33,0,1221,34,0,1200,36,0,200*75
$PAIRSAT,4,45,1,0,200,2,0,200,3,0,201,4,0,200,5,0,200,6,0,200,7,0,201,8,0,201,9,0,200,10,0,201,11,0,200,12,0,201,13,0,201,14,0,200,16,0,201,19,0,600,20,0,600,21,0,621,22,0,621,23,0,600,24,0,600,25,0,600,26,0,600,27,0,600,28,0,600,29,0,600,30,0,600,32,0,600,33,0,600,34,0,621,35,0,621,36,0,600,37,0,600,38,0,621,39,0,621,40,0,621,41,0,400,42,0,421,43,0,400,44,0,621,45,0,600,46,0,600,59,0,400,60,0,400,61,0,400*62
$PAIRDGP,11,5,6,7,9,11,13,15,19,20,29,30*50
$GNGGA,095810.000,2500.8090597,N,12132.4766087,E,2,55,0.53,18.478,M,15.25,M,39,3335*7D
$GNRMC,095810.000,A,2500.8090597,N,12132.4766087,E,1.88,322.73,120523,,,D,V*09
$GNACCURACY,3.8*1D
$GNGGA,095810.100,2500.8091137,N,12132.4765727,E,2,55,0.53,18.501,M,15.25,M,39,3335*72
$GNRMC,095810.100,A,2500.8091137,N,12132.4765727,E,1.87,325.60,120523,,,D,V*03
$GNACCURACY,3.8*1D
$GNGGA,095810.200,2500.8091617,N,12132.4765367,E,2,55,0.53,18.513,M,15.25,M,39,3335*77
$GNRMC,095810.200,A,2500.8091617,N,12132.4765367,E,1.83,326.68,120523,,,D,V*0A
$GNACCURACY,3.8*1D
$GNGGA,095810.300,2500.8092037,N,12132.4765127,E,2,55,0.53,18.518,M,15.25,M,39,3335*7C
$GNRMC,095810.300,A,2500.8092037,N,12132.4765127,E,1.71,326.49,120523,,,D,V*04
$GNACCURACY,3.8*1D
$GNGGA,095810.400,2500.8092517,N,12132.4764827,E,2,55,0.53,18.523,M,15.25,M,39,3335*7C
$GNRMC,095810.400,A,2500.8092517,N,12132.4764827,E,1.75,322.13,120523,,,D,V*03
$GNACCURACY,3.8*1D
$GNGGA,095810.500,2500.8092877,N,12132.4764467,E,2,55,0.53,18.520,M,15.25,M,39,3335*7D
$GNRMC,095810.500,A,2500.8092877,N,12132.4764467,E,1.72,313.40,120523,,,D,V*02
$GNACCURACY,3.6*13
$GNGGA,095810.600,2500.8093297,N,12132.4764047,E,2,53,0.53,18.518,M,15.25,M,39,3335*70
$GNRMC,095810.600,A,2500.8093297,N,12132.4764047,E,1.88,307.55,120523,,,D,V*06
$GNACCURACY,3.6*13
$GNGGA,095810.700,2500.8093657,N,12132.4763567,E,2,53,0.53,18.523,M,15.25,M,39,3335*71
$GNRMC,095810.700,A,2500.8093657,N,12132.4763567,E,1.93,308.39,120523,,,D,V*00
$GNACCURACY,3.7*12
