$FW : RTK35X,V1.0X0825AS,Lib20210517,15,0*75
$Tool : LOCOSYS , GNSS Firebird , v1.0.0.19*39
$---------------------------------------------------*2D
$GNACCURACY,3.3*16
$GNGGA,111529.600,2500.8044091,N,12132.4783392,E,2,52,0.49,18.240,M,15.25,M,17,0035*7A
$GNRMC,111529.600,A,2500.8044091,N,12132.4783392,E,0.02,289.70,100523,,,D,V*01
$GNACCURACY,3.4*11
$GNGGA,111529.700,2500.8044091,N,12132.4783272,E,2,52,0.49,18.254,M,15.25,M,17,0035*71
$GNRMC,111529.700,A,2500.8044091,N,12132.4783272,E,0.03,289.70,100523,,,D,V*0E
$GNACCURACY,3.3*16
$GNGGA,111529.800,2500.8044091,N,12132.4783152,E,2,51,0.49,18.265,M,15.25,M,17,0035*7E
$GNRMC,111529.800,A,2500.8044091,N,12132.4783152,E,0.03,289.70,100523,,,D,V*00
$GNACCURACY,3.3*16
$GNGGA,111529.900,2500.8044091,N,12132.4783032,E,2,52,0.49,18.279,M,15.25,M,17,0035*76
$GNRMC,111529.900,A,2500.8044091,N,12132.4783032,E,0.03,289.70,100523,,,D,V*06
$GNGSA,A,3,13,196,195,199,11,15,05,20,29,30,06,194,0.75,0.49,0.57,1*0D
$GNGSA,A,3,84,70,85,69,71,,,,,,,,0.75,0.49,0.57,2*00
$GNGSA,A,3,08,13,15,07,26,,,,,,,,0.75,0.49,0.57,3*03
$GNGSA,A,3,28,38,33,39,41,43,16,27,07,09,40,42,0.75,0.49,0.57,4*0E
$GPGSV,4,1,14,13,87,149,42,196,72,050,40,195,65,147,45,50,60,167,40,1*63
$GPGSV,4,2,14,199,60,167,37,11,53,105,41,15,53,240,27,05,51,000,44,1*53
$GPGSV,4,3,14,20,45,040,36,29,42,289,32,30,21,067,36,06,13,126,22,1*6E
$GPGSV,4,4,14,194,12,164,18,24,06,191,,1*5D
$GPGSV,2,1,07,196,72,050,46,195,65,147,45,199,60,167,47,11,53,105,43,8*59
$GPGSV,2,2,07,30,21,067,40,06,13,126,19,194,12,164,34,8*6D
$GLGSV,2,1,05,84,73,139,28,70,54,295,28,85,40,334,35,69,29,023,32,1*7A
$GLGSV,2,2,05,71,20,245,24,1*4C
$GAGSV,2,1,05,08,74,020,43,13,63,347,42,15,53,115,35,07,47,229,21,7*75
$GAGSV,2,2,05,26,13,320,,7*41
$GAGSV,2,1,05,08,74,020,44,13,63,347,47,15,53,115,40,07,47,229,23,1*71
$GAGSV,2,2,05,26,13,320,28,1*4D
$GBGSV,4,1,15,28,70,279,43,38,56,011,40,33,53,010,43,39,48,176,44,1*7B
$GBGSV,4,2,15,41,46,280,39,43,39,163,44,16,39,179,42,27,25,318,38,1*7D
$GBGSV,4,3,15,07,23,205,13,09,20,192,23,40,20,197,26,11,14,153,,1*79
$GBGSV,4,4,15,42,11,050,20,24,11,097,18,25,11,150,,1*41
$GBGSV,3,1,09,28,70,279,40,38,56,011,44,33,53,010,42,39,48,176,44,4*72
$GBGSV,3,2,09,41,46,280,37,43,39,163,45,27,25,318,31,40,20,197,23,4*78
$GBGSV,3,3,09,42,11,050,18,4*40
$GNACCURACY,3.4*11
$PAIRSAT,1,35,1,0,200,2,0,200,3,0,200,4,0,200,5,0,201,6,0,221,7,0,200,8,0,200,9,0,200,10,0,200,11,0,221,12,0,200,13,0,201,14,0,200,15,0,201,16,0,200,17,0,200,18,0,200,19,0,200,20,0,201,21,0,200,23,0,200,24,0,200,25,0,200,26,0,200,27,0,200,28,0,200,29,0,201,30,0,221,31,0,200,32,0,200,194,0,621,195,0,621,196,0,620,199,0,621*69
$PAIRSAT,2,24,65,0,200,66,0,200,67,0,200,68,0,200,69,0,201,70,0,201,71,0,201,72,0,200,73,0,200,74,0,200,75,0,200,76,0,200,77,0,200,78,0,200,79,0,200,80,0,200,81,0,200,82,0,200,83,0,200,84,0,201,85,0,201,86,0,200,87,0,200,88,0,200*7B
$PAIRSAT,3,22,2,0,200,4,0,1200,5,0,200,7,0,1221,8,0,1221,9,0,1200,10,0,1200,11,0,1200,12,0,1200,13,0,1221,15,0,1221,19,0,1200,21,0,1200,24,0,1200,25,0,1200,26,0,1221,27,0,1200,30,0,1200,31,0,1200,33,0,1200,34,0,1221,36,0,1200*76
$PAIRSAT,4,43,1,0,201,2,0,201,3,0,201,4,0,201,5,0,200,7,0,201,9,0,201,10,0,201,11,0,201,12,0,200,15,0,200,16,0,201,19,0,600,20,0,600,21,0,600,22,0,600,23,0,600,24,0,621,25,0,621,26,0,600,27,0,621,28,0,621,29,0,600,30,0,600,32,0,600,33,0,621,34,0,600,35,0,600,36,0,600,37,0,600,38,0,621,39,0,621,40,0,621,41,0,621,42,0,621,43,0,621,44,0,400,45,0,400,46,0,400,57,0,200,59,0,601,60,0,401,61,0,600*6B
$PAIRDGP,8,5,6,11,13,15,20,29,30*42
$GNGGA,111530.000,2500.8044031,N,12132.4782912,E,2,52,0.49,18.292,M,15.25,M,17,0035*72
$GNRMC,111530.000,A,2500.8044031,N,12132.4782912,E,0.03,289.70,100523,,,D,V*07
$GNACCURACY,3.3*16
$GNGGA,111530.100,2500.8044031,N,12132.4782792,E,2,53,0.49,18.303,M,15.25,M,17,0035*7D
$GNRMC,111530.100,A,2500.8044031,N,12132.4782792,E,0.00,289.70,100523,,,D,V*03
$GNACCURACY,3.4*11
$GNGGA,111530.200,2500.8044031,N,12132.4782732,E,2,52,0.49,18.315,M,15.25,M,17,0035*72
$GNRMC,111530.200,A,2500.8044031,N,12132.4782732,E,0.00,289.70,100523,,,D,V*0A
$GNACCURACY,3.4*11
$GNGGA,111530.300,2500.8044031,N,12132.4782612,E,2,52,0.49,18.326,M,15.25,M,17,0035*70
$GNRMC,111530.300,A,2500.8044031,N,12132.4782612,E,0.01,289.70,100523,,,D,V*09
$GNACCURACY,3.4*11
$GNGGA,111530.400,2500.8044031,N,12132.4782492,E,2,52,0.49,18.335,M,15.25,M,17,0035*7F
$GNRMC,111530.400,A,2500.8044031,N,12132.4782492,E,0.00,289.70,100523,,,D,V*05
$GNACCURACY,3.4*11
$GNGGA,111530.500,2500.8044031,N,12132.4782432,E,2,52,0.49,18.344,M,15.25,M,17,0035*72
$GNRMC,111530.500,A,2500.8044031,N,12132.4782432,E,0.00,289.70,100523,,,D,V*0E
$GNACCURACY,3.4*11
$GNGGA,111530.600,2500.8044031,N,12132.4782372,E,2,51,0.49,18.351,M,15.25,M,18,0035*7A
$GNRMC,111530.600,A,2500.8044031,N,12132.4782372,E,0.00,289.70,100523,,,D,V*0E
$GNACCURACY,3.4*11
$GNGGA,111530.700,2500.8044031,N,12132.4782312,E,2,50,0.49,18.358,M,15.25,M,18,0035*75
$GNRMC,111530.700,A,2500.8044031,N,12132.4782312,E,0.00,289.70,100523,,,D,V*09
$GNACCURACY,3.4*11
$GNGGA,111530.800,2500.8044031,N,12132.4782192,E,2,49,0.50,18.365,M,15.25,M,18,0035*7E
$GNRMC,111530.800,A,2500.8044031,N,12132.4782192,E,0.00,289.70,100523,,,D,V*0C
$GNACCURACY,3.4*11
$GNGGA,111530.900,2500.8044031,N,12132.4782132,E,2,49,0.50,18.373,M,15.25,M,18,0035*72
$GNRMC,111530.900,A,2500.8044031,N,12132.4782132,E,0.01,289.70,100523,,,D,V*06
$GNGSA,A,3,13,196,195,199,11,15,05,20,29,30,06,194,0.86,0.50,0.70,1*0C
$GNGSA,A,3,84,70,85,69,71,,,,,,,,0.86,0.50,0.70,2*01
$GNGSA,A,3,08,13,15,07,26,,,,,,,,0.86,0.50,0.70,3*02
$GNGSA,A,3,28,38,33,39,41,43,16,27,09,40,42,,0.86,0.50,0.70,4*08
$GPGSV,4,1,14,13,87,149,42,196,72,050,39,195,65,147,45,50,60,167,40,1*6D
$GPGSV,4,2,14,199,60,167,37,11,53,105,41,15,53,240,30,05,51,000,44,1*55
$GPGSV,4,3,14,20,45,040,32,29,42,289,31,30,21,067,36,06,13,126,20,1*6B
$GPGSV,4,4,14,194,12,164,17,24,06,191,,1*52
$GPGSV,2,1,07,196,72,050,45,195,65,147,44,199,60,167,47,11,53,105,43,8*5B
$GPGSV,2,2,07,30,21,067,38,06,13,126,19,194,12,164,34,8*62
$GLGSV,2,1,05,84,73,139,27,70,54,295,29,85,40,334,34,69,29,023,32,1*75
$GLGSV,2,2,05,71,20,245,23,1*4B
$GAGSV,2,1,05,08,74,020,43,13,63,347,42,15,53,115,35,07,47,229,23,7*77
$GAGSV,2,2,05,26,13,320,,7*41
$GAGSV,2,1,05,08,74,020,44,13,63,347,47,15,53,115,40,07,47,229,27,1*75
$GAGSV,2,2,05,26,13,320,27,1*42
$GBGSV,4,1,16,28,70,279,43,38,56,011,40,33,53,010,43,39,48,176,44,1*78
$GBGSV,4,2,16,41,46,280,39,43,39,163,44,16,39,179,42,10,26,221,,1*79
$GBGSV,4,3,16,27,25,318,39,07,23,205,16,09,20,192,23,40,20,197,20,1*79
$GBGSV,4,4,16,11,14,153,,42,11,050,19,24,11,097,15,25,11,150,,1*77
$GBGSV,3,1,09,28,70,279,39,38,56,011,43,33,53,010,42,39,48,176,44,4*7B
$GBGSV,3,2,09,41,46,280,36,43,39,163,45,27,25,318,31,40,20,197,25,4*7F
$GBGSV,3,3,09,42,11,050,15,4*4D
$GNACCURACY,3.4*11
$PAIRSAT,1,35,1,0,200,2,0,200,3,0,200,4,0,200,5,0,201,6,0,221,7,0,200,8,0,200,9,0,200,10,0,200,11,0,221,12,0,200,13,0,201,14,0,200,15,0,201,16,0,200,17,0,200,18,0,200,19,0,200,20,0,201,21,0,200,23,0,200,24,0,200,25,0,200,26,0,200,27,0,200,28,0,200,29,0,201,30,0,221,31,0,200,32,0,200,194,0,621,195,0,621,196,0,620,199,0,621*69
$PAIRSAT,2,24,65,0,200,66,0,200,67,0,200,68,0,200,69,0,201,70,0,201,71,0,201,72,0,200,73,0,200,74,0,200,75,0,200,76,0,200,77,0,200,78,0,200,79,0,200,80,0,200,81,0,200,82,0,200,83,0,200,84,0,201,85,0,201,86,0,200,87,0,200,88,0,200*7B
$PAIRSAT,3,22,2,0,200,4,0,1200,5,0,200,7,0,1221,8,0,1221,9,0,1200,10,0,1200,11,0,1200,12,0,1200,13,0,1221,15,0,1221,19,0,1200,21,0,1200,24,0,1200,25,0,1200,26,0,1221,27,0,1200,30,0,1200,31,0,1200,33,0,1200,34,0,1221,36,0,1200*76
$PAIRSAT,4,43,1,0,201,2,0,201,3,0,201,4,0,201,5,0,200,7,0,201,9,0,201,10,0,201,11,0,201,12,0,200,15,0,200,16,0,201,19,0,600,20,0,600,21,0,600,22,0,600,23,0,600,24,0,621,25,0,621,26,0,600,27,0,621,28,0,621,29,0,600,30,0,600,32,0,600,33,0,621,34,0,600,35,0,600,36,0,600,37,0,600,38,0,621,39,0,621,40,0,621,41,0,621,42,0,621,43,0,621,44,0,400,45,0,400,46,0,400,57,0,200,59,0,601,60,0,401,61,0,600*6B
$PAIRDGP,8,5,6,11,13,15,20,29,30*42
$GNGGA,111531.000,2500.8044031,N,12132.4782072,E,2,49,0.50,18.379,M,15.25,M,18,0035*75
$GNRMC,111531.000,A,2500.8044031,N,12132.4782072,E,0.00,289.70,100523,,,D,V*0A
$GNACCURACY,3.4*11
$GNGGA,111531.100,2500.8044031,N,12132.4782012,E,2,49,0.50,18.387,M,15.25,M,18,0035*73
$GNRMC,111531.100,A,2500.8044031,N,12132.4782012,E,0.00,289.70,100523,,,D,V*0D
$GNACCURACY,3.4*11
$GNGGA,111531.200,2500.8043971,N,12132.4781952,E,2,49,0.50,18.392,M,15.25,M,18,0035*70
$GNRMC,111531.200,A,2500.8043971,N,12132.4781952,E,0.00,289.70,100523,,,D,V*0A
$GNACCURACY,3.4*11
$GNGGA,111531.300,2500.8043971,N,12132.4781832,E,2,50,0.50,18.400,M,15.25,M,18,0035*72
$GNRMC,111531.300,A,2500.8043971,N,12132.4781832,E,0.00,289.70,100523,,,D,V*0C
$GNACCURACY,3.4*11
$GNGGA,111531.400,2500.8043971,N,12132.4781832,E,2,50,0.50,18.407,M,15.25,M,18,0035*72
$GNRMC,111531.400,A,2500.8043971,N,12132.4781832,E,0.00,289.70,100523,,,D,V*0B
$GNACCURACY,3.4*11
$GNGGA,111531.500,2500.8043911,N,12132.4781712,E,2,50,0.50,18.415,M,15.25,M,18,0035*7B
$GNRMC,111531.500,A,2500.8043911,N,12132.4781712,E,0.00,289.70,100523,,,D,V*01
$GNACCURACY,3.4*11
$GNGGA,111531.600,2500.8043911,N,12132.4781592,E,2,49,0.51,18.420,M,15.25,M,19,0035*7C
$GNRMC,111531.600,A,2500.8043911,N,12132.4781592,E,0.00,289.70,100523,,,D,V*08
$GNACCURACY,3.4*11
$GNGGA,111531.700,2500.8043851,N,12132.4781472,E,2,49,0.51,18.424,M,15.25,M,19,0035*73
$GNRMC,111531.700,A,2500.8043851,N,12132.4781472,E,0.00,289.70,100523,,,D,V*03
$GNACCURACY,3.4*11
$GNGGA,111531.800,2500.8043851,N,12132.4781352,E,2,50,0.51,18.428,M,15.25,M,19,0035*7D
$GNRMC,111531.800,A,2500.8043851,N,12132.4781352,E,0.00,289.70,100523,,,D,V*09
$GNACCURACY,3.4*11
$GNGGA,111531.900,2500.8043851,N,12132.4781292,E,2,50,0.51,18.433,M,15.25,M,19,0035*7B
$GNRMC,111531.900,A,2500.8043851,N,12132.4781292,E,0.01,289.70,100523,,,D,V*04
$GNGSA,A,3,13,196,195,199,15,11,05,20,29,30,06,194,0.87,0.50,0.71,1*0C
$GNGSA,A,3,84,70,85,69,71,,,,,,,,0.87,0.50,0.71,2*01
$GNGSA,A,3,08,13,15,07,26,,,,,,,,0.87,0.50,0.71,3*02
$GNGSA,A,3,28,38,33,39,41,16,43,27,07,40,42,,0.87,0.50,0.71,4*06
$GPGSV,4,1,14,13,87,149,42,196,72,050,39,195,65,147,45,50,60,167,40,1*6D
$GPGSV,4,2,14,199,60,167,37,15,53,240,26,11,53,105,41,05,51,000,44,1*52
$GPGSV,4,3,14,20,45,040,30,29,42,289,34,30,21,067,35,06,13,126,20,1*6F
$GPGSV,4,4,14,194,12,164,18,24,06,191,,1*5D
$GPGSV,2,1,07,196,72,050,46,195,65,147,44,199,60,167,47,11,53,105,44,8*5F
$GPGSV,2,2,07,30,21,067,37,06,13,126,18,194,12,164,34,8*6C
$GLGSV,2,1,05,84,73,139,27,70,54,295,29,85,40,334,34,69,29,023,32,1*75
$GLGSV,2,2,05,71,20,245,20,1*48
$GAGSV,2,1,06,08,74,020,43,13,63,347,43,15,53,115,35,07,47,229,21,7*77
$GAGSV,2,2,06,26,13,320,18,34,05,132,,7*79
$GAGSV,2,1,05,08,74,020,42,13,63,347,47,15,53,115,38,07,47,229,25,1*7E
$GAGSV,2,2,05,26,13,320,29,1*4C
$GBGSV,4,1,16,28,70,279,43,38,56,011,41,33,53,010,44,39,48,176,44,1*7E
$GBGSV,4,2,16,41,46,280,39,16,40,179,42,43,39,163,44,10,26,221,,1*77
$GBGSV,4,3,16,27,25,318,39,07,23,205,20,40,20,197,23,09,20,192,20,1*7C
$GBGSV,4,4,16,11,14,153,,42,11,050,19,25,11,150,,24,11,097,12,1*70
$GBGSV,3,1,09,28,70,279,39,38,56,011,43,33,53,010,42,39,48,176,44,4*7B
$GBGSV,3,2,09,41,46,280,37,43,39,163,45,27,25,318,33,40,20,197,25,4*7C
$GBGSV,3,3,09,42,11,050,16,4*4E
$GNACCURACY,3.4*11
$PAIRSAT,1,35,1,0,200,2,0,200,3,0,200,4,0,200,5,0,201,6,0,221,7,0,200,8,0,200,9,0,200,10,0,200,11,0,221,12,0,200,13,0,201,14,0,200,15,0,201,16,0,200,17,0,200,18,0,200,19,0,200,20,0,201,21,0,200,23,0,200,24,0,200,25,0,200,26,0,200,27,0,200,28,0,200,29,0,201,30,0,221,31,0,200,32,0,200,194,0,621,195,0,621,196,0,620,199,0,621*69
$PAIRSAT,2,24,65,0,200,66,0,200,67,0,200,68,0,200,69,0,201,70,0,201,71,0,201,72,0,200,73,0,200,74,0,200,75,0,200,76,0,200,77,0,200,78,0,200,79,0,200,80,0,200,81,0,200,82,0,200,83,0,200,84,0,201,85,0,201,86,0,200,87,0,200,88,0,200*7B
$PAIRSAT,3,22,2,0,200,4,0,1200,5,0,200,7,0,1221,8,0,1221,9,0,1200,10,0,1200,11,0,1200,12,0,1200,13,0,1221,15,0,1221,19,0,1200,21,0,1200,24,0,1200,25,0,1200,26,0,1221,27,0,1200,30,0,1200,31,0,1200,33,0,1200,34,0,1221,36,0,1200*76
$PAIRSAT,4,43,1,0,201,2,0,201,3,0,201,4,0,201,5,0,200,7,0,201,9,0,201,10,0,201,11,0,201,12,0,200,15,0,200,16,0,201,19,0,600,20,0,600,21,0,600,22,0,600,23,0,600,24,0,621,25,0,621,26,0,600,27,0,621,28,0,621,29,0,600,30,0,600,32,0,600,33,0,621,34,0,600,35,0,600,36,0,600,37,0,600,38,0,621,39,0,621,40,0,621,41,0,621,42,0,621,43,0,621,44,0,400,45,0,400,46,0,400,57,0,200,59,0,601,60,0,401,61,0,600*6B
$PAIRDGP,8,5,6,11,13,15,20,29,30*42
$GNGGA,111532.000,2500.8043851,N,12132.4781232,E,2,52,0.50,18.439,M,15.25,M,19,0035*72
$GNRMC,111532.000,A,2500.8043851,N,12132.4781232,E,0.01,289.70,100523,,,D,V*04
$GNACCURACY,3.4*11
$GNGGA,111532.100,2500.8043791,N,12132.4781172,E,2,52,0.50,18.443,M,15.25,M,19,0035*7A
$GNRMC,111532.100,A,2500.8043791,N,12132.4781172,E,0.00,289.70,100523,,,D,V*00
$GNACCURACY,3.4*11
$GNGGA,111532.200,2500.8043791,N,12132.4781112,E,2,52,0.50,18.447,M,15.25,M,19,0035*7B
$GNRMC,111532.200,A,2500.8043791,N,12132.4781112,E,0.00,289.70,100523,,,D,V*05
$GNACCURACY,3.4*11
$GNGGA,111532.300,2500.8043731,N,12132.4780992,E,2,52,0.50,18.449,M,15.25,M,19,0035*7F
$GNRMC,111532.300,A,2500.8043731,N,12132.4780992,E,0.00,289.70,100523,,,D,V*0F
$GNACCURACY,3.4*11
$GNGGA,111532.400,2500.8043731,N,12132.4780932,E,2,52,0.50,18.450,M,15.25,M,19,0035*7A
$GNRMC,111532.400,A,2500.8043731,N,12132.4780932,E,0.00,289.70,100523,,,D,V*02
$GNACCURACY,3.4*11
$GNGGA,111532.500,2500.8043671,N,12132.4780872,E,2,53,0.49,18.456,M,15.25,M,19,0035*74
$GNRMC,111532.500,A,2500.8043671,N,12132.4780872,E,0.00,289.70,100523,,,D,V*03
$GNACCURACY,3.4*11
$GNGGA,111532.600,2500.8043671,N,12132.4780812,E,2,52,0.50,18.457,M,15.25,M,20,0035*73
$GNRMC,111532.600,A,2500.8043671,N,12132.4780812,E,0.00,289.70,100523,,,D,V*06
$GNACCURACY,3.4*11
$GNGGA,111532.700,2500.8043611,N,12132.4780752,E,2,52,0.49,18.460,M,15.25,M,20,0035*73
$GNRMC,111532.700,A,2500.8043611,N,12132.4780752,E,0.00,289.70,100523,,,D,V*0A
$GNACCURACY,3.4*11
$GNGGA,111532.800,2500.8043491,N,12132.4780692,E,2,52,0.50,18.460,M,15.25,M,20,0035*73
$GNRMC,111532.800,A,2500.8043491,N,12132.4780692,E,0.00,289.70,100523,,,D,V*02
$GNACCURACY,3.4*11
$GNGGA,111532.900,2500.8043431,N,12132.4780632,E,2,52,0.50,18.461,M,15.25,M,20,0035*73
$GNRMC,111532.900,A,2500.8043431,N,12132.4780632,E,0.00,289.70,100523,,,D,V*03
$GNGSA,A,3,13,196,195,199,15,11,05,20,29,30,06,194,0.85,0.49,0.69,1*0F
$GNGSA,A,3,84,70,85,69,71,,,,,,,,0.85,0.49,0.69,2*02
$GNGSA,A,3,08,13,15,07,26,,,,,,,,0.85,0.49,0.69,3*01
$GNGSA,A,3,28,38,33,39,41,16,43,27,07,40,09,42,0.85,0.49,0.69,4*0C
$GPGSV,4,1,14,13,87,149,42,196,72,050,41,195,65,147,45,50,60,167,41,1*63
$GPGSV,4,2,14,199,60,167,38,15,53,240,20,11,53,105,40,05,51,000,44,1*5A
$GPGSV,4,3,14,20,45,040,32,29,42,289,33,30,21,067,34,06,13,126,18,1*60
$GPGSV,4,4,14,194,12,164,21,24,06,191,,1*57
$GPGSV,2,1,07,196,72,050,45,195,65,147,45,199,60,167,47,11,53,105,44,8*5D
$GPGSV,2,2,07,30,21,067,38,06,13,126,18,194,12,164,31,8*66
$GLGSV,2,1,05,84,73,139,29,70,54,295,29,85,40,334,33,69,29,023,31,1*7F
$GLGSV,2,2,05,71,20,245,18,1*43
$GAGSV,2,1,06,08,74,020,44,13,63,347,43,15,53,115,35,07,47,229,23,7*72
$GAGSV,2,2,06,26,13,320,14,34,05,132,,7*75
$GAGSV,2,1,05,08,74,020,42,13,63,347,47,15,53,115,39,07,47,229,20,1*7A
$GAGSV,2,2,05,26,13,320,29,1*4C
$GBGSV,4,1,16,28,70,279,42,38,56,011,41,33,53,010,43,39,48,176,44,1*78
$GBGSV,4,2,16,41,46,280,37,16,40,179,42,43,39,163,44,10,26,221,,1*79
$GBGSV,4,3,16,27,25,318,38,07,23,205,20,40,20,197,24,09,20,192,21,1*7B
$GBGSV,4,4,16,11,14,153,,42,11,050,18,25,11,150,,24,11,097,18,1*7B
$GBGSV,3,1,09,28,70,279,39,38,56,011,44,33,53,010,42,39,48,176,44,4*7C
$GBGSV,3,2,09,41,46,280,37,43,39,163,45,27,25,318,33,40,20,197,28,4*71
$GBGSV,3,3,09,42,11,050,16,4*4E
$GNACCURACY,3.4*11
$PAIRSAT,1,35,1,0,200,2,0,200,3,0,200,4,0,200,5,0,201,6,0,221,7,0,200,8,0,200,9,0,200,10,0,200,11,0,221,12,0,200,13,0,201,14,0,200,15,0,201,16,0,200,17,0,200,18,0,200,19,0,200,20,0,201,21,0,200,23,0,200,24,0,200,25,0,200,26,0,200,27,0,200,28,0,200,29,0,201,30,0,221,31,0,200,32,0,200,194,0,621,195,0,621,196,0,620,199,0,621*69
$PAIRSAT,2,24,65,0,200,66,0,200,67,0,200,68,0,200,69,0,201,70,0,201,71,0,201,72,0,200,73,0,200,74,0,200,75,0,200,76,0,200,77,0,200,78,0,200,79,0,200,80,0,200,81,0,200,82,0,200,83,0,200,84,0,201,85,0,201,86,0,200,87,0,200,88,0,200*7B
$PAIRSAT,3,22,2,0,200,4,0,1200,5,0,200,7,0,1221,8,0,1221,9,0,1200,10,0,1200,11,0,1200,12,0,1200,13,0,1221,15,0,1221,19,0,1200,21,0,1200,24,0,1200,25,0,1200,26,0,1221,27,0,1200,30,0,1200,31,0,1200,33,0,1200,34,0,1221,36,0,1200*76
$PAIRSAT,4,43,1,0,201,2,0,201,3,0,201,4,0,201,5,0,200,7,0,201,9,0,201,10,0,201,11,0,201,12,0,200,15,0,200,16,0,201,19,0,600,20,0,600,21,0,600,22,0,600,23,0,600,24,0,621,25,0,621,26,0,600,27,0,621,28,0,621,29,0,600,30,0,600,32,0,600,33,0,621,34,0,600,35,0,600,36,0,600,37,0,600,38,0,621,39,0,621,40,0,621,41,0,621,42,0,621,43,0,621,44,0,400,45,0,400,46,0,400,57,0,200,59,0,601,60,0,401,61,0,600*6B
$PAIRDGP,8,5,6,11,13,15,20,29,30*42
$GNGGA,111533.000,2500.8043371,N,12132.4780512,E,2,53,0.49,18.464,M,15.25,M,20,0035*75
$GNRMC,111533.000,A,2500.8043371,N,12132.4780512,E,0.00,289.70,100523,,,D,V*09
$GNACCURACY,3.4*11
$GNGGA,111533.100,2500.8043311,N,12132.4780332,E,2,51,0.50,18.464,M,15.25,M,20,0035*7C
$GNRMC,111533.100,A,2500.8043311,N,12132.4780332,E,0.01,289.70,100523,,,D,V*0B
$GNACCURACY,3.4*11
$GNGGA,111533.200,2500.8043191,N,12132.4780212,E,2,52,0.50,18.469,M,15.25,M,20,0035*78
$GNRMC,111533.200,A,2500.8043191,N,12132.4780212,E,0.01,289.70,100523,,,D,V*01
$GNACCURACY,3.4*11
$GNGGA,111533.300,2500.8043131,N,12132.4780092,E,2,53,0.49,18.477,M,15.25,M,20,0035*7F
$GNRMC,111533.300,A,2500.8043131,N,12132.4780092,E,0.02,289.70,100523,,,D,V*03
$GNACCURACY,3.4*11
$GNGGA,111533.400,2500.8043071,N,12132.4780032,E,2,53,0.49,18.485,M,15.25,M,20,0035*7A
$GNRMC,111533.400,A,2500.8043071,N,12132.4780032,E,0.02,289.70,100523,,,D,V*0B
$GNACCURACY,3.4*11
$GNGGA,111533.500,2500.8043011,N,12132.4779912,E,2,53,0.49,18.492,M,15.25,M,20,0035*76
$GNRMC,111533.500,A,2500.8043011,N,12132.4779912,E,0.02,289.70,100523,,,D,V*01
$GNACCURACY,3.4*11
$GNGGA,111533.600,2500.8042951,N,12132.4779852,E,2,53,0.49,18.497,M,15.25,M,21,0035*78
$GNRMC,111533.600,A,2500.8042951,N,12132.4779852,E,0.02,289.70,100523,,,D,V*0B
$GNACCURACY,3.4*11
$GNGGA,111533.700,2500.8042891,N,12132.4779792,E,2,53,0.49,18.502,M,15.25,M,21,0035*7A
$GNRMC,111533.700,A,2500.8042891,N,12132.4779792,E,0.02,289.70,100523,,,D,V*04
$GNACCURACY,3.4*11
$GNGGA,111533.800,2500.8042831,N,12132.4779732,E,2,53,0.49,18.507,M,15.25,M,21,0035*70
$GNRMC,111533.800,A,2500.8042831,N,12132.4779732,E,0.02,289.70,100523,,,D,V*0B
$GNACCURACY,3.4*11
$GNGGA,111533.900,2500.8042771,N,12132.4779672,E,2,53,0.49,18.508,M,15.25,M,21,0035*70
$GNRMC,111533.900,A,2500.8042771,N,12132.4779672,E,0.02,289.70,100523,,,D,V*04
$GNGSA,A,3,13,196,195,199,11,15,05,20,29,30,06,194,0.85,0.49,0.69,1*0F
$GNGSA,A,3,84,70,85,69,71,,,,,,,,0.85,0.49,0.69,2*02
$GNGSA,A,3,08,13,15,07,26,,,,,,,,0.85,0.49,0.69,3*01
$GNGSA,A,3,28,38,33,39,41,16,43,27,07,40,09,42,0.85,0.49,0.69,4*0C
$GPGSV,4,1,14,13,87,149,42,196,72,050,41,195,65,147,45,50,60,167,40,1*62
$GPGSV,4,2,14,199,60,167,37,11,53,105,40,15,53,240,19,05,51,000,44,1*5F
$GPGSV,4,3,14,20,45,040,25,29,42,289,35,30,21,067,37,06,13,126,18,1*63
$GPGSV,4,4,14,194,12,164,19,24,06,191,,1*5C
$GPGSV,2,1,07,196,72,050,45,195,65,147,45,199,60,167,47,11,53,105,44,8*5D
$GPGSV,2,2,07,30,21,067,38,06,13,126,18,194,12,164,33,8*64
$GLGSV,2,1,05,84,73,139,28,70,54,295,30,85,40,334,35,69,29,023,32,1*73
$GLGSV,2,2,05,71,20,245,17,1*4C
$GAGSV,2,1,06,08,74,020,44,13,63,347,43,15,53,115,37,07,47,229,18,7*78
$GAGSV,2,2,06,26,13,320,22,34,05,132,,7*70
$GAGSV,2,1,05,08,74,020,42,13,63,347,46,15,53,115,37,07,47,229,24,1*71
$GAGSV,2,2,05,26,13,320,27,1*42
$GBGSV,4,1,15,28,70,279,43,38,56,011,39,33,53,010,43,39,48,176,45,1*74
$GBGSV,4,2,15,41,46,280,38,16,40,179,41,43,39,163,44,27,25,318,39,1*70
$GBGSV,4,3,15,07,23,205,25,40,20,197,24,09,20,192,24,11,14,153,,1*79
$GBGSV,4,4,15,42,11,050,23,25,11,150,,24,11,097,16,1*4C
$GBGSV,3,1,09,28,70,279,40,38,56,011,44,33,53,010,43,39,48,176,44,4*73
$GBGSV,3,2,09,41,46,280,37,43,39,163,45,27,25,318,30,40,20,197,22,4*78
$GBGSV,3,3,09,42,11,050,13,4*4B
$GNACCURACY,3.3*16
$PAIRSAT,1,35,1,0,200,2,0,200,3,0,200,4,0,200,5,0,201,6,0,221,7,0,200,8,0,200,9,0,200,10,0,200,11,0,221,12,0,200,13,0,201,14,0,200,15,0,201,16,0,200,17,0,200,18,0,200,19,0,200,20,0,201,21,0,200,23,0,200,24,0,200,25,0,200,26,0,200,27,0,200,28,0,200,29,0,201,30,0,221,31,0,200,32,0,200,194,0,621,195,0,621,196,0,620,199,0,621*69
$PAIRSAT,2,24,65,0,200,66,0,200,67,0,200,68,0,200,69,0,201,70,0,201,71,0,201,72,0,200,73,0,200,74,0,200,75,0,200,76,0,200,77,0,200,78,0,200,79,0,200,80,0,200,81,0,200,82,0,200,83,0,200,84,0,201,85,0,201,86,0,200,87,0,200,88,0,200*7B
$PAIRSAT,3,22,2,0,200,4,0,1200,5,0,200,7,0,1221,8,0,1221,9,0,1200,10,0,1200,11,0,1200,12,0,1200,13,0,1221,15,0,1221,19,0,1200,21,0,1200,24,0,1200,25,0,1200,26,0,1221,27,0,1200,30,0,1200,31,0,1200,33,0,1200,34,0,1221,36,0,1200*76
$PAIRSAT,4,43,1,0,201,2,0,201,3,0,201,4,0,201,5,0,200,7,0,201,9,0,201,10,0,201,11,0,201,12,0,200,15,0,200,16,0,201,19,0,600,20,0,600,21,0,600,22,0,600,23,0,600,24,0,621,25,0,621,26,0,600,27,0,621,28,0,621,29,0,600,30,0,600,32,0,600,33,0,621,34,0,600,35,0,600,36,0,600,37,0,600,38,0,621,39,0,621,40,0,621,41,0,621,42,0,621,43,0,621,44,0,400,45,0,400,46,0,400,57,0,200,59,0,601,60,0,401,61,0,600*6B
$PAIRDGP,8,5,6,11,13,15,20,29,30*42
$GNGGA,111534.000,2500.8042711,N,12132.4779612,E,2,53,0.49,18.510,M,15.25,M,21,0035*77
$GNRMC,111534.000,A,2500.8042711,N,12132.4779612,E,0.01,289.70,100523,,,D,V*09
$GNACCURACY,3.4*11
$GNGGA,111534.100,2500.8042651,N,12132.4779612,E,2,52,0.49,18.511,M,15.25,M,21,0035*73
$GNRMC,111534.100,A,2500.8042651,N,12132.4779612,E,0.01,289.70,100523,,,D,V*0D
$GNACCURACY,3.3*16
$GNGGA,111534.200,2500.8042591,N,12132.4779552,E,2,52,0.49,18.512,M,15.25,M,21,0035*7B
$GNRMC,111534.200,A,2500.8042591,N,12132.4779552,E,0.01,289.70,100523,,,D,V*06
$GNACCURACY,3.3*16
$GNGGA,111534.300,2500.8042471,N,12132.4779492,E,2,51,0.49,18.517,M,15.25,M,21,0035*7E
$GNRMC,111534.300,A,2500.8042471,N,12132.4779492,E,0.01,289.70,100523,,,D,V*05
$GNACCURACY,3.3*16
$GNGGA,111534.400,2500.8042351,N,12132.4779432,E,2,51,0.49,18.523,M,15.25,M,21,0035*71
$GNRMC,111534.400,A,2500.8042351,N,12132.4779432,E,0.02,289.70,100523,,,D,V*0E
$GNACCURACY,3.3*16
$GNGGA,111534.500,2500.8042291,N,12132.4779372,E,2,52,0.49,18.527,M,15.25,M,21,0035*79
$GNRMC,111534.500,A,2500.8042291,N,12132.4779372,E,0.02,289.70,100523,,,D,V*01
$GNACCURACY,3.3*16
$GNGGA,111534.600,2500.8042171,N,12132.4779312,E,2,51,0.49,18.532,M,15.25,M,22,0035*75
$GNRMC,111534.600,A,2500.8042171,N,12132.4779312,E,0.02,289.70,100523,,,D,V*09
$GNACCURACY,3.3*16
$GNGGA,111534.700,2500.8042111,N,12132.4779252,E,2,52,0.49,18.538,M,15.25,M,22,0035*7E
$GNRMC,111534.700,A,2500.8042111,N,12132.4779252,E,0.02,289.70,100523,,,D,V*0B
$GNACCURACY,3.3*16
$GNGGA,111534.800,2500.8041991,N,12132.4779192,E,2,50,0.50,18.542,M,15.25,M,22,0035*7A
$GNRMC,111534.800,A,2500.8041991,N,12132.4779192,E,0.01,289.70,100523,,,D,V*0B
$GNACCURACY,3.3*16
$GNGGA,111534.900,2500.8041871,N,12132.4779132,E,2,50,0.50,18.548,M,15.25,M,22,0035*74
$GNRMC,111534.900,A,2500.8041871,N,12132.4779132,E,0.01,289.70,100523,,,D,V*0F
$GNGSA,A,3,13,196,195,199,15,11,05,20,29,30,06,194,0.87,0.50,0.71,1*0C
$GNGSA,A,3,84,70,85,69,71,,,,,,,,0.87,0.50,0.71,2*01
$GNGSA,A,3,08,13,15,07,26,,,,,,,,0.87,0.50,0.71,3*02
$GNGSA,A,3,28,38,33,39,41,16,43,27,07,42,40,,0.87,0.50,0.71,4*06
$GPGSV,4,1,14,13,87,149,42,196,72,050,40,195,65,147,45,50,60,167,40,1*63
$GPGSV,4,2,14,199,60,167,37,15,53,240,25,11,53,105,40,05,51,000,44,1*50
$GPGSV,4,3,14,20,45,040,29,29,42,289,36,30,21,067,37,06,13,126,18,1*6C
$GPGSV,4,4,14,194,12,164,17,24,06,191,,1*52
$GPGSV,2,1,07,196,72,050,45,195,65,147,45,199,60,167,47,11,53,105,44,8*5D
$GPGSV,2,2,07,30,21,067,38,06,13,126,18,194,12,164,33,8*64
$GLGSV,2,1,05,84,73,139,28,70,54,295,29,85,40,334,37,69,29,023,29,1*73
$GLGSV,2,2,05,71,20,245,20,1*48
$GAGSV,2,1,06,08,74,020,44,13,63,347,41,15,53,115,38,07,47,229,21,7*7F
$GAGSV,2,2,06,26,13,320,24,34,05,132,,7*76
$GAGSV,2,1,05,08,74,020,42,13,63,347,46,15,53,115,35,07,47,229,27,1*70
$GAGSV,2,2,05,26,13,320,25,1*40
$GBGSV,4,1,16,28,70,279,43,38,56,011,39,33,53,010,42,39,48,176,45,1*76
$GBGSV,4,2,16,41,46,280,39,16,40,179,41,43,39,163,45,10,26,221,,1*75
$GBGSV,4,3,16,27,25,318,40,07,23,205,23,40,20,197,21,09,20,192,,1*71
$GBGSV,4,4,16,11,14,153,,42,11,050,21,25,11,150,,24,11,097,17,1*7E
$GBGSV,2,1,08,28,70,279,40,38,56,011,44,33,53,010,44,39,48,176,45,4*75
$GBGSV,2,2,08,41,46,280,37,43,39,163,45,27,25,318,29,40,20,197,21,4*73
$GNACCURACY,3.3*16
$PAIRSAT,1,35,1,0,200,2,0,200,3,0,200,4,0,200,5,0,201,6,0,221,7,0,200,8,0,200,9,0,200,10,0,200,11,0,221,12,0,200,13,0,201,14,0,200,15,0,201,16,0,200,17,0,200,18,0,200,19,0,200,20,0,201,21,0,200,23,0,200,24,0,200,25,0,200,26,0,200,27,0,200,28,0,200,29,0,201,30,0,221,31,0,200,32,0,200,194,0,621,195,0,621,196,0,620,199,0,621*69
$PAIRSAT,2,24,65,0,200,66,0,200,67,0,200,68,0,200,69,0,201,70,0,201,71,0,201,72,0,200,73,0,200,74,0,200,75,0,200,76,0,200,77,0,200,78,0,200,79,0,200,80,0,200,81,0,200,82,0,200,83,0,200,84,0,201,85,0,201,86,0,200,87,0,200,88,0,200*7B
$PAIRSAT,3,22,2,0,200,4,0,1200,5,0,200,7,0,1221,8,0,1221,9,0,1200,10,0,1200,11,0,1200,12,0,1200,13,0,1221,15,0,1221,19,0,1200,21,0,1200,24,0,1200,25,0,1200,26,0,1221,27,0,1200,30,0,1200,31,0,1200,33,0,1200,34,0,1221,36,0,1200*76
$PAIRSAT,4,43,1,0,201,2,0,201,3,0,201,4,0,201,5,0,200,7,0,201,9,0,201,10,0,201,11,0,201,12,0,200,15,0,200,16,0,201,19,0,600,20,0,600,21,0,600,22,0,600,23,0,600,24,0,621,25,0,621,26,0,600,27,0,621,28,0,621,29,0,600,30,0,600,32,0,600,33,0,621,34,0,600,35,0,600,36,0,600,37,0,600,38,0,621,39,0,621,40,0,621,41,0,621,42,0,621,43,0,621,44,0,400,45,0,400,46,0,400,57,0,200,59,0,601,60,0,401,61,0,600*6B
$PAIRDGP,8,5,6,11,13,15,20,29,30*42
$GNGGA,111535.000,2500.8041811,N,12132.4779072,E,2,50,0.50,18.556,M,15.25,M,22,0035*70
$GNRMC,111535.000,A,2500.8041811,N,12132.4779072,E,0.01,289.70,100523,,,D,V*04
$GNACCURACY,3.3*16
$GNGGA,111535.100,2500.8041751,N,12132.4779012,E,2,50,0.50,18.566,M,15.25,M,22,0035*7F
$GNRMC,111535.100,A,2500.8041751,N,12132.4779012,E,0.02,289.70,100523,,,D,V*0B
$GNACCURACY,3.3*16
$GNGGA,111535.200,2500.8052483,N,12132.4793436,E,4,50,0.50,17.110,M,15.25,M,1,3335*49
$GNRMC,111535.200,A,2500.8052483,N,12132.4793436,E,0.02,289.70,100523,,,R,V*16
$GNACCURACY,3.4*11
$GNGGA,111535.300,2500.8052477,N,12132.4793425,E,4,50,0.50,17.098,M,15.25,M,1,3335*40
$GNRMC,111535.300,A,2500.8052477,N,12132.4793425,E,0.02,289.70,100523,,,R,V*1E
$GNACCURACY,3.4*11
$GNGGA,111535.400,2500.8052470,N,12132.4793436,E,4,51,0.49,17.101,M,15.25,M,1,3335*4A
$GNRMC,111535.400,A,2500.8052470,N,12132.4793436,E,0.02,289.70,100523,,,R,V*1C
$GNACCURACY,3.4*11
$GNGGA,111535.500,2500.8052472,N,12132.4793454,E,4,51,0.49,17.104,M,15.25,M,1,3335*48
$GNRMC,111535.500,A,2500.8052472,N,12132.4793454,E,0.02,289.70,100523,,,R,V*1B
$GNACCURACY,3.4*11
$GNGGA,111535.600,2500.8052481,N,12132.4793321,E,4,51,0.49,17.083,M,15.25,M,0,3335*4D
$GNRMC,111535.600,A,2500.8052481,N,12132.4793321,E,0.02,289.70,100523,,,R,V*11
$GNACCURACY,3.4*11
$GNGGA,111535.700,2500.8052478,N,12132.4793325,E,4,51,0.49,17.080,M,15.25,M,0,3335*4D
$GNRMC,111535.700,A,2500.8052478,N,12132.4793325,E,0.02,289.70,100523,,,R,V*12
$GNACCURACY,3.4*11
$GNGGA,111535.800,2500.8052488,N,12132.4793360,E,4,51,0.49,17.083,M,15.25,M,0,3335*4F
$GNRMC,111535.800,A,2500.8052488,N,12132.4793360,E,0.02,289.70,100523,,,R,V*13
$GNACCURACY,3.4*11
$GNGGA,111535.900,2500.8052475,N,12132.4793341,E,4,52,0.49,17.084,M,15.25,M,0,3335*4B
$GNRMC,111535.900,A,2500.8052475,N,12132.4793341,E,0.02,289.70,100523,,,R,V*13
$GNGSA,A,3,13,196,195,199,15,11,05,20,29,30,06,194,0.85,0.49,0.69,1*0F
$GNGSA,A,3,84,70,85,69,71,,,,,,,,0.85,0.49,0.69,2*02
$GNGSA,A,3,08,13,15,07,26,,,,,,,,0.85,0.49,0.69,3*01
$GNGSA,A,3,28,38,33,39,41,16,43,27,07,09,42,40,0.85,0.49,0.69,4*0C
$GPGSV,4,1,14,13,87,149,43,196,72,050,38,195,65,147,45,50,60,167,40,1*6D
$GPGSV,4,2,14,199,60,167,37,15,53,240,24,11,53,105,40,05,51,000,44,1*51
$GPGSV,4,3,14,20,45,040,27,29,42,289,33,30,21,067,37,06,13,126,18,1*67
$GPGSV,4,4,14,194,12,164,17,24,06,191,,1*52
$GPGSV,2,1,07,196,72,050,46,195,65,147,45,199,60,167,47,11,53,105,44,8*5E
$GPGSV,2,2,07,30,21,067,39,06,13,126,21,194,12,164,35,8*69
$GLGSV,2,1,05,84,73,139,28,70,54,295,28,85,40,334,36,69,29,023,33,1*78
$GLGSV,2,2,05,71,20,245,22,1*4A
$GAGSV,2,1,06,08,74,020,44,13,63,347,43,15,53,115,35,07,47,229,19,7*7B
$GAGSV,2,2,06,26,13,320,20,34,05,132,,7*72
$GAGSV,2,1,05,08,74,020,42,13,63,347,46,15,53,115,37,07,47,229,27,1*72
$GAGSV,2,2,05,26,13,320,27,1*42
$GBGSV,4,1,16,28,70,279,44,38,56,011,40,33,53,010,42,39,48,176,45,1*7F
$GBGSV,4,2,16,41,46,280,39,16,40,179,41,43,39,163,45,10,26,221,,1*75
$GBGSV,4,3,16,27,25,318,40,07,23,205,23,40,20,197,21,09,20,192,26,1*75
$GBGSV,4,4,16,11,14,153,,42,11,050,22,25,11,150,,24,11,097,20,1*79
$GBGSV,2,1,08,28,70,279,41,38,56,011,44,33,53,010,44,39,48,176,45,4*74
$GBGSV,2,2,08,41,46,280,37,43,39,163,45,27,25,318,29,40,20,197,22,4*70
$GNACCURACY,3.4*11
$PAIRSAT,1,35,1,0,200,2,0,200,3,0,200,4,0,200,5,0,201,6,0,221,7,0,200,8,0,200,9,0,200,10,0,200,11,0,221,12,0,200,13,0,201,14,0,200,15,0,201,16,0,200,17,0,200,18,0,200,19,0,200,20,0,201,21,0,200,23,0,200,24,0,200,25,0,200,26,0,200,27,0,200,28,0,200,29,0,201,30,0,221,31,0,200,32,0,200,194,0,621,195,0,621,196,0,620,199,0,621*69
$PAIRSAT,2,24,65,0,200,66,0,200,67,0,200,68,0,200,69,0,201,70,0,201,71,0,201,72,0,200,73,0,200,74,0,200,75,0,200,76,0,200,77,0,200,78,0,200,79,0,200,80,0,200,81,0,200,82,0,200,83,0,200,84,0,201,85,0,201,86,0,200,87,0,200,88,0,200*7B
$PAIRSAT,3,22,2,0,200,4,0,1200,5,0,200,7,0,1221,8,0,1221,9,0,1200,10,0,1200,11,0,1200,12,0,1200,13,0,1221,15,0,1221,19,0,1200,21,0,1200,24,0,1200,25,0,1200,26,0,1221,27,0,1200,30,0,1200,31,0,1200,33,0,1200,34,0,1221,36,0,1200*76
$PAIRSAT,4,43,1,0,201,2,0,201,3,0,201,4,0,201,5,0,200,7,0,201,9,0,201,10,0,201,11,0,201,12,0,200,15,0,200,16,0,201,19,0,600,20,0,600,21,0,600,22,0,600,23,0,600,24,0,621,25,0,621,26,0,600,27,0,621,28,0,621,29,0,600,30,0,600,32,0,600,33,0,621,34,0,600,35,0,600,36,0,600,37,0,600,38,0,621,39,0,621,40,0,621,41,0,621,42,0,621,43,0,621,44,0,400,45,0,400,46,0,400,57,0,200,59,0,601,60,0,401,61,0,600*6B
$PAIRDGP,8,5,6,11,13,15,20,29,30*42
$GNGGA,111536.000,2500.8052456,N,12132.4793377,E,4,51,0.49,17.079,M,15.25,M,1,3335*45
$GNRMC,111536.000,A,2500.8052456,N,12132.4793377,E,0.02,289.70,100523,,,R,V*1D
$GNACCURACY,3.4*11
$GNGGA,111536.100,2500.8052490,N,12132.4793394,E,4,51,0.49,17.082,M,15.25,M,1,3335*47
$GNRMC,111536.100,A,2500.8052490,N,12132.4793394,E,0.02,289.70,100523,,,R,V*1B
$GNACCURACY,3.4*11
$GNGGA,111536.200,2500.8052524,N,12132.4793366,E,4,52,0.49,17.072,M,15.25,M,1,3335*4B
$GNRMC,111536.200,A,2500.8052524,N,12132.4793366,E,0.02,289.70,100523,,,R,V*1B
$GNACCURACY,3.4*11
$GNGGA,111536.300,2500.8052510,N,12132.4793400,E,4,52,0.49,17.075,M,15.25,M,1,3335*4D
$GNRMC,111536.300,A,2500.8052510,N,12132.4793400,E,0.02,289.70,100523,,,R,V*1A
$GNACCURACY,3.4*11
$GNGGA,111536.400,2500.8052498,N,12132.4793407,E,4,52,0.49,17.071,M,15.25,M,1,3335*48
$GNRMC,111536.400,A,2500.8052498,N,12132.4793407,E,0.02,289.70,100523,,,R,V*1B
$GNACCURACY,3.4*11
$GNGGA,111536.500,2500.8052503,N,12132.4793403,E,4,52,0.49,17.076,M,15.25,M,1,3335*49
$GNRMC,111536.500,A,2500.8052503,N,12132.4793403,E,0.02,289.70,100523,,,R,V*1D
$GNACCURACY,3.4*11
$GNGGA,111536.600,2500.8052488,N,12132.4793408,E,4,52,0.49,17.080,M,15.25,M,0,3335*4B
$GNRMC,111536.600,A,2500.8052488,N,12132.4793408,E,0.02,289.70,100523,,,R,V*17
$GNACCURACY,3.4*11
$GNGGA,111536.700,2500.8052497,N,12132.4793431,E,4,52,0.49,17.080,M,15.25,M,0,3335*4E
$GNRMC,111536.700,A,2500.8052497,N,12132.4793431,E,0.02,289.70,100523,,,R,V*12
$GNACCURACY,3.4*11
$GNGGA,111536.800,2500.8052515,N,12132.4793369,E,4,52,0.49,17.069,M,15.25,M,0,3335*47
$GNRMC,111536.800,A,2500.8052515,N,12132.4793369,E,0.02,289.70,100523,,,R,V*1C
$GNACCURACY,3.4*11
$GNGGA,111536.900,2500.8052495,N,12132.4793386,E,4,52,0.49,17.071,M,15.25,M,0,3335*47
$GNRMC,111536.900,A,2500.8052495,N,12132.4793386,E,0.02,289.70,100523,,,R,V*15
$GNGSA,A,3,13,196,195,199,15,11,05,20,29,30,06,194,0.85,0.49,0.69,1*0F
$GNGSA,A,3,84,70,85,69,71,,,,,,,,0.85,0.49,0.69,2*02
$GNGSA,A,3,08,13,15,07,26,,,,,,,,0.85,0.49,0.69,3*01
$GNGSA,A,3,28,38,33,39,41,16,43,27,07,09,40,42,0.85,0.49,0.69,4*0C
$GPGSV,4,1,14,13,87,149,43,196,72,050,35,195,65,147,45,199,60,167,37,1*54
$GPGSV,4,2,14,50,60,167,40,15,53,240,24,11,52,105,39,05,51,000,44,1*6A
$GPGSV,4,3,14,20,45,040,33,29,42,289,33,30,21,067,37,06,13,126,18,1*62
$GPGSV,4,4,14,194,12,164,16,24,06,191,,1*53
$GPGSV,2,1,07,196,72,050,46,195,65,147,45,199,60,167,47,11,52,105,44,8*5F
$GPGSV,2,2,07,30,21,067,38,06,13,126,19,194,12,164,35,8*63
$GLGSV,2,1,06,84,73,139,28,70,54,295,28,85,40,334,37,69,29,023,33,1*7A
$GLGSV,2,2,06,71,20,245,18,83,10,151,,1*7F
$GAGSV,2,1,06,08,74,020,44,13,63,347,43,15,53,115,35,07,47,229,18,7*7A
$GAGSV,2,2,06,26,13,320,24,34,05,132,,7*76
$GAGSV,2,1,05,08,74,020,42,13,63,347,46,15,53,115,37,07,47,229,28,1*7D
$GAGSV,2,2,05,26,13,320,29,1*4C
$GBGSV,4,1,16,28,70,279,44,38,56,011,41,33,53,010,43,39,48,176,45,1*7F
$GBGSV,4,2,16,41,46,280,39,16,40,179,41,43,39,163,45,10,26,221,,1*75
$GBGSV,4,3,16,27,25,318,40,07,23,205,22,09,20,192,26,40,20,197,27,1*72
$GBGSV,4,4,16,11,14,153,,42,11,050,18,25,11,150,,24,11,097,20,1*70
$GBGSV,2,1,08,28,70,279,41,38,56,011,44,33,53,010,44,39,48,176,45,4*74
$GBGSV,2,2,08,41,46,280,38,43,39,163,45,27,25,318,29,40,20,197,24,4*79
$GNACCURACY,3.4*11
$PAIRSAT,1,35,1,0,200,2,0,200,3,0,200,4,0,200,5,0,201,6,0,221,7,0,200,8,0,200,9,0,200,10,0,200,11,0,221,12,0,200,13,0,201,14,0,200,15,0,201,16,0,200,17,0,200,18,0,200,19,0,200,20,0,201,21,0,200,23,0,200,24,0,200,25,0,200,26,0,200,27,0,200,28,0,200,29,0,201,30,0,221,31,0,200,32,0,200,194,0,621,195,0,621,196,0,620,199,0,621*69
$PAIRSAT,2,24,65,0,200,66,0,200,67,0,200,68,0,200,69,0,201,70,0,201,71,0,201,72,0,200,73,0,200,74,0,200,75,0,200,76,0,200,77,0,200,78,0,200,79,0,200,80,0,200,81,0,200,82,0,200,83,0,200,84,0,201,85,0,201,86,0,200,87,0,200,88,0,200*7B
$PAIRSAT,3,22,2,0,200,4,0,1200,5,0,200,7,0,1221,8,0,1221,9,0,1200,10,0,1200,11,0,1200,12,0,1200,13,0,1221,15,0,1221,19,0,1200,21,0,1200,24,0,1200,25,0,1200,26,0,1221,27,0,1200,30,0,1200,31,0,1200,33,0,1200,34,0,1221,36,0,1200*76
$PAIRSAT,4,43,1,0,201,2,0,201,3,0,201,4,0,201,5,0,200,7,0,201,9,0,201,10,0,201,11,0,201,12,0,200,15,0,200,16,0,201,19,0,600,20,0,600,21,0,600,22,0,600,23,0,600,24,0,621,25,0,621,26,0,600,27,0,621,28,0,621,29,0,600,30,0,600,32,0,600,33,0,621,34,0,600,35,0,600,36,0,600,37,0,600,38,0,621,39,0,621,40,0,621,41,0,621,42,0,621,43,0,621,44,0,400,45,0,400,46,0,400,57,0,200,59,0,601,60,0,401,61,0,600*6B
$PAIRDGP,8,5,6,11,13,15,20,29,30*42
$GNGGA,111537.000,2500.8052507,N,12132.4793386,E,4,52,0.49,17.081,M,15.25,M,1,3335*4B
$GNRMC,111537.000,A,2500.8052507,N,12132.4793386,E,0.02,289.70,100523,,,R,V*17
$GNACCURACY,3.4*11
$GNGGA,111537.100,2500.8052535,N,12132.4793417,E,4,52,0.49,17.086,M,15.25,M,1,3335*43
$GNRMC,111537.100,A,2500.8052535,N,12132.4793417,E,0.02,289.70,100523,,,R,V*18
$GNACCURACY,3.4*11
$GNGGA,111537.200,2500.8052559,N,12132.4793453,E,4,51,0.52,17.082,M,15.25,M,1,3335*47
$GNRMC,111537.200,A,2500.8052559,N,12132.4793453,E,0.02,289.70,100523,,,R,V*11
$GNACCURACY,3.4*11
$GNGGA,111537.300,2500.8052511,N,12132.4793439,E,4,52,0.49,17.081,M,15.25,M,1,3335*4C
$GNRMC,111537.300,A,2500.8052511,N,12132.4793439,E,0.01,289.70,100523,,,R,V*13
$GNACCURACY,3.4*11
$GNGGA,111537.400,2500.8052506,N,12132.4793396,E,4,51,0.52,17.083,M,15.25,M,1,3335*44
$GNRMC,111537.400,A,2500.8052506,N,12132.4793396,E,0.01,289.70,100523,,,R,V*10
$GNACCURACY,3.4*11
$GNGGA,111537.500,2500.8052511,N,12132.4793398,E,4,51,0.52,17.080,M,15.25,M,1,3335*4E
$GNRMC,111537.500,A,2500.8052511,N,12132.4793398,E,0.01,289.70,100523,,,R,V*19
$GNACCURACY,3.4*11
$GNGGA,111537.600,2500.8052492,N,12132.4793400,E,4,51,0.52,17.074,M,15.25,M,1,3335*4A
$GNRMC,111537.600,A,2500.8052492,N,12132.4793400,E,0.02,289.70,100523,,,R,V*15
$GNACCURACY,3.4*11
$GNGGA,111537.700,2500.8052521,N,12132.4793395,E,4,51,0.52,17.081,M,15.25,M,0,3335*42
$GNRMC,111537.700,A,2500.8052521,N,12132.4793395,E,0.02,289.70,100523,,,R,V*16
$GNACCURACY,3.4*11
$GNGGA,111537.800,2500.8052521,N,12132.4793474,E,4,52,0.49,17.074,M,15.25,M,0,3335*46
$GNRMC,111537.800,A,2500.8052521,N,12132.4793474,E,0.02,289.70,100523,,,R,V*11
$GNACCURACY,3.4*11
$GNGGA,111537.900,2500.8052558,N,12132.4793480,E,4,52,0.49,17.075,M,15.25,M,0,3335*43
$GNRMC,111537.900,A,2500.8052558,N,12132.4793480,E,0.02,289.70,100523,,,R,V*15
$GNGSA,A,3,13,196,195,199,15,11,05,20,29,30,06,194,0.85,0.49,0.69,1*0F
$GNGSA,A,3,84,70,85,69,71,,,,,,,,0.85,0.49,0.69,2*02
$GNGSA,A,3,08,13,15,07,26,,,,,,,,0.85,0.49,0.69,3*01
$GNGSA,A,3,28,38,33,39,41,16,43,27,07,09,40,42,0.85,0.49,0.69,4*0C
$GPGSV,4,1,15,13,87,147,43,196,72,050,36,195,65,147,45,50,60,167,40,1*6C
$GPGSV,4,2,15,199,60,167,37,15,53,240,24,11,52,105,39,05,51,000,44,1*5F
$GPGSV,4,3,15,20,45,040,34,29,42,289,34,30,21,067,36,06,13,126,18,1*62
$GPGSV,4,4,15,194,12,164,15,24,06,191,,07,02,042,,1*62
$GPGSV,2,1,07,196,72,050,46,195,65,147,45,199,60,167,47,11,52,105,44,8*5F
$GPGSV,2,2,07,30,21,067,38,06,13,126,19,194,12,164,34,8*62
$GLGSV,2,1,06,84,73,139,28,70,54,295,27,85,40,334,37,69,29,023,33,1*75
$GLGSV,2,2,06,71,20,245,19,83,10,151,,1*7E
$GAGSV,2,1,06,08,74,020,44,13,63,347,43,15,53,115,35,07,47,229,18,7*7A
$GAGSV,2,2,06,26,13,320,24,34,05,132,,7*76
$GAGSV,2,1,05,08,74,020,41,13,63,347,46,15,53,115,37,07,47,229,29,1*7F
$GAGSV,2,2,05,26,13,320,29,1*4C
$GBGSV,4,1,16,28,70,279,44,38,56,011,41,33,53,010,43,39,48,176,44,1*7E
$GBGSV,4,2,16,41,46,280,40,16,40,179,41,43,39,163,45,10,26,221,,1*7B
$GBGSV,4,3,16,27,25,318,40,07,23,205,22,09,20,192,25,40,20,197,26,1*70
$GBGSV,4,4,16,11,14,153,,25,11,150,,24,11,097,19,42,11,050,18,1*7A
$GBGSV,2,1,08,28,70,279,40,38,56,011,44,33,53,010,43,39,48,176,45,4*72
$GBGSV,2,2,08,41,46,280,38,43,39,163,45,27,25,318,29,40,20,197,24,4*79
$GNACCURACY,3.4*11
$PAIRSAT,1,35,1,0,200,2,0,200,3,0,200,4,0,200,5,0,201,6,0,221,7,0,200,8,0,200,9,0,200,10,0,200,11,0,221,12,0,200,13,0,201,14,0,200,15,0,201,16,0,200,17,0,200,18,0,200,19,0,200,20,0,201,21,0,200,23,0,200,24,0,200,25,0,200,26,0,200,27,0,200,28,0,200,29,0,201,30,0,221,31,0,200,32,0,200,194,0,621,195,0,621,196,0,620,199,0,621*69
$PAIRSAT,2,24,65,0,200,66,0,200,67,0,200,68,0,200,69,0,201,70,0,201,71,0,201,72,0,200,73,0,200,74,0,200,75,0,200,76,0,200,77,0,200,78,0,200,79,0,200,80,0,200,81,0,200,82,0,200,83,0,200,84,0,201,85,0,201,86,0,200,87,0,200,88,0,200*7B
$PAIRSAT,3,22,2,0,200,4,0,1200,5,0,200,7,0,1221,8,0,1221,9,0,1200,10,0,1200,11,0,1200,12,0,1200,13,0,1221,15,0,1221,19,0,1200,21,0,1200,24,0,1200,25,0,1200,26,0,1221,27,0,1200,30,0,1200,31,0,1200,33,0,1200,34,0,1221,36,0,1200*76
$PAIRSAT,4,43,1,0,201,2,0,201,3,0,201,4,0,201,5,0,200,7,0,201,9,0,201,10,0,201,11,0,201,12,0,200,15,0,200,16,0,201,19,0,600,20,0,600,21,0,600,22,0,600,23,0,600,24,0,621,25,0,621,26,0,600,27,0,621,28,0,621,29,0,600,30,0,600,32,0,600,33,0,621,34,0,600,35,0,600,36,0,600,37,0,600,38,0,621,39,0,621,40,0,621,41,0,621,42,0,621,43,0,621,44,0,400,45,0,400,46,0,400,57,0,200,59,0,601,60,0,401,61,0,600*6B
$PAIRDGP,9,5,6,7,11,13,15,20,29,30*58
$GNGGA,111538.000,2500.8052583,N,12132.4793437,E,4,52,0.49,17.077,M,15.25,M,1,3335*4C
$GNRMC,111538.000,A,2500.8052583,N,12132.4793437,E,0.02,289.70,100523,,,R,V*19
$GNACCURACY,3.4*11
$GNGGA,111538.100,2500.8052498,N,12132.4793346,E,4,52,0.49,17.076,M,15.25,M,1,3335*46
$GNRMC,111538.100,A,2500.8052498,N,12132.4793346,E,0.02,289.70,100523,,,R,V*12
$GNACCURACY,3.4*11
$GNGGA,111538.200,2500.8052495,N,12132.4793461,E,4,51,0.49,17.102,M,15.25,M,1,3335*4B
$GNRMC,111538.200,A,2500.8052495,N,12132.4793461,E,0.02,289.70,100523,,,R,V*1E
$GNACCURACY,3.4*11
$GNGGA,111538.300,2500.8052484,N,12132.4793484,E,4,51,0.49,17.105,M,15.25,M,1,3335*46
$GNRMC,111538.300,A,2500.8052484,N,12132.4793484,E,0.02,289.70,100523,,,R,V*14
$GNACCURACY,3.4*11
$GNGGA,111538.400,2500.8052487,N,12132.4793311,E,4,51,0.49,17.080,M,15.25,M,1,3335*45
$GNRMC,111538.400,A,2500.8052487,N,12132.4793311,E,0.02,289.70,100523,,,R,V*1B
$GNACCURACY,3.4*11
$GNGGA,111538.500,2500.8052497,N,12132.4793278,E,4,51,0.49,17.069,M,15.25,M,1,3335*4C
$GNRMC,111538.500,A,2500.8052497,N,12132.4793278,E,0.02,289.70,100523,,,R,V*15
$GNACCURACY,3.4*11
$GNGGA,111538.600,2500.8052495,N,12132.4793310,E,4,52,0.49,17.072,M,15.25,M,0,3335*4A
$GNRMC,111538.600,A,2500.8052495,N,12132.4793310,E,0.02,289.70,100523,,,R,V*1B
$GNACCURACY,3.4*11
$GNGGA,111538.700,2500.8052499,N,12132.4793317,E,4,52,0.49,17.073,M,15.25,M,0,3335*41
$GNRMC,111538.700,A,2500.8052499,N,12132.4793317,E,0.02,289.70,100523,,,R,V*11
$GNACCURACY,3.4*11
$GNGGA,111538.800,2500.8052487,N,12132.4793314,E,4,53,0.49,17.067,M,15.25,M,0,3335*46
$GNRMC,111538.800,A,2500.8052487,N,12132.4793314,E,0.02,289.70,100523,,,R,V*12
$GNACCURACY,3.4*11
$GNGGA,111538.900,2500.8052510,N,12132.4793338,E,4,53,0.49,17.068,M,15.25,M,0,3335*49
$GNRMC,111538.900,A,2500.8052510,N,12132.4793338,E,0.02,289.70,100523,,,R,V*12
$GNGSA,A,3,13,196,195,199,15,11,05,20,29,30,06,194,0.85,0.49,0.69,1*0F
$GNGSA,A,3,84,70,85,69,71,,,,,,,,0.85,0.49,0.69,2*02
$GNGSA,A,3,08,13,15,07,26,,,,,,,,0.85,0.49,0.69,3*01
$GNGSA,A,3,28,38,33,39,41,16,43,27,07,09,40,42,0.85,0.49,0.69,4*0C
$GPGSV,4,1,15,13,87,147,43,196,72,050,38,195,65,147,45,50,60,167,40,1*62
$GPGSV,4,2,15,199,60,167,37,15,53,240,28,11,52,105,39,05,51,000,44,1*53
$GPGSV,4,3,15,20,45,040,33,29,42,289,34,30,21,067,36,06,13,126,19,1*64
$GPGSV,4,4,15,194,12,164,20,24,06,191,,07,02,042,,1*64
$GPGSV,2,1,07,196,72,050,46,195,65,147,45,199,60,167,47,11,52,105,44,8*5F
$GPGSV,2,2,07,30,21,067,41,06,13,126,18,194,12,164,35,8*6C
$GLGSV,2,1,07,84,73,139,29,70,54,295,28,85,40,334,37,69,29,023,33,1*7A
$GLGSV,2,2,07,71,20,245,18,83,10,151,,79,01,083,,1*4A
$GAGSV,2,1,06,08,74,020,44,13,63,347,42,15,53,115,35,07,47,229,18,7*7B
$GAGSV,2,2,06,26,13,320,21,34,05,132,,7*73
$GAGSV,2,1,05,08,74,020,41,13,63,347,46,15,53,115,38,07,47,229,27,1*7E
$GAGSV,2,2,05,26,13,320,27,1*42
$GBGSV,4,1,16,28,70,279,44,38,56,011,41,33,53,010,43,39,48,176,44,1*7E
$GBGSV,4,2,16,41,46,280,37,16,40,179,41,43,39,163,45,10,26,221,,1*7B
$GBGSV,4,3,16,27,25,318,40,07,23,205,21,09,20,192,24,40,20,197,24,1*70
$GBGSV,4,4,16,11,14,153,,24,11,097,22,25,11,150,,42,11,050,19,1*73
$GBGSV,3,1,09,28,70,279,41,38,56,011,44,33,53,010,44,39,48,176,45,4*74
$GBGSV,3,2,09,41,46,280,38,43,39,163,45,27,25,318,29,40,20,197,23,4*7E
$GBGSV,3,3,09,42,11,050,25,4*4E
$GNACCURACY,3.4*11
$PAIRSAT,1,35,1,0,200,2,0,200,3,0,200,4,0,200,5,0,201,6,0,221,7,0,200,8,0,200,9,0,200,10,0,200,11,0,221,12,0,200,13,0,201,14,0,200,15,0,201,16,0,200,17,0,200,18,0,200,19,0,200,20,0,201,21,0,200,23,0,200,24,0,200,25,0,200,26,0,200,27,0,200,28,0,200,29,0,201,30,0,221,31,0,200,32,0,200,194,0,621,195,0,621,196,0,620,199,0,621*69
$PAIRSAT,2,24,65,0,200,66,0,200,67,0,200,68,0,200,69,0,201,70,0,201,71,0,201,72,0,200,73,0,200,74,0,200,75,0,200,76,0,200,77,0,200,78,0,200,79,0,200,80,0,200,81,0,200,82,0,200,83,0,200,84,0,201,85,0,201,86,0,200,87,0,200,88,0,200*7B
$PAIRSAT,3,22,2,0,200,4,0,1200,5,0,200,7,0,1221,8,0,1221,9,0,1200,10,0,1200,11,0,1200,12,0,1200,13,0,1221,15,0,1221,19,0,1200,21,0,1200,24,0,1200,25,0,1200,26,0,1221,27,0,1200,30,0,1200,31,0,1200,33,0,1200,34,0,1221,36,0,1200*76
$PAIRSAT,4,43,1,0,201,2,0,201,3,0,201,4,0,201,5,0,200,7,0,201,9,0,201,10,0,201,11,0,201,12,0,200,15,0,200,16,0,201,19,0,600,20,0,600,21,0,600,22,0,600,23,0,600,24,0,621,25,0,621,26,0,600,27,0,621,28,0,621,29,0,600,30,0,600,32,0,600,33,0,621,34,0,600,35,0,600,36,0,600,37,0,600,38,0,621,39,0,621,40,0,621,41,0,621,42,0,621,43,0,621,44,0,400,45,0,400,46,0,400,57,0,200,59,0,601,60,0,401,61,0,600*6B
$PAIRDGP,9,5,6,7,11,13,15,20,29,30*58
$GNGGA,111539.000,2500.8052503,N,12132.4793302,E,4,53,0.49,17.066,M,15.25,M,1,3335*45
$GNRMC,111539.000,A,2500.8052503,N,12132.4793302,E,0.02,289.70,100523,,,R,V*11
$GNACCURACY,3.4*11
$GNGGA,111539.100,2500.8052499,N,12132.4793328,E,4,53,0.49,17.082,M,15.25,M,1,3335*44
$GNRMC,111539.100,A,2500.8052499,N,12132.4793328,E,0.02,289.70,100523,,,R,V*1A
$GNACCURACY,3.4*11
$GNGGA,111539.200,2500.8052504,N,12132.4793287,E,4,53,0.49,17.075,M,15.25,M,1,3335*4E
$GNRMC,111539.200,A,2500.8052504,N,12132.4793287,E,0.02,289.70,100523,,,R,V*18
$GNACCURACY,3.4*11
$GNGGA,111539.300,2500.8052563,N,12132.4793364,E,4,53,0.49,17.074,M,15.25,M,1,3335*43
$GNRMC,111539.300,A,2500.8052563,N,12132.4793364,E,0.02,289.70,100523,,,R,V*14
$GNACCURACY,3.4*11
$GNGGA,111539.400,2500.8052572,N,12132.4793351,E,4,53,0.49,17.072,M,15.25,M,1,3335*44
$GNRMC,111539.400,A,2500.8052572,N,12132.4793351,E,0.02,289.70,100523,,,R,V*15
$GNACCURACY,3.4*11
$GNGGA,111539.500,2500.8052596,N,12132.4793379,E,4,53,0.49,17.070,M,15.25,M,1,3335*47
$GNRMC,111539.500,A,2500.8052596,N,12132.4793379,E,0.02,289.70,100523,,,R,V*14
$GNACCURACY,3.4*11
$GNGGA,111539.600,2500.8052622,N,12132.4793350,E,4,53,0.49,17.078,M,15.25,M,1,3335*4B
$GNRMC,111539.600,A,2500.8052622,N,12132.4793350,E,0.02,289.70,100523,,,R,V*10
$GNACCURACY,3.4*11
$GNGGA,111539.700,2500.8052646,N,12132.4793347,E,4,53,0.49,17.072,M,15.25,M,0,3335*45
$GNRMC,111539.700,A,2500.8052646,N,12132.4793347,E,0.02,289.70,100523,,,R,V*15
$GNACCURACY,3.4*11
$GNGGA,111539.800,2500.8052682,N,12132.4793294,E,4,52,0.49,17.077,M,15.25,M,0,3335*49
$GNRMC,111539.800,A,2500.8052682,N,12132.4793294,E,0.02,289.70,100523,,,R,V*1D
$GNACCURACY,3.4*11
$GNGGA,111539.900,2500.8052687,N,12132.4793219,E,4,52,0.49,17.074,M,15.25,M,0,3335*4B
$GNRMC,111539.900,A,2500.8052687,N,12132.4793219,E,0.02,289.70,100523,,,R,V*1C
$GNGSA,A,3,13,196,195,199,15,11,05,20,29,30,06,194,0.85,0.49,0.69,1*0F
$GNGSA,A,3,84,70,85,69,71,,,,,,,,0.85,0.49,0.69,2*02
$GNGSA,A,3,08,13,15,07,26,,,,,,,,0.85,0.49,0.69,3*01
$GNGSA,A,3,28,38,33,39,41,16,43,27,07,09,42,40,0.85,0.49,0.69,4*0C
$GPGSV,4,1,15,13,87,147,43,196,72,050,38,195,65,147,45,50,60,167,40,1*62
$GPGSV,4,2,15,199,60,167,37,15,53,240,28,11,52,105,40,05,51,000,44,1*5D
$GPGSV,4,3,15,20,45,040,35,29,42,289,34,30,21,067,37,06,13,126,18,1*62
$GPGSV,4,4,15,194,12,164,21,24,06,191,,07,02,042,,1*65
$GPGSV,2,1,07,196,72,050,46,195,65,147,45,199,60,167,47,11,52,105,44,8*5F
$GPGSV,2,2,07,30,21,067,40,06,13,126,16,194,12,164,32,8*64
$GLGSV,2,1,07,84,73,139,28,70,54,295,29,85,40,334,36,69,29,023,31,1*79
$GLGSV,2,2,07,71,20,245,21,83,10,151,,79,01,083,,1*40
$GAGSV,2,1,06,08,74,020,44,13,63,347,43,15,53,115,35,07,47,229,16,7*74
$GAGSV,2,2,06,26,13,320,23,34,05,132,,7*71
$GAGSV,2,1,05,08,74,020,41,13,63,347,46,15,53,115,38,07,47,229,28,1*71
$GAGSV,2,2,05,26,13,320,27,1*42
$GBGSV,4,1,16,28,70,279,42,38,56,011,41,33,53,010,42,39,48,176,44,1*79
$GBGSV,4,2,16,41,46,280,36,16,40,179,39,43,39,163,45,10,26,221,,1*75
$GBGSV,4,3,16,27,25,318,39,07,23,205,20,09,20,192,28,40,20,197,21,1*76
$GBGSV,4,4,16,11,14,153,,24,11,097,23,25,11,150,,42,11,050,18,1*73
$GBGSV,3,1,09,28,70,279,41,38,56,011,45,33,53,010,44,39,48,176,45,4*75
$GBGSV,3,2,09,41,46,280,38,43,39,163,45,27,25,318,29,40,20,197,23,4*7E
$GBGSV,3,3,09,42,11,050,26,4*4D
$GNACCURACY,3.4*11
$PAIRSAT,1,35,1,0,200,2,0,200,3,0,200,4,0,200,5,0,201,6,0,221,7,0,200,8,0,200,9,0,200,10,0,200,11,0,221,12,0,200,13,0,201,14,0,200,15,0,201,16,0,200,17,0,200,18,0,200,19,0,200,20,0,201,21,0,200,23,0,200,24,0,200,25,0,200,26,0,200,27,0,200,28,0,200,29,0,201,30,0,221,31,0,200,32,0,200,194,0,621,195,0,621,196,0,620,199,0,621*69
$PAIRSAT,2,24,65,0,200,66,0,200,67,0,200,68,0,200,69,0,201,70,0,201,71,0,201,72,0,200,73,0,200,74,0,200,75,0,200,76,0,200,77,0,200,78,0,200,79,0,200,80,0,200,81,0,200,82,0,200,83,0,200,84,0,201,85,0,201,86,0,200,87,0,200,88,0,200*7B
$PAIRSAT,3,22,2,0,200,4,0,1200,5,0,200,7,0,1221,8,0,1221,9,0,1200,10,0,1200,11,0,1200,12,0,1200,13,0,1221,15,0,1221,19,0,1200,21,0,1200,24,0,1200,25,0,1200,26,0,1221,27,0,1200,30,0,1200,31,0,1200,33,0,1200,34,0,1221,36,0,1200*76
$PAIRSAT,4,43,1,0,201,2,0,201,3,0,201,4,0,201,5,0,200,7,0,201,9,0,201,10,0,201,11,0,201,12,0,200,15,0,200,16,0,201,19,0,600,20,0,600,21,0,600,22,0,600,23,0,600,24,0,621,25,0,621,26,0,600,27,0,621,28,0,621,29,0,600,30,0,600,32,0,600,33,0,621,34,0,600,35,0,600,36,0,600,37,0,600,38,0,621,39,0,621,40,0,621,41,0,621,42,0,621,43,0,621,44,0,400,45,0,400,46,0,400,57,0,200,59,0,601,60,0,401,61,0,600*6B
$PAIRDGP,9,5,6,7,11,13,15,20,29,30*58
$GNGGA,111540.000,2500.8052649,N,12132.4793044,E,4,52,0.49,17.071,M,15.25,M,1,3335*40
$GNRMC,111540.000,A,2500.8052649,N,12132.4793044,E,0.03,289.70,100523,,,R,V*12
$GNACCURACY,3.4*11
$GNGGA,111540.100,2500.8052711,N,12132.4792969,E,4,56,0.48,17.072,M,15.25,M,1,3335*4C
$GNRMC,111540.100,A,2500.8052711,N,12132.4792969,E,0.04,289.70,100523,,,R,V*1F
$GNACCURACY,3.4*11
$GNGGA,111540.200,2500.8052734,N,12132.4792841,E,4,55,0.48,17.096,M,15.25,M,1,3335*4A
$GNRMC,111540.200,A,2500.8052734,N,12132.4792841,E,0.04,289.70,100523,,,R,V*10
$GNACCURACY,3.4*11
$GNGGA,111540.300,2500.8052774,N,12132.4792750,E,4,55,0.48,17.101,M,15.25,M,1,3335*4F
$GNRMC,111540.300,A,2500.8052774,N,12132.4792750,E,0.04,289.70,100523,,,R,V*1A
$GNACCURACY,3.3*16
$GNGGA,111540.400,2500.8052851,N,12132.4792671,E,4,55,0.48,17.100,M,15.25,M,1,3335*43
$GNRMC,111540.400,A,2500.8052851,N,12132.4792671,E,0.05,289.70,100523,,,R,V*16
$GNACCURACY,3.4*11
$GNGGA,111540.500,2500.8052927,N,12132.4792622,E,4,53,0.48,17.096,M,15.25,M,1,3335*4C
$GNRMC,111540.500,A,2500.8052927,N,12132.4792622,E,0.06,289.70,100523,,,R,V*12
$GNACCURACY,3.3*16
$GNGGA,111540.600,2500.8052962,N,12132.4792489,E,4,51,0.50,17.085,M,15.25,M,1,3335*44
$GNRMC,111540.600,A,2500.8052962,N,12132.4792489,E,0.06,289.70,100523,,,R,V*13
$GNACCURACY,3.3*16
$GNGGA,111540.700,2500.8052987,N,12132.4792383,E,4,50,0.50,17.070,M,15.25,M,0,3335*49
$GNRMC,111540.700,A,2500.8052987,N,12132.4792383,E,0.07,289.70,100523,,,R,V*15
$GNACCURACY,3.3*16
$GNGGA,111540.800,2500.8053049,N,12132.4792311,E,4,51,0.50,17.085,M,15.25,M,0,3335*4C
$GNRMC,111540.800,A,2500.8053049,N,12132.4792311,E,0.07,289.70,100523,,,R,V*1B
$GNACCURACY,3.3*16
$GNGGA,111540.900,2500.8053151,N,12132.4792203,E,4,51,0.50,17.105,M,15.25,M,0,3335*4E
$GNRMC,111540.900,A,2500.8053151,N,12132.4792203,E,0.08,289.70,100523,,,R,V*1F
$GNGSA,A,3,13,196,195,199,15,11,05,20,29,30,194,06,0.87,0.50,0.71,1*0C
$GNGSA,A,3,84,70,85,69,71,,,,,,,,0.87,0.50,0.71,2*01
$GNGSA,A,3,08,13,15,07,26,,,,,,,,0.87,0.50,0.71,3*02
$GNGSA,A,3,28,38,33,39,41,16,43,27,07,40,42,,0.87,0.50,0.71,4*06
$GPGSV,4,1,15,13,87,147,43,196,72,050,42,195,65,147,44,50,60,167,39,1*60
$GPGSV,4,2,15,199,60,167,36,15,53,240,28,11,52,105,37,05,51,000,43,1*5B
$GPGSV,4,3,15,20,45,040,27,29,42,289,38,30,21,067,38,06,13,126,18,1*62
$GPGSV,4,4,15,194,12,164,21,24,06,191,,07,02,042,,1*65
$GPGSV,2,1,07,196,72,050,46,195,65,147,46,199,60,167,47,11,52,105,43,8*5B
$GPGSV,2,2,07,30,21,067,38,06,13,126,17,194,12,164,34,8*6C
$GLGSV,2,1,06,84,73,139,30,70,54,295,23,85,40,334,35,69,29,023,27,1*7F
$GLGSV,2,2,06,71,20,245,23,83,10,151,,1*77
$GAGSV,2,1,06,08,74,020,44,13,63,347,43,15,53,115,39,07,47,229,24,7*79
$GAGSV,2,2,06,26,13,320,26,34,05,132,,7*74
$GAGSV,1,1,04,08,74,020,43,13,63,347,46,15,53,115,41,26,13,320,25,1*78
$GBGSV,4,1,16,28,70,279,39,38,56,011,42,33,53,010,40,39,48,176,45,1*75
$GBGSV,4,2,16,41,46,280,40,16,40,179,41,43,39,163,44,10,26,221,,1*7A
$GBGSV,4,3,16,27,25,318,40,07,23,205,23,09,20,192,19,40,20,197,32,1*7B
$GBGSV,4,4,16,11,14,153,,25,11,150,,24,11,097,21,42,11,050,26,1*7C
$GBGSV,3,1,10,28,70,279,42,38,56,011,41,33,53,010,45,39,48,176,43,4*7D
$GBGSV,3,2,10,41,46,280,37,43,39,163,44,27,25,318,24,40,20,197,18,4*7D
$GBGSV,3,3,10,24,11,097,23,42,11,050,30,4*7B
$GNACCURACY,3.3*16
$PAIRSAT,1,35,1,0,200,2,0,200,3,0,200,4,0,200,5,0,201,6,0,221,7,0,200,8,0,200,9,0,200,10,0,200,11,0,221,12,0,200,13,0,201,14,0,200,15,0,201,16,0,200,17,0,200,18,0,200,19,0,200,20,0,201,21,0,200,23,0,200,24,0,200,25,0,200,26,0,200,27,0,200,28,0,200,29,0,201,30,0,221,31,0,200,32,0,200,194,0,621,195,0,621,196,0,620,199,0,621*69
$PAIRSAT,2,24,65,0,200,66,0,200,67,0,200,68,0,200,69,0,201,70,0,201,71,0,201,72,0,200,73,0,200,74,0,200,75,0,200,76,0,200,77,0,200,78,0,200,79,0,200,80,0,200,81,0,200,82,0,200,83,0,200,84,0,201,85,0,201,86,0,200,87,0,200,88,0,200*7B
$PAIRSAT,3,22,2,0,200,4,0,1200,5,0,200,7,0,1221,8,0,1221,9,0,1200,10,0,1200,11,0,1200,12,0,1200,13,0,1221,15,0,1221,19,0,1200,21,0,1200,24,0,1200,25,0,1200,26,0,1221,27,0,1200,30,0,1200,31,0,1200,33,0,1200,34,0,1221,36,0,1200*76
$PAIRSAT,4,43,1,0,201,2,0,201,3,0,201,4,0,201,5,0,200,7,0,201,9,0,201,10,0,201,11,0,201,12,0,200,15,0,200,16,0,201,19,0,600,20,0,600,21,0,600,22,0,600,23,0,600,24,0,621,25,0,621,26,0,600,27,0,621,28,0,621,29,0,600,30,0,600,32,0,600,33,0,621,34,0,600,35,0,600,36,0,600,37,0,600,38,0,621,39,0,621,40,0,621,41,0,621,42,0,621,43,0,621,44,0,400,45,0,400,46,0,400,57,0,200,59,0,601,60,0,401,61,0,600*6B
$PAIRDGP,9,5,6,7,11,13,15,20,29,30*58
$GNGGA,111541.000,2500.8053282,N,12132.4792067,E,4,52,0.50,17.100,M,15.25,M,1,3335*4C
$GNRMC,111541.000,A,2500.8053282,N,12132.4792067,E,0.09,289.70,100523,,,R,V*1B
$GNACCURACY,3.3*16
$GNGGA,111541.100,2500.8053424,N,12132.4791826,E,4,52,0.50,17.056,M,15.25,M,1,3335*4B
$GNRMC,111541.100,A,2500.8053424,N,12132.4791826,E,0.11,289.70,100523,,,R,V*17
$GNACCURACY,3.3*16
$GNGGA,111541.200,2500.8053634,N,12132.4791679,E,4,53,0.49,17.078,M,15.25,M,1,3335*4A
$GNRMC,111541.200,A,2500.8053634,N,12132.4791679,E,0.12,289.70,100523,,,R,V*10
$GNACCURACY,3.2*17
$GNGGA,111541.300,2500.8053815,N,12132.4791510,E,4,53,0.49,17.123,M,15.25,M,1,3335*45
$GNRMC,111541.300,A,2500.8053815,N,12132.4791510,E,0.12,289.70,100523,,,R,V*10
$GNACCURACY,3.2*17
$GNGGA,111541.400,2500.8053952,N,12132.4791375,E,4,53,0.49,17.136,M,15.25,M,1,3335*41
$GNRMC,111541.400,A,2500.8053952,N,12132.4791375,E,0.13,289.70,100523,,,R,V*11
$GNACCURACY,3.2*17
$GNGGA,111541.500,2500.8054116,N,12132.4791411,E,4,53,0.49,17.170,M,15.25,M,1,3335*48
$GNRMC,111541.500,A,2500.8054116,N,12132.4791411,E,0.13,289.70,100523,,,R,V*1A
$GNACCURACY,3.2*17
$GNGGA,111541.600,2500.8054218,N,12132.4791351,E,4,52,0.49,17.173,M,15.25,M,1,3335*47
$GNRMC,111541.600,A,2500.8054218,N,12132.4791351,E,0.14,289.70,100523,,,R,V*10
$GNACCURACY,3.2*17
$GNGGA,111541.700,2500.8054340,N,12132.4791212,E,4,53,0.49,17.161,M,15.25,M,0,3335*4F
$GNRMC,111541.700,A,2500.8054340,N,12132.4791212,E,0.15,289.70,100523,,,R,V*1A
$GNACCURACY,3.2*17
$GNGGA,111541.800,2500.8054468,N,12132.4791164,E,4,53,0.49,17.131,M,15.25,M,0,3335*4A
$GNRMC,111541.800,A,2500.8054468,N,12132.4791164,E,0.15,289.70,100523,,,R,V*1A
$GNACCURACY,3.2*17
$GNGGA,111541.900,2500.8054607,N,12132.4791105,E,4,54,0.49,17.137,M,15.25,M,0,3335*46
$GNRMC,111541.900,A,2500.8054607,N,12132.4791105,E,0.16,289.70,100523,,,R,V*14
$GNGSA,A,3,13,196,195,199,15,11,05,20,29,30,194,06,0.85,0.49,0.69,1*0F
$GNGSA,A,3,84,70,85,69,71,,,,,,,,0.85,0.49,0.69,2*02
$GNGSA,A,3,08,13,15,07,26,,,,,,,,0.85,0.49,0.69,3*01
$GNGSA,A,3,28,38,33,39,41,16,43,27,07,09,40,42,0.85,0.49,0.69,4*0C
$GPGSV,4,1,15,13,87,147,44,196,72,050,42,195,65,147,45,50,60,167,40,1*68
$GPGSV,4,2,15,199,60,167,37,15,53,240,24,11,52,105,41,05,51,000,44,1*50
$GPGSV,4,3,15,20,45,040,30,29,42,289,35,30,21,067,37,06,13,126,18,1*66
$GPGSV,4,4,15,194,12,164,25,24,06,191,,07,02,042,,1*61
$GPGSV,2,1,07,196,72,050,47,195,65,147,46,199,60,167,47,11,52,105,41,8*58
$GPGSV,2,2,07,30,21,067,39,06,13,126,25,194,12,164,26,8*6F
$GLGSV,2,1,05,84,73,139,30,70,54,295,24,85,40,334,31,69,29,023,31,1*78
$GLGSV,2,2,05,71,20,245,23,1*4B
$GAGSV,2,1,06,08,74,020,41,13,63,347,38,15,53,115,36,07,47,229,21,7*7A
$GAGSV,2,2,06,26,13,320,23,34,05,132,,7*71
$GAGSV,2,1,05,08,74,020,44,13,63,347,46,15,53,115,40,07,47,229,30,1*72
$GAGSV,2,2,05,26,13,320,22,1*47
$GBGSV,4,1,16,28,70,279,33,38,56,011,42,33,53,010,42,39,48,176,43,1*7B
$GBGSV,4,2,16,41,46,280,37,16,40,179,40,43,39,163,46,10,26,221,,1*79
$GBGSV,4,3,16,27,25,318,37,07,23,205,23,09,20,192,24,40,20,197,31,1*76
$GBGSV,4,4,16,11,14,153,,42,11,050,22,25,11,150,,24,11,097,22,1*7B
$GBGSV,3,1,10,28,70,279,41,38,56,011,44,33,53,010,49,39,48,176,44,4*70
$GBGSV,3,2,10,41,46,280,35,43,39,163,44,27,25,318,34,40,20,197,19,4*7F
$GBGSV,3,3,10,24,11,097,27,42,11,050,26,4*78
$GNACCURACY,3.2*17
$PAIRSAT,1,35,1,0,200,2,0,200,3,0,200,4,0,200,5,0,201,6,0,221,7,0,200,8,0,200,9,0,200,10,0,200,11,0,221,12,0,200,13,0,201,14,0,200,15,0,201,16,0,200,17,0,200,18,0,200,19,0,200,20,0,201,21,0,200,23,0,200,24,0,200,25,0,200,26,0,200,27,0,200,28,0,200,29,0,201,30,0,221,31,0,200,32,0,200,194,0,621,195,0,621,196,0,620,199,0,621*69
$PAIRSAT,2,24,65,0,200,66,0,200,67,0,200,68,0,200,69,0,201,70,0,201,71,0,201,72,0,200,73,0,200,74,0,200,75,0,200,76,0,200,77,0,200,78,0,200,79,0,200,80,0,200,81,0,200,82,0,200,83,0,200,84,0,201,85,0,201,86,0,200,87,0,200,88,0,200*7B
$PAIRSAT,3,22,2,0,200,4,0,1200,5,0,200,7,0,1221,8,0,1221,9,0,1200,10,0,1200,11,0,1200,12,0,1200,13,0,1221,15,0,1221,19,0,1200,21,0,1200,24,0,1200,25,0,1200,26,0,1221,27,0,1200,30,0,1200,31,0,1200,33,0,1200,34,0,1221,36,0,1200*76
$PAIRSAT,4,43,1,0,201,2,0,201,3,0,201,4,0,201,5,0,200,7,0,201,9,0,201,10,0,201,11,0,201,12,0,200,15,0,200,16,0,201,19,0,600,20,0,600,21,0,600,22,0,600,23,0,600,24,0,621,25,0,621,26,0,600,27,0,621,28,0,621,29,0,600,30,0,600,32,0,600,33,0,621,34,0,600,35,0,600,36,0,600,37,0,600,38,0,621,39,0,621,40,0,621,41,0,621,42,0,621,43,0,621,44,0,400,45,0,400,46,0,400,57,0,200,59,0,601,60,0,401,61,0,600*6B
$PAIRDGP,9,5,6,7,11,13,15,20,29,30*58
$GNGGA,111542.000,2500.8054736,N,12132.4791043,E,4,54,0.49,17.135,M,15.25,M,1,3335*4F
$GNRMC,111542.000,A,2500.8054736,N,12132.4791043,E,0.17,289.70,100523,,,R,V*1F
$GNACCURACY,3.2*17
$GNGGA,111542.100,2500.8054917,N,12132.4791017,E,4,56,0.48,17.124,M,15.25,M,1,3335*41
$GNRMC,111542.100,A,2500.8054917,N,12132.4791017,E,0.18,289.70,100523,,,R,V*1D
$GNACCURACY,3.2*17
$GNGGA,111542.200,2500.8055122,N,12132.4790986,E,4,56,0.48,17.045,M,15.25,M,1,3335*4B
$GNRMC,111542.200,A,2500.8055122,N,12132.4790986,E,0.18,289.70,100523,,,R,V*11
$GNACCURACY,3.2*17
$GNGGA,111542.300,2500.8055349,N,12132.4790619,E,4,53,0.49,16.935,M,15.25,M,1,3335*47
$GNRMC,111542.300,A,2500.8055349,N,12132.4790619,E,0.19,289.70,100523,,,R,V*17
$GNACCURACY,3.2*17
$GNGGA,111542.400,2500.8055565,N,12132.4790344,E,4,53,0.49,16.957,M,15.25,M,1,3335*41
$GNRMC,111542.400,A,2500.8055565,N,12132.4790344,E,0.21,289.70,100523,,,R,V*1E
$GNACCURACY,3.2*17
$GNGGA,111542.500,2500.8055699,N,12132.4790020,E,4,52,0.49,16.949,M,15.25,M,1,3335*4F
$GNRMC,111542.500,A,2500.8055699,N,12132.4790020,E,0.22,289.70,100523,,,R,V*1D
$GNACCURACY,3.2*17
$GNGGA,111542.600,2500.8055882,N,12132.4789795,E,4,52,0.49,17.019,M,15.25,M,1,3335*44
$GNRMC,111542.600,A,2500.8055882,N,12132.4789795,E,0.23,289.70,100523,,,R,V*1A
$GNACCURACY,3.2*17
$GNGGA,111542.700,2500.8055984,N,12132.4789646,E,4,52,0.49,17.033,M,15.25,M,1,3335*45
$GNRMC,111542.700,A,2500.8055984,N,12132.4789646,E,0.24,289.70,100523,,,R,V*14
$GNACCURACY,3.2*17
$GNGGA,111542.800,2500.8056070,N,12132.4789588,E,4,52,0.49,17.042,M,15.25,M,0,3335*4D
$GNRMC,111542.800,A,2500.8056070,N,12132.4789588,E,0.24,289.70,100523,,,R,V*1B
$GNACCURACY,3.2*17
$GNGGA,111542.900,2500.8056226,N,12132.4789631,E,4,51,0.49,17.071,M,15.25,M,0,3335*4F
$GNRMC,111542.900,A,2500.8056226,N,12132.4789631,E,0.25,289.70,100523,,,R,V*1B
$GNGSA,A,3,13,196,195,199,15,11,05,20,29,30,06,194,0.85,0.49,0.69,1*0F
$GNGSA,A,3,84,70,85,69,71,,,,,,,,0.85,0.49,0.69,2*02
$GNGSA,A,3,08,13,15,07,26,,,,,,,,0.85,0.49,0.69,3*01
$GNGSA,A,3,28,38,33,39,41,16,43,27,07,09,42,40,0.85,0.49,0.69,4*0C
$GPGSV,4,1,15,13,87,147,44,196,72,050,41,195,65,147,45,50,60,167,39,1*65
$GPGSV,4,2,15,199,60,167,37,15,53,240,24,11,52,105,41,05,51,000,43,1*57
$GPGSV,4,3,15,20,45,040,27,29,42,289,37,30,21,067,34,06,13,126,18,1*61
$GPGSV,4,4,15,194,12,164,20,24,06,191,,07,02,042,,1*64
$GPGSV,2,1,07,196,72,050,47,195,65,147,48,199,60,167,47,11,52,105,42,8*55
$GPGSV,2,2,07,30,21,067,43,06,13,126,23,194,12,164,25,8*67
$GLGSV,2,1,05,84,73,139,29,70,54,295,26,85,40,334,36,69,29,023,34,1*70
$GLGSV,2,2,05,71,20,245,24,1*4C
$GAGSV,2,1,05,08,74,020,43,13,63,347,42,15,53,115,39,07,47,229,22,7*7A
$GAGSV,2,2,05,26,13,320,20,7*43
$GAGSV,1,1,04,08,74,020,45,13,63,347,46,15,53,115,38,26,13,320,28,1*7D
