$FW : RTK35X,V1.1X0314AS,Lib20210517,0*55
$Tool : LOCOSYS , GNSS Firebird , v1.0.0.19*39
$---------------------------------------------------*2D
8.58,120523,,,R,V*1F
$GNGSA,A,3,196,195,199,11,20,05,13,06,15,29,19,194,1.13,0.60,0.96,1*01
$GNGSA,A,3,71,86,85,72,,,,,,,,,1.13,0.60,0.96,2*08
$GNGSA,A,3,19,33,12,04,10,,,,,,,,1.13,0.60,0.96,3*07
$GNGSA,A,3,44,21,12,38,22,08,13,07,40,35,34,39,1.13,0.60,0.96,4*07
$GNGSA,A,3,16,,,,,,,,,,,,1.13,0.60,0.96,4*09
$GPGSV,4,1,16,196,74,063,37,195,71,111,38,199,60,167,38,50,60,167,40,1*50
$GPGSV,4,2,16,11,60,035,42,20,54,349,43,05,50,304,38,13,47,184,45,1*68
$GPGSV,4,3,16,06,34,094,33,15,22,214,25,29,20,319,35,19,19,156,25,1*6D
$GPGSV,4,4,16,30,17,102,24,194,16,171,33,07,08,070,15,25,07,272,15,1*50
$GPGSV,2,1,08,196,74,063,42,195,71,111,42,11,60,035,40,199,60,167,47,8*54
$GPGSV,2,2,08,06,34,094,41,30,17,102,19,194,16,171,31,25,07,272,24,8*5D
$GLGSV,1,1,04,71,71,342,43,86,57,001,46,85,57,106,39,72,45,233,25,1*72
$GAGSV,2,1,05,19,78,103,36,33,54,074,38,12,46,339,38,04,32,206,19,7*76
$GAGSV,2,2,05,10,25,321,24,7*46
$GAGSV,2,1,05,19,78,103,39,33,54,074,39,12,46,339,43,04,32,206,34,1*7D
$GAGSV,2,2,05,10,25,321,35,1*40
$GBGSV,4,1,13,44,88,349,45,21,64,267,43,12,63,329,41,38,53,354,43,1*78
$GBGSV,4,2,13,22,50,026,39,08,46,334,37,13,41,317,41,07,38,208,33,1*72
$GBGSV,4,3,13,40,37,197,34,35,37,139,43,34,31,321,25,39,30,170,45,1*79
$GBGSV,4,4,13,16,23,174,41,1*45
$GBGSV,2,1,08,44,88,349,44,21,64,267,35,38,53,354,41,22,50,026,34,4*7E
$GBGSV,2,2,08,35,37,139,41,40,37,197,37,34,31,321,36,39,30,170,43,4*74
$GNACCURACY,3.8*1D
$PAIRSAT,1,28,1,0,200,2,0,200,3,0,200,4,0,200,5,0,201,6,0,221,7,0,200,11,0,21,13,0,1,15,0,1,16,0,200,17,0,200,18,0,200,19,0,201,20,0,201,21,0,200,23,0,200,24,0,200,25,0,220,26,0,200,27,0,200,28,0,200,29,0,201,30,0,200,194,0,421,195,0,621,196,0,620,199,0,21*48
$PAIRSAT,2,24,65,0,200,66,0,200,67,0,200,68,0,200,69,0,200,70,0,200,71,0,201,72,0,201,73,0,200,74,0,200,75,0,200,76,0,200,77,0,200,78,0,200,79,0,200,80,0,200,81,0,200,82,0,200,83,0,200,84,0,200,85,0,201,86,0,201,87,0,200,88,0,200*7A
$PAIRSAT,3,17,4,0,21,7,0,200,8,0,200,9,0,200,10,0,1221,11,0,1200,12,0,1221,13,0,1200,15,0,1200,19,0,1221,21,0,1000,24,0,1200,25,0,1200,26,0,1200,27,0,1200,33,0,1021,34,0,1000*5F
$PAIRSAT,4,42,1,0,200,2,0,200,3,0,201,4,0,200,5,0,200,6,0,200,7,0,1,8,0,1,12,0,1,13,0,1,14,0,200,16,0,201,19,0,600,20,0,600,21,0,621,22,0,621,23,0,600,24,0,600,25,0,600,26,0,600,27,0,600,28,0,600,29,0,600,30,0,600,32,0,400,33,0,400,34,0,421,35,0,421,36,0,400,37,0,400,38,0,421,39,0,421,40,0,421,41,0,400,42,0,400,43,0,400,44,0,421,45,0,400,46,0,400,59,0,400,60,0,400,61,0,400*71
$PAIRDGP,10,5,6,7,11,13,15,19,20,29,30*44
$GNGGA,095112.000,2500.8049435,N,12132.4797458,E,4,52,0.60,17.242,M,15.25,M,13,3335*7A
$GNRMC,095112.000,A,2500.8049435,N,12132.4797458,E,0.01,148.58,120523,,,R,V*16
$GNACCURACY,3.8*1D
$GNGGA,095112.100,2500.8049436,N,12132.4797405,E,4,52,0.60,17.239,M,15.25,M,13,3335*7C
$GNRMC,095112.100,A,2500.8049436,N,12132.4797405,E,0.00,148.58,120523,,,R,V*1D
$GNACCURACY,3.8*1D
$GNGGA,095112.200,2500.8049423,N,12132.4797428,E,4,52,0.60,17.243,M,15.25,M,13,3335*79
$GNRMC,095112.200,A,2500.8049423,N,12132.4797428,E,0.01,148.58,120523,,,R,V*14
$GNACCURACY,3.7*12
$GNGGA,095112.300,2500.8049414,N,12132.4797424,E,4,52,0.60,17.239,M,15.25,M,13,3335*7D
$GNRMC,095112.300,A,2500.8049414,N,12132.4797424,E,0.01,148.58,120523,,,R,V*1D
$GNACCURACY,3.7*12
$GNGGA,095112.400,2500.8049419,N,12132.4797399,E,4,52,0.60,17.237,M,15.25,M,13,3335*78
$GNRMC,095112.400,A,2500.8049419,N,12132.4797399,E,0.01,148.58,120523,,,R,V*16
$GNACCURACY,3.7*12
$GNGGA,095112.500,2500.8049412,N,12132.4797413,E,4,52,0.60,17.249,M,15.25,M,13,3335*7E
$GNRMC,095112.500,A,2500.8049412,N,12132.4797413,E,0.01,148.58,120523,,,R,V*19
$GNACCURACY,3.7*12
$GNGGA,095112.600,2500.8049427,N,12132.4797449,E,4,52,0.60,17.241,M,15.25,M,13,3335*7C
$GNRMC,095112.600,A,2500.8049427,N,12132.4797449,E,0.01,148.58,120523,,,R,V*13
$GNACCURACY,3.7*12
$GNGGA,095112.700,2500.8049413,N,12132.4797398,E,4,52,0.60,17.245,M,15.25,M,13,3335*75
$GNRMC,095112.700,A,2500.8049413,N,12132.4797398,E,0.01,148.58,120523,,,R,V*1E
$GNACCURACY,3.7*12
$GNGGA,095112.800,2500.8049421,N,12132.4797417,E,4,52,0.60,17.245,M,15.25,M,13,3335*7B
$GNRMC,095112.800,A,2500.8049421,N,12132.4797417,E,0.01,148.58,120523,,,R,V*10
$GNACCURACY,3.7*12
$GNGGA,095112.900,2500.8049413,N,12132.4797406,E,4,52,0.60,17.238,M,15.25,M,13,3335*71
$GNRMC,095112.900,A,2500.8049413,N,12132.4797406,E,0.01,148.58,120523,,,R,V*10
$GNGSA,A,3,196,195,199,11,20,05,13,06,15,29,19,194,1.13,0.60,0.96,1*01
$GNGSA,A,3,71,86,85,72,,,,,,,,,1.13,0.60,0.96,2*08
$GNGSA,A,3,19,33,12,04,10,,,,,,,,1.13,0.60,0.96,3*07
$GNGSA,A,3,44,21,12,38,22,08,13,07,40,35,34,39,1.13,0.60,0.96,4*07
$GNGSA,A,3,16,,,,,,,,,,,,1.13,0.60,0.96,4*09
$GPGSV,4,1,16,196,74,063,37,195,71,111,38,199,60,167,38,50,60,167,41,1*51
$GPGSV,4,2,16,11,60,035,42,20,54,349,44,05,50,304,38,13,47,184,46,1*6C
$GPGSV,4,3,16,06,34,094,32,15,22,214,27,29,20,319,36,19,19,156,25,1*6D
$GPGSV,4,4,16,30,17,102,24,194,16,171,33,07,08,070,15,25,07,272,15,1*50
$GPGSV,2,1,08,196,74,063,42,195,71,111,42,11,60,035,40,199,60,167,47,8*54
$GPGSV,2,2,08,06,34,094,41,30,17,102,20,194,16,171,31,25,07,272,24,8*57
$GLGSV,1,1,04,71,71,342,44,86,57,001,46,85,57,106,39,72,45,233,28,1*78
$GAGSV,2,1,05,19,78,103,36,33,54,074,38,12,46,339,38,04,32,206,19,7*76
$GAGSV,2,2,05,10,25,321,23,7*41
$GAGSV,2,1,05,19,78,103,39,33,54,074,39,12,46,339,43,04,32,206,34,1*7D
$GAGSV,2,2,05,10,25,321,35,1*40
$GBGSV,4,1,13,44,88,349,45,21,64,267,43,12,63,329,41,38,53,354,43,1*78
$GBGSV,4,2,13,22,50,026,38,08,46,334,37,13,41,317,41,07,38,208,32,1*72
$GBGSV,4,3,13,40,37,197,34,35,37,139,43,34,31,321,25,39,30,170,45,1*79
$GBGSV,4,4,13,16,23,174,40,1*44
$GBGSV,2,1,08,44,88,349,44,21,64,267,35,38,53,354,41,22,50,026,34,4*7E
$GBGSV,2,2,08,35,37,139,41,40,37,197,37,34,31,321,35,39,30,170,43,4*77
$GNACCURACY,3.7*12
$PAIRSAT,1,29,1,0,200,2,0,200,3,0,200,4,0,200,5,0,201,6,0,221,7,0,200,8,0,200,11,0,21,13,0,1,15,0,1,16,0,200,17,0,200,18,0,200,19,0,201,20,0,201,21,0,200,23,0,200,24,0,200,25,0,220,26,0,200,27,0,200,28,0,200,29,0,201,30,0,200,194,0,621,195,0,621,196,0,620,199,0,21*5D
$PAIRSAT,2,24,65,0,200,66,0,200,67,0,200,68,0,200,69,0,200,70,0,200,71,0,201,72,0,201,73,0,200,74,0,200,75,0,200,76,0,200,77,0,200,78,0,200,79,0,200,80,0,200,81,0,200,82,0,200,83,0,200,84,0,200,85,0,201,86,0,201,87,0,200,88,0,200*7A
$PAIRSAT,3,17,4,0,21,7,0,200,8,0,200,9,0,200,10,0,1221,11,0,1200,12,0,1221,13,0,1200,15,0,1200,19,0,1221,21,0,1000,24,0,1200,25,0,1200,26,0,1200,27,0,1200,33,0,1021,34,0,1000*5F
$PAIRSAT,4,42,1,0,200,2,0,200,3,0,201,4,0,200,5,0,200,6,0,200,7,0,1,8,0,1,12,0,1,13,0,1,14,0,200,16,0,201,19,0,600,20,0,600,21,0,621,22,0,621,23,0,600,24,0,600,25,0,600,26,0,600,27,0,600,28,0,600,29,0,600,30,0,600,32,0,400,33,0,400,34,0,421,35,0,421,36,0,400,37,0,400,38,0,421,39,0,421,40,0,421,41,0,400,42,0,400,43,0,400,44,0,421,45,0,400,46,0,400,59,0,400,60,0,400,61,0,400*71
$PAIRDGP,10,5,6,7,11,13,15,19,20,29,30*44
$GNGGA,095113.000,2500.8049400,N,12132.4797423,E,4,52,0.60,17.244,M,15.25,M,14,3335*70
$GNRMC,095113.000,A,2500.8049400,N,12132.4797423,E,0.01,148.58,120523,,,R,V*1D
$GNACCURACY,3.7*12
$GNGGA,095113.100,2500.8049408,N,12132.4797409,E,4,52,0.60,17.235,M,15.25,M,14,3335*77
$GNRMC,095113.100,A,2500.8049408,N,12132.4797409,E,0.01,148.58,120523,,,R,V*1C
$GNACCURACY,3.7*12
$GNGGA,095113.200,2500.8049418,N,12132.4797443,E,4,52,0.60,17.236,M,15.25,M,14,3335*78
$GNRMC,095113.200,A,2500.8049418,N,12132.4797443,E,0.01,148.58,120523,,,R,V*10
$GNACCURACY,3.7*12
$GNGGA,095113.300,2500.8049409,N,12132.4797376,E,4,51,0.61,17.238,M,15.25,M,14,3335*74
$GNRMC,095113.300,A,2500.8049409,N,12132.4797376,E,0.01,148.58,120523,,,R,V*10
$GNACCURACY,3.7*12
$GNGGA,095113.400,2500.8049417,N,12132.4797423,E,4,51,0.61,17.240,M,15.25,M,14,3335*74
$GNRMC,095113.400,A,2500.8049417,N,12132.4797423,E,0.01,148.58,120523,,,R,V*1F
$GNACCURACY,3.7*12
$GNGGA,095113.500,2500.8049411,N,12132.4797418,E,4,51,0.61,17.250,M,15.25,M,14,3335*7A
$GNRMC,095113.500,A,2500.8049411,N,12132.4797418,E,0.01,148.58,120523,,,R,V*10
$GNACCURACY,3.7*12
$GNGGA,095113.600,2500.8049436,N,12132.4797468,E,4,51,0.61,17.238,M,15.25,M,14,3335*75
$GNRMC,095113.600,A,2500.8049436,N,12132.4797468,E,0.01,148.58,120523,,,R,V*11
$GNACCURACY,3.7*12
$GNGGA,095113.700,2500.8049413,N,12132.4797390,E,4,52,0.60,17.247,M,15.25,M,14,3335*79
$GNRMC,095113.700,A,2500.8049413,N,12132.4797390,E,0.01,148.58,120523,,,R,V*17
$GNACCURACY,3.7*12
$GNGGA,095113.800,2500.8049429,N,12132.4797447,E,4,52,0.60,17.244,M,15.25,M,14,3335*71
$GNRMC,095113.800,A,2500.8049429,N,12132.4797447,E,0.01,148.58,120523,,,R,V*1C
$GNACCURACY,3.7*12
$GNGGA,095113.900,2500.8049420,N,12132.4797429,E,4,52,0.60,17.252,M,15.25,M,14,3335*76
$GNRMC,095113.900,A,2500.8049420,N,12132.4797429,E,0.01,148.58,120523,,,R,V*1C
$GNGSA,A,3,196,195,199,11,20,05,13,06,15,29,19,194,1.13,0.60,0.96,1*01
$GNGSA,A,3,71,86,85,72,,,,,,,,,1.13,0.60,0.96,2*08
$GNGSA,A,3,19,33,12,04,10,,,,,,,,1.13,0.60,0.96,3*07
$GNGSA,A,3,44,21,12,38,22,08,13,07,40,35,34,39,1.13,0.60,0.96,4*07
$GNGSA,A,3,16,,,,,,,,,,,,1.13,0.60,0.96,4*09
$GPGSV,4,1,16,196,74,063,37,195,71,111,38,199,60,167,38,50,60,167,41,1*51
$GPGSV,4,2,16,11,60,035,42,20,54,349,44,05,50,304,38,13,47,184,46,1*6C
$GPGSV,4,3,16,06,34,094,32,15,22,214,28,29,20,319,36,19,19,156,25,1*62
$GPGSV,4,4,16,30,17,102,24,194,16,171,34,07,08,070,14,25,07,272,16,1*55
$GPGSV,2,1,08,196,74,063,42,195,71,111,42,11,60,035,39,199,60,167,47,8*5A
$GPGSV,2,2,08,06,34,094,40,30,17,102,19,194,16,171,30,25,07,272,24,8*5D
$GLGSV,1,1,04,71,71,342,44,86,57,001,46,85,57,106,39,72,45,233,28,1*78
$GAGSV,2,1,05,19,78,103,36,33,54,074,38,12,46,339,38,04,32,206,21,7*7D
$GAGSV,2,2,05,10,25,321,22,7*40
$GAGSV,2,1,05,19,78,103,39,33,54,074,39,12,46,339,43,04,32,206,33,1*7A
$GAGSV,2,2,05,10,25,321,35,1*40
$GBGSV,4,1,13,44,88,349,45,21,64,267,43,12,63,329,41,38,53,354,43,1*78
$GBGSV,4,2,13,22,50,026,38,08,46,334,37,13,41,317,41,07,38,208,32,1*72
$GBGSV,4,3,13,40,37,197,34,35,37,140,43,34,32,321,25,39,30,170,45,1*74
$GBGSV,4,4,13,16,23,174,40,1*44
$GBGSV,2,1,08,44,88,349,44,21,64,267,34,38,53,354,41,22,50,026,32,4*79
$GBGSV,2,2,08,35,37,140,41,40,37,197,37,34,32,321,35,39,30,170,43,4*7A
$GNACCURACY,3.7*12
$PAIRSAT,1,29,1,0,200,2,0,200,3,0,200,4,0,200,5,0,201,6,0,221,7,0,200,8,0,200,11,0,21,13,0,1,15,0,1,16,0,200,17,0,200,18,0,200,19,0,201,20,0,201,21,0,200,23,0,200,24,0,200,25,0,220,26,0,200,27,0,200,28,0,200,29,0,201,30,0,200,194,0,621,195,0,621,196,0,620,199,0,21*5D
$PAIRSAT,2,24,65,0,200,66,0,200,67,0,200,68,0,200,69,0,200,70,0,200,71,0,201,72,0,201,73,0,200,74,0,200,75,0,200,76,0,200,77,0,200,78,0,200,79,0,200,80,0,200,81,0,200,82,0,200,83,0,200,84,0,200,85,0,201,86,0,201,87,0,200,88,0,200*7A
$PAIRSAT,3,17,4,0,21,7,0,200,8,0,200,9,0,200,10,0,1221,11,0,1200,12,0,1221,13,0,1200,15,0,1200,19,0,1221,21,0,1000,24,0,1200,25,0,1200,26,0,1200,27,0,1200,33,0,1021,34,0,1000*5F
$PAIRSAT,4,42,1,0,200,2,0,200,3,0,201,4,0,200,5,0,200,6,0,200,7,0,1,8,0,1,12,0,1,13,0,1,14,0,200,16,0,201,19,0,600,20,0,600,21,0,621,22,0,621,23,0,600,24,0,600,25,0,600,26,0,600,27,0,600,28,0,600,29,0,600,30,0,600,32,0,400,33,0,400,34,0,421,35,0,421,36,0,400,37,0,400,38,0,421,39,0,421,40,0,421,41,0,400,42,0,400,43,0,400,44,0,421,45,0,400,46,0,400,59,0,400,60,0,400,61,0,400*71
$PAIRDGP,10,5,6,7,11,13,15,19,20,29,30*44
$GNGGA,095114.000,2500.8049423,N,12132.4797400,E,4,52,0.60,17.241,M,15.25,M,15,3335*73
$GNRMC,095114.000,A,2500.8049423,N,12132.4797400,E,0.01,148.58,120523,,,R,V*1A
$GNACCURACY,3.7*12
$GNGGA,095114.100,2500.8049441,N,12132.4797453,E,4,53,0.60,17.233,M,15.25,M,15,3335*74
$GNRMC,095114.100,A,2500.8049441,N,12132.4797453,E,0.01,148.58,120523,,,R,V*19
$GNACCURACY,3.7*12
$GNGGA,095114.200,2500.8049453,N,12132.4797350,E,4,53,0.60,17.241,M,15.25,M,15,3335*75
$GNRMC,095114.200,A,2500.8049453,N,12132.4797350,E,0.01,148.58,120523,,,R,V*1D
$GNACCURACY,3.7*12
$GNGGA,095114.300,2500.8049447,N,12132.4797341,E,4,53,0.60,17.234,M,15.25,M,15,3335*73
$GNRMC,095114.300,A,2500.8049447,N,12132.4797341,E,0.01,148.58,120523,,,R,V*19
$GNACCURACY,3.7*12
$GNGGA,095114.400,2500.8049466,N,12132.4797322,E,4,53,0.60,17.232,M,15.25,M,15,3335*74
$GNRMC,095114.400,A,2500.8049466,N,12132.4797322,E,0.01,148.58,120523,,,R,V*18
$GNACCURACY,3.7*12
$GNGGA,095114.500,2500.8049482,N,12132.4797318,E,4,53,0.60,17.234,M,15.25,M,15,3335*70
$GNRMC,095114.500,A,2500.8049482,N,12132.4797318,E,0.02,148.58,120523,,,R,V*19
$GNACCURACY,3.7*12
$GNGGA,095114.600,2500.8049504,N,12132.4797295,E,4,53,0.60,17.224,M,15.25,M,15,3335*79
$GNRMC,095114.600,A,2500.8049504,N,12132.4797295,E,0.02,148.58,120523,,,R,V*11
$GNACCURACY,3.7*12
$GNGGA,095114.700,2500.8049563,N,12132.4797231,E,4,53,0.60,17.225,M,15.25,M,15,3335*76
$GNRMC,095114.700,A,2500.8049563,N,12132.4797231,E,0.02,148.58,120523,,,R,V*1F
$GNACCURACY,3.7*12
$GNGGA,095114.800,2500.8049622,N,12132.4797115,E,4,53,0.60,17.225,M,15.25,M,15,3335*7A
$GNRMC,095114.800,A,2500.8049622,N,12132.4797115,E,0.03,148.58,120523,,,R,V*12
$GNACCURACY,3.7*12
$GNGGA,095114.900,2500.8049828,N,12132.4797034,E,4,53,0.60,17.212,M,15.25,M,15,3335*79
$GNRMC,095114.900,A,2500.8049828,N,12132.4797034,E,0.04,148.58,120523,,,R,V*12
$GNGSA,A,3,196,195,199,11,20,05,13,06,15,29,19,194,1.13,0.60,0.96,1*01
$GNGSA,A,3,71,86,85,72,,,,,,,,,1.13,0.60,0.96,2*08
$GNGSA,A,3,19,33,12,04,10,,,,,,,,1.13,0.60,0.96,3*07
$GNGSA,A,3,44,21,12,38,22,08,13,07,40,35,34,39,1.13,0.60,0.96,4*07
$GNGSA,A,3,16,,,,,,,,,,,,1.13,0.60,0.96,4*09
$GPGSV,4,1,16,196,74,063,38,195,71,111,41,199,60,167,39,50,60,167,41,1*51
$GPGSV,4,2,16,11,60,035,42,20,54,349,44,05,50,304,38,13,47,184,46,1*6C
$GPGSV,4,3,16,06,34,094,35,15,22,214,31,29,20,319,33,19,19,156,28,1*65
$GPGSV,4,4,16,30,17,102,22,194,16,171,34,07,08,070,15,25,07,272,16,1*52
$GPGSV,2,1,08,196,74,063,39,195,71,111,42,11,60,035,42,199,60,167,47,8*5A
$GPGSV,2,2,08,06,34,094,40,30,17,102,19,194,16,171,32,25,07,272,24,8*5F
$GLGSV,1,1,04,71,71,342,44,86,57,001,46,85,57,106,35,72,45,233,29,1*75
$GAGSV,2,1,05,19,78,103,35,33,54,074,41,12,46,339,38,04,32,206,22,7*73
$GAGSV,2,2,05,10,25,321,22,7*40
$GAGSV,2,1,05,19,78,103,39,33,54,074,39,12,46,339,42,04,32,206,32,1*7A
$GAGSV,2,2,05,10,25,321,37,1*42
$GBGSV,4,1,13,44,88,349,43,21,64,267,44,12,63,329,42,38,53,354,43,1*7A
$GBGSV,4,2,13,22,50,026,39,08,46,334,36,13,41,317,41,07,38,208,28,1*79
$GBGSV,4,3,13,40,37,197,35,35,37,140,42,34,32,321,31,39,30,170,43,1*77
$GBGSV,4,4,13,16,23,174,40,1*44
$GBGSV,2,1,08,44,88,349,43,21,64,267,35,38,53,354,41,22,50,026,29,4*75
$GBGSV,2,2,08,35,37,140,42,40,37,197,37,34,32,321,35,39,30,170,42,4*78
$GNACCURACY,3.7*12
$PAIRSAT,1,29,1,0,200,2,0,200,3,0,200,4,0,200,5,0,201,6,0,221,7,0,200,8,0,200,11,0,21,13,0,1,15,0,1,16,0,200,17,0,200,18,0,200,19,0,201,20,0,201,21,0,200,23,0,200,24,0,200,25,0,220,26,0,200,27,0,200,28,0,200,29,0,201,30,0,200,194,0,621,195,0,621,196,0,620,199,0,21*5D
$PAIRSAT,2,24,65,0,200,66,0,200,67,0,200,68,0,200,69,0,200,70,0,200,71,0,201,72,0,201,73,0,200,74,0,200,75,0,200,76,0,200,77,0,200,78,0,200,79,0,200,80,0,200,81,0,200,82,0,200,83,0,200,84,0,200,85,0,201,86,0,201,87,0,200,88,0,200*7A
$PAIRSAT,3,17,4,0,21,7,0,200,8,0,200,9,0,200,10,0,1221,11,0,1200,12,0,1221,13,0,1200,15,0,1200,19,0,1221,21,0,1000,24,0,1200,25,0,1200,26,0,1200,27,0,1200,33,0,1021,34,0,1000*5F
$PAIRSAT,4,42,1,0,200,2,0,200,3,0,201,4,0,200,5,0,200,6,0,200,7,0,1,8,0,1,12,0,1,13,0,1,14,0,200,16,0,201,19,0,600,20,0,600,21,0,621,22,0,621,23,0,600,24,0,600,25,0,600,26,0,600,27,0,600,28,0,600,29,0,600,30,0,600,32,0,400,33,0,400,34,0,421,35,0,421,36,0,400,37,0,400,38,0,421,39,0,421,40,0,421,41,0,400,42,0,400,43,0,400,44,0,421,45,0,400,46,0,400,59,0,400,60,0,400,61,0,400*71
$PAIRDGP,10,5,6,7,11,13,15,19,20,29,30*44
$GNGGA,095115.000,2500.8049999,N,12132.4796958,E,4,53,0.60,17.214,M,15.25,M,16,3335*7D
$GNRMC,095115.000,A,2500.8049999,N,12132.4796958,E,0.06,148.58,120523,,,R,V*11
$GNACCURACY,3.7*12
$GNGGA,095115.100,2500.8050149,N,12132.4796759,E,4,53,0.60,17.235,M,15.25,M,16,3335*7D
$GNRMC,095115.100,A,2500.8050149,N,12132.4796759,E,0.08,148.58,120523,,,R,V*1C
$GNACCURACY,3.7*12
$GNGGA,095115.200,2500.8050397,N,12132.4796578,E,4,53,0.60,17.246,M,15.25,M,16,3335*7A
$GNRMC,095115.200,A,2500.8050397,N,12132.4796578,E,0.10,148.58,120523,,,R,V*16
$GNACCURACY,3.7*12
$GNGGA,095115.300,2500.8050621,N,12132.4796363,E,4,53,0.60,17.239,M,15.25,M,16,3335*77
$GNRMC,095115.300,A,2500.8050621,N,12132.4796363,E,0.13,148.58,120523,,,R,V*10
$GNACCURACY,3.7*12
$GNGGA,095115.400,2500.8050863,N,12132.4796246,E,4,53,0.60,17.230,M,15.25,M,16,3335*77
$GNRMC,095115.400,A,2500.8050863,N,12132.4796246,E,0.16,148.58,120523,,,R,V*1C
$GNACCURACY,3.7*12
$GNGGA,095115.500,2500.8051131,N,12132.4796061,E,4,53,0.60,17.185,M,15.25,M,16,3335*73
$GNRMC,095115.500,A,2500.8051131,N,12132.4796061,E,0.19,148.58,120523,,,R,V*1A
$GNACCURACY,3.7*12
$GNGGA,095115.600,2500.8051340,N,12132.4795839,E,4,53,0.60,17.206,M,15.25,M,16,3335*7A
$GNRMC,095115.600,A,2500.8051340,N,12132.4795839,E,0.22,148.58,120523,,,R,V*13
$GNACCURACY,3.7*12
$GNGGA,095115.700,2500.8051602,N,12132.4795357,E,4,53,0.60,17.242,M,15.25,M,16,3335*7B
$GNRMC,095115.700,A,2500.8051602,N,12132.4795357,E,0.24,148.58,120523,,,R,V*14
$GNACCURACY,3.8*1D
$GNGGA,095115.800,2500.8051814,N,12132.4795021,E,4,53,0.60,17.319,M,15.25,M,16,3335*70
$GNRMC,095115.800,A,2500.8051814,N,12132.4795021,E,0.26,148.58,120523,,,R,V*12
$GNACCURACY,3.8*1D
$GNGGA,095115.900,2500.8052123,N,12132.4794680,E,4,53,0.58,17.250,M,15.25,M,16,3335*74
$GNRMC,095115.900,A,2500.8052123,N,12132.4794680,E,0.32,148.58,120523,,,R,V*14
$GNGSA,A,3,196,195,199,11,20,05,13,06,15,29,19,194,0.90,0.58,0.69,1*00
$GNGSA,A,3,71,86,85,72,,,,,,,,,0.90,0.58,0.69,2*09
$GNGSA,A,3,19,33,12,04,10,,,,,,,,0.90,0.58,0.69,3*06
$GNGSA,A,3,44,21,12,38,22,08,13,07,40,35,34,39,0.90,0.58,0.69,4*06
$GNGSA,A,3,16,,,,,,,,,,,,0.90,0.58,0.69,4*08
$GPGSV,4,1,16,196,74,063,37,195,71,111,41,199,60,167,40,50,60,167,41,1*50
$GPGSV,4,2,16,11,60,035,44,20,54,349,41,05,50,304,37,13,47,184,45,1*63
$GPGSV,4,3,16,06,34,094,38,15,22,214,25,29,20,319,32,19,19,156,25,1*61
$GPGSV,4,4,16,30,17,102,24,194,16,171,31,07,08,070,14,25,07,272,17,1*51
$GPGSV,2,1,08,196,74,063,38,195,71,111,40,11,60,035,46,199,60,167,47,8*5D
$GPGSV,2,2,08,06,34,094,42,30,17,102,21,194,16,171,34,25,07,272,21,8*55
$GLGSV,1,1,04,71,71,342,44,86,57,001,43,85,57,106,27,72,45,233,25,1*7F
$GAGSV,2,1,05,19,78,103,36,33,54,074,39,12,46,339,40,04,32,206,26,7*74
$GAGSV,2,2,05,10,25,321,25,7*47
$GAGSV,2,1,05,19,78,103,36,33,54,074,39,12,46,339,42,04,32,206,28,1*7E
$GAGSV,2,2,05,10,25,321,33,1*46
$GBGSV,4,1,13,44,88,349,42,21,64,267,42,12,63,329,39,38,53,354,44,1*76
$GBGSV,4,2,13,22,50,026,42,08,46,334,38,13,41,317,37,07,38,208,22,1*70
$GBGSV,4,3,13,40,37,197,36,35,37,140,44,34,32,321,29,39,30,170,42,1*7A
$GBGSV,4,4,13,16,23,174,37,1*44
$GBGSV,2,1,08,44,88,349,42,21,64,267,40,38,53,354,43,22,50,026,36,4*7A
$GBGSV,2,2,08,35,37,140,42,40,37,197,33,34,32,321,36,39,30,170,40,4*7D
$GNACCURACY,3.8*1D
$PAIRSAT,1,29,1,0,200,2,0,200,3,0,200,4,0,200,5,0,201,6,0,221,7,0,200,8,0,200,11,0,21,13,0,1,15,0,1,16,0,200,17,0,200,18,0,200,19,0,201,20,0,201,21,0,200,23,0,200,24,0,200,25,0,220,26,0,200,27,0,200,28,0,200,29,0,201,30,0,200,194,0,621,195,0,621,196,0,620,199,0,21*5D
$PAIRSAT,2,24,65,0,200,66,0,200,67,0,200,68,0,200,69,0,200,70,0,200,71,0,201,72,0,201,73,0,200,74,0,200,75,0,200,76,0,200,77,0,200,78,0,200,79,0,200,80,0,200,81,0,200,82,0,200,83,0,200,84,0,200,85,0,201,86,0,201,87,0,200,88,0,200*7A
$PAIRSAT,3,17,4,0,21,7,0,200,8,0,200,9,0,200,10,0,1221,11,0,1200,12,0,1221,13,0,1200,15,0,1200,19,0,1221,21,0,1000,24,0,1200,25,0,1200,26,0,1200,27,0,1200,33,0,1021,34,0,1000*5F
$PAIRSAT,4,42,1,0,200,2,0,200,3,0,201,4,0,200,5,0,200,6,0,200,7,0,1,8,0,1,12,0,1,13,0,1,14,0,200,16,0,201,19,0,600,20,0,600,21,0,621,22,0,621,23,0,600,24,0,600,25,0,600,26,0,600,27,0,600,28,0,600,29,0,600,30,0,600,32,0,400,33,0,400,34,0,421,35,0,421,36,0,400,37,0,400,38,0,421,39,0,421,40,0,421,41,0,400,42,0,400,43,0,400,44,0,421,45,0,400,46,0,400,59,0,400,60,0,400,61,0,400*71
$PAIRDGP,10,5,6,7,11,13,15,19,20,29,30*44
$GNGGA,095116.000,2500.8052446,N,12132.4794360,E,4,53,0.58,17.169,M,15.25,M,17,3335*7B
$GNRMC,095116.000,A,2500.8052446,N,12132.4794360,E,0.39,148.58,120523,,,R,V*18
$GNACCURACY,3.8*1D
$GNGGA,095116.100,2500.8052827,N,12132.4794153,E,4,53,0.58,17.192,M,15.25,M,17,3335*77
$GNRMC,095116.100,A,2500.8052827,N,12132.4794153,E,0.51,148.58,120523,,,R,V*1E
$GNACCURACY,3.8*1D
$GNGGA,095116.200,2500.8053106,N,12132.4793718,E,4,53,0.58,17.219,M,15.25,M,17,3335*71
$GNRMC,095116.200,A,2500.8053106,N,12132.4793718,E,0.62,329.63,120523,,,R,V*15
$GNACCURACY,3.7*12
$GNGGA,095116.300,2500.8053463,N,12132.4793406,E,4,53,0.58,17.243,M,15.25,M,17,3335*75
$GNRMC,095116.300,A,2500.8053463,N,12132.4793406,E,0.75,330.38,120523,,,R,V*1E
$GNACCURACY,3.7*12
$GNGGA,095116.400,2500.8053858,N,12132.4793039,E,4,53,0.58,17.177,M,15.25,M,17,3335*7A
$GNRMC,095116.400,A,2500.8053858,N,12132.4793039,E,0.87,328.77,120523,,,R,V*1A
$GNACCURACY,3.7*12
$GNGGA,095116.500,2500.8054211,N,12132.4792688,E,4,53,0.58,17.196,M,15.25,M,17,3335*79
$GNRMC,095116.500,A,2500.8054211,N,12132.4792688,E,0.97,328.31,120523,,,R,V*15
$GNACCURACY,3.7*12
$GNGGA,095116.600,2500.8054590,N,12132.4792248,E,4,53,0.58,17.219,M,15.25,M,17,3335*78
$GNRMC,095116.600,A,2500.8054590,N,12132.4792248,E,1.11,327.79,120523,,,R,V*1C
$GNACCURACY,3.7*12
$GNGGA,095116.700,2500.8054919,N,12132.4791831,E,4,53,0.58,17.286,M,15.25,M,17,3335*75
$GNRMC,095116.700,A,2500.8054919,N,12132.4791831,E,1.19,327.29,120523,,,R,V*1A
$GNACCURACY,3.7*12
$GNGGA,095116.800,2500.8055326,N,12132.4791498,E,4,53,0.58,17.238,M,15.25,M,17,3335*77
$GNRMC,095116.800,A,2500.8055326,N,12132.4791498,E,1.29,326.72,120523,,,R,V*11
$GNACCURACY,3.7*12
$GNGGA,095116.900,2500.8055696,N,12132.4791223,E,4,53,0.58,17.301,M,15.25,M,17,3335*75
$GNRMC,095116.900,A,2500.8055696,N,12132.4791223,E,1.35,326.61,120523,,,R,V*17
$GNGSA,A,3,196,195,199,11,20,05,13,06,15,29,19,194,0.90,0.58,0.69,1*00
$GNGSA,A,3,71,86,85,72,,,,,,,,,0.90,0.58,0.69,2*09
$GNGSA,A,3,19,33,12,04,10,,,,,,,,0.90,0.58,0.69,3*06
$GNGSA,A,3,44,21,12,38,22,08,13,07,40,35,34,39,0.90,0.58,0.69,4*06
$GNGSA,A,3,16,,,,,,,,,,,,0.90,0.58,0.69,4*08
$GPGSV,4,1,16,196,74,063,40,195,71,111,43,199,60,167,37,50,60,167,40,1*53
$GPGSV,4,2,16,11,60,035,43,20,54,349,44,05,50,304,28,13,47,184,36,1*6B
$GPGSV,4,3,16,06,34,094,34,15,22,214,21,29,20,319,34,19,19,156,24,1*6E
$GPGSV,4,4,16,30,17,102,24,194,16,171,31,07,08,070,16,25,07,272,25,1*52
$GPGSV,2,1,08,196,74,063,43,195,71,111,40,11,60,035,45,199,60,167,46,8*53
$GPGSV,2,2,08,06,34,094,36,30,17,102,23,194,16,171,34,25,07,272,27,8*52
$GLGSV,1,1,04,71,71,342,44,86,57,001,46,85,57,106,37,72,45,233,26,1*78
$GAGSV,2,1,05,19,78,103,34,33,54,074,36,12,46,339,36,04,32,206,25,7*7B
$GAGSV,2,2,05,10,25,321,25,7*47
$GAGSV,2,1,05,19,78,103,39,33,54,074,34,12,46,339,38,04,32,206,29,1*70
$GAGSV,2,2,05,10,25,321,28,1*4C
$GBGSV,4,1,13,44,88,349,40,21,64,267,43,12,63,329,40,38,53,354,43,1*7C
$GBGSV,4,2,13,22,50,026,41,08,46,334,37,13,41,317,34,07,38,208,23,1*7E
$GBGSV,4,3,13,40,37,197,31,35,37,140,46,34,32,321,30,39,30,170,42,1*77
$GBGSV,4,4,13,16,23,174,34,1*47
$GBGSV,2,1,08,44,88,349,35,21,64,267,42,38,53,354,44,22,50,026,39,4*70
$GBGSV,2,2,08,35,37,140,42,40,37,197,31,34,32,321,34,39,30,170,42,4*7F
$GNACCURACY,3.7*12
$PAIRSAT,1,29,1,0,200,2,0,200,3,0,200,4,0,200,5,0,201,6,0,221,7,0,200,8,0,200,11,0,21,13,0,1,15,0,1,16,0,200,17,0,200,18,0,200,19,0,201,20,0,201,21,0,200,23,0,200,24,0,200,25,0,220,26,0,200,27,0,200,28,0,200,29,0,201,30,0,200,194,0,621,195,0,621,196,0,620,199,0,21*5D
$PAIRSAT,2,24,65,0,200,66,0,200,67,0,200,68,0,200,69,0,200,70,0,200,71,0,201,72,0,201,73,0,200,74,0,200,75,0,200,76,0,200,77,0,200,78,0,200,79,0,200,80,0,200,81,0,200,82,0,200,83,0,200,84,0,200,85,0,201,86,0,201,87,0,200,88,0,200*7A
$PAIRSAT,3,17,4,0,21,7,0,200,8,0,200,9,0,200,10,0,1221,11,0,1200,12,0,1221,13,0,1200,15,0,1200,19,0,1221,21,0,1000,24,0,1200,25,0,1200,26,0,1200,27,0,1200,33,0,1021,34,0,1000*5F
$PAIRSAT,4,42,1,0,200,2,0,200,3,0,201,4,0,200,5,0,200,6,0,200,7,0,1,8,0,1,12,0,1,13,0,1,14,0,200,16,0,201,19,0,600,20,0,600,21,0,621,22,0,621,23,0,600,24,0,600,25,0,600,26,0,600,27,0,600,28,0,600,29,0,600,30,0,600,32,0,400,33,0,400,34,0,421,35,0,421,36,0,400,37,0,400,38,0,421,39,0,421,40,0,421,41,0,400,42,0,400,43,0,400,44,0,421,45,0,400,46,0,400,59,0,400,60,0,400,61,0,400*71
$PAIRDGP,10,5,6,7,11,13,15,19,20,29,30*44
$GNGGA,095117.000,2500.8055904,N,12132.4791003,E,4,53,0.58,17.386,M,15.25,M,18,3335*79
$GNRMC,095117.000,A,2500.8055904,N,12132.4791003,E,1.41,326.53,120523,,,R,V*19
$GNACCURACY,3.8*1D
$GNGGA,095117.100,2500.8056269,N,12132.4790661,E,4,53,0.58,17.354,M,15.25,M,18,3335*77
$GNRMC,095117.100,A,2500.8056269,N,12132.4790661,E,1.44,325.60,120523,,,R,V*1E
$GNACCURACY,3.8*1D
$GNGGA,095117.200,2500.8056708,N,12132.4790415,E,4,53,0.58,17.275,M,15.25,M,18,3335*75
$GNRMC,095117.200,A,2500.8056708,N,12132.4790415,E,1.48,325.35,120523,,,R,V*12
$GNACCURACY,3.8*1D
$GNGGA,095117.300,2500.8057032,N,12132.4790076,E,4,53,0.58,17.343,M,15.25,M,18,3335*7E
$GNRMC,095117.300,A,2500.8057032,N,12132.4790076,E,1.51,325.18,120523,,,R,V*1A
$GNACCURACY,3.8*1D
$GNGGA,095117.400,2500.8057460,N,12132.4789723,E,4,53,0.58,17.388,M,15.25,M,18,3335*72
$GNRMC,095117.400,A,2500.8057460,N,12132.4789723,E,1.54,325.27,120523,,,R,V*18
$GNACCURACY,3.8*1D
$GNGGA,095117.500,2500.8057743,N,12132.4789225,E,4,53,0.58,17.395,M,15.25,M,18,3335*7E
$GNRMC,095117.500,A,2500.8057743,N,12132.4789225,E,1.54,324.61,120523,,,R,V*1B
$GNACCURACY,3.8*1D
$GNGGA,095117.600,2500.8058062,N,12132.4788729,E,4,53,0.58,17.328,M,15.25,M,18,3335*78
$GNRMC,095117.600,A,2500.8058062,N,12132.4788729,E,1.55,324.78,120523,,,R,V*12
$GNACCURACY,3.8*1D
$GNGGA,095117.700,2500.8058508,N,12132.4788629,E,4,53,0.58,17.350,M,15.25,M,18,3335*7E
$GNRMC,095117.700,A,2500.8058508,N,12132.4788629,E,1.59,324.48,120523,,,R,V*14
$GNACCURACY,3.8*1D
$GNGGA,095117.800,2500.8058889,N,12132.4788194,E,4,53,0.58,17.356,M,15.25,M,18,3335*72
$GNRMC,095117.800,A,2500.8058889,N,12132.4788194,E,1.61,323.96,120523,,,R,V*11
$GNACCURACY,3.7*12
$GNGGA,095117.900,2500.8059134,N,12132.4787698,E,4,53,0.58,17.298,M,15.25,M,18,3335*7A
$GNRMC,095117.900,A,2500.8059134,N,12132.4787698,E,1.60,321.62,120523,,,R,V*12
$GNGSA,A,3,196,195,199,11,20,05,13,06,15,29,19,194,0.90,0.58,0.69,1*00
$GNGSA,A,3,71,86,85,72,,,,,,,,,0.90,0.58,0.69,2*09
$GNGSA,A,3,19,33,12,04,10,,,,,,,,0.90,0.58,0.69,3*06
$GNGSA,A,3,44,21,12,38,22,08,13,07,40,35,34,39,0.90,0.58,0.69,4*06
$GNGSA,A,3,16,,,,,,,,,,,,0.90,0.58,0.69,4*08
$GPGSV,4,1,16,196,74,063,42,195,71,111,42,199,60,167,38,50,60,167,40,1*5F
$GPGSV,4,2,16,11,60,035,44,20,54,349,45,05,50,304,31,13,47,184,25,1*67
$GPGSV,4,3,16,06,34,094,38,15,22,214,26,29,20,319,33,19,19,156,24,1*62
$GPGSV,4,4,16,30,17,102,28,194,16,171,32,07,08,070,16,25,07,272,20,1*58
$GPGSV,2,1,08,196,74,063,45,195,71,111,41,11,60,035,47,199,60,167,46,8*56
$GPGSV,2,2,08,06,34,094,27,30,17,102,30,194,16,171,35,25,07,272,26,8*50
$GLGSV,1,1,04,71,71,342,40,86,57,001,45,85,57,106,35,72,45,233,26,1*7D
$GAGSV,2,1,05,19,78,103,35,33,54,074,31,12,46,339,31,04,32,206,24,7*7B
$GAGSV,2,2,05,10,25,321,24,7*46
$GAGSV,2,1,05,19,78,103,38,33,54,074,39,12,46,339,36,04,32,206,25,1*7E
$GAGSV,2,2,05,10,25,321,30,1*45
$GBGSV,4,1,13,44,88,349,43,21,64,267,40,12,63,329,41,38,53,354,45,1*7B
$GBGSV,4,2,13,22,50,026,41,08,46,334,36,13,41,317,30,07,38,208,23,1*7B
$GBGSV,4,3,13,40,37,197,27,35,37,140,43,34,32,321,25,39,30,170,41,1*72
$GBGSV,4,4,13,16,23,174,37,1*44
$GBGSV,2,1,08,44,88,349,39,21,64,267,39,38,53,354,43,22,50,026,39,4*77
$GBGSV,2,2,08,35,37,140,41,40,37,197,22,34,32,321,31,39,30,170,40,4*79
$GNACCURACY,3.7*12
$PAIRSAT,1,29,1,0,200,2,0,200,3,0,200,4,0,200,5,0,201,6,0,221,7,0,200,8,0,200,11,0,21,13,0,1,15,0,1,16,0,200,17,0,200,18,0,200,19,0,201,20,0,201,21,0,200,23,0,200,24,0,200,25,0,220,26,0,200,27,0,200,28,0,200,29,0,201,30,0,200,194,0,621,195,0,621,196,0,620,199,0,21*5D
$PAIRSAT,2,24,65,0,200,66,0,200,67,0,200,68,0,200,69,0,200,70,0,200,71,0,201,72,0,201,73,0,200,74,0,200,75,0,200,76,0,200,77,0,200,78,0,200,79,0,200,80,0,200,81,0,200,82,0,200,83,0,200,84,0,200,85,0,201,86,0,201,87,0,200,88,0,200*7A
$PAIRSAT,3,17,4,0,21,7,0,200,8,0,200,9,0,200,10,0,1221,11,0,1200,12,0,1221,13,0,1200,15,0,1200,19,0,1221,21,0,1000,24,0,1200,25,0,1200,26,0,1200,27,0,1200,33,0,1021,34,0,1000*5F
$PAIRSAT,4,42,1,0,200,2,0,200,3,0,201,4,0,200,5,0,200,6,0,200,7,0,1,8,0,1,12,0,1,13,0,1,14,0,200,16,0,201,19,0,600,20,0,600,21,0,621,22,0,621,23,0,600,24,0,600,25,0,600,26,0,600,27,0,600,28,0,600,29,0,600,30,0,600,32,0,400,33,0,400,34,0,421,35,0,421,36,0,400,37,0,400,38,0,421,39,0,421,40,0,421,41,0,400,42,0,400,43,0,400,44,0,421,45,0,400,46,0,400,59,0,400,60,0,400,61,0,400*71
$PAIRDGP,10,5,6,7,11,13,15,19,20,29,30*44
$GNGGA,095118.000,2500.8059506,N,12132.4787580,E,4,53,0.58,17.374,M,15.25,M,19,3335*71
$GNRMC,095118.000,A,2500.8059506,N,12132.4787580,E,1.62,321.04,120523,,,R,V*19
$GNACCURACY,3.7*12
$GNGGA,095118.100,2500.8059917,N,12132.4786978,E,4,53,0.58,17.354,M,15.25,M,19,3335*74
$GNRMC,095118.100,A,2500.8059917,N,12132.4786978,E,1.63,321.96,120523,,,R,V*14
$GNACCURACY,3.7*12
$GNGGA,095118.200,2500.8060233,N,12132.4786782,E,4,53,0.58,17.330,M,15.25,M,19,3335*79
$GNRMC,095118.200,A,2500.8060233,N,12132.4786782,E,1.63,321.46,120523,,,R,V*16
$GNACCURACY,3.7*12
$GNGGA,095118.300,2500.8060692,N,12132.4786422,E,4,53,0.58,17.331,M,15.25,M,19,3335*7F
$GNRMC,095118.300,A,2500.8060692,N,12132.4786422,E,1.66,322.23,120523,,,R,V*14
$GNACCURACY,3.7*12
$GNGGA,095118.400,2500.8061013,N,12132.4785878,E,4,53,0.58,17.302,M,15.25,M,19,3335*76
$GNRMC,095118.400,A,2500.8061013,N,12132.4785878,E,1.67,321.70,120523,,,R,V*19
$GNACCURACY,3.7*12
$GNGGA,095118.500,2500.8061448,N,12132.4785733,E,4,53,0.58,17.325,M,15.25,M,19,3335*78
$GNRMC,095118.500,A,2500.8061448,N,12132.4785733,E,1.66,322.00,120523,,,R,V*17
$GNACCURACY,3.7*12
$GNGGA,095118.600,2500.8061947,N,12132.4785373,E,4,53,0.58,17.268,M,15.25,M,19,3335*71
$GNRMC,095118.600,A,2500.8061947,N,12132.4785373,E,1.75,322.29,120523,,,R,V*1F
$GNACCURACY,3.7*12
$GNGGA,095118.700,2500.8062270,N,12132.4785252,E,4,53,0.58,17.316,M,15.25,M,19,3335*76
$GNRMC,095118.700,A,2500.8062270,N,12132.4785252,E,1.68,323.01,120523,,,R,V*17
$GNACCURACY,3.8*1D
$GNGGA,095118.800,2500.8062608,N,12132.4784760,E,4,53,0.58,17.350,M,15.25,M,19,3335*75
$GNRMC,095118.800,A,2500.8062608,N,12132.4784760,E,1.65,323.71,120523,,,R,V*1C
$GNACCURACY,3.8*1D
$GNGGA,095118.900,2500.8062957,N,12132.4784469,E,4,53,0.58,17.335,M,15.25,M,19,3335*78
$GNRMC,095118.900,A,2500.8062957,N,12132.4784469,E,1.60,317.46,120523,,,R,V*14
$GNGSA,A,3,196,195,199,11,20,05,13,06,15,29,19,194,0.90,0.58,0.69,1*00
$GNGSA,A,3,71,86,85,72,,,,,,,,,0.90,0.58,0.69,2*09
$GNGSA,A,3,19,33,12,04,10,,,,,,,,0.90,0.58,0.69,3*06
$GNGSA,A,3,44,21,12,38,22,08,13,07,40,35,34,39,0.90,0.58,0.69,4*06
$GNGSA,A,3,16,,,,,,,,,,,,0.90,0.58,0.69,4*08
$GPGSV,4,1,16,196,74,063,42,195,71,111,41,199,60,167,38,50,60,167,41,1*5D
$GPGSV,4,2,16,11,60,035,42,20,54,349,45,05,50,304,33,13,47,184,27,1*61
$GPGSV,4,3,16,06,34,094,34,15,23,214,22,29,20,319,32,19,19,156,23,1*6D
$GPGSV,4,4,16,30,17,102,25,194,16,171,35,07,08,070,16,25,07,272,20,1*52
$GPGSV,2,1,08,196,74,063,47,195,71,111,44,11,60,035,46,199,60,167,44,8*52
$GPGSV,2,2,08,06,34,094,35,30,17,102,23,194,16,171,33,25,07,272,20,8*51
$GLGSV,1,1,04,71,71,342,41,86,57,001,41,85,57,106,33,72,45,233,25,1*7D
$GAGSV,2,1,05,19,78,103,36,33,54,074,34,12,46,339,31,04,32,206,21,7*78
$GAGSV,2,2,05,10,25,321,25,7*47
$GAGSV,1,1,04,19,78,103,39,33,54,074,36,12,46,339,36,04,32,206,21,1*76
$GBGSV,4,1,13,44,88,349,44,21,64,267,41,12,63,329,41,38,53,354,43,1*7B
$GBGSV,4,2,13,22,50,026,43,08,46,334,33,13,41,317,32,07,38,208,24,1*79
$GBGSV,4,3,13,40,37,197,27,35,37,140,46,34,32,321,28,39,30,170,43,1*78
$GBGSV,4,4,13,16,23,174,39,1*4A
$GBGSV,2,1,08,44,88,349,41,21,64,267,39,38,53,354,44,22,50,026,40,4*71
$GBGSV,2,2,08,35,37,140,42,40,37,197,28,34,32,321,30,39,30,170,40,4*71
$GNACCURACY,3.8*1D
$PAIRSAT,1,29,1,0,200,2,0,200,3,0,200,4,0,200,5,0,201,6,0,221,7,0,200,8,0,200,11,0,21,13,0,1,15,0,1,16,0,200,17,0,200,18,0,200,19,0,201,20,0,201,21,0,200,23,0,200,24,0,200,25,0,220,26,0,200,27,0,200,28,0,200,29,0,201,30,0,200,194,0,621,195,0,621,196,0,620,199,0,21*5D
$PAIRSAT,2,24,65,0,200,66,0,200,67,0,200,68,0,200,69,0,200,70,0,200,71,0,201,72,0,201,73,0,200,74,0,200,75,0,200,76,0,200,77,0,200,78,0,200,79,0,200,80,0,200,81,0,200,82,0,200,83,0,200,84,0,200,85,0,201,86,0,201,87,0,200,88,0,200*7A
$PAIRSAT,3,17,4,0,21,7,0,200,8,0,200,9,0,200,10,0,1221,11,0,1200,12,0,1221,13,0,1200,15,0,1200,19,0,1221,21,0,1000,24,0,1200,25,0,1200,26,0,1200,27,0,1200,33,0,1021,34,0,1000*5F
$PAIRSAT,4,42,1,0,200,2,0,200,3,0,201,4,0,200,5,0,200,6,0,200,7,0,1,8,0,1,12,0,1,13,0,1,14,0,200,16,0,201,19,0,600,20,0,600,21,0,621,22,0,621,23,0,600,24,0,600,25,0,600,26,0,600,27,0,600,28,0,600,29,0,600,30,0,600,32,0,400,33,0,400,34,0,421,35,0,421,36,0,400,37,0,400,38,0,421,39,0,421,40,0,421,41,0,400,42,0,400,43,0,400,44,0,421,45,0,400,46,0,400,59,0,400,60,0,400,61,0,400*71
$PAIRDGP,10,5,6,7,11,13,15,19,20,29,30*44
$GNGGA,095119.000,2500.8063196,N,12132.4783819,E,4,52,0.58,17.341,M,15.25,M,20,3335*70
$GNRMC,095119.000,A,2500.8063196,N,12132.4783819,E,1.57,318.71,120523,,,R,V*1B
$GNACCURACY,3.8*1D
$GNGGA,095119.100,2500.8063631,N,12132.4783552,E,4,53,0.58,17.297,M,15.25,M,20,3335*72
$GNRMC,095119.100,A,2500.8063631,N,12132.4783552,E,1.64,316.97,120523,,,R,V*14
$GNACCURACY,3.8*1D
$GNGGA,095119.200,2500.8063968,N,12132.4783403,E,4,53,0.58,17.330,M,15.25,M,20,3335*7B
$GNRMC,095119.200,A,2500.8063968,N,12132.4783403,E,1.59,315.05,120523,,,R,V*17
$GNACCURACY,3.8*1D
$GNGGA,095119.300,2500.8064309,N,12132.4782979,E,4,53,0.58,17.295,M,15.25,M,20,3335*7F
$GNRMC,095119.300,A,2500.8064309,N,12132.4782979,E,1.60,314.16,120523,,,R,V*14
$GNACCURACY,3.8*1D
$GNGGA,095119.400,2500.8064753,N,12132.4782670,E,4,52,0.58,17.283,M,15.25,M,20,3335*73
$GNRMC,095119.400,A,2500.8064753,N,12132.4782670,E,1.65,315.29,120523,,,R,V*16
$GNACCURACY,3.8*1D
$GNGGA,095119.500,2500.8065023,N,12132.4782464,E,4,52,0.58,17.307,M,15.25,M,20,3335*79
$GNRMC,095119.500,A,2500.8065023,N,12132.4782464,E,1.69,315.93,120523,,,R,V*1C
$GNACCURACY,3.8*1D
$GNGGA,095119.600,2500.8065412,N,12132.4782055,E,4,52,0.58,17.286,M,15.25,M,20,3335*72
$GNRMC,095119.600,A,2500.8065412,N,12132.4782055,E,1.71,318.82,120523,,,R,V*1B
$GNACCURACY,3.8*1D
$GNGGA,095119.700,2500.8065818,N,12132.4781673,E,4,52,0.58,17.267,M,15.25,M,20,3335*7B
$GNRMC,095119.700,A,2500.8065818,N,12132.4781673,E,1.51,322.14,120523,,,R,V*19
$GNACCURACY,3.8*1D
$GNGGA,095119.800,2500.8066011,N,12132.4781413,E,4,52,0.58,17.338,M,15.25,M,20,3335*79
$GNRMC,095119.800,A,2500.8066011,N,12132.4781413,E,1.51,321.64,120523,,,R,V*14
$GNACCURACY,3.8*1D
$GNGGA,095119.900,2500.8066283,N,12132.4780997,E,4,52,0.58,17.324,M,15.25,M,20,3335*7C
$GNRMC,095119.900,A,2500.8066283,N,12132.4780997,E,1.40,319.12,120523,,,R,V*16
$GNGSA,A,3,196,195,199,11,20,05,13,06,15,29,19,194,0.91,0.60,0.69,1*0A
$GNGSA,A,3,71,86,85,72,,,,,,,,,0.91,0.60,0.69,2*03
$GNGSA,A,3,19,33,12,04,10,,,,,,,,0.91,0.60,0.69,3*0C
$GNGSA,A,3,44,21,12,38,22,08,13,40,35,34,39,16,0.91,0.60,0.69,4*0C
$GPGSV,4,1,16,196,74,063,43,195,71,111,40,199,60,167,39,50,60,167,41,1*5C
$GPGSV,4,2,16,11,60,035,41,20,54,349,44,05,50,304,31,13,47,184,32,1*65
$GPGSV,4,3,16,06,34,094,31,15,23,214,22,29,20,319,31,19,19,156,24,1*6C
$GPGSV,4,4,16,30,17,102,23,194,16,171,36,07,08,070,15,25,06,272,20,1*55
$GPGSV,2,1,08,196,74,063,45,195,71,111,32,11,60,035,48,199,60,167,43,8*58
$GPGSV,2,2,08,06,34,094,36,30,17,102,26,194,16,171,34,25,06,272,22,8*53
$GLGSV,1,1,04,71,71,342,42,86,57,001,43,85,57,106,38,72,45,233,27,1*75
$GAGSV,2,1,05,19,78,103,35,33,54,074,37,12,46,339,27,04,32,206,21,7*7F
$GAGSV,2,2,05,10,25,321,24,7*46
$GAGSV,2,1,05,19,78,103,40,33,54,074,42,12,46,339,31,04,32,206,19,1*75
$GAGSV,2,2,05,10,25,321,36,1*43
$GBGSV,4,1,13,44,88,349,42,21,64,267,43,12,63,329,43,38,53,354,41,1*7F
$GBGSV,4,2,13,22,50,026,43,08,46,334,34,13,41,317,34,07,38,208,23,1*7F
$GBGSV,4,3,13,40,37,197,26,35,37,140,44,34,32,321,37,39,30,170,43,1*75
$GBGSV,4,4,13,16,23,174,33,1*40
$GBGSV,2,1,08,44,88,349,43,21,64,267,43,38,53,354,45,22,50,026,42,4*7D
$GBGSV,2,2,08,35,37,140,42,40,37,197,26,34,32,321,33,39,30,170,41,4*7D
$GNACCURACY,3.8*1D
$PAIRSAT,1,29,1,0,200,2,0,200,3,0,200,4,0,200,5,0,201,6,0,221,7,0,200,8,0,200,11,0,21,13,0,1,15,0,1,16,0,200,17,0,200,18,0,200,19,0,201,20,0,201,21,0,200,23,0,200,24,0,200,25,0,220,26,0,200,27,0,200,28,0,200,29,0,201,30,0,200,194,0,621,195,0,621,196,0,620,199,0,21*5D
$PAIRSAT,2,24,65,0,200,66,0,200,67,0,200,68,0,200,69,0,200,70,0,200,71,0,201,72,0,201,73,0,200,74,0,200,75,0,200,76,0,200,77,0,200,78,0,200,79,0,200,80,0,200,81,0,200,82,0,200,83,0,200,84,0,200,85,0,201,86,0,201,87,0,200,88,0,200*7A
$PAIRSAT,3,17,4,0,21,7,0,200,8,0,200,9,0,200,10,0,1221,11,0,1200,12,0,1221,13,0,1200,15,0,1200,19,0,1221,21,0,1000,24,0,1200,25,0,1200,26,0,1200,27,0,1200,33,0,1021,34,0,1000*5F
$PAIRSAT,4,42,1,0,200,2,0,200,3,0,201,4,0,200,5,0,200,6,0,200,7,0,1,8,0,1,12,0,1,13,0,1,14,0,200,16,0,201,19,0,600,20,0,600,21,0,621,22,0,621,23,0,600,24,0,600,25,0,600,26,0,600,27,0,600,28,0,600,29,0,600,30,0,600,32,0,400,33,0,400,34,0,421,35,0,421,36,0,400,37,0,400,38,0,421,39,0,421,40,0,421,41,0,400,42,0,400,43,0,400,44,0,421,45,0,400,46,0,400,59,0,400,60,0,400,61,0,400*71
$PAIRDGP,10,5,6,7,11,13,15,19,20,29,30*44
$GNGGA,095120.000,2500.8066585,N,12132.4780616,E,4,51,0.60,17.347,M,15.25,M,21,3335*74
$GNRMC,095120.000,A,2500.8066585,N,12132.4780616,E,1.39,318.96,120523,,,R,V*11
$GNACCURACY,3.8*1D
$GNGGA,095120.100,2500.8066972,N,12132.4780269,E,4,50,0.60,17.306,M,15.25,M,21,3335*79
$GNRMC,095120.100,A,2500.8066972,N,12132.4780269,E,1.43,318.04,120523,,,R,V*1E
$GNACCURACY,3.8*1D
$GNGGA,095120.200,2500.8067273,N,12132.4779989,E,4,51,0.58,17.289,M,15.25,M,21,3335*7E
$GNRMC,095120.200,A,2500.8067273,N,12132.4779989,E,1.47,315.59,120523,,,R,V*14
$GNACCURACY,3.8*1D
$GNGGA,095120.300,2500.8067697,N,12132.4779810,E,4,51,0.58,17.346,M,15.25,M,21,3335*72
$GNRMC,095120.300,A,2500.8067697,N,12132.4779810,E,1.52,316.76,120523,,,R,V*10
$GNACCURACY,3.8*1D
$GNGGA,095120.400,2500.8067986,N,12132.4779223,E,4,51,0.58,17.350,M,15.25,M,21,3335*77
$GNRMC,095120.400,A,2500.8067986,N,12132.4779223,E,1.53,318.19,120523,,,R,V*14
$GNACCURACY,3.8*1D
$GNGGA,095120.500,2500.8068461,N,12132.4779078,E,4,51,0.58,17.300,M,15.25,M,21,3335*74
$GNRMC,095120.500,A,2500.8068461,N,12132.4779078,E,1.63,320.37,120523,,,R,V*16
$GNACCURACY,3.8*1D
$GNGGA,095120.600,2500.8068808,N,12132.4778603,E,4,51,0.58,17.334,M,15.25,M,21,3335*78
$GNRMC,095120.600,A,2500.8068808,N,12132.4778603,E,1.71,316.75,120523,,,R,V*1D
$GNACCURACY,3.8*1D
$GNGGA,095120.700,2500.8068961,N,12132.4778247,E,4,51,0.58,17.401,M,15.25,M,21,3335*72
$GNRMC,095120.700,A,2500.8068961,N,12132.4778247,E,1.61,311.73,120523,,,R,V*16
$GNACCURACY,3.8*1D
$GNGGA,095120.800,2500.8069499,N,12132.4777972,E,4,51,0.58,17.316,M,15.25,M,21,3335*75
$GNRMC,095120.800,A,2500.8069499,N,12132.4777972,E,1.59,315.45,120523,,,R,V*1A
$GNACCURACY,3.8*1D
$GNGGA,095120.900,2500.8069832,N,12132.4777684,E,4,51,0.58,17.232,M,15.25,M,21,3335*78
$GNRMC,095120.900,A,2500.8069832,N,12132.4777684,E,1.55,316.62,120523,,,R,V*1A
$GNGSA,A,3,196,195,199,11,20,05,13,06,15,29,19,194,0.90,0.58,0.69,1*00
$GNGSA,A,3,71,86,85,72,,,,,,,,,0.90,0.58,0.69,2*09
$GNGSA,A,3,19,33,12,04,10,,,,,,,,0.90,0.58,0.69,3*06
$GNGSA,A,3,44,21,12,38,22,08,13,07,35,40,34,39,0.90,0.58,0.69,4*06
$GNGSA,A,3,16,,,,,,,,,,,,0.90,0.58,0.69,4*08
$GPGSV,4,1,16,196,74,063,42,195,71,111,38,199,60,167,36,50,60,167,39,1*52
$GPGSV,4,2,16,11,60,035,41,20,54,349,44,05,50,304,33,13,47,184,32,1*67
$GPGSV,4,3,16,06,34,094,32,15,23,214,23,29,20,319,34,19,19,156,26,1*69
$GPGSV,4,4,16,30,17,102,23,194,16,171,34,07,08,070,16,25,06,272,18,1*5F
$GPGSV,2,1,08,196,74,063,45,195,71,111,39,11,60,035,48,199,60,167,45,8*55
$GPGSV,2,2,08,06,34,094,34,30,17,102,28,194,16,171,33,25,06,272,20,8*5A
$GLGSV,2,1,05,71,71,342,44,86,57,001,44,85,57,106,38,72,45,233,25,1*74
$GLGSV,2,2,05,70,25,026,33,1*49
$GAGSV,2,1,05,19,78,103,36,33,54,074,37,12,46,339,25,04,32,206,21,7*7E
$GAGSV,2,2,05,10,25,321,23,7*41
$GAGSV,2,1,05,19,78,103,40,33,54,074,41,12,46,339,33,04,32,206,20,1*7E
$GAGSV,2,2,05,10,25,321,33,1*46
$GBGSV,4,1,13,44,88,349,42,21,64,267,43,12,63,329,41,38,53,354,40,1*7C
$GBGSV,4,2,13,22,50,026,42,08,46,334,30,13,41,317,29,07,38,208,23,1*76
$GBGSV,4,3,13,35,37,140,44,40,37,197,21,34,32,321,32,39,30,170,40,1*74
$GBGSV,4,4,13,16,23,174,39,1*4A
$GBGSV,2,1,08,44,88,349,42,21,64,267,39,38,53,354,43,22,50,026,42,4*77
$GBGSV,2,2,08,35,37,140,42,40,37,197,21,34,32,321,28,39,30,170,40,4*71
$GNACCURACY,3.8*1D
$PAIRSAT,1,29,1,0,200,2,0,200,3,0,200,4,0,200,5,0,201,6,0,221,7,0,200,8,0,200,11,0,21,13,0,1,15,0,1,16,0,200,17,0,200,18,0,200,19,0,201,20,0,201,21,0,200,23,0,200,24,0,200,25,0,220,26,0,200,27,0,200,28,0,200,29,0,201,30,0,200,194,0,621,195,0,621,196,0,620,199,0,21*5D
$PAIRSAT,2,24,65,0,200,66,0,200,67,0,200,68,0,200,69,0,200,70,0,200,71,0,201,72,0,201,73,0,200,74,0,200,75,0,200,76,0,200,77,0,200,78,0,200,79,0,200,80,0,200,81,0,200,82,0,200,83,0,200,84,0,200,85,0,201,86,0,201,87,0,200,88,0,200*7A
$PAIRSAT,3,17,4,0,21,7,0,200,8,0,200,9,0,200,10,0,1221,11,0,1200,12,0,1221,13,0,1200,15,0,1200,19,0,1221,21,0,1000,24,0,1200,25,0,1200,26,0,1200,27,0,1200,33,0,1021,34,0,1000*5F
$PAIRSAT,4,42,1,0,200,2,0,200,3,0,201,4,0,200,5,0,200,6,0,200,7,0,201,8,0,1,12,0,1,13,0,1,14,0,200,16,0,201,19,0,600,20,0,600,21,0,621,22,0,621,23,0,600,24,0,600,25,0,600,26,0,600,27,0,600,28,0,600,29,0,600,30,0,600,32,0,400,33,0,400,34,0,421,35,0,421,36,0,400,37,0,400,38,0,421,39,0,421,40,0,421,41,0,400,42,0,400,43,0,400,44,0,421,45,0,400,46,0,400,59,0,400,60,0,400,61,0,400*73
$PAIRDGP,10,5,6,7,11,13,15,19,20,29,30*44
$GNGGA,095121.000,2500.8070142,N,12132.4777107,E,4,52,0.58,17.284,M,15.25,M,22,3335*77
$GNRMC,095121.000,A,2500.8070142,N,12132.4777107,E,1.71,318.28,120523,,,R,V*1E
$GNACCURACY,3.8*1D
$GNGGA,095121.100,2500.8070561,N,12132.4776993,E,4,52,0.58,17.308,M,15.25,M,22,3335*72
$GNRMC,095121.100,A,2500.8070561,N,12132.4776993,E,1.82,320.41,120523,,,R,V*16
$GNACCURACY,3.8*1D
$GNGGA,095121.200,2500.8070946,N,12132.4776700,E,4,52,0.58,17.341,M,15.25,M,22,3335*71
$GNRMC,095121.200,A,2500.8070946,N,12132.4776700,E,1.72,320.00,120523,,,R,V*12
$GNACCURACY,3.8*1D
$GNGGA,095121.300,2500.8071382,N,12132.4776366,E,4,51,0.60,17.316,M,15.25,M,22,3335*7D
$GNRMC,095121.300,A,2500.8071382,N,12132.4776366,E,1.67,322.48,120523,,,R,V*1E
$GNACCURACY,3.9*1C
$GNGGA,095121.400,2500.8071633,N,12132.4775870,E,4,52,0.58,17.345,M,15.25,M,22,3335*74
$GNRMC,095121.400,A,2500.8071633,N,12132.4775870,E,1.60,321.62,120523,,,R,V*15
$GNACCURACY,3.9*1C
$GNGGA,095121.500,2500.8072050,N,12132.4775491,E,4,52,0.58,17.276,M,15.25,M,22,3335*77
$GNRMC,095121.500,A,2500.8072050,N,12132.4775491,E,1.67,315.75,120523,,,R,V*11
$GNACCURACY,3.9*1C
$GNGGA,095121.600,2500.8072316,N,12132.4775125,E,4,52,0.58,17.383,M,15.25,M,22,3335*74
$GNRMC,095121.600,A,2500.8072316,N,12132.4775125,E,1.71,314.40,120523,,,R,V*19
$GNACCURACY,3.9*1C
$GNGGA,095121.700,2500.8072648,N,12132.4774522,E,4,52,0.58,17.346,M,15.25,M,22,3335*70
$GNRMC,095121.700,A,2500.8072648,N,12132.4774522,E,1.75,315.09,120523,,,R,V*1C
$GNACCURACY,3.9*1C
$GNGGA,095121.800,2500.8073145,N,12132.4774243,E,4,52,0.58,17.329,M,15.25,M,22,3335*7D
$GNRMC,095121.800,A,2500.8073145,N,12132.4774243,E,1.84,324.28,120523,,,R,V*17
$GNACCURACY,3.9*1C
$GNGGA,095121.900,2500.8073583,N,12132.4773966,E,4,52,0.58,17.307,M,15.25,M,22,3335*75
$GNRMC,095121.900,A,2500.8073583,N,12132.4773966,E,1.88,322.83,120523,,,R,V*18
$GNGSA,A,3,196,195,199,11,20,05,13,06,15,29,19,194,0.90,0.58,0.69,1*00
$GNGSA,A,3,71,86,85,72,,,,,,,,,0.90,0.58,0.69,2*09
$GNGSA,A,3,19,33,12,04,10,,,,,,,,0.90,0.58,0.69,3*06
$GNGSA,A,3,44,21,12,38,22,08,13,07,35,40,34,39,0.90,0.58,0.69,4*06
$GNGSA,A,3,16,,,,,,,,,,,,0.90,0.58,0.69,4*08
$GPGSV,4,1,16,196,74,063,40,195,71,111,43,199,60,167,32,50,60,167,35,1*54
$GPGSV,4,2,16,11,60,035,43,20,54,349,45,05,50,304,31,13,47,184,28,1*6D
$GPGSV,4,3,16,06,34,094,34,15,23,214,23,29,20,319,35,19,19,156,25,1*6D
$GPGSV,4,4,16,30,17,102,21,194,16,171,32,07,08,070,16,25,06,272,22,1*52
$GPGSV,2,1,08,196,74,063,45,195,71,111,44,11,60,035,48,199,60,167,44,8*5E
$GPGSV,2,2,08,06,34,094,33,30,17,102,23,194,16,171,38,25,06,272,26,8*5B
$GLGSV,2,1,05,71,71,342,46,86,57,001,43,85,57,106,42,72,45,233,29,1*70
$GLGSV,2,2,05,70,25,026,26,1*4D
$GAGSV,2,1,05,19,78,103,34,33,54,074,39,12,47,339,24,04,32,206,19,7*79
$GAGSV,2,2,05,10,25,321,27,7*45
$GAGSV,2,1,05,19,78,103,38,33,54,074,43,12,47,339,32,04,32,206,21,1*72
$GAGSV,2,2,05,10,25,321,40,1*42
$GBGSV,4,1,13,44,88,349,41,21,64,267,40,12,63,329,40,38,53,354,43,1*7E
$GBGSV,4,2,13,22,50,026,43,08,46,334,28,13,41,317,29,07,38,208,23,1*7E
$GBGSV,4,3,13,35,37,140,44,40,37,197,25,34,32,321,33,39,30,170,42,1*73
$GBGSV,4,4,13,16,23,174,38,1*4B
$GBGSV,2,1,08,44,88,349,42,21,64,267,44,38,53,354,45,22,50,026,42,4*7B
$GBGSV,2,2,08,35,37,140,41,40,37,197,23,34,32,321,38,39,30,170,41,4*70
$GNACCURACY,3.9*1C
$PAIRSAT,1,29,1,0,200,2,0,200,3,0,200,4,0,200,5,0,201,6,0,221,7,0,200,8,0,200,11,0,21,13,0,1,15,0,1,16,0,200,17,0,200,18,0,200,19,0,201,20,0,201,21,0,200,23,0,200,24,0,200,25,0,220,26,0,200,27,0,200,28,0,200,29,0,201,30,0,200,194,0,621,195,0,621,196,0,620,199,0,21*5D
$PAIRSAT,2,24,65,0,200,66,0,200,67,0,200,68,0,200,69,0,200,70,0,200,71,0,201,72,0,201,73,0,200,74,0,200,75,0,200,76,0,200,77,0,200,78,0,200,79,0,200,80,0,200,81,0,200,82,0,200,83,0,200,84,0,200,85,0,201,86,0,201,87,0,200,88,0,200*7A
$PAIRSAT,3,17,4,0,21,7,0,200,8,0,200,9,0,200,10,0,1221,11,0,1200,12,0,1221,13,0,1200,15,0,1200,19,0,1221,21,0,1000,24,0,1200,25,0,1200,26,0,1200,27,0,1200,33,0,1021,34,0,1000*5F
$PAIRSAT,4,42,1,0,200,2,0,200,3,0,201,4,0,200,5,0,200,6,0,200,7,0,201,8,0,1,12,0,1,13,0,1,14,0,200,16,0,201,19,0,600,20,0,600,21,0,621,22,0,621,23,0,600,24,0,600,25,0,600,26,0,600,27,0,600,28,0,600,29,0,600,30,0,600,32,0,400,33,0,400,34,0,421,35,0,421,36,0,400,37,0,400,38,0,421,39,0,421,40,0,421,41,0,400,42,0,400,43,0,400,44,0,421,45,0,400,46,0,400,59,0,400,60,0,400,61,0,400*73
$PAIRDGP,10,5,6,7,11,13,15,19,20,29,30*44
$GNGGA,095122.000,2500.8073981,N,12132.4773425,E,4,52,0.58,17.306,M,15.25,M,23,3335*7B
$GNRMC,095122.000,A,2500.8073981,N,12132.4773425,E,1.81,322.25,120523,,,R,V*13
$GNACCURACY,3.9*1C
$GNGGA,095122.100,2500.8074239,N,12132.4773169,E,4,52,0.58,17.363,M,15.25,M,23,3335*7B
$GNRMC,095122.100,A,2500.8074239,N,12132.4773169,E,1.75,315.50,120523,,,R,V*1D
$GNACCURACY,3.9*1C
$GNGGA,095122.200,2500.8074648,N,12132.4772827,E,4,52,0.58,17.295,M,15.25,M,23,3335*70
$GNRMC,095122.200,A,2500.8074648,N,12132.4772827,E,1.81,315.95,120523,,,R,V*1C
$GNACCURACY,3.9*1C
$GNGGA,095122.300,2500.8075084,N,12132.4772513,E,4,52,0.58,17.268,M,15.25,M,23,3335*7E
$GNRMC,095122.300,A,2500.8075084,N,12132.4772513,E,1.81,311.26,120523,,,R,V*1C
$GNACCURACY,3.9*1C
$GNGGA,095122.400,2500.8075426,N,12132.4772018,E,4,52,0.58,17.228,M,15.25,M,23,3335*7F
$GNRMC,095122.400,A,2500.8075426,N,12132.4772018,E,1.75,314.82,120523,,,R,V*19
$GNACCURACY,3.9*1C
$GNGGA,095122.500,2500.8075895,N,12132.4771677,E,4,52,0.58,17.297,M,15.25,M,23,3335*72
$GNRMC,095122.500,A,2500.8075895,N,12132.4771677,E,1.90,319.56,120523,,,R,V*1F
$GNACCURACY,3.9*1C
$GNGGA,095122.600,2500.8076278,N,12132.4771455,E,4,52,0.58,17.392,M,15.25,M,23,3335*7D
$GNRMC,095122.600,A,2500.8076278,N,12132.4771455,E,1.74,324.71,120523,,,R,V*15
$GNACCURACY,3.9*1C
$GNGGA,095122.700,2500.8076637,N,12132.4770920,E,4,51,0.58,17.362,M,15.25,M,23,3335*71
$GNRMC,095122.700,A,2500.8076637,N,12132.4770920,E,1.81,322.02,120523,,,R,V*1D
$GNACCURACY,3.9*1C
$GNGGA,095122.800,2500.8076984,N,12132.4770580,E,4,51,0.58,17.363,M,15.25,M,23,3335*7E
$GNRMC,095122.800,A,2500.8076984,N,12132.4770580,E,1.72,317.16,120523,,,R,V*1C
$GNACCURACY,3.9*1C
$GNGGA,095122.900,2500.8077505,N,12132.4770268,E,4,51,0.58,17.294,M,15.25,M,23,3335*73
$GNRMC,095122.900,A,2500.8077505,N,12132.4770268,E,1.81,320.53,120523,,,R,V*11
$GNGSA,A,3,196,195,199,11,20,05,13,06,15,29,19,194,0.90,0.58,0.69,1*00
$GNGSA,A,3,71,86,85,72,,,,,,,,,0.90,0.58,0.69,2*09
$GNGSA,A,3,19,33,12,04,10,,,,,,,,0.90,0.58,0.69,3*06
$GNGSA,A,3,44,21,12,38,22,08,13,07,35,40,34,39,0.90,0.58,0.69,4*06
$GNGSA,A,3,16,,,,,,,,,,,,0.90,0.58,0.69,4*08
$GPGSV,4,1,16,196,74,063,42,195,71,111,41,199,60,167,26,50,60,167,28,1*5D
$GPGSV,4,2,16,11,60,035,45,20,54,349,46,05,50,304,35,13,47,184,25,1*61
$GPGSV,4,3,16,06,34,094,39,15,23,214,23,29,20,319,30,19,19,156,25,1*65
$GPGSV,4,4,16,30,17,102,20,194,16,171,31,07,08,070,16,25,06,272,22,1*50
$GPGSV,2,1,08,196,74,063,43,195,71,111,41,11,60,035,49,199,60,167,38,8*57
$GPGSV,2,2,08,06,34,094,37,30,17,102,28,194,16,171,33,25,06,272,26,8*5F
$GLGSV,2,1,05,71,71,342,42,86,57,001,44,85,57,106,38,72,45,233,31,1*77
$GLGSV,2,2,05,70,25,026,28,1*43
$GAGSV,2,1,06,19,78,102,35,33,54,074,41,12,47,339,26,04,32,206,19,7*77
$GAGSV,2,2,06,10,25,321,33,24,08,266,,7*7F
$GAGSV,1,1,04,19,78,102,36,33,54,074,44,12,47,339,31,10,25,321,35,1*79
$GBGSV,4,1,13,44,88,349,43,21,64,267,37,12,63,329,39,38,53,354,43,1*72
$GBGSV,4,2,13,22,50,026,44,08,46,334,24,13,41,317,34,07,38,208,21,1*7B
$GBGSV,4,3,13,35,37,140,42,40,37,197,25,34,32,321,30,39,30,170,37,1*74
$GBGSV,4,4,13,16,23,174,32,1*41
$GBGSV,2,1,08,44,88,349,40,21,64,267,32,38,53,354,43,22,50,026,43,4*7F
$GBGSV,2,2,08,35,37,140,41,40,37,197,18,34,32,321,38,39,30,170,36,4*78
$GNACCURACY,3.9*1C
$PAIRSAT,1,29,1,0,200,2,0,200,3,0,200,4,0,200,5,0,201,6,0,221,7,0,200,8,0,200,11,0,21,13,0,1,15,0,1,16,0,200,17,0,200,18,0,200,19,0,201,20,0,201,21,0,200,23,0,200,24,0,200,25,0,220,26,0,200,27,0,200,28,0,200,29,0,201,30,0,200,194,0,621,195,0,621,196,0,620,199,0,21*5D
$PAIRSAT,2,24,65,0,200,66,0,200,67,0,200,68,0,200,69,0,200,70,0,200,71,0,201,72,0,201,73,0,200,74,0,200,75,0,200,76,0,200,77,0,200,78,0,200,79,0,200,80,0,200,81,0,200,82,0,200,83,0,200,84,0,200,85,0,201,86,0,201,87,0,200,88,0,200*7A
$PAIRSAT,3,17,4,0,21,7,0,200,8,0,200,9,0,200,10,0,1221,11,0,1200,12,0,1221,13,0,1200,15,0,1200,19,0,1221,21,0,1000,24,0,1200,25,0,1200,26,0,1200,27,0,1200,33,0,1021,34,0,1000*5F
$PAIRSAT,4,42,1,0,200,2,0,200,3,0,201,4,0,200,5,0,200,6,0,200,7,0,201,8,0,1,12,0,1,13,0,1,14,0,200,16,0,201,19,0,600,20,0,600,21,0,621,22,0,621,23,0,600,24,0,600,25,0,600,26,0,600,27,0,600,28,0,600,29,0,600,30,0,600,32,0,400,33,0,400,34,0,421,35,0,421,36,0,400,37,0,400,38,0,421,39,0,421,40,0,421,41,0,400,42,0,400,43,0,400,44,0,421,45,0,400,46,0,400,59,0,400,60,0,400,61,0,400*73
$PAIRDGP,10,5,6,7,11,13,15,19,20,29,30*44
$GNGGA,095123.000,2500.8077428,N,12132.4769128,E,4,51,0.58,17.150,M,15.25,M,24,3335*76
$GNRMC,095123.000,A,2500.8077428,N,12132.4769128,E,1.74,315.14,120523,,,R,V*17
$GNACCURACY,3.9*1C
$GNGGA,095123.100,2500.8077735,N,12132.4768674,E,4,51,0.58,17.154,M,15.25,M,24,3335*73
$GNRMC,095123.100,A,2500.8077735,N,12132.4768674,E,1.80,317.75,120523,,,R,V*18
$GNACCURACY,3.9*1C
$GNGGA,095123.200,2500.8078154,N,12132.4768090,E,4,51,0.58,17.126,M,15.25,M,24,3335*77
$GNRMC,095123.200,A,2500.8078154,N,12132.4768090,E,1.81,320.32,120523,,,R,V*1F
$GNACCURACY,3.9*1C
$GNGGA,095123.300,2500.8078594,N,12132.4767855,E,4,51,0.58,17.234,M,15.25,M,24,3335*70
$GNRMC,095123.300,A,2500.8078594,N,12132.4767855,E,1.95,315.28,120523,,,R,V*10
$GNACCURACY,3.9*1C
$GNGGA,095123.400,2500.8077994,N,12132.4767061,E,4,51,0.58,16.696,M,15.25,M,24,3335*76
$GNRMC,095123.400,A,2500.8077994,N,12132.4767061,E,1.88,314.92,120523,,,R,V*17
$GNACCURACY,4.0*12
$GNGGA,095123.500,2500.8078109,N,12132.4766482,E,4,51,0.58,16.557,M,15.25,M,24,3335*72
$GNRMC,095123.500,A,2500.8078109,N,12132.4766482,E,1.63,314.71,120523,,,R,V*15
$GNACCURACY,4.0*12
$GNGGA,095123.600,2500.8078970,N,12132.4766493,E,4,51,0.58,16.804,M,15.25,M,24,3335*7C
$GNRMC,095123.600,A,2500.8078970,N,12132.4766493,E,1.66,313.25,120523,,,R,V*13
$GNACCURACY,4.0*12
$GNGGA,095123.700,2500.8080630,N,12132.4766589,E,4,51,0.58,17.532,M,15.25,M,24,3335*72
$GNRMC,095123.700,A,2500.8080630,N,12132.4766589,E,1.64,310.62,120523,,,R,V*16
$GNACCURACY,4.0*12
$GNGGA,095123.800,2500.8081254,N,12132.4766588,E,4,52,0.58,17.560,M,15.25,M,24,3335*7F
$GNRMC,095123.800,A,2500.8081254,N,12132.4766588,E,1.70,321.03,120523,,,R,V*1F
$GNACCURACY,4.0*12
$GNGGA,095123.900,2500.8079772,N,12132.4765268,E,4,52,0.58,16.695,M,15.25,M,24,3335*7A
$GNRMC,095123.900,A,2500.8079772,N,12132.4765268,E,1.76,324.13,120523,,,R,V*10
$GNGSA,A,3,196,195,11,199,20,05,13,06,15,29,19,194,0.90,0.58,0.69,1*00
$GNGSA,A,3,71,86,85,72,,,,,,,,,0.90,0.58,0.69,2*09
$GNGSA,A,3,19,33,12,04,10,,,,,,,,0.90,0.58,0.69,3*06
$GNGSA,A,3,44,21,12,38,22,08,13,07,35,40,34,39,0.90,0.58,0.69,4*06
$GNGSA,A,3,16,,,,,,,,,,,,0.90,0.58,0.69,4*08
$GPGSV,4,1,16,196,74,063,43,195,71,111,38,50,60,167,29,11,60,035,45,1*61
$GPGSV,4,2,16,199,60,167,26,20,54,349,40,05,50,304,39,13,47,184,27,1*5B
$GPGSV,4,3,16,06,34,094,30,15,23,214,23,29,20,319,38,19,19,156,25,1*64
$GPGSV,4,4,16,30,17,102,21,194,16,171,28,07,08,070,16,25,06,272,23,1*58
$GPGSV,2,1,08,196,74,063,45,195,71,111,42,11,60,035,47,199,60,167,31,8*55
$GPGSV,2,2,08,06,34,094,38,30,17,102,26,194,16,171,25,25,06,272,26,8*59
$GLGSV,2,1,06,71,71,342,40,86,57,001,44,85,57,106,44,72,45,233,26,1*7B
$GLGSV,2,2,06,70,25,026,26,87,07,329,,1*7E
$GAGSV,2,1,06,19,78,102,35,33,54,074,36,12,47,339,21,04,32,206,20,7*7A
$GAGSV,2,2,06,10,25,321,30,24,08,266,,7*7C
$GAGSV,2,1,05,19,78,102,37,33,54,074,41,12,47,339,31,04,32,206,20,1*7C
$GAGSV,2,2,05,10,25,321,29,1*4D
$GBGSV,4,1,13,44,88,349,46,21,64,267,30,12,63,329,38,38,53,354,41,1*73
$GBGSV,4,2,13,22,50,026,45,08,46,334,23,13,41,317,35,07,38,208,21,1*7C
$GBGSV,4,3,13,35,37,140,42,40,37,197,22,34,32,321,34,39,30,170,28,1*79
$GBGSV,4,4,13,16,23,174,28,1*4A
$GBGSV,2,1,08,44,88,349,44,21,64,267,38,38,53,354,44,22,50,026,45,4*70
$GBGSV,2,2,08,35,37,140,39,40,37,197,19,34,32,321,35,39,30,170,32,4*7F
$GNACCURACY,4.0*12
$PAIRSAT,1,29,1,0,200,2,0,200,3,0,200,4,0,200,5,0,201,6,0,221,7,0,200,8,0,200,11,0,21,13,0,1,15,0,1,16,0,200,17,0,200,18,0,200,19,0,201,20,0,201,21,0,200,23,0,200,24,0,200,25,0,220,26,0,200,27,0,200,28,0,200,29,0,201,30,0,200,194,0,621,195,0,621,196,0,620,199,0,21*5D
$PAIRSAT,2,24,65,0,200,66,0,200,67,0,200,68,0,200,69,0,200,70,0,200,71,0,201,72,0,201,73,0,200,74,0,200,75,0,200,76,0,200,77,0,200,78,0,200,79,0,200,80,0,200,81,0,200,82,0,200,83,0,200,84,0,200,85,0,201,86,0,201,87,0,200,88,0,200*7A
$PAIRSAT,3,18,4,0,21,7,0,200,8,0,200,9,0,200,10,0,1221,11,0,1200,12,0,1221,13,0,1200,15,0,1200,19,0,1221,21,0,1000,24,0,1200,25,0,1200,26,0,1200,27,0,1200,30,0,200,33,0,1021,34,0,1000*7D
$PAIRSAT,4,42,1,0,200,2,0,200,3,0,201,4,0,200,5,0,200,6,0,200,7,0,201,8,0,1,12,0,1,13,0,1,14,0,200,16,0,201,19,0,600,20,0,600,21,0,621,22,0,621,23,0,600,24,0,600,25,0,600,26,0,600,27,0,600,28,0,600,29,0,600,30,0,600,32,0,400,33,0,400,34,0,421,35,0,421,36,0,400,37,0,400,38,0,421,39,0,421,40,0,421,41,0,400,42,0,400,43,0,400,44,0,421,45,0,400,46,0,400,59,0,400,60,0,400,61,0,400*73
$PAIRDGP,10,5,6,7,11,13,15,19,20,29,30*44
$GNGGA,095124.000,2500.8080192,N,12132.4764908,E,2,52,0.58,16.668,M,15.25,M,25,3335*73
$GNRMC,095124.000,A,2500.8080192,N,12132.4764908,E,1.89,325.74,120523,,,D,V*0A
$GNACCURACY,4.0*12
$GNGGA,095124.100,2500.8080612,N,12132.4764548,E,2,52,0.58,16.648,M,15.25,M,25,3335*77
$GNRMC,095124.100,A,2500.8080612,N,12132.4764548,E,1.87,324.77,120523,,,D,V*00
$GNACCURACY,4.0*12
$GNGGA,095124.200,2500.8080972,N,12132.4764128,E,2,52,0.58,16.639,M,15.25,M,25,3335*79
$GNRMC,095124.200,A,2500.8080972,N,12132.4764128,E,1.71,322.03,120523,,,D,V*04
$GNACCURACY,4.0*12
$GNGGA,095124.300,2500.8081392,N,12132.4763708,E,2,52,0.58,16.616,M,15.25,M,25,3335*73
$GNRMC,095124.300,A,2500.8081392,N,12132.4763708,E,1.65,318.06,120523,,,D,V*0A
$GNACCURACY,4.0*12
$GNGGA,095124.400,2500.8081752,N,12132.4763168,E,2,52,0.58,16.587,M,15.25,M,25,3335*77
$GNRMC,095124.400,A,2500.8081752,N,12132.4763168,E,1.69,316.02,120523,,,D,V*03
$GNACCURACY,4.0*12
$GNGGA,095124.500,2500.8082112,N,12132.4762628,E,2,52,0.58,16.566,M,15.25,M,25,3335*7A
$GNRMC,095124.500,A,2500.8082112,N,12132.4762628,E,1.73,315.64,120523,,,D,V*09
$GNACCURACY,4.0*12
$GNGGA,095124.600,2500.8082472,N,12132.4762088,E,2,52,0.58,16.552,M,15.25,M,25,3335*71
$GNRMC,095124.600,A,2500.8082472,N,12132.4762088,E,1.75,319.05,120523,,,D,V*08
$GNACCURACY,4.0*12
$GNGGA,095124.700,2500.8082772,N,12132.4761548,E,2,51,0.58,16.531,M,15.25,M,25,3335*7F
$GNRMC,095124.700,A,2500.8082772,N,12132.4761548,E,1.71,318.08,120523,,,D,V*08
$GNACCURACY,4.0*12
$GNGGA,095124.800,2500.8083072,N,12132.4760948,E,2,52,0.58,16.508,M,15.25,M,25,3335*72
$GNRMC,095124.800,A,2500.8083072,N,12132.4760948,E,1.79,317.07,120523,,,D,V*04
$GNACCURACY,4.1*13
$GNGGA,095124.900,2500.8083372,N,12132.4760528,E,2,52,0.58,16.499,M,15.25,M,25,3335*73
$GNRMC,095124.900,A,2500.8083372,N,12132.4760528,E,1.75,317.20,120523,,,D,V*05
$GNGSA,A,3,196,195,199,11,20,05,13,06,15,29,19,194,0.90,0.58,0.69,1*00
$GNGSA,A,3,71,86,85,72,,,,,,,,,0.90,0.58,0.69,2*09
$GNGSA,A,3,19,33,12,04,10,,,,,,,,0.90,0.58,0.69,3*06
$GNGSA,A,3,44,21,12,38,22,08,13,07,35,40,34,39,0.90,0.58,0.69,4*06
$GNGSA,A,3,16,,,,,,,,,,,,0.90,0.58,0.69,4*08
$GPGSV,4,1,16,196,74,063,43,195,71,111,40,199,60,167,27,50,60,167,28,1*5C
$GPGSV,4,2,16,11,60,035,45,20,54,349,39,05,50,304,36,13,47,184,24,1*6B
$GPGSV,4,3,16,06,34,094,29,15,23,214,24,29,20,319,34,19,19,156,27,1*65
$GPGSV,4,4,16,30,17,102,23,194,16,171,25,07,08,070,14,25,06,272,19,1*5C
$GPGSV,2,1,08,196,74,063,45,195,71,111,41,11,60,035,48,199,60,167,26,8*5F
$GPGSV,2,2,08,06,34,094,36,30,17,102,28,194,16,171,24,25,06,272,24,8*5A
$GLGSV,2,1,05,71,71,342,40,86,57,001,43,85,57,106,38,72,45,233,28,1*7A
$GLGSV,2,2,05,70,24,026,25,1*4F
$GAGSV,2,1,06,19,78,102,36,33,54,074,42,12,47,339,23,04,32,206,21,7*79
$GAGSV,2,2,06,10,25,321,23,24,08,266,,7*7E
$GAGSV,2,1,05,19,78,102,37,33,54,074,45,12,47,339,30,04,32,206,19,1*73
$GAGSV,2,2,05,10,25,321,33,1*46
$GBGSV,4,1,13,44,88,349,45,21,64,267,36,12,63,329,37,38,53,354,41,1*79
$GBGSV,4,2,13,22,50,026,47,08,46,334,22,13,41,317,28,07,38,208,21,1*73
$GBGSV,4,3,13,35,37,140,42,40,37,197,23,34,32,321,36,39,30,170,28,1*7A
$GBGSV,4,4,13,16,23,174,23,1*41
$GBGSV,2,1,08,44,88,349,41,21,64,267,38,38,53,354,41,22,50,026,44,4*71
$GBGSV,2,2,08,35,37,140,40,40,37,197,18,34,32,321,33,39,30,170,30,4*74
$GNACCURACY,4.1*13
$PAIRSAT,1,29,1,0,200,2,0,200,3,0,200,4,0,200,5,0,201,6,0,221,7,0,200,8,0,200,11,0,21,13,0,1,15,0,1,16,0,200,17,0,200,18,0,200,19,0,201,20,0,201,21,0,200,23,0,200,24,0,200,25,0,220,26,0,200,27,0,200,28,0,200,29,0,201,30,0,200,194,0,621,195,0,621,196,0,620,199,0,21*5D
$PAIRSAT,2,24,65,0,200,66,0,200,67,0,200,68,0,200,69,0,200,70,0,200,71,0,201,72,0,201,73,0,200,74,0,200,75,0,200,76,0,200,77,0,200,78,0,200,79,0,200,80,0,200,81,0,200,82,0,200,83,0,200,84,0,200,85,0,201,86,0,201,87,0,200,88,0,200*7A
$PAIRSAT,3,18,4,0,21,7,0,200,8,0,200,9,0,200,10,0,1221,11,0,1200,12,0,1221,13,0,1200,15,0,1200,19,0,1221,21,0,1000,24,0,1200,25,0,1200,26,0,1200,27,0,1200,30,0,200,33,0,1021,34,0,1000*7D
$PAIRSAT,4,42,1,0,200,2,0,200,3,0,201,4,0,200,5,0,200,6,0,200,7,0,201,8,0,1,12,0,1,13,0,1,14,0,200,16,0,201,19,0,600,20,0,600,21,0,621,22,0,621,23,0,600,24,0,600,25,0,600,26,0,600,27,0,600,28,0,600,29,0,600,30,0,600,32,0,400,33,0,400,34,0,421,35,0,421,36,0,400,37,0,400,38,0,421,39,0,421,40,0,421,41,0,400,42,0,400,43,0,400,44,0,421,45,0,400,46,0,400,59,0,400,60,0,400,61,0,400*73
$PAIRDGP,10,5,6,7,11,13,15,19,20,29,30*44
$GNGGA,095125.000,2500.8083672,N,12132.4760168,E,2,52,0.58,16.481,M,15.25,M,26,3335*74
$GNRMC,095125.000,A,2500.8083672,N,12132.4760168,E,1.70,313.38,120523,,,D,V*00
$GNACCURACY,4.1*13
$GNGGA,095125.100,2500.8083912,N,12132.4759748,E,2,52,0.58,16.471,M,15.25,M,26,3335*7D
$GNRMC,095125.100,A,2500.8083912,N,12132.4759748,E,1.74,311.52,120523,,,D,V*0C
$GNACCURACY,4.1*13
$GNGGA,095125.200,2500.8084092,N,12132.4759388,E,2,51,0.59,16.462,M,15.25,M,26,3335*70
$GNRMC,095125.200,A,2500.8084092,N,12132.4759388,E,1.67,312.31,120523,,,D,V*05
$GNACCURACY,4.1*13
$GNGGA,095125.300,2500.8084332,N,12132.4759148,E,2,51,0.59,16.454,M,15.25,M,26,3335*73
$GNRMC,095125.300,A,2500.8084332,N,12132.4759148,E,1.66,319.94,120523,,,D,V*06
$GNACCURACY,4.1*13
$GNGGA,095125.400,2500.8084632,N,12132.4758848,E,2,52,0.58,16.448,M,15.25,M,26,3335*76
