$FW : RTK35X,V1.0X0825AS,Lib20210517,8,0*49
$Tool : LOCOSYS , GNSS Firebird , v1.0.0.19*39
$---------------------------------------------------*2D
$GNGLL,2500.8053602,N,12132.4793634,E,095108.000,A,R*57
$GNGGA,095108.000,2500.8053602,N,12132.4793634,E,4,52,0.56,17.252,M,15.25,M,9,3335*4F
$GNRMC,095108.000,A,2500.8053602,N,12132.4793634,E,0.06,23.63,120523,,,R,V*2F
$GNGLL,2500.8053623,N,12132.4793658,E,095109.000,A,R*5F
$GNGGA,095109.000,2500.8053623,N,12132.4793658,E,4,52,0.56,17.250,M,15.25,M,10,3335*7D
$GNRMC,095109.000,A,2500.8053623,N,12132.4793658,E,0.04,23.63,120523,,,R,V*25
$GNGSA,A,3,196,195,11,199,20,05,13,06,29,19,194,,0.89,0.56,0.69,1*02
$GNGSA,A,3,71,85,86,72,,,,,,,,,0.89,0.56,0.69,2*0F
$GNGSA,A,3,19,33,12,10,,,,,,,,,0.89,0.56,0.69,3*04
$GNGSA,A,3,44,21,12,03,59,38,22,08,10,13,07,04,0.89,0.56,0.69,4*05
$GNGSA,A,3,35,40,34,39,,,,,,,,,0.89,0.56,0.69,4*06
$GPGSV,4,1,16,196,74,064,39,195,71,110,37,11,60,035,42,199,60,167,39,1*57
$GPGSV,4,2,16,50,60,167,41,20,54,349,42,05,50,304,41,13,47,184,38,1*6D
$GPGSV,4,3,16,06,34,094,26,29,19,320,39,19,19,156,24,30,17,102,,1*66
$GPGSV,4,4,16,194,16,171,38,07,08,070,14,25,07,273,22,15,,,30,1*68
$GPGSV,2,1,07,196,74,064,46,195,71,110,43,199,60,167,48,11,60,035,47,8*50
$GPGSV,2,2,07,06,34,094,40,194,16,171,39,25,07,273,30,8*61
$GLGSV,2,1,05,71,72,340,43,85,57,105,35,86,56,000,44,72,45,232,29,1*71
$GLGSV,2,2,05,70,25,026,18,1*40
$GAGSV,2,1,05,19,78,107,38,33,54,072,37,12,46,338,39,10,25,320,17,7*7D
$GAGSV,2,2,05,31,09,220,,7*4D
$GAGSV,1,1,04,19,78,107,42,33,54,072,37,12,46,338,41,10,25,320,36,1*78
$GBGSV,5,1,19,44,88,349,40,21,63,266,43,12,62,329,38,03,60,206,27,1*73
$GBGSV,5,2,19,59,55,141,43,38,53,354,44,22,51,026,44,08,46,334,37,1*73
$GBGSV,5,3,19,10,42,229,21,13,41,317,35,07,39,208,25,04,39,117,35,1*7E
$GBGSV,5,4,19,35,38,139,44,60,37,247,27,40,37,197,30,34,31,321,28,1*7C
$GBGSV,5,5,19,39,30,169,42,42,16,236,22,11,11,322,26,1*4E
$GBGSV,2,1,08,44,88,349,42,21,63,266,45,38,53,354,44,22,51,026,39,4*70
$GBGSV,2,2,08,35,38,139,44,40,37,197,24,34,31,321,37,39,30,169,43,4*75
$GNGLL,2500.8053663,N,12132.4793715,E,095110.000,A,R*5B
$GNGGA,095110.000,2500.8053663,N,12132.4793715,E,4,52,0.56,17.249,M,15.25,M,11,3335*70
$GNRMC,095110.000,A,2500.8053663,N,12132.4793715,E,0.04,23.63,120523,,,R,V*21
$GNGLL,2500.8053667,N,12132.4793736,E,095111.000,A,R*5F
$GNGGA,095111.000,2500.8053667,N,12132.4793736,E,4,52,0.56,17.259,M,15.25,M,12,3335*76
$GNRMC,095111.000,A,2500.8053667,N,12132.4793736,E,0.02,23.63,120523,,,R,V*23
$GNGLL,2500.8053689,N,12132.4793791,E,095112.000,A,R*51
$GNGGA,095112.000,2500.8053689,N,12132.4793791,E,4,52,0.56,17.274,M,15.25,M,13,3335*76
$GNRMC,095112.000,A,2500.8053689,N,12132.4793791,E,0.03,23.63,120523,,,R,V*2C
$GNGLL,2500.8053682,N,12132.4793770,E,095113.000,A,R*54
$GNGGA,095113.000,2500.8053682,N,12132.4793770,E,4,52,0.56,17.295,M,15.25,M,14,3335*7B
$GNRMC,095113.000,A,2500.8053682,N,12132.4793770,E,0.03,23.63,120523,,,R,V*29
$GNGLL,2500.8053715,N,12132.4793807,E,095114.000,A,R*53
$GNGGA,095114.000,2500.8053715,N,12132.4793807,E,4,52,0.56,17.294,M,15.25,M,15,3335*7C
$GNRMC,095114.000,A,2500.8053715,N,12132.4793807,E,0.06,23.63,120523,,,R,V*2B
$GNGSA,A,3,196,195,11,199,20,05,13,06,29,19,194,,0.91,0.59,0.69,1*04
$GNGSA,A,3,71,85,86,72,,,,,,,,,0.91,0.59,0.69,2*09
$GNGSA,A,3,19,33,12,10,,,,,,,,,0.91,0.59,0.69,3*02
$GNGSA,A,3,44,21,12,03,59,38,22,08,13,04,07,35,0.91,0.59,0.69,4*04
$GNGSA,A,3,40,34,39,,,,,,,,,,0.91,0.59,0.69,4*06
$GPGSV,5,1,17,196,74,064,40,195,71,110,38,50,60,167,42,11,60,035,40,1*6C
$GPGSV,5,2,17,199,60,167,39,20,54,349,42,05,50,304,40,13,47,184,39,1*56
$GPGSV,5,3,17,06,34,094,35,29,19,320,38,19,19,156,20,30,17,102,24,1*67
$GPGSV,5,4,17,194,16,171,39,07,08,070,15,25,06,272,21,10,,,21,1*6E
$GPGSV,5,5,17,15,,,28,1*6C
$GPGSV,2,1,08,196,74,064,47,195,71,110,43,11,60,035,47,199,60,167,48,8*5E
$GPGSV,2,2,08,06,34,094,39,30,17,102,30,194,16,171,40,25,06,272,29,8*53
$GLGSV,2,1,05,71,72,340,43,85,57,105,36,86,56,000,45,72,45,232,29,1*73
$GLGSV,2,2,05,70,25,026,16,1*4E
$GAGSV,2,1,05,19,78,107,38,33,54,072,25,12,46,338,39,10,25,320,17,7*7E
$GAGSV,2,2,05,31,09,220,,7*4D
$GAGSV,1,1,04,19,78,107,42,33,54,072,37,12,46,338,41,10,25,320,36,1*78
$GBGSV,5,1,19,44,88,349,39,21,63,266,43,12,62,329,36,03,60,206,26,1*72
$GBGSV,5,2,19,59,55,141,42,38,53,354,43,22,51,026,43,08,46,334,36,1*73
$GBGSV,5,3,19,10,42,229,22,13,41,317,36,04,39,117,32,07,39,208,25,1*79
$GBGSV,5,4,19,35,38,139,44,60,37,247,26,40,37,197,31,34,31,321,31,1*74
$GBGSV,5,5,19,39,30,169,43,42,16,236,23,11,11,322,24,1*4C
$GBGSV,3,1,09,44,88,349,41,21,63,266,44,38,53,354,44,22,51,026,38,4*73
$GBGSV,3,2,09,35,38,139,44,40,37,197,24,34,31,321,38,39,30,169,43,4*7A
$GBGSV,3,3,09,42,16,236,17,4*4A
$GNGLL,2500.8054132,N,12132.4793256,E,095115.000,A,R*58
$GNGGA,095115.000,2500.8054132,N,12132.4793256,E,4,52,0.59,17.288,M,15.25,M,16,3335*76
$GNRMC,095115.000,A,2500.8054132,N,12132.4793256,E,0.51,23.63,120523,,,R,V*22
$GNGLL,2500.8056300,N,12132.4790812,E,095116.000,A,R*53
$GNGGA,095116.000,2500.8056300,N,12132.4790812,E,4,52,0.59,17.442,M,15.25,M,17,3335*7C
$GNRMC,095116.000,A,2500.8056300,N,12132.4790812,E,1.26,319.21,120523,,,R,V*14
$GNGLL,2500.8059948,N,12132.4787154,E,095117.000,A,R*56
$GNGGA,095117.000,2500.8059948,N,12132.4787154,E,4,53,0.56,17.479,M,15.25,M,18,3335*70
$GNRMC,095117.000,A,2500.8059948,N,12132.4787154,E,1.40,322.15,120523,,,R,V*1E
$GNGLL,2500.8063719,N,12132.4783707,E,095118.000,A,R*5E
$GNGGA,095118.000,2500.8063719,N,12132.4783707,E,4,52,0.59,17.427,M,15.25,M,19,3335*7C
$GNRMC,095118.000,A,2500.8063719,N,12132.4783707,E,1.68,326.53,120523,,,R,V*1A
$GNGLL,2500.8067422,N,12132.4780088,E,095119.000,A,R*53
$GNGGA,095119.000,2500.8067422,N,12132.4780088,E,4,52,0.59,17.381,M,15.25,M,20,3335*70
$GNRMC,095119.000,A,2500.8067422,N,12132.4780088,E,1.73,320.16,120523,,,R,V*1A
$GNGSA,A,3,196,195,11,199,20,05,13,06,29,19,194,,0.89,0.56,0.69,1*02
$GNGSA,A,3,71,85,86,72,,,,,,,,,0.89,0.56,0.69,2*0F
$GNGSA,A,3,19,33,12,10,,,,,,,,,0.89,0.56,0.69,3*04
$GNGSA,A,3,44,21,12,03,59,38,22,08,10,13,04,07,0.89,0.56,0.69,4*05
$GNGSA,A,3,35,40,34,39,,,,,,,,,0.89,0.56,0.69,4*06
$GPGSV,4,1,16,196,74,064,42,195,71,110,41,50,60,167,42,11,60,035,43,1*63
$GPGSV,4,2,16,199,60,167,39,20,54,349,44,05,50,304,35,13,47,184,30,1*5B
$GPGSV,4,3,16,06,34,094,33,29,20,319,36,19,19,156,24,30,17,102,30,1*6E
$GPGSV,4,4,16,194,16,171,36,07,08,070,17,25,06,272,23,15,,,25,1*60
$GPGSV,2,1,08,196,74,064,47,195,71,110,43,11,60,035,48,199,60,167,48,8*51
$GPGSV,2,2,08,06,34,094,26,30,17,102,23,194,16,171,39,25,06,272,23,8*5B
$GLGSV,1,1,04,71,72,340,41,85,57,105,40,86,56,000,43,72,45,232,26,1*7B
$GAGSV,2,1,05,19,78,107,37,33,54,072,30,12,46,338,23,10,25,320,26,7*7C
$GAGSV,2,2,05,31,09,220,,7*4D
$GAGSV,1,1,04,19,78,107,42,33,54,072,43,12,46,338,30,10,25,320,33,1*78
$GBGSV,5,1,19,44,88,349,42,21,63,266,45,12,62,329,42,03,60,206,31,1*7D
$GBGSV,5,2,19,59,55,141,40,38,53,354,43,22,51,026,42,08,46,334,28,1*7F
$GBGSV,5,3,19,10,42,229,21,13,41,317,25,04,39,117,34,07,39,208,23,1*78
$GBGSV,5,4,19,35,38,139,44,40,37,197,26,60,37,247,39,34,31,321,34,1*79
$GBGSV,5,5,19,39,30,169,44,42,16,236,21,11,11,322,21,1*4C
$GBGSV,2,1,08,44,88,349,42,21,63,266,43,38,53,354,45,22,51,026,44,4*7D
$GBGSV,2,2,08,35,38,139,46,40,37,197,25,34,31,321,28,39,30,169,43,4*78
$GNGLL,2500.8070436,N,12132.4776647,E,095120.000,A,R*56
$GNGGA,095120.000,2500.8070436,N,12132.4776647,E,4,53,0.56,17.341,M,15.25,M,21,3335*76
$GNRMC,095120.000,A,2500.8070436,N,12132.4776647,E,1.48,317.51,120523,,,R,V*10
$GNGLL,2500.8073832,N,12132.4773157,E,095121.000,A,R*5F
$GNGGA,095121.000,2500.8073832,N,12132.4773157,E,4,52,0.56,17.403,M,15.25,M,22,3335*7C
$GNRMC,095121.000,A,2500.8073832,N,12132.4773157,E,1.55,310.94,120523,,,R,V*1B
$GNGLL,2500.8077593,N,12132.4769404,E,095122.000,A,R*56
$GNGGA,095122.000,2500.8077593,N,12132.4769404,E,4,52,0.56,17.369,M,15.25,M,23,3335*7F
$GNRMC,095122.000,A,2500.8077593,N,12132.4769404,E,1.76,314.11,120523,,,R,V*1A
$GNGLL,2500.8081613,N,12132.4765684,E,095123.000,A,D*45
$GNGGA,095123.000,2500.8081613,N,12132.4765684,E,2,52,0.56,17.391,M,15.25,M,1,0035*4B
$GNRMC,095123.000,A,2500.8081613,N,12132.4765684,E,1.87,315.00,120523,,,D,V*06
$GNGLL,2500.8085153,N,12132.4761184,E,095124.000,A,D*46
$GNGGA,095124.000,2500.8085153,N,12132.4761184,E,2,52,0.56,17.401,M,15.25,M,2,0035*45
$GNRMC,095124.000,A,2500.8085153,N,12132.4761184,E,2.03,307.13,120523,,,D,V*0B
$GNGSA,A,3,196,195,199,11,20,05,13,06,29,19,194,,0.89,0.56,0.69,1*02
$GNGSA,A,3,71,85,86,72,,,,,,,,,0.89,0.56,0.69,2*0F
$GNGSA,A,3,19,33,12,10,,,,,,,,,0.89,0.56,0.69,3*04
$GNGSA,A,3,44,21,12,03,59,38,22,08,10,13,07,04,0.89,0.56,0.69,4*05
$GNGSA,A,3,35,40,34,39,,,,,,,,,0.89,0.56,0.69,4*06
$GPGSV,4,1,16,196,74,063,41,195,71,111,41,50,60,167,30,199,60,167,28,1*59
$GPGSV,4,2,16,11,60,035,46,20,54,349,28,05,50,304,38,13,47,184,28,1*6A
$GPGSV,4,3,16,06,34,094,33,29,20,319,35,19,19,156,29,30,17,102,26,1*67
$GPGSV,4,4,16,194,16,171,29,07,08,070,16,25,06,272,20,15,,,24,1*6D
$GPGSV,2,1,08,196,74,063,47,195,71,111,46,11,60,035,48,199,60,167,35,8*58
$GPGSV,2,2,08,06,34,094,41,30,17,102,32,194,16,171,33,25,06,272,26,8*55
$GLGSV,1,1,04,71,72,340,39,85,57,105,41,86,56,000,41,72,45,232,22,1*73
$GAGSV,1,1,04,19,78,107,35,33,54,072,39,12,46,338,21,10,25,320,27,7*76
$GAGSV,1,1,04,19,78,107,40,33,54,072,45,12,46,338,24,10,25,320,36,1*7C
$GBGSV,5,1,19,44,88,349,43,21,63,266,38,12,62,329,39,03,60,206,30,1*7B
$GBGSV,5,2,19,59,55,141,41,38,53,354,41,22,51,026,46,08,46,334,24,1*74
$GBGSV,5,3,19,10,42,229,24,13,41,317,38,07,39,208,24,04,39,117,34,1*76
$GBGSV,5,4,19,35,38,139,45,40,37,197,23,60,37,247,29,34,31,321,37,1*7F
$GBGSV,5,5,19,39,30,169,32,42,16,236,21,11,11,322,23,1*4F
$GBGSV,3,1,09,44,88,349,41,21,63,266,37,38,53,354,45,22,51,026,46,4*7F
$GBGSV,3,2,09,35,38,139,43,40,37,197,21,34,31,321,42,39,30,169,31,4*70
$GBGSV,3,3,09,42,16,236,18,4*45
$GNGLL,2500.8088573,N,12132.4757284,E,095125.000,A,D*4A
$GNGGA,095125.000,2500.8088573,N,12132.4757284,E,2,52,0.56,17.440,M,15.25,M,3,0035*4D
$GNRMC,095125.000,A,2500.8088573,N,12132.4757284,E,1.59,317.52,120523,,,D,V*0F
$GNGLL,2500.8093073,N,12132.4754404,E,095126.000,A,D*4B
$GNGGA,095126.000,2500.8093073,N,12132.4754404,E,2,51,0.56,17.513,M,15.25,M,4,0035*4F
$GNRMC,095126.000,A,2500.8093073,N,12132.4754404,E,2.12,330.80,120523,,,D,V*08
$GNGLL,2500.8097513,N,12132.4751524,E,095127.000,A,D*4B
$GNGGA,095127.000,2500.8097513,N,12132.4751524,E,2,53,0.56,17.561,M,15.25,M,5,0035*49
$GNRMC,095127.000,A,2500.8097513,N,12132.4751524,E,1.71,309.66,120523,,,D,V*0C
$GNGLL,2500.8100513,N,12132.4746844,E,095128.000,A,D*46
$GNGGA,095128.000,2500.8100513,N,12132.4746844,E,2,51,0.57,17.562,M,15.25,M,6,0035*47
$GNRMC,095128.000,A,2500.8100513,N,12132.4746844,E,2.07,300.22,120523,,,D,V*0A
$GNGLL,2500.8103633,N,12132.4742104,E,095129.000,A,D*4C
$GNGGA,095129.000,2500.8103633,N,12132.4742104,E,2,52,0.56,17.542,M,15.25,M,7,0035*4C
$GNRMC,095129.000,A,2500.8103633,N,12132.4742104,E,1.96,316.81,120523,,,D,V*05
$GNGSA,A,3,196,195,199,11,20,05,13,06,29,19,194,,0.89,0.56,0.69,1*02
$GNGSA,A,3,71,85,86,72,,,,,,,,,0.89,0.56,0.69,2*0F
$GNGSA,A,3,19,33,12,10,,,,,,,,,0.89,0.56,0.69,3*04
$GNGSA,A,3,44,21,12,03,59,38,22,08,10,13,07,04,0.89,0.56,0.69,4*05
$GNGSA,A,3,35,40,34,39,,,,,,,,,0.89,0.56,0.69,4*06
$GPGSV,4,1,16,196,74,063,41,195,71,111,38,50,60,167,31,199,60,167,27,1*59
$GPGSV,4,2,16,11,60,035,45,20,54,349,33,05,50,304,47,13,47,184,27,1*64
$GPGSV,4,3,16,06,34,094,29,29,20,319,34,19,19,156,28,30,17,102,23,1*69
$GPGSV,4,4,16,194,16,171,21,07,08,070,26,25,06,272,23,15,,,24,1*65
$GPGSV,2,1,08,196,74,063,47,195,71,111,44,11,60,035,50,199,60,167,40,8*51
$GPGSV,2,2,08,06,34,094,40,30,17,102,26,194,16,171,25,25,06,272,31,8*50
$GLGSV,1,1,04,71,72,340,40,85,57,105,45,86,56,000,38,72,45,232,28,1*7D
$GAGSV,1,1,04,19,78,107,34,33,54,072,40,12,46,338,21,10,25,320,30,7*7F
$GAGSV,1,1,04,19,78,107,37,33,54,072,46,12,46,338,28,10,25,320,27,1*73
$GBGSV,5,1,19,44,88,349,42,21,63,266,39,12,62,329,43,03,60,206,28,1*7F
$GBGSV,5,2,19,59,55,141,37,38,53,354,22,22,51,026,45,08,46,334,26,1*71
$GBGSV,5,3,19,10,42,229,27,13,41,317,44,07,39,208,25,04,39,117,29,1*73
$GBGSV,5,4,19,35,38,139,42,40,37,197,24,60,37,247,34,34,31,321,39,1*7D
$GBGSV,5,5,19,39,30,169,24,42,16,236,20,11,11,322,25,1*4F
$GBGSV,3,1,09,44,88,349,41,21,63,266,38,38,53,354,25,22,51,026,45,4*75
$GBGSV,3,2,09,35,38,139,40,40,37,197,23,34,31,321,34,39,30,169,22,4*72
$GBGSV,3,3,09,42,16,236,20,4*4E
$GNGLL,2500.8107833,N,12132.4738144,E,095130.000,A,D*47
$GNGGA,095130.000,2500.8107833,N,12132.4738144,E,2,53,0.56,17.530,M,15.25,M,8,0035*4C
$GNRMC,095130.000,A,2500.8107833,N,12132.4738144,E,2.11,319.10,120523,,,D,V*05
$GNGLL,2500.8111253,N,12132.4734304,E,095131.000,A,D*47
$GNGGA,095131.000,2500.8111253,N,12132.4734304,E,2,52,0.56,17.495,M,15.25,M,9,0035*42
$GNRMC,095131.000,A,2500.8111253,N,12132.4734304,E,1.59,313.46,120523,,,D,V*03
$GNGLL,2500.8114313,N,12132.4729864,E,095132.000,A,D*45
$GNGGA,095132.000,2500.8114313,N,12132.4729864,E,2,52,0.56,17.408,M,15.25,M,10,0035*7C
$GNRMC,095132.000,A,2500.8114313,N,12132.4729864,E,2.17,305.22,120523,,,D,V*0D
$GNGLL,2500.8117493,N,12132.4725184,E,095133.000,A,D*43
$GNGGA,095133.000,2500.8117493,N,12132.4725184,E,2,52,0.56,17.333,M,15.25,M,11,0035*74
$GNRMC,095133.000,A,2500.8117493,N,12132.4725184,E,1.77,306.56,120523,,,D,V*0E
$GNGLL,2500.8121513,N,12132.4721764,E,095134.000,A,D*44
$GNGGA,095134.000,2500.8121513,N,12132.4721764,E,2,51,0.57,17.268,M,15.25,M,12,0035*7D
$GNRMC,095134.000,A,2500.8121513,N,12132.4721764,E,1.90,307.36,120523,,,D,V*07
$GNGSA,A,3,196,195,199,11,20,05,13,06,29,19,194,,0.89,0.56,0.69,1*02
$GNGSA,A,3,71,85,86,72,,,,,,,,,0.89,0.56,0.69,2*0F
$GNGSA,A,3,19,33,12,10,,,,,,,,,0.89,0.56,0.69,3*04
$GNGSA,A,3,44,21,12,03,59,38,22,08,10,13,07,04,0.89,0.56,0.69,4*05
$GNGSA,A,3,35,40,34,39,,,,,,,,,0.89,0.56,0.69,4*06
$GPGSV,4,1,16,196,74,063,42,195,71,111,45,50,60,167,32,199,60,167,34,1*51
$GPGSV,4,2,16,11,60,035,32,20,54,349,26,05,50,304,45,13,47,184,28,1*6D
$GPGSV,4,3,16,06,34,094,40,29,20,319,27,19,19,156,23,30,17,102,24,1*68
$GPGSV,4,4,16,194,16,171,22,07,08,070,20,25,06,272,22,15,,,32,1*66
$GPGSV,2,1,07,196,74,063,48,195,71,111,46,11,60,035,46,199,60,167,41,8*55
$GPGSV,2,2,07,06,34,094,43,30,17,102,23,194,16,171,24,8*6C
$GLGSV,1,1,04,71,72,340,40,85,57,105,45,86,56,000,28,72,45,232,40,1*72
$GAGSV,1,1,04,19,78,107,37,33,54,072,39,12,46,338,21,10,25,320,33,7*71
$GAGSV,1,1,04,19,78,107,41,33,54,072,47,12,46,338,34,10,25,320,39,1*71
$GBGSV,5,1,19,44,88,349,45,21,63,266,44,12,62,329,40,03,60,206,31,1*79
$GBGSV,5,2,19,59,55,141,41,38,53,354,29,22,51,026,35,08,46,334,24,1*7E
$GBGSV,5,3,19,10,42,229,35,13,41,317,37,07,39,208,31,04,39,117,31,1*78
$GBGSV,5,4,19,35,38,139,30,40,37,197,35,60,37,247,42,34,31,321,31,1*71
$GBGSV,5,5,19,39,30,169,24,42,16,236,19,11,11,322,27,1*47
$GBGSV,3,1,09,44,88,349,45,21,63,266,48,38,53,354,27,22,51,026,33,4*75
$GBGSV,3,2,09,35,38,139,27,40,37,197,31,34,31,321,40,39,30,169,22,4*73
$GBGSV,3,3,09,42,16,236,19,4*44
$GNGLL,2500.8126373,N,12132.4718164,E,095135.000,A,D*4E
$GNGGA,095135.000,2500.8126373,N,12132.4718164,E,2,52,0.56,17.176,M,15.25,M,13,0035*78
$GNRMC,095135.000,A,2500.8126373,N,12132.4718164,E,2.05,314.16,120523,,,D,V*02
$GNGLL,2500.8131593,N,12132.4714924,E,095136.000,A,D*43
$GNGGA,095136.000,2500.8131593,N,12132.4714924,E,2,50,0.58,17.191,M,15.25,M,14,0035*77
$GNRMC,095136.000,A,2500.8131593,N,12132.4714924,E,2.04,320.80,120523,,,D,V*06
$GNGLL,2500.8135373,N,12132.4710904,E,095137.000,A,D*48
$GNGGA,095137.000,2500.8135373,N,12132.4710904,E,2,53,0.56,17.171,M,15.25,M,15,0035*7E
$GNRMC,095137.000,A,2500.8135373,N,12132.4710904,E,1.91,310.76,120523,,,D,V*08
$GNGLL,2500.8139453,N,12132.4706764,E,095138.000,A,D*41
$GNGGA,095138.000,2500.8139453,N,12132.4706764,E,2,52,0.56,17.125,M,15.25,M,16,0035*74
$GNRMC,095138.000,A,2500.8139453,N,12132.4706764,E,2.09,316.84,120523,,,D,V*08
$GNGLL,2500.8143593,N,12132.4702204,E,095139.000,A,D*47
$GNGGA,095139.000,2500.8143593,N,12132.4702204,E,2,53,0.56,17.068,M,15.25,M,17,0035*7A
$GNRMC,095139.000,A,2500.8143593,N,12132.4702204,E,1.90,311.80,120523,,,D,V*0E
$GNGSA,A,3,196,195,11,199,20,05,13,06,29,19,194,,0.89,0.56,0.69,1*02
$GNGSA,A,3,71,85,86,72,,,,,,,,,0.89,0.56,0.69,2*0F
$GNGSA,A,3,19,33,12,10,,,,,,,,,0.89,0.56,0.69,3*04
$GNGSA,A,3,44,21,12,03,59,38,22,08,10,13,04,07,0.89,0.56,0.69,4*05
$GNGSA,A,3,35,40,34,39,,,,,,,,,0.89,0.56,0.69,4*06
$GPGSV,4,1,16,196,74,063,28,195,71,111,44,50,60,167,37,11,60,035,31,1*6B
$GPGSV,4,2,16,199,60,167,35,20,54,349,27,05,50,304,44,13,47,184,38,1*5C
$GPGSV,4,3,16,06,34,094,41,29,20,319,35,19,19,156,24,30,17,102,25,1*6C
$GPGSV,4,4,16,194,16,171,23,07,08,070,18,25,06,272,19,15,,,32,1*64
$GPGSV,2,1,08,196,74,063,32,195,71,111,47,11,60,035,43,199,60,167,43,8*51
$GPGSV,2,2,08,06,34,094,44,30,17,102,28,194,16,171,22,25,06,272,21,8*5C
$GLGSV,1,1,04,71,72,340,33,85,57,105,45,86,56,000,27,72,45,232,43,1*7A
$GAGSV,1,1,04,19,78,107,35,33,54,072,31,12,47,339,27,10,25,321,33,7*7C
$GAGSV,1,1,04,19,78,107,43,33,54,072,41,12,47,339,32,10,25,321,38,1*73
$GBGSV,5,1,20,44,88,349,45,21,63,266,47,12,62,329,39,03,60,206,41,1*79
$GBGSV,5,2,20,59,55,141,42,38,53,354,29,22,51,026,33,08,46,334,29,1*7C
$GBGSV,5,3,20,10,42,229,39,13,41,317,40,04,39,117,32,07,39,208,36,1*7A
$GBGSV,5,4,20,35,38,139,37,60,37,247,42,40,37,197,32,34,31,321,38,1*72
$GBGSV,5,5,20,39,30,169,24,42,16,236,18,11,11,322,29,56,,,35,1*47
$GBGSV,2,1,07,44,88,349,45,21,63,266,48,38,53,354,32,22,51,026,27,4*7B
$GBGSV,2,2,07,35,38,139,35,40,37,197,26,34,31,321,38,4*41
$GNGLL,2500.8147613,N,12132.4697644,E,095140.000,A,D*4B
$GNGGA,095140.000,2500.8147613,N,12132.4697644,E,2,51,0.56,16.987,M,15.25,M,18,0035*72
$GNRMC,095140.000,A,2500.8147613,N,12132.4697644,E,2.19,320.00,120523,,,D,V*0A
$GNGLL,2500.8151213,N,12132.4693084,E,095141.000,A,D*47
$GNGGA,095141.000,2500.8151213,N,12132.4693084,E,2,52,0.56,16.962,M,15.25,M,19,0035*77
$GNRMC,095141.000,A,2500.8151213,N,12132.4693084,E,1.93,318.38,120523,,,D,V*07
$PAIR010,0,0,2261,467519*34
$PAIR010,0,1,2261,467519*35
$GNGLL,2500.8154933,N,12132.4688644,E,095142.000,A,D*48
$GNGGA,095142.000,2500.8154933,N,12132.4688644,E,2,53,0.56,16.961,M,15.25,M,20,0035*70
$GNRMC,095142.000,A,2500.8154933,N,12132.4688644,E,2.07,318.69,120523,,,D,V*02
$GNGLL,2500.8158773,N,12132.4683424,E,095143.000,A,D*40
$GNGGA,095143.000,2500.8158773,N,12132.4683424,E,2,53,0.56,17.021,M,15.25,M,21,0035*75
$GNRMC,095143.000,A,2500.8158773,N,12132.4683424,E,2.09,313.12,120523,,,D,V*03
$GNGLL,2500.8162313,N,12132.4677964,E,095144.000,A,D*4E
$GNGGA,095144.000,2500.8162313,N,12132.4677964,E,2,53,0.56,17.048,M,15.25,M,22,0035*77
$GNRMC,095144.000,A,2500.8162313,N,12132.4677964,E,2.23,314.12,120523,,,D,V*02
$GNGSA,A,3,196,195,199,11,20,05,13,06,29,19,194,,0.89,0.56,0.69,1*02
$GNGSA,A,3,71,85,86,72,,,,,,,,,0.89,0.56,0.69,2*0F
$GNGSA,A,3,19,33,12,10,,,,,,,,,0.89,0.56,0.69,3*04
$GNGSA,A,3,44,21,12,03,59,38,22,08,10,13,04,07,0.89,0.56,0.69,4*05
$GNGSA,A,3,35,40,34,39,,,,,,,,,0.89,0.56,0.69,4*06
$GPGSV,5,1,17,196,74,063,33,195,71,111,40,199,60,167,38,11,60,035,30,1*5F
$GPGSV,5,2,17,50,60,167,40,20,54,349,33,05,50,304,43,13,47,184,45,1*62
$GPGSV,5,3,17,06,34,094,28,29,20,319,33,19,19,156,22,30,17,102,26,1*60
$GPGSV,5,4,17,194,16,171,25,07,08,070,18,25,06,272,21,09,03,037,,1*52
$GPGSV,5,5,17,15,,,30,1*65
$GPGSV,2,1,08,196,74,063,38,195,71,111,43,11,60,035,26,199,60,167,48,8*57
$GPGSV,2,2,08,06,34,094,29,30,17,102,28,194,16,171,20,25,06,272,27,8*53
$GLGSV,1,1,04,71,72,340,37,85,57,105,36,86,56,000,27,72,45,232,42,1*7B
$GAGSV,1,1,04,19,78,107,32,33,54,072,33,12,47,339,29,10,25,321,30,7*74
$GAGSV,1,1,04,19,78,107,37,33,54,072,30,12,47,339,26,10,25,321,35,1*7E
$GBGSV,5,1,20,44,88,349,44,21,63,266,47,12,62,329,37,03,60,206,42,1*75
$GBGSV,5,2,20,59,55,141,45,38,53,354,31,22,51,026,41,08,46,334,27,1*79
$GBGSV,5,3,20,10,42,229,40,13,41,317,41,04,39,117,36,07,39,208,40,1*70
$GBGSV,5,4,20,35,38,139,41,60,37,247,40,40,37,197,41,34,31,321,38,1*75
$GBGSV,5,5,20,39,30,169,31,42,16,236,19,11,11,322,30,56,,,33,1*4C
$GBGSV,2,1,08,44,88,349,45,21,63,266,47,38,53,354,29,22,51,026,34,4*73
$GBGSV,2,2,08,35,38,139,41,40,37,197,44,34,31,321,39,39,30,169,24,4*79
$GNGLL,2500.8166513,N,12132.4673284,E,095145.000,A,D*4C
$GNGGA,095145.000,2500.8166513,N,12132.4673284,E,2,53,0.56,17.110,M,15.25,M,23,0035*78
$GNRMC,095145.000,A,2500.8166513,N,12132.4673284,E,2.00,317.01,120523,,,D,V*00
$GNGLL,2500.8170233,N,12132.4668064,E,095146.000,A,D*4B
$GNGGA,095146.000,2500.8170233,N,12132.4668064,E,2,53,0.56,17.219,M,15.25,M,24,0035*72
$GNRMC,095146.000,A,2500.8170233,N,12132.4668064,E,2.23,309.42,120523,,,D,V*0E
$GNGLL,2500.8173953,N,12132.4662844,E,095147.000,A,D*44
$GNGGA,095147.000,2500.8173953,N,12132.4662844,E,2,52,0.56,17.168,M,15.25,M,25,0035*78
$GNRMC,095147.000,A,2500.8173953,N,12132.4662844,E,2.09,313.72,120523,,,D,V*01
$GNGLL,2500.8177313,N,12132.4657744,E,095148.000,A,D*48
$GNGGA,095148.000,2500.8177313,N,12132.4657744,E,2,53,0.56,17.242,M,15.25,M,26,0035*7D
$GNRMC,095148.000,A,2500.8177313,N,12132.4657744,E,2.09,312.93,120523,,,D,V*03
$GNGLL,2500.8188017,N,12132.4653489,E,095149.000,A,R*5E
$GNGGA,095149.000,2500.8188017,N,12132.4653489,E,4,53,0.56,17.401,M,15.25,M,1,3335*4F
$GNRMC,095149.000,A,2500.8188017,N,12132.4653489,E,1.99,313.93,120523,,,R,V*1E
$GNGSA,A,3,196,195,199,11,20,05,13,06,29,19,194,,0.89,0.56,0.69,1*02
$GNGSA,A,3,71,85,86,72,,,,,,,,,0.89,0.56,0.69,2*0F
$GNGSA,A,3,19,33,12,10,,,,,,,,,0.89,0.56,0.69,3*04
$GNGSA,A,3,44,21,12,03,59,38,22,08,10,13,07,04,0.89,0.56,0.69,4*05
$GNGSA,A,3,35,40,34,39,,,,,,,,,0.89,0.56,0.69,4*06
$GPGSV,5,1,17,196,74,063,25,195,71,111,33,199,60,167,38,50,60,167,40,1*58
$GPGSV,5,2,17,11,60,035,27,20,54,349,39,05,50,304,44,13,47,184,45,1*6D
$GPGSV,5,3,17,06,34,094,25,29,20,319,36,19,19,156,23,30,17,102,24,1*6B
$GPGSV,5,4,17,194,16,171,24,07,08,070,18,25,06,272,21,09,03,037,,1*53
$GPGSV,5,5,17,15,,,26,1*62
$GPGSV,2,1,08,196,74,063,36,195,71,111,39,11,60,035,40,199,60,167,47,8*5B
$GPGSV,2,2,08,06,34,094,26,30,17,102,26,194,16,171,19,25,06,272,25,8*5A
$GLGSV,2,1,05,71,72,340,44,85,57,105,28,86,56,000,37,72,45,232,43,1*72
$GLGSV,2,2,05,70,25,026,,1*49
$GAGSV,1,1,04,19,78,101,35,33,54,072,24,12,47,339,23,10,25,321,22,7*7A
$GAGSV,1,1,04,19,78,101,38,33,54,072,35,12,47,339,23,10,25,321,36,1*74
$GBGSV,5,1,19,44,88,349,44,21,63,266,47,12,62,329,40,03,60,206,43,1*7E
$GBGSV,5,2,19,59,55,141,45,38,53,354,40,22,51,026,29,08,46,334,23,1*7F
$GBGSV,5,3,19,10,42,229,37,13,41,317,42,07,39,208,37,04,39,117,28,1*76
$GBGSV,5,4,19,35,38,139,44,40,37,197,42,60,37,247,38,34,31,321,37,1*79
$GBGSV,5,5,19,39,30,169,31,42,16,236,19,11,11,322,27,1*43
$GBGSV,2,1,08,44,88,349,44,21,63,266,48,38,53,354,37,22,51,026,33,4*75
$GBGSV,2,2,08,35,38,139,45,40,37,197,42,34,31,321,39,39,30,169,36,4*78
$GNGLL,2500.8192145,N,12132.4649445,E,095150.000,A,R*50
$GNGGA,095150.000,2500.8192145,N,12132.4649445,E,4,53,0.56,17.346,M,15.25,M,1,3335*45
$GNRMC,095150.000,A,2500.8192145,N,12132.4649445,E,1.73,315.45,120523,,,R,V*19
$GNGLL,2500.8195656,N,12132.4645536,E,095151.000,A,R*5A
$GNGGA,095151.000,2500.8195656,N,12132.4645536,E,4,53,0.56,17.731,M,15.25,M,1,3335*4B
$GNRMC,095151.000,A,2500.8195656,N,12132.4645536,E,1.70,312.35,120523,,,R,V*10
$GNGLL,2500.8198812,N,12132.4641195,E,095152.000,A,R*53
$GNGGA,095152.000,2500.8198812,N,12132.4641195,E,4,53,0.56,18.124,M,15.25,M,1,3335*4F
$GNRMC,095152.000,A,2500.8198812,N,12132.4641195,E,2.09,306.87,120523,,,R,V*18
$GNGLL,2500.8203059,N,12132.4637052,E,095153.000,A,R*5F
$GNGGA,095153.000,2500.8203059,N,12132.4637052,E,4,53,0.56,17.819,M,15.25,M,1,3335*4B
$GNRMC,095153.000,A,2500.8203059,N,12132.4637052,E,1.91,320.19,120523,,,R,V*15
$GNGLL,2500.8206662,N,12132.4632928,E,095154.000,A,R*52
$GNGGA,095154.000,2500.8206662,N,12132.4632928,E,4,54,0.55,17.830,M,15.25,M,1,3335*49
$GNRMC,095154.000,A,2500.8206662,N,12132.4632928,E,1.75,321.12,120523,,,R,V*18
$GNGSA,A,3,196,195,11,199,20,05,13,06,29,19,194,,0.88,0.55,0.69,1*00
$GNGSA,A,3,71,85,86,72,,,,,,,,,0.88,0.55,0.69,2*0D
$GNGSA,A,3,19,33,12,10,,,,,,,,,0.88,0.55,0.69,3*06
$GNGSA,A,3,44,21,12,03,59,38,22,08,10,13,04,07,0.88,0.55,0.69,4*07
$GNGSA,A,3,35,60,40,34,39,,,,,,,,0.88,0.55,0.69,4*02
$GPGSV,5,1,17,196,74,063,34,195,71,111,39,11,60,035,34,50,60,167,41,1*68
$GPGSV,5,2,17,199,60,167,39,20,54,349,29,05,50,304,44,13,47,184,45,1*54
$GPGSV,5,3,17,06,34,094,22,29,20,319,37,19,19,156,28,30,17,102,20,1*62
$GPGSV,5,4,17,194,16,171,24,07,08,070,18,25,06,272,20,09,03,037,,1*52
$GPGSV,5,5,17,15,,,26,1*62
$GPGSV,2,1,08,196,74,063,44,195,71,111,42,11,60,035,47,199,60,167,48,8*5A
$GPGSV,2,2,08,06,34,094,31,30,17,102,21,194,16,171,28,25,06,272,25,8*59
$GLGSV,2,1,05,71,72,340,42,85,57,105,28,86,56,000,38,72,45,232,43,1*7B
$GLGSV,2,2,05,87,06,329,,1*4C
$GAGSV,1,1,04,19,78,101,35,33,54,072,28,12,47,339,21,10,25,321,30,7*77
$GAGSV,1,1,04,19,78,101,39,33,54,072,37,12,47,339,27,10,25,321,29,1*7D
$GBGSV,5,1,20,44,88,349,46,21,63,266,46,12,62,329,40,03,60,206,43,1*77
$GBGSV,5,2,20,59,55,141,45,38,53,354,28,22,51,026,42,08,46,334,21,1*74
$GBGSV,5,3,20,10,42,229,39,13,41,317,40,04,39,117,27,07,39,208,38,1*70
$GBGSV,5,4,20,35,38,139,46,60,37,247,40,40,37,197,41,34,31,321,38,1*72
$GBGSV,5,5,20,39,30,169,39,42,16,236,19,11,11,322,29,09,08,190,,1*76
$GBGSV,2,1,08,44,88,349,44,21,63,266,47,38,53,354,31,22,51,026,42,4*7A
$GBGSV,2,2,08,35,38,139,43,40,37,197,42,34,31,321,38,39,30,169,40,4*7E
$GNGLL,2500.8210322,N,12132.4629585,E,095155.000,A,R*54
$GNGGA,095155.000,2500.8210322,N,12132.4629585,E,4,54,0.55,17.874,M,15.25,M,1,3335*4F
$GNRMC,095155.000,A,2500.8210322,N,12132.4629585,E,1.63,319.78,120523,,,R,V*1E
$GNGLL,2500.8213654,N,12132.4626205,E,095156.000,A,R*50
$GNGGA,095156.000,2500.8213654,N,12132.4626205,E,4,54,0.55,17.746,M,15.25,M,1,3335*45
$GNRMC,095156.000,A,2500.8213654,N,12132.4626205,E,1.75,324.51,120523,,,R,V*18
$GNGLL,2500.8217026,N,12132.4622409,E,095157.000,A,R*58
$GNGGA,095157.000,2500.8217026,N,12132.4622409,E,4,54,0.55,17.729,M,15.25,M,1,3335*44
$GNRMC,095157.000,A,2500.8217026,N,12132.4622409,E,1.68,316.36,120523,,,R,V*1C
$GNGLL,2500.8220425,N,12132.4618713,E,095158.000,A,R*55
$GNGGA,095158.000,2500.8220425,N,12132.4618713,E,4,54,0.55,17.767,M,15.25,M,1,3335*43
$GNRMC,095158.000,A,2500.8220425,N,12132.4618713,E,1.85,320.72,120523,,,R,V*17
$GNGLL,2500.8224091,N,12132.4614825,E,095159.000,A,R*5D
$GNGGA,095159.000,2500.8224091,N,12132.4614825,E,4,53,0.55,17.745,M,15.25,M,1,3335*4C
$GNRMC,095159.000,A,2500.8224091,N,12132.4614825,E,1.70,323.91,120523,,,R,V*1B
$GNGSA,A,3,196,195,199,11,20,05,13,06,29,19,194,,0.88,0.55,0.69,1*00
$GNGSA,A,3,71,85,86,72,,,,,,,,,0.88,0.55,0.69,2*0D
$GNGSA,A,3,19,33,12,10,,,,,,,,,0.88,0.55,0.69,3*06
$GNGSA,A,3,44,21,12,03,59,38,22,08,10,13,07,04,0.88,0.55,0.69,4*07
$GNGSA,A,3,35,60,40,34,39,,,,,,,,0.88,0.55,0.69,4*02
$GPGSV,5,1,17,196,74,063,41,195,71,111,42,199,60,167,38,50,60,167,40,1*5C
$GPGSV,5,2,17,11,60,035,39,20,54,349,27,05,50,304,44,13,47,184,45,1*6D
$GPGSV,5,3,17,06,34,094,24,29,20,319,34,19,19,156,28,30,17,102,20,1*67
$GPGSV,5,4,17,194,16,171,25,07,08,070,19,25,06,272,20,09,03,037,,1*52
$GPGSV,5,5,17,15,,,31,1*64
$GPGSV,2,1,07,196,74,063,44,195,71,111,45,11,60,035,45,199,60,167,47,8*5F
$GPGSV,2,2,07,06,34,094,30,30,17,102,21,194,16,171,23,8*6D
$GLGSV,1,1,04,71,72,340,38,85,57,105,27,86,56,000,27,72,45,232,43,1*75
$GAGSV,2,1,05,19,78,101,37,33,54,074,44,12,47,339,21,10,25,321,32,7*79
$GAGSV,2,2,05,11,02,309,,7*4E
$GAGSV,1,1,04,19,78,101,41,33,54,074,42,12,47,339,21,10,25,321,36,1*7E
$GBGSV,6,1,21,44,88,349,46,21,63,266,45,12,62,329,39,03,60,206,42,1*79
$GBGSV,6,2,21,61,58,205,,59,55,141,45,38,53,354,26,22,51,026,29,1*75
$GBGSV,6,3,21,08,46,334,24,10,42,229,38,13,41,317,38,07,39,208,40,1*77
$GBGSV,6,4,21,04,39,117,25,35,38,139,46,60,37,247,43,40,37,197,41,1*73
$GBGSV,6,5,21,34,31,321,38,39,30,169,41,42,16,236,19,11,11,322,20,1*75
$GBGSV,6,6,21,09,08,190,,1*4C
$GBGSV,2,1,08,44,88,349,45,21,63,266,46,38,53,354,28,22,51,026,40,4*70
$GBGSV,2,2,08,35,38,139,44,40,37,197,42,34,31,321,38,39,30,169,42,4*7B
$GNGLL,2500.8228432,N,12132.4611050,E,095200.000,A,R*5C
$GNGGA,095200.000,2500.8228432,N,12132.4611050,E,4,54,0.55,17.559,M,15.25,M,1,3335*45
$GNRMC,095200.000,A,2500.8228432,N,12132.4611050,E,2.08,318.71,120523,,,R,V*10
$GNGLL,2500.8232256,N,12132.4607063,E,095201.000,A,R*55
$GNGGA,095201.000,2500.8232256,N,12132.4607063,E,4,52,0.56,17.546,M,15.25,M,1,3335*47
$GNRMC,095201.000,A,2500.8232256,N,12132.4607063,E,2.02,329.20,120523,,,R,V*15
$GNGLL,2500.8236685,N,12132.4602918,E,095202.000,A,R*58
$GNGGA,095202.000,2500.8236685,N,12132.4602918,E,4,52,0.56,17.467,M,15.25,M,2,3335*4B
$GNRMC,095202.000,A,2500.8236685,N,12132.4602918,E,2.02,324.67,120523,,,R,V*16
$GNGLL,2500.8240810,N,12132.4598753,E,095203.000,A,R*5B
$GNGGA,095203.000,2500.8240810,N,12132.4598753,E,4,52,0.56,17.480,M,15.25,M,3,3335*40
$GNRMC,095203.000,A,2500.8240810,N,12132.4598753,E,1.94,315.00,120523,,,R,V*1A
$GNGLL,2500.8244986,N,12132.4594146,E,095204.000,A,R*58
$GNGGA,095204.000,2500.8244986,N,12132.4594146,E,4,52,0.56,17.453,M,15.25,M,4,3335*4A
$GNRMC,095204.000,A,2500.8244986,N,12132.4594146,E,2.22,315.50,120523,,,R,V*12
$GNGSA,A,3,196,195,199,11,20,05,13,06,29,19,194,,0.89,0.56,0.69,1*02
$GNGSA,A,3,71,85,86,72,,,,,,,,,0.89,0.56,0.69,2*0F
$GNGSA,A,3,19,33,12,10,,,,,,,,,0.89,0.56,0.69,3*04
$GNGSA,A,3,44,21,12,03,59,38,22,08,10,13,07,35,0.89,0.56,0.69,4*07
$GNGSA,A,3,60,40,34,39,,,,,,,,,0.89,0.56,0.69,4*06
$GPGSV,5,1,17,196,74,063,26,195,71,111,44,50,60,167,40,199,60,167,38,1*5B
$GPGSV,5,2,17,11,60,035,36,20,54,349,24,05,50,304,43,13,47,184,46,1*65
$GPGSV,5,3,17,06,34,094,24,29,20,319,38,19,19,156,26,30,17,102,20,1*65
$GPGSV,5,4,17,194,16,171,29,07,08,070,22,25,06,272,,09,03,037,,1*54
$GPGSV,5,5,17,15,,,37,1*62
$GPGSV,2,1,07,196,74,063,41,195,71,111,45,199,60,167,48,11,60,035,35,8*52
$GPGSV,2,2,07,06,34,094,36,30,17,102,19,25,06,272,21,8*58
$GLGSV,1,1,04,71,72,340,42,85,57,105,36,86,56,000,29,72,45,232,42,1*77
$GAGSV,2,1,05,19,78,101,37,33,54,074,42,12,47,339,20,10,25,321,36,7*7A
$GAGSV,2,2,05,11,02,309,,7*4E
$GAGSV,1,1,04,19,78,101,39,33,54,074,43,12,47,339,25,10,25,321,27,1*74
$GBGSV,6,1,21,44,88,349,45,21,63,266,46,12,62,329,40,03,60,206,41,1*74
$GBGSV,6,2,21,59,55,141,45,38,53,354,35,22,51,026,30,08,46,334,27,1*79
$GBGSV,6,3,21,10,42,229,38,13,41,317,39,04,39,117,,07,39,208,40,1*77
$GBGSV,6,4,21,35,38,139,45,60,37,247,42,40,37,197,41,34,31,321,37,1*7E
$GBGSV,6,5,21,39,30,169,41,42,16,236,23,11,11,322,22,19,03,044,,1*7B
$GBGSV,6,6,21,56,,,38,1*7D
$GBGSV,3,1,09,44,88,349,46,21,63,266,47,38,53,354,36,22,51,026,23,4*78
$GBGSV,3,2,09,35,38,139,43,40,37,197,43,34,31,321,33,39,30,169,42,4*76
$GBGSV,3,3,09,42,16,236,25,4*4B
$GNGLL,2500.8249076,N,12132.4589676,E,095205.000,A,R*5A
$GNGGA,095205.000,2500.8249076,N,12132.4589676,E,4,52,0.56,17.412,M,15.25,M,5,3335*4C
$GNRMC,095205.000,A,2500.8249076,N,12132.4589676,E,2.01,319.66,120523,,,R,V*18
$GNGLL,2500.8253234,N,12132.4585547,E,095206.000,A,R*5B
$GNGGA,095206.000,2500.8253234,N,12132.4585547,E,4,53,0.56,17.419,M,15.25,M,6,3335*44
$GNRMC,095206.000,A,2500.8253234,N,12132.4585547,E,2.06,315.73,120523,,,R,V*16
$GNGLL,2500.8257569,N,12132.4581483,E,095207.000,A,R*5C
$GNGGA,095207.000,2500.8257569,N,12132.4581483,E,4,53,0.56,17.386,M,15.25,M,3,3335*47
$GNRMC,095207.000,A,2500.8257569,N,12132.4581483,E,1.95,311.69,120523,,,R,V*17
$GNGLL,2500.8261543,N,12132.4576779,E,095208.000,A,R*50
$GNGGA,095208.000,2500.8261543,N,12132.4576779,E,4,53,0.56,17.383,M,15.25,M,2,3335*4F
$GNRMC,095208.000,A,2500.8261543,N,12132.4576779,E,2.19,313.38,120523,,,R,V*1A
$GNGLL,2500.8265557,N,12132.4572271,E,095209.000,A,R*59
$GNGGA,095209.000,2500.8265557,N,12132.4572271,E,4,53,0.56,17.361,M,15.25,M,3,3335*4B
$GNRMC,095209.000,A,2500.8265557,N,12132.4572271,E,2.01,313.32,120523,,,R,V*10
$GNGSA,A,3,196,195,199,11,20,05,13,06,29,19,194,,0.89,0.56,0.69,1*02
$GNGSA,A,3,71,85,86,72,,,,,,,,,0.89,0.56,0.69,2*0F
$GNGSA,A,3,19,33,12,10,,,,,,,,,0.89,0.56,0.69,3*04
$GNGSA,A,3,44,21,12,03,59,38,22,08,10,13,07,35,0.89,0.56,0.69,4*07
$GNGSA,A,3,60,40,34,39,,,,,,,,,0.89,0.56,0.69,4*06
$GPGSV,5,1,17,196,74,063,26,195,71,111,36,199,60,167,37,50,60,167,40,1*51
$GPGSV,5,2,17,11,60,035,29,20,54,349,29,05,50,304,45,13,47,184,45,1*63
$GPGSV,5,3,17,06,34,094,24,29,20,319,33,19,19,156,35,30,17,102,,1*6E
$GPGSV,5,4,17,194,16,171,28,07,08,070,25,25,06,272,18,09,03,037,,1*5B
$GPGSV,5,5,17,15,,,41,1*63
$GPGSV,2,1,08,196,74,063,32,195,71,111,44,11,60,035,35,199,60,167,48,8*58
$GPGSV,2,2,08,06,34,094,27,30,17,102,21,194,16,171,30,25,06,272,21,8*53
$GLGSV,1,1,04,71,70,343,24,85,57,105,40,86,56,000,27,72,45,232,43,1*78
$GAGSV,2,1,05,19,78,101,35,33,54,074,38,12,47,339,23,10,25,321,33,7*73
$GAGSV,2,2,05,31,09,219,,7*47
$GAGSV,1,1,04,19,78,101,33,33,54,074,31,12,47,339,29,10,25,321,38,1*79
$GBGSV,5,1,20,44,88,349,46,21,63,266,47,12,62,329,42,03,60,206,40,1*77
$GBGSV,5,2,20,59,55,141,45,38,53,354,25,22,51,026,29,08,46,334,27,1*72
$GBGSV,5,3,20,10,42,229,38,13,41,317,35,07,39,208,39,04,39,117,,1*77
$GBGSV,5,4,20,35,38,139,44,60,37,247,41,40,37,197,42,34,31,321,37,1*7D
$GBGSV,5,5,20,39,30,169,42,42,16,236,36,11,11,322,27,19,03,044,,1*7B
$GBGSV,3,1,09,44,88,349,47,21,63,266,47,38,53,354,31,22,51,026,23,4*7E
$GBGSV,3,2,09,35,38,139,42,40,37,197,43,34,31,321,34,39,30,169,42,4*70
$GBGSV,3,3,09,42,16,236,39,4*46
$GNGLL,2500.8269997,N,12132.4568392,E,095210.000,A,R*5A
$GNGGA,095210.000,2500.8269997,N,12132.4568392,E,4,53,0.56,17.409,M,15.25,M,4,3335*46
$GNRMC,095210.000,A,2500.8269997,N,12132.4568392,E,2.28,322.10,120523,,,R,V*1A
$GNGLL,2500.8274138,N,12132.4564066,E,095211.000,A,R*5E
$GNGGA,095211.000,2500.8274138,N,12132.4564066,E,4,53,0.56,17.357,M,15.25,M,1,3335*4B
$GNRMC,095211.000,A,2500.8274138,N,12132.4564066,E,1.99,315.04,120523,,,R,V*16
$GNGLL,2500.8278403,N,12132.4560307,E,095212.000,A,R*5C
$GNGGA,095212.000,2500.8278403,N,12132.4560307,E,4,53,0.56,17.375,M,15.25,M,1,3335*49
$GNRMC,095212.000,A,2500.8278403,N,12132.4560307,E,1.93,329.84,120523,,,R,V*19
$GNGLL,2500.8281712,N,12132.4556652,E,095213.000,A,R*58
$GNGGA,095213.000,2500.8281712,N,12132.4556652,E,4,53,0.56,17.272,M,15.25,M,1,3335*4B
$GNRMC,095213.000,A,2500.8281712,N,12132.4556652,E,1.34,334.18,120523,,,R,V*19
$GNGLL,2500.8283848,N,12132.4553867,E,095214.000,A,R*50
$GNGGA,095214.000,2500.8283848,N,12132.4553867,E,4,53,0.56,17.270,M,15.25,M,1,3335*41
$GNRMC,095214.000,A,2500.8283848,N,12132.4553867,E,0.82,313.08,120523,,,R,V*19
$GNGSA,A,3,196,195,199,11,20,05,13,06,29,19,194,,0.89,0.56,0.69,1*02
$GNGSA,A,3,71,85,86,72,,,,,,,,,0.89,0.56,0.69,2*0F
$GNGSA,A,3,19,33,12,10,,,,,,,,,0.89,0.56,0.69,3*04
$GNGSA,A,3,44,21,12,03,59,38,22,08,10,13,07,35,0.89,0.56,0.69,4*07
$GNGSA,A,3,40,60,34,39,,,,,,,,,0.89,0.56,0.69,4*06
$GPGSV,5,1,17,196,74,063,33,195,71,111,40,199,60,167,37,11,60,035,28,1*59
$GPGSV,5,2,17,50,60,167,41,20,54,349,27,05,50,304,46,13,47,184,44,1*62
$GPGSV,5,3,17,06,34,094,29,29,20,319,31,19,19,156,33,30,17,102,18,1*6E
$GPGSV,5,4,17,194,16,171,27,07,08,070,23,25,06,272,18,09,03,037,,1*52
$GPGSV,5,5,17,15,,,43,1*61
$GPGSV,2,1,07,196,74,063,40,195,71,111,42,199,60,167,48,11,60,035,38,8*59
$GPGSV,2,2,07,30,17,102,18,194,16,171,31,25,06,272,22,8*6D
$GLGSV,1,1,04,71,70,343,38,85,57,105,24,86,56,000,26,72,46,234,43,1*73
$GAGSV,2,1,05,19,78,101,37,33,54,074,26,12,47,339,37,10,25,321,32,7*7A
$GAGSV,2,2,05,31,09,219,,7*47
$GAGSV,1,1,04,19,78,101,41,33,54,074,31,12,47,339,34,10,25,321,40,1*7F
$GBGSV,6,1,21,44,88,349,42,21,63,266,46,12,62,329,42,03,60,206,41,1*71
$GBGSV,6,2,21,59,55,141,44,38,53,354,31,22,51,026,24,08,46,334,36,1*79
$GBGSV,6,3,21,10,42,229,39,13,41,317,39,04,39,117,,07,39,208,40,1*76
$GBGSV,6,4,21,35,38,139,44,40,37,197,42,60,37,247,43,34,31,321,38,1*72
$GBGSV,6,5,21,39,30,169,41,05,16,258,34,42,16,236,37,11,11,322,23,1*7E
$GBGSV,6,6,21,56,,,30,1*75
$GBGSV,3,1,09,44,88,349,45,21,63,266,47,38,53,354,30,22,51,026,36,4*79
$GBGSV,3,2,09,35,38,139,44,40,37,197,44,34,31,321,39,39,30,169,43,4*7D
$GBGSV,3,3,09,42,16,236,41,4*49
$GNGLL,2500.8283042,N,12132.4551842,E,095215.000,A,R*56
$GNGGA,095215.000,2500.8283042,N,12132.4551842,E,4,52,0.56,17.247,M,15.25,M,2,3335*41
$GNRMC,095215.000,A,2500.8283042,N,12132.4551842,E,0.59,227.41,120523,,,R,V*12
$GNGLL,2500.8281054,N,12132.4551619,E,095216.000,A,R*50
$GNGGA,095216.000,2500.8281054,N,12132.4551619,E,4,54,0.55,17.291,M,15.25,M,1,3335*4A
$GNRMC,095216.000,A,2500.8281054,N,12132.4551619,E,0.39,227.41,120523,,,R,V*12
$GNGLL,2500.8280036,N,12132.4550704,E,095217.000,A,R*58
$GNGGA,095217.000,2500.8280036,N,12132.4550704,E,4,54,0.55,17.328,M,15.25,M,2,3335*42
$GNRMC,095217.000,A,2500.8280036,N,12132.4550704,E,0.60,231.28,120523,,,R,V*1E
$GNGLL,2500.8277730,N,12132.4547544,E,095218.000,A,R*5E
$GNGGA,095218.000,2500.8277730,N,12132.4547544,E,4,55,0.53,17.315,M,15.25,M,3,3335*4C
$GNRMC,095218.000,A,2500.8277730,N,12132.4547544,E,1.21,205.04,120523,,,R,V*15
$GNGLL,2500.8274159,N,12132.4543598,E,095219.000,A,R*50
$GNGGA,095219.000,2500.8274159,N,12132.4543598,E,4,56,0.53,17.346,M,15.25,M,4,3335*40
$GNRMC,095219.000,A,2500.8274159,N,12132.4543598,E,1.54,218.43,120523,,,R,V*16
$GNGSA,A,3,196,195,199,11,20,05,13,06,29,19,194,,0.86,0.53,0.68,1*09
$GNGSA,A,3,71,85,86,72,,,,,,,,,0.86,0.53,0.68,2*04
$GNGSA,A,3,19,33,12,10,,,,,,,,,0.86,0.53,0.68,3*0F
$GNGSA,A,3,44,21,12,03,59,38,22,08,10,13,04,07,0.86,0.53,0.68,4*0E
$GNGSA,A,3,35,40,60,34,39,42,,,,,,,0.86,0.53,0.68,4*0D
$GPGSV,5,1,18,196,74,063,36,195,71,111,43,199,60,167,38,11,60,035,31,1*57
$GPGSV,5,2,18,50,60,167,40,20,54,349,36,05,50,304,45,13,47,184,45,1*6E
$GPGSV,5,3,18,06,34,094,36,29,20,319,33,19,19,156,31,30,17,102,19,1*6E
$GPGSV,5,4,18,194,16,171,25,07,08,070,,25,06,272,18,09,03,037,,1*5E
$GPGSV,5,5,18,12,,,41,15,,,41,1*6A
$GPGSV,2,1,08,196,74,063,40,195,71,111,46,11,60,035,33,199,60,167,47,8*56
$GPGSV,2,2,08,06,34,094,32,30,17,102,14,194,16,171,23,25,06,272,21,8*53
$GLGSV,1,1,04,71,70,343,45,85,57,105,41,86,56,000,41,72,46,234,44,1*7C
$GAGSV,1,1,04,19,78,101,36,33,54,074,25,12,47,339,33,10,25,321,36,7*7A
$GAGSV,1,1,04,19,78,101,41,33,54,074,34,12,47,339,35,10,25,321,39,1*75
$GBGSV,6,1,21,44,88,349,45,21,63,266,46,12,62,329,43,03,60,206,41,1*77
$GBGSV,6,2,21,59,55,141,44,38,53,354,40,22,51,026,32,08,46,334,36,1*78
$GBGSV,6,3,21,10,42,229,40,13,41,317,37,04,39,117,30,07,39,208,39,1*7B
$GBGSV,6,4,21,35,38,139,45,40,37,197,43,60,37,247,42,34,31,321,40,1*7C
$GBGSV,6,5,21,39,30,169,42,05,16,258,31,42,16,236,38,11,11,322,,1*76
$GBGSV,6,6,21,56,,,23,1*77
$GBGSV,3,1,09,44,88,349,46,21,63,266,47,38,53,354,40,22,51,026,31,4*7A
$GBGSV,3,2,09,35,38,139,44,40,37,197,43,34,31,321,40,39,30,169,42,4*75
$GBGSV,3,3,09,42,16,236,39,4*46
$GNGLL,2500.8270523,N,12132.4539642,E,095220.000,A,R*5E
$GNGGA,095220.000,2500.8270523,N,12132.4539642,E,4,56,0.53,17.299,M,15.25,M,1,3335*48
$GNRMC,095220.000,A,2500.8270523,N,12132.4539642,E,1.79,227.25,120523,,,R,V*1B
$GNGLL,2500.8266819,N,12132.4535533,E,095221.000,A,R*55
$GNGGA,095221.000,2500.8266819,N,12132.4535533,E,4,56,0.53,17.309,M,15.25,M,1,3335*4B
$GNRMC,095221.000,A,2500.8266819,N,12132.4535533,E,1.95,222.78,120523,,,R,V*1F
$GNGLL,2500.8263167,N,12132.4531316,E,095222.000,A,R*56
$GNGGA,095222.000,2500.8263167,N,12132.4531316,E,4,55,0.53,17.349,M,15.25,M,2,3335*4C
$GNRMC,095222.000,A,2500.8263167,N,12132.4531316,E,2.06,228.44,120523,,,R,V*10
$GNGLL,2500.8259182,N,12132.4527091,E,095223.000,A,R*5E
$GNGGA,095223.000,2500.8259182,N,12132.4527091,E,4,55,0.53,17.370,M,15.25,M,3,3335*4F
$GNRMC,095223.000,A,2500.8259182,N,12132.4527091,E,1.79,224.78,120523,,,R,V*10
$GNGLL,2500.8255472,N,12132.4522939,E,095224.000,A,R*51
$GNGGA,095224.000,2500.8255472,N,12132.4522939,E,4,55,0.53,17.399,M,15.25,M,4,3335*40
$GNRMC,095224.000,A,2500.8255472,N,12132.4522939,E,1.94,236.82,120523,,,R,V*1A
$GNGSA,A,3,196,195,199,11,20,05,13,06,29,19,194,,0.86,0.53,0.68,1*09
$GNGSA,A,3,71,86,85,72,,,,,,,,,0.86,0.53,0.68,2*04
$GNGSA,A,3,19,33,12,10,,,,,,,,,0.86,0.53,0.68,3*0F
$GNGSA,A,3,44,21,12,03,59,38,22,08,10,13,04,07,0.86,0.53,0.68,4*0E
$GNGSA,A,3,35,40,60,34,39,42,,,,,,,0.86,0.53,0.68,4*0D
$GPGSV,5,1,18,196,74,063,40,195,71,111,44,199,60,167,38,11,60,035,36,1*56
$GPGSV,5,2,18,50,60,167,40,20,54,349,44,05,50,304,43,13,47,184,45,1*6D
$GPGSV,5,3,18,06,34,094,38,29,20,319,35,19,19,156,29,30,17,102,21,1*64
$GPGSV,5,4,18,194,16,171,24,07,08,070,21,25,06,272,19,09,03,037,,1*5D
$GPGSV,5,5,18,12,,,38,15,,,35,1*67
$GPGSV,2,1,06,196,74,063,45,195,71,111,46,11,60,035,44,199,60,167,47,8*5D
$GPGSV,2,2,06,06,34,094,44,194,16,171,26,8*5F
$GLGSV,1,1,04,71,70,343,44,86,58,001,44,85,56,108,45,72,46,234,44,1*7F
$GAGSV,2,1,05,19,78,101,37,33,54,074,35,12,47,339,35,10,25,321,37,7*7F
$GAGSV,2,2,05,04,,,41,7*77
$GAGSV,1,1,04,19,78,101,40,33,54,074,42,12,47,339,39,10,25,321,39,1*79
$GBGSV,6,1,21,44,88,349,46,21,63,266,45,12,62,329,42,03,60,206,41,1*76
$GBGSV,6,2,21,59,55,141,43,38,53,354,44,22,51,026,37,08,46,334,33,1*7B
$GBGSV,6,3,21,10,42,229,40,13,41,317,36,04,39,117,39,07,39,208,40,1*7D
$GBGSV,6,4,21,35,38,139,46,40,37,197,43,60,37,247,42,34,31,321,38,1*70
$GBGSV,6,5,21,39,30,169,43,05,16,258,33,42,16,236,40,11,11,322,22,1*7A
$GBGSV,6,6,21,56,,,23,1*77
$GBGSV,3,1,09,44,88,349,46,21,63,266,46,38,53,354,44,22,51,026,36,4*78
$GBGSV,3,2,09,35,38,139,44,40,37,197,41,34,31,321,39,39,30,169,41,4*7A
$GBGSV,3,3,09,42,16,236,41,4*49
$GNGLL,2500.8251575,N,12132.4518464,E,095225.000,A,R*5E
$GNGGA,095225.000,2500.8251575,N,12132.4518464,E,4,56,0.53,17.353,M,15.25,M,5,3335*4B
$GNRMC,095225.000,A,2500.8251575,N,12132.4518464,E,1.96,227.09,120523,,,R,V*14
$GNGLL,2500.8247718,N,12132.4513957,E,095226.000,A,R*55
$GNGGA,095226.000,2500.8247718,N,12132.4513957,E,4,56,0.53,17.396,M,15.25,M,6,3335*4A
$GNRMC,095226.000,A,2500.8247718,N,12132.4513957,E,1.91,225.12,120523,,,R,V*10
$GNGLL,2500.8243837,N,12132.4509138,E,095227.000,A,R*58
$GNGGA,095227.000,2500.8243837,N,12132.4509138,E,4,56,0.53,17.401,M,15.25,M,1,3335*49
$GNRMC,095227.000,A,2500.8243837,N,12132.4509138,E,2.02,225.94,120523,,,R,V*1A
$GNGLL,2500.8239973,N,12132.4504502,E,095228.000,A,R*5B
$GNGGA,095228.000,2500.8239973,N,12132.4504502,E,4,56,0.53,17.441,M,15.25,M,1,3335*4E
$GNRMC,095228.000,A,2500.8239973,N,12132.4504502,E,2.25,231.32,120523,,,R,V*15
$GNGLL,2500.8235840,N,12132.4500001,E,095229.000,A,R*55
$GNGGA,095229.000,2500.8235840,N,12132.4500001,E,4,55,0.53,17.383,M,15.25,M,1,3335*4A
$GNRMC,095229.000,A,2500.8235840,N,12132.4500001,E,2.11,229.48,120523,,,R,V*18
$GNGSA,A,3,196,195,199,11,20,05,13,06,29,19,194,,0.86,0.53,0.68,1*09
$GNGSA,A,3,71,86,85,72,,,,,,,,,0.86,0.53,0.68,2*04
$GNGSA,A,3,19,33,12,10,,,,,,,,,0.86,0.53,0.68,3*0F
$GNGSA,A,3,44,21,12,03,59,38,22,08,10,13,04,07,0.86,0.53,0.68,4*0E
$GNGSA,A,3,35,40,60,34,39,42,,,,,,,0.86,0.53,0.68,4*0D
$GPGSV,5,1,18,196,74,063,41,195,71,111,44,199,60,167,38,11,60,035,42,1*54
$GPGSV,5,2,18,50,60,167,40,20,54,349,45,05,50,304,43,13,47,184,45,1*6C
$GPGSV,5,3,18,06,34,094,35,29,20,319,36,19,19,156,29,30,17,102,23,1*68
$GPGSV,5,4,18,194,16,171,23,07,08,070,24,25,06,272,20,09,03,037,,1*55
$GPGSV,5,5,18,12,,,41,15,,,25,1*68
$GPGSV,2,1,08,196,74,063,47,195,71,111,47,11,60,035,48,199,60,167,48,8*53
$GPGSV,2,2,08,06,34,094,37,30,17,102,29,194,16,171,30,25,06,272,16,8*5E
$GLGSV,1,1,04,71,70,343,43,86,58,001,44,85,56,108,45,72,46,234,43,1*7F
$GAGSV,2,1,05,19,78,101,37,33,54,074,41,12,47,339,37,10,25,321,32,7*7B
$GAGSV,2,2,05,04,,,38,7*79
$GAGSV,1,1,04,19,78,101,40,33,54,074,44,12,47,339,41,10,25,321,36,1*7F
$GBGSV,6,1,21,44,88,349,46,21,63,266,46,12,62,329,42,03,60,206,41,1*75
$GBGSV,6,2,21,59,55,141,43,38,53,354,45,22,51,026,39,08,46,334,36,1*71
$GBGSV,6,3,21,10,42,229,29,13,41,317,39,04,39,117,38,07,39,208,38,1*73
$GBGSV,6,4,21,35,38,139,46,40,37,197,43,60,37,247,41,34,31,321,42,1*7E
$GBGSV,6,5,21,39,30,169,33,05,16,258,33,42,16,236,40,11,11,322,21,1*7E
$GBGSV,6,6,21,56,,,23,1*77
$GBGSV,3,1,09,44,88,349,47,21,63,266,47,38,53,354,44,22,51,026,42,4*7B
$GBGSV,3,2,09,35,38,139,44,40,37,197,42,34,31,321,38,39,30,169,39,4*77
$GBGSV,3,3,09,42,16,236,40,4*48
$GNGLL,2500.8231826,N,12132.4495388,E,095230.000,A,R*56
$GNGGA,095230.000,2500.8231826,N,12132.4495388,E,4,56,0.53,17.412,M,15.25,M,1,3335*45
$GNRMC,095230.000,A,2500.8231826,N,12132.4495388,E,2.00,224.37,120523,,,R,V*1E
$GNGLL,2500.8228002,N,12132.4490617,E,095231.000,A,R*57
$GNGGA,095231.000,2500.8228002,N,12132.4490617,E,4,55,0.53,17.415,M,15.25,M,1,3335*40
$GNRMC,095231.000,A,2500.8228002,N,12132.4490617,E,2.03,230.12,120523,,,R,V*1E
$GNGLL,2500.8224270,N,12132.4485908,E,095232.000,A,R*5A
$GNGGA,095232.000,2500.8224270,N,12132.4485908,E,4,56,0.53,17.380,M,15.25,M,2,3335*46
$GNRMC,095232.000,A,2500.8224270,N,12132.4485908,E,2.11,233.12,120523,,,R,V*13
$GNGLL,2500.8220226,N,12132.4481660,E,095233.000,A,R*59
$GNGGA,095233.000,2500.8220226,N,12132.4481660,E,4,56,0.53,17.396,M,15.25,M,3,3335*43
$GNRMC,095233.000,A,2500.8220226,N,12132.4481660,E,2.08,231.83,120523,,,R,V*12
$GNGLL,2500.8216268,N,12132.4476760,E,095234.000,A,R*58
$GNGGA,095234.000,2500.8216268,N,12132.4476760,E,4,56,0.53,17.409,M,15.25,M,2,3335*42
$GNRMC,095234.000,A,2500.8216268,N,12132.4476760,E,2.31,227.21,120523,,,R,V*16
$GNGSA,A,3,196,195,199,11,20,05,13,06,29,19,194,,0.86,0.53,0.68,1*09
$GNGSA,A,3,71,86,85,72,,,,,,,,,0.86,0.53,0.68,2*04
$GNGSA,A,3,19,33,12,10,,,,,,,,,0.86,0.53,0.68,3*0F
$GNGSA,A,3,44,21,12,03,59,38,22,08,10,13,04,07,0.86,0.53,0.68,4*0E
$GNGSA,A,3,35,40,60,34,39,42,,,,,,,0.86,0.53,0.68,4*0D
$GPGSV,5,1,18,196,74,063,41,195,71,111,43,199,60,167,38,11,60,035,43,1*52
$GPGSV,5,2,18,50,60,167,40,20,54,349,44,05,50,304,43,13,47,184,44,1*6C
$GPGSV,5,3,18,06,34,094,37,29,20,319,38,19,19,156,34,30,17,102,23,1*68
$GPGSV,5,4,18,194,16,171,28,07,08,070,24,25,06,272,20,09,03,037,,1*5E
$GPGSV,5,5,18,12,,,39,15,,,22,1*60
$GPGSV,2,1,08,196,74,063,46,195,71,111,47,11,60,035,48,199,60,167,48,8*52
$GPGSV,2,2,08,06,34,094,41,30,17,102,25,194,16,171,32,25,06,272,19,8*5E
$GLGSV,1,1,04,71,70,343,43,86,58,001,45,85,56,108,46,72,46,234,44,1*7A
$GAGSV,2,1,05,19,78,101,37,33,54,074,41,12,47,339,37,10,25,321,36,7*7F
$GAGSV,2,2,05,04,,,38,7*79
$GAGSV,2,1,05,19,78,101,40,33,54,074,46,12,47,339,41,10,25,321,42,1*7C
$GAGSV,2,2,05,04,,,42,1*72
$GBGSV,6,1,21,44,88,349,46,21,63,266,45,12,62,329,42,03,60,206,42,1*75
$GBGSV,6,2,21,59,55,141,44,38,53,354,45,22,51,026,43,08,46,334,38,1*75
$GBGSV,6,3,21,10,42,229,27,13,41,317,41,04,39,117,37,07,38,208,38,1*7C
$GBGSV,6,4,21,35,38,139,43,40,37,197,44,60,37,247,42,34,31,321,41,1*7C
$GBGSV,6,5,21,39,30,169,42,05,16,258,33,42,16,236,41,11,11,322,24,1*7C
$GBGSV,6,6,21,56,,,21,1*75
$GBGSV,3,1,09,44,88,349,47,21,63,266,47,38,53,354,45,22,51,026,44,4*7C
$GBGSV,3,2,09,35,38,139,42,40,37,197,42,34,31,321,41,39,30,169,41,4*70
$GBGSV,3,3,09,42,16,236,39,4*46
$GNGLL,2500.8212117,N,12132.4472160,E,095235.000,A,R*54
$GNGGA,095235.000,2500.8212117,N,12132.4472160,E,4,56,0.53,17.382,M,15.25,M,3,3335*4B
$GNRMC,095235.000,A,2500.8212117,N,12132.4472160,E,2.18,222.50,120523,,,R,V*12
$GNGLL,2500.8207975,N,12132.4467318,E,095236.000,A,R*56
$GNGGA,095236.000,2500.8207975,N,12132.4467318,E,4,56,0.53,17.412,M,15.25,M,4,3335*40
$GNRMC,095236.000,A,2500.8207975,N,12132.4467318,E,2.25,229.73,120523,,,R,V*14
$GNGLL,2500.8203924,N,12132.4462320,E,095237.000,A,R*59
$GNGGA,095237.000,2500.8203924,N,12132.4462320,E,4,55,0.54,17.426,M,15.25,M,1,3335*49
$GNRMC,095237.000,A,2500.8203924,N,12132.4462320,E,2.17,228.92,120523,,,R,V*14
$GNGLL,2500.8199610,N,12132.4457439,E,095238.000,A,R*57
$GNGGA,095238.000,2500.8199610,N,12132.4457439,E,4,56,0.53,17.411,M,15.25,M,1,3335*47
$GNRMC,095238.000,A,2500.8199610,N,12132.4457439,E,2.11,221.79,120523,,,R,V*10
$GNGLL,2500.8195345,N,12132.4452879,E,095239.000,A,R*52
$GNGGA,095239.000,2500.8195345,N,12132.4452879,E,4,56,0.53,17.422,M,15.25,M,2,3335*41
$GNRMC,095239.000,A,2500.8195345,N,12132.4452879,E,2.18,221.38,120523,,,R,V*19
$GNGSA,A,3,196,195,199,11,20,05,13,06,29,19,194,,0.87,0.54,0.68,1*0F
$GNGSA,A,3,71,86,85,72,,,,,,,,,0.87,0.54,0.68,2*02
$GNGSA,A,3,19,33,12,10,,,,,,,,,0.87,0.54,0.68,3*09
$GNGSA,A,3,44,12,21,03,59,38,22,08,13,04,35,07,0.87,0.54,0.68,4*0F
$GNGSA,A,3,40,60,34,39,42,,,,,,,,0.87,0.54,0.68,4*0D
$GPGSV,5,1,18,196,74,063,41,195,71,111,43,50,60,167,40,199,60,167,38,1*52
$GPGSV,5,2,18,11,60,035,44,20,54,349,44,05,50,304,42,13,47,184,45,1*6B
$GPGSV,5,3,18,06,34,094,39,29,20,319,40,19,19,156,39,30,17,102,23,1*64
$GPGSV,5,4,18,194,16,171,26,07,08,070,21,25,06,272,19,09,03,037,,1*5F
$GPGSV,5,5,18,15,,,18,12,,,38,1*68
$GPGSV,2,1,07,196,74,063,46,195,71,111,47,11,60,035,48,199,60,167,48,8*5D
$GPGSV,2,2,07,06,34,094,44,30,17,102,27,194,16,171,28,8*63
$GLGSV,2,1,05,71,70,343,43,86,58,001,46,85,56,108,45,72,46,234,33,1*78
$GLGSV,2,2,05,70,24,026,,1*48
$GAGSV,2,1,05,19,78,101,37,33,54,074,41,12,47,339,37,10,25,321,37,7*7E
$GAGSV,2,2,05,04,,,37,7*76
$GAGSV,2,1,05,19,78,101,40,33,54,074,46,12,47,339,41,10,25,321,43,1*7D
$GAGSV,2,2,05,04,,,43,1*73
$GBGSV,5,1,20,44,88,349,46,12,64,329,41,21,63,266,45,03,60,206,41,1*71
$GBGSV,5,2,20,59,55,141,43,38,53,354,45,22,51,026,44,08,46,334,38,1*77
$GBGSV,5,3,20,10,42,228,21,13,41,317,42,04,39,117,36,35,38,139,45,1*71
$GBGSV,5,4,20,07,38,208,37,40,37,197,44,60,37,247,42,34,31,321,43,1*7F
$GBGSV,5,5,20,39,30,169,43,05,16,258,30,42,16,236,39,11,12,322,23,1*77
$GBGSV,3,1,09,44,88,349,47,21,63,266,47,38,53,354,45,22,51,026,45,4*7D
$GBGSV,3,2,09,35,38,139,44,40,37,197,43,34,31,321,41,39,30,169,41,4*77
$GBGSV,3,3,09,42,16,236,40,4*48
$GNGLL,2500.8191347,N,12132.4448100,E,095240.000,A,R*56
$GNGGA,095240.000,2500.8191347,N,12132.4448100,E,4,55,0.54,17.431,M,15.25,M,1,3335*40
$GNRMC,095240.000,A,2500.8191347,N,12132.4448100,E,2.15,230.58,120523,,,R,V*16
$GNGLL,2500.8187689,N,12132.4443070,E,095241.000,A,R*5A
$GNGGA,095241.000,2500.8187689,N,12132.4443070,E,4,55,0.54,17.461,M,15.25,M,2,3335*4A
$GNRMC,095241.000,A,2500.8187689,N,12132.4443070,E,2.26,233.85,120523,,,R,V*19
$PAIR010,0,0,2261,467579*32
$PAIR010,0,1,2261,467579*33
$GNGLL,2500.8184141,N,12132.4438443,E,095242.000,A,R*51
$GNGGA,095242.000,2500.8184141,N,12132.4438443,E,4,55,0.54,17.415,M,15.25,M,3,3335*43
$GNRMC,095242.000,A,2500.8184141,N,12132.4438443,E,1.84,233.25,120523,,,R,V*13
$GNGLL,2500.8180146,N,12132.4434281,E,095243.000,A,R*57
$GNGGA,095243.000,2500.8180146,N,12132.4434281,E,4,55,0.54,17.394,M,15.25,M,4,3335*4C
$GNRMC,095243.000,A,2500.8180146,N,12132.4434281,E,2.11,227.09,120523,,,R,V*11
$GNGLL,2500.8176084,N,12132.4430163,E,095244.000,A,R*5D
$GNGGA,095244.000,2500.8176084,N,12132.4430163,E,4,55,0.54,17.357,M,15.25,M,5,3335*48
$GNRMC,095244.000,A,2500.8176084,N,12132.4430163,E,2.08,229.17,120523,,,R,V*12
$GNGSA,A,3,196,195,199,11,20,05,13,06,29,19,194,,0.87,0.54,0.68,1*0F
$GNGSA,A,3,71,86,85,72,,,,,,,,,0.87,0.54,0.68,2*02
$GNGSA,A,3,19,33,12,10,,,,,,,,,0.87,0.54,0.68,3*09
$GNGSA,A,3,44,12,21,03,59,38,22,08,13,04,07,35,0.87,0.54,0.68,4*0F
$GNGSA,A,3,40,60,34,39,42,,,,,,,,0.87,0.54,0.68,4*0D
$GPGSV,5,1,18,196,74,063,42,195,71,111,43,199,60,167,37,11,60,035,45,1*58
$GPGSV,5,2,18,50,60,167,39,20,54,349,44,05,50,304,43,13,47,184,45,1*63
$GPGSV,5,3,18,06,34,094,40,29,20,319,38,19,19,156,38,30,17,102,28,1*6F
$GPGSV,5,4,18,194,16,171,24,07,08,070,26,25,06,272,17,09,03,037,,1*54
$GPGSV,5,5,18,12,,,33,15,,,19,1*62
$GPGSV,2,1,07,196,74,063,46,195,71,111,46,11,60,035,48,199,60,167,48,8*5C
$GPGSV,2,2,07,06,34,094,46,30,17,102,37,194,16,171,30,8*69
$GLGSV,1,1,04,71,70,343,44,86,58,001,45,85,56,108,43,72,46,234,30,1*7B
$GAGSV,2,1,06,19,78,101,36,33,54,074,42,12,47,339,37,10,25,321,36,7*7E
$GAGSV,2,2,06,24,08,266,,04,,,40,7*49
$GAGSV,2,1,05,19,78,101,41,33,54,074,47,12,47,339,41,10,25,321,43,1*7D
$GAGSV,2,2,05,04,,,45,1*75
$GBGSV,6,1,21,44,88,349,45,12,64,329,42,21,63,266,46,03,60,206,41,1*70
$GBGSV,6,2,21,59,55,141,43,38,53,354,45,22,51,026,46,08,46,334,38,1*77
$GBGSV,6,3,21,10,42,228,18,13,41,317,41,04,39,117,38,07,38,208,40,1*71
$GBGSV,6,4,21,35,38,139,46,40,37,197,43,60,37,247,41,34,31,321,43,1*7F
$GBGSV,6,5,21,39,30,169,42,05,16,258,25,42,16,236,35,11,12,322,,1*7D
$GBGSV,6,6,21,56,,,19,1*7E
$GBGSV,3,1,09,44,88,349,46,21,63,266,47,38,53,354,46,22,51,026,46,4*7C
$GBGSV,3,2,09,35,38,139,43,40,37,197,42,34,31,321,42,39,30,169,42,4*71
$GBGSV,3,3,09,42,16,236,37,4*48
$GNGLL,2500.8172116,N,12132.4425166,E,095245.000,A,R*53
$GNGGA,095245.000,2500.8172116,N,12132.4425166,E,4,55,0.54,17.327,M,15.25,M,6,3335*42
$GNRMC,095245.000,A,2500.8172116,N,12132.4425166,E,2.17,226.20,120523,,,R,V*19
$GNGLL,2500.8167946,N,12132.4420782,E,095246.000,A,R*50
$GNGGA,095246.000,2500.8167946,N,12132.4420782,E,4,55,0.54,17.374,M,15.25,M,7,3335*46
$GNRMC,095246.000,A,2500.8167946,N,12132.4420782,E,2.03,222.75,120523,,,R,V*1B
$GNGLL,2500.8163633,N,12132.4416244,E,095247.000,A,R*52
$GNGGA,095247.000,2500.8163633,N,12132.4416244,E,4,55,0.54,17.305,M,15.25,M,7,3335*42
$GNRMC,095247.000,A,2500.8163633,N,12132.4416244,E,2.26,226.39,120523,,,R,V*12
$GNGLL,2500.8159518,N,12132.4411102,E,095248.000,A,R*58
$GNGGA,095248.000,2500.8159518,N,12132.4411102,E,4,57,0.53,17.327,M,15.25,M,2,3335*48
$GNRMC,095248.000,A,2500.8159518,N,12132.4411102,E,2.27,228.79,120523,,,R,V*13
$GNGLL,2500.8155233,N,12132.4406268,E,095249.000,A,R*52
$GNGGA,095249.000,2500.8155233,N,12132.4406268,E,4,57,0.53,17.357,M,15.25,M,1,3335*46
$GNRMC,095249.000,A,2500.8155233,N,12132.4406268,E,2.21,228.96,120523,,,R,V*1E
$GNGSA,A,3,196,195,199,11,20,05,13,06,29,19,194,,0.86,0.53,0.68,1*09
$GNGSA,A,3,71,86,85,72,,,,,,,,,0.86,0.53,0.68,2*04
$GNGSA,A,3,19,33,12,04,10,,,,,,,,0.86,0.53,0.68,3*0B
$GNGSA,A,3,44,12,21,03,59,38,22,08,13,04,35,07,0.86,0.53,0.68,4*09
$GNGSA,A,3,60,40,34,39,42,,,,,,,,0.86,0.53,0.68,4*0B
$GPGSV,5,1,18,196,74,063,41,195,71,111,42,50,60,167,38,199,60,167,36,1*52
$GPGSV,5,2,18,11,60,035,44,20,54,349,46,05,50,304,43,13,47,184,44,1*69
$GPGSV,5,3,18,06,34,094,42,29,20,319,38,19,19,156,36,30,17,102,30,1*6A
$GPGSV,5,4,18,194,16,171,24,07,08,070,,25,06,272,16,09,03,037,,1*51
$GPGSV,5,5,18,12,,,23,15,,,19,1*63
$GPGSV,2,1,08,196,74,063,46,195,71,111,46,11,60,035,48,199,60,167,47,8*5C
$GPGSV,2,2,08,06,34,094,47,30,17,102,38,194,16,171,28,25,06,272,19,8*5F
$GLGSV,2,1,05,71,70,343,44,86,58,001,45,85,56,108,44,72,46,234,28,1*77
$GLGSV,2,2,05,70,24,026,25,1*4F
$GAGSV,2,1,07,19,78,101,37,33,54,074,41,12,47,339,38,04,33,207,39,7*7A
$GAGSV,2,2,07,10,25,321,36,24,08,266,15,11,02,309,,7*47
$GAGSV,2,1,05,19,78,101,41,33,54,074,47,12,47,339,41,04,33,207,42,1*7B
$GAGSV,2,2,05,10,25,321,42,1*40
$GBGSV,6,1,23,44,88,349,46,12,64,329,42,21,64,269,46,03,60,206,40,1*78
$GBGSV,6,2,23,61,58,205,,59,55,141,42,38,53,354,45,22,50,026,47,1*7C
$GBGSV,6,3,23,08,46,334,38,10,42,228,17,13,41,317,41,04,39,117,39,1*7A
$GBGSV,6,4,23,35,38,139,44,07,38,208,35,60,37,247,41,40,37,197,40,1*7E
$GBGSV,6,5,23,34,31,321,44,39,30,169,42,05,16,258,,42,16,236,28,1*71
$GBGSV,6,6,23,11,12,322,24,09,08,190,,56,,,17,1*7D
$GBGSV,3,1,09,44,88,349,46,21,64,269,47,38,53,354,44,22,50,026,46,4*77
$GBGSV,3,2,09,35,38,139,43,40,37,197,40,34,31,321,42,39,30,169,41,4*70
$GBGSV,3,3,09,42,16,236,23,4*4D
$GNGLL,2500.8150992,N,12132.4401337,E,095250.000,A,R*53
$GNGGA,095250.000,2500.8150992,N,12132.4401337,E,4,57,0.53,17.322,M,15.25,M,1,3335*45
$GNRMC,095250.000,A,2500.8150992,N,12132.4401337,E,2.31,227.12,120523,,,R,V*1D
$GNGLL,2500.8146764,N,12132.4396624,E,095251.000,A,R*5C
$GNGGA,095251.000,2500.8146764,N,12132.4396624,E,4,57,0.53,17.418,M,15.25,M,2,3335*47
$GNRMC,095251.000,A,2500.8146764,N,12132.4396624,E,1.99,227.34,120523,,,R,V*17
$GNGLL,2500.8142608,N,12132.4391923,E,095252.000,A,R*5F
$GNGGA,095252.000,2500.8142608,N,12132.4391923,E,4,58,0.51,17.422,M,15.25,M,3,3335*41
$GNRMC,095252.000,A,2500.8142608,N,12132.4391923,E,2.33,225.14,120523,,,R,V*17
$GNGLL,2500.8138496,N,12132.4387596,E,095253.000,A,R*53
$GNGGA,095253.000,2500.8138496,N,12132.4387596,E,4,57,0.53,17.421,M,15.25,M,3,3335*43
$GNRMC,095253.000,A,2500.8138496,N,12132.4387596,E,2.09,222.44,120523,,,R,V*10
$GNGLL,2500.8134579,N,12132.4382899,E,095254.000,A,R*5F
$GNGGA,095254.000,2500.8134579,N,12132.4382899,E,4,57,0.53,17.419,M,15.25,M,2,3335*45
$GNRMC,095254.000,A,2500.8134579,N,12132.4382899,E,2.11,226.53,120523,,,R,V*17
$GNGSA,A,3,196,195,199,11,20,05,13,06,29,19,194,,0.86,0.53,0.68,1*09
$GNGSA,A,3,71,86,85,72,,,,,,,,,0.86,0.53,0.68,2*04
$GNGSA,A,3,19,33,12,04,10,,,,,,,,0.86,0.53,0.68,3*0B
$GNGSA,A,3,44,12,21,03,59,38,22,08,13,04,35,07,0.86,0.53,0.68,4*09
$GNGSA,A,3,60,40,34,39,42,,,,,,,,0.86,0.53,0.68,4*0B
$GPGSV,5,1,18,196,74,063,41,195,71,111,42,50,60,167,40,199,60,167,37,1*5C
$GPGSV,5,2,18,11,60,035,44,20,54,349,46,05,50,304,43,13,47,184,45,1*68
$GPGSV,5,3,18,06,34,094,42,29,20,319,37,19,19,156,24,30,17,102,35,1*63
$GPGSV,5,4,18,194,16,171,22,07,08,070,20,25,06,272,17,09,03,037,,1*54
$GPGSV,5,5,18,12,,,19,15,,,17,1*64
$GPGSV,2,1,08,196,74,063,46,195,71,111,46,11,60,035,49,199,60,167,47,8*5D
$GPGSV,2,2,08,06,34,094,48,30,17,102,40,194,16,171,21,25,06,272,15,8*5A
$GLGSV,2,1,05,71,70,343,44,86,58,001,46,85,56,108,44,72,46,234,28,1*74
$GLGSV,2,2,05,70,24,026,25,1*4F
$GAGSV,2,1,07,19,78,101,35,33,54,074,42,12,47,339,39,04,33,207,33,7*70
$GAGSV,2,2,07,10,25,321,37,24,08,266,16,11,02,309,,7*45
$GAGSV,2,1,05,19,78,101,41,33,54,074,47,12,47,339,43,04,33,207,38,1*74
$GAGSV,2,2,05,10,25,321,41,1*43
$GBGSV,5,1,20,44,88,349,45,12,64,329,42,21,64,269,46,03,60,206,40,1*7B
$GBGSV,5,2,20,59,55,141,44,38,53,354,46,22,50,026,46,08,46,334,41,1*7E
$GBGSV,5,3,20,10,42,228,18,13,41,317,41,04,39,117,38,35,38,139,46,1*75
$GBGSV,5,4,20,07,38,208,28,60,37,247,42,40,37,197,42,34,31,321,41,1*75
$GBGSV,5,5,20,39,30,169,40,42,16,236,25,11,12,322,24,56,,,17,1*45
$GBGSV,3,1,09,44,88,349,46,21,64,269,47,38,53,354,45,22,50,026,46,4*76
$GBGSV,3,2,09,35,38,139,43,40,37,197,41,34,31,321,43,39,30,169,39,4*7F
$GBGSV,3,3,09,42,16,236,21,4*4F
$GNGLL,2500.8130741,N,12132.4378718,E,095255.000,A,R*50
$GNGGA,095255.000,2500.8130741,N,12132.4378718,E,4,57,0.53,17.407,M,15.25,M,3,3335*44
$GNRMC,095255.000,A,2500.8130741,N,12132.4378718,E,1.74,227.68,120523,,,R,V*11
$GNGLL,2500.8127207,N,12132.4374382,E,095256.000,A,R*59
$GNGGA,095256.000,2500.8127207,N,12132.4374382,E,4,55,0.53,17.422,M,15.25,M,4,3335*4F
$GNRMC,095256.000,A,2500.8127207,N,12132.4374382,E,2.07,233.03,120523,,,R,V*17
$GNGLL,2500.8123243,N,12132.4369669,E,095257.000,A,R*50
$GNGGA,095257.000,2500.8123243,N,12132.4369669,E,4,57,0.53,17.418,M,15.25,M,5,3335*4C
$GNRMC,095257.000,A,2500.8123243,N,12132.4369669,E,2.18,225.33,120523,,,R,V*14
$GNGLL,2500.8119050,N,12132.4364866,E,095258.000,A,R*5A
$GNGGA,095258.000,2500.8119050,N,12132.4364866,E,4,57,0.53,17.471,M,15.25,M,6,3335*4A
$GNRMC,095258.000,A,2500.8119050,N,12132.4364866,E,2.26,228.35,120523,,,R,V*18
$GNGLL,2500.8114804,N,12132.4360017,E,095259.000,A,R*55
$GNGGA,095259.000,2500.8114804,N,12132.4360017,E,4,56,0.53,17.516,M,15.25,M,1,3335*43
$GNRMC,095259.000,A,2500.8114804,N,12132.4360017,E,2.21,229.65,120523,,,R,V*14
$GNGSA,A,3,196,195,199,11,20,05,13,06,29,19,194,,0.87,0.54,0.68,1*0F
$GNGSA,A,3,71,86,85,72,,,,,,,,,0.87,0.54,0.68,2*02
$GNGSA,A,3,19,33,12,04,10,,,,,,,,0.87,0.54,0.68,3*0D
$GNGSA,A,3,44,21,12,03,59,38,22,08,13,04,35,40,0.87,0.54,0.68,4*0C
$GNGSA,A,3,60,34,39,42,,,,,,,,,0.87,0.54,0.68,4*09
$GPGSV,5,1,18,196,74,063,42,195,71,111,42,50,60,167,39,199,60,167,36,1*50
$GPGSV,5,2,18,11,60,035,44,20,54,349,45,05,50,304,44,13,47,184,43,1*6A
$GPGSV,5,3,18,06,34,094,42,29,20,319,35,19,19,156,24,30,17,102,30,1*64
$GPGSV,5,4,18,194,16,171,19,07,08,070,19,25,06,272,18,09,03,037,,1*59
$GPGSV,5,5,18,12,,,18,15,,,17,1*65
$GPGSV,2,1,08,196,74,063,46,195,71,111,46,11,60,035,49,199,60,167,47,8*5D
$GPGSV,2,2,08,06,34,094,48,30,17,102,40,194,16,171,22,25,06,272,21,8*5E
$GLGSV,2,1,07,71,70,343,44,86,58,001,44,85,56,108,44,72,46,234,25,1*79
$GLGSV,2,2,07,70,24,026,29,87,07,330,,84,03,137,,1*43
$GAGSV,2,1,07,19,78,101,36,33,54,074,42,12,47,339,39,04,33,207,23,7*72
$GAGSV,2,2,07,10,25,321,39,24,08,266,17,11,02,309,,7*4A
$GAGSV,2,1,05,19,78,101,41,33,54,074,47,12,47,339,43,04,33,207,31,1*7D
$GAGSV,2,2,05,10,25,321,41,1*43
$GBGSV,6,1,22,44,88,349,46,21,64,269,46,12,64,329,42,03,60,206,40,1*79
$GBGSV,6,2,22,59,55,141,43,38,53,354,45,22,50,026,47,08,46,334,41,1*7A
$GBGSV,6,3,22,10,42,228,14,13,41,317,40,02,40,242,,04,39,117,39,1*7E
$GBGSV,6,4,22,35,38,139,43,07,38,208,24,40,37,197,42,60,37,247,42,1*79
$GBGSV,6,5,22,34,31,321,42,39,30,169,41,42,16,236,18,11,12,322,20,1*79
$GBGSV,6,6,22,19,02,045,,56,,,16,1*49
$GBGSV,3,1,09,44,88,349,46,21,64,269,47,38,53,354,46,22,50,026,46,4*75
$GBGSV,3,2,09,35,38,139,41,40,37,197,43,34,31,321,44,39,30,169,40,4*76
