$FW : RTK35X,V1.0X0825AS,Lib20210517,8,0*49
$Tool : LOCOSYS , GNSS Firebird , v1.0.0.19*39
$---------------------------------------------------*2D
$GNGLL,2500.8053444,N,12132.4793331,E,095754.000,A,R*58
$GNGGA,095754.000,2500.8053444,N,12132.4793331,E,4,59,0.50,17.630,M,15.25,M,23,3335*75
$GNRMC,095754.000,A,2500.8053444,N,12132.4793331,E,0.17,316.75,120523,,,R,V*12
$GNGSA,A,3,196,195,199,11,20,05,13,06,29,19,30,194,0.82,0.51,0.64,1*00
$GNGSA,A,3,71,86,85,72,,,,,,,,,0.82,0.51,0.64,2*0E
$GNGSA,A,3,19,33,12,04,10,,,,,,,,0.82,0.51,0.64,3*01
$GNGSA,A,3,44,12,21,03,59,38,22,08,13,10,04,35,0.82,0.51,0.64,4*05
$GNGSA,A,3,40,34,39,42,,,,,,,,,0.82,0.51,0.64,4*07
$GPGSV,5,1,17,196,74,062,40,195,71,114,35,199,60,167,38,11,60,040,27,1*59
$GPGSV,5,2,17,20,54,353,45,05,50,308,28,13,50,184,39,06,33,097,41,1*6E
$GPGSV,5,3,17,15,25,215,26,29,22,318,32,19,17,156,18,30,17,099,23,1*64
$GPGSV,5,4,17,194,15,171,35,12,13,238,16,07,09,068,,25,06,270,16,1*56
$GPGSV,5,5,17,09,02,037,,1*5D
$GPGSV,2,1,07,196,74,062,46,195,71,114,44,11,60,040,48,199,60,167,46,8*56
$GPGSV,2,2,07,06,33,097,37,30,17,099,31,194,15,171,34,8*69
$GLGSV,1,1,04,71,67,348,42,86,60,004,44,85,55,113,40,72,48,237,29,1*70
$GAGSV,2,1,06,19,78,090,37,33,54,078,34,12,48,341,37,04,34,207,22,7*7E
$GAGSV,2,2,06,10,27,322,18,26,13,113,,7*7E
$GAGSV,2,1,05,19,78,090,38,33,54,078,41,12,48,341,41,04,34,207,19,1*7F
$GAGSV,2,2,05,10,27,322,31,1*45
$GBGSV,6,1,21,44,89,168,44,12,65,328,39,21,64,272,39,03,60,206,31,1*70
$GBGSV,6,2,21,59,55,141,34,38,53,355,44,22,48,027,36,08,46,335,38,1*78
$GBGSV,6,3,21,13,41,318,37,10,41,228,20,04,39,117,35,60,37,247,,1*7B
$GBGSV,6,4,21,07,37,208,20,35,36,141,45,40,36,197,25,34,33,321,28,1*7E
$GBGSV,6,5,21,39,31,170,42,42,18,238,26,11,13,322,19,09,09,190,,1*7D
$GBGSV,6,6,21,57,,,39,1*7D
$GBGSV,3,1,09,44,89,168,45,21,64,272,40,38,53,355,45,22,48,027,30,4*70
$GBGSV,3,2,09,35,36,141,43,40,36,197,30,34,33,321,30,39,31,170,47,4*7F
$GBGSV,3,3,09,42,18,238,22,4*4C
$GNGLL,2500.8053626,N,12132.4793577,E,095755.000,A,R*5B
$GNGGA,095755.000,2500.8053626,N,12132.4793577,E,4,58,0.51,17.677,M,15.25,M,24,3335*72
$GNRMC,095755.000,A,2500.8053626,N,12132.4793577,E,0.04,316.75,120523,,,R,V*13
$GNGLL,2500.8053754,N,12132.4793767,E,095756.000,A,R*5F
$GNGGA,095756.000,2500.8053754,N,12132.4793767,E,4,58,0.50,17.676,M,15.25,M,25,3335*77
$GNRMC,095756.000,A,2500.8053754,N,12132.4793767,E,0.10,316.75,120523,,,R,V*12
$GNGLL,2500.8053736,N,12132.4794004,E,095757.000,A,R*5F
$GNGGA,095757.000,2500.8053736,N,12132.4794004,E,4,58,0.50,17.658,M,15.25,M,26,3335*78
$GNRMC,095757.000,A,2500.8053736,N,12132.4794004,E,0.10,316.75,120523,,,R,V*12
$GNGLL,2500.8053697,N,12132.4794143,E,095758.000,A,R*58
$GNGGA,095758.000,2500.8053697,N,12132.4794143,E,4,59,0.50,17.685,M,15.25,M,27,3335*7F
$GNRMC,095758.000,A,2500.8053697,N,12132.4794143,E,0.08,316.75,120523,,,R,V*1C
$GNGLL,2500.8053694,N,12132.4794205,E,095759.000,A,R*5B
$GNGGA,095759.000,2500.8053694,N,12132.4794205,E,4,59,0.50,17.709,M,15.25,M,28,3335*76
$GNRMC,095759.000,A,2500.8053694,N,12132.4794205,E,0.09,316.75,120523,,,R,V*1E
$GNGSA,A,3,196,195,199,11,20,05,13,06,29,19,30,194,0.81,0.50,0.64,1*02
$GNGSA,A,3,71,86,85,72,,,,,,,,,0.81,0.50,0.64,2*0C
$GNGSA,A,3,19,33,12,04,10,,,,,,,,0.81,0.50,0.64,3*03
$GNGSA,A,3,44,12,21,03,59,38,22,08,13,10,04,60,0.81,0.50,0.64,4*07
$GNGSA,A,3,35,40,34,39,42,,,,,,,,0.81,0.50,0.64,4*03
$GPGSV,5,1,17,196,74,062,40,195,71,114,36,199,60,167,37,11,60,040,44,1*50
$GPGSV,5,2,17,20,54,353,43,05,50,308,39,13,50,184,39,06,33,097,40,1*69
$GPGSV,5,3,17,15,25,215,19,29,22,318,29,19,17,156,17,30,17,099,24,1*6A
$GPGSV,5,4,17,194,15,171,36,12,13,238,17,07,09,068,,25,06,270,21,1*50
$GPGSV,5,5,17,09,02,037,,1*5D
$GPGSV,2,1,07,196,74,062,46,195,71,114,44,11,60,040,49,199,60,167,46,8*57
$GPGSV,2,2,07,06,33,097,39,30,17,099,30,194,15,171,34,8*66
$GLGSV,1,1,04,71,67,348,42,86,60,004,43,85,55,113,40,72,48,237,17,1*7A
$GAGSV,2,1,06,19,78,090,38,33,54,078,35,12,48,341,37,04,34,207,20,7*72
$GAGSV,2,2,06,10,27,322,22,31,08,218,,7*73
$GAGSV,2,1,05,19,78,090,37,33,54,078,40,12,48,341,42,04,34,207,24,1*7C
$GAGSV,2,2,05,10,27,322,30,1*44
$GBGSV,6,1,21,44,89,168,44,12,65,328,37,21,64,272,39,03,60,206,31,1*7E
$GBGSV,6,2,21,59,55,141,36,38,53,355,45,22,48,027,35,08,46,336,38,1*7B
$GBGSV,6,3,21,13,41,318,39,10,41,228,25,04,39,117,35,60,37,247,30,1*73
$GBGSV,6,4,21,07,37,208,17,35,36,141,44,40,36,197,31,34,33,321,25,1*73
$GBGSV,6,5,21,39,31,170,44,42,18,238,25,11,13,322,27,09,09,190,17,1*73
$GBGSV,6,6,21,57,,,40,1*73
$GBGSV,3,1,09,44,89,168,45,21,64,272,38,38,53,355,45,22,48,027,37,4*78
$GBGSV,3,2,09,35,36,141,44,40,36,197,31,34,33,321,32,39,31,170,47,4*7B
$GBGSV,3,3,09,42,18,238,16,4*4B
$GNGLL,2500.8053940,N,12132.4794002,E,095800.000,A,R*5B
$GNGGA,095800.000,2500.8053940,N,12132.4794002,E,4,59,0.50,17.697,M,15.25,M,29,3335*71
$GNRMC,095800.000,A,2500.8053940,N,12132.4794002,E,0.37,316.75,120523,,,R,V*13
$GNGLL,2500.8055919,N,12132.4790790,E,095801.000,A,R*58
$GNGGA,095801.000,2500.8055919,N,12132.4790790,E,4,59,0.50,17.557,M,15.25,M,30,3335*75
$GNRMC,095801.000,A,2500.8055919,N,12132.4790790,E,1.07,327.06,120523,,,R,V*14
$GNGLL,2500.8059078,N,12132.4787754,E,095802.000,A,R*57
$GNGGA,095802.000,2500.8059078,N,12132.4787754,E,4,60,0.49,17.604,M,15.25,M,31,3335*7C
$GNRMC,095802.000,A,2500.8059078,N,12132.4787754,E,1.64,325.29,120523,,,R,V*11
$GNGLL,2500.8064118,N,12132.4784634,E,095803.000,A,D*4D
$GNGGA,095803.000,2500.8064118,N,12132.4784634,E,2,60,0.49,17.508,M,15.25,M,1,0035*4A
$GNRMC,095803.000,A,2500.8064118,N,12132.4784634,E,2.14,332.25,120523,,,D,V*05
$GNGLL,2500.8068438,N,12132.4779954,E,095804.000,A,D*4A
$GNGGA,095804.000,2500.8068438,N,12132.4779954,E,2,59,0.49,17.503,M,15.25,M,2,0035*4F
$GNRMC,095804.000,A,2500.8068438,N,12132.4779954,E,1.86,313.73,120523,,,D,V*0A
$GNGSA,A,3,196,195,11,199,20,05,13,06,29,19,30,194,0.81,0.49,0.64,1*0A
$GNGSA,A,3,71,86,85,72,,,,,,,,,0.81,0.49,0.64,2*04
$GNGSA,A,3,19,33,12,04,10,,,,,,,,0.81,0.49,0.64,3*0B
$GNGSA,A,3,44,12,21,03,59,38,22,08,13,10,04,07,0.81,0.49,0.64,4*0E
$GNGSA,A,3,60,35,40,34,39,42,,,,,,,0.81,0.49,0.64,4*0D
$GPGSV,5,1,17,196,74,062,41,195,71,114,39,11,60,040,43,199,60,167,38,1*56
$GPGSV,5,2,17,20,54,353,45,05,50,308,35,13,50,184,36,06,33,097,29,1*63
$GPGSV,5,3,17,15,25,215,23,29,22,318,38,19,17,156,22,30,17,099,26,1*67
$GPGSV,5,4,17,194,15,171,36,12,13,238,16,07,09,068,,25,06,270,18,1*5B
$GPGSV,5,5,17,09,02,037,,1*5D
$GPGSV,2,1,07,196,74,062,45,195,71,114,45,11,60,040,47,199,60,167,47,8*5A
$GPGSV,2,2,07,06,33,097,40,30,17,099,27,194,15,171,40,8*6D
$GLGSV,1,1,04,71,67,348,42,86,60,004,43,85,55,113,35,72,48,237,27,1*7B
$GAGSV,2,1,07,19,78,090,36,33,54,078,37,12,48,341,28,04,34,207,22,7*73
$GAGSV,2,2,07,10,27,322,33,31,08,218,,11,03,310,,7*43
$GAGSV,2,1,05,19,78,090,40,33,54,078,43,12,48,341,39,04,34,207,24,1*73
$GAGSV,2,2,05,10,27,322,33,1*47
$GBGSV,5,1,20,44,89,168,42,12,66,328,43,21,64,272,41,03,60,206,28,1*7D
$GBGSV,5,2,20,59,55,141,44,38,53,355,43,22,48,027,39,08,46,336,35,1*7B
$GBGSV,5,3,20,13,41,318,32,10,40,228,21,04,39,117,33,07,37,208,23,1*71
$GBGSV,5,4,20,60,37,247,34,35,36,141,43,40,36,197,25,34,33,321,35,1*79
$GBGSV,5,5,20,39,31,170,41,42,18,238,22,11,14,322,24,09,09,190,18,1*78
$GBGSV,2,1,08,44,89,168,43,21,64,272,45,38,53,355,44,22,48,027,42,4*77
$GBGSV,2,2,08,35,36,141,43,40,36,197,25,34,33,321,36,39,31,170,45,4*7F
$GNGLL,2500.8072398,N,12132.4775634,E,095805.000,A,D*48
$GNGGA,095805.000,2500.8072398,N,12132.4775634,E,2,59,0.49,17.421,M,15.25,M,3,0035*4D
$GNRMC,095805.000,A,2500.8072398,N,12132.4775634,E,1.86,315.34,120523,,,D,V*0D
$GNGLL,2500.8076058,N,12132.4771134,E,095806.000,A,D*43
$GNGGA,095806.000,2500.8076058,N,12132.4771134,E,2,59,0.49,17.330,M,15.25,M,4,0035*46
$GNRMC,095806.000,A,2500.8076058,N,12132.4771134,E,2.01,312.49,120523,,,D,V*07
$GNGLL,2500.8079838,N,12132.4766094,E,095807.000,A,D*4E
$GNGGA,095807.000,2500.8079838,N,12132.4766094,E,2,58,0.49,17.246,M,15.25,M,5,0035*4B
$GNRMC,095807.000,A,2500.8079838,N,12132.4766094,E,1.98,317.39,120523,,,D,V*0B
$GNGLL,2500.8083438,N,12132.4761714,E,095808.000,A,D*40
$GNGGA,095808.000,2500.8083438,N,12132.4761714,E,2,59,0.49,17.164,M,15.25,M,6,0035*44
$GNRMC,095808.000,A,2500.8083438,N,12132.4761714,E,1.63,309.59,120523,,,D,V*08
$GNGLL,2500.8086678,N,12132.4756974,E,095809.000,A,D*4E
$GNGGA,095809.000,2500.8086678,N,12132.4756974,E,2,59,0.49,17.023,M,15.25,M,7,0035*49
$GNRMC,095809.000,A,2500.8086678,N,12132.4756974,E,1.96,302.40,120523,,,D,V*0F
$GNGSA,A,3,196,195,11,199,20,05,13,06,29,19,30,194,0.81,0.49,0.64,1*0A
$GNGSA,A,3,71,86,85,72,,,,,,,,,0.81,0.49,0.64,2*04
$GNGSA,A,3,19,33,12,04,10,,,,,,,,0.81,0.49,0.64,3*0B
$GNGSA,A,3,44,12,21,03,59,38,22,08,13,10,04,07,0.81,0.49,0.64,4*0E
$GNGSA,A,3,60,35,40,34,39,42,,,,,,,0.81,0.49,0.64,4*0D
$GPGSV,5,1,17,196,74,062,42,195,71,114,41,11,60,040,44,199,60,167,25,1*51
$GPGSV,5,2,17,20,54,353,42,05,50,308,40,13,50,184,29,06,33,097,34,1*64
$GPGSV,5,3,17,15,25,215,27,29,22,318,39,19,17,156,22,30,17,099,22,1*66
$GPGSV,5,4,17,194,15,171,26,12,13,238,14,07,09,068,19,25,06,270,21,1*5A
$GPGSV,5,5,17,09,02,037,,1*5D
$GPGSV,2,1,07,196,74,062,47,195,71,114,45,11,60,040,47,199,60,167,34,8*5C
$GPGSV,2,2,07,06,33,097,30,30,17,099,27,194,15,171,28,8*64
$GLGSV,1,1,04,71,67,348,35,86,60,004,43,85,55,113,37,72,48,237,29,1*77
$GAGSV,2,1,06,19,78,090,35,33,54,078,40,12,48,341,26,04,34,207,20,7*7D
$GAGSV,2,2,06,10,27,322,34,24,07,264,,7*74
$GAGSV,1,1,04,19,78,090,40,33,54,078,44,12,48,341,26,10,27,322,34,1*78
$GBGSV,5,1,20,44,89,168,43,12,66,328,39,21,64,272,41,03,60,206,28,1*71
$GBGSV,5,2,20,59,55,141,42,38,53,355,43,22,48,027,45,08,46,336,24,1*76
$GBGSV,5,3,20,13,41,318,33,10,40,228,23,04,39,117,33,07,37,208,21,1*70
$GBGSV,5,4,20,60,37,247,29,35,36,141,41,40,36,197,23,34,33,321,42,1*71
$GBGSV,5,5,20,39,31,170,28,42,18,238,21,11,14,322,25,09,09,190,16,1*7B
$GBGSV,2,1,07,44,89,168,41,21,64,272,39,38,53,355,44,22,48,027,46,4*75
$GBGSV,2,2,07,35,36,141,42,34,33,321,38,39,31,170,32,4*46
$GNGLL,2500.8090638,N,12132.4752474,E,095810.000,A,D*4C
$GNGGA,095810.000,2500.8090638,N,12132.4752474,E,2,57,0.49,16.910,M,15.25,M,8,0035*42
$GNRMC,095810.000,A,2500.8090638,N,12132.4752474,E,2.05,332.97,120523,,,D,V*0D
$GNGLL,2500.8094598,N,12132.4748694,E,095811.000,A,D*47
$GNGGA,095811.000,2500.8094598,N,12132.4748694,E,2,56,0.49,16.818,M,15.25,M,9,0035*40
$GNRMC,095811.000,A,2500.8094598,N,12132.4748694,E,1.74,316.49,120523,,,D,V*06
$GNGLL,2500.8098618,N,12132.4743954,E,095812.000,A,D*4B
$GNGGA,095812.000,2500.8098618,N,12132.4743954,E,2,58,0.49,16.671,M,15.25,M,10,0035*7B
$GNRMC,095812.000,A,2500.8098618,N,12132.4743954,E,1.83,316.46,120523,,,D,V*0D
$GNGLL,2500.8102758,N,12132.4739274,E,095813.000,A,D*49
$GNGGA,095813.000,2500.8102758,N,12132.4739274,E,2,59,0.49,16.447,M,15.25,M,11,0035*7E
$GNRMC,095813.000,A,2500.8102758,N,12132.4739274,E,2.11,315.19,120523,,,D,V*0E
$GNGLL,2500.8106478,N,12132.4734654,E,095814.000,A,D*40
$GNGGA,095814.000,2500.8106478,N,12132.4734654,E,2,56,0.49,16.376,M,15.25,M,12,0035*7E
$GNRMC,095814.000,A,2500.8106478,N,12132.4734654,E,1.81,320.85,120523,,,D,V*0E
$GNGSA,A,3,196,195,11,199,20,05,13,06,29,19,30,194,0.81,0.49,0.64,1*0A
$GNGSA,A,3,71,86,85,72,,,,,,,,,0.81,0.49,0.64,2*04
$GNGSA,A,3,19,33,12,04,10,,,,,,,,0.81,0.49,0.64,3*0B
$GNGSA,A,3,44,12,21,03,59,38,22,08,13,10,04,60,0.81,0.49,0.64,4*0F
$GNGSA,A,3,07,35,40,34,39,42,,,,,,,0.81,0.49,0.64,4*0C
$GPGSV,5,1,17,196,74,062,43,195,71,114,39,11,60,040,45,199,60,167,28,1*53
$GPGSV,5,2,17,20,54,353,32,05,50,308,42,13,50,184,29,06,33,097,40,1*62
$GPGSV,5,3,17,15,25,215,25,29,22,318,39,19,17,156,19,30,17,099,27,1*69
$GPGSV,5,4,17,194,15,171,23,12,13,238,16,07,09,068,22,25,06,270,22,1*56
$GPGSV,5,5,17,09,02,037,,1*5D
$GPGSV,2,1,07,196,74,062,46,195,71,114,44,199,60,167,32,11,60,040,48,8*55
$GPGSV,2,2,07,06,33,097,41,30,17,099,27,25,06,270,22,8*53
$GLGSV,1,1,04,71,67,348,42,86,60,004,31,85,55,113,41,72,48,237,26,1*7C
$GAGSV,2,1,06,19,78,090,34,33,54,078,43,12,48,341,21,04,34,207,23,7*7B
$GAGSV,2,2,06,10,27,322,28,31,08,218,,7*79
$GAGSV,2,1,05,19,78,090,39,33,54,078,46,12,48,341,27,04,34,207,23,1*70
$GAGSV,2,2,05,10,27,322,32,1*46
$GBGSV,5,1,20,44,89,168,38,12,66,328,38,21,65,274,36,03,60,206,30,1*72
$GBGSV,5,2,20,59,55,141,38,38,53,355,25,22,47,027,42,08,46,336,23,1*74
$GBGSV,5,3,20,13,41,318,41,10,40,228,26,04,39,117,32,60,37,247,35,1*7E
$GBGSV,5,4,20,07,37,208,23,35,36,141,30,40,36,197,24,34,33,321,40,1*72
$GBGSV,5,5,20,39,31,170,25,42,18,238,21,11,14,322,29,09,09,190,16,1*7A
$GBGSV,2,1,08,44,89,168,36,21,65,274,34,38,53,355,26,22,47,027,43,4*7E
$GBGSV,2,2,08,35,36,141,39,40,36,197,24,34,33,321,43,39,31,170,24,4*76
$GNGLL,2500.8109238,N,12132.4729974,E,095815.000,A,D*4D
$GNGGA,095815.000,2500.8109238,N,12132.4729974,E,2,57,0.49,16.314,M,15.25,M,13,0035*77
$GNRMC,095815.000,A,2500.8109238,N,12132.4729974,E,1.73,292.85,120523,,,D,V*06
$GNGLL,2500.8113558,N,12132.4725714,E,095816.000,A,D*40
$GNGGA,095816.000,2500.8113558,N,12132.4725714,E,2,59,0.49,16.139,M,15.25,M,14,0035*7E
$GNRMC,095816.000,A,2500.8113558,N,12132.4725714,E,1.87,306.70,120523,,,D,V*06
$GNGLL,2500.8116978,N,12132.4721274,E,095817.000,A,D*4D
$GNGGA,095817.000,2500.8116978,N,12132.4721274,E,2,58,0.49,15.882,M,15.25,M,15,0035*79
$GNRMC,095817.000,A,2500.8116978,N,12132.4721274,E,1.93,315.94,120523,,,D,V*06
$GNGLL,2500.8120698,N,12132.4717614,E,095818.000,A,D*41
$GNGGA,095818.000,2500.8120698,N,12132.4717614,E,2,58,0.49,15.671,M,15.25,M,16,0035*74
$GNRMC,095818.000,A,2500.8120698,N,12132.4717614,E,1.59,310.55,120523,,,D,V*04
$GNGLL,2500.8124838,N,12132.4714794,E,095819.000,A,D*4A
$GNGGA,095819.000,2500.8124838,N,12132.4714794,E,2,59,0.49,15.486,M,15.25,M,17,0035*75
$GNRMC,095819.000,A,2500.8124838,N,12132.4714794,E,1.62,312.66,120523,,,D,V*05
$GNGSA,A,3,196,195,11,199,20,05,13,06,29,19,30,194,0.81,0.49,0.64,1*0A
$GNGSA,A,3,71,86,85,72,,,,,,,,,0.81,0.49,0.64,2*04
$GNGSA,A,3,19,33,12,04,10,,,,,,,,0.81,0.49,0.64,3*0B
$GNGSA,A,3,44,12,21,03,59,38,22,08,13,10,04,07,0.81,0.49,0.64,4*0E
$GNGSA,A,3,60,35,40,34,39,42,,,,,,,0.81,0.49,0.64,4*0D
$GPGSV,5,1,17,196,74,062,43,195,71,114,42,11,60,040,28,199,60,167,28,1*54
$GPGSV,5,2,17,20,54,353,27,05,50,308,44,13,50,184,27,06,33,097,41,1*6F
$GPGSV,5,3,17,15,25,215,28,29,22,318,37,19,17,156,20,30,17,099,31,1*67
$GPGSV,5,4,17,194,15,171,18,12,13,238,16,07,09,068,20,25,06,270,23,1*5D
$GPGSV,5,5,17,09,02,037,,1*5D
$GPGSV,2,1,08,196,74,062,47,195,71,114,43,11,60,040,48,199,60,167,28,8*57
$GPGSV,2,2,08,06,33,097,44,30,17,099,25,194,15,171,25,25,06,270,23,8*52
$GLGSV,1,1,04,71,67,348,28,86,60,004,29,85,55,113,43,72,48,237,38,1*74
$GAGSV,2,1,06,19,78,090,35,33,54,078,43,12,48,341,26,04,34,207,24,7*7A
$GAGSV,2,2,06,10,27,322,26,11,03,310,,7*77
$GAGSV,2,1,05,19,78,090,41,33,54,078,44,12,48,341,26,04,34,207,40,1*79
$GAGSV,2,2,05,10,27,322,31,1*45
$GBGSV,6,1,21,44,89,168,44,12,66,328,41,21,65,274,46,03,60,206,36,1*74
$GBGSV,6,2,21,59,55,141,31,38,53,355,35,22,47,027,29,08,46,336,26,1*76
$GBGSV,6,3,21,13,41,318,38,10,40,228,34,02,40,242,38,04,39,117,30,1*7F
$GBGSV,6,4,21,07,37,208,29,60,37,247,41,35,36,141,33,40,36,197,26,1*7E
$GBGSV,6,5,21,34,33,321,41,39,31,170,24,42,18,238,22,11,14,322,27,1*79
$GBGSV,6,6,21,09,09,190,17,1*4B
$GBGSV,3,1,09,44,89,168,45,21,65,274,47,38,53,355,27,22,47,027,34,4*7F
$GBGSV,3,2,09,35,36,141,24,40,36,197,31,34,33,321,42,39,31,170,22,4*79
$GBGSV,3,3,09,42,18,238,18,4*45
$GNGLL,2500.8130418,N,12132.4712574,E,095820.000,A,D*41
$GNGGA,095820.000,2500.8130418,N,12132.4712574,E,2,60,0.49,15.247,M,15.25,M,18,0035*70
$GNRMC,095820.000,A,2500.8130418,N,12132.4712574,E,2.15,318.23,120523,,,D,V*06
$GNGLL,2500.8135338,N,12132.4709514,E,095821.000,A,D*4C
$GNGGA,095821.000,2500.8135338,N,12132.4709514,E,2,60,0.49,15.286,M,15.25,M,19,0035*71
$GNRMC,095821.000,A,2500.8135338,N,12132.4709514,E,1.48,323.36,120523,,,D,V*0C
$GNGLL,2500.8139778,N,12132.4706454,E,095822.000,A,D*49
$GNGGA,095822.000,2500.8139778,N,12132.4706454,E,2,60,0.49,15.435,M,15.25,M,20,0035*70
$GNRMC,095822.000,A,2500.8139778,N,12132.4706454,E,1.65,317.44,120523,,,D,V*04
$GNGLL,2500.8144278,N,12132.4702434,E,095823.000,A,D*45
$GNGGA,095823.000,2500.8144278,N,12132.4702434,E,2,60,0.49,15.256,M,15.25,M,21,0035*7E
$GNRMC,095823.000,A,2500.8144278,N,12132.4702434,E,2.04,317.74,120523,,,D,V*0F
$GNGLL,2500.8148118,N,12132.4698474,E,095824.000,A,D*4D
$GNGGA,095824.000,2500.8148118,N,12132.4698474,E,2,58,0.49,15.106,M,15.25,M,22,0035*78
$GNRMC,095824.000,A,2500.8148118,N,12132.4698474,E,1.61,313.92,120523,,,D,V*0B
$GNGSA,A,3,196,195,199,11,20,05,13,06,29,19,30,194,0.81,0.49,0.64,1*0A
$GNGSA,A,3,71,86,85,72,,,,,,,,,0.81,0.49,0.64,2*04
$GNGSA,A,3,19,33,12,04,10,,,,,,,,0.81,0.49,0.64,3*0B
$GNGSA,A,3,44,12,21,03,59,38,22,08,13,10,04,60,0.81,0.49,0.64,4*0F
$GNGSA,A,3,07,35,40,34,39,42,,,,,,,0.81,0.49,0.64,4*0C
$GPGSV,5,1,17,196,74,062,25,195,71,114,43,199,60,167,35,11,60,040,34,1*54
$GPGSV,5,2,17,20,54,353,29,05,50,308,45,13,50,184,35,06,33,097,41,1*63
$GPGSV,5,3,17,15,25,215,39,29,22,318,40,19,17,156,20,30,17,099,36,1*60
$GPGSV,5,4,17,194,15,171,20,12,13,238,17,07,09,068,20,25,06,270,20,1*54
$GPGSV,5,5,17,09,02,037,,1*5D
$GPGSV,2,1,08,196,74,062,37,195,71,114,48,11,60,040,38,199,60,167,44,8*56
$GPGSV,2,2,08,06,33,097,45,30,17,099,37,194,15,171,24,25,06,270,21,8*53
$GLGSV,2,1,05,71,67,348,30,86,60,004,28,85,55,113,44,72,48,237,43,1*75
$GLGSV,2,2,05,84,01,138,,1*4A
$GAGSV,2,1,07,19,78,090,36,33,54,078,40,12,48,341,24,04,34,207,26,7*7B
$GAGSV,2,2,07,10,27,322,28,24,07,264,,11,03,310,,7*49
$GAGSV,2,1,05,19,78,090,40,33,54,078,46,12,48,341,27,04,34,207,34,1*78
$GAGSV,2,2,05,10,27,322,34,1*40
$GBGSV,6,1,21,44,89,168,46,12,66,328,41,21,65,274,46,03,60,206,39,1*79
$GBGSV,6,2,21,59,55,141,40,38,53,355,27,22,47,027,27,08,46,336,22,1*79
$GBGSV,6,3,21,13,41,318,40,10,40,228,40,02,40,242,38,04,39,117,33,1*70
$GBGSV,6,4,21,60,37,247,43,07,37,208,36,35,36,141,32,40,36,197,29,1*7C
$GBGSV,6,5,21,34,34,320,37,39,31,170,25,42,18,238,20,11,14,322,28,1*72
$GBGSV,6,6,21,09,09,190,16,1*4A
$GBGSV,2,1,08,44,89,168,47,21,65,274,47,38,53,355,35,22,47,027,34,4*7E
$GBGSV,2,2,08,35,36,141,29,34,34,320,30,39,31,170,24,42,18,238,18,4*72
$GNGLL,2500.8152018,N,12132.4695354,E,095825.000,A,D*4E
$GNGGA,095825.000,2500.8152018,N,12132.4695354,E,2,58,0.49,15.209,M,15.25,M,23,0035*76
$GNRMC,095825.000,A,2500.8152018,N,12132.4695354,E,1.35,327.48,120523,,,D,V*09
$GNGLL,2500.8155378,N,12132.4692114,E,095826.000,A,D*4E
$GNGGA,095826.000,2500.8155378,N,12132.4692114,E,2,59,0.49,15.257,M,15.25,M,24,0035*7B
$GNRMC,095826.000,A,2500.8155378,N,12132.4692114,E,1.58,317.05,120523,,,D,V*08
$GNGLL,2500.8158738,N,12132.4688274,E,095827.000,A,D*4C
$GNGGA,095827.000,2500.8158738,N,12132.4688274,E,2,59,0.49,15.177,M,15.25,M,25,0035*79
$GNRMC,095827.000,A,2500.8158738,N,12132.4688274,E,1.78,316.02,120523,,,D,V*0E
$GNGLL,2500.8161558,N,12132.4684374,E,095828.000,A,D*40
$GNGGA,095828.000,2500.8161558,N,12132.4684374,E,2,60,0.49,15.157,M,15.25,M,26,0035*7E
$GNRMC,095828.000,A,2500.8161558,N,12132.4684374,E,1.66,309.33,120523,,,D,V*01
$GNGLL,2500.8164438,N,12132.4680834,E,095829.000,A,D*48
$GNGGA,095829.000,2500.8164438,N,12132.4680834,E,2,60,0.49,15.101,M,15.25,M,27,0035*74
$GNRMC,095829.000,A,2500.8164438,N,12132.4680834,E,1.62,310.18,120523,,,D,V*0C
$GNGSA,A,3,196,195,11,199,20,05,13,06,29,19,30,194,0.81,0.49,0.64,1*0A
$GNGSA,A,3,71,86,85,72,,,,,,,,,0.81,0.49,0.64,2*04
$GNGSA,A,3,19,33,12,04,10,,,,,,,,0.81,0.49,0.64,3*0B
$GNGSA,A,3,44,12,21,03,59,38,22,08,13,10,04,60,0.81,0.49,0.64,4*0F
$GNGSA,A,3,07,40,35,34,39,42,,,,,,,0.81,0.49,0.64,4*0C
$GPGSV,5,1,17,196,74,062,24,195,71,114,42,11,60,040,21,199,60,167,37,1*52
$GPGSV,5,2,17,20,54,353,28,05,50,308,45,13,50,184,45,06,33,097,37,1*64
$GPGSV,5,3,17,15,25,215,40,29,22,318,37,19,17,156,22,30,17,099,30,1*6A
$GPGSV,5,4,17,194,15,171,24,12,13,238,16,07,09,068,,25,06,270,19,1*59
$GPGSV,5,5,17,09,02,037,,1*5D
$GPGSV,2,1,08,196,74,062,40,195,71,114,45,11,60,040,33,199,60,167,47,8*53
$GPGSV,2,2,08,06,33,097,45,30,17,099,42,194,15,171,23,25,06,270,21,8*56
$GLGSV,2,1,05,71,67,348,36,86,60,004,26,85,55,113,35,72,48,237,42,1*7A
$GLGSV,2,2,05,70,22,027,,1*4F
$GAGSV,2,1,07,19,78,090,33,33,54,078,29,12,48,341,27,04,34,207,39,7*7C
$GAGSV,2,2,07,10,27,322,26,26,13,113,,24,07,264,19,7*4B
$GAGSV,2,1,05,19,78,090,38,33,54,078,28,12,48,341,25,04,34,207,44,1*7A
$GAGSV,2,2,05,10,27,322,37,1*43
$GBGSV,6,1,21,44,89,168,46,12,66,328,41,21,65,274,44,03,60,206,41,1*74
$GBGSV,6,2,21,59,55,141,44,38,53,356,32,22,47,027,29,08,46,336,24,1*72
$GBGSV,6,3,21,13,41,318,42,02,40,242,38,10,40,228,39,04,39,117,38,1*77
$GBGSV,6,4,21,60,37,247,42,07,37,208,38,40,36,197,30,35,35,142,33,1*7A
$GBGSV,6,5,21,34,34,320,40,39,32,170,25,42,18,238,18,11,14,322,26,1*74
$GBGSV,6,6,21,09,09,190,16,1*4A
$GBGSV,2,1,08,44,89,168,45,21,65,274,47,38,53,356,23,22,47,027,28,4*75
$GBGSV,2,2,08,40,36,197,39,35,35,142,35,34,34,320,40,39,32,170,25,4*71
$GNGLL,2500.8168218,N,12132.4676454,E,095830.000,A,D*4B
$GNGGA,095830.000,2500.8168218,N,12132.4676454,E,2,59,0.49,15.148,M,15.25,M,28,0035*7F
$GNRMC,095830.000,A,2500.8168218,N,12132.4676454,E,1.85,316.53,120523,,,D,V*0F
$GNGLL,2500.8171038,N,12132.4672494,E,095831.000,A,D*4A
$GNGGA,095831.000,2500.8171038,N,12132.4672494,E,2,56,0.49,15.071,M,15.25,M,29,0035*7B
$GNRMC,095831.000,A,2500.8171038,N,12132.4672494,E,1.60,312.88,120523,,,D,V*07
$GNGLL,2500.8173678,N,12132.4668834,E,095832.000,A,D*44
$GNGGA,095832.000,2500.8173678,N,12132.4668834,E,2,59,0.49,15.056,M,15.25,M,30,0035*77
$GNRMC,095832.000,A,2500.8173678,N,12132.4668834,E,1.47,311.84,120523,,,D,V*03
$GNGLL,2500.8176738,N,12132.4664694,E,095833.000,A,D*4D
$GNGGA,095833.000,2500.8176738,N,12132.4664694,E,2,59,0.49,15.064,M,15.25,M,31,0035*7E
$GNRMC,095833.000,A,2500.8176738,N,12132.4664694,E,1.75,317.98,120523,,,D,V*00
$GNGLL,2500.8180098,N,12132.4660074,E,095834.000,A,D*42
$GNGGA,095834.000,2500.8180098,N,12132.4660074,E,2,59,0.49,14.996,M,15.25,M,32,0035*77
$GNRMC,095834.000,A,2500.8180098,N,12132.4660074,E,1.90,315.04,120523,,,D,V*03
$GNGSA,A,3,195,11,199,20,05,13,06,29,19,30,194,196,0.81,0.49,0.64,1*0A
$GNGSA,A,3,71,86,85,72,,,,,,,,,0.81,0.49,0.64,2*04
$GNGSA,A,3,19,33,12,04,10,,,,,,,,0.81,0.49,0.64,3*0B
$GNGSA,A,3,44,12,21,03,59,38,22,08,13,10,04,60,0.81,0.49,0.64,4*0F
$GNGSA,A,3,07,35,40,34,39,42,,,,,,,0.81,0.49,0.64,4*0C
$GPGSV,5,1,17,196,74,062,25,195,71,114,41,11,60,040,25,199,60,167,37,1*54
$GPGSV,5,2,17,20,54,353,42,05,50,308,45,13,50,184,45,06,33,097,28,1*66
$GPGSV,5,3,17,15,25,215,33,29,22,318,38,19,17,156,20,30,17,099,21,1*63
$GPGSV,5,4,17,194,15,171,25,12,13,238,17,07,09,068,,25,06,270,20,1*53
$GPGSV,5,5,17,09,02,037,,1*5D
$GPGSV,2,1,08,196,74,062,39,195,71,114,43,11,60,040,35,199,60,167,47,8*5D
$GPGSV,2,2,08,06,33,097,36,30,17,099,25,194,15,171,23,25,06,270,23,8*51
$GLGSV,2,1,05,71,67,348,37,86,60,004,29,85,55,113,42,72,48,237,43,1*75
$GLGSV,2,2,05,87,10,331,,1*42
$GAGSV,2,1,07,19,78,090,27,33,54,078,26,12,48,341,33,04,34,207,41,7*7C
$GAGSV,2,2,07,10,27,322,28,26,13,113,,24,07,264,19,7*45
$GAGSV,2,1,05,19,78,090,32,33,54,078,32,12,48,341,36,04,34,207,44,1*79
$GAGSV,2,2,05,10,27,322,39,1*4D
$GBGSV,6,1,21,44,88,169,46,12,66,328,40,21,65,274,47,03,60,206,42,1*75
$GBGSV,6,2,21,59,55,141,45,38,53,356,36,22,47,027,33,08,46,336,25,1*7D
$GBGSV,6,3,21,13,41,318,41,02,40,242,36,10,40,228,37,04,39,117,35,1*79
$GBGSV,6,4,21,60,37,247,41,07,37,208,37,35,35,142,45,40,35,197,43,1*70
$GBGSV,6,5,21,34,34,320,40,39,32,170,26,42,19,239,18,11,14,322,25,1*74
$GBGSV,6,6,21,09,09,190,,1*4D
$GBGSV,3,1,09,44,88,169,45,21,65,274,47,38,53,356,45,22,47,027,34,4*78
$GBGSV,3,2,09,35,35,142,44,40,35,197,43,34,34,320,41,39,32,170,31,4*7D
$GBGSV,3,3,09,42,19,239,22,4*4C
$GNGLL,2500.8183398,N,12132.4656654,E,095835.000,A,D*42
$GNGGA,095835.000,2500.8183398,N,12132.4656654,E,2,59,0.49,14.921,M,15.25,M,33,0035*7A
$GNRMC,095835.000,A,2500.8183398,N,12132.4656654,E,1.77,319.72,120523,,,D,V*07
$GNGLL,2500.8186158,N,12132.4653534,E,095836.000,A,D*4A
$GNGGA,095836.000,2500.8186158,N,12132.4653534,E,2,60,0.49,14.886,M,15.25,M,34,0035*73
$GNRMC,095836.000,A,2500.8186158,N,12132.4653534,E,1.51,323.88,120523,,,D,V*07
$GNGLL,2500.8189338,N,12132.4648854,E,095837.000,A,D*41
$GNGGA,095837.000,2500.8189338,N,12132.4648854,E,2,60,0.49,14.797,M,15.25,M,35,0035*76
$GNRMC,095837.000,A,2500.8189338,N,12132.4648854,E,1.88,316.93,120523,,,D,V*04
$GNGLL,2500.8192818,N,12132.4644894,E,095838.000,A,D*4D
$GNGGA,095838.000,2500.8192818,N,12132.4644894,E,2,60,0.49,14.771,M,15.25,M,36,0035*71
$GNRMC,095838.000,A,2500.8192818,N,12132.4644894,E,1.83,313.45,120523,,,D,V*0D
$GNGLL,2500.8196178,N,12132.4641174,E,095839.000,A,D*45
$GNGGA,095839.000,2500.8196178,N,12132.4641174,E,2,60,0.49,14.727,M,15.25,M,37,0035*7B
$GNRMC,095839.000,A,2500.8196178,N,12132.4641174,E,1.66,320.08,120523,,,D,V*07
$GNGSA,A,3,196,195,11,199,20,05,13,06,29,19,30,194,0.81,0.49,0.64,1*0A
$GNGSA,A,3,71,86,85,72,,,,,,,,,0.81,0.49,0.64,2*04
$GNGSA,A,3,19,33,12,04,10,,,,,,,,0.81,0.49,0.64,3*0B
$GNGSA,A,3,44,12,21,03,59,38,22,08,13,10,04,60,0.81,0.49,0.64,4*0F
$GNGSA,A,3,07,35,40,34,39,42,,,,,,,0.81,0.49,0.64,4*0C
$GPGSV,5,1,17,196,74,062,25,195,71,114,38,11,60,040,27,199,60,167,37,1*58
$GPGSV,5,2,17,20,54,353,41,05,50,308,45,13,50,184,46,06,33,097,26,1*68
$GPGSV,5,3,17,15,25,215,39,29,22,318,37,19,17,156,23,30,17,099,21,1*65
$GPGSV,5,4,17,194,15,171,23,12,13,238,18,07,09,068,20,25,06,270,20,1*58
$GPGSV,5,5,17,09,02,037,,1*5D
$GPGSV,2,1,08,196,74,062,32,195,71,114,43,11,60,040,41,199,60,167,47,8*55
$GPGSV,2,2,08,06,33,097,25,30,17,099,22,194,15,171,22,25,06,270,25,8*53
$GLGSV,1,1,04,71,67,348,44,86,60,004,39,85,55,113,37,72,48,237,43,1*70
$GAGSV,2,1,08,19,78,090,34,33,54,078,32,12,48,341,24,04,34,207,31,7*75
$GAGSV,2,2,08,10,27,322,36,26,13,113,,31,08,218,,24,07,264,19,7*74
$GAGSV,2,1,05,19,78,090,38,33,54,078,39,12,48,341,24,04,34,207,40,1*7F
$GAGSV,2,2,05,10,27,322,38,1*4C
$GBGSV,6,1,21,44,88,169,45,12,66,328,43,21,65,274,46,03,60,206,41,1*77
$GBGSV,6,2,21,59,55,141,45,38,53,356,37,22,47,027,32,08,46,336,26,1*7E
$GBGSV,6,3,21,13,41,318,38,10,40,228,36,02,40,242,35,04,39,117,27,1*76
$GBGSV,6,4,21,60,37,247,39,07,37,208,36,35,35,142,44,40,35,197,40,1*7C
$GBGSV,6,5,21,34,34,320,40,39,32,170,39,42,19,239,18,11,14,322,26,1*79
$GBGSV,6,6,21,09,09,190,,1*4D
$GBGSV,3,1,09,44,88,169,46,21,65,274,47,38,53,356,44,22,47,027,35,4*7B
$GBGSV,3,2,09,35,35,142,43,40,35,197,42,34,34,320,38,39,32,170,38,4*7C
$GBGSV,3,3,09,42,19,239,15,4*48
$GNGLL,2500.8199598,N,12132.4636314,E,095840.000,A,D*4A
$GNGGA,095840.000,2500.8199598,N,12132.4636314,E,2,60,0.49,14.668,M,15.25,M,38,0035*71
$GNRMC,095840.000,A,2500.8199598,N,12132.4636314,E,1.94,318.95,120523,,,D,V*0A
$GNGLL,2500.8203078,N,12132.4632774,E,095841.000,A,D*46
$GNGGA,095841.000,2500.8203078,N,12132.4632774,E,2,58,0.49,14.609,M,15.25,M,39,0035*70
$GNRMC,095841.000,A,2500.8203078,N,12132.4632774,E,1.70,316.90,120523,,,D,V*07
$PAIR010,0,0,2261,467939*3A
$PAIR010,0,1,2261,467939*3B
$GNGLL,2500.8206378,N,12132.4628934,E,095842.000,A,D*42
$GNGGA,095842.000,2500.8206378,N,12132.4628934,E,2,60,0.49,14.570,M,15.25,M,40,0035*7C
$GNRMC,095842.000,A,2500.8206378,N,12132.4628934,E,1.73,314.09,120523,,,D,V*02
$GNGLL,2500.8210179,N,12132.4630370,E,095843.000,A,R*52
$GNGGA,095843.000,2500.8210179,N,12132.4630370,E,4,60,0.49,17.828,M,15.25,M,1,3335*4A
$GNRMC,095843.000,A,2500.8210179,N,12132.4630370,E,1.80,314.43,120523,,,R,V*10
$GNGLL,2500.8213752,N,12132.4626316,E,095844.000,A,R*5E
$GNGGA,095844.000,2500.8213752,N,12132.4626316,E,4,60,0.49,17.738,M,15.25,M,1,3335*48
$GNRMC,095844.000,A,2500.8213752,N,12132.4626316,E,1.85,317.12,120523,,,R,V*1E
$GNGSA,A,3,196,195,11,199,20,05,13,29,19,30,194,06,0.81,0.49,0.64,1*0A
$GNGSA,A,3,71,86,85,72,,,,,,,,,0.81,0.49,0.64,2*04
$GNGSA,A,3,19,33,12,04,10,,,,,,,,0.81,0.49,0.64,3*0B
$GNGSA,A,3,44,12,21,03,59,38,22,08,13,10,04,60,0.81,0.49,0.64,4*0F
$GNGSA,A,3,07,35,40,34,39,42,,,,,,,0.81,0.49,0.64,4*0C
$GPGSV,5,1,17,196,74,062,42,195,71,114,40,11,60,040,41,199,60,167,38,1*59
$GPGSV,5,2,17,20,54,353,34,05,50,308,46,13,50,184,45,06,33,097,22,1*6E
$GPGSV,5,3,17,15,25,215,33,29,22,318,39,19,17,156,25,30,17,099,18,1*6D
$GPGSV,5,4,17,194,15,171,22,12,13,238,19,07,09,068,20,25,06,270,21,1*59
$GPGSV,5,5,17,09,02,037,,1*5D
$GPGSV,2,1,08,196,74,062,43,195,71,114,44,199,60,167,46,11,60,040,47,8*53
$GPGSV,2,2,08,06,33,097,25,30,17,099,22,194,15,171,29,25,06,270,21,8*5C
$GLGSV,1,1,04,71,67,348,35,86,60,004,33,85,55,113,25,72,48,237,42,1*7E
$GAGSV,2,1,07,19,78,090,36,33,54,078,28,12,48,341,24,04,34,207,39,7*7B
$GAGSV,2,2,07,10,27,322,23,24,07,264,29,11,03,310,,7*49
$GAGSV,2,1,06,19,78,090,40,33,54,078,30,12,48,341,27,04,34,207,42,1*7B
$GAGSV,2,2,06,10,27,322,31,24,07,264,28,1*7D
$GBGSV,6,1,21,44,88,169,45,12,66,328,41,21,65,274,46,03,60,206,40,1*74
$GBGSV,6,2,21,59,55,141,44,38,53,356,31,22,47,027,31,08,46,336,24,1*78
$GBGSV,6,3,21,13,41,318,40,10,40,228,39,02,40,242,37,04,39,117,26,1*75
$GBGSV,6,4,21,60,37,247,40,07,37,208,36,35,35,142,44,40,35,197,39,1*7C
$GBGSV,6,5,21,34,34,320,41,39,32,170,42,42,19,239,21,11,14,322,29,1*71
$GBGSV,6,6,21,09,09,190,,1*4D
$GBGSV,3,1,09,44,88,169,46,21,65,274,47,38,53,356,30,22,47,027,37,4*7A
$GBGSV,3,2,09,40,35,197,41,35,35,142,42,34,34,320,39,39,32,170,42,4*72
$GBGSV,3,3,09,42,19,239,16,4*4B
$GNGLL,2500.8217163,N,12132.4622658,E,095845.000,A,R*54
$GNGGA,095845.000,2500.8217163,N,12132.4622658,E,4,59,0.49,17.796,M,15.25,M,2,3335*4F
$GNRMC,095845.000,A,2500.8217163,N,12132.4622658,E,1.83,315.09,120523,,,R,V*1A
$GNGLL,2500.8220945,N,12132.4619022,E,095846.000,A,R*5C
$GNGGA,095846.000,2500.8220945,N,12132.4619022,E,4,59,0.49,17.815,M,15.25,M,3,3335*42
$GNRMC,095846.000,A,2500.8220945,N,12132.4619022,E,1.78,311.16,120523,,,R,V*1C
$GNGLL,2500.8224595,N,12132.4614740,E,095847.000,A,R*56
$GNGGA,095847.000,2500.8224595,N,12132.4614740,E,4,59,0.49,17.761,M,15.25,M,4,3335*43
$GNRMC,095847.000,A,2500.8224595,N,12132.4614740,E,2.00,316.69,120523,,,R,V*15
$GNGLL,2500.8228127,N,12132.4610969,E,095848.000,A,R*59
$GNGGA,095848.000,2500.8228127,N,12132.4610969,E,4,60,0.49,17.794,M,15.25,M,5,3335*4D
$GNRMC,095848.000,A,2500.8228127,N,12132.4610969,E,1.82,300.34,120523,,,R,V*1C
$GNGLL,2500.8231911,N,12132.4607191,E,095849.000,A,R*54
$GNGGA,095849.000,2500.8231911,N,12132.4607191,E,4,59,0.50,17.789,M,15.25,M,6,3335*4D
$GNRMC,095849.000,A,2500.8231911,N,12132.4607191,E,1.77,314.16,120523,,,R,V*1E
$GNGSA,A,3,196,195,11,199,20,05,13,06,29,19,30,194,0.82,0.50,0.65,1*00
$GNGSA,A,3,71,86,85,72,,,,,,,,,0.82,0.50,0.65,2*0E
$GNGSA,A,3,19,33,12,04,10,,,,,,,,0.82,0.50,0.65,3*01
$GNGSA,A,3,44,12,21,03,59,38,22,08,13,10,07,60,0.82,0.50,0.65,4*06
$GNGSA,A,3,40,35,34,39,42,,,,,,,,0.82,0.50,0.65,4*01
$GPGSV,5,1,17,196,74,062,40,195,71,114,43,11,60,040,35,199,60,167,37,1*54
$GPGSV,5,2,17,20,54,353,28,05,50,308,46,13,50,184,45,06,33,097,27,1*66
$GPGSV,5,3,17,15,25,215,33,29,22,318,41,19,17,156,22,30,17,099,17,1*6A
$GPGSV,5,4,17,194,15,171,23,12,13,238,,07,09,068,21,25,06,270,19,1*5A
$GPGSV,5,5,17,09,02,037,,1*5D
$GPGSV,2,1,08,196,74,062,44,195,71,114,47,199,60,167,46,11,60,040,44,8*54
$GPGSV,2,2,08,06,33,097,26,30,17,099,20,194,15,171,27,25,06,270,24,8*56
$GLGSV,1,1,04,71,67,348,35,86,60,004,29,85,55,113,32,72,48,237,41,1*70
$GAGSV,2,1,07,19,78,090,38,33,54,078,40,12,48,341,22,04,34,207,38,7*7C
$GAGSV,2,2,07,10,27,322,32,24,07,264,,11,03,310,,7*42
$GAGSV,2,1,06,19,78,090,41,33,54,078,46,12,48,341,20,04,34,207,43,1*7D
$GAGSV,2,2,06,10,27,322,40,24,07,264,22,1*71
$GBGSV,6,1,21,44,88,169,45,12,66,328,41,21,65,274,46,03,60,206,41,1*75
$GBGSV,6,2,21,61,58,205,,59,55,141,44,38,53,356,26,22,47,027,25,1*7C
$GBGSV,6,3,21,08,46,336,24,13,41,318,40,10,40,228,40,02,40,242,38,1*73
$GBGSV,6,4,21,04,39,117,,07,37,208,38,60,37,247,41,40,35,197,43,1*70
$GBGSV,6,5,21,35,35,142,44,34,34,320,44,39,32,170,41,42,19,239,24,1*78
$GBGSV,6,6,21,11,14,322,23,1*42
$GBGSV,3,1,09,44,88,169,46,21,65,274,47,38,53,356,29,22,47,027,29,4*7D
$GBGSV,3,2,09,40,35,197,42,35,35,142,44,34,34,320,37,39,32,170,43,4*78
$GBGSV,3,3,09,42,19,239,24,4*4A
$GNGLL,2500.8235420,N,12132.4603009,E,095850.000,A,R*53
$GNGGA,095850.000,2500.8235420,N,12132.4603009,E,4,59,0.50,17.740,M,15.25,M,1,3335*48
$GNRMC,095850.000,A,2500.8235420,N,12132.4603009,E,1.71,319.23,120523,,,R,V*14
$GNGLL,2500.8238952,N,12132.4599546,E,095851.000,A,R*59
$GNGGA,095851.000,2500.8238952,N,12132.4599546,E,4,59,0.50,17.743,M,15.25,M,1,3335*41
$GNRMC,095851.000,A,2500.8238952,N,12132.4599546,E,1.68,308.78,120523,,,R,V*18
$GNGLL,2500.8242492,N,12132.4596115,E,095852.000,A,R*5B
$GNGGA,095852.000,2500.8242492,N,12132.4596115,E,4,57,0.50,17.794,M,15.25,M,1,3335*47
$GNRMC,095852.000,A,2500.8242492,N,12132.4596115,E,1.62,320.50,120523,,,R,V*10
$GNGLL,2500.8245900,N,12132.4592164,E,095853.000,A,R*59
$GNGGA,095853.000,2500.8245900,N,12132.4592164,E,4,58,0.50,17.770,M,15.25,M,2,3335*43
$GNRMC,095853.000,A,2500.8245900,N,12132.4592164,E,1.81,320.96,120523,,,R,V*15
$GNGLL,2500.8249673,N,12132.4588495,E,095854.000,A,R*59
$GNGGA,095854.000,2500.8249673,N,12132.4588495,E,4,58,0.50,17.702,M,15.25,M,3,3335*47
$GNRMC,095854.000,A,2500.8249673,N,12132.4588495,E,1.92,311.75,120523,,,R,V*18
$GNGSA,A,3,196,195,199,11,20,05,13,06,29,30,19,194,0.82,0.50,0.65,1*00
$GNGSA,A,3,71,86,85,72,,,,,,,,,0.82,0.50,0.65,2*0E
$GNGSA,A,3,19,33,12,04,10,,,,,,,,0.82,0.50,0.65,3*01
$GNGSA,A,3,44,12,21,03,59,38,22,08,13,10,60,07,0.82,0.50,0.65,4*06
$GNGSA,A,3,40,35,34,39,42,,,,,,,,0.82,0.50,0.65,4*01
$GPGSV,5,1,17,196,74,062,29,195,71,114,42,199,60,167,37,11,60,040,35,1*5A
$GPGSV,5,2,17,20,54,353,26,05,50,308,47,13,50,184,45,06,33,097,31,1*6E
$GPGSV,5,3,17,15,25,215,42,29,22,318,42,30,17,099,19,19,17,156,25,1*66
$GPGSV,5,4,17,194,15,171,24,12,13,238,30,07,09,068,22,25,06,270,18,1*5C
$GPGSV,5,5,17,09,02,037,,1*5D
$GPGSV,2,1,08,196,74,062,26,195,71,114,48,199,60,167,47,11,60,040,43,8*59
$GPGSV,2,2,08,06,33,097,34,30,17,099,20,194,15,171,23,25,06,270,21,8*54
$GLGSV,1,1,04,71,67,348,36,86,60,004,29,85,55,113,32,72,48,237,42,1*70
$GAGSV,2,1,07,19,78,090,33,33,54,078,25,12,48,341,23,04,34,207,41,7*7B
$GAGSV,2,2,07,10,27,322,34,24,07,264,21,11,03,310,,7*47
$GAGSV,2,1,06,19,78,090,31,33,54,078,37,12,48,341,27,04,34,207,45,1*7D
$GAGSV,2,2,06,10,27,322,43,24,07,264,23,1*73
$GBGSV,6,1,21,44,88,169,45,12,66,328,40,21,65,274,46,03,60,206,41,1*74
$GBGSV,6,2,21,59,55,141,44,38,53,356,29,22,47,027,24,08,46,336,24,1*75
$GBGSV,6,3,21,13,41,318,42,10,40,228,40,02,40,242,38,04,39,117,,1*72
$GBGSV,6,4,21,60,37,247,41,07,37,208,39,40,35,197,42,35,35,142,43,1*79
$GBGSV,6,5,21,34,34,320,42,39,32,170,41,42,19,239,34,05,16,258,30,1*76
$GBGSV,6,6,21,11,14,322,24,1*45
$GBGSV,3,1,09,44,88,169,45,21,65,274,47,38,53,356,32,22,47,027,35,4*79
$GBGSV,3,2,09,40,35,197,43,35,35,142,44,34,34,320,39,39,32,170,44,4*70
$GBGSV,3,3,09,42,19,239,39,4*46
$GNGLL,2500.8253404,N,12132.4584878,E,095855.000,A,R*52
$GNGGA,095855.000,2500.8253404,N,12132.4584878,E,4,59,0.50,17.760,M,15.25,M,3,3335*49
$GNRMC,095855.000,A,2500.8253404,N,12132.4584878,E,1.77,320.63,120523,,,R,V*1D
$GNGLL,2500.8256866,N,12132.4581045,E,095856.000,A,R*5F
$GNGGA,095856.000,2500.8256866,N,12132.4581045,E,4,59,0.50,17.823,M,15.25,M,1,3335*4E
$GNRMC,095856.000,A,2500.8256866,N,12132.4581045,E,1.86,314.49,120523,,,R,V*11
$GNGLL,2500.8260707,N,12132.4577290,E,095857.000,A,R*50
$GNGGA,095857.000,2500.8260707,N,12132.4577290,E,4,57,0.50,17.680,M,15.25,M,2,3335*4B
$GNRMC,095857.000,A,2500.8260707,N,12132.4577290,E,1.81,311.69,120523,,,R,V*1E
$GNGLL,2500.8264472,N,12132.4573129,E,095858.000,A,R*5F
$GNGGA,095858.000,2500.8264472,N,12132.4573129,E,4,58,0.50,17.668,M,15.25,M,1,3335*4E
$GNRMC,095858.000,A,2500.8264472,N,12132.4573129,E,2.07,317.36,120523,,,R,V*10
$GNGLL,2500.8268126,N,12132.4569211,E,095859.000,A,R*55
$GNGGA,095859.000,2500.8268126,N,12132.4569211,E,4,59,0.50,17.701,M,15.25,M,1,3335*4B
$GNRMC,095859.000,A,2500.8268126,N,12132.4569211,E,1.37,322.40,120523,,,R,V*1D
$GNGSA,A,3,196,195,199,11,20,05,13,06,29,19,30,194,0.82,0.50,0.65,1*00
$GNGSA,A,3,71,86,85,72,,,,,,,,,0.82,0.50,0.65,2*0E
$GNGSA,A,3,19,33,12,04,10,,,,,,,,0.82,0.50,0.65,3*01
$GNGSA,A,3,44,12,21,03,59,38,22,08,13,10,60,07,0.82,0.50,0.65,4*06
$GNGSA,A,3,40,35,34,39,42,,,,,,,,0.82,0.50,0.65,4*01
$GPGSV,5,1,17,196,74,062,26,195,71,114,31,199,60,167,38,11,60,040,31,1*5A
$GPGSV,5,2,17,20,54,353,32,05,50,310,46,13,50,184,45,06,32,098,29,1*64
$GPGSV,5,3,17,15,25,215,42,29,22,318,41,19,17,156,24,30,17,099,22,1*6C
$GPGSV,5,4,17,194,15,171,27,12,13,238,38,07,09,068,24,25,06,270,20,1*5A
$GPGSV,5,5,17,09,02,037,,1*5D
$GPGSV,2,1,08,196,74,062,38,195,71,114,40,11,60,040,38,199,60,167,47,8*52
$GPGSV,2,2,08,06,32,098,24,30,17,099,19,194,15,171,29,25,06,270,21,8*5B
$GLGSV,1,1,04,71,67,348,28,86,60,004,28,85,55,113,40,72,48,237,43,1*7A
$GAGSV,2,1,06,19,78,090,33,33,54,078,32,12,48,341,22,04,34,207,41,7*7D
$GAGSV,2,2,06,10,27,322,37,24,07,264,20,7*75
$GAGSV,2,1,05,19,78,090,34,33,54,078,33,12,48,341,32,04,34,207,45,1*7B
$GAGSV,2,2,05,10,27,322,43,1*40
$GBGSV,6,1,21,44,88,169,45,12,66,328,40,21,65,274,46,03,60,206,42,1*77
$GBGSV,6,2,21,59,55,141,44,38,53,356,26,22,47,027,27,08,46,336,27,1*7A
$GBGSV,6,3,21,13,41,318,37,10,40,228,39,02,40,242,37,04,39,117,,1*71
$GBGSV,6,4,21,60,37,247,42,07,37,208,38,40,35,197,43,35,35,142,45,1*7C
$GBGSV,6,5,21,34,34,320,27,39,32,170,42,42,19,239,42,05,16,258,36,1*71
$GBGSV,6,6,21,11,14,322,23,1*42
$GBGSV,3,1,09,44,88,169,46,21,65,274,47,38,53,356,29,22,47,027,34,4*71
$GBGSV,3,2,09,35,35,142,43,40,35,197,42,34,34,320,38,39,32,170,43,4*70
$GBGSV,3,3,09,42,19,239,44,4*4C
$GNGLL,2500.8272078,N,12132.4565747,E,095900.000,A,R*53
$GNGGA,095900.000,2500.8272078,N,12132.4565747,E,4,59,0.50,17.686,M,15.25,M,1,3335*43
$GNRMC,095900.000,A,2500.8272078,N,12132.4565747,E,1.75,322.67,120523,,,R,V*18
$GNGLL,2500.8275841,N,12132.4561852,E,095901.000,A,R*58
$GNGGA,095901.000,2500.8275841,N,12132.4561852,E,4,59,0.50,17.694,M,15.25,M,2,3335*48
$GNRMC,095901.000,A,2500.8275841,N,12132.4561852,E,1.97,320.85,120523,,,R,V*11
$GNGLL,2500.8279293,N,12132.4557973,E,095902.000,A,R*55
$GNGGA,095902.000,2500.8279293,N,12132.4557973,E,4,59,0.50,17.731,M,15.25,M,3,3335*4A
$GNRMC,095902.000,A,2500.8279293,N,12132.4557973,E,1.79,314.91,120523,,,R,V*1E
$GNGLL,2500.8282806,N,12132.4554778,E,095903.000,A,R*50
$GNGGA,095903.000,2500.8282806,N,12132.4554778,E,4,60,0.49,17.729,M,15.25,M,1,3335*46
$GNRMC,095903.000,A,2500.8282806,N,12132.4554778,E,1.30,310.82,120523,,,R,V*10
$GNGLL,2500.8283902,N,12132.4551510,E,095904.000,A,R*5A
$GNGGA,095904.000,2500.8283902,N,12132.4551510,E,4,59,0.49,17.770,M,15.25,M,2,3335*49
$GNRMC,095904.000,A,2500.8283902,N,12132.4551510,E,1.31,245.27,120523,,,R,V*15
$GNGSA,A,3,196,195,199,11,20,05,13,06,29,19,30,194,0.81,0.49,0.64,1*0A
$GNGSA,A,3,71,86,85,72,,,,,,,,,0.81,0.49,0.64,2*04
$GNGSA,A,3,19,33,12,04,10,,,,,,,,0.81,0.49,0.64,3*0B
$GNGSA,A,3,44,12,21,03,59,38,22,08,13,10,04,60,0.81,0.49,0.64,4*0F
$GNGSA,A,3,07,40,35,34,39,42,,,,,,,0.81,0.49,0.64,4*0C
$GPGSV,5,1,17,196,74,062,33,195,71,114,41,199,60,167,36,11,60,042,29,1*5C
$GPGSV,5,2,17,20,54,353,33,05,50,310,46,13,50,184,44,06,32,098,34,1*68
$GPGSV,5,3,17,15,25,215,39,29,22,318,40,19,17,156,30,30,17,099,18,1*6D
$GPGSV,5,4,17,194,15,171,24,12,13,238,38,07,09,067,26,25,06,270,19,1*5E
$GPGSV,5,5,17,09,01,037,,1*5E
$GPGSV,2,1,08,196,74,062,41,195,71,114,43,199,60,167,47,11,60,042,38,8*5D
$GPGSV,2,2,08,06,32,098,35,30,17,099,19,194,15,171,27,25,06,270,22,8*56
$GLGSV,1,1,04,71,67,348,38,86,60,004,32,85,55,113,20,72,48,237,42,1*77
$GAGSV,2,1,06,19,78,090,35,33,54,078,29,12,48,341,37,04,34,207,40,7*74
$GAGSV,2,2,06,10,27,322,36,24,07,264,18,7*7F
$GAGSV,2,1,06,19,78,090,41,33,54,078,27,12,48,341,37,04,34,207,45,1*7A
$GAGSV,2,2,06,10,27,322,39,24,07,264,24,1*79
$GBGSV,6,1,21,44,88,169,45,12,66,328,41,21,65,274,46,03,60,206,40,1*74
$GBGSV,6,2,21,59,55,141,43,38,53,356,29,22,47,027,33,08,46,336,35,1*74
$GBGSV,6,3,21,13,41,318,31,10,40,228,39,02,40,242,37,04,39,117,34,1*70
$GBGSV,6,4,21,60,37,247,41,07,37,208,39,40,35,197,41,35,35,142,44,1*7D
$GBGSV,6,5,21,34,34,320,44,39,32,170,41,42,19,239,39,05,16,258,34,1*79
$GBGSV,6,6,21,11,14,322,22,1*43
$GBGSV,3,1,09,44,88,169,44,21,65,274,47,38,53,356,22,22,47,027,30,4*7C
$GBGSV,3,2,09,40,35,197,41,35,35,142,43,34,34,320,43,39,32,170,43,4*7F
$GBGSV,3,3,09,42,19,239,44,4*4C
$GNGLL,2500.8280576,N,12132.4551943,E,095905.000,A,R*5D
$GNGGA,095905.000,2500.8280576,N,12132.4551943,E,4,60,0.49,17.817,M,15.25,M,3,3335*4B
$GNRMC,095905.000,A,2500.8280576,N,12132.4551943,E,0.56,275.18,120523,,,R,V*1D
$GNGLL,2500.8278973,N,12132.4549790,E,095906.000,A,R*59
$GNGGA,095906.000,2500.8278973,N,12132.4549790,E,4,61,0.48,17.787,M,15.25,M,2,3335*48
$GNRMC,095906.000,A,2500.8278973,N,12132.4549790,E,1.10,238.11,120523,,,R,V*1A
$GNGLL,2500.8275938,N,12132.4546164,E,095907.000,A,R*58
$GNGGA,095907.000,2500.8275938,N,12132.4546164,E,4,61,0.48,17.772,M,15.25,M,2,3335*43
$GNRMC,095907.000,A,2500.8275938,N,12132.4546164,E,1.34,227.00,120523,,,R,V*13
$GNGLL,2500.8272758,N,12132.4541978,E,095908.000,A,R*5A
$GNGGA,095908.000,2500.8272758,N,12132.4541978,E,4,61,0.48,17.791,M,15.25,M,3,3335*4D
$GNRMC,095908.000,A,2500.8272758,N,12132.4541978,E,1.61,226.52,120523,,,R,V*17
$GNGLL,2500.8269154,N,12132.4538114,E,095909.000,A,R*57
$GNGGA,095909.000,2500.8269154,N,12132.4538114,E,4,60,0.48,17.677,M,15.25,M,3,3335*48
$GNRMC,095909.000,A,2500.8269154,N,12132.4538114,E,1.88,228.18,120523,,,R,V*1D
$GNGSA,A,3,196,195,199,11,20,13,05,06,29,19,30,194,0.81,0.48,0.65,1*0A
$GNGSA,A,3,71,86,85,72,,,,,,,,,0.81,0.48,0.65,2*04
$GNGSA,A,3,19,33,12,04,10,,,,,,,,0.81,0.48,0.65,3*0B
$GNGSA,A,3,44,12,21,03,59,38,22,08,13,10,02,04,0.81,0.48,0.65,4*0B
$GNGSA,A,3,60,07,40,35,34,39,42,,,,,,0.81,0.48,0.65,4*0A
$GPGSV,5,1,17,196,74,062,39,195,71,114,43,199,60,167,37,11,60,042,30,1*5D
$GPGSV,5,2,17,20,54,353,44,13,51,184,45,05,50,310,45,06,32,098,27,1*69
$GPGSV,5,3,17,15,26,216,37,29,22,318,41,19,17,156,31,30,17,099,19,1*62
$GPGSV,5,4,17,194,15,171,28,12,12,237,37,07,09,067,23,25,06,270,19,1*56
$GPGSV,5,5,17,09,01,037,,1*5E
$GPGSV,2,1,08,196,74,062,42,195,71,114,46,11,60,042,45,199,60,167,47,8*51
$GPGSV,2,2,08,06,32,098,35,30,17,099,28,194,15,171,29,25,06,270,24,8*5C
$GLGSV,1,1,04,71,67,348,44,86,60,004,44,85,55,113,44,72,48,237,42,1*7F
$GAGSV,2,1,06,19,78,090,36,33,54,078,27,12,48,341,29,04,34,207,40,7*76
$GAGSV,2,2,06,10,27,322,37,24,07,264,19,7*7F
$GAGSV,2,1,05,19,78,090,41,33,54,078,35,12,48,341,41,04,34,207,43,1*7D
$GAGSV,2,2,05,10,27,322,43,1*40
$GBGSV,6,1,21,44,88,169,45,12,66,328,42,21,65,274,47,03,60,206,40,1*76
$GBGSV,6,2,21,59,55,141,43,38,53,356,37,22,47,027,37,08,46,336,37,1*7D
$GBGSV,6,3,21,13,41,318,36,10,40,228,38,02,40,242,36,04,39,117,27,1*75
$GBGSV,6,4,21,60,37,247,41,07,37,208,39,40,35,197,42,35,35,142,45,1*7F
$GBGSV,6,5,21,34,34,320,43,39,32,170,41,42,19,239,39,05,16,258,35,1*7F
$GBGSV,6,6,21,11,14,322,23,1*42
$GBGSV,3,1,09,44,88,169,45,21,65,274,47,38,53,356,38,22,47,027,31,4*77
$GBGSV,3,2,09,35,35,142,43,40,35,197,43,34,34,320,44,39,32,170,42,4*7B
$GBGSV,3,3,09,42,19,239,46,4*4E
$GNGLL,2500.8265549,N,12132.4534057,E,095910.000,A,R*51
$GNGGA,095910.000,2500.8265549,N,12132.4534057,E,4,60,0.48,17.752,M,15.25,M,2,3335*49
$GNRMC,095910.000,A,2500.8265549,N,12132.4534057,E,1.74,225.86,120523,,,R,V*12
$GNGLL,2500.8262020,N,12132.4529839,E,095911.000,A,R*51
$GNGGA,095911.000,2500.8262020,N,12132.4529839,E,4,59,0.48,17.805,M,15.25,M,1,3335*4D
$GNRMC,095911.000,A,2500.8262020,N,12132.4529839,E,1.69,225.93,120523,,,R,V*1A
$GNGLL,2500.8258311,N,12132.4525848,E,095912.000,A,R*50
$GNGGA,095912.000,2500.8258311,N,12132.4525848,E,4,59,0.48,17.736,M,15.25,M,2,3335*40
$GNRMC,095912.000,A,2500.8258311,N,12132.4525848,E,1.97,227.24,120523,,,R,V*14
$GNGLL,2500.8254585,N,12132.4521723,E,095913.000,A,R*50
$GNGGA,095913.000,2500.8254585,N,12132.4521723,E,4,59,0.48,17.692,M,15.25,M,3,3335*4E
$GNRMC,095913.000,A,2500.8254585,N,12132.4521723,E,2.12,223.66,120523,,,R,V*18
$GNGLL,2500.8251181,N,12132.4517414,E,095914.000,A,R*50
$GNGGA,095914.000,2500.8251181,N,12132.4517414,E,4,59,0.48,17.833,M,15.25,M,4,3335*4C
$GNRMC,095914.000,A,2500.8251181,N,12132.4517414,E,1.90,229.60,120523,,,R,V*1D
$GNGSA,A,3,196,195,11,199,20,13,05,06,29,30,19,194,0.80,0.48,0.64,1*0A
$GNGSA,A,3,71,86,85,72,,,,,,,,,0.80,0.48,0.64,2*04
$GNGSA,A,3,19,33,12,04,10,,,,,,,,0.80,0.48,0.64,3*0B
$GNGSA,A,3,44,12,21,03,59,38,22,08,13,02,10,04,0.80,0.48,0.64,4*0B
$GNGSA,A,3,07,60,35,40,34,39,42,,,,,,0.80,0.48,0.64,4*0A
$GPGSV,5,1,17,196,74,062,41,195,71,114,43,11,60,042,39,199,60,167,37,1*5B
$GPGSV,5,2,17,20,54,355,46,13,51,184,45,05,50,310,44,06,32,098,31,1*6B
$GPGSV,5,3,17,15,26,216,33,29,22,318,37,30,17,099,23,19,16,156,26,1*69
$GPGSV,5,4,17,194,15,171,26,12,12,237,38,07,09,067,23,25,06,270,19,1*57
$GPGSV,5,5,17,09,01,037,,1*5E
$GPGSV,2,1,08,196,74,062,45,195,71,114,46,199,60,167,47,11,60,042,47,8*54
$GPGSV,2,2,08,06,32,098,44,30,17,099,33,194,15,171,26,25,06,270,19,8*51
$GLGSV,2,1,05,71,67,348,44,86,60,004,43,85,55,113,45,72,48,237,43,1*7A
$GLGSV,2,2,05,70,22,027,,1*4F
$GAGSV,2,1,07,19,78,090,36,33,54,078,34,12,48,341,40,04,34,207,39,7*74
$GAGSV,2,2,07,10,27,322,35,26,13,113,,24,07,264,19,7*49
$GAGSV,2,1,06,19,78,090,41,33,54,078,40,12,48,341,42,04,34,207,42,1*7E
$GAGSV,2,2,06,10,27,322,41,24,07,264,19,1*78
$GBGSV,6,1,21,44,88,169,45,12,66,328,42,21,65,274,45,03,60,206,42,1*76
$GBGSV,6,2,21,59,55,141,43,38,53,356,43,22,47,027,35,08,46,336,38,1*73
$GBGSV,6,3,21,13,41,318,39,02,40,242,37,10,40,228,35,04,39,117,38,1*78
$GBGSV,6,4,21,07,37,208,39,60,37,247,41,35,35,142,45,40,35,197,42,1*7F
$GBGSV,6,5,21,34,34,320,31,39,32,170,42,42,19,239,40,05,16,258,36,1*74
$GBGSV,6,6,21,11,14,322,23,1*42
$GBGSV,3,1,09,44,88,169,45,21,65,274,47,38,53,356,43,22,47,027,34,4*7E
$GBGSV,3,2,09,40,35,197,42,35,35,142,43,34,34,320,25,39,32,170,43,4*7C
$GBGSV,3,3,09,42,19,239,45,4*4D
$GNGLL,2500.8247341,N,12132.4513359,E,095915.000,A,R*52
$GNGGA,095915.000,2500.8247341,N,12132.4513359,E,4,61,0.48,17.764,M,15.25,M,5,3335*49
$GNRMC,095915.000,A,2500.8247341,N,12132.4513359,E,2.05,222.12,120523,,,R,V*1E
$GNGLL,2500.8243683,N,12132.4508894,E,095916.000,A,R*5E
$GNGGA,095916.000,2500.8243683,N,12132.4508894,E,4,61,0.48,17.777,M,15.25,M,6,3335*44
$GNRMC,095916.000,A,2500.8243683,N,12132.4508894,E,2.08,221.70,120523,,,R,V*18
$GNGLL,2500.8240079,N,12132.4504396,E,095917.000,A,R*5A
$GNGGA,095917.000,2500.8240079,N,12132.4504396,E,4,61,0.48,17.812,M,15.25,M,1,3335*4B
$GNRMC,095917.000,A,2500.8240079,N,12132.4504396,E,1.81,226.69,120523,,,R,V*11
$GNGLL,2500.8236260,N,12132.4500559,E,095918.000,A,R*5F
$GNGGA,095918.000,2500.8236260,N,12132.4500559,E,4,60,0.48,17.799,M,15.25,M,1,3335*43
$GNRMC,095918.000,A,2500.8236260,N,12132.4500559,E,2.11,226.34,120523,,,R,V*16
$GNGLL,2500.8232577,N,12132.4496267,E,095919.000,A,R*5F
$GNGGA,095919.000,2500.8232577,N,12132.4496267,E,4,61,0.47,17.719,M,15.25,M,2,3335*46
$GNRMC,095919.000,A,2500.8232577,N,12132.4496267,E,1.98,219.21,120523,,,R,V*1C
$GNGSA,A,3,196,195,11,199,20,13,05,06,29,30,19,194,0.79,0.47,0.63,1*04
$GNGSA,A,3,12,,,,,,,,,,,,0.79,0.47,0.63,1*0A
$GNGSA,A,3,71,86,85,72,,,,,,,,,0.79,0.47,0.63,2*0A
$GNGSA,A,3,19,33,12,04,10,,,,,,,,0.79,0.47,0.63,3*05
$GNGSA,A,3,44,12,21,03,59,38,22,08,13,02,10,04,0.79,0.47,0.63,4*05
$GNGSA,A,3,07,60,35,40,34,39,42,,,,,,0.79,0.47,0.63,4*04
$GPGSV,5,1,17,196,74,062,41,195,71,114,43,11,60,042,43,199,60,167,38,1*59
$GPGSV,5,2,17,20,54,355,46,13,51,184,46,05,50,310,45,06,32,098,30,1*68
$GPGSV,5,3,17,15,26,216,32,29,22,318,37,30,17,099,24,19,16,156,28,1*61
$GPGSV,5,4,17,194,15,171,27,12,12,237,40,07,09,067,22,25,05,269,20,1*59
$GPGSV,5,5,17,09,01,037,,1*5E
$GPGSV,2,1,08,196,74,062,46,195,71,114,46,11,60,042,47,199,60,167,47,8*57
$GPGSV,2,2,08,06,32,098,36,30,17,099,24,194,15,171,29,25,05,269,22,8*5E
$GLGSV,2,1,05,71,67,348,44,86,60,004,44,85,55,113,45,72,48,237,43,1*7D
$GLGSV,2,2,05,87,10,331,,1*42
$GAGSV,2,1,07,19,78,090,37,33,54,078,41,12,48,341,39,04,34,207,40,7*77
$GAGSV,2,2,07,10,27,322,34,26,13,113,18,24,07,264,20,7*4B
$GAGSV,2,1,06,19,78,090,41,33,54,078,45,12,48,341,42,04,34,207,43,1*7A
$GAGSV,2,2,06,10,27,322,41,24,07,264,17,1*76
$GBGSV,6,1,22,44,88,169,45,12,66,328,42,21,65,274,46,03,60,206,41,1*75
$GBGSV,6,2,22,59,55,141,43,38,53,356,44,22,47,027,39,08,46,336,38,1*7B
$GBGSV,6,3,22,13,41,318,40,02,40,242,37,10,40,228,31,04,39,117,38,1*71
$GBGSV,6,4,22,07,37,208,39,60,37,247,40,35,35,142,44,40,35,197,42,1*7C
$GBGSV,6,5,22,34,34,320,39,39,32,170,40,42,19,239,39,05,16,258,34,1*71
$GBGSV,6,6,22,11,14,322,23,09,09,190,,1*79
$GBGSV,3,1,09,44,88,169,45,21,65,274,47,38,53,356,44,22,47,027,39,4*74
$GBGSV,3,2,09,40,35,197,43,35,35,142,43,34,34,320,37,39,32,170,40,4*7D
$GBGSV,3,3,09,42,19,239,46,4*4E
$GNGLL,2500.8229130,N,12132.4491990,E,095920.000,A,R*5C
$GNGGA,095920.000,2500.8229130,N,12132.4491990,E,4,62,0.47,17.812,M,15.25,M,2,3335*42
$GNRMC,095920.000,A,2500.8229130,N,12132.4491990,E,1.50,228.26,120523,,,R,V*1E
$GNGLL,2500.8225559,N,12132.4488155,E,095921.000,A,R*53
$GNGGA,095921.000,2500.8225559,N,12132.4488155,E,4,61,0.47,17.797,M,15.25,M,3,3335*4D
$GNRMC,095921.000,A,2500.8225559,N,12132.4488155,E,1.79,228.43,120523,,,R,V*19
$GNGLL,2500.8221927,N,12132.4483830,E,095922.000,A,R*50
$GNGGA,095922.000,2500.8221927,N,12132.4483830,E,4,61,0.47,17.764,M,15.25,M,4,3335*45
$GNRMC,095922.000,A,2500.8221927,N,12132.4483830,E,2.02,219.65,120523,,,R,V*13
$GNGLL,2500.8218428,N,12132.4479537,E,095923.000,A,R*56
$GNGGA,095923.000,2500.8218428,N,12132.4479537,E,4,61,0.47,17.828,M,15.25,M,5,3335*45
$GNRMC,095923.000,A,2500.8218428,N,12132.4479537,E,1.72,224.36,120523,,,R,V*19
$GNGLL,2500.8214538,N,12132.4475481,E,095924.000,A,R*5D
$GNGGA,095924.000,2500.8214538,N,12132.4475481,E,4,61,0.47,17.800,M,15.25,M,1,3335*40
$GNRMC,095924.000,A,2500.8214538,N,12132.4475481,E,2.01,228.99,120523,,,R,V*1C
$GNGSA,A,3,196,195,11,199,20,13,05,06,29,30,19,194,0.79,0.47,0.63,1*04
$GNGSA,A,3,12,,,,,,,,,,,,0.79,0.47,0.63,1*0A
$GNGSA,A,3,71,86,85,72,,,,,,,,,0.79,0.47,0.63,2*0A
$GNGSA,A,3,19,33,12,04,10,,,,,,,,0.79,0.47,0.63,3*05
$GNGSA,A,3,44,12,21,03,59,38,22,08,13,10,02,04,0.79,0.47,0.63,4*05
$GNGSA,A,3,60,07,40,35,34,39,42,,,,,,0.79,0.47,0.63,4*04
$GPGSV,5,1,17,196,74,062,41,195,71,114,43,11,60,042,44,199,60,167,37,1*51
$GPGSV,5,2,17,20,54,355,45,13,51,184,45,05,50,310,44,06,32,098,38,1*61
$GPGSV,5,3,17,15,26,216,28,29,23,318,42,30,18,098,29,19,16,156,40,1*64
$GPGSV,5,4,17,194,15,171,27,12,12,237,36,07,09,067,22,25,05,269,18,1*53
$GPGSV,5,5,17,09,01,037,,1*5E
$GPGSV,2,1,08,196,74,062,46,195,71,114,46,11,60,042,47,199,60,167,47,8*57
$GPGSV,2,2,08,06,32,098,48,30,18,098,19,194,15,171,32,25,05,269,21,8*5E
$GLGSV,1,1,04,71,67,348,43,86,60,004,44,85,55,113,45,72,48,237,43,1*78
$GAGSV,2,1,08,19,78,090,36,33,54,078,42,12,48,341,38,04,34,207,40,7*7B
$GAGSV,2,2,08,10,27,322,38,26,13,113,17,31,08,218,,24,07,264,20,7*76
$GAGSV,2,1,05,19,78,090,41,33,54,078,46,12,48,341,43,04,34,207,45,1*7D
$GAGSV,2,2,05,10,27,322,45,1*46
$GBGSV,6,1,22,44,88,169,45,12,66,328,42,21,65,274,46,03,60,206,40,1*74
$GBGSV,6,2,22,59,55,141,44,38,53,356,45,22,47,027,45,08,46,336,39,1*77
$GBGSV,6,3,22,13,41,318,41,10,40,228,20,02,40,242,38,04,39,117,38,1*7F
$GBGSV,6,4,22,60,37,247,40,07,37,208,37,40,35,197,43,35,35,142,42,1*75
$GBGSV,6,5,22,34,34,320,47,39,32,170,43,42,19,239,39,05,16,258,32,1*7D
$GBGSV,6,6,22,11,14,322,22,09,09,190,,1*78
$GBGSV,3,1,09,44,88,169,45,21,65,274,47,38,53,356,44,22,47,027,43,4*79
$GBGSV,3,2,09,35,35,142,38,40,35,197,42,34,34,320,43,39,32,170,41,4*72
$GBGSV,3,3,09,42,19,239,46,4*4E
$GNGLL,2500.8211049,N,12132.4471144,E,095925.000,A,R*52
$GNGGA,095925.000,2500.8211049,N,12132.4471144,E,4,61,0.47,17.752,M,15.25,M,2,3335*44
$GNRMC,095925.000,A,2500.8211049,N,12132.4471144,E,2.07,222.34,120523,,,R,V*18
$GNGLL,2500.8207398,N,12132.4466929,E,095926.000,A,R*5C
$GNGGA,095926.000,2500.8207398,N,12132.4466929,E,4,61,0.47,17.862,M,15.25,M,1,3335*45
$GNRMC,095926.000,A,2500.8207398,N,12132.4466929,E,1.75,226.62,120523,,,R,V*17
$GNGLL,2500.8203697,N,12132.4462634,E,095927.000,A,R*54
$GNGGA,095927.000,2500.8203697,N,12132.4462634,E,4,62,0.47,17.796,M,15.25,M,1,3335*4A
$GNRMC,095927.000,A,2500.8203697,N,12132.4462634,E,1.98,228.18,120523,,,R,V*1F
$GNGLL,2500.8199840,N,12132.4458187,E,095928.000,A,R*59
$GNGGA,095928.000,2500.8199840,N,12132.4458187,E,4,61,0.47,17.723,M,15.25,M,2,3335*49
$GNRMC,095928.000,A,2500.8199840,N,12132.4458187,E,2.03,224.46,120523,,,R,V*14
$GNGLL,2500.8196558,N,12132.4453568,E,095929.000,A,R*5D
$GNGGA,095929.000,2500.8196558,N,12132.4453568,E,4,62,0.47,17.828,M,15.25,M,3,3335*4B
$GNRMC,095929.000,A,2500.8196558,N,12132.4453568,E,1.68,223.83,120523,,,R,V*10
$GNGSA,A,3,196,195,11,199,20,13,05,06,29,30,19,194,0.79,0.47,0.63,1*04
$GNGSA,A,3,12,,,,,,,,,,,,0.79,0.47,0.63,1*0A
$GNGSA,A,3,71,86,85,72,,,,,,,,,0.79,0.47,0.63,2*0A
$GNGSA,A,3,19,33,12,04,10,,,,,,,,0.79,0.47,0.63,3*05
$GNGSA,A,3,44,12,21,03,59,38,22,08,13,10,02,04,0.79,0.47,0.63,4*05
$GNGSA,A,3,07,60,40,35,34,39,42,,,,,,0.79,0.47,0.63,4*04
$GPGSV,5,1,17,196,74,061,41,195,71,115,43,11,60,042,44,199,60,167,38,1*5C
$GPGSV,5,2,17,20,54,355,44,13,51,184,45,05,50,310,45,06,32,098,40,1*6E
$GPGSV,5,3,17,15,26,216,22,29,23,318,44,30,18,098,23,19,16,156,35,1*60
$GPGSV,5,4,17,194,15,171,25,12,12,237,34,07,09,067,,25,05,269,17,1*5C
$GPGSV,5,5,17,09,01,037,,1*5E
$GPGSV,2,1,08,196,74,061,46,195,71,115,46,11,60,042,48,199,60,167,47,8*5A
$GPGSV,2,2,08,06,32,098,45,30,18,098,24,194,15,171,29,25,05,269,16,8*53
$GLGSV,1,1,04,71,67,348,44,86,60,004,44,85,55,113,45,72,48,237,43,1*7F
$GAGSV,2,1,08,19,78,090,37,33,54,078,42,12,48,341,39,04,34,207,40,7*7B
$GAGSV,2,2,08,10,27,322,39,26,13,113,17,24,07,264,17,11,03,310,,7*73
$GAGSV,2,1,05,19,78,090,41,33,54,078,46,12,48,341,42,04,34,207,43,1*7A
$GAGSV,2,2,05,10,27,322,45,1*46
$GBGSV,6,1,21,44,88,169,46,12,66,328,42,21,65,274,46,03,60,206,41,1*75
$GBGSV,6,2,21,59,55,141,43,38,53,356,44,22,47,027,45,08,46,336,39,1*72
$GBGSV,6,3,21,13,41,318,41,10,40,228,19,02,40,242,37,04,39,117,39,1*78
$GBGSV,6,4,21,07,37,208,38,60,37,247,41,40,35,197,43,35,35,142,45,1*7F
$GBGSV,6,5,21,34,34,320,45,39,32,170,41,42,19,239,40,05,16,258,30,1*72
$GBGSV,6,6,21,11,14,322,21,1*40
$GBGSV,3,1,09,44,88,169,45,21,65,274,47,38,53,356,44,22,47,027,46,4*7C
$GBGSV,3,2,09,35,35,142,42,40,35,197,43,34,34,320,44,39,32,170,43,4*7B
$GBGSV,3,3,09,42,19,239,47,4*4F
$GNGLL,2500.8192675,N,12132.4449563,E,095930.000,A,R*5D
$GNGGA,095930.000,2500.8192675,N,12132.4449563,E,4,62,0.47,17.805,M,15.25,M,4,3335*43
$GNRMC,095930.000,A,2500.8192675,N,12132.4449563,E,1.99,229.76,120523,,,R,V*1E
$GNGLL,2500.8188885,N,12132.4445356,E,095931.000,A,R*5A
$GNGGA,095931.000,2500.8188885,N,12132.4445356,E,4,61,0.47,17.812,M,15.25,M,5,3335*40
$GNRMC,095931.000,A,2500.8188885,N,12132.4445356,E,1.73,215.65,120523,,,R,V*10
$GNGLL,2500.8185519,N,12132.4441041,E,095932.000,A,R*5D
$GNGGA,095932.000,2500.8185519,N,12132.4441041,E,4,62,0.47,17.811,M,15.25,M,6,3335*44
$GNRMC,095932.000,A,2500.8185519,N,12132.4441041,E,1.72,227.24,120523,,,R,V*12
$GNGLL,2500.8181665,N,12132.4437000,E,095933.000,A,R*54
$GNGGA,095933.000,2500.8181665,N,12132.4437000,E,4,61,0.47,17.792,M,15.25,M,2,3335*4E
$GNRMC,095933.000,A,2500.8181665,N,12132.4437000,E,1.99,228.53,120523,,,R,V*11
$GNGLL,2500.8177924,N,12132.4432638,E,095934.000,A,R*58
$GNGGA,095934.000,2500.8177924,N,12132.4432638,E,4,61,0.47,17.806,M,15.25,M,1,3335*43
$GNRMC,095934.000,A,2500.8177924,N,12132.4432638,E,1.81,224.35,120523,,,R,V*18
$GNGSA,A,3,196,195,11,199,20,13,05,06,29,30,19,194,0.79,0.47,0.63,1*04
$GNGSA,A,3,12,,,,,,,,,,,,0.79,0.47,0.63,1*0A
$GNGSA,A,3,71,86,85,72,,,,,,,,,0.79,0.47,0.63,2*0A
$GNGSA,A,3,19,33,12,04,10,,,,,,,,0.79,0.47,0.63,3*05
$GNGSA,A,3,44,12,21,03,59,38,22,08,13,02,04,07,0.79,0.47,0.63,4*03
$GNGSA,A,3,60,40,35,34,39,42,,,,,,,0.79,0.47,0.63,4*03
$GPGSV,5,1,17,196,74,061,41,195,71,115,43,11,60,042,45,199,60,167,37,1*52
$GPGSV,5,2,17,20,54,355,44,13,51,184,46,05,50,310,45,06,32,098,41,1*6C
$GPGSV,5,3,17,15,26,216,20,29,23,318,44,30,18,098,35,19,16,156,32,1*62
$GPGSV,5,4,17,194,15,171,25,12,12,237,27,07,09,067,,25,05,269,16,1*5F
$GPGSV,5,5,17,09,01,037,,1*5E
$GPGSV,2,1,07,196,74,061,47,195,71,115,46,11,60,042,48,199,60,167,47,8*54
$GPGSV,2,2,07,06,32,098,48,30,18,098,41,194,15,171,27,8*64
$GLGSV,1,1,04,71,67,348,45,86,60,004,44,85,55,113,45,72,48,237,42,1*7F
$GAGSV,2,1,08,19,78,090,37,33,54,078,41,12,48,341,38,04,34,207,40,7*79
$GAGSV,2,2,08,10,27,322,40,26,13,113,18,24,07,264,17,11,03,310,,7*72
$GAGSV,2,1,06,19,78,090,41,33,54,078,46,12,48,341,42,04,34,207,43,1*79
$GAGSV,2,2,06,10,27,322,46,24,07,264,16,1*70
$GBGSV,6,1,21,44,88,169,46,12,66,328,42,21,65,274,46,03,60,206,39,1*7A
$GBGSV,6,2,21,59,55,141,42,38,53,356,45,22,47,027,45,08,46,336,40,1*7C
$GBGSV,6,3,21,13,41,318,41,10,40,228,18,02,40,242,37,04,39,117,39,1*79
$GBGSV,6,4,21,07,37,208,37,60,37,247,40,40,35,197,43,35,35,142,45,1*71
$GBGSV,6,5,21,34,34,320,45,39,32,170,42,42,19,239,40,05,16,258,26,1*76
$GBGSV,6,6,21,11,14,322,21,1*40
$GBGSV,3,1,09,44,88,169,45,21,65,274,47,38,53,356,44,22,47,027,46,4*7C
$GBGSV,3,2,09,35,35,142,43,40,35,197,43,34,34,320,44,39,32,170,43,4*7A
$GBGSV,3,3,09,42,19,239,45,4*4D
$GNGLL,2500.8174523,N,12132.4428005,E,095935.000,A,R*52
$GNGGA,095935.000,2500.8174523,N,12132.4428005,E,4,60,0.47,17.801,M,15.25,M,2,3335*4C
$GNRMC,095935.000,A,2500.8174523,N,12132.4428005,E,1.87,230.35,120523,,,R,V*11
$GNGLL,2500.8170658,N,12132.4423777,E,095936.000,A,R*53
$GNGGA,095936.000,2500.8170658,N,12132.4423777,E,4,60,0.47,17.729,M,15.25,M,3,3335*49
$GNRMC,095936.000,A,2500.8170658,N,12132.4423777,E,2.08,230.19,120523,,,R,V*1A
$GNGLL,2500.8167001,N,12132.4419331,E,095937.000,A,R*51
$GNGGA,095937.000,2500.8167001,N,12132.4419331,E,4,60,0.48,17.801,M,15.25,M,3,3335*41
$GNRMC,095937.000,A,2500.8167001,N,12132.4419331,E,1.77,219.44,120523,,,R,V*10
$GNGLL,2500.8163429,N,12132.4414991,E,095938.000,A,R*59
$GNGGA,095938.000,2500.8163429,N,12132.4414991,E,4,59,0.49,17.808,M,15.25,M,2,3335*4A
$GNRMC,095938.000,A,2500.8163429,N,12132.4414991,E,1.92,221.52,120523,,,R,V*1F
$GNGLL,2500.8159611,N,12132.4410844,E,095939.000,A,R*55
$GNGGA,095939.000,2500.8159611,N,12132.4410844,E,4,61,0.47,17.785,M,15.25,M,3,3335*48
$GNRMC,095939.000,A,2500.8159611,N,12132.4410844,E,1.81,227.48,120523,,,R,V*1C
$GNGSA,A,3,196,195,199,11,20,13,05,06,29,30,19,194,0.81,0.48,0.65,1*0A
$GNGSA,A,3,71,86,85,72,,,,,,,,,0.81,0.48,0.65,2*04
$GNGSA,A,3,19,33,12,04,10,,,,,,,,0.81,0.48,0.65,3*0B
$GNGSA,A,3,44,12,21,03,59,38,22,08,13,10,02,04,0.81,0.48,0.65,4*0B
$GNGSA,A,3,60,07,40,35,34,39,42,,,,,,0.81,0.48,0.65,4*0A
$GPGSV,5,1,17,196,74,061,42,195,71,115,43,199,60,167,38,11,60,042,45,1*5E
$GPGSV,5,2,17,20,54,355,45,13,51,184,45,05,50,310,45,06,32,098,41,1*6E
$GPGSV,5,3,17,15,26,216,19,29,23,318,44,30,18,098,39,19,16,156,26,1*61
$GPGSV,5,4,17,194,15,171,24,12,12,237,20,07,09,067,23,25,05,269,17,1*59
$GPGSV,5,5,17,09,01,037,,1*5E
$GPGSV,2,1,08,196,74,061,47,195,71,115,46,11,60,042,48,199,60,167,48,8*54
$GPGSV,2,2,08,06,32,098,48,30,18,098,45,194,15,171,27,25,05,269,19,8*58
$GLGSV,1,1,04,71,67,348,45,86,60,004,44,85,55,113,44,72,48,237,39,1*72
$GAGSV,2,1,07,19,78,090,37,33,54,078,41,12,48,341,39,04,35,208,37,7*79
$GAGSV,2,2,07,10,27,322,39,26,13,113,20,24,07,264,15,7*4B
$GAGSV,2,1,05,19,78,090,41,33,54,078,46,12,48,341,42,04,35,208,40,1*77
$GAGSV,2,2,05,10,27,322,45,1*46
$GBGSV,6,1,21,44,88,169,46,12,66,328,42,21,65,274,46,03,60,206,39,1*7A
$GBGSV,6,2,21,59,55,141,42,38,53,356,45,22,47,027,45,08,46,336,40,1*7C
$GBGSV,6,3,21,13,41,318,42,10,40,228,17,02,40,242,37,04,39,117,39,1*75
$GBGSV,6,4,21,60,37,247,40,07,37,208,31,40,35,197,42,35,35,142,44,1*77
$GBGSV,6,5,21,34,34,320,45,39,32,170,42,42,19,239,39,05,16,258,,1*7C
$GBGSV,6,6,21,11,14,322,22,1*43
$GBGSV,3,1,09,44,88,169,45,21,65,274,47,38,53,356,44,22,47,027,45,4*7F
$GBGSV,3,2,09,35,35,142,44,40,35,197,43,34,34,320,45,39,32,170,42,4*7D
$GBGSV,3,3,09,42,19,239,41,4*49
$GNGLL,2500.8155780,N,12132.4406646,E,095940.000,A,R*55
$GNGGA,095940.000,2500.8155780,N,12132.4406646,E,4,61,0.48,17.838,M,15.25,M,4,3335*49
$GNRMC,095940.000,A,2500.8155780,N,12132.4406646,E,1.82,228.68,120523,,,R,V*12
$GNGLL,2500.8152079,N,12132.4402132,E,095941.000,A,R*52
$GNGGA,095941.000,2500.8152079,N,12132.4402132,E,4,62,0.47,17.824,M,15.25,M,5,3335*4E
$GNRMC,095941.000,A,2500.8152079,N,12132.4402132,E,2.00,223.11,120523,,,R,V*19
$PAIR010,0,0,2261,467999*30
$PAIR010,0,1,2261,467999*31
$GNGLL,2500.8148100,N,12132.4397819,E,095942.000,A,R*5E
$GNGGA,095942.000,2500.8148100,N,12132.4397819,E,4,61,0.48,17.802,M,15.25,M,6,3335*49
