$FW : RTK35X,V1.1X0314AS,Lib20210517,1*54
$Tool : LOCOSYS , GNSS Firebird , v1.0.0.19*39
$---------------------------------------------------*2D
$GPHDT,316.659,T*3B
$GNACCURACY,2.3*17
$GNGGA,114952.900,2500.8245944,N,12132.4587104,E,4,64,0.45,16.090,M,15.25,M,24,3335*77
$GNRMC,114952.900,A,2500.8245944,N,12132.4587104,E,0.01,222.33,260623,,,R,V*17
$GPHDT,,T*1B
$GNACCURACY,2.3*17
$GNGGA,114953.000,2500.8245948,N,12132.4587124,E,4,64,0.45,16.093,M,15.25,M,25,3335*73
$GNRMC,114953.000,A,2500.8245948,N,12132.4587124,E,0.02,222.33,260623,,,R,V*12
$GPHDT,316.491,T*3D
$GNACCURACY,2.3*17
$GNGGA,114953.100,2500.8245948,N,12132.4586981,E,4,63,0.46,16.100,M,15.25,M,25,3335*7B
$GNRMC,114953.100,A,2500.8245948,N,12132.4586981,E,0.02,222.33,260623,,,R,V*15
$GPHDT,,T*1B
$GNGSA,A,3,196,24,23,199,18,194,15,195,12,10,25,32,0.75,0.46,0.59,1*0D
$GNGSA,A,3,73,80,86,85,71,,,,,,,,0.75,0.46,0.59,2*07
$GNGSA,A,3,13,07,08,26,30,02,15,,,,,,0.75,0.46,0.59,3*03
$GNGSA,A,3,08,38,13,39,16,06,46,19,09,36,20,35,0.75,0.46,0.59,4*00
$GNGSA,A,3,22,29,,,,,,,,,,,0.75,0.46,0.59,4*03
$GPGSV,4,1,16,196,76,072,23,24,63,034,38,23,60,346,27,199,60,167,36,1*63
$GPGSV,4,2,16,18,52,228,43,41,38,242,40,194,35,136,42,15,32,058,27,1*5F
$GPGSV,4,3,16,195,30,179,36,12,27,132,42,10,26,323,46,25,17,171,23,1*52
$GPGSV,4,4,16,32,14,278,29,05,12,126,18,13,03,064,,28,02,221,,1*61
$GPGSV,3,1,10,196,76,072,34,24,63,034,35,23,60,346,28,199,60,167,46,8*68
$GPGSV,3,2,10,18,52,228,46,194,35,136,42,195,30,179,30,10,26,323,41,8*61
$GPGSV,3,3,10,25,17,171,22,32,14,278,35,8*65
$GLGSV,2,1,07,73,51,152,44,80,45,057,24,86,28,288,41,85,27,234,22,1*79
$GLGSV,2,2,07,71,26,326,37,69,09,085,18,79,03,026,,1*45
$GAGSV,3,1,09,13,48,221,42,07,46,315,43,08,43,035,27,26,35,297,42,7*70
$GAGSV,3,2,09,30,33,137,43,02,27,076,15,15,15,173,18,27,07,184,,7*7B
$GAGSV,3,3,09,03,07,071,,7*48
$GAGSV,2,1,06,13,48,221,45,07,46,315,43,08,43,035,27,26,35,297,39,1*73
$GAGSV,2,2,06,30,33,137,41,02,27,076,23,1*77
$GBGSV,4,1,15,08,85,348,39,38,81,154,43,13,72,323,43,39,69,297,44,1*79
$GBGSV,4,2,15,16,66,272,43,06,64,267,42,46,62,090,33,19,53,358,36,1*78
$GBGSV,4,3,15,09,50,247,38,36,45,183,44,20,40,076,32,35,18,259,40,1*7E
$GBGSV,4,4,15,22,17,308,37,37,16,042,18,29,12,205,21,1*4B
$GBGSV,3,1,09,38,81,154,44,39,69,297,46,46,62,090,40,19,53,358,28,4*70
$GBGSV,3,2,09,36,45,183,45,20,40,076,28,35,18,259,38,22,17,308,34,4*79
$GBGSV,3,3,09,29,12,205,12,4*46
$GNACCURACY,2.3*17
$PAIRSAT,1,35,1,0,200,2,0,200,3,0,200,4,0,200,5,0,201,6,0,200,7,0,200,8,0,200,9,0,200,10,0,221,11,0,200,12,0,201,13,0,201,14,0,200,15,0,201,16,0,200,17,0,200,18,0,221,19,0,200,20,0,200,21,0,200,23,0,221,24,0,221,25,0,220,26,0,200,27,0,200,28,0,200,29,0,200,30,0,200,31,0,200,32,0,221,194,0,621,195,0,621,196,0,620,199,0,621*6A
$PAIRSAT,2,24,65,0,200,66,0,200,67,0,200,68,0,200,69,0,200,70,0,200,71,0,201,72,0,200,73,0,201,74,0,200,75,0,200,76,0,200,77,0,200,78,0,200,79,0,201,80,0,201,81,0,200,82,0,200,83,0,200,84,0,200,85,0,201,86,0,201,87,0,200,88,0,200*7A
$PAIRSAT,3,23,2,0,1221,3,0,1221,4,0,1200,5,0,200,7,0,1221,8,0,1221,9,0,1200,10,0,1200,11,0,1200,12,0,1200,13,0,1221,15,0,1221,19,0,1200,21,0,1200,24,0,1200,25,0,1200,26,0,1221,27,0,1200,30,0,1221,31,0,1200,33,0,1200,34,0,1200,36,0,1200*6A
$PAIRSAT,4,50,1,0,200,2,0,200,3,0,200,4,0,200,5,0,200,6,0,201,7,0,200,8,0,201,9,0,201,10,0,200,11,0,200,12,0,200,13,0,201,14,0,200,15,0,200,16,0,201,19,0,621,20,0,621,21,0,600,22,0,621,23,0,600,24,0,600,25,0,600,26,0,600,27,0,600,28,0,600,29,0,621,30,0,600,31,0,200,32,0,600,33,0,600,34,0,600,35,0,621,36,0,621,37,0,621,38,0,621,39,0,621,40,0,600,41,0,600,42,0,600,43,0,600,44,0,600,45,0,600,46,0,621,56,0,200,57,0,200,58,0,200,59,0,600,60,0,600,61,0,600*41
$PAIRDGP,10,5,10,12,15,18,23,24,25,28,32*45
$GNGGA,114953.200,2500.8245938,N,12132.4586985,E,4,62,0.46,16.103,M,15.25,M,25,3335*79
$GNRMC,114953.200,A,2500.8245938,N,12132.4586985,E,0.02,222.33,260623,,,R,V*15
$GPHDT,316.642,T*31
$GNACCURACY,2.3*17
$GNGGA,114953.300,2500.8245937,N,12132.4587048,E,4,63,0.45,16.091,M,15.25,M,25,3335*76
$GNRMC,114953.300,A,2500.8245937,N,12132.4587048,E,0.02,222.33,260623,,,R,V*12
$GPHDT,,T*1B
$GNACCURACY,2.3*17
$GNGGA,114953.400,2500.8245955,N,12132.4587079,E,4,64,0.45,16.087,M,15.25,M,25,3335*77
$GNRMC,114953.400,A,2500.8245955,N,12132.4587079,E,0.02,222.33,260623,,,R,V*13
$GPHDT,316.320,T*30
$GNACCURACY,2.3*17
$GNGGA,114953.500,2500.8245931,N,12132.4587088,E,4,63,0.46,16.075,M,15.25,M,25,3335*73
$GNRMC,114953.500,A,2500.8245931,N,12132.4587088,E,0.02,222.33,260623,,,R,V*1E
$GPHDT,,T*1B
$GNACCURACY,2.3*17
$GNGGA,114953.600,2500.8245946,N,12132.4587083,E,4,63,0.46,16.081,M,15.25,M,25,3335*70
$GNRMC,114953.600,A,2500.8245946,N,12132.4587083,E,0.02,222.33,260623,,,R,V*16
$GPHDT,316.509,T*3D
$GNACCURACY,2.3*17
$GNGGA,114953.700,2500.8245946,N,12132.4587068,E,4,63,0.46,16.076,M,15.25,M,25,3335*7C
$GNRMC,114953.700,A,2500.8245946,N,12132.4587068,E,0.02,222.33,260623,,,R,V*12
$GPHDT,,T*1B
$GNACCURACY,2.3*17
$GNGGA,114953.800,2500.8245934,N,12132.4587086,E,4,63,0.46,16.077,M,15.25,M,25,3335*77
$GNRMC,114953.800,A,2500.8245934,N,12132.4587086,E,0.02,222.33,260623,,,R,V*18
$GPHDT,316.876,T*38
$GNACCURACY,2.3*17
$GNGGA,114953.900,2500.8245925,N,12132.4587011,E,4,65,0.45,16.079,M,15.25,M,25,3335*73
$GNRMC,114953.900,A,2500.8245925,N,12132.4587011,E,0.02,222.33,260623,,,R,V*17
$GPHDT,,T*1B
$GNACCURACY,2.3*17
$GNGGA,114954.000,2500.8245933,N,12132.4587065,E,4,65,0.45,16.080,M,15.25,M,26,3335*7C
$GNRMC,114954.000,A,2500.8245933,N,12132.4587065,E,0.02,222.33,260623,,,R,V*1D
$GPHDT,316.640,T*33
$GNACCURACY,2.3*17
$GNGGA,114954.100,2500.8245928,N,12132.4587046,E,4,65,0.45,16.084,M,15.25,M,26,3335*72
$GNRMC,114954.100,A,2500.8245928,N,12132.4587046,E,0.02,222.33,260623,,,R,V*17
$GPHDT,,T*1B
$GNGSA,A,3,196,24,23,199,18,194,15,195,12,10,25,32,0.72,0.45,0.56,1*06
$GNGSA,A,3,73,80,86,85,71,,,,,,,,0.72,0.45,0.56,2*0C
$GNGSA,A,3,13,07,08,26,30,02,15,,,,,,0.72,0.45,0.56,3*08
$GNGSA,A,3,08,38,13,39,16,06,46,19,09,36,20,35,0.72,0.45,0.56,4*0B
$GNGSA,A,3,22,29,37,,,,,,,,,,0.72,0.45,0.56,4*0C
$GPGSV,4,1,16,196,76,072,21,24,63,034,38,23,60,346,27,199,60,167,35,1*62
$GPGSV,4,2,16,18,52,228,43,41,38,242,40,194,35,136,42,15,32,058,27,1*5F
$GPGSV,4,3,16,195,30,179,35,12,27,132,42,10,26,323,46,25,17,171,20,1*52
$GPGSV,4,4,16,32,14,278,28,05,12,126,17,13,03,064,,28,02,221,,1*6F
$GPGSV,3,1,10,196,76,072,34,24,63,034,35,23,60,346,29,199,60,167,46,8*69
$GPGSV,3,2,10,18,52,228,46,194,35,136,42,195,30,179,33,10,26,323,41,8*62
$GPGSV,3,3,10,25,17,171,23,32,14,278,35,8*64
$GLGSV,2,1,08,73,51,152,44,80,45,057,24,70,42,026,,86,28,288,41,1*7E
$GLGSV,2,2,08,85,27,234,21,71,26,326,37,69,09,085,18,79,03,026,,1*74
$GAGSV,3,1,09,13,48,221,42,07,46,315,43,08,43,035,27,26,35,297,42,7*70
$GAGSV,3,2,09,30,33,137,43,02,27,076,17,15,15,173,22,27,07,184,,7*70
$GAGSV,3,3,09,03,07,071,,7*48
$GAGSV,2,1,07,13,48,221,45,07,46,315,43,08,43,035,28,26,35,297,39,1*7D
$GAGSV,2,2,07,30,33,137,41,02,27,076,24,15,15,173,22,1*44
$GBGSV,4,1,16,08,85,348,39,38,81,154,43,13,72,323,43,39,69,297,44,1*7A
$GBGSV,4,2,16,16,66,272,43,06,64,267,42,46,62,090,33,19,53,358,36,1*7B
$GBGSV,4,3,16,09,50,247,38,56,47,317,,36,45,183,44,20,40,076,33,1*7C
$GBGSV,4,4,16,35,18,259,39,22,17,308,37,37,16,042,16,29,12,205,23,1*7F
$GBGSV,3,1,10,38,81,154,44,39,69,297,46,46,62,090,40,19,53,358,26,4*76
$GBGSV,3,2,10,36,45,183,45,20,40,076,29,35,18,259,38,22,17,308,34,4*70
$GBGSV,3,3,10,37,16,042,30,29,12,205,12,4*78
$GNACCURACY,2.3*17
$PAIRSAT,1,35,1,0,200,2,0,200,3,0,200,4,0,200,5,0,201,6,0,200,7,0,200,8,0,200,9,0,200,10,0,221,11,0,200,12,0,201,13,0,201,14,0,200,15,0,201,16,0,200,17,0,200,18,0,221,19,0,200,20,0,200,21,0,200,23,0,221,24,0,221,25,0,220,26,0,200,27,0,200,28,0,200,29,0,200,30,0,200,31,0,200,32,0,221,194,0,621,195,0,621,196,0,620,199,0,621*6A
$PAIRSAT,2,24,65,0,200,66,0,200,67,0,200,68,0,200,69,0,200,70,0,200,71,0,201,72,0,200,73,0,201,74,0,200,75,0,200,76,0,200,77,0,200,78,0,200,79,0,201,80,0,201,81,0,200,82,0,200,83,0,200,84,0,200,85,0,201,86,0,201,87,0,200,88,0,200*7A
$PAIRSAT,3,23,2,0,1221,3,0,1221,4,0,1200,5,0,200,7,0,1221,8,0,1221,9,0,1200,10,0,1200,11,0,1200,12,0,1200,13,0,1221,15,0,1221,19,0,1200,21,0,1200,24,0,1200,25,0,1200,26,0,1221,27,0,1200,30,0,1221,31,0,1200,33,0,1200,34,0,1200,36,0,1200*6A
$PAIRSAT,4,50,1,0,200,2,0,200,3,0,200,4,0,200,5,0,200,6,0,201,7,0,200,8,0,201,9,0,201,10,0,200,11,0,200,12,0,200,13,0,201,14,0,200,15,0,200,16,0,201,19,0,621,20,0,621,21,0,600,22,0,621,23,0,600,24,0,600,25,0,600,26,0,600,27,0,600,28,0,600,29,0,621,30,0,600,31,0,200,32,0,600,33,0,600,34,0,600,35,0,621,36,0,621,37,0,621,38,0,621,39,0,621,40,0,600,41,0,600,42,0,600,43,0,600,44,0,600,45,0,600,46,0,621,56,0,200,57,0,200,58,0,200,59,0,600,60,0,600,61,0,600*41
$PAIRDGP,10,5,10,12,15,18,23,24,25,28,32*45
$GNGGA,114954.200,2500.8245915,N,12132.4587095,E,4,65,0.45,16.066,M,15.25,M,26,3335*7D
$GNRMC,114954.200,A,2500.8245915,N,12132.4587095,E,0.02,222.33,260623,,,R,V*14
$GPHDT,316.926,T*3C
$GNACCURACY,2.3*17
$GNGGA,114954.300,2500.8245936,N,12132.4587048,E,4,65,0.45,16.079,M,15.25,M,26,3335*73
$GNRMC,114954.300,A,2500.8245936,N,12132.4587048,E,0.02,222.33,260623,,,R,V*14
$GPHDT,,T*1B
$GNACCURACY,2.3*17
$GNGGA,114954.400,2500.8245920,N,12132.4587058,E,4,65,0.45,16.087,M,15.25,M,26,3335*73
$GNRMC,114954.400,A,2500.8245920,N,12132.4587058,E,0.02,222.33,260623,,,R,V*15
$GPHDT,316.993,T*32
$GNACCURACY,2.3*17
$GNGGA,114954.500,2500.8245954,N,12132.4587009,E,4,65,0.45,16.092,M,15.25,M,26,3335*71
$GNRMC,114954.500,A,2500.8245954,N,12132.4587009,E,0.02,222.33,260623,,,R,V*13
$GPHDT,,T*1B
$GNACCURACY,2.2*16
$GNGGA,114954.600,2500.8245938,N,12132.4587054,E,4,64,0.45,16.081,M,15.25,M,26,3335*73
$GNRMC,114954.600,A,2500.8245938,N,12132.4587054,E,0.02,222.33,260623,,,R,V*12
$GPHDT,316.626,T*33
$GNACCURACY,2.2*16
$GNGGA,114954.700,2500.8245940,N,12132.4587096,E,4,64,0.45,16.080,M,15.25,M,26,3335*72
$GNRMC,114954.700,A,2500.8245940,N,12132.4587096,E,0.02,222.33,260623,,,R,V*12
$GPHDT,,T*1B
$GNACCURACY,2.2*16
$GNGGA,114954.800,2500.8245931,N,12132.4587044,E,4,64,0.45,16.088,M,15.25,M,26,3335*7C
$GNRMC,114954.800,A,2500.8245931,N,12132.4587044,E,0.02,222.33,260623,,,R,V*14
$GPHDT,316.578,T*3B
$GNACCURACY,2.2*16
$GNGGA,114954.900,2500.8245935,N,12132.4587071,E,4,64,0.45,16.084,M,15.25,M,26,3335*73
$GNRMC,114954.900,A,2500.8245935,N,12132.4587071,E,0.02,222.33,260623,,,R,V*17
$GPHDT,,T*1B
$GNACCURACY,2.2*16
$GNGGA,114955.000,2500.8245923,N,12132.4587031,E,4,65,0.45,16.073,M,15.25,M,27,3335*70
$GNRMC,114955.000,A,2500.8245923,N,12132.4587031,E,0.02,222.33,260623,,,R,V*1C
$GPHDT,316.531,T*36
$GNACCURACY,2.2*16
$GNGGA,114955.100,2500.8245931,N,12132.4587073,E,4,65,0.45,16.079,M,15.25,M,27,3335*7E
$GNRMC,114955.100,A,2500.8245931,N,12132.4587073,E,0.01,222.33,260623,,,R,V*1B
$GPHDT,,T*1B
$GNGSA,A,3,196,24,23,199,18,194,15,195,12,10,25,32,0.72,0.45,0.56,1*06
$GNGSA,A,3,73,80,86,85,71,,,,,,,,0.72,0.45,0.56,2*0C
$GNGSA,A,3,13,07,08,26,30,02,15,,,,,,0.72,0.45,0.56,3*08
$GNGSA,A,3,08,38,13,39,16,06,46,19,09,36,20,35,0.72,0.45,0.56,4*0B
$GNGSA,A,3,22,37,29,,,,,,,,,,0.72,0.45,0.56,4*0C
$GPGSV,4,1,16,196,76,072,19,24,63,034,38,23,60,346,27,199,60,167,35,1*69
$GPGSV,4,2,16,18,52,228,43,41,38,242,39,194,35,136,41,15,32,058,28,1*5D
$GPGSV,4,3,16,195,30,179,35,12,27,132,42,10,26,323,46,25,17,171,21,1*53
$GPGSV,4,4,16,32,14,278,28,05,12,126,17,13,03,064,,28,02,221,,1*6F
$GPGSV,3,1,10,196,76,072,34,24,63,034,35,23,60,346,29,199,60,167,47,8*68
$GPGSV,3,2,10,18,52,228,46,194,35,136,42,195,30,179,34,10,26,323,41,8*65
$GPGSV,3,3,10,25,17,171,25,32,14,278,35,8*62
$GLGSV,3,1,09,73,51,152,44,80,45,057,24,70,42,026,,86,28,288,41,1*7E
$GLGSV,3,2,09,85,27,234,22,71,26,326,37,74,13,185,,69,09,085,18,1*73
$GLGSV,3,3,09,79,03,026,,1*48
$GAGSV,3,1,09,13,48,221,42,07,46,315,43,08,43,035,29,26,35,297,42,7*7E
$GAGSV,3,2,09,30,33,137,43,02,27,076,17,15,15,173,21,27,07,184,,7*73
$GAGSV,3,3,09,03,07,071,,7*48
$GAGSV,2,1,07,13,48,221,45,07,46,315,44,08,43,035,28,26,35,297,39,1*7A
$GAGSV,2,2,07,30,33,137,41,02,27,076,24,15,15,173,25,1*43
$GBGSV,4,1,15,08,85,348,39,38,81,154,43,13,72,323,43,39,69,297,44,1*79
$GBGSV,4,2,15,16,66,272,43,06,64,267,41,46,62,090,33,19,53,358,35,1*78
$GBGSV,4,3,15,09,50,247,38,36,45,183,44,20,40,076,32,35,18,259,39,1*70
$GBGSV,4,4,15,22,17,308,37,37,16,042,16,29,12,205,23,1*47
$GBGSV,3,1,09,38,81,154,44,39,69,297,46,46,62,090,41,19,53,358,26,4*7F
$GBGSV,3,2,09,36,45,183,45,20,40,076,29,35,18,259,38,22,17,308,34,4*78
$GBGSV,3,3,09,37,16,042,30,4*4C
$GNACCURACY,2.2*16
$PAIRSAT,1,35,1,0,200,2,0,200,3,0,200,4,0,200,5,0,201,6,0,200,7,0,200,8,0,200,9,0,200,10,0,221,11,0,200,12,0,201,13,0,201,14,0,200,15,0,201,16,0,200,17,0,200,18,0,221,19,0,200,20,0,200,21,0,200,23,0,221,24,0,221,25,0,220,26,0,200,27,0,200,28,0,200,29,0,200,30,0,200,31,0,200,32,0,221,194,0,621,195,0,621,196,0,620,199,0,621*6A
$PAIRSAT,2,24,65,0,200,66,0,200,67,0,200,68,0,200,69,0,200,70,0,200,71,0,201,72,0,200,73,0,201,74,0,200,75,0,200,76,0,200,77,0,200,78,0,200,79,0,201,80,0,201,81,0,200,82,0,200,83,0,200,84,0,200,85,0,201,86,0,201,87,0,200,88,0,200*7A
$PAIRSAT,3,23,2,0,1221,3,0,1221,4,0,1200,5,0,200,7,0,1221,8,0,1221,9,0,1200,10,0,1200,11,0,1200,12,0,1200,13,0,1221,15,0,1221,19,0,1200,21,0,1200,24,0,1200,25,0,1200,26,0,1221,27,0,1200,30,0,1221,31,0,1200,33,0,1200,34,0,1200,36,0,1200*6A
$PAIRSAT,4,50,1,0,200,2,0,200,3,0,200,4,0,200,5,0,200,6,0,201,7,0,200,8,0,201,9,0,201,10,0,200,11,0,200,12,0,200,13,0,201,14,0,200,15,0,200,16,0,201,19,0,621,20,0,621,21,0,600,22,0,621,23,0,600,24,0,600,25,0,600,26,0,600,27,0,600,28,0,600,29,0,621,30,0,600,31,0,200,32,0,600,33,0,600,34,0,600,35,0,621,36,0,621,37,0,621,38,0,621,39,0,621,40,0,600,41,0,600,42,0,600,43,0,600,44,0,600,45,0,600,46,0,621,56,0,200,57,0,200,58,0,200,59,0,600,60,0,600,61,0,600*41
$PAIRDGP,10,5,10,12,15,18,23,24,25,28,32*45
$GNGGA,114955.200,2500.8245913,N,12132.4587062,E,4,65,0.45,16.086,M,15.25,M,27,3335*7D
$GNRMC,114955.200,A,2500.8245913,N,12132.4587062,E,0.01,222.33,260623,,,R,V*18
$GPHDT,316.878,T*36
$GNACCURACY,2.2*16
$GNGGA,114955.300,2500.8245940,N,12132.4587085,E,4,65,0.45,16.067,M,15.25,M,27,3335*7C
$GNRMC,114955.300,A,2500.8245940,N,12132.4587085,E,0.01,222.33,260623,,,R,V*16
$GPHDT,,T*1B
$GNACCURACY,2.2*16
$GNGGA,114955.400,2500.8245937,N,12132.4587015,E,4,65,0.45,16.087,M,15.25,M,27,3335*7C
$GNRMC,114955.400,A,2500.8245937,N,12132.4587015,E,0.01,222.33,260623,,,R,V*18
$GPHDT,316.484,T*39
$GNACCURACY,2.2*16
$GNGGA,114955.500,2500.8245925,N,12132.4587021,E,4,65,0.45,16.087,M,15.25,M,27,3335*79
$GNRMC,114955.500,A,2500.8245925,N,12132.4587021,E,0.01,222.33,260623,,,R,V*1D
$GPHDT,,T*1B
$GNACCURACY,2.2*16
$GNGGA,114955.600,2500.8245932,N,12132.4587004,E,4,65,0.45,16.091,M,15.25,M,27,3335*7C
$GNRMC,114955.600,A,2500.8245932,N,12132.4587004,E,0.01,222.33,260623,,,R,V*1F
$GPHDT,316.394,T*3F
$GNACCURACY,2.2*16
$GNGGA,114955.700,2500.8245930,N,12132.4587615,E,4,65,0.45,16.050,M,15.25,M,0,3335*41
$GNRMC,114955.700,A,2500.8245930,N,12132.4587615,E,0.01,222.33,260623,,,R,V*1A
$GPHDT,,T*1B
$GNACCURACY,2.2*16
$GNGGA,114955.800,2500.8245848,N,12132.4587703,E,4,65,0.45,16.041,M,15.25,M,0,3335*46
$GNRMC,114955.800,A,2500.8245848,N,12132.4587703,E,0.00,222.33,260623,,,R,V*1C
$GPHDT,316.493,T*3F
$GNACCURACY,2.2*16
$GNGGA,114955.900,2500.8245812,N,12132.4587732,E,4,65,0.45,16.031,M,15.25,M,0,3335*4D
$GNRMC,114955.900,A,2500.8245812,N,12132.4587732,E,0.02,222.33,260623,,,R,V*12
$GPHDT,,T*1B
$GNACCURACY,2.2*16
$GNGGA,114956.000,2500.8245843,N,12132.4587795,E,4,65,0.45,15.991,M,15.25,M,1,3335*4F
$GNRMC,114956.000,A,2500.8245843,N,12132.4587795,E,0.01,222.33,260623,,,R,V*12
$GPHDT,316.350,T*37
$GNACCURACY,2.2*16
$GNGGA,114956.100,2500.8245854,N,12132.4587747,E,4,65,0.45,15.953,M,15.25,M,1,3335*49
$GNRMC,114956.100,A,2500.8245854,N,12132.4587747,E,0.01,222.33,260623,,,R,V*1A
$GPHDT,,T*1B
$GNGSA,A,3,196,24,23,199,18,194,15,195,12,10,25,32,0.72,0.45,0.56,1*06
$GNGSA,A,3,73,80,86,85,71,,,,,,,,0.72,0.45,0.56,2*0C
$GNGSA,A,3,13,07,08,26,30,02,15,,,,,,0.72,0.45,0.56,3*08
$GNGSA,A,3,08,38,13,39,16,06,46,19,09,36,20,35,0.72,0.45,0.56,4*0B
$GNGSA,A,3,22,37,29,,,,,,,,,,0.72,0.45,0.56,4*0C
$GPGSV,4,1,16,196,76,072,19,24,63,034,38,23,60,346,27,199,60,167,36,1*6A
$GPGSV,4,2,16,18,52,228,43,41,38,242,41,194,35,136,41,15,32,058,27,1*5D
$GPGSV,4,3,16,195,30,179,36,12,27,132,42,10,26,323,46,25,17,171,22,1*53
$GPGSV,4,4,16,32,14,278,30,05,12,126,16,13,02,064,,28,02,221,,1*66
$GPGSV,3,1,10,196,76,072,34,24,63,034,35,23,60,346,27,199,60,167,46,8*67
$GPGSV,3,2,10,18,52,228,46,194,35,136,42,195,30,179,33,10,26,323,41,8*62
$GPGSV,3,3,10,25,17,171,26,32,14,278,36,8*62
$GLGSV,2,1,08,73,51,152,44,80,45,057,25,70,42,026,,86,28,288,41,1*7F
$GLGSV,2,2,08,85,27,234,20,71,26,326,37,69,09,085,17,79,03,026,,1*7A
$GAGSV,3,1,09,13,48,221,42,07,46,315,43,08,43,035,28,26,35,297,42,7*7F
$GAGSV,3,2,09,30,33,137,43,02,27,076,17,15,15,173,20,27,07,184,,7*72
$GAGSV,3,3,09,03,07,071,,7*48
$GAGSV,2,1,07,13,48,221,45,07,46,315,44,08,43,035,28,26,35,297,39,1*7A
$GAGSV,2,2,07,30,33,137,41,02,27,076,22,15,15,173,21,1*41
$GBGSV,4,1,15,08,85,348,39,38,81,154,43,13,72,323,43,39,69,297,44,1*79
$GBGSV,4,2,15,16,66,272,43,06,64,267,41,46,62,090,32,19,53,358,35,1*79
$GBGSV,4,3,15,09,50,247,38,36,45,183,44,20,40,076,31,35,18,259,40,1*7D
$GBGSV,4,4,15,22,17,308,37,37,16,042,17,29,12,205,23,1*46
$GBGSV,3,1,09,38,81,154,44,39,69,297,46,46,62,090,40,19,53,358,26,4*7E
$GBGSV,3,2,09,36,45,183,45,20,40,076,26,35,18,259,38,22,17,308,34,4*77
$GBGSV,3,3,09,37,16,042,31,4*4D
$GNACCURACY,2.2*16
$PAIRSAT,1,35,1,0,200,2,0,200,3,0,200,4,0,200,5,0,201,6,0,200,7,0,200,8,0,200,9,0,200,10,0,221,11,0,200,12,0,201,13,0,201,14,0,200,15,0,201,16,0,200,17,0,200,18,0,221,19,0,200,20,0,200,21,0,200,23,0,221,24,0,221,25,0,220,26,0,200,27,0,200,28,0,200,29,0,200,30,0,200,31,0,200,32,0,221,194,0,621,195,0,621,196,0,620,199,0,621*6A
$PAIRSAT,2,24,65,0,200,66,0,200,67,0,200,68,0,200,69,0,200,70,0,200,71,0,201,72,0,200,73,0,201,74,0,200,75,0,200,76,0,200,77,0,200,78,0,200,79,0,201,80,0,201,81,0,200,82,0,200,83,0,200,84,0,200,85,0,201,86,0,201,87,0,200,88,0,200*7A
$PAIRSAT,3,23,2,0,1221,3,0,1221,4,0,1200,5,0,200,7,0,1221,8,0,1221,9,0,1200,10,0,1200,11,0,1200,12,0,1200,13,0,1221,15,0,1221,19,0,1200,21,0,1200,24,0,1200,25,0,1200,26,0,1221,27,0,1200,30,0,1221,31,0,1200,33,0,1200,34,0,1200,36,0,1200*6A
$PAIRSAT,4,50,1,0,200,2,0,200,3,0,200,4,0,200,5,0,200,6,0,201,7,0,200,8,0,201,9,0,201,10,0,200,11,0,200,12,0,200,13,0,201,14,0,200,15,0,200,16,0,201,19,0,621,20,0,621,21,0,600,22,0,621,23,0,600,24,0,600,25,0,600,26,0,600,27,0,600,28,0,600,29,0,621,30,0,600,31,0,200,32,0,600,33,0,600,34,0,600,35,0,621,36,0,621,37,0,621,38,0,621,39,0,621,40,0,600,41,0,600,42,0,600,43,0,600,44,0,600,45,0,600,46,0,621,56,0,200,57,0,200,58,0,200,59,0,600,60,0,600,61,0,600*41
$PAIRDGP,10,5,10,12,15,18,23,24,25,28,32*45
$GNGGA,114956.200,2500.8245853,N,12132.4587743,E,4,65,0.45,15.965,M,15.25,M,1,3335*4C
$GNRMC,114956.200,A,2500.8245853,N,12132.4587743,E,0.01,222.33,260623,,,R,V*1A
$GPHDT,316.373,T*36
$GNACCURACY,2.2*16
$GNGGA,114956.300,2500.8245947,N,12132.4587827,E,4,65,0.45,16.037,M,15.25,M,1,3335*49
$GNRMC,114956.300,A,2500.8245947,N,12132.4587827,E,0.02,222.33,260623,,,R,V*11
$GPHDT,,T*1B
$GNACCURACY,2.2*16
$GNGGA,114956.400,2500.8246028,N,12132.4587906,E,4,64,0.45,16.015,M,15.25,M,1,3335*4E
$GNRMC,114956.400,A,2500.8246028,N,12132.4587906,E,0.02,222.33,260623,,,R,V*17
$GPHDT,316.266,T*33
$GNACCURACY,2.2*16
$GNGGA,114956.500,2500.8246032,N,12132.4587922,E,4,65,0.45,16.028,M,15.25,M,1,3335*4D
$GNRMC,114956.500,A,2500.8246032,N,12132.4587922,E,0.01,222.33,260623,,,R,V*18
$GPHDT,,T*1B
$GNACCURACY,2.2*16
$GNGGA,114956.600,2500.8246029,N,12132.4587934,E,4,65,0.45,16.033,M,15.25,M,1,3335*49
$GNRMC,114956.600,A,2500.8246029,N,12132.4587934,E,0.01,222.33,260623,,,R,V*16
$GPHDT,316.890,T*30
$GNACCURACY,2.2*16
$GNGGA,114956.700,2500.8246028,N,12132.4587933,E,4,65,0.45,16.022,M,15.25,M,1,3335*4E
$GNRMC,114956.700,A,2500.8246028,N,12132.4587933,E,0.00,222.33,260623,,,R,V*10
$GPHDT,,T*1B
$GNACCURACY,2.2*16
$GNGGA,114956.800,2500.8246034,N,12132.4587918,E,4,65,0.45,16.030,M,15.25,M,1,3335*46
$GNRMC,114956.800,A,2500.8246034,N,12132.4587918,E,0.00,222.33,260623,,,R,V*1B
$GPHDT,317.141,T*34
$GNACCURACY,2.2*16
$GNGGA,114956.900,2500.8246033,N,12132.4587920,E,4,65,0.45,16.023,M,15.25,M,1,3335*49
$GNRMC,114956.900,A,2500.8246033,N,12132.4587920,E,0.00,222.33,260623,,,R,V*16
$GPHDT,,T*1B
$GNACCURACY,2.2*16
$GNGGA,114957.000,2500.8246022,N,12132.4587883,E,4,65,0.45,16.031,M,15.25,M,2,3335*49
$GNRMC,114957.000,A,2500.8246022,N,12132.4587883,E,0.01,222.33,260623,,,R,V*17
$GPHDT,316.933,T*38
$GNACCURACY,2.2*16
$GNGGA,114957.100,2500.8246055,N,12132.4587937,E,4,65,0.45,16.018,M,15.25,M,2,3335*4D
$GNRMC,114957.100,A,2500.8246055,N,12132.4587937,E,0.01,222.33,260623,,,R,V*18
$GPHDT,,T*1B
$GNGSA,A,3,196,24,23,199,18,194,15,195,12,10,25,32,0.72,0.45,0.56,1*06
$GNGSA,A,3,73,80,86,85,71,,,,,,,,0.72,0.45,0.56,2*0C
$GNGSA,A,3,13,07,08,26,30,02,15,,,,,,0.72,0.45,0.56,3*08
$GNGSA,A,3,08,38,13,39,16,06,46,19,09,36,20,35,0.72,0.45,0.56,4*0B
$GNGSA,A,3,22,37,29,,,,,,,,,,0.72,0.45,0.56,4*0C
$GPGSV,4,1,16,196,76,072,19,24,62,034,38,23,61,346,26,199,60,167,36,1*6B
$GPGSV,4,2,16,18,52,228,43,41,38,242,40,194,35,136,41,15,32,058,27,1*5C
$GPGSV,4,3,16,195,30,179,36,12,27,132,42,10,26,323,46,25,17,171,24,1*55
$GPGSV,4,4,16,32,14,278,31,05,12,126,17,13,02,064,,28,02,221,,1*66
$GPGSV,3,1,10,196,76,072,34,24,62,034,34,23,61,346,27,199,60,167,46,8*66
$GPGSV,3,2,10,18,52,228,46,194,35,136,42,195,30,179,33,10,26,323,41,8*62
$GPGSV,3,3,10,25,17,171,25,32,14,278,37,8*60
$GLGSV,2,1,08,73,51,152,44,80,45,057,27,70,42,026,,86,28,288,40,1*7C
$GLGSV,2,2,08,85,27,234,21,71,26,326,37,69,09,085,16,79,03,026,,1*7A
$GAGSV,3,1,09,13,48,221,42,07,46,315,42,08,43,035,29,26,35,297,42,7*7F
$GAGSV,3,2,09,30,33,137,43,02,27,076,17,15,15,173,18,27,07,184,,7*79
$GAGSV,3,3,09,03,07,071,,7*48
$GAGSV,2,1,07,13,48,221,45,07,46,315,44,08,43,035,28,26,35,297,39,1*7A
$GAGSV,2,2,07,30,33,137,42,02,27,076,21,15,15,173,22,1*42
$GBGSV,4,1,15,08,85,348,38,38,81,154,43,13,72,323,43,39,69,297,44,1*78
$GBGSV,4,2,15,16,66,272,43,06,64,267,41,46,62,090,32,19,53,358,35,1*79
$GBGSV,4,3,15,09,50,247,38,36,45,183,44,20,40,076,30,35,18,259,40,1*7C
$GBGSV,4,4,15,22,17,308,37,37,16,042,17,29,12,205,24,1*41
$GBGSV,3,1,09,38,81,154,44,39,69,297,46,46,62,090,39,19,53,358,25,4*73
$GBGSV,3,2,09,36,45,183,45,20,40,076,27,35,18,259,37,22,17,308,34,4*79
$GBGSV,3,3,09,37,16,042,32,4*4E
$GNACCURACY,2.2*16
$PAIRSAT,1,35,1,0,200,2,0,200,3,0,200,4,0,200,5,0,201,6,0,200,7,0,200,8,0,200,9,0,200,10,0,221,11,0,200,12,0,201,13,0,201,14,0,200,15,0,201,16,0,200,17,0,200,18,0,221,19,0,200,20,0,200,21,0,200,23,0,221,24,0,221,25,0,220,26,0,200,27,0,200,28,0,200,29,0,200,30,0,200,31,0,200,32,0,221,194,0,621,195,0,621,196,0,620,199,0,621*6A
$PAIRSAT,2,24,65,0,200,66,0,200,67,0,200,68,0,200,69,0,200,70,0,200,71,0,201,72,0,200,73,0,201,74,0,200,75,0,200,76,0,200,77,0,200,78,0,200,79,0,201,80,0,201,81,0,200,82,0,200,83,0,200,84,0,200,85,0,201,86,0,201,87,0,200,88,0,200*7A
$PAIRSAT,3,23,2,0,1221,3,0,1221,4,0,1200,5,0,200,7,0,1221,8,0,1221,9,0,1200,10,0,1200,11,0,1200,12,0,1200,13,0,1221,15,0,1221,19,0,1200,21,0,1200,24,0,1200,25,0,1200,26,0,1221,27,0,1200,30,0,1221,31,0,1200,33,0,1200,34,0,1200,36,0,1200*6A
$PAIRSAT,4,50,1,0,200,2,0,200,3,0,200,4,0,200,5,0,200,6,0,201,7,0,200,8,0,201,9,0,201,10,0,200,11,0,200,12,0,200,13,0,201,14,0,200,15,0,200,16,0,201,19,0,621,20,0,621,21,0,600,22,0,621,23,0,600,24,0,600,25,0,600,26,0,600,27,0,600,28,0,600,29,0,621,30,0,600,31,0,200,32,0,600,33,0,600,34,0,600,35,0,621,36,0,621,37,0,621,38,0,621,39,0,621,40,0,600,41,0,600,42,0,600,43,0,600,44,0,600,45,0,600,46,0,621,56,0,200,57,0,200,58,0,200,59,0,600,60,0,600,61,0,600*41
$PAIRDGP,10,5,10,12,15,18,23,24,25,28,32*45
$GNGGA,114957.200,2500.8246052,N,12132.4587916,E,4,65,0.45,16.018,M,15.25,M,2,3335*4A
$GNRMC,114957.200,A,2500.8246052,N,12132.4587916,E,0.01,222.33,260623,,,R,V*1F
$GPHDT,317.080,T*38
$GNACCURACY,2.2*16
$GNGGA,114957.300,2500.8246024,N,12132.4587906,E,4,65,0.45,16.019,M,15.25,M,2,3335*4A
$GNRMC,114957.300,A,2500.8246024,N,12132.4587906,E,0.01,222.33,260623,,,R,V*1E
$GPHDT,,T*1B
$GNACCURACY,2.2*16
$GNGGA,114957.400,2500.8246057,N,12132.4587908,E,4,65,0.45,16.035,M,15.25,M,2,3335*49
$GNRMC,114957.400,A,2500.8246057,N,12132.4587908,E,0.01,222.33,260623,,,R,V*13
$GPHDT,316.826,T*3D
$GNACCURACY,2.2*16
$GNGGA,114957.500,2500.8246051,N,12132.4587933,E,4,65,0.45,16.010,M,15.25,M,2,3335*41
$GNRMC,114957.500,A,2500.8246051,N,12132.4587933,E,0.01,222.33,260623,,,R,V*1C
$GPHDT,,T*1B
$GNACCURACY,2.2*16
$GNGGA,114957.600,2500.8246040,N,12132.4587907,E,4,65,0.45,16.013,M,15.25,M,2,3335*46
$GNRMC,114957.600,A,2500.8246040,N,12132.4587907,E,0.01,222.33,260623,,,R,V*18
$GPHDT,316.602,T*35
$GNACCURACY,2.2*16
$GNGGA,114957.700,2500.8246051,N,12132.4587912,E,4,65,0.45,16.030,M,15.25,M,2,3335*42
$GNRMC,114957.700,A,2500.8246051,N,12132.4587912,E,0.01,222.33,260623,,,R,V*1D
$GPHDT,,T*1B
$GNACCURACY,2.2*16
$GNGGA,114957.800,2500.8246052,N,12132.4587943,E,4,65,0.45,16.015,M,15.25,M,2,3335*4D
$GNRMC,114957.800,A,2500.8246052,N,12132.4587943,E,0.01,222.33,260623,,,R,V*15
$GPHDT,315.928,T*31
$GNACCURACY,2.2*16
$GNGGA,114957.900,2500.8246022,N,12132.4587930,E,4,65,0.45,16.028,M,15.25,M,2,3335*41
$GNRMC,114957.900,A,2500.8246022,N,12132.4587930,E,0.01,222.33,260623,,,R,V*17
$GPHDT,,T*1B
$GNACCURACY,2.2*16
$GNGGA,114958.000,2500.8246018,N,12132.4587904,E,4,65,0.45,16.026,M,15.25,M,3,3335*46
$GNRMC,114958.000,A,2500.8246018,N,12132.4587904,E,0.01,222.33,260623,,,R,V*1F
$GPHDT,316.628,T*3D
$GNACCURACY,2.2*16
$GNGGA,114958.100,2500.8246017,N,12132.4587883,E,4,65,0.45,16.030,M,15.25,M,3,3335*41
$GNRMC,114958.100,A,2500.8246017,N,12132.4587883,E,0.01,222.33,260623,,,R,V*1F
$GPHDT,,T*1B
$GNGSA,A,3,196,24,23,199,18,194,15,195,12,10,25,32,0.72,0.45,0.56,1*06
$GNGSA,A,3,73,80,86,85,71,,,,,,,,0.72,0.45,0.56,2*0C
$GNGSA,A,3,13,07,08,26,30,02,15,,,,,,0.72,0.45,0.56,3*08
$GNGSA,A,3,08,38,13,39,16,06,46,19,09,36,20,35,0.72,0.45,0.56,4*0B
$GNGSA,A,3,22,37,29,,,,,,,,,,0.72,0.45,0.56,4*0C
$GPGSV,4,1,16,196,76,072,19,24,62,034,37,23,61,346,25,199,60,167,35,1*64
$GPGSV,4,2,16,18,52,228,43,41,38,242,40,194,35,136,41,15,32,058,30,1*5A
$GPGSV,4,3,16,195,30,179,36,12,27,132,42,10,26,323,46,25,17,171,24,1*55
$GPGSV,4,4,16,32,14,278,31,05,12,126,17,13,02,064,,28,02,221,,1*66
$GPGSV,3,1,10,196,76,072,35,24,62,034,34,23,61,346,29,199,60,167,46,8*69
$GPGSV,3,2,10,18,52,228,46,194,35,136,42,195,30,179,30,10,26,323,41,8*61
$GPGSV,3,3,10,25,17,171,27,32,14,278,37,8*62
$GLGSV,2,1,08,73,51,152,44,80,45,057,26,70,42,026,,86,28,288,40,1*7D
$GLGSV,2,2,08,85,27,234,21,71,26,326,37,69,09,085,16,79,03,026,,1*7A
$GAGSV,2,1,08,13,48,221,42,07,46,315,42,08,43,035,27,26,35,297,42,7*71
$GAGSV,2,2,08,30,33,137,43,02,27,076,15,15,15,173,20,03,07,071,,7*7D
$GAGSV,2,1,07,13,48,221,45,07,46,315,44,08,43,035,27,26,35,297,39,1*75
$GAGSV,2,2,07,30,33,137,42,02,27,076,21,15,15,173,22,1*42
$GBGSV,4,1,15,08,85,348,38,38,81,154,43,13,72,323,43,39,69,297,44,1*78
$GBGSV,4,2,15,16,66,272,43,06,64,267,41,46,62,090,32,19,53,358,35,1*79
$GBGSV,4,3,15,09,50,247,38,36,45,183,44,20,40,076,30,35,18,259,39,1*72
$GBGSV,4,4,15,22,17,308,37,37,16,042,17,29,12,205,24,1*41
$GBGSV,3,1,09,38,81,154,44,39,69,297,46,46,62,090,39,19,53,358,31,4*76
$GBGSV,3,2,09,36,45,183,45,20,40,076,26,35,18,259,37,22,17,308,34,4*78
$GBGSV,3,3,09,37,16,042,32,4*4E
$GNACCURACY,2.2*16
$PAIRSAT,1,35,1,0,200,2,0,200,3,0,200,4,0,200,5,0,201,6,0,200,7,0,200,8,0,200,9,0,200,10,0,221,11,0,200,12,0,201,13,0,201,14,0,200,15,0,201,16,0,200,17,0,200,18,0,221,19,0,200,20,0,200,21,0,200,23,0,221,24,0,221,25,0,220,26,0,200,27,0,200,28,0,200,29,0,200,30,0,200,31,0,200,32,0,221,194,0,621,195,0,621,196,0,620,199,0,621*6A
$PAIRSAT,2,24,65,0,200,66,0,200,67,0,200,68,0,200,69,0,200,70,0,200,71,0,201,72,0,200,73,0,201,74,0,200,75,0,200,76,0,200,77,0,200,78,0,200,79,0,201,80,0,201,81,0,200,82,0,200,83,0,200,84,0,200,85,0,201,86,0,201,87,0,200,88,0,200*7A
$PAIRSAT,3,23,2,0,1221,3,0,1221,4,0,1200,5,0,200,7,0,1221,8,0,1221,9,0,1200,10,0,1200,11,0,1200,12,0,1200,13,0,1221,15,0,1221,19,0,1200,21,0,1200,24,0,1200,25,0,1200,26,0,1221,27,0,1200,30,0,1221,31,0,1200,33,0,1200,34,0,1200,36,0,1200*6A
$PAIRSAT,4,50,1,0,200,2,0,200,3,0,200,4,0,200,5,0,200,6,0,201,7,0,200,8,0,201,9,0,201,10,0,200,11,0,200,12,0,200,13,0,201,14,0,200,15,0,200,16,0,201,19,0,621,20,0,621,21,0,600,22,0,621,23,0,600,24,0,600,25,0,600,26,0,600,27,0,600,28,0,600,29,0,621,30,0,600,31,0,200,32,0,600,33,0,600,34,0,600,35,0,621,36,0,621,37,0,621,38,0,621,39,0,621,40,0,600,41,0,600,42,0,600,43,0,600,44,0,600,45,0,600,46,0,621,56,0,200,57,0,200,58,0,200,59,0,600,60,0,600,61,0,600*41
$PAIRDGP,10,5,10,12,15,18,23,24,25,28,32*45
$GNGGA,114958.200,2500.8246032,N,12132.4587916,E,4,65,0.45,16.031,M,15.25,M,3,3335*49
$GNRMC,114958.200,A,2500.8246032,N,12132.4587916,E,0.02,222.33,260623,,,R,V*15
$GPHDT,316.098,T*30
$GNACCURACY,2.2*16
$GNGGA,114958.300,2500.8246026,N,12132.4587877,E,4,65,0.45,16.037,M,15.25,M,3,3335*4D
$GNRMC,114958.300,A,2500.8246026,N,12132.4587877,E,0.01,222.33,260623,,,R,V*14
$GPHDT,,T*1B
$GNACCURACY,2.2*16
$GNGGA,114958.400,2500.8246004,N,12132.4587880,E,4,65,0.45,16.028,M,15.25,M,3,3335*4C
$GNRMC,114958.400,A,2500.8246004,N,12132.4587880,E,0.01,222.33,260623,,,R,V*1B
$GPHDT,316.815,T*3D
$GNACCURACY,2.2*16
$GNGGA,114958.500,2500.8246047,N,12132.4587931,E,4,65,0.45,16.035,M,15.25,M,3,3335*4D
$GNRMC,114958.500,A,2500.8246047,N,12132.4587931,E,0.01,222.33,260623,,,R,V*16
$GPHDT,,T*1B
$GNACCURACY,2.2*16
$GNGGA,114958.600,2500.8246013,N,12132.4587858,E,4,64,0.45,16.040,M,15.25,M,3,3335*42
$GNRMC,114958.600,A,2500.8246013,N,12132.4587858,E,0.01,222.33,260623,,,R,V*1A
$GPHDT,317.502,T*37
$GNACCURACY,2.2*16
$GNGGA,114958.700,2500.8246050,N,12132.4587881,E,4,64,0.45,16.041,M,15.25,M,3,3335*41
$GNRMC,114958.700,A,2500.8246050,N,12132.4587881,E,0.01,222.33,260623,,,R,V*18
$GPHDT,,T*1B
$GNACCURACY,2.2*16
$GNGGA,114958.800,2500.8246029,N,12132.4587914,E,4,64,0.45,16.033,M,15.25,M,3,3335*48
$GNRMC,114958.800,A,2500.8246029,N,12132.4587914,E,0.00,222.33,260623,,,R,V*15
$GPHDT,316.336,T*37
$GNACCURACY,2.2*16
$GNGGA,114958.900,2500.8246008,N,12132.4587915,E,4,65,0.45,16.038,M,15.25,M,3,3335*41
$GNRMC,114958.900,A,2500.8246008,N,12132.4587915,E,0.00,222.33,260623,,,R,V*16
$GPHDT,,T*1B
