$FW : RTK35X,V1.1X0314AS,Lib20210517,1*54
$Tool : LOCOSYS , GNSS Firebird , v1.0.0.19*39
$---------------------------------------------------*2D
$GPHDT,226.984,T*36
$GNACCURACY,2.3*17
$GNGGA,115027.100,2500.8250074,N,12132.4590475,E,2,60,0.45,16.064,M,15.25,M,2,3335*43
$GNRMC,115027.100,A,2500.8250074,N,12132.4590475,E,0.02,222.33,260623,,,D,V*0B
$GPHDT,,T*1B
$GNGSA,A,3,196,24,23,199,18,194,195,12,10,32,25,,0.83,0.45,0.69,1*00
$GNGSA,A,3,73,80,86,71,85,,,,,,,,0.83,0.45,0.69,2*0E
$GNGSA,A,3,13,07,08,26,30,02,15,,,,,,0.83,0.45,0.69,3*0A
$GNGSA,A,3,08,38,13,39,16,06,46,19,09,36,20,35,0.83,0.45,0.69,4*09
$GNGSA,A,3,22,37,29,,,,,,,,,,0.83,0.45,0.69,4*0E
$GPGSV,4,1,16,196,76,073,22,24,62,034,39,23,61,346,21,199,60,167,37,1*65
$GPGSV,4,2,16,18,52,228,46,41,38,242,42,194,35,136,40,15,31,058,25,1*5B
$GPGSV,4,3,16,195,30,179,37,12,27,132,41,10,26,323,42,25,17,170,17,1*52
$GPGSV,4,4,16,32,14,278,29,05,12,126,16,28,03,221,,13,02,064,,1*6F
$GPGSV,3,1,10,196,76,073,33,24,62,034,35,23,61,346,26,199,60,167,47,8*61
$GPGSV,3,2,10,18,52,228,46,194,35,136,45,195,30,179,36,10,26,323,42,8*63
$GPGSV,3,3,10,25,17,170,22,32,14,278,32,8*63
$GLGSV,2,1,06,73,51,152,41,80,45,057,29,86,28,288,38,71,27,326,23,1*76
$GLGSV,2,2,06,85,26,234,14,79,02,026,,1*7F
$GAGSV,3,1,09,13,48,221,43,07,46,315,35,08,43,035,25,26,35,297,42,7*72
$GAGSV,3,2,09,30,33,137,40,02,27,075,14,15,14,173,21,27,07,184,,7*71
$GAGSV,3,3,09,03,06,072,,7*4A
$GAGSV,2,1,06,13,48,221,44,07,46,315,40,08,43,035,28,26,35,297,41,1*71
$GAGSV,2,2,06,30,33,137,44,03,06,072,10,1*74
$GBGSV,4,1,15,08,85,347,38,38,81,155,43,13,72,323,42,39,69,297,44,1*77
$GBGSV,4,2,15,16,65,272,42,06,64,267,41,46,62,089,26,19,54,358,38,1*7C
$GBGSV,4,3,15,09,50,248,38,36,45,183,45,20,40,076,30,35,18,259,26,1*72
$GBGSV,4,4,15,22,17,309,31,37,16,042,25,29,12,205,16,1*46
$GBGSV,3,1,09,38,81,155,44,39,69,297,43,46,62,089,37,19,54,358,27,4*74
$GBGSV,3,2,09,36,45,183,44,20,40,076,35,35,18,259,33,22,17,309,35,4*7F
$GBGSV,3,3,09,29,12,205,20,4*47
$GNACCURACY,2.3*17
$PAIRSAT,1,35,1,0,200,2,0,200,3,0,200,4,0,200,5,0,201,6,0,200,7,0,200,8,0,200,9,0,200,10,0,221,11,0,200,12,0,201,13,0,201,14,0,200,15,0,201,16,0,200,17,0,200,18,0,221,19,0,200,20,0,200,21,0,200,23,0,221,24,0,221,25,0,220,26,0,200,27,0,200,28,0,200,29,0,200,30,0,200,31,0,200,32,0,221,194,0,621,195,0,621,196,0,620,199,0,621*6A
$PAIRSAT,2,24,65,0,200,66,0,200,67,0,200,68,0,200,69,0,200,70,0,200,71,0,201,72,0,200,73,0,201,74,0,200,75,0,200,76,0,200,77,0,200,78,0,200,79,0,201,80,0,201,81,0,200,82,0,200,83,0,200,84,0,200,85,0,201,86,0,201,87,0,200,88,0,200*7A
$PAIRSAT,3,23,2,0,1221,3,0,1221,4,0,1200,5,0,200,7,0,1221,8,0,1221,9,0,1200,10,0,1200,11,0,1200,12,0,1200,13,0,1221,15,0,1221,19,0,1200,21,0,1200,24,0,1200,25,0,1200,26,0,1221,27,0,1200,30,0,1221,31,0,1200,33,0,1200,34,0,1200,36,0,1200*6A
$PAIRSAT,4,50,1,0,200,2,0,200,3,0,200,4,0,200,5,0,200,6,0,201,7,0,200,8,0,201,9,0,201,10,0,200,11,0,200,12,0,200,13,0,201,14,0,200,15,0,200,16,0,201,19,0,621,20,0,621,21,0,600,22,0,621,23,0,600,24,0,600,25,0,600,26,0,600,27,0,600,28,0,600,29,0,621,30,0,600,31,0,200,32,0,600,33,0,600,34,0,600,35,0,621,36,0,621,37,0,621,38,0,621,39,0,621,40,0,600,41,0,600,42,0,600,43,0,600,44,0,600,45,0,600,46,0,621,56,0,200,57,0,200,58,0,200,59,0,600,60,0,600,61,0,600*41
$PAIRDGP,10,5,10,12,15,18,23,24,25,28,32*45
$GNGGA,115027.200,2500.8250134,N,12132.4590595,E,2,60,0.45,16.065,M,15.25,M,2,3335*4B
$GNRMC,115027.200,A,2500.8250134,N,12132.4590595,E,0.02,222.33,260623,,,D,V*02
$GPHDT,226.733,T*34
$GNACCURACY,2.3*17
$GNGGA,115027.300,2500.8250194,N,12132.4590655,E,2,60,0.45,16.068,M,15.25,M,2,3335*42
$GNRMC,115027.300,A,2500.8250194,N,12132.4590655,E,0.02,222.33,260623,,,D,V*06
$GPHDT,,T*1B
$GNACCURACY,2.3*17
$GNGGA,115027.400,2500.8250254,N,12132.4590775,E,2,62,0.45,16.071,M,15.25,M,2,3335*43
$GNRMC,115027.400,A,2500.8250254,N,12132.4590775,E,0.02,222.33,260623,,,D,V*0D
$GPHDT,226.865,T*38
$GNACCURACY,2.3*17
$GNGGA,115027.500,2500.8250314,N,12132.4590835,E,2,61,0.45,16.072,M,15.25,M,2,3335*4C
$GNRMC,115027.500,A,2500.8250314,N,12132.4590835,E,0.02,222.33,260623,,,D,V*02
$GPHDT,,T*1B
$GNACCURACY,2.3*17
$GNGGA,115027.600,2500.8250374,N,12132.4590955,E,2,62,0.45,16.071,M,15.25,M,2,3335*4E
$GNRMC,115027.600,A,2500.8250374,N,12132.4590955,E,0.02,222.33,260623,,,D,V*00
$GPHDT,226.976,T*3B
$GNACCURACY,2.3*17
$GNGGA,115027.700,2500.8250434,N,12132.4591075,E,2,62,0.45,16.073,M,15.25,M,2,3335*44
$GNRMC,115027.700,A,2500.8250434,N,12132.4591075,E,0.02,222.33,260623,,,D,V*08
$GPHDT,,T*1B
$GNACCURACY,2.3*17
$GNGGA,115027.800,2500.8250494,N,12132.4591195,E,2,61,0.45,16.074,M,15.25,M,2,3335*4A
$GNRMC,115027.800,A,2500.8250494,N,12132.4591195,E,0.02,222.33,260623,,,D,V*02
$GPHDT,226.811,T*3B
$GNACCURACY,2.3*17
$GNGGA,115027.900,2500.8250554,N,12132.4591255,E,2,62,0.45,16.076,M,15.25,M,2,3335*48
$GNRMC,115027.900,A,2500.8250554,N,12132.4591255,E,0.02,222.33,260623,,,D,V*01
$GPHDT,,T*1B
$GNACCURACY,2.3*17
$GNGGA,115028.000,2500.8250674,N,12132.4591315,E,2,62,0.45,16.076,M,15.25,M,3,3335*4B
$GNRMC,115028.000,A,2500.8250674,N,12132.4591315,E,0.02,222.33,260623,,,D,V*03
$GPHDT,227.237,T*34
$GNACCURACY,2.3*17
$GNGGA,115028.100,2500.8250734,N,12132.4591375,E,2,62,0.45,16.079,M,15.25,M,3,3335*46
$GNRMC,115028.100,A,2500.8250734,N,12132.4591375,E,0.02,222.33,260623,,,D,V*01
$GPHDT,,T*1B
$GNGSA,A,3,196,24,23,199,18,194,15,195,12,10,32,25,0.81,0.45,0.68,1*07
$GNGSA,A,3,73,80,86,71,85,,,,,,,,0.81,0.45,0.68,2*0D
$GNGSA,A,3,13,07,08,26,30,02,15,,,,,,0.81,0.45,0.68,3*09
$GNGSA,A,3,08,38,13,39,16,06,46,19,09,36,20,35,0.81,0.45,0.68,4*0A
$GNGSA,A,3,22,37,29,,,,,,,,,,0.81,0.45,0.68,4*0D
$GPGSV,4,1,16,196,76,073,21,24,62,034,39,23,61,346,26,199,60,167,37,1*61
$GPGSV,4,2,16,18,52,228,46,41,38,242,42,194,35,136,41,15,31,058,22,1*5D
$GPGSV,4,3,16,195,30,179,37,12,27,132,40,10,26,323,42,25,17,170,17,1*53
$GPGSV,4,4,16,32,14,278,34,05,12,126,13,28,03,221,,13,02,064,,1*66
$GPGSV,3,1,10,196,76,073,33,24,62,034,35,23,61,346,32,199,60,167,47,8*64
$GPGSV,3,2,10,18,52,228,46,194,35,136,45,195,30,179,36,10,26,323,44,8*65
$GPGSV,3,3,10,25,17,170,19,32,14,278,34,8*6D
$GLGSV,2,1,06,73,51,152,41,80,45,057,30,86,28,288,36,71,27,326,35,1*77
$GLGSV,2,2,06,85,26,234,14,79,02,026,,1*7F
$GAGSV,3,1,09,13,48,221,43,07,46,315,38,08,43,035,25,26,35,297,37,7*7D
$GAGSV,3,2,09,30,33,137,40,02,27,075,13,15,14,173,20,27,07,184,,7*77
$GAGSV,3,3,09,03,06,072,,7*4A
$GAGSV,2,1,07,13,48,221,44,07,46,315,42,08,43,035,29,26,35,297,35,1*70
$GAGSV,2,2,07,30,33,137,44,15,14,173,22,03,06,072,13,1*42
$GBGSV,4,1,15,08,85,347,38,38,81,155,43,13,72,323,44,39,69,297,44,1*71
$GBGSV,4,2,15,16,65,272,42,06,64,267,39,46,62,089,27,19,54,358,38,1*72
$GBGSV,4,3,15,09,50,248,37,36,45,183,45,20,40,076,30,35,18,259,30,1*7A
$GBGSV,4,4,15,22,17,309,27,37,16,042,26,29,12,205,17,1*43
$GBGSV,3,1,10,38,81,155,44,39,69,297,45,46,62,089,37,19,54,358,29,4*74
$GBGSV,3,2,10,36,45,183,44,20,40,076,35,35,18,259,28,22,17,309,34,4*7C
$GBGSV,3,3,10,37,16,042,26,29,12,205,20,4*7E
$GNACCURACY,2.3*17
$PAIRSAT,1,35,1,0,200,2,0,200,3,0,200,4,0,200,5,0,201,6,0,200,7,0,200,8,0,200,9,0,200,10,0,221,11,0,200,12,0,201,13,0,201,14,0,200,15,0,201,16,0,200,17,0,200,18,0,221,19,0,200,20,0,200,21,0,200,23,0,221,24,0,221,25,0,220,26,0,200,27,0,200,28,0,200,29,0,200,30,0,200,31,0,200,32,0,221,194,0,621,195,0,621,196,0,620,199,0,621*6A
$PAIRSAT,2,24,65,0,200,66,0,200,67,0,200,68,0,200,69,0,200,70,0,200,71,0,201,72,0,200,73,0,201,74,0,200,75,0,200,76,0,200,77,0,200,78,0,200,79,0,201,80,0,201,81,0,200,82,0,200,83,0,200,84,0,200,85,0,201,86,0,201,87,0,200,88,0,200*7A
$PAIRSAT,3,23,2,0,1221,3,0,1221,4,0,1200,5,0,200,7,0,1221,8,0,1221,9,0,1200,10,0,1200,11,0,1200,12,0,1200,13,0,1221,15,0,1221,19,0,1200,21,0,1200,24,0,1200,25,0,1200,26,0,1221,27,0,1200,30,0,1221,31,0,1200,33,0,1200,34,0,1200,36,0,1200*6A
$PAIRSAT,4,50,1,0,200,2,0,200,3,0,200,4,0,200,5,0,200,6,0,201,7,0,200,8,0,201,9,0,201,10,0,200,11,0,200,12,0,200,13,0,201,14,0,200,15,0,200,16,0,201,19,0,621,20,0,621,21,0,600,22,0,621,23,0,600,24,0,600,25,0,600,26,0,600,27,0,600,28,0,600,29,0,621,30,0,600,31,0,200,32,0,600,33,0,600,34,0,600,35,0,621,36,0,621,37,0,621,38,0,621,39,0,621,40,0,600,41,0,600,42,0,600,43,0,600,44,0,600,45,0,600,46,0,621,56,0,200,57,0,200,58,0,200,59,0,600,60,0,600,61,0,600*41
$PAIRDGP,10,5,10,12,15,18,23,24,25,28,32*45
$GNGGA,115028.200,2500.8250794,N,12132.4591435,E,2,62,0.45,16.079,M,15.25,M,3,3335*4C
$GNRMC,115028.200,A,2500.8250794,N,12132.4591435,E,0.02,222.33,260623,,,D,V*0B
$GPHDT,226.392,T*3B
$GNACCURACY,2.3*17
$GNGGA,115028.300,2500.8250914,N,12132.4591495,E,2,63,0.45,16.078,M,15.25,M,3,3335*41
$GNRMC,115028.300,A,2500.8250914,N,12132.4591495,E,0.02,222.33,260623,,,D,V*06
$GPHDT,,T*1B
$GNACCURACY,2.3*17
$GNGGA,115028.400,2500.8250974,N,12132.4591555,E,2,63,0.45,16.077,M,15.25,M,3,3335*42
$GNRMC,115028.400,A,2500.8250974,N,12132.4591555,E,0.02,222.33,260623,,,D,V*0A
$GPHDT,227.126,T*37
$GNACCURACY,2.3*17
$GNGGA,115028.500,2500.8251034,N,12132.4591615,E,2,63,0.45,16.072,M,15.25,M,3,3335*4D
$GNRMC,115028.500,A,2500.8251034,N,12132.4591615,E,0.01,222.33,260623,,,D,V*03
$GPHDT,,T*1B
$GNACCURACY,2.3*17
$GNGGA,115028.600,2500.8251094,N,12132.4591675,E,2,63,0.45,16.068,M,15.25,M,3,3335*49
$GNRMC,115028.600,A,2500.8251094,N,12132.4591675,E,0.01,222.33,260623,,,D,V*0C
$GPHDT,227.115,T*37
$GNACCURACY,2.3*17
$GNGGA,115028.700,2500.8251214,N,12132.4591675,E,2,63,0.45,16.065,M,15.25,M,3,3335*4F
$GNRMC,115028.700,A,2500.8251214,N,12132.4591675,E,0.02,222.33,260623,,,D,V*04
$GPHDT,,T*1B
$GNACCURACY,2.3*17
$GNGGA,115028.800,2500.8251274,N,12132.4591735,E,2,62,0.45,16.063,M,15.25,M,3,3335*44
$GNRMC,115028.800,A,2500.8251274,N,12132.4591735,E,0.01,222.33,260623,,,D,V*0B
$GPHDT,226.772,T*31
$GNACCURACY,2.3*17
$GNGGA,115028.900,2500.8251394,N,12132.4591795,E,2,63,0.45,16.062,M,15.25,M,3,3335*40
$GNRMC,115028.900,A,2500.8251394,N,12132.4591795,E,0.02,222.33,260623,,,D,V*0C
$GPHDT,,T*1B
$GNACCURACY,2.3*17
$GNGGA,115029.000,2500.8251514,N,12132.4591855,E,2,63,0.45,16.052,M,15.25,M,4,3335*41
$GNRMC,115029.000,A,2500.8251514,N,12132.4591855,E,0.01,222.33,260623,,,D,V*0A
$GPHDT,226.766,T*34
$GNACCURACY,2.3*17
$GNGGA,115029.100,2500.8251574,N,12132.4591915,E,2,63,0.45,16.044,M,15.25,M,4,3335*44
$GNRMC,115029.100,A,2500.8251574,N,12132.4591915,E,0.01,222.33,260623,,,D,V*08
$GPHDT,,T*1B
$GNGSA,A,3,196,24,23,199,18,194,15,195,12,10,32,25,0.72,0.45,0.56,1*06
$GNGSA,A,3,73,80,86,71,85,,,,,,,,0.72,0.45,0.56,2*0C
$GNGSA,A,3,13,07,08,26,30,02,15,,,,,,0.72,0.45,0.56,3*08
$GNGSA,A,3,08,38,13,39,16,06,46,19,09,36,20,35,0.72,0.45,0.56,4*0B
$GNGSA,A,3,22,37,29,,,,,,,,,,0.72,0.45,0.56,4*0C
$GPGSV,4,1,16,196,76,073,19,24,62,034,39,23,61,346,26,199,60,167,37,1*6A
$GPGSV,4,2,16,18,51,228,46,41,38,242,42,194,35,136,41,15,31,058,20,1*5C
$GPGSV,4,3,16,195,30,179,36,12,27,132,40,10,26,323,45,25,17,170,16,1*54
$GPGSV,4,4,16,32,14,278,26,05,12,126,15,28,03,221,,13,02,065,,1*62
$GPGSV,3,1,10,196,76,073,34,24,62,034,36,23,61,346,31,199,60,167,47,8*63
$GPGSV,3,2,10,18,51,228,46,194,35,136,45,195,30,179,37,10,26,323,46,8*65
$GPGSV,3,3,10,25,17,170,19,32,14,278,30,8*69
$GLGSV,2,1,06,73,51,152,41,80,45,057,29,86,28,288,33,71,27,326,32,1*7D
$GLGSV,2,2,06,85,26,234,15,79,02,026,,1*7E
$GAGSV,3,1,09,13,48,221,43,07,46,315,42,08,43,035,24,26,35,297,38,7*7E
$GAGSV,3,2,09,30,33,137,40,02,27,075,13,15,14,173,20,27,07,184,,7*77
$GAGSV,3,3,09,03,06,072,,7*4A
$GAGSV,2,1,08,13,48,221,44,07,46,315,45,08,43,035,29,26,35,297,38,1*75
$GAGSV,2,2,08,30,33,137,44,02,27,075,19,15,14,173,23,03,06,072,14,1*76
$GBGSV,4,1,15,08,85,347,38,38,81,155,43,13,72,323,44,39,69,297,43,1*76
$GBGSV,4,2,15,16,65,272,41,06,64,267,39,46,62,089,27,19,54,358,38,1*71
$GBGSV,4,3,15,09,50,248,36,36,45,183,45,20,40,076,30,35,18,259,32,1*79
$GBGSV,4,4,15,22,17,309,35,37,16,042,26,29,12,205,16,1*41
$GBGSV,3,1,10,38,81,155,44,39,69,297,45,46,62,089,37,19,54,358,29,4*74
$GBGSV,3,2,10,36,45,183,44,20,40,076,35,35,18,259,31,22,17,309,39,4*79
$GBGSV,3,3,10,37,16,042,27,29,12,205,20,4*7F
$GNACCURACY,2.3*17
$PAIRSAT,1,35,1,0,200,2,0,200,3,0,200,4,0,200,5,0,201,6,0,200,7,0,200,8,0,200,9,0,200,10,0,221,11,0,200,12,0,201,13,0,201,14,0,200,15,0,201,16,0,200,17,0,200,18,0,221,19,0,200,20,0,200,21,0,200,23,0,221,24,0,221,25,0,220,26,0,200,27,0,200,28,0,200,29,0,200,30,0,200,31,0,200,32,0,221,194,0,621,195,0,621,196,0,620,199,0,621*6A
$PAIRSAT,2,24,65,0,200,66,0,200,67,0,200,68,0,200,69,0,200,70,0,200,71,0,201,72,0,200,73,0,201,74,0,200,75,0,200,76,0,200,77,0,200,78,0,200,79,0,201,80,0,201,81,0,200,82,0,200,83,0,200,84,0,200,85,0,201,86,0,201,87,0,200,88,0,200*7A
$PAIRSAT,3,23,2,0,1221,3,0,1221,4,0,1200,5,0,200,7,0,1221,8,0,1221,9,0,1200,10,0,1200,11,0,1200,12,0,1200,13,0,1221,15,0,1221,19,0,1200,21,0,1200,24,0,1200,25,0,1200,26,0,1221,27,0,1200,30,0,1221,31,0,1200,33,0,1200,34,0,1200,36,0,1200*6A
$PAIRSAT,4,50,1,0,200,2,0,200,3,0,200,4,0,200,5,0,200,6,0,201,7,0,200,8,0,201,9,0,201,10,0,200,11,0,200,12,0,200,13,0,201,14,0,200,15,0,200,16,0,201,19,0,621,20,0,621,21,0,600,22,0,621,23,0,600,24,0,600,25,0,600,26,0,600,27,0,600,28,0,600,29,0,621,30,0,600,31,0,200,32,0,600,33,0,600,34,0,600,35,0,621,36,0,621,37,0,621,38,0,621,39,0,621,40,0,600,41,0,600,42,0,600,43,0,600,44,0,600,45,0,600,46,0,621,56,0,200,57,0,200,58,0,200,59,0,600,60,0,600,61,0,600*41
$PAIRDGP,10,5,10,12,15,18,23,24,25,28,32*45
$GNGGA,115029.200,2500.8251694,N,12132.4591915,E,2,63,0.45,16.039,M,15.25,M,4,3335*40
$GNRMC,115029.200,A,2500.8251694,N,12132.4591915,E,0.01,222.33,260623,,,D,V*06
$GPHDT,226.908,T*32
$GNACCURACY,2.3*17
$GNGGA,115029.300,2500.8251754,N,12132.4591975,E,2,63,0.45,16.034,M,15.25,M,4,3335*47
$GNRMC,115029.300,A,2500.8251754,N,12132.4591975,E,0.01,222.33,260623,,,D,V*0C
$GPHDT,,T*1B
$GNACCURACY,2.3*17
$GNGGA,115029.400,2500.8251874,N,12132.4592035,E,2,64,0.45,16.026,M,15.25,M,4,3335*47
$GNRMC,115029.400,A,2500.8251874,N,12132.4592035,E,0.00,222.33,260623,,,D,V*09
$GPHDT,227.044,T*32
$GNACCURACY,2.3*17
$GNGGA,115029.500,2500.8251934,N,12132.4592095,E,2,64,0.45,16.022,M,15.25,M,4,3335*4D
$GNRMC,115029.500,A,2500.8251934,N,12132.4592095,E,0.01,222.33,260623,,,D,V*06
$GPHDT,,T*1B
$GNACCURACY,2.3*17
$GNGGA,115029.600,2500.8251994,N,12132.4592155,E,2,63,0.45,16.014,M,15.25,M,4,3335*4B
$GNRMC,115029.600,A,2500.8251994,N,12132.4592155,E,0.01,222.33,260623,,,D,V*02
$GPHDT,226.654,T*34
$GNACCURACY,2.3*17
$GNGGA,115029.700,2500.8252054,N,12132.4592215,E,2,63,0.45,16.008,M,15.25,M,4,3335*46
$GNRMC,115029.700,A,2500.8252054,N,12132.4592215,E,0.01,222.33,260623,,,D,V*02
$GPHDT,,T*1B
$GNACCURACY,2.3*17
$GNGGA,115029.800,2500.8252114,N,12132.4592275,E,2,63,0.45,16.003,M,15.25,M,4,3335*41
$GNRMC,115029.800,A,2500.8252114,N,12132.4592275,E,0.00,222.33,260623,,,D,V*0F
$GPHDT,226.491,T*3F
$GNACCURACY,2.3*17
$GNGGA,115029.900,2500.8252234,N,12132.4592335,E,2,63,0.45,15.998,M,15.25,M,4,3335*4C
$GNRMC,115029.900,A,2500.8252234,N,12132.4592335,E,0.01,222.33,260623,,,D,V*0B
$GPHDT,,T*1B
$GNACCURACY,2.3*17
$GNGGA,115030.000,2500.8252294,N,12132.4592455,E,2,63,0.45,15.992,M,15.25,M,5,3335*4D
$GNRMC,115030.000,A,2500.8252294,N,12132.4592455,E,0.01,222.33,260623,,,D,V*01
$GPHDT,226.716,T*33
$GNACCURACY,2.3*17
$GNGGA,115030.100,2500.8252354,N,12132.4592515,E,2,63,0.45,15.986,M,15.25,M,5,3335*41
$GNRMC,115030.100,A,2500.8252354,N,12132.4592515,E,0.01,222.33,260623,,,D,V*08
$GPHDT,,T*1B
$GNGSA,A,3,196,24,23,199,18,194,195,12,10,32,25,,0.73,0.45,0.57,1*02
$GNGSA,A,3,73,80,86,71,85,,,,,,,,0.73,0.45,0.57,2*0C
$GNGSA,A,3,13,07,08,26,30,02,15,,,,,,0.73,0.45,0.57,3*08
$GNGSA,A,3,08,38,13,39,16,06,46,19,09,36,20,35,0.73,0.45,0.57,4*0B
$GNGSA,A,3,22,37,29,,,,,,,,,,0.73,0.45,0.57,4*0C
$GPGSV,4,1,16,196,76,073,19,24,62,034,39,23,61,346,26,199,60,167,36,1*6B
$GPGSV,4,2,16,18,51,228,46,41,38,242,41,194,35,136,41,15,31,058,20,1*5F
$GPGSV,4,3,16,195,30,179,36,12,27,132,40,10,26,323,45,25,17,170,14,1*56
$GPGSV,4,4,16,32,14,278,33,05,12,126,15,28,03,221,,13,02,065,,1*66
$GPGSV,3,1,10,196,76,073,34,24,62,034,36,23,61,346,32,199,60,167,47,8*60
$GPGSV,3,2,10,18,51,228,46,194,35,136,45,195,30,179,37,10,26,323,46,8*65
$GPGSV,3,3,10,25,17,170,20,32,14,278,33,8*60
$GLGSV,2,1,06,73,51,152,41,80,45,057,28,86,28,288,38,71,27,326,33,1*76
$GLGSV,2,2,06,85,26,234,13,79,02,026,,1*78
$GAGSV,3,1,09,13,48,221,43,07,46,315,42,08,43,035,24,26,35,297,40,7*71
$GAGSV,3,2,09,30,33,137,39,02,27,075,14,15,14,173,20,27,07,184,,7*7E
$GAGSV,3,3,09,03,06,072,,7*4A
$GAGSV,2,1,08,13,48,221,44,07,46,315,45,08,43,035,29,26,35,297,40,1*7A
$GAGSV,2,2,08,30,33,137,44,02,27,075,17,15,14,173,24,03,06,072,14,1*7F
$GBGSV,4,1,15,08,85,347,38,38,81,155,43,13,72,323,44,39,69,297,43,1*76
$GBGSV,4,2,15,16,65,272,41,06,64,267,39,46,62,089,27,19,54,358,38,1*71
$GBGSV,4,3,15,09,50,248,37,36,45,183,45,20,40,076,30,35,18,259,28,1*73
$GBGSV,4,4,15,22,17,309,33,37,16,042,27,29,12,205,16,1*46
$GBGSV,3,1,10,38,81,155,44,39,69,297,45,46,62,089,37,19,54,358,27,4*7A
$GBGSV,3,2,10,36,45,183,44,20,40,076,35,35,18,259,25,22,17,309,39,4*7C
$GBGSV,3,3,10,37,16,042,27,29,12,205,19,4*75
$GNACCURACY,2.3*17
$PAIRSAT,1,35,1,0,200,2,0,200,3,0,200,4,0,200,5,0,201,6,0,200,7,0,200,8,0,200,9,0,200,10,0,221,11,0,200,12,0,201,13,0,201,14,0,200,15,0,201,16,0,200,17,0,200,18,0,221,19,0,200,20,0,200,21,0,200,23,0,221,24,0,221,25,0,220,26,0,200,27,0,200,28,0,200,29,0,200,30,0,200,31,0,200,32,0,221,194,0,621,195,0,621,196,0,620,199,0,621*6A
$PAIRSAT,2,24,65,0,200,66,0,200,67,0,200,68,0,200,69,0,200,70,0,200,71,0,201,72,0,200,73,0,201,74,0,200,75,0,200,76,0,200,77,0,200,78,0,200,79,0,201,80,0,201,81,0,200,82,0,200,83,0,200,84,0,200,85,0,201,86,0,201,87,0,200,88,0,200*7A
$PAIRSAT,3,23,2,0,1221,3,0,1221,4,0,1200,5,0,200,7,0,1221,8,0,1221,9,0,1200,10,0,1200,11,0,1200,12,0,1200,13,0,1221,15,0,1221,19,0,1200,21,0,1200,24,0,1200,25,0,1200,26,0,1221,27,0,1200,30,0,1221,31,0,1200,33,0,1200,34,0,1200,36,0,1200*6A
$PAIRSAT,4,50,1,0,200,2,0,200,3,0,200,4,0,200,5,0,200,6,0,201,7,0,200,8,0,201,9,0,201,10,0,200,11,0,200,12,0,200,13,0,201,14,0,200,15,0,200,16,0,201,19,0,621,20,0,621,21,0,600,22,0,621,23,0,600,24,0,600,25,0,600,26,0,600,27,0,600,28,0,600,29,0,621,30,0,600,31,0,200,32,0,600,33,0,600,34,0,600,35,0,621,36,0,621,37,0,621,38,0,621,39,0,621,40,0,600,41,0,600,42,0,600,43,0,600,44,0,600,45,0,600,46,0,621,56,0,200,57,0,200,58,0,200,59,0,600,60,0,600,61,0,600*41
$PAIRDGP,10,5,10,12,15,18,23,24,25,28,32*45
$GNGGA,115030.200,2500.8252414,N,12132.4592575,E,2,63,0.45,15.983,M,15.25,M,5,3335*42
$GNRMC,115030.200,A,2500.8252414,N,12132.4592575,E,0.01,222.33,260623,,,D,V*0E
$GPHDT,227.101,T*32
$GNACCURACY,2.3*17
$GNGGA,115030.300,2500.8252474,N,12132.4592695,E,2,63,0.45,15.980,M,15.25,M,5,3335*4B
$GNRMC,115030.300,A,2500.8252474,N,12132.4592695,E,0.01,222.33,260623,,,D,V*04
$GPHDT,,T*1B
$GNACCURACY,2.3*17
$GNGGA,115030.400,2500.8252534,N,12132.4592755,E,2,63,0.45,15.973,M,15.25,M,5,3335*48
$GNRMC,115030.400,A,2500.8252534,N,12132.4592755,E,0.02,222.33,260623,,,D,V*08
$GPHDT,227.496,T*39
$GNACCURACY,2.3*17
$GNGGA,115030.500,2500.8252654,N,12132.4592815,E,2,62,0.45,15.966,M,15.25,M,5,3335*42
$GNRMC,115030.500,A,2500.8252654,N,12132.4592815,E,0.01,222.33,260623,,,D,V*04
$GPHDT,,T*1B
$GNACCURACY,2.3*17
$GNGGA,115030.600,2500.8252714,N,12132.4592875,E,2,61,0.47,15.962,M,15.25,M,5,3335*47
$GNRMC,115030.600,A,2500.8252714,N,12132.4592875,E,0.01,222.33,260623,,,D,V*04
$GPHDT,227.229,T*3B
$GNACCURACY,2.3*17
$GNGGA,115030.700,2500.8252774,N,12132.4592995,E,2,62,0.47,15.954,M,15.25,M,5,3335*49
$GNRMC,115030.700,A,2500.8252774,N,12132.4592995,E,0.01,222.33,260623,,,D,V*0C
$GPHDT,,T*1B
$GNACCURACY,2.3*17
$GNGGA,115030.800,2500.8252834,N,12132.4592995,E,2,61,0.47,15.946,M,15.25,M,5,3335*4D
$GNRMC,115030.800,A,2500.8252834,N,12132.4592995,E,0.01,222.33,260623,,,D,V*08
$GPHDT,226.700,T*34
$GNACCURACY,2.3*17
$GNGGA,115030.900,2500.8252954,N,12132.4593115,E,2,61,0.47,15.938,M,15.25,M,5,3335*43
$GNRMC,115030.900,A,2500.8252954,N,12132.4593115,E,0.02,222.33,260623,,,D,V*0C
$GPHDT,,T*1B
$GNACCURACY,2.3*17
$GNGGA,115031.000,2500.8253014,N,12132.4593175,E,2,62,0.47,15.933,M,15.25,M,6,3335*4A
$GNRMC,115031.000,A,2500.8253014,N,12132.4593175,E,0.01,222.33,260623,,,D,V*0D
$GPHDT,226.642,T*33
$GNACCURACY,2.3*17
$GNGGA,115031.100,2500.8253074,N,12132.4593235,E,2,62,0.47,15.931,M,15.25,M,6,3335*48
$GNRMC,115031.100,A,2500.8253074,N,12132.4593235,E,0.01,222.33,260623,,,D,V*0D
$GPHDT,,T*1B
$GNGSA,A,3,196,24,23,199,18,194,195,12,10,32,25,,0.74,0.47,0.57,1*07
$GNGSA,A,3,73,80,86,71,,,,,,,,,0.74,0.47,0.57,2*04
$GNGSA,A,3,13,07,08,26,30,02,15,,,,,,0.74,0.47,0.57,3*0D
$GNGSA,A,3,08,38,13,39,16,06,46,19,09,36,20,35,0.74,0.47,0.57,4*0E
$GNGSA,A,3,22,37,29,,,,,,,,,,0.74,0.47,0.57,4*09
$GPGSV,4,1,16,196,76,073,20,24,62,034,39,23,61,346,25,199,60,167,36,1*62
$GPGSV,4,2,16,18,51,228,46,41,38,242,40,194,35,136,40,15,31,058,19,1*55
$GPGSV,4,3,16,195,30,179,36,12,27,132,40,10,26,323,45,25,17,170,14,1*56
$GPGSV,4,4,16,32,14,278,33,05,12,126,15,28,03,221,,13,02,065,,1*66
$GPGSV,3,1,10,196,76,073,34,24,62,034,36,23,61,346,31,199,60,167,47,8*63
$GPGSV,3,2,10,18,51,228,46,194,35,136,45,195,30,179,37,10,26,323,46,8*65
$GPGSV,3,3,10,25,17,170,20,32,14,278,34,8*67
$GLGSV,2,1,06,73,51,152,40,80,45,057,28,86,28,288,36,71,27,326,31,1*7B
$GLGSV,2,2,06,85,26,234,12,79,02,026,,1*79
$GAGSV,3,1,09,13,48,221,43,07,46,315,42,08,43,035,24,26,35,297,40,7*71
$GAGSV,3,2,09,30,33,137,39,02,27,075,13,15,14,173,20,27,07,184,,7*79
$GAGSV,3,3,09,03,06,072,,7*4A
$GAGSV,2,1,08,13,48,221,44,07,46,315,45,08,43,035,29,26,35,297,40,1*7A
$GAGSV,2,2,08,30,33,137,44,02,27,075,16,15,14,173,23,03,06,072,11,1*7C
$GBGSV,4,1,15,08,85,347,38,38,81,155,43,13,72,323,44,39,69,297,43,1*76
$GBGSV,4,2,15,16,65,272,41,06,64,267,39,46,62,089,27,19,54,358,38,1*71
$GBGSV,4,3,15,09,50,248,36,36,45,183,44,20,40,076,30,35,18,259,35,1*7F
$GBGSV,4,4,15,22,17,309,33,37,16,042,22,29,12,205,16,1*43
$GBGSV,3,1,10,38,81,155,44,39,69,297,45,46,62,089,37,19,54,358,28,4*75
$GBGSV,3,2,10,36,45,183,44,20,40,076,35,35,18,259,29,22,17,309,39,4*70
$GBGSV,3,3,10,37,16,042,27,29,12,205,20,4*7F
$GNACCURACY,2.3*17
$PAIRSAT,1,35,1,0,200,2,0,200,3,0,200,4,0,200,5,0,201,6,0,200,7,0,200,8,0,200,9,0,200,10,0,221,11,0,200,12,0,201,13,0,201,14,0,200,15,0,201,16,0,200,17,0,200,18,0,221,19,0,200,20,0,200,21,0,200,23,0,221,24,0,221,25,0,220,26,0,200,27,0,200,28,0,200,29,0,200,30,0,200,31,0,200,32,0,221,194,0,621,195,0,621,196,0,620,199,0,621*6A
$PAIRSAT,2,24,65,0,200,66,0,200,67,0,200,68,0,200,69,0,200,70,0,200,71,0,201,72,0,200,73,0,201,74,0,200,75,0,200,76,0,200,77,0,200,78,0,200,79,0,201,80,0,201,81,0,200,82,0,200,83,0,200,84,0,200,85,0,201,86,0,201,87,0,200,88,0,200*7A
$PAIRSAT,3,23,2,0,1221,3,0,1221,4,0,1200,5,0,200,7,0,1221,8,0,1221,9,0,1200,10,0,1200,11,0,1200,12,0,1200,13,0,1221,15,0,1221,19,0,1200,21,0,1200,24,0,1200,25,0,1200,26,0,1221,27,0,1200,30,0,1221,31,0,1200,33,0,1200,34,0,1200,36,0,1200*6A
$PAIRSAT,4,50,1,0,200,2,0,200,3,0,200,4,0,200,5,0,200,6,0,201,7,0,200,8,0,201,9,0,201,10,0,200,11,0,200,12,0,200,13,0,201,14,0,200,15,0,200,16,0,201,19,0,621,20,0,621,21,0,600,22,0,621,23,0,600,24,0,600,25,0,600,26,0,600,27,0,600,28,0,600,29,0,621,30,0,600,31,0,200,32,0,600,33,0,600,34,0,600,35,0,621,36,0,621,37,0,621,38,0,621,39,0,621,40,0,600,41,0,600,42,0,600,43,0,600,44,0,600,45,0,600,46,0,621,56,0,200,57,0,200,58,0,200,59,0,600,60,0,600,61,0,600*41
$PAIRDGP,10,5,10,12,15,18,23,24,25,28,32*45
$GNGGA,115031.200,2500.8253194,N,12132.4593355,E,2,62,0.47,15.927,M,15.25,M,6,3335*44
$GNRMC,115031.200,A,2500.8253194,N,12132.4593355,E,0.02,222.33,260623,,,D,V*05
$GPHDT,226.329,T*3B
$GNACCURACY,2.3*17
$GNGGA,115031.300,2500.8253254,N,12132.4593415,E,2,62,0.47,15.921,M,15.25,M,6,3335*4F
$GNRMC,115031.300,A,2500.8253254,N,12132.4593415,E,0.01,222.33,260623,,,D,V*0B
$GPHDT,,T*1B
$GNACCURACY,2.3*17
$GNGGA,115031.400,2500.8253314,N,12132.4593535,E,2,61,0.47,15.914,M,15.25,M,5,3335*48
$GNRMC,115031.400,A,2500.8253314,N,12132.4593535,E,0.02,222.33,260623,,,D,V*09
$GPHDT,226.899,T*3B
$GNACCURACY,2.3*17
$GNGGA,115031.500,2500.8253374,N,12132.4593535,E,2,61,0.47,15.906,M,15.25,M,5,3335*4C
$GNRMC,115031.500,A,2500.8253374,N,12132.4593535,E,0.01,222.33,260623,,,D,V*0D
$GPHDT,,T*1B
$GNACCURACY,2.3*17
$GNGGA,115031.600,2500.8253494,N,12132.4593595,E,2,61,0.47,15.897,M,15.25,M,5,3335*45
$GNRMC,115031.600,A,2500.8253494,N,12132.4593595,E,0.02,222.33,260623,,,D,V*0E
$GPHDT,226.993,T*30
$GNACCURACY,2.3*17
$GNGGA,115031.700,2500.8253554,N,12132.4593655,E,2,61,0.47,15.894,M,15.25,M,5,3335*45
$GNRMC,115031.700,A,2500.8253554,N,12132.4593655,E,0.01,222.33,260623,,,D,V*0E
$GPHDT,,T*1B
$GNACCURACY,2.3*17
$GNGGA,115031.800,2500.8253614,N,12132.4593715,E,2,61,0.47,15.889,M,15.25,M,5,3335*44
$GNRMC,115031.800,A,2500.8253614,N,12132.4593715,E,0.00,222.33,260623,,,D,V*02
$GPHDT,226.996,T*35
$GNACCURACY,2.3*17
$GNGGA,115031.900,2500.8253674,N,12132.4593775,E,2,61,0.47,15.885,M,15.25,M,5,3335*49
$GNRMC,115031.900,A,2500.8253674,N,12132.4593775,E,0.00,222.33,260623,,,D,V*03
$GPHDT,,T*1B
$GNACCURACY,2.3*17
$GNGGA,115032.000,2500.8253734,N,12132.4593895,E,2,61,0.47,15.881,M,15.25,M,6,3335*40
$GNRMC,115032.000,A,2500.8253734,N,12132.4593895,E,0.01,222.33,260623,,,D,V*0C
$GPHDT,226.631,T*37
$GNACCURACY,2.3*17
$GNGGA,115032.100,2500.8253854,N,12132.4593955,E,2,61,0.47,15.878,M,15.25,M,6,3335*43
$GNRMC,115032.100,A,2500.8253854,N,12132.4593955,E,0.01,222.33,260623,,,D,V*09
$GPHDT,,T*1B
$GNGSA,A,3,196,24,23,199,18,194,195,12,10,32,25,,0.74,0.47,0.57,1*07
$GNGSA,A,3,73,80,86,71,,,,,,,,,0.74,0.47,0.57,2*04
$GNGSA,A,3,13,07,08,26,30,02,15,,,,,,0.74,0.47,0.57,3*0D
$GNGSA,A,3,08,38,13,39,16,06,46,19,09,36,20,35,0.74,0.47,0.57,4*0E
$GNGSA,A,3,22,37,29,,,,,,,,,,0.74,0.47,0.57,4*09
$GPGSV,4,1,16,196,76,073,20,24,62,034,39,23,61,346,26,199,60,167,35,1*62
$GPGSV,4,2,16,18,51,228,44,41,38,242,40,194,35,136,40,15,31,058,18,1*56
$GPGSV,4,3,16,195,30,179,36,12,27,132,40,10,26,323,45,25,17,170,14,1*56
$GPGSV,4,4,16,32,14,278,28,05,12,126,12,28,03,221,,13,02,065,,1*6B
$GPGSV,3,1,10,196,76,073,34,24,62,034,36,23,61,346,31,199,60,167,47,8*63
$GPGSV,3,2,10,18,51,228,45,194,35,136,44,195,30,179,37,10,26,323,46,8*67
$GPGSV,3,3,10,25,17,170,22,32,14,278,33,8*62
$GLGSV,2,1,06,73,51,152,40,80,45,057,28,86,28,288,36,71,27,326,33,1*79
$GLGSV,2,2,06,85,26,234,16,79,02,026,,1*7D
$GAGSV,3,1,09,13,48,221,41,07,46,315,42,08,43,036,24,26,35,297,40,7*70
$GAGSV,3,2,09,30,33,137,39,02,27,075,13,15,14,173,20,27,07,184,,7*79
$GAGSV,3,3,09,03,06,072,18,7*43
$GAGSV,2,1,08,13,48,221,42,07,46,315,45,08,43,036,29,26,35,297,41,1*7E
$GAGSV,2,2,08,30,33,137,42,02,27,075,16,15,14,173,25,03,06,072,10,1*7D
$GBGSV,4,1,16,08,85,347,38,38,81,155,43,13,72,323,44,39,69,297,44,1*72
$GBGSV,4,2,16,16,65,272,41,06,64,267,39,46,62,089,28,19,54,358,38,1*7D
$GBGSV,4,3,16,09,50,248,39,36,45,183,44,20,40,076,30,35,18,259,33,1*75
$GBGSV,4,4,16,22,17,309,34,37,16,042,20,29,12,205,16,44,03,303,,1*76
$GBGSV,3,1,10,38,81,155,44,39,69,297,45,46,62,089,37,19,54,358,28,4*75
$GBGSV,3,2,10,36,45,183,44,20,40,076,35,35,18,259,30,22,17,309,39,4*78
$GBGSV,3,3,10,37,16,042,27,29,12,205,19,4*75
$GNACCURACY,2.3*17
$PAIRSAT,1,35,1,0,200,2,0,200,3,0,200,4,0,200,5,0,201,6,0,200,7,0,200,8,0,200,9,0,200,10,0,221,11,0,200,12,0,201,13,0,201,14,0,200,15,0,201,16,0,200,17,0,200,18,0,221,19,0,200,20,0,200,21,0,200,23,0,221,24,0,221,25,0,220,26,0,200,27,0,200,28,0,200,29,0,200,30,0,200,31,0,200,32,0,221,194,0,621,195,0,621,196,0,620,199,0,621*6A
$PAIRSAT,2,24,65,0,200,66,0,200,67,0,200,68,0,200,69,0,200,70,0,200,71,0,201,72,0,200,73,0,201,74,0,200,75,0,200,76,0,200,77,0,200,78,0,200,79,0,201,80,0,201,81,0,200,82,0,200,83,0,200,84,0,200,85,0,201,86,0,201,87,0,200,88,0,200*7A
$PAIRSAT,3,23,2,0,1221,3,0,1221,4,0,1200,5,0,200,7,0,1221,8,0,1221,9,0,1200,10,0,1200,11,0,1200,12,0,1200,13,0,1221,15,0,1221,19,0,1200,21,0,1200,24,0,1200,25,0,1200,26,0,1221,27,0,1200,30,0,1221,31,0,1200,33,0,1200,34,0,1200,36,0,1200*6A
$PAIRSAT,4,50,1,0,200,2,0,200,3,0,200,4,0,200,5,0,200,6,0,201,7,0,200,8,0,201,9,0,201,10,0,200,11,0,200,12,0,200,13,0,201,14,0,200,15,0,200,16,0,201,19,0,621,20,0,621,21,0,600,22,0,621,23,0,600,24,0,600,25,0,600,26,0,600,27,0,600,28,0,600,29,0,621,30,0,600,31,0,200,32,0,600,33,0,600,34,0,600,35,0,621,36,0,621,37,0,621,38,0,621,39,0,621,40,0,600,41,0,600,42,0,600,43,0,600,44,0,600,45,0,600,46,0,621,56,0,200,57,0,200,58,0,200,59,0,600,60,0,600,61,0,600*41
$PAIRDGP,10,5,10,12,15,18,23,24,25,28,32*45
$GNGGA,115032.200,2500.8253854,N,12132.4593955,E,2,61,0.47,15.869,M,15.25,M,6,3335*40
$GNRMC,115032.200,A,2500.8253854,N,12132.4593955,E,0.01,222.33,260623,,,D,V*0A
$GPHDT,226.842,T*3D
$GNACCURACY,2.3*17
$GNGGA,115032.300,2500.8253914,N,12132.4594015,E,2,61,0.47,15.861,M,15.25,M,6,3335*46
$GNRMC,115032.300,A,2500.8253914,N,12132.4594015,E,0.01,222.33,260623,,,D,V*04
$GPHDT,,T*1B
$GNACCURACY,2.3*17
$GNGGA,115032.400,2500.8253974,N,12132.4594075,E,2,62,0.47,15.851,M,15.25,M,6,3335*41
$GNRMC,115032.400,A,2500.8253974,N,12132.4594075,E,0.02,222.33,260623,,,D,V*00
$GPHDT,225.707,T*30
$GNACCURACY,2.3*17
$GNGGA,115032.500,2500.8254034,N,12132.4594075,E,2,61,0.47,15.845,M,15.25,M,6,3335*4C
$GNRMC,115032.500,A,2500.8254034,N,12132.4594075,E,0.03,222.33,260623,,,D,V*0A
$GPHDT,,T*1B
$GNACCURACY,2.3*17
$GNGGA,115032.600,2500.8254094,N,12132.4594135,E,2,61,0.47,15.842,M,15.25,M,6,3335*47
$GNRMC,115032.600,A,2500.8254094,N,12132.4594135,E,0.02,222.33,260623,,,D,V*07
$GPHDT,227.561,T*30
$GNACCURACY,2.3*17
$GNGGA,115032.700,2500.8254154,N,12132.4594195,E,2,61,0.47,15.833,M,15.25,M,6,3335*47
$GNRMC,115032.700,A,2500.8254154,N,12132.4594195,E,0.04,222.33,