$FW : RTK35X,V1.1X0314AS,Lib20210517,1*54
$Tool : LOCOSYS , GNSS Firebird , v1.0.0.19*39
$---------------------------------------------------*2D
$GPHDT,,T*1B
$GNACCURACY,2.2*16
$GNGGA,115008.600,2500.8246044,N,12132.4587970,E,4,64,0.43,16.032,M,15.25,M,0,3335*46
$GNRMC,115008.600,A,2500.8246044,N,12132.4587970,E,0.02,222.33,260623,,,R,V*1D
$GPHDT,268.173,T*3C
$GNACCURACY,2.2*16
$GNGGA,115008.700,2500.8246016,N,12132.4587943,E,4,63,0.45,16.042,M,15.25,M,0,3335*46
$GNRMC,115008.700,A,2500.8246016,N,12132.4587943,E,0.02,222.33,260623,,,R,V*1B
$GPHDT,,T*1B
$GNACCURACY,2.2*16
$GNGGA,115008.800,2500.8246016,N,12132.4587924,E,4,63,0.45,16.037,M,15.25,M,0,3335*4A
$GNRMC,115008.800,A,2500.8246016,N,12132.4587924,E,0.02,222.33,260623,,,R,V*15
$GPHDT,268.457,T*3F
$GNACCURACY,2.2*16
$GNGGA,115008.900,2500.8246017,N,12132.4587915,E,4,64,0.43,16.034,M,15.25,M,0,3335*4A
$GNRMC,115008.900,A,2500.8246017,N,12132.4587915,E,0.02,222.33,260623,,,R,V*17
$GPHDT,,T*1B
$GNACCURACY,2.2*16
$GNGGA,115009.000,2500.8246025,N,12132.4587946,E,4,63,0.45,16.031,M,15.25,M,1,3335*40
$GNRMC,115009.000,A,2500.8246025,N,12132.4587946,E,0.01,222.33,260623,,,R,V*1B
$PAIR010,0,1,2268,129027*3B
$GPHDT,268.323,T*3B
$GNACCURACY,2.2*16
$GNGGA,115009.100,2500.8246033,N,12132.4587918,E,4,63,0.45,16.027,M,15.25,M,1,3335*4A
$GNRMC,115009.100,A,2500.8246033,N,12132.4587918,E,0.01,222.33,260623,,,R,V*16
$GPHDT,,T*1B
$GNGSA,A,3,196,24,23,199,18,194,195,12,10,32,05,25,0.71,0.45,0.55,1*07
$GNGSA,A,3,73,80,86,71,85,,,,,,,,0.71,0.45,0.55,2*0C
$GNGSA,A,3,13,07,08,26,30,02,15,,,,,,0.71,0.45,0.55,3*08
$GNGSA,A,3,08,38,13,39,16,06,46,19,09,36,20,35,0.71,0.45,0.55,4*0B
$GNGSA,A,3,22,37,29,,,,,,,,,,0.71,0.45,0.55,4*0C
$GPGSV,4,1,16,196,76,073,22,24,62,034,37,23,61,346,25,199,60,167,36,1*6E
$GPGSV,4,2,16,18,52,228,44,41,38,242,40,194,35,136,40,15,32,058,23,1*5E
$GPGSV,4,3,16,195,30,179,37,12,27,132,42,10,26,323,40,25,17,171,16,1*53
$GPGSV,4,4,16,32,14,278,36,05,12,126,20,13,02,064,,28,02,221,,1*65
$GPGSV,3,1,10,196,76,073,33,24,62,034,35,23,61,346,31,199,60,167,47,8*67
$GPGSV,3,2,10,18,52,228,46,194,35,136,42,195,30,179,37,10,26,323,42,8*65
$GPGSV,3,3,10,25,17,171,27,32,14,278,36,8*63
$GLGSV,2,1,08,73,51,152,43,80,45,057,29,70,42,026,,86,28,288,41,1*74
$GLGSV,2,2,08,71,26,326,32,85,26,234,18,69,09,085,21,79,03,026,,1*70
$GAGSV,3,1,09,13,48,221,43,07,46,315,42,08,43,035,23,26,35,297,41,7*77
$GAGSV,3,2,09,30,33,137,42,02,27,076,17,15,14,173,20,27,07,184,,7*72
$GAGSV,3,3,09,03,07,071,,7*48
$GAGSV,2,1,05,13,48,221,44,07,46,315,41,26,35,297,36,30,33,137,41,1*73
$GAGSV,2,2,05,02,27,076,18,1*4F
$GBGSV,4,1,15,08,85,347,37,38,81,155,43,13,72,323,43,39,69,297,43,1*7E
$GBGSV,4,2,15,16,66,272,43,06,64,267,41,46,62,090,25,19,53,358,34,1*7E
$GBGSV,4,3,15,09,50,248,39,36,45,183,44,20,40,076,30,35,18,259,38,1*7D
$GBGSV,4,4,15,22,17,308,34,37,16,042,18,29,12,205,26,1*4F
$GBGSV,3,1,10,38,81,155,44,39,69,297,46,46,62,090,39,19,53,358,27,4*78
$GBGSV,3,2,10,36,45,183,46,20,40,076,32,35,18,259,33,22,17,308,21,4*76
$GBGSV,3,3,10,37,16,042,34,29,12,205,23,4*7E
$GNACCURACY,2.2*16
$PAIRSAT,1,35,1,0,200,2,0,200,3,0,200,4,0,200,5,0,201,6,0,200,7,0,200,8,0,200,9,0,200,10,0,221,11,0,200,12,0,201,13,0,201,14,0,200,15,0,201,16,0,200,17,0,200,18,0,221,19,0,200,20,0,200,21,0,200,23,0,221,24,0,221,25,0,220,26,0,200,27,0,200,28,0,200,29,0,200,30,0,200,31,0,200,32,0,221,194,0,621,195,0,621,196,0,620,199,0,621*6A
$PAIRSAT,2,24,65,0,200,66,0,200,67,0,200,68,0,200,69,0,200,70,0,200,71,0,201,72,0,200,73,0,201,74,0,200,75,0,200,76,0,200,77,0,200,78,0,200,79,0,201,80,0,201,81,0,200,82,0,200,83,0,200,84,0,200,85,0,201,86,0,201,87,0,200,88,0,200*7A
$PAIRSAT,3,23,2,0,1221,3,0,1221,4,0,1200,5,0,200,7,0,1221,8,0,1221,9,0,1200,10,0,1200,11,0,1200,12,0,1200,13,0,1221,15,0,1221,19,0,1200,21,0,1200,24,0,1200,25,0,1200,26,0,1221,27,0,1200,30,0,1221,31,0,1200,33,0,1200,34,0,1200,36,0,1200*6A
$PAIRSAT,4,50,1,0,200,2,0,200,3,0,200,4,0,200,5,0,200,6,0,201,7,0,200,8,0,201,9,0,201,10,0,200,11,0,200,12,0,200,13,0,201,14,0,200,15,0,200,16,0,201,19,0,621,20,0,621,21,0,600,22,0,621,23,0,600,24,0,600,25,0,600,26,0,600,27,0,600,28,0,600,29,0,621,30,0,600,31,0,200,32,0,600,33,0,600,34,0,600,35,0,621,36,0,621,37,0,621,38,0,621,39,0,621,40,0,600,41,0,600,42,0,600,43,0,600,44,0,600,45,0,600,46,0,621,56,0,200,57,0,200,58,0,200,59,0,600,60,0,600,61,0,600*41
$PAIRDGP,10,5,10,12,15,18,23,24,25,28,32*45
$GNGGA,115009.200,2500.8246032,N,12132.4587929,E,4,63,0.45,16.035,M,15.25,M,1,3335*49
$GNRMC,115009.200,A,2500.8246032,N,12132.4587929,E,0.01,222.33,260623,,,R,V*16
$GPHDT,268.462,T*39
$GNACCURACY,2.2*16
$GNGGA,115009.300,2500.8246025,N,12132.4587932,E,4,63,0.43,16.042,M,15.25,M,1,3335*42
$GNRMC,115009.300,A,2500.8246025,N,12132.4587932,E,0.01,222.33,260623,,,R,V*1B
$GPHDT,,T*1B
$GNACCURACY,2.2*16
$GNGGA,115009.400,2500.8246031,N,12132.4587946,E,4,63,0.43,16.029,M,15.25,M,1,3335*4E
$GNRMC,115009.400,A,2500.8246031,N,12132.4587946,E,0.00,222.33,260623,,,R,V*1B
$GPHDT,268.705,T*3B
$GNACCURACY,2.2*16
$GNGGA,115009.500,2500.8246034,N,12132.4587941,E,4,63,0.43,16.042,M,15.25,M,1,3335*40
$GNRMC,115009.500,A,2500.8246034,N,12132.4587941,E,0.00,222.33,260623,,,R,V*18
$GPHDT,,T*1B
$GNACCURACY,2.2*16
$GNGGA,115009.600,2500.8245986,N,12132.4587910,E,4,63,0.43,16.056,M,15.25,M,1,3335*41
$GNRMC,115009.600,A,2500.8245986,N,12132.4587910,E,0.01,222.33,260623,,,R,V*1D
$GPHDT,268.511,T*3C
$GNACCURACY,2.2*16
$GNGGA,115009.700,2500.8245994,N,12132.4587916,E,4,63,0.43,16.051,M,15.25,M,1,3335*42
$GNRMC,115009.700,A,2500.8245994,N,12132.4587916,E,0.01,222.33,260623,,,R,V*19
$GPHDT,,T*1B
$GNACCURACY,2.2*16
$GNGGA,115009.800,2500.8246010,N,12132.4587927,E,4,63,0.43,16.039,M,15.25,M,0,3335*46
$GNRMC,115009.800,A,2500.8246010,N,12132.4587927,E,0.01,222.33,260623,,,R,V*12
$GPHDT,268.482,T*37
$GNACCURACY,2.2*16
$GNGGA,115009.900,2500.8246025,N,12132.4587929,E,4,63,0.43,16.036,M,15.25,M,0,3335*40
$GNRMC,115009.900,A,2500.8246025,N,12132.4587929,E,0.01,222.33,260623,,,R,V*1B
$GPHDT,,T*1B
$GNACCURACY,2.2*16
$GNGGA,115010.000,2500.8246014,N,12132.4587941,E,4,63,0.43,16.048,M,15.25,M,1,3335*45
$GNRMC,115010.000,A,2500.8246014,N,12132.4587941,E,0.01,222.33,260623,,,R,V*16
$GPHDT,268.344,T*3A
$GNACCURACY,2.2*16
$GNGGA,115010.100,2500.8246009,N,12132.4587939,E,4,63,0.43,16.043,M,15.25,M,1,3335*4C
$GNRMC,115010.100,A,2500.8246009,N,12132.4587939,E,0.01,222.33,260623,,,R,V*14
$GPHDT,,T*1B
$GNGSA,A,3,196,24,23,199,18,194,15,195,12,10,32,05,0.70,0.43,0.55,1*03
$GNGSA,A,3,25,,,,,,,,,,,,0.70,0.43,0.55,1*06
$GNGSA,A,3,73,80,86,71,85,,,,,,,,0.70,0.43,0.55,2*0B
$GNGSA,A,3,13,07,08,26,30,02,15,,,,,,0.70,0.43,0.55,3*0F
$GNGSA,A,3,08,38,13,39,16,06,46,19,09,36,20,35,0.70,0.43,0.55,4*0C
$GNGSA,A,3,22,29,37,,,,,,,,,,0.70,0.43,0.55,4*0B
$GPGSV,4,1,16,196,76,073,25,24,62,034,38,23,61,346,25,199,60,167,36,1*66
$GPGSV,4,2,16,18,52,228,44,41,38,242,40,194,35,136,40,15,32,058,24,1*59
$GPGSV,4,3,16,195,30,179,37,12,27,132,42,10,26,323,39,25,17,171,14,1*5F
$GPGSV,4,4,16,32,14,278,35,05,12,126,20,13,02,064,,28,02,221,,1*66
$GPGSV,3,1,10,196,76,073,33,24,62,034,35,23,61,346,31,199,60,167,47,8*67
$GPGSV,3,2,10,18,52,228,46,194,35,136,42,195,30,179,37,10,26,323,41,8*66
$GPGSV,3,3,10,25,17,171,28,32,14,278,36,8*6C
$GLGSV,2,1,08,73,51,152,43,80,45,057,29,70,42,026,,86,28,288,41,1*74
$GLGSV,2,2,08,71,26,326,30,85,26,234,18,69,09,085,20,79,03,026,,1*73
$GAGSV,3,1,09,13,48,221,43,07,46,315,42,08,43,035,24,26,35,297,41,7*70
$GAGSV,3,2,09,30,33,137,42,02,27,076,17,15,14,173,22,27,07,184,,7*70
$GAGSV,3,3,09,03,07,071,,7*48
$GAGSV,2,1,05,13,48,221,44,07,46,315,41,26,35,297,36,30,33,137,41,1*73
$GAGSV,2,2,05,02,27,076,18,1*4F
$GBGSV,4,1,15,08,85,347,37,38,81,155,43,13,72,323,43,39,69,297,43,1*7E
$GBGSV,4,2,15,16,66,272,43,06,64,267,41,46,62,089,22,19,53,358,34,1*71
$GBGSV,4,3,15,09,50,248,39,36,45,183,43,20,40,076,29,35,18,259,36,1*7C
$GBGSV,4,4,15,22,17,308,34,37,16,042,15,29,12,205,24,1*40
$GBGSV,3,1,10,38,81,155,44,39,69,297,46,46,62,089,39,19,53,358,26,4*71
$GBGSV,3,2,10,36,45,183,46,20,40,076,32,35,18,259,33,22,17,308,24,4*73
$GBGSV,3,3,10,37,16,042,33,29,12,205,22,4*78
$GNACCURACY,2.2*16
$PAIRSAT,1,35,1,0,200,2,0,200,3,0,200,4,0,200,5,0,201,6,0,200,7,0,200,8,0,200,9,0,200,10,0,221,11,0,200,12,0,201,13,0,201,14,0,200,15,0,201,16,0,200,17,0,200,18,0,221,19,0,200,20,0,200,21,0,200,23,0,221,24,0,221,25,0,220,26,0,200,27,0,200,28,0,200,29,0,200,30,0,200,31,0,200,32,0,221,194,0,621,195,0,621,196,0,620,199,0,621*6A
$PAIRSAT,2,24,65,0,200,66,0,200,67,0,200,68,0,200,69,0,200,70,0,200,71,0,201,72,0,200,73,0,201,74,0,200,75,0,200,76,0,200,77,0,200,78,0,200,79,0,201,80,0,201,81,0,200,82,0,200,83,0,200,84,0,200,85,0,201,86,0,201,87,0,200,88,0,200*7A
$PAIRSAT,3,23,2,0,1221,3,0,1221,4,0,1200,5,0,200,7,0,1221,8,0,1221,9,0,1200,10,0,1200,11,0,1200,12,0,1200,13,0,1221,15,0,1221,19,0,1200,21,0,1200,24,0,1200,25,0,1200,26,0,1221,27,0,1200,30,0,1221,31,0,1200,33,0,1200,34,0,1200,36,0,1200*6A
$PAIRSAT,4,50,1,0,200,2,0,200,3,0,200,4,0,200,5,0,200,6,0,201,7,0,200,8,0,201,9,0,201,10,0,200,11,0,200,12,0,200,13,0,201,14,0,200,15,0,200,16,0,201,19,0,621,20,0,621,21,0,600,22,0,621,23,0,600,24,0,600,25,0,600,26,0,600,27,0,600,28,0,600,29,0,621,30,0,600,31,0,200,32,0,600,33,0,600,34,0,600,35,0,621,36,0,621,37,0,621,38,0,621,39,0,621,40,0,600,41,0,600,42,0,600,43,0,600,44,0,600,45,0,600,46,0,621,56,0,200,57,0,200,58,0,200,59,0,600,60,0,600,61,0,600*41
$PAIRDGP,10,5,10,12,15,18,23,24,25,28,32*45
$GNGGA,115010.200,2500.8246008,N,12132.4587911,E,4,63,0.43,16.052,M,15.25,M,1,3335*44
$GNRMC,115010.200,A,2500.8246008,N,12132.4587911,E,0.01,222.33,260623,,,R,V*1C
$GPHDT,268.656,T*3C
$GNACCURACY,2.2*16
$GNGGA,115010.300,2500.8245974,N,12132.4587910,E,4,63,0.43,16.042,M,15.25,M,1,3335*44
$GNRMC,115010.300,A,2500.8245974,N,12132.4587910,E,0.01,222.33,260623,,,R,V*1D
$GPHDT,,T*1B
$GNACCURACY,2.2*16
$GNGGA,115010.400,2500.8245987,N,12132.4587922,E,4,63,0.43,16.049,M,15.25,M,1,3335*45
$GNRMC,115010.400,A,2500.8245987,N,12132.4587922,E,0.00,222.33,260623,,,R,V*16
$GPHDT,268.435,T*3B
$GNACCURACY,2.2*16
$GNGGA,115010.500,2500.8245983,N,12132.4587911,E,4,64,0.43,16.040,M,15.25,M,1,3335*4E
$GNRMC,115010.500,A,2500.8245983,N,12132.4587911,E,0.00,222.33,260623,,,R,V*13
$GPHDT,,T*1B
$GNACCURACY,2.2*16
$GNGGA,115010.600,2500.8245977,N,12132.4587913,E,4,63,0.43,16.047,M,15.25,M,1,3335*44
$GNRMC,115010.600,A,2500.8245977,N,12132.4587913,E,0.01,222.33,260623,,,R,V*18
$GPHDT,268.516,T*3B
$GNACCURACY,2.2*16
$GNGGA,115010.700,2500.8246015,N,12132.4587902,E,4,64,0.43,16.048,M,15.25,M,1,3335*43
$GNRMC,115010.700,A,2500.8246015,N,12132.4587902,E,0.01,222.33,260623,,,R,V*17
$GPHDT,,T*1B
$GNACCURACY,2.2*16
$GNGGA,115010.800,2500.8246001,N,12132.4587899,E,4,65,0.43,16.066,M,15.25,M,1,3335*47
$GNRMC,115010.800,A,2500.8246001,N,12132.4587899,E,0.01,222.33,260623,,,R,V*1E
$GPHDT,268.355,T*3A
$GNACCURACY,2.2*16
$GNGGA,115010.900,2500.8246016,N,12132.4587907,E,4,67,0.43,16.054,M,15.25,M,1,3335*45
$GNRMC,115010.900,A,2500.8246016,N,12132.4587907,E,0.01,222.33,260623,,,R,V*1F
$GPHDT,,T*1B
$GNACCURACY,2.2*16
$GNGGA,115011.000,2500.8246015,N,12132.4587946,E,4,67,0.43,16.025,M,15.25,M,1,3335*4D
$GNRMC,115011.000,A,2500.8246015,N,12132.4587946,E,0.02,222.33,260623,,,R,V*12
$GPHDT,268.336,T*3F
$GNACCURACY,2.2*16
$GNGGA,115011.100,2500.8246001,N,12132.4587917,E,4,67,0.43,16.038,M,15.25,M,1,3335*41
$GNRMC,115011.100,A,2500.8246001,N,12132.4587917,E,0.03,222.33,260623,,,R,V*13
$GPHDT,,T*1B
$GNGSA,A,3,196,24,23,199,18,194,15,195,12,10,25,32,0.72,0.45,0.56,1*06
$GNGSA,A,3,73,80,86,71,85,,,,,,,,0.72,0.45,0.56,2*0C
$GNGSA,A,3,13,07,08,26,30,02,15,,,,,,0.72,0.45,0.56,3*08
$GNGSA,A,3,08,38,13,39,16,06,46,19,09,36,20,35,0.72,0.45,0.56,4*0B
$GNGSA,A,3,22,37,29,,,,,,,,,,0.72,0.45,0.56,4*0C
$GPGSV,4,1,16,196,76,073,25,24,62,034,38,23,61,346,26,199,60,167,36,1*65
$GPGSV,4,2,16,18,52,228,44,41,38,242,40,194,35,136,40,15,32,058,22,1*5F
$GPGSV,4,3,16,195,30,179,37,12,27,132,42,10,26,323,40,25,17,171,17,1*52
$GPGSV,4,4,16,32,14,278,36,05,12,126,19,13,02,064,,28,02,221,,1*6F
$GPGSV,3,1,10,196,76,073,33,24,62,034,35,23,61,346,31,199,60,167,47,8*67
$GPGSV,3,2,10,18,52,228,46,194,35,136,42,195,30,179,37,10,26,323,42,8*65
$GPGSV,3,3,10,25,17,171,26,32,14,278,37,8*63
$GLGSV,2,1,07,73,51,152,43,80,45,057,30,86,28,288,41,71,26,326,35,1*75
$GLGSV,2,2,07,85,26,234,17,69,09,085,20,79,03,026,,1*45
$GAGSV,3,1,09,13,48,221,43,07,46,315,41,08,43,035,25,26,35,297,41,7*72
$GAGSV,3,2,09,30,33,137,42,02,27,076,17,15,14,173,20,27,07,184,,7*72
$GAGSV,3,3,09,03,07,071,,7*48
$GAGSV,2,1,07,13,48,221,44,07,46,315,41,08,43,035,24,26,35,297,37,1*7C
$GAGSV,2,2,07,30,33,137,41,02,27,076,17,15,14,173,23,1*44
$GBGSV,4,1,15,08,85,347,37,38,81,155,43,13,72,323,43,39,69,297,43,1*7E
$GBGSV,4,2,15,16,66,272,43,06,64,267,41,46,62,089,24,19,53,358,34,1*77
$GBGSV,4,3,15,09,50,248,39,36,45,183,44,20,40,076,29,35,18,259,37,1*7A
$GBGSV,4,4,15,22,17,308,34,37,16,042,17,29,12,205,24,1*42
$GBGSV,3,1,10,38,81,155,44,39,69,297,46,46,62,089,39,19,53,358,26,4*71
$GBGSV,3,2,10,36,45,183,46,20,40,076,32,35,18,259,35,22,17,308,23,4*72
$GBGSV,3,3,10,37,16,042,32,29,12,205,23,4*78
$GNACCURACY,2.2*16
$PAIRSAT,1,35,1,0,200,2,0,200,3,0,200,4,0,200,5,0,201,6,0,200,7,0,200,8,0,200,9,0,200,10,0,221,11,0,200,12,0,201,13,0,201,14,0,200,15,0,201,16,0,200,17,0,200,18,0,221,19,0,200,20,0,200,21,0,200,23,0,221,24,0,221,25,0,220,26,0,200,27,0,200,28,0,200,29,0,200,30,0,200,31,0,200,32,0,221,194,0,621,195,0,621,196,0,620,199,0,621*6A
$PAIRSAT,2,24,65,0,200,66,0,200,67,0,200,68,0,200,69,0,200,70,0,200,71,0,201,72,0,200,73,0,201,74,0,200,75,0,200,76,0,200,77,0,200,78,0,200,79,0,201,80,0,201,81,0,200,82,0,200,83,0,200,84,0,200,85,0,201,86,0,201,87,0,200,88,0,200*7A
$PAIRSAT,3,23,2,0,1221,3,0,1221,4,0,1200,5,0,200,7,0,1221,8,0,1221,9,0,1200,10,0,1200,11,0,1200,12,0,1200,13,0,1221,15,0,1221,19,0,1200,21,0,1200,24,0,1200,25,0,1200,26,0,1221,27,0,1200,30,0,1221,31,0,1200,33,0,1200,34,0,1200,36,0,1200*6A
$PAIRSAT,4,50,1,0,200,2,0,200,3,0,200,4,0,200,5,0,200,6,0,201,7,0,200,8,0,201,9,0,201,10,0,200,11,0,200,12,0,200,13,0,201,14,0,200,15,0,200,16,0,201,19,0,621,20,0,621,21,0,600,22,0,621,23,0,600,24,0,600,25,0,600,26,0,600,27,0,600,28,0,600,29,0,621,30,0,600,31,0,200,32,0,600,33,0,600,34,0,600,35,0,621,36,0,621,37,0,621,38,0,621,39,0,621,40,0,600,41,0,600,42,0,600,43,0,600,44,0,600,45,0,600,46,0,621,56,0,200,57,0,200,58,0,200,59,0,600,60,0,600,61,0,600*41
$PAIRDGP,10,5,10,12,15,18,23,24,25,28,32*45
$GNGGA,115011.200,2500.8246011,N,12132.4587943,E,4,66,0.45,16.032,M,15.25,M,1,3335*4F
$GNRMC,115011.200,A,2500.8246011,N,12132.4587943,E,0.02,222.33,260623,,,R,V*11
$GPHDT,268.130,T*3B
$GNACCURACY,2.2*16
$GNGGA,115011.300,2500.8246007,N,12132.4587912,E,4,66,0.45,16.040,M,15.25,M,1,3335*48
$GNRMC,115011.300,A,2500.8246007,N,12132.4587912,E,0.01,222.33,260623,,,R,V*10
$GPHDT,,T*1B
$GNACCURACY,2.2*16
$GNGGA,115011.400,2500.8246011,N,12132.4587881,E,4,65,0.45,16.047,M,15.25,M,1,3335*47
$GNRMC,115011.400,A,2500.8246011,N,12132.4587881,E,0.02,222.33,260623,,,R,V*18
$GPHDT,268.318,T*33
$GNACCURACY,2.2*16
$GNGGA,115011.500,2500.8246024,N,12132.4587946,E,4,65,0.45,16.019,M,15.25,M,1,3335*41
$GNRMC,115011.500,A,2500.8246024,N,12132.4587946,E,0.02,222.33,260623,,,R,V*15
$GPHDT,,T*1B
$GNACCURACY,2.2*16
$GNGGA,115011.600,2500.8246027,N,12132.4587929,E,4,65,0.45,16.023,M,15.25,M,1,3335*41
$GNRMC,115011.600,A,2500.8246027,N,12132.4587929,E,0.01,222.33,260623,,,R,V*1F
$GPHDT,268.420,T*3F
$GNACCURACY,2.2*16
$GNGGA,115011.700,2500.8246023,N,12132.4587909,E,4,65,0.45,16.043,M,15.25,M,1,3335*40
$GNRMC,115011.700,A,2500.8246023,N,12132.4587909,E,0.02,222.33,260623,,,R,V*1B
$GPHDT,,T*1B
$GNACCURACY,2.2*16
$GNGGA,115011.800,2500.8246033,N,12132.4587944,E,4,65,0.45,16.023,M,15.25,M,1,3335*41
$GNRMC,115011.800,A,2500.8246033,N,12132.4587944,E,0.02,222.33,260623,,,R,V*1C
$GPHDT,268.446,T*3F
$GNACCURACY,2.2*16
$GNGGA,115011.900,2500.8246036,N,12132.4587947,E,4,65,0.45,16.035,M,15.25,M,1,3335*41
$GNRMC,115011.900,A,2500.8246036,N,12132.4587947,E,0.01,222.33,260623,,,R,V*18
$GPHDT,,T*1B
$GNACCURACY,2.1*15
$GNGGA,115012.000,2500.8246013,N,12132.4587931,E,4,63,0.45,16.042,M,15.25,M,2,3335*48
$GNRMC,115012.000,A,2500.8246013,N,12132.4587931,E,0.01,222.33,260623,,,R,V*14
$GPHDT,268.517,T*3A
$GNACCURACY,2.1*15
$GNGGA,115012.100,2500.8246023,N,12132.4587908,E,4,64,0.45,16.024,M,15.25,M,2,3335*47
$GNRMC,115012.100,A,2500.8246023,N,12132.4587908,E,0.02,222.33,260623,,,R,V*1F
$GPHDT,,T*1B
$GNGSA,A,3,196,24,23,199,18,194,15,195,12,10,32,25,0.72,0.45,0.56,1*06
$GNGSA,A,3,73,80,86,71,85,,,,,,,,0.72,0.45,0.56,2*0C
$GNGSA,A,3,13,07,08,26,30,02,15,,,,,,0.72,0.45,0.56,3*08
$GNGSA,A,3,08,38,13,39,16,06,46,19,09,36,20,35,0.72,0.45,0.56,4*0B
$GNGSA,A,3,22,37,29,,,,,,,,,,0.72,0.45,0.56,4*0C
$GPGSV,4,1,16,196,76,073,24,24,62,034,38,23,61,346,26,199,60,167,36,1*64
$GPGSV,4,2,16,18,52,228,44,41,38,242,39,194,35,136,40,15,32,058,22,1*51
$GPGSV,4,3,16,195,30,179,37,12,27,132,42,10,26,323,42,25,17,171,17,1*50
$GPGSV,4,4,16,32,14,278,37,05,12,126,22,13,02,064,,28,02,221,,1*66
$GPGSV,3,1,10,196,76,073,33,24,62,034,34,23,61,346,31,199,60,167,47,8*66
$GPGSV,3,2,10,18,52,228,46,194,35,136,42,195,30,179,38,10,26,323,42,8*6A
$GPGSV,3,3,10,25,17,171,26,32,14,278,37,8*63
$GLGSV,2,1,07,73,51,152,43,80,45,057,30,86,28,288,40,71,26,326,37,1*76
$GLGSV,2,2,07,85,26,234,14,69,09,085,19,79,03,026,,1*4C
$GAGSV,3,1,09,13,48,221,43,07,46,315,40,08,43,035,26,26,35,297,41,7*70
$GAGSV,3,2,09,30,33,137,42,02,27,076,14,15,14,173,18,27,07,184,,7*7A
$GAGSV,3,3,09,03,07,071,,7*48
$GAGSV,2,1,07,13,48,221,44,07,46,315,42,08,43,035,29,26,35,297,38,1*7D
$GAGSV,2,2,07,30,33,137,41,02,27,076,15,15,14,173,23,1*46
$GBGSV,4,1,15,08,85,347,37,38,81,155,43,13,72,323,43,39,69,297,43,1*7E
$GBGSV,4,2,15,16,66,272,43,06,64,267,41,46,62,089,27,19,53,358,33,1*73
$GBGSV,4,3,15,09,50,248,40,36,45,183,44,20,40,076,29,35,18,259,37,1*74
$GBGSV,4,4,15,22,17,308,36,37,16,042,17,29,12,205,24,1*40
$GBGSV,3,1,09,38,81,155,44,39,69,297,46,46,62,089,38,19,53,358,24,4*7A
$GBGSV,3,2,09,36,45,183,46,20,40,076,32,35,18,259,35,37,16,042,32,4*72
$GBGSV,3,3,09,29,12,205,23,4*44
$GNACCURACY,2.1*15
$PAIRSAT,1,35,1,0,200,2,0,200,3,0,200,4,0,200,5,0,201,6,0,200,7,0,200,8,0,200,9,0,200,10,0,221,11,0,200,12,0,201,13,0,201,14,0,200,15,0,201,16,0,200,17,0,200,18,0,221,19,0,200,20,0,200,21,0,200,23,0,221,24,0,221,25,0,220,26,0,200,27,0,200,28,0,200,29,0,200,30,0,200,31,0,200,32,0,221,194,0,621,195,0,621,196,0,620,199,0,621*6A
$PAIRSAT,2,24,65,0,200,66,0,200,67,0,200,68,0,200,69,0,200,70,0,200,71,0,201,72,0,200,73,0,201,74,0,200,75,0,200,76,0,200,77,0,200,78,0,200,79,0,201,80,0,201,81,0,200,82,0,200,83,0,200,84,0,200,85,0,201,86,0,201,87,0,200,88,0,200*7A
$PAIRSAT,3,23,2,0,1221,3,0,1221,4,0,1200,5,0,200,7,0,1221,8,0,1221,9,0,1200,10,0,1200,11,0,1200,12,0,1200,13,0,1221,15,0,1221,19,0,1200,21,0,1200,24,0,1200,25,0,1200,26,0,1221,27,0,1200,30,0,1221,31,0,1200,33,0,1200,34,0,1200,36,0,1200*6A
$PAIRSAT,4,50,1,0,200,2,0,200,3,0,200,4,0,200,5,0,200,6,0,201,7,0,200,8,0,201,9,0,201,10,0,200,11,0,200,12,0,200,13,0,201,14,0,200,15,0,200,16,0,201,19,0,621,20,0,621,21,0,600,22,0,621,23,0,600,24,0,600,25,0,600,26,0,600,27,0,600,28,0,600,29,0,621,30,0,600,31,0,200,32,0,600,33,0,600,34,0,600,35,0,621,36,0,621,37,0,621,38,0,621,39,0,621,40,0,600,41,0,600,42,0,600,43,0,600,44,0,600,45,0,600,46,0,621,56,0,200,57,0,200,58,0,200,59,0,600,60,0,600,61,0,600*41
$PAIRDGP,10,5,10,12,15,18,23,24,25,28,32*45
$GNGGA,115012.200,2500.8246014,N,12132.4587900,E,4,64,0.45,16.038,M,15.25,M,2,3335*45
$GNRMC,115012.200,A,2500.8246014,N,12132.4587900,E,0.02,222.33,260623,,,R,V*10
$GPHDT,268.475,T*3F
$GNACCURACY,2.1*15
$GNGGA,115012.300,2500.8246016,N,12132.4587906,E,4,64,0.45,16.019,M,15.25,M,2,3335*43
$GNRMC,115012.300,A,2500.8246016,N,12132.4587906,E,0.02,222.33,260623,,,R,V*15
$GPHDT,,T*1B
$GNACCURACY,2.1*15
$GNGGA,115012.400,2500.8245851,N,12132.4587876,E,4,63,0.45,15.995,M,15.25,M,2,3335*43
$GNRMC,115012.400,A,2500.8245851,N,12132.4587876,E,0.02,222.33,260623,,,R,V*1C
$GPHDT,268.434,T*3A
$GNACCURACY,2.1*15
$GNGGA,115012.500,2500.8245937,N,12132.4587864,E,4,63,0.45,16.025,M,15.25,M,2,3335*41
$GNRMC,115012.500,A,2500.8245937,N,12132.4587864,E,0.02,222.33,260623,,,R,V*1F
$GPHDT,,T*1B
$GNACCURACY,2.1*15
$GNGGA,115012.600,2500.8245937,N,12132.4587863,E,4,63,0.45,16.031,M,15.25,M,2,3335*40
$GNRMC,115012.600,A,2500.8245937,N,12132.4587863,E,0.03,222.33,260623,,,R,V*1A
$GPHDT,268.728,T*34
$GNACCURACY,2.1*15
$GNGGA,115012.700,2500.8245821,N,12132.4587839,E,4,63,0.45,15.996,M,15.25,M,2,3335*4F
$GNRMC,115012.700,A,2500.8245821,N,12132.4587839,E,0.02,222.33,260623,,,R,V*13
$GPHDT,,T*1B
$GNACCURACY,2.1*15
$GNGGA,115012.800,2500.8245817,N,12132.4587825,E,4,63,0.45,15.997,M,15.25,M,2,3335*49
$GNRMC,115012.800,A,2500.8245817,N,12132.4587825,E,0.02,222.33,260623,,,R,V*14
$GPHDT,268.577,T*3C
$GNACCURACY,2.1*15
$GNGGA,115012.900,2500.8245822,N,12132.4587826,E,4,62,0.45,15.997,M,15.25,M,2,3335*4C
$GNRMC,115012.900,A,2500.8245822,N,12132.4587826,E,0.02,222.33,260623,,,R,V*10
$GPHDT,,T*1B
$GNACCURACY,2.1*15
$GNGGA,115013.000,2500.8245819,N,12132.4587839,E,4,62,0.45,16.011,M,15.25,M,3,3335*47
$GNRMC,115013.000,A,2500.8245819,N,12132.4587839,E,0.03,222.33,260623,,,R,V*1F
$GPHDT,268.696,T*30
$GNACCURACY,2.1*15
$GNGGA,115013.100,2500.8245834,N,12132.4587835,E,4,62,0.45,16.000,M,15.25,M,3,3335*45
$GNRMC,115013.100,A,2500.8245834,N,12132.4587835,E,0.02,222.33,260623,,,R,V*1C
$GPHDT,,T*1B
$GNGSA,A,3,196,24,23,199,18,194,195,12,10,32,25,,0.73,0.45,0.57,1*02
$GNGSA,A,3,73,80,86,71,85,,,,,,,,0.73,0.45,0.57,2*0C
$GNGSA,A,3,13,07,08,26,30,02,15,,,,,,0.73,0.45,0.57,3*08
$GNGSA,A,3,08,38,13,39,16,06,46,19,09,36,20,35,0.73,0.45,0.57,4*0B
$GNGSA,A,3,22,29,37,,,,,,,,,,0.73,0.45,0.57,4*0C
$GPGSV,4,1,16,196,76,073,23,24,62,034,38,23,61,346,26,199,60,167,36,1*63
$GPGSV,4,2,16,18,52,228,44,41,38,242,39,194,35,136,41,15,31,058,25,1*54
$GPGSV,4,3,16,195,30,179,37,12,27,132,42,10,26,323,42,25,17,171,14,1*53
$GPGSV,4,4,16,32,14,278,36,05,12,126,20,13,02,064,,28,02,221,,1*65
$GPGSV,3,1,10,196,76,073,33,24,62,034,35,23,61,346,31,199,60,167,47,8*67
$GPGSV,3,2,10,18,52,228,46,194,35,136,42,195,30,179,38,10,26,323,42,8*6A
$GPGSV,3,3,10,25,17,171,27,32,14,278,37,8*62
$GLGSV,2,1,07,73,51,152,43,80,45,057,30,86,28,288,40,71,26,326,36,1*77
$GLGSV,2,2,07,85,26,234,12,69,09,085,17,79,03,026,,1*44
$GAGSV,3,1,09,13,48,221,43,07,46,315,40,08,43,035,26,26,35,297,41,7*70
$GAGSV,3,2,09,30,33,137,42,02,27,076,17,15,14,173,18,27,07,184,,7*79
$GAGSV,3,3,09,03,07,071,,7*48
$GAGSV,2,1,07,13,48,221,44,07,46,315,42,08,43,035,29,26,35,297,38,1*7D
$GAGSV,2,2,07,30,33,137,41,02,27,076,16,15,14,173,22,1*44
$GBGSV,4,1,15,08,85,347,37,38,81,155,43,13,72,323,43,39,69,297,43,1*7E
$GBGSV,4,2,15,16,66,272,43,06,64,267,41,46,62,089,28,19,53,358,34,1*7B
$GBGSV,4,3,15,09,50,248,40,36,45,183,44,20,40,076,28,35,18,259,37,1*75
$GBGSV,4,4,15,22,17,308,36,37,16,042,16,29,12,205,25,1*40
$GBGSV,3,1,09,38,81,155,44,39,69,297,46,46,62,089,38,19,53,358,26,4*78
$GBGSV,3,2,09,36,45,183,46,20,40,076,32,35,18,259,34,37,16,042,33,4*72
$GBGSV,3,3,09,29,12,205,23,4*44
$GNACCURACY,2.1*15
$PAIRSAT,1,35,1,0,200,2,0,200,3,0,200,4,0,200,5,0,201,6,0,200,7,0,200,8,0,200,9,0,200,10,0,221,11,0,200,12,0,201,13,0,201,14,0,200,15,0,201,16,0,200,17,0,200,18,0,221,19,0,200,20,0,200,21,0,200,23,0,221,24,0,221,25,0,220,26,0,200,27,0,200,28,0,200,29,0,200,30,0,200,31,0,200,32,0,221,194,0,621,195,0,621,196,0,620,199,0,621*6A
$PAIRSAT,2,24,65,0,200,66,0,200,67,0,200,68,0,200,69,0,200,70,0,200,71,0,201,72,0,200,73,0,201,74,0,200,75,0,200,76,0,200,77,0,200,78,0,200,79,0,201,80,0,201,81,0,200,82,0,200,83,0,200,84,0,200,85,0,201,86,0,201,87,0,200,88,0,200*7A
$PAIRSAT,3,23,2,0,1221,3,0,1221,4,0,1200,5,0,200,7,0,1221,8,0,1221,9,0,1200,10,0,1200,11,0,1200,12,0,1200,13,0,1221,15,0,1221,19,0,1200,21,0,1200,24,0,1200,25,0,1200,26,0,1221,27,0,1200,30,0,1221,31,0,1200,33,0,1200,34,0,1200,36,0,1200*6A
$PAIRSAT,4,50,1,0,200,2,0,200,3,0,200,4,0,200,5,0,200,6,0,201,7,0,200,8,0,201,9,0,201,10,0,200,11,0,200,12,0,200,13,0,201,14,0,200,15,0,200,16,0,201,19,0,621,20,0,621,21,0,600,22,0,621,23,0,600,24,0,600,25,0,600,26,0,600,27,0,600,28,0,600,29,0,621,30,0,600,31,0,200,32,0,600,33,0,600,34,0,600,35,0,621,36,0,621,37,0,621,38,0,621,39,0,621,40,0,600,41,0,600,42,0,600,43,0,600,44,0,600,45,0,600,46,0,621,56,0,200,57,0,200,58,0,200,59,0,600,60,0,600,61,0,600*41
$PAIRDGP,10,5,10,12,15,18,23,24,25,28,32*45
$GNGGA,115013.200,2500.8245843,N,12132.4587844,E,4,62,0.45,16.011,M,15.25,M,3,3335*40
$GNRMC,115013.200,A,2500.8245843,N,12132.4587844,E,0.02,222.33,260623,,,R,V*19
$GPHDT,268.756,T*3D
$GNACCURACY,2.1*15
$GNGGA,115013.300,2500.8245805,N,12132.4587838,E,4,63,0.45,16.002,M,15.25,M,3,3335*4B
$GNRMC,115013.300,A,2500.8245805,N,12132.4587838,E,0.02,222.33,260623,,,R,V*11
$GPHDT,,T*1B
$GNACCURACY,2.1*15
$GNGGA,115013.400,2500.8245815,N,12132.4587817,E,4,65,0.43,15.991,M,15.25,M,3,3335*40
$GNRMC,115013.400,A,2500.8245815,N,12132.4587817,E,0.02,222.33,260623,,,R,V*1A
$GPHDT,268.043,T*3E
$GNACCURACY,2.1*15
$GNGGA,115013.500,2500.8245835,N,12132.4587820,E,4,65,0.43,15.990,M,15.25,M,3,3335*46
$GNRMC,115013.500,A,2500.8245835,N,12132.4587820,E,0.01,222.33,260623,,,R,V*1E
$GPHDT,,T*1B
$GNACCURACY,2.1*15
$GNGGA,115013.600,2500.8245833,N,12132.4587811,E,4,65,0.43,16.004,M,15.25,M,3,3335*46
$GNRMC,115013.600,A,2500.8245833,N,12132.4587811,E,0.01,222.33,260623,,,R,V*19
$GPHDT,268.639,T*35
$GNACCURACY,2.1*15
$GNGGA,115013.700,2500.8245825,N,12132.4587828,E,4,65,0.43,16.007,M,15.25,M,3,3335*49
$GNRMC,115013.700,A,2500.8245825,N,12132.4587828,E,0.01,222.33,260623,,,R,V*15
$GPHDT,,T*1B
$GNACCURACY,2.2*16
$GNGGA,115013.800,2500.8245926,N,12132.4587861,E,4,65,0.43,16.055,M,15.25,M,3,3335*4E
$GNRMC,115013.800,A,2500.8245926,N,12132.4587861,E,0.00,222.33,260623,,,R,V*14
$GPHDT,268.169,T*37
$GNACCURACY,2.2*16
$GNGGA,115013.900,2500.8245834,N,12132.4587828,E,4,65,0.43,16.001,M,15.25,M,3,3335*41
$GNRMC,115013.900,A,2500.8245834,N,12132.4587828,E,0.01,222.33,260623,,,R,V*1B
$GPHDT,,T*1B
$GNACCURACY,2.1*15
$GNGGA,115014.000,2500.8245840,N,12132.4587826,E,4,65,0.43,16.006,M,15.25,M,4,3335*42
$GNRMC,115014.000,A,2500.8245840,N,12132.4587826,E,0.02,222.33,260623,,,R,V*1B
$GPHDT,268.352,T*3D
$GNACCURACY,2.1*15
$GNGGA,115014.100,2500.8245827,N,12132.4587812,E,4,65,0.43,16.006,M,15.25,M,4,3335*45
$GNRMC,115014.100,A,2500.8245827,N,12132.4587812,E,0.01,222.33,260623,,,R,V*1F
$GPHDT,,T*1B
$GNGSA,A,3,196,24,23,199,18,194,15,195,12,10,32,05,0.70,0.43,0.55,1*03
$GNGSA,A,3,25,,,,,,,,,,,,0.70,0.43,0.55,1*06
$GNGSA,A,3,73,80,86,71,85,,,,,,,,0.70,0.43,0.55,2*0B
$GNGSA,A,3,13,07,08,26,30,02,15,,,,,,0.70,0.43,0.55,3*0F
$GNGSA,A,3,08,38,13,39,16,06,46,19,09,36,20,35,0.70,0.43,0.55,4*0C
$GNGSA,A,3,22,37,29,,,,,,,,,,0.70,0.43,0.55,4*0B
$GPGSV,4,1,16,196,76,073,24,24,62,034,38,23,61,346,26,199,60,167,36,1*64
$GPGSV,4,2,16,18,52,228,44,41,38,242,40,194,35,136,41,15,31,058,23,1*5C
$GPGSV,4,3,16,195,30,179,37,12,27,132,42,10,26,323,39,25,17,170,16,1*5C
$GPGSV,4,4,16,32,14,278,36,05,12,126,20,28,03,221,,13,02,064,,1*64
$GPGSV,3,1,10,196,76,073,33,24,62,034,35,23,61,346,32,199,60,167,47,8*64
$GPGSV,3,2,10,18,52,228,46,194,35,136,42,195,30,179,38,10,26,323,41,8*69
$GPGSV,3,3,10,25,17,170,26,32,14,278,37,8*62
$GLGSV,2,1,07,73,51,152,43,80,45,057,30,86,28,288,40,71,26,326,35,1*74
$GLGSV,2,2,07,85,26,234,14,69,09,085,14,79,03,026,,1*41
$GAGSV,3,1,09,13,48,221,43,07,46,315,41,08,43,035,27,26,35,297,41,7*70
$GAGSV,3,2,09,30,33,137,42,02,27,076,17,15,14,173,18,27,07,184,,7*79
$GAGSV,3,3,09,03,07,071,,7*48
$GAGSV,2,1,07,13,48,221,44,07,46,315,41,08,43,035,28,26,35,297,38,1*7F
$GAGSV,2,2,07,30,33,137,41,02,27,076,15,15,14,173,22,1*47
$GBGSV,4,1,15,08,85,347,37,38,81,155,43,13,72,323,43,39,69,297,43,1*7E
$GBGSV,4,2,15,16,66,272,43,06,64,267,41,46,62,089,27,19,53,358,35,1*75
$GBGSV,4,3,15,09,50,248,40,36,45,183,44,20,40,076,28,35,18,259,36,1*74
$GBGSV,4,4,15,22,17,308,34,37,16,042,16,29,12,205,25,1*42
$GBGSV,3,1,09,38,81,155,44,39,69,297,46,46,62,089,38,19,53,358,27,4*79
$GBGSV,3,2,09,36,45,183,46,20,40,076,32,35,18,259,34,37,16,042,32,4*73
$GBGSV,3,3,09,29,12,205,23,4*44
$GNACCURACY,2.1*15
$PAIRSAT,1,35,1,0,200,2,0,200,3,0,200,4,0,200,5,0,201,6,0,200,7,0,200,8,0,200,9,0,200,10,0,221,11,0,200,12,0,201,13,0,201,14,0,200,15,0,201,16,0,200,17,0,200,18,0,221,19,0,200,20,0,200,21,0,200,23,0,221,24,0,221,25,0,220,26,0,200,27,0,200,28,0,200,29,0,200,30,0,200,31,0,200,32,0,221,194,0,621,195,0,621,196,0,620,199,0,621*6A
$PAIRSAT,2,24,65,0,200,66,0,200,67,0,200,68,0,200,69,0,200,70,0,200,71,0,201,72,0,200,73,0,201,74,0,200,75,0,200,76,0,200,77,0,200,78,0,200,79,0,201,80,0,201,81,0,200,82,0,200,83,0,200,84,0,200,85,0,201,86,0,201,87,0,200,88,0,200*7A
$PAIRSAT,3,23,2,0,1221,3,0,1221,4,0,1200,5,0,200,7,0,1221,8,0,1221,9,0,1200,10,0,1200,11,0,1200,12,0,1200,13,0,1221,15,0,1221,19,0,1200,21,0,1200,24,0,1200,25,0,1200,26,0,1221,27,0,1200,30,0,1221,31,0,1200,33,0,1200,34,0,1200,36,0,1200*6A
$PAIRSAT,4,50,1,0,200,2,0,200,3,0,200,4,0,200,5,0,200,6,0,201,7,0,200,8,0,201,9,0,201,10,0,200,11,0,200,12,0,200,13,0,201,14,0,200,15,0,200,16,0,201,19,0,621,20,0,621,21,0,600,22,0,621,23,0,600,24,0,600,25,0,600,26,0,600,27,0,600,28,0,600,29,0,621,30,0,600,31,0,200,32,0,600,33,0,600,34,0,600,35,0,621,36,0,621,37,0,621,38,0,621,39,0,621,40,0,600,41,0,600,42,0,600,43,0,600,44,0,600,45,0,600,46,0,621,56,0,200,57,0,200,58,0,200,59,0,600,60,0,600,61,0,600*41
$PAIRDGP,10,5,10,12,15,18,23,24,25,28,32*45
$GNGGA,115014.200,2500.8245811,N,12132.4587793,E,4,65,0.43,16.010,M,15.25,M,4,3335*42
$GNRMC,115014.200,A,2500.8245811,N,12132.4587793,E,0.01,222.33,260623,,,R,V*1F
$GPHDT,268.510,T*3D
$GNACCURACY,2.1*15
$GNGGA,115014.300,2500.8245819,N,12132.4587807,E,4,65,0.43,16.005,M,15.