$FW : RTK35X,V1.1X0314AS,Lib20210517,1*54
$Tool : LOCOSYS , GNSS Firebird , v1.0.0.19*39
$---------------------------------------------------*2D
$GPHDT,,T*1B
$GNACCURACY,2.5*11
$GNGGA,115104.600,2500.8245841,N,12132.4587617,E,4,61,0.49,15.958,M,15.25,M,4,3335*46
$GNRMC,115104.600,A,2500.8245841,N,12132.4587617,E,0.03,222.33,260623,,,R,V*11
$GPHDT,,T*1B
$GNACCURACY,2.5*11
$GNGGA,115104.700,2500.8245850,N,12132.4587601,E,4,61,0.49,15.947,M,15.25,M,4,3335*4E
$GNRMC,115104.700,A,2500.8245850,N,12132.4587601,E,0.03,222.33,260623,,,R,V*17
$GPHDT,,T*1B
$GNACCURACY,2.6*12
$GNGGA,115104.800,2500.8245834,N,12132.4587593,E,4,61,0.49,15.961,M,15.25,M,4,3335*4F
$GNRMC,115104.800,A,2500.8245834,N,12132.4587593,E,0.03,222.33,260623,,,R,V*12
$GPHDT,,T*1B
$GNACCURACY,2.6*12
$GNGGA,115104.900,2500.8245840,N,12132.4587599,E,4,61,0.49,15.955,M,15.25,M,4,3335*40
$GNRMC,115104.900,A,2500.8245840,N,12132.4587599,E,0.03,222.33,260623,,,R,V*1A
$GPHDT,,T*1B
$GNACCURACY,2.6*12
$GNGGA,115105.000,2500.8245807,N,12132.4587669,E,4,61,0.49,15.935,M,15.25,M,5,3335*40
$GNRMC,115105.000,A,2500.8245807,N,12132.4587669,E,0.03,222.33,260623,,,R,V*1D
$GPHDT,,T*1B
$GNACCURACY,2.6*12
$GNGGA,115105.100,2500.8245852,N,12132.4587720,E,4,62,0.47,15.931,M,15.25,M,5,3335*44
$GNRMC,115105.100,A,2500.8245852,N,12132.4587720,E,0.03,222.33,260623,,,R,V*10
$GPHDT,,T*1B
$GNGSA,A,3,196,24,23,199,18,194,195,12,10,25,32,,0.85,0.47,0.71,1*0D
$GNGSA,A,3,73,80,86,71,85,,,,,,,,0.85,0.47,0.71,2*03
$GNGSA,A,3,13,07,08,26,30,02,15,,,,,,0.85,0.47,0.71,3*07
$GNGSA,A,3,08,38,13,39,16,06,46,19,09,36,20,35,0.85,0.47,0.71,4*04
$GNGSA,A,3,22,37,,,,,,,,,,,0.85,0.47,0.71,4*08
$GPGSV,4,1,16,196,76,073,18,24,62,034,38,23,61,346,17,199,60,167,37,1*68
$GPGSV,4,2,16,18,51,228,40,41,38,242,37,194,35,136,43,15,31,058,17,1*5E
$GPGSV,4,3,16,195,30,179,32,12,28,132,40,10,27,323,46,25,17,170,24,1*5C
$GPGSV,4,4,16,32,14,279,36,05,11,127,18,28,03,221,,13,02,065,,1*6D
$GPGSV,3,1,10,196,76,073,34,24,62,034,34,23,61,346,22,199,60,167,47,8*63
$GPGSV,3,2,10,18,51,228,38,194,35,136,40,195,30,179,15,10,27,323,44,8*6A
$GPGSV,3,3,10,25,17,170,22,32,14,279,34,8*64
$GLGSV,2,1,07,73,51,152,44,80,45,057,23,86,28,287,41,71,27,326,34,1*7F
$GLGSV,2,2,07,85,26,234,19,69,09,086,,79,02,026,16,1*4C
$GAGSV,3,1,09,13,48,221,42,07,46,315,40,08,43,036,25,26,35,297,41,7*71
$GAGSV,3,2,09,30,33,137,40,02,27,075,18,15,14,173,24,27,07,184,,7*78
$GAGSV,3,3,09,03,06,072,14,7*4F
$GAGSV,2,1,07,13,48,221,40,07,46,315,45,08,43,036,28,26,35,297,44,1*77
$GAGSV,2,2,07,30,33,137,38,15,14,173,24,03,06,072,16,1*4A
$GBGSV,4,1,15,08,85,346,39,38,81,156,45,13,72,322,43,39,68,297,43,1*74
$GBGSV,4,2,15,16,65,272,38,06,64,267,35,46,62,088,16,19,54,358,30,1*78
$GBGSV,4,3,15,09,50,248,36,36,46,183,38,20,40,076,29,35,18,259,38,1*72
$GBGSV,4,4,15,22,17,309,19,37,16,042,24,29,12,205,16,1*4D
$GBGSV,3,1,09,38,81,156,43,39,68,297,45,46,62,088,38,19,54,358,28,4*76
$GBGSV,3,2,09,36,46,183,40,20,40,076,37,35,18,259,39,22,17,309,36,4*73
$GBGSV,3,3,09,37,16,042,27,4*4A
$GNACCURACY,2.6*12
$PAIRSAT,1,35,1,0,200,2,0,200,3,0,200,4,0,200,5,0,201,6,0,200,7,0,200,8,0,200,9,0,200,10,0,221,11,0,200,12,0,201,13,0,201,14,0,200,15,0,201,16,0,200,17,0,200,18,0,221,19,0,200,20,0,200,21,0,200,23,0,221,24,0,221,25,0,220,26,0,200,27,0,200,28,0,200,29,0,200,30,0,200,31,0,200,32,0,221,194,0,621,195,0,621,196,0,620,199,0,621*6A
$PAIRSAT,2,24,65,0,200,66,0,200,67,0,200,68,0,200,69,0,200,70,0,200,71,0,201,72,0,200,73,0,201,74,0,200,75,0,200,76,0,200,77,0,200,78,0,200,79,0,201,80,0,201,81,0,200,82,0,200,83,0,200,84,0,200,85,0,201,86,0,201,87,0,200,88,0,200*7A
$PAIRSAT,3,23,2,0,1221,3,0,1221,4,0,1200,5,0,200,7,0,1221,8,0,1221,9,0,1200,10,0,1200,11,0,1200,12,0,1200,13,0,1221,15,0,1221,19,0,1200,21,0,1200,24,0,1200,25,0,1200,26,0,1221,27,0,1200,30,0,1221,31,0,1200,33,0,1200,34,0,1200,36,0,1200*6A
$PAIRSAT,4,50,1,0,200,2,0,200,3,0,200,4,0,200,5,0,200,6,0,201,7,0,200,8,0,201,9,0,201,10,0,200,11,0,200,12,0,200,13,0,201,14,0,200,15,0,200,16,0,201,19,0,621,20,0,621,21,0,600,22,0,621,23,0,600,24,0,600,25,0,600,26,0,600,27,0,600,28,0,600,29,0,621,30,0,600,31,0,200,32,0,600,33,0,600,34,0,600,35,0,621,36,0,621,37,0,621,38,0,621,39,0,621,40,0,600,41,0,600,42,0,600,43,0,600,44,0,600,45,0,600,46,0,621,56,0,200,57,0,200,58,0,200,59,0,600,60,0,600,61,0,600*41
$PAIRDGP,10,5,10,12,15,18,23,24,25,28,32*45
$GNGGA,115105.200,2500.8245843,N,12132.4587713,E,4,62,0.47,15.924,M,15.25,M,5,3335*43
$GNRMC,115105.200,A,2500.8245843,N,12132.4587713,E,0.03,222.33,260623,,,R,V*13
$GPHDT,,T*1B
$GNACCURACY,2.4*10
$GNGGA,115105.300,2500.8245788,N,12132.4587647,E,4,62,0.47,15.958,M,15.25,M,5,3335*41
$GNRMC,115105.300,A,2500.8245788,N,12132.4587647,E,0.03,222.33,260623,,,R,V*1A
$GPHDT,,T*1B
$GNACCURACY,2.4*10
$GNGGA,115105.400,2500.8245813,N,12132.4587683,E,4,62,0.47,15.942,M,15.25,M,5,3335*48
$GNRMC,115105.400,A,2500.8245813,N,12132.4587683,E,0.03,222.33,260623,,,R,V*18
$GPHDT,,T*1B
$GNACCURACY,2.4*10
$GNGGA,115105.500,2500.8245828,N,12132.4587716,E,4,62,0.47,15.929,M,15.25,M,5,3335*41
$GNRMC,115105.500,A,2500.8245828,N,12132.4587716,E,0.03,222.33,260623,,,R,V*1C
$GPHDT,,T*1B
$GNACCURACY,2.4*10
$GNGGA,115105.600,2500.8245846,N,12132.4587745,E,4,62,0.47,15.916,M,15.25,M,5,3335*40
$GNRMC,115105.600,A,2500.8245846,N,12132.4587745,E,0.03,222.33,260623,,,R,V*11
$GPHDT,,T*1B
$GNACCURACY,2.4*10
$GNGGA,115105.700,2500.8245830,N,12132.4587722,E,4,62,0.47,15.929,M,15.25,M,5,3335*4D
$GNRMC,115105.700,A,2500.8245830,N,12132.4587722,E,0.02,222.33,260623,,,R,V*11
$GPHDT,,T*1B
$GNACCURACY,2.4*10
$GNGGA,115105.800,2500.8245868,N,12132.4587728,E,4,63,0.45,15.944,M,15.25,M,0,3335*48
$GNRMC,115105.800,A,2500.8245868,N,12132.4587728,E,0.02,222.33,260623,,,R,V*19
$GPHDT,,T*1B
$GNACCURACY,2.4*10
$GNGGA,115105.900,2500.8245872,N,12132.4587765,E,4,63,0.45,15.958,M,15.25,M,0,3335*46
$GNRMC,115105.900,A,2500.8245872,N,12132.4587765,E,0.02,222.33,260623,,,R,V*1A
$GPHDT,,T*1B
$GNACCURACY,2.4*10
$GNGGA,115106.000,2500.8245939,N,12132.4587791,E,4,63,0.45,15.950,M,15.25,M,1,3335*40
$GNRMC,115106.000,A,2500.8245939,N,12132.4587791,E,0.02,222.33,260623,,,R,V*15
$GPHDT,,T*1B
$GNACCURACY,2.4*10
$GNGGA,115106.100,2500.8245891,N,12132.4587744,E,4,62,0.45,15.948,M,15.25,M,1,3335*42
$GNRMC,115106.100,A,2500.8245891,N,12132.4587744,E,0.01,222.33,260623,,,R,V*1C
$GPHDT,,T*1B
$GNGSA,A,3,196,24,23,199,18,194,195,12,10,32,25,,0.83,0.45,0.69,1*00
$GNGSA,A,3,73,80,86,71,85,,,,,,,,0.83,0.45,0.69,2*0E
$GNGSA,A,3,13,07,08,26,30,02,15,,,,,,0.83,0.45,0.69,3*0A
$GNGSA,A,3,08,38,13,39,16,06,46,19,09,36,20,35,0.83,0.45,0.69,4*09
$GNGSA,A,3,22,37,29,,,,,,,,,,0.83,0.45,0.69,4*0E
$GPGSV,4,1,16,196,76,073,21,24,62,034,38,23,61,346,18,199,60,167,38,1*62
$GPGSV,4,2,16,18,51,228,46,41,38,242,38,194,35,136,43,15,31,058,18,1*58
$GPGSV,4,3,16,195,30,179,31,12,28,132,41,10,27,323,46,25,17,170,23,1*59
$GPGSV,4,4,16,32,14,279,31,05,11,127,20,28,03,221,,13,02,065,,1*61
$GPGSV,3,1,10,196,76,073,35,24,62,034,34,23,61,346,24,199,60,167,47,8*64
$GPGSV,3,2,10,18,51,228,46,194,35,136,40,195,30,179,28,10,27,323,44,8*6D
$GPGSV,3,3,10,25,17,170,19,32,14,279,35,8*6D
$GLGSV,2,1,06,73,51,152,44,80,45,057,18,86,28,287,41,71,27,326,34,1*76
$GLGSV,2,2,06,85,26,234,21,79,02,026,16,1*7E
$GAGSV,3,1,09,13,48,221,43,07,46,315,41,08,43,036,24,26,35,297,42,7*73
$GAGSV,3,2,09,30,33,137,40,02,27,075,15,15,14,173,25,27,07,184,,7*74
$GAGSV,3,3,09,03,06,072,15,7*4E
$GAGSV,2,1,07,13,48,221,44,07,46,315,45,08,43,036,28,26,35,297,43,1*74
$GAGSV,2,2,07,30,33,137,38,15,14,173,23,03,06,072,16,1*4D
$GBGSV,4,1,15,08,85,346,36,38,81,156,45,13,72,322,44,39,68,297,43,1*7C
$GBGSV,4,2,15,16,65,272,38,06,64,267,37,46,62,088,18,19,54,358,30,1*74
$GBGSV,4,3,15,09,50,248,33,36,46,183,37,20,40,076,29,35,18,259,37,1*77
$GBGSV,4,4,15,22,17,309,25,37,16,042,25,29,12,205,19,1*4C
$GBGSV,3,1,09,38,81,156,43,39,68,297,45,46,62,088,38,19,54,358,27,4*79
$GBGSV,3,2,09,36,46,183,37,20,40,076,37,35,18,259,38,22,17,309,36,4*72
$GBGSV,3,3,09,37,16,042,26,4*4B
$GNACCURACY,2.4*10
$PAIRSAT,1,35,1,0,200,2,0,200,3,0,200,4,0,200,5,0,201,6,0,200,7,0,200,8,0,200,9,0,200,10,0,221,11,0,200,12,0,201,13,0,201,14,0,200,15,0,201,16,0,200,17,0,200,18,0,221,19,0,200,20,0,200,21,0,200,23,0,221,24,0,221,25,0,220,26,0,200,27,0,200,28,0,200,29,0,200,30,0,200,31,0,200,32,0,221,194,0,621,195,0,621,196,0,620,199,0,621*6A
$PAIRSAT,2,24,65,0,200,66,0,200,67,0,200,68,0,200,69,0,200,70,0,200,71,0,201,72,0,200,73,0,201,74,0,200,75,0,200,76,0,200,77,0,200,78,0,200,79,0,201,80,0,201,81,0,200,82,0,200,83,0,200,84,0,200,85,0,201,86,0,201,87,0,200,88,0,200*7A
$PAIRSAT,3,23,2,0,1221,3,0,1221,4,0,1200,5,0,200,7,0,1221,8,0,1221,9,0,1200,10,0,1200,11,0,1200,12,0,1200,13,0,1221,15,0,1221,19,0,1200,21,0,1200,24,0,1200,25,0,1200,26,0,1221,27,0,1200,30,0,1221,31,0,1200,33,0,1200,34,0,1200,36,0,1200*6A
$PAIRSAT,4,50,1,0,200,2,0,200,3,0,200,4,0,200,5,0,200,6,0,201,7,0,200,8,0,201,9,0,201,10,0,200,11,0,200,12,0,200,13,0,201,14,0,200,15,0,200,16,0,201,19,0,621,20,0,621,21,0,600,22,0,621,23,0,600,24,0,600,25,0,600,26,0,600,27,0,600,28,0,600,29,0,621,30,0,600,31,0,200,32,0,600,33,0,600,34,0,600,35,0,621,36,0,621,37,0,621,38,0,621,39,0,621,40,0,600,41,0,600,42,0,600,43,0,600,44,0,600,45,0,600,46,0,621,56,0,200,57,0,200,58,0,200,59,0,600,60,0,600,61,0,600*41
$PAIRDGP,10,5,10,12,15,18,23,24,25,28,32*45
$GNGGA,115106.200,2500.8245907,N,12132.4587745,E,4,62,0.45,15.931,M,15.25,M,1,3335*40
$GNRMC,115106.200,A,2500.8245907,N,12132.4587745,E,0.01,222.33,260623,,,R,V*10
$GPHDT,,T*1B
$GNACCURACY,2.4*10
$GNGGA,115106.300,2500.8245893,N,12132.4587748,E,4,62,0.45,15.920,M,15.25,M,1,3335*40
$GNRMC,115106.300,A,2500.8245893,N,12132.4587748,E,0.01,222.33,260623,,,R,V*10
$GPHDT,,T*1B
$GNACCURACY,2.4*10
$GNGGA,115106.400,2500.8245873,N,12132.4587729,E,4,61,0.45,15.921,M,15.25,M,1,3335*4C
$GNRMC,115106.400,A,2500.8245873,N,12132.4587729,E,0.01,222.33,260623,,,R,V*1E
$GPHDT,,T*1B
$GNACCURACY,2.4*10
$GNGGA,115106.500,2500.8245869,N,12132.4587746,E,4,62,0.45,15.933,M,15.25,M,0,3335*4E
$GNRMC,115106.500,A,2500.8245869,N,12132.4587746,E,0.00,222.33,260623,,,R,V*1C
$GPHDT,,T*1B
$GNACCURACY,2.4*10
$GNGGA,115106.600,2500.8245903,N,12132.4587769,E,4,62,0.45,15.941,M,15.25,M,0,3335*48
$GNRMC,115106.600,A,2500.8245903,N,12132.4587769,E,0.00,222.33,260623,,,R,V*1F
$GPHDT,,T*1B
$GNACCURACY,2.4*10
$GNGGA,115106.700,2500.8245890,N,12132.4587758,E,4,62,0.45,15.931,M,15.25,M,0,3335*47
$GNRMC,115106.700,A,2500.8245890,N,12132.4587758,E,0.00,222.33,260623,,,R,V*17
$GPHDT,,T*1B
$GNACCURACY,2.4*10
$GNGGA,115106.800,2500.8245896,N,12132.4587763,E,4,62,0.45,15.939,M,15.25,M,0,3335*4E
$GNRMC,115106.800,A,2500.8245896,N,12132.4587763,E,0.00,222.33,260623,,,R,V*16
$GPHDT,,T*1B
$GNACCURACY,2.4*10
$GNGGA,115106.900,2500.8245879,N,12132.4587751,E,4,62,0.45,15.926,M,15.25,M,0,3335*41
$GNRMC,115106.900,A,2500.8245879,N,12132.4587751,E,0.00,222.33,260623,,,R,V*17
$GPHDT,,T*1B
$GNACCURACY,2.4*10
$GNGGA,115107.000,2500.8245891,N,12132.4587773,E,4,62,0.45,15.938,M,15.25,M,1,3335*41
$GNRMC,115107.000,A,2500.8245891,N,12132.4587773,E,0.00,222.33,260623,,,R,V*19
$GPHDT,,T*1B
$GNACCURACY,2.4*10
$GNGGA,115107.100,2500.8245866,N,12132.4587743,E,4,62,0.45,15.931,M,15.25,M,1,3335*42
$GNRMC,115107.100,A,2500.8245866,N,12132.4587743,E,0.00,222.33,260623,,,R,V*13
$GPHDT,,T*1B
$GNGSA,A,3,196,24,23,199,18,194,15,195,12,10,32,25,0.81,0.45,0.68,1*07
$GNGSA,A,3,73,80,86,71,85,,,,,,,,0.81,0.45,0.68,2*0D
$GNGSA,A,3,13,07,08,26,30,02,15,,,,,,0.81,0.45,0.68,3*09
$GNGSA,A,3,08,38,13,39,16,06,46,19,09,36,20,35,0.81,0.45,0.68,4*0A
$GNGSA,A,3,22,37,29,,,,,,,,,,0.81,0.45,0.68,4*0D
$GPGSV,4,1,16,196,76,073,22,24,62,034,38,23,61,346,20,199,60,167,38,1*6A
$GPGSV,4,2,16,18,51,228,47,41,38,242,34,194,35,136,43,15,31,058,20,1*5E
$GPGSV,4,3,16,195,30,179,26,12,28,132,39,10,27,323,46,25,17,170,23,1*50
$GPGSV,4,4,16,32,14,279,35,05,11,127,19,28,03,221,,13,02,065,,1*6F
$GPGSV,3,1,09,196,76,073,35,24,62,034,35,23,61,346,28,199,60,167,47,8*61
$GPGSV,3,2,09,18,51,228,48,194,35,136,40,10,27,323,43,25,17,170,19,8*58
$GPGSV,3,3,09,32,14,279,31,8*5E
$GLGSV,2,1,06,73,51,152,45,80,45,057,18,86,28,287,41,71,27,326,34,1*77
$GLGSV,2,2,06,85,26,234,23,79,02,026,16,1*7C
$GAGSV,3,1,09,13,48,221,44,07,46,315,41,08,43,036,26,26,35,297,42,7*76
$GAGSV,3,2,09,30,33,136,40,02,27,075,16,15,14,173,23,27,07,184,,7*70
$GAGSV,3,3,09,03,06,072,16,7*4D
$GAGSV,2,1,07,13,48,221,47,07,46,315,44,08,43,036,29,26,35,297,43,1*77
$GAGSV,2,2,07,30,33,136,38,15,14,173,23,03,06,072,16,1*4C
$GBGSV,4,1,15,08,85,346,37,38,81,156,45,13,72,322,42,39,68,297,43,1*7B
$GBGSV,4,2,15,16,65,272,41,06,64,267,39,46,62,088,21,19,54,358,29,1*76
$GBGSV,4,3,15,09,50,248,32,36,46,183,38,20,40,076,31,35,18,259,36,1*71
$GBGSV,4,4,15,22,17,309,30,37,16,042,26,29,12,205,19,1*4B
$GBGSV,3,1,09,38,81,156,43,39,68,297,46,46,62,088,38,19,54,358,28,4*75
$GBGSV,3,2,09,36,46,183,40,20,40,076,37,35,18,259,39,22,17,309,35,4*70
$GBGSV,3,3,09,37,16,042,26,4*4B
$GNACCURACY,2.4*10
$PAIRSAT,1,35,1,0,200,2,0,200,3,0,200,4,0,200,5,0,201,6,0,200,7,0,200,8,0,200,9,0,200,10,0,221,11,0,200,12,0,201,13,0,201,14,0,200,15,0,201,16,0,200,17,0,200,18,0,221,19,0,200,20,0,200,21,0,200,23,0,221,24,0,221,25,0,220,26,0,200,27,0,200,28,0,200,29,0,200,30,0,200,31,0,200,32,0,221,194,0,621,195,0,621,196,0,620,199,0,621*6A
$PAIRSAT,2,24,65,0,200,66,0,200,67,0,200,68,0,200,69,0,200,70,0,200,71,0,201,72,0,200,73,0,201,74,0,200,75,0,200,76,0,200,77,0,200,78,0,200,79,0,201,80,0,201,81,0,200,82,0,200,83,0,200,84,0,200,85,0,201,86,0,201,87,0,200,88,0,200*7A
$PAIRSAT,3,23,2,0,1221,3,0,1221,4,0,1200,5,0,200,7,0,1221,8,0,1221,9,0,1200,10,0,1200,11,0,1200,12,0,1200,13,0,1221,15,0,1221,19,0,1200,21,0,1200,24,0,1200,25,0,1200,26,0,1221,27,0,1200,30,0,1221,31,0,1200,33,0,1200,34,0,1200,36,0,1200*6A
$PAIRSAT,4,50,1,0,200,2,0,200,3,0,200,4,0,200,5,0,200,6,0,201,7,0,200,8,0,201,9,0,201,10,0,200,11,0,200,12,0,200,13,0,201,14,0,200,15,0,200,16,0,201,19,0,621,20,0,621,21,0,600,22,0,621,23,0,600,24,0,600,25,0,600,26,0,600,27,0,600,28,0,600,29,0,621,30,0,600,31,0,200,32,0,600,33,0,600,34,0,600,35,0,621,36,0,621,37,0,621,38,0,621,39,0,621,40,0,600,41,0,600,42,0,600,43,0,600,44,0,600,45,0,600,46,0,621,56,0,200,57,0,200,58,0,200,59,0,600,60,0,600,61,0,600*41
$PAIRDGP,10,5,10,12,15,18,23,24,25,28,32*45
$GNGGA,115107.200,2500.8245904,N,12132.4587773,E,4,62,0.45,15.933,M,15.25,M,1,3335*45
$GNRMC,115107.200,A,2500.8245904,N,12132.4587773,E,0.00,222.33,260623,,,R,V*16
$GPHDT,,T*1B
$GNACCURACY,2.4*10
$GNGGA,115107.300,2500.8245875,N,12132.4587758,E,4,64,0.45,15.934,M,15.25,M,1,3335*4B
$GNRMC,115107.300,A,2500.8245875,N,12132.4587758,E,0.00,222.33,260623,,,R,V*19
$GPHDT,,T*1B
$GNACCURACY,2.4*10
$GNGGA,115107.400,2500.8245887,N,12132.4587774,E,4,63,0.45,15.924,M,15.25,M,1,3335*49
$GNRMC,115107.400,A,2500.8245887,N,12132.4587774,E,0.00,222.33,260623,,,R,V*1D
$GPHDT,,T*1B
$GNACCURACY,2.4*10
$GNGGA,115107.500,2500.8245880,N,12132.4587740,E,4,64,0.45,15.931,M,15.25,M,1,3335*4B
$GNRMC,115107.500,A,2500.8245880,N,12132.4587740,E,0.00,222.33,260623,,,R,V*1C
$GPHDT,,T*1B
$GNACCURACY,2.4*10
$GNGGA,115107.600,2500.8245887,N,12132.4587764,E,4,63,0.45,15.938,M,15.25,M,1,3335*47
$GNRMC,115107.600,A,2500.8245887,N,12132.4587764,E,0.00,222.33,260623,,,R,V*1E
$GPHDT,,T*1B
$GNACCURACY,2.4*10
$GNGGA,115107.700,2500.8245897,N,12132.4587821,E,4,64,0.45,15.938,M,15.25,M,0,3335*4F
$GNRMC,115107.700,A,2500.8245897,N,12132.4587821,E,0.00,222.33,260623,,,R,V*10
$GPHDT,,T*1B
$GNACCURACY,2.4*10
$GNGGA,115107.800,2500.8245952,N,12132.4587849,E,4,64,0.45,15.995,M,15.25,M,0,3335*41
$GNRMC,115107.800,A,2500.8245952,N,12132.4587849,E,0.00,222.33,260623,,,R,V*19
$GPHDT,,T*1B
$GNACCURACY,2.4*10
$GNGGA,115107.900,2500.8245950,N,12132.4587866,E,4,64,0.45,16.013,M,15.25,M,0,3335*4B
$GNRMC,115107.900,A,2500.8245950,N,12132.4587866,E,0.00,222.33,260623,,,R,V*17
$GPHDT,,T*1B
$GNACCURACY,2.4*10
$GNGGA,115108.000,2500.8245957,N,12132.4587882,E,4,63,0.45,16.011,M,15.25,M,1,3335*44
$GNRMC,115108.000,A,2500.8245957,N,12132.4587882,E,0.00,222.33,260623,,,R,V*1C
$GPHDT,,T*1B
$GNACCURACY,2.4*10
$GNGGA,115108.100,2500.8245963,N,12132.4587864,E,4,63,0.45,16.012,M,15.25,M,1,3335*49
$GNRMC,115108.100,A,2500.8245963,N,12132.4587864,E,0.00,222.33,260623,,,R,V*12
$GPHDT,,T*1B
$GNGSA,A,3,196,24,23,199,18,194,15,195,12,10,25,32,0.81,0.45,0.68,1*07
$GNGSA,A,3,73,80,86,71,85,,,,,,,,0.81,0.45,0.68,2*0D
$GNGSA,A,3,13,07,08,26,30,02,15,,,,,,0.81,0.45,0.68,3*09
$GNGSA,A,3,08,38,13,39,16,06,46,19,09,36,20,35,0.81,0.45,0.68,4*0A
$GNGSA,A,3,22,37,29,,,,,,,,,,0.81,0.45,0.68,4*0D
$GPGSV,4,1,16,196,76,073,19,24,62,034,38,23,61,346,24,199,60,167,37,1*69
$GPGSV,4,2,16,18,51,228,47,41,38,242,32,194,35,136,42,15,31,058,24,1*5D
$GPGSV,4,3,16,195,30,179,26,12,28,132,40,10,27,323,46,25,17,170,24,1*59
$GPGSV,4,4,16,32,14,279,36,05,11,127,21,28,03,221,,13,02,065,,1*67
$GPGSV,3,1,10,196,76,073,35,24,62,034,35,23,61,346,27,199,60,167,47,8*66
$GPGSV,3,2,10,18,51,228,48,194,35,136,38,195,30,179,21,10,27,323,43,8*62
$GPGSV,3,3,10,25,17,170,19,32,14,279,33,8*6B
$GLGSV,2,1,06,73,51,152,45,80,45,057,21,86,28,287,41,71,27,326,35,1*7C
$GLGSV,2,2,06,85,26,234,24,79,02,026,16,1*7B
$GAGSV,3,1,09,13,48,221,45,07,46,315,40,08,43,036,26,26,35,297,42,7*76
$GAGSV,3,2,09,30,33,136,39,02,27,075,17,15,14,173,24,27,07,184,,7*78
$GAGSV,3,3,09,03,06,072,17,7*4C
$GAGSV,2,1,07,13,48,221,47,07,46,315,44,08,43,036,29,26,35,297,42,1*76
$GAGSV,2,2,07,30,33,136,37,15,14,173,22,03,06,072,15,1*41
$GBGSV,4,1,15,08,85,346,37,38,81,156,45,13,72,322,42,39,68,297,43,1*7B
$GBGSV,4,2,15,16,65,272,41,06,64,267,40,46,62,088,25,19,54,358,25,1*70
$GBGSV,4,3,15,09,50,248,36,36,46,183,37,20,40,076,30,35,18,259,38,1*75
$GBGSV,4,4,15,22,17,309,33,37,16,042,27,29,12,205,20,1*43
$GBGSV,3,1,09,38,81,156,43,39,68,297,46,46,62,088,37,19,54,358,29,4*7B
$GBGSV,3,2,09,36,46,183,41,20,40,076,37,35,18,259,39,22,17,309,34,4*70
$GBGSV,3,3,09,37,16,042,26,4*4B
$GNACCURACY,2.4*10
$PAIRSAT,1,35,1,0,200,2,0,200,3,0,200,4,0,200,5,0,201,6,0,200,7,0,200,8,0,200,9,0,200,10,0,221,11,0,200,12,0,201,13,0,201,14,0,200,15,0,201,16,0,200,17,0,200,18,0,221,19,0,200,20,0,200,21,0,200,23,0,221,24,0,221,25,0,220,26,0,200,27,0,200,28,0,200,29,0,200,30,0,200,31,0,200,32,0,221,194,0,621,195,0,621,196,0,620,199,0,621*6A
$PAIRSAT,2,24,65,0,200,66,0,200,67,0,200,68,0,200,69,0,200,70,0,200,71,0,201,72,0,200,73,0,201,74,0,200,75,0,200,76,0,200,77,0,200,78,0,200,79,0,201,80,0,201,81,0,200,82,0,200,83,0,200,84,0,200,85,0,201,86,0,201,87,0,200,88,0,200*7A
$PAIRSAT,3,23,2,0,1221,3,0,1221,4,0,1200,5,0,200,7,0,1221,8,0,1221,9,0,1200,10,0,1200,11,0,1200,12,0,1200,13,0,1221,15,0,1221,19,0,1200,21,0,1200,24,0,1200,25,0,1200,26,0,1221,27,0,1200,30,0,1221,31,0,1200,33,0,1200,34,0,1200,36,0,1200*6A
$PAIRSAT,4,50,1,0,200,2,0,200,3,0,200,4,0,200,5,0,200,6,0,201,7,0,200,8,0,201,9,0,201,10,0,200,11,0,200,12,0,200,13,0,201,14,0,200,15,0,200,16,0,201,19,0,621,20,0,621,21,0,600,22,0,621,23,0,600,24,0,600,25,0,600,26,0,600,27,0,600,28,0,600,29,0,621,30,0,600,31,0,200,32,0,600,33,0,600,34,0,600,35,0,621,36,0,621,37,0,621,38,0,621,39,0,621,40,0,600,41,0,600,42,0,600,43,0,600,44,0,600,45,0,600,46,0,621,56,0,200,57,0,200,58,0,200,59,0,600,60,0,600,61,0,600*41
$PAIRDGP,10,5,10,12,15,18,23,24,25,28,32*45
$GNGGA,115108.200,2500.8245854,N,12132.4587858,E,4,64,0.45,15.971,M,15.25,M,1,3335*48
$GNRMC,115108.200,A,2500.8245854,N,12132.4587858,E,0.00,222.33,260623,,,R,V*1B
$GPHDT,,T*1B
$GNACCURACY,2.4*10
$GNGGA,115108.300,2500.8245860,N,12132.4587840,E,4,63,0.45,15.984,M,15.25,M,1,3335*4A
$GNRMC,115108.300,A,2500.8245860,N,12132.4587840,E,0.00,222.33,260623,,,R,V*14
$GPHDT,,T*1B
$GNACCURACY,2.4*10
$GNGGA,115108.400,2500.8245868,N,12132.4587839,E,4,63,0.45,15.974,M,15.25,M,1,3335*44
$GNRMC,115108.400,A,2500.8245868,N,12132.4587839,E,0.00,222.33,260623,,,R,V*15
$GPHDT,,T*1B
$GNACCURACY,2.4*10
$GNGGA,115108.500,2500.8245932,N,12132.4587860,E,4,63,0.45,16.013,M,15.25,M,1,3335*4C
$GNRMC,115108.500,A,2500.8245932,N,12132.4587860,E,0.00,222.33,260623,,,R,V*16
$GPHDT,,T*1B
$GNACCURACY,2.4*10
$GNGGA,115108.600,2500.8245971,N,12132.4587887,E,4,63,0.45,16.022,M,15.25,M,0,3335*42
$GNRMC,115108.600,A,2500.8245971,N,12132.4587887,E,0.00,222.33,260623,,,R,V*1B
$GPHDT,,T*1B
$GNACCURACY,2.4*10
$GNGGA,115108.700,2500.8245896,N,12132.4587862,E,4,62,0.45,15.976,M,15.25,M,0,3335*4A
$GNRMC,115108.700,A,2500.8245896,N,12132.4587862,E,0.00,222.33,260623,,,R,V*19
$GPHDT,,T*1B
$GNACCURACY,2.4*10
$GNGGA,115108.800,2500.8245890,N,12132.4587865,E,4,63,0.45,15.990,M,15.25,M,0,3335*4D
$GNRMC,115108.800,A,2500.8245890,N,12132.4587865,E,0.00,222.33,260623,,,R,V*17
$GPHDT,,T*1B
$GNACCURACY,2.4*10
$GNGGA,115108.900,2500.8245880,N,12132.4587870,E,4,63,0.45,15.979,M,15.25,M,0,3335*4E
$GNRMC,115108.900,A,2500.8245880,N,12132.4587870,E,0.01,222.33,260623,,,R,V*12
$GPHDT,,T*1B
$GNACCURACY,2.4*10
$GNGGA,115109.000,2500.8245883,N,12132.4587876,E,4,63,0.45,15.978,M,15.25,M,1,3335*43
$GNRMC,115109.000,A,2500.8245883,N,12132.4587876,E,0.01,222.33,260623,,,R,V*1F
$PAIR010,0,1,2268,129087*31
$GPHDT,,T*1B
$GNACCURACY,2.4*10
$GNGGA,115109.100,2500.8245889,N,12132.4587882,E,4,63,0.45,15.980,M,15.25,M,1,3335*44
$GNRMC,115109.100,A,2500.8245889,N,12132.4587882,E,0.01,222.33,260623,,,R,V*1F
$GPHDT,,T*1B
$GNGSA,A,3,196,24,23,199,18,194,15,195,12,10,32,25,0.81,0.45,0.68,1*07
$GNGSA,A,3,73,80,86,71,85,,,,,,,,0.81,0.45,0.68,2*0D
$GNGSA,A,3,13,07,08,26,30,02,15,,,,,,0.81,0.45,0.68,3*09
$GNGSA,A,3,08,38,13,39,16,06,46,19,09,36,20,35,0.81,0.45,0.68,4*0A
$GNGSA,A,3,22,37,29,,,,,,,,,,0.81,0.45,0.68,4*0D
$GPGSV,4,1,16,196,76,073,21,24,62,034,38,23,61,346,23,199,60,167,34,1*66
$GPGSV,4,2,16,18,51,228,47,41,38,242,36,194,35,136,42,15,31,058,23,1*5E
$GPGSV,4,3,16,195,30,179,30,12,28,132,41,10,27,323,46,25,17,170,24,1*5F
$GPGSV,4,4,16,32,14,279,33,05,11,127,20,28,03,221,,13,02,065,,1*63
$GPGSV,3,1,10,196,76,073,35,24,62,034,35,23,61,346,27,199,60,167,46,8*67
$GPGSV,3,2,10,18,51,228,48,194,35,136,40,195,30,179,25,10,27,323,43,8*69
$GPGSV,3,3,10,25,17,170,18,32,14,279,34,8*6D
$GLGSV,2,1,06,73,51,152,45,80,45,056,21,86,28,287,41,71,27,326,34,1*7C
$GLGSV,2,2,06,85,26,234,24,79,02,026,16,1*7B
$GAGSV,3,1,09,13,48,221,44,07,46,315,41,08,43,036,25,26,35,297,42,7*75
$GAGSV,3,2,09,30,33,136,39,02,27,075,17,15,14,173,24,27,07,184,,7*78
$GAGSV,3,3,09,03,06,072,17,7*4C
$GAGSV,2,1,07,13,48,221,44,07,46,315,44,08,43,036,29,26,35,297,43,1*74
$GAGSV,2,2,07,30,33,136,38,15,14,173,22,03,06,072,14,1*4F
$GBGSV,4,1,15,08,85,346,37,38,81,156,45,13,72,322,43,39,68,297,44,1*7D
$GBGSV,4,2,15,16,65,272,40,06,64,267,39,46,62,088,25,19,54,358,26,1*7C
$GBGSV,4,3,15,09,50,248,36,36,46,183,36,20,40,076,30,35,18,259,36,1*7A
$GBGSV,4,4,15,22,17,309,33,37,16,042,26,29,12,205,22,1*40
$GBGSV,3,1,09,38,81,156,43,39,68,297,46,46,62,088,38,19,54,358,28,4*75
$GBGSV,3,2,09,36,46,183,36,20,40,076,37,35,18,259,40,22,17,309,36,4*7C
$GBGSV,3,3,09,37,16,042,27,4*4A
$GNACCURACY,2.4*10
$PAIRSAT,1,35,1,0,200,2,0,200,3,0,200,4,0,200,5,0,201,6,0,200,7,0,200,8,0,200,9,0,200,10,0,221,11,0,200,12,0,201,13,0,201,14,0,200,15,0,201,16,0,200,17,0,200,18,0,221,19,0,200,20,0,200,21,0,200,23,0,221,24,0,221,25,0,220,26,0,200,27,0,200,28,0,200,29,0,200,30,0,200,31,0,200,32,0,221,194,0,621,195,0,621,196,0,620,199,0,621*6A
$PAIRSAT,2,24,65,0,200,66,0,200,67,0,200,68,0,200,69,0,200,70,0,200,71,0,201,72,0,200,73,0,201,74,0,200,75,0,200,76,0,200,77,0,200,78,0,200,79,0,201,80,0,201,81,0,200,82,0,200,83,0,200,84,0,200,85,0,201,86,0,201,87,0,200,88,0,200*7A
$PAIRSAT,3,23,2,0,1221,3,0,1221,4,0,1200,5,0,200,7,0,1221,8,0,1221,9,0,1200,10,0,1200,11,0,1200,12,0,1200,13,0,1221,15,0,1221,19,0,1200,21,0,1200,24,0,1200,25,0,1200,26,0,1221,27,0,1200,30,0,1221,31,0,1200,33,0,1200,34,0,1200,36,0,1200*6A
$PAIRSAT,4,50,1,0,200,2,0,200,3,0,200,4,0,200,5,0,200,6,0,201,7,0,200,8,0,201,9,0,201,10,0,200,11,0,200,12,0,200,13,0,201,14,0,200,15,0,200,16,0,201,19,0,621,20,0,621,21,0,600,22,0,621,23,0,600,24,0,600,25,0,600,26,0,600,27,0,600,28,0,600,29,0,621,30,0,600,31,0,200,32,0,600,33,0,600,34,0,600,35,0,621,36,0,621,37,0,621,38,0,621,39,0,621,40,0,600,41,0,600,42,0,600,43,0,600,44,0,600,45,0,600,46,0,621,56,0,200,57,0,200,58,0,200,59,0,600,60,0,600,61,0,600*41
$PAIRDGP,10,5,10,12,15,18,23,24,25,28,32*45
$GNGGA,115109.200,2500.8245948,N,12132.4587866,E,4,63,0.45,16.026,M,15.25,M,1,3335*47
$GNRMC,115109.200,A,2500.8245948,N,12132.4587866,E,0.01,222.33,260623,,,R,V*1A
$GPHDT,,T*1B
$GNACCURACY,2.4*10
$GNGGA,115109.300,2500.8245950,N,12132.4587855,E,4,63,0.45,16.016,M,15.25,M,1,3335*4C
$GNRMC,115109.300,A,2500.8245950,N,12132.4587855,E,0.01,222.33,260623,,,R,V*12
$GPHDT,,T*1B
$GNACCURACY,2.4*10
$GNGGA,115109.400,2500.8245946,N,12132.4587842,E,4,63,0.45,16.015,M,15.25,M,1,3335*49
$GNRMC,115109.400,A,2500.8245946,N,12132.4587842,E,0.01,222.33,260623,,,R,V*14
$GPHDT,,T*1B
$GNACCURACY,2.4*10
$GNGGA,115109.500,2500.8245962,N,12132.4587904,E,4,63,0.45,16.014,M,15.25,M,0,3335*4D
$GNRMC,115109.500,A,2500.8245962,N,12132.4587904,E,0.01,222.33,260623,,,R,V*10
$GPHDT,,T*1B
$GNACCURACY,2.4*10
$GNGGA,115109.600,2500.8245934,N,12132.4587857,E,4,64,0.45,16.032,M,15.25,M,0,3335*49
$GNRMC,115109.600,A,2500.8245934,N,12132.4587857,E,0.01,222.33,260623,,,R,V*17
$GPHDT,,T*1B
$GNACCURACY,2.4*10
$GNGGA,115109.700,2500.8245945,N,12132.4587860,E,4,64,0.45,16.029,M,15.25,M,0,3335*40
$GNRMC,115109.700,A,2500.8245945,N,12132.4587860,E,0.01,222.33,260623,,,R,V*14
$GPHDT,,T*1B
$GNACCURACY,2.4*10
$GNGGA,115109.800,2500.8245958,N,12132.4587886,E,4,64,0.45,16.029,M,15.25,M,0,3335*4B
$GNRMC,115109.800,A,2500.8245958,N,12132.4587886,E,0.01,222.33,260623,,,R,V*1F
$GPHDT,,T*1B
$GNACCURACY,2.4*10
$GNGGA,115109.900,2500.8245851,N,12132.4587861,E,4,64,0.45,15.982,M,15.25,M,0,3335*40
$GNRMC,115109.900,A,2500.8245851,N,12132.4587861,E,0.01,222.33,260623,,,R,V*1F
$GPHDT,,T*1B
$GNACCURACY,2.4*10
$GNGGA,115110.000,2500.8245873,N,12132.4587770,E,4,64,0.45,15.928,M,15.25,M,1,3335*4F
$GNRMC,115110.000,A,2500.8245873,N,12132.4587770,E,0.01,222.33,260623,,,R,V*11
$GPHDT,,T*1B
$GNACCURACY,2.4*10
$GNGGA,115110.100,2500.8245872,N,12132.4587759,E,4,65,0.45,15.928,M,15.25,M,1,3335*45
$GNRMC,115110.100,A,2500.8245872,N,12132.4587759,E,0.01,222.33,260623,,,R,V*1A
$GPHDT,,T*1B
$GNGSA,A,3,196,24,23,199,18,194,15,195,12,10,25,32,0.81,0.45,0.68,1*07
$GNGSA,A,3,73,80,86,71,85,,,,,,,,0.81,0.45,0.68,2*0D
$GNGSA,A,3,13,07,08,26,30,02,15,,,,,,0.81,0.45,0.68,3*09
$GNGSA,A,3,08,38,13,39,16,06,46,19,09,36,20,35,0.81,0.45,0.68,4*0A
$GNGSA,A,3,22,37,29,,,,,,,,,,0.81,0.45,0.68,4*0D
$GPGSV,4,1,16,196,76,073,22,24,62,034,38,23,61,346,22,199,60,167,36,1*66
$GPGSV,4,2,16,18,51,228,45,41,38,242,35,194,35,136,41,15,31,058,19,1*55
$GPGSV,4,3,16,195,30,179,31,12,28,132,41,10,27,323,46,25,17,170,23,1*59
$GPGSV,4,4,16,32,14,279,33,05,11,127,20,28,03,221,,13,02,065,,1*63
$GPGSV,3,1,10,196,76,073,34,24,62,034,35,23,61,346,26,199,60,167,46,8*67
$GPGSV,3,2,10,18,51,228,46,194,35,136,40,195,30,179,26,10,27,323,43,8*64
$GPGSV,3,3,10,25,17,170,18,32,14,279,33,8*6A
$GLGSV,2,1,06,73,51,152,45,80,45,056,23,86,28,287,41,71,27,326,35,1*7F
$GLGSV,2,2,06,85,26,234,24,79,02,026,17,1*7A
$GAGSV,3,1,09,13,48,221,43,07,46,315,41,08,43,036,27,26,35,297,42,7*70
$GAGSV,3,2,09,30,33,136,39,02,27,075,17,15,14,173,24,27,07,184,,7*78
$GAGSV,3,3,09,03,06,072,16,7*4D
$GAGSV,2,1,07,13,48,221,44,07,46,315,44,08,43,036,29,26,35,297,42,1*75
$GAGSV,2,2,07,30,33,136,38,15,14,173,22,03,06,072,15,1*4E
$GBGSV,4,1,15,08,85,346,37,38,81,156,45,13,72,322,43,39,68,297,44,1*7D
$GBGSV,4,2,15,16,65,272,40,06,64,268,39,46,62,088,26,19,54,358,24,1*72
$GBGSV,4,3,15,09,50,248,36,36,46,183,34,20,40,076,30,35,18,259,35,1*7B
$GBGSV,4,4,15,22,17,309,31,37,16,042,26,29,12,205,24,1*44
$GBGSV,3,1,10,38,81,156,43,39,68,297,45,46,62,088,37,19,54,358,29,4*70
$GBGSV,3,2,10,36,46,183,39,20,40,076,37,35,18,259,40,22,17,309,35,4*78
$GBGSV,3,3,10,37,16,042,25,29,12,205,17,4*79
$GNACCURACY,2.4*10
$PAIRSAT,1,35,1,0,200,2,0,200,3,0,200,4,0,200,5,0,201,6,0,200,7,0,200,8,0,200,9,0,200,10,0,221,11,0,200,12,0,201,13,0,201,14,0,200,15,0,201,16,0,200,17,0,200,18,0,221,19,0,200,20,0,200,21,0,200,23,0,221,24,0,221,25,0,220,26,0,200,27,0,200,28,0,200,29,0,200,30,0,200,31,0,200,32,0,221,194,0,621,195,0,621,196,0,620,199,0,621*6A
$PAIRSAT,2,24,65,0,200,66,0,200,67,0,200,68,0,200,69,0,200,70,0,200,71,0,201,72,0,200,73,0,201,74,0,200,75,0,200,76,0,200,77,0,200,78,0,200,79,0,201,80,0,201,81,0,200,82,0,200,83,0,200,84,0,200,85,0,201,86,0,201,87,0,200,88,0,200*7A
$PAIRSAT,3,23,2,0,1221,3,0,1221,4,0,1200,5,0,200,7,0,1221,8,0,1221,9,0,1200,10,0,1200,11,0,1200,12,0,1200,13,0,1221,15,0,1221,19,0,1200,21,0,1200,24,0,1200,25,0,1200,26,0,1221,27,0,1200,30,0,1221,31,0,1200,33,0,1200,34,0,1200,36,0,1200*6A
$PAIRSAT,4,50,1,0,200,2,0,200,3,0,200,4,0,200,5,0,200,6,0,201,7,0,200,8,0,201,9,0,201,10,0,200,11,0,200,12,0,200,13,0,201,14,0,200,15,0,200,16,0,201,19,0,621,20,0,621,21,0,600,22,0,621,23,0,600,24,0,600,25,0,600,26,0,600,27,0,600,28,0,600,29,0,621,30,0,600,31,0,200,32,0,600,33,0,600,34,0,600,35,0,621,36,0,621,37,0,621,38,0,621,39,0,621,40,0,600,41,0,600,42,0,600,43,0,600,44,0,600,45,0,600,46,0,621,56,0,200,57,0,200,58,0,200,59,0,600,60,0,600,61,0,600*41
$PAIRDGP,10,5,10,12,15,18,23,24,25,28,32*45
$GNGGA,115110.200,2500.8245879,N,12132.4587755,E,4,65,0.45,15.916,M,15.25,M,1,3335*4C
$GNRMC,115110.200,A,2500.8245879,N,12132.4587755,E,0.01,222.33,260623,,,R,V*1E
$GPHDT,,T*1B
$GNACCURACY,2.4*10
$GNGGA,115110.300,2500.8245861,N,12132.4587781,E,4,64,0.45,15.922,M,15.25,M,1,3335*4B
$GNRMC,115110.300,A,2500.8245861,N,12132.4587781,E,0.02,222.33,260623,,,R,V*1C
$GPHDT,,T*1B
$GNACCURACY,2.4*10
$GNGGA,115110.400,2500.8245878,N,12132.4587788,E,4,65,0.45,15.929,M,15.25,M,1,3335*47
$GNRMC,115110.400,A,2500.8245878,N,12132.4587788,E,0.02,222.33,260623,,,R,V*1A
$GPHDT,,T*1B
$GNACCURACY,2.4*10
$GNGGA,115110.500,2500.8245864,N,12132.4587685,E,4,65,0.45,15.927,M,15.25,M,1,3335*49
$GNRMC,115110.500,A,2500.8245864,N,12132.4587685,E,0.02,222.33,260623,,,R,V*1A
$GPHDT,,T*1B
$GNACCURACY,2.4*10
$GNGGA,115110.600,2500.8245889,N,12132.4587706,E,4,65,0.45,15.915,M,15.25,M,1,3335*42
$GNRMC,115110.600,A,2500.8245889,N,12132.4587706,E,0.02,222.33,260623,,,R,V*10
$GPHDT,,T*1B
$GNACCURACY,2.4*10
$GNGGA,115110.700,2500.8245863,N,12132.4587726,E,4,65,0.45,15.910,M,15.25,M,0,3335*41
$GNRMC,115110.700,A,2500.8245863,N,12132.4587726,E,0.02,222.33,260623,,,R,V*17
$GPHDT,,T*1B
$GNACCURACY,2.4*10
$GNGGA,115110.800,2500.8245848,N,12132.4587721,E,4,65,0.45,15.916,M,15.25,M,0,3335*46
$GNRMC,115110.800,A,2500.8245848,N,12132.4587721,E,0.02,222.33,260623,,,R,V*16
$GPHDT,,T*1B
$GNACCURACY,2.4*10
$GNGGA,115110.900,2500.8245866,N,12132.4587700,E,4,65,0.45,15.921,M,15.25,M,0,3335*4C
$GNRMC,115110.900,A,2500.8245866,N,12132.4587700,E,0.02,222.33,260623,,,R,V*18
$GPHDT,,T*1B
$GNACCURACY,2.4*10
$GNGGA,115111.000,2500.8245827,N,12132.4587672,E,4,65,0.45,15.913,M,15.25,M,1,3335*45
$GNRMC,115111.000,A,2500.8245827,N,12132.4587672,E,0.02,222.33,260623,,,R,V*11
$GPHDT,,T*1B
$GNACCURACY,2.4*10
$GNGGA,115111.100,2500.8245856,N,12132.4587686,E,4,65,0.45,15.921,M,15.25,M,1,3335*48
$GNRMC,115111.100,A,2500.8245856,N,12132.4587686,E,0.02,222.33,260623,,,R,V*1D
$GPHDT,,T*1B
$GNGSA,A,3,196,24,23,199,18,194,15,195,12,10,25,32,0.81,0.45,0.68,1*07
$GNGSA,A,3,73,80,86,71,85,,,,,,,,0.81,0.45,0.68,2*0D
$GNGSA,A,3,13,07,08,26,30,02,15,,,,,,0.81,0.45,0.68,3*09
$GNGSA,A,3,08,38,13,39,16,06,46,19,09,36,20,35,0.81,0.45,0.68,4*0A
$GNGSA,A,3,22,37,29,,,,,,,,,,0.81,0.45,0.68,4*0D
$GPGSV,4,1,16,196,76,073,20,24,62,034,37,23,61,346,20,199,60,167,37,1*68
$GPGSV,4,2,16,18,51,228,43,41,38,242,33,194,35,136,41,15,31,058,19,1*55
$GPGSV,4,3,16,195,30,179,32,12,28,132,42,10,27,323,46,25,17,170,27,1*5D
$GPGSV,4,4,16,32,14,279,33,05,11,127,18,28,03,221,,13,02,065,,1*68
$GPGSV,3,1,10,196,76,073,34,24,62,034,35,23,61,346,22,199,60,167,46,8*63
$GPGSV,3,2,10,18,51,228,41,194,35,136,41,195,30,179,26,10,27,323,44,8*65
$GPGSV,3,3,10,25,17,170,19,32,14,279,38,8*60
$GLGSV,2,1,06,73,51,152,45,80,45,056,21,86,28,287,39,71,27,326,32,1*75
$GLGSV,2,2,06,85,26,234,22,79,02,026,17,1*7C
$GAGSV,3,1,09,13,48,221,41,07,46,315,40,08,43,036,26,26,35,297,42,7*72
$GAGSV,3,2,09,30,33,136,38,02,27,075,15,15,14,173,24,27,07,184,,7*7B
$GAGSV,3,3,09,03,06,072,15,7*4E
$GAGSV,2,1,07,13,48,221,42,07,46,315,45,08,43,036,29,26,35,297,42,1*72
$GAGSV,2,2,07,30,33,136,39,15,14,173,23,03,06,072,15,1*4E
$GBGSV,4,1,15,08,85,346,39,38,81,156,45,13,72,322,44,39,68,297,42,1*72
$GBGSV,4,2,15,16,65,272,37,06,64,268,34,46,62,088,26,19,54,358,25,1*7E
$GBGSV,4,3,15,09,50,248,33,36,46,183,34,20,40,076,32,35,18,259,36,1*7F
$GBGSV,4,4,15,22,17,309,26,37,16,042,25,29,12,205,23,1*46
$GBGSV,3,1,10,38,81,156,44,39,68,297,45,46,62,088,37,19,54,358,28,4*76
$GBGSV,3,2,10,36,46,183,42,20,40,076,37,35,18,259,40,22,17,309,36,4*77
$GBGSV,3,3,10,37,16,042,26,29,12,205,16,4*7B
$GNACCURACY,2.4*10
$PAIRSAT,1,35,1,0,200,2,0,200,3,0,200,4,0,200,5,0,201,6,0,200,7,0,200,8,0,200,9,0,200,10,0,221,11,0,200,12,0,201,13,0,201,14,0,200,15,0,201,16,0,200,17,0,200,18,0,221,19,0,200,20,0,200,21,0,200,23,0,221,24,0,221,25,0,220,26,0,200,27,0,200,28,0,200,29,0,200,30,0,200,31,0,200,32,0,221,194,0,621,195,0,621,196,0,620,199,0,621*6A
$PAIRSAT,2,24,65,0,200,66,0,200,67,0,200,68,0,200,69,0,200,70,0,200,71,0,201,72,0,200,73,0,201,74,0,200,75,0,200,76,0,200,77,0,200,78,0,200,79,0,201,80,0,201,81,0,200,82,0,200,83,0,200,84,0,200,85,0,201,86,0,201,87,0,200,88,0,200*7A
$PAIRSAT,3,23,2,0,1221,3,0,1221,4,0,1200,5,0,200,7,0,1221,8,0,1221,9,0,1200,10,0,1200,11,0,1200,12,0,1200,13,0,1221,15,0,1221,19,0,1200,21,0,1200,24,0,1200,25,0,1200,26,0,1221,27,0,1200,30,0,1221,31,0,1200,33,0,1200,34,0,1200,36,0,1200*6A
$PAIRSAT,4,50,1,0,200,2,0,200,3,0,200,4,0,200,5,0,200,6,0,201,7,0,200,8,0,201,9,0,201,10,0,200,11,0,200,12,0,200,13,0,201,14,0,200,15,0,200,16,0,201,19,0,621,20,0,621,21,0,600,22,0,621,23,0,600,24,0,600,25,0,600,26,0,600,27,0,600,28,0,600,29,0,621,30,0,600,31,0,200,32,0,600,33,0,600,34,0,600,35,0,621,36,0,621,37,0,621,38,0,621,39,0,621,40,0,600,41,0,600,42,0,600,43,0,600,44,0,600,45,0,600,46,0,621,56,0,200,57,0,200,58,0,200,59,0,600,60,0,600,61,0,600*41
$PAIRDGP,10,5,10,12,15,18,23,24,25,28,32*45
$GNGGA,115111.200,2500.8245850,N,12132.4587680,E,4,65,0.45,15.929,M,15.25,M,1,3335*43
$GNRMC,115111.200,A,2500.8245850,N,12132.4587680,E,0.02,222.33,260623,,,R,V*1E
$GPHDT,,T*1B
$GNACCURACY,2.4*10
$GNGGA,115111.300,2500.8245841,N,12132.4587655,E,4,65,0.45,15.945,M,15.25,M,1,3335*40
$GNRMC,115111.300,A,2500.8245841,N,12132.4587655,E,0.02,222.33,260623,,,R,V*17
$GPHDT,,T*1B
$GNACCURACY,2.4*10
$GNGGA,115111.400,2500.8245870,N,12132.4587676,E,4,65,0.45,15.950,M,15.25,M,1,3335*40
$GNRMC,115111.400,A,2500.8245870,N,12132.4587676,E,0.02,222.33,260623,,,R,V*13
$GPHDT,,T*1B
$GNACCURACY,2.4*10
$GNGGA,115111.500,2500.8245845,N,12132.4587649,E,4,65,0.45,15.965,M,15.25,M,0,3335*4C
$GNRMC,115111.500,A,2500.8245845,N,12132.4587649,E,0.02,222.33,260623,,,R,V*18
$GPHDT,,T*1B
$GNACCURACY,2.4*10
$GNGGA,115111.600,2500.8245806,N,12132.4587671,E,4,65,0.45,15.947,M,15.25,M,0,3335*43
$GNRMC,115111.600,A,2500.8245806,N,12132.4587671,E,0.02,222.33,260623,,,R,V*17
$GPHDT,,T*1B
$GNACCURACY,2.4*10
$GNGGA,115111.700,2500.8245812,N,12132.4587662,E,4,65,0.45,15.971,M,15.25,M,0,3335*40
$GNRMC,115111.700,A,2500.8245812,N,12132.4587662,E,0.02,222.33,260623,,,R,V*11
$GPHDT,,T*1B
$GNACCURACY,2.4*10
$GNGGA,115111.800,2500.8245859,N,12132.4587719,E,4,65,0.45,15.982,M,15.25,M,0,3335*41
$GNRMC,115111.800,A,2500.8245859,N,12132.4587719,E,0.02,222.33,260623,,,R,V*1C
$GPHDT,,T*1B
$GNACCURACY,2.4*10
$GNGGA,115111.900,2500.8245814,N,12132.4587752,E,4,65,0.45,15.999,M,15.25,M,0,3335*4C
$GNRMC,115111.900,A,2500.8245814,N,12132.4587752,E,0.02,222.33,260623,,,R,V*1B
$GPHDT,,T*1B
