$FW : RTK35X,V1.1X0314AS,Lib20210517,1*54
$Tool : LOCOSYS , GNSS Firebird , v1.0.0.19*39
$---------------------------------------------------*2D
,0.45,0.56,3*08
$GNGSA,A,3,08,38,13,39,16,06,46,19,09,36,20,35,0.72,0.45,0.56,4*0B
$GNGSA,A,3,22,37,29,,,,,,,,,,0.72,0.45,0.56,4*0C
$GPGSV,4,1,16,196,75,072,29,24,63,034,39,199,60,167,36,23,60,345,25,1*6A
$GPGSV,4,2,16,18,52,229,45,41,38,242,41,194,34,136,42,15,32,057,26,1*56
$GPGSV,4,3,16,195,30,179,33,12,27,133,43,10,26,323,46,25,16,171,24,1*51
$GPGSV,4,4,16,32,14,278,32,05,12,126,19,13,03,064,,28,02,221,,1*6A
$GPGSV,3,1,10,196,75,072,34,24,63,034,32,23,60,345,29,199,60,167,47,8*6F
$GPGSV,3,2,10,18,52,229,46,194,34,136,44,195,30,179,35,10,26,323,40,8*63
$GPGSV,3,3,10,25,16,171,19,32,14,278,30,8*69
$GLGSV,2,1,08,73,50,152,44,80,45,058,27,70,41,026,,86,28,288,41,1*70
$GLGSV,2,2,08,85,27,235,28,71,26,325,37,69,09,085,21,79,03,026,,1*75
$GAGSV,2,1,08,13,48,222,42,07,46,314,42,08,43,035,30,26,35,297,41,7*76
$GAGSV,2,2,08,30,33,137,44,02,27,076,19,15,15,173,16,03,07,071,,7*73
$GAGSV,2,1,07,13,48,222,44,07,46,314,45,08,43,035,28,26,35,297,36,1*77
$GAGSV,2,2,07,30,33,137,45,02,27,076,28,15,15,173,22,1*4C
$GBGSV,4,1,16,08,84,348,37,38,81,154,43,13,72,323,42,39,69,296,44,1*75
$GBGSV,4,2,16,16,66,271,42,06,64,266,39,46,62,090,39,19,53,357,42,1*72
$GBGSV,4,3,16,09,50,247,40,36,45,183,46,20,40,075,27,35,18,259,42,1*75
$GBGSV,4,4,16,22,17,308,39,37,16,042,24,29,13,205,20,10,02,200,,1*78
$GBGSV,3,1,10,38,81,154,45,39,69,296,45,46,62,090,44,19,53,357,33,4*7A
$GBGSV,3,2,10,36,45,183,46,20,40,075,28,35,18,259,28,22,17,308,35,4*71
$GBGSV,3,3,10,37,16,042,27,29,13,205,22,4*7C
$GNACCURACY,2.3*17
$PAIRSAT,1,35,1,0,200,2,0,200,3,0,200,4,0,200,5,0,201,6,0,200,7,0,200,8,0,200,9,0,200,10,0,221,11,0,200,12,0,201,13,0,201,14,0,200,15,0,201,16,0,200,17,0,200,18,0,221,19,0,200,20,0,200,21,0,200,23,0,221,24,0,221,25,0,220,26,0,200,27,0,200,28,0,200,29,0,200,30,0,200,31,0,200,32,0,221,194,0,621,195,0,621,196,0,620,199,0,621*6A
$PAIRSAT,2,24,65,0,200,66,0,200,67,0,200,68,0,200,69,0,200,70,0,200,71,0,201,72,0,200,73,0,201,74,0,200,75,0,200,76,0,200,77,0,200,78,0,200,79,0,201,80,0,201,81,0,200,82,0,200,83,0,200,84,0,200,85,0,201,86,0,201,87,0,200,88,0,200*7A
$PAIRSAT,3,23,2,0,1221,3,0,1221,4,0,1200,5,0,200,7,0,1221,8,0,1221,9,0,1200,10,0,1200,11,0,1200,12,0,1200,13,0,1221,15,0,1221,19,0,1200,21,0,1200,24,0,1200,25,0,1200,26,0,1221,27,0,1200,30,0,1221,31,0,1200,33,0,1200,34,0,1200,36,0,1200*6A
$PAIRSAT,4,50,1,0,200,2,0,200,3,0,200,4,0,200,5,0,200,6,0,201,7,0,200,8,0,201,9,0,201,10,0,200,11,0,200,12,0,200,13,0,201,14,0,200,15,0,200,16,0,201,19,0,621,20,0,621,21,0,600,22,0,621,23,0,600,24,0,600,25,0,600,26,0,600,27,0,600,28,0,600,29,0,621,30,0,600,31,0,200,32,0,600,33,0,600,34,0,600,35,0,621,36,0,621,37,0,621,38,0,621,39,0,621,40,0,600,41,0,600,42,0,600,43,0,600,44,0,600,45,0,600,46,0,621,56,0,200,57,0,200,58,0,200,59,0,600,60,0,600,61,0,600*41
$PAIRDGP,10,5,10,12,15,18,23,24,25,28,32*45
$GNGGA,114920.200,2500.8245877,N,12132.4587909,E,4,65,0.45,15.999,M,15.25,M,1,3335*48
$GNRMC,114920.200,A,2500.8245877,N,12132.4587909,E,0.01,222.33,260623,,,R,V*1D
$GPHDT,,T*1B
$GNACCURACY,2.3*17
$GNGGA,114920.300,2500.8245883,N,12132.4587916,E,4,65,0.45,15.990,M,15.25,M,1,3335*45
$GNRMC,114920.300,A,2500.8245883,N,12132.4587916,E,0.01,222.33,260623,,,R,V*19
$GPHDT,,T*1B
$GNACCURACY,2.3*17
$GNGGA,114920.400,2500.8245873,N,12132.4587897,E,4,65,0.45,15.998,M,15.25,M,1,3335*4D
$GNRMC,114920.400,A,2500.8245873,N,12132.4587897,E,0.01,222.33,260623,,,R,V*19
$GPHDT,,T*1B
$GNACCURACY,2.3*17
$GNGGA,114920.500,2500.8245900,N,12132.4587921,E,4,65,0.45,15.995,M,15.25,M,1,3335*48
$GNRMC,114920.500,A,2500.8245900,N,12132.4587921,E,0.02,222.33,260623,,,R,V*12
$GPHDT,,T*1B
$GNACCURACY,2.3*17
$GNGGA,114920.600,2500.8245863,N,12132.4587880,E,4,64,0.45,15.999,M,15.25,M,1,3335*48
$GNRMC,114920.600,A,2500.8245863,N,12132.4587880,E,0.02,222.33,260623,,,R,V*1F
$GPHDT,,T*1B
$GNACCURACY,2.3*17
$GNGGA,114920.700,2500.8245870,N,12132.4587917,E,4,64,0.45,15.999,M,15.25,M,0,3335*45
$GNRMC,114920.700,A,2500.8245870,N,12132.4587917,E,0.01,222.33,260623,,,R,V*10
$GPHDT,,T*1B
$GNACCURACY,2.3*17
$GNGGA,114920.800,2500.8245892,N,12132.4587932,E,4,65,0.45,15.985,M,15.25,M,0,3335*4D
$GNRMC,114920.800,A,2500.8245892,N,12132.4587932,E,0.00,222.33,260623,,,R,V*15
$GPHDT,,T*1B
$GNACCURACY,2.3*17
$GNGGA,114920.900,2500.8245870,N,12132.4587915,E,4,65,0.45,15.998,M,15.25,M,0,3335*49
$GNRMC,114920.900,A,2500.8245870,N,12132.4587915,E,0.01,222.33,260623,,,R,V*1C
$GPHDT,,T*1B
$GNACCURACY,2.3*17
$GNGGA,114921.000,2500.8245869,N,12132.4587900,E,4,65,0.45,16.001,M,15.25,M,1,3335*46
$GNRMC,114921.000,A,2500.8245869,N,12132.4587900,E,0.00,222.33,260623,,,R,V*19
$GPHDT,,T*1B
$GNACCURACY,2.2*16
$GNGGA,114921.100,2500.8245848,N,12132.4587900,E,4,65,0.45,16.004,M,15.25,M,1,3335*41
$GNRMC,114921.100,A,2500.8245848,N,12132.4587900,E,0.00,222.33,260623,,,R,V*1B
$GPHDT,,T*1B
$GNGSA,A,3,196,24,199,23,18,194,15,195,12,10,25,32,0.72,0.45,0.56,1*06
$GNGSA,A,3,73,80,86,85,71,,,,,,,,0.72,0.45,0.56,2*0C
$GNGSA,A,3,13,07,08,26,30,02,15,,,,,,0.72,0.45,0.56,3*08
$GNGSA,A,3,08,38,13,39,16,06,46,19,09,36,20,35,0.72,0.45,0.56,4*0B
$GNGSA,A,3,22,37,29,,,,,,,,,,0.72,0.45,0.56,4*0C
$GPGSV,4,1,16,196,75,072,29,24,63,034,39,199,60,167,36,23,60,345,27,1*68
$GPGSV,4,2,16,18,52,229,45,41,38,242,41,194,34,136,42,15,32,057,24,1*54
$GPGSV,4,3,16,195,30,179,33,12,27,133,43,10,26,323,46,25,16,171,23,1*56
$GPGSV,4,4,16,32,14,278,33,05,12,126,20,13,03,064,,28,02,221,,1*61
$GPGSV,3,1,10,196,75,072,34,24,63,034,33,23,60,345,28,199,60,167,47,8*6F
$GPGSV,3,2,10,18,52,229,46,194,34,136,44,195,30,179,35,10,26,323,40,8*63
$GPGSV,3,3,10,25,16,171,19,32,14,278,28,8*60
$GLGSV,2,1,08,73,50,152,44,80,45,058,27,70,41,026,,86,28,288,40,1*71
$GLGSV,2,2,08,85,27,235,28,71,26,325,37,69,09,085,22,79,03,026,,1*76
$GAGSV,2,1,08,13,48,222,42,07,46,314,42,08,43,035,30,26,35,297,41,7*76
$GAGSV,2,2,08,30,33,137,44,02,27,076,19,15,15,173,16,03,07,071,,7*73
$GAGSV,2,1,07,13,48,222,44,07,46,314,45,08,43,035,29,26,35,297,36,1*76
$GAGSV,2,2,07,30,33,137,45,02,27,076,28,15,15,173,21,1*4F
$GBGSV,4,1,15,08,84,348,37,38,81,154,43,13,72,323,42,39,69,296,44,1*76
$GBGSV,4,2,15,16,66,271,42,06,64,266,40,46,62,090,39,19,53,357,42,1*7F
$GBGSV,4,3,15,09,50,247,40,36,45,183,46,20,40,075,27,35,18,259,42,1*76
$GBGSV,4,4,15,22,17,308,39,37,16,042,24,29,13,205,19,1*40
$GBGSV,3,1,10,38,81,154,45,39,69,296,45,46,62,090,44,19,53,357,33,4*7A
$GBGSV,3,2,10,36,45,183,46,20,40,075,29,35,18,259,30,22,17,308,35,4*79
$GBGSV,3,3,10,37,16,042,27,29,13,205,22,4*7C
$GNACCURACY,2.2*16
$PAIRSAT,1,35,1,0,200,2,0,200,3,0,200,4,0,200,5,0,201,6,0,200,7,0,200,8,0,200,9,0,200,10,0,221,11,0,200,12,0,201,13,0,201,14,0,200,15,0,201,16,0,200,17,0,200,18,0,221,19,0,200,20,0,200,21,0,200,23,0,221,24,0,221,25,0,220,26,0,200,27,0,200,28,0,200,29,0,200,30,0,200,31,0,200,32,0,221,194,0,621,195,0,621,196,0,620,199,0,621*6A
$PAIRSAT,2,24,65,0,200,66,0,200,67,0,200,68,0,200,69,0,200,70,0,200,71,0,201,72,0,200,73,0,201,74,0,200,75,0,200,76,0,200,77,0,200,78,0,200,79,0,201,80,0,201,81,0,200,82,0,200,83,0,200,84,0,200,85,0,201,86,0,201,87,0,200,88,0,200*7A
$PAIRSAT,3,23,2,0,1221,3,0,1221,4,0,1200,5,0,200,7,0,1221,8,0,1221,9,0,1200,10,0,1200,11,0,1200,12,0,1200,13,0,1221,15,0,1221,19,0,1200,21,0,1200,24,0,1200,25,0,1200,26,0,1221,27,0,1200,30,0,1221,31,0,1200,33,0,1200,34,0,1200,36,0,1200*6A
$PAIRSAT,4,50,1,0,200,2,0,200,3,0,200,4,0,200,5,0,200,6,0,201,7,0,200,8,0,201,9,0,201,10,0,200,11,0,200,12,0,200,13,0,201,14,0,200,15,0,200,16,0,201,19,0,621,20,0,621,21,0,600,22,0,621,23,0,600,24,0,600,25,0,600,26,0,600,27,0,600,28,0,600,29,0,621,30,0,600,31,0,200,32,0,600,33,0,600,34,0,600,35,0,621,36,0,621,37,0,621,38,0,621,39,0,621,40,0,600,41,0,600,42,0,600,43,0,600,44,0,600,45,0,600,46,0,621,56,0,200,57,0,200,58,0,200,59,0,600,60,0,600,61,0,600*41
$PAIRDGP,10,5,10,12,15,18,23,24,25,28,32*45
$GNGGA,114921.200,2500.8245856,N,12132.4587894,E,4,65,0.45,16.004,M,15.25,M,1,3335*41
$GNRMC,114921.200,A,2500.8245856,N,12132.4587894,E,0.01,222.33,260623,,,R,V*1A
$GPHDT,,T*1B
$GNACCURACY,2.2*16
$GNGGA,114921.300,2500.8245877,N,12132.4587907,E,4,65,0.45,15.998,M,15.25,M,1,3335*47
$GNRMC,114921.300,A,2500.8245877,N,12132.4587907,E,0.00,222.33,260623,,,R,V*12
$GPHDT,,T*1B
$GNACCURACY,2.2*16
$GNGGA,114921.400,2500.8245858,N,12132.4587887,E,4,65,0.45,16.008,M,15.25,M,1,3335*47
$GNRMC,114921.400,A,2500.8245858,N,12132.4587887,E,0.01,222.33,260623,,,R,V*10
$GPHDT,,T*1B
$GNACCURACY,2.3*17
$GNGGA,114921.500,2500.8245864,N,12132.4587905,E,4,65,0.45,16.000,M,15.25,M,1,3335*4A
$GNRMC,114921.500,A,2500.8245864,N,12132.4587905,E,0.01,222.33,260623,,,R,V*15
$GPHDT,,T*1B
$GNACCURACY,2.3*17
$GNGGA,114921.600,2500.8245856,N,12132.4587902,E,4,64,0.45,16.009,M,15.25,M,1,3335*47
$GNRMC,114921.600,A,2500.8245856,N,12132.4587902,E,0.00,222.33,260623,,,R,V*11
$GPHDT,,T*1B
$GNACCURACY,2.3*17
$GNGGA,114921.700,2500.8245843,N,12132.4587917,E,4,64,0.45,16.011,M,15.25,M,1,3335*4F
$GNRMC,114921.700,A,2500.8245843,N,12132.4587917,E,0.00,222.33,260623,,,R,V*10
$GPHDT,,T*1B
$GNACCURACY,2.3*17
$GNGGA,114921.800,2500.8245877,N,12132.4587923,E,4,64,0.45,16.011,M,15.25,M,1,3335*40
$GNRMC,114921.800,A,2500.8245877,N,12132.4587923,E,0.01,222.33,260623,,,R,V*1E
$GPHDT,,T*1B
$GNACCURACY,2.3*17
$GNGGA,114921.900,2500.8245855,N,12132.4587894,E,4,64,0.45,16.004,M,15.25,M,1,3335*48
$GNRMC,114921.900,A,2500.8245855,N,12132.4587894,E,0.01,222.33,260623,,,R,V*12
$GPHDT,,T*1B
$GNACCURACY,2.3*17
$GNGGA,114922.000,2500.8245853,N,12132.4587918,E,4,65,0.45,16.013,M,15.25,M,2,3335*45
$GNRMC,114922.000,A,2500.8245853,N,12132.4587918,E,0.02,222.33,260623,,,R,V*18
$GPHDT,,T*1B
$GNACCURACY,2.3*17
$GNGGA,114922.100,2500.8245870,N,12132.4587921,E,4,65,0.45,16.008,M,15.25,M,2,3335*45
$GNRMC,114922.100,A,2500.8245870,N,12132.4587921,E,0.02,222.33,260623,,,R,V*12
$GPHDT,,T*1B
$GNGSA,A,3,196,24,199,23,18,194,15,195,12,10,25,32,0.72,0.45,0.56,1*06
$GNGSA,A,3,73,80,86,85,71,,,,,,,,0.72,0.45,0.56,2*0C
$GNGSA,A,3,13,07,08,26,30,02,15,,,,,,0.72,0.45,0.56,3*08
$GNGSA,A,3,08,38,13,39,16,06,46,19,09,36,20,35,0.72,0.45,0.56,4*0B
$GNGSA,A,3,22,37,29,,,,,,,,,,0.72,0.45,0.56,4*0C
$GPGSV,4,1,16,196,75,072,29,24,63,034,39,199,60,167,36,23,60,345,25,1*6A
$GPGSV,4,2,16,18,52,229,45,41,38,242,41,194,34,136,39,15,32,057,24,1*58
$GPGSV,4,3,16,195,30,179,34,12,27,133,37,10,26,323,46,25,16,171,22,1*53
$GPGSV,4,4,16,32,14,278,30,05,12,126,19,13,03,064,,28,02,221,,1*68
$GPGSV,3,1,10,196,75,072,34,24,63,034,33,23,60,345,31,199,60,167,47,8*67
$GPGSV,3,2,10,18,52,229,46,194,34,136,41,195,30,179,36,10,26,323,41,8*64
$GPGSV,3,3,10,25,16,171,21,32,14,278,29,8*6A
$GLGSV,3,1,09,73,50,152,45,80,45,058,29,70,41,026,,86,28,288,40,1*7E
$GLGSV,3,2,09,85,27,235,28,71,26,325,37,74,13,185,,69,09,085,23,1*73
$GLGSV,3,3,09,79,03,026,15,1*4C
$GAGSV,3,1,09,13,48,222,42,07,46,314,42,08,43,035,30,26,35,297,41,7*76
$GAGSV,3,2,09,30,33,137,41,02,27,076,19,15,15,173,17,27,07,184,,7*7A
$GAGSV,3,3,09,03,07,071,,7*48
$GAGSV,2,1,07,13,48,222,44,07,46,314,45,08,43,035,29,26,35,297,37,1*77
$GAGSV,2,2,07,30,33,137,42,02,27,076,27,15,15,173,22,1*44
$GBGSV,4,1,15,08,84,348,37,38,81,154,43,13,72,323,42,39,69,296,44,1*76
$GBGSV,4,2,15,16,66,271,42,06,64,266,40,46,62,090,38,19,53,357,42,1*7E
$GBGSV,4,3,15,09,50,247,40,36,45,183,45,20,40,075,29,35,18,259,42,1*7B
$GBGSV,4,4,15,22,17,308,39,37,16,042,22,29,13,205,19,1*46
$GBGSV,3,1,10,38,81,154,45,39,69,296,45,46,62,090,44,19,53,357,34,4*7D
$GBGSV,3,2,10,36,45,183,46,20,40,075,28,35,18,259,29,22,17,308,35,4*70
$GBGSV,3,3,10,37,16,042,25,29,13,205,20,4*7C
$GNACCURACY,2.3*17
$PAIRSAT,1,35,1,0,200,2,0,200,3,0,200,4,0,200,5,0,201,6,0,200,7,0,200,8,0,200,9,0,200,10,0,221,11,0,200,12,0,201,13,0,201,14,0,200,15,0,201,16,0,200,17,0,200,18,0,221,19,0,200,20,0,200,21,0,200,23,0,221,24,0,221,25,0,220,26,0,200,27,0,200,28,0,200,29,0,200,30,0,200,31,0,200,32,0,221,194,0,621,195,0,621,196,0,620,199,0,621*6A
$PAIRSAT,2,24,65,0,200,66,0,200,67,0,200,68,0,200,69,0,200,70,0,200,71,0,201,72,0,200,73,0,201,74,0,200,75,0,200,76,0,200,77,0,200,78,0,200,79,0,201,80,0,201,81,0,200,82,0,200,83,0,200,84,0,200,85,0,201,86,0,201,87,0,200,88,0,200*7A
$PAIRSAT,3,23,2,0,1221,3,0,1221,4,0,1200,5,0,200,7,0,1221,8,0,1221,9,0,1200,10,0,1200,11,0,1200,12,0,1200,13,0,1221,15,0,1221,19,0,1200,21,0,1200,24,0,1200,25,0,1200,26,0,1221,27,0,1200,30,0,1221,31,0,1200,33,0,1200,34,0,1200,36,0,1200*6A
$PAIRSAT,4,50,1,0,200,2,0,200,3,0,200,4,0,200,5,0,200,6,0,201,7,0,200,8,0,201,9,0,201,10,0,200,11,0,200,12,0,200,13,0,201,14,0,200,15,0,200,16,0,201,19,0,621,20,0,621,21,0,600,22,0,621,23,0,600,24,0,600,25,0,600,26,0,600,27,0,600,28,0,600,29,0,621,30,0,600,31,0,200,32,0,600,33,0,600,34,0,600,35,0,621,36,0,621,37,0,621,38,0,621,39,0,621,40,0,600,41,0,600,42,0,600,43,0,600,44,0,600,45,0,600,46,0,621,56,0,200,57,0,200,58,0,200,59,0,600,60,0,600,61,0,600*41
$PAIRDGP,10,5,10,12,15,18,23,24,25,28,32*45
$GNGGA,114922.200,2500.8245881,N,12132.4587875,E,4,65,0.45,16.023,M,15.25,M,2,3335*41
$GNRMC,114922.200,A,2500.8245881,N,12132.4587875,E,0.00,222.33,260623,,,R,V*1D
$GPHDT,,T*1B
$GNACCURACY,2.3*17
$GNGGA,114922.300,2500.8245877,N,12132.4587830,E,4,64,0.45,16.042,M,15.25,M,2,3335*4E
$GNRMC,114922.300,A,2500.8245877,N,12132.4587830,E,0.00,222.33,260623,,,R,V*14
$GPHDT,,T*1B
$GNACCURACY,2.2*16
$GNGGA,114922.400,2500.8245878,N,12132.4587800,E,4,65,0.45,16.047,M,15.25,M,2,3335*41
$GNRMC,114922.400,A,2500.8245878,N,12132.4587800,E,0.01,222.33,260623,,,R,V*1E
$GPHDT,,T*1B
$GNACCURACY,2.3*17
$GNGGA,114922.500,2500.8245861,N,12132.4587797,E,4,64,0.45,16.053,M,15.25,M,2,3335*4D
$GNRMC,114922.500,A,2500.8245861,N,12132.4587797,E,0.01,222.33,260623,,,R,V*16
$GPHDT,,T*1B
$GNACCURACY,2.3*17
$GNGGA,114922.600,2500.8245874,N,12132.4587780,E,4,65,0.45,16.047,M,15.25,M,2,3335*48
$GNRMC,114922.600,A,2500.8245874,N,12132.4587780,E,0.01,222.33,260623,,,R,V*17
$GPHDT,,T*1B
$GNACCURACY,2.3*17
$GNGGA,114922.700,2500.8245881,N,12132.4587803,E,4,65,0.45,16.041,M,15.25,M,2,3335*41
$GNRMC,114922.700,A,2500.8245881,N,12132.4587803,E,0.00,222.33,260623,,,R,V*19
$GPHDT,,T*1B
$GNACCURACY,2.3*17
$GNGGA,114922.800,2500.8245863,N,12132.4587791,E,4,65,0.45,16.038,M,15.25,M,2,3335*48
$GNRMC,114922.800,A,2500.8245863,N,12132.4587791,E,0.01,222.33,260623,,,R,V*1F
$GPHDT,,T*1B
$GNACCURACY,2.3*17
$GNGGA,114922.900,2500.8245854,N,12132.4587773,E,4,65,0.45,16.036,M,15.25,M,2,3335*4F
$GNRMC,114922.900,A,2500.8245854,N,12132.4587773,E,0.02,222.33,260623,,,R,V*15
$GPHDT,,T*1B
$GNACCURACY,2.3*17
$GNGGA,114923.000,2500.8245898,N,12132.4587806,E,4,65,0.45,16.045,M,15.25,M,1,3335*4D
$GNRMC,114923.000,A,2500.8245898,N,12132.4587806,E,0.02,222.33,260623,,,R,V*10
$GPHDT,,T*1B
$GNACCURACY,2.3*17
$GNGGA,114923.100,2500.8245871,N,12132.4587799,E,4,65,0.45,16.035,M,15.25,M,1,3335*45
$GNRMC,114923.100,A,2500.8245871,N,12132.4587799,E,0.01,222.33,260623,,,R,V*1C
$GPHDT,,T*1B
$GNGSA,A,3,196,24,199,23,18,194,195,12,10,25,32,,0.73,0.45,0.57,1*02
$GNGSA,A,3,73,80,86,85,71,,,,,,,,0.73,0.45,0.57,2*0C
$GNGSA,A,3,13,07,08,26,30,02,15,,,,,,0.73,0.45,0.57,3*08
$GNGSA,A,3,08,38,13,39,16,06,46,19,09,36,20,35,0.73,0.45,0.57,4*0B
$GNGSA,A,3,22,37,29,,,,,,,,,,0.73,0.45,0.57,4*0C
$GPGSV,4,1,16,196,75,072,29,24,63,034,39,199,60,167,35,23,60,345,27,1*6B
$GPGSV,4,2,16,18,52,229,45,41,38,242,41,194,34,136,31,15,32,057,23,1*57
$GPGSV,4,3,16,195,30,179,36,12,27,133,38,10,26,323,46,25,16,171,21,1*5D
$GPGSV,4,4,16,32,14,278,32,05,12,126,17,13,03,064,,28,02,221,,1*64
$GPGSV,3,1,10,196,75,072,34,24,63,034,33,23,60,345,28,199,60,167,46,8*6E
$GPGSV,3,2,10,18,52,229,45,194,34,136,39,195,30,179,36,10,26,323,41,8*68
$GPGSV,3,3,10,25,16,171,20,32,14,278,29,8*6B
$GLGSV,2,1,07,73,50,152,43,80,45,058,30,86,28,288,40,85,27,235,25,1*72
$GLGSV,2,2,07,71,26,325,35,69,09,085,21,79,03,026,16,1*49
$GAGSV,3,1,09,13,48,222,42,07,46,314,42,08,43,035,29,26,35,297,41,7*7E
$GAGSV,3,2,09,30,33,137,38,02,27,076,20,15,15,173,16,27,07,184,,7*7F
$GAGSV,3,3,09,03,07,071,,7*48
$GAGSV,2,1,07,13,48,222,44,07,46,314,45,08,43,035,28,26,35,297,35,1*74
$GAGSV,2,2,07,30,33,137,42,02,27,076,26,15,15,173,21,1*46
$GBGSV,4,1,15,08,84,348,38,38,81,154,43,13,72,323,42,39,69,296,43,1*7E
$GBGSV,4,2,15,16,66,271,42,06,64,266,41,46,62,090,38,19,53,357,42,1*7F
$GBGSV,4,3,15,09,50,247,40,36,45,183,45,20,40,075,28,35,18,259,40,1*78
$GBGSV,4,4,15,22,17,308,39,37,16,042,24,29,13,205,20,1*4A
$GBGSV,3,1,10,38,81,154,45,39,69,296,45,46,62,090,44,19,53,357,32,4*7B
$GBGSV,3,2,10,36,45,183,47,20,40,075,26,35,18,259,29,22,17,308,34,4*7E
$GBGSV,3,3,10,37,16,042,25,29,13,205,21,4*7D
$GNACCURACY,2.3*17
$PAIRSAT,1,35,1,0,200,2,0,200,3,0,200,4,0,200,5,0,201,6,0,200,7,0,200,8,0,200,9,0,200,10,0,221,11,0,200,12,0,201,13,0,201,14,0,200,15,0,201,16,0,200,17,0,200,18,0,221,19,0,200,20,0,200,21,0,200,23,0,221,24,0,221,25,0,220,26,0,200,27,0,200,28,0,200,29,0,200,30,0,200,31,0,200,32,0,221,194,0,621,195,0,621,196,0,620,199,0,621*6A
$PAIRSAT,2,24,65,0,200,66,0,200,67,0,200,68,0,200,69,0,200,70,0,200,71,0,201,72,0,200,73,0,201,74,0,200,75,0,200,76,0,200,77,0,200,78,0,200,79,0,201,80,0,201,81,0,200,82,0,200,83,0,200,84,0,200,85,0,201,86,0,201,87,0,200,88,0,200*7A
$PAIRSAT,3,23,2,0,1221,3,0,1221,4,0,1200,5,0,200,7,0,1221,8,0,1221,9,0,1200,10,0,1200,11,0,1200,12,0,1200,13,0,1221,15,0,1221,19,0,1200,21,0,1200,24,0,1200,25,0,1200,26,0,1221,27,0,1200,30,0,1221,31,0,1200,33,0,1200,34,0,1200,36,0,1200*6A
$PAIRSAT,4,50,1,0,200,2,0,200,3,0,200,4,0,200,5,0,200,6,0,201,7,0,200,8,0,201,9,0,201,10,0,200,11,0,200,12,0,200,13,0,201,14,0,200,15,0,200,16,0,201,19,0,621,20,0,621,21,0,600,22,0,621,23,0,600,24,0,600,25,0,600,26,0,600,27,0,600,28,0,600,29,0,621,30,0,600,31,0,200,32,0,600,33,0,600,34,0,600,35,0,621,36,0,621,37,0,621,38,0,621,39,0,621,40,0,600,41,0,600,42,0,600,43,0,600,44,0,600,45,0,600,46,0,621,56,0,200,57,0,200,58,0,200,59,0,600,60,0,600,61,0,600*41
$PAIRDGP,10,5,10,12,15,18,23,24,25,28,32*45
$GNGGA,114923.200,2500.8245873,N,12132.4587831,E,4,65,0.45,16.027,M,15.25,M,1,3335*4A
$GNRMC,114923.200,A,2500.8245873,N,12132.4587831,E,0.02,222.33,260623,,,R,V*13
$GPHDT,,T*1B
$GNACCURACY,2.2*16
$GNGGA,114923.300,2500.8245866,N,12132.4587857,E,4,65,0.45,16.010,M,15.25,M,1,3335*4B
$GNRMC,114923.300,A,2500.8245866,N,12132.4587857,E,0.04,222.33,260623,,,R,V*10
$GPHDT,,T*1B
$GNACCURACY,2.2*16
$GNGGA,114923.400,2500.8245859,N,12132.4587857,E,4,64,0.45,16.013,M,15.25,M,1,3335*42
$GNRMC,114923.400,A,2500.8245859,N,12132.4587857,E,0.03,222.33,260623,,,R,V*1C
$GPHDT,,T*1B
$GNACCURACY,2.2*16
$GNGGA,114923.500,2500.8245833,N,12132.4587824,E,4,64,0.45,16.022,M,15.25,M,1,3335*49
$GNRMC,114923.500,A,2500.8245833,N,12132.4587824,E,0.02,222.33,260623,,,R,V*14
$GPHDT,,T*1B
$GNACCURACY,2.2*16
$GNGGA,114923.600,2500.8245850,N,12132.4587822,E,4,64,0.45,16.028,M,15.25,M,1,3335*43
$GNRMC,114923.600,A,2500.8245850,N,12132.4587822,E,0.01,222.33,260623,,,R,V*17
$GPHDT,,T*1B
$GNACCURACY,2.2*16
$GNGGA,114923.700,2500.8245863,N,12132.4587826,E,4,64,0.45,16.019,M,15.25,M,1,3335*44
$GNRMC,114923.700,A,2500.8245863,N,12132.4587826,E,0.02,222.33,260623,,,R,V*11
$GPHDT,,T*1B
$GNACCURACY,2.2*16
$GNGGA,114923.800,2500.8245880,N,12132.4587846,E,4,65,0.45,16.015,M,15.25,M,1,3335*4D
$GNRMC,114923.800,A,2500.8245880,N,12132.4587846,E,0.03,222.33,260623,,,R,V*14
$GPHDT,,T*1B
$GNACCURACY,2.2*16
$GNGGA,114923.900,2500.8245877,N,12132.4587786,E,4,65,0.45,16.033,M,15.25,M,1,3335*43
$GNRMC,114923.900,A,2500.8245877,N,12132.4587786,E,0.04,222.33,260623,,,R,V*19
$GPHDT,,T*1B
$GNACCURACY,2.2*16
$GNGGA,114924.000,2500.8245891,N,12132.4587782,E,4,66,0.45,16.038,M,15.25,M,2,3335*4A
$GNRMC,114924.000,A,2500.8245891,N,12132.4587782,E,0.03,222.33,260623,,,R,V*1C
$GPHDT,,T*1B
$GNACCURACY,2.2*16
$GNGGA,114924.100,2500.8245888,N,12132.4587781,E,4,66,0.45,16.041,M,15.25,M,2,3335*4E
$GNRMC,114924.100,A,2500.8245888,N,12132.4587781,E,0.03,222.33,260623,,,R,V*16
$GPHDT,,T*1B
$GNGSA,A,3,196,24,199,23,18,194,15,195,12,10,25,32,0.72,0.45,0.56,1*06
$GNGSA,A,3,73,80,86,85,71,,,,,,,,0.72,0.45,0.56,2*0C
$GNGSA,A,3,13,07,08,26,30,02,15,,,,,,0.72,0.45,0.56,3*08
$GNGSA,A,3,08,38,13,39,16,06,46,19,09,36,20,35,0.72,0.45,0.56,4*0B
$GNGSA,A,3,22,37,29,,,,,,,,,,0.72,0.45,0.56,4*0C
$GPGSV,4,1,16,196,75,072,27,24,63,034,39,199,60,167,33,23,60,345,26,1*62
$GPGSV,4,2,16,18,52,229,45,41,38,242,41,194,34,136,43,15,32,057,26,1*57
$GPGSV,4,3,16,195,30,179,33,12,27,133,41,10,26,323,46,25,16,171,18,1*5C
$GPGSV,4,4,16,32,14,278,30,05,12,126,20,13,03,064,,28,02,221,,1*62
$GPGSV,3,1,10,196,75,072,31,24,63,034,33,23,60,345,30,199,60,167,45,8*61
$GPGSV,3,2,10,18,52,229,45,194,34,136,46,195,30,179,33,10,26,323,42,8*66
$GPGSV,3,3,10,25,16,171,18,32,14,278,31,8*69
$GLGSV,2,1,07,73,50,152,42,80,45,058,32,86,28,288,40,85,27,235,27,1*73
$GLGSV,2,2,07,71,26,325,36,69,09,085,22,79,03,026,14,1*4B
$GAGSV,3,1,09,13,48,222,42,07,46,314,42,08,43,035,30,26,35,297,41,7*76
$GAGSV,3,2,09,30,33,137,44,02,27,076,23,15,15,173,15,27,07,184,,7*74
$GAGSV,3,3,09,03,07,071,,7*48
$GAGSV,2,1,07,13,48,222,45,07,46,314,45,08,43,035,30,26,35,297,36,1*7F
$GAGSV,2,2,07,30,33,137,47,02,27,076,28,15,15,173,23,1*4F
$GBGSV,4,1,15,08,84,348,38,38,81,154,44,13,72,323,42,39,69,296,43,1*79
$GBGSV,4,2,15,16,66,271,42,06,64,266,41,46,62,090,36,19,53,357,42,1*71
$GBGSV,4,3,15,09,50,247,40,36,45,183,38,20,40,075,28,35,18,259,40,1*72
$GBGSV,4,4,15,22,17,308,39,37,16,042,21,29,13,205,19,1*45
$GBGSV,3,1,10,38,81,154,46,39,69,296,45,46,62,090,44,19,53,357,33,4*79
$GBGSV,3,2,10,36,45,183,42,20,40,075,26,35,18,259,28,22,17,308,35,4*7B
$GBGSV,3,3,10,37,16,042,25,29,13,205,23,4*7F
$GNACCURACY,2.2*16
$PAIRSAT,1,35,1,0,200,2,0,200,3,0,200,4,0,200,5,0,201,6,0,200,7,0,200,8,0,200,9,0,200,10,0,221,11,0,200,12,0,201,13,0,201,14,0,200,15,0,201,16,0,200,17,0,200,18,0,221,19,0,200,20,0,200,21,0,200,23,0,221,24,0,221,25,0,220,26,0,200,27,0,200,28,0,200,29,0,200,30,0,200,31,0,200,32,0,221,194,0,621,195,0,621,196,0,620,199,0,621*6A
$PAIRSAT,2,24,65,0,200,66,0,200,67,0,200,68,0,200,69,0,200,70,0,200,71,0,201,72,0,200,73,0,201,74,0,200,75,0,200,76,0,200,77,0,200,78,0,200,79,0,201,80,0,201,81,0,200,82,0,200,83,0,200,84,0,200,85,0,201,86,0,201,87,0,200,88,0,200*7A
$PAIRSAT,3,23,2,0,1221,3,0,1221,4,0,1200,5,0,200,7,0,1221,8,0,1221,9,0,1200,10,0,1200,11,0,1200,12,0,1200,13,0,1221,15,0,1221,19,0,1200,21,0,1200,24,0,1200,25,0,1200,26,0,1221,27,0,1200,30,0,1221,31,0,1200,33,0,1200,34,0,1200,36,0,1200*6A
$PAIRSAT,4,50,1,0,200,2,0,200,3,0,200,4,0,200,5,0,200,6,0,201,7,0,200,8,0,201,9,0,201,10,0,200,11,0,200,12,0,200,13,0,201,14,0,200,15,0,200,16,0,201,19,0,621,20,0,621,21,0,600,22,0,621,23,0,600,24,0,600,25,0,600,26,0,600,27,0,600,28,0,600,29,0,621,30,0,600,31,0,200,32,0,600,33,0,600,34,0,600,35,0,621,36,0,621,37,0,621,38,0,621,39,0,621,40,0,600,41,0,600,42,0,600,43,0,600,44,0,600,45,0,600,46,0,621,56,0,200,57,0,200,58,0,200,59,0,600,60,0,600,61,0,600*41
$PAIRDGP,10,5,10,12,15,18,23,24,25,28,32*45
$GNGGA,114924.200,2500.8245885,N,12132.4587787,E,4,66,0.45,16.038,M,15.25,M,2,3335*48
$GNRMC,114924.200,A,2500.8245885,N,12132.4587787,E,0.03,222.33,260623,,,R,V*1E
$GPHDT,,T*1B
$GNACCURACY,2.2*16
$GNGGA,114924.300,2500.8245853,N,12132.4587825,E,4,66,0.45,16.003,M,15.25,M,2,3335*4D
$GNRMC,114924.300,A,2500.8245853,N,12132.4587825,E,0.00,222.33,260623,,,R,V*10
$GPHDT,,T*1B
$GNACCURACY,2.2*16
$GNGGA,114924.400,2500.8245809,N,12132.4587844,E,4,65,0.45,15.999,M,15.25,M,2,3335*48
$GNRMC,114924.400,A,2500.8245809,N,12132.4587844,E,0.01,222.33,260623,,,R,V*1E
$GPHDT,,T*1B
$GNACCURACY,2.2*16
$GNGGA,114924.500,2500.8245820,N,12132.4587823,E,4,66,0.45,16.007,M,15.25,M,2,3335*4D
$GNRMC,114924.500,A,2500.8245820,N,12132.4587823,E,0.00,222.33,260623,,,R,V*14
$GPHDT,,T*1B
$GNACCURACY,2.2*16
$GNGGA,114924.600,2500.8245805,N,12132.4587846,E,4,66,0.45,15.998,M,15.25,M,1,3335*45
$GNRMC,114924.600,A,2500.8245805,N,12132.4587846,E,0.00,222.33,260623,,,R,V*13
$GPHDT,,T*1B
$GNACCURACY,2.2*16
$GNGGA,114924.700,2500.8245876,N,12132.4587844,E,4,66,0.45,16.045,M,15.25,M,1,3335*48
$GNRMC,114924.700,A,2500.8245876,N,12132.4587844,E,0.00,222.33,260623,,,R,V*14
$GPHDT,,T*1B
$GNACCURACY,2.2*16
$GNGGA,114924.800,2500.8245929,N,12132.4587920,E,4,65,0.45,16.047,M,15.25,M,0,3335*4F
$GNRMC,114924.800,A,2500.8245929,N,12132.4587920,E,0.01,222.33,260623,,,R,V*12
$GPHDT,,T*1B
$GNACCURACY,2.2*16
$GNGGA,114924.900,2500.8245921,N,12132.4587921,E,4,65,0.45,16.044,M,15.25,M,0,3335*44
$GNRMC,114924.900,A,2500.8245921,N,12132.4587921,E,0.00,222.33,260623,,,R,V*1B
$GPHDT,,T*1B
$GNACCURACY,2.2*16
$GNGGA,114925.000,2500.8245928,N,12132.4587913,E,4,65,0.45,16.044,M,15.25,M,1,3335*45
$GNRMC,114925.000,A,2500.8245928,N,12132.4587913,E,0.00,222.33,260623,,,R,V*1B
$GPHDT,,T*1B
$GNACCURACY,2.2*16
$GNGGA,114925.100,2500.8245898,N,12132.4587905,E,4,66,0.45,16.020,M,15.25,M,1,3335*48
$GNRMC,114925.100,A,2500.8245898,N,12132.4587905,E,0.00,222.33,260623,,,R,V*17
$GPHDT,,T*1B
$GNGSA,A,3,196,24,199,23,18,194,15,195,12,10,25,32,0.81,0.45,0.68,1*07
$GNGSA,A,3,73,80,86,85,71,,,,,,,,0.81,0.45,0.68,2*0D
$GNGSA,A,3,13,07,08,26,30,02,15,,,,,,0.81,0.45,0.68,3*09
$GNGSA,A,3,08,38,13,39,16,06,46,19,09,36,20,35,0.81,0.45,0.68,4*0A
$GNGSA,A,3,22,37,29,,,,,,,,,,0.81,0.45,0.68,4*0D
$GPGSV,4,1,16,196,75,072,27,24,63,034,39,199,60,167,35,23,60,346,28,1*69
$GPGSV,4,2,16,18,52,229,45,41,38,242,42,194,34,136,41,15,32,057,29,1*59
$GPGSV,4,3,16,195,30,179,28,12,27,133,42,10,26,323,46,25,16,171,19,1*54
$GPGSV,4,4,16,32,14,278,33,05,12,126,20,13,03,064,,28,02,221,,1*61
$GPGSV,3,1,10,196,75,072,33,24,63,034,34,23,60,346,29,199,60,167,45,8*6F
$GPGSV,3,2,10,18,52,229,47,194,34,136,46,195,30,179,32,10,26,323,42,8*65
$GPGSV,3,3,10,25,16,171,17,32,14,278,32,8*65
$GLGSV,2,1,07,73,50,152,46,80,45,058,32,86,28,288,40,85,27,235,29,1*79
$GLGSV,2,2,07,71,26,325,35,69,09,085,22,79,03,026,13,1*4F
$GAGSV,3,1,09,13,48,222,43,07,46,314,42,08,43,035,30,26,35,297,41,7*77
$GAGSV,3,2,09,30,33,137,44,02,27,076,23,15,15,173,16,27,07,184,,7*77
$GAGSV,3,3,09,03,07,071,,7*48
$GAGSV,2,1,07,13,48,222,44,07,46,314,46,08,43,035,30,26,35,297,36,1*7D
$GAGSV,2,2,07,30,33,137,47,02,27,076,28,15,15,173,20,1*4C
$GBGSV,4,1,15,08,84,348,37,38,81,154,44,13,72,323,42,39,69,296,43,1*76
$GBGSV,4,2,15,16,66,271,42,06,64,266,41,46,62,090,38,19,53,357,42,1*7F
$GBGSV,4,3,15,09,50,247,40,36,45,183,35,20,40,075,30,35,18,259,40,1*76
$GBGSV,4,4,15,22,17,308,39,37,16,042,18,29,13,205,19,1*4F
$GBGSV,3,1,10,38,81,154,46,39,69,296,46,46,62,090,44,19,53,357,34,4*7D
$GBGSV,3,2,10,36,45,183,43,20,40,075,25,35,18,259,30,22,17,308,36,4*73
$GBGSV,3,3,10,37,16,042,26,29,13,205,22,4*7D
$GNACCURACY,2.2*16
$PAIRSAT,1,35,1,0,200,2,0,200,3,0,200,4,0,200,5,0,201,6,0,200,7,0,200,8,0,200,9,0,200,10,0,221,11,0,200,12,0,201,13,0,201,14,0,200,15,0,201,16,0,200,17,0,200,18,0,221,19,0,200,20,0,200,21,0,200,23,0,221,24,0,221,25,0,220,26,0,200,27,0,200,28,0,200,29,0,200,30,0,200,31,0,200,32,0,221,194,0,621,195,0,621,196,0,620,199,0,621*6A
$PAIRSAT,2,24,65,0,200,66,0,200,67,0,200,68,0,200,69,0,200,70,0,200,71,0,201,72,0,200,73,0,201,74,0,200,75,0,200,76,0,200,77,0,200,78,0,200,79,0,201,80,0,201,81,0,200,82,0,200,83,0,200,84,0,200,85,0,201,86,0,201,87,0,200,88,0,200*7A
$PAIRSAT,3,23,2,0,1221,3,0,1221,4,0,1200,5,0,200,7,0,1221,8,0,1221,9,0,1200,10,0,1200,11,0,1200,12,0,1200,13,0,1221,15,0,1221,19,0,1200,21,0,1200,24,0,1200,25,0,1200,26,0,1221,27,0,1200,30,0,1221,31,0,1200,33,0,1200,34,0,1200,36,0,1200*6A
$PAIRSAT,4,50,1,0,200,2,0,200,3,0,200,4,0,200,5,0,200,6,0,201,7,0,200,8,0,201,9,0,201,10,0,200,11,0,200,12,0,200,13,0,201,14,0,200,15,0,200,16,0,201,19,0,621,20,0,621,21,0,600,22,0,621,23,0,600,24,0,600,25,0,600,26,0,600,27,0,600,28,0,600,29,0,621,30,0,600,31,0,200,32,0,600,33,0,600,34,0,600,35,0,621,36,0,621,37,0,621,38,0,621,39,0,621,40,0,600,41,0,600,42,0,600,43,0,600,44,0,600,45,0,600,46,0,621,56,0,200,57,0,200,58,0,200,59,0,600,60,0,600,61,0,600*41
$PAIRDGP,10,5,10,12,15,18,23,24,25,28,32*45
$GNGGA,114925.200,2500.8245836,N,12132.4587876,E,4,66,0.45,16.018,M,15.25,M,1,3335*41
$GNRMC,114925.200,A,2500.8245836,N,12132.4587876,E,0.00,222.33,260623,,,R,V*15
$GPHDT,46.932,T*0F
$GNACCURACY,2.2*16
$GNGGA,114925.300,2500.8245846,N,12132.4587887,E,4,66,0.45,16.012,M,15.25,M,1,3335*43
$GNRMC,114925.300,A,2500.8245846,N,12132.4587887,E,0.00,222.33,260623,,,R,V*1D
$GPHDT,,T*1B
$GNACCURACY,2.2*16
$GNGGA,114925.400,2500.8245737,N,12132.4587846,E,4,66,0.45,15.988,M,15.25,M,1,3335*49
$GNRMC,114925.400,A,2500.8245737,N,12132.4587846,E,0.00,222.33,260623,,,R,V*1E
$GPHDT,47.744,T*01
$GNACCURACY,2.2*16
$GNGGA,114925.500,2500.8245726,N,12132.4587865,E,4,66,0.45,15.985,M,15.25,M,1,3335*44
$GNRMC,114925.500,A,2500.8245726,N,12132.4587865,E,0.00,222.33,260623,,,R,V*1E
$GPHDT,,T*1B
$GNACCURACY,2.2*16
$GNGGA,114925.600,2500.8245721,N,12132.4587858,E,4,66,0.45,16.002,M,15.25,M,1,3335*4B
$GNRMC,114925.600,A,2500.8245721,N,12132.4587858,E,0.00,222.33,260623,,,R,V*14
$GPHDT,47.747,T*02
$GNACCURACY,2.3*17
$GNGGA,114925.700,2500.8245733,N,12132.4587869,E,4,66,0.45,15.998,M,15.25,M,1,3335*42
$GNRMC,114925.700,A,2500.8245733,N,12132.4587869,E,0.00,222.33,260623,,,R,V*14
$GPHDT,,T*1B
$GNACCURACY,2.2*16
$GNGGA,114925.800,2500.8245766,N,12132.4587887,E,4,66,0.45,16.004,M,15.25,M,1,3335*42
$GNRMC,114925.800,A,2500.8245766,N,12132.4587887,E,0.00,222.33,260623,,,R,V*1B
$GPHDT,47.730,T*02
$GNACCURACY,2.2*16
$GNGGA,114925.900,2500.8245750,N,12132.4587894,E,4,66,0.45,15.993,M,15.25,M,1,3335*40
$GNRMC,114925.900,A,2500.8245750,N,12132.4587894,E,0.00,222.33,260623,,,R,V*1D
$GPHDT,,T*1B
$GNACCURACY,2.2*16
$GNGGA,114926.000,2500.8245742,N,12132.4587916,E,4,66,0.45,15.994,M,15.25,M,2,3335*46
$GNRMC,114926.000,A,2500.8245742,N,12132.4587916,E,0.01,222.33,260623,,,R,V*1E
$GPHDT,46.727,T*05
$GNACCURACY,2.2*16
$GNGGA,114926.100,2500.8245725,N,12132.4587929,E,4,66,0.45,15.987,M,15.25,M,2,3335*48
$GNRMC,114926.100,A,2500.8245725,N,12132.4587929,E,0.00,222.33,260623,,,R,V*13
$GPHDT,,T*1B
$GNGSA,A,3,196,24,23,199,18,194,15,195,12,10,25,32,0.81,0.45,0.68,1*07
$GNGSA,A,3,73,80,86,85,71,,,,,,,,0.81,0.45,0.68,2*0D
$GNGSA,A,3,13,07,08,26,30,02,15,,,,,,0.81,0.45,0.68,3*09
$GNGSA,A,3,08,38,13,39,16,06,46,19,09,36,20,35,0.81,0.45,0.68,4*0A
$GNGSA,A,3,22,37,29,,,,,,,,,,0.81,0.45,0.68,4*0D
$GPGSV,4,1,16,196,76,072,27,24,63,034,39,23,60,346,27,199,60,167,32,1*62
$GPGSV,4,2,16,18,52,229,45,41,38,242,42,194,35,136,42,15,32,057,28,1*5A
$GPGSV,4,3,16,195,30,179,29,12,27,133,42,10,26,323,46,25,16,171,19,1*55
$GPGSV,4,4,16,32,14,278,32,05,12,126,20,13,03,064,,28,02,221,,1*60
$GPGSV,3,1,10,196,76,072,33,24,63,034,34,23,60,346,29,199,60,167,44,8*6D
$GPGSV,3,2,10,18,52,229,47,194,35,136,44,195,30,179,31,10,26,323,42,8*65
$GPGSV,3,3,10,25,16,171,15,32,14,278,28,8*6C
$GLGSV,2,1,07,73,50,152,41,80,45,058,32,86,28,288,41,85,27,235,30,1*77
$GLGSV,2,2,07,71,26,325,36,69,09,085,22,79,03,026,14,1*4B
$GAGSV,3,1,09,13,48,222,43,07,46,314,42,08,43,035,29,26,35,297,41,7*7F
$GAGSV,3,2,09,30,33,137,43,02,27,076,24,15,15,173,17,27,07,184,,7*76
$GAGSV,3,3,09,03,07,071,,7*48
$GAGSV,2,1,07,13,48,222,45,07,46,314,46,08,43,035,30,26,35,297,36,1*7C
$GAGSV,2,2,07,30,33,137,45,02,27,076,28,15,15,173,20,1*4E
$GBGSV,4,1,15,08,84,348,37,38,81,154,44,13,72,323,42,39,69,296,43,1*76
$GBGSV,4,2,15,16,66,271,42,06,64,266,41,46,62,090,38,19,53,357,42,1*7F
$GBGSV,4,3,15,09,50,247,40,36,45,183,39,20,40,075,31,35,18,259,40,1*7B
$GBGSV,4,4,15,22,17,308,39,37,16,042,17,29,13,205,21,1*4B
$GBGSV,3,1,10,38,81,154,46,39,69,296,46,46,62,090,43,19,53,357,34,4*7A
$GBGSV,3,2,10,36,45,183,40,20,40,075,26,35,18,259,33,22,17,308,36,4*70
$GBGSV,3,3,10,37,16,042,26,29,13,205,22,4*7D
$GNACCURACY,2.2*16
$PAIRSAT,1,35,1,0,200,2,0,200,3,0,200,4,0,200,5,0,201,6,0,200,7,0,200,8,0,200,9,0,200,10,0,221,11,0,200,12,0,201,13,0,201,14,0,200,15,0,201,16,0,200,17,0,200,18,0,221,19,0,200,20,0,200,21,0,200,23,0,221,24,0,221,25,0,220,26,0,200,27,0,200,28,0,200,29,0,200,30,0,200,31,0,200,32,0,221,194,0,621,195,0,621,196,0,620,199,0,621*6A
$PAIRSAT,2,24,65,0,200,66,0,200,67,0,200,68,0,200,69,0,200,70,0,200,71,0,201,72,0,200,73,0,201,74,0,200,75,0,200,76,0,200,77,0,200,78,0,200,79,0,201,80,0,201,81,0,200,82,0,200,83,0,