$FW : RTK35X,V1.1X0314AS,Lib20210517,1*54
$Tool : LOCOSYS , GNSS Firebird , v1.0.0.19*39
$---------------------------------------------------*2D
43,0,600,44,0,600,45,0,600,46,0,621,56,0,200,57,0,200,58,0,200,59,0,600,60,0,600,61,0,600*41
$PAIRDGP,10,5,10,12,15,18,23,24,25,28,32*45
$GNGGA,114937.200,2500.8245894,N,12132.4587567,E,4,62,0.47,16.076,M,15.25,M,9,3335*41
$GNRMC,114937.200,A,2500.8245894,N,12132.4587567,E,0.01,222.33,260623,,,R,V*12
$GPHDT,6.786,T*3A
$GNACCURACY,2.3*17
$GNGGA,114937.300,2500.8245896,N,12132.4587577,E,4,62,0.47,16.083,M,15.25,M,9,3335*49
$GNRMC,114937.300,A,2500.8245896,N,12132.4587577,E,0.01,222.33,260623,,,R,V*10
$GPHDT,,T*1B
$GNACCURACY,2.3*17
$GNGGA,114937.400,2500.8245884,N,12132.4587595,E,4,62,0.47,16.074,M,15.25,M,9,3335*49
$GNRMC,114937.400,A,2500.8245884,N,12132.4587595,E,0.01,222.33,260623,,,R,V*18
$GPHDT,6.854,T*3A
$GNACCURACY,2.3*17
$GNGGA,114937.500,2500.8245885,N,12132.4587568,E,4,62,0.47,16.085,M,15.25,M,9,3335*45
$GNRMC,114937.500,A,2500.8245885,N,12132.4587568,E,0.01,222.33,260623,,,R,V*1A
$GPHDT,,T*1B
$GNACCURACY,2.2*16
$GNGGA,114937.600,2500.8245883,N,12132.4587582,E,4,63,0.45,16.086,M,15.25,M,9,3335*44
$GNRMC,114937.600,A,2500.8245883,N,12132.4587582,E,0.00,222.33,260623,,,R,V*1A
$GPHDT,6.617,T*33
$GNACCURACY,2.2*16
$GNGGA,114937.700,2500.8245891,N,12132.4587584,E,4,63,0.45,16.074,M,15.25,M,9,3335*4D
$GNRMC,114937.700,A,2500.8245891,N,12132.4587584,E,0.00,222.33,260623,,,R,V*1E
$GPHDT,,T*1B
$GNACCURACY,2.2*16
$GNGGA,114937.800,2500.8245896,N,12132.4587536,E,4,62,0.45,16.080,M,15.25,M,9,3335*46
$GNRMC,114937.800,A,2500.8245896,N,12132.4587536,E,0.01,222.33,260623,,,R,V*1E
$GPHDT,7.177,T*33
$GNACCURACY,2.2*16
$GNGGA,114937.900,2500.8245882,N,12132.4587573,E,4,61,0.47,16.087,M,15.25,M,9,3335*45
$GNRMC,114937.900,A,2500.8245882,N,12132.4587573,E,0.00,222.33,260623,,,R,V*1A
$GPHDT,,T*1B
$GNACCURACY,2.2*16
$GNGGA,114938.000,2500.8245888,N,12132.4587568,E,4,61,0.47,16.087,M,15.25,M,10,3335*7B
$GNRMC,114938.000,A,2500.8245888,N,12132.4587568,E,0.01,222.33,260623,,,R,V*1D
$GPHDT,6.792,T*3F
$GNACCURACY,2.2*16
$GNGGA,114938.100,2500.8245861,N,12132.4587582,E,4,61,0.47,16.079,M,15.25,M,10,3335*78
$GNRMC,114938.100,A,2500.8245861,N,12132.4587582,E,0.00,222.33,260623,,,R,V*1E
$GPHDT,,T*1B
$GNGSA,A,3,196,24,23,199,18,194,15,195,12,10,25,32,0.72,0.45,0.56,1*06
$GNGSA,A,3,73,80,86,85,71,,,,,,,,0.72,0.45,0.56,2*0C
$GNGSA,A,3,13,07,08,26,30,02,15,,,,,,0.72,0.45,0.56,3*08
$GNGSA,A,3,08,38,13,39,16,06,46,19,09,36,35,22,0.72,0.45,0.56,4*09
$GNGSA,A,3,37,29,,,,,,,,,,,0.72,0.45,0.56,4*0C
$GPGSV,4,1,15,196,76,072,27,24,63,034,40,23,60,346,28,199,60,167,37,1*65
$GPGSV,4,2,15,18,52,229,44,41,38,242,41,194,35,136,42,15,32,057,24,1*57
$GPGSV,4,3,15,195,30,179,38,12,27,133,39,10,26,323,47,25,16,171,18,1*5A
$GPGSV,4,4,15,32,14,278,35,05,12,126,18,28,02,221,,1*5C
$GPGSV,3,1,10,196,76,072,32,24,63,034,32,23,60,346,26,199,60,167,47,8*66
$GPGSV,3,2,10,18,52,229,46,194,35,136,42,195,30,179,30,10,26,323,42,8*63
$GPGSV,3,3,10,25,16,171,15,32,14,278,33,8*66
$GLGSV,2,1,08,73,50,152,45,80,45,058,25,70,41,026,,86,28,288,40,1*72
$GLGSV,2,2,08,85,27,234,30,71,26,325,36,69,09,085,17,79,03,026,,1*79
$GAGSV,3,1,09,13,48,222,43,07,46,315,42,08,43,035,30,26,35,297,40,7*77
$GAGSV,3,2,09,30,33,137,43,02,27,076,17,15,15,173,21,03,07,071,,7*7E
$GAGSV,3,3,09,27,07,184,,7*45
$GAGSV,2,1,06,13,48,222,45,07,46,315,46,08,43,035,25,26,35,297,39,1*77
$GAGSV,2,2,06,30,33,137,41,15,15,173,19,1*7D
$GBGSV,4,1,15,08,85,348,37,38,81,154,41,13,72,323,42,39,69,296,43,1*72
$GBGSV,4,2,15,16,66,271,42,06,64,267,40,46,62,090,29,19,53,358,40,1*72
$GBGSV,4,3,15,09,50,247,39,36,45,183,44,20,40,076,,35,18,259,40,1*7E
$GBGSV,4,4,15,22,17,308,36,37,16,042,26,29,13,205,22,1*45
$GBGSV,2,1,08,38,81,154,45,39,69,296,45,46,62,090,36,19,53,358,31,4*7A
$GBGSV,2,2,08,36,45,183,44,35,18,259,35,22,17,308,36,37,16,042,27,4*7A
$GNACCURACY,2.2*16
$PAIRSAT,1,35,1,0,200,2,0,200,3,0,200,4,0,200,5,0,201,6,0,200,7,0,200,8,0,200,9,0,200,10,0,221,11,0,200,12,0,201,13,0,201,14,0,200,15,0,201,16,0,200,17,0,200,18,0,221,19,0,200,20,0,200,21,0,200,23,0,221,24,0,221,25,0,220,26,0,200,27,0,200,28,0,200,29,0,200,30,0,200,31,0,200,32,0,221,194,0,621,195,0,621,196,0,620,199,0,621*6A
$PAIRSAT,2,24,65,0,200,66,0,200,67,0,200,68,0,200,69,0,200,70,0,200,71,0,201,72,0,200,73,0,201,74,0,200,75,0,200,76,0,200,77,0,200,78,0,200,79,0,201,80,0,201,81,0,200,82,0,200,83,0,200,84,0,200,85,0,201,86,0,201,87,0,200,88,0,200*7A
$PAIRSAT,3,23,2,0,1221,3,0,1221,4,0,1200,5,0,200,7,0,1221,8,0,1221,9,0,1200,10,0,1200,11,0,1200,12,0,1200,13,0,1221,15,0,1221,19,0,1200,21,0,1200,24,0,1200,25,0,1200,26,0,1221,27,0,1200,30,0,1221,31,0,1200,33,0,1200,34,0,1200,36,0,1200*6A
$PAIRSAT,4,50,1,0,200,2,0,200,3,0,200,4,0,200,5,0,200,6,0,201,7,0,200,8,0,201,9,0,201,10,0,200,11,0,200,12,0,200,13,0,201,14,0,200,15,0,200,16,0,201,19,0,621,20,0,621,21,0,600,22,0,621,23,0,600,24,0,600,25,0,600,26,0,600,27,0,600,28,0,600,29,0,621,30,0,600,31,0,200,32,0,600,33,0,600,34,0,600,35,0,621,36,0,621,37,0,621,38,0,621,39,0,621,40,0,600,41,0,600,42,0,600,43,0,600,44,0,600,45,0,600,46,0,621,56,0,200,57,0,200,58,0,200,59,0,600,60,0,600,61,0,600*41
$PAIRDGP,10,5,10,12,15,18,23,24,25,28,32*45
$GNGGA,114938.200,2500.8245881,N,12132.4587575,E,4,62,0.45,16.085,M,15.25,M,10,3335*7F
$GNRMC,114938.200,A,2500.8245881,N,12132.4587575,E,0.01,222.33,260623,,,R,V*1A
$GPHDT,6.512,T*35
$GNACCURACY,2.2*16
$GNGGA,114938.300,2500.8245906,N,12132.4587555,E,4,62,0.45,16.086,M,15.25,M,10,3335*71
$GNRMC,114938.300,A,2500.8245906,N,12132.4587555,E,0.01,222.33,260623,,,R,V*17
$GPHDT,,T*1B
$GNACCURACY,2.2*16
$GNGGA,114938.400,2500.8245895,N,12132.4587500,E,4,62,0.45,16.096,M,15.25,M,10,3335*7C
$GNRMC,114938.400,A,2500.8245895,N,12132.4587500,E,0.02,222.33,260623,,,R,V*18
$GPHDT,6.924,T*3C
$GNACCURACY,2.2*16
$GNGGA,114938.500,2500.8245904,N,12132.4587495,E,4,61,0.45,16.089,M,15.25,M,10,3335*74
$GNRMC,114938.500,A,2500.8245904,N,12132.4587495,E,0.02,222.33,260623,,,R,V*1D
$GPHDT,,T*1B
$GNACCURACY,2.2*16
$GNGGA,114938.600,2500.8245894,N,12132.4587525,E,4,62,0.45,16.080,M,15.25,M,10,3335*7F
$GNRMC,114938.600,A,2500.8245894,N,12132.4587525,E,0.02,222.33,260623,,,R,V*1C
$GPHDT,6.524,T*30
$GNACCURACY,2.2*16
$GNGGA,114938.700,2500.8245926,N,12132.4587462,E,4,61,0.45,16.089,M,15.25,M,10,3335*7E
$GNRMC,114938.700,A,2500.8245926,N,12132.4587462,E,0.03,222.33,260623,,,R,V*16
$GPHDT,,T*1B
$GNACCURACY,2.2*16
$GNGGA,114938.800,2500.8245915,N,12132.4587529,E,4,61,0.45,16.089,M,15.25,M,10,3335*7F
$GNRMC,114938.800,A,2500.8245915,N,12132.4587529,E,0.04,222.33,260623,,,R,V*10
$GPHDT,6.780,T*3C
$GNACCURACY,2.2*16
$GNGGA,114938.900,2500.8245876,N,12132.4587549,E,4,61,0.45,16.075,M,15.25,M,10,3335*7F
$GNRMC,114938.900,A,2500.8245876,N,12132.4587549,E,0.03,222.33,260623,,,R,V*14
$GPHDT,,T*1B
$GNACCURACY,2.2*16
$GNGGA,114939.000,2500.8245887,N,12132.4587561,E,4,61,0.45,16.077,M,15.25,M,11,3335*70
$GNRMC,114939.000,A,2500.8245887,N,12132.4587561,E,0.03,222.33,260623,,,R,V*18
$GPHDT,4.970,T*3F
$GNACCURACY,2.2*16
$GNGGA,114939.100,2500.8245876,N,12132.4587558,E,4,61,0.45,16.079,M,15.25,M,11,3335*7B
$GNRMC,114939.100,A,2500.8245876,N,12132.4587558,E,0.02,222.33,260623,,,R,V*1C
$GPHDT,,T*1B
$GNGSA,A,3,196,24,23,199,18,194,15,195,12,10,32,25,0.72,0.45,0.56,1*06
$GNGSA,A,3,73,80,86,85,71,,,,,,,,0.72,0.45,0.56,2*0C
$GNGSA,A,3,13,07,08,26,30,02,15,,,,,,0.72,0.45,0.56,3*08
$GNGSA,A,3,08,38,13,39,16,06,46,19,09,36,35,22,0.72,0.45,0.56,4*09
$GNGSA,A,3,37,29,,,,,,,,,,,0.72,0.45,0.56,4*0C
$GPGSV,4,1,16,196,76,072,24,24,63,034,40,23,60,346,28,199,60,167,36,1*64
$GPGSV,4,2,16,18,52,229,44,41,38,242,40,194,35,136,43,15,32,057,26,1*56
$GPGSV,4,3,16,195,30,179,38,12,27,133,45,10,26,323,47,25,16,171,17,1*5D
$GPGSV,4,4,16,32,14,278,33,05,12,126,18,13,03,064,,28,02,221,,1*6A
$GPGSV,3,1,10,196,76,072,35,24,63,034,33,23,60,346,26,199,60,167,47,8*60
$GPGSV,3,2,10,18,52,229,46,194,35,136,46,195,30,179,33,10,26,323,42,8*64
$GPGSV,3,3,10,25,16,171,13,32,14,278,34,8*67
$GLGSV,2,1,08,73,50,152,45,80,45,058,23,70,41,026,,86,28,288,40,1*74
$GLGSV,2,2,08,85,27,234,30,71,26,325,36,69,09,085,17,79,03,026,,1*79
$GAGSV,3,1,09,13,48,222,43,07,46,315,42,08,43,035,31,26,35,297,40,7*76
$GAGSV,3,2,09,30,33,137,45,02,27,076,17,15,15,173,18,27,07,184,,7*7F
$GAGSV,3,3,09,03,07,071,,7*48
$GAGSV,2,1,06,13,48,222,45,07,46,315,46,08,43,035,26,26,35,297,40,1*7A
$GAGSV,2,2,06,30,33,137,46,15,15,173,17,1*74
$GBGSV,4,1,15,08,85,348,38,38,81,154,42,13,72,323,42,39,69,296,43,1*7E
$GBGSV,4,2,15,16,66,271,42,06,64,267,40,46,62,090,36,19,53,358,40,1*7C
$GBGSV,4,3,15,09,50,247,39,36,45,183,44,20,40,076,,35,18,259,40,1*7E
$GBGSV,4,4,15,22,17,308,37,37,16,042,25,29,13,205,21,1*44
$GBGSV,2,1,08,38,81,154,45,39,69,296,45,46,62,090,40,19,53,358,31,4*7B
$GBGSV,2,2,08,36,45,183,45,35,18,259,35,22,17,308,36,37,16,042,27,4*7B
$GNACCURACY,2.2*16
$PAIRSAT,1,35,1,0,200,2,0,200,3,0,200,4,0,200,5,0,201,6,0,200,7,0,200,8,0,200,9,0,200,10,0,221,11,0,200,12,0,201,13,0,201,14,0,200,15,0,201,16,0,200,17,0,200,18,0,221,19,0,200,20,0,200,21,0,200,23,0,221,24,0,221,25,0,220,26,0,200,27,0,200,28,0,200,29,0,200,30,0,200,31,0,200,32,0,221,194,0,621,195,0,621,196,0,620,199,0,621*6A
$PAIRSAT,2,24,65,0,200,66,0,200,67,0,200,68,0,200,69,0,200,70,0,200,71,0,201,72,0,200,73,0,201,74,0,200,75,0,200,76,0,200,77,0,200,78,0,200,79,0,201,80,0,201,81,0,200,82,0,200,83,0,200,84,0,200,85,0,201,86,0,201,87,0,200,88,0,200*7A
$PAIRSAT,3,23,2,0,1221,3,0,1221,4,0,1200,5,0,200,7,0,1221,8,0,1221,9,0,1200,10,0,1200,11,0,1200,12,0,1200,13,0,1221,15,0,1221,19,0,1200,21,0,1200,24,0,1200,25,0,1200,26,0,1221,27,0,1200,30,0,1221,31,0,1200,33,0,1200,34,0,1200,36,0,1200*6A
$PAIRSAT,4,50,1,0,200,2,0,200,3,0,200,4,0,200,5,0,200,6,0,201,7,0,200,8,0,201,9,0,201,10,0,200,11,0,200,12,0,200,13,0,201,14,0,200,15,0,200,16,0,201,19,0,621,20,0,621,21,0,600,22,0,621,23,0,600,24,0,600,25,0,600,26,0,600,27,0,600,28,0,600,29,0,621,30,0,600,31,0,200,32,0,600,33,0,600,34,0,600,35,0,621,36,0,621,37,0,621,38,0,621,39,0,621,40,0,600,41,0,600,42,0,600,43,0,600,44,0,600,45,0,600,46,0,621,56,0,200,57,0,200,58,0,200,59,0,600,60,0,600,61,0,600*41
$PAIRDGP,10,5,10,12,15,18,23,24,25,28,32*45
$GNGGA,114939.200,2500.8245892,N,12132.4587497,E,4,61,0.45,16.094,M,15.25,M,11,3335*73
$GNRMC,114939.200,A,2500.8245892,N,12132.4587497,E,0.02,222.33,260623,,,R,V*17
$GPHDT,5.716,T*30
$GNACCURACY,2.2*16
$GNGGA,114939.300,2500.8245883,N,12132.4587581,E,4,62,0.45,16.077,M,15.25,M,11,3335*7A
$GNRMC,114939.300,A,2500.8245883,N,12132.4587581,E,0.02,222.33,260623,,,R,V*10
$GPHDT,,T*1B
$GNACCURACY,2.2*16
$GNGGA,114939.400,2500.8245898,N,12132.4587533,E,4,60,0.45,16.079,M,15.25,M,11,3335*72
$GNRMC,114939.400,A,2500.8245898,N,12132.4587533,E,0.02,222.33,260623,,,R,V*14
$GPHDT,5.405,T*31
$GNACCURACY,2.2*16
$GNGGA,114939.500,2500.8245889,N,12132.4587514,E,4,61,0.45,16.092,M,15.25,M,11,3335*72
$GNRMC,114939.500,A,2500.8245889,N,12132.4587514,E,0.01,222.33,260623,,,R,V*13
$GPHDT,,T*1B
$GNACCURACY,2.2*16
$GNGGA,114939.600,2500.8245888,N,12132.4587585,E,4,61,0.45,16.084,M,15.25,M,11,3335*7F
$GNRMC,114939.600,A,2500.8245888,N,12132.4587585,E,0.01,222.33,260623,,,R,V*19
$GPHDT,5.034,T*37
$GNACCURACY,2.2*16
$GNGGA,114939.700,2500.8245887,N,12132.4587552,E,4,61,0.45,16.088,M,15.25,M,11,3335*77
$GNRMC,114939.700,A,2500.8245887,N,12132.4587552,E,0.00,222.33,260623,,,R,V*1C
$GPHDT,,T*1B
$GNACCURACY,2.2*16
$GNGGA,114939.800,2500.8245855,N,12132.4587465,E,4,61,0.45,16.086,M,15.25,M,11,3335*7C
$GNRMC,114939.800,A,2500.8245855,N,12132.4587465,E,0.00,222.33,260623,,,R,V*19
$GPHDT,5.549,T*38
$GNACCURACY,2.3*17
$GNGGA,114939.900,2500.8245894,N,12132.4587458,E,4,61,0.45,16.092,M,15.25,M,11,3335*7B
$GNRMC,114939.900,A,2500.8245894,N,12132.4587458,E,0.01,222.33,260623,,,R,V*1A
$GPHDT,,T*1B
$GNACCURACY,2.3*17
$GNGGA,114940.000,2500.8245886,N,12132.4587440,E,4,60,0.45,16.087,M,15.25,M,12,3335*70
$GNRMC,114940.000,A,2500.8245886,N,12132.4587440,E,0.01,222.33,260623,,,R,V*17
$GPHDT,6.273,T*35
$GNACCURACY,2.2*16
$GNGGA,114940.100,2500.8245880,N,12132.4587548,E,4,61,0.45,16.079,M,15.25,M,12,3335*7E
$GNRMC,114940.100,A,2500.8245880,N,12132.4587548,E,0.01,222.33,260623,,,R,V*19
$GPHDT,,T*1B
$GNGSA,A,3,196,24,23,199,18,194,15,195,12,10,25,32,0.72,0.45,0.56,1*06
$GNGSA,A,3,73,80,86,85,71,,,,,,,,0.72,0.45,0.56,2*0C
$GNGSA,A,3,13,07,08,26,30,02,15,,,,,,0.72,0.45,0.56,3*08
$GNGSA,A,3,08,38,13,39,16,06,46,19,09,36,35,22,0.72,0.45,0.56,4*09
$GNGSA,A,3,37,29,,,,,,,,,,,0.72,0.45,0.56,4*0C
$GPGSV,4,1,16,196,76,072,23,24,63,034,40,23,60,346,29,199,60,167,36,1*62
$GPGSV,4,2,16,18,52,229,44,41,38,242,40,194,35,136,43,15,32,058,29,1*56
$GPGSV,4,3,16,195,30,179,37,12,27,132,45,10,26,323,47,25,16,171,17,1*53
$GPGSV,4,4,16,32,14,278,33,05,12,126,18,13,03,064,,28,02,221,,1*6A
$GPGSV,3,1,10,196,76,072,35,24,63,034,34,23,60,346,25,199,60,167,46,8*65
$GPGSV,3,2,10,18,52,229,46,194,35,136,46,195,30,179,32,10,26,323,42,8*65
$GPGSV,3,3,10,25,16,171,18,32,14,278,34,8*6C
$GLGSV,2,1,08,73,50,152,45,80,45,058,22,70,41,026,,86,28,288,40,1*75
$GLGSV,2,2,08,85,27,234,29,71,26,325,36,69,09,085,19,79,03,026,,1*7F
$GAGSV,3,1,09,13,48,222,43,07,46,315,42,08,43,035,30,26,35,297,40,7*77
$GAGSV,3,2,09,30,33,137,45,02,27,076,17,15,15,173,17,27,07,184,,7*70
$GAGSV,3,3,09,03,07,071,,7*48
$GAGSV,2,1,06,13,48,222,45,07,46,315,46,08,43,035,27,26,35,297,39,1*75
$GAGSV,2,2,06,30,33,137,46,15,15,173,21,1*71
$GBGSV,4,1,15,08,85,348,38,38,81,154,42,13,72,323,41,39,69,296,43,1*7D
$GBGSV,4,2,15,16,66,271,42,06,64,267,40,46,62,090,36,19,53,358,40,1*7C
$GBGSV,4,3,15,09,50,247,39,36,45,183,44,20,40,076,,35,18,259,40,1*7E
$GBGSV,4,4,15,22,17,308,37,37,16,042,23,29,13,205,20,1*43
$GBGSV,2,1,08,38,81,154,45,39,69,296,45,46,62,090,40,19,53,358,29,4*72
$GBGSV,2,2,08,36,45,183,45,35,18,259,35,22,17,308,36,37,16,042,26,4*7A
$GNACCURACY,2.3*17
$PAIRSAT,1,35,1,0,200,2,0,200,3,0,200,4,0,200,5,0,201,6,0,200,7,0,200,8,0,200,9,0,200,10,0,221,11,0,200,12,0,201,13,0,201,14,0,200,15,0,201,16,0,200,17,0,200,18,0,221,19,0,200,20,0,200,21,0,200,23,0,221,24,0,221,25,0,220,26,0,200,27,0,200,28,0,200,29,0,200,30,0,200,31,0,200,32,0,221,194,0,621,195,0,621,196,0,620,199,0,621*6A
$PAIRSAT,2,24,65,0,200,66,0,200,67,0,200,68,0,200,69,0,200,70,0,200,71,0,201,72,0,200,73,0,201,74,0,200,75,0,200,76,0,200,77,0,200,78,0,200,79,0,201,80,0,201,81,0,200,82,0,200,83,0,200,84,0,200,85,0,201,86,0,201,87,0,200,88,0,200*7A
$PAIRSAT,3,23,2,0,1221,3,0,1221,4,0,1200,5,0,200,7,0,1221,8,0,1221,9,0,1200,10,0,1200,11,0,1200,12,0,1200,13,0,1221,15,0,1221,19,0,1200,21,0,1200,24,0,1200,25,0,1200,26,0,1221,27,0,1200,30,0,1221,31,0,1200,33,0,1200,34,0,1200,36,0,1200*6A
$PAIRSAT,4,50,1,0,200,2,0,200,3,0,200,4,0,200,5,0,200,6,0,201,7,0,200,8,0,201,9,0,201,10,0,200,11,0,200,12,0,200,13,0,201,14,0,200,15,0,200,16,0,201,19,0,621,20,0,621,21,0,600,22,0,621,23,0,600,24,0,600,25,0,600,26,0,600,27,0,600,28,0,600,29,0,621,30,0,600,31,0,200,32,0,600,33,0,600,34,0,600,35,0,621,36,0,621,37,0,621,38,0,621,39,0,621,40,0,600,41,0,600,42,0,600,43,0,600,44,0,600,45,0,600,46,0,621,56,0,200,57,0,200,58,0,200,59,0,600,60,0,600,61,0,600*41
$PAIRDGP,10,5,10,12,15,18,23,24,25,28,32*45
$GNGGA,114940.200,2500.8245872,N,12132.4587475,E,4,62,0.45,16.088,M,15.25,M,12,3335*72
$GNRMC,114940.200,A,2500.8245872,N,12132.4587475,E,0.01,222.33,260623,,,R,V*18
$GPHDT,5.512,T*36
$GNACCURACY,2.2*16
$GNGGA,114940.300,2500.8245883,N,12132.4587426,E,4,60,0.46,16.098,M,15.25,M,12,3335*7B
$GNRMC,114940.300,A,2500.8245883,N,12132.4587426,E,0.01,222.33,260623,,,R,V*11
$GPHDT,,T*1B
$GNACCURACY,2.2*16
$GNGGA,114940.400,2500.8245880,N,12132.4587394,E,4,61,0.45,16.101,M,15.25,M,12,3335*72
$GNRMC,114940.400,A,2500.8245880,N,12132.4587394,E,0.02,222.33,260623,,,R,V*18
$GPHDT,6.052,T*34
$GNACCURACY,2.2*16
$GNGGA,114940.500,2500.8245909,N,12132.4587553,E,4,61,0.45,16.082,M,15.25,M,12,3335*74
$GNRMC,114940.500,A,2500.8245909,N,12132.4587553,E,0.02,222.33,260623,,,R,V*14
$GPHDT,,T*1B
$GNACCURACY,2.2*16
$GNGGA,114940.600,2500.8245899,N,12132.4587497,E,4,61,0.45,16.095,M,15.25,M,12,3335*70
$GNRMC,114940.600,A,2500.8245899,N,12132.4587497,E,0.02,222.33,260623,,,R,V*16
$GPHDT,5.438,T*3F
$GNACCURACY,2.3*17
$GNGGA,114940.700,2500.8245882,N,12132.4587435,E,4,61,0.45,16.107,M,15.25,M,12,3335*79
$GNRMC,114940.700,A,2500.8245882,N,12132.4587435,E,0.01,222.33,260623,,,R,V*16
$GPHDT,,T*1B
$GNACCURACY,2.2*16
$GNGGA,114940.800,2500.8245888,N,12132.4587559,E,4,61,0.45,16.084,M,15.25,M,12,3335*7D
$GNRMC,114940.800,A,2500.8245888,N,12132.4587559,E,0.01,222.33,260623,,,R,V*18
$GPHDT,5.407,T*33
$GNACCURACY,2.2*16
$GNGGA,114940.900,2500.8245904,N,12132.4587497,E,4,62,0.45,16.085,M,15.25,M,12,3335*78
$GNRMC,114940.900,A,2500.8245904,N,12132.4587497,E,0.01,222.33,260623,,,R,V*1F
$GPHDT,,T*1B
$GNACCURACY,2.2*16
$GNGGA,114941.000,2500.8245893,N,12132.4587555,E,4,62,0.45,16.078,M,15.25,M,13,3335*73
$GNRMC,114941.000,A,2500.8245893,N,12132.4587555,E,0.01,222.33,260623,,,R,V*17
$GPHDT,5.441,T*31
$GNACCURACY,2.2*16
$GNGGA,114941.100,2500.8245908,N,12132.4587572,E,4,62,0.45,16.083,M,15.25,M,13,3335*70
$GNRMC,114941.100,A,2500.8245908,N,12132.4587572,E,0.01,222.33,260623,,,R,V*10
$GPHDT,,T*1B
$GNGSA,A,3,196,24,23,199,18,194,15,195,12,10,32,25,0.72,0.45,0.56,1*06
$GNGSA,A,3,73,80,86,85,71,,,,,,,,0.72,0.45,0.56,2*0C
$GNGSA,A,3,13,07,08,26,30,02,15,,,,,,0.72,0.45,0.56,3*08
$GNGSA,A,3,08,38,13,39,16,06,46,19,09,36,35,22,0.72,0.45,0.56,4*09
$GNGSA,A,3,37,29,,,,,,,,,,,0.72,0.45,0.56,4*0C
$GPGSV,4,1,16,196,76,072,24,24,63,034,40,23,60,346,28,199,60,167,36,1*64
$GPGSV,4,2,16,18,52,228,43,41,38,242,40,194,35,136,43,15,32,058,29,1*50
$GPGSV,4,3,16,195,30,179,37,12,27,132,46,10,26,323,45,25,17,171,16,1*52
$GPGSV,4,4,16,32,14,278,33,05,12,126,18,13,03,064,,28,02,221,,1*6A
$GPGSV,3,1,10,196,76,072,35,24,63,034,34,23,60,346,22,199,60,167,46,8*62
$GPGSV,3,2,10,18,52,228,46,194,35,136,46,195,30,179,32,10,26,323,41,8*67
$GPGSV,3,3,10,25,17,171,15,32,14,278,33,8*67
$GLGSV,2,1,07,73,50,152,45,80,45,058,21,86,28,288,40,85,27,234,29,1*79
$GLGSV,2,2,07,71,26,325,31,69,09,085,20,79,03,026,,1*4B
$GAGSV,3,1,09,13,48,222,43,07,46,315,42,08,43,035,29,26,35,297,41,7*7E
$GAGSV,3,2,09,30,33,137,45,02,27,076,17,15,15,173,16,27,07,184,,7*71
$GAGSV,3,3,09,03,07,071,,7*48
$GAGSV,2,1,06,13,48,222,45,07,46,315,46,08,43,035,28,26,35,297,40,1*74
$GAGSV,2,2,06,30,33,137,46,15,15,173,21,1*71
$GBGSV,4,1,15,08,85,348,38,38,81,154,42,13,72,323,41,39,69,296,43,1*7D
$GBGSV,4,2,15,16,66,271,42,06,64,267,40,46,62,090,36,19,53,358,40,1*7C
$GBGSV,4,3,15,09,50,247,39,36,45,183,44,20,40,076,,35,18,259,40,1*7E
$GBGSV,4,4,15,22,17,308,37,37,16,042,22,29,13,205,20,1*42
$GBGSV,3,1,09,38,81,154,45,39,69,296,45,46,62,090,40,19,53,358,28,4*73
$GBGSV,3,2,09,36,45,183,45,35,18,259,35,22,17,308,34,37,16,042,27,4*79
$GBGSV,3,3,09,29,13,205,21,4*47
$GNACCURACY,2.2*16
$PAIRSAT,1,35,1,0,200,2,0,200,3,0,200,4,0,200,5,0,201,6,0,200,7,0,200,8,0,200,9,0,200,10,0,221,11,0,200,12,0,201,13,0,201,14,0,200,15,0,201,16,0,200,17,0,200,18,0,221,19,0,200,20,0,200,21,0,200,23,0,221,24,0,221,25,0,220,26,0,200,27,0,200,28,0,200,29,0,200,30,0,200,31,0,200,32,0,221,194,0,621,195,0,621,196,0,620,199,0,621*6A
$PAIRSAT,2,24,65,0,200,66,0,200,67,0,200,68,0,200,69,0,200,70,0,200,71,0,201,72,0,200,73,0,201,74,0,200,75,0,200,76,0,200,77,0,200,78,0,200,79,0,201,80,0,201,81,0,200,82,0,200,83,0,200,84,0,200,85,0,201,86,0,201,87,0,200,88,0,200*7A
$PAIRSAT,3,23,2,0,1221,3,0,1221,4,0,1200,5,0,200,7,0,1221,8,0,1221,9,0,1200,10,0,1200,11,0,1200,12,0,1200,13,0,1221,15,0,1221,19,0,1200,21,0,1200,24,0,1200,25,0,1200,26,0,1221,27,0,1200,30,0,1221,31,0,1200,33,0,1200,34,0,1200,36,0,1200*6A
$PAIRSAT,4,50,1,0,200,2,0,200,3,0,200,4,0,200,5,0,200,6,0,201,7,0,200,8,0,201,9,0,201,10,0,200,11,0,200,12,0,200,13,0,201,14,0,200,15,0,200,16,0,201,19,0,621,20,0,621,21,0,600,22,0,621,23,0,600,24,0,600,25,0,600,26,0,600,27,0,600,28,0,600,29,0,621,30,0,600,31,0,200,32,0,600,33,0,600,34,0,600,35,0,621,36,0,621,37,0,621,38,0,621,39,0,621,40,0,600,41,0,600,42,0,600,43,0,600,44,0,600,45,0,600,46,0,621,56,0,200,57,0,200,58,0,200,59,0,600,60,0,600,61,0,600*41
$PAIRDGP,10,5,10,12,15,18,23,24,25,28,32*45
$GNGGA,114941.200,2500.8245879,N,12132.4587575,E,4,62,0.45,16.080,M,15.25,M,13,3335*70
$GNRMC,114941.200,A,2500.8245879,N,12132.4587575,E,0.01,222.33,260623,,,R,V*13
$GPHDT,5.484,T*38
$GNACCURACY,2.2*16
$GNGGA,114941.300,2500.8245892,N,12132.4587495,E,4,62,0.45,16.091,M,15.25,M,13,3335*7B
$GNRMC,114941.300,A,2500.8245892,N,12132.4587495,E,0.01,222.33,260623,,,R,V*18
$GPHDT,,T*1B
$GNACCURACY,2.2*16
$GNGGA,114941.400,2500.8245883,N,12132.4587588,E,4,62,0.45,16.081,M,15.25,M,13,3335*70
$GNRMC,114941.400,A,2500.8245883,N,12132.4587588,E,0.01,222.33,260623,,,R,V*12
$GPHDT,5.599,T*35
$GNACCURACY,2.2*16
$GNGGA,114941.500,2500.8245872,N,12132.4587394,E,4,62,0.45,16.109,M,15.25,M,13,3335*75
$GNRMC,114941.500,A,2500.8245872,N,12132.4587394,E,0.01,222.33,260623,,,R,V*16
$GPHDT,,T*1B
$GNACCURACY,2.2*16
$GNGGA,114941.600,2500.8245899,N,12132.4587618,E,4,62,0.45,16.082,M,15.25,M,13,3335*70
$GNRMC,114941.600,A,2500.8245899,N,12132.4587618,E,0.01,222.33,260623,,,R,V*11
$GPHDT,5.140,T*35
$GNACCURACY,2.2*16
$GNGGA,114941.700,2500.8245879,N,12132.4587588,E,4,62,0.45,16.088,M,15.25,M,13,3335*7F
$GNRMC,114941.700,A,2500.8245879,N,12132.4587588,E,0.01,222.33,260623,,,R,V*14
$GPHDT,,T*1B
$GNACCURACY,2.2*16
$GNGGA,114941.800,2500.8245875,N,12132.4587419,E,4,62,0.45,16.105,M,15.25,M,13,3335*71
$GNRMC,114941.800,A,2500.8245875,N,12132.4587419,E,0.02,222.33,260623,,,R,V*1D
$GPHDT,6.221,T*32
$GNACCURACY,2.2*16
$GNGGA,114941.900,2500.8245879,N,12132.4587371,E,4,62,0.45,16.101,M,15.25,M,13,3335*71
$GNRMC,114941.900,A,2500.8245879,N,12132.4587371,E,0.02,222.33,260623,,,R,V*19
$GPHDT,,T*1B
$GNACCURACY,2.2*16
$GNGGA,114942.000,2500.8245892,N,12132.4587541,E,4,62,0.45,16.091,M,15.25,M,14,3335*74
$GNRMC,114942.000,A,2500.8245892,N,12132.4587541,E,0.01,222.33,260623,,,R,V*10
$GPHDT,5.230,T*31
$GNACCURACY,2.2*16
$GNGGA,114942.100,2500.8245884,N,12132.4587439,E,4,62,0.45,16.074,M,15.25,M,14,3335*77
$GNRMC,114942.100,A,2500.8245884,N,12132.4587439,E,0.01,222.33,260623,,,R,V*18
$GPHDT,,T*1B
$GNGSA,A,3,196,24,23,199,18,194,15,195,12,10,32,25,0.72,0.45,0.56,1*06
$GNGSA,A,3,73,80,86,85,71,,,,,,,,0.72,0.45,0.56,2*0C
$GNGSA,A,3,13,07,08,26,30,02,15,,,,,,0.72,0.45,0.56,3*08
$GNGSA,A,3,08,38,13,39,16,06,46,19,09,36,35,22,0.72,0.45,0.56,4*09
$GNGSA,A,3,37,29,,,,,,,,,,,0.72,0.45,0.56,4*0C
$GPGSV,4,1,16,196,76,072,24,24,63,034,40,23,60,346,28,199,60,167,36,1*64
$GPGSV,4,2,16,18,52,228,43,41,38,242,40,194,35,136,43,15,32,058,26,1*5F
$GPGSV,4,3,16,195,30,179,37,12,27,132,44,10,26,323,46,25,17,171,16,1*53
$GPGSV,4,4,16,32,14,278,34,05,12,126,18,13,03,064,,28,02,221,,1*6D
$GPGSV,3,1,10,196,76,072,35,24,63,034,34,23,60,346,25,199,60,167,46,8*65
$GPGSV,3,2,10,18,52,228,46,194,35,136,45,195,30,179,33,10,26,323,42,8*66
$GPGSV,3,3,10,25,17,171,11,32,14,278,31,8*61
$GLGSV,2,1,08,73,50,152,45,80,45,058,22,86,28,288,40,85,27,234,29,1*75
$GLGSV,2,2,08,71,26,325,36,74,13,185,,69,09,085,22,79,03,026,,1*7C
$GAGSV,3,1,09,13,48,222,43,07,46,315,42,08,43,035,29,26,35,297,41,7*7E
$GAGSV,3,2,09,30,33,137,45,02,27,076,17,15,15,173,18,27,07,184,,7*7F
$GAGSV,3,3,09,03,07,071,,7*48
$GAGSV,2,1,06,13,48,222,45,07,46,315,46,08,43,035,27,26,35,297,41,1*7A
$GAGSV,2,2,06,30,33,137,44,15,15,173,21,1*73
$GBGSV,4,1,15,08,85,348,38,38,81,154,42,13,72,323,42,39,69,296,43,1*7E
$GBGSV,4,2,15,16,66,271,42,06,64,267,40,46,62,090,36,19,53,358,40,1*7C
$GBGSV,4,3,15,09,50,247,39,36,45,183,44,20,40,076,,35,18,259,39,1*70
$GBGSV,4,4,15,22,17,308,35,37,16,042,26,29,13,205,20,1*44
$GBGSV,3,1,09,38,81,154,45,39,69,296,45,46,62,090,40,19,53,358,29,4*72
$GBGSV,3,2,09,36,45,183,45,35,18,259,35,22,17,308,35,37,16,042,27,4*78
$GBGSV,3,3,09,29,13,205,22,4*44
$GNACCURACY,2.2*16
$PAIRSAT,1,35,1,0,200,2,0,200,3,0,200,4,0,200,5,0,201,6,0,200,7,0,200,8,0,200,9,0,200,10,0,221,11,0,200,12,0,201,13,0,201,14,0,200,15,0,201,16,0,200,17,0,200,18,0,221,19,0,200,20,0,200,21,0,200,23,0,221,24,0,221,25,0,220,26,0,200,27,0,200,28,0,200,29,0,200,30,0,200,31,0,200,32,0,221,194,0,621,195,0,621,196,0,620,199,0,621*6A
$PAIRSAT,2,24,65,0,200,66,0,200,67,0,200,68,0,200,69,0,200,70,0,200,71,0,201,72,0,200,73,0,201,74,0,200,75,0,200,76,0,200,77,0,200,78,0,200,79,0,201,80,0,201,81,0,200,82,0,200,83,0,200,84,0,200,85,0,201,86,0,201,87,0,200,88,0,200*7A
$PAIRSAT,3,23,2,0,1221,3,0,1221,4,0,1200,5,0,200,7,0,1221,8,0,1221,9,0,1200,10,0,1200,11,0,1200,12,0,1200,13,0,1221,15,0,1221,19,0,1200,21,0,1200,24,0,1200,25,0,1200,26,0,1221,27,0,1200,30,0,1221,31,0,1200,33,0,1200,34,0,1200,36,0,1200*6A
$PAIRSAT,4,50,1,0,200,2,0,200,3,0,200,4,0,200,5,0,200,6,0,201,7,0,200,8,0,201,9,0,201,10,0,200,11,0,200,12,0,200,13,0,201,14,0,200,15,0,200,16,0,201,19,0,621,20,0,621,21,0,600,22,0,621,23,0,600,24,0,600,25,0,600,26,0,600,27,0,600,28,0,600,29,0,621,30,0,600,31,0,200,32,0,600,33,0,600,34,0,600,35,0,621,36,0,621,37,0,621,38,0,621,39,0,621,40,0,600,41,0,600,42,0,600,43,0,600,44,0,600,45,0,600,46,0,621,56,0,200,57,0,200,58,0,200,59,0,600,60,0,600,61,0,600*41
$PAIRDGP,10,5,10,12,15,18,23,24,25,28,32*45
$GNGGA,114942.200,2500.8245891,N,12132.4587545,E,4,62,0.45,16.072,M,15.25,M,14,3335*7C
$GNRMC,114942.200,A,2500.8245891,N,12132.4587545,E,0.01,222.33,260623,,,R,V*15
$GPHDT,5.209,T*3B
$GNACCURACY,2.2*16
$GNGGA,114942.300,2500.8245874,N,12132.4587497,E,4,62,0.45,16.085,M,15.25,M,14,3335*70
$GNRMC,114942.300,A,2500.8245874,N,12132.4587497,E,0.01,222.33,260623,,,R,V*11
$GPHDT,,T*1B
$GNACCURACY,2.2*16
$GNGGA,114942.400,2500.8245897,N,12132.4587550,E,4,62,0.45,16.069,M,15.25,M,14,3335*72
$GNRMC,114942.400,A,2500.8245897,N,12132.4587550,E,0.01,222.33,260623,,,R,V*11
$GPHDT,5.252,T*35
$GNACCURACY,2.2*16
$GNGGA,114942.500,2500.8245881,N,12132.4587418,E,4,62,0.45,16.076,M,15.25,M,14,3335*77
$GNRMC,114942.500,A,2500.8245881,N,12132.4587418,E,0.01,222.33,260623,,,R,V*1A
$GPHDT,,T*1B
$GNACCURACY,2.2*16
$GNGGA,114942.600,2500.8245861,N,12132.4587417,E,4,62,0.45,16.080,M,15.25,M,14,3335*7C
$GNRMC,114942.600,A,2500.8245861,N,12132.4587417,E,0.01,222.33,260623,,,R,V*18
$GPHDT,6.372,T*35
$GNACCURACY,2.2*16
$GNGGA,114942.700,2500.8245899,N,12132.4587494,E,4,62,0.45,16.084,M,15.25,M,14,3335*75
$GNRMC,114942.700,A,2500.8245899,N,12132.4587494,E,0.01,222.33,260623,,,R,V*15
$GPHDT,,T*1B
$GNACCURACY,2.2*16
$GNGGA,114942.800,2500.8245882,N,12132.4587545,E,4,63,0.45,16.068,M,15.25,M,14,3335*7E
$GNRMC,114942.800,A,2500.8245882,N,12132.4587545,E,0.00,222.33,260623,,,R,V*1C
$GPHDT,6.142,T*34
$GNACCURACY,2.2*16
$GNGGA,114942.900,2500.8245886,N,12132.4587504,E,4,63,0.45,16.080,M,15.25,M,14,3335*78
$GNRMC,114942.900,A,2500.8245886,N,12132.4587504,E,0.01,222.33,260623,,,R,V*1D
$GPHDT,,T*1B
$GNACCURACY,2.2*16
$GNGGA,114943.000,2500.8245879,N,12132.4587525,E,4,62,0.45,16.066,M,15.25,M,15,3335*7B
$GNRMC,114943.000,A,2500.8245879,N,12132.4587525,E,0.01,222.33,260623,,,R,V*16
$GPHDT,5.869,T*37
$GNACCURACY,2.2*16
$GNGGA,114943.100,2500.8245898,N,12132.4587565,E,4,63,0.45,16.076,M,15.25,M,15,3335*71
$GNRMC,114943.100,A,2500.8245898,N,12132.4587565,E,0.00,222.33,260623,,,R,V*1D
$GPHDT,,T*1B
$GNGSA,A,3,196,24,23,199,18,194,15,195,12,10,25,32,0.72,0.45,0.56,1*06
$GNGSA,A,3,73,80,86,85,71,,,,,,,,0.72,0.45,0.56,2*0C
$GNGSA,A,3,13,07,08,26,30,02,15,,,,,,0.72,0.45,0.56,3*08
$GNGSA,A,3,08,38,13,39,16,06,46,19,09,36,20,35,0.72,0.45,0.56,4*0B
$GNGSA,A,3,22,37,29,,,,,,,,,,0.72,0.45,0.56,4*0C
$GPGSV,4,1,16,196,76,072,26,24,63,034,40,23,60,346,29,199,60,167,36,1*67
$GPGSV,4,2,16,18,52,228,43,41,38,242,40,194,35,136,40,15,32,058,25,1*5F
$GPGSV,4,3,16,195,30,179,37,12,27,132,41,10,26,323,46,25,17,171,16,1*56
$GPGSV,4,4,16,32,14,278,35,05,12,126,17,13,03,064,,28,02,221,,1*63
$GPGSV,3,1,09,196,76,072,35,24,63,034,34,23,60,346,26,199,60,167,4