$FW : RTK35X,V1.1X0314AS,Lib20210517,1*54
$Tool : LOCOSYS , GNSS Firebird , v1.0.0.19*39
$---------------------------------------------------*2D
GNRMC,115048.600,A,2500.8245924,N,12132.4587947,E,0.00,222.33,260623,,,R,V*13
$GPHDT,181.742,T*3C
$GNACCURACY,2.4*10
$GNGGA,115048.700,2500.8245924,N,12132.4587965,E,4,61,0.47,15.958,M,15.25,M,1,3335*4D
$GNRMC,115048.700,A,2500.8245924,N,12132.4587965,E,0.01,222.33,260623,,,R,V*13
$GPHDT,,T*1B
$GNACCURACY,2.4*10
$GNGGA,115048.800,2500.8245908,N,12132.4587933,E,4,61,0.47,15.964,M,15.25,M,1,3335*40
$GNRMC,115048.800,A,2500.8245908,N,12132.4587933,E,0.00,222.33,260623,,,R,V*10
$GPHDT,181.908,T*3C
$GNACCURACY,2.4*10
$GNGGA,115048.900,2500.8245899,N,12132.4587914,E,4,61,0.47,15.972,M,15.25,M,1,3335*4A
$GNRMC,115048.900,A,2500.8245899,N,12132.4587914,E,0.01,222.33,260623,,,R,V*1C
$GPHDT,,T*1B
$GNACCURACY,2.4*10
$GNGGA,115049.000,2500.8245883,N,12132.4587924,E,4,62,0.45,15.974,M,15.25,M,2,3335*4E
$GNRMC,115049.000,A,2500.8245883,N,12132.4587924,E,0.01,222.33,260623,,,R,V*1C
$GPHDT,181.854,T*34
$GNACCURACY,2.4*10
$GNGGA,115049.100,2500.8245890,N,12132.4587909,E,4,63,0.45,15.981,M,15.25,M,2,3335*49
$GNRMC,115049.100,A,2500.8245890,N,12132.4587909,E,0.01,222.33,260623,,,R,V*10
$GPHDT,,T*1B
$GNGSA,A,3,196,24,23,199,18,194,15,195,10,12,25,32,0.72,0.45,0.56,1*06
$GNGSA,A,3,73,80,86,71,85,,,,,,,,0.72,0.45,0.56,2*0C
$GNGSA,A,3,13,07,08,26,30,02,15,,,,,,0.72,0.45,0.56,3*08
$GNGSA,A,3,08,38,13,39,16,06,46,19,09,36,20,35,0.72,0.45,0.56,4*0B
$GNGSA,A,3,22,37,29,,,,,,,,,,0.72,0.45,0.56,4*0C
$GPGSV,4,1,16,196,76,073,22,24,62,034,39,23,61,346,21,199,60,167,36,1*64
$GPGSV,4,2,16,18,51,228,40,41,38,242,32,194,35,136,41,15,31,058,26,1*5B
$GPGSV,4,3,16,195,30,179,36,10,27,323,46,12,27,132,41,25,17,170,22,1*50
$GPGSV,4,4,16,32,14,279,29,05,12,127,16,28,03,221,,13,02,065,,1*6E
$GPGSV,3,1,10,196,76,073,34,24,62,034,35,23,61,346,23,199,60,167,48,8*6C
$GPGSV,3,2,10,18,51,228,44,194,35,136,44,195,30,179,33,10,27,323,45,8*60
$GPGSV,3,3,10,25,17,170,22,32,14,279,30,8*60
$GLGSV,2,1,07,73,51,152,43,80,45,057,27,86,28,287,41,71,27,326,34,1*7C
$GLGSV,2,2,07,85,26,234,18,79,02,026,,87,01,334,,1*48
$GAGSV,3,1,09,13,48,221,40,07,46,315,42,08,43,036,24,26,35,297,43,7*72
$GAGSV,3,2,09,30,33,137,40,02,27,075,18,15,14,173,23,27,07,184,,7*7F
$GAGSV,3,3,09,03,06,072,17,7*4C
$GAGSV,2,1,06,13,48,221,41,07,46,315,44,08,43,036,29,26,35,297,44,1*77
$GAGSV,2,2,06,30,33,137,42,15,14,173,24,1*71
$GBGSV,4,1,15,08,85,346,36,38,81,155,44,13,72,323,42,39,69,297,43,1*78
$GBGSV,4,2,15,16,65,272,40,06,64,267,39,46,62,089,25,19,54,358,34,1*7E
$GBGSV,4,3,15,09,50,248,26,36,46,183,46,20,40,076,29,35,18,259,39,1*7B
$GBGSV,4,4,15,22,17,309,30,37,16,042,29,29,12,205,14,1*49
$GBGSV,3,1,09,38,81,155,43,39,69,297,45,46,62,089,37,19,54,358,25,4*77
$GBGSV,3,2,09,36,46,183,44,20,40,076,38,35,18,259,39,22,17,309,38,4*76
$GBGSV,3,3,09,29,12,205,17,4*43
$GNACCURACY,2.4*10
$PAIRSAT,1,35,1,0,200,2,0,200,3,0,200,4,0,200,5,0,201,6,0,200,7,0,200,8,0,200,9,0,200,10,0,221,11,0,200,12,0,201,13,0,201,14,0,200,15,0,201,16,0,200,17,0,200,18,0,221,19,0,200,20,0,200,21,0,200,23,0,221,24,0,221,25,0,220,26,0,200,27,0,200,28,0,200,29,0,200,30,0,200,31,0,200,32,0,221,194,0,621,195,0,621,196,0,620,199,0,621*6A
$PAIRSAT,2,24,65,0,200,66,0,200,67,0,200,68,0,200,69,0,200,70,0,200,71,0,201,72,0,200,73,0,201,74,0,200,75,0,200,76,0,200,77,0,200,78,0,200,79,0,201,80,0,201,81,0,200,82,0,200,83,0,200,84,0,200,85,0,201,86,0,201,87,0,200,88,0,200*7A
$PAIRSAT,3,23,2,0,1221,3,0,1221,4,0,1200,5,0,200,7,0,1221,8,0,1221,9,0,1200,10,0,1200,11,0,1200,12,0,1200,13,0,1221,15,0,1221,19,0,1200,21,0,1200,24,0,1200,25,0,1200,26,0,1221,27,0,1200,30,0,1221,31,0,1200,33,0,1200,34,0,1200,36,0,1200*6A
$PAIRSAT,4,50,1,0,200,2,0,200,3,0,200,4,0,200,5,0,200,6,0,201,7,0,200,8,0,201,9,0,201,10,0,200,11,0,200,12,0,200,13,0,201,14,0,200,15,0,200,16,0,201,19,0,621,20,0,621,21,0,600,22,0,621,23,0,600,24,0,600,25,0,600,26,0,600,27,0,600,28,0,600,29,0,621,30,0,600,31,0,200,32,0,600,33,0,600,34,0,600,35,0,621,36,0,621,37,0,621,38,0,621,39,0,621,40,0,600,41,0,600,42,0,600,43,0,600,44,0,600,45,0,600,46,0,621,56,0,200,57,0,200,58,0,200,59,0,600,60,0,600,61,0,600*41
$PAIRDGP,10,5,10,12,15,18,23,24,25,28,32*45
$GNGGA,115049.200,2500.8245867,N,12132.4587879,E,4,63,0.45,15.978,M,15.25,M,2,3335*42
$GNRMC,115049.200,A,2500.8245867,N,12132.4587879,E,0.01,222.33,260623,,,R,V*1D
$GPHDT,181.088,T*3D
$GNACCURACY,2.4*10
$GNGGA,115049.300,2500.8245836,N,12132.4587842,E,4,63,0.45,15.984,M,15.25,M,2,3335*4C
$GNRMC,115049.300,A,2500.8245836,N,12132.4587842,E,0.01,222.33,260623,,,R,V*10
$GPHDT,,T*1B
$GNACCURACY,2.4*10
$GNGGA,115049.400,2500.8245840,N,12132.4587839,E,4,63,0.45,15.989,M,15.25,M,2,3335*4B
$GNRMC,115049.400,A,2500.8245840,N,12132.4587839,E,0.00,222.33,260623,,,R,V*1B
$GPHDT,181.271,T*39
$GNACCURACY,2.4*10
$GNGGA,115049.500,2500.8245827,N,12132.4587829,E,4,63,0.45,15.972,M,15.25,M,2,3335*4E
$GNRMC,115049.500,A,2500.8245827,N,12132.4587829,E,0.00,222.33,260623,,,R,V*1A
$GPHDT,,T*1B
$GNACCURACY,2.4*10
$GNGGA,115049.600,2500.8245817,N,12132.4587820,E,4,63,0.45,15.981,M,15.25,M,2,3335*4B
$GNRMC,115049.600,A,2500.8245817,N,12132.4587820,E,0.01,222.33,260623,,,R,V*12
$GPHDT,180.918,T*3C
$GNACCURACY,2.4*10
$GNGGA,115049.700,2500.8245798,N,12132.4587826,E,4,63,0.45,15.977,M,15.25,M,2,3335*4D
$GNRMC,115049.700,A,2500.8245798,N,12132.4587826,E,0.01,222.33,260623,,,R,V*1D
$GPHDT,,T*1B
$GNACCURACY,2.4*10
$GNGGA,115049.800,2500.8245807,N,12132.4587823,E,4,63,0.45,15.973,M,15.25,M,2,3335*4A
$GNRMC,115049.800,A,2500.8245807,N,12132.4587823,E,0.02,222.33,260623,,,R,V*1D
$GPHDT,181.000,T*3D
$GNACCURACY,2.4*10
$GNGGA,115049.900,2500.8245844,N,12132.4587829,E,4,63,0.45,15.988,M,15.25,M,2,3335*42
$GNRMC,115049.900,A,2500.8245844,N,12132.4587829,E,0.03,222.33,260623,,,R,V*10
$GPHDT,,T*1B
$GNACCURACY,2.4*10
$GNGGA,115050.000,2500.8245853,N,12132.4587767,E,4,63,0.45,15.956,M,15.25,M,3,3335*42
$GNRMC,115050.000,A,2500.8245853,N,12132.4587767,E,0.03,222.33,260623,,,R,V*12
$GPHDT,180.867,T*35
$GNACCURACY,2.4*10
$GNGGA,115050.100,2500.8245870,N,12132.4587779,E,4,63,0.45,15.946,M,15.25,M,3,3335*4C
$GNRMC,115050.100,A,2500.8245870,N,12132.4587779,E,0.02,222.33,260623,,,R,V*1C
$GPHDT,,T*1B
$GNGSA,A,3,196,24,23,199,18,194,15,195,10,12,25,32,0.72,0.45,0.56,1*06
$GNGSA,A,3,73,80,86,71,85,,,,,,,,0.72,0.45,0.56,2*0C
$GNGSA,A,3,13,07,08,26,30,02,15,,,,,,0.72,0.45,0.56,3*08
$GNGSA,A,3,08,38,13,39,16,06,46,19,09,36,20,35,0.72,0.45,0.56,4*0B
$GNGSA,A,3,22,37,29,,,,,,,,,,0.72,0.45,0.56,4*0C
$GPGSV,4,1,16,196,76,073,23,24,62,034,39,23,61,346,22,199,60,167,37,1*67
$GPGSV,4,2,16,18,51,228,43,41,38,242,41,194,35,136,41,15,31,058,20,1*5A
$GPGSV,4,3,16,195,30,179,35,10,27,323,46,12,27,132,41,25,17,170,24,1*55
$GPGSV,4,4,16,32,14,279,26,05,12,127,17,28,03,221,,13,02,065,,1*60
$GPGSV,3,1,10,196,76,073,34,24,62,034,36,23,61,346,28,199,60,167,47,8*6B
$GPGSV,3,2,10,18,51,228,47,194,35,136,44,195,30,179,33,10,27,323,45,8*63
$GPGSV,3,3,10,25,17,170,22,32,14,279,31,8*61
$GLGSV,2,1,08,73,51,152,43,80,45,057,26,70,42,027,,86,28,287,41,1*75
$GLGSV,2,2,08,71,27,326,36,85,26,234,19,79,02,026,,87,01,334,,1*77
$GAGSV,3,1,09,13,48,221,42,07,46,315,42,08,43,036,23,26,35,297,42,7*76
$GAGSV,3,2,09,30,33,137,40,02,27,075,14,15,14,173,24,27,07,184,,7*74
$GAGSV,3,3,09,03,06,072,15,7*4E
$GAGSV,2,1,06,13,48,221,41,07,46,315,45,08,43,036,29,26,35,297,45,1*77
$GAGSV,2,2,06,30,33,137,42,15,14,173,24,1*71
$GBGSV,5,1,17,08,85,346,37,38,81,155,44,13,72,323,42,39,69,297,44,1*7D
$GBGSV,5,2,17,16,65,272,41,06,64,267,40,46,62,089,25,19,54,358,34,1*72
$GBGSV,5,3,17,09,50,248,40,56,47,317,,36,46,183,44,20,40,076,30,1*7C
$GBGSV,5,4,17,35,18,259,35,22,17,309,31,37,16,042,24,29,12,205,14,1*71
$GBGSV,5,5,17,10,02,200,,1*41
$GBGSV,3,1,09,38,81,155,43,39,69,297,46,46,62,089,37,19,54,358,26,4*77
$GBGSV,3,2,09,36,46,183,43,20,40,076,38,35,18,259,35,22,17,309,38,4*7D
$GBGSV,3,3,09,29,12,205,17,4*43
$GNACCURACY,2.4*10
$PAIRSAT,1,35,1,0,200,2,0,200,3,0,200,4,0,200,5,0,201,6,0,200,7,0,200,8,0,200,9,0,200,10,0,221,11,0,200,12,0,201,13,0,201,14,0,200,15,0,201,16,0,200,17,0,200,18,0,221,19,0,200,20,0,200,21,0,200,23,0,221,24,0,221,25,0,220,26,0,200,27,0,200,28,0,200,29,0,200,30,0,200,31,0,200,32,0,221,194,0,621,195,0,621,196,0,620,199,0,621*6A
$PAIRSAT,2,24,65,0,200,66,0,200,67,0,200,68,0,200,69,0,200,70,0,200,71,0,201,72,0,200,73,0,201,74,0,200,75,0,200,76,0,200,77,0,200,78,0,200,79,0,201,80,0,201,81,0,200,82,0,200,83,0,200,84,0,200,85,0,201,86,0,201,87,0,200,88,0,200*7A
$PAIRSAT,3,23,2,0,1221,3,0,1221,4,0,1200,5,0,200,7,0,1221,8,0,1221,9,0,1200,10,0,1200,11,0,1200,12,0,1200,13,0,1221,15,0,1221,19,0,1200,21,0,1200,24,0,1200,25,0,1200,26,0,1221,27,0,1200,30,0,1221,31,0,1200,33,0,1200,34,0,1200,36,0,1200*6A
$PAIRSAT,4,50,1,0,200,2,0,200,3,0,200,4,0,200,5,0,200,6,0,201,7,0,200,8,0,201,9,0,201,10,0,200,11,0,200,12,0,200,13,0,201,14,0,200,15,0,200,16,0,201,19,0,621,20,0,621,21,0,600,22,0,621,23,0,600,24,0,600,25,0,600,26,0,600,27,0,600,28,0,600,29,0,621,30,0,600,31,0,200,32,0,600,33,0,600,34,0,600,35,0,621,36,0,621,37,0,621,38,0,621,39,0,621,40,0,600,41,0,600,42,0,600,43,0,600,44,0,600,45,0,600,46,0,621,56,0,200,57,0,200,58,0,200,59,0,600,60,0,600,61,0,600*41
$PAIRDGP,10,5,10,12,15,18,23,24,25,28,32*45
$GNGGA,115050.200,2500.8245865,N,12132.4587784,E,4,63,0.45,15.941,M,15.25,M,3,3335*4E
$GNRMC,115050.200,A,2500.8245865,N,12132.4587784,E,0.04,222.33,260623,,,R,V*1F
$GPHDT,181.169,T*33
$GNACCURACY,2.4*10
$GNGGA,115050.300,2500.8245862,N,12132.4587802,E,4,63,0.45,15.946,M,15.25,M,3,3335*4E
$GNRMC,115050.300,A,2500.8245862,N,12132.4587802,E,0.04,222.33,260623,,,R,V*18
$GPHDT,,T*1B
$GNACCURACY,2.4*10
$GNGGA,115050.400,2500.8245837,N,12132.4587773,E,4,63,0.45,15.949,M,15.25,M,3,3335*4F
$GNRMC,115050.400,A,2500.8245837,N,12132.4587773,E,0.04,222.33,260623,,,R,V*16
$GPHDT,180.860,T*32
$GNACCURACY,2.4*10
$GNGGA,115050.500,2500.8245864,N,12132.4587784,E,4,63,0.45,15.959,M,15.25,M,3,3335*41
$GNRMC,115050.500,A,2500.8245864,N,12132.4587784,E,0.03,222.33,260623,,,R,V*1E
$GPHDT,,T*1B
$GNACCURACY,2.4*10
$GNGGA,115050.600,2500.8245854,N,12132.4587818,E,4,63,0.45,15.986,M,15.25,M,3,3335*49
$GNRMC,115050.600,A,2500.8245854,N,12132.4587818,E,0.03,222.33,260623,,,R,V*14
$GPHDT,180.390,T*36
$GNACCURACY,2.4*10
$GNGGA,115050.700,2500.8245789,N,12132.4587757,E,4,63,0.45,15.977,M,15.25,M,3,3335*4D
$GNRMC,115050.700,A,2500.8245789,N,12132.4587757,E,0.04,222.33,260623,,,R,V*19
$GPHDT,,T*1B
$GNACCURACY,2.4*10
$GNGGA,115050.800,2500.8245781,N,12132.4587783,E,4,63,0.45,15.983,M,15.25,M,3,3335*48
$GNRMC,115050.800,A,2500.8245781,N,12132.4587783,E,0.04,222.33,260623,,,R,V*17
$GPHDT,180.532,T*38
$GNACCURACY,2.4*10
$GNGGA,115050.900,2500.8245774,N,12132.4587764,E,4,63,0.45,15.991,M,15.25,M,3,3335*49
$GNRMC,115050.900,A,2500.8245774,N,12132.4587764,E,0.04,222.33,260623,,,R,V*15
$GPHDT,,T*1B
$GNACCURACY,2.4*10
$GNGGA,115051.000,2500.8245778,N,12132.4587758,E,4,63,0.45,15.980,M,15.25,M,4,3335*45
$GNRMC,115051.000,A,2500.8245778,N,12132.4587758,E,0.03,222.33,260623,,,R,V*19
$GPHDT,180.064,T*3E
$GNACCURACY,2.4*10
$GNGGA,115051.100,2500.8245776,N,12132.4587799,E,4,63,0.45,15.976,M,15.25,M,1,3335*4B
$GNRMC,115051.100,A,2500.8245776,N,12132.4587799,E,0.02,222.33,260623,,,R,V*1A
$GPHDT,,T*1B
$GNGSA,A,3,196,24,23,199,18,194,15,195,10,12,25,32,0.72,0.45,0.56,1*06
$GNGSA,A,3,73,80,86,71,85,,,,,,,,0.72,0.45,0.56,2*0C
$GNGSA,A,3,13,07,08,26,30,02,15,,,,,,0.72,0.45,0.56,3*08
$GNGSA,A,3,08,38,13,39,16,06,46,19,09,36,20,35,0.72,0.45,0.56,4*0B
$GNGSA,A,3,22,37,29,,,,,,,,,,0.72,0.45,0.56,4*0C
$GPGSV,4,1,16,196,76,073,22,24,62,034,39,23,61,346,22,199,60,167,37,1*66
$GPGSV,4,2,16,18,51,228,43,41,38,242,40,194,35,136,41,15,31,058,19,1*51
$GPGSV,4,3,16,195,30,179,34,10,27,323,46,12,27,132,42,25,17,170,22,1*51
$GPGSV,4,4,16,32,14,279,23,05,12,127,17,28,03,221,,13,02,065,,1*65
$GPGSV,3,1,10,196,76,073,35,24,62,034,36,23,61,346,23,199,60,167,47,8*61
$GPGSV,3,2,10,18,51,228,47,194,35,136,44,195,30,179,35,10,27,323,45,8*65
$GPGSV,3,3,10,25,17,170,18,32,14,279,31,8*68
$GLGSV,3,1,10,73,51,152,42,80,45,057,27,70,42,027,,86,28,287,35,1*7E
$GLGSV,3,2,10,71,27,326,36,85,26,234,18,74,14,185,,69,09,086,,1*7E
$GLGSV,3,3,10,79,02,026,,87,01,334,,1*7B
$GAGSV,3,1,09,13,48,221,44,07,46,315,42,08,43,036,24,26,35,297,40,7*75
$GAGSV,3,2,09,30,33,137,40,02,27,075,14,15,14,173,24,27,07,184,,7*74
$GAGSV,3,3,09,03,06,072,15,7*4E
$GAGSV,2,1,06,13,48,221,41,07,46,315,46,08,43,036,29,26,35,297,40,1*71
$GAGSV,2,2,06,30,33,137,42,15,14,173,24,1*71
$GBGSV,4,1,16,08,85,346,36,38,81,155,44,13,72,323,42,39,69,297,44,1*7C
$GBGSV,4,2,16,16,65,272,41,06,64,267,41,46,62,089,22,19,54,358,34,1*74
$GBGSV,4,3,16,09,50,248,42,56,47,317,,36,46,183,44,20,40,076,30,1*7E
$GBGSV,4,4,16,35,18,259,37,22,17,309,34,37,16,042,22,29,12,205,13,1*77
$GBGSV,3,1,09,38,81,155,44,39,69,297,46,46,62,089,37,19,54,358,28,4*7E
$GBGSV,3,2,09,36,46,183,43,20,40,076,38,35,18,259,38,22,17,309,40,4*7F
$GBGSV,3,3,09,29,12,205,16,4*42
$GNACCURACY,2.4*10
$PAIRSAT,1,35,1,0,200,2,0,200,3,0,200,4,0,200,5,0,201,6,0,200,7,0,200,8,0,200,9,0,200,10,0,221,11,0,200,12,0,201,13,0,201,14,0,200,15,0,201,16,0,200,17,0,200,18,0,221,19,0,200,20,0,200,21,0,200,23,0,221,24,0,221,25,0,220,26,0,200,27,0,200,28,0,200,29,0,200,30,0,200,31,0,200,32,0,221,194,0,621,195,0,621,196,0,620,199,0,621*6A
$PAIRSAT,2,24,65,0,200,66,0,200,67,0,200,68,0,200,69,0,200,70,0,200,71,0,201,72,0,200,73,0,201,74,0,200,75,0,200,76,0,200,77,0,200,78,0,200,79,0,201,80,0,201,81,0,200,82,0,200,83,0,200,84,0,200,85,0,201,86,0,201,87,0,200,88,0,200*7A
$PAIRSAT,3,23,2,0,1221,3,0,1221,4,0,1200,5,0,200,7,0,1221,8,0,1221,9,0,1200,10,0,1200,11,0,1200,12,0,1200,13,0,1221,15,0,1221,19,0,1200,21,0,1200,24,0,1200,25,0,1200,26,0,1221,27,0,1200,30,0,1221,31,0,1200,33,0,1200,34,0,1200,36,0,1200*6A
$PAIRSAT,4,50,1,0,200,2,0,200,3,0,200,4,0,200,5,0,200,6,0,201,7,0,200,8,0,201,9,0,201,10,0,200,11,0,200,12,0,200,13,0,201,14,0,200,15,0,200,16,0,201,19,0,621,20,0,621,21,0,600,22,0,621,23,0,600,24,0,600,25,0,600,26,0,600,27,0,600,28,0,600,29,0,621,30,0,600,31,0,200,32,0,600,33,0,600,34,0,600,35,0,621,36,0,621,37,0,621,38,0,621,39,0,621,40,0,600,41,0,600,42,0,600,43,0,600,44,0,600,45,0,600,46,0,621,56,0,200,57,0,200,58,0,200,59,0,600,60,0,600,61,0,600*41
$PAIRDGP,10,5,10,12,15,18,23,24,25,28,32*45
$GNGGA,115051.200,2500.8245773,N,12132.4587793,E,4,63,0.45,15.974,M,15.25,M,1,3335*45
$GNRMC,115051.200,A,2500.8245773,N,12132.4587793,E,0.02,222.33,260623,,,R,V*16
$GPHDT,180.181,T*34
$GNACCURACY,2.4*10
$GNGGA,115051.300,2500.8245759,N,12132.4587803,E,4,62,0.45,15.980,M,15.25,M,1,3335*40
$GNRMC,115051.300,A,2500.8245759,N,12132.4587803,E,0.02,222.33,260623,,,R,V*19
$GPHDT,,T*1B
$GNACCURACY,2.4*10
$GNGGA,115051.400,2500.8245789,N,12132.4587799,E,4,62,0.45,15.984,M,15.25,M,1,3335*42
$GNRMC,115051.400,A,2500.8245789,N,12132.4587799,E,0.03,222.33,260623,,,R,V*1E
$GPHDT,180.341,T*3A
$GNACCURACY,2.4*10
$GNGGA,115051.500,2500.8245787,N,12132.4587794,E,4,62,0.45,15.971,M,15.25,M,1,3335*4A
$GNRMC,115051.500,A,2500.8245787,N,12132.4587794,E,0.02,222.33,260623,,,R,V*1D
$GPHDT,,T*1B
$GNACCURACY,2.4*10
$GNGGA,115051.600,2500.8245804,N,12132.4587815,E,4,61,0.45,15.967,M,15.25,M,1,3335*4F
$GNRMC,115051.600,A,2500.8245804,N,12132.4587815,E,0.02,222.33,260623,,,R,V*1C
$GPHDT,180.553,T*3F
$GNACCURACY,2.4*10
$GNGGA,115051.700,2500.8245783,N,12132.4587810,E,4,62,0.45,15.970,M,15.25,M,0,3335*4F
$GNRMC,115051.700,A,2500.8245783,N,12132.4587810,E,0.02,222.33,260623,,,R,V*18
$GPHDT,,T*1B
$GNACCURACY,2.4*10
$GNGGA,115051.800,2500.8245795,N,12132.4587816,E,4,62,0.45,15.979,M,15.25,M,0,3335*48
$GNRMC,115051.800,A,2500.8245795,N,12132.4587816,E,0.02,222.33,260623,,,R,V*16
$GPHDT,180.557,T*3B
$GNACCURACY,2.4*10
$GNGGA,115051.900,2500.8245798,N,12132.4587820,E,4,62,0.45,15.970,M,15.25,M,0,3335*48
$GNRMC,115051.900,A,2500.8245798,N,12132.4587820,E,0.02,222.33,260623,,,R,V*1F
$GPHDT,,T*1B
$GNACCURACY,2.4*10
$GNGGA,115052.000,2500.8245796,N,12132.4587817,E,4,61,0.45,15.966,M,15.25,M,1,3335*4D
$GNRMC,115052.000,A,2500.8245796,N,12132.4587817,E,0.03,222.33,260623,,,R,V*1E
$GPHDT,180.419,T*30
$GNACCURACY,2.4*10
$GNGGA,115052.100,2500.8245807,N,12132.4587820,E,4,61,0.45,15.973,M,15.25,M,1,3335*4B
$GNRMC,115052.100,A,2500.8245807,N,12132.4587820,E,0.02,222.33,260623,,,R,V*1D
$GPHDT,,T*1B
$GNGSA,A,3,196,24,23,199,18,194,195,10,12,32,25,,0.73,0.45,0.57,1*02
$GNGSA,A,3,73,80,86,71,85,,,,,,,,0.73,0.45,0.57,2*0C
$GNGSA,A,3,13,07,08,26,30,02,15,,,,,,0.73,0.45,0.57,3*08
$GNGSA,A,3,08,38,13,39,16,06,46,19,09,36,20,35,0.73,0.45,0.57,4*0B
$GNGSA,A,3,22,37,29,,,,,,,,,,0.73,0.45,0.57,4*0C
$GPGSV,4,1,16,196,76,073,23,24,62,034,39,23,61,346,20,199,60,167,37,1*65
$GPGSV,4,2,16,18,51,228,43,41,38,242,40,194,35,136,41,15,31,058,17,1*5F
$GPGSV,4,3,16,195,30,179,34,10,27,323,46,12,27,132,42,25,17,170,20,1*53
$GPGSV,4,4,16,32,14,279,17,05,12,127,18,28,03,221,,13,02,065,,1*6D
$GPGSV,3,1,10,196,76,073,35,24,62,034,36,23,61,346,22,199,60,167,47,8*60
$GPGSV,3,2,10,18,51,228,47,194,35,136,44,195,30,179,34,10,27,323,45,8*64
$GPGSV,3,3,10,25,17,170,17,32,14,279,31,8*67
$GLGSV,2,1,08,73,51,152,42,80,45,057,26,70,42,027,,86,28,287,34,1*76
$GLGSV,2,2,08,71,27,326,36,85,26,234,16,69,09,086,,79,02,026,,1*7A
$GAGSV,3,1,09,13,48,221,44,07,46,315,43,08,43,036,25,26,35,297,40,7*75
$GAGSV,3,2,09,30,33,137,39,02,27,075,13,15,14,173,23,27,07,184,,7*7A
$GAGSV,3,3,09,03,06,072,16,7*4D
$GAGSV,2,1,06,13,48,221,41,07,46,315,46,08,43,036,29,26,35,297,38,1*7E
$GAGSV,2,2,06,30,33,137,42,15,14,173,23,1*76
$GBGSV,4,1,15,08,85,346,36,38,81,155,44,13,72,323,42,39,69,297,44,1*7F
$GBGSV,4,2,15,16,65,272,41,06,64,267,41,46,62,089,19,19,54,358,35,1*7E
$GBGSV,4,3,15,09,50,248,42,36,46,183,44,20,40,076,30,35,18,259,38,1*72
$GBGSV,4,4,15,22,17,309,34,37,16,042,22,29,12,205,12,1*40
$GBGSV,3,1,09,38,81,155,44,39,69,297,46,46,62,089,37,19,54,358,27,4*71
$GBGSV,3,2,09,36,46,183,43,20,40,076,38,35,18,259,38,22,17,309,40,4*7F
$GBGSV,3,3,09,29,12,205,17,4*43
$GNACCURACY,2.4*10
$PAIRSAT,1,35,1,0,200,2,0,200,3,0,200,4,0,200,5,0,201,6,0,200,7,0,200,8,0,200,9,0,200,10,0,221,11,0,200,12,0,201,13,0,201,14,0,200,15,0,201,16,0,200,17,0,200,18,0,221,19,0,200,20,0,200,21,0,200,23,0,221,24,0,221,25,0,220,26,0,200,27,0,200,28,0,200,29,0,200,30,0,200,31,0,200,32,0,221,194,0,621,195,0,621,196,0,620,199,0,621*6A
$PAIRSAT,2,24,65,0,200,66,0,200,67,0,200,68,0,200,69,0,200,70,0,200,71,0,201,72,0,200,73,0,201,74,0,200,75,0,200,76,0,200,77,0,200,78,0,200,79,0,201,80,0,201,81,0,200,82,0,200,83,0,200,84,0,200,85,0,201,86,0,201,87,0,200,88,0,200*7A
$PAIRSAT,3,23,2,0,1221,3,0,1221,4,0,1200,5,0,200,7,0,1221,8,0,1221,9,0,1200,10,0,1200,11,0,1200,12,0,1200,13,0,1221,15,0,1221,19,0,1200,21,0,1200,24,0,1200,25,0,1200,26,0,1221,27,0,1200,30,0,1221,31,0,1200,33,0,1200,34,0,1200,36,0,1200*6A
$PAIRSAT,4,50,1,0,200,2,0,200,3,0,200,4,0,200,5,0,200,6,0,201,7,0,200,8,0,201,9,0,201,10,0,200,11,0,200,12,0,200,13,0,201,14,0,200,15,0,200,16,0,201,19,0,621,20,0,621,21,0,600,22,0,621,23,0,600,24,0,600,25,0,600,26,0,600,27,0,600,28,0,600,29,0,621,30,0,600,31,0,200,32,0,600,33,0,600,34,0,600,35,0,621,36,0,621,37,0,621,38,0,621,39,0,621,40,0,600,41,0,600,42,0,600,43,0,600,44,0,600,45,0,600,46,0,621,56,0,200,57,0,200,58,0,200,59,0,600,60,0,600,61,0,600*41
$PAIRDGP,10,5,10,12,15,18,23,24,25,28,32*45
$GNGGA,115052.200,2500.8245823,N,12132.4587827,E,4,61,0.45,15.982,M,15.25,M,1,3335*47
$GNRMC,115052.200,A,2500.8245823,N,12132.4587827,E,0.02,222.33,260623,,,R,V*1F
$GPHDT,180.315,T*3B
$GNACCURACY,2.3*17
$GNGGA,115052.300,2500.8245799,N,12132.4587821,E,4,61,0.45,15.972,M,15.25,M,1,3335*41
$GNRMC,115052.300,A,2500.8245799,N,12132.4587821,E,0.02,222.33,260623,,,R,V*16
$GPHDT,,T*1B
$GNACCURACY,2.3*17
$GNGGA,115052.400,2500.8245798,N,12132.4587824,E,4,61,0.45,15.971,M,15.25,M,1,3335*41
$GNRMC,115052.400,A,2500.8245798,N,12132.4587824,E,0.01,222.33,260623,,,R,V*16
$GPHDT,180.436,T*3D
$GNACCURACY,2.3*17
$GNGGA,115052.500,2500.8245808,N,12132.4587820,E,4,61,0.45,15.971,M,15.25,M,1,3335*42
$GNRMC,115052.500,A,2500.8245808,N,12132.4587820,E,0.01,222.33,260623,,,R,V*15
$GPHDT,,T*1B
$GNACCURACY,2.4*10
$GNGGA,115052.600,2500.8245801,N,12132.4587817,E,4,61,0.45,15.972,M,15.25,M,1,3335*4F
$GNRMC,115052.600,A,2500.8245801,N,12132.4587817,E,0.01,222.33,260623,,,R,V*1B
$GPHDT,180.536,T*3C
$GNACCURACY,2.4*10
$GNGGA,115052.700,2500.8245826,N,12132.4587846,E,4,61,0.45,15.974,M,15.25,M,1,3335*49
$GNRMC,115052.700,A,2500.8245826,N,12132.4587846,E,0.00,222.33,260623,,,R,V*1A
$GPHDT,,T*1B
$GNACCURACY,2.4*10
$GNGGA,115052.800,2500.8245840,N,12132.4587793,E,4,61,0.45,15.953,M,15.25,M,1,3335*44
$GNRMC,115052.800,A,2500.8245840,N,12132.4587793,E,0.01,222.33,260623,,,R,V*13
$GPHDT,180.871,T*32
$GNACCURACY,2.4*10
$GNGGA,115052.900,2500.8245882,N,12132.4587784,E,4,61,0.45,15.947,M,15.25,M,1,3335*48
$GNRMC,115052.900,A,2500.8245882,N,12132.4587784,E,0.02,222.33,260623,,,R,V*19
$GPHDT,,T*1B
$GNACCURACY,2.4*10
$GNGGA,115053.000,2500.8245874,N,12132.4587805,E,4,62,0.45,15.937,M,15.25,M,2,3335*48
$GNRMC,115053.000,A,2500.8245874,N,12132.4587805,E,0.02,222.33,260623,,,R,V*1E
$GPHDT,181.114,T*39
$GNACCURACY,2.4*10
$GNGGA,115053.100,2500.8245871,N,12132.4587811,E,4,62,0.45,15.950,M,15.25,M,2,3335*48
$GNRMC,115053.100,A,2500.8245871,N,12132.4587811,E,0.01,222.33,260623,,,R,V*1C
$GPHDT,,T*1B
$GNGSA,A,3,196,24,23,199,18,194,195,10,12,32,25,,0.73,0.45,0.57,1*02
$GNGSA,A,3,73,80,86,71,85,,,,,,,,0.73,0.45,0.57,2*0C
$GNGSA,A,3,13,07,08,26,30,02,15,,,,,,0.73,0.45,0.57,3*08
$GNGSA,A,3,08,38,13,39,16,06,46,19,09,36,20,35,0.73,0.45,0.57,4*0B
$GNGSA,A,3,22,37,29,,,,,,,,,,0.73,0.45,0.57,4*0C
$GPGSV,4,1,16,196,76,073,24,24,62,034,39,23,61,346,19,199,60,167,37,1*68
$GPGSV,4,2,16,18,51,228,45,41,38,242,40,194,35,136,41,15,31,058,17,1*59
$GPGSV,4,3,16,195,30,179,35,10,27,323,46,12,27,132,42,25,17,170,21,1*53
$GPGSV,4,4,16,32,14,279,16,05,12,127,17,28,03,221,,13,02,065,,1*63
$GPGSV,3,1,10,196,76,073,35,24,62,034,36,23,61,346,23,199,60,167,47,8*61
$GPGSV,3,2,10,18,51,228,48,194,35,136,44,195,30,179,33,10,27,323,46,8*6F
$GPGSV,3,3,10,25,17,170,15,32,14,279,29,8*6C
$GLGSV,2,1,08,73,51,152,42,80,45,057,27,70,42,027,,86,28,287,36,1*75
$GLGSV,2,2,08,71,27,326,37,85,26,234,16,69,09,086,,79,02,026,,1*7B
$GAGSV,3,1,09,13,48,221,44,07,46,315,43,08,43,036,25,26,35,297,40,7*75
$GAGSV,3,2,09,30,33,137,39,02,27,075,13,15,14,173,24,27,07,184,,7*7D
$GAGSV,3,3,09,03,06,072,15,7*4E
$GAGSV,2,1,07,13,48,221,43,07,46,315,46,08,43,036,29,26,35,297,41,1*73
$GAGSV,2,2,07,30,33,137,42,15,14,173,23,03,06,072,17,1*41
$GBGSV,4,1,15,08,85,346,36,38,81,155,45,13,72,323,42,39,69,297,44,1*7E
$GBGSV,4,2,15,16,65,272,40,06,64,267,39,46,62,089,19,19,54,358,35,1*70
$GBGSV,4,3,15,09,50,248,37,36,46,183,44,20,40,076,30,35,18,259,35,1*7D
$GBGSV,4,4,15,22,17,309,32,37,16,042,22,29,12,205,14,1*40
$GBGSV,3,1,10,38,81,155,44,39,69,297,46,46,62,089,37,19,54,358,27,4*79
$GBGSV,3,2,10,36,46,183,42,20,40,076,38,35,18,259,37,22,17,309,40,4*79
$GBGSV,3,3,10,37,16,042,21,29,12,205,17,4*7D
$GNACCURACY,2.4*10
$PAIRSAT,1,35,1,0,200,2,0,200,3,0,200,4,0,200,5,0,201,6,0,200,7,0,200,8,0,200,9,0,200,10,0,221,11,0,200,12,0,201,13,0,201,14,0,200,15,0,201,16,0,200,17,0,200,18,0,221,19,0,200,20,0,200,21,0,200,23,0,221,24,0,221,25,0,220,26,0,200,27,0,200,28,0,200,29,0,200,30,0,200,31,0,200,32,0,221,194,0,621,195,0,621,196,0,620,199,0,621*6A
$PAIRSAT,2,24,65,0,200,66,0,200,67,0,200,68,0,200,69,0,200,70,0,200,71,0,201,72,0,200,73,0,201,74,0,200,75,0,200,76,0,200,77,0,200,78,0,200,79,0,201,80,0,201,81,0,200,82,0,200,83,0,200,84,0,200,85,0,201,86,0,201,87,0,200,88,0,200*7A
$PAIRSAT,3,23,2,0,1221,3,0,1221,4,0,1200,5,0,200,7,0,1221,8,0,1221,9,0,1200,10,0,1200,11,0,1200,12,0,1200,13,0,1221,15,0,1221,19,0,1200,21,0,1200,24,0,1200,25,0,1200,26,0,1221,27,0,1200,30,0,1221,31,0,1200,33,0,1200,34,0,1200,36,0,1200*6A
$PAIRSAT,4,50,1,0,200,2,0,200,3,0,200,4,0,200,5,0,200,6,0,201,7,0,200,8,0,201,9,0,201,10,0,200,11,0,200,12,0,200,13,0,201,14,0,200,15,0,200,16,0,201,19,0,621,20,0,621,21,0,600,22,0,621,23,0,600,24,0,600,25,0,600,26,0,600,27,0,600,28,0,600,29,0,621,30,0,600,31,0,200,32,0,600,33,0,600,34,0,600,35,0,621,36,0,621,37,0,621,38,0,621,39,0,621,40,0,600,41,0,600,42,0,600,43,0,600,44,0,600,45,0,600,46,0,621,56,0,200,57,0,200,58,0,200,59,0,600,60,0,600,61,0,600*41
$PAIRDGP,10,5,10,12,15,18,23,24,25,28,32*45
$GNGGA,115053.200,2500.8245864,N,12132.4587803,E,4,62,0.45,15.950,M,15.25,M,2,3335*4C
$GNRMC,115053.200,A,2500.8245864,N,12132.4587803,E,0.01,222.33,260623,,,R,V*18
$GPHDT,180.954,T*34
$GNACCURACY,2.3*17
$GNGGA,115053.300,2500.8245840,N,12132.4587793,E,4,62,0.45,15.985,M,15.25,M,2,3335*45
$GNRMC,115053.300,A,2500.8245840,N,12132.4587793,E,0.03,222.33,260623,,,R,V*1B
$GPHDT,,T*1B
$GNACCURACY,2.3*17
$GNGGA,115053.400,2500.8245855,N,12132.4587826,E,4,62,0.45,15.972,M,15.25,M,1,3335*4C
$GNRMC,115053.400,A,2500.8245855,N,12132.4587826,E,0.03,222.33,260623,,,R,V*19
$GPHDT,180.483,T*33
$GNACCURACY,2.3*17
$GNGGA,115053.500,2500.8245879,N,12132.4587829,E,4,62,0.45,15.971,M,15.25,M,0,3335*4E
$GNRMC,115053.500,A,2500.8245879,N,12132.4587829,E,0.02,222.33,260623,,,R,V*18
$GPHDT,,T*1B
$GNACCURACY,2.3*17
$GNGGA,115053.600,2500.8245908,N,12132.4587868,E,4,62,0.45,16.012,M,15.25,M,0,3335*40
$GNRMC,115053.600,A,2500.8245908,N,12132.4587868,E,0.03,222.33,260623,,,R,V*18
$GPHDT,180.638,T*31
$GNACCURACY,2.3*17
$GNGGA,115053.700,2500.8245825,N,12132.4587853,E,4,62,0.45,15.976,M,15.25,M,0,3335*4F
$GNRMC,115053.700,A,2500.8245825,N,12132.4587853,E,0.03,222.33,260623,,,R,V*1F
$GPHDT,,T*1B
$GNACCURACY,2.3*17
$GNGGA,115053.800,2500.8245856,N,12132.4587849,E,4,62,0.45,15.965,M,15.25,M,0,3335*4D
$GNRMC,115053.800,A,2500.8245856,N,12132.4587849,E,0.03,222.33,260623,,,R,V*1F
$GPHDT,181.026,T*39
$GNACCURACY,2.3*17
$GNGGA,115053.900,2500.8245851,N,12132.4587828,E,4,62,0.45,15.974,M,15.25,M,0,3335*4C
$GNRMC,115053.900,A,2500.8245851,N,12132.4587828,E,0.03,222.33,260623,,,R,V*1E
$GPHDT,,T*1B
$GNACCURACY,2.3*17
$GNGGA,115054.000,2500.8245877,N,12132.4587864,E,4,62,0.45,15.965,M,15.25,M,1,3335*4F
$GNRMC,115054.000,A,2500.8245877,N,12132.4587864,E,0.03,222.33,260623,,,R,V*1C
$GPHDT,180.974,T*36
$GNACCURACY,2.3*17
$GNGGA,115054.100,2500.8245856,N,12132.4587856,E,4,62,0.45,15.972,M,15.25,M,1,3335*4A
$GNRMC,115054.100,A,2500.8245856,N,12132.4587856,E,0.03,222.33,260623,,,R,V*1F
$GPHDT,,T*1B
$GNGSA,A,3,196,24,23,199,18,194,195,10,12,32,25,,0.73,0.45,0.57,1*02
$GNGSA,A,3,73,80,86,71,85,,,,,,,,0.73,0.45,0.57,2*0C
$GNGSA,A,3,13,07,08,26,30,02,15,,,,,,0.73,0.45,0.57,3*08
$GNGSA,A,3,08,38,13,39,16,06,46,19,09,36,20,35,0.73,0.45,0.57,4*0B
$GNGSA,A,3,22,37,29,,,,,,,,,,0.73,0.45,0.57,4*0C
$GPGSV,4,1,16,196,76,073,24,24,62,034,39,23,61,346,20,199,60,167,37,1*62
$GPGSV,4,2,16,18,51,228,45,41,38,242,40,194,35,136,41,15,31,058,18,1*56
$GPGSV,4,3,16,195,30,179,34,10,27,323,46,12,27,132,41,25,17,170,21,1*51
$GPGSV,4,4,16,32,14,279,22,05,12,127,17,28,03,221,,13,02,065,,1*64
$GPGSV,3,1,10,196,76,073,34,24,62,034,35,23,61,346,24,199,60,167,47,8*64
$GPGSV,3,2,10,18,51,228,48,194,35,136,44,195,30,179,30,10,27,323,46,8*6C
$GPGSV,3,3,10,25,17,170,16,32,14,279,29,8*6F
$GLGSV,2,1,08,73,51,152,42,80,45,057,26,70,42,027,,86,28,287,35,1*77
$GLGSV,2,2,08,71,27,326,35,85,26,234,16,69,09,086,,79,02,026,,1*79
$GAGSV,3,1,09,13,48,221,44,07,46,315,42,08,43,036,25,26,35,297,36,7*75
$GAGSV,3,2,09,30,33,137,40,02,27,075,13,15,14,173,24,27,07,184,,7*73
$GAGSV,3,3,09,03,06,072,16,7*4D
$GAGSV,2,1,07,13,48,221,43,07,46,315,46,08,43,036,29,26,35,297,37,1*72
$GAGSV,2,2,07,30,33,137,42,15,14,173,25,03,06,072,17,1*47
$GBGSV,4,1,15,08,85,346,37,38,81,155,45,13,72,323,43,39,69,297,40,1*7A
$GBGSV,4,2,15,16,65,272,37,06,64,267,36,46,62,089,21,19,54,358,35,1*74
$GBGSV,4,3,15,09,50,248,40,36,46,183,44,20,40,076,30,35,18,259,37,1*7F
$GBGSV,4,4,15,22,17,309,28,37,16,042,19,29,12,205,13,1*44
$GBGSV,3,1,10,38,81,155,44,39,69,297,43,46,62,089,38,19,54,358,27,4*73
$GBGSV,3,2,10,36,46,183,42,20,40,076,38,35,18,259,36,22,17,309,39,4*76
$GBGSV,3,3,10,37,16,042,20,29,12,205,15,4*7E
$GNACCURACY,2.3*17
$PAIRSAT,1,35,1,0,200,2,0,200,3,0,200,4,0,200,5,0,201,6,0,200,7,0,200,8,0,200,9,0,200,10,0,221,11,0,200,12,0,201,13,0,201,14,0,200,15,0,201,16,0,200,17,0,200,18,0,221,19,0,200,20,0,200,21,0,200,23,0,221,24,0,221,25,0,220,26,0,200,27,0,200,28,0,200,29,0,200,30,0,200,31,0,200,32,0,221,194,0,621,195,0,621,196,0,620,199,0,621*6A
$PAIRSAT,2,24,65,0,200,66,0,200,67,0,200,68,0,200,69,0,200,70,0,200,71,0,201,72,0,200,73,0,201,74,0,200,75,0,200,76,0,200,77,0,200,78,0,200,79,0,201,80,0,201,81,0,200,82,0,200,83,0,200,84,0,200,85,0,201,86,0,201,87,0,200,88,0,200*7A
$PAIRSAT,3,23,2,0,1221,3,0,1221,4,0,1200,5,0,200,7,0,1221,8,0,1221,9,0,1200,10,0,1200,11,0,1200,12,0,1200,13,0,1221,15,0,1221,19,0,1200,21,0,1200,24,0,1200,25,0,1200,26,0,1221,27,0,1200,30,0,1221,31,0,1200,33,0,1200,34,0,1200,36,0,1200*6A
$PAIRSAT,4,50,1,0,200,2,0,200,3,0,200,4,0,200,5,0,200,6,0,201,7,0,200,8,0,201,9,0,201,10,0,200,11,0,200,12,0,200,13,0,201,14,0,200,15,0,200,16,0,201,19,0,621,20,0,621,21,0,600,22,0,621,23,0,600,24,0,600,25,0,600,26,0,600,27,0,600,28,0,600,29,0,621,30,0,600,31,0,200,32,0,600,33,0,600,34,0,600,35,0,621,36,0,621,37,0,621,38,0,621,39,0,621,40,0,600,41,0,600,42,0,600,43,0,600,44,0,600,45,0,600,46,0,621,56,0,200,57,0,200,58,0,200,59,0,600,60,0,600,61,0,600*41
$PAIRDGP,10,5,10,12,15,18,23,24,25,28,32*45
$GNGGA,115054.200,2500.8245857,N,12132.4587840,E,4,62,0.45,15.977,M,15.25,M,1,3335*4A
$GNRMC,115054.200,A,2500.8245857,N,12132.4587840,E,0.03,222.33,260623,,,R,V*1A
$GPHDT,180.886,T*3A
$GNACCURACY,2.3*17
$GNGGA,115054.300,2500.8245879,N,12132.4587908,E,4,62,0.45,15.961,M,15.25,M,1,3335*4D
$GNRMC,115054.300,A,2500.8245879,N,12132.4587908,E,0.02,222.33,260623,,,R,V*1B
$GPHDT,,T*1B
$GNACCURACY,2.3*17
$GNGGA,115054.400,2500.8245858,N,12132.4587852,E,4,62,0.45,15.974,M,15.25,M,1,3335*43
$GNRMC,115054.400,A,2500.8245858,N,12132.4587852,E,0.02,222.33,260623,,,R,V*11
$GPHDT,180.982,T*3F
$GNACCURACY,2.3*17
$GNGGA,115054.500,2500.8245845,N,12132.4587877,E,4,62,0.45,15.981,M,15.25,M,1,3335*43
$GNRMC,115054.500,A,2500.8245845,N,12132.4587877,E,0.02,222.33,260623,,,R,V*1B
$GPHDT,,T*1B
