$FW : RTK35X,V1.1X0314AS,Lib20210517,1*54
$Tool : LOCOSYS , GNSS Firebird , v1.0.0.19*39
$---------------------------------------------------*2D
$GNACCURACY,2.6*12
$GNGGA,115121.100,2500.8243028,N,12132.4585411,E,2,62,0.45,15.779,M,15.25,M,4,3335*45
$GNRMC,115121.100,A,2500.8243028,N,12132.4585411,E,0.02,222.33,260623,,,D,V*01
$GPHDT,,T*1B
$GNGSA,A,3,196,24,23,199,18,194,15,195,12,10,25,32,0.81,0.45,0.68,1*07
$GNGSA,A,3,73,80,86,71,85,,,,,,,,0.81,0.45,0.68,2*0D
$GNGSA,A,3,13,07,08,26,30,02,15,,,,,,0.81,0.45,0.68,3*09
$GNGSA,A,3,08,38,13,39,16,06,46,09,36,20,35,22,0.81,0.45,0.68,4*02
$GNGSA,A,3,29,19,37,,,,,,,,,,0.81,0.45,0.68,4*05
$GPGSV,4,1,16,196,76,073,20,24,62,034,36,23,61,346,29,199,60,167,38,1*6F
$GPGSV,4,2,16,18,51,227,38,41,38,242,42,194,35,136,36,15,31,058,19,1*50
$GPGSV,4,3,16,195,30,179,36,12,28,132,37,10,27,323,45,25,17,170,23,1*5C
$GPGSV,4,4,16,32,14,279,37,05,11,127,18,28,03,222,,13,02,065,,1*6F
$GPGSV,3,1,10,196,76,073,34,24,62,034,36,23,61,346,29,199,60,167,47,8*6A
$GPGSV,3,2,10,18,51,227,40,194,35,136,35,195,30,179,33,10,27,323,45,8*6D
$GPGSV,3,3,10,25,17,170,20,32,14,279,31,8*63
$GLGSV,2,1,07,73,51,152,41,80,45,056,15,70,42,027,,86,28,287,39,1*76
$GLGSV,2,2,07,71,27,326,36,85,26,234,27,79,02,026,14,1*4A
$GAGSV,3,1,09,13,48,221,35,07,46,315,40,08,43,036,29,26,35,297,39,7*72
$GAGSV,3,2,09,30,33,136,36,02,27,075,18,15,14,173,21,27,07,184,,7*7D
$GAGSV,3,3,09,03,06,072,15,7*4E
$GAGSV,2,1,05,13,48,221,39,07,46,315,46,08,43,036,30,26,35,297,42,1*77
$GAGSV,2,2,05,30,33,136,40,1*43
$GBGSV,4,1,16,08,85,346,37,38,81,156,46,13,72,322,41,39,68,297,43,1*78
$GBGSV,4,2,16,16,65,272,41,06,64,268,40,46,62,088,30,19,54,359,19,1*76
$GBGSV,4,3,16,09,50,248,40,36,46,183,44,20,40,076,31,35,17,258,37,1*73
$GBGSV,4,4,16,22,17,309,29,37,16,042,17,29,12,205,26,44,03,303,,1*7D
$GBGSV,3,1,10,38,81,156,44,39,68,297,45,46,62,088,38,19,54,359,31,4*70
$GBGSV,3,2,10,36,46,183,41,20,40,076,37,22,17,309,36,35,17,258,40,4*7A
$GBGSV,3,3,10,37,16,042,26,29,12,205,14,4*79
$GNACCURACY,2.6*12
$PAIRSAT,1,35,1,0,200,2,0,200,3,0,200,4,0,200,5,0,201,6,0,200,7,0,200,8,0,200,9,0,200,10,0,221,11,0,200,12,0,201,13,0,201,14,0,200,15,0,201,16,0,200,17,0,200,18,0,221,19,0,200,20,0,200,21,0,200,23,0,221,24,0,221,25,0,220,26,0,200,27,0,200,28,0,200,29,0,200,30,0,200,31,0,200,32,0,221,194,0,621,195,0,621,196,0,620,199,0,621*6A
$PAIRSAT,2,24,65,0,200,66,0,200,67,0,200,68,0,200,69,0,200,70,0,200,71,0,201,72,0,200,73,0,201,74,0,200,75,0,200,76,0,200,77,0,200,78,0,200,79,0,201,80,0,201,81,0,200,82,0,200,83,0,200,84,0,200,85,0,201,86,0,201,87,0,200,88,0,200*7A
$PAIRSAT,3,23,2,0,1221,3,0,1221,4,0,1200,5,0,200,7,0,1221,8,0,1221,9,0,1200,10,0,1200,11,0,1200,12,0,1200,13,0,1221,15,0,1221,19,0,1200,21,0,1200,24,0,1200,25,0,1200,26,0,1221,27,0,1200,30,0,1221,31,0,1200,33,0,1200,34,0,1200,36,0,1200*6A
$PAIRSAT,4,50,1,0,200,2,0,200,3,0,200,4,0,200,5,0,200,6,0,201,7,0,200,8,0,201,9,0,201,10,0,200,11,0,200,12,0,200,13,0,201,14,0,200,15,0,200,16,0,201,19,0,621,20,0,621,21,0,600,22,0,621,23,0,600,24,0,600,25,0,600,26,0,600,27,0,600,28,0,600,29,0,621,30,0,600,31,0,200,32,0,600,33,0,600,34,0,600,35,0,621,36,0,621,37,0,621,38,0,621,39,0,621,40,0,600,41,0,600,42,0,600,43,0,600,44,0,600,45,0,600,46,0,621,56,0,200,57,0,200,58,0,200,59,0,600,60,0,600,61,0,600*41
$PAIRDGP,10,5,10,12,15,18,23,24,25,28,32*45
$GNGGA,115121.200,2500.8242968,N,12132.4585351,E,2,62,0.45,15.773,M,15.25,M,4,3335*43
$GNRMC,115121.200,A,2500.8242968,N,12132.4585351,E,0.02,222.33,260623,,,D,V*0D
$GPHDT,,T*1B
$GNACCURACY,2.6*12
$GNGGA,115121.300,2500.8242848,N,12132.4585291,E,2,62,0.45,15.763,M,15.25,M,4,3335*4D
$GNRMC,115121.300,A,2500.8242848,N,12132.4585291,E,0.02,222.33,260623,,,D,V*02
$GPHDT,,T*1B
$GNACCURACY,2.6*12
$GNGGA,115121.400,2500.8242788,N,12132.4585231,E,2,62,0.45,15.751,M,15.25,M,4,3335*42
$GNRMC,115121.400,A,2500.8242788,N,12132.4585231,E,0.02,222.33,260623,,,D,V*0C
$GPHDT,,T*1B
$GNACCURACY,2.6*12
$GNGGA,115121.500,2500.8242728,N,12132.4585171,E,2,62,0.45,15.742,M,15.25,M,4,3335*4C
$GNRMC,115121.500,A,2500.8242728,N,12132.4585171,E,0.02,222.33,260623,,,D,V*00
$GPHDT,,T*1B
$GNACCURACY,2.6*12
$GNGGA,115121.600,2500.8242668,N,12132.4585111,E,2,62,0.45,15.732,M,15.25,M,4,3335*4B
$GNRMC,115121.600,A,2500.8242668,N,12132.4585111,E,0.02,222.33,260623,,,D,V*00
$GPHDT,,T*1B
$GNACCURACY,2.6*12
$GNGGA,115121.700,2500.8242548,N,12132.4585051,E,2,62,0.45,15.724,M,15.25,M,4,3335*49
$GNRMC,115121.700,A,2500.8242548,N,12132.4585051,E,0.02,222.33,260623,,,D,V*05
$GPHDT,,T*1B
$GNACCURACY,2.6*12
$GNGGA,115121.800,2500.8242488,N,12132.4585051,E,2,62,0.45,15.712,M,15.25,M,4,3335*4E
$GNRMC,115121.800,A,2500.8242488,N,12132.4585051,E,0.02,222.33,260623,,,D,V*07
$GPHDT,,T*1B
$GNACCURACY,2.6*12
$GNGGA,115121.900,2500.8242368,N,12132.4584991,E,2,62,0.45,15.705,M,15.25,M,4,3335*44
$GNRMC,115121.900,A,2500.8242368,N,12132.4584991,E,0.02,222.33,260623,,,D,V*0B
$GPHDT,,T*1B
$GNACCURACY,2.6*12
$GNGGA,115122.000,2500.8242308,N,12132.4584931,E,2,62,0.45,15.691,M,15.25,M,5,3335*4F
$GNRMC,115122.000,A,2500.8242308,N,12132.4584931,E,0.03,222.33,260623,,,D,V*0C
$GPHDT,,T*1B
$GNACCURACY,2.6*12
$GNGGA,115122.100,2500.8242188,N,12132.4584871,E,2,63,0.45,15.678,M,15.25,M,5,3335*47
$GNRMC,115122.100,A,2500.8242188,N,12132.4584871,E,0.02,222.33,260623,,,D,V*03
$GPHDT,,T*1B
$GNGSA,A,3,196,24,23,199,18,194,15,195,12,10,25,32,0.81,0.45,0.68,1*07
$GNGSA,A,3,73,80,86,71,85,,,,,,,,0.81,0.45,0.68,2*0D
$GNGSA,A,3,13,07,08,26,30,02,15,,,,,,0.81,0.45,0.68,3*09
$GNGSA,A,3,08,38,13,39,16,06,46,09,36,20,35,22,0.81,0.45,0.68,4*02
$GNGSA,A,3,29,19,37,,,,,,,,,,0.81,0.45,0.68,4*05
$GPGSV,4,1,16,196,76,073,20,24,62,034,36,23,61,346,29,199,60,167,38,1*6F
$GPGSV,4,2,16,18,51,227,36,41,38,242,41,194,35,136,37,15,31,058,15,1*50
$GPGSV,4,3,16,195,30,179,37,12,28,132,36,10,27,323,45,25,17,170,22,1*5D
$GPGSV,4,4,16,32,14,279,38,05,11,127,18,28,03,222,,13,02,065,,1*60
$GPGSV,3,1,10,196,76,073,31,24,62,034,35,23,61,346,29,199,60,167,47,8*6C
$GPGSV,3,2,10,18,51,227,40,194,35,136,29,195,30,179,35,10,27,323,45,8*66
$GPGSV,3,3,10,25,17,170,20,32,14,279,26,8*65
$GLGSV,3,1,09,73,51,152,40,80,45,056,16,70,42,027,,86,28,287,39,1*7B
$GLGSV,3,2,09,71,27,326,37,85,26,234,27,74,14,185,,69,09,086,,1*7B
$GLGSV,3,3,09,79,02,026,13,1*4B
$GAGSV,3,1,09,13,48,221,35,07,46,315,40,08,43,036,29,26,35,297,40,7*7C
$GAGSV,3,2,09,30,33,136,36,02,27,075,18,15,14,173,22,27,07,184,,7*7E
$GAGSV,3,3,09,03,06,072,15,7*4E
$GAGSV,2,1,06,13,48,221,39,07,46,315,46,08,43,036,28,26,35,297,42,1*7D
$GAGSV,2,2,06,30,33,136,37,15,14,173,22,1*74
$GBGSV,4,1,15,08,85,346,37,38,81,156,46,13,72,322,41,39,68,297,44,1*7C
$GBGSV,4,2,15,16,65,272,41,06,64,268,40,46,62,088,30,19,54,359,18,1*74
$GBGSV,4,3,15,09,50,248,40,36,46,183,45,20,40,076,32,35,17,258,36,1*73
$GBGSV,4,4,15,22,17,309,30,37,16,042,18,29,12,205,25,1*49
$GBGSV,3,1,10,38,81,156,44,39,68,297,45,46,62,088,38,19,54,359,31,4*70
$GBGSV,3,2,10,36,46,183,41,20,40,076,36,22,17,309,36,35,17,258,40,4*7B
$GBGSV,3,3,10,37,16,042,24,29,12,205,13,4*7C
$GNACCURACY,2.6*12
$PAIRSAT,1,35,1,0,200,2,0,200,3,0,200,4,0,200,5,0,201,6,0,200,7,0,200,8,0,200,9,0,200,10,0,221,11,0,200,12,0,201,13,0,201,14,0,200,15,0,201,16,0,200,17,0,200,18,0,221,19,0,200,20,0,200,21,0,200,23,0,221,24,0,221,25,0,220,26,0,200,27,0,200,28,0,200,29,0,200,30,0,200,31,0,200,32,0,221,194,0,621,195,0,621,196,0,620,199,0,621*6A
$PAIRSAT,2,24,65,0,200,66,0,200,67,0,200,68,0,200,69,0,200,70,0,200,71,0,201,72,0,200,73,0,201,74,0,200,75,0,200,76,0,200,77,0,200,78,0,200,79,0,201,80,0,201,81,0,200,82,0,200,83,0,200,84,0,200,85,0,201,86,0,201,87,0,200,88,0,200*7A
$PAIRSAT,3,23,2,0,1221,3,0,1221,4,0,1200,5,0,200,7,0,1221,8,0,1221,9,0,1200,10,0,1200,11,0,1200,12,0,1200,13,0,1221,15,0,1221,19,0,1200,21,0,1200,24,0,1200,25,0,1200,26,0,1221,27,0,1200,30,0,1221,31,0,1200,33,0,1200,34,0,1200,36,0,1200*6A
$PAIRSAT,4,50,1,0,200,2,0,200,3,0,200,4,0,200,5,0,200,6,0,201,7,0,200,8,0,201,9,0,201,10,0,200,11,0,200,12,0,200,13,0,201,14,0,200,15,0,200,16,0,201,19,0,621,20,0,621,21,0,600,22,0,621,23,0,600,24,0,600,25,0,600,26,0,600,27,0,600,28,0,600,29,0,621,30,0,600,31,0,200,32,0,600,33,0,600,34,0,600,35,0,621,36,0,621,37,0,621,38,0,621,39,0,621,40,0,600,41,0,600,42,0,600,43,0,600,44,0,600,45,0,600,46,0,621,56,0,200,57,0,200,58,0,200,59,0,600,60,0,600,61,0,600*41
$PAIRDGP,10,5,10,12,15,18,23,24,25,28,32*45
$GNGGA,115122.200,2500.8242128,N,12132.4584811,E,2,63,0.45,15.668,M,15.25,M,5,3335*49
$GNRMC,115122.200,A,2500.8242128,N,12132.4584811,E,0.03,222.33,260623,,,D,V*0D
$GPHDT,,T*1B
$GNACCURACY,2.5*11
$GNGGA,115122.300,2500.8242008,N,12132.4584751,E,2,63,0.45,15.658,M,15.25,M,5,3335*43
$GNRMC,115122.300,A,2500.8242008,N,12132.4584751,E,0.03,222.33,260623,,,D,V*04
$GPHDT,,T*1B
$GNACCURACY,2.5*11
$GNGGA,115122.400,2500.8241888,N,12132.4584691,E,2,64,0.45,15.646,M,15.25,M,5,3335*42
$GNRMC,115122.400,A,2500.8241888,N,12132.4584691,E,0.03,222.33,260623,,,D,V*0D
$GPHDT,,T*1B
$GNACCURACY,2.5*11
$GNGGA,115122.500,2500.8241828,N,12132.4584631,E,2,63,0.45,15.637,M,15.25,M,5,3335*42
$GNRMC,115122.500,A,2500.8241828,N,12132.4584631,E,0.03,222.33,260623,,,D,V*0C
$GPHDT,,T*1B
$GNACCURACY,2.5*11
$GNGGA,115122.600,2500.8241768,N,12132.4584631,E,2,64,0.45,15.629,M,15.25,M,5,3335*42
$GNRMC,115122.600,A,2500.8241768,N,12132.4584631,E,0.03,222.33,260623,,,D,V*04
$GPHDT,,T*1B
$GNACCURACY,2.5*11
$GNGGA,115122.700,2500.8241708,N,12132.4584631,E,2,64,0.45,15.618,M,15.25,M,5,3335*47
$GNRMC,115122.700,A,2500.8241708,N,12132.4584631,E,0.03,222.33,260623,,,D,V*03
$GPHDT,,T*1B
$GNACCURACY,2.5*11
$GNGGA,115122.800,2500.8241648,N,12132.4584571,E,2,64,0.45,15.609,M,15.25,M,5,3335*4A
$GNRMC,115122.800,A,2500.8241648,N,12132.4584571,E,0.03,222.33,260623,,,D,V*0E
$GPHDT,,T*1B
$GNACCURACY,2.5*11
$GNGGA,115122.900,2500.8241588,N,12132.4584511,E,2,64,0.45,15.596,M,15.25,M,5,3335*47
$GNRMC,115122.900,A,2500.8241588,N,12132.4584511,E,0.03,222.33,260623,,,D,V*06
$GPHDT,,T*1B
$GNACCURACY,2.5*11
$GNGGA,115123.000,2500.8241528,N,12132.4584571,E,2,64,0.45,15.582,M,15.25,M,6,3335*45
$GNRMC,115123.000,A,2500.8241528,N,12132.4584571,E,0.03,222.33,260623,,,D,V*02
$GPHDT,,T*1B
$GNACCURACY,2.5*11
$GNGGA,115123.100,2500.8241468,N,12132.4584571,E,2,64,0.45,15.567,M,15.25,M,6,3335*4A
$GNRMC,115123.100,A,2500.8241468,N,12132.4584571,E,0.03,222.33,260623,,,D,V*06
$GPHDT,,T*1B
$GNGSA,A,3,196,24,23,199,18,194,195,12,10,32,25,,0.83,0.45,0.69,1*00
$GNGSA,A,3,73,80,86,71,85,,,,,,,,0.83,0.45,0.69,2*0E
$GNGSA,A,3,13,07,08,26,30,02,15,,,,,,0.83,0.45,0.69,3*0A
$GNGSA,A,3,08,38,13,39,16,06,46,09,36,20,35,22,0.83,0.45,0.69,4*01
$GNGSA,A,3,37,29,19,,,,,,,,,,0.83,0.45,0.69,4*06
$GPGSV,4,1,16,196,76,073,20,24,62,034,35,23,61,346,29,199,60,167,38,1*6C
$GPGSV,4,2,16,18,51,227,40,41,38,242,32,194,35,136,37,15,31,058,25,1*56
$GPGSV,4,3,16,195,30,179,38,12,28,132,35,10,27,323,45,25,17,170,19,1*59
$GPGSV,4,4,16,32,14,279,32,05,11,127,18,28,03,222,,13,02,065,,1*6A
$GPGSV,3,1,10,196,76,073,35,24,62,034,35,23,61,346,28,199,60,167,48,8*66
$GPGSV,3,2,10,18,51,227,43,194,35,136,36,195,30,179,38,10,27,323,45,8*66
$GPGSV,3,3,10,25,17,170,26,32,14,279,28,8*6D
$GLGSV,2,1,08,73,51,152,41,80,45,056,19,70,42,027,,86,28,287,39,1*75
$GLGSV,2,2,08,71,27,326,36,85,26,234,25,69,09,086,,79,02,026,14,1*7F
$GAGSV,3,1,09,13,48,221,36,07,46,315,40,08,43,036,29,26,35,296,41,7*7F
$GAGSV,3,2,09,30,33,136,36,02,27,075,17,15,14,173,21,27,08,184,,7*7D
$GAGSV,3,3,09,03,06,072,15,7*4E
$GAGSV,2,1,08,13,48,221,40,07,46,315,46,08,43,036,29,26,35,296,42,1*7D
$GAGSV,2,2,08,30,33,136,39,02,27,075,19,15,14,173,21,03,06,072,17,1*7C
$GBGSV,4,1,15,08,85,346,38,38,81,156,46,13,72,322,41,39,68,297,44,1*73
$GBGSV,4,2,15,16,65,272,40,06,64,268,38,46,62,088,28,19,54,359,,1*7A
$GBGSV,4,3,15,09,50,248,33,36,46,183,46,20,40,076,32,35,17,258,38,1*7A
$GBGSV,4,4,15,22,17,309,29,37,16,042,24,29,12,205,24,1*4F
$GBGSV,3,1,10,38,81,156,44,39,68,297,46,46,62,088,38,19,54,359,32,4*70
$GBGSV,3,2,10,36,46,183,46,20,40,076,36,22,17,309,34,35,17,258,40,4*7E
$GBGSV,3,3,10,37,16,042,25,29,12,205,15,4*7B
$GNACCURACY,2.5*11
$PAIRSAT,1,35,1,0,200,2,0,200,3,0,200,4,0,200,5,0,201,6,0,200,7,0,200,8,0,200,9,0,200,10,0,221,11,0,200,12,0,201,13,0,201,14,0,200,15,0,201,16,0,200,17,0,200,18,0,221,19,0,200,20,0,200,21,0,200,23,0,221,24,0,221,25,0,220,26,0,200,27,0,200,28,0,200,29,0,200,30,0,200,31,0,200,32,0,221,194,0,621,195,0,621,196,0,620,199,0,621*6A
$PAIRSAT,2,24,65,0,200,66,0,200,67,0,200,68,0,200,69,0,200,70,0,200,71,0,201,72,0,200,73,0,201,74,0,200,75,0,200,76,0,200,77,0,200,78,0,200,79,0,201,80,0,201,81,0,200,82,0,200,83,0,200,84,0,200,85,0,201,86,0,201,87,0,200,88,0,200*7A
$PAIRSAT,3,23,2,0,1221,3,0,1221,4,0,1200,5,0,200,7,0,1221,8,0,1221,9,0,1200,10,0,1200,11,0,1200,12,0,1200,13,0,1221,15,0,1221,19,0,1200,21,0,1200,24,0,1200,25,0,1200,26,0,1221,27,0,1200,30,0,1221,31,0,1200,33,0,1200,34,0,1200,36,0,1200*6A
$PAIRSAT,4,50,1,0,200,2,0,200,3,0,200,4,0,200,5,0,200,6,0,201,7,0,200,8,0,201,9,0,201,10,0,200,11,0,200,12,0,200,13,0,201,14,0,200,15,0,200,16,0,201,19,0,621,20,0,621,21,0,600,22,0,621,23,0,600,24,0,600,25,0,600,26,0,600,27,0,600,28,0,600,29,0,621,30,0,600,31,0,200,32,0,600,33,0,600,34,0,600,35,0,621,36,0,621,37,0,621,38,0,621,39,0,621,40,0,600,41,0,600,42,0,600,43,0,600,44,0,600,45,0,600,46,0,621,56,0,200,57,0,200,58,0,200,59,0,600,60,0,600,61,0,600*41
$PAIRDGP,10,5,10,12,15,18,23,24,25,28,32*45
$GNGGA,115123.200,2500.8241408,N,12132.4584571,E,2,63,0.45,15.551,M,15.25,M,6,3335*4D
$GNRMC,115123.200,A,2500.8241408,N,12132.4584571,E,0.03,222.33,260623,,,D,V*03
$GPHDT,90.425,T*0F
$GNACCURACY,2.2*16
$GNGGA,115123.300,2500.8241348,N,12132.4584571,E,2,62,0.45,15.534,M,15.25,M,6,3335*4D
$GNRMC,115123.300,A,2500.8241348,N,12132.4584571,E,0.02,222.33,260623,,,D,V*00
$GPHDT,,T*1B
$GNACCURACY,2.2*16
$GNGGA,115123.400,2500.8241288,N,12132.4584511,E,2,63,0.45,15.520,M,15.25,M,6,3335*45
$GNRMC,115123.400,A,2500.8241288,N,12132.4584511,E,0.03,222.33,260623,,,D,V*0D
$GPHDT,89.923,T*0C
$GNACCURACY,2.2*16
$GNGGA,115123.500,2500.8241228,N,12132.4584571,E,2,62,0.45,15.505,M,15.25,M,6,3335*4E
$GNRMC,115123.500,A,2500.8241228,N,12132.4584571,E,0.02,222.33,260623,,,D,V*01
$GPHDT,,T*1B
$GNACCURACY,2.2*16
$GNGGA,115123.600,2500.8241168,N,12132.4584511,E,2,64,0.45,15.490,M,15.25,M,6,3335*47
$GNRMC,115123.600,A,2500.8241168,N,12132.4584511,E,0.02,222.33,260623,,,D,V*03
$GPHDT,90.233,T*0E
$GNACCURACY,2.2*16
$GNGGA,115123.700,2500.8241108,N,12132.4584511,E,2,65,0.45,15.472,M,15.25,M,6,3335*4D
$GNRMC,115123.700,A,2500.8241108,N,12132.4584511,E,0.02,222.33,260623,,,D,V*04
$GPHDT,,T*1B
$GNACCURACY,2.3*17
$GNGGA,115123.800,2500.8241048,N,12132.4584511,E,2,66,0.45,15.459,M,15.25,M,6,3335*4D
$GNRMC,115123.800,A,2500.8241048,N,12132.4584511,E,0.02,222.33,260623,,,D,V*0E
$GPHDT,89.630,T*01
$GNACCURACY,2.3*17
$GNGGA,115123.900,2500.8240988,N,12132.4584571,E,2,66,0.45,15.443,M,15.25,M,6,3335*45
$GNRMC,115123.900,A,2500.8240988,N,12132.4584571,E,0.02,222.33,260623,,,D,V*0D
$GPHDT,,T*1B
$GNACCURACY,2.3*17
$GNGGA,115124.000,2500.8240928,N,12132.4584511,E,2,66,0.45,15.428,M,15.25,M,7,3335*4B
$GNRMC,115124.000,A,2500.8240928,N,12132.4584511,E,0.02,222.33,260623,,,D,V*0F
$GPHDT,90.430,T*0B
$GNACCURACY,2.3*17
$GNGGA,115124.100,2500.8240928,N,12132.4584511,E,2,65,0.45,15.412,M,15.25,M,7,3335*40
$GNRMC,115124.100,A,2500.8240928,N,12132.4584511,E,0.02,222.33,260623,,,D,V*0E
$GPHDT,,T*1B
$GNGSA,A,3,196,24,23,199,18,194,15,195,12,10,25,32,0.81,0.45,0.68,1*07
$GNGSA,A,3,73,80,86,71,85,,,,,,,,0.81,0.45,0.68,2*0D
$GNGSA,A,3,13,07,08,26,30,02,15,,,,,,0.81,0.45,0.68,3*09
$GNGSA,A,3,08,38,13,39,16,06,46,19,09,36,20,35,0.81,0.45,0.68,4*0A
$GNGSA,A,3,22,37,29,,,,,,,,,,0.81,0.45,0.68,4*0D
$GPGSV,4,1,16,196,76,073,20,24,62,034,35,23,61,346,29,199,60,167,37,1*63
$GPGSV,4,2,16,18,51,227,40,41,38,242,33,194,35,136,38,15,31,058,29,1*54
$GPGSV,4,3,16,195,30,179,35,12,28,132,28,10,27,323,45,25,17,170,19,1*58
$GPGSV,4,4,16,32,14,279,32,05,11,127,18,28,03,222,,13,02,065,,1*6A
$GPGSV,3,1,10,196,76,073,35,24,62,034,34,23,61,346,28,199,60,167,48,8*67
$GPGSV,3,2,10,18,51,227,43,194,35,136,36,195,30,179,38,10,27,323,45,8*66
$GPGSV,3,3,10,25,17,170,26,32,14,279,31,8*65
$GLGSV,2,1,08,73,52,151,40,80,45,056,19,70,42,027,,86,28,287,38,1*75
$GLGSV,2,2,08,71,27,326,36,85,26,234,26,69,09,086,,79,02,026,15,1*7D
$GAGSV,3,1,09,13,48,221,35,07,46,315,40,08,43,036,29,26,35,296,41,7*7C
$GAGSV,3,2,09,30,33,136,38,02,27,075,17,15,14,173,22,27,08,184,,7*70
$GAGSV,3,3,09,03,06,072,16,7*4D
$GAGSV,2,1,07,13,48,221,39,07,46,315,46,08,43,036,29,26,35,296,41,1*7F
$GAGSV,2,2,07,30,33,136,39,02,27,075,17,03,06,072,16,1*4B
$GBGSV,4,1,15,08,85,346,38,38,81,156,46,13,72,322,42,39,68,297,44,1*70
$GBGSV,4,2,15,16,65,272,40,06,64,268,38,46,62,088,31,19,54,359,25,1*75
$GBGSV,4,3,15,09,50,248,31,36,46,183,46,20,40,076,31,35,17,258,38,1*7B
$GBGSV,4,4,15,22,17,309,31,37,16,042,24,29,12,205,23,1*41
$GBGSV,3,1,10,38,81,156,44,39,68,297,46,46,62,088,38,19,54,359,32,4*70
$GBGSV,3,2,10,36,46,183,46,20,40,076,36,22,17,309,34,35,17,258,40,4*7E
$GBGSV,3,3,10,37,16,042,25,29,12,205,15,4*7B
$GNACCURACY,2.3*17
$PAIRSAT,1,35,1,0,200,2,0,200,3,0,200,4,0,200,5,0,201,6,0,200,7,0,200,8,0,200,9,0,200,10,0,221,11,0,200,12,0,201,13,0,201,14,0,200,15,0,201,16,0,200,17,0,200,18,0,221,19,0,200,20,0,200,21,0,200,23,0,221,24,0,221,25,0,220,26,0,200,27,0,200,28,0,200,29,0,200,30,0,200,31,0,200,32,0,221,194,0,621,195,0,621,196,0,620,199,0,621*6A
$PAIRSAT,2,24,65,0,200,66,0,200,67,0,200,68,0,200,69,0,200,70,0,200,71,0,201,72,0,200,73,0,201,74,0,200,75,0,200,76,0,200,77,0,200,78,0,200,79,0,201,80,0,201,81,0,200,82,0,200,83,0,200,84,0,200,85,0,201,86,0,201,87,0,200,88,0,200*7A
$PAIRSAT,3,23,2,0,1221,3,0,1221,4,0,1200,5,0,200,7,0,1221,8,0,1221,9,0,1200,10,0,1200,11,0,1200,12,0,1200,13,0,1221,15,0,1221,19,0,1200,21,0,1200,24,0,1200,25,0,1200,26,0,1221,27,0,1200,30,0,1221,31,0,1200,33,0,1200,34,0,1200,36,0,1200*6A
$PAIRSAT,4,50,1,0,200,2,0,200,3,0,200,4,0,200,5,0,200,6,0,201,7,0,200,8,0,201,9,0,201,10,0,200,11,0,200,12,0,200,13,0,201,14,0,200,15,0,200,16,0,201,19,0,621,20,0,621,21,0,600,22,0,621,23,0,600,24,0,600,25,0,600,26,0,600,27,0,600,28,0,600,29,0,621,30,0,600,31,0,200,32,0,600,33,0,600,34,0,600,35,0,621,36,0,621,37,0,621,38,0,621,39,0,621,40,0,600,41,0,600,42,0,600,43,0,600,44,0,600,45,0,600,46,0,621,56,0,200,57,0,200,58,0,200,59,0,600,60,0,600,61,0,600*41
$PAIRDGP,10,5,10,12,15,18,23,24,25,28,32*45
$GNGGA,115124.200,2500.8240868,N,12132.4584511,E,2,65,0.45,15.398,M,15.25,M,7,3335*43
$GNRMC,115124.200,A,2500.8240868,N,12132.4584511,E,0.02,222.33,260623,,,D,V*08
$GPHDT,90.411,T*08
$GNACCURACY,2.3*17
$GNGGA,115124.300,2500.8240808,N,12132.4584511,E,2,64,0.45,15.384,M,15.25,M,7,3335*48
$GNRMC,115124.300,A,2500.8240808,N,12132.4584511,E,0.02,222.33,260623,,,D,V*0F
$GPHDT,,T*1B
$GNACCURACY,2.3*17
$GNGGA,115124.400,2500.8240748,N,12132.4584511,E,2,64,0.45,15.369,M,15.25,M,7,3335*47
$GNRMC,115124.400,A,2500.8240748,N,12132.4584511,E,0.02,222.33,260623,,,D,V*03
$GPHDT,90.372,T*0A
$GNACCURACY,2.3*17
$GNGGA,115124.500,2500.8240748,N,12132.4584511,E,2,64,0.45,15.353,M,15.25,M,7,3335*4F
$GNRMC,115124.500,A,2500.8240748,N,12132.4584511,E,0.02,222.33,260623,,,D,V*02
$GPHDT,,T*1B
$GNACCURACY,2.3*17
$GNGGA,115124.600,2500.8240688,N,12132.4584571,E,2,65,0.45,15.331,M,15.25,M,7,3335*42
$GNRMC,115124.600,A,2500.8240688,N,12132.4584571,E,0.02,222.33,260623,,,D,V*0A
$GPHDT,90.595,T*05
$GNACCURACY,2.3*17
$GNGGA,115124.700,2500.8240628,N,12132.4584571,E,2,66,0.45,15.315,M,15.25,M,7,3335*4C
$GNRMC,115124.700,A,2500.8240628,N,12132.4584571,E,0.00,222.33,260623,,,D,V*03
$GPHDT,,T*1B
$GNACCURACY,2.3*17
$GNGGA,115124.800,2500.8240628,N,12132.4584571,E,2,65,0.45,15.301,M,15.25,M,7,3335*45
$GNRMC,115124.800,A,2500.8240628,N,12132.4584571,E,0.00,222.33,260623,,,D,V*0C
$GPHDT,90.878,T*0B
$GNACCURACY,2.3*17
$GNGGA,115124.900,2500.8240568,N,12132.4584571,E,2,65,0.45,15.283,M,15.25,M,7,3335*48
$GNRMC,115124.900,A,2500.8240568,N,12132.4584571,E,0.00,222.33,260623,,,D,V*0A
$GPHDT,,T*1B
$GNACCURACY,2.3*17
$GNGGA,115125.000,2500.8240508,N,12132.4584571,E,2,66,0.45,15.265,M,15.25,M,8,3335*42
$GNRMC,115125.000,A,2500.8240508,N,12132.4584571,E,0.00,222.33,260623,,,D,V*04
$GPHDT,90.897,T*0A
$GNACCURACY,2.2*16
$GNGGA,115125.100,2500.8240508,N,12132.4584571,E,2,66,0.45,15.250,M,15.25,M,8,3335*45
$GNRMC,115125.100,A,2500.8240508,N,12132.4584571,E,0.00,222.33,260623,,,D,V*05
$GPHDT,,T*1B
$GNGSA,A,3,196,24,23,199,18,194,15,195,12,10,25,32,0.81,0.45,0.68,1*07
$GNGSA,A,3,73,80,86,71,85,,,,,,,,0.81,0.45,0.68,2*0D
$GNGSA,A,3,13,07,08,26,30,02,15,,,,,,0.81,0.45,0.68,3*09
$GNGSA,A,3,08,38,13,39,16,06,46,19,09,36,20,35,0.81,0.45,0.68,4*0A
$GNGSA,A,3,22,37,29,,,,,,,,,,0.81,0.45,0.68,4*0D
$GPGSV,4,1,16,196,76,073,21,24,62,034,35,23,61,346,27,199,60,167,38,1*63
$GPGSV,4,2,16,18,51,227,37,41,38,242,34,194,35,136,35,15,31,058,24,1*53
$GPGSV,4,3,16,195,30,179,37,12,28,132,35,10,27,323,45,25,17,170,19,1*56
$GPGSV,4,4,16,32,14,279,35,05,11,127,19,28,03,222,,13,02,065,,1*6C
$GPGSV,3,1,10,196,76,073,33,24,62,034,35,23,61,346,29,199,60,167,48,8*61
$GPGSV,3,2,10,18,51,227,42,194,35,136,36,195,30,179,38,10,27,323,44,8*66
$GPGSV,3,3,10,25,17,170,25,32,14,279,30,8*67
$GLGSV,2,1,08,73,52,151,38,80,45,056,18,70,42,027,,86,28,287,39,1*7A
$GLGSV,2,2,08,71,27,326,34,85,26,234,24,69,09,086,,79,02,026,13,1*7B
$GAGSV,3,1,09,13,48,221,36,07,46,315,40,08,43,036,29,26,35,296,41,7*7F
$GAGSV,3,2,09,30,33,136,35,02,27,075,17,15,14,173,22,27,08,184,,7*7D
$GAGSV,3,3,09,03,06,072,15,7*4E
$GAGSV,2,1,08,13,48,221,40,07,46,315,46,08,43,036,29,26,35,296,42,1*7D
$GAGSV,2,2,08,30,33,136,40,02,27,075,18,15,14,173,22,03,06,072,17,1*70
$GBGSV,4,1,15,08,85,346,38,38,81,156,46,13,72,322,42,39,68,297,44,1*70
$GBGSV,4,2,15,16,65,272,41,06,64,268,40,46,62,088,29,19,54,359,24,1*73
$GBGSV,4,3,15,09,50,248,37,36,46,183,46,20,40,076,31,35,17,258,37,1*72
$GBGSV,4,4,15,22,17,309,30,37,16,042,24,29,12,205,23,1*40
$GBGSV,3,1,10,38,81,156,44,39,68,297,46,46,62,088,38,19,54,359,32,4*70
$GBGSV,3,2,10,36,46,183,46,20,40,076,36,22,17,309,35,35,17,258,40,4*7F
$GBGSV,3,3,10,37,16,042,26,29,12,205,16,4*7B
$GNACCURACY,2.2*16
$PAIRSAT,1,35,1,0,200,2,0,200,3,0,200,4,0,200,5,0,201,6,0,200,7,0,200,8,0,200,9,0,200,10,0,221,11,0,200,12,0,201,13,0,201,14,0,200,15,0,201,16,0,200,17,0,200,18,0,221,19,0,200,20,0,200,21,0,200,23,0,221,24,0,221,25,0,220,26,0,200,27,0,200,28,0,200,29,0,200,30,0,200,31,0,200,32,0,221,194,0,621,195,0,621,196,0,620,199,0,621*6A
$PAIRSAT,2,24,65,0,200,66,0,200,67,0,200,68,0,200,69,0,200,70,0,200,71,0,201,72,0,200,73,0,201,74,0,200,75,0,200,76,0,200,77,0,200,78,0,200,79,0,201,80,0,201,81,0,200,82,0,200,83,0,200,84,0,200,85,0,201,86,0,201,87,0,200,88,0,200*7A
$PAIRSAT,3,23,2,0,1221,3,0,1221,4,0,1200,5,0,200,7,0,1221,8,0,1221,9,0,1200,10,0,1200,11,0,1200,12,0,1200,13,0,1221,15,0,1221,19,0,1200,21,0,1200,24,0,1200,25,0,1200,26,0,1221,27,0,1200,30,0,1221,31,0,1200,33,0,1200,34,0,1200,36,0,1200*6A
$PAIRSAT,4,50,1,0,200,2,0,200,3,0,200,4,0,200,5,0,200,6,0,201,7,0,200,8,0,201,9,0,201,10,0,200,11,0,200,12,0,200,13,0,201,14,0,200,15,0,200,16,0,201,19,0,621,20,0,621,21,0,600,22,0,621,23,0,600,24,0,600,25,0,600,26,0,600,27,0,600,28,0,600,29,0,621,30,0,600,31,0,200,32,0,600,33,0,600,34,0,600,35,0,621,36,0,621,37,0,621,38,0,621,39,0,621,40,0,600,41,0,600,42,0,600,43,0,600,44,0,600,45,0,600,46,0,621,56,0,200,57,0,200,58,0,200,59,0,600,60,0,600,61,0,600*41
$PAIRDGP,10,5,10,12,15,18,23,24,25,28,32*45
$GNGGA,115125.200,2500.8240448,N,12132.4584571,E,2,66,0.45,15.235,M,15.25,M,8,3335*40
$GNRMC,115125.200,A,2500.8240448,N,12132.4584571,E,0.00,222.33,260623,,,D,V*03
$GPHDT,90.930,T*06
$GNACCURACY,2.2*16
$GNGGA,115125.300,2500.8240328,N,12132.4584571,E,2,66,0.45,15.222,M,15.25,M,8,3335*46
$GNRMC,115125.300,A,2500.8240328,N,12132.4584571,E,0.00,222.33,260623,,,D,V*03
$GPHDT,,T*1B
$GNACCURACY,2.2*16
$GNGGA,115125.400,2500.8240268,N,12132.4584571,E,2,64,0.45,15.205,M,15.25,M,8,3335*43
$GNRMC,115125.400,A,2500.8240268,N,12132.4584571,E,0.00,222.33,260623,,,D,V*01
$GPHDT,90.727,T*0E
$GNACCURACY,2.3*17
$GNGGA,115125.500,2500.8240268,N,12132.4584571,E,2,64,0.45,15.188,M,15.25,M,8,3335*44
$GNRMC,115125.500,A,2500.8240268,N,12132.4584571,E,0.00,222.33,260623,,,D,V*00
$GPHDT,,T*1B
$GNACCURACY,2.3*17
$GNGGA,115125.600,2500.8240208,N,12132.4584571,E,2,64,0.45,15.171,M,15.25,M,8,3335*47
$GNRMC,115125.600,A,2500.8240208,N,12132.4584571,E,0.00,222.33,260623,,,D,V*05
$GPHDT,89.434,T*07
$GNACCURACY,2.3*17
$GNGGA,115125.700,2500.8240148,N,12132.4584571,E,2,64,0.45,15.155,M,15.25,M,8,3335*47
$GNRMC,115125.700,A,2500.8240148,N,12132.4584571,E,0.00,222.33,260623,,,D,V*03
$GPHDT,,T*1B
$GNACCURACY,2.3*17
$GNGGA,115125.800,2500.8240088,N,12132.4584571,E,2,64,0.45,15.138,M,15.25,M,8,3335*4E
$GNRMC,115125.800,A,2500.8240088,N,12132.4584571,E,0.00,222.33,260623,,,D,V*01
$GPHDT,89.157,T*07
$GNACCURACY,2.3*17
$GNGGA,115125.900,2500.8240028,N,12132.4584571,E,2,63,0.45,15.121,M,15.25,M,8,3335*4A
$GNRMC,115125.900,A,2500.8240028,N,12132.4584571,E,0.00,222.33,260623,,,D,V*0A
$GPHDT,,T*1B
$GNACCURACY,2.3*17
$GNGGA,115126.000,2500.8240028,N,12132.4584511,E,2,64,0.45,15.106,M,15.25,M,9,3335*45
$GNRMC,115126.000,A,2500.8240028,N,12132.4584511,E,0.00,222.33,260623,,,D,V*06
$GPHDT,89.343,T*00
$GNACCURACY,2.3*17
$GNGGA,115126.100,2500.8239968,N,12132.4584511,E,2,65,0.45,15.088,M,15.25,M,9,3335*41
$GNRMC,115126.100,A,2500.8239968,N,12132.4584511,E,0.00,222.33,260623,,,D,V*04
$GPHDT,,T*1B
$GNGSA,A,3,196,24,23,199,18,194,195,12,10,25,32,,0.83,0.45,0.69,1*00
$GNGSA,A,3,73,80,86,71,85,,,,,,,,0.83,0.45,0.69,2*0E
$GNGSA,A,3,13,07,08,26,30,02,15,,,,,,0.83,0.45,0.69,3*0A
$GNGSA,A,3,08,38,13,39,16,06,46,19,09,36,20,22,0.83,0.45,0.69,4*0F
$GNGSA,A,3,35,37,29,,,,,,,,,,0.83,0.45,0.69,4*08
$GPGSV,4,1,16,196,76,073,23,24,62,034,36,23,61,346,27,199,60,167,38,1*62
$GPGSV,4,2,16,18,51,227,36,41,38,242,41,194,35,136,38,15,31,058,23,1*5A
$GPGSV,4,3,16,195,30,179,36,12,28,132,35,10,27,323,45,25,17,170,20,1*5D
$GPGSV,4,4,16,32,14,279,38,05,11,127,17,28,03,222,,13,02,065,,1*6F
$GPGSV,3,1,10,196,76,073,32,24,62,034,35,23,61,346,30,199,60,167,48,8*68
$GPGSV,3,2,10,18,51,227,41,194,35,136,33,195,30,179,37,10,27,323,44,8*6F
$GPGSV,3,3,10,25,17,170,22,32,14,279,28,8*69
$GLGSV,2,1,06,73,52,151,39,80,45,056,17,86,28,287,38,71,27,326,35,1*7D
$GLGSV,2,2,06,85,26,234,24,79,02,026,14,1*79
$GAGSV,3,1,09,13,48,221,34,07,46,315,40,08,43,036,29,26,35,296,40,7*7C
$GAGSV,3,2,09,30,33,136,36,02,27,075,18,15,14,173,22,27,08,184,,7*71
$GAGSV,3,3,09,03,06,072,15,7*4E
$GAGSV,2,1,08,13,48,221,40,07,46,315,46,08,43,036,29,26,35,296,42,1*7D
$GAGSV,2,2,08,30,33,136,38,02,27,075,15,15,14,173,22,03,06,072,15,1*70
$GBGSV,4,1,15,08,85,346,38,38,81,156,46,13,72,322,42,39,68,297,44,1*70
$GBGSV,4,2,15,16,65,272,41,06,64,268,40,46,62,088,32,19,54,359,22,1*7F
$GBGSV,4,3,15,09,50,248,40,36,46,183,45,20,40,076,32,22,17,309,32,1*74
$GBGSV,4,4,15,35,17,258,35,37,16,042,17,29,12,205,23,1*46
$GBGSV,3,1,10,38,81,156,44,39,68,297,46,46,62,088,38,19,54,359,32,4*70
$GBGSV,3,2,10,36,46,183,42,20,40,076,36,22,17,309,36,35,17,258,40,4*78
$GBGSV,3,3,10,37,16,042,27,29,12,205,15,4*79
$GNACCURACY,2.3*17
$PAIRSAT,1,35,1,0,200,2,0,200,3,0,200,4,0,200,5,0,201,6,0,200,7,0,200,8,0,200,9,0,200,10,0,221,11,0,200,12,0,201,13,0,201,14,0,200,15,0,201,16,0,200,17,0,200,18,0,221,19,0,200,20,0,200,21,0,200,23,0,221,24,0,221,25,0,220,26,0,200,27,0,200,28,0,200,29,0,200,30,0,200,31,0,200,32,0,221,194,0,621,195,0,621,196,0,620,199,0,621*6A
$PAIRSAT,2,24,65,0,200,66,0,200,67,0,200,68,0,200,69,0,200,70,0,200,71,0,201,72,0,200,73,0,201,74,0,200,75,0,200,76,0,200,77,0,200,78,0,200,79,0,201,80,0,201,81,0,200,82,0,200,83,0,200,84,0,200,85,0,201,86,0,201,87,0,200,88,0,200*7A
$PAIRSAT,3,23,2,0,1221,3,0,1221,4,0,1200,5,0,200,7,0,1221,8,0,1221,9,0,1200,10,0,1200,11,0,1200,12,0,1200,13,0,1221,15,0,1221,19,0,1200,21,0,1200,24,0,1200,25,0,1200,26,0,1221,27,0,1200,30,0,1221,31,0,1200,33,0,1200,34,0,1200,36,0,1200*6A
$PAIRSAT,4,50,1,0,200,2,0,200,3,0,200,4,0,200,5,0,200,6,0,201,7,0,200,8,0,201,9,0,201,10,0,200,11,0,200,12,0,200,13,0,201,14,0,200,15,0,200,16,0,201,19,0,621,20,0,621,21,0,600,22,0,621,23,0,600,24,0,600,25,0,600,26,0,600,27,0,600,28,0,600,29,0,621,30,0,600,31,0,200,32,0,600,33,0,600,34,0,600,35,0,621,36,0,621,37,0,621,38,0,621,39,0,621,40,0,600,41,0,600,42,0,600,43,0,600,44,0,600,45,0,600,46,0,621,56,0,200,57,0,200,58,0,200,59,0,600,60,0,600,61,0,600*41
$PAIRDGP,10,5,10,12,15,18,23,24,25,28,32*45
$GNGGA,115126.200,2500.8239908,N,12132.4584511,E,2,65,0.45,15.070,M,15.25,M,9,3335*43
$GNRMC,115126.200,A,2500.8239908,N,12132.4584511,E,0.00,222.33,260623,,,D,V*01
$GPHDT,89.311,T*07
$GNACCURACY,2.3*17
$GNGGA,115126.300,2500.8239908,N,12132.4584511,E,2,65,0.45,15.053,M,15.25,M,9,3335*43
$GNRMC,115126.300,A,2500.8239908,N,12132.4584511,E,0.00,222.33,260623,,,D,V*00
$GPHDT,,T*1B
$GNACCURACY,2.3*17
$GNGGA,115126.400,2500.8239848,N,12132.4584571,E,2,64,0.45,15.035,M,15.25,M,9,3335*46
$GNRMC,115126.400,A,2500.8239848,N,12132.4584571,E,0.00,222.33,260623,,,D,V*04
$GPHDT,89.420,T*02
$GNACCURACY,2.3*17
$GNGGA,115126.500,2500.8239788,N,12132.4584571,E,2,64,0.45,15.017,M,15.25,M,9,3335*44
$GNRMC,115126.500,A,2500.8239788,N,12132.4584571,E,0.00,222.33,260623,,,D,V*06
$GPHDT,,T*1B
$GNACCURACY,2.3*17
$GNGGA,115126.600,2500.8239728,N,12132.4584571,E,2,64,0.45,15.000,M,15.25,M,9,3335*4B
$GNRMC,115126.600,A,2500.8239728,N,12132.4584571,E,0.00,222.33,260623,,,D,V*0F
$GPHDT,89.199,T*05
$GNACCURACY,2.3*17
$GNGGA,115126.700,2500.8239728,N,12132.4584571,E,2,64,0.45,14.982,M,15.25,M,9,3335*48
$GNRMC,115126.700,A,2500.8239728,N,12132.4584571,E,0.00,222.33,260623,,,D,V*0E
$GPHDT,,T*1B
$GNACCURACY,2.3*17
$GNGGA,115126.800,2500.8239668,N,12132.4584571,E,2,64,0.45,14.967,M,15.25,M,9,3335*49
$GNRMC,115126.800,A,2500.8239668,N,12132.4584571,E,0.00,222.33,260623,,,D,V*04
$GPHDT,89.348,T*0B
$GNACCURACY,2.3*17
$GNGGA,115126.900,2500.8239608,N,12132.4584571,E,2,64,0.45,14.950,M,15.25,M,9,3335*4A
$GNRMC,115126.900,A,2500.8239608,N,12132.4584571,E,0.00,222.33,260623,,,D,V*03
$GPHDT,,T*1B
$GNACCURACY,2.3*17
$GNGGA,115127.000,2500.8239548,N,12132.4584631,E,2,64,0.45,14.930,M,15.25,M,10,3335*7C
$GNRMC,115127.000,A,2500.8239548,N,12132.4584631,E,0.00,222.33,260623,,,D,V*0B
$GPHDT,89.195,T*09
$GNACCURACY,2.3*17
$GNGGA,115127.100,2500.8239488,N,12132.4584571,E,2,64,0.45,14.913,M,15.25,M,10,3335*76
$GNRMC,115127.100,A,2500.8239488,N,12132.4584571,E,0.00,222.33,260623,,,D,V*00
$GPHDT,,T*1B
$GNGSA,A,3,196,24,23,199,18,194,195,12,10,25,32,,0.83,0.45,0.69,1*00
$GNGSA,A,3,73,80,86,71,85,,,,,,,,0.83,0.45,0.69,2*0E
$GNGSA,A,3,13,07,08,26,30,02,15,,,,,,0.83,0.45,0.69,3*0A
$GNGSA,A,3,08,38,13,39,16,06,46,19,09,36,20,22,0.83,0.45,0.69,4*0F
$GNGSA,A,3,35,37,29,,,,,,,,,,0.83,0.45,0.69,4*08
$GPGSV,4,1,15,196,76,073,24,24,62,034,36,23,61,346,27,199,60,167,38,1*66
$GPGSV,4,2,15,18,51,227,37,41,38,242,42,194,35,136,39,15,31,058,21,1*58
$GPGSV,4,3,15,195,30,179,36,12,28,132,37,10,27,323,45,25,17,170,21,1*5D
$GPGSV,4,4,15,32,14,279,38,05,11,127,17,13,02,065,,1*57
$GPGSV,3,1,10,196,76,073,32,24,62,034,34,23,61,346,30,199,60,167,47,8*66
$GPGSV,3,2,10,18,51,227,40,194,35,136,32,195,30,179,37,10,27,323,44,8*6F
$GPGSV,3,3,10,25,17,170,20,32,14,279,29,8*6A
$GLGSV,2,1,06,73,52,151,39,80,45,056,16,86,28,287,37,71,27,326,35,1*73
$GLGSV,2,2,06,85,26,234,25,79,02,026,15,1*79
$GAGSV,3,1,09,13,48,221,34,07,46,315,40,08,43,036,29,26,35,296,40,7*7C
$GAGSV,3,2,09,30,33,136,37,02,27,075,18,15,14,173,20,27,08,184,,7*72
$GAGSV,3,3,09,03,06,072,15,7*4E
$GAGSV,2,1,07,13,48,221,40,07,46,315,46,08,43,036,28,26,35,296,42,1*73
$GAGSV,2,2,07,30,33,136,37,02,27,075,12,03,06,072,13,1*45
$GBGSV,4,1,15,08,85,345,38,38,81,156,46,13,72,322,42,39,68,297,44,1*73
$GBGSV,4,2,15,16,65,272,42,06,64,268,40,46,62,088,32,19,54,359,20,1*7E
$GBGSV,4,3,15,09,50,248,40,36,46,183,45,20,40,076,32,22,17,309,32,1*74
$GBGSV,4,4,15,35,17,258,36,37,16,042,16,29,12,205,23,1*44
$GBGSV,3,1,10,38,81,156,44,39,68,297,46,46,62,088,37,19,54,359,31,4*7C
$GBGSV,3,2,10,36,46,183,42,20,40,076,36,22,17,309,35,35,17,258,40,4*7B
$GBGSV,3,3,10,37,16,042,27,29,12,205,13,4*7F
$GNACCURACY,2.3*17
$PAIRSAT,1,35,1,0,200,2,0,200,3,0,200,4,0,200,5,0,201,6,0,200,7,0,200,8,0,200,9,0,200,10,0,221,11,0,200,12,0,201,13,0,201,14,0,200,15,0,201,16,0,200,17,0,200,18,0,221,19,0,200,20,0,200,21,0,200,23,0,221,24,0,221,25,0,220,26,0,200,27,0,200,28,0,200,29,0,200,30,0,200,31,0,200,32,0,221,194,0,621,195,0,621,196,0,620,199,0,621*6A
$PAIRSAT,2,24,65,0,200,66,0,200,67,0,200,68,0,200,69,0,200,70,0,200,71,0,201,72,0,200,73,0,201,74,0,200,75,0,200,76,0,200,77,0,200,78,0,200,79,0,201,80,0,201,81,0,200,82,0,200,83,0,200,84,0,200,85,0,201,86,0,201,87,0,200,88,0,200*7A
$PAIRSAT,3,23,2,0,1221,3,0,1221,4,0,1200,5,0,200,7,0,1221,8,0,1221,9,0,1200,10,0,1200,11,0,1200,12,0,1200,13,0,1221,15,0,1221,19,0,1200,21,0,1200,24,0,1200,25,0,1200,26,0,1221,27,0,1200,30,0,1221,31,0,1200,33,0,1200,34,0,1200,36,0,1200*6A
$PAIRSAT,4,50,1,0,200,2,0,200,3,0,200,4,0,200,5,0,200,6,0,201,7,0,200,8,0,201,9,0,201,10,0,200,11,0,200,12,0,200,13,0,201,14,0,200,15,0,200,16,0,201,19,0,621,20,0,621,21,0,600,22,0,621,23,0,600,24,0,600,25,0,600,26,0,600,27,0,600,28,0,600,29,0,621,30,0,600,31,0,200,32,0,600,33,0,600,34,0,600,35,0,621,36,0,621,37,0,621,38,0,621,39,0,621,40,0,600,41,0,600,42,0,600,43,0,600,44,0,600,45,0,600,46,0,621,56,0,200,57,0,200,58,0,200,59,0,600,60,0,600,61,0,600*41
$PAIRDGP,9,5,10,12,15,18,23,24,25,32*5B
$GNGGA,115127.200,2500.8239488,N,12132.4584571,E,2,64,0.45,14.896,M,15.25,M,10,3335*79
$GNRMC,115127.200,A,2500.8239488,N,12132.4584571,E,0.00,222.33,260623,,,D,V*03
$GPHDT,89.489,T*01
$GNACCURACY,2.3*17
$GNGGA,115127.300,2500.8239428,N,12132.4584571,E,2,64,0.45,14.878,M,15.25,M,10,3335*72
$GNRMC,115127.300,A,2500.8239428,N,12132.4584571,E,0.00,222.33,260623,,,D,V*08
$GPHDT,,T*1B
$GNACCURACY,2.3*17
$GNGGA,115127.400,2500.8239368,N,12132.4584571,E,2,64,0.45,14.860,M,15.25,M,10,3335*7F
$GNRMC,115127.400,A,2500.8239368,N,12132.4584571,E,0.00,222.33,260623,,,D,V*0C
$GPHDT,89.302,T*05
$GNACCURACY,2.3*17
$GNGGA,115127.500,2500.8239308,N,12132.4584631,E,2,64,0.45,14.845,M,15.25,M,10,3335*78
$GNRMC,115127.500,A,2500.8239308,N,12132.4584631,E,0.00,222.33,260623,,,D,V*0C
