$FW : RTK35X,V1.1X0314AS,Lib20210517,1*54
$Tool : LOCOSYS , GNSS Firebird , v1.0.0.19*39
$---------------------------------------------------*2D
$GPHDT,,T*1B
$GNGGA,103550.800,2500.7950500,N,12132.4779300,E,2,40,0.78,12.86,M,15.25,M,2,3335*7E
$GNRMC,103550.800,A,2500.7950500,N,12132.4779300,E,0.01,69.25,260623,,,D,V*3B
$GPHDT,,T*1B
$GNGSA,A,3,24,196,199,18,15,195,05,194,13,,,,1.50,0.78,1.28,1*03
$GNGSA,A,3,79,69,,,,,,,,,,,1.50,0.78,1.28,2*03
$GNGSA,A,3,13,08,15,03,,,,,,,,,1.50,0.78,1.28,3*0E
$GNGSA,A,3,38,39,16,06,13,20,09,46,29,37,,,1.50,0.78,1.28,4*00
$GPGSV,3,1,11,24,75,161,44,196,73,053,38,199,60,167,38,18,57,297,31,1*6A
$GPGSV,3,2,11,15,49,021,44,195,43,178,42,05,32,097,42,23,32,323,11,1*53
$GPGSV,3,3,11,194,23,144,27,13,23,042,42,20,12,115,,1*6A
$GPGSV,2,1,07,24,75,161,48,196,73,053,44,199,60,167,47,18,57,297,26,8*6C
$GPGSV,2,2,07,195,43,178,44,23,32,323,12,194,23,144,24,8*55
$GLGSV,1,1,03,85,46,283,21,79,24,054,34,69,21,048,33,1*40
$GAGSV,2,1,06,13,66,274,35,08,56,001,33,15,43,172,34,07,39,278,25,7*7E
$GAGSV,2,2,06,03,20,050,28,30,12,156,,7*79
$GAGSV,1,1,03,13,66,274,36,08,56,001,37,15,43,172,42,1*4F
$GBGSV,3,1,12,38,76,044,43,39,73,242,40,16,64,226,36,06,62,225,38,1*7E
$GBGSV,3,2,12,13,59,343,34,20,47,033,45,09,45,220,36,46,45,142,42,1*76
$GBGSV,3,3,12,19,40,320,,29,34,229,46,37,32,067,34,08,,,37,1*40
$GBGSV,2,1,06,38,76,044,45,39,73,242,40,20,47,033,40,46,45,142,40,4*76
$GBGSV,2,2,06,29,34,229,44,37,32,067,22,4*74
$GNGGA,103551.000,2500.7950500,N,12132.4779300,E,2,40,0.78,12.87,M,15.25,M,3,3335*77
$GNRMC,103551.000,A,2500.7950500,N,12132.4779300,E,0.01,69.25,260623,,,D,V*32
$GPHDT,,T*1B
$GNGGA,103551.200,2500.7950500,N,12132.4779300,E,2,40,0.78,12.87,M,15.25,M,3,3335*75
$GNRMC,103551.200,A,2500.7950500,N,12132.4779300,E,0.02,69.25,260623,,,D,V*33
$GPHDT,,T*1B
$GNGGA,103551.400,2500.7950500,N,12132.4779300,E,2,40,0.78,12.87,M,15.25,M,3,3335*73
$GNRMC,103551.400,A,2500.7950500,N,12132.4779300,E,0.02,69.25,260623,,,D,V*35
$GPHDT,,T*1B
$GNGGA,103551.600,2500.7950500,N,12132.4779300,E,2,40,0.78,12.88,M,15.25,M,3,3335*7E
$GNRMC,103551.600,A,2500.7950500,N,12132.4779300,E,0.02,69.25,260623,,,D,V*37
$GPHDT,,T*1B
$GNGGA,103551.800,2500.7950500,N,12132.4779300,E,2,40,0.78,12.89,M,15.25,M,3,3335*71
$GNRMC,103551.800,A,2500.7950500,N,12132.4779300,E,0.02,69.25,260623,,,D,V*39
$GPHDT,,T*1B
$GNGSA,A,3,24,196,199,18,15,195,05,194,13,,,,1.50,0.78,1.28,1*03
$GNGSA,A,3,79,69,,,,,,,,,,,1.50,0.78,1.28,2*03
$GNGSA,A,3,13,08,15,03,,,,,,,,,1.50,0.78,1.28,3*0E
$GNGSA,A,3,38,39,16,06,13,20,46,09,29,37,,,1.50,0.78,1.28,4*00
$GPGSV,3,1,11,24,75,161,44,196,73,053,38,199,60,167,38,18,57,297,29,1*63
$GPGSV,3,2,11,15,49,021,44,195,43,178,42,05,32,097,42,23,32,323,13,1*51
$GPGSV,3,3,11,194,23,144,26,13,23,042,42,20,12,115,,1*6B
$GPGSV,2,1,07,24,75,161,49,196,73,053,43,199,60,167,47,18,57,297,28,8*64
$GPGSV,2,2,07,195,43,178,44,23,32,323,12,194,23,144,25,8*54
$GLGSV,1,1,03,85,46,283,22,79,24,054,34,69,21,048,33,1*43
$GAGSV,2,1,06,13,66,274,34,08,56,001,34,15,43,172,34,07,39,278,24,7*79
$GAGSV,2,2,06,03,20,050,28,30,12,156,,7*79
$GAGSV,1,1,03,13,66,274,36,08,56,001,38,15,43,172,42,1*40
$GBGSV,3,1,11,38,76,044,42,39,73,242,40,16,64,226,37,06,62,225,38,1*7D
$GBGSV,3,2,11,13,59,343,34,20,47,033,45,46,45,142,42,09,45,220,37,1*74
$GBGSV,3,3,11,29,34,229,47,37,32,067,34,08,,,36,1*7E
$GBGSV,2,1,06,38,76,044,45,39,73,242,40,20,47,033,39,46,45,142,40,4*78
$GBGSV,2,2,06,29,34,229,44,37,32,067,23,4*75
$GNGGA,103552.000,2500.7950500,N,12132.4779300,E,2,40,0.78,12.90,M,15.25,M,4,3335*75
$GNRMC,103552.000,A,2500.7950500,N,12132.4779300,E,0.02,69.25,260623,,,D,V*32
$GPHDT,,T*1B
$GNGGA,103552.200,2500.7950500,N,12132.4779300,E,2,41,0.78,12.91,M,15.25,M,4,3335*77
$GNRMC,103552.200,A,2500.7950500,N,12132.4779300,E,0.01,69.25,260623,,,D,V*33
$GPHDT,,T*1B
$GNGGA,103552.400,2500.7950400,N,12132.4779300,E,2,41,0.78,12.92,M,15.25,M,4,3335*73
$GNRMC,103552.400,A,2500.7950400,N,12132.4779300,E,0.02,69.25,260623,,,D,V*37
$GPHDT,,T*1B
$GNGGA,103552.600,2500.7950400,N,12132.4779300,E,2,41,0.78,12.92,M,15.25,M,4,3335*71
$GNRMC,103552.600,A,2500.7950400,N,12132.4779300,E,0.02,69.25,260623,,,D,V*35
$GPHDT,,T*1B
$GNGGA,103552.800,2500.7950400,N,12132.4779300,E,2,41,0.78,12.93,M,15.25,M,4,3335*7E
$GNRMC,103552.800,A,2500.7950400,N,12132.4779300,E,0.02,69.25,260623,,,D,V*3B
$GPHDT,,T*1B
$GNGSA,A,3,24,196,199,18,15,195,05,194,13,,,,1.50,0.78,1.28,1*03
$GNGSA,A,3,79,69,,,,,,,,,,,1.50,0.78,1.28,2*03
$GNGSA,A,3,13,08,15,03,,,,,,,,,1.50,0.78,1.28,3*0E
$GNGSA,A,3,38,39,16,06,13,20,46,09,29,37,,,1.50,0.78,1.28,4*00
$GPGSV,3,1,11,24,75,161,44,196,73,053,39,199,60,167,38,18,57,297,29,1*62
$GPGSV,3,2,11,15,49,021,44,195,43,178,42,05,32,097,42,23,32,323,12,1*50
$GPGSV,3,3,11,194,23,144,28,13,23,042,42,20,12,115,,1*65
$GPGSV,2,1,06,24,75,161,49,196,73,053,43,199,60,167,47,18,57,297,28,8*65
$GPGSV,2,2,06,195,43,178,44,194,23,144,26,8*67
$GLGSV,1,1,03,85,46,283,22,79,24,054,34,69,21,048,33,1*43
$GAGSV,2,1,05,13,66,274,34,08,56,001,33,15,43,172,34,07,39,278,24,7*7D
$GAGSV,2,2,05,03,20,050,28,7*48
$GAGSV,1,1,04,13,66,274,36,08,56,001,39,15,43,172,42,03,20,050,24,1*74
$GBGSV,3,1,11,38,76,044,42,39,73,242,40,16,64,226,37,06,62,225,38,1*7D
$GBGSV,3,2,11,13,59,343,35,20,47,033,45,46,45,142,43,09,45,220,37,1*74
$GBGSV,3,3,11,29,34,229,47,37,32,067,35,08,,,36,1*7F
$GBGSV,2,1,06,38,76,044,45,39,73,242,40,20,47,033,39,46,45,142,39,4*76
$GBGSV,2,2,06,29,34,229,44,37,32,067,23,4*75
$GNGGA,103553.000,2500.7950400,N,12132.4779300,E,2,41,0.78,12.94,M,15.25,M,5,3335*71
$GNRMC,103553.000,A,2500.7950400,N,12132.4779300,E,0.02,69.25,260623,,,D,V*32
$GPHDT,,T*1B
$GNGGA,103553.200,2500.7950400,N,12132.4779300,E,2,41,0.78,12.95,M,15.25,M,5,3335*72
$GNRMC,103553.200,A,2500.7950400,N,12132.4779300,E,0.02,69.25,260623,,,D,V*30
$GPHDT,,T*1B
$GNGGA,103553.400,2500.7950400,N,12132.4779300,E,2,41,0.78,12.96,M,15.25,M,5,3335*77
$GNRMC,103553.400,A,2500.7950400,N,12132.4779300,E,0.02,69.25,260623,,,D,V*36
$GPHDT,,T*1B
$GNGGA,103553.600,2500.7950300,N,12132.4779300,E,2,41,0.78,12.97,M,15.25,M,5,3335*73
$GNRMC,103553.600,A,2500.7950300,N,12132.4779300,E,0.02,69.25,260623,,,D,V*33
$GPHDT,,T*1B
$GNGGA,103553.800,2500.7950300,N,12132.4779300,E,2,41,0.78,12.98,M,15.25,M,5,3335*72
$GNRMC,103553.800,A,2500.7950300,N,12132.4779300,E,0.02,69.25,260623,,,D,V*3D
$GPHDT,,T*1B
$GNGSA,A,3,24,196,199,18,15,195,05,194,13,,,,1.50,0.78,1.28,1*03
$GNGSA,A,3,79,69,,,,,,,,,,,1.50,0.78,1.28,2*03
$GNGSA,A,3,13,08,15,03,,,,,,,,,1.50,0.78,1.28,3*0E
$GNGSA,A,3,38,39,16,06,13,20,46,09,29,37,,,1.50,0.78,1.28,4*00
$GPGSV,3,1,11,24,75,161,44,196,73,053,41,199,60,167,38,18,57,296,29,1*6C
$GPGSV,3,2,11,15,49,021,44,195,43,178,42,05,32,097,38,23,32,323,12,1*5D
$GPGSV,3,3,11,194,23,144,29,13,23,042,43,20,12,115,,1*65
$GPGSV,2,1,06,24,75,161,49,196,73,053,45,199,60,167,46,18,57,296,29,8*62
$GPGSV,2,2,06,195,43,178,43,194,23,144,26,8*60
$GLGSV,1,1,03,85,46,283,22,79,24,054,34,69,21,048,34,1*44
$GAGSV,2,1,05,13,66,274,35,08,56,001,35,15,43,172,34,07,39,278,23,7*7D
$GAGSV,2,2,05,03,20,050,29,7*49
$GAGSV,1,1,04,13,66,274,36,08,56,001,34,15,43,172,42,03,20,050,25,1*78
$GBGSV,3,1,11,38,76,044,43,39,73,242,40,16,64,226,37,06,62,225,38,1*7C
$GBGSV,3,2,11,13,59,343,35,20,47,033,47,46,45,142,43,09,45,220,37,1*76
$GBGSV,3,3,11,29,34,229,47,37,32,067,34,08,,,34,1*7C
$GBGSV,2,1,06,38,76,044,46,39,73,242,40,20,47,033,44,46,45,142,39,4*7F
$GBGSV,2,2,06,29,34,229,44,37,32,067,21,4*77
$GNGGA,103554.000,2500.7950300,N,12132.4779300,E,2,41,0.78,12.99,M,15.25,M,6,3335*7F
$GNRMC,103554.000,A,2500.7950300,N,12132.4779300,E,0.02,69.25,260623,,,D,V*32
$GPHDT,,T*1B
$GNGGA,103554.200,2500.7950300,N,12132.4779200,E,2,41,0.78,12.99,M,15.25,M,6,3335*7C
$GNRMC,103554.200,A,2500.7950300,N,12132.4779200,E,0.00,69.25,260623,,,D,V*33
$GPHDT,,T*1B
$GNGGA,103554.400,2500.7950200,N,12132.4779200,E,2,40,0.78,13.00,M,15.25,M,6,3335*7B
$GNRMC,103554.400,A,2500.7950200,N,12132.4779200,E,0.00,69.25,260623,,,D,V*34
$GPHDT,,T*1B
$GNGGA,103554.600,2500.7950200,N,12132.4779200,E,2,41,0.78,13.00,M,15.25,M,6,3335*78
$GNRMC,103554.600,A,2500.7950200,N,12132.4779200,E,0.00,69.25,260623,,,D,V*36
$GPHDT,181.841,T*30
$GNGGA,103554.800,2500.7950200,N,12132.4779200,E,2,41,0.78,13.00,M,15.25,M,4,3335*74
$GNRMC,103554.800,A,2500.7950200,N,12132.4779200,E,0.00,69.25,260623,,,D,V*38
$GPHDT,181.433,T*39
$GNGSA,A,3,24,196,199,18,15,195,05,194,13,,,,1.50,0.78,1.28,1*03
$GNGSA,A,3,79,69,,,,,,,,,,,1.50,0.78,1.28,2*03
$GNGSA,A,3,13,08,15,03,,,,,,,,,1.50,0.78,1.28,3*0E
$GNGSA,A,3,38,39,16,06,13,20,46,09,29,37,,,1.50,0.78,1.28,4*00
$GPGSV,3,1,11,24,75,161,43,196,73,053,41,199,60,167,38,18,57,296,29,1*6B
$GPGSV,3,2,11,15,49,021,43,195,43,178,42,05,32,097,38,23,32,323,13,1*5B
$GPGSV,3,3,11,194,23,144,28,13,23,042,43,20,12,115,,1*64
$GPGSV,2,1,06,24,75,161,49,196,73,053,45,199,60,167,46,18,57,296,29,8*62
$GPGSV,2,2,06,195,43,178,43,194,23,144,26,8*60
$GLGSV,1,1,03,85,46,283,21,79,24,054,34,69,21,048,33,1*40
$GAGSV,2,1,05,13,66,274,35,08,56,001,34,15,43,172,35,07,39,278,22,7*7C
$GAGSV,2,2,05,03,20,050,29,7*49
$GAGSV,2,1,05,13,66,274,36,08,56,001,34,15,43,172,42,07,39,278,23,1*78
$GAGSV,2,2,05,03,20,050,25,1*43
$GBGSV,3,1,11,38,76,044,43,39,73,242,40,16,64,226,36,06,62,225,38,1*7D
$GBGSV,3,2,11,13,59,343,35,20,47,033,45,46,45,142,43,09,45,220,37,1*74
$GBGSV,3,3,11,29,34,229,47,37,32,067,33,08,,,35,1*7A
$GBGSV,2,1,06,38,76,044,46,39,73,242,40,20,47,033,44,46,45,142,39,4*7F
$GBGSV,2,2,06,29,34,229,44,37,32,067,26,4*70
$GNGGA,103555.000,2500.7950200,N,12132.4779200,E,2,41,0.78,13.00,M,15.25,M,4,3335*7D
$GNRMC,103555.000,A,2500.7950200,N,12132.4779200,E,0.00,69.25,260623,,,D,V*31
$GPHDT,181.331,T*3C
$GNGGA,103555.200,2500.7950200,N,12132.4779200,E,2,41,0.78,13.01,M,15.25,M,1,3335*7B
$GNRMC,103555.200,A,2500.7950200,N,12132.4779200,E,0.00,69.25,260623,,,D,V*33
$GPHDT,181.406,T*3F
$GNGGA,103555.400,2500.7950200,N,12132.4779200,E,2,41,0.78,13.01,M,15.25,M,1,3335*7D
$GNRMC,103555.400,A,2500.7950200,N,12132.4779200,E,0.00,69.25,260623,,,D,V*35
$GPHDT,181.379,T*30
$GNGGA,103555.600,2500.7950200,N,12132.4779200,E,2,41,0.78,13.02,M,15.25,M,1,3335*7C
$GNRMC,103555.600,A,2500.7950200,N,12132.4779200,E,0.00,69.25,260623,,,D,V*37
$GPHDT,181.349,T*33
$GNGGA,103555.800,2500.7950200,N,12132.4779200,E,2,41,0.78,13.02,M,15.25,M,1,3335*72
$GNRMC,103555.800,A,2500.7950200,N,12132.4779200,E,0.00,69.25,260623,,,D,V*39
$GPHDT,181.300,T*3E
$GNGSA,A,3,24,196,199,18,15,195,05,194,13,,,,1.50,0.78,1.28,1*03
$GNGSA,A,3,79,69,,,,,,,,,,,1.50,0.78,1.28,2*03
$GNGSA,A,3,13,08,15,03,,,,,,,,,1.50,0.78,1.28,3*0E
$GNGSA,A,3,38,39,16,06,13,20,46,09,29,37,,,1.50,0.78,1.28,4*00
$GPGSV,3,1,11,24,75,161,43,196,73,053,41,199,60,167,38,18,57,296,29,1*6B
$GPGSV,3,2,11,15,49,021,43,195,43,178,42,05,32,097,40,23,32,323,,1*56
$GPGSV,3,3,11,194,23,144,27,13,23,042,43,20,12,115,,1*6B
$GPGSV,2,1,06,24,75,161,49,196,73,053,45,199,60,167,46,18,57,296,29,8*62
$GPGSV,2,2,06,195,43,178,43,194,23,144,25,8*63
$GLGSV,1,1,03,85,46,283,21,79,24,054,35,69,21,048,35,1*47
$GAGSV,2,1,05,13,66,274,35,08,56,001,35,15,43,172,36,07,39,278,21,7*7D
$GAGSV,2,2,05,03,20,050,29,7*49
$GAGSV,2,1,05,13,66,274,36,08,56,001,34,15,43,172,42,07,39,278,22,1*79
$GAGSV,2,2,05,03,20,050,25,1*43
$GBGSV,3,1,11,38,76,044,43,39,73,242,40,16,64,226,36,06,62,225,38,1*7D
$GBGSV,3,2,11,13,59,343,35,20,47,033,45,46,45,142,43,09,45,220,37,1*74
$GBGSV,3,3,11,29,34,229,47,37,32,067,33,08,,,36,1*79
$GBGSV,2,1,06,38,76,044,46,39,73,242,40,20,47,033,43,46,45,142,39,4*78
$GBGSV,2,2,06,29,34,229,44,37,32,067,26,4*70
$GNGGA,103556.000,2500.7950200,N,12132.4779200,E,2,41,0.78,13.02,M,15.25,M,2,3335*7A
$GNRMC,103556.000,A,2500.7950200,N,12132.4779200,E,0.00,69.25,260623,,,D,V*32
$GPHDT,181.779,T*34
$GNGGA,103556.200,2500.7950200,N,12132.4779200,E,2,41,0.78,13.02,M,15.25,M,2,3335*78
$GNRMC,103556.200,A,2500.7950200,N,12132.4779200,E,0.00,69.25,260623,,,D,V*30
$GPHDT,181.789,T*3B
$GNGGA,103556.400,2500.7950100,N,12132.4779200,E,2,41,0.78,13.03,M,15.25,M,2,3335*7C
$GNRMC,103556.400,A,2500.7950100,N,12132.4779200,E,0.00,69.25,260623,,,D,V*35
$GPHDT,181.365,T*3D
$GNGGA,103556.600,2500.7950100,N,12132.4779200,E,2,41,0.78,13.03,M,15.25,M,2,3335*7E
$GNRMC,103556.600,A,2500.7950100,N,12132.4779200,E,0.00,69.25,260623,,,D,V*37
$GPHDT,181.813,T*37
$GNGGA,103556.800,2500.7950100,N,12132.4779200,E,2,41,0.78,13.03,M,15.25,M,2,3335*70
$GNRMC,103556.800,A,2500.7950100,N,12132.4779200,E,0.00,69.25,260623,,,D,V*39
$GPHDT,182.208,T*34
$GNGSA,A,3,24,196,199,18,15,195,05,194,13,,,,1.50,0.78,1.28,1*03
$GNGSA,A,3,79,69,,,,,,,,,,,1.50,0.78,1.28,2*03
$GNGSA,A,3,13,08,15,03,,,,,,,,,1.50,0.78,1.28,3*0E
$GNGSA,A,3,38,39,16,06,13,20,46,09,29,37,,,1.50,0.78,1.28,4*00
$GPGSV,3,1,11,24,75,161,43,196,73,053,41,199,60,167,38,18,57,296,29,1*6B
$GPGSV,3,2,11,15,49,021,43,195,43,178,42,05,32,097,27,23,32,323,,1*57
$GPGSV,3,3,11,194,23,144,26,13,23,042,43,20,12,115,,1*6A
$GPGSV,2,1,06,24,75,161,49,196,73,053,45,199,60,167,46,18,57,296,29,8*62
$GPGSV,2,2,06,195,43,178,43,194,23,144,24,8*62
$GLGSV,1,1,03,85,46,283,20,79,24,054,35,69,21,048,35,1*46
$GAGSV,2,1,05,13,66,274,34,08,56,001,35,15,43,172,36,07,39,278,21,7*7C
$GAGSV,2,2,05,03,20,050,29,7*49
$GAGSV,2,1,05,13,66,274,35,08,56,001,34,15,43,172,42,07,39,278,22,1*7A
$GAGSV,2,2,05,03,20,050,27,1*41
$GBGSV,3,1,11,38,76,044,43,39,73,242,40,16,64,226,36,06,62,225,38,1*7D
$GBGSV,3,2,11,13,59,343,35,20,47,033,45,46,45,142,43,09,45,220,37,1*74
$GBGSV,3,3,11,29,34,229,47,37,32,067,34,08,,,36,1*7E
$GBGSV,2,1,06,38,76,044,46,39,73,242,40,20,47,033,43,46,45,142,40,4*76
$GBGSV,2,2,06,29,34,229,44,37,32,067,26,4*70
$GNGGA,103557.000,2500.7950100,N,12132.4779200,E,2,41,0.78,13.04,M,15.25,M,3,3335*7F
$GNRMC,103557.000,A,2500.7950100,N,12132.4779200,E,0.00,69.25,260623,,,D,V*30
$GPHDT,182.256,T*3F
$GNGGA,103557.200,2500.7950100,N,12132.4779200,E,2,41,0.78,13.04,M,15.25,M,3,3335*7D
$GNRMC,103557.200,A,2500.7950100,N,12132.4779200,E,0.00,69.25,260623,,,D,V*32
$GPHDT,181.812,T*36
$GNGGA,103557.400,2500.7950100,N,12132.4779200,E,2,41,0.78,13.05,M,15.25,M,3,3335*7A
$GNRMC,103557.400,A,2500.7950100,N,12132.4779200,E,0.00,69.25,260623,,,D,V*34
$GPHDT,181.881,T*3C
$GNGGA,103557.600,2500.7950100,N,12132.4779100,E,2,41,0.78,13.05,M,15.25,M,3,3335*7B
$GNRMC,103557.600,A,2500.7950100,N,12132.4779100,E,0.00,69.25,260623,,,D,V*35
$GPHDT,181.870,T*32
$GNGGA,103557.800,2500.7950000,N,12132.4779100,E,2,41,0.78,13.05,M,15.25,M,3,3335*74
$GNRMC,103557.800,A,2500.7950000,N,12132.4779100,E,0.00,69.25,260623,,,D,V*3A
$GPHDT,181.237,T*3B
$GNGSA,A,3,24,196,199,18,15,195,05,194,13,,,,1.50,0.78,1.28,1*03
$GNGSA,A,3,79,69,,,,,,,,,,,1.50,0.78,1.28,2*03
$GNGSA,A,3,13,08,15,03,,,,,,,,,1.50,0.78,1.28,3*0E
$GNGSA,A,3,38,39,16,06,13,20,46,09,29,37,,,1.50,0.78,1.28,4*00
$GPGSV,3,1,11,24,75,161,43,196,73,053,41,199,60,167,38,18,57,296,29,1*6B
$GPGSV,3,2,11,15,49,021,43,195,43,178,41,05,32,097,34,23,32,323,,1*56
$GPGSV,3,3,11,194,23,144,28,13,23,042,43,20,12,115,,1*64
$GPGSV,2,1,06,24,75,161,49,196,73,053,45,199,60,167,46,18,57,296,29,8*62
$GPGSV,2,2,06,195,43,178,43,194,23,144,24,8*62
$GLGSV,1,1,03,85,46,283,20,79,24,054,35,69,21,048,34,1*47
$GAGSV,2,1,05,13,66,274,34,08,56,001,33,15,43,172,36,07,39,278,23,7*78
$GAGSV,2,2,05,03,20,050,29,7*49
$GAGSV,2,1,05,13,66,274,35,08,56,001,35,15,43,172,42,07,39,278,20,1*79
$GAGSV,2,2,05,03,20,050,25,1*43
$GBGSV,3,1,11,38,76,044,43,39,73,242,40,16,64,226,36,06,62,225,38,1*7D
$GBGSV,3,2,11,13,59,343,35,20,47,033,45,46,45,142,43,09,45,220,37,1*74
$GBGSV,3,3,11,29,34,229,47,37,32,067,33,08,,,36,1*79
$GBGSV,2,1,06,38,76,044,46,39,73,242,40,20,47,033,43,46,45,142,39,4*78
$GBGSV,2,2,06,29,34,229,44,37,32,067,27,4*71
$GNGGA,103558.000,2500.7950000,N,12132.4779100,E,2,41,0.78,13.06,M,15.25,M,4,3335*77
$GNRMC,103558.000,A,2500.7950000,N,12132.4779100,E,0.00,69.25,260623,,,D,V*3D
$GPHDT,180.974,T*36
$GNGGA,103558.200,2500.7950000,N,12132.4779100,E,2,41,0.78,13.06,M,15.25,M,4,3335*75
$GNRMC,103558.200,A,2500.7950000,N,12132.4779100,E,0.00,69.25,260623,,,D,V*3F
$GPHDT,181.025,T*3A
$GNGGA,103558.400,2500.7950000,N,12132.4779100,E,2,41,0.78,13.06,M,15.25,M,4,3335*73
$GNRMC,103558.400,A,2500.7950000,N,12132.4779100,E,0.00,69.25,260623,,,D,V*39
$GPHDT,180.528,T*33
$GNGGA,103558.600,2500.7950000,N,12132.4779100,E,2,41,0.78,13.07,M,15.25,M,4,3335*70
$GNRMC,103558.600,A,2500.7950000,N,12132.4779100,E,0.00,69.25,260623,,,D,V*3B
$GPHDT,180.964,T*37
$GNGGA,103558.800,2500.7949900,N,12132.4779100,E,2,41,0.78,13.07,M,15.25,M,4,3335*7F
$GNRMC,103558.800,A,2500.7949900,N,12132.4779100,E,0.00,69.25,260623,,,D,V*34
$GPHDT,181.097,T*33
$GNGSA,A,3,24,196,199,18,15,195,05,13,194,,,,1.50,0.78,1.28,1*03
$GNGSA,A,3,79,69,,,,,,,,,,,1.50,0.78,1.28,2*03
$GNGSA,A,3,13,08,15,03,,,,,,,,,1.50,0.78,1.28,3*0E
$GNGSA,A,3,38,39,16,06,13,20,46,09,29,37,,,1.50,0.78,1.28,4*00
$GPGSV,3,1,11,24,75,161,43,196,73,053,41,199,60,167,38,18,57,296,29,1*6B
$GPGSV,3,2,11,15,49,021,43,195,43,178,41,23,32,323,,05,32,097,35,1*57
$GPGSV,3,3,11,13,23,042,42,194,23,144,28,20,12,115,,1*65
$GPGSV,2,1,06,24,75,161,48,196,73,053,45,199,60,167,46,18,57,296,28,8*62
$GPGSV,2,2,06,195,43,178,43,194,23,144,24,8*62
$GLGSV,1,1,03,85,46,283,19,79,24,054,35,69,21,048,34,1*4D
$GAGSV,1,1,04,13,66,274,34,08,55,001,33,15,43,172,36,03,20,050,29,7*77
$GAGSV,2,1,05,13,66,274,35,08,55,001,35,15,43,172,42,07,39,278,21,1*7B
$GAGSV,2,2,05,03,20,050,25,1*43
$GBGSV,3,1,11,38,76,044,43,39,73,242,40,16,64,226,36,06,62,225,38,1*7D
$GBGSV,3,2,11,13,59,343,35,20,47,033,45,46,45,142,42,09,45,220,37,1*75
$GBGSV,3,3,11,29,34,229,47,37,32,067,32,08,,,36,1*78
$GBGSV,2,1,06,38,76,044,46,39,73,242,40,20,47,033,42,46,45,142,39,4*79
$GBGSV,2,2,06,29,34,229,44,37,32,067,22,4*74
$GNGGA,103559.000,2500.7949900,N,12132.4779100,E,2,41,0.78,13.07,M,15.25,M,5,3335*77
$GNRMC,103559.000,A,2500.7949900,N,12132.4779100,E,0.00,69.25,260623,,,D,V*3D
$GPHDT,181.553,T*3E
$GNGGA,103559.200,2500.7949900,N,12132.4779100,E,2,41,0.78,13.08,M,15.25,M,5,3335*7A
$GNRMC,103559.200,A,2500.7949900,N,12132.4779100,E,0.00,69.25,260623,,,D,V*3F
$GPHDT,181.335,T*38
$GNGGA,103559.400,2500.7949900,N,12132.4779000,E,2,41,0.78,13.08,M,15.25,M,5,3335*7D
$GNRMC,103559.400,A,2500.7949900,N,12132.4779000,E,0.00,69.25,260623,,,D,V*38
$GPHDT,181.903,T*37
$GNGGA,103559.600,2500.7949900,N,12132.4779000,E,2,41,0.78,13.08,M,15.25,M,5,3335*7F
$GNRMC,103559.600,A,2500.7949900,N,12132.4779000,E,0.00,69.25,260623,,,D,V*3A
$GPHDT,181.169,T*33
$GNGGA,103559.800,2500.7949800,N,12132.4779000,E,2,41,0.78,13.09,M,15.25,M,5,3335*71
$GNRMC,103559.800,A,2500.7949800,N,12132.4779000,E,0.00,69.25,260623,,,D,V*35
$GPHDT,181.688,T*3B
$GNGSA,A,3,24,196,199,18,15,195,05,13,194,,,,1.50,0.78,1.28,1*03
$GNGSA,A,3,79,69,,,,,,,,,,,1.50,0.78,1.28,2*03
$GNGSA,A,3,13,08,15,03,,,,,,,,,1.50,0.78,1.28,3*0E
$GNGSA,A,3,38,39,16,06,13,20,46,09,29,37,,,1.50,0.78,1.28,4*00
$GPGSV,3,1,11,24,75,161,43,196,73,053,41,199,60,167,38,18,57,296,29,1*6B
$GPGSV,3,2,11,15,49,021,43,195,43,178,41,23,32,323,,05,32,097,38,1*5A
$GPGSV,3,3,11,13,23,042,42,194,23,144,28,20,12,115,,1*65
$GPGSV,2,1,07,24,75,161,48,196,73,053,45,199,60,167,46,18,57,296,28,8*63
$GPGSV,2,2,07,195,43,178,43,23,32,323,21,194,23,144,24,8*52
$GLGSV,1,1,03,85,46,283,18,79,24,054,35,69,21,048,34,1*4C
$GAGSV,1,1,04,13,66,274,34,08,55,001,33,15,43,172,36,03,20,050,29,7*77
$GAGSV,2,1,05,13,66,274,35,08,55,001,36,15,43,172,42,07,39,278,21,1*78
$GAGSV,2,2,05,03,20,050,25,1*43
$GBGSV,3,1,11,38,76,044,43,39,73,242,40,16,64,226,36,06,62,225,38,1*7D
$GBGSV,3,2,11,13,59,343,34,20,47,033,45,46,45,142,42,09,45,220,37,1*74
$GBGSV,3,3,11,29,34,229,47,37,32,067,32,08,,,36,1*78
$GBGSV,2,1,06,38,76,044,46,39,73,242,40,20,47,033,42,46,45,142,39,4*79
$GBGSV,2,2,06,29,34,229,44,37,32,067,24,4*72
$GNGGA,103600.000,2500.7949800,N,12132.4779000,E,2,41,0.78,13.09,M,15.25,M,6,3335*75
$GNRMC,103600.000,A,2500.7949800,N,12132.4779000,E,0.00,69.25,260623,,,D,V*32
$GPHDT,181.424,T*3F
$GNGGA,103600.200,2500.7949800,N,12132.4779000,E,2,41,0.78,13.09,M,15.25,M,6,3335*77
$GNRMC,103600.200,A,2500.7949800,N,12132.4779000,E,0.00,69.25,260623,,,D,V*30
$GPHDT,181.858,T*38
$GNGGA,103600.400,2500.7949800,N,12132.4779000,E,2,41,0.78,13.10,M,15.25,M,6,3335*79
$GNRMC,103600.400,A,2500.7949800,N,12132.4779000,E,0.00,69.25,260623,,,D,V*36
$GPHDT,181.080,T*35
$GNGGA,103600.600,2500.7949800,N,12132.4779000,E,2,41,0.78,13.10,M,15.25,M,6,3335*7B
$GNRMC,103600.600,A,2500.7949800,N,12132.4779000,E,0.00,69.25,260623,,,D,V*34
$GPHDT,181.025,T*3A
$GNGGA,103600.800,2500.7949800,N,12132.4779000,E,2,41,0.78,13.10,M,15.25,M,4,3335*77
$GNRMC,103600.800,A,2500.7949800,N,12132.4779000,E,0.00,69.25,260623,,,D,V*3A
$GPHDT,181.336,T*3B
$GNGSA,A,3,24,196,199,18,15,195,05,13,194,,,,1.50,0.78,1.28,1*03
$GNGSA,A,3,79,69,,,,,,,,,,,1.50,0.78,1.28,2*03
$GNGSA,A,3,13,08,15,03,,,,,,,,,1.50,0.78,1.28,3*0E
$GNGSA,A,3,38,39,16,06,13,20,46,09,29,37,,,1.50,0.78,1.28,4*00
$GPGSV,3,1,11,24,75,161,43,196,73,053,41,199,60,167,38,18,57,296,29,1*6B
$GPGSV,3,2,11,15,49,021,43,195,43,178,41,23,32,323,,05,32,097,38,1*5A
$GPGSV,3,3,11,13,23,042,42,194,23,144,28,20,12,115,,1*65
$GPGSV,2,1,06,24,75,161,48,196,73,053,45,199,60,167,46,18,57,296,28,8*62
$GPGSV,2,2,06,195,43,178,43,194,23,144,24,8*62
$GLGSV,1,1,03,85,46,283,17,79,24,054,34,69,21,048,34,1*42
$GAGSV,1,1,04,13,66,274,34,08,55,001,33,15,42,172,36,03,20,050,29,7*76
$GAGSV,2,1,05,13,66,274,35,08,55,001,36,15,42,172,42,07,39,278,19,1*72
$GAGSV,2,2,05,03,20,050,25,1*43
$GBGSV,3,1,11,38,76,044,43,39,73,242,40,16,64,226,36,06,62,225,38,1*7D
$GBGSV,3,2,11,13,59,343,34,20,47,033,45,46,45,142,42,09,45,220,37,1*74
$GBGSV,3,3,11,29,34,229,47,37,32,067,33,08,,,36,1*79
$GBGSV,2,1,06,38,76,044,46,39,73,242,40,20,47,033,42,46,45,142,39,4*79
$GBGSV,2,2,06,29,34,229,44,37,32,067,23,4*75
$GNGGA,103601.000,2500.7949800,N,12132.4779000,E,2,41,0.78,13.10,M,15.25,M,2,3335*78
$GNRMC,103601.000,A,2500.7949800,N,12132.4779000,E,0.00,69.25,260623,,,D,V*33
$GPHDT,181.412,T*3A
$GNGGA,103601.200,2500.7949700,N,12132.4779000,E,2,41,0.78,13.11,M,15.25,M,1,3335*77
$GNRMC,103601.200,A,2500.7949700,N,12132.4779000,E,0.00,69.25,260623,,,D,V*3E
