$FW : RTK35X,V1.1X0314AS,Lib20210517,1*54
$Tool : LOCOSYS , GNSS Firebird , v1.0.0.19*39
$---------------------------------------------------*2D
A,A,3,79,69,,,,,,,,,,,1.47,0.78,1.24,2*09
$GNGSA,A,3,13,08,15,03,,,,,,,,,1.47,0.78,1.24,3*04
$GNGSA,A,3,38,39,08,16,06,13,20,09,46,29,37,,1.47,0.78,1.24,4*02
$GPGSV,3,1,11,24,75,160,44,196,73,053,43,199,60,167,39,18,57,296,29,1*6E
$GPGSV,3,2,11,15,49,021,40,195,43,178,42,23,32,324,22,05,32,097,37,1*52
$GPGSV,3,3,11,13,23,042,39,194,23,144,30,20,12,116,,1*63
$GPGSV,2,1,05,24,75,160,48,196,73,053,47,199,60,167,44,195,43,178,42,8*5E
$GPGSV,2,2,05,194,23,144,28,8*6E
$GLGSV,1,1,04,85,46,282,23,79,24,053,33,69,21,049,38,86,15,325,,1*70
$GAGSV,2,1,06,13,66,273,33,08,55,002,33,15,42,172,40,07,39,278,,7*7A
$GAGSV,2,2,06,03,20,050,26,02,18,105,,7*7A
$GAGSV,1,1,04,13,66,273,36,08,55,002,34,15,42,172,42,03,20,050,21,1*7A
$GBGSV,3,1,11,38,77,044,42,39,73,243,41,08,68,007,34,16,64,227,36,1*76
$GBGSV,3,2,11,06,62,225,31,13,59,343,33,20,47,034,40,09,45,220,36,1*77
$GBGSV,3,3,11,46,45,142,43,29,34,228,47,37,32,066,36,1*42
$GBGSV,2,1,06,38,77,044,46,39,73,243,39,20,47,034,42,46,45,142,41,4*7F
$GBGSV,2,2,06,29,34,228,47,37,32,066,28,4*7D
$GNGGA,103646.000,2500.7948700,N,12132.4777800,E,2,41,0.78,12.31,M,15.25,M,2,3335*71
$GNRMC,103646.000,A,2500.7948700,N,12132.4777800,E,0.00,69.25,260623,,,D,V*38
$GPHDT,,T*1B
$GNGGA,103646.200,2500.7948700,N,12132.4777800,E,2,41,0.78,12.31,M,15.25,M,2,3335*73
$GNRMC,103646.200,A,2500.7948700,N,12132.4777800,E,0.00,69.25,260623,,,D,V*3A
$GPHDT,,T*1B
$GNGGA,103646.400,2500.7948700,N,12132.4777800,E,2,41,0.78,12.31,M,15.25,M,2,3335*75
$GNRMC,103646.400,A,2500.7948700,N,12132.4777800,E,0.00,69.25,260623,,,D,V*3C
$GPHDT,,T*1B
$GNGGA,103646.600,2500.7948700,N,12132.4777800,E,2,41,0.78,12.31,M,15.25,M,2,3335*77
$GNRMC,103646.600,A,2500.7948700,N,12132.4777800,E,0.00,69.25,260623,,,D,V*3E
$GPHDT,,T*1B
$GNGGA,103646.800,2500.7948700,N,12132.4777800,E,2,41,0.78,12.31,M,15.25,M,2,3335*79
$GNRMC,103646.800,A,2500.7948700,N,12132.4777800,E,0.00,69.25,260623,,,D,V*30
$GPHDT,,T*1B
$GNGSA,A,3,24,196,199,18,15,195,05,13,194,,,,1.47,0.78,1.24,1*09
$GNGSA,A,3,79,69,,,,,,,,,,,1.47,0.78,1.24,2*09
$GNGSA,A,3,13,08,15,03,,,,,,,,,1.47,0.78,1.24,3*04
$GNGSA,A,3,38,39,08,16,06,13,20,09,46,29,37,,1.47,0.78,1.24,4*02
$GPGSV,3,1,11,24,75,160,44,196,73,053,43,199,60,167,39,18,57,296,28,1*6F
$GPGSV,3,2,11,15,49,021,41,195,43,178,42,23,32,324,23,05,32,097,38,1*5D
$GPGSV,3,3,11,13,23,042,38,194,23,144,29,20,12,116,,1*6A
$GPGSV,2,1,06,24,75,160,48,196,73,053,47,199,60,167,46,195,43,178,43,8*5E
$GPGSV,2,2,06,23,32,324,23,194,23,144,28,8*59
$GLGSV,1,1,04,85,46,282,22,79,24,053,32,69,21,049,38,73,14,169,,1*71
$GAGSV,2,1,06,13,66,273,33,08,55,002,34,15,42,172,41,07,39,278,,7*7C
$GAGSV,2,2,06,03,20,050,26,02,18,105,,7*7A
$GAGSV,1,1,03,13,66,273,36,08,55,002,34,15,42,172,44,1*4C
$GBGSV,3,1,11,38,77,044,42,39,73,243,40,08,68,007,34,16,64,227,36,1*77
$GBGSV,3,2,11,06,62,225,32,13,59,343,34,20,47,034,41,09,45,220,36,1*72
$GBGSV,3,3,11,46,45,142,44,29,34,228,47,37,32,066,35,1*46
$GBGSV,2,1,06,38,77,044,46,39,73,243,39,20,47,034,42,46,45,142,41,4*7F
$GBGSV,2,2,06,29,34,228,47,37,32,066,27,4*72
$GNGGA,103647.000,2500.7948700,N,12132.4777800,E,2,40,0.78,12.31,M,15.25,M,3,3335*70
$GNRMC,103647.000,A,2500.7948700,N,12132.4777800,E,0.00,69.25,260623,,,D,V*39
$GPHDT,,T*1B
$GNGGA,103647.200,2500.7948700,N,12132.4777800,E,2,40,0.78,12.31,M,15.25,M,3,3335*72
$GNRMC,103647.200,A,2500.7948700,N,12132.4777800,E,0.00,69.25,260623,,,D,V*3B
$GPHDT,,T*1B
$GNGGA,103647.400,2500.7948700,N,12132.4777800,E,2,40,0.78,12.31,M,15.25,M,3,3335*74
$GNRMC,103647.400,A,2500.7948700,N,12132.4777800,E,0.00,69.25,260623,,,D,V*3D
$GPHDT,,T*1B
$GNGGA,103647.600,2500.7948700,N,12132.4777800,E,2,40,0.78,12.31,M,15.25,M,3,3335*76
$GNRMC,103647.600,A,2500.7948700,N,12132.4777800,E,0.00,69.25,260623,,,D,V*3F
$GPHDT,,T*1B
$GNGGA,103647.800,2500.7948700,N,12132.4777800,E,2,40,0.78,12.31,M,15.25,M,3,3335*78
$GNRMC,103647.800,A,2500.7948700,N,12132.4777800,E,0.00,69.25,260623,,,D,V*31
$GPHDT,,T*1B
$GNGSA,A,3,24,196,199,18,15,195,05,13,194,,,,1.47,0.78,1.24,1*09
$GNGSA,A,3,79,69,,,,,,,,,,,1.47,0.78,1.24,2*09
$GNGSA,A,3,13,08,15,03,,,,,,,,,1.47,0.78,1.24,3*04
$GNGSA,A,3,38,39,08,16,06,13,20,46,09,29,37,,1.47,0.78,1.24,4*02
$GPGSV,3,1,11,24,75,160,44,196,73,053,43,199,60,167,40,18,57,296,30,1*68
$GPGSV,3,2,11,15,49,021,39,195,43,178,43,23,32,324,23,05,32,097,33,1*58
$GPGSV,3,3,11,13,23,042,39,194,23,144,29,20,12,116,,1*6B
$GPGSV,2,1,06,24,75,160,48,196,73,053,47,199,60,167,46,195,43,178,44,8*59
$GPGSV,2,2,06,23,32,324,22,194,23,144,26,8*56
$GLGSV,2,1,05,85,46,282,23,79,24,053,32,69,21,049,37,73,14,169,,1*7D
$GLGSV,2,2,05,71,13,289,,1*4A
$GAGSV,2,1,07,13,66,273,33,08,55,002,33,15,42,172,40,07,39,278,,7*7B
$GAGSV,2,2,07,03,20,050,24,02,18,105,,25,05,059,,7*47
$GAGSV,1,1,03,13,66,273,35,08,55,002,32,15,42,172,44,1*49
$GBGSV,3,1,11,38,77,044,40,39,73,243,40,08,68,007,34,16,64,227,36,1*75
$GBGSV,3,2,11,06,62,225,31,13,59,343,35,20,47,034,37,46,45,142,46,1*7A
$GBGSV,3,3,11,09,45,220,36,29,34,228,47,37,32,066,33,1*49
$GBGSV,2,1,06,38,77,044,45,39,73,243,39,20,47,034,40,46,45,142,44,4*7B
$GBGSV,2,2,06,29,34,228,47,37,32,066,26,4*73
$GNGGA,103648.000,2500.7948700,N,12132.4777800,E,2,40,0.78,12.31,M,15.25,M,3,3335*7F
$GNRMC,103648.000,A,2500.7948700,N,12132.4777800,E,0.00,69.25,260623,,,D,V*36
$PAIR010,0,1,2268,124626*31
$GPHDT,,T*1B
$GNGGA,103648.200,2500.7948700,N,12132.4777800,E,2,40,0.78,12.31,M,15.25,M,1,3335*7F
$GNRMC,103648.200,A,2500.7948700,N,12132.4777800,E,0.00,69.25,260623,,,D,V*34
$GPHDT,,T*1B
$GNGGA,103648.400,2500.7948700,N,12132.4777800,E,2,40,0.78,12.31,M,15.25,M,1,3335*79
$GNRMC,103648.400,A,2500.7948700,N,12132.4777800,E,0.00,69.25,260623,,,D,V*32
$GPHDT,,T*1B
$GNGGA,103648.600,2500.7948700,N,12132.4777800,E,2,40,0.78,12.31,M,15.25,M,1,3335*7B
$GNRMC,103648.600,A,2500.7948700,N,12132.4777800,E,0.00,69.25,260623,,,D,V*30
$GPHDT,,T*1B
$GNGGA,103648.800,2500.7948700,N,12132.4777800,E,2,39,0.78,12.31,M,15.25,M,1,3335*7B
$GNRMC,103648.800,A,2500.7948700,N,12132.4777800,E,0.00,69.25,260623,,,D,V*3E
$GPHDT,,T*1B
$GNGSA,A,3,24,196,199,18,15,195,05,13,194,,,,1.47,0.78,1.24,1*09
$GNGSA,A,3,79,69,,,,,,,,,,,1.47,0.78,1.24,2*09
$GNGSA,A,3,13,08,15,03,,,,,,,,,1.47,0.78,1.24,3*04
$GNGSA,A,3,38,39,08,16,06,13,20,46,09,29,37,,1.47,0.78,1.24,4*02
$GPGSV,3,1,11,24,75,160,44,196,73,053,43,199,60,167,40,18,57,296,29,1*60
$GPGSV,3,2,11,15,49,021,38,195,43,178,43,23,32,324,23,05,32,097,34,1*5E
$GPGSV,3,3,11,13,23,042,39,194,23,144,28,20,12,116,,1*6A
$GPGSV,2,1,06,24,75,160,48,196,73,053,46,199,60,167,46,195,43,178,44,8*58
$GPGSV,2,2,06,23,32,324,20,194,23,144,25,8*57
$GLGSV,1,1,03,85,46,282,24,79,24,053,31,69,21,049,36,1*42
$GAGSV,2,1,07,13,66,273,33,08,55,002,29,15,42,172,40,07,39,278,,7*70
$GAGSV,2,2,07,03,20,050,22,02,18,105,,25,05,059,,7*41
$GAGSV,1,1,03,13,66,273,35,08,55,002,33,15,42,172,44,1*48
$GBGSV,3,1,11,38,77,044,40,39,73,243,40,08,68,007,35,16,64,227,37,1*75
$GBGSV,3,2,11,06,62,225,31,13,59,343,35,20,47,034,38,46,45,142,46,1*75
$GBGSV,3,3,11,09,45,220,36,29,34,228,47,37,32,066,,1*49
$GBGSV,2,1,06,38,77,044,45,39,73,243,40,20,47,034,40,46,45,142,44,4*75
$GBGSV,2,2,06,29,34,228,47,37,32,066,26,4*73
$GNGGA,103649.000,2500.7948700,N,12132.4777800,E,2,39,0.78,12.31,M,15.25,M,2,3335*71
$GNRMC,103649.000,A,2500.7948700,N,12132.4777800,E,0.00,69.25,260623,,,D,V*37
$GPHDT,,T*1B
$GNGGA,103649.200,2500.7948700,N,12132.4777800,E,2,39,0.78,12.31,M,15.25,M,2,3335*73
$GNRMC,103649.200,A,2500.7948700,N,12132.4777800,E,0.00,69.25,260623,,,D,V*35
$GPHDT,,T*1B
$GNGGA,103649.400,2500.7948700,N,12132.4777800,E,2,40,0.78,12.31,M,15.25,M,2,3335*7B
$GNRMC,103649.400,A,2500.7948700,N,12132.4777800,E,0.00,69.25,260623,,,D,V*33
$GPHDT,,T*1B
$GNGGA,103649.600,2500.7948700,N,12132.4777800,E,2,40,0.78,12.31,M,15.25,M,2,3335*79
$GNRMC,103649.600,A,2500.7948700,N,12132.4777800,E,0.00,69.25,260623,,,D,V*31
$GPHDT,,T*1B
$GNGGA,103649.800,2500.7948700,N,12132.4777800,E,2,40,0.78,12.31,M,15.25,M,2,3335*77
$GNRMC,103649.800,A,2500.7948700,N,12132.4777800,E,0.00,69.25,260623,,,D,V*3F
$GPHDT,,T*1B
$GNGSA,A,3,24,196,199,18,15,195,05,13,194,,,,1.47,0.78,1.24,1*09
$GNGSA,A,3,79,69,,,,,,,,,,,1.47,0.78,1.24,2*09
$GNGSA,A,3,13,08,15,03,,,,,,,,,1.47,0.78,1.24,3*04
$GNGSA,A,3,38,39,08,16,06,13,20,46,09,29,37,,1.47,0.78,1.24,4*02
$GPGSV,3,1,11,24,75,160,43,196,73,053,42,199,60,167,40,18,57,296,29,1*66
$GPGSV,3,2,11,15,49,021,38,195,43,178,43,23,32,324,23,05,32,097,38,1*52
$GPGSV,3,3,11,13,23,042,39,194,23,144,28,20,12,116,,1*6A
$GPGSV,2,1,06,24,75,160,48,196,73,053,46,199,60,167,46,195,43,178,44,8*58
$GPGSV,2,2,06,23,32,324,19,194,23,144,26,8*5E
$GLGSV,1,1,03,85,46,282,24,79,24,053,30,69,21,049,36,1*43
$GAGSV,2,1,07,13,66,273,33,08,55,002,26,15,42,172,40,07,39,278,,7*7F
$GAGSV,2,2,07,03,20,050,22,02,18,105,,25,05,059,,7*41
$GAGSV,1,1,03,13,66,273,36,08,55,002,35,15,42,172,44,1*4D
$GBGSV,3,1,11,38,77,044,40,39,73,243,40,08,68,007,35,16,64,227,37,1*75
$GBGSV,3,2,11,06,62,225,32,13,59,343,35,20,47,034,38,46,45,142,46,1*76
$GBGSV,3,3,11,09,45,220,37,29,34,228,47,37,32,066,28,1*42
$GBGSV,2,1,06,38,77,044,45,39,73,243,40,20,47,034,39,46,45,142,44,4*7B
$GBGSV,2,2,06,29,34,228,47,37,32,066,27,4*72
$GNGGA,103650.000,2500.7948700,N,12132.4777800,E,2,40,0.78,12.31,M,15.25,M,3,3335*76
$GNRMC,103650.000,A,2500.7948700,N,12132.4777800,E,0.00,69.25,260623,,,D,V*3F
$GPHDT,,T*1B
$GNGGA,103650.200,2500.7948700,N,12132.4777800,E,2,40,0.78,12.31,M,15.25,M,3,3335*74
$GNRMC,103650.200,A,2500.7948700,N,12132.4777800,E,0.00,69.25,260623,,,D,V*3D
$GPHDT,,T*1B
$GNGGA,103650.400,2500.7948700,N,12132.4777800,E,2,40,0.78,12.31,M,15.25,M,3,3335*72
$GNRMC,103650.400,A,2500.7948700,N,12132.4777800,E,0.00,69.25,260623,,,D,V*3B
$GPHDT,,T*1B
$GNGGA,103650.600,2500.7948700,N,12132.4777800,E,2,40,0.78,12.31,M,15.25,M,3,3335*70
$GNRMC,103650.600,A,2500.7948700,N,12132.4777800,E,0.00,69.25,260623,,,D,V*39
$GPHDT,,T*1B
$GNGGA,103650.800,2500.7948700,N,12132.4777800,E,2,40,0.78,12.31,M,15.25,M,3,3335*7E
$GNRMC,103650.800,A,2500.7948700,N,12132.4777800,E,0.00,69.25,260623,,,D,V*37
$GPHDT,,T*1B
$GNGSA,A,3,24,196,199,18,15,195,05,13,194,,,,1.47,0.78,1.24,1*09
$GNGSA,A,3,79,69,,,,,,,,,,,1.47,0.78,1.24,2*09
$GNGSA,A,3,13,08,15,03,,,,,,,,,1.47,0.78,1.24,3*04
$GNGSA,A,3,38,39,08,16,06,13,20,09,46,29,37,,1.47,0.78,1.24,4*02
$GPGSV,3,1,11,24,75,160,43,196,73,053,42,199,60,167,40,18,57,296,31,1*6F
$GPGSV,3,2,11,15,49,021,38,195,43,178,43,23,32,324,24,05,32,097,38,1*55
$GPGSV,3,3,11,13,23,042,39,194,23,144,29,20,12,116,,1*6B
$GPGSV,2,1,06,24,75,160,48,196,73,053,46,199,60,167,46,195,43,178,44,8*58
$GPGSV,2,2,06,23,32,324,21,194,23,144,27,8*54
$GLGSV,1,1,03,85,46,282,25,79,24,053,29,69,21,049,32,1*4E
$GAGSV,2,1,06,13,66,273,33,08,55,002,27,15,42,172,40,03,20,050,23,7*7A
$GAGSV,2,2,06,02,18,105,,25,05,059,,7*74
$GAGSV,1,1,04,13,66,273,37,08,55,002,36,15,42,172,44,03,20,050,19,1*74
$GBGSV,3,1,11,38,77,044,40,39,73,243,40,08,68,007,35,16,64,227,37,1*75
$GBGSV,3,2,11,06,62,225,32,13,59,343,35,20,47,034,38,09,45,220,37,1*7C
$GBGSV,3,3,11,46,45,141,46,29,34,228,47,37,32,066,30,1*42
$GBGSV,2,1,06,38,77,044,45,39,73,243,40,20,47,034,39,46,45,141,44,4*78
$GBGSV,2,2,06,29,34,228,47,37,32,066,29,4*7C
$GNGGA,103651.000,2500.7948700,N,12132.4777800,E,2,41,0.78,12.31,M,15.25,M,3,3335*76
$GNRMC,103651.000,A,2500.7948700,N,12132.4777800,E,0.00,69.25,260623,,,D,V*3E
$GPHDT,,T*1B
$GNGGA,103651.200,2500.7948700,N,12132.4777800,E,2,41,0.78,12.32,M,15.25,M,3,3335*77
$GNRMC,103651.200,A,2500.7948700,N,12132.4777800,E,0.00,69.25,260623,,,D,V*3C
$GPHDT,,T*1B
$GNGGA,103651.400,2500.7948700,N,12132.4777800,E,2,41,0.78,12.32,M,15.25,M,1,3335*73
$GNRMC,103651.400,A,2500.7948700,N,12132.4777800,E,0.00,69.25,260623,,,D,V*3A
$GPHDT,,T*1B
$GNGGA,103651.600,2500.7948700,N,12132.4777800,E,2,41,0.78,12.32,M,15.25,M,1,3335*71
$GNRMC,103651.600,A,2500.7948700,N,12132.4777800,E,0.03,69.25,260623,,,D,V*3B
$GPHDT,,T*1B
$GNGGA,103651.800,2500.7948700,N,12132.4777800,E,2,41,0.78,12.32,M,15.25,M,1,3335*7F
$GNRMC,103651.800,A,2500.7948700,N,12132.4777800,E,0.01,69.25,260623,,,D,V*37
$GPHDT,,T*1B
$GNGSA,A,3,24,196,199,18,15,195,05,13,194,,,,1.47,0.78,1.24,1*09
$GNGSA,A,3,79,69,,,,,,,,,,,1.47,0.78,1.24,2*09
$GNGSA,A,3,13,08,15,03,,,,,,,,,1.47,0.78,1.24,3*04
$GNGSA,A,3,38,39,08,16,06,13,20,09,46,29,37,,1.47,0.78,1.24,4*02
$GPGSV,3,1,12,24,75,160,43,196,73,053,42,199,60,167,40,18,57,296,31,1*6C
$GPGSV,3,2,12,50,50,134,,15,49,021,38,195,43,178,43,23,32,324,23,1*56
$GPGSV,3,3,12,05,32,097,38,13,23,042,35,194,23,144,28,20,12,116,,1*54
$GPGSV,2,1,06,24,75,160,48,196,73,053,46,199,60,167,46,195,43,178,44,8*58
$GPGSV,2,2,06,23,32,324,19,194,23,144,26,8*5E
$GLGSV,1,1,03,85,46,282,27,79,24,053,29,69,21,049,32,1*4C
$GAGSV,2,1,06,13,66,273,33,08,55,002,24,15,42,172,40,03,20,050,18,7*71
$GAGSV,2,2,06,02,18,105,,25,05,059,,7*74
$GAGSV,1,1,04,13,66,273,37,08,55,002,36,15,42,172,44,03,20,050,21,1*7F
$GBGSV,3,1,12,38,77,044,40,39,73,243,40,08,68,007,35,16,64,227,37,1*76
$GBGSV,3,2,12,06,62,225,33,13,59,343,35,20,47,034,38,09,45,220,37,1*7E
$GBGSV,3,3,12,46,45,141,46,29,34,228,47,37,32,066,31,22,02,285,,1*7D
$GBGSV,2,1,06,38,77,044,45,39,73,243,40,20,47,034,39,46,45,141,44,4*78
$GBGSV,2,2,06,29,34,228,47,37,32,066,28,4*7D
$GNGGA,103652.000,2500.7948700,N,12132.4777800,E,2,41,0.78,12.32,M,15.25,M,1,3335*74
$GNRMC,103652.000,A,2500.7948700,N,12132.4777800,E,0.00,69.25,260623,,,D,V*3D
$GPHDT,,T*1B
$GNGGA,103652.200,2500.7948700,N,12132.4777800,E,2,41,0.78,12.31,M,15.25,M,1,3335*75
$GNRMC,103652.200,A,2500.7948700,N,12132.4777800,E,0.02,69.25,260623,,,D,V*3D
$GPHDT,,T*1B
$GNGGA,103652.400,2500.7948700,N,12132.4777800,E,2,41,0.78,12.31,M,15.25,M,1,3335*73
$GNRMC,103652.400,A,2500.7948700,N,12132.4777800,E,0.02,69.25,260623,,,D,V*3B
$GPHDT,,T*1B
$GNGGA,103652.600,2500.7948700,N,12132.4777800,E,2,41,0.78,12.31,M,15.25,M,1,3335*71
$GNRMC,103652.600,A,2500.7948700,N,12132.4777800,E,0.02,69.25,260623,,,D,V*39
$GPHDT,,T*1B
$GNGGA,103652.800,2500.7948700,N,12132.4777800,E,2,41,0.78,12.31,M,15.25,M,0,3335*7E
$GNRMC,103652.800,A,2500.7948700,N,12132.4777800,E,0.02,69.25,260623,,,D,V*37
$GPHDT,,T*1B
$GNGSA,A,3,24,196,199,18,15,195,05,13,194,,,,1.47,0.78,1.24,1*09
$GNGSA,A,3,79,69,,,,,,,,,,,1.47,0.78,1.24,2*09
$GNGSA,A,3,13,08,15,03,,,,,,,,,1.47,0.78,1.24,3*04
$GNGSA,A,3,38,39,08,16,06,13,20,09,46,29,37,,1.47,0.78,1.24,4*02
$GPGSV,3,1,12,24,75,160,43,196,73,053,42,199,60,167,40,18,57,296,31,1*6C
$GPGSV,3,2,12,50,50,134,42,15,49,021,39,195,43,178,43,23,32,324,24,1*56
$GPGSV,3,3,12,05,32,097,38,13,23,042,36,194,23,144,28,20,12,116,,1*57
$GPGSV,2,1,06,24,75,160,48,196,73,053,46,199,60,167,46,195,43,178,44,8*58
$GPGSV,2,2,06,23,32,324,20,194,23,144,27,8*55
$GLGSV,1,1,04,85,46,282,27,80,39,115,43,79,24,053,29,69,21,049,34,1*7D
$GAGSV,2,1,07,13,66,273,33,08,55,002,24,15,42,172,40,07,39,278,,7*7D
$GAGSV,2,2,07,03,20,050,17,02,18,105,,25,05,059,,7*47
$GAGSV,1,1,04,13,66,273,36,08,55,002,35,15,42,172,44,03,20,050,22,1*7E
$GBGSV,3,1,12,38,77,044,40,39,73,243,40,08,68,007,35,16,64,227,37,1*76
$GBGSV,3,2,12,06,62,225,33,13,59,343,35,20,47,034,38,09,45,220,37,1*7E
$GBGSV,3,3,12,46,45,141,46,19,40,320,,29,34,228,47,37,32,066,34,1*78
$GBGSV,2,1,06,38,77,044,45,39,73,243,40,20,47,034,39,46,45,141,44,4*78
$GBGSV,2,2,06,29,34,228,47,37,32,066,29,4*7C
$GNGGA,103653.000,2500.7948700,N,12132.4777800,E,2,41,0.78,12.31,M,15.25,M,1,3335*76
$GNRMC,103653.000,A,2500.7948700,N,12132.4777800,E,0.02,69.25,260623,,,D,V*3E
$GPHDT,,T*1B
$GNGGA,103653.200,2500.7948700,N,12132.4777800,E,2,41,0.78,12.31,M,15.25,M,1,3335*74
$GNRMC,103653.200,A,2500.7948700,N,12132.4777800,E,0.02,69.25,260623,,,D,V*3C
$GPHDT,,T*1B
$GNGGA,103653.400,2500.7948700,N,12132.4777800,E,2,41,0.78,12.31,M,15.25,M,1,3335*72
$GNRMC,103653.400,A,2500.7948700,N,12132.4777800,E,0.02,69.25,260623,,,D,V*3A
$GPHDT,,T*1B
$GNGGA,103653.600,2500.7948700,N,12132.4777800,E,2,41,0.78,12.31,M,15.25,M,1,3335*70
$GNRMC,103653.600,A,2500.7948700,N,12132.4777800,E,0.01,69.25,260623,,,D,V*3B
$GPHDT,,T*1B
$GNGGA,103653.800,2500.7948700,N,12132.4777800,E,2,41,0.78,12.31,M,15.25,M,1,3335*7E
$GNRMC,103653.800,A,2500.7948700,N,12132.4777800,E,0.01,69.25,260623,,,D,V*35
$GPHDT,,T*1B
$GNGSA,A,3,24,196,199,18,15,195,05,13,194,,,,1.47,0.78,1.24,1*09
$GNGSA,A,3,79,69,,,,,,,,,,,1.47,0.78,1.24,2*09
$GNGSA,A,3,13,08,15,03,,,,,,,,,1.47,0.78,1.24,3*04
$GNGSA,A,3,38,39,08,16,06,13,20,46,09,29,37,,1.47,0.78,1.24,4*02
$GPGSV,3,1,12,24,75,160,43,196,73,053,42,199,60,167,40,18,57,296,30,1*6D
$GPGSV,3,2,12,50,50,134,42,15,49,021,39,195,43,178,43,23,32,324,25,1*57
$GPGSV,3,3,12,05,32,097,38,13,23,042,38,194,23,144,28,20,12,116,,1*59
$GPGSV,2,1,06,24,75,160,48,196,73,053,46,199,60,167,46,195,43,178,44,8*58
$GPGSV,2,2,06,23,32,324,21,194,23,144,27,8*54
$GLGSV,2,1,05,85,46,282,27,80,39,115,43,70,38,337,,79,24,053,29,1*72
$GLGSV,2,2,05,69,21,049,35,1*4A
$GAGSV,2,1,07,13,66,273,33,08,55,002,25,15,42,172,40,07,39,278,,7*7C
$GAGSV,2,2,07,03,20,050,20,02,18,105,,25,05,059,,7*43
$GAGSV,1,1,04,13,66,273,36,08,55,002,35,15,42,172,44,03,20,050,20,1*7C
$GBGSV,3,1,11,38,77,044,40,39,73,243,40,08,68,007,35,16,64,227,37,1*75
$GBGSV,3,2,11,06,62,225,32,13,59,343,35,20,47,034,38,46,45,141,46,1*75
$GBGSV,3,3,11,09,45,220,37,29,34,228,47,37,32,066,34,1*4F
$GBGSV,2,1,06,38,77,044,45,39,73,243,40,20,47,034,39,46,45,141,44,4*78
$GBGSV,2,2,06,29,34,228,47,37,32,066,30,4*74
$GNGGA,103654.000,2500.7948700,N,12132.4777800,E,2,41,0.78,12.32,M,15.25,M,2,3335*71
$GNRMC,103654.000,A,2500.7948700,N,12132.4777800,E,0.01,69.25,260623,,,D,V*3A
$GPHDT,,T*1B
$GNGGA,103654.200,2500.7948700,N,12132.4777800,E,2,41,0.78,12.32,M,15.25,M,2,3335*73
$GNRMC,103654.200,A,2500.7948700,N,12132.4777800,E,0.01,69.25,260623,,,D,V*38
$GPHDT,,T*1B
$GNGGA,103654.400,2500.7948700,N,12132.4777800,E,2,41,0.78,12.32,M,15.25,M,2,3335*75
$GNRMC,103654.400,A,2500.7948700,N,12132.4777800,E,0.01,69.25,260623,,,D,V*3E
$GPHDT,,T*1B
$GNGGA,103654.600,2500.7948700,N,12132.4777800,E,2,41,0.78,12.32,M,15.25,M,2,3335*77
$GNRMC,103654.600,A,2500.7948700,N,12132.4777800,E,0.01,69.25,260623,,,D,V*3C
$GPHDT,,T*1B
$GNGGA,103654.800,2500.7948800,N,12132.4777800,E,2,41,0.78,12.32,M,15.25,M,2,3335*76
$GNRMC,103654.800,A,2500.7948800,N,12132.4777800,E,0.01,69.25,260623,,,D,V*3D
$GPHDT,,T*1B
$GNGSA,A,3,24,196,199,18,15,195,05,13,194,,,,1.47,0.78,1.24,1*09
$GNGSA,A,3,79,69,,,,,,,,,,,1.47,0.78,1.24,2*09
$GNGSA,A,3,13,08,15,03,,,,,,,,,1.47,0.78,1.24,3*04
$GNGSA,A,3,38,39,08,16,06,13,20,46,09,29,37,,1.47,0.78,1.24,4*02
$GPGSV,3,1,12,24,75,160,43,196,73,053,42,199,60,167,40,18,57,296,30,1*6D
$GPGSV,3,2,12,50,50,134,43,15,49,021,39,195,43,178,43,23,32,324,25,1*56
$GPGSV,3,3,12,05,32,097,38,13,23,042,38,194,23,144,28,20,12,116,,1*59
$GPGSV,2,1,06,24,75,160,48,196,73,053,46,199,60,167,46,195,43,178,43,8*5F
$GPGSV,2,2,06,23,32,324,21,194,23,144,27,8*54
$GLGSV,1,1,04,85,46,282,28,80,39,115,43,79,24,053,29,69,21,049,34,1*72
$GAGSV,2,1,07,13,66,273,33,08,55,002,25,15,42,172,40,07,39,278,,7*7C
$GAGSV,2,2,07,03,20,050,22,02,18,105,,25,05,059,,7*41
$GAGSV,1,1,04,13,66,273,36,08,55,002,35,15,42,172,44,03,20,050,21,1*7D
$GBGSV,3,1,11,38,77,044,40,39,73,243,40,08,68,007,35,16,64,227,37,1*75
$GBGSV,3,2,11,06,62,225,32,13,59,343,35,20,47,034,39,46,45,141,46,1*74
$GBGSV,3,3,11,09,45,220,37,29,34,228,47,37,32,066,34,1*4F
$GBGSV,2,1,06,38,77,044,45,39,73,243,40,20,47,034,40,46,45,141,44,4*76
$GBGSV,2,2,06,29,34,228,47,37,32,066,30,4*74
$GNGGA,103655.000,2500.7948800,N,12132.4777800,E,2,41,0.78,12.31,M,15.25,M,3,3335*7D
$GNRMC,103655.000,A,2500.7948800,N,12132.4777800,E,0.01,69.25,260623,,,D,V*34
$GPHDT,,T*1B
$GNGGA,103655.200,2500.7948800,N,12132.4777800,E,2,41,0.78,12.31,M,15.25,M,3,3335*7F
$GNRMC,103655.200,A,2500.7948800,N,12132.4777800,E,0.01,69.25,260623,,,D,V*36
$GPHDT,,T*1B
$GNGGA,103655.400,2500.7948800,N,12132.4777800,E,2,41,0.78,12.31,M,15.25,M,1,3335*7B
$GNRMC,103655.400,A,2500.7948800,N,12132.4777800,E,0.01,69.25,260623,,,D,V*30
$GPHDT,,T*1B
$GNGGA,103655.600,2500.7948800,N,12132.4777800,E,2,41,0.78,12.31,M,15.25,M,1,3335*79
$GNRMC,103655.600,A,2500.7948800,N,12132.4777800,E,0.01,69.25,260623,,,D,V*32
$GPHDT,,T*1B
$GNGGA,103655.800,2500.7948800,N,12132.4777800,E,2,41,0.78,12.31,M,15.25,M,1,3335*77
$GNRMC,103655.800,A,2500.7948800,N,12132.4777800,E,0.01,69.25,260623,,,D,V*3C
$GPHDT,,T*1B
$GNGSA,A,3,24,196,199,18,15,195,05,13,194,,,,1.47,0.78,1.24,1*09
$GNGSA,A,3,79,69,,,,,,,,,,,1.47,0.78,1.24,2*09
$GNGSA,A,3,13,08,15,03,,,,,,,,,1.47,0.78,1.24,3*04
$GNGSA,A,3,38,39,08,16,06,13,20,46,09,29,37,,1.47,0.78,1.24,4*02
$GPGSV,3,1,12,24,75,160,43,196,73,053,42,199,60,167,40,18,57,296,30,1*6D
$GPGSV,3,2,12,50,50,134,42,15,49,021,39,195,43,178,43,23,32,324,25,1*57
$GPGSV,3,3,12,05,32,097,38,13,23,042,38,194,23,144,27,20,12,116,,1*56
$GPGSV,2,1,06,24,75,160,48,196,73,053,46,199,60,167,46,195,43,178,43,8*5F
$GPGSV,2,2,06,23,32,324,21,194,23,144,25,8*56
$GLGSV,1,1,04,85,46,282,28,80,39,115,44,79,24,053,29,69,21,049,34,1*75
$GAGSV,2,1,07,13,66,273,33,08,55,002,26,15,42,172,40,07,39,278,,7*7F
$GAGSV,2,2,07,03,20,050,20,02,18,105,,25,05,059,,7*43
$GAGSV,1,1,04,13,66,273,36,08,55,002,35,15,42,172,44,03,20,050,19,1*76
$GBGSV,3,1,11,38,77,044,41,39,73,243,40,08,68,007,34,16,64,227,37,1*75
$GBGSV,3,2,11,06,62,225,32,13,59,343,35,20,47,034,38,46,45,141,46,1*75
$GBGSV,3,3,11,09,45,220,37,29,34,228,47,37,32,066,34,1*4F
$GBGSV,2,1,06,38,77,044,45,39,73,243,40,20,47,034,40,46,45,141,44,4*76
$GBGSV,2,2,06,29,34,228,47,37,32,066,30,4*74
$GNGGA,103656.000,2500.7948800,N,12132.4777800,E,2,41,0.78,12.31,M,15.25,M,2,3335*7F
$GNRMC,103656.000,A,2500.7948800,N,12132.4777800,E,0.01,69.25,260623,,,D,V*37
$GPHDT,,T*1B
$GNGGA,103656.200,2500.7948800,N,12132.4777800,E,2,41,0.78,12.31,M,15.25,M,2,3335*7D
$GNRMC,103656.200,A,2500.7948800,N,12132.4777800,E,0.01,69.25,260623,,,D,V*35
$GPHDT,,T*1B
$GNGGA,103656.400,2500.7948800,N,12132.4777800,E,2,41,0.78,12.31,M,15.25,M,2,3335*7B
$GNRMC,103656.400,A,2500.7948800,N,12132.4777800,E,0.01,69.25,260623,,,D,V*33
