$FW : RTK35X,V1.1X0314AS,Lib20210517,1*54
$Tool : LOCOSYS , GNSS Firebird , v1.0.0.19*39
$---------------------------------------------------*2D
$GPHDT,,T*1B
$GNGGA,103528.400,2500.7950300,N,12132.4780500,E,2,41,0.78,12.78,M,15.25,M,3,3335*7A
$GNRMC,103528.400,A,2500.7950300,N,12132.4780500,E,0.01,69.25,260623,,,D,V*3E
$GPHDT,,T*1B
$GNGGA,103528.600,2500.7950300,N,12132.4780500,E,2,41,0.78,12.79,M,15.25,M,3,3335*79
$GNRMC,103528.600,A,2500.7950300,N,12132.4780500,E,0.00,69.25,260623,,,D,V*3D
$GPHDT,,T*1B
$GNGGA,103528.800,2500.7950300,N,12132.4780500,E,2,41,0.78,12.78,M,15.25,M,3,3335*76
$GNRMC,103528.800,A,2500.7950300,N,12132.4780500,E,0.01,69.25,260623,,,D,V*32
$GPHDT,,T*1B
$GNGSA,A,3,24,196,199,18,15,195,05,194,13,,,,1.50,0.78,1.28,1*03
$GNGSA,A,3,79,69,,,,,,,,,,,1.50,0.78,1.28,2*03
$GNGSA,A,3,13,08,15,03,,,,,,,,,1.50,0.78,1.28,3*0E
$GNGSA,A,3,38,39,16,06,13,20,09,46,29,37,,,1.50,0.78,1.28,4*00
$GPGSV,3,1,12,24,75,161,45,196,73,053,41,199,60,167,37,18,57,297,34,1*6C
$GPGSV,3,2,12,15,49,021,43,195,43,178,32,05,33,097,43,23,32,323,19,1*58
$GPGSV,3,3,12,194,23,144,26,13,23,042,43,20,12,115,,25,,,21,1*6D
$GPGSV,2,1,07,24,75,161,50,196,73,053,42,199,60,167,44,18,57,297,26,8*60
$GPGSV,2,2,07,195,43,178,38,23,32,323,22,194,23,144,27,8*5E
$GLGSV,1,1,03,85,46,284,18,79,24,054,36,69,21,048,34,1*48
$GAGSV,2,1,05,13,66,274,34,08,56,001,36,15,43,172,33,07,39,278,22,7*79
$GAGSV,2,2,05,03,20,050,22,7*42
$GAGSV,1,1,04,13,66,274,35,08,56,001,37,15,43,172,41,03,20,050,26,1*78
$GBGSV,3,1,11,38,76,043,43,39,73,242,41,16,64,226,36,06,62,224,38,1*7A
$GBGSV,3,2,11,13,59,343,33,20,47,033,46,09,45,220,39,46,44,142,43,1*7E
$GBGSV,3,3,11,29,34,229,47,37,32,067,38,08,,,36,1*72
$GBGSV,2,1,06,38,76,043,44,39,73,242,40,20,47,033,42,46,44,142,43,4*70
$GBGSV,2,2,06,29,34,229,45,37,32,067,19,4*7D
$GNGGA,103529.000,2500.7950300,N,12132.4780500,E,2,41,0.78,12.78,M,15.25,M,4,3335*78
$GNRMC,103529.000,A,2500.7950300,N,12132.4780500,E,0.00,69.25,260623,,,D,V*3A
$GPHDT,,T*1B
$GNGGA,103529.200,2500.7950300,N,12132.4780500,E,2,41,0.78,12.78,M,15.25,M,4,3335*7A
$GNRMC,103529.200,A,2500.7950300,N,12132.4780500,E,0.01,69.25,260623,,,D,V*39
$GPHDT,,T*1B
$GNGGA,103529.400,2500.7950300,N,12132.4780500,E,2,41,0.78,12.78,M,15.25,M,4,3335*7C
$GNRMC,103529.400,A,2500.7950300,N,12132.4780500,E,0.00,69.25,260623,,,D,V*3E
$GPHDT,,T*1B
$GNGGA,103529.600,2500.7950300,N,12132.4780500,E,2,41,0.78,12.78,M,15.25,M,4,3335*7E
$GNRMC,103529.600,A,2500.7950300,N,12132.4780500,E,0.01,69.25,260623,,,D,V*3D
$GPHDT,,T*1B
$GNGGA,103529.800,2500.7950300,N,12132.4780500,E,2,41,0.78,12.78,M,15.25,M,4,3335*70
$GNRMC,103529.800,A,2500.7950300,N,12132.4780500,E,0.01,69.25,260623,,,D,V*33
$GPHDT,,T*1B
$GNGSA,A,3,24,196,199,18,15,195,05,194,13,,,,1.50,0.78,1.28,1*03
$GNGSA,A,3,79,69,,,,,,,,,,,1.50,0.78,1.28,2*03
$GNGSA,A,3,13,08,15,03,,,,,,,,,1.50,0.78,1.28,3*0E
$GNGSA,A,3,38,39,16,06,13,20,09,46,29,37,,,1.50,0.78,1.28,4*00
$GPGSV,3,1,12,24,75,161,45,196,73,053,41,199,60,167,38,18,57,297,34,1*63
$GPGSV,3,2,12,15,49,021,42,195,43,178,32,05,33,097,35,23,32,323,18,1*59
$GPGSV,3,3,12,194,23,144,27,13,23,042,42,20,12,115,,25,,,20,1*6C
$GPGSV,2,1,07,24,75,161,49,196,73,053,44,199,60,167,46,18,57,297,29,8*63
$GPGSV,2,2,07,195,43,178,38,23,32,323,20,194,23,144,29,8*52
$GLGSV,1,1,03,85,46,284,17,79,24,054,39,69,21,048,36,1*4A
$GAGSV,2,1,05,13,66,274,34,08,56,001,38,15,43,172,31,07,39,278,21,7*76
$GAGSV,2,2,05,03,20,050,25,7*45
$GAGSV,1,1,04,13,66,274,35,08,56,001,39,15,43,172,41,03,20,050,26,1*76
$GBGSV,3,1,11,38,76,043,43,39,73,242,41,16,64,226,36,06,62,224,38,1*7A
$GBGSV,3,2,11,13,59,343,33,20,47,033,45,09,45,220,38,46,44,142,43,1*7C
$GBGSV,3,3,11,29,34,229,47,37,32,067,37,08,,,37,1*7C
$GBGSV,2,1,06,38,76,043,45,39,73,242,40,20,47,033,45,46,44,142,42,4*77
$GBGSV,2,2,06,29,34,229,45,37,32,067,21,4*76
$GNGGA,103530.000,2500.7950300,N,12132.4780500,E,2,41,0.78,12.78,M,15.25,M,5,3335*71
$GNRMC,103530.000,A,2500.7950300,N,12132.4780500,E,0.00,69.25,260623,,,D,V*32
$GPHDT,,T*1B
$GNGGA,103530.200,2500.7950300,N,12132.4780500,E,2,41,0.78,12.78,M,15.25,M,5,3335*73
$GNRMC,103530.200,A,2500.7950300,N,12132.4780500,E,0.01,69.25,260623,,,D,V*31
$GPHDT,,T*1B
$GNGGA,103530.400,2500.7950300,N,12132.4780500,E,2,41,0.78,12.78,M,15.25,M,5,3335*75
$GNRMC,103530.400,A,2500.7950300,N,12132.4780500,E,0.00,69.25,260623,,,D,V*36
$GPHDT,,T*1B
$GNGGA,103530.600,2500.7950300,N,12132.4780500,E,2,41,0.78,12.79,M,15.25,M,5,3335*76
$GNRMC,103530.600,A,2500.7950300,N,12132.4780500,E,0.00,69.25,260623,,,D,V*34
$GPHDT,,T*1B
$GNGGA,103530.800,2500.7950300,N,12132.4780500,E,2,41,0.78,12.78,M,15.25,M,5,3335*79
$GNRMC,103530.800,A,2500.7950300,N,12132.4780500,E,0.00,69.25,260623,,,D,V*3A
$GPHDT,,T*1B
$GNGSA,A,3,24,196,199,18,15,195,05,194,13,,,,1.50,0.78,1.28,1*03
$GNGSA,A,3,79,69,,,,,,,,,,,1.50,0.78,1.28,2*03
$GNGSA,A,3,13,08,15,03,,,,,,,,,1.50,0.78,1.28,3*0E
$GNGSA,A,3,38,39,16,06,13,20,09,46,29,37,,,1.50,0.78,1.28,4*00
$GPGSV,3,1,11,24,75,161,45,196,73,053,41,199,60,167,38,18,57,297,34,1*60
$GPGSV,3,2,11,15,49,021,42,195,43,178,32,05,33,097,37,23,32,323,19,1*59
$GPGSV,3,3,11,194,23,144,27,13,23,042,42,20,12,115,,1*6A
$GPGSV,2,1,07,24,75,161,49,196,73,053,45,199,60,167,46,18,57,297,27,8*6C
$GPGSV,2,2,07,195,43,178,38,23,32,323,20,194,23,144,30,8*5A
$GLGSV,1,1,03,85,46,284,18,79,24,054,39,69,21,048,36,1*45
$GAGSV,2,1,05,13,66,274,34,08,56,001,38,15,43,172,30,07,39,278,20,7*76
$GAGSV,2,2,05,03,20,050,24,7*44
$GAGSV,1,1,04,13,66,274,35,08,56,001,40,15,43,172,41,03,20,050,28,1*76
$GBGSV,3,1,11,38,76,043,43,39,73,242,41,16,64,226,36,06,62,224,38,1*7A
$GBGSV,3,2,11,13,59,343,31,20,47,033,45,09,45,220,38,46,44,142,43,1*7E
$GBGSV,3,3,11,29,34,229,47,37,32,067,37,08,,,37,1*7C
$GBGSV,2,1,06,38,76,043,45,39,73,242,40,20,47,033,45,46,44,142,42,4*77
$GBGSV,2,2,06,29,34,229,45,37,32,067,21,4*76
$GNGGA,103531.000,2500.7950300,N,12132.4780500,E,2,41,0.78,12.79,M,15.25,M,6,3335*72
$GNRMC,103531.000,A,2500.7950300,N,12132.4780500,E,0.00,69.25,260623,,,D,V*33
$GPHDT,,T*1B
$GNGGA,103531.200,2500.7950300,N,12132.4780500,E,2,41,0.78,12.79,M,15.25,M,6,3335*70
$GNRMC,103531.200,A,2500.7950300,N,12132.4780500,E,0.00,69.25,260623,,,D,V*31
$GPHDT,,T*1B
$GNGGA,103531.400,2500.7950300,N,12132.4780500,E,2,41,0.78,12.79,M,15.25,M,6,3335*76
$GNRMC,103531.400,A,2500.7950300,N,12132.4780500,E,0.00,69.25,260623,,,D,V*37
$GPHDT,,T*1B
$GNGGA,103531.600,2500.7950300,N,12132.4780500,E,2,41,0.78,12.79,M,15.25,M,4,3335*76
$GNRMC,103531.600,A,2500.7950300,N,12132.4780500,E,0.00,69.25,260623,,,D,V*35
$GPHDT,,T*1B
$GNGGA,103531.800,2500.7950300,N,12132.4780500,E,2,41,0.78,12.79,M,15.25,M,2,3335*7E
$GNRMC,103531.800,A,2500.7950300,N,12132.4780500,E,0.00,69.25,260623,,,D,V*3B
$GPHDT,,T*1B
$GNGSA,A,3,24,196,199,18,15,195,05,194,13,,,,1.50,0.78,1.28,1*03
$GNGSA,A,3,79,69,,,,,,,,,,,1.50,0.78,1.28,2*03
$GNGSA,A,3,13,08,15,03,,,,,,,,,1.50,0.78,1.28,3*0E
$GNGSA,A,3,38,39,16,06,13,20,09,46,29,37,,,1.50,0.78,1.28,4*00
$GPGSV,3,1,11,24,75,161,45,196,73,053,41,199,60,167,38,18,57,297,34,1*60
$GPGSV,3,2,11,15,49,021,42,195,43,178,31,05,33,097,39,23,32,323,19,1*54
$GPGSV,3,3,11,194,23,144,27,13,23,042,42,20,12,115,,1*6A
$GPGSV,2,1,07,24,75,161,49,196,73,053,45,199,60,167,46,18,57,297,27,8*6C
$GPGSV,2,2,07,195,43,178,38,23,32,323,20,194,23,144,30,8*5A
$GLGSV,1,1,03,85,46,284,18,79,24,054,39,69,21,048,36,1*45
$GAGSV,2,1,05,13,66,274,33,08,56,001,38,15,43,172,30,07,39,278,21,7*70
$GAGSV,2,2,05,03,20,050,25,7*45
$GAGSV,1,1,04,13,66,274,35,08,56,001,40,15,43,172,41,03,20,050,29,1*77
$GBGSV,3,1,11,38,76,043,43,39,73,242,41,16,64,226,36,06,62,224,38,1*7A
$GBGSV,3,2,11,13,59,343,31,20,47,033,45,09,45,220,38,46,44,142,43,1*7E
$GBGSV,3,3,11,29,34,229,47,37,32,067,36,08,,,38,1*72
$GBGSV,2,1,06,38,76,043,45,39,73,242,40,20,47,033,44,46,44,142,42,4*76
$GBGSV,2,2,06,29,34,229,45,37,32,067,22,4*75
$GNGGA,103532.000,2500.7950300,N,12132.4780500,E,2,41,0.78,12.79,M,15.25,M,3,3335*74
$GNRMC,103532.000,A,2500.7950300,N,12132.4780500,E,0.00,69.25,260623,,,D,V*30
$GPHDT,,T*1B
$GNGGA,103532.200,2500.7950400,N,12132.4780500,E,2,41,0.78,12.79,M,15.25,M,1,3335*73
$GNRMC,103532.200,A,2500.7950400,N,12132.4780500,E,0.00,69.25,260623,,,D,V*35
$GPHDT,,T*1B
$GNGGA,103532.400,2500.7950400,N,12132.4780400,E,2,41,0.78,12.79,M,15.25,M,1,3335*74
$GNRMC,103532.400,A,2500.7950400,N,12132.4780400,E,0.00,69.25,260623,,,D,V*32
$GPHDT,,T*1B
$GNGGA,103532.600,2500.7950400,N,12132.4780400,E,2,41,0.78,12.79,M,15.25,M,1,3335*76
$GNRMC,103532.600,A,2500.7950400,N,12132.4780400,E,0.00,69.25,260623,,,D,V*30
$GPHDT,,T*1B
$GNGGA,103532.800,2500.7950400,N,12132.4780400,E,2,41,0.78,12.79,M,15.25,M,0,3335*79
$GNRMC,103532.800,A,2500.7950400,N,12132.4780400,E,0.00,69.25,260623,,,D,V*3E
$GPHDT,,T*1B
$GNGSA,A,3,24,196,199,18,15,195,05,194,13,,,,1.50,0.78,1.28,1*03
$GNGSA,A,3,79,69,,,,,,,,,,,1.50,0.78,1.28,2*03
$GNGSA,A,3,13,08,15,03,,,,,,,,,1.50,0.78,1.28,3*0E
$GNGSA,A,3,38,39,16,06,13,20,09,46,29,37,,,1.50,0.78,1.28,4*00
$GPGSV,3,1,11,24,75,161,45,196,73,053,41,199,60,167,38,18,57,297,34,1*60
$GPGSV,3,2,11,15,49,021,42,195,43,178,30,05,33,097,41,23,32,323,20,1*50
$GPGSV,3,3,11,194,23,144,29,13,23,042,42,20,12,115,,1*64
$GPGSV,2,1,07,24,75,161,49,196,73,053,45,199,60,167,46,18,57,297,26,8*6D
$GPGSV,2,2,07,195,43,178,38,23,32,323,20,194,23,144,30,8*5A
$GLGSV,1,1,03,85,46,284,17,79,24,054,40,69,21,048,36,1*44
$GAGSV,2,1,05,13,66,274,33,08,56,001,38,15,43,172,31,07,39,278,20,7*70
$GAGSV,2,2,05,03,20,050,25,7*45
$GAGSV,1,1,04,13,66,274,34,08,56,001,39,15,43,172,41,03,20,050,29,1*78
$GBGSV,3,1,11,38,76,043,43,39,73,242,41,16,64,226,35,06,62,224,38,1*79
$GBGSV,3,2,11,13,59,343,31,20,47,033,45,09,45,220,38,46,44,142,43,1*7E
$GBGSV,3,3,11,29,34,229,47,37,32,067,36,08,,,37,1*7D
$GBGSV,2,1,06,38,76,043,45,39,73,242,40,20,47,033,44,46,44,142,41,4*75
$GBGSV,2,2,06,29,34,229,44,37,32,067,20,4*76
$GNGGA,103533.000,2500.7950400,N,12132.4780400,E,2,41,0.78,12.79,M,15.25,M,1,3335*71
$GNRMC,103533.000,A,2500.7950400,N,12132.4780400,E,0.00,69.25,260623,,,D,V*37
$GPHDT,,T*1B
$GNGGA,103533.200,2500.7950400,N,12132.4780400,E,2,41,0.78,12.79,M,15.25,M,1,3335*73
$GNRMC,103533.200,A,2500.7950400,N,12132.4780400,E,0.00,69.25,260623,,,D,V*35
$GPHDT,,T*1B
$GNGGA,103533.400,2500.7950400,N,12132.4780400,E,2,41,0.78,12.79,M,15.25,M,1,3335*75
$GNRMC,103533.400,A,2500.7950400,N,12132.4780400,E,0.00,69.25,260623,,,D,V*33
$GPHDT,,T*1B
$GNGGA,103533.600,2500.7950400,N,12132.4780400,E,2,41,0.78,12.79,M,15.25,M,0,3335*76
$GNRMC,103533.600,A,2500.7950400,N,12132.4780400,E,0.00,69.25,260623,,,D,V*31
$GPHDT,,T*1B
$GNGGA,103533.800,2500.7950400,N,12132.4780400,E,2,41,0.78,12.79,M,15.25,M,0,3335*78
$GNRMC,103533.800,A,2500.7950400,N,12132.4780400,E,0.00,69.25,260623,,,D,V*3F
$GPHDT,,T*1B
$GNGSA,A,3,24,196,199,18,15,195,05,194,13,,,,1.50,0.78,1.28,1*03
$GNGSA,A,3,79,69,,,,,,,,,,,1.50,0.78,1.28,2*03
$GNGSA,A,3,13,08,15,03,,,,,,,,,1.50,0.78,1.28,3*0E
$GNGSA,A,3,38,39,16,06,13,20,09,46,29,37,,,1.50,0.78,1.28,4*00
$GPGSV,3,1,12,24,75,161,45,196,73,053,42,199,60,167,38,18,57,297,35,1*61
$GPGSV,3,2,12,15,49,021,42,195,43,178,31,05,33,097,42,23,32,323,21,1*50
$GPGSV,3,3,12,194,23,144,29,13,23,042,42,39,21,256,,20,12,115,,1*5F
$GPGSV,2,1,07,24,75,161,49,196,73,053,45,199,60,167,46,18,57,297,26,8*6D
$GPGSV,2,2,07,195,43,178,38,23,32,323,20,194,23,144,29,8*52
$GLGSV,1,1,03,85,46,284,15,79,24,054,39,69,21,048,36,1*48
$GAGSV,2,1,06,13,66,274,33,08,56,001,37,15,43,172,31,07,39,278,20,7*7C
$GAGSV,2,2,06,03,20,050,26,02,18,105,,7*7A
$GAGSV,1,1,04,13,66,274,35,08,56,001,39,15,43,172,41,03,20,050,28,1*78
$GBGSV,3,1,11,38,76,043,43,39,73,242,41,16,64,226,35,06,62,224,38,1*79
$GBGSV,3,2,11,13,59,343,32,20,47,033,45,09,45,220,37,46,44,142,43,1*72
$GBGSV,3,3,11,29,34,229,47,37,32,067,36,08,,,37,1*7D
$GBGSV,2,1,06,38,76,043,45,39,73,242,41,20,47,033,44,46,44,142,42,4*77
$GBGSV,2,2,06,29,34,229,45,37,32,067,22,4*75
$GNGGA,103534.000,2500.7950500,N,12132.4780400,E,2,41,0.78,12.79,M,15.25,M,1,3335*77
$GNRMC,103534.000,A,2500.7950500,N,12132.4780400,E,0.00,69.25,260623,,,D,V*31
$GPHDT,,T*1B
$GNGGA,103534.200,2500.7950500,N,12132.4780400,E,2,41,0.78,12.79,M,15.25,M,1,3335*75
$GNRMC,103534.200,A,2500.7950500,N,12132.4780400,E,0.00,69.25,260623,,,D,V*33
$GPHDT,,T*1B
$GNGGA,103534.400,2500.7950500,N,12132.4780300,E,2,41,0.78,12.79,M,15.25,M,1,3335*74
$GNRMC,103534.400,A,2500.7950500,N,12132.4780300,E,0.00,69.25,260623,,,D,V*32
$GPHDT,,T*1B
$GNGGA,103534.600,2500.7950500,N,12132.4780300,E,2,41,0.78,12.79,M,15.25,M,1,3335*76
$GNRMC,103534.600,A,2500.7950500,N,12132.4780300,E,0.00,69.25,260623,,,D,V*30
$GPHDT,,T*1B
$GNGGA,103534.800,2500.7950500,N,12132.4780300,E,2,41,0.78,12.79,M,15.25,M,1,3335*78
$GNRMC,103534.800,A,2500.7950500,N,12132.4780300,E,0.00,69.25,260623,,,D,V*3E
$GPHDT,,T*1B
$GNGSA,A,3,24,196,199,18,15,195,05,194,13,,,,1.50,0.78,1.28,1*03
$GNGSA,A,3,79,69,,,,,,,,,,,1.50,0.78,1.28,2*03
$GNGSA,A,3,13,08,15,03,,,,,,,,,1.50,0.78,1.28,3*0E
$GNGSA,A,3,38,39,16,06,13,20,09,46,29,37,,,1.50,0.78,1.28,4*00
$GPGSV,3,1,12,24,75,161,44,196,73,053,42,199,60,167,38,18,57,297,35,1*60
$GPGSV,3,2,12,15,49,021,42,195,43,178,31,05,33,097,42,23,32,323,22,1*53
$GPGSV,3,3,12,194,23,144,28,13,23,042,44,39,21,256,,20,12,115,,1*58
$GPGSV,2,1,07,24,75,161,49,196,73,053,45,199,60,167,46,18,57,297,26,8*6D
$GPGSV,2,2,07,195,43,178,38,23,32,323,19,194,23,144,29,8*58
$GLGSV,1,1,03,85,46,284,16,79,24,054,37,69,21,048,34,1*47
$GAGSV,2,1,06,13,66,274,33,08,56,001,36,15,43,172,32,07,39,278,22,7*7C
$GAGSV,2,2,06,03,20,050,24,02,18,105,,7*78
$GAGSV,1,1,04,13,66,274,35,08,56,001,39,15,43,172,41,03,20,050,28,1*78
$GBGSV,3,1,11,38,76,043,43,39,73,242,41,16,64,226,35,06,62,224,38,1*79
$GBGSV,3,2,11,13,59,343,33,20,47,033,45,09,45,220,37,46,44,142,43,1*73
$GBGSV,3,3,11,29,34,229,46,37,32,067,37,08,,,37,1*7D
$GBGSV,2,1,06,38,76,043,45,39,73,242,41,20,47,033,44,46,44,142,42,4*77
$GBGSV,2,2,06,29,34,229,45,37,32,067,19,4*7D
$GNGGA,103535.000,2500.7950500,N,12132.4780200,E,2,41,0.78,12.79,M,15.25,M,2,3335*73
$GNRMC,103535.000,A,2500.7950500,N,12132.4780200,E,0.00,69.25,260623,,,D,V*36
$GPHDT,,T*1B
$GNGGA,103535.200,2500.7950500,N,12132.4780200,E,2,41,0.78,12.79,M,15.25,M,2,3335*71
$GNRMC,103535.200,A,2500.7950500,N,12132.4780200,E,0.00,69.25,260623,,,D,V*34
$GPHDT,,T*1B
$GNGGA,103535.400,2500.7950500,N,12132.4780200,E,2,41,0.78,12.79,M,15.25,M,2,3335*77
$GNRMC,103535.400,A,2500.7950500,N,12132.4780200,E,0.00,69.25,260623,,,D,V*32
$GPHDT,,T*1B
$GNGGA,103535.600,2500.7950500,N,12132.4780200,E,2,41,0.78,12.79,M,15.25,M,2,3335*75
$GNRMC,103535.600,A,2500.7950500,N,12132.4780200,E,0.00,69.25,260623,,,D,V*30
$GPHDT,,T*1B
$GNGGA,103535.800,2500.7950500,N,12132.4780200,E,2,41,0.78,12.79,M,15.25,M,2,3335*7B
$GNRMC,103535.800,A,2500.7950500,N,12132.4780200,E,0.00,69.25,260623,,,D,V*3E
$GPHDT,,T*1B
$GNGSA,A,3,24,196,199,18,15,195,05,13,194,,,,1.50,0.78,1.28,1*03
$GNGSA,A,3,79,69,,,,,,,,,,,1.50,0.78,1.28,2*03
$GNGSA,A,3,13,08,15,03,,,,,,,,,1.50,0.78,1.28,3*0E
$GNGSA,A,3,38,39,16,06,13,20,09,46,29,37,,,1.50,0.78,1.28,4*00
$GPGSV,3,1,12,24,75,161,44,196,73,053,42,199,60,167,38,18,57,297,35,1*60
$GPGSV,3,2,12,15,49,021,42,195,43,178,31,05,33,097,41,23,32,323,18,1*59
$GPGSV,3,3,12,13,23,042,43,194,23,144,28,39,21,256,,20,12,115,,1*5F
$GPGSV,2,1,07,24,75,161,49,196,73,053,45,199,60,167,46,18,57,297,25,8*6E
$GPGSV,2,2,07,195,43,178,38,23,32,323,22,194,23,144,29,8*50
$GLGSV,2,1,05,85,46,284,17,79,24,054,37,69,21,048,31,86,15,326,,1*7B
$GLGSV,2,2,05,71,13,289,,1*4A
$GAGSV,2,1,06,13,66,274,33,08,56,001,36,15,43,172,31,07,39,278,22,7*7F
$GAGSV,2,2,06,03,20,050,22,02,18,105,,7*7E
$GAGSV,1,1,04,13,66,274,35,08,56,001,39,15,43,172,41,03,20,050,30,1*71
$GBGSV,3,1,11,38,76,043,43,39,73,242,40,16,64,226,35,06,62,224,38,1*78
$GBGSV,3,2,11,13,59,343,33,20,47,033,46,09,45,220,37,46,44,142,44,1*77
$GBGSV,3,3,11,29,34,229,46,37,32,067,37,08,,,37,1*7D
$GBGSV,2,1,06,38,76,043,45,39,73,242,41,20,47,033,44,46,44,142,42,4*77
$GBGSV,2,2,06,29,34,229,45,37,32,067,18,4*7C
$GNGGA,103536.000,2500.7950600,N,12132.4780100,E,2,41,0.78,12.79,M,15.25,M,3,3335*71
$GNRMC,103536.000,A,2500.7950600,N,12132.4780100,E,0.00,69.25,260623,,,D,V*35
$GPHDT,,T*1B
$GNGGA,103536.200,2500.7950600,N,12132.4780100,E,2,41,0.78,12.80,M,15.25,M,1,3335*77
$GNRMC,103536.200,A,2500.7950600,N,12132.4780100,E,0.00,69.25,260623,,,D,V*37
$GPHDT,,T*1B
$GNGGA,103536.400,2500.7950600,N,12132.4780100,E,2,41,0.78,12.80,M,15.25,M,1,3335*71
$GNRMC,103536.400,A,2500.7950600,N,12132.4780100,E,0.00,69.25,260623,,,D,V*31
$GPHDT,,T*1B
$GNGGA,103536.600,2500.7950600,N,12132.4780100,E,2,41,0.78,12.80,M,15.25,M,1,3335*73
$GNRMC,103536.600,A,2500.7950600,N,12132.4780100,E,0.00,69.25,260623,,,D,V*33
$GPHDT,,T*1B
$GNGGA,103536.800,2500.7950600,N,12132.4780100,E,2,41,0.78,12.80,M,15.25,M,1,3335*7D
$GNRMC,103536.800,A,2500.7950600,N,12132.4780100,E,0.00,69.25,260623,,,D,V*3D
$GPHDT,,T*1B
$GNGSA,A,3,24,196,199,18,15,195,05,194,13,,,,1.50,0.78,1.28,1*03
$GNGSA,A,3,79,69,,,,,,,,,,,1.50,0.78,1.28,2*03
$GNGSA,A,3,13,08,15,03,,,,,,,,,1.50,0.78,1.28,3*0E
$GNGSA,A,3,38,39,16,06,13,20,09,46,29,37,,,1.50,0.78,1.28,4*00
$GPGSV,3,1,12,24,75,161,44,196,73,053,42,199,60,167,38,18,57,297,34,1*61
$GPGSV,3,2,12,15,49,021,42,195,43,178,31,05,33,097,41,23,32,323,18,1*59
$GPGSV,3,3,12,194,23,144,27,13,23,042,43,39,21,256,27,20,12,115,,1*55
$GPGSV,2,1,07,24,75,161,49,196,73,053,45,199,60,167,46,18,57,297,24,8*6F
$GPGSV,2,2,07,195,43,178,38,23,32,323,22,194,23,144,28,8*51
$GLGSV,1,1,03,85,46,283,16,79,24,054,36,69,21,048,32,1*47
$GAGSV,2,1,06,13,66,274,33,08,56,001,37,15,43,172,30,07,39,278,22,7*7F
$GAGSV,2,2,06,03,20,050,23,02,18,105,,7*7F
$GAGSV,1,1,04,13,66,274,35,08,56,001,39,15,43,172,41,03,20,050,30,1*71
$GBGSV,3,1,11,38,76,043,43,39,73,242,40,16,64,226,35,06,62,224,38,1*78
$GBGSV,3,2,11,13,59,343,33,20,47,033,46,09,45,220,37,46,44,142,44,1*77
$GBGSV,3,3,11,29,34,229,46,37,32,067,36,08,,,37,1*7C
$GBGSV,2,1,06,38,76,043,45,39,73,242,40,20,47,033,44,46,44,142,42,4*76
$GBGSV,2,2,06,29,34,229,45,37,32,067,19,4*7D
$GNGGA,103537.000,2500.7950700,N,12132.4780100,E,2,41,0.78,12.80,M,15.25,M,2,3335*76
$GNRMC,103537.000,A,2500.7950700,N,12132.4780100,E,0.00,69.25,260623,,,D,V*35
$GPHDT,,T*1B
$GNGGA,103537.200,2500.7950700,N,12132.4780000,E,2,41,0.78,12.80,M,15.25,M,2,3335*75
$GNRMC,103537.200,A,2500.7950700,N,12132.4780000,E,0.00,69.25,260623,,,D,V*36
$GPHDT,,T*1B
$GNGGA,103537.400,2500.7950700,N,12132.4780000,E,2,41,0.78,12.80,M,15.25,M,2,3335*73
$GNRMC,103537.400,A,2500.7950700,N,12132.4780000,E,0.00,69.25,260623,,,D,V*30
$GPHDT,,T*1B
$GNGGA,103537.600,2500.7950700,N,12132.4780000,E,2,41,0.78,12.80,M,15.25,M,2,3335*71
$GNRMC,103537.600,A,2500.7950700,N,12132.4780000,E,0.00,69.25,260623,,,D,V*32
$GPHDT,,T*1B
$GNGGA,103537.800,2500.7950700,N,12132.4779900,E,2,41,0.78,12.81,M,15.25,M,2,3335*71
$GNRMC,103537.800,A,2500.7950700,N,12132.4779900,E,0.00,69.25,260623,,,D,V*33
$GPHDT,,T*1B
$GNGSA,A,3,24,196,199,18,15,195,05,194,13,,,,1.50,0.78,1.28,1*03
$GNGSA,A,3,79,69,,,,,,,,,,,1.50,0.78,1.28,2*03
$GNGSA,A,3,13,08,15,03,,,,,,,,,1.50,0.78,1.28,3*0E
$GNGSA,A,3,38,39,16,06,13,20,09,46,29,37,,,1.50,0.78,1.28,4*00
$GPGSV,3,1,12,24,75,161,44,196,73,053,42,199,60,167,38,18,57,297,34,1*61
$GPGSV,3,2,12,15,49,021,43,195,43,178,31,05,33,097,41,23,32,323,18,1*58
$GPGSV,3,3,12,194,23,144,26,13,23,042,43,39,21,256,,20,12,115,,1*51
$GPGSV,2,1,07,24,75,161,49,196,73,053,45,199,60,167,46,18,57,297,24,8*6F
$GPGSV,2,2,07,195,43,178,38,23,32,323,22,194,23,144,28,8*51
$GLGSV,1,1,03,85,46,283,18,79,24,054,36,69,21,048,34,1*4F
$GAGSV,2,1,06,13,66,274,33,08,56,001,37,15,43,172,30,07,39,278,22,7*7F
$GAGSV,2,2,06,03,20,050,24,02,18,105,,7*78
$GAGSV,1,1,04,13,66,274,35,08,56,001,38,15,43,172,41,03,20,050,30,1*70
$GBGSV,3,1,11,38,76,043,43,39,73,242,40,16,64,226,35,06,62,224,38,1*78
$GBGSV,3,2,11,13,59,343,33,20,47,033,46,09,45,220,37,46,44,142,44,1*77
$GBGSV,3,3,11,29,34,229,46,37,32,067,35,08,,,37,1*7F
$GBGSV,2,1,06,38,76,043,45,39,73,242,40,20,47,033,43,46,44,142,42,4*71
$GBGSV,2,2,06,29,34,229,45,37,32,067,20,4*77
$GNGGA,103538.000,2500.7950700,N,12132.4779900,E,2,41,0.78,12.81,M,15.25,M,3,3335*77
$GNRMC,103538.000,A,2500.7950700,N,12132.4779900,E,0.00,69.25,260623,,,D,V*34
$GPHDT,,T*1B
$GNGGA,103538.200,2500.7950700,N,12132.4779900,E,2,41,0.78,12.81,M,15.25,M,3,3335*75
$GNRMC,103538.200,A,2500.7950700,N,12132.4779900,E,0.00,69.25,260623,,,D,V*36
$GPHDT,,T*1B
$GNGGA,103538.400,2500.7950700,N,12132.4779900,E,2,41,0.78,12.81,M,15.25,M,3,3335*73
$GNRMC,103538.400,A,2500.7950700,N,12132.4779900,E,0.00,69.25,260623,,,D,V*30
$GPHDT,,T*1B
$GNGGA,103538.600,2500.7950700,N,12132.4779900,E,2,41,0.78,12.81,M,15.25,M,3,3335*71
$GNRMC,103538.600,A,2500.7950700,N,12132.4779900,E,0.00,69.25,260623,,,D,V*32
