$FW : RTK35X,V1.1X0314AS,Lib20210517,1*54
$Tool : LOCOSYS , GNSS Firebird , v1.0.0.19*39
$---------------------------------------------------*2D
$GPHDT,,T*1B
$GNGSA,A,3,24,196,199,15,195,05,13,,,,,,1.64,0.93,1.35,1*38
$GNGSA,A,3,79,69,,,,,,,,,,,1.64,0.93,1.35,2*0D
$GNGSA,A,3,08,15,03,,,,,,,,,,1.64,0.93,1.35,3*02
$GNGSA,A,3,38,39,16,06,20,09,46,29,37,,,,1.64,0.93,1.35,4*0C
$GPGSV,3,1,11,24,74,163,44,196,73,053,42,199,60,167,38,18,56,298,23,1*69
$GPGSV,3,2,11,15,50,019,45,45,47,231,36,195,43,178,43,05,33,095,44,1*50
$GPGSV,3,3,11,13,24,041,39,194,22,144,19,20,13,114,,1*6E
$GPGSV,1,1,04,24,74,163,48,196,73,053,44,199,60,167,47,195,43,178,46,8*5A
$GLGSV,1,1,04,85,46,285,21,79,24,055,28,69,22,047,37,86,14,326,20,1*7B
$GAGSV,2,1,07,13,66,277,27,08,56,000,33,15,44,172,37,03,20,049,33,7*71
$GAGSV,2,2,07,26,19,321,,02,17,106,,25,05,060,,7*4F
$GAGSV,1,1,04,13,66,277,33,08,56,000,34,15,44,172,44,03,20,049,34,1*76
$GBGSV,3,1,11,38,76,043,43,39,73,241,38,16,64,225,35,06,62,224,36,1*79
$GBGSV,3,2,11,13,59,343,32,20,47,032,45,09,45,219,40,46,44,143,46,1*7D
$GBGSV,3,3,11,29,35,229,47,37,33,068,33,40,01,189,,1*4E
$GBGSV,2,1,06,38,76,043,44,39,73,241,38,20,47,032,45,46,44,143,44,4*7C
$GBGSV,2,2,06,29,35,229,43,37,33,068,33,4*7C
$GNGGA,103339.000,2500.7947400,N,12132.4784300,E,2,34,0.93,15.10,M,15.25,M,2,3335*74
$GNRMC,103339.000,A,2500.7947400,N,12132.4784300,E,0.00,87.96,260623,,,D,V*36
$GPHDT,,T*1B
$GNGGA,103339.200,2500.7947400,N,12132.4784300,E,2,34,0.93,15.10,M,15.25,M,2,3335*76
$GNRMC,103339.200,A,2500.7947400,N,12132.4784300,E,0.00,87.96,260623,,,D,V*34
$GPHDT,,T*1B
$GNGGA,103339.400,2500.7947400,N,12132.4784300,E,2,34,0.93,15.10,M,15.25,M,2,3335*70
$GNRMC,103339.400,A,2500.7947400,N,12132.4784300,E,0.00,87.96,260623,,,D,V*32
$GPHDT,,T*1B
$GNGGA,103339.600,2500.7947400,N,12132.4784300,E,2,34,0.93,15.10,M,15.25,M,2,3335*72
$GNRMC,103339.600,A,2500.7947400,N,12132.4784300,E,0.00,87.96,260623,,,D,V*30
$GPHDT,,T*1B
$GNGGA,103339.800,2500.7947400,N,12132.4784300,E,2,34,0.93,15.10,M,15.25,M,2,3335*7C
$GNRMC,103339.800,A,2500.7947400,N,12132.4784300,E,0.00,87.96,260623,,,D,V*3E
$GPHDT,,T*1B
$GNGSA,A,3,24,196,199,15,195,05,13,,,,,,1.64,0.93,1.35,1*38
$GNGSA,A,3,79,69,,,,,,,,,,,1.64,0.93,1.35,2*0D
$GNGSA,A,3,08,15,03,,,,,,,,,,1.64,0.93,1.35,3*02
$GNGSA,A,3,38,39,16,06,20,09,46,29,37,,,,1.64,0.93,1.35,4*0C
$GPGSV,3,1,11,24,74,163,44,196,73,053,42,199,60,167,38,18,56,298,22,1*68
$GPGSV,3,2,11,15,50,019,45,45,47,231,36,195,43,178,43,05,33,095,44,1*50
$GPGSV,3,3,11,13,24,041,38,194,22,144,17,20,13,114,,1*61
$GPGSV,2,1,05,24,74,163,48,196,73,053,45,199,60,167,46,195,43,178,46,8*58
$GPGSV,2,2,05,194,22,144,21,8*66
$GLGSV,1,1,04,85,46,285,23,79,24,055,28,69,22,047,37,86,14,326,19,1*73
$GAGSV,2,1,07,13,66,277,28,08,56,000,33,15,44,172,37,03,20,049,34,7*79
$GAGSV,2,2,07,26,19,321,,02,17,106,,25,05,060,,7*4F
$GAGSV,1,1,04,13,66,277,33,08,56,000,34,15,44,172,44,03,20,049,34,1*76
$GBGSV,3,1,10,38,76,043,43,39,73,241,38,16,64,225,35,06,62,224,36,1*78
$GBGSV,3,2,10,13,59,343,32,20,47,032,45,09,45,219,41,46,44,143,46,1*7D
$GBGSV,3,3,10,29,35,229,47,37,33,068,33,1*7A
$GBGSV,2,1,06,38,76,043,45,39,73,241,38,20,47,032,45,46,44,143,44,4*7D
$GBGSV,2,2,06,29,35,229,43,37,33,068,33,4*7C
$GNGGA,103340.000,2500.7947400,N,12132.4784300,E,2,34,0.93,15.10,M,15.25,M,3,3335*7B
$GNRMC,103340.000,A,2500.7947400,N,12132.4784300,E,0.00,87.96,260623,,,D,V*38
$GPHDT,,T*1B
$GNGGA,103340.200,2500.7947400,N,12132.4784300,E,2,34,0.93,15.10,M,15.25,M,3,3335*79
$GNRMC,103340.200,A,2500.7947400,N,12132.4784300,E,0.00,87.96,260623,,,D,V*3A
$GPHDT,,T*1B
$GNGGA,103340.400,2500.7947400,N,12132.4784300,E,2,34,0.93,15.10,M,15.25,M,3,3335*7F
$GNRMC,103340.400,A,2500.7947400,N,12132.4784300,E,0.00,87.96,260623,,,D,V*3C
$GPHDT,,T*1B
$GNGGA,103340.600,2500.7947400,N,12132.4784300,E,2,34,0.93,15.10,M,15.25,M,3,3335*7D
$GNRMC,103340.600,A,2500.7947400,N,12132.4784300,E,0.00,87.96,260623,,,D,V*3E
$GPHDT,,T*1B
$GNGGA,103340.800,2500.7947400,N,12132.4784300,E,2,34,0.93,15.10,M,15.25,M,2,3335*72
$GNRMC,103340.800,A,2500.7947400,N,12132.4784300,E,0.00,87.96,260623,,,D,V*30
$GPHDT,,T*1B
$GNGSA,A,3,24,196,199,15,195,05,13,,,,,,1.64,0.93,1.35,1*38
$GNGSA,A,3,79,69,,,,,,,,,,,1.64,0.93,1.35,2*0D
$GNGSA,A,3,08,15,03,,,,,,,,,,1.64,0.93,1.35,3*02
$GNGSA,A,3,38,39,16,06,20,09,46,29,37,,,,1.64,0.93,1.35,4*0C
$GPGSV,3,1,11,24,74,163,44,196,73,053,42,199,60,167,38,18,56,298,21,1*6B
$GPGSV,3,2,11,15,50,019,45,45,47,231,36,195,43,178,43,05,33,096,44,1*53
$GPGSV,3,3,11,13,24,041,38,194,22,144,16,20,13,114,,1*60
$GPGSV,2,1,05,24,74,163,48,196,73,053,45,199,60,167,46,195,43,178,46,8*58
$GPGSV,2,2,05,194,22,144,22,8*65
$GLGSV,1,1,04,85,46,285,25,79,24,055,28,69,22,047,37,86,14,326,19,1*75
$GAGSV,2,1,05,13,66,277,28,08,56,000,33,15,44,172,36,03,20,049,34,7*7A
$GAGSV,2,2,05,26,19,321,,7*4A
$GAGSV,1,1,04,13,66,277,33,08,56,000,34,15,44,172,44,03,20,049,34,1*76
$GBGSV,4,1,13,38,76,043,43,39,73,241,38,16,64,225,35,06,62,224,36,1*7C
$GBGSV,4,2,13,13,59,343,32,20,47,032,45,09,45,219,41,46,44,143,46,1*79
$GBGSV,4,3,13,19,39,319,,29,35,229,47,37,33,068,33,35,24,292,,1*7E
$GBGSV,4,4,13,30,10,178,,1*48
$GBGSV,2,1,06,38,76,043,45,39,73,241,38,20,47,032,45,46,44,143,44,4*7D
$GBGSV,2,2,06,29,35,229,43,37,33,068,33,4*7C
$GNGGA,103341.000,2500.7947400,N,12132.4784300,E,2,34,0.93,15.10,M,15.25,M,3,3335*7A
$GNRMC,103341.000,A,2500.7947400,N,12132.4784300,E,0.00,87.96,260623,,,D,V*39
$GPHDT,,T*1B
$GNGGA,103341.200,2500.7947400,N,12132.4784300,E,2,34,0.93,15.10,M,15.25,M,1,3335*7A
$GNRMC,103341.200,A,2500.7947400,N,12132.4784300,E,0.00,87.96,260623,,,D,V*3B
$GPHDT,,T*1B
$GNGGA,103341.400,2500.7947400,N,12132.4784300,E,2,34,0.93,15.10,M,15.25,M,1,3335*7C
$GNRMC,103341.400,A,2500.7947400,N,12132.4784300,E,0.00,87.96,260623,,,D,V*3D
$GPHDT,,T*1B
$GNGGA,103341.600,2500.7947400,N,12132.4784300,E,2,34,0.93,15.11,M,15.25,M,1,3335*7F
$GNRMC,103341.600,A,2500.7947400,N,12132.4784300,E,0.00,87.96,260623,,,D,V*3F
$GPHDT,,T*1B
$GNGGA,103341.800,2500.7947400,N,12132.4784300,E,2,34,0.93,15.11,M,15.25,M,1,3335*71
$GNRMC,103341.800,A,2500.7947400,N,12132.4784300,E,0.00,87.96,260623,,,D,V*31
$GPHDT,,T*1B
$GNGSA,A,3,24,196,199,15,195,05,13,,,,,,1.64,0.93,1.35,1*38
$GNGSA,A,3,79,69,,,,,,,,,,,1.64,0.93,1.35,2*0D
$GNGSA,A,3,08,15,03,,,,,,,,,,1.64,0.93,1.35,3*02
$GNGSA,A,3,38,39,16,06,20,09,46,29,37,,,,1.64,0.93,1.35,4*0C
$GPGSV,3,1,11,24,74,163,44,196,73,053,42,199,60,167,37,18,56,298,20,1*65
$GPGSV,3,2,11,15,50,019,45,45,47,231,36,195,43,178,43,05,33,096,44,1*53
$GPGSV,3,3,11,13,24,041,38,194,22,144,,20,13,114,,1*67
$GPGSV,2,1,05,24,74,163,48,196,73,053,45,199,60,167,46,195,43,178,46,8*58
$GPGSV,2,2,05,194,22,144,22,8*65
$GLGSV,1,1,04,85,46,285,26,79,24,055,29,69,22,047,37,86,14,326,19,1*77
$GAGSV,2,1,05,13,66,277,28,08,56,000,33,15,44,172,36,03,20,049,34,7*7A
$GAGSV,2,2,05,26,19,321,,7*4A
$GAGSV,1,1,04,13,66,277,33,08,56,000,34,15,44,172,44,03,20,049,34,1*76
$GBGSV,3,1,10,38,76,043,43,39,73,241,38,16,64,225,34,06,62,224,36,1*79
$GBGSV,3,2,10,13,59,343,32,20,47,032,45,09,45,219,41,46,44,143,46,1*7D
$GBGSV,3,3,10,29,35,229,47,37,33,068,32,1*7B
$GBGSV,2,1,06,38,76,043,45,39,73,241,38,20,47,032,45,46,44,143,44,4*7D
$GBGSV,2,2,06,29,35,229,43,37,33,068,33,4*7C
$GNGGA,103342.000,2500.7947400,N,12132.4784300,E,2,34,0.93,15.11,M,15.25,M,2,3335*79
$GNRMC,103342.000,A,2500.7947400,N,12132.4784300,E,0.00,87.96,260623,,,D,V*3A
$GPHDT,,T*1B
$GNGGA,103342.200,2500.7947400,N,12132.4784300,E,2,34,0.93,15.11,M,15.25,M,2,3335*7B
$GNRMC,103342.200,A,2500.7947400,N,12132.4784300,E,0.00,87.96,260623,,,D,V*38
$GPHDT,,T*1B
$GNGGA,103342.400,2500.7947400,N,12132.4784300,E,2,34,0.93,15.11,M,15.25,M,2,3335*7D
$GNRMC,103342.400,A,2500.7947400,N,12132.4784300,E,0.00,87.96,260623,,,D,V*3E
$GPHDT,,T*1B
$GNGGA,103342.600,2500.7947400,N,12132.4784300,E,2,34,0.93,15.11,M,15.25,M,2,3335*7F
$GNRMC,103342.600,A,2500.7947400,N,12132.4784300,E,0.00,87.96,260623,,,D,V*3C
$GPHDT,,T*1B
$GNGGA,103342.800,2500.7947400,N,12132.4784300,E,2,34,0.93,15.11,M,15.25,M,2,3335*71
$GNRMC,103342.800,A,2500.7947400,N,12132.4784300,E,0.00,87.96,260623,,,D,V*32
$GPHDT,,T*1B
$GNGSA,A,3,24,196,199,15,195,05,13,,,,,,1.64,0.93,1.35,1*38
$GNGSA,A,3,79,69,,,,,,,,,,,1.64,0.93,1.35,2*0D
$GNGSA,A,3,08,15,03,,,,,,,,,,1.64,0.93,1.35,3*02
$GNGSA,A,3,38,39,16,06,20,09,46,29,37,,,,1.64,0.93,1.35,4*0C
$GPGSV,3,1,12,24,74,163,44,196,73,053,42,199,60,167,37,18,56,298,20,1*66
$GPGSV,3,2,12,15,50,020,45,45,47,231,36,195,43,178,43,05,33,096,44,1*5A
$GPGSV,3,3,12,23,31,323,,13,24,041,38,194,22,144,,20,13,114,,1*55
$GPGSV,2,1,06,24,74,163,49,196,73,053,46,199,60,167,46,18,56,298,23,8*67
$GPGSV,2,2,06,195,43,178,45,194,22,144,24,8*65
$GLGSV,1,1,04,85,46,285,27,79,24,055,29,69,22,047,37,86,14,326,19,1*76
$GAGSV,2,1,05,13,66,277,28,08,56,000,33,15,44,172,36,03,20,049,34,7*7A
$GAGSV,2,2,05,26,19,321,,7*4A
$GAGSV,1,1,04,13,66,277,33,08,56,000,34,15,44,172,44,03,20,049,34,1*76
$GBGSV,3,1,10,38,76,043,43,39,73,241,38,16,64,225,34,06,62,224,36,1*79
$GBGSV,3,2,10,13,59,343,32,20,47,032,45,09,45,219,41,46,44,143,46,1*7D
$GBGSV,3,3,10,29,35,229,47,37,33,068,31,1*78
$GBGSV,2,1,06,38,76,043,45,39,73,241,38,20,47,032,45,46,44,143,44,4*7D
$GBGSV,2,2,06,29,35,229,43,37,33,068,33,4*7C
$GNGGA,103343.000,2500.7947400,N,12132.4784300,E,2,34,0.93,15.11,M,15.25,M,3,3335*79
$GNRMC,103343.000,A,2500.7947400,N,12132.4784300,E,0.00,87.96,260623,,,D,V*3B
$GPHDT,,T*1B
$GNGGA,103343.200,2500.7947400,N,12132.4784300,E,2,34,0.93,15.11,M,15.25,M,3,3335*7B
$GNRMC,103343.200,A,2500.7947400,N,12132.4784300,E,0.00,87.96,260623,,,D,V*39
$GPHDT,,T*1B
$GNGGA,103343.400,2500.7947400,N,12132.4784300,E,2,34,0.93,15.11,M,15.25,M,3,3335*7D
$GNRMC,103343.400,A,2500.7947400,N,12132.4784300,E,0.00,87.96,260623,,,D,V*3F
$GPHDT,,T*1B
$GNGGA,103343.600,2500.7947400,N,12132.4784300,E,2,34,0.93,15.11,M,15.25,M,3,3335*7F
$GNRMC,103343.600,A,2500.7947400,N,12132.4784300,E,0.00,87.96,260623,,,D,V*3D
$GPHDT,,T*1B
$GNGGA,103343.800,2500.7947400,N,12132.4784300,E,2,34,0.93,15.11,M,15.25,M,3,3335*71
$GNRMC,103343.800,A,2500.7947400,N,12132.4784300,E,0.00,87.96,260623,,,D,V*33
$GPHDT,,T*1B
$GNGSA,A,3,24,196,199,15,195,05,13,,,,,,1.64,0.93,1.35,1*38
$GNGSA,A,3,79,69,,,,,,,,,,,1.64,0.93,1.35,2*0D
$GNGSA,A,3,08,15,03,,,,,,,,,,1.64,0.93,1.35,3*02
$GNGSA,A,3,38,39,16,06,20,09,46,29,37,,,,1.64,0.93,1.35,4*0C
$GPGSV,3,1,12,24,74,163,44,196,73,053,42,199,60,167,37,18,57,298,20,1*67
$GPGSV,3,2,12,15,50,020,45,45,47,231,36,195,43,178,43,05,33,096,44,1*5A
$GPGSV,3,3,12,23,31,323,,13,24,041,38,194,22,144,,20,13,115,,1*54
$GPGSV,2,1,06,24,74,163,49,196,73,053,46,199,60,167,46,18,57,298,23,8*66
$GPGSV,2,2,06,195,43,178,45,194,22,144,24,8*65
$GLGSV,1,1,04,85,46,285,27,79,24,055,29,69,22,047,37,86,14,326,19,1*76
$GAGSV,2,1,05,13,66,277,28,08,56,000,32,15,44,172,36,03,20,049,34,7*7B
$GAGSV,2,2,05,26,19,321,,7*4A
$GAGSV,1,1,04,13,66,277,33,08,56,000,34,15,44,172,44,03,20,049,34,1*76
$GBGSV,3,1,10,38,76,043,43,39,73,241,38,16,64,225,34,06,62,224,36,1*79
$GBGSV,3,2,10,13,59,343,32,20,47,032,45,09,45,219,41,46,44,143,46,1*7D
$GBGSV,3,3,10,29,35,229,47,37,33,068,31,1*78
$GBGSV,2,1,06,38,76,043,45,39,73,241,38,20,47,032,45,46,44,143,44,4*7D
$GBGSV,2,2,06,29,35,229,43,37,33,068,33,4*7C
$GNGGA,103344.000,2500.7947400,N,12132.4784300,E,2,34,0.93,15.11,M,15.25,M,4,3335*79
$GNRMC,103344.000,A,2500.7947400,N,12132.4784300,E,0.00,87.96,260623,,,D,V*3C
$GPHDT,,T*1B
$GNGGA,103344.200,2500.7947400,N,12132.4784300,E,2,34,0.93,15.11,M,15.25,M,4,3335*7B
$GNRMC,103344.200,A,2500.7947400,N,12132.4784300,E,0.00,87.96,260623,,,D,V*3E
$GPHDT,,T*1B
$GNGGA,103344.400,2500.7947400,N,12132.4784300,E,2,35,0.89,15.11,M,15.25,M,4,3335*77
$GNRMC,103344.400,A,2500.7947400,N,12132.4784300,E,0.00,87.96,260623,,,D,V*38
$GPHDT,,T*1B
$GNGGA,103344.600,2500.7947400,N,12132.4784300,E,2,35,0.89,15.11,M,15.25,M,4,3335*75
$GNRMC,103344.600,A,2500.7947400,N,12132.4784300,E,0.00,87.96,260623,,,D,V*3A
$GPHDT,,T*1B
$GNGGA,103344.800,2500.7947400,N,12132.4784300,E,2,35,0.89,15.11,M,15.25,M,4,3335*7B
$GNRMC,103344.800,A,2500.7947400,N,12132.4784300,E,0.00,87.96,260623,,,D,V*34
$GPHDT,,T*1B
$GNGSA,A,3,24,196,199,15,195,05,13,,,,,,1.62,0.89,1.35,1*35
$GNGSA,A,3,79,69,,,,,,,,,,,1.62,0.89,1.35,2*00
$GNGSA,A,3,08,15,03,,,,,,,,,,1.62,0.89,1.35,3*0F
$GNGSA,A,3,38,39,16,06,13,20,09,46,29,37,,,1.62,0.89,1.35,4*03
$GPGSV,3,1,12,24,74,163,44,196,73,053,42,199,60,167,37,18,57,298,21,1*66
$GPGSV,3,2,12,15,50,020,45,45,47,231,36,195,43,178,43,05,33,096,43,1*5D
$GPGSV,3,3,12,23,31,323,,13,24,041,38,194,22,144,,20,13,115,,1*54
$GPGSV,2,1,06,24,74,163,49,196,73,053,46,199,60,167,46,18,57,298,24,8*61
$GPGSV,2,2,06,195,43,178,45,194,22,144,25,8*64
$GLGSV,1,1,04,85,46,285,27,79,24,055,29,69,22,047,37,86,14,326,19,1*76
$GAGSV,2,1,05,13,66,277,28,08,56,000,33,15,44,172,36,03,20,049,34,7*7A
$GAGSV,2,2,05,26,19,321,,7*4A
$GAGSV,1,1,04,13,66,277,34,08,56,000,34,15,44,172,44,03,20,049,34,1*71
$GBGSV,3,1,10,38,76,043,43,39,73,241,38,16,64,225,34,06,62,224,36,1*79
$GBGSV,3,2,10,13,59,343,33,20,47,032,45,09,45,219,41,46,44,143,46,1*7C
$GBGSV,3,3,10,29,35,229,47,37,33,068,31,1*78
$GBGSV,2,1,06,38,76,043,45,39,73,241,38,20,47,032,45,46,44,143,45,4*7C
$GBGSV,2,2,06,29,35,229,43,37,33,068,33,4*7C
$GNGGA,103345.000,2500.7947400,N,12132.4784300,E,2,35,0.89,15.11,M,15.25,M,5,3335*73
$GNRMC,103345.000,A,2500.7947400,N,12132.4784300,E,0.00,87.96,260623,,,D,V*3D
$GPHDT,,T*1B
$GNGGA,103345.200,2500.7947400,N,12132.4784300,E,2,35,0.89,15.11,M,15.25,M,5,3335*71
$GNRMC,103345.200,A,2500.7947400,N,12132.4784300,E,0.00,87.96,260623,,,D,V*3F
$GPHDT,,T*1B
$GNGGA,103345.400,2500.7947400,N,12132.4784300,E,2,35,0.89,15.11,M,15.25,M,5,3335*77
$GNRMC,103345.400,A,2500.7947400,N,12132.4784300,E,0.00,87.96,260623,,,D,V*39
$GPHDT,,T*1B
$GNGGA,103345.600,2500.7947400,N,12132.4784300,E,2,35,0.89,15.11,M,15.25,M,5,3335*75
$GNRMC,103345.600,A,2500.7947400,N,12132.4784300,E,0.00,87.96,260623,,,D,V*3B
$GPHDT,,T*1B
$GNGGA,103345.800,2500.7947400,N,12132.4784300,E,2,35,0.89,15.11,M,15.25,M,5,3335*7B
$GNRMC,103345.800,A,2500.7947400,N,12132.4784300,E,0.00,87.96,260623,,,D,V*35
$GPHDT,,T*1B
$GNGSA,A,3,24,196,199,15,195,05,13,,,,,,1.62,0.89,1.35,1*35
$GNGSA,A,3,79,69,,,,,,,,,,,1.62,0.89,1.35,2*00
$GNGSA,A,3,08,15,03,,,,,,,,,,1.62,0.89,1.35,3*0F
$GNGSA,A,3,38,39,16,06,13,20,09,46,29,37,,,1.62,0.89,1.35,4*03
$GPGSV,3,1,12,24,74,163,44,196,73,053,43,199,60,167,37,18,57,298,22,1*64
$GPGSV,3,2,12,15,50,020,45,45,47,231,36,195,43,178,43,05,33,096,43,1*5D
$GPGSV,3,3,12,23,31,323,,13,24,041,38,194,22,144,19,20,13,115,,1*5C
$GPGSV,2,1,06,24,74,163,49,196,73,053,46,199,60,167,46,18,57,298,22,8*67
$GPGSV,2,2,06,195,43,178,45,194,22,144,25,8*64
$GLGSV,1,1,04,85,46,285,27,79,24,055,29,69,22,047,37,86,14,326,18,1*77
$GAGSV,2,1,05,13,66,277,29,08,56,000,33,15,44,172,36,03,20,049,33,7*7C
$GAGSV,2,2,05,26,19,321,,7*4A
$GAGSV,1,1,04,13,66,277,34,08,56,000,34,15,44,172,44,03,20,049,34,1*71
$GBGSV,3,1,10,38,76,043,44,39,73,241,38,16,64,225,34,06,62,224,36,1*7E
$GBGSV,3,2,10,13,59,343,33,20,47,032,45,09,45,219,41,46,44,143,46,1*7C
$GBGSV,3,3,10,29,35,229,47,37,33,068,31,1*78
$GBGSV,2,1,06,38,76,043,45,39,73,241,38,20,47,032,45,46,44,143,45,4*7C
$GBGSV,2,2,06,29,35,229,43,37,33,068,33,4*7C
$GNGGA,103346.000,2500.7947400,N,12132.4784300,E,2,35,0.89,15.11,M,15.25,M,6,3335*73
$GNRMC,103346.000,A,2500.7947400,N,12132.4784300,E,0.00,87.96,260623,,,D,V*3E
$GPHDT,,T*1B
$GNGGA,103346.200,2500.7947400,N,12132.4784300,E,2,35,0.89,15.11,M,15.25,M,6,3335*71
$GNRMC,103346.200,A,2500.7947400,N,12132.4784300,E,0.00,87.96,260623,,,D,V*3C
$GPHDT,,T*1B
$GNGGA,103346.400,2500.7947400,N,12132.4784300,E,2,35,0.89,15.11,M,15.25,M,4,3335*75
$GNRMC,103346.400,A,2500.7947400,N,12132.4784300,E,0.00,87.96,260623,,,D,V*3A
$GPHDT,,T*1B
$GNGGA,103346.600,2500.7947400,N,12132.4784300,E,2,35,0.89,15.11,M,15.25,M,2,3335*71
$GNRMC,103346.600,A,2500.7947400,N,12132.4784300,E,0.00,87.96,260623,,,D,V*38
$GPHDT,,T*1B
$GNGGA,103346.800,2500.7947400,N,12132.4784300,E,2,35,0.89,15.11,M,15.25,M,2,3335*7F
$GNRMC,103346.800,A,2500.7947400,N,12132.4784300,E,0.00,87.96,260623,,,D,V*36
$GPHDT,,T*1B
$GNGSA,A,3,24,196,199,15,195,05,13,,,,,,1.62,0.89,1.35,1*35
$GNGSA,A,3,79,69,,,,,,,,,,,1.62,0.89,1.35,2*00
$GNGSA,A,3,08,15,03,,,,,,,,,,1.62,0.89,1.35,3*0F
$GNGSA,A,3,38,39,16,06,13,20,09,46,29,37,,,1.62,0.89,1.35,4*03
$GPGSV,3,1,12,24,74,163,44,196,73,053,43,199,60,167,37,18,57,298,22,1*64
$GPGSV,3,2,12,15,50,020,45,45,47,231,36,195,43,178,43,05,33,096,43,1*5D
$GPGSV,3,3,12,23,31,323,,13,24,041,38,194,23,144,17,20,13,115,,1*53
$GPGSV,2,1,06,24,74,163,49,196,73,053,46,199,60,167,46,18,57,298,23,8*66
$GPGSV,2,2,06,195,43,178,45,194,23,144,25,8*65
$GLGSV,1,1,04,85,46,285,26,79,24,055,29,69,22,047,36,86,14,326,18,1*77
$GAGSV,2,1,05,13,66,277,29,08,56,000,33,15,44,172,36,03,20,049,33,7*7C
$GAGSV,2,2,05,26,19,321,,7*4A
$GAGSV,1,1,04,13,66,277,34,08,56,000,34,15,44,172,44,03,20,049,34,1*71
$GBGSV,3,1,10,38,76,043,44,39,73,241,38,16,64,225,35,06,62,224,36,1*7F
$GBGSV,3,2,10,13,59,343,33,20,47,032,45,09,45,219,41,46,44,143,46,1*7C
$GBGSV,3,3,10,29,35,229,47,37,33,068,30,1*79
$GBGSV,2,1,06,38,76,043,45,39,73,241,38,20,47,032,45,46,44,143,45,4*7C
$GBGSV,2,2,06,29,35,229,43,37,33,068,32,4*7D
$GNGGA,103347.000,2500.7947400,N,12132.4784300,E,2,35,0.89,15.11,M,15.25,M,1,3335*75
$GNRMC,103347.000,A,2500.7947400,N,12132.4784300,E,0.00,87.96,260623,,,D,V*3F
$GPHDT,,T*1B
$GNGGA,103347.200,2500.7947400,N,12132.4784300,E,2,35,0.89,15.11,M,15.25,M,1,3335*77
$GNRMC,103347.200,A,2500.7947400,N,12132.4784300,E,0.00,87.96,260623,,,D,V*3D
$GPHDT,,T*1B
$GNGGA,103347.400,2500.7947400,N,12132.4784300,E,2,35,0.89,15.11,M,15.25,M,1,3335*71
$GNRMC,103347.400,A,2500.7947400,N,12132.4784300,E,0.00,87.96,260623,,,D,V*3B
$GPHDT,,T*1B
$GNGGA,103347.600,2500.7947400,N,12132.4784300,E,2,35,0.89,15.11,M,15.25,M,1,3335*73
$GNRMC,103347.600,A,2500.7947400,N,12132.4784300,E,0.00,87.96,260623,,,D,V*39
$GPHDT,,T*1B
$GNGGA,103347.800,2500.7947400,N,12132.4784300,E,2,35,0.89,15.11,M,15.25,M,1,3335*7D
$GNRMC,103347.800,A,2500.7947400,N,12132.4784300,E,0.00,87.96,260623,,,D,V*37
$GPHDT,,T*1B
$GNGSA,A,3,24,196,199,15,195,05,13,,,,,,1.62,0.89,1.35,1*35
$GNGSA,A,3,79,69,,,,,,,,,,,1.62,0.89,1.35,2*00
$GNGSA,A,3,08,15,03,,,,,,,,,,1.62,0.89,1.35,3*0F
$GNGSA,A,3,38,39,16,06,13,20,09,46,29,37,,,1.62,0.89,1.35,4*03
$GPGSV,3,1,12,24,74,163,44,196,73,053,43,199,60,167,37,18,57,298,23,1*65
$GPGSV,3,2,12,15,50,020,45,45,47,231,36,195,43,178,43,05,33,096,43,1*5D
$GPGSV,3,3,12,23,31,323,16,13,24,041,38,194,23,144,17,20,13,115,,1*54
$GPGSV,2,1,06,24,74,163,49,196,73,053,46,199,60,167,46,18,57,298,21,8*64
$GPGSV,2,2,06,195,43,178,45,194,23,144,25,8*65
$GLGSV,1,1,04,85,46,285,27,79,24,055,29,69,22,047,36,86,14,326,18,1*76
$GAGSV,1,1,04,13,66,277,29,08,56,000,34,15,44,172,36,03,20,049,33,7*79
$GAGSV,1,1,04,13,66,277,34,08,56,000,34,15,44,172,44,03,20,049,34,1*71
$GBGSV,3,1,10,38,76,043,44,39,73,241,38,16,64,225,35,06,62,224,36,1*7F
$GBGSV,3,2,10,13,59,343,33,20,47,032,45,09,45,219,41,46,44,143,46,1*7C
$GBGSV,3,3,10,29,35,229,47,37,33,068,29,1*71
$GBGSV,2,1,06,38,76,043,45,39,73,241,38,20,47,032,45,46,44,143,45,4*7C
$GBGSV,2,2,06,29,35,229,43,37,33,068,32,4*7D
$GNGGA,103348.000,2500.7947400,N,12132.4784300,E,2,35,0.89,15.11,M,15.25,M,2,3335*79
$GNRMC,103348.000,A,2500.7947400,N,12132.4784300,E,0.00,87.96,260623,,,D,V*30
$PAIR010,0,0,2268,124446*34
$PAIR010,0,1,2268,124446*35
$GPHDT,,T*1B
$GNGGA,103348.200,2500.7947400,N,12132.4784300,E,2,35,0.89,15.11,M,15.25,M,1,3335*78
$GNRMC,103348.200,A,2500.7947400,N,12132.4784300,E,0.00,87.96,260623,,,D,V*32
$GPHDT,,T*1B
$GNGGA,103348.400,2500.7947400,N,12132.4784300,E,2,35,0.89,15.11,M,15.25,M,1,3335*7E
$GNRMC,103348.400,A,2500.7947400,N,12132.4784300,E,0.00,87.96,260623,,,D,V*34
$GPHDT,,T*1B
$GNGGA,103348.600,2500.7947400,N,12132.4784300,E,2,35,0.89,15.11,M,15.25,M,0,3335*7D
$GNRMC,103348.600,A,2500.7947400,N,12132.4784300,E,0.00,87.96,260623,,,D,V*36
$GPHDT,,T*1B
$GNGGA,103348.800,2500.7947400,N,12132.4784300,E,2,35,0.89,15.11,M,15.25,M,0,3335*73
$GNRMC,103348.800,A,2500.7947400,N,12132.4784300,E,0.00,87.96,260623,,,D,V*38
$GPHDT,,T*1B
$GNGSA,A,3,24,196,199,15,195,05,13,,,,,,1.62,0.89,1.35,1*35
$GNGSA,A,3,79,69,,,,,,,,,,,1.62,0.89,1.35,2*00
$GNGSA,A,3,08,15,03,,,,,,,,,,1.62,0.89,1.35,3*0F
$GNGSA,A,3,38,39,16,06,13,20,09,46,29,37,,,1.62,0.89,1.35,4*03
$GPGSV,3,1,12,24,74,163,44,196,73,053,43,199,60,167,37,18,57,298,24,1*62
$GPGSV,3,2,12,15,50,020,45,45,47,231,36,195,43,178,43,05,33,096,43,1*5D
$GPGSV,3,3,12,23,31,323,13,13,24,041,38,194,23,144,18,20,13,115,,1*5E
$GPGSV,2,1,06,24,74,163,49,196,73,053,46,199,60,167,46,18,57,298,21,8*64
$GPGSV,2,2,06,195,43,178,45,194,23,144,24,8*64
$GLGSV,1,1,04,85,46,285,26,79,24,055,29,69,22,047,36,86,14,326,17,1*78
$GAGSV,1,1,04,13,66,277,29,08,56,000,34,15,44,172,36,03,20,049,33,7*79
$GAGSV,1,1,04,13,66,277,33,08,56,000,34,15,44,172,43,03,20,049,33,1*76
$GBGSV,3,1,10,38,76,043,44,39,73,241,38,16,64,225,35,06,62,224,36,1*7F
$GBGSV,3,2,10,13,59,343,33,20,47,032,45,09,45,219,41,46,44,143,46,1*7C
$GBGSV,3,3,10,29,35,229,47,37,33,068,29,1*71
$GBGSV,2,1,06,38,76,043,45,39,73,241,38,20,47,032,45,46,44,143,45,4*7C
$GBGSV,2,2,06,29,35,229,43,37,33,068,32,4*7D
$GNGGA,103349.000,2500.7947400,N,12132.4784300,E,2,35,0.89,15.12,M,15.25,M,1,3335*78
$GNRMC,103349.000,A,2500.7947400,N,12132.4784300,E,0.00,87.96,260623,,,D,V*31
$GPHDT,,T*1B
$GNGGA,103349.200,2500.7947400,N,12132.4784300,E,2,35,0.89,15.12,M,15.25,M,1,3335*7A
$GNRMC,103349.200,A,2500.7947400,N,12132.4784300,E,0.00,87.96,260623,,,D,V*33
