$FW : RTK35X,V1.1X0314AS,Lib20210517,1*54
$Tool : LOCOSYS , GNSS Firebird , v1.0.0.19*39
$---------------------------------------------------*2D
132.4780700,E,0.00,69.25,260623,,,D,V*33
$GPHDT,,T*1B
$GNGGA,103501.200,2500.7950200,N,12132.4780700,E,2,39,0.81,12.84,M,15.25,M,1,3335*7C
$GNRMC,103501.200,A,2500.7950200,N,12132.4780700,E,0.01,69.25,260623,,,D,V*30
$GPHDT,,T*1B
$GNGGA,103501.400,2500.7950200,N,12132.4780700,E,2,39,0.81,12.84,M,15.25,M,1,3335*7A
$GNRMC,103501.400,A,2500.7950200,N,12132.4780700,E,0.01,69.25,260623,,,D,V*36
$GPHDT,,T*1B
$GNGGA,103501.600,2500.7950200,N,12132.4780700,E,2,39,0.81,12.85,M,15.25,M,1,3335*79
$GNRMC,103501.600,A,2500.7950200,N,12132.4780700,E,0.00,69.25,260623,,,D,V*35
$GPHDT,,T*1B
$GNGGA,103501.800,2500.7950200,N,12132.4780700,E,2,39,0.81,12.85,M,15.25,M,1,3335*77
$GNRMC,103501.800,A,2500.7950200,N,12132.4780700,E,0.00,69.25,260623,,,D,V*3B
$GPHDT,,T*1B
$GNGSA,A,3,24,196,199,18,15,195,05,13,,,,,1.56,0.81,1.33,1*35
$GNGSA,A,3,79,69,,,,,,,,,,,1.56,0.81,1.33,2*09
$GNGSA,A,3,13,08,15,03,,,,,,,,,1.56,0.81,1.33,3*04
$GNGSA,A,3,38,39,16,06,13,20,09,46,29,37,,,1.56,0.81,1.33,4*0A
$GPGSV,3,1,11,24,74,162,42,196,73,053,42,199,60,167,30,18,57,297,36,1*6C
$GPGSV,3,2,11,15,50,020,42,195,43,178,38,05,33,096,43,23,32,323,18,1*59
$GPGSV,3,3,11,194,23,144,28,13,23,042,41,20,12,115,,1*66
$GPGSV,2,1,06,24,74,162,45,196,73,053,44,199,60,167,41,18,57,297,27,8*65
$GPGSV,2,2,06,195,43,178,37,194,23,144,30,8*64
$GLGSV,1,1,03,85,46,284,20,79,24,054,35,69,21,048,36,1*42
$GAGSV,2,1,07,13,66,275,34,08,56,001,34,15,43,172,35,07,39,278,17,7*78
$GAGSV,2,2,07,03,20,050,19,02,18,105,,25,05,059,,7*49
$GAGSV,1,1,04,13,66,275,37,08,56,001,37,15,43,172,40,03,20,050,28,1*74
$GBGSV,3,1,11,38,76,043,42,39,73,241,40,16,64,226,38,06,62,224,39,1*76
$GBGSV,3,2,11,13,59,343,34,20,47,033,47,09,45,220,32,46,44,142,44,1*74
$GBGSV,3,3,11,29,35,229,44,37,33,067,35,08,,,38,1*72
$GBGSV,2,1,06,38,76,043,45,39,73,241,40,20,47,033,46,46,44,142,41,4*74
$GBGSV,2,2,06,29,35,229,44,37,33,067,29,4*7F
$GNGGA,103502.000,2500.7950200,N,12132.4780700,E,2,39,0.81,12.85,M,15.25,M,2,3335*7F
$GNRMC,103502.000,A,2500.7950200,N,12132.4780700,E,0.00,69.25,260623,,,D,V*30
$GPHDT,,T*1B
$GNGGA,103502.200,2500.7950200,N,12132.4780700,E,2,39,0.81,12.85,M,15.25,M,2,3335*7D
$GNRMC,103502.200,A,2500.7950200,N,12132.4780700,E,0.00,69.25,260623,,,D,V*32
$GPHDT,,T*1B
$GNGGA,103502.400,2500.7950200,N,12132.4780700,E,2,39,0.81,12.85,M,15.25,M,2,3335*7B
$GNRMC,103502.400,A,2500.7950200,N,12132.4780700,E,0.00,69.25,260623,,,D,V*34
$GPHDT,,T*1B
$GNGGA,103502.600,2500.7950200,N,12132.4780700,E,2,39,0.81,12.86,M,15.25,M,2,3335*7A
$GNRMC,103502.600,A,2500.7950200,N,12132.4780700,E,0.00,69.25,260623,,,D,V*36
$GPHDT,,T*1B
$GNGGA,103502.800,2500.7950200,N,12132.4780700,E,2,39,0.81,12.86,M,15.25,M,2,3335*74
$GNRMC,103502.800,A,2500.7950200,N,12132.4780700,E,0.12,69.25,260623,,,D,V*3B
$GPHDT,,T*1B
$GNGSA,A,3,24,196,199,18,15,195,05,13,,,,,1.56,0.81,1.33,1*35
$GNGSA,A,3,79,69,,,,,,,,,,,1.56,0.81,1.33,2*09
$GNGSA,A,3,13,08,15,03,,,,,,,,,1.56,0.81,1.33,3*04
$GNGSA,A,3,38,39,16,06,13,20,09,46,29,37,,,1.56,0.81,1.33,4*0A
$GPGSV,3,1,11,24,74,162,44,196,73,053,42,199,60,167,35,18,57,297,36,1*6F
$GPGSV,3,2,11,15,50,020,42,195,43,178,40,05,33,096,44,23,32,323,19,1*50
$GPGSV,3,3,11,194,23,144,28,13,23,042,40,20,12,115,,1*67
$GPGSV,2,1,06,24,74,162,48,196,73,053,45,199,60,167,43,18,57,297,27,8*6B
$GPGSV,2,2,06,195,43,178,39,194,23,144,29,8*62
$GLGSV,2,1,05,85,46,284,20,79,24,054,36,69,21,048,36,86,15,326,,1*79
$GLGSV,2,2,05,71,13,289,,1*4A
$GAGSV,2,1,07,13,66,275,34,08,56,001,33,15,43,172,37,07,39,278,17,7*7D
$GAGSV,2,2,07,03,20,050,18,02,18,105,,25,05,059,,7*48
$GAGSV,1,1,04,13,66,275,36,08,56,001,37,15,43,172,41,03,20,050,29,1*75
$GBGSV,3,1,12,38,76,043,42,39,73,241,40,16,64,226,38,06,62,224,39,1*75
$GBGSV,3,2,12,13,59,343,34,20,47,033,46,09,45,220,32,46,44,142,45,1*77
$GBGSV,3,3,12,29,35,229,44,37,33,067,35,10,05,208,,08,,,38,1*4F
$GBGSV,2,1,06,38,76,043,45,39,73,241,40,20,47,033,46,46,44,142,44,4*71
$GBGSV,2,2,06,29,35,229,44,37,33,067,27,4*71
$GNGGA,103503.000,2500.7950200,N,12132.4780700,E,2,39,0.81,12.86,M,15.25,M,3,3335*7C
$GNRMC,103503.000,A,2500.7950200,N,12132.4780700,E,0.04,69.25,260623,,,D,V*35
$GPHDT,,T*1B
$GNGGA,103503.200,2500.7950200,N,12132.4780700,E,2,39,0.81,12.86,M,15.25,M,3,3335*7E
$GNRMC,103503.200,A,2500.7950200,N,12132.4780700,E,0.04,69.25,260623,,,D,V*37
$GPHDT,,T*1B
$GNGGA,103503.400,2500.7950200,N,12132.4780700,E,2,39,0.81,12.85,M,15.25,M,3,3335*7B
$GNRMC,103503.400,A,2500.7950200,N,12132.4780700,E,0.01,69.25,260623,,,D,V*34
$GPHDT,,T*1B
$GNGGA,103503.600,2500.7950200,N,12132.4780700,E,2,39,0.81,12.85,M,15.25,M,3,3335*79
$GNRMC,103503.600,A,2500.7950200,N,12132.4780700,E,0.01,69.25,260623,,,D,V*36
$GPHDT,,T*1B
$GNGGA,103503.800,2500.7950200,N,12132.4780700,E,2,39,0.81,12.85,M,15.25,M,3,3335*77
$GNRMC,103503.800,A,2500.7950200,N,12132.4780700,E,0.02,69.25,260623,,,D,V*3B
$GPHDT,,T*1B
$GNGSA,A,3,24,196,199,18,15,195,05,13,,,,,1.56,0.81,1.33,1*35
$GNGSA,A,3,79,69,,,,,,,,,,,1.56,0.81,1.33,2*09
$GNGSA,A,3,13,08,15,03,,,,,,,,,1.56,0.81,1.33,3*04
$GNGSA,A,3,38,39,16,06,13,20,09,46,29,37,,,1.56,0.81,1.33,4*0A
$GPGSV,3,1,11,24,74,162,44,196,73,053,42,199,60,167,35,18,57,297,36,1*6F
$GPGSV,3,2,11,15,50,020,42,195,43,178,40,05,33,096,44,23,32,323,19,1*50
$GPGSV,3,3,11,194,23,144,27,13,23,042,40,20,12,115,,1*68
$GPGSV,2,1,06,24,74,162,48,196,73,053,45,199,60,167,44,18,57,297,27,8*6C
$GPGSV,2,2,06,195,43,178,40,194,23,144,27,8*62
$GLGSV,1,1,03,85,46,284,19,79,24,054,36,69,21,048,36,1*4B
$GAGSV,2,1,08,13,66,275,34,08,56,001,34,15,43,172,35,07,39,278,16,7*76
$GAGSV,2,2,08,26,20,320,,03,20,050,18,02,18,105,,25,05,059,,7*70
$GAGSV,1,1,04,13,66,275,35,08,56,001,37,15,43,172,42,03,20,050,29,1*75
$GBGSV,4,1,14,38,76,043,42,39,73,241,40,16,64,226,38,06,62,224,39,1*74
$GBGSV,4,2,14,13,59,343,34,20,47,033,46,09,45,220,31,46,44,142,45,1*75
$GBGSV,4,3,14,29,35,229,44,37,33,067,35,10,05,208,,40,01,189,,1*78
$GBGSV,4,4,14,22,01,284,,08,,,38,1*4F
$GBGSV,2,1,06,38,76,043,45,39,73,241,40,20,47,033,46,46,44,142,43,4*76
$GBGSV,2,2,06,29,35,229,44,37,33,067,24,4*72
$GNGGA,103504.000,2500.7950200,N,12132.4780700,E,2,39,0.81,12.85,M,15.25,M,4,3335*7F
$GNRMC,103504.000,A,2500.7950200,N,12132.4780700,E,0.02,69.25,260623,,,D,V*34
$GPHDT,,T*1B
$GNGGA,103504.200,2500.7950200,N,12132.4780700,E,2,39,0.81,12.84,M,15.25,M,4,3335*7C
$GNRMC,103504.200,A,2500.7950200,N,12132.4780700,E,0.02,69.25,260623,,,D,V*36
$GPHDT,,T*1B
$GNGGA,103504.400,2500.7950200,N,12132.4780700,E,2,39,0.81,12.84,M,15.25,M,4,3335*7A
$GNRMC,103504.400,A,2500.7950200,N,12132.4780700,E,0.02,69.25,260623,,,D,V*30
$GPHDT,,T*1B
$GNGGA,103504.600,2500.7950200,N,12132.4780700,E,2,39,0.81,12.84,M,15.25,M,4,3335*78
$GNRMC,103504.600,A,2500.7950200,N,12132.4780700,E,0.02,69.25,260623,,,D,V*32
$GPHDT,,T*1B
$GNGGA,103504.800,2500.7950200,N,12132.4780700,E,2,39,0.81,12.84,M,15.25,M,4,3335*76
$GNRMC,103504.800,A,2500.7950200,N,12132.4780700,E,0.01,69.25,260623,,,D,V*3F
$GPHDT,,T*1B
$GNGSA,A,3,24,196,199,18,15,195,05,13,,,,,1.56,0.81,1.33,1*35
$GNGSA,A,3,79,69,,,,,,,,,,,1.56,0.81,1.33,2*09
$GNGSA,A,3,13,08,15,03,,,,,,,,,1.56,0.81,1.33,3*04
$GNGSA,A,3,38,39,16,06,13,20,09,46,29,37,,,1.56,0.81,1.33,4*0A
$GPGSV,3,1,11,24,74,162,44,196,73,053,42,199,60,167,37,18,57,297,36,1*6D
$GPGSV,3,2,11,15,50,020,42,195,43,178,41,05,33,096,45,23,32,323,19,1*50
$GPGSV,3,3,11,194,23,144,27,13,23,042,40,20,12,115,,1*68
$GPGSV,2,1,06,24,74,162,48,196,73,053,45,199,60,167,45,18,57,297,26,8*6C
$GPGSV,2,2,06,195,43,178,44,194,23,144,29,8*68
$GLGSV,1,1,03,85,46,284,16,79,24,054,36,69,21,048,35,1*47
$GAGSV,2,1,08,13,66,275,33,08,56,001,35,15,43,172,38,07,39,278,18,7*73
$GAGSV,2,2,08,26,20,320,,03,20,050,17,02,18,105,,25,05,059,,7*7F
$GAGSV,1,1,04,13,66,275,35,08,56,001,38,15,43,172,41,03,20,050,29,1*79
$GBGSV,3,1,11,38,76,043,42,39,73,241,40,16,64,226,38,06,62,224,39,1*76
$GBGSV,3,2,11,13,59,343,33,20,47,033,47,09,45,220,31,46,44,142,41,1*75
$GBGSV,3,3,11,29,35,229,40,37,33,067,35,08,,,38,1*76
$GBGSV,2,1,06,38,76,043,45,39,73,241,40,20,47,033,46,46,44,142,40,4*75
$GBGSV,2,2,06,29,35,229,42,37,33,067,27,4*77
$GNGGA,103505.000,2500.7950200,N,12132.4780700,E,2,39,0.81,12.84,M,15.25,M,5,3335*7E
$GNRMC,103505.000,A,2500.7950200,N,12132.4780700,E,0.01,69.25,260623,,,D,V*36
$GPHDT,,T*1B
$GNGGA,103505.200,2500.7950200,N,12132.4780700,E,2,39,0.81,12.83,M,15.25,M,5,3335*7B
$GNRMC,103505.200,A,2500.7950200,N,12132.4780700,E,0.01,69.25,260623,,,D,V*34
$GPHDT,,T*1B
$GNGGA,103505.400,2500.7950200,N,12132.4780700,E,2,39,0.81,12.83,M,15.25,M,5,3335*7D
$GNRMC,103505.400,A,2500.7950200,N,12132.4780700,E,0.01,69.25,260623,,,D,V*32
$GPHDT,,T*1B
$GNGGA,103505.600,2500.7950200,N,12132.4780700,E,2,39,0.81,12.83,M,15.25,M,5,3335*7F
$GNRMC,103505.600,A,2500.7950200,N,12132.4780700,E,0.01,69.25,260623,,,D,V*30
$GPHDT,,T*1B
$GNGGA,103505.800,2500.7950200,N,12132.4780700,E,2,39,0.81,12.83,M,15.25,M,5,3335*71
$GNRMC,103505.800,A,2500.7950200,N,12132.4780700,E,0.01,69.25,260623,,,D,V*3E
$GPHDT,,T*1B
$GNGSA,A,3,24,196,199,18,15,195,05,13,,,,,1.56,0.81,1.33,1*35
$GNGSA,A,3,79,69,,,,,,,,,,,1.56,0.81,1.33,2*09
$GNGSA,A,3,13,08,15,03,,,,,,,,,1.56,0.81,1.33,3*04
$GNGSA,A,3,38,39,16,06,13,20,09,46,29,37,,,1.56,0.81,1.33,4*0A
$GPGSV,3,1,11,24,74,162,44,196,73,053,42,199,60,167,37,18,57,297,36,1*6D
$GPGSV,3,2,11,15,50,020,42,195,43,178,42,05,33,096,45,23,32,323,19,1*53
$GPGSV,3,3,11,194,23,144,27,13,23,042,41,20,12,115,,1*69
$GPGSV,2,1,07,24,74,162,48,196,73,053,44,199,60,167,46,18,57,297,25,8*6C
$GPGSV,2,2,07,195,43,178,44,23,32,323,19,194,23,144,29,8*53
$GLGSV,1,1,03,85,46,284,19,79,24,054,35,69,21,048,35,1*4B
$GAGSV,2,1,08,13,66,275,33,08,56,001,35,15,43,172,38,07,39,278,19,7*72
$GAGSV,2,2,08,26,20,320,,03,20,050,15,02,18,105,,25,05,059,,7*7D
$GAGSV,1,1,04,13,66,275,35,08,56,001,39,15,43,172,43,03,20,050,30,1*72
$GBGSV,3,1,11,38,76,043,42,39,73,241,40,16,64,226,38,06,62,224,40,1*78
$GBGSV,3,2,11,13,59,343,34,20,47,033,47,09,45,220,32,46,44,142,41,1*71
$GBGSV,3,3,11,29,35,229,40,37,33,067,35,08,,,37,1*79
$GBGSV,2,1,06,38,76,043,45,39,73,241,40,20,47,033,46,46,44,142,39,4*7B
$GBGSV,2,2,06,29,35,229,42,37,33,067,24,4*74
$GNGGA,103506.000,2500.7950200,N,12132.4780700,E,2,39,0.81,12.83,M,15.25,M,6,3335*79
$GNRMC,103506.000,A,2500.7950200,N,12132.4780700,E,0.01,69.25,260623,,,D,V*35
$GPHDT,,T*1B
$GNGGA,103506.200,2500.7950200,N,12132.4780700,E,2,39,0.81,12.82,M,15.25,M,6,3335*7A
$GNRMC,103506.200,A,2500.7950200,N,12132.4780700,E,0.01,69.25,260623,,,D,V*37
$GPHDT,,T*1B
$GNGGA,103506.400,2500.7950200,N,12132.4780700,E,2,39,0.81,12.82,M,15.25,M,6,3335*7C
$GNRMC,103506.400,A,2500.7950200,N,12132.4780700,E,0.01,69.25,260623,,,D,V*31
$GPHDT,,T*1B
$GNGGA,103506.600,2500.7950200,N,12132.4780700,E,2,39,0.81,12.82,M,15.25,M,5,3335*7D
$GNRMC,103506.600,A,2500.7950200,N,12132.4780700,E,0.00,69.25,260623,,,D,V*32
$GPHDT,,T*1B
$GNGGA,103506.800,2500.7950200,N,12132.4780700,E,2,41,0.78,12.82,M,15.25,M,3,3335*7C
$GNRMC,103506.800,A,2500.7950200,N,12132.4780700,E,0.01,69.25,260623,,,D,V*3D
$GPHDT,,T*1B
$GNGSA,A,3,24,196,199,18,15,195,05,194,13,,,,1.50,0.78,1.28,1*03
$GNGSA,A,3,79,69,,,,,,,,,,,1.50,0.78,1.28,2*03
$GNGSA,A,3,13,08,15,03,,,,,,,,,1.50,0.78,1.28,3*0E
$GNGSA,A,3,38,39,16,06,13,20,09,46,29,37,,,1.50,0.78,1.28,4*00
$GPGSV,3,1,11,24,74,162,45,196,73,053,41,199,60,167,37,18,57,297,36,1*6F
$GPGSV,3,2,11,15,50,020,42,195,43,178,42,05,33,096,42,23,32,323,19,1*54
$GPGSV,3,3,11,194,23,144,27,13,23,042,41,20,12,115,,1*69
$GPGSV,2,1,07,24,74,162,48,196,73,053,45,199,60,167,46,18,57,297,25,8*6D
$GPGSV,2,2,07,195,43,178,44,23,32,323,19,194,23,144,29,8*53
$GLGSV,1,1,03,85,46,284,19,79,24,054,35,69,21,048,34,1*4A
$GAGSV,2,1,08,13,66,275,33,08,56,001,35,15,43,172,38,07,39,278,19,7*72
$GAGSV,2,2,08,26,20,320,,03,20,050,15,02,18,105,,25,05,059,,7*7D
$GAGSV,1,1,04,13,66,275,36,08,56,001,39,15,43,172,43,03,20,050,30,1*71
$GBGSV,3,1,11,38,76,043,42,39,73,241,40,16,64,226,38,06,62,224,40,1*78
$GBGSV,3,2,11,13,59,343,34,20,47,033,47,09,45,220,33,46,44,142,44,1*75
$GBGSV,3,3,11,29,35,229,40,37,33,067,35,08,,,37,1*79
$GBGSV,2,1,06,38,76,043,45,39,73,241,40,20,47,033,46,46,44,142,43,4*76
$GBGSV,2,2,06,29,35,229,42,37,33,067,25,4*75
$GNGGA,103507.000,2500.7950200,N,12132.4780700,E,2,41,0.78,12.82,M,15.25,M,1,3335*77
$GNRMC,103507.000,A,2500.7950200,N,12132.4780700,E,0.01,69.25,260623,,,D,V*34
$GPHDT,,T*1B
$GNGGA,103507.200,2500.7950200,N,12132.4780700,E,2,41,0.78,12.81,M,15.25,M,1,3335*76
$GNRMC,103507.200,A,2500.7950200,N,12132.4780700,E,0.01,69.25,260623,,,D,V*36
$GPHDT,,T*1B
$GNGGA,103507.400,2500.7950200,N,12132.4780700,E,2,41,0.78,12.81,M,15.25,M,1,3335*70
$GNRMC,103507.400,A,2500.7950200,N,12132.4780700,E,0.01,69.25,260623,,,D,V*30
$GPHDT,,T*1B
$GNGGA,103507.600,2500.7950200,N,12132.4780800,E,2,41,0.78,12.81,M,15.25,M,0,3335*7C
$GNRMC,103507.600,A,2500.7950200,N,12132.4780800,E,0.08,69.25,260623,,,D,V*34
$GPHDT,,T*1B
$GNGGA,103507.800,2500.7950200,N,12132.4780700,E,2,41,0.78,12.81,M,15.25,M,0,3335*7D
$GNRMC,103507.800,A,2500.7950200,N,12132.4780700,E,0.12,69.25,260623,,,D,V*3E
$GPHDT,,T*1B
$GNGSA,A,3,24,196,199,18,15,195,05,194,13,,,,1.50,0.78,1.28,1*03
$GNGSA,A,3,79,69,,,,,,,,,,,1.50,0.78,1.28,2*03
$GNGSA,A,3,13,08,15,03,,,,,,,,,1.50,0.78,1.28,3*0E
$GNGSA,A,3,38,39,16,06,13,20,09,46,29,37,,,1.50,0.78,1.28,4*00
$GPGSV,3,1,11,24,74,162,45,196,73,053,41,199,60,167,37,18,57,297,35,1*6C
$GPGSV,3,2,11,15,50,020,44,195,43,178,41,05,33,096,44,23,32,323,18,1*56
$GPGSV,3,3,11,194,23,144,26,13,23,042,40,20,12,115,,1*69
$GPGSV,2,1,07,24,74,162,48,196,73,053,45,199,60,167,46,18,57,297,26,8*6E
$GPGSV,2,2,07,195,43,178,44,23,32,323,20,194,23,144,26,8*56
$GLGSV,1,1,03,85,46,284,20,79,24,054,32,69,21,048,32,1*41
$GAGSV,2,1,07,13,66,275,32,08,56,001,34,15,43,172,38,07,39,278,19,7*7D
$GAGSV,2,2,07,26,20,320,,03,20,050,17,25,05,059,,7*4F
$GAGSV,1,1,04,13,66,275,36,08,56,001,39,15,43,172,43,03,20,050,29,1*79
$GBGSV,3,1,11,38,76,043,42,39,73,241,40,16,64,226,38,06,62,224,40,1*78
$GBGSV,3,2,11,13,59,343,33,20,47,033,47,09,45,220,30,46,44,142,44,1*71
$GBGSV,3,3,11,29,35,229,39,37,33,067,35,08,,,38,1*78
$GBGSV,2,1,06,38,76,043,45,39,73,241,40,20,47,033,43,46,44,142,43,4*73
$GBGSV,2,2,06,29,35,229,42,37,33,067,27,4*77
$GNGGA,103508.000,2500.7950200,N,12132.4780700,E,2,41,0.78,12.81,M,15.25,M,1,3335*7B
$GNRMC,103508.000,A,2500.7950200,N,12132.4780700,E,0.07,69.25,260623,,,D,V*3D
$GPHDT,,T*1B
$GNGGA,103508.200,2500.7950200,N,12132.4780700,E,2,41,0.78,12.80,M,15.25,M,1,3335*78
$GNRMC,103508.200,A,2500.7950200,N,12132.4780700,E,0.04,69.25,260623,,,D,V*3C
$GPHDT,,T*1B
$GNGGA,103508.400,2500.7950200,N,12132.4780700,E,2,41,0.78,12.80,M,15.25,M,1,3335*7E
$GNRMC,103508.400,A,2500.7950200,N,12132.4780700,E,0.04,69.25,260623,,,D,V*3A
$GPHDT,,T*1B
$GNGGA,103508.600,2500.7950200,N,12132.4780700,E,2,41,0.78,12.80,M,15.25,M,0,3335*7D
$GNRMC,103508.600,A,2500.7950200,N,12132.4780700,E,0.04,69.25,260623,,,D,V*38
$GPHDT,,T*1B
$GNGGA,103508.800,2500.7950300,N,12132.4780700,E,2,41,0.78,12.80,M,15.25,M,0,3335*72
$GNRMC,103508.800,A,2500.7950300,N,12132.4780700,E,0.03,69.25,260623,,,D,V*30
$GPHDT,,T*1B
$GNGSA,A,3,24,196,199,18,15,195,05,194,13,,,,1.50,0.78,1.28,1*03
$GNGSA,A,3,79,69,,,,,,,,,,,1.50,0.78,1.28,2*03
$GNGSA,A,3,13,08,15,03,,,,,,,,,1.50,0.78,1.28,3*0E
$GNGSA,A,3,38,39,16,06,13,20,09,46,29,37,,,1.50,0.78,1.28,4*00
$GPGSV,3,1,11,24,74,162,45,196,73,053,41,199,60,167,37,18,57,297,35,1*6C
$GPGSV,3,2,11,15,50,020,35,195,43,178,41,05,33,096,44,23,32,323,18,1*50
$GPGSV,3,3,11,194,23,144,27,13,23,042,37,20,12,115,,1*68
$GPGSV,2,1,07,24,74,162,48,196,73,053,45,199,60,167,46,18,57,297,26,8*6E
$GPGSV,2,2,07,195,43,178,44,23,32,323,20,194,23,144,28,8*58
$GLGSV,1,1,03,85,46,284,21,79,24,054,35,69,21,048,33,1*46
$GAGSV,2,1,07,13,66,275,31,08,56,001,37,15,43,172,39,07,39,278,19,7*7C
$GAGSV,2,2,07,26,20,320,,03,20,050,20,25,05,059,,7*4B
$GAGSV,1,1,04,13,66,275,35,08,56,001,39,15,43,172,43,03,20,050,26,1*75
$GBGSV,4,1,13,38,76,043,42,39,73,241,40,16,64,226,38,06,62,224,40,1*7D
$GBGSV,4,2,13,13,59,343,33,20,47,033,45,09,45,220,30,46,44,142,44,1*76
$GBGSV,4,3,13,29,35,229,38,37,33,067,36,36,15,187,,32,11,080,,1*7A
$GBGSV,4,4,13,08,,,39,1*76
$GBGSV,2,1,06,38,76,043,45,39,73,241,40,20,47,033,43,46,44,142,43,4*73
$GBGSV,2,2,06,29,35,229,41,37,33,067,27,4*74
$GNGGA,103509.000,2500.7950300,N,12132.4780700,E,2,41,0.78,12.79,M,15.25,M,1,3335*7C
$GNRMC,103509.000,A,2500.7950300,N,12132.4780700,E,0.03,69.25,260623,,,D,V*39
$GPHDT,,T*1B
$GNGGA,103509.200,2500.7950300,N,12132.4780600,E,2,41,0.78,12.79,M,15.25,M,1,3335*7F
$GNRMC,103509.200,A,2500.7950300,N,12132.4780600,E,0.03,69.25,260623,,,D,V*3A
$GPHDT,,T*1B
$GNGGA,103509.400,2500.7950300,N,12132.4780600,E,2,41,0.78,12.79,M,15.25,M,1,3335*79
$GNRMC,103509.400,A,2500.7950300,N,12132.4780600,E,0.03,69.25,260623,,,D,V*3C
$GPHDT,,T*1B
$GNGGA,103509.600,2500.7950300,N,12132.4780600,E,2,41,0.78,12.79,M,15.25,M,1,3335*7B
$GNRMC,103509.600,A,2500.7950300,N,12132.4780600,E,0.03,69.25,260623,,,D,V*3E
$GPHDT,,T*1B
$GNGGA,103509.800,2500.7950300,N,12132.4780600,E,2,41,0.78,12.79,M,15.25,M,1,3335*75
$GNRMC,103509.800,A,2500.7950300,N,12132.4780600,E,0.02,69.25,260623,,,D,V*31
$GPHDT,,T*1B
$GNGSA,A,3,24,196,199,18,15,195,05,194,13,,,,1.50,0.78,1.28,1*03
$GNGSA,A,3,79,69,,,,,,,,,,,1.50,0.78,1.28,2*03
$GNGSA,A,3,13,08,15,03,,,,,,,,,1.50,0.78,1.28,3*0E
$GNGSA,A,3,38,39,16,06,13,20,09,46,29,37,,,1.50,0.78,1.28,4*00
$GPGSV,3,1,11,24,74,162,45,196,73,053,41,199,60,167,37,18,57,297,36,1*6F
$GPGSV,3,2,11,15,50,020,36,195,43,178,40,05,33,096,44,23,32,323,18,1*52
$GPGSV,3,3,11,194,23,144,27,13,23,042,39,20,12,115,,1*66
$GPGSV,2,1,06,24,74,162,48,196,73,053,46,199,60,167,46,195,43,178,44,8*5B
$GPGSV,2,2,06,23,32,323,18,194,23,144,29,8*57
$GLGSV,1,1,03,85,46,284,21,79,24,054,35,69,21,048,34,1*41
$GAGSV,2,1,07,13,66,275,31,08,56,001,35,15,43,172,39,07,39,278,19,7*7E
$GAGSV,2,2,07,03,20,050,19,26,20,320,,25,05,059,,7*41
$GAGSV,1,1,04,13,66,275,37,08,56,001,36,15,43,172,42,03,20,050,30,1*7E
$GBGSV,3,1,12,38,76,043,42,39,73,241,40,16,64,226,38,06,62,224,40,1*7B
$GBGSV,3,2,12,13,59,343,32,20,47,033,47,09,45,220,30,46,44,142,44,1*73
$GBGSV,3,3,12,19,40,320,,29,35,229,38,37,33,067,34,08,,,37,1*49
$GBGSV,2,1,06,38,76,043,45,39,73,241,40,20,47,033,44,46,44,142,43,4*74
$GBGSV,2,2,06,29,35,229,41,37,33,067,25,4*76
$GNGGA,103510.000,2500.7950300,N,12132.4780600,E,2,40,0.78,12.78,M,15.25,M,2,3335*76
$GNRMC,103510.000,A,2500.7950300,N,12132.4780600,E,0.02,69.25,260623,,,D,V*31
$GPHDT,,T*1B
$GNGGA,103510.200,2500.7950300,N,12132.4780600,E,2,40,0.78,12.78,M,15.25,M,2,3335*74
$GNRMC,103510.200,A,2500.7950300,N,12132.4780600,E,0.03,69.25,260623,,,D,V*32
$GPHDT,,T*1B
$GNGGA,103510.400,2500.7950300,N,12132.4780500,E,2,41,0.78,12.78,M,15.25,M,2,3335*70
$GNRMC,103510.400,A,2500.7950300,N,12132.4780500,E,0.03,69.25,260623,,,D,V*37
$GPHDT,,T*1B
$GNGGA,103510.600,2500.7950300,N,12132.4780500,E,2,41,0.78,12.78,M,15.25,M,2,3335*72
$GNRMC,103510.600,A,2500.7950300,N,12132.4780500,E,0.03,69.25,260623,,,D,V*35
$GPHDT,,T*1B
$GNGGA,103510.800,2500.7950300,N,12132.4780500,E,2,41,0.78,12.78,M,15.25,M,2,3335*7C
$GNRMC,103510.800,A,2500.7950300,N,12132.4780500,E,0.03,69.25,260623,,,D,V*3B
$GPHDT,,T*1B
$GNGSA,A,3,24,196,199,18,15,195,05,194,13,,,,1.50,0.78,1.28,1*03
$GNGSA,A,3,79,69,,,,,,,,,,,1.50,0.78,1.28,2*03
$GNGSA,A,3,13,08,15,03,,,,,,,,,1.50,0.78,1.28,3*0E
$GNGSA,A,3,38,39,16,06,13,20,09,46,29,37,,,1.50,0.78,1.28,4*00
$GPGSV,3,1,11,24,74,162,45,196,73,053,41,199,60,167,37,18,57,297,35,1*6C
$GPGSV,3,2,11,15,50,020,41,195,43,178,40,05,33,096,44,23,32,323,16,1*5C
$GPGSV,3,3,11,194,23,144,27,13,23,042,41,20,12,115,,1*69
$GPGSV,2,1,07,24,74,162,48,196,73,053,46,199,60,167,46,18,57,297,25,8*6E
$GPGSV,2,2,07,195,43,178,44,23,32,323,20,194,23,144,28,8*58
$GLGSV,1,1,03,85,46,284,20,79,24,054,34,69,21,048,34,1*41
$GAGSV,2,1,07,13,66,275,32,08,56,001,35,15,43,172,39,07,39,278,19,7*7D
$GAGSV,2,2,07,03,20,050,17,26,20,320,,25,05,059,,7*4F
$GAGSV,1,1,04,13,66,275,35,08,56,001,37,15,43,172,42,03,20,050,30,1*7D
$GBGSV,3,1,12,38,76,043,42,39,73,241,40,16,64,226,38,06,62,224,40,1*7B
$GBGSV,3,2,12,13,59,343,33,20,47,033,47,09,45,220,30,46,44,142,44,1*72
$GBGSV,3,3,12,29,34,229,38,37,33,067,35,30,10,178,,08,,,38,1*47
$GBGSV,2,1,06,38,76,043,44,39,73,241,40,20,47,033,45,46,44,142,43,4*74
$GBGSV,2,2,06,29,34,229,41,37,33,067,25,4*77
$GNGGA,103511.000,2500.7950300,N,12132.4780500,E,2,41,0.78,12.77,M,15.25,M,3,3335*7B
$GNRMC,103511.000,A,2500.7950300,N,12132.4780500,E,0.03,69.25,260623,,,D,V*32
$GPHDT,,T*1B
$GNGGA,103511.200,2500.7950300,N,12132.4780500,E,2,41,0.78,12.77,M,15.25,M,3,3335*79
$GNRMC,103511.200,A,2500.7950300,N,12132.4780500,E,0.02,69.25,260623,,,D,V*31
$GPHDT,,T*1B
$GNGGA,103511.400,2500.7950300,N,12132.4780500,E,2,41,0.78,12.77,M,15.25,M,3,3335*7F
$GNRMC,103511.400,A,2500.7950300,N,12132.4780500,E,0.02,69.25,260623,,,D,V*37
$GPHDT,,T*1B
$GNGGA,103511.600,2500.7950300,N,12132.4780500,E,2,41,0.78,12.77,M,15.25,M,3,3335*7D
$GNRMC,103511.600,A,2500.7950300,N,12132.4780500,E,0.02,69.25,260623,,,D,V*35
$GPHDT,,T*1B
$GNGGA,103511.800,2500.7950300,N,12132.4780500,E,2,41,0.78,12.77,M,15.25,M,3,3335*73
$GNRMC,103511.800,A,2500.7950300,N,12132.4780500,E,0.01,69.25,260623,,,D,V*38
$GPHDT,,T*1B
$GNGSA,A,3,24,196,199,18,15,195,05,194,13,,,,1.50,0.78,1.28,1*03
$GNGSA,A,3,79,69,,,,,,,,,,,1.50,0.78,1.28,2*03
$GNGSA,A,3,13,08,15,03,,,,,,,,,1.50,0.78,1.28,3*0E
$GNGSA,A,3,38,39,16,06,13,20,09,46,29,37,,,1.50,0.78,1.28,4*00
$GPGSV,3,1,11,24,74,162,46,196,73,053,41,199,60,167,37,18,57,297,34,1*6E
$GPGSV,3,2,11,15,50,020,41,195,43,178,40,05,33,096,44,23,32,323,14,1*5E
$GPGSV,3,3,11,194,23,144,27,13,23,042,41,20,12,115,,1*69
$GPGSV,2,1,07,24,74,162,48,196,73,053,45,199,60,167,46,18,57,297,24,8*6C
$GPGSV,2,2,07,195,43,178,44,23,32,323,20,194,23,144,28,8*58
$GLGSV,1,1,03,85,46,284,19,79,24,054,35,69,21,048,34,1*4A
$GAGSV,2,1,07,13,66,275,31,08,56,001,35,15,43,172,38,07,39,278,19,7*7F
$GAGSV,2,2,07,26,20,320,,03,20,050,17,25,05,059,,7*4F
$GAGSV,1,1,04,13,66,275,35,08,56,001,38,15,43,172,42,03,20,050,29,1*7A
$GBGSV,3,1,11,38,76,043,42,39,73,241,40,16,64,226,38,06,62,224,40,1*78
$GBGSV,3,2,11,13,59,343,32,20,47,033,47,09,45,220,32,46,44,142,44,1*72
$GBGSV,3,3,11,29,34,229,38,37,32,067,36,08,,,38,1*7A
$GBGSV,2,1,06,38,76,043,44,39,73,241,39,20,47,033,45,46,44,142,43,4*7A
$GBGSV,2,2,06,29,34,229,41,37,32,067,26,4*75
$GNGGA,103512.000,2500.7950300,N,12132.4780500,E,2,41,0.78,12.77,M,15.25,M,4,3335*7F
$GNRMC,103512.000,A,2500.7950300,N,12132.4780500,E,0.01,69.25,260623,,,D,V*33
$GPHDT,,T*1B
$GNGGA,103512.200,2500.7950300,N,12132.4780500,E,2,41,0.78,12.77,M,15.25,M,3,3335*7A
$GNRMC,103512.200,A,2500.7950300,N,12132.4780500,E,0.01,69.25,260623,,,D,V*31
