$FW : RTK35X,V1.1X0314AS,Lib20210517,1*54
$Tool : LOCOSYS , GNSS Firebird , v1.0.0.19*39
$---------------------------------------------------*2D
$GPHDT,,T*1B
$GNGGA,103409.800,2500.7948500,N,12132.4784100,E,2,37,0.86,14.35,M,15.25,M,4,3335*73
$GNRMC,103409.800,A,2500.7948500,N,12132.4784100,E,0.00,69.25,260623,,,D,V*3E
$GPHDT,,T*1B
$GNGSA,A,3,24,196,199,15,195,05,13,,,,,,1.59,0.86,1.34,1*33
$GNGSA,A,3,79,69,,,,,,,,,,,1.59,0.86,1.34,2*06
$GNGSA,A,3,13,08,15,03,,,,,,,,,1.59,0.86,1.34,3*0B
$GNGSA,A,3,38,39,16,06,13,20,09,46,29,37,,,1.59,0.86,1.34,4*05
$GPGSV,3,1,11,24,74,163,45,196,73,053,42,199,60,167,39,18,57,298,33,1*69
$GPGSV,3,2,11,15,50,020,45,195,43,178,41,05,33,096,42,23,31,323,17,1*5D
$GPGSV,3,3,11,13,24,041,40,194,23,144,21,20,13,115,,1*6B
$GPGSV,2,1,06,24,74,163,47,196,73,053,44,199,60,167,47,18,57,298,25,8*6D
$GPGSV,2,2,06,195,43,178,45,23,31,323,22,8*5F
$GLGSV,1,1,03,85,46,285,13,79,24,055,29,69,22,047,36,1*43
$GAGSV,1,1,04,13,66,276,30,08,56,000,35,15,43,172,38,03,20,049,32,7*79
$GAGSV,1,1,04,13,66,276,35,08,56,000,36,15,43,172,43,03,20,049,28,1*7E
$GBGSV,3,1,10,38,76,043,44,39,73,241,41,16,64,225,34,06,62,224,37,1*71
$GBGSV,3,2,10,13,59,343,35,20,47,033,45,09,45,219,38,46,44,142,45,1*77
$GBGSV,3,3,10,29,35,229,39,37,33,067,34,1*7B
$GBGSV,2,1,06,38,76,043,44,39,73,241,41,20,47,033,46,46,44,142,44,4*71
$GBGSV,2,2,06,29,35,229,38,37,33,067,30,4*7C
$GNGGA,103410.000,2500.7948500,N,12132.4784100,E,2,37,0.86,14.35,M,15.25,M,5,3335*72
$GNRMC,103410.000,A,2500.7948500,N,12132.4784100,E,0.00,69.25,260623,,,D,V*3E
$GPHDT,,T*1B
$GNGGA,103410.200,2500.7948500,N,12132.4784100,E,2,37,0.86,14.35,M,15.25,M,5,3335*70
$GNRMC,103410.200,A,2500.7948500,N,12132.4784100,E,0.00,69.25,260623,,,D,V*3C
$GPHDT,,T*1B
$GNGGA,103410.400,2500.7948500,N,12132.4784100,E,2,37,0.86,14.35,M,15.25,M,5,3335*76
$GNRMC,103410.400,A,2500.7948500,N,12132.4784100,E,0.00,69.25,260623,,,D,V*3A
$GPHDT,,T*1B
$GNGGA,103410.600,2500.7948500,N,12132.4784100,E,2,37,0.86,14.35,M,15.25,M,5,3335*74
$GNRMC,103410.600,A,2500.7948500,N,12132.4784100,E,0.00,69.25,260623,,,D,V*38
$GPHDT,,T*1B
$GNGGA,103410.800,2500.7948500,N,12132.4784100,E,2,37,0.86,14.35,M,15.25,M,5,3335*7A
$GNRMC,103410.800,A,2500.7948500,N,12132.4784100,E,0.00,69.25,260623,,,D,V*36
$GPHDT,,T*1B
$GNGSA,A,3,24,196,199,15,195,05,13,,,,,,1.59,0.86,1.34,1*33
$GNGSA,A,3,79,69,,,,,,,,,,,1.59,0.86,1.34,2*06
$GNGSA,A,3,13,08,15,03,,,,,,,,,1.59,0.86,1.34,3*0B
$GNGSA,A,3,38,39,16,06,13,20,09,46,29,37,,,1.59,0.86,1.34,4*05
$GPGSV,3,1,11,24,74,163,45,196,73,053,42,199,60,167,39,18,57,298,32,1*68
$GPGSV,3,2,11,15,50,020,45,195,43,178,42,05,33,096,42,23,31,323,17,1*5E
$GPGSV,3,3,11,13,24,041,39,194,23,144,20,20,13,115,,1*64
$GPGSV,2,1,06,24,74,163,48,196,73,053,45,199,60,167,47,18,57,298,27,8*61
$GPGSV,2,2,06,195,43,178,45,23,31,323,23,8*5E
$GLGSV,1,1,03,85,46,285,16,79,24,055,31,69,22,047,37,1*4E
$GAGSV,1,1,04,13,66,276,32,08,56,000,36,15,43,172,38,03,20,049,33,7*79
$GAGSV,1,1,04,13,66,276,35,08,56,000,35,15,43,172,42,03,20,049,30,1*75
$GBGSV,3,1,10,38,76,043,43,39,73,241,42,16,64,225,36,06,62,224,37,1*77
$GBGSV,3,2,10,13,59,343,35,20,47,033,46,09,45,219,40,46,44,142,45,1*7B
$GBGSV,3,3,10,29,35,229,45,37,33,067,35,1*71
$GBGSV,2,1,06,38,76,043,44,39,73,241,41,20,47,033,46,46,44,142,45,4*70
$GBGSV,2,2,06,29,35,229,41,37,33,067,28,4*7B
$GNGGA,103411.000,2500.7948500,N,12132.4784100,E,2,37,0.86,14.35,M,15.25,M,6,3335*70
$GNRMC,103411.000,A,2500.7948500,N,12132.4784100,E,0.00,69.25,260623,,,D,V*3F
$GPHDT,,T*1B
$GNGGA,103411.200,2500.7948500,N,12132.4784100,E,2,37,0.86,14.35,M,15.25,M,6,3335*72
$GNRMC,103411.200,A,2500.7948500,N,12132.4784100,E,0.00,69.25,260623,,,D,V*3D
$GPHDT,,T*1B
$GNGGA,103411.400,2500.7948500,N,12132.4784100,E,2,37,0.86,14.35,M,15.25,M,6,3335*74
$GNRMC,103411.400,A,2500.7948500,N,12132.4784100,E,0.00,69.25,260623,,,D,V*3B
$GPHDT,,T*1B
$GNGGA,103411.600,2500.7948500,N,12132.4784100,E,2,37,0.86,14.35,M,15.25,M,6,3335*76
$GNRMC,103411.600,A,2500.7948500,N,12132.4784100,E,0.00,69.25,260623,,,D,V*39
$GPHDT,,T*1B
$GNGGA,103411.800,2500.7948500,N,12132.4784100,E,2,37,0.86,14.34,M,15.25,M,4,3335*7B
$GNRMC,103411.800,A,2500.7948500,N,12132.4784100,E,0.00,69.25,260623,,,D,V*37
$GPHDT,,T*1B
$GNGSA,A,3,24,196,199,15,195,05,13,,,,,,1.59,0.86,1.34,1*33
$GNGSA,A,3,79,69,,,,,,,,,,,1.59,0.86,1.34,2*06
$GNGSA,A,3,13,08,15,03,,,,,,,,,1.59,0.86,1.34,3*0B
$GNGSA,A,3,38,39,16,06,13,20,09,46,29,37,,,1.59,0.86,1.34,4*05
$GPGSV,3,1,11,24,74,163,45,196,73,053,42,199,60,167,39,18,57,298,32,1*68
$GPGSV,3,2,11,15,50,020,45,195,43,178,42,05,33,096,42,23,31,323,15,1*5C
$GPGSV,3,3,11,13,24,041,39,194,23,144,22,20,13,115,,1*66
$GPGSV,2,1,06,24,74,163,48,196,73,053,44,199,60,167,47,18,57,298,25,8*62
$GPGSV,2,2,06,195,43,178,45,23,31,323,22,8*5F
$GLGSV,1,1,03,85,46,285,16,79,24,055,32,69,22,047,38,1*42
$GAGSV,1,1,04,13,66,276,31,08,56,000,36,15,43,172,38,03,20,049,33,7*7A
$GAGSV,1,1,04,13,66,276,35,08,56,000,35,15,43,172,42,03,20,049,30,1*75
$GBGSV,3,1,10,38,76,043,43,39,73,241,42,16,64,225,34,06,62,224,36,1*74
$GBGSV,3,2,10,13,59,343,35,20,47,033,46,09,45,219,40,46,44,142,45,1*7B
$GBGSV,3,3,10,29,35,229,45,37,33,067,36,1*72
$GBGSV,2,1,06,38,76,043,44,39,73,241,41,20,47,033,46,46,44,142,44,4*71
$GBGSV,2,2,06,29,35,229,42,37,33,067,30,4*71
$GNGGA,103412.000,2500.7948500,N,12132.4784100,E,2,37,0.86,14.34,M,15.25,M,4,3335*70
$GNRMC,103412.000,A,2500.7948500,N,12132.4784100,E,0.00,69.25,260623,,,D,V*3C
$GPHDT,,T*1B
$GNGGA,103412.200,2500.7948500,N,12132.4784100,E,2,37,0.86,14.34,M,15.25,M,1,3335*77
$GNRMC,103412.200,A,2500.7948500,N,12132.4784100,E,0.00,69.25,260623,,,D,V*3E
$GPHDT,,T*1B
$GNGGA,103412.400,2500.7948500,N,12132.4784100,E,2,37,0.86,14.34,M,15.25,M,1,3335*71
$GNRMC,103412.400,A,2500.7948500,N,12132.4784100,E,0.00,69.25,260623,,,D,V*38
$GPHDT,,T*1B
$GNGGA,103412.600,2500.7948500,N,12132.4784100,E,2,37,0.86,14.34,M,15.25,M,0,3335*72
$GNRMC,103412.600,A,2500.7948500,N,12132.4784100,E,0.00,69.25,260623,,,D,V*3A
$GPHDT,,T*1B
$GNGGA,103412.800,2500.7948500,N,12132.4784100,E,2,37,0.86,14.34,M,15.25,M,0,3335*7C
$GNRMC,103412.800,A,2500.7948500,N,12132.4784100,E,0.00,69.25,260623,,,D,V*34
$GPHDT,,T*1B
$GNGSA,A,3,24,196,199,15,195,05,13,,,,,,1.59,0.86,1.34,1*33
$GNGSA,A,3,79,69,,,,,,,,,,,1.59,0.86,1.34,2*06
$GNGSA,A,3,13,08,15,03,,,,,,,,,1.59,0.86,1.34,3*0B
$GNGSA,A,3,38,39,16,06,13,20,09,46,29,37,,,1.59,0.86,1.34,4*05
$GPGSV,3,1,11,24,74,163,45,196,73,053,42,199,60,167,39,18,57,298,33,1*69
$GPGSV,3,2,11,15,50,020,45,195,43,178,42,05,33,096,42,23,31,323,16,1*5F
$GPGSV,3,3,11,13,24,041,39,194,23,144,24,20,13,115,,1*60
$GPGSV,2,1,07,24,74,163,48,196,73,053,44,199,60,167,46,18,57,298,27,8*60
$GPGSV,2,2,07,195,43,178,45,23,31,323,22,194,23,144,22,8*52
$GLGSV,1,1,03,85,46,285,14,79,24,055,32,69,22,047,38,1*40
$GAGSV,1,1,04,13,66,276,29,08,56,000,36,15,43,172,38,03,20,049,33,7*73
$GAGSV,1,1,04,13,66,276,35,08,56,000,35,15,43,172,43,03,20,049,29,1*7C
$GBGSV,3,1,10,38,76,043,43,39,73,241,41,16,64,225,35,06,62,224,37,1*77
$GBGSV,3,2,10,13,59,343,35,20,47,033,46,09,45,219,40,46,44,142,45,1*7B
$GBGSV,3,3,10,29,35,229,43,37,33,067,36,1*74
$GBGSV,2,1,06,38,76,043,44,39,73,241,41,20,47,033,46,46,44,142,44,4*71
$GBGSV,2,2,06,29,35,229,39,37,33,067,27,4*7B
$GNGGA,103413.000,2500.7948500,N,12132.4784100,E,2,37,0.86,14.34,M,15.25,M,1,3335*74
$GNRMC,103413.000,A,2500.7948500,N,12132.4784100,E,0.00,69.25,260623,,,D,V*3D
$GPHDT,,T*1B
$GNGGA,103413.200,2500.7948500,N,12132.4784100,E,2,37,0.86,14.34,M,15.25,M,1,3335*76
$GNRMC,103413.200,A,2500.7948500,N,12132.4784100,E,0.00,69.25,260623,,,D,V*3F
$GPHDT,,T*1B
$GNGGA,103413.400,2500.7948500,N,12132.4784000,E,2,37,0.86,14.34,M,15.25,M,1,3335*71
$GNRMC,103413.400,A,2500.7948500,N,12132.4784000,E,0.00,69.25,260623,,,D,V*38
$GPHDT,,T*1B
$GNGGA,103413.600,2500.7948500,N,12132.4784000,E,2,37,0.86,14.34,M,15.25,M,1,3335*73
$GNRMC,103413.600,A,2500.7948500,N,12132.4784000,E,0.00,69.25,260623,,,D,V*3A
$GPHDT,,T*1B
$GNGGA,103413.800,2500.7948500,N,12132.4784000,E,2,37,0.86,14.34,M,15.25,M,1,3335*7D
$GNRMC,103413.800,A,2500.7948500,N,12132.4784000,E,0.00,69.25,260623,,,D,V*34
$GPHDT,,T*1B
$GNGSA,A,3,24,196,199,15,195,05,13,,,,,,1.59,0.86,1.34,1*33
$GNGSA,A,3,79,69,,,,,,,,,,,1.59,0.86,1.34,2*06
$GNGSA,A,3,13,08,15,03,,,,,,,,,1.59,0.86,1.34,3*0B
$GNGSA,A,3,38,39,16,06,13,20,09,46,29,37,,,1.59,0.86,1.34,4*05
$GPGSV,3,1,12,24,74,163,45,196,73,053,42,199,60,167,39,18,57,298,33,1*6A
$GPGSV,3,2,12,15,50,020,45,195,43,178,42,41,38,241,33,05,33,096,42,1*53
$GPGSV,3,3,12,23,31,323,17,13,24,041,39,194,23,144,26,20,13,115,,1*56
$GPGSV,2,1,07,24,74,163,48,196,73,053,44,199,60,167,46,18,57,298,26,8*61
$GPGSV,2,2,07,195,43,178,44,23,31,323,20,194,23,144,22,8*51
$GLGSV,1,1,03,85,46,285,14,79,24,055,33,69,22,047,38,1*41
$GAGSV,2,1,05,13,66,276,29,08,56,000,36,15,43,172,38,07,39,277,,7*72
$GAGSV,2,2,05,03,20,049,33,7*4A
$GAGSV,1,1,04,13,66,276,36,08,56,000,35,15,43,172,43,03,20,049,29,1*7F
$GBGSV,3,1,10,38,76,043,43,39,73,241,41,16,64,225,34,06,62,224,37,1*76
$GBGSV,3,2,10,13,59,343,35,20,47,033,46,09,45,219,38,46,44,142,45,1*74
$GBGSV,3,3,10,29,35,229,42,37,33,067,36,1*75
$GBGSV,2,1,06,38,76,043,44,39,73,241,40,20,47,033,46,46,44,142,44,4*70
$GBGSV,2,2,06,29,35,229,39,37,33,067,28,4*74
$GNGGA,103414.000,2500.7948500,N,12132.4784000,E,2,37,0.86,14.34,M,15.25,M,2,3335*71
$GNRMC,103414.000,A,2500.7948500,N,12132.4784000,E,0.00,69.25,260623,,,D,V*3B
$GPHDT,,T*1B
$GNGGA,103414.200,2500.7948500,N,12132.4784000,E,2,37,0.86,14.34,M,15.25,M,2,3335*73
$GNRMC,103414.200,A,2500.7948500,N,12132.4784000,E,0.00,69.25,260623,,,D,V*39
$GPHDT,,T*1B
$GNGGA,103414.400,2500.7948500,N,12132.4784000,E,2,37,0.86,14.34,M,15.25,M,2,3335*75
$GNRMC,103414.400,A,2500.7948500,N,12132.4784000,E,0.00,69.25,260623,,,D,V*3F
$GPHDT,,T*1B
$GNGGA,103414.600,2500.7948500,N,12132.4784000,E,2,37,0.86,14.34,M,15.25,M,2,3335*77
$GNRMC,103414.600,A,2500.7948500,N,12132.4784000,E,0.00,69.25,260623,,,D,V*3D
$GPHDT,,T*1B
$GNGGA,103414.800,2500.7948500,N,12132.4784000,E,2,37,0.86,14.34,M,15.25,M,2,3335*79
$GNRMC,103414.800,A,2500.7948500,N,12132.4784000,E,0.00,69.25,260623,,,D,V*33
$GPHDT,,T*1B
$GNGSA,A,3,24,196,199,15,195,05,13,,,,,,1.59,0.86,1.34,1*33
$GNGSA,A,3,79,69,,,,,,,,,,,1.59,0.86,1.34,2*06
$GNGSA,A,3,13,08,15,03,,,,,,,,,1.59,0.86,1.34,3*0B
$GNGSA,A,3,38,39,16,06,13,20,09,46,29,37,,,1.59,0.86,1.34,4*05
$GPGSV,3,1,12,24,74,163,45,196,73,053,42,199,60,167,39,18,57,298,33,1*6A
$GPGSV,3,2,12,15,50,020,45,195,43,178,42,41,38,241,35,05,33,096,42,1*55
$GPGSV,3,3,12,23,31,323,17,13,24,042,38,194,23,144,26,20,13,115,,1*54
$GPGSV,2,1,07,24,74,163,48,196,73,053,44,199,60,167,46,18,57,298,27,8*60
$GPGSV,2,2,07,195,43,178,44,23,31,323,20,194,23,144,22,8*51
$GLGSV,1,1,03,85,46,285,17,79,24,055,32,69,22,047,38,1*43
$GAGSV,2,1,05,13,66,276,29,08,56,000,36,15,43,172,38,07,39,277,,7*72
$GAGSV,2,2,05,03,20,049,33,7*4A
$GAGSV,1,1,04,13,66,276,36,08,56,000,35,15,43,172,43,03,20,049,29,1*7F
$GBGSV,3,1,10,38,76,043,43,39,73,241,41,16,64,225,34,06,62,224,37,1*76
$GBGSV,3,2,10,13,59,343,35,20,47,033,46,09,45,219,35,46,44,142,45,1*79
$GBGSV,3,3,10,29,35,229,43,37,33,067,35,1*77
$GBGSV,2,1,06,38,76,043,44,39,73,241,40,20,47,033,46,46,44,142,44,4*70
$GBGSV,2,2,06,29,35,229,40,37,33,067,28,4*7A
$GNGGA,103415.000,2500.7948500,N,12132.4784000,E,2,37,0.86,14.34,M,15.25,M,3,3335*71
$GNRMC,103415.000,A,2500.7948500,N,12132.4784000,E,0.00,69.25,260623,,,D,V*3A
$GPHDT,,T*1B
$GNGGA,103415.200,2500.7948500,N,12132.4784000,E,2,37,0.86,14.34,M,15.25,M,3,3335*73
$GNRMC,103415.200,A,2500.7948500,N,12132.4784000,E,0.00,69.25,260623,,,D,V*38
$GPHDT,,T*1B
$GNGGA,103415.400,2500.7948400,N,12132.4784000,E,2,37,0.86,14.34,M,15.25,M,3,3335*74
$GNRMC,103415.400,A,2500.7948400,N,12132.4784000,E,0.00,69.25,260623,,,D,V*3F
$GPHDT,,T*1B
$GNGGA,103415.600,2500.7948400,N,12132.4784000,E,2,37,0.86,14.34,M,15.25,M,3,3335*76
$GNRMC,103415.600,A,2500.7948400,N,12132.4784000,E,0.00,69.25,260623,,,D,V*3D
$GPHDT,,T*1B
$GNGGA,103415.800,2500.7948400,N,12132.4784000,E,2,37,0.86,14.34,M,15.25,M,3,3335*78
$GNRMC,103415.800,A,2500.7948400,N,12132.4784000,E,0.00,69.25,260623,,,D,V*33
$GPHDT,,T*1B
$GNGSA,A,3,24,196,199,15,195,05,13,,,,,,1.59,0.86,1.34,1*33
$GNGSA,A,3,79,69,,,,,,,,,,,1.59,0.86,1.34,2*06
$GNGSA,A,3,13,08,15,03,,,,,,,,,1.59,0.86,1.34,3*0B
$GNGSA,A,3,38,39,16,06,13,20,09,46,29,37,,,1.59,0.86,1.34,4*05
$GPGSV,3,1,12,24,74,163,44,196,73,053,42,199,60,167,39,18,57,298,33,1*6B
$GPGSV,3,2,12,15,50,020,45,195,43,178,39,41,38,241,35,05,33,096,43,1*58
$GPGSV,3,3,12,23,31,323,17,13,24,042,37,194,23,144,28,20,13,115,,1*55
$GPGSV,2,1,07,24,74,163,48,196,73,053,44,199,60,167,46,18,57,298,26,8*61
$GPGSV,2,2,07,195,43,178,41,23,31,323,20,194,23,144,24,8*52
$GLGSV,1,1,03,85,46,285,17,79,24,055,31,69,22,047,38,1*40
$GAGSV,2,1,05,13,66,276,30,08,56,000,36,15,43,172,38,07,39,277,,7*7A
$GAGSV,2,2,05,03,20,049,33,7*4A
$GAGSV,1,1,04,13,66,276,36,08,56,000,35,15,43,172,41,03,20,049,29,1*7D
$GBGSV,3,1,10,38,76,043,43,39,73,241,41,16,64,225,34,06,62,224,37,1*76
$GBGSV,3,2,10,13,59,343,35,20,47,033,46,09,45,219,38,46,44,142,45,1*74
$GBGSV,3,3,10,29,35,229,45,37,33,067,35,1*71
$GBGSV,2,1,06,38,76,043,44,39,73,241,40,20,47,033,46,46,44,142,44,4*70
$GBGSV,2,2,06,29,35,229,43,37,33,067,28,4*79
$GNGGA,103416.000,2500.7948400,N,12132.4784000,E,2,37,0.86,14.34,M,15.25,M,4,3335*74
$GNRMC,103416.000,A,2500.7948400,N,12132.4784000,E,0.00,69.25,260623,,,D,V*38
$GPHDT,,T*1B
$GNGGA,103416.200,2500.7948400,N,12132.4784000,E,2,37,0.86,14.34,M,15.25,M,1,3335*73
$GNRMC,103416.200,A,2500.7948400,N,12132.4784000,E,0.00,69.25,260623,,,D,V*3A
$GPHDT,,T*1B
$GNGGA,103416.400,2500.7948400,N,12132.4784000,E,2,37,0.86,14.34,M,15.25,M,1,3335*75
$GNRMC,103416.400,A,2500.7948400,N,12132.4784000,E,0.00,69.25,260623,,,D,V*3C
$GPHDT,,T*1B
$GNGGA,103416.600,2500.7948400,N,12132.4784000,E,2,37,0.86,14.34,M,15.25,M,1,3335*77
$GNRMC,103416.600,A,2500.7948400,N,12132.4784000,E,0.00,69.25,260623,,,D,V*3E
$GPHDT,,T*1B
$GNGGA,103416.800,2500.7948400,N,12132.4784000,E,2,37,0.86,14.34,M,15.25,M,0,3335*78
$GNRMC,103416.800,A,2500.7948400,N,12132.4784000,E,0.00,69.25,260623,,,D,V*30
$GPHDT,,T*1B
$GNGSA,A,3,24,196,199,15,195,05,13,,,,,,1.59,0.86,1.34,1*33
$GNGSA,A,3,79,69,,,,,,,,,,,1.59,0.86,1.34,2*06
$GNGSA,A,3,13,08,15,03,,,,,,,,,1.59,0.86,1.34,3*0B
$GNGSA,A,3,38,39,16,06,13,20,09,46,29,37,,,1.59,0.86,1.34,4*05
$GPGSV,3,1,12,24,74,163,43,196,73,053,42,199,60,167,39,18,57,298,33,1*6C
$GPGSV,3,2,12,15,50,020,45,195,43,178,40,41,38,241,34,05,33,096,43,1*57
$GPGSV,3,3,12,23,31,323,15,13,24,042,37,194,23,144,28,20,13,115,,1*57
$GPGSV,2,1,07,24,74,163,48,196,73,053,44,199,60,167,46,18,57,298,26,8*61
$GPGSV,2,2,07,195,43,178,42,23,31,323,20,194,23,144,20,8*55
$GLGSV,1,1,03,85,46,285,17,79,24,055,31,69,22,047,38,1*40
$GAGSV,2,1,05,13,66,276,30,08,56,000,36,15,43,172,40,07,39,277,,7*75
$GAGSV,2,2,05,03,20,049,33,7*4A
$GAGSV,1,1,04,13,66,276,37,08,56,000,35,15,43,172,42,03,20,049,29,1*7F
$GBGSV,3,1,10,38,76,043,43,39,73,241,41,16,64,225,33,06,62,224,37,1*71
$GBGSV,3,2,10,13,59,343,35,20,47,033,46,09,45,219,38,46,44,142,45,1*74
$GBGSV,3,3,10,29,35,229,47,37,33,067,35,1*73
$GBGSV,2,1,06,38,76,043,44,39,73,241,41,20,47,033,46,46,44,142,44,4*71
$GBGSV,2,2,06,29,35,229,44,37,33,067,30,4*77
$GNGGA,103417.000,2500.7948500,N,12132.4784000,E,2,37,0.86,14.34,M,15.25,M,1,3335*71
$GNRMC,103417.000,A,2500.7948500,N,12132.4784000,E,0.00,69.25,260623,,,D,V*38
$GPHDT,,T*1B
$GNGGA,103417.200,2500.7948400,N,12132.4784000,E,2,37,0.86,14.34,M,15.25,M,1,3335*72
$GNRMC,103417.200,A,2500.7948400,N,12132.4784000,E,0.00,69.25,260623,,,D,V*3B
$GPHDT,,T*1B
$GNGGA,103417.400,2500.7948400,N,12132.4784000,E,2,37,0.86,14.34,M,15.25,M,1,3335*74
$GNRMC,103417.400,A,2500.7948400,N,12132.4784000,E,0.00,69.25,260623,,,D,V*3D
$GPHDT,,T*1B
$GNGGA,103417.600,2500.7948400,N,12132.4784000,E,2,37,0.86,14.34,M,15.25,M,1,3335*76
$GNRMC,103417.600,A,2500.7948400,N,12132.4784000,E,0.00,69.25,260623,,,D,V*3F
$GPHDT,,T*1B
$GNGGA,103417.800,2500.7948400,N,12132.4784000,E,2,37,0.86,14.34,M,15.25,M,0,3335*79
$GNRMC,103417.800,A,2500.7948400,N,12132.4784000,E,0.00,69.25,260623,,,D,V*31
$GPHDT,,T*1B
$GNGSA,A,3,24,196,199,15,195,05,13,,,,,,1.59,0.86,1.34,1*33
$GNGSA,A,3,79,69,,,,,,,,,,,1.59,0.86,1.34,2*06
$GNGSA,A,3,13,08,15,03,,,,,,,,,1.59,0.86,1.34,3*0B
$GNGSA,A,3,38,39,16,06,13,20,09,46,29,37,,,1.59,0.86,1.34,4*05
$GPGSV,3,1,12,24,74,162,43,196,73,053,42,199,60,167,38,18,57,298,34,1*6B
$GPGSV,3,2,12,15,50,020,45,195,43,178,42,41,38,241,33,05,33,096,43,1*52
$GPGSV,3,3,12,23,31,323,16,13,24,042,38,194,23,144,27,20,13,115,,1*54
$GPGSV,2,1,07,24,74,162,47,196,73,053,44,199,60,167,46,18,57,298,25,8*6C
$GPGSV,2,2,07,195,43,178,44,23,31,323,20,194,23,144,20,8*53
$GLGSV,1,1,03,85,46,285,16,79,24,055,34,69,22,047,37,1*4B
$GAGSV,2,1,05,13,66,276,30,08,56,000,36,15,43,172,40,07,39,277,,7*75
$GAGSV,2,2,05,03,20,049,33,7*4A
$GAGSV,1,1,04,13,66,276,37,08,56,000,35,15,43,172,43,03,20,049,29,1*7E
$GBGSV,3,1,10,38,76,043,43,39,73,241,41,16,64,225,32,06,62,224,36,1*71
$GBGSV,3,2,10,13,59,343,35,20,47,033,46,09,45,219,37,46,44,142,45,1*7B
$GBGSV,3,3,10,29,35,229,41,37,33,067,34,1*74
$GBGSV,2,1,06,38,76,043,44,39,73,241,41,20,47,033,45,46,44,142,44,4*72
$GBGSV,2,2,06,29,35,229,39,37,33,067,30,4*7D
$GNGGA,103418.000,2500.7948400,N,12132.4784000,E,2,37,0.86,14.34,M,15.25,M,1,3335*7F
$GNRMC,103418.000,A,2500.7948400,N,12132.4784000,E,0.00,69.25,260623,,,D,V*36
$GPHDT,,T*1B
$GNGGA,103418.200,2500.7948400,N,12132.4784000,E,2,39,0.81,14.34,M,15.25,M,1,3335*74
$GNRMC,103418.200,A,2500.7948400,N,12132.4784000,E,0.00,69.25,260623,,,D,V*34
$GPHDT,,T*1B
$GNGGA,103418.400,2500.7948400,N,12132.4784000,E,2,39,0.81,14.34,M,15.25,M,1,3335*72
$GNRMC,103418.400,A,2500.7948400,N,12132.4784000,E,0.00,69.25,260623,,,D,V*32
$GPHDT,,T*1B
$GNGGA,103418.600,2500.7948400,N,12132.4784000,E,2,39,0.81,14.34,M,15.25,M,1,3335*70
$GNRMC,103418.600,A,2500.7948400,N,12132.4784000,E,0.00,69.25,260623,,,D,V*30
$GPHDT,,T*1B
$GNGGA,103418.800,2500.7948400,N,12132.4784000,E,2,39,0.81,14.34,M,15.25,M,1,3335*7E
$GNRMC,103418.800,A,2500.7948400,N,12132.4784000,E,0.00,69.25,260623,,,D,V*3E
$GPHDT,,T*1B
$GNGSA,A,3,24,196,199,18,15,195,05,13,,,,,1.56,0.81,1.33,1*35
$GNGSA,A,3,79,69,,,,,,,,,,,1.56,0.81,1.33,2*09
$GNGSA,A,3,13,08,15,03,,,,,,,,,1.56,0.81,1.33,3*04
$GNGSA,A,3,38,39,16,06,13,20,09,46,29,37,,,1.56,0.81,1.33,4*0A
$GPGSV,3,1,12,24,74,162,43,196,73,053,42,199,60,167,38,18,57,298,34,1*6B
$GPGSV,3,2,12,15,50,020,45,195,43,178,42,41,38,241,28,05,33,096,43,1*58
$GPGSV,3,3,12,23,31,323,16,13,24,042,39,194,23,144,26,20,13,115,,1*54
$GPGSV,2,1,07,24,74,162,47,196,73,053,44,199,60,167,46,18,57,298,24,8*6D
$GPGSV,2,2,07,195,43,178,44,23,31,323,20,194,23,144,19,8*59
$GLGSV,2,1,05,85,46,285,15,79,24,055,32,69,22,047,36,86,15,326,,1*77
$GLGSV,2,2,05,71,13,288,,1*4B
$GAGSV,2,1,06,13,66,276,30,08,56,000,36,15,43,172,39,07,39,277,,7*78
$GAGSV,2,2,06,03,20,049,33,25,05,060,,7*7D
$GAGSV,1,1,04,13,66,276,37,08,56,000,35,15,43,172,42,03,20,049,29,1*7F
$GBGSV,3,1,10,38,76,043,43,39,73,241,41,16,64,225,35,06,62,224,38,1*78
$GBGSV,3,2,10,13,59,343,35,20,47,033,46,09,45,219,38,46,44,142,45,1*74
$GBGSV,3,3,10,29,35,229,38,37,33,067,35,1*7B
$GBGSV,2,1,06,38,76,043,44,39,73,241,41,20,47,033,45,46,44,142,44,4*72
$GBGSV,2,2,06,29,35,229,38,37,33,067,32,4*7E
$GNGGA,103419.000,2500.7948400,N,12132.4784000,E,2,39,0.81,14.34,M,15.25,M,2,3335*74
$GNRMC,103419.000,A,2500.7948400,N,12132.4784000,E,0.00,69.25,260623,,,D,V*37
$GPHDT,,T*1B
$GNGGA,103419.200,2500.7948400,N,12132.4784000,E,2,39,0.81,14.34,M,15.25,M,2,3335*76
$GNRMC,103419.200,A,2500.7948400,N,12132.4784000,E,0.00,69.25,260623,,,D,V*35
$GPHDT,,T*1B
$GNGGA,103419.400,2500.7948400,N,12132.4784000,E,2,39,0.81,14.34,M,15.25,M,2,3335*70
$GNRMC,103419.400,A,2500.7948400,N,12132.4784000,E,0.00,69.25,260623,,,D,V*33
$GPHDT,,T*1B
$GNGGA,103419.600,2500.7948400,N,12132.4784000,E,2,39,0.81,14.34,M,15.25,M,2,3335*72
$GNRMC,103419.600,A,2500.7948400,N,12132.4784000,E,0.00,69.25,260623,,,D,V*31
$GPHDT,,T*1B
$GNGGA,103419.800,2500.7948400,N,12132.4784000,E,2,39,0.81,14.34,M,15.25,M,2,3335*7C
$GNRMC,103419.800,A,2500.7948400,N,12132.4784000,E,0.00,69.25,260623,,,D,V*3F
$GPHDT,,T*1B
$GNGSA,A,3,24,196,199,18,15,195,05,13,,,,,1.56,0.81,1.33,1*35
$GNGSA,A,3,79,69,,,,,,,,,,,1.56,0.81,1.33,2*09
$GNGSA,A,3,13,08,15,03,,,,,,,,,1.56,0.81,1.33,3*04
$GNGSA,A,3,38,39,16,06,13,20,09,46,29,37,,,1.56,0.81,1.33,4*0A
$GPGSV,3,1,12,24,74,162,43,196,73,053,42,199,60,167,38,18,57,298,34,1*6B
$GPGSV,3,2,12,15,50,020,45,195,43,178,42,41,38,241,29,05,33,096,43,1*59
$GPGSV,3,3,12,23,31,323,16,13,24,042,39,194,23,144,24,20,13,115,,1*56
$GPGSV,2,1,07,24,74,162,47,196,73,053,44,199,60,167,46,18,57,298,25,8*6C
$GPGSV,2,2,07,195,43,178,44,23,31,323,20,194,23,144,19,8*59
$GLGSV,1,1,03,85,46,285,16,79,24,055,31,69,22,047,36,1*4F
$GAGSV,2,1,06,13,66,276,30,08,56,000,36,15,43,172,39,07,39,277,,7*78
$GAGSV,2,2,06,03,20,049,33,25,05,060,,7*7D
$GAGSV,1,1,04,13,66,276,37,08,56,000,35,15,43,172,43,03,20,049,30,1*76
$GBGSV,3,1,10,38,76,043,43,39,73,241,41,16,64,225,34,06,62,224,38,1*79
$GBGSV,3,2