$FW : RTK35X,V1.1X0314AS,Lib20210517,1*54
$Tool : LOCOSYS , GNSS Firebird , v1.0.0.19*39
$---------------------------------------------------*2D
$GPHDT,,T*1B
$GNGSA,A,3,24,196,199,18,15,195,05,13,194,,,,1.49,0.78,1.27,1*04
$GNGSA,A,3,79,69,,,,,,,,,,,1.49,0.78,1.27,2*04
$GNGSA,A,3,13,08,15,03,,,,,,,,,1.49,0.78,1.27,3*09
$GNGSA,A,3,38,39,16,06,13,20,09,46,29,37,,,1.49,0.78,1.27,4*07
$GPGSV,3,1,11,24,75,161,43,196,73,053,41,199,60,167,38,18,57,296,30,1*63
$GPGSV,3,2,11,15,49,021,41,195,43,178,43,23,32,323,18,05,32,097,34,1*5F
$GPGSV,3,3,11,13,23,042,40,194,23,144,25,20,12,115,,1*6A
$GPGSV,2,1,07,24,75,161,48,196,73,053,45,199,60,167,46,18,57,296,28,8*63
$GPGSV,2,2,07,195,43,178,42,23,32,323,20,194,23,144,25,8*53
$GLGSV,1,1,02,79,24,054,31,69,21,048,32,1*70
$GAGSV,1,1,04,13,66,274,33,08,55,001,27,15,42,172,40,03,20,050,27,7*7B
$GAGSV,1,1,04,13,66,274,33,08,55,001,37,15,42,172,44,03,20,050,26,1*79
$GBGSV,3,1,11,38,76,044,43,39,73,242,39,16,64,227,37,06,62,225,32,1*79
$GBGSV,3,2,11,13,59,343,34,20,47,034,47,09,45,220,26,46,45,142,47,1*74
$GBGSV,3,3,11,29,34,229,44,37,32,067,35,08,,,34,1*7E
$GBGSV,2,1,06,38,76,044,45,39,73,242,40,20,47,034,46,46,45,142,44,4*73
$GBGSV,2,2,06,29,34,229,44,37,32,067,25,4*73
$GNGGA,103614.000,2500.7949400,N,12132.4778500,E,2,41,0.78,12.95,M,15.25,M,5,3335*7F
$GNRMC,103614.000,A,2500.7949400,N,12132.4778500,E,0.01,69.25,260623,,,D,V*3E
$GPHDT,,T*1B
$GNGGA,103614.200,2500.7949300,N,12132.4778600,E,2,41,0.78,12.96,M,15.25,M,5,3335*7A
$GNRMC,103614.200,A,2500.7949300,N,12132.4778600,E,0.02,69.25,260623,,,D,V*3B
$GPHDT,,T*1B
$GNGGA,103614.400,2500.7949400,N,12132.4778600,E,2,42,0.78,12.96,M,15.25,M,5,3335*78
$GNRMC,103614.400,A,2500.7949400,N,12132.4778600,E,0.01,69.25,260623,,,D,V*39
$GPHDT,,T*1B
$GNGGA,103614.600,2500.7949400,N,12132.4778600,E,2,42,0.78,12.96,M,15.25,M,5,3335*7A
$GNRMC,103614.600,A,2500.7949400,N,12132.4778600,E,0.00,69.25,260623,,,D,V*3A
$GPHDT,,T*1B
$GNGGA,103614.800,2500.7949400,N,12132.4778600,E,2,42,0.78,12.96,M,15.25,M,5,3335*74
$GNRMC,103614.800,A,2500.7949400,N,12132.4778600,E,0.00,69.25,260623,,,D,V*34
$GPHDT,,T*1B
$GNGSA,A,3,24,196,199,18,15,195,05,13,194,,,,1.48,0.78,1.25,1*07
$GNGSA,A,3,79,69,,,,,,,,,,,1.48,0.78,1.25,2*07
$GNGSA,A,3,13,08,15,03,,,,,,,,,1.48,0.78,1.25,3*0A
$GNGSA,A,3,38,39,08,16,06,13,20,09,46,29,37,,1.48,0.78,1.25,4*0C
$GPGSV,3,1,11,24,75,161,43,196,73,053,41,199,60,167,37,18,57,296,29,1*64
$GPGSV,3,2,11,15,49,021,41,195,43,178,34,23,32,323,18,05,32,097,37,1*5C
$GPGSV,3,3,11,13,23,042,41,194,23,144,24,20,12,115,,1*6A
$GPGSV,2,1,07,24,75,161,48,196,73,053,45,199,60,167,45,18,57,296,28,8*60
$GPGSV,2,2,07,195,43,178,37,23,32,323,20,194,23,144,27,8*53
$GLGSV,1,1,02,79,24,054,32,69,21,048,31,1*70
$GAGSV,1,1,04,13,66,274,34,08,55,001,31,15,42,172,28,03,20,050,26,7*74
$GAGSV,1,1,04,13,66,274,35,08,55,001,36,15,42,172,37,03,20,050,25,1*79
$GBGSV,3,1,11,38,76,044,43,39,73,242,40,08,67,007,35,16,64,227,38,1*76
$GBGSV,3,2,11,06,62,225,37,13,59,343,33,20,47,034,44,09,45,220,35,1*76
$GBGSV,3,3,11,46,45,142,47,29,34,229,46,37,32,067,33,1*42
$GBGSV,2,1,06,38,76,044,45,39,73,242,40,20,47,034,37,46,45,142,46,4*77
$GBGSV,2,2,06,29,34,229,46,37,32,067,21,4*75
$GNGGA,103615.000,2500.7949400,N,12132.4778500,E,2,42,0.78,12.96,M,15.25,M,6,3335*7D
$GNRMC,103615.000,A,2500.7949400,N,12132.4778500,E,0.00,69.25,260623,,,D,V*3E
$GPHDT,,T*1B
$GNGGA,103615.200,2500.7949400,N,12132.4778600,E,2,42,0.78,12.96,M,15.25,M,5,3335*7F
$GNRMC,103615.200,A,2500.7949400,N,12132.4778600,E,0.00,69.25,260623,,,D,V*3F
$GPHDT,,T*1B
$GNGGA,103615.400,2500.7949400,N,12132.4778600,E,2,42,0.78,12.96,M,15.25,M,5,3335*79
$GNRMC,103615.400,A,2500.7949400,N,12132.4778600,E,0.00,69.25,260623,,,D,V*39
$GPHDT,,T*1B
$GNGGA,103615.600,2500.7949400,N,12132.4778500,E,2,42,0.78,12.96,M,15.25,M,1,3335*7C
$GNRMC,103615.600,A,2500.7949400,N,12132.4778500,E,0.00,69.25,260623,,,D,V*38
$GPHDT,,T*1B
$GNGGA,103615.800,2500.7949400,N,12132.4778500,E,2,42,0.78,12.96,M,15.25,M,0,3335*73
$GNRMC,103615.800,A,2500.7949400,N,12132.4778500,E,0.00,69.25,260623,,,D,V*36
$GPHDT,,T*1B
$GNGSA,A,3,24,196,199,18,15,195,05,13,194,,,,1.48,0.78,1.25,1*07
$GNGSA,A,3,79,69,,,,,,,,,,,1.48,0.78,1.25,2*07
$GNGSA,A,3,13,08,15,03,,,,,,,,,1.48,0.78,1.25,3*0A
$GNGSA,A,3,38,39,08,16,06,13,20,46,09,29,37,,1.48,0.78,1.25,4*0C
$GPGSV,3,1,12,24,75,161,42,196,73,053,41,199,60,167,37,18,57,296,28,1*67
$GPGSV,3,2,12,15,49,021,41,195,43,178,38,23,32,323,17,05,32,097,39,1*52
$GPGSV,3,3,12,13,23,042,42,194,23,144,25,20,12,115,,42,,,,1*6D
$GPGSV,2,1,07,24,75,161,48,196,73,053,45,199,60,167,45,18,57,296,25,8*6D
$GPGSV,2,2,07,195,43,178,38,23,32,323,21,194,23,144,28,8*52
$GLGSV,1,1,03,85,46,283,,79,24,054,34,69,21,048,31,1*41
$GAGSV,1,1,04,13,66,274,34,08,55,001,29,15,42,172,32,03,20,050,26,7*76
$GAGSV,1,1,04,13,66,274,34,08,55,001,37,15,42,172,40,03,20,050,26,1*7A
$GBGSV,3,1,12,38,76,044,43,39,73,242,40,08,67,007,34,16,64,227,38,1*74
$GBGSV,3,2,12,06,62,225,36,13,59,343,33,20,47,034,45,46,45,142,47,1*7C
$GBGSV,3,3,12,09,45,220,36,19,40,320,,29,34,228,46,37,32,067,32,1*76
$GBGSV,2,1,06,38,76,044,45,39,73,242,40,20,47,034,42,46,45,142,45,4*76
$GBGSV,2,2,06,29,34,228,46,37,32,067,23,4*76
$GNGGA,103616.000,2500.7949400,N,12132.4778500,E,2,42,0.78,12.97,M,15.25,M,1,3335*78
$GNRMC,103616.000,A,2500.7949400,N,12132.4778500,E,0.00,69.25,260623,,,D,V*3D
$GPHDT,,T*1B
$GNGGA,103616.200,2500.7949400,N,12132.4778500,E,2,42,0.78,12.97,M,15.25,M,1,3335*7A
$GNRMC,103616.200,A,2500.7949400,N,12132.4778500,E,0.00,69.25,260623,,,D,V*3F
$GPHDT,,T*1B
$GNGGA,103616.400,2500.7949400,N,12132.4778400,E,2,42,0.78,12.97,M,15.25,M,1,3335*7D
$GNRMC,103616.400,A,2500.7949400,N,12132.4778400,E,0.00,69.25,260623,,,D,V*38
$GPHDT,,T*1B
$GNGGA,103616.600,2500.7949400,N,12132.4778400,E,2,42,0.78,12.97,M,15.25,M,1,3335*7F
$GNRMC,103616.600,A,2500.7949400,N,12132.4778400,E,0.00,69.25,260623,,,D,V*3A
$GPHDT,,T*1B
$GNGGA,103616.800,2500.7949400,N,12132.4778400,E,2,42,0.78,12.97,M,15.25,M,0,3335*70
$GNRMC,103616.800,A,2500.7949400,N,12132.4778400,E,0.00,69.25,260623,,,D,V*34
$GPHDT,,T*1B
$GNGSA,A,3,24,196,199,18,15,195,05,13,194,,,,1.48,0.78,1.25,1*07
$GNGSA,A,3,79,69,,,,,,,,,,,1.48,0.78,1.25,2*07
$GNGSA,A,3,13,08,15,03,,,,,,,,,1.48,0.78,1.25,3*0A
$GNGSA,A,3,38,39,08,16,06,13,20,46,09,29,37,,1.48,0.78,1.25,4*0C
$GPGSV,3,1,12,24,75,161,42,196,73,053,41,199,60,167,38,18,57,296,28,1*68
$GPGSV,3,2,12,15,49,021,40,195,43,178,42,23,32,323,17,05,32,097,40,1*50
$GPGSV,3,3,12,13,23,042,42,194,23,144,26,20,12,115,,42,,,,1*6E
$GPGSV,2,1,07,24,75,161,48,196,73,053,45,199,60,167,45,18,57,296,25,8*6D
$GPGSV,2,2,07,195,43,178,42,23,32,323,18,194,23,144,27,8*5A
$GLGSV,1,1,03,85,46,283,26,79,24,054,35,69,21,048,33,1*46
$GAGSV,1,1,04,13,66,274,34,08,55,001,30,15,42,172,37,03,20,050,29,7*74
$GAGSV,1,1,04,13,66,274,35,08,55,001,38,15,42,172,42,03,20,050,24,1*74
$GBGSV,3,1,11,38,77,044,43,39,73,242,40,08,67,007,34,16,64,227,37,1*79
$GBGSV,3,2,11,06,62,225,36,13,59,343,32,20,47,034,46,46,45,142,47,1*7D
$GBGSV,3,3,11,09,45,220,36,29,34,228,46,37,32,066,35,1*4E
$GBGSV,2,1,06,38,77,044,45,39,73,242,40,20,47,034,45,46,45,142,43,4*76
$GBGSV,2,2,06,29,34,228,46,37,32,066,26,4*72
$GNGGA,103617.000,2500.7949400,N,12132.4778400,E,2,42,0.78,12.97,M,15.25,M,1,3335*78
$GNRMC,103617.000,A,2500.7949400,N,12132.4778400,E,0.00,69.25,260623,,,D,V*3D
$GPHDT,,T*1B
$GNGGA,103617.200,2500.7949300,N,12132.4778400,E,2,42,0.78,12.97,M,15.25,M,1,3335*7D
$GNRMC,103617.200,A,2500.7949300,N,12132.4778400,E,0.00,69.25,260623,,,D,V*38
$GPHDT,,T*1B
$GNGGA,103617.400,2500.7949300,N,12132.4778400,E,2,42,0.78,12.98,M,15.25,M,1,3335*74
$GNRMC,103617.400,A,2500.7949300,N,12132.4778400,E,0.00,69.25,260623,,,D,V*3E
$GPHDT,,T*1B
$GNGGA,103617.600,2500.7949300,N,12132.4778300,E,2,42,0.78,12.98,M,15.25,M,1,3335*71
$GNRMC,103617.600,A,2500.7949300,N,12132.4778300,E,0.00,69.25,260623,,,D,V*3B
$GPHDT,,T*1B
$GNGGA,103617.800,2500.7949300,N,12132.4778300,E,2,42,0.78,12.98,M,15.25,M,0,3335*7E
$GNRMC,103617.800,A,2500.7949300,N,12132.4778300,E,0.00,69.25,260623,,,D,V*35
$GPHDT,,T*1B
$GNGSA,A,3,24,196,199,18,15,195,05,13,194,,,,1.48,0.78,1.25,1*07
$GNGSA,A,3,79,69,,,,,,,,,,,1.48,0.78,1.25,2*07
$GNGSA,A,3,13,08,15,03,,,,,,,,,1.48,0.78,1.25,3*0A
$GNGSA,A,3,38,39,08,16,06,13,20,09,46,29,37,,1.48,0.78,1.25,4*0C
$GPGSV,3,1,11,24,75,161,42,196,73,053,41,199,60,167,38,18,57,296,29,1*6A
$GPGSV,3,2,11,15,49,021,40,195,43,178,42,23,32,323,18,05,32,097,41,1*5D
$GPGSV,3,3,11,13,23,042,42,194,23,144,25,20,12,115,,1*68
$GPGSV,2,1,07,24,75,161,48,196,73,053,45,199,60,167,46,18,57,296,24,8*6F
$GPGSV,2,2,07,195,43,178,42,23,32,323,17,194,23,144,29,8*5B
$GLGSV,1,1,03,85,46,283,27,79,24,054,35,69,21,048,34,1*40
$GAGSV,2,1,05,13,66,274,34,08,55,001,30,15,42,172,39,07,39,278,,7*77
$GAGSV,2,2,05,03,20,050,27,7*47
$GAGSV,1,1,04,13,66,274,35,08,55,001,38,15,42,172,43,03,20,050,25,1*74
$GBGSV,3,1,11,38,77,044,43,39,73,243,40,08,67,007,33,16,64,227,37,1*7F
$GBGSV,3,2,11,06,62,225,36,13,59,343,32,20,47,034,46,09,45,220,36,1*77
$GBGSV,3,3,11,46,45,142,46,29,34,228,46,37,32,066,35,1*45
$GBGSV,2,1,06,38,77,044,45,39,73,243,40,20,47,034,45,46,45,142,43,4*77
$GBGSV,2,2,06,29,34,228,46,37,32,066,27,4*73
$GNGGA,103618.000,2500.7949300,N,12132.4778300,E,2,42,0.78,12.99,M,15.25,M,1,3335*79
$GNRMC,103618.000,A,2500.7949300,N,12132.4778300,E,0.00,69.25,260623,,,D,V*32
$GPHDT,,T*1B
$GNGGA,103618.200,2500.7949200,N,12132.4778300,E,2,42,0.78,12.99,M,15.25,M,1,3335*7A
$GNRMC,103618.200,A,2500.7949200,N,12132.4778300,E,0.00,69.25,260623,,,D,V*31
$GPHDT,,T*1B
$GNGGA,103618.400,2500.7949200,N,12132.4778200,E,2,42,0.78,12.99,M,15.25,M,1,3335*7D
$GNRMC,103618.400,A,2500.7949200,N,12132.4778200,E,0.00,69.25,260623,,,D,V*36
$GPHDT,,T*1B
$GNGGA,103618.600,2500.7949200,N,12132.4778200,E,2,42,0.78,12.99,M,15.25,M,1,3335*7F
$GNRMC,103618.600,A,2500.7949200,N,12132.4778200,E,0.00,69.25,260623,,,D,V*34
$GPHDT,,T*1B
$GNGGA,103618.800,2500.7949200,N,12132.4778200,E,2,42,0.78,13.00,M,15.25,M,1,3335*70
$GNRMC,103618.800,A,2500.7949200,N,12132.4778200,E,0.00,69.25,260623,,,D,V*3A
$GPHDT,,T*1B
$GNGSA,A,3,24,196,199,18,15,195,05,13,194,,,,1.48,0.78,1.25,1*07
$GNGSA,A,3,79,69,,,,,,,,,,,1.48,0.78,1.25,2*07
$GNGSA,A,3,13,08,15,03,,,,,,,,,1.48,0.78,1.25,3*0A
$GNGSA,A,3,38,39,08,16,06,13,20,09,46,29,37,,1.48,0.78,1.25,4*0C
$GPGSV,3,1,11,24,75,161,42,196,73,053,41,199,60,167,38,18,57,296,30,1*62
$GPGSV,3,2,11,15,49,021,39,195,43,178,42,23,32,323,18,05,32,097,40,1*52
$GPGSV,3,3,11,13,23,042,42,194,23,144,25,20,12,115,,1*68
$GPGSV,2,1,07,24,75,161,48,196,73,053,45,199,60,167,46,18,57,296,21,8*6A
$GPGSV,2,2,07,195,43,178,43,23,32,323,17,194,23,144,29,8*5A
$GLGSV,1,1,04,85,46,283,29,70,38,337,,79,24,054,35,69,21,048,34,1*72
$GAGSV,2,1,06,13,66,274,35,08,55,001,29,15,42,172,39,07,39,278,,7*7D
$GAGSV,2,2,06,03,20,050,26,02,18,105,,7*7A
$GAGSV,1,1,04,13,66,274,35,08,55,001,38,15,42,172,43,03,20,050,25,1*74
$GBGSV,3,1,11,38,77,044,43,39,73,243,40,08,67,007,33,16,64,227,37,1*7F
$GBGSV,3,2,11,06,62,225,35,13,59,343,33,20,47,034,46,09,45,220,36,1*75
$GBGSV,3,3,11,46,45,142,46,29,34,228,46,37,32,066,34,1*44
$GBGSV,2,1,06,38,77,044,45,39,73,243,40,20,47,034,45,46,45,142,44,4*70
$GBGSV,2,2,06,29,34,228,46,37,32,066,29,4*7D
$GNGGA,103619.000,2500.7949200,N,12132.4778100,E,2,42,0.78,13.00,M,15.25,M,2,3335*79
$GNRMC,103619.000,A,2500.7949200,N,12132.4778100,E,0.00,69.25,260623,,,D,V*30
$GPHDT,,T*1B
$GNGGA,103619.200,2500.7949200,N,12132.4778100,E,2,42,0.78,13.00,M,15.25,M,1,3335*78
$GNRMC,103619.200,A,2500.7949200,N,12132.4778100,E,0.00,69.25,260623,,,D,V*32
$GPHDT,,T*1B
$GNGGA,103619.400,2500.7949200,N,12132.4778100,E,2,42,0.78,13.01,M,15.25,M,0,3335*7E
$GNRMC,103619.400,A,2500.7949200,N,12132.4778100,E,0.00,69.25,260623,,,D,V*34
$GPHDT,,T*1B
$GNGGA,103619.600,2500.7949100,N,12132.4778100,E,2,42,0.78,13.01,M,15.25,M,0,3335*7F
$GNRMC,103619.600,A,2500.7949100,N,12132.4778100,E,0.00,69.25,260623,,,D,V*35
$GPHDT,,T*1B
$GNGGA,103619.800,2500.7949100,N,12132.4778100,E,2,42,0.78,13.01,M,15.25,M,0,3335*71
$GNRMC,103619.800,A,2500.7949100,N,12132.4778100,E,0.00,69.25,260623,,,D,V*3B
$GPHDT,,T*1B
$GNGSA,A,3,24,196,199,18,15,195,05,13,194,,,,1.48,0.78,1.25,1*07
$GNGSA,A,3,79,69,,,,,,,,,,,1.48,0.78,1.25,2*07
$GNGSA,A,3,13,08,15,03,,,,,,,,,1.48,0.78,1.25,3*0A
$GNGSA,A,3,38,39,08,16,06,13,20,09,46,29,37,,1.48,0.78,1.25,4*0C
$GPGSV,3,1,11,24,75,161,42,196,73,053,41,199,60,167,38,18,57,296,29,1*6A
$GPGSV,3,2,11,15,49,021,39,195,43,178,42,23,32,323,19,05,32,097,40,1*53
$GPGSV,3,3,11,13,23,042,42,194,23,144,27,20,12,115,,1*6A
$GPGSV,2,1,07,24,75,161,48,196,73,053,45,199,60,167,46,18,57,296,20,8*6B
$GPGSV,2,2,07,195,43,178,43,23,32,323,14,194,23,144,28,8*58
$GLGSV,1,1,03,85,46,283,29,79,24,054,35,69,21,048,34,1*4E
$GAGSV,2,1,06,13,66,274,35,08,55,001,27,15,42,172,39,07,39,278,18,7*7A
$GAGSV,2,2,06,03,20,050,26,02,18,105,,7*7A
$GAGSV,1,1,04,13,66,274,35,08,55,001,38,15,42,172,43,03,20,050,25,1*74
$GBGSV,3,1,11,38,77,044,43,39,73,243,40,08,67,007,34,16,64,227,37,1*78
$GBGSV,3,2,11,06,62,225,35,13,59,343,32,20,47,034,46,09,45,220,36,1*74
$GBGSV,3,3,11,46,45,142,46,29,34,228,46,37,32,066,34,1*44
$GBGSV,2,1,06,38,77,044,45,39,73,243,40,20,47,034,44,46,45,142,44,4*71
$GBGSV,2,2,06,29,34,228,46,37,32,066,26,4*72
$GNGGA,103620.000,2500.7949100,N,12132.4778000,E,2,42,0.78,13.02,M,15.25,M,1,3335*70
$GNRMC,103620.000,A,2500.7949100,N,12132.4778000,E,0.00,69.25,260623,,,D,V*38
$GPHDT,,T*1B
$GNGGA,103620.200,2500.7949000,N,12132.4778000,E,2,42,0.78,13.02,M,15.25,M,1,3335*73
$GNRMC,103620.200,A,2500.7949000,N,12132.4778000,E,0.00,69.25,260623,,,D,V*3B
$GPHDT,,T*1B
$GNGGA,103620.400,2500.7949000,N,12132.4778000,E,2,42,0.78,13.02,M,15.25,M,1,3335*75
$GNRMC,103620.400,A,2500.7949000,N,12132.4778000,E,0.00,69.25,260623,,,D,V*3D
$GPHDT,,T*1B
$GNGGA,103620.600,2500.7949000,N,12132.4778000,E,2,42,0.78,13.03,M,15.25,M,0,3335*77
$GNRMC,103620.600,A,2500.7949000,N,12132.4778000,E,0.00,69.25,260623,,,D,V*3F
$GPHDT,,T*1B
$GNGGA,103620.800,2500.7949000,N,12132.4778000,E,2,42,0.78,13.03,M,15.25,M,0,3335*79
$GNRMC,103620.800,A,2500.7949000,N,12132.4778000,E,0.00,69.25,260623,,,D,V*31
$GPHDT,,T*1B
$GNGSA,A,3,24,196,199,18,15,195,05,13,194,,,,1.48,0.78,1.25,1*07
$GNGSA,A,3,79,69,,,,,,,,,,,1.48,0.78,1.25,2*07
$GNGSA,A,3,13,08,15,03,,,,,,,,,1.48,0.78,1.25,3*0A
$GNGSA,A,3,38,39,08,16,06,13,20,09,46,29,37,,1.48,0.78,1.25,4*0C
$GPGSV,3,1,11,24,75,161,42,196,73,053,41,199,60,167,38,18,57,296,29,1*6A
$GPGSV,3,2,11,15,49,021,39,195,43,178,42,23,32,323,20,05,32,097,39,1*57
$GPGSV,3,3,11,13,23,042,42,194,23,144,27,20,12,115,,1*6A
$GPGSV,2,1,07,24,75,161,48,196,73,053,45,199,60,167,46,18,57,296,19,8*61
$GPGSV,2,2,07,195,43,178,43,23,32,323,14,194,23,144,28,8*58
$GLGSV,1,1,03,85,46,283,28,79,24,054,36,69,21,048,34,1*4C
$GAGSV,2,1,06,13,66,274,35,08,55,001,27,15,42,172,39,07,39,278,19,7*7B
$GAGSV,2,2,06,03,20,050,26,02,18,105,,7*7A
$GAGSV,1,1,04,13,66,274,34,08,55,001,38,15,42,172,43,03,20,050,24,1*74
$GBGSV,3,1,11,38,77,044,43,39,73,243,40,08,67,007,34,16,64,227,37,1*78
$GBGSV,3,2,11,06,62,225,35,13,59,343,32,20,47,034,46,09,45,220,36,1*74
$GBGSV,3,3,11,46,45,142,46,29,34,228,46,37,32,066,33,1*43
$GBGSV,2,1,06,38,77,044,45,39,73,243,40,20,47,034,44,46,45,142,44,4*71
$GBGSV,2,2,06,29,34,228,46,37,32,066,26,4*72
$GNGGA,103621.000,2500.7949000,N,12132.4777900,E,2,42,0.78,13.03,M,15.25,M,1,3335*77
$GNRMC,103621.000,A,2500.7949000,N,12132.4777900,E,0.00,69.25,260623,,,D,V*3E
$GPHDT,,T*1B
$GNGGA,103621.200,2500.7949000,N,12132.4777900,E,2,42,0.78,13.04,M,15.25,M,1,3335*72
$GNRMC,103621.200,A,2500.7949000,N,12132.4777900,E,0.00,69.25,260623,,,D,V*3C
$GPHDT,,T*1B
$GNGGA,103621.400,2500.7949000,N,12132.4777900,E,2,42,0.78,13.04,M,15.25,M,1,3335*74
$GNRMC,103621.400,A,2500.7949000,N,12132.4777900,E,0.00,69.25,260623,,,D,V*3A
$GPHDT,,T*1B
$GNGGA,103621.600,2500.7949000,N,12132.4777800,E,2,42,0.78,13.04,M,15.25,M,1,3335*77
$GNRMC,103621.600,A,2500.7949000,N,12132.4777800,E,0.00,69.25,260623,,,D,V*39
$GPHDT,,T*1B
$GNGGA,103621.800,2500.7949000,N,12132.4777800,E,2,42,0.78,13.04,M,15.25,M,0,3335*78
$GNRMC,103621.800,A,2500.7949000,N,12132.4777800,E,0.00,69.25,260623,,,D,V*37
$GPHDT,,T*1B
$GNGSA,A,3,24,196,199,18,15,195,05,13,194,,,,1.48,0.78,1.25,1*07
$GNGSA,A,3,79,69,,,,,,,,,,,1.48,0.78,1.25,2*07
$GNGSA,A,3,13,08,15,03,,,,,,,,,1.48,0.78,1.25,3*0A
$GNGSA,A,3,38,39,08,16,06,13,20,46,09,29,37,,1.48,0.78,1.25,4*0C
$GPGSV,3,1,11,24,75,161,42,196,73,053,41,199,60,167,38,18,57,296,28,1*6B
$GPGSV,3,2,11,15,49,021,39,195,43,178,42,23,32,323,20,05,32,097,39,1*57
$GPGSV,3,3,11,13,23,042,41,194,23,144,27,20,12,115,,1*69
$GPGSV,2,1,07,24,75,161,48,196,73,053,45,199,60,167,46,18,57,296,21,8*6A
$GPGSV,2,2,07,195,43,178,43,23,32,323,16,194,23,144,28,8*5A
$GLGSV,2,1,05,85,46,283,29,79,24,054,36,69,21,048,34,73,13,169,,1*70
$GLGSV,2,2,05,71,13,289,,1*4A
$GAGSV,2,1,06,13,66,274,35,08,55,001,28,15,42,172,39,07,39,278,20,7*7E
$GAGSV,2,2,06,03,20,050,25,02,18,105,,7*79
$GAGSV,1,1,04,13,66,274,34,08,55,001,38,15,42,172,43,03,20,050,25,1*75
$GBGSV,3,1,11,38,77,044,43,39,73,243,40,08,67,007,34,16,64,227,37,1*78
$GBGSV,3,2,11,06,62,225,35,13,59,343,32,20,47,034,46,46,45,142,46,1*7F
$GBGSV,3,3,11,09,45,220,36,29,34,228,46,37,32,066,33,1*48
$GBGSV,2,1,06,38,77,044,45,39,73,243,41,20,47,034,44,46,45,142,44,4*70
$GBGSV,2,2,06,29,34,228,46,37,32,066,25,4*71
$GNGGA,103622.000,2500.7948900,N,12132.4777800,E,2,42,0.78,13.05,M,15.25,M,1,3335*7B
$GNRMC,103622.000,A,2500.7948900,N,12132.4777800,E,0.00,69.25,260623,,,D,V*34
$GPHDT,,T*1B
$GNGGA,103622.200,2500.7948900,N,12132.4777800,E,2,42,0.78,13.05,M,15.25,M,1,3335*79
$GNRMC,103622.200,A,2500.7948900,N,12132.4777800,E,0.00,69.25,260623,,,D,V*36
$GPHDT,,T*1B
$GNGGA,103622.400,2500.7948900,N,12132.4777800,E,2,42,0.78,13.05,M,15.25,M,1,3335*7F
$GNRMC,103622.400,A,2500.7948900,N,12132.4777800,E,0.00,69.25,260623,,,D,V*30
$GPHDT,,T*1B
$GNGGA,103622.600,2500.7948900,N,12132.4777800,E,2,42,0.78,13.05,M,15.25,M,0,3335*7C
$GNRMC,103622.600,A,2500.7948900,N,12132.4777800,E,0.00,69.25,260623,,,D,V*32
$GPHDT,,T*1B
$GNGGA,103622.800,2500.7948900,N,12132.4777700,E,2,42,0.78,13.06,M,15.25,M,0,3335*7E
$GNRMC,103622.800,A,2500.7948900,N,12132.4777700,E,0.00,69.25,260623,,,D,V*33
$GPHDT,,T*1B
$GNGSA,A,3,24,196,199,18,15,195,05,13,194,,,,1.48,0.78,1.25,1*07
$GNGSA,A,3,79,69,,,,,,,,,,,1.48,0.78,1.25,2*07
$GNGSA,A,3,13,08,15,03,,,,,,,,,1.48,0.78,1.25,3*0A
$GNGSA,A,3,38,39,08,16,06,13,20,09,46,29,37,,1.48,0.78,1.25,4*0C
$GPGSV,3,1,11,24,75,161,42,196,73,053,41,199,60,167,38,18,57,296,28,1*6B
$GPGSV,3,2,11,15,49,021,39,195,43,178,42,23,32,323,18,05,32,097,39,1*5C
$GPGSV,3,3,11,13,23,042,41,194,23,144,27,20,12,115,,1*69
$GPGSV,2,1,07,24,75,161,48,196,73,053,45,199,60,167,46,18,57,296,22,8*69
$GPGSV,2,2,07,195,43,178,43,23,32,323,16,194,23,144,26,8*54
$GLGSV,1,1,03,85,46,283,29,79,24,054,36,69,21,048,35,1*4C
$GAGSV,2,1,06,13,66,274,35,08,55,001,28,15,42,172,39,07,39,278,20,7*7E
$GAGSV,2,2,06,03,20,050,24,02,18,105,,7*78
$GAGSV,1,1,04,13,66,274,34,08,55,001,38,15,42,172,43,03,20,050,22,1*72
$GBGSV,3,1,11,38,77,044,43,39,73,243,40,08,67,007,34,16,64,227,37,1*78
$GBGSV,3,2,11,06,62,225,35,13,59,343,32,20,47,034,46,09,45,220,36,1*74
$GBGSV,3,3,11,46,45,142,46,29,34,228,46,37,32,066,34,1*44
$GBGSV,2,1,06,38,77,044,45,39,73,243,41,20,47,034,44,46,45,142,44,4*70
$GBGSV,2,2,06,29,34,228,46,37,32,066,25,4*71
$GNGGA,103623.000,2500.7948900,N,12132.4777700,E,2,42,0.78,13.06,M,15.25,M,1,3335*76
$GNRMC,103623.000,A,2500.7948900,N,12132.4777700,E,0.00,69.25,260623,,,D,V*3A
$GPHDT,,T*1B
$GNGGA,103623.200,2500.7948900,N,12132.4777700,E,2,42,0.78,13.06,M,15.25,M,1,3335*74
$GNRMC,103623.200,A,2500.7948900,N,12132.4777700,E,0.00,69.25,260623,,,D,V*38
$GPHDT,,T*1B
$GNGGA,103623.400,2500.7948900,N,12132.4777700,E,2,41,0.78,13.06,M,15.25,M,1,3335*71
$GNRMC,103623.400,A,2500.7948900,N,12132.4777700,E,0.00,69.25,260623,,,D,V*3E
$GPHDT,,T*1B
$GNGGA,103623.600,2500.7948900,N,12132.4777700,E,2,42,0.78,13.06,M,15.25,M,0,3335*71
$GNRMC,103623.600,A,2500.7948900,N,12132.4777700,E,0.00,69.25,260623,,,D,V*3C
$GPHDT,,T*1B
$GNGGA,103623.800,2500.7948900,N,12132.4777700,E,2,42,0.78,13.07,M,15.25,M,0,3335*7E
$GNRMC,103623.800,A,2500.7948900,N,12132.4777700,E,0.00,69.25,260623,,,D,V*32
$GPHDT,,T*1B
$GNGSA,A,3,24,196,199,18,15,195,05,194,13,,,,1.48,0.78,1.25,1*07
$GNGSA,A,3,79,69,,,,,,,,,,,1.48,0.78,1.25,2*07
$GNGSA,A,3,13,08,15,03,,,,,,,,,1.48,0.78,1.25,3*0A
$GNGSA,A,3,38,39,08,16,06,13,20,46,09,29,37,,1.48,0.78,1.25,4*0C
$GPGSV,3,1,11,24,75,161,42,196,73,053,41,199,60,167,38,18,57,296,29,1*6A
$GPGSV,3,2,11,15,49,021,39,195,43,178,42,23,32,323,20,05,32,097,40,1*59
$GPGSV,3,3,11,194,23,144,27,13,23,042,41,20,12,115,,1*69
$GPGSV,2,1,07,24,75,161,48,196,73,053,45,199,60,167,46,18,57,296,22,8*69
$GPGSV,2,2,07,195,43,178,43,23,32,323,16,194,23,144,26,8*54
$GLGSV,1,1,03,85,46,283,29,79,24,054,36,69,21,048,35,1*4C
$GAGSV,2,1,07,13,66,274,35,08,55,001,28,15,42,172,39,07,39,278,18,7*74
$GAGSV,2,2,07,03,20,050,24,02,18,105,,25,05,059,,7*47
$GAGSV,1,1,04,13,66,274,34,08,55,001,38,15,42,172,43,03,20,050,26,1*76
$GBGSV,4,1,13,38,77,044,43,39,73,243,40,08,67,007,34,16,64,227,37,1*7D
$GBGSV,4,2,13,06,62,225,35,13,59,343,32,20,47,034,46,46,45,142,46,1*7A
$GBGSV,4,3,13,09,45,220,36,29,34,228,46,37,32,066,34,10,05,207,,1*7B
$GBGSV,4,4,13,22,02,284,,1*48
$GBGSV,2,1,06,38,77,044,45,39,73,243,41,20,47,034,44,46,45,142,44,4*70
$GBGSV,2,2,06,29,34,228,46,37,32,066,26,4*72
$GNGGA,103624.000,2500.7948900,N,12132.4777600,E,2,42,0.78,13.07,M,15.25,M,1,3335*71
$GNRMC,103624.000,A,2500.7948900,N,12132.4777600,E,0.00,69.25,260623,,,D,V*3C
$GPHDT,,T*1B
$GNGGA,103624.200,2500.7948900,N,12132.4777600,E,2,42,0.78,13.07,M,15.25,M,1,3335*73
$GNRMC,103624.200,A,2500.7948900,N,12132.4777600,E,0.00,69.25,260623,,,D,V*3E
$GPHDT,,T*1B
$GNGGA,103624.400,2500.7948900,N,12132.4777500,E,2,42,0.78,13.07,M,15.25,M,1,3335*76
$GNRMC,103624.400,A,2500.7948900,N,12132.4777500,E,0.00,69.25,260623,,,D,V*3B
