$FW : RTK35X,V1.1X0314AS,Lib20210517,1*54
$Tool : LOCOSYS , GNSS Firebird , v1.0.0.19*39
$---------------------------------------------------*2D
$GPHDT,,T*1B
$GNGGA,103438.400,2500.7949500,N,12132.4782000,E,2,39,0.81,12.95,M,15.25,M,3,3335*79
$GNRMC,103438.400,A,2500.7949500,N,12132.4782000,E,0.04,69.25,260623,,,D,V*32
$GPHDT,,T*1B
$GNGGA,103438.600,2500.7949500,N,12132.4782000,E,2,39,0.81,12.94,M,15.25,M,3,3335*7A
$GNRMC,103438.600,A,2500.7949500,N,12132.4782000,E,0.04,69.25,260623,,,D,V*30
$GPHDT,,T*1B
$GNGGA,103438.800,2500.7949500,N,12132.4782000,E,2,39,0.81,12.93,M,15.25,M,3,3335*73
$GNRMC,103438.800,A,2500.7949500,N,12132.4782000,E,0.04,69.25,260623,,,D,V*3E
$GPHDT,,T*1B
$GNGSA,A,3,24,196,199,18,15,195,05,13,,,,,1.56,0.81,1.33,1*35
$GNGSA,A,3,79,69,,,,,,,,,,,1.56,0.81,1.33,2*09
$GNGSA,A,3,13,08,15,03,,,,,,,,,1.56,0.81,1.33,3*04
$GNGSA,A,3,38,39,16,06,13,20,09,46,29,37,,,1.56,0.81,1.33,4*0A
$GPGSV,3,1,11,24,74,162,43,196,73,053,42,199,60,167,37,18,57,298,33,1*60
$GPGSV,3,2,11,15,50,020,44,195,43,178,43,05,33,096,44,23,31,323,15,1*5A
$GPGSV,3,3,11,13,24,042,39,194,23,144,24,20,13,115,,1*63
$GPGSV,2,1,07,24,74,162,48,196,73,053,45,199,60,167,45,18,57,298,25,8*61
$GPGSV,2,2,07,195,43,178,43,23,31,323,23,194,23,144,20,8*57
$GLGSV,1,1,03,85,46,284,17,79,24,054,31,69,22,047,37,1*4F
$GAGSV,2,1,06,13,66,276,33,08,56,001,36,15,43,172,40,07,39,277,15,7*70
$GAGSV,2,2,06,26,20,320,18,03,20,049,29,7*7C
$GAGSV,1,1,04,13,66,276,35,08,56,001,34,15,43,172,40,03,20,049,27,1*71
$GBGSV,3,1,10,38,76,043,44,39,73,241,39,16,64,226,37,06,62,224,38,1*71
$GBGSV,3,2,10,13,59,343,34,20,47,033,47,09,45,220,36,46,44,142,44,1*71
$GBGSV,3,3,10,29,35,229,39,37,33,067,35,1*7A
$GBGSV,2,1,06,38,76,043,45,39,73,241,40,20,47,033,45,46,44,142,44,4*72
$GBGSV,2,2,06,29,35,229,39,37,33,067,32,4*7F
$GNGGA,103439.000,2500.7949500,N,12132.4782000,E,2,39,0.81,12.91,M,15.25,M,4,3335*7F
$GNRMC,103439.000,A,2500.7949500,N,12132.4782000,E,0.04,69.25,260623,,,D,V*37
$GPHDT,,T*1B
$GNGGA,103439.200,2500.7949500,N,12132.4782000,E,2,39,0.81,12.90,M,15.25,M,4,3335*7C
$GNRMC,103439.200,A,2500.7949500,N,12132.4782000,E,0.04,69.25,260623,,,D,V*35
$GPHDT,,T*1B
$GNGGA,103439.400,2500.7949500,N,12132.4782000,E,2,39,0.81,12.89,M,15.25,M,4,3335*72
$GNRMC,103439.400,A,2500.7949500,N,12132.4782000,E,0.04,69.25,260623,,,D,V*33
$GPHDT,,T*1B
$GNGGA,103439.600,2500.7949500,N,12132.4781900,E,2,39,0.81,12.88,M,15.25,M,4,3335*7B
$GNRMC,103439.600,A,2500.7949500,N,12132.4781900,E,0.04,69.25,260623,,,D,V*3B
$GPHDT,,T*1B
$GNGGA,103439.800,2500.7949500,N,12132.4781900,E,2,39,0.81,12.87,M,15.25,M,4,3335*7A
$GNRMC,103439.800,A,2500.7949500,N,12132.4781900,E,0.04,69.25,260623,,,D,V*35
$GPHDT,,T*1B
$GNGSA,A,3,24,196,199,18,15,195,05,13,,,,,1.56,0.81,1.33,1*35
$GNGSA,A,3,79,69,,,,,,,,,,,1.56,0.81,1.33,2*09
$GNGSA,A,3,13,08,15,03,,,,,,,,,1.56,0.81,1.33,3*04
$GNGSA,A,3,38,39,16,06,13,20,09,46,29,37,,,1.56,0.81,1.33,4*0A
$GPGSV,3,1,11,24,74,162,43,196,73,053,42,199,60,167,37,18,57,298,33,1*60
$GPGSV,3,2,11,15,50,020,44,195,43,178,43,05,33,096,44,23,31,323,15,1*5A
$GPGSV,3,3,11,13,24,042,39,194,23,144,26,20,13,115,,1*61
$GPGSV,2,1,07,24,74,162,48,196,73,053,45,199,60,167,46,18,57,298,25,8*62
$GPGSV,2,2,07,195,43,178,43,23,31,323,23,194,23,144,21,8*56
$GLGSV,1,1,03,85,46,284,17,79,24,054,32,69,22,047,37,1*4C
$GAGSV,2,1,06,13,66,276,32,08,56,001,36,15,43,172,40,07,39,277,17,7*73
$GAGSV,2,2,06,26,20,320,17,03,20,049,29,7*73
$GAGSV,1,1,04,13,66,276,35,08,56,001,34,15,43,172,40,03,20,049,27,1*71
$GBGSV,3,1,10,38,76,043,44,39,73,241,39,16,64,226,37,06,62,224,38,1*71
$GBGSV,3,2,10,13,59,343,33,20,47,033,47,09,45,220,38,46,44,142,44,1*78
$GBGSV,3,3,10,29,35,229,40,37,33,067,35,1*74
$GBGSV,2,1,06,38,76,043,45,39,73,241,40,20,47,033,45,46,44,142,44,4*72
$GBGSV,2,2,06,29,35,229,39,37,33,067,32,4*7F
$GNGGA,103440.000,2500.7949500,N,12132.4781900,E,2,39,0.81,12.86,M,15.25,M,5,3335*7C
$GNRMC,103440.000,A,2500.7949500,N,12132.4781900,E,0.04,69.25,260623,,,D,V*33
$GPHDT,,T*1B
$GNGGA,103440.200,2500.7949500,N,12132.4781900,E,2,39,0.81,12.85,M,15.25,M,5,3335*7D
$GNRMC,103440.200,A,2500.7949500,N,12132.4781900,E,0.04,69.25,260623,,,D,V*31
$GPHDT,,T*1B
$GNGGA,103440.400,2500.7949500,N,12132.4781900,E,2,39,0.81,12.84,M,15.25,M,5,3335*7A
$GNRMC,103440.400,A,2500.7949500,N,12132.4781900,E,0.04,69.25,260623,,,D,V*37
$GPHDT,,T*1B
$GNGGA,103440.600,2500.7949500,N,12132.4781900,E,2,39,0.81,12.83,M,15.25,M,5,3335*7F
$GNRMC,103440.600,A,2500.7949500,N,12132.4781900,E,0.04,69.25,260623,,,D,V*35
$GPHDT,,T*1B
$GNGGA,103440.800,2500.7949500,N,12132.4781900,E,2,39,0.81,12.82,M,15.25,M,5,3335*70
$GNRMC,103440.800,A,2500.7949500,N,12132.4781900,E,0.04,69.25,260623,,,D,V*3B
$GPHDT,,T*1B
$GNGSA,A,3,24,196,199,18,15,195,05,13,,,,,1.56,0.81,1.33,1*35
$GNGSA,A,3,79,69,,,,,,,,,,,1.56,0.81,1.33,2*09
$GNGSA,A,3,13,08,15,03,,,,,,,,,1.56,0.81,1.33,3*04
$GNGSA,A,3,38,39,16,06,13,20,09,46,29,37,,,1.56,0.81,1.33,4*0A
$GPGSV,3,1,11,24,74,162,43,196,73,053,42,199,60,167,37,18,57,298,33,1*60
$GPGSV,3,2,11,15,50,020,44,195,43,178,43,05,33,096,42,23,31,323,16,1*5F
$GPGSV,3,3,11,13,24,042,39,194,23,144,27,20,13,115,,1*60
$GPGSV,2,1,07,24,74,162,48,196,73,053,45,199,60,167,46,18,57,298,25,8*62
$GPGSV,2,2,07,195,43,178,44,23,31,323,22,194,23,144,23,8*52
$GLGSV,1,1,03,85,46,284,17,79,24,054,32,69,22,047,38,1*43
$GAGSV,2,1,06,13,66,276,32,08,56,001,36,15,43,172,39,07,39,277,17,7*7D
$GAGSV,2,2,06,26,20,320,19,03,20,049,29,7*7D
$GAGSV,1,1,04,13,66,276,35,08,56,001,34,15,43,172,41,03,20,049,26,1*71
$GBGSV,3,1,10,38,76,043,44,39,73,241,40,16,64,226,36,06,62,224,38,1*7E
$GBGSV,3,2,10,13,59,343,33,20,47,033,47,09,45,220,36,46,44,142,44,1*76
$GBGSV,3,3,10,29,35,229,43,37,33,067,35,1*77
$GBGSV,2,1,06,38,76,043,45,39,73,241,40,20,47,033,45,46,44,142,44,4*72
$GBGSV,2,2,06,29,35,229,43,37,33,067,33,4*73
$GNGGA,103441.000,2500.7949600,N,12132.4781900,E,2,39,0.81,12.81,M,15.25,M,6,3335*7A
$GNRMC,103441.000,A,2500.7949600,N,12132.4781900,E,0.03,69.25,260623,,,D,V*36
$GPHDT,,T*1B
$GNGGA,103441.200,2500.7949600,N,12132.4781900,E,2,39,0.81,12.80,M,15.25,M,6,3335*79
$GNRMC,103441.200,A,2500.7949600,N,12132.4781900,E,0.03,69.25,260623,,,D,V*34
$GPHDT,,T*1B
$GNGGA,103441.400,2500.7949600,N,12132.4781800,E,2,39,0.81,12.79,M,15.25,M,6,3335*78
$GNRMC,103441.400,A,2500.7949600,N,12132.4781800,E,0.03,69.25,260623,,,D,V*33
$GPHDT,,T*1B
$GNGGA,103441.600,2500.7949600,N,12132.4781800,E,2,39,0.81,12.78,M,15.25,M,6,3335*7B
$GNRMC,103441.600,A,2500.7949600,N,12132.4781800,E,0.03,69.25,260623,,,D,V*31
$GPHDT,,T*1B
$GNGGA,103441.800,2500.7949600,N,12132.4781800,E,2,39,0.81,12.77,M,15.25,M,4,3335*78
$GNRMC,103441.800,A,2500.7949600,N,12132.4781800,E,0.03,69.25,260623,,,D,V*3F
$GPHDT,,T*1B
$GNGSA,A,3,24,196,199,18,15,195,05,13,,,,,1.56,0.81,1.33,1*35
$GNGSA,A,3,79,69,,,,,,,,,,,1.56,0.81,1.33,2*09
$GNGSA,A,3,13,08,15,03,,,,,,,,,1.56,0.81,1.33,3*04
$GNGSA,A,3,38,39,16,06,13,20,09,46,29,37,,,1.56,0.81,1.33,4*0A
$GPGSV,3,1,11,24,74,162,43,196,73,053,42,199,60,167,37,18,57,298,33,1*60
$GPGSV,3,2,11,15,50,020,44,195,43,178,42,05,33,096,43,23,31,323,17,1*5E
$GPGSV,3,3,11,13,24,042,39,194,23,144,26,20,13,115,,1*61
$GPGSV,2,1,07,24,74,162,48,196,73,053,45,199,60,167,46,18,57,298,25,8*62
$GPGSV,2,2,07,195,43,178,43,23,31,323,23,194,23,144,20,8*57
$GLGSV,1,1,03,85,46,284,19,79,24,054,34,69,22,047,38,1*4B
$GAGSV,2,1,06,13,66,276,32,08,56,001,36,15,43,172,39,07,39,277,15,7*7F
$GAGSV,2,2,06,26,20,320,20,03,20,049,30,7*7F
$GAGSV,1,1,04,13,66,276,35,08,56,001,34,15,43,172,39,03,20,049,27,1*7F
$GBGSV,3,1,11,38,76,043,44,39,73,241,40,16,64,226,36,06,62,224,38,1*7F
$GBGSV,3,2,11,13,59,343,33,20,47,033,47,09,45,220,38,46,44,142,44,1*79
$GBGSV,3,3,11,29,35,229,45,37,33,067,34,08,,,21,1*7A
$GBGSV,2,1,06,38,76,043,45,39,73,241,40,20,47,033,45,46,44,142,44,4*72
$GBGSV,2,2,06,29,35,229,45,37,33,067,33,4*75
$GNGGA,103442.000,2500.7949600,N,12132.4781800,E,2,39,0.81,12.76,M,15.25,M,2,3335*74
$GNRMC,103442.000,A,2500.7949600,N,12132.4781800,E,0.03,69.25,260623,,,D,V*34
$GPHDT,,T*1B
$GNGGA,103442.200,2500.7949600,N,12132.4781800,E,2,39,0.81,12.75,M,15.25,M,1,3335*76
$GNRMC,103442.200,A,2500.7949600,N,12132.4781800,E,0.03,69.25,260623,,,D,V*36
$GPHDT,,T*1B
$GNGGA,103442.400,2500.7949600,N,12132.4781800,E,2,39,0.81,12.74,M,15.25,M,1,3335*71
$GNRMC,103442.400,A,2500.7949600,N,12132.4781800,E,0.03,69.25,260623,,,D,V*30
$GPHDT,,T*1B
$GNGGA,103442.600,2500.7949600,N,12132.4781700,E,2,39,0.81,12.73,M,15.25,M,0,3335*7A
$GNRMC,103442.600,A,2500.7949600,N,12132.4781700,E,0.03,69.25,260623,,,D,V*3D
$GPHDT,,T*1B
$GNGGA,103442.800,2500.7949600,N,12132.4781700,E,2,39,0.81,12.72,M,15.25,M,0,3335*75
$GNRMC,103442.800,A,2500.7949600,N,12132.4781700,E,0.03,69.25,260623,,,D,V*33
$GPHDT,,T*1B
$GNGSA,A,3,24,196,199,18,15,195,05,13,,,,,1.56,0.81,1.33,1*35
$GNGSA,A,3,79,69,,,,,,,,,,,1.56,0.81,1.33,2*09
$GNGSA,A,3,13,08,15,03,,,,,,,,,1.56,0.81,1.33,3*04
$GNGSA,A,3,38,39,16,06,13,20,09,46,29,37,,,1.56,0.81,1.33,4*0A
$GPGSV,3,1,11,24,74,162,43,196,73,053,42,199,60,167,37,18,57,298,32,1*61
$GPGSV,3,2,11,15,50,020,44,195,43,178,42,05,33,096,43,23,31,323,18,1*51
$GPGSV,3,3,11,13,24,042,39,194,23,144,27,20,13,115,,1*60
$GPGSV,2,1,06,24,74,162,48,196,73,053,45,199,60,167,46,18,57,298,27,8*61
$GPGSV,2,2,06,195,43,178,43,23,31,323,23,8*58
$GLGSV,1,1,03,85,46,284,19,79,24,054,35,69,22,047,38,1*4A
$GAGSV,2,1,06,13,66,276,33,08,56,001,36,15,43,172,38,07,39,277,12,7*78
$GAGSV,2,2,06,26,20,320,20,03,20,049,29,7*77
$GAGSV,1,1,04,13,66,276,35,08,56,001,34,15,43,172,39,03,20,049,27,1*7F
$GBGSV,3,1,11,38,76,043,44,39,73,241,40,16,64,226,36,06,62,224,38,1*7F
$GBGSV,3,2,11,13,59,343,33,20,47,033,47,09,45,220,38,46,44,142,44,1*79
$GBGSV,3,3,11,29,35,229,46,37,33,067,34,08,,,35,1*7C
$GBGSV,2,1,06,38,76,043,45,39,73,241,40,20,47,033,45,46,44,142,44,4*72
$GBGSV,2,2,06,29,35,229,45,37,33,067,33,4*75
$GNGGA,103443.000,2500.7949600,N,12132.4781700,E,2,39,0.81,12.72,M,15.25,M,1,3335*7D
$GNRMC,103443.000,A,2500.7949600,N,12132.4781700,E,0.03,69.25,260623,,,D,V*3A
$GPHDT,,T*1B
$GNGGA,103443.200,2500.7949600,N,12132.4781700,E,2,39,0.81,12.71,M,15.25,M,1,3335*7C
$GNRMC,103443.200,A,2500.7949600,N,12132.4781700,E,0.03,69.25,260623,,,D,V*38
$GPHDT,,T*1B
$GNGGA,103443.400,2500.7949600,N,12132.4781700,E,2,39,0.81,12.70,M,15.25,M,1,3335*7B
$GNRMC,103443.400,A,2500.7949600,N,12132.4781700,E,0.03,69.25,260623,,,D,V*3E
$GPHDT,,T*1B
$GNGGA,103443.600,2500.7949600,N,12132.4781700,E,2,39,0.81,12.69,M,15.25,M,1,3335*71
$GNRMC,103443.600,A,2500.7949600,N,12132.4781700,E,0.03,69.25,260623,,,D,V*3C
$GPHDT,,T*1B
$GNGGA,103443.800,2500.7949600,N,12132.4781700,E,2,39,0.81,12.68,M,15.25,M,0,3335*7F
$GNRMC,103443.800,A,2500.7949600,N,12132.4781700,E,0.03,69.25,260623,,,D,V*32
$GPHDT,,T*1B
$GNGSA,A,3,24,196,199,18,15,195,05,13,,,,,1.56,0.81,1.33,1*35
$GNGSA,A,3,79,69,,,,,,,,,,,1.56,0.81,1.33,2*09
$GNGSA,A,3,13,08,15,03,,,,,,,,,1.56,0.81,1.33,3*04
$GNGSA,A,3,38,39,16,06,13,20,09,46,29,37,,,1.56,0.81,1.33,4*0A
$GPGSV,3,1,11,24,74,162,43,196,73,053,42,199,60,167,37,18,57,298,33,1*60
$GPGSV,3,2,11,15,50,020,44,195,43,178,42,05,33,096,44,23,31,323,18,1*56
$GPGSV,3,3,11,13,24,042,39,194,23,144,25,20,13,115,,1*62
$GPGSV,2,1,07,24,74,162,48,196,73,053,45,199,60,167,46,18,57,298,27,8*60
$GPGSV,2,2,07,195,43,178,44,23,31,323,23,194,23,144,24,8*54
$GLGSV,1,1,03,85,46,284,19,79,24,054,35,69,22,047,38,1*4A
$GAGSV,2,1,06,13,66,276,33,08,56,001,36,15,43,172,40,07,39,277,14,7*71
$GAGSV,2,2,06,26,20,320,19,03,20,049,28,7*7C
$GAGSV,1,1,04,13,66,276,35,08,56,001,35,15,43,172,41,03,20,049,27,1*71
$GBGSV,3,1,11,38,76,043,44,39,73,241,40,16,64,226,36,06,62,224,38,1*7F
$GBGSV,3,2,11,13,59,343,33,20,47,033,47,09,45,220,38,46,44,142,43,1*7E
$GBGSV,3,3,11,29,35,229,46,37,33,067,34,08,,,37,1*7E
$GBGSV,2,1,06,38,76,043,45,39,73,241,40,20,47,033,45,46,44,142,44,4*72
$GBGSV,2,2,06,29,35,229,45,37,33,067,32,4*74
$GNGGA,103444.000,2500.7949600,N,12132.4781700,E,2,39,0.81,12.67,M,15.25,M,1,3335*7E
$GNRMC,103444.000,A,2500.7949600,N,12132.4781700,E,0.03,69.25,260623,,,D,V*3D
$GPHDT,,T*1B
$GNGGA,103444.200,2500.7949600,N,12132.4781700,E,2,39,0.81,12.66,M,15.25,M,1,3335*7D
$GNRMC,103444.200,A,2500.7949600,N,12132.4781700,E,0.03,69.25,260623,,,D,V*3F
$GPHDT,,T*1B
$GNGGA,103444.400,2500.7949600,N,12132.4781700,E,2,39,0.81,12.65,M,15.25,M,1,3335*78
$GNRMC,103444.400,A,2500.7949600,N,12132.4781700,E,0.03,69.25,260623,,,D,V*39
$GPHDT,,T*1B
$GNGGA,103444.600,2500.7949700,N,12132.4781700,E,2,39,0.81,12.65,M,15.25,M,1,3335*7B
$GNRMC,103444.600,A,2500.7949700,N,12132.4781700,E,0.00,69.25,260623,,,D,V*39
$GPHDT,,T*1B
$GNGGA,103444.800,2500.7949700,N,12132.4781700,E,2,39,0.81,12.65,M,15.25,M,1,3335*75
$GNRMC,103444.800,A,2500.7949700,N,12132.4781700,E,0.00,69.25,260623,,,D,V*37
$GPHDT,,T*1B
$GNGSA,A,3,24,196,199,18,15,195,05,13,,,,,1.56,0.81,1.33,1*35
$GNGSA,A,3,79,69,,,,,,,,,,,1.56,0.81,1.33,2*09
$GNGSA,A,3,13,08,15,03,,,,,,,,,1.56,0.81,1.33,3*04
$GNGSA,A,3,38,39,16,06,13,20,09,46,29,37,,,1.56,0.81,1.33,4*0A
$GPGSV,3,1,11,24,74,162,43,196,73,053,42,199,60,167,37,18,57,298,32,1*61
$GPGSV,3,2,11,15,50,020,43,195,43,178,42,05,33,096,44,23,31,323,17,1*5E
$GPGSV,3,3,11,13,24,042,40,194,23,144,25,20,13,115,,1*6C
$GPGSV,2,1,07,24,74,162,48,196,73,053,45,199,60,167,45,18,57,298,26,8*62
$GPGSV,2,2,07,195,43,178,44,23,31,323,23,194,23,144,25,8*55
$GLGSV,1,1,03,85,46,284,18,79,24,054,36,69,22,047,38,1*48
$GAGSV,2,1,06,13,66,276,32,08,56,001,36,15,43,172,40,07,39,277,14,7*70
$GAGSV,2,2,06,26,20,320,19,03,20,049,27,7*73
$GAGSV,1,1,04,13,66,276,35,08,56,001,35,15,43,172,41,03,20,049,26,1*70
$GBGSV,3,1,11,38,76,043,44,39,73,241,40,16,64,226,36,06,62,224,38,1*7F
$GBGSV,3,2,11,13,59,343,33,20,47,033,47,09,45,220,38,46,44,142,43,1*7E
$GBGSV,3,3,11,29,35,229,46,37,33,067,34,08,,,36,1*7F
$GBGSV,2,1,06,38,76,043,45,39,73,241,40,20,47,033,45,46,44,142,43,4*75
$GBGSV,2,2,06,29,35,229,45,37,33,067,31,4*77
$GNGGA,103445.000,2500.7949700,N,12132.4781700,E,2,39,0.81,12.65,M,15.25,M,2,3335*7F
$GNRMC,103445.000,A,2500.7949700,N,12132.4781700,E,0.00,69.25,260623,,,D,V*3E
$GPHDT,,T*1B
$GNGGA,103445.200,2500.7949700,N,12132.4781700,E,2,39,0.81,12.65,M,15.25,M,2,3335*7D
$GNRMC,103445.200,A,2500.7949700,N,12132.4781700,E,0.00,69.25,260623,,,D,V*3C
$GPHDT,,T*1B
$GNGGA,103445.400,2500.7949700,N,12132.4781700,E,2,39,0.81,12.65,M,15.25,M,1,3335*78
$GNRMC,103445.400,A,2500.7949700,N,12132.4781700,E,0.00,69.25,260623,,,D,V*3A
$GPHDT,,T*1B
$GNGGA,103445.600,2500.7949700,N,12132.4781700,E,2,39,0.81,12.65,M,15.25,M,1,3335*7A
$GNRMC,103445.600,A,2500.7949700,N,12132.4781700,E,0.00,69.25,260623,,,D,V*38
$GPHDT,,T*1B
$GNGGA,103445.800,2500.7949700,N,12132.4781700,E,2,39,0.81,12.65,M,15.25,M,0,3335*75
$GNRMC,103445.800,A,2500.7949700,N,12132.4781700,E,0.00,69.25,260623,,,D,V*36
$GPHDT,,T*1B
$GNGSA,A,3,24,196,199,18,15,195,05,13,,,,,1.56,0.81,1.33,1*35
$GNGSA,A,3,79,69,,,,,,,,,,,1.56,0.81,1.33,2*09
$GNGSA,A,3,13,08,15,03,,,,,,,,,1.56,0.81,1.33,3*04
$GNGSA,A,3,38,39,16,06,13,20,09,46,29,37,,,1.56,0.81,1.33,4*0A
$GPGSV,3,1,11,24,74,162,43,196,73,053,42,199,60,167,37,18,57,298,32,1*61
$GPGSV,3,2,11,15,50,020,43,195,43,178,42,05,33,096,44,23,31,323,17,1*5E
$GPGSV,3,3,11,13,24,042,40,194,23,144,25,20,13,115,,1*6C
$GPGSV,2,1,07,24,74,162,48,196,73,053,45,199,60,167,45,18,57,298,25,8*61
$GPGSV,2,2,07,195,43,178,44,23,31,323,23,194,23,144,21,8*51
$GLGSV,1,1,03,85,46,284,19,79,24,054,36,69,22,047,38,1*49
$GAGSV,2,1,06,13,66,276,32,08,56,001,35,15,43,172,40,07,39,277,15,7*72
$GAGSV,2,2,06,26,20,320,18,03,20,049,27,7*72
$GAGSV,1,1,04,13,66,276,35,08,56,001,34,15,43,172,41,03,20,049,26,1*71
$GBGSV,3,1,11,38,76,043,44,39,73,241,40,16,64,226,36,06,62,224,38,1*7F
$GBGSV,3,2,11,13,59,343,32,20,47,033,47,09,45,220,38,46,44,142,43,1*7F
$GBGSV,3,3,11,29,35,229,46,37,33,067,34,08,,,37,1*7E
$GBGSV,2,1,06,38,76,043,45,39,73,241,40,20,47,033,45,46,44,142,43,4*75
$GBGSV,2,2,06,29,35,229,45,37,33,067,32,4*74
$GNGGA,103446.000,2500.7949700,N,12132.4781700,E,2,39,0.81,12.65,M,15.25,M,1,3335*7F
$GNRMC,103446.000,A,2500.7949700,N,12132.4781700,E,0.00,69.25,260623,,,D,V*3D
$GPHDT,,T*1B
$GNGGA,103446.200,2500.7949700,N,12132.4781700,E,2,39,0.81,12.65,M,15.25,M,1,3335*7D
$GNRMC,103446.200,A,2500.7949700,N,12132.4781700,E,0.00,69.25,260623,,,D,V*3F
$GPHDT,,T*1B
$GNGGA,103446.400,2500.7949700,N,12132.4781700,E,2,39,0.81,12.65,M,15.25,M,1,3335*7B
$GNRMC,103446.400,A,2500.7949700,N,12132.4781700,E,0.00,69.25,260623,,,D,V*39
$GPHDT,,T*1B
$GNGGA,103446.600,2500.7949700,N,12132.4781700,E,2,39,0.81,12.65,M,15.25,M,1,3335*79
$GNRMC,103446.600,A,2500.7949700,N,12132.4781700,E,0.00,69.25,260623,,,D,V*3B
$GPHDT,,T*1B
$GNGGA,103446.800,2500.7949700,N,12132.4781700,E,2,39,0.81,12.65,M,15.25,M,1,3335*77
$GNRMC,103446.800,A,2500.7949700,N,12132.4781700,E,0.00,69.25,260623,,,D,V*35
$GPHDT,,T*1B
$GNGSA,A,3,24,196,199,18,15,195,05,13,,,,,1.56,0.81,1.33,1*35
$GNGSA,A,3,79,69,,,,,,,,,,,1.56,0.81,1.33,2*09
$GNGSA,A,3,13,08,15,03,,,,,,,,,1.56,0.81,1.33,3*04
$GNGSA,A,3,38,39,16,06,13,20,09,46,29,37,,,1.56,0.81,1.33,4*0A
$GPGSV,3,1,11,24,74,162,43,196,73,053,42,199,60,167,37,18,57,298,33,1*60
$GPGSV,3,2,11,15,50,020,43,195,43,178,43,05,33,096,44,23,31,323,19,1*51
$GPGSV,3,3,11,13,24,042,40,194,23,144,26,20,13,115,,1*6F
$GPGSV,2,1,06,24,74,162,48,196,73,053,45,199,60,167,45,18,57,298,25,8*60
$GPGSV,2,2,06,195,43,178,44,23,31,323,21,8*5D
$GLGSV,1,1,03,85,46,284,21,79,24,054,36,69,22,047,37,1*4D
$GAGSV,2,1,06,13,66,276,32,08,56,001,35,15,43,172,40,07,39,277,15,7*72
$GAGSV,2,2,06,26,20,320,18,03,20,049,27,7*72
$GAGSV,1,1,04,13,66,276,35,08,56,001,35,15,43,172,41,03,20,049,25,1*73
$GBGSV,3,1,11,38,76,043,44,39,73,241,40,16,64,226,37,06,62,224,38,1*7E
$GBGSV,3,2,11,13,59,343,32,20,47,033,47,09,45,220,38,46,44,142,44,1*78
$GBGSV,3,3,11,29,35,229,46,37,33,067,33,08,,,35,1*7B
$GBGSV,2,1,06,38,76,043,45,39,73,241,40,20,47,033,45,46,44,142,44,4*72
$GBGSV,2,2,06,29,35,229,45,37,33,067,34,4*72
$GNGGA,103447.000,2500.7949700,N,12132.4781700,E,2,39,0.81,12.65,M,15.25,M,2,3335*7D
$GNRMC,103447.000,A,2500.7949700,N,12132.4781700,E,0.00,69.25,260623,,,D,V*3C
$GPHDT,,T*1B
$GNGGA,103447.200,2500.7949700,N,12132.4781700,E,2,39,0.81,12.65,M,15.25,M,2,3335*7F
$GNRMC,103447.200,A,2500.7949700,N,12132.4781700,E,0.00,69.25,260623,,,D,V*3E
$GPHDT,,T*1B
$GNGGA,103447.400,2500.7949700,N,12132.4781700,E,2,39,0.81,12.65,M,15.25,M,2,3335*79
$GNRMC,103447.400,A,2500.7949700,N,12132.4781700,E,0.00,69.25,260623,,,D,V*38
$GPHDT,,T*1B
$GNGGA,103447.600,2500.7949700,N,12132.4781700,E,2,39,0.81,12.65,M,15.25,M,2,3335*7B
$GNRMC,103447.600,A,2500.7949700,N,12132.4781700,E,0.00,69.25,260623,,,D,V*3A
$GPHDT,,T*1B
$GNGGA,103447.800,2500.7949700,N,12132.4781700,E,2,39,0.81,12.65,M,15.25,M,2,3335*75
$GNRMC,103447.800,A,2500.7949700,N,12132.4781700,E,0.00,69.25,260623,,,D,V*34
$GPHDT,,T*1B
$GNGSA,A,3,24,196,199,18,15,195,05,13,,,,,1.56,0.81,1.33,1*35
$GNGSA,A,3,79,69,,,,,,,,,,,1.56,0.81,1.33,2*09
$GNGSA,A,3,13,08,15,03,,,,,,,,,1.56,0.81,1.33,3*04
$GNGSA,A,3,38,39,16,06,13,20,09,46,29,37,,,1.56,0.81,1.33,4*0A
$GPGSV,3,1,11,24,74,162,43,196,73,053,42,199,60,167,37,18,57,298,33,1*60
$GPGSV,3,2,11,15,50,020,43,195,43,178,43,05,33,096,40,23,31,323,19,1*55
$GPGSV,3,3,11,194,23,144,25,13,23,042,40,20,13,115,,1*6B
$GPGSV,2,1,06,24,74,162,48,196,73,053,45,199,60,167,45,18,57,298,25,8*60
$GPGSV,2,2,06,195,43,178,44,23,31,323,22,8*5E
$GLGSV,1,1,03,85,46,284,22,79,24,054,36,69,22,047,37,1*4E
$GAGSV,2,1,06,13,66,276,32,08,56,001,35,15,43,172,40,07,39,277,14,7*73
$GAGSV,2,2,06,26,20,320,18,03,20,049,27,7*72
$GAGSV,1,1,04,13,66,276,35,08,56,001,35,15,43,172,40,03,20,049,24,1*73
$GBGSV,3,1,11,38,76,043,44,39,73,241,40,16,64,226,37,06,62,224,38,1*7E
$GBGSV,3,2,11,13,59,343,32,20,47,033,47,09,45,220,38,46,44,142,44,1*78
$GBGSV,3,3,11,29,35,229,46,37,33,067,35,08,,,35,1*7D
$GBGSV,2,1,06,38,76,043,45,39,73,241,40,20,47,033,45,46,44,142,44,4*72
$GBGSV,2,2,06,29,35,229,45,37,33,067,33,4*75
$GNGGA,103448.000,2500.7949700,N,12132.4781700,E,2,39,0.81,12.65,M,15.25,M,3,3335*73
$GNRMC,103448.000,A,2500.7949700,N,12132.4781700,E,0.00,69.25,260623,,,D,V*33
$PAIR010,0,1,2268,124506*30
$GPHDT,,T*1B
$GNGGA,103448.200,2500.7949700,N,12132.4781700,E,2,39,0.81,12.65,M,15.25,M,3,3335*71
$GNRMC,103448.200,A,2500.7949700,N,12132.4781700,E,0.00,69.25,260623,,,D,V*31
$GPHDT,,T*1B
$GNGGA,103448.400,2500.7949700,N,12132.4781700,E,2,39,0.81,12.65,M,15.25,M,3,3335*77
$GNRMC,103448.400,A,2500.7949700,N,12132.4781700,E,0.00,69.25,260623,,,D,V*37
$GPHDT,,T*1B
$GNGGA,103448.600,2500.7949700,N,12132.4781700,E,2,39,0.81,12.65,M,15.25,M,3,3335*75
$GNRMC,103448.600,A,2500.7949700,N,12132.4781700,E,0.00,69.25,260623,,,D,V*35
$GPHDT,,T*1B
$GNGGA,103448.800,2500.7949700,N,12132.4781700,E,2,39,0.81,12.65,M,15.25,M,3,3335*7B
$GNRMC,103448.800,A,2500.7949700,N,12132.4781700,E,0.00,69.25,260623,,,D,V*3B
$GPHDT,,T*1B
$GNGSA,A,3,24,196,199,18,15,195,05,13,,,,,1.56,0.81,1.33,1*35
$GNGSA,A,3,79,69,,,,,,,,,,,1.56,0.81,1.33,2*09
$GNGSA,A,3,13,08,15,03,,,,,,,,,1.56,0.81,1.33,3*04
$GNGSA,A,3,38,39,16,06,13,20,09,46,29,37,,,1.56,0.81,1.33,4*0A
$GPGSV,3,1,11,24,74,162,43,196,73,053,41,199,60,167,37,18,57,297,34,1*6B
$GPGSV,3,2,11,15,50,020,43,195,43,178,43,05,33,096,38,23,31,323,17,1*54
$GPGSV,3,3,11,194,23,144,23,13,23,042,40,20,12,115,,1*6C
$GPGSV,2,1,07,24,74,162,48,196,73,053,45,199,60,167,45,18,57,297,26,8*6D
$GPGSV,2,2,07,195,43,178,44,23,31,323,22,194,23,144,25,8*54
$GLGSV,1,1,02,79,24,054,36,69,22,047,37,1*7E
$GAGSV,2,1,06,13,66,276,32,08,56,001,35,15,43,172,40,07,39,277,,7*76
$GAGSV,2,2,06,26,20,320,18,03,20,049,27,7*72
$GAGSV,1,1,04,13,66,276,35,08,56,001,35,15,43,172,41,03,20,049,25,1*73
$GBGSV,3,1,11,38,76,043,44,39,73,241,40,16,64,226,37,06,62,224,38,1*7E
$GBGSV,3,2,11,13,59,343,34,20,47,033,47,09,45,220,39,46,44,142,44,1*7F
$GBGSV,3,3,11,29,35,229,46,37,33,067,35,08,,,35,1*7D
$GBGSV,2,1,06,38,76,043,45,39,73,241,40,20,47,033,45,46,44,142,44,4*72
$GBGSV,2,2,06,29,35,229,45,37,33,067,33,4*75
$GNGGA,103449.000,2500.7949700,N,12132.4781700,E,2,39,0.81,12.65,M,15.25,M,4,3335*75
$GNRMC,103449.000,A,2500.7949700,N,12132.4781700,E,0.00,69.25,260623,,,D,V*32
$GPHDT,,T*1B
$GNGGA,103449.200,2500.7949700,N,12132.4781700,E,2,39,0.81,12.65,M,15.25,M,4,3335*77
$GNRMC,103449.200,A,2500.7949700,N,12132.4781700,E,0.00,69.25,260623,,,D,V*30
