$FW : RTK35X,V1.1X0314AS,Lib20210517,1*54
$Tool : LOCOSYS , GNSS Firebird , v1.0.0.19*39
$---------------------------------------------------*2D
$GNGSA,A,3,19,195,196,17,199,06,09,20,11,04,14,12,0.78,0.50,0.60,1*3E
$GNGSA,A,3,68,67,82,83,80,,,,,,,,0.78,0.50,0.60,2*08
$GNGSA,A,3,10,12,04,19,25,33,11,,,,,,0.78,0.50,0.60,3*06
$GNGSA,A,3,40,07,10,33,14,43,28,42,11,34,,,0.78,0.50,0.60,4*03
$GPGSV,4,1,15,19,70,037,43,195,68,045,36,196,66,124,31,17,62,091,45,1*6E
$GPGSV,4,2,15,50,60,167,30,199,60,167,28,06,50,350,45,194,38,172,22,1*6C
$GPGSV,4,3,15,09,35,098,39,20,34,236,22,11,30,292,18,04,20,066,28,1*6E
$GPGSV,4,4,15,14,19,175,21,12,17,313,25,05,08,224,,1*57
$GPGSV,2,1,08,195,68,045,45,196,66,124,42,199,60,167,42,06,50,350,46,8*5C
$GPGSV,2,2,08,09,35,098,47,11,30,292,16,04,20,066,34,14,19,175,18,8*63
$GLGSV,2,1,06,68,57,140,37,67,43,051,40,82,36,047,43,83,36,349,33,1*7D
$GLGSV,2,2,06,73,22,281,14,80,19,225,21,1*72
$GAGSV,2,1,08,10,49,342,40,24,48,235,,12,47,022,38,11,36,306,,7*70
$GAGSV,2,2,08,04,32,150,38,19,32,079,35,25,27,302,16,33,12,069,20,7*7A
$GAGSV,2,1,06,10,49,342,43,12,47,022,42,11,36,306,20,04,32,150,36,1*7E
$GAGSV,2,2,06,19,32,079,38,25,27,302,21,1*7F
$GBGSV,4,1,13,40,81,155,33,07,78,235,28,10,72,280,24,33,69,139,30,1*74
$GBGSV,4,2,13,14,59,070,42,43,52,065,45,28,41,329,38,42,36,048,44,1*7B
$GBGSV,4,3,13,11,30,087,42,41,28,198,,37,15,267,,23,15,216,,1*75
$GBGSV,4,4,13,34,14,102,25,1*42
$GBGSV,2,1,06,40,81,155,36,33,69,139,33,43,52,065,46,28,41,329,41,4*78
$GBGSV,2,2,06,42,36,048,46,34,14,102,18,4*70
$GNGGA,040037.000,2500.8049100,N,12132.4295800,E,2,53,0.50,3.46,M,15.25,M,3,3335*47
$GNRMC,040037.000,A,2500.8049100,N,12132.4295800,E,0.13,236.57,270623,,,D,V*08
$GPHDT,,T*1B
$GNGGA,040037.200,2500.8049100,N,12132.4295800,E,2,53,0.50,3.47,M,15.25,M,3,3335*44
$GNRMC,040037.200,A,2500.8049100,N,12132.4295800,E,0.13,236.57,270623,,,D,V*0A
$GPHDT,,T*1B
$GNGGA,040037.400,2500.8049000,N,12132.4295800,E,2,54,0.50,3.48,M,15.25,M,3,3335*4B
$GNRMC,040037.400,A,2500.8049000,N,12132.4295800,E,0.13,236.57,270623,,,D,V*0D
$GPHDT,,T*1B
$GNGGA,040037.600,2500.8048900,N,12132.4295800,E,2,54,0.50,3.49,M,15.25,M,3,3335*40
$GNRMC,040037.600,A,2500.8048900,N,12132.4295800,E,0.13,236.57,270623,,,D,V*07
$GPHDT,,T*1B
$GNGGA,040037.800,2500.8048800,N,12132.4295800,E,2,54,0.50,3.50,M,15.25,M,3,3335*47
$GNRMC,040037.800,A,2500.8048800,N,12132.4295800,E,0.12,236.57,270623,,,D,V*09
$GPHDT,,T*1B
$GNGSA,A,3,19,195,196,17,199,06,09,20,11,04,14,12,0.78,0.50,0.60,1*3E
$GNGSA,A,3,68,67,83,82,80,,,,,,,,0.78,0.50,0.60,2*08
$GNGSA,A,3,10,12,11,04,19,25,33,,,,,,0.78,0.50,0.60,3*06
$GNGSA,A,3,40,07,10,33,14,43,28,42,11,34,,,0.78,0.50,0.60,4*03
$GPGSV,4,1,15,19,70,037,43,195,68,045,35,196,66,124,32,17,62,091,45,1*6E
$GPGSV,4,2,15,50,60,167,30,199,60,167,29,06,50,350,45,194,38,172,21,1*6E
$GPGSV,4,3,15,09,35,098,39,20,34,236,22,11,30,292,19,04,20,066,27,1*60
$GPGSV,4,4,15,14,19,175,21,12,17,313,25,05,08,224,,1*57
$GPGSV,2,1,08,195,68,045,45,196,66,124,42,199,60,167,42,06,50,350,46,8*5C
$GPGSV,2,2,08,09,35,098,47,11,30,292,14,04,20,066,34,14,19,175,18,8*61
$GLGSV,2,1,06,68,57,140,37,67,43,051,40,83,36,350,33,82,36,047,43,1*75
$GLGSV,2,2,06,73,22,281,16,80,19,224,21,1*71
$GAGSV,3,1,09,10,49,342,40,24,48,235,,12,47,022,38,11,36,306,24,7*76
$GAGSV,3,2,09,04,32,150,38,19,32,079,35,25,27,302,16,33,12,069,20,7*7A
$GAGSV,3,3,09,09,03,191,,7*49
$GAGSV,2,1,06,10,49,342,43,12,47,022,42,11,36,306,20,04,32,150,36,1*7E
$GAGSV,2,2,06,19,32,079,38,25,27,302,19,1*74
$GBGSV,4,1,13,40,81,155,33,07,78,235,27,10,72,280,25,33,69,139,28,1*73
$GBGSV,4,2,13,14,59,070,42,43,52,065,45,28,41,329,37,42,36,048,44,1*74
$GBGSV,4,3,13,11,30,087,42,41,28,198,,37,15,267,,23,15,216,,1*75
$GBGSV,4,4,13,34,14,102,29,1*4E
$GBGSV,2,1,06,40,81,155,36,33,69,139,33,43,52,065,46,28,41,329,41,4*78
$GBGSV,2,2,06,42,36,048,46,34,14,102,17,4*7F
$GNGGA,040038.000,2500.8048700,N,12132.4295700,E,2,54,0.50,3.50,M,15.25,M,4,3335*47
$GNRMC,040038.000,A,2500.8048700,N,12132.4295700,E,0.11,236.57,270623,,,D,V*0D
$GPHDT,,T*1B
$GNGGA,040038.200,2500.8048700,N,12132.4295500,E,2,54,0.50,3.52,M,15.25,M,1,3335*40
$GNRMC,040038.200,A,2500.8048700,N,12132.4295500,E,0.12,236.57,270623,,,D,V*0E
$GPHDT,,T*1B
$GNGGA,040038.400,2500.8048800,N,12132.4295300,E,2,55,0.49,3.54,M,15.25,M,1,3335*40
$GNRMC,040038.400,A,2500.8048800,N,12132.4295300,E,0.10,236.57,270623,,,D,V*03
$GPHDT,,T*1B
$GNGGA,040038.600,2500.8048700,N,12132.4295300,E,2,55,0.49,3.54,M,15.25,M,1,3335*4D
$GNRMC,040038.600,A,2500.8048700,N,12132.4295300,E,0.09,236.57,270623,,,D,V*06
$GPHDT,,T*1B
$GNGGA,040038.800,2500.8048600,N,12132.4295400,E,2,56,0.48,3.55,M,15.25,M,1,3335*46
$GNRMC,040038.800,A,2500.8048600,N,12132.4295400,E,0.09,236.57,270623,,,D,V*0E
$GPHDT,,T*1B
$GNGSA,A,3,19,195,196,17,199,06,194,09,20,11,04,14,0.76,0.48,0.59,1*0C
$GNGSA,A,3,12,,,,,,,,,,,,0.76,0.48,0.59,1*03
$GNGSA,A,3,68,67,83,82,73,80,,,,,,,0.76,0.48,0.59,2*01
$GNGSA,A,3,10,12,11,04,19,25,33,,,,,,0.76,0.48,0.59,3*0B
$GNGSA,A,3,40,07,10,33,14,43,28,42,11,34,,,0.76,0.48,0.59,4*0E
$GPGSV,4,1,15,19,70,037,43,195,68,045,35,196,66,124,32,17,62,091,45,1*6E
$GPGSV,4,2,15,50,60,167,30,199,60,167,29,06,50,350,45,194,38,172,21,1*6E
$GPGSV,4,3,15,09,35,098,39,20,34,236,21,11,30,292,20,04,20,066,30,1*6F
$GPGSV,4,4,15,14,19,175,21,12,17,313,26,05,08,224,,1*54
$GPGSV,2,1,08,195,68,045,45,196,66,124,42,199,60,167,41,06,50,350,46,8*5F
$GPGSV,2,2,08,09,35,098,47,11,30,292,13,04,20,066,33,14,19,175,18,8*61
$GLGSV,2,1,06,68,57,140,37,67,43,051,40,83,36,350,33,82,36,047,43,1*75
$GLGSV,2,2,06,73,22,281,16,80,19,224,21,1*71
$GAGSV,3,1,09,10,49,342,40,24,48,235,,12,47,022,38,11,36,306,26,7*74
$GAGSV,3,2,09,04,32,150,38,19,32,079,35,25,27,302,17,33,12,069,22,7*79
$GAGSV,3,3,09,09,03,191,,7*49
$GAGSV,2,1,06,10,49,342,43,12,47,022,42,11,36,306,19,04,32,150,36,1*74
$GAGSV,2,2,06,19,32,079,39,25,27,302,18,1*74
$GBGSV,4,1,13,40,81,155,33,07,78,235,27,10,72,280,23,33,69,139,28,1*75
$GBGSV,4,2,13,14,59,070,42,43,52,065,45,28,41,329,38,42,36,048,44,1*7B
$GBGSV,4,3,13,11,30,087,42,41,28,198,,37,15,267,,23,15,216,,1*75
$GBGSV,4,4,13,34,14,102,30,1*46
$GBGSV,2,1,06,40,81,155,36,33,69,139,33,43,52,065,46,28,41,329,40,4*79
$GBGSV,2,2,06,42,36,048,46,34,14,102,17,4*7F
$GNGGA,040039.000,2500.8048600,N,12132.4295400,E,2,56,0.48,3.56,M,15.25,M,2,3335*4F
$GNRMC,040039.000,A,2500.8048600,N,12132.4295400,E,0.10,236.57,270623,,,D,V*0F
$GPHDT,,T*1B
$GNGGA,040039.200,2500.8048500,N,12132.4295400,E,2,56,0.48,3.57,M,15.25,M,2,3335*4F
$GNRMC,040039.200,A,2500.8048500,N,12132.4295400,E,0.11,236.57,270623,,,D,V*0F
$GPHDT,,T*1B
$GNGGA,040039.400,2500.8048500,N,12132.4295300,E,2,55,0.49,3.58,M,15.25,M,2,3335*43
$GNRMC,040039.400,A,2500.8048500,N,12132.4295300,E,0.13,236.57,270623,,,D,V*0C
$GPHDT,,T*1B
$GNGGA,040039.600,2500.8048400,N,12132.4295400,E,2,55,0.49,3.59,M,15.25,M,2,3335*46
$GNRMC,040039.600,A,2500.8048400,N,12132.4295400,E,0.11,236.57,270623,,,D,V*0A
$GPHDT,,T*1B
$GNGGA,040039.800,2500.8048300,N,12132.4295400,E,2,55,0.49,3.60,M,15.25,M,2,3335*45
$GNRMC,040039.800,A,2500.8048300,N,12132.4295400,E,0.08,236.57,270623,,,D,V*0B
$GPHDT,,T*1B
$GNGSA,A,3,19,195,196,17,199,06,09,20,11,04,14,12,0.77,0.49,0.59,1*33
$GNGSA,A,3,68,67,83,82,73,80,,,,,,,0.77,0.49,0.59,2*01
$GNGSA,A,3,10,12,11,04,19,25,33,,,,,,0.77,0.49,0.59,3*0B
$GNGSA,A,3,40,07,10,33,14,43,28,42,11,34,,,0.77,0.49,0.59,4*0E
$GPGSV,4,1,15,19,70,037,43,195,68,045,35,196,66,124,32,17,62,091,45,1*6E
$GPGSV,4,2,15,50,60,167,31,199,60,167,29,06,50,350,45,194,38,172,21,1*6F
$GPGSV,4,3,15,09,35,098,39,20,34,236,20,11,30,292,20,04,20,066,30,1*6E
$GPGSV,4,4,15,14,19,175,22,12,17,313,24,05,08,224,,1*55
$GPGSV,2,1,08,195,68,045,45,196,66,124,42,199,60,167,41,06,50,350,46,8*5F
$GPGSV,2,2,08,09,35,098,47,11,30,292,14,04,20,066,33,14,19,175,18,8*66
$GLGSV,2,1,06,68,57,140,37,67,43,051,40,83,36,350,34,82,36,047,43,1*72
$GLGSV,2,2,06,73,22,281,17,80,19,224,23,1*72
$GAGSV,3,1,09,10,49,342,40,24,48,235,,12,47,022,38,11,36,306,25,7*77
$GAGSV,3,2,09,04,32,150,38,19,32,079,35,25,27,302,17,33,12,069,21,7*7A
$GAGSV,3,3,09,09,03,191,,7*49
$GAGSV,2,1,06,10,49,342,43,12,47,022,42,11,36,306,18,04,32,150,36,1*75
$GAGSV,2,2,06,19,32,079,39,25,27,302,19,1*75
$GBGSV,4,1,13,40,81,155,33,07,78,235,28,10,72,280,21,33,69,139,28,1*78
$GBGSV,4,2,13,14,59,070,41,43,52,065,45,28,41,329,38,42,36,048,44,1*78
$GBGSV,4,3,13,11,30,087,42,41,28,198,,37,15,267,,23,15,216,,1*75
$GBGSV,4,4,13,34,14,102,30,1*46
$GBGSV,2,1,06,40,81,155,36,33,69,139,32,43,52,065,46,28,41,329,40,4*78
$GBGSV,2,2,06,42,36,048,46,34,14,102,16,4*7E
$GNGGA,040040.000,2500.8048300,N,12132.4295400,E,2,55,0.49,3.60,M,15.25,M,3,3335*42
$GNRMC,040040.000,A,2500.8048300,N,12132.4295400,E,0.09,236.57,270623,,,D,V*0C
$GPHDT,,T*1B
$GNGGA,040040.200,2500.8048300,N,12132.4295400,E,2,54,0.49,3.61,M,15.25,M,3,3335*40
$GNRMC,040040.200,A,2500.8048300,N,12132.4295400,E,0.08,236.57,270623,,,D,V*0F
$GPHDT,,T*1B
$GNGGA,040040.400,2500.8048200,N,12132.4295400,E,2,55,0.48,3.62,M,15.25,M,3,3335*44
$GNRMC,040040.400,A,2500.8048200,N,12132.4295400,E,0.10,236.57,270623,,,D,V*01
$GPHDT,,T*1B
$GNGGA,040040.600,2500.8048200,N,12132.4295300,E,2,55,0.48,3.63,M,15.25,M,3,3335*40
$GNRMC,040040.600,A,2500.8048200,N,12132.4295300,E,0.11,236.57,270623,,,D,V*05
$GPHDT,,T*1B
$GNGGA,040040.800,2500.8048200,N,12132.4295300,E,2,56,0.48,3.65,M,15.25,M,3,3335*4B
$GNRMC,040040.800,A,2500.8048200,N,12132.4295300,E,0.10,236.57,270623,,,D,V*0A
$GPHDT,,T*1B
$GNGSA,A,3,19,195,196,17,199,06,194,09,20,11,04,14,0.76,0.48,0.59,1*0C
$GNGSA,A,3,12,,,,,,,,,,,,0.76,0.48,0.59,1*03
$GNGSA,A,3,68,67,83,82,73,80,,,,,,,0.76,0.48,0.59,2*01
$GNGSA,A,3,10,12,11,04,19,25,33,,,,,,0.76,0.48,0.59,3*0B
$GNGSA,A,3,40,07,10,33,14,43,28,42,11,34,,,0.76,0.48,0.59,4*0E
$GPGSV,4,1,15,19,70,037,43,195,68,045,35,196,66,124,32,17,62,091,45,1*6E
$GPGSV,4,2,15,50,60,167,31,199,60,167,28,06,50,350,45,194,38,172,24,1*6B
$GPGSV,4,3,15,09,35,098,39,20,34,236,20,11,30,292,19,04,20,066,28,1*6D
$GPGSV,4,4,15,14,19,175,21,12,17,313,22,05,08,224,,1*50
$GPGSV,2,1,08,195,68,045,45,196,66,124,42,199,60,167,41,06,50,350,46,8*5F
$GPGSV,2,2,08,09,35,098,47,11,30,292,15,04,20,066,33,14,19,175,18,8*67
$GLGSV,2,1,06,68,57,140,37,67,43,051,40,83,36,350,34,82,36,047,43,1*72
$GLGSV,2,2,06,73,22,281,19,80,19,224,23,1*7C
$GAGSV,3,1,09,10,49,342,40,24,48,235,,12,47,022,38,11,36,306,25,7*77
$GAGSV,3,2,09,04,32,150,38,19,32,079,34,25,27,302,17,33,12,069,20,7*7A
$GAGSV,3,3,09,09,03,191,,7*49
$GAGSV,2,1,07,10,49,342,43,12,47,022,42,11,36,306,18,04,32,150,36,1*74
$GAGSV,2,2,07,19,32,079,39,25,27,302,19,33,12,069,20,1*4A
$GBGSV,4,1,15,40,81,155,33,07,78,235,28,10,72,280,21,33,69,139,30,1*77
$GBGSV,4,2,15,14,59,070,41,08,57,277,,43,52,065,45,13,48,263,,1*7C
$GBGSV,4,3,15,28,41,329,37,42,36,048,44,11,30,087,42,41,28,198,,1*7C
$GBGSV,4,4,15,37,15,267,,23,15,216,,34,14,102,30,1*43
$GBGSV,2,1,06,40,81,155,36,33,69,139,32,43,52,065,46,28,41,329,40,4*78
$GBGSV,2,2,06,42,36,048,46,34,14,102,16,4*7E
$GNGGA,040041.000,2500.8048200,N,12132.4295300,E,2,57,0.48,3.66,M,15.25,M,4,3335*47
$GNRMC,040041.000,A,2500.8048200,N,12132.4295300,E,0.11,236.57,270623,,,D,V*02
$GPHDT,,T*1B
$GNGGA,040041.200,2500.8048200,N,12132.4295300,E,2,57,0.48,3.67,M,15.25,M,1,3335*41
$GNRMC,040041.200,A,2500.8048200,N,12132.4295300,E,0.09,236.57,270623,,,D,V*09
$GPHDT,,T*1B
$GNGGA,040041.400,2500.8048200,N,12132.4295300,E,2,56,0.48,3.68,M,15.25,M,1,3335*49
$GNRMC,040041.400,A,2500.8048200,N,12132.4295300,E,0.07,236.57,270623,,,D,V*01
$GPHDT,,T*1B
$GNGGA,040041.600,2500.8048100,N,12132.4295300,E,2,56,0.48,3.69,M,15.25,M,0,3335*48
$GNRMC,040041.600,A,2500.8048100,N,12132.4295300,E,0.09,236.57,270623,,,D,V*0E
$GPHDT,,T*1B
$GNGGA,040041.800,2500.8048000,N,12132.4295300,E,2,55,0.49,3.70,M,15.25,M,0,3335*4D
$GNRMC,040041.800,A,2500.8048000,N,12132.4295300,E,0.10,236.57,270623,,,D,V*09
$GPHDT,,T*1B
$GNGSA,A,3,19,195,196,17,199,06,09,20,11,04,14,12,0.77,0.49,0.59,1*33
$GNGSA,A,3,68,67,82,83,73,80,,,,,,,0.77,0.49,0.59,2*01
$GNGSA,A,3,10,12,11,04,19,25,33,,,,,,0.77,0.49,0.59,3*0B
$GNGSA,A,3,40,07,10,33,14,43,28,42,11,34,,,0.77,0.49,0.59,4*0E
$GPGSV,4,1,15,19,70,037,43,195,68,045,35,196,66,124,32,17,62,091,45,1*6E
$GPGSV,4,2,15,50,60,167,30,199,60,167,28,06,50,350,45,194,38,172,23,1*6D
$GPGSV,4,3,15,09,35,098,39,20,34,236,19,11,30,292,17,04,20,066,29,1*68
$GPGSV,4,4,15,14,19,175,21,12,17,313,24,05,08,224,,1*56
$GPGSV,2,1,08,195,68,045,45,196,66,124,42,199,60,167,41,06,50,350,46,8*5F
$GPGSV,2,2,08,09,35,098,47,11,30,292,15,04,20,066,33,14,19,175,18,8*67
$GLGSV,2,1,08,68,57,140,37,67,43,051,40,82,36,047,43,83,36,350,34,1*7C
$GLGSV,2,2,08,73,22,281,18,80,19,224,23,69,17,184,,74,06,322,,1*71
$GAGSV,3,1,09,10,49,342,40,24,48,235,,12,47,022,38,11,36,306,24,7*76
$GAGSV,3,2,09,04,32,150,38,19,32,079,34,25,27,302,17,33,12,069,21,7*7B
$GAGSV,3,3,09,09,03,191,,7*49
$GAGSV,2,1,07,10,49,342,43,12,47,022,42,11,36,306,20,04,32,150,36,1*7F
$GAGSV,2,2,07,19,32,079,39,25,27,302,18,33,12,069,20,1*4B
$GBGSV,4,1,14,40,81,155,31,07,78,235,28,10,72,280,19,33,69,139,29,1*77
$GBGSV,4,2,14,14,59,070,41,08,57,277,,43,52,065,45,28,41,329,37,1*77
$GBGSV,4,3,14,42,36,048,44,11,30,087,42,41,28,198,,23,15,216,,1*7E
$GBGSV,4,4,14,37,15,267,,34,14,102,30,1*72
$GBGSV,2,1,06,40,81,155,36,33,69,139,32,43,52,065,46,28,41,329,40,4*78
$GBGSV,2,2,06,42,36,048,46,34,14,102,18,4*70
$GNGGA,040042.000,2500.8048000,N,12132.4295300,E,2,56,0.49,3.71,M,15.25,M,1,3335*45
$GNRMC,040042.000,A,2500.8048000,N,12132.4295300,E,0.10,236.57,270623,,,D,V*02
$GPHDT,,T*1B
$GNGGA,040042.200,2500.8048000,N,12132.4295200,E,2,55,0.49,3.73,M,15.25,M,1,3335*47
$GNRMC,040042.200,A,2500.8048000,N,12132.4295200,E,0.11,236.57,270623,,,D,V*00
$GPHDT,,T*1B
$GNGGA,040042.400,2500.8048000,N,12132.4295100,E,2,56,0.48,3.74,M,15.25,M,1,3335*47
$GNRMC,040042.400,A,2500.8048000,N,12132.4295100,E,0.13,236.57,270623,,,D,V*07
$GPHDT,,T*1B
$GNGGA,040042.600,2500.8047900,N,12132.4295200,E,2,56,0.48,3.75,M,15.25,M,1,3335*41
$GNRMC,040042.600,A,2500.8047900,N,12132.4295200,E,0.11,236.57,270623,,,D,V*02
$GPHDT,,T*1B
$GNGGA,040042.800,2500.8047800,N,12132.4295100,E,2,55,0.49,3.77,M,15.25,M,1,3335*4D
$GNRMC,040042.800,A,2500.8047800,N,12132.4295100,E,0.11,236.57,270623,,,D,V*0E
$GPHDT,,T*1B
$GNGSA,A,3,19,195,196,17,199,06,09,20,04,14,12,11,0.77,0.49,0.59,1*33
$GNGSA,A,3,68,67,82,83,73,80,,,,,,,0.77,0.49,0.59,2*01
$GNGSA,A,3,10,12,11,04,19,25,33,,,,,,0.77,0.49,0.59,3*0B
$GNGSA,A,3,40,07,10,33,14,43,28,42,11,34,,,0.77,0.49,0.59,4*0E
$GPGSV,4,1,15,19,70,037,43,195,68,045,35,196,66,124,32,17,62,091,45,1*6E
$GPGSV,4,2,15,50,60,167,30,199,60,167,28,06,50,350,45,194,38,172,21,1*6F
$GPGSV,4,3,15,09,35,098,39,20,34,236,19,11,30,292,18,04,20,066,28,1*66
$GPGSV,4,4,15,14,19,175,21,12,17,313,24,05,08,224,,1*56
$GPGSV,2,1,08,195,68,045,45,196,66,124,42,199,60,167,41,06,50,350,46,8*5F
$GPGSV,2,2,08,09,35,098,47,11,30,292,14,04,20,066,33,14,19,175,19,8*67
$GLGSV,2,1,06,68,57,140,38,67,43,051,40,82,36,047,43,83,36,350,34,1*7D
$GLGSV,2,2,06,73,22,281,18,80,19,224,22,1*7C
$GAGSV,3,1,09,10,49,342,40,24,48,235,,12,47,022,38,11,36,306,25,7*77
$GAGSV,3,2,09,04,32,150,38,19,32,079,33,25,27,302,18,33,12,069,21,7*73
$GAGSV,3,3,09,09,03,191,,7*49
$GAGSV,2,1,07,10,49,342,42,12,47,022,42,11,36,306,18,04,32,150,36,1*75
$GAGSV,2,2,07,19,32,079,39,25,27,302,18,33,12,069,20,1*4B
$GBGSV,4,1,13,40,81,155,32,07,78,235,29,10,72,280,18,33,69,139,29,1*73
$GBGSV,4,2,13,14,59,070,41,43,52,065,45,28,41,329,37,42,36,048,44,1*77
$GBGSV,4,3,13,11,30,087,42,41,28,198,,34,14,102,30,39,03,177,,1*7C
$GBGSV,4,4,13,27,03,302,,1*43
$GBGSV,2,1,06,40,81,155,36,33,69,139,32,43,52,065,46,28,41,329,41,4*79
$GBGSV,2,2,06,42,36,048,46,34,14,102,19,4*71
$GNGGA,040043.000,2500.8047800,N,12132.4295000,E,2,55,0.49,3.79,M,15.25,M,2,3335*48
$GNRMC,040043.000,A,2500.8047800,N,12132.4295000,E,0.11,236.57,270623,,,D,V*06
$GPHDT,,T*1B
$GNGGA,040043.200,2500.8047700,N,12132.4295000,E,2,55,0.49,3.80,M,15.25,M,2,3335*43
$GNRMC,040043.200,A,2500.8047700,N,12132.4295000,E,0.13,236.57,270623,,,D,V*09
$GPHDT,,T*1B
$GNGGA,040043.400,2500.8047700,N,12132.4295100,E,2,55,0.49,3.81,M,15.25,M,2,3335*45
$GNRMC,040043.400,A,2500.8047700,N,12132.4295100,E,0.12,236.57,270623,,,D,V*0F
$GPHDT,,T*1B
$GNGGA,040043.600,2500.8047800,N,12132.4295000,E,2,56,0.48,3.83,M,15.25,M,2,3335*49
$GNRMC,040043.600,A,2500.8047800,N,12132.4295000,E,0.10,236.57,270623,,,D,V*01
$GPHDT,,T*1B
$GNGGA,040043.800,2500.8047700,N,12132.4295000,E,2,55,0.49,3.84,M,15.25,M,2,3335*4D
$GNRMC,040043.800,A,2500.8047700,N,12132.4295000,E,0.10,236.57,270623,,,D,V*00
$GPHDT,,T*1B
$GNGSA,A,3,19,195,196,17,199,06,09,20,04,14,12,11,0.77,0.49,0.59,1*33
$GNGSA,A,3,68,67,83,82,73,80,,,,,,,0.77,0.49,0.59,2*01
$GNGSA,A,3,10,12,11,04,19,25,33,,,,,,0.77,0.49,0.59,3*0B
$GNGSA,A,3,40,07,10,33,14,43,28,42,11,34,,,0.77,0.49,0.59,4*0E
$GPGSV,4,1,15,19,70,037,43,195,68,045,34,196,66,124,32,17,62,091,45,1*6F
$GPGSV,4,2,15,50,60,167,30,199,60,167,28,06,50,350,45,194,38,172,21,1*6F
$GPGSV,4,3,15,09,35,098,39,20,34,236,19,11,30,292,17,04,20,066,28,1*69
$GPGSV,4,4,15,14,19,175,21,12,17,313,24,05,08,224,,1*56
$GPGSV,2,1,08,195,68,045,45,196,66,124,42,199,60,167,41,06,50,350,46,8*5F
$GPGSV,2,2,08,09,35,098,47,11,30,292,16,04,20,066,33,14,19,175,19,8*65
$GLGSV,2,1,06,68,57,140,38,67,43,051,40,83,36,350,34,82,36,047,43,1*7D
$GLGSV,2,2,06,73,22,281,19,80,19,224,23,1*7C
$GAGSV,3,1,09,10,49,342,40,24,48,235,,12,47,022,38,11,36,306,25,7*77
$GAGSV,3,2,09,04,32,150,38,19,32,079,33,25,27,302,17,33,12,069,21,7*7C
$GAGSV,3,3,09,09,03,191,,7*49
$GAGSV,2,1,07,10,49,342,42,12,47,022,42,11,36,306,18,04,32,150,36,1*75
$GAGSV,2,2,07,19,32,079,39,25,27,302,18,33,12,069,19,1*41
$GBGSV,4,1,13,40,81,155,33,07,78,235,28,10,72,280,18,33,69,139,29,1*73
$GBGSV,4,2,13,14,59,070,41,43,52,065,45,28,41,329,37,42,36,048,44,1*77
$GBGSV,4,3,13,11,30,087,42,41,28,198,,37,15,267,,23,15,216,,1*75
$GBGSV,4,4,13,34,14,102,29,1*4E
$GBGSV,2,1,06,40,81,155,36,33,69,139,32,43,52,065,46,28,41,329,41,4*79
$GBGSV,2,2,06,42,36,048,46,34,14,102,15,4*7D
$GNGGA,040044.000,2500.8047700,N,12132.4295000,E,2,55,0.49,3.85,M,15.25,M,3,3335*42
$GNRMC,040044.000,A,2500.8047700,N,12132.4295000,E,0.10,236.57,270623,,,D,V*0F
$GPHDT,,T*1B
$GNGGA,040044.200,2500.8047700,N,12132.4295000,E,2,54,0.49,3.87,M,15.25,M,3,3335*43
$GNRMC,040044.200,A,2500.8047700,N,12132.4295000,E,0.11,236.57,270623,,,D,V*0C
$GPHDT,,T*1B
$GNGGA,040044.400,2500.8047700,N,12132.4295000,E,2,54,0.49,3.89,M,15.25,M,3,3335*4B
$GNRMC,040044.400,A,2500.8047700,N,12132.4295000,E,0.10,236.57,270623,,,D,V*0B
$GPHDT,,T*1B
$GNGGA,040044.600,2500.8047700,N,12132.4295000,E,2,54,0.49,3.91,M,15.25,M,3,3335*40
$GNRMC,040044.600,A,2500.8047700,N,12132.4295000,E,0.10,236.57,270623,,,D,V*09
$GPHDT,,T*1B
$GNGGA,040044.800,2500.8047700,N,12132.4295000,E,2,55,0.49,3.92,M,15.25,M,3,3335*4C
$GNRMC,040044.800,A,2500.8047700,N,12132.4295000,E,0.09,236.57,270623,,,D,V*0F
$GPHDT,,T*1B
$GNGSA,A,3,19,195,196,17,199,06,09,20,11,04,12,14,0.77,0.49,0.59,1*33
$GNGSA,A,3,68,67,83,82,73,80,,,,,,,0.77,0.49,0.59,2*01
$GNGSA,A,3,10,12,11,04,19,25,33,,,,,,0.77,0.49,0.59,3*0B
$GNGSA,A,3,40,07,10,33,14,43,28,42,11,34,,,0.77,0.49,0.59,4*0E
$GPGSV,4,1,15,19,70,037,43,195,68,045,33,196,66,124,33,17,62,091,45,1*69
$GPGSV,4,2,15,50,60,167,31,199,60,167,29,06,50,350,45,194,38,172,19,1*64
$GPGSV,4,3,15,09,35,098,40,20,34,236,19,11,30,292,20,04,20,066,27,1*6C
$GPGSV,4,4,15,14,19,175,20,12,17,313,25,05,08,224,,1*56
$GPGSV,2,1,08,195,68,045,45,196,66,124,42,199,60,167,41,06,50,350,46,8*5F
$GPGSV,2,2,08,09,35,098,47,11,30,292,17,04,20,066,33,14,19,175,19,8*64
$GLGSV,2,1,06,68,57,140,38,67,43,051,41,83,36,350,34,82,36,047,43,1*7C
$GLGSV,2,2,06,73,22,281,19,80,19,224,23,1*7C
$GAGSV,3,1,09,10,49,342,40,24,48,235,,12,47,022,38,11,36,306,25,7*77
$GAGSV,3,2,09,04,32,150,38,19,32,079,33,25,27,302,18,33,12,069,21,7*73
$GAGSV,3,3,09,09,03,191,,7*49
$GAGSV,2,1,07,10,49,342,42,12,47,022,42,11,36,306,18,04,32,150,36,1*75
$GAGSV,2,2,07,19,32,079,39,25,27,302,18,33,12,069,17,1*4F
$GBGSV,4,1,13,40,81,155,33,07,78,235,28,10,72,280,18,33,69,139,29,1*73
$GBGSV,4,2,13,14,59,070,41,43,52,065,45,28,41,330,37,42,36,048,44,1*7F
$GBGSV,4,3,13,11,30,087,42,41,28,198,,37,15,267,,23,15,216,,1*75
$GBGSV,4,4,13,34,14,102,28,1*4F
$GBGSV,2,1,06,40,81,155,36,33,69,139,32,43,52,065,46,28,41,330,41,4*71
$GBGSV,2,2,06,42,36,048,46,34,14,102,12,4*7A
$GNGGA,040045.000,2500.8047700,N,12132.4294900,E,2,54,0.49,3.94,M,15.25,M,4,3335*4D
$GNRMC,040045.000,A,2500.8047700,N,12132.4294900,E,0.09,236.57,270623,,,D,V*0E
$GPHDT,,T*1B
$GNGGA,040045.200,2500.8047700,N,12132.4294900,E,2,55,0.49,3.95,M,15.25,M,4,3335*4F
$GNRMC,040045.200,A,2500.8047700,N,12132.4294900,E,0.09,236.57,270623,,,D,V*0C
$GPHDT,,T*1B
$GNGGA,040045.400,2500.8047700,N,12132.4294900,E,2,55,0.49,3.97,M,15.25,M,4,3335*4B
$GNRMC,040045.400,A,2500.8047700,N,12132.4294900,E,0.09,236.57,270623,,,D,V*0A
$GPHDT,,T*1B
$GNGGA,040045.600,2500.8047700,N,12132.4294800,E,2,55,0.49,3.98,M,15.25,M,4,3335*47
$GNRMC,040045.600,A,2500.8047700,N,12132.4294800,E,0.10,236.57,270623,,,D,V*01
$GPHDT,,T*1B
$GNGGA,040045.800,2500.8047600,N,12132.4294800,E,2,55,0.49,4.00,M,15.25,M,4,3335*4E
$GNRMC,040045.800,A,2500.8047600,N,12132.4294800,E,0.08,236.57,270623,,,D,V*07
$GPHDT,,T*1B
$GNGSA,A,3,19,195,196,17,199,06,09,20,11,04,12,14,0.77,0.49,0.59,1*33
$GNGSA,A,3,68,67,83,82,73,80,,,,,,,0.77,0.49,0.59,2*01
$GNGSA,A,3,10,12,11,04,19,25,33,,,,,,0.77,0.49,0.59,3*0B
$GNGSA,A,3,40,07,10,33,14,43,28,42,11,34,,,0.77,0.49,0.59,4*0E
$GPGSV,4,1,15,19,70,037,43,195,68,045,34,196,66,124,33,17,62,091,45,1*6E
$GPGSV,4,2,15,50,60,167,31,199,60,167,29,06,50,350,46,194,38,172,18,1*66
$GPGSV,4,3,15,09,35,098,40,20,34,236,19,11,30,292,18,04,20,066,27,1*67
$GPGSV,4,4,15,14,19,175,20,12,17,313,24,05,08,224,,1*57
$GPGSV,2,1,08,195,68,045,45,196,66,124,42,199,60,167,41,06,50,350,46,8*5F
$GPGSV,2,2,08,09,35,098,47,11,30,292,17,04,20,066,33,14,19,175,19,8*64
$GLGSV,2,1,06,68,57,140,38,67,43,051,41,83,36,350,33,82,36,047,43,1*7B
$GLGSV,2,2,06,73,22,281,19,80,19,224,21,1*7E
$GAGSV,3,1,09,10,49,342,40,24,48,235,,12,47,022,38,11,36,306,24,7*76
$GAGSV,3,2,09,04,32,150,38,19,32,079,33,25,27,302,18,33,12,069,21,7*73
$GAGSV,3,3,09,09,03,191,,7*49
$GAGSV,2,1,07,10,49,342,42,12,47,022,42,11,36,306,18,04,32,150,36,1*75
$GAGSV,2,2,07,19,32,079,39,25,27,302,18,33,12,069,17,1*4F
$GBGSV,4,1,13,40,81,155,33,07,78,235,28,10,72,280,18,33,69,139,28,1*72
$GBGSV,4,2,13,14,59,070,41,43,52,065,45,28,41,330,37,42,36,048,44,1*7F
$GBGSV,4,3,13,11,30,087,42,41,28,198,,37,15,267,,23,15,216,,1*75
$GBGSV,4,4,13,34,14,103,28,1*4E
$GBGSV,2,1,05,40,81,155,36,33,69,139,32,43,52,065,46,28,41,330,41,4*72
$GBGSV,2,2,05,42,36,048,46,4*4B
$GNGGA,040046.000,2500.8047600,N,12132.4294700,E,2,53,0.49,4.01,M,15.25,M,5,3335*4C
$GNRMC,040046.000,A,2500.8047600,N,12132.4294700,E,0.11,236.57,270623,,,D,V*0B
$GPHDT,,T*1B
$GNGGA,040046.200,2500.8047700,N,12132.4294700,E,2,54,0.49,4.03,M,15.25,M,5,3335*4A
$GNRMC,040046.200,A,2500.8047700,N,12132.4294700,E,0.09,236.57,270623,,,D,V*01
$GPHDT,,T*1B
$GNGGA,040046.400,2500.8047700,N,12132.4294700,E,2,54,0.49,4.04,M,15.25,M,5,3335*4B
$GNRMC,040046.400,A,2500.8047700,N,12132.4294700,E,0.08,236.57,270623,,,D,V*06
$GPHDT,,T*1B
$GNGGA,040046.600,2500.8047600,N,12132.4294600,E,2,54,0.49,4.06,M,15.25,M,5,3335*4B
$GNRMC,040046.600,A,2500.8047600,N,12132.4294600,E,0.11,236.57,270623,,,D,V*0C
$GPHDT,,T*1B
$GNGGA,040046.800,2500.8047700,N,12132.4294700,E,2,53,0.49,4.08,M,15.25,M,5,3335*4C
$GNRMC,040046.800,A,2500.8047700,N,12132.4294700,E,0.11,236.57,270623,,,D,V*02
$GPHDT,,T*1B
$GNGSA,A,3,19,195,196,17,199,06,09,20,04,14,12,11,0.77,0.49,0.59,1*33
$GNGSA,A,3,68,67,82,83,73,80,,,,,,,0.77,0.49,0.59,2*01
$GNGSA,A,3,10,12,11,04,19,25,33,,,,,,0.77,0.49,0.59,3*0B
$GNGSA,A,3,40,07,10,33,14,43,28,42,11,34,,,0.77,0.49,0.59,4*0E
$GPGSV,4,1,15,19,70,037,43,195,68,045,34,196,66,124,32,17,62,091,45,1*6F
$GPGSV,4,2,15,50,60,167,31,199,60,167,29,06,50,350,46,194,38,172,17,1*69
$GPGSV,4,3,15,09,35,098,40,20,34,236,19,11,30,292,18,04,20,066,27,1*67
$GPGSV,4,4,15,14,19,175,20,12,17,313,21,05,08,224,,1*52
$GPGSV,2,1,08,195,68,045,45,196,66,124,42,199,60,167,41,06,50,350,46,8*5F
$GPGSV,2,2,08,09,35,098,47,11,30,292,18,04,20,066,34,14,19,175,19,8*6C
$GLGSV,2,1,06,68,57,140,38,67,43,051,41,82,36,047,43,83,36,350,33,1*7B
$GLGSV,2,2,06,73,22,281,19,80,19,224,21,1*7E
$GAGSV,2,1,08,10,49,342,40,24,48,235,,12,47,022,38,11,36,306,24,7*76
$GAGSV,2,2,08,04,32,150,38,19,32,079,33,25,27,302,18,33,12,069,20,7*72
$GAGSV,2,1,07,10,49,342,42,12,47,022,42,11,36,306,18,04,32,150,35,1*76
$GAGSV,2,2,07,19,32,079,39,25,27,302,18,33,12,069,17,1*4F
$GBGSV,4,1,14,40,81,155,33,07,78,235,28,10,72,280,18,33,69,139,30,1*7C
$GBGSV,4,2,14,14,59,070,41,08,57,277,,43,52,065,45,28,41,330,39,1*71
$GBGSV,4,3,14,42,36,048,44,11,30,087,42,41,28,198,,37,15,267,,1*7D
$GBGSV,4,4,14,23,15,216,,34,14,103,29,1*78
$GBGSV,2,1,05,40,81,155,36,33,69,139,32,43,52,065,46,28,41,330,41,4*72
$GBGSV,2,2,05,42,36,048,46,4*4B
$GNGGA,040047.000,2500.8047700,N,12132.4294600,E,2,53,0.49,4.10,M,15.25,M,6,3335*4E
$GNRMC,040047.000,A,2500.8047700,N,12132.4294600,E,0.11,236.57,270623,,,D,V*0A
$GPHDT,,T*1B
$GNGGA,040047.200,2500.8047700,N,12132.4294600,E,2,53,0.49,4.12,M,15.25,M,6,3335*4E
$GNRMC,040047.200,A,2500.8047700,N,12132.4294600,E,0.11,236.57,270623,,,D,V*08
$GPHDT,,T*1B
$GNGGA,040047.400,2500.8047700,N,12132.4294500,E,2,52,0.49,4.14,M,15.25,M,6,3335*4C
$GNRMC,040047.400,A,2500.8047700,N,12132.4294500,E,0.12,236.57,270623,,,D,V*0E
