$FW : RTK35X,V1.1X0314AS,Lib20210517,1*54
$Tool : LOCOSYS , GNSS Firebird , v1.0.0.19*39
$---------------------------------------------------*2D
$GPHDT,,T*1B
$GNGGA,035956.600,2500.8057300,N,12132.4310900,E,2,56,0.48,7.64,M,15.25,M,2,3335*44
$GNRMC,035956.600,A,2500.8057300,N,12132.4310900,E,0.28,261.39,270623,,,D,V*00
$GPHDT,,T*1B
$GNGGA,035956.800,2500.8057300,N,12132.4310800,E,2,56,0.48,7.62,M,15.25,M,2,3335*4D
$GNRMC,035956.800,A,2500.8057300,N,12132.4310800,E,0.21,261.39,270623,,,D,V*06
$GPHDT,,T*1B
$GNGSA,A,3,19,195,196,17,199,06,194,09,11,04,14,12,0.88,0.48,0.73,1*04
$GNGSA,A,3,68,67,83,82,73,80,,,,,,,0.88,0.48,0.73,2*08
$GNGSA,A,3,10,12,11,04,19,25,33,,,,,,0.88,0.48,0.73,3*02
$GNGSA,A,3,40,07,10,33,14,08,43,28,42,11,34,,0.88,0.48,0.73,4*0F
$GPGSV,4,1,16,19,69,036,42,195,68,045,36,196,66,125,30,17,62,091,44,1*64
$GPGSV,4,2,16,199,60,167,29,50,60,167,31,06,50,349,40,194,38,172,17,1*64
$GPGSV,4,3,16,09,35,098,43,20,33,235,13,11,30,292,25,04,20,066,34,1*65
$GPGSV,4,4,16,14,20,175,23,12,17,314,24,05,08,224,,03,04,039,,1*67
$GPGSV,2,1,08,195,68,045,42,196,66,125,40,199,60,167,38,06,50,349,33,8*5F
$GPGSV,2,2,08,194,38,172,20,09,35,098,44,11,30,292,23,04,20,066,32,8*56
$GLGSV,2,1,06,68,57,141,24,67,43,052,37,83,36,349,32,82,36,047,42,1*7D
$GLGSV,2,2,06,73,22,282,19,80,19,225,22,1*7F
$GAGSV,2,1,08,10,49,342,35,24,48,236,,12,47,022,37,11,36,306,29,7*75
$GAGSV,2,2,08,04,32,150,38,19,32,080,37,25,27,302,19,33,13,069,22,7*72
$GAGSV,2,1,06,10,49,342,41,12,47,022,37,11,36,306,24,04,32,150,37,1*7B
$GAGSV,2,2,06,19,32,080,36,33,13,069,18,1*73
$GBGSV,4,1,13,40,81,154,34,07,78,235,26,10,72,281,26,33,69,140,20,1*70
$GBGSV,4,2,13,14,59,070,41,08,57,276,27,43,52,065,45,28,41,329,39,1*7A
$GBGSV,4,3,13,42,36,048,42,11,30,087,42,41,28,198,,23,15,217,,1*7E
$GBGSV,4,4,13,34,15,102,28,1*4E
$GBGSV,2,1,06,40,81,154,38,33,69,140,31,43,52,065,41,28,41,329,37,4*7D
$GBGSV,2,2,06,42,36,048,38,34,15,102,17,4*77
$GNGGA,035957.000,2500.8057300,N,12132.4310700,E,2,56,0.48,7.58,M,15.25,M,1,3335*41
$GNRMC,035957.000,A,2500.8057300,N,12132.4310700,E,0.17,261.39,270623,,,D,V*05
$GPHDT,,T*1B
$GNGGA,035957.200,2500.8057300,N,12132.4310700,E,2,56,0.48,7.55,M,15.25,M,1,3335*4E
$GNRMC,035957.200,A,2500.8057300,N,12132.4310700,E,0.18,261.39,270623,,,D,V*08
$GPHDT,,T*1B
$GNGGA,035957.400,2500.8057300,N,12132.4310600,E,2,55,0.51,7.53,M,15.25,M,1,3335*44
$GNRMC,035957.400,A,2500.8057300,N,12132.4310600,E,0.16,261.39,270623,,,D,V*01
$GPHDT,,T*1B
$GNGGA,035957.600,2500.8057300,N,12132.4310600,E,2,55,0.51,7.50,M,15.25,M,1,3335*45
$GNRMC,035957.600,A,2500.8057300,N,12132.4310600,E,0.22,261.39,270623,,,D,V*04
$GPHDT,,T*1B
$GNGGA,035957.800,2500.8057300,N,12132.4310500,E,2,55,0.48,7.46,M,15.25,M,1,3335*47
$GNRMC,035957.800,A,2500.8057300,N,12132.4310500,E,0.22,261.39,270623,,,D,V*09
$GPHDT,,T*1B
$GNGSA,A,3,19,195,196,17,199,06,09,11,04,14,12,194,0.88,0.48,0.73,1*04
$GNGSA,A,3,68,67,83,82,73,80,,,,,,,0.88,0.48,0.73,2*08
$GNGSA,A,3,10,12,11,04,19,25,33,,,,,,0.88,0.48,0.73,3*02
$GNGSA,A,3,40,07,10,33,14,08,43,28,42,11,34,,0.88,0.48,0.73,4*0F
$GPGSV,4,1,16,19,69,036,42,195,68,045,36,196,66,125,33,17,62,091,44,1*67
$GPGSV,4,2,16,199,60,167,29,50,60,167,31,06,50,349,41,194,38,172,15,1*67
$GPGSV,4,3,16,09,35,098,44,20,33,235,15,11,30,292,25,04,20,066,34,1*64
$GPGSV,4,4,16,14,20,175,24,12,17,314,24,05,08,224,,03,04,039,,1*60
$GPGSV,2,1,08,195,68,045,43,196,66,125,40,199,60,167,38,06,50,349,37,8*5A
$GPGSV,2,2,08,194,38,172,18,09,35,098,43,11,30,292,26,04,20,066,31,8*5C
$GLGSV,2,1,06,68,57,141,24,67,43,052,40,83,36,349,34,82,36,047,40,1*79
$GLGSV,2,2,06,73,22,282,18,80,19,225,23,1*7F
$GAGSV,2,1,08,10,49,342,36,24,48,236,,12,47,022,32,11,36,306,30,7*7B
$GAGSV,2,2,08,04,32,150,38,19,32,080,36,25,27,302,20,33,13,069,19,7*71
$GAGSV,2,1,06,10,49,342,41,12,47,022,39,11,36,306,26,04,32,150,36,1*76
$GAGSV,2,2,06,19,32,080,35,33,13,069,13,1*7B
$GBGSV,4,1,13,40,81,154,35,07,78,235,25,10,72,281,29,33,69,140,26,1*7B
$GBGSV,4,2,13,14,59,070,42,08,57,276,27,43,52,065,46,28,41,329,39,1*7A
$GBGSV,4,3,13,42,36,048,40,11,30,087,42,41,28,198,,23,15,217,,1*7C
$GBGSV,4,4,13,34,15,102,29,1*4F
$GBGSV,2,1,06,40,81,154,38,33,69,140,31,43,52,065,43,28,41,329,37,4*7F
$GBGSV,2,2,06,42,36,048,42,34,15,102,17,4*7A
$GNGGA,035958.000,2500.8057300,N,12132.4310400,E,2,55,0.48,7.43,M,15.25,M,2,3335*47
$GNRMC,035958.000,A,2500.8057300,N,12132.4310400,E,0.23,261.39,270623,,,D,V*0E
$GPHDT,,T*1B
$GNGGA,035958.200,2500.8057300,N,12132.4310300,E,2,56,0.48,7.40,M,15.25,M,2,3335*42
$GNRMC,035958.200,A,2500.8057300,N,12132.4310300,E,0.21,261.39,270623,,,D,V*09
$GPHDT,,T*1B
$GNGGA,035958.400,2500.8057300,N,12132.4310300,E,2,57,0.48,7.37,M,15.25,M,2,3335*45
$GNRMC,035958.400,A,2500.8057300,N,12132.4310300,E,0.23,261.39,270623,,,D,V*0D
$GPHDT,,T*1B
$GNGGA,035958.600,2500.8057300,N,12132.4310100,E,2,57,0.48,7.34,M,15.25,M,2,3335*46
$GNRMC,035958.600,A,2500.8057300,N,12132.4310100,E,0.24,261.39,270623,,,D,V*0A
$GPHDT,,T*1B
$GNGGA,035958.800,2500.8057300,N,12132.4310000,E,2,57,0.48,7.31,M,15.25,M,2,3335*4C
$GNRMC,035958.800,A,2500.8057300,N,12132.4310000,E,0.15,261.39,270623,,,D,V*07
$GPHDT,,T*1B
$GNGSA,A,3,19,195,196,17,199,06,09,11,04,14,12,194,0.92,0.50,0.78,1*0D
$GNGSA,A,3,68,67,83,82,73,80,,,,,,,0.92,0.50,0.78,2*01
$GNGSA,A,3,10,12,11,04,19,25,,,,,,,0.92,0.50,0.78,3*0B
$GNGSA,A,3,40,07,10,33,14,08,43,28,42,11,34,,0.92,0.50,0.78,4*06
$GPGSV,4,1,16,19,69,036,42,195,68,045,36,196,66,125,32,17,62,091,44,1*66
$GPGSV,4,2,16,199,60,167,28,50,60,167,30,06,50,349,41,194,38,172,16,1*64
$GPGSV,4,3,16,09,35,098,44,20,33,235,17,11,30,292,25,04,20,066,34,1*66
$GPGSV,4,4,16,14,20,175,22,12,17,314,25,05,08,224,,03,04,039,,1*67
$GPGSV,3,1,09,195,68,045,43,196,66,125,40,199,60,167,38,06,50,349,37,8*5A
$GPGSV,3,2,09,194,38,172,18,09,35,098,43,11,30,292,25,14,20,175,19,8*57
$GPGSV,3,3,09,04,20,066,29,8*59
$GLGSV,2,1,06,68,57,141,27,67,43,052,40,83,36,349,33,82,36,047,38,1*72
$GLGSV,2,2,06,73,22,282,18,80,19,225,23,1*7F
$GAGSV,2,1,08,10,49,342,35,24,48,236,,12,47,022,33,11,36,306,30,7*79
$GAGSV,2,2,08,04,32,150,38,19,32,080,36,25,27,302,22,33,13,069,,7*7B
$GAGSV,2,1,06,10,49,342,40,12,47,022,39,11,36,306,27,04,32,150,36,1*76
$GAGSV,2,2,06,19,32,080,34,25,27,302,20,1*74
$GBGSV,4,1,13,40,81,154,35,07,78,235,26,10,72,281,29,33,69,140,24,1*7A
$GBGSV,4,2,13,14,59,070,42,08,57,276,28,43,52,065,46,28,41,329,39,1*75
$GBGSV,4,3,13,42,36,048,39,11,30,087,42,41,28,198,,23,15,217,,1*72
$GBGSV,4,4,13,34,15,102,31,1*46
$GBGSV,2,1,06,40,81,154,38,33,69,140,29,43,52,065,43,28,41,329,37,4*76
$GBGSV,2,2,06,42,36,048,42,34,15,102,17,4*7A
$GNGGA,035959.000,2500.8057300,N,12132.4310000,E,2,55,0.50,7.27,M,15.25,M,3,3335*48
$GNRMC,035959.000,A,2500.8057300,N,12132.4310000,E,0.13,261.39,270623,,,D,V*08
$GPHDT,,T*1B
$GNGGA,035959.200,2500.8057300,N,12132.4309900,E,2,56,0.48,7.24,M,15.25,M,3,3335*42
$GNRMC,035959.200,A,2500.8057300,N,12132.4309900,E,0.26,261.39,270623,,,D,V*0D
$GPHDT,,T*1B
$GNGGA,035959.400,2500.8057300,N,12132.4309800,E,2,56,0.48,7.21,M,15.25,M,3,3335*40
$GNRMC,035959.400,A,2500.8057300,N,12132.4309800,E,0.27,261.39,270623,,,D,V*0B
$GPHDT,,T*1B
$GNGGA,035959.600,2500.8057300,N,12132.4309700,E,2,56,0.48,7.18,M,15.25,M,3,3335*47
$GNRMC,035959.600,A,2500.8057300,N,12132.4309700,E,0.25,261.39,270623,,,D,V*04
$GPHDT,,T*1B
$GNGGA,035959.800,2500.8057300,N,12132.4309600,E,2,56,0.48,7.13,M,15.25,M,3,3335*43
$GNRMC,035959.800,A,2500.8057300,N,12132.4309600,E,0.21,261.39,270623,,,D,V*0F
$GPHDT,,T*1B
$GNGSA,A,3,19,195,196,17,199,06,09,11,14,04,12,194,0.88,0.48,0.73,1*04
$GNGSA,A,3,68,67,82,83,73,80,,,,,,,0.88,0.48,0.73,2*08
$GNGSA,A,3,10,12,11,04,19,25,33,,,,,,0.88,0.48,0.73,3*02
$GNGSA,A,3,40,07,10,33,14,08,43,28,42,11,34,,0.88,0.48,0.73,4*0F
$GPGSV,4,1,15,19,69,036,42,195,68,045,37,196,66,125,30,17,62,091,44,1*66
$GPGSV,4,2,15,50,60,167,30,199,60,167,28,06,50,349,41,194,38,172,17,1*66
$GPGSV,4,3,15,09,35,098,44,20,33,235,16,11,30,292,25,14,20,175,23,1*60
$GPGSV,4,4,15,04,20,066,34,12,17,314,26,05,08,224,,1*5F
$GPGSV,3,1,09,195,68,045,43,196,66,125,40,199,60,167,39,06,50,349,38,8*54
$GPGSV,3,2,09,194,38,172,21,09,35,098,43,11,30,292,25,14,20,175,22,8*55
$GPGSV,3,3,09,04,20,066,29,8*59
$GLGSV,2,1,08,68,57,141,27,67,43,052,40,82,36,047,38,83,36,349,33,1*7C
$GLGSV,2,2,08,73,22,282,16,80,19,225,23,69,17,184,,74,05,322,,1*7E
$GAGSV,3,1,09,10,49,342,35,24,48,236,,12,47,022,34,11,36,306,30,7*7E
$GAGSV,3,2,09,04,32,150,38,19,32,080,36,25,27,302,24,33,13,069,19,7*75
$GAGSV,3,3,09,09,03,191,,7*49
$GAGSV,2,1,06,10,49,342,40,12,47,022,39,11,36,306,27,04,32,150,36,1*76
$GAGSV,2,2,06,19,32,080,32,25,27,302,20,1*72
$GBGSV,4,1,14,40,81,154,35,07,78,235,27,10,72,281,29,33,69,140,25,1*7D
$GBGSV,4,2,14,14,59,070,42,08,57,276,26,43,52,065,46,28,41,329,39,1*7C
$GBGSV,4,3,14,42,36,048,39,11,30,087,42,41,28,198,,23,15,217,,1*75
$GBGSV,4,4,14,34,15,102,30,37,15,267,,1*73
$GBGSV,2,1,06,40,81,154,38,33,69,140,30,43,52,065,43,28,41,329,37,4*7E
$GBGSV,2,2,06,42,36,048,42,34,15,102,15,4*78
$GNGGA,040000.000,2500.8057300,N,12132.4309500,E,2,56,0.48,7.09,M,15.25,M,3,3335*44
$GNRMC,040000.000,A,2500.8057300,N,12132.4309500,E,0.20,261.39,270623,,,D,V*02
$GPHDT,,T*1B
$GNGGA,040000.200,2500.8057300,N,12132.4309400,E,2,56,0.48,7.05,M,15.25,M,1,3335*49
$GNRMC,040000.200,A,2500.8057300,N,12132.4309400,E,0.21,261.39,270623,,,D,V*00
$GPHDT,,T*1B
$GNGGA,040000.400,2500.8057300,N,12132.4309300,E,2,56,0.48,7.02,M,15.25,M,1,3335*4F
$GNRMC,040000.400,A,2500.8057300,N,12132.4309300,E,0.21,261.39,270623,,,D,V*01
$GPHDT,,T*1B
$GNGGA,040000.600,2500.8057300,N,12132.4309200,E,2,56,0.48,6.98,M,15.25,M,0,3335*4F
$GNRMC,040000.600,A,2500.8057300,N,12132.4309200,E,0.21,261.39,270623,,,D,V*02
$GPHDT,,T*1B
$GNGGA,040000.800,2500.8057300,N,12132.4309100,E,2,57,0.48,6.95,M,15.25,M,0,3335*4E
$GNRMC,040000.800,A,2500.8057300,N,12132.4309100,E,0.23,261.39,270623,,,D,V*0D
$GPHDT,,T*1B
$GNGSA,A,3,19,195,196,17,199,06,194,09,11,14,04,12,0.88,0.48,0.73,1*04
$GNGSA,A,3,68,67,83,82,73,80,,,,,,,0.88,0.48,0.73,2*08
$GNGSA,A,3,10,12,11,04,19,25,33,,,,,,0.88,0.48,0.73,3*02
$GNGSA,A,3,40,07,10,33,14,08,43,28,42,11,34,,0.88,0.48,0.73,4*0F
$GPGSV,4,1,15,19,69,036,42,195,68,045,36,196,66,125,33,17,62,091,44,1*64
$GPGSV,4,2,15,50,60,167,29,199,60,167,26,06,50,349,41,194,38,172,20,1*64
$GPGSV,4,3,15,09,35,098,46,20,33,235,19,11,30,292,25,14,20,175,21,1*6F
$GPGSV,4,4,15,04,20,066,33,12,17,314,26,05,08,224,,1*58
$GPGSV,3,1,09,195,68,045,43,196,66,125,40,199,60,167,39,06,50,349,37,8*5B
$GPGSV,3,2,09,194,38,172,22,09,35,098,43,11,30,292,26,14,20,175,22,8*55
$GPGSV,3,3,09,04,20,066,29,8*59
$GLGSV,2,1,06,68,57,141,25,67,43,052,40,83,36,349,33,82,36,047,39,1*71
$GLGSV,2,2,06,73,22,282,17,80,19,225,22,1*71
$GAGSV,3,1,09,10,49,342,35,24,48,236,,12,47,022,34,11,36,306,30,7*7E
$GAGSV,3,2,09,04,32,150,38,19,32,080,36,25,27,302,24,33,13,069,20,7*7F
$GAGSV,3,3,09,09,03,191,,7*49
$GAGSV,2,1,06,10,49,342,40,12,47,022,39,11,36,306,26,04,32,150,36,1*77
$GAGSV,2,2,06,19,32,080,34,25,27,302,18,1*7F
$GBGSV,4,1,14,40,81,154,35,07,78,235,27,10,72,281,28,33,69,140,23,1*7A
$GBGSV,4,2,14,14,59,070,42,08,57,276,27,43,52,065,46,28,41,329,39,1*7D
$GBGSV,4,3,14,42,36,048,39,11,30,087,42,41,28,198,,37,15,267,,1*77
$GBGSV,4,4,14,23,15,217,,34,15,102,31,1*70
$GBGSV,2,1,06,40,81,154,38,33,69,140,29,43,52,065,43,28,41,329,38,4*79
$GBGSV,2,2,06,42,36,048,42,34,15,102,15,4*78
$GNGGA,040001.000,2500.8057300,N,12132.4309000,E,2,57,0.48,6.92,M,15.25,M,1,3335*40
$GNRMC,040001.000,A,2500.8057300,N,12132.4309000,E,0.18,261.39,270623,,,D,V*0D
$GPHDT,,T*1B
$GNGGA,040001.200,2500.8057300,N,12132.4308900,E,2,57,0.48,6.88,M,15.25,M,1,3335*41
$GNRMC,040001.200,A,2500.8057300,N,12132.4308900,E,0.24,261.39,270623,,,D,V*08
$GPHDT,,T*1B
$GNGGA,040001.400,2500.8057300,N,12132.4308800,E,2,57,0.48,6.84,M,15.25,M,1,3335*4A
$GNRMC,040001.400,A,2500.8057300,N,12132.4308800,E,0.20,261.39,270623,,,D,V*0B
$GPHDT,,T*1B
$GNGGA,040001.600,2500.8057300,N,12132.4308800,E,2,56,0.48,6.81,M,15.25,M,1,3335*4C
$GNRMC,040001.600,A,2500.8057300,N,12132.4308800,E,0.25,261.39,270623,,,D,V*0C
$GPHDT,,T*1B
$GNGGA,040001.800,2500.8057300,N,12132.4308600,E,2,57,0.48,6.77,M,15.25,M,1,3335*44
$GNRMC,040001.800,A,2500.8057300,N,12132.4308600,E,0.31,261.39,270623,,,D,V*09
$GPHDT,,T*1B
$GNGSA,A,3,19,195,196,17,199,06,194,09,11,14,04,12,0.88,0.48,0.73,1*04
$GNGSA,A,3,68,67,83,82,73,80,,,,,,,0.88,0.48,0.73,2*08
$GNGSA,A,3,10,12,11,04,19,25,33,,,,,,0.88,0.48,0.73,3*02
$GNGSA,A,3,40,07,10,33,14,08,43,28,42,11,34,,0.88,0.48,0.73,4*0F
$GPGSV,4,1,15,19,69,036,42,195,68,045,36,196,66,125,34,17,62,091,44,1*63
$GPGSV,4,2,15,50,60,167,29,199,60,167,27,06,50,349,41,194,38,172,19,1*6F
$GPGSV,4,3,15,09,35,098,46,20,33,235,17,11,30,292,25,14,20,175,21,1*61
$GPGSV,4,4,15,04,20,066,31,12,17,314,24,05,08,224,,1*58
$GPGSV,3,1,09,195,68,045,43,196,66,125,40,199,60,167,39,06,50,349,36,8*5A
$GPGSV,3,2,09,194,38,172,20,09,35,098,42,11,30,292,26,14,20,175,20,8*54
$GPGSV,3,3,09,04,20,066,29,8*59
$GLGSV,2,1,06,68,57,141,26,67,43,052,40,83,36,349,32,82,36,047,39,1*73
$GLGSV,2,2,06,73,22,282,17,80,19,225,20,1*73
$GAGSV,3,1,09,10,49,342,36,24,48,236,,12,47,022,34,11,36,306,30,7*7D
$GAGSV,3,2,09,04,32,150,38,19,32,080,36,25,27,302,24,33,13,069,21,7*7E
$GAGSV,3,3,09,09,03,191,,7*49
$GAGSV,2,1,06,10,49,342,39,12,47,022,40,11,36,306,26,04,32,150,36,1*77
$GAGSV,2,2,06,19,32,080,34,25,27,302,18,1*7F
$GBGSV,4,1,14,40,81,154,35,07,78,235,27,10,72,281,28,33,69,140,26,1*7F
$GBGSV,4,2,14,14,59,070,42,08,57,276,27,43,52,065,46,28,41,329,38,1*7C
$GBGSV,4,3,14,42,36,048,39,11,30,087,42,41,28,198,,37,15,267,,1*77
$GBGSV,4,4,14,23,15,217,,34,15,102,29,1*79
$GBGSV,2,1,06,40,81,154,38,33,69,140,29,43,52,065,43,28,41,329,38,4*79
$GBGSV,2,2,06,42,36,048,42,34,15,102,14,4*79
$GNGGA,040002.000,2500.8057200,N,12132.4308500,E,2,57,0.48,6.73,M,15.25,M,2,3335*4A
$GNRMC,040002.000,A,2500.8057200,N,12132.4308500,E,0.30,261.39,270623,,,D,V*01
$GPHDT,,T*1B
$GNGGA,040002.200,2500.8057200,N,12132.4308400,E,2,55,0.48,6.69,M,15.25,M,2,3335*40
$GNRMC,040002.200,A,2500.8057200,N,12132.4308400,E,0.31,261.39,270623,,,D,V*03
$GPHDT,,T*1B
$GNGGA,040002.400,2500.8057200,N,12132.4308300,E,2,54,0.48,6.66,M,15.25,M,2,3335*4F
$GNRMC,040002.400,A,2500.8057200,N,12132.4308300,E,0.21,261.39,270623,,,D,V*03
$GPHDT,,T*1B
$GNGGA,040002.600,2500.8057200,N,12132.4308200,E,2,54,0.48,6.62,M,15.25,M,2,3335*48
$GNRMC,040002.600,A,2500.8057200,N,12132.4308200,E,0.24,261.39,270623,,,D,V*05
$GPHDT,,T*1B
$GNGGA,040002.800,2500.8057100,N,12132.4308100,E,2,56,0.47,6.57,M,15.25,M,2,3335*4D
$GNRMC,040002.800,A,2500.8057100,N,12132.4308100,E,0.30,261.39,270623,,,D,V*0E
$GPHDT,,T*1B
$GNGSA,A,3,19,195,196,17,199,06,09,20,11,14,04,12,0.87,0.47,0.73,1*3A
$GNGSA,A,3,194,,,,,,,,,,,,0.87,0.47,0.73,1*35
$GNGSA,A,3,68,67,83,82,73,80,,,,,,,0.87,0.47,0.73,2*08
$GNGSA,A,3,10,12,11,04,19,25,33,,,,,,0.87,0.47,0.73,3*02
$GNGSA,A,3,40,07,10,33,14,08,43,28,42,11,34,,0.87,0.47,0.73,4*0F
$GPGSV,4,1,15,19,69,036,42,195,68,045,36,196,66,125,33,17,62,091,44,1*64
$GPGSV,4,2,15,50,60,167,29,199,60,167,27,06,50,349,41,194,38,172,16,1*60
$GPGSV,4,3,15,09,35,098,46,20,33,235,19,11,30,292,27,14,20,175,20,1*6C
$GPGSV,4,4,15,04,20,066,32,12,17,314,22,05,08,224,,1*5D
$GPGSV,2,1,08,195,68,045,43,196,66,125,40,199,60,167,39,06,50,349,35,8*59
$GPGSV,2,2,08,194,38,172,20,09,35,098,42,11,30,292,25,14,20,175,21,8*56
$GLGSV,2,1,06,68,57,141,26,67,43,051,40,83,36,349,33,82,36,047,40,1*7F
$GLGSV,2,2,06,73,22,282,17,80,19,225,19,1*79
$GAGSV,3,1,09,10,49,342,37,24,48,236,,12,47,022,34,11,36,306,31,7*7D
$GAGSV,3,2,09,04,32,150,38,19,32,080,36,25,27,302,24,33,13,069,21,7*7E
$GAGSV,3,3,09,09,03,191,,7*49
$GAGSV,2,1,06,10,49,342,39,12,47,022,40,11,36,306,25,04,32,150,36,1*74
$GAGSV,2,2,06,19,32,080,34,25,27,302,20,1*74
$GBGSV,4,1,13,40,81,154,35,07,78,235,27,10,72,281,28,33,69,140,25,1*7B
$GBGSV,4,2,13,14,59,070,43,08,57,276,25,43,52,065,46,28,41,329,38,1*78
$GBGSV,4,3,13,42,36,048,40,11,30,087,42,37,15,267,,23,15,217,,1*70
$GBGSV,4,4,13,34,15,102,28,1*4E
$GBGSV,2,1,05,40,81,154,38,33,69,140,29,43,52,065,43,28,41,329,38,4*7A
$GBGSV,2,2,05,42,36,048,42,4*4F
$GNGGA,040003.000,2500.8057100,N,12132.4308000,E,2,55,0.47,6.54,M,15.25,M,3,3335*44
$GNRMC,040003.000,A,2500.8057100,N,12132.4308000,E,0.20,261.39,270623,,,D,V*07
$GPHDT,,T*1B
$GNGGA,040003.200,2500.8057100,N,12132.4307900,E,2,56,0.47,6.50,M,15.25,M,3,3335*47
$GNRMC,040003.200,A,2500.8057100,N,12132.4307900,E,0.19,261.39,270623,,,D,V*09
$GPHDT,,T*1B
$GNGGA,040003.400,2500.8057100,N,12132.4307900,E,2,57,0.47,6.45,M,15.25,M,3,3335*44
$GNRMC,040003.400,A,2500.8057100,N,12132.4307900,E,0.29,261.39,270623,,,D,V*0C
$GPHDT,,T*1B
$GNGGA,040003.600,2500.8057100,N,12132.4307700,E,2,57,0.47,6.41,M,15.25,M,3,3335*4C
$GNRMC,040003.600,A,2500.8057100,N,12132.4307700,E,0.29,261.39,270623,,,D,V*00
$GPHDT,,T*1B
$GNGGA,040003.800,2500.8057000,N,12132.4307600,E,2,57,0.47,6.38,M,15.25,M,3,3335*4C
$GNRMC,040003.800,A,2500.8057000,N,12132.4307600,E,0.23,261.39,270623,,,D,V*04
$GPHDT,,T*1B
$GNGSA,A,3,19,195,196,17,199,06,194,09,20,11,14,04,0.90,0.48,0.76,1*09
$GNGSA,A,3,68,67,83,82,73,80,,,,,,,0.90,0.48,0.76,2*04
$GNGSA,A,3,10,12,11,04,19,25,33,,,,,,0.90,0.48,0.76,3*0E
$GNGSA,A,3,40,07,10,33,14,08,43,28,42,11,34,,0.90,0.48,0.76,4*03
$GPGSV,4,1,15,19,69,036,42,195,68,045,36,196,66,125,33,17,62,091,44,1*64
$GPGSV,4,2,15,50,60,167,29,199,60,167,27,06,50,349,41,194,38,172,21,1*64
$GPGSV,4,3,15,09,35,098,46,20,33,235,17,11,30,292,26,14,20,175,20,1*63
$GPGSV,4,4,15,04,20,066,32,12,17,314,19,05,08,224,,1*55
$GPGSV,3,1,09,195,68,045,43,196,66,125,40,199,60,167,39,06,50,349,35,8*59
$GPGSV,3,2,09,194,38,172,21,09,35,098,42,11,30,292,25,14,20,175,20,8*56
$GPGSV,3,3,09,04,20,066,30,8*51
$GLGSV,2,1,06,68,57,141,25,67,43,051,40,83,36,349,33,82,36,047,40,1*7C
$GLGSV,2,2,06,73,22,282,14,80,19,225,19,1*7A
$GAGSV,2,1,08,10,49,342,37,12,47,022,32,11,36,306,31,04,32,150,38,7*7C
$GAGSV,2,2,08,19,32,080,36,25,27,302,22,33,13,069,21,09,03,191,,7*71
$GAGSV,2,1,07,10,49,342,39,12,47,022,40,11,36,306,25,04,32,150,36,1*75
$GAGSV,2,2,07,19,32,080,34,25,27,302,22,33,13,069,22,1*4A
$GBGSV,4,1,14,40,81,154,35,07,78,235,26,10,72,281,28,33,69,140,21,1*79
$GBGSV,4,2,14,14,59,070,43,08,57,276,25,43,52,065,46,28,41,329,38,1*7F
$GBGSV,4,3,14,42,36,048,40,11,30,087,42,41,28,198,,34,15,102,28,1*70
$GBGSV,4,4,14,23,15,217,,37,15,267,,1*71
$GBGSV,2,1,05,40,81,154,38,33,69,140,30,43,52,065,43,28,41,329,38,4*72
$GBGSV,2,2,05,42,36,048,42,4*4F
$GNGGA,040004.000,2500.8057000,N,12132.4307500,E,2,57,0.48,6.34,M,15.25,M,4,3335*44
$GNRMC,040004.000,A,2500.8057000,N,12132.4307500,E,0.26,261.39,270623,,,D,V*0D
$GPHDT,,T*1B
$GNGGA,040004.200,2500.8057000,N,12132.4307400,E,2,57,0.48,6.30,M,15.25,M,4,3335*43
$GNRMC,040004.200,A,2500.8057000,N,12132.4307400,E,0.34,261.39,270623,,,D,V*0D
$GPHDT,,T*1B
$GNGGA,040004.400,2500.8057000,N,12132.4307300,E,2,57,0.48,6.26,M,15.25,M,1,3335*40
$GNRMC,040004.400,A,2500.8057000,N,12132.4307300,E,0.27,261.39,270623,,,D,V*0E
$GPHDT,,T*1B
$GNGGA,040004.600,2500.8057000,N,12132.4307200,E,2,57,0.48,6.23,M,15.25,M,1,3335*46
$GNRMC,040004.600,A,2500.8057000,N,12132.4307200,E,0.29,261.39,270623,,,D,V*03
$GPHDT,,T*1B
$GNGGA,040004.800,2500.8057000,N,12132.4307000,E,2,57,0.48,6.19,M,15.25,M,0,3335*42
$GNRMC,040004.800,A,2500.8057000,N,12132.4307000,E,0.25,261.39,270623,,,D,V*03
$GPHDT,,T*1B
$GNGSA,A,3,19,195,196,17,199,06,194,09,20,11,14,04,0.90,0.48,0.76,1*09
$GNGSA,A,3,68,67,82,83,73,80,,,,,,,0.90,0.48,0.76,2*04
$GNGSA,A,3,10,12,11,04,19,25,33,,,,,,0.90,0.48,0.76,3*0E
$GNGSA,A,3,40,07,10,33,14,08,43,28,42,11,34,,0.90,0.48,0.76,4*03
$GPGSV,4,1,15,19,69,036,42,195,68,045,36,196,66,125,32,17,62,091,44,1*65
$GPGSV,4,2,15,50,60,167,29,199,60,167,28,06,50,349,41,194,38,172,21,1*6B
$GPGSV,4,3,15,09,35,098,46,20,33,235,17,11,30,292,25,14,20,175,20,1*60
$GPGSV,4,4,15,04,20,066,31,12,17,314,18,05,08,224,,1*57
$GPGSV,3,1,09,195,68,045,43,196,66,125,40,199,60,167,39,06,50,349,35,8*59
$GPGSV,3,2,09,194,38,172,22,09,35,098,42,11,30,292,26,14,20,175,20,8*56
$GPGSV,3,3,09,04,20,066,30,8*51
$GLGSV,2,1,06,68,57,141,24,67,43,051,40,82,36,047,40,83,36,349,33,1*7D
$GLGSV,2,2,06,73,22,282,15,80,19,225,19,1*7B
$GAGSV,2,1,08,10,49,342,37,24,48,236,,12,47,022,31,11,36,306,30,7*79
$GAGSV,2,2,08,04,32,150,38,19,32,080,36,25,27,302,21,33,13,069,20,7*7A
$GAGSV,2,1,07,10,49,342,39,12,47,022,40,11,36,306,25,04,32,150,36,1*75
$GAGSV,2,2,07,19,32,080,34,25,27,302,22,33,13,069,23,1*4B
$GBGSV,4,1,14,40,81,154,35,07,78,235,26,10,72,281,28,33,69,140,19,1*72
$GBGSV,4,2,14,14,59,070,43,08,57,276,25,43,52,065,46,28,41,329,38,1*7F
$GBGSV,4,3,14,42,36,048,40,11,30,087,42,41,28,198,,34,15,102,27,1*7F
$GBGSV,4,4,14,37,15,267,,23,15,217,,1*71
$GBGSV,2,1,05,40,81,154,38,33,69,140,30,43,52,065,43,28,41,329,38,4*72
$GBGSV,2,2,05,42,36,048,42,4*4F
$GNGGA,040005.000,2500.8057000,N,12132.4307000,E,2,57,0.48,6.15,M,15.25,M,1,3335*46
$GNRMC,040005.000,A,2500.8057000,N,12132.4307000,E,0.29,261.39,270623,,,D,V*06
$GPHDT,,T*1B
$GNGGA,040005.200,2500.8057000,N,12132.4306800,E,2,57,0.48,6.13,M,15.25,M,1,3335*4B
$GNRMC,040005.200,A,2500.8057000,N,12132.4306800,E,0.34,261.39,270623,,,D,V*01
$GPHDT,,T*1B
$GNGGA,040005.400,2500.8057000,N,12132.4306700,E,2,57,0.48,6.09,M,15.25,M,1,3335*49
$GNRMC,040005.400,A,2500.8057000,N,12132.4306700,E,0.24,261.39,270623,,,D,V*09
$GPHDT,,T*1B
$GNGGA,040005.600,2500.8057000,N,12132.4306600,E,2,57,0.48,6.06,M,15.25,M,1,3335*45
$GNRMC,040005.600,A,2500.8057000,N,12132.4306600,E,0.20,261.39,270623,,,D,V*0E
$GPHDT,,T*1B
$GNGGA,040005.800,2500.8057000,N,12132.4306500,E,2,57,0.48,6.02,M,15.25,M,1,3335*4C
$GNRMC,040005.800,A,2500.8057000,N,12132.4306500,E,0.19,261.39,270623,,,D,V*09
$GPHDT,,T*1B
$GNGSA,A,3,19,195,196,17,199,06,194,09,20,11,14,04,0.89,0.48,0.75,1*02
$GNGSA,A,3,12,,,,,,,,,,,,0.89,0.48,0.75,1*0D
$GNGSA,A,3,68,67,82,83,80,,,,,,,,0.89,0.48,0.75,2*0B
$GNGSA,A,3,10,12,11,04,19,25,33,,,,,,0.89,0.48,0.75,3*05
$GNGSA,A,3,40,07,10,33,14,08,43,28,42,11,34,,0.89,0.48,0.75,4*08
$GPGSV,4,1,15,19,69,036,42,195,68,045,36,196,66,125,32,17,62,091,44,1*65
$GPGSV,4,2,15,50,60,167,30,199,60,167,28,06,50,349,41,194,38,172,21,1*63
$GPGSV,4,3,15,09,35,098,46,20,33,235,15,11,30,292,25,14,20,175,22,1*60
$GPGSV,4,4,15,04,20,066,31,12,17,314,22,05,08,224,,1*5E
$GPGSV,3,1,09,195,68,045,43,196,66,125,41,199,60,167,39,06,50,349,35,8*58
$GPGSV,3,2,09,194,38,172,23,09,35,098,42,11,30,292,26,14,20,175,21,8*56
$GPGSV,3,3,09,04,20,066,30,8*51
$GLGSV,2,1,08,68,57,141,25,67,43,051,40,82,36,047,40,83,36,349,33,1*72
$GLGSV,2,2,08,73,22,282,17,80,19,225,18,69,17,184,,74,05,322,,1*77
$GAGSV,3,1,09,10,49,342,36,24,48,236,,12,47,022,32,11,36,306,30,7*7B
$GAGSV,3,2,09,04,32,150,38,19,32,080,36,25,27,302,21,33,13,069,22,7*78
$GAGSV,3,3,09,09,03,191,,7*49
$GAGSV,2,1,07,10,49,342,39,12,47,022,40,11,36,306,25,04,32,150,36,1*75
$GAGSV,2,2,07,19,32,080,34,25,27,302,22,33,13,069,21,1*49
$GBGSV,3,1,12,40,81,154,35,07,78,235,26,10,72,281,28,33,69,140,21,1*78
$GBGSV,3,2,12,14,59,070,43,08,57,276,26,43,52,065,46,28,41,329,37,1*72
$GBGSV,3,3,12,42,36,048,40,11,30,087,42,41,28,198,,34,15,102,25,1*7C
$GBGSV,2,1,05,40,81,154,38,33,69,140,30,43,52,065,43,28,41,329,38,4*72
$GBGSV,2,2,05,42,36,048,42,4*4F
$GNGGA,040006.000,2500.8057000,N,12132.4306500,E,2,57,0.48,5.97,M,15.25,M,2,3335*4B
$GNRMC,040006.000,A,2500.8057000,N,12132.4306500,E,0.33,261.39,270623,,,D,V*0A
$GPHDT,,T*1B
$GNGGA,040006.200,2500.8057000,N,12132.4306400,E,2,56,0.50,5.93,M,15.25,M,2,3335*44
$GNRMC,040006.200,A,2500.8057000,N,12132.4306400,E,0.22,261.39,270623,,,D,V*09
$GPHDT,,T*1B
$GNGGA,040006.400,2500.8057000,N,12132.4306300,E,2,56,0.50,5.89,M,15.25,M,2,3335*4E
$GNRMC,040006.400,A,2500.8057000,N,12132.4306300,E,0.39,261.39,270623,,,D,V*02
$GPHDT,,T*1B
$GNGGA,040006.600,2500.8057000,N,12132.4306100,E,2,56,0.50,5.86,M,15.25,M,2,3335*41
$GNRMC,040006.600,A,2500.8057000,N,12132.4306100,E,0.32,261.39,270623,,,D,V*09
$GPHDT,,T*1B
$GNGGA,040006.800,2500.8056900,N,12132.4306000,E,2,57,0.48,5.82,M,15.25,M,2,3335*4A
$GNRMC,040006.800,A,2500.8056900,N,12132.4306000,E,0.34,261.39,270623,,,D,V*08
$GPHDT,,T*1B
$GNGSA,A,3,19,195,196,17,199,06,194,09,20,11,14,04,0.89,0.48,0.75,1*02
$GNGSA,A,3,12,,,,,,,,,,,,0.89,0.48,0.75,1*0D
$GNGSA,A,3,68,67,83,82,80,,,,,,,,0.89,0.48,0.75,2*0B
$GNGSA,A,3,10,12,11,04,19,25,33,,,,,,0.89,0.48,0.75,3*05
$GNGSA,A,3,40,07,10,33,14,08,43,28,42,11,34,,0.89,0.48,0.75,4*08
$GPGSV,4,1,15,19,69,036,42,195,68,045,36,196,66,125,32,17,62,091,44,1*65
$GPGSV,4,2,15,50,60,167,30,199,60,167,28,06,50,349,41,194,38,172,20,1*62
$GPGSV,4,3,15,09,35,098,46,20,33,235,16,11,30,292,24,14,20,175,23,1*63
$GPGSV,4,4,15,04,20,066,33,12,17,314,20,05,08,224,,1*5E
$GPGSV,3,1,09,195,68,045,43,196,66,125,41,199,60,167,39,06,50,349,36,8*5B
$GPGSV,3,2,09,194,38,172,22,09,35,098,42,11,30,292,26,14,20,175,19,8*5C
$GPGSV,3,3,09,04,20,066,30,8*51
$GLGSV,2,1,06,68,57,141,27,67,43,051,40,83,36,349,33,82,36,047,40,1*7E
$GLGSV,2,2,06,73,22,282,15,80,19,225,17,1*75
$GAGSV,3,1,09,10,49,342,37,24,48,236,,12,47,022,32,11,36,306,30,7*7A
$GAGSV,3,2,09,04,32,150,38,19,32,080,36,25,27,302,23,33,13,069,21,7*79
$GAGSV,3,3,09,09,03,191,,7*49
$GAGSV,2,1,07,10,49,342,39,12,47,022,40,11,36,306,24,04,32,150,36,1*74
$GAGSV,2,2,07,19,32,080,34,25,27,302,20,33,13,069,22,1*48
$GBGSV,4,1,13,40,81,154,35,07,78,235,25,10,72,281,28,33,69,140,21,1*7D
$GBGSV,4,2,13,14,59,070,43,08,57,276,27,43,52,065,46,28,41,329,37,1*75
$GBGSV,4,3,13,42,36,048,40,11,30,087,42,41,28,198,,34,15,102,26,1*79
$GBGSV,4,4,13,23,15,217,,1*45
$GBGSV,2,1,05,40,81,154,38,33,69,140,30,43,52,065,43,28,41,329,38,4*72
$GBGSV,2,2,05,42,36,048,42,4*4F
$GNGGA,040007.000,2500.8056900,N,12132.4305900,E,2,57,0.48,5.77,M,15.25,M,3,3335*42
$GNRMC,040007.000,A,2500.8056900,N,12132.4305900,E,0.27,261.39,270623,,,D,V*09
$GPHDT,,T*1B
$GNGGA,040007.200,2500.8056900,N,12132.4305800,E,2,56,0.48,5.73,M,15.25,M,3,3335*44
$GNRMC,040007.200,A,2500.8056900,N,12132.4305800,E,0.28,261.39,270623,,,D,V*05
