$FW : RTK35X,V1.1X0314AS,Lib20210517,1*54
$Tool : LOCOSYS , GNSS Firebird , v1.0.0.19*39
$---------------------------------------------------*2D
,235,17,12,47,022,38,11,36,306,28,7*7C
$GAGSV,3,2,09,04,32,150,38,19,32,079,31,25,27,302,20,33,12,069,14,7*7C
$GAGSV,3,3,09,09,03,191,,7*49
$GAGSV,2,1,07,10,49,342,42,12,47,022,40,11,36,306,31,04,32,150,31,1*7B
$GAGSV,2,2,07,19,32,079,39,25,27,302,18,33,12,069,18,1*40
$GBGSV,4,1,13,40,81,155,24,07,78,235,29,10,72,280,27,33,69,139,36,1*76
$GBGSV,4,2,13,14,59,070,43,43,52,066,46,28,41,330,42,42,36,048,43,1*78
$GBGSV,4,3,13,11,30,087,42,41,28,198,,37,15,267,,23,15,216,,1*75
$GBGSV,4,4,13,34,14,103,27,1*41
$GBGSV,2,1,06,40,81,155,33,33,69,139,35,43,52,066,46,28,41,330,42,4*73
$GBGSV,2,2,06,42,36,048,45,34,14,103,24,4*7D
$GNGGA,040100.000,2500.8047400,N,12132.4298400,E,2,54,0.48,5.55,M,15.25,M,1,3335*40
$GNRMC,040100.000,A,2500.8047400,N,12132.4298400,E,0.02,236.57,270623,,,D,V*07
$GPHDT,,T*1B
$GNGGA,040100.200,2500.8047600,N,12132.4298600,E,2,54,0.48,5.58,M,15.25,M,1,3335*4F
$GNRMC,040100.200,A,2500.8047600,N,12132.4298600,E,0.02,236.57,270623,,,D,V*05
$GPHDT,,T*1B
$GNGGA,040100.400,2500.8047600,N,12132.4298900,E,2,55,0.47,5.62,M,15.25,M,1,3335*41
$GNRMC,040100.400,A,2500.8047600,N,12132.4298900,E,0.02,236.57,270623,,,D,V*0C
$GPHDT,,T*1B
$GNGGA,040100.600,2500.8047600,N,12132.4299100,E,2,55,0.47,5.65,M,15.25,M,1,3335*4D
$GNRMC,040100.600,A,2500.8047600,N,12132.4299100,E,0.02,236.57,270623,,,D,V*07
$GPHDT,,T*1B
$GNGGA,040100.800,2500.8047700,N,12132.4299300,E,2,53,0.50,5.69,M,15.25,M,1,3335*4C
$GNRMC,040100.800,A,2500.8047700,N,12132.4299300,E,0.02,236.57,270623,,,D,V*0A
$GPHDT,,T*1B
$GNGSA,A,3,19,195,196,17,199,06,194,09,20,11,04,12,0.89,0.48,0.75,1*04
$GNGSA,A,3,14,,,,,,,,,,,,0.89,0.48,0.75,1*0B
$GNGSA,A,3,68,67,83,82,80,,,,,,,,0.89,0.48,0.75,2*0B
$GNGSA,A,3,10,24,12,11,04,19,25,33,,,,,0.89,0.48,0.75,3*03
$GNGSA,A,3,40,07,10,33,14,43,28,42,11,34,,,0.89,0.48,0.75,4*00
$GPGSV,4,1,15,19,70,037,43,195,68,045,38,196,66,124,31,17,62,092,45,1*63
$GPGSV,4,2,15,50,60,167,32,199,60,167,30,06,50,350,44,194,38,172,19,1*6E
$GPGSV,4,3,15,09,35,097,41,20,34,236,18,11,30,292,20,04,20,066,23,1*67
$GPGSV,4,4,15,14,19,175,13,12,17,313,15,05,08,224,,1*55
$GPGSV,3,1,09,195,68,045,45,196,66,124,41,199,60,167,38,06,50,350,46,8*52
$GPGSV,3,2,09,194,38,172,17,09,35,097,45,11,30,292,26,04,20,066,35,8*5E
$GPGSV,3,3,09,14,19,175,19,8*52
$GLGSV,2,1,06,68,57,140,36,67,43,051,43,83,36,350,33,82,36,047,42,1*76
$GLGSV,2,2,06,73,22,281,15,80,19,224,16,1*76
$GAGSV,3,1,09,10,49,342,40,24,48,235,17,12,47,022,38,11,36,306,29,7*7D
$GAGSV,3,2,09,04,33,150,38,19,32,079,31,25,27,302,20,33,12,069,13,7*7A
$GAGSV,3,3,09,09,03,191,,7*49
$GAGSV,2,1,07,10,49,342,42,12,47,022,40,11,36,306,31,04,33,150,32,1*79
$GAGSV,2,2,07,19,32,079,39,25,27,302,19,33,12,069,18,1*41
$GBGSV,4,1,13,40,81,155,25,07,78,235,30,10,72,280,26,33,69,139,36,1*7E
$GBGSV,4,2,13,14,59,070,43,43,52,066,45,28,41,330,42,42,36,048,43,1*7B
$GBGSV,4,3,13,11,30,087,42,41,28,198,,37,15,267,,23,15,216,,1*75
$GBGSV,4,4,13,34,14,103,26,1*40
$GBGSV,2,1,06,40,81,155,33,33,69,139,35,43,52,066,46,28,41,330,42,4*73
$GBGSV,2,2,06,42,36,048,45,34,14,103,24,4*7D
$GNGGA,040101.000,2500.8047700,N,12132.4299400,E,2,56,0.48,5.72,M,15.25,M,2,3335*47
$GNRMC,040101.000,A,2500.8047700,N,12132.4299400,E,0.02,236.57,270623,,,D,V*04
$GPHDT,,T*1B
$GNGGA,040101.200,2500.8047800,N,12132.4299500,E,2,55,0.48,5.76,M,15.25,M,2,3335*4C
$GNRMC,040101.200,A,2500.8047800,N,12132.4299500,E,0.02,236.57,270623,,,D,V*08
$GPHDT,,T*1B
$GNGGA,040101.400,2500.8047900,N,12132.4299700,E,2,55,0.48,5.80,M,15.25,M,2,3335*40
$GNRMC,040101.400,A,2500.8047900,N,12132.4299700,E,0.02,236.57,270623,,,D,V*0D
$GPHDT,,T*1B
$GNGGA,040101.600,2500.8048000,N,12132.4299900,E,2,55,0.48,5.84,M,15.25,M,2,3335*4E
$GNRMC,040101.600,A,2500.8048000,N,12132.4299900,E,0.02,236.57,270623,,,D,V*07
$GPHDT,,T*1B
$GNGGA,040101.800,2500.8048100,N,12132.4300100,E,2,54,0.50,5.88,M,15.25,M,2,3335*4C
$GNRMC,040101.800,A,2500.8048100,N,12132.4300100,E,0.02,236.57,270623,,,D,V*01
$GPHDT,,T*1B
$GNGSA,A,3,19,195,196,17,199,06,09,20,11,04,194,14,0.93,0.50,0.79,1*0C
$GNGSA,A,3,68,67,83,82,80,,,,,,,,0.93,0.50,0.79,2*05
$GNGSA,A,3,10,24,12,11,04,19,25,33,,,,,0.93,0.50,0.79,3*0D
$GNGSA,A,3,40,07,10,33,14,43,28,42,11,34,,,0.93,0.50,0.79,4*0E
$GPGSV,4,1,15,19,70,037,43,195,68,045,36,196,66,124,31,17,62,092,45,1*6D
$GPGSV,4,2,15,50,60,167,33,199,60,167,31,06,50,350,44,194,38,172,18,1*6F
$GPGSV,4,3,15,09,35,097,41,20,34,236,16,11,30,292,18,04,20,066,24,1*65
$GPGSV,4,4,15,14,19,175,15,12,17,313,15,05,08,224,,1*53
$GPGSV,3,1,09,195,68,045,45,196,66,124,41,199,60,167,38,06,50,350,46,8*52
$GPGSV,3,2,09,194,38,172,15,09,35,097,45,11,30,292,28,04,20,066,35,8*52
$GPGSV,3,3,09,14,19,175,19,8*52
$GLGSV,2,1,06,68,57,140,36,67,43,051,43,83,36,350,33,82,36,047,42,1*76
$GLGSV,2,2,06,73,22,281,14,80,19,224,16,1*77
$GAGSV,3,1,09,10,49,342,40,24,48,235,16,12,47,022,38,11,36,306,28,7*7D
$GAGSV,3,2,09,04,33,150,38,19,32,079,31,25,27,302,20,33,12,069,12,7*7B
$GAGSV,3,3,09,09,03,191,,7*49
$GAGSV,2,1,07,10,49,342,43,12,47,022,40,11,36,306,30,04,33,150,31,1*7A
$GAGSV,2,2,07,19,32,079,39,25,27,302,19,33,12,069,19,1*40
$GBGSV,4,1,13,40,81,155,27,07,78,235,30,10,72,280,26,33,69,139,35,1*7F
$GBGSV,4,2,13,14,59,070,42,43,52,066,45,28,41,330,42,42,36,048,43,1*7A
$GBGSV,4,3,13,11,30,087,42,41,28,198,,37,15,267,,23,15,216,,1*75
$GBGSV,4,4,13,34,14,103,26,1*40
$GBGSV,2,1,06,40,81,155,33,33,69,139,35,43,52,066,46,28,41,330,42,4*73
$GBGSV,2,2,06,42,36,048,45,34,14,103,24,4*7D
$GNGGA,040102.000,2500.8048200,N,12132.4300400,E,2,54,0.50,5.91,M,15.25,M,3,3335*48
$GNRMC,040102.000,A,2500.8048200,N,12132.4300400,E,0.03,236.57,270623,,,D,V*0D
$GPHDT,,T*1B
$GNGGA,040102.200,2500.8048300,N,12132.4300500,E,2,53,0.50,5.94,M,15.25,M,3,3335*48
$GNRMC,040102.200,A,2500.8048300,N,12132.4300500,E,0.03,236.57,270623,,,D,V*0F
$GPHDT,,T*1B
$GNGGA,040102.400,2500.8048400,N,12132.4300700,E,2,53,0.50,5.98,M,15.25,M,3,3335*47
$GNRMC,040102.400,A,2500.8048400,N,12132.4300700,E,0.03,236.57,270623,,,D,V*0C
$GPHDT,,T*1B
$GNGGA,040102.600,2500.8048500,N,12132.4300900,E,2,54,0.50,6.02,M,15.25,M,3,3335*4D
$GNRMC,040102.600,A,2500.8048500,N,12132.4300900,E,0.03,236.57,270623,,,D,V*01
$GPHDT,,T*1B
$GNGGA,040102.800,2500.8048600,N,12132.4301100,E,2,53,0.50,6.05,M,15.25,M,3,3335*49
$GNRMC,040102.800,A,2500.8048600,N,12132.4301100,E,0.03,236.57,270623,,,D,V*05
$GPHDT,,T*1B
$GNGSA,A,3,19,195,196,17,199,06,09,20,11,04,14,,0.94,0.50,0.79,1*37
$GNGSA,A,3,68,67,82,83,80,,,,,,,,0.94,0.50,0.79,2*02
$GNGSA,A,3,10,24,12,11,04,19,25,33,,,,,0.94,0.50,0.79,3*0A
$GNGSA,A,3,40,07,10,33,14,43,28,42,11,34,,,0.94,0.50,0.79,4*09
$GPGSV,4,1,15,19,70,037,43,195,68,045,37,196,66,124,31,17,62,092,45,1*6C
$GPGSV,4,2,15,50,60,167,33,199,60,167,31,06,50,350,44,194,38,172,18,1*6F
$GPGSV,4,3,15,09,35,097,41,20,34,236,18,11,30,292,15,04,20,066,26,1*64
$GPGSV,4,4,15,14,19,175,17,12,17,313,15,05,08,224,,1*51
$GPGSV,3,1,09,195,68,045,45,196,66,124,41,199,60,167,38,06,50,350,46,8*52
$GPGSV,3,2,09,194,38,172,14,09,35,097,45,11,30,292,26,04,20,066,35,8*5D
$GPGSV,3,3,09,14,19,175,18,8*53
$GLGSV,2,1,08,68,57,140,36,67,43,051,43,82,36,047,41,83,36,350,32,1*7A
$GLGSV,2,2,08,73,22,281,14,80,19,224,15,69,17,184,,74,06,322,,1*78
$GAGSV,3,1,09,10,49,342,40,24,48,235,15,12,47,022,38,11,36,306,29,7*7F
$GAGSV,3,2,09,04,33,150,38,19,32,079,30,25,27,302,20,33,12,069,14,7*7C
$GAGSV,3,3,09,09,03,191,,7*49
$GAGSV,2,1,07,10,49,342,43,12,47,022,40,11,36,306,28,04,33,150,30,1*72
$GAGSV,2,2,07,19,32,079,39,25,27,302,18,33,12,069,19,1*41
$GBGSV,4,1,13,40,81,155,26,07,78,235,29,10,72,280,24,33,69,139,34,1*75
$GBGSV,4,2,13,14,59,070,42,08,57,277,,43,52,066,45,28,41,330,42,1*7A
$GBGSV,4,3,13,42,36,048,43,11,30,087,42,41,28,198,,23,15,216,,1*7E
$GBGSV,4,4,13,34,14,103,23,1*45
$GBGSV,2,1,06,40,81,155,33,33,69,139,34,43,52,066,46,28,41,330,42,4*72
$GBGSV,2,2,06,42,36,048,45,34,14,103,25,4*7C
$GNGGA,040103.000,2500.8048700,N,12132.4301300,E,2,53,0.50,6.08,M,15.25,M,4,3335*49
$GNRMC,040103.000,A,2500.8048700,N,12132.4301300,E,0.03,236.57,270623,,,D,V*0F
$GPHDT,,T*1B
$GNGGA,040103.200,2500.8048800,N,12132.4301400,E,2,53,0.50,6.12,M,15.25,M,1,3335*4D
$GNRMC,040103.200,A,2500.8048800,N,12132.4301400,E,0.03,236.57,270623,,,D,V*05
$GPHDT,,T*1B
$GNGGA,040103.400,2500.8048900,N,12132.4301700,E,2,53,0.50,6.16,M,15.25,M,1,3335*4D
$GNRMC,040103.400,A,2500.8048900,N,12132.4301700,E,0.03,236.57,270623,,,D,V*01
$GPHDT,,T*1B
$GNGGA,040103.600,2500.8049100,N,12132.4301900,E,2,54,0.50,6.20,M,15.25,M,1,3335*4A
$GNRMC,040103.600,A,2500.8049100,N,12132.4301900,E,0.03,236.57,270623,,,D,V*04
$GPHDT,,T*1B
$GNGGA,040103.800,2500.8049200,N,12132.4302200,E,2,53,0.50,6.23,M,15.25,M,1,3335*4B
$GNRMC,040103.800,A,2500.8049200,N,12132.4302200,E,0.04,236.57,270623,,,D,V*06
$GPHDT,,T*1B
$GNGSA,A,3,19,195,196,17,199,06,09,20,11,04,14,,0.94,0.50,0.79,1*37
$GNGSA,A,3,68,67,82,83,80,,,,,,,,0.94,0.50,0.79,2*02
$GNGSA,A,3,10,24,12,11,04,19,25,33,,,,,0.94,0.50,0.79,3*0A
$GNGSA,A,3,40,07,10,33,14,43,28,42,11,34,,,0.94,0.50,0.79,4*09
$GPGSV,4,1,15,19,70,037,43,195,68,045,37,196,66,124,32,17,62,092,45,1*6F
$GPGSV,4,2,15,50,60,167,33,199,60,167,31,06,50,350,44,194,38,172,18,1*6F
$GPGSV,4,3,15,09,35,097,41,20,34,236,21,11,30,292,17,04,20,066,29,1*63
$GPGSV,4,4,15,14,19,175,16,12,17,313,16,05,08,224,,1*53
$GPGSV,3,1,09,195,68,045,45,196,66,124,41,199,60,167,38,06,50,350,46,8*52
$GPGSV,3,2,09,194,38,172,15,09,35,097,45,11,30,292,26,04,20,066,36,8*5F
$GPGSV,3,3,09,14,19,175,18,8*53
$GLGSV,2,1,08,68,57,140,35,67,43,051,43,82,36,047,41,83,36,350,32,1*79
$GLGSV,2,2,08,73,22,281,14,80,19,224,16,69,17,184,,74,06,322,,1*7B
$GAGSV,3,1,09,10,49,342,40,24,48,235,14,12,47,022,38,11,36,306,29,7*7E
$GAGSV,3,2,09,04,33,150,38,19,32,079,30,25,27,302,21,33,12,069,15,7*7C
$GAGSV,3,3,09,09,03,191,,7*49
$GAGSV,2,1,07,10,49,342,43,12,47,022,40,11,36,306,28,04,33,150,31,1*73
$GAGSV,2,2,07,19,32,079,39,25,27,302,18,33,12,069,19,1*41
$GBGSV,4,1,13,40,81,155,26,07,78,235,29,10,72,280,25,33,69,139,34,1*74
$GBGSV,4,2,13,14,59,070,42,43,52,066,45,28,41,330,42,42,36,048,43,1*7A
$GBGSV,4,3,13,11,30,087,42,41,28,198,,23,15,216,,37,15,267,,1*75
$GBGSV,4,4,13,34,14,103,21,1*47
$GBGSV,2,1,06,40,81,155,33,33,69,139,35,43,52,066,46,28,41,330,42,4*73
$GBGSV,2,2,06,42,36,048,45,34,14,103,26,4*7F
$GNGGA,040104.000,2500.8049300,N,12132.4302300,E,2,53,0.50,6.27,M,15.25,M,2,3335*43
$GNRMC,040104.000,A,2500.8049300,N,12132.4302300,E,0.04,236.57,270623,,,D,V*09
$GPHDT,,T*1B
$GNGGA,040104.200,2500.8049400,N,12132.4302500,E,2,54,0.50,6.31,M,15.25,M,2,3335*40
$GNRMC,040104.200,A,2500.8049400,N,12132.4302500,E,0.04,236.57,270623,,,D,V*0A
$GPHDT,,T*1B
$GNGGA,040104.400,2500.8049500,N,12132.4302800,E,2,54,0.50,6.35,M,15.25,M,2,3335*4E
$GNRMC,040104.400,A,2500.8049500,N,12132.4302800,E,0.04,236.57,270623,,,D,V*00
$GPHDT,,T*1B
$GNGGA,040104.600,2500.8049700,N,12132.4303000,E,2,54,0.50,6.40,M,15.25,M,2,3335*45
$GNRMC,040104.600,A,2500.8049700,N,12132.4303000,E,0.04,236.57,270623,,,D,V*09
$GPHDT,,T*1B
$GNGGA,040104.800,2500.8049700,N,12132.4303200,E,2,54,0.50,6.45,M,15.25,M,2,3335*4C
$GNRMC,040104.800,A,2500.8049700,N,12132.4303200,E,0.04,236.57,270623,,,D,V*05
$GPHDT,,T*1B
$GNGSA,A,3,19,195,196,17,199,06,09,20,11,04,12,14,0.90,0.50,0.75,1*3C
$GNGSA,A,3,68,67,83,82,80,,,,,,,,0.90,0.50,0.75,2*0A
$GNGSA,A,3,10,12,24,11,04,19,25,33,,,,,0.90,0.50,0.75,3*02
$GNGSA,A,3,40,07,10,33,14,43,28,42,11,34,,,0.90,0.50,0.75,4*01
$GPGSV,4,1,15,19,70,037,43,195,68,045,37,196,66,124,32,17,62,092,45,1*6F
$GPGSV,4,2,15,50,60,167,34,199,60,167,32,06,50,350,44,194,38,172,18,1*6B
$GPGSV,4,3,15,09,35,097,42,20,34,236,21,11,30,292,18,04,20,066,28,1*6E
$GPGSV,4,4,15,14,19,175,17,12,17,313,13,05,08,224,,1*57
$GPGSV,3,1,09,195,68,045,45,196,66,124,41,199,60,167,38,06,50,350,46,8*52
$GPGSV,3,2,09,194,38,172,15,09,35,097,45,11,30,292,28,04,20,066,36,8*51
$GPGSV,3,3,09,14,19,175,18,8*53
$GLGSV,2,1,06,68,57,140,36,67,43,051,43,83,36,350,33,82,36,047,41,1*75
$GLGSV,2,2,06,73,22,281,14,80,19,224,16,1*77
$GAGSV,3,1,09,10,49,342,40,12,47,022,38,24,47,235,14,11,36,306,31,7*78
$GAGSV,3,2,09,04,33,150,38,19,32,079,29,25,27,302,22,33,12,069,14,7*76
$GAGSV,3,3,09,09,03,191,,7*49
$GAGSV,2,1,07,10,49,342,43,12,47,022,40,11,36,306,28,04,33,150,31,1*73
$GAGSV,2,2,07,19,32,079,39,25,27,302,19,33,12,069,19,1*40
$GBGSV,3,1,12,40,81,155,25,07,78,235,31,10,72,280,26,33,69,139,35,1*7A
$GBGSV,3,2,12,14,59,070,42,43,52,066,45,28,41,330,43,42,36,048,43,1*7D
$GBGSV,3,3,12,11,30,087,42,41,28,198,,23,15,216,,34,14,103,21,1*73
$GBGSV,2,1,06,40,81,155,33,33,69,139,35,43,52,066,46,28,41,330,42,4*73
$GBGSV,2,2,06,42,36,048,45,34,14,103,24,4*7D
$GNGGA,040105.000,2500.8049800,N,12132.4303400,E,2,54,0.50,6.49,M,15.25,M,3,3335*41
$GNRMC,040105.000,A,2500.8049800,N,12132.4303400,E,0.04,236.57,270623,,,D,V*05
$GPHDT,,T*1B
$GNGGA,040105.200,2500.8049900,N,12132.4303700,E,2,56,0.48,6.53,M,15.25,M,3,3335*41
$GNRMC,040105.200,A,2500.8049900,N,12132.4303700,E,0.04,236.57,270623,,,D,V*05
$GPHDT,,T*1B
$GNGGA,040105.400,2500.8050000,N,12132.4303800,E,2,56,0.48,6.57,M,15.25,M,3,3335*4D
$GNRMC,040105.400,A,2500.8050000,N,12132.4303800,E,0.04,236.57,270623,,,D,V*0D
$GPHDT,,T*1B
$GNGGA,040105.600,2500.8050100,N,12132.4304000,E,2,57,0.48,6.61,M,15.25,M,3,3335*45
$GNRMC,040105.600,A,2500.8050100,N,12132.4304000,E,0.05,236.57,270623,,,D,V*00
$GPHDT,,T*1B
$GNGGA,040105.800,2500.8050200,N,12132.4304200,E,2,57,0.48,6.64,M,15.25,M,3,3335*4F
$GNRMC,040105.800,A,2500.8050200,N,12132.4304200,E,0.05,236.57,270623,,,D,V*0F
$GPHDT,,T*1B
$GNGSA,A,3,19,195,196,17,199,06,194,09,20,11,04,12,0.89,0.48,0.75,1*04
$GNGSA,A,3,14,,,,,,,,,,,,0.89,0.48,0.75,1*0B
$GNGSA,A,3,68,67,83,82,80,,,,,,,,0.89,0.48,0.75,2*0B
$GNGSA,A,3,10,12,24,11,04,19,25,33,,,,,0.89,0.48,0.75,3*03
$GNGSA,A,3,40,07,10,33,14,43,28,42,11,34,,,0.89,0.48,0.75,4*00
$GPGSV,4,1,15,19,70,037,43,195,68,045,37,196,66,124,31,17,62,092,45,1*6C
$GPGSV,4,2,15,50,60,167,34,199,60,167,32,06,50,350,44,194,38,172,22,1*62
$GPGSV,4,3,15,09,35,097,42,20,34,236,23,11,30,292,17,04,20,066,28,1*63
$GPGSV,4,4,15,14,19,175,17,12,17,313,14,05,08,224,,1*50
$GPGSV,3,1,09,195,68,045,45,196,66,124,41,199,60,167,38,06,50,350,46,8*52
$GPGSV,3,2,09,194,38,172,16,09,35,097,45,11,30,292,27,04,20,066,35,8*5E
$GPGSV,3,3,09,14,19,175,19,8*52
$GLGSV,2,1,06,68,57,140,36,67,43,051,43,83,36,350,33,82,36,047,42,1*76
$GLGSV,2,2,06,73,22,281,14,80,19,224,15,1*74
$GAGSV,3,1,09,10,49,342,40,12,47,022,38,24,47,235,13,11,36,306,32,7*7C
$GAGSV,3,2,09,04,33,150,38,19,32,079,29,25,27,302,22,33,12,069,14,7*76
$GAGSV,3,3,09,09,03,191,,7*49
$GAGSV,2,1,07,10,49,342,44,12,47,022,40,11,36,306,29,04,33,150,31,1*75
$GAGSV,2,2,07,19,32,079,39,25,27,302,19,33,12,069,18,1*41
$GBGSV,4,1,13,40,81,155,25,07,78,235,31,10,72,280,26,33,69,139,35,1*7C
$GBGSV,4,2,13,14,59,070,42,43,52,066,45,28,41,330,43,42,36,048,43,1*7B
$GBGSV,4,3,13,11,30,087,42,41,28,198,,37,15,267,,23,15,216,,1*75
$GBGSV,4,4,13,34,14,103,23,1*45
$GBGSV,2,1,06,40,81,155,33,33,69,139,35,43,52,066,46,28,41,330,42,4*73
$GBGSV,2,2,06,42,36,048,45,34,14,103,23,4*7A
$GNGGA,040106.000,2500.8050200,N,12132.4304400,E,2,57,0.48,6.68,M,15.25,M,4,3335*49
$GNRMC,040106.000,A,2500.8050200,N,12132.4304400,E,0.05,236.57,270623,,,D,V*02
$GPHDT,,T*1B
$GNGGA,040106.200,2500.8050300,N,12132.4304500,E,2,57,0.48,6.71,M,15.25,M,4,3335*43
$GNRMC,040106.200,A,2500.8050300,N,12132.4304500,E,0.05,236.57,270623,,,D,V*00
$GPHDT,,T*1B
$GNGGA,040106.400,2500.8050400,N,12132.4304700,E,2,57,0.48,6.75,M,15.25,M,4,3335*44
$GNRMC,040106.400,A,2500.8050400,N,12132.4304700,E,0.05,236.57,270623,,,D,V*03
$GPHDT,,T*1B
$GNGGA,040106.600,2500.8050500,N,12132.4304800,E,2,57,0.48,6.78,M,15.25,M,4,3335*45
$GNRMC,040106.600,A,2500.8050500,N,12132.4304800,E,0.01,236.57,270623,,,D,V*0B
$GPHDT,,T*1B
$GNGGA,040106.800,2500.8050600,N,12132.4305000,E,2,56,0.50,6.82,M,15.25,M,4,3335*4C
$GNRMC,040106.800,A,2500.8050600,N,12132.4305000,E,0.00,236.57,270623,,,D,V*0E
$GPHDT,,T*1B
$GNGSA,A,3,19,195,196,17,199,06,194,09,20,11,04,14,0.93,0.50,0.79,1*0C
$GNGSA,A,3,68,67,83,82,80,,,,,,,,0.93,0.50,0.79,2*05
$GNGSA,A,3,10,12,24,11,04,19,25,33,,,,,0.93,0.50,0.79,3*0D
$GNGSA,A,3,40,07,10,33,14,43,28,42,11,34,,,0.93,0.50,0.79,4*0E
$GPGSV,4,1,15,19,70,037,43,195,68,045,37,196,66,124,30,17,62,092,45,1*6D
$GPGSV,4,2,15,50,60,167,33,199,60,167,30,06,50,350,44,194,38,172,23,1*66
$GPGSV,4,3,15,09,35,097,42,20,34,236,23,11,30,292,17,04,20,066,28,1*63
$GPGSV,4,4,15,14,19,175,17,12,17,313,13,05,08,224,,1*57
$GPGSV,3,1,09,195,68,045,45,196,66,124,41,199,60,167,38,06,50,350,46,8*52
$GPGSV,3,2,09,194,38,172,16,09,35,097,45,11,30,292,25,04,20,066,34,8*5D
$GPGSV,3,3,09,14,19,175,19,8*52
$GLGSV,2,1,06,68,57,140,35,67,43,051,43,83,36,350,33,82,36,047,42,1*75
$GLGSV,2,2,06,73,22,281,17,80,19,224,15,1*77
$GAGSV,3,1,09,10,49,342,40,12,47,022,38,24,47,235,17,11,36,306,33,7*79
$GAGSV,3,2,09,04,33,150,38,19,32,079,30,25,27,302,20,33,12,069,17,7*7F
$GAGSV,3,3,09,09,03,191,,7*49
$GAGSV,2,1,07,10,49,342,44,12,47,022,40,11,36,306,29,04,33,150,31,1*75
$GAGSV,2,2,07,19,32,079,39,25,27,302,19,33,12,069,18,1*41
$GBGSV,4,1,13,40,81,155,28,07,78,235,31,10,72,280,28,33,69,139,36,1*7C
$GBGSV,4,2,13,14,59,070,42,43,52,066,45,28,41,330,43,42,36,048,43,1*7B
$GBGSV,4,3,13,11,30,087,42,41,28,198,,37,15,267,,23,15,216,,1*75
$GBGSV,4,4,13,34,14,103,23,1*45
$GBGSV,2,1,06,40,81,155,33,33,69,139,34,43,52,066,46,28,41,330,41,4*71
$GBGSV,2,2,06,42,36,048,45,34,14,103,23,4*7A
$GNGGA,040107.000,2500.8050700,N,12132.4305200,E,2,56,0.50,6.85,M,15.25,M,5,3335*40
$GNRMC,040107.000,A,2500.8050700,N,12132.4305200,E,0.00,236.57,270623,,,D,V*04
$GPHDT,,T*1B
$GNGGA,040107.200,2500.8050700,N,12132.4305300,E,2,56,0.50,6.89,M,15.25,M,5,3335*4F
$GNRMC,040107.200,A,2500.8050700,N,12132.4305300,E,0.00,236.57,270623,,,D,V*07
$GPHDT,,T*1B
$GNGGA,040107.400,2500.8050800,N,12132.4305500,E,2,56,0.50,6.91,M,15.25,M,5,3335*49
$GNRMC,040107.400,A,2500.8050800,N,12132.4305500,E,0.00,236.57,270623,,,D,V*08
$GPHDT,,T*1B
$GNGGA,040107.600,2500.8050900,N,12132.4305700,E,2,57,0.50,6.95,M,15.25,M,5,3335*4D
$GNRMC,040107.600,A,2500.8050900,N,12132.4305700,E,0.00,236.57,270623,,,D,V*09
$GPHDT,,T*1B
$GNGGA,040107.800,2500.8051000,N,12132.4305800,E,2,57,0.50,6.99,M,15.25,M,5,3335*48
$GNRMC,040107.800,A,2500.8051000,N,12132.4305800,E,0.00,236.57,270623,,,D,V*00
$GPHDT,,T*1B
$GNGSA,A,3,19,195,196,17,199,06,194,09,20,11,04,14,0.93,0.50,0.79,1*0C
$GNGSA,A,3,68,67,83,82,80,,,,,,,,0.93,0.50,0.79,2*05
$GNGSA,A,3,10,12,24,11,04,19,25,33,,,,,0.93,0.50,0.79,3*0D
$GNGSA,A,3,40,07,10,33,14,43,28,42,11,34,,,0.93,0.50,0.79,4*0E
$GPGSV,4,1,15,19,70,037,43,195,68,045,37,196,66,124,30,17,62,092,45,1*6D
$GPGSV,4,2,15,50,60,167,33,199,60,167,30,06,50,350,44,194,38,172,23,1*66
$GPGSV,4,3,15,09,35,097,42,20,34,236,22,11,30,292,20,04,20,066,29,1*67
$GPGSV,4,4,15,14,19,175,17,12,17,313,15,05,08,224,,1*51
$GPGSV,3,1,09,195,68,045,45,196,66,124,41,199,60,167,38,06,50,350,46,8*52
$GPGSV,3,2,09,194,38,172,15,09,35,097,45,11,30,292,26,04,20,066,34,8*5D
$GPGSV,3,3,09,14,19,175,19,8*52
$GLGSV,2,1,06,68,57,140,35,67,43,051,43,83,36,350,33,82,36,047,42,1*75
$GLGSV,2,2,06,73,22,281,17,80,19,224,15,1*77
$GAGSV,3,1,09,10,49,342,40,12,47,022,38,24,47,235,16,11,36,306,33,7*78
$GAGSV,3,2,09,04,33,150,38,19,32,079,31,25,27,302,21,33,12,069,17,7*7F
$GAGSV,3,3,09,09,03,191,,7*49
$GAGSV,2,1,08,10,49,342,44,12,47,022,41,24,47,235,17,11,36,306,29,1*7E
$GAGSV,2,2,08,04,33,150,31,19,32,079,39,25,27,302,19,33,12,069,18,1*7C
$GBGSV,4,1,13,40,81,155,27,07,78,235,31,10,72,280,27,33,69,139,37,1*7D
$GBGSV,4,2,13,14,59,070,42,43,52,066,45,28,41,330,43,42,36,048,43,1*7B
$GBGSV,4,3,13,11,30,087,42,41,28,198,,37,15,267,,23,15,216,,1*75
$GBGSV,4,4,13,34,14,103,20,1*46
$GBGSV,2,1,06,40,81,155,33,33,69,139,34,43,52,066,46,28,41,330,41,4*71
$GBGSV,2,2,06,42,36,048,45,34,14,103,23,4*7A
$GNGGA,040108.000,2500.8051000,N,12132.4306000,E,2,57,0.50,7.02,M,15.25,M,6,3335*44
$GNRMC,040108.000,A,2500.8051000,N,12132.4306000,E,0.00,236.57,270623,,,D,V*0C
$GPHDT,,T*1B
$GNGGA,040108.200,2500.8051200,N,12132.4306300,E,2,56,0.50,7.06,M,15.25,M,6,3335*42
$GNRMC,040108.200,A,2500.8051200,N,12132.4306300,E,0.00,236.57,270623,,,D,V*0F
$GPHDT,,T*1B
$GNGGA,040108.400,2500.8051300,N,12132.4306600,E,2,57,0.48,7.09,M,15.25,M,6,3335*47
$GNRMC,040108.400,A,2500.8051300,N,12132.4306600,E,0.00,236.57,270623,,,D,V*0D
$GPHDT,,T*1B
$GNGGA,040108.600,2500.8051500,N,12132.4306900,E,2,57,0.48,7.13,M,15.25,M,5,3335*44
$GNRMC,040108.600,A,2500.8051500,N,12132.4306900,E,0.00,236.57,270623,,,D,V*06
$GPHDT,,T*1B
$GNGGA,040108.800,2500.8051600,N,12132.4307100,E,2,57,0.48,7.18,M,15.25,M,5,3335*4B
$GNRMC,040108.800,A,2500.8051600,N,12132.4307100,E,0.00,236.57,270623,,,D,V*02
$GPHDT,,T*1B
$GNGSA,A,3,19,195,196,17,199,06,194,09,20,11,04,14,0.90,0.48,0.76,1*09
$GNGSA,A,3,68,67,82,83,73,80,,,,,,,0.90,0.48,0.76,2*04
$GNGSA,A,3,10,24,12,11,04,19,25,33,,,,,0.90,0.48,0.76,3*08
$GNGSA,A,3,40,07,10,33,14,43,28,42,11,34,,,0.90,0.48,0.76,4*0B
$GPGSV,4,1,15,19,70,037,43,195,68,045,37,196,66,124,30,17,62,092,45,1*6D
$GPGSV,4,2,15,50,60,167,33,199,60,167,31,06,50,350,44,194,38,172,22,1*66
$GPGSV,4,3,15,09,35,097,42,20,34,236,20,11,30,292,21,04,20,066,29,1*64
$GPGSV,4,4,15,14,19,175,17,12,17,313,15,05,08,224,,1*51
$GPGSV,3,1,09,195,68,045,45,196,66,124,41,199,60,167,38,06,50,350,46,8*52
$GPGSV,3,2,09,194,38,172,14,09,35,097,45,11,30,292,27,04,20,066,34,8*5D
$GPGSV,3,3,09,14,19,175,19,8*52
$GLGSV,2,1,08,68,57,140,34,67,43,051,43,82,36,047,42,83,36,350,33,1*7A
$GLGSV,2,2,08,73,21,281,17,80,19,224,16,69,18,184,,74,06,322,,1*74
$GAGSV,3,1,09,10,49,342,40,24,47,235,15,12,47,022,38,11,36,306,33,7*7B
$GAGSV,3,2,09,04,33,150,38,19,32,079,31,25,27,302,21,33,12,069,17,7*7F
$GAGSV,3,3,09,09,03,191,,7*49
$GAGSV,2,1,08,10,49,342,44,12,47,022,41,24,47,235,18,11,36,306,29,1*71
$GAGSV,2,2,08,04,33,150,31,19,32,079,39,25,27,302,19,33,12,069,18,1*7C
$GBGSV,4,1,13,40,81,155,29,07,78,235,31,10,72,280,25,33,69,139,37,1*71
$GBGSV,4,2,13,14,59,070,42,43,52,066,45,28,41,330,43,42,36,048,43,1*7B
$GBGSV,4,3,13,11,30,087,42,41,28,198,,23,15,216,,37,15,267,,1*75
$GBGSV,4,4,13,34,14,103,20,1*46
$GBGSV,2,1,06,40,81,155,33,33,69,139,35,43,52,066,46,28,41,330,41,4*70
$GBGSV,2,2,06,42,36,048,45,34,14,103,25,4*7C
$GNGGA,040109.000,2500.8051700,N,12132.4307400,E,2,56,0.48,7.22,M,15.25,M,6,3335*4D
$GNRMC,040109.000,A,2500.8051700,N,12132.4307400,E,0.00,236.57,270623,,,D,V*0F
$GPHDT,,T*1B
$GNGGA,040109.200,2500.8051800,N,12132.4307600,E,2,56,0.48,7.25,M,15.25,M,6,3335*45
$GNRMC,040109.200,A,2500.8051800,N,12132.4307600,E,0.00,236.57,270623,,,D,V*00
$GPHDT,,T*1B
$GNGGA,040109.400,2500.8051900,N,12132.4307900,E,2,56,0.48,7.31,M,15.25,M,6,3335*48
$GNRMC,040109.400,A,2500.8051900,N,12132.4307900,E,0.00,236.57,270623,,,D,V*08
$GPHDT,,T*1B
$GNGGA,040109.600,2500.8052100,N,12132.4308200,E,2,56,0.48,7.34,M,15.25,M,6,3335*40
$GNRMC,040109.600,A,2500.8052100,N,12132.4308200,E,0.00,236.57,270623,,,D,V*05
$GPHDT,,T*1B
$GNGGA,040109.800,2500.8052100,N,12132.4308500,E,2,55,0.49,7.38,M,15.25,M,6,3335*47
$GNRMC,040109.800,A,2500.8052100,N,12132.4308500,E,0.01,236.57,270623,,,D,V*0D
$GPHDT,,T*1B
