$FW : RTK35X,V1.1X0314AS,Lib20210517,1*54
$Tool : LOCOSYS , GNSS Firebird , v1.0.0.19*39
$---------------------------------------------------*2D
49,342,44,12,47,022,39,11,36,306,30,04,33,150,31,1*72
$GAGSV,2,2,06,19,32,079,36,25,27,302,15,1*76
$GBGSV,4,1,13,40,81,155,32,07,78,234,27,10,72,280,23,33,70,138,34,1*71
$GBGSV,4,2,13,14,59,069,41,43,52,066,44,28,42,330,42,42,36,048,44,1*74
$GBGSV,4,3,13,11,30,087,43,41,28,198,,23,15,216,,37,14,267,,1*75
$GBGSV,4,4,13,34,14,103,19,1*4C
$GBGSV,2,1,06,40,81,155,34,33,70,138,33,43,52,066,44,28,42,330,41,4*79
$GBGSV,2,2,06,42,36,048,43,34,14,103,24,4*7B
$GNGGA,040119.000,2500.8055100,N,12132.4319300,E,2,55,0.49,8.95,M,15.25,M,14,3335*74
$GNRMC,040119.000,A,2500.8055100,N,12132.4319300,E,0.00,236.57,270623,,,D,V*04
$GPHDT,,T*1B
$GNGGA,040119.200,2500.8055200,N,12132.4319600,E,2,54,0.51,8.97,M,15.25,M,14,3335*7A
$GNRMC,040119.200,A,2500.8055200,N,12132.4319600,E,0.00,236.57,270623,,,D,V*00
$GPHDT,,T*1B
$GNGGA,040119.400,2500.8055400,N,12132.4319800,E,2,55,0.49,8.99,M,15.25,M,14,3335*72
$GNRMC,040119.400,A,2500.8055400,N,12132.4319800,E,0.00,236.57,270623,,,D,V*0E
$GPHDT,,T*1B
$GNGGA,040119.600,2500.8055500,N,12132.4320000,E,2,55,0.49,9.01,M,15.25,M,14,3335*73
$GNRMC,040119.600,A,2500.8055500,N,12132.4320000,E,0.00,236.57,270623,,,D,V*0F
$GPHDT,,T*1B
$GNGGA,040119.800,2500.8055600,N,12132.4320300,E,2,54,0.51,9.04,M,15.25,M,14,3335*70
$GNRMC,040119.800,A,2500.8055600,N,12132.4320300,E,0.00,236.57,270623,,,D,V*01
$GPHDT,,T*1B
$GNGSA,A,3,19,195,196,17,199,06,09,20,11,04,12,,0.91,0.51,0.76,1*3A
$GNGSA,A,3,68,67,82,83,73,80,,,,,,,0.91,0.51,0.76,2*0D
$GNGSA,A,3,10,12,24,11,04,19,25,33,,,,,0.91,0.51,0.76,3*01
$GNGSA,A,3,40,07,10,33,14,43,28,42,11,34,,,0.91,0.51,0.76,4*02
$GPGSV,4,1,15,19,70,037,45,195,68,045,37,196,66,124,28,17,62,092,44,1*63
$GPGSV,4,2,15,50,60,167,27,199,60,167,24,06,50,350,45,194,38,172,18,1*6F
$GPGSV,4,3,15,09,35,097,43,20,34,236,12,11,30,292,24,04,20,066,26,1*6E
$GPGSV,4,4,15,14,19,175,19,12,17,313,14,05,08,224,,1*5E
$GPGSV,3,1,09,195,68,045,46,196,66,124,39,199,60,167,39,06,50,350,46,8*5F
$GPGSV,3,2,09,194,38,172,15,09,35,097,44,11,30,292,31,04,20,066,31,8*5F
$GPGSV,3,3,09,14,19,175,14,8*5F
$GLGSV,2,1,06,68,57,140,31,67,43,051,43,82,36,048,43,83,36,350,33,1*7F
$GLGSV,2,2,06,73,21,281,18,80,18,224,17,1*78
$GAGSV,2,1,08,10,49,342,42,12,47,022,39,24,47,235,18,11,36,306,30,7*76
$GAGSV,2,2,08,04,33,150,35,19,32,079,33,25,27,302,19,33,12,069,18,7*74
$GAGSV,2,1,05,10,49,342,44,12,47,022,38,11,36,306,29,04,33,150,31,1*78
$GAGSV,2,2,05,19,32,079,37,1*43
$GBGSV,4,1,13,40,81,156,32,07,78,234,24,10,72,280,23,33,70,138,35,1*70
$GBGSV,4,2,13,14,59,069,40,43,52,066,44,28,42,330,42,42,36,048,43,1*72
$GBGSV,4,3,13,11,30,087,43,41,28,198,,23,15,216,,37,14,267,,1*75
$GBGSV,4,4,13,34,14,103,22,1*44
$GBGSV,2,1,06,40,81,156,34,33,70,138,33,43,52,066,44,28,42,330,41,4*7A
$GBGSV,2,2,06,42,36,048,43,34,14,103,24,4*7B
$GNGGA,040120.000,2500.8055700,N,12132.4320500,E,2,53,0.51,9.07,M,15.25,M,15,3335*70
$GNRMC,040120.000,A,2500.8055700,N,12132.4320500,E,0.00,236.57,270623,,,D,V*04
$GPHDT,,T*1B
$GNGGA,040120.200,2500.8055800,N,12132.4320800,E,2,53,0.51,9.09,M,15.25,M,15,3335*7E
$GNRMC,040120.200,A,2500.8055800,N,12132.4320800,E,0.00,236.57,270623,,,D,V*04
$GPHDT,,T*1B
$GNGGA,040120.400,2500.8055900,N,12132.4321000,E,2,52,0.52,9.11,M,15.25,M,15,3335*7B
$GNRMC,040120.400,A,2500.8055900,N,12132.4321000,E,0.00,236.57,270623,,,D,V*0A
$GPHDT,,T*1B
$GNGGA,040120.600,2500.8056000,N,12132.4321300,E,2,52,0.52,9.13,M,15.25,M,15,3335*72
$GNRMC,040120.600,A,2500.8056000,N,12132.4321300,E,0.00,236.57,270623,,,D,V*01
$GPHDT,,T*1B
$GNGGA,040120.800,2500.8056200,N,12132.4321500,E,2,52,0.52,9.16,M,15.25,M,15,3335*7D
$GNRMC,040120.800,A,2500.8056200,N,12132.4321500,E,0.00,236.57,270623,,,D,V*0B
$GPHDT,,T*1B
$GNGSA,A,3,19,195,196,17,199,06,09,11,04,194,,,0.94,0.51,0.79,1*0D
$GNGSA,A,3,68,67,82,83,73,80,,,,,,,0.94,0.51,0.79,2*07
$GNGSA,A,3,10,12,24,11,04,19,25,33,,,,,0.94,0.51,0.79,3*0B
$GNGSA,A,3,40,07,10,33,14,43,28,42,11,34,,,0.94,0.51,0.79,4*08
$GPGSV,4,1,14,19,70,037,45,195,68,045,37,196,66,124,28,17,62,092,44,1*62
$GPGSV,4,2,14,50,60,167,29,199,60,167,26,06,50,350,45,194,38,172,18,1*62
$GPGSV,4,3,14,09,35,097,44,20,34,236,12,11,30,292,21,04,20,066,27,1*6C
$GPGSV,4,4,14,14,19,175,19,12,17,313,15,1*67
$GPGSV,2,1,08,195,68,045,46,196,66,124,39,199,60,167,39,06,50,350,46,8*5F
$GPGSV,2,2,08,194,38,172,15,09,35,097,44,11,30,292,32,04,20,066,32,8*5F
$GLGSV,2,1,07,68,57,140,31,67,43,051,43,82,36,048,42,83,36,350,33,1*7F
$GLGSV,2,2,07,73,21,281,15,80,18,224,18,69,18,184,,1*40
$GAGSV,2,1,08,10,49,342,41,12,47,022,39,24,47,235,17,11,36,306,30,7*7A
$GAGSV,2,2,08,04,33,150,35,19,32,079,32,25,27,302,19,33,12,069,18,7*75
$GAGSV,2,1,05,10,49,342,44,12,47,022,38,11,36,306,30,04,33,150,31,1*70
$GAGSV,2,2,05,19,32,079,37,1*43
$GBGSV,4,1,13,40,81,156,33,07,78,234,26,10,72,280,22,33,70,138,34,1*73
$GBGSV,4,2,13,14,59,069,40,43,52,066,44,13,48,264,,28,42,330,42,1*74
$GBGSV,4,3,13,42,36,048,43,11,30,087,43,41,28,198,,34,14,103,20,1*7D
$GBGSV,4,4,13,37,14,267,,1*46
$GBGSV,2,1,06,40,81,156,34,33,70,138,33,43,52,066,44,28,42,330,41,4*7A
$GBGSV,2,2,06,42,36,048,43,34,14,103,23,4*7C
$GNGGA,040121.000,2500.8056300,N,12132.4321700,E,1,52,0.51,9.19,M,15.25,M,16,3335*7B
$GNRMC,040121.000,A,2500.8056300,N,12132.4321700,E,0.00,236.57,270623,,,A,V*04
$GPHDT,,T*1B
$GNGGA,040121.200,2500.8056300,N,12132.4322000,E,1,51,0.54,9.21,M,15.25,M,16,3335*70
$GNRMC,040121.200,A,2500.8056300,N,12132.4322000,E,0.00,236.57,270623,,,A,V*02
$GPHDT,,T*1B
$GNGGA,040121.400,2500.8056300,N,12132.4322200,E,1,51,0.54,9.25,M,15.25,M,16,3335*70
$GNRMC,040121.400,A,2500.8056300,N,12132.4322200,E,0.00,236.57,270623,,,A,V*06
$GPHDT,,T*1B
$GNGGA,040121.600,2500.8056400,N,12132.4322400,E,1,51,0.54,9.27,M,15.25,M,16,3335*71
$GNRMC,040121.600,A,2500.8056400,N,12132.4322400,E,0.00,236.57,270623,,,A,V*05
$GPHDT,,T*1B
$GNGGA,040121.800,2500.8056600,N,12132.4322600,E,1,52,0.51,9.31,M,15.25,M,16,3335*7E
$GNRMC,040121.800,A,2500.8056600,N,12132.4322600,E,0.01,236.57,270623,,,A,V*0A
$GPHDT,,T*1B
$GNGSA,A,3,19,195,196,17,199,06,194,09,11,04,,,0.94,0.51,0.79,1*0D
$GNGSA,A,3,68,67,82,83,73,80,,,,,,,0.94,0.51,0.79,2*07
$GNGSA,A,3,10,24,12,11,04,19,25,33,,,,,0.94,0.51,0.79,3*0B
$GNGSA,A,3,40,07,10,33,14,43,28,42,11,34,,,0.94,0.51,0.79,4*08
$GPGSV,4,1,15,19,70,037,45,195,68,045,35,196,66,124,28,17,62,092,44,1*61
$GPGSV,4,2,15,50,60,167,28,199,60,167,26,06,50,350,45,194,38,172,20,1*69
$GPGSV,4,3,15,09,35,097,44,20,34,236,13,11,30,292,21,04,20,066,28,1*63
$GPGSV,4,4,15,14,19,175,18,12,17,313,18,05,08,224,,1*53
$GPGSV,2,1,08,195,68,045,46,196,66,124,39,199,60,167,39,06,50,350,46,8*5F
$GPGSV,2,2,08,194,38,172,15,09,35,097,44,11,30,292,32,04,20,066,33,8*5E
$GLGSV,2,1,08,68,57,140,32,67,43,051,43,82,36,048,42,83,36,350,32,1*72
$GLGSV,2,2,08,73,21,281,13,80,18,224,18,69,18,184,,74,06,322,,1*7F
$GAGSV,3,1,09,10,49,342,42,24,47,235,17,12,47,022,39,11,36,306,30,7*79
$GAGSV,3,2,09,04,33,150,34,19,32,079,33,25,27,302,19,33,12,069,18,7*75
$GAGSV,3,3,09,09,03,191,,7*49
$GAGSV,2,1,05,10,49,342,44,12,47,022,38,11,36,306,31,04,33,150,31,1*71
$GAGSV,2,2,05,19,32,079,37,1*43
$GBGSV,4,1,13,40,81,156,33,07,78,234,27,10,72,280,23,33,70,138,34,1*73
$GBGSV,4,2,13,14,59,069,40,43,52,066,44,28,42,330,42,42,36,048,43,1*72
$GBGSV,4,3,13,11,30,087,43,41,28,198,,23,15,216,,34,14,103,21,1*74
$GBGSV,4,4,13,37,14,267,,1*46
$GBGSV,2,1,06,40,81,156,34,33,70,138,32,43,52,066,44,28,42,330,41,4*7B
$GBGSV,2,2,06,42,36,048,43,34,14,103,23,4*7C
$GNGGA,040122.000,2500.8056600,N,12132.4322900,E,1,52,0.51,9.34,M,15.25,M,17,3335*7E
$GNRMC,040122.000,A,2500.8056600,N,12132.4322900,E,0.00,236.57,270623,,,A,V*0F
$GPHDT,,T*1B
$GNGGA,040122.200,2500.8056700,N,12132.4323000,E,1,52,0.51,9.36,M,15.25,M,17,3335*77
$GNRMC,040122.200,A,2500.8056700,N,12132.4323000,E,0.00,236.57,270623,,,A,V*04
$GPHDT,,T*1B
$GNGGA,040122.400,2500.8056600,N,12132.4323200,E,1,51,0.54,9.40,M,15.25,M,17,3335*75
$GNRMC,040122.400,A,2500.8056600,N,12132.4323200,E,0.00,236.57,270623,,,A,V*01
$GPHDT,,T*1B
$GNGGA,040122.600,2500.8056600,N,12132.4323300,E,1,52,0.51,9.44,M,15.25,M,17,3335*74
$GNRMC,040122.600,A,2500.8056600,N,12132.4323300,E,0.00,236.57,270623,,,A,V*02
$GPHDT,,T*1B
$GNGGA,040122.800,2500.8056700,N,12132.4323500,E,1,52,0.51,9.47,M,15.25,M,17,3335*7E
$GNRMC,040122.800,A,2500.8056700,N,12132.4323500,E,0.00,236.57,270623,,,A,V*0B
$GPHDT,,T*1B
$GNGSA,A,3,19,195,196,17,199,06,194,09,11,04,12,,0.91,0.51,0.76,1*04
$GNGSA,A,3,68,67,83,82,73,80,,,,,,,0.91,0.51,0.76,2*0D
$GNGSA,A,3,10,12,24,11,04,19,25,33,,,,,0.91,0.51,0.76,3*01
$GNGSA,A,3,40,07,10,33,14,43,28,42,11,34,,,0.91,0.51,0.76,4*02
$GPGSV,4,1,15,19,70,037,45,195,68,045,35,196,66,124,29,17,62,092,44,1*60
$GPGSV,4,2,15,50,60,167,29,199,60,167,25,06,50,350,45,194,38,172,20,1*6B
$GPGSV,4,3,15,09,35,097,44,20,34,236,13,11,30,292,21,04,20,066,29,1*62
$GPGSV,4,4,15,14,19,175,19,12,17,313,20,05,08,224,,1*59
$GPGSV,2,1,08,195,68,045,46,196,66,124,39,199,60,167,39,06,50,350,46,8*5F
$GPGSV,2,2,08,194,38,172,13,09,35,097,44,11,30,292,32,04,20,066,32,8*59
$GLGSV,2,1,06,68,57,140,30,67,43,051,43,83,36,350,32,82,36,048,42,1*7E
$GLGSV,2,2,06,73,21,281,13,80,18,224,18,1*7C
$GAGSV,3,1,09,10,49,342,42,12,47,022,39,24,47,235,17,11,36,306,30,7*79
$GAGSV,3,2,09,04,33,150,34,19,32,079,33,25,27,302,17,33,12,069,19,7*7A
$GAGSV,3,3,09,09,03,191,,7*49
$GAGSV,2,1,05,10,49,342,44,12,47,022,39,11,36,306,31,04,33,150,31,1*70
$GAGSV,2,2,05,19,32,079,36,1*42
$GBGSV,4,1,14,40,81,156,33,07,78,234,29,10,72,280,24,33,70,138,34,1*7D
$GBGSV,4,2,14,14,59,069,40,08,57,277,,43,52,066,44,13,48,264,,1*71
$GBGSV,4,3,14,28,42,330,42,42,36,048,44,11,30,087,43,41,28,198,,1*75
$GBGSV,4,4,14,23,15,216,,34,14,103,22,1*73
$GBGSV,2,1,06,40,81,156,34,33,70,138,31,43,52,066,44,28,42,330,41,4*78
$GBGSV,2,2,06,42,36,048,44,34,14,103,24,4*7C
$GNGGA,040123.000,2500.8056600,N,12132.4323700,E,2,53,0.51,9.51,M,15.25,M,18,3335*7E
$GNRMC,040123.000,A,2500.8056600,N,12132.4323700,E,0.00,236.57,270623,,,D,V*04
$PAIR010,0,1,2268,187301*38
$GPHDT,,T*1B
$GNGGA,040123.200,2500.8056600,N,12132.4323900,E,2,52,0.53,9.56,M,15.25,M,18,3335*76
$GNRMC,040123.200,A,2500.8056600,N,12132.4323900,E,0.00,236.57,270623,,,D,V*08
$GPHDT,,T*1B
$GNGGA,040123.400,2500.8056700,N,12132.4324100,E,2,52,0.53,9.61,M,15.25,M,18,3335*7A
$GNRMC,040123.400,A,2500.8056700,N,12132.4324100,E,0.00,236.57,270623,,,D,V*00
$GPHDT,,T*1B
$GNGGA,040123.600,2500.8056700,N,12132.4324200,E,2,53,0.51,9.64,M,15.25,M,18,3335*7D
$GNRMC,040123.600,A,2500.8056700,N,12132.4324200,E,0.00,236.57,270623,,,D,V*01
$GPHDT,,T*1B
$GNGGA,040123.800,2500.8056700,N,12132.4324400,E,2,51,0.54,9.68,M,15.25,M,18,3335*7E
$GNRMC,040123.800,A,2500.8056700,N,12132.4324400,E,0.00,236.57,270623,,,D,V*09
$GPHDT,,T*1B
$GNGSA,A,3,19,195,196,17,199,06,09,11,04,12,,,0.96,0.54,0.79,1*35
$GNGSA,A,3,68,67,82,83,80,,,,,,,,0.96,0.54,0.79,2*04
$GNGSA,A,3,10,24,12,11,04,19,25,33,,,,,0.96,0.54,0.79,3*0C
$GNGSA,A,3,40,07,10,33,14,43,28,42,11,34,,,0.96,0.54,0.79,4*0F
$GPGSV,4,1,15,19,70,037,45,195,68,045,35,196,66,124,29,17,62,092,44,1*60
$GPGSV,4,2,15,50,60,167,29,199,60,167,26,06,50,350,45,194,38,172,20,1*68
$GPGSV,4,3,15,09,35,097,44,20,34,236,13,11,30,292,17,04,20,066,30,1*6F
$GPGSV,4,4,15,14,19,175,19,12,17,313,19,05,08,224,,1*53
$GPGSV,2,1,08,195,68,045,46,196,66,124,39,199,60,167,38,06,50,350,47,8*5F
$GPGSV,2,2,08,194,38,172,12,09,35,097,44,11,30,292,32,04,20,066,31,8*5B
$GLGSV,2,1,08,68,57,140,29,67,43,051,43,82,36,048,42,83,36,350,32,1*78
$GLGSV,2,2,08,73,21,281,13,80,18,224,17,69,18,184,,74,06,322,,1*70
$GAGSV,3,1,09,10,49,342,42,24,47,235,15,12,47,022,39,11,36,306,30,7*7B
$GAGSV,3,2,09,04,33,150,34,19,32,079,33,25,27,302,18,33,12,069,19,7*75
$GAGSV,3,3,09,09,03,191,,7*49
$GAGSV,2,1,05,10,49,342,44,12,47,022,39,11,36,306,31,04,33,150,29,1*79
$GAGSV,2,2,05,19,32,079,36,1*42
$GBGSV,4,1,13,40,81,156,34,07,78,234,29,10,72,280,26,33,70,138,35,1*7E
$GBGSV,4,2,13,14,59,069,41,43,52,066,44,28,42,330,42,42,36,048,44,1*74
$GBGSV,4,3,13,11,30,087,44,41,28,198,,23,15,216,,34,14,103,21,1*73
$GBGSV,4,4,13,37,14,267,,1*46
$GBGSV,2,1,06,40,81,156,34,33,70,138,30,43,52,066,44,28,42,330,41,4*79
$GBGSV,2,2,06,42,36,048,44,34,14,103,24,4*7C
$GNGGA,040124.000,2500.8056700,N,12132.4324600,E,2,51,0.54,9.73,M,15.25,M,19,3335*78
$GNRMC,040124.000,A,2500.8056700,N,12132.4324600,E,0.00,236.57,270623,,,D,V*04
$GPHDT,,T*1B
$GNGGA,040124.200,2500.8056700,N,12132.4324700,E,2,51,0.54,9.77,M,15.25,M,19,3335*7F
$GNRMC,040124.200,A,2500.8056700,N,12132.4324700,E,0.01,236.57,270623,,,D,V*06
$GPHDT,,T*1B
$GNGGA,040124.400,2500.8056700,N,12132.4324800,E,2,51,0.54,9.82,M,15.25,M,19,3335*7C
$GNRMC,040124.400,A,2500.8056700,N,12132.4324800,E,0.00,236.57,270623,,,D,V*0E
$GPHDT,,T*1B
$GNGGA,040124.600,2500.8056800,N,12132.4325100,E,2,51,0.54,9.87,M,15.25,M,19,3335*7C
$GNRMC,040124.600,A,2500.8056800,N,12132.4325100,E,0.01,236.57,270623,,,D,V*0A
$GPHDT,,T*1B
$GNGGA,040124.800,2500.8056900,N,12132.4325300,E,2,51,0.54,9.91,M,15.25,M,19,3335*76
$GNRMC,040124.800,A,2500.8056900,N,12132.4325300,E,0.01,236.57,270623,,,D,V*07
$GPHDT,,T*1B
$GNGSA,A,3,19,195,196,17,199,06,09,11,04,12,194,,0.94,0.52,0.79,1*0D
$GNGSA,A,3,68,67,82,83,80,,,,,,,,0.94,0.52,0.79,2*00
$GNGSA,A,3,10,24,12,11,04,19,25,33,,,,,0.94,0.52,0.79,3*08
$GNGSA,A,3,40,07,10,33,14,43,28,42,11,34,,,0.94,0.52,0.79,4*0B
$GPGSV,4,1,15,19,70,037,45,195,68,045,35,196,66,124,29,17,62,092,44,1*60
$GPGSV,4,2,15,50,60,167,30,199,60,167,27,06,50,350,45,194,38,172,18,1*6A
$GPGSV,4,3,15,09,35,097,43,20,34,236,17,11,30,292,17,04,20,065,30,1*6F
$GPGSV,4,4,15,14,19,175,20,12,17,313,20,05,08,224,,1*53
$GPGSV,2,1,08,195,68,045,46,196,66,124,39,199,60,167,40,06,50,350,47,8*50
$GPGSV,2,2,08,194,38,172,12,09,35,097,44,11,30,292,32,04,20,065,31,8*58
$GLGSV,2,1,08,68,57,140,29,67,43,051,43,82,36,048,42,83,36,350,32,1*78
$GLGSV,2,2,08,73,21,281,14,80,18,224,16,69,18,184,,74,06,322,,1*76
$GAGSV,3,1,09,10,49,342,42,24,47,235,15,12,47,022,39,11,36,306,30,7*7B
$GAGSV,3,2,09,04,33,150,33,19,32,079,32,25,27,302,20,33,12,069,19,7*78
$GAGSV,3,3,09,09,03,191,,7*49
$GAGSV,2,1,05,10,49,342,44,12,47,022,39,11,36,306,31,04,33,150,30,1*71
$GAGSV,2,2,05,19,32,079,36,1*42
$GBGSV,4,1,13,40,81,156,32,07,78,234,29,10,72,280,26,33,70,138,34,1*79
$GBGSV,4,2,13,14,59,069,41,43,52,066,44,28,42,330,42,42,36,048,44,1*74
$GBGSV,4,3,13,11,30,087,44,41,28,198,,23,15,216,,34,14,103,21,1*73
$GBGSV,4,4,13,37,14,267,,1*46
$GBGSV,2,1,06,40,81,156,34,33,70,138,31,43,52,066,44,28,42,330,41,4*78
$GBGSV,2,2,06,42,36,048,44,34,14,103,24,4*7C
$GNGGA,040125.000,2500.8057000,N,12132.4325600,E,2,52,0.52,9.96,M,15.25,M,20,3335*7A
$GNRMC,040125.000,A,2500.8057000,N,12132.4325600,E,0.02,236.57,270623,,,D,V*00
$GPHDT,,T*1B
$GNGGA,040125.200,2500.8057100,N,12132.4325700,E,2,53,0.52,10.00,M,15.25,M,20,3335*4E
$GNRMC,040125.200,A,2500.8057100,N,12132.4325700,E,0.02,236.57,270623,,,D,V*02
$GPHDT,,T*1B
$GNGGA,040125.400,2500.8057200,N,12132.4325900,E,2,52,0.54,10.04,M,15.25,M,20,3335*46
$GNRMC,040125.400,A,2500.8057200,N,12132.4325900,E,0.02,236.57,270623,,,D,V*09
$GPHDT,,T*1B
$GNGGA,040125.600,2500.8057200,N,12132.4326000,E,2,53,0.54,10.09,M,15.25,M,20,3335*42
$GNRMC,040125.600,A,2500.8057200,N,12132.4326000,E,0.02,236.57,270623,,,D,V*01
$GPHDT,,T*1B
$GNGGA,040125.800,2500.8057200,N,12132.4326200,E,2,53,0.54,10.13,M,15.25,M,20,3335*45
$GNRMC,040125.800,A,2500.8057200,N,12132.4326200,E,0.02,236.57,270623,,,D,V*0D
$GPHDT,,T*1B
$GNGSA,A,3,19,195,196,17,199,06,09,11,04,12,194,,0.94,0.52,0.79,1*0D
$GNGSA,A,3,68,67,83,82,80,,,,,,,,0.94,0.52,0.79,2*00
$GNGSA,A,3,10,12,24,11,04,19,25,33,,,,,0.94,0.52,0.79,3*08
$GNGSA,A,3,40,07,10,33,14,43,28,42,11,34,,,0.94,0.52,0.79,4*0B
$GPGSV,4,1,15,19,70,037,45,195,68,045,33,196,66,124,29,17,62,092,44,1*66
$GPGSV,4,2,15,50,60,167,29,199,60,167,27,06,50,351,45,194,38,172,18,1*63
$GPGSV,4,3,15,09,35,097,43,20,34,236,16,11,30,292,17,04,20,065,30,1*6E
$GPGSV,4,4,15,14,19,175,20,12,17,313,21,05,08,224,,1*52
$GPGSV,2,1,08,195,68,045,46,196,66,124,39,199,60,167,40,06,50,351,47,8*51
$GPGSV,2,2,08,194,38,172,12,09,35,097,44,11,30,292,32,04,20,065,31,8*58
$GLGSV,2,1,06,68,57,140,29,67,43,051,43,83,36,350,33,82,36,048,42,1*77
$GLGSV,2,2,06,73,21,281,16,80,18,224,16,1*77
$GAGSV,3,1,09,10,49,342,42,12,47,022,39,24,47,235,14,11,36,306,30,7*7A
$GAGSV,3,2,09,04,33,150,34,19,32,079,33,25,27,302,19,33,12,069,19,7*74
$GAGSV,3,3,09,09,03,191,,7*49
$GAGSV,2,1,07,10,49,342,44,12,47,022,39,24,47,235,15,11,36,306,31,1*75
$GAGSV,2,2,07,04,33,150,28,19,32,079,36,33,12,069,19,1*4E
$GBGSV,4,1,13,40,81,156,32,07,78,234,29,10,72,280,25,33,70,138,34,1*7A
$GBGSV,4,2,13,14,59,069,41,43,52,066,44,28,42,330,40,42,36,048,44,1*76
$GBGSV,4,3,13,11,30,087,44,41,28,198,,23,15,216,,37,14,267,,1*72
$GBGSV,4,4,13,34,14,103,22,1*44
$GBGSV,2,1,06,40,81,156,34,33,70,138,31,43,52,066,44,28,42,330,41,4*78
$GBGSV,2,2,06,42,36,048,44,34,14,103,24,4*7C
$GNGGA,040126.000,2500.8057300,N,12132.4326300,E,2,54,0.52,10.16,M,15.25,M,21,3335*4B
$GNRMC,040126.000,A,2500.8057300,N,12132.4326300,E,0.02,236.57,270623,,,D,V*06
$GPHDT,,T*1B
$GNGGA,040126.200,2500.8057300,N,12132.4326500,E,2,54,0.52,10.20,M,15.25,M,21,3335*4A
$GNRMC,040126.200,A,2500.8057300,N,12132.4326500,E,0.03,236.57,270623,,,D,V*03
$GPHDT,,T*1B
$GNGGA,040126.400,2500.8057300,N,12132.4326600,E,2,54,0.52,10.25,M,15.25,M,21,3335*4A
$GNRMC,040126.400,A,2500.8057300,N,12132.4326600,E,0.03,236.57,270623,,,D,V*06
$GPHDT,,T*1B
$GNGGA,040126.600,2500.8057300,N,12132.4326800,E,2,54,0.51,10.29,M,15.25,M,21,3335*49
$GNRMC,040126.600,A,2500.8057300,N,12132.4326800,E,0.03,236.57,270623,,,D,V*0A
$GPHDT,,T*1B
$GNGGA,040126.800,2500.8057500,N,12132.4326900,E,2,54,0.51,10.32,M,15.25,M,21,3335*4A
$GNRMC,040126.800,A,2500.8057500,N,12132.4326900,E,0.03,236.57,270623,,,D,V*03
$GPHDT,,T*1B
$GNGSA,A,3,19,195,196,17,199,06,09,11,04,12,14,,0.91,0.51,0.75,1*3E
$GNGSA,A,3,68,67,82,83,80,,,,,,,,0.91,0.51,0.75,2*0A
$GNGSA,A,3,10,24,12,11,04,19,25,33,,,,,0.91,0.51,0.75,3*02
$GNGSA,A,3,40,07,10,33,14,43,28,42,11,34,,,0.91,0.51,0.75,4*01
$GPGSV,4,1,15,19,70,037,45,195,68,045,33,196,66,124,30,17,62,092,44,1*6E
$GPGSV,4,2,15,50,60,167,30,199,60,167,27,06,50,351,44,194,38,172,18,1*6A
$GPGSV,4,3,15,09,35,097,43,20,34,236,16,11,30,293,17,04,20,065,31,1*6E
$GPGSV,4,4,15,14,19,175,18,12,17,313,23,05,08,224,,1*5B
$GPGSV,2,1,08,195,68,045,46,196,66,124,39,199,60,167,38,06,50,351,47,8*5E
$GPGSV,2,2,08,09,35,097,45,11,30,293,32,04,20,065,32,14,19,175,17,8*63
$GLGSV,2,1,08,68,57,140,28,67,43,051,43,82,36,048,43,83,36,350,33,1*79
$GLGSV,2,2,08,73,21,281,18,80,18,224,16,69,18,184,,74,06,322,,1*7A
$GAGSV,3,1,09,10,49,342,42,24,47,235,13,12,47,022,39,11,36,306,30,7*7D
$GAGSV,3,2,09,04,33,150,34,19,32,079,33,25,27,302,19,33,12,069,19,7*74
$GAGSV,3,3,09,09,03,191,,7*49
$GAGSV,2,1,07,10,49,342,44,12,47,022,39,24,47,235,13,11,36,306,31,1*73
$GAGSV,2,2,07,04,33,150,30,19,32,079,36,33,12,069,19,1*47
$GBGSV,3,1,12,40,81,156,32,07,78,234,29,10,72,280,25,33,70,138,35,1*7D
$GBGSV,3,2,12,14,59,069,41,43,52,066,44,28,42,330,40,42,36,048,44,1*70
$GBGSV,3,3,12,11,30,087,44,23,15,216,,34,14,103,20,37,14,267,,1*79
$GBGSV,2,1,06,40,81,156,34,33,70,138,32,43,52,066,44,28,42,330,41,4*7B
$GBGSV,2,2,06,42,36,048,44,34,14,103,23,4*7B
$GNGGA,040127.000,2500.8057500,N,12132.4327100,E,2,54,0.51,10.38,M,15.25,M,22,3335*43
$GNRMC,040127.000,A,2500.8057500,N,12132.4327100,E,0.03,236.57,270623,,,D,V*03
$GPHDT,,T*1B
$GNGGA,040127.200,2500.8057600,N,12132.4327300,E,2,55,0.51,10.42,M,15.25,M,22,3335*4C
$GNRMC,040127.200,A,2500.8057600,N,12132.4327300,E,0.03,236.57,270623,,,D,V*00
$GPHDT,,T*1B
$GNGGA,040127.400,2500.8057800,N,12132.4327500,E,2,55,0.51,10.47,M,15.25,M,22,3335*47
$GNRMC,040127.400,A,2500.8057800,N,12132.4327500,E,0.03,236.57,270623,,,D,V*0E
$GPHDT,,T*1B
$GNGGA,040127.600,2500.8057900,N,12132.4327700,E,2,56,0.50,10.52,M,15.25,M,22,3335*40
$GNRMC,040127.600,A,2500.8057900,N,12132.4327700,E,0.04,236.57,270623,,,D,V*08
$GPHDT,,T*1B
$GNGGA,040127.800,2500.8058000,N,12132.4327800,E,2,56,0.50,10.56,M,15.25,M,22,3335*43
$GNRMC,040127.800,A,2500.8058000,N,12132.4327800,E,0.04,236.57,270623,,,D,V*0F
$GPHDT,,T*1B
$GNGSA,A,3,19,195,196,17,199,06,09,11,04,12,14,,0.88,0.50,0.73,1*31
$GNGSA,A,3,68,67,82,83,73,80,,,,,,,0.88,0.50,0.73,2*01
$GNGSA,A,3,10,12,24,11,04,19,25,33,,,,,0.88,0.50,0.73,3*0D
$GNGSA,A,3,40,07,10,33,14,43,28,42,11,34,,,0.88,0.50,0.73,4*0E
$GPGSV,4,1,15,19,70,038,45,195,68,045,35,196,66,124,31,17,62,092,44,1*66
$GPGSV,4,2,15,50,60,167,30,199,60,167,28,06,50,351,44,194,38,172,18,1*65
$GPGSV,4,3,15,09,35,097,43,20,34,236,13,11,30,293,17,04,20,065,31,1*6B
$GPGSV,4,4,15,14,19,175,18,12,17,313,24,05,08,224,,1*5C
$GPGSV,2,1,08,195,68,045,45,196,66,124,39,199,60,167,34,06,50,351,47,8*51
$GPGSV,2,2,08,09,35,097,45,11,30,293,31,04,20,065,31,14,19,175,17,8*63
$GLGSV,2,1,07,68,57,140,23,67,43,051,43,82,36,048,43,83,36,350,33,1*7D
$GLGSV,2,2,07,73,21,281,18,80,18,224,13,74,06,322,,1*4B
$GAGSV,3,1,09,10,49,342,42,12,47,022,39,24,47,235,14,11,36,306,28,7*73
$GAGSV,3,2,09,04,33,150,34,19,32,079,34,25,27,302,21,33,12,069,19,7*78
$GAGSV,3,3,09,09,03,191,,7*49
$GAGSV,2,1,08,10,49,342,45,12,47,022,39,24,47,235,16,11,36,306,30,1*79
$GAGSV,2,2,08,04,33,150,33,19,32,079,36,25,27,302,19,33,12,069,17,1*7E
$GBGSV,4,1,13,40,81,156,33,07,78,234,29,10,72,280,26,33,70,138,34,1*78
$GBGSV,4,2,13,14,59,069,42,43,52,066,44,28,42,330,39,42,36,048,44,1*7B
$GBGSV,4,3,13,11,30,087,43,41,28,198,,23,15,216,,37,14,267,,1*75
$GBGSV,4,4,13,34,14,103,22,1*44
$GBGSV,2,1,06,40,81,156,35,33,70,138,32,43,52,066,44,28,42,330,41,4*7A
$GBGSV,2,2,06,42,36,048,44,34,14,103,24,4*7C
$GNGGA,040128.000,2500.8058100,N,12132.4328100,E,2,56,0.50,10.60,M,15.25,M,23,3335*47
$GNRMC,040128.000,A,2500.8058100,N,12132.4328100,E,0.04,236.57,270623,,,D,V*0F
$GPHDT,,T*1B
$GNGGA,040128.200,2500.8058200,N,12132.4328200,E,2,56,0.50,10.64,M,15.25,M,23,3335*41
$GNRMC,040128.200,A,2500.8058200,N,12132.4328200,E,0.04,236.57,270623,,,D,V*0D
$GPHDT,,T*1B
$GNGGA,040128.400,2500.8058200,N,12132.4328400,E,2,56,0.50,10.68,M,15.25,M,23,3335*4D
$GNRMC,040128.400,A,2500.8058200,N,12132.4328400,E,0.04,236.57,270623,,,D,V*0D
$GPHDT,,T*1B
$GNGGA,040128.600,2500.8058400,N,12132.4328600,E,2,56,0.50,10.72,M,15.25,M,23,3335*40
$GNRMC,040128.600,A,2500.8058400,N,12132.4328600,E,0.04,236.57,270623,,,D,V*0B
$GPHDT,,T*1B
$GNGGA,040128.800,2500.8058500,N,12132.4328700,E,2,55,0.53,10.76,M,15.25,M,23,3335*4A
$GNRMC,040128.800,A,2500.8058500,N,12132.4328700,E,0.05,236.57,270623,,,D,V*04
$GPHDT,,T*1B
$GNGSA,A,3,19,195,196,17,199,06,09,11,04,12,14,,0.94,0.53,0.77,1*3B
$GNGSA,A,3,68,67,83,82,73,,,,,,,,0.94,0.53,0.77,2*03
$GNGSA,A,3,10,12,24,11,04,19,25,33,,,,,0.94,0.53,0.77,3*07
$GNGSA,A,3,40,07,10,33,14,43,28,42,11,34,,,0.94,0.53,0.77,4*04
$GPGSV,4,1,15,19,70,038,46,195,68,045,35,196,66,124,29,17,62,092,44,1*6C
$GPGSV,4,2,15,50,60,167,32,199,60,167,29,06,50,351,44,194,38,172,18,1*66
$GPGSV,4,3,15,09,35,097,43,20,34,236,16,11,30,293,19,04,20,065,32,1*63
$GPGSV,4,4,15,14,19,175,18,12,17,313,24,05,08,224,,1*5C
$GPGSV,2,1,08,195,68,045,45,196,66,124,39,199,60,167,37,06,50,351,46,8*53
$GPGSV,2,2,08,09,35,097,45,11,30,293,31,04,20,065,32,14,19,175,20,8*64
$GLGSV,2,1,06,68,57,140,26,67,43,051,43,83,36,350,33,82,36,048,43,1*79
$GLGSV,2,2,06,73,21,281,20,80,18,224,15,1*71
$GAGSV,3,1,09,10,49,342,42,12,47,022,39,24,47,235,16,11,36,306,29,7*70
$GAGSV,3,2,09,04,33,150,33,19,32,079,35,25,27,302,20,33,12,069,20,7*75
$GAGSV,3,3,09,09,03,191,,7*49
$GAGSV,2,1,08,10,49,342,45,12,47,022,39,24,47,235,16,11,36,306,29,1*71
$GAGSV,2,2,08,04,33,150,27,19,32,079,36,25,27,302,19,33,12,069,18,1*74
$GBGSV,4,1,13,40,81,156,32,07,78,234,28,10,72,280,26,33,70,138,35,1*79
$GBGSV,4,2,13,14,59,069,42,43,52,066,44,28,42,330,40,42,36,048,44,1*75
$GBGSV,4,3,13,11,30,087,43,41,28,198,,23,15,216,,37,14,267,,1*75
$GBGSV,4,4,13,34,14,103,20,1*46
$GBGSV,2,1,06,40,81,156,34,33,70,138,32,43,52,066,44,28,42,330,41,4*7B
$GBGSV,2,2,06,42,36,048,44,34,14,103,23,4*7B
$GNGGA,040129.000,2500.8058500,N,12132.4328800,E,2,55,0.53,10.80,M,15.25,M,24,3335*42
$GNRMC,040129.000,A,2500.8058500,N,12132.4328800,E,0.04,236.57,270623,,,D,V*03
$GPHDT,,T*1B
$GNGGA,040129.200,2500.8058500,N,12132.4328900,E,2,55,0.53,10.84,M,15.25,M,24,3335*45
$GNRMC,040129.200,A,2500.8058500,N,12132.4328900,E,0.04,236.57,270623,,,D,V*00
$GPHDT,,T*1B
$GNGGA,040129.400,2500.8058500,N,12132.4329000,E,2,55,0.53,10.89,M,15.25,M,24,3335*46
$GNRMC,040129.400,A,2500.8058500,N,12132.4329000,E,0.04,236.57,270623,,,D,V*0E
$GPHDT,,T*1B
$GNGGA,040129.600,2500.8058700,N,12132.4329100,E,1,54,0.54,10.92,M,15.25,M,24,3335*48
$GNRMC,040129.600,A,2500.8058700,N,12132.4329100,E,0.05,236.57,270623,,,A,V*0B
$GPHDT,,T*1B
$GNGGA,040129.800,2500.8058700,N,12132.4329200,E,1,54,0.54,10.96,M,15.25,M,24,3335*41
$GNRMC,040129.800,A,2500.8058700,N,12132.4329200,E,0.05,236.57,270623,,,A,V*06
$GPHDT,,T*1B
$GNGSA,A,3,19,195,196,17,199,06,09,11,04,12,14,,0.93,0.53,0.77,1*3C
$GNGSA,A,3,68,67,82,83,73,,,,,,,,0.93,0.53,0.77,2*04
$GNGSA,A,3,10,12,24,11,04,19,25,33,,,,,0.93,0.53,0.77,3*00
$GNGSA,A,3,40,07,10,33,14,43,28,42,11,34,,,0.93,0.53,0.77,4*03
$GPGSV,4,1,15,19,70,038,46,195,68,045,34,196,66,124,29,17,62,092,44,1*6D
$GPGSV,4,2,15,199,60,167,28,50,60,167,32,06,50,351,43,194,38,172,18,1*60
$GPGSV,4,3,15,09,35,097,43,20,34,236,14,11,30,293,20,04,20,065,32,1*6B
$GPGSV,4,4,15,14,19,175,18,12,17,313,26,05,08,224,,1*5E
$GPGSV,2,1,08,195,68,045,45,196,66,124,39,199,60,167,36,06,50,351,46,8*52
$GPGSV,2,2,08,09,35,097,45,11,30,293,31,04,20,065,33,14,19,175,22,8*67
$GLGSV,2,1,06,68,57,140,28,67,43,051,43,82,36,048,42,83,36,350,33,1*76
$GLGSV,2,2,06,73,21,281,20,80,18,224,14,1*70
$GAGSV,3,1,09,10,49,342,42,12,47,022,39,24,47,235,17,11,36,306,29,7*71
$GAGSV,3,2,09,04,33,150,35,19,32,079,35,25,27,302,19,33,12,069,21,7*78
$GAGSV,3,3,09,09,03,191,,7*49
$GAGSV,2,1,08,10,49,342,46,12,47,022,39,24,47,235,16,11,36,306,29,1*72
$GAGSV,2,2,08,04,33,150,31,19,32,079,37,25,27,302,17,33,12,069,19,1*7D
$GBGSV,4,1,14,40,81,156,28,07,78,234,27,10,72,280,25,33,70,138,35,1*79
$GBGSV,4,2,14,14,59,069,42,43,52,066,44,28,42,330,40,42,36,048,43,1*75
$GBGSV,4,3,14,11,30,087,43,41,28,198,,23,15,216,,37,14,267,,1*72
$GBGSV,4,4,14,34,14,103,22,27,03,302,,1*74
$GBGSV,2,1,06,40,81,156,34,33,70,138,32,43,52,066,44,28,42,330,42,4*78
$GBGSV,2,2,06,42,36,048,44,34,14,103,24,4*7C
$GNGGA,040130.000,2500.8058800,N,12132.4329300,E,2,55,0.53,10.99,M,15.25,M,25,3335*44
$GNRMC,040130.000,A,2500.8058800,N,12132.4329300,E,0.05,236.57,270623,,,D,V*0D
$GPHDT,,T*1B