$FW : RTK35X,V1.1X0314AS,Lib20210517,1*54
$Tool : LOCOSYS , GNSS Firebird , v1.0.0.19*39
$---------------------------------------------------*2D
$GPHDT,,T*1B
$GNGGA,040016.800,2500.8055200,N,12132.4299700,E,2,56,0.52,3.36,M,15.25,M,12,3335*71
$GNRMC,040016.800,A,2500.8055200,N,12132.4299700,E,0.24,236.57,270623,,,D,V*0A
$GPHDT,,T*1B
$GNGSA,A,3,19,195,196,17,199,06,194,09,11,14,04,12,0.80,0.52,0.61,1*04
$GNGSA,A,3,68,67,82,83,73,,,,,,,,0.80,0.52,0.61,2*00
$GNGSA,A,3,10,12,11,04,19,25,33,,,,,,0.80,0.52,0.61,3*02
$GNGSA,A,3,40,07,10,33,14,08,43,28,42,11,34,,0.80,0.52,0.61,4*0F
$GPGSV,4,1,15,19,69,036,43,195,68,045,38,196,66,125,33,17,62,091,44,1*6B
$GPGSV,4,2,15,50,60,167,30,199,60,167,28,06,50,349,38,194,38,172,23,1*6F
$GPGSV,4,3,15,09,35,098,43,20,33,235,12,11,30,292,16,14,20,175,23,1*63
$GPGSV,4,4,15,04,20,066,33,12,17,314,19,05,08,224,,1*54
$GPGSV,3,1,09,195,68,045,46,196,66,125,41,199,60,167,40,06,50,349,44,8*55
$GPGSV,3,2,09,194,38,172,16,09,35,098,46,11,30,292,17,14,20,175,21,8*56
$GPGSV,3,3,09,04,20,066,32,8*53
$GLGSV,2,1,08,68,57,141,25,67,43,051,42,82,36,047,44,83,36,349,25,1*73
$GLGSV,2,2,08,73,22,282,15,80,19,225,17,69,17,184,,74,05,322,,1*7A
$GAGSV,3,1,09,10,49,342,37,24,48,236,,12,47,022,40,11,36,306,26,7*78
$GAGSV,3,2,09,04,32,150,36,19,32,080,35,25,27,302,20,33,13,069,16,7*73
$GAGSV,3,3,09,09,03,191,,7*49
$GAGSV,2,1,06,10,49,342,42,12,47,022,43,04,32,150,36,19,32,080,36,1*78
$GAGSV,2,2,06,25,27,302,22,33,13,069,13,1*7F
$GBGSV,3,1,12,40,81,155,33,07,78,235,28,10,72,280,26,33,69,139,22,1*73
$GBGSV,3,2,12,14,59,070,42,08,57,277,17,43,52,065,45,28,41,329,36,1*72
$GBGSV,3,3,12,42,36,048,43,11,30,087,43,41,28,198,,34,14,102,18,1*71
$GBGSV,2,1,06,40,81,155,38,33,69,139,31,43,52,065,45,28,41,329,30,4*71
$GBGSV,2,2,06,42,36,048,43,34,14,102,24,4*7A
$GNGGA,040017.000,2500.8055200,N,12132.4299700,E,2,56,0.52,3.36,M,15.25,M,13,3335*79
$GNRMC,040017.000,A,2500.8055200,N,12132.4299700,E,0.23,236.57,270623,,,D,V*04
$GPHDT,,T*1B
$GNGGA,040017.200,2500.8055200,N,12132.4299600,E,2,55,0.52,3.37,M,15.25,M,13,3335*78
$GNRMC,040017.200,A,2500.8055200,N,12132.4299600,E,0.21,236.57,270623,,,D,V*05
$GPHDT,,T*1B
$GNGGA,040017.400,2500.8055200,N,12132.4299600,E,2,54,0.52,3.37,M,15.25,M,9,3335*44
$GNRMC,040017.400,A,2500.8055200,N,12132.4299600,E,0.22,236.57,270623,,,D,V*00
$GPHDT,,T*1B
$GNGGA,040017.600,2500.8055200,N,12132.4299500,E,2,53,0.52,3.36,M,15.25,M,9,3335*43
$GNRMC,040017.600,A,2500.8055200,N,12132.4299500,E,0.06,236.57,270623,,,D,V*07
$GPHDT,,T*1B
$GNGGA,040017.800,2500.8055200,N,12132.4299500,E,2,52,0.52,3.36,M,15.25,M,9,3335*4C
$GNRMC,040017.800,A,2500.8055200,N,12132.4299500,E,0.13,236.57,270623,,,D,V*0D
$GPHDT,,T*1B
$GNGSA,A,3,19,195,196,17,199,06,194,09,11,14,04,12,0.77,0.49,0.59,1*0D
$GNGSA,A,3,68,67,83,82,73,80,,,,,,,0.77,0.49,0.59,2*01
$GNGSA,A,3,10,12,11,04,19,25,33,,,,,,0.77,0.49,0.59,3*0B
$GNGSA,A,3,40,07,10,14,43,28,42,11,34,33,,,0.77,0.49,0.59,4*0E
$GPGSV,4,1,15,19,69,036,43,195,68,045,37,196,66,125,32,17,62,091,44,1*65
$GPGSV,4,2,15,50,60,167,30,199,60,167,28,06,50,349,40,194,38,172,20,1*63
$GPGSV,4,3,15,09,35,098,42,20,33,235,14,11,30,292,17,14,20,175,23,1*65
$GPGSV,4,4,15,04,20,066,30,12,17,314,21,05,08,224,,1*5C
$GPGSV,2,1,08,195,68,045,45,196,66,125,41,199,60,167,41,06,50,349,44,8*57
$GPGSV,2,2,08,194,38,172,16,09,35,098,46,14,20,175,20,04,20,066,28,8*57
$GLGSV,2,1,06,68,57,141,27,67,43,051,42,83,36,349,24,82,36,047,45,1*7F
$GLGSV,2,2,06,73,22,282,15,80,19,225,21,1*70
$GAGSV,3,1,09,10,49,342,37,24,48,236,,12,47,022,39,11,36,306,26,7*76
$GAGSV,3,2,09,04,32,150,36,19,32,080,36,25,27,302,21,33,13,069,17,7*70
$GAGSV,3,3,09,09,03,191,,7*49
$GAGSV,2,1,05,10,49,342,43,12,47,022,43,04,32,150,37,19,32,080,36,1*7B
$GAGSV,2,2,05,25,27,302,19,1*4B
$GBGSV,4,1,14,40,81,155,32,07,78,235,27,10,72,280,27,33,69,139,19,1*75
$GBGSV,4,2,14,14,59,070,42,08,57,277,14,43,52,065,46,28,41,329,36,1*73
$GBGSV,4,3,14,42,36,048,43,11,30,087,42,41,28,198,,37,15,267,,1*7A
$GBGSV,4,4,14,23,15,216,,34,14,102,18,1*7B
$GBGSV,2,1,06,40,81,155,38,33,69,139,31,43,52,065,45,28,41,329,33,4*72
$GBGSV,2,2,06,42,36,048,42,34,14,102,21,4*7E
$GNGGA,040018.000,2500.8055200,N,12132.4299500,E,2,53,0.49,3.35,M,15.25,M,10,3335*7B
$GNRMC,040018.000,A,2500.8055200,N,12132.4299500,E,0.23,236.57,270623,,,D,V*09
$GPHDT,,T*1B
$GNGGA,040018.200,2500.8055100,N,12132.4299300,E,2,51,0.50,3.33,M,15.25,M,10,3335*70
$GNRMC,040018.200,A,2500.8055100,N,12132.4299300,E,0.23,236.57,270623,,,D,V*0E
$GPHDT,,T*1B
$GNGGA,040018.400,2500.8055100,N,12132.4299300,E,2,53,0.50,3.33,M,15.25,M,10,3335*74
$GNRMC,040018.400,A,2500.8055100,N,12132.4299300,E,0.18,236.57,270623,,,D,V*00
$GPHDT,,T*1B
$GNGGA,040018.600,2500.8055100,N,12132.4299200,E,2,54,0.50,3.32,M,15.25,M,0,3335*40
$GNRMC,040018.600,A,2500.8055100,N,12132.4299200,E,0.12,236.57,270623,,,D,V*09
$GPHDT,,T*1B
$GNGGA,040018.800,2500.8055100,N,12132.4299200,E,2,54,0.50,3.32,M,15.25,M,0,3335*4E
$GNRMC,040018.800,A,2500.8055100,N,12132.4299200,E,0.16,236.57,270623,,,D,V*03
$GPHDT,,T*1B
$GNGSA,A,3,19,195,196,17,199,06,194,09,11,14,04,12,0.78,0.50,0.60,1*00
$GNGSA,A,3,68,67,83,82,80,,,,,,,,0.78,0.50,0.60,2*08
$GNGSA,A,3,10,12,11,04,19,25,33,,,,,,0.78,0.50,0.60,3*06
$GNGSA,A,3,40,07,10,33,14,43,28,42,11,34,,,0.78,0.50,0.60,4*03
$GPGSV,4,1,15,19,69,036,43,195,68,045,37,196,66,125,32,17,62,091,44,1*65
$GPGSV,4,2,15,50,60,167,30,199,60,167,28,06,50,349,39,194,38,172,17,1*69
$GPGSV,4,3,15,09,35,098,42,20,33,235,13,11,30,292,20,14,20,175,23,1*66
$GPGSV,4,4,15,04,20,066,30,12,17,314,21,05,08,224,,1*5C
$GPGSV,2,1,07,195,68,045,44,196,66,125,41,199,60,167,41,06,50,349,44,8*59
$GPGSV,2,2,07,194,38,172,16,09,35,098,46,14,20,175,19,8*6E
$GLGSV,2,1,06,68,57,141,29,67,43,051,42,83,36,349,23,82,36,047,44,1*77
$GLGSV,2,2,06,73,22,282,17,80,19,225,20,1*73
$GAGSV,3,1,09,10,49,342,38,24,48,236,,12,47,022,39,11,36,306,25,7*7A
$GAGSV,3,2,09,04,32,150,36,19,32,080,35,25,27,302,23,33,13,069,17,7*71
$GAGSV,3,3,09,09,03,191,,7*49
$GAGSV,2,1,07,10,49,342,43,12,47,022,43,11,36,306,28,04,32,150,37,1*77
$GAGSV,2,2,07,19,32,080,36,25,27,302,18,33,13,069,23,1*40
$GBGSV,4,1,14,40,81,155,32,07,78,235,27,10,72,280,24,33,69,139,19,1*76
$GBGSV,4,2,14,14,59,070,42,08,57,277,14,43,52,065,46,28,41,329,32,1*77
$GBGSV,4,3,14,42,36,048,43,11,30,087,41,41,28,198,,37,15,267,,1*79
$GBGSV,4,4,14,23,15,216,,34,14,102,19,1*7A
$GBGSV,2,1,06,40,81,155,38,33,69,139,32,43,52,065,44,28,41,329,33,4*70
$GBGSV,2,2,06,42,36,048,45,34,14,102,24,4*7C
$GNGGA,040019.000,2500.8055100,N,12132.4299200,E,2,54,0.50,3.31,M,15.25,M,1,3335*45
$GNRMC,040019.000,A,2500.8055100,N,12132.4299200,E,0.11,236.57,270623,,,D,V*0D
$GPHDT,,T*1B
$GNGGA,040019.200,2500.8055100,N,12132.4299100,E,1,53,0.52,3.31,M,15.25,M,1,3335*42
$GNRMC,040019.200,A,2500.8055100,N,12132.4299100,E,0.23,236.57,270623,,,A,V*08
$GPHDT,,T*1B
$GNGGA,040019.400,2500.8055100,N,12132.4299000,E,1,54,0.50,3.31,M,15.25,M,1,3335*40
$GNRMC,040019.400,A,2500.8055100,N,12132.4299000,E,0.14,236.57,270623,,,A,V*0B
$GPHDT,,T*1B
$GNGGA,040019.600,2500.8055100,N,12132.4298900,E,2,56,0.49,3.30,M,15.25,M,1,3335*42
$GNRMC,040019.600,A,2500.8055100,N,12132.4298900,E,0.18,236.57,270623,,,D,V*08
$GPHDT,,T*1B
$GNGGA,040019.800,2500.8055100,N,12132.4298900,E,2,56,0.49,3.29,M,15.25,M,1,3335*44
$GNRMC,040019.800,A,2500.8055100,N,12132.4298900,E,0.15,236.57,270623,,,D,V*0B
$GPHDT,,T*1B
$GNGSA,A,3,19,195,196,17,199,06,194,09,11,14,04,12,0.77,0.49,0.59,1*0D
$GNGSA,A,3,68,67,83,82,73,80,,,,,,,0.77,0.49,0.59,2*01
$GNGSA,A,3,10,12,11,04,19,25,33,,,,,,0.77,0.49,0.59,3*0B
$GNGSA,A,3,40,07,10,33,14,43,28,42,11,34,,,0.77,0.49,0.59,4*0E
$GPGSV,4,1,15,19,69,036,43,195,68,045,36,196,66,125,32,17,62,091,44,1*64
$GPGSV,4,2,15,50,60,167,31,199,60,167,30,06,50,349,38,194,38,172,17,1*60
$GPGSV,4,3,15,09,35,098,42,20,33,235,13,11,30,292,17,14,20,175,23,1*62
$GPGSV,4,4,15,04,20,066,31,12,17,314,20,05,08,224,,1*5C
$GPGSV,3,1,09,195,68,045,44,196,66,125,41,199,60,167,41,06,50,349,43,8*51
$GPGSV,3,2,09,194,38,172,15,09,35,098,46,11,30,292,21,14,20,175,19,8*5B
$GPGSV,3,3,09,04,20,066,29,8*59
$GLGSV,2,1,06,68,57,141,26,67,43,051,41,83,36,349,22,82,36,047,44,1*7A
$GLGSV,2,2,06,73,22,282,19,80,19,225,17,1*79
$GAGSV,3,1,09,10,49,342,38,24,48,236,,12,47,022,39,11,36,306,22,7*7D
$GAGSV,3,2,09,04,32,150,36,19,32,080,35,25,27,302,21,33,13,069,18,7*7C
$GAGSV,3,3,09,09,03,191,,7*49
$GAGSV,2,1,07,10,49,342,43,12,47,022,43,11,36,306,25,04,32,150,37,1*7A
$GAGSV,2,2,07,19,32,080,37,25,27,302,18,33,13,069,23,1*41
$GBGSV,4,1,14,40,81,155,32,07,78,235,28,10,72,280,24,33,69,139,23,1*70
$GBGSV,4,2,14,14,59,070,42,08,57,277,13,43,52,065,46,28,41,329,32,1*70
$GBGSV,4,3,14,42,36,048,43,11,30,087,41,41,28,198,,37,15,267,,1*79
$GBGSV,4,4,14,23,15,216,,34,14,102,19,1*7A
$GBGSV,2,1,06,40,81,155,38,33,69,139,32,43,52,065,44,28,41,329,30,4*73
$GBGSV,2,2,06,42,36,048,45,34,14,102,23,4*7B
$GNGGA,040020.000,2500.8055100,N,12132.4298700,E,2,57,0.49,3.29,M,15.25,M,2,3335*4A
$GNRMC,040020.000,A,2500.8055100,N,12132.4298700,E,0.18,236.57,270623,,,D,V*0A
$GPHDT,,T*1B
$GNGGA,040020.200,2500.8055000,N,12132.4298600,E,2,57,0.49,3.28,M,15.25,M,2,3335*49
$GNRMC,040020.200,A,2500.8055000,N,12132.4298600,E,0.19,236.57,270623,,,D,V*09
$GPHDT,,T*1B
$GNGGA,040020.400,2500.8055000,N,12132.4298600,E,2,56,0.49,3.27,M,15.25,M,2,3335*41
$GNRMC,040020.400,A,2500.8055000,N,12132.4298600,E,0.19,236.57,270623,,,D,V*0F
$GPHDT,,T*1B
$GNGGA,040020.600,2500.8055000,N,12132.4298400,E,2,56,0.49,3.27,M,15.25,M,2,3335*41
$GNRMC,040020.600,A,2500.8055000,N,12132.4298400,E,0.20,236.57,270623,,,D,V*05
$GPHDT,,T*1B
$GNGGA,040020.800,2500.8055000,N,12132.4298400,E,2,56,0.49,3.27,M,15.25,M,2,3335*4F
$GNRMC,040020.800,A,2500.8055000,N,12132.4298400,E,0.20,236.57,270623,,,D,V*0B
$GPHDT,,T*1B
$GNGSA,A,3,19,195,196,17,199,06,194,09,11,14,04,12,0.77,0.49,0.59,1*0D
$GNGSA,A,3,68,67,83,82,73,80,,,,,,,0.77,0.49,0.59,2*01
$GNGSA,A,3,10,12,11,04,19,25,33,,,,,,0.77,0.49,0.59,3*0B
$GNGSA,A,3,40,07,10,33,14,43,28,42,11,34,,,0.77,0.49,0.59,4*0E
$GPGSV,4,1,15,19,69,036,43,195,68,045,36,196,66,125,31,17,62,091,44,1*67
$GPGSV,4,2,15,50,60,167,32,199,60,167,30,06,50,350,38,194,38,172,17,1*6B
$GPGSV,4,3,15,09,35,098,42,20,33,235,18,11,30,292,16,14,20,175,23,1*68
$GPGSV,4,4,15,04,20,066,32,12,17,314,20,05,08,224,,1*5F
$GPGSV,2,1,08,195,68,045,44,196,66,125,41,199,60,167,41,06,50,350,43,8*59
$GPGSV,2,2,08,09,35,098,46,11,30,292,20,14,20,175,21,04,20,066,29,8*6B
$GLGSV,2,1,06,68,57,141,25,67,43,051,42,83,36,349,22,82,36,047,44,1*7A
$GLGSV,2,2,06,73,22,282,20,80,19,225,17,1*73
$GAGSV,3,1,09,10,49,342,38,24,48,236,,12,47,022,39,11,36,306,22,7*7D
$GAGSV,3,2,09,04,32,150,37,19,32,080,36,25,27,302,20,33,13,069,20,7*74
$GAGSV,3,3,09,09,03,191,,7*49
$GAGSV,2,1,07,10,49,342,43,12,47,022,43,11,36,306,26,04,32,150,37,1*79
$GAGSV,2,2,07,19,32,080,37,25,27,302,18,33,13,069,22,1*40
$GBGSV,4,1,14,40,81,155,32,07,78,235,28,10,72,280,27,33,69,139,24,1*74
$GBGSV,4,2,14,14,59,070,41,08,57,277,13,43,52,065,46,28,41,329,35,1*74
$GBGSV,4,3,14,42,36,048,43,11,30,087,41,41,28,198,,37,15,267,,1*79
$GBGSV,4,4,14,23,15,216,,34,14,102,19,1*7A
$GBGSV,2,1,06,40,81,155,38,33,69,139,32,43,52,065,44,28,41,329,28,4*7A
$GBGSV,2,2,06,42,36,048,45,34,14,102,22,4*7A
$GNGGA,040021.000,2500.8054900,N,12132.4298300,E,2,56,0.49,3.26,M,15.25,M,3,3335*49
$GNRMC,040021.000,A,2500.8054900,N,12132.4298300,E,0.21,236.57,270623,,,D,V*0C
$GPHDT,,T*1B
$GNGGA,040021.200,2500.8054900,N,12132.4298300,E,2,55,0.49,3.26,M,15.25,M,3,3335*48
$GNRMC,040021.200,A,2500.8054900,N,12132.4298300,E,0.18,236.57,270623,,,D,V*04
$GPHDT,,T*1B
$GNGGA,040021.400,2500.8054900,N,12132.4298300,E,2,55,0.49,3.26,M,15.25,M,3,3335*4E
$GNRMC,040021.400,A,2500.8054900,N,12132.4298300,E,0.19,236.57,270623,,,D,V*03
$GPHDT,,T*1B
$GNGGA,040021.600,2500.8054900,N,12132.4298100,E,2,55,0.49,3.26,M,15.25,M,3,3335*4E
$GNRMC,040021.600,A,2500.8054900,N,12132.4298100,E,0.20,236.57,270623,,,D,V*09
$GPHDT,,T*1B
$GNGGA,040021.800,2500.8054900,N,12132.4298100,E,2,55,0.49,3.26,M,15.25,M,3,3335*40
$GNRMC,040021.800,A,2500.8054900,N,12132.4298100,E,0.21,236.57,270623,,,D,V*06
$GPHDT,,T*1B
$GNGSA,A,3,19,195,196,17,199,06,194,09,11,04,14,12,0.77,0.49,0.59,1*0D
$GNGSA,A,3,68,67,82,83,73,80,,,,,,,0.77,0.49,0.59,2*01
$GNGSA,A,3,10,12,11,04,19,25,33,,,,,,0.77,0.49,0.59,3*0B
$GNGSA,A,3,40,07,10,14,43,28,42,11,34,33,,,0.77,0.49,0.59,4*0E
$GPGSV,4,1,15,19,69,036,43,195,68,045,37,196,66,125,30,17,62,091,44,1*67
$GPGSV,4,2,15,50,60,167,32,199,60,167,30,06,50,350,38,194,38,172,20,1*6F
$GPGSV,4,3,15,09,35,098,43,20,33,235,17,11,30,292,18,04,20,066,32,1*6A
$GPGSV,4,4,15,14,19,175,22,12,17,313,21,05,08,224,,1*50
$GPGSV,2,1,07,195,68,045,45,196,66,125,41,199,60,167,41,06,50,350,43,8*57
$GPGSV,2,2,07,09,35,098,46,11,30,292,24,14,19,175,21,8*57
$GLGSV,2,1,06,68,57,141,27,67,43,051,42,82,36,047,44,83,36,349,23,1*79
$GLGSV,2,2,06,73,22,282,19,80,19,225,17,1*79
$GAGSV,2,1,08,10,49,342,38,24,48,236,,12,47,022,39,11,36,306,20,7*7F
$GAGSV,2,2,08,04,32,150,37,19,32,080,36,25,27,302,19,33,13,069,19,7*74
$GAGSV,2,1,07,10,49,342,43,12,47,022,43,11,36,306,26,04,32,150,37,1*79
$GAGSV,2,2,07,19,32,080,37,25,27,302,19,33,13,069,23,1*40
$GBGSV,4,1,13,40,81,155,33,07,78,235,29,10,72,280,29,33,69,139,20,1*79
$GBGSV,4,2,13,14,59,070,41,08,57,277,14,43,52,065,46,28,41,329,36,1*77
$GBGSV,4,3,13,42,36,048,43,11,30,087,42,41,28,198,,23,15,216,,1*7E
$GBGSV,4,4,13,34,14,102,21,1*46
$GBGSV,2,1,06,40,81,155,38,33,69,139,32,43,52,065,44,28,41,329,28,4*7A
$GBGSV,2,2,06,42,36,048,45,34,14,102,22,4*7A
$GNGGA,040022.000,2500.8054900,N,12132.4298000,E,2,54,0.49,3.26,M,15.25,M,4,3335*4C
$GNRMC,040022.000,A,2500.8054900,N,12132.4298000,E,0.21,236.57,270623,,,D,V*0C
$GPHDT,,T*1B
$GNGGA,040022.200,2500.8054900,N,12132.4298000,E,2,54,0.49,3.26,M,15.25,M,4,3335*4E
$GNRMC,040022.200,A,2500.8054900,N,12132.4298000,E,0.18,236.57,270623,,,D,V*04
$GPHDT,,T*1B
$GNGGA,040022.400,2500.8054800,N,12132.4297900,E,2,54,0.49,3.26,M,15.25,M,4,3335*4F
$GNRMC,040022.400,A,2500.8054800,N,12132.4297900,E,0.15,236.57,270623,,,D,V*08
$GPHDT,,T*1B
$GNGGA,040022.600,2500.8054900,N,12132.4297900,E,2,55,0.49,3.26,M,15.25,M,4,3335*4D
$GNRMC,040022.600,A,2500.8054900,N,12132.4297900,E,0.13,236.57,270623,,,D,V*0D
$GPHDT,,T*1B
$GNGGA,040022.800,2500.8054900,N,12132.4297800,E,2,55,0.49,3.26,M,15.25,M,4,3335*42
$GNRMC,040022.800,A,2500.8054900,N,12132.4297800,E,0.11,236.57,270623,,,D,V*00
$GPHDT,,T*1B
$GNGSA,A,3,19,195,196,17,199,06,194,09,11,04,14,12,0.77,0.49,0.59,1*0D
$GNGSA,A,3,68,67,82,83,73,80,,,,,,,0.77,0.49,0.59,2*01
$GNGSA,A,3,10,12,11,04,19,25,33,,,,,,0.77,0.49,0.59,3*0B
$GNGSA,A,3,40,07,10,33,14,43,28,42,11,34,,,0.77,0.49,0.59,4*0E
$GPGSV,4,1,15,19,70,037,43,195,68,045,37,196,66,125,30,17,62,091,45,1*6F
$GPGSV,4,2,15,50,60,167,32,199,60,167,30,06,50,350,38,194,38,172,23,1*6C
$GPGSV,4,3,15,09,35,098,43,20,33,235,18,11,30,292,19,04,20,066,33,1*65
$GPGSV,4,4,15,14,19,175,22,12,17,313,17,05,08,224,,1*55
$GPGSV,2,1,07,195,68,045,45,196,66,125,41,199,60,167,41,06,50,350,43,8*57
$GPGSV,2,2,07,09,35,098,46,11,30,292,21,14,19,175,21,8*52
$GLGSV,2,1,06,68,57,141,28,67,43,051,42,82,36,047,44,83,36,349,22,1*77
$GLGSV,2,2,06,73,22,282,17,80,19,225,17,1*77
$GAGSV,2,1,08,10,49,342,38,24,48,236,,12,47,022,39,11,36,306,19,7*75
$GAGSV,2,2,08,04,32,150,37,19,32,080,36,25,27,302,20,33,13,069,19,7*7E
$GAGSV,2,1,07,10,49,342,43,12,47,022,43,11,36,306,26,04,32,150,37,1*79
$GAGSV,2,2,07,19,32,080,37,25,27,302,19,33,13,069,23,1*40
$GBGSV,4,1,13,40,81,155,33,07,78,235,28,10,72,280,29,33,69,139,20,1*78
$GBGSV,4,2,13,14,59,070,41,08,57,277,14,43,52,065,46,28,41,329,37,1*76
$GBGSV,4,3,13,42,36,048,43,11,30,087,42,37,15,267,,23,15,216,,1*72
$GBGSV,4,4,13,34,14,102,21,1*46
$GBGSV,2,1,06,40,81,155,38,33,69,139,32,43,52,065,44,28,41,329,28,4*7A
$GBGSV,2,2,06,42,36,048,45,34,14,102,21,4*79
$GNGGA,040023.000,2500.8054800,N,12132.4297800,E,2,55,0.49,3.26,M,15.25,M,5,3335*4B
$GNRMC,040023.000,A,2500.8054800,N,12132.4297800,E,0.10,236.57,270623,,,D,V*09
$PAIR010,0,1,2268,187241*3D
$GPHDT,,T*1B
$GNGGA,040023.200,2500.8054800,N,12132.4297700,E,2,55,0.49,3.26,M,15.25,M,5,3335*46
$GNRMC,040023.200,A,2500.8054800,N,12132.4297700,E,0.10,236.57,270623,,,D,V*04
$GPHDT,,T*1B
$GNGGA,040023.400,2500.8054700,N,12132.4297600,E,2,55,0.49,3.27,M,15.25,M,0,3335*4A
$GNRMC,040023.400,A,2500.8054700,N,12132.4297600,E,0.12,236.57,270623,,,D,V*0E
$GPHDT,,T*1B
$GNGGA,040023.600,2500.8054700,N,12132.4297500,E,2,54,0.49,3.27,M,15.25,M,0,3335*4A
$GNRMC,040023.600,A,2500.8054700,N,12132.4297500,E,0.13,236.57,270623,,,D,V*0E
$GPHDT,,T*1B
$GNGGA,040023.800,2500.8054700,N,12132.4297500,E,2,54,0.49,3.27,M,15.25,M,0,3335*44
$GNRMC,040023.800,A,2500.8054700,N,12132.4297500,E,0.13,236.57,270623,,,D,V*00
$GPHDT,,T*1B
$GNGSA,A,3,19,195,196,17,199,06,194,09,20,11,04,14,0.76,0.48,0.59,1*0C
$GNGSA,A,3,12,,,,,,,,,,,,0.76,0.48,0.59,1*03
$GNGSA,A,3,68,67,82,83,73,80,,,,,,,0.76,0.48,0.59,2*01
$GNGSA,A,3,10,12,11,04,19,25,33,,,,,,0.76,0.48,0.59,3*0B
$GNGSA,A,3,40,07,10,33,14,43,28,42,11,34,,,0.76,0.48,0.59,4*0E
$GPGSV,4,1,15,19,70,037,43,195,68,045,37,196,66,125,30,17,62,091,45,1*6F
$GPGSV,4,2,15,50,60,167,32,199,60,167,30,06,50,350,39,194,38,172,22,1*6C
$GPGSV,4,3,15,09,35,098,42,20,34,236,19,11,30,292,19,04,20,066,34,1*66
$GPGSV,4,4,15,14,19,175,21,12,17,313,17,05,08,224,,1*56
$GPGSV,2,1,07,195,68,045,45,196,66,125,41,199,60,167,41,06,50,350,43,8*57
$GPGSV,2,2,07,09,35,098,46,11,30,292,20,14,19,175,21,8*53
$GLGSV,2,1,06,68,57,141,29,67,43,051,42,82,36,047,44,83,36,349,22,1*76
$GLGSV,2,2,06,73,22,282,16,80,19,225,17,1*76
$GAGSV,2,1,08,10,49,342,38,24,48,236,,12,47,022,39,11,36,306,22,7*7D
$GAGSV,2,2,08,04,32,150,37,19,32,080,36,25,27,302,21,33,13,069,19,7*7F
$GAGSV,2,1,07,10,49,342,43,12,47,022,42,11,36,306,26,04,32,150,37,1*78
$GAGSV,2,2,07,19,32,080,37,25,27,302,18,33,13,069,22,1*40
$GBGSV,4,1,14,40,81,155,34,07,78,235,29,10,72,280,29,33,69,139,23,1*7A
$GBGSV,4,2,14,14,59,070,42,08,57,277,12,43,52,065,46,28,41,329,36,1*75
$GBGSV,4,3,14,42,36,048,43,11,30,087,42,41,28,198,,37,15,267,,1*7A
$GBGSV,4,4,14,23,15,216,,34,14,102,19,1*7A
$GBGSV,2,1,06,40,81,155,38,33,69,139,32,43,52,065,44,28,41,329,28,4*7A
$GBGSV,2,2,06,42,36,048,45,34,14,102,21,4*79
$GNGGA,040024.000,2500.8054700,N,12132.4297400,E,2,56,0.48,3.27,M,15.25,M,1,3335*48
$GNRMC,040024.000,A,2500.8054700,N,12132.4297400,E,0.15,236.57,270623,,,D,V*08
$GPHDT,,T*1B
$GNGGA,040024.200,2500.8054600,N,12132.4297400,E,2,55,0.48,3.27,M,15.25,M,1,3335*48
$GNRMC,040024.200,A,2500.8054600,N,12132.4297400,E,0.15,236.57,270623,,,D,V*0B
$GPHDT,,T*1B
$GNGGA,040024.400,2500.8054600,N,12132.4297400,E,2,57,0.48,3.27,M,15.25,M,1,3335*4C
$GNRMC,040024.400,A,2500.8054600,N,12132.4297400,E,0.14,236.57,270623,,,D,V*0C
$GPHDT,,T*1B
$GNGGA,040024.600,2500.8054500,N,12132.4297200,E,2,57,0.48,3.27,M,15.25,M,0,3335*4A
$GNRMC,040024.600,A,2500.8054500,N,12132.4297200,E,0.15,236.57,270623,,,D,V*0A
$GPHDT,,T*1B
$GNGGA,040024.800,2500.8054500,N,12132.4297200,E,2,57,0.48,3.28,M,15.25,M,0,3335*4B
$GNRMC,040024.800,A,2500.8054500,N,12132.4297200,E,0.15,236.57,270623,,,D,V*04
$GPHDT,,T*1B
$GNGSA,A,3,19,195,196,17,199,06,194,09,20,11,04,12,0.76,0.48,0.59,1*0A
$GNGSA,A,3,14,,,,,,,,,,,,0.76,0.48,0.59,1*05
$GNGSA,A,3,68,67,82,83,73,80,,,,,,,0.76,0.48,0.59,2*01
$GNGSA,A,3,10,12,11,04,19,25,33,,,,,,0.76,0.48,0.59,3*0B
$GNGSA,A,3,40,07,10,33,14,43,28,42,11,34,,,0.76,0.48,0.59,4*0E
$GPGSV,4,1,15,19,70,037,44,195,68,045,37,196,66,125,30,17,62,091,45,1*68
$GPGSV,4,2,15,50,60,167,32,199,60,167,30,06,50,350,39,194,38,172,24,1*6A
$GPGSV,4,3,15,09,35,098,42,20,34,236,18,11,30,292,18,04,20,066,35,1*67
$GPGSV,4,4,15,14,19,175,21,12,17,313,19,05,08,224,,1*58
$GPGSV,2,1,08,195,68,045,45,196,66,125,41,199,60,167,41,06,50,350,43,8*58
$GPGSV,2,2,08,09,35,098,46,11,30,292,22,04,20,066,30,14,19,175,20,8*6A
$GLGSV,2,1,07,68,57,141,30,67,43,051,42,82,36,047,44,83,36,349,22,1*7F
$GLGSV,2,2,07,73,22,282,15,80,19,225,16,69,17,184,,1*41
$GAGSV,2,1,08,10,49,342,38,24,48,236,,12,47,022,39,11,36,306,22,7*7D
$GAGSV,2,2,08,04,32,150,37,19,32,080,36,25,27,302,22,33,13,069,19,7*7C
$GAGSV,2,1,07,10,49,342,43,12,47,022,42,11,36,306,27,04,32,150,38,1*76
$GAGSV,2,2,07,19,32,080,37,25,27,302,19,33,13,069,21,1*42
$GBGSV,4,1,14,40,81,155,34,07,78,235,29,10,72,280,29,33,69,139,26,1*7F
$GBGSV,4,2,14,14,59,070,42,08,57,277,13,43,52,065,46,28,41,329,37,1*75
$GBGSV,4,3,14,42,36,048,43,11,30,087,42,41,28,198,,37,15,267,,1*7A
$GBGSV,4,4,14,23,15,216,,34,14,102,17,1*74
$GBGSV,2,1,06,40,81,155,38,33,69,139,32,43,52,065,44,28,41,329,28,4*7A
$GBGSV,2,2,06,42,36,048,45,34,14,102,23,4*7B
$GNGGA,040025.000,2500.8054500,N,12132.4297200,E,2,56,0.48,3.28,M,15.25,M,1,3335*42
$GNRMC,040025.000,A,2500.8054500,N,12132.4297200,E,0.16,236.57,270623,,,D,V*0E
$GPHDT,,T*1B
$GNGGA,040025.200,2500.8054400,N,12132.4297200,E,2,57,0.48,3.28,M,15.25,M,1,3335*40
$GNRMC,040025.200,A,2500.8054400,N,12132.4297200,E,0.17,236.57,270623,,,D,V*0C
$GPHDT,,T*1B
$GNGGA,040025.400,2500.8054400,N,12132.4297200,E,2,56,0.48,3.28,M,15.25,M,1,3335*47
$GNRMC,040025.400,A,2500.8054400,N,12132.4297200,E,0.20,236.57,270623,,,D,V*0E
$GPHDT,,T*1B
$GNGGA,040025.600,2500.8054300,N,12132.4297100,E,2,55,0.48,3.29,M,15.25,M,0,3335*42
$GNRMC,040025.600,A,2500.8054300,N,12132.4297100,E,0.20,236.57,270623,,,D,V*08
$GPHDT,,T*1B
$GNGGA,040025.800,2500.8054300,N,12132.4297100,E,2,55,0.48,3.29,M,15.25,M,0,3335*4C
$GNRMC,040025.800,A,2500.8054300,N,12132.4297100,E,0.22,236.57,270623,,,D,V*04
$GPHDT,,T*1B
$GNGSA,A,3,19,195,196,17,199,06,194,09,20,11,04,14,0.77,0.48,0.60,1*07
$GNGSA,A,3,12,,,,,,,,,,,,0.77,0.48,0.60,1*08
$GNGSA,A,3,68,67,82,83,80,,,,,,,,0.77,0.48,0.60,2*0E
$GNGSA,A,3,10,12,11,04,19,25,33,,,,,,0.77,0.48,0.60,3*00
$GNGSA,A,3,40,07,10,33,14,43,28,42,11,34,,,0.77,0.48,0.60,4*05
$GPGSV,4,1,15,19,70,037,44,195,68,045,37,196,66,125,30,17,62,091,45,1*68
$GPGSV,4,2,15,50,60,167,32,199,60,167,29,06,50,350,39,194,38,172,21,1*67
$GPGSV,4,3,15,09,35,098,42,20,34,236,21,11,30,292,19,04,20,066,34,1*6D
$GPGSV,4,4,15,14,19,175,21,12,17,313,17,05,08,224,,1*56
$GPGSV,2,1,07,195,68,045,45,196,66,125,41,199,60,167,41,06,50,350,43,8*57
$GPGSV,2,2,07,09,35,098,46,11,30,292,21,14,19,175,20,8*53
$GLGSV,2,1,08,68,57,141,30,67,43,051,42,82,36,047,44,83,36,349,22,1*70
$GLGSV,2,2,08,73,22,282,15,80,19,225,16,69,17,184,,74,05,322,,1*7B
$GAGSV,3,1,09,10,49,342,38,24,48,236,,12,47,022,39,11,36,306,21,7*7E
$GAGSV,3,2,09,04,32,150,37,19,32,080,36,25,27,302,23,33,13,069,19,7*7D
$GAGSV,3,3,09,09,03,191,,7*49
$GAGSV,2,1,07,10,49,342,43,12,47,022,42,11,36,306,27,04,32,150,38,1*76
$GAGSV,2,2,07,19,32,080,37,25,27,302,19,33,13,069,21,1*42
$GBGSV,4,1,14,40,81,155,34,07,78,235,28,10,72,280,27,33,69,139,26,1*70
$GBGSV,4,2,14,14,59,070,42,08,57,277,13,43,52,065,46,28,41,329,37,1*75
$GBGSV,4,3,14,42,36,048,43,11,30,087,42,41,28,198,,23,15,216,,1*79
$GBGSV,4,4,14,37,15,267,,34,14,102,21,1*72
$GBGSV,2,1,06,40,81,155,38,33,69,139,32,43,52,065,44,28,41,329,29,4*7B
$GBGSV,2,2,06,42,36,048,45,34,14,102,23,4*7B
$GNGGA,040026.000,2500.8054200,N,12132.4296900,E,2,55,0.48,3.29,M,15.25,M,1,3335*4E
$GNRMC,040026.000,A,2500.8054200,N,12132.4296900,E,0.20,236.57,270623,,,D,V*05
$GPHDT,,T*1B
$GNGGA,040026.200,2500.8054200,N,12132.4296800,E,2,54,0.50,3.29,M,15.25,M,1,3335*45
$GNRMC,040026.200,A,2500.8054200,N,12132.4296800,E,0.19,236.57,270623,,,D,V*0C
$GPHDT,,T*1B
$GNGGA,040026.400,2500.8054100,N,12132.4296800,E,2,54,0.50,3.29,M,15.25,M,1,3335*40
$GNRMC,040026.400,A,2500.8054100,N,12132.4296800,E,0.16,236.57,270623,,,D,V*06
$GPHDT,,T*1B
$GNGGA,040026.600,2500.8054000,N,12132.4296600,E,2,53,0.50,3.29,M,15.25,M,0,3335*4B
$GNRMC,040026.600,A,2500.8054000,N,12132.4296600,E,0.15,236.57,270623,,,D,V*08
$GPHDT,,T*1B
$GNGGA,040026.800,2500.8054100,N,12132.4296600,E,2,55,0.48,3.29,M,15.25,M,0,3335*4B
$GNRMC,040026.800,A,2500.8054100,N,12132.4296600,E,0.11,236.57,270623,,,D,V*03
$GPHDT,,T*1B
$GNGSA,A,3,19,195,196,17,199,06,194,09,20,11,04,14,0.77,0.48,0.60,1*07
$GNGSA,A,3,12,,,,,,,,,,,,0.77,0.48,0.60,1*08
$GNGSA,A,3,68,67,83,82,80,,,,,,,,0.77,0.48,0.60,2*0E
$GNGSA,A,3,10,12,11,04,19,25,33,,,,,,0.77,0.48,0.60,3*00
$GNGSA,A,3,40,07,10,33,14,43,28,42,11,34,,,0.77,0.48,0.60,4*05
$GPGSV,4,1,15,19,70,037,44,195,68,045,37,196,66,124,31,17,62,091,45,1*68
$GPGSV,4,2,15,50,60,167,31,199,60,167,29,06,50,350,39,194,38,172,23,1*66
$GPGSV,4,3,15,09,35,098,42,20,34,236,22,11,30,292,20,04,20,066,34,1*64
$GPGSV,4,4,15,14,19,175,21,12,17,313,17,05,08,224,,1*56
$GPGSV,2,1,07,195,68,045,45,196,66,124,41,199,60,167,41,06,50,350,43,8*56
$GPGSV,2,2,07,09,35,098,46,11,30,292,21,14,19,175,20,8*53
$GLGSV,2,1,06,68,57,141,31,67,43,051,42,83,36,349,21,82,36,047,44,1*7C
$GLGSV,2,2,06,73,22,282,14,80,19,225,16,1*75
$GAGSV,3,1,09,10,49,342,38,24,48,236,,12,47,022,39,11,36,306,24,7*7B
$GAGSV,3,2,09,04,32,150,37,19,32,080,36,25,27,302,21,33,13,069,19,7*7F
$GAGSV,3,3,09,09,03,191,,7*49
$GAGSV,2,1,07,10,49,342,43,12,47,022,42,11,36,306,26,04,32,150,38,1*77
$GAGSV,2,2,07,19,32,080,37,25,27,302,20,33,13,069,21,1*48
$GBGSV,4,1,14,40,81,155,34,07,78,235,28,10,72,280,28,33,69,139,25,1*7C
$GBGSV,4,2,14,14,59,070,42,08,57,277,12,43,52,065,46,28,41,329,36,1*75
$GBGSV,4,3,14,42,36,048,43,11,30,087,42,41,28,198,,37,15,267,,1*7A
$GBGSV,4,4,14,23,15,216,,34,14,102,24,1*74
$GBGSV,2,1,06,40,81,155,38,33,69,139,32,43,52,065,44,28,41,329,30,4*73
$GBGSV,2,2,06,42,36,048,45,34,14,102,23,4*7B
$GNGGA,040027.000,2500.8053900,N,12132.4296500,E,2,55,0.48,3.29,M,15.25,M,1,3335*4F
$GNRMC,040027.000,A,2500.8053900,N,12132.4296500,E,0.12,236.57,270623,,,D,V*05
$GPHDT,,T*1B
$GNGGA,040027.200,2500.8053800,N,12132.4296500,E,2,55,0.48,3.30,M,15.25,M,1,3335*44
$GNRMC,040027.200,A,2500.8053800,N,12132.4296500,E,0.11,236.57,270623,,,D,V*05
$GPHDT,,T*1B
$GNGGA,040027.400,2500.8053700,N,12132.4296300,E,2,54,0.48,3.30,M,15.25,M,1,3335*4A
$GNRMC,040027.400,A,2500.8053700,N,12132.4296300,E,0.12,236.57,270623,,,D,V*09
$GPHDT,,T*1B
