$FW : RTK35X,V1.1X0314AS,Lib20210517,1*54
$Tool : LOCOSYS , GNSS Firebird , v1.0.0.19*39
$---------------------------------------------------*2D
$GNGGA,035916.600,2500.8049800,N,12132.4303000,E,2,52,0.51,11.00,M,15.25,M,24,3335*42
$GNRMC,035916.600,A,2500.8049800,N,12132.4303000,E,0.00,261.39,270623,,,D,V*01
$GPHDT,,T*1B
$GNGGA,035916.800,2500.8049900,N,12132.4303000,E,2,52,0.51,11.04,M,15.25,M,24,3335*49
$GNRMC,035916.800,A,2500.8049900,N,12132.4303000,E,0.00,261.39,270623,,,D,V*0E
$GPHDT,,T*1B
$GNGSA,A,3,19,195,196,17,199,06,194,09,11,04,12,,0.92,0.51,0.76,1*07
$GNGSA,A,3,68,67,83,82,73,80,,,,,,,0.92,0.51,0.76,2*0E
$GNGSA,A,3,10,12,11,04,19,25,33,,,,,,0.92,0.51,0.76,3*04
$GNGSA,A,3,40,07,10,33,14,08,43,28,42,11,34,,0.92,0.51,0.76,4*09
$GPGSV,4,1,15,19,69,035,43,195,68,045,36,196,66,125,32,17,62,089,43,1*69
$GPGSV,4,2,15,50,60,167,30,199,60,167,28,06,50,349,43,194,39,172,26,1*67
$GPGSV,4,3,15,09,35,098,43,20,33,235,15,11,30,292,22,14,20,175,14,1*67
$GPGSV,4,4,15,04,20,066,20,12,17,314,22,05,08,224,,1*5E
$GPGSV,2,1,06,195,68,045,42,196,66,125,39,199,60,167,42,06,50,349,45,8*53
$GPGSV,2,2,06,09,35,098,45,11,30,292,20,8*6C
$GLGSV,2,1,07,68,56,141,39,67,44,052,33,83,36,349,31,82,36,046,39,1*7C
$GLGSV,2,2,07,73,22,282,17,80,19,225,22,66,01,025,,1*46
$GAGSV,3,1,09,10,49,341,43,24,48,236,,12,47,021,37,11,36,305,26,7*78
$GAGSV,3,2,09,04,32,151,37,19,32,080,26,25,27,303,25,33,13,068,13,7*71
$GAGSV,3,3,09,09,02,192,,7*4B
$GAGSV,2,1,06,10,49,341,45,12,47,021,43,11,36,305,26,04,32,151,32,1*79
$GAGSV,2,2,06,19,32,080,31,25,27,303,19,1*7A
$GBGSV,4,1,13,40,81,153,33,07,79,236,26,10,72,281,28,33,69,140,24,1*78
$GBGSV,4,2,13,14,59,071,37,08,57,276,26,43,52,064,42,13,48,263,,1*79
$GBGSV,4,3,13,28,41,329,40,42,36,049,39,11,31,086,39,41,27,198,,1*72
$GBGSV,4,4,13,34,15,102,32,1*45
$GBGSV,2,1,05,40,81,153,38,33,69,140,31,43,52,064,40,28,41,329,40,4*79
$GBGSV,2,2,05,42,36,049,40,4*4C
$GNGGA,035917.000,2500.8049800,N,12132.4303200,E,2,52,0.51,11.05,M,15.25,M,25,3335*43
$GNRMC,035917.000,A,2500.8049800,N,12132.4303200,E,0.00,261.39,270623,,,D,V*04
$GPHDT,,T*1B
$GNGGA,035917.200,2500.8050000,N,12132.4303300,E,2,52,0.51,11.10,M,15.25,M,25,3335*44
$GNRMC,035917.200,A,2500.8050000,N,12132.4303300,E,0.00,261.39,270623,,,D,V*07
$GPHDT,,T*1B
$GNGGA,035917.400,2500.8050000,N,12132.4303400,E,2,52,0.51,11.13,M,15.25,M,25,3335*46
$GNRMC,035917.400,A,2500.8050000,N,12132.4303400,E,0.00,261.39,270623,,,D,V*06
$GPHDT,,T*1B
$GNGGA,035917.600,2500.8050200,N,12132.4303500,E,2,53,0.48,11.19,M,15.25,M,25,3335*44
$GNRMC,035917.600,A,2500.8050200,N,12132.4303500,E,0.01,261.39,270623,,,D,V*06
$GPHDT,,T*1B
$GNGGA,035917.800,2500.8050300,N,12132.4303700,E,2,53,0.48,11.24,M,15.25,M,25,3335*47
$GNRMC,035917.800,A,2500.8050300,N,12132.4303700,E,0.00,261.39,270623,,,D,V*0A
$GPHDT,,T*1B
$GNGSA,A,3,19,195,196,17,199,06,194,09,11,04,12,,0.92,0.51,0.76,1*07
$GNGSA,A,3,68,67,83,82,73,80,,,,,,,0.92,0.51,0.76,2*0E
$GNGSA,A,3,10,12,11,04,19,25,33,,,,,,0.92,0.51,0.76,3*04
$GNGSA,A,3,40,07,10,33,14,08,43,28,42,11,34,,0.92,0.51,0.76,4*09
$GPGSV,4,1,15,19,69,035,43,195,68,045,36,196,66,125,32,17,62,090,43,1*61
$GPGSV,4,2,15,50,60,167,30,199,60,167,28,06,50,349,43,194,39,172,26,1*67
$GPGSV,4,3,15,09,35,098,43,20,33,235,16,11,30,292,23,14,20,175,17,1*66
$GPGSV,4,4,15,04,20,066,21,12,17,314,22,05,08,224,,1*5F
$GPGSV,2,1,06,195,68,045,42,196,66,125,40,199,60,167,42,06,50,349,45,8*5D
$GPGSV,2,2,06,09,35,098,45,11,30,292,20,8*6C
$GLGSV,2,1,07,68,56,141,38,67,44,052,31,83,36,349,31,82,36,046,39,1*7F
$GLGSV,2,2,07,73,22,282,17,80,19,225,22,66,01,025,,1*46
$GAGSV,3,1,09,10,49,341,43,24,48,236,,12,47,021,37,11,36,305,27,7*79
$GAGSV,3,2,09,04,32,151,37,19,32,080,26,25,27,303,25,33,13,068,15,7*77
$GAGSV,3,3,09,09,02,192,,7*4B
$GAGSV,2,1,06,10,49,341,45,12,47,021,43,11,36,305,26,04,32,151,31,1*7A
$GAGSV,2,2,06,19,32,080,31,25,27,303,19,1*7A
$GBGSV,4,1,13,40,81,153,32,07,79,236,25,10,72,281,28,33,69,140,23,1*7D
$GBGSV,4,2,13,14,59,071,38,08,57,276,26,43,52,064,42,13,48,263,,1*76
$GBGSV,4,3,13,28,41,329,40,42,36,049,38,11,31,086,39,41,27,198,,1*73
$GBGSV,4,4,13,34,15,102,31,1*46
$GBGSV,2,1,05,40,81,153,38,33,69,140,32,43,52,064,40,28,41,329,40,4*7A
$GBGSV,2,2,05,42,36,049,40,4*4C
$GNGGA,035918.000,2500.8050300,N,12132.4303800,E,2,52,0.51,11.25,M,15.25,M,26,3335*44
$GNRMC,035918.000,A,2500.8050300,N,12132.4303800,E,0.00,261.39,270623,,,D,V*02
$GPHDT,,T*1B
$GNGGA,035918.200,2500.8050400,N,12132.4304100,E,2,52,0.51,11.26,M,15.25,M,1,3335*79
$GNRMC,035918.200,A,2500.8050400,N,12132.4304100,E,0.00,261.39,270623,,,D,V*09
$GPHDT,,T*1B
$GNGGA,035918.400,2500.8050500,N,12132.4304200,E,2,52,0.51,11.31,M,15.25,M,1,3335*7B
$GNRMC,035918.400,A,2500.8050500,N,12132.4304200,E,0.00,261.39,270623,,,D,V*0D
$GPHDT,,T*1B
$GNGGA,035918.600,2500.8050600,N,12132.4304300,E,2,53,0.49,11.35,M,15.25,M,1,3335*77
$GNRMC,035918.600,A,2500.8050600,N,12132.4304300,E,0.00,261.39,270623,,,D,V*0D
$GPHDT,,T*1B
$GNGGA,035918.800,2500.8050700,N,12132.4304400,E,2,53,0.49,11.38,M,15.25,M,0,3335*73
$GNRMC,035918.800,A,2500.8050700,N,12132.4304400,E,0.00,261.39,270623,,,D,V*05
$GPHDT,,T*1B
$GNGSA,A,3,19,195,196,17,199,06,194,09,20,11,04,12,0.91,0.49,0.76,1*0F
$GNGSA,A,3,68,67,83,82,73,80,,,,,,,0.91,0.49,0.76,2*04
$GNGSA,A,3,10,12,11,19,04,25,33,,,,,,0.91,0.49,0.76,3*0E
$GNGSA,A,3,40,07,10,33,14,08,43,28,42,11,34,,0.91,0.49,0.76,4*03
$GPGSV,4,1,15,19,69,035,43,195,68,045,36,196,66,125,33,17,62,090,43,1*60
$GPGSV,4,2,15,50,60,167,30,199,60,167,28,06,50,349,43,194,39,172,26,1*67
$GPGSV,4,3,15,09,35,098,43,20,33,235,13,11,30,292,24,14,20,175,17,1*64
$GPGSV,4,4,15,04,20,066,22,12,17,314,23,05,08,224,,1*5D
$GPGSV,2,1,06,195,68,045,42,196,66,125,40,199,60,167,42,06,50,349,45,8*5D
$GPGSV,2,2,06,09,35,098,45,11,30,292,20,8*6C
$GLGSV,2,1,07,68,56,141,38,67,44,052,33,83,36,349,31,82,36,046,40,1*73
$GLGSV,2,2,07,73,22,282,18,80,19,225,22,66,01,025,,1*49
$GAGSV,2,1,08,10,49,341,43,12,47,021,37,11,36,305,28,19,32,080,25,7*7D
$GAGSV,2,2,08,04,32,151,34,25,27,303,24,33,13,068,14,09,02,192,,7*70
$GAGSV,2,1,06,10,49,341,45,12,47,021,43,11,36,305,26,04,32,151,32,1*79
$GAGSV,2,2,06,19,32,080,32,25,27,303,19,1*79
$GBGSV,4,1,15,40,81,153,32,07,79,236,27,10,72,281,28,33,69,140,24,1*7E
$GBGSV,4,2,15,14,59,071,38,08,57,276,26,43,52,064,42,13,48,263,,1*70
$GBGSV,4,3,15,28,41,329,40,42,36,049,40,11,31,086,39,41,27,198,,1*7A
$GBGSV,4,4,15,23,15,217,,34,15,102,31,37,15,268,,1*4D
$GBGSV,2,1,05,40,81,153,38,33,69,140,32,43,52,064,40,28,41,329,40,4*7A
$GBGSV,2,2,05,42,36,049,40,4*4C
$GNGGA,035919.000,2500.8050900,N,12132.4304600,E,2,53,0.49,11.42,M,15.25,M,1,3335*7A
$GNRMC,035919.000,A,2500.8050900,N,12132.4304600,E,0.00,261.39,270623,,,D,V*00
$GPHDT,,T*1B
$GNGGA,035919.200,2500.8051000,N,12132.4304700,E,2,53,0.49,11.46,M,15.25,M,1,3335*75
$GNRMC,035919.200,A,2500.8051000,N,12132.4304700,E,0.00,261.39,270623,,,D,V*0B
$GPHDT,,T*1B
$GNGGA,035919.400,2500.8051200,N,12132.4304900,E,2,53,0.49,11.51,M,15.25,M,1,3335*79
$GNRMC,035919.400,A,2500.8051200,N,12132.4304900,E,0.00,261.39,270623,,,D,V*01
$GPHDT,,T*1B
$GNGGA,035919.600,2500.8051500,N,12132.4305000,E,2,54,0.49,11.54,M,15.25,M,1,3335*76
$GNRMC,035919.600,A,2500.8051500,N,12132.4305000,E,0.01,261.39,270623,,,D,V*0D
$GPHDT,,T*1B
$GNGGA,035919.800,2500.8051600,N,12132.4305300,E,2,54,0.49,11.54,M,15.25,M,1,3335*78
$GNRMC,035919.800,A,2500.8051600,N,12132.4305300,E,0.01,261.39,270623,,,D,V*03
$GPHDT,,T*1B
$GNGSA,A,3,19,195,196,17,199,06,194,09,20,11,04,12,0.95,0.51,0.80,1*0B
$GNGSA,A,3,68,67,82,83,73,80,,,,,,,0.95,0.51,0.80,2*00
$GNGSA,A,3,10,12,11,19,04,25,,,,,,,0.95,0.51,0.80,3*0A
$GNGSA,A,3,40,07,10,33,14,08,43,28,42,11,34,,0.95,0.51,0.80,4*07
$GPGSV,4,1,15,19,69,035,43,195,68,045,37,196,66,125,31,17,62,090,43,1*63
$GPGSV,4,2,15,50,60,167,29,199,60,167,27,06,50,349,43,194,39,172,25,1*63
$GPGSV,4,3,15,09,35,098,41,20,33,235,15,11,30,292,23,14,20,175,17,1*67
$GPGSV,4,4,15,04,20,066,22,12,17,314,23,05,08,224,,1*5D
$GPGSV,2,1,07,195,68,045,42,196,66,125,40,199,60,167,42,06,50,349,45,8*5C
$GPGSV,2,2,07,09,35,098,45,11,30,292,20,04,20,066,23,8*5A
$GLGSV,3,1,09,68,56,141,38,67,44,052,35,82,36,046,41,83,36,349,31,1*7B
$GLGSV,3,2,09,73,22,282,18,80,19,225,23,69,17,184,,74,05,323,,1*71
$GLGSV,3,3,09,66,01,025,,1*47
$GAGSV,3,1,09,10,49,341,43,24,48,236,,12,47,021,37,11,36,305,25,7*7B
$GAGSV,3,2,09,19,32,080,28,04,32,151,33,25,27,303,25,33,13,068,,7*79
$GAGSV,3,3,09,09,02,192,,7*4B
$GAGSV,2,1,06,10,49,341,45,12,47,021,43,11,36,305,28,04,32,151,33,1*76
$GAGSV,2,2,06,19,32,080,33,25,27,303,19,1*78
$GBGSV,4,1,13,40,81,153,32,07,79,236,27,10,72,281,27,33,69,140,26,1*75
$GBGSV,4,2,13,14,59,071,38,08,57,276,26,43,52,064,42,28,41,329,40,1*7C
$GBGSV,4,3,13,42,36,049,40,11,31,086,39,41,27,198,,34,15,102,31,1*7D
$GBGSV,4,4,13,27,02,301,,1*41
$GBGSV,2,1,05,40,81,153,38,33,69,140,30,43,52,064,40,28,41,329,40,4*78
$GBGSV,2,2,05,42,36,049,40,4*4C
$GNGGA,035920.000,2500.8051800,N,12132.4305500,E,2,53,0.51,11.54,M,15.25,M,2,3335*7F
$GNRMC,035920.000,A,2500.8051800,N,12132.4305500,E,0.00,261.39,270623,,,D,V*08
$GPHDT,,T*1B
$GNGGA,035920.200,2500.8052000,N,12132.4305600,E,2,53,0.51,11.57,M,15.25,M,2,3335*76
$GNRMC,035920.200,A,2500.8052000,N,12132.4305600,E,0.00,261.39,270623,,,D,V*02
$GPHDT,,T*1B
$GNGGA,035920.400,2500.8052100,N,12132.4305800,E,2,53,0.51,11.57,M,15.25,M,2,3335*7F
$GNRMC,035920.400,A,2500.8052100,N,12132.4305800,E,0.00,261.39,270623,,,D,V*0B
$GPHDT,,T*1B
$GNGGA,035920.600,2500.8052200,N,12132.4306100,E,2,54,0.48,11.56,M,15.25,M,2,3335*7A
$GNRMC,035920.600,A,2500.8052200,N,12132.4306100,E,0.00,261.39,270623,,,D,V*00
$GPHDT,,T*1B
$GNGGA,035920.800,2500.8052400,N,12132.4306300,E,2,52,0.51,11.57,M,15.25,M,2,3335*7F
$GNRMC,035920.800,A,2500.8052400,N,12132.4306300,E,0.00,261.39,270623,,,D,V*0A
$GPHDT,,T*1B
$GNGSA,A,3,19,195,196,17,199,06,194,09,20,11,04,14,0.92,0.48,0.78,1*05
$GNGSA,A,3,12,,,,,,,,,,,,0.92,0.48,0.78,1*0A
$GNGSA,A,3,68,67,82,83,73,80,,,,,,,0.92,0.48,0.78,2*08
$GNGSA,A,3,10,12,11,04,19,25,,,,,,,0.92,0.48,0.78,3*02
$GNGSA,A,3,40,07,10,33,14,08,43,28,42,11,34,,0.92,0.48,0.78,4*0F
$GPGSV,4,1,15,19,69,035,43,195,68,045,37,196,66,125,31,17,62,090,43,1*63
$GPGSV,4,2,15,50,60,167,28,199,60,167,26,06,50,349,43,194,39,172,25,1*63
$GPGSV,4,3,15,09,35,098,41,20,33,235,15,11,30,292,23,04,20,066,24,1*65
$GPGSV,4,4,15,14,20,175,16,12,17,314,22,05,08,224,,1*59
$GPGSV,2,1,07,195,68,045,42,196,66,125,40,199,60,167,40,06,50,349,45,8*5E
$GPGSV,2,2,07,09,35,098,45,11,30,292,20,04,20,066,23,8*5A
$GLGSV,2,1,07,68,56,141,38,67,44,052,35,82,36,046,41,83,36,349,32,1*77
$GLGSV,2,2,07,73,22,282,18,80,19,225,23,66,01,025,,1*48
$GAGSV,3,1,09,10,49,341,43,24,48,236,,12,47,021,37,11,36,305,26,7*78
$GAGSV,3,2,09,04,32,151,33,19,32,080,29,25,27,303,25,33,13,068,,7*78
$GAGSV,3,3,09,09,02,192,,7*4B
$GAGSV,2,1,06,10,49,341,45,12,47,021,43,11,36,305,28,04,32,151,33,1*76
$GAGSV,2,2,06,19,32,080,33,25,27,303,19,1*78
$GBGSV,4,1,13,40,81,153,32,07,79,236,27,10,72,281,27,33,69,140,26,1*75
$GBGSV,4,2,13,14,59,071,39,08,57,276,26,43,52,064,42,28,41,329,40,1*7D
$GBGSV,4,3,13,42,36,049,39,11,31,086,39,41,27,198,,34,15,102,29,1*7A
$GBGSV,4,4,13,23,15,217,,1*45
$GBGSV,2,1,05,40,81,153,38,33,69,140,29,43,52,064,41,28,41,329,40,4*71
$GBGSV,2,2,05,42,36,049,40,4*4C
$GNGGA,035921.000,2500.8052600,N,12132.4306500,E,2,54,0.48,11.58,M,15.25,M,3,3335*72
$GNRMC,035921.000,A,2500.8052600,N,12132.4306500,E,0.00,261.39,270623,,,D,V*07
$GPHDT,,T*1B
$GNGGA,035921.200,2500.8052800,N,12132.4306800,E,2,53,0.50,11.58,M,15.25,M,3,3335*7D
$GNRMC,035921.200,A,2500.8052800,N,12132.4306800,E,0.00,261.39,270623,,,D,V*06
$GPHDT,,T*1B
$GNGGA,035921.400,2500.8053000,N,12132.4307000,E,2,53,0.50,11.59,M,15.25,M,3,3335*7A
$GNRMC,035921.400,A,2500.8053000,N,12132.4307000,E,0.00,261.39,270623,,,D,V*00
$GPHDT,,T*1B
$GNGGA,035921.600,2500.8053100,N,12132.4307300,E,2,53,0.50,11.60,M,15.25,M,3,3335*70
$GNRMC,035921.600,A,2500.8053100,N,12132.4307300,E,0.00,261.39,270623,,,D,V*00
$GPHDT,,T*1B
$GNGGA,035921.800,2500.8053300,N,12132.4307500,E,2,52,0.52,11.60,M,15.25,M,3,3335*79
$GNRMC,035921.800,A,2500.8053300,N,12132.4307500,E,0.00,261.39,270623,,,D,V*0A
$GPHDT,,T*1B
$GNGSA,A,3,19,195,196,17,199,06,194,09,11,04,12,,0.96,0.52,0.81,1*08
$GNGSA,A,3,68,67,82,83,73,80,,,,,,,0.96,0.52,0.81,2*01
$GNGSA,A,3,10,12,11,04,19,25,,,,,,,0.96,0.52,0.81,3*0B
$GNGSA,A,3,40,07,10,33,14,08,43,28,42,11,34,,0.96,0.52,0.81,4*06
$GPGSV,4,1,15,19,69,035,43,195,68,045,36,196,66,125,32,17,62,090,43,1*61
$GPGSV,4,2,15,50,60,167,28,199,60,167,26,06,50,349,43,194,38,172,25,1*62
$GPGSV,4,3,15,09,35,098,41,20,33,235,16,11,30,292,21,04,20,066,22,1*62
$GPGSV,4,4,15,14,20,175,17,12,17,314,23,05,08,224,,1*59
$GPGSV,2,1,07,195,68,045,42,196,66,125,40,199,60,167,39,06,50,349,45,8*50
$GPGSV,2,2,07,09,35,098,44,11,30,292,20,04,20,066,25,8*5D
$GLGSV,2,1,07,68,56,141,38,67,44,052,35,82,36,046,41,83,36,349,32,1*77
$GLGSV,2,2,07,73,22,282,20,80,19,225,22,66,01,025,,1*42
$GAGSV,3,1,09,10,49,341,43,24,48,236,,12,47,021,37,11,36,305,27,7*79
$GAGSV,3,2,09,04,32,151,32,19,32,080,29,25,27,303,25,33,13,068,,7*79
$GAGSV,3,3,09,09,02,192,,7*4B
$GAGSV,2,1,06,10,49,341,45,12,47,021,43,11,36,305,28,04,32,151,33,1*76
$GAGSV,2,2,06,19,32,080,33,25,27,303,20,1*72
$GBGSV,4,1,13,40,81,153,31,07,79,236,28,10,72,281,27,33,69,140,26,1*79
$GBGSV,4,2,13,14,59,071,39,08,57,276,26,43,52,064,42,28,41,329,40,1*7D
$GBGSV,4,3,13,42,36,049,39,11,31,086,39,41,27,198,,34,15,102,29,1*7A
$GBGSV,4,4,13,23,15,217,,1*45
$GBGSV,2,1,06,40,81,153,38,33,69,140,29,43,52,064,41,28,41,329,40,4*72
$GBGSV,2,2,06,42,36,049,40,34,15,102,23,4*7E
$GNGGA,035922.000,2500.8053500,N,12132.4307700,E,2,53,0.52,11.61,M,15.25,M,4,3335*71
$GNRMC,035922.000,A,2500.8053500,N,12132.4307700,E,0.00,261.39,270623,,,D,V*05
$GPHDT,,T*1B
$GNGGA,035922.200,2500.8053700,N,12132.4307900,E,2,53,0.52,11.61,M,15.25,M,4,3335*7F
$GNRMC,035922.200,A,2500.8053700,N,12132.4307900,E,0.00,261.39,270623,,,D,V*0B
$GPHDT,,T*1B
$GNGGA,035922.400,2500.8053800,N,12132.4308200,E,2,53,0.52,11.62,M,15.25,M,4,3335*71
$GNRMC,035922.400,A,2500.8053800,N,12132.4308200,E,0.00,261.39,270623,,,D,V*06
$GPHDT,,T*1B
$GNGGA,035922.600,2500.8053900,N,12132.4308300,E,2,53,0.52,11.62,M,15.25,M,4,3335*73
$GNRMC,035922.600,A,2500.8053900,N,12132.4308300,E,0.00,261.39,270623,,,D,V*04
$GPHDT,,T*1B
$GNGGA,035922.800,2500.8054100,N,12132.4308600,E,2,53,0.52,11.62,M,15.25,M,4,3335*77
$GNRMC,035922.800,A,2500.8054100,N,12132.4308600,E,0.00,261.39,270623,,,D,V*00
$GPHDT,,T*1B
$GNGSA,A,3,19,195,196,17,199,06,194,09,11,04,12,,0.96,0.52,0.81,1*08
$GNGSA,A,3,68,67,82,83,73,80,,,,,,,0.96,0.52,0.81,2*01
$GNGSA,A,3,10,12,11,04,19,25,,,,,,,0.96,0.52,0.81,3*0B
$GNGSA,A,3,40,07,10,33,14,08,43,28,42,11,34,,0.96,0.52,0.81,4*06
$GPGSV,4,1,15,19,69,035,43,195,68,045,36,196,66,125,31,17,62,090,43,1*62
$GPGSV,4,2,15,50,60,167,28,199,60,167,26,06,50,349,43,194,38,172,26,1*61
$GPGSV,4,3,15,09,35,098,41,20,33,235,17,11,30,292,21,04,20,066,25,1*64
$GPGSV,4,4,15,14,20,175,18,12,17,314,23,05,08,224,,1*56
$GPGSV,2,1,07,195,68,045,42,196,66,125,40,199,60,167,39,06,50,349,45,8*50
$GPGSV,2,2,07,09,35,098,44,11,30,292,19,04,20,066,23,8*51
$GLGSV,2,1,07,68,56,141,38,67,44,052,36,82,36,046,40,83,36,349,32,1*75
$GLGSV,2,2,07,73,22,282,20,80,19,225,22,66,01,025,,1*42
$GAGSV,3,1,09,10,49,341,43,24,48,236,,12,47,021,37,11,36,305,26,7*78
$GAGSV,3,2,09,04,32,151,32,19,32,080,30,25,27,303,25,33,13,068,,7*71
$GAGSV,3,3,09,09,02,192,,7*4B
$GAGSV,2,1,06,10,49,341,45,12,47,021,43,11,36,305,28,04,32,151,33,1*76
$GAGSV,2,2,06,19,32,080,33,25,27,303,21,1*73
$GBGSV,4,1,13,40,81,153,31,07,79,236,28,10,72,281,28,33,69,140,23,1*73
$GBGSV,4,2,13,14,59,071,39,08,57,276,26,43,52,064,42,28,41,329,40,1*7D
$GBGSV,4,3,13,42,36,049,39,11,31,086,38,41,27,198,,34,15,102,29,1*7B
$GBGSV,4,4,13,23,15,217,,1*45
$GBGSV,2,1,06,40,81,153,38,33,69,140,29,43,52,064,41,28,41,329,40,4*72
$GBGSV,2,2,06,42,36,049,40,34,15,102,24,4*79
$GNGGA,035923.000,2500.8054300,N,12132.4308800,E,2,53,0.52,11.62,M,15.25,M,5,3335*73
$GNRMC,035923.000,A,2500.8054300,N,12132.4308800,E,0.00,261.39,270623,,,D,V*05
$PAIR010,0,1,2268,187181*32
$GPHDT,,T*1B
$GNGGA,035923.200,2500.8054500,N,12132.4309000,E,2,54,0.50,11.61,M,15.25,M,5,3335*78
$GNRMC,035923.200,A,2500.8054500,N,12132.4309000,E,0.00,261.39,270623,,,D,V*08
$GPHDT,,T*1B
$GNGGA,035923.400,2500.8054700,N,12132.4309200,E,2,54,0.50,11.61,M,15.25,M,5,3335*7E
$GNRMC,035923.400,A,2500.8054700,N,12132.4309200,E,0.00,261.39,270623,,,D,V*0E
$GPHDT,,T*1B
$GNGGA,035923.600,2500.8054900,N,12132.4309400,E,2,55,0.48,11.61,M,15.25,M,5,3335*7C
$GNRMC,035923.600,A,2500.8054900,N,12132.4309400,E,0.00,261.39,270623,,,D,V*04
$GPHDT,,T*1B
$GNGGA,035923.800,2500.8055100,N,12132.4309600,E,2,55,0.48,11.60,M,15.25,M,5,3335*78
$GNRMC,035923.800,A,2500.8055100,N,12132.4309600,E,0.00,261.39,270623,,,D,V*01
$GPHDT,,T*1B
$GNGSA,A,3,19,195,196,17,199,06,194,09,20,11,04,12,0.95,0.51,0.80,1*0B
$GNGSA,A,3,68,67,82,83,73,80,,,,,,,0.95,0.51,0.80,2*00
$GNGSA,A,3,10,12,11,04,19,25,,,,,,,0.95,0.51,0.80,3*0A
$GNGSA,A,3,40,07,10,33,14,08,43,28,42,11,34,,0.95,0.51,0.80,4*07
$GPGSV,4,1,15,19,69,035,43,195,68,045,37,196,66,125,31,17,62,090,43,1*63
$GPGSV,4,2,15,50,60,167,28,199,60,167,26,06,50,349,43,194,38,172,25,1*62
$GPGSV,4,3,15,09,35,098,41,20,33,235,18,11,30,292,21,04,20,066,27,1*69
$GPGSV,4,4,15,14,20,175,17,12,17,314,23,05,08,224,,1*59
$GPGSV,2,1,07,195,68,045,42,196,66,125,40,199,60,167,39,06,50,349,45,8*50
$GPGSV,2,2,07,09,35,098,44,11,30,292,20,04,20,066,24,8*5C
$GLGSV,2,1,07,68,56,141,38,67,44,052,36,82,36,046,40,83,36,349,32,1*75
$GLGSV,2,2,07,73,22,282,20,80,19,225,21,66,01,025,,1*41
$GAGSV,3,1,09,10,49,341,43,24,48,236,,12,47,021,37,11,36,305,26,7*78
$GAGSV,3,2,09,04,32,151,32,19,32,080,30,25,27,303,25,33,13,068,,7*71
$GAGSV,3,3,09,09,03,191,,7*49
$GAGSV,2,1,06,10,49,341,45,12,47,021,43,11,36,305,29,04,32,151,33,1*77
$GAGSV,2,2,06,19,32,080,33,25,27,303,20,1*72
$GBGSV,4,1,13,40,81,153,31,07,79,236,28,10,72,281,28,33,69,140,24,1*74
$GBGSV,4,2,13,14,59,071,39,08,57,276,26,43,52,064,42,28,41,329,40,1*7D
$GBGSV,4,3,13,42,36,049,40,11,31,086,38,41,27,198,,34,15,102,27,1*7B
$GBGSV,4,4,13,23,15,217,,1*45
$GBGSV,2,1,06,40,81,153,38,33,69,140,29,43,52,064,41,28,41,329,40,4*72
$GBGSV,2,2,06,42,36,049,40,34,15,102,23,4*7E
$GNGGA,035924.000,2500.8055200,N,12132.4309800,E,2,54,0.51,11.60,M,15.25,M,6,3335*70
$GNRMC,035924.000,A,2500.8055200,N,12132.4309800,E,0.00,261.39,270623,,,D,V*03
$GPHDT,,T*1B
$GNGGA,035924.200,2500.8055400,N,12132.4310000,E,2,54,0.51,11.59,M,15.25,M,5,3335*7D
$GNRMC,035924.200,A,2500.8055400,N,12132.4310000,E,0.00,261.39,270623,,,D,V*07
$GPHDT,,T*1B
$GNGGA,035924.400,2500.8055600,N,12132.4310100,E,2,54,0.51,11.58,M,15.25,M,5,3335*79
$GNRMC,035924.400,A,2500.8055600,N,12132.4310100,E,0.00,261.39,270623,,,D,V*02
$GPHDT,,T*1B
$GNGGA,035924.600,2500.8055800,N,12132.4310400,E,2,53,0.51,11.57,M,15.25,M,1,3335*7C
$GNRMC,035924.600,A,2500.8055800,N,12132.4310400,E,0.00,261.39,270623,,,D,V*0B
$GPHDT,,T*1B
$GNGGA,035924.800,2500.8056000,N,12132.4310600,E,2,53,0.51,11.56,M,15.25,M,0,3335*7B
$GNRMC,035924.800,A,2500.8056000,N,12132.4310600,E,0.00,261.39,270623,,,D,V*0C
$GPHDT,,T*1B
$GNGSA,A,3,19,195,196,17,199,06,194,09,20,11,14,04,0.92,0.48,0.78,1*05
$GNGSA,A,3,12,,,,,,,,,,,,0.92,0.48,0.78,1*0A
$GNGSA,A,3,68,67,82,83,73,80,,,,,,,0.92,0.48,0.78,2*08
$GNGSA,A,3,10,12,11,04,19,25,,,,,,,0.92,0.48,0.78,3*02
$GNGSA,A,3,40,07,10,33,14,08,43,28,42,11,34,,0.92,0.48,0.78,4*0F
$GPGSV,4,1,15,19,69,035,43,195,68,045,38,196,66,125,32,17,62,090,43,1*6F
$GPGSV,4,2,15,50,60,167,28,199,60,167,26,06,50,349,43,194,38,172,25,1*62
$GPGSV,4,3,15,09,35,098,41,20,33,235,17,11,30,292,20,14,20,175,17,1*66
$GPGSV,4,4,15,04,20,066,22,12,17,314,21,05,08,224,,1*5F
$GPGSV,2,1,06,195,68,045,42,196,66,125,40,199,60,167,40,06,50,349,45,8*5F
$GPGSV,2,2,06,09,35,098,44,11,30,292,20,8*6D
$GLGSV,2,1,07,68,56,141,38,67,44,052,35,82,36,046,40,83,36,349,32,1*76
$GLGSV,2,2,07,73,22,282,23,80,19,225,20,66,01,025,,1*43
$GAGSV,2,1,08,10,49,341,43,24,48,236,,12,47,022,37,11,36,306,27,7*79
$GAGSV,2,2,08,04,32,151,31,19,32,080,30,25,27,303,25,33,13,068,,7*72
$GAGSV,2,1,06,10,49,341,45,12,47,022,43,11,36,306,28,04,32,151,33,1*76
$GAGSV,2,2,06,19,32,080,33,25,27,303,19,1*78
$GBGSV,4,1,13,40,81,153,31,07,79,236,28,10,72,281,28,33,69,140,25,1*75
$GBGSV,4,2,13,14,59,071,40,08,57,276,26,43,52,064,42,28,41,329,40,1*73
$GBGSV,4,3,13,42,36,049,39,11,31,086,39,41,27,198,,23,15,217,,1*70
$GBGSV,4,4,13,34,15,102,27,1*41
$GBGSV,2,1,06,40,81,153,38,33,69,140,29,43,52,064,41,28,41,329,40,4*72
$GBGSV,2,2,06,42,36,049,39,34,15,102,24,4*77
$GNGGA,035925.000,2500.8056100,N,12132.4310900,E,2,54,0.48,11.56,M,15.25,M,1,3335*72
$GNRMC,035925.000,A,2500.8056100,N,12132.4310900,E,0.00,261.39,270623,,,D,V*0B
$GPHDT,,T*1B
$GNGGA,035925.200,2500.8056300,N,12132.4311000,E,2,53,0.51,11.56,M,15.25,M,1,3335*75
$GNRMC,035925.200,A,2500.8056300,N,12132.4311000,E,0.00,261.39,270623,,,D,V*03
$GPHDT,,T*1B
$GNGGA,035925.400,2500.8056400,N,12132.4311200,E,2,54,0.48,11.56,M,15.25,M,1,3335*79
$GNRMC,035925.400,A,2500.8056400,N,12132.4311200,E,0.00,261.39,270623,,,D,V*00
$GPHDT,,T*1B
$GNGGA,035925.600,2500.8056600,N,12132.4311500,E,2,54,0.48,11.56,M,15.25,M,1,3335*7E
$GNRMC,035925.600,A,2500.8056600,N,12132.4311500,E,0.00,261.39,270623,,,D,V*07
$GPHDT,,T*1B
$GNGGA,035925.800,2500.8056700,N,12132.4311500,E,2,54,0.48,11.57,M,15.25,M,1,3335*70
$GNRMC,035925.800,A,2500.8056700,N,12132.4311500,E,0.00,261.39,270623,,,D,V*08
$GPHDT,,T*1B
$GNGSA,A,3,19,195,196,17,199,06,194,09,20,11,14,04,0.92,0.48,0.78,1*05
$GNGSA,A,3,12,,,,,,,,,,,,0.92,0.48,0.78,1*0A
$GNGSA,A,3,68,67,82,83,73,80,,,,,,,0.92,0.48,0.78,2*08
$GNGSA,A,3,10,12,11,04,19,25,,,,,,,0.92,0.48,0.78,3*02
$GNGSA,A,3,40,07,10,33,14,08,43,28,42,11,34,,0.92,0.48,0.78,4*0F
$GPGSV,4,1,15,19,69,035,44,195,68,045,38,196,66,125,29,17,62,090,44,1*65
$GPGSV,4,2,15,50,60,167,28,199,60,167,26,06,50,349,43,194,38,172,25,1*62
$GPGSV,4,3,15,09,35,098,44,20,33,235,15,11,30,292,20,14,20,175,18,1*6E
$GPGSV,4,4,15,04,20,066,23,12,17,314,19,05,08,224,,1*55
$GPGSV,2,1,06,195,68,045,42,196,66,125,38,199,60,167,39,06,50,349,45,8*5E
$GPGSV,2,2,06,09,35,098,44,11,30,292,20,8*6D
$GLGSV,2,1,07,68,56,141,37,67,44,052,34,82,36,046,38,83,36,349,32,1*77
$GLGSV,2,2,07,73,22,282,24,80,19,225,20,66,01,025,,1*44
$GAGSV,2,1,08,10,49,341,43,24,48,236,,12,47,022,37,11,36,306,27,7*79
$GAGSV,2,2,08,04,32,151,31,19,32,080,32,25,27,303,25,33,13,068,,7*70
$GAGSV,2,1,06,10,49,341,45,12,47,022,43,11,36,306,27,04,32,151,33,1*79
$GAGSV,2,2,06,19,32,080,24,25,27,303,18,1*7F
$GBGSV,4,1,13,40,81,153,31,07,79,236,28,10,72,281,29,33,69,140,23,1*72
$GBGSV,4,2,13,14,59,071,39,08,57,276,26,43,52,064,42,28,41,329,40,1*7D
$GBGSV,4,3,13,42,36,049,39,11,31,086,39,41,27,198,,23,15,217,,1*70
$GBGSV,4,4,13,34,15,102,27,1*41
$GBGSV,2,1,06,40,81,153,38,33,69,140,25,43,52,064,41,28,41,329,40,4*7E
$GBGSV,2,2,06,42,36,049,37,34,15,102,24,4*79
$GNGGA,035926.000,2500.8056900,N,12132.4311600,E,2,54,0.48,11.56,M,15.25,M,1,3335*77
$GNRMC,035926.000,A,2500.8056900,N,12132.4311600,E,0.00,261.39,270623,,,D,V*0E
$GPHDT,,T*1B
$GNGGA,035926.200,2500.8057000,N,12132.4311900,E,2,54,0.48,11.55,M,15.25,M,1,3335*71
$GNRMC,035926.200,A,2500.8057000,N,12132.4311900,E,0.00,261.39,270623,,,D,V*0B
$GPHDT,,T*1B
$GNGGA,035926.400,2500.8057200,N,12132.4312100,E,2,54,0.48,11.54,M,15.25,M,1,3335*7F
$GNRMC,035926.400,A,2500.8057200,N,12132.4312100,E,0.00,261.39,270623,,,D,V*04
$GPHDT,,T*1B
$GNGGA,035926.600,2500.8057300,N,12132.4312300,E,2,54,0.48,11.52,M,15.25,M,1,3335*78
$GNRMC,035926.600,A,2500.8057300,N,12132.4312300,E,0.00,261.39,270623,,,D,V*05
$GPHDT,,T*1B
$GNGGA,035926.800,2500.8057500,N,12132.4312500,E,2,54,0.48,11.53,M,15.25,M,1,3335*77
$GNRMC,035926.800,A,2500.8057500,N,12132.4312500,E,0.00,261.39,270623,,,D,V*0B
$GPHDT,,T*1B
$GNGSA,A,3,19,195,196,17,199,06,194,09,20,11,14,04,0.92,0.48,0.78,1*05
$GNGSA,A,3,12,,,,,,,,,,,,0.92,0.48,0.78,1*0A
$GNGSA,A,3,68,67,82,83,73,80,,,,,,,0.92,0.48,0.78,2*08
$GNGSA,A,3,10,12,11,04,19,25,,,,,,,0.92,0.48,0.78,3*02
$GNGSA,A,3,40,07,10,33,14,08,43,28,42,11,34,,0.92,0.48,0.78,4*0F
$GPGSV,4,1,15,19,69,035,44,195,68,045,36,196,66,125,24,17,62,090,44,1*66
$GPGSV,4,2,15,50,60,167,24,199,60,167,21,06,50,349,43,194,38,172,22,1*6E
$GPGSV,4,3,15,09,35,098,45,20,33,235,16,11,30,292,20,14,20,175,17,1*63
$GPGSV,4,4,15,04,20,066,26,12,17,314,19,05,08,224,,1*50
$GPGSV,2,1,06,195,68,045,42,196,66,125,36,199,60,167,35,06,50,349,45,8*5C
$GPGSV,2,2,06,09,35,098,44,11,30,292,20,8*6D
$GLGSV,2,1,07,68,56,141,32,67,44,052,32,82,36,046,38,83,36,349,33,1*75
$GLGSV,2,2,07,73,22,282,25,80,19,225,20,66,01,025,,1*45
$GAGSV,2,1,08,10,49,341,43,24,48,236,,12,47,022,38,11,36,306,27,7*76
$GAGSV,2,2,08,04,32,151,31,19,32,080,24,25,27,303,25,33,13,068,,7*77
$GAGSV,2,1,06,10,49,341,45,12,47,022,43,11,36,306,28,04,32,151,35,1*70
$GAGSV,2,2,06,19,32,080,30,25,27,303,18,1*7A
$GBGSV,4,1,13,40,81,153,32,07,79,236,29,10,72,281,29,33,69,140,20,1*73
$GBGSV,4,2,13,14,59,071,40,08,57,276,26,43,52,064,41,28,41,329,40,1*70
$GBGSV,4,3,13,42,36,049,40,11,31,086,37,41,27,198,,23,15,217,,1*70
$GBGSV,4,4,13,34,15,102,26,1*40
$GBGSV,2,1,06,40,81,153,38,33,69,140,18,43,52,064,41,28,41,329,39,4*7E
$GBGSV,2,2,06,42,36,049,38,34,15,102,23,4*71
$GNGGA,035927.000,2500.8057500,N,12132.4312700,E,2,54,0.48,11.53,M,15.25,M,2,3335*7F
$GNRMC,035927.000,A,2500.8057500,N,12132.4312700,E,0.00,261.39,270623,,,D,V*00
$GPHDT,,T*1B
$GNGGA,035927.200,2500.8057600,N,12132.4313000,E,2,54,0.48,11.54,M,15.25,M,2,3335*7F
$GNRMC,035927.200,A,2500.8057600,N,12132.4313000,E,0.00,261.39,270623,,,D,V*07
