$FW : RTK35X,V1.1X0314AS,Lib20210517,1*54
$Tool : LOCOSYS , GNSS Firebird , v1.0.0.19*39
$---------------------------------------------------*2D
$GPHDT,,T*1B
$GNGGA,035936.400,2500.8058500,N,12132.4314800,E,2,54,0.51,10.64,M,15.25,M,3,3335*71
$GNRMC,035936.400,A,2500.8058500,N,12132.4314800,E,0.11,261.39,270623,,,D,V*02
$GPHDT,,T*1B
$GNGGA,035936.600,2500.8058400,N,12132.4314800,E,2,54,0.51,10.62,M,15.25,M,1,3335*76
$GNRMC,035936.600,A,2500.8058400,N,12132.4314800,E,0.11,261.39,270623,,,D,V*01
$GPHDT,,T*1B
$GNGGA,035936.800,2500.8058400,N,12132.4314700,E,2,54,0.51,10.60,M,15.25,M,0,3335*74
$GNRMC,035936.800,A,2500.8058400,N,12132.4314700,E,0.04,261.39,270623,,,D,V*04
$GPHDT,,T*1B
$GNGSA,A,3,19,195,196,17,199,06,194,09,20,11,04,12,0.95,0.51,0.80,1*0B
$GNGSA,A,3,68,67,83,82,73,80,,,,,,,0.95,0.51,0.80,2*00
$GNGSA,A,3,10,12,11,04,19,25,,,,,,,0.95,0.51,0.80,3*0A
$GNGSA,A,3,40,07,10,33,14,08,43,28,42,11,34,,0.95,0.51,0.80,4*07
$GPGSV,4,1,15,19,69,035,40,195,68,045,34,196,66,125,33,17,62,090,44,1*66
$GPGSV,4,2,15,50,60,167,31,199,60,167,30,06,50,349,40,194,38,172,23,1*68
$GPGSV,4,3,15,09,35,098,39,20,33,235,18,11,30,292,27,14,20,175,18,1*6E
$GPGSV,4,4,15,04,20,066,36,12,17,314,23,05,08,224,,1*58
$GPGSV,2,1,08,195,68,045,43,196,66,125,37,199,60,167,42,06,50,349,32,8*52
$GPGSV,2,2,08,194,38,172,17,09,35,098,39,11,30,292,25,04,20,066,33,8*5F
$GLGSV,2,1,06,68,57,141,34,67,43,052,46,83,36,349,28,82,36,047,44,1*77
$GLGSV,2,2,06,73,22,282,22,80,19,225,20,1*75
$GAGSV,3,1,09,10,49,341,42,24,48,236,,12,47,022,29,11,36,306,32,7*73
$GAGSV,3,2,09,04,32,151,38,19,32,080,32,25,27,302,24,33,13,069,,7*78
$GAGSV,3,3,09,09,03,191,,7*49
$GAGSV,2,1,06,10,49,341,40,12,47,022,36,11,36,306,22,04,32,151,36,1*7E
$GAGSV,2,2,06,19,32,080,31,25,27,302,15,1*77
$GBGSV,4,1,14,40,81,153,35,07,78,235,28,10,72,281,29,33,69,140,24,1*74
$GBGSV,4,2,14,14,59,070,42,08,57,276,28,43,52,064,45,28,41,329,42,1*7C
$GBGSV,4,3,14,42,36,049,47,11,30,087,35,41,27,198,,37,15,268,,1*7F
$GBGSV,4,4,14,23,15,217,,34,15,102,20,1*70
$GBGSV,2,1,05,40,81,153,38,33,69,140,33,43,52,064,42,28,41,329,40,4*79
$GBGSV,2,2,05,42,36,049,44,4*48
$GNGGA,035937.000,2500.8058400,N,12132.4314700,E,2,54,0.51,10.57,M,15.25,M,1,3335*78
$GNRMC,035937.000,A,2500.8058400,N,12132.4314700,E,0.07,261.39,270623,,,D,V*0E
$GPHDT,,T*1B
$GNGGA,035937.200,2500.8058400,N,12132.4314700,E,2,54,0.51,10.55,M,15.25,M,1,3335*78
$GNRMC,035937.200,A,2500.8058400,N,12132.4314700,E,0.08,261.39,270623,,,D,V*03
$GPHDT,,T*1B
$GNGGA,035937.400,2500.8058400,N,12132.4314700,E,2,53,0.51,10.52,M,15.25,M,1,3335*7E
$GNRMC,035937.400,A,2500.8058400,N,12132.4314700,E,0.08,261.39,270623,,,D,V*05
$GPHDT,,T*1B
$GNGGA,035937.600,2500.8058400,N,12132.4314600,E,2,53,0.49,10.50,M,15.25,M,1,3335*76
$GNRMC,035937.600,A,2500.8058400,N,12132.4314600,E,0.06,261.39,270623,,,D,V*08
$GPHDT,,T*1B
$GNGGA,035937.800,2500.8058400,N,12132.4314600,E,2,54,0.47,10.47,M,15.25,M,1,3335*77
$GNRMC,035937.800,A,2500.8058400,N,12132.4314600,E,0.06,261.39,270623,,,D,V*06
$GPHDT,,T*1B
$GNGSA,A,3,19,195,196,17,199,06,194,09,20,11,14,04,0.87,0.47,0.73,1*05
$GNGSA,A,3,12,,,,,,,,,,,,0.87,0.47,0.73,1*0A
$GNGSA,A,3,68,67,83,82,73,80,,,,,,,0.87,0.47,0.73,2*08
$GNGSA,A,3,10,12,11,04,19,25,33,,,,,,0.87,0.47,0.73,3*02
$GNGSA,A,3,40,07,10,33,14,08,43,28,42,11,34,,0.87,0.47,0.73,4*0F
$GPGSV,4,1,15,19,69,035,41,195,68,045,34,196,66,125,33,17,62,090,44,1*67
$GPGSV,4,2,15,50,60,167,31,199,60,167,30,06,50,349,40,194,38,172,21,1*6A
$GPGSV,4,3,15,09,35,098,38,20,33,235,18,11,30,292,27,14,20,175,19,1*6E
$GPGSV,4,4,15,04,20,066,36,12,17,314,21,05,08,224,,1*5A
$GPGSV,2,1,07,195,68,045,43,196,66,125,37,199,60,167,42,194,38,172,14,8*67
$GPGSV,2,2,07,09,35,098,38,11,30,292,25,04,20,066,31,8*56
$GLGSV,2,1,06,68,57,141,35,67,43,052,46,83,36,349,29,82,36,047,44,1*77
$GLGSV,2,2,06,73,22,282,20,80,19,225,22,1*75
$GAGSV,3,1,09,10,49,341,42,24,48,236,,12,47,022,28,11,36,306,32,7*72
$GAGSV,3,2,09,04,32,151,39,19,32,080,32,25,27,302,23,33,13,069,18,7*77
$GAGSV,3,3,09,09,03,191,,7*49
$GAGSV,2,1,05,10,49,341,40,12,47,022,36,11,36,306,20,04,32,151,36,1*7F
$GAGSV,2,2,05,19,32,080,30,1*42
$GBGSV,4,1,14,40,81,153,34,07,78,235,27,10,72,281,29,33,69,140,28,1*76
$GBGSV,4,2,14,14,59,070,42,08,57,276,27,43,52,064,43,28,41,329,42,1*75
$GBGSV,4,3,14,42,36,049,47,11,30,087,35,41,27,198,,37,15,268,,1*7F
$GBGSV,4,4,14,23,15,217,,34,15,102,20,1*70
$GBGSV,2,1,05,40,81,153,38,33,69,140,33,43,52,064,42,28,41,329,40,4*79
$GBGSV,2,2,05,42,36,049,44,4*48
$GNGGA,035938.000,2500.8058400,N,12132.4314600,E,2,54,0.47,10.45,M,15.25,M,2,3335*71
$GNRMC,035938.000,A,2500.8058400,N,12132.4314600,E,0.01,261.39,270623,,,D,V*06
$GPHDT,,T*1B
$GNGGA,035938.200,2500.8058400,N,12132.4314600,E,2,54,0.47,10.42,M,15.25,M,2,3335*74
$GNRMC,035938.200,A,2500.8058400,N,12132.4314600,E,0.10,261.39,270623,,,D,V*04
$GPHDT,,T*1B
$GNGGA,035938.400,2500.8058400,N,12132.4314600,E,2,55,0.47,10.39,M,15.25,M,2,3335*7F
$GNRMC,035938.400,A,2500.8058400,N,12132.4314600,E,0.04,261.39,270623,,,D,V*07
$GPHDT,,T*1B
$GNGGA,035938.600,2500.8058400,N,12132.4314700,E,2,54,0.47,10.36,M,15.25,M,2,3335*72
$GNRMC,035938.600,A,2500.8058400,N,12132.4314700,E,0.02,261.39,270623,,,D,V*02
$GPHDT,,T*1B
$GNGGA,035938.800,2500.8058400,N,12132.4314700,E,2,54,0.47,10.35,M,15.25,M,2,3335*7F
$GNRMC,035938.800,A,2500.8058400,N,12132.4314700,E,0.04,261.39,270623,,,D,V*0A
$GPHDT,,T*1B
$GNGSA,A,3,19,195,196,17,199,06,194,09,20,11,14,04,0.87,0.47,0.73,1*05
$GNGSA,A,3,12,,,,,,,,,,,,0.87,0.47,0.73,1*0A
$GNGSA,A,3,68,67,83,82,73,80,,,,,,,0.87,0.47,0.73,2*08
$GNGSA,A,3,10,12,11,04,19,25,33,,,,,,0.87,0.47,0.73,3*02
$GNGSA,A,3,40,07,10,33,14,08,43,28,42,11,34,,0.87,0.47,0.73,4*0F
$GPGSV,4,1,15,19,69,035,41,195,68,045,34,196,66,125,34,17,62,090,44,1*60
$GPGSV,4,2,15,50,60,167,31,199,60,167,30,06,50,349,40,194,38,172,21,1*6A
$GPGSV,4,3,15,09,35,098,38,20,33,235,18,11,30,292,28,14,20,175,19,1*61
$GPGSV,4,4,15,04,20,066,36,12,17,314,22,05,08,224,,1*59
$GPGSV,2,1,08,195,68,045,43,196,66,125,37,199,60,167,42,06,50,349,29,8*58
$GPGSV,2,2,08,194,38,172,12,09,35,098,38,11,30,292,24,04,20,066,30,8*59
$GLGSV,2,1,06,68,57,141,36,67,43,052,47,83,36,349,29,82,36,047,44,1*75
$GLGSV,2,2,06,73,22,282,18,80,19,225,22,1*7E
$GAGSV,2,1,08,10,49,341,42,24,48,236,,12,47,022,29,11,36,306,32,7*73
$GAGSV,2,2,08,04,32,151,39,19,32,080,31,25,27,302,21,33,13,069,20,7*7D
$GAGSV,2,1,06,10,49,341,40,12,47,022,36,11,36,306,20,04,32,151,35,1*7F
$GAGSV,2,2,06,19,32,080,29,25,27,302,18,1*73
$GBGSV,4,1,13,40,81,153,34,07,78,235,27,10,72,281,29,33,69,140,29,1*70
$GBGSV,4,2,13,14,59,070,42,08,57,276,27,43,52,064,43,28,41,329,41,1*71
$GBGSV,4,3,13,42,36,049,47,11,30,087,35,41,27,198,,34,15,102,22,1*74
$GBGSV,4,4,13,39,03,177,,1*4C
$GBGSV,2,1,06,40,81,153,38,33,69,140,34,43,52,064,41,28,41,329,40,4*7E
$GBGSV,2,2,06,42,36,049,44,34,15,102,25,4*7C
$GNGGA,035939.000,2500.8058300,N,12132.4314700,E,2,55,0.47,10.32,M,15.25,M,3,3335*76
$GNRMC,035939.000,A,2500.8058300,N,12132.4314700,E,0.09,261.39,270623,,,D,V*09
$GPHDT,,T*1B
$GNGGA,035939.200,2500.8058300,N,12132.4314600,E,2,55,0.47,10.30,M,15.25,M,3,3335*77
$GNRMC,035939.200,A,2500.8058300,N,12132.4314600,E,0.09,261.39,270623,,,D,V*0A
$GPHDT,,T*1B
$GNGGA,035939.400,2500.8058300,N,12132.4314600,E,2,55,0.47,10.29,M,15.25,M,3,3335*79
$GNRMC,035939.400,A,2500.8058300,N,12132.4314600,E,0.09,261.39,270623,,,D,V*0C
$GPHDT,,T*1B
$GNGGA,035939.600,2500.8058300,N,12132.4314600,E,2,56,0.47,10.27,M,15.25,M,3,3335*76
$GNRMC,035939.600,A,2500.8058300,N,12132.4314600,E,0.08,261.39,270623,,,D,V*0F
$GPHDT,,T*1B
$GNGGA,035939.800,2500.8058300,N,12132.4314500,E,2,56,0.47,10.26,M,15.25,M,2,3335*7B
$GNRMC,035939.800,A,2500.8058300,N,12132.4314500,E,0.11,261.39,270623,,,D,V*0A
$GPHDT,,T*1B
$GNGSA,A,3,19,195,196,17,199,06,194,09,20,11,14,04,0.87,0.47,0.73,1*05
$GNGSA,A,3,12,,,,,,,,,,,,0.87,0.47,0.73,1*0A
$GNGSA,A,3,68,67,82,83,73,80,,,,,,,0.87,0.47,0.73,2*08
$GNGSA,A,3,10,12,11,04,19,25,33,,,,,,0.87,0.47,0.73,3*02
$GNGSA,A,3,40,07,10,33,14,08,43,28,42,11,34,,0.87,0.47,0.73,4*0F
$GPGSV,4,1,15,19,69,035,41,195,68,045,34,196,66,125,33,17,62,090,44,1*67
$GPGSV,4,2,15,50,60,167,31,199,60,167,30,06,50,349,40,194,38,172,21,1*6A
$GPGSV,4,3,15,09,35,098,38,20,33,235,18,11,30,292,28,14,20,175,19,1*61
$GPGSV,4,4,15,04,20,066,35,12,17,314,24,05,08,224,,1*5C
$GPGSV,2,1,08,195,68,045,43,196,66,125,37,199,60,167,41,06,50,349,28,8*5A
$GPGSV,2,2,08,194,38,172,12,09,35,098,38,11,30,292,23,04,20,066,28,8*57
$GLGSV,2,1,08,68,57,141,36,67,43,052,47,82,36,047,44,83,36,349,29,1*7B
$GLGSV,2,2,08,73,22,282,18,80,19,225,22,69,17,184,,74,05,322,,1*71
$GAGSV,3,1,09,10,49,341,42,24,48,236,,12,47,022,29,11,36,306,32,7*73
$GAGSV,3,2,09,04,32,151,39,19,32,080,31,25,27,302,20,33,13,069,20,7*7C
$GAGSV,3,3,09,09,03,191,,7*49
$GAGSV,2,1,06,10,49,341,40,12,47,022,36,11,36,306,20,04,32,151,33,1*79
$GAGSV,2,2,06,19,32,080,27,25,27,302,17,1*72
$GBGSV,4,1,13,40,81,153,33,07,78,235,28,10,72,281,29,33,69,140,29,1*78
$GBGSV,4,2,13,14,59,070,42,08,57,276,26,43,52,064,42,28,41,329,40,1*70
$GBGSV,4,3,13,42,36,049,47,11,30,087,35,41,27,198,,34,15,102,,1*74
$GBGSV,4,4,13,23,15,217,,1*45
$GBGSV,2,1,06,40,81,153,38,33,69,140,34,43,52,064,40,28,41,329,40,4*7F
$GBGSV,2,2,06,42,36,049,44,34,15,102,25,4*7C
$GNGGA,035940.000,2500.8058300,N,12132.4314500,E,2,56,0.47,10.24,M,15.25,M,1,3335*7C
$GNRMC,035940.000,A,2500.8058300,N,12132.4314500,E,0.14,261.39,270623,,,D,V*09
$GPHDT,,T*1B
$GNGGA,035940.200,2500.8058300,N,12132.4314500,E,2,56,0.47,10.22,M,15.25,M,1,3335*78
$GNRMC,035940.200,A,2500.8058300,N,12132.4314500,E,0.13,261.39,270623,,,D,V*0C
$GPHDT,,T*1B
$GNGGA,035940.400,2500.8058300,N,12132.4314400,E,2,56,0.47,10.19,M,15.25,M,1,3335*77
$GNRMC,035940.400,A,2500.8058300,N,12132.4314400,E,0.13,261.39,270623,,,D,V*0B
$GPHDT,,T*1B
$GNGGA,035940.600,2500.8058300,N,12132.4314300,E,2,56,0.47,10.16,M,15.25,M,0,3335*7C
$GNRMC,035940.600,A,2500.8058300,N,12132.4314300,E,0.11,261.39,270623,,,D,V*0C
$GPHDT,,T*1B
$GNGGA,035940.800,2500.8058300,N,12132.4314300,E,2,56,0.47,10.14,M,15.25,M,0,3335*70
$GNRMC,035940.800,A,2500.8058300,N,12132.4314300,E,0.17,261.39,270623,,,D,V*04
$GPHDT,,T*1B
$GNGSA,A,3,19,195,196,17,199,06,194,09,20,11,14,04,0.87,0.47,0.73,1*05
$GNGSA,A,3,12,,,,,,,,,,,,0.87,0.47,0.73,1*0A
$GNGSA,A,3,68,67,83,82,73,80,,,,,,,0.87,0.47,0.73,2*08
$GNGSA,A,3,10,12,11,04,19,25,33,,,,,,0.87,0.47,0.73,3*02
$GNGSA,A,3,40,07,10,33,14,08,43,28,42,11,34,,0.87,0.47,0.73,4*0F
$GPGSV,4,1,15,19,69,035,41,195,68,045,34,196,66,125,35,17,62,090,44,1*61
$GPGSV,4,2,15,50,60,167,31,199,60,167,30,06,50,349,40,194,38,172,22,1*69
$GPGSV,4,3,15,09,35,098,37,20,33,235,18,11,30,292,27,14,20,175,20,1*6B
$GPGSV,4,4,15,04,20,066,35,12,17,314,24,05,08,224,,1*5C
$GPGSV,2,1,08,195,68,045,43,196,66,125,38,199,60,167,41,06,50,349,27,8*5A
$GPGSV,2,2,08,194,38,172,12,09,35,098,38,11,30,292,23,04,20,066,29,8*56
$GLGSV,2,1,06,68,57,141,36,67,43,052,47,83,36,349,29,82,36,047,45,1*74
$GLGSV,2,2,06,73,22,282,21,80,19,225,21,1*77
$GAGSV,3,1,09,10,49,341,42,24,48,236,,12,47,022,29,11,36,306,32,7*73
$GAGSV,3,2,09,04,32,151,39,19,32,080,31,25,27,302,23,33,13,069,20,7*7F
$GAGSV,3,3,09,09,03,191,,7*49
$GAGSV,2,1,06,10,49,341,40,12,47,022,37,11,36,306,21,04,32,151,36,1*7C
$GAGSV,2,2,06,19,32,080,29,25,27,302,16,1*7D
$GBGSV,4,1,13,40,81,153,34,07,78,235,27,10,72,281,30,33,69,140,30,1*70
$GBGSV,4,2,13,14,59,070,42,08,57,276,26,43,52,064,42,28,41,329,40,1*70
$GBGSV,4,3,13,42,36,049,47,11,30,087,35,41,27,198,,34,15,102,,1*74
$GBGSV,4,4,13,23,15,217,,1*45
$GBGSV,2,1,06,40,81,153,39,33,69,140,35,43,52,064,41,28,41,329,40,4*7E
$GBGSV,2,2,06,42,36,049,45,34,15,102,25,4*7D
$GNGGA,035941.000,2500.8058300,N,12132.4314200,E,2,56,0.47,10.11,M,15.25,M,1,3335*7C
$GNRMC,035941.000,A,2500.8058300,N,12132.4314200,E,0.18,261.39,270623,,,D,V*03
$GPHDT,,T*1B
$GNGGA,035941.200,2500.8058300,N,12132.4314200,E,2,56,0.47,10.09,M,15.25,M,1,3335*77
$GNRMC,035941.200,A,2500.8058300,N,12132.4314200,E,0.14,261.39,270623,,,D,V*0D
$GPHDT,,T*1B
$GNGGA,035941.400,2500.8058200,N,12132.4314200,E,2,56,0.47,10.06,M,15.25,M,1,3335*7F
$GNRMC,035941.400,A,2500.8058200,N,12132.4314200,E,0.10,261.39,270623,,,D,V*0E
$GPHDT,,T*1B
$GNGGA,035941.600,2500.8058200,N,12132.4314100,E,2,56,0.47,10.03,M,15.25,M,1,3335*7B
$GNRMC,035941.600,A,2500.8058200,N,12132.4314100,E,0.07,261.39,270623,,,D,V*09
$GPHDT,,T*1B
$GNGGA,035941.800,2500.8058200,N,12132.4314100,E,2,56,0.47,9.99,M,15.25,M,1,3335*4E
$GNRMC,035941.800,A,2500.8058200,N,12132.4314100,E,0.10,261.39,270623,,,D,V*01
$GPHDT,,T*1B
$GNGSA,A,3,19,195,196,17,199,06,194,09,20,11,14,04,0.87,0.47,0.73,1*05
$GNGSA,A,3,12,,,,,,,,,,,,0.87,0.47,0.73,1*0A
$GNGSA,A,3,68,67,83,82,73,80,,,,,,,0.87,0.47,0.73,2*08
$GNGSA,A,3,10,12,11,04,19,25,33,,,,,,0.87,0.47,0.73,3*02
$GNGSA,A,3,40,07,10,33,14,08,43,28,42,11,34,,0.87,0.47,0.73,4*0F
$GPGSV,4,1,15,19,69,035,41,195,68,045,34,196,66,125,35,17,62,090,44,1*61
$GPGSV,4,2,15,50,60,167,31,199,60,167,30,06,50,349,39,194,38,172,22,1*67
$GPGSV,4,3,15,09,35,098,36,20,33,235,16,11,30,292,27,14,20,175,20,1*64
$GPGSV,4,4,15,04,20,066,35,12,17,314,25,05,08,224,,1*5D
$GPGSV,2,1,07,195,68,045,43,196,66,125,38,199,60,167,41,06,50,349,27,8*55
$GPGSV,2,2,07,09,35,098,38,11,30,292,22,04,20,066,29,8*58
$GLGSV,2,1,06,68,57,141,36,67,43,052,47,83,36,349,29,82,36,047,45,1*74
$GLGSV,2,2,06,73,22,282,23,80,19,225,22,1*76
$GAGSV,3,1,09,10,49,341,42,24,48,236,,12,47,022,28,11,36,306,32,7*72
$GAGSV,3,2,09,04,32,151,39,19,32,080,31,25,27,302,23,33,13,069,19,7*75
$GAGSV,3,3,09,09,03,191,,7*49
$GAGSV,2,1,06,10,49,341,40,12,47,022,37,11,36,306,21,04,32,151,37,1*7D
$GAGSV,2,2,06,19,32,080,29,25,27,302,15,1*7E
$GBGSV,4,1,13,40,81,153,34,07,78,235,27,10,72,281,29,33,69,140,31,1*79
$GBGSV,4,2,13,14,59,070,42,08,57,276,25,43,52,064,42,28,41,329,40,1*73
$GBGSV,4,3,13,42,36,049,47,11,30,087,34,41,27,198,,34,15,102,,1*75
$GBGSV,4,4,13,23,15,217,,1*45
$GBGSV,2,1,06,40,81,153,39,33,69,140,35,43,52,064,41,28,41,329,40,4*7E
$GBGSV,2,2,06,42,36,049,45,34,15,102,25,4*7D
$GNGGA,035942.000,2500.8058200,N,12132.4314100,E,2,55,0.47,9.96,M,15.25,M,2,3335*4A
$GNRMC,035942.000,A,2500.8058200,N,12132.4314100,E,0.08,261.39,270623,,,D,V*03
$GPHDT,,T*1B
$GNGGA,035942.200,2500.8058200,N,12132.4314000,E,2,55,0.47,9.92,M,15.25,M,2,3335*4D
$GNRMC,035942.200,A,2500.8058200,N,12132.4314000,E,0.10,261.39,270623,,,D,V*09
$GPHDT,,T*1B
$GNGGA,035942.400,2500.8058200,N,12132.4314000,E,2,55,0.47,9.90,M,15.25,M,2,3335*49
$GNRMC,035942.400,A,2500.8058200,N,12132.4314000,E,0.10,261.39,270623,,,D,V*0F
$GPHDT,,T*1B
$GNGGA,035942.600,2500.8058100,N,12132.4314000,E,2,55,0.47,9.88,M,15.25,M,2,3335*41
$GNRMC,035942.600,A,2500.8058100,N,12132.4314000,E,0.09,261.39,270623,,,D,V*06
$GPHDT,,T*1B
$GNGGA,035942.800,2500.8058100,N,12132.4314000,E,2,55,0.47,9.85,M,15.25,M,2,3335*42
$GNRMC,035942.800,A,2500.8058100,N,12132.4314000,E,0.13,261.39,270623,,,D,V*03
$GPHDT,,T*1B
$GNGSA,A,3,19,195,196,17,199,06,194,09,11,14,04,12,0.88,0.48,0.73,1*04
$GNGSA,A,3,68,67,83,82,73,80,,,,,,,0.88,0.48,0.73,2*08
$GNGSA,A,3,10,12,11,04,19,25,33,,,,,,0.88,0.48,0.73,3*02
$GNGSA,A,3,40,07,10,33,14,08,43,28,42,11,34,,0.88,0.48,0.73,4*0F
$GPGSV,4,1,15,19,69,035,41,195,68,045,34,196,66,125,35,17,62,090,44,1*61
$GPGSV,4,2,15,50,60,167,31,199,60,167,29,06,50,349,39,194,38,172,22,1*6F
$GPGSV,4,3,15,09,35,098,36,20,33,235,15,11,30,292,27,14,20,175,21,1*66
$GPGSV,4,4,15,04,20,066,35,12,17,314,27,05,08,224,,1*5F
$GPGSV,2,1,07,195,68,045,43,196,66,125,38,199,60,167,41,06,50,349,28,8*5A
$GPGSV,2,2,07,09,35,098,38,11,30,292,24,04,20,066,29,8*5E
$GLGSV,2,1,06,68,57,141,36,67,43,052,47,83,36,349,29,82,36,047,45,1*74
$GLGSV,2,2,06,73,22,282,21,80,19,225,22,1*74
$GAGSV,3,1,09,10,49,341,42,24,48,236,,12,47,022,29,11,36,306,32,7*73
$GAGSV,3,2,09,04,32,151,39,19,32,080,30,25,27,302,23,33,13,069,19,7*74
$GAGSV,3,3,09,09,03,191,,7*49
$GAGSV,2,1,06,10,49,341,40,12,47,022,37,11,36,306,21,04,32,151,37,1*7D
$GAGSV,2,2,06,19,32,080,29,25,27,302,16,1*7D
$GBGSV,4,1,13,40,81,154,34,07,78,235,28,10,72,281,29,33,69,140,30,1*70
$GBGSV,4,2,13,14,59,070,41,08,57,276,25,43,52,065,42,28,41,329,40,1*71
$GBGSV,4,3,13,42,36,048,47,11,30,087,34,41,28,198,,34,15,102,,1*7B
$GBGSV,4,4,13,23,15,217,,1*45
$GBGSV,2,1,06,40,81,154,39,33,69,140,35,43,52,065,41,28,41,329,40,4*78
$GBGSV,2,2,06,42,36,048,45,34,15,102,25,4*7C
$GNGGA,035943.000,2500.8058200,N,12132.4314000,E,2,54,0.48,9.81,M,15.25,M,3,3335*43
$GNRMC,035943.000,A,2500.8058200,N,12132.4314000,E,0.12,261.39,270623,,,D,V*08
$GPHDT,,T*1B
$GNGGA,035943.200,2500.8058200,N,12132.4314000,E,2,54,0.48,9.79,M,15.25,M,3,3335*46
$GNRMC,035943.200,A,2500.8058200,N,12132.4314000,E,0.08,261.39,270623,,,D,V*01
$GPHDT,,T*1B
$GNGGA,035943.400,2500.8058200,N,12132.4314000,E,2,54,0.48,9.75,M,15.25,M,3,3335*4C
$GNRMC,035943.400,A,2500.8058200,N,12132.4314000,E,0.08,261.39,270623,,,D,V*07
$GPHDT,,T*1B
$GNGGA,035943.600,2500.8058100,N,12132.4314000,E,2,54,0.48,9.72,M,15.25,M,3,3335*4A
$GNRMC,035943.600,A,2500.8058100,N,12132.4314000,E,0.07,261.39,270623,,,D,V*09
$GPHDT,,T*1B
$GNGGA,035943.800,2500.8058200,N,12132.4314000,E,2,54,0.48,9.68,M,15.25,M,3,3335*4C
$GNRMC,035943.800,A,2500.8058200,N,12132.4314000,E,0.07,261.39,270623,,,D,V*04
$GPHDT,,T*1B
$GNGSA,A,3,19,195,196,17,199,06,194,09,11,14,04,12,0.88,0.48,0.73,1*04
$GNGSA,A,3,68,67,83,82,73,80,,,,,,,0.88,0.48,0.73,2*08
$GNGSA,A,3,10,12,11,04,19,25,33,,,,,,0.88,0.48,0.73,3*02
$GNGSA,A,3,40,07,10,33,14,08,43,28,42,11,34,,0.88,0.48,0.73,4*0F
$GPGSV,4,1,15,19,69,035,41,195,68,045,34,196,66,125,35,17,62,090,44,1*61
$GPGSV,4,2,15,50,60,167,31,199,60,167,29,06,50,349,40,194,38,172,21,1*62
$GPGSV,4,3,15,09,35,098,36,20,33,235,17,11,30,292,26,14,20,175,23,1*67
$GPGSV,4,4,15,04,20,066,35,12,17,314,27,05,08,224,,1*5F
$GPGSV,2,1,07,195,68,045,43,196,66,125,38,199,60,167,41,06,50,349,28,8*5A
$GPGSV,2,2,07,09,35,098,38,11,30,292,24,04,20,066,30,8*56
$GLGSV,2,1,06,68,57,141,35,67,43,052,47,83,36,349,28,82,36,047,45,1*76
$GLGSV,2,2,06,73,22,282,21,80,19,225,23,1*75
$GAGSV,3,1,09,10,49,341,42,24,48,236,,12,47,022,31,11,36,306,32,7*7A
$GAGSV,3,2,09,04,32,151,39,19,32,080,29,25,27,302,24,33,13,069,19,7*7B
$GAGSV,3,3,09,09,03,191,,7*49
$GAGSV,2,1,06,10,49,341,40,12,47,022,37,11,36,306,21,04,32,151,37,1*7D
$GAGSV,2,2,06,19,32,080,29,25,27,302,17,1*7C
$GBGSV,4,1,14,40,81,154,34,07,78,235,29,10,72,281,29,33,69,140,30,1*76
$GBGSV,4,2,14,14,59,070,41,08,57,276,26,43,52,065,42,28,41,329,40,1*75
$GBGSV,4,3,14,42,36,048,47,11,30,087,34,41,28,198,,37,15,267,,1*7F
$GBGSV,4,4,14,23,15,217,,34,15,102,,1*72
$GBGSV,2,1,06,40,81,154,39,33,69,140,34,43,52,065,41,28,41,329,40,4*79
$GBGSV,2,2,06,42,36,048,45,34,15,102,26,4*7F
$GNGGA,035944.000,2500.8058200,N,12132.4314000,E,2,54,0.48,9.65,M,15.25,M,4,3335*49
$GNRMC,035944.000,A,2500.8058200,N,12132.4314000,E,0.07,261.39,270623,,,D,V*0B
$GPHDT,,T*1B
$GNGGA,035944.200,2500.8058200,N,12132.4314000,E,2,55,0.48,9.62,M,15.25,M,4,3335*4D
$GNRMC,035944.200,A,2500.8058200,N,12132.4314000,E,0.06,261.39,270623,,,D,V*08
$GPHDT,,T*1B
$GNGGA,035944.400,2500.8058100,N,12132.4314000,E,2,55,0.48,9.60,M,15.25,M,4,3335*4A
$GNRMC,035944.400,A,2500.8058100,N,12132.4314000,E,0.06,261.39,270623,,,D,V*0D
$GPHDT,,T*1B
$GNGGA,035944.600,2500.8058100,N,12132.4314000,E,2,54,0.48,9.57,M,15.25,M,4,3335*4D
$GNRMC,035944.600,A,2500.8058100,N,12132.4314000,E,0.06,261.39,270623,,,D,V*0F
$GPHDT,,T*1B
$GNGGA,035944.800,2500.8058100,N,12132.4314000,E,2,54,0.48,9.54,M,15.25,M,4,3335*40
$GNRMC,035944.800,A,2500.8058100,N,12132.4314000,E,0.04,261.39,270623,,,D,V*03
$GPHDT,,T*1B
$GNGSA,A,3,19,195,196,17,199,06,194,09,11,04,14,12,0.88,0.48,0.73,1*04
$GNGSA,A,3,68,67,82,83,73,80,,,,,,,0.88,0.48,0.73,2*08
$GNGSA,A,3,10,12,11,19,04,25,33,,,,,,0.88,0.48,0.73,3*02
$GNGSA,A,3,40,07,10,33,14,08,43,28,42,11,34,,0.88,0.48,0.73,4*0F
$GPGSV,4,1,16,19,69,035,41,195,68,045,34,196,66,125,35,17,62,090,44,1*62
$GPGSV,4,2,16,199,60,167,29,50,60,167,31,06,50,349,40,194,38,172,22,1*62
$GPGSV,4,3,16,09,35,098,36,20,33,235,17,11,30,292,25,04,20,066,35,1*62
$GPGSV,4,4,16,14,20,175,22,12,17,314,24,05,08,224,,03,04,039,,1*66
$GPGSV,2,1,07,195,68,045,43,196,66,125,38,199,60,167,41,06,50,349,27,8*55
$GPGSV,2,2,07,09,35,098,38,11,30,292,23,04,20,066,30,8*51
$GLGSV,2,1,08,68,57,141,34,67,43,052,47,82,36,047,45,83,36,349,28,1*79
$GLGSV,2,2,08,73,22,282,20,80,19,225,22,69,17,184,,74,05,322,,1*7A
$GAGSV,2,1,08,10,49,341,42,24,48,236,,12,47,022,31,11,36,306,32,7*7A
$GAGSV,2,2,08,19,32,080,29,04,32,151,39,25,27,302,23,33,13,069,19,7*7C
$GAGSV,2,1,05,10,49,341,40,12,47,022,37,11,36,306,20,04,32,151,37,1*7F
$GAGSV,2,2,05,19,32,080,28,1*4B
$GBGSV,3,1,12,40,81,154,34,07,78,235,29,10,72,281,29,33,69,140,30,1*77
$GBGSV,3,2,12,14,59,070,41,08,57,276,26,43,52,065,42,28,41,329,40,1*74
$GBGSV,3,3,12,42,36,048,47,11,30,087,35,41,28,198,,34,15,102,28,1*76
$GBGSV,2,1,06,40,81,154,39,33,69,140,34,43,52,065,41,28,41,329,40,4*79
$GBGSV,2,2,06,42,36,048,45,34,15,102,23,4*7A
$GNGGA,035945.000,2500.8058000,N,12132.4314100,E,2,54,0.48,9.52,M,15.25,M,5,3335*4E
$GNRMC,035945.000,A,2500.8058000,N,12132.4314100,E,0.03,261.39,270623,,,D,V*0D
$GPHDT,,T*1B
$GNGGA,035945.200,2500.8058000,N,12132.4314100,E,2,54,0.48,9.51,M,15.25,M,5,3335*4F
$GNRMC,035945.200,A,2500.8058000,N,12132.4314100,E,0.03,261.39,270623,,,D,V*0F
$GPHDT,,T*1B
$GNGGA,035945.400,2500.8057900,N,12132.4314200,E,2,54,0.48,9.49,M,15.25,M,5,3335*45
$GNRMC,035945.400,A,2500.8057900,N,12132.4314200,E,0.03,261.39,270623,,,D,V*0C
$GPHDT,,T*1B
$GNGGA,035945.600,2500.8057900,N,12132.4314200,E,2,55,0.47,9.48,M,15.25,M,5,3335*48
$GNRMC,035945.600,A,2500.8057900,N,12132.4314200,E,0.03,261.39,270623,,,D,V*0E
$GPHDT,,T*1B
$GNGGA,035945.800,2500.8057900,N,12132.4314200,E,2,55,0.47,9.46,M,15.25,M,5,3335*48
$GNRMC,035945.800,A,2500.8057900,N,12132.4314200,E,0.02,261.39,270623,,,D,V*01
$GPHDT,,T*1B
$GNGSA,A,3,19,195,196,17,199,06,194,09,20,11,04,14,0.87,0.47,0.73,1*05
$GNGSA,A,3,12,,,,,,,,,,,,0.87,0.47,0.73,1*0A
$GNGSA,A,3,68,67,82,83,73,80,,,,,,,0.87,0.47,0.73,2*08
$GNGSA,A,3,10,12,11,19,04,25,33,,,,,,0.87,0.47,0.73,3*02
$GNGSA,A,3,40,07,10,33,14,08,43,28,42,11,34,,0.87,0.47,0.73,4*0F
$GPGSV,4,1,16,19,69,035,41,195,68,045,34,196,66,125,35,17,62,090,44,1*62
$GPGSV,4,2,16,199,60,167,29,50,60,167,31,06,50,349,40,194,38,172,22,1*62
$GPGSV,4,3,16,09,35,098,36,20,33,235,16,11,30,292,26,04,20,066,34,1*61
$GPGSV,4,4,16,14,20,175,21,12,17,314,23,05,08,224,,03,04,039,,1*62
$GPGSV,2,1,07,195,68,045,43,196,66,125,38,199,60,167,41,06,50,349,25,8*57
$GPGSV,2,2,07,09,35,098,38,11,30,292,24,04,20,066,31,8*57
$GLGSV,2,1,06,68,57,141,34,67,43,052,47,82,36,047,45,83,36,349,28,1*77
$GLGSV,2,2,06,73,22,282,20,80,19,225,23,1*74
$GAGSV,3,1,09,10,49,341,42,24,48,236,,12,47,022,31,11,36,306,31,7*79
$GAGSV,3,2,09,19,32,080,29,04,32,151,39,25,27,302,20,33,13,069,19,7*7F
$GAGSV,3,3,09,09,03,191,,7*49
$GAGSV,2,1,05,10,49,341,40,12,47,022,37,11,36,306,19,04,32,151,37,1*75
$GAGSV,2,2,05,19,32,080,28,1*4B
$GBGSV,3,1,12,40,81,154,34,07,78,235,29,10,72,281,29,33,69,140,31,1*76
$GBGSV,3,2,12,14,59,070,41,08,57,276,25,43,52,065,42,28,41,329,40,1*77
$GBGSV,3,3,12,42,36,048,47,11,30,087,35,41,28,198,,34,15,102,30,1*7F
$GBGSV,2,1,06,40,81,154,39,33,69,140,34,43,52,065,41,28,41,329,40,4*79
$GBGSV,2,2,06,42,36,048,45,34,15,102,25,4*7C
$GNGGA,035946.000,2500.8057900,N,12132.4314300,E,2,55,0.47,9.45,M,15.25,M,6,3335*42
$GNRMC,035946.000,A,2500.8057900,N,12132.4314300,E,0.02,261.39,270623,,,D,V*0B
$GPHDT,,T*1B
$GNGGA,035946.200,2500.8057800,N,12132.4314300,E,2,55,0.47,9.43,M,15.25,M,6,3335*47
$GNRMC,035946.200,A,2500.8057800,N,12132.4314300,E,0.02,261.39,270623,,,D,V*08
$GPHDT,,T*1B
$GNGGA,035946.400,2500.8057800,N,12132.4314400,E,2,55,0.47,9.41,M,15.25,M,6,3335*44
$GNRMC,035946.400,A,2500.8057800,N,12132.4314400,E,0.01,261.39,270623,,,D,V*0A
$GPHDT,,T*1B
$GNGGA,035946.600,2500.8057800,N,12132.4314500,E,2,54,0.47,9.40,M,15.25,M,6,3335*47
$GNRMC,035946.600,A,2500.8057800,N,12132.4314500,E,0.01,261.39,270623,,,D,V*09
$GPHDT,,T*1B
$GNGGA,035946.800,2500.8057700,N,12132.4314500,E,2,54,0.47,9.40,M,15.25,M,6,3335*46
$GNRMC,035946.800,A,2500.8057700,N,12132.4314500,E,0.01,261.39,270623,,,D,V*08
$GPHDT,,T*1B
$GNGSA,A,3,19,195,196,17,199,06,194,09,20,11,04,14,0.87,0.47,0.73,1*05
$GNGSA,A,3,12,,,,,,,,,,,,0.87,0.47,0.73,1*0A
$GNGSA,A,3,68,67,82,83,73,80,,,,,,,0.87,0.47,0.73,2*08
$GNGSA,A,3,10,12,11,19,04,25,33,,,,,,0.87,0.47,0.73,3*02
$GNGSA,A,3,40,07,10,33,14,08,43,28,42,11,34,,0.87,0.47,0.73,4*0F
$GPGSV,4,1,16,19,69,035,41,195,68,045,34,196,66,125,34,17,62,090,44,1*63
$GPGSV,4,2,16,199,60,167,29,50,60,167,31,06,50,349,40,194,38,172,22,1*62
$GPGSV,4,3,16,09,35,098,36,20,33,235,16,11,30,292,28,04,20,066,35,1*6E
$GPGSV,4,4,16,14,20,175,21,12,17,314,23,05,08,224,,03,04,039,,1*62
$GPGSV,2,1,07,195,68,045,43,196,66,125,38,199,60,167,41,06,50,349,25,8*57
$GPGSV,2,2,07,09,35,098,38,11,30,292,23,04,20,066,31,8*50
$GLGSV,2,1,06,68,57,141,33,67,43,052,47,82,36,047,45,83,36,349,29,1*71
$GLGSV,2,2,06,73,22,282,19,80,19,225,22,1*7F
$GAGSV,3,1,09,10,49,341,42,24,48,236,,12,47,022,31,11,36,306,31,7*79
$GAGSV,3,2,09,19,32,080,29,04,32,151,39,25,27,302,22,33,13,069,19,7*7D
$GAGSV,3,3,09,09,03,191,,7*49
$GAGSV,2,1,05,10,49,341,38,12,47,022,37,11,36,306,19,04,32,151,36,1*7B
$GAGSV,2,2,05,19,32,080,28,1*4B
$GBGSV,3,1,12,40,81,154,34,07,78,235,30,10,72,281,28,33,69,140,31,1*7F
$GBGSV,3,2,12,14,59,070,41,08,57,276,25,43,52,065,42,28,41,329,40,1*77
$GBGSV,3,3,12,42,36,048,47,11,30,087,35,41,28,198,,34,15,102,28,1*76
$GBGSV,2,1,06,40,81,154,39,33,69,140,34,43,52,065,41,28,41,329,40,4*79
$GBGSV,2,2,06,42,36,048,45,34,15,102,2