$FW : RTK35X,V1.1X0314AS,Lib20210517,1*54
$Tool : LOCOSYS , GNSS Firebird , v1.0.0.19*39
$---------------------------------------------------*2D
$GNGSA,A,3,19,195,196,17,199,06,09,11,04,12,194,14,0.76,0.48,0.59,1*0D
$GNGSA,A,3,68,67,82,83,73,80,,,,,,,0.76,0.48,0.59,2*01
$GNGSA,A,3,10,24,12,11,19,04,25,33,,,,,0.76,0.48,0.59,3*0D
$GNGSA,A,3,40,07,10,33,14,08,43,28,42,11,34,,0.76,0.48,0.59,4*06
$GPGSV,4,1,14,19,69,035,42,195,68,045,40,196,66,125,33,17,62,089,41,1*6B
$GPGSV,4,2,14,50,60,167,27,199,60,167,24,06,50,349,44,194,39,172,18,1*66
$GPGSV,4,3,14,09,35,099,35,20,33,235,14,11,30,291,27,04,21,067,32,1*67
$GPGSV,4,4,14,14,20,175,17,12,17,314,24,1*66
$GPGSV,3,1,09,195,68,045,46,196,66,125,40,199,60,167,34,06,50,349,44,8*57
$GPGSV,3,2,09,194,39,172,23,09,35,099,37,11,30,291,25,04,21,067,26,8*51
$GPGSV,3,3,09,14,20,175,16,8*57
$GLGSV,3,1,09,68,56,142,36,67,44,052,43,82,36,046,44,83,35,348,31,1*70
$GLGSV,3,2,09,73,22,282,19,80,19,225,23,69,16,184,,74,05,323,,1*71
$GLGSV,3,3,09,66,01,025,,1*47
$GAGSV,3,1,09,10,49,341,42,24,48,236,19,12,47,021,38,11,36,305,25,7*7D
$GAGSV,3,2,09,19,32,080,34,04,32,151,34,25,27,303,28,33,13,068,19,7*76
$GAGSV,3,3,09,09,02,192,,7*4B
$GAGSV,2,1,08,10,49,341,46,24,48,236,13,12,47,021,42,11,36,305,29,1*74
$GAGSV,2,2,08,04,32,151,37,19,32,080,36,25,27,303,25,33,13,068,16,1*73
$GBGSV,4,1,14,40,82,153,33,07,79,236,25,10,72,281,28,33,69,140,31,1*7B
$GBGSV,4,2,14,14,59,071,43,08,57,276,22,43,52,064,46,28,41,329,42,1*75
$GBGSV,4,3,14,42,36,049,44,11,31,086,35,41,27,198,,34,15,102,30,1*73
$GBGSV,4,4,14,23,15,217,,37,15,268,,1*7E
$GBGSV,2,1,06,40,82,153,37,33,69,140,30,43,52,064,46,28,41,329,43,4*72
$GBGSV,2,2,06,42,36,049,42,34,15,102,16,4*7A
$GNGGA,035855.000,2500.8039500,N,12132.4289100,E,2,58,0.48,9.55,M,15.25,M,7,3335*40
$GNRMC,035855.000,A,2500.8039500,N,12132.4289100,E,0.02,261.39,270623,,,D,V*0B
$GPHDT,,T*1B
$GNGGA,035855.200,2500.8039500,N,12132.4289100,E,2,58,0.48,9.56,M,15.25,M,7,3335*41
$GNRMC,035855.200,A,2500.8039500,N,12132.4289100,E,0.03,261.39,270623,,,D,V*08
$GPHDT,,T*1B
$GNGGA,035855.400,2500.8039600,N,12132.4289300,E,2,58,0.48,9.57,M,15.25,M,7,3335*47
$GNRMC,035855.400,A,2500.8039600,N,12132.4289300,E,0.02,261.39,270623,,,D,V*0E
$GPHDT,,T*1B
$GNGGA,035855.600,2500.8039700,N,12132.4289400,E,2,58,0.48,9.57,M,15.25,M,7,3335*43
$GNRMC,035855.600,A,2500.8039700,N,12132.4289400,E,0.03,261.39,270623,,,D,V*0B
$GPHDT,,T*1B
$GNGGA,035855.800,2500.8039700,N,12132.4289500,E,2,58,0.48,9.57,M,15.25,M,7,3335*4C
$GNRMC,035855.800,A,2500.8039700,N,12132.4289500,E,0.02,261.39,270623,,,D,V*05
$GPHDT,,T*1B
$GNGSA,A,3,19,195,196,17,199,06,194,09,11,04,12,14,0.76,0.48,0.59,1*0D
$GNGSA,A,3,68,67,82,83,73,80,,,,,,,0.76,0.48,0.59,2*01
$GNGSA,A,3,10,24,12,11,19,04,25,33,,,,,0.76,0.48,0.59,3*0D
$GNGSA,A,3,40,07,10,33,14,08,43,28,42,11,34,,0.76,0.48,0.59,4*06
$GPGSV,4,1,14,19,69,035,42,195,68,045,40,196,66,125,33,17,62,089,41,1*6B
$GPGSV,4,2,14,199,60,167,24,50,60,167,27,06,50,349,44,194,39,172,19,1*67
$GPGSV,4,3,14,09,35,099,36,20,33,235,14,11,30,291,24,04,21,067,31,1*64
$GPGSV,4,4,14,14,20,175,17,12,17,314,21,1*63
$GPGSV,3,1,09,195,68,045,46,196,66,125,40,199,60,167,32,06,50,349,44,8*51
$GPGSV,3,2,09,194,39,172,24,09,35,099,36,11,30,291,24,04,21,067,24,8*54
$GPGSV,3,3,09,14,20,175,16,8*57
$GLGSV,2,1,07,68,56,142,36,67,44,052,43,82,36,046,44,83,35,348,31,1*7F
$GLGSV,2,2,07,73,22,282,21,80,19,225,23,66,01,025,,1*42
$GAGSV,3,1,09,10,49,341,42,24,48,236,19,12,47,021,38,11,36,305,25,7*7D
$GAGSV,3,2,09,19,32,080,34,04,32,151,36,25,27,303,28,33,13,068,19,7*74
$GAGSV,3,3,09,09,02,192,,7*4B
$GAGSV,2,1,08,10,49,341,45,24,48,236,13,12,47,021,42,11,36,305,28,1*76
$GAGSV,2,2,08,04,32,151,38,19,32,080,36,25,27,303,24,33,13,068,16,1*7D
$GBGSV,4,1,14,40,82,153,33,07,79,236,23,10,72,281,28,33,69,140,30,1*7C
$GBGSV,4,2,14,14,59,071,43,08,57,276,23,43,52,064,46,28,41,329,42,1*74
$GBGSV,4,3,14,42,36,049,44,11,31,086,35,41,27,198,,37,15,268,,1*7C
$GBGSV,4,4,14,34,15,102,30,23,15,217,,1*71
$GBGSV,2,1,06,40,82,153,37,33,69,140,30,43,52,064,45,28,41,329,42,4*70
$GBGSV,2,2,06,42,36,049,42,34,15,102,16,4*7A
$GNGGA,035856.000,2500.8039800,N,12132.4289600,E,2,59,0.48,9.58,M,15.25,M,8,3335*4A
$GNRMC,035856.000,A,2500.8039800,N,12132.4289600,E,0.03,261.39,270623,,,D,V*03
$GPHDT,,T*1B
$GNGGA,035856.200,2500.8039900,N,12132.4289600,E,2,59,0.48,9.58,M,15.25,M,8,3335*49
$GNRMC,035856.200,A,2500.8039900,N,12132.4289600,E,0.02,261.39,270623,,,D,V*01
$GPHDT,,T*1B
$GNGGA,035856.400,2500.8040200,N,12132.4289700,E,2,59,0.48,9.59,M,15.25,M,8,3335*4A
$GNRMC,035856.400,A,2500.8040200,N,12132.4289700,E,0.02,261.39,270623,,,D,V*03
$GPHDT,,T*1B
$GNGGA,035856.600,2500.8040200,N,12132.4289800,E,2,59,0.48,9.60,M,15.25,M,8,3335*4D
$GNRMC,035856.600,A,2500.8040200,N,12132.4289800,E,0.00,261.39,270623,,,D,V*0C
$GPHDT,,T*1B
$GNGGA,035856.800,2500.8040400,N,12132.4289900,E,2,57,0.50,9.60,M,15.25,M,8,3335*43
$GNRMC,035856.800,A,2500.8040400,N,12132.4289900,E,0.00,261.39,270623,,,D,V*05
$GPHDT,,T*1B
$GNGSA,A,3,19,195,196,17,199,06,194,09,11,04,12,14,0.87,0.48,0.73,1*0B
$GNGSA,A,3,68,67,82,83,73,80,,,,,,,0.87,0.48,0.73,2*07
$GNGSA,A,3,10,24,12,11,04,19,25,33,,,,,0.87,0.48,0.73,3*0B
$GNGSA,A,3,40,07,10,33,14,08,43,28,42,11,34,,0.87,0.48,0.73,4*00
$GPGSV,4,1,14,19,69,035,42,195,68,045,40,196,66,125,34,17,62,089,41,1*6C
$GPGSV,4,2,14,50,60,167,27,199,60,167,24,06,50,349,44,194,39,172,20,1*6D
$GPGSV,4,3,14,09,35,099,36,20,33,235,13,11,30,291,23,04,21,067,30,1*65
$GPGSV,4,4,14,14,20,175,16,12,17,314,20,1*63
$GPGSV,3,1,09,195,68,045,46,196,66,125,40,199,60,167,32,06,50,349,44,8*51
$GPGSV,3,2,09,194,39,172,24,09,35,099,36,11,30,291,24,04,21,067,27,8*57
$GPGSV,3,3,09,14,20,175,16,8*57
$GLGSV,2,1,07,68,56,142,36,67,44,052,43,82,36,046,44,83,35,348,30,1*7E
$GLGSV,2,2,07,73,22,282,21,80,19,225,23,66,01,025,,1*42
$GAGSV,3,1,09,10,49,341,42,24,48,236,18,12,47,021,36,11,36,305,25,7*72
$GAGSV,3,2,09,04,32,151,36,19,32,080,34,25,27,303,28,33,13,068,18,7*75
$GAGSV,3,3,09,09,02,192,,7*4B
$GAGSV,2,1,08,10,49,341,44,24,48,236,13,12,47,021,42,11,36,305,25,1*7A
$GAGSV,2,2,08,04,32,151,39,19,32,080,36,25,27,303,24,33,13,068,15,1*7F
$GBGSV,4,1,14,40,82,153,34,07,79,236,22,10,72,281,28,33,69,140,32,1*78
$GBGSV,4,2,14,14,59,071,43,08,57,276,24,43,52,064,46,13,49,263,,1*7A
$GBGSV,4,3,14,28,41,329,42,42,36,049,44,11,31,086,34,41,27,198,,1*70
$GBGSV,4,4,14,23,15,217,,34,15,102,30,1*71
$GBGSV,2,1,06,40,82,153,38,33,69,140,30,43,52,064,45,28,41,329,41,4*7C
$GBGSV,2,2,06,42,36,049,42,34,15,102,16,4*7A
$GNGGA,035857.000,2500.8040500,N,12132.4290000,E,2,59,0.48,9.61,M,15.25,M,9,3335*4D
$GNRMC,035857.000,A,2500.8040500,N,12132.4290000,E,0.01,261.39,270623,,,D,V*0D
$GPHDT,,T*1B
$GNGGA,035857.200,2500.8040500,N,12132.4290100,E,2,58,0.50,9.61,M,15.25,M,9,3335*46
$GNRMC,035857.200,A,2500.8040500,N,12132.4290100,E,0.00,261.39,270623,,,D,V*0F
$GPHDT,,T*1B
$GNGGA,035857.400,2500.8040700,N,12132.4290200,E,2,59,0.48,9.61,M,15.25,M,9,3335*49
$GNRMC,035857.400,A,2500.8040700,N,12132.4290200,E,0.01,261.39,270623,,,D,V*09
$GPHDT,,T*1B
$GNGGA,035857.600,2500.8040700,N,12132.4290300,E,2,58,0.48,9.62,M,15.25,M,9,3335*48
$GNRMC,035857.600,A,2500.8040700,N,12132.4290300,E,0.00,261.39,270623,,,D,V*0B
$GPHDT,,T*1B
$GNGGA,035857.800,2500.8040800,N,12132.4290500,E,2,59,0.48,9.62,M,15.25,M,9,3335*4E
$GNRMC,035857.800,A,2500.8040800,N,12132.4290500,E,0.01,261.39,270623,,,D,V*0D
$GPHDT,,T*1B
$GNGSA,A,3,19,195,196,17,199,06,09,11,04,12,194,14,0.87,0.48,0.73,1*0B
$GNGSA,A,3,68,67,82,83,73,80,,,,,,,0.87,0.48,0.73,2*07
$GNGSA,A,3,10,24,12,11,19,04,25,33,,,,,0.87,0.48,0.73,3*0B
$GNGSA,A,3,40,07,10,33,14,08,43,28,42,11,34,,0.87,0.48,0.73,4*00
$GPGSV,4,1,14,19,69,035,42,195,68,045,40,196,66,125,34,17,62,089,42,1*6F
$GPGSV,4,2,14,199,60,167,25,50,60,167,28,06,50,349,44,194,39,172,20,1*63
$GPGSV,4,3,14,09,35,099,32,20,33,235,13,11,30,291,19,04,21,067,29,1*60
$GPGSV,4,4,14,14,20,175,18,12,17,314,20,1*6D
$GPGSV,3,1,09,195,68,045,45,196,66,125,40,199,60,167,33,06,50,349,44,8*53
$GPGSV,3,2,09,194,39,172,24,09,35,099,38,11,30,291,23,04,21,067,28,8*51
$GPGSV,3,3,09,14,20,175,14,8*55
$GLGSV,2,1,07,68,56,141,36,67,44,052,43,82,36,046,44,83,35,348,30,1*7D
$GLGSV,2,2,07,73,22,282,24,80,19,225,22,66,01,025,,1*46
$GAGSV,3,1,09,10,49,341,42,24,48,236,17,12,47,021,36,11,36,305,26,7*7E
$GAGSV,3,2,09,19,32,080,34,04,32,151,37,25,27,303,28,33,13,068,18,7*74
$GAGSV,3,3,09,09,02,192,,7*4B
$GAGSV,2,1,08,10,49,341,44,24,48,236,12,12,47,021,42,11,36,305,25,1*7B
$GAGSV,2,2,08,04,32,151,38,19,32,080,34,25,27,303,23,33,13,068,15,1*7B
$GBGSV,4,1,14,40,82,153,34,07,79,236,26,10,72,281,28,33,69,140,32,1*7C
$GBGSV,4,2,14,14,59,071,43,08,57,276,24,43,52,064,46,28,41,329,42,1*73
$GBGSV,4,3,14,42,36,049,44,11,31,086,35,41,27,198,,37,15,268,,1*7C
$GBGSV,4,4,14,34,15,102,28,23,15,217,,1*78
$GBGSV,2,1,06,40,82,153,38,33,69,140,30,43,52,064,45,28,41,329,40,4*7D
$GBGSV,2,2,06,42,36,049,42,34,15,102,15,4*79
$GNGGA,035858.000,2500.8040800,N,12132.4290600,E,2,58,0.48,9.63,M,15.25,M,10,3335*72
$GNRMC,035858.000,A,2500.8040800,N,12132.4290600,E,0.01,261.39,270623,,,D,V*09
$GPHDT,,T*1B
$GNGGA,035858.200,2500.8040800,N,12132.4290600,E,2,58,0.48,9.63,M,15.25,M,10,3335*70
$GNRMC,035858.200,A,2500.8040800,N,12132.4290600,E,0.00,261.39,270623,,,D,V*0A
$GPHDT,,T*1B
$GNGGA,035858.400,2500.8040900,N,12132.4290700,E,2,59,0.48,9.64,M,15.25,M,10,3335*70
$GNRMC,035858.400,A,2500.8040900,N,12132.4290700,E,0.00,261.39,270623,,,D,V*0C
$GPHDT,,T*1B
$GNGGA,035858.600,2500.8041000,N,12132.4290800,E,2,58,0.48,9.65,M,15.25,M,10,3335*75
$GNRMC,035858.600,A,2500.8041000,N,12132.4290800,E,0.00,261.39,270623,,,D,V*09
$GPHDT,,T*1B
$GNGGA,035858.800,2500.8041100,N,12132.4291000,E,2,59,0.48,9.65,M,15.25,M,10,3335*72
$GNRMC,035858.800,A,2500.8041100,N,12132.4291000,E,0.01,261.39,270623,,,D,V*0E
$GPHDT,,T*1B
$GNGSA,A,3,19,195,196,17,199,06,09,11,04,12,194,14,0.87,0.48,0.73,1*0B
$GNGSA,A,3,68,67,82,83,73,80,,,,,,,0.87,0.48,0.73,2*07
$GNGSA,A,3,10,24,12,11,19,04,25,33,,,,,0.87,0.48,0.73,3*0B
$GNGSA,A,3,40,07,10,33,14,08,43,28,42,11,34,,0.87,0.48,0.73,4*00
$GPGSV,4,1,14,19,69,035,41,195,68,045,40,196,66,125,34,17,62,089,42,1*6C
$GPGSV,4,2,14,199,60,167,27,50,60,167,30,06,50,349,44,194,39,172,20,1*68
$GPGSV,4,3,14,09,35,099,32,20,33,235,15,11,30,291,19,04,21,067,30,1*6E
$GPGSV,4,4,14,14,20,175,16,12,17,314,20,1*63
$GPGSV,3,1,09,195,68,045,45,196,66,125,40,199,60,167,36,06,50,349,44,8*56
$GPGSV,3,2,09,194,39,172,25,09,35,099,38,11,30,291,22,04,21,067,27,8*5E
$GPGSV,3,3,09,14,20,175,14,8*55
$GLGSV,2,1,07,68,56,141,38,67,44,052,43,82,36,046,44,83,35,348,30,1*73
$GLGSV,2,2,07,73,22,282,24,80,19,225,22,66,01,025,,1*46
$GAGSV,3,1,09,10,49,341,43,24,48,236,17,12,47,021,36,11,36,305,24,7*7D
$GAGSV,3,2,09,19,32,080,34,04,32,151,39,25,27,303,27,33,13,068,18,7*75
$GAGSV,3,3,09,09,02,192,,7*4B
$GAGSV,2,1,08,10,49,341,44,24,48,236,12,12,47,021,42,11,36,305,25,1*7B
$GAGSV,2,2,08,04,32,151,39,19,32,080,34,25,27,303,24,33,13,068,17,1*7F
$GBGSV,4,1,14,40,82,153,31,07,79,236,27,10,72,281,28,33,69,140,32,1*78
$GBGSV,4,2,14,14,59,071,43,08,57,276,24,43,52,064,46,28,41,329,42,1*73
$GBGSV,4,3,14,42,36,049,44,11,31,086,34,41,27,198,,37,15,268,,1*7D
$GBGSV,4,4,14,34,15,102,27,23,15,217,,1*77
$GBGSV,2,1,06,40,82,153,38,33,69,140,34,43,52,064,45,28,41,329,40,4*79
$GBGSV,2,2,06,42,36,049,42,34,15,102,16,4*7A
$GNGGA,035859.000,2500.8041100,N,12132.4291100,E,2,58,0.48,9.66,M,15.25,M,11,3335*79
$GNRMC,035859.000,A,2500.8041100,N,12132.4291100,E,0.00,261.39,270623,,,D,V*07
$GPHDT,,T*1B
$GNGGA,035859.200,2500.8041200,N,12132.4291300,E,2,59,0.48,9.67,M,15.25,M,11,3335*7A
$GNRMC,035859.200,A,2500.8041200,N,12132.4291300,E,0.01,261.39,270623,,,D,V*05
$GPHDT,,T*1B
$GNGGA,035859.400,2500.8041300,N,12132.4291400,E,2,59,0.48,9.68,M,15.25,M,11,3335*75
$GNRMC,035859.400,A,2500.8041300,N,12132.4291400,E,0.00,261.39,270623,,,D,V*04
$GPHDT,,T*1B
$GNGGA,035859.600,2500.8041400,N,12132.4291600,E,2,59,0.48,9.69,M,15.25,M,11,3335*73
$GNRMC,035859.600,A,2500.8041400,N,12132.4291600,E,0.01,261.39,270623,,,D,V*02
$GPHDT,,T*1B
$GNGGA,035859.800,2500.8041500,N,12132.4291700,E,2,59,0.48,9.69,M,15.25,M,11,3335*7D
$GNRMC,035859.800,A,2500.8041500,N,12132.4291700,E,0.00,261.39,270623,,,D,V*0D
$GPHDT,,T*1B
$GNGSA,A,3,19,195,196,17,199,06,194,09,11,04,12,14,0.87,0.48,0.73,1*0B
$GNGSA,A,3,68,67,82,83,73,80,,,,,,,0.87,0.48,0.73,2*07
$GNGSA,A,3,10,24,12,11,04,19,25,33,,,,,0.87,0.48,0.73,3*0B
$GNGSA,A,3,40,07,10,33,14,08,43,28,42,11,34,,0.87,0.48,0.73,4*00
$GPGSV,4,1,14,19,69,035,41,195,68,045,40,196,66,125,35,17,62,089,42,1*6D
$GPGSV,4,2,14,50,60,167,30,199,60,167,28,06,50,349,44,194,39,172,22,1*65
$GPGSV,4,3,14,09,35,099,34,20,33,235,15,11,30,291,20,04,21,067,31,1*63
$GPGSV,4,4,14,14,20,175,17,12,17,314,23,1*61
$GPGSV,3,1,09,195,68,045,45,196,66,125,40,199,60,167,36,06,50,349,45,8*57
$GPGSV,3,2,09,194,39,172,23,09,35,099,36,11,30,291,20,04,21,067,28,8*5B
$GPGSV,3,3,09,14,20,175,14,8*55
$GLGSV,2,1,07,68,56,141,39,67,44,052,42,82,36,046,44,83,35,348,30,1*73
$GLGSV,2,2,07,73,22,282,24,80,19,225,22,66,01,025,,1*46
$GAGSV,2,1,08,10,49,341,43,24,48,236,17,12,47,021,35,11,36,305,26,7*7C
$GAGSV,2,2,08,04,32,151,39,19,32,080,34,25,27,303,27,33,13,068,17,7*7A
$GAGSV,2,1,08,10,49,341,44,24,48,236,12,12,47,021,42,11,36,305,26,1*78
$GAGSV,2,2,08,04,32,151,39,19,32,080,35,25,27,303,24,33,13,068,14,1*7D
$GBGSV,4,1,14,40,82,153,30,07,79,236,27,10,72,281,28,33,69,140,32,1*79
$GBGSV,4,2,14,14,59,071,43,08,57,276,24,43,52,064,46,28,41,329,42,1*73
$GBGSV,4,3,14,42,36,049,44,11,31,086,35,41,27,198,,34,15,102,29,1*7B
$GBGSV,4,4,14,23,15,217,,37,15,268,,1*7E
$GBGSV,2,1,06,40,82,153,38,33,69,140,34,43,52,064,45,28,41,329,40,4*79
$GBGSV,2,2,06,42,36,049,42,34,15,102,15,4*79
$GNGGA,035900.000,2500.8041600,N,12132.4291800,E,2,59,0.48,9.70,M,15.25,M,12,3335*7F
$GNRMC,035900.000,A,2500.8041600,N,12132.4291800,E,0.00,261.39,270623,,,D,V*04
$GPHDT,,T*1B
$GNGGA,035900.200,2500.8041600,N,12132.4291900,E,2,59,0.48,9.71,M,15.25,M,12,3335*7D
$GNRMC,035900.200,A,2500.8041600,N,12132.4291900,E,0.00,261.39,270623,,,D,V*07
$GPHDT,,T*1B
$GNGGA,035900.400,2500.8041800,N,12132.4292100,E,2,59,0.48,9.71,M,15.25,M,12,3335*7E
$GNRMC,035900.400,A,2500.8041800,N,12132.4292100,E,0.01,261.39,270623,,,D,V*05
$GPHDT,,T*1B
$GNGGA,035900.600,2500.8041900,N,12132.4292300,E,2,60,0.48,9.72,M,15.25,M,12,3335*76
$GNRMC,035900.600,A,2500.8041900,N,12132.4292300,E,0.01,261.39,270623,,,D,V*04
$GPHDT,,T*1B
$GNGGA,035900.800,2500.8042000,N,12132.4292300,E,2,59,0.48,9.73,M,15.25,M,12,3335*79
$GNRMC,035900.800,A,2500.8042000,N,12132.4292300,E,0.00,261.39,270623,,,D,V*01
$GPHDT,,T*1B
$GNGSA,A,3,19,195,196,17,199,06,194,09,11,04,12,14,0.87,0.48,0.73,1*0B
$GNGSA,A,3,68,67,82,83,73,80,,,,,,,0.87,0.48,0.73,2*07
$GNGSA,A,3,10,24,12,11,04,19,25,33,,,,,0.87,0.48,0.73,3*0B
$GNGSA,A,3,40,07,10,33,14,08,43,28,42,11,34,,0.87,0.48,0.73,4*00
$GPGSV,4,1,14,19,69,035,42,195,68,045,38,196,66,125,34,17,62,089,42,1*60
$GPGSV,4,2,14,50,60,167,28,199,60,167,26,06,50,349,44,194,39,172,22,1*62
$GPGSV,4,3,14,09,35,099,36,20,33,235,13,11,30,291,21,04,21,067,32,1*65
$GPGSV,4,4,14,14,20,175,17,12,17,314,24,1*66
$GPGSV,3,1,09,195,68,045,45,196,66,125,40,199,60,167,38,06,50,349,45,8*59
$GPGSV,3,2,09,194,39,172,20,09,35,099,36,11,30,291,20,04,21,067,27,8*57
$GPGSV,3,3,09,14,20,175,13,8*52
$GLGSV,2,1,07,68,56,141,38,67,44,052,43,82,36,046,43,83,36,349,30,1*76
$GLGSV,2,2,07,73,22,282,20,80,19,225,22,66,01,025,,1*42
$GAGSV,2,1,08,10,49,341,43,24,48,236,16,12,47,021,36,11,36,305,27,7*7F
$GAGSV,2,2,08,04,32,151,40,19,32,080,32,25,27,303,26,33,13,068,17,7*73
$GAGSV,2,1,08,10,49,341,45,24,48,236,12,12,47,021,42,11,36,305,25,1*7A
$GAGSV,2,2,08,04,32,151,40,19,32,080,33,25,27,303,24,33,13,068,16,1*77
$GBGSV,4,1,14,40,82,153,31,07,79,236,27,10,72,281,29,33,69,140,32,1*79
$GBGSV,4,2,14,14,59,071,43,08,57,276,22,43,52,064,47,28,41,329,42,1*74
$GBGSV,4,3,14,42,36,049,44,11,31,086,33,41,27,198,,34,15,102,31,1*74
$GBGSV,4,4,14,23,15,217,,37,15,268,,1*7E
$GBGSV,2,1,06,40,82,153,38,33,69,140,34,43,52,064,45,28,41,329,40,4*79
$GBGSV,2,2,06,42,36,049,42,34,15,102,15,4*79
$GNGGA,035901.000,2500.8042100,N,12132.4292400,E,2,59,0.48,9.74,M,15.25,M,13,3335*70
$GNRMC,035901.000,A,2500.8042100,N,12132.4292400,E,0.00,261.39,270623,,,D,V*0E
$GPHDT,,T*1B
$GNGGA,035901.200,2500.8042200,N,12132.4292400,E,2,59,0.48,9.76,M,15.25,M,13,3335*73
$GNRMC,035901.200,A,2500.8042200,N,12132.4292400,E,0.00,261.39,270623,,,D,V*0F
$GPHDT,,T*1B
$GNGGA,035901.400,2500.8042200,N,12132.4292600,E,2,59,0.48,9.78,M,15.25,M,13,3335*79
$GNRMC,035901.400,A,2500.8042200,N,12132.4292600,E,0.00,261.39,270623,,,D,V*0B
$GPHDT,,T*1B
$GNGGA,035901.600,2500.8042300,N,12132.4292700,E,2,58,0.50,9.79,M,15.25,M,13,3335*72
$GNRMC,035901.600,A,2500.8042300,N,12132.4292700,E,0.00,261.39,270623,,,D,V*09
$GPHDT,,T*1B
$GNGGA,035901.800,2500.8042300,N,12132.4292900,E,2,58,0.50,9.79,M,15.25,M,13,3335*72
$GNRMC,035901.800,A,2500.8042300,N,12132.4292900,E,0.01,261.39,270623,,,D,V*08
$GPHDT,,T*1B
$GNGSA,A,3,19,195,196,17,199,06,194,09,11,04,12,,0.91,0.50,0.76,1*05
$GNGSA,A,3,68,67,82,83,73,80,,,,,,,0.91,0.50,0.76,2*0C
$GNGSA,A,3,10,24,12,11,04,19,25,33,,,,,0.91,0.50,0.76,3*00
$GNGSA,A,3,40,07,10,33,14,08,43,28,42,11,34,,0.91,0.50,0.76,4*0B
$GPGSV,4,1,14,19,69,035,42,195,68,045,38,196,66,125,33,17,62,089,42,1*67
$GPGSV,4,2,14,50,60,167,28,199,60,167,26,06,50,349,44,194,39,172,22,1*62
$GPGSV,4,3,14,09,35,099,34,20,33,235,15,11,30,291,21,04,21,067,33,1*60
$GPGSV,4,4,14,14,20,175,15,12,17,314,23,1*63
$GPGSV,2,1,08,195,68,045,45,196,66,125,41,199,60,167,37,06,50,349,45,8*57
$GPGSV,2,2,08,194,39,172,23,09,35,099,38,11,30,291,21,04,21,067,30,8*5D
$GLGSV,2,1,07,68,56,141,38,67,44,052,43,82,36,046,44,83,36,349,30,1*71
$GLGSV,2,2,07,73,22,282,20,80,19,225,24,66,01,025,,1*44
$GAGSV,2,1,08,10,49,341,43,24,48,236,15,12,47,021,36,11,36,305,26,7*7D
$GAGSV,2,2,08,04,32,151,37,19,32,080,33,25,27,303,26,33,13,068,17,7*72
$GAGSV,2,1,08,10,49,341,45,24,48,236,12,12,47,021,42,11,36,305,26,1*79
$GAGSV,2,2,08,04,32,151,40,19,32,080,34,25,27,303,24,33,13,068,18,1*7E
$GBGSV,4,1,14,40,82,153,32,07,79,236,26,10,72,281,27,33,69,140,31,1*76
$GBGSV,4,2,14,14,59,071,44,08,57,276,24,43,52,064,47,28,41,329,41,1*76
$GBGSV,4,3,14,42,36,049,44,11,31,086,34,41,27,198,,34,15,102,30,1*72
$GBGSV,4,4,14,23,15,217,,37,15,268,,1*7E
$GBGSV,2,1,06,40,82,153,38,33,69,140,33,43,52,064,45,28,41,329,40,4*7E
$GBGSV,2,2,06,42,36,049,43,34,15,102,14,4*79
$GNGGA,035902.000,2500.8042500,N,12132.4293000,E,2,58,0.50,9.80,M,15.25,M,14,3335*76
$GNRMC,035902.000,A,2500.8042500,N,12132.4293000,E,0.00,261.39,270623,,,D,V*0C
$GPHDT,,T*1B
$GNGGA,035902.200,2500.8042500,N,12132.4293100,E,2,58,0.50,9.81,M,15.25,M,14,3335*74
$GNRMC,035902.200,A,2500.8042500,N,12132.4293100,E,0.00,261.39,270623,,,D,V*0F
$GPHDT,,T*1B
$GNGGA,035902.400,2500.8042600,N,12132.4293200,E,2,58,0.50,9.82,M,15.25,M,14,3335*71
$GNRMC,035902.400,A,2500.8042600,N,12132.4293200,E,0.00,261.39,270623,,,D,V*09
$GPHDT,,T*1B
$GNGGA,035902.600,2500.8042600,N,12132.4293400,E,2,58,0.50,9.84,M,15.25,M,14,3335*73
$GNRMC,035902.600,A,2500.8042600,N,12132.4293400,E,0.00,261.39,270623,,,D,V*0D
$GPHDT,,T*1B
$GNGGA,035902.800,2500.8042700,N,12132.4293500,E,2,58,0.50,9.85,M,15.25,M,14,3335*7C
$GNRMC,035902.800,A,2500.8042700,N,12132.4293500,E,0.00,261.39,270623,,,D,V*03
$GPHDT,,T*1B
$GNGSA,A,3,19,195,196,17,199,06,194,09,11,04,12,,0.91,0.50,0.76,1*05
$GNGSA,A,3,68,67,82,83,73,80,,,,,,,0.91,0.50,0.76,2*0C
$GNGSA,A,3,10,24,12,11,19,04,25,33,,,,,0.91,0.50,0.76,3*00
$GNGSA,A,3,40,07,10,33,14,08,43,28,42,11,34,,0.91,0.50,0.76,4*0B
$GPGSV,4,1,14,19,69,035,42,195,68,045,38,196,66,125,35,17,62,089,41,1*62
$GPGSV,4,2,14,50,60,167,29,199,60,167,26,06,50,349,43,194,39,172,22,1*64
$GPGSV,4,3,14,09,35,099,31,20,33,235,11,11,30,291,20,04,21,067,31,1*62
$GPGSV,4,4,14,14,20,175,15,12,17,314,22,1*62
$GPGSV,2,1,08,195,68,045,45,196,66,125,40,199,60,167,37,06,50,349,44,8*57
$GPGSV,2,2,08,194,39,172,24,09,35,099,38,11,30,291,21,04,21,067,30,8*5A
$GLGSV,3,1,09,68,56,141,38,67,44,052,43,82,36,046,44,83,36,349,30,1*7E
$GLGSV,3,2,09,73,22,282,20,80,19,225,24,69,17,184,,74,05,323,,1*7D
$GLGSV,3,3,09,66,01,025,,1*47
$GAGSV,2,1,08,10,49,341,43,24,48,236,17,12,47,021,35,11,36,305,25,7*7F
$GAGSV,2,2,08,19,32,080,34,04,32,151,37,25,27,303,26,33,13,068,17,7*75
$GAGSV,2,1,08,10,49,341,45,24,48,236,10,12,47,021,42,11,36,305,27,1*7A
$GAGSV,2,2,08,04,32,151,38,19,32,080,34,25,27,303,24,33,13,068,17,1*7E
$GBGSV,4,1,14,40,82,153,32,07,79,236,24,10,72,281,29,33,69,140,30,1*7B
$GBGSV,4,2,14,14,59,071,43,08,57,276,25,43,52,064,47,28,41,329,41,1*70
$GBGSV,4,3,14,42,36,049,43,11,31,086,35,41,27,198,,23,15,217,,1*76
$GBGSV,4,4,14,34,15,102,30,37,15,268,,1*7C
$GBGSV,2,1,06,40,82,153,38,33,69,140,33,43,52,064,45,28,41,329,40,4*7E
$GBGSV,2,2,06,42,36,049,43,34,15,102,14,4*79
$GNGGA,035903.000,2500.8042800,N,12132.4293600,E,2,58,0.50,9.87,M,15.25,M,15,3335*7A
$GNRMC,035903.000,A,2500.8042800,N,12132.4293600,E,0.00,261.39,270623,,,D,V*06
$GPHDT,,T*1B
$GNGGA,035903.200,2500.8042900,N,12132.4293600,E,2,58,0.50,9.89,M,15.25,M,15,3335*77
$GNRMC,035903.200,A,2500.8042900,N,12132.4293600,E,0.00,261.39,270623,,,D,V*05
$GPHDT,,T*1B
$GNGGA,035903.400,2500.8043000,N,12132.4293800,E,2,58,0.50,9.90,M,15.25,M,15,3335*7F
$GNRMC,035903.400,A,2500.8043000,N,12132.4293800,E,0.00,261.39,270623,,,D,V*05
$GPHDT,,T*1B
$GNGGA,035903.600,2500.8043200,N,12132.4293800,E,2,58,0.50,9.92,M,15.25,M,15,3335*7D
$GNRMC,035903.600,A,2500.8043200,N,12132.4293800,E,0.00,261.39,270623,,,D,V*05
$GPHDT,,T*1B
$GNGGA,035903.800,2500.8043200,N,12132.4294000,E,2,58,0.50,9.94,M,15.25,M,15,3335*7A
$GNRMC,035903.800,A,2500.8043200,N,12132.4294000,E,0.01,261.39,270623,,,D,V*05
$GPHDT,,T*1B
$GNGSA,A,3,19,195,196,17,199,06,194,09,11,04,12,,0.91,0.50,0.76,1*05
$GNGSA,A,3,68,67,82,83,73,80,,,,,,,0.91,0.50,0.76,2*0C
$GNGSA,A,3,10,24,12,11,04,19,25,33,,,,,0.91,0.50,0.76,3*00
$GNGSA,A,3,40,07,10,33,14,08,43,28,42,11,34,,0.91,0.50,0.76,4*0B
$GPGSV,4,1,14,19,69,035,41,195,68,045,39,196,66,125,35,17,62,089,42,1*63
$GPGSV,4,2,14,50,60,167,31,199,60,167,29,06,50,349,43,194,39,172,23,1*63
$GPGSV,4,3,14,09,35,099,34,20,33,235,12,11,30,291,20,04,21,067,32,1*67
$GPGSV,4,4,14,14,20,175,16,12,17,314,22,1*61
$GPGSV,2,1,08,195,68,045,45,196,66,125,40,199,60,167,36,06,50,349,44,8*56
$GPGSV,2,2,08,194,39,172,25,09,35,099,37,11,30,291,23,04,21,067,30,8*56
$GLGSV,2,1,07,68,56,141,37,67,44,052,43,82,36,046,44,83,36,349,31,1*7F
$GLGSV,2,2,07,73,22,282,18,80,19,225,26,66,01,025,,1*4D
$GAGSV,2,1,08,10,49,341,43,24,48,236,14,12,47,021,34,11,36,305,25,7*7D
$GAGSV,2,2,08,04,32,151,36,19,32,080,35,25,27,303,26,33,13,068,16,7*74
$GAGSV,2,1,08,10,49,341,45,24,48,236,10,12,47,021,42,11,36,305,26,1*7B
$GAGSV,2,2,08,04,32,151,37,19,32,080,35,25,27,303,24,33,13,068,13,1*74
$GBGSV,4,1,14,40,82,153,32,07,79,236,24,10,72,281,29,33,69,140,30,1*7B
$GBGSV,4,2,14,14,59,071,43,08,57,276,26,43,52,064,47,28,41,329,41,1*73
$GBGSV,4,3,14,42,36,049,44,11,31,086,33,41,27,198,,34,15,102,33,1*76
$GBGSV,4,4,14,23,15,217,,37,15,268,,1*7E
$GBGSV,2,1,06,40,82,153,38,33,69,140,31,43,52,064,45,28,41,329,41,4*7D
$GBGSV,2,2,06,42,36,049,42,34,15,102,14,4*78
$GNGGA,035904.000,2500.8043400,N,12132.4294000,E,2,58,0.50,9.96,M,15.25,M,16,3335*72
$GNRMC,035904.000,A,2500.8043400,N,12132.4294000,E,0.00,261.39,270623,,,D,V*0D
$GPHDT,,T*1B
$GNGGA,035904.200,2500.8043400,N,12132.4293900,E,2,58,0.50,9.98,M,15.25,M,16,3335*70
$GNRMC,035904.200,A,2500.8043400,N,12132.4293900,E,0.00,261.39,270623,,,D,V*01
$GPHDT,,T*1B
$GNGGA,035904.400,2500.8043500,N,12132.4294100,E,2,58,0.50,10.01,M,15.25,M,16,3335*40
$GNRMC,035904.400,A,2500.8043500,N,12132.4294100,E,0.00,261.39,270623,,,D,V*09
$GPHDT,,T*1B
$GNGGA,035904.600,2500.8043600,N,12132.4294200,E,2,58,0.50,10.03,M,15.25,M,16,3335*40
$GNRMC,035904.600,A,2500.8043600,N,12132.4294200,E,0.00,261.39,270623,,,D,V*0B
$GPHDT,,T*1B
$GNGGA,035904.800,2500.8043700,N,12132.4294300,E,2,58,0.50,10.05,M,15.25,M,16,3335*48
$GNRMC,035904.800,A,2500.8043700,N,12132.4294300,E,0.00,261.39,270623,,,D,V*05
$GPHDT,,T*1B
$GNGSA,A,3,19,195,196,17,199,06,194,09,11,04,12,,0.91,0.50,0.76,1*05
$GNGSA,A,3,68,67,83,82,73,80,,,,,,,0.91,0.50,0.76,2*0C
$GNGSA,A,3,10,24,12,11,19,04,25,33,,,,,0.91,0.50,0.76,3*00
$GNGSA,A,3,40,07,10,33,14,08,43,28,42,11,34,,0.91,0.50,0.76,4*0B
$GPGSV,4,1,14,19,69,035,41,195,68,045,39,196,66,125,35,17,62,089,41,1*60
$GPGSV,4,2,14,199,60,167,28,50,60,167,31,06,50,349,43,194,39,172,23,1*62
$GPGSV,4,3,14,09,35,099,34,20,33,235,15,11,30,291,19,04,21,067,32,1*6A
$GPGSV,4,4,14,14,20,175,15,12,17,314,24,1*64
$GPGSV,2,1,08,195,68,045,45,196,66,125,40,199,60,167,33,06,50,349,43,8*54
$GPGSV,2,2,08,194,39,172,25,09,35,099,36,11,30,291,23,04,21,067,29,8*5F
$GLGSV,2,1,07,68,56,141,36,67,44,052,42,83,36,349,31,82,36,046,44,1*7F
$GLGSV,2,2,07,73,22,282,19,80,19,225,26,66,01,025,,1*4C
$GAGSV,3,1,09,10,49,341,43,24,48,236,14,12,47,021,35,11,36,305,26,7*7F
$GAGSV,3,2,09,19,32,080,34,04,32,151,36,25,27,303,27,33,13,068,17,7*75
$GAGSV,3,3,09,09,02,192,,7*4B
$GAGSV,2,1,08,10,49,341,45,24,48,236,11,12,47,021,41,11,36,305,27,1*78
$GAGSV,2,2,08,04,32,151,37,19,32,080,34,25,27,303,23,33,13,068,12,1*73
$GBGSV,4,1,14,40,82,153,33,07,79,236,24,10,72,281,28,33,69,140,31,1*7A
$GBGSV,4,2,14,14,59,071,43,08,57,276,26,43,52,064,47,28,41,329,41,1*73
$GBGSV,4,3,14,42,36,049,44,11,31,086,33,41,27,198,,37,15,268,,1*7A
$GBGSV,4,4,14,34,15,102,31,23,15,217,,1*70
$GBGSV,2,1,06,40,82,153,38,33,69,140,31,43,52,064,45,28,41,329,41,4*7D
$GBGSV,2,2,06,42,36,049,42,34,15,102,15,4*79
$GNGGA,035905.000,2500.8043800,N,12132.4294400,E,2,58,0.50,10.07,M,15.25,M,17,3335*4A
$GNRMC,035905.000,A,2500.8043800,N,12132.4294400,E,0.00,261.39,270623,,,D,V*04
$GPHDT,,T*1B
$GNGGA,035905.200,2500.8043800,N,12132.4294400,E,2,58,0.50,10.10,M,15.25,M,17,3335*4E
$GNRMC,035905.200,A,2500.8043800,N,12132.4294400,E,0.00,261.39,270623,,,D,V*06
$GPHDT,,T*1B
$GNGGA,035905.400,2500.8043900,N,12132.4294500,E,2,58,0.50,10.12,M,15.25,M,17,3335*4A
$GNRMC,035905.400,A,2500.8043900,N,12132.4294500,E,0.00,261.39,270623,,,D,V*00
$GPHDT,,T*1B
$GNGGA,035905.600,2500.8044000,N,12132.4294600,E,2,57,0.50,10.15,M,15.25,M,17,3335*4D
$GNRMC,035905.600,A,2500.8044000,N,12132.4294600,E,0.01,261.39,270623,,,D,V*0E
$GPHDT,,T*1B
$GNGGA,035905.800,2500.8044100,N,12132.4294700,E,2,58,0.50,10.17,M,15.25,M,17,3335*4E
$GNRMC,035905.800,A,2500.8044100,N,12132.4294700,E,0.00,261.39,270623,,,D,V*01
$GPHDT,,T*1B
$GNGSA,A,3,19,195,196,17,199,06,194,09,11,04,12,,0.91,0.50,0.76,1*05
$GNGSA,A,3,68,67,82,83,73,80,,,,,,,0.91,0.50,0.76,2*0C
$GNGSA,A,3,10,24,12,11,04,19,25,33,,,,,0.91,0.50,0.76,3*00
$GNGSA,A,3,40,07,10,33,14,08,43,28,42,11,34,,0.91,0.50,0.76,4*0B
$GPGSV,4,1,14,19,69,035,41,195,68,045,39,196,66,125,31,17,62,089,42,1*67
$GPGSV,4,2,14,50,60,167,28,199,60,167,26,06,50,349,43,194,39,172,23,1*64
$GPGSV,4,3,14,09,35,099,33,20,33,235,14,11,30,291,20,04,21,067,32,1*66
$GPGSV,4,4,14,14,20,175,18,12,17,314,22,1*6F
$GPGSV,2,1,08,195,68,045,45,196,66,125,38,199,60,167,31,06,50,349,43,8*59
$GPGSV,2,2,08,194,39,172,25,09,35,099,37,11,30,291,23,04,21,067,28,8*5F
$GLGSV,2,1,07,68,56,141,31,67,44,052,42,82,36,046,44,83,36,349,31,1*78
$GLGSV,2,2,07,73,22,282,19,80,19,225,25,66,01,025,,1*4F
$GAGSV,3,1,09,10,49,341,43,24,48,236,16,12,47,021,35,11,36,305,26,7*7D
$GAGSV,3,2,09,04,32,151,34,19,32,080,33,25,27,303,27,33,13,068,17,7*70
$GAGSV,3,3,09,09,02,192,,7*4B
$GAGSV,2,1,08,10,49,341,45,24,48,236,11,12,47,021,41,11,36,305,27,1*78
$GAGSV,2,2,08,04,32,151,37,19,32,080,36,25,27,303,23,33,13,068,12,1*71
$GBGSV,4,1,15,40,82,153,33,07,79,236,24,10,72,281,28,33,69,140,29,1*72
$GBGSV,4,2,15,14,59,071,43,08,57,276,26,43,52,064,47,28,41,329,41,1*72
$GBGSV,4,3,15,42,36,049,44,11,31,086,35,41,27,198,,37,15,268,,1*7D
$GBGSV,4,4,15,23,15,217,,34,15,102,31,06,01,187,,1*48
$GBGSV,2,1,06,40,82,153,38,33,69,140,28,43,52,064,45,28,41,329,42,4*76
$GBGSV,2,2,06,42,36,049,42,34,15,102,14,4*78
$GNGGA,035906.000,2500.8044100,N,12132.4294800,E,2,58,0.50,10.21,M,15.25,M,18,3335*40
$GNRMC,035906.000,A,2500.8044100,N,12132.4294800,E,0.00,261.39,270623,,,D,V*05
$GPHDT,,T*1B
$GNGGA,035906.200,2500.8044200,N,12132.4294700,E,2,58,0.50,10.24,M,15.25,M,18,3335*4B
$GNRMC,035906.200,A,2500.8044200,N,12132.4294700,E,0.00,261.39,270623,,,D,V*0B
$GPHDT,,T*1B
$GNGGA,035906.400,2500.8044100,N,12132.4295000,E,2,58,0.50,10.25,M,15.25,M,18,3335*49
$GNRMC,035906.400,A,2500.8044100,N,12132.4295000,E,0.00,261.39,270623,,,D,V*08
$GPHDT,,T*1B
$GNGGA,035906.600,2500.8044200,N,12132.4295000,E,2,57,0.50,10.29,M,15.25,M,18,3335*4B
$GNRMC,035906.600,A,2500.8044200,N,12132.4295000,E,0.00,261.39,270623,,,D,V*09
$GPHDT,,T*1B
$GNGGA,035906.800,2500.8044300,N,12132.4295200,E,2,57,0.48,10.33,M,15.25,M,18,3335*44
$GNRMC,035906.800,A,2500.8044300,N,12132.4295200,E,0.01,261.39,270623,,,D,V*05
