$FW : RTK35X,V1.1X0314AS,Lib20210517,1*54
$Tool : LOCOSYS , GNSS Firebird , v1.0.0.19*39
$---------------------------------------------------*2D
$GNGGA,043457.200,2500.7790847,N,12132.4546174,E,4,56,0.49,10.791,M,15.25,M,1,3335*47
$GNRMC,043457.200,A,2500.7790847,N,12132.4546174,E,0.01,148.55,270623,,,R,V*13
$GPHDT,,T*1B
$GNGGA,043457.400,2500.7790856,N,12132.4546188,E,4,56,0.49,10.798,M,15.25,M,1,3335*4B
$GNRMC,043457.400,A,2500.7790856,N,12132.4546188,E,0.01,148.55,270623,,,R,V*16
$GPHDT,,T*1B
$GNGGA,043457.600,2500.7790859,N,12132.4546189,E,4,56,0.49,10.802,M,15.25,M,0,3335*4A
$GNRMC,043457.600,A,2500.7790859,N,12132.4546189,E,0.01,148.55,270623,,,R,V*1A
$GPHDT,,T*1B
$GNGGA,043457.800,2500.7790830,N,12132.4546199,E,4,56,0.49,10.793,M,15.25,M,0,3335*4D
$GNRMC,043457.800,A,2500.7790830,N,12132.4546199,E,0.01,148.55,270623,,,R,V*1A
$GPHDT,,T*1B
$GNGSA,A,3,19,196,195,199,17,06,20,09,11,194,12,05,1.01,0.49,0.88,1*07
$GNGSA,A,3,04,,,,,,,,,,,,1.01,0.49,0.88,1*08
$GNGSA,A,3,68,69,82,67,,,,,,,,,1.01,0.49,0.88,2*05
$GNGSA,A,3,10,12,04,11,24,19,25,,,,,,1.01,0.49,0.88,3*01
$GNGSA,A,3,33,40,07,10,08,28,14,43,13,41,42,11,1.01,0.49,0.88,4*0A
$GPGSV,4,1,15,19,70,091,45,196,70,116,42,195,69,052,40,199,60,167,33,1*5C
$GPGSV,4,2,15,50,60,167,36,17,53,119,42,06,49,013,20,20,45,252,33,1*62
$GPGSV,4,3,15,09,37,077,39,11,36,309,33,194,32,174,30,12,25,300,20,1*56
$GPGSV,4,4,15,05,20,234,26,04,16,051,13,14,06,170,,1*56
$GPGSV,2,1,08,196,70,116,47,195,69,052,44,199,60,167,41,06,49,013,29,8*5F
$GPGSV,2,2,08,09,37,077,39,11,36,309,33,194,32,174,33,04,16,051,22,8*55
$GLGSV,2,1,07,68,71,101,42,83,42,011,,69,35,185,17,82,34,070,38,1*7D
$GLGSV,2,2,07,67,31,035,29,84,08,314,,74,08,306,,1*4D
$GAGSV,3,1,10,10,50,000,26,12,44,039,19,04,44,141,35,11,40,321,38,7*78
$GAGSV,3,2,10,24,37,223,29,19,31,064,26,25,29,288,25,09,13,188,,7*76
$GAGSV,3,3,10,33,08,081,18,36,05,285,,7*75
$GAGSV,2,1,08,10,50,000,25,04,44,141,42,12,44,039,22,11,40,321,37,1*72
$GAGSV,2,2,08,24,37,223,32,19,31,064,27,25,29,288,19,33,08,081,30,1*74
$GBGSV,4,1,15,33,76,086,41,40,74,181,41,07,71,222,39,10,69,260,37,1*70
$GBGSV,4,2,15,08,54,291,36,28,51,342,42,14,50,049,25,43,48,088,40,1*7A
$GBGSV,4,3,15,13,47,277,29,41,42,202,44,42,25,041,27,11,24,102,40,1*7E
$GBGSV,4,4,15,37,09,254,,34,07,114,,23,07,206,,1*4A
$GBGSV,2,1,06,33,76,086,45,40,74,181,44,28,51,342,39,43,48,088,38,4*76
$GBGSV,2,2,06,41,42,202,45,42,25,041,28,4*79
$GNGGA,043458.000,2500.7790848,N,12132.4546185,E,4,56,0.49,10.790,M,15.25,M,1,3335*4A
$GNRMC,043458.000,A,2500.7790848,N,12132.4546185,E,0.01,148.55,270623,,,R,V*1F
$GPHDT,,T*1B
$GNGGA,043458.200,2500.7790862,N,12132.4546182,E,4,56,0.49,10.793,M,15.25,M,1,3335*44
$GNRMC,043458.200,A,2500.7790862,N,12132.4546182,E,0.01,148.55,270623,,,R,V*12
$GPHDT,,T*1B
$GNGGA,043458.400,2500.7790857,N,12132.4546151,E,4,56,0.49,10.773,M,15.25,M,1,3335*44
$GNRMC,043458.400,A,2500.7790857,N,12132.4546151,E,0.01,148.55,270623,,,R,V*1C
$GPHDT,,T*1B
$GNGGA,043458.600,2500.7790856,N,12132.4546142,E,4,56,0.49,10.775,M,15.25,M,0,3335*42
$GNRMC,043458.600,A,2500.7790856,N,12132.4546142,E,0.01,148.55,270623,,,R,V*1D
$GPHDT,,T*1B
$GNGGA,043458.800,2500.7790864,N,12132.4546174,E,4,56,0.49,10.789,M,15.25,M,0,3335*4B
$GNRMC,043458.800,A,2500.7790864,N,12132.4546174,E,0.01,148.55,270623,,,R,V*17
$GPHDT,,T*1B
$GNGSA,A,3,19,196,195,199,17,06,20,09,11,194,12,05,1.01,0.49,0.88,1*07
$GNGSA,A,3,04,,,,,,,,,,,,1.01,0.49,0.88,1*08
$GNGSA,A,3,68,69,82,67,,,,,,,,,1.01,0.49,0.88,2*05
$GNGSA,A,3,10,04,12,11,24,19,25,,,,,,1.01,0.49,0.88,3*01
$GNGSA,A,3,33,40,07,10,08,28,14,43,13,41,42,11,1.01,0.49,0.88,4*0A
$GPGSV,4,1,15,19,70,091,45,196,70,116,42,195,69,052,40,199,60,167,33,1*5C
$GPGSV,4,2,15,50,60,167,35,17,53,119,42,06,49,013,20,20,45,252,37,1*65
$GPGSV,4,3,15,09,37,077,39,11,36,309,33,194,32,174,31,12,25,300,17,1*53
$GPGSV,4,4,15,05,20,234,26,04,16,051,13,14,06,170,,1*56
$GPGSV,2,1,08,196,70,116,47,195,69,052,44,199,60,167,41,06,49,013,29,8*5F
$GPGSV,2,2,08,09,37,077,39,11,36,309,34,194,32,174,32,04,16,051,22,8*53
$GLGSV,2,1,06,68,71,101,41,83,42,011,,69,35,185,17,82,34,070,38,1*7F
$GLGSV,2,2,06,67,31,035,26,80,06,212,,1*70
$GAGSV,3,1,09,10,50,000,23,04,44,141,35,12,44,039,20,11,40,321,38,7*7F
$GAGSV,3,2,09,24,37,223,27,19,31,064,26,25,29,288,23,33,08,081,20,7*7F
$GAGSV,3,3,09,36,05,285,,7*45
$GAGSV,2,1,08,10,50,000,27,04,44,141,42,12,44,039,24,11,40,321,37,1*76
$GAGSV,2,2,08,24,37,223,32,19,31,064,28,25,29,288,16,33,08,081,29,1*7C
$GBGSV,4,1,15,33,76,086,41,40,74,181,41,07,71,222,39,10,69,260,37,1*70
$GBGSV,4,2,15,08,54,291,36,28,51,342,42,14,50,049,25,43,48,088,40,1*7A
$GBGSV,4,3,15,13,47,277,31,41,42,202,44,42,25,041,27,11,24,102,40,1*77
$GBGSV,4,4,15,37,09,254,,23,07,206,,34,07,114,,1*4A
$GBGSV,2,1,06,33,76,086,45,40,74,181,44,28,51,342,40,43,48,088,39,4*79
$GBGSV,2,2,06,41,42,202,45,42,25,041,29,4*78
$GNGGA,043459.000,2500.7790826,N,12132.4546139,E,4,56,0.49,10.771,M,15.25,M,1,3335*4B
$GNRMC,043459.000,A,2500.7790826,N,12132.4546139,E,0.01,148.55,270623,,,R,V*11
$GPHDT,,T*1B
$GNGGA,043459.200,2500.7790864,N,12132.4546164,E,4,56,0.49,10.783,M,15.25,M,1,3335*4A
$GNRMC,043459.200,A,2500.7790864,N,12132.4546164,E,0.01,148.55,270623,,,R,V*1D
$GPHDT,,T*1B
$GNGGA,043459.400,2500.7790856,N,12132.4546228,E,4,56,0.49,10.785,M,15.25,M,1,3335*40
$GNRMC,043459.400,A,2500.7790856,N,12132.4546228,E,0.01,148.55,270623,,,R,V*11
$GPHDT,,T*1B
$GNGGA,043459.600,2500.7790855,N,12132.4546192,E,4,56,0.49,10.793,M,15.25,M,1,3335*44
$GNRMC,043459.600,A,2500.7790855,N,12132.4546192,E,0.01,148.55,270623,,,R,V*12
$GPHDT,,T*1B
$GNGGA,043459.800,2500.7790848,N,12132.4546201,E,4,56,0.49,10.782,M,15.25,M,1,3335*4F
$GNRMC,043459.800,A,2500.7790848,N,12132.4546201,E,0.01,148.55,270623,,,R,V*19
$GPHDT,,T*1B
$GNGSA,A,3,19,196,195,199,17,06,20,09,11,194,12,05,1.01,0.49,0.88,1*07
$GNGSA,A,3,04,,,,,,,,,,,,1.01,0.49,0.88,1*08
$GNGSA,A,3,68,69,82,67,,,,,,,,,1.01,0.49,0.88,2*05
$GNGSA,A,3,10,04,12,11,24,19,25,,,,,,1.01,0.49,0.88,3*01
$GNGSA,A,3,33,40,07,10,08,28,14,43,13,41,42,11,1.01,0.49,0.88,4*0A
$GPGSV,4,1,15,19,70,091,45,196,70,116,42,195,69,052,40,199,60,167,33,1*5C
$GPGSV,4,2,15,50,60,167,33,17,53,119,42,06,49,013,24,20,45,252,29,1*68
$GPGSV,4,3,15,09,37,077,39,11,36,309,32,194,32,174,29,12,25,300,18,1*54
$GPGSV,4,4,15,05,20,234,27,04,16,051,14,14,06,170,,1*50
$GPGSV,2,1,08,196,70,116,48,195,69,052,44,199,60,167,41,06,49,013,31,8*59
$GPGSV,2,2,08,09,37,077,39,11,36,309,34,194,32,174,31,04,16,051,21,8*53
$GLGSV,2,1,07,68,71,101,41,83,42,011,,69,35,185,17,82,34,070,37,1*71
$GLGSV,2,2,07,67,31,035,29,74,08,306,,80,06,212,,1*40
$GAGSV,3,1,09,10,50,000,23,04,44,141,35,12,44,039,20,11,40,321,38,7*7F
$GAGSV,3,2,09,24,37,223,28,19,31,064,25,25,29,288,23,33,08,081,20,7*73
$GAGSV,3,3,09,36,05,285,,7*45
$GAGSV,2,1,08,10,50,000,25,04,44,141,42,12,44,039,24,11,40,321,38,1*7B
$GAGSV,2,2,08,24,37,223,32,19,31,064,29,25,29,288,15,33,08,081,29,1*7E
$GBGSV,4,1,15,33,76,086,41,40,74,181,41,07,71,222,39,10,69,260,37,1*70
$GBGSV,4,2,15,08,54,291,36,28,51,342,42,14,50,049,24,43,48,088,39,1*75
$GBGSV,4,3,15,13,47,277,24,41,42,202,44,42,25,041,29,11,24,102,40,1*7D
$GBGSV,4,4,15,37,09,254,,23,07,206,,34,07,114,,1*4A
$GBGSV,2,1,06,33,76,086,45,40,74,181,44,28,51,342,40,43,48,088,39,4*79
$GBGSV,2,2,06,41,42,202,45,42,25,041,28,4*79
$GNGGA,043500.000,2500.7790821,N,12132.4546221,E,4,56,0.49,10.803,M,15.25,M,2,3335*42
$GNRMC,043500.000,A,2500.7790821,N,12132.4546221,E,0.01,148.55,270623,,,R,V*11
$GPHDT,,T*1B
$GNGGA,043500.200,2500.7790799,N,12132.4546173,E,4,56,0.49,10.775,M,15.25,M,1,3335*45
$GNRMC,043500.200,A,2500.7790799,N,12132.4546173,E,0.02,148.55,270623,,,R,V*18
$GPHDT,,T*1B
$GNGGA,043500.400,2500.7790796,N,12132.4546203,E,4,56,0.49,10.784,M,15.25,M,1,3335*46
$GNRMC,043500.400,A,2500.7790796,N,12132.4546203,E,0.02,148.55,270623,,,R,V*15
$GPHDT,,T*1B
$GNGGA,043500.600,2500.7790802,N,12132.4546206,E,4,56,0.49,10.790,M,15.25,M,0,3335*47
$GNRMC,043500.600,A,2500.7790802,N,12132.4546206,E,0.02,148.55,270623,,,R,V*10
$GPHDT,,T*1B
$GNGGA,043500.800,2500.7790838,N,12132.4546142,E,4,56,0.49,10.777,M,15.25,M,0,3335*4A
$GNRMC,043500.800,A,2500.7790838,N,12132.4546142,E,0.02,148.55,270623,,,R,V*14
$GPHDT,,T*1B
$GNGSA,A,3,19,196,195,199,17,06,20,09,11,194,12,05,1.01,0.49,0.88,1*07
$GNGSA,A,3,04,,,,,,,,,,,,1.01,0.49,0.88,1*08
$GNGSA,A,3,68,69,82,67,,,,,,,,,1.01,0.49,0.88,2*05
$GNGSA,A,3,10,04,12,11,24,19,25,,,,,,1.01,0.49,0.88,3*01
$GNGSA,A,3,33,40,07,10,08,28,14,43,13,41,42,11,1.01,0.49,0.88,4*0A
$GPGSV,4,1,15,19,70,091,45,196,70,116,42,195,69,052,40,199,60,167,32,1*5D
$GPGSV,4,2,15,50,60,167,33,17,53,119,41,06,49,013,27,20,45,252,30,1*60
$GPGSV,4,3,15,09,37,077,39,11,36,309,32,194,32,174,29,12,25,300,16,1*5A
$GPGSV,4,4,15,05,20,234,26,04,16,051,16,14,06,170,,1*53
$GPGSV,2,1,08,196,70,116,48,195,69,052,44,199,60,167,41,06,49,013,30,8*58
$GPGSV,2,2,08,09,37,077,39,11,36,309,34,194,32,174,31,04,16,051,21,8*53
$GLGSV,2,1,07,68,71,101,41,83,42,011,,69,35,185,14,82,34,070,37,1*72
$GLGSV,2,2,07,67,31,035,29,74,08,306,,80,06,212,,1*40
$GAGSV,3,1,09,10,50,000,26,04,44,141,35,12,44,039,20,11,40,321,38,7*7A
$GAGSV,3,2,09,24,37,223,28,19,31,064,25,25,29,288,23,33,08,081,20,7*73
$GAGSV,3,3,09,36,05,285,,7*45
$GAGSV,2,1,08,10,50,000,25,04,44,141,42,12,44,039,23,11,40,321,38,1*7C
$GAGSV,2,2,08,24,37,223,32,19,31,064,28,25,29,288,15,33,08,081,29,1*7F
$GBGSV,4,1,14,33,76,086,41,40,74,181,41,07,71,222,39,10,69,260,37,1*71
$GBGSV,4,2,14,08,54,291,37,28,51,342,41,14,50,049,24,43,48,088,39,1*76
$GBGSV,4,3,14,13,47,277,24,41,42,202,44,42,25,041,29,11,24,102,40,1*7C
$GBGSV,4,4,14,37,09,254,,34,07,114,,1*79
$GBGSV,2,1,06,33,76,086,45,40,74,181,44,28,51,342,40,43,48,088,39,4*79
$GBGSV,2,2,06,41,42,202,45,42,25,041,27,4*76
$GNGGA,043501.000,2500.7790848,N,12132.4546148,E,4,56,0.49,10.771,M,15.25,M,1,3335*49
$GNRMC,043501.000,A,2500.7790848,N,12132.4546148,E,0.02,148.55,270623,,,R,V*10
$GPHDT,,T*1B
$GNGGA,043501.200,2500.7790840,N,12132.4546172,E,4,56,0.49,10.777,M,15.25,M,1,3335*4C
$GNRMC,043501.200,A,2500.7790840,N,12132.4546172,E,0.02,148.55,270623,,,R,V*13
$GPHDT,,T*1B
$GNGGA,043501.400,2500.7790847,N,12132.4546174,E,4,56,0.49,10.774,M,15.25,M,1,3335*48
$GNRMC,043501.400,A,2500.7790847,N,12132.4546174,E,0.02,148.55,270623,,,R,V*14
$GPHDT,,T*1B
$GNGGA,043501.600,2500.7790808,N,12132.4546167,E,4,55,0.51,10.779,M,15.25,M,1,3335*44
$GNRMC,043501.600,A,2500.7790808,N,12132.4546167,E,0.02,148.55,270623,,,R,V*1F
$GPHDT,,T*1B
$GNGGA,043501.800,2500.7790852,N,12132.4546149,E,4,55,0.51,10.769,M,15.25,M,0,3335*49
$GNRMC,043501.800,A,2500.7790852,N,12132.4546149,E,0.02,148.55,270623,,,R,V*12
$GPHDT,,T*1B
$GNGSA,A,3,19,196,195,199,17,06,20,09,11,194,12,05,1.03,0.51,0.89,1*0D
$GNGSA,A,3,04,,,,,,,,,,,,1.03,0.51,0.89,1*02
$GNGSA,A,3,68,82,67,,,,,,,,,,1.03,0.51,0.89,2*00
$GNGSA,A,3,10,12,04,11,24,19,25,,,,,,1.03,0.51,0.89,3*0B
$GNGSA,A,3,33,40,07,10,08,28,14,43,13,41,42,11,1.03,0.51,0.89,4*00
$GPGSV,4,1,15,19,70,091,45,196,70,116,42,195,69,052,40,199,60,167,32,1*5D
$GPGSV,4,2,15,50,60,167,33,17,53,119,41,06,49,013,26,20,45,252,29,1*69
$GPGSV,4,3,15,09,37,077,39,11,36,309,32,194,32,174,28,12,25,300,15,1*58
$GPGSV,4,4,15,05,20,234,24,04,16,051,17,14,06,170,,1*50
$GPGSV,2,1,08,196,70,116,48,195,69,052,44,199,60,167,41,06,49,013,28,8*51
$GPGSV,2,2,08,09,37,077,39,11,36,309,34,194,32,174,31,04,16,051,20,8*52
$GLGSV,2,1,08,68,71,101,41,83,42,011,,69,35,185,14,82,34,070,37,1*7D
$GLGSV,2,2,08,67,31,035,29,84,08,314,,74,08,306,,80,06,212,,1*7D
$GAGSV,3,1,09,10,50,000,28,12,44,039,20,04,44,141,35,11,40,321,38,7*74
$GAGSV,3,2,09,24,37,223,28,19,31,064,25,25,29,288,24,33,08,081,19,7*7E
$GAGSV,3,3,09,36,05,285,,7*45
$GAGSV,2,1,08,10,50,000,27,04,44,141,42,12,44,039,24,11,40,321,38,1*79
$GAGSV,2,2,08,24,37,223,32,19,31,064,28,25,29,288,13,33,08,081,29,1*79
$GBGSV,4,1,14,33,76,086,40,40,74,181,40,07,71,222,39,10,69,260,37,1*71
$GBGSV,4,2,14,08,54,291,38,28,51,342,41,14,50,049,22,43,48,088,39,1*7F
$GBGSV,4,3,14,13,47,277,24,41,42,202,44,42,25,041,27,11,24,102,40,1*72
$GBGSV,4,4,14,37,09,254,,23,07,206,,1*7F
$GBGSV,2,1,06,33,76,086,46,40,74,181,44,28,51,342,40,43,48,088,39,4*7A
$GBGSV,2,2,06,41,42,202,45,42,25,041,28,4*79
$GNGGA,043502.000,2500.7790834,N,12132.4546176,E,4,55,0.51,10.784,M,15.25,M,1,3335*4C
$GNRMC,043502.000,A,2500.7790834,N,12132.4546176,E,0.02,148.55,270623,,,R,V*15
$GPHDT,,T*1B
$GNGGA,043502.200,2500.7790852,N,12132.4546163,E,4,54,0.52,10.779,M,15.25,M,1,3335*4A
$GNRMC,043502.200,A,2500.7790852,N,12132.4546163,E,0.02,148.55,270623,,,R,V*13
$GPHDT,,T*1B
$GNGGA,043502.400,2500.7790799,N,12132.4546151,E,4,54,0.52,10.776,M,15.25,M,1,3335*4A
$GNRMC,043502.400,A,2500.7790799,N,12132.4546151,E,0.01,148.55,270623,,,R,V*1F
$GPHDT,,T*1B
$GNGGA,043502.600,2500.7790846,N,12132.4546166,E,4,54,0.52,10.786,M,15.25,M,0,3335*4F
$GNRMC,043502.600,A,2500.7790846,N,12132.4546166,E,0.02,148.55,270623,,,R,V*17
$GPHDT,,T*1B
$GNGGA,043502.800,2500.7790818,N,12132.4546136,E,4,53,0.52,10.772,M,15.25,M,0,3335*43
$GNRMC,043502.800,A,2500.7790818,N,12132.4546136,E,0.02,148.55,270623,,,R,V*17
$GPHDT,,T*1B
$GNGSA,A,3,19,196,195,199,17,06,20,09,11,194,05,,1.11,0.53,0.98,1*0F
$GNGSA,A,3,68,82,67,,,,,,,,,,1.11,0.53,0.98,2*01
$GNGSA,A,3,10,12,04,11,24,19,25,,,,,,1.11,0.53,0.98,3*0A
$GNGSA,A,3,33,40,07,10,08,28,14,43,13,41,42,11,1.11,0.53,0.98,4*01
$GPGSV,4,1,15,19,70,091,45,196,70,116,42,195,69,052,40,199,60,167,32,1*5D
$GPGSV,4,2,15,50,60,167,33,17,53,119,41,06,49,013,24,20,45,252,26,1*64
$GPGSV,4,3,15,09,37,077,39,11,36,309,32,194,32,174,27,12,25,300,15,1*57
$GPGSV,4,4,15,05,20,234,24,04,16,051,18,14,06,170,,1*5F
$GPGSV,2,1,07,196,70,116,48,195,69,052,44,199,60,167,41,06,49,013,28,8*5E
$GPGSV,2,2,07,09,37,077,38,11,36,309,34,194,32,174,31,8*69
$GLGSV,2,1,08,68,71,101,41,83,42,011,,69,35,185,13,82,34,070,37,1*7A
$GLGSV,2,2,08,67,31,035,29,73,16,263,,74,08,306,,80,06,212,,1*7B
$GAGSV,3,1,09,10,50,001,28,12,44,039,19,04,44,141,35,11,40,321,38,7*7F
$GAGSV,3,2,09,24,37,223,28,19,31,064,26,25,29,288,24,33,08,081,19,7*7D
$GAGSV,3,3,09,36,05,285,,7*45
$GAGSV,2,1,08,10,50,001,26,12,44,039,24,04,44,141,42,11,40,321,38,1*79
$GAGSV,2,2,08,24,37,223,32,19,31,064,28,25,29,288,12,33,08,081,29,1*78
$GBGSV,4,1,13,33,76,086,39,40,74,181,40,07,71,222,39,10,69,260,37,1*78
$GBGSV,4,2,13,08,54,291,38,28,51,342,43,14,50,049,22,43,48,088,39,1*7A
$GBGSV,4,3,13,13,47,277,24,41,42,202,44,42,25,041,27,11,24,102,39,1*7B
$GBGSV,4,4,13,23,07,206,,1*46
$GBGSV,2,1,06,33,76,086,46,40,74,181,44,28,51,342,39,43,48,088,39,4*74
$GBGSV,2,2,06,41,42,202,45,42,25,041,28,4*79
$GNGGA,043503.000,2500.7790818,N,12132.4546189,E,4,53,0.53,10.780,M,15.25,M,1,3335*43
$GNRMC,043503.000,A,2500.7790818,N,12132.4546189,E,0.02,148.55,270623,,,R,V*1A
$GPHDT,,T*1B
$GNGGA,043503.200,2500.7790833,N,12132.4546213,E,4,52,0.53,10.796,M,15.25,M,1,3335*4E
$GNRMC,043503.200,A,2500.7790833,N,12132.4546213,E,0.02,148.55,270623,,,R,V*11
$GPHDT,,T*1B
$GNGGA,043503.400,2500.7790808,N,12132.4546189,E,4,52,0.53,10.797,M,15.25,M,1,3335*41
$GNRMC,043503.400,A,2500.7790808,N,12132.4546189,E,0.01,148.55,270623,,,R,V*1C
$GPHDT,,T*1B
$GNGGA,043503.600,2500.7790789,N,12132.4546217,E,4,53,0.52,10.798,M,15.25,M,0,3335*4F
$GNRMC,043503.600,A,2500.7790789,N,12132.4546217,E,0.01,148.55,270623,,,R,V*1C
$GPHDT,,T*1B
$GNGGA,043503.800,2500.7790802,N,12132.4546184,E,4,53,0.52,10.804,M,15.25,M,0,3335*4E
$GNRMC,043503.800,A,2500.7790802,N,12132.4546184,E,0.01,148.55,270623,,,R,V*17
$GPHDT,,T*1B
$GNGSA,A,3,19,196,195,199,17,06,20,09,11,194,05,04,1.06,0.52,0.92,1*06
$GNGSA,A,3,68,82,67,,,,,,,,,,1.06,0.52,0.92,2*0C
$GNGSA,A,3,10,04,12,11,24,19,25,,,,,,1.06,0.52,0.92,3*07
$GNGSA,A,3,33,40,07,10,08,28,14,43,13,41,42,11,1.06,0.52,0.92,4*0C
$GPGSV,4,1,15,19,70,091,44,196,70,116,42,195,69,052,40,199,60,167,33,1*5D
$GPGSV,4,2,15,50,60,167,35,17,53,119,41,06,49,013,24,20,45,252,29,1*6D
$GPGSV,4,3,15,09,37,077,39,11,36,309,32,194,32,174,27,12,25,300,16,1*54
$GPGSV,4,4,15,05,20,234,24,04,16,051,18,14,06,170,,1*5F
$GPGSV,2,1,07,196,70,116,48,195,69,052,44,199,60,167,41,06,49,013,28,8*5E
$GPGSV,2,2,07,09,37,077,38,11,36,309,34,194,32,174,33,8*6B
$GLGSV,2,1,08,68,71,101,41,83,42,011,,69,35,185,15,82,34,070,37,1*7C
$GLGSV,2,2,08,67,31,035,31,73,16,263,,74,08,306,,80,06,212,,1*72
$GAGSV,3,1,10,10,50,001,28,04,44,141,35,12,44,039,18,11,40,321,38,7*76
$GAGSV,3,2,10,24,37,223,28,19,31,064,27,25,29,288,25,09,13,188,,7*76
$GAGSV,3,3,10,33,08,081,19,36,05,285,,7*74
$GAGSV,2,1,07,10,50,001,26,04,44,141,42,12,44,039,23,11,40,321,38,1*71
$GAGSV,2,2,07,24,37,223,33,19,31,064,28,33,08,081,29,1*4B
$GBGSV,4,1,13,33,76,086,39,40,74,181,40,07,71,222,39,10,69,260,37,1*78
$GBGSV,4,2,13,08,54,291,38,28,51,342,43,14,50,049,24,43,48,088,39,1*7C
$GBGSV,4,3,13,13,47,277,21,41,42,202,44,42,25,041,27,11,24,102,39,1*7E
$GBGSV,4,4,13,39,07,174,,1*4B
$GBGSV,2,1,06,33,76,086,46,40,74,181,44,28,51,342,38,43,48,088,39,4*75
$GBGSV,2,2,06,41,42,202,45,42,25,041,28,4*79
$GNGGA,043504.000,2500.7790789,N,12132.4546185,E,4,53,0.52,10.793,M,15.25,M,1,3335*4C
$GNRMC,043504.000,A,2500.7790789,N,12132.4546185,E,0.01,148.55,270623,,,R,V*15
$GPHDT,,T*1B
$GNGGA,043504.200,2500.7790793,N,12132.4546202,E,4,53,0.52,10.799,M,15.25,M,1,3335*43
$GNRMC,043504.200,A,2500.7790793,N,12132.4546202,E,0.01,148.55,270623,,,R,V*10
$GPHDT,,T*1B
$GNGGA,043504.400,2500.7790790,N,12132.4546243,E,4,53,0.52,10.806,M,15.25,M,1,3335*4A
$GNRMC,043504.400,A,2500.7790790,N,12132.4546243,E,0.08,148.55,270623,,,R,V*19
$GPHDT,,T*1B
$GNGGA,043504.600,2500.7790796,N,12132.4546204,E,4,53,0.52,10.796,M,15.25,M,0,3335*4A
$GNRMC,043504.600,A,2500.7790796,N,12132.4546204,E,0.04,148.55,270623,,,R,V*12
$GPHDT,,T*1B
$GNGGA,043504.800,2500.7790794,N,12132.4546215,E,4,54,0.52,10.798,M,15.25,M,0,3335*4F
$GNRMC,043504.800,A,2500.7790794,N,12132.4546215,E,0.03,148.55,270623,,,R,V*19
$GPHDT,,T*1B
$GNGSA,A,3,19,196,195,199,17,06,20,09,11,194,05,04,1.06,0.52,0.92,1*06
$GNGSA,A,3,68,82,67,,,,,,,,,,1.06,0.52,0.92,2*0C
$GNGSA,A,3,10,12,04,11,24,19,25,,,,,,1.06,0.52,0.92,3*07
$GNGSA,A,3,33,40,07,10,08,28,14,43,13,41,42,11,1.06,0.52,0.92,4*0C
$GPGSV,4,1,15,19,70,091,44,196,70,116,42,195,69,052,41,199,60,167,33,1*5C
$GPGSV,4,2,15,50,60,167,35,17,53,119,42,06,49,013,27,20,45,252,30,1*65
$GPGSV,4,3,15,09,37,077,39,11,36,309,31,194,32,174,28,12,25,300,16,1*58
$GPGSV,4,4,15,05,20,234,24,04,16,051,18,14,06,170,,1*5F
$GPGSV,2,1,08,196,70,116,48,195,69,052,44,199,60,167,41,06,49,013,28,8*51
$GPGSV,2,2,08,09,37,077,38,11,36,309,34,194,32,174,34,04,16,051,20,8*56
$GLGSV,2,1,07,68,71,101,40,83,42,011,,69,35,185,14,82,34,070,36,1*72
$GLGSV,2,2,07,67,31,035,33,73,16,263,,74,08,306,,1*40
$GAGSV,3,1,10,10,50,001,28,12,44,039,18,04,44,141,35,11,40,321,38,7*76
$GAGSV,3,2,10,24,37,223,29,19,31,064,27,25,29,288,25,09,13,188,,7*77
$GAGSV,3,3,10,33,08,081,19,36,05,285,,7*74
$GAGSV,2,1,07,10,50,001,26,04,44,141,42,12,44,039,23,11,40,321,39,1*70
$GAGSV,2,2,07,24,37,223,33,19,31,064,28,33,08,081,29,1*4B
$GBGSV,4,1,14,33,76,086,39,40,74,181,40,07,71,222,39,10,69,260,37,1*7F
$GBGSV,4,2,14,08,54,291,39,28,51,342,43,14,50,049,24,43,48,088,39,1*7A
$GBGSV,4,3,14,13,47,277,23,41,42,202,44,42,25,041,26,11,24,102,39,1*7A
$GBGSV,4,4,14,37,09,254,,23,07,206,,1*7F
$GBGSV,2,1,06,33,76,086,46,40,74,181,44,28,51,342,37,43,48,088,39,4*7A
$GBGSV,2,2,06,41,42,202,45,42,25,041,28,4*79
$GNGGA,043505.000,2500.7790794,N,12132.4546181,E,4,54,0.52,10.794,M,15.25,M,1,3335*45
$GNRMC,043505.000,A,2500.7790794,N,12132.4546181,E,0.01,148.55,270623,,,R,V*1C
$GPHDT,,T*1B
$GNGGA,043505.200,2500.7790784,N,12132.4546184,E,4,54,0.52,10.796,M,15.25,M,1,3335*41
$GNRMC,043505.200,A,2500.7790784,N,12132.4546184,E,0.01,148.55,270623,,,R,V*1A
$GPHDT,,T*1B
$GNGGA,043505.400,2500.7790815,N,12132.4546175,E,4,53,0.52,10.787,M,15.25,M,1,3335*49
$GNRMC,043505.400,A,2500.7790815,N,12132.4546175,E,0.01,148.55,270623,,,R,V*15
$GPHDT,,T*1B
$GNGGA,043505.600,2500.7790817,N,12132.4546215,E,4,54,0.51,10.790,M,15.25,M,0,3335*4F
$GNRMC,043505.600,A,2500.7790817,N,12132.4546215,E,0.01,148.55,270623,,,R,V*10
$GPHDT,,T*1B
$GNGGA,043505.800,2500.7790827,N,12132.4546194,E,4,54,0.51,10.790,M,15.25,M,0,3335*48
$GNRMC,043505.800,A,2500.7790827,N,12132.4546194,E,0.01,148.55,270623,,,R,V*17
$GPHDT,,T*1B
$GNGSA,A,3,19,196,195,199,17,06,20,09,11,194,12,05,1.03,0.51,0.89,1*0D
$GNGSA,A,3,04,,,,,,,,,,,,1.03,0.51,0.89,1*02
$GNGSA,A,3,68,82,67,,,,,,,,,,1.03,0.51,0.89,2*00
$GNGSA,A,3,10,12,04,11,24,19,25,,,,,,1.03,0.51,0.89,3*0B
$GNGSA,A,3,33,40,07,10,08,28,14,43,13,41,42,11,1.03,0.51,0.89,4*00
$GPGSV,4,1,15,19,70,091,44,196,70,116,42,195,69,052,41,199,60,167,33,1*5C
$GPGSV,4,2,15,50,60,167,35,17,53,119,42,06,49,013,27,20,45,252,35,1*60
$GPGSV,4,3,15,09,37,077,39,11,36,309,31,194,32,174,31,12,25,300,17,1*51
$GPGSV,4,4,15,05,20,234,25,04,16,051,17,14,06,170,,1*51
$GPGSV,2,1,08,196,70,116,48,195,69,052,44,199,60,167,41,06,49,013,28,8*51
$GPGSV,2,2,08,09,37,077,39,11,36,309,35,194,32,174,34,04,16,051,19,8*5C
$GLGSV,2,1,07,68,71,101,39,83,42,011,,69,35,185,17,82,34,070,36,1*7F
$GLGSV,2,2,07,67,31,035,31,73,16,263,,74,08,306,,1*42
$GAGSV,3,1,10,10,50,001,29,12,44,039,17,04,44,141,35,11,40,321,38,7*78
$GAGSV,3,2,10,24,37,222,30,19,31,064,27,25,29,288,25,09,13,188,,7*7E
$GAGSV,3,3,10,33,08,081,19,36,05,285,,7*74
$GAGSV,2,1,07,10,50,001,24,04,44,141,42,12,44,039,23,11,40,321,38,1*73
$GAGSV,2,2,07,24,37,222,33,19,31,064,28,33,08,081,30,1*42
$GBGSV,4,1,14,33,76,086,40,40,74,181,40,07,71,222,39,10,69,260,36,1*70
$GBGSV,4,2,14,08,54,291,39,28,51,342,43,14,50,049,22,43,48,088,39,1*7C
$GBGSV,4,3,14,13,47,277,27,41,42,202,44,42,25,041,26,11,24,102,39,1*7E
$GBGSV,4,4,14,37,09,254,,23,07,206,,1*7F
$GBGSV,2,1,05,33,76,086,46,40,74,181,44,28,51,342,37,43,48,088,39,4*79
$GBGSV,2,2,05,41,42,202,45,4*44
$GNGGA,043506.000,2500.7790777,N,12132.4546201,E,4,54,0.51,10.795,M,15.25,M,1,3335*42
$GNRMC,043506.000,A,2500.7790777,N,12132.4546201,E,0.01,148.55,270623,,,R,V*19
$GPHDT,,T*1B
$GNGGA,043506.200,2500.7790813,N,12132.4546193,E,4,54,0.51,10.796,M,15.25,M,1,3335*46
$GNRMC,043506.200,A,2500.7790813,N,12132.4546193,E,0.02,148.55,270623,,,R,V*1D
$GPHDT,,T*1B
$GNGGA,043506.400,2500.7790817,N,12132.4546212,E,4,54,0.51,10.799,M,15.25,M,1,3335*41
$GNRMC,043506.400,A,2500.7790817,N,12132.4546212,E,0.01,148.55,270623,,,R,V*16
$GPHDT,,T*1B
$GNGGA,043506.600,2500.7790800,N,12132.4546169,E,4,54,0.51,10.789,M,15.25,M,0,3335*4A
$GNRMC,043506.600,A,2500.7790800,N,12132.4546169,E,0.01,148.55,270623,,,R,V*1D
$GPHDT,,T*1B
$GNGGA,043506.800,2500.7790824,N,12132.4546189,E,4,54,0.51,10.789,M,15.25,M,0,3335*4C
$GNRMC,043506.800,A,2500.7790824,N,12132.4546189,E,0.01,148.55,270623,,,R,V*1B
$GPHDT,,T*1B
$GNGSA,A,3,19,196,195,199,17,06,20,09,11,194,12,05,1.03,0.51,0.89,1*0D
$GNGSA,A,3,04,,,,,,,,,,,,1.03,0.51,0.89,1*02
$GNGSA,A,3,68,82,67,,,,,,,,,,1.03,0.51,0.89,2*00
$GNGSA,A,3,10,12,04,11,24,19,25,,,,,,1.03,0.51,0.89,3*0B
$GNGSA,A,3,33,40,07,10,08,28,14,43,13,41,42,11,1.03,0.51,0.89,4*00
$GPGSV,4,1,15,19,70,091,44,196,70,116,42,195,69,052,41,199,60,167,33,1*5C
$GPGSV,4,2,15,50,60,167,35,17,53,119,42,06,49,013,28,20,45,252,37,1*6D
$GPGSV,4,3,15,09,37,077,39,11,36,309,31,194,32,174,31,12,25,300,17,1*51
$GPGSV,4,4,15,05,20,234,25,04,16,051,17,14,06,170,,1*51
$GPGSV,2,1,08,196,70,116,48,195,69,052,44,199,60,167,41,06,49,013,28,8*51
$GPGSV,2,2,08,09,37,077,39,11,36,309,35,194,32,174,35,04,16,051,20,8*57
$GLGSV,2,1,07,68,71,101,38,83,42,011,,69,35,185,17,82,34,070,36,1*7E
$GLGSV,2,2,07,67,31,035,31,73,16,263,,74,08,306,,1*42
$GAGSV,3,1,10,10,50,001,31,12,44,039,15,04,44,141,35,11,40,321,37,7*7C
$GAGSV,3,2,10,24,37,222,28,19,31,064,27,25,29,288,22,09,13,188,,7*70
$GAGSV,3,3,10,33,08,081,21,36,05,285,,7*7F
$GAGSV,2,1,07,10,50,001,24,04,44,141,42,12,44,039,22,11,40,321,37,1*7D
$GAGSV,2,2,07,24,37,222,33,19,31,064,27,33,08,081,30,1*4D
$GBGSV,4,1,15,33,76,086,39,40,74,181,40,07,71,222,39,10,69,260,36,1*7F
$GBGSV,4,2,15,08,54,291,37,28,51,342,43,14,50,049,22,43,48,088,39,1*73
$GBGSV,4,3,15,13,47,277,28,41,42,202,44,42,25,041,27,11,24,102,39,1*71
$GBGSV,4,4,15,37,09,254,,34,07,114,,23,07,206,,1*4A
$GBGSV,2,1,05,33,76,086,45,40,74,181,44,28,51,342,38,43,48,088,39,4*75
$GBGSV,2,2,05,41,42,202,45,4*44
$GNGGA,043507.000,2500.7790810,N,12132.4546149,E,4,54,0.51,10.786,M,15.25,M,1,3335*40
$GNRMC,043507.000,A,2500.7790810,N,12132.4546149,E,0.00,148.55,270623,,,R,V*18
$GPHDT,,T*1B
$GNGGA,043507.200,2500.7790835,N,12132.4546157,E,4,55,0.51,10.786,M,15.25,M,1,3335*4B
$GNRMC,043507.200,A,2500.7790835,N,12132.4546157,E,0.00,148.55,270623,,,R,V*12
$GPHDT,,T*1B
$GNGGA,043507.400,2500.7790820,N,12132.4546177,E,4,56,0.49,10.805,M,15.25,M,1,3335*45
$GNRMC,043507.400,A,2500.7790820,N,12132.4546177,E,0.00,148.55,270623,,,R,V*12
$GPHDT,,T*1B
$GNGGA,043507.600,2500.7790853,N,12132.4546118,E,4,56,0.49,10.772,M,15.25,M,0,3335*44
$GNRMC,043507.600,A,2500.7790853,N,12132.4546118,E,0.00,148.55,270623,,,R,V*1D
$GPHDT,,T*1B
$GNGGA,043507.800,2500.7790828,N,12132.4546105,E,4,56,0.49,10.764,M,15.25,M,0,3335*4D
$GNRMC,043507.800,A,2500.7790828,N,12132.4546105,E,0.01,148.55,270623,,,R,V*12
$GPHDT,,T*1B
$GNGSA,A,3,19,196,195,199,17,06,20,09,11,194,12,05,1.01,0.49,0.88,1*07
$GNGSA,A,3,04,,,,,,,,,,,,1.01,0.49,0.88,1*08
$GNGSA,A,3,68,69,82,67,,,,,,,,,1.01,0.49,0.88,2*05
$GNGSA,A,3,10,04,12,11,24,19,25,,,,,,1.01,0.49,0.88,3*01
$GNGSA,A,3,33,40,07,10,08,28,14,43,13,41,42,11,1.01,0.49,0.88,4*0A
$GPGSV,4,1,15,19,70,091,44,196,70,116,42,195,69,052,41,199,60,167,33,1*5C
$GPGSV,4,2,15,50,60,167,35,17,53,119,42,06,49,013,28,20,45,252,37,1*6D
$GPGSV,4,3,15,09,37,077,39,11,36,309,32,194,32,174,31,12,25,300,19,1*5C
$GPGSV,4,4,15,05,20,234,25,04,16,051,19,14,06,170,,1*5F
$GPGSV,2,1,08,196,70,116,48,195,69,052,44,199,60,167,40,06,49,013,26,8*5E
$GPGSV,2,2,08,09,37,077,39,11,36,309,34,194,32,174,35,04,16,051,20,8*56
$GLGSV,2,1,06,68,71,101,38,83,42,011,,69,35,185,22,82,34,070,36,1*79
$GLGSV,2,2,06,67,31,035,32,74,08,306,,1*74
$GAGSV,3,1,10,10,50,001,30,04,44,141,35,12,44,039,15,11,40,321,38,7*72
$GAGSV,3,2,10,24,37,222,28,19,31,064,27,25,29,288,22,09,13,188,,7*70
$GAGSV,3,3,10,33,08,081,21,36,05,286,,7*7C
$GAGSV,2,1,07,10,50,001,24,04,44,141,42,12,44,039,23,11,40,321,37,1*7C
$GAGSV,2,2,07,24,37,222,33,19,31,064,28,33,08,081,31,1*43
$GBGSV,4,1,15,33,76,086,39,40,74,181,40,07,71,222,39,10,69,260,36,1*7F
$GBGSV,4,2,15,08,54,291,37,28,51,342,43,14,50,049,21,43,48,088,39,1*70
$GBGSV,4,3,15,13,47,277,30,41,42,202,44,42,25,041,26,11,24,102,39,1*79
$GBGSV,4,4,15,37,09,254,,34,07,114,,23,07,206,,1*4A
$GBGSV,2,1,06,33,76,086,45,40,74,181,44,28,51,342,38,43,48,088,39,4*76
$GBGSV,2,2,06,41,42,202,45,42,25,041,25,4*74
$GNGGA,043508.000,2500.7790809,N,12132.4546153,E,4,56,0.49,10.778,M,15.25,M,1,3335*46
$GNRMC,043508.000,A,2500.7790809,N,12132.4546153,E,0.00,148.55,270623,,,R,V*14
$GPHDT,,T*1B
$GNGGA,043508.200,2500.7790810,N,12132.4546170,E,4,56,0.49,10.793,M,15.25,M,1,3335*48
$GNRMC,043508.200,A,2500.7790810,N,12132.4546170,E,0.00,148.55,270623,,,R,V*1F
