$FW : RTK35X,V1.1X0314AS,Lib20210517,1*54
$Tool : LOCOSYS , GNSS Firebird , v1.0.0.19*39
$---------------------------------------------------*2D
$GPHDT,,T*1B
$GNGSA,A,3,19,196,195,199,17,06,20,09,11,194,12,04,1.08,0.51,0.95,1*0A
$GNGSA,A,3,68,69,82,67,,,,,,,,,1.08,0.51,0.95,2*09
$GNGSA,A,3,10,12,04,11,24,19,25,,,,,,1.08,0.51,0.95,3*0D
$GNGSA,A,3,33,40,07,10,08,14,28,43,13,41,11,42,1.08,0.51,0.95,4*06
$GPGSV,4,1,15,19,71,088,37,196,70,117,40,195,69,052,40,199,60,167,33,1*53
$GPGSV,4,2,15,50,60,167,35,17,53,118,41,06,49,012,28,20,44,251,43,1*6F
$GPGSV,4,3,15,09,37,079,41,11,36,308,30,194,33,174,28,12,24,301,20,1*5D
$GPGSV,4,4,15,05,19,233,26,04,16,052,15,14,07,170,14,1*5A
$GPGSV,2,1,07,196,70,117,44,195,69,052,42,199,60,167,40,09,37,079,42,8*52
$GPGSV,2,2,07,11,36,308,36,194,33,174,33,04,16,052,21,8*68
$GLGSV,3,1,09,68,70,104,38,83,42,010,15,69,35,185,24,82,34,069,34,1*7A
$GLGSV,3,2,09,67,31,036,31,73,16,264,,74,08,307,,84,08,313,,1*7D
$GLGSV,3,3,09,80,07,213,,1*4E
$GAGSV,3,1,09,10,50,359,25,12,44,038,17,04,43,141,38,11,40,320,39,7*79
$GAGSV,3,2,09,24,38,223,37,19,31,065,28,25,29,289,22,09,12,188,,7*76
$GAGSV,3,3,09,33,08,080,20,7*48
$GAGSV,2,1,08,10,50,359,28,12,44,038,31,04,43,141,41,11,40,320,41,1*77
$GAGSV,2,2,08,24,38,223,41,19,31,065,26,25,29,289,11,33,08,080,24,1*72
$GBGSV,4,1,15,33,76,089,41,40,74,180,41,07,71,223,40,10,69,261,36,1*71
$GBGSV,4,2,15,08,54,291,36,14,51,050,32,28,51,342,42,43,48,087,39,1*74
$GBGSV,4,3,15,13,47,276,39,41,42,202,43,42,25,041,,11,24,102,35,1*7E
$GBGSV,4,4,15,37,09,255,,34,07,114,,23,07,206,,1*4B
$GBGSV,2,1,06,33,76,089,42,40,74,180,44,28,51,342,38,43,48,087,26,4*7E
$GBGSV,2,2,06,41,42,202,44,42,25,041,33,4*72
$GNGGA,043315.000,2500.7795412,N,12132.4540313,E,4,53,0.51,15.916,M,15.25,M,1,3335*40
$GNRMC,043315.000,A,2500.7795412,N,12132.4540313,E,0.05,148.55,270623,,,R,V*18
$GPHDT,,T*1B
$GNGGA,043315.200,2500.7795410,N,12132.4540316,E,4,53,0.51,15.922,M,15.25,M,1,3335*42
$GNRMC,043315.200,A,2500.7795410,N,12132.4540316,E,0.04,148.55,270623,,,R,V*1C
$GPHDT,,T*1B
$GNGGA,043315.400,2500.7795414,N,12132.4540288,E,4,54,0.50,15.916,M,15.25,M,1,3335*47
$GNRMC,043315.400,A,2500.7795414,N,12132.4540288,E,0.05,148.55,270623,,,R,V*19
$GPHDT,,T*1B
$GNGGA,043315.600,2500.7795433,N,12132.4540284,E,4,54,0.50,15.910,M,15.25,M,1,3335*4A
$GNRMC,043315.600,A,2500.7795433,N,12132.4540284,E,0.03,148.55,270623,,,R,V*14
$GPHDT,,T*1B
$GNGGA,043315.800,2500.7795399,N,12132.4540308,E,4,54,0.50,15.924,M,15.25,M,0,3335*40
$GNRMC,043315.800,A,2500.7795399,N,12132.4540308,E,0.03,148.55,270623,,,R,V*18
$GPHDT,,T*1B
$GNGSA,A,3,19,196,195,199,17,06,20,09,11,194,12,04,1.08,0.50,0.95,1*0B
$GNGSA,A,3,68,83,69,82,67,,,,,,,,1.08,0.50,0.95,2*03
$GNGSA,A,3,10,12,04,11,24,19,25,,,,,,1.08,0.50,0.95,3*0C
$GNGSA,A,3,33,40,07,10,08,28,14,43,13,41,11,42,1.08,0.50,0.95,4*07
$GPGSV,4,1,15,19,71,088,40,196,70,117,40,195,69,052,40,199,60,167,34,1*54
$GPGSV,4,2,15,50,60,167,36,17,53,118,42,06,49,012,30,20,44,251,43,1*66
$GPGSV,4,3,15,09,37,079,41,11,36,308,31,194,33,174,28,12,24,301,18,1*57
$GPGSV,4,4,15,05,19,233,25,04,16,052,15,14,07,170,,1*5C
$GPGSV,2,1,07,196,70,117,44,195,69,052,42,199,60,167,41,09,37,079,42,8*53
$GPGSV,2,2,07,11,36,308,36,194,33,174,33,04,16,052,23,8*6A
$GLGSV,2,1,08,68,70,104,38,83,42,010,14,69,35,185,25,82,34,069,35,1*7B
$GLGSV,2,2,08,67,31,036,30,73,16,264,,84,08,313,,74,08,307,,1*7C
$GAGSV,3,1,10,10,50,359,26,12,44,038,18,04,43,141,39,11,40,320,39,7*7C
$GAGSV,3,2,10,24,38,223,37,19,31,065,29,25,29,289,22,09,12,188,,7*7F
$GAGSV,3,3,10,33,08,080,20,36,05,285,,7*7F
$GAGSV,2,1,08,10,50,359,29,12,44,038,29,04,43,141,41,11,40,320,41,1*7F
$GAGSV,2,2,08,24,38,223,41,19,31,065,27,25,29,289,14,33,08,080,26,1*74
$GBGSV,4,1,15,33,76,089,43,40,74,180,41,07,71,223,40,10,69,261,36,1*73
$GBGSV,4,2,15,08,54,291,36,28,51,342,42,14,51,050,33,43,48,087,39,1*75
$GBGSV,4,3,15,13,47,276,38,41,42,202,43,42,25,041,,11,24,102,34,1*7E
$GBGSV,4,4,15,37,09,255,,23,07,206,,34,07,114,,1*4B
$GBGSV,2,1,06,33,76,089,43,40,74,180,45,28,51,342,38,43,48,087,24,4*7C
$GBGSV,2,2,06,41,42,202,44,42,25,041,32,4*73
$GNGGA,043316.000,2500.7795410,N,12132.4540302,E,4,54,0.50,15.925,M,15.25,M,1,3335*47
$GNRMC,043316.000,A,2500.7795410,N,12132.4540302,E,0.04,148.55,270623,,,R,V*18
$GPHDT,,T*1B
$GNGGA,043316.200,2500.7795375,N,12132.4540288,E,4,54,0.50,15.906,M,15.25,M,1,3335*43
$GNRMC,043316.200,A,2500.7795375,N,12132.4540288,E,0.04,148.55,270623,,,R,V*1D
$GPHDT,,T*1B
$GNGGA,043316.400,2500.7795384,N,12132.4540308,E,4,54,0.50,15.920,M,15.25,M,1,3335*46
$GNRMC,043316.400,A,2500.7795384,N,12132.4540308,E,0.03,148.55,270623,,,R,V*1B
$GPHDT,,T*1B
$GNGGA,043316.600,2500.7795382,N,12132.4540301,E,4,54,0.50,15.919,M,15.25,M,0,3335*40
$GNRMC,043316.600,A,2500.7795382,N,12132.4540301,E,0.01,148.55,270623,,,R,V*14
$GPHDT,,T*1B
$GNGGA,043316.800,2500.7795384,N,12132.4540277,E,4,54,0.50,15.930,M,15.25,M,0,3335*43
$GNRMC,043316.800,A,2500.7795384,N,12132.4540277,E,0.04,148.55,270623,,,R,V*19
$GPHDT,,T*1B
$GNGSA,A,3,19,196,195,199,17,06,20,09,11,194,12,04,1.10,0.51,0.97,1*01
$GNGSA,A,3,68,83,69,82,67,,,,,,,,1.10,0.51,0.97,2*09
$GNGSA,A,3,10,12,04,11,24,19,25,,,,,,1.10,0.51,0.97,3*06
$GNGSA,A,3,33,40,07,10,08,14,28,43,13,41,11,,1.10,0.51,0.97,4*0B
$GPGSV,4,1,15,19,71,088,37,196,70,117,40,195,69,052,39,199,60,167,34,1*5A
$GPGSV,4,2,15,50,60,167,36,17,53,118,42,06,49,012,29,20,44,251,43,1*6E
$GPGSV,4,3,15,09,37,079,41,11,36,308,31,194,33,174,25,12,24,301,18,1*5A
$GPGSV,4,4,15,05,19,233,27,04,16,052,16,14,07,170,,1*5D
$GPGSV,2,1,07,196,70,117,45,195,69,052,42,199,60,167,42,09,37,079,42,8*51
$GPGSV,2,2,07,11,36,308,36,194,33,174,33,04,16,052,25,8*6C
$GLGSV,2,1,07,68,70,104,36,83,42,010,13,69,35,185,19,82,34,069,34,1*73
$GLGSV,2,2,07,67,31,036,32,73,16,264,,74,08,307,,1*44
$GAGSV,3,1,10,10,50,359,26,12,44,038,16,04,43,141,39,11,40,320,39,7*72
$GAGSV,3,2,10,24,38,223,37,19,31,065,28,25,29,289,22,09,12,188,,7*7E
$GAGSV,3,3,10,33,08,080,20,36,05,285,,7*7F
$GAGSV,2,1,08,10,50,359,28,12,44,038,31,04,43,141,43,11,40,320,41,1*75
$GAGSV,2,2,08,24,38,223,41,19,31,065,28,25,29,289,13,33,08,080,27,1*7D
$GBGSV,4,1,15,33,76,089,42,40,74,180,42,07,71,223,40,10,69,261,36,1*71
$GBGSV,4,2,15,08,54,291,36,14,51,050,30,28,51,342,41,43,48,087,39,1*75
$GBGSV,4,3,15,13,47,276,37,41,42,202,43,42,25,041,,11,24,102,34,1*71
$GBGSV,4,4,15,37,09,255,,34,07,114,,23,07,206,,1*4B
$GBGSV,2,1,05,33,76,089,42,40,74,180,45,28,51,342,39,43,48,087,21,4*7A
$GBGSV,2,2,05,41,42,202,44,4*45
$GNGGA,043317.000,2500.7795395,N,12132.4540265,E,4,53,0.51,15.932,M,15.25,M,1,3335*4C
$GNRMC,043317.000,A,2500.7795395,N,12132.4540265,E,0.09,148.55,270623,,,R,V*1E
$GPHDT,,T*1B
$GNGGA,043317.200,2500.7795404,N,12132.4540282,E,4,53,0.51,15.922,M,15.25,M,1,3335*49
$GNRMC,043317.200,A,2500.7795404,N,12132.4540282,E,0.03,148.55,270623,,,R,V*10
$GPHDT,,T*1B
$GNGGA,043317.400,2500.7795403,N,12132.4540300,E,4,54,0.50,15.909,M,15.25,M,1,3335*4C
$GNRMC,043317.400,A,2500.7795403,N,12132.4540300,E,0.04,148.55,270623,,,R,V*1D
$GPHDT,,T*1B
$GNGGA,043317.600,2500.7795395,N,12132.4540283,E,4,54,0.50,15.947,M,15.25,M,1,3335*46
$GNRMC,043317.600,A,2500.7795395,N,12132.4540283,E,0.02,148.55,270623,,,R,V*1B
$GPHDT,,T*1B
$GNGGA,043317.800,2500.7795418,N,12132.4540294,E,4,54,0.50,15.957,M,15.25,M,0,3335*4C
$GNRMC,043317.800,A,2500.7795418,N,12132.4540294,E,0.07,148.55,270623,,,R,V*14
$GPHDT,,T*1B
$GNGSA,A,3,19,196,195,199,17,06,20,09,11,194,12,04,1.08,0.51,0.95,1*0A
$GNGSA,A,3,68,69,82,67,,,,,,,,,1.08,0.51,0.95,2*09
$GNGSA,A,3,10,12,04,11,24,19,25,,,,,,1.08,0.51,0.95,3*0D
$GNGSA,A,3,33,40,07,10,08,14,28,43,13,41,11,42,1.08,0.51,0.95,4*06
$GPGSV,4,1,15,19,71,088,40,196,70,117,42,195,69,052,39,199,60,167,32,1*5E
$GPGSV,4,2,15,50,60,167,35,17,53,118,43,06,49,012,25,20,44,251,43,1*60
$GPGSV,4,3,15,09,37,078,38,11,36,308,31,194,33,174,27,12,24,301,18,1*57
$GPGSV,4,4,15,05,19,233,28,04,16,052,18,14,07,170,,1*5C
$GPGSV,2,1,07,196,70,117,46,195,69,052,42,199,60,167,42,09,37,078,41,8*50
$GPGSV,2,2,07,11,36,308,36,194,33,174,34,04,16,052,25,8*6B
$GLGSV,2,1,07,68,70,104,40,83,42,010,13,69,35,185,20,82,34,069,32,1*7E
$GLGSV,2,2,07,67,31,036,31,73,16,264,,74,08,307,,1*47
$GAGSV,3,1,10,10,50,359,27,12,44,038,16,04,43,141,40,11,40,320,39,7*7D
$GAGSV,3,2,10,24,38,223,38,19,31,065,28,25,29,289,21,09,12,188,,7*72
$GAGSV,3,3,10,33,08,080,,36,05,285,,7*7D
$GAGSV,2,1,08,10,50,359,28,12,44,038,32,04,43,141,43,11,40,320,41,1*76
$GAGSV,2,2,08,24,38,223,42,19,31,065,28,25,29,289,13,33,08,080,24,1*7D
$GBGSV,4,1,15,33,76,089,43,40,74,180,42,07,71,223,40,10,69,261,36,1*70
$GBGSV,4,2,15,08,54,291,36,14,51,050,31,28,51,342,41,43,48,087,34,1*79
$GBGSV,4,3,15,13,47,276,37,41,42,202,43,42,25,041,,11,24,102,35,1*70
$GBGSV,4,4,15,37,09,255,,34,07,114,,23,07,206,,1*4B
$GBGSV,2,1,06,33,76,089,44,40,74,180,45,28,51,342,39,43,48,087,20,4*7E
$GBGSV,2,2,06,41,42,202,44,42,25,041,32,4*73
$GNGGA,043318.000,2500.7795413,N,12132.4540282,E,4,53,0.51,15.953,M,15.25,M,1,3335*44
$GNRMC,043318.000,A,2500.7795413,N,12132.4540282,E,0.01,148.55,270623,,,R,V*19
$GPHDT,,T*1B
$GNGGA,043318.200,2500.7795416,N,12132.4540272,E,4,54,0.51,15.954,M,15.25,M,1,3335*4C
$GNRMC,043318.200,A,2500.7795416,N,12132.4540272,E,0.03,148.55,270623,,,R,V*13
$GPHDT,,T*1B
$GNGGA,043318.400,2500.7795397,N,12132.4540266,E,4,53,0.52,15.943,M,15.25,M,1,3335*43
$GNRMC,043318.400,A,2500.7795397,N,12132.4540266,E,0.02,148.55,270623,,,R,V*1F
$GPHDT,,T*1B
$GNGGA,043318.600,2500.7795375,N,12132.4540282,E,4,53,0.52,15.951,M,15.25,M,0,3335*45
$GNRMC,043318.600,A,2500.7795375,N,12132.4540282,E,0.01,148.55,270623,,,R,V*18
$GPHDT,,T*1B
$GNGGA,043318.800,2500.7795368,N,12132.4540273,E,4,51,0.52,15.929,M,15.25,M,0,3335*44
$GNRMC,043318.800,A,2500.7795368,N,12132.4540273,E,0.00,148.55,270623,,,R,V*15
$GPHDT,,T*1B
$GNGSA,A,3,19,196,195,199,17,06,20,09,11,194,12,04,1.10,0.52,0.97,1*02
$GNGSA,A,3,68,69,82,67,,,,,,,,,1.10,0.52,0.97,2*01
$GNGSA,A,3,10,12,04,11,24,19,25,,,,,,1.10,0.52,0.97,3*05
$GNGSA,A,3,33,40,07,10,08,14,28,43,13,41,11,,1.10,0.52,0.97,4*08
$GPGSV,4,1,14,19,71,088,40,196,70,117,42,195,69,052,39,50,60,167,35,1*6C
$GPGSV,4,2,14,199,60,167,33,17,53,118,43,06,49,012,24,20,44,251,43,1*52
$GPGSV,4,3,14,09,37,078,36,11,36,308,30,194,33,174,32,12,24,301,19,1*5C
$GPGSV,4,4,14,05,19,233,26,04,16,052,20,1*6C
$GPGSV,2,1,08,196,70,117,46,195,69,052,42,199,60,167,41,06,49,012,24,8*55
$GPGSV,2,2,08,09,37,078,38,11,36,308,36,194,33,174,34,04,16,052,24,8*5C
$GLGSV,2,1,06,68,70,104,39,83,42,010,17,69,35,185,18,82,34,069,31,1*7D
$GLGSV,2,2,06,67,31,036,30,73,16,264,,1*78
$GAGSV,3,1,10,10,50,359,27,12,44,038,19,04,43,141,40,11,40,320,39,7*72
$GAGSV,3,2,10,24,38,223,37,19,31,065,29,25,29,289,21,09,12,188,,7*7C
$GAGSV,3,3,10,33,08,080,,36,05,285,,7*7D
$GAGSV,2,1,07,10,50,359,28,12,44,038,33,04,43,141,43,11,40,320,40,1*79
$GAGSV,2,2,07,24,38,223,42,19,31,065,28,33,08,080,23,1*48
$GBGSV,4,1,15,33,76,089,44,40,74,180,42,07,71,223,40,10,69,261,36,1*77
$GBGSV,4,2,15,08,54,291,37,14,51,050,32,28,51,342,42,43,48,087,34,1*78
$GBGSV,4,3,15,13,47,276,38,41,42,202,44,42,25,041,,11,24,102,35,1*78
$GBGSV,4,4,15,37,09,255,,23,07,206,,34,07,114,,1*4B
$GBGSV,2,1,05,33,76,089,44,40,74,180,45,28,51,342,38,43,48,087,22,4*7E
$GBGSV,2,2,05,41,42,202,44,4*45
$GNGGA,043319.000,2500.7795343,N,12132.4540198,E,4,52,0.52,15.930,M,15.25,M,1,3335*48
$GNRMC,043319.000,A,2500.7795343,N,12132.4540198,E,0.04,148.55,270623,,,R,V*17
$GPHDT,,T*1B
$GNGGA,043319.200,2500.7795368,N,12132.4540308,E,4,52,0.52,15.897,M,15.25,M,1,3335*44
$GNRMC,043319.200,A,2500.7795368,N,12132.4540308,E,0.02,148.55,270623,,,R,V*11
$GPHDT,,T*1B
$GNGGA,043319.400,2500.7795373,N,12132.4540279,E,4,52,0.52,15.892,M,15.25,M,1,3335*4A
$GNRMC,043319.400,A,2500.7795373,N,12132.4540279,E,0.03,148.55,270623,,,R,V*1B
$GPHDT,,T*1B
$GNGGA,043319.600,2500.7795309,N,12132.4540077,E,4,53,0.52,16.004,M,15.25,M,1,3335*4C
$GNRMC,043319.600,A,2500.7795309,N,12132.4540077,E,0.03,148.55,270623,,,R,V*18
$GPHDT,,T*1B
$GNGGA,043319.800,2500.7795331,N,12132.4540118,E,4,53,0.52,16.021,M,15.25,M,0,3335*47
$GNRMC,043319.800,A,2500.7795331,N,12132.4540118,E,0.03,148.55,270623,,,R,V*15
$GPHDT,,T*1B
$GNGSA,A,3,19,196,195,199,17,06,20,09,11,194,12,04,1.10,0.52,0.97,1*02
$GNGSA,A,3,68,69,82,67,,,,,,,,,1.10,0.52,0.97,2*01
$GNGSA,A,3,10,12,04,11,24,19,25,,,,,,1.10,0.52,0.97,3*05
$GNGSA,A,3,33,40,07,10,08,28,14,43,13,41,11,,1.10,0.52,0.97,4*08
$GPGSV,4,1,15,19,71,089,43,196,70,117,44,195,69,052,39,199,60,167,33,1*5B
$GPGSV,4,2,15,50,60,167,34,17,53,118,44,06,49,012,25,20,44,251,43,1*66
$GPGSV,4,3,15,09,37,078,37,11,36,308,29,194,33,174,32,12,24,301,19,1*54
$GPGSV,4,4,15,05,19,233,25,04,16,052,22,14,07,170,,1*58
$GPGSV,2,1,08,196,70,117,47,195,69,052,42,199,60,167,42,06,49,012,24,8*57
$GPGSV,2,2,08,09,37,078,38,11,36,308,35,194,33,174,34,04,16,052,21,8*5A
$GLGSV,2,1,05,68,70,104,40,83,42,010,15,69,35,185,20,82,34,069,33,1*7B
$GLGSV,2,2,05,67,31,036,30,1*48
$GAGSV,3,1,10,10,50,359,26,12,44,038,19,04,43,141,38,11,40,320,38,7*7D
$GAGSV,3,2,10,24,38,223,37,19,31,065,26,25,29,289,21,09,12,188,,7*73
$GAGSV,3,3,10,33,08,080,19,36,05,285,,7*75
$GAGSV,2,1,07,10,50,359,26,12,44,038,31,04,43,141,43,11,40,320,40,1*75
$GAGSV,2,2,07,24,38,223,41,19,31,065,23,33,08,080,21,1*42
$GBGSV,4,1,14,33,76,089,44,40,74,180,43,07,71,223,40,10,69,261,37,1*76
$GBGSV,4,2,14,08,54,291,38,28,51,342,42,14,51,050,30,43,48,087,34,1*74
$GBGSV,4,3,14,13,47,276,39,41,42,202,44,42,25,041,,11,24,102,37,1*7A
$GBGSV,4,4,14,37,09,255,,34,07,114,,1*78
$GBGSV,2,1,05,33,76,089,44,40,74,180,44,28,51,342,37,43,48,087,26,4*74
$GBGSV,2,2,05,41,42,202,42,4*43
$GNGGA,043320.000,2500.7795359,N,12132.4540191,E,4,53,0.52,15.960,M,15.25,M,1,3335*44
$GNRMC,043320.000,A,2500.7795359,N,12132.4540191,E,0.06,148.55,270623,,,R,V*1D
$GPHDT,,T*1B
$GNGGA,043320.200,2500.7795420,N,12132.4540268,E,4,53,0.52,15.960,M,15.25,M,1,3335*4A
$GNRMC,043320.200,A,2500.7795420,N,12132.4540268,E,0.03,148.55,270623,,,R,V*16
$GPHDT,,T*1B
$GNGGA,043320.400,2500.7795414,N,12132.4540246,E,4,54,0.51,15.943,M,15.25,M,1,3335*42
$GNRMC,043320.400,A,2500.7795414,N,12132.4540246,E,0.06,148.55,270623,,,R,V*1E
$GPHDT,,T*1B
$GNGGA,043320.600,2500.7795410,N,12132.4540263,E,4,53,0.51,15.928,M,15.25,M,0,3335*48
$GNRMC,043320.600,A,2500.7795410,N,12132.4540263,E,0.03,148.55,270623,,,R,V*1A
$GPHDT,,T*1B
$GNGGA,043320.800,2500.7795376,N,12132.4540277,E,4,54,0.51,15.934,M,15.25,M,0,3335*4E
$GNRMC,043320.800,A,2500.7795376,N,12132.4540277,E,0.05,148.55,270623,,,R,V*10
$GPHDT,,T*1B
$GNGSA,A,3,19,196,195,199,17,06,20,09,11,194,12,04,1.10,0.51,0.97,1*01
$GNGSA,A,3,68,83,69,82,67,,,,,,,,1.10,0.51,0.97,2*09
$GNGSA,A,3,10,12,04,11,24,19,25,,,,,,1.10,0.51,0.97,3*06
$GNGSA,A,3,33,40,07,10,08,28,14,43,13,41,11,,1.10,0.51,0.97,4*0B
$GPGSV,4,1,15,19,71,089,43,196,70,117,44,195,69,052,40,199,60,167,34,1*52
$GPGSV,4,2,15,50,60,167,35,17,53,118,44,06,49,012,20,20,44,251,43,1*62
$GPGSV,4,3,15,09,37,078,40,11,36,308,31,194,33,174,31,12,24,301,19,1*5E
$GPGSV,4,4,15,05,19,233,27,04,16,052,18,14,07,170,,1*53
$GPGSV,2,1,08,196,70,117,47,195,69,052,43,199,60,167,43,06,49,012,26,8*55
$GPGSV,2,2,08,09,37,078,41,11,36,308,35,194,33,174,33,04,16,052,21,8*53
$GLGSV,2,1,06,68,70,104,40,83,42,010,14,69,35,185,22,82,34,069,32,1*7A
$GLGSV,2,2,06,67,31,036,30,80,07,213,,1*74
$GAGSV,3,1,09,10,50,359,22,12,44,038,17,04,43,141,38,11,40,320,38,7*7F
$GAGSV,3,2,09,24,38,223,38,19,31,065,21,25,29,289,23,09,12,188,,7*71
$GAGSV,3,3,09,33,08,080,18,7*43
$GAGSV,2,1,07,10,50,359,26,12,44,038,31,04,43,141,43,11,40,320,39,1*7B
$GAGSV,2,2,07,24,38,223,41,19,31,065,23,33,08,080,20,1*43
$GBGSV,4,1,14,33,76,089,44,40,74,180,42,07,71,223,40,10,69,261,39,1*79
$GBGSV,4,2,14,08,54,291,36,28,51,342,42,14,51,050,28,43,48,087,34,1*73
$GBGSV,4,3,14,13,47,276,39,41,42,202,44,42,25,041,,11,24,102,35,1*78
$GBGSV,4,4,14,37,09,255,,23,07,206,,1*7E
$GBGSV,2,1,05,33,76,089,45,40,74,180,44,28,51,342,36,43,48,087,25,4*77
$GBGSV,2,2,05,41,42,202,42,4*43
$GNGGA,043321.000,2500.7795394,N,12132.4540282,E,4,54,0.51,15.927,M,15.25,M,1,3335*42
$GNRMC,043321.000,A,2500.7795394,N,12132.4540282,E,0.04,148.55,270623,,,R,V*1E
$GPHDT,,T*1B
$GNGGA,043321.200,2500.7795399,N,12132.4540326,E,4,54,0.51,15.902,M,15.25,M,1,3335*45
$GNRMC,043321.200,A,2500.7795399,N,12132.4540326,E,0.05,148.55,270623,,,R,V*1F
$GPHDT,,T*1B
$GNGGA,043321.400,2500.7795369,N,12132.4540310,E,4,54,0.51,15.939,M,15.25,M,1,3335*41
$GNRMC,043321.400,A,2500.7795369,N,12132.4540310,E,0.06,148.55,270623,,,R,V*10
$GPHDT,,T*1B
$GNGGA,043321.600,2500.7795308,N,12132.4540317,E,4,54,0.51,15.952,M,15.25,M,1,3335*4E
$GNRMC,043321.600,A,2500.7795308,N,12132.4540317,E,0.02,148.55,270623,,,R,V*16
$GPHDT,,T*1B
$GNGGA,043321.800,2500.7795295,N,12132.4540298,E,4,54,0.51,15.943,M,15.25,M,0,3335*42
$GNRMC,043321.800,A,2500.7795295,N,12132.4540298,E,0.06,148.55,270623,,,R,V*1F
$GPHDT,,T*1B
$GNGSA,A,3,19,196,195,199,17,06,20,09,11,194,12,04,1.10,0.51,0.97,1*01
$GNGSA,A,3,68,83,69,82,67,,,,,,,,1.10,0.51,0.97,2*09
$GNGSA,A,3,10,12,04,11,24,19,25,,,,,,1.10,0.51,0.97,3*06
$GNGSA,A,3,33,40,07,10,08,14,28,43,13,41,11,,1.10,0.51,0.97,4*0B
$GPGSV,4,1,15,19,71,089,43,196,70,117,42,195,69,052,38,50,60,167,37,1*6C
$GPGSV,4,2,15,199,60,167,34,17,53,118,42,06,49,012,20,20,44,251,43,1*51
$GPGSV,4,3,15,09,37,078,41,11,36,308,29,194,33,174,30,12,24,301,18,1*56
$GPGSV,4,4,15,05,19,233,28,04,16,052,15,14,07,170,,1*51
$GPGSV,2,1,08,196,70,117,47,195,69,052,43,199,60,167,45,06,49,012,26,8*53
$GPGSV,2,2,08,09,37,078,41,11,36,308,34,194,33,174,35,04,16,052,22,8*57
$GLGSV,2,1,07,68,70,104,40,83,42,010,15,69,35,185,23,82,34,069,31,1*78
$GLGSV,2,2,07,67,31,036,29,74,08,307,,80,07,213,,1*42
$GAGSV,3,1,09,10,50,359,22,12,44,038,22,04,43,141,22,11,40,320,38,7*72
$GAGSV,3,2,09,24,38,223,38,19,31,065,20,25,29,289,24,09,12,188,,7*77
$GAGSV,3,3,09,33,08,080,16,7*4D
$GAGSV,2,1,07,10,50,359,27,12,44,038,33,04,43,141,32,11,40,320,39,1*7E
$GAGSV,2,2,07,24,38,223,41,19,31,065,25,33,08,080,22,1*47
$GBGSV,4,1,14,33,76,089,44,40,74,180,42,07,71,223,40,10,69,261,39,1*79
$GBGSV,4,2,14,08,54,291,36,14,51,050,29,28,51,342,42,43,48,087,39,1*7F
$GBGSV,4,3,14,13,47,276,39,41,42,202,44,42,25,041,,11,24,102,36,1*7B
$GBGSV,4,4,14,37,09,255,,56,,,36,1*4A
$GBGSV,2,1,05,33,76,089,45,40,74,180,44,28,51,342,36,43,48,087,35,4*76
$GBGSV,2,2,05,41,42,202,43,4*42
$GNGGA,043322.000,2500.7795308,N,12132.4540308,E,4,54,0.51,15.931,M,15.25,M,1,3335*40
$GNRMC,043322.000,A,2500.7795308,N,12132.4540308,E,0.04,148.55,270623,,,R,V*1B
$GPHDT,,T*1B
$GNGGA,043322.200,2500.7795293,N,12132.4540281,E,4,54,0.51,15.931,M,15.25,M,1,3335*41
$GNRMC,043322.200,A,2500.7795293,N,12132.4540281,E,0.03,148.55,270623,,,R,V*1D
$GPHDT,,T*1B
$GNGGA,043322.400,2500.7795299,N,12132.4540298,E,4,54,0.51,15.924,M,15.25,M,1,3335*41
$GNRMC,043322.400,A,2500.7795299,N,12132.4540298,E,0.05,148.55,270623,,,R,V*1F
$GPHDT,,T*1B
$GNGGA,043322.600,2500.7795329,N,12132.4540290,E,4,54,0.51,15.923,M,15.25,M,0,3335*47
$GNRMC,043322.600,A,2500.7795329,N,12132.4540290,E,0.06,148.55,270623,,,R,V*1C
$GPHDT,,T*1B
$GNGGA,043322.800,2500.7795362,N,12132.4540317,E,4,53,0.51,15.927,M,15.25,M,0,3335*4B
$GNRMC,043322.800,A,2500.7795362,N,12132.4540317,E,0.07,148.55,270623,,,R,V*12
$GPHDT,,T*1B
$GNGSA,A,3,19,196,195,199,17,06,20,09,11,194,12,04,1.10,0.52,0.97,1*02
$GNGSA,A,3,68,69,82,67,,,,,,,,,1.10,0.52,0.97,2*01
$GNGSA,A,3,10,12,04,11,24,19,25,,,,,,1.10,0.52,0.97,3*05
$GNGSA,A,3,33,40,07,10,08,28,14,43,13,41,11,,1.10,0.52,0.97,4*08
$GPGSV,4,1,15,19,71,089,42,196,70,116,42,195,69,052,38,199,60,167,34,1*5B
$GPGSV,4,2,15,50,60,167,37,17,53,118,41,06,49,012,22,20,44,251,43,1*67
$GPGSV,4,3,15,09,37,078,40,11,36,308,29,194,32,174,29,12,24,301,17,1*51
$GPGSV,4,4,15,05,19,233,27,04,16,052,14,14,07,170,,1*5F
$GPGSV,2,1,08,196,70,116,47,195,69,052,43,199,60,167,44,06,49,012,26,8*53
$GPGSV,2,2,08,09,37,078,40,11,36,308,34,194,32,174,36,04,16,052,21,8*57
$GLGSV,3,1,09,68,70,104,40,83,42,010,13,69,35,185,18,82,34,069,32,1*7A
$GLGSV,3,2,09,67,31,036,26,73,16,264,,74,08,307,,84,08,313,,1*7B
$GLGSV,3,3,09,80,07,213,,1*4E
$GAGSV,3,1,09,10,50,359,23,12,44,038,21,04,43,141,23,11,40,320,38,7*71
$GAGSV,3,2,09,24,38,223,39,19,31,065,20,25,29,289,23,09,12,188,,7*71
$GAGSV,3,3,09,33,08,080,16,7*4D
$GAGSV,2,1,07,10,50,359,25,12,44,038,33,04,43,141,32,11,40,320,39,1*7C
$GAGSV,2,2,07,24,38,223,40,19,31,065,26,33,08,080,22,1*45
$GBGSV,4,1,14,33,76,089,45,40,74,180,42,07,71,223,40,10,69,261,39,1*78
$GBGSV,4,2,14,08,54,291,37,28,51,342,42,14,51,050,29,43,48,087,39,1*7E
$GBGSV,4,3,14,13,47,276,38,41,42,202,44,42,25,041,,11,24,102,38,1*74
$GBGSV,4,4,14,37,09,255,,56,,,37,1*4B
$GBGSV,2,1,05,33,76,089,45,40,74,180,44,28,51,342,37,43,48,087,36,4*74
$GBGSV,2,2,05,41,42,202,44,4*45
$GNGGA,043323.000,2500.7795360,N,12132.4540334,E,4,52,0.52,15.916,M,15.25,M,1,3335*40
$GNRMC,043323.000,A,2500.7795360,N,12132.4540334,E,0.07,148.55,270623,,,R,V*18
$PAIR010,0,1,2268,189221*35
$GPHDT,,T*1B
$GNGGA,043323.200,2500.7795358,N,12132.4540313,E,4,51,0.52,15.914,M,15.25,M,1,3335*4D
$GNRMC,043323.200,A,2500.7795358,N,12132.4540313,E,0.06,148.55,270623,,,R,V*15
$GPHDT,,T*1B
$GNGGA,043323.400,2500.7795331,N,12132.4540317,E,4,51,0.52,15.914,M,15.25,M,1,3335*40
$GNRMC,043323.400,A,2500.7795331,N,12132.4540317,E,0.05,148.55,270623,,,R,V*1B
$GPHDT,,T*1B
$GNGGA,043323.600,2500.7795310,N,12132.4540339,E,4,51,0.52,15.908,M,15.25,M,0,3335*41
$GNRMC,043323.600,A,2500.7795310,N,12132.4540339,E,0.02,148.55,270623,,,R,V*11
$GPHDT,,T*1B
$GNGGA,043323.800,2500.7795314,N,12132.4540322,E,4,51,0.52,15.908,M,15.25,M,0,3335*41
$GNRMC,043323.800,A,2500.7795314,N,12132.4540322,E,0.04,148.55,270623,,,R,V*17
$GPHDT,,T*1B
$GNGSA,A,3,19,196,195,199,17,20,09,11,194,12,06,04,1.10,0.52,0.97,1*02
$GNGSA,A,3,68,69,82,67,,,,,,,,,1.10,0.52,0.97,2*01
$GNGSA,A,3,10,12,04,11,24,19,25,,,,,,1.10,0.52,0.97,3*05
$GNGSA,A,3,33,40,07,10,08,28,14,43,13,41,11,,1.10,0.52,0.97,4*08
$GPGSV,4,1,15,19,71,089,42,196,70,116,43,195,69,052,38,199,60,167,35,1*5B
$GPGSV,4,2,15,50,60,167,38,17,53,118,42,06,49,012,18,20,44,251,43,1*62
$GPGSV,4,3,15,09,37,078,40,11,36,308,30,194,32,174,30,12,24,301,15,1*53
$GPGSV,4,4,15,05,19,233,26,04,16,052,15,14,07,170,,1*5F
$GPGSV,2,1,08,196,70,116,48,195,69,052,43,199,60,167,45,06,49,012,29,8*52
$GPGSV,2,2,08,09,37,078,40,11,36,308,33,194,32,174,35,04,16,052,22,8*50
$GLGSV,3,1,09,68,70,104,40,83,42,010,15,69,35,185,17,82,34,069,32,1*73
$GLGSV,3,2,09,67,31,036,23,73,16,264,,74,08,307,,84,08,313,,1*7E
$GLGSV,3,3,09,80,07,213,,1*4E
$GAGSV,3,1,09,10,50,359,23,12,44,038,19,04,43,141,29,11,40,320,38,7*70
$GAGSV,3,2,09,24,38,223,39,19,31,065,20,25,29,289,24,09,12,188,,7*76
$GAGSV,3,3,09,33,08,080,17,7*4C
$GAGSV,2,1,07,10,50,359,28,12,44,038,34,04,43,141,37,11,40,320,39,1*73
$GAGSV,2,2,07,24,38,223,40,19,31,065,25,33,08,080,24,1*40
$GBGSV,4,1,14,33,76,089,45,40,74,180,41,07,71,223,40,10,69,261,38,1*7A
$GBGSV,4,2,14,08,54,291,37,28,51,342,42,14,51,050,27,43,48,087,39,1*70
$GBGSV,4,3,14,13,47,276,38,41,42,202,44,42,25,041,,11,24,102,39,1*75
$GBGSV,4,4,14,23,07,206,,56,,,35,1*44
$GBGSV,2,1,05,33,76,089,45,40,74,180,44,28,51,342,36,43,48,087,35,4*76
$GBGSV,2,2,05,41,42,202,44,4*45
$GNGGA,043324.000,2500.7795320,N,12132.4540286,E,4,51,0.52,15.900,M,15.25,M,1,3335*4F
$GNRMC,043324.000,A,2500.7795320,N,12132.4540286,E,0.04,148.55,270623,,,R,V*10
$GPHDT,,T*1B
$GNGGA,043324.200,2500.7795318,N,12132.4540303,E,4,51,0.52,15.907,M,15.25,M,1,3335*4D
$GNRMC,043324.200,A,2500.7795318,N,12132.4540303,E,0.03,148.55,270623,,,R,V*12
$GPHDT,,T*1B
$GNGGA,043324.400,2500.7795310,N,12132.4540267,E,4,52,0.52,15.900,M,15.25,M,1,3335*44
$GNRMC,043324.400,A,2500.7795310,N,12132.4540267,E,0.03,148.55,270623,,,R,V*1F
$GPHDT,,T*1B
$GNGGA,043324.600,2500.7795308,N,12132.4540313,E,4,52,0.52,15.903,M,15.25,M,1,3335*4E
$GNRMC,043324.600,A,2500.7795308,N,12132.4540313,E,0.07,148.55,270623,,,R,V*12
$GPHDT,,T*1B
$GNGGA,043324.800,2500.7795301,N,12132.4540320,E,4,52,0.52,15.921,M,15.25,M,1,3335*49
$GNRMC,043324.800,A,2500.7795301,N,12132.4540320,E,0.06,148.55,270623,,,R,V*14
$GPHDT,,T*1B
$GNGSA,A,3,19,196,195,199,17,06,20,09,11,194,12,04,1.10,0.52,0.97,1*02
$GNGSA,A,3,68,69,82,67,,,,,,,,,1.10,0.52,0.97,2*01
$GNGSA,A,3,10,04,12,11,24,19,25,,,,,,1.10,0.52,0.97,3*05
$GNGSA,A,3,33,40,07,10,08,28,14,43,13,41,11,,1.10,0.52,0.97,4*08
$GPGSV,4,1,15,19,71,089,42,196,70,116,43,195,69,052,39,199,60,167,33,1*5C
$GPGSV,4,2,15,50,60,167,35,17,53,118,42,06,49,012,23,20,44,251,44,1*60
$GPGSV,4,3,15,09,37,078,40,11,36,308,29,194,32,174,30,12,24,301,17,1*59
$GPGSV,4,4,15,05,19,233,25,04,16,052,16,14,07,170,,1*5F
$GPGSV,2,1,08,196,70,116,48,195,69,052,43,199,60,167,46,06,49,012,29,8*51
$GPGSV,2,2,08,09,37,078,39,11,36,308,34,194,32,174,34,04,16,052,24,8*5E
$GLGSV,3,1,09,68,70,104,40,83,42,010,13,69,35,185,18,82,34,069,33,1*7B
$GLGSV,3,2,09,67,31,036,21,73,16,264,,74,08,307,,84,08,313,,1*7C
$GLGSV,3,3,09,80,07,213,,1*4E
$GAGSV,3,1,10,10,50,359,23,04,44,141,29,12,44,038,19,11,40,320,38,7*7F
$GAGSV,3,2,10,24,38,223,39,19,31,065,17,25,29,289,24,09,12,188,,7*7A
$GAGSV,3,3,10,33,08,080,19,36,05,285,,7*75
$GAGSV,2,1,07,10,50,359,27,04,44,141,38,12,44,038,34,11,40,320,39,1*74
$GAGSV,2,2,07,24,38,223,40,19,31,065,22,33,08,080,26,1*45
$GBGSV,4,1,14,33,76,089,45,40,74,180,40,07,71,223,40,10,69,261,38,1*7B
$GBGSV,4,2,14,08,54,291,37,28,51,342,42,14,51,050,25,43,48,087,39,1*72
$GBGSV,4,3,14,13,47,276,39,41,42,202,44,42,25,041,,11,24,102,39,1*74
$GBGSV,4,4,14,37,09,255,,56,,,35,1*49
$GBGSV,2,1,05,33,76,089,45,40,74,180,44,28,51,342,36,43,48,087,37,4*74
$GBGSV,2,2,05,41,42,202,44,4*45
$GNGGA,043325.000,2500.7795329,N,12132.4540289,E,4,52,0.52,15.914,M,15.25,M,1,3335*4E
$GNRMC,043325.000,A,2500.7795329,N,12132.4540289,E,0.01,148.55,270623,,,R,V*12
$GPHDT,,T*1B
$GNGGA,043325.200,2500.7795315,N,12132.4540335,E,4,52,0.52,15.929,M,15.25,M,1,3335*4B
$GNRMC,043325.200,A,2500.7795315,N,12132.4540335,E,0.06,148.55,270623,,,R,V*1E
$GPHDT,,T*1B
$GNGGA,043325.400,2500.7795311,N,12132.4540299,E,4,52,0.52,15.909,M,15.25,M,1,3335*4C
$GNRMC,043325.400,A,2500.7795311,N,12132.4540299,E,0.02,148.55,270623,,,R,V*1F
$GPHDT,,T*1B
$GNGGA,043325.600,2500.7795318,N,12132.4540312,E,4,53,0.51,15.914,M,15.25,M,1,3335*4B
$GNRMC,043325.600,A,2500.7795318,N,12132.4540312,E,0.06,148.55,270623,,,R,V*12
$GPHDT,,T*1B
$GNGGA,043325.800,2500.7795345,N,12132.4540303,E,4,53,0.51,15.902,M,15.25,M,0,3335*4B
$GNRMC,043325.800,A,2500.7795345,N,12132.4540303,E,0.06,148.55,270623,,,R,V*14
$GPHDT,,T*1B
$GNGSA,A,3,19,196,195,199,17,06,20,09,11,194,12,04,1.10,0.51,0.97,1*01
$GNGSA,A,3,68,83,69,82,67,,,,,,,,1.10,0.51,0.97,2*09
$GNGSA,A,3,10,04,12,11,24,19,25,,,,,,1.10,0.51,0.97,3*06
$GNGSA,A,3,33,40,07,10,08,14,28,43,13,41,11,,1.10,0.51,0.97,4*0B
$GPGSV,4,1,15,19,71,089,42,196,70,116,43,195,6