$FW : RTK35X,V1.1X0314AS,Lib20210517,1*54
$Tool : LOCOSYS , GNSS Firebird , v1.0.0.19*39
$---------------------------------------------------*2D
$GNGSA,A,3,19,196,195,199,17,06,20,09,11,12,05,04,1.01,0.49,0.88,1*3F
$GNGSA,A,3,194,,,,,,,,,,,,1.01,0.49,0.88,1*30
$GNGSA,A,3,68,69,82,67,,,,,,,,,1.01,0.49,0.88,2*05
$GNGSA,A,3,10,04,12,11,24,19,25,,,,,,1.01,0.49,0.88,3*01
$GNGSA,A,3,33,40,07,10,08,28,14,43,13,41,42,11,1.01,0.49,0.88,4*0A
$GPGSV,4,1,15,19,70,092,44,196,70,116,43,195,69,052,41,199,60,167,26,1*5A
$GPGSV,4,2,15,50,60,167,28,17,53,120,43,06,49,014,30,20,45,252,43,1*67
$GPGSV,4,3,15,09,37,077,41,11,36,309,30,194,32,174,20,12,25,300,18,1*50
$GPGSV,4,4,15,05,20,234,22,04,16,051,20,14,06,170,,1*52
$GPGSV,2,1,07,196,70,116,47,195,69,052,45,199,60,167,36,06,49,014,23,8*5C
$GPGSV,2,2,07,09,37,077,38,11,36,309,33,194,32,174,37,8*68
$GLGSV,3,1,09,68,71,100,38,83,42,012,,69,36,185,16,82,34,071,34,1*72
$GLGSV,3,2,09,67,30,035,26,73,15,263,,74,08,306,,84,08,314,,1*7B
$GLGSV,3,3,09,80,06,212,,1*4E
$GAGSV,3,1,09,10,50,001,23,04,44,141,32,12,44,039,21,11,40,321,37,7*77
$GAGSV,3,2,09,24,37,222,36,19,31,064,27,25,29,288,24,09,13,187,,7*7E
$GAGSV,3,3,09,33,08,081,23,7*4A
$GAGSV,2,1,08,10,50,001,25,12,44,039,26,04,44,141,40,11,40,321,39,1*7B
$GAGSV,2,2,08,24,37,222,39,19,31,064,26,25,29,288,23,33,08,081,26,1*71
$GBGSV,4,1,15,33,76,085,42,40,74,181,39,07,71,222,39,10,69,259,33,1*71
$GBGSV,4,2,15,08,54,292,36,28,51,343,43,14,50,048,22,43,48,089,39,1*70
$GBGSV,4,3,15,13,47,277,39,41,43,202,42,42,25,040,33,11,24,103,42,1*7F
$GBGSV,4,4,15,37,09,254,,34,07,115,,23,07,205,,1*48
$GBGSV,2,1,06,33,76,085,48,40,74,181,44,28,51,343,40,43,48,089,40,4*79
$GBGSV,2,2,06,41,43,202,38,42,25,040,21,4*7A
$GNGGA,043550.000,2500.7791643,N,12132.4545316,E,4,55,0.49,10.632,M,15.25,M,1,3335*46
$GNRMC,043550.000,A,2500.7791643,N,12132.4545316,E,0.01,148.55,270623,,,R,V*19
$GPHDT,,T*1B
$GNGGA,043550.200,2500.7791639,N,12132.4545325,E,4,55,0.49,10.638,M,15.25,M,1,3335*43
$GNRMC,043550.200,A,2500.7791639,N,12132.4545325,E,0.02,148.55,270623,,,R,V*15
$GPHDT,,T*1B
$GNGGA,043550.400,2500.7791621,N,12132.4545313,E,4,55,0.49,10.623,M,15.25,M,1,3335*43
$GNRMC,043550.400,A,2500.7791621,N,12132.4545313,E,0.01,148.55,270623,,,R,V*1C
$GPHDT,,T*1B
$GNGGA,043550.600,2500.7791642,N,12132.4545316,E,4,55,0.49,10.620,M,15.25,M,0,3335*43
$GNRMC,043550.600,A,2500.7791642,N,12132.4545316,E,0.01,148.55,270623,,,R,V*1E
$GPHDT,,T*1B
$GNGGA,043550.800,2500.7791648,N,12132.4545309,E,4,55,0.49,10.622,M,15.25,M,0,3335*4B
$GNRMC,043550.800,A,2500.7791648,N,12132.4545309,E,0.00,148.55,270623,,,R,V*15
$GPHDT,,T*1B
$GNGSA,A,3,19,196,195,199,17,06,20,09,11,12,05,04,1.01,0.49,0.88,1*3F
$GNGSA,A,3,194,,,,,,,,,,,,1.01,0.49,0.88,1*30
$GNGSA,A,3,68,69,82,67,,,,,,,,,1.01,0.49,0.88,2*05
$GNGSA,A,3,10,04,12,11,24,19,25,,,,,,1.01,0.49,0.88,3*01
$GNGSA,A,3,33,40,07,10,08,28,14,43,13,41,42,11,1.01,0.49,0.88,4*0A
$GPGSV,4,1,15,19,70,092,44,196,70,116,43,195,69,052,41,199,60,167,27,1*5B
$GPGSV,4,2,15,50,60,167,28,17,53,120,43,06,49,014,30,20,45,252,43,1*67
$GPGSV,4,3,15,09,37,077,41,11,36,309,30,194,32,174,20,12,25,300,21,1*5A
$GPGSV,4,4,15,05,20,234,22,04,16,051,20,14,06,170,,1*52
$GPGSV,2,1,07,196,70,116,47,195,69,052,45,199,60,167,36,06,49,014,23,8*5C
$GPGSV,2,2,07,09,37,077,38,11,36,309,33,194,32,174,37,8*68
$GLGSV,2,1,08,68,71,100,39,83,42,012,,69,36,185,14,82,34,071,34,1*71
$GLGSV,2,2,08,67,30,035,27,73,15,263,,84,08,314,,74,08,306,,1*7A
$GAGSV,3,1,09,10,50,001,23,04,44,141,32,12,44,039,20,11,40,321,37,7*76
$GAGSV,3,2,09,24,37,222,36,19,31,064,27,25,29,288,24,09,13,187,,7*7E
$GAGSV,3,3,09,33,08,081,23,7*4A
$GAGSV,2,1,08,10,50,001,25,12,44,039,27,04,44,141,40,11,40,321,39,1*7A
$GAGSV,2,2,08,24,37,222,39,19,31,064,26,25,29,288,23,33,08,081,27,1*70
$GBGSV,4,1,15,33,76,085,43,40,74,181,39,07,71,222,39,10,69,259,33,1*70
$GBGSV,4,2,15,08,54,292,36,28,52,343,42,14,50,048,22,43,48,089,39,1*72
$GBGSV,4,3,15,13,47,277,39,41,43,202,42,42,25,040,33,11,24,103,42,1*7F
$GBGSV,4,4,15,37,09,254,,34,07,115,,23,07,205,,1*48
$GBGSV,2,1,06,33,76,085,48,40,74,181,44,28,52,343,40,43,48,089,40,4*7A
$GBGSV,2,2,06,41,43,202,38,42,25,040,22,4*79
$GNGGA,043551.000,2500.7791644,N,12132.4545326,E,4,55,0.49,10.639,M,15.25,M,1,3335*48
$GNRMC,043551.000,A,2500.7791644,N,12132.4545326,E,0.01,148.55,270623,,,R,V*1C
$GPHDT,,T*1B
$GNGGA,043551.200,2500.7791653,N,12132.4545337,E,4,54,0.51,10.644,M,15.25,M,1,3335*4E
$GNRMC,043551.200,A,2500.7791653,N,12132.4545337,E,0.01,148.55,270623,,,R,V*18
$GPHDT,,T*1B
$GNGGA,043551.400,2500.7791629,N,12132.4545333,E,4,54,0.51,10.647,M,15.25,M,1,3335*42
$GNRMC,043551.400,A,2500.7791629,N,12132.4545333,E,0.02,148.55,270623,,,R,V*14
$GPHDT,,T*1B
$GNGGA,043551.600,2500.7791644,N,12132.4545318,E,4,54,0.51,10.611,M,15.25,M,0,3335*40
$GNRMC,043551.600,A,2500.7791644,N,12132.4545318,E,0.02,148.55,270623,,,R,V*14
$GPHDT,,T*1B
$GNGGA,043551.800,2500.7791635,N,12132.4545329,E,4,54,0.51,10.635,M,15.25,M,0,3335*4C
$GNRMC,043551.800,A,2500.7791635,N,12132.4545329,E,0.02,148.55,270623,,,R,V*1E
$GPHDT,,T*1B
$GNGSA,A,3,19,196,195,199,17,06,20,09,11,12,05,04,1.03,0.51,0.89,1*35
$GNGSA,A,3,194,,,,,,,,,,,,1.03,0.51,0.89,1*3A
$GNGSA,A,3,68,82,67,,,,,,,,,,1.03,0.51,0.89,2*00
$GNGSA,A,3,10,12,04,11,24,19,25,,,,,,1.03,0.51,0.89,3*0B
$GNGSA,A,3,33,40,07,10,08,28,14,43,13,41,42,11,1.03,0.51,0.89,4*00
$GPGSV,4,1,15,19,70,092,44,196,70,116,43,195,69,052,41,199,60,167,27,1*5B
$GPGSV,4,2,15,50,60,167,29,17,53,120,44,06,49,014,29,20,45,252,43,1*69
$GPGSV,4,3,15,09,37,077,41,11,36,309,30,194,32,174,17,12,25,300,20,1*5F
$GPGSV,4,4,15,05,20,234,21,04,16,051,18,14,06,170,,1*5A
$GPGSV,2,1,07,196,70,116,47,195,69,052,45,199,60,167,36,06,49,014,24,8*5B
$GPGSV,2,2,07,09,37,077,38,11,36,309,33,194,32,174,37,8*68
$GLGSV,2,1,07,68,71,100,39,83,42,012,,69,36,185,13,82,34,071,34,1*79
$GLGSV,2,2,07,67,30,035,27,73,15,263,,74,08,306,,1*47
$GAGSV,3,1,09,10,50,001,21,12,44,039,19,04,44,141,31,11,40,321,37,7*7D
$GAGSV,3,2,09,24,37,222,36,19,31,064,27,25,29,288,23,09,13,187,,7*79
$GAGSV,3,3,09,33,08,081,23,7*4A
$GAGSV,2,1,08,10,50,001,25,12,44,039,27,04,44,141,40,11,40,321,39,1*7A
$GAGSV,2,2,08,24,37,222,39,19,31,064,26,25,29,288,23,33,08,081,27,1*70
$GBGSV,4,1,15,33,76,084,43,40,74,181,39,07,71,222,39,10,69,259,33,1*71
$GBGSV,4,2,15,08,54,292,36,28,52,343,42,14,50,048,21,43,48,089,39,1*71
$GBGSV,4,3,15,13,47,277,40,41,43,202,42,42,25,040,33,11,24,103,42,1*71
$GBGSV,4,4,15,37,09,254,,23,07,205,,34,07,115,,1*48
$GBGSV,2,1,06,33,76,084,48,40,74,181,44,28,52,343,40,43,48,089,41,4*7A
$GBGSV,2,2,06,41,43,202,38,42,25,040,21,4*7A
$GNGGA,043552.000,2500.7791599,N,12132.4545326,E,4,54,0.51,10.630,M,15.25,M,1,3335*49
$GNRMC,043552.000,A,2500.7791599,N,12132.4545326,E,0.02,148.55,270623,,,R,V*1F
$GPHDT,,T*1B
$GNGGA,043552.200,2500.7791644,N,12132.4545333,E,4,54,0.51,10.635,M,15.25,M,1,3335*49
$GNRMC,043552.200,A,2500.7791644,N,12132.4545333,E,0.02,148.55,270623,,,R,V*1A
$GPHDT,,T*1B
$GNGGA,043552.400,2500.7791615,N,12132.4545321,E,4,54,0.51,10.632,M,15.25,M,1,3335*4F
$GNRMC,043552.400,A,2500.7791615,N,12132.4545321,E,0.00,148.55,270623,,,R,V*19
$GPHDT,,T*1B
$GNGGA,043552.600,2500.7791604,N,12132.4545338,E,4,54,0.51,10.641,M,15.25,M,0,3335*40
$GNRMC,043552.600,A,2500.7791604,N,12132.4545338,E,0.00,148.55,270623,,,R,V*13
$GPHDT,,T*1B
$GNGGA,043552.800,2500.7791586,N,12132.4545326,E,4,54,0.51,10.626,M,15.25,M,0,3335*49
$GNRMC,043552.800,A,2500.7791586,N,12132.4545326,E,0.00,148.55,270623,,,R,V*1B
$GPHDT,,T*1B
$GNGSA,A,3,19,196,195,199,17,06,20,09,11,12,05,04,1.03,0.51,0.89,1*35
$GNGSA,A,3,194,,,,,,,,,,,,1.03,0.51,0.89,1*3A
$GNGSA,A,3,68,82,67,,,,,,,,,,1.03,0.51,0.89,2*00
$GNGSA,A,3,10,12,04,11,24,19,25,,,,,,1.03,0.51,0.89,3*0B
$GNGSA,A,3,33,40,07,10,08,28,14,43,13,41,42,11,1.03,0.51,0.89,4*00
$GPGSV,4,1,15,19,70,092,44,196,70,116,43,195,69,052,41,199,60,167,26,1*5A
$GPGSV,4,2,15,50,60,167,28,17,53,120,44,06,49,014,29,20,45,252,43,1*68
$GPGSV,4,3,15,09,37,077,42,11,36,309,30,194,32,174,16,12,25,300,22,1*5F
$GPGSV,4,4,15,05,20,234,21,04,16,051,20,14,06,170,,1*51
$GPGSV,2,1,07,196,70,116,47,195,69,052,45,199,60,167,35,06,49,014,23,8*5F
$GPGSV,2,2,07,09,37,077,39,11,36,309,33,194,32,174,37,8*69
$GLGSV,2,1,07,68,71,100,40,83,42,012,,69,36,185,13,82,34,071,34,1*77
$GLGSV,2,2,07,67,30,035,26,73,15,263,,74,08,306,,1*46
$GAGSV,3,1,10,10,50,001,19,12,44,039,20,04,44,141,31,11,40,321,36,7*75
$GAGSV,3,2,10,24,37,222,36,19,31,064,28,25,29,288,21,09,13,187,,7*7C
$GAGSV,3,3,10,33,08,081,22,36,05,286,,7*7F
$GAGSV,2,1,08,10,50,001,23,12,44,039,25,04,44,141,40,11,40,321,39,1*7E
$GAGSV,2,2,08,24,37,222,39,19,31,064,27,25,29,288,24,33,08,081,27,1*76
$GBGSV,4,1,15,33,76,084,42,40,73,181,39,07,71,222,39,10,69,259,33,1*77
$GBGSV,4,2,15,08,54,292,36,28,52,343,42,14,50,048,22,43,48,089,39,1*72
$GBGSV,4,3,15,13,47,277,40,41,43,202,42,42,25,040,33,11,24,103,42,1*71
$GBGSV,4,4,15,37,09,254,,34,07,115,,23,07,205,,1*48
$GBGSV,2,1,06,33,76,084,48,40,73,181,44,28,52,343,41,43,48,089,40,4*7D
$GBGSV,2,2,06,41,43,202,38,42,25,040,20,4*7B
$GNGGA,043553.000,2500.7791565,N,12132.4545347,E,4,54,0.51,10.635,M,15.25,M,1,3335*49
$GNRMC,043553.000,A,2500.7791565,N,12132.4545347,E,0.00,148.55,270623,,,R,V*18
$GPHDT,,T*1B
$GNGGA,043553.200,2500.7791572,N,12132.4545332,E,4,53,0.52,10.635,M,15.25,M,1,3335*4B
$GNRMC,043553.200,A,2500.7791572,N,12132.4545332,E,0.00,148.55,270623,,,R,V*1E
$GPHDT,,T*1B
$GNGGA,043553.400,2500.7791601,N,12132.4545363,E,4,53,0.52,10.636,M,15.25,M,1,3335*4D
$GNRMC,043553.400,A,2500.7791601,N,12132.4545363,E,0.01,148.55,270623,,,R,V*1A
$GPHDT,,T*1B
$GNGGA,043553.600,2500.7791602,N,12132.4545330,E,4,53,0.52,10.625,M,15.25,M,0,3335*49
$GNRMC,043553.600,A,2500.7791602,N,12132.4545330,E,0.00,148.55,270623,,,R,V*1C
$GPHDT,,T*1B
$GNGGA,043553.800,2500.7791627,N,12132.4545327,E,4,53,0.52,10.624,M,15.25,M,0,3335*47
$GNRMC,043553.800,A,2500.7791627,N,12132.4545327,E,0.10,148.55,270623,,,R,V*12
$GPHDT,,T*1B
$GNGSA,A,3,19,196,195,199,17,06,20,09,11,12,05,194,1.08,0.52,0.95,1*08
$GNGSA,A,3,68,82,67,,,,,,,,,,1.08,0.52,0.95,2*05
$GNGSA,A,3,10,04,12,11,24,19,25,,,,,,1.08,0.52,0.95,3*0E
$GNGSA,A,3,33,40,07,10,08,28,14,43,13,41,42,11,1.08,0.52,0.95,4*05
$GPGSV,4,1,15,19,70,092,44,196,70,116,43,195,69,052,41,199,60,167,26,1*5A
$GPGSV,4,2,15,50,60,167,28,17,53,120,44,06,49,014,27,20,45,252,43,1*66
$GPGSV,4,3,15,09,37,077,42,11,36,309,30,194,32,174,16,12,25,300,23,1*5E
$GPGSV,4,4,15,05,20,234,22,04,16,051,20,14,06,170,,1*52
$GPGSV,2,1,07,196,70,116,47,195,69,052,45,199,60,167,35,06,49,014,22,8*5E
$GPGSV,2,2,07,09,37,077,39,11,36,309,34,194,32,174,37,8*6E
$GLGSV,2,1,07,68,71,100,40,83,42,012,,69,36,185,14,82,34,071,34,1*70
$GLGSV,2,2,07,67,30,035,23,74,08,306,,80,06,212,,1*4B
$GAGSV,3,1,09,10,50,001,20,04,44,141,31,12,44,039,20,11,40,321,36,7*77
$GAGSV,3,2,09,24,37,222,36,19,31,064,28,25,29,288,20,33,08,081,22,7*71
$GAGSV,3,3,09,36,05,286,,7*46
$GAGSV,2,1,08,10,50,001,21,12,44,039,25,04,44,141,40,11,40,321,39,1*7C
$GAGSV,2,2,08,24,37,222,39,19,31,064,27,25,29,288,25,33,08,081,27,1*77
$GBGSV,4,1,14,33,76,084,42,40,73,181,39,07,71,222,39,10,69,259,32,1*77
$GBGSV,4,2,14,08,54,292,36,28,52,343,42,14,50,048,23,43,48,089,39,1*72
$GBGSV,4,3,14,13,47,277,40,41,43,202,42,42,24,040,33,11,24,103,42,1*71
$GBGSV,4,4,14,37,09,254,,23,07,205,,1*7C
$GBGSV,2,1,06,33,76,084,48,40,73,181,44,28,52,343,41,43,48,089,40,4*7D
$GBGSV,2,2,06,41,43,202,38,42,24,040,20,4*7A
$GNGGA,043554.000,2500.7791616,N,12132.4545301,E,4,53,0.52,10.621,M,15.25,M,1,3335*4A
$GNRMC,043554.000,A,2500.7791616,N,12132.4545301,E,0.07,148.55,270623,,,R,V*1D
$GPHDT,,T*1B
$GNGGA,043554.200,2500.7791451,N,12132.4545298,E,4,53,0.52,10.582,M,15.25,M,1,3335*42
$GNRMC,043554.200,A,2500.7791451,N,12132.4545298,E,0.01,148.55,270623,,,R,V*19
$GPHDT,,T*1B
$GNGGA,043554.400,2500.7791465,N,12132.4545307,E,4,53,0.52,10.589,M,15.25,M,1,3335*4F
$GNRMC,043554.400,A,2500.7791465,N,12132.4545307,E,0.02,148.55,270623,,,R,V*1C
$GPHDT,,T*1B
$GNGGA,043554.600,2500.7791459,N,12132.4545276,E,4,53,0.52,10.583,M,15.25,M,1,3335*4F
$GNRMC,043554.600,A,2500.7791459,N,12132.4545276,E,0.00,148.55,270623,,,R,V*14
$GPHDT,,T*1B
$GNGGA,043554.800,2500.7791442,N,12132.4545304,E,4,53,0.52,10.615,M,15.25,M,0,3335*42
$GNRMC,043554.800,A,2500.7791442,N,12132.4545304,E,0.02,148.55,270623,,,R,V*16
$GPHDT,,T*1B
$GNGSA,A,3,196,19,195,199,17,06,20,09,11,12,05,194,1.08,0.52,0.95,1*08
$GNGSA,A,3,68,82,67,,,,,,,,,,1.08,0.52,0.95,2*05
$GNGSA,A,3,10,04,12,11,24,19,25,,,,,,1.08,0.52,0.95,3*0E
$GNGSA,A,3,33,40,07,10,08,28,14,43,13,41,42,11,1.08,0.52,0.95,4*05
$GPGSV,4,1,15,196,70,116,43,19,70,092,44,195,69,052,41,199,60,167,25,1*59
$GPGSV,4,2,15,50,60,167,28,17,53,120,44,06,49,014,25,20,45,252,43,1*64
$GPGSV,4,3,15,09,37,077,42,11,36,309,30,194,32,174,20,12,25,300,23,1*5B
$GPGSV,4,4,15,05,20,234,22,04,16,051,19,14,06,170,,1*58
$GPGSV,2,1,07,196,70,116,47,195,69,052,45,199,60,167,35,06,49,014,22,8*5E
$GPGSV,2,2,07,09,37,077,39,11,36,309,34,194,32,174,37,8*6E
$GLGSV,2,1,06,68,71,100,40,83,42,012,,69,36,185,14,82,34,071,35,1*70
$GLGSV,2,2,06,67,30,035,23,80,06,212,,1*74
$GAGSV,3,1,09,10,50,001,20,04,44,141,31,12,44,039,19,11,40,321,36,7*7D
$GAGSV,3,2,09,24,37,222,35,19,31,064,28,25,29,288,19,33,08,081,22,7*78
$GAGSV,3,3,09,36,05,286,,7*46
$GAGSV,2,1,08,10,50,001,22,12,44,039,26,04,44,141,40,11,40,321,38,1*7D
$GAGSV,2,2,08,24,37,222,39,19,31,064,27,25,29,288,25,33,08,081,27,1*77
$GBGSV,4,1,14,33,76,084,42,40,73,181,38,07,71,222,39,10,69,259,32,1*76
$GBGSV,4,2,14,08,54,292,36,28,52,343,42,14,50,048,22,43,48,089,39,1*73
$GBGSV,4,3,14,13,47,277,40,41,43,202,42,42,24,040,33,11,24,103,42,1*71
$GBGSV,4,4,14,37,09,254,,23,07,205,,1*7C
$GBGSV,2,1,06,33,76,084,48,40,73,181,44,28,52,343,41,43,48,089,40,4*7D
$GBGSV,2,2,06,41,43,202,39,42,24,040,21,4*7A
$GNGGA,043555.000,2500.7791457,N,12132.4545294,E,4,53,0.52,10.608,M,15.25,M,1,3335*4A
$GNRMC,043555.000,A,2500.7791457,N,12132.4545294,E,0.01,148.55,270623,,,R,V*10
$GPHDT,,T*1B
$GNGGA,043555.200,2500.7791473,N,12132.4545289,E,4,54,0.52,10.602,M,15.25,M,1,3335*4F
$GNRMC,043555.200,A,2500.7791473,N,12132.4545289,E,0.01,148.55,270623,,,R,V*18
$GPHDT,,T*1B
$GNGGA,043555.400,2500.7791468,N,12132.4545310,E,4,54,0.52,10.612,M,15.25,M,1,3335*43
$GNRMC,043555.400,A,2500.7791468,N,12132.4545310,E,0.00,148.55,270623,,,R,V*14
$GPHDT,,T*1B
$GNGGA,043555.600,2500.7791477,N,12132.4545306,E,4,53,0.52,10.579,M,15.25,M,0,3335*40
$GNRMC,043555.600,A,2500.7791477,N,12132.4545306,E,0.00,148.55,270623,,,R,V*1F
$GPHDT,,T*1B
$GNGGA,043555.800,2500.7791451,N,12132.4545310,E,4,53,0.52,10.588,M,15.25,M,0,3335*43
$GNRMC,043555.800,A,2500.7791451,N,12132.4545310,E,0.00,148.55,270623,,,R,V*12
$GPHDT,,T*1B
$GNGSA,A,3,196,19,195,199,17,06,20,09,11,12,05,04,1.03,0.51,0.89,1*35
$GNGSA,A,3,194,,,,,,,,,,,,1.03,0.51,0.89,1*3A
$GNGSA,A,3,68,82,67,,,,,,,,,,1.03,0.51,0.89,2*00
$GNGSA,A,3,10,04,12,11,24,19,25,,,,,,1.03,0.51,0.89,3*0B
$GNGSA,A,3,33,40,07,10,08,28,14,43,13,41,42,11,1.03,0.51,0.89,4*00
$GPGSV,4,1,15,196,70,116,43,19,70,092,44,195,69,052,41,199,60,167,26,1*5A
$GPGSV,4,2,15,50,60,167,28,17,53,120,44,06,49,014,23,20,45,252,43,1*62
$GPGSV,4,3,15,09,37,077,42,11,36,309,30,194,32,174,22,12,25,300,23,1*59
$GPGSV,4,4,15,05,20,234,22,04,16,051,19,14,06,170,,1*58
$GPGSV,2,1,07,196,70,116,47,195,69,052,45,199,60,167,36,06,49,014,22,8*5D
$GPGSV,2,2,07,09,37,077,39,11,36,309,33,194,32,174,36,8*68
$GLGSV,2,1,06,68,71,100,39,83,42,012,,69,36,185,14,82,34,071,35,1*7E
$GLGSV,2,2,06,67,30,035,23,80,06,212,,1*74
$GAGSV,3,1,09,10,50,001,19,04,44,141,31,12,44,039,18,11,40,321,36,7*76
$GAGSV,3,2,09,24,37,222,35,19,31,064,28,25,29,288,19,33,08,081,21,7*7B
$GAGSV,3,3,09,36,05,286,,7*46
$GAGSV,2,1,08,10,50,001,21,12,44,039,25,04,44,141,40,11,40,321,38,1*7D
$GAGSV,2,2,08,24,37,222,39,19,31,064,26,25,29,288,25,33,08,081,27,1*76
$GBGSV,4,1,14,33,76,084,42,40,73,181,38,07,71,222,39,10,69,259,33,1*77
$GBGSV,4,2,14,08,54,292,36,28,52,343,42,14,50,048,23,43,48,089,39,1*72
$GBGSV,4,3,14,13,47,277,40,41,43,202,42,42,24,040,32,11,24,103,42,1*70
$GBGSV,4,4,14,37,09,254,,23,07,205,,1*7C
$GBGSV,2,1,06,33,76,084,47,40,73,181,44,28,52,343,41,43,48,089,39,4*7C
$GBGSV,2,2,06,41,43,202,39,42,24,040,21,4*7A
$GNGGA,043556.000,2500.7791444,N,12132.4545342,E,4,54,0.51,10.606,M,15.25,M,1,3335*4B
$GNRMC,043556.000,A,2500.7791444,N,12132.4545342,E,0.00,148.55,270623,,,R,V*1A
$GPHDT,,T*1B
$GNGGA,043556.200,2500.7791459,N,12132.4545320,E,4,54,0.51,10.588,M,15.25,M,1,3335*44
$GNRMC,043556.200,A,2500.7791459,N,12132.4545320,E,0.00,148.55,270623,,,R,V*10
$GPHDT,,T*1B
$GNGGA,043556.400,2500.7791444,N,12132.4545314,E,4,54,0.51,10.612,M,15.25,M,0,3335*48
$GNRMC,043556.400,A,2500.7791444,N,12132.4545314,E,0.01,148.55,270623,,,R,V*1C
$GPHDT,,T*1B
$GNGGA,043556.600,2500.7791448,N,12132.4545305,E,4,53,0.52,10.605,M,15.25,M,0,3335*44
$GNRMC,043556.600,A,2500.7791448,N,12132.4545305,E,0.00,148.55,270623,,,R,V*13
$GPHDT,,T*1B
$GNGGA,043556.800,2500.7791452,N,12132.4545268,E,4,53,0.52,10.586,M,15.25,M,0,3335*43
$GNRMC,043556.800,A,2500.7791452,N,12132.4545268,E,0.00,148.55,270623,,,R,V*1C
$GPHDT,,T*1B
$GNGSA,A,3,196,19,195,199,17,06,20,09,11,12,05,194,1.08,0.52,0.95,1*08
$GNGSA,A,3,68,82,67,,,,,,,,,,1.08,0.52,0.95,2*05
$GNGSA,A,3,10,04,12,11,24,19,25,,,,,,1.08,0.52,0.95,3*0E
$GNGSA,A,3,33,40,07,10,08,28,14,43,13,41,42,11,1.08,0.52,0.95,4*05
$GPGSV,4,1,15,196,70,116,43,19,70,092,44,195,69,052,41,199,60,167,26,1*5A
$GPGSV,4,2,15,50,60,167,28,17,53,120,44,06,49,014,21,20,45,252,43,1*60
$GPGSV,4,3,15,09,37,077,42,11,36,309,30,194,32,174,22,12,25,300,22,1*58
$GPGSV,4,4,15,05,20,234,22,04,16,051,18,14,06,170,,1*59
$GPGSV,2,1,07,196,70,116,47,195,69,052,45,199,60,167,37,06,49,014,22,8*5C
$GPGSV,2,2,07,09,37,077,39,11,36,309,33,194,32,174,36,8*68
$GLGSV,2,1,06,68,71,100,39,83,42,012,,69,36,185,13,82,34,071,35,1*79
$GLGSV,2,2,06,67,30,035,23,80,06,212,,1*74
$GAGSV,3,1,09,10,50,001,19,04,44,141,32,12,44,039,18,11,40,321,36,7*75
$GAGSV,3,2,09,24,37,222,35,19,31,064,28,25,29,288,16,33,08,081,21,7*74
$GAGSV,3,3,09,36,05,286,,7*46
$GAGSV,2,1,08,10,50,001,22,12,44,039,25,04,44,141,40,11,40,321,38,1*7E
$GAGSV,2,2,08,24,37,222,39,19,31,064,26,25,29,288,25,33,08,081,27,1*76
$GBGSV,4,1,14,33,76,084,42,40,73,181,38,07,71,222,39,10,69,259,33,1*77
$GBGSV,4,2,14,08,54,292,36,28,52,343,42,14,50,048,22,43,48,089,39,1*73
$GBGSV,4,3,14,13,47,277,40,41,43,202,42,42,24,040,32,11,24,103,42,1*70
$GBGSV,4,4,14,37,09,254,,23,07,205,,1*7C
$GBGSV,2,1,06,33,76,084,47,40,73,181,44,28,52,343,41,43,48,089,39,4*7C
$GBGSV,2,2,06,41,43,202,39,42,24,040,20,4*7B
$GNGGA,043557.000,2500.7791449,N,12132.4545295,E,4,53,0.52,10.605,M,15.25,M,1,3335*4B
$GNRMC,043557.000,A,2500.7791449,N,12132.4545295,E,0.00,148.55,270623,,,R,V*1D
$GPHDT,,T*1B
$GNGGA,043557.200,2500.7791450,N,12132.4545290,E,4,54,0.51,10.588,M,15.25,M,1,3335*46
$GNRMC,043557.200,A,2500.7791450,N,12132.4545290,E,0.00,148.55,270623,,,R,V*12
$GPHDT,,T*1B
$GNGGA,043557.400,2500.7791442,N,12132.4545282,E,4,54,0.51,10.583,M,15.25,M,1,3335*4B
$GNRMC,043557.400,A,2500.7791442,N,12132.4545282,E,0.00,148.55,270623,,,R,V*14
$GPHDT,,T*1B
$GNGGA,043557.600,2500.7791448,N,12132.4545294,E,4,54,0.51,10.585,M,15.25,M,0,3335*43
$GNRMC,043557.600,A,2500.7791448,N,12132.4545294,E,0.00,148.55,270623,,,R,V*1B
$GPHDT,,T*1B
$GNGGA,043557.800,2500.7791444,N,12132.4545292,E,4,55,0.51,10.590,M,15.25,M,0,3335*42
$GNRMC,043557.800,A,2500.7791444,N,12132.4545292,E,0.01,148.55,270623,,,R,V*1E
$GPHDT,,T*1B
$GNGSA,A,3,19,196,195,199,17,06,20,09,11,12,05,04,1.03,0.51,0.89,1*35
$GNGSA,A,3,194,,,,,,,,,,,,1.03,0.51,0.89,1*3A
$GNGSA,A,3,68,82,67,,,,,,,,,,1.03,0.51,0.89,2*00
$GNGSA,A,3,10,12,04,11,24,19,25,,,,,,1.03,0.51,0.89,3*0B
$GNGSA,A,3,33,40,07,10,08,28,14,43,13,41,42,11,1.03,0.51,0.89,4*00
$GPGSV,4,1,15,19,70,092,44,196,70,116,43,195,69,052,41,50,60,167,28,1*60
$GPGSV,4,2,15,199,60,167,27,17,53,120,44,06,49,014,20,20,45,252,43,1*5A
$GPGSV,4,3,15,09,37,077,42,11,36,309,30,194,32,174,22,12,25,300,23,1*59
$GPGSV,4,4,15,05,20,234,22,04,16,051,20,14,06,170,,1*52
$GPGSV,2,1,08,196,70,116,47,195,69,052,45,199,60,167,37,06,49,014,22,8*53
$GPGSV,2,2,08,09,37,077,39,11,36,309,33,194,32,174,36,04,16,051,15,8*54
$GLGSV,2,1,06,68,71,100,38,83,42,012,,69,36,185,16,82,34,071,35,1*7D
$GLGSV,2,2,06,67,30,035,21,80,06,212,,1*76
$GAGSV,2,1,08,10,50,001,19,12,44,039,18,04,44,141,32,11,40,321,36,7*75
$GAGSV,2,2,08,24,37,222,36,19,31,064,29,25,29,288,16,33,08,081,21,7*76
$GAGSV,2,1,08,10,50,001,22,04,44,141,40,12,44,039,25,11,40,321,38,1*7E
$GAGSV,2,2,08,24,37,222,39,19,31,064,26,25,29,288,25,33,08,081,26,1*77
$GBGSV,4,1,15,33,76,084,42,40,73,181,38,07,71,222,39,10,69,259,33,1*76
$GBGSV,4,2,15,08,54,292,36,28,52,343,42,14,50,048,21,43,48,089,39,1*71
$GBGSV,4,3,15,13,47,277,40,41,43,202,42,42,24,040,32,11,24,103,42,1*71
$GBGSV,4,4,15,37,09,254,,23,07,205,,34,07,115,,1*48
$GBGSV,2,1,06,33,76,084,47,40,73,181,44,28,52,343,41,43,48,089,39,4*7C
$GBGSV,2,2,06,41,43,202,39,42,24,040,19,4*71
$GNGGA,043558.000,2500.7791469,N,12132.4545266,E,4,55,0.51,10.570,M,15.25,M,1,3335*4E
$GNRMC,043558.000,A,2500.7791469,N,12132.4545266,E,0.06,148.55,270623,,,R,V*1A
$GPHDT,,T*1B
$GNGGA,043558.200,2500.7791453,N,12132.4545294,E,4,55,0.51,10.590,M,15.25,M,1,3335*46
$GNRMC,043558.200,A,2500.7791453,N,12132.4545294,E,0.05,148.55,270623,,,R,V*1F
$GPHDT,,T*1B
$GNGGA,043558.400,2500.7791455,N,12132.4545258,E,4,55,0.51,10.584,M,15.25,M,1,3335*43
$GNRMC,043558.400,A,2500.7791455,N,12132.4545258,E,0.01,148.55,270623,,,R,V*1B
$GPHDT,,T*1B
$GNGGA,043558.600,2500.7791469,N,12132.4545282,E,4,55,0.51,10.581,M,15.25,M,1,3335*4C
$GNRMC,043558.600,A,2500.7791469,N,12132.4545282,E,0.05,148.55,270623,,,R,V*15
$GPHDT,,T*1B
$GNGGA,043558.800,2500.7791473,N,12132.4545266,E,4,55,0.51,10.571,M,15.25,M,1,3335*4C
$GNRMC,043558.800,A,2500.7791473,N,12132.4545266,E,0.02,148.55,270623,,,R,V*1D
$GPHDT,,T*1B
$GNGSA,A,3,19,196,195,199,17,20,09,11,12,05,04,06,1.03,0.51,0.89,1*35
$GNGSA,A,3,194,,,,,,,,,,,,1.03,0.51,0.89,1*3A
$GNGSA,A,3,68,82,67,,,,,,,,,,1.03,0.51,0.89,2*00
$GNGSA,A,3,10,04,12,11,24,19,25,,,,,,1.03,0.51,0.89,3*0B
$GNGSA,A,3,33,40,07,10,08,28,14,43,13,41,42,11,1.03,0.51,0.89,4*00
$GPGSV,4,1,15,19,70,092,44,196,70,116,43,195,69,052,41,50,60,167,29,1*61
$GPGSV,4,2,15,199,60,167,27,17,53,120,44,06,49,014,19,20,45,252,43,1*50
$GPGSV,4,3,15,09,37,077,42,11,36,309,31,194,32,174,22,12,25,300,24,1*5F
$GPGSV,4,4,15,05,20,234,22,04,16,051,19,14,06,170,,1*58
$GPGSV,2,1,08,196,70,116,47,195,69,052,45,199,60,167,37,06,49,014,24,8*55
$GPGSV,2,2,08,09,37,077,39,11,36,309,34,194,32,174,38,04,16,051,17,8*5F
$GLGSV,2,1,06,68,71,100,38,83,42,012,,69,36,185,15,82,34,071,35,1*7E
$GLGSV,2,2,06,67,30,035,21,73,15,263,,1*7E
$GAGSV,2,1,08,10,50,001,19,04,44,141,32,12,44,039,18,11,40,321,36,7*75
$GAGSV,2,2,08,24,37,222,36,19,31,064,29,25,29,288,14,33,08,081,21,7*74
$GAGSV,2,1,08,10,50,001,23,04,44,141,40,12,44,039,25,11,40,321,38,1*7F
$GAGSV,2,2,08,24,37,222,39,19,31,064,28,25,29,288,25,33,08,081,27,1*78
$GBGSV,4,1,15,33,76,084,42,40,73,181,38,07,71,222,38,10,69,259,33,1*77
$GBGSV,4,2,15,08,54,292,36,28,52,343,42,14,50,048,21,43,48,089,39,1*71
$GBGSV,4,3,15,13,47,277,40,41,43,202,42,42,24,040,31,11,24,103,42,1*72
$GBGSV,4,4,15,37,09,254,,23,07,205,,34,07,115,,1*48
$GBGSV,2,1,06,33,76,084,47,40,73,181,44,28,52,343,41,43,48,089,39,4*7C
$GBGSV,2,2,06,41,43,202,39,42,24,040,18,4*70
$GNGGA,043559.000,2500.7791482,N,12132.4545300,E,4,54,0.51,10.590,M,15.25,M,1,3335*44
$GNRMC,043559.000,A,2500.7791482,N,12132.4545300,E,0.06,148.55,270623,,,R,V*1F
$GPHDT,,T*1B
$GNGGA,043559.200,2500.7791462,N,12132.4545290,E,4,54,0.51,10.588,M,15.25,M,1,3335*49
$GNRMC,043559.200,A,2500.7791462,N,12132.4545290,E,0.00,148.55,270623,,,R,V*1D
$GPHDT,,T*1B
$GNGGA,043559.400,2500.7791479,N,12132.4545306,E,4,55,0.51,10.589,M,15.25,M,1,3335*4B
$GNRMC,043559.400,A,2500.7791479,N,12132.4545306,E,0.06,148.55,270623,,,R,V*19
$GPHDT,,T*1B
$GNGGA,043559.600,2500.7791480,N,12132.4545295,E,4,56,0.51,10.595,M,15.25,M,1,3335*4A
$GNRMC,043559.600,A,2500.7791480,N,12132.4545295,E,0.06,148.55,270623,,,R,V*16
$GPHDT,,T*1B
$GNGGA,043559.800,2500.7791461,N,12132.4545290,E,4,55,0.51,10.600,M,15.25,M,0,3335*43
$GNRMC,043559.800,A,2500.7791461,N,12132.4545290,E,0.01,148.55,270623,,,R,V*15
$GPHDT,,T*1B
$GNGSA,A,3,196,19,195,199,17,06,20,11,09,194,12,05,1.03,0.51,0.89,1*0D
$GNGSA,A,3,04,,,,,,,,,,,,1.03,0.51,0.89,1*02
$GNGSA,A,3,68,82,67,,,,,,,,,,1.03,0.51,0.89,2*00
$GNGSA,A,3,10,12,04,11,24,19,25,,,,,,1.03,0.51,0.89,3*0B
$GNGSA,A,3,33,40,07,10,08,28,14,43,13,41,42,11,1.03,0.51,0.89,4*00
$GPGSV,4,1,15,196,70,116,43,19,70,092,44,195,69,052,41,199,60,167,26,1*5A
$GPGSV,4,2,15,50,60,167,28,17,53,120,44,06,49,014,17,20,45,252,43,1*65
$GPGSV,4,3,15,11,37,310,31,09,37,077,42,194,32,174,22,12,25,299,24,1*57
$GPGSV,4,4,15,05,20,234,22,04,16,051,19,14,06,170,,1*58
$GPGSV,2,1,08,196,70,116,47,195,69,052,45,199,60,167,36,06,49,014,24,8*54
$GPGSV,2,2,08,11,37,310,34,09,37,077,39,194,32,174,38,04,16,051,14,8*55
$GLGSV,2,1,07,68,71,100,38,83,42,012,,69,36,185,17,82,34,071,35,1*7D
$GLGSV,2,2,07,67,30,035,23,73,15,263,,74,08,306,,1*43
$GAGSV,3,1,09,10,50,001,19,12,44,039,18,04,44,141,32,11,40,321,36,7*75
$GAGSV,3,2,09,24,37,222,36,19,31,064,29,25,29,288,15,09,13,187,,7*72
$GAGSV,3,3,09,33,08,081,20,7*49
$GAGSV,2,1,08,10,50,001,23,04,44,141,40,12,44,039,25,11,40,321,38,1*7F
$GAGSV,2,2,08,24,37,222,39,19,31,064,28,25,29,288,26,33,08,081,27,1*7B
$GBGSV,4,1,15,33,76,084,43,40,73,181,38,07,71,222,38,10,69,259,33,1*76
$GBGSV,4,2,15,08,54,292,36,28,52,343,42,14,50,048,19,43,48,089,40,1*74
$GBGSV,4,3,15,13,47,277,40,41,43,202,42,42,24,040,31,11,24,103,42,1*72
$GBGSV,4,4,15,37,09,254,,34,07,115,,23,07,205,,1*48
$GBGSV,2,1,06,33,76,084,47,40,73,181,44,28,52,343,41,43,48,089,39,4*7C
$GBGSV,2,2,06,41,43,202,39,42,24,040,18,4*70
$GNGGA,043600.000,2500.7791438,N,12132.4545296,E,4,56,0.51,10.607,M,15.25,M,1,3335*4B
$GNRMC,043600.000,A,2500.7791438,N,12132.4545296,E,0.07,148.55,270623,,,R,V*1E
$GPHDT,,T*1B
$GNGGA,043600.200,2500.7791459,N,12132.4545302,E,4,55,0.51,10.593,M,15.25,M,1,3335*4F
$GNRMC,043600.200,A,2500.7791459,N,12132.4545302,E,0.07,148.55,270623,,,R,V*17
$GPHDT,,T*1B
$GNGGA,043600.400,2500.7791428,N,12132.4545310,E,4,55,0.51,10.620,M,15.25,M,1,3335*47
$GNRMC,043600.400,A,2500.7791428,N,12132.4545310,E,0.07,148.55,270623,,,R,V*14
$GPHDT,,T*1B
$GNGGA,043600.600,2500.7791455,N,12132.4545298,E,4,55,0.51,10.606,M,15.25,M,1,3335*4A
$GNRMC,043600.600,A,2500.7791455,N,12132.4545298,E,0.06,148.55,270623,,,R,V*1C
$GPHDT,,T*1B
$GNGGA,043600.800,2500.7791467,N,12132.4545283,E,4,54,0.51,10.596,M,15.25,M,1,3335*44
$GNRMC,043600.800,A,2500.7791467,N,12132.4545283,E,0.08,148.55,270623,,,R,V*17
$GPHDT,,T*1B
