$FW : RTK35X,V1.1X0314AS,Lib20210517,1*54
$Tool : LOCOSYS , GNSS Firebird , v1.0.0.19*39
$---------------------------------------------------*2D
$GPHDT,,T*1B
$GNGGA,043253.400,2500.7799100,N,12132.4537400,E,2,54,0.50,21.16,M,15.25,M,1,3335*76
$GNRMC,043253.400,A,2500.7799100,N,12132.4537400,E,0.00,148.55,270623,,,D,V*03
$GPHDT,,T*1B
$GNGGA,043253.600,2500.7799100,N,12132.4537400,E,2,54,0.50,21.16,M,15.25,M,1,3335*74
$GNRMC,043253.600,A,2500.7799100,N,12132.4537400,E,0.03,148.55,270623,,,D,V*02
$GPHDT,,T*1B
$GNGGA,043253.800,2500.7799100,N,12132.4537400,E,2,54,0.50,21.16,M,15.25,M,1,3335*7A
$GNRMC,043253.800,A,2500.7799100,N,12132.4537400,E,0.05,148.55,270623,,,D,V*0A
$GPHDT,,T*1B
$GNGSA,A,3,19,196,195,199,17,06,20,09,11,194,12,04,0.85,0.50,0.69,1*0C
$GNGSA,A,3,68,82,69,67,,,,,,,,,0.85,0.50,0.69,2*0F
$GNGSA,A,3,10,12,04,11,24,19,25,,,,,,0.85,0.50,0.69,3*0B
$GNGSA,A,3,33,40,07,10,08,14,28,43,13,41,11,42,0.85,0.50,0.69,4*00
$GPGSV,4,1,15,19,71,088,42,196,70,117,42,195,69,052,41,199,60,167,31,1*50
$GPGSV,4,2,15,50,60,167,34,17,53,118,44,06,49,012,21,20,44,251,44,1*65
$GPGSV,4,3,15,09,37,079,38,11,36,308,26,194,33,174,28,12,24,301,22,1*56
$GPGSV,4,4,15,05,19,233,29,04,16,052,23,14,07,170,14,1*50
$GPGSV,2,1,08,196,70,117,45,195,69,052,44,199,60,167,41,06,49,012,17,8*50
$GPGSV,2,2,08,09,37,079,41,11,36,308,32,194,33,174,38,04,16,052,20,8*5F
$GLGSV,2,1,08,68,70,105,40,83,42,010,,82,35,069,34,69,34,185,18,1*7F
$GLGSV,2,2,08,67,31,036,18,73,16,264,,74,08,307,,84,08,313,,1*76
$GAGSV,3,1,09,10,50,359,16,12,44,038,18,04,43,141,38,11,40,320,38,7*77
$GAGSV,3,2,09,24,38,223,39,19,31,065,24,25,29,289,17,09,12,188,,7*72
$GAGSV,3,3,09,33,08,080,,7*4A
$GAGSV,2,1,07,10,50,359,28,12,44,038,26,04,43,141,39,11,40,320,41,1*71
$GAGSV,2,2,07,24,38,223,41,19,31,065,28,33,08,080,23,1*4B
$GBGSV,4,1,15,33,76,090,43,40,74,180,42,07,71,223,39,10,69,261,35,1*75
$GBGSV,4,2,15,08,54,291,34,14,51,050,25,28,51,342,43,43,48,087,38,1*70
$GBGSV,4,3,15,13,47,276,39,41,41,202,39,42,25,041,,11,24,102,33,1*76
$GBGSV,4,4,15,37,10,255,,23,08,206,,34,07,114,,1*4C
$GBGSV,2,1,06,33,76,090,45,40,74,180,44,28,51,342,39,43,48,087,31,4*76
$GBGSV,2,2,06,41,41,202,39,42,25,041,31,4*79
$GNGGA,043254.000,2500.7799100,N,12132.4537400,E,2,54,0.50,21.16,M,15.25,M,2,3335*76
$GNRMC,043254.000,A,2500.7799100,N,12132.4537400,E,0.04,148.55,270623,,,D,V*04
$GPHDT,,T*1B
$GNGGA,043254.200,2500.7799100,N,12132.4537400,E,2,54,0.50,21.16,M,15.25,M,2,3335*74
$GNRMC,043254.200,A,2500.7799100,N,12132.4537400,E,0.07,148.55,270623,,,D,V*05
$GPHDT,,T*1B
$GNGGA,043254.400,2500.7799000,N,12132.4537400,E,2,54,0.50,21.16,M,15.25,M,2,3335*73
$GNRMC,043254.400,A,2500.7799000,N,12132.4537400,E,0.04,148.55,270623,,,D,V*01
$GPHDT,,T*1B
$GNGGA,043254.600,2500.7799000,N,12132.4537400,E,2,54,0.50,21.16,M,15.25,M,2,3335*71
$GNRMC,043254.600,A,2500.7799000,N,12132.4537400,E,0.07,148.55,270623,,,D,V*00
$GPHDT,,T*1B
$GNGGA,043254.800,2500.7799000,N,12132.4537400,E,2,54,0.50,21.16,M,15.25,M,2,3335*7F
$GNRMC,043254.800,A,2500.7799000,N,12132.4537400,E,0.05,148.55,270623,,,D,V*0C
$GPHDT,,T*1B
$GNGSA,A,3,19,196,195,199,17,06,20,09,11,194,12,04,0.85,0.50,0.69,1*0C
$GNGSA,A,3,68,82,69,67,,,,,,,,,0.85,0.50,0.69,2*0F
$GNGSA,A,3,10,12,04,11,24,19,25,,,,,,0.85,0.50,0.69,3*0B
$GNGSA,A,3,33,40,07,10,08,28,14,43,13,41,11,42,0.85,0.50,0.69,4*00
$GPGSV,4,1,15,19,71,088,42,196,70,117,42,195,69,052,41,199,60,167,32,1*53
$GPGSV,4,2,15,50,60,167,33,17,53,118,44,06,49,012,20,20,44,251,44,1*63
$GPGSV,4,3,15,09,37,079,38,11,36,308,28,194,33,174,30,12,24,301,22,1*51
$GPGSV,4,4,15,05,19,233,29,04,16,052,22,14,07,170,16,1*53
$GPGSV,2,1,08,196,70,117,45,195,69,052,44,199,60,167,41,06,49,012,22,8*56
$GPGSV,2,2,08,09,37,079,41,11,36,308,35,194,33,174,38,04,16,052,21,8*59
$GLGSV,2,1,08,68,70,105,40,83,42,010,,82,35,069,34,69,34,185,19,1*7E
$GLGSV,2,2,08,67,31,036,22,73,16,264,,74,08,307,,84,08,313,,1*7F
$GAGSV,3,1,10,10,50,359,18,12,44,038,19,04,43,141,38,11,40,320,38,7*70
$GAGSV,3,2,10,24,38,223,39,19,31,065,24,25,29,289,18,09,12,188,,7*75
$GAGSV,3,3,10,33,08,080,,36,05,285,,7*7D
$GAGSV,2,1,07,10,50,359,28,12,44,038,26,04,43,141,39,11,40,320,41,1*71
$GAGSV,2,2,07,24,38,223,41,19,31,065,27,33,08,080,22,1*45
$GBGSV,4,1,15,33,76,090,42,40,74,180,42,07,71,223,39,10,69,261,35,1*74
$GBGSV,4,2,15,08,54,291,33,28,51,342,43,14,51,050,27,43,48,087,37,1*7A
$GBGSV,4,3,15,13,47,276,39,41,41,202,39,42,25,041,,11,24,102,34,1*71
$GBGSV,4,4,15,37,10,255,,23,08,206,,34,07,114,,1*4C
$GBGSV,2,1,06,33,76,090,45,40,74,180,44,28,51,342,39,43,48,087,28,4*7E
$GBGSV,2,2,06,41,41,202,39,42,25,041,31,4*79
$GNGGA,043255.000,2500.7799000,N,12132.4537400,E,2,53,0.50,21.16,M,15.25,M,3,3335*70
$GNRMC,043255.000,A,2500.7799000,N,12132.4537400,E,0.01,148.55,270623,,,D,V*01
$GPHDT,,T*1B
$GNGGA,043255.200,2500.7799000,N,12132.4537400,E,2,53,0.50,21.16,M,15.25,M,3,3335*72
$GNRMC,043255.200,A,2500.7799000,N,12132.4537400,E,0.01,148.55,270623,,,D,V*03
$GPHDT,,T*1B
$GNGGA,043255.400,2500.7799000,N,12132.4537400,E,2,53,0.50,21.16,M,15.25,M,1,3335*76
$GNRMC,043255.400,A,2500.7799000,N,12132.4537400,E,0.02,148.55,270623,,,D,V*06
$GPHDT,,T*1B
$GNGGA,043255.600,2500.7799000,N,12132.4537400,E,2,53,0.50,21.16,M,15.25,M,1,3335*74
$GNRMC,043255.600,A,2500.7799000,N,12132.4537400,E,0.06,148.55,270623,,,D,V*00
$GPHDT,,T*1B
$GNGGA,043255.800,2500.7799000,N,12132.4537400,E,2,53,0.50,21.16,M,15.25,M,0,3335*7B
$GNRMC,043255.800,A,2500.7799000,N,12132.4537400,E,0.03,148.55,270623,,,D,V*0B
$GPHDT,,T*1B
$GNGSA,A,3,19,196,195,199,17,06,20,09,11,194,12,04,0.85,0.50,0.69,1*0C
$GNGSA,A,3,68,83,82,69,67,,,,,,,,0.85,0.50,0.69,2*04
$GNGSA,A,3,10,12,04,11,24,19,25,,,,,,0.85,0.50,0.69,3*0B
$GNGSA,A,3,33,40,07,10,08,14,28,43,13,41,11,42,0.85,0.50,0.69,4*00
$GPGSV,4,1,15,19,71,088,42,196,70,117,42,195,69,052,41,199,60,167,32,1*53
$GPGSV,4,2,15,50,60,167,33,17,53,118,44,06,49,012,19,20,44,251,44,1*69
$GPGSV,4,3,15,09,37,079,38,11,36,308,27,194,33,174,29,12,24,301,22,1*56
$GPGSV,4,4,15,05,19,233,29,04,16,052,19,14,07,170,16,1*5B
$GPGSV,2,1,08,196,70,117,45,195,69,052,44,199,60,167,41,06,49,012,24,8*50
$GPGSV,2,2,08,09,37,079,41,11,36,308,35,194,33,174,38,04,16,052,23,8*5B
$GLGSV,2,1,06,68,70,105,41,83,42,010,15,82,35,069,34,69,34,185,19,1*75
$GLGSV,2,2,06,67,31,036,26,74,08,307,,1*73
$GAGSV,3,1,10,10,50,359,19,12,44,038,19,04,43,141,38,11,40,320,37,7*7E
$GAGSV,3,2,10,24,38,223,39,19,31,065,23,25,29,289,20,09,12,188,,7*79
$GAGSV,3,3,10,33,08,080,,36,05,285,,7*7D
$GAGSV,2,1,07,10,50,359,28,12,44,038,28,04,43,141,40,11,40,320,42,1*72
$GAGSV,2,2,07,24,38,223,41,19,31,065,27,33,08,080,23,1*44
$GBGSV,4,1,15,33,76,090,42,40,74,180,42,07,71,223,39,10,69,261,35,1*74
$GBGSV,4,2,15,08,54,291,33,14,51,050,28,28,51,342,43,43,48,087,36,1*74
$GBGSV,4,3,15,13,47,276,40,41,41,202,39,42,25,041,,11,24,102,33,1*78
$GBGSV,4,4,15,37,10,255,,23,08,206,,34,07,114,,1*4C
$GBGSV,2,1,06,33,76,090,45,40,74,180,44,28,51,342,39,43,48,087,28,4*7E
$GBGSV,2,2,06,41,41,202,39,42,25,041,30,4*78
$GNGGA,043256.000,2500.7799000,N,12132.4537400,E,2,54,0.50,21.17,M,15.25,M,1,3335*77
$GNRMC,043256.000,A,2500.7799000,N,12132.4537400,E,0.09,148.55,270623,,,D,V*0A
$GPHDT,,T*1B
$GNGGA,043256.200,2500.7799000,N,12132.4537400,E,2,54,0.50,21.17,M,15.25,M,1,3335*75
$GNRMC,043256.200,A,2500.7799000,N,12132.4537400,E,0.01,148.55,270623,,,D,V*00
$GPHDT,,T*1B
$GNGGA,043256.400,2500.7799000,N,12132.4537400,E,2,54,0.50,21.17,M,15.25,M,1,3335*73
$GNRMC,043256.400,A,2500.7799000,N,12132.4537400,E,0.02,148.55,270623,,,D,V*05
$GPHDT,,T*1B
$GNGGA,043256.600,2500.7799000,N,12132.4537400,E,2,54,0.50,21.17,M,15.25,M,1,3335*71
$GNRMC,043256.600,A,2500.7799000,N,12132.4537400,E,0.06,148.55,270623,,,D,V*03
$GPHDT,,T*1B
$GNGGA,043256.800,2500.7799100,N,12132.4537400,E,2,54,0.50,21.17,M,15.25,M,1,3335*7E
$GNRMC,043256.800,A,2500.7799100,N,12132.4537400,E,0.03,148.55,270623,,,D,V*09
$GPHDT,,T*1B
$GNGSA,A,3,19,196,195,199,17,06,20,09,11,194,12,04,0.85,0.50,0.69,1*0C
$GNGSA,A,3,68,83,82,69,67,,,,,,,,0.85,0.50,0.69,2*04
$GNGSA,A,3,10,12,04,11,24,19,25,,,,,,0.85,0.50,0.69,3*0B
$GNGSA,A,3,33,40,07,10,08,14,28,43,13,41,11,42,0.85,0.50,0.69,4*00
$GPGSV,4,1,15,19,71,088,42,196,70,117,42,195,69,052,41,199,60,167,32,1*53
$GPGSV,4,2,15,50,60,167,33,17,53,118,44,06,49,012,24,20,44,251,44,1*67
$GPGSV,4,3,15,09,37,079,38,11,36,308,27,194,33,174,27,12,24,301,24,1*5E
$GPGSV,4,4,15,05,19,233,29,04,16,052,17,14,07,170,15,1*56
$GPGSV,2,1,08,196,70,117,45,195,69,052,44,199,60,167,41,06,49,012,21,8*55
$GPGSV,2,2,08,09,37,079,41,11,36,308,34,194,33,174,39,04,16,052,23,8*5B
$GLGSV,2,1,06,68,70,105,41,83,42,010,15,82,35,069,31,69,34,185,18,1*71
$GLGSV,2,2,06,67,31,036,28,74,08,307,,1*7D
$GAGSV,3,1,10,10,50,359,21,12,44,038,19,04,43,141,37,11,40,320,37,7*7A
$GAGSV,3,2,10,24,38,223,38,19,31,065,24,25,29,289,23,09,12,188,,7*7C
$GAGSV,3,3,10,33,08,080,,36,05,285,,7*7D
$GAGSV,2,1,07,10,50,359,30,12,44,038,24,04,43,141,39,11,40,320,42,1*79
$GAGSV,2,2,07,24,38,223,41,19,31,065,27,33,08,080,21,1*46
$GBGSV,4,1,15,33,76,090,42,40,74,180,42,07,71,223,39,10,69,261,35,1*74
$GBGSV,4,2,15,08,54,291,33,14,51,050,29,28,51,342,43,43,48,087,35,1*76
$GBGSV,4,3,15,13,47,276,41,41,41,202,39,42,25,041,,11,24,102,34,1*7E
$GBGSV,4,4,15,37,10,255,,23,08,206,,34,07,114,,1*4C
$GBGSV,2,1,06,33,76,090,45,40,74,180,44,28,51,342,39,43,48,087,32,4*75
$GBGSV,2,2,06,41,41,202,39,42,25,041,31,4*79
$GNGGA,043257.000,2500.7799100,N,12132.4537400,E,2,54,0.50,21.17,M,15.25,M,1,3335*77
$GNRMC,043257.000,A,2500.7799100,N,12132.4537400,E,0.01,148.55,270623,,,D,V*02
$GPHDT,,T*1B
$GNGGA,043257.200,2500.7799000,N,12132.4537400,E,2,53,0.51,21.17,M,15.25,M,1,3335*72
$GNRMC,043257.200,A,2500.7799000,N,12132.4537400,E,0.03,148.55,270623,,,D,V*03
$GPHDT,,T*1B
$GNGGA,043257.400,2500.7799100,N,12132.4537400,E,2,53,0.51,21.16,M,15.25,M,1,3335*74
$GNRMC,043257.400,A,2500.7799100,N,12132.4537400,E,0.02,148.55,270623,,,D,V*05
$GPHDT,,T*1B
$GNGGA,043257.600,2500.7799100,N,12132.4537400,E,2,54,0.50,21.17,M,15.25,M,0,3335*70
$GNRMC,043257.600,A,2500.7799100,N,12132.4537400,E,0.03,148.55,270623,,,D,V*06
$GPHDT,,T*1B
$GNGGA,043257.800,2500.7799100,N,12132.4537400,E,2,54,0.50,21.17,M,15.25,M,0,3335*7E
$GNRMC,043257.800,A,2500.7799100,N,12132.4537400,E,0.05,148.55,270623,,,D,V*0E
$GPHDT,,T*1B
$GNGSA,A,3,19,196,195,199,17,06,20,09,11,194,12,04,0.85,0.50,0.69,1*0C
$GNGSA,A,3,68,83,82,69,67,,,,,,,,0.85,0.50,0.69,2*04
$GNGSA,A,3,10,12,04,11,24,19,25,,,,,,0.85,0.50,0.69,3*0B
$GNGSA,A,3,33,40,07,10,08,14,28,43,13,41,11,42,0.85,0.50,0.69,4*00
$GPGSV,4,1,15,19,71,088,42,196,70,117,42,195,69,052,41,199,60,167,32,1*53
$GPGSV,4,2,15,50,60,167,33,17,53,118,44,06,49,012,21,20,44,251,44,1*62
$GPGSV,4,3,15,09,37,079,38,11,36,308,26,194,33,174,26,12,24,301,24,1*5E
$GPGSV,4,4,15,05,19,233,29,04,16,052,17,14,07,170,14,1*57
$GPGSV,2,1,08,196,70,117,45,195,69,052,44,199,60,167,40,06,49,012,20,8*55
$GPGSV,2,2,08,09,37,079,40,11,36,308,35,194,33,174,38,04,16,052,24,8*5D
$GLGSV,2,1,07,68,70,105,41,83,42,010,15,82,35,069,30,69,34,185,18,1*71
$GLGSV,2,2,07,67,31,036,28,74,08,307,,80,07,213,,1*43
$GAGSV,3,1,09,10,50,359,19,12,44,038,19,04,43,141,37,11,40,320,37,7*79
$GAGSV,3,2,09,24,38,223,38,19,31,065,26,25,29,289,22,33,08,080,22,7*7C
$GAGSV,3,3,09,36,05,285,,7*45
$GAGSV,2,1,08,10,50,359,27,12,44,038,25,04,43,141,39,11,40,320,42,1*71
$GAGSV,2,2,08,24,38,223,41,19,31,065,26,25,29,289,17,33,08,080,21,1*71
$GBGSV,4,1,15,33,76,090,43,40,74,180,42,07,71,223,39,10,69,261,36,1*76
$GBGSV,4,2,15,08,54,291,34,14,51,050,31,28,51,342,43,43,48,087,36,1*7B
$GBGSV,4,3,15,13,47,276,41,41,41,202,39,42,25,041,,11,24,102,34,1*7E
$GBGSV,4,4,15,37,10,255,,23,08,206,,34,07,114,,1*4C
$GBGSV,2,1,06,33,76,090,45,40,74,180,44,28,51,342,39,43,48,087,32,4*75
$GBGSV,2,2,06,41,41,202,39,42,25,041,30,4*78
$GNGGA,043258.000,2500.7799100,N,12132.4537400,E,2,54,0.50,21.17,M,15.25,M,1,3335*78
$GNRMC,043258.000,A,2500.7799100,N,12132.4537400,E,0.02,148.55,270623,,,D,V*0E
$GPHDT,,T*1B
$GNGGA,043258.200,2500.7799100,N,12132.4537400,E,2,54,0.50,21.17,M,15.25,M,1,3335*7A
$GNRMC,043258.200,A,2500.7799100,N,12132.4537400,E,0.05,148.55,270623,,,D,V*0B
$GPHDT,,T*1B
$GNGGA,043258.400,2500.7799100,N,12132.4537400,E,2,54,0.50,21.17,M,15.25,M,1,3335*7C
$GNRMC,043258.400,A,2500.7799100,N,12132.4537400,E,0.06,148.55,270623,,,D,V*0E
$GPHDT,,T*1B
$GNGGA,043258.600,2500.7799100,N,12132.4537300,E,2,53,0.50,21.17,M,15.25,M,0,3335*7F
$GNRMC,043258.600,A,2500.7799100,N,12132.4537300,E,0.08,148.55,270623,,,D,V*05
$GPHDT,,T*1B
$GNGGA,043258.800,2500.7799200,N,12132.4537300,E,2,53,0.50,21.17,M,15.25,M,0,3335*72
$GNRMC,043258.800,A,2500.7799200,N,12132.4537300,E,0.07,148.55,270623,,,D,V*07
$GPHDT,,T*1B
$GNGSA,A,3,19,196,195,199,17,20,09,11,194,12,06,04,0.85,0.50,0.69,1*0C
$GNGSA,A,3,68,83,82,69,67,,,,,,,,0.85,0.50,0.69,2*04
$GNGSA,A,3,10,12,04,11,24,19,25,,,,,,0.85,0.50,0.69,3*0B
$GNGSA,A,3,33,40,07,10,08,14,28,43,13,41,11,42,0.85,0.50,0.69,4*00
$GPGSV,4,1,15,19,71,088,42,196,70,117,42,195,69,052,41,199,60,167,32,1*53
$GPGSV,4,2,15,50,60,167,33,17,53,118,43,06,49,012,17,20,44,251,44,1*60
$GPGSV,4,3,15,09,37,079,38,11,36,308,26,194,33,174,28,12,24,301,25,1*51
$GPGSV,4,4,15,05,19,233,29,04,16,052,17,14,07,170,14,1*57
$GPGSV,2,1,08,196,70,117,45,195,69,052,44,199,60,167,40,06,49,012,20,8*55
$GPGSV,2,2,08,09,37,079,39,11,36,308,36,194,33,174,38,04,16,052,24,8*50
$GLGSV,2,1,06,68,70,104,41,83,42,010,17,82,35,069,29,69,34,185,16,1*75
$GLGSV,2,2,06,67,31,036,30,80,07,213,,1*74
$GAGSV,3,1,09,10,50,359,24,12,44,038,17,04,43,141,37,11,40,320,37,7*79
$GAGSV,3,2,09,24,38,223,38,19,31,065,27,25,29,289,22,33,08,080,22,7*7D
$GAGSV,3,3,09,36,05,285,,7*45
$GAGSV,2,1,08,10,50,359,30,12,44,038,25,04,43,141,39,11,40,320,42,1*77
$GAGSV,2,2,08,24,38,223,41,19,31,065,26,25,29,289,17,33,08,080,22,1*72
$GBGSV,4,1,15,33,76,090,43,40,74,180,42,07,71,223,39,10,69,261,36,1*76
$GBGSV,4,2,15,08,54,291,34,14,51,050,31,28,51,342,43,43,48,087,36,1*7B
$GBGSV,4,3,15,13,47,276,41,41,41,202,39,42,25,041,,11,24,102,34,1*7E
$GBGSV,4,4,15,37,10,255,,23,08,206,,34,07,114,,1*4C
$GBGSV,2,1,06,33,76,090,45,40,74,180,44,28,51,342,39,43,48,087,31,4*76
$GBGSV,2,2,06,41,41,202,39,42,25,041,31,4*79
$GNGGA,043259.000,2500.7799200,N,12132.4537400,E,2,53,0.50,21.16,M,15.25,M,1,3335*7C
$GNRMC,043259.000,A,2500.7799200,N,12132.4537400,E,0.05,148.55,270623,,,D,V*0B
$GPHDT,,T*1B
$GNGGA,043259.200,2500.7799200,N,12132.4537400,E,2,53,0.51,21.16,M,15.25,M,1,3335*7F
$GNRMC,043259.200,A,2500.7799200,N,12132.4537400,E,0.03,148.55,270623,,,D,V*0F
$GPHDT,,T*1B
$GNGGA,043259.400,2500.7799200,N,12132.4537400,E,2,53,0.51,21.16,M,15.25,M,1,3335*79
$GNRMC,043259.400,A,2500.7799200,N,12132.4537400,E,0.00,148.55,270623,,,D,V*0A
$GPHDT,,T*1B
$GNGGA,043259.600,2500.7799200,N,12132.4537400,E,2,54,0.50,21.16,M,15.25,M,1,3335*7D
$GNRMC,043259.600,A,2500.7799200,N,12132.4537400,E,0.01,148.55,270623,,,D,V*09
$GPHDT,,T*1B
$GNGGA,043259.800,2500.7799200,N,12132.4537400,E,2,54,0.50,21.16,M,15.25,M,0,3335*72
$GNRMC,043259.800,A,2500.7799200,N,12132.4537400,E,0.02,148.55,270623,,,D,V*04
$GPHDT,,T*1B
$GNGSA,A,3,19,196,195,199,17,06,20,09,11,04,194,,0.87,0.51,0.70,1*04
$GNGSA,A,3,68,83,69,82,67,,,,,,,,0.87,0.51,0.70,2*0F
$GNGSA,A,3,10,12,04,11,24,19,25,,,,,,0.87,0.51,0.70,3*00
$GNGSA,A,3,33,40,07,10,08,14,28,43,13,41,11,42,0.87,0.51,0.70,4*0B
$GPGSV,4,1,15,19,71,088,42,196,70,117,42,195,69,052,42,199,60,167,32,1*50
$GPGSV,4,2,15,50,60,167,34,17,53,118,43,06,49,012,24,20,44,251,44,1*67
$GPGSV,4,3,15,09,37,079,37,11,36,308,26,194,33,174,25,12,24,301,24,1*52
$GPGSV,4,4,15,05,19,233,30,04,16,052,18,14,07,170,13,1*57
$GPGSV,2,1,08,196,70,117,45,195,69,052,44,199,60,167,40,06,49,012,19,8*5F
$GPGSV,2,2,08,09,37,079,40,11,36,308,36,194,33,174,39,04,16,052,25,8*5E
$GLGSV,2,1,06,68,70,104,41,83,42,010,17,69,35,185,17,82,35,069,27,1*7B
$GLGSV,2,2,06,67,31,036,31,80,07,213,,1*75
$GAGSV,3,1,09,10,50,359,25,12,44,038,17,04,43,141,37,11,40,320,37,7*78
$GAGSV,3,2,09,24,38,223,38,19,31,065,26,25,29,289,24,33,08,080,24,7*7C
$GAGSV,3,3,09,36,05,285,,7*45
$GAGSV,2,1,08,10,50,359,30,12,44,038,23,04,43,141,39,11,40,320,42,1*71
$GAGSV,2,2,08,24,38,223,40,19,31,065,27,25,29,289,16,33,08,080,20,1*71
$GBGSV,4,1,15,33,76,090,43,40,74,180,42,07,71,223,39,10,69,261,36,1*76
$GBGSV,4,2,15,08,54,291,34,14,51,050,30,28,51,342,43,43,48,087,36,1*7A
$GBGSV,4,3,15,13,47,276,40,41,41,202,39,42,25,041,,11,24,102,35,1*7E
$GBGSV,4,4,15,37,10,255,,23,08,206,,34,07,114,,1*4C
$GBGSV,2,1,06,33,76,090,45,40,74,180,44,28,51,342,39,43,48,087,30,4*77
$GBGSV,2,2,06,41,41,202,39,42,25,041,32,4*7A
$GNGGA,043300.000,2500.7799200,N,12132.4537400,E,2,53,0.51,21.16,M,15.25,M,1,3335*70
$GNRMC,043300.000,A,2500.7799200,N,12132.4537400,E,0.01,148.55,270623,,,D,V*02
$GPHDT,,T*1B
$GNGGA,043300.200,2500.7799200,N,12132.4537400,E,2,53,0.51,21.16,M,15.25,M,1,3335*72
$GNRMC,043300.200,A,2500.7799200,N,12132.4537400,E,0.02,148.55,270623,,,D,V*03
$GPHDT,,T*1B
$GNGGA,043300.400,2500.7799200,N,12132.4537400,E,2,54,0.50,21.16,M,15.25,M,1,3335*72
$GNRMC,043300.400,A,2500.7799200,N,12132.4537400,E,0.00,148.55,270623,,,D,V*07
$GPHDT,,T*1B
$GNGGA,043300.600,2500.7799200,N,12132.4537400,E,2,54,0.50,21.17,M,15.25,M,1,3335*71
$GNRMC,043300.600,A,2500.7799200,N,12132.4537400,E,0.07,148.55,270623,,,D,V*02
$GPHDT,,T*1B
$GNGGA,043300.800,2500.7799200,N,12132.4537400,E,2,54,0.50,21.16,M,15.25,M,1,3335*7E
$GNRMC,043300.800,A,2500.7799200,N,12132.4537400,E,0.06,148.55,270623,,,D,V*0D
$GPHDT,,T*1B
$GNGSA,A,3,19,196,195,199,17,06,20,09,11,12,04,194,0.85,0.50,0.69,1*0C
$GNGSA,A,3,68,83,69,82,67,,,,,,,,0.85,0.50,0.69,2*04
$GNGSA,A,3,10,12,04,11,24,19,25,,,,,,0.85,0.50,0.69,3*0B
$GNGSA,A,3,33,40,07,10,08,14,28,43,13,41,11,42,0.85,0.50,0.69,4*00
$GPGSV,4,1,15,19,71,088,42,196,70,117,42,195,69,052,42,199,60,167,33,1*51
$GPGSV,4,2,15,50,60,167,34,17,53,118,43,06,49,012,19,20,44,251,44,1*69
$GPGSV,4,3,15,09,37,079,38,11,36,308,25,194,33,174,24,12,24,301,23,1*58
$GPGSV,4,4,15,05,19,233,29,04,16,052,16,14,07,170,15,1*57
$GPGSV,2,1,08,196,70,117,45,195,69,052,44,199,60,167,40,06,49,012,20,8*55
$GPGSV,2,2,08,09,37,079,40,11,36,308,33,194,33,174,39,04,16,052,25,8*5B
$GLGSV,2,1,06,68,70,104,40,83,42,010,18,69,35,185,19,82,35,069,27,1*7B
$GLGSV,2,2,06,67,31,036,28,80,07,213,,1*7D
$GAGSV,3,1,09,10,50,359,25,12,44,038,17,04,43,141,37,11,40,320,37,7*78
$GAGSV,3,2,09,24,38,223,37,19,31,065,26,25,29,289,25,33,08,080,21,7*77
$GAGSV,3,3,09,36,05,285,,7*45
$GAGSV,2,1,08,10,50,359,29,12,44,038,21,04,43,141,39,11,40,320,42,1*7B
$GAGSV,2,2,08,24,38,223,40,19,31,065,26,25,29,289,16,33,08,080,20,1*70
$GBGSV,4,1,15,33,76,090,43,40,74,180,42,07,71,223,39,10,69,261,36,1*76
$GBGSV,4,2,15,08,54,291,34,14,51,050,30,28,51,342,43,43,48,087,36,1*7A
$GBGSV,4,3,15,13,47,276,40,41,41,202,39,42,25,041,,11,24,102,35,1*7E
$GBGSV,4,4,15,37,10,255,,23,08,206,,34,07,114,,1*4C
$GBGSV,2,1,06,33,76,090,45,40,74,180,44,28,51,342,39,43,48,087,30,4*77
$GBGSV,2,2,06,41,41,202,39,42,25,041,33,4*7B
$GNGGA,043301.000,2500.7799100,N,12132.4537400,E,2,54,0.50,21.16,M,15.25,M,1,3335*74
$GNRMC,043301.000,A,2500.7799100,N,12132.4537400,E,0.03,148.55,270623,,,D,V*02
$GPHDT,,T*1B
$GNGGA,043301.200,2500.7799200,N,12132.4537400,E,2,55,0.50,21.16,M,15.25,M,1,3335*74
$GNRMC,043301.200,A,2500.7799200,N,12132.4537400,E,0.01,148.55,270623,,,D,V*01
$GPHDT,,T*1B
$GNGGA,043301.400,2500.7795336,N,12132.4540274,E,4,55,0.50,15.962,M,15.25,M,1,3335*44
$GNRMC,043301.400,A,2500.7795336,N,12132.4540274,E,0.07,148.55,270623,,,R,V*1A
$GPHDT,,T*1B
$GNGGA,043301.600,2500.7795362,N,12132.4540254,E,4,54,0.50,15.937,M,15.25,M,0,3335*45
$GNRMC,043301.600,A,2500.7795362,N,12132.4540254,E,0.03,148.55,270623,,,R,V*1F
$GPHDT,,T*1B
$GNGGA,043301.800,2500.7795364,N,12132.4540286,E,4,54,0.50,15.960,M,15.25,M,0,3335*40
$GNRMC,043301.800,A,2500.7795364,N,12132.4540286,E,0.05,148.55,270623,,,R,V*1E
$GPHDT,,T*1B
$GNGSA,A,3,19,196,195,199,17,20,09,11,194,12,04,06,0.85,0.50,0.69,1*0C
$GNGSA,A,3,68,83,69,82,67,,,,,,,,0.85,0.50,0.69,2*04
$GNGSA,A,3,10,12,04,11,24,19,25,,,,,,0.85,0.50,0.69,3*0B
$GNGSA,A,3,33,40,07,10,08,14,28,43,13,41,11,42,0.85,0.50,0.69,4*00
$GPGSV,4,1,15,19,71,088,42,196,70,117,42,195,69,052,42,199,60,167,33,1*51
$GPGSV,4,2,15,50,60,167,34,17,53,118,43,06,49,012,19,20,44,251,44,1*69
$GPGSV,4,3,15,09,37,079,38,11,36,308,26,194,33,174,30,12,24,301,24,1*59
$GPGSV,4,4,15,05,19,233,29,04,16,052,18,14,07,170,15,1*59
$GPGSV,2,1,08,196,70,117,45,195,69,052,44,199,60,167,40,06,49,012,22,8*57
$GPGSV,2,2,08,09,37,079,40,11,36,308,34,194,33,174,39,04,16,052,24,8*5D
$GLGSV,2,1,07,68,70,104,40,83,42,010,19,69,35,185,20,82,34,069,27,1*70
$GLGSV,2,2,07,67,31,036,29,73,16,264,,80,07,213,,1*4E
$GAGSV,3,1,09,10,50,359,27,12,44,038,18,04,43,141,37,11,40,320,37,7*75
$GAGSV,3,2,09,24,38,223,37,19,31,065,26,25,29,289,25,33,08,080,22,7*74
$GAGSV,3,3,09,36,05,285,,7*45
$GAGSV,2,1,08,10,50,359,27,12,44,038,21,04,43,141,39,11,40,320,42,1*75
$GAGSV,2,2,08,24,38,223,40,19,31,065,27,25,29,289,11,33,08,080,20,1*76
$GBGSV,4,1,15,33,76,090,43,40,74,180,42,07,71,223,39,10,69,261,36,1*76
$GBGSV,4,2,15,08,54,291,33,14,51,050,29,28,51,342,43,43,48,087,36,1*75
$GBGSV,4,3,15,13,47,276,40,41,41,202,39,42,25,041,,11,24,102,36,1*7D
$GBGSV,4,4,15,37,10,255,,23,08,206,,34,07,114,,1*4C
$GBGSV,2,1,06,33,76,090,45,40,74,180,44,28,51,342,39,43,48,087,32,4*75
$GBGSV,2,2,06,41,41,202,39,42,25,041,32,4*7A
$GNGGA,043302.000,2500.7795347,N,12132.4540228,E,4,54,0.50,15.951,M,15.25,M,1,3335*4D
$GNRMC,043302.000,A,2500.7795347,N,12132.4540228,E,0.01,148.55,270623,,,R,V*14
$GPHDT,,T*1B
$GNGGA,043302.200,2500.7795348,N,12132.4540236,E,4,54,0.50,15.952,M,15.25,M,1,3335*4C
$GNRMC,043302.200,A,2500.7795348,N,12132.4540236,E,0.06,148.55,270623,,,R,V*11
$GPHDT,,T*1B
$GNGGA,043302.400,2500.7795340,N,12132.4540256,E,4,55,0.50,15.952,M,15.25,M,1,3335*45
$GNRMC,043302.400,A,2500.7795340,N,12132.4540256,E,0.01,148.55,270623,,,R,V*1E
$GPHDT,,T*1B
$GNGGA,043302.600,2500.7795355,N,12132.4540249,E,4,55,0.50,15.944,M,15.25,M,1,3335*4A
$GNRMC,043302.600,A,2500.7795355,N,12132.4540249,E,0.12,148.55,270623,,,R,V*14
$GPHDT,,T*1B
$GNGGA,043302.800,2500.7795315,N,12132.4540263,E,4,55,0.50,15.948,M,15.25,M,0,3335*45
$GNRMC,043302.800,A,2500.7795315,N,12132.4540263,E,0.04,148.55,270623,,,R,V*11
$GPHDT,,T*1B
$GNGSA,A,3,19,196,195,199,17,06,20,09,11,194,12,04,0.85,0.50,0.69,1*0C
$GNGSA,A,3,68,83,69,82,67,,,,,,,,0.85,0.50,0.69,2*04
$GNGSA,A,3,10,12,04,11,24,19,25,,,,,,0.85,0.50,0.69,3*0B
$GNGSA,A,3,33,40,07,10,08,14,28,43,13,41,11,42,0.85,0.50,0.69,4*00
$GPGSV,4,1,15,19,71,088,42,196,70,117,42,195,69,052,42,199,60,167,33,1*51
$GPGSV,4,2,15,50,60,167,34,17,53,118,43,06,49,012,19,20,44,251,44,1*69
$GPGSV,4,3,15,09,37,079,38,11,36,308,25,194,33,174,29,12,24,301,22,1*54
$GPGSV,4,4,15,05,19,233,28,04,16,052,18,14,07,170,15,1*58
$GPGSV,2,1,08,196,70,117,45,195,69,052,45,199,60,167,40,06,49,012,19,8*5E
$GPGSV,2,2,08,09,37,079,40,11,36,308,34,194,33,174,39,04,16,052,24,8*5D
$GLGSV,2,1,07,68,70,104,40,83,42,010,19,69,35,185,19,82,34,069,24,1*79
$GLGSV,2,2,07,67,31,036,30,73,16,264,,80,07,213,,1*46
$GAGSV,3,1,10,10,50,359,27,12,44,038,18,04,43,141,37,11,40,320,38,7*72
$GAGSV,3,2,10,24,38,223,37,19,31,065,27,25,29,289,25,09,12,188,,7*76
$GAGSV,3,3,10,33,08,080,20,36,05,285,,7*7F
$GAGSV,2,1,07,10,50,359,29,12,44,038,21,04,43,141,39,11,40,320,42,1*74
$GAGSV,2,2,07,24,38,223,40,19,31,065,28,33,08,080,22,1*4B
$GBGSV,4,1,15,33,76,090,43,40,74,180,42,07,71,223,39,10,69,261,36,1*76
$GBGSV,4,2,15,08,54,291,33,14,51,050,31,28,51,342,43,43,48,087,36,1*7C
$GBGSV,4,3,15,13,47,276,40,41,41,202,39,42,25,041,,11,24,102,35,1*7E
$GBGSV,4,4,15,37,10,255,,23,08,206,,34,07,114,,1*4C
$GBGSV,2,1,06,33,76,090,45,40,74,180,44,28,51,342,39,43,48,087,32,4*75
$GBGSV,2,2,06,41,41,202,39,42,25,041,32,4*7A
$GNGGA,043303.000,2500.7795331,N,12132.4540254,E,4,55,0.50,15.964,M,15.25,M,1,3335*41
$GNRMC,043303.000,A,2500.7795331,N,12132.4540254,E,0.02,148.55,270623,,,R,V*1C
$GPHDT,,T*1B
$GNGGA,043303.200,2500.7795319,N,12132.4540272,E,4,55,0.50,15.958,M,15.25,M,1,3335*42
$GNRMC,043303.200,A,2500.7795319,N,12132.4540272,E,0.02,148.55,270623,,,R,V*10
$GPHDT,,T*1B
$GNGGA,043303.400,2500.7795315,N,12132.4540271,E,4,54,0.52,15.953,M,15.25,M,1,3335*43
$GNRMC,043303.400,A,2500.7795315,N,12132.4540271,E,0.00,148.55,270623,,,R,V*1B
$GPHDT,,T*1B
$GNGGA,043303.600,2500.7795326,N,12132.4540267,E,4,55,0.50,15.958,M,15.25,M,0,3335*4F
$GNRMC,043303.600,A,2500.7795326,N,12132.4540267,E,0.02,148.55,270623,,,R,V*1C
$GPHDT,,T*1B
$GNGGA,043303.800,2500.7795345,N,12132.4540250,E,4,55,0.50,15.949,M,15.25,M,0,3335*40
$GNRMC,043303.800,A,2500.7795345,N,12132.4540250,E,0.04,148.55,270623,,,R,V*15
$GPHDT,,T*1B
$GNGSA,A,3,19,196,195,199,17,06,20,09,11,194,12,04,1.08,0.50,0.95,1*0B
$GNGSA,A,3,68,83,69,82,67,,,,,,,,1.08,0.50,0.95,2*03
$GNGSA,A,3,10,12,04,11,24,19,25,,,,,,1.08,0.50,0.95,3*0C
$GNGSA,A,3,33,40,07,10,08,14,28,43,13,41,11,42,1.08,0.50,0.95,4*07
$GPGSV,4,1,15,19,71,088,43,196,70,117,42,195,69,052,41,199,60,167,33,1*53
$GPGSV,4,2,15,50,60,167,34,17,53,118,43,06,49,012,19,20,44,251,44,1*69
$GPGSV,4,3,15,09,37,079,38,11,36,308,25,194,33,174,27,12,24,301,21,1*59
$GPGSV,4,4,15,05,19,233,29,04,16,052,16,14,07,170,16,1*54
$GPGSV,2,1,08,196,70,117,45,195,69,052,45,199,60,167,40,06,49,012,19,8*5E
$GPGSV,2,2,08,09,37,079,40,11,36,308,34,194,33,174,38,04,16,052,24,8*5C
$GLGSV,2,1,08,68,70,104,41,83,42,010,19,69,35,185,16,82,34,069,19,1*76
$GLGSV,2,2,08,67,31,036,30,73,16,264,,74,08,307,,80,07,213,,1*76
$GAGSV,3,1,09,10,50,359,26,12,44,038,18,04,43,141,37,11,40,320,38,7*7B
$GAGSV,3,2,09,24,38,223,37,19,31,065,26,25,29,289,24,09,12,188,,7*7E
$GAGSV,3,3,09,33,08,080,21,7*49
$GAGSV,2,1,07,10,50,359,28,12,44,038,24,04,43,141,39,11,40,320,42,1*70
$GAGSV,2,2,07,24,38,223,40,19,31,065,27,33,08,080,24,1*42
$GBGSV,4,1,15,33,76,090,43,40,74,180,42,07,71,223,39,10,69,261,36,1*76
$GBGSV,4,2,15,08,54,291,33,14,51,050,31,28,51,342,43,43,48,087,36,1*7C
$GBGSV,4,3,15,13,47,276,40,41,41,202,39,42,25,041,,11,24,102,35,1*7E
$GBGSV,4,4,15,37,10,255,,23,08,206,,34,07,114,,1*4C
$GBGSV,2,1,06,33,76,090,45,40,74,180,44,28,51,342,39,43,48,087,32,4*75
$GBGSV,2,2,06,41,41,202,39,42,25,041,32,4*7A
$GNGGA,043304.000,2500.7795376,N,12132.4540241,E,4,55,0.50,15.966,M,15.25,M,1,3335*43
$GNRMC,043304.000,A,2500.7795376,N,12132.4540241,E,0.02,148.55,270623,,,R,V*1C
$GPHDT,,T*1B
$GNGGA,043304.200,2500.7795351,N,12132.4540264,E,4,54,0.50,15.958,M,15.25,M,1,3335*4F
$GNRMC,043304.200,A,2500.7795351,N,12132.4540264,E,0.01,148.55,270623,,,R,V*1F
$GPHDT,,T*1B
$GNGGA,043304.400,2500.7795337,N,12132.4540262,E,4,54,0.50,15.937,M,15.25,M,1,3335*46
$GNRMC,043304.400,A,2500.7795337,N,12132.4540262,E,0.01,148.55,270623,,,R,V*1F
