$FW : RTK35X,V1.1X0314AS,Lib20210517,1*54
$Tool : LOCOSYS , GNSS Firebird , v1.0.0.19*39
$---------------------------------------------------*2D
$GPHDT,,T*1B
$GNGSA,A,3,19,196,195,199,17,06,20,09,194,12,05,04,1.02,0.51,0.88,1*09
$GNGSA,A,3,68,69,82,67,,,,,,,,,1.02,0.51,0.88,2*0F
$GNGSA,A,3,10,04,12,11,24,19,25,,,,,,1.02,0.51,0.88,3*0B
$GNGSA,A,3,33,40,07,10,08,28,14,43,13,41,42,11,1.02,0.51,0.88,4*00
$GPGSV,4,1,15,19,70,090,41,196,70,116,41,195,69,052,41,199,60,167,33,1*5B
$GPGSV,4,2,15,50,60,167,34,17,53,119,41,06,49,013,27,20,44,252,43,1*62
$GPGSV,4,3,15,09,37,078,39,11,36,308,19,194,32,174,26,12,25,300,17,1*53
$GPGSV,4,4,15,05,20,233,29,04,16,052,18,14,07,170,,1*57
$GPGSV,2,1,08,196,70,116,47,195,69,052,44,199,60,167,38,06,49,013,30,8*59
$GPGSV,2,2,08,09,37,078,35,11,36,308,25,194,32,174,29,04,16,052,11,8*58
$GLGSV,2,1,06,68,71,102,43,83,42,011,,69,35,185,17,82,34,070,35,1*73
$GLGSV,2,2,06,67,31,035,32,73,16,263,,1*7E
$GAGSV,2,1,08,10,50,000,18,04,44,141,32,12,44,039,17,11,40,321,31,7*7D
$GAGSV,2,2,08,24,37,223,37,19,31,065,31,25,29,288,27,33,08,081,19,7*77
$GAGSV,2,1,08,10,50,000,29,04,44,141,43,12,44,039,17,11,40,321,35,1*7B
$GAGSV,2,2,08,24,37,223,39,19,31,065,25,25,29,288,22,33,08,081,20,1*75
$GBGSV,4,1,14,33,76,087,40,40,74,181,41,07,71,223,38,10,69,260,38,1*7E
$GBGSV,4,2,14,08,54,291,34,28,51,342,37,14,50,049,25,43,48,088,38,1*74
$GBGSV,4,3,14,13,47,276,40,41,42,202,43,42,25,041,30,11,24,102,41,1*71
$GBGSV,4,4,14,37,09,254,,23,07,206,,1*7F
$GBGSV,2,1,06,33,76,087,46,40,74,181,44,28,51,342,30,43,48,088,37,4*72
$GBGSV,2,2,06,41,42,202,44,42,25,041,31,4*70
$GNGGA,043416.000,2500.7798744,N,12132.4547040,E,2,55,0.51,14.573,M,15.25,M,1,3335*45
$GNRMC,043416.000,A,2500.7798744,N,12132.4547040,E,0.00,148.55,270623,,,D,V*00
$GPHDT,,T*1B
$GNGGA,043416.200,2500.7798804,N,12132.4547280,E,2,55,0.51,14.541,M,15.25,M,1,3335*43
$GNRMC,043416.200,A,2500.7798804,N,12132.4547280,E,0.00,148.55,270623,,,D,V*07
$GPHDT,,T*1B
$GNGGA,043416.400,2500.7798864,N,12132.4547520,E,2,55,0.51,14.505,M,15.25,M,1,3335*4E
$GNRMC,043416.400,A,2500.7798864,N,12132.4547520,E,0.00,148.55,270623,,,D,V*0A
$GPHDT,,T*1B
$GNGGA,043416.600,2500.7798924,N,12132.4547820,E,2,54,0.53,14.468,M,15.25,M,1,3335*4D
$GNRMC,043416.600,A,2500.7798924,N,12132.4547820,E,0.00,148.55,270623,,,D,V*00
$GPHDT,,T*1B
$GNGGA,043416.800,2500.7798924,N,12132.4548060,E,2,54,0.53,14.419,M,15.25,M,0,3335*47
$GNRMC,043416.800,A,2500.7798924,N,12132.4548060,E,0.00,148.55,270623,,,D,V*0D
$GPHDT,,T*1B
$GNGSA,A,3,196,19,195,199,17,06,20,09,194,12,05,04,1.02,0.51,0.88,1*09
$GNGSA,A,3,68,69,82,67,,,,,,,,,1.02,0.51,0.88,2*0F
$GNGSA,A,3,10,04,12,11,24,19,25,,,,,,1.02,0.51,0.88,3*0B
$GNGSA,A,3,33,40,07,10,08,28,14,43,13,41,42,11,1.02,0.51,0.88,4*00
$GPGSV,4,1,15,196,70,116,41,19,70,090,41,195,69,052,41,199,60,167,33,1*5B
$GPGSV,4,2,15,50,60,167,35,17,53,119,41,06,49,013,27,20,44,252,43,1*63
$GPGSV,4,3,15,09,37,078,39,11,36,308,19,194,32,174,25,12,25,300,19,1*5E
$GPGSV,4,4,15,05,20,233,29,04,16,052,16,14,07,170,,1*59
$GPGSV,2,1,07,196,70,116,48,195,69,052,44,199,60,167,38,06,49,013,29,8*51
$GPGSV,2,2,07,09,37,078,35,194,32,174,28,04,16,052,12,8*6C
$GLGSV,2,1,06,68,71,102,43,83,42,011,,69,35,185,16,82,34,070,35,1*72
$GLGSV,2,2,06,67,31,035,31,73,16,263,,1*7D
$GAGSV,3,1,09,10,50,000,17,04,44,141,32,12,44,039,16,11,40,321,32,7*70
$GAGSV,3,2,09,24,37,223,37,19,31,065,32,25,29,288,26,09,13,188,,7*76
$GAGSV,3,3,09,33,08,081,19,7*43
$GAGSV,2,1,08,10,50,000,29,12,44,039,18,04,44,141,43,11,40,321,35,1*74
$GAGSV,2,2,08,24,37,223,39,19,31,065,25,25,29,288,21,33,08,081,20,1*76
$GBGSV,4,1,14,33,76,087,40,40,74,181,41,07,71,223,38,10,69,260,38,1*7E
$GBGSV,4,2,14,08,54,291,34,28,51,342,38,14,50,049,25,43,48,088,39,1*7A
$GBGSV,4,3,14,13,47,276,39,41,42,202,43,42,25,041,30,11,24,102,41,1*7F
$GBGSV,4,4,14,37,09,254,,34,07,114,,1*79
$GBGSV,2,1,06,33,76,087,46,40,74,181,44,28,51,342,31,43,48,088,37,4*73
$GBGSV,2,2,06,41,42,202,44,42,25,041,31,4*70
$GNGGA,043417.000,2500.7798924,N,12132.4548300,E,2,55,0.51,14.377,M,15.25,M,1,3335*46
$GNRMC,043417.000,A,2500.7798924,N,12132.4548300,E,0.00,148.55,270623,,,D,V*01
$GPHDT,,T*1B
$GNGGA,043417.200,2500.7798984,N,12132.4548540,E,2,55,0.51,14.326,M,15.25,M,1,3335*48
$GNRMC,043417.200,A,2500.7798984,N,12132.4548540,E,0.00,148.55,270623,,,D,V*0B
$GPHDT,,T*1B
$GNGGA,043417.400,2500.7790864,N,12132.4546339,E,4,55,0.51,10.853,M,15.25,M,1,3335*44
$GNRMC,043417.400,A,2500.7790864,N,12132.4546339,E,0.00,148.55,270623,,,R,V*1A
$GPHDT,,T*1B
$GNGGA,043417.600,2500.7790862,N,12132.4546342,E,4,54,0.51,10.850,M,15.25,M,1,3335*4E
$GNRMC,043417.600,A,2500.7790862,N,12132.4546342,E,0.00,148.55,270623,,,R,V*12
$GPHDT,,T*1B
$GNGGA,043417.800,2500.7790860,N,12132.4546344,E,4,55,0.49,10.831,M,15.25,M,0,3335*4A
$GNRMC,043417.800,A,2500.7790860,N,12132.4546344,E,0.00,148.55,270623,,,R,V*18
$GPHDT,,T*1B
$GNGSA,A,3,19,196,195,199,17,06,20,09,194,12,05,04,1.01,0.49,0.88,1*03
$GNGSA,A,3,11,,,,,,,,,,,,1.01,0.49,0.88,1*0C
$GNGSA,A,3,68,69,82,67,,,,,,,,,1.01,0.49,0.88,2*05
$GNGSA,A,3,10,12,04,11,24,19,25,,,,,,1.01,0.49,0.88,3*01
$GNGSA,A,3,33,40,07,10,08,28,14,43,13,41,42,11,1.01,0.49,0.88,4*0A
$GPGSV,4,1,15,19,70,090,41,196,70,116,41,195,69,052,41,199,60,167,32,1*5A
$GPGSV,4,2,15,50,60,167,34,17,53,119,41,06,49,013,27,20,44,252,43,1*62
$GPGSV,4,3,15,09,37,078,39,11,36,308,17,194,32,174,25,12,25,300,17,1*5E
$GPGSV,4,4,15,05,20,233,29,04,16,052,15,14,07,170,,1*5A
$GPGSV,2,1,07,196,70,116,48,195,69,052,44,199,60,167,38,06,49,013,29,8*51
$GPGSV,2,2,07,09,37,078,36,11,36,308,30,194,32,174,28,8*65
$GLGSV,2,1,07,68,71,102,43,83,42,011,,69,35,185,18,82,34,070,36,1*7E
$GLGSV,2,2,07,67,31,035,32,73,16,263,,74,08,306,,1*41
$GAGSV,3,1,09,10,50,000,17,12,44,039,17,04,44,141,33,11,40,321,32,7*70
$GAGSV,3,2,09,24,37,223,37,19,31,065,31,25,29,288,25,09,13,188,,7*76
$GAGSV,3,3,09,33,08,081,19,7*43
$GAGSV,2,1,08,10,50,000,29,12,44,039,16,04,44,141,43,11,40,321,35,1*7A
$GAGSV,2,2,08,24,37,223,38,19,31,065,24,25,29,288,24,33,08,081,20,1*73
$GBGSV,4,1,15,33,76,087,40,40,74,181,41,07,71,223,38,10,69,260,38,1*7F
$GBGSV,4,2,15,08,54,291,34,28,51,342,37,14,50,049,25,43,48,088,39,1*74
$GBGSV,4,3,15,13,47,276,39,41,42,202,43,42,25,041,31,11,24,102,41,1*7F
$GBGSV,4,4,15,37,09,254,,23,07,206,,34,07,114,,1*4A
$GBGSV,2,1,06,33,76,087,46,40,74,181,44,28,51,342,30,43,48,088,37,4*72
$GBGSV,2,2,06,41,42,202,44,42,25,041,30,4*71
$GNGGA,043418.000,2500.7790858,N,12132.4546347,E,4,55,0.49,10.829,M,15.25,M,1,3335*4D
$GNRMC,043418.000,A,2500.7790858,N,12132.4546347,E,0.00,148.55,270623,,,R,V*17
$GPHDT,,T*1B
$GNGGA,043418.200,2500.7790865,N,12132.4546333,E,4,55,0.49,10.828,M,15.25,M,1,3335*43
$GNRMC,043418.200,A,2500.7790865,N,12132.4546333,E,0.00,148.55,270623,,,R,V*18
$GPHDT,,T*1B
$GNGGA,043418.400,2500.7790860,N,12132.4546366,E,4,55,0.49,10.836,M,15.25,M,1,3335*4F
$GNRMC,043418.400,A,2500.7790860,N,12132.4546366,E,0.00,148.55,270623,,,R,V*1B
$GPHDT,,T*1B
$GNGGA,043418.600,2500.7790841,N,12132.4546353,E,4,54,0.49,10.827,M,15.25,M,1,3335*49
$GNRMC,043418.600,A,2500.7790841,N,12132.4546353,E,0.00,148.55,270623,,,R,V*1C
$GPHDT,,T*1B
$GNGGA,043418.800,2500.7790877,N,12132.4546339,E,4,53,0.49,10.839,M,15.25,M,0,3335*47
$GNRMC,043418.800,A,2500.7790877,N,12132.4546339,E,0.00,148.55,270623,,,R,V*1B
$GPHDT,,T*1B
$GNGSA,A,3,19,196,195,199,17,06,20,09,194,12,05,04,1.01,0.49,0.88,1*03
$GNGSA,A,3,11,,,,,,,,,,,,1.01,0.49,0.88,1*0C
$GNGSA,A,3,68,69,82,67,,,,,,,,,1.01,0.49,0.88,2*05
$GNGSA,A,3,10,12,04,11,24,19,25,,,,,,1.01,0.49,0.88,3*01
$GNGSA,A,3,33,40,07,10,08,28,14,43,13,41,42,11,1.01,0.49,0.88,4*0A
$GPGSV,4,1,15,19,70,090,41,196,70,116,41,195,69,052,41,199,60,167,32,1*5A
$GPGSV,4,2,15,50,60,167,34,17,53,119,41,06,49,013,24,20,44,252,43,1*61
$GPGSV,4,3,15,09,37,078,39,11,36,308,16,194,32,174,23,12,25,300,20,1*5D
$GPGSV,4,4,15,05,20,233,29,04,16,052,16,14,07,170,,1*59
$GPGSV,2,1,07,196,70,116,48,195,69,052,44,199,60,167,39,06,49,013,31,8*59
$GPGSV,2,2,07,09,37,078,37,11,36,308,26,194,32,174,31,8*6B
$GLGSV,2,1,07,68,71,102,43,83,42,011,,69,35,185,17,82,34,070,36,1*71
$GLGSV,2,2,07,67,31,035,32,73,16,263,,74,08,306,,1*41
$GAGSV,3,1,09,10,50,000,17,12,44,039,17,04,44,141,34,11,40,321,32,7*77
$GAGSV,3,2,09,24,37,223,37,19,31,065,29,25,29,288,26,09,13,188,,7*7C
$GAGSV,3,3,09,33,08,081,20,7*49
$GAGSV,2,1,07,10,50,000,28,04,44,141,43,11,40,321,35,24,37,223,38,1*70
$GAGSV,2,2,07,19,31,065,27,25,29,288,24,33,08,081,20,1*45
$GBGSV,4,1,15,33,76,087,39,40,74,181,41,07,71,223,38,10,69,260,38,1*71
$GBGSV,4,2,15,08,54,291,33,28,51,342,38,14,50,049,25,43,48,088,39,1*7C
$GBGSV,4,3,15,13,47,276,39,41,42,202,43,42,25,041,33,11,24,102,42,1*7E
$GBGSV,4,4,15,37,09,254,,23,07,206,,34,07,114,,1*4A
$GBGSV,2,1,06,33,76,087,46,40,74,181,44,28,51,342,30,43,48,088,37,4*72
$GBGSV,2,2,06,41,42,202,44,42,25,041,30,4*71
$GNGGA,043419.000,2500.7790871,N,12132.4546347,E,4,54,0.49,10.829,M,15.25,M,1,3335*46
$GNRMC,043419.000,A,2500.7790871,N,12132.4546347,E,0.00,148.55,270623,,,R,V*1D
$GPHDT,,T*1B
$GNGGA,043419.200,2500.7790875,N,12132.4546314,E,4,54,0.49,10.843,M,15.25,M,1,3335*4A
$GNRMC,043419.200,A,2500.7790875,N,12132.4546314,E,0.00,148.55,270623,,,R,V*1D
$GPHDT,,T*1B
$GNGGA,043419.400,2500.7790891,N,12132.4546333,E,4,55,0.49,10.839,M,15.25,M,1,3335*4F
$GNRMC,043419.400,A,2500.7790891,N,12132.4546333,E,0.00,148.55,270623,,,R,V*14
$GPHDT,,T*1B
$GNGGA,043419.600,2500.7790884,N,12132.4546338,E,4,55,0.49,10.833,M,15.25,M,1,3335*48
$GNRMC,043419.600,A,2500.7790884,N,12132.4546338,E,0.00,148.55,270623,,,R,V*19
$GPHDT,,T*1B
$GNGGA,043419.800,2500.7790854,N,12132.4546333,E,4,56,0.49,10.839,M,15.25,M,0,3335*48
$GNRMC,043419.800,A,2500.7790854,N,12132.4546333,E,0.00,148.55,270623,,,R,V*11
$GPHDT,,T*1B
$GNGSA,A,3,19,196,195,199,17,06,20,09,11,194,12,05,1.01,0.49,0.88,1*07
$GNGSA,A,3,04,,,,,,,,,,,,1.01,0.49,0.88,1*08
$GNGSA,A,3,68,69,82,67,,,,,,,,,1.01,0.49,0.88,2*05
$GNGSA,A,3,10,12,04,11,24,19,25,,,,,,1.01,0.49,0.88,3*01
$GNGSA,A,3,33,40,07,10,08,28,14,43,13,41,42,11,1.01,0.49,0.88,4*0A
$GPGSV,4,1,15,19,70,090,41,196,70,116,41,195,69,052,41,199,60,167,33,1*5B
$GPGSV,4,2,15,50,60,167,34,17,53,119,40,06,49,013,25,20,44,252,43,1*61
$GPGSV,4,3,15,09,37,078,39,11,36,308,22,194,32,174,28,12,25,300,19,1*5B
$GPGSV,4,4,15,05,20,233,30,04,16,052,18,14,07,170,,1*5F
$GPGSV,2,1,07,196,70,116,48,195,69,052,44,199,60,167,40,06,49,013,31,8*57
$GPGSV,2,2,07,09,37,078,35,11,36,308,28,194,32,174,36,8*60
$GLGSV,2,1,07,68,71,102,43,83,42,011,,69,35,185,17,82,34,070,36,1*71
$GLGSV,2,2,07,67,31,035,31,73,16,263,,74,08,306,,1*42
$GAGSV,3,1,09,10,50,000,17,12,44,039,19,04,44,141,33,11,40,321,28,7*75
$GAGSV,3,2,09,24,37,223,37,19,31,065,31,25,29,288,27,09,13,188,,7*74
$GAGSV,3,3,09,33,08,081,22,7*4B
$GAGSV,2,1,08,10,50,000,25,12,44,039,20,04,44,141,43,11,40,321,35,1*73
$GAGSV,2,2,08,24,37,223,38,19,31,065,24,25,29,288,24,33,08,081,18,1*78
$GBGSV,4,1,15,33,76,087,40,40,74,181,41,07,71,223,37,10,69,260,38,1*70
$GBGSV,4,2,15,08,54,291,33,28,51,342,39,14,50,049,26,43,48,088,39,1*7E
$GBGSV,4,3,15,13,47,276,39,41,42,202,43,42,25,041,32,11,24,102,42,1*7F
$GBGSV,4,4,15,37,09,254,,23,07,206,,34,07,114,,1*4A
$GBGSV,2,1,06,33,76,087,46,40,74,181,44,28,51,342,32,43,48,088,37,4*70
$GBGSV,2,2,06,41,42,202,44,42,25,041,29,4*79
$GNGGA,043420.000,2500.7790822,N,12132.4546320,E,4,56,0.49,10.832,M,15.25,M,1,3335*43
$GNRMC,043420.000,A,2500.7790822,N,12132.4546320,E,0.00,148.55,270623,,,R,V*10
$GPHDT,,T*1B
$GNGGA,043420.200,2500.7790850,N,12132.4546356,E,4,56,0.49,10.827,M,15.25,M,1,3335*41
$GNRMC,043420.200,A,2500.7790850,N,12132.4546356,E,0.00,148.55,270623,,,R,V*16
$GPHDT,,T*1B
$GNGGA,043420.400,2500.7790862,N,12132.4546357,E,4,56,0.49,10.846,M,15.25,M,1,3335*40
$GNRMC,043420.400,A,2500.7790862,N,12132.4546357,E,0.00,148.55,270623,,,R,V*10
$GPHDT,,T*1B
$GNGGA,043420.600,2500.7790849,N,12132.4546348,E,4,53,0.51,10.842,M,15.25,M,1,3335*4D
$GNRMC,043420.600,A,2500.7790849,N,12132.4546348,E,0.00,148.55,270623,,,R,V*15
$GPHDT,,T*1B
$GNGGA,043420.800,2500.7790845,N,12132.4546349,E,4,54,0.49,10.837,M,15.25,M,1,3335*42
$GNRMC,043420.800,A,2500.7790845,N,12132.4546349,E,0.00,148.55,270623,,,R,V*16
$GPHDT,,T*1B
$GNGSA,A,3,19,196,195,199,17,06,20,09,12,05,04,11,1.01,0.49,0.88,1*3F
$GNGSA,A,3,194,,,,,,,,,,,,1.01,0.49,0.88,1*30
$GNGSA,A,3,68,69,82,67,,,,,,,,,1.01,0.49,0.88,2*05
$GNGSA,A,3,10,12,04,11,24,19,25,,,,,,1.01,0.49,0.88,3*01
$GNGSA,A,3,33,40,07,10,08,28,14,43,13,41,42,11,1.01,0.49,0.88,4*0A
$GPGSV,4,1,15,19,70,090,41,196,70,116,41,195,69,052,41,199,60,167,31,1*59
$GPGSV,4,2,15,50,60,167,33,17,53,119,40,06,49,013,26,20,44,252,43,1*65
$GPGSV,4,3,15,09,37,078,39,11,36,308,19,194,32,174,19,12,25,300,21,1*5A
$GPGSV,4,4,15,05,20,233,30,04,16,052,16,14,07,170,,1*51
$GPGSV,2,1,07,196,70,116,47,195,69,052,44,199,60,167,40,06,49,013,31,8*58
$GPGSV,2,2,07,09,37,078,35,11,36,308,28,194,32,174,32,8*64
$GLGSV,2,1,07,68,71,102,43,83,42,011,,69,35,185,16,82,34,070,36,1*70
$GLGSV,2,2,07,67,31,035,32,73,16,263,,74,08,306,,1*41
$GAGSV,3,1,09,10,50,000,17,12,44,039,21,04,44,141,34,11,40,321,30,7*70
$GAGSV,3,2,09,24,37,223,37,19,31,065,30,25,29,288,28,09,13,188,,7*7A
$GAGSV,3,3,09,33,08,081,22,7*4B
$GAGSV,2,1,08,10,50,000,26,12,44,039,18,04,44,141,43,11,40,321,35,1*7B
$GAGSV,2,2,08,24,37,223,38,19,31,065,27,25,29,288,23,33,08,081,18,1*7C
$GBGSV,4,1,15,33,76,087,39,40,74,181,41,07,71,223,37,10,69,260,38,1*7E
$GBGSV,4,2,15,08,54,291,33,28,51,342,38,14,50,049,26,43,48,088,40,1*71
$GBGSV,4,3,15,13,47,276,39,41,42,202,43,42,25,041,33,11,24,102,42,1*7E
$GBGSV,4,4,15,37,09,254,,23,07,206,,34,07,114,,1*4A
$GBGSV,2,1,06,33,76,087,46,40,74,181,44,28,51,342,31,43,48,088,37,4*73
$GBGSV,2,2,06,41,42,202,44,42,25,041,29,4*79
$GNGGA,043421.000,2500.7790841,N,12132.4546336,E,4,54,0.49,10.832,M,15.25,M,1,3335*42
$GNRMC,043421.000,A,2500.7790841,N,12132.4546336,E,0.00,148.55,270623,,,R,V*13
$GPHDT,,T*1B
$GNGGA,043421.200,2500.7790884,N,12132.4546306,E,4,54,0.49,10.818,M,15.25,M,1,3335*42
$GNRMC,043421.200,A,2500.7790884,N,12132.4546306,E,0.00,148.55,270623,,,R,V*1B
$GPHDT,,T*1B
$GNGGA,043421.400,2500.7790850,N,12132.4546318,E,4,54,0.49,10.820,M,15.25,M,1,3335*49
$GNRMC,043421.400,A,2500.7790850,N,12132.4546318,E,0.00,148.55,270623,,,R,V*1B
$GPHDT,,T*1B
$GNGGA,043421.600,2500.7790853,N,12132.4546322,E,4,54,0.49,10.822,M,15.25,M,1,3335*43
$GNRMC,043421.600,A,2500.7790853,N,12132.4546322,E,0.00,148.55,270623,,,R,V*13
$GPHDT,,T*1B
$GNGGA,043421.800,2500.7790860,N,12132.4546307,E,4,54,0.49,10.816,M,15.25,M,1,3335*4D
$GNRMC,043421.800,A,2500.7790860,N,12132.4546307,E,0.00,148.55,270623,,,R,V*1A
$GPHDT,,T*1B
$GNGSA,A,3,19,196,195,199,17,06,20,09,12,05,04,11,1.01,0.49,0.88,1*3F
$GNGSA,A,3,194,,,,,,,,,,,,1.01,0.49,0.88,1*30
$GNGSA,A,3,68,69,82,67,,,,,,,,,1.01,0.49,0.88,2*05
$GNGSA,A,3,10,04,12,11,24,19,25,,,,,,1.01,0.49,0.88,3*01
$GNGSA,A,3,33,40,07,10,08,28,14,43,13,41,42,11,1.01,0.49,0.88,4*0A
$GPGSV,4,1,15,19,70,090,41,196,70,116,41,195,69,052,41,199,60,167,32,1*5A
$GPGSV,4,2,15,50,60,167,35,17,53,119,40,06,49,013,29,20,44,252,43,1*6C
$GPGSV,4,3,15,09,37,078,39,11,36,308,17,194,32,174,20,12,25,300,21,1*5E
$GPGSV,4,4,15,05,20,233,30,04,16,052,16,14,07,170,,1*51
$GPGSV,2,1,07,196,70,116,47,195,69,052,44,199,60,167,40,06,49,013,31,8*58
$GPGSV,2,2,07,09,37,078,35,11,36,308,28,194,32,174,29,8*6E
$GLGSV,2,1,07,68,71,102,43,83,42,011,,69,35,185,15,82,34,070,36,1*73
$GLGSV,2,2,07,67,31,035,33,84,08,314,,74,08,306,,1*46
$GAGSV,3,1,10,10,50,000,18,04,44,141,34,12,44,039,24,11,40,321,31,7*73
$GAGSV,3,2,10,24,37,223,37,19,31,065,31,25,29,288,27,09,13,188,,7*7C
$GAGSV,3,3,10,33,08,081,23,36,05,285,,7*7D
$GAGSV,2,1,08,10,50,000,25,12,44,039,18,04,44,141,43,11,40,321,34,1*79
$GAGSV,2,2,08,24,37,223,38,19,31,065,27,25,29,288,24,33,08,081,18,1*7B
$GBGSV,4,1,15,33,76,087,39,40,74,181,41,07,71,223,37,10,69,260,38,1*7E
$GBGSV,4,2,15,08,54,291,31,28,51,342,38,14,50,049,24,43,48,088,40,1*71
$GBGSV,4,3,15,13,47,276,39,41,42,202,43,42,25,041,33,11,24,102,42,1*7E
$GBGSV,4,4,15,37,09,254,,34,07,114,,39,07,174,,1*47
$GBGSV,2,1,06,33,76,087,46,40,74,181,44,28,51,342,31,43,48,088,36,4*72
$GBGSV,2,2,06,41,42,202,44,42,25,041,29,4*79
$GNGGA,043422.000,2500.7790827,N,12132.4546303,E,4,54,0.49,10.814,M,15.25,M,1,3335*43
$GNRMC,043422.000,A,2500.7790827,N,12132.4546303,E,0.00,148.55,270623,,,R,V*16
$GPHDT,,T*1B
$GNGGA,043422.200,2500.7790841,N,12132.4546319,E,4,54,0.49,10.813,M,15.25,M,1,3335*4D
$GNRMC,043422.200,A,2500.7790841,N,12132.4546319,E,0.00,148.55,270623,,,R,V*1F
$GPHDT,,T*1B
$GNGGA,043422.400,2500.7790835,N,12132.4546299,E,4,54,0.49,10.814,M,15.25,M,1,3335*46
$GNRMC,043422.400,A,2500.7790835,N,12132.4546299,E,0.00,148.55,270623,,,R,V*13
$GPHDT,,T*1B
$GNGGA,043422.600,2500.7790875,N,12132.4546338,E,4,54,0.49,10.812,M,15.25,M,0,3335*4D
$GNRMC,043422.600,A,2500.7790875,N,12132.4546338,E,0.00,148.55,270623,,,R,V*1F
$GPHDT,,T*1B
$GNGGA,043422.800,2500.7790828,N,12132.4546342,E,4,54,0.49,10.813,M,15.25,M,0,3335*47
$GNRMC,043422.800,A,2500.7790828,N,12132.4546342,E,0.00,148.55,270623,,,R,V*14
$GPHDT,,T*1B
$GNGSA,A,3,19,196,195,199,17,06,20,09,12,05,04,11,1.01,0.49,0.88,1*3F
$GNGSA,A,3,194,,,,,,,,,,,,1.01,0.49,0.88,1*30
$GNGSA,A,3,68,69,82,67,,,,,,,,,1.01,0.49,0.88,2*05
$GNGSA,A,3,10,04,12,11,24,19,25,,,,,,1.01,0.49,0.88,3*01
$GNGSA,A,3,33,40,07,10,08,28,14,43,13,41,42,11,1.01,0.49,0.88,4*0A
$GPGSV,4,1,15,19,70,090,41,196,70,116,41,195,69,052,41,50,60,167,35,1*69
$GPGSV,4,2,15,199,60,167,32,17,53,119,40,06,49,013,30,20,44,252,43,1*57
$GPGSV,4,3,15,09,37,078,39,11,36,309,16,194,32,174,22,12,25,300,20,1*5D
$GPGSV,4,4,15,05,20,233,29,04,16,052,17,14,07,170,,1*58
$GPGSV,2,1,07,196,70,116,47,195,69,052,44,199,60,167,39,06,49,013,31,8*56
$GPGSV,2,2,07,09,37,078,35,11,36,309,28,194,32,174,29,8*6F
$GLGSV,2,1,06,68,71,102,43,83,42,011,,69,35,185,15,82,34,070,36,1*72
$GLGSV,2,2,06,67,31,035,29,84,08,314,,1*72
$GAGSV,3,1,10,10,50,000,18,04,44,141,34,12,44,039,24,11,40,321,32,7*70
$GAGSV,3,2,10,24,37,223,37,19,31,065,31,25,29,288,26,09,13,188,,7*7D
$GAGSV,3,3,10,33,08,081,23,36,05,285,,7*7D
$GAGSV,2,1,08,10,50,000,24,12,44,039,18,04,44,141,43,11,40,321,34,1*78
$GAGSV,2,2,08,24,37,223,38,19,31,065,27,25,29,288,25,33,08,081,19,1*7B
$GBGSV,4,1,13,33,76,087,39,40,74,181,41,07,71,223,37,10,69,260,38,1*78
$GBGSV,4,2,13,08,54,291,33,28,51,342,38,14,50,049,26,43,48,088,40,1*77
$GBGSV,4,3,13,13,47,276,39,41,42,202,43,42,25,041,33,11,24,102,42,1*78
$GBGSV,4,4,13,37,09,254,,1*4A
$GBGSV,2,1,06,33,76,087,46,40,74,181,44,28,51,342,31,43,48,088,36,4*72
$GBGSV,2,2,06,41,42,202,44,42,25,041,30,4*71
$GNGGA,043423.000,2500.7790864,N,12132.4546365,E,4,54,0.49,10.817,M,15.25,M,1,3335*46
$GNRMC,043423.000,A,2500.7790864,N,12132.4546365,E,0.00,148.55,270623,,,R,V*10
$PAIR010,0,1,2268,189281*3F
$GPHDT,,T*1B
$GNGGA,043423.200,2500.7790875,N,12132.4546341,E,4,54,0.49,10.812,M,15.25,M,1,3335*47
$GNRMC,043423.200,A,2500.7790875,N,12132.4546341,E,0.00,148.55,270623,,,R,V*14
$GPHDT,,T*1B
$GNGGA,043423.400,2500.7790857,N,12132.4546346,E,4,55,0.49,10.809,M,15.25,M,1,3335*4D
$GNRMC,043423.400,A,2500.7790857,N,12132.4546346,E,0.00,148.55,270623,,,R,V*15
$GPHDT,,T*1B
$GNGGA,043423.600,2500.7790849,N,12132.4546335,E,4,55,0.49,10.809,M,15.25,M,1,3335*44
$GNRMC,043423.600,A,2500.7790849,N,12132.4546335,E,0.00,148.55,270623,,,R,V*1C
$GPHDT,,T*1B
$GNGGA,043423.800,2500.7790856,N,12132.4546340,E,4,55,0.51,10.799,M,15.25,M,1,3335*49
$GNRMC,043423.800,A,2500.7790856,N,12132.4546340,E,0.00,148.55,270623,,,R,V*1E
$GPHDT,,T*1B
$GNGSA,A,3,196,19,195,199,17,06,20,09,11,194,12,05,1.03,0.51,0.89,1*0D
$GNGSA,A,3,04,,,,,,,,,,,,1.03,0.51,0.89,1*02
$GNGSA,A,3,68,82,67,,,,,,,,,,1.03,0.51,0.89,2*00
$GNGSA,A,3,10,04,12,11,24,19,25,,,,,,1.03,0.51,0.89,3*0B
$GNGSA,A,3,33,40,07,10,08,28,14,43,13,41,42,11,1.03,0.51,0.89,4*00
$GPGSV,4,1,15,196,70,116,41,19,70,090,41,195,69,052,41,199,60,167,32,1*5A
$GPGSV,4,2,15,50,60,167,35,17,53,119,41,06,49,013,30,20,44,252,43,1*65
$GPGSV,4,3,15,09,37,078,39,11,36,309,24,194,32,174,30,12,25,300,21,1*5E
$GPGSV,4,4,15,05,20,233,29,04,16,052,16,14,06,170,,1*58
$GPGSV,2,1,07,196,70,116,47,195,69,052,44,199,60,167,39,06,49,013,31,8*56
$GPGSV,2,2,07,09,37,078,36,11,36,309,26,194,32,174,34,8*6E
$GLGSV,2,1,06,68,71,102,43,83,42,011,,69,35,185,16,82,34,070,36,1*71
$GLGSV,2,2,06,67,31,035,29,80,06,212,,1*7F
$GAGSV,3,1,09,10,50,000,15,04,44,141,34,12,44,039,24,11,40,321,31,7*76
$GAGSV,3,2,09,24,37,223,37,19,31,065,30,25,29,288,26,33,08,081,23,7*7E
$GAGSV,3,3,09,36,05,285,,7*45
$GAGSV,2,1,08,10,50,000,21,12,44,039,18,04,44,141,43,11,40,321,35,1*7C
$GAGSV,2,2,08,24,37,223,38,19,31,065,27,25,29,288,25,33,08,081,20,1*71
$GBGSV,4,1,14,33,76,087,40,40,74,181,41,07,71,223,37,10,69,260,38,1*71
$GBGSV,4,2,14,08,54,291,34,28,51,342,40,14,50,049,26,43,48,088,40,1*78
$GBGSV,4,3,14,13,47,276,39,41,42,202,43,42,25,041,33,11,24,102,42,1*7F
$GBGSV,4,4,14,37,09,254,,23,07,206,,1*7F
$GBGSV,2,1,06,33,76,087,45,40,74,181,44,28,51,342,34,43,48,088,37,4*75
$GBGSV,2,2,06,41,42,202,44,42,25,041,31,4*70
$GNGGA,043424.000,2500.7790854,N,12132.4546359,E,4,55,0.51,10.810,M,15.25,M,2,3335*41
$GNRMC,043424.000,A,2500.7790854,N,12132.4546359,E,0.00,148.55,270623,,,R,V*1B
$GPHDT,,T*1B
$GNGGA,043424.200,2500.7790842,N,12132.4546354,E,4,56,0.51,10.812,M,15.25,M,1,3335*4B
$GNRMC,043424.200,A,2500.7790842,N,12132.4546354,E,0.00,148.55,270623,,,R,V*13
$GPHDT,,T*1B
$GNGGA,043424.400,2500.7790863,N,12132.4546323,E,4,56,0.51,10.800,M,15.25,M,1,3335*4D
$GNRMC,043424.400,A,2500.7790863,N,12132.4546323,E,0.00,148.55,270623,,,R,V*16
$GPHDT,,T*1B
$GNGGA,043424.600,2500.7790866,N,12132.4546329,E,4,56,0.51,10.812,M,15.25,M,1,3335*43
$GNRMC,043424.600,A,2500.7790866,N,12132.4546329,E,0.00,148.55,270623,,,R,V*1B
$GPHDT,,T*1B
$GNGGA,043424.800,2500.7790836,N,12132.4546365,E,4,56,0.51,10.823,M,15.25,M,0,3335*43
$GNRMC,043424.800,A,2500.7790836,N,12132.4546365,E,0.00,148.55,270623,,,R,V*18
$GPHDT,,T*1B
$GNGSA,A,3,19,196,195,199,17,06,20,09,11,194,12,05,1.03,0.51,0.89,1*0D
$GNGSA,A,3,04,,,,,,,,,,,,1.03,0.51,0.89,1*02
$GNGSA,A,3,68,82,67,,,,,,,,,,1.03,0.51,0.89,2*00
$GNGSA,A,3,10,04,12,11,24,19,25,,,,,,1.03,0.51,0.89,3*0B
$GNGSA,A,3,33,40,07,10,08,28,14,43,13,41,42,11,1.03,0.51,0.89,4*00
$GPGSV,4,1,15,19,70,090,41,196,70,116,41,195,69,052,41,199,60,167,33,1*5B
$GPGSV,4,2,15,50,60,167,35,17,53,119,40,06,49,013,30,20,44,252,43,1*64
$GPGSV,4,3,15,09,37,078,39,11,36,309,28,194,32,174,30,12,25,300,20,1*53
$GPGSV,4,4,15,05,20,233,29,04,16,052,20,14,06,170,,1*5D
$GPGSV,2,1,08,196,70,116,47,195,69,052,44,199,60,167,40,06,49,013,30,8*56
$GPGSV,2,2,08,09,37,078,35,11,36,309,28,194,32,174,35,04,16,052,20,8*5B
$GLGSV,2,1,07,68,71,102,43,83,42,011,,69,35,185,17,82,34,070,36,1*71
$GLGSV,2,2,07,67,31,035,27,74,08,306,,80,06,212,,1*4E
$GAGSV,3,1,09,10,50,000,16,04,44,141,34,12,44,039,24,11,40,321,29,7*7C
$GAGSV,3,2,09,24,37,223,37,19,31,065,30,25,29,288,26,33,08,081,22,7*7F
$GAGSV,3,3,09,36,05,285,,7*45
$GAGSV,2,1,08,10,50,000,18,04,44,141,44,12,44,039,20,11,40,321,35,1*7A
$GAGSV,2,2,08,24,37,223,38,19,31,065,27,25,29,288,25,33,08,081,21,1*70
$GBGSV,4,1,13,33,76,087,40,40,74,181,41,07,71,223,38,10,69,260,38,1*79
$GBGSV,4,2,13,08,54,291,33,28,51,342,41,14,50,049,24,43,48,088,39,1*75
$GBGSV,4,3,13,13,47,276,39,41,42,202,43,42,25,041,33,11,24,102,42,1*78
$GBGSV,4,4,13,23,07,206,,1*46
$GBGSV,2,1,06,33,76,087,45,40,74,181,44,28,51,342,35,43,48,088,38,4*7B
$GBGSV,2,2,06,41,42,202,44,42,25,041,30,4*71
$GNGGA,043425.000,2500.7790861,N,12132.4546360,E,4,56,0.51,10.816,M,15.25,M,1,3335*4A
$GNRMC,043425.000,A,2500.7790861,N,12132.4546360,E,0.00,148.55,270623,,,R,V*16
$GPHDT,,T*1B
$GNGGA,043425.200,2500.7790855,N,12132.4546359,E,4,56,0.51,10.826,M,15.25,M,1,3335*46
$GNRMC,043425.200,A,2500.7790855,N,12132.4546359,E,0.00,148.55,270623,,,R,V*19
$GPHDT,,T*1B
$GNGGA,043425.400,2500.7790865,N,12132.4546359,E,4,56,0.51,10.825,M,15.25,M,1,3335*40
$GNRMC,043425.400,A,2500.7790865,N,12132.4546359,E,0.00,148.55,270623,,,R,V*1C
$GPHDT,,T*1B
$GNGGA,043425.600,2500.7790890,N,12132.4546350,E,4,56,0.51,10.821,M,15.25,M,1,3335*45
$GNRMC,043425.600,A,2500.7790890,N,12132.4546350,E,0.00,148.55,270623,,,R,V*1D
$GPHDT,,T*1B
$GNGGA,043425.800,2500.7790859,N,12132.4546341,E,4,56,0.51,10.828,M,15.25,M,1,3335*47
$GNRMC,043425.800,A,2500.7790859,N,12132.4546341,E,0.00,148.55,270623,,,R,V*16
$GPHDT,,T*1B
$GNGSA,A,3,19,196,195,199,17,06,20,09,11,194,12,05,1.03,0.51,0.89,1*0D
$GNGSA,A,3,04,,,,,,,,,,,,1.03,0.51,0.89,1*02
$GNGSA,A,3,68,82,67,,,,,,,,,,1.03,0.51,0.89,2*00
$GNGSA,A,3,10,12,04,11,24,19,25,,,,,,1.03,0.51,0.89,3*0B
$GNGSA,A,3,33,40,07,10,08,28,14,43,13,41,42,11,1.03,0.51,0.89,4*00
$GPGSV,4,1,15,19,70,090,41,196,70,116,41,195,69,052,41,199,60,167,33,1*5B
$GPGSV,4,2,15,50,60,167,35,17,53,119,40,06,49,013,30,20,44,252,43,1*64
$GPGSV,4,3,15,09,37,078,37,11,36,309,27,194,32,174,30,12,25,300,22,1*50
$GPGSV,4,4,15,05,20,233,28,04,16,052,20,14,06,170,,1*5C
$GPGSV,2,1,08,196,70,116,47,195,69,052,44,199,60,167,40,06,49,013,30,8*56
$GPGSV,2,2,08,09,37,078,35,11,36,309,28,194,32,174,35,04,16,052,18,8*50
$GLGSV,2,1,08,68,71,102,43,83,42,011,,69,35,185,19,82,34,070,35,1*73
$GLGSV,2,2,08,67,31,035,25,84,08,314,,74,08,306,,80,06,212,,1*71
$GAGSV,3,1,09,10,50,000,16,12,44,039,25,04,44,141,35,11,40,321,29,7*7C
$GAGSV,3,2,09,24,37,223,37,19,31,065,30,25,29,288,24,33,08,081,23,7*7C
$GAGSV,3,3,09,36,05,285,,7*45
$GAGSV,2,1,08,10,50,000,17,04,44,141,44,12,44,039,20,11,40,321,36,1*76
$GAGSV,2,2,08,24,37,223,38,19,31,065,27,25,29,288,25,33,08,081,20,1*71
$GBGSV,4,1,14,33,76,087,40,40,74,181,41,07,71,223,38,10,69,260,38,1*7E
$GBGSV,4,2,14,08,54,291,33,28,51,342,41,14,50,049,24,43,48,088,39,1*72
$GBGSV,4,3,14,13,47,276,38,41,42,202,43,42,25,041,31,11,24,102,42,1*7C
$GBGSV,4,4,14,37,09,254,,23,07,206,,1*7F
$GBGSV,2,1,06,33,76,087,45,40,74,181,44,28,51,342,34,43,48,088,37,4*75
$GBGSV,2,2,06,41,42,202,44,42,25,041,31,4*70
$GNGGA,043426.000,2500.7790882,N,12132.4546333,E,4,56,0.51,10.818,M,15.25,M,2,3335*4F
$GNRMC,043426.000,A,2500.7790882,N,12132.4546333,E,0.00,148.55,270623,,,R,V*1E
$GPHDT,,T*1B
$GNGGA,043426.200,2500.7790882,N,12132.4546325,E,4,56,0.51,10.792,M,15.25,M,1,3335*44
$GNRMC,043426.200,A,2500.7790882,N,12132.4546325,E,0.00,148.55,270623,,,R,V*1B
$GPHDT,,T*1B
$GNGGA,043426.400,2500.7790889,N,12132.4546330,E,4,57,0.49,10.784,M,15.25,M,1,3335*42
$GNRMC,043426.400,A,2500.7790889,N,12132.4546330,E,0.00,148.55,270623,,,R,V*12
$GPHDT,,T*1B
$GNGGA,043426.600,2500.7790889,N,12132.4546330,E,4,57,0.49,10.802,M,15.25,M,1,3335*41
$GNRMC,043426.600,A,2500.7790889,N,12132.4546330,E,0.00,148.55,270623,,,R,V*10
$GPHDT,,T*1B
