$FW : RTK35X,V1.1X0314AS,Lib20210517,1*54
$Tool : LOCOSYS , GNSS Firebird , v1.0.0.19*39
$---------------------------------------------------*2D
$GNGGA,043342.400,2500.7795504,N,12132.4540680,E,2,53,0.52,15.839,M,15.25,M,1,3335*46
$GNRMC,043342.400,A,2500.7795504,N,12132.4540680,E,0.07,148.55,270623,,,D,V*03
$GPHDT,,T*1B
$GNGGA,043342.600,2500.7795504,N,12132.4540680,E,2,53,0.52,15.829,M,15.25,M,0,3335*44
$GNRMC,043342.600,A,2500.7795504,N,12132.4540680,E,0.04,148.55,270623,,,D,V*02
$GPHDT,,T*1B
$GNGGA,043342.800,2500.7795564,N,12132.4540740,E,2,53,0.52,15.823,M,15.25,M,0,3335*4B
$GNRMC,043342.800,A,2500.7795564,N,12132.4540740,E,0.04,148.55,270623,,,D,V*07
$GPHDT,,T*1B
$GNGSA,A,3,19,196,195,199,17,06,20,09,11,12,194,,0.88,0.52,0.71,1*0E
$GNGSA,A,3,68,69,82,67,,,,,,,,,0.88,0.52,0.71,2*09
$GNGSA,A,3,10,04,12,11,24,19,25,,,,,,0.88,0.52,0.71,3*0D
$GNGSA,A,3,33,40,07,10,08,28,14,43,13,41,42,11,0.88,0.52,0.71,4*06
$GPGSV,4,1,15,19,71,089,39,196,70,116,41,195,69,052,41,50,60,167,33,1*69
$GPGSV,4,2,15,199,60,167,31,17,53,118,43,06,49,012,29,20,44,251,43,1*5C
$GPGSV,4,3,15,09,37,078,33,11,36,308,34,194,32,174,21,12,24,301,17,1*51
$GPGSV,4,4,15,05,19,233,29,04,16,052,17,14,07,170,,1*52
$GPGSV,2,1,07,196,70,116,47,195,69,052,41,199,60,167,40,06,49,012,31,8*5C
$GPGSV,2,2,07,09,37,078,33,11,36,308,29,194,32,174,33,8*62
$GLGSV,2,1,06,68,71,103,42,83,42,010,12,69,35,185,19,82,34,069,22,1*71
$GLGSV,2,2,06,67,31,035,33,73,16,264,,1*78
$GAGSV,3,1,09,10,50,000,17,04,44,141,34,12,44,038,26,11,40,321,39,7*7F
$GAGSV,3,2,09,24,38,223,37,19,31,065,23,25,29,288,19,09,13,188,,7*75
$GAGSV,3,3,09,33,08,080,22,7*4A
$GAGSV,2,1,07,10,50,000,24,04,44,141,42,12,44,038,30,11,40,321,40,1*7E
$GAGSV,2,2,07,24,38,223,41,19,31,065,21,25,29,288,23,1*4C
$GBGSV,4,1,16,33,76,088,42,40,74,180,39,07,71,223,39,10,69,261,37,1*70
$GBGSV,4,2,16,08,54,291,37,28,51,342,41,14,50,049,29,43,48,087,37,1*78
$GBGSV,4,3,16,13,47,276,41,41,42,202,43,42,25,041,28,11,24,102,42,1*78
$GBGSV,4,4,16,37,09,254,,23,07,206,,34,07,114,,56,,,14,1*4F
$GBGSV,2,1,06,33,76,088,44,40,74,180,45,28,51,342,31,43,48,087,34,4*72
$GBGSV,2,2,06,41,42,202,45,42,25,041,33,4*73
$GNGGA,043343.000,2500.7795564,N,12132.4540740,E,2,53,0.52,15.822,M,15.25,M,1,3335*42
$GNRMC,043343.000,A,2500.7795564,N,12132.4540740,E,0.05,148.55,270623,,,D,V*0F
$GPHDT,,T*1B
$GNGGA,043343.200,2500.7795564,N,12132.4540680,E,2,53,0.52,15.819,M,15.25,M,1,3335*45
$GNRMC,043343.200,A,2500.7795564,N,12132.4540680,E,0.04,148.55,270623,,,D,V*01
$GPHDT,,T*1B
$GNGGA,043343.400,2500.7795564,N,12132.4540680,E,2,53,0.52,15.817,M,15.25,M,1,3335*4D
$GNRMC,043343.400,A,2500.7795564,N,12132.4540680,E,0.03,148.55,270623,,,D,V*00
$GPHDT,,T*1B
$GNGGA,043343.600,2500.7795624,N,12132.4540680,E,2,53,0.52,15.813,M,15.25,M,0,3335*4D
$GNRMC,043343.600,A,2500.7795624,N,12132.4540680,E,0.03,148.55,270623,,,D,V*05
$GPHDT,,T*1B
$GNGGA,043343.800,2500.7795624,N,12132.4540680,E,2,53,0.52,15.811,M,15.25,M,0,3335*41
$GNRMC,043343.800,A,2500.7795624,N,12132.4540680,E,0.07,148.55,270623,,,D,V*0F
$GPHDT,,T*1B
$GNGSA,A,3,19,196,195,199,17,06,20,09,11,12,194,,0.88,0.52,0.71,1*0E
$GNGSA,A,3,68,69,82,67,,,,,,,,,0.88,0.52,0.71,2*09
$GNGSA,A,3,10,04,12,11,24,19,25,,,,,,0.88,0.52,0.71,3*0D
$GNGSA,A,3,33,40,07,10,08,28,14,43,13,41,42,11,0.88,0.52,0.71,4*06
$GPGSV,4,1,15,19,71,089,38,196,70,116,42,195,69,052,41,50,60,167,33,1*6B
$GPGSV,4,2,15,199,60,167,31,17,53,118,43,06,49,012,29,20,44,251,43,1*5C
$GPGSV,4,3,15,09,37,078,37,11,36,308,33,194,32,174,22,12,24,301,18,1*5E
$GPGSV,4,4,15,05,19,233,28,04,16,052,16,14,07,170,,1*52
$GPGSV,2,1,07,196,70,116,47,195,69,052,42,199,60,167,40,06,49,012,29,8*56
$GPGSV,2,2,07,09,37,078,34,11,36,308,30,194,32,174,25,8*6A
$GLGSV,2,1,07,68,71,103,43,83,42,010,,69,35,185,19,82,34,069,18,1*7B
$GLGSV,2,2,07,67,31,035,33,73,16,264,,74,08,307,,1*46
$GAGSV,3,1,09,10,50,000,15,04,44,141,31,12,44,038,27,11,40,321,39,7*79
$GAGSV,3,2,09,24,38,223,37,19,31,065,21,25,29,288,20,09,13,188,,7*7D
$GAGSV,3,3,09,33,08,080,20,7*48
$GAGSV,2,1,07,10,50,000,24,04,44,141,42,12,44,038,34,11,40,321,39,1*74
$GAGSV,2,2,07,24,38,223,40,19,31,065,18,25,29,288,19,1*4E
$GBGSV,4,1,13,33,76,088,42,40,74,180,40,07,71,223,39,10,69,261,37,1*7B
$GBGSV,4,2,13,08,54,291,35,28,51,342,40,14,50,049,26,43,48,088,39,1*70
$GBGSV,4,3,13,13,47,276,40,41,42,202,43,42,25,041,29,11,24,102,42,1*7D
$GBGSV,4,4,13,37,09,254,,1*4A
$GBGSV,2,1,06,33,76,088,45,40,74,180,45,28,51,342,31,43,48,088,35,4*7D
$GBGSV,2,2,06,41,42,202,44,42,25,041,32,4*73
$GNGGA,043344.000,2500.7795624,N,12132.4540680,E,2,53,0.52,15.813,M,15.25,M,1,3335*4D
$GNRMC,043344.000,A,2500.7795624,N,12132.4540680,E,0.08,148.55,270623,,,D,V*0F
$GPHDT,,T*1B
$GNGGA,043344.200,2500.7795624,N,12132.4540740,E,2,54,0.52,15.811,M,15.25,M,1,3335*47
$GNRMC,043344.200,A,2500.7795624,N,12132.4540740,E,0.09,148.55,270623,,,D,V*01
$GPHDT,,T*1B
$GNGGA,043344.400,2500.7795624,N,12132.4540740,E,1,54,0.50,15.811,M,15.25,M,1,3335*40
$GNRMC,043344.400,A,2500.7795624,N,12132.4540740,E,0.07,148.55,270623,,,A,V*0C
$GPHDT,,T*1B
$GNGGA,043344.600,2500.7795624,N,12132.4540740,E,1,54,0.50,15.808,M,15.25,M,1,3335*4A
$GNRMC,043344.600,A,2500.7795624,N,12132.4540740,E,0.07,148.55,270623,,,A,V*0E
$GPHDT,,T*1B
$GNGGA,043344.800,2500.7795624,N,12132.4540740,E,1,55,0.50,15.801,M,15.25,M,0,3335*4D
$GNRMC,043344.800,A,2500.7795624,N,12132.4540740,E,0.05,148.55,270623,,,A,V*02
$GPHDT,,T*1B
$GNGSA,A,3,19,196,195,199,17,06,20,09,11,194,12,04,0.85,0.50,0.69,1*0C
$GNGSA,A,3,68,69,82,67,,,,,,,,,0.85,0.50,0.69,2*0F
$GNGSA,A,3,10,04,12,11,24,19,25,,,,,,0.85,0.50,0.69,3*0B
$GNGSA,A,3,33,40,07,10,08,28,14,43,13,41,42,11,0.85,0.50,0.69,4*00
$GPGSV,4,1,15,19,71,089,38,196,70,116,43,195,69,052,41,50,60,167,34,1*6D
$GPGSV,4,2,15,199,60,167,33,17,53,118,44,06,49,012,31,20,44,251,43,1*50
$GPGSV,4,3,15,09,37,078,30,11,36,308,34,194,32,174,25,12,24,301,20,1*52
$GPGSV,4,4,15,05,19,233,28,04,16,052,17,14,07,170,,1*53
$GPGSV,2,1,08,196,70,116,47,195,69,052,43,199,60,167,41,06,49,012,30,8*51
$GPGSV,2,2,08,09,37,078,33,11,36,308,29,194,32,174,26,04,16,052,21,8*5E
$GLGSV,2,1,07,68,71,103,42,83,42,010,,69,35,185,19,82,34,069,20,1*71
$GLGSV,2,2,07,67,31,035,31,73,16,264,,74,08,307,,1*44
$GAGSV,3,1,09,10,50,000,15,04,44,141,33,12,44,038,27,11,40,321,39,7*7B
$GAGSV,3,2,09,24,38,223,36,19,31,065,21,25,29,288,19,09,13,188,,7*76
$GAGSV,3,3,09,33,08,080,22,7*4A
$GAGSV,2,1,08,10,50,000,23,04,44,141,42,12,44,038,34,11,40,321,39,1*7C
$GAGSV,2,2,08,24,38,223,40,19,31,065,15,25,29,288,22,33,08,080,21,1*77
$GBGSV,4,1,13,33,76,088,41,40,74,180,38,07,71,223,39,10,69,261,37,1*77
$GBGSV,4,2,13,08,54,291,36,28,51,342,41,14,50,049,25,43,48,088,27,1*7E
$GBGSV,4,3,13,13,47,276,40,41,42,202,43,42,25,041,29,11,24,102,42,1*7D
$GBGSV,4,4,13,37,09,254,,1*4A
$GBGSV,2,1,06,33,76,088,45,40,74,180,45,28,51,342,34,43,48,088,34,4*79
$GBGSV,2,2,06,41,42,202,44,42,25,041,33,4*72
$GNGGA,043345.000,2500.7795624,N,12132.4540740,E,1,55,0.50,15.797,M,15.25,M,1,3335*45
$GNRMC,043345.000,A,2500.7795624,N,12132.4540740,E,0.12,148.55,270623,,,A,V*0D
$GPHDT,,T*1B
$GNGGA,043345.200,2500.7795684,N,12132.4540800,E,1,55,0.50,15.790,M,15.25,M,1,3335*41
$GNRMC,043345.200,A,2500.7795684,N,12132.4540800,E,0.09,148.55,270623,,,A,V*04
$GPHDT,,T*1B
$GNGGA,043345.400,2500.7795684,N,12132.4540800,E,1,55,0.50,15.785,M,15.25,M,1,3335*43
$GNRMC,043345.400,A,2500.7795684,N,12132.4540800,E,0.07,148.55,270623,,,A,V*0C
$GPHDT,,T*1B
$GNGGA,043345.600,2500.7795684,N,12132.4540800,E,1,54,0.52,15.780,M,15.25,M,0,3335*46
$GNRMC,043345.600,A,2500.7795684,N,12132.4540800,E,0.04,148.55,270623,,,A,V*0D
$GPHDT,,T*1B
$GNGGA,043345.800,2500.7795744,N,12132.4540740,E,1,54,0.52,15.777,M,15.25,M,0,3335*46
$GNRMC,043345.800,A,2500.7795744,N,12132.4540740,E,0.03,148.55,270623,,,A,V*02
$GPHDT,,T*1B
$GNGSA,A,3,19,196,195,199,17,06,20,09,11,12,194,,0.88,0.52,0.71,1*0E
$GNGSA,A,3,68,69,82,67,,,,,,,,,0.88,0.52,0.71,2*09
$GNGSA,A,3,10,04,12,11,24,19,25,,,,,,0.88,0.52,0.71,3*0D
$GNGSA,A,3,33,40,07,10,08,28,14,43,13,41,42,11,0.88,0.52,0.71,4*06
$GPGSV,4,1,15,19,71,089,38,196,70,116,43,195,69,052,41,50,60,167,34,1*6D
$GPGSV,4,2,15,199,60,167,33,17,53,118,44,06,49,012,32,20,44,251,43,1*53
$GPGSV,4,3,15,09,37,078,28,11,36,308,34,194,32,174,24,12,24,301,21,1*5B
$GPGSV,4,4,15,05,19,233,28,04,16,052,15,14,07,170,,1*51
$GPGSV,2,1,07,196,70,116,46,195,69,052,43,199,60,167,41,06,49,012,31,8*5E
$GPGSV,2,2,07,09,37,078,33,11,36,308,30,194,32,174,27,8*6F
$GLGSV,2,1,07,68,71,103,42,83,42,010,14,69,35,185,24,82,34,069,24,1*7E
$GLGSV,2,2,07,67,31,035,30,73,16,264,,74,08,307,,1*45
$GAGSV,3,1,09,10,50,000,16,04,44,141,34,12,44,038,26,11,40,321,39,7*7E
$GAGSV,3,2,09,24,38,223,36,19,31,065,21,25,29,288,21,09,13,188,,7*7D
$GAGSV,3,3,09,33,08,080,22,7*4A
$GAGSV,2,1,08,10,50,000,25,12,44,038,33,04,44,141,42,11,40,321,39,1*7D
$GAGSV,2,2,08,24,38,223,40,19,31,065,15,25,29,288,18,33,08,080,19,1*75
$GBGSV,4,1,13,33,76,088,41,40,74,180,38,07,71,223,39,10,69,261,37,1*77
$GBGSV,4,2,13,08,54,291,36,28,51,342,41,14,50,049,25,43,48,088,27,1*7E
$GBGSV,4,3,13,13,47,276,40,41,42,202,43,42,25,041,27,11,24,102,42,1*73
$GBGSV,4,4,13,37,09,254,,1*4A
$GBGSV,2,1,06,33,76,088,45,40,74,180,45,28,51,342,34,43,48,088,34,4*79
$GBGSV,2,2,06,41,42,202,44,42,25,041,34,4*75
$GNGGA,043346.000,2500.7795744,N,12132.4540800,E,1,53,0.52,15.776,M,15.25,M,1,3335*41
$GNRMC,043346.000,A,2500.7795744,N,12132.4540800,E,0.03,148.55,270623,,,A,V*02
$GPHDT,,T*1B
$GNGGA,043346.200,2500.7795744,N,12132.4540800,E,1,53,0.50,15.775,M,15.25,M,1,3335*42
$GNRMC,043346.200,A,2500.7795744,N,12132.4540800,E,0.03,148.55,270623,,,A,V*00
$GPHDT,,T*1B
$GNGGA,043346.400,2500.7795744,N,12132.4540800,E,1,54,0.50,15.775,M,15.25,M,1,3335*43
$GNRMC,043346.400,A,2500.7795744,N,12132.4540800,E,0.03,148.55,270623,,,A,V*06
$GPHDT,,T*1B
$GNGGA,043346.600,2500.7795744,N,12132.4540800,E,1,53,0.50,15.773,M,15.25,M,1,3335*40
$GNRMC,043346.600,A,2500.7795744,N,12132.4540800,E,0.04,148.55,270623,,,A,V*03
$GPHDT,,T*1B
$GNGGA,043346.800,2500.7795744,N,12132.4540800,E,1,53,0.50,15.772,M,15.25,M,1,3335*4F
$GNRMC,043346.800,A,2500.7795744,N,12132.4540800,E,0.09,148.55,270623,,,A,V*00
$GPHDT,,T*1B
$GNGSA,A,3,19,196,195,199,17,06,20,09,11,12,04,194,0.85,0.50,0.69,1*0C
$GNGSA,A,3,68,69,82,67,,,,,,,,,0.85,0.50,0.69,2*0F
$GNGSA,A,3,10,04,12,11,24,19,25,,,,,,0.85,0.50,0.69,3*0B
$GNGSA,A,3,33,40,07,10,08,28,14,43,13,41,42,11,0.85,0.50,0.69,4*00
$GPGSV,4,1,15,19,71,089,38,196,70,116,43,195,69,052,42,199,60,167,34,1*5A
$GPGSV,4,2,15,50,60,167,36,17,53,118,44,06,49,012,28,20,44,251,43,1*69
$GPGSV,4,3,15,09,37,078,28,11,36,308,34,194,32,174,23,12,24,301,22,1*5F
$GPGSV,4,4,15,05,19,233,28,04,16,052,15,14,07,170,,1*51
$GPGSV,2,1,08,196,70,116,46,195,69,052,43,199,60,167,41,06,49,012,30,8*50
$GPGSV,2,2,08,09,37,078,34,11,36,308,30,194,32,174,30,04,16,052,20,8*57
$GLGSV,2,1,06,68,71,103,42,83,42,010,15,69,35,185,24,82,34,069,23,1*79
$GLGSV,2,2,06,67,31,035,30,74,08,307,,1*77
$GAGSV,3,1,09,10,50,000,19,04,44,141,34,12,44,038,26,11,40,321,39,7*71
$GAGSV,3,2,09,24,38,223,36,19,31,065,20,25,29,288,22,09,13,188,,7*7F
$GAGSV,3,3,09,33,08,080,22,7*4A
$GAGSV,2,1,06,10,50,000,27,04,44,141,42,12,44,038,34,11,40,321,39,1*76
$GAGSV,2,2,06,24,38,223,40,25,29,288,19,1*7F
$GBGSV,4,1,14,33,76,088,41,40,74,180,38,07,71,223,39,10,69,261,37,1*70
$GBGSV,4,2,14,08,54,291,35,28,51,342,41,14,50,049,25,43,48,088,28,1*75
$GBGSV,4,3,14,13,47,276,40,41,42,202,43,42,25,041,28,11,24,102,42,1*7B
$GBGSV,4,4,14,37,09,254,,23,07,206,,1*7F
$GBGSV,2,1,06,33,76,088,45,40,74,180,45,28,51,342,33,43,48,088,34,4*7E
$GBGSV,2,2,06,41,42,202,44,42,25,041,34,4*75
$GNGGA,043347.000,2500.7795744,N,12132.4540800,E,1,54,0.50,15.768,M,15.25,M,2,3335*49
$GNRMC,043347.000,A,2500.7795744,N,12132.4540800,E,0.04,148.55,270623,,,A,V*04
$GPHDT,,T*1B
$GNGGA,043347.200,2500.7795744,N,12132.4540860,E,1,55,0.50,15.764,M,15.25,M,2,3335*40
$GNRMC,043347.200,A,2500.7795744,N,12132.4540860,E,0.05,148.55,270623,,,A,V*01
$GPHDT,,T*1B
$GNGGA,043347.400,2500.7795744,N,12132.4540800,E,1,55,0.50,15.759,M,15.25,M,2,3335*4E
$GNRMC,043347.400,A,2500.7795744,N,12132.4540800,E,0.07,148.55,270623,,,A,V*03
$GPHDT,,T*1B
$GNGGA,043347.600,2500.7795744,N,12132.4540800,E,1,54,0.50,15.754,M,15.25,M,2,3335*40
$GNRMC,043347.600,A,2500.7795744,N,12132.4540800,E,0.04,148.55,270623,,,A,V*02
$GPHDT,,T*1B
$GNGGA,043347.800,2500.7795744,N,12132.4540800,E,1,54,0.50,15.749,M,15.25,M,2,3335*42
$GNRMC,043347.800,A,2500.7795744,N,12132.4540800,E,0.05,148.55,270623,,,A,V*0D
$GPHDT,,T*1B
$GNGSA,A,3,19,196,195,199,17,06,20,09,11,194,12,04,0.85,0.50,0.69,1*0C
$GNGSA,A,3,68,69,82,67,,,,,,,,,0.85,0.50,0.69,2*0F
$GNGSA,A,3,10,12,04,11,24,19,25,,,,,,0.85,0.50,0.69,3*0B
$GNGSA,A,3,33,40,07,10,08,28,14,43,13,41,42,11,0.85,0.50,0.69,4*00
$GPGSV,4,1,15,19,71,089,38,196,70,116,43,195,69,052,42,199,60,167,33,1*5D
$GPGSV,4,2,15,50,60,167,35,17,53,118,44,06,49,012,28,20,44,251,43,1*6A
$GPGSV,4,3,15,09,37,078,32,11,36,308,34,194,32,174,24,12,24,301,22,1*53
$GPGSV,4,4,15,05,19,233,29,04,16,052,16,14,07,170,,1*53
$GPGSV,2,1,08,196,70,116,46,195,69,052,43,199,60,167,41,06,49,012,30,8*50
$GPGSV,2,2,08,09,37,078,32,11,36,308,29,194,32,174,26,04,16,052,20,8*5E
$GLGSV,2,1,07,68,71,103,43,83,42,010,13,69,35,185,21,82,34,069,20,1*79
$GLGSV,2,2,07,67,31,035,34,84,08,313,,74,08,307,,1*47
$GAGSV,3,1,10,10,50,000,19,12,44,038,26,04,44,141,34,11,40,321,39,7*79
$GAGSV,3,2,10,24,38,223,36,19,31,065,21,25,29,288,22,09,13,188,,7*76
$GAGSV,3,3,10,33,08,080,24,36,05,285,,7*7B
$GAGSV,2,1,06,10,50,000,25,04,44,141,42,12,44,038,34,11,40,321,39,1*74
$GAGSV,2,2,06,24,38,223,40,25,29,288,19,1*7F
$GBGSV,4,1,15,33,76,088,40,40,74,180,40,07,71,223,38,10,69,261,37,1*7E
$GBGSV,4,2,15,08,54,291,35,28,51,342,41,14,50,049,27,43,48,088,31,1*7E
$GBGSV,4,3,15,13,47,276,41,41,42,202,43,42,25,041,30,11,24,102,42,1*72
$GBGSV,4,4,15,37,09,254,,34,07,114,,23,07,206,,1*4A
$GBGSV,2,1,06,33,76,088,45,40,74,180,45,28,51,342,33,43,48,088,34,4*7E
$GBGSV,2,2,06,41,42,202,44,42,25,041,33,4*72
$GNGGA,043348.000,2500.7795744,N,12132.4540800,E,1,55,0.50,15.745,M,15.25,M,1,3335*4B
$GNRMC,043348.000,A,2500.7795744,N,12132.4540800,E,0.01,148.55,270623,,,A,V*0E
$GPHDT,,T*1B
$GNGGA,043348.200,2500.7795744,N,12132.4540860,E,1,56,0.49,15.742,M,15.25,M,1,3335*43
$GNRMC,043348.200,A,2500.7795744,N,12132.4540860,E,0.08,148.55,270623,,,A,V*03
$GPHDT,,T*1B
$GNGGA,043348.400,2500.7795744,N,12132.4540800,E,1,56,0.49,15.740,M,15.25,M,1,3335*41
$GNRMC,043348.400,A,2500.7795744,N,12132.4540800,E,0.08,148.55,270623,,,A,V*03
$GPHDT,,T*1B
$GNGGA,043348.600,2500.7795744,N,12132.4540860,E,1,55,0.49,15.737,M,15.25,M,1,3335*46
$GNRMC,043348.600,A,2500.7795744,N,12132.4540860,E,0.08,148.55,270623,,,A,V*07
$GPHDT,,T*1B
$GNGGA,043348.800,2500.7795744,N,12132.4540860,E,1,55,0.49,15.736,M,15.25,M,0,3335*48
$GNRMC,043348.800,A,2500.7795744,N,12132.4540860,E,0.03,148.55,270623,,,A,V*02
$GPHDT,,T*1B
$GNGSA,A,3,19,196,195,199,17,06,20,09,11,194,12,05,0.82,0.49,0.66,1*0D
$GNGSA,A,3,04,,,,,,,,,,,,0.82,0.49,0.66,1*02
$GNGSA,A,3,68,69,82,67,,,,,,,,,0.82,0.49,0.66,2*0F
$GNGSA,A,3,10,04,12,11,24,19,25,,,,,,0.82,0.49,0.66,3*0B
$GNGSA,A,3,33,40,07,10,08,28,14,43,13,41,42,11,0.82,0.49,0.66,4*00
$GPGSV,4,1,15,19,71,089,41,196,70,116,43,195,69,052,42,199,60,167,32,1*52
$GPGSV,4,2,15,50,60,167,33,17,53,118,43,06,49,012,29,20,44,251,43,1*6A
$GPGSV,4,3,15,09,37,078,40,11,36,308,34,194,32,174,23,12,24,301,21,1*52
$GPGSV,4,4,15,05,20,233,29,04,16,052,15,14,07,170,,1*5A
$GPGSV,2,1,08,196,70,116,46,195,69,052,43,199,60,167,42,06,49,012,31,8*52
$GPGSV,2,2,08,09,37,078,40,11,36,308,27,194,32,174,28,04,16,052,21,8*5A
$GLGSV,2,1,06,68,71,103,44,83,42,010,12,69,35,185,20,82,34,069,28,1*77
$GLGSV,2,2,06,67,31,035,35,74,08,307,,1*72
$GAGSV,3,1,10,10,50,000,19,04,44,141,34,12,44,038,27,11,40,321,39,7*78
$GAGSV,3,2,10,24,38,223,33,19,31,065,25,25,29,288,19,09,13,188,,7*7F
$GAGSV,3,3,10,33,08,080,22,36,05,285,,7*7D
$GAGSV,2,1,06,10,50,000,24,04,44,141,42,12,44,038,34,11,40,321,39,1*75
$GAGSV,2,2,06,24,38,223,40,33,08,080,20,1*7B
$GBGSV,4,1,15,33,76,088,42,40,74,180,40,07,71,223,39,10,69,261,37,1*7D
$GBGSV,4,2,15,08,54,291,35,28,51,342,41,14,50,049,23,43,48,088,38,1*73
$GBGSV,4,3,15,13,47,276,41,41,42,202,43,42,25,041,30,11,24,102,42,1*72
$GBGSV,4,4,15,37,09,254,,34,07,114,,23,07,206,,1*4A
$GBGSV,2,1,06,33,76,088,46,40,74,180,45,28,51,342,33,43,48,088,37,4*7E
$GBGSV,2,2,06,41,42,202,44,42,25,041,33,4*72
$GNGGA,043349.000,2500.7795744,N,12132.4540860,E,1,55,0.49,15.734,M,15.25,M,1,3335*42
$GNRMC,043349.000,A,2500.7795744,N,12132.4540860,E,0.03,148.55,270623,,,A,V*0B
$GPHDT,,T*1B
$GNGGA,043349.200,2500.7795744,N,12132.4540860,E,1,55,0.49,15.733,M,15.25,M,1,3335*47
$GNRMC,043349.200,A,2500.7795744,N,12132.4540860,E,0.02,148.55,270623,,,A,V*08
$GPHDT,,T*1B
$GNGGA,043349.400,2500.7795744,N,12132.4540860,E,1,54,0.49,15.732,M,15.25,M,1,3335*41
$GNRMC,043349.400,A,2500.7795744,N,12132.4540860,E,0.02,148.55,270623,,,A,V*0E
$GPHDT,,T*1B
$GNGGA,043349.600,2500.7795804,N,12132.4540920,E,1,53,0.49,15.732,M,15.25,M,1,3335*4A
$GNRMC,043349.600,A,2500.7795804,N,12132.4540920,E,0.02,148.55,270623,,,A,V*02
$GPHDT,,T*1B
$GNGGA,043349.800,2500.7795744,N,12132.4540920,E,1,54,0.49,15.734,M,15.25,M,1,3335*4E
$GNRMC,043349.800,A,2500.7795744,N,12132.4540920,E,0.02,148.55,270623,,,A,V*07
$GPHDT,,T*1B
$GNGSA,A,3,19,196,195,199,17,06,20,09,11,12,05,194,0.82,0.49,0.66,1*0D
$GNGSA,A,3,04,,,,,,,,,,,,0.82,0.49,0.66,1*02
$GNGSA,A,3,68,69,82,67,,,,,,,,,0.82,0.49,0.66,2*0F
$GNGSA,A,3,10,04,12,11,24,19,25,,,,,,0.82,0.49,0.66,3*0B
$GNGSA,A,3,33,40,07,10,08,28,14,43,13,41,42,11,0.82,0.49,0.66,4*00
$GPGSV,4,1,15,19,71,089,41,196,70,116,43,195,69,052,42,199,60,167,33,1*53
$GPGSV,4,2,15,50,60,167,34,17,53,118,43,06,49,013,28,20,44,251,43,1*6D
$GPGSV,4,3,15,09,37,078,40,11,36,308,34,194,32,174,18,12,24,301,22,1*59
$GPGSV,4,4,15,05,20,233,30,04,16,052,15,14,07,170,,1*52
$GPGSV,2,1,08,196,70,116,46,195,69,052,43,199,60,167,42,06,49,013,32,8*50
$GPGSV,2,2,08,09,37,078,41,11,36,308,27,194,32,174,29,04,16,052,20,8*5B
$GLGSV,2,1,06,68,71,103,43,83,42,010,13,69,35,185,20,82,34,069,30,1*78
$GLGSV,2,2,06,67,31,035,35,80,07,212,,1*73
$GAGSV,3,1,09,10,50,000,21,04,44,141,34,12,44,038,26,11,40,321,39,7*7A
$GAGSV,3,2,09,24,38,223,33,19,31,065,29,25,29,288,19,33,08,080,23,7*70
$GAGSV,3,3,09,36,05,285,,7*45
$GAGSV,2,1,07,10,50,000,24,04,44,141,43,12,44,038,33,11,40,321,39,1*72
$GAGSV,2,2,07,24,38,223,41,25,29,288,22,33,08,080,20,1*45
$GBGSV,4,1,15,33,76,088,42,40,74,180,40,07,71,223,39,10,69,261,37,1*7D
$GBGSV,4,2,15,08,54,291,34,28,51,342,42,14,50,049,18,43,48,088,37,1*76
$GBGSV,4,3,15,13,47,276,41,41,42,202,43,42,25,041,30,11,24,102,42,1*72
$GBGSV,4,4,15,37,09,254,,23,07,206,,34,07,114,,1*4A
$GBGSV,2,1,06,33,76,088,46,40,74,180,46,28,51,342,34,43,48,088,37,4*7A
$GBGSV,2,2,06,41,42,202,44,42,25,041,32,4*73
$GNGGA,043350.000,2500.7795744,N,12132.4540920,E,1,54,0.49,15.736,M,15.25,M,2,3335*4F
$GNRMC,043350.000,A,2500.7795744,N,12132.4540920,E,0.02,148.55,270623,,,A,V*07
$GPHDT,,T*1B
$GNGGA,043350.200,2500.7795684,N,12132.4540920,E,1,54,0.49,15.739,M,15.25,M,1,3335*4C
$GNRMC,043350.200,A,2500.7795684,N,12132.4540920,E,0.02,148.55,270623,,,A,V*08
$GPHDT,,T*1B
$GNGGA,043350.400,2500.7795684,N,12132.4540920,E,2,53,0.51,15.740,M,15.25,M,1,3335*49
$GNRMC,043350.400,A,2500.7795684,N,12132.4540920,E,0.01,148.55,270623,,,D,V*08
$GPHDT,,T*1B
$GNGGA,043350.600,2500.7795684,N,12132.4540920,E,2,53,0.51,15.743,M,15.25,M,0,3335*49
$GNRMC,043350.600,A,2500.7795684,N,12132.4540920,E,0.01,148.55,270623,,,D,V*0A
$GPHDT,,T*1B
$GNGGA,043350.800,2500.7795744,N,12132.4540920,E,2,54,0.49,15.747,M,15.25,M,0,3335*40
$GNRMC,043350.800,A,2500.7795744,N,12132.4540920,E,0.02,148.55,270623,,,D,V*0A
$GPHDT,,T*1B
$GNGSA,A,3,19,196,195,199,17,06,20,09,11,12,05,194,0.82,0.49,0.66,1*0D
$GNGSA,A,3,04,,,,,,,,,,,,0.82,0.49,0.66,1*02
$GNGSA,A,3,68,69,82,67,,,,,,,,,0.82,0.49,0.66,2*0F
$GNGSA,A,3,10,04,12,11,24,19,25,,,,,,0.82,0.49,0.66,3*0B
$GNGSA,A,3,33,40,07,10,08,28,14,43,13,41,42,11,0.82,0.49,0.66,4*00
$GPGSV,4,1,15,19,71,089,42,196,70,116,43,195,69,052,42,199,60,167,33,1*50
$GPGSV,4,2,15,50,60,167,34,17,53,118,43,06,49,013,28,20,44,251,43,1*6D
$GPGSV,4,3,15,09,37,078,40,11,36,308,33,194,32,174,22,12,25,300,23,1*56
$GPGSV,4,4,15,05,20,233,29,04,16,052,13,14,07,170,,1*5C
$GPGSV,2,1,08,196,70,116,46,195,69,052,43,199,60,167,41,06,49,013,31,8*50
$GPGSV,2,2,08,09,37,078,41,11,36,308,26,194,32,174,30,04,16,052,23,8*51
$GLGSV,2,1,07,68,71,103,43,83,42,010,13,69,35,185,19,82,34,069,30,1*73
$GLGSV,2,2,07,67,31,035,35,74,08,307,,80,07,212,,1*4D
$GAGSV,3,1,09,10,50,000,21,04,44,141,35,12,44,038,26,11,40,321,39,7*7B
$GAGSV,3,2,09,24,38,223,33,19,31,065,30,25,29,288,19,33,08,080,24,7*7F
$GAGSV,3,3,09,36,05,285,,7*45
$GAGSV,2,1,07,10,50,000,23,04,44,141,43,12,44,038,33,11,40,321,39,1*75
$GAGSV,2,2,07,24,38,223,41,25,29,288,20,33,08,080,20,1*47
$GBGSV,4,1,15,33,76,088,42,40,74,180,40,07,71,223,39,10,69,261,37,1*7D
$GBGSV,4,2,15,08,54,291,34,28,51,342,42,14,50,049,18,43,48,088,37,1*76
$GBGSV,4,3,15,13,47,276,41,41,42,202,43,42,25,041,30,11,24,102,42,1*72
$GBGSV,4,4,15,37,09,254,,23,07,206,,34,07,114,,1*4A
$GBGSV,2,1,06,33,76,088,46,40,74,180,46,28,51,342,35,43,48,088,38,4*74
$GBGSV,2,2,06,41,42,202,44,42,25,041,32,4*73
$GNGGA,043351.000,2500.7795744,N,12132.4540920,E,2,54,0.49,15.749,M,15.25,M,1,3335*46
$GNRMC,043351.000,A,2500.7795744,N,12132.4540920,E,0.01,148.55,270623,,,D,V*00
$GPHDT,,T*1B
$GNGGA,043351.200,2500.7795684,N,12132.4540920,E,2,54,0.49,15.753,M,15.25,M,1,3335*42
$GNRMC,043351.200,A,2500.7795684,N,12132.4540920,E,0.01,148.55,270623,,,D,V*0F
$GPHDT,,T*1B
$GNGGA,043351.400,2500.7795684,N,12132.4540920,E,2,53,0.50,15.755,M,15.25,M,1,3335*4D
$GNRMC,043351.400,A,2500.7795684,N,12132.4540920,E,0.01,148.55,270623,,,D,V*09
$GPHDT,,T*1B
$GNGGA,043351.600,2500.7795684,N,12132.4540920,E,2,53,0.50,15.760,M,15.25,M,1,3335*49
$GNRMC,043351.600,A,2500.7795684,N,12132.4540920,E,0.01,148.55,270623,,,D,V*0B
$GPHDT,,T*1B
$GNGGA,043351.800,2500.7795684,N,12132.4540860,E,2,53,0.50,15.761,M,15.25,M,0,3335*42
$GNRMC,043351.800,A,2500.7795684,N,12132.4540860,E,0.00,148.55,270623,,,D,V*01
$GPHDT,,T*1B
$GNGSA,A,3,19,196,195,199,17,06,20,09,11,12,05,194,0.83,0.50,0.66,1*04
$GNGSA,A,3,04,,,,,,,,,,,,0.83,0.50,0.66,1*0B
$GNGSA,A,3,68,69,82,67,,,,,,,,,0.83,0.50,0.66,2*06
$GNGSA,A,3,10,04,12,11,24,19,25,,,,,,0.83,0.50,0.66,3*02
$GNGSA,A,3,33,40,07,10,08,28,43,13,41,42,11,,0.83,0.50,0.66,4*0C
$GPGSV,4,1,15,19,70,090,42,196,70,116,43,195,69,052,42,199,60,167,33,1*59
$GPGSV,4,2,15,50,60,167,33,17,53,119,43,06,49,013,27,20,44,252,43,1*67
$GPGSV,4,3,15,09,37,078,40,11,36,308,33,194,32,174,20,12,25,300,22,1*55
$GPGSV,4,4,15,05,20,233,29,04,16,052,16,14,07,170,,1*59
$GPGSV,2,1,08,196,70,116,46,195,69,052,43,199,60,167,41,06,49,013,31,8*50
$GPGSV,2,2,08,09,37,078,41,11,36,308,27,194,32,174,30,04,16,052,22,8*51
$GLGSV,2,1,07,68,71,103,43,83,42,010,,69,35,185,17,82,34,069,30,1*7F
$GLGSV,2,2,07,67,31,035,34,74,08,307,,80,07,212,,1*4C
$GAGSV,3,1,09,10,50,000,21,04,44,141,35,12,44,038,25,11,40,321,39,7*78
$GAGSV,3,2,09,24,38,223,33,19,31,065,30,25,29,288,20,33,08,080,24,7*75
$GAGSV,3,3,09,36,05,285,,7*45
$GAGSV,2,1,07,10,50,000,20,04,44,141,43,12,44,038,33,11,40,321,39,1*76
$GAGSV,2,2,07,24,38,223,41,25,29,288,20,33,08,080,20,1*47
$GBGSV,4,1,15,33,76,088,42,40,74,180,39,07,71,223,39,10,69,261,37,1*73
$GBGSV,4,2,15,08,54,291,34,28,51,342,42,14,50,049,14,43,48,088,37,1*7A
$GBGSV,4,3,15,13,47,276,41,41,42,202,43,42,25,041,30,11,24,102,42,1*72
$GBGSV,4,4,15,37,09,254,,23,07,206,,34,07,114,,1*4A
$GBGSV,2,1,06,33,76,088,46,40,74,180,46,28,51,342,35,43,48,088,38,4*74
$GBGSV,2,2,06,41,42,202,44,42,25,041,32,4*73
$GNGGA,043352.000,2500.7795684,N,12132.4540860,E,2,53,0.50,15.764,M,15.25,M,1,3335*4D
$GNRMC,043352.000,A,2500.7795684,N,12132.4540860,E,0.01,148.55,270623,,,D,V*0B
$GPHDT,,T*1B
$GNGGA,043352.200,2500.7795684,N,12132.4540860,E,2,53,0.50,15.764,M,15.25,M,1,3335*4F
$GNRMC,043352.200,A,2500.7795684,N,12132.4540860,E,0.02,148.55,270623,,,D,V*0A
$GPHDT,,T*1B
$GNGGA,043352.400,2500.7795684,N,12132.4540860,E,2,53,0.50,15.767,M,15.25,M,1,3335*4A
$GNRMC,043352.400,A,2500.7795684,N,12132.4540860,E,0.02,148.55,270623,,,D,V*0C
$GPHDT,,T*1B
$GNGGA,043352.600,2500.7795744,N,12132.4540860,E,2,53,0.50,15.771,M,15.25,M,1,3335*42
$GNRMC,043352.600,A,2500.7795744,N,12132.4540860,E,0.01,148.55,270623,,,D,V*00
$GPHDT,,T*1B
$GNGGA,043352.800,2500.7795744,N,12132.4540860,E,2,53,0.50,15.773,M,15.25,M,0,3335*4F
$GNRMC,043352.800,A,2500.7795744,N,12132.4540860,E,0.02,148.55,270623,,,D,V*0D
$GPHDT,,T*1B
$GNGSA,A,3,19,196,195,199,17,06,20,09,11,194,12,05,0.83,0.50,0.66,1*04
$GNGSA,A,3,04,,,,,,,,,,,,0.83,0.50,0.66,1*0B
$GNGSA,A,3,68,69,82,67,,,,,,,,,0.83,0.50,0.66,2*06
$GNGSA,A,3,10,12,04,11,24,19,25,,,,,,0.83,0.50,0.66,3*02
$GNGSA,A,3,33,40,07,10,08,28,43,13,41,11,42,,0.83,0.50,0.66,4*0C
$GPGSV,4,1,15,19,70,090,42,196,70,116,43,195,69,052,42,199,60,167,32,1*58
$GPGSV,4,2,15,50,60,167,34,17,53,119,43,06,49,013,26,20,44,252,43,1*61
$GPGSV,4,3,15,09,37,078,40,11,36,308,33,194,32,174,27,12,25,300,21,1*51
$GPGSV,4,4,15,05,20,233,30,04,16,052,17,14,07,170,,1*50
$GPGSV,2,1,08,196,70,116,47,195,69,052,43,199,60,167,39,06,49,013,31,8*5E
$GPGSV,2,2,08,09,37,078,41,11,36,308,27,194,32,174,28,04,16,052,21,8*5B
$GLGSV,3,1,09,68,71,103,43,83,42,010,,69,35,185,17,82,34,069,30,1*70
$GLGSV,3,2,09,67,31,035,32,73,16,264,,74,08,307,,84,08,313,,1*7D
$GLGSV,3,3,09,80,07,212,,1*4F
$GAGSV,3,1,09,10,50,000,21,12,44,038,25,04,44,141,34,11,40,321,39,7*79
$GAGSV,3,2,09,24,38,223,33,19,31,065,29,25,29,288,20,09,13,188,,7*71
$GAGSV,3,3,09,33,08,080,23,7*4B
$GAGSV,2,1,07,10,50,000,24,04,44,141,43,12,44,038,33,11,40,321,39,1*72
$GAGSV,2,2,07,24,38,223,40,25,29,288,20,33,08,080,22,1*44
$GBGSV,4,1,14,33,76,088,42,40,74,180,39,07,71,223,39,10,69,261,37,1*72
$GBGSV,4,2,14,08,54,291,34,28,51,342,42,14,50,049,14,43,48,088,37,1*7B
$GBGSV,4,3,14,13,47,276,41,41,42,202,43,42,25,041,28,11,24,102,42,1*7A
$GBGSV,4,4,14,37,09,254,,34,07,114,,1*79
$GBGSV,2,1,06,33,76,088,46,40,74,180,46,28,51,342,35,43,48,088,38,4*74
$GBGSV,2,2,06,41,42,202,44,42,25,041,32,4*73
$GNGGA,043353.000,2500.7795744,N,12132.4540860,E,2,53,0.50,15.776,M,15.25,M,1,3335*42
$GNRMC,043353.000,A,2500.7795744,N,12132.4540860,E,0.01,148.55,270623,,,D,V*07
$GPHDT,,T*1B
$GNGGA,043353.200,2500.7795804,N,12132.4540860,E,2,52,0.50,15.777,M,15.25,M,1,3335*4B
$GNRMC,043353.200,A,2500.7795804,N,12132.4540860,E,0.01,148.55,270623,,,D,V*0E
$GPHDT,,T*1B
$GNGGA,043353.400,2500.7795744,N,12132.4540860,E,2,54,0.50,15.778,M,15.25,M,1,3335*4F
$GNRMC,043353.400,A,2500.7795744,N,12132.4540860,E,0.03,148.55,270623,,,D,V*01
