$FW : RTK35X,V1.1X0314AS,Lib20210517,1*54
$Tool : LOCOSYS , GNSS Firebird , v1.0.0.19*39
$---------------------------------------------------*2D
$GPHDT,,T*1B
$GNGGA,043519.600,2500.7791587,N,12132.4545439,E,4,55,0.49,10.636,M,15.25,M,0,3335*49
$GNRMC,043519.600,A,2500.7791587,N,12132.4545439,E,0.02,148.55,270623,,,R,V*10
$GPHDT,,T*1B
$GNGGA,043519.800,2500.7791613,N,12132.4545467,E,4,55,0.49,10.639,M,15.25,M,0,3335*4D
$GNRMC,043519.800,A,2500.7791613,N,12132.4545467,E,0.02,148.55,270623,,,R,V*1B
$GPHDT,,T*1B
$GNGSA,A,3,19,196,195,199,17,06,20,09,11,12,05,04,1.01,0.49,0.88,1*3F
$GNGSA,A,3,194,,,,,,,,,,,,1.01,0.49,0.88,1*30
$GNGSA,A,3,68,69,82,67,,,,,,,,,1.01,0.49,0.88,2*05
$GNGSA,A,3,10,04,12,11,24,19,25,,,,,,1.01,0.49,0.88,3*01
$GNGSA,A,3,33,40,07,10,08,28,14,43,13,41,42,11,1.01,0.49,0.88,4*0A
$GPGSV,4,1,14,19,70,091,44,196,70,116,44,195,69,052,42,50,60,167,28,1*66
$GPGSV,4,2,14,199,60,167,26,17,53,119,44,06,49,013,17,20,45,252,34,1*53
$GPGSV,4,3,14,09,37,077,38,11,36,309,30,194,32,174,22,12,25,300,18,1*5D
$GPGSV,4,4,14,05,20,234,25,04,16,051,22,1*63
$GPGSV,2,1,07,196,70,116,48,195,69,052,44,199,60,167,32,09,37,077,39,8*5E
$GPGSV,2,2,07,11,36,309,32,194,32,174,29,04,16,051,18,8*6E
$GLGSV,2,1,07,68,71,100,41,83,42,011,,69,36,185,18,82,34,070,36,1*7D
$GLGSV,2,2,07,67,30,035,34,74,08,306,,84,08,314,,1*40
$GAGSV,3,1,09,10,50,001,28,04,44,141,38,12,44,039,25,11,40,321,38,7*7D
$GAGSV,3,2,09,24,37,222,40,19,31,064,28,25,29,288,21,33,08,081,19,7*79
$GAGSV,3,3,09,36,05,286,,7*46
$GAGSV,2,1,08,10,50,001,27,12,44,039,24,04,44,141,43,11,40,321,37,1*76
$GAGSV,2,2,08,24,37,222,41,19,31,064,30,25,29,288,22,33,08,081,29,1*77
$GBGSV,4,1,14,33,76,085,38,40,74,181,39,07,71,222,38,10,69,260,32,1*77
$GBGSV,4,2,14,08,54,292,37,28,51,343,41,14,50,049,18,43,48,088,40,1*75
$GBGSV,4,3,14,13,47,277,28,41,42,202,36,42,25,041,29,11,24,103,39,1*7A
$GBGSV,4,4,14,37,09,254,,34,07,115,,1*78
$GBGSV,2,1,06,33,76,085,47,40,74,181,42,28,51,343,41,43,48,088,39,4*7E
$GBGSV,2,2,06,41,42,202,39,42,25,041,21,4*7B
$GNGGA,043520.000,2500.7791571,N,12132.4545437,E,4,55,0.49,10.625,M,15.25,M,1,3335*41
$GNRMC,043520.000,A,2500.7791571,N,12132.4545437,E,0.02,148.55,270623,,,R,V*1B
$GPHDT,,T*1B
$GNGGA,043520.200,2500.7791571,N,12132.4545433,E,4,55,0.50,10.625,M,15.25,M,1,3335*4F
$GNRMC,043520.200,A,2500.7791571,N,12132.4545433,E,0.02,148.55,270623,,,R,V*1D
$GPHDT,,T*1B
$GNGGA,043520.400,2500.7791604,N,12132.4545519,E,4,55,0.50,10.629,M,15.25,M,1,3335*4D
$GNRMC,043520.400,A,2500.7791604,N,12132.4545519,E,0.02,148.55,270623,,,R,V*13
$GPHDT,,T*1B
$GNGGA,043520.600,2500.7791667,N,12132.4545496,E,4,57,0.49,10.635,M,15.25,M,1,3335*4B
$GNRMC,043520.600,A,2500.7791667,N,12132.4545496,E,0.02,148.55,270623,,,R,V*12
$GPHDT,,T*1B
$GNGGA,043520.800,2500.7791622,N,12132.4545436,E,4,57,0.49,10.619,M,15.25,M,0,3335*41
$GNRMC,043520.800,A,2500.7791622,N,12132.4545436,E,0.02,148.55,270623,,,R,V*17
$GPHDT,,T*1B
$GNGSA,A,3,19,196,195,199,17,06,20,09,11,194,12,05,1.01,0.49,0.88,1*07
$GNGSA,A,3,04,,,,,,,,,,,,1.01,0.49,0.88,1*08
$GNGSA,A,3,68,69,82,67,,,,,,,,,1.01,0.49,0.88,2*05
$GNGSA,A,3,10,04,12,11,24,19,25,,,,,,1.01,0.49,0.88,3*01
$GNGSA,A,3,33,40,07,10,08,28,14,43,13,41,42,11,1.01,0.49,0.88,4*0A
$GPGSV,4,1,15,19,70,091,44,196,70,116,44,195,69,052,42,199,60,167,25,1*5E
$GPGSV,4,2,15,50,60,167,28,17,53,119,44,06,49,013,18,20,45,252,34,1*67
$GPGSV,4,3,15,09,37,077,38,11,36,309,29,194,32,174,24,12,25,300,18,1*52
$GPGSV,4,4,15,05,20,234,25,04,16,051,23,14,06,170,,1*56
$GPGSV,2,1,08,196,70,116,48,195,69,052,44,199,60,167,34,06,49,013,18,8*50
$GPGSV,2,2,08,09,37,077,39,11,36,309,32,194,32,174,29,04,16,051,20,8*5D
$GLGSV,2,1,06,68,71,100,41,83,42,011,,69,36,185,19,82,34,070,36,1*7D
$GLGSV,2,2,06,67,30,035,34,74,08,306,,1*73
$GAGSV,3,1,09,10,50,001,28,04,44,141,37,12,44,039,26,11,40,321,38,7*71
$GAGSV,3,2,09,24,37,222,41,19,31,064,27,25,29,288,24,33,08,081,19,7*72
$GAGSV,3,3,09,36,05,286,,7*46
$GAGSV,2,1,08,10,50,001,27,04,44,141,43,12,44,039,24,11,40,321,37,1*76
$GAGSV,2,2,08,24,37,222,41,19,31,064,30,25,29,288,23,33,08,081,29,1*76
$GBGSV,4,1,13,33,76,085,39,40,74,181,39,07,71,222,38,10,69,260,33,1*70
$GBGSV,4,2,13,08,54,292,37,28,51,343,41,14,50,049,19,43,48,088,40,1*73
$GBGSV,4,3,13,13,47,277,27,41,43,202,36,42,25,040,29,11,24,103,39,1*72
$GBGSV,4,4,13,37,09,254,,1*4A
$GBGSV,2,1,06,33,76,085,47,40,74,181,42,28,51,343,41,43,48,088,39,4*7E
$GBGSV,2,2,06,41,43,202,39,42,25,040,24,4*7E
$GNGGA,043521.000,2500.7791651,N,12132.4545503,E,4,57,0.49,10.640,M,15.25,M,1,3335*46
$GNRMC,043521.000,A,2500.7791651,N,12132.4545503,E,0.02,148.55,270623,,,R,V*1D
$GPHDT,,T*1B
$GNGGA,043521.200,2500.7791630,N,12132.4545495,E,4,56,0.49,10.627,M,15.25,M,1,3335*4D
$GNRMC,043521.200,A,2500.7791630,N,12132.4545495,E,0.02,148.55,270623,,,R,V*16
$GPHDT,,T*1B
$GNGGA,043521.400,2500.7791588,N,12132.4545471,E,4,57,0.49,10.624,M,15.25,M,1,3335*43
$GNRMC,043521.400,A,2500.7791588,N,12132.4545471,E,0.02,148.55,270623,,,R,V*1A
$GPHDT,,T*1B
$GNGGA,043521.600,2500.7791598,N,12132.4545470,E,4,57,0.49,10.627,M,15.25,M,1,3335*42
$GNRMC,043521.600,A,2500.7791598,N,12132.4545470,E,0.02,148.55,270623,,,R,V*18
$GPHDT,,T*1B
$GNGGA,043521.800,2500.7791570,N,12132.4545453,E,4,57,0.49,10.630,M,15.25,M,0,3335*4C
$GNRMC,043521.800,A,2500.7791570,N,12132.4545453,E,0.02,148.55,270623,,,R,V*11
$GPHDT,,T*1B
$GNGSA,A,3,19,196,195,199,17,06,20,09,11,194,12,05,1.01,0.49,0.88,1*07
$GNGSA,A,3,04,,,,,,,,,,,,1.01,0.49,0.88,1*08
$GNGSA,A,3,68,69,82,67,,,,,,,,,1.01,0.49,0.88,2*05
$GNGSA,A,3,10,04,12,11,24,19,25,,,,,,1.01,0.49,0.88,3*01
$GNGSA,A,3,33,40,07,10,08,28,14,43,13,41,42,11,1.01,0.49,0.88,4*0A
$GPGSV,4,1,15,19,70,091,44,196,70,116,44,195,69,052,42,199,60,167,27,1*5C
$GPGSV,4,2,15,50,60,167,29,17,53,119,44,06,49,013,19,20,45,252,33,1*60
$GPGSV,4,3,15,09,37,077,38,11,36,309,31,194,32,174,26,12,25,300,19,1*58
$GPGSV,4,4,15,05,20,234,23,04,16,051,19,14,06,170,,1*59
$GPGSV,2,1,08,196,70,116,49,195,69,052,45,199,60,167,34,06,49,013,17,8*5F
$GPGSV,2,2,08,09,37,077,40,11,36,309,31,194,32,174,31,04,16,051,20,8*59
$GLGSV,2,1,06,68,71,100,41,83,42,011,,69,36,185,19,82,34,070,34,1*7F
$GLGSV,2,2,06,67,30,035,33,80,06,212,,1*75
$GAGSV,3,1,09,10,50,001,27,04,44,141,37,12,44,039,20,11,40,321,38,7*78
$GAGSV,3,2,09,24,37,222,36,19,31,064,26,25,29,288,27,33,08,081,19,7*70
$GAGSV,3,3,09,36,05,286,,7*46
$GAGSV,2,1,08,10,50,001,26,04,44,141,43,12,44,039,24,11,40,321,40,1*77
$GAGSV,2,2,08,24,37,222,38,19,31,064,32,25,29,288,25,33,08,081,29,1*7C
$GBGSV,4,1,13,33,76,085,40,40,74,181,39,07,71,222,37,10,69,260,33,1*71
$GBGSV,4,2,13,08,54,292,38,28,51,343,39,14,50,049,20,43,48,089,40,1*78
$GBGSV,4,3,13,13,47,277,33,41,43,202,40,42,25,040,29,11,24,103,39,1*76
$GBGSV,4,4,13,37,09,254,,1*4A
$GBGSV,2,1,06,33,76,085,47,40,74,181,43,28,51,343,41,43,48,089,39,4*7E
$GBGSV,2,2,06,41,43,202,39,42,25,040,26,4*7C
$GNGGA,043522.000,2500.7791577,N,12132.4545496,E,4,57,0.49,10.640,M,15.25,M,1,3335*4F
$GNRMC,043522.000,A,2500.7791577,N,12132.4545496,E,0.01,148.55,270623,,,R,V*17
$GPHDT,,T*1B
$GNGGA,043522.200,2500.7791603,N,12132.4545483,E,4,57,0.49,10.643,M,15.25,M,1,3335*4A
$GNRMC,043522.200,A,2500.7791603,N,12132.4545483,E,0.02,148.55,270623,,,R,V*12
$GPHDT,,T*1B
$GNGGA,043522.400,2500.7791612,N,12132.4545474,E,4,57,0.49,10.608,M,15.25,M,1,3335*4B
$GNRMC,043522.400,A,2500.7791612,N,12132.4545474,E,0.02,148.55,270623,,,R,V*1C
$GPHDT,,T*1B
$GNGGA,043522.600,2500.7791594,N,12132.4545499,E,4,56,0.49,10.615,M,15.25,M,1,3335*4A
$GNRMC,043522.600,A,2500.7791594,N,12132.4545499,E,0.01,148.55,270623,,,R,V*13
$GPHDT,,T*1B
$GNGGA,043522.800,2500.7791574,N,12132.4545506,E,4,56,0.49,10.632,M,15.25,M,0,3335*49
$GNRMC,043522.800,A,2500.7791574,N,12132.4545506,E,0.02,148.55,270623,,,R,V*17
$GPHDT,,T*1B
$GNGSA,A,3,196,19,195,199,17,06,20,09,11,12,05,04,1.01,0.49,0.88,1*3F
$GNGSA,A,3,194,,,,,,,,,,,,1.01,0.49,0.88,1*30
$GNGSA,A,3,68,69,82,67,,,,,,,,,1.01,0.49,0.88,2*05
$GNGSA,A,3,10,04,12,11,24,19,25,,,,,,1.01,0.49,0.88,3*01
$GNGSA,A,3,33,40,07,10,08,28,14,43,13,41,42,11,1.01,0.49,0.88,4*0A
$GPGSV,4,1,15,196,70,116,44,19,70,091,44,195,69,052,42,199,60,167,27,1*5C
$GPGSV,4,2,15,50,60,167,29,17,53,119,44,06,49,013,19,20,45,252,31,1*62
$GPGSV,4,3,15,09,37,077,38,11,36,309,31,194,32,174,23,12,25,300,18,1*5C
$GPGSV,4,4,15,05,20,234,22,04,16,051,19,14,06,170,,1*58
$GPGSV,2,1,08,196,70,116,49,195,69,052,45,199,60,167,33,06,49,013,17,8*58
$GPGSV,2,2,08,09,37,077,40,11,36,309,30,194,32,174,32,04,16,051,18,8*50
$GLGSV,2,1,06,68,71,100,41,83,42,011,,69,36,185,17,82,34,070,35,1*70
$GLGSV,2,2,06,67,30,035,33,80,06,212,,1*75
$GAGSV,3,1,09,10,50,001,26,04,44,141,37,12,44,039,22,11,40,321,38,7*7B
$GAGSV,3,2,09,24,37,222,31,19,31,064,26,25,29,288,28,33,08,081,20,7*72
$GAGSV,3,3,09,36,05,286,,7*46
$GAGSV,2,1,08,10,50,001,28,04,44,141,43,12,44,039,23,11,40,321,41,1*7F
$GAGSV,2,2,08,24,37,222,36,19,31,064,30,25,29,288,24,33,08,081,29,1*71
$GBGSV,4,1,14,33,76,085,40,40,74,181,39,07,71,222,37,10,69,260,34,1*71
$GBGSV,4,2,14,08,54,292,37,28,51,343,40,14,50,049,18,43,48,089,40,1*75
$GBGSV,4,3,14,13,47,277,37,41,43,202,40,42,25,040,27,11,24,103,39,1*7B
$GBGSV,4,4,14,37,09,254,,06,03,184,,1*75
$GBGSV,2,1,06,33,76,085,47,40,74,181,43,28,51,343,38,43,48,089,39,4*70
$GBGSV,2,2,06,41,43,202,38,42,25,040,25,4*7E
$GNGGA,043523.000,2500.7791569,N,12132.4545483,E,4,56,0.49,10.636,M,15.25,M,1,3335*45
$GNRMC,043523.000,A,2500.7791569,N,12132.4545483,E,0.02,148.55,270623,,,R,V*1E
$PAIR010,0,1,2268,189341*32
$GPHDT,,T*1B
$GNGGA,043523.200,2500.7791592,N,12132.4545477,E,4,57,0.49,10.635,M,15.25,M,1,3335*4A
$GNRMC,043523.200,A,2500.7791592,N,12132.4545477,E,0.02,148.55,270623,,,R,V*13
$GPHDT,,T*1B
$GNGGA,043523.400,2500.7791596,N,12132.4545485,E,4,57,0.49,10.645,M,15.25,M,1,3335*42
$GNRMC,043523.400,A,2500.7791596,N,12132.4545485,E,0.02,148.55,270623,,,R,V*1C
$GPHDT,,T*1B
$GNGGA,043523.600,2500.7791544,N,12132.4545456,E,4,57,0.49,10.639,M,15.25,M,1,3335*4A
$GNRMC,043523.600,A,2500.7791544,N,12132.4545456,E,0.02,148.55,270623,,,R,V*1F
$GPHDT,,T*1B
$GNGGA,043523.800,2500.7791549,N,12132.4545472,E,4,57,0.49,10.635,M,15.25,M,1,3335*43
$GNRMC,043523.800,A,2500.7791549,N,12132.4545472,E,0.03,148.55,270623,,,R,V*1B
$GPHDT,,T*1B
$GNGSA,A,3,19,196,195,199,17,06,20,09,11,194,12,05,1.01,0.49,0.88,1*07
$GNGSA,A,3,04,,,,,,,,,,,,1.01,0.49,0.88,1*08
$GNGSA,A,3,68,69,82,67,,,,,,,,,1.01,0.49,0.88,2*05
$GNGSA,A,3,10,04,12,11,24,19,25,,,,,,1.01,0.49,0.88,3*01
$GNGSA,A,3,33,40,07,10,08,28,14,43,13,41,42,11,1.01,0.49,0.88,4*0A
$GPGSV,4,1,15,19,70,091,44,196,70,116,43,195,69,052,42,199,60,167,29,1*55
$GPGSV,4,2,15,50,60,167,33,17,53,119,43,06,49,013,19,20,45,252,35,1*6A
$GPGSV,4,3,15,09,37,077,38,11,36,309,31,194,32,174,23,12,25,300,16,1*52
$GPGSV,4,4,15,05,20,234,21,04,16,051,24,14,06,170,,1*55
$GPGSV,2,1,08,196,70,116,49,195,69,052,45,199,60,167,34,06,49,013,18,8*50
$GPGSV,2,2,08,09,37,077,40,11,36,309,30,194,32,174,33,04,16,051,17,8*5E
$GLGSV,2,1,06,68,71,100,41,83,42,011,,69,36,185,15,82,34,070,35,1*72
$GLGSV,2,2,06,67,30,035,33,80,06,212,,1*75
$GAGSV,3,1,09,10,50,001,25,04,44,141,37,12,44,039,22,11,40,321,38,7*78
$GAGSV,3,2,09,24,37,222,30,19,31,064,25,25,29,288,29,33,08,081,20,7*71
$GAGSV,3,3,09,36,05,286,,7*46
$GAGSV,2,1,08,10,50,001,25,04,44,141,43,12,44,039,22,11,40,321,40,1*72
$GAGSV,2,2,08,24,37,222,34,19,31,064,30,25,29,288,24,33,08,081,29,1*73
$GBGSV,4,1,15,33,76,085,40,40,74,181,39,07,71,222,37,10,69,260,35,1*71
$GBGSV,4,2,15,08,54,292,37,28,51,343,40,14,50,049,20,43,48,089,40,1*7F
$GBGSV,4,3,15,13,47,277,37,41,43,202,41,42,25,040,22,11,24,103,39,1*7E
$GBGSV,4,4,15,37,09,254,,23,07,206,,34,07,115,,1*4B
$GBGSV,2,1,06,33,76,085,47,40,74,181,43,28,51,343,38,43,48,089,39,4*70
$GBGSV,2,2,06,41,43,202,38,42,25,040,25,4*7E
$GNGGA,043524.000,2500.7791539,N,12132.4545490,E,4,57,0.49,10.629,M,15.25,M,1,3335*4A
$GNRMC,043524.000,A,2500.7791539,N,12132.4545490,E,0.08,148.55,270623,,,R,V*14
$GPHDT,,T*1B
$GNGGA,043524.200,2500.7791555,N,12132.4545472,E,4,57,0.49,10.630,M,15.25,M,1,3335*46
$GNRMC,043524.200,A,2500.7791555,N,12132.4545472,E,0.03,148.55,270623,,,R,V*1B
$GPHDT,,T*1B
$GNGGA,043524.400,2500.7791533,N,12132.4545458,E,4,57,0.49,10.607,M,15.25,M,1,3335*4C
$GNRMC,043524.400,A,2500.7791533,N,12132.4545458,E,0.01,148.55,270623,,,R,V*17
$GPHDT,,T*1B
$GNGGA,043524.600,2500.7791542,N,12132.4545488,E,4,57,0.49,10.621,M,15.25,M,1,3335*41
$GNRMC,043524.600,A,2500.7791542,N,12132.4545488,E,0.07,148.55,270623,,,R,V*18
$GPHDT,,T*1B
$GNGGA,043524.800,2500.7791563,N,12132.4545452,E,4,57,0.49,10.610,M,15.25,M,0,3335*48
$GNRMC,043524.800,A,2500.7791563,N,12132.4545452,E,0.08,148.55,270623,,,R,V*1D
$GPHDT,,T*1B
$GNGSA,A,3,19,196,195,199,17,06,20,09,11,194,12,05,1.01,0.49,0.88,1*07
$GNGSA,A,3,04,,,,,,,,,,,,1.01,0.49,0.88,1*08
$GNGSA,A,3,68,69,82,67,,,,,,,,,1.01,0.49,0.88,2*05
$GNGSA,A,3,10,12,04,11,24,19,25,,,,,,1.01,0.49,0.88,3*01
$GNGSA,A,3,33,40,07,10,08,28,14,43,13,41,42,11,1.01,0.49,0.88,4*0A
$GPGSV,4,1,15,19,70,091,43,196,70,116,43,195,69,052,42,50,60,167,32,1*6C
$GPGSV,4,2,15,199,60,167,30,17,53,119,43,06,49,013,23,20,45,252,35,1*54
$GPGSV,4,3,15,09,37,077,39,11,36,309,31,194,32,174,24,12,25,300,15,1*57
$GPGSV,4,4,15,05,20,234,20,04,16,051,21,14,06,170,,1*51
$GPGSV,2,1,07,196,70,116,49,195,69,052,44,199,60,167,36,06,49,013,17,8*53
$GPGSV,2,2,07,09,37,077,39,11,36,309,30,194,32,174,33,8*6E
$GLGSV,2,1,06,68,71,100,40,83,42,011,,69,36,185,17,82,34,070,35,1*71
$GLGSV,2,2,06,67,30,035,32,80,06,212,,1*74
$GAGSV,2,1,08,10,50,001,25,12,44,039,21,04,44,141,37,11,40,321,37,7*74
$GAGSV,2,2,08,24,37,222,29,19,31,064,25,25,29,288,29,33,08,081,20,7*79
$GAGSV,2,1,08,10,50,001,25,12,44,039,21,04,44,141,43,11,40,321,38,1*7E
$GAGSV,2,2,08,24,37,222,33,19,31,064,30,25,29,288,24,33,08,081,29,1*74
$GBGSV,4,1,15,33,76,085,40,40,74,181,39,07,71,222,39,10,69,260,35,1*7F
$GBGSV,4,2,15,08,54,292,37,28,51,343,39,14,50,049,20,43,48,089,40,1*71
$GBGSV,4,3,15,13,47,277,38,41,43,202,41,42,25,040,21,11,24,103,39,1*72
$GBGSV,4,4,15,37,09,254,,23,07,206,,34,07,115,,1*4B
$GBGSV,2,1,06,33,76,085,47,40,74,181,43,28,51,343,39,43,48,089,39,4*71
$GBGSV,2,2,06,41,43,202,38,42,25,040,24,4*7F
$GNGGA,043525.000,2500.7791558,N,12132.4545501,E,4,56,0.49,10.636,M,15.25,M,1,3335*4A
$GNRMC,043525.000,A,2500.7791558,N,12132.4545501,E,0.05,148.55,270623,,,R,V*16
$GPHDT,,T*1B
$GNGGA,043525.200,2500.7791554,N,12132.4545501,E,4,57,0.49,10.640,M,15.25,M,1,3335*44
$GNRMC,043525.200,A,2500.7791554,N,12132.4545501,E,0.02,148.55,270623,,,R,V*1F
$GPHDT,,T*1B
$GNGGA,043525.400,2500.7791553,N,12132.4545447,E,4,57,0.49,10.611,M,15.25,M,1,3335*42
$GNRMC,043525.400,A,2500.7791553,N,12132.4545447,E,0.05,148.55,270623,,,R,V*1A
$GPHDT,,T*1B
$GNGGA,043525.600,2500.7791550,N,12132.4545444,E,4,57,0.49,10.613,M,15.25,M,1,3335*42
$GNRMC,043525.600,A,2500.7791550,N,12132.4545444,E,0.08,148.55,270623,,,R,V*15
$GPHDT,,T*1B
$GNGGA,043525.800,2500.7791562,N,12132.4545470,E,4,57,0.49,10.620,M,15.25,M,1,3335*4A
$GNRMC,043525.800,A,2500.7791562,N,12132.4545470,E,0.08,148.55,270623,,,R,V*1D
$GPHDT,,T*1B
$GNGSA,A,3,19,196,195,199,17,06,20,09,11,05,04,194,1.04,0.51,0.91,1*04
$GNGSA,A,3,68,69,82,67,,,,,,,,,1.04,0.51,0.91,2*01
$GNGSA,A,3,10,12,04,11,24,19,25,,,,,,1.04,0.51,0.91,3*05
$GNGSA,A,3,33,40,07,10,08,28,14,43,13,41,42,11,1.04,0.51,0.91,4*0E
$GPGSV,4,1,15,19,70,091,43,196,70,116,43,195,69,052,42,50,60,167,32,1*6C
$GPGSV,4,2,15,199,60,167,30,17,53,119,43,06,49,013,18,20,45,252,35,1*5C
$GPGSV,4,3,15,09,37,077,39,11,36,309,31,194,32,174,23,12,25,300,17,1*52
$GPGSV,4,4,15,05,20,234,20,04,16,051,18,14,06,170,,1*5B
$GPGSV,2,1,08,196,70,116,49,195,69,052,44,199,60,167,36,06,49,013,19,8*52
$GPGSV,2,2,08,09,37,077,39,11,36,309,28,194,32,174,33,04,16,051,17,8*59
$GLGSV,2,1,06,68,71,100,40,83,42,011,,69,36,185,16,82,34,070,35,1*70
$GLGSV,2,2,06,67,30,035,31,80,06,212,,1*77
$GAGSV,2,1,08,10,50,001,25,12,44,039,21,04,44,141,36,11,40,321,37,7*75
$GAGSV,2,2,08,24,37,222,30,19,31,064,24,25,29,288,29,33,08,081,22,7*72
$GAGSV,2,1,08,10,50,001,25,04,44,141,43,12,44,039,22,11,40,321,38,1*7D
$GAGSV,2,2,08,24,37,222,33,19,31,064,30,25,29,288,24,33,08,081,29,1*74
$GBGSV,4,1,15,33,76,085,40,40,74,181,39,07,71,222,39,10,69,260,36,1*7C
$GBGSV,4,2,15,08,54,292,37,28,51,343,39,14,50,049,20,43,48,089,40,1*71
$GBGSV,4,3,15,13,47,277,38,41,43,202,41,42,25,040,24,11,24,103,40,1*79
$GBGSV,4,4,15,37,09,254,,23,07,206,,34,07,115,,1*4B
$GBGSV,2,1,06,33,76,085,47,40,74,181,43,28,51,343,39,43,48,089,39,4*71
$GBGSV,2,2,06,41,43,202,37,42,25,040,25,4*71
$GNGGA,043526.000,2500.7791577,N,12132.4545474,E,4,55,0.51,10.633,M,15.25,M,1,3335*48
$GNRMC,043526.000,A,2500.7791577,N,12132.4545474,E,0.07,148.55,270623,,,R,V*19
$GPHDT,,T*1B
$GNGGA,043526.200,2500.7791574,N,12132.4545474,E,4,55,0.51,10.629,M,15.25,M,1,3335*42
$GNRMC,043526.200,A,2500.7791574,N,12132.4545474,E,0.07,148.55,270623,,,R,V*18
$GPHDT,,T*1B
$GNGGA,043526.400,2500.7791563,N,12132.4545469,E,4,55,0.51,10.626,M,15.25,M,1,3335*41
$GNRMC,043526.400,A,2500.7791563,N,12132.4545469,E,0.05,148.55,270623,,,R,V*16
$GPHDT,,T*1B
$GNGGA,043526.600,2500.7791555,N,12132.4545459,E,4,55,0.51,10.621,M,15.25,M,1,3335*42
$GNRMC,043526.600,A,2500.7791555,N,12132.4545459,E,0.06,148.55,270623,,,R,V*11
$GPHDT,,T*1B
$GNGGA,043526.800,2500.7791591,N,12132.4545453,E,4,55,0.51,10.642,M,15.25,M,0,3335*4A
$GNRMC,043526.800,A,2500.7791591,N,12132.4545453,E,0.08,148.55,270623,,,R,V*13
$GPHDT,,T*1B
$GNGSA,A,3,19,196,195,199,17,06,20,09,11,05,04,194,1.04,0.51,0.91,1*04
$GNGSA,A,3,68,69,82,67,,,,,,,,,1.04,0.51,0.91,2*01
$GNGSA,A,3,10,04,12,11,24,19,25,,,,,,1.04,0.51,0.91,3*05
$GNGSA,A,3,33,40,07,10,08,28,14,43,13,41,42,11,1.04,0.51,0.91,4*0E
$GPGSV,4,1,15,19,70,091,43,196,70,116,43,195,69,052,42,199,60,167,30,1*5A
$GPGSV,4,2,15,50,60,167,32,17,53,119,43,06,49,014,18,20,45,252,35,1*6D
$GPGSV,4,3,15,09,37,077,39,11,36,309,31,194,32,174,21,12,25,300,17,1*50
$GPGSV,4,4,15,05,20,234,19,04,16,051,18,14,06,170,,1*51
$GPGSV,2,1,08,196,70,116,49,195,69,052,44,199,60,167,35,06,49,014,22,8*5E
$GPGSV,2,2,08,09,37,077,39,11,36,309,28,194,32,174,33,04,16,051,20,8*5D
$GLGSV,2,1,07,68,71,100,40,83,42,011,,69,36,185,14,82,34,070,36,1*70
$GLGSV,2,2,07,67,30,035,31,73,15,263,,80,06,212,,1*41
$GAGSV,2,1,08,10,50,001,26,04,44,141,36,12,44,039,21,11,40,321,37,7*76
$GAGSV,2,2,08,24,37,222,30,19,31,064,24,25,29,288,29,33,08,081,21,7*71
$GAGSV,2,1,08,10,50,001,24,04,44,141,43,12,44,039,23,11,40,321,38,1*7D
$GAGSV,2,2,08,24,37,222,33,19,31,064,30,25,29,288,25,33,08,081,28,1*74
$GBGSV,4,1,15,33,76,085,40,40,74,181,39,07,71,222,39,10,69,260,36,1*7C
$GBGSV,4,2,15,08,54,292,37,28,51,343,40,14,50,049,20,43,48,089,40,1*7F
$GBGSV,4,3,15,13,47,277,38,41,43,202,41,42,25,040,24,11,24,103,40,1*79
$GBGSV,4,4,15,37,09,254,,34,07,115,,23,07,206,,1*4B
$GBGSV,2,1,06,33,76,085,47,40,74,181,43,28,51,343,40,43,48,089,39,4*7F
$GBGSV,2,2,06,41,43,202,37,42,25,040,26,4*72
$GNGGA,043527.000,2500.7791567,N,12132.4545444,E,4,55,0.51,10.620,M,15.25,M,1,3335*49
$GNRMC,043527.000,A,2500.7791567,N,12132.4545444,E,0.01,148.55,270623,,,R,V*1C
$GPHDT,,T*1B
$GNGGA,043527.200,2500.7791556,N,12132.4545456,E,4,56,0.50,10.615,M,15.25,M,1,3335*4E
$GNRMC,043527.200,A,2500.7791556,N,12132.4545456,E,0.07,148.55,270623,,,R,V*19
$GPHDT,,T*1B
$GNGGA,043527.400,2500.7791570,N,12132.4545453,E,4,56,0.52,10.626,M,15.25,M,1,3335*4B
$GNRMC,043527.400,A,2500.7791570,N,12132.4545453,E,0.07,148.55,270623,,,R,V*1E
$GPHDT,,T*1B
$GNGGA,043527.600,2500.7791587,N,12132.4545446,E,4,56,0.52,10.613,M,15.25,M,1,3335*43
$GNRMC,043527.600,A,2500.7791587,N,12132.4545446,E,0.04,148.55,270623,,,R,V*13
$GPHDT,,T*1B
$GNGGA,043527.800,2500.7791591,N,12132.4545503,E,4,55,0.52,10.647,M,15.25,M,1,3335*48
$GNRMC,043527.800,A,2500.7791591,N,12132.4545503,E,0.03,148.55,270623,,,R,V*1D
$GPHDT,,T*1B
$GNGSA,A,3,19,196,195,199,17,06,20,09,11,05,04,194,1.06,0.52,0.92,1*06
$GNGSA,A,3,68,83,82,67,,,,,,,,,1.06,0.52,0.92,2*07
$GNGSA,A,3,10,04,12,11,24,19,25,,,,,,1.06,0.52,0.92,3*07
$GNGSA,A,3,33,40,07,10,08,28,14,43,13,41,42,11,1.06,0.52,0.92,4*0C
$GPGSV,4,1,15,19,70,091,43,196,70,116,43,195,69,052,42,199,60,167,30,1*5A
$GPGSV,4,2,15,50,60,167,30,17,53,119,43,06,49,014,17,20,45,252,35,1*60
$GPGSV,4,3,15,09,37,077,39,11,36,309,31,194,32,174,23,12,25,300,17,1*52
$GPGSV,4,4,15,05,20,234,19,04,16,051,17,14,06,170,,1*5E
$GPGSV,2,1,08,196,70,116,49,195,69,052,44,199,60,167,35,06,49,014,20,8*5C
$GPGSV,2,2,08,09,37,077,39,11,36,309,28,194,32,174,33,04,16,051,18,8*56
$GLGSV,2,1,06,68,71,100,39,83,42,011,16,69,36,185,16,82,34,070,36,1*7A
$GLGSV,2,2,06,67,30,035,29,73,15,263,,1*76
$GAGSV,3,1,09,10,50,001,27,04,44,141,36,12,44,039,22,11,40,321,37,7*74
$GAGSV,3,2,09,24,37,222,30,19,31,064,25,25,29,288,29,09,13,188,,7*78
$GAGSV,3,3,09,33,08,081,21,7*48
$GAGSV,2,1,08,10,50,001,26,04,44,141,43,12,44,039,23,11,40,321,39,1*7E
$GAGSV,2,2,08,24,37,222,33,19,31,064,30,25,29,288,25,33,08,081,29,1*75
$GBGSV,4,1,15,33,76,085,40,40,74,181,39,07,71,222,39,10,69,260,36,1*7C
$GBGSV,4,2,15,08,54,292,37,28,51,343,41,14,50,049,21,43,48,089,41,1*7E
$GBGSV,4,3,15,13,47,277,38,41,43,202,41,42,25,040,25,11,24,103,40,1*78
$GBGSV,4,4,15,37,09,254,,23,07,206,,34,07,115,,1*4B
$GBGSV,2,1,06,33,76,085,47,40,74,181,43,28,51,343,40,43,48,089,39,4*7F
$GBGSV,2,2,06,41,43,202,37,42,25,040,26,4*72
$GNGGA,043528.000,2500.7791602,N,12132.4545492,E,4,55,0.52,10.630,M,15.25,M,2,3335*4C
$GNRMC,043528.000,A,2500.7791602,N,12132.4545492,E,0.08,148.55,270623,,,R,V*11
$GPHDT,,T*1B
$GNGGA,043528.200,2500.7791561,N,12132.4545472,E,4,55,0.52,10.618,M,15.25,M,1,3335*4F
$GNRMC,043528.200,A,2500.7791561,N,12132.4545472,E,0.05,148.55,270623,,,R,V*16
$GPHDT,,T*1B
$GNGGA,043528.400,2500.7791543,N,12132.4545506,E,4,56,0.50,10.633,M,15.25,M,1,3335*43
$GNRMC,043528.400,A,2500.7791543,N,12132.4545506,E,0.06,148.55,270623,,,R,V*11
$GPHDT,,T*1B
$GNGGA,043528.600,2500.7791541,N,12132.4545486,E,4,56,0.50,10.630,M,15.25,M,0,3335*48
$GNRMC,043528.600,A,2500.7791541,N,12132.4545486,E,0.05,148.55,270623,,,R,V*1B
$GPHDT,,T*1B
$GNGGA,043528.800,2500.7791556,N,12132.4545460,E,4,56,0.50,10.616,M,15.25,M,0,3335*4C
$GNRMC,043528.800,A,2500.7791556,N,12132.4545460,E,0.04,148.55,270623,,,R,V*1A
$GPHDT,,T*1B
$GNGSA,A,3,19,196,195,199,17,06,20,09,11,12,05,04,1.02,0.50,0.89,1*35
$GNGSA,A,3,194,,,,,,,,,,,,1.02,0.50,0.89,1*3A
$GNGSA,A,3,68,83,82,67,,,,,,,,,1.02,0.50,0.89,2*0B
$GNGSA,A,3,10,12,04,11,24,19,25,,,,,,1.02,0.50,0.89,3*0B
$GNGSA,A,3,33,40,07,10,08,28,14,43,13,41,42,11,1.02,0.50,0.89,4*00
$GPGSV,4,1,15,19,70,092,43,196,70,116,43,195,69,052,42,199,60,167,30,1*59
$GPGSV,4,2,15,50,60,167,31,17,53,120,43,06,49,014,17,20,45,252,36,1*68
$GPGSV,4,3,15,09,37,077,39,11,36,309,31,194,32,174,23,12,25,300,16,1*53
$GPGSV,4,4,15,05,20,234,19,04,16,051,17,14,06,170,,1*5E
$GPGSV,2,1,08,196,70,116,49,195,69,052,44,199,60,167,36,06,49,014,19,8*55
$GPGSV,2,2,08,09,37,077,39,11,36,309,28,194,32,174,33,04,16,051,19,8*57
$GLGSV,2,1,07,68,71,100,39,83,42,011,16,69,36,185,15,82,34,070,37,1*79
$GLGSV,2,2,07,67,30,035,25,73,15,263,,74,08,306,,1*45
$GAGSV,3,1,09,10,50,001,27,12,44,039,22,04,44,141,36,11,40,321,37,7*74
$GAGSV,3,2,09,24,37,222,30,19,31,064,25,25,29,288,29,09,13,188,,7*78
$GAGSV,3,3,09,33,08,081,21,7*48
$GAGSV,2,1,08,10,50,001,24,04,44,141,43,12,44,039,22,11,40,321,39,1*7D
$GAGSV,2,2,08,24,37,222,33,19,31,064,29,25,29,288,24,33,08,081,29,1*7C
$GBGSV,4,1,15,33,76,085,40,40,74,181,39,07,71,222,39,10,69,260,35,1*7F
$GBGSV,4,2,15,08,54,292,37,28,51,343,41,14,50,049,22,43,48,089,41,1*7D
$GBGSV,4,3,15,13,47,277,38,41,43,202,41,42,25,040,24,11,24,103,40,1*79
$GBGSV,4,4,15,37,09,254,,23,07,206,,34,07,115,,1*4B
$GBGSV,2,1,06,33,76,085,47,40,74,181,43,28,51,343,40,43,48,089,39,4*7F
$GBGSV,2,2,06,41,43,202,37,42,25,040,26,4*72
$GNGGA,043529.000,2500.7791542,N,12132.4545449,E,4,56,0.50,10.616,M,15.25,M,1,3335*4A
$GNRMC,043529.000,A,2500.7791542,N,12132.4545449,E,0.01,148.55,270623,,,R,V*18
$GPHDT,,T*1B
$GNGGA,043529.200,2500.7791561,N,12132.4545459,E,4,57,0.50,10.609,M,15.25,M,1,3335*47
$GNRMC,043529.200,A,2500.7791561,N,12132.4545459,E,0.08,148.55,270623,,,R,V*13
$GPHDT,,T*1B
$GNGGA,043529.400,2500.7791543,N,12132.4545469,E,4,57,0.50,10.617,M,15.25,M,1,3335*4D
$GNRMC,043529.400,A,2500.7791543,N,12132.4545469,E,0.07,148.55,270623,,,R,V*19
$GPHDT,,T*1B
$GNGGA,043529.600,2500.7791549,N,12132.4545460,E,4,57,0.50,10.600,M,15.25,M,1,3335*4A
$GNRMC,043529.600,A,2500.7791549,N,12132.4545460,E,0.11,148.55,270623,,,R,V*1F
$GPHDT,,T*1B
$GNGGA,043529.800,2500.7791574,N,12132.4545474,E,4,57,0.50,10.611,M,15.25,M,1,3335*4F
$GNRMC,043529.800,A,2500.7791574,N,12132.4545474,E,0.03,148.55,270623,,,R,V*19
$GPHDT,,T*1B
$GNGSA,A,3,19,196,195,199,17,06,20,09,11,194,12,05,1.02,0.50,0.89,1*0D
$GNGSA,A,3,04,,,,,,,,,,,,1.02,0.50,0.89,1*02
$GNGSA,A,3,68,83,82,67,,,,,,,,,1.02,0.50,0.89,2*0B
$GNGSA,A,3,10,04,12,11,24,19,25,,,,,,1.02,0.50,0.89,3*0B
$GNGSA,A,3,33,40,07,10,08,28,14,43,13,41,42,11,1.02,0.50,0.89,4*00
$GPGSV,4,1,15,19,70,092,43,196,70,116,43,195,69,052,42,199,60,167,30,1*59
$GPGSV,4,2,15,50,60,167,31,17,53,120,43,06,49,014,19,20,45,252,36,1*66
$GPGSV,4,3,15,09,37,077,39,11,36,309,31,194,32,174,24,12,25,300,16,1*54
$GPGSV,4,4,15,05,20,234,19,04,16,051,18,14,06,170,,1*51
$GPGSV,2,1,08,196,70,116,49,195,69,052,44,199,60,167,36,06,49,014,22,8*5D
$GPGSV,2,2,08,09,37,077,39,11,36,309,28,194,32,174,32,04,16,051,20,8*5C
$GLGSV,2,1,07,68,71,100,39,83,42,011,16,69,36,185,15,82,34,070,37,1*79
$GLGSV,2,2,07,67,30,035,23,73,15,263,,74,08,306,,1*43
$GAGSV,3,1,09,10,50,001,26,04,44,141,36,12,44,039,22,11,40,321,37,7*75
$GAGSV,3,2,09,24,37,222,30,19,31,064,25,25,29,288,29,09,13,188,,7*78
$GAGSV,3,3,09,33,08,081,20,7*49
$GAGSV,2,1,08,10,50,001,24,04,44,141,43,12,44,039,22,11,40,321,39,1*7D
$GAGSV,2,2,08,24,37,222,33,19,31,064,30,25,29,288,24,33,08,081,28,1*75
$GBGSV,4,1,14,33,76,085,40,40,74,181,39,07,71,222,39,10,69,260,35,1*7E
$GBGSV,4,2,14,08,54,292,37,28,51,343,41,14,50,049,23,43,48,089,41,1*7D
$GBGSV,4,3,14,13,47,277,38,41,43,202,41,42,25,040,24,11,24,103,40,1*78
$GBGSV,4,4,14,37,09,254,,23,07,206,,1*7F
$GBGSV,2,1,06,33,76,085,47,40,74,181,43,28,51,343,40,43,48,089,39,4*7F
$GBGSV,2,2,06,41,43,202,37,42,25,040,26,4*72
$GNGGA,043530.000,2500.7791575,N,12132.4545470,E,4,57,0.50,10.619,M,15.25,M,2,3335*41
$GNRMC,043530.000,A,2500.7791575,N,12132.4545470,E,0.05,148.55,270623,,,R,V*1A
$GPHDT,,T*1B
$GNGGA,043530.200,2500.7791510,N,12132.4545361,E,4,56,0.50,10.591,M,15.25,M,2,3335*45
$GNRMC,043530.200,A,2500.7791510,N,12132.4545361,E,0.02,148.55,270623,,,R,V*1B
$GPHDT,,T*1B
$GNGGA,043530.400,2500.7791577,N,12132.4545495,E,4,56,0.50,10.633,M,15.25,M,1,3335*46
$GNRMC,043530.400,A,2500.7791577,N,12132.4545495,E,0.14,148.55,270623,,,R,V*17
$GPHDT,,T*1B
$GNGGA,043530.600,2500.7791566,N,12132.4545430,E,4,56,0.50,10.604,M,15.25,M,1,3335*4F
$GNRMC,043530.600,A,2500.7791566,N,12132.4545430,E,0.11,148.55,270623,,,R,V*1F
$GPHDT,,T*1B
$GNGGA,043530.800,2500.7791545,N,12132.4545419,E,4,56,0.50,10.588,M,15.25,M,0,3335*4D
$GNRMC,043530.800,A,2500.7791545,N,12132.4545419,E,0.06,148.55,270623,,,R,V*1D
