$FW : RTK35X,V1.1X0314AS,Lib20210517,1*54
$Tool : LOCOSYS , GNSS Firebird , v1.0.0.19*39
$---------------------------------------------------*2D
$GPHDT,,T*1B
$GNGGA,043435.400,2500.7790770,N,12132.4546382,E,4,53,0.52,10.842,M,15.25,M,1,3335*4B
$GNRMC,043435.400,A,2500.7790770,N,12132.4546382,E,0.01,148.55,270623,,,R,V*11
$GPHDT,,T*1B
$GNGGA,043435.600,2500.7790779,N,12132.4546377,E,4,54,0.52,10.841,M,15.25,M,0,3335*4F
$GNRMC,043435.600,A,2500.7790779,N,12132.4546377,E,0.01,148.55,270623,,,R,V*10
$GPHDT,,T*1B
$GNGGA,043435.800,2500.7790789,N,12132.4546351,E,4,55,0.51,10.829,M,15.25,M,0,3335*46
$GNRMC,043435.800,A,2500.7790789,N,12132.4546351,E,0.00,148.55,270623,,,R,V*14
$GPHDT,,T*1B
$GNGSA,A,3,196,19,195,199,17,06,20,09,11,194,05,04,1.04,0.51,0.91,1*04
$GNGSA,A,3,68,69,82,67,,,,,,,,,1.04,0.51,0.91,2*01
$GNGSA,A,3,10,12,04,11,24,19,25,,,,,,1.04,0.51,0.91,3*05
$GNGSA,A,3,33,40,07,10,08,28,14,43,13,41,42,11,1.04,0.51,0.91,4*0E
$GPGSV,4,1,15,196,70,116,41,19,70,090,40,195,69,052,41,50,60,167,35,1*68
$GPGSV,4,2,15,199,60,167,31,17,53,119,39,06,49,013,28,20,44,252,43,1*53
$GPGSV,4,3,15,09,37,078,39,11,36,309,25,194,32,174,26,12,25,300,19,1*53
$GPGSV,4,4,15,05,20,233,29,04,16,052,24,14,06,170,,1*59
$GPGSV,2,1,07,196,70,116,47,195,69,052,43,199,60,167,40,06,49,013,26,8*59
$GPGSV,2,2,07,09,37,078,39,11,36,309,29,194,32,174,33,8*69
$GLGSV,2,1,06,68,71,102,41,83,42,011,,69,35,185,18,82,34,070,34,1*7F
$GLGSV,2,2,06,67,31,035,30,80,06,212,,1*77
$GAGSV,3,1,09,10,50,000,26,12,44,039,16,04,44,141,36,11,40,321,34,7*70
$GAGSV,3,2,09,24,37,223,35,19,31,064,29,25,29,288,24,33,08,081,23,7*77
$GAGSV,3,3,09,36,05,285,,7*45
$GAGSV,2,1,08,10,50,000,24,12,44,039,23,04,44,141,44,11,40,321,35,1*76
$GAGSV,2,2,08,24,37,223,37,19,31,064,25,25,29,288,26,33,08,081,26,1*78
$GBGSV,4,1,16,33,76,087,40,40,74,181,40,07,71,223,40,10,69,260,37,1*7D
$GBGSV,4,2,16,08,54,291,29,28,51,342,38,14,50,049,22,43,48,088,39,1*73
$GBGSV,4,3,16,13,47,276,36,41,42,202,45,42,25,041,31,11,24,102,42,1*76
$GBGSV,4,4,16,37,09,254,,34,07,114,,23,07,206,,06,03,184,,1*71
$GBGSV,2,1,06,33,76,087,45,40,74,181,44,28,51,342,36,43,48,088,38,4*78
$GBGSV,2,2,06,41,42,202,44,42,25,041,30,4*71
$GNGGA,043436.000,2500.7790795,N,12132.4546373,E,4,55,0.51,10.830,M,15.25,M,1,3335*49
$GNRMC,043436.000,A,2500.7790795,N,12132.4546373,E,0.00,148.55,270623,,,R,V*12
$GPHDT,,T*1B
$GNGGA,043436.200,2500.7790784,N,12132.4546377,E,4,55,0.51,10.834,M,15.25,M,1,3335*4B
$GNRMC,043436.200,A,2500.7790784,N,12132.4546377,E,0.00,148.55,270623,,,R,V*14
$GPHDT,,T*1B
$GNGGA,043436.400,2500.7790780,N,12132.4546362,E,4,55,0.49,10.825,M,15.25,M,1,3335*44
$GNRMC,043436.400,A,2500.7790780,N,12132.4546362,E,0.01,148.55,270623,,,R,V*13
$GPHDT,,T*1B
$GNGGA,043436.600,2500.7790770,N,12132.4546375,E,4,55,0.49,10.833,M,15.25,M,0,3335*49
$GNRMC,043436.600,A,2500.7790770,N,12132.4546375,E,0.00,148.55,270623,,,R,V*19
$GPHDT,,T*1B
$GNGGA,043436.800,2500.7790784,N,12132.4546374,E,4,55,0.49,10.823,M,15.25,M,0,3335*4C
$GNRMC,043436.800,A,2500.7790784,N,12132.4546374,E,0.00,148.55,270623,,,R,V*1D
$GPHDT,,T*1B
$GNGSA,A,3,19,196,195,199,17,06,20,09,11,194,12,05,1.01,0.49,0.88,1*07
$GNGSA,A,3,04,,,,,,,,,,,,1.01,0.49,0.88,1*08
$GNGSA,A,3,68,69,82,67,,,,,,,,,1.01,0.49,0.88,2*05
$GNGSA,A,3,10,04,12,11,24,19,25,,,,,,1.01,0.49,0.88,3*01
$GNGSA,A,3,33,40,07,10,08,28,14,43,13,41,42,11,1.01,0.49,0.88,4*0A
$GPGSV,4,1,15,19,70,090,41,196,70,116,41,195,69,052,41,199,60,167,31,1*59
$GPGSV,4,2,15,50,60,167,33,17,53,119,39,06,49,013,28,20,44,252,43,1*65
$GPGSV,4,3,15,09,37,078,39,11,36,309,21,194,32,174,25,12,25,300,21,1*5F
$GPGSV,4,4,15,05,20,233,29,04,16,052,20,14,06,170,,1*5D
$GPGSV,2,1,07,196,70,116,47,195,69,052,43,199,60,167,40,06,49,013,26,8*59
$GPGSV,2,2,07,09,37,078,39,11,36,309,28,194,32,174,34,8*6F
$GLGSV,2,1,06,68,71,101,41,83,42,011,,69,35,185,18,82,34,070,34,1*7C
$GLGSV,2,2,06,67,31,035,32,80,06,212,,1*75
$GAGSV,2,1,08,10,50,000,29,04,44,141,36,12,44,039,18,11,40,321,34,7*71
$GAGSV,2,2,08,24,37,223,35,19,31,064,29,25,29,288,24,33,08,081,22,7*76
$GAGSV,2,1,08,10,50,000,24,12,44,039,23,04,44,141,44,11,40,321,36,1*75
$GAGSV,2,2,08,24,37,223,36,19,31,064,28,25,29,288,26,33,08,081,27,1*75
$GBGSV,4,1,16,33,76,087,40,40,74,181,40,07,71,223,40,10,69,260,37,1*7D
$GBGSV,4,2,16,08,54,291,30,28,51,342,39,14,50,049,24,43,48,088,39,1*7C
$GBGSV,4,3,16,13,47,276,36,41,42,202,45,42,25,041,31,11,24,102,42,1*76
$GBGSV,4,4,16,37,09,254,,34,07,114,,23,07,206,,56,,,32,1*4B
$GBGSV,2,1,06,33,76,087,45,40,74,181,44,28,51,342,37,43,48,088,38,4*79
$GBGSV,2,2,06,41,42,202,44,42,25,041,31,4*70
$GNGGA,043437.000,2500.7790786,N,12132.4546374,E,4,56,0.49,10.837,M,15.25,M,1,3335*40
$GNRMC,043437.000,A,2500.7790786,N,12132.4546374,E,0.00,148.55,270623,,,R,V*16
$GPHDT,,T*1B
$GNGGA,043437.200,2500.7790796,N,12132.4546380,E,4,56,0.49,10.838,M,15.25,M,1,3335*47
$GNRMC,043437.200,A,2500.7790796,N,12132.4546380,E,0.00,148.55,270623,,,R,V*1E
$GPHDT,,T*1B
$GNGGA,043437.400,2500.7790772,N,12132.4546382,E,4,56,0.49,10.832,M,15.25,M,1,3335*43
$GNRMC,043437.400,A,2500.7790772,N,12132.4546382,E,0.01,148.55,270623,,,R,V*11
$GPHDT,,T*1B
$GNGGA,043437.600,2500.7790791,N,12132.4546359,E,4,55,0.50,10.847,M,15.25,M,0,3335*42
$GNRMC,043437.600,A,2500.7790791,N,12132.4546359,E,0.00,148.55,270623,,,R,V*19
$GPHDT,,T*1B
$GNGGA,043437.800,2500.7790757,N,12132.4546361,E,4,56,0.49,10.851,M,15.25,M,0,3335*41
$GNRMC,043437.800,A,2500.7790757,N,12132.4546361,E,0.00,148.55,270623,,,R,V*16
$GPHDT,,T*1B
$GNGSA,A,3,19,196,195,199,17,06,20,09,194,12,05,11,1.01,0.49,0.88,1*07
$GNGSA,A,3,04,,,,,,,,,,,,1.01,0.49,0.88,1*08
$GNGSA,A,3,68,69,82,67,,,,,,,,,1.01,0.49,0.88,2*05
$GNGSA,A,3,10,04,12,11,24,19,25,,,,,,1.01,0.49,0.88,3*01
$GNGSA,A,3,33,40,07,10,08,28,14,43,13,41,42,11,1.01,0.49,0.88,4*0A
$GPGSV,4,1,15,19,70,090,41,196,70,116,41,195,69,052,41,199,60,167,31,1*59
$GPGSV,4,2,15,50,60,167,33,17,53,119,39,06,49,013,28,20,44,252,44,1*62
$GPGSV,4,3,15,09,37,078,38,11,36,309,21,194,32,174,25,12,25,300,21,1*5E
$GPGSV,4,4,15,05,20,233,28,04,16,052,20,14,06,170,,1*5C
$GPGSV,2,1,08,196,70,116,47,195,69,052,44,199,60,167,40,06,49,013,26,8*51
$GPGSV,2,2,08,09,37,078,39,11,36,309,26,194,32,174,34,04,16,052,22,8*5A
$GLGSV,2,1,06,68,71,101,41,83,42,011,,69,35,185,16,82,34,070,35,1*73
$GLGSV,2,2,06,67,31,035,32,80,06,212,,1*75
$GAGSV,2,1,08,10,50,000,29,04,44,141,36,12,44,039,19,11,40,321,33,7*77
$GAGSV,2,2,08,24,37,223,36,19,31,064,29,25,29,288,24,33,08,081,22,7*75
$GAGSV,2,1,08,10,50,000,26,04,44,141,44,12,44,039,24,11,40,321,36,1*70
$GAGSV,2,2,08,24,37,223,36,19,31,064,28,25,29,288,27,33,08,081,26,1*75
$GBGSV,4,1,16,33,76,087,40,40,74,181,40,07,71,223,40,10,69,260,37,1*7D
$GBGSV,4,2,16,08,54,291,28,28,51,342,39,14,50,049,24,43,48,088,39,1*75
$GBGSV,4,3,16,13,47,276,36,41,42,202,45,42,25,041,30,11,24,102,42,1*77
$GBGSV,4,4,16,37,09,254,,34,07,114,,23,07,206,,56,,,17,1*4C
$GBGSV,2,1,06,33,76,087,45,40,74,181,44,28,51,342,38,43,48,088,39,4*77
$GBGSV,2,2,06,41,42,202,43,42,25,041,31,4*77
$GNGGA,043438.000,2500.7790767,N,12132.4546347,E,4,55,0.49,10.844,M,15.25,M,1,3335*47
$GNRMC,043438.000,A,2500.7790767,N,12132.4546347,E,0.00,148.55,270623,,,R,V*16
$GPHDT,,T*1B
$GNGGA,043438.200,2500.7790778,N,12132.4546366,E,4,56,0.49,10.849,M,15.25,M,1,3335*46
$GNRMC,043438.200,A,2500.7790778,N,12132.4546366,E,0.00,148.55,270623,,,R,V*19
$GPHDT,,T*1B
$GNGGA,043438.400,2500.7790812,N,12132.4546370,E,4,56,0.49,10.843,M,15.25,M,1,3335*4E
$GNRMC,043438.400,A,2500.7790812,N,12132.4546370,E,0.08,148.55,270623,,,R,V*13
$GPHDT,,T*1B
$GNGGA,043438.600,2500.7790765,N,12132.4546366,E,4,56,0.49,10.845,M,15.25,M,0,3335*43
$GNRMC,043438.600,A,2500.7790765,N,12132.4546366,E,0.06,148.55,270623,,,R,V*17
$GPHDT,,T*1B
$GNGGA,043438.800,2500.7790775,N,12132.4546379,E,4,56,0.49,10.847,M,15.25,M,0,3335*40
$GNRMC,043438.800,A,2500.7790775,N,12132.4546379,E,0.05,148.55,270623,,,R,V*15
$GPHDT,,T*1B
$GNGSA,A,3,19,196,195,199,17,06,20,09,194,12,05,04,1.01,0.49,0.88,1*03
$GNGSA,A,3,11,,,,,,,,,,,,1.01,0.49,0.88,1*0C
$GNGSA,A,3,68,69,82,67,,,,,,,,,1.01,0.49,0.88,2*05
$GNGSA,A,3,10,04,12,11,24,19,25,,,,,,1.01,0.49,0.88,3*01
$GNGSA,A,3,33,40,07,10,08,28,14,43,13,41,42,11,1.01,0.49,0.88,4*0A
$GPGSV,4,1,15,19,70,090,41,196,70,116,41,195,69,052,41,199,60,167,31,1*59
$GPGSV,4,2,15,50,60,167,33,17,53,119,39,06,49,013,28,20,44,252,44,1*62
$GPGSV,4,3,15,09,37,078,38,11,36,309,18,194,32,174,27,12,25,300,19,1*5D
$GPGSV,4,4,15,05,20,233,28,04,16,052,22,14,06,170,,1*5E
$GPGSV,2,1,08,196,70,116,47,195,69,052,44,199,60,167,40,06,49,013,26,8*51
$GPGSV,2,2,08,09,37,078,39,11,36,309,26,194,32,174,34,04,16,052,22,8*5A
$GLGSV,2,1,06,68,71,101,41,83,42,011,,69,35,185,16,82,34,070,35,1*73
$GLGSV,2,2,06,67,31,035,31,80,06,212,,1*76
$GAGSV,2,1,08,10,50,000,30,04,44,141,36,12,44,039,19,11,40,321,33,7*7F
$GAGSV,2,2,08,24,37,223,36,19,31,064,29,25,29,288,24,33,08,081,21,7*76
$GAGSV,2,1,08,10,50,000,26,04,44,141,44,12,44,039,25,11,40,321,36,1*71
$GAGSV,2,2,08,24,37,223,36,19,31,064,28,25,29,288,27,33,08,081,27,1*74
$GBGSV,4,1,16,33,76,087,40,40,74,181,40,07,71,223,40,10,69,260,37,1*7D
$GBGSV,4,2,16,08,54,291,30,28,51,342,39,14,50,049,24,43,48,088,39,1*7C
$GBGSV,4,3,16,13,47,276,36,41,42,202,45,42,25,041,30,11,24,102,42,1*77
$GBGSV,4,4,16,37,09,254,,34,07,114,,23,07,206,,56,,,17,1*4C
$GBGSV,2,1,06,33,76,087,45,40,74,181,44,28,51,342,38,43,48,088,39,4*77
$GBGSV,2,2,06,41,42,202,43,42,25,041,32,4*74
$GNGGA,043439.000,2500.7790766,N,12132.4546377,E,4,56,0.49,10.846,M,15.25,M,1,3335*45
$GNRMC,043439.000,A,2500.7790766,N,12132.4546377,E,0.00,148.55,270623,,,R,V*15
$GPHDT,,T*1B
$GNGGA,043439.200,2500.7790799,N,12132.4546384,E,4,56,0.49,10.837,M,15.25,M,1,3335*4D
$GNRMC,043439.200,A,2500.7790799,N,12132.4546384,E,0.02,148.55,270623,,,R,V*19
$GPHDT,,T*1B
$GNGGA,043439.400,2500.7790756,N,12132.4546383,E,4,56,0.49,10.840,M,15.25,M,1,3335*4F
$GNRMC,043439.400,A,2500.7790756,N,12132.4546383,E,0.01,148.55,270623,,,R,V*18
$GPHDT,,T*1B
$GNGGA,043439.600,2500.7790774,N,12132.4546388,E,4,56,0.49,10.851,M,15.25,M,0,3335*47
$GNRMC,043439.600,A,2500.7790774,N,12132.4546388,E,0.00,148.55,270623,,,R,V*10
$GPHDT,,T*1B
$GNGGA,043439.800,2500.7790773,N,12132.4546386,E,4,56,0.49,10.847,M,15.25,M,0,3335*47
$GNRMC,043439.800,A,2500.7790773,N,12132.4546386,E,0.01,148.55,270623,,,R,V*16
$GPHDT,,T*1B
$GNGSA,A,3,19,196,195,199,17,06,20,09,194,12,05,04,1.02,0.51,0.88,1*09
$GNGSA,A,3,68,69,82,67,,,,,,,,,1.02,0.51,0.88,2*0F
$GNGSA,A,3,10,04,12,11,24,19,25,,,,,,1.02,0.51,0.88,3*0B
$GNGSA,A,3,33,40,07,10,08,28,14,43,13,41,42,11,1.02,0.51,0.88,4*00
$GPGSV,4,1,15,19,70,090,41,196,70,116,41,195,69,052,41,199,60,167,31,1*59
$GPGSV,4,2,15,50,60,167,33,17,53,119,39,06,49,013,28,20,44,252,44,1*62
$GPGSV,4,3,15,09,37,078,38,11,36,309,17,194,32,174,29,12,25,300,18,1*5D
$GPGSV,4,4,15,05,20,233,28,04,16,052,20,14,06,170,,1*5C
$GPGSV,2,1,07,196,70,116,47,195,69,052,44,199,60,167,40,06,49,013,24,8*5C
$GPGSV,2,2,07,09,37,078,38,194,32,174,34,04,16,052,21,8*6C
$GLGSV,2,1,07,68,71,101,41,83,42,011,,69,35,185,16,82,34,070,35,1*72
$GLGSV,2,2,07,67,31,035,30,73,16,263,,80,06,212,,1*42
$GAGSV,2,1,08,10,50,000,30,04,44,141,36,12,44,039,19,11,40,321,33,7*7F
$GAGSV,2,2,08,24,37,223,36,19,31,064,28,25,29,288,23,33,08,081,21,7*70
$GAGSV,2,1,08,10,50,000,24,12,44,039,25,04,44,141,44,11,40,321,36,1*73
$GAGSV,2,2,08,24,37,223,36,19,31,064,29,25,29,288,27,33,08,081,27,1*75
$GBGSV,4,1,16,33,76,087,40,40,74,181,40,07,71,223,40,10,69,260,37,1*7D
$GBGSV,4,2,16,08,54,291,30,28,51,342,40,14,50,049,23,43,48,088,39,1*75
$GBGSV,4,3,16,13,47,276,36,41,42,202,45,42,25,041,30,11,24,102,42,1*77
$GBGSV,4,4,16,37,09,254,,23,07,206,,34,07,114,,56,,,13,1*48
$GBGSV,2,1,06,33,76,087,45,40,74,181,44,28,51,342,38,43,48,088,39,4*77
$GBGSV,2,2,06,41,42,202,43,42,25,041,32,4*74
$GNGGA,043440.000,2500.7790810,N,12132.4546378,E,4,55,0.51,10.836,M,15.25,M,1,3335*47
$GNRMC,043440.000,A,2500.7790810,N,12132.4546378,E,0.01,148.55,270623,,,R,V*1B
$GPHDT,,T*1B
$GNGGA,043440.200,2500.7790784,N,12132.4546388,E,4,55,0.51,10.845,M,15.25,M,1,3335*4C
$GNRMC,043440.200,A,2500.7790784,N,12132.4546388,E,0.00,148.55,270623,,,R,V*15
$GPHDT,,T*1B
$GNGGA,043440.400,2500.7790778,N,12132.4546385,E,4,55,0.51,10.848,M,15.25,M,1,3335*49
$GNRMC,043440.400,A,2500.7790778,N,12132.4546385,E,0.00,148.55,270623,,,R,V*1D
$GPHDT,,T*1B
$GNGGA,043440.600,2500.7790787,N,12132.4546384,E,4,55,0.51,10.849,M,15.25,M,1,3335*4B
$GNRMC,043440.600,A,2500.7790787,N,12132.4546384,E,0.00,148.55,270623,,,R,V*1E
$GPHDT,,T*1B
$GNGGA,043440.800,2500.7790805,N,12132.4546384,E,4,55,0.51,10.829,M,15.25,M,0,3335*47
$GNRMC,043440.800,A,2500.7790805,N,12132.4546384,E,0.10,148.55,270623,,,R,V*14
$GPHDT,,T*1B
$GNGSA,A,3,19,196,195,199,17,06,20,09,194,12,05,04,1.01,0.49,0.88,1*03
$GNGSA,A,3,11,,,,,,,,,,,,1.01,0.49,0.88,1*0C
$GNGSA,A,3,68,69,82,67,,,,,,,,,1.01,0.49,0.88,2*05
$GNGSA,A,3,10,04,12,11,24,19,25,,,,,,1.01,0.49,0.88,3*01
$GNGSA,A,3,33,40,07,10,08,28,14,43,13,41,42,11,1.01,0.49,0.88,4*0A
$GPGSV,4,1,15,19,70,090,42,196,70,116,41,195,69,052,41,199,60,167,31,1*5A
$GPGSV,4,2,15,50,60,167,34,17,53,119,39,06,49,013,28,20,44,252,44,1*65
$GPGSV,4,3,15,09,37,078,38,11,36,309,17,194,32,174,30,12,25,300,19,1*54
$GPGSV,4,4,15,05,20,233,28,04,16,052,20,14,06,170,,1*5C
$GPGSV,2,1,08,196,70,116,47,195,69,052,44,199,60,167,40,06,49,013,24,8*53
$GPGSV,2,2,08,09,37,078,38,11,36,309,25,194,32,174,34,04,16,052,25,8*5F
$GLGSV,2,1,07,68,71,101,41,83,42,011,,69,35,185,14,82,34,070,35,1*70
$GLGSV,2,2,07,67,31,035,30,73,16,263,,74,08,306,,1*43
$GAGSV,3,1,09,10,50,000,30,04,44,141,36,12,44,039,19,11,40,321,33,7*7F
$GAGSV,3,2,09,24,37,223,36,19,31,064,27,25,29,288,22,09,13,188,,7*76
$GAGSV,3,3,09,33,08,081,21,7*48
$GAGSV,2,1,08,10,50,000,24,04,44,141,44,12,44,039,25,11,40,321,36,1*73
$GAGSV,2,2,08,24,37,223,36,19,31,064,30,25,29,288,27,33,08,081,27,1*7D
$GBGSV,4,1,14,33,76,087,40,40,74,181,40,07,71,223,40,10,69,260,37,1*7F
$GBGSV,4,2,14,08,54,291,29,28,51,342,40,14,50,049,21,43,48,088,39,1*7D
$GBGSV,4,3,14,13,47,276,36,41,42,202,45,42,25,041,30,11,24,102,42,1*75
$GBGSV,4,4,14,37,09,254,,23,07,206,,1*7F
$GBGSV,2,1,06,33,76,087,46,40,74,181,44,28,51,342,38,43,48,088,39,4*74
$GBGSV,2,2,06,41,42,202,43,42,25,041,32,4*74
$GNGGA,043441.000,2500.7790774,N,12132.4546377,E,4,56,0.49,10.844,M,15.25,M,1,3335*4B
$GNRMC,043441.000,A,2500.7790774,N,12132.4546377,E,0.02,148.55,270623,,,R,V*1B
$GPHDT,,T*1B
$GNGGA,043441.200,2500.7790764,N,12132.4546406,E,4,55,0.51,10.848,M,15.25,M,1,3335*4F
$GNRMC,043441.200,A,2500.7790764,N,12132.4546406,E,0.01,148.55,270623,,,R,V*1A
$GPHDT,,T*1B
$GNGGA,043441.400,2500.7790786,N,12132.4546385,E,4,53,0.53,10.839,M,15.25,M,1,3335*4B
$GNRMC,043441.400,A,2500.7790786,N,12132.4546385,E,0.01,148.55,270623,,,R,V*1C
$GPHDT,,T*1B
$GNGGA,043441.600,2500.7790780,N,12132.4546416,E,4,53,0.53,10.851,M,15.25,M,1,3335*4C
$GNRMC,043441.600,A,2500.7790780,N,12132.4546416,E,0.00,148.55,270623,,,R,V*14
$GPHDT,,T*1B
$GNGGA,043441.800,2500.7790799,N,12132.4546410,E,4,53,0.53,10.848,M,15.25,M,1,3335*44
$GNRMC,043441.800,A,2500.7790799,N,12132.4546410,E,0.08,148.55,270623,,,R,V*1C
$GPHDT,,T*1B
$GNGSA,A,3,19,196,195,199,17,06,20,09,194,12,05,04,1.02,0.51,0.88,1*09
$GNGSA,A,3,68,69,82,67,,,,,,,,,1.02,0.51,0.88,2*0F
$GNGSA,A,3,10,04,12,11,24,19,25,,,,,,1.02,0.51,0.88,3*0B
$GNGSA,A,3,33,40,07,10,08,28,14,43,13,41,42,11,1.02,0.51,0.88,4*00
$GPGSV,4,1,15,19,70,090,42,196,70,116,41,195,69,052,41,50,60,167,33,1*6C
$GPGSV,4,2,15,199,60,167,31,17,53,119,39,06,49,013,26,20,44,252,44,1*5A
$GPGSV,4,3,15,09,37,078,38,11,36,309,17,194,32,174,30,12,25,300,18,1*55
$GPGSV,4,4,15,05,20,233,28,04,16,052,22,14,06,170,,1*5E
$GPGSV,2,1,07,196,70,116,47,195,69,052,44,199,60,167,40,06,49,013,26,8*5E
$GPGSV,2,2,07,09,37,078,38,194,32,174,35,04,16,052,24,8*68
$GLGSV,2,1,07,68,71,101,41,83,42,011,,69,35,185,14,82,34,070,35,1*70
$GLGSV,2,2,07,67,31,035,28,73,16,263,,74,08,306,,1*4A
$GAGSV,3,1,09,10,50,000,30,04,44,141,36,12,44,039,19,11,40,321,33,7*7F
$GAGSV,3,2,09,24,37,223,36,19,31,064,27,25,29,288,23,09,13,188,,7*77
$GAGSV,3,3,09,33,08,081,20,7*49
$GAGSV,2,1,08,10,50,000,25,12,44,039,24,04,44,141,44,11,40,321,36,1*73
$GAGSV,2,2,08,24,37,223,36,19,31,064,31,25,29,288,27,33,08,081,27,1*7C
$GBGSV,4,1,13,33,76,087,40,40,74,181,40,07,71,222,40,10,69,260,37,1*79
$GBGSV,4,2,13,08,54,291,29,28,51,342,40,14,50,049,19,43,48,088,39,1*71
$GBGSV,4,3,13,13,47,276,36,41,42,202,45,42,25,041,30,11,24,102,42,1*72
$GBGSV,4,4,13,37,09,254,,1*4A
$GBGSV,2,1,06,33,76,087,46,40,74,181,44,28,51,342,38,43,48,088,39,4*74
$GBGSV,2,2,06,41,42,202,43,42,25,041,31,4*77
$GNGGA,043442.000,2500.7790863,N,12132.4546297,E,4,55,0.51,10.808,M,15.25,M,2,3335*4F
$GNRMC,043442.000,A,2500.7790863,N,12132.4546297,E,0.02,148.55,270623,,,R,V*1E
$GPHDT,,T*1B
$GNGGA,043442.200,2500.7790880,N,12132.4546313,E,4,55,0.51,10.813,M,15.25,M,2,3335*47
$GNRMC,043442.200,A,2500.7790880,N,12132.4546313,E,0.02,148.55,270623,,,R,V*1C
$GPHDT,,T*1B
$GNGGA,043442.400,2500.7790892,N,12132.4546315,E,4,55,0.51,10.804,M,15.25,M,2,3335*42
$GNRMC,043442.400,A,2500.7790892,N,12132.4546315,E,0.01,148.55,270623,,,R,V*1C
$GPHDT,,T*1B
$GNGGA,043442.600,2500.7790882,N,12132.4546302,E,4,55,0.51,10.815,M,15.25,M,2,3335*47
$GNRMC,043442.600,A,2500.7790882,N,12132.4546302,E,0.04,148.55,270623,,,R,V*1C
$GPHDT,,T*1B
$GNGGA,043442.800,2500.7790822,N,12132.4546304,E,4,55,0.51,10.824,M,15.25,M,0,3335*45
$GNRMC,043442.800,A,2500.7790822,N,12132.4546304,E,0.04,148.55,270623,,,R,V*1E
$GPHDT,,T*1B
$GNGSA,A,3,19,196,195,199,17,06,20,09,194,12,05,04,1.03,0.52,0.89,1*0A
$GNGSA,A,3,68,82,67,,,,,,,,,,1.03,0.52,0.89,2*03
$GNGSA,A,3,10,04,12,11,24,19,25,,,,,,1.03,0.52,0.89,3*08
$GNGSA,A,3,33,40,07,10,08,28,14,43,13,41,42,11,1.03,0.52,0.89,4*03
$GPGSV,4,1,15,19,70,090,42,196,70,116,41,195,69,052,41,50,60,167,33,1*6C
$GPGSV,4,2,15,199,60,167,31,17,53,119,39,06,49,013,26,20,44,252,44,1*5A
$GPGSV,4,3,15,09,37,078,38,11,36,309,16,194,32,174,29,12,25,300,18,1*5C
$GPGSV,4,4,15,05,20,233,28,04,16,052,20,14,06,170,,1*5C
$GPGSV,2,1,07,196,70,116,47,195,69,052,44,199,60,167,40,06,49,013,25,8*5D
$GPGSV,2,2,07,09,37,078,38,194,32,174,35,04,16,052,22,8*6E
$GLGSV,2,1,07,68,71,101,41,83,42,011,,69,35,185,14,82,34,070,35,1*70
$GLGSV,2,2,07,67,31,035,28,73,16,263,,74,08,306,,1*4A
$GAGSV,3,1,09,10,50,000,30,04,44,141,36,12,44,039,19,11,40,321,33,7*7F
$GAGSV,3,2,09,24,37,223,36,19,31,064,26,25,29,288,22,09,13,188,,7*77
$GAGSV,3,3,09,33,08,081,21,7*48
$GAGSV,2,1,08,10,50,000,25,12,44,039,24,04,44,141,44,11,40,321,36,1*73
$GAGSV,2,2,08,24,37,223,36,19,31,064,29,25,29,288,27,33,08,081,26,1*74
$GBGSV,4,1,13,33,76,087,40,40,74,181,40,07,71,222,40,10,69,260,37,1*79
$GBGSV,4,2,13,08,54,291,30,28,51,342,40,14,50,049,18,43,48,088,39,1*78
$GBGSV,4,3,13,13,47,277,36,41,42,202,45,42,25,041,30,11,24,102,42,1*73
$GBGSV,4,4,13,37,09,254,,1*4A
$GBGSV,2,1,06,33,76,087,46,40,74,181,44,28,51,342,38,43,48,088,39,4*74
$GBGSV,2,2,06,41,42,202,43,42,25,041,30,4*76
$GNGGA,043443.000,2500.7790830,N,12132.4546306,E,4,54,0.52,10.824,M,15.25,M,1,3335*4E
$GNRMC,043443.000,A,2500.7790830,N,12132.4546306,E,0.02,148.55,270623,,,R,V*10
$GPHDT,,T*1B
$GNGGA,043443.200,2500.7790815,N,12132.4546304,E,4,54,0.52,10.820,M,15.25,M,1,3335*4D
$GNRMC,043443.200,A,2500.7790815,N,12132.4546304,E,0.02,148.55,270623,,,R,V*17
$GPHDT,,T*1B
$GNGGA,043443.400,2500.7790830,N,12132.4546323,E,4,54,0.52,10.825,M,15.25,M,1,3335*4C
$GNRMC,043443.400,A,2500.7790830,N,12132.4546323,E,0.00,148.55,270623,,,R,V*11
$GPHDT,,T*1B
$GNGGA,043443.600,2500.7790839,N,12132.4546316,E,4,54,0.52,10.827,M,15.25,M,1,3335*43
$GNRMC,043443.600,A,2500.7790839,N,12132.4546316,E,0.01,148.55,270623,,,R,V*1D
$GPHDT,,T*1B
$GNGGA,043443.800,2500.7790889,N,12132.4546314,E,4,54,0.52,10.813,M,15.25,M,0,3335*42
$GNRMC,043443.800,A,2500.7790889,N,12132.4546314,E,0.05,148.55,270623,,,R,V*1E
$GPHDT,,T*1B
$GNGSA,A,3,19,196,195,199,17,06,20,09,194,12,05,04,1.03,0.52,0.89,1*0A
$GNGSA,A,3,68,82,67,,,,,,,,,,1.03,0.52,0.89,2*03
$GNGSA,A,3,10,04,12,11,24,19,25,,,,,,1.03,0.52,0.89,3*08
$GNGSA,A,3,33,40,07,10,08,28,14,43,13,41,42,11,1.03,0.52,0.89,4*03
$GPGSV,4,1,15,19,70,090,42,196,70,116,41,195,69,052,41,199,60,167,31,1*5A
$GPGSV,4,2,15,50,60,167,33,17,53,119,39,06,49,013,26,20,44,252,44,1*6C
$GPGSV,4,3,15,09,37,078,39,11,36,309,22,194,32,174,25,12,25,300,19,1*57
$GPGSV,4,4,15,05,20,233,28,04,16,052,18,14,06,170,,1*57
$GPGSV,2,1,07,196,70,116,47,195,69,052,44,199,60,167,40,06,49,013,25,8*5D
$GPGSV,2,2,07,09,37,078,38,194,32,174,31,04,16,052,22,8*6A
$GLGSV,2,1,07,68,71,101,41,83,42,011,,69,35,185,15,82,34,070,35,1*71
$GLGSV,2,2,07,67,31,035,27,73,16,263,,74,08,306,,1*45
$GAGSV,3,1,09,10,50,000,30,04,44,141,37,12,44,039,20,11,40,321,34,7*73
$GAGSV,3,2,09,24,37,223,36,19,31,064,26,25,29,288,22,09,13,188,,7*77
$GAGSV,3,3,09,33,08,081,21,7*48
$GAGSV,2,1,08,10,50,000,25,12,44,039,24,04,44,141,44,11,40,321,37,1*72
$GAGSV,2,2,08,24,37,223,36,19,31,064,29,25,29,288,26,33,08,081,26,1*75
$GBGSV,4,1,14,33,76,087,40,40,74,181,39,07,71,222,40,10,69,260,36,1*71
$GBGSV,4,2,14,08,54,291,32,28,51,342,40,14,50,049,22,43,48,088,39,1*74
$GBGSV,4,3,14,13,47,277,36,41,42,202,45,42,25,041,30,11,24,102,42,1*74
$GBGSV,4,4,14,37,09,254,,23,07,206,,1*7F
$GBGSV,2,1,06,33,76,087,46,40,74,181,44,28,51,342,38,43,48,088,39,4*74
$GBGSV,2,2,06,41,42,202,43,42,25,041,31,4*77
$GNGGA,043444.000,2500.7790873,N,12132.4546304,E,4,54,0.52,10.805,M,15.25,M,1,3335*4F
$GNRMC,043444.000,A,2500.7790873,N,12132.4546304,E,0.03,148.55,270623,,,R,V*13
$GPHDT,,T*1B
$GNGGA,043444.200,2500.7790866,N,12132.4546320,E,4,54,0.52,10.824,M,15.25,M,1,3335*4C
$GNRMC,043444.200,A,2500.7790866,N,12132.4546320,E,0.02,148.55,270623,,,R,V*12
$GPHDT,,T*1B
$GNGGA,043444.400,2500.7790896,N,12132.4546259,E,4,54,0.52,10.788,M,15.25,M,1,3335*43
$GNRMC,043444.400,A,2500.7790896,N,12132.4546259,E,0.02,148.55,270623,,,R,V*14
$GPHDT,,T*1B
$GNGGA,043444.600,2500.7790870,N,12132.4546298,E,4,54,0.52,10.790,M,15.25,M,0,3335*4C
$GNRMC,043444.600,A,2500.7790870,N,12132.4546298,E,0.02,148.55,270623,,,R,V*13
$GPHDT,,T*1B
$GNGGA,043444.800,2500.7790859,N,12132.4546291,E,4,54,0.52,10.799,M,15.25,M,0,3335*49
$GNRMC,043444.800,A,2500.7790859,N,12132.4546291,E,0.01,148.55,270623,,,R,V*1C
$GPHDT,,T*1B
$GNGSA,A,3,19,196,195,199,17,06,20,09,194,12,05,04,1.03,0.52,0.89,1*0A
$GNGSA,A,3,68,82,67,,,,,,,,,,1.03,0.52,0.89,2*03
$GNGSA,A,3,10,04,12,11,24,19,25,,,,,,1.03,0.52,0.89,3*08
$GNGSA,A,3,33,40,07,10,08,28,14,43,13,41,42,11,1.03,0.52,0.89,4*03
$GPGSV,4,1,15,19,70,090,42,196,70,116,41,195,69,052,41,199,60,167,31,1*5A
$GPGSV,4,2,15,50,60,167,33,17,53,119,39,06,49,013,25,20,44,252,44,1*6F
$GPGSV,4,3,15,09,37,078,39,11,36,309,20,194,32,174,27,12,25,300,18,1*56
$GPGSV,4,4,15,05,20,233,28,04,16,052,16,14,06,170,,1*59
$GPGSV,2,1,08,196,70,116,47,195,69,052,44,199,60,167,40,06,49,013,24,8*53
$GPGSV,2,2,08,09,37,078,39,11,36,309,25,194,32,174,34,04,16,052,23,8*58
$GLGSV,2,1,08,68,71,101,41,83,42,011,,69,35,185,15,82,34,070,35,1*7E
$GLGSV,2,2,08,67,31,035,27,73,16,263,,84,08,314,,74,08,306,,1*78
$GAGSV,3,1,10,10,50,000,30,04,44,141,37,12,44,039,21,11,40,321,35,7*7B
$GAGSV,3,2,10,24,37,223,36,19,31,064,25,25,29,288,23,09,13,188,,7*7D
$GAGSV,3,3,10,33,08,081,21,36,05,285,,7*7F
$GAGSV,2,1,08,10,50,000,24,04,44,141,43,12,44,039,24,11,40,321,37,1*74
$GAGSV,2,2,08,24,37,223,35,19,31,064,28,25,29,288,26,33,08,081,26,1*77
$GBGSV,4,1,14,33,76,087,41,40,74,181,39,07,71,222,40,10,69,260,36,1*70
$GBGSV,4,2,14,08,54,291,33,28,51,342,41,14,50,049,21,43,48,088,40,1*79
$GBGSV,4,3,14,13,47,277,37,41,42,202,45,42,25,041,29,11,24,102,42,1*7D
$GBGSV,4,4,14,37,09,254,,23,07,206,,1*7F
$GBGSV,2,1,06,33,76,087,46,40,74,181,44,28,51,342,39,43,48,088,39,4*75
$GBGSV,2,2,06,41,42,202,43,42,25,041,31,4*77
$GNGGA,043445.000,2500.7790896,N,12132.4546329,E,4,54,0.52,10.802,M,15.25,M,1,3335*4D
$GNRMC,043445.000,A,2500.7790896,N,12132.4546329,E,0.02,148.55,270623,,,R,V*17
$GPHDT,,T*1B
$GNGGA,043445.200,2500.7790695,N,12132.4546341,E,4,55,0.51,10.845,M,15.25,M,1,3335*4D
$GNRMC,043445.200,A,2500.7790695,N,12132.4546341,E,0.02,148.55,270623,,,R,V*16
$GPHDT,,T*1B
$GNGGA,043445.400,2500.7790694,N,12132.4546348,E,4,56,0.49,10.842,M,15.25,M,1,3335*4E
$GNRMC,043445.400,A,2500.7790694,N,12132.4546348,E,0.01,148.55,270623,,,R,V*1B
$GPHDT,,T*1B
$GNGGA,043445.600,2500.7790680,N,12132.4546321,E,4,56,0.49,10.866,M,15.25,M,1,3335*40
$GNRMC,043445.600,A,2500.7790680,N,12132.4546321,E,0.01,148.55,270623,,,R,V*13
$GPHDT,,T*1B
$GNGGA,043445.800,2500.7790829,N,12132.4546391,E,4,56,0.49,10.851,M,15.25,M,1,3335*4C
$GNRMC,043445.800,A,2500.7790829,N,12132.4546391,E,0.00,148.55,270623,,,R,V*1A
$GPHDT,,T*1B
$GNGSA,A,3,19,196,195,199,17,06,20,09,194,12,05,04,1.01,0.49,0.88,1*03
$GNGSA,A,3,11,,,,,,,,,,,,1.01,0.49,0.88,1*0C
$GNGSA,A,3,68,69,82,67,,,,,,,,,1.01,0.49,0.88,2*05
$GNGSA,A,3,10,04,12,11,24,19,25,,,,,,1.01,0.49,0.88,3*01
$GNGSA,A,3,33,40,07,10,08,28,14,43,13,41,42,11,1.01,0.49,0.88,4*0A
$GPGSV,4,1,15,19,70,090,43,196,70,116,42,195,69,052,41,199,60,167,32,1*5B
$GPGSV,4,2,15,50,60,167,34,17,53,119,39,06,49,013,26,20,44,252,44,1*6B
$GPGSV,4,3,15,09,37,078,37,11,36,309,20,194,32,174,29,12,25,300,18,1*56
$GPGSV,4,4,15,05,20,233,28,04,16,052,18,14,06,170,,1*57
$GPGSV,2,1,08,196,70,116,47,195,69,052,44,199,60,167,40,06,49,013,23,8*54
$GPGSV,2,2,08,09,37,078,38,11,36,309,26,194,32,174,34,04,16,052,23,8*5A
$GLGSV,2,1,06,68,71,101,42,83,42,011,,69,35,185,16,82,34,070,34,1*71
$GLGSV,2,2,06,67,31,035,29,74,08,306,,1*7E
$GAGSV,3,1,09,10,50,000,30,04,44,141,37,12,44,039,21,11,40,321,33,7*75
$GAGSV,3,2,09,24,37,223,36,19,31,064,24,25,29,288,23,33,08,081,19,7*77
$GAGSV,3,3,09,36,05,285,,7*45
$GAGSV,2,1,08,10,50,000,25,04,44,141,43,12,44,039,24,11,40,321,36,1*74
$GAGSV,2,2,08,24,37,223,34,19,31,064,29,25,29,288,26,33,08,081,25,1*74
$GBGSV,4,1,15,33,76,087,41,40,74,181,39,07,71,222,40,10,69,260,36,1*71
$GBGSV,4,2,15,08,54,291,31,28,51,342,41,14,50,049,24,43,48,088,39,1*71
$GBGSV,4,3,15,13,47,277,37,41,42,202,45,42,25,041,30,11,24,102,38,1*79
$GBGSV,4,4,15,37,09,254,,23,07,206,,34,07,114,,1*4A
$GBGSV,2,1,06,33,76,087,46,40,74,181,44,28,51,342,39,43,48,088,38,4*74
$GBGSV,2,2,06,41,42,202,43,42,25,041,31,4*77
$GNGGA,043446.000,2500.7790833,N,12132.4546317,E,4,56,0.49,10.821,M,15.25,M,2,3335*46
$GNRMC,043446.000,A,2500.7790833,N,12132.4546317,E,0.01,148.55,270623,,,R,V*15
$GPHDT,,T*1B
$GNGGA,043446.200,2500.7790879,N,12132.4546331,E,4,56,0.49,10.805,M,15.25,M,2,3335*48
$GNRMC,043446.200,A,2500.7790879,N,12132.4546331,E,0.00,148.55,270623,,,R,V*1C
