$FW : RTK35X,V1.1X0314AS,Lib20210517,1*54
$Tool : LOCOSYS , GNSS Firebird , v1.0.0.19*39
$---------------------------------------------------*2D
$GPHDT,,T*1B
$GNGGA,094855.600,2500.7793975,N,12132.4638586,E,2,50,0.53,15.840,M,15.25,M,0,3335*4B
$GNRMC,094855.600,A,2500.7793975,N,12132.4638586,E,0.00,210.55,260623,,,D,V*0B
$GPHDT,,T*1B
$GNGGA,094855.800,2500.7793975,N,12132.4638586,E,2,50,0.53,15.845,M,15.25,M,0,3335*40
$GNRMC,094855.800,A,2500.7793975,N,12132.4638586,E,0.00,210.55,260623,,,D,V*05
$GPHDT,,T*1B
$GNGSA,A,3,196,199,195,24,13,05,29,20,23,11,194,,1.01,0.53,0.86,1*0E
$GNGSA,A,3,84,69,79,80,,,,,,,,,1.01,0.53,0.86,2*0F
$GNGSA,A,3,08,15,13,07,03,34,,,,,,,1.01,0.53,0.86,3*06
$GNGSA,A,3,39,38,16,06,13,20,29,37,46,32,,,1.01,0.53,0.86,4*00
$GPGSV,4,1,14,196,72,047,41,15,61,348,22,199,60,167,36,195,52,174,44,1*5F
$GPGSV,4,2,14,24,51,178,42,13,41,031,36,05,41,071,44,18,40,318,,1*6C
$GPGSV,4,3,14,41,38,242,34,29,26,231,46,20,25,097,40,23,18,308,22,1*6A
$GPGSV,4,4,14,194,17,149,22,11,15,146,19,1*58
$GPGSV,2,1,06,196,72,047,45,199,60,167,46,195,52,174,46,24,51,178,44,8*52
$GPGSV,2,2,06,194,17,149,18,11,15,146,18,8*5A
$GLGSV,2,1,05,84,59,214,33,85,37,317,17,69,31,024,29,79,24,081,41,1*77
$GLGSV,2,2,05,80,20,137,21,1*41
$GAGSV,2,1,08,08,64,332,36,15,62,165,41,13,58,312,21,07,32,257,28,7*72
$GAGSV,2,2,08,03,31,039,39,34,12,150,16,30,03,168,,25,02,075,,7*75
$GAGSV,2,1,06,08,64,332,35,15,62,165,43,13,58,312,28,07,32,257,32,1*79
$GAGSV,2,2,06,03,31,039,41,34,12,150,20,1*7F
$GBGSV,3,1,12,39,68,208,44,38,68,026,38,16,58,204,39,06,56,204,36,1*73
$GBGSV,3,2,12,13,52,343,24,20,51,005,33,29,47,252,47,37,33,090,48,1*7F
$GBGSV,3,3,12,19,32,298,,46,27,156,32,32,19,063,39,35,18,310,20,1*72
$GBGSV,2,1,07,38,68,026,42,39,68,208,43,20,51,005,34,29,47,252,42,4*76
$GBGSV,2,2,07,37,33,090,46,46,27,156,34,32,19,063,38,4*4E
$GNGGA,094856.000,2500.7794035,N,12132.4638586,E,2,49,0.53,15.854,M,15.25,M,1,3335*48
$GNRMC,094856.000,A,2500.7794035,N,12132.4638586,E,0.00,210.55,260623,,,D,V*04
$GPHDT,,T*1B
$GNGGA,094856.200,2500.7794095,N,12132.4638586,E,2,51,0.51,15.849,M,15.25,M,1,3335*47
$GNRMC,094856.200,A,2500.7794095,N,12132.4638586,E,0.00,210.55,260623,,,D,V*0C
$GPHDT,,T*1B
$GNGGA,094856.400,2500.7794095,N,12132.4638586,E,2,51,0.51,15.846,M,15.25,M,1,3335*4E
$GNRMC,094856.400,A,2500.7794095,N,12132.4638586,E,0.00,210.55,260623,,,D,V*0A
$GPHDT,,T*1B
$GNGGA,094856.600,2500.7794095,N,12132.4638586,E,2,52,0.50,15.856,M,15.25,M,1,3335*4F
$GNRMC,094856.600,A,2500.7794095,N,12132.4638586,E,0.00,210.55,260623,,,D,V*08
$GPHDT,,T*1B
$GNGGA,094856.800,2500.7794035,N,12132.4638586,E,2,52,0.50,15.833,M,15.25,M,1,3335*48
$GNRMC,094856.800,A,2500.7794035,N,12132.4638586,E,0.00,210.55,260623,,,D,V*0C
$GPHDT,,T*1B
$GNGSA,A,3,196,15,199,195,24,13,05,29,20,23,194,11,0.98,0.50,0.84,1*0A
$GNGSA,A,3,84,85,69,79,80,,,,,,,,0.98,0.50,0.84,2*02
$GNGSA,A,3,08,15,13,07,03,34,,,,,,,0.98,0.50,0.84,3*06
$GNGSA,A,3,39,38,16,06,13,20,29,37,46,32,,,0.98,0.50,0.84,4*00
$GPGSV,4,1,14,196,72,047,41,15,61,348,37,199,60,167,36,195,52,174,44,1*5B
$GPGSV,4,2,14,24,51,178,42,13,41,031,25,05,41,071,44,18,40,318,,1*6E
$GPGSV,4,3,14,41,38,242,33,29,26,231,46,20,25,097,39,23,18,308,23,1*62
$GPGSV,4,4,14,194,17,149,28,11,15,146,21,1*59
$GPGSV,2,1,06,196,72,047,45,199,60,167,46,195,52,174,46,24,51,178,44,8*52
$GPGSV,2,2,06,194,17,149,22,11,15,146,19,8*52
$GLGSV,2,1,05,84,59,214,32,85,37,317,16,69,31,024,30,79,24,081,41,1*7F
$GLGSV,2,2,05,80,20,137,19,1*4A
$GAGSV,2,1,08,08,64,332,38,15,62,165,41,13,58,312,22,07,32,257,26,7*71
$GAGSV,2,2,08,03,31,039,38,34,12,150,16,30,03,168,,25,02,075,,7*74
$GAGSV,2,1,06,08,64,332,37,15,62,165,43,13,58,312,31,07,32,257,33,1*72
$GAGSV,2,2,06,03,31,039,39,34,12,150,20,1*70
$GBGSV,3,1,12,39,68,208,44,38,68,026,38,16,58,204,39,06,56,204,36,1*73
$GBGSV,3,2,12,13,52,343,27,20,51,005,31,29,47,252,47,37,33,090,48,1*7E
$GBGSV,3,3,12,19,32,298,,46,27,156,28,32,19,063,40,35,18,310,19,1*7D
$GBGSV,2,1,07,38,68,026,41,39,68,208,43,20,51,005,34,29,47,252,42,4*75
$GBGSV,2,2,07,37,33,090,46,46,27,156,34,32,19,063,38,4*4E
$GNGGA,094857.000,2500.7793975,N,12132.4638586,E,2,52,0.50,15.835,M,15.25,M,2,3335*4E
$GNRMC,094857.000,A,2500.7793975,N,12132.4638586,E,0.00,210.55,260623,,,D,V*0F
$GPHDT,,T*1B
$GNGGA,094857.200,2500.7793975,N,12132.4638526,E,2,52,0.50,15.815,M,15.25,M,2,3335*44
$GNRMC,094857.200,A,2500.7793975,N,12132.4638526,E,0.00,210.55,260623,,,D,V*07
$GPHDT,,T*1B
$GNGGA,094857.400,2500.7793915,N,12132.4638526,E,2,52,0.50,15.815,M,15.25,M,2,3335*44
$GNRMC,094857.400,A,2500.7793915,N,12132.4638526,E,0.00,210.55,260623,,,D,V*07
$GPHDT,,T*1B
$GNGGA,094857.600,2500.7793795,N,12132.4638466,E,2,52,0.50,15.816,M,15.25,M,2,3335*46
$GNRMC,094857.600,A,2500.7793795,N,12132.4638466,E,0.00,210.55,260623,,,D,V*06
$GPHDT,,T*1B
$GNGGA,094857.800,2500.7793735,N,12132.4638466,E,2,51,0.50,15.818,M,15.25,M,2,3335*4F
$GNRMC,094857.800,A,2500.7793735,N,12132.4638466,E,0.00,210.55,260623,,,D,V*02
$GPHDT,,T*1B
$GNGSA,A,3,196,15,199,195,24,13,05,29,20,23,194,11,0.98,0.50,0.84,1*0A
$GNGSA,A,3,84,85,69,79,80,,,,,,,,0.98,0.50,0.84,2*02
$GNGSA,A,3,08,15,13,07,03,34,,,,,,,0.98,0.50,0.84,3*06
$GNGSA,A,3,38,39,16,06,13,20,29,37,32,46,,,0.98,0.50,0.84,4*00
$GPGSV,4,1,14,196,72,047,40,15,61,348,35,199,60,167,36,195,52,174,44,1*58
$GPGSV,4,2,14,24,51,178,42,13,41,031,35,05,41,071,43,18,40,318,,1*68
$GPGSV,4,3,14,41,38,242,33,29,26,231,46,20,25,097,39,23,18,308,23,1*62
$GPGSV,4,4,14,194,17,149,28,11,15,146,24,1*5C
$GPGSV,2,1,06,196,72,047,45,199,60,167,46,195,52,174,46,24,51,178,44,8*52
$GPGSV,2,2,06,194,17,149,22,11,15,146,20,8*58
$GLGSV,2,1,05,84,59,214,32,85,37,317,16,69,31,024,31,79,24,081,42,1*7D
$GLGSV,2,2,05,80,20,137,19,1*4A
$GAGSV,2,1,08,08,64,332,38,15,62,165,41,13,58,312,24,07,32,257,26,7*77
$GAGSV,2,2,08,03,31,039,36,34,12,150,14,30,03,168,,25,02,075,,7*78
$GAGSV,2,1,06,08,64,332,38,15,62,165,43,13,58,312,32,07,32,257,33,1*7E
$GAGSV,2,2,06,03,31,039,36,34,12,150,20,1*7F
$GBGSV,4,1,13,38,68,026,40,39,68,208,44,16,58,204,40,06,56,204,36,1*74
$GBGSV,4,2,13,13,52,343,27,20,51,005,36,29,47,252,47,37,33,090,48,1*7F
$GBGSV,4,3,13,19,32,298,,46,27,156,28,32,19,063,36,35,18,310,21,1*71
$GBGSV,4,4,13,40,05,194,,1*49
$GBGSV,2,1,07,38,68,026,40,39,68,208,43,20,51,005,38,29,47,252,42,4*78
$GBGSV,2,2,07,37,33,090,46,46,27,156,33,32,19,063,33,4*42
$GNGGA,094858.000,2500.7793675,N,12132.4638406,E,2,51,0.50,15.818,M,15.25,M,3,3335*4A
$GNRMC,094858.000,A,2500.7793675,N,12132.4638406,E,0.00,210.55,260623,,,D,V*06
$GPHDT,,T*1B
$GNGGA,094858.200,2500.7793615,N,12132.4638406,E,2,52,0.50,15.827,M,15.25,M,3,3335*41
$GNRMC,094858.200,A,2500.7793615,N,12132.4638406,E,0.00,210.55,260623,,,D,V*02
$GPHDT,,T*1B
$GNGGA,094858.400,2500.7793555,N,12132.4638346,E,2,51,0.50,15.829,M,15.25,M,3,3335*4E
$GNRMC,094858.400,A,2500.7793555,N,12132.4638346,E,0.00,210.55,260623,,,D,V*00
$GPHDT,,T*1B
$GNGGA,094858.600,2500.7793495,N,12132.4638286,E,2,51,0.55,15.830,M,15.25,M,3,3335*41
$GNRMC,094858.600,A,2500.7793495,N,12132.4638286,E,0.00,210.55,260623,,,D,V*02
$GPHDT,,T*1B
$GNGGA,094858.800,2500.7793435,N,12132.4638286,E,2,52,0.50,15.828,M,15.25,M,3,3335*4A
$GNRMC,094858.800,A,2500.7793435,N,12132.4638286,E,0.00,210.55,260623,,,D,V*06
$GPHDT,,T*1B
$GNGSA,A,3,196,15,199,195,24,13,05,29,20,23,194,11,0.98,0.50,0.84,1*0A
$GNGSA,A,3,84,85,69,79,80,,,,,,,,0.98,0.50,0.84,2*02
$GNGSA,A,3,08,15,13,07,03,34,,,,,,,0.98,0.50,0.84,3*06
$GNGSA,A,3,38,39,16,06,13,20,29,37,46,32,,,0.98,0.50,0.84,4*00
$GPGSV,4,1,14,196,72,047,42,15,61,348,34,199,60,167,36,195,52,174,44,1*5B
$GPGSV,4,2,14,24,51,178,42,13,41,031,36,05,41,071,40,18,40,318,,1*68
$GPGSV,4,3,14,41,38,242,33,29,26,231,46,20,25,097,40,23,18,308,25,1*6A
$GPGSV,4,4,14,194,17,149,28,11,15,146,24,1*5C
$GPGSV,2,1,07,196,72,047,45,199,60,167,46,195,52,174,46,24,51,178,44,8*53
$GPGSV,2,2,07,23,18,308,20,194,17,149,21,11,15,146,19,8*61
$GLGSV,2,1,05,84,59,214,32,85,37,317,17,69,31,024,30,79,24,081,39,1*71
$GLGSV,2,2,05,80,20,137,20,1*40
$GAGSV,2,1,07,08,64,332,38,15,62,165,41,13,58,312,25,07,32,257,27,7*78
$GAGSV,2,2,07,03,31,039,42,34,12,150,15,25,02,075,,7*4A
$GAGSV,2,1,06,08,64,332,38,15,62,165,43,13,58,312,33,07,32,257,33,1*7F
$GAGSV,2,2,06,03,31,039,40,34,12,150,20,1*7E
$GBGSV,3,1,12,38,68,026,41,39,68,208,44,16,58,204,40,06,56,204,36,1*73
$GBGSV,3,2,12,13,52,343,27,20,51,005,36,29,47,252,47,37,33,090,49,1*78
$GBGSV,3,3,12,19,32,298,,46,27,156,30,32,19,063,34,35,18,310,,1*7F
$GBGSV,2,1,07,38,68,026,43,39,68,208,43,20,51,005,38,29,47,252,43,4*7A
$GBGSV,2,2,07,37,33,090,46,46,27,156,33,32,19,063,33,4*42
$GNGGA,094859.000,2500.7793315,N,12132.4638226,E,2,53,0.50,15.826,M,15.25,M,4,3335*44
$GNRMC,094859.000,A,2500.7793315,N,12132.4638226,E,0.00,210.55,260623,,,D,V*00
$GPHDT,,T*1B
$GNGGA,094859.200,2500.7793255,N,12132.4638166,E,2,52,0.50,15.826,M,15.25,M,2,3335*43
$GNRMC,094859.200,A,2500.7793255,N,12132.4638166,E,0.00,210.55,260623,,,D,V*00
$GPHDT,,T*1B
$GNGGA,094859.400,2500.7793195,N,12132.4638106,E,2,52,0.50,15.834,M,15.25,M,1,3335*4C
$GNRMC,094859.400,A,2500.7793195,N,12132.4638106,E,0.00,210.55,260623,,,D,V*0F
$GPHDT,,T*1B
$GNGGA,094859.600,2500.7793135,N,12132.4638106,E,2,52,0.50,15.845,M,15.25,M,1,3335*42
$GNRMC,094859.600,A,2500.7793135,N,12132.4638106,E,0.00,210.55,260623,,,D,V*07
$GPHDT,,T*1B
$GNGGA,094859.800,2500.7793015,N,12132.4638106,E,2,51,0.50,15.855,M,15.25,M,1,3335*4D
$GNRMC,094859.800,A,2500.7793015,N,12132.4638106,E,0.00,210.55,260623,,,D,V*0A
$GPHDT,,T*1B
$GNGSA,A,3,196,15,199,195,24,13,05,29,20,23,194,11,0.98,0.50,0.84,1*0A
$GNGSA,A,3,84,85,69,79,80,,,,,,,,0.98,0.50,0.84,2*02
$GNGSA,A,3,08,15,13,07,03,34,,,,,,,0.98,0.50,0.84,3*06
$GNGSA,A,3,38,39,16,06,13,20,29,37,32,46,,,0.98,0.50,0.84,4*00
$GPGSV,4,1,14,196,72,047,42,15,61,348,36,199,60,167,37,195,52,174,44,1*58
$GPGSV,4,2,14,24,51,178,42,13,41,031,36,05,41,071,40,18,40,318,,1*68
$GPGSV,4,3,14,41,38,242,33,29,26,231,47,20,25,097,41,23,18,308,25,1*6A
$GPGSV,4,4,14,194,17,149,26,11,15,146,23,1*55
$GPGSV,2,1,07,196,72,047,45,199,60,167,46,195,52,174,46,24,51,178,44,8*53
$GPGSV,2,2,07,23,18,308,20,194,17,149,20,11,15,146,19,8*60
$GLGSV,2,1,05,84,59,214,32,85,37,317,18,69,31,024,31,79,24,081,39,1*7F
$GLGSV,2,2,05,80,20,137,23,1*43
$GAGSV,2,1,07,08,64,332,38,15,62,165,41,13,58,312,25,07,32,257,27,7*78
$GAGSV,2,2,07,03,31,039,42,34,12,150,16,25,02,075,,7*49
$GAGSV,2,1,06,08,64,332,38,15,62,165,43,13,58,312,31,07,32,257,33,1*7D
$GAGSV,2,2,06,03,31,039,41,34,12,150,19,1*75
$GBGSV,3,1,12,38,68,026,41,39,68,208,44,16,58,204,40,06,56,204,35,1*70
$GBGSV,3,2,12,13,52,343,27,20,51,005,36,29,47,252,47,37,33,090,49,1*78
$GBGSV,3,3,12,19,32,298,,46,27,156,,32,19,063,34,35,18,310,,1*7C
$GBGSV,2,1,07,38,68,026,43,39,68,208,43,20,51,005,38,29,47,252,43,4*7A
$GBGSV,2,2,07,37,33,090,45,46,27,156,33,32,19,063,34,4*46
$GNGGA,094900.000,2500.7792955,N,12132.4638046,E,2,52,0.50,15.858,M,15.25,M,2,3335*4C
$GNRMC,094900.000,A,2500.7792955,N,12132.4638046,E,0.00,210.55,260623,,,D,V*06
$GPHDT,,T*1B
$GNGGA,094900.200,2500.7792895,N,12132.4637986,E,2,52,0.50,15.857,M,15.25,M,2,3335*46
$GNRMC,094900.200,A,2500.7792895,N,12132.4637986,E,0.00,210.55,260623,,,D,V*03
$GPHDT,,T*1B
$GNGGA,094900.400,2500.7792835,N,12132.4637866,E,2,53,0.50,15.870,M,15.25,M,2,3335*41
$GNRMC,094900.400,A,2500.7792835,N,12132.4637866,E,0.00,210.55,260623,,,D,V*00
$GPHDT,,T*1B
$GNGGA,094900.600,2500.7792775,N,12132.4637866,E,2,53,0.50,15.881,M,15.25,M,2,3335*46
$GNRMC,094900.600,A,2500.7792775,N,12132.4637866,E,0.00,210.55,260623,,,D,V*09
$GPHDT,,T*1B
$GNGGA,094900.800,2500.7792715,N,12132.4637806,E,2,54,0.50,15.886,M,15.25,M,2,3335*48
$GNRMC,094900.800,A,2500.7792715,N,12132.4637806,E,0.00,210.55,260623,,,D,V*07
$GPHDT,,T*1B
$GNGSA,A,3,196,15,199,195,24,13,05,18,29,20,23,194,0.97,0.50,0.83,1*0B
$GNGSA,A,3,11,,,,,,,,,,,,0.97,0.50,0.83,1*01
$GNGSA,A,3,84,85,69,79,80,,,,,,,,0.97,0.50,0.83,2*0A
$GNGSA,A,3,08,15,13,07,03,34,,,,,,,0.97,0.50,0.83,3*0E
$GNGSA,A,3,38,39,16,06,13,20,29,37,46,32,,,0.97,0.50,0.83,4*08
$GPGSV,4,1,14,196,72,047,42,15,61,348,36,199,60,167,37,195,52,174,44,1*58
$GPGSV,4,2,14,24,51,178,42,13,41,031,35,05,41,071,40,18,40,318,26,1*6F
$GPGSV,4,3,14,41,38,242,34,29,26,231,47,20,25,097,41,23,18,308,24,1*6C
$GPGSV,4,4,14,194,17,149,27,11,15,146,23,1*54
$GPGSV,2,1,07,196,72,047,45,199,60,167,46,195,52,174,46,24,51,178,44,8*53
$GPGSV,2,2,07,23,18,308,20,194,17,149,20,11,15,146,19,8*60
$GLGSV,2,1,05,84,59,214,32,85,37,317,19,69,31,024,30,79,24,081,38,1*7E
$GLGSV,2,2,05,80,20,137,25,1*45
$GAGSV,2,1,07,08,64,332,38,15,62,165,42,13,58,312,24,07,32,257,28,7*75
$GAGSV,2,2,07,03,31,039,42,34,12,150,14,25,02,075,,7*4B
$GAGSV,2,1,06,08,64,332,38,15,62,165,43,13,58,312,31,07,32,257,33,1*7D
$GAGSV,2,2,06,03,31,039,41,34,12,150,19,1*75
$GBGSV,3,1,12,38,68,026,41,39,68,208,44,16,58,204,40,06,56,204,35,1*70
$GBGSV,3,2,12,13,52,343,28,20,51,005,36,29,47,252,47,37,33,090,49,1*77
$GBGSV,3,3,12,19,32,298,,46,27,156,30,32,19,063,34,35,18,310,,1*7F
$GBGSV,2,1,07,38,68,026,43,39,68,208,43,20,51,005,38,29,47,252,43,4*7A
$GBGSV,2,2,07,37,33,090,45,46,27,156,33,32,19,063,34,4*46
$GNGGA,094901.000,2500.7792595,N,12132.4637746,E,2,54,0.50,15.890,M,15.25,M,3,3335*46
$GNRMC,094901.000,A,2500.7792595,N,12132.4637746,E,0.00,210.55,260623,,,D,V*0F
$GPHDT,,T*1B
$GNGGA,094901.200,2500.7792475,N,12132.4637686,E,2,54,0.50,15.895,M,15.25,M,3,3335*43
$GNRMC,094901.200,A,2500.7792475,N,12132.4637686,E,0.00,210.55,260623,,,D,V*0F
$GPHDT,,T*1B
$GNGGA,094901.400,2500.7792355,N,12132.4637626,E,2,53,0.50,15.898,M,15.25,M,1,3335*42
$GNRMC,094901.400,A,2500.7792355,N,12132.4637626,E,0.00,210.55,260623,,,D,V*06
$GPHDT,,T*1B
$GNGGA,094901.600,2500.7792235,N,12132.4637626,E,2,53,0.50,15.912,M,15.25,M,1,3335*44
$GNRMC,094901.600,A,2500.7792235,N,12132.4637626,E,0.00,210.55,260623,,,D,V*03
$GPHDT,,T*1B
$GNGGA,094901.800,2500.7792115,N,12132.4637566,E,2,53,0.50,15.914,M,15.25,M,1,3335*4A
$GNRMC,094901.800,A,2500.7792115,N,12132.4637566,E,0.00,210.55,260623,,,D,V*0B
$GPHDT,,T*1B
$GNGSA,A,3,196,15,199,195,24,13,05,18,29,20,23,194,0.97,0.50,0.83,1*0B
$GNGSA,A,3,11,,,,,,,,,,,,0.97,0.50,0.83,1*01
$GNGSA,A,3,84,85,69,79,80,,,,,,,,0.97,0.50,0.83,2*0A
$GNGSA,A,3,08,15,13,07,03,34,,,,,,,0.97,0.50,0.83,3*0E
$GNGSA,A,3,38,39,16,06,13,20,29,37,32,46,,,0.97,0.50,0.83,4*08
$GPGSV,4,1,14,196,72,047,42,15,61,348,36,199,60,167,37,195,52,174,44,1*58
$GPGSV,4,2,14,24,51,178,42,13,41,031,34,05,41,071,40,18,40,318,26,1*6E
$GPGSV,4,3,14,41,38,242,34,29,26,231,47,20,25,097,41,23,18,308,24,1*6C
$GPGSV,4,4,14,194,17,149,27,11,15,146,23,1*54
$GPGSV,2,1,07,196,72,047,45,199,60,167,46,195,52,174,46,24,51,178,44,8*53
$GPGSV,2,2,07,23,18,308,20,194,17,149,22,11,15,146,18,8*63
$GLGSV,2,1,05,84,59,214,32,85,37,317,19,69,31,024,28,79,24,081,38,1*77
$GLGSV,2,2,05,80,20,137,24,1*44
$GAGSV,2,1,06,08,64,332,38,15,62,165,42,13,58,312,24,07,32,257,28,7*74
$GAGSV,2,2,06,03,31,039,42,34,12,150,13,7*7A
$GAGSV,2,1,06,08,64,332,38,15,62,165,43,13,58,312,31,07,32,257,33,1*7D
$GAGSV,2,2,06,03,31,039,41,34,12,150,19,1*75
$GBGSV,3,1,12,38,68,026,41,39,68,208,44,16,58,204,40,06,56,204,35,1*70
$GBGSV,3,2,12,13,52,343,28,20,51,005,36,29,47,252,47,37,33,090,49,1*77
$GBGSV,3,3,12,19,32,298,,46,27,156,,32,19,063,34,35,18,310,,1*7C
$GBGSV,2,1,07,38,68,026,43,39,68,208,43,20,51,005,38,29,47,252,43,4*7A
$GBGSV,2,2,07,37,33,090,45,46,27,156,33,32,19,063,34,4*46
$GNGGA,094902.000,2500.7791995,N,12132.4637506,E,2,53,0.50,15.920,M,15.25,M,2,3335*40
$GNRMC,094902.000,A,2500.7791995,N,12132.4637506,E,0.00,210.55,260623,,,D,V*05
$GPHDT,,T*1B
$GNGGA,094902.200,2500.7791875,N,12132.4637506,E,2,53,0.50,15.926,M,15.25,M,2,3335*4B
$GNRMC,094902.200,A,2500.7791875,N,12132.4637506,E,0.00,210.55,260623,,,D,V*08
$GPHDT,,T*1B
$GNGGA,094902.400,2500.7791755,N,12132.4637446,E,2,53,0.50,15.945,M,15.25,M,2,3335*40
$GNRMC,094902.400,A,2500.7791755,N,12132.4637446,E,0.00,210.55,260623,,,D,V*06
$GPHDT,,T*1B
$GNGGA,094902.600,2500.7791635,N,12132.4637386,E,2,53,0.50,15.963,M,15.25,M,2,3335*4A
$GNRMC,094902.600,A,2500.7791635,N,12132.4637386,E,0.00,210.55,260623,,,D,V*08
$GPHDT,,T*1B
$GNGGA,094902.800,2500.7791515,N,12132.4637386,E,2,53,0.50,15.972,M,15.25,M,2,3335*45
$GNRMC,094902.800,A,2500.7791515,N,12132.4637386,E,0.00,210.55,260623,,,D,V*07
$GPHDT,,T*1B
$GNGSA,A,3,196,15,199,195,24,13,05,18,29,20,23,194,0.97,0.50,0.83,1*0B
$GNGSA,A,3,11,,,,,,,,,,,,0.97,0.50,0.83,1*01
$GNGSA,A,3,84,85,69,79,80,,,,,,,,0.97,0.50,0.83,2*0A
$GNGSA,A,3,08,15,13,07,03,34,,,,,,,0.97,0.50,0.83,3*0E
$GNGSA,A,3,38,39,16,06,13,20,29,37,32,46,,,0.97,0.50,0.83,4*08
$GPGSV,4,1,14,196,72,047,42,15,61,348,35,199,60,167,37,195,52,174,44,1*5B
$GPGSV,4,2,14,24,51,178,42,13,41,031,35,05,41,071,40,18,40,318,25,1*6C
$GPGSV,4,3,14,41,38,242,33,29,26,231,47,20,25,097,41,23,18,308,23,1*6C
$GPGSV,4,4,14,194,17,149,27,11,15,146,21,1*56
$GPGSV,2,1,07,196,72,047,46,199,60,167,46,195,52,174,46,24,51,178,44,8*50
$GPGSV,2,2,07,23,18,308,21,194,17,149,22,11,15,146,18,8*62
$GLGSV,2,1,06,84,59,214,32,85,37,317,19,70,34,306,,69,31,024,28,1*7B
$GLGSV,2,2,06,79,24,081,38,80,20,137,22,1*7B
$GAGSV,2,1,06,08,64,332,38,15,62,165,42,13,58,312,24,07,32,257,28,7*74
$GAGSV,2,2,06,03,31,039,42,34,12,150,12,7*7B
$GAGSV,2,1,06,08,64,332,38,15,62,165,43,13,58,312,32,07,32,257,33,1*7E
$GAGSV,2,2,06,03,31,039,41,34,12,150,20,1*7F
$GBGSV,3,1,12,38,68,026,41,39,68,208,44,16,58,204,39,06,56,204,35,1*7E
$GBGSV,3,2,12,13,52,343,28,20,51,005,36,29,47,252,47,37,33,090,49,1*77
$GBGSV,3,3,12,19,32,298,,46,27,156,,32,19,063,35,35,18,310,19,1*75
$GBGSV,2,1,07,38,68,026,43,39,68,208,44,20,51,005,38,29,47,252,43,4*7D
$GBGSV,2,2,07,37,33,090,45,46,27,156,33,32,19,063,35,4*47
$GNGGA,094903.000,2500.7791335,N,12132.4637326,E,2,53,0.50,15.982,M,15.25,M,3,3335*4C
$GNRMC,094903.000,A,2500.7791335,N,12132.4637326,E,0.00,210.55,260623,,,D,V*00
$GPHDT,,T*1B
$GNGGA,094903.200,2500.7791155,N,12132.4637326,E,2,53,0.50,15.995,M,15.25,M,3,3335*4C
$GNRMC,094903.200,A,2500.7791155,N,12132.4637326,E,0.00,210.55,260623,,,D,V*06
$GPHDT,,T*1B
$GNGGA,094903.400,2500.7791035,N,12132.4637266,E,2,53,0.50,16.008,M,15.25,M,3,3335*46
$GNRMC,094903.400,A,2500.7791035,N,12132.4637266,E,0.00,210.55,260623,,,D,V*02
$GPHDT,,T*1B
$GNGGA,094903.600,2500.7790855,N,12132.4637266,E,2,53,0.50,16.028,M,15.25,M,3,3335*49
$GNRMC,094903.600,A,2500.7790855,N,12132.4637266,E,0.00,210.55,260623,,,D,V*0F
$GPHDT,,T*1B
$GNGGA,094903.800,2500.7790735,N,12132.4637206,E,2,53,0.50,16.042,M,15.25,M,3,3335*44
$GNRMC,094903.800,A,2500.7790735,N,12132.4637206,E,0.00,210.55,260623,,,D,V*0E
$GPHDT,,T*1B
$GNGSA,A,3,196,15,199,195,24,13,05,18,29,20,23,194,0.91,0.47,0.78,1*0F
$GNGSA,A,3,11,,,,,,,,,,,,0.91,0.47,0.78,1*05
$GNGSA,A,3,84,85,69,79,80,,,,,,,,0.91,0.47,0.78,2*0E
$GNGSA,A,3,08,15,13,07,03,34,,,,,,,0.91,0.47,0.78,3*0A
$GNGSA,A,3,38,39,16,06,13,20,29,37,46,32,35,,0.91,0.47,0.78,4*0A
$GPGSV,4,1,14,196,72,047,42,15,61,348,35,199,60,167,37,195,52,174,44,1*5B
$GPGSV,4,2,14,24,51,178,42,13,41,031,36,05,41,071,40,18,40,318,25,1*6F
$GPGSV,4,3,14,41,38,242,33,29,26,231,47,20,25,097,41,23,18,308,23,1*6C
$GPGSV,4,4,14,194,17,149,27,11,15,146,21,1*56
$GPGSV,2,1,07,196,72,047,46,199,60,167,46,195,52,174,46,24,51,178,44,8*50
$GPGSV,2,2,07,23,18,308,20,194,17,149,20,11,15,146,18,8*61
$GLGSV,2,1,05,84,59,214,32,85,37,317,18,69,31,024,28,79,24,081,39,1*77
$GLGSV,2,2,05,80,20,137,22,1*42
$GAGSV,2,1,06,08,64,332,38,15,62,165,42,13,58,312,24,07,32,257,29,7*75
$GAGSV,2,2,06,03,31,039,42,34,12,150,13,7*7A
$GAGSV,2,1,06,08,64,332,38,15,62,165,43,13,58,312,32,07,32,257,33,1*7E
$GAGSV,2,2,06,03,31,039,41,34,12,150,20,1*7F
$GBGSV,3,1,12,38,68,026,41,39,68,208,44,16,58,204,39,06,56,205,35,1*7F
$GBGSV,3,2,12,13,52,343,28,20,51,005,36,29,47,252,47,37,33,090,49,1*77
$GBGSV,3,3,12,19,32,298,,46,27,156,29,32,19,063,35,35,18,310,19,1*7E
$GBGSV,2,1,07,38,68,026,43,39,68,208,44,20,51,005,38,29,47,252,42,4*7C
$GBGSV,2,2,07,37,33,090,45,46,27,156,32,32,19,063,34,4*47
$GNGGA,094904.000,2500.7790615,N,12132.4637206,E,2,55,0.47,16.061,M,15.25,M,4,3335*4E
$GNRMC,094904.000,A,2500.7790615,N,12132.4637206,E,0.00,210.55,260623,,,D,V*02
$GPHDT,,T*1B
$GNGGA,094904.200,2500.7790435,N,12132.4637146,E,2,55,0.47,16.079,M,15.25,M,4,3335*42
$GNRMC,094904.200,A,2500.7790435,N,12132.4637146,E,0.00,210.55,260623,,,D,V*07
$GPHDT,,T*1B
$GNGGA,094904.400,2500.7790255,N,12132.4637086,E,2,55,0.47,16.091,M,15.25,M,4,3335*4F
$GNRMC,094904.400,A,2500.7790255,N,12132.4637086,E,0.00,210.55,260623,,,D,V*0C
$GPHDT,,T*1B
$GNGGA,094904.600,2500.7790135,N,12132.4637086,E,2,55,0.47,16.107,M,15.25,M,4,3335*46
$GNRMC,094904.600,A,2500.7790135,N,12132.4637086,E,0.00,210.55,260623,,,D,V*0B
$GPHDT,,T*1B
$GNGGA,094904.800,2500.7789955,N,12132.4637086,E,2,55,0.47,16.120,M,15.25,M,4,3335*4B
$GNRMC,094904.800,A,2500.7789955,N,12132.4637086,E,0.00,210.55,260623,,,D,V*03
$GPHDT,,T*1B
$GNGSA,A,3,196,15,199,195,24,13,05,18,29,20,23,194,0.91,0.47,0.78,1*0F
$GNGSA,A,3,11,,,,,,,,,,,,0.91,0.47,0.78,1*05
$GNGSA,A,3,84,85,69,79,80,,,,,,,,0.91,0.47,0.78,2*0E
$GNGSA,A,3,08,15,13,07,03,34,,,,,,,0.91,0.47,0.78,3*0A
$GNGSA,A,3,38,39,16,06,13,20,29,37,46,32,35,,0.91,0.47,0.78,4*0A
$GPGSV,4,1,14,196,72,047,42,15,61,348,35,199,60,167,37,195,52,174,44,1*5B
$GPGSV,4,2,14,24,51,178,42,13,41,031,36,05,41,071,40,18,40,318,24,1*6E
$GPGSV,4,3,14,41,38,242,33,29,26,231,47,20,25,097,41,23,18,308,21,1*6E
$GPGSV,4,4,14,194,17,149,28,11,15,146,21,1*59
$GPGSV,2,1,07,196,72,047,46,199,60,167,46,195,52,174,46,24,51,178,44,8*50
$GPGSV,2,2,07,23,18,308,20,194,17,149,20,11,15,146,19,8*60
$GLGSV,2,1,05,84,59,214,32,85,37,317,16,69,31,024,27,79,24,081,39,1*76
$GLGSV,2,2,05,80,20,137,22,1*42
$GAGSV,2,1,06,08,64,332,38,15,62,165,42,13,58,312,25,07,32,257,28,7*75
$GAGSV,2,2,06,03,31,039,42,34,12,150,14,7*7D
$GAGSV,2,1,06,08,64,332,38,15,62,165,43,13,58,312,32,07,32,257,32,1*7F
$GAGSV,2,2,06,03,31,039,41,34,12,150,20,1*7F
$GBGSV,4,1,15,38,68,026,41,39,68,208,44,16,58,204,39,06,56,205,35,1*7F
$GBGSV,4,2,15,13,52,343,28,20,51,005,36,29,47,252,47,37,33,090,49,1*77
$GBGSV,4,3,15,19,32,298,,46,27,156,30,31,21,194,,32,19,063,35,1*7E
$GBGSV,4,4,15,35,18,310,19,07,10,201,,10,09,212,,1*4B
$GBGSV,2,1,07,38,68,026,43,39,68,208,44,20,51,005,37,29,47,252,42,4*73
$GBGSV,2,2,07,37,33,090,45,46,27,156,33,32,19,063,34,4*46
$GNGGA,094905.000,2500.7789775,N,12132.4637026,E,2,55,0.47,16.139,M,15.25,M,5,3335*4D
$GNRMC,094905.000,A,2500.7789775,N,12132.4637026,E,0.00,210.55,260623,,,D,V*0C
$GPHDT,,T*1B
$GNGGA,094905.200,2500.7789655,N,12132.4636966,E,2,55,0.47,16.155,M,15.25,M,5,3335*4A
$GNRMC,094905.200,A,2500.7789655,N,12132.4636966,E,0.00,210.55,260623,,,D,V*01
$GPHDT,,T*1B
$GNGGA,094905.400,2500.7789475,N,12132.4636966,E,2,55,0.47,16.172,M,15.25,M,5,3335*49
$GNRMC,094905.400,A,2500.7789475,N,12132.4636966,E,0.00,210.55,260623,,,D,V*07
$GPHDT,,T*1B
$GNGGA,094905.600,2500.7789355,N,12132.4636906,E,2,53,0.50,16.191,M,15.25,M,5,3335*45
$GNRMC,094905.600,A,2500.7789355,N,12132.4636906,E,0.00,210.55,260623,,,D,V*06
