$FW : RTK35X,V1.1X0314AS,Lib20210517,1*54
$Tool : LOCOSYS , GNSS Firebird , v1.0.0.19*39
$---------------------------------------------------*2D
$GNGGA,094748.600,2500.7812200,N,12132.4638100,E,2,53,0.50,29.68,M,15.25,M,1,3335*71
$GNRMC,094748.600,A,2500.7812200,N,12132.4638100,E,0.01,210.55,260623,,,D,V*0C
$GPHDT,,T*1B
$GNGGA,094748.800,2500.7812200,N,12132.4638100,E,2,53,0.50,29.68,M,15.25,M,1,3335*7F
$GNRMC,094748.800,A,2500.7812200,N,12132.4638100,E,0.01,210.55,260623,,,D,V*02
$GPHDT,,T*1B
$GNGSA,A,3,196,15,199,195,24,05,13,18,29,20,194,11,1.02,0.50,0.89,1*0D
$GNGSA,A,3,84,85,69,79,80,,,,,,,,1.02,0.50,0.89,2*0D
$GNGSA,A,3,08,15,13,07,03,34,,,,,,,1.02,0.50,0.89,3*09
$GNGSA,A,3,39,38,16,06,13,20,29,37,46,32,19,,1.02,0.50,0.89,4*07
$GPGSV,4,1,14,196,72,047,41,15,61,347,34,199,60,167,38,195,52,174,41,1*5C
$GPGSV,4,2,14,24,50,178,36,05,42,070,45,13,41,031,41,18,40,318,26,1*69
$GPGSV,4,3,14,41,38,242,30,29,26,231,34,20,25,096,42,23,18,308,,1*68
$GPGSV,4,4,14,194,17,149,26,11,16,146,30,1*54
$GPGSV,2,1,07,196,72,047,46,199,60,167,47,195,52,174,44,24,50,178,41,8*57
$GPGSV,2,2,07,18,40,318,18,194,17,149,20,11,16,146,15,8*60
$GLGSV,2,1,05,84,60,215,28,85,37,317,18,69,31,023,21,79,24,082,41,1*75
$GLGSV,2,2,05,80,19,138,21,1*44
$GAGSV,2,1,08,08,65,331,26,15,63,164,43,13,58,313,18,07,32,256,18,7*7A
$GAGSV,2,2,08,03,31,038,40,34,13,150,14,25,02,075,,30,02,168,,7*78
$GAGSV,2,1,06,08,65,331,36,15,63,164,45,13,58,313,26,07,32,256,31,1*73
$GAGSV,2,2,06,03,31,038,39,34,13,150,18,1*7B
$GBGSV,3,1,12,39,68,208,44,38,68,026,41,16,58,204,35,06,55,204,32,1*76
$GBGSV,3,2,12,13,51,342,20,20,51,005,27,29,47,252,47,37,33,091,45,1*70
$GBGSV,3,3,12,19,32,298,,46,27,157,33,32,19,063,42,35,18,310,,1*7C
$GBGSV,2,1,08,39,68,208,44,38,68,026,43,20,51,005,33,29,47,252,43,4*79
$GBGSV,2,2,08,37,33,091,43,19,32,298,14,46,27,157,33,32,19,063,40,4*73
$GNGGA,094749.000,2500.7812200,N,12132.4638000,E,2,54,0.50,29.69,M,15.25,M,2,3335*72
$GNRMC,094749.000,A,2500.7812200,N,12132.4638000,E,0.01,210.55,260623,,,D,V*0A
$GPHDT,,T*1B
$GNGGA,094749.200,2500.7812200,N,12132.4638000,E,2,53,0.50,29.69,M,15.25,M,2,3335*77
$GNRMC,094749.200,A,2500.7812200,N,12132.4638000,E,0.01,210.55,260623,,,D,V*08
$GPHDT,,T*1B
$GNGGA,094749.400,2500.7812200,N,12132.4638000,E,2,54,0.50,29.68,M,15.25,M,2,3335*77
$GNRMC,094749.400,A,2500.7812200,N,12132.4638000,E,0.01,210.55,260623,,,D,V*0E
$GPHDT,,T*1B
$GNGGA,094749.600,2500.7812200,N,12132.4638000,E,2,54,0.50,29.67,M,15.25,M,2,3335*7A
$GNRMC,094749.600,A,2500.7812200,N,12132.4638000,E,0.01,210.55,260623,,,D,V*0C
$GPHDT,,T*1B
$GNGGA,094749.800,2500.7812200,N,12132.4638000,E,2,54,0.50,29.68,M,15.25,M,2,3335*7B
$GNRMC,094749.800,A,2500.7812200,N,12132.4638000,E,0.00,210.55,260623,,,D,V*03
$GPHDT,,T*1B
$GNGSA,A,3,196,15,199,195,24,05,13,18,29,20,194,11,1.02,0.50,0.89,1*0D
$GNGSA,A,3,84,85,69,79,80,,,,,,,,1.02,0.50,0.89,2*0D
$GNGSA,A,3,08,15,13,07,03,34,,,,,,,1.02,0.50,0.89,3*09
$GNGSA,A,3,39,38,16,06,13,20,29,37,46,32,19,,1.02,0.50,0.89,4*07
$GPGSV,4,1,14,196,72,047,41,15,61,347,34,199,60,167,38,195,52,174,41,1*5C
$GPGSV,4,2,14,24,50,178,37,05,42,070,44,13,41,031,40,18,40,318,25,1*6B
$GPGSV,4,3,14,41,38,242,30,29,26,231,32,20,25,096,42,23,18,308,,1*6E
$GPGSV,4,4,14,194,17,149,29,11,16,146,30,1*5B
$GPGSV,2,1,07,196,72,047,47,199,60,167,47,195,52,174,44,24,50,178,41,8*56
$GPGSV,2,2,07,18,40,318,18,194,17,149,23,11,16,146,13,8*65
$GLGSV,2,1,05,84,60,215,30,85,37,317,21,69,31,023,25,79,24,082,41,1*72
$GLGSV,2,2,05,80,19,138,23,1*46
$GAGSV,2,1,08,08,65,331,27,15,63,164,43,13,58,313,19,07,32,256,23,7*72
$GAGSV,2,2,08,03,31,038,40,34,13,150,17,25,02,075,,30,02,168,,7*7B
$GAGSV,2,1,06,08,65,331,35,15,63,164,45,13,58,313,27,07,32,256,31,1*71
$GAGSV,2,2,06,03,31,038,41,34,13,150,18,1*74
$GBGSV,3,1,12,39,68,208,44,38,68,026,41,16,58,204,36,06,55,204,32,1*75
$GBGSV,3,2,12,13,51,342,23,20,51,005,29,29,47,252,47,37,33,091,45,1*7D
$GBGSV,3,3,12,19,32,298,,46,27,157,35,32,19,063,41,35,18,310,,1*79
$GBGSV,2,1,08,39,68,208,44,38,68,026,43,20,51,005,33,29,47,252,44,4*7E
$GBGSV,2,2,08,37,33,091,43,19,32,298,15,46,27,157,33,32,19,063,41,4*73
$GNGGA,094750.000,2500.7812100,N,12132.4637900,E,2,54,0.50,29.67,M,15.25,M,1,3335*72
$GNRMC,094750.000,A,2500.7812100,N,12132.4637900,E,0.01,210.55,260623,,,D,V*07
$GPHDT,,T*1B
$GNGGA,094750.200,2500.7812100,N,12132.4637900,E,2,54,0.50,29.67,M,15.25,M,1,3335*70
$GNRMC,094750.200,A,2500.7812100,N,12132.4637900,E,0.00,210.55,260623,,,D,V*04
$GPHDT,,T*1B
$GNGGA,094750.400,2500.7812100,N,12132.4637900,E,2,54,0.50,29.67,M,15.25,M,1,3335*76
$GNRMC,094750.400,A,2500.7812100,N,12132.4637900,E,0.01,210.55,260623,,,D,V*03
$GPHDT,,T*1B
$GNGGA,094750.600,2500.7812100,N,12132.4637900,E,2,54,0.50,29.67,M,15.25,M,1,3335*74
$GNRMC,094750.600,A,2500.7812100,N,12132.4637900,E,0.00,210.55,260623,,,D,V*00
$GPHDT,,T*1B
$GNGGA,094750.800,2500.7812100,N,12132.4637800,E,2,54,0.50,29.67,M,15.25,M,1,3335*7B
$GNRMC,094750.800,A,2500.7812100,N,12132.4637800,E,0.00,210.55,260623,,,D,V*0F
$GPHDT,,T*1B
$GNGSA,A,3,196,15,199,195,24,05,13,18,29,20,194,11,1.02,0.50,0.89,1*0D
$GNGSA,A,3,84,85,69,79,80,,,,,,,,1.02,0.50,0.89,2*0D
$GNGSA,A,3,08,15,13,07,03,34,,,,,,,1.02,0.50,0.89,3*09
$GNGSA,A,3,39,38,16,06,13,20,29,37,46,32,19,,1.02,0.50,0.89,4*07
$GPGSV,4,1,14,196,72,047,41,15,61,347,34,199,60,167,38,195,52,174,42,1*5F
$GPGSV,4,2,14,24,50,178,37,05,42,070,44,13,41,031,40,18,40,318,24,1*6A
$GPGSV,4,3,14,41,38,242,30,29,26,231,32,20,25,096,42,23,18,308,,1*6E
$GPGSV,4,4,14,194,17,149,29,11,16,146,31,1*5A
$GPGSV,2,1,07,196,72,047,46,199,60,167,47,195,52,174,44,24,50,178,41,8*57
$GPGSV,2,2,07,18,40,318,18,194,17,149,23,11,16,146,12,8*64
$GLGSV,2,1,05,84,60,215,30,85,37,317,24,69,31,023,26,79,24,082,42,1*77
$GLGSV,2,2,05,80,19,138,25,1*40
$GAGSV,2,1,08,08,65,331,28,15,63,164,43,13,58,313,22,07,32,256,24,7*72
$GAGSV,2,2,08,03,31,038,40,34,13,150,17,25,02,075,,30,02,168,,7*7B
$GAGSV,2,1,06,08,65,331,35,15,63,164,45,13,58,313,29,07,32,256,30,1*7E
$GAGSV,2,2,06,03,31,038,41,34,13,150,18,1*74
$GBGSV,3,1,12,39,68,208,45,38,68,026,41,16,58,204,36,06,55,204,32,1*74
$GBGSV,3,2,12,13,51,342,24,20,51,005,29,29,47,252,47,37,33,091,45,1*7A
$GBGSV,3,3,12,19,32,298,,46,27,157,35,32,19,063,42,35,18,310,,1*7A
$GBGSV,2,1,08,39,68,208,44,38,68,026,43,20,51,005,33,29,47,252,44,4*7E
$GBGSV,2,2,08,37,33,091,43,19,32,298,11,46,27,157,33,32,19,063,40,4*76
$GNGGA,094751.000,2500.7812200,N,12132.4637700,E,2,54,0.50,29.67,M,15.25,M,2,3335*7D
$GNRMC,094751.000,A,2500.7812200,N,12132.4637700,E,0.01,210.55,260623,,,D,V*0B
$GPHDT,,T*1B
$GNGGA,094751.200,2500.7812200,N,12132.4637700,E,2,54,0.50,29.67,M,15.25,M,2,3335*7F
$GNRMC,094751.200,A,2500.7812200,N,12132.4637700,E,0.01,210.55,260623,,,D,V*09
$GPHDT,,T*1B
$GNGGA,094751.400,2500.7812300,N,12132.4637600,E,2,54,0.50,29.66,M,15.25,M,2,3335*78
$GNRMC,094751.400,A,2500.7812300,N,12132.4637600,E,0.01,210.55,260623,,,D,V*0F
$GPHDT,,T*1B
$GNGGA,094751.600,2500.7812400,N,12132.4637600,E,2,54,0.50,29.66,M,15.25,M,2,3335*7D
$GNRMC,094751.600,A,2500.7812400,N,12132.4637600,E,0.01,210.55,260623,,,D,V*0A
$GPHDT,,T*1B
$GNGGA,094751.800,2500.7812400,N,12132.4637500,E,2,54,0.50,29.66,M,15.25,M,2,3335*70
$GNRMC,094751.800,A,2500.7812400,N,12132.4637500,E,0.01,210.55,260623,,,D,V*07
$GPHDT,,T*1B
$GNGSA,A,3,196,15,199,195,24,05,13,18,29,20,194,11,1.02,0.50,0.89,1*0D
$GNGSA,A,3,84,85,69,79,80,,,,,,,,1.02,0.50,0.89,2*0D
$GNGSA,A,3,08,15,13,07,03,34,,,,,,,1.02,0.50,0.89,3*09
$GNGSA,A,3,38,39,16,06,13,20,29,37,46,32,19,,1.02,0.50,0.89,4*07
$GPGSV,4,1,14,196,72,047,41,15,61,347,34,199,60,167,38,195,52,174,42,1*5F
$GPGSV,4,2,14,24,50,178,37,05,42,070,44,13,41,031,40,18,40,318,24,1*6A
$GPGSV,4,3,14,41,38,242,29,29,26,231,33,20,25,096,42,23,18,308,,1*67
$GPGSV,4,4,14,194,17,149,28,11,16,146,31,1*5B
$GPGSV,2,1,07,196,72,047,46,199,60,167,47,195,52,174,44,24,50,178,40,8*56
$GPGSV,2,2,07,18,40,318,19,194,17,149,25,11,16,146,12,8*63
$GLGSV,2,1,05,84,60,215,30,85,37,317,25,69,31,023,29,79,24,082,42,1*79
$GLGSV,2,2,05,80,19,138,26,1*43
$GAGSV,2,1,07,08,65,331,31,15,63,164,43,13,58,313,23,07,32,256,23,7*73
$GAGSV,2,2,07,03,31,038,40,34,12,150,17,30,02,168,,7*42
$GAGSV,2,1,06,08,65,331,36,15,63,164,45,13,58,313,29,07,32,256,30,1*7D
$GAGSV,2,2,06,03,31,038,41,34,12,150,18,1*75
$GBGSV,3,1,12,38,68,026,41,39,68,208,45,16,58,204,37,06,55,204,32,1*75
$GBGSV,3,2,12,13,51,342,24,20,51,005,31,29,47,252,47,37,33,091,45,1*73
$GBGSV,3,3,12,19,32,298,,46,27,157,35,32,19,063,42,35,18,310,,1*7A
$GBGSV,2,1,08,39,68,208,44,38,68,026,43,20,51,005,34,29,47,252,44,4*79
$GBGSV,2,2,08,37,33,091,43,19,32,298,13,46,27,157,34,32,19,063,39,4*7D
$GNGGA,094752.000,2500.7812400,N,12132.4637400,E,2,54,0.50,29.66,M,15.25,M,3,3335*7B
$GNRMC,094752.000,A,2500.7812400,N,12132.4637400,E,0.01,210.55,260623,,,D,V*0D
$GPHDT,,T*1B
$GNGGA,094752.200,2500.7792703,N,12132.4624378,E,4,54,0.50,15.909,M,15.25,M,3,3335*4D
$GNRMC,094752.200,A,2500.7792703,N,12132.4624378,E,0.01,210.55,260623,,,R,V*14
$GPHDT,,T*1B
$GNGGA,094752.400,2500.7792731,N,12132.4624342,E,4,54,0.50,15.893,M,15.25,M,3,3335*41
$GNRMC,094752.400,A,2500.7792731,N,12132.4624342,E,0.01,210.55,260623,,,R,V*1A
$GPHDT,,T*1B
$GNGGA,094752.600,2500.7792742,N,12132.4624318,E,4,54,0.50,15.875,M,15.25,M,3,3335*40
$GNRMC,094752.600,A,2500.7792742,N,12132.4624318,E,0.02,210.55,260623,,,R,V*10
$GPHDT,,T*1B
$GNGGA,094752.800,2500.7792745,N,12132.4624314,E,4,54,0.50,15.877,M,15.25,M,3,3335*47
$GNRMC,094752.800,A,2500.7792745,N,12132.4624314,E,0.02,210.55,260623,,,R,V*15
$GPHDT,,T*1B
$GNGSA,A,3,196,15,199,195,24,05,13,18,29,20,194,11,1.02,0.50,0.89,1*0D
$GNGSA,A,3,84,85,69,79,80,,,,,,,,1.02,0.50,0.89,2*0D
$GNGSA,A,3,08,15,13,07,03,34,,,,,,,1.02,0.50,0.89,3*09
$GNGSA,A,3,38,39,16,06,13,20,29,37,46,32,19,,1.02,0.50,0.89,4*07
$GPGSV,4,1,14,196,72,047,41,15,61,347,34,199,60,167,38,195,52,174,42,1*5F
$GPGSV,4,2,14,24,50,178,37,05,42,070,44,13,41,031,40,18,40,318,24,1*6A
$GPGSV,4,3,14,41,38,242,28,29,26,231,32,20,25,096,43,23,18,308,,1*66
$GPGSV,4,4,14,194,17,149,29,11,16,146,31,1*5A
$GPGSV,2,1,07,196,72,047,46,199,60,167,47,195,52,174,44,24,50,178,40,8*56
$GPGSV,2,2,07,18,40,318,19,194,17,149,25,11,16,146,11,8*60
$GLGSV,2,1,05,84,60,215,30,85,37,317,26,69,31,023,29,79,24,082,42,1*7A
$GLGSV,2,2,05,80,19,138,26,1*43
$GAGSV,2,1,07,08,65,331,32,15,63,164,43,13,58,313,24,07,32,256,24,7*70
$GAGSV,2,2,07,03,31,038,40,34,12,150,18,30,02,168,,7*4D
$GAGSV,2,1,06,08,65,331,37,15,63,164,45,13,58,313,29,07,32,256,30,1*7C
$GAGSV,2,2,06,03,31,038,41,34,12,150,18,1*75
$GBGSV,4,1,13,38,68,026,41,39,68,208,45,16,58,204,38,06,55,204,33,1*7D
$GBGSV,4,2,13,13,51,342,23,20,51,005,32,29,47,252,47,37,33,091,45,1*71
$GBGSV,4,3,13,19,32,298,,46,27,157,35,32,19,063,42,35,18,310,,1*7C
$GBGSV,4,4,13,40,05,194,,1*49
$GBGSV,2,1,08,39,68,208,44,38,68,026,43,20,51,005,34,29,47,252,44,4*79
$GBGSV,2,2,08,37,33,091,43,19,32,298,12,46,27,157,34,32,19,063,39,4*7C
$GNGGA,094753.000,2500.7792754,N,12132.4624332,E,4,54,0.50,15.895,M,15.25,M,4,3335*41
$GNRMC,094753.000,A,2500.7792754,N,12132.4624332,E,0.02,210.55,260623,,,R,V*18
$GPHDT,,T*1B
$GNGGA,094753.200,2500.7792758,N,12132.4624344,E,4,54,0.50,15.894,M,15.25,M,4,3335*4F
$GNRMC,094753.200,A,2500.7792758,N,12132.4624344,E,0.03,210.55,260623,,,R,V*16
$GPHDT,,T*1B
$GNGGA,094753.400,2500.7792752,N,12132.4624338,E,4,54,0.50,15.885,M,15.25,M,4,3335*48
$GNRMC,094753.400,A,2500.7792752,N,12132.4624338,E,0.03,210.55,260623,,,R,V*11
$GPHDT,,T*1B
$GNGGA,094753.600,2500.7792775,N,12132.4624336,E,4,53,0.50,15.900,M,15.25,M,4,3335*4A
$GNRMC,094753.600,A,2500.7792775,N,12132.4624336,E,0.03,210.55,260623,,,R,V*18
$GPHDT,,T*1B
$GNGGA,094753.800,2500.7792791,N,12132.4624350,E,4,53,0.50,15.913,M,15.25,M,4,3335*4C
$GNRMC,094753.800,A,2500.7792791,N,12132.4624350,E,0.03,210.55,260623,,,R,V*1C
$GPHDT,,T*1B
$GNGSA,A,3,196,15,199,195,24,05,13,18,29,20,23,194,0.97,0.50,0.83,1*0B
$GNGSA,A,3,11,,,,,,,,,,,,0.97,0.50,0.83,1*01
$GNGSA,A,3,84,85,69,79,80,,,,,,,,0.97,0.50,0.83,2*0A
$GNGSA,A,3,08,15,13,07,03,34,,,,,,,0.97,0.50,0.83,3*0E
$GNGSA,A,3,38,39,16,06,13,20,29,37,46,32,,,0.97,0.50,0.83,4*08
$GPGSV,4,1,14,196,72,047,41,15,61,347,34,199,60,167,38,195,52,174,41,1*5C
$GPGSV,4,2,14,24,50,178,37,05,42,070,44,13,41,031,40,18,40,318,24,1*6A
$GPGSV,4,3,14,41,38,242,28,29,26,231,33,20,25,096,43,23,18,308,15,1*63
$GPGSV,4,4,14,194,17,149,28,11,16,146,31,1*5B
$GPGSV,2,1,06,196,72,047,46,199,60,167,47,195,52,174,44,24,50,178,40,8*57
$GPGSV,2,2,06,18,40,318,21,194,17,149,26,8*5D
$GLGSV,2,1,05,84,60,215,30,85,37,317,26,69,31,024,29,79,24,082,42,1*7D
$GLGSV,2,2,05,80,19,138,27,1*42
$GAGSV,2,1,07,08,65,331,32,15,63,164,43,13,58,313,24,07,32,256,24,7*70
$GAGSV,2,2,07,03,31,038,40,34,12,150,18,30,02,168,,7*4D
$GAGSV,2,1,06,08,65,331,38,15,63,164,45,13,58,313,29,07,32,256,30,1*73
$GAGSV,2,2,06,03,31,038,42,34,12,150,18,1*76
$GBGSV,3,1,12,38,68,026,41,39,68,208,45,16,58,204,38,06,55,204,33,1*7B
$GBGSV,3,2,12,13,51,342,23,20,51,005,32,29,47,252,47,37,33,091,45,1*77
$GBGSV,3,3,12,19,32,298,,46,27,157,35,32,19,063,42,35,18,310,,1*7A
$GBGSV,2,1,07,38,68,026,43,39,68,208,44,20,51,005,35,29,47,252,44,4*77
$GBGSV,2,2,07,37,33,091,44,46,27,157,34,32,19,063,39,4*4D
$GNGGA,094754.000,2500.7792784,N,12132.4624348,E,4,53,0.50,15.911,M,15.25,M,5,3335*4D
$GNRMC,094754.000,A,2500.7792784,N,12132.4624348,E,0.03,210.55,260623,,,R,V*1E
$GPHDT,,T*1B
$GNGGA,094754.200,2500.7792721,N,12132.4624411,E,4,53,0.50,15.909,M,15.25,M,5,3335*42
$GNRMC,094754.200,A,2500.7792721,N,12132.4624411,E,0.03,210.55,260623,,,R,V*18
$GPHDT,,T*1B
$GNGGA,094754.400,2500.7792746,N,12132.4624294,E,4,53,0.50,15.865,M,15.25,M,5,3335*45
$GNRMC,094754.400,A,2500.7792746,N,12132.4624294,E,0.04,210.55,260623,,,R,V*13
$GPHDT,,T*1B
$GNGGA,094754.600,2500.7792740,N,12132.4624310,E,4,53,0.50,15.870,M,15.25,M,5,3335*48
$GNRMC,094754.600,A,2500.7792740,N,12132.4624310,E,0.04,210.55,260623,,,R,V*1A
$GPHDT,,T*1B
$GNGGA,094754.800,2500.7792762,N,12132.4624320,E,4,53,0.50,15.875,M,15.25,M,5,3335*40
$GNRMC,094754.800,A,2500.7792762,N,12132.4624320,E,0.04,210.55,260623,,,R,V*17
$GPHDT,,T*1B
$GNGSA,A,3,196,15,199,195,24,05,13,18,29,20,23,194,0.97,0.50,0.83,1*0B
$GNGSA,A,3,11,,,,,,,,,,,,0.97,0.50,0.83,1*01
$GNGSA,A,3,84,85,69,79,80,,,,,,,,0.97,0.50,0.83,2*0A
$GNGSA,A,3,08,15,13,07,03,34,,,,,,,0.97,0.50,0.83,3*0E
$GNGSA,A,3,38,39,16,06,13,20,29,37,46,32,,,0.97,0.50,0.83,4*08
$GPGSV,4,1,14,196,72,047,41,15,61,347,34,199,60,167,38,195,52,174,41,1*5C
$GPGSV,4,2,14,24,50,178,37,05,42,070,45,13,41,031,40,18,40,318,24,1*6B
$GPGSV,4,3,14,41,38,242,29,29,26,231,34,20,25,096,43,23,18,308,15,1*65
$GPGSV,4,4,14,194,17,149,29,11,16,146,31,1*5A
$GPGSV,2,1,06,196,72,047,46,199,60,167,47,195,52,174,44,24,50,178,40,8*57
$GPGSV,2,2,06,18,40,318,20,194,17,149,26,8*5C
$GLGSV,2,1,05,84,60,215,30,85,37,317,26,69,31,024,29,79,24,082,42,1*7D
$GLGSV,2,2,05,80,19,138,27,1*42
$GAGSV,2,1,07,08,65,331,31,15,63,164,43,13,58,313,24,07,32,256,23,7*74
$GAGSV,2,2,07,03,31,038,40,34,12,150,18,30,02,168,,7*4D
$GAGSV,2,1,06,08,65,331,38,15,63,164,45,13,58,313,29,07,32,256,30,1*73
$GAGSV,2,2,06,03,31,038,42,34,12,150,18,1*76
$GBGSV,3,1,12,38,68,026,41,39,68,208,45,16,58,204,38,06,55,204,33,1*7B
$GBGSV,3,2,12,13,51,342,23,20,51,005,33,29,47,252,47,37,33,091,45,1*76
$GBGSV,3,3,12,19,32,298,,46,27,157,34,32,19,063,42,35,18,310,,1*7B
$GBGSV,2,1,07,38,68,026,43,39,68,208,44,20,51,005,35,29,47,252,44,4*77
$GBGSV,2,2,07,37,33,091,44,46,27,157,33,32,19,063,40,4*44
$GNGGA,094755.000,2500.7792743,N,12132.4624323,E,4,53,0.50,15.874,M,15.25,M,6,3335*4B
$GNRMC,094755.000,A,2500.7792743,N,12132.4624323,E,0.05,210.55,260623,,,R,V*1F
$GPHDT,,T*1B
$GNGGA,094755.200,2500.7792745,N,12132.4624277,E,4,53,0.50,15.859,M,15.25,M,6,3335*40
$GNRMC,094755.200,A,2500.7792745,N,12132.4624277,E,0.05,210.55,260623,,,R,V*1B
$GPHDT,,T*1B
$GNGGA,094755.400,2500.7792746,N,12132.4624271,E,4,53,0.50,15.854,M,15.25,M,6,3335*4E
$GNRMC,094755.400,A,2500.7792746,N,12132.4624271,E,0.05,210.55,260623,,,R,V*18
$GPHDT,,T*1B
$GNGGA,094755.600,2500.7792740,N,12132.4624292,E,4,53,0.50,15.865,M,15.25,M,6,3335*45
$GNRMC,094755.600,A,2500.7792740,N,12132.4624292,E,0.05,210.55,260623,,,R,V*11
$GPHDT,,T*1B
$GNGGA,094755.800,2500.7792761,N,12132.4624268,E,4,53,0.50,15.863,M,15.25,M,2,3335*4F
$GNRMC,094755.800,A,2500.7792761,N,12132.4624268,E,0.05,210.55,260623,,,R,V*19
$GPHDT,,T*1B
$GNGSA,A,3,196,15,199,195,24,05,13,18,29,20,23,194,0.97,0.50,0.83,1*0B
$GNGSA,A,3,11,,,,,,,,,,,,0.97,0.50,0.83,1*01
$GNGSA,A,3,84,85,69,79,80,,,,,,,,0.97,0.50,0.83,2*0A
$GNGSA,A,3,08,15,13,07,03,34,,,,,,,0.97,0.50,0.83,3*0E
$GNGSA,A,3,38,39,16,06,13,20,29,37,46,32,,,0.97,0.50,0.83,4*08
$GPGSV,4,1,14,196,72,047,41,15,61,347,34,199,60,167,38,195,52,174,41,1*5C
$GPGSV,4,2,14,24,50,178,37,05,42,070,45,13,41,031,40,18,40,318,24,1*6B
$GPGSV,4,3,14,41,38,242,29,29,26,231,35,20,25,096,43,23,18,308,15,1*64
$GPGSV,4,4,14,194,17,149,29,11,16,146,31,1*5A
$GPGSV,2,1,06,196,72,047,46,199,60,167,47,195,52,174,44,24,50,178,40,8*57
$GPGSV,2,2,06,18,40,318,22,194,17,149,25,8*5D
$GLGSV,2,1,05,84,60,215,30,85,37,317,26,69,31,024,28,79,24,082,42,1*7C
$GLGSV,2,2,05,80,20,137,26,1*46
$GAGSV,2,1,07,08,65,331,31,15,63,164,43,13,58,313,24,07,32,256,23,7*74
$GAGSV,2,2,07,03,31,038,41,34,12,150,17,30,02,168,,7*43
$GAGSV,2,1,06,08,65,331,38,15,63,164,45,13,58,313,29,07,32,256,30,1*73
$GAGSV,2,2,06,03,31,038,42,34,12,150,18,1*76
$GBGSV,4,1,13,38,68,026,41,39,68,208,45,16,58,204,38,06,55,204,33,1*7D
$GBGSV,4,2,13,13,51,342,24,20,51,005,33,29,47,252,47,09,39,206,,1*7D
$GBGSV,4,3,13,37,33,091,45,19,32,298,,46,27,157,34,32,19,063,42,1*7D
$GBGSV,4,4,13,35,18,310,,1*49
$GBGSV,2,1,07,38,68,026,43,39,68,208,44,20,51,005,35,29,47,252,44,4*77
$GBGSV,2,2,07,37,33,091,44,46,27,157,33,32,19,063,40,4*44
$GNGGA,094756.000,2500.7792751,N,12132.4624320,E,4,53,0.50,15.880,M,15.25,M,3,3335*46
$GNRMC,094756.000,A,2500.7792751,N,12132.4624320,E,0.05,210.55,260623,,,R,V*1C
$GPHDT,,T*1B
$GNGGA,094756.200,2500.7792662,N,12132.4624357,E,4,53,0.50,15.871,M,15.25,M,1,3335*49
$GNRMC,094756.200,A,2500.7792662,N,12132.4624357,E,0.06,210.55,260623,,,R,V*1C
$GPHDT,,T*1B
$GNGGA,094756.400,2500.7792682,N,12132.4624320,E,4,53,0.50,15.865,M,15.25,M,1,3335*44
$GNRMC,094756.400,A,2500.7792682,N,12132.4624320,E,0.07,210.55,260623,,,R,V*15
$GPHDT,,T*1B
$GNGGA,094756.600,2500.7792645,N,12132.4624351,E,4,53,0.50,15.876,M,15.25,M,0,3335*48
$GNRMC,094756.600,A,2500.7792645,N,12132.4624351,E,0.07,210.55,260623,,,R,V*1A
$GPHDT,,T*1B
$GNGGA,094756.800,2500.7792658,N,12132.4624340,E,4,53,0.50,15.866,M,15.25,M,0,3335*4B
$GNRMC,094756.800,A,2500.7792658,N,12132.4624340,E,0.07,210.55,260623,,,R,V*18
$GPHDT,,T*1B
$GNGSA,A,3,196,15,199,195,24,05,13,18,29,20,23,194,0.97,0.50,0.83,1*0B
$GNGSA,A,3,11,,,,,,,,,,,,0.97,0.50,0.83,1*01
$GNGSA,A,3,84,85,69,79,80,,,,,,,,0.97,0.50,0.83,2*0A
$GNGSA,A,3,08,15,13,07,03,34,,,,,,,0.97,0.50,0.83,3*0E
$GNGSA,A,3,38,39,16,06,20,13,29,37,46,32,,,0.97,0.50,0.83,4*08
$GPGSV,4,1,14,196,72,047,41,15,61,347,34,199,60,167,38,195,52,174,42,1*5F
$GPGSV,4,2,14,24,50,178,39,05,42,070,45,13,41,031,40,18,40,318,25,1*64
$GPGSV,4,3,14,41,38,242,28,29,26,231,37,20,25,096,43,23,18,308,15,1*67
$GPGSV,4,4,14,194,17,149,29,11,16,146,31,1*5A
$GPGSV,2,1,06,196,72,047,46,199,60,167,47,195,52,174,43,24,50,178,40,8*50
$GPGSV,2,2,06,18,40,318,21,194,17,149,25,8*5E
$GLGSV,2,1,05,84,60,215,28,85,37,317,26,69,31,024,28,79,24,082,42,1*75
$GLGSV,2,2,05,80,20,137,25,1*45
$GAGSV,2,1,06,08,65,331,31,15,63,164,43,13,58,313,24,07,32,256,22,7*74
$GAGSV,2,2,06,03,31,038,41,34,12,150,17,7*7C
$GAGSV,2,1,06,08,65,331,38,15,63,164,45,13,58,313,29,07,32,256,32,1*71
$GAGSV,2,2,06,03,31,038,42,34,12,150,18,1*76
$GBGSV,4,1,13,38,68,026,41,39,68,208,45,16,58,204,38,06,55,204,33,1*7D
$GBGSV,4,2,13,20,51,005,33,13,51,342,23,29,47,252,47,09,39,206,,1*7A
$GBGSV,4,3,13,37,33,091,45,19,32,298,,46,27,157,35,32,19,063,42,1*7C
$GBGSV,4,4,13,35,18,310,,1*49
$GBGSV,2,1,07,38,68,026,43,39,68,208,44,20,51,005,34,29,47,252,44,4*76
$GBGSV,2,2,07,37,33,091,43,46,27,157,32,32,19,063,40,4*42
$GNGGA,094757.000,2500.7792666,N,12132.4624327,E,4,53,0.50,15.855,M,15.25,M,1,3335*4F
$GNRMC,094757.000,A,2500.7792666,N,12132.4624327,E,0.07,210.55,260623,,,R,V*1D
$GPHDT,,T*1B
$GNGGA,094757.200,2500.7792667,N,12132.4624295,E,4,53,0.50,15.852,M,15.25,M,1,3335*43
$GNRMC,094757.200,A,2500.7792667,N,12132.4624295,E,0.07,210.55,260623,,,R,V*16
$GPHDT,,T*1B
$GNGGA,094757.400,2500.7792639,N,12132.4624334,E,4,53,0.50,15.852,M,15.25,M,1,3335*44
$GNRMC,094757.400,A,2500.7792639,N,12132.4624334,E,0.07,210.55,260623,,,R,V*11
$GPHDT,,T*1B
$GNGGA,094757.600,2500.7792664,N,12132.4624308,E,4,53,0.50,15.846,M,15.25,M,1,3335*44
$GNRMC,094757.600,A,2500.7792664,N,12132.4624308,E,0.07,210.55,260623,,,R,V*14
$GPHDT,,T*1B
$GNGGA,094757.800,2500.7792675,N,12132.4624320,E,4,53,0.50,15.853,M,15.25,M,1,3335*44
$GNRMC,094757.800,A,2500.7792675,N,12132.4624320,E,0.07,210.55,260623,,,R,V*10
$GPHDT,,T*1B
$GNGSA,A,3,196,15,199,195,24,05,13,18,29,20,23,194,0.97,0.50,0.83,1*0B
$GNGSA,A,3,11,,,,,,,,,,,,0.97,0.50,0.83,1*01
$GNGSA,A,3,84,85,69,79,80,,,,,,,,0.97,0.50,0.83,2*0A
$GNGSA,A,3,08,15,13,07,03,34,,,,,,,0.97,0.50,0.83,3*0E
$GNGSA,A,3,38,39,16,06,13,20,29,37,46,32,,,0.97,0.50,0.83,4*08
$GPGSV,4,1,14,196,72,047,41,15,61,347,35,199,60,167,38,195,52,174,43,1*5F
$GPGSV,4,2,14,24,50,178,41,05,42,070,45,13,41,031,40,18,40,318,26,1*68
$GPGSV,4,3,14,41,38,242,28,29,26,231,39,20,25,096,43,23,18,308,16,1*6A
$GPGSV,4,4,14,194,17,149,28,11,16,146,31,1*5B
$GPGSV,2,1,06,196,72,047,46,199,60,167,47,195,52,174,45,24,50,178,41,8*57
$GPGSV,2,2,06,18,40,318,23,194,17,149,24,8*5D
$GLGSV,2,1,06,84,60,215,28,85,37,317,26,70,34,306,,69,31,024,28,1*77
$GLGSV,2,2,06,79,24,082,42,80,20,137,24,1*73
$GAGSV,2,1,06,08,65,331,31,15,63,164,42,13,58,313,24,07,32,256,21,7*76
$GAGSV,2,2,06,03,31,038,41,34,12,150,17,7*7C
$GAGSV,2,1,06,08,65,331,38,15,63,164,45,13,58,313,29,07,32,256,32,1*71
$GAGSV,2,2,06,03,31,038,42,34,12,150,18,1*76
$GBGSV,4,1,14,38,68,026,41,39,68,208,45,16,58,204,38,06,55,204,33,1*7A
$GBGSV,4,2,14,13,51,342,23,20,51,005,34,29,47,252,47,37,33,091,45,1*70
$GBGSV,4,3,14,19,32,298,,46,27,157,34,30,26,185,,31,20,194,,1*7A
$GBGSV,4,4,14,32,19,063,42,35,18,310,,1*74
$GBGSV,2,1,07,38,68,026,43,39,68,208,44,20,51,005,36,29,47,252,44,4*74
$GBGSV,2,2,07,37,33,091,43,46,27,157,34,32,19,063,40,4*44
$GNGGA,094758.000,2500.7792677,N,12132.4624285,E,4,53,0.50,15.844,M,15.25,M,2,3335*4A
$GNRMC,094758.000,A,2500.7792677,N,12132.4624285,E,0.08,210.55,260623,,,R,V*14
$GPHDT,,T*1B
$GNGGA,094758.200,2500.7792672,N,12132.4624285,E,4,53,0.50,15.843,M,15.25,M,2,3335*4A
$GNRMC,094758.200,A,2500.7792672,N,12132.4624285,E,0.07,210.55,260623,,,R,V*1C
$GPHDT,,T*1B
$GNGGA,094758.400,2500.7792682,N,12132.4624299,E,4,53,0.50,15.851,M,15.25,M,2,3335*4D
$GNRMC,094758.400,A,2500.7792682,N,12132.4624299,E,0.08,210.55,260623,,,R,V*17
$GPHDT,,T*1B
$GNGGA,094758.600,2500.7792749,N,12132.4624262,E,4,53,0.50,15.853,M,15.25,M,2,3335*4F
$GNRMC,094758.600,A,2500.7792749,N,12132.4624262,E,0.08,210.55,260623,,,R,V*17
$GPHDT,,T*1B
$GNGGA,094758.800,2500.7792774,N,12132.4624234,E,4,52,0.53,15.846,M,15.25,M,2,3335*4A
$GNRMC,094758.800,A,2500.7792774,N,12132.4624234,E,0.07,210.55,260623,,,R,V*1B
$GPHDT,,T*1B
$GNGSA,A,3,196,15,199,195,24,05,13,18,29,20,194,11,1.07,0.53,0.93,1*00
$GNGSA,A,3,84,85,69,79,80,,,,,,,,1.07,0.53,0.93,2*00
$GNGSA,A,3,08,15,13,07,03,34,,,,,,,1.07,0.53,0.93,3*04
$GNGSA,A,3,38,39,16,06,13,20,29,37,46,32,,,1.07,0.53,0.93,4*02
$GPGSV,4,1,14,196,72,047,41,15,61,347,35,199,60,167,37,195,52,174,44,1*57
$GPGSV,4,2,14,24,50,178,41,05,42,070,45,13,41,031,40,18,40,318,27,1*69
$GPGSV,4,3,14,41,38,242,28,29,26,231,39,20,25,096,43,23,18,308,18,1*64
$GPGSV,4,4,14,194,17,149,28,11,16,146,30,1*5A
$GPGSV,2,1,06,196,72,047,46,199,60,167,47,195,52,174,46,24,50,178,43,8*56
$GPGSV,2,2,06,18,40,318,20,194,17,149,21,8*5B
$GLGSV,2,1,06,84,60,215,28,85,37,317,24,69,31,024,25,79,24,082,42,1*79
$GLGSV,2,2,06,80,20,137,26,83,08,170,,1*70
$GAGSV,2,1,06,08,65,331,30,15,63,164,42,13,58,313,23,07,32,256,22,7*73
$GAGSV,2,2,06,03,31,038,40,34,12,150,16,7*7C
$GAGSV,2,1,06,08,65,331,37,15,63,164,45,13,58,313,28,07,32,256,32,1*7F
$GAGSV,2,2,06,03,31,038,41,34,12,150,17,1*7A
$GBGSV,4,1,14,38,68,026,41,39,68,208,45,16,58,204,37,06,55,204,33,1*75
$GBGSV,4,2,14,13,51,342,21,20,51,005,32,29,47,252,47,37,33,091,45,1*74
$GBGSV,4,3,14,19,32,298,,46,27,157,34,31,20,194,,32,19,063,42,1*7B
$GBGSV,4,4,14,35,18,310,,07,10,201,,1*7B
$GBGSV,2,1,07,38,68,026,43,39,68,208,44,20,51,005,33,29,47,252,44,4*71
$GBGSV,2,2,07,37,33,091,43,46,27,157,33,32,19,063,40,4*43
$GNGGA,094759.000,2500.7792750,N,12132.4624235,E,4,52,0.53,15.852,M,15.25,M,3,3335*40
$GNRMC,094759.000,A,2500.7792750,N,12132.4624235,E,0.01,210.55,260623,,,R,V*13
$GPHDT,,T*1B
$GNGGA,094759.200,2500.7792643,N,12132.4624275,E,4,52,0.53,15.828,M,15.25,M,3,3335*48
$GNRMC,094759.200,A,2500.7792643,N,12132.4624275,E,0.00,210.55,260623,,,R,V*17
