$FW : RTK35X,V1.1X0314AS,Lib20210517,1*54
$Tool : LOCOSYS , GNSS Firebird , v1.0.0.19*39
$---------------------------------------------------*2D
A,2500.7792547,N,12132.4624384,E,0.02,210.55,260623,,,R,V*1B
$GPHDT,,T*1B
$GNGGA,094814.400,2500.7792539,N,12132.4624390,E,4,49,0.53,15.859,M,15.25,M,2,3335*41
$GNRMC,094814.400,A,2500.7792539,N,12132.4624390,E,0.02,210.55,260623,,,R,V*11
$GPHDT,,T*1B
$GNGGA,094814.600,2500.7792551,N,12132.4624379,E,4,50,0.53,15.865,M,15.25,M,2,3335*4D
$GNRMC,094814.600,A,2500.7792551,N,12132.4624379,E,0.02,210.55,260623,,,R,V*1A
$GPHDT,,T*1B
$GNGGA,094814.800,2500.7792646,N,12132.4624333,E,4,50,0.53,15.874,M,15.25,M,2,3335*48
$GNRMC,094814.800,A,2500.7792646,N,12132.4624333,E,0.02,210.55,260623,,,R,V*1F
$GPHDT,,T*1B
$GNGSA,A,3,196,15,199,195,24,05,13,18,29,20,194,11,1.07,0.53,0.93,1*00
$GNGSA,A,3,84,85,69,79,80,,,,,,,,1.07,0.53,0.93,2*00
$GNGSA,A,3,08,15,13,07,03,34,,,,,,,1.07,0.53,0.93,3*04
$GNGSA,A,3,39,38,16,06,13,20,29,37,32,46,,,1.07,0.53,0.93,4*02
$GPGSV,4,1,14,196,72,047,41,15,61,347,35,199,60,167,33,195,52,174,38,1*58
$GPGSV,4,2,14,24,51,178,35,05,42,070,44,13,41,031,38,18,40,318,25,1*67
$GPGSV,4,3,14,41,38,242,35,29,26,231,42,20,25,097,42,23,18,308,18,1*64
$GPGSV,4,4,14,194,17,149,26,11,16,146,28,1*5D
$GPGSV,2,1,05,196,72,047,46,199,60,167,45,195,52,174,40,24,51,178,39,8*5D
$GPGSV,2,2,05,11,16,146,21,8*5F
$GLGSV,2,1,05,84,60,215,29,85,37,317,18,69,31,024,28,79,24,082,41,1*7A
$GLGSV,2,2,05,80,20,137,15,1*46
$GAGSV,2,1,08,08,65,331,31,15,63,164,37,13,58,313,23,07,32,256,27,7*7B
$GAGSV,2,2,08,03,31,038,39,34,12,150,18,25,02,075,,30,02,168,,7*7B
$GAGSV,2,1,06,08,65,331,34,15,63,164,43,13,58,313,28,07,32,256,31,1*79
$GAGSV,2,2,06,03,31,038,40,34,12,150,17,1*7B
$GBGSV,3,1,12,39,68,208,44,38,68,026,40,16,58,204,39,06,55,204,34,1*7D
$GBGSV,3,2,12,13,52,343,27,20,51,005,35,29,47,252,47,37,33,090,44,1*76
$GBGSV,3,3,12,19,32,298,,46,27,156,20,32,19,063,41,35,18,310,,1*7C
$GBGSV,2,1,07,38,68,026,45,39,68,208,44,20,51,005,36,29,47,252,45,4*73
$GBGSV,2,2,07,37,33,090,43,46,27,156,29,32,19,063,35,4*4A
$GNGGA,094815.000,2500.7792636,N,12132.4624325,E,4,50,0.53,15.873,M,15.25,M,3,3335*47
$GNRMC,094815.000,A,2500.7792636,N,12132.4624325,E,0.02,210.55,260623,,,R,V*16
$GPHDT,,T*1B
$GNGGA,094815.200,2500.7792552,N,12132.4624382,E,4,51,0.53,15.870,M,15.25,M,3,3335*4B
$GNRMC,094815.200,A,2500.7792552,N,12132.4624382,E,0.02,210.55,260623,,,R,V*18
$GPHDT,,T*1B
$GNGGA,094815.400,2500.7792573,N,12132.4624370,E,4,51,0.53,15.882,M,15.25,M,3,3335*4E
$GNRMC,094815.400,A,2500.7792573,N,12132.4624370,E,0.02,210.55,260623,,,R,V*10
$GPHDT,,T*1B
$GNGGA,094815.600,2500.7792540,N,12132.4624366,E,4,51,0.53,15.853,M,15.25,M,3,3335*47
$GNRMC,094815.600,A,2500.7792540,N,12132.4624366,E,0.02,210.55,260623,,,R,V*15
$GPHDT,,T*1B
$GNGGA,094815.800,2500.7792525,N,12132.4624377,E,4,51,0.53,15.863,M,15.25,M,3,3335*49
$GNRMC,094815.800,A,2500.7792525,N,12132.4624377,E,0.02,210.55,260623,,,R,V*18
$GPHDT,,T*1B
$GNGSA,A,3,196,15,199,195,24,05,13,18,29,20,194,11,1.07,0.53,0.93,1*00
$GNGSA,A,3,84,85,69,79,80,,,,,,,,1.07,0.53,0.93,2*00
$GNGSA,A,3,08,15,13,07,03,34,,,,,,,1.07,0.53,0.93,3*04
$GNGSA,A,3,38,39,16,06,13,20,29,37,46,32,,,1.07,0.53,0.93,4*02
$GPGSV,4,1,14,196,72,047,41,15,61,347,37,199,60,167,35,195,52,174,39,1*5D
$GPGSV,4,2,14,24,51,178,35,05,42,070,44,13,41,031,37,18,40,318,25,1*68
$GPGSV,4,3,14,41,38,242,35,29,26,231,41,20,25,097,39,23,18,308,17,1*64
$GPGSV,4,4,14,194,17,149,26,11,16,146,29,1*5C
$GPGSV,2,1,05,196,72,047,45,199,60,167,46,195,52,174,40,24,51,178,39,8*5D
$GPGSV,2,2,05,11,16,146,22,8*5C
$GLGSV,2,1,05,84,60,215,29,85,37,317,20,69,31,024,27,79,24,082,40,1*7F
$GLGSV,2,2,05,80,20,137,16,1*45
$GAGSV,2,1,07,08,65,331,32,15,63,164,39,13,58,313,24,07,32,256,26,7*7F
$GAGSV,2,2,07,03,31,038,39,34,12,150,18,30,02,168,,7*43
$GAGSV,2,1,06,08,65,331,35,15,63,164,43,13,58,313,28,07,32,256,31,1*78
$GAGSV,2,2,06,03,31,038,40,34,12,150,14,1*78
$GBGSV,3,1,12,38,68,026,40,39,68,208,44,16,58,204,39,06,55,204,35,1*7C
$GBGSV,3,2,12,13,52,343,27,20,51,005,35,29,47,252,47,37,33,090,43,1*71
$GBGSV,3,3,12,19,32,298,,46,27,156,22,32,19,063,41,35,18,310,,1*7E
$GBGSV,2,1,07,38,68,026,44,39,68,208,43,20,51,005,36,29,47,252,44,4*74
$GBGSV,2,2,07,37,33,090,43,46,27,156,27,32,19,063,36,4*47
$GNGGA,094816.000,2500.7792509,N,12132.4624402,E,4,51,0.53,15.863,M,15.25,M,4,3335*4E
$GNRMC,094816.000,A,2500.7792509,N,12132.4624402,E,0.02,210.55,260623,,,R,V*18
$GPHDT,,T*1B
$GNGGA,094816.200,2500.7792534,N,12132.4624376,E,4,51,0.53,15.862,M,15.25,M,4,3335*47
$GNRMC,094816.200,A,2500.7792534,N,12132.4624376,E,0.02,210.55,260623,,,R,V*10
$GPHDT,,T*1B
$GNGGA,094816.400,2500.7792557,N,12132.4624350,E,4,51,0.53,15.852,M,15.25,M,4,3335*43
$GNRMC,094816.400,A,2500.7792557,N,12132.4624350,E,0.02,210.55,260623,,,R,V*17
$GPHDT,,T*1B
$GNGGA,094816.600,2500.7792568,N,12132.4624361,E,4,51,0.53,15.859,M,15.25,M,4,3335*44
$GNRMC,094816.600,A,2500.7792568,N,12132.4624361,E,0.01,210.55,260623,,,R,V*18
$GPHDT,,T*1B
$GNGGA,094816.800,2500.7792559,N,12132.4624367,E,4,51,0.53,15.861,M,15.25,M,4,3335*45
$GNRMC,094816.800,A,2500.7792559,N,12132.4624367,E,0.02,210.55,260623,,,R,V*11
$GPHDT,,T*1B
$GNGSA,A,3,196,15,199,195,24,05,13,29,20,194,11,,1.10,0.55,0.95,1*0F
$GNGSA,A,3,84,85,69,79,80,,,,,,,,1.10,0.55,0.95,2*06
$GNGSA,A,3,08,15,13,07,03,34,,,,,,,1.10,0.55,0.95,3*02
$GNGSA,A,3,38,39,16,06,13,20,29,37,46,32,,,1.10,0.55,0.95,4*04
$GPGSV,4,1,14,196,72,047,41,15,61,347,39,199,60,167,36,195,52,174,40,1*5E
$GPGSV,4,2,14,24,51,178,35,05,42,070,44,13,41,031,38,18,40,318,20,1*62
$GPGSV,4,3,14,41,38,242,35,29,26,231,42,20,25,097,39,23,18,308,16,1*66
$GPGSV,4,4,14,194,17,149,26,11,16,146,29,1*5C
$GPGSV,2,1,05,196,72,047,45,199,60,167,46,195,52,174,41,24,51,178,39,8*5C
$GPGSV,2,2,05,11,16,146,24,8*5A
$GLGSV,2,1,05,84,60,215,30,85,37,317,18,69,31,024,22,79,24,082,40,1*79
$GLGSV,2,2,05,80,20,137,17,1*44
$GAGSV,2,1,07,08,65,331,32,15,63,164,39,13,58,313,27,07,32,256,25,7*7F
$GAGSV,2,2,07,03,31,038,39,34,12,150,18,30,02,168,,7*43
$GAGSV,2,1,06,08,65,331,37,15,63,164,43,13,58,313,28,07,32,256,32,1*79
$GAGSV,2,2,06,03,31,038,40,34,12,150,12,1*7E
$GBGSV,3,1,12,38,68,026,39,39,68,208,44,16,58,204,37,06,55,204,34,1*7D
$GBGSV,3,2,12,13,52,343,28,20,51,005,35,29,47,252,47,37,33,090,43,1*7E
$GBGSV,3,3,12,19,32,298,,46,27,156,22,32,19,063,41,35,18,310,,1*7E
$GBGSV,2,1,07,38,68,026,42,39,68,208,43,20,51,005,37,29,47,252,45,4*72
$GBGSV,2,2,07,37,33,090,44,46,27,156,22,32,19,063,36,4*45
$GNGGA,094817.000,2500.7792552,N,12132.4624361,E,4,50,0.55,15.846,M,15.25,M,5,3335*42
$GNRMC,094817.000,A,2500.7792552,N,12132.4624361,E,0.02,210.55,260623,,,R,V*15
$GPHDT,,T*1B
$GNGGA,094817.200,2500.7792553,N,12132.4624371,E,4,50,0.55,15.854,M,15.25,M,5,3335*43
$GNRMC,094817.200,A,2500.7792553,N,12132.4624371,E,0.02,210.55,260623,,,R,V*17
$GPHDT,,T*1B
$GNGGA,094817.400,2500.7792551,N,12132.4624360,E,4,50,0.55,15.851,M,15.25,M,5,3335*42
$GNRMC,094817.400,A,2500.7792551,N,12132.4624360,E,0.02,210.55,260623,,,R,V*13
$GPHDT,,T*1B
$GNGGA,094817.600,2500.7792564,N,12132.4624345,E,4,50,0.55,15.839,M,15.25,M,5,3335*4F
$GNRMC,094817.600,A,2500.7792564,N,12132.4624345,E,0.02,210.55,260623,,,R,V*10
$GPHDT,,T*1B
$GNGGA,094817.800,2500.7792536,N,12132.4624375,E,4,50,0.55,15.853,M,15.25,M,5,3335*49
$GNRMC,094817.800,A,2500.7792536,N,12132.4624375,E,0.02,210.55,260623,,,R,V*1A
$GPHDT,,T*1B
$GNGSA,A,3,196,15,199,195,24,05,13,29,20,194,11,,1.10,0.55,0.95,1*0F
$GNGSA,A,3,84,85,69,79,80,,,,,,,,1.10,0.55,0.95,2*06
$GNGSA,A,3,08,15,13,07,03,34,,,,,,,1.10,0.55,0.95,3*02
$GNGSA,A,3,38,39,16,06,13,20,29,37,46,32,,,1.10,0.55,0.95,4*04
$GPGSV,4,1,14,196,72,047,41,15,61,347,39,199,60,167,36,195,52,174,41,1*5F
$GPGSV,4,2,14,24,51,178,35,05,42,070,44,13,41,031,38,18,40,318,18,1*69
$GPGSV,4,3,14,41,38,242,35,29,26,231,42,20,25,097,39,23,18,308,14,1*64
$GPGSV,4,4,14,194,17,149,26,11,16,146,29,1*5C
$GPGSV,2,1,06,196,72,047,45,199,60,167,46,195,52,174,42,24,51,178,39,8*5C
$GPGSV,2,2,06,194,17,149,23,11,16,146,24,8*5E
$GLGSV,2,1,05,84,60,215,31,85,37,317,17,69,31,024,19,79,24,082,40,1*7F
$GLGSV,2,2,05,80,20,137,17,1*44
$GAGSV,2,1,07,08,65,331,32,15,63,164,39,13,58,313,27,07,32,256,27,7*7D
$GAGSV,2,2,07,03,31,038,39,34,12,150,18,30,02,168,,7*43
$GAGSV,2,1,05,08,65,331,37,15,63,164,43,13,58,313,28,07,32,256,33,1*7B
$GAGSV,2,2,05,03,31,038,40,1*4E
$GBGSV,3,1,12,38,68,026,39,39,68,208,44,16,58,204,37,06,55,204,34,1*7D
$GBGSV,3,2,12,13,52,343,27,20,51,005,35,29,47,252,47,37,33,090,43,1*71
$GBGSV,3,3,12,19,32,298,,46,27,156,18,32,19,063,41,35,18,310,,1*77
$GBGSV,2,1,07,38,68,026,42,39,68,208,43,20,51,005,37,29,47,252,45,4*72
$GBGSV,2,2,07,37,33,090,44,46,27,156,21,32,19,063,36,4*46
$GNGGA,094818.000,2500.7792545,N,12132.4624380,E,4,50,0.55,15.858,M,15.25,M,6,3335*48
$GNRMC,094818.000,A,2500.7792545,N,12132.4624380,E,0.02,210.55,260623,,,R,V*13
$GPHDT,,T*1B
$GNGGA,094818.200,2500.7792541,N,12132.4624356,E,4,49,0.55,15.846,M,15.25,M,6,3335*42
$GNRMC,094818.200,A,2500.7792541,N,12132.4624356,E,0.02,210.55,260623,,,R,V*1E
$GPHDT,,T*1B
$GNGGA,094818.400,2500.7792508,N,12132.4624413,E,4,49,0.55,15.870,M,15.25,M,5,3335*49
$GNRMC,094818.400,A,2500.7792508,N,12132.4624413,E,0.02,210.55,260623,,,R,V*13
$GPHDT,,T*1B
$GNGGA,094818.600,2500.7792559,N,12132.4624345,E,4,49,0.55,15.851,M,15.25,M,3,3335*4E
$GNRMC,094818.600,A,2500.7792559,N,12132.4624345,E,0.02,210.55,260623,,,R,V*11
$GPHDT,,T*1B
$GNGGA,094818.800,2500.7792534,N,12132.4624427,E,4,49,0.55,15.877,M,15.25,M,1,3335*4E
$GNRMC,094818.800,A,2500.7792534,N,12132.4624427,E,0.02,210.55,260623,,,R,V*17
$GPHDT,,T*1B
$GNGSA,A,3,196,15,199,195,24,05,13,29,20,194,11,,1.10,0.55,0.95,1*0F
$GNGSA,A,3,84,85,69,79,80,,,,,,,,1.10,0.55,0.95,2*06
$GNGSA,A,3,08,15,13,07,03,34,,,,,,,1.10,0.55,0.95,3*02
$GNGSA,A,3,38,39,16,06,13,20,29,37,32,46,,,1.10,0.55,0.95,4*04
$GPGSV,4,1,14,196,72,047,41,15,61,347,39,199,60,167,36,195,52,174,41,1*5F
$GPGSV,4,2,14,24,51,178,35,05,42,070,44,13,41,031,38,18,40,318,18,1*69
$GPGSV,4,3,14,41,38,242,35,29,26,231,42,20,25,097,39,23,18,308,13,1*63
$GPGSV,4,4,14,194,17,149,28,11,16,146,29,1*52
$GPGSV,2,1,06,196,72,047,45,199,60,167,45,195,52,174,42,24,51,178,39,8*5F
$GPGSV,2,2,06,194,17,149,24,11,16,146,24,8*59
$GLGSV,2,1,05,84,60,215,31,85,37,317,16,69,31,024,19,79,24,082,39,1*70
$GLGSV,2,2,05,80,20,137,18,1*4B
$GAGSV,2,1,07,08,65,331,32,15,63,164,39,13,58,313,27,07,32,257,28,7*73
$GAGSV,2,2,07,03,31,039,39,34,12,150,18,30,02,168,,7*42
$GAGSV,2,1,05,08,65,331,37,15,63,164,43,13,58,313,28,07,32,257,33,1*7A
$GAGSV,2,2,05,03,31,039,40,1*4F
$GBGSV,3,1,12,38,68,026,39,39,68,208,44,16,58,204,36,06,55,204,33,1*7B
$GBGSV,3,2,12,13,52,343,27,20,51,005,36,29,47,252,47,37,33,090,43,1*72
$GBGSV,3,3,12,19,32,298,,46,27,156,17,32,19,063,41,35,18,310,,1*78
$GBGSV,2,1,07,38,68,026,42,39,68,208,43,20,51,005,37,29,47,252,45,4*72
$GBGSV,2,2,07,37,33,090,44,46,27,156,20,32,19,063,36,4*47
$GNGGA,094819.000,2500.7792565,N,12132.4624399,E,4,49,0.55,15.884,M,15.25,M,1,3335*4D
$GNRMC,094819.000,A,2500.7792565,N,12132.4624399,E,0.02,210.55,260623,,,R,V*18
$GPHDT,,T*1B
$GNGGA,094819.200,2500.7792572,N,12132.4624397,E,4,49,0.55,15.882,M,15.25,M,1,3335*41
$GNRMC,094819.200,A,2500.7792572,N,12132.4624397,E,0.02,210.55,260623,,,R,V*12
$GPHDT,,T*1B
$GNGGA,094819.400,2500.7792572,N,12132.4624372,E,4,50,0.55,15.862,M,15.25,M,1,3335*4A
$GNRMC,094819.400,A,2500.7792572,N,12132.4624372,E,0.02,210.55,260623,,,R,V*1F
$GPHDT,,T*1B
$GNGGA,094819.600,2500.7792529,N,12132.4624427,E,4,50,0.55,15.888,M,15.25,M,1,3335*45
$GNRMC,094819.600,A,2500.7792529,N,12132.4624427,E,0.03,210.55,260623,,,R,V*15
$GPHDT,,T*1B
$GNGGA,094819.800,2500.7792560,N,12132.4624399,E,4,50,0.55,15.875,M,15.25,M,0,3335*47
$GNRMC,094819.800,A,2500.7792560,N,12132.4624399,E,0.03,210.55,260623,,,R,V*14
$GPHDT,,T*1B
$GNGSA,A,3,196,15,199,195,24,05,13,29,20,194,11,,1.10,0.55,0.95,1*0F
$GNGSA,A,3,84,85,69,79,80,,,,,,,,1.10,0.55,0.95,2*06
$GNGSA,A,3,08,15,13,07,03,34,,,,,,,1.10,0.55,0.95,3*02
$GNGSA,A,3,38,39,16,06,13,20,29,37,46,32,,,1.10,0.55,0.95,4*04
$GPGSV,4,1,14,196,72,047,41,15,61,347,39,199,60,167,36,195,52,174,41,1*5F
$GPGSV,4,2,14,24,51,178,35,05,42,070,44,13,41,031,38,18,40,318,17,1*66
$GPGSV,4,3,14,41,38,242,35,29,26,231,42,20,25,097,39,23,18,308,14,1*64
$GPGSV,4,4,14,194,17,149,27,11,16,146,29,1*5D
$GPGSV,2,1,06,196,72,047,45,199,60,167,45,195,52,174,42,24,51,178,39,8*5F
$GPGSV,2,2,06,194,17,149,24,11,16,146,25,8*58
$GLGSV,2,1,05,84,60,215,31,85,37,317,15,69,31,024,21,79,24,082,39,1*78
$GLGSV,2,2,05,80,20,137,18,1*4B
$GAGSV,2,1,07,08,64,331,32,15,63,164,39,13,58,313,28,07,32,257,28,7*7D
$GAGSV,2,2,07,03,31,039,39,34,12,150,18,30,02,168,,7*42
$GAGSV,2,1,05,08,64,331,37,15,63,164,43,13,58,313,29,07,32,257,33,1*7A
$GAGSV,2,2,05,03,31,039,40,1*4F
$GBGSV,3,1,12,38,68,026,39,39,68,208,44,16,58,204,36,06,55,204,33,1*7B
$GBGSV,3,2,12,13,52,343,27,20,51,005,36,29,47,252,47,37,33,090,42,1*73
$GBGSV,3,3,12,19,32,298,,46,27,156,16,32,19,063,41,35,18,310,,1*79
$GBGSV,2,1,07,38,68,026,42,39,68,208,43,20,51,005,37,29,47,252,45,4*72
$GBGSV,2,2,07,37,33,090,44,46,27,156,21,32,19,063,36,4*46
$GNGGA,094820.000,2500.7792556,N,12132.4624418,E,4,50,0.55,15.887,M,15.25,M,1,3335*42
$GNRMC,094820.000,A,2500.7792556,N,12132.4624418,E,0.03,210.55,260623,,,R,V*1D
$GPHDT,,T*1B
$GNGGA,094820.200,2500.7792546,N,12132.4624416,E,4,50,0.55,15.881,M,15.25,M,1,3335*49
$GNRMC,094820.200,A,2500.7792546,N,12132.4624416,E,0.03,210.55,260623,,,R,V*10
$GPHDT,,T*1B
$GNGGA,094820.400,2500.7792530,N,12132.4624421,E,4,50,0.55,15.885,M,15.25,M,1,3335*4E
$GNRMC,094820.400,A,2500.7792530,N,12132.4624421,E,0.01,210.55,260623,,,R,V*11
$GPHDT,,T*1B
$GNGGA,094820.600,2500.7792575,N,12132.4624389,E,4,50,0.55,15.866,M,15.25,M,1,3335*45
$GNRMC,094820.600,A,2500.7792575,N,12132.4624389,E,0.00,210.55,260623,,,R,V*16
$GPHDT,,T*1B
$GNGGA,094820.800,2500.7792582,N,12132.4624396,E,4,49,0.55,15.875,M,15.25,M,1,3335*47
$GNRMC,094820.800,A,2500.7792582,N,12132.4624396,E,0.00,210.55,260623,,,R,V*1E
$GPHDT,,T*1B
$GNGSA,A,3,196,15,199,195,24,05,13,29,20,194,11,,1.10,0.55,0.95,1*0F
$GNGSA,A,3,84,85,69,79,80,,,,,,,,1.10,0.55,0.95,2*06
$GNGSA,A,3,08,15,13,07,03,34,,,,,,,1.10,0.55,0.95,3*02
$GNGSA,A,3,38,39,16,06,13,20,29,37,32,46,,,1.10,0.55,0.95,4*04
$GPGSV,4,1,14,196,72,047,41,15,61,347,39,199,60,167,36,195,52,174,41,1*5F
$GPGSV,4,2,14,24,51,178,36,05,42,070,44,13,41,031,39,18,40,318,17,1*64
$GPGSV,4,3,14,41,38,242,35,29,26,231,42,20,25,097,39,23,18,308,12,1*62
$GPGSV,4,4,14,194,17,149,27,11,16,146,28,1*5C
$GPGSV,2,1,06,196,72,047,45,199,60,167,45,195,52,174,42,24,51,178,39,8*5F
$GPGSV,2,2,06,194,17,149,24,11,16,146,25,8*58
$GLGSV,2,1,05,84,60,215,31,85,37,317,14,69,31,024,22,79,24,082,40,1*74
$GLGSV,2,2,05,80,20,137,18,1*4B
$GAGSV,2,1,06,08,64,331,32,15,63,165,39,13,58,312,27,07,32,257,28,7*73
$GAGSV,2,2,06,03,31,039,39,34,12,150,17,7*72
$GAGSV,2,1,05,08,64,331,37,15,63,165,43,13,58,312,29,07,32,257,33,1*7A
$GAGSV,2,2,05,03,31,039,40,1*4F
$GBGSV,3,1,12,38,68,026,40,39,68,208,44,16,58,204,36,06,55,204,33,1*75
$GBGSV,3,2,12,13,52,343,27,20,51,005,35,29,47,252,48,37,33,090,42,1*7F
$GBGSV,3,3,12,19,32,298,,46,27,156,18,32,19,063,41,35,18,310,,1*77
$GBGSV,2,1,07,38,68,026,41,39,68,208,43,20,51,005,37,29,47,252,45,4*71
$GBGSV,2,2,07,37,33,090,44,46,27,156,21,32,19,063,36,4*46
$GNGGA,094821.000,2500.7792583,N,12132.4624372,E,4,49,0.55,15.875,M,15.25,M,2,3335*46
$GNRMC,094821.000,A,2500.7792583,N,12132.4624372,E,0.00,210.55,260623,,,R,V*1C
$GPHDT,,T*1B
$GNGGA,094821.200,2500.7792578,N,12132.4624392,E,4,49,0.55,15.882,M,15.25,M,2,3335*46
$GNRMC,094821.200,A,2500.7792578,N,12132.4624392,E,0.01,210.55,260623,,,R,V*15
$GPHDT,,T*1B
$GNGGA,094821.400,2500.7792573,N,12132.4624376,E,4,48,0.60,15.872,M,15.25,M,2,3335*49
$GNRMC,094821.400,A,2500.7792573,N,12132.4624376,E,0.00,210.55,260623,,,R,V*13
$GPHDT,,T*1B
$GNGGA,094821.600,2500.7792554,N,12132.4624382,E,4,48,0.60,15.864,M,15.25,M,2,3335*42
$GNRMC,094821.600,A,2500.7792554,N,12132.4624382,E,0.01,210.55,260623,,,R,V*1E
$GPHDT,,T*1B
$GNGGA,094821.800,2500.7792582,N,12132.4624400,E,4,49,0.60,15.884,M,15.25,M,1,3335*46
$GNRMC,094821.800,A,2500.7792582,N,12132.4624400,E,0.00,210.55,260623,,,R,V*17
$GPHDT,,T*1B
$GNGSA,A,3,196,15,199,195,24,05,13,29,20,194,11,,1.17,0.60,1.00,1*03
$GNGSA,A,3,84,69,79,80,,,,,,,,,1.17,0.60,1.00,2*07
$GNGSA,A,3,08,15,13,07,03,34,,,,,,,1.17,0.60,1.00,3*0E
$GNGSA,A,3,38,39,16,06,13,20,29,37,32,46,,,1.17,0.60,1.00,4*08
$GPGSV,4,1,14,196,72,047,41,15,61,347,39,199,60,167,36,195,52,174,41,1*5F
$GPGSV,4,2,14,24,51,178,36,05,42,070,44,13,41,031,39,18,40,318,17,1*64
$GPGSV,4,3,14,41,38,242,34,29,26,231,42,20,25,097,39,23,18,308,13,1*62
$GPGSV,4,4,14,194,17,149,27,11,16,146,29,1*5D
$GPGSV,2,1,06,196,72,047,45,199,60,167,45,195,52,174,42,24,51,178,40,8*51
$GPGSV,2,2,06,194,17,149,25,11,16,146,25,8*59
$GLGSV,2,1,06,84,60,215,32,85,37,317,15,70,34,306,,69,31,024,22,1*76
$GLGSV,2,2,06,79,24,082,40,80,20,137,18,1*7E
$GAGSV,2,1,06,08,64,331,33,15,63,165,39,13,58,312,27,07,32,257,28,7*72
$GAGSV,2,2,06,03,31,039,39,34,12,150,15,7*70
$GAGSV,2,1,06,08,64,331,37,15,63,165,43,13,58,312,28,07,32,257,32,1*79
$GAGSV,2,2,06,03,31,039,40,34,12,150,20,1*7E
$GBGSV,4,1,14,38,68,026,40,39,68,208,44,16,58,204,36,06,55,204,33,1*74
$GBGSV,4,2,14,13,52,343,27,20,51,005,34,29,47,252,48,09,39,206,,1*73
$GBGSV,4,3,14,37,33,090,42,19,32,298,,46,27,156,19,32,19,063,41,1*71
$GBGSV,4,4,14,35,18,310,,07,10,201,,1*7B
$GBGSV,2,1,07,38,68,026,41,39,68,208,43,20,51,005,37,29,47,252,45,4*71
$GBGSV,2,2,07,37,33,090,44,46,27,156,22,32,19,063,36,4*45
$GNGGA,094822.000,2500.7792560,N,12132.4624406,E,4,49,0.60,15.887,M,15.25,M,1,3335*44
$GNRMC,094822.000,A,2500.7792560,N,12132.4624406,E,0.01,210.55,260623,,,R,V*17
$GPHDT,,T*1B
$GNGGA,094822.200,2500.7792566,N,12132.4624404,E,4,49,0.60,15.885,M,15.25,M,1,3335*40
$GNRMC,094822.200,A,2500.7792566,N,12132.4624404,E,0.00,210.55,260623,,,R,V*10
$GPHDT,,T*1B
$GNGGA,094822.400,2500.7792576,N,12132.4624396,E,4,49,0.60,15.874,M,15.25,M,1,3335*45
$GNRMC,094822.400,A,2500.7792576,N,12132.4624396,E,0.00,210.55,260623,,,R,V*1B
$GPHDT,,T*1B
$GNGGA,094822.600,2500.7792585,N,12132.4624401,E,4,50,0.56,15.882,M,15.25,M,1,3335*46
$GNRMC,094822.600,A,2500.7792585,N,12132.4624401,E,0.00,210.55,260623,,,R,V*1C
$GPHDT,,T*1B
$GNGGA,094822.800,2500.7792572,N,12132.4624438,E,4,50,0.56,15.898,M,15.25,M,0,3335*40
$GNRMC,094822.800,A,2500.7792572,N,12132.4624438,E,0.00,210.55,260623,,,R,V*10
$GPHDT,,T*1B
$GNGSA,A,3,196,15,199,195,24,05,13,18,29,20,194,11,1.12,0.56,0.97,1*05
$GNGSA,A,3,84,69,79,80,,,,,,,,,1.12,0.56,0.97,2*08
$GNGSA,A,3,08,15,13,07,03,34,,,,,,,1.12,0.56,0.97,3*01
$GNGSA,A,3,38,39,16,06,13,20,29,37,32,46,,,1.12,0.56,0.97,4*07
$GPGSV,4,1,14,196,72,047,41,15,61,347,39,199,60,167,36,195,52,174,41,1*5F
$GPGSV,4,2,14,24,51,178,36,05,42,070,44,13,41,031,39,18,40,318,19,1*6A
$GPGSV,4,3,14,41,38,242,33,29,26,231,42,20,25,097,39,23,18,308,13,1*65
$GPGSV,4,4,14,194,17,149,27,11,16,146,29,1*5D
$GPGSV,2,1,06,196,72,047,45,199,60,167,45,195,52,174,42,24,51,178,40,8*51
$GPGSV,2,2,06,194,17,149,24,11,16,146,25,8*58
$GLGSV,2,1,06,84,60,215,32,85,37,317,16,69,31,024,22,79,24,082,40,1*76
$GLGSV,2,2,06,80,20,137,18,83,08,170,,1*7D
$GAGSV,2,1,07,08,64,331,33,15,63,165,38,13,58,312,27,07,32,257,28,7*72
$GAGSV,2,2,07,03,31,039,39,34,12,150,13,02,08,120,,7*4E
$GAGSV,2,1,06,08,64,331,37,15,63,165,43,13,58,312,28,07,32,257,32,1*79
$GAGSV,2,2,06,03,31,039,40,34,12,150,19,1*74
$GBGSV,4,1,13,38,68,026,40,39,68,208,44,16,58,204,36,06,55,204,33,1*73
$GBGSV,4,2,13,13,52,343,27,20,51,005,34,29,47,252,48,37,33,090,42,1*78
$GBGSV,4,3,13,19,32,298,,46,27,156,18,32,19,063,42,35,18,310,,1*72
$GBGSV,4,4,13,10,10,212,,1*45
$GBGSV,2,1,07,38,68,026,42,39,68,208,43,20,51,005,38,29,47,252,45,4*7D
$GBGSV,2,2,07,37,33,090,44,46,27,156,23,32,19,063,36,4*44
$GNGGA,094823.000,2500.7792556,N,12132.4624437,E,4,50,0.56,15.891,M,15.25,M,1,3335*48
$GNRMC,094823.000,A,2500.7792556,N,12132.4624437,E,0.00,210.55,260623,,,R,V*10
$GPHDT,,T*1B
$GNGGA,094823.200,2500.7792552,N,12132.4624438,E,4,49,0.60,15.890,M,15.25,M,1,3335*4D
$GNRMC,094823.200,A,2500.7792552,N,12132.4624438,E,0.00,210.55,260623,,,R,V*19
$GPHDT,,T*1B
$GNGGA,094823.400,2500.7792546,N,12132.4624429,E,4,49,0.60,15.884,M,15.25,M,1,3335*4B
$GNRMC,094823.400,A,2500.7792546,N,12132.4624429,E,0.01,210.55,260623,,,R,V*1B
$GPHDT,,T*1B
$GNGGA,094823.600,2500.7792554,N,12132.4624447,E,4,50,0.56,15.901,M,15.25,M,1,3335*43
$GNRMC,094823.600,A,2500.7792554,N,12132.4624447,E,0.00,210.55,260623,,,R,V*13
$GPHDT,,T*1B
$GNGGA,094823.800,2500.7792568,N,12132.4624433,E,4,51,0.53,15.889,M,15.25,M,1,3335*44
$GNRMC,094823.800,A,2500.7792568,N,12132.4624433,E,0.00,210.55,260623,,,R,V*11
$GPHDT,,T*1B
$GNGSA,A,3,196,15,199,195,24,05,13,29,20,194,11,,1.10,0.55,0.95,1*0F
$GNGSA,A,3,84,85,69,79,80,,,,,,,,1.10,0.55,0.95,2*06
$GNGSA,A,3,08,15,13,07,03,34,,,,,,,1.10,0.55,0.95,3*02
$GNGSA,A,3,39,38,16,06,13,20,29,37,32,46,,,1.10,0.55,0.95,4*04
$GPGSV,4,1,14,196,72,047,41,15,61,347,39,199,60,167,37,195,52,174,40,1*5F
$GPGSV,4,2,14,24,51,178,36,05,42,070,44,13,41,031,39,18,40,318,19,1*6A
$GPGSV,4,3,14,41,38,242,34,29,26,231,42,20,25,097,39,23,18,308,15,1*64
$GPGSV,4,4,14,194,17,149,28,11,16,146,30,1*5A
$GPGSV,2,1,06,196,72,047,45,199,60,167,45,195,52,174,42,24,51,178,41,8*50
$GPGSV,2,2,06,194,17,149,24,11,16,146,27,8*5A
$GLGSV,2,1,05,84,60,215,31,85,37,317,14,69,31,024,21,79,24,082,41,1*76
$GLGSV,2,2,05,80,20,137,18,1*4B
$GAGSV,2,1,08,08,64,331,33,15,63,165,38,13,58,312,28,07,32,257,28,7*72
$GAGSV,2,2,08,03,31,039,39,34,12,150,,02,08,120,,26,06,324,,7*74
$GAGSV,2,1,06,08,64,331,37,15,63,165,44,13,58,312,28,07,32,257,32,1*7E
$GAGSV,2,2,06,03,31,039,40,34,12,150,20,1*7E
$GBGSV,4,1,13,39,68,208,44,38,68,026,40,16,58,204,36,06,55,204,31,1*71
$GBGSV,4,2,13,13,52,343,27,20,51,005,33,29,47,252,48,09,39,206,,1*73
$GBGSV,4,3,13,37,33,090,42,19,32,298,,46,27,156,,32,19,063,41,1*7E
$GBGSV,4,4,13,35,18,310,,1*49
$GBGSV,2,1,07,38,68,026,43,39,68,208,44,20,51,005,38,29,47,252,44,4*7A
$GBGSV,2,2,07,37,33,090,44,46,27,156,23,32,19,063,37,4*45
$GNGGA,094824.000,2500.7792541,N,12132.4624431,E,4,49,0.55,15.896,M,15.25,M,2,3335*40
$GNRMC,094824.000,A,2500.7792541,N,12132.4624431,E,0.00,210.55,260623,,,R,V*17
$GPHDT,,T*1B
$GNGGA,094824.200,2500.7792554,N,12132.4624432,E,4,50,0.53,15.891,M,15.25,M,2,3335*4C
$GNRMC,094824.200,A,2500.7792554,N,12132.4624432,E,0.00,210.55,260623,,,R,V*12
$GPHDT,225.717,T*31
$GNGGA,094824.400,2500.7792552,N,12132.4624412,E,4,49,0.55,15.888,M,15.25,M,2,3335*48
$GNRMC,094824.400,A,2500.7792552,N,12132.4624412,E,0.00,210.55,260623,,,R,V*10
