$FW : RTK35X,V1.1X0314AS,Lib20210517,1*54
$Tool : LOCOSYS , GNSS Firebird , v1.0.0.19*39
$---------------------------------------------------*2D
34,199,60,167,37,195,52,174,42,1*5E
$GPGSV,4,2,14,24,50,178,41,05,42,070,40,13,41,031,36,18,39,318,24,1*60
$GPGSV,4,3,14,41,38,242,29,29,26,231,32,20,25,096,41,23,18,308,11,1*65
$GPGSV,4,4,14,194,17,149,30,11,16,145,28,1*59
$GPGSV,2,1,07,196,72,047,42,199,60,167,47,195,52,174,46,24,50,178,43,8*53
$GPGSV,2,2,07,18,39,318,23,194,17,149,22,11,16,145,25,8*64
$GLGSV,2,1,05,84,60,215,30,85,36,318,24,69,31,023,21,79,24,082,42,1*7E
$GLGSV,2,2,05,80,19,138,24,1*41
$GAGSV,3,1,10,08,65,330,32,15,63,164,42,13,57,313,25,07,32,256,20,7*7D
$GAGSV,3,2,10,03,31,038,31,34,13,150,22,02,08,121,,26,06,324,,7*75
$GAGSV,3,3,10,30,02,168,,25,02,075,,7*7B
$GAGSV,2,1,06,08,65,330,39,15,63,164,45,13,57,313,28,07,32,256,27,1*7B
$GAGSV,2,2,06,03,31,038,35,34,13,150,19,1*76
$GBGSV,3,1,12,39,68,207,45,38,67,026,39,16,58,203,37,06,55,204,34,1*7B
$GBGSV,3,2,12,20,51,004,34,13,51,342,21,29,47,253,46,37,33,091,48,1*7F
$GBGSV,3,3,12,19,32,297,16,46,27,157,36,32,19,063,36,35,18,310,,1*72
$GBGSV,2,1,08,39,68,207,45,38,67,026,40,20,51,004,36,29,47,253,44,4*79
$GBGSV,2,2,08,37,33,091,46,19,32,297,12,46,27,157,32,32,19,063,35,4*7C
$GNGGA,094724.000,2500.7804300,N,12132.4651100,E,2,54,0.50,29.41,M,15.25,M,1,3335*78
$GNRMC,094724.000,A,2500.7804300,N,12132.4651100,E,0.01,210.55,260623,,,D,V*09
$GPHDT,,T*1B
$GNGGA,094724.200,2500.7804400,N,12132.4650900,E,2,54,0.50,29.41,M,15.25,M,1,3335*74
$GNRMC,094724.200,A,2500.7804400,N,12132.4650900,E,0.02,210.55,260623,,,D,V*06
$GPHDT,,T*1B
$GNGGA,094724.400,2500.7804600,N,12132.4650800,E,2,54,0.50,29.41,M,15.25,M,1,3335*71
$GNRMC,094724.400,A,2500.7804600,N,12132.4650800,E,0.02,210.55,260623,,,D,V*03
$GPHDT,,T*1B
$GNGGA,094724.600,2500.7804700,N,12132.4650800,E,2,54,0.50,29.41,M,15.25,M,0,3335*73
$GNRMC,094724.600,A,2500.7804700,N,12132.4650800,E,0.03,210.55,260623,,,D,V*01
$GPHDT,,T*1B
$GNGGA,094724.800,2500.7804900,N,12132.4650600,E,2,54,0.50,29.41,M,15.25,M,0,3335*7D
$GNRMC,094724.800,A,2500.7804900,N,12132.4650600,E,0.03,210.55,260623,,,D,V*0F
$GPHDT,,T*1B
$GNGSA,A,3,196,15,199,195,24,05,13,18,29,20,194,11,0.85,0.51,0.68,1*0D
$GNGSA,A,3,84,85,69,79,80,,,,,,,,0.85,0.51,0.68,2*0D
$GNGSA,A,3,08,15,13,07,03,34,,,,,,,0.85,0.51,0.68,3*09
$GNGSA,A,3,39,38,16,06,20,13,29,37,46,32,,,0.85,0.51,0.68,4*0F
$GPGSV,4,1,14,196,72,047,39,15,61,346,35,199,60,167,37,195,52,174,42,1*5F
$GPGSV,4,2,14,24,50,178,41,05,42,070,36,13,41,031,38,18,39,318,24,1*6F
$GPGSV,4,3,14,41,38,242,30,29,26,231,33,20,25,096,41,23,18,308,11,1*6C
$GPGSV,4,4,14,194,17,149,30,11,16,145,28,1*59
$GPGSV,2,1,07,196,72,047,42,199,60,167,47,195,52,174,46,24,50,178,43,8*53
$GPGSV,2,2,07,18,39,318,22,194,17,149,22,11,16,145,25,8*65
$GLGSV,2,1,05,84,60,215,30,85,37,317,24,69,31,023,24,79,24,082,41,1*76
$GLGSV,2,2,05,80,19,138,25,1*40
$GAGSV,3,1,10,08,65,330,32,15,63,164,42,13,57,313,24,07,32,256,22,7*7E
$GAGSV,3,2,10,03,31,038,33,34,13,150,23,02,08,121,,26,06,324,,7*76
$GAGSV,3,3,10,30,02,168,,25,02,075,,7*7B
$GAGSV,2,1,06,08,65,330,38,15,63,164,45,13,57,313,28,07,32,256,28,1*75
$GAGSV,2,2,06,03,31,038,35,34,13,150,20,1*7C
$GBGSV,3,1,12,39,68,207,45,38,67,026,40,16,58,203,37,06,55,204,34,1*75
$GBGSV,3,2,12,20,51,004,34,13,51,342,22,29,47,253,46,37,33,091,48,1*7C
$GBGSV,3,3,12,19,32,297,15,46,27,157,36,32,19,063,36,35,18,310,,1*71
$GBGSV,2,1,07,39,68,207,45,38,67,026,40,20,51,004,36,29,47,253,44,4*76
$GBGSV,2,2,07,37,33,091,46,46,27,157,33,32,19,063,34,4*45
$GNGGA,094725.000,2500.7804900,N,12132.4650600,E,2,53,0.51,29.41,M,15.25,M,1,3335*73
$GNRMC,094725.000,A,2500.7804900,N,12132.4650600,E,0.03,210.55,260623,,,D,V*06
$GPHDT,,T*1B
$GNGGA,094725.200,2500.7805000,N,12132.4650500,E,2,53,0.51,29.41,M,15.25,M,1,3335*7A
$GNRMC,094725.200,A,2500.7805000,N,12132.4650500,E,0.03,210.55,260623,,,D,V*0F
$GPHDT,,T*1B
$GNGGA,094725.400,2500.7805000,N,12132.4650400,E,2,53,0.51,29.41,M,15.25,M,1,3335*7D
$GNRMC,094725.400,A,2500.7805000,N,12132.4650400,E,0.02,210.55,260623,,,D,V*09
$GPHDT,,T*1B
$GNGGA,094725.600,2500.7805200,N,12132.4650300,E,2,53,0.51,29.41,M,15.25,M,0,3335*7B
$GNRMC,094725.600,A,2500.7805200,N,12132.4650300,E,0.02,210.55,260623,,,D,V*0E
$GPHDT,,T*1B
$GNGGA,094725.800,2500.7805300,N,12132.4650200,E,2,53,0.51,29.41,M,15.25,M,0,3335*75
$GNRMC,094725.800,A,2500.7805300,N,12132.4650200,E,0.03,210.55,260623,,,D,V*01
$GPHDT,,T*1B
$GNGSA,A,3,196,15,199,195,24,05,13,18,29,20,194,11,0.85,0.51,0.68,1*0D
$GNGSA,A,3,84,85,69,79,80,,,,,,,,0.85,0.51,0.68,2*0D
$GNGSA,A,3,08,15,13,07,03,34,,,,,,,0.85,0.51,0.68,3*09
$GNGSA,A,3,39,38,16,06,20,13,29,37,46,32,,,0.85,0.51,0.68,4*0F
$GPGSV,4,1,14,196,72,047,41,15,61,346,35,199,60,167,37,195,52,174,42,1*50
$GPGSV,4,2,14,24,50,178,42,05,42,070,34,13,41,031,40,18,39,318,24,1*61
$GPGSV,4,3,14,41,38,242,32,29,26,231,33,20,25,096,41,23,18,308,12,1*6D
$GPGSV,4,4,14,194,17,149,30,11,16,145,28,1*59
$GPGSV,2,1,07,196,72,047,43,199,60,167,47,195,52,174,46,24,50,178,43,8*52
$GPGSV,2,2,07,18,39,318,20,194,17,149,22,11,16,145,25,8*67
$GLGSV,2,1,05,84,60,215,30,85,37,317,24,69,31,023,19,79,24,082,38,1*76
$GLGSV,2,2,05,80,19,138,24,1*41
$GAGSV,3,1,10,08,65,330,32,15,63,164,42,13,57,313,21,07,32,256,22,7*7B
$GAGSV,3,2,10,03,31,038,37,34,13,150,23,02,08,121,,26,06,324,,7*72
$GAGSV,3,3,10,30,02,168,,25,02,075,,7*7B
$GAGSV,2,1,06,08,65,330,38,15,63,164,44,13,57,313,28,07,32,256,27,1*7B
$GAGSV,2,2,06,03,31,038,38,34,13,150,20,1*71
$GBGSV,3,1,12,39,68,207,45,38,67,026,42,16,58,203,36,06,55,204,34,1*76
$GBGSV,3,2,12,20,51,004,33,13,51,342,24,29,47,253,46,37,33,091,45,1*70
$GBGSV,3,3,12,19,32,297,14,46,27,157,36,32,19,063,35,35,18,310,,1*73
$GBGSV,2,1,07,39,68,207,45,38,67,026,41,20,51,004,36,29,47,253,44,4*77
$GBGSV,2,2,07,37,33,091,42,46,27,157,33,32,19,063,32,4*47
$GNGGA,094726.000,2500.7805400,N,12132.4650200,E,2,53,0.51,29.41,M,15.25,M,1,3335*78
$GNRMC,094726.000,A,2500.7805400,N,12132.4650200,E,0.02,210.55,260623,,,D,V*0C
$GPHDT,,T*1B
$GNGGA,094726.200,2500.7805500,N,12132.4650000,E,2,53,0.51,29.41,M,15.25,M,1,3335*79
$GNRMC,094726.200,A,2500.7805500,N,12132.4650000,E,0.01,210.55,260623,,,D,V*0E
$GPHDT,,T*1B
$GNGGA,094726.400,2500.7805600,N,12132.4649900,E,2,53,0.51,29.41,M,15.25,M,1,3335*7D
$GNRMC,094726.400,A,2500.7805600,N,12132.4649900,E,0.02,210.55,260623,,,D,V*09
$GPHDT,,T*1B
$GNGGA,094726.600,2500.7805800,N,12132.4649800,E,2,53,0.51,29.41,M,15.25,M,0,3335*71
$GNRMC,094726.600,A,2500.7805800,N,12132.4649800,E,0.02,210.55,260623,,,D,V*04
$GPHDT,,T*1B
$GNGGA,094726.800,2500.7805900,N,12132.4649700,E,2,53,0.51,29.42,M,15.25,M,0,3335*72
$GNRMC,094726.800,A,2500.7805900,N,12132.4649700,E,0.02,210.55,260623,,,D,V*04
$GPHDT,,T*1B
$GNGSA,A,3,196,15,199,195,24,05,13,18,29,20,194,11,0.85,0.51,0.68,1*0D
$GNGSA,A,3,84,85,69,79,80,,,,,,,,0.85,0.51,0.68,2*0D
$GNGSA,A,3,08,15,13,07,03,34,,,,,,,0.85,0.51,0.68,3*09
$GNGSA,A,3,39,38,16,06,13,20,29,37,46,32,,,0.85,0.51,0.68,4*0F
$GPGSV,4,1,14,196,72,047,41,15,61,346,36,199,60,167,37,195,52,174,42,1*53
$GPGSV,4,2,14,24,50,178,42,05,42,070,35,13,41,031,41,18,39,318,22,1*67
$GPGSV,4,3,14,41,38,242,31,29,26,231,32,20,25,096,40,23,18,308,15,1*69
$GPGSV,4,4,14,194,17,149,30,11,16,145,27,1*56
$GPGSV,2,1,07,196,72,047,44,199,60,167,46,195,52,174,46,24,50,178,43,8*54
$GPGSV,2,2,07,18,39,318,18,194,17,149,21,11,16,145,26,8*6C
$GLGSV,2,1,05,84,60,215,30,85,37,317,21,69,31,023,21,79,24,082,31,1*71
$GLGSV,2,2,05,80,19,138,20,1*45
$GAGSV,3,1,09,08,65,330,31,15,63,164,42,13,57,313,19,07,32,256,21,7*78
$GAGSV,3,2,09,03,31,038,37,34,13,150,23,26,06,324,,30,02,168,,7*7C
$GAGSV,3,3,09,25,02,075,,7*4D
$GAGSV,2,1,06,08,65,330,38,15,63,164,44,13,57,313,27,07,32,256,29,1*7A
$GAGSV,2,2,06,03,31,038,40,34,13,150,20,1*7E
$GBGSV,3,1,12,39,68,207,45,38,67,026,42,16,58,203,36,06,55,204,34,1*76
$GBGSV,3,2,12,13,51,342,24,20,51,004,30,29,47,253,46,37,33,091,45,1*73
$GBGSV,3,3,12,19,32,297,14,46,27,157,36,32,19,063,34,35,18,310,,1*72
$GBGSV,2,1,07,39,68,207,45,38,67,026,42,20,51,004,36,29,47,253,44,4*74
$GBGSV,2,2,07,37,33,091,40,46,27,157,31,32,19,063,34,4*41
$GNGGA,094727.000,2500.7806100,N,12132.4649600,E,2,53,0.51,29.42,M,15.25,M,1,3335*70
$GNRMC,094727.000,A,2500.7806100,N,12132.4649600,E,0.02,210.55,260623,,,D,V*07
$GPHDT,,T*1B
$GNGGA,094727.200,2500.7806200,N,12132.4649400,E,2,52,0.51,29.42,M,15.25,M,1,3335*72
$GNRMC,094727.200,A,2500.7806200,N,12132.4649400,E,0.01,210.55,260623,,,D,V*07
$GPHDT,,T*1B
$GNGGA,094727.400,2500.7806400,N,12132.4649400,E,2,52,0.51,29.42,M,15.25,M,1,3335*72
$GNRMC,094727.400,A,2500.7806400,N,12132.4649400,E,0.02,210.55,260623,,,D,V*04
$GPHDT,,T*1B
$GNGGA,094727.600,2500.7806600,N,12132.4649300,E,2,52,0.51,29.42,M,15.25,M,0,3335*74
$GNRMC,094727.600,A,2500.7806600,N,12132.4649300,E,0.00,210.55,260623,,,D,V*01
$GPHDT,,T*1B
$GNGGA,094727.800,2500.7806800,N,12132.4649100,E,2,52,0.51,29.42,M,15.25,M,0,3335*76
$GNRMC,094727.800,A,2500.7806800,N,12132.4649100,E,0.00,210.55,260623,,,D,V*03
$GPHDT,,T*1B
$GNGSA,A,3,196,15,199,195,24,05,13,18,29,20,194,11,0.85,0.51,0.68,1*0D
$GNGSA,A,3,84,85,69,79,80,,,,,,,,0.85,0.51,0.68,2*0D
$GNGSA,A,3,08,15,13,07,03,34,,,,,,,0.85,0.51,0.68,3*09
$GNGSA,A,3,39,38,16,06,20,13,29,37,46,32,,,0.85,0.51,0.68,4*0F
$GPGSV,4,1,14,196,72,047,41,15,61,346,36,199,60,167,36,195,52,174,43,1*53
$GPGSV,4,2,14,24,50,178,42,05,42,070,37,13,41,031,41,18,39,318,22,1*65
$GPGSV,4,3,14,41,38,242,31,29,26,231,33,20,25,096,40,23,18,308,15,1*68
$GPGSV,4,4,14,194,17,149,30,11,16,145,27,1*56
$GPGSV,2,1,07,196,72,047,44,199,60,167,47,195,52,174,46,24,50,178,43,8*55
$GPGSV,2,2,07,18,39,318,21,194,17,149,21,11,16,145,27,8*67
$GLGSV,2,1,05,84,60,215,30,85,37,317,22,69,31,023,21,79,24,082,33,1*70
$GLGSV,2,2,05,80,19,138,19,1*4F
$GAGSV,2,1,08,08,65,330,32,15,63,164,42,13,57,313,19,07,32,256,23,7*79
$GAGSV,2,2,08,03,31,038,37,34,13,150,22,30,02,168,,25,02,075,,7*7D
$GAGSV,2,1,06,08,65,330,38,15,63,164,45,13,57,313,27,07,32,256,29,1*7B
$GAGSV,2,2,06,03,31,038,41,34,13,150,21,1*7E
$GBGSV,4,1,14,39,68,207,45,38,67,026,42,16,58,204,35,06,55,204,34,1*73
$GBGSV,4,2,14,20,51,004,27,13,51,342,24,29,47,253,46,37,33,091,45,1*74
$GBGSV,4,3,14,19,32,297,13,30,27,185,,46,27,157,36,32,19,063,34,1*73
$GBGSV,4,4,14,35,18,310,,40,05,194,,1*73
$GBGSV,2,1,07,39,68,207,45,38,67,026,43,20,51,004,36,29,47,253,44,4*75
$GBGSV,2,2,07,37,33,091,41,46,27,157,30,32,19,063,35,4*40
$GNGGA,094728.000,2500.7807000,N,12132.4649000,E,2,53,0.51,29.43,M,15.25,M,1,3335*78
$GNRMC,094728.000,A,2500.7807000,N,12132.4649000,E,0.00,210.55,260623,,,D,V*0C
$GPHDT,,T*1B
$GNGGA,094728.200,2500.7807100,N,12132.4648900,E,2,53,0.51,29.43,M,15.25,M,1,3335*73
$GNRMC,094728.200,A,2500.7807100,N,12132.4648900,E,0.01,210.55,260623,,,D,V*06
$GPHDT,,T*1B
$GNGGA,094728.400,2500.7807300,N,12132.4648700,E,2,53,0.51,29.43,M,15.25,M,1,3335*79
$GNRMC,094728.400,A,2500.7807300,N,12132.4648700,E,0.01,210.55,260623,,,D,V*0C
$GPHDT,,T*1B
$GNGGA,094728.600,2500.7807500,N,12132.4648500,E,2,53,0.51,29.43,M,15.25,M,0,3335*7E
$GNRMC,094728.600,A,2500.7807500,N,12132.4648500,E,0.03,210.55,260623,,,D,V*08
$GPHDT,,T*1B
$GNGGA,094728.800,2500.7807700,N,12132.4648400,E,2,53,0.51,29.44,M,15.25,M,0,3335*74
$GNRMC,094728.800,A,2500.7807700,N,12132.4648400,E,0.02,210.55,260623,,,D,V*04
$GPHDT,,T*1B
$GNGSA,A,3,196,15,199,195,24,05,13,18,29,20,194,11,0.85,0.51,0.68,1*0D
$GNGSA,A,3,84,85,69,79,80,,,,,,,,0.85,0.51,0.68,2*0D
$GNGSA,A,3,08,15,13,07,03,34,,,,,,,0.85,0.51,0.68,3*09
$GNGSA,A,3,39,38,16,06,13,20,29,37,46,32,,,0.85,0.51,0.68,4*0F
$GPGSV,4,1,14,196,72,047,42,15,61,346,36,199,60,167,36,195,52,174,43,1*50
$GPGSV,4,2,14,24,50,178,42,05,42,070,37,13,41,031,41,18,39,318,22,1*65
$GPGSV,4,3,14,41,38,242,30,29,26,231,31,20,25,096,40,23,18,308,14,1*6A
$GPGSV,4,4,14,194,17,149,30,11,16,145,27,1*56
$GPGSV,2,1,07,196,72,047,45,199,60,167,47,195,52,174,46,24,50,178,43,8*54
$GPGSV,2,2,07,18,39,318,22,194,17,149,22,11,16,145,27,8*67
$GLGSV,2,1,05,84,60,215,31,85,37,317,21,69,31,023,21,79,24,082,34,1*75
$GLGSV,2,2,05,80,19,138,18,1*4E
$GAGSV,2,1,08,08,65,330,32,15,63,164,42,13,57,313,19,07,32,256,24,7*7E
$GAGSV,2,2,08,03,31,038,37,34,13,150,23,25,02,075,,30,02,168,,7*7C
$GAGSV,2,1,06,08,65,330,38,15,63,164,45,13,57,313,28,07,32,256,29,1*74
$GAGSV,2,2,06,03,31,038,41,34,13,150,21,1*7E
$GBGSV,4,1,14,39,68,207,45,38,67,026,42,16,58,204,35,06,55,204,34,1*73
$GBGSV,4,2,14,13,51,342,22,20,51,005,28,29,47,253,46,37,33,091,44,1*7D
$GBGSV,4,3,14,19,32,298,12,30,27,185,,46,27,157,36,31,20,194,,1*7A
$GBGSV,4,4,14,32,19,063,34,35,18,310,,1*75
$GBGSV,2,1,07,39,68,207,45,38,67,026,44,20,51,005,36,29,47,253,45,4*72
$GBGSV,2,2,07,37,33,091,41,46,27,157,31,32,19,063,35,4*41
$GNGGA,094729.000,2500.7807900,N,12132.4648200,E,2,53,0.51,29.44,M,15.25,M,1,3335*74
$GNRMC,094729.000,A,2500.7807900,N,12132.4648200,E,0.01,210.55,260623,,,D,V*06
$GPHDT,,T*1B
$GNGGA,094729.200,2500.7808100,N,12132.4648100,E,2,53,0.51,29.44,M,15.25,M,1,3335*72
$GNRMC,094729.200,A,2500.7808100,N,12132.4648100,E,0.01,210.55,260623,,,D,V*00
$GPHDT,,T*1B
$GNGGA,094729.400,2500.7808300,N,12132.4647900,E,2,53,0.51,29.45,M,15.25,M,1,3335*70
$GNRMC,094729.400,A,2500.7808300,N,12132.4647900,E,0.02,210.55,260623,,,D,V*00
$GPHDT,,T*1B
$GNGGA,094729.600,2500.7808400,N,12132.4647700,E,2,53,0.51,29.45,M,15.25,M,1,3335*7B
$GNRMC,094729.600,A,2500.7808400,N,12132.4647700,E,0.01,210.55,260623,,,D,V*08
$GPHDT,,T*1B
$GNGGA,094729.800,2500.7808600,N,12132.4647500,E,2,53,0.51,29.45,M,15.25,M,0,3335*74
$GNRMC,094729.800,A,2500.7808600,N,12132.4647500,E,0.02,210.55,260623,,,D,V*05
$GPHDT,,T*1B
$GNGSA,A,3,196,15,199,195,24,05,13,18,29,20,194,11,0.85,0.51,0.68,1*0D
$GNGSA,A,3,84,85,69,79,80,,,,,,,,0.85,0.51,0.68,2*0D
$GNGSA,A,3,08,15,13,07,03,34,,,,,,,0.85,0.51,0.68,3*09
$GNGSA,A,3,39,38,16,06,13,20,29,37,46,32,,,0.85,0.51,0.68,4*0F
$GPGSV,4,1,14,196,72,047,42,15,61,346,37,199,60,167,36,195,52,174,43,1*51
$GPGSV,4,2,14,24,50,178,42,05,42,070,38,13,41,031,41,18,39,318,22,1*6A
$GPGSV,4,3,14,41,38,242,30,29,26,231,31,20,25,096,40,23,18,308,14,1*6A
$GPGSV,4,4,14,194,17,149,30,11,16,145,27,1*56
$GPGSV,2,1,07,196,72,047,45,199,60,167,47,195,52,174,46,24,50,178,43,8*54
$GPGSV,2,2,07,18,39,318,21,194,17,149,22,11,16,145,26,8*65
$GLGSV,2,1,06,84,60,215,30,85,37,317,20,69,31,023,18,79,24,082,33,1*7B
$GLGSV,2,2,06,80,19,138,20,83,08,170,,1*73
$GAGSV,2,1,08,08,65,330,32,15,63,164,42,13,57,313,21,07,32,256,23,7*72
$GAGSV,2,2,08,03,31,038,37,34,13,150,21,30,02,168,,25,02,075,,7*7E
$GAGSV,2,1,06,08,65,330,38,15,63,164,45,13,57,313,26,07,32,256,29,1*7A
$GAGSV,2,2,06,03,31,038,41,34,13,150,19,1*75
$GBGSV,4,1,13,39,68,207,45,38,67,026,42,16,58,204,35,06,55,204,34,1*74
$GBGSV,4,2,13,13,51,342,22,20,51,005,31,29,47,253,46,37,33,091,44,1*72
$GBGSV,4,3,13,19,32,298,,46,27,157,36,32,19,063,34,35,18,310,,1*7E
$GBGSV,4,4,13,10,10,212,,1*45
$GBGSV,2,1,07,39,68,207,45,38,67,026,44,20,51,005,36,29,47,253,45,4*72
$GBGSV,2,2,07,37,33,091,41,46,27,157,30,32,19,063,34,4*41
$GNGGA,094730.000,2500.7808800,N,12132.4647300,E,2,53,0.51,29.45,M,15.25,M,1,3335*7D
$GNRMC,094730.000,A,2500.7808800,N,12132.4647300,E,0.02,210.55,260623,,,D,V*0D
$PAIR010,0,1,2268,121668*3E
$GPHDT,,T*1B
$GNGGA,094730.200,2500.7809000,N,12132.4647100,E,2,53,0.51,29.46,M,15.25,M,1,3335*77
$GNRMC,094730.200,A,2500.7809000,N,12132.4647100,E,0.02,210.55,260623,,,D,V*04
$GPHDT,,T*1B
$GNGGA,094730.400,2500.7809100,N,12132.4646900,E,2,53,0.51,29.46,M,15.25,M,1,3335*79
$GNRMC,094730.400,A,2500.7809100,N,12132.4646900,E,0.03,210.55,260623,,,D,V*0B
$GPHDT,,T*1B
$GNGGA,094730.600,2500.7809300,N,12132.4646700,E,2,53,0.51,29.46,M,15.25,M,0,3335*76
$GNRMC,094730.600,A,2500.7809300,N,12132.4646700,E,0.02,210.55,260623,,,D,V*04
$GPHDT,,T*1B
$GNGGA,094730.800,2500.7809400,N,12132.4646500,E,2,53,0.51,29.46,M,15.25,M,0,3335*7D
$GNRMC,094730.800,A,2500.7809400,N,12132.4646500,E,0.03,210.55,260623,,,D,V*0E
$GPHDT,,T*1B
$GNGSA,A,3,196,15,199,195,24,05,13,18,29,20,194,11,0.85,0.51,0.68,1*0D
$GNGSA,A,3,84,85,69,79,80,,,,,,,,0.85,0.51,0.68,2*0D
$GNGSA,A,3,08,15,13,07,03,34,,,,,,,0.85,0.51,0.68,3*09
$GNGSA,A,3,39,38,16,06,20,13,29,37,46,32,,,0.85,0.51,0.68,4*0F
$GPGSV,4,1,14,196,72,047,42,15,61,346,37,199,60,167,36,195,52,174,43,1*51
$GPGSV,4,2,14,24,50,178,42,05,42,070,38,13,41,031,41,18,39,318,22,1*6A
$GPGSV,4,3,14,41,38,242,30,29,26,231,32,20,25,096,40,23,18,308,14,1*69
$GPGSV,4,4,14,194,17,149,30,11,16,145,27,1*56
$GPGSV,2,1,07,196,72,047,45,199,60,167,47,195,52,174,46,24,50,178,43,8*54
$GPGSV,2,2,07,18,39,318,22,194,17,149,21,11,16,145,26,8*65
$GLGSV,2,1,06,84,60,215,30,85,37,317,20,70,34,305,,69,31,023,17,1*70
$GLGSV,2,2,06,79,24,082,31,80,19,138,17,1*72
$GAGSV,3,1,09,08,65,330,32,15,63,164,42,13,57,313,21,07,32,256,23,7*72
$GAGSV,3,2,09,03,31,038,37,34,13,150,21,02,08,121,,30,02,168,,7*71
$GAGSV,3,3,09,25,02,075,,7*4D
$GAGSV,2,1,06,08,65,330,38,15,63,164,45,13,57,313,26,07,32,256,29,1*7A
$GAGSV,2,2,06,03,31,038,41,34,13,150,19,1*75
$GBGSV,4,1,14,39,68,207,45,38,67,026,42,16,58,204,35,06,55,204,34,1*73
$GBGSV,4,2,14,20,51,005,31,13,51,342,22,29,47,252,46,09,39,206,,1*7F
$GBGSV,4,3,14,37,33,091,44,19,32,298,,46,27,157,36,30,26,185,,1*78
$GBGSV,4,4,14,32,19,063,34,35,18,310,,1*75
$GBGSV,2,1,07,39,68,207,45,38,67,026,44,20,51,005,36,29,47,252,45,4*73
$GBGSV,2,2,07,37,33,091,41,46,27,157,30,32,19,063,34,4*41
$GNGGA,094731.000,2500.7809500,N,12132.4646300,E,2,53,0.51,29.47,M,15.25,M,1,3335*73
$GNRMC,094731.000,A,2500.7809500,N,12132.4646300,E,0.02,210.55,260623,,,D,V*01
$GPHDT,,T*1B
$GNGGA,094731.200,2500.7809600,N,12132.4646200,E,2,53,0.51,29.48,M,15.25,M,1,3335*7C
$GNRMC,094731.200,A,2500.7809600,N,12132.4646200,E,0.01,210.55,260623,,,D,V*02
$GPHDT,,T*1B
$GNGGA,094731.400,2500.7809700,N,12132.4646000,E,2,53,0.53,29.48,M,15.25,M,1,3335*7B
$GNRMC,094731.400,A,2500.7809700,N,12132.4646000,E,0.01,210.55,260623,,,D,V*07
$GPHDT,,T*1B
$GNGGA,094731.600,2500.7809800,N,12132.4645800,E,2,53,0.53,29.48,M,15.25,M,0,3335*7C
$GNRMC,094731.600,A,2500.7809800,N,12132.4645800,E,0.00,210.55,260623,,,D,V*00
$GPHDT,,T*1B
$GNGGA,094731.800,2500.7810000,N,12132.4645600,E,2,53,0.53,29.49,M,15.25,M,0,3335*7D
$GNRMC,094731.800,A,2500.7810000,N,12132.4645600,E,0.01,210.55,260623,,,D,V*01
$GPHDT,,T*1B
$GNGSA,A,3,196,15,199,195,24,05,13,18,29,20,194,11,1.07,0.53,0.93,1*00
$GNGSA,A,3,84,85,69,79,80,,,,,,,,1.07,0.53,0.93,2*00
$GNGSA,A,3,08,15,13,07,03,34,,,,,,,1.07,0.53,0.93,3*04
$GNGSA,A,3,39,38,16,06,13,20,29,37,46,32,,,1.07,0.53,0.93,4*02
$GPGSV,4,1,14,196,72,047,42,15,61,346,37,199,60,167,36,195,52,174,43,1*51
$GPGSV,4,2,14,24,50,178,41,05,42,070,38,13,41,031,41,18,39,318,21,1*6A
$GPGSV,4,3,14,41,38,242,30,29,26,231,31,20,25,096,40,23,18,308,,1*6F
$GPGSV,4,4,14,194,17,149,31,11,16,145,27,1*57
$GPGSV,2,1,07,196,72,047,45,199,60,167,47,195,52,174,46,24,50,178,43,8*54
$GPGSV,2,2,07,18,39,318,20,194,17,149,20,11,16,145,25,8*65
$GLGSV,2,1,06,84,60,215,31,85,37,317,19,70,34,305,,69,31,023,16,1*7A
$GLGSV,2,2,06,79,24,082,31,80,19,138,18,1*7D
$GAGSV,3,1,09,08,65,330,32,15,63,164,42,13,57,313,21,07,32,256,23,7*72
$GAGSV,3,2,09,03,31,038,37,34,13,150,21,02,08,121,,26,06,324,,7*78
$GAGSV,3,3,09,30,02,168,,7*44
$GAGSV,2,1,06,08,65,330,39,15,63,164,45,13,57,313,26,07,32,256,29,1*7B
$GAGSV,2,2,06,03,31,038,41,34,13,150,19,1*75
$GBGSV,4,1,13,39,68,207,45,38,67,026,42,16,58,204,35,06,55,204,34,1*74
$GBGSV,4,2,13,13,51,342,23,20,51,005,31,29,47,252,46,37,33,091,44,1*72
$GBGSV,4,3,13,19,32,298,,46,27,157,36,30,26,185,,32,19,063,34,1*78
$GBGSV,4,4,13,35,18,310,,1*49
$GBGSV,2,1,07,39,68,207,45,38,67,026,44,20,51,005,36,29,47,252,45,4*73
$GBGSV,2,2,07,37,33,091,41,46,27,157,30,32,19,063,34,4*41
$GNGGA,094732.000,2500.7810100,N,12132.4645400,E,2,53,0.53,29.49,M,15.25,M,1,3335*74
$GNRMC,094732.000,A,2500.7810100,N,12132.4645400,E,0.00,210.55,260623,,,D,V*08
$GPHDT,,T*1B
$GNGGA,094732.200,2500.7810200,N,12132.4645200,E,2,53,0.53,29.50,M,15.25,M,1,3335*7B
$GNRMC,094732.200,A,2500.7810200,N,12132.4645200,E,0.00,210.55,260623,,,D,V*0F
$GPHDT,,T*1B
$GNGGA,094732.400,2500.7810300,N,12132.4644900,E,2,53,0.53,29.50,M,15.25,M,1,3335*76
$GNRMC,094732.400,A,2500.7810300,N,12132.4644900,E,0.00,210.55,260623,,,D,V*02
$GPHDT,,T*1B
$GNGGA,094732.600,2500.7810400,N,12132.4644600,E,2,53,0.53,29.50,M,15.25,M,0,3335*7D
$GNRMC,094732.600,A,2500.7810400,N,12132.4644600,E,0.00,210.55,260623,,,D,V*08
$GPHDT,,T*1B
$GNGGA,094732.800,2500.7810600,N,12132.4644400,E,2,54,0.50,29.51,M,15.25,M,0,3335*76
$GNRMC,094732.800,A,2500.7810600,N,12132.4644400,E,0.00,210.55,260623,,,D,V*06
$GPHDT,,T*1B
$GNGSA,A,3,196,15,199,195,24,05,13,18,29,20,194,11,1.02,0.50,0.89,1*0D
$GNGSA,A,3,84,85,69,79,80,,,,,,,,1.02,0.50,0.89,2*0D
$GNGSA,A,3,08,15,13,07,03,34,,,,,,,1.02,0.50,0.89,3*09
$GNGSA,A,3,39,38,16,06,13,20,29,37,46,32,19,,1.02,0.50,0.89,4*07
$GPGSV,4,1,14,196,72,047,42,15,61,346,37,199,60,167,36,195,52,174,43,1*51
$GPGSV,4,2,14,24,50,178,41,05,42,070,38,13,41,031,41,18,39,318,21,1*6A
$GPGSV,4,3,14,41,38,242,30,29,26,231,31,20,25,096,40,23,18,308,,1*6F
$GPGSV,4,4,14,194,17,149,31,11,16,145,26,1*56
$GPGSV,2,1,07,196,72,047,45,199,60,167,47,195,52,174,46,24,50,178,43,8*54
$GPGSV,2,2,07,18,39,318,21,194,17,149,20,11,16,145,25,8*64
$GLGSV,2,1,05,84,60,215,31,85,37,317,19,69,31,023,15,79,24,082,29,1*75
$GLGSV,2,2,05,80,19,138,19,1*4F
$GAGSV,2,1,08,08,65,330,32,15,63,164,42,13,57,313,21,07,32,256,22,7*73
$GAGSV,2,2,08,03,31,038,37,34,13,150,21,02,08,121,,26,06,324,,7*78
$GAGSV,2,1,06,08,65,330,39,15,63,164,45,13,57,313,26,07,32,256,29,1*7B
$GAGSV,2,2,06,03,31,038,41,34,13,150,19,1*75
$GBGSV,3,1,12,39,68,208,45,38,68,026,42,16,58,204,35,06,55,204,34,1*72
$GBGSV,3,2,12,13,51,342,23,20,51,005,32,29,47,252,46,37,33,091,44,1*77
$GBGSV,3,3,12,19,32,298,,46,27,157,36,32,19,063,35,35,18,310,,1*79
$GBGSV,2,1,08,39,68,208,45,38,68,026,44,20,51,005,36,29,47,252,45,4*7C
$GBGSV,2,2,08,37,33,091,41,19,32,298,18,46,27,157,30,32,19,063,34,4*7D
$GNGGA,094733.000,2500.7810700,N,12132.4644200,E,2,54,0.50,29.51,M,15.25,M,1,3335*79
$GNRMC,094733.000,A,2500.7810700,N,12132.4644200,E,0.01,210.55,260623,,,D,V*09
$GPHDT,,T*1B
$GNGGA,094733.200,2500.7810700,N,12132.4644000,E,2,54,0.50,29.52,M,15.25,M,1,3335*7A
$GNRMC,094733.200,A,2500.7810700,N,12132.4644000,E,0.01,210.55,260623,,,D,V*09
$GPHDT,,T*1B
$GNGGA,094733.400,2500.7810800,N,12132.4643700,E,2,54,0.50,29.52,M,15.25,M,1,3335*73
$GNRMC,094733.400,A,2500.7810800,N,12132.4643700,E,0.01,210.55,260623,,,D,V*00
$GPHDT,,T*1B
$GNGGA,094733.600,2500.7810900,N,12132.4643400,E,2,54,0.50,29.53,M,15.25,M,0,3335*73
$GNRMC,094733.600,A,2500.7810900,N,12132.4643400,E,0.00,210.55,260623,,,D,V*01
$GPHDT,,T*1B
$GNGGA,094733.800,2500.7810900,N,12132.4643100,E,2,54,0.50,29.53,M,15.25,M,0,3335*78
$GNRMC,094733.800,A,2500.7810900,N,12132.4643100,E,0.00,210.55,260623,,,D,V*0A
$GPHDT,,T*1B
$GNGSA,A,3,196,15,199,195,24,05,13,18,29,20,194,11,1.04,0.52,0.90,1*01
$GNGSA,A,3,84,85,79,80,,,,,,,,,1.04,0.52,0.90,2*0E
$GNGSA,A,3,08,15,13,07,03,34,,,,,,,1.04,0.52,0.90,3*05
$GNGSA,A,3,39,38,16,06,13,20,29,37,46,32,19,,1.04,0.52,0.90,4*0B
$GPGSV,4,1,14,196,72,047,42,15,61,346,37,199,60,167,36,195,52,174,43,1*51
$GPGSV,4,2,14,24,50,178,41,05,42,070,39,13,41,031,41,18,39,318,21,1*6B
$GPGSV,4,3,14,41,38,242,30,29,26,231,31,20,25,096,40,23,18,308,,1*6F
$GPGSV,4,4,14,194,17,149,31,11,16,145,26,1*56
$GPGSV,2,1,07,196,72,047,45,199,60,167,47,195,52,174,46,24,50,178,43,8*54
$GPGSV,2,2,07,18,39,318,21,194,17,149,20,11,16,145,25,8*64
$GLGSV,2,1,05,84,60,215,31,85,37,317,19,69,31,023,16,79,24,082,29,1*76
$GLGSV,2,2,05,80,19,138,20,1*45
$GAGSV,2,1,08,08,65,330,32,15,63,164,42,13,57,313,22,07,32,256,22,7*70
$GAGSV,2,2,08,03,31,038,37,34,13,150,21,02,08,121,,26,06,324,,7*78
$GAGSV,2,1,06,08,65,330,39,15,63,164,44,13,57,313,26,07,32,256,29,1*7A
$GAGSV,2,2,06,03,31,038,41,34,13,150,19,1*75
$GBGSV,3,1,12,39,68,208,45,38,68,026,42,16,58,204,35,06,55,204,34,1*72
$GBGSV,3,2,12,13,51,342,23,20,51,005,32,29,47,252,46,37,33,091,44,1*77
$GBGSV,3,3,12,19,32,298,,46,27,157,36,32,19,063,35,35,18,310,,1*79
$GBGSV,2,1,08,39,68,208,45,38,68,026,44,20,51,005,36,29,47,252,45,4*7C
$GBGSV,2,2,08,37,33,091,40,19,32,298,19,46,27,157,29,32,19,063,34,4*75
$GNGGA,094734.000,2500.7811000,N,12132.4643000,E,2,53,0.52,29.54,M,15.25,M,1,3335*7D
$GNRMC,094734.000,A,2500.7811000,N,12132.4643000,E,0.00,210.55,260623,,,D,V*0C
$GPHDT,,T*1B
$GNGGA,094734.200,2500.7811200,N,12132.4642700,E,2,53,0.52,29.54,M,15.25,M,1,3335*7B
$GNRMC,094734.200,A,2500.7811200,N,12132.4642700,E,0.01,210.55,260623,,,D,V*0B
$GPHDT,,T*1B
$GNGGA,094734.400,2500.7811200,N,12132.4642500,E,2,53,0.52,29.55,M,15.25,M,1,3335*7E
$GNRMC,094734.400,A,2500.7811200,N,12132.4642500,E,0.00,210.55,260623,,,D,V*0E
$GPHDT,,T*1B
$GNGGA,094734.600,2500.7811200,N,12132.4642300,E,2,53,0.52,29.56,M,15.25,M,0,3335*78
$GNRMC,094734.600,A,2500.7811200,N,12132.4642300,E,0.00,210.55,260623,,,D,V*0A
