$FW : RTK35X,V1.1X0314AS,Lib20210517,1*54
$Tool : LOCOSYS , GNSS Firebird , v1.0.0.19*39
$---------------------------------------------------*2D
$GPHDT,,T*1B
$GNGSA,A,3,196,15,199,195,24,05,13,18,29,20,23,194,0.97,0.50,0.83,1*0B
$GNGSA,A,3,11,,,,,,,,,,,,0.97,0.50,0.83,1*01
$GNGSA,A,3,84,85,69,79,80,,,,,,,,0.97,0.50,0.83,2*0A
$GNGSA,A,3,08,15,13,03,34,,,,,,,,0.97,0.50,0.83,3*09
$GNGSA,A,3,39,38,16,06,13,20,29,37,19,46,32,,0.97,0.50,0.83,4*00
$GPGSV,4,1,14,196,72,047,42,15,62,346,32,199,60,167,37,195,52,174,44,1*51
$GPGSV,4,2,14,24,50,178,42,05,42,069,39,13,41,031,41,18,39,319,18,1*6B
$GPGSV,4,3,14,41,38,242,24,29,27,231,37,20,25,096,35,23,17,308,18,1*69
$GPGSV,4,4,14,194,17,149,27,11,16,145,24,1*53
$GPGSV,2,1,07,196,72,047,44,199,60,167,47,195,52,174,46,24,50,178,43,8*55
$GPGSV,2,2,07,18,39,319,27,194,17,149,27,11,16,145,23,8*62
$GLGSV,2,1,05,84,60,215,25,85,36,318,17,69,31,023,21,79,24,082,32,1*7D
$GLGSV,2,2,05,80,19,138,26,1*43
$GAGSV,2,1,08,08,65,330,33,15,63,164,41,13,57,313,21,03,32,038,40,7*7B
$GAGSV,2,2,08,07,31,256,26,34,13,150,22,02,08,121,,26,06,324,,7*75
$GAGSV,2,1,06,08,65,330,40,15,63,164,45,13,57,313,30,03,32,038,39,1*7D
$GAGSV,2,2,06,07,31,256,28,34,13,150,18,1*75
$GBGSV,3,1,12,39,67,207,45,38,67,026,43,16,58,203,36,06,55,204,30,1*7C
$GBGSV,3,2,12,13,51,342,19,20,51,004,34,29,47,253,41,37,33,091,40,1*7B
$GBGSV,3,3,12,19,32,297,19,46,27,157,35,32,19,062,38,35,18,311,,1*70
$GBGSV,2,1,08,38,67,026,44,39,67,207,45,20,51,004,35,29,47,253,40,4*75
$GBGSV,2,2,08,37,33,091,35,19,32,297,16,46,27,157,36,32,19,062,37,4*7B
$GNGGA,094657.000,2500.7806500,N,12132.4652200,E,2,52,0.50,30.46,M,15.25,M,4,3335*75
$GNRMC,094657.000,A,2500.7806500,N,12132.4652200,E,0.03,210.55,260623,,,D,V*0A
$GPHDT,,T*1B
$GNGGA,094657.200,2500.7806500,N,12132.4652300,E,2,52,0.50,30.45,M,15.25,M,2,3335*73
$GNRMC,094657.200,A,2500.7806500,N,12132.4652300,E,0.01,210.55,260623,,,D,V*0B
$GPHDT,,T*1B
$GNGGA,094657.400,2500.7806400,N,12132.4652100,E,2,52,0.50,30.44,M,15.25,M,2,3335*77
$GNRMC,094657.400,A,2500.7806400,N,12132.4652100,E,0.02,210.55,260623,,,D,V*0D
$GPHDT,,T*1B
$GNGGA,094657.600,2500.7806300,N,12132.4652300,E,2,52,0.50,30.44,M,15.25,M,2,3335*70
$GNRMC,094657.600,A,2500.7806300,N,12132.4652300,E,0.03,210.55,260623,,,D,V*0B
$GPHDT,,T*1B
$GNGGA,094657.800,2500.7806200,N,12132.4652300,E,2,52,0.50,30.44,M,15.25,M,2,3335*7F
$GNRMC,094657.800,A,2500.7806200,N,12132.4652300,E,0.03,210.55,260623,,,D,V*04
$GPHDT,,T*1B
$GNGSA,A,3,196,15,199,195,24,05,13,18,29,20,23,194,0.97,0.50,0.83,1*0B
$GNGSA,A,3,11,,,,,,,,,,,,0.97,0.50,0.83,1*01
$GNGSA,A,3,84,85,69,79,80,,,,,,,,0.97,0.50,0.83,2*0A
$GNGSA,A,3,08,15,13,03,34,,,,,,,,0.97,0.50,0.83,3*09
$GNGSA,A,3,39,38,16,06,13,20,29,37,19,46,32,,0.97,0.50,0.83,4*00
$GPGSV,4,1,14,196,72,047,42,15,62,346,33,199,60,167,37,195,52,174,44,1*50
$GPGSV,4,2,14,24,50,178,41,05,42,069,37,13,41,031,40,18,39,319,18,1*67
$GPGSV,4,3,14,41,38,242,28,29,27,231,32,20,25,096,36,23,17,308,18,1*63
$GPGSV,4,4,14,194,17,149,27,11,16,145,30,1*56
$GPGSV,2,1,07,196,72,047,44,199,60,167,47,195,52,174,45,24,50,178,43,8*56
$GPGSV,2,2,07,18,39,319,28,194,17,149,28,11,16,145,23,8*62
$GLGSV,2,1,05,84,60,215,25,85,36,318,17,69,31,023,20,79,24,082,27,1*78
$GLGSV,2,2,05,80,19,138,25,1*40
$GAGSV,2,1,08,08,65,330,33,15,63,164,41,13,57,313,23,03,32,038,41,7*78
$GAGSV,2,2,08,07,31,256,29,34,13,150,23,02,08,121,,26,06,324,,7*7B
$GAGSV,2,1,06,08,65,330,40,15,63,164,45,13,57,313,27,03,32,038,39,1*7B
$GAGSV,2,2,06,07,31,256,25,34,13,150,19,1*79
$GBGSV,3,1,12,39,67,207,45,38,67,026,43,16,58,203,35,06,55,204,28,1*76
$GBGSV,3,2,12,13,51,342,25,20,51,004,32,29,47,253,43,37,33,091,38,1*7F
$GBGSV,3,3,12,19,32,297,18,46,27,157,34,32,19,062,39,35,18,311,,1*71
$GBGSV,2,1,07,39,67,207,45,38,67,026,44,20,51,004,34,29,47,253,42,4*79
$GBGSV,2,2,07,37,33,091,38,46,27,157,36,32,19,062,36,4*4A
$GNGGA,094658.000,2500.7806200,N,12132.4652400,E,2,52,0.50,30.43,M,15.25,M,3,3335*79
$GNRMC,094658.000,A,2500.7806200,N,12132.4652400,E,0.03,210.55,260623,,,D,V*04
$GPHDT,,T*1B
$GNGGA,094658.200,2500.7806100,N,12132.4652300,E,2,52,0.50,30.43,M,15.25,M,3,3335*7F
$GNRMC,094658.200,A,2500.7806100,N,12132.4652300,E,0.03,210.55,260623,,,D,V*02
$GPHDT,,T*1B
$GNGGA,094658.400,2500.7806100,N,12132.4652300,E,2,52,0.50,30.42,M,15.25,M,3,3335*78
$GNRMC,094658.400,A,2500.7806100,N,12132.4652300,E,0.03,210.55,260623,,,D,V*04
$GPHDT,,T*1B
$GNGGA,094658.600,2500.7806000,N,12132.4652400,E,2,52,0.50,30.41,M,15.25,M,3,3335*7F
$GNRMC,094658.600,A,2500.7806000,N,12132.4652400,E,0.03,210.55,260623,,,D,V*00
$GPHDT,,T*1B
$GNGGA,094658.800,2500.7806000,N,12132.4652300,E,2,52,0.50,30.40,M,15.25,M,3,3335*77
$GNRMC,094658.800,A,2500.7806000,N,12132.4652300,E,0.03,210.55,260623,,,D,V*09
$GPHDT,,T*1B
$GNGSA,A,3,196,15,199,195,24,05,13,18,29,20,23,194,0.97,0.50,0.83,1*0B
$GNGSA,A,3,11,,,,,,,,,,,,0.97,0.50,0.83,1*01
$GNGSA,A,3,84,85,69,79,80,,,,,,,,0.97,0.50,0.83,2*0A
$GNGSA,A,3,08,15,13,03,34,,,,,,,,0.97,0.50,0.83,3*09
$GNGSA,A,3,39,38,16,06,20,13,29,37,19,46,32,,0.97,0.50,0.83,4*00
$GPGSV,4,1,14,196,72,047,42,15,62,346,34,199,60,167,36,195,52,174,44,1*56
$GPGSV,4,2,14,24,50,178,41,05,42,069,36,13,41,031,40,18,39,319,18,1*66
$GPGSV,4,3,14,41,38,242,28,29,27,231,36,20,25,096,36,23,17,308,18,1*67
$GPGSV,4,4,14,194,17,149,28,11,16,145,28,1*50
$GPGSV,2,1,07,196,72,047,44,199,60,167,47,195,52,174,45,24,50,178,43,8*56
$GPGSV,2,2,07,18,39,319,28,194,17,149,28,11,16,145,24,8*65
$GLGSV,2,1,06,84,60,215,24,85,36,318,20,69,31,023,19,79,24,082,29,1*7A
$GLGSV,2,2,06,80,19,138,26,71,04,265,,1*73
$GAGSV,2,1,08,08,65,330,32,15,63,164,41,13,57,313,24,03,32,038,41,7*7E
$GAGSV,2,2,08,07,31,256,28,34,13,150,22,02,08,121,,26,06,324,,7*7B
$GAGSV,2,1,06,08,65,330,40,15,63,164,45,13,57,313,26,03,32,038,39,1*7A
$GAGSV,2,2,06,07,31,256,27,34,13,150,19,1*7B
$GBGSV,3,1,12,39,67,207,45,38,67,026,43,16,58,203,35,06,55,204,27,1*79
$GBGSV,3,2,12,20,51,004,33,13,51,342,24,29,47,253,43,37,33,091,38,1*7F
$GBGSV,3,3,12,19,32,297,18,46,27,157,36,32,19,063,39,35,18,311,,1*72
$GBGSV,2,1,07,39,67,207,45,38,67,026,44,20,51,004,34,29,47,253,42,4*79
$GBGSV,2,2,07,37,33,091,38,46,27,157,34,32,19,063,35,4*4A
$GNGGA,094659.000,2500.7805900,N,12132.4652300,E,2,52,0.50,30.38,M,15.25,M,4,3335*7C
$GNRMC,094659.000,A,2500.7805900,N,12132.4652300,E,0.02,210.55,260623,,,D,V*0B
$GPHDT,,T*1B
$GNGGA,094659.200,2500.7805900,N,12132.4652400,E,2,52,0.50,30.38,M,15.25,M,4,3335*79
$GNRMC,094659.200,A,2500.7805900,N,12132.4652400,E,0.02,210.55,260623,,,D,V*0E
$GPHDT,,T*1B
$GNGGA,094659.400,2500.7805900,N,12132.4652300,E,2,52,0.50,30.36,M,15.25,M,4,3335*76
$GNRMC,094659.400,A,2500.7805900,N,12132.4652300,E,0.02,210.55,260623,,,D,V*0F
$GPHDT,,T*1B
$GNGGA,094659.600,2500.7805900,N,12132.4652300,E,2,52,0.50,30.35,M,15.25,M,4,3335*77
$GNRMC,094659.600,A,2500.7805900,N,12132.4652300,E,0.02,210.55,260623,,,D,V*0D
$GPHDT,,T*1B
$GNGGA,094659.800,2500.7805800,N,12132.4652300,E,2,52,0.50,30.34,M,15.25,M,4,3335*79
$GNRMC,094659.800,A,2500.7805800,N,12132.4652300,E,0.02,210.55,260623,,,D,V*02
$GPHDT,,T*1B
$GNGSA,A,3,196,15,199,195,24,05,13,29,20,23,194,11,0.97,0.50,0.83,1*02
$GNGSA,A,3,18,,,,,,,,,,,,0.97,0.50,0.83,1*08
$GNGSA,A,3,84,85,69,79,80,,,,,,,,0.97,0.50,0.83,2*0A
$GNGSA,A,3,08,15,13,03,34,,,,,,,,0.97,0.50,0.83,3*09
$GNGSA,A,3,39,38,16,06,13,20,29,37,19,46,32,,0.97,0.50,0.83,4*00
$GPGSV,4,1,14,196,72,047,39,15,62,346,27,199,60,167,38,195,52,174,45,1*57
$GPGSV,4,2,14,24,50,178,42,05,42,069,37,13,41,031,42,18,39,319,18,1*66
$GPGSV,4,3,14,41,38,242,28,29,27,231,36,20,25,096,29,23,17,308,18,1*69
$GPGSV,4,4,14,194,17,149,28,11,16,145,28,1*50
$GPGSV,2,1,07,196,72,047,41,199,60,167,47,195,52,174,46,24,50,178,43,8*50
$GPGSV,2,2,07,18,39,319,28,194,17,149,27,11,16,145,23,8*6D
$GLGSV,2,1,06,84,60,215,29,85,36,318,21,69,31,023,24,79,24,082,34,1*74
$GLGSV,2,2,06,80,19,138,25,78,04,036,,1*7D
$GAGSV,3,1,09,08,65,330,33,15,63,164,43,13,57,313,21,03,32,038,41,7*78
$GAGSV,3,2,09,07,31,256,27,34,13,150,21,02,08,121,,26,06,324,,7*77
$GAGSV,3,3,09,25,02,075,,7*4D
$GAGSV,2,1,06,08,65,330,40,15,63,164,45,13,57,313,26,03,32,038,40,1*74
$GAGSV,2,2,06,07,31,256,26,34,13,150,19,1*7A
$GBGSV,3,1,12,39,67,207,43,38,67,026,43,16,58,203,37,06,55,204,31,1*7A
$GBGSV,3,2,12,13,51,342,25,20,51,004,30,29,47,253,44,37,33,091,33,1*71
$GBGSV,3,3,12,19,32,297,18,46,27,157,35,32,19,063,36,35,18,310,,1*7F
$GBGSV,2,1,07,39,67,207,45,38,67,026,42,20,51,004,37,29,47,253,42,4*7C
$GBGSV,2,2,07,37,33,091,37,46,27,157,36,32,19,063,35,4*47
$GNGGA,094700.000,2500.7805800,N,12132.4652400,E,2,51,0.50,30.32,M,15.25,M,5,3335*7F
$GNRMC,094700.000,A,2500.7805800,N,12132.4652400,E,0.02,210.55,260623,,,D,V*00
$GPHDT,,T*1B
$GNGGA,094700.200,2500.7805700,N,12132.4652400,E,2,51,0.50,30.33,M,15.25,M,5,3335*73
$GNRMC,094700.200,A,2500.7805700,N,12132.4652400,E,0.03,210.55,260623,,,D,V*0C
$GPHDT,,T*1B
$GNGGA,094700.400,2500.7805600,N,12132.4652600,E,2,51,0.50,30.33,M,15.25,M,5,3335*76
$GNRMC,094700.400,A,2500.7805600,N,12132.4652600,E,0.03,210.55,260623,,,D,V*09
$GPHDT,,T*1B
$GNGGA,094700.600,2500.7805600,N,12132.4652600,E,2,52,0.50,30.31,M,15.25,M,5,3335*75
$GNRMC,094700.600,A,2500.7805600,N,12132.4652600,E,0.03,210.55,260623,,,D,V*0B
$GPHDT,,T*1B
$GNGGA,094700.800,2500.7805600,N,12132.4652600,E,2,52,0.50,30.28,M,15.25,M,5,3335*73
$GNRMC,094700.800,A,2500.7805600,N,12132.4652600,E,0.03,210.55,260623,,,D,V*05
$GPHDT,,T*1B
$GNGSA,A,3,196,15,199,195,24,05,13,18,29,20,23,194,0.97,0.50,0.83,1*0B
$GNGSA,A,3,11,,,,,,,,,,,,0.97,0.50,0.83,1*01
$GNGSA,A,3,84,85,69,79,80,,,,,,,,0.97,0.50,0.83,2*0A
$GNGSA,A,3,08,15,13,03,34,,,,,,,,0.97,0.50,0.83,3*09
$GNGSA,A,3,39,38,16,06,20,13,29,37,19,32,,,0.97,0.50,0.83,4*02
$GPGSV,4,1,14,196,72,047,42,15,62,346,28,199,60,167,28,195,52,174,41,1*51
$GPGSV,4,2,14,24,50,178,39,05,42,069,45,13,41,031,42,18,39,319,20,1*64
$GPGSV,4,3,14,41,38,242,33,29,27,231,35,20,25,096,40,23,17,308,18,1*6F
$GPGSV,4,4,14,194,17,149,27,11,16,145,27,1*50
$GPGSV,2,1,07,196,72,047,44,199,60,167,37,195,52,174,38,24,50,178,42,8*5A
$GPGSV,2,2,07,18,39,319,25,194,17,149,28,11,16,145,28,8*64
$GLGSV,2,1,05,84,60,215,29,85,36,318,19,69,31,023,25,79,24,082,38,1*71
$GLGSV,2,2,05,80,19,138,26,1*43
$GAGSV,3,1,09,08,65,330,34,15,63,164,33,13,57,313,21,03,32,038,40,7*79
$GAGSV,3,2,09,07,31,256,26,34,13,150,23,02,08,121,,26,06,324,,7*74
$GAGSV,3,3,09,25,02,075,,7*4D
$GAGSV,2,1,06,08,65,330,40,15,63,164,39,13,57,313,27,03,32,038,39,1*70
$GAGSV,2,2,06,07,31,256,25,34,13,150,19,1*79
$GBGSV,3,1,12,39,68,207,43,38,67,026,42,16,58,203,37,06,55,204,31,1*74
$GBGSV,3,2,12,20,51,004,30,13,51,342,25,29,47,253,47,37,33,091,47,1*71
$GBGSV,3,3,12,19,32,297,21,46,27,157,24,32,19,063,40,35,18,310,,1*74
$GBGSV,2,1,07,39,68,207,44,38,67,026,43,20,51,004,35,29,47,253,43,4*70
$GBGSV,2,2,07,37,33,091,43,46,27,157,33,32,19,063,38,4*4C
$GNGGA,094701.000,2500.7805600,N,12132.4652600,E,2,51,0.50,30.28,M,15.25,M,6,3335*7A
$GNRMC,094701.000,A,2500.7805600,N,12132.4652600,E,0.03,210.55,260623,,,D,V*0C
$GPHDT,,T*1B
$GNGGA,094701.200,2500.7805600,N,12132.4652600,E,2,52,0.50,30.27,M,15.25,M,6,3335*74
$GNRMC,094701.200,A,2500.7805600,N,12132.4652600,E,0.03,210.55,260623,,,D,V*0E
$GPHDT,,T*1B
$GNGGA,094701.400,2500.7805600,N,12132.4652700,E,2,51,0.53,30.24,M,15.25,M,6,3335*70
$GNRMC,094701.400,A,2500.7805600,N,12132.4652700,E,0.03,210.55,260623,,,D,V*09
$GPHDT,,T*1B
$GNGGA,094701.600,2500.7805600,N,12132.4652700,E,2,51,0.53,30.22,M,15.25,M,6,3335*74
$GNRMC,094701.600,A,2500.7805600,N,12132.4652700,E,0.03,210.55,260623,,,D,V*0B
$GPHDT,,T*1B
$GNGGA,094701.800,2500.7805600,N,12132.4652700,E,2,51,0.53,30.21,M,15.25,M,6,3335*79
$GNRMC,094701.800,A,2500.7805600,N,12132.4652700,E,0.03,210.55,260623,,,D,V*05
$GPHDT,,T*1B
$GNGSA,A,3,196,15,199,195,24,05,13,18,29,20,194,11,1.07,0.53,0.93,1*00
$GNGSA,A,3,84,85,69,79,80,,,,,,,,1.07,0.53,0.93,2*00
$GNGSA,A,3,08,15,13,03,34,,,,,,,,1.07,0.53,0.93,3*03
$GNGSA,A,3,39,38,16,06,20,13,29,37,19,46,32,,1.07,0.53,0.93,4*0A
$GPGSV,4,1,14,196,72,047,41,15,62,346,31,199,60,167,29,195,52,174,34,1*59
$GPGSV,4,2,14,24,50,178,35,05,42,069,45,13,41,031,41,18,39,319,24,1*6F
$GPGSV,4,3,14,41,38,242,34,29,27,231,38,20,25,096,40,23,17,308,19,1*64
$GPGSV,4,4,14,194,17,149,29,11,16,145,26,1*5F
$GPGSV,2,1,07,196,72,047,44,199,60,167,38,195,52,174,37,24,50,178,36,8*59
$GPGSV,2,2,07,18,39,319,24,194,17,149,25,11,16,145,26,8*66
$GLGSV,2,1,05,84,60,215,25,85,36,318,17,69,31,023,24,79,24,082,40,1*7D
$GLGSV,2,2,05,80,19,138,23,1*46
$GAGSV,3,1,09,08,65,330,34,15,63,164,35,13,57,313,21,03,32,038,39,7*71
$GAGSV,3,2,09,07,31,256,26,34,13,150,23,02,08,121,,26,06,324,,7*74
$GAGSV,3,3,09,25,02,075,,7*4D
$GAGSV,2,1,06,08,65,330,39,15,63,164,37,13,57,313,26,03,32,038,39,1*71
$GAGSV,2,2,06,07,31,256,23,34,13,150,20,1*75
$GBGSV,3,1,12,39,68,207,40,38,67,026,41,16,58,203,24,06,55,204,24,1*72
$GBGSV,3,2,12,20,51,004,30,13,51,342,26,29,47,253,47,37,33,091,47,1*72
$GBGSV,3,3,12,19,32,297,23,46,27,157,34,32,19,063,40,35,18,310,,1*77
$GBGSV,2,1,07,39,68,207,41,38,67,026,43,20,51,004,36,29,47,253,43,4*76
$GBGSV,2,2,07,37,33,091,44,46,27,157,33,32,19,063,38,4*4B
$GNGGA,094702.000,2500.7805600,N,12132.4652800,E,2,51,0.53,30.20,M,15.25,M,7,3335*7D
$GNRMC,094702.000,A,2500.7805600,N,12132.4652800,E,0.03,210.55,260623,,,D,V*01
$GPHDT,,T*1B
$GNGGA,094702.200,2500.7805600,N,12132.4652800,E,2,55,0.47,30.19,M,15.25,M,7,3335*74
$GNRMC,094702.200,A,2500.7805600,N,12132.4652800,E,0.03,210.55,260623,,,D,V*03
$GPHDT,,T*1B
$GNGGA,094702.400,2500.7805700,N,12132.4652800,E,2,55,0.47,30.18,M,15.25,M,5,3335*70
$GNRMC,094702.400,A,2500.7805700,N,12132.4652800,E,0.02,210.55,260623,,,D,V*05
$GPHDT,,T*1B
$GNGGA,094702.600,2500.7805700,N,12132.4652800,E,2,55,0.47,30.15,M,15.25,M,5,3335*7F
$GNRMC,094702.600,A,2500.7805700,N,12132.4652800,E,0.02,210.55,260623,,,D,V*07
$GPHDT,,T*1B
$GNGGA,094702.800,2500.7805800,N,12132.4652800,E,2,55,0.47,30.13,M,15.25,M,3,3335*7E
$GNRMC,094702.800,A,2500.7805800,N,12132.4652800,E,0.02,210.55,260623,,,D,V*06
$GPHDT,,T*1B
$GNGSA,A,3,196,15,199,195,24,05,13,18,29,20,23,194,0.94,0.47,0.81,1*0C
$GNGSA,A,3,11,,,,,,,,,,,,0.94,0.47,0.81,1*06
$GNGSA,A,3,84,85,69,79,80,,,,,,,,0.94,0.47,0.81,2*0D
$GNGSA,A,3,08,15,13,03,07,34,,,,,,,0.94,0.47,0.81,3*09
$GNGSA,A,3,39,38,16,06,13,20,29,37,19,46,32,,0.94,0.47,0.81,4*07
$GPGSV,4,1,14,196,72,047,41,15,62,346,31,199,60,167,34,195,52,174,39,1*58
$GPGSV,4,2,14,24,50,178,36,05,42,069,44,13,41,031,39,18,39,319,24,1*62
$GPGSV,4,3,14,41,38,242,35,29,27,231,33,20,25,096,40,23,17,308,18,1*6F
$GPGSV,4,4,14,194,17,149,30,11,16,145,28,1*59
$GPGSV,2,1,07,196,72,047,46,199,60,167,42,195,52,174,39,24,50,178,37,8*59
$GPGSV,2,2,07,18,39,319,26,194,17,149,26,11,16,145,26,8*67
$GLGSV,2,1,05,84,60,215,21,85,36,318,16,69,31,023,24,79,24,082,40,1*78
$GLGSV,2,2,05,80,19,138,24,1*41
$GAGSV,2,1,08,08,65,330,32,15,63,164,39,13,57,313,20,03,32,038,39,7*7A
$GAGSV,2,2,08,07,31,256,26,34,13,150,23,26,06,324,,25,02,075,,7*7B
$GAGSV,2,1,06,08,65,330,41,15,63,164,42,13,57,313,26,03,32,038,40,1*72
$GAGSV,2,2,06,07,31,256,25,34,13,150,20,1*73
$GBGSV,3,1,12,39,68,207,41,38,67,026,41,16,58,203,25,06,55,204,28,1*7E
$GBGSV,3,2,12,13,51,342,26,20,51,004,27,29,47,253,47,37,33,091,47,1*74
$GBGSV,3,3,12,19,32,297,23,46,27,157,35,32,19,063,40,35,18,310,,1*76
$GBGSV,2,1,07,39,68,207,43,38,67,026,44,20,51,004,36,29,47,253,44,4*74
$GBGSV,2,2,07,37,33,091,45,46,27,157,37,32,19,063,39,4*4F
$GNGGA,094703.000,2500.7805800,N,12132.4652800,E,2,55,0.47,30.12,M,15.25,M,1,3335*74
$GNRMC,094703.000,A,2500.7805800,N,12132.4652800,E,0.02,210.55,260623,,,D,V*0F
$GPHDT,,T*1B
$GNGGA,094703.200,2500.7805900,N,12132.4652800,E,2,55,0.47,30.11,M,15.25,M,1,3335*74
$GNRMC,094703.200,A,2500.7805900,N,12132.4652800,E,0.02,210.55,260623,,,D,V*0C
$GPHDT,,T*1B
$GNGGA,094703.400,2500.7805900,N,12132.4652900,E,2,55,0.47,30.09,M,15.25,M,1,3335*7A
$GNRMC,094703.400,A,2500.7805900,N,12132.4652900,E,0.02,210.55,260623,,,D,V*0B
$GPHDT,,T*1B
$GNGGA,094703.600,2500.7806000,N,12132.4652900,E,2,55,0.47,30.07,M,15.25,M,1,3335*7C
$GNRMC,094703.600,A,2500.7806000,N,12132.4652900,E,0.01,210.55,260623,,,D,V*00
$GPHDT,,T*1B
$GNGGA,094703.800,2500.7806000,N,12132.4652900,E,2,55,0.47,30.05,M,15.25,M,0,3335*71
$GNRMC,094703.800,A,2500.7806000,N,12132.4652900,E,0.01,210.55,260623,,,D,V*0E
$GPHDT,,T*1B
$GNGSA,A,3,196,15,199,195,24,05,13,18,29,20,194,11,1.02,0.50,0.89,1*0D
$GNGSA,A,3,84,85,69,79,80,,,,,,,,1.02,0.50,0.89,2*0D
$GNGSA,A,3,08,15,13,03,07,34,,,,,,,1.02,0.50,0.89,3*09
$GNGSA,A,3,39,38,16,06,13,20,29,37,19,46,32,,1.02,0.50,0.89,4*07
$GPGSV,4,1,14,196,72,047,41,15,62,346,33,199,60,167,35,195,52,174,40,1*55
$GPGSV,4,2,14,24,50,178,36,05,42,069,44,13,41,031,39,18,39,319,25,1*63
$GPGSV,4,3,14,41,38,242,35,29,27,231,33,20,25,096,40,23,17,308,19,1*6E
$GPGSV,4,4,14,194,17,149,30,11,16,145,27,1*56
$GPGSV,2,1,07,196,72,047,46,199,60,167,43,195,52,174,39,24,50,178,38,8*57
$GPGSV,2,2,07,18,39,319,26,194,17,149,27,11,16,145,26,8*66
$GLGSV,2,1,05,84,60,215,22,85,36,318,17,69,31,023,24,79,24,082,40,1*7A
$GLGSV,2,2,05,80,19,138,26,1*43
$GAGSV,2,1,08,08,65,330,32,15,63,164,40,13,57,313,20,03,32,038,39,7*74
$GAGSV,2,2,08,07,31,256,26,34,13,150,23,25,02,075,,30,02,168,,7*72
$GAGSV,2,1,06,08,65,330,41,15,63,164,42,13,57,313,26,03,32,038,40,1*72
$GAGSV,2,2,06,07,31,256,25,34,13,150,19,1*79
$GBGSV,3,1,12,39,68,207,41,38,67,026,41,16,58,203,26,06,55,204,28,1*7D
$GBGSV,3,2,12,13,51,342,26,20,51,004,26,29,47,253,47,37,33,091,47,1*75
$GBGSV,3,3,12,19,32,297,23,46,27,157,35,32,19,063,40,35,18,310,,1*76
$GBGSV,2,1,07,39,68,207,43,38,67,026,44,20,51,004,36,29,47,253,44,4*74
$GBGSV,2,2,07,37,33,091,45,46,27,157,37,32,19,063,39,4*4F
$GNGGA,094704.000,2500.7806100,N,12132.4652900,E,2,54,0.50,30.04,M,15.25,M,1,3335*78
$GNRMC,094704.000,A,2500.7806100,N,12132.4652900,E,0.02,210.55,260623,,,D,V*03
$GPHDT,,T*1B
$GNGGA,094704.200,2500.7806100,N,12132.4652900,E,2,54,0.50,30.02,M,15.25,M,1,3335*7C
$GNRMC,094704.200,A,2500.7806100,N,12132.4652900,E,0.02,210.55,260623,,,D,V*01
$GPHDT,,T*1B
$GNGGA,094704.400,2500.7806100,N,12132.4652900,E,2,54,0.50,30.01,M,15.25,M,1,3335*79
$GNRMC,094704.400,A,2500.7806100,N,12132.4652900,E,0.01,210.55,260623,,,D,V*04
$GPHDT,,T*1B
$GNGGA,094704.600,2500.7806100,N,12132.4652900,E,2,54,0.50,29.99,M,15.25,M,1,3335*72
$GNRMC,094704.600,A,2500.7806100,N,12132.4652900,E,0.02,210.55,260623,,,D,V*05
$GPHDT,,T*1B
$GNGGA,094704.800,2500.7806100,N,12132.4652900,E,2,54,0.50,29.96,M,15.25,M,1,3335*73
$GNRMC,094704.800,A,2500.7806100,N,12132.4652900,E,0.01,210.55,260623,,,D,V*08
$GPHDT,,T*1B
$GNGSA,A,3,196,15,199,195,24,05,13,18,29,20,194,11,1.02,0.50,0.89,1*0D
$GNGSA,A,3,84,85,69,79,80,,,,,,,,1.02,0.50,0.89,2*0D
$GNGSA,A,3,08,15,13,03,07,34,,,,,,,1.02,0.50,0.89,3*09
$GNGSA,A,3,39,38,16,06,13,20,29,37,19,46,32,,1.02,0.50,0.89,4*07
$GPGSV,4,1,14,196,72,047,41,15,62,346,33,199,60,167,36,195,52,174,42,1*54
$GPGSV,4,2,14,24,50,178,36,05,42,069,44,13,41,031,40,18,39,319,25,1*6D
$GPGSV,4,3,14,41,38,242,34,29,27,231,33,20,25,096,40,23,17,308,20,1*65
$GPGSV,4,4,14,194,17,149,30,11,16,145,27,1*56
$GPGSV,2,1,07,196,72,047,46,199,60,167,43,195,52,174,40,24,50,178,38,8*59
$GPGSV,2,2,07,18,39,319,25,194,17,149,26,11,16,145,25,8*67
$GLGSV,2,1,05,84,60,215,22,85,36,318,17,69,31,023,24,79,24,082,40,1*7A
$GLGSV,2,2,05,80,19,138,26,1*43
$GAGSV,2,1,08,08,65,330,32,15,63,164,41,13,57,313,20,03,32,038,39,7*75
$GAGSV,2,2,08,07,31,256,25,34,13,150,23,25,02,075,,30,02,168,,7*71
$GAGSV,2,1,06,08,65,330,41,15,63,164,43,13,57,313,26,03,32,038,40,1*73
$GAGSV,2,2,06,07,31,256,25,34,13,150,19,1*79
$GBGSV,4,1,13,39,68,207,41,38,67,026,41,16,58,203,26,06,55,204,29,1*7A
$GBGSV,4,2,13,13,51,342,26,20,51,004,26,29,47,253,47,37,33,091,47,1*73
$GBGSV,4,3,13,19,32,297,20,46,27,157,35,32,19,063,40,35,18,310,,1*73
$GBGSV,4,4,13,40,05,194,,1*49
$GBGSV,2,1,08,39,68,207,43,38,67,026,44,20,51,004,36,29,47,253,44,4*7B
$GBGSV,2,2,08,37,33,091,45,19,32,297,17,46,27,157,37,32,19,063,39,4*73
$GNGGA,094705.000,2500.7806200,N,12132.4652900,E,2,55,0.50,29.95,M,15.25,M,2,3335*78
$GNRMC,094705.000,A,2500.7806200,N,12132.4652900,E,0.02,210.55,260623,,,D,V*01
$GPHDT,,T*1B
$GNGGA,094705.200,2500.7806200,N,12132.4652900,E,2,55,0.50,29.93,M,15.25,M,2,3335*7C
$GNRMC,094705.200,A,2500.7806200,N,12132.4652900,E,0.02,210.55,260623,,,D,V*03
$GPHDT,,T*1B
$GNGGA,094705.400,2500.7806200,N,12132.4652900,E,2,55,0.50,29.91,M,15.25,M,2,3335*78
$GNRMC,094705.400,A,2500.7806200,N,12132.4652900,E,0.02,210.55,260623,,,D,V*05
$GPHDT,,T*1B
$GNGGA,094705.600,2500.7806200,N,12132.4652900,E,2,55,0.50,29.89,M,15.25,M,2,3335*73
$GNRMC,094705.600,A,2500.7806200,N,12132.4652900,E,0.02,210.55,260623,,,D,V*07
$GPHDT,,T*1B
$GNGGA,094705.800,2500.7806200,N,12132.4652900,E,2,55,0.50,29.87,M,15.25,M,2,3335*73
$GNRMC,094705.800,A,2500.7806200,N,12132.4652900,E,0.02,210.55,260623,,,D,V*09
$GPHDT,,T*1B
$GNGSA,A,3,196,15,199,195,24,05,13,18,29,20,194,11,1.02,0.50,0.89,1*0D
$GNGSA,A,3,84,85,69,79,80,,,,,,,,1.02,0.50,0.89,2*0D
$GNGSA,A,3,08,15,13,03,07,34,,,,,,,1.02,0.50,0.89,3*09
$GNGSA,A,3,39,38,16,06,13,20,29,37,19,46,32,,1.02,0.50,0.89,4*07
$GPGSV,4,1,14,196,72,047,41,15,62,346,33,199,60,167,36,195,52,174,42,1*54
$GPGSV,4,2,14,24,50,178,37,05,42,070,44,13,41,031,41,18,39,319,25,1*65
$GPGSV,4,3,14,41,38,242,34,29,27,231,35,20,25,096,40,23,17,308,22,1*61
$GPGSV,4,4,14,194,17,149,29,11,16,145,28,1*51
$GPGSV,2,1,07,196,72,047,46,199,60,167,43,195,52,174,40,24,50,178,38,8*59
$GPGSV,2,2,07,18,39,319,26,194,17,149,26,11,16,145,25,8*64
$GLGSV,2,1,05,84,60,215,23,85,36,318,17,69,31,023,23,79,24,082,40,1*7C
$GLGSV,2,2,05,80,19,138,24,1*41
$GAGSV,2,1,08,08,65,330,32,15,63,164,41,13,57,313,20,03,32,038,39,7*75
$GAGSV,2,2,08,07,31,256,25,34,13,150,23,25,02,075,,30,02,168,,7*71
$GAGSV,2,1,06,08,65,330,41,15,63,164,43,13,57,313,27,03,32,038,40,1*72
$GAGSV,2,2,06,07,31,256,25,34,13,150,19,1*79
$GBGSV,3,1,12,39,68,207,41,38,67,026,41,16,58,203,27,06,55,204,29,1*7D
$GBGSV,3,2,12,13,51,342,26,20,51,004,25,29,47,253,47,37,33,091,47,1*76
$GBGSV,3,3,12,19,32,297,20,46,27,157,35,32,19,063,40,35,18,310,,1*75
$GBGSV,2,1,08,39,68,207,43,38,67,026,43,20,51,004,36,29,47,253,44,4*7C
$GBGSV,2,2,08,37,33,091,45,19,32,297,18,46,27,157,37,32,19,063,39,4*7C
$GNGGA,094706.000,2500.7806200,N,12132.4652900,E,2,55,0.50,29.85,M,15.25,M,3,3335*7B
$GNRMC,094706.000,A,2500.7806200,N,12132.4652900,E,0.02,210.55,260623,,,D,V*02
$GPHDT,,T*1B
$GNGGA,094706.200,2500.7806300,N,12132.4652900,E,2,55,0.50,29.84,M,15.25,M,3,3335*79
$GNRMC,094706.200,A,2500.7806300,N,12132.4652900,E,0.02,210.55,260623,,,D,V*01
$GPHDT,,T*1B
$GNGGA,094706.400,2500.7806200,N,12132.4652900,E,2,56,0.47,29.81,M,15.25,M,3,3335*7E
$GNRMC,094706.400,A,2500.7806200,N,12132.4652900,E,0.02,210.55,260623,,,D,V*06
$GPHDT,,T*1B
$GNGGA,094706.600,2500.7806300,N,12132.4652900,E,2,56,0.47,29.80,M,15.25,M,3,3335*7C
$GNRMC,094706.600,A,2500.7806300,N,12132.4652900,E,0.02,210.55,260623,,,D,V*05
$GPHDT,,T*1B
$GNGGA,094706.800,2500.7806200,N,12132.4652900,E,2,56,0.47,29.77,M,15.25,M,3,3335*7B
$GNRMC,094706.800,A,2500.7806200,N,12132.4652900,E,0.02,210.55,260623,,,D,V*0A
$GPHDT,,T*1B
$GNGSA,A,3,196,15,199,195,24,05,13,18,29,20,23,194,0.94,0.47,0.81,1*0C
$GNGSA,A,3,11,,,,,,,,,,,,0.94,0.47,0.81,1*06
$GNGSA,A,3,84,85,69,79,80,,,,,,,,0.94,0.47,0.81,2*0D
$GNGSA,A,3,08,15,13,03,07,34,,,,,,,0.94,0.47,0.81,3*09
$GNGSA,A,3,39,38,16,06,13,20,29,37,19,46,32,,0.94,0.47,0.81,4*07
$GPGSV,4,1,14,196,72,047,41,15,62,346,33,199,60,167,36,195,52,174,42,1*54
$GPGSV,4,2,14,24,50,178,38,05,42,070,44,13,41,031,39,18,39,319,25,1*65
$GPGSV,4,3,14,41,38,242,34,29,27,231,31,20,25,096,40,23,17,308,22,1*65
$GPGSV,4,4,14,194,17,149,29,11,16,145,29,1*50
$GPGSV,2,1,07,196,72,047,46,199,60,167,43,195,52,174,40,24,50,178,38,8*59
$GPGSV,2,2,07,18,39,319,26,194,17,149,26,11,16,145,25,8*64
$GLGSV,2,1,05,84,60,215,21,85,36,318,18,69,31,023,22,79,24,082,40,1*70
$GLGSV,2