$FW : RTK35X,V1.1X0314AS,Lib20210517,1*54
$Tool : LOCOSYS , GNSS Firebird , v1.0.0.19*39
$---------------------------------------------------*2D
$GNGGA,094926.800,2500.7785995,N,12132.4629226,E,2,54,0.47,17.305,M,15.25,M,0,3335*4D
$GNRMC,094926.800,A,2500.7785995,N,12132.4629226,E,0.02,210.55,260623,,,D,V*06
$GPHDT,,T*1B
$GNGSA,A,3,196,15,199,195,24,05,13,18,29,20,23,194,0.93,0.48,0.80,1*05
$GNGSA,A,3,84,85,69,79,80,,,,,,,,0.93,0.48,0.80,2*04
$GNGSA,A,3,08,15,13,07,03,34,,,,,,,0.93,0.48,0.80,3*00
$GNGSA,A,3,38,39,16,06,13,20,29,37,46,32,35,,0.93,0.48,0.80,4*00
$GPGSV,4,1,14,196,72,047,40,15,61,348,35,199,60,167,36,195,52,174,44,1*58
$GPGSV,4,2,14,24,51,178,44,05,41,071,42,13,40,031,28,18,40,318,23,1*63
$GPGSV,4,3,14,41,38,242,34,29,26,230,46,20,24,097,33,23,18,309,26,1*6B
$GPGSV,4,4,14,194,17,149,24,11,15,146,24,1*50
$GPGSV,2,1,07,196,72,047,42,199,60,167,46,195,52,174,46,24,51,178,46,8*56
$GPGSV,2,2,07,18,40,318,14,23,18,309,22,194,17,149,23,8*6D
$GLGSV,2,1,05,84,59,214,34,85,37,317,24,69,31,024,27,79,24,081,30,1*78
$GLGSV,2,2,05,80,20,137,25,1*45
$GAGSV,2,1,06,08,64,332,38,15,62,165,42,13,58,312,27,07,32,257,30,7*7E
$GAGSV,2,2,06,03,31,039,35,34,12,150,,7*78
$GAGSV,2,1,06,08,64,332,38,15,62,165,44,13,58,312,28,07,32,257,34,1*75
$GAGSV,2,2,06,03,31,039,35,34,12,150,14,1*7B
$GBGSV,3,1,12,38,68,026,39,39,68,208,44,16,58,204,40,06,56,205,35,1*7E
$GBGSV,3,2,12,13,52,343,30,20,51,006,23,29,47,251,47,37,33,090,40,1*73
$GBGSV,3,3,12,19,33,298,,46,28,156,36,32,19,063,34,35,18,310,,1*77
$GBGSV,2,1,08,38,68,026,40,39,68,208,44,20,51,006,31,29,47,251,44,4*7F
$GBGSV,2,2,08,37,33,090,41,46,28,156,33,32,19,063,40,35,18,310,20,4*7E
$GNGGA,094927.000,2500.7785935,N,12132.4629226,E,2,53,0.48,17.301,M,15.25,M,1,3335*43
$GNRMC,094927.000,A,2500.7785935,N,12132.4629226,E,0.03,210.55,260623,,,D,V*04
$GPHDT,,T*1B
$GNGGA,094927.200,2500.7785935,N,12132.4629226,E,2,54,0.47,17.303,M,15.25,M,1,3335*4B
$GNRMC,094927.200,A,2500.7785935,N,12132.4629226,E,0.03,210.55,260623,,,D,V*06
$GPHDT,,T*1B
$GNGGA,094927.400,2500.7785935,N,12132.4629226,E,2,53,0.48,17.296,M,15.25,M,1,3335*48
$GNRMC,094927.400,A,2500.7785935,N,12132.4629226,E,0.02,210.55,260623,,,D,V*01
$GPHDT,,T*1B
$GNGGA,094927.600,2500.7785935,N,12132.4629226,E,2,52,0.49,17.294,M,15.25,M,1,3335*48
$GNRMC,094927.600,A,2500.7785935,N,12132.4629226,E,0.02,210.55,260623,,,D,V*03
$GPHDT,,T*1B
$GNGGA,094927.800,2500.7785935,N,12132.4629226,E,2,52,0.49,17.279,M,15.25,M,1,3335*45
$GNRMC,094927.800,A,2500.7785935,N,12132.4629226,E,0.02,210.55,260623,,,D,V*0D
$GPHDT,,T*1B
$GNGSA,A,3,196,15,199,195,24,05,13,18,29,23,194,11,0.95,0.49,0.81,1*01
$GNGSA,A,3,84,85,69,79,80,,,,,,,,0.95,0.49,0.81,2*02
$GNGSA,A,3,08,15,13,07,03,,,,,,,,0.95,0.49,0.81,3*01
$GNGSA,A,3,38,39,16,06,13,20,29,37,46,32,35,,0.95,0.49,0.81,4*06
$GPGSV,4,1,14,196,72,047,40,15,61,348,35,199,60,167,36,195,52,174,44,1*58
$GPGSV,4,2,14,24,51,178,44,05,41,071,44,13,40,031,28,18,40,318,22,1*64
$GPGSV,4,3,14,41,38,242,34,29,26,230,46,20,24,097,,23,18,309,26,1*6B
$GPGSV,4,4,14,194,17,149,23,11,15,146,24,1*57
$GPGSV,2,1,08,196,72,047,43,199,60,167,46,195,52,174,46,24,51,178,46,8*58
$GPGSV,2,2,08,18,40,318,14,23,18,309,21,194,17,149,23,11,15,146,17,8*50
$GLGSV,2,1,05,84,59,214,34,85,37,317,24,69,31,024,26,79,24,081,33,1*7A
$GLGSV,2,2,05,80,20,137,26,1*46
$GAGSV,2,1,06,08,64,332,38,15,62,165,42,13,58,312,26,07,32,257,29,7*77
$GAGSV,2,2,06,03,31,039,35,34,12,150,,7*78
$GAGSV,2,1,05,08,64,332,38,15,62,165,44,13,58,312,28,07,32,257,34,1*76
$GAGSV,2,2,05,03,31,039,36,1*4E
$GBGSV,3,1,12,38,68,026,39,39,68,208,44,16,58,204,40,06,56,205,35,1*7E
$GBGSV,3,2,12,13,52,343,30,20,51,006,20,29,47,251,47,37,33,090,40,1*70
$GBGSV,3,3,12,19,33,298,,46,28,156,35,32,19,063,34,35,18,310,,1*74
$GBGSV,2,1,08,38,68,026,40,39,68,208,44,20,51,006,29,29,47,251,44,4*76
$GBGSV,2,2,08,37,33,090,41,46,28,156,32,32,19,063,39,35,18,310,20,4*71
$GNGGA,094928.000,2500.7785935,N,12132.4629226,E,2,52,0.49,17.273,M,15.25,M,2,3335*4B
$GNRMC,094928.000,A,2500.7785935,N,12132.4629226,E,0.02,210.55,260623,,,D,V*0A
$GPHDT,,T*1B
$GNGGA,094928.200,2500.7785935,N,12132.4629226,E,2,52,0.49,17.262,M,15.25,M,2,3335*49
$GNRMC,094928.200,A,2500.7785935,N,12132.4629226,E,0.02,210.55,260623,,,D,V*08
$GPHDT,,T*1B
$GNGGA,094928.400,2500.7785995,N,12132.4629226,E,2,52,0.49,17.254,M,15.25,M,2,3335*40
$GNRMC,094928.400,A,2500.7785995,N,12132.4629226,E,0.02,210.55,260623,,,D,V*04
$GPHDT,,T*1B
$GNGGA,094928.600,2500.7785995,N,12132.4629166,E,2,54,0.48,17.235,M,15.25,M,2,3335*45
$GNRMC,094928.600,A,2500.7785995,N,12132.4629166,E,0.02,210.55,260623,,,D,V*01
$GPHDT,,T*1B
$GNGGA,094928.800,2500.7785995,N,12132.4629166,E,2,54,0.48,17.214,M,15.25,M,2,3335*48
$GNRMC,094928.800,A,2500.7785995,N,12132.4629166,E,0.01,210.55,260623,,,D,V*0C
$GPHDT,,T*1B
$GNGSA,A,3,196,15,199,195,24,05,13,18,29,20,23,194,0.94,0.48,0.81,1*03
$GNGSA,A,3,11,,,,,,,,,,,,0.94,0.48,0.81,1*09
$GNGSA,A,3,84,85,69,79,80,,,,,,,,0.94,0.48,0.81,2*02
$GNGSA,A,3,08,15,13,07,03,,,,,,,,0.94,0.48,0.81,3*01
$GNGSA,A,3,38,39,16,06,13,20,29,37,46,32,35,,0.94,0.48,0.81,4*06
$GPGSV,4,1,14,196,72,047,38,15,61,348,36,199,60,167,36,195,52,174,44,1*54
$GPGSV,4,2,14,24,51,178,44,05,41,071,45,13,40,031,29,18,40,318,22,1*64
$GPGSV,4,3,14,41,38,242,34,29,26,230,46,20,24,097,32,23,18,309,25,1*69
$GPGSV,4,4,14,194,17,149,23,11,15,146,23,1*50
$GPGSV,2,1,08,196,72,047,43,199,60,167,47,195,52,174,46,24,51,178,44,8*5B
$GPGSV,2,2,08,18,40,318,13,23,18,309,21,194,17,149,21,11,15,146,18,8*5A
$GLGSV,2,1,05,84,59,214,34,85,37,317,24,69,31,024,22,79,24,081,37,1*7A
$GLGSV,2,2,05,80,20,137,26,1*46
$GAGSV,2,1,06,08,64,332,38,15,62,165,42,13,58,312,24,07,32,257,30,7*7D
$GAGSV,2,2,06,03,31,039,35,34,12,150,,7*78
$GAGSV,2,1,05,08,64,332,38,15,62,165,44,13,58,312,28,07,32,257,34,1*76
$GAGSV,2,2,05,03,31,039,37,1*4F
$GBGSV,3,1,12,38,68,026,37,39,68,208,44,16,58,204,40,06,56,205,34,1*71
$GBGSV,3,2,12,13,52,343,30,20,51,006,26,29,47,251,47,37,33,090,40,1*76
$GBGSV,3,3,12,19,33,298,,46,28,156,36,32,19,063,38,35,18,310,,1*7B
$GBGSV,2,1,08,38,68,026,40,39,68,208,45,20,51,006,33,29,47,251,44,4*7C
$GBGSV,2,2,08,37,33,090,43,46,28,156,32,32,19,063,37,35,18,310,19,4*77
$GNGGA,094929.000,2500.7785995,N,12132.4629226,E,2,54,0.48,17.204,M,15.25,M,3,3335*46
$GNRMC,094929.000,A,2500.7785995,N,12132.4629226,E,0.01,210.55,260623,,,D,V*02
$GPHDT,,T*1B
$GNGGA,094929.200,2500.7785995,N,12132.4629166,E,2,54,0.48,17.190,M,15.25,M,3,3335*4D
$GNRMC,094929.200,A,2500.7785995,N,12132.4629166,E,0.01,210.55,260623,,,D,V*07
$GPHDT,,T*1B
$GNGGA,094929.400,2500.7785995,N,12132.4629166,E,2,54,0.48,17.183,M,15.25,M,3,3335*49
$GNRMC,094929.400,A,2500.7785995,N,12132.4629166,E,0.01,210.55,260623,,,D,V*01
$GPHDT,,T*1B
$GNGGA,094929.600,2500.7785995,N,12132.4629166,E,2,53,0.48,17.150,M,15.25,M,3,3335*42
$GNRMC,094929.600,A,2500.7785995,N,12132.4629166,E,0.01,210.55,260623,,,D,V*03
$GPHDT,,T*1B
$GNGGA,094929.800,2500.7785935,N,12132.4629166,E,2,53,0.48,17.138,M,15.25,M,3,3335*48
$GNRMC,094929.800,A,2500.7785935,N,12132.4629166,E,0.01,210.55,260623,,,D,V*07
$GPHDT,,T*1B
$GNGSA,A,3,196,15,199,195,24,05,13,18,29,20,23,194,0.94,0.48,0.81,1*03
$GNGSA,A,3,11,,,,,,,,,,,,0.94,0.48,0.81,1*09
$GNGSA,A,3,84,85,69,79,80,,,,,,,,0.94,0.48,0.81,2*02
$GNGSA,A,3,08,15,13,07,03,,,,,,,,0.94,0.48,0.81,3*01
$GNGSA,A,3,38,39,16,06,13,20,29,37,46,32,35,,0.94,0.48,0.81,4*06
$GPGSV,4,1,14,196,72,047,41,15,61,348,35,199,60,167,36,195,52,174,44,1*59
$GPGSV,4,2,14,24,51,178,44,05,41,071,44,13,40,031,33,18,40,318,23,1*6F
$GPGSV,4,3,14,41,38,242,34,29,26,230,46,20,24,097,32,23,18,309,23,1*6F
$GPGSV,4,4,14,194,17,149,22,11,15,146,26,1*54
$GPGSV,2,1,08,196,72,047,44,199,60,167,47,195,52,174,46,24,51,178,44,8*5C
$GPGSV,2,2,08,18,40,318,15,23,18,309,21,194,17,149,21,11,15,146,18,8*5C
$GLGSV,2,1,05,84,59,214,34,85,37,317,24,69,31,024,21,79,24,081,38,1*76
$GLGSV,2,2,05,80,20,137,28,1*48
$GAGSV,2,1,06,08,64,332,37,15,62,165,42,13,58,312,25,07,32,257,31,7*72
$GAGSV,2,2,06,03,31,039,33,34,12,150,,7*7E
$GAGSV,2,1,05,08,64,332,37,15,62,165,44,13,58,312,26,07,32,257,34,1*77
$GAGSV,2,2,05,03,31,039,34,1*4C
$GBGSV,3,1,12,38,68,026,42,39,68,208,44,16,58,204,40,06,56,205,34,1*73
$GBGSV,3,2,12,13,52,343,30,20,51,006,30,29,47,251,47,37,33,090,43,1*72
$GBGSV,3,3,12,19,33,298,,46,28,156,35,32,19,063,29,35,18,310,,1*78
$GBGSV,2,1,08,38,68,026,41,39,68,208,45,20,51,006,37,29,47,251,44,4*79
$GBGSV,2,2,08,37,33,090,42,46,28,156,30,32,19,063,34,35,18,310,19,4*77
$GNGGA,094930.000,2500.7785815,N,12132.4629166,E,2,53,0.48,17.105,M,15.25,M,4,3335*42
$GNRMC,094930.000,A,2500.7785815,N,12132.4629166,E,0.01,210.55,260623,,,D,V*04
$PAIR010,0,1,2268,121788*31
$GPHDT,,T*1B
$GNGGA,094930.200,2500.7785875,N,12132.4629106,E,2,52,0.49,17.107,M,15.25,M,4,3335*42
$GNRMC,094930.200,A,2500.7785875,N,12132.4629106,E,0.01,210.55,260623,,,D,V*06
$GPHDT,,T*1B
$GNGGA,094930.400,2500.7785815,N,12132.4629106,E,2,53,0.48,17.092,M,15.25,M,4,3335*4F
$GNRMC,094930.400,A,2500.7785815,N,12132.4629106,E,0.01,210.55,260623,,,D,V*06
$GPHDT,,T*1B
$GNGGA,094930.600,2500.7785755,N,12132.4629106,E,2,53,0.48,17.075,M,15.25,M,4,3335*4F
$GNRMC,094930.600,A,2500.7785755,N,12132.4629106,E,0.01,210.55,260623,,,D,V*0F
$GPHDT,,T*1B
$GNGGA,094930.800,2500.7785695,N,12132.4629106,E,2,53,0.48,17.055,M,15.25,M,4,3335*4E
$GNRMC,094930.800,A,2500.7785695,N,12132.4629106,E,0.01,210.55,260623,,,D,V*0C
$GPHDT,,T*1B
$GNGSA,A,3,196,15,199,195,24,05,13,18,29,20,23,194,0.94,0.48,0.81,1*03
$GNGSA,A,3,11,,,,,,,,,,,,0.94,0.48,0.81,1*09
$GNGSA,A,3,84,85,69,79,80,,,,,,,,0.94,0.48,0.81,2*02
$GNGSA,A,3,08,15,13,07,03,,,,,,,,0.94,0.48,0.81,3*01
$GNGSA,A,3,38,39,16,06,13,20,29,37,46,32,35,,0.94,0.48,0.81,4*06
$GPGSV,4,1,14,196,72,047,41,15,61,348,35,199,60,167,36,195,52,174,44,1*59
$GPGSV,4,2,14,24,51,178,44,05,41,071,42,13,40,031,35,18,40,318,23,1*6F
$GPGSV,4,3,14,41,38,242,34,29,26,230,46,20,24,097,32,23,18,309,23,1*6F
$GPGSV,4,4,14,194,17,149,20,11,15,146,25,1*55
$GPGSV,2,1,08,196,72,047,44,199,60,167,47,195,52,174,46,24,51,178,44,8*5C
$GPGSV,2,2,08,18,40,318,16,23,18,309,21,194,17,149,21,11,15,146,20,8*54
$GLGSV,2,1,05,84,59,214,34,85,37,317,24,69,31,024,22,79,24,081,37,1*7A
$GLGSV,2,2,05,80,20,137,29,1*49
$GAGSV,2,1,06,08,64,332,37,15,62,165,42,13,58,312,26,07,32,257,31,7*71
$GAGSV,2,2,06,03,31,039,39,34,12,150,,7*74
$GAGSV,2,1,05,08,64,332,37,15,62,165,44,13,58,312,26,07,32,257,34,1*77
$GAGSV,2,2,05,03,31,039,38,1*40
$GBGSV,3,1,12,38,68,026,42,39,68,208,44,16,58,204,40,06,56,205,34,1*73
$GBGSV,3,2,12,13,52,343,30,20,51,006,30,29,47,251,47,37,33,090,43,1*72
$GBGSV,3,3,12,19,33,298,,46,28,156,35,32,19,063,29,35,18,310,,1*78
$GBGSV,2,1,08,38,68,026,42,39,68,208,45,20,51,006,38,29,47,251,44,4*75
$GBGSV,2,2,08,37,33,090,43,46,28,156,30,32,19,063,34,35,18,310,19,4*76
$GNGGA,094931.000,2500.7785635,N,12132.4629106,E,2,54,0.48,17.033,M,15.25,M,5,3335*4B
$GNRMC,094931.000,A,2500.7785635,N,12132.4629106,E,0.02,210.55,260623,,,D,V*0C
$GPHDT,,T*1B
$GNGGA,094931.200,2500.7785635,N,12132.4629106,E,2,54,0.48,17.013,M,15.25,M,5,3335*4B
$GNRMC,094931.200,A,2500.7785635,N,12132.4629106,E,0.01,210.55,260623,,,D,V*0D
$GPHDT,,T*1B
$GNGGA,094931.400,2500.7785695,N,12132.4629046,E,2,54,0.48,16.997,M,15.25,M,5,3335*46
$GNRMC,094931.400,A,2500.7785695,N,12132.4629046,E,0.01,210.55,260623,,,D,V*04
$GPHDT,,T*1B
$GNGGA,094931.600,2500.7785755,N,12132.4629046,E,2,54,0.48,16.989,M,15.25,M,5,3335*46
$GNRMC,094931.600,A,2500.7785755,N,12132.4629046,E,0.01,210.55,260623,,,D,V*0B
$GPHDT,,T*1B
$GNGGA,094931.800,2500.7785755,N,12132.4629046,E,2,54,0.48,16.982,M,15.25,M,5,3335*43
$GNRMC,094931.800,A,2500.7785755,N,12132.4629046,E,0.01,210.55,260623,,,D,V*05
$GPHDT,,T*1B
$GNGSA,A,3,196,15,199,195,24,05,13,18,29,20,23,194,0.94,0.48,0.81,1*03
$GNGSA,A,3,11,,,,,,,,,,,,0.94,0.48,0.81,1*09
$GNGSA,A,3,84,85,69,79,80,,,,,,,,0.94,0.48,0.81,2*02
$GNGSA,A,3,08,15,13,07,03,,,,,,,,0.94,0.48,0.81,3*01
$GNGSA,A,3,38,39,16,06,13,20,29,37,46,32,35,,0.94,0.48,0.81,4*06
$GPGSV,4,1,14,196,72,047,41,15,61,348,35,199,60,167,36,195,52,174,44,1*59
$GPGSV,4,2,14,24,51,178,44,05,41,071,42,13,40,031,36,18,40,318,22,1*6D
$GPGSV,4,3,14,41,38,242,34,29,26,230,46,20,24,097,35,23,18,309,20,1*6B
$GPGSV,4,4,14,194,17,149,20,11,15,146,26,1*56
$GPGSV,2,1,08,196,72,047,44,199,60,167,47,195,52,174,46,24,51,178,45,8*5D
$GPGSV,2,2,08,18,40,318,16,23,18,309,21,194,17,149,22,11,15,146,20,8*57
$GLGSV,2,1,05,84,59,214,34,85,37,317,22,69,31,024,24,79,24,081,38,1*75
$GLGSV,2,2,05,80,20,137,29,1*49
$GAGSV,2,1,06,08,64,332,36,15,62,165,42,13,58,312,25,07,32,257,31,7*73
$GAGSV,2,2,06,03,31,039,41,34,12,150,,7*7B
$GAGSV,2,1,05,08,64,332,37,15,62,165,45,13,58,312,27,07,32,257,34,1*77
$GAGSV,2,2,05,03,31,039,40,1*4F
$GBGSV,3,1,12,38,68,026,42,39,68,208,44,16,58,204,40,06,56,205,35,1*72
$GBGSV,3,2,12,13,52,343,30,20,51,006,29,29,47,251,47,37,33,090,43,1*7A
$GBGSV,3,3,12,19,33,298,,46,28,156,35,32,19,063,28,35,18,310,,1*79
$GBGSV,2,1,08,38,68,026,42,39,68,208,45,20,51,006,38,29,47,251,44,4*75
$GBGSV,2,2,08,37,33,090,43,46,28,156,31,32,19,063,34,35,18,310,19,4*77
$GNGGA,094932.000,2500.7785695,N,12132.4628986,E,2,54,0.48,16.960,M,15.25,M,6,3335*4E
$GNRMC,094932.000,A,2500.7785695,N,12132.4628986,E,0.01,210.55,260623,,,D,V*07
$GPHDT,,T*1B
$GNGGA,094932.200,2500.7785695,N,12132.4628986,E,2,54,0.48,16.958,M,15.25,M,6,3335*47
$GNRMC,094932.200,A,2500.7785695,N,12132.4628986,E,0.01,210.55,260623,,,D,V*05
$GPHDT,,T*1B
$GNGGA,094932.400,2500.7785635,N,12132.4628986,E,2,54,0.48,16.932,M,15.25,M,6,3335*47
$GNRMC,094932.400,A,2500.7785635,N,12132.4628986,E,0.01,210.55,260623,,,D,V*09
$GPHDT,,T*1B
$GNGGA,094932.600,2500.7785575,N,12132.4628986,E,2,52,0.49,16.911,M,15.25,M,5,3335*47
$GNRMC,094932.600,A,2500.7785575,N,12132.4628986,E,0.01,210.55,260623,,,D,V*0C
$GPHDT,,T*1B
$GNGGA,094932.800,2500.7785575,N,12132.4628926,E,2,53,0.48,16.887,M,15.25,M,5,3335*4D
$GNRMC,094932.800,A,2500.7785575,N,12132.4628926,E,0.01,210.55,260623,,,D,V*08
$GPHDT,,T*1B
$GNGSA,A,3,196,15,199,195,24,05,13,18,29,20,23,194,0.94,0.48,0.81,1*03
$GNGSA,A,3,11,,,,,,,,,,,,0.94,0.48,0.81,1*09
$GNGSA,A,3,84,85,69,79,80,,,,,,,,0.94,0.48,0.81,2*02
$GNGSA,A,3,08,15,13,07,03,,,,,,,,0.94,0.48,0.81,3*01
$GNGSA,A,3,39,38,16,06,13,20,29,37,46,32,35,,0.94,0.48,0.81,4*06
$GPGSV,4,1,14,196,72,047,41,15,61,348,34,199,60,167,36,195,52,174,44,1*58
$GPGSV,4,2,14,24,51,178,44,05,41,071,44,13,40,031,36,18,40,318,22,1*6B
$GPGSV,4,3,14,41,38,242,34,29,26,230,46,20,24,097,35,23,18,309,19,1*61
$GPGSV,4,4,14,194,17,149,20,11,15,146,27,1*57
$GPGSV,2,1,08,196,72,047,44,199,60,167,47,195,52,174,46,24,51,178,45,8*5D
$GPGSV,2,2,08,18,40,318,16,23,18,309,21,194,17,149,22,11,15,146,18,8*5C
$GLGSV,2,1,06,84,59,214,34,85,37,317,22,70,35,307,,69,31,024,24,1*79
$GLGSV,2,2,06,79,25,081,38,80,20,137,29,1*71
$GAGSV,2,1,06,08,64,332,36,15,62,165,42,13,58,312,25,07,32,257,31,7*73
$GAGSV,2,2,06,03,31,039,41,34,12,150,,7*7B
$GAGSV,2,1,05,08,64,332,37,15,62,165,45,13,58,312,27,07,32,257,35,1*76
$GAGSV,2,2,05,03,31,039,41,1*4E
$GBGSV,4,1,16,39,68,208,44,38,68,026,42,16,58,204,40,06,56,205,35,1*71
$GBGSV,4,2,16,13,52,343,30,20,51,006,32,29,47,251,47,09,39,207,,1*7F
$GBGSV,4,3,16,37,33,090,42,19,33,298,,46,28,156,35,30,26,185,,1*71
$GBGSV,4,4,16,31,21,195,,32,19,063,28,35,18,310,,07,10,201,,1*73
$GBGSV,2,1,08,38,68,026,42,39,68,208,45,20,51,006,37,29,47,251,44,4*7A
$GBGSV,2,2,08,37,33,090,42,46,28,156,31,32,19,063,34,35,18,310,19,4*76
$GNGGA,094933.000,2500.7785515,N,12132.4628926,E,2,53,0.48,16.867,M,15.25,M,6,3335*4F
$GNRMC,094933.000,A,2500.7785515,N,12132.4628926,E,0.01,210.55,260623,,,D,V*07
$GPHDT,,T*1B
$GNGGA,094933.200,2500.7785515,N,12132.4628866,E,2,54,0.48,16.870,M,15.25,M,6,3335*49
$GNRMC,094933.200,A,2500.7785515,N,12132.4628866,E,0.01,210.55,260623,,,D,V*00
$GPHDT,,T*1B
$GNGGA,094933.400,2500.7785575,N,12132.4628806,E,2,54,0.48,16.854,M,15.25,M,6,3335*49
$GNRMC,094933.400,A,2500.7785575,N,12132.4628806,E,0.01,210.55,260623,,,D,V*06
$GPHDT,,T*1B
$GNGGA,094933.600,2500.7785515,N,12132.4628806,E,2,54,0.48,16.836,M,15.25,M,6,3335*49
$GNRMC,094933.600,A,2500.7785515,N,12132.4628806,E,0.01,210.55,260623,,,D,V*02
$GPHDT,,T*1B
$GNGGA,094933.800,2500.7785335,N,12132.4628746,E,2,54,0.48,16.826,M,15.25,M,6,3335*49
$GNRMC,094933.800,A,2500.7785335,N,12132.4628746,E,0.01,210.55,260623,,,D,V*03
$GPHDT,,T*1B
$GNGSA,A,3,196,15,199,195,24,05,18,13,29,20,23,194,0.94,0.48,0.81,1*03
$GNGSA,A,3,11,,,,,,,,,,,,0.94,0.48,0.81,1*09
$GNGSA,A,3,84,85,69,79,80,,,,,,,,0.94,0.48,0.81,2*02
$GNGSA,A,3,08,15,13,07,03,,,,,,,,0.94,0.48,0.81,3*01
$GNGSA,A,3,38,39,16,06,13,20,29,37,46,32,35,,0.94,0.48,0.81,4*06
$GPGSV,4,1,14,196,72,047,41,15,61,348,34,199,60,167,36,195,52,174,44,1*58
$GPGSV,4,2,14,24,51,178,44,05,41,071,44,18,40,318,22,13,40,031,38,1*65
$GPGSV,4,3,14,41,38,242,34,29,26,230,46,20,24,097,35,23,18,309,17,1*6F
$GPGSV,4,4,14,194,17,149,21,11,15,146,27,1*56
$GPGSV,2,1,08,196,72,047,44,199,60,167,47,195,52,174,46,24,51,178,45,8*5D
$GPGSV,2,2,08,18,40,318,17,23,18,309,21,194,17,149,22,11,15,146,17,8*52
$GLGSV,2,1,05,84,59,214,34,85,37,316,23,69,31,024,27,79,25,081,37,1*78
$GLGSV,2,2,05,80,20,137,28,1*48
$GAGSV,2,1,08,08,64,332,36,15,62,165,42,13,58,312,25,07,32,257,31,7*7D
$GAGSV,2,2,08,03,31,039,41,34,12,150,,02,09,120,,26,07,324,,7*7B
$GAGSV,2,1,05,08,64,332,37,15,62,165,45,13,58,312,27,07,32,257,34,1*77
$GAGSV,2,2,05,03,31,039,41,1*4E
$GBGSV,4,1,15,38,68,026,42,39,68,208,44,16,58,204,40,06,56,205,35,1*72
$GBGSV,4,2,15,13,52,343,30,20,51,006,32,29,47,251,47,09,39,207,,1*7C
$GBGSV,4,3,15,19,33,298,,37,33,090,42,46,28,156,35,30,26,185,,1*72
$GBGSV,4,4,15,31,21,195,,32,19,063,28,35,18,310,,1*45
$GBGSV,2,1,08,38,68,026,42,39,68,208,45,20,51,006,37,29,47,251,44,4*7A
$GBGSV,2,2,08,37,33,090,42,46,28,156,31,32,19,063,34,35,18,310,19,4*76
$GNGGA,094934.000,2500.7785275,N,12132.4628746,E,2,54,0.48,16.805,M,15.25,M,7,3335*43
$GNRMC,094934.000,A,2500.7785275,N,12132.4628746,E,0.01,210.55,260623,,,D,V*09
$GPHDT,,T*1B
$GNGGA,094934.200,2500.7785215,N,12132.4628686,E,2,54,0.48,16.792,M,15.25,M,7,3335*4B
$GNRMC,094934.200,A,2500.7785215,N,12132.4628686,E,0.01,210.55,260623,,,D,V*00
$GPHDT,,T*1B
$GNGGA,094934.400,2500.7785155,N,12132.4628686,E,2,54,0.48,16.781,M,15.25,M,7,3335*48
$GNRMC,094934.400,A,2500.7785155,N,12132.4628686,E,0.01,210.55,260623,,,D,V*01
$GPHDT,,T*1B
$GNGGA,094934.600,2500.7785035,N,12132.4628686,E,2,54,0.48,16.757,M,15.25,M,7,3335*46
$GNRMC,094934.600,A,2500.7785035,N,12132.4628686,E,0.02,210.55,260623,,,D,V*07
$GPHDT,,T*1B
$GNGGA,094934.800,2500.7784915,N,12132.4628626,E,2,54,0.48,16.734,M,15.25,M,7,3335*4D
$GNRMC,094934.800,A,2500.7784915,N,12132.4628626,E,0.02,210.55,260623,,,D,V*09
$GPHDT,,T*1B
$GNGSA,A,3,196,15,199,195,24,05,13,18,29,20,23,194,0.94,0.48,0.81,1*03
$GNGSA,A,3,11,,,,,,,,,,,,0.94,0.48,0.81,1*09
$GNGSA,A,3,84,85,69,79,80,,,,,,,,0.94,0.48,0.81,2*02
$GNGSA,A,3,08,15,13,07,03,,,,,,,,0.94,0.48,0.81,3*01
$GNGSA,A,3,39,38,16,06,13,20,29,37,46,32,35,,0.94,0.48,0.81,4*06
$GPGSV,4,1,14,196,72,047,41,15,61,348,34,199,60,167,36,195,52,174,44,1*58
$GPGSV,4,2,14,24,51,178,44,05,41,071,44,13,40,031,38,18,40,318,24,1*63
$GPGSV,4,3,14,41,38,242,34,29,26,230,46,20,24,097,34,23,18,309,16,1*6F
$GPGSV,4,4,14,194,17,149,22,11,15,146,28,1*5A
$GPGSV,2,1,08,196,72,047,44,199,60,167,47,195,52,174,46,24,51,178,45,8*5D
$GPGSV,2,2,08,18,40,318,17,23,18,309,22,194,17,149,21,11,15,146,17,8*52
$GLGSV,2,1,05,84,59,214,34,85,37,316,25,69,31,024,29,79,25,081,37,1*70
$GLGSV,2,2,05,80,20,137,28,1*48
$GAGSV,2,1,08,08,64,332,35,15,62,165,42,13,58,312,25,07,32,257,31,7*7E
$GAGSV,2,2,08,03,31,039,37,34,12,150,,02,09,120,,26,07,324,,7*7A
$GAGSV,2,1,05,08,64,332,37,15,62,165,45,13,58,312,27,07,32,257,33,1*70
$GAGSV,2,2,05,03,31,039,35,1*4D
$GBGSV,4,1,13,39,68,208,44,38,68,026,42,16,58,204,40,06,56,205,35,1*74
$GBGSV,4,2,13,13,52,343,30,20,51,006,34,29,47,251,47,09,39,207,,1*7C
$GBGSV,4,3,13,19,33,298,,37,33,090,42,46,28,156,35,32,19,063,27,1*76
$GBGSV,4,4,13,35,18,310,,1*49
$GBGSV,2,1,08,38,68,026,43,39,68,208,45,20,51,006,37,29,47,251,44,4*7B
$GBGSV,2,2,08,37,33,090,40,46,28,156,31,32,19,063,33,35,18,310,19,4*73
$GNGGA,094935.000,2500.7784855,N,12132.4628566,E,2,54,0.48,16.727,M,15.25,M,8,3335*4B
$GNRMC,094935.000,A,2500.7784855,N,12132.4628566,E,0.02,210.55,260623,,,D,V*02
$GPHDT,,T*1B
$GNGGA,094935.200,2500.7784675,N,12132.4628566,E,2,54,0.48,16.705,M,15.25,M,8,3335*45
$GNRMC,094935.200,A,2500.7784675,N,12132.4628566,E,0.02,210.55,260623,,,D,V*0C
$GPHDT,,T*1B
$GNGGA,094935.400,2500.7784555,N,12132.4628506,E,2,53,0.48,16.693,M,15.25,M,8,3335*4D
$GNRMC,094935.400,A,2500.7784555,N,12132.4628506,E,0.02,210.55,260623,,,D,V*0D
$GPHDT,,T*1B
$GNGGA,094935.600,2500.7784435,N,12132.4628446,E,2,53,0.48,16.683,M,15.25,M,8,3335*4C
$GNRMC,094935.600,A,2500.7784435,N,12132.4628446,E,0.02,210.55,260623,,,D,V*0D
$GPHDT,,T*1B
$GNGGA,094935.800,2500.7784435,N,12132.4628386,E,2,53,0.48,16.666,M,15.25,M,8,3335*42
$GNRMC,094935.800,A,2500.7784435,N,12132.4628386,E,0.02,210.55,260623,,,D,V*08
$GPHDT,,T*1B
$GNGSA,A,3,196,15,199,195,24,05,13,18,29,20,194,11,0.94,0.48,0.81,1*02
$GNGSA,A,3,23,,,,,,,,,,,,0.94,0.48,0.81,1*08
$GNGSA,A,3,84,85,69,79,80,,,,,,,,0.94,0.48,0.81,2*02
$GNGSA,A,3,08,15,13,07,03,,,,,,,,0.94,0.48,0.81,3*01
$GNGSA,A,3,39,38,16,06,13,20,29,37,46,32,35,,0.94,0.48,0.81,4*06
$GPGSV,4,1,14,196,72,047,41,15,61,348,33,199,60,167,36,195,52,174,44,1*5F
$GPGSV,4,2,14,24,51,178,43,05,41,071,44,13,40,031,38,18,40,318,23,1*63
$GPGSV,4,3,14,41,38,242,34,29,26,230,46,20,24,097,33,23,18,309,17,1*69
$GPGSV,4,4,14,194,17,149,21,11,15,146,27,1*56
$GPGSV,2,1,08,196,72,047,44,199,60,167,47,195,52,174,46,24,51,178,45,8*5D
$GPGSV,2,2,08,18,40,318,17,23,18,309,22,194,17,149,22,11,15,146,17,8*51
$GLGSV,2,1,05,84,59,214,34,85,37,316,25,69,31,024,30,79,25,081,37,1*78
$GLGSV,2,2,05,80,20,137,28,1*48
$GAGSV,2,1,08,08,64,332,35,15,62,165,42,13,58,312,25,07,32,257,31,7*7E
$GAGSV,2,2,08,03,31,039,33,34,12,150,,02,09,120,,26,07,324,,7*7E
$GAGSV,2,1,05,08,64,332,37,15,62,165,45,13,58,312,28,07,32,257,33,1*7F
$GAGSV,2,2,05,03,31,039,33,1*4B
$GBGSV,4,1,13,39,68,208,44,38,68,026,42,16,58,204,40,06,56,205,35,1*74
$GBGSV,4,2,13,13,52,343,30,20,51,006,34,29,47,251,47,09,39,207,,1*7C
$GBGSV,4,3,13,19,33,298,,37,33,090,42,46,28,156,35,32,19,063,29,1*78
$GBGSV,4,4,13,35,18,310,,1*49
$GBGSV,2,1,08,38,68,026,43,39,68,208,45,20,51,006,37,29,47,251,44,4*7B
$GBGSV,2,2,08,37,33,090,40,46,28,156,31,32,19,063,34,35,18,310,20,4*7E
$GNGGA,094936.000,2500.7784375,N,12132.4628266,E,2,53,0.48,16.660,M,15.25,M,9,3335*42
$GNRMC,094936.000,A,2500.7784375,N,12132.4628266,E,0.02,210.55,260623,,,D,V*0F
$GPHDT,,T*1B
$GNGGA,094936.200,2500.7784315,N,12132.4628146,E,2,52,0.49,16.648,M,15.25,M,9,3335*4D
$GNRMC,094936.200,A,2500.7784315,N,12132.4628146,E,0.02,210.55,260623,,,D,V*0A
$GPHDT,,T*1B
$GNGGA,094936.400,2500.7784255,N,12132.4628026,E,2,53,0.48,16.646,M,15.25,M,9,3335*47
$GNRMC,094936.400,A,2500.7784255,N,12132.4628026,E,0.02,210.55,260623,,,D,V*0E
$GPHDT,,T*1B
$GNGGA,094936.600,2500.7784075,N,12132.4627966,E,2,53,0.48,16.634,M,15.25,M,9,3335*42
$GNRMC,094936.600,A,2500.7784075,N,12132.4627966,E,0.02,210.55,260623,,,D,V*0E
$GPHDT,,T*1B
$GNGGA,094936.800,2500.7783955,N,12132.4627846,E,2,54,0.48,16.629,M,15.25,M,9,3335*48
$GNRMC,094936.800,A,2500.7783955,N,12132.4627846,E,0.02,210.55,260623,,,D,V*0F
$GPHDT,,T*1B
$GNGSA,A,3,196,15,199,195,24,05,13,18,29,20,23,194,0.94,0.48,0.81,1*03
$GNGSA,A,3,11,,,,,,,,,,,,0.94,0.48,0.81,1*09
$GNGSA,A,3,84,85,69,79,80,,,,,,,,0.94,0.48,0.81,2*02
$GNGSA,A,3,08,15,13,07,03,,,,,,,,0.94,0.48,0.81,3*01
$GNGSA,A,3,39,38,16,06,13,20,29,37,46,32,35,,0.94,0.48,0.81,4*06
$GPGSV,4,1,14,196,72,047,41,15,61,348,34,199,60,167,36,195,52,174,44,1*58
$GPGSV,4,2,14,24,51,178,43,05,41,071,44,13,40,031,38,18,40,318,22,1*62
$GPGSV,4,3,14,41,38,242,34,29,26,230,46,20,24,097,34,23,18,309,20,1*6A
$GPGSV,4,4,14,194,17,149,21,11,15,146,26,1*57
$GPGSV,2,1,08,196,72,047,44,199,60,167,47,195,52,174,46,24,51,178,45,8*5D
$GPGSV,2,2,08,18,40,318,14,23,18,309,22,194,17,149,22,11,15,146,16,8*53
$GLGSV,2,1,05,84,59,214,34,85,37,316,25,69,31,024,32,79,25,081,37,1*7A
$GLGSV,2,2,05,80,20,137,26,1*46
$GAGSV,2,1,08,08,64,332,35,15,62,165,42,13,58,312,25,07,32,257,31,7*7E
$GAGSV,2,2,08,03,31,039,33,34,12,150,,02,09,120,,26,07,324,,7*7E
$GAGSV,2,1,05,08,64,332,37,15,62,165,45,13,58,312,27,07,32,257,33,1*70
$GAGSV,2,2,05,03,31,039,33,1*4B
$GBGSV,3,1,12,39,68,208,44,38,68,026,42,16,58,204,40,06,56,205,35,1*72
$GBGSV,3,2,12,13,52,343,30,20,51,006,34,29,47,251,47,19,33,298,,1*77
$GBGSV,3,3,12,37,33,090,42,46,28,156,35,32,19,063,29,35,18,310,,1*78
$GBGSV,2,1,08,38,68,026,43,39,68,208,45,20,51,006,37,29,47,251,44,4*7B
$GBGSV,2,2,08,37,33,090,40,46,28,156,31,32,19,063,34,35,18,310,20,4*7E
$GNGGA,094937.000,2500.7783775,N,12132.4627846,E,2,54,0.48,16.623,M,15.25,M,10,3335*7F
$GNRMC,094937.000,A,2500.7783775,N,12132.4627846,E,0.00,210.55,260623,,,D,V*08
$GPHDT,,T*1B
$GNGGA,094937.200,2500.7783775,N,12132.4627786,E,2,54,0.48,16.626,M,15.25,M,10,3335*7B
$GNRMC,094937.200,A,2500.7783775,N,12132.4627786,E,0.00,210.55,260623,,,D,V*09
$GPHDT,,T*1B
$GNGGA,094937.400,2500.7783595,N,12132.4627666,E,2,54,0.48,16.621,M,15.25,M,10,3335*79
$GNRMC,094937.400,A,2500.7783595,N,12132.4627666,E,0.00,210.55,260623,,,D,V*0C
$GPHDT,,T*1B
$GNGGA,094937.600,2500.7783535,N,12132.4627486,E,2,54,0.48,16.622,M,15.25,M,10,3335*7E
$GNRMC,094937.600,A,2500.7783535,N,12132.4627486,E,0.00,210.55,260623,,,D,V*08
$GPHDT,,T*1B
$GNGGA,094937.800,2500.7783415,N,12132.4627366,E,2,54,0.48,16.631,M,15.25,M,10,3335*78
$GNRMC,094937.800,A,2500.7783415,N,12132.4627366,E,0.00,210.55,260623,,,D,V*0C
$GPHDT,,T*1B
