$FW : RTK35X,V1.1X0314AS,Lib20210517,1*54
$Tool : LOCOSYS , GNSS Firebird , v1.0.0.19*39
$---------------------------------------------------*2D
146,20,1*53
$GPGSV,2,1,06,196,72,047,45,199,60,167,47,24,52,178,47,195,52,174,47,8*52
$GPGSV,2,2,06,23,18,309,20,194,17,149,22,8*5D
$GLGSV,2,1,06,84,59,214,34,85,37,316,26,69,31,024,23,79,25,081,40,1*7A
$GLGSV,2,2,06,80,20,137,22,71,05,266,,1*70
$GAGSV,3,1,09,08,64,332,29,15,62,165,42,13,58,312,30,07,32,257,28,7*7F
$GAGSV,3,2,09,03,31,039,32,34,12,150,16,02,09,120,,26,07,324,,7*78
$GAGSV,3,3,09,30,03,168,,7*45
$GAGSV,2,1,06,08,64,332,32,15,62,165,45,13,58,312,15,07,32,257,34,1*70
$GAGSV,2,2,06,03,31,039,38,34,12,150,12,1*70
$GBGSV,3,1,12,38,68,026,39,39,68,209,44,16,58,204,40,06,56,205,30,1*7A
$GBGSV,3,2,12,13,52,343,24,20,51,006,29,29,46,251,45,19,33,299,,1*7C
$GBGSV,3,3,12,37,33,090,45,46,28,156,34,32,19,064,36,35,18,310,,1*77
$GBGSV,2,1,08,38,68,026,42,39,68,209,45,20,51,006,34,29,46,251,43,4*7E
$GBGSV,2,2,08,37,33,090,44,46,28,156,35,32,19,064,38,35,18,310,17,4*71
$GNGGA,094957.000,2500.7784735,N,12132.4622746,E,2,53,0.47,16.953,M,15.25,M,3,3335*42
$GNRMC,094957.000,A,2500.7784735,N,12132.4622746,E,0.05,210.55,260623,,,D,V*02
$GPHDT,,T*1B
$GNGGA,094957.200,2500.7784855,N,12132.4622746,E,2,54,0.47,16.962,M,15.25,M,3,3335*4C
$GNRMC,094957.200,A,2500.7784855,N,12132.4622746,E,0.05,210.55,260623,,,D,V*09
$GPHDT,,T*1B
$GNGGA,094957.400,2500.7784915,N,12132.4622746,E,2,53,0.47,16.960,M,15.25,M,3,3335*4A
$GNRMC,094957.400,A,2500.7784915,N,12132.4622746,E,0.06,210.55,260623,,,D,V*09
$GPHDT,,T*1B
$GNGGA,094957.600,2500.7784975,N,12132.4622746,E,2,52,0.47,16.956,M,15.25,M,3,3335*4A
$GNRMC,094957.600,A,2500.7784975,N,12132.4622746,E,0.05,210.55,260623,,,D,V*0E
$GPHDT,,T*1B
$GNGGA,094957.800,2500.7785155,N,12132.4622746,E,2,54,0.47,16.967,M,15.25,M,3,3335*4B
$GNRMC,094957.800,A,2500.7785155,N,12132.4622746,E,0.06,210.55,260623,,,D,V*08
$GPHDT,,T*1B
$GNGSA,A,3,196,15,199,24,195,05,18,13,29,20,194,11,0.91,0.47,0.78,1*0E
$GNGSA,A,3,23,,,,,,,,,,,,0.91,0.47,0.78,1*04
$GNGSA,A,3,84,85,69,79,80,,,,,,,,0.91,0.47,0.78,2*0E
$GNGSA,A,3,08,15,13,07,03,34,,,,,,,0.91,0.47,0.78,3*0A
$GNGSA,A,3,38,39,16,06,13,20,29,37,46,32,35,,0.91,0.47,0.78,4*0A
$GPGSV,4,1,14,196,72,047,39,15,61,349,32,199,60,167,37,24,52,178,46,1*64
$GPGSV,4,2,14,195,52,174,45,05,41,071,38,18,41,318,20,13,40,031,36,1*56
$GPGSV,4,3,14,41,38,242,34,29,26,230,43,20,24,097,40,23,18,309,25,1*69
$GPGSV,4,4,14,194,17,149,25,11,15,146,19,1*5F
$GPGSV,2,1,06,196,72,047,45,199,60,167,48,24,52,178,47,195,52,174,47,8*5D
$GPGSV,2,2,06,23,18,309,20,194,17,149,22,8*5D
$GLGSV,2,1,06,84,59,214,33,85,37,316,28,69,31,024,21,79,25,081,40,1*71
$GLGSV,2,2,06,80,20,137,23,83,07,170,,1*7A
$GAGSV,2,1,08,08,64,332,31,15,62,165,42,13,58,312,29,07,32,257,28,7*7E
$GAGSV,2,2,08,03,31,039,31,34,12,150,15,02,09,120,,30,03,168,,7*71
$GAGSV,2,1,06,08,64,332,33,15,62,165,45,13,58,312,26,07,32,257,34,1*71
$GAGSV,2,2,06,03,31,039,37,34,12,150,14,1*79
$GBGSV,3,1,12,38,68,026,40,39,68,209,44,16,58,204,40,06,56,205,31,1*75
$GBGSV,3,2,12,13,52,343,24,20,51,006,27,29,46,251,45,37,33,090,45,1*74
$GBGSV,3,3,12,19,33,299,,46,28,156,36,32,19,064,35,35,18,310,,1*70
$GBGSV,2,1,08,38,68,026,42,39,68,209,45,20,51,006,35,29,46,251,43,4*7F
$GBGSV,2,2,08,37,33,090,44,46,28,156,33,32,19,064,40,35,18,310,16,4*79
$GNGGA,094958.000,2500.7785335,N,12132.4622686,E,2,53,0.47,16.979,M,15.25,M,4,3335*4A
$GNRMC,094958.000,A,2500.7785335,N,12132.4622686,E,0.06,210.55,260623,,,D,V*06
$GPHDT,,T*1B
$GNGGA,094958.200,2500.7785515,N,12132.4622626,E,2,54,0.47,16.985,M,15.25,M,2,3335*44
$GNRMC,094958.200,A,2500.7785515,N,12132.4622626,E,0.07,210.55,260623,,,D,V*0B
$GPHDT,,T*1B
$GNGGA,094958.400,2500.7785635,N,12132.4622566,E,2,53,0.47,16.985,M,15.25,M,1,3335*40
$GNRMC,094958.400,A,2500.7785635,N,12132.4622566,E,0.07,210.55,260623,,,D,V*0B
$GPHDT,,T*1B
$GNGGA,094958.600,2500.7785815,N,12132.4622506,E,2,52,0.47,16.992,M,15.25,M,0,3335*4E
$GNRMC,094958.600,A,2500.7785815,N,12132.4622506,E,0.07,210.55,260623,,,D,V*03
$GPHDT,,T*1B
$GNGGA,094958.800,2500.7785935,N,12132.4622506,E,2,51,0.47,17.008,M,15.25,M,0,3335*4B
$GNRMC,094958.800,A,2500.7785935,N,12132.4622506,E,0.07,210.55,260623,,,D,V*0E
$GPHDT,,T*1B
$GNGSA,A,3,196,15,199,24,195,05,18,13,29,20,194,11,0.91,0.47,0.78,1*0E
$GNGSA,A,3,23,,,,,,,,,,,,0.91,0.47,0.78,1*04
$GNGSA,A,3,84,85,69,79,80,,,,,,,,0.91,0.47,0.78,2*0E
$GNGSA,A,3,08,15,13,07,03,34,,,,,,,0.91,0.47,0.78,3*0A
$GNGSA,A,3,39,38,16,06,13,20,29,37,46,32,35,,0.91,0.47,0.78,4*0A
$GPGSV,4,1,14,196,72,047,40,15,61,349,37,199,60,167,37,24,52,178,46,1*6F
$GPGSV,4,2,14,195,52,174,45,05,41,071,38,18,41,318,20,13,40,031,33,1*53
$GPGSV,4,3,14,41,38,242,34,29,26,230,43,20,24,097,40,23,18,309,23,1*6F
$GPGSV,4,4,14,194,17,149,27,11,15,146,17,1*53
$GPGSV,2,1,05,196,72,047,45,199,60,167,48,24,52,178,47,195,52,174,47,8*5E
$GPGSV,2,2,05,23,18,309,19,8*52
$GLGSV,2,1,05,84,59,214,33,85,37,316,28,69,31,024,21,79,25,081,40,1*72
$GLGSV,2,2,05,80,20,137,24,1*44
$GAGSV,2,1,08,08,64,332,34,15,62,165,42,13,58,312,29,07,32,257,28,7*7B
$GAGSV,2,2,08,03,31,039,30,34,12,150,17,02,09,120,,30,03,168,,7*72
$GAGSV,2,1,05,08,64,332,33,15,62,165,45,13,58,312,28,07,32,257,33,1*7B
$GAGSV,2,2,05,03,31,039,33,1*4B
$GBGSV,3,1,12,39,68,209,43,38,68,026,41,16,58,204,40,06,56,205,32,1*70
$GBGSV,3,2,12,13,52,343,26,20,51,006,30,29,46,251,45,19,33,299,,1*76
$GBGSV,3,3,12,37,33,090,45,46,28,156,34,32,19,064,36,35,18,310,,1*77
$GBGSV,2,1,08,38,68,026,42,39,68,209,45,20,51,006,37,29,46,251,43,4*7D
$GBGSV,2,2,08,37,33,090,43,46,28,156,33,32,19,064,39,35,18,310,11,4*77
$GNGGA,094959.000,2500.7785995,N,12132.4622446,E,2,51,0.47,17.016,M,15.25,M,1,3335*43
$GNRMC,094959.000,A,2500.7785995,N,12132.4622446,E,0.07,210.55,260623,,,D,V*08
$GPHDT,,T*1B
$GNGGA,094959.200,2500.7786175,N,12132.4622386,E,2,53,0.47,17.029,M,15.25,M,1,3335*41
$GNRMC,094959.200,A,2500.7786175,N,12132.4622386,E,0.08,210.55,260623,,,D,V*0B
$GPHDT,,T*1B
$GNGGA,094959.400,2500.7786295,N,12132.4622266,E,2,53,0.47,17.035,M,15.25,M,1,3335*48
$GNRMC,094959.400,A,2500.7786295,N,12132.4622266,E,0.08,210.55,260623,,,D,V*0F
$GPHDT,,T*1B
$GNGGA,094959.600,2500.7786415,N,12132.4622206,E,2,52,0.48,17.042,M,15.25,M,1,3335*4C
$GNRMC,094959.600,A,2500.7786415,N,12132.4622206,E,0.08,210.55,260623,,,D,V*05
$GPHDT,,T*1B
$GNGGA,094959.800,2500.7786595,N,12132.4622086,E,2,51,0.48,17.046,M,15.25,M,1,3335*46
$GNRMC,094959.800,A,2500.7786595,N,12132.4622086,E,0.08,210.55,260623,,,D,V*08
$GPHDT,,T*1B
$GNGSA,A,3,196,15,199,24,195,05,18,13,29,20,194,23,0.93,0.48,0.80,1*05
$GNGSA,A,3,84,85,69,79,80,,,,,,,,0.93,0.48,0.80,2*04
$GNGSA,A,3,08,15,13,07,03,34,,,,,,,0.93,0.48,0.80,3*00
$GNGSA,A,3,39,38,16,06,13,20,29,37,46,32,35,,0.93,0.48,0.80,4*00
$GPGSV,4,1,14,196,72,047,40,15,61,349,37,199,60,167,37,24,52,178,46,1*6F
$GPGSV,4,2,14,195,52,174,45,05,41,071,39,18,41,318,20,13,40,031,34,1*55
$GPGSV,4,3,14,41,38,242,34,29,26,230,42,20,24,097,40,23,18,309,22,1*6F
$GPGSV,4,4,14,194,17,149,26,11,15,146,17,1*52
$GPGSV,2,1,06,196,72,047,45,199,60,167,48,24,52,178,47,195,52,174,47,8*5D
$GPGSV,2,2,06,23,18,309,20,194,17,149,23,8*5C
$GLGSV,2,1,05,84,59,214,33,85,37,316,29,69,31,024,22,79,25,081,40,1*70
$GLGSV,2,2,05,80,20,137,25,1*45
$GAGSV,2,1,08,08,64,332,35,15,62,165,42,13,58,312,27,07,32,257,29,7*75
$GAGSV,2,2,08,03,31,039,29,34,12,150,17,02,09,120,,30,03,168,,7*7A
$GAGSV,2,1,05,08,64,332,36,15,62,165,46,13,58,312,26,07,32,257,33,1*73
$GAGSV,2,2,05,03,31,039,34,1*4C
$GBGSV,3,1,12,39,68,209,43,38,68,026,41,16,58,204,40,06,56,205,32,1*70
$GBGSV,3,2,12,13,52,343,27,20,51,006,30,29,46,251,45,19,33,299,,1*77
$GBGSV,3,3,12,37,33,090,45,46,28,156,38,32,19,064,36,35,18,310,,1*7B
$GBGSV,2,1,08,38,68,026,42,39,68,209,45,20,51,006,37,29,46,251,43,4*7D
$GBGSV,2,2,08,37,33,090,43,46,28,156,33,32,19,064,39,35,18,310,12,4*74
$GNGGA,095000.000,2500.7786775,N,12132.4621966,E,2,51,0.48,17.054,M,15.25,M,2,3335*42
$GNRMC,095000.000,A,2500.7786775,N,12132.4621966,E,0.09,210.55,260623,,,D,V*0D
$GPHDT,,T*1B
$GNGGA,095000.200,2500.7786895,N,12132.4621906,E,2,51,0.48,17.058,M,15.25,M,2,3335*4B
$GNRMC,095000.200,A,2500.7786895,N,12132.4621906,E,0.08,210.55,260623,,,D,V*09
$GPHDT,,T*1B
$GNGGA,095000.400,2500.7787015,N,12132.4621786,E,2,51,0.48,17.060,M,15.25,M,2,3335*41
$GNRMC,095000.400,A,2500.7787015,N,12132.4621786,E,0.09,210.55,260623,,,D,V*09
$GPHDT,,T*1B
$GNGGA,095000.600,2500.7787135,N,12132.4621606,E,2,52,0.47,17.063,M,15.25,M,2,3335*46
$GNRMC,095000.600,A,2500.7787135,N,12132.4621606,E,0.09,210.55,260623,,,D,V*01
$GPHDT,,T*1B
$GNGGA,095000.800,2500.7787315,N,12132.4621486,E,2,53,0.47,17.068,M,15.25,M,2,3335*48
$GNRMC,095000.800,A,2500.7787315,N,12132.4621486,E,0.09,210.55,260623,,,D,V*05
$GPHDT,,T*1B
$GNGSA,A,3,196,15,199,24,195,05,18,13,29,20,23,194,0.91,0.47,0.78,1*0F
$GNGSA,A,3,11,,,,,,,,,,,,0.91,0.47,0.78,1*05
$GNGSA,A,3,84,85,69,79,80,,,,,,,,0.91,0.47,0.78,2*0E
$GNGSA,A,3,08,15,13,07,03,34,,,,,,,0.91,0.47,0.78,3*0A
$GNGSA,A,3,38,39,16,06,13,20,29,37,46,32,35,,0.91,0.47,0.78,4*0A
$GPGSV,4,1,14,196,72,047,40,15,61,349,37,199,60,167,37,24,52,178,46,1*6F
$GPGSV,4,2,14,195,52,174,45,05,41,071,40,18,41,318,20,13,40,031,32,1*5D
$GPGSV,4,3,14,41,38,242,33,29,26,230,42,20,24,097,40,23,18,309,21,1*6B
$GPGSV,4,4,14,194,17,149,27,11,15,146,18,1*5C
$GPGSV,2,1,07,196,72,047,45,199,60,167,48,195,52,174,47,24,52,178,47,8*5C
$GPGSV,2,2,07,23,18,309,20,194,17,149,23,11,15,146,20,8*68
$GLGSV,2,1,05,84,59,214,34,85,37,316,29,69,31,024,18,79,25,081,39,1*70
$GLGSV,2,2,05,80,20,137,24,1*44
$GAGSV,2,1,07,08,64,332,35,15,62,165,42,13,58,312,26,07,32,257,28,7*7A
$GAGSV,2,2,07,03,31,039,26,34,12,150,17,30,03,167,,7*4D
$GAGSV,2,1,05,08,64,332,36,15,62,165,46,13,58,312,27,07,32,257,33,1*72
$GAGSV,2,2,05,03,31,039,34,1*4C
$GBGSV,3,1,12,38,68,026,41,39,68,209,43,16,58,204,40,06,56,205,30,1*72
$GBGSV,3,2,12,13,52,343,28,20,51,006,28,29,46,251,45,19,33,299,,1*71
$GBGSV,3,3,12,37,33,090,45,46,28,156,36,32,19,064,37,35,18,310,,1*74
$GBGSV,2,1,08,38,68,026,42,39,68,209,45,20,51,006,37,29,46,251,43,4*7D
$GBGSV,2,2,08,37,33,090,43,46,28,156,31,32,19,064,39,35,18,310,12,4*76
$GNGGA,095001.000,2500.7787375,N,12132.4621426,E,2,53,0.47,17.061,M,15.25,M,3,3335*45
$GNRMC,095001.000,A,2500.7787375,N,12132.4621426,E,0.09,210.55,260623,,,D,V*00
$GPHDT,,T*1B
$GNGGA,095001.200,2500.7787555,N,12132.4621306,E,2,53,0.47,17.061,M,15.25,M,3,3335*46
$GNRMC,095001.200,A,2500.7787555,N,12132.4621306,E,0.09,210.55,260623,,,D,V*03
$GPHDT,,T*1B
$GNGGA,095001.400,2500.7787615,N,12132.4621186,E,2,53,0.47,17.069,M,15.25,M,3,3335*45
$GNRMC,095001.400,A,2500.7787615,N,12132.4621186,E,0.08,210.55,260623,,,D,V*09
$GPHDT,,T*1B
$GNGGA,095001.600,2500.7787735,N,12132.4621066,E,2,53,0.47,17.069,M,15.25,M,3,3335*4B
$GNRMC,095001.600,A,2500.7787735,N,12132.4621066,E,0.08,210.55,260623,,,D,V*07
$GPHDT,,T*1B
$GNGGA,095001.800,2500.7787795,N,12132.4620946,E,2,53,0.47,17.075,M,15.25,M,3,3335*48
$GNRMC,095001.800,A,2500.7787795,N,12132.4620946,E,0.08,210.55,260623,,,D,V*09
$GPHDT,,T*1B
$GNGSA,A,3,196,15,199,24,195,05,18,13,29,20,23,194,0.91,0.47,0.78,1*0F
$GNGSA,A,3,11,,,,,,,,,,,,0.91,0.47,0.78,1*05
$GNGSA,A,3,84,85,69,79,80,,,,,,,,0.91,0.47,0.78,2*0E
$GNGSA,A,3,08,15,13,07,03,34,,,,,,,0.91,0.47,0.78,3*0A
$GNGSA,A,3,38,39,16,06,13,20,29,37,46,32,35,,0.91,0.47,0.78,4*0A
$GPGSV,4,1,14,196,72,047,40,15,61,349,37,199,60,167,37,24,52,178,46,1*6F
$GPGSV,4,2,14,195,52,174,45,05,41,071,42,18,41,318,20,13,40,031,31,1*5C
$GPGSV,4,3,14,41,38,242,33,29,26,230,42,20,24,097,40,23,18,309,19,1*60
$GPGSV,4,4,14,194,17,149,28,11,15,146,17,1*5C
$GPGSV,2,1,07,196,72,047,45,199,60,167,48,195,52,174,47,24,52,178,47,8*5C
$GPGSV,2,2,07,23,18,309,20,194,17,149,21,11,15,146,23,8*69
$GLGSV,2,1,06,84,59,214,34,85,37,316,29,69,31,024,19,79,25,081,39,1*72
$GLGSV,2,2,06,80,20,137,24,78,04,035,,1*7A
$GAGSV,2,1,08,08,64,332,35,15,62,165,42,13,58,312,26,07,32,257,28,7*75
$GAGSV,2,2,08,03,31,039,22,34,12,150,17,30,03,167,,25,02,074,,7*70
$GAGSV,2,1,05,08,64,332,36,15,62,165,46,13,58,312,27,07,32,257,33,1*72
$GAGSV,2,2,05,03,31,039,32,1*4A
$GBGSV,4,1,13,38,68,026,41,39,68,209,43,16,58,204,40,06,56,205,30,1*74
$GBGSV,4,2,13,13,52,343,29,20,51,006,28,29,46,251,45,19,33,299,,1*76
$GBGSV,4,3,13,37,33,090,45,46,28,156,37,32,19,064,38,35,18,310,,1*7C
$GBGSV,4,4,13,23,06,045,,1*42
$GBGSV,2,1,08,38,68,026,42,39,68,209,45,20,51,006,38,29,46,251,43,4*72
$GBGSV,2,2,08,37,33,090,43,46,28,156,33,32,19,064,40,35,18,310,11,4*79
$GNGGA,095002.000,2500.7787915,N,12132.4620826,E,2,53,0.47,17.080,M,15.25,M,4,3335*4F
$GNRMC,095002.000,A,2500.7787915,N,12132.4620826,E,0.08,210.55,260623,,,D,V*03
$GPHDT,,T*1B
$GNGGA,095002.200,2500.7787975,N,12132.4620766,E,2,53,0.47,17.071,M,15.25,M,4,3335*4E
$GNRMC,095002.200,A,2500.7787975,N,12132.4620766,E,0.08,210.55,260623,,,D,V*0C
$GPHDT,,T*1B
$GNGGA,095002.400,2500.7788155,N,12132.4620646,E,2,54,0.47,17.073,M,15.25,M,4,3335*4B
$GNRMC,095002.400,A,2500.7788155,N,12132.4620646,E,0.08,210.55,260623,,,D,V*0C
$GPHDT,,T*1B
$GNGGA,095002.600,2500.7788215,N,12132.4620586,E,2,53,0.47,17.072,M,15.25,M,4,3335*47
$GNRMC,095002.600,A,2500.7788215,N,12132.4620586,E,0.08,210.55,260623,,,D,V*06
$GPHDT,,T*1B
$GNGGA,095002.800,2500.7788275,N,12132.4620406,E,2,52,0.47,17.065,M,15.25,M,4,3335*41
$GNRMC,095002.800,A,2500.7788275,N,12132.4620406,E,0.08,210.55,260623,,,D,V*07
$GPHDT,,T*1B
$GNGSA,A,3,196,15,199,24,195,05,18,13,29,20,194,23,0.95,0.47,0.82,1*0E
$GNGSA,A,3,11,,,,,,,,,,,,0.95,0.47,0.82,1*04
$GNGSA,A,3,84,85,69,79,80,,,,,,,,0.95,0.47,0.82,2*0F
$GNGSA,A,3,08,15,13,07,03,34,,,,,,,0.95,0.47,0.82,3*0B
$GNGSA,A,3,38,39,16,06,13,20,29,19,37,46,32,,0.95,0.47,0.82,4*05
$GPGSV,4,1,14,196,72,047,40,15,61,349,37,199,60,167,38,24,52,178,46,1*60
$GPGSV,4,2,14,195,52,174,45,05,41,071,42,18,41,318,20,13,40,031,29,1*55
$GPGSV,4,3,14,41,38,242,34,29,26,230,42,20,24,097,40,23,18,309,20,1*6D
$GPGSV,4,4,14,194,17,149,28,11,15,146,18,1*53
$GPGSV,2,1,07,196,72,047,45,199,60,167,48,24,52,178,47,195,52,174,47,8*5C
$GPGSV,2,2,07,23,18,309,19,194,17,149,24,11,15,146,22,8*67
$GLGSV,2,1,06,84,59,214,34,85,37,316,28,69,31,025,24,79,25,081,38,1*7D
$GLGSV,2,2,06,80,20,137,23,78,04,035,,1*7D
$GAGSV,2,1,08,08,64,332,35,15,62,165,42,13,58,312,26,07,32,257,28,7*75
$GAGSV,2,2,08,03,31,039,17,34,12,150,17,30,03,167,,25,02,074,,7*76
$GAGSV,2,1,05,08,64,332,36,15,62,165,46,13,58,312,26,07,32,257,33,1*73
$GAGSV,2,2,05,03,31,039,31,1*49
$GBGSV,4,1,13,38,68,026,41,39,68,209,43,16,58,204,40,06,56,205,30,1*74
$GBGSV,4,2,13,13,52,343,29,20,51,006,29,29,46,251,45,19,33,299,22,1*77
$GBGSV,4,3,13,37,33,090,45,46,28,156,37,32,19,064,38,35,18,310,,1*7C
$GBGSV,4,4,13,40,05,194,,1*49
$GBGSV,2,1,07,38,68,026,42,39,68,209,45,20,51,006,38,29,46,251,43,4*7D
$GBGSV,2,2,07,37,33,090,43,46,28,156,33,32,19,064,41,4*4A
$GNGGA,095003.000,2500.7788335,N,12132.4620286,E,2,52,0.47,17.069,M,15.25,M,5,3335*4E
$GNRMC,095003.000,A,2500.7788335,N,12132.4620286,E,0.08,210.55,260623,,,D,V*05
$GPHDT,,T*1B
$GNGGA,095003.200,2500.7788455,N,12132.4620166,E,2,52,0.47,17.074,M,15.25,M,5,3335*4C
$GNRMC,095003.200,A,2500.7788455,N,12132.4620166,E,0.07,210.55,260623,,,D,V*04
$GPHDT,,T*1B
$GNGGA,095003.400,2500.7788455,N,12132.4619986,E,2,53,0.50,17.076,M,15.25,M,5,3335*43
$GNRMC,095003.400,A,2500.7788455,N,12132.4619986,E,0.07,210.55,260623,,,D,V*0E
$GPHDT,,T*1B
$GNGGA,095003.600,2500.7788515,N,12132.4619926,E,2,53,0.50,17.069,M,15.25,M,5,3335*40
$GNRMC,095003.600,A,2500.7788515,N,12132.4619926,E,0.07,210.55,260623,,,D,V*03
$GPHDT,,T*1B
$GNGGA,095003.800,2500.7788575,N,12132.4619806,E,2,53,0.50,17.068,M,15.25,M,5,3335*4A
$GNRMC,095003.800,A,2500.7788575,N,12132.4619806,E,0.07,210.55,260623,,,D,V*08
$GPHDT,,T*1B
$GNGSA,A,3,196,15,199,24,195,05,18,13,29,20,23,194,0.97,0.50,0.83,1*0B
$GNGSA,A,3,11,,,,,,,,,,,,0.97,0.50,0.83,1*01
$GNGSA,A,3,84,85,69,79,80,,,,,,,,0.97,0.50,0.83,2*0A
$GNGSA,A,3,08,15,13,07,03,34,,,,,,,0.97,0.50,0.83,3*0E
$GNGSA,A,3,39,38,16,06,13,20,29,37,46,32,,,0.97,0.50,0.83,4*08
$GPGSV,4,1,14,196,72,047,40,15,61,349,37,199,60,167,38,24,52,178,46,1*60
$GPGSV,4,2,14,195,52,174,45,05,41,071,41,18,41,318,22,13,40,031,28,1*55
$GPGSV,4,3,14,41,38,242,34,29,26,230,43,20,24,097,40,23,18,309,20,1*6C
$GPGSV,4,4,14,194,17,149,28,11,15,146,18,1*53
$GPGSV,2,1,07,196,72,047,45,199,60,167,48,24,52,178,47,195,52,174,46,8*5D
$GPGSV,2,2,07,23,18,309,19,194,17,149,23,11,15,146,18,8*69
$GLGSV,2,1,05,84,59,214,34,85,37,316,28,69,31,025,28,79,25,081,37,1*7D
$GLGSV,2,2,05,80,20,137,23,1*43
$GAGSV,2,1,08,08,64,332,35,15,62,165,42,13,58,312,26,07,32,257,28,7*75
$GAGSV,2,2,08,03,31,039,17,34,12,150,17,30,03,167,,25,02,074,,7*76
$GAGSV,2,1,05,08,64,332,36,15,62,165,46,13,58,312,26,07,32,257,33,1*73
$GAGSV,2,2,05,03,31,039,33,1*4B
$GBGSV,3,1,12,39,68,209,43,38,68,026,41,16,58,204,40,06,56,205,31,1*73
$GBGSV,3,2,12,13,52,343,29,20,51,006,31,29,46,251,45,19,33,299,22,1*78
$GBGSV,3,3,12,37,33,090,45,46,28,156,37,32,19,064,37,35,18,310,,1*75
$GBGSV,2,1,07,38,68,026,42,39,68,209,45,20,51,006,38,29,46,251,43,4*7D
$GBGSV,2,2,07,37,33,090,43,46,28,156,33,32,19,064,40,4*4B
$GNGGA,095004.000,2500.7788695,N,12132.4619626,E,2,53,0.50,17.075,M,15.25,M,6,3335*4B
$GNRMC,095004.000,A,2500.7788695,N,12132.4619626,E,0.07,210.55,260623,,,D,V*06
$GPHDT,,T*1B
$GNGGA,095004.200,2500.7788755,N,12132.4619506,E,2,53,0.50,17.076,M,15.25,M,6,3335*46
$GNRMC,095004.200,A,2500.7788755,N,12132.4619506,E,0.07,210.55,260623,,,D,V*08
$GPHDT,,T*1B
$GNGGA,095004.400,2500.7788815,N,12132.4619386,E,2,53,0.50,17.088,M,15.25,M,6,3335*44
$GNRMC,095004.400,A,2500.7788815,N,12132.4619386,E,0.07,210.55,260623,,,D,V*0B
$GPHDT,,T*1B
$GNGGA,095004.600,2500.7788875,N,12132.4619206,E,2,53,0.50,17.097,M,15.25,M,4,3335*45
$GNRMC,095004.600,A,2500.7788875,N,12132.4619206,E,0.07,210.55,260623,,,D,V*06
$GPHDT,,T*1B
$GNGGA,095004.800,2500.7788935,N,12132.4618966,E,2,52,0.50,17.110,M,15.25,M,2,3335*4B
$GNRMC,095004.800,A,2500.7788935,N,12132.4618966,E,0.07,210.55,260623,,,D,V*01
$GPHDT,,T*1B
$GNGSA,A,3,196,15,199,24,195,05,18,13,29,20,23,194,0.97,0.50,0.83,1*0B
$GNGSA,A,3,11,,,,,,,,,,,,0.97,0.50,0.83,1*01
$GNGSA,A,3,84,85,69,79,80,,,,,,,,0.97,0.50,0.83,2*0A
$GNGSA,A,3,08,15,13,07,03,34,,,,,,,0.97,0.50,0.83,3*0E
$GNGSA,A,3,39,38,16,06,13,20,29,37,46,32,,,0.97,0.50,0.83,4*08
$GPGSV,4,1,14,196,72,047,40,15,61,349,37,199,60,167,38,24,52,178,46,1*60
$GPGSV,4,2,14,195,52,174,45,05,41,071,41,18,41,318,22,13,40,031,34,1*58
$GPGSV,4,3,14,41,38,242,34,29,26,230,43,20,24,097,41,23,18,309,23,1*6E
$GPGSV,4,4,14,194,17,149,28,11,15,146,17,1*5C
$GPGSV,2,1,07,196,72,047,45,199,60,167,48,24,52,178,47,195,52,174,46,8*5D
$GPGSV,2,2,07,23,18,309,19,194,17,149,22,11,15,146,21,8*62
$GLGSV,2,1,05,84,59,214,34,85,37,316,28,69,31,025,26,79,25,080,38,1*7D
$GLGSV,2,2,05,80,20,137,21,1*41
$GAGSV,2,1,08,08,64,332,35,15,62,165,42,13,58,312,27,07,32,257,29,7*75
$GAGSV,2,2,08,03,31,039,22,34,12,150,17,30,03,167,,25,02,074,,7*70
$GAGSV,2,1,05,08,64,332,36,15,62,165,46,13,58,312,26,07,32,257,33,1*73
$GAGSV,2,2,05,03,31,039,32,1*4A
$GBGSV,3,1,12,39,68,209,43,38,68,026,41,16,58,204,40,06,56,205,31,1*73
$GBGSV,3,2,12,13,52,343,29,20,51,006,31,29,46,251,45,19,33,299,22,1*78
$GBGSV,3,3,12,37,33,090,45,46,28,156,37,32,19,064,34,35,18,310,,1*76
$GBGSV,2,1,07,38,68,026,42,39,68,209,45,20,51,006,38,29,46,251,43,4*7D
$GBGSV,2,2,07,37,33,090,43,46,28,156,32,32,19,064,37,4*4A
$GNGGA,095005.000,2500.7788995,N,12132.4618726,E,2,52,0.50,17.127,M,15.25,M,1,3335*45
$GNRMC,095005.000,A,2500.7788995,N,12132.4618726,E,0.07,210.55,260623,,,D,V*08
$GPHDT,,T*1B
$GNGGA,095005.200,2500.7789055,N,12132.4618486,E,2,52,0.50,17.148,M,15.25,M,1,3335*43
$GNRMC,095005.200,A,2500.7789055,N,12132.4618486,E,0.07,210.55,260623,,,D,V*07
$GPHDT,,T*1B
$GNGGA,095005.400,2500.7789115,N,12132.4618306,E,2,52,0.50,17.163,M,15.25,M,1,3335*46
$GNRMC,095005.400,A,2500.7789115,N,12132.4618306,E,0.06,210.55,260623,,,D,V*0A
$GPHDT,,T*1B
$GNGGA,095005.600,2500.7789175,N,12132.4618186,E,2,52,0.50,17.164,M,15.25,M,1,3335*4F
$GNRMC,095005.600,A,2500.7789175,N,12132.4618186,E,0.06,210.55,260623,,,D,V*04
$GPHDT,,T*1B
$GNGGA,095005.800,2500.7789235,N,12132.4618006,E,2,52,0.50,17.175,M,15.25,M,0,3335*4E
$GNRMC,095005.800,A,2500.7789235,N,12132.4618006,E,0.07,210.55,260623,,,D,V*05
$GPHDT,,T*1B
$GNGSA,A,3,196,15,199,24,195,05,18,13,29,20,23,194,0.97,0.50,0.83,1*0B
$GNGSA,A,3,11,,,,,,,,,,,,0.97,0.50,0.83,1*01
$GNGSA,A,3,84,85,69,79,80,,,,,,,,0.97,0.50,0.83,2*0A
$GNGSA,A,3,08,15,13,07,03,34,,,,,,,0.97,0.50,0.83,3*0E
$GNGSA,A,3,39,38,16,06,13,20,29,37,46,32,,,0.97,0.50,0.83,4*08
$GPGSV,4,1,14,196,72,047,40,15,61,349,37,199,60,167,38,24,52,178,46,1*60
$GPGSV,4,2,14,195,52,174,45,05,41,071,41,18,41,318,21,13,40,031,36,1*59
$GPGSV,4,3,14,41,38,242,34,29,26,230,43,20,24,097,41,23,18,309,21,1*6C
$GPGSV,4,4,14,194,17,149,28,11,15,146,17,1*5C
$GPGSV,2,1,07,196,72,047,45,199,60,167,48,24,52,178,47,195,52,174,46,8*5D
$GPGSV,2,2,07,23,18,309,19,194,17,149,21,11,15,146,21,8*61
$GLGSV,2,1,05,84,59,213,34,85,37,316,28,69,31,025,27,79,25,080,38,1*7B
$GLGSV,2,2,05,80,21,137,21,1*40
$GAGSV,2,1,08,08,64,332,35,15,62,165,42,13,58,312,27,07,32,257,29,7*75
$GAGSV,2,2,08,03,31,039,25,34,12,150,16,30,03,167,,25,02,074,,7*76
$GAGSV,2,1,05,08,64,332,36,15,62,165,46,13,58,312,26,07,32,257,34,1*74
$GAGSV,2,2,05,03,31,039,34,1*4C
$GBGSV,3,1,12,39,68,209,43,38,68,026,41,16,58,204,40,06,56,205,31,1*73
$GBGSV,3,2,12,13,52,343,30,20,51,006,32,29,46,251,45,19,33,299,22,1*73
$GBGSV,3,3,12,37,33,090,45,46,28,156,37,32,19,064,35,35,18,310,,1*77
$GBGSV,2,1,07,38,68,026,42,39,68,209,45,20,51,006,38,29,46,251,43,4*7D
$GBGSV,2,2,07,37,33,090,43,46,28,156,33,32,19,064,37,4*4B
$GNGGA,095006.000,2500.7789295,N,12132.4617826,E,2,52,0.50,17.197,M,15.25,M,1,3335*47
$GNRMC,095006.000,A,2500.7789295,N,12132.4617826,E,0.01,210.55,260623,,,D,V*07
$GPHDT,,T*1B
$GNGGA,095006.200,2500.7789355,N,12132.4617586,E,2,52,0.50,17.213,M,15.25,M,1,3335*40
$GNRMC,095006.200,A,2500.7789355,N,12132.4617586,E,0.00,210.55,260623,,,D,V*0E
$GPHDT,,T*1B
$GNGGA,095006.400,2500.7789355,N,12132.4617346,E,2,52,0.50,17.228,M,15.25,M,1,3335*44
$GNRMC,095006.400,A,2500.7789355,N,12132.4617346,E,0.00,210.55,260623,,,D,V*02
$GPHDT,,T*1B
$GNGGA,095006.600,2500.7789475,N,12132.4617166,E,2,52,0.50,17.241,M,15.25,M,0,3335*4D
$GNRMC,095006.600,A,2500.7789475,N,12132.4617166,E,0.00,210.55,260623,,,D,V*05
$GPHDT,,T*1B
$GNGGA,095006.800,2500.7789535,N,12132.4616986,E,2,52,0.50,17.269,M,15.25,M,0,3335*4B
$GNRMC,095006.800,A,2500.7789535,N,12132.4616986,E,0.00,210.55,260623,,,D,V*09
$GPHDT,,T*1B
$GNGSA,A,3,196,15,199,24,195,05,18,13,29,20,23,194,0.97,0.50,0.83,1*0B
$GNGSA,A,3,11,,,,,,,,,,,,0.97,0.50,0.83,1*01
$GNGSA,A,3,84,85,69,79,80,,,,,,,,0.97,0.50,0.83,2*0A
$GNGSA,A,3,08,15,13,07,03,34,,,,,,,0.97,0.50,0.83,3*0E
$GNGSA,A,3,38,39,16,06,13,20,29,37,46,32,,,0.97,0.50,0.83,4*08
$GPGSV,4,1,14,196,72,047,40,15,61,349,37,199,60,167,38,24,52,178,46,1*60
$GPGSV,4,2,14,195,52,174,45,05,41,071,41,18,41,318,22,13,40,031,37,1*5B
$GPGSV,4,3,14,41,38,242,34,29,26,230,43,20,24,097,41,23,18,309,24,1*69
$GPGSV,4,4,14,194,17,149,28,11,15,146,17,1*5C
$GPGSV,2,1,07,196,72,047,45,199,60,167,48,24,52,178,47,195,52,174,46,8*5D
$GPGSV,2,2,07,23,18,309,19,194,17,149,21,11,15,146,22,8*62
$GLGSV,2,1,05,84,59,213,34,85,37,316,28,69,31,025,27,79,25,080,38,1*7B
$GLGSV,2,2,05,80,21,137,21,1*40
$GAGSV,2,1,07,08,64,332,35,15,62,165,42,13,58,312,26,07,32,257,28,7*7A
$GAGSV,2,2,07,03,31,039,25,34,12,150,16,25,02,074,,7*49
$GAGSV,2,1,05,08,64,332,36,15,62,165,46,13,58,312,26,07,32,257,34,1*74
$GAGSV,2,2,05,03,31,039,34,1*4C
$GBGSV,3,1,12,38,68,026,41,39,68,209,43,16,58,204,40,06,56,205,31,1*73
$GBGSV,3,2,12,13,52,343,30,20,51,006,31,29,46,251,45,19,33,299,21,1*73
$GBGSV,3,3,12,37,33,090,45,46,28,156,37,32,19,064,36,35,18,310,,1*74
$GBGSV,2,1,07,38,68,026,42,39,68,209,45,20,51,006,38,29,46,251,43,4*7D
$GBGSV,2,2,07,37,33,090,43,46,28,156,32,32,19,064,37,4*4A
$GNGGA,095007.000,2500.7789535,N,12132.4616806,E,2,52,0.50,17.280,M,15.25,M,1,3335*4D
$GNRMC,095007.000,A,2500.7789535,N,12132.4616806,E,0.00,210.55,260623,,,D,V*09
$GPHDT,,T*1B
$GNGGA,095007.200,2500.7789535,N,12132.4616626,E,2,52,0.50,17.291,M,15.25,M,1,3335*43
$GNRMC,095007.200,A,2500.7789535,N,12132.4616626,E,0.00,210.55,260623,,,D,V*07
$GPHDT,,T*1B
