$FW : RTK35X,V1.1X0314AS,Lib20210517,1*54
$Tool : LOCOSYS , GNSS Firebird , v1.0.0.19*39
$---------------------------------------------------*2D
$GPHDT,,T*1B
$GNGGA,094631.800,2500.7784819,N,12132.4628872,E,2,52,0.49,17.448,M,15.25,M,0,3335*4C
$GNRMC,094631.800,A,2500.7784819,N,12132.4628872,E,0.01,210.55,260623,,,D,V*02
$GPHDT,,T*1B
$GNGSA,A,3,196,15,199,195,24,05,13,29,20,23,11,194,0.81,0.49,0.64,1*04
$GNGSA,A,3,18,,,,,,,,,,,,0.81,0.49,0.64,1*0E
$GNGSA,A,3,84,85,69,79,80,,,,,,,,0.81,0.49,0.64,2*0C
$GNGSA,A,3,08,15,13,03,34,,,,,,,,0.81,0.49,0.64,3*0F
$GNGSA,A,3,39,38,16,06,13,20,29,37,19,46,32,,0.81,0.49,0.64,4*06
$GPGSV,4,1,14,196,72,047,42,15,62,345,31,199,60,167,38,195,52,174,44,1*5E
$GPGSV,4,2,14,24,50,178,40,05,42,069,45,13,42,030,41,18,39,319,20,1*6B
$GPGSV,4,3,14,41,38,242,31,29,27,232,45,20,25,096,34,23,17,307,17,1*6A
$GPGSV,4,4,14,11,17,145,25,194,17,149,29,1*5D
$GPGSV,2,1,07,196,72,047,44,199,60,167,47,195,52,174,47,24,50,178,42,8*55
$GPGSV,2,2,07,18,39,319,27,11,17,145,20,194,17,149,26,8*61
$GLGSV,2,1,05,84,61,216,29,85,36,318,15,69,32,023,31,79,24,082,37,1*76
$GLGSV,2,2,05,80,19,138,26,1*43
$GAGSV,2,1,08,08,65,329,34,15,63,164,42,13,57,314,21,03,32,038,38,7*7F
$GAGSV,2,2,08,07,31,256,27,34,13,150,22,02,08,121,,26,06,324,,7*74
$GAGSV,2,1,06,08,65,329,41,15,63,164,45,13,57,314,30,03,32,038,37,1*7D
$GAGSV,2,2,06,07,31,256,26,34,13,150,16,1*75
$GBGSV,3,1,12,39,67,207,45,38,67,026,42,16,57,203,36,06,55,204,27,1*74
$GBGSV,3,2,12,13,51,342,18,20,51,004,23,29,47,253,46,37,33,091,38,1*74
$GBGSV,3,3,12,19,32,297,29,46,27,157,35,32,19,062,43,35,18,311,,1*7F
$GBGSV,2,1,07,39,67,207,45,38,67,026,43,20,51,004,35,29,47,253,43,4*7E
$GBGSV,2,2,07,37,33,091,32,46,27,157,35,32,19,062,35,4*40
$GNGGA,094632.000,2500.7784759,N,12132.4629112,E,2,52,0.49,17.457,M,15.25,M,1,3335*4D
$GNRMC,094632.000,A,2500.7784759,N,12132.4629112,E,0.01,210.55,260623,,,D,V*0C
$GPHDT,,T*1B
$GNGGA,094632.200,2500.7784699,N,12132.4629292,E,2,52,0.49,17.463,M,15.25,M,1,3335*4E
$GNRMC,094632.200,A,2500.7784699,N,12132.4629292,E,0.01,210.55,260623,,,D,V*08
$GPHDT,,T*1B
$GNGGA,094632.400,2500.7784579,N,12132.4629532,E,2,52,0.49,17.468,M,15.25,M,1,3335*43
$GNRMC,094632.400,A,2500.7784579,N,12132.4629532,E,0.01,210.55,260623,,,D,V*0E
$GPHDT,,T*1B
$GNGGA,094632.600,2500.7784519,N,12132.4629772,E,2,52,0.49,17.476,M,15.25,M,1,3335*4E
$GNRMC,094632.600,A,2500.7784519,N,12132.4629772,E,0.01,210.55,260623,,,D,V*0C
$GPHDT,,T*1B
$GNGGA,094632.800,2500.7784519,N,12132.4630012,E,2,52,0.49,17.485,M,15.25,M,1,3335*45
$GNRMC,094632.800,A,2500.7784519,N,12132.4630012,E,0.02,210.55,260623,,,D,V*08
$GPHDT,,T*1B
$GNGSA,A,3,196,15,199,195,24,05,13,29,20,23,11,194,0.81,0.49,0.64,1*04
$GNGSA,A,3,18,,,,,,,,,,,,0.81,0.49,0.64,1*0E
$GNGSA,A,3,84,85,69,79,80,,,,,,,,0.81,0.49,0.64,2*0C
$GNGSA,A,3,08,15,13,03,34,,,,,,,,0.81,0.49,0.64,3*0F
$GNGSA,A,3,39,38,16,06,13,20,29,37,19,46,32,,0.81,0.49,0.64,4*06
$GPGSV,4,1,14,196,72,047,42,15,62,345,32,199,60,167,38,195,52,174,44,1*5D
$GPGSV,4,2,14,24,50,178,40,05,42,069,44,13,42,030,41,18,39,319,19,1*60
$GPGSV,4,3,14,41,38,242,32,29,27,232,45,20,25,096,36,23,17,307,18,1*64
$GPGSV,4,4,14,11,17,145,25,194,17,149,30,1*55
$GPGSV,2,1,08,196,72,047,44,199,60,167,47,195,52,174,47,24,50,178,42,8*5A
$GPGSV,2,2,08,18,39,319,27,23,17,307,16,194,17,149,23,11,17,145,19,8*55
$GLGSV,2,1,05,84,61,216,29,85,36,318,14,69,32,023,31,79,24,082,37,1*77
$GLGSV,2,2,05,80,19,138,26,1*43
$GAGSV,2,1,08,08,65,329,33,15,63,164,42,13,57,314,24,03,32,038,36,7*73
$GAGSV,2,2,08,07,31,256,26,34,13,150,22,02,08,121,,26,06,324,,7*75
$GAGSV,2,1,06,08,65,329,41,15,63,164,45,13,57,314,31,03,32,038,39,1*72
$GAGSV,2,2,06,07,31,256,26,34,13,150,16,1*75
$GBGSV,3,1,12,39,67,207,45,38,67,026,42,16,57,203,36,06,55,204,27,1*74
$GBGSV,3,2,12,13,51,342,20,20,51,004,20,29,47,253,46,37,33,091,37,1*73
$GBGSV,3,3,12,19,32,297,29,46,27,157,34,32,19,062,41,35,18,311,,1*7C
$GBGSV,2,1,07,39,67,207,45,38,67,026,43,20,51,004,34,29,47,253,43,4*7F
$GBGSV,2,2,07,37,33,091,34,46,27,157,35,32,19,062,37,4*44
$GNGGA,094633.000,2500.7784399,N,12132.4630252,E,2,53,0.49,17.490,M,15.25,M,2,3335*42
$GNRMC,094633.000,A,2500.7784399,N,12132.4630252,E,0.02,210.55,260623,,,D,V*09
$GPHDT,,T*1B
$GNGGA,094633.200,2500.7784339,N,12132.4630492,E,2,53,0.49,17.495,M,15.25,M,2,3335*45
$GNRMC,094633.200,A,2500.7784339,N,12132.4630492,E,0.03,210.55,260623,,,D,V*0A
$GPHDT,,T*1B
$GNGGA,094633.400,2500.7784159,N,12132.4630792,E,2,53,0.50,17.505,M,15.25,M,2,3335*44
$GNRMC,094633.400,A,2500.7784159,N,12132.4630792,E,0.01,210.55,260623,,,D,V*09
$GPHDT,,T*1B
$GNGGA,094633.600,2500.7784039,N,12132.4631092,E,2,52,0.50,17.516,M,15.25,M,2,3335*44
$GNRMC,094633.600,A,2500.7784039,N,12132.4631092,E,0.01,210.55,260623,,,D,V*0A
$GPHDT,,T*1B
$GNGGA,094633.800,2500.7783979,N,12132.4631392,E,2,51,0.51,17.525,M,15.25,M,2,3335*41
$GNRMC,094633.800,A,2500.7783979,N,12132.4631392,E,0.00,210.55,260623,,,D,V*0C
$GPHDT,,T*1B
$GNGSA,A,3,196,15,199,195,24,05,13,29,20,23,11,194,0.98,0.51,0.84,1*0B
$GNGSA,A,3,18,,,,,,,,,,,,0.98,0.51,0.84,1*01
$GNGSA,A,3,84,69,79,80,,,,,,,,,0.98,0.51,0.84,2*0E
$GNGSA,A,3,08,15,13,03,34,,,,,,,,0.98,0.51,0.84,3*00
$GNGSA,A,3,39,38,16,06,13,20,29,37,19,46,32,,0.98,0.51,0.84,4*09
$GPGSV,4,1,14,196,72,047,42,15,62,345,31,199,60,167,38,195,52,174,44,1*5E
$GPGSV,4,2,14,24,50,178,40,05,42,069,43,13,42,030,41,18,39,319,17,1*69
$GPGSV,4,3,14,41,38,242,32,29,27,232,45,20,25,096,37,23,17,307,18,1*65
$GPGSV,4,4,14,11,17,145,25,194,17,149,29,1*5D
$GPGSV,2,1,08,196,72,047,44,199,60,167,48,195,52,174,47,24,50,178,42,8*55
$GPGSV,2,2,08,18,39,319,29,23,17,307,18,194,17,149,24,11,17,145,18,8*53
$GLGSV,2,1,05,84,61,216,29,85,36,318,14,69,32,023,32,79,24,082,38,1*7B
$GLGSV,2,2,05,80,19,138,25,1*40
$GAGSV,2,1,08,08,65,329,33,15,63,164,42,13,57,314,23,03,32,038,38,7*7A
$GAGSV,2,2,08,07,31,256,25,34,13,150,21,02,08,121,,26,06,324,,7*75
$GAGSV,2,1,06,08,65,329,41,15,63,164,45,13,57,314,31,03,32,038,40,1*7C
$GAGSV,2,2,06,07,31,256,25,34,13,150,16,1*76
$GBGSV,3,1,12,39,67,207,45,38,67,026,42,16,57,203,36,06,55,204,28,1*7B
$GBGSV,3,2,12,13,51,342,21,20,51,004,21,29,47,253,46,37,33,091,46,1*75
$GBGSV,3,3,12,19,32,297,29,46,27,157,35,32,19,062,33,35,18,311,,1*78
$GBGSV,2,1,07,39,67,207,45,38,67,026,43,20,51,004,35,29,47,253,43,4*7E
$GBGSV,2,2,07,37,33,091,43,46,27,157,35,32,19,062,31,4*42
$GNGGA,094634.000,2500.7783799,N,12132.4631632,E,2,52,0.51,17.533,M,15.25,M,3,3335*44
$GNRMC,094634.000,A,2500.7783799,N,12132.4631632,E,0.00,210.55,260623,,,D,V*0C
$GPHDT,,T*1B
$GNGGA,094634.200,2500.7783619,N,12132.4631932,E,2,52,0.51,17.541,M,15.25,M,3,3335*45
$GNRMC,094634.200,A,2500.7783619,N,12132.4631932,E,0.01,210.55,260623,,,D,V*09
$GPHDT,,T*1B
$GNGGA,094634.400,2500.7783439,N,12132.4632172,E,2,52,0.51,17.549,M,15.25,M,3,3335*44
$GNRMC,094634.400,A,2500.7783439,N,12132.4632172,E,0.00,210.55,260623,,,D,V*01
$GPHDT,,T*1B
$GNGGA,094634.600,2500.7783319,N,12132.4632352,E,2,52,0.51,17.557,M,15.25,M,3,3335*4C
$GNRMC,094634.600,A,2500.7783319,N,12132.4632352,E,0.00,210.55,260623,,,D,V*06
$GPHDT,,T*1B
$GNGGA,094634.800,2500.7783199,N,12132.4632652,E,2,52,0.51,17.564,M,15.25,M,3,3335*4D
$GNRMC,094634.800,A,2500.7783199,N,12132.4632652,E,0.01,210.55,260623,,,D,V*06
$GPHDT,,T*1B
$GNGSA,A,3,196,15,199,195,24,05,13,29,20,23,194,11,0.98,0.51,0.84,1*0B
$GNGSA,A,3,18,,,,,,,,,,,,0.98,0.51,0.84,1*01
$GNGSA,A,3,84,69,79,80,,,,,,,,,0.98,0.51,0.84,2*0E
$GNGSA,A,3,08,15,13,03,34,,,,,,,,0.98,0.51,0.84,3*00
$GNGSA,A,3,39,38,16,06,13,20,29,37,19,46,32,,0.98,0.51,0.84,4*09
$GPGSV,4,1,14,196,72,047,42,15,62,345,33,199,60,167,38,195,52,174,44,1*5C
$GPGSV,4,2,14,24,50,178,40,05,42,069,45,13,42,030,41,18,39,319,17,1*6F
$GPGSV,4,3,14,41,38,242,31,29,27,232,45,20,25,096,38,23,17,307,18,1*69
$GPGSV,4,4,14,194,17,149,29,11,16,145,25,1*5C
$GPGSV,2,1,08,196,72,047,44,199,60,167,48,195,52,174,47,24,50,178,42,8*55
$GPGSV,2,2,08,18,39,319,29,23,17,307,18,194,17,149,25,11,16,145,18,8*53
$GLGSV,2,1,05,84,61,216,29,85,36,318,14,69,32,023,32,79,24,082,40,1*74
$GLGSV,2,2,05,80,19,138,25,1*40
$GAGSV,2,1,08,08,65,329,33,15,63,164,42,13,57,314,22,03,32,038,35,7*76
$GAGSV,2,2,08,07,31,256,25,34,13,150,22,02,08,121,,26,06,324,,7*76
$GAGSV,2,1,06,08,65,329,41,15,63,164,45,13,57,314,31,03,32,038,36,1*7D
$GAGSV,2,2,06,07,31,256,26,34,13,150,16,1*75
$GBGSV,3,1,12,39,67,207,45,38,67,026,42,16,57,203,36,06,55,204,28,1*7B
$GBGSV,3,2,12,13,51,342,20,20,51,004,22,29,47,253,46,37,33,091,45,1*74
$GBGSV,3,3,12,19,32,297,28,46,27,157,35,32,19,062,34,35,18,311,,1*7E
$GBGSV,2,1,07,39,67,207,45,38,67,026,43,20,51,004,35,29,47,253,43,4*7E
$GBGSV,2,2,07,37,33,091,43,46,27,157,35,32,19,062,30,4*43
$GNGGA,094635.000,2500.7783019,N,12132.4632832,E,2,52,0.51,17.572,M,15.25,M,4,3335*45
$GNRMC,094635.000,A,2500.7783019,N,12132.4632832,E,0.00,210.55,260623,,,D,V*0F
$GPHDT,,T*1B
$GNGGA,094635.200,2500.7782959,N,12132.4633072,E,2,52,0.51,17.581,M,15.25,M,4,3335*4A
$GNRMC,094635.200,A,2500.7782959,N,12132.4633072,E,0.01,210.55,260623,,,D,V*0D
$GPHDT,,T*1B
$GNGGA,094635.400,2500.7782839,N,12132.4633252,E,2,51,0.51,17.589,M,15.25,M,4,3335*40
$GNRMC,094635.400,A,2500.7782839,N,12132.4633252,E,0.00,210.55,260623,,,D,V*0D
$GPHDT,,T*1B
$GNGGA,094635.600,2500.7782779,N,12132.4633432,E,2,52,0.51,17.597,M,15.25,M,4,3335*45
$GNRMC,094635.600,A,2500.7782779,N,12132.4633432,E,0.00,210.55,260623,,,D,V*04
$GPHDT,,T*1B
$GNGGA,094635.800,2500.7782719,N,12132.4633552,E,2,52,0.51,17.603,M,15.25,M,4,3335*44
$GNRMC,094635.800,A,2500.7782719,N,12132.4633552,E,0.00,210.55,260623,,,D,V*0B
$GPHDT,,T*1B
$GNGSA,A,3,196,15,199,195,24,05,13,29,20,23,194,11,0.98,0.51,0.84,1*0B
$GNGSA,A,3,18,,,,,,,,,,,,0.98,0.51,0.84,1*01
$GNGSA,A,3,84,69,79,80,,,,,,,,,0.98,0.51,0.84,2*0E
$GNGSA,A,3,08,15,13,03,34,,,,,,,,0.98,0.51,0.84,3*00
$GNGSA,A,3,38,39,16,06,13,20,29,37,19,46,32,,0.98,0.51,0.84,4*09
$GPGSV,4,1,14,196,72,047,42,15,62,346,34,199,60,167,38,195,52,174,44,1*58
$GPGSV,4,2,14,24,50,178,40,05,42,069,45,13,41,031,41,18,39,319,16,1*6C
$GPGSV,4,3,14,41,38,242,31,29,27,232,45,20,25,096,39,23,17,307,18,1*68
$GPGSV,4,4,14,194,17,149,29,11,16,145,25,1*5C
$GPGSV,2,1,08,196,72,047,44,199,60,167,48,195,52,174,47,24,50,178,42,8*55
$GPGSV,2,2,08,18,39,319,29,23,17,307,18,194,17,149,24,11,16,145,18,8*52
$GLGSV,2,1,07,84,61,216,29,85,36,318,11,69,32,023,31,79,24,082,40,1*70
$GLGSV,2,2,07,80,19,138,25,78,05,036,,71,04,265,,1*4E
$GAGSV,2,1,08,08,65,329,33,15,63,164,42,13,57,314,23,03,32,038,35,7*77
$GAGSV,2,2,08,07,31,256,25,34,13,150,21,26,06,324,,25,02,076,,7*79
$GAGSV,2,1,06,08,65,329,41,15,63,164,45,13,57,314,31,03,32,038,36,1*7D
$GAGSV,2,2,06,07,31,256,26,34,13,150,15,1*76
$GBGSV,4,1,13,38,67,026,42,39,67,207,45,16,57,203,36,06,55,204,29,1*7C
$GBGSV,4,2,13,13,51,342,19,20,51,004,25,29,47,253,46,37,33,091,45,1*7F
$GBGSV,4,3,13,19,32,297,27,46,27,157,35,32,19,062,39,35,18,311,,1*7A
$GBGSV,4,4,13,23,06,046,,1*41
$GBGSV,2,1,07,39,67,207,45,38,67,026,43,20,51,004,35,29,47,253,43,4*7E
$GBGSV,2,2,07,37,33,091,43,46,27,157,35,32,19,062,37,4*44
$GNGGA,094636.000,2500.7782659,N,12132.4633732,E,2,52,0.51,17.610,M,15.25,M,5,3335*4D
$GNRMC,094636.000,A,2500.7782659,N,12132.4633732,E,0.00,210.55,260623,,,D,V*01
$GPHDT,,T*1B
$GNGGA,094636.200,2500.7782599,N,12132.4633912,E,2,52,0.51,17.614,M,15.25,M,5,3335*48
$GNRMC,094636.200,A,2500.7782599,N,12132.4633912,E,0.00,210.55,260623,,,D,V*00
$GPHDT,,T*1B
$GNGGA,094636.400,2500.7782479,N,12132.4634092,E,2,52,0.51,17.627,M,15.25,M,5,3335*47
$GNRMC,094636.400,A,2500.7782479,N,12132.4634092,E,0.00,210.55,260623,,,D,V*0F
$GPHDT,,T*1B
$GNGGA,094636.600,2500.7782479,N,12132.4634212,E,2,52,0.51,17.632,M,15.25,M,5,3335*4B
$GNRMC,094636.600,A,2500.7782479,N,12132.4634212,E,0.00,210.55,260623,,,D,V*07
$GPHDT,,T*1B
$GNGGA,094636.800,2500.7782419,N,12132.4634332,E,2,52,0.51,17.637,M,15.25,M,5,3335*45
$GNRMC,094636.800,A,2500.7782419,N,12132.4634332,E,0.00,210.55,260623,,,D,V*0C
$GPHDT,,T*1B
$GNGSA,A,3,196,15,199,195,24,05,13,29,20,23,194,11,0.98,0.51,0.84,1*0B
$GNGSA,A,3,18,,,,,,,,,,,,0.98,0.51,0.84,1*01
$GNGSA,A,3,84,69,79,80,,,,,,,,,0.98,0.51,0.84,2*0E
$GNGSA,A,3,08,15,13,03,34,,,,,,,,0.98,0.51,0.84,3*00
$GNGSA,A,3,38,39,16,06,13,20,29,37,19,46,32,,0.98,0.51,0.84,4*09
$GPGSV,4,1,14,196,72,047,42,15,62,346,33,199,60,167,38,195,52,174,44,1*5F
$GPGSV,4,2,14,24,50,178,40,05,42,069,45,13,41,031,41,18,39,319,15,1*6F
$GPGSV,4,3,14,41,38,242,31,29,27,232,45,20,25,096,39,23,17,307,18,1*68
$GPGSV,4,4,14,194,17,149,29,11,16,145,26,1*5F
$GPGSV,2,1,08,196,72,047,44,199,60,167,48,195,52,174,47,24,50,178,42,8*55
$GPGSV,2,2,08,18,39,319,29,23,17,307,18,194,17,149,23,11,16,145,18,8*55
$GLGSV,2,1,06,84,61,216,29,85,36,318,14,69,32,023,31,79,24,082,40,1*74
$GLGSV,2,2,06,80,19,138,24,78,05,036,,1*7D
$GAGSV,3,1,09,08,65,329,33,15,63,164,42,13,57,314,22,03,32,038,35,7*76
$GAGSV,3,2,09,07,31,256,25,34,13,150,22,26,06,324,,25,02,076,,7*7A
$GAGSV,3,3,09,30,02,168,,7*44
$GAGSV,2,1,06,08,65,329,41,15,63,164,45,13,57,314,31,03,32,038,37,1*7C
$GAGSV,2,2,06,07,31,256,26,34,13,150,14,1*77
$GBGSV,3,1,12,38,67,026,42,39,67,207,45,16,57,203,36,06,55,204,29,1*7A
$GBGSV,3,2,12,13,51,342,20,20,51,004,26,29,47,253,46,37,33,091,45,1*70
$GBGSV,3,3,12,19,32,297,27,46,27,157,35,32,19,062,40,35,18,311,,1*72
$GBGSV,2,1,07,39,67,207,45,38,67,026,43,20,51,004,35,29,47,253,43,4*7E
$GBGSV,2,2,07,37,33,091,43,46,27,157,35,32,19,062,37,4*44
$GNGGA,094637.000,2500.7782419,N,12132.4634452,E,2,52,0.51,17.638,M,15.25,M,6,3335*41
$GNRMC,094637.000,A,2500.7782419,N,12132.4634452,E,0.00,210.55,260623,,,D,V*04
$GPHDT,,T*1B
$GNGGA,094637.200,2500.7782419,N,12132.4634632,E,2,52,0.51,17.646,M,15.25,M,6,3335*4E
$GNRMC,094637.200,A,2500.7782419,N,12132.4634632,E,0.00,210.55,260623,,,D,V*02
$GPHDT,,T*1B
$GNGGA,094637.400,2500.7782419,N,12132.4634752,E,2,52,0.51,17.650,M,15.25,M,6,3335*48
$GNRMC,094637.400,A,2500.7782419,N,12132.4634752,E,0.00,210.55,260623,,,D,V*03
$GPHDT,,T*1B
$GNGGA,094637.600,2500.7782419,N,12132.4634872,E,2,52,0.51,17.653,M,15.25,M,4,3335*46
$GNRMC,094637.600,A,2500.7782419,N,12132.4634872,E,0.00,210.55,260623,,,D,V*0C
$GPHDT,,T*1B
$GNGGA,094637.800,2500.7782419,N,12132.4635052,E,2,52,0.51,17.657,M,15.25,M,2,3335*41
$GNRMC,094637.800,A,2500.7782419,N,12132.4635052,E,0.00,210.55,260623,,,D,V*09
$GPHDT,,T*1B
$GNGSA,A,3,196,15,199,195,24,05,13,29,20,23,194,11,0.98,0.51,0.84,1*0B
$GNGSA,A,3,18,,,,,,,,,,,,0.98,0.51,0.84,1*01
$GNGSA,A,3,84,69,79,80,,,,,,,,,0.98,0.51,0.84,2*0E
$GNGSA,A,3,08,15,13,03,34,,,,,,,,0.98,0.51,0.84,3*00
$GNGSA,A,3,39,38,16,06,20,13,29,37,19,46,32,,0.98,0.51,0.84,4*09
$GPGSV,4,1,14,196,72,047,42,15,62,346,33,199,60,167,38,195,52,174,44,1*5F
$GPGSV,4,2,14,24,50,178,40,05,42,069,45,13,41,031,41,18,39,319,14,1*6E
$GPGSV,4,3,14,41,38,242,31,29,27,232,45,20,25,096,39,23,17,308,18,1*67
$GPGSV,4,4,14,194,17,149,29,11,16,145,26,1*5F
$GPGSV,2,1,08,196,72,047,44,199,60,167,48,195,52,174,47,24,50,178,42,8*55
$GPGSV,2,2,08,18,39,319,28,23,17,308,18,194,17,149,23,11,16,145,20,8*50
$GLGSV,2,1,05,84,61,216,29,85,36,318,13,69,32,023,30,79,24,082,40,1*71
$GLGSV,2,2,05,80,19,138,24,1*41
$GAGSV,3,1,09,08,65,329,33,15,63,164,42,13,57,314,20,03,32,038,36,7*77
$GAGSV,3,2,09,07,31,256,25,34,13,150,23,26,06,324,,30,02,168,,7*71
$GAGSV,3,3,09,25,02,076,,7*4E
$GAGSV,2,1,06,08,65,329,40,15,63,164,45,13,57,314,31,03,32,038,38,1*72
$GAGSV,2,2,06,07,31,256,25,34,13,150,15,1*75
$GBGSV,3,1,12,39,67,207,45,38,67,026,42,16,57,203,36,06,55,204,29,1*7A
$GBGSV,3,2,12,20,51,004,26,13,51,342,22,29,47,253,46,37,33,091,45,1*72
$GBGSV,3,3,12,19,32,297,26,46,27,157,35,32,19,062,40,35,18,311,,1*73
$GBGSV,2,1,07,39,67,207,45,38,67,026,43,20,51,004,34,29,47,253,43,4*7F
$GBGSV,2,2,07,37,33,091,43,46,27,157,35,32,19,062,35,4*46
$GNGGA,094638.000,2500.7782419,N,12132.4635172,E,2,52,0.51,17.654,M,15.25,M,3,3335*47
$GNRMC,094638.000,A,2500.7782419,N,12132.4635172,E,0.00,210.55,260623,,,D,V*0D
$GPHDT,,T*1B
$GNGGA,094638.200,2500.7782479,N,12132.4635292,E,2,52,0.51,17.656,M,15.25,M,1,3335*4E
$GNRMC,094638.200,A,2500.7782479,N,12132.4635292,E,0.00,210.55,260623,,,D,V*04
$GPHDT,,T*1B
$GNGGA,094638.400,2500.7782479,N,12132.4635352,E,2,52,0.51,17.659,M,15.25,M,1,3335*4A
$GNRMC,094638.400,A,2500.7782479,N,12132.4635352,E,0.00,210.55,260623,,,D,V*0F
$GPHDT,,T*1B
$GNGGA,094638.600,2500.7782419,N,12132.4635472,E,2,52,0.51,17.664,M,15.25,M,1,3335*45
$GNRMC,094638.600,A,2500.7782419,N,12132.4635472,E,0.00,210.55,260623,,,D,V*0E
$GPHDT,,T*1B
$GNGGA,094638.800,2500.7782419,N,12132.4635592,E,2,52,0.51,17.668,M,15.25,M,1,3335*48
$GNRMC,094638.800,A,2500.7782419,N,12132.4635592,E,0.00,210.55,260623,,,D,V*0F
$GPHDT,,T*1B
$GNGSA,A,3,196,15,199,195,24,05,13,29,20,23,194,11,0.98,0.51,0.84,1*0B
$GNGSA,A,3,18,,,,,,,,,,,,0.98,0.51,0.84,1*01
$GNGSA,A,3,84,69,79,80,,,,,,,,,0.98,0.51,0.84,2*0E
$GNGSA,A,3,08,15,13,03,34,,,,,,,,0.98,0.51,0.84,3*00
$GNGSA,A,3,39,38,16,06,20,13,29,37,19,46,32,,0.98,0.51,0.84,4*09
$GPGSV,4,1,14,196,72,047,42,15,62,346,33,199,60,167,38,195,52,174,44,1*5F
$GPGSV,4,2,14,24,50,178,40,05,42,069,45,13,41,031,41,18,39,319,15,1*6F
$GPGSV,4,3,14,41,38,242,32,29,27,231,45,20,25,096,39,23,17,308,18,1*67
$GPGSV,4,4,14,194,17,149,29,11,16,145,25,1*5C
$GPGSV,2,1,08,196,72,047,44,199,60,167,48,195,52,174,47,24,50,178,42,8*55
$GPGSV,2,2,08,18,39,319,28,23,17,308,18,194,17,149,24,11,16,145,20,8*57
$GLGSV,2,1,05,84,61,216,29,85,36,318,15,69,32,023,29,79,24,082,40,1*7F
$GLGSV,2,2,05,80,19,138,24,1*41
$GAGSV,3,1,09,08,65,329,33,15,63,164,42,13,57,314,20,03,32,038,36,7*77
$GAGSV,3,2,09,07,31,256,25,34,13,150,23,26,06,324,,30,02,168,,7*71
$GAGSV,3,3,09,25,02,076,,7*4E
$GAGSV,2,1,06,08,65,329,40,15,63,164,45,13,57,314,31,03,32,038,38,1*72
$GAGSV,2,2,06,07,31,256,25,34,13,150,14,1*74
$GBGSV,3,1,12,39,67,207,45,38,67,026,42,16,57,203,36,06,55,204,29,1*7A
$GBGSV,3,2,12,20,51,004,27,13,51,342,22,29,47,253,46,37,33,091,45,1*73
$GBGSV,3,3,12,19,32,297,26,46,27,157,35,32,19,062,41,35,18,311,,1*72
$GBGSV,2,1,07,39,67,207,45,38,67,026,43,20,51,004,34,29,47,253,43,4*7F
$GBGSV,2,2,07,37,33,091,43,46,27,157,35,32,19,062,36,4*45
$GNGGA,094639.000,2500.7782359,N,12132.4635712,E,2,52,0.51,17.679,M,15.25,M,2,3335*4B
$GNRMC,094639.000,A,2500.7782359,N,12132.4635712,E,0.00,210.55,260623,,,D,V*0F
$GPHDT,,T*1B
$GNGGA,094639.200,2500.7782359,N,12132.4635772,E,2,52,0.51,17.686,M,15.25,M,2,3335*4F
$GNRMC,094639.200,A,2500.7782359,N,12132.4635772,E,0.00,210.55,260623,,,D,V*0B
$GPHDT,,T*1B
$GNGGA,094639.400,2500.7782419,N,12132.4635832,E,2,52,0.51,17.697,M,15.25,M,1,3335*42
$GNRMC,094639.400,A,2500.7782419,N,12132.4635832,E,0.00,210.55,260623,,,D,V*05
$GPHDT,,T*1B
$GNGGA,094639.600,2500.7782299,N,12132.4635952,E,2,52,0.51,17.707,M,15.25,M,1,3335*41
$GNRMC,094639.600,A,2500.7782299,N,12132.4635952,E,0.00,210.55,260623,,,D,V*0E
$GPHDT,,T*1B
$GNGGA,094639.800,2500.7782299,N,12132.4636072,E,2,52,0.51,17.714,M,15.25,M,1,3335*45
$GNRMC,094639.800,A,2500.7782299,N,12132.4636072,E,0.00,210.55,260623,,,D,V*08
$GPHDT,,T*1B
$GNGSA,A,3,196,15,199,195,24,05,13,29,20,23,194,11,0.98,0.51,0.84,1*0B
$GNGSA,A,3,18,,,,,,,,,,,,0.98,0.51,0.84,1*01
$GNGSA,A,3,84,69,79,80,,,,,,,,,0.98,0.51,0.84,2*0E
$GNGSA,A,3,08,15,13,03,34,,,,,,,,0.98,0.51,0.84,3*00
$GNGSA,A,3,39,38,16,06,13,20,29,37,19,46,32,,0.98,0.51,0.84,4*09
$GPGSV,4,1,14,196,72,047,42,15,62,346,33,199,60,167,38,195,52,174,44,1*5F
$GPGSV,4,2,14,24,50,178,40,05,42,069,45,13,41,031,41,18,39,319,14,1*6E
$GPGSV,4,3,14,41,38,242,32,29,27,231,45,20,25,096,40,23,17,308,16,1*67
$GPGSV,4,4,14,194,17,149,29,11,16,145,26,1*5F
$GPGSV,2,1,08,196,72,047,44,199,60,167,48,195,52,174,47,24,50,178,42,8*55
$GPGSV,2,2,08,18,39,319,28,23,17,308,18,194,17,149,24,11,16,145,19,8*5D
$GLGSV,2,1,05,84,61,216,30,85,36,318,15,69,32,023,28,79,24,082,40,1*76
$GLGSV,2,2,05,80,19,138,25,1*40
$GAGSV,2,1,08,08,65,329,34,15,63,164,42,13,57,314,20,03,32,038,36,7*70
$GAGSV,2,2,08,07,31,256,25,34,13,150,23,25,02,076,,30,02,168,,7*72
$GAGSV,2,1,06,08,65,329,40,15,63,164,45,13,57,314,31,03,32,038,38,1*72
$GAGSV,2,2,06,07,31,256,25,34,13,150,15,1*75
$GBGSV,3,1,12,39,67,207,45,38,67,026,42,16,57,203,36,06,55,204,29,1*7A
$GBGSV,3,2,12,13,51,342,22,20,51,004,30,29,47,253,46,37,33,091,45,1*75
$GBGSV,3,3,12,19,32,297,25,46,27,157,34,32,19,062,41,35,18,311,,1*70
$GBGSV,2,1,07,39,67,207,45,38,67,026,43,20,51,004,34,29,47,253,43,4*7F
$GBGSV,2,2,07,37,33,091,43,46,27,157,35,32,19,062,37,4*44
$GNGGA,094640.000,2500.7782299,N,12132.4636132,E,2,52,0.51,17.722,M,15.25,M,2,3335*40
$GNRMC,094640.000,A,2500.7782299,N,12132.4636132,E,0.00,210.55,260623,,,D,V*0B
$GPHDT,,T*1B
$GNGGA,094640.200,2500.7782299,N,12132.4636252,E,2,52,0.51,17.735,M,15.25,M,2,3335*41
$GNRMC,094640.200,A,2500.7782299,N,12132.4636252,E,0.00,210.55,260623,,,D,V*0C
$GPHDT,,T*1B
$GNGGA,094640.400,2500.7782179,N,12132.4636372,E,2,52,0.51,17.744,M,15.25,M,2,3335*4F
$GNRMC,094640.400,A,2500.7782179,N,12132.4636372,E,0.00,210.55,260623,,,D,V*04
$GPHDT,,T*1B
$GNGGA,094640.600,2500.7782239,N,12132.4636432,E,2,52,0.51,17.757,M,15.25,M,2,3335*4B
$GNRMC,094640.600,A,2500.7782239,N,12132.4636432,E,0.00,210.55,260623,,,D,V*02
$GPHDT,,T*1B
$GNGGA,094640.800,2500.7782239,N,12132.4636492,E,2,52,0.51,17.767,M,15.25,M,2,3335*4C
$GNRMC,094640.800,A,2500.7782239,N,12132.4636492,E,0.00,210.55,260623,,,D,V*06
$GPHDT,,T*1B
$GNGSA,A,3,196,15,199,195,24,05,13,29,20,23,194,11,0.98,0.51,0.84,1*0B
$GNGSA,A,3,18,,,,,,,,,,,,0.98,0.51,0.84,1*01
$GNGSA,A,3,84,69,79,80,,,,,,,,,0.98,0.51,0.84,2*0E
$GNGSA,A,3,08,15,13,03,34,,,,,,,,0.98,0.51,0.84,3*00
$GNGSA,A,3,39,38,16,06,13,20,29,37,19,46,32,,0.98,0.51,0.84,4*09
$GPGSV,4,1,14,196,72,047,42,15,62,346,33,199,60,167,38,195,52,174,44,1*5F
$GPGSV,4,2,14,24,50,178,40,05,42,069,45,13,41,031,41,18,39,319,14,1*6E
$GPGSV,4,3,14,41,38,242,32,29,27,231,45,20,25,096,40,23,17,308,16,1*67
$GPGSV,4,4,14,194,17,149,29,11,16,145,27,1*5E
$GPGSV,2,1,08,196,72,047,44,199,60,167,48,195,52,174,47,24,50,178,42,8*55
$GPGSV,2,2,08,18,39,319,28,23,17,308,18,194,17,149,24,11,16,145,19,8*5D
$GLGSV,2,1,05,84,61,216,30,85,36,318,16,69,32,023,24,79,24,082,40,1*79
$GLGSV,2,2,05,80,19,138,25,1*40
$GAGSV,2,1,08,08,65,329,34,15,63,164,42,13,57,314,21,03,32,038,36,7*71
$GAGSV,2,2,08,07,31,256,26,34,13,150,23,25,02,076,,30,02,168,,7*71
$GAGSV,2,1,06,08,65,329,40,15,63,164,45,13,57,314,31,03,32,038,38,1*72
$GAGSV,2,2,06,07,31,256,25,34,13,150,14,1*74
$GBGSV,3,1,12,39,67,207,45,38,67,026,42,16,57,203,36,06,55,204,29,1*7A
$GBGSV,3,2,12,13,51,342,22,20,51,004,28,29,47,253,46,37,33,091,45,1*7C
$GBGSV,3,3,12,19,32,297,25,46,27,157,34,32,19,062,40,35,18,311,,1*71
$GBGSV,2,1,07,39,67,207,45,38,67,026,43,20,51,004,35,29,47,253,43,4*7E
$GBGSV,2,2,07,37,33,091,43,46,27,157,35,32,19,062,37,4*44
$GNGGA,094641.000,2500.7782179,N,12132.4636612,E,2,52,0.51,17.780,M,15.25,M,3,3335*40
$GNRMC,094641.000,A,2500.7782179,N,12132.4636612,E,0.00,210.55,260623,,,D,V*02
$GPHDT,,T*1B
$GNGGA,094641.200,2500.7782179,N,12132.4636672,E,2,52,0.51,17.794,M,15.25,M,1,3335*43
$GNRMC,094641.200,A,2500.7782179,N,12132.4636672,E,0.00,210.55,260623,,,D,V*06
$GPHDT,,T*1B
$GNGGA,094641.400,2500.7782179,N,12132.4636732,E,2,52,0.51,17.799,M,15.25,M,1,3335*4D
$GNRMC,094641.400,A,2500.7782179,N,12132.4636732,E,0.00,210.55,260623,,,D,V*05
$GPHDT,,T*1B
$GNGGA,094641.600,2500.7782239,N,12132.4636792,E,2,52,0.51,17.810,M,15.25,M,1,3335*4C
$GNRMC,094641.600,A,2500.7782239,N,12132.4636792,E,0.00,210.55,260623,,,D,V*0A
$GPHDT,,T*1B
$GNGGA,094641.800,2500.7782179,N,12132.4636912,E,2,52,0.51,17.818,M,15.25,M,1,3335*4B
$GNRMC,094641.800,A,2500.7782179,N,12132.4636912,E,0.00,210.55,260623,,,D,V*05
