$FW : RTK35X,V1.1X0314AS,Lib20210517,1*54
$Tool : LOCOSYS , GNSS Firebird , v1.0.0.19*39
$---------------------------------------------------*2D
5*4B
$GNRMC,041029.200,A,2500.7814320,N,12132.4519473,E,0.02,317.42,090324,,,R,V*1E
$GPHDT,,T*1B
$GNACCURACY,2.7*13
$GNGGA,041029.300,2500.7814332,N,12132.4519454,E,4,55,0.50,16.637,M,15.25,M,1,3335*4E
$GNRMC,041029.300,A,2500.7814332,N,12132.4519454,E,0.02,317.42,090324,,,R,V*19
$GPHDT,,T*1B
$GNACCURACY,2.7*13
$GNGGA,041029.400,2500.7814416,N,12132.4519446,E,4,55,0.50,16.649,M,15.25,M,1,3335*42
$GNRMC,041029.400,A,2500.7814416,N,12132.4519446,E,0.03,317.42,090324,,,R,V*1D
$GPHDT,,T*1B
$GNACCURACY,2.7*13
$GNGGA,041029.500,2500.7814424,N,12132.4519435,E,4,55,0.50,16.649,M,15.25,M,0,3335*47
$GNRMC,041029.500,A,2500.7814424,N,12132.4519435,E,0.03,317.42,090324,,,R,V*19
$GPHDT,,T*1B
$GNACCURACY,2.7*13
$GNGGA,041029.600,2500.7814357,N,12132.4519452,E,4,55,0.50,16.653,M,15.25,M,0,3335*4D
$GNRMC,041029.600,A,2500.7814357,N,12132.4519452,E,0.03,317.42,090324,,,R,V*18
$GPHDT,,T*1B
$GNACCURACY,2.7*13
$GNGGA,041029.700,2500.7814375,N,12132.4519465,E,4,55,0.50,16.654,M,15.25,M,0,3335*4F
$GNRMC,041029.700,A,2500.7814375,N,12132.4519465,E,0.03,317.42,090324,,,R,V*1D
$GPHDT,,T*1B
$GNACCURACY,2.8*1C
$GNGGA,041029.800,2500.7814314,N,12132.4519446,E,4,55,0.50,16.647,M,15.25,M,0,3335*44
$GNRMC,041029.800,A,2500.7814314,N,12132.4519446,E,0.03,317.42,090324,,,R,V*14
$GPHDT,,T*1B
$GNACCURACY,2.7*13
$GNGGA,041029.900,2500.7814360,N,12132.4519480,E,4,55,0.50,16.659,M,15.25,M,0,3335*43
$GNRMC,041029.900,A,2500.7814360,N,12132.4519480,E,0.02,317.42,090324,,,R,V*1D
$GPHDT,,T*1B
$GNACCURACY,2.7*13
$GNGGA,041030.000,2500.7814327,N,12132.4519482,E,4,55,0.50,16.647,M,15.25,M,1,3335*4D
$GNRMC,041030.000,A,2500.7814327,N,12132.4519482,E,0.03,317.42,090324,,,R,V*1C
$GPHDT,,T*1B
$GNACCURACY,2.7*13
$GNGGA,041030.100,2500.7814333,N,12132.4519461,E,4,55,0.50,16.647,M,15.25,M,1,3335*44
$GNRMC,041030.100,A,2500.7814333,N,12132.4519461,E,0.03,317.42,090324,,,R,V*15
$GPHDT,,T*1B
$GNGSA,A,3,195,194,08,21,199,02,07,27,16,09,196,04,0.76,0.50,0.58,1*07
$GNGSA,A,3,30,,,,,,,,,,,,0.76,0.50,0.58,1*0B
$GNGSA,A,3,81,78,88,79,77,,,,,,,,0.76,0.50,0.58,2*03
$GNGSA,A,3,21,13,26,27,15,,,,,,,,0.76,0.50,0.58,3*0E
$GNGSA,A,3,23,09,06,16,07,40,39,28,10,25,37,34,0.76,0.50,0.58,4*02
$GPGSV,4,1,15,195,65,114,42,194,64,052,33,08,62,356,42,21,61,155,34,1*68
$GPGSV,4,2,15,50,60,167,23,199,60,167,16,02,49,176,32,07,42,316,38,1*54
$GPGSV,4,3,15,27,32,036,29,16,27,076,26,09,23,246,17,196,19,169,23,1*5D
$GPGSV,4,4,15,04,17,202,21,30,12,320,36,26,08,100,17,1*5E
$GPGSV,3,1,09,195,65,114,36,194,64,052,35,08,62,356,43,27,32,036,27,8*69
$GPGSV,3,2,09,09,23,246,27,196,19,169,22,04,17,202,16,30,12,320,36,8*51
$GPGSV,3,3,09,26,08,100,16,8*5E
$GLGSV,2,1,06,81,65,201,37,78,57,039,29,88,55,031,17,79,26,334,40,1*72
$GLGSV,2,2,06,77,23,111,25,87,02,026,,1*70
$GAGSV,2,1,07,21,55,012,25,13,54,080,34,26,44,172,21,27,28,080,36,7*7D
$GAGSV,2,2,07,19,27,240,,15,13,038,34,33,04,199,,7*40
$GAGSV,2,1,05,21,55,012,33,13,54,080,33,26,44,172,22,27,28,080,35,1*79
$GAGSV,2,2,05,15,13,038,16,1*4A
$GBGSV,4,1,13,23,74,033,38,09,73,265,41,06,71,214,38,16,68,199,35,1*73
$GBGSV,4,2,13,07,60,308,37,40,60,329,40,43,58,036,,39,57,187,38,1*70
$GBGSV,4,3,13,28,56,222,42,10,51,290,35,25,37,118,39,37,30,322,42,1*75
$GBGSV,4,4,13,34,11,040,39,1*4D
$GBGSV,2,1,07,23,74,033,37,40,60,329,41,39,57,187,22,28,56,222,35,4*75
$GBGSV,2,2,07,25,37,118,35,37,30,322,35,34,11,040,31,4*4A
$GNACCURACY,2.7*13
$PAIRSAT,1,35,2,0,201,3,0,200,4,0,221,5,0,200,6,0,200,7,0,201,8,0,221,9,0,220,10,0,200,11,0,200,12,0,200,13,0,200,14,0,200,15,0,200,16,0,201,17,0,200,18,0,200,19,0,200,20,0,200,21,0,201,22,0,200,23,0,200,24,0,200,25,0,200,26,0,220,27,0,221,28,0,200,29,0,200,30,0,221,31,0,200,32,0,200,194,0,621,195,0,621,196,0,620,199,0,621*5A
$PAIRSAT,2,24,65,0,200,66,0,200,67,0,200,68,0,200,69,0,200,70,0,200,71,0,200,72,0,200,73,0,200,74,0,200,75,0,200,76,0,200,77,0,201,78,0,201,79,0,201,80,0,200,81,0,201,82,0,200,83,0,200,84,0,200,85,0,200,86,0,200,87,0,201,88,0,201*7A
$PAIRSAT,3,23,2,0,1200,3,0,1200,4,0,1200,5,0,200,7,0,1200,8,0,1200,9,0,1200,10,0,1200,11,0,1200,12,0,1200,13,0,1221,15,0,1220,19,0,1201,21,0,1221,24,0,1200,25,0,1200,26,0,1221,27,0,1221,30,0,1200,31,0,1200,33,0,1200,34,0,1000,36,0,1200*6B
$PAIRSAT,4,46,1,0,200,2,0,200,3,0,600,4,0,200,5,0,200,6,0,201,7,0,201,8,0,200,9,0,201,10,0,201,11,0,200,12,0,200,13,0,200,14,0,200,16,0,201,19,0,600,20,0,600,21,0,600,22,0,600,23,0,621,24,0,600,25,0,621,26,0,600,27,0,600,28,0,621,29,0,600,30,0,600,32,0,600,33,0,600,34,0,621,35,0,600,36,0,600,37,0,621,38,0,600,39,0,621,40,0,621,41,0,600,42,0,400,43,0,421,44,0,400,45,0,400,46,0,400,59,0,400,60,0,400,61,0,400,62,0,400*4A
$PAIRDGP,10,2,4,7,8,9,16,21,26,27,30*42
$GNGGA,041030.200,2500.7814276,N,12132.4519428,E,4,55,0.50,16.628,M,15.25,M,1,3335*43
$GNRMC,041030.200,A,2500.7814276,N,12132.4519428,E,0.03,317.42,090324,,,R,V*1B
$GPHDT,,T*1B
$GNACCURACY,2.7*13
$GNGGA,041030.300,2500.7814359,N,12132.4519492,E,4,55,0.50,16.669,M,15.25,M,1,3335*4A
$GNRMC,041030.300,A,2500.7814359,N,12132.4519492,E,0.03,317.42,090324,,,R,V*17
$GPHDT,,T*1B
$GNACCURACY,2.7*13
$GNGGA,041030.400,2500.7814451,N,12132.4519534,E,4,56,0.50,16.704,M,15.25,M,1,3335*46
$GNRMC,041030.400,A,2500.7814451,N,12132.4519534,E,0.03,317.42,090324,,,R,V*12
$GPHDT,,T*1B
$GNACCURACY,2.7*13
$GNGGA,041030.500,2500.7814382,N,12132.4519530,E,4,55,0.51,16.691,M,15.25,M,1,3335*45
$GNRMC,041030.500,A,2500.7814382,N,12132.4519530,E,0.03,317.42,090324,,,R,V*1E
$GPHDT,,T*1B
$GNACCURACY,2.7*13
$GNGGA,041030.600,2500.7814368,N,12132.4519463,E,4,55,0.51,16.699,M,15.25,M,0,3335*4C
$GNRMC,041030.600,A,2500.7814368,N,12132.4519463,E,0.03,317.42,090324,,,R,V*1E
$GPHDT,,T*1B
$GNACCURACY,2.7*13
$GNGGA,041030.700,2500.7814268,N,12132.4519369,E,4,55,0.51,16.690,M,15.25,M,0,3335*48
$GNRMC,041030.700,A,2500.7814268,N,12132.4519369,E,0.03,317.42,090324,,,R,V*13
$GPHDT,,T*1B
$GNACCURACY,2.7*13
$GNGGA,041030.800,2500.7814255,N,12132.4519359,E,4,55,0.51,16.688,M,15.25,M,0,3335*43
$GNRMC,041030.800,A,2500.7814255,N,12132.4519359,E,0.03,317.42,090324,,,R,V*11
$GPHDT,,T*1B
$GNACCURACY,2.7*13
$GNGGA,041030.900,2500.7814286,N,12132.4519382,E,4,56,0.50,16.699,M,15.25,M,0,3335*48
$GNRMC,041030.900,A,2500.7814286,N,12132.4519382,E,0.03,317.42,090324,,,R,V*18
$GPHDT,,T*1B
$GNACCURACY,2.7*13
$GNGGA,041031.000,2500.7814294,N,12132.4519388,E,4,56,0.50,16.691,M,15.25,M,1,3335*40
$GNRMC,041031.000,A,2500.7814294,N,12132.4519388,E,0.02,317.42,090324,,,R,V*18
$GPHDT,,T*1B
$GNACCURACY,2.7*13
$GNGGA,041031.100,2500.7814283,N,12132.4519375,E,4,56,0.50,16.695,M,15.25,M,1,3335*41
$GNRMC,041031.100,A,2500.7814283,N,12132.4519375,E,0.02,317.42,090324,,,R,V*1D
$GPHDT,,T*1B
$GNGSA,A,3,195,194,08,21,199,02,07,27,16,09,196,04,0.76,0.50,0.58,1*07
$GNGSA,A,3,30,,,,,,,,,,,,0.76,0.50,0.58,1*0B
$GNGSA,A,3,81,78,88,79,77,,,,,,,,0.76,0.50,0.58,2*03
$GNGSA,A,3,21,13,26,27,15,,,,,,,,0.76,0.50,0.58,3*0E
$GNGSA,A,3,23,09,06,16,07,40,39,28,10,25,37,34,0.76,0.50,0.58,4*02
$GPGSV,4,1,15,195,65,114,43,194,64,052,31,08,62,356,42,21,61,155,36,1*69
$GPGSV,4,2,15,50,60,167,28,199,60,167,25,02,49,176,34,07,42,316,39,1*58
$GPGSV,4,3,15,27,32,036,30,16,27,076,30,09,23,246,15,196,19,169,22,1*51
$GPGSV,4,4,15,04,17,202,21,30,12,320,35,26,08,100,17,1*5D
$GPGSV,3,1,10,195,65,114,41,194,64,052,36,08,62,356,44,199,60,167,33,8*56
$GPGSV,3,2,10,27,32,036,28,09,23,246,28,196,19,169,21,04,17,202,15,8*59
$GPGSV,3,3,10,30,12,320,35,26,08,100,16,8*61
$GLGSV,2,1,06,81,65,201,40,78,57,039,31,88,55,031,23,79,26,334,40,1*7C
$GLGSV,2,2,06,77,23,111,25,87,02,026,,1*70
$GAGSV,2,1,07,21,55,012,29,13,54,080,33,26,44,172,19,27,28,080,37,7*7C
$GAGSV,2,2,07,19,27,240,,15,13,038,34,33,04,199,,7*40
$GAGSV,2,1,05,21,55,012,36,13,54,080,35,26,44,172,17,27,28,080,35,1*7C
$GAGSV,2,2,05,15,13,038,22,1*4D
$GBGSV,4,1,13,23,74,033,39,09,73,265,41,06,71,214,40,16,68,199,40,1*7F
$GBGSV,4,2,13,07,60,308,37,40,60,329,41,43,58,036,,39,57,187,42,1*7C
$GBGSV,4,3,13,28,56,222,45,10,51,290,36,25,37,118,42,37,30,322,41,1*7E
$GBGSV,4,4,13,34,11,040,38,1*4C
$GBGSV,2,1,07,23,74,033,35,40,60,329,41,39,57,187,34,28,56,222,41,4*73
$GBGSV,2,2,07,25,37,118,39,37,30,322,36,34,11,040,30,4*44
$GNACCURACY,2.7*13
$PAIRSAT,1,35,2,0,201,3,0,200,4,0,221,5,0,200,6,0,200,7,0,201,8,0,221,9,0,220,10,0,200,11,0,200,12,0,200,13,0,200,14,0,200,15,0,200,16,0,201,17,0,200,18,0,200,19,0,200,20,0,200,21,0,201,22,0,200,23,0,200,24,0,200,25,0,200,26,0,220,27,0,221,28,0,200,29,0,200,30,0,221,31,0,200,32,0,200,194,0,621,195,0,621,196,0,620,199,0,621*5A
$PAIRSAT,2,24,65,0,200,66,0,200,67,0,200,68,0,200,69,0,200,70,0,200,71,0,200,72,0,200,73,0,200,74,0,200,75,0,200,76,0,200,77,0,201,78,0,201,79,0,201,80,0,200,81,0,201,82,0,200,83,0,200,84,0,200,85,0,200,86,0,200,87,0,201,88,0,201*7A
$PAIRSAT,3,23,2,0,1200,3,0,1200,4,0,1200,5,0,200,7,0,1200,8,0,1200,9,0,1200,10,0,1200,11,0,1200,12,0,1200,13,0,1221,15,0,1220,19,0,1201,21,0,1221,24,0,1200,25,0,1200,26,0,1221,27,0,1221,30,0,1200,31,0,1200,33,0,1200,34,0,1000,36,0,1200*6B
$PAIRSAT,4,46,1,0,200,2,0,200,3,0,600,4,0,200,5,0,200,6,0,201,7,0,201,8,0,200,9,0,201,10,0,201,11,0,200,12,0,200,13,0,200,14,0,200,16,0,201,19,0,600,20,0,600,21,0,600,22,0,600,23,0,621,24,0,600,25,0,621,26,0,600,27,0,600,28,0,621,29,0,600,30,0,600,32,0,600,33,0,600,34,0,621,35,0,600,36,0,600,37,0,621,38,0,600,39,0,621,40,0,621,41,0,600,42,0,400,43,0,421,44,0,400,45,0,400,46,0,400,59,0,400,60,0,400,61,0,400,62,0,400*4A
$PAIRDGP,10,2,4,7,8,9,16,21,26,27,30*42
$GNGGA,041031.200,2500.7814293,N,12132.4519392,E,4,56,0.50,16.694,M,15.25,M,1,3335*4B
$GNRMC,041031.200,A,2500.7814293,N,12132.4519392,E,0.02,317.42,090324,,,R,V*16
$GPHDT,,T*1B
$GNACCURACY,2.7*13
$GNGGA,041031.300,2500.7814429,N,12132.4519514,E,4,56,0.50,16.710,M,15.25,M,1,3335*48
$GNRMC,041031.300,A,2500.7814429,N,12132.4519514,E,0.02,317.42,090324,,,R,V*18
$GPHDT,,T*1B
$GNACCURACY,2.7*13
$GNGGA,041031.400,2500.7814404,N,12132.4519501,E,4,56,0.50,16.710,M,15.25,M,1,3335*44
$GNRMC,041031.400,A,2500.7814404,N,12132.4519501,E,0.02,317.42,090324,,,R,V*14
$GPHDT,,T*1B
$GNACCURACY,2.7*13
$GNGGA,041031.500,2500.7814387,N,12132.4519492,E,4,56,0.50,16.712,M,15.25,M,1,3335*40
$GNRMC,041031.500,A,2500.7814387,N,12132.4519492,E,0.02,317.42,090324,,,R,V*12
$GPHDT,,T*1B
$GNACCURACY,2.7*13
$GNGGA,041031.600,2500.7814406,N,12132.4519501,E,4,56,0.50,16.722,M,15.25,M,0,3335*44
$GNRMC,041031.600,A,2500.7814406,N,12132.4519501,E,0.02,317.42,090324,,,R,V*14
$GPHDT,,T*1B
$GNACCURACY,2.7*13
$GNGGA,041031.700,2500.7814409,N,12132.4519542,E,4,56,0.50,16.704,M,15.25,M,0,3335*49
$GNRMC,041031.700,A,2500.7814409,N,12132.4519542,E,0.02,317.42,090324,,,R,V*1D
$GPHDT,,T*1B
$GNACCURACY,2.7*13
$GNGGA,041031.800,2500.7814290,N,12132.4519446,E,4,56,0.50,16.673,M,15.25,M,0,3335*44
$GNRMC,041031.800,A,2500.7814290,N,12132.4519446,E,0.03,317.42,090324,,,R,V*10
$GPHDT,,T*1B
$GNACCURACY,2.7*13
$GNGGA,041031.900,2500.7814290,N,12132.4519473,E,4,56,0.50,16.674,M,15.25,M,0,3335*44
$GNRMC,041031.900,A,2500.7814290,N,12132.4519473,E,0.03,317.42,090324,,,R,V*17
$GPHDT,,T*1B
$GNACCURACY,2.7*13
$GNGGA,041032.000,2500.7814314,N,12132.4519483,E,4,55,0.50,16.680,M,15.25,M,1,3335*45
$GNRMC,041032.000,A,2500.7814314,N,12132.4519483,E,0.02,317.42,090324,,,R,V*1E
$GPHDT,,T*1B
$GNACCURACY,2.7*13
$GNGGA,041032.100,2500.7814437,N,12132.4519538,E,4,55,0.50,16.710,M,15.25,M,1,3335*4B
$GNRMC,041032.100,A,2500.7814437,N,12132.4519538,E,0.02,317.42,090324,,,R,V*18
$GPHDT,,T*1B
$GNGSA,A,3,195,194,08,21,199,02,07,27,16,09,196,04,0.76,0.50,0.58,1*07
$GNGSA,A,3,30,,,,,,,,,,,,0.76,0.50,0.58,1*0B
$GNGSA,A,3,81,78,88,79,77,,,,,,,,0.76,0.50,0.58,2*03
$GNGSA,A,3,21,13,26,27,15,,,,,,,,0.76,0.50,0.58,3*0E
$GNGSA,A,3,23,09,06,16,07,40,39,28,10,25,37,34,0.76,0.50,0.58,4*02
$GPGSV,4,1,15,195,65,114,43,194,64,052,32,08,62,356,43,21,61,155,34,1*69
$GPGSV,4,2,15,50,60,167,25,199,60,167,22,02,49,176,34,07,42,316,39,1*52
$GPGSV,4,3,15,27,32,036,31,16,27,076,28,09,23,246,13,196,19,169,22,1*5F
$GPGSV,4,4,15,04,17,202,21,30,12,320,36,26,08,100,17,1*5E
$GPGSV,3,1,10,195,65,114,42,194,64,052,36,08,62,356,44,199,60,167,32,8*54
$GPGSV,3,2,10,27,32,036,28,09,23,246,25,196,19,169,25,04,17,202,13,8*56
$GPGSV,3,3,10,30,12,320,36,26,08,100,16,8*62
$GLGSV,2,1,06,81,65,201,40,78,57,039,31,88,55,031,23,79,26,334,40,1*7C
$GLGSV,2,2,06,77,23,111,24,87,02,026,,1*71
$GAGSV,2,1,07,21,55,012,27,13,54,080,32,26,44,172,19,27,28,080,37,7*73
$GAGSV,2,2,07,19,27,240,,15,13,038,32,33,04,199,,7*46
$GAGSV,1,1,04,21,55,012,36,13,54,080,36,27,28,080,35,15,13,038,30,1*75
$GBGSV,4,1,13,23,74,033,39,09,73,265,41,06,71,214,40,16,68,199,39,1*71
$GBGSV,4,2,13,07,60,308,37,40,60,329,41,43,58,036,,39,57,187,42,1*7C
$GBGSV,4,3,13,28,56,222,41,10,51,290,36,25,37,118,42,37,30,322,41,1*7A
$GBGSV,4,4,13,34,11,040,37,1*43
$GBGSV,2,1,07,23,74,033,35,40,60,329,41,39,57,187,36,28,56,222,38,4*7F
$GBGSV,2,2,07,25,37,118,40,37,30,322,38,34,11,040,33,4*47
$GNACCURACY,2.7*13
$PAIRSAT,1,35,2,0,201,3,0,200,4,0,221,5,0,200,6,0,200,7,0,201,8,0,221,9,0,220,10,0,200,11,0,200,12,0,200,13,0,200,14,0,200,15,0,200,16,0,201,17,0,200,18,0,200,19,0,200,20,0,200,21,0,201,22,0,200,23,0,200,24,0,200,25,0,200,26,0,220,27,0,221,28,0,200,29,0,200,30,0,221,31,0,200,32,0,200,194,0,621,195,0,621,196,0,620,199,0,621*5A
$PAIRSAT,2,24,65,0,200,66,0,200,67,0,200,68,0,200,69,0,200,70,0,200,71,0,200,72,0,200,73,0,200,74,0,200,75,0,200,76,0,200,77,0,201,78,0,201,79,0,201,80,0,200,81,0,201,82,0,200,83,0,200,84,0,200,85,0,200,86,0,200,87,0,201,88,0,201*7A
$PAIRSAT,3,23,2,0,1200,3,0,1200,4,0,1200,5,0,200,7,0,1200,8,0,1200,9,0,1200,10,0,1200,11,0,1200,12,0,1200,13,0,1221,15,0,1220,19,0,1201,21,0,1221,24,0,1200,25,0,1200,26,0,1221,27,0,1221,30,0,1200,31,0,1200,33,0,1200,34,0,1000,36,0,1200*6B
$PAIRSAT,4,46,1,0,200,2,0,200,3,0,600,4,0,200,5,0,200,6,0,201,7,0,201,8,0,200,9,0,201,10,0,201,11,0,200,12,0,200,13,0,200,14,0,200,16,0,201,19,0,600,20,0,600,21,0,600,22,0,600,23,0,621,24,0,600,25,0,621,26,0,600,27,0,600,28,0,621,29,0,600,30,0,600,32,0,600,33,0,600,34,0,621,35,0,600,36,0,600,37,0,621,38,0,600,39,0,621,40,0,621,41,0,600,42,0,400,43,0,421,44,0,400,45,0,400,46,0,400,59,0,400,60,0,400,61,0,400,62,0,400*4A
$PAIRDGP,10,2,4,7,8,9,16,21,26,27,30*42
$GNGGA,041032.200,2500.7814376,N,12132.4519518,E,4,55,0.50,16.690,M,15.25,M,1,3335*41
$GNRMC,041032.200,A,2500.7814376,N,12132.4519518,E,0.03,317.42,090324,,,R,V*1A
$GPHDT,,T*1B
$GNACCURACY,2.7*13
$GNGGA,041032.300,2500.7814363,N,12132.4519500,E,4,55,0.50,16.688,M,15.25,M,1,3335*44
$GNRMC,041032.300,A,2500.7814363,N,12132.4519500,E,0.03,317.42,090324,,,R,V*16
$GPHDT,,T*1B
$GNACCURACY,2.8*1C
$GNGGA,041032.400,2500.7814284,N,12132.4519454,E,4,55,0.50,16.670,M,15.25,M,1,3335*4C
$GNRMC,041032.400,A,2500.7814284,N,12132.4519454,E,0.02,317.42,090324,,,R,V*18
$GPHDT,,T*1B
$GNACCURACY,2.8*1C
$GNGGA,041032.500,2500.7814326,N,12132.4519481,E,4,55,0.50,16.664,M,15.25,M,0,3335*48
$GNRMC,041032.500,A,2500.7814326,N,12132.4519481,E,0.02,317.42,090324,,,R,V*18
$GPHDT,,T*1B
$GNACCURACY,2.8*1C
$GNGGA,041032.600,2500.7814300,N,12132.4519488,E,4,54,0.50,16.661,M,15.25,M,0,3335*42
$GNRMC,041032.600,A,2500.7814300,N,12132.4519488,E,0.02,317.42,090324,,,R,V*16
$GPHDT,,T*1B
$GNACCURACY,2.8*1C
$GNGGA,041032.700,2500.7814303,N,12132.4519483,E,4,54,0.50,16.662,M,15.25,M,0,3335*48
$GNRMC,041032.700,A,2500.7814303,N,12132.4519483,E,0.01,317.42,090324,,,R,V*1C
$GPHDT,,T*1B
$GNACCURACY,2.8*1C
$GNGGA,041032.800,2500.7814299,N,12132.4519462,E,4,54,0.50,16.664,M,15.25,M,0,3335*4C
$GNRMC,041032.800,A,2500.7814299,N,12132.4519462,E,0.01,317.42,090324,,,R,V*1E
$GPHDT,,T*1B
$GNACCURACY,2.8*1C
$GNGGA,041032.900,2500.7814289,N,12132.4519466,E,4,55,0.50,16.662,M,15.25,M,0,3335*4F
$GNRMC,041032.900,A,2500.7814289,N,12132.4519466,E,0.01,317.42,090324,,,R,V*1A
$GPHDT,,T*1B
$GNACCURACY,2.8*1C
$GNGGA,041033.000,2500.7814260,N,12132.4519449,E,4,55,0.50,16.656,M,15.25,M,1,3335*4B
$GNRMC,041033.000,A,2500.7814260,N,12132.4519449,E,0.02,317.42,090324,,,R,V*1B
$GPHDT,,T*1B
$GNACCURACY,2.8*1C
$GNGGA,041033.100,2500.7814293,N,12132.4519486,E,4,55,0.50,16.656,M,15.25,M,1,3335*45
$GNRMC,041033.100,A,2500.7814293,N,12132.4519486,E,0.02,317.42,090324,,,R,V*15
$GPHDT,,T*1B
$GNGSA,A,3,195,194,08,21,199,02,07,27,16,09,196,04,0.76,0.50,0.58,1*07
$GNGSA,A,3,30,,,,,,,,,,,,0.76,0.50,0.58,1*0B
$GNGSA,A,3,81,78,88,79,77,,,,,,,,0.76,0.50,0.58,2*03
$GNGSA,A,3,21,13,26,27,15,,,,,,,,0.76,0.50,0.58,3*0E
$GNGSA,A,3,23,09,06,16,07,40,39,28,10,25,37,34,0.76,0.50,0.58,4*02
$GPGSV,4,1,15,195,65,114,42,194,64,052,32,08,62,356,43,21,61,155,38,1*64
$GPGSV,4,2,15,50,60,167,32,199,60,167,30,02,49,176,34,07,42,316,39,1*57
$GPGSV,4,3,15,27,32,036,31,16,27,076,31,09,23,246,19,196,19,169,21,1*5E
$GPGSV,4,4,15,04,17,202,21,30,12,320,36,26,08,100,17,1*5E
$GPGSV,3,1,10,195,65,114,42,194,64,052,34,08,62,356,45,199,60,167,33,8*56
$GPGSV,3,2,10,27,32,036,29,09,23,246,25,196,19,169,26,04,17,202,13,8*54
$GPGSV,3,3,10,30,12,320,36,26,08,100,17,8*63
$GLGSV,2,1,06,81,66,201,40,78,57,039,31,88,55,031,18,79,26,334,40,1*77
$GLGSV,2,2,06,77,23,111,24,87,02,026,,1*71
$GAGSV,2,1,06,21,55,012,32,13,54,080,33,26,44,172,19,27,28,080,37,7*77
$GAGSV,2,2,06,19,27,240,,15,13,038,32,7*72
$GAGSV,1,1,04,21,55,012,37,13,54,080,36,27,28,080,37,15,13,038,29,1*7E
$GBGSV,4,1,13,23,74,033,39,09,73,265,40,06,71,214,40,16,68,199,41,1*7F
$GBGSV,4,2,13,07,60,308,38,40,60,329,41,43,58,036,,39,57,187,43,1*72
$GBGSV,4,3,13,28,56,222,45,10,51,290,35,25,37,118,41,37,30,322,41,1*7E
$GBGSV,4,4,13,34,11,040,37,1*43
$GBGSV,2,1,07,23,74,033,38,40,60,329,42,39,57,187,38,28,56,222,42,4*72
$GBGSV,2,2,07,25,37,118,41,37,30,322,39,34,11,040,32,4*46
$GNACCURACY,2.8*1C
$PAIRSAT,1,35,2,0,201,3,0,200,4,0,221,5,0,200,6,0,200,7,0,201,8,0,221,9,0,220,10,0,200,11,0,200,12,0,200,13,0,200,14,0,200,15,0,200,16,0,201,17,0,200,18,0,200,19,0,200,20,0,200,21,0,201,22,0,200,23,0,200,24,0,200,25,0,200,26,0,220,27,0,221,28,0,200,29,0,200,30,0,221,31,0,200,32,0,200,194,0,621,195,0,621,196,0,620,199,0,621*5A
$PAIRSAT,2,24,65,0,200,66,0,200,67,0,200,68,0,200,69,0,200,70,0,200,71,0,200,72,0,200,73,0,200,74,0,200,75,0,200,76,0,200,77,0,201,78,0,201,79,0,201,80,0,200,81,0,201,82,0,200,83,0,200,84,0,200,85,0,200,86,0,200,87,0,201,88,0,201*7A
$PAIRSAT,3,23,2,0,1200,3,0,1200,4,0,1200,5,0,200,7,0,1200,8,0,1200,9,0,1200,10,0,1200,11,0,1200,12,0,1200,13,0,1221,15,0,1220,19,0,1201,21,0,1221,24,0,1200,25,0,1200,26,0,1221,27,0,1221,30,0,1200,31,0,1200,33,0,1200,34,0,1000,36,0,1200*6B
$PAIRSAT,4,46,1,0,200,2,0,200,3,0,600,4,0,200,5,0,200,6,0,201,7,0,201,8,0,200,9,0,201,10,0,201,11,0,200,12,0,200,13,0,200,14,0,200,16,0,201,19,0,600,20,0,600,21,0,600,22,0,600,23,0,621,24,0,600,25,0,621,26,0,600,27,0,600,28,0,621,29,0,600,30,0,600,32,0,600,33,0,600,34,0,621,35,0,600,36,0,600,37,0,621,38,0,600,39,0,621,40,0,621,41,0,600,42,0,400,43,0,421,44,0,400,45,0,400,46,0,400,59,0,400,60,0,400,61,0,400,62,0,400*4A
$PAIRDGP,10,2,4,7,8,9,16,21,26,27,30*42
$GNGGA,041033.200,2500.7814286,N,12132.4519449,E,4,55,0.50,16.659,M,15.25,M,1,3335*4E
$GNRMC,041033.200,A,2500.7814286,N,12132.4519449,E,0.01,317.42,090324,,,R,V*12
$GPHDT,,T*1B
$GNACCURACY,2.8*1C
$GNGGA,041033.300,2500.7814253,N,12132.4519448,E,4,55,0.50,16.658,M,15.25,M,1,3335*47
$GNRMC,041033.300,A,2500.7814253,N,12132.4519448,E,0.01,317.42,090324,,,R,V*1A
$GPHDT,,T*1B
$GNACCURACY,2.8*1C
$GNGGA,041033.400,2500.7814269,N,12132.4519476,E,4,55,0.50,16.652,M,15.25,M,1,3335*4E
$GNRMC,041033.400,A,2500.7814269,N,12132.4519476,E,0.01,317.42,090324,,,R,V*19
$GPHDT,,T*1B
$GNACCURACY,2.8*1C
$GNGGA,041033.500,2500.7814297,N,12132.4519453,E,4,55,0.50,16.660,M,15.25,M,0,3335*49
$GNRMC,041033.500,A,2500.7814297,N,12132.4519453,E,0.01,317.42,090324,,,R,V*1E
$GPHDT,,T*1B
$GNACCURACY,2.8*1C
$GNGGA,041033.600,2500.7814331,N,12132.4519470,E,4,55,0.50,16.667,M,15.25,M,0,3335*41
$GNRMC,041033.600,A,2500.7814331,N,12132.4519470,E,0.01,317.42,090324,,,R,V*11
$GPHDT,,T*1B
$GNACCURACY,2.8*1C
$GNGGA,041033.700,2500.7814368,N,12132.4519503,E,4,55,0.50,16.674,M,15.25,M,0,3335*4B
$GNRMC,041033.700,A,2500.7814368,N,12132.4519503,E,0.01,317.42,090324,,,R,V*19
$GPHDT,,T*1B
$GNACCURACY,2.8*1C
$GNGGA,041033.800,2500.7814337,N,12132.4519483,E,4,55,0.50,16.668,M,15.25,M,0,3335*4A
$GNRMC,041033.800,A,2500.7814337,N,12132.4519483,E,0.01,317.42,090324,,,R,V*15
$GPHDT,,T*1B
$GNACCURACY,2.8*1C
$GNGGA,041033.900,2500.7814316,N,12132.4519470,E,4,55,0.50,16.666,M,15.25,M,0,3335*4A
$GNRMC,041033.900,A,2500.7814316,N,12132.4519470,E,0.00,317.42,090324,,,R,V*1A
$GPHDT,,T*1B
$GNACCURACY,2.8*1C
$GNGGA,041034.000,2500.7814340,N,12132.4519492,E,4,55,0.50,16.665,M,15.25,M,1,3335*49
$GNRMC,041034.000,A,2500.7814340,N,12132.4519492,E,0.00,317.42,090324,,,R,V*1B
$GPHDT,,T*1B
$GNACCURACY,2.8*1C
$GNGGA,041034.100,2500.7814363,N,12132.4519495,E,4,55,0.50,16.681,M,15.25,M,1,3335*44
$GNRMC,041034.100,A,2500.7814363,N,12132.4519495,E,0.01,317.42,090324,,,R,V*1D
$GPHDT,,T*1B
$GNGSA,A,3,195,194,08,21,199,02,07,27,16,09,196,04,0.76,0.50,0.58,1*07
$GNGSA,A,3,30,,,,,,,,,,,,0.76,0.50,0.58,1*0B
$GNGSA,A,3,81,78,88,79,77,,,,,,,,0.76,0.50,0.58,2*03
$GNGSA,A,3,21,13,26,27,15,,,,,,,,0.76,0.50,0.58,3*0E
$GNGSA,A,3,23,09,06,16,07,40,39,28,10,25,37,34,0.76,0.50,0.58,4*02
$GPGSV,4,1,15,195,65,114,43,194,64,052,32,08,62,356,43,21,61,155,38,1*65
$GPGSV,4,2,15,50,60,167,29,199,60,167,27,02,49,176,34,07,42,316,39,1*5B
$GPGSV,4,3,15,27,32,036,31,16,27,076,31,09,23,246,19,196,19,169,19,1*55
$GPGSV,4,4,15,04,17,202,20,30,12,320,36,26,08,100,17,1*5F
$GPGSV,3,1,10,195,65,114,42,194,64,052,37,08,62,356,45,199,60,167,30,8*56
$GPGSV,3,2,10,27,32,036,27,09,23,246,24,196,19,169,26,04,17,202,14,8*5C
$GPGSV,3,3,10,30,12,320,37,26,08,100,17,8*62
$GLGSV,2,1,06,81,66,201,40,78,57,039,31,88,54,031,17,79,26,334,40,1*79
$GLGSV,2,2,06,77,23,111,25,87,02,026,,1*70
$GAGSV,2,1,06,21,55,012,30,13,54,080,31,26,44,172,19,27,28,080,37,7*77
$GAGSV,2,2,06,19,27,240,,15,13,038,31,7*71
$GAGSV,1,1,04,21,55,012,37,13,54,080,36,27,28,080,36,15,13,038,29,1*7F
$GBGSV,4,1,13,23,74,033,40,09,73,265,41,06,71,214,40,16,68,199,40,1*71
$GBGSV,4,2,13,07,60,308,37,40,60,329,41,43,58,036,,39,57,187,43,1*7D
$GBGSV,4,3,13,28,56,222,43,10,51,290,37,25,37,118,43,37,30,322,42,1*7B
$GBGSV,4,4,13,34,11,040,37,1*43
$GBGSV,2,1,07,23,74,033,36,40,60,329,41,39,57,187,35,28,56,222,39,4*7E
$GBGSV,2,2,07,25,37,118,41,37,30,322,37,34,11,040,31,4*4B
$GNACCURACY,2.8*1C
$PAIRSAT,1,35,2,0,201,3,0,200,4,0,221,5,0,200,6,0,200,7,0,201,8,0,221,9,0,220,10,0,200,11,0,200,12,0,200,13,0,200,14,0,200,15,0,200,16,0,201,17,0,200,18,0,200,19,0,200,20,0,200,21,0,201,22,0,200,23,0,200,24,0,200,25,0,200,26,0,220,27,0,221,28,0,200,29,0,200,30,0,221,31,0,200,32,0,200,194,0,621,195,0,621,196,0,620,199,0,621*5A
$PAIRSAT,2,24,65,0,200,66,0,200,67,0,200,68,0,200,69,0,200,70,0,200,71,0,200,72,0,200,73,0,200,74,0,200,75,0,200,76,0,200,77,0,201,78,0,201,79,0,201,80,0,200,81,0,201,82,0,200,83,0,200,84,0,200,85,0,200,86,0,200,87,0,201,88,0,201*7A
$PAIRSAT,3,23,2,0,1200,3,0,1200,4,0,1200,5,0,200,7,0,1200,8,0,1200,9,0,1200,10,0,1200,11,0,1200,12,0,1200,13,0,1221,15,0,1220,19,0,1201,21,0,1221,24,0,1200,25,0,1200,26,0,1221,27,0,1221,30,0,1200,31,0,1200,33,0,1200,34,0,1000,36,0,1200*6B
$PAIRSAT,4,46,1,0,200,2,0,200,3,0,600,4,0,200,5,0,200,6,0,201,7,0,201,8,0,200,9,0,201,10,0,201,11,0,200,12,0,200,13,0,200,14,0,200,16,0,201,19,0,600,20,0,600,21,0,600,22,0,600,23,0,621,24,0,600,25,0,621,26,0,600,27,0,600,28,0,621,29,0,600,30,0,600,32,0,600,33,0,600,34,0,621,35,0,600,36,0,600,37,0,621,38,0,600,39,0,621,40,0,621,41,0,600,42,0,400,43,0,421,44,0,400,45,0,400,46,0,400,59,0,400,60,0,400,61,0,400,62,0,400*4A
$PAIRDGP,10,2,4,7,8,9,16,21,26,27,30*42
$GNGGA,041034.200,2500.7814319,N,12132.4519477,E,4,55,0.50,16.665,M,15.25,M,1,3335*4C
$GNRMC,041034.200,A,2500.7814319,N,12132.4519477,E,0.01,317.42,090324,,,R,V*1F
$GPHDT,,T*1B
$GNACCURACY,2.8*1C
$GNGGA,041034.300,2500.7814380,N,12132.4519495,E,4,54,0.50,16.676,M,15.25,M,1,3335*42
$GNRMC,041034.300,A,2500.7814380,N,12132.4519495,E,0.00,317.42,090324,,,R,V*13
$GPHDT,,T*1B
$GNACCURACY,2.8*1C
$GNGGA,041034.400,2500.7814426,N,12132.4519555,E,4,54,0.50,16.695,M,15.25,M,1,3335*4E
$GNRMC,041034.400,A,2500.7814426,N,12132.4519555,E,0.01,317.42,090324,,,R,V*13
$GPHDT,,T*1B
$GNACCURACY,2.8*1C
$GNGGA,041034.500,2500.7814424,N,12132.4519540,E,4,54,0.50,16.702,M,15.25,M,0,3335*47
$GNRMC,041034.500,A,2500.7814424,N,12132.4519540,E,0.01,317.42,090324,,,R,V*14
$GPHDT,,T*1B
$GNACCURACY,2.8*1C
$GNGGA,041034.600,2500.7814430,N,12132.4519548,E,4,54,0.50,16.699,M,15.25,M,0,3335*4A
$GNRMC,041034.600,A,2500.7814430,N,12132.4519548,E,0.01,317.42,090324,,,R,V*1A
$GPHDT,,T*1B
$GNACCURACY,2.8*1C
$GNGGA,041034.700,2500.7814426,N,12132.4519539,E,4,54,0.50,16.695,M,15.25,M,0,3335*46
$GNRMC,041034.700,A,2500.7814426,N,12132.4519539,E,0.01,317.42,090324,,,R,V*1A
$GPHDT,,T*1B
$GNACCURACY,2.8*1C
$GNGGA,041034.800,2500.7814419,N,12132.4519530,E,4,54,0.50,16.697,M,15.25,M,0,3335*4E
$GNRMC,041034.800,A,2500.7814419,N,12132.4519530,E,0.01,317.42,090324,,,R,V*10
$GPHDT,,T*1B
$GNACCURACY,2.8*1C
$GNGGA,041034.900,2500.7814342,N,12132.4519458,E,4,54,0.50,16.673,M,15.25,M,0,3335*43
$GNRMC,041034.900,A,2500.7814342,N,12132.4519458,E,0.01,317.42,090324,,,R,V*17
$GPHDT,,T*1B
$GNACCURACY,2.8*1C
$GNGGA,041035.000,2500.7814416,N,12132.4519546,E,4,54,0.50,16.705,M,15.25,M,1,3335*42
$GNRMC,041035.000,A,2500.7814416,N,12132.4519546,E,0.01,317.42,090324,,,R,V*17
$PAIR010,0,0,2304,533453*39
$PAIR010,0,1,2304,533453*38
$GPHDT,,T*1B
$GNACCURACY,2.8*1C
$GNGGA,041035.100,2500.7814325,N,12132.4519461,E,4,54,0.50,16.670,M,15.25,M,1,3335*43
$GNRMC,041035.100,A,2500.7814325,N,12132.4519461,E,0.01,317.42,090324,,,R,V*15
$GPHDT,,T*1B
$GNGSA,A,3,195,194,08,21,199,02,07,27,16,196,04,30,0.76,0.50,0.58,1*0D
$GNGSA,A,3,09,,,,,,,,,,,,0.76,0.50,0.58,1*01
$GNGSA,A,3,81,78,88,79,77,,,,,,,,0.76,0.50,0.58,2*03
$GNGSA,A,3,21,13,26,27,15,,,,,,,,0.76,0.50,0.58,3*0E
$GNGSA,A,3,23,09,06,16,07,40,39,28,10,25,37,34,0.76,0.50,0.58,4*02
$GPGSV,4,1,15,195,65,114,43,194,64,052,32,08,62,356,43,21,61,155,36,1*6B
$GPGSV,4,2,15,50,60,167,28,199,60,167,25,02,49,176,34,07,42,316,39,1*58
$GPGSV,4,3,15,27,32,036,32,16,27,076,31,09,23,246,17,196,19,169,21,1*53
$GPGSV,4,4,15,04,17,202,20,30,12,320,36,26,08,100,18,1*50
$GPGSV,3,1,10,195,65,114,42,194,64,052,37,08,62,356,45,199,60,167,31,8*57
$GPGSV,3,2,10,27,32,036,28,09,23,246,24,196,19,169,26,04,17,202,12,8*55
$GPGSV,3,3,10,30,12,320,37,26,08,100,16,8*63
$GLGSV,2,1,06,81,66,201,40,78,57,039,31,88,54,031,18,79,26,334,40,1*76
$GLGSV,2,2,06,77,23,111,24,87,02,026,,1*71
$GAGSV,2,1,06,21,55,012,29,13,54,080,31,26,44,172,15,27,28,080,37,7*73
$GAGSV,2,2,06,19,27,240,,15,13,038,31,7*71
$GAGSV,1,1,04,21,55,012,36,13,54,080,35,27,28,080,35,15,13,038,29,1*7E
$GBGSV,4,1,13,23,74,033,40,09,73,265,42,06,71,214,40,16,68,199,39,1*7C
$GBGSV,4,2,13,07,60,308,37,40,60,329,41,43,58,036,,39,57,187,43,1*7D
$GBGSV,4,3,13,28,56,222,42,10,