$FW : RTK35X,V1.1X0314AS,Lib20210517,1*54
$Tool : LOCOSYS , GNSS Firebird , v1.0.0.19*39
$---------------------------------------------------*2D
$GNACCURACY,2.7*13
$GNGGA,041057.900,2500.7814474,N,12132.4519492,E,4,57,0.50,16.729,M,15.25,M,0,3335*4F
$GNRMC,041057.900,A,2500.7814474,N,12132.4519492,E,0.02,317.42,090324,,,R,V*15
$GPHDT,,T*1B
$GNACCURACY,2.7*13
$GNGGA,041058.000,2500.7814452,N,12132.4519483,E,4,57,0.50,16.720,M,15.25,M,1,3335*45
$GNRMC,041058.000,A,2500.7814452,N,12132.4519483,E,0.02,317.42,090324,,,R,V*17
$GPHDT,,T*1B
$GNACCURACY,2.7*13
$GNGGA,041058.100,2500.7814455,N,12132.4519482,E,4,57,0.50,16.727,M,15.25,M,1,3335*45
$GNRMC,041058.100,A,2500.7814455,N,12132.4519482,E,0.02,317.42,090324,,,R,V*10
$GPHDT,,T*1B
$GNGSA,A,3,195,194,08,21,199,02,07,27,16,09,196,04,0.76,0.50,0.57,1*08
$GNGSA,A,3,30,,,,,,,,,,,,0.76,0.50,0.57,1*04
$GNGSA,A,3,81,78,88,79,77,,,,,,,,0.76,0.50,0.57,2*0C
$GNGSA,A,3,21,13,26,27,15,,,,,,,,0.76,0.50,0.57,3*01
$GNGSA,A,3,23,09,06,16,40,07,43,39,28,10,25,37,0.76,0.50,0.57,4*0D
$GNGSA,A,3,34,,,,,,,,,,,,0.76,0.50,0.57,4*05
$GPGSV,4,1,15,195,65,114,43,194,64,052,33,08,62,356,42,21,61,155,39,1*64
$GPGSV,4,2,15,50,60,167,28,199,60,167,24,02,49,176,31,07,42,316,42,1*50
$GPGSV,4,3,15,27,32,036,19,16,27,076,33,09,23,245,25,196,19,169,20,1*5B
$GPGSV,4,4,15,04,17,202,21,30,12,320,40,26,08,100,22,1*59
$GPGSV,3,1,09,195,65,114,43,194,64,052,29,08,62,356,39,199,60,167,35,8*5E
$GPGSV,3,2,09,27,32,036,22,09,23,245,23,196,19,169,22,04,17,202,12,8*57
$GPGSV,3,3,09,30,12,320,39,8*5F
$GLGSV,2,1,07,81,66,201,41,78,57,039,30,88,54,031,19,79,27,334,36,1*76
$GLGSV,2,2,07,77,23,111,28,82,16,205,,87,02,026,,1*46
$GAGSV,2,1,07,21,55,013,22,13,54,079,28,26,44,172,21,27,28,080,33,7*75
$GAGSV,2,2,07,19,27,240,,15,13,038,24,04,12,299,,7*41
$GAGSV,2,1,05,21,55,013,32,13,54,079,32,26,44,172,27,27,28,080,32,1*7C
$GAGSV,2,2,05,15,13,038,14,1*48
$GBGSV,4,1,14,23,74,034,40,09,73,265,41,06,71,214,40,16,68,199,41,1*70
$GBGSV,4,2,14,40,60,329,38,07,60,309,36,43,58,036,32,39,57,187,43,1*75
$GBGSV,4,3,14,28,56,222,45,10,51,290,38,25,37,118,45,37,31,322,41,1*71
$GBGSV,4,4,14,34,11,040,30,27,10,220,,1*77
$GBGSV,2,1,07,23,74,034,32,40,60,329,42,39,57,187,34,28,56,222,40,4*71
$GBGSV,2,2,07,25,37,118,40,37,31,322,41,34,11,040,23,4*49
$GNACCURACY,2.7*13
$PAIRSAT,1,35,2,0,201,3,0,200,4,0,221,5,0,200,6,0,200,7,0,201,8,0,221,9,0,220,10,0,200,11,0,200,12,0,200,13,0,200,14,0,200,15,0,200,16,0,201,17,0,200,18,0,200,19,0,200,20,0,200,21,0,201,22,0,200,23,0,200,24,0,200,25,0,200,26,0,220,27,0,221,28,0,200,29,0,200,30,0,221,31,0,200,32,0,200,194,0,621,195,0,621,196,0,620,199,0,621*5A
$PAIRSAT,2,24,65,0,200,66,0,200,67,0,200,68,0,200,69,0,200,70,0,200,71,0,200,72,0,200,73,0,200,74,0,200,75,0,200,76,0,200,77,0,201,78,0,201,79,0,201,80,0,200,81,0,201,82,0,200,83,0,200,84,0,200,85,0,200,86,0,200,87,0,201,88,0,201*7A
$PAIRSAT,3,23,2,0,1200,3,0,1200,4,0,1200,5,0,200,7,0,1200,8,0,1200,9,0,1200,10,0,1200,11,0,1200,12,0,1200,13,0,1221,15,0,1220,19,0,1201,21,0,1221,24,0,1200,25,0,1200,26,0,1221,27,0,1221,30,0,1200,31,0,1200,33,0,1200,34,0,1000,36,0,1200*6B
$PAIRSAT,4,46,1,0,200,2,0,200,3,0,600,4,0,200,5,0,200,6,0,201,7,0,201,8,0,200,9,0,201,10,0,201,11,0,200,12,0,200,13,0,200,14,0,200,16,0,201,19,0,600,20,0,600,21,0,600,22,0,600,23,0,621,24,0,600,25,0,621,26,0,600,27,0,600,28,0,621,29,0,600,30,0,600,32,0,600,33,0,600,34,0,621,35,0,600,36,0,600,37,0,621,38,0,600,39,0,621,40,0,621,41,0,600,42,0,600,43,0,421,44,0,400,45,0,400,46,0,400,59,0,400,60,0,400,61,0,400,62,0,400*48
$PAIRDGP,10,2,4,7,8,9,16,21,26,27,30*42
$GNGGA,041058.200,2500.7814446,N,12132.4519523,E,4,57,0.50,16.723,M,15.25,M,1,3335*4A
$GNRMC,041058.200,A,2500.7814446,N,12132.4519523,E,0.02,317.42,090324,,,R,V*1B
$GPHDT,,T*1B
$GNACCURACY,2.7*13
$GNGGA,041058.300,2500.7814447,N,12132.4519508,E,4,57,0.50,16.726,M,15.25,M,1,3335*46
$GNRMC,041058.300,A,2500.7814447,N,12132.4519508,E,0.02,317.42,090324,,,R,V*12
$GPHDT,,T*1B
$GNACCURACY,2.7*13
$GNGGA,041058.400,2500.7814462,N,12132.4519511,E,4,57,0.50,16.724,M,15.25,M,1,3335*4C
$GNRMC,041058.400,A,2500.7814462,N,12132.4519511,E,0.03,317.42,090324,,,R,V*1B
$GPHDT,,T*1B
$GNACCURACY,2.7*13
$GNGGA,041058.500,2500.7814365,N,12132.4519447,E,4,57,0.50,16.724,M,15.25,M,0,3335*4E
$GNRMC,041058.500,A,2500.7814365,N,12132.4519447,E,0.02,317.42,090324,,,R,V*19
$GPHDT,,T*1B
$GNACCURACY,2.7*13
$GNGGA,041058.600,2500.7814381,N,12132.4519440,E,4,57,0.50,16.725,M,15.25,M,0,3335*41
$GNRMC,041058.600,A,2500.7814381,N,12132.4519440,E,0.03,317.42,090324,,,R,V*16
$GPHDT,,T*1B
$GNACCURACY,2.7*13
$GNGGA,041058.700,2500.7814371,N,12132.4519455,E,4,55,0.50,16.719,M,15.25,M,0,3335*46
$GNRMC,041058.700,A,2500.7814371,N,12132.4519455,E,0.03,317.42,090324,,,R,V*1C
$GPHDT,,T*1B
$GNACCURACY,2.7*13
$GNGGA,041058.800,2500.7814356,N,12132.4519451,E,4,55,0.50,16.713,M,15.25,M,0,3335*42
$GNRMC,041058.800,A,2500.7814356,N,12132.4519451,E,0.02,317.42,090324,,,R,V*13
$GPHDT,,T*1B
$GNACCURACY,2.7*13
$GNGGA,041058.900,2500.7814367,N,12132.4519430,E,4,56,0.50,16.714,M,15.25,M,0,3335*42
$GNRMC,041058.900,A,2500.7814367,N,12132.4519430,E,0.02,317.42,090324,,,R,V*17
$GPHDT,,T*1B
$GNACCURACY,2.7*13
$GNGGA,041059.000,2500.7814366,N,12132.4519448,E,4,55,0.50,16.712,M,15.25,M,1,3335*40
$GNRMC,041059.000,A,2500.7814366,N,12132.4519448,E,0.04,317.42,090324,,,R,V*17
$GPHDT,,T*1B
$GNACCURACY,2.7*13
$GNGGA,041059.100,2500.7814367,N,12132.4519462,E,4,55,0.50,16.718,M,15.25,M,1,3335*42
$GNRMC,041059.100,A,2500.7814367,N,12132.4519462,E,0.04,317.42,090324,,,R,V*1F
$GPHDT,,T*1B
$GNGSA,A,3,195,194,08,21,199,02,07,27,16,09,196,04,0.76,0.50,0.57,1*08
$GNGSA,A,3,30,,,,,,,,,,,,0.76,0.50,0.57,1*04
$GNGSA,A,3,81,78,88,79,77,,,,,,,,0.76,0.50,0.57,2*0C
$GNGSA,A,3,21,13,26,27,15,,,,,,,,0.76,0.50,0.57,3*01
$GNGSA,A,3,23,09,06,16,40,07,43,39,28,10,25,37,0.76,0.50,0.57,4*0D
$GNGSA,A,3,34,,,,,,,,,,,,0.76,0.50,0.57,4*05
$GPGSV,4,1,15,195,65,114,44,194,64,052,31,08,62,356,42,21,61,155,40,1*6F
$GPGSV,4,2,15,199,60,167,25,50,60,167,28,02,49,176,32,07,42,316,42,1*52
$GPGSV,4,3,15,27,32,036,25,16,27,076,33,09,23,245,23,196,19,169,22,1*50
$GPGSV,4,4,15,04,17,202,21,30,12,320,40,26,07,100,21,1*55
$GPGSV,3,1,09,195,65,114,44,194,64,052,35,08,62,356,40,199,60,167,36,8*59
$GPGSV,3,2,09,27,32,036,23,09,23,245,27,196,19,169,21,04,17,202,14,8*57
$GPGSV,3,3,09,30,12,320,40,8*51
$GLGSV,2,1,07,81,66,201,41,78,57,039,28,88,54,031,21,79,27,334,38,1*7A
$GLGSV,2,2,07,77,23,111,29,82,16,205,26,87,02,026,,1*43
$GAGSV,2,1,07,21,55,013,19,13,54,079,30,26,44,172,23,27,28,080,34,7*71
$GAGSV,2,2,07,19,27,240,,15,13,038,21,04,12,299,,7*44
$GAGSV,1,1,04,21,55,013,33,13,54,079,33,26,44,172,27,27,28,080,32,1*7E
$GBGSV,4,1,13,23,74,034,40,09,73,265,42,06,71,214,40,16,68,199,41,1*74
$GBGSV,4,2,13,40,60,329,38,07,60,309,36,43,58,036,31,39,57,187,44,1*76
$GBGSV,4,3,13,28,56,222,46,10,51,290,38,25,37,118,45,37,31,322,39,1*7A
$GBGSV,4,4,13,34,11,040,23,1*46
$GBGSV,2,1,08,23,74,034,35,40,60,329,43,43,58,036,24,39,57,187,35,4*7F
$GBGSV,2,2,08,28,56,222,42,25,37,118,42,37,31,322,39,34,11,040,24,4*71
$GNACCURACY,2.7*13
$PAIRSAT,1,35,2,0,201,3,0,200,4,0,221,5,0,200,6,0,200,7,0,201,8,0,221,9,0,220,10,0,200,11,0,200,12,0,200,13,0,200,14,0,200,15,0,200,16,0,201,17,0,200,18,0,200,19,0,200,20,0,200,21,0,201,22,0,200,23,0,200,24,0,200,25,0,200,26,0,220,27,0,221,28,0,200,29,0,200,30,0,221,31,0,200,32,0,200,194,0,621,195,0,621,196,0,620,199,0,621*5A
$PAIRSAT,2,24,65,0,200,66,0,200,67,0,200,68,0,200,69,0,200,70,0,200,71,0,200,72,0,200,73,0,200,74,0,200,75,0,200,76,0,200,77,0,201,78,0,201,79,0,201,80,0,200,81,0,201,82,0,200,83,0,200,84,0,200,85,0,200,86,0,200,87,0,201,88,0,201*7A
$PAIRSAT,3,23,2,0,1200,3,0,1200,4,0,1200,5,0,200,7,0,1200,8,0,1200,9,0,1200,10,0,1200,11,0,1200,12,0,1200,13,0,1221,15,0,1220,19,0,1201,21,0,1221,24,0,1200,25,0,1200,26,0,1221,27,0,1221,30,0,1200,31,0,1200,33,0,1200,34,0,1000,36,0,1200*6B
$PAIRSAT,4,46,1,0,200,2,0,200,3,0,600,4,0,200,5,0,200,6,0,201,7,0,201,8,0,200,9,0,201,10,0,201,11,0,200,12,0,200,13,0,200,14,0,200,16,0,201,19,0,600,20,0,600,21,0,600,22,0,600,23,0,621,24,0,600,25,0,621,26,0,600,27,0,600,28,0,621,29,0,600,30,0,600,32,0,600,33,0,600,34,0,621,35,0,600,36,0,600,37,0,621,38,0,600,39,0,621,40,0,621,41,0,600,42,0,600,43,0,421,44,0,400,45,0,400,46,0,400,59,0,400,60,0,400,61,0,400,62,0,400*48
$PAIRDGP,10,2,4,7,8,9,16,21,26,27,30*42
$GNGGA,041059.200,2500.7814334,N,12132.4519471,E,4,57,0.50,16.716,M,15.25,M,1,3335*49
$GNRMC,041059.200,A,2500.7814334,N,12132.4519471,E,0.03,317.42,090324,,,R,V*1F
$GPHDT,,T*1B
$GNACCURACY,2.7*13
$GNGGA,041059.300,2500.7814481,N,12132.4519584,E,4,57,0.50,16.732,M,15.25,M,1,3335*4C
$GNRMC,041059.300,A,2500.7814481,N,12132.4519584,E,0.03,317.42,090324,,,R,V*1C
$GPHDT,,T*1B
$GNACCURACY,2.7*13
$GNGGA,041059.400,2500.7814445,N,12132.4519570,E,4,57,0.50,16.735,M,15.25,M,1,3335*4F
$GNRMC,041059.400,A,2500.7814445,N,12132.4519570,E,0.02,317.42,090324,,,R,V*19
$GPHDT,,T*1B
$GNACCURACY,2.7*13
$GNGGA,041059.500,2500.7814456,N,12132.4519568,E,4,57,0.50,16.729,M,15.25,M,1,3335*48
$GNRMC,041059.500,A,2500.7814456,N,12132.4519568,E,0.02,317.42,090324,,,R,V*13
$GPHDT,,T*1B
$GNACCURACY,2.7*13
$GNGGA,041059.600,2500.7814438,N,12132.4519562,E,4,57,0.50,16.721,M,15.25,M,1,3335*41
$GNRMC,041059.600,A,2500.7814438,N,12132.4519562,E,0.02,317.42,090324,,,R,V*12
$GPHDT,,T*1B
$GNACCURACY,2.7*13
$GNGGA,041059.700,2500.7814482,N,12132.4519590,E,4,56,0.50,16.742,M,15.25,M,0,3335*49
$GNRMC,041059.700,A,2500.7814482,N,12132.4519590,E,0.01,317.42,090324,,,R,V*1C
$GPHDT,,T*1B
$GNACCURACY,2.7*13
$GNGGA,041059.800,2500.7814461,N,12132.4519561,E,4,56,0.50,16.734,M,15.25,M,0,3335*44
$GNRMC,041059.800,A,2500.7814461,N,12132.4519561,E,0.03,317.42,090324,,,R,V*12
$GPHDT,,T*1B
$GNACCURACY,2.7*13
$GNGGA,041059.900,2500.7814451,N,12132.4519588,E,4,55,0.50,16.736,M,15.25,M,0,3335*40
$GNRMC,041059.900,A,2500.7814451,N,12132.4519588,E,0.02,317.42,090324,,,R,V*16
$GPHDT,,T*1B
$GNACCURACY,2.7*13
$GNGGA,041100.000,2500.7814497,N,12132.4519610,E,4,55,0.50,16.744,M,15.25,M,1,3335*48
$GNRMC,041100.000,A,2500.7814497,N,12132.4519610,E,0.01,317.42,090324,,,R,V*19
$GPHDT,,T*1B
$GNACCURACY,2.7*13
$GNGGA,041100.100,2500.7814456,N,12132.4519595,E,4,56,0.50,16.738,M,15.25,M,1,3335*42
$GNRMC,041100.100,A,2500.7814456,N,12132.4519595,E,0.02,317.42,090324,,,R,V*18
$GPHDT,,T*1B
$GNGSA,A,3,195,194,08,21,199,02,07,27,16,09,196,04,0.76,0.50,0.57,1*08
$GNGSA,A,3,30,,,,,,,,,,,,0.76,0.50,0.57,1*04
$GNGSA,A,3,81,78,88,79,77,,,,,,,,0.76,0.50,0.57,2*0C
$GNGSA,A,3,21,13,26,15,27,,,,,,,,0.76,0.50,0.57,3*01
$GNGSA,A,3,23,09,06,16,40,07,43,39,28,10,25,37,0.76,0.50,0.57,4*0D
$GNGSA,A,3,34,,,,,,,,,,,,0.76,0.50,0.57,4*05
$GPGSV,4,1,15,195,65,114,44,194,64,052,27,08,62,356,42,21,61,155,40,1*68
$GPGSV,4,2,15,199,60,167,26,50,60,167,28,02,49,176,35,07,42,316,42,1*56
$GPGSV,4,3,15,27,32,036,23,16,27,076,32,09,23,245,24,196,19,169,22,1*50
$GPGSV,4,4,15,04,17,202,21,30,12,320,37,26,07,100,19,1*5E
$GPGSV,3,1,09,195,65,114,45,194,64,052,36,08,62,356,46,199,60,167,37,8*5C
$GPGSV,3,2,09,27,32,036,24,09,23,245,27,196,19,169,18,04,17,202,15,8*5B
$GPGSV,3,3,09,30,12,320,40,8*51
$GLGSV,2,1,07,81,66,201,41,78,57,039,30,88,54,031,22,79,27,334,38,1*70
$GLGSV,2,2,07,77,23,111,30,82,16,205,24,87,02,026,,1*49
$GAGSV,2,1,07,21,55,013,27,13,54,079,30,26,44,172,22,27,28,080,,7*7A
$GAGSV,2,2,07,19,27,240,,15,13,038,22,04,12,299,,7*47
$GAGSV,1,1,03,21,55,013,36,13,54,079,34,27,28,080,27,1*4A
$GBGSV,4,1,13,23,74,034,40,09,73,265,42,06,71,214,40,16,68,199,41,1*74
$GBGSV,4,2,13,40,60,329,38,07,60,309,36,43,58,036,28,39,57,187,44,1*7E
$GBGSV,4,3,13,28,56,222,45,10,51,290,38,25,37,118,44,37,31,322,40,1*76
$GBGSV,4,4,13,34,11,040,26,1*43
$GBGSV,2,1,08,23,74,034,34,40,60,329,43,43,58,036,27,39,57,187,37,4*7F
$GBGSV,2,2,08,28,56,222,43,25,37,118,43,37,31,322,40,34,11,040,21,4*7A
$GNACCURACY,2.7*13
$PAIRSAT,1,35,2,0,201,3,0,200,4,0,221,5,0,200,6,0,200,7,0,201,8,0,221,9,0,220,10,0,200,11,0,200,12,0,200,13,0,200,14,0,200,15,0,200,16,0,201,17,0,200,18,0,200,19,0,200,20,0,200,21,0,201,22,0,200,23,0,200,24,0,200,25,0,200,26,0,220,27,0,221,28,0,200,29,0,200,30,0,221,31,0,200,32,0,200,194,0,621,195,0,621,196,0,620,199,0,621*5A
$PAIRSAT,2,24,65,0,200,66,0,200,67,0,200,68,0,200,69,0,200,70,0,200,71,0,200,72,0,200,73,0,200,74,0,200,75,0,200,76,0,200,77,0,201,78,0,201,79,0,201,80,0,200,81,0,201,82,0,200,83,0,200,84,0,200,85,0,200,86,0,200,87,0,201,88,0,201*7A
$PAIRSAT,3,23,2,0,1200,3,0,1200,4,0,1200,5,0,200,7,0,1200,8,0,1200,9,0,1200,10,0,1200,11,0,1200,12,0,1200,13,0,1221,15,0,1220,19,0,1201,21,0,1221,24,0,1200,25,0,1200,26,0,1221,27,0,1221,30,0,1200,31,0,1200,33,0,1200,34,0,1000,36,0,1200*6B
$PAIRSAT,4,46,1,0,200,2,0,200,3,0,600,4,0,200,5,0,200,6,0,201,7,0,201,8,0,200,9,0,201,10,0,201,11,0,200,12,0,200,13,0,200,14,0,200,16,0,201,19,0,600,20,0,600,21,0,600,22,0,600,23,0,621,24,0,600,25,0,621,26,0,600,27,0,600,28,0,621,29,0,600,30,0,600,32,0,600,33,0,600,34,0,621,35,0,600,36,0,600,37,0,621,38,0,600,39,0,621,40,0,621,41,0,600,42,0,600,43,0,421,44,0,400,45,0,400,46,0,400,59,0,400,60,0,400,61,0,400,62,0,400*48
$PAIRDGP,10,2,4,7,8,9,16,21,26,27,30*42
$GNGGA,041100.200,2500.7814372,N,12132.4519485,E,4,55,0.50,16.704,M,15.25,M,1,3335*4C
$GNRMC,041100.200,A,2500.7814372,N,12132.4519485,E,0.03,317.42,090324,,,R,V*1B
$GPHDT,,T*1B
$GNACCURACY,2.7*13
$GNGGA,041100.300,2500.7814321,N,12132.4519455,E,4,55,0.50,16.705,M,15.25,M,1,3335*47
$GNRMC,041100.300,A,2500.7814321,N,12132.4519455,E,0.02,317.42,090324,,,R,V*10
$GPHDT,,T*1B
$GNACCURACY,2.7*13
$GNGGA,041100.400,2500.7814369,N,12132.4519487,E,4,55,0.50,16.714,M,15.25,M,1,3335*43
$GNRMC,041100.400,A,2500.7814369,N,12132.4519487,E,0.01,317.42,090324,,,R,V*17
$GPHDT,,T*1B
$GNACCURACY,2.7*13
$GNGGA,041100.500,2500.7814352,N,12132.4519437,E,4,55,0.50,16.719,M,15.25,M,1,3335*4C
$GNRMC,041100.500,A,2500.7814352,N,12132.4519437,E,0.02,317.42,090324,,,R,V*16
$GPHDT,,T*1B
$GNACCURACY,2.7*13
$GNGGA,041100.600,2500.7814376,N,12132.4519493,E,4,55,0.50,16.709,M,15.25,M,1,3335*46
$GNRMC,041100.600,A,2500.7814376,N,12132.4519493,E,0.02,317.42,090324,,,R,V*1D
$GPHDT,,T*1B
$GNACCURACY,2.7*13
$GNGGA,041100.700,2500.7814370,N,12132.4519454,E,4,55,0.50,16.723,M,15.25,M,0,3335*43
$GNRMC,041100.700,A,2500.7814370,N,12132.4519454,E,0.02,317.42,090324,,,R,V*11
$GPHDT,,T*1B
$GNACCURACY,2.7*13
$GNGGA,041100.800,2500.7814388,N,12132.4519475,E,4,55,0.50,16.718,M,15.25,M,0,3335*40
$GNRMC,041100.800,A,2500.7814388,N,12132.4519475,E,0.01,317.42,090324,,,R,V*19
$GPHDT,,T*1B
$GNACCURACY,2.7*13
$GNGGA,041100.900,2500.7814409,N,12132.4519503,E,4,55,0.50,16.728,M,15.25,M,0,3335*4C
$GNRMC,041100.900,A,2500.7814409,N,12132.4519503,E,0.01,317.42,090324,,,R,V*16
$GPHDT,,T*1B
$GNACCURACY,2.7*13
$GNGGA,041101.000,2500.7814395,N,12132.4519488,E,4,55,0.50,16.719,M,15.25,M,1,3335*47
$GNRMC,041101.000,A,2500.7814395,N,12132.4519488,E,0.01,317.42,090324,,,R,V*1E
$GPHDT,,T*1B
$GNACCURACY,2.7*13
$GNGGA,041101.100,2500.7814414,N,12132.4519495,E,4,55,0.50,16.736,M,15.25,M,1,3335*49
$GNRMC,041101.100,A,2500.7814414,N,12132.4519495,E,0.01,317.42,090324,,,R,V*1D
$GPHDT,,T*1B
$GNGSA,A,3,195,194,08,21,199,02,07,27,16,09,196,04,0.76,0.50,0.58,1*07
$GNGSA,A,3,30,,,,,,,,,,,,0.76,0.50,0.58,1*0B
$GNGSA,A,3,81,78,88,79,77,,,,,,,,0.76,0.50,0.58,2*03
$GNGSA,A,3,21,13,26,15,27,,,,,,,,0.76,0.50,0.58,3*0E
$GNGSA,A,3,23,09,06,16,07,40,39,28,10,25,37,34,0.76,0.50,0.58,4*02
$GPGSV,4,1,15,195,65,114,44,194,64,052,31,08,62,356,42,21,61,155,41,1*6E
$GPGSV,4,2,15,199,60,167,26,50,60,167,28,02,49,176,33,07,42,316,42,1*50
$GPGSV,4,3,15,27,32,036,26,16,27,076,32,09,23,245,23,196,19,169,24,1*54
$GPGSV,4,4,15,04,17,202,21,30,12,320,37,26,07,100,19,1*5E
$GPGSV,3,1,09,195,65,114,45,194,64,052,37,08,62,356,45,199,60,167,37,8*5E
$GPGSV,3,2,09,27,32,036,24,09,23,245,28,196,19,169,22,04,17,202,15,8*5D
$GPGSV,3,3,09,30,12,320,41,8*50
$GLGSV,2,1,07,81,66,201,42,78,57,039,31,88,54,031,25,79,27,334,38,1*75
$GLGSV,2,2,07,77,23,111,30,82,16,205,25,87,02,026,,1*48
$GAGSV,2,1,08,21,55,013,27,13,54,079,33,26,44,172,23,27,28,080,,7*77
$GAGSV,2,2,08,19,27,240,,15,13,038,24,04,12,298,,33,04,199,,7*7A
$GAGSV,1,1,03,21,55,013,37,13,54,079,36,27,28,080,32,1*4D
$GBGSV,4,1,14,23,74,034,41,09,73,265,42,06,71,214,41,16,68,199,41,1*73
$GBGSV,4,2,14,07,60,309,37,40,60,329,38,43,58,036,,39,57,187,44,1*72
$GBGSV,4,3,14,28,56,222,45,10,51,290,35,25,37,118,44,37,31,322,41,1*7D
$GBGSV,4,4,14,34,11,040,27,38,10,168,,1*70
$GBGSV,2,1,07,23,74,034,35,40,60,329,44,39,57,187,37,28,56,222,43,4*70
$GBGSV,2,2,07,25,37,118,44,37,31,322,40,34,11,040,30,4*4E
$GNACCURACY,2.7*13
$PAIRSAT,1,35,2,0,201,3,0,200,4,0,221,5,0,200,6,0,200,7,0,201,8,0,221,9,0,220,10,0,200,11,0,200,12,0,200,13,0,200,14,0,200,15,0,200,16,0,201,17,0,200,18,0,200,19,0,200,20,0,200,21,0,201,22,0,200,23,0,200,24,0,200,25,0,200,26,0,220,27,0,221,28,0,200,29,0,200,30,0,221,31,0,200,32,0,200,194,0,621,195,0,621,196,0,620,199,0,621*5A
$PAIRSAT,2,24,65,0,200,66,0,200,67,0,200,68,0,200,69,0,200,70,0,200,71,0,200,72,0,200,73,0,200,74,0,200,75,0,200,76,0,200,77,0,201,78,0,201,79,0,201,80,0,200,81,0,201,82,0,200,83,0,200,84,0,200,85,0,200,86,0,200,87,0,201,88,0,201*7A
$PAIRSAT,3,23,2,0,1200,3,0,1200,4,0,1200,5,0,200,7,0,1200,8,0,1200,9,0,1200,10,0,1200,11,0,1200,12,0,1200,13,0,1221,15,0,1220,19,0,1201,21,0,1221,24,0,1200,25,0,1200,26,0,1221,27,0,1221,30,0,1200,31,0,1200,33,0,1200,34,0,1000,36,0,1200*6B
$PAIRSAT,4,46,1,0,200,2,0,200,3,0,600,4,0,200,5,0,200,6,0,201,7,0,201,8,0,200,9,0,201,10,0,201,11,0,200,12,0,200,13,0,200,14,0,200,16,0,201,19,0,600,20,0,600,21,0,600,22,0,600,23,0,621,24,0,600,25,0,621,26,0,600,27,0,600,28,0,621,29,0,600,30,0,600,32,0,600,33,0,600,34,0,621,35,0,600,36,0,600,37,0,621,38,0,600,39,0,621,40,0,621,41,0,600,42,0,600,43,0,421,44,0,400,45,0,400,46,0,400,59,0,400,60,0,400,61,0,400,62,0,400*48
$PAIRDGP,10,2,4,7,8,9,16,21,26,27,30*42
$GNGGA,041101.200,2500.7814378,N,12132.4519485,E,4,53,0.50,16.721,M,15.25,M,1,3335*46
$GNRMC,041101.200,A,2500.7814378,N,12132.4519485,E,0.01,317.42,090324,,,R,V*12
$GPHDT,,T*1B
$GNACCURACY,2.7*13
$GNGGA,041101.300,2500.7814392,N,12132.4519489,E,4,53,0.50,16.730,M,15.25,M,1,3335*4F
$GNRMC,041101.300,A,2500.7814392,N,12132.4519489,E,0.01,317.42,090324,,,R,V*1B
$GPHDT,,T*1B
$GNACCURACY,2.7*13
$GNGGA,041101.400,2500.7814367,N,12132.4519468,E,4,53,0.50,16.731,M,15.25,M,1,3335*4C
$GNRMC,041101.400,A,2500.7814367,N,12132.4519468,E,0.01,317.42,090324,,,R,V*19
$GPHDT,,T*1B
$GNACCURACY,2.7*13
$GNGGA,041101.500,2500.7814406,N,12132.4519504,E,4,54,0.50,16.722,M,15.25,M,0,3335*42
$GNRMC,041101.500,A,2500.7814406,N,12132.4519504,E,0.02,317.42,090324,,,R,V*10
$GPHDT,,T*1B
$GNACCURACY,2.7*13
$GNGGA,041101.600,2500.7814345,N,12132.4519457,E,4,54,0.50,16.707,M,15.25,M,0,3335*41
$GNRMC,041101.600,A,2500.7814345,N,12132.4519457,E,0.02,317.42,090324,,,R,V*14
$GPHDT,,T*1B
$GNACCURACY,2.7*13
$GNGGA,041101.700,2500.7814416,N,12132.4519525,E,4,55,0.50,16.722,M,15.25,M,0,3335*43
$GNRMC,041101.700,A,2500.7814416,N,12132.4519525,E,0.02,317.42,090324,,,R,V*10
$GPHDT,,T*1B
$GNACCURACY,2.7*13
$GNGGA,041101.800,2500.7814391,N,12132.4519508,E,4,55,0.50,16.729,M,15.25,M,0,3335*40
$GNRMC,041101.800,A,2500.7814391,N,12132.4519508,E,0.02,317.42,090324,,,R,V*18
$GPHDT,,T*1B
$GNACCURACY,2.7*13
$GNGGA,041101.900,2500.7814406,N,12132.4519556,E,4,55,0.50,16.720,M,15.25,M,0,3335*4A
$GNRMC,041101.900,A,2500.7814406,N,12132.4519556,E,0.02,317.42,090324,,,R,V*1B
$GPHDT,,T*1B
$GNACCURACY,2.7*13
$GNGGA,041102.000,2500.7814367,N,12132.4519533,E,4,55,0.50,16.728,M,15.25,M,1,3335*4A
$GNRMC,041102.000,A,2500.7814367,N,12132.4519533,E,0.01,317.42,090324,,,R,V*11
$GPHDT,,T*1B
$GNACCURACY,2.7*13
$GNGGA,041102.100,2500.7814423,N,12132.4519558,E,4,55,0.50,16.719,M,15.25,M,1,3335*43
$GNRMC,041102.100,A,2500.7814423,N,12132.4519558,E,0.02,317.42,090324,,,R,V*19
$GPHDT,,T*1B
$GNGSA,A,3,195,194,08,21,199,02,07,16,09,196,04,30,0.76,0.50,0.57,1*0E
$GNGSA,A,3,27,,,,,,,,,,,,0.76,0.50,0.57,1*02
$GNGSA,A,3,81,78,88,79,77,,,,,,,,0.76,0.50,0.57,2*0C
$GNGSA,A,3,21,13,26,27,15,,,,,,,,0.76,0.50,0.57,3*01
$GNGSA,A,3,23,09,06,16,07,40,43,39,28,10,25,37,0.76,0.50,0.57,4*0D
$GNGSA,A,3,34,,,,,,,,,,,,0.76,0.50,0.57,4*05
$GPGSV,4,1,15,195,65,114,44,194,64,052,29,08,62,356,41,21,61,155,41,1*64
$GPGSV,4,2,15,199,60,167,27,50,60,167,30,02,49,176,35,07,42,316,42,1*5E
$GPGSV,4,3,15,27,32,036,24,16,27,076,31,09,23,245,24,196,19,169,23,1*55
$GPGSV,4,4,15,04,17,202,21,30,12,320,38,26,07,100,18,1*50
$GPGSV,3,1,09,195,65,114,45,194,64,052,36,08,62,356,46,199,60,167,37,8*5C
$GPGSV,3,2,09,27,32,036,22,09,23,245,28,196,19,169,21,04,17,202,12,8*5F
$GPGSV,3,3,09,30,12,320,38,8*5E
$GLGSV,2,1,07,81,66,201,42,78,57,039,28,88,54,031,27,79,27,334,38,1*7F
$GLGSV,2,2,07,77,23,111,31,82,16,205,28,87,02,026,,1*44
$GAGSV,2,1,08,21,55,013,29,13,54,079,31,26,44,172,20,27,28,080,21,7*7B
$GAGSV,2,2,08,19,27,240,,15,13,038,24,04,12,298,,33,04,199,,7*7A
$GAGSV,1,1,03,21,55,013,37,13,54,079,33,27,28,080,28,1*43
$GBGSV,4,1,13,23,74,034,41,09,73,265,42,06,71,214,41,16,68,199,41,1*74
$GBGSV,4,2,13,07,60,309,37,40,60,329,38,43,58,036,26,39,57,187,44,1*71
$GBGSV,4,3,13,28,56,222,45,10,51,290,37,25,37,118,43,37,31,322,39,1*70
$GBGSV,4,4,13,34,11,040,23,1*46
$GBGSV,2,1,07,23,74,034,35,40,60,329,43,39,57,187,35,28,56,222,42,4*74
$GBGSV,2,2,07,25,37,118,43,37,31,322,39,34,11,040,25,4*43
$GNACCURACY,2.7*13
$PAIRSAT,1,35,2,0,201,3,0,200,4,0,221,5,0,200,6,0,200,7,0,201,8,0,221,9,0,220,10,0,200,11,0,200,12,0,200,13,0,200,14,0,200,15,0,200,16,0,201,17,0,200,18,0,200,19,0,200,20,0,200,21,0,201,22,0,200,23,0,200,24,0,200,25,0,200,26,0,220,27,0,221,28,0,200,29,0,200,30,0,221,31,0,200,32,0,200,194,0,621,195,0,621,196,0,620,199,0,621*5A
$PAIRSAT,2,24,65,0,200,66,0,200,67,0,200,68,0,200,69,0,200,70,0,200,71,0,200,72,0,200,73,0,200,74,0,200,75,0,200,76,0,200,77,0,201,78,0,201,79,0,201,80,0,200,81,0,201,82,0,200,83,0,200,84,0,200,85,0,200,86,0,200,87,0,201,88,0,201*7A
$PAIRSAT,3,23,2,0,1200,3,0,1200,4,0,1200,5,0,200,7,0,1200,8,0,1200,9,0,1200,10,0,1200,11,0,1200,12,0,1200,13,0,1221,15,0,1220,19,0,1201,21,0,1221,24,0,1200,25,0,1200,26,0,1221,27,0,1221,30,0,1200,31,0,1200,33,0,1200,34,0,1000,36,0,1200*6B
$PAIRSAT,4,46,1,0,200,2,0,200,3,0,600,4,0,200,5,0,200,6,0,201,7,0,201,8,0,200,9,0,201,10,0,201,11,0,200,12,0,200,13,0,200,14,0,200,16,0,201,19,0,600,20,0,600,21,0,600,22,0,600,23,0,621,24,0,600,25,0,621,26,0,600,27,0,600,28,0,621,29,0,600,30,0,600,32,0,600,33,0,600,34,0,621,35,0,600,36,0,600,37,0,621,38,0,600,39,0,621,40,0,621,41,0,600,42,0,600,43,0,421,44,0,400,45,0,400,46,0,400,59,0,400,60,0,400,61,0,400,62,0,400*48
$PAIRDGP,10,2,4,7,8,9,16,21,26,27,30*42
$GNGGA,041102.200,2500.7814373,N,12132.4519499,E,4,54,0.50,16.723,M,15.25,M,1,3335*46
$GNRMC,041102.200,A,2500.7814373,N,12132.4519499,E,0.03,317.42,090324,,,R,V*15
$GPHDT,,T*1B
$GNACCURACY,2.7*13
$GNGGA,041102.300,2500.7814388,N,12132.4519566,E,4,54,0.50,16.722,M,15.25,M,1,3335*43
$GNRMC,041102.300,A,2500.7814388,N,12132.4519566,E,0.02,317.42,090324,,,R,V*10
$GPHDT,,T*1B
$GNACCURACY,2.7*13
$GNGGA,041102.400,2500.7814393,N,12132.4519534,E,4,54,0.50,16.722,M,15.25,M,1,3335*49
$GNRMC,041102.400,A,2500.7814393,N,12132.4519534,E,0.01,317.42,090324,,,R,V*19
$GPHDT,,T*1B
$GNACCURACY,2.7*13
$GNGGA,041102.500,2500.7814396,N,12132.4519545,E,4,54,0.50,16.722,M,15.25,M,1,3335*4B
$GNRMC,041102.500,A,2500.7814396,N,12132.4519545,E,0.02,317.42,090324,,,R,V*18
$GPHDT,,T*1B
$GNACCURACY,2.7*13
$GNGGA,041102.600,2500.7814385,N,12132.4519533,E,4,55,0.50,16.723,M,15.25,M,0,3335*4A
$GNRMC,041102.600,A,2500.7814385,N,12132.4519533,E,0.02,317.42,090324,,,R,V*18
$GPHDT,,T*1B
$GNACCURACY,2.7*13
$GNGGA,041102.700,2500.7814426,N,12132.4519551,E,4,55,0.50,16.734,M,15.25,M,0,3335*47
$GNRMC,041102.700,A,2500.7814426,N,12132.4519551,E,0.01,317.42,090324,,,R,V*10
$GPHDT,,T*1B
$GNACCURACY,2.7*13
$GNGGA,041102.800,2500.7814454,N,12132.4519558,E,4,55,0.50,16.738,M,15.25,M,0,3335*48
$GNRMC,041102.800,A,2500.7814454,N,12132.4519558,E,0.01,317.42,090324,,,R,V*13
$GPHDT,,T*1B
$GNACCURACY,2.7*13
$GNGGA,041102.900,2500.7814487,N,12132.4519618,E,4,55,0.50,16.734,M,15.25,M,0,3335*4C
$GNRMC,041102.900,A,2500.7814487,N,12132.4519618,E,0.02,317.42,090324,,,R,V*18
$GPHDT,,T*1B
$GNACCURACY,2.7*13
$GNGGA,041103.000,2500.7814399,N,12132.4519522,E,4,55,0.50,16.734,M,15.25,M,1,3335*47
$GNRMC,041103.000,A,2500.7814399,N,12132.4519522,E,0.02,317.42,090324,,,R,V*12
$GPHDT,,T*1B
$GNACCURACY,2.7*13
$GNGGA,041103.100,2500.7814476,N,12132.4519606,E,4,55,0.50,16.738,M,15.25,M,1,3335*49
$GNRMC,041103.100,A,2500.7814476,N,12132.4519606,E,0.02,317.42,090324,,,R,V*10
$GPHDT,,T*1B
