$FW : RTK35X,V1.1X0314AS,Lib20210517,1*54
$Tool : LOCOSYS , GNSS Firebird , v1.0.0.19*39
$---------------------------------------------------*2D
3,0,621,24,0,600,25,0,621,26,0,600,27,0,600,28,0,621,29,0,600,30,0,600,32,0,600,33,0,600,34,0,621,35,0,600,36,0,600,37,0,621,38,0,600,39,0,621,40,0,621,41,0,600,42,0,400,43,0,421,44,0,400,45,0,400,46,0,400,59,0,400,60,0,400,61,0,400,62,0,400*4A
$PAIRDGP,10,2,4,7,8,9,16,21,26,27,30*42
$GNGGA,041039.200,2500.7814333,N,12132.4519366,E,4,55,0.50,16.721,M,15.25,M,1,3335*4F
$GNRMC,041039.200,A,2500.7814333,N,12132.4519366,E,0.03,317.42,090324,,,R,V*1F
$GPHDT,,T*1B
$GNACCURACY,2.8*1C
$GNGGA,041039.300,2500.7814314,N,12132.4519300,E,4,55,0.50,16.728,M,15.25,M,1,3335*42
$GNRMC,041039.300,A,2500.7814314,N,12132.4519300,E,0.04,317.42,090324,,,R,V*1C
$GPHDT,,T*1B
$GNACCURACY,2.8*1C
$GNGGA,041039.400,2500.7814316,N,12132.4519322,E,4,55,0.50,16.725,M,15.25,M,1,3335*4A
$GNRMC,041039.400,A,2500.7814316,N,12132.4519322,E,0.03,317.42,090324,,,R,V*1E
$GPHDT,,T*1B
$GNACCURACY,2.8*1C
$GNGGA,041039.500,2500.7814332,N,12132.4519343,E,4,54,0.50,16.722,M,15.25,M,1,3335*4C
$GNRMC,041039.500,A,2500.7814332,N,12132.4519343,E,0.03,317.42,090324,,,R,V*1E
$GPHDT,,T*1B
$GNACCURACY,2.8*1C
$GNGGA,041039.600,2500.7814324,N,12132.4519342,E,4,54,0.50,16.735,M,15.25,M,0,3335*4E
$GNRMC,041039.600,A,2500.7814324,N,12132.4519342,E,0.03,317.42,090324,,,R,V*1B
$GPHDT,,T*1B
$GNACCURACY,2.8*1C
$GNGGA,041039.700,2500.7814308,N,12132.4519329,E,4,54,0.50,16.729,M,15.25,M,0,3335*41
$GNRMC,041039.700,A,2500.7814308,N,12132.4519329,E,0.03,317.42,090324,,,R,V*19
$GPHDT,,T*1B
$GNACCURACY,2.8*1C
$GNGGA,041039.800,2500.7814334,N,12132.4519375,E,4,54,0.50,16.722,M,15.25,M,0,3335*43
$GNRMC,041039.800,A,2500.7814334,N,12132.4519375,E,0.03,317.42,090324,,,R,V*10
$GPHDT,,T*1B
$GNACCURACY,2.8*1C
$GNGGA,041039.900,2500.7814333,N,12132.4519367,E,4,55,0.50,16.736,M,15.25,M,0,3335*42
$GNRMC,041039.900,A,2500.7814333,N,12132.4519367,E,0.03,317.42,090324,,,R,V*15
$GPHDT,,T*1B
$GNACCURACY,2.8*1C
$GNGGA,041040.000,2500.7814294,N,12132.4519341,E,4,55,0.50,16.706,M,15.25,M,1,3335*4F
$GNRMC,041040.000,A,2500.7814294,N,12132.4519341,E,0.03,317.42,090324,,,R,V*1A
$GPHDT,,T*1B
$GNACCURACY,2.8*1C
$GNGGA,041040.100,2500.7814330,N,12132.4519352,E,4,55,0.50,16.723,M,15.25,M,1,3335*44
$GNRMC,041040.100,A,2500.7814330,N,12132.4519352,E,0.03,317.42,090324,,,R,V*16
$GPHDT,,T*1B
$GNGSA,A,3,195,194,08,21,199,02,07,27,16,09,196,04,0.76,0.50,0.58,1*07
$GNGSA,A,3,30,,,,,,,,,,,,0.76,0.50,0.58,1*0B
$GNGSA,A,3,81,78,88,79,77,,,,,,,,0.76,0.50,0.58,2*03
$GNGSA,A,3,21,13,26,27,15,,,,,,,,0.76,0.50,0.58,3*0E
$GNGSA,A,3,23,09,06,16,07,40,39,28,10,25,37,34,0.76,0.50,0.58,4*02
$GPGSV,4,1,15,195,65,114,42,194,64,052,31,08,62,356,42,21,61,155,32,1*6C
$GPGSV,4,2,15,50,60,167,31,199,60,167,29,02,49,176,31,07,42,316,44,1*53
$GPGSV,4,3,15,27,32,036,28,16,27,076,32,09,23,246,25,196,19,169,21,1*5A
$GPGSV,4,4,15,04,17,202,24,30,12,320,39,26,08,100,20,1*50
$GPGSV,2,1,08,195,65,114,38,194,64,052,36,08,62,356,43,199,60,167,36,8*52
$GPGSV,2,2,08,27,32,036,28,09,23,246,29,196,19,169,20,30,12,320,40,8*52
$GLGSV,2,1,06,81,66,201,41,78,57,039,31,88,54,031,21,79,26,334,42,1*7F
$GLGSV,2,2,06,77,23,111,20,87,02,026,,1*75
$GAGSV,2,1,07,21,55,012,29,13,54,080,24,26,44,172,22,27,28,080,33,7*76
$GAGSV,2,2,07,19,27,240,,15,13,038,19,04,12,299,,7*4F
$GAGSV,2,1,05,21,55,012,35,13,54,080,36,26,44,172,18,27,28,080,29,1*7E
$GAGSV,2,2,05,15,13,038,23,1*4C
$GBGSV,4,1,13,23,74,033,41,09,73,265,39,06,71,214,40,16,68,199,42,1*7D
$GBGSV,4,2,13,07,60,308,41,40,60,329,41,43,58,036,,39,57,187,44,1*7B
$GBGSV,4,3,13,28,56,222,47,10,51,290,43,25,37,118,38,37,30,322,44,1*76
$GBGSV,4,4,13,34,11,040,32,1*46
$GBGSV,2,1,07,23,74,033,39,40,60,329,41,39,57,187,38,28,56,222,40,4*72
$GBGSV,2,2,07,25,37,118,26,37,30,322,42,34,11,040,28,4*40
$GNACCURACY,2.8*1C
$PAIRSAT,1,35,2,0,201,3,0,200,4,0,221,5,0,200,6,0,200,7,0,201,8,0,221,9,0,220,10,0,200,11,0,200,12,0,200,13,0,200,14,0,200,15,0,200,16,0,201,17,0,200,18,0,200,19,0,200,20,0,200,21,0,201,22,0,200,23,0,200,24,0,200,25,0,200,26,0,220,27,0,221,28,0,200,29,0,200,30,0,221,31,0,200,32,0,200,194,0,621,195,0,621,196,0,620,199,0,621*5A
$PAIRSAT,2,24,65,0,200,66,0,200,67,0,200,68,0,200,69,0,200,70,0,200,71,0,200,72,0,200,73,0,200,74,0,200,75,0,200,76,0,200,77,0,201,78,0,201,79,0,201,80,0,200,81,0,201,82,0,200,83,0,200,84,0,200,85,0,200,86,0,200,87,0,201,88,0,201*7A
$PAIRSAT,3,23,2,0,1200,3,0,1200,4,0,1200,5,0,200,7,0,1200,8,0,1200,9,0,1200,10,0,1200,11,0,1200,12,0,1200,13,0,1221,15,0,1220,19,0,1201,21,0,1221,24,0,1200,25,0,1200,26,0,1221,27,0,1221,30,0,1200,31,0,1200,33,0,1200,34,0,1000,36,0,1200*6B
$PAIRSAT,4,46,1,0,200,2,0,200,3,0,600,4,0,200,5,0,200,6,0,201,7,0,201,8,0,200,9,0,201,10,0,201,11,0,200,12,0,200,13,0,200,14,0,200,16,0,201,19,0,600,20,0,600,21,0,600,22,0,600,23,0,621,24,0,600,25,0,621,26,0,600,27,0,600,28,0,621,29,0,600,30,0,600,32,0,600,33,0,600,34,0,621,35,0,600,36,0,600,37,0,621,38,0,600,39,0,621,40,0,621,41,0,600,42,0,400,43,0,421,44,0,400,45,0,400,46,0,400,59,0,400,60,0,400,61,0,400,62,0,400*4A
$PAIRDGP,10,2,4,7,8,9,16,21,26,27,30*42
$GNGGA,041040.200,2500.7814348,N,12132.4519363,E,4,55,0.50,16.727,M,15.25,M,1,3335*4E
$GNRMC,041040.200,A,2500.7814348,N,12132.4519363,E,0.03,317.42,090324,,,R,V*18
$GPHDT,,T*1B
$GNACCURACY,2.8*1C
$GNGGA,041040.300,2500.7814298,N,12132.4519315,E,4,55,0.50,16.719,M,15.25,M,1,3335*4F
$GNRMC,041040.300,A,2500.7814298,N,12132.4519315,E,0.03,317.42,090324,,,R,V*14
$GPHDT,,T*1B
$GNACCURACY,2.8*1C
$GNGGA,041040.400,2500.7814327,N,12132.4519339,E,4,55,0.50,16.732,M,15.25,M,1,3335*4A
$GNRMC,041040.400,A,2500.7814327,N,12132.4519339,E,0.03,317.42,090324,,,R,V*18
$GPHDT,,T*1B
$GNACCURACY,2.8*1C
$GNGGA,041040.500,2500.7814336,N,12132.4519332,E,4,55,0.50,16.727,M,15.25,M,1,3335*44
$GNRMC,041040.500,A,2500.7814336,N,12132.4519332,E,0.03,317.42,090324,,,R,V*12
$GPHDT,,T*1B
$GNACCURACY,2.8*1C
$GNGGA,041040.600,2500.7814332,N,12132.4519319,E,4,55,0.50,16.736,M,15.25,M,0,3335*4B
$GNRMC,041040.600,A,2500.7814332,N,12132.4519319,E,0.04,317.42,090324,,,R,V*1B
$GPHDT,,T*1B
$GNACCURACY,2.8*1C
$GNGGA,041040.700,2500.7814369,N,12132.4519321,E,4,55,0.50,16.745,M,15.25,M,0,3335*4B
$GNRMC,041040.700,A,2500.7814369,N,12132.4519321,E,0.04,317.42,090324,,,R,V*1F
$GPHDT,,T*1B
$GNACCURACY,2.8*1C
$GNGGA,041040.800,2500.7814354,N,12132.4519323,E,4,55,0.50,16.750,M,15.25,M,0,3335*4C
$GNRMC,041040.800,A,2500.7814354,N,12132.4519323,E,0.04,317.42,090324,,,R,V*1C
$GPHDT,,T*1B
$GNACCURACY,2.8*1C
$GNGGA,041040.900,2500.7814370,N,12132.4519330,E,4,55,0.50,16.747,M,15.25,M,0,3335*4F
$GNRMC,041040.900,A,2500.7814370,N,12132.4519330,E,0.03,317.42,090324,,,R,V*1E
$GPHDT,,T*1B
$GNACCURACY,2.8*1C
$GNGGA,041041.000,2500.7814360,N,12132.4519329,E,4,55,0.50,16.740,M,15.25,M,1,3335*48
$GNRMC,041041.000,A,2500.7814360,N,12132.4519329,E,0.04,317.42,090324,,,R,V*18
$GPHDT,,T*1B
$GNACCURACY,2.8*1C
$GNGGA,041041.100,2500.7814343,N,12132.4519329,E,4,55,0.50,16.736,M,15.25,M,1,3335*49
$GNRMC,041041.100,A,2500.7814343,N,12132.4519329,E,0.03,317.42,090324,,,R,V*1F
$GPHDT,,T*1B
$GNGSA,A,3,195,194,08,21,199,02,07,27,16,09,196,04,0.76,0.50,0.58,1*07
$GNGSA,A,3,30,,,,,,,,,,,,0.76,0.50,0.58,1*0B
$GNGSA,A,3,81,78,88,79,77,,,,,,,,0.76,0.50,0.58,2*03
$GNGSA,A,3,21,13,26,27,15,,,,,,,,0.76,0.50,0.58,3*0E
$GNGSA,A,3,23,09,06,16,07,40,39,28,10,25,37,34,0.76,0.50,0.58,4*02
$GPGSV,4,1,15,195,65,114,42,194,64,052,31,08,62,356,42,21,61,155,28,1*67
$GPGSV,4,2,15,50,60,167,32,199,60,167,29,02,49,176,29,07,42,316,44,1*59
$GPGSV,4,3,15,27,32,036,30,16,27,076,29,09,23,246,23,196,19,169,21,1*5F
$GPGSV,4,4,15,04,17,202,23,30,12,320,37,26,08,100,20,1*59
$GPGSV,2,1,08,195,65,114,39,194,64,052,35,08,62,356,43,199,60,167,35,8*53
$GPGSV,2,2,08,27,32,036,28,09,23,246,28,196,19,169,23,30,12,320,41,8*51
$GLGSV,2,1,06,81,66,201,41,78,57,039,30,88,54,031,21,79,26,334,42,1*7E
$GLGSV,2,2,06,77,23,111,18,87,02,026,,1*7E
$GAGSV,2,1,07,21,55,012,26,13,54,080,29,26,44,172,21,27,28,080,34,7*70
$GAGSV,2,2,07,19,27,240,,15,13,038,21,04,12,299,,7*44
$GAGSV,2,1,05,21,55,012,35,13,54,080,33,26,44,172,25,27,28,080,30,1*7D
$GAGSV,2,2,05,15,13,038,19,1*45
$GBGSV,4,1,13,23,74,033,41,09,73,265,38,06,71,214,41,16,68,199,42,1*7D
$GBGSV,4,2,13,07,60,308,41,40,60,329,42,43,58,036,26,39,57,187,44,1*7C
$GBGSV,4,3,13,28,56,222,47,10,51,290,42,25,37,118,36,37,30,322,44,1*79
$GBGSV,4,4,13,34,11,040,25,1*40
$GBGSV,2,1,07,23,74,033,38,40,60,329,41,39,57,187,37,28,56,222,38,4*73
$GBGSV,2,2,07,25,37,118,34,37,30,322,41,34,11,040,23,4*4B
$GNACCURACY,2.8*1C
$PAIRSAT,1,35,2,0,201,3,0,200,4,0,221,5,0,200,6,0,200,7,0,201,8,0,221,9,0,220,10,0,200,11,0,200,12,0,200,13,0,200,14,0,200,15,0,200,16,0,201,17,0,200,18,0,200,19,0,200,20,0,200,21,0,201,22,0,200,23,0,200,24,0,200,25,0,200,26,0,220,27,0,221,28,0,200,29,0,200,30,0,221,31,0,200,32,0,200,194,0,621,195,0,621,196,0,620,199,0,621*5A
$PAIRSAT,2,24,65,0,200,66,0,200,67,0,200,68,0,200,69,0,200,70,0,200,71,0,200,72,0,200,73,0,200,74,0,200,75,0,200,76,0,200,77,0,201,78,0,201,79,0,201,80,0,200,81,0,201,82,0,200,83,0,200,84,0,200,85,0,200,86,0,200,87,0,201,88,0,201*7A
$PAIRSAT,3,23,2,0,1200,3,0,1200,4,0,1200,5,0,200,7,0,1200,8,0,1200,9,0,1200,10,0,1200,11,0,1200,12,0,1200,13,0,1221,15,0,1220,19,0,1201,21,0,1221,24,0,1200,25,0,1200,26,0,1221,27,0,1221,30,0,1200,31,0,1200,33,0,1200,34,0,1000,36,0,1200*6B
$PAIRSAT,4,46,1,0,200,2,0,200,3,0,600,4,0,200,5,0,200,6,0,201,7,0,201,8,0,200,9,0,201,10,0,201,11,0,200,12,0,200,13,0,200,14,0,200,16,0,201,19,0,600,20,0,600,21,0,600,22,0,600,23,0,621,24,0,600,25,0,621,26,0,600,27,0,600,28,0,621,29,0,600,30,0,600,32,0,600,33,0,600,34,0,621,35,0,600,36,0,600,37,0,621,38,0,600,39,0,621,40,0,621,41,0,600,42,0,400,43,0,421,44,0,400,45,0,400,46,0,400,59,0,400,60,0,400,61,0,400,62,0,400*4A
$PAIRDGP,10,2,4,7,8,9,16,21,26,27,30*42
$GNGGA,041041.200,2500.7814322,N,12132.4519329,E,4,55,0.50,16.725,M,15.25,M,1,3335*4F
$GNRMC,041041.200,A,2500.7814322,N,12132.4519329,E,0.03,317.42,090324,,,R,V*1B
$GPHDT,,T*1B
$GNACCURACY,2.8*1C
$GNGGA,041041.300,2500.7814330,N,12132.4519333,E,4,55,0.50,16.729,M,15.25,M,1,3335*4A
$GNRMC,041041.300,A,2500.7814330,N,12132.4519333,E,0.02,317.42,090324,,,R,V*13
$GPHDT,,T*1B
$GNACCURACY,2.8*1C
$GNGGA,041041.400,2500.7814289,N,12132.4519329,E,4,56,0.50,16.722,M,15.25,M,1,3335*4D
$GNRMC,041041.400,A,2500.7814289,N,12132.4519329,E,0.02,317.42,090324,,,R,V*1C
$GPHDT,,T*1B
$GNACCURACY,2.8*1C
$GNGGA,041041.500,2500.7814336,N,12132.4519395,E,4,56,0.50,16.724,M,15.25,M,1,3335*48
$GNRMC,041041.500,A,2500.7814336,N,12132.4519395,E,0.02,317.42,090324,,,R,V*1F
$GPHDT,,T*1B
$GNACCURACY,2.8*1C
$GNGGA,041041.600,2500.7814349,N,12132.4519366,E,4,56,0.50,16.719,M,15.25,M,0,3335*40
$GNRMC,041041.600,A,2500.7814349,N,12132.4519366,E,0.02,317.42,090324,,,R,V*18
$GPHDT,,T*1B
$GNACCURACY,2.8*1C
$GNGGA,041041.700,2500.7814347,N,12132.4519370,E,4,56,0.50,16.729,M,15.25,M,0,3335*4B
$GNRMC,041041.700,A,2500.7814347,N,12132.4519370,E,0.02,317.42,090324,,,R,V*10
$GPHDT,,T*1B
$GNACCURACY,2.8*1C
$GNGGA,041041.800,2500.7814332,N,12132.4519384,E,4,56,0.50,16.722,M,15.25,M,0,3335*46
$GNRMC,041041.800,A,2500.7814332,N,12132.4519384,E,0.01,317.42,090324,,,R,V*15
$GPHDT,,T*1B
$GNACCURACY,2.8*1C
$GNGGA,041041.900,2500.7814317,N,12132.4519380,E,4,56,0.50,16.723,M,15.25,M,0,3335*45
$GNRMC,041041.900,A,2500.7814317,N,12132.4519380,E,0.01,317.42,090324,,,R,V*17
$GPHDT,,T*1B
$GNACCURACY,2.8*1C
$GNGGA,041042.000,2500.7814339,N,12132.4519405,E,4,56,0.50,16.722,M,15.25,M,1,3335*49
$GNRMC,041042.000,A,2500.7814339,N,12132.4519405,E,0.01,317.42,090324,,,R,V*1B
$GPHDT,,T*1B
$GNACCURACY,2.8*1C
$GNGGA,041042.100,2500.7814283,N,12132.4519360,E,4,56,0.50,16.720,M,15.25,M,1,3335*4E
$GNRMC,041042.100,A,2500.7814283,N,12132.4519360,E,0.01,317.42,090324,,,R,V*1E
$GPHDT,,T*1B
$GNGSA,A,3,195,194,08,21,199,02,07,27,16,09,196,04,0.76,0.50,0.57,1*08
$GNGSA,A,3,30,,,,,,,,,,,,0.76,0.50,0.57,1*04
$GNGSA,A,3,81,78,88,79,77,,,,,,,,0.76,0.50,0.57,2*0C
$GNGSA,A,3,21,13,26,27,15,,,,,,,,0.76,0.50,0.57,3*01
$GNGSA,A,3,23,09,06,16,40,07,43,39,28,10,25,37,0.76,0.50,0.57,4*0D
$GNGSA,A,3,34,,,,,,,,,,,,0.76,0.50,0.57,4*05
$GPGSV,4,1,15,195,65,114,42,194,64,052,30,08,62,356,43,21,61,155,39,1*67
$GPGSV,4,2,15,50,60,167,34,199,60,167,32,02,49,176,35,07,42,316,44,1*58
$GPGSV,4,3,15,27,32,036,27,16,27,076,32,09,23,246,22,196,19,169,22,1*51
$GPGSV,4,4,15,04,17,202,23,30,12,320,39,26,08,100,19,1*5D
$GPGSV,2,1,08,195,65,114,41,194,64,052,35,08,62,356,44,199,60,167,36,8*58
$GPGSV,2,2,08,27,32,036,28,09,23,246,30,196,19,169,24,30,12,320,41,8*5F
$GLGSV,2,1,06,81,66,201,40,78,57,039,32,88,54,031,23,79,26,334,42,1*7F
$GLGSV,2,2,06,77,23,111,16,87,02,026,,1*70
$GAGSV,2,1,08,21,55,012,29,13,54,080,32,26,44,172,23,27,28,080,34,7*78
$GAGSV,2,2,08,19,27,240,,15,13,038,22,04,12,299,,33,04,199,,7*7D
$GAGSV,2,1,05,21,55,012,34,13,54,080,36,26,44,172,23,27,28,080,31,1*7E
$GAGSV,2,2,05,15,13,038,18,1*44
$GBGSV,4,1,14,23,74,033,41,09,73,265,38,06,71,214,40,16,68,199,42,1*7B
$GBGSV,4,2,14,40,60,329,42,07,60,308,41,43,58,036,29,39,57,187,45,1*75
$GBGSV,4,3,14,28,56,222,46,10,51,290,41,25,37,118,39,37,30,322,43,1*74
$GBGSV,4,4,14,34,11,040,30,38,10,168,,1*76
$GBGSV,2,1,07,23,74,033,36,40,60,329,42,39,57,187,39,28,56,222,40,4*7F
$GBGSV,2,2,07,25,37,118,36,37,30,322,41,34,11,040,26,4*4C
$GNACCURACY,2.8*1C
$PAIRSAT,1,35,2,0,201,3,0,200,4,0,221,5,0,200,6,0,200,7,0,201,8,0,221,9,0,220,10,0,200,11,0,200,12,0,200,13,0,200,14,0,200,15,0,200,16,0,201,17,0,200,18,0,200,19,0,200,20,0,200,21,0,201,22,0,200,23,0,200,24,0,200,25,0,200,26,0,220,27,0,221,28,0,200,29,0,200,30,0,221,31,0,200,32,0,200,194,0,621,195,0,621,196,0,620,199,0,621*5A
$PAIRSAT,2,24,65,0,200,66,0,200,67,0,200,68,0,200,69,0,200,70,0,200,71,0,200,72,0,200,73,0,200,74,0,200,75,0,200,76,0,200,77,0,201,78,0,201,79,0,201,80,0,200,81,0,201,82,0,200,83,0,200,84,0,200,85,0,200,86,0,200,87,0,201,88,0,201*7A
$PAIRSAT,3,23,2,0,1200,3,0,1200,4,0,1200,5,0,200,7,0,1200,8,0,1200,9,0,1200,10,0,1200,11,0,1200,12,0,1200,13,0,1221,15,0,1220,19,0,1201,21,0,1221,24,0,1200,25,0,1200,26,0,1221,27,0,1221,30,0,1200,31,0,1200,33,0,1200,34,0,1000,36,0,1200*6B
$PAIRSAT,4,46,1,0,200,2,0,200,3,0,600,4,0,200,5,0,200,6,0,201,7,0,201,8,0,200,9,0,201,10,0,201,11,0,200,12,0,200,13,0,200,14,0,200,16,0,201,19,0,600,20,0,600,21,0,600,22,0,600,23,0,621,24,0,600,25,0,621,26,0,600,27,0,600,28,0,621,29,0,600,30,0,600,32,0,600,33,0,600,34,0,621,35,0,600,36,0,600,37,0,621,38,0,600,39,0,621,40,0,621,41,0,600,42,0,400,43,0,421,44,0,400,45,0,400,46,0,400,59,0,400,60,0,400,61,0,400,62,0,400*4A
$PAIRDGP,10,2,4,7,8,9,16,21,26,27,30*42
$GNGGA,041042.200,2500.7814319,N,12132.4519385,E,4,56,0.50,16.716,M,15.25,M,1,3335*41
$GNRMC,041042.200,A,2500.7814319,N,12132.4519385,E,0.01,317.42,090324,,,R,V*14
$GPHDT,,T*1B
$GNACCURACY,2.8*1C
$GNGGA,041042.300,2500.7814346,N,12132.4519400,E,4,56,0.50,16.718,M,15.25,M,1,3335*4E
$GNRMC,041042.300,A,2500.7814346,N,12132.4519400,E,0.01,317.42,090324,,,R,V*15
$GPHDT,,T*1B
$GNACCURACY,2.8*1C
$GNGGA,041042.400,2500.7814305,N,12132.4519380,E,4,56,0.50,16.717,M,15.25,M,1,3335*4E
$GNRMC,041042.400,A,2500.7814305,N,12132.4519380,E,0.01,317.42,090324,,,R,V*1A
$GPHDT,,T*1B
$GNACCURACY,2.8*1C
$GNGGA,041042.500,2500.7814368,N,12132.4519400,E,4,56,0.50,16.725,M,15.25,M,1,3335*4A
$GNRMC,041042.500,A,2500.7814368,N,12132.4519400,E,0.01,317.42,090324,,,R,V*1F
$GPHDT,,T*1B
$GNACCURACY,2.8*1C
$GNGGA,041042.600,2500.7814364,N,12132.4519394,E,4,56,0.50,16.723,M,15.25,M,1,3335*49
$GNRMC,041042.600,A,2500.7814364,N,12132.4519394,E,0.01,317.42,090324,,,R,V*1A
$GPHDT,,T*1B
$GNACCURACY,2.8*1C
$GNGGA,041042.700,2500.7814319,N,12132.4519340,E,4,56,0.50,16.713,M,15.25,M,1,3335*48
$GNRMC,041042.700,A,2500.7814319,N,12132.4519340,E,0.01,317.42,090324,,,R,V*18
$GPHDT,,T*1B
$GNACCURACY,2.8*1C
$GNGGA,041042.800,2500.7814292,N,12132.4519291,E,4,56,0.50,16.715,M,15.25,M,0,3335*4F
$GNRMC,041042.800,A,2500.7814292,N,12132.4519291,E,0.01,317.42,090324,,,R,V*18
$GPHDT,,T*1B
$GNACCURACY,2.8*1C
$GNGGA,041042.900,2500.7814336,N,12132.4519359,E,4,56,0.50,16.729,M,15.25,M,0,3335*4B
$GNRMC,041042.900,A,2500.7814336,N,12132.4519359,E,0.01,317.42,090324,,,R,V*13
$GPHDT,,T*1B
$GNACCURACY,2.8*1C
$GNGGA,041043.000,2500.7814296,N,12132.4519318,E,4,56,0.50,16.734,M,15.25,M,1,3335*40
$GNRMC,041043.000,A,2500.7814296,N,12132.4519318,E,0.01,317.42,090324,,,R,V*15
$GPHDT,,T*1B
$GNACCURACY,2.8*1C
$GNGGA,041043.100,2500.7814313,N,12132.4519323,E,4,56,0.50,16.737,M,15.25,M,1,3335*46
$GNRMC,041043.100,A,2500.7814313,N,12132.4519323,E,0.01,317.42,090324,,,R,V*10
$GPHDT,,T*1B
$GNGSA,A,3,195,194,08,21,199,02,07,27,16,09,196,04,0.76,0.50,0.57,1*08
$GNGSA,A,3,30,,,,,,,,,,,,0.76,0.50,0.57,1*04
$GNGSA,A,3,81,78,88,79,77,,,,,,,,0.76,0.50,0.57,2*0C
$GNGSA,A,3,21,13,26,27,15,,,,,,,,0.76,0.50,0.57,3*01
$GNGSA,A,3,23,09,06,16,07,40,43,39,28,10,25,37,0.76,0.50,0.57,4*0D
$GNGSA,A,3,34,,,,,,,,,,,,0.76,0.50,0.57,4*05
$GPGSV,4,1,15,195,65,114,42,194,64,052,32,08,62,356,43,21,61,155,38,1*64
$GPGSV,4,2,15,50,60,167,35,199,60,167,31,02,49,176,34,07,42,316,44,1*5B
$GPGSV,4,3,15,27,32,036,26,16,27,076,32,09,23,246,23,196,19,169,22,1*51
$GPGSV,4,4,15,04,17,202,24,30,12,320,38,26,08,100,19,1*5B
$GPGSV,2,1,08,195,65,114,40,194,64,052,36,08,62,356,44,199,60,167,37,8*5B
$GPGSV,2,2,08,27,32,036,28,09,23,246,30,196,19,169,24,30,12,320,41,8*5F
$GLGSV,2,1,07,81,66,201,41,78,57,039,32,88,54,031,20,79,26,334,42,1*7C
$GLGSV,2,2,07,77,23,111,16,69,03,280,,87,02,026,,1*47
$GAGSV,2,1,08,21,55,012,27,13,54,080,32,26,44,172,22,27,28,080,34,7*77
$GAGSV,2,2,08,19,27,240,,15,13,038,22,04,12,299,,33,04,199,,7*7D
$GAGSV,2,1,05,21,55,012,35,13,54,080,37,26,44,172,21,27,28,080,32,1*7F
$GAGSV,2,2,05,15,13,038,20,1*4F
$GBGSV,4,1,13,23,74,033,40,09,73,265,38,06,71,214,40,16,68,199,42,1*7D
$GBGSV,4,2,13,07,60,308,41,40,60,329,42,43,58,036,28,39,57,187,45,1*73
$GBGSV,4,3,13,28,56,222,45,10,51,290,41,25,37,118,39,37,30,322,43,1*70
$GBGSV,4,4,13,34,11,040,32,1*46
$GBGSV,2,1,07,23,74,033,37,40,60,329,43,39,57,187,40,28,56,222,40,4*71
$GBGSV,2,2,07,25,37,118,36,37,30,322,41,34,11,040,32,4*49
$GNACCURACY,2.8*1C
$PAIRSAT,1,35,2,0,201,3,0,200,4,0,221,5,0,200,6,0,200,7,0,201,8,0,221,9,0,220,10,0,200,11,0,200,12,0,200,13,0,200,14,0,200,15,0,200,16,0,201,17,0,200,18,0,200,19,0,200,20,0,200,21,0,201,22,0,200,23,0,200,24,0,200,25,0,200,26,0,220,27,0,221,28,0,200,29,0,200,30,0,221,31,0,200,32,0,200,194,0,621,195,0,621,196,0,620,199,0,621*5A
$PAIRSAT,2,24,65,0,200,66,0,200,67,0,200,68,0,200,69,0,200,70,0,200,71,0,200,72,0,200,73,0,200,74,0,200,75,0,200,76,0,200,77,0,201,78,0,201,79,0,201,80,0,200,81,0,201,82,0,200,83,0,200,84,0,200,85,0,200,86,0,200,87,0,201,88,0,201*7A
$PAIRSAT,3,23,2,0,1200,3,0,1200,4,0,1200,5,0,200,7,0,1200,8,0,1200,9,0,1200,10,0,1200,11,0,1200,12,0,1200,13,0,1221,15,0,1220,19,0,1201,21,0,1221,24,0,1200,25,0,1200,26,0,1221,27,0,1221,30,0,1200,31,0,1200,33,0,1200,34,0,1000,36,0,1200*6B
$PAIRSAT,4,46,1,0,200,2,0,200,3,0,600,4,0,200,5,0,200,6,0,201,7,0,201,8,0,200,9,0,201,10,0,201,11,0,200,12,0,200,13,0,200,14,0,200,16,0,201,19,0,600,20,0,600,21,0,600,22,0,600,23,0,621,24,0,600,25,0,621,26,0,600,27,0,600,28,0,621,29,0,600,30,0,600,32,0,600,33,0,600,34,0,621,35,0,600,36,0,600,37,0,621,38,0,600,39,0,621,40,0,621,41,0,600,42,0,400,43,0,421,44,0,400,45,0,400,46,0,400,59,0,400,60,0,400,61,0,400,62,0,400*4A
$PAIRDGP,10,2,4,7,8,9,16,21,26,27,30*42
$GNGGA,041043.200,2500.7814287,N,12132.4519317,E,4,56,0.50,16.724,M,15.25,M,1,3335*4C
$GNRMC,041043.200,A,2500.7814287,N,12132.4519317,E,0.01,317.42,090324,,,R,V*18
$GPHDT,,T*1B
$GNACCURACY,2.7*13
$GNGGA,041043.300,2500.7814307,N,12132.4519337,E,4,56,0.50,16.733,M,15.25,M,1,3335*40
$GNRMC,041043.300,A,2500.7814307,N,12132.4519337,E,0.00,317.42,090324,,,R,V*13
$GPHDT,,T*1B
$GNACCURACY,2.7*13
$GNGGA,041043.400,2500.7814294,N,12132.4519327,E,4,56,0.50,16.720,M,15.25,M,1,3335*4F
$GNRMC,041043.400,A,2500.7814294,N,12132.4519327,E,0.00,317.42,090324,,,R,V*1E
$GPHDT,,T*1B
$GNACCURACY,2.7*13
$GNGGA,041043.500,2500.7814324,N,12132.4519373,E,4,56,0.50,16.727,M,15.25,M,0,3335*43
$GNRMC,041043.500,A,2500.7814324,N,12132.4519373,E,0.01,317.42,090324,,,R,V*15
$GPHDT,,T*1B
$GNACCURACY,2.7*13
$GNGGA,041043.600,2500.7814300,N,12132.4519360,E,4,56,0.50,16.720,M,15.25,M,0,3335*43
$GNRMC,041043.600,A,2500.7814300,N,12132.4519360,E,0.01,317.42,090324,,,R,V*12
$GPHDT,,T*1B
$GNACCURACY,2.7*13
$GNGGA,041043.700,2500.7814316,N,12132.4519370,E,4,56,0.50,16.725,M,15.25,M,0,3335*41
$GNRMC,041043.700,A,2500.7814316,N,12132.4519370,E,0.01,317.42,090324,,,R,V*15
$GPHDT,,T*1B
$GNACCURACY,2.7*13
$GNGGA,041043.800,2500.7814303,N,12132.4519374,E,4,56,0.50,16.718,M,15.25,M,0,3335*40
$GNRMC,041043.800,A,2500.7814303,N,12132.4519374,E,0.01,317.42,090324,,,R,V*1A
$GPHDT,,T*1B
$GNACCURACY,2.7*13
$GNGGA,041043.900,2500.7814289,N,12132.4519362,E,4,56,0.50,16.720,M,15.25,M,0,3335*4E
$GNRMC,041043.900,A,2500.7814289,N,12132.4519362,E,0.01,317.42,090324,,,R,V*1F
$GPHDT,,T*1B
$GNACCURACY,2.7*13
$GNGGA,041044.000,2500.7814314,N,12132.4519382,E,4,56,0.50,16.714,M,15.25,M,1,3335*4D
$GNRMC,041044.000,A,2500.7814314,N,12132.4519382,E,0.01,317.42,090324,,,R,V*1A
$GPHDT,,T*1B
$GNACCURACY,2.7*13
$GNGGA,041044.100,2500.7814315,N,12132.4519415,E,4,56,0.50,16.706,M,15.25,M,1,3335*47
$GNRMC,041044.100,A,2500.7814315,N,12132.4519415,E,0.02,317.42,090324,,,R,V*10
$GPHDT,,T*1B
$GNGSA,A,3,195,194,08,21,199,02,07,27,16,09,196,04,0.76,0.50,0.57,1*08
$GNGSA,A,3,30,,,,,,,,,,,,0.76,0.50,0.57,1*04
$GNGSA,A,3,81,78,88,79,77,,,,,,,,0.76,0.50,0.57,2*0C
$GNGSA,A,3,21,13,26,27,15,,,,,,,,0.76,0.50,0.57,3*01
$GNGSA,A,3,23,09,06,16,07,40,43,39,28,10,25,37,0.76,0.50,0.57,4*0D
$GNGSA,A,3,34,,,,,,,,,,,,0.76,0.50,0.57,4*05
$GPGSV,4,1,15,195,65,114,42,194,64,052,31,08,62,356,43,21,61,155,40,1*68
$GPGSV,4,2,15,50,60,167,34,199,60,167,31,02,49,176,35,07,42,316,44,1*5B
$GPGSV,4,3,15,27,32,036,26,16,27,076,33,09,23,246,23,196,19,169,21,1*53
$GPGSV,4,4,15,04,17,202,24,30,12,320,39,26,08,100,20,1*50
$GPGSV,2,1,08,195,65,114,41,194,64,052,35,08,62,356,43,199,60,167,37,8*5E
$GPGSV,2,2,08,27,32,036,28,09,23,246,30,196,19,169,24,30,12,320,41,8*5F
$GLGSV,2,1,07,81,66,201,40,78,57,039,31,88,54,031,19,79,26,334,42,1*74
$GLGSV,2,2,07,77,23,111,19,69,03,280,,87,02,026,,1*48
$GAGSV,2,1,08,21,55,012,26,13,54,080,33,26,44,172,22,27,28,080,33,7*70
$GAGSV,2,2,08,19,27,240,,15,13,038,22,04,12,299,,33,04,199,,7*7D
$GAGSV,2,1,05,21,55,012,34,13,54,080,37,26,44,172,18,27,28,080,32,1*74
$GAGSV,2,2,05,15,13,038,20,1*4F
$GBGSV,4,1,13,23,74,033,40,09,73,265,38,06,71,214,40,16,68,199,41,1*7E
$GBGSV,4,2,13,07,60,308,41,40,60,329,42,43,58,036,29,39,57,187,45,1*72
$GBGSV,4,3,13,28,56,222,45,10,51,290,41,25,37,118,40,37,30,322,43,1*7E
$GBGSV,4,4,13,34,11,040,29,1*4C
$GBGSV,2,1,07,23,74,033,37,40,60,329,43,39,57,187,39,28,56,222,40,4*7F
$GBGSV,2,2,07,25,37,118,36,37,30,322,41,34,11,040,28,4*42
$GNACCURACY,2.7*13
$PAIRSAT,1,35,2,0,201,3,0,200,4,0,221,5,0,200,6,0,200,7,0,201,8,0,221,9,0,220,10,0,200,11,0,200,12,0,200,13,0,200,14,0,200,15,0,200,16,0,201,17,0,200,18,0,200,19,0,200,20,0,200,21,0,201,22,0,200,23,0,200,24,0,200,25,0,200,26,0,220,27,0,221,28,0,200,29,0,200,30,0,221,31,0,200,32,0,200,194,0,621,195,0,621,196,0,620,199,0,621*5A
$PAIRSAT,2,24,65,0,200,66,0,200,67,0,200,68,0,200,69,0,200,70,0,200,71,0,200,72,0,200,73,0,200,74,0,200,75,0,200,76,0,200,77,0,201,78,0,201,79,0,201,80,0,200,81,0,201,82,0,200,83,0,200,84,0,200,85,0,200,86,0,200,87,0,201,88,0,201*7A
$PAIRSAT,3,23,2,0,1200,3,0,1200,4,0,1200,5,0,200,7,0,1200,8,0,1200,9,0,1200,10,0,1200,11,0,1200,12,0,1200,13,0,1221,15,0,1220,19,0,1201,21,0,1221,24,0,1200,25,0,1200,26,0,1221,27,0,1221,30,0,1200,31,0,1200,33,0,1200,34,0,1000,36,0,1200*6B
$PAIRSAT,4,46,1,0,200,2,0,200,3,0,600,4,0,200,5,0,200,6,0,201,7,0,201,8,0,200,9,0,201,10,0,201,11,0,200,12,0,200,13,0,200,14,0,200,16,0,201,19,0,600,20,0,600,21,0,600,22,0,600,23,0,621,24,0,600,25,0,621,26,0,600,27,0,600,28,0,621,29,0,600,30,0,600,32,0,600,33,0,600,34,0,621,35,0,600,36,0,600,37,0,621,38,0,600,39,0,621,40,0,621,41,0,600,42,0,400,43,0,421,44,0,400,45,0,400,46,0,400,59,0,400,60,0,400,61,0,400,62,0,400*4A
$PAIRDGP,10,2,4,7,8,9,16,21,26,27,30*42
$GNGGA,041044.200,2500.7814324,N,12132.4519397,E,4,56,0.50,16.719,M,15.25,M,1,3335*45
$GNRMC,041044.200,A,2500.7814324,N,12132.4519397,E,0.02,317.42,090324,,,R,V*1C
$GPHDT,,T*1B
$GNACCURACY,2.7*13
$GNGGA,041044.300,2500.7814286,N,12132.4519379,E,4,56,0.50,16.705,M,15.25,M,1,3335*40
$GNRMC,041044.300,A,2500.7814286,N,12132.4519379,E,0.02,317.42,090324,,,R,V*14
$GPHDT,,T*1B
$GNACCURACY,2.7*13
$GNGGA,041044.400,2500.7814316,N,12132.4519381,E,4,56,0.50,16.717,M,15.25,M,1,3335*4B
$GNRMC,041044.400,A,2500.7814316,N,12132.4519381,E,0.02,317.42,090324,,,R,V*1C
$GPHDT,,T*1B
$GNACCURACY,2.7*13
$GNGGA,041044.500,2500.7814314,N,12132.4519404,E,4,56,0.50,16.716,M,15.25,M,1,3335*43
$GNRMC,041044.500,A,2500.7814314,N,12132.4519404,E,0.02,317.42,090324,,,R,V*15
$GPHDT,,T*1B
$GNACCURACY,2.7*13
$GNGGA,041044.600,2500.7814291,N,12132.4519359,E,4,56,0.50,16.717,M,15.25,M,1,3335*42
$GNRMC,041044.600,A,2500.7814291,N,12132.4519359,E,0.01,317.42,090324,,,R,V*16
$GPHDT,,T*1B
$GNACCURACY,2.7*13
$GNGGA,041044.700,2500.7814350,N,12132.4519395,E,4,56,0.50,16.733,M,15.25,M,0,3335*48
$GNRMC,041044.700,A,2500.7814350,N,12132.4519395,E,0.01,317.42,090324,,,R,V*1B
$GPHDT,,T*1B
$GNACCURACY,2.7*13
$GNGGA,041044.800,2500.7814289,N,12132.4519353,E,4,56,0.50,16.714,M,15.25,M,0,3335*4D
$GNRMC,041044.800,A,2500.7814289,N,12132.4519353,E,0.01,317.42,090324,,,R,V*1B
$GPHDT,,T*1B
$GNACCURACY,2.7*13
$GNGGA,041044.900,2500.7814354,N,12132.4519381,E,4,56,0.50,16.726,M,15.25,M,0,3335*43
$GNRMC,041044.900,A,2500.7814354,N,12132.4519381,E,0.02,317.42,090324,,,R,V*17
$GPHDT,,T*1B
$GNACCURACY,2.7*13
$GNGGA,041045.000,2500.7814347,N,12132.4519386,E,4,56,0.50,16.724,M,15.25,M,1,3335*4D
$GNRMC,041045.000,A,2500.7814347,N,12132.4519386,E,0.01,317.42,090324,,,R,V*19
$GPHDT,,T*1B
$GNACCURACY,2.7*13
$GNGGA,041045.100,2500.7814339,N,12132.4519353,E,4,56,0.50,16.724,M,15.25,M,1,3335*4D
$GNRMC,041045.100,A,2500.7814339,N,12132.4519353,E,0.01,317.42,090324,,,R,V*19
$GPHDT,,T*1B
$GNGSA,A,3,195,194,08,21,199,02,07,27,16,09,196,04,0.76,0.50,0.57,1*08
$GNGSA,A,3,30,,,,,,,,,,,,0.76,0.50,0.57,1*04
$GNGSA,A,3,81,78,88,79,77,,,,,,,,0.76,0.50,0.57,2*0C
$GNGSA,A,3,21,13,26,27,15,,,,,,,,0.76,0.50,0.57,3*01
$GNGSA,A,3,23,09,06,16,40,07,43,39,28,10,25,37,0.76,0.50,0.57,4*0D
$GNGSA,A,3,34,,,,,,,,,,,,0.76,0.50,0.57,4*05
$GPGSV,4,1,15,195,65,114,42,194,64,052,30,08,62,356,43,21,61,155,38,1*66
$GPGSV,4,2,15,50,60,167,34,199,60,167,31,02,49,176,33,07,42,316,44,1*5D
$GPGSV,4,3,15,27,32,036,26,16,27,076,32,09,23,246,23,196,19,169,22,1*51
$GPGSV,4,4,15,04,17,202,24,30,12,320,39,26,08,100,20,1*50
$GPGSV,2,1,08,195,