$FW : RTK35X,V1.1X0314AS,Lib20210517,1*54
$Tool : LOCOSYS , GNSS Firebird , v1.0.0.19*39
$---------------------------------------------------*2D
V*0E
$GPHDT,,T*1B
$GNACCURACY,3.3*16
$GNGGA,040957.100,2500.7815765,N,12132.4515312,E,2,52,0.50,17.434,M,15.25,M,1,3335*42
$GNRMC,040957.100,A,2500.7815765,N,12132.4515312,E,0.01,317.42,090324,,,D,V*01
$GPHDT,,T*1B
$GNGSA,A,3,195,194,08,21,199,02,07,27,196,04,09,30,0.77,0.50,0.58,1*02
$GNGSA,A,3,81,78,88,79,77,,,,,,,,0.77,0.50,0.58,2*02
$GNGSA,A,3,21,13,26,15,27,,,,,,,,0.77,0.50,0.58,3*0F
$GNGSA,A,3,23,09,06,16,07,40,43,39,28,10,25,37,0.77,0.50,0.58,4*03
$GNGSA,A,3,34,,,,,,,,,,,,0.77,0.50,0.58,4*0B
$GPGSV,4,1,15,195,64,114,44,194,64,052,31,08,62,355,39,21,60,155,39,1*6E
$GPGSV,4,2,15,199,60,167,30,50,60,167,33,02,49,177,37,07,42,316,38,1*55
$GPGSV,4,3,15,27,33,036,32,16,27,076,,09,23,246,12,196,19,169,12,1*55
$GPGSV,4,4,15,04,17,202,20,30,11,320,21,26,08,100,11,1*5C
$GPGSV,2,1,08,194,64,052,35,195,64,114,41,08,62,355,42,199,60,167,30,8*5A
$GPGSV,2,2,08,27,33,036,24,09,23,246,27,04,17,202,19,30,11,320,38,8*6D
$GLGSV,2,1,06,81,65,201,39,78,57,038,28,88,55,031,32,79,26,334,38,1*74
$GLGSV,2,2,06,77,23,111,26,87,02,026,16,1*74
$GAGSV,2,1,06,21,55,012,27,13,55,080,27,26,44,172,17,27,29,080,,7*7C
$GAGSV,2,2,06,19,27,241,,15,13,038,31,7*70
$GAGSV,1,1,04,13,55,080,33,21,55,012,36,27,29,080,20,15,13,038,20,1*75
$GBGSV,4,1,13,23,74,032,36,09,73,265,40,06,71,215,38,16,68,199,41,1*7F
$GBGSV,4,2,13,07,60,308,34,40,60,329,37,43,58,036,30,39,57,187,44,1*7B
$GBGSV,4,3,13,28,56,222,44,10,51,290,34,25,37,118,44,37,30,322,34,1*79
$GBGSV,4,4,13,34,11,040,30,1*44
$GBGSV,2,1,08,23,74,032,38,40,60,329,39,43,58,036,12,39,57,187,35,4*7C
$GBGSV,2,2,08,28,56,222,40,25,37,118,41,37,30,322,37,34,11,040,29,4*72
$GNACCURACY,3.3*16
$PAIRSAT,1,35,2,0,201,3,0,200,4,0,221,5,0,200,6,0,200,7,0,201,8,0,221,9,0,220,10,0,200,11,0,200,12,0,200,13,0,200,14,0,200,15,0,200,16,0,201,17,0,200,18,0,200,19,0,200,20,0,200,21,0,201,22,0,200,23,0,200,24,0,200,25,0,200,26,0,220,27,0,221,28,0,200,29,0,200,30,0,221,31,0,200,32,0,200,194,0,621,195,0,621,196,0,620,199,0,621*5A
$PAIRSAT,2,24,65,0,200,66,0,200,67,0,200,68,0,200,69,0,200,70,0,200,71,0,200,72,0,200,73,0,200,74,0,200,75,0,200,76,0,200,77,0,201,78,0,201,79,0,201,80,0,200,81,0,201,82,0,200,83,0,200,84,0,200,85,0,200,86,0,200,87,0,201,88,0,201*7A
$PAIRSAT,3,23,2,0,1200,3,0,1200,4,0,1200,5,0,200,7,0,1200,8,0,1200,9,0,1200,10,0,1200,11,0,1200,12,0,1200,13,0,1221,15,0,1220,19,0,1201,21,0,1221,24,0,1200,25,0,1200,26,0,1221,27,0,1221,30,0,1200,31,0,1200,33,0,1200,34,0,1000,36,0,1200*6B
$PAIRSAT,4,46,1,0,200,2,0,200,3,0,600,4,0,200,5,0,200,6,0,201,7,0,201,8,0,200,9,0,201,10,0,201,11,0,200,12,0,200,13,0,200,14,0,200,16,0,201,19,0,600,20,0,600,21,0,600,22,0,600,23,0,621,24,0,600,25,0,621,26,0,600,27,0,600,28,0,621,29,0,600,30,0,600,32,0,600,33,0,600,34,0,621,35,0,600,36,0,600,37,0,621,38,0,600,39,0,621,40,0,621,41,0,400,42,0,400,43,0,421,44,0,400,45,0,400,46,0,400,59,0,400,60,0,400,61,0,400,62,0,400*48
$PAIRDGP,10,2,4,7,8,9,16,21,26,27,30*42
$GNGGA,040957.200,2500.7815705,N,12132.4515312,E,2,52,0.50,17.439,M,15.25,M,1,3335*4A
$GNRMC,040957.200,A,2500.7815705,N,12132.4515312,E,0.02,317.42,090324,,,D,V*07
$GPHDT,,T*1B
$GNACCURACY,3.3*16
$GNGGA,040957.300,2500.7815705,N,12132.4515372,E,2,52,0.50,17.444,M,15.25,M,1,3335*47
$GNRMC,040957.300,A,2500.7815705,N,12132.4515372,E,0.02,317.42,090324,,,D,V*00
$GPHDT,,T*1B
$GNACCURACY,3.3*16
$GNGGA,040957.400,2500.7815645,N,12132.4515372,E,2,52,0.50,17.451,M,15.25,M,1,3335*41
$GNRMC,040957.400,A,2500.7815645,N,12132.4515372,E,0.03,317.42,090324,,,D,V*03
$GPHDT,,T*1B
$GNACCURACY,3.3*16
$GNGGA,040957.500,2500.7815585,N,12132.4515432,E,2,52,0.50,17.457,M,15.25,M,0,3335*4B
$GNRMC,040957.500,A,2500.7815585,N,12132.4515432,E,0.02,317.42,090324,,,D,V*0F
$GPHDT,,T*1B
$GNACCURACY,3.3*16
$GNGGA,040957.600,2500.7815585,N,12132.4515432,E,2,52,0.50,17.464,M,15.25,M,0,3335*48
$GNRMC,040957.600,A,2500.7815585,N,12132.4515432,E,0.03,317.42,090324,,,D,V*0D
$GPHDT,,T*1B
$GNACCURACY,3.3*16
$GNGGA,040957.700,2500.7815525,N,12132.4515492,E,2,54,0.50,17.471,M,15.25,M,0,3335*4B
$GNRMC,040957.700,A,2500.7815525,N,12132.4515492,E,0.03,317.42,090324,,,D,V*0C
$GPHDT,,T*1B
$GNACCURACY,3.3*16
$GNGGA,040957.800,2500.7815465,N,12132.4515432,E,2,54,0.50,17.477,M,15.25,M,0,3335*4D
$GNRMC,040957.800,A,2500.7815465,N,12132.4515432,E,0.03,317.42,090324,,,D,V*0C
$GPHDT,,T*1B
$GNACCURACY,3.3*16
$GNGGA,040957.900,2500.7815405,N,12132.4515432,E,2,54,0.50,17.485,M,15.25,M,0,3335*47
$GNRMC,040957.900,A,2500.7815405,N,12132.4515432,E,0.03,317.42,090324,,,D,V*0B
$GPHDT,,T*1B
$GNACCURACY,3.3*16
$GNGGA,040958.000,2500.7815345,N,12132.4515432,E,2,54,0.50,17.493,M,15.25,M,1,3335*44
$GNRMC,040958.000,A,2500.7815345,N,12132.4515432,E,0.03,317.42,090324,,,D,V*0E
$GPHDT,,T*1B
$GNACCURACY,3.3*16
$GNGGA,040958.100,2500.7815285,N,12132.4515432,E,2,53,0.52,17.501,M,15.25,M,1,3335*47
$GNRMC,040958.100,A,2500.7815285,N,12132.4515432,E,0.03,317.42,090324,,,D,V*02
$GPHDT,,T*1B
$GNGSA,A,3,195,194,08,21,199,02,07,27,04,30,09,,0.80,0.52,0.60,1*3D
$GNGSA,A,3,81,78,88,79,77,,,,,,,,0.80,0.52,0.60,2*03
$GNGSA,A,3,13,21,26,27,15,,,,,,,,0.80,0.52,0.60,3*0E
$GNGSA,A,3,23,09,06,16,07,40,43,39,28,10,25,37,0.80,0.52,0.60,4*02
$GNGSA,A,3,34,,,,,,,,,,,,0.80,0.52,0.60,4*0A
$GPGSV,4,1,15,195,64,114,44,194,64,052,31,08,62,355,41,21,60,155,39,1*61
$GPGSV,4,2,15,50,60,167,33,199,60,167,30,02,49,177,36,07,42,316,36,1*5A
$GPGSV,4,3,15,27,33,036,34,16,27,076,,09,23,246,13,196,19,169,,1*51
$GPGSV,4,4,15,04,17,202,19,30,11,320,26,26,08,100,15,1*55
$GPGSV,2,1,08,194,64,052,36,195,64,114,41,08,62,355,42,199,60,167,34,8*5D
$GPGSV,2,2,08,27,33,036,24,09,23,246,29,04,17,202,19,30,11,320,39,8*62
$GLGSV,2,1,06,81,65,201,39,78,57,038,28,88,55,031,31,79,26,334,37,1*78
$GLGSV,2,2,06,77,23,111,26,87,02,026,16,1*74
$GAGSV,2,1,07,13,55,080,26,21,55,012,23,26,44,172,18,27,29,080,20,7*75
$GAGSV,2,2,07,19,27,241,,15,13,038,33,04,12,299,,7*46
$GAGSV,1,1,04,13,55,080,32,21,55,012,37,27,29,080,18,15,13,038,25,1*7B
$GBGSV,4,1,13,23,74,032,37,09,73,265,39,06,71,215,39,16,68,199,41,1*71
$GBGSV,4,2,13,07,60,308,35,40,60,329,37,43,58,036,30,39,57,187,44,1*7A
$GBGSV,4,3,13,28,56,222,44,10,51,290,36,25,37,118,44,37,30,322,32,1*7D
$GBGSV,4,4,13,34,11,040,27,1*42
$GBGSV,2,1,08,23,74,032,39,40,60,329,40,43,58,036,14,39,57,187,35,4*75
$GBGSV,2,2,08,28,56,222,42,25,37,118,41,37,30,322,38,34,11,040,29,4*7F
$GNACCURACY,3.3*16
$PAIRSAT,1,35,2,0,201,3,0,200,4,0,221,5,0,200,6,0,200,7,0,201,8,0,221,9,0,220,10,0,200,11,0,200,12,0,200,13,0,200,14,0,200,15,0,200,16,0,201,17,0,200,18,0,200,19,0,200,20,0,200,21,0,201,22,0,200,23,0,200,24,0,200,25,0,200,26,0,220,27,0,221,28,0,200,29,0,200,30,0,221,31,0,200,32,0,200,194,0,621,195,0,621,196,0,620,199,0,621*5A
$PAIRSAT,2,24,65,0,200,66,0,200,67,0,200,68,0,200,69,0,200,70,0,200,71,0,200,72,0,200,73,0,200,74,0,200,75,0,200,76,0,200,77,0,201,78,0,201,79,0,201,80,0,200,81,0,201,82,0,200,83,0,200,84,0,200,85,0,200,86,0,200,87,0,201,88,0,201*7A
$PAIRSAT,3,23,2,0,1200,3,0,1200,4,0,1200,5,0,200,7,0,1200,8,0,1200,9,0,1200,10,0,1200,11,0,1200,12,0,1200,13,0,1221,15,0,1220,19,0,1201,21,0,1221,24,0,1200,25,0,1200,26,0,1221,27,0,1221,30,0,1200,31,0,1200,33,0,1200,34,0,1000,36,0,1200*6B
$PAIRSAT,4,46,1,0,200,2,0,200,3,0,600,4,0,200,5,0,200,6,0,201,7,0,201,8,0,200,9,0,201,10,0,201,11,0,200,12,0,200,13,0,200,14,0,200,16,0,201,19,0,600,20,0,600,21,0,600,22,0,600,23,0,621,24,0,600,25,0,621,26,0,600,27,0,600,28,0,621,29,0,600,30,0,600,32,0,600,33,0,600,34,0,621,35,0,600,36,0,600,37,0,621,38,0,600,39,0,621,40,0,621,41,0,400,42,0,400,43,0,421,44,0,400,45,0,400,46,0,400,59,0,400,60,0,400,61,0,400,62,0,400*48
$PAIRDGP,10,2,4,7,8,9,16,21,26,27,30*42
$GNGGA,040958.200,2500.7815225,N,12132.4515432,E,2,53,0.52,17.508,M,15.25,M,1,3335*47
$GNRMC,040958.200,A,2500.7815225,N,12132.4515432,E,0.03,317.42,090324,,,D,V*0B
$GPHDT,,T*1B
$GNACCURACY,3.3*16
$GNGGA,040958.300,2500.7815165,N,12132.4515432,E,2,53,0.52,17.517,M,15.25,M,1,3335*4F
$GNRMC,040958.300,A,2500.7815165,N,12132.4515432,E,0.02,317.42,090324,,,D,V*0C
$GPHDT,,T*1B
$GNACCURACY,3.3*16
$GNGGA,040958.400,2500.7815045,N,12132.4515432,E,2,53,0.52,17.526,M,15.25,M,1,3335*49
$GNRMC,040958.400,A,2500.7815045,N,12132.4515432,E,0.02,317.42,090324,,,D,V*08
$GPHDT,,T*1B
$GNACCURACY,3.3*16
$GNGGA,040958.500,2500.7814985,N,12132.4515432,E,2,53,0.52,17.533,M,15.25,M,1,3335*48
$GNRMC,040958.500,A,2500.7814985,N,12132.4515432,E,0.02,317.42,090324,,,D,V*0D
$GPHDT,,T*1B
$GNACCURACY,3.3*16
$GNGGA,040958.600,2500.7814865,N,12132.4515372,E,2,53,0.52,17.541,M,15.25,M,0,3335*43
$GNRMC,040958.600,A,2500.7814865,N,12132.4515372,E,0.02,317.42,090324,,,D,V*02
$GPHDT,,T*1B
$GNACCURACY,3.3*16
$GNGGA,040958.700,2500.7814805,N,12132.4515372,E,2,53,0.52,17.547,M,15.25,M,0,3335*42
$GNRMC,040958.700,A,2500.7814805,N,12132.4515372,E,0.02,317.42,090324,,,D,V*05
$GPHDT,,T*1B
$GNACCURACY,3.3*16
$GNGGA,040958.800,2500.7814685,N,12132.4515372,E,2,53,0.52,17.555,M,15.25,M,0,3335*48
$GNRMC,040958.800,A,2500.7814685,N,12132.4515372,E,0.02,317.42,090324,,,D,V*0C
$GPHDT,,T*1B
$GNACCURACY,3.3*16
$GNGGA,040958.900,2500.7814565,N,12132.4515312,E,2,53,0.52,17.563,M,15.25,M,0,3335*47
$GNRMC,040958.900,A,2500.7814565,N,12132.4515312,E,0.03,317.42,090324,,,D,V*07
$GPHDT,,T*1B
$GNACCURACY,3.3*16
$GNGGA,040959.000,2500.7814445,N,12132.4515312,E,2,54,0.51,17.568,M,15.25,M,1,3335*42
$GNRMC,040959.000,A,2500.7814445,N,12132.4515312,E,0.03,317.42,090324,,,D,V*0C
$GPHDT,,T*1B
$GNACCURACY,3.3*16
$GNGGA,040959.100,2500.7814385,N,12132.4515312,E,2,54,0.51,17.574,M,15.25,M,1,3335*45
$GNRMC,040959.100,A,2500.7814385,N,12132.4515312,E,0.03,317.42,090324,,,D,V*06
$GPHDT,,T*1B
$GNGSA,A,3,195,194,08,21,199,02,07,27,16,04,30,09,0.78,0.51,0.59,1*34
$GNGSA,A,3,81,78,88,79,77,,,,,,,,0.78,0.51,0.59,2*0D
$GNGSA,A,3,13,21,26,27,15,,,,,,,,0.78,0.51,0.59,3*00
$GNGSA,A,3,23,09,06,16,07,40,43,39,28,10,25,37,0.78,0.51,0.59,4*0C
$GNGSA,A,3,34,,,,,,,,,,,,0.78,0.51,0.59,4*04
$GPGSV,4,1,15,195,64,114,44,194,64,052,32,08,62,355,42,21,60,155,39,1*61
$GPGSV,4,2,15,50,60,167,33,199,60,167,30,02,49,177,36,07,42,316,34,1*58
$GPGSV,4,3,15,27,33,036,36,16,27,076,32,09,23,246,14,196,19,169,,1*55
$GPGSV,4,4,15,04,17,202,18,30,11,320,31,26,08,100,17,1*50
$GPGSV,2,1,08,194,64,052,36,195,64,114,43,08,62,355,44,199,60,167,36,8*5B
$GPGSV,2,2,08,27,33,036,24,09,23,246,29,04,17,202,18,30,11,320,40,8*6D
$GLGSV,2,1,06,81,65,201,39,78,57,038,28,88,55,031,29,79,26,334,39,1*7F
$GLGSV,2,2,06,77,23,111,25,87,02,026,16,1*77
$GAGSV,2,1,07,13,55,080,24,21,55,012,22,26,44,172,15,27,29,080,20,7*7B
$GAGSV,2,2,07,19,27,241,,15,13,038,35,04,12,299,,7*40
$GAGSV,1,1,04,13,55,080,33,21,55,012,37,27,29,080,23,15,13,038,25,1*72
$GBGSV,4,1,13,23,74,032,37,09,73,265,39,06,71,215,39,16,68,199,41,1*71
$GBGSV,4,2,13,07,60,308,37,40,60,329,41,43,58,036,25,39,57,187,44,1*7D
$GBGSV,4,3,13,28,56,222,43,10,51,290,37,25,37,118,42,37,30,322,36,1*79
$GBGSV,4,4,13,34,11,040,33,1*47
$GBGSV,2,1,08,23,74,032,38,40,60,329,43,43,58,036,13,39,57,187,36,4*73
$GBGSV,2,2,08,28,56,222,43,25,37,118,42,37,30,322,39,34,11,040,29,4*7C
$GNACCURACY,3.3*16
$PAIRSAT,1,35,2,0,201,3,0,200,4,0,221,5,0,200,6,0,200,7,0,201,8,0,221,9,0,220,10,0,200,11,0,200,12,0,200,13,0,200,14,0,200,15,0,200,16,0,201,17,0,200,18,0,200,19,0,200,20,0,200,21,0,201,22,0,200,23,0,200,24,0,200,25,0,200,26,0,220,27,0,221,28,0,200,29,0,200,30,0,221,31,0,200,32,0,200,194,0,621,195,0,621,196,0,620,199,0,621*5A
$PAIRSAT,2,24,65,0,200,66,0,200,67,0,200,68,0,200,69,0,200,70,0,200,71,0,200,72,0,200,73,0,200,74,0,200,75,0,200,76,0,200,77,0,201,78,0,201,79,0,201,80,0,200,81,0,201,82,0,200,83,0,200,84,0,200,85,0,200,86,0,200,87,0,201,88,0,201*7A
$PAIRSAT,3,23,2,0,1200,3,0,1200,4,0,1200,5,0,200,7,0,1200,8,0,1200,9,0,1200,10,0,1200,11,0,1200,12,0,1200,13,0,1221,15,0,1220,19,0,1201,21,0,1221,24,0,1200,25,0,1200,26,0,1221,27,0,1221,30,0,1200,31,0,1200,33,0,1200,34,0,1000,36,0,1200*6B
$PAIRSAT,4,46,1,0,200,2,0,200,3,0,600,4,0,200,5,0,200,6,0,201,7,0,201,8,0,200,9,0,201,10,0,201,11,0,200,12,0,200,13,0,200,14,0,200,16,0,201,19,0,600,20,0,600,21,0,600,22,0,600,23,0,621,24,0,600,25,0,621,26,0,600,27,0,600,28,0,621,29,0,600,30,0,600,32,0,600,33,0,600,34,0,621,35,0,600,36,0,600,37,0,621,38,0,600,39,0,621,40,0,621,41,0,400,42,0,400,43,0,421,44,0,400,45,0,400,46,0,400,59,0,400,60,0,400,61,0,400,62,0,400*48
$PAIRDGP,10,2,4,7,8,9,16,21,26,27,30*42
$GNGGA,040959.200,2500.7814325,N,12132.4515372,E,2,54,0.51,17.580,M,15.25,M,1,3335*41
$GNRMC,040959.200,A,2500.7814325,N,12132.4515372,E,0.02,317.42,090324,,,D,V*08
$GPHDT,,T*1B
$GNACCURACY,3.6*13
$GNGGA,040959.300,2500.7814205,N,12132.4515372,E,2,54,0.51,17.586,M,15.25,M,1,3335*45
$GNRMC,040959.300,A,2500.7814205,N,12132.4515372,E,0.03,317.42,090324,,,D,V*0B
$GPHDT,,T*1B
$GNACCURACY,3.6*13
$GNGGA,040959.400,2500.7814145,N,12132.4515432,E,2,54,0.51,17.592,M,15.25,M,1,3335*43
$GNRMC,040959.400,A,2500.7814145,N,12132.4515432,E,0.03,317.42,090324,,,D,V*08
$GPHDT,,T*1B
$GNACCURACY,3.6*13
$GNGGA,040959.500,2500.7814085,N,12132.4515432,E,2,52,0.52,17.598,M,15.25,M,1,3335*40
$GNRMC,040959.500,A,2500.7814085,N,12132.4515432,E,0.02,317.42,090324,,,D,V*05
$GPHDT,,T*1B
$GNACCURACY,3.6*13
$GNGGA,040959.600,2500.7814025,N,12132.4515492,E,2,52,0.52,17.604,M,15.25,M,0,3335*44
$GNRMC,040959.600,A,2500.7814025,N,12132.4515492,E,0.02,317.42,090324,,,D,V*06
$GPHDT,,T*1B
$GNACCURACY,3.6*13
$GNGGA,040959.700,2500.7813905,N,12132.4515492,E,2,52,0.52,17.609,M,15.25,M,0,3335*44
$GNRMC,040959.700,A,2500.7813905,N,12132.4515492,E,0.03,317.42,090324,,,D,V*0A
$GPHDT,,T*1B
$GNACCURACY,3.6*13
$GNGGA,040959.800,2500.7813845,N,12132.4515552,E,2,52,0.52,17.616,M,15.25,M,0,3335*4D
$GNRMC,040959.800,A,2500.7813845,N,12132.4515552,E,0.02,317.42,090324,,,D,V*0C
$GPHDT,,T*1B
$GNACCURACY,3.6*13
$GNGGA,040959.900,2500.7813785,N,12132.4515552,E,2,52,0.52,17.623,M,15.25,M,0,3335*49
$GNRMC,040959.900,A,2500.7813785,N,12132.4515552,E,0.01,317.42,090324,,,D,V*0D
$GPHDT,,T*1B
$GNACCURACY,3.6*13
$GNGGA,041000.000,2500.7813725,N,12132.4515552,E,2,51,0.52,17.631,M,15.25,M,1,3335*4F
$GNRMC,041000.000,A,2500.7813725,N,12132.4515552,E,0.02,317.42,090324,,,D,V*09
$GPHDT,,T*1B
$GNACCURACY,3.6*13
$GNGGA,041000.100,2500.7813665,N,12132.4515552,E,2,51,0.52,17.638,M,15.25,M,1,3335*42
$GNRMC,041000.100,A,2500.7813665,N,12132.4515552,E,0.02,317.42,090324,,,D,V*0D
$GPHDT,,T*1B
$GNGSA,A,3,195,194,08,21,199,02,07,27,16,04,30,09,0.79,0.52,0.60,1*3C
$GNGSA,A,3,81,78,88,79,77,,,,,,,,0.79,0.52,0.60,2*05
$GNGSA,A,3,13,21,26,15,27,,,,,,,,0.79,0.52,0.60,3*08
$GNGSA,A,3,23,09,06,16,07,40,39,28,10,25,37,34,0.79,0.52,0.60,4*04
$GPGSV,4,1,15,195,64,114,42,194,64,052,32,08,62,355,42,21,60,155,39,1*67
$GPGSV,4,2,15,50,60,167,34,199,60,167,31,02,49,177,37,07,42,316,33,1*58
$GPGSV,4,3,15,27,33,036,35,16,27,076,33,09,23,246,14,196,19,169,,1*57
$GPGSV,4,4,15,04,17,202,19,30,11,320,28,26,08,100,17,1*59
$GPGSV,2,1,08,194,64,052,35,195,64,114,42,08,62,355,45,199,60,167,37,8*59
$GPGSV,2,2,08,27,33,036,26,09,23,246,29,04,17,202,18,30,11,320,41,8*6E
$GLGSV,2,1,06,81,65,201,39,78,57,038,26,88,55,031,29,79,26,334,40,1*7F
$GLGSV,2,2,06,77,23,111,25,87,02,026,16,1*77
$GAGSV,2,1,07,13,55,080,27,21,55,012,21,26,44,172,16,27,29,080,,7*7A
$GAGSV,2,2,07,19,27,241,,15,13,038,34,04,12,299,,7*41
$GAGSV,1,1,04,21,55,012,37,13,55,080,32,27,29,080,18,15,13,038,24,1*7A
$GBGSV,4,1,13,23,74,032,37,09,73,265,39,06,71,215,39,16,68,199,41,1*71
$GBGSV,4,2,13,07,60,308,37,40,60,329,38,43,58,036,,39,57,187,44,1*74
$GBGSV,4,3,13,28,56,222,43,10,51,290,35,25,37,118,42,37,30,322,36,1*7B
$GBGSV,4,4,13,34,11,040,34,1*40
$GBGSV,2,1,07,23,74,032,38,40,60,329,42,39,57,187,36,28,56,222,43,4*7C
$GBGSV,2,2,07,25,37,118,41,37,30,322,40,34,11,040,26,4*4D
$GNACCURACY,3.6*13
$PAIRSAT,1,35,2,0,201,3,0,200,4,0,221,5,0,200,6,0,200,7,0,201,8,0,221,9,0,220,10,0,200,11,0,200,12,0,200,13,0,200,14,0,200,15,0,200,16,0,201,17,0,200,18,0,200,19,0,200,20,0,200,21,0,201,22,0,200,23,0,200,24,0,200,25,0,200,26,0,220,27,0,221,28,0,200,29,0,200,30,0,221,31,0,200,32,0,200,194,0,621,195,0,621,196,0,620,199,0,621*5A
$PAIRSAT,2,24,65,0,200,66,0,200,67,0,200,68,0,200,69,0,200,70,0,200,71,0,200,72,0,200,73,0,200,74,0,200,75,0,200,76,0,200,77,0,201,78,0,201,79,0,201,80,0,200,81,0,201,82,0,200,83,0,200,84,0,200,85,0,200,86,0,200,87,0,201,88,0,201*7A
$PAIRSAT,3,23,2,0,1200,3,0,1200,4,0,1200,5,0,200,7,0,1200,8,0,1200,9,0,1200,10,0,1200,11,0,1200,12,0,1200,13,0,1221,15,0,1220,19,0,1201,21,0,1221,24,0,1200,25,0,1200,26,0,1221,27,0,1221,30,0,1200,31,0,1200,33,0,1200,34,0,1000,36,0,1200*6B
$PAIRSAT,4,46,1,0,200,2,0,200,3,0,600,4,0,200,5,0,200,6,0,201,7,0,201,8,0,200,9,0,201,10,0,201,11,0,200,12,0,200,13,0,200,14,0,200,16,0,201,19,0,600,20,0,600,21,0,600,22,0,600,23,0,621,24,0,600,25,0,621,26,0,600,27,0,600,28,0,621,29,0,600,30,0,600,32,0,600,33,0,600,34,0,621,35,0,600,36,0,600,37,0,621,38,0,600,39,0,621,40,0,621,41,0,400,42,0,400,43,0,421,44,0,400,45,0,400,46,0,400,59,0,400,60,0,400,61,0,400,62,0,400*48
$PAIRDGP,10,2,4,7,8,9,16,21,26,27,30*42
$GNGGA,041000.200,2500.7813605,N,12132.4515552,E,2,51,0.52,17.647,M,15.25,M,1,3335*4F
$GNRMC,041000.200,A,2500.7813605,N,12132.4515552,E,0.02,317.42,090324,,,D,V*08
$GPHDT,,T*1B
$GNACCURACY,4.1*13
$GNGGA,041000.300,2500.7813485,N,12132.4515552,E,2,51,0.52,17.656,M,15.25,M,1,3335*44
$GNRMC,041000.300,A,2500.7813485,N,12132.4515552,E,0.01,317.42,090324,,,D,V*00
$GPHDT,,T*1B
$GNACCURACY,4.1*13
$GNGGA,041000.400,2500.7813425,N,12132.4515492,E,2,51,0.52,17.665,M,15.25,M,1,3335*44
$GNRMC,041000.400,A,2500.7813425,N,12132.4515492,E,0.02,317.42,090324,,,D,V*03
$GPHDT,,T*1B
$GNACCURACY,4.1*13
$GNGGA,041000.500,2500.7813365,N,12132.4515492,E,2,52,0.52,17.674,M,15.25,M,0,3335*44
$GNRMC,041000.500,A,2500.7813365,N,12132.4515492,E,0.02,317.42,090324,,,D,V*01
$GPHDT,,T*1B
$GNACCURACY,4.1*13
$GNGGA,041000.600,2500.7813305,N,12132.4515492,E,2,51,0.52,17.683,M,15.25,M,0,3335*4A
$GNRMC,041000.600,A,2500.7813305,N,12132.4515492,E,0.02,317.42,090324,,,D,V*04
$GPHDT,,T*1B
$GNACCURACY,4.1*13
$GNGGA,041000.700,2500.7813245,N,12132.4515492,E,2,51,0.52,17.691,M,15.25,M,0,3335*4D
$GNRMC,041000.700,A,2500.7813245,N,12132.4515492,E,0.01,317.42,090324,,,D,V*03
$GPHDT,,T*1B
$GNACCURACY,4.1*13
$GNGGA,041000.800,2500.7813125,N,12132.4515432,E,2,51,0.52,17.699,M,15.25,M,0,3335*45
$GNRMC,041000.800,A,2500.7813125,N,12132.4515432,E,0.01,317.42,090324,,,D,V*03
$GPHDT,,T*1B
$GNACCURACY,4.1*13
$GNGGA,041000.900,2500.7813065,N,12132.4515432,E,2,50,0.52,17.707,M,15.25,M,0,3335*46
$GNRMC,041000.900,A,2500.7813065,N,12132.4515432,E,0.02,317.42,090324,,,D,V*04
$GPHDT,,T*1B
$GNACCURACY,4.1*13
$GNGGA,041001.000,2500.7812885,N,12132.4515432,E,2,51,0.52,17.715,M,15.25,M,1,3335*4A
$GNRMC,041001.000,A,2500.7812885,N,12132.4515432,E,0.03,317.42,090324,,,D,V*0A
$GPHDT,,T*1B
$GNACCURACY,4.1*13
$GNGGA,041001.100,2500.7812825,N,12132.4515432,E,2,53,0.51,17.723,M,15.25,M,1,3335*45
$GNRMC,041001.100,A,2500.7812825,N,12132.4515432,E,0.03,317.42,090324,,,D,V*01
$GPHDT,,T*1B
$GNGSA,A,3,195,194,08,199,21,02,07,27,16,04,30,09,0.78,0.51,0.59,1*34
$GNGSA,A,3,81,78,88,79,77,,,,,,,,0.78,0.51,0.59,2*0D
$GNGSA,A,3,21,13,26,27,15,,,,,,,,0.78,0.51,0.59,3*00
$GNGSA,A,3,23,09,06,16,40,07,43,39,28,10,25,37,0.78,0.51,0.59,4*0C
$GNGSA,A,3,34,,,,,,,,,,,,0.78,0.51,0.59,4*04
$GPGSV,4,1,15,195,64,114,42,194,64,052,32,08,62,355,42,50,60,167,31,1*68
$GPGSV,4,2,15,199,60,167,29,21,60,155,39,02,49,177,37,07,42,316,36,1*5E
$GPGSV,4,3,15,27,33,036,36,16,27,076,32,09,23,246,13,196,19,169,,1*52
$GPGSV,4,4,15,04,17,202,19,30,11,320,23,26,08,100,16,1*53
$GPGSV,2,1,08,194,64,052,36,195,64,114,41,08,62,355,44,199,60,167,36,8*59
$GPGSV,2,2,08,27,33,036,25,09,23,246,29,04,17,202,18,30,11,320,40,8*6C
$GLGSV,2,1,07,81,65,201,39,78,57,038,28,88,55,031,26,79,26,334,38,1*70
$GLGSV,2,2,07,77,23,111,25,82,16,205,,87,02,026,16,1*4C
$GAGSV,2,1,07,21,55,012,25,13,55,080,27,26,44,172,15,27,29,080,22,7*7D
$GAGSV,2,2,07,19,27,241,,15,13,038,34,04,12,299,,7*41
$GAGSV,1,1,04,21,55,012,37,13,55,080,31,27,29,080,20,15,13,038,21,1*77
$GBGSV,4,1,13,23,74,032,34,09,73,265,39,06,71,215,39,16,68,199,41,1*72
$GBGSV,4,2,13,40,60,329,37,07,60,308,37,43,58,036,26,39,57,187,44,1*7F
$GBGSV,4,3,13,28,56,222,43,10,51,290,36,25,37,118,42,37,30,322,36,1*78
$GBGSV,4,4,13,34,11,040,34,1*40
$GBGSV,2,1,07,23,74,032,38,40,60,329,42,39,57,187,36,28,56,222,43,4*7C
$GBGSV,2,2,07,25,37,118,41,37,30,322,39,34,11,040,25,4*40
$GNACCURACY,4.1*13
$PAIRSAT,1,35,2,0,201,3,0,200,4,0,221,5,0,200,6,0,200,7,0,201,8,0,221,9,0,220,10,0,200,11,0,200,12,0,200,13,0,200,14,0,200,15,0,200,16,0,201,17,0,200,18,0,200,19,0,200,20,0,200,21,0,201,22,0,200,23,0,200,24,0,200,25,0,200,26,0,220,27,0,221,28,0,200,29,0,200,30,0,221,31,0,200,32,0,200,194,0,621,195,0,621,196,0,620,199,0,621*5A
$PAIRSAT,2,24,65,0,200,66,0,200,67,0,200,68,0,200,69,0,200,70,0,200,71,0,200,72,0,200,73,0,200,74,0,200,75,0,200,76,0,200,77,0,201,78,0,201,79,0,201,80,0,200,81,0,201,82,0,200,83,0,200,84,0,200,85,0,200,86,0,200,87,0,201,88,0,201*7A
$PAIRSAT,3,23,2,0,1200,3,0,1200,4,0,1200,5,0,200,7,0,1200,8,0,1200,9,0,1200,10,0,1200,11,0,1200,12,0,1200,13,0,1221,15,0,1220,19,0,1201,21,0,1221,24,0,1200,25,0,1200,26,0,1221,27,0,1221,30,0,1200,31,0,1200,33,0,1200,34,0,1000,36,0,1200*6B
$PAIRSAT,4,46,1,0,200,2,0,200,3,0,600,4,0,200,5,0,200,6,0,201,7,0,201,8,0,200,9,0,201,10,0,201,11,0,200,12,0,200,13,0,200,14,0,200,16,0,201,19,0,600,20,0,600,21,0,600,22,0,600,23,0,621,24,0,600,25,0,621,26,0,600,27,0,600,28,0,621,29,0,600,30,0,600,32,0,600,33,0,600,34,0,621,35,0,600,36,0,600,37,0,621,38,0,600,39,0,621,40,0,621,41,0,400,42,0,400,43,0,421,44,0,400,45,0,400,46,0,400,59,0,400,60,0,400,61,0,400,62,0,400*48
$PAIRDGP,10,2,4,7,8,9,16,21,26,27,30*42
$GNGGA,041001.200,2500.7812705,N,12132.4515432,E,2,53,0.51,17.731,M,15.25,M,1,3335*48
$GNRMC,041001.200,A,2500.7812705,N,12132.4515432,E,0.03,317.42,090324,,,D,V*0F
$GPHDT,,T*1B
$GNACCURACY,4.1*13
$GNGGA,041001.300,2500.7812585,N,12132.4515432,E,2,53,0.51,17.738,M,15.25,M,1,3335*4A
$GNRMC,041001.300,A,2500.7812585,N,12132.4515432,E,0.03,317.42,090324,,,D,V*04
$GPHDT,,T*1B
$GNACCURACY,4.1*13
$GNGGA,041001.400,2500.7812525,N,12132.4515372,E,2,53,0.51,17.745,M,15.25,M,1,3335*4E
$GNRMC,041001.400,A,2500.7812525,N,12132.4515372,E,0.02,317.42,090324,,,D,V*0B
$GPHDT,,T*1B
$GNACCURACY,4.1*13
$GNGGA,041001.500,2500.7812405,N,12132.4515432,E,2,52,0.51,17.753,M,15.25,M,0,3335*48
$GNRMC,041001.500,A,2500.7812405,N,12132.4515432,E,0.02,317.42,090324,,,D,V*0A
$GPHDT,,T*1B
$GNACCURACY,4.1*13
$GNGGA,041001.600,2500.7812285,N,12132.4515432,E,2,53,0.51,17.760,M,15.25,M,0,3335*44
$GNRMC,041001.600,A,2500.7812285,N,12132.4515432,E,0.02,317.42,090324,,,D,V*07
$GPHDT,,T*1B
$GNACCURACY,4.1*13
$GNGGA,041001.700,2500.7812225,N,12132.4515372,E,2,53,0.51,17.766,M,15.25,M,0,3335*4A
$GNRMC,041001.700,A,2500.7812225,N,12132.4515372,E,0.02,317.42,090324,,,D,V*0F
$GPHDT,,T*1B
$GNACCURACY,4.1*13
$GNGGA,041001.800,2500.7812105,N,12132.4515372,E,2,53,0.51,17.773,M,15.25,M,0,3335*40
$GNRMC,041001.800,A,2500.7812105,N,12132.4515372,E,0.02,317.42,090324,,,D,V*01
$GPHDT,,T*1B
$GNACCURACY,4.1*13
$GNGGA,041001.900,2500.7811985,N,12132.4515372,E,2,53,0.51,17.778,M,15.25,M,0,3335*49
$GNRMC,041001.900,A,2500.7811985,N,12132.4515372,E,0.02,317.42,090324,,,D,V*03
$GPHDT,,T*1B
$GNACCURACY,4.1*13
$GNGGA,041002.000,2500.7811925,N,12132.4515432,E,2,53,0.51,17.785,M,15.25,M,1,3335*49
$GNRMC,041002.000,A,2500.7811925,N,12132.4515432,E,0.02,317.42,090324,,,D,V*00
$GPHDT,,T*1B
$GNACCURACY,4.1*13
$GNGGA,041002.100,2500.7811865,N,12132.4515492,E,2,53,0.51,17.789,M,15.25,M,1,3335*4B
$GNRMC,041002.100,A,2500.7811865,N,12132.4515492,E,0.02,317.42,090324,,,D,V*0E
$GPHDT,,T*1B
