$FW : RTK35X,V1.1X0314AS,Lib20210517,1*54
$Tool : LOCOSYS , GNSS Firebird , v1.0.0.19*39
$---------------------------------------------------*2D
$GNGSA,A,3,195,194,08,199,21,02,07,27,09,04,30,,0.92,0.53,0.75,1*3B
$GNGSA,A,3,81,78,88,79,77,,,,,,,,0.92,0.53,0.75,2*05
$GNGSA,A,3,21,13,26,27,15,,,,,,,,0.92,0.53,0.75,3*08
$GNGSA,A,3,23,09,06,16,40,07,43,39,28,10,25,37,0.92,0.53,0.75,4*04
$GNGSA,A,3,34,,,,,,,,,,,,0.92,0.53,0.75,4*0C
$GPGSV,4,1,15,195,64,114,44,194,64,052,30,08,62,355,41,50,60,167,30,1*6E
$GPGSV,4,2,15,199,60,167,28,21,60,155,40,02,49,177,35,07,42,316,40,1*52
$GPGSV,4,3,15,27,33,036,24,16,27,076,20,09,23,246,17,196,19,169,,1*56
$GPGSV,4,4,15,04,17,202,17,30,11,320,39,26,08,100,19,1*59
$GPGSV,2,1,08,194,64,052,34,195,64,114,41,08,62,355,44,199,60,167,37,8*5A
$GPGSV,2,2,08,27,33,036,20,09,23,246,23,04,17,202,18,30,11,320,42,8*61
$GLGSV,2,1,07,81,65,201,39,78,57,038,27,88,55,031,21,79,26,334,41,1*76
$GLGSV,2,2,07,77,23,111,26,69,03,281,,87,02,026,13,1*47
$GAGSV,2,1,08,21,55,012,25,13,55,080,28,26,44,172,25,27,29,080,34,7*79
$GAGSV,2,2,08,19,27,241,,15,13,038,26,04,12,299,,33,04,199,,7*78
$GAGSV,1,1,04,21,55,012,34,13,55,080,35,27,29,080,35,15,13,038,20,1*75
$GBGSV,4,1,14,23,74,032,33,09,73,265,34,06,71,214,37,16,68,199,40,1*71
$GBGSV,4,2,14,40,60,329,42,07,60,308,36,43,58,036,19,39,57,187,45,1*76
$GBGSV,4,3,14,28,56,222,42,10,51,290,33,25,37,118,44,37,30,322,41,1*7D
$GBGSV,4,4,14,34,11,040,27,08,01,177,,1*7D
$GBGSV,2,1,07,23,74,032,40,40,60,329,44,39,57,187,38,28,56,222,39,4*76
$GBGSV,2,2,07,25,37,118,42,37,30,322,40,34,11,040,24,4*4C
$GNACCURACY,4.2*10
$PAIRSAT,1,35,2,0,201,3,0,200,4,0,221,5,0,200,6,0,200,7,0,201,8,0,221,9,0,220,10,0,200,11,0,200,12,0,200,13,0,200,14,0,200,15,0,200,16,0,201,17,0,200,18,0,200,19,0,200,20,0,200,21,0,201,22,0,200,23,0,200,24,0,200,25,0,200,26,0,220,27,0,221,28,0,200,29,0,200,30,0,221,31,0,200,32,0,200,194,0,621,195,0,621,196,0,620,199,0,621*5A
$PAIRSAT,2,24,65,0,200,66,0,200,67,0,200,68,0,200,69,0,200,70,0,200,71,0,200,72,0,200,73,0,200,74,0,200,75,0,200,76,0,200,77,0,201,78,0,201,79,0,201,80,0,200,81,0,201,82,0,200,83,0,200,84,0,200,85,0,200,86,0,200,87,0,201,88,0,201*7A
$PAIRSAT,3,23,2,0,1200,3,0,1200,4,0,1200,5,0,200,7,0,1200,8,0,1200,9,0,1200,10,0,1200,11,0,1200,12,0,1200,13,0,1221,15,0,1220,19,0,1201,21,0,1221,24,0,1200,25,0,1200,26,0,1221,27,0,1221,30,0,1200,31,0,1200,33,0,1200,34,0,1000,36,0,1200*6B
$PAIRSAT,4,46,1,0,200,2,0,200,3,0,600,4,0,200,5,0,200,6,0,201,7,0,201,8,0,200,9,0,201,10,0,201,11,0,200,12,0,200,13,0,200,14,0,200,16,0,201,19,0,600,20,0,600,21,0,600,22,0,600,23,0,621,24,0,600,25,0,621,26,0,600,27,0,600,28,0,621,29,0,600,30,0,600,32,0,600,33,0,600,34,0,621,35,0,600,36,0,600,37,0,621,38,0,600,39,0,621,40,0,621,41,0,400,42,0,400,43,0,421,44,0,400,45,0,400,46,0,400,59,0,400,60,0,400,61,0,400,62,0,400*48
$PAIRDGP,10,2,4,7,8,9,16,21,26,27,30*42
$GNGGA,041006.200,2500.7811205,N,12132.4516512,E,2,53,0.53,17.819,M,15.25,M,1,3335*4E
$GNRMC,041006.200,A,2500.7811205,N,12132.4516512,E,0.05,317.42,090324,,,D,V*08
$GPHDT,,T*1B
$GNACCURACY,4.2*10
$GNGGA,041006.300,2500.7811205,N,12132.4516512,E,2,53,0.53,17.816,M,15.25,M,1,3335*40
$GNRMC,041006.300,A,2500.7811205,N,12132.4516512,E,0.04,317.42,090324,,,D,V*08
$GPHDT,,T*1B
$GNACCURACY,4.2*10
$GNGGA,041006.400,2500.7811205,N,12132.4516512,E,2,53,0.53,17.812,M,15.25,M,1,3335*43
$GNRMC,041006.400,A,2500.7811205,N,12132.4516512,E,0.03,317.42,090324,,,D,V*08
$GPHDT,,T*1B
$GNACCURACY,4.2*10
$GNGGA,041006.500,2500.7811205,N,12132.4516512,E,2,53,0.53,17.809,M,15.25,M,0,3335*49
$GNRMC,041006.500,A,2500.7811205,N,12132.4516512,E,0.04,317.42,090324,,,D,V*0E
$GPHDT,,T*1B
$GNACCURACY,4.2*10
$GNGGA,041006.600,2500.7811205,N,12132.4516512,E,2,53,0.53,17.807,M,15.25,M,0,3335*44
$GNRMC,041006.600,A,2500.7811205,N,12132.4516512,E,0.04,317.42,090324,,,D,V*0D
$GPHDT,,T*1B
$GNACCURACY,4.2*10
$GNGGA,041006.700,2500.7811205,N,12132.4516512,E,2,53,0.53,17.806,M,15.25,M,0,3335*44
$GNRMC,041006.700,A,2500.7811205,N,12132.4516512,E,0.03,317.42,090324,,,D,V*0B
$GPHDT,,T*1B
$GNACCURACY,4.2*10
$GNGGA,041006.800,2500.7811205,N,12132.4516512,E,2,53,0.53,17.807,M,15.25,M,0,3335*4A
$GNRMC,041006.800,A,2500.7811205,N,12132.4516512,E,0.05,317.42,090324,,,D,V*02
$GPHDT,,T*1B
$GNACCURACY,4.2*10
$GNGGA,041006.900,2500.7811205,N,12132.4516512,E,2,53,0.53,17.807,M,15.25,M,0,3335*4B
$GNRMC,041006.900,A,2500.7811205,N,12132.4516512,E,0.05,317.42,090324,,,D,V*03
$GPHDT,,T*1B
$GNACCURACY,4.2*10
$GNGGA,041007.000,2500.7811205,N,12132.4516512,E,2,53,0.53,17.808,M,15.25,M,1,3335*4D
$GNRMC,041007.000,A,2500.7811205,N,12132.4516512,E,0.03,317.42,090324,,,D,V*0D
$GPHDT,,T*1B
$GNACCURACY,4.2*10
$GNGGA,041007.100,2500.7811205,N,12132.4516512,E,2,54,0.53,17.810,M,15.25,M,1,3335*42
$GNRMC,041007.100,A,2500.7811205,N,12132.4516512,E,0.07,317.42,090324,,,D,V*08
$GPHDT,,T*1B
$GNGSA,A,3,195,194,08,199,21,02,07,27,09,04,30,,0.92,0.53,0.75,1*3B
$GNGSA,A,3,81,78,88,79,77,,,,,,,,0.92,0.53,0.75,2*05
$GNGSA,A,3,13,21,26,27,15,,,,,,,,0.92,0.53,0.75,3*08
$GNGSA,A,3,23,09,06,16,40,07,43,39,28,10,25,37,0.92,0.53,0.75,4*04
$GNGSA,A,3,34,,,,,,,,,,,,0.92,0.53,0.75,4*0C
$GPGSV,4,1,15,195,64,114,44,194,64,052,30,08,62,355,42,50,60,167,30,1*6D
$GPGSV,4,2,15,199,60,167,28,21,60,155,40,02,49,177,37,07,42,316,40,1*50
$GPGSV,4,3,15,27,33,036,25,16,27,076,19,09,23,246,17,196,19,169,,1*5D
$GPGSV,4,4,15,04,17,202,17,30,11,320,39,26,08,100,20,1*53
$GPGSV,2,1,08,194,64,052,34,195,64,114,40,08,62,355,44,199,60,167,36,8*5A
$GPGSV,2,2,08,27,33,036,20,09,23,246,21,04,17,202,17,30,11,320,41,8*6F
$GLGSV,2,1,06,81,65,201,38,78,57,038,29,88,55,031,18,79,26,334,41,1*72
$GLGSV,2,2,06,77,23,111,27,87,02,026,13,1*70
$GAGSV,2,1,08,13,55,080,29,21,55,012,27,26,44,172,25,27,29,080,36,7*78
$GAGSV,2,2,08,19,27,241,,15,13,038,30,04,12,299,,33,04,199,,7*7F
$GAGSV,1,1,04,21,55,012,34,13,55,080,34,27,29,080,35,15,13,038,19,1*7E
$GBGSV,4,1,14,23,74,032,32,09,73,265,34,06,71,214,37,16,68,199,40,1*70
$GBGSV,4,2,14,40,60,329,42,07,60,308,36,43,58,036,16,39,57,187,45,1*79
$GBGSV,4,3,14,28,56,222,42,10,51,290,34,25,37,118,44,37,30,322,41,1*7A
$GBGSV,4,4,14,34,11,040,29,08,01,177,,1*73
$GBGSV,2,1,07,23,74,032,40,40,60,329,44,39,57,187,37,28,56,222,38,4*78
$GBGSV,2,2,07,25,37,118,43,37,30,322,39,34,11,040,26,4*41
$GNACCURACY,4.2*10
$PAIRSAT,1,35,2,0,201,3,0,200,4,0,221,5,0,200,6,0,200,7,0,201,8,0,221,9,0,220,10,0,200,11,0,200,12,0,200,13,0,200,14,0,200,15,0,200,16,0,201,17,0,200,18,0,200,19,0,200,20,0,200,21,0,201,22,0,200,23,0,200,24,0,200,25,0,200,26,0,220,27,0,221,28,0,200,29,0,200,30,0,221,31,0,200,32,0,200,194,0,621,195,0,621,196,0,620,199,0,621*5A
$PAIRSAT,2,24,65,0,200,66,0,200,67,0,200,68,0,200,69,0,200,70,0,200,71,0,200,72,0,200,73,0,200,74,0,200,75,0,200,76,0,200,77,0,201,78,0,201,79,0,201,80,0,200,81,0,201,82,0,200,83,0,200,84,0,200,85,0,200,86,0,200,87,0,201,88,0,201*7A
$PAIRSAT,3,23,2,0,1200,3,0,1200,4,0,1200,5,0,200,7,0,1200,8,0,1200,9,0,1200,10,0,1200,11,0,1200,12,0,1200,13,0,1221,15,0,1220,19,0,1201,21,0,1221,24,0,1200,25,0,1200,26,0,1221,27,0,1221,30,0,1200,31,0,1200,33,0,1200,34,0,1000,36,0,1200*6B
$PAIRSAT,4,46,1,0,200,2,0,200,3,0,600,4,0,200,5,0,200,6,0,201,7,0,201,8,0,200,9,0,201,10,0,201,11,0,200,12,0,200,13,0,200,14,0,200,16,0,201,19,0,600,20,0,600,21,0,600,22,0,600,23,0,621,24,0,600,25,0,621,26,0,600,27,0,600,28,0,621,29,0,600,30,0,600,32,0,600,33,0,600,34,0,621,35,0,600,36,0,600,37,0,621,38,0,600,39,0,621,40,0,621,41,0,400,42,0,400,43,0,421,44,0,400,45,0,400,46,0,400,59,0,400,60,0,400,61,0,400,62,0,400*48
$PAIRDGP,10,2,4,7,8,9,16,21,26,27,30*42
$GNGGA,041007.200,2500.7811205,N,12132.4516512,E,2,53,0.53,17.813,M,15.25,M,1,3335*45
$GNRMC,041007.200,A,2500.7811205,N,12132.4516512,E,0.07,317.42,090324,,,D,V*0B
$GPHDT,,T*1B
$GNACCURACY,4.2*10
$GNGGA,041007.300,2500.7811265,N,12132.4516512,E,2,53,0.53,17.816,M,15.25,M,1,3335*47
$GNRMC,041007.300,A,2500.7811265,N,12132.4516512,E,0.07,317.42,090324,,,D,V*0C
$GPHDT,,T*1B
$GNACCURACY,4.2*10
$GNGGA,041007.400,2500.7811265,N,12132.4516512,E,2,53,0.53,17.817,M,15.25,M,1,3335*41
$GNRMC,041007.400,A,2500.7811265,N,12132.4516512,E,0.05,317.42,090324,,,D,V*09
$GPHDT,,T*1B
$GNACCURACY,4.2*10
$GNGGA,041007.500,2500.7811265,N,12132.4516512,E,2,53,0.53,17.818,M,15.25,M,0,3335*4E
$GNRMC,041007.500,A,2500.7811265,N,12132.4516512,E,0.02,317.42,090324,,,D,V*0F
$GPHDT,,T*1B
$GNACCURACY,4.2*10
$GNGGA,041007.600,2500.7814449,N,12132.4519487,E,4,54,0.53,16.704,M,15.25,M,0,3335*40
$GNRMC,041007.600,A,2500.7814449,N,12132.4519487,E,0.05,317.42,090324,,,R,V*12
$GPHDT,,T*1B
$GNACCURACY,4.2*10
$GNGGA,041007.700,2500.7814457,N,12132.4519471,E,4,54,0.53,16.712,M,15.25,M,0,3335*40
$GNRMC,041007.700,A,2500.7814457,N,12132.4519471,E,0.02,317.42,090324,,,R,V*12
$GPHDT,,T*1B
$GNACCURACY,4.2*10
$GNGGA,041007.800,2500.7814437,N,12132.4519453,E,4,55,0.53,16.715,M,15.25,M,0,3335*4F
$GNRMC,041007.800,A,2500.7814437,N,12132.4519453,E,0.03,317.42,090324,,,R,V*1A
$GPHDT,,T*1B
$GNACCURACY,4.2*10
$GNGGA,041007.900,2500.7814394,N,12132.4519393,E,4,54,0.53,16.705,M,15.25,M,0,3335*4B
$GNRMC,041007.900,A,2500.7814394,N,12132.4519393,E,0.07,317.42,090324,,,R,V*1A
$GPHDT,,T*1B
$GNACCURACY,4.2*10
$GNGGA,041008.000,2500.7814373,N,12132.4519382,E,4,54,0.53,16.699,M,15.25,M,1,3335*41
$GNRMC,041008.000,A,2500.7814373,N,12132.4519382,E,0.04,317.42,090324,,,R,V*16
$GPHDT,,T*1B
$GNACCURACY,4.2*10
$GNGGA,041008.100,2500.7814369,N,12132.4519386,E,4,53,0.53,16.698,M,15.25,M,1,3335*49
$GNRMC,041008.100,A,2500.7814369,N,12132.4519386,E,0.02,317.42,090324,,,R,V*1E
$GPHDT,,T*1B
$GNGSA,A,3,195,194,08,199,21,02,07,27,09,04,30,,0.92,0.53,0.75,1*3B
$GNGSA,A,3,81,78,88,79,77,,,,,,,,0.92,0.53,0.75,2*05
$GNGSA,A,3,13,21,26,27,15,,,,,,,,0.92,0.53,0.75,3*08
$GNGSA,A,3,23,09,06,16,40,07,39,28,10,25,37,34,0.92,0.53,0.75,4*04
$GNGSA,A,3,43,,,,,,,,,,,,0.92,0.53,0.75,4*0C
$GPGSV,4,1,15,195,64,114,44,194,64,052,31,08,62,355,42,50,60,167,30,1*6C
$GPGSV,4,2,15,199,60,167,27,21,60,155,40,02,49,176,35,07,42,316,40,1*5C
$GPGSV,4,3,15,27,33,036,23,16,27,076,27,09,23,246,20,196,19,169,,1*52
$GPGSV,4,4,15,04,17,202,17,30,11,320,39,26,08,100,17,1*57
$GPGSV,3,1,09,194,64,052,35,195,64,114,42,08,62,355,44,199,60,167,35,8*5A
$GPGSV,3,2,09,27,33,036,21,09,23,246,25,04,17,202,16,30,11,320,42,8*68
$GPGSV,3,3,09,26,08,100,13,8*5B
$GLGSV,2,1,06,81,65,201,38,78,57,038,32,88,55,031,21,79,26,334,43,1*70
$GLGSV,2,2,06,77,23,111,25,87,02,026,14,1*75
$GAGSV,2,1,08,13,55,080,29,21,55,012,25,26,44,172,24,27,29,080,35,7*78
$GAGSV,2,2,08,19,27,241,,15,13,038,31,04,12,299,,33,04,199,,7*7E
$GAGSV,1,1,04,21,55,012,35,13,55,080,36,27,29,080,35,15,13,038,24,1*73
$GBGSV,4,1,13,23,74,032,35,09,73,265,36,06,71,214,38,16,68,199,40,1*7D
$GBGSV,4,2,13,40,60,329,42,07,60,308,40,43,58,036,17,39,57,187,45,1*7E
$GBGSV,4,3,13,28,56,222,46,10,51,290,33,25,37,118,44,37,30,322,41,1*7E
$GBGSV,4,4,13,34,11,040,32,1*46
$GBGSV,2,1,08,23,74,032,37,40,60,329,44,43,58,036,21,39,57,187,38,4*74
$GBGSV,2,2,08,28,56,222,42,25,37,118,43,37,30,322,40,34,11,040,26,4*7D
$GNACCURACY,4.2*10
$PAIRSAT,1,35,2,0,201,3,0,200,4,0,221,5,0,200,6,0,200,7,0,201,8,0,221,9,0,220,10,0,200,11,0,200,12,0,200,13,0,200,14,0,200,15,0,200,16,0,201,17,0,200,18,0,200,19,0,200,20,0,200,21,0,201,22,0,200,23,0,200,24,0,200,25,0,200,26,0,220,27,0,221,28,0,200,29,0,200,30,0,221,31,0,200,32,0,200,194,0,621,195,0,621,196,0,620,199,0,621*5A
$PAIRSAT,2,24,65,0,200,66,0,200,67,0,200,68,0,200,69,0,200,70,0,200,71,0,200,72,0,200,73,0,200,74,0,200,75,0,200,76,0,200,77,0,201,78,0,201,79,0,201,80,0,200,81,0,201,82,0,200,83,0,200,84,0,200,85,0,200,86,0,200,87,0,201,88,0,201*7A
$PAIRSAT,3,23,2,0,1200,3,0,1200,4,0,1200,5,0,200,7,0,1200,8,0,1200,9,0,1200,10,0,1200,11,0,1200,12,0,1200,13,0,1221,15,0,1220,19,0,1201,21,0,1221,24,0,1200,25,0,1200,26,0,1221,27,0,1221,30,0,1200,31,0,1200,33,0,1200,34,0,1000,36,0,1200*6B
$PAIRSAT,4,46,1,0,200,2,0,200,3,0,600,4,0,200,5,0,200,6,0,201,7,0,201,8,0,200,9,0,201,10,0,201,11,0,200,12,0,200,13,0,200,14,0,200,16,0,201,19,0,600,20,0,600,21,0,600,22,0,600,23,0,621,24,0,600,25,0,621,26,0,600,27,0,600,28,0,621,29,0,600,30,0,600,32,0,600,33,0,600,34,0,621,35,0,600,36,0,600,37,0,621,38,0,600,39,0,621,40,0,621,41,0,400,42,0,400,43,0,421,44,0,400,45,0,400,46,0,400,59,0,400,60,0,400,61,0,400,62,0,400*48
$PAIRDGP,10,2,4,7,8,9,16,21,26,27,30*42
$GNGGA,041008.200,2500.7814394,N,12132.4519383,E,4,53,0.53,16.700,M,15.25,M,1,3335*4D
$GNRMC,041008.200,A,2500.7814394,N,12132.4519383,E,0.02,317.42,090324,,,R,V*1A
$GPHDT,,T*1B
$GNACCURACY,4.2*10
$GNGGA,041008.300,2500.7814434,N,12132.4519433,E,4,53,0.53,16.698,M,15.25,M,1,3335*4D
$GNRMC,041008.300,A,2500.7814434,N,12132.4519433,E,0.02,317.42,090324,,,R,V*1A
$GPHDT,,T*1B
$GNACCURACY,4.3*11
$GNGGA,041008.400,2500.7814438,N,12132.4519458,E,4,53,0.53,16.699,M,15.25,M,1,3335*4A
$GNRMC,041008.400,A,2500.7814438,N,12132.4519458,E,0.03,317.42,090324,,,R,V*1D
$GPHDT,,T*1B
$GNACCURACY,4.3*11
$GNGGA,041008.500,2500.7814527,N,12132.4519540,E,4,54,0.53,16.716,M,15.25,M,1,3335*4D
$GNRMC,041008.500,A,2500.7814527,N,12132.4519540,E,0.03,317.42,090324,,,R,V*1B
$GPHDT,,T*1B
$GNACCURACY,4.3*11
$GNGGA,041008.600,2500.7814512,N,12132.4519492,E,4,55,0.53,16.712,M,15.25,M,1,3335*43
$GNRMC,041008.600,A,2500.7814512,N,12132.4519492,E,0.03,317.42,090324,,,R,V*10
$GPHDT,,T*1B
$GNACCURACY,4.3*11
$GNGGA,041008.700,2500.7814526,N,12132.4519498,E,4,55,0.53,16.727,M,15.25,M,0,3335*48
$GNRMC,041008.700,A,2500.7814526,N,12132.4519498,E,0.03,317.42,090324,,,R,V*1C
$GPHDT,,T*1B
$GNACCURACY,4.3*11
$GNGGA,041008.800,2500.7814539,N,12132.4519529,E,4,55,0.53,16.720,M,15.25,M,0,3335*45
$GNRMC,041008.800,A,2500.7814539,N,12132.4519529,E,0.06,317.42,090324,,,R,V*13
$GPHDT,,T*1B
$GNACCURACY,4.3*11
$GNGGA,041008.900,2500.7814541,N,12132.4519516,E,4,54,0.53,16.730,M,15.25,M,0,3335*47
$GNRMC,041008.900,A,2500.7814541,N,12132.4519516,E,0.08,317.42,090324,,,R,V*1F
$GPHDT,,T*1B
$GNACCURACY,4.5*17
$GNGGA,041009.000,2500.7814543,N,12132.4519534,E,4,54,0.53,16.729,M,15.25,M,1,3335*44
$GNRMC,041009.000,A,2500.7814543,N,12132.4519534,E,0.03,317.42,090324,,,R,V*1E
$GPHDT,,T*1B
$GNACCURACY,4.5*17
$GNGGA,041009.100,2500.7814511,N,12132.4519522,E,4,54,0.53,16.714,M,15.25,M,1,3335*4B
$GNRMC,041009.100,A,2500.7814511,N,12132.4519522,E,0.02,317.42,090324,,,R,V*1E
$GPHDT,,T*1B
$GNGSA,A,3,195,194,08,199,21,02,07,27,09,04,30,,0.92,0.53,0.75,1*3B
$GNGSA,A,3,81,78,88,79,77,,,,,,,,0.92,0.53,0.75,2*05
$GNGSA,A,3,21,13,26,27,15,,,,,,,,0.92,0.53,0.75,3*08
$GNGSA,A,3,23,09,06,16,07,40,43,39,28,10,25,37,0.92,0.53,0.75,4*04
$GNGSA,A,3,34,,,,,,,,,,,,0.92,0.53,0.75,4*0C
$GPGSV,4,1,15,195,64,114,44,194,64,052,33,08,62,356,42,50,60,167,28,1*64
$GPGSV,4,2,15,199,60,167,23,21,60,155,39,02,49,176,35,07,42,316,39,1*58
$GPGSV,4,3,15,27,33,036,21,16,27,076,,09,23,246,21,196,19,169,,1*54
$GPGSV,4,4,15,04,17,202,17,30,11,320,38,26,08,100,16,1*57
$GPGSV,3,1,09,194,64,052,34,195,64,114,43,08,62,356,44,199,60,167,34,8*58
$GPGSV,3,2,09,27,33,036,20,09,23,246,24,04,17,202,16,30,11,320,42,8*68
$GPGSV,3,3,09,26,08,100,09,8*50
$GLGSV,2,1,07,81,65,201,39,78,57,038,32,88,55,031,22,79,26,334,41,1*71
$GLGSV,2,2,07,77,23,111,25,87,02,026,13,68,01,236,,1*4B
$GAGSV,2,1,08,21,55,012,25,13,55,080,29,26,44,172,25,27,29,080,33,7*7F
$GAGSV,2,2,08,19,27,241,,15,13,038,30,04,12,299,,33,04,199,,7*7F
$GAGSV,2,1,05,13,55,080,36,21,55,012,35,26,44,172,18,27,29,080,35,1*73
$GAGSV,2,2,05,15,13,038,26,1*49
$GBGSV,4,1,13,23,74,032,31,09,73,265,36,06,71,214,39,16,68,199,40,1*78
$GBGSV,4,2,13,07,60,308,37,40,60,329,43,43,58,036,23,39,57,187,45,1*78
$GBGSV,4,3,13,28,56,222,46,10,51,290,32,25,37,118,42,37,30,322,41,1*79
$GBGSV,4,4,13,34,11,040,31,1*45
$GBGSV,2,1,08,23,74,032,37,40,60,329,44,43,58,036,21,39,57,187,38,4*74
$GBGSV,2,2,08,28,56,222,42,25,37,118,42,37,30,322,40,34,11,040,26,4*7C
$GNACCURACY,4.5*17
$PAIRSAT,1,35,2,0,201,3,0,200,4,0,221,5,0,200,6,0,200,7,0,201,8,0,221,9,0,220,10,0,200,11,0,200,12,0,200,13,0,200,14,0,200,15,0,200,16,0,201,17,0,200,18,0,200,19,0,200,20,0,200,21,0,201,22,0,200,23,0,200,24,0,200,25,0,200,26,0,220,27,0,221,28,0,200,29,0,200,30,0,221,31,0,200,32,0,200,194,0,621,195,0,621,196,0,620,199,0,621*5A
$PAIRSAT,2,24,65,0,200,66,0,200,67,0,200,68,0,200,69,0,200,70,0,200,71,0,200,72,0,200,73,0,200,74,0,200,75,0,200,76,0,200,77,0,201,78,0,201,79,0,201,80,0,200,81,0,201,82,0,200,83,0,200,84,0,200,85,0,200,86,0,200,87,0,201,88,0,201*7A
$PAIRSAT,3,23,2,0,1200,3,0,1200,4,0,1200,5,0,200,7,0,1200,8,0,1200,9,0,1200,10,0,1200,11,0,1200,12,0,1200,13,0,1221,15,0,1220,19,0,1201,21,0,1221,24,0,1200,25,0,1200,26,0,1221,27,0,1221,30,0,1200,31,0,1200,33,0,1200,34,0,1000,36,0,1200*6B
$PAIRSAT,4,46,1,0,200,2,0,200,3,0,600,4,0,200,5,0,200,6,0,201,7,0,201,8,0,200,9,0,201,10,0,201,11,0,200,12,0,200,13,0,200,14,0,200,16,0,201,19,0,600,20,0,600,21,0,600,22,0,600,23,0,621,24,0,600,25,0,621,26,0,600,27,0,600,28,0,621,29,0,600,30,0,600,32,0,600,33,0,600,34,0,621,35,0,600,36,0,600,37,0,621,38,0,600,39,0,621,40,0,621,41,0,400,42,0,400,43,0,421,44,0,400,45,0,400,46,0,400,59,0,400,60,0,400,61,0,400,62,0,400*48
$PAIRDGP,10,2,4,7,8,9,16,21,26,27,30*42
$GNGGA,041009.200,2500.7814460,N,12132.4519485,E,4,55,0.53,16.715,M,15.25,M,1,3335*43
$GNRMC,041009.200,A,2500.7814460,N,12132.4519485,E,0.01,317.42,090324,,,R,V*15
$GPHDT,,T*1B
$GNACCURACY,4.5*17
$GNGGA,041009.300,2500.7814476,N,12132.4519505,E,4,55,0.53,16.723,M,15.25,M,1,3335*49
$GNRMC,041009.300,A,2500.7814476,N,12132.4519505,E,0.03,317.42,090324,,,R,V*18
$GPHDT,,T*1B
$GNACCURACY,4.3*11
$GNGGA,041009.400,2500.7814437,N,12132.4519468,E,4,55,0.53,16.708,M,15.25,M,1,3335*48
$GNRMC,041009.400,A,2500.7814437,N,12132.4519468,E,0.07,317.42,090324,,,R,V*14
$GPHDT,,T*1B
$GNACCURACY,4.3*11
$GNGGA,041009.500,2500.7814441,N,12132.4519471,E,4,55,0.53,16.705,M,15.25,M,0,3335*4C
$GNRMC,041009.500,A,2500.7814441,N,12132.4519471,E,0.07,317.42,090324,,,R,V*1C
$GPHDT,,T*1B
$GNACCURACY,4.3*11
$GNGGA,041009.600,2500.7814331,N,12132.4519358,E,4,55,0.53,16.681,M,15.25,M,0,3335*4E
$GNRMC,041009.600,A,2500.7814331,N,12132.4519358,E,0.10,317.42,090324,,,R,V*15
$GPHDT,,T*1B
$GNACCURACY,4.3*11
$GNGGA,041009.700,2500.7814411,N,12132.4519408,E,4,55,0.53,16.694,M,15.25,M,0,3335*4C
$GNRMC,041009.700,A,2500.7814411,N,12132.4519408,E,0.07,317.42,090324,,,R,V*15
$GPHDT,,T*1B
$GNACCURACY,4.3*11
$GNGGA,041009.800,2500.7814361,N,12132.4519364,E,4,55,0.53,16.694,M,15.25,M,0,3335*4E
$GNRMC,041009.800,A,2500.7814361,N,12132.4519364,E,0.07,317.42,090324,,,R,V*17
$GPHDT,,T*1B
$GNACCURACY,4.3*11
$GNGGA,041009.900,2500.7814400,N,12132.4519411,E,4,55,0.53,16.698,M,15.25,M,0,3335*46
$GNRMC,041009.900,A,2500.7814400,N,12132.4519411,E,0.04,317.42,090324,,,R,V*10
$GPHDT,,T*1B
$GNACCURACY,4.3*11
$GNGGA,041010.000,2500.7814407,N,12132.4519406,E,4,55,0.53,16.697,M,15.25,M,1,3335*48
$GNRMC,041010.000,A,2500.7814407,N,12132.4519406,E,0.02,317.42,090324,,,R,V*16
$GPHDT,,T*1B
$GNACCURACY,4.3*11
$GNGGA,041010.100,2500.7814439,N,12132.4519465,E,4,55,0.53,16.704,M,15.25,M,1,3335*4A
$GNRMC,041010.100,A,2500.7814439,N,12132.4519465,E,0.02,317.42,090324,,,R,V*1F
$GPHDT,,T*1B
$GNGSA,A,3,195,194,08,199,21,02,07,27,09,04,30,,0.92,0.53,0.75,1*3B
$GNGSA,A,3,81,78,88,79,77,,,,,,,,0.92,0.53,0.75,2*05
$GNGSA,A,3,21,13,26,27,15,,,,,,,,0.92,0.53,0.75,3*08
$GNGSA,A,3,23,09,06,16,07,40,43,39,28,10,25,37,0.92,0.53,0.75,4*04
$GNGSA,A,3,34,,,,,,,,,,,,0.92,0.53,0.75,4*0C
$GPGSV,4,1,15,195,64,114,44,194,64,052,31,08,62,356,42,50,60,167,29,1*67
$GPGSV,4,2,15,199,60,167,25,21,60,155,39,02,49,176,34,07,42,316,40,1*51
$GPGSV,4,3,15,27,32,036,27,16,27,076,28,09,23,246,19,196,19,169,,1*52
$GPGSV,4,4,15,04,17,202,17,30,11,320,39,26,08,100,16,1*56
$GPGSV,2,1,08,194,64,052,36,195,64,114,42,08,62,356,44,199,60,167,36,8*59
$GPGSV,2,2,08,27,32,036,21,09,23,246,24,04,17,202,16,30,11,320,42,8*68
$GLGSV,2,1,07,81,65,201,38,78,57,038,33,88,55,031,24,79,26,334,42,1*74
$GLGSV,2,2,07,77,23,111,25,69,03,281,,87,02,026,13,1*44
$GAGSV,2,1,08,21,55,012,28,13,55,080,30,26,44,172,23,27,29,080,34,7*7B
$GAGSV,2,2,08,19,27,241,,15,13,038,30,04,12,299,,33,04,199,,7*7F
$GAGSV,2,1,05,13,55,080,36,21,55,012,35,26,44,172,20,27,29,080,35,1*78
$GAGSV,2,2,05,15,13,038,24,1*4B
$GBGSV,4,1,13,23,74,032,34,09,73,265,37,06,71,214,39,16,68,199,40,1*7C
$GBGSV,4,2,13,07,60,308,39,40,60,329,43,43,58,036,25,39,57,187,45,1*70
$GBGSV,4,3,13,28,56,222,46,10,51,290,35,25,37,118,42,37,30,322,41,1*7E
$GBGSV,4,4,13,34,11,040,31,1*45
$GBGSV,2,1,08,23,74,032,36,40,60,329,45,43,58,036,20,39,57,187,39,4*74
$GBGSV,2,2,08,28,56,222,42,25,37,118,42,37,30,322,41,34,11,040,27,4*7C
$GNACCURACY,4.3*11
$PAIRSAT,1,35,2,0,201,3,0,200,4,0,221,5,0,200,6,0,200,7,0,201,8,0,221,9,0,220,10,0,200,11,0,200,12,0,200,13,0,200,14,0,200,15,0,200,16,0,201,17,0,200,18,0,200,19,0,200,20,0,200,21,0,201,22,0,200,23,0,200,24,0,200,25,0,200,26,0,220,27,0,221,28,0,200,29,0,200,30,0,221,31,0,200,32,0,200,194,0,621,195,0,621,196,0,620,199,0,621*5A
$PAIRSAT,2,24,65,0,200,66,0,200,67,0,200,68,0,200,69,0,200,70,0,200,71,0,200,72,0,200,73,0,200,74,0,200,75,0,200,76,0,200,77,0,201,78,0,201,79,0,201,80,0,200,81,0,201,82,0,200,83,0,200,84,0,200,85,0,200,86,0,200,87,0,201,88,0,201*7A
$PAIRSAT,3,23,2,0,1200,3,0,1200,4,0,1200,5,0,200,7,0,1200,8,0,1200,9,0,1200,10,0,1200,11,0,1200,12,0,1200,13,0,1221,15,0,1220,19,0,1201,21,0,1221,24,0,1200,25,0,1200,26,0,1221,27,0,1221,30,0,1200,31,0,1200,33,0,1200,34,0,1000,36,0,1200*6B
$PAIRSAT,4,46,1,0,200,2,0,200,3,0,600,4,0,200,5,0,200,6,0,201,7,0,201,8,0,200,9,0,201,10,0,201,11,0,200,12,0,200,13,0,200,14,0,200,16,0,201,19,0,600,20,0,600,21,0,600,22,0,600,23,0,621,24,0,600,25,0,621,26,0,600,27,0,600,28,0,621,29,0,600,30,0,600,32,0,600,33,0,600,34,0,621,35,0,600,36,0,600,37,0,621,38,0,600,39,0,621,40,0,621,41,0,400,42,0,400,43,0,421,44,0,400,45,0,400,46,0,400,59,0,400,60,0,400,61,0,400,62,0,400*48
$PAIRDGP,10,2,4,7,8,9,16,21,26,27,30*42
$GNGGA,041010.200,2500.7814475,N,12132.4519506,E,4,55,0.53,16.708,M,15.25,M,1,3335*49
$GNRMC,041010.200,A,2500.7814475,N,12132.4519506,E,0.01,317.42,090324,,,R,V*13
$GPHDT,,T*1B
$GNACCURACY,3.9*1C
$GNGGA,041010.300,2500.7814527,N,12132.4519559,E,4,55,0.53,16.707,M,15.25,M,1,3335*4B
$GNRMC,041010.300,A,2500.7814527,N,12132.4519559,E,0.02,317.42,090324,,,R,V*1D
$GPHDT,,T*1B
$GNACCURACY,3.9*1C
$GNGGA,041010.400,2500.7814499,N,12132.4519510,E,4,55,0.53,16.704,M,15.25,M,1,3335*46
$GNRMC,041010.400,A,2500.7814499,N,12132.4519510,E,0.02,317.42,090324,,,R,V*13
$GPHDT,,T*1B
$GNACCURACY,3.9*1C
$GNGGA,041010.500,2500.7814519,N,12132.4519538,E,4,56,0.52,16.706,M,15.25,M,1,3335*44
$GNRMC,041010.500,A,2500.7814519,N,12132.4519538,E,0.02,317.42,090324,,,R,V*11
$GPHDT,,T*1B
$GNACCURACY,3.9*1C
$GNGGA,041010.600,2500.7814471,N,12132.4519473,E,4,56,0.52,16.705,M,15.25,M,0,3335*44
$GNRMC,041010.600,A,2500.7814471,N,12132.4519473,E,0.03,317.42,090324,,,R,V*12
$GPHDT,,T*1B
$GNACCURACY,3.9*1C
$GNGGA,041010.700,2500.7814510,N,12132.4519534,E,4,56,0.52,16.715,M,15.25,M,0,3335*40
$GNRMC,041010.700,A,2500.7814510,N,12132.4519534,E,0.02,317.42,090324,,,R,V*16
$GPHDT,,T*1B
$GNACCURACY,3.9*1C
$GNGGA,041010.800,2500.7814473,N,12132.4519465,E,4,55,0.52,16.713,M,15.25,M,0,3335*4B
$GNRMC,041010.800,A,2500.7814473,N,12132.4519465,E,0.02,317.42,090324,,,R,V*18
$GPHDT,,T*1B
$GNACCURACY,3.9*1C
$GNGGA,041010.900,2500.7814461,N,12132.4519491,E,4,55,0.52,16.704,M,15.25,M,0,3335*44
$GNRMC,041010.900,A,2500.7814461,N,12132.4519491,E,0.03,317.42,090324,,,R,V*10
$GPHDT,,T*1B
$GNACCURACY,3.9*1C
$GNGGA,041011.000,2500.7814465,N,12132.4519482,E,4,55,0.52,16.710,M,15.25,M,1,3335*4E
$GNRMC,041011.000,A,2500.7814465,N,12132.4519482,E,0.02,317.42,090324,,,R,V*1F
$GPHDT,,T*1B
$GNACCURACY,3.9*1C
$GNGGA,041011.100,2500.7814517,N,12132.4519507,E,4,55,0.52,16.708,M,15.25,M,1,3335*4E
$GNRMC,041011.100,A,2500.7814517,N,12132.4519507,E,0.02,317.42,090324,,,R,V*16
$GPHDT,,T*1B
$GNGSA,A,3,195,194,08,21,199,02,07,27,16,09,04,30,0.90,0.52,0.74,1*3E
$GNGSA,A,3,81,78,88,79,77,,,,,,,,0.90,0.52,0.74,2*07
$GNGSA,A,3,13,21,26,27,15,,,,,,,,0.90,0.52,0.74,3*0A
$GNGSA,A,3,23,09,06,16,40,07,39,28,10,25,37,34,0.90,0.52,0.74,4*06
$GNGSA,A,3,43,,,,,,,,,,,,0.90,0.52,0.74,4*0E
$GPGSV,4,1,15,195,65,114,44,194,64,052,32,08,62,356,42,50,60,167,28,1*64
$GPGSV,4,2,15,21,60,155,39,199,60,167,25,02,49,176,34,07,42,316,40,1*51
$GPGSV,4,3,15,27,32,036,28,16,27,076,29,09,23,246,19,196,19,169,,1*5C
$GPGSV,4,4,15,04,17,202,18,30,11,320,39,26,08,100,17,1*58
$GPGSV,2,1,08,195,65,114,43,194,64,052,36,08,62,356,44,199,60,167,35,8*5A
$GPGSV,2,2,08,27,32,036,24,09,23,246,27,04,17,202,14,30,11,320,42,8*6C
$GLGSV,2,1,06,81,65,201,39,78,57,038,33,88,55,031,24,79,26,334,42,1*74
$GLGSV,2,2,06,77,23,111,27,87,02,026,13,1*70
$GAGSV,2,1,08,13,55,080,29,21,55,012,26,26,44,172,25,27,29,080,33,7*7C
$GAGSV,2,2,08,19,27,241,,15,13,038,31,04,12,299,,33,04,199,,7*7E
$GAGSV,2,1,05,13,55,080,36,21,55,012,35,26,44,172,20,27,29,080,35,1*78
$GAGSV,2,2,05,15,13,038,26,1*49
$GBGSV,4,1,13,23,74,032,32,09,73,265,35,06,71,214,39,16,68,199,41,1*79
$GBGSV,4,2,13,40,60,329,43,07,60,308,35,43,58,036,22,39,57,187,45,1*7B
$GBGSV,4,3,13,28,56,222,46,10,51,290,32,25,37,118,43,37,30,322,40,1*79
$GBGSV,4,4,13,34,11,040,32,1*46
$GBGSV,2,1,08,23,74,032,40,40,60,329,44,43,58,036,17,39,57,187,39,4*70
$GBGSV,2,2,08,28,56,222,42,25,37,118,42,37,30,322,41,34,11,040,28,4*73
$GNACCURACY,4.0*12
$PAIRSAT,1,35,2,0,201,3,0,200,4,0,221,5,0,200,6,0,200,7,0,201,8,0,221,9,0,220,10,0,200,11,0,200,12,0,200,13,0,200,14,0,200,15,0,200,16,0,201,17,0,200,18,0,200,19,0,200,20,0,200,21,0,201,22,0,200,23,0,200,24,0,200,25,0,200,26,0,220,27,0,221,28,0,200,29,0,200,30,0,221,31,0,200,32,0,200,194,0,621,195,0,621,196,0,620,199,0,621*5A
$PAIRSAT,2,24,65,0,200,66,0,200,67,0,200,68,0,200,69,0,200,70,0,200,71,0,200,72,0,200,73,0,200,74,0,200,75,0,200,76,0,200,77,0,201,78,0,201,79,0,201,80,0,200,81,0,201,82,0,200,83,0,200,84,0,200,85,0,200,86,0,200,87,0,201,88,0,201*7A
$PAIRSAT,3,23,2,0,1200,3,0,1200,4,0,1200,5,0,200,7,0,1200,8,0,1200,9,0,1200,10,0,1200,11,0,1200,12,0,1200,13,0,1221,15,0,1220,19,0,1201,21,0,1221,24,0,1200,25,0,1200,26,0,1221,27,0,1221,30,0,1200,31,0,1200,33,0,1200,34,0,1000,36,0,1200*6B
$PAIRSAT,4,46,1,0,200,2,0,200,3,0,600,4,0,200,5,0,200,6,0,201,7,0,201,8,0,200,9,0,201,10,0,201,11,0,200,12,0,200,13,0,200,14,0,200,16,0,201,19,0,600,20,0,600,21,0,600,22,0,600,23,0,621,24,0,600,25,0,621,26,0,600,27,0,600,28,0,621,29,0,600,30,0,600,32,0,600,33,0,600,34,0,621,35,0,600,36,0,600,37,0,621,38,0,600,39,0,621,40,0,621,41,0,400,42,0,400,43,0,421,44,0,400,45,0,400,46,0,400,59,0,400,60,0,400,61,0,400,62,0,400*48
$PAIRDGP,10,2,4,7,8,9,16,21,26,27,30*42
$GNGGA,041011.200,2500.7814491,N,12132.4519532,E,4,55,0.52,16.706,M,15.25,M,1,3335*4A
$GNRMC,041011.200,A,2500.7814491,N,12132.4519532,E,0.03,317.42,090324,,,R,V*1D
$GPHDT,,T*1B
$GNACCURACY,4.0*12
$GNGGA,041011.300,2500.7814422,N,12132.4519437,E,4,56,0.52,16.690,M,15.25,M,1,3335*4A
$GNRMC,041011.300,A,2500.7814422,N,12132.4519437,E,0.02,317.42,090324,,,R,V*11
$GPHDT,,T*1B
$GNACCURACY,4.0*12
$GNGGA,041011.400,2500.7814462,N,12132.4519466,E,4,56,0.52,16.705,M,15.25,M,1,3335*40
$GNRMC,041011.400,A,2500.7814462,N,12132.4519466,E,0.02,317.42,090324,,,R,V*16
$GPHDT,,T*1B
$GNACCURACY,4.0*12
$GNGGA,041011.500,2500.7814449,N,12132.4519457,E,4,56,0.52,16.708,M,15.25,M,1,3335*47
$GNRMC,041011.500,A,2500.7814449,N,12132.4519457,E,0.02,317.42,090324,,,R,V*1C
$GPHDT,,T*1B
$GNACCURACY,4.0*12
$GNGGA,041011.600,2500.7814455,N,12132.4519471,E,4,56,0.52,16.715,M,15.25,M,0,3335*40
$GNRMC,041011.600,A,2500.7814455,N,12132.4519471,E,0.01,317.42,090324,,,R,V*15
$GPHDT,,T*1B
$GNACCURACY,4.0*12
$GNGGA,041011.700,2500.7814445,N,12132.4519458,E,4,56,0.52,16.706,M,15.25,M,0,3335*49
$GNRMC,041011.700,A,2500.7814445,N,12132.4519458,E,0.01,317.42,090324,,,R,V*1E
$GPHDT,,T*1B
$GNACCURACY,4.0*12
$GNGGA,041011.800,2500.7814416,N,12132.4519431,E,4,56,0.52,16.706,M,15.25,M,0,3335*4F
$GNRMC,041011.800,A,2500.7814416,N,12132.4519431,E,0.01,317.42,090324,,,R,V*18
$GPHDT,,T*1B
$GNACCURACY,4.0*12
$GNGGA,041011.900,2500.7814437,N,12132.4519447,E,4,56,0.52,16.707,M,15.25,M,0,3335*4D
$GNRMC,041011.900,A,2500.7814437,N,12132.4519447,E,0.01,317.42,090324,,,R,V*1B
$GPHDT,,T*1B
