$FW : RTK35X,V1.1X0314AS,Lib20210517,1*54
$Tool : LOCOSYS , GNSS Firebird , v1.0.0.19*39
$---------------------------------------------------*2D
$GNACCURACY,2.7*13
$GNGGA,041048.600,2500.7814431,N,12132.4519524,E,4,56,0.50,16.726,M,15.25,M,1,3335*4C
$GNRMC,041048.600,A,2500.7814431,N,12132.4519524,E,0.01,317.42,090324,,,R,V*1A
$GPHDT,,T*1B
$GNACCURACY,2.7*13
$GNGGA,041048.700,2500.7814438,N,12132.4519491,E,4,56,0.50,16.743,M,15.25,M,0,3335*49
$GNRMC,041048.700,A,2500.7814438,N,12132.4519491,E,0.01,317.42,090324,,,R,V*1D
$GPHDT,,T*1B
$GNACCURACY,2.7*13
$GNGGA,041048.800,2500.7814450,N,12132.4519523,E,4,56,0.50,16.742,M,15.25,M,0,3335*41
$GNRMC,041048.800,A,2500.7814450,N,12132.4519523,E,0.01,317.42,090324,,,R,V*14
$GPHDT,,T*1B
$GNACCURACY,2.7*13
$GNGGA,041048.900,2500.7814423,N,12132.4519493,E,4,56,0.50,16.741,M,15.25,M,0,3335*4D
$GNRMC,041048.900,A,2500.7814423,N,12132.4519493,E,0.00,317.42,090324,,,R,V*1A
$GPHDT,,T*1B
$GNACCURACY,2.7*13
$GNGGA,041049.000,2500.7814448,N,12132.4519560,E,4,56,0.50,16.745,M,15.25,M,1,3335*40
$GNRMC,041049.000,A,2500.7814448,N,12132.4519560,E,0.01,317.42,090324,,,R,V*13
$GPHDT,,T*1B
$GNACCURACY,2.7*13
$GNGGA,041049.100,2500.7814431,N,12132.4519496,E,4,56,0.50,16.726,M,15.25,M,1,3335*42
$GNRMC,041049.100,A,2500.7814431,N,12132.4519496,E,0.01,317.42,090324,,,R,V*14
$GPHDT,,T*1B
$GNGSA,A,3,195,194,08,21,199,02,07,27,16,09,196,04,0.76,0.50,0.58,1*07
$GNGSA,A,3,30,,,,,,,,,,,,0.76,0.50,0.58,1*0B
$GNGSA,A,3,81,78,88,79,77,,,,,,,,0.76,0.50,0.58,2*03
$GNGSA,A,3,21,13,26,27,15,,,,,,,,0.76,0.50,0.58,3*0E
$GNGSA,A,3,23,09,06,16,07,40,39,28,10,25,37,34,0.76,0.50,0.58,4*02
$GPGSV,4,1,15,195,65,114,37,194,64,052,29,08,62,356,42,21,61,155,40,1*62
$GPGSV,4,2,15,50,60,167,31,199,60,167,28,02,49,176,33,07,42,316,44,1*50
$GPGSV,4,3,15,27,32,036,23,16,27,076,27,09,23,246,21,196,19,169,21,1*51
$GPGSV,4,4,15,04,17,202,20,30,12,320,40,26,08,100,20,1*5A
$GPGSV,3,1,09,195,65,114,35,194,64,052,38,08,62,356,41,199,60,167,32,8*57
$GPGSV,3,2,09,27,32,036,30,09,23,246,18,196,19,169,23,04,17,202,16,8*5A
$GPGSV,3,3,09,30,12,320,42,8*53
$GLGSV,2,1,06,81,66,201,41,78,57,039,26,88,54,031,18,79,27,334,40,1*70
$GLGSV,2,2,06,77,23,111,24,87,02,026,,1*71
$GAGSV,2,1,07,21,55,013,21,13,54,079,17,26,44,172,21,27,28,080,23,7*7B
$GAGSV,2,2,07,19,27,240,,15,13,038,19,33,04,199,,7*4F
$GAGSV,2,1,05,21,55,013,32,13,54,079,27,26,44,172,29,27,28,080,24,1*71
$GAGSV,2,2,05,15,13,038,16,1*4A
$GBGSV,4,1,13,23,74,033,40,09,73,265,40,06,71,214,39,16,68,199,42,1*7C
$GBGSV,4,2,13,07,60,308,38,40,60,329,39,43,58,036,21,39,57,187,44,1*79
$GBGSV,4,3,13,28,56,222,42,10,51,290,40,25,37,118,42,37,30,322,44,1*7D
$GBGSV,4,4,13,34,11,040,29,1*4C
$GBGSV,2,1,07,23,74,033,31,40,60,329,40,39,57,187,37,28,56,222,40,4*74
$GBGSV,2,2,07,25,37,118,40,37,30,322,41,34,11,040,18,4*40
$GNACCURACY,2.7*13
$PAIRSAT,1,35,2,0,201,3,0,200,4,0,221,5,0,200,6,0,200,7,0,201,8,0,221,9,0,220,10,0,200,11,0,200,12,0,200,13,0,200,14,0,200,15,0,200,16,0,201,17,0,200,18,0,200,19,0,200,20,0,200,21,0,201,22,0,200,23,0,200,24,0,200,25,0,200,26,0,220,27,0,221,28,0,200,29,0,200,30,0,221,31,0,200,32,0,200,194,0,621,195,0,621,196,0,620,199,0,621*5A
$PAIRSAT,2,24,65,0,200,66,0,200,67,0,200,68,0,200,69,0,200,70,0,200,71,0,200,72,0,200,73,0,200,74,0,200,75,0,200,76,0,200,77,0,201,78,0,201,79,0,201,80,0,200,81,0,201,82,0,200,83,0,200,84,0,200,85,0,200,86,0,200,87,0,201,88,0,201*7A
$PAIRSAT,3,23,2,0,1200,3,0,1200,4,0,1200,5,0,200,7,0,1200,8,0,1200,9,0,1200,10,0,1200,11,0,1200,12,0,1200,13,0,1221,15,0,1220,19,0,1201,21,0,1221,24,0,1200,25,0,1200,26,0,1221,27,0,1221,30,0,1200,31,0,1200,33,0,1200,34,0,1000,36,0,1200*6B
$PAIRSAT,4,46,1,0,200,2,0,200,3,0,600,4,0,200,5,0,200,6,0,201,7,0,201,8,0,200,9,0,201,10,0,201,11,0,200,12,0,200,13,0,200,14,0,200,16,0,201,19,0,600,20,0,600,21,0,600,22,0,600,23,0,621,24,0,600,25,0,621,26,0,600,27,0,600,28,0,621,29,0,600,30,0,600,32,0,600,33,0,600,34,0,621,35,0,600,36,0,600,37,0,621,38,0,600,39,0,621,40,0,621,41,0,600,42,0,400,43,0,421,44,0,400,45,0,400,46,0,400,59,0,400,60,0,400,61,0,400,62,0,400*4A
$PAIRDGP,10,2,4,7,8,9,16,21,26,27,30*42
$GNGGA,041049.200,2500.7814478,N,12132.4519517,E,4,56,0.50,16.739,M,15.25,M,1,3335*4A
$GNRMC,041049.200,A,2500.7814478,N,12132.4519517,E,0.01,317.42,090324,,,R,V*12
$GPHDT,,T*1B
$GNACCURACY,2.7*13
$GNGGA,041049.300,2500.7814461,N,12132.4519604,E,4,56,0.50,16.749,M,15.25,M,1,3335*45
$GNRMC,041049.300,A,2500.7814461,N,12132.4519604,E,0.01,317.42,090324,,,R,V*1A
$GPHDT,,T*1B
$GNACCURACY,2.7*13
$GNGGA,041049.400,2500.7814421,N,12132.4519534,E,4,56,0.50,16.732,M,15.25,M,1,3335*4A
$GNRMC,041049.400,A,2500.7814421,N,12132.4519534,E,0.01,317.42,090324,,,R,V*19
$GPHDT,,T*1B
$GNACCURACY,2.7*13
$GNGGA,041049.500,2500.7814439,N,12132.4519555,E,4,56,0.50,16.747,M,15.25,M,1,3335*47
$GNRMC,041049.500,A,2500.7814439,N,12132.4519555,E,0.00,317.42,090324,,,R,V*17
$GPHDT,,T*1B
$GNACCURACY,2.7*13
$GNGGA,041049.600,2500.7814506,N,12132.4519591,E,4,56,0.50,16.763,M,15.25,M,0,3335*46
$GNRMC,041049.600,A,2500.7814506,N,12132.4519591,E,0.01,317.42,090324,,,R,V*10
$GPHDT,,T*1B
$GNACCURACY,2.7*13
$GNGGA,041049.700,2500.7814404,N,12132.4519553,E,4,56,0.50,16.741,M,15.25,M,0,3335*4A
$GNRMC,041049.700,A,2500.7814404,N,12132.4519553,E,0.00,317.42,090324,,,R,V*1D
$GPHDT,,T*1B
$GNACCURACY,2.7*13
$GNGGA,041049.800,2500.7814435,N,12132.4519530,E,4,56,0.50,16.725,M,15.25,M,0,3335*40
$GNRMC,041049.800,A,2500.7814435,N,12132.4519530,E,0.01,317.42,090324,,,R,V*14
$GPHDT,,T*1B
$GNACCURACY,2.7*13
$GNGGA,041049.900,2500.7814370,N,12132.4519491,E,4,56,0.50,16.725,M,15.25,M,0,3335*4D
$GNRMC,041049.900,A,2500.7814370,N,12132.4519491,E,0.01,317.42,090324,,,R,V*19
$GPHDT,,T*1B
$GNACCURACY,2.7*13
$GNGGA,041050.000,2500.7814463,N,12132.4519569,E,4,57,0.50,16.742,M,15.25,M,1,3335*4E
$GNRMC,041050.000,A,2500.7814463,N,12132.4519569,E,0.01,317.42,090324,,,R,V*1B
$GPHDT,,T*1B
$GNACCURACY,2.7*13
$GNGGA,041050.100,2500.7814435,N,12132.4519531,E,4,56,0.50,16.739,M,15.25,M,1,3335*4C
$GNRMC,041050.100,A,2500.7814435,N,12132.4519531,E,0.01,317.42,090324,,,R,V*14
$GPHDT,,T*1B
$GNGSA,A,3,195,194,08,21,199,02,07,27,16,09,196,04,0.76,0.50,0.58,1*07
$GNGSA,A,3,30,,,,,,,,,,,,0.76,0.50,0.58,1*0B
$GNGSA,A,3,81,78,88,79,77,,,,,,,,0.76,0.50,0.58,2*03
$GNGSA,A,3,21,13,26,27,15,,,,,,,,0.76,0.50,0.58,3*0E
$GNGSA,A,3,23,09,06,16,07,40,39,28,10,25,37,34,0.76,0.50,0.58,4*02
$GPGSV,4,1,15,195,65,114,41,194,64,052,30,08,62,356,39,21,61,155,40,1*67
$GPGSV,4,2,15,50,60,167,29,199,60,167,28,02,49,176,34,07,42,316,42,1*58
$GPGSV,4,3,15,27,32,036,30,16,27,076,27,09,23,246,21,196,19,169,21,1*53
$GPGSV,4,4,15,04,17,202,20,30,12,320,38,26,08,100,21,1*54
$GPGSV,3,1,09,195,65,114,40,194,64,052,38,08,62,356,43,199,60,167,35,8*50
$GPGSV,3,2,09,27,32,036,29,09,23,246,17,196,19,169,24,04,17,202,16,8*5A
$GPGSV,3,3,09,30,12,320,42,8*53
$GLGSV,2,1,06,81,66,201,40,78,57,039,26,88,54,031,18,79,27,334,39,1*7F
$GLGSV,2,2,06,77,23,111,27,87,02,026,,1*72
$GAGSV,2,1,07,21,55,013,20,13,54,079,27,26,44,172,19,27,28,080,24,7*75
$GAGSV,2,2,07,19,27,240,,15,13,038,20,33,04,199,,7*45
$GAGSV,2,1,05,21,55,013,34,13,54,079,33,26,44,172,29,27,28,080,28,1*7E
$GAGSV,2,2,05,15,13,038,18,1*44
$GBGSV,4,1,13,23,74,033,40,09,73,265,41,06,71,214,39,16,68,199,40,1*7F
$GBGSV,4,2,13,07,60,308,38,40,60,329,38,43,58,036,,39,57,187,44,1*7B
$GBGSV,4,3,13,28,56,222,42,10,51,290,40,25,37,118,43,37,30,322,44,1*7C
$GBGSV,4,4,13,34,11,040,28,1*4D
$GBGSV,2,1,07,23,74,033,34,40,60,329,42,39,57,187,38,28,56,222,40,4*7C
$GBGSV,2,2,07,25,37,118,41,37,30,322,41,34,11,040,15,4*4C
$GNACCURACY,2.7*13
$PAIRSAT,1,35,2,0,201,3,0,200,4,0,221,5,0,200,6,0,200,7,0,201,8,0,221,9,0,220,10,0,200,11,0,200,12,0,200,13,0,200,14,0,200,15,0,200,16,0,201,17,0,200,18,0,200,19,0,200,20,0,200,21,0,201,22,0,200,23,0,200,24,0,200,25,0,200,26,0,220,27,0,221,28,0,200,29,0,200,30,0,221,31,0,200,32,0,200,194,0,621,195,0,621,196,0,620,199,0,621*5A
$PAIRSAT,2,24,65,0,200,66,0,200,67,0,200,68,0,200,69,0,200,70,0,200,71,0,200,72,0,200,73,0,200,74,0,200,75,0,200,76,0,200,77,0,201,78,0,201,79,0,201,80,0,200,81,0,201,82,0,200,83,0,200,84,0,200,85,0,200,86,0,200,87,0,201,88,0,201*7A
$PAIRSAT,3,23,2,0,1200,3,0,1200,4,0,1200,5,0,200,7,0,1200,8,0,1200,9,0,1200,10,0,1200,11,0,1200,12,0,1200,13,0,1221,15,0,1220,19,0,1201,21,0,1221,24,0,1200,25,0,1200,26,0,1221,27,0,1221,30,0,1200,31,0,1200,33,0,1200,34,0,1000,36,0,1200*6B
$PAIRSAT,4,46,1,0,200,2,0,200,3,0,600,4,0,200,5,0,200,6,0,201,7,0,201,8,0,200,9,0,201,10,0,201,11,0,200,12,0,200,13,0,200,14,0,200,16,0,201,19,0,600,20,0,600,21,0,600,22,0,600,23,0,621,24,0,600,25,0,621,26,0,600,27,0,600,28,0,621,29,0,600,30,0,600,32,0,600,33,0,600,34,0,621,35,0,600,36,0,600,37,0,621,38,0,600,39,0,621,40,0,621,41,0,600,42,0,400,43,0,421,44,0,400,45,0,400,46,0,400,59,0,400,60,0,400,61,0,400,62,0,400*4A
$PAIRDGP,10,2,4,7,8,9,16,21,26,27,30*42
$GNGGA,041050.200,2500.7814419,N,12132.4519512,E,4,56,0.50,16.723,M,15.25,M,1,3335*4B
$GNRMC,041050.200,A,2500.7814419,N,12132.4519512,E,0.00,317.42,090324,,,R,V*19
$GPHDT,,T*1B
$GNACCURACY,2.7*13
$GNGGA,041050.300,2500.7814404,N,12132.4519481,E,4,56,0.50,16.729,M,15.25,M,1,3335*47
$GNRMC,041050.300,A,2500.7814404,N,12132.4519481,E,0.01,317.42,090324,,,R,V*1E
$GPHDT,,T*1B
$GNACCURACY,2.7*13
$GNGGA,041050.400,2500.7814451,N,12132.4519498,E,4,56,0.50,16.739,M,15.25,M,1,3335*49
$GNRMC,041050.400,A,2500.7814451,N,12132.4519498,E,0.01,317.42,090324,,,R,V*11
$GPHDT,,T*1B
$GNACCURACY,2.7*13
$GNGGA,041050.500,2500.7814371,N,12132.4519458,E,4,56,0.50,16.714,M,15.25,M,1,3335*4E
$GNRMC,041050.500,A,2500.7814371,N,12132.4519458,E,0.01,317.42,090324,,,R,V*19
$GPHDT,,T*1B
$GNACCURACY,2.7*13
$GNGGA,041050.600,2500.7814431,N,12132.4519511,E,4,56,0.50,16.731,M,15.25,M,1,3335*45
$GNRMC,041050.600,A,2500.7814431,N,12132.4519511,E,0.00,317.42,090324,,,R,V*14
$GPHDT,,T*1B
$GNACCURACY,2.7*13
$GNGGA,041050.700,2500.7814428,N,12132.4519518,E,4,56,0.50,16.724,M,15.25,M,1,3335*41
$GNRMC,041050.700,A,2500.7814428,N,12132.4519518,E,0.01,317.42,090324,,,R,V*15
$GPHDT,,T*1B
$GNACCURACY,2.7*13
$GNGGA,041050.800,2500.7814425,N,12132.4519513,E,4,56,0.50,16.727,M,15.25,M,0,3335*4A
$GNRMC,041050.800,A,2500.7814425,N,12132.4519513,E,0.01,317.42,090324,,,R,V*1C
$GPHDT,,T*1B
$GNACCURACY,2.7*13
$GNGGA,041050.900,2500.7814367,N,12132.4519471,E,4,56,0.50,16.723,M,15.25,M,0,3335*4B
$GNRMC,041050.900,A,2500.7814367,N,12132.4519471,E,0.01,317.42,090324,,,R,V*19
$GPHDT,,T*1B
$GNACCURACY,2.7*13
$GNGGA,041051.000,2500.7814369,N,12132.4519464,E,4,56,0.50,16.717,M,15.25,M,1,3335*4F
$GNRMC,041051.000,A,2500.7814369,N,12132.4519464,E,0.01,317.42,090324,,,R,V*1B
$GPHDT,,T*1B
$GNACCURACY,2.7*13
$GNGGA,041051.100,2500.7814404,N,12132.4519502,E,4,56,0.50,16.719,M,15.25,M,1,3335*4D
$GNRMC,041051.100,A,2500.7814404,N,12132.4519502,E,0.02,317.42,090324,,,R,V*14
$GPHDT,,T*1B
$GNGSA,A,3,195,194,08,21,199,02,07,27,16,09,196,04,0.76,0.50,0.58,1*07
$GNGSA,A,3,30,,,,,,,,,,,,0.76,0.50,0.58,1*0B
$GNGSA,A,3,81,78,88,79,77,,,,,,,,0.76,0.50,0.58,2*03
$GNGSA,A,3,21,13,26,27,15,,,,,,,,0.76,0.50,0.58,3*0E
$GNGSA,A,3,23,09,06,16,07,40,39,28,10,25,37,34,0.76,0.50,0.58,4*02
$GPGSV,4,1,15,195,65,114,41,194,64,052,33,08,62,356,39,21,61,155,40,1*64
$GPGSV,4,2,15,50,60,167,29,199,60,167,27,02,49,176,34,07,42,316,43,1*56
$GPGSV,4,3,15,27,32,036,28,16,27,076,23,09,23,246,20,196,19,169,20,1*5E
$GPGSV,4,4,15,04,17,202,19,30,12,320,39,26,08,100,22,1*5C
$GPGSV,3,1,09,195,65,114,42,194,64,052,38,08,62,356,43,199,60,167,34,8*53
$GPGSV,3,2,09,27,32,036,29,09,23,246,15,196,19,169,26,04,17,202,17,8*5B
$GPGSV,3,3,09,30,12,320,43,8*52
$GLGSV,2,1,06,81,66,201,40,78,57,039,28,88,54,031,15,79,27,334,39,1*7C
$GLGSV,2,2,06,77,23,111,28,87,02,026,,1*7D
$GAGSV,2,1,06,21,55,013,19,13,54,079,30,26,44,172,18,27,28,080,25,7*78
$GAGSV,2,2,06,19,27,240,,15,13,038,18,7*7A
$GAGSV,2,1,05,21,55,013,34,13,54,079,35,26,44,172,29,27,28,080,26,1*76
$GAGSV,2,2,05,15,13,038,24,1*4B
$GBGSV,4,1,13,23,74,033,40,09,73,265,41,06,71,214,39,16,68,199,40,1*7F
$GBGSV,4,2,13,07,60,309,38,40,60,329,37,43,58,036,,39,57,187,44,1*75
$GBGSV,4,3,13,28,56,222,43,10,51,290,40,25,37,118,41,37,30,322,44,1*7F
$GBGSV,4,4,13,34,11,040,27,1*42
$GBGSV,2,1,07,23,74,033,35,40,60,329,42,39,57,187,38,28,56,222,39,4*73
$GBGSV,2,2,07,25,37,118,40,37,30,322,40,34,11,040,18,4*41
$GNACCURACY,2.7*13
$PAIRSAT,1,35,2,0,201,3,0,200,4,0,221,5,0,200,6,0,200,7,0,201,8,0,221,9,0,220,10,0,200,11,0,200,12,0,200,13,0,200,14,0,200,15,0,200,16,0,201,17,0,200,18,0,200,19,0,200,20,0,200,21,0,201,22,0,200,23,0,200,24,0,200,25,0,200,26,0,220,27,0,221,28,0,200,29,0,200,30,0,221,31,0,200,32,0,200,194,0,621,195,0,621,196,0,620,199,0,621*5A
$PAIRSAT,2,24,65,0,200,66,0,200,67,0,200,68,0,200,69,0,200,70,0,200,71,0,200,72,0,200,73,0,200,74,0,200,75,0,200,76,0,200,77,0,201,78,0,201,79,0,201,80,0,200,81,0,201,82,0,200,83,0,200,84,0,200,85,0,200,86,0,200,87,0,201,88,0,201*7A
$PAIRSAT,3,23,2,0,1200,3,0,1200,4,0,1200,5,0,200,7,0,1200,8,0,1200,9,0,1200,10,0,1200,11,0,1200,12,0,1200,13,0,1221,15,0,1220,19,0,1201,21,0,1221,24,0,1200,25,0,1200,26,0,1221,27,0,1221,30,0,1200,31,0,1200,33,0,1200,34,0,1000,36,0,1200*6B
$PAIRSAT,4,46,1,0,200,2,0,200,3,0,600,4,0,200,5,0,200,6,0,201,7,0,201,8,0,200,9,0,201,10,0,201,11,0,200,12,0,200,13,0,200,14,0,200,16,0,201,19,0,600,20,0,600,21,0,600,22,0,600,23,0,621,24,0,600,25,0,621,26,0,600,27,0,600,28,0,621,29,0,600,30,0,600,32,0,600,33,0,600,34,0,621,35,0,600,36,0,600,37,0,621,38,0,600,39,0,621,40,0,621,41,0,600,42,0,400,43,0,421,44,0,400,45,0,400,46,0,400,59,0,400,60,0,400,61,0,400,62,0,400*4A
$PAIRDGP,10,2,4,7,8,9,16,21,26,27,30*42
$GNGGA,041051.200,2500.7814400,N,12132.4519487,E,4,56,0.50,16.722,M,15.25,M,1,3335*4E
$GNRMC,041051.200,A,2500.7814400,N,12132.4519487,E,0.02,317.42,090324,,,R,V*1F
$GPHDT,,T*1B
$GNACCURACY,2.7*13
$GNGGA,041051.300,2500.7814454,N,12132.4519544,E,4,56,0.50,16.736,M,15.25,M,1,3335*45
$GNRMC,041051.300,A,2500.7814454,N,12132.4519544,E,0.02,317.42,090324,,,R,V*11
$GPHDT,,T*1B
$GNACCURACY,2.7*13
$GNGGA,041051.400,2500.7814452,N,12132.4519495,E,4,56,0.50,16.729,M,15.25,M,1,3335*47
$GNRMC,041051.400,A,2500.7814452,N,12132.4519495,E,0.01,317.42,090324,,,R,V*1E
$GPHDT,,T*1B
$GNACCURACY,2.7*13
$GNGGA,041051.500,2500.7814438,N,12132.4519457,E,4,56,0.50,16.736,M,15.25,M,1,3335*4A
$GNRMC,041051.500,A,2500.7814438,N,12132.4519457,E,0.02,317.42,090324,,,R,V*1E
$GPHDT,,T*1B
$GNACCURACY,2.7*13
$GNGGA,041051.600,2500.7814455,N,12132.4519450,E,4,56,0.50,16.749,M,15.25,M,1,3335*4D
$GNRMC,041051.600,A,2500.7814455,N,12132.4519450,E,0.02,317.42,090324,,,R,V*11
$GPHDT,,T*1B
$GNACCURACY,2.7*13
$GNGGA,041051.700,2500.7814417,N,12132.4519401,E,4,56,0.50,16.746,M,15.25,M,1,3335*41
$GNRMC,041051.700,A,2500.7814417,N,12132.4519401,E,0.02,317.42,090324,,,R,V*12
$GPHDT,,T*1B
$GNACCURACY,2.7*13
$GNGGA,041051.800,2500.7814452,N,12132.4519430,E,4,57,0.50,16.738,M,15.25,M,0,3335*44
$GNRMC,041051.800,A,2500.7814452,N,12132.4519430,E,0.03,317.42,090324,,,R,V*1F
$GPHDT,,T*1B
$GNACCURACY,2.7*13
$GNGGA,041051.900,2500.7814397,N,12132.4519398,E,4,57,0.50,16.747,M,15.25,M,0,3335*46
$GNRMC,041051.900,A,2500.7814397,N,12132.4519398,E,0.03,317.42,090324,,,R,V*15
$GPHDT,,T*1B
$GNACCURACY,2.7*13
$GNGGA,041052.000,2500.7814462,N,12132.4519419,E,4,56,0.50,16.750,M,15.25,M,1,3335*49
$GNRMC,041052.000,A,2500.7814462,N,12132.4519419,E,0.03,317.42,090324,,,R,V*1C
$GPHDT,,T*1B
$GNACCURACY,2.7*13
$GNGGA,041052.100,2500.7814440,N,12132.4519405,E,4,56,0.50,16.740,M,15.25,M,1,3335*44
$GNRMC,041052.100,A,2500.7814440,N,12132.4519405,E,0.02,317.42,090324,,,R,V*11
$GPHDT,,T*1B
$GNGSA,A,3,195,194,08,21,199,02,07,27,16,09,196,04,0.76,0.50,0.58,1*07
$GNGSA,A,3,30,,,,,,,,,,,,0.76,0.50,0.58,1*0B
$GNGSA,A,3,81,78,88,79,77,,,,,,,,0.76,0.50,0.58,2*03
$GNGSA,A,3,21,13,26,27,15,,,,,,,,0.76,0.50,0.58,3*0E
$GNGSA,A,3,23,09,06,16,07,40,39,28,10,25,37,34,0.76,0.50,0.58,4*02
$GPGSV,4,1,15,195,65,114,42,194,64,052,35,08,62,356,40,21,61,155,41,1*6E
$GPGSV,4,2,15,50,60,167,30,199,60,167,28,02,49,176,33,07,42,316,42,1*57
$GPGSV,4,3,15,27,32,036,27,16,27,076,26,09,23,246,22,196,19,169,18,1*5D
$GPGSV,4,4,15,04,17,202,18,30,12,320,40,26,08,100,21,1*50
$GPGSV,3,1,09,195,65,114,44,194,64,052,40,08,62,356,43,199,60,167,34,8*5A
$GPGSV,3,2,09,27,32,036,28,09,23,246,15,196,19,169,27,04,17,202,18,8*54
$GPGSV,3,3,09,30,12,320,43,8*52
$GLGSV,2,1,07,81,66,201,40,78,57,039,29,88,54,031,17,79,27,334,39,1*7E
$GLGSV,2,2,07,77,23,111,20,82,16,205,,87,02,026,,1*4E
$GAGSV,2,1,06,21,55,013,17,13,54,079,27,26,44,172,17,27,28,080,30,7*7B
$GAGSV,2,2,06,19,27,240,,15,13,038,16,7*74
$GAGSV,2,1,05,21,55,013,35,13,54,079,36,26,44,172,29,27,28,080,33,1*70
$GAGSV,2,2,05,15,13,038,22,1*4D
$GBGSV,4,1,13,23,74,034,40,09,73,265,41,06,71,214,40,16,68,199,40,1*76
$GBGSV,4,2,13,07,60,309,39,40,60,329,39,43,58,036,24,39,57,187,44,1*7C
$GBGSV,4,3,13,28,56,222,44,10,51,290,40,25,37,118,38,37,30,322,44,1*76
$GBGSV,4,4,13,34,11,040,28,1*4D
$GBGSV,2,1,07,23,74,034,36,40,60,329,42,39,57,187,39,28,56,222,39,4*76
$GBGSV,2,2,07,25,37,118,38,37,30,322,42,34,11,040,24,4*43
$GNACCURACY,2.7*13
$PAIRSAT,1,35,2,0,201,3,0,200,4,0,221,5,0,200,6,0,200,7,0,201,8,0,221,9,0,220,10,0,200,11,0,200,12,0,200,13,0,200,14,0,200,15,0,200,16,0,201,17,0,200,18,0,200,19,0,200,20,0,200,21,0,201,22,0,200,23,0,200,24,0,200,25,0,200,26,0,220,27,0,221,28,0,200,29,0,200,30,0,221,31,0,200,32,0,200,194,0,621,195,0,621,196,0,620,199,0,621*5A
$PAIRSAT,2,24,65,0,200,66,0,200,67,0,200,68,0,200,69,0,200,70,0,200,71,0,200,72,0,200,73,0,200,74,0,200,75,0,200,76,0,200,77,0,201,78,0,201,79,0,201,80,0,200,81,0,201,82,0,200,83,0,200,84,0,200,85,0,200,86,0,200,87,0,201,88,0,201*7A
$PAIRSAT,3,23,2,0,1200,3,0,1200,4,0,1200,5,0,200,7,0,1200,8,0,1200,9,0,1200,10,0,1200,11,0,1200,12,0,1200,13,0,1221,15,0,1220,19,0,1201,21,0,1221,24,0,1200,25,0,1200,26,0,1221,27,0,1221,30,0,1200,31,0,1200,33,0,1200,34,0,1000,36,0,1200*6B
$PAIRSAT,4,46,1,0,200,2,0,200,3,0,600,4,0,200,5,0,200,6,0,201,7,0,201,8,0,200,9,0,201,10,0,201,11,0,200,12,0,200,13,0,200,14,0,200,16,0,201,19,0,600,20,0,600,21,0,600,22,0,600,23,0,621,24,0,600,25,0,621,26,0,600,27,0,600,28,0,621,29,0,600,30,0,600,32,0,600,33,0,600,34,0,621,35,0,600,36,0,600,37,0,621,38,0,600,39,0,621,40,0,621,41,0,600,42,0,400,43,0,421,44,0,400,45,0,400,46,0,400,59,0,400,60,0,400,61,0,400,62,0,400*4A
$PAIRDGP,10,2,4,7,8,9,16,21,26,27,30*42
$GNGGA,041052.200,2500.7814432,N,12132.4519400,E,4,56,0.50,16.735,M,15.25,M,1,3335*45
$GNRMC,041052.200,A,2500.7814432,N,12132.4519400,E,0.02,317.42,090324,,,R,V*12
$GPHDT,,T*1B
$GNACCURACY,2.7*13
$GNGGA,041052.300,2500.7814441,N,12132.4519434,E,4,57,0.50,16.728,M,15.25,M,1,3335*4A
$GNRMC,041052.300,A,2500.7814441,N,12132.4519434,E,0.02,317.42,090324,,,R,V*10
$GPHDT,,T*1B
$GNACCURACY,2.7*13
$GNGGA,041052.400,2500.7814555,N,12132.4519505,E,4,56,0.50,16.756,M,15.25,M,0,3335*43
$GNRMC,041052.400,A,2500.7814555,N,12132.4519505,E,0.02,317.42,090324,,,R,V*10
$GPHDT,,T*1B
$GNACCURACY,2.7*13
$GNGGA,041052.500,2500.7814501,N,12132.4519451,E,4,56,0.50,16.759,M,15.25,M,0,3335*4C
$GNRMC,041052.500,A,2500.7814501,N,12132.4519451,E,0.01,317.42,090324,,,R,V*13
$GPHDT,,T*1B
$GNACCURACY,2.7*13
$GNGGA,041052.600,2500.7814474,N,12132.4519471,E,4,56,0.50,16.746,M,15.25,M,0,3335*40
$GNRMC,041052.600,A,2500.7814474,N,12132.4519471,E,0.01,317.42,090324,,,R,V*11
$GPHDT,,T*1B
$GNACCURACY,2.7*13
$GNGGA,041052.700,2500.7814465,N,12132.4519462,E,4,56,0.50,16.750,M,15.25,M,0,3335*44
$GNRMC,041052.700,A,2500.7814465,N,12132.4519462,E,0.00,317.42,090324,,,R,V*13
$GPHDT,,T*1B
$GNACCURACY,2.7*13
$GNGGA,041052.800,2500.7814421,N,12132.4519422,E,4,56,0.50,16.739,M,15.25,M,0,3335*40
$GNRMC,041052.800,A,2500.7814421,N,12132.4519422,E,0.00,317.42,090324,,,R,V*18
$GPHDT,,T*1B
$GNACCURACY,2.7*13
$GNGGA,041052.900,2500.7814433,N,12132.4519468,E,4,56,0.50,16.740,M,15.25,M,0,3335*42
$GNRMC,041052.900,A,2500.7814433,N,12132.4519468,E,0.00,317.42,090324,,,R,V*14
$GPHDT,,T*1B
$GNACCURACY,2.7*13
$GNGGA,041053.000,2500.7814406,N,12132.4519390,E,4,57,0.50,16.741,M,15.25,M,1,3335*4D
$GNRMC,041053.000,A,2500.7814406,N,12132.4519390,E,0.01,317.42,090324,,,R,V*1B
$GPHDT,,T*1B
$GNACCURACY,2.7*13
$GNGGA,041053.100,2500.7814473,N,12132.4519455,E,4,57,0.50,16.758,M,15.25,M,1,3335*48
$GNRMC,041053.100,A,2500.7814473,N,12132.4519455,E,0.01,317.42,090324,,,R,V*16
$GPHDT,,T*1B
$GNGSA,A,3,195,194,08,21,199,02,07,27,16,09,196,04,0.76,0.50,0.57,1*08
$GNGSA,A,3,30,,,,,,,,,,,,0.76,0.50,0.57,1*04
$GNGSA,A,3,81,78,88,79,77,,,,,,,,0.76,0.50,0.57,2*0C
$GNGSA,A,3,21,13,26,27,15,,,,,,,,0.76,0.50,0.57,3*01
$GNGSA,A,3,23,09,06,16,07,40,43,39,28,10,25,37,0.76,0.50,0.57,4*0D
$GNGSA,A,3,34,,,,,,,,,,,,0.76,0.50,0.57,4*05
$GPGSV,4,1,15,195,65,114,43,194,64,052,35,08,62,356,41,21,61,155,41,1*6E
$GPGSV,4,2,15,50,60,167,30,199,60,167,27,02,49,176,35,07,42,316,43,1*5F
$GPGSV,4,3,15,27,32,036,26,16,27,076,29,09,23,246,23,196,19,169,18,1*52
$GPGSV,4,4,15,04,17,202,17,30,12,320,40,26,08,100,22,1*5C
$GPGSV,3,1,09,195,65,114,44,194,64,052,40,08,62,356,44,199,60,167,34,8*5D
$GPGSV,3,2,09,27,32,036,26,09,23,246,15,196,19,169,25,04,17,202,16,8*56
$GPGSV,3,3,09,30,12,320,42,8*53
$GLGSV,2,1,06,81,66,201,40,78,57,039,31,88,54,031,18,79,27,334,39,1*79
$GLGSV,2,2,06,77,23,111,19,87,02,026,,1*7F
$GAGSV,2,1,07,21,55,013,16,13,54,079,31,26,44,172,17,27,28,080,32,7*7E
$GAGSV,2,2,07,19,27,240,,15,13,038,17,04,12,299,,7*41
$GAGSV,2,1,05,21,55,013,35,13,54,079,36,26,44,172,29,27,28,080,33,1*70
$GAGSV,2,2,05,15,13,038,18,1*44
$GBGSV,4,1,13,23,74,034,40,09,73,265,41,06,71,214,40,16,68,199,40,1*76
$GBGSV,4,2,13,07,60,309,39,40,60,329,40,43,58,036,27,39,57,187,44,1*71
$GBGSV,4,3,13,28,56,222,44,10,51,290,38,25,37,118,38,37,30,322,44,1*79
$GBGSV,4,4,13,34,11,040,28,1*4D
$GBGSV,2,1,07,23,74,034,34,40,60,329,42,39,57,187,38,28,56,222,39,4*75
$GBGSV,2,2,07,25,37,118,39,37,30,322,42,34,11,040,19,4*4C
$GNACCURACY,2.7*13
$PAIRSAT,1,35,2,0,201,3,0,200,4,0,221,5,0,200,6,0,200,7,0,201,8,0,221,9,0,220,10,0,200,11,0,200,12,0,200,13,0,200,14,0,200,15,0,200,16,0,201,17,0,200,18,0,200,19,0,200,20,0,200,21,0,201,22,0,200,23,0,200,24,0,200,25,0,200,26,0,220,27,0,221,28,0,200,29,0,200,30,0,221,31,0,200,32,0,200,194,0,621,195,0,621,196,0,620,199,0,621*5A
$PAIRSAT,2,24,65,0,200,66,0,200,67,0,200,68,0,200,69,0,200,70,0,200,71,0,200,72,0,200,73,0,200,74,0,200,75,0,200,76,0,200,77,0,201,78,0,201,79,0,201,80,0,200,81,0,201,82,0,200,83,0,200,84,0,200,85,0,200,86,0,200,87,0,201,88,0,201*7A
$PAIRSAT,3,23,2,0,1200,3,0,1200,4,0,1200,5,0,200,7,0,1200,8,0,1200,9,0,1200,10,0,1200,11,0,1200,12,0,1200,13,0,1221,15,0,1220,19,0,1201,21,0,1221,24,0,1200,25,0,1200,26,0,1221,27,0,1221,30,0,1200,31,0,1200,33,0,1200,34,0,1000,36,0,1200*6B
$PAIRSAT,4,46,1,0,200,2,0,200,3,0,600,4,0,200,5,0,200,6,0,201,7,0,201,8,0,200,9,0,201,10,0,201,11,0,200,12,0,200,13,0,200,14,0,200,16,0,201,19,0,600,20,0,600,21,0,600,22,0,600,23,0,621,24,0,600,25,0,621,26,0,600,27,0,600,28,0,621,29,0,600,30,0,600,32,0,600,33,0,600,34,0,621,35,0,600,36,0,600,37,0,621,38,0,600,39,0,621,40,0,621,41,0,600,42,0,400,43,0,421,44,0,400,45,0,400,46,0,400,59,0,400,60,0,400,61,0,400,62,0,400*4A
$PAIRDGP,10,2,4,7,8,9,16,21,26,27,30*42
$GNGGA,041053.200,2500.7814438,N,12132.4519385,E,4,57,0.50,16.751,M,15.25,M,1,3335*47
$GNRMC,041053.200,A,2500.7814438,N,12132.4519385,E,0.00,317.42,090324,,,R,V*11
$GPHDT,,T*1B
$GNACCURACY,2.7*13
$GNGGA,041053.300,2500.7814412,N,12132.4519400,E,4,57,0.50,16.748,M,15.25,M,1,3335*4C
$GNRMC,041053.300,A,2500.7814412,N,12132.4519400,E,0.01,317.42,090324,,,R,V*13
$GPHDT,,T*1B
$GNACCURACY,2.7*13
$GNGGA,041053.400,2500.7814487,N,12132.4519470,E,4,57,0.50,16.761,M,15.25,M,1,3335*4B
$GNRMC,041053.400,A,2500.7814487,N,12132.4519470,E,0.01,317.42,090324,,,R,V*1F
$GPHDT,,T*1B
$GNACCURACY,2.7*13
$GNGGA,041053.500,2500.7814433,N,12132.4519376,E,4,56,0.50,16.751,M,15.25,M,1,3335*46
$GNRMC,041053.500,A,2500.7814433,N,12132.4519376,E,0.01,317.42,090324,,,R,V*10
$GPHDT,,T*1B
$GNACCURACY,2.7*13
$GNGGA,041053.600,2500.7814419,N,12132.4519386,E,4,56,0.50,16.745,M,15.25,M,1,3335*47
$GNRMC,041053.600,A,2500.7814419,N,12132.4519386,E,0.01,317.42,090324,,,R,V*14
$GPHDT,,T*1B
$GNACCURACY,2.7*13
$GNGGA,041053.700,2500.7814405,N,12132.4519361,E,4,56,0.50,16.747,M,15.25,M,0,3335*41
$GNRMC,041053.700,A,2500.7814405,N,12132.4519361,E,0.01,317.42,090324,,,R,V*11
$GPHDT,,T*1B
$GNACCURACY,2.7*13
$GNGGA,041053.800,2500.7814409,N,12132.4519346,E,4,56,0.50,16.750,M,15.25,M,0,3335*41
$GNRMC,041053.800,A,2500.7814409,N,12132.4519346,E,0.01,317.42,090324,,,R,V*17
$GPHDT,,T*1B
$GNACCURACY,2.7*13
$GNGGA,041053.900,2500.7814413,N,12132.4519357,E,4,56,0.50,16.755,M,15.25,M,0,3335*4E
$GNRMC,041053.900,A,2500.7814413,N,12132.4519357,E,0.01,317.42,090324,,,R,V*1D
$GPHDT,,T*1B
$GNACCURACY,2.7*13
$GNGGA,041054.000,2500.7814434,N,12132.4519402,E,4,56,0.50,16.749,M,15.25,M,1,3335*4E
$GNRMC,041054.000,A,2500.7814434,N,12132.4519402,E,0.01,317.42,090324,,,R,V*11
$GPHDT,,T*1B
$GNACCURACY,2.7*13
$GNGGA,041054.100,2500.7814412,N,12132.4519356,E,4,56,0.50,16.750,M,15.25,M,1,3335*45
$GNRMC,041054.100,A,2500.7814412,N,12132.4519356,E,0.02,317.42,090324,,,R,V*11
$GPHDT,,T*1B
