$FW : RTK35X,V1.1X0314AS,Lib20210517,1*54
$Tool : LOCOSYS , GNSS Firebird , v1.0.0.19*39
$---------------------------------------------------*2D
,07,27,16,09,196,04,0.76,0.50,0.57,1*08
$GNGSA,A,3,30,,,,,,,,,,,,0.76,0.50,0.57,1*04
$GNGSA,A,3,81,78,88,79,77,,,,,,,,0.76,0.50,0.57,2*0C
$GNGSA,A,3,21,13,26,27,15,,,,,,,,0.76,0.50,0.57,3*01
$GNGSA,A,3,23,09,06,16,07,40,43,39,28,10,25,37,0.76,0.50,0.57,4*0D
$GNGSA,A,3,34,,,,,,,,,,,,0.76,0.50,0.57,4*05
$GPGSV,4,1,15,195,65,114,43,194,64,052,33,08,62,357,44,21,61,154,40,1*6C
$GPGSV,4,2,15,199,60,167,32,50,60,167,34,02,49,176,37,07,42,316,43,1*5D
$GPGSV,4,3,15,27,32,036,28,16,27,076,30,09,23,245,23,196,19,169,14,1*5B
$GPGSV,4,4,15,04,17,202,19,30,12,320,41,26,07,100,20,1*5E
$GPGSV,2,1,08,195,65,114,45,194,64,052,35,08,62,357,41,199,60,167,37,8*59
$GPGSV,2,2,08,27,32,036,31,09,23,245,28,196,19,169,29,30,12,320,36,8*50
$GLGSV,2,1,07,81,66,202,39,78,57,040,21,88,54,031,16,79,27,334,39,1*74
$GLGSV,2,2,07,77,23,111,18,82,16,205,16,87,02,026,,1*42
$GAGSV,2,1,06,21,55,013,22,13,54,079,34,26,45,172,30,27,28,080,36,7*7D
$GAGSV,2,2,06,19,27,240,,15,13,038,19,7*7B
$GAGSV,2,1,05,21,55,013,33,13,54,079,38,26,45,172,27,27,28,080,33,1*77
$GAGSV,2,2,05,15,13,038,26,1*49
$GBGSV,4,1,13,23,74,034,41,09,73,264,42,06,71,214,39,16,67,199,41,1*75
$GBGSV,4,2,13,07,60,309,37,40,60,329,42,43,57,036,35,39,57,187,41,1*74
$GBGSV,4,3,13,28,57,222,45,10,51,290,32,25,37,118,41,37,31,322,39,1*76
$GBGSV,4,4,13,34,11,040,32,1*46
$GBGSV,2,1,08,23,74,034,36,40,60,329,43,39,57,187,38,43,57,036,17,4*7E
$GBGSV,2,2,08,28,57,222,42,25,37,118,39,37,31,322,37,34,11,040,30,4*77
$GNACCURACY,3.7*12
$PAIRSAT,1,35,2,0,201,3,0,200,4,0,221,5,0,200,6,0,200,7,0,201,8,0,221,9,0,220,10,0,200,11,0,200,12,0,200,13,0,200,14,0,200,15,0,200,16,0,201,17,0,200,18,0,200,19,0,200,20,0,200,21,0,201,22,0,200,23,0,200,24,0,200,25,0,200,26,0,220,27,0,221,28,0,200,29,0,200,30,0,221,31,0,200,32,0,200,194,0,621,195,0,621,196,0,620,199,0,621*5A
$PAIRSAT,2,24,65,0,200,66,0,200,67,0,200,68,0,200,69,0,200,70,0,200,71,0,200,72,0,200,73,0,200,74,0,200,75,0,200,76,0,200,77,0,201,78,0,201,79,0,201,80,0,200,81,0,201,82,0,200,83,0,200,84,0,200,85,0,200,86,0,200,87,0,201,88,0,201*7A
$PAIRSAT,3,23,2,0,1200,3,0,1200,4,0,1200,5,0,200,7,0,1200,8,0,1200,9,0,1200,10,0,1200,11,0,1200,12,0,1200,13,0,1221,15,0,1220,19,0,1201,21,0,1221,24,0,1200,25,0,1200,26,0,1221,27,0,1221,30,0,1200,31,0,1200,33,0,1200,34,0,1000,36,0,1200*6B
$PAIRSAT,4,46,1,0,200,2,0,200,3,0,600,4,0,200,5,0,200,6,0,201,7,0,201,8,0,200,9,0,201,10,0,201,11,0,200,12,0,200,13,0,200,14,0,200,16,0,201,19,0,600,20,0,600,21,0,600,22,0,600,23,0,621,24,0,600,25,0,621,26,0,600,27,0,600,28,0,621,29,0,600,30,0,600,32,0,600,33,0,600,34,0,621,35,0,600,36,0,600,37,0,621,38,0,600,39,0,621,40,0,621,41,0,600,42,0,600,43,0,621,44,0,400,45,0,400,46,0,400,59,0,400,60,0,400,61,0,400,62,0,400*4A
$PAIRDGP,10,2,4,7,8,9,16,21,26,27,30*42
$GNGGA,041131.200,2500.7814480,N,12132.4519353,E,4,57,0.50,16.761,M,15.25,M,1,3335*49
$GNRMC,041131.200,A,2500.7814480,N,12132.4519353,E,0.03,235.97,090324,,,R,V*16
$GPHDT,,T*1B
$GNACCURACY,3.7*12
$GNGGA,041131.300,2500.7814485,N,12132.4519339,E,4,57,0.50,16.763,M,15.25,M,1,3335*43
$GNRMC,041131.300,A,2500.7814485,N,12132.4519339,E,0.03,235.97,090324,,,R,V*1E
$GPHDT,,T*1B
$GNACCURACY,3.7*12
$GNGGA,041131.400,2500.7814460,N,12132.4519307,E,4,57,0.50,16.770,M,15.25,M,1,3335*40
$GNRMC,041131.400,A,2500.7814460,N,12132.4519307,E,0.03,235.97,090324,,,R,V*1F
$GPHDT,,T*1B
$GNACCURACY,3.7*12
$GNGGA,041131.500,2500.7814483,N,12132.4519359,E,4,57,0.50,16.761,M,15.25,M,0,3335*46
$GNRMC,041131.500,A,2500.7814483,N,12132.4519359,E,0.03,235.97,090324,,,R,V*18
$GPHDT,,T*1B
$GNACCURACY,3.7*12
$GNGGA,041131.600,2500.7814428,N,12132.4519323,E,4,57,0.50,16.755,M,15.25,M,0,3335*4E
$GNRMC,041131.600,A,2500.7814428,N,12132.4519323,E,0.02,235.97,090324,,,R,V*16
$GPHDT,,T*1B
$GNACCURACY,3.7*12
$GNGGA,041131.700,2500.7814459,N,12132.4519337,E,4,57,0.50,16.765,M,15.25,M,0,3335*4F
$GNRMC,041131.700,A,2500.7814459,N,12132.4519337,E,0.02,235.97,090324,,,R,V*14
$GPHDT,,T*1B
$GNACCURACY,3.7*12
$GNGGA,041131.800,2500.7814478,N,12132.4519381,E,4,57,0.50,16.752,M,15.25,M,0,3335*4A
$GNRMC,041131.800,A,2500.7814478,N,12132.4519381,E,0.02,235.97,090324,,,R,V*15
$GPHDT,,T*1B
$GNACCURACY,3.7*12
$GNGGA,041131.900,2500.7814462,N,12132.4519317,E,4,58,0.50,16.769,M,15.25,M,0,3335*48
$GNRMC,041131.900,A,2500.7814462,N,12132.4519317,E,0.02,235.97,090324,,,R,V*10
$GPHDT,,T*1B
$GNACCURACY,3.7*12
$GNGGA,041132.000,2500.7814454,N,12132.4519311,E,4,58,0.50,16.763,M,15.25,M,1,3335*4A
$GNRMC,041132.000,A,2500.7814454,N,12132.4519311,E,0.02,235.97,090324,,,R,V*19
$GPHDT,,T*1B
$GNACCURACY,3.7*12
$GNGGA,041132.100,2500.7814468,N,12132.4519311,E,4,58,0.50,16.774,M,15.25,M,1,3335*42
$GNRMC,041132.100,A,2500.7814468,N,12132.4519311,E,0.02,235.97,090324,,,R,V*17
$GPHDT,,T*1B
$GNGSA,A,3,195,194,08,21,199,02,07,27,16,09,196,04,0.76,0.50,0.57,1*08
$GNGSA,A,3,30,,,,,,,,,,,,0.76,0.50,0.57,1*04
$GNGSA,A,3,81,78,88,79,77,,,,,,,,0.76,0.50,0.57,2*0C
$GNGSA,A,3,21,13,26,27,15,,,,,,,,0.76,0.50,0.57,3*01
$GNGSA,A,3,23,09,06,16,07,40,43,39,28,10,25,37,0.76,0.50,0.57,4*0D
$GNGSA,A,3,34,,,,,,,,,,,,0.76,0.50,0.57,4*05
$GPGSV,4,1,15,195,65,113,43,194,64,052,32,08,62,357,44,21,61,154,40,1*6A
$GPGSV,4,2,15,199,60,167,31,50,60,167,34,02,49,176,37,07,42,316,43,1*5E
$GPGSV,4,3,15,27,32,036,27,16,27,076,29,09,23,245,23,196,19,169,14,1*5C
$GPGSV,4,4,15,04,17,202,19,30,12,320,40,26,07,100,19,1*55
$GPGSV,3,1,09,195,65,113,45,194,64,052,36,08,62,357,40,199,60,167,37,8*5C
$GPGSV,3,2,09,27,32,036,31,09,23,245,29,196,19,169,29,04,17,202,16,8*50
$GPGSV,3,3,09,30,12,320,35,8*53
$GLGSV,2,1,07,81,66,202,39,78,57,040,17,88,54,031,16,79,27,334,39,1*71
$GLGSV,2,2,07,77,23,111,20,82,16,205,18,87,02,026,,1*47
$GAGSV,2,1,06,21,55,013,24,13,54,079,34,26,45,172,30,27,28,080,37,7*7A
$GAGSV,2,2,06,19,27,240,,15,13,038,19,7*7B
$GAGSV,2,1,05,21,55,013,34,13,54,079,38,26,45,172,27,27,28,080,33,1*70
$GAGSV,2,2,05,15,13,038,28,1*47
$GBGSV,4,1,13,23,74,034,40,09,73,264,42,06,71,214,39,16,67,199,41,1*74
$GBGSV,4,2,13,07,60,309,37,40,60,329,42,43,57,036,34,39,57,187,41,1*75
$GBGSV,4,3,13,28,57,222,45,10,51,290,34,25,37,118,40,37,31,322,38,1*70
$GBGSV,4,4,13,34,11,040,32,1*46
$GBGSV,2,1,08,23,74,034,36,40,60,329,43,39,57,187,38,43,57,036,20,4*7A
$GBGSV,2,2,08,28,57,222,42,25,37,118,39,37,31,322,38,34,11,040,30,4*78
$GNACCURACY,3.7*12
$PAIRSAT,1,35,2,0,201,3,0,200,4,0,221,5,0,200,6,0,200,7,0,201,8,0,221,9,0,220,10,0,200,11,0,200,12,0,200,13,0,200,14,0,200,15,0,200,16,0,201,17,0,200,18,0,200,19,0,200,20,0,200,21,0,201,22,0,200,23,0,200,24,0,200,25,0,200,26,0,220,27,0,221,28,0,200,29,0,200,30,0,221,31,0,200,32,0,200,194,0,621,195,0,621,196,0,620,199,0,621*5A
$PAIRSAT,2,24,65,0,200,66,0,200,67,0,200,68,0,200,69,0,200,70,0,200,71,0,200,72,0,200,73,0,200,74,0,200,75,0,200,76,0,200,77,0,201,78,0,201,79,0,201,80,0,200,81,0,201,82,0,200,83,0,200,84,0,200,85,0,200,86,0,200,87,0,201,88,0,201*7A
$PAIRSAT,3,23,2,0,1200,3,0,1200,4,0,1200,5,0,200,7,0,1200,8,0,1200,9,0,1200,10,0,1200,11,0,1200,12,0,1200,13,0,1221,15,0,1220,19,0,1201,21,0,1221,24,0,1200,25,0,1200,26,0,1221,27,0,1221,30,0,1200,31,0,1200,33,0,1200,34,0,1000,36,0,1200*6B
$PAIRSAT,4,46,1,0,200,2,0,200,3,0,600,4,0,200,5,0,200,6,0,201,7,0,201,8,0,200,9,0,201,10,0,201,11,0,200,12,0,200,13,0,200,14,0,200,16,0,201,19,0,600,20,0,600,21,0,600,22,0,600,23,0,621,24,0,600,25,0,621,26,0,600,27,0,600,28,0,621,29,0,600,30,0,600,32,0,600,33,0,600,34,0,621,35,0,600,36,0,600,37,0,621,38,0,600,39,0,621,40,0,621,41,0,600,42,0,600,43,0,621,44,0,400,45,0,400,46,0,400,59,0,400,60,0,400,61,0,400,62,0,400*4A
$PAIRDGP,10,2,4,7,8,9,16,21,26,27,30*42
$GNGGA,041132.200,2500.7814443,N,12132.4519285,E,4,58,0.50,16.767,M,15.25,M,1,3335*46
$GNRMC,041132.200,A,2500.7814443,N,12132.4519285,E,0.02,235.97,090324,,,R,V*11
$GPHDT,,T*1B
$GNACCURACY,3.7*12
$GNGGA,041132.300,2500.7814457,N,12132.4519305,E,4,58,0.50,16.776,M,15.25,M,1,3335*4B
$GNRMC,041132.300,A,2500.7814457,N,12132.4519305,E,0.02,235.97,090324,,,R,V*1C
$GPHDT,,T*1B
$GNACCURACY,3.7*12
$GNGGA,041132.400,2500.7814454,N,12132.4519338,E,4,57,0.50,16.763,M,15.25,M,1,3335*4A
$GNRMC,041132.400,A,2500.7814454,N,12132.4519338,E,0.02,235.97,090324,,,R,V*16
$GPHDT,,T*1B
$GNACCURACY,3.8*1D
$GNGGA,041132.500,2500.7814484,N,12132.4519317,E,4,57,0.50,16.772,M,15.25,M,1,3335*4B
$GNRMC,041132.500,A,2500.7814484,N,12132.4519317,E,0.02,235.97,090324,,,R,V*17
$GPHDT,,T*1B
$GNACCURACY,3.8*1D
$GNGGA,041132.600,2500.7814471,N,12132.4519389,E,4,57,0.50,16.741,M,15.25,M,1,3335*45
$GNRMC,041132.600,A,2500.7814471,N,12132.4519389,E,0.02,235.97,090324,,,R,V*19
$GPHDT,,T*1B
$GNACCURACY,3.8*1D
$GNGGA,041132.700,2500.7814486,N,12132.4519330,E,4,57,0.50,16.768,M,15.25,M,0,3335*44
$GNRMC,041132.700,A,2500.7814486,N,12132.4519330,E,0.02,235.97,090324,,,R,V*12
$GPHDT,,T*1B
$GNACCURACY,3.8*1D
$GNGGA,041132.800,2500.7814461,N,12132.4519370,E,4,57,0.50,16.766,M,15.25,M,0,3335*48
$GNRMC,041132.800,A,2500.7814461,N,12132.4519370,E,0.02,235.97,090324,,,R,V*10
$GPHDT,,T*1B
$GNACCURACY,3.8*1D
$GNGGA,041132.900,2500.7814510,N,12132.4519453,E,4,56,0.50,16.758,M,15.25,M,0,3335*44
$GNRMC,041132.900,A,2500.7814510,N,12132.4519453,E,0.02,235.97,090324,,,R,V*10
$GPHDT,,T*1B
$GNACCURACY,3.8*1D
$GNGGA,041133.000,2500.7814471,N,12132.4519360,E,4,57,0.50,16.769,M,15.25,M,1,3335*4F
$GNRMC,041133.000,A,2500.7814471,N,12132.4519360,E,0.01,235.97,090324,,,R,V*1A
$GPHDT,,T*1B
$GNACCURACY,3.8*1D
$GNGGA,041133.100,2500.7814522,N,12132.4519273,E,4,57,0.50,16.823,M,15.25,M,1,3335*4B
$GNRMC,041133.100,A,2500.7814522,N,12132.4519273,E,0.02,235.97,090324,,,R,V*1C
$GPHDT,,T*1B
$GNGSA,A,3,195,194,08,21,199,02,07,27,16,09,04,30,0.76,0.50,0.57,1*35
$GNGSA,A,3,196,,,,,,,,,,,,0.76,0.50,0.57,1*39
$GNGSA,A,3,81,78,88,79,77,,,,,,,,0.76,0.50,0.57,2*0C
$GNGSA,A,3,21,13,26,27,15,,,,,,,,0.76,0.50,0.57,3*01
$GNGSA,A,3,23,09,06,16,07,40,43,39,28,10,25,37,0.76,0.50,0.57,4*0D
$GNGSA,A,3,34,,,,,,,,,,,,0.76,0.50,0.57,4*05
$GPGSV,4,1,15,195,65,113,42,194,64,052,33,08,62,357,43,21,61,154,40,1*6D
$GPGSV,4,2,15,199,60,167,31,50,60,167,34,02,49,176,37,07,42,316,43,1*5E
$GPGSV,4,3,15,27,32,036,25,16,27,076,25,09,23,245,24,196,19,169,14,1*55
$GPGSV,4,4,15,04,17,202,19,30,12,320,40,26,07,100,19,1*55
$GPGSV,2,1,08,195,65,113,45,194,64,052,36,08,62,357,40,199,60,167,37,8*5C
$GPGSV,2,2,08,27,32,036,29,09,23,245,30,196,19,169,28,30,12,320,34,8*53
$GLGSV,2,1,07,81,66,202,39,78,57,040,16,88,54,031,18,79,27,334,39,1*7E
$GLGSV,2,2,07,77,23,111,21,82,16,205,19,87,02,026,,1*47
$GAGSV,2,1,06,21,55,013,23,13,54,079,34,26,45,172,30,27,28,080,36,7*7C
$GAGSV,2,2,06,19,27,240,,15,13,038,23,7*72
$GAGSV,2,1,05,21,55,013,35,13,54,079,39,26,45,172,27,27,28,080,33,1*70
$GAGSV,2,2,05,15,13,038,27,1*48
$GBGSV,4,1,13,23,74,034,40,09,73,264,42,06,71,214,39,16,67,199,41,1*74
$GBGSV,4,2,13,07,60,309,37,40,60,329,42,43,57,036,33,39,57,187,41,1*72
$GBGSV,4,3,13,28,57,222,45,10,51,290,34,25,37,118,40,37,31,322,37,1*7F
$GBGSV,4,4,13,34,11,040,35,1*41
$GBGSV,2,1,08,23,74,034,37,40,60,329,43,39,57,187,39,43,57,036,24,4*7E
$GBGSV,2,2,08,28,57,222,42,25,37,118,39,37,31,322,38,34,11,040,30,4*78
$GNACCURACY,3.8*1D
$PAIRSAT,1,35,2,0,201,3,0,200,4,0,221,5,0,200,6,0,200,7,0,201,8,0,221,9,0,220,10,0,200,11,0,200,12,0,200,13,0,200,14,0,200,15,0,200,16,0,201,17,0,200,18,0,200,19,0,200,20,0,200,21,0,201,22,0,200,23,0,200,24,0,200,25,0,200,26,0,220,27,0,221,28,0,200,29,0,200,30,0,221,31,0,200,32,0,200,194,0,621,195,0,621,196,0,620,199,0,621*5A
$PAIRSAT,2,24,65,0,200,66,0,200,67,0,200,68,0,200,69,0,200,70,0,200,71,0,200,72,0,200,73,0,200,74,0,200,75,0,200,76,0,200,77,0,201,78,0,201,79,0,201,80,0,200,81,0,201,82,0,200,83,0,200,84,0,200,85,0,200,86,0,200,87,0,201,88,0,201*7A
$PAIRSAT,3,23,2,0,1200,3,0,1200,4,0,1200,5,0,200,7,0,1200,8,0,1200,9,0,1200,10,0,1200,11,0,1200,12,0,1200,13,0,1221,15,0,1220,19,0,1201,21,0,1221,24,0,1200,25,0,1200,26,0,1221,27,0,1221,30,0,1200,31,0,1200,33,0,1200,34,0,1000,36,0,1200*6B
$PAIRSAT,4,46,1,0,200,2,0,200,3,0,600,4,0,200,5,0,200,6,0,201,7,0,201,8,0,200,9,0,201,10,0,201,11,0,200,12,0,200,13,0,200,14,0,200,16,0,201,19,0,600,20,0,600,21,0,600,22,0,600,23,0,621,24,0,600,25,0,621,26,0,600,27,0,600,28,0,621,29,0,600,30,0,600,32,0,600,33,0,600,34,0,621,35,0,600,36,0,600,37,0,621,38,0,600,39,0,621,40,0,621,41,0,600,42,0,600,43,0,621,44,0,400,45,0,400,46,0,400,59,0,400,60,0,400,61,0,400,62,0,400*4A
$PAIRDGP,10,2,4,7,8,9,16,21,26,27,30*42
$GNGGA,041133.200,2500.7814477,N,12132.4519243,E,4,56,0.50,16.816,M,15.25,M,1,3335*4D
$GNRMC,041133.200,A,2500.7814477,N,12132.4519243,E,0.02,235.97,090324,,,R,V*1D
$GPHDT,,T*1B
$GNACCURACY,3.8*1D
$GNGGA,041133.300,2500.7814503,N,12132.4519264,E,4,56,0.50,16.828,M,15.25,M,1,3335*46
$GNRMC,041133.300,A,2500.7814503,N,12132.4519264,E,0.02,235.97,090324,,,R,V*1B
$GPHDT,,T*1B
$GNACCURACY,3.8*1D
$GNGGA,041133.400,2500.7814502,N,12132.4519250,E,4,56,0.50,16.835,M,15.25,M,1,3335*4B
$GNRMC,041133.400,A,2500.7814502,N,12132.4519250,E,0.02,235.97,090324,,,R,V*1A
$GPHDT,,T*1B
$GNACCURACY,3.8*1D
$GNGGA,041133.500,2500.7814441,N,12132.4519207,E,4,56,0.50,16.814,M,15.25,M,1,3335*4D
$GNRMC,041133.500,A,2500.7814441,N,12132.4519207,E,0.04,235.97,090324,,,R,V*19
$GPHDT,,T*1B
$GNACCURACY,3.8*1D
$GNGGA,041133.600,2500.7814487,N,12132.4519418,E,4,56,0.50,16.752,M,15.25,M,1,3335*41
$GNRMC,041133.600,A,2500.7814487,N,12132.4519418,E,0.04,235.97,090324,,,R,V*18
$GPHDT,,T*1B
$GNACCURACY,3.8*1D
$GNGGA,041133.700,2500.7814419,N,12132.4519397,E,4,56,0.50,16.763,M,15.25,M,0,3335*44
$GNRMC,041133.700,A,2500.7814419,N,12132.4519397,E,0.03,235.97,090324,,,R,V*19
$GPHDT,,T*1B
$GNACCURACY,3.8*1D
$GNGGA,041133.800,2500.7814396,N,12132.4519325,E,4,56,0.50,16.759,M,15.25,M,0,3335*4B
$GNRMC,041133.800,A,2500.7814396,N,12132.4519325,E,0.04,235.97,090324,,,R,V*18
$GPHDT,,T*1B
$GNACCURACY,3.8*1D
$GNGGA,041133.900,2500.7814433,N,12132.4519328,E,4,56,0.50,16.766,M,15.25,M,0,3335*43
$GNRMC,041133.900,A,2500.7814433,N,12132.4519328,E,0.03,235.97,090324,,,R,V*1B
$GPHDT,,T*1B
$GNACCURACY,3.8*1D
$GNGGA,041134.000,2500.7814471,N,12132.4519248,E,4,56,0.50,16.824,M,15.25,M,1,3335*44
$GNRMC,041134.000,A,2500.7814471,N,12132.4519248,E,0.03,235.97,090324,,,R,V*14
$GPHDT,,T*1B
$GNACCURACY,3.8*1D
$GNGGA,041134.100,2500.7814491,N,12132.4519206,E,4,56,0.50,16.842,M,15.25,M,1,3335*41
$GNRMC,041134.100,A,2500.7814491,N,12132.4519206,E,0.03,235.97,090324,,,R,V*11
$GPHDT,,T*1B
$GNGSA,A,3,195,194,08,21,199,02,07,27,16,09,04,30,0.76,0.50,0.57,1*35
$GNGSA,A,3,196,,,,,,,,,,,,0.76,0.50,0.57,1*39
$GNGSA,A,3,81,78,88,79,77,,,,,,,,0.76,0.50,0.57,2*0C
$GNGSA,A,3,21,13,26,27,15,,,,,,,,0.76,0.50,0.57,3*01
$GNGSA,A,3,23,09,06,16,40,07,43,28,39,10,25,37,0.76,0.50,0.57,4*0D
$GNGSA,A,3,34,,,,,,,,,,,,0.76,0.50,0.57,4*05
$GPGSV,4,1,15,195,65,113,43,194,64,052,33,08,62,357,43,21,61,154,40,1*6C
$GPGSV,4,2,15,199,60,167,30,50,60,167,31,02,49,176,38,07,42,316,41,1*57
$GPGSV,4,3,15,27,32,036,31,16,27,076,26,09,23,245,24,196,19,169,13,1*54
$GPGSV,4,4,15,04,17,202,20,30,12,320,40,26,07,100,19,1*5F
$GPGSV,2,1,08,195,65,113,44,194,64,052,36,08,62,357,42,199,60,167,36,8*5E
$GPGSV,2,2,08,27,32,036,29,09,23,245,30,196,19,169,30,30,12,320,36,8*58
$GLGSV,2,1,07,81,66,202,40,78,57,040,18,88,54,031,18,79,27,334,40,1*70
$GLGSV,2,2,07,77,23,111,24,82,16,205,18,87,02,026,,1*43
$GAGSV,2,1,07,21,55,013,23,13,54,079,34,26,45,172,30,27,28,080,36,7*7D
$GAGSV,2,2,07,19,27,240,,15,13,038,19,04,12,298,,7*4E
$GAGSV,2,1,05,21,55,013,35,13,54,079,39,26,45,172,24,27,28,080,33,1*73
$GAGSV,2,2,05,15,13,038,24,1*4B
$GBGSV,4,1,13,23,74,034,40,09,73,264,42,06,71,214,40,16,67,199,41,1*7A
$GBGSV,4,2,13,40,60,329,42,07,60,309,37,43,57,036,33,28,57,222,45,1*7A
$GBGSV,4,3,13,39,57,187,41,10,51,290,34,25,37,118,39,37,31,322,38,1*76
$GBGSV,4,4,13,34,11,040,34,1*40
$GBGSV,2,1,08,23,74,034,39,40,60,329,43,39,57,187,39,43,57,036,22,4*76
$GBGSV,2,2,08,28,57,222,43,25,37,118,38,37,31,322,39,34,11,040,26,4*7E
$GNACCURACY,3.8*1D
$PAIRSAT,1,35,2,0,201,3,0,200,4,0,221,5,0,200,6,0,200,7,0,201,8,0,221,9,0,220,10,0,200,11,0,200,12,0,200,13,0,200,14,0,200,15,0,200,16,0,201,17,0,200,18,0,200,19,0,200,20,0,200,21,0,201,22,0,200,23,0,200,24,0,200,25,0,200,26,0,220,27,0,221,28,0,200,29,0,200,30,0,221,31,0,200,32,0,200,194,0,621,195,0,621,196,0,620,199,0,621*5A
$PAIRSAT,2,24,65,0,200,66,0,200,67,0,200,68,0,200,69,0,200,70,0,200,71,0,200,72,0,200,73,0,200,74,0,200,75,0,200,76,0,200,77,0,201,78,0,201,79,0,201,80,0,200,81,0,201,82,0,200,83,0,200,84,0,200,85,0,200,86,0,200,87,0,201,88,0,201*7A
$PAIRSAT,3,23,2,0,1200,3,0,1200,4,0,1200,5,0,200,7,0,1200,8,0,1200,9,0,1200,10,0,1200,11,0,1200,12,0,1200,13,0,1221,15,0,1220,19,0,1201,21,0,1221,24,0,1200,25,0,1200,26,0,1221,27,0,1221,30,0,1200,31,0,1200,33,0,1200,34,0,1000,36,0,1200*6B
$PAIRSAT,4,46,1,0,200,2,0,200,3,0,600,4,0,200,5,0,200,6,0,201,7,0,201,8,0,200,9,0,201,10,0,201,11,0,200,12,0,200,13,0,200,14,0,200,16,0,201,19,0,600,20,0,600,21,0,600,22,0,600,23,0,621,24,0,600,25,0,621,26,0,600,27,0,600,28,0,621,29,0,600,30,0,600,32,0,600,33,0,600,34,0,621,35,0,600,36,0,600,37,0,621,38,0,600,39,0,621,40,0,621,41,0,600,42,0,600,43,0,621,44,0,400,45,0,400,46,0,400,59,0,400,60,0,400,61,0,400,62,0,400*4A
$PAIRDGP,10,2,4,7,8,9,16,21,26,27,30*42
$GNGGA,041134.200,2500.7814418,N,12132.4519336,E,4,56,0.50,16.759,M,15.25,M,1,3335*44
$GNRMC,041134.200,A,2500.7814418,N,12132.4519336,E,0.03,235.97,090324,,,R,V*11
$GPHDT,,T*1B
$GNACCURACY,3.8*1D
$GNGGA,041134.300,2500.7814476,N,12132.4519494,E,4,56,0.50,16.738,M,15.25,M,1,3335*45
$GNRMC,041134.300,A,2500.7814476,N,12132.4519494,E,0.03,235.97,090324,,,R,V*17
$GPHDT,,T*1B
$GNACCURACY,3.8*1D
$GNGGA,041134.400,2500.7814450,N,12132.4519366,E,4,56,0.50,16.766,M,15.25,M,1,3335*47
$GNRMC,041134.400,A,2500.7814450,N,12132.4519366,E,0.03,235.97,090324,,,R,V*1E
$GPHDT,,T*1B
$GNACCURACY,3.8*1D
$GNGGA,041134.500,2500.7814476,N,12132.4519430,E,4,56,0.50,16.748,M,15.25,M,1,3335*4A
$GNRMC,041134.500,A,2500.7814476,N,12132.4519430,E,0.03,235.97,090324,,,R,V*1F
$GPHDT,,T*1B
$GNACCURACY,3.8*1D
$GNGGA,041134.600,2500.7814421,N,12132.4519257,E,4,56,0.50,16.770,M,15.25,M,0,3335*46
$GNRMC,041134.600,A,2500.7814421,N,12132.4519257,E,0.03,235.97,090324,,,R,V*19
$GPHDT,,T*1B
$GNACCURACY,3.8*1D
$GNGGA,041134.700,2500.7814407,N,12132.4519233,E,4,56,0.50,16.774,M,15.25,M,0,3335*45
$GNRMC,041134.700,A,2500.7814407,N,12132.4519233,E,0.03,235.97,090324,,,R,V*1E
$GPHDT,,T*1B
$GNACCURACY,3.8*1D
$GNGGA,041134.800,2500.7814464,N,12132.4519339,E,4,56,0.50,16.766,M,15.25,M,0,3335*47
$GNRMC,041134.800,A,2500.7814464,N,12132.4519339,E,0.04,235.97,090324,,,R,V*18
$GPHDT,,T*1B
$GNACCURACY,3.8*1D
$GNGGA,041134.900,2500.7814463,N,12132.4519293,E,4,56,0.50,16.773,M,15.25,M,0,3335*44
$GNRMC,041134.900,A,2500.7814463,N,12132.4519293,E,0.04,235.97,090324,,,R,V*1F
$GPHDT,,T*1B
$GNACCURACY,3.8*1D
$GNGGA,041135.000,2500.7814462,N,12132.4519379,E,4,56,0.50,16.759,M,15.25,M,1,3335*41
$GNRMC,041135.000,A,2500.7814462,N,12132.4519379,E,0.04,235.97,090324,,,R,V*13
$PAIR010,0,1,2304,533513*3D
$GPHDT,,T*1B
$GNACCURACY,3.8*1D
$GNGGA,041135.100,2500.7814429,N,12132.4519311,E,4,56,0.50,16.760,M,15.25,M,1,3335*4B
$GNRMC,041135.100,A,2500.7814429,N,12132.4519311,E,0.04,235.97,090324,,,R,V*13
$GPHDT,,T*1B
$GNGSA,A,3,195,194,08,21,199,02,07,27,16,09,04,30,0.76,0.50,0.57,1*35
$GNGSA,A,3,196,,,,,,,,,,,,0.76,0.50,0.57,1*39
$GNGSA,A,3,81,78,88,79,77,,,,,,,,0.76,0.50,0.57,2*0C
$GNGSA,A,3,21,13,26,27,15,,,,,,,,0.76,0.50,0.57,3*01
$GNGSA,A,3,23,09,06,16,40,07,43,28,39,10,25,37,0.76,0.50,0.57,4*0D
$GNGSA,A,3,34,,,,,,,,,,,,0.76,0.50,0.57,4*05
$GPGSV,4,1,15,195,65,113,43,194,64,052,33,08,62,357,43,21,61,154,41,1*6D
$GPGSV,4,2,15,199,60,167,29,50,60,167,31,02,49,176,38,07,42,316,41,1*5F
$GPGSV,4,3,15,27,32,036,33,16,27,076,29,09,23,245,25,196,19,169,12,1*59
$GPGSV,4,4,15,04,17,202,23,30,12,320,41,26,07,100,19,1*5D
$GPGSV,2,1,08,195,65,113,44,194,64,052,36,08,62,357,43,199,60,167,35,8*5C
$GPGSV,2,2,08,27,32,036,28,09,23,245,28,196,19,169,29,30,12,320,33,8*5D
$GLGSV,2,1,07,81,66,202,40,78,57,040,19,88,54,031,17,79,27,334,40,1*7E
$GLGSV,2,2,07,77,23,111,23,82,16,205,19,87,02,026,,1*45
$GAGSV,2,1,07,21,55,013,26,13,54,079,34,26,45,172,29,27,28,080,37,7*71
$GAGSV,2,2,07,19,27,240,,15,13,038,18,04,12,298,,7*4F
$GAGSV,2,1,05,21,55,013,35,13,54,079,39,26,45,172,21,27,28,080,31,1*74
$GAGSV,2,2,05,15,13,038,24,1*4B
$GBGSV,4,1,13,23,74,034,40,09,73,264,42,06,71,214,40,16,67,199,41,1*7A
$GBGSV,4,2,13,40,60,329,42,07,60,309,38,43,57,036,33,28,57,222,45,1*75
$GBGSV,4,3,13,39,57,187,41,10,51,290,34,25,37,118,38,37,31,322,38,1*77
$GBGSV,4,4,13,34,11,040,33,1*47
$GBGSV,2,1,08,23,74,034,38,40,60,329,43,39,57,187,39,43,57,036,23,4*76
$GBGSV,2,2,08,28,57,222,43,25,37,118,36,37,31,322,38,34,11,040,27,4*70
$GNACCURACY,3.8*1D
$PAIRSAT,1,35,2,0,201,3,0,200,4,0,221,5,0,200,6,0,200,7,0,201,8,0,221,9,0,220,10,0,200,11,0,200,12,0,200,13,0,200,14,0,200,15,0,200,16,0,201,17,0,200,18,0,200,19,0,200,20,0,200,21,0,201,22,0,200,23,0,200,24,0,200,25,0,200,26,0,220,27,0,221,28,0,200,29,0,200,30,0,221,31,0,200,32,0,200,194,0,621,195,0,621,196,0,620,199,0,621*5A
$PAIRSAT,2,24,65,0,200,66,0,200,67,0,200,68,0,200,69,0,200,70,0,200,71,0,200,72,0,200,73,0,200,74,0,200,75,0,200,76,0,200,77,0,201,78,0,201,79,0,201,80,0,200,81,0,201,82,0,200,83,0,200,84,0,200,85,0,200,86,0,200,87,0,201,88,0,201*7A
$PAIRSAT,3,23,2,0,1200,3,0,1200,4,0,1200,5,0,200,7,0,1200,8,0,1200,9,0,1200,10,0,1200,11,0,1200,12,0,1200,13,0,1221,15,0,1220,19,0,1201,21,0,1221,24,0,1200,25,0,1200,26,0,1221,27,0,1221,30,0,1200,31,0,1200,33,0,1200,34,0,1000,36,0,1200*6B
$PAIRSAT,4,46,1,0,200,2,0,200,3,0,600,4,0,200,5,0,200,6,0,201,7,0,201,8,0,200,9,0,201,10,0,201,11,0,200,12,0,200,13,0,200,14,0,200,16,0,201,19,0,600,20,0,600,21,0,600,22,0,600,23,0,621,24,0,600,25,0,621,26,0,600,27,0,600,28,0,621,29,0,600,30,0,600,32,0,600,33,0,600,34,0,621,35,0,600,36,0,600,37,0,621,38,0,600,39,0,621,40,0,621,41,0,600,42,0,600,43,0,621,44,0,400,45,0,400,46,0,400,59,0,400,60,0,400,61,0,400,62,0,400*4A
$PAIRDGP,10,2,4,7,8,9,16,21,26,27,30*42
$GNGGA,041135.200,2500.7814475,N,12132.4519331,E,4,56,0.50,16.773,M,15.25,M,1,3335*41
$GNRMC,041135.200,A,2500.7814475,N,12132.4519331,E,0.03,235.97,090324,,,R,V*1C
$GPHDT,,T*1B
$GNACCURACY,3.8*1D
$GNGGA,041135.300,2500.7814394,N,12132.4519250,E,4,56,0.50,16.765,M,15.25,M,1,3335*49
$GNRMC,041135.300,A,2500.7814394,N,12132.4519250,E,0.03,235.97,090324,,,R,V*13
$GPHDT,,T*1B
$GNACCURACY,3.8*1D
$GNGGA,041135.400,2500.7814460,N,12132.4519367,E,4,56,0.50,16.752,M,15.25,M,1,3335*43
$GNRMC,041135.400,A,2500.7814460,N,12132.4519367,E,0.04,235.97,090324,,,R,V*1A
$GPHDT,,T*1B
$GNACCURACY,3.8*1D
$GNGGA,041135.500,2500.7814446,N,12132.4519311,E,4,56,0.50,16.764,M,15.25,M,1,3335*42
$GNRMC,041135.500,A,2500.7814446,N,12132.4519311,E,0.02,235.97,090324,,,R,V*18
$GPHDT,,T*1B
$GNACCURACY,3.8*1D
$GNGGA,041135.600,2500.7814448,N,12132.4519301,E,4,56,0.50,16.765,M,15.25,M,1,3335*4F
$GNRMC,041135.600,A,2500.7814448,N,12132.4519301,E,0.01,235.97,090324,,,R,V*17
$GPHDT,,T*1B
$GNACCURACY,3.8*1D
$GNGGA,041135.700,2500.7814440,N,12132.4519348,E,4,57,0.50,16.771,M,15.25,M,0,3335*4E
$GNRMC,041135.700,A,2500.7814440,N,12132.4519348,E,0.01,235.97,090324,,,R,V*13
$GPHDT,,T*1B
$GNACCURACY,3.8*1D
$GNGGA,041135.800,2500.7814458,N,12132.4519354,E,4,57,0.50,16.774,M,15.25,M,0,3335*40
$GNRMC,041135.800,A,2500.7814458,N,12132.4519354,E,0.01,235.97,090324,,,R,V*18
$GPHDT,,T*1B
$GNACCURACY,3.8*1D
$GNGGA,041135.900,2500.7814415,N,12132.4519268,E,4,57,0.50,16.794,M,15.25,M,0,3335*48
$GNRMC,041135.900,A,2500.7814415,N,12132.4519268,E,0.02,235.97,090324,,,R,V*1D
$GPHDT,,T*1B
$GNACCURACY,3.8*1D
$GNGGA,041136.000,2500.7814439,N,12132.4519209,E,4,57,0.50,16.816,M,15.25,M,1,3335*4F
$GNRMC,041136.000,A,2500.7814439,N,12132.4519209,E,0.03,235.97,090324,,,R,V*1F
$GPHDT,,T*1B
$GNACCURACY,3.8*1D
$GNGGA,041136.100,2500.7814451,N,12132.4519289,E,4,57,0.50,16.785,M,15.25,M,1,3335*4D
$GNRMC,041136.100,A,2500.7814451,N,12132.4519289,E,0.03,235.97,090324,,,R,V*18
$GPHDT,,T*1B
$GNGSA,A,3,195,194,08,21,199,02,07,27,16,09,04,30,0.76,0.50,0.57,1*35
$GNGSA,A,3,196,,,,,,,,,,,,0.76,0.50,0.57,1*39
$GNGSA,A,3,81,78,88,79,77,,,,,,,,0.76,0.50,0.57,2*0C
$GNGSA,A,3,21,13,26,27,15,,,,,,,,0.76,0.50,0.57,3*01
$GNGSA,A,3,23,09,06,16,40,07,43,28,39,10,25,37,0.76,0.50,0.57,4*0D
$GNGSA,A,3,34,,,,,,,,,,,,0.76,0.50,0.57,4*05
$GPGSV,4,1,15,195,65,113,43,194,64,052,34,08,62,357,42,21,61,154,41,1*6B
$GPGSV,4,2,15,199,60,167,30,50,60,167,31,02,49,176,40,07,42,316,42,1*5B
$GPGSV,4,3,15,27,32,036,33,16,27,076,28,09,23,245,24,196,19,169,12,1*59
$GPGSV,4,4,15,04,17,202,21,30,12,320,38,26,07,100,19,1*51
$GPGSV,3,1,09,195,65,113,44,194,64,052,36,08,62,357,43,199,60,167,34,8*5D
$GPGSV,3,2,09,27,32,036,28,09,23,245,27,196,19,169,30,04,17,202,17,8*5F
$GPGSV,3,3,09,30,12,320,37,8*51
$GLGSV,2,1,07,81,66,202,40,78,57,040,23,88,54,031,15,79,27,334,42,1*77
$GLGSV,2,2,07,77,23,111,24,82,16,205,21,87,02,026,,1*49
$GAGSV,2,1,07,21,55,013,24,13,54,079,32,26,45,172,29,27,28,080,37,7*75
$GAGSV,2,2,07,19,27,240,,15,13,038,16,04,12,298,,7*41
$GAGSV,2,1,05,21,55,013,35,13,54,079,39,26,45,172,25,27,28,080,32,1*73
$GAGSV,2,2,05,15,13,038,23,1*4C
$GBGSV,4,1,13,23,74,034,40,09,73,264,42,06,71,214,39,16,67,199,42,1*77
$GBGSV,4,2,13,40,60,329,43,07,60,309,35,43,57,036,34,28,57,222,45,1*7E
$GBGSV,4,3,13,39,57,187,41,10,51,290,34,25,37,118,38,37,31,322,41,1*79
$GBGSV,4,4,13,34,11,040,34,1*40
$GBGSV,2,1,08,23,74,034,38,40,60,329,43,39,57,187,39,43,57,036,24,4*71
$GBGSV,2,2,08,28,57,222,43,25,37,118,38,37,31,322,38,34,11,040,24,4*7D
$GNACCURACY,3.8*1D
$PAIRSAT,1,35,2,0,201,3,0,200,4,0,221,5,0,200,6,0,200,7,0,201,8,0,221,9,0,220,10,0,200,11,0,200,12,0,200,13,0,200,14,0,200,15,0,200,16,0,201,17,0,200,18,0,200,19,0,200,20,0,200,21,0,201,22,0,200,23,0,200,24,0,200,25,0,200,26,0,220,27,0,221,28,0,200,29,0,200,30,0,221,31,0,200,32,0,200,194,0,621,195,0,621,196,0,620,199,0,621*5A
$PAIRSAT,2,24,65,0,200,66,0,200,67,0,200,68,0,200,69,0,200,70,0,200,71,0,200,72,0,200,73,0,200,74,0,200,75,0,200,76,0,200,77,0,201,78,0,201,79,0,201,80,0,200,81,0,201,82,0,200,83,0,200,84,0,200,85,0,200,86,0,200,87,0,201,88,0,201*7A
$PAIRSAT,3,23,2,0,1200,3,0,1200,4,0,1200,5,0,200,7,0,1200,8,0,1200,9,0,1200,10,0,1200,11,0,1200,12,0,1200,13,0,1221,15,0,1220,19,0,1201,21,0,1221,24,0,1200,25,0,1200,26,0,1221,27,0,1221,30,0,1200,31,0,1200,33,0,1200,34,0,1000,36,0,1200*6B
$PAIRSAT,4,46,1,0,200,2,0,200,3,0,600,4,0,200,5,0,200,6,0,201,7,0,201,8,0,200,9,0,201,10,0,201,11,0,200,12,0,200,13,0,200,14,0,200,16,0,201,19,0,600,20,0,600,21,0,600,22,0,600,23,0,621,24,0,600,25,0,621,26,0,600,27,0,600,28,0,621,29,0,600,30,0,600,32,0,600,33,0,600,34,0,621,35,0,600,36,0,600,37,0,621,38,0,600,39,0,621,40,0,621,41,0,600,42,0,600,43,0,621,44,0,400,45,0,400,46,0,400,59,0,400,60,0,400,61,0,400,62,0,400*4A
$PAIRDGP,10,2,4,7,8,9,16,21,26,27,30*42
$GNGGA,041136.200,2500.7814439,N,12132.4519269,E,4,57,0.50,16.792,M,15.25,M,1,3335*48
$GNRMC,041136.200,A,2500.7814439,N,12132.4519269,E,0.03,235.97,090324,,,R,V*1B
$GPHDT,,T*1B
$GNACCURACY,3.8*1D
$GNGGA,041136.300,2500.7814421,N,12132.4519164,E,4,57,0.50,16.823,M,15.25,M,1,3335*4B
$GNRMC,041136.300,A,2500.7814421,N,12132.4519164,E,0.03,235.97,090324,,,R,V*1D
$GPHDT,,T*1B
$GNACCURACY,3.8*1D
$GNGGA,041136.400,2500.7814465,N,12132.4519193,E,4,57,0.50,16.831,M,15.25,M,1,3335*47
$GNRMC,041136.400,A,2500.7814465,N,12132.4519193,E,0.02,235.97,090324,,,R,V*13
$GPHDT,,T*1B
$GNACCURACY,3.8*1D
$GNGGA,041136.500,2500.7814461,N,12132.4519223,E,4,57,0.50,16.835,M,15.25,M,0,3335*4F
$GNRMC,041136.500,A,2500.7814461,N,12132.4519223,E,0.03,235.97,090324,,,R,V*1F
$GPHDT,,T*1B
$GNACCURACY,3.8*1D
$GNGGA,041136.600,2500.7814457,N,12132.4519178,E,4,57,0.50,16.838,M,15.25,M,0,3335*49
$GNRMC,041136.600,A,2500.7814457,N,12132.4519178,E,0.03,235.97,090324,,,R,V*14
$GPHDT,,T*1B
$GNACCURACY,3.8*1D
$GNGGA,041136.700,2500.7814426,N,12132.4519191,E,4,57,0.50,16.827,M,15.25,M,0,3335*47
$GNRMC,041136.700,A,2500.7814426,N,12132.4519191,E,0.02,235.97,090324,,,R,V*15
$GPHDT,,T*1B
$GNACCURACY,3.8*1D
$GNGGA,041136.800,2500.7814457,N,12132.4519195,E,4,57,0.50,16.836,M,15.25,M,0,3335*4A
$GNRMC,041136.800,A,2500.7814457,N,12132.4519195,E,0.02,235.97,090324,,,R,V*18
$GPHDT,,T*1B
$GNACCURACY,3.8*1D
$GNGGA,041136.900,2500.7814449,N,12132.4519159,E,4,57,0.50,16.825,M,15.25,M,0,3335*46
$GNRMC,041136.900,A,2500.7814449,N,12132.4519159,E,0.02,235.97,090324,,,R,V*16
$GPHDT,,T*1B
$GNACCURACY,3.8*1D
$GNGGA,041137.000,2500.7814451,N,12132.4519185,E,4,57,0.50,16.835,M,15.25,M,1,3335*46
$GNRMC,041137.000,A,2500.7814451,N,12132.4519185,E,0.02,235.97,090324,,,R,V*16
$GPHDT,,T*1B
$GNACCURACY,3.8*1D
$GNGGA,041137.100,2500.7814444,N,12132.4519306,E,4,57,0.50,16.787,M,15.25,M,1,3335*4C
$GNRMC,041137.100,A,2500.7814444,N,12132.4519306,E,0.01,235.97,090324,,,R,V*19
$GPHDT,,T*1B
$GNGSA,A,3,195,194,08,21,199,02,07,27,16,09,04,30,0.76,0.50,0.57,1*35
$GNGSA,A,3,196,,,,,,,,,,,,0.76,0.50,0.57,1*39
$GNGSA,A,3,81,78,88,79,77,,,,,,,,0.76,0.50,0.57,2*0C
$GNGSA,A,3,21,13,26,27,15,,,,,,,,0.76,0.50,0.57,3*01
$GNGSA,A,3,23,09,06,16,40,07,