$FW : RTK35X,V1.1X0314AS,Lib20210517,1*54
$Tool : LOCOSYS , GNSS Firebird , v1.0.0.19*39
$---------------------------------------------------*2D

$GPGSV,4,4,15,04,17,202,16,30,11,320,34,26,08,100,14,1*58
$GPGSV,2,1,07,195,65,114,41,194,64,052,34,08,62,356,44,199,60,167,29,8*58
$GPGSV,2,2,07,27,32,036,15,09,23,246,16,30,11,320,35,8*54
$GLGSV,2,1,06,81,65,201,36,78,57,039,28,88,55,031,20,79,26,334,30,1*71
$GLGSV,2,2,06,77,23,111,25,87,02,026,,1*70
$GAGSV,2,1,07,21,55,012,24,13,55,080,32,26,44,172,28,27,28,080,37,7*73
$GAGSV,2,2,07,19,27,240,,15,13,038,25,04,12,299,,7*40
$GAGSV,2,1,05,13,55,080,33,21,55,012,34,26,44,172,28,27,28,080,36,1*76
$GAGSV,2,2,05,15,13,038,22,1*4D
$GBGSV,4,1,14,23,74,032,34,09,73,265,35,06,71,214,32,16,68,199,31,1*74
$GBGSV,4,2,14,07,60,308,41,40,60,329,42,43,58,036,26,39,57,187,40,1*7F
$GBGSV,4,3,14,28,56,222,39,10,51,290,37,25,37,118,43,37,30,322,41,1*72
$GBGSV,4,4,14,34,11,040,20,27,10,220,,1*76
$GBGSV,2,1,08,23,74,032,38,40,60,329,42,43,58,036,16,39,57,187,36,4*77
$GBGSV,2,2,08,28,56,222,27,25,37,118,44,37,30,322,35,34,11,040,24,4*79
$GNACCURACY,4.3*11
$PAIRSAT,1,35,2,0,201,3,0,200,4,0,221,5,0,200,6,0,200,7,0,201,8,0,221,9,0,220,10,0,200,11,0,200,12,0,200,13,0,200,14,0,200,15,0,200,16,0,201,17,0,200,18,0,200,19,0,200,20,0,200,21,0,201,22,0,200,23,0,200,24,0,200,25,0,200,26,0,220,27,0,221,28,0,200,29,0,200,30,0,221,31,0,200,32,0,200,194,0,621,195,0,621,196,0,620,199,0,621*5A
$PAIRSAT,2,24,65,0,200,66,0,200,67,0,200,68,0,200,69,0,200,70,0,200,71,0,200,72,0,200,73,0,200,74,0,200,75,0,200,76,0,200,77,0,201,78,0,201,79,0,201,80,0,200,81,0,201,82,0,200,83,0,200,84,0,200,85,0,200,86,0,200,87,0,201,88,0,201*7A
$PAIRSAT,3,23,2,0,1200,3,0,1200,4,0,1200,5,0,200,7,0,1200,8,0,1200,9,0,1200,10,0,1200,11,0,1200,12,0,1200,13,0,1221,15,0,1220,19,0,1201,21,0,1221,24,0,1200,25,0,1200,26,0,1221,27,0,1221,30,0,1200,31,0,1200,33,0,1200,34,0,1000,36,0,1200*6B
$PAIRSAT,4,46,1,0,200,2,0,200,3,0,600,4,0,200,5,0,200,6,0,201,7,0,201,8,0,200,9,0,201,10,0,201,11,0,200,12,0,200,13,0,200,14,0,200,16,0,201,19,0,600,20,0,600,21,0,600,22,0,600,23,0,621,24,0,600,25,0,621,26,0,600,27,0,600,28,0,621,29,0,600,30,0,600,32,0,600,33,0,600,34,0,621,35,0,600,36,0,600,37,0,621,38,0,600,39,0,621,40,0,621,41,0,400,42,0,400,43,0,421,44,0,400,45,0,400,46,0,400,59,0,400,60,0,400,61,0,400,62,0,400*48
$PAIRDGP,10,2,4,7,8,9,16,21,26,27,30*42
$GNGGA,041017.200,2500.7814568,N,12132.4519541,E,4,54,0.55,16.704,M,15.25,M,1,3335*4B
$GNRMC,041017.200,A,2500.7814568,N,12132.4519541,E,0.01,317.42,090324,,,R,V*1A
$GPHDT,,T*1B
$GNACCURACY,3.5*10
$GNGGA,041017.300,2500.7814570,N,12132.4519565,E,4,54,0.55,16.707,M,15.25,M,1,3335*46
$GNRMC,041017.300,A,2500.7814570,N,12132.4519565,E,0.01,317.42,090324,,,R,V*14
$GPHDT,,T*1B
$GNACCURACY,3.5*10
$GNGGA,041017.400,2500.7814588,N,12132.4519543,E,4,54,0.55,16.716,M,15.25,M,1,3335*42
$GNRMC,041017.400,A,2500.7814588,N,12132.4519543,E,0.01,317.42,090324,,,R,V*10
$GPHDT,,T*1B
$GNACCURACY,3.6*13
$GNGGA,041017.500,2500.7814582,N,12132.4519527,E,4,54,0.55,16.718,M,15.25,M,0,3335*44
$GNRMC,041017.500,A,2500.7814582,N,12132.4519527,E,0.01,317.42,090324,,,R,V*19
$GPHDT,,T*1B
$GNACCURACY,3.6*13
$GNGGA,041017.600,2500.7814582,N,12132.4519516,E,4,54,0.55,16.703,M,15.25,M,0,3335*4F
$GNRMC,041017.600,A,2500.7814582,N,12132.4519516,E,0.01,317.42,090324,,,R,V*18
$GPHDT,,T*1B
$GNACCURACY,3.6*13
$GNGGA,041017.700,2500.7814572,N,12132.4519611,E,4,53,0.55,16.759,M,15.25,M,0,3335*4D
$GNRMC,041017.700,A,2500.7814572,N,12132.4519611,E,0.02,317.42,090324,,,R,V*11
$GPHDT,,T*1B
$GNACCURACY,3.6*13
$GNGGA,041017.800,2500.7814585,N,12132.4519622,E,4,53,0.55,16.749,M,15.25,M,0,3335*4B
$GNRMC,041017.800,A,2500.7814585,N,12132.4519622,E,0.02,317.42,090324,,,R,V*16
$GPHDT,,T*1B
$GNACCURACY,3.6*13
$GNGGA,041017.900,2500.7814623,N,12132.4519647,E,4,52,0.55,16.754,M,15.25,M,0,3335*4B
$GNRMC,041017.900,A,2500.7814623,N,12132.4519647,E,0.02,317.42,090324,,,R,V*1B
$GPHDT,,T*1B
$GNACCURACY,3.6*13
$GNGGA,041018.000,2500.7814644,N,12132.4519642,E,4,52,0.55,16.753,M,15.25,M,1,3335*4F
$GNRMC,041018.000,A,2500.7814644,N,12132.4519642,E,0.02,317.42,090324,,,R,V*19
$GPHDT,,T*1B
$GNACCURACY,3.6*13
$GNGGA,041018.100,2500.7814338,N,12132.4519348,E,4,52,0.55,16.707,M,15.25,M,1,3335*4E
$GNRMC,041018.100,A,2500.7814338,N,12132.4519348,E,0.01,317.42,090324,,,R,V*1A
$GPHDT,,T*1B
$GNGSA,A,3,195,194,08,21,199,02,07,27,16,09,30,,0.99,0.55,0.82,1*3D
$GNGSA,A,3,81,78,88,79,77,,,,,,,,0.99,0.55,0.82,2*00
$GNGSA,A,3,13,21,26,27,15,,,,,,,,0.99,0.55,0.82,3*0D
$GNGSA,A,3,23,09,06,16,40,07,43,39,28,10,25,37,0.99,0.55,0.82,4*01
$GNGSA,A,3,34,,,,,,,,,,,,0.99,0.55,0.82,4*09
$GPGSV,4,1,15,195,65,114,43,194,64,052,32,08,62,356,42,50,60,167,28,1*63
$GPGSV,4,2,15,21,60,155,38,199,60,167,26,02,49,176,31,07,42,316,36,1*57
$GPGSV,4,3,15,27,32,036,30,16,27,076,32,09,23,246,19,196,19,169,,1*5F
$GPGSV,4,4,15,04,17,202,15,30,11,320,35,26,08,100,13,1*5D
$GPGSV,2,1,07,195,65,114,41,194,64,052,35,08,62,356,44,199,60,167,30,8*51
$GPGSV,2,2,07,27,32,036,14,09,23,246,15,30,11,320,35,8*56
$GLGSV,2,1,06,81,65,201,36,78,57,039,29,88,55,031,21,79,26,334,30,1*71
$GLGSV,2,2,06,77,23,111,25,87,02,026,,1*70
$GAGSV,2,1,08,13,55,080,32,21,55,012,24,26,44,172,25,27,28,080,37,7*71
$GAGSV,2,2,08,19,27,240,,15,13,038,24,04,12,299,,33,04,199,,7*7B
$GAGSV,2,1,05,13,55,080,32,21,55,012,34,26,44,172,27,27,28,080,36,1*78
$GAGSV,2,2,05,15,13,038,23,1*4C
$GBGSV,4,1,13,23,74,032,34,09,73,265,34,06,71,214,32,16,68,199,32,1*71
$GBGSV,4,2,13,40,60,329,42,07,60,308,41,43,58,036,24,39,57,187,40,1*7A
$GBGSV,4,3,13,28,56,222,40,10,51,290,36,25,37,118,43,37,30,322,41,1*7A
$GBGSV,4,4,13,34,11,040,20,1*45
$GBGSV,2,1,07,23,74,032,38,40,60,329,42,39,57,187,36,28,56,222,28,4*71
$GBGSV,2,2,07,25,37,118,44,37,30,322,33,34,11,040,24,4*4E
$GNACCURACY,3.6*13
$PAIRSAT,1,35,2,0,201,3,0,200,4,0,221,5,0,200,6,0,200,7,0,201,8,0,221,9,0,220,10,0,200,11,0,200,12,0,200,13,0,200,14,0,200,15,0,200,16,0,201,17,0,200,18,0,200,19,0,200,20,0,200,21,0,201,22,0,200,23,0,200,24,0,200,25,0,200,26,0,220,27,0,221,28,0,200,29,0,200,30,0,221,31,0,200,32,0,200,194,0,621,195,0,621,196,0,620,199,0,621*5A
$PAIRSAT,2,24,65,0,200,66,0,200,67,0,200,68,0,200,69,0,200,70,0,200,71,0,200,72,0,200,73,0,200,74,0,200,75,0,200,76,0,200,77,0,201,78,0,201,79,0,201,80,0,200,81,0,201,82,0,200,83,0,200,84,0,200,85,0,200,86,0,200,87,0,201,88,0,201*7A
$PAIRSAT,3,23,2,0,1200,3,0,1200,4,0,1200,5,0,200,7,0,1200,8,0,1200,9,0,1200,10,0,1200,11,0,1200,12,0,1200,13,0,1221,15,0,1220,19,0,1201,21,0,1221,24,0,1200,25,0,1200,26,0,1221,27,0,1221,30,0,1200,31,0,1200,33,0,1200,34,0,1000,36,0,1200*6B
$PAIRSAT,4,46,1,0,200,2,0,200,3,0,600,4,0,200,5,0,200,6,0,201,7,0,201,8,0,200,9,0,201,10,0,201,11,0,200,12,0,200,13,0,200,14,0,200,16,0,201,19,0,600,20,0,600,21,0,600,22,0,600,23,0,621,24,0,600,25,0,621,26,0,600,27,0,600,28,0,621,29,0,600,30,0,600,32,0,600,33,0,600,34,0,621,35,0,600,36,0,600,37,0,621,38,0,600,39,0,621,40,0,621,41,0,400,42,0,400,43,0,421,44,0,400,45,0,400,46,0,400,59,0,400,60,0,400,61,0,400,62,0,400*48
$PAIRDGP,10,2,4,7,8,9,16,21,26,27,30*42
$GNGGA,041018.200,2500.7814341,N,12132.4519353,E,4,52,0.55,16.699,M,15.25,M,1,3335*4F
$GNRMC,041018.200,A,2500.7814341,N,12132.4519353,E,0.02,317.42,090324,,,R,V*1E
$GPHDT,,T*1B
$GNACCURACY,3.0*15
$GNGGA,041018.300,2500.7814299,N,12132.4519341,E,4,52,0.55,16.706,M,15.25,M,1,3335*4E
$GNRMC,041018.300,A,2500.7814299,N,12132.4519341,E,0.02,317.42,090324,,,R,V*18
$GPHDT,,T*1B
$GNACCURACY,3.0*15
$GNGGA,041018.400,2500.7814599,N,12132.4519558,E,4,52,0.55,16.752,M,15.25,M,1,3335*41
$GNRMC,041018.400,A,2500.7814599,N,12132.4519558,E,0.02,317.42,090324,,,R,V*16
$GPHDT,,T*1B
$GNACCURACY,3.0*15
$GNGGA,041018.500,2500.7814629,N,12132.4519549,E,4,52,0.55,16.705,M,15.25,M,0,3335*4B
$GNRMC,041018.500,A,2500.7814629,N,12132.4519549,E,0.02,317.42,090324,,,R,V*1F
$GPHDT,,T*1B
$GNACCURACY,3.0*15
$GNGGA,041018.600,2500.7814605,N,12132.4519532,E,4,52,0.55,16.684,M,15.25,M,0,3335*42
$GNRMC,041018.600,A,2500.7814605,N,12132.4519532,E,0.02,317.42,090324,,,R,V*1E
$GPHDT,,T*1B
$GNACCURACY,3.0*15
$GNGGA,041018.700,2500.7814548,N,12132.4519468,E,4,53,0.55,16.683,M,15.25,M,0,3335*41
$GNRMC,041018.700,A,2500.7814548,N,12132.4519468,E,0.02,317.42,090324,,,R,V*1B
$GPHDT,,T*1B
$GNACCURACY,3.0*15
$GNGGA,041018.800,2500.7814543,N,12132.4519424,E,4,52,0.55,16.684,M,15.25,M,0,3335*4B
$GNRMC,041018.800,A,2500.7814543,N,12132.4519424,E,0.03,317.42,090324,,,R,V*16
$GPHDT,,T*1B
$GNACCURACY,3.0*15
$GNGGA,041018.900,2500.7814505,N,12132.4519417,E,4,53,0.52,16.695,M,15.25,M,0,3335*4E
$GNRMC,041018.900,A,2500.7814505,N,12132.4519417,E,0.03,317.42,090324,,,R,V*15
$GPHDT,,T*1B
$GNACCURACY,3.0*15
$GNGGA,041019.000,2500.7814338,N,12132.4519253,E,4,53,0.52,16.649,M,15.25,M,1,3335*48
$GNRMC,041019.000,A,2500.7814338,N,12132.4519253,E,0.03,317.42,090324,,,R,V*13
$GPHDT,,T*1B
$GNACCURACY,3.0*15
$GNGGA,041019.100,2500.7814436,N,12132.4519350,E,4,53,0.52,16.696,M,15.25,M,1,3335*40
$GNRMC,041019.100,A,2500.7814436,N,12132.4519350,E,0.03,317.42,090324,,,R,V*19
$GPHDT,,T*1B
$GNGSA,A,3,195,194,08,21,199,02,07,27,16,09,196,30,0.91,0.52,0.75,1*04
$GNGSA,A,3,81,78,88,79,77,,,,,,,,0.91,0.52,0.75,2*07
$GNGSA,A,3,13,21,26,27,15,,,,,,,,0.91,0.52,0.75,3*0A
$GNGSA,A,3,23,09,06,16,40,07,43,39,28,10,25,37,0.91,0.52,0.75,4*06
$GNGSA,A,3,34,,,,,,,,,,,,0.91,0.52,0.75,4*0E
$GPGSV,4,1,15,195,65,114,43,194,64,052,33,08,62,356,42,50,60,167,31,1*6A
$GPGSV,4,2,15,21,60,155,41,199,60,167,29,02,49,176,34,07,42,316,38,1*5D
$GPGSV,4,3,15,27,32,036,29,16,27,076,29,09,23,246,19,196,19,169,19,1*55
$GPGSV,4,4,15,04,17,202,14,30,11,320,34,26,08,100,16,1*58
$GPGSV,2,1,07,195,65,114,40,194,64,052,34,08,62,356,43,199,60,167,30,8*56
$GPGSV,2,2,07,09,23,246,16,30,11,320,36,26,08,100,17,8*59
$GLGSV,2,1,06,81,65,201,37,78,57,039,29,88,55,031,19,79,26,334,33,1*78
$GLGSV,2,2,06,77,23,111,25,87,02,026,,1*70
$GAGSV,2,1,08,13,55,080,32,21,55,012,20,26,44,172,25,27,28,080,37,7*75
$GAGSV,2,2,08,19,27,240,,15,13,038,26,04,12,299,,33,04,199,,7*79
$GAGSV,2,1,05,13,55,080,33,21,55,012,33,26,44,172,26,27,28,080,36,1*7F
$GAGSV,2,2,05,15,13,038,22,1*4D
$GBGSV,4,1,13,23,74,032,35,09,73,265,38,06,71,214,34,16,68,199,36,1*7E
$GBGSV,4,2,13,40,60,329,42,07,60,308,41,43,58,036,24,39,57,187,42,1*78
$GBGSV,4,3,13,28,56,222,38,10,51,290,37,25,37,118,44,37,30,322,41,1*73
$GBGSV,4,4,13,34,11,040,32,1*46
$GBGSV,2,1,08,23,74,032,35,40,60,329,42,43,58,036,17,39,57,187,35,4*78
$GBGSV,2,2,08,28,56,222,29,25,37,118,43,37,30,322,31,34,11,040,22,4*72
$GNACCURACY,3.0*15
$PAIRSAT,1,35,2,0,201,3,0,200,4,0,221,5,0,200,6,0,200,7,0,201,8,0,221,9,0,220,10,0,200,11,0,200,12,0,200,13,0,200,14,0,200,15,0,200,16,0,201,17,0,200,18,0,200,19,0,200,20,0,200,21,0,201,22,0,200,23,0,200,24,0,200,25,0,200,26,0,220,27,0,221,28,0,200,29,0,200,30,0,221,31,0,200,32,0,200,194,0,621,195,0,621,196,0,620,199,0,621*5A
$PAIRSAT,2,24,65,0,200,66,0,200,67,0,200,68,0,200,69,0,200,70,0,200,71,0,200,72,0,200,73,0,200,74,0,200,75,0,200,76,0,200,77,0,201,78,0,201,79,0,201,80,0,200,81,0,201,82,0,200,83,0,200,84,0,200,85,0,200,86,0,200,87,0,201,88,0,201*7A
$PAIRSAT,3,23,2,0,1200,3,0,1200,4,0,1200,5,0,200,7,0,1200,8,0,1200,9,0,1200,10,0,1200,11,0,1200,12,0,1200,13,0,1221,15,0,1220,19,0,1201,21,0,1221,24,0,1200,25,0,1200,26,0,1221,27,0,1221,30,0,1200,31,0,1200,33,0,1200,34,0,1000,36,0,1200*6B
$PAIRSAT,4,46,1,0,200,2,0,200,3,0,600,4,0,200,5,0,200,6,0,201,7,0,201,8,0,200,9,0,201,10,0,201,11,0,200,12,0,200,13,0,200,14,0,200,16,0,201,19,0,600,20,0,600,21,0,600,22,0,600,23,0,621,24,0,600,25,0,621,26,0,600,27,0,600,28,0,621,29,0,600,30,0,600,32,0,600,33,0,600,34,0,621,35,0,600,36,0,600,37,0,621,38,0,600,39,0,621,40,0,621,41,0,400,42,0,400,43,0,421,44,0,400,45,0,400,46,0,400,59,0,400,60,0,400,61,0,400,62,0,400*48
$PAIRDGP,10,2,4,7,8,9,16,21,26,27,30*42
$GNGGA,041019.200,2500.7814430,N,12132.4519389,E,4,54,0.52,16.685,M,15.25,M,1,3335*44
$GNRMC,041019.200,A,2500.7814430,N,12132.4519389,E,0.03,317.42,090324,,,R,V*18
$GPHDT,,T*1B
$GNACCURACY,3.0*15
$GNGGA,041019.300,2500.7814441,N,12132.4519363,E,4,54,0.52,16.696,M,15.25,M,1,3335*45
$GNRMC,041019.300,A,2500.7814441,N,12132.4519363,E,0.03,317.42,090324,,,R,V*1B
$GPHDT,,T*1B
$GNACCURACY,3.0*15
$GNGGA,041019.400,2500.7814435,N,12132.4519392,E,4,54,0.52,16.701,M,15.25,M,1,3335*40
$GNRMC,041019.400,A,2500.7814435,N,12132.4519392,E,0.03,317.42,090324,,,R,V*11
$GPHDT,,T*1B
$GNACCURACY,3.0*15
$GNGGA,041019.500,2500.7814313,N,12132.4519247,E,4,54,0.52,16.636,M,15.25,M,1,3335*4E
$GNRMC,041019.500,A,2500.7814313,N,12132.4519247,E,0.03,317.42,090324,,,R,V*1A
$GPHDT,,T*1B
$GNACCURACY,2.9*1D
$GNGGA,041019.600,2500.7814312,N,12132.4519265,E,4,54,0.52,16.645,M,15.25,M,0,3335*49
$GNRMC,041019.600,A,2500.7814312,N,12132.4519265,E,0.02,317.42,090324,,,R,V*19
$GPHDT,,T*1B
$GNACCURACY,2.9*1D
$GNGGA,041019.700,2500.7814384,N,12132.4519287,E,4,54,0.52,16.641,M,15.25,M,0,3335*4F
$GNRMC,041019.700,A,2500.7814384,N,12132.4519287,E,0.02,317.42,090324,,,R,V*1B
$GPHDT,,T*1B
$GNACCURACY,2.9*1D
$GNGGA,041019.800,2500.7814390,N,12132.4519337,E,4,54,0.52,16.641,M,15.25,M,0,3335*4F
$GNRMC,041019.800,A,2500.7814390,N,12132.4519337,E,0.02,317.42,090324,,,R,V*1B
$GPHDT,,T*1B
$GNACCURACY,2.9*1D
$GNGGA,041019.900,2500.7814434,N,12132.4519371,E,4,54,0.52,16.624,M,15.25,M,0,3335*46
$GNRMC,041019.900,A,2500.7814434,N,12132.4519371,E,0.02,317.42,090324,,,R,V*11
$GPHDT,,T*1B
$GNACCURACY,2.9*1D
$GNGGA,041020.000,2500.7814453,N,12132.4519395,E,4,55,0.52,16.634,M,15.25,M,1,3335*4F
$GNRMC,041020.000,A,2500.7814453,N,12132.4519395,E,0.02,317.42,090324,,,R,V*19
$GPHDT,,T*1B
$GNACCURACY,2.9*1D
$GNGGA,041020.100,2500.7814459,N,12132.4519392,E,4,55,0.52,16.640,M,15.25,M,1,3335*40
$GNRMC,041020.100,A,2500.7814459,N,12132.4519392,E,0.02,317.42,090324,,,R,V*15
$GPHDT,,T*1B
$GNGSA,A,3,195,194,08,21,199,02,07,27,16,09,196,30,0.91,0.52,0.75,1*04
$GNGSA,A,3,81,78,88,79,77,,,,,,,,0.91,0.52,0.75,2*07
$GNGSA,A,3,13,21,26,27,15,,,,,,,,0.91,0.52,0.75,3*0A
$GNGSA,A,3,23,09,06,16,40,07,43,39,28,10,25,37,0.91,0.52,0.75,4*06
$GNGSA,A,3,34,,,,,,,,,,,,0.91,0.52,0.75,4*0E
$GPGSV,4,1,15,195,65,114,43,194,64,052,32,08,62,356,42,50,60,167,29,1*62
$GPGSV,4,2,15,21,60,155,40,199,60,167,26,02,49,176,35,07,42,316,37,1*5D
$GPGSV,4,3,15,27,32,036,28,16,27,076,30,09,23,246,20,196,19,169,20,1*5C
$GPGSV,4,4,15,04,17,202,14,30,11,320,31,26,08,100,17,1*5C
$GPGSV,2,1,08,195,65,114,42,194,64,052,34,08,62,356,43,199,60,167,31,8*5A
$GPGSV,2,2,08,09,23,246,15,196,19,169,25,30,11,320,35,26,08,100,19,8*57
$GLGSV,2,1,06,81,65,201,36,78,57,039,29,88,55,031,18,79,26,334,32,1*79
$GLGSV,2,2,06,77,23,111,27,87,02,026,,1*72
$GAGSV,2,1,08,13,55,080,32,21,55,012,25,26,44,172,26,27,28,080,37,7*73
$GAGSV,2,2,08,19,27,240,,15,13,038,27,04,12,299,,33,04,199,,7*78
$GAGSV,2,1,05,13,55,080,33,21,55,012,33,26,44,172,25,27,28,080,36,1*7C
$GAGSV,2,2,05,15,13,038,21,1*4E
$GBGSV,4,1,13,23,74,033,35,09,73,265,37,06,71,214,34,16,68,199,33,1*75
$GBGSV,4,2,13,40,60,329,42,07,60,308,41,43,58,036,30,39,57,187,41,1*7E
$GBGSV,4,3,13,28,56,222,37,10,51,290,37,25,37,118,44,37,30,322,40,1*7D
$GBGSV,4,4,13,34,11,040,31,1*45
$GBGSV,2,1,08,23,74,033,38,40,60,329,42,43,58,036,17,39,57,187,35,4*74
$GBGSV,2,2,08,28,56,222,29,25,37,118,42,37,30,322,35,34,11,040,24,4*71
$GNACCURACY,3.0*15
$PAIRSAT,1,35,2,0,201,3,0,200,4,0,221,5,0,200,6,0,200,7,0,201,8,0,221,9,0,220,10,0,200,11,0,200,12,0,200,13,0,200,14,0,200,15,0,200,16,0,201,17,0,200,18,0,200,19,0,200,20,0,200,21,0,201,22,0,200,23,0,200,24,0,200,25,0,200,26,0,220,27,0,221,28,0,200,29,0,200,30,0,221,31,0,200,32,0,200,194,0,621,195,0,621,196,0,620,199,0,621*5A
$PAIRSAT,2,24,65,0,200,66,0,200,67,0,200,68,0,200,69,0,200,70,0,200,71,0,200,72,0,200,73,0,200,74,0,200,75,0,200,76,0,200,77,0,201,78,0,201,79,0,201,80,0,200,81,0,201,82,0,200,83,0,200,84,0,200,85,0,200,86,0,200,87,0,201,88,0,201*7A
$PAIRSAT,3,23,2,0,1200,3,0,1200,4,0,1200,5,0,200,7,0,1200,8,0,1200,9,0,1200,10,0,1200,11,0,1200,12,0,1200,13,0,1221,15,0,1220,19,0,1201,21,0,1221,24,0,1200,25,0,1200,26,0,1221,27,0,1221,30,0,1200,31,0,1200,33,0,1200,34,0,1000,36,0,1200*6B
$PAIRSAT,4,46,1,0,200,2,0,200,3,0,600,4,0,200,5,0,200,6,0,201,7,0,201,8,0,200,9,0,201,10,0,201,11,0,200,12,0,200,13,0,200,14,0,200,16,0,201,19,0,600,20,0,600,21,0,600,22,0,600,23,0,621,24,0,600,25,0,621,26,0,600,27,0,600,28,0,621,29,0,600,30,0,600,32,0,600,33,0,600,34,0,621,35,0,600,36,0,600,37,0,621,38,0,600,39,0,621,40,0,621,41,0,400,42,0,400,43,0,421,44,0,400,45,0,400,46,0,400,59,0,400,60,0,400,61,0,400,62,0,400*48
$PAIRDGP,10,2,4,7,8,9,16,21,26,27,30*42
$GNGGA,041020.200,2500.7814410,N,12132.4519344,E,4,55,0.52,16.629,M,15.25,M,1,3335*4A
$GNRMC,041020.200,A,2500.7814410,N,12132.4519344,E,0.02,317.42,090324,,,R,V*10
$GPHDT,,T*1B
$GNACCURACY,3.0*15
$GNGGA,041020.300,2500.7814411,N,12132.4519347,E,4,55,0.52,16.628,M,15.25,M,1,3335*48
$GNRMC,041020.300,A,2500.7814411,N,12132.4519347,E,0.02,317.42,090324,,,R,V*13
$GPHDT,,T*1B
$GNACCURACY,3.0*15
$GNGGA,041020.400,2500.7814440,N,12132.4519355,E,4,55,0.52,16.632,M,15.25,M,1,3335*43
$GNRMC,041020.400,A,2500.7814440,N,12132.4519355,E,0.02,317.42,090324,,,R,V*13
$GPHDT,,T*1B
$GNACCURACY,3.0*15
$GNGGA,041020.500,2500.7814411,N,12132.4519349,E,4,55,0.52,16.651,M,15.25,M,1,3335*4E
$GNRMC,041020.500,A,2500.7814411,N,12132.4519349,E,0.02,317.42,090324,,,R,V*1B
$GPHDT,,T*1B
$GNACCURACY,3.0*15
$GNGGA,041020.600,2500.7814332,N,12132.4519260,E,4,55,0.52,16.652,M,15.25,M,1,3335*42
$GNRMC,041020.600,A,2500.7814332,N,12132.4519260,E,0.02,317.42,090324,,,R,V*14
$GPHDT,,T*1B
$GNACCURACY,3.0*15
$GNGGA,041020.700,2500.7814299,N,12132.4519248,E,4,55,0.52,16.618,M,15.25,M,0,3335*46
$GNRMC,041020.700,A,2500.7814299,N,12132.4519248,E,0.02,317.42,090324,,,R,V*1F
$GPHDT,,T*1B
$GNACCURACY,3.0*15
$GNGGA,041020.800,2500.7814459,N,12132.4519405,E,4,55,0.52,16.687,M,15.25,M,0,3335*4A
$GNRMC,041020.800,A,2500.7814459,N,12132.4519405,E,0.02,317.42,090324,,,R,V*15
$GPHDT,,T*1B
$GNACCURACY,3.0*15
$GNGGA,041020.900,2500.7814478,N,12132.4519375,E,4,55,0.52,16.693,M,15.25,M,0,3335*4D
$GNRMC,041020.900,A,2500.7814478,N,12132.4519375,E,0.02,317.42,090324,,,R,V*17
$GPHDT,,T*1B
$GNACCURACY,3.0*15
$GNGGA,041021.000,2500.7814305,N,12132.4519277,E,4,55,0.52,16.636,M,15.25,M,1,3335*45
$GNRMC,041021.000,A,2500.7814305,N,12132.4519277,E,0.02,317.42,090324,,,R,V*11
$GPHDT,,T*1B
$GNACCURACY,3.0*15
$GNGGA,041021.100,2500.7814334,N,12132.4519324,E,4,55,0.52,16.634,M,15.25,M,1,3335*43
$GNRMC,041021.100,A,2500.7814334,N,12132.4519324,E,0.02,317.42,090324,,,R,V*15
$GPHDT,,T*1B
$GNGSA,A,3,195,194,08,21,199,02,07,27,16,09,196,30,0.91,0.52,0.75,1*04
$GNGSA,A,3,81,78,88,79,77,,,,,,,,0.91,0.52,0.75,2*07
$GNGSA,A,3,13,21,26,27,15,,,,,,,,0.91,0.52,0.75,3*0A
$GNGSA,A,3,23,09,06,16,40,07,43,39,28,10,25,37,0.91,0.52,0.75,4*06
$GNGSA,A,3,34,,,,,,,,,,,,0.91,0.52,0.75,4*0E
$GPGSV,4,1,15,195,65,114,43,194,64,052,33,08,62,356,42,50,60,167,30,1*6B
$GPGSV,4,2,15,21,60,155,41,199,60,167,29,02,49,176,36,07,42,316,38,1*5F
$GPGSV,4,3,15,27,32,036,29,16,27,076,25,09,23,246,19,196,19,169,20,1*53
$GPGSV,4,4,15,04,17,202,17,30,11,320,34,26,08,100,17,1*5A
$GPGSV,2,1,08,195,65,114,43,194,64,052,35,08,62,356,43,199,60,167,35,8*5E
$GPGSV,2,2,08,09,23,246,11,196,19,169,24,30,11,320,34,26,08,100,19,8*53
$GLGSV,2,1,06,81,65,201,41,78,57,039,31,88,55,031,18,79,26,334,31,1*73
$GLGSV,2,2,06,77,23,111,26,87,02,026,,1*73
$GAGSV,2,1,08,13,55,080,32,21,55,012,21,26,44,172,29,27,28,080,38,7*77
$GAGSV,2,2,08,19,27,240,,15,13,038,26,04,12,299,,33,04,199,,7*79
$GAGSV,2,1,05,13,55,080,33,21,55,012,34,26,44,172,28,27,28,080,36,1*76
$GAGSV,2,2,05,15,13,038,22,1*4D
$GBGSV,4,1,13,23,74,033,36,09,73,265,39,06,71,214,35,16,68,199,40,1*7D
$GBGSV,4,2,13,40,60,329,42,07,60,308,41,43,58,036,20,39,57,187,45,1*7B
$GBGSV,4,3,13,28,56,222,43,10,51,290,39,25,37,118,44,37,30,322,41,1*71
$GBGSV,4,4,13,34,11,040,26,1*43
$GBGSV,2,1,08,23,74,033,35,40,60,329,42,43,58,036,19,39,57,187,36,4*74
$GBGSV,2,2,08,28,56,222,40,25,37,118,43,37,30,322,25,34,11,040,24,4*7E
$GNACCURACY,3.0*15
$PAIRSAT,1,35,2,0,201,3,0,200,4,0,221,5,0,200,6,0,200,7,0,201,8,0,221,9,0,220,10,0,200,11,0,200,12,0,200,13,0,200,14,0,200,15,0,200,16,0,201,17,0,200,18,0,200,19,0,200,20,0,200,21,0,201,22,0,200,23,0,200,24,0,200,25,0,200,26,0,220,27,0,221,28,0,200,29,0,200,30,0,221,31,0,200,32,0,200,194,0,621,195,0,621,196,0,620,199,0,621*5A
$PAIRSAT,2,24,65,0,200,66,0,200,67,0,200,68,0,200,69,0,200,70,0,200,71,0,200,72,0,200,73,0,200,74,0,200,75,0,200,76,0,200,77,0,201,78,0,201,79,0,201,80,0,200,81,0,201,82,0,200,83,0,200,84,0,200,85,0,200,86,0,200,87,0,201,88,0,201*7A
$PAIRSAT,3,23,2,0,1200,3,0,1200,4,0,1200,5,0,200,7,0,1200,8,0,1200,9,0,1200,10,0,1200,11,0,1200,12,0,1200,13,0,1221,15,0,1220,19,0,1201,21,0,1221,24,0,1200,25,0,1200,26,0,1221,27,0,1221,30,0,1200,31,0,1200,33,0,1200,34,0,1000,36,0,1200*6B
$PAIRSAT,4,46,1,0,200,2,0,200,3,0,600,4,0,200,5,0,200,6,0,201,7,0,201,8,0,200,9,0,201,10,0,201,11,0,200,12,0,200,13,0,200,14,0,200,16,0,201,19,0,600,20,0,600,21,0,600,22,0,600,23,0,621,24,0,600,25,0,621,26,0,600,27,0,600,28,0,621,29,0,600,30,0,600,32,0,600,33,0,600,34,0,621,35,0,600,36,0,600,37,0,621,38,0,600,39,0,621,40,0,621,41,0,400,42,0,400,43,0,421,44,0,400,45,0,400,46,0,400,59,0,400,60,0,400,61,0,400,62,0,400*48
$PAIRDGP,10,2,4,7,8,9,16,21,26,27,30*42
$GNGGA,041021.200,2500.7814289,N,12132.4519279,E,4,55,0.52,16.622,M,15.25,M,1,3335*49
$GNRMC,041021.200,A,2500.7814289,N,12132.4519279,E,0.02,317.42,090324,,,R,V*18
$GPHDT,,T*1B
$GNACCURACY,3.0*15
$GNGGA,041021.300,2500.7814295,N,12132.4519287,E,4,55,0.52,16.633,M,15.25,M,1,3335*44
$GNRMC,041021.300,A,2500.7814295,N,12132.4519287,E,0.02,317.42,090324,,,R,V*15
$GPHDT,,T*1B
$GNACCURACY,2.9*1D
$GNGGA,041021.400,2500.7814312,N,12132.4519291,E,4,55,0.52,16.635,M,15.25,M,1,3335*4C
$GNRMC,041021.400,A,2500.7814312,N,12132.4519291,E,0.01,317.42,090324,,,R,V*18
$GPHDT,,T*1B
$GNACCURACY,2.9*1D
$GNGGA,041021.500,2500.7814345,N,12132.4519306,E,4,57,0.50,16.660,M,15.25,M,0,3335*41
$GNRMC,041021.500,A,2500.7814345,N,12132.4519306,E,0.01,317.42,090324,,,R,V*14
$GPHDT,,T*1B
$GNACCURACY,2.9*1D
$GNGGA,041021.600,2500.7814325,N,12132.4519275,E,4,57,0.50,16.638,M,15.25,M,0,3335*4C
$GNRMC,041021.600,A,2500.7814325,N,12132.4519275,E,0.01,317.42,090324,,,R,V*14
$GPHDT,,T*1B
$GNACCURACY,2.9*1D
$GNGGA,041021.700,2500.7814311,N,12132.4519295,E,4,56,0.50,16.635,M,15.25,M,0,3335*48
$GNRMC,041021.700,A,2500.7814311,N,12132.4519295,E,0.01,317.42,090324,,,R,V*1C
$GPHDT,,T*1B
$GNACCURACY,2.9*1D
$GNGGA,041021.800,2500.7814381,N,12132.4519307,E,4,56,0.50,16.646,M,15.25,M,0,3335*40
$GNRMC,041021.800,A,2500.7814381,N,12132.4519307,E,0.01,317.42,090324,,,R,V*10
$GPHDT,,T*1B
$GNACCURACY,2.9*1D
$GNGGA,041021.900,2500.7814349,N,12132.4519277,E,4,56,0.50,16.634,M,15.25,M,0,3335*46
$GNRMC,041021.900,A,2500.7814349,N,12132.4519277,E,0.01,317.42,090324,,,R,V*13
$GPHDT,,T*1B
$GNACCURACY,2.9*1D
$GNGGA,041022.000,2500.7814357,N,12132.4519305,E,4,56,0.50,16.639,M,15.25,M,1,3335*4B
$GNRMC,041022.000,A,2500.7814357,N,12132.4519305,E,0.01,317.42,090324,,,R,V*12
$GPHDT,,T*1B
$GNACCURACY,2.9*1D
$GNGGA,041022.100,2500.7814373,N,12132.4519305,E,4,55,0.50,16.635,M,15.25,M,1,3335*43
$GNRMC,041022.100,A,2500.7814373,N,12132.4519305,E,0.01,317.42,090324,,,R,V*15
$GPHDT,,T*1B
$GNGSA,A,3,195,194,08,21,199,02,07,27,09,196,04,30,0.87,0.50,0.71,1*06
$GNGSA,A,3,81,78,88,79,77,,,,,,,,0.87,0.50,0.71,2*06
$GNGSA,A,3,13,21,26,27,15,,,,,,,,0.87,0.50,0.71,3*0B
$GNGSA,A,3,23,09,06,16,40,07,39,28,10,25,37,34,0.87,0.50,0.71,4*07
$GNGSA,A,3,43,,,,,,,,,,,,0.87,0.50,0.71,4*0F
$GPGSV,4,1,15,195,65,114,43,194,64,052,34,08,62,356,42,50,60,167,28,1*65
$GPGSV,4,2,15,21,60,155,40,199,60,167,26,02,49,176,36,07,42,316,38,1*51
$GPGSV,4,3,15,27,32,036,30,16,27,076,24,09,23,246,18,196,19,169,21,1*5A
$GPGSV,4,4,15,04,17,202,17,30,11,320,34,26,08,100,16,1*5B
$GPGSV,3,1,09,195,65,114,43,194,64,052,36,08,62,356,42,199,60,167,37,8*5E
$GPGSV,3,2,09,09,23,246,14,196,19,169,21,04,17,202,17,30,11,320,35,8*53
$GPGSV,3,3,09,26,08,100,17,8*5F
$GLGSV,2,1,06,81,65,201,41,78,57,039,31,88,55,031,21,79,26,334,33,1*7B
$GLGSV,2,2,06,77,23,111,26,87,02,026,,1*73
$GAGSV,2,1,08,13,55,080,30,21,55,012,20,26,44,172,29,27,28,080,38,7*74
$GAGSV,2,2,08,19,27,240,,15,13,038,26,04,12,299,,33,04,199,,7*79
$GAGSV,2,1,05,13,55,080,33,21,55,012,35,26,44,172,30,27,28,080,36,1*7E
$GAGSV,2,2,05,15,13,038,22,1*4D
$GBGSV,4,1,13,23,74,033,37,09,73,265,39,06,71,214,36,16,68,199,40,1*7F
$GBGSV,4,2,13,40,60,329,41,07,60,308,40,43,58,036,18,39,57,187,45,1*72
$GBGSV,4,3,13,28,56,222,42,10,51,290,40,25,37,118,44,37,30,322,41,1*7E
$GBGSV,4,4,13,34,11,040,34,1*40
$GBGSV,2,1,08,23,74,033,35,40,60,329,42,43,58,036,19,39,57,187,37,4*75
$GBGSV,2,2,08,28,56,222,41,25,37,118,43,37,30,322,32,34,11,040,18,4*76
$GNACCURACY,2.9*1D
$PAIRSAT,1,35,2,0,201,3,0,200,4,0,221,5,0,200,6,0,200,7,0,201,8,0,221,9,0,220,10,0,200,11,0,200,12,0,200,13,0,200,14,0,200,15,0,200,16,0,201,17,0,200,18,0,200,19,0,200,20,0,200,21,0,201,22,0,200,23,0,200,24,0,200,25,0,200,26,0,220,27,0,221,28,0,200,29,0,200,30,0,221,31,0,200,32,0,200,194,0,621,195,0,621,196,0,620,199,0,621*5A
$PAIRSAT,2,24,65,0,200,66,0,200,67,0,200,68,0,200,69,0,200,70,0,200,71,0,200,72,0,200,73,0,200,74,0,200,75,0,200,76,0,200,77,0,201,78,0,201,79,0,201,80,0,200,81,0,201,82,0,200,83,0,200,84,0,200,85,0,200,86,0,200,87,0,201,88,0,201*7A
$PAIRSAT,3,23,2,0,1200,3,0,1200,4,0,1200,5,0,200,7,0,1200,8,0,1200,9,0,1200,10,0,1200,11,0,1200,12,0,1200,13,0,1221,15,0,1220,19,0,1201,21,0,1221,24,0,1200,25,0,1200,26,0,1221,27,0,1221,30,0,1200,31,0,1200,33,0,1200,34,0,1000,36,0,1200*6B
$PAIRSAT,4,46,1,0,200,2,0,200,3,0,600,4,0,200,5,0,200,6,0,201,7,0,201,8,0,200,9,0,201,10,0,201,11,0,200,12,0,200,13,0,200,14,0,200,16,0,201,19,0,600,20,0,600,21,0,600,22,0,600,23,0,621,24,0,600,25,0,621,26,0,600,27,0,600,28,0,621,29,0,600,30,0,600,32,0,600,33,0,600,34,0,621,35,0,600,36,0,600,37,0,621,38,0,600,39,0,621,40,0,621,41,0,400,42,0,400,43,0,421,44,0,400,45,0,400,46,0,400,59,0,400,60,0,400,61,0,400,62,0,400*48
$PAIRDGP,10,2,4,7,8,9,16,21,26,27,30*42
$GNGGA,041022.200,2500.7814377,N,12132.4519295,E,4,55,0.50,16.644,M,15.25,M,1,3335*4A
$GNRMC,041022.200,A,2500.7814377,N,12132.4519295,E,0.01,317.42,090324,,,R,V*1A
$GPHDT,,T*1B
$GNACCURACY,2.9*1D
$GNGGA,041022.300,2500.7814466,N,12132.4519368,E,4,55,0.50,16.681,M,15.25,M,1,3335*46
$GNRMC,041022.300,A,2500.7814466,N,12132.4519368,E,0.01,317.42,090324,,,R,V*1F
$GPHDT,,T*1B
$GNACCURACY,2.9*1D
$GNGGA,041022.400,2500.7814499,N,12132.4519390,E,4,56,0.50,16.677,M,15.25,M,1,3335*4C
$GNRMC,041022.400,A,2500.7814499,N,12132.4519390,E,0.01,317.42,090324,,,R,V*1F
$GPHDT,,T*1B
$GNACCURACY,2.9*1D
$GNGGA,041022.500,2500.7814331,N,12132.4519246,E,4,56,0.50,16.617,M,15.25,M,0,3335*45
$GNRMC,041022.500,A,2500.7814331,N,12132.4519246,E,0.01,317.42,090324,,,R,V*11
$GPHDT,,T*1B
$GNACCURACY,2.9*1D
$GNGGA,041022.600,2500.7814394,N,12132.4519313,E,4,56,0.50,16.645,M,15.25,M,0,3335*4F
$GNRMC,041022.600,A,2500.7814394,N,12132.4519313,E,0.01,317.42,090324,,,R,V*1C
$GPHDT,,T*1B
$GNACCURACY,2.9*1D
$GNGGA,041022.700,2500.7814508,N,12132.4519387,E,4,56,0.50,16.678,M,15.25,M,0,3335*4E
$GNRMC,041022.700,A,2500.7814508,N,12132.4519387,E,0.01,317.42,090324,,,R,V*13
$GPHDT,,T*1B
$GNACCURACY,2.9*1D
$GNGGA,041022.800,2500.7814372,N,12132.4519275,E,4,56,0.50,16.622,M,15.25,M,0,3335*49
$GNRMC,041022.800,A,2500.7814372,N,12132.4519275,E,0.01,317.42,090324,,,R,V*1B
$GPHDT,,T*1B
$GNACCURACY,2.9*1D
$GNGGA,041022.900,2500.7814410,N,12132.4519312,E,4,57,0.50,16.644,M,15.25,M,0,3335*4A
$GNRMC,041022.900,A,2500.7814410,N,12132.4519312,E,0.01,317.42,090324,,,R,V*19
$GPHDT,,T*1B
$GNACCURACY,2.9*1D
$GNGGA,041023.000,2500.7814383,N,12132.4519291,E,4,57,0.50,16.626,M,15.25,M,1,3335*40
$GNRMC,041023.000,A,2500.7814383,N,12132.4519291,E,0.01,317.42,090324,,,R,V*16
$GPHDT,,T*1B
$GNACCURACY,2.9*1D
$GNGGA,041023.100,2500.7814388,N,12132.4519294,E,4,57,0.50,16.634,M,15.25,M,1,3335*4C
$GNRMC,041023.100,A,2500.7814388,N,12132.4519294,E,0.01,317.42,090324,,,R,V*19
$GPHDT,,T*1B
$GNGSA,A,3,195,194,08,21,199,02,07,27,16,09,196,04,0.86,0.50,0.70,1*02
$GNGSA,A,3,30,,,,,,,,,,,,0.86,0.50,0.70,1*0E
$GNGSA,A,3,81,78,88,79,77,,,,,,,,0.86,0.50,0.70,2*06
$GNGSA,A,3,21,13,26,27,15,,,,,,,,0.86,0.50,0.70,3*0B
$GNGSA,A,3,23,09,06,16,07,40,43,39,28,10,25,37,0.86,0.50,0.70,4*07
$GNGSA,A,3,34,,,,,,,,,,,,0.86,0.50,0.70,4*0F
$GPGSV,4,1,15,195,65,114,43,194,64,052,35,08,62,356,42,50,60,167,29,1*65
$GPGSV,4,2,15,21,60,155,40,199,60,167,26,02,49,176,37,07,42,316,38,1*50
$GPGSV,4,3,15,27,32,036,30,16,27,076,28,09,23,246,18,196,19,169,22,1*55
$GPGSV,4,4,15,04,17,202,17,30,11,320,34,26,08,100,16,1*5B
$GPGSV,3,1,09,195,65,114,43,194,64,052,36,08,62,356,42,199,60,167,38,8*51
$GPGSV,3,2,09,09,23,246,14,196,19,169,20,04,17,202,18,30,11,320,35,8*5D
$GPGSV,3,3,09,26,08,100,17,8*5F
$GLGSV,2,1,07,81,65,201,41,78,57,039,31,88,55,031,22,79,26,334,30,1*7A
$GLGSV,2,2,07,77,23,111,26,69,03,280,,87,02,026,,1*44
$GAGSV,2,1,08,21,55,012,19,13,55,080,30,26,44,172,28,27,28,080,38,7*7F
$GAGSV,2,2,08,19,27,240,,15,13,038,28,04,12,299,,33,04,199,,7*77
$GAGSV,2,1,05,13,55,080,33,21,55,012,35,26,44,172,30,27,28,080,36,1*7E
$GAGSV,2,2,05,15,13,038,21,1*4E
$GBGSV,4,1,13,23,74,033,37,09,73,265,39,06,71,214,37,16,68,199,40,1*7E
$GBGSV,4,2,13,07,60,308,40,40,60,329,41,43,58,036,23,39,57,187,45,1*7A
$GBGSV,4,3,13,28,56,222,42,10,51,290,40,25,37,118,44,37,30,322,41,1*