$FW : RTK35X,V1.1X0314AS,Lib20210517,1*54
$Tool : LOCOSYS , GNSS Firebird , v1.0.0.19*39
$---------------------------------------------------*2D
$GNACCURACY,3.5*10
$GNGGA,041307.000,2500.7853936,N,12132.4478965,E,4,57,0.48,16.726,M,15.25,M,1,3335*4C
$GNRMC,041307.000,A,2500.7853936,N,12132.4478965,E,0.01,317.03,090324,,,R,V*17
$GPHDT,136.920,T*3A
$GNACCURACY,3.6*13
$GNGGA,041307.100,2500.7853951,N,12132.4478970,E,4,57,0.48,16.731,M,15.25,M,1,3335*4E
$GNRMC,041307.100,A,2500.7853951,N,12132.4478970,E,0.02,317.03,090324,,,R,V*10
$GPHDT,,T*1B
$GNGSA,A,3,195,194,21,08,199,02,07,27,16,09,196,04,0.73,0.48,0.55,1*06
$GNGSA,A,3,30,,,,,,,,,,,,0.73,0.48,0.55,1*0A
$GNGSA,A,3,81,78,88,79,77,82,,,,,,,0.73,0.48,0.55,2*08
$GNGSA,A,3,21,13,26,27,15,,,,,,,,0.73,0.48,0.55,3*0F
$GNGSA,A,3,23,09,06,16,07,40,43,39,28,10,25,37,0.73,0.48,0.55,4*03
$GNGSA,A,3,34,,,,,,,,,,,,0.73,0.48,0.55,4*0B
$GPGSV,4,1,15,195,65,113,45,194,64,053,24,21,62,154,44,08,61,358,33,1*61
$GPGSV,4,2,15,199,60,167,37,50,60,167,40,02,50,176,44,07,43,315,45,1*53
$GPGSV,4,3,15,27,31,037,32,16,27,077,28,09,23,244,18,196,19,169,18,1*5F
$GPGSV,4,4,15,04,16,201,16,30,12,320,20,26,07,101,22,1*57
$GPGSV,3,1,09,195,65,113,45,194,64,053,35,08,61,358,42,199,60,167,45,8*55
$GPGSV,3,2,09,27,31,037,26,09,23,244,18,196,19,169,21,30,12,320,40,8*5F
$GPGSV,3,3,09,26,07,101,24,8*51
$GLGSV,2,1,07,81,67,203,42,78,57,041,28,88,53,030,31,79,27,335,45,1*79
$GLGSV,2,2,07,77,22,112,30,82,17,205,31,87,01,026,,1*4D
$GAGSV,2,1,06,21,55,014,39,13,54,078,23,26,45,172,33,27,28,081,23,7*71
$GAGSV,2,2,06,19,26,240,,15,13,038,18,7*7B
$GAGSV,2,1,05,21,55,014,39,13,54,078,17,26,45,172,39,27,28,081,21,1*7B
$GAGSV,2,2,05,15,13,038,19,1*45
$GBGSV,4,1,13,23,74,037,41,09,72,263,36,06,70,214,41,16,67,199,41,1*7D
$GBGSV,4,2,13,07,60,309,38,40,60,330,41,43,57,036,31,39,57,188,39,1*74
$GBGSV,4,3,13,28,57,223,39,10,51,290,34,25,36,119,46,37,31,322,44,1*77
$GBGSV,4,4,13,34,10,040,18,1*4F
$GBGSV,2,1,08,23,74,037,40,40,60,330,37,39,57,188,39,43,57,036,25,4*78
$GBGSV,2,2,08,28,57,223,40,25,36,119,43,37,31,322,42,34,10,040,20,4*7B
$GNACCURACY,3.6*13
$PAIRSAT,1,35,2,0,201,3,0,200,4,0,221,5,0,200,6,0,200,7,0,201,8,0,221,9,0,220,10,0,200,11,0,200,12,0,200,13,0,200,14,0,200,15,0,200,16,0,201,17,0,200,18,0,200,19,0,200,20,0,200,21,0,201,22,0,200,23,0,200,24,0,200,25,0,200,26,0,220,27,0,221,28,0,200,29,0,200,30,0,221,31,0,200,32,0,200,194,0,621,195,0,621,196,0,620,199,0,621*5A
$PAIRSAT,2,24,65,0,200,66,0,200,67,0,200,68,0,200,69,0,200,70,0,200,71,0,200,72,0,200,73,0,200,74,0,200,75,0,200,76,0,200,77,0,201,78,0,201,79,0,201,80,0,200,81,0,201,82,0,201,83,0,200,84,0,200,85,0,200,86,0,200,87,0,201,88,0,201*7B
$PAIRSAT,3,23,2,0,1200,3,0,1200,4,0,1200,5,0,200,7,0,1200,8,0,1200,9,0,1200,10,0,1200,11,0,1200,12,0,1200,13,0,1221,15,0,1220,19,0,1201,21,0,1221,24,0,1200,25,0,1200,26,0,1221,27,0,1221,30,0,1200,31,0,1200,33,0,1200,34,0,1000,36,0,1200*6B
$PAIRSAT,4,46,1,0,200,2,0,200,3,0,600,4,0,200,5,0,200,6,0,201,7,0,201,8,0,200,9,0,201,10,0,201,11,0,200,12,0,200,13,0,200,14,0,200,16,0,201,19,0,600,20,0,600,21,0,600,22,0,600,23,0,621,24,0,600,25,0,621,26,0,600,27,0,600,28,0,621,29,0,600,30,0,600,32,0,600,33,0,600,34,0,621,35,0,600,36,0,600,37,0,621,38,0,600,39,0,621,40,0,621,41,0,600,42,0,600,43,0,621,44,0,400,45,0,400,46,0,400,59,0,400,60,0,400,61,0,400,62,0,400*4A
$PAIRDGP,10,2,4,7,8,9,16,21,26,27,30*42
$GNGGA,041307.200,2500.7853954,N,12132.4478958,E,4,57,0.48,16.742,M,15.25,M,1,3335*46
$GNRMC,041307.200,A,2500.7853954,N,12132.4478958,E,0.02,317.03,090324,,,R,V*1C
$GPHDT,136.376,T*33
$GNACCURACY,3.6*13
$GNGGA,041307.300,2500.7853958,N,12132.4478997,E,4,57,0.48,16.734,M,15.25,M,1,3335*49
$GNRMC,041307.300,A,2500.7853958,N,12132.4478997,E,0.02,317.03,090324,,,R,V*12
$GPHDT,,T*1B
$GNACCURACY,3.6*13
$GNGGA,041307.400,2500.7853965,N,12132.4479030,E,4,57,0.48,16.712,M,15.25,M,1,3335*41
$GNRMC,041307.400,A,2500.7853965,N,12132.4479030,E,0.01,317.03,090324,,,R,V*1D
$GPHDT,137.279,T*3C
$GNACCURACY,3.6*13
$GNGGA,041307.500,2500.7853922,N,12132.4479028,E,4,57,0.48,16.704,M,15.25,M,0,3335*4C
$GNRMC,041307.500,A,2500.7853922,N,12132.4479028,E,0.02,317.03,090324,,,R,V*15
$GPHDT,,T*1B
$GNACCURACY,3.6*13
$GNGGA,041307.600,2500.7853929,N,12132.4479032,E,4,57,0.48,16.701,M,15.25,M,0,3335*4A
$GNRMC,041307.600,A,2500.7853929,N,12132.4479032,E,0.02,317.03,090324,,,R,V*16
$GPHDT,136.982,T*32
$GNACCURACY,3.6*13
$GNGGA,041307.700,2500.7853933,N,12132.4479048,E,4,57,0.48,16.701,M,15.25,M,0,3335*4D
$GNRMC,041307.700,A,2500.7853933,N,12132.4479048,E,0.02,317.03,090324,,,R,V*11
$GPHDT,,T*1B
$GNACCURACY,3.6*13
$GNGGA,041307.800,2500.7853918,N,12132.4478985,E,4,57,0.48,16.711,M,15.25,M,0,3335*43
$GNRMC,041307.800,A,2500.7853918,N,12132.4478985,E,0.02,317.03,090324,,,R,V*1E
$GPHDT,135.725,T*32
$GNACCURACY,3.6*13
$GNGGA,041307.900,2500.7853927,N,12132.4478996,E,4,57,0.48,16.709,M,15.25,M,0,3335*45
$GNRMC,041307.900,A,2500.7853927,N,12132.4478996,E,0.02,317.03,090324,,,R,V*11
$GPHDT,,T*1B
$GNACCURACY,3.6*13
$GNGGA,041308.000,2500.7853918,N,12132.4479010,E,4,56,0.49,16.703,M,15.25,M,1,3335*42
$GNRMC,041308.000,A,2500.7853918,N,12132.4479010,E,0.02,317.03,090324,,,R,V*1D
$GPHDT,135.602,T*36
$GNACCURACY,3.6*13
$GNGGA,041308.100,2500.7853950,N,12132.4479020,E,4,56,0.49,16.713,M,15.25,M,1,3335*4D
$GNRMC,041308.100,A,2500.7853950,N,12132.4479020,E,0.02,317.03,090324,,,R,V*13
$GPHDT,,T*1B
$GNGSA,A,3,195,194,21,08,199,02,07,27,09,196,04,30,0.74,0.49,0.56,1*07
$GNGSA,A,3,81,78,88,79,77,82,,,,,,,0.74,0.49,0.56,2*0D
$GNGSA,A,3,21,13,26,27,15,,,,,,,,0.74,0.49,0.56,3*0A
$GNGSA,A,3,23,09,06,16,07,40,43,39,28,10,25,37,0.74,0.49,0.56,4*06
$GNGSA,A,3,34,,,,,,,,,,,,0.74,0.49,0.56,4*0E
$GPGSV,4,1,15,195,65,113,45,194,64,053,25,21,62,153,44,08,61,358,34,1*60
$GPGSV,4,2,15,199,60,167,37,50,60,167,40,02,50,176,44,07,43,315,45,1*53
$GPGSV,4,3,15,27,31,037,33,16,26,077,29,09,23,244,19,196,19,169,16,1*51
$GPGSV,4,4,15,04,16,201,16,30,12,320,18,26,07,101,21,1*5F
$GPGSV,3,1,09,195,65,113,45,194,64,053,35,08,61,358,42,199,60,167,45,8*55
$GPGSV,3,2,09,27,31,037,29,09,23,244,20,196,19,169,20,30,12,320,40,8*5A
$GPGSV,3,3,09,26,07,101,22,8*57
$GLGSV,2,1,07,81,67,203,43,78,57,041,28,88,53,030,31,79,27,335,45,1*78
$GLGSV,2,2,07,77,22,112,30,82,17,205,31,87,01,026,,1*4D
$GAGSV,2,1,06,21,55,014,39,13,54,078,24,26,45,172,31,27,28,081,21,7*76
$GAGSV,2,2,06,19,26,240,,15,13,038,19,7*7A
$GAGSV,2,1,05,21,55,014,40,13,54,078,17,26,45,172,40,27,28,081,22,1*78
$GAGSV,2,2,05,15,13,038,19,1*45
$GBGSV,4,1,13,23,74,037,41,09,72,263,36,06,70,214,41,16,67,199,41,1*7D
$GBGSV,4,2,13,07,60,309,39,40,60,330,41,43,57,036,31,39,57,188,39,1*75
$GBGSV,4,3,13,28,57,223,39,10,51,290,34,25,36,119,46,37,31,322,44,1*77
$GBGSV,4,4,13,34,10,040,19,1*4E
$GBGSV,2,1,08,23,74,037,40,40,60,330,38,39,57,188,39,43,57,036,28,4*7A
$GBGSV,2,2,08,28,57,223,41,25,36,119,43,37,31,322,41,34,10,040,20,4*79
$GNACCURACY,3.6*13
$PAIRSAT,1,35,2,0,201,3,0,200,4,0,221,5,0,200,6,0,200,7,0,201,8,0,221,9,0,220,10,0,200,11,0,200,12,0,200,13,0,200,14,0,200,15,0,200,16,0,201,17,0,200,18,0,200,19,0,200,20,0,200,21,0,201,22,0,200,23,0,200,24,0,200,25,0,200,26,0,220,27,0,221,28,0,200,29,0,200,30,0,221,31,0,200,32,0,200,194,0,621,195,0,621,196,0,620,199,0,621*5A
$PAIRSAT,2,24,65,0,200,66,0,200,67,0,200,68,0,200,69,0,200,70,0,200,71,0,200,72,0,200,73,0,200,74,0,200,75,0,200,76,0,200,77,0,201,78,0,201,79,0,201,80,0,200,81,0,201,82,0,201,83,0,200,84,0,200,85,0,200,86,0,200,87,0,201,88,0,201*7B
$PAIRSAT,3,23,2,0,1200,3,0,1200,4,0,1200,5,0,200,7,0,1200,8,0,1200,9,0,1200,10,0,1200,11,0,1200,12,0,1200,13,0,1221,15,0,1220,19,0,1201,21,0,1221,24,0,1200,25,0,1200,26,0,1221,27,0,1221,30,0,1200,31,0,1200,33,0,1200,34,0,1000,36,0,1200*6B
$PAIRSAT,4,46,1,0,200,2,0,200,3,0,600,4,0,200,5,0,200,6,0,201,7,0,201,8,0,200,9,0,201,10,0,201,11,0,200,12,0,200,13,0,200,14,0,200,16,0,201,19,0,600,20,0,600,21,0,600,22,0,600,23,0,621,24,0,600,25,0,621,26,0,600,27,0,600,28,0,621,29,0,600,30,0,600,32,0,600,33,0,600,34,0,621,35,0,600,36,0,600,37,0,621,38,0,600,39,0,621,40,0,621,41,0,600,42,0,600,43,0,621,44,0,400,45,0,400,46,0,400,59,0,400,60,0,400,61,0,400,62,0,400*4A
$PAIRDGP,10,2,4,7,8,9,16,21,26,27,30*42
$GNGGA,041308.200,2500.7853930,N,12132.4478994,E,4,56,0.49,16.720,M,15.25,M,1,3335*4F
$GNRMC,041308.200,A,2500.7853930,N,12132.4478994,E,0.02,317.03,090324,,,R,V*11
$GPHDT,135.833,T*3A
$GNACCURACY,3.6*13
$GNGGA,041308.300,2500.7853950,N,12132.4479026,E,4,57,0.48,16.723,M,15.25,M,1,3335*4A
$GNRMC,041308.300,A,2500.7853950,N,12132.4479026,E,0.02,317.03,090324,,,R,V*17
$GPHDT,,T*1B
$GNACCURACY,3.6*13
$GNGGA,041308.400,2500.7853926,N,12132.4479021,E,4,57,0.48,16.710,M,15.25,M,1,3335*4B
$GNRMC,041308.400,A,2500.7853926,N,12132.4479021,E,0.01,317.03,090324,,,R,V*15
$GPHDT,136.765,T*35
$GNACCURACY,3.6*13
$GNGGA,041308.500,2500.7853935,N,12132.4478986,E,4,57,0.48,16.720,M,15.25,M,1,3335*4E
$GNRMC,041308.500,A,2500.7853935,N,12132.4478986,E,0.01,317.03,090324,,,R,V*13
$GPHDT,,T*1B
$GNACCURACY,3.6*13
$GNGGA,041308.600,2500.7853926,N,12132.4478968,E,4,57,0.48,16.728,M,15.25,M,0,3335*46
$GNRMC,041308.600,A,2500.7853926,N,12132.4478968,E,0.01,317.03,090324,,,R,V*12
$GPHDT,135.160,T*35
$GNACCURACY,3.6*13
$GNGGA,041308.700,2500.7853955,N,12132.4478995,E,4,57,0.48,16.734,M,15.25,M,0,3335*4C
$GNRMC,041308.700,A,2500.7853955,N,12132.4478995,E,0.01,317.03,090324,,,R,V*15
$GPHDT,,T*1B
$GNACCURACY,3.6*13
$GNGGA,041308.800,2500.7853942,N,12132.4478977,E,4,57,0.48,16.726,M,15.25,M,0,3335*4A
$GNRMC,041308.800,A,2500.7853942,N,12132.4478977,E,0.01,317.03,090324,,,R,V*10
$GPHDT,134.783,T*3F
$GNACCURACY,3.6*13
$GNGGA,041308.900,2500.7853943,N,12132.4478959,E,4,57,0.48,16.718,M,15.25,M,0,3335*4B
$GNRMC,041308.900,A,2500.7853943,N,12132.4478959,E,0.01,317.03,090324,,,R,V*1C
$GPHDT,,T*1B
$GNACCURACY,3.6*13
$GNGGA,041309.000,2500.7853943,N,12132.4478994,E,4,57,0.48,16.732,M,15.25,M,1,3335*4B
$GNRMC,041309.000,A,2500.7853943,N,12132.4478994,E,0.02,317.03,090324,,,R,V*16
$GPHDT,135.049,T*3F
$GNACCURACY,3.6*13
$GNGGA,041309.100,2500.7853908,N,12132.4478949,E,4,57,0.48,16.731,M,15.25,M,1,3335*46
$GNRMC,041309.100,A,2500.7853908,N,12132.4478949,E,0.02,317.03,090324,,,R,V*18
$GPHDT,,T*1B
$GNGSA,A,3,195,194,21,08,199,02,07,27,16,09,196,04,0.73,0.48,0.55,1*06
$GNGSA,A,3,30,,,,,,,,,,,,0.73,0.48,0.55,1*0A
$GNGSA,A,3,81,78,88,79,77,82,,,,,,,0.73,0.48,0.55,2*08
$GNGSA,A,3,21,13,26,27,15,,,,,,,,0.73,0.48,0.55,3*0F
$GNGSA,A,3,23,09,06,16,07,40,43,39,28,10,25,37,0.73,0.48,0.55,4*03
$GNGSA,A,3,34,,,,,,,,,,,,0.73,0.48,0.55,4*0B
$GPGSV,4,1,15,195,65,113,45,194,64,053,26,21,62,153,44,08,61,358,34,1*63
$GPGSV,4,2,15,199,60,167,37,50,60,167,40,02,50,176,44,07,43,315,45,1*53
$GPGSV,4,3,15,27,31,037,33,16,26,077,30,09,23,244,19,196,19,169,18,1*57
$GPGSV,4,4,15,04,16,201,16,30,12,320,19,26,07,101,21,1*5E
$GPGSV,3,1,09,195,65,113,45,194,64,053,35,08,61,358,42,199,60,167,45,8*55
$GPGSV,3,2,09,27,31,037,28,09,23,244,20,196,19,169,20,30,12,320,40,8*5B
$GPGSV,3,3,09,26,07,101,22,8*57
$GLGSV,2,1,07,81,67,203,43,78,57,041,26,88,53,030,32,79,27,335,45,1*75
$GLGSV,2,2,07,77,22,112,30,82,17,205,31,87,01,026,,1*4D
$GAGSV,2,1,06,21,55,014,39,13,54,078,26,26,45,172,31,27,28,081,21,7*74
$GAGSV,2,2,06,19,26,240,,15,13,038,19,7*7A
$GAGSV,2,1,05,21,55,014,40,13,54,078,12,26,45,172,40,27,28,081,22,1*7D
$GAGSV,2,2,05,15,13,038,20,1*4F
$GBGSV,4,1,13,23,74,037,41,09,72,263,36,06,70,214,41,16,67,199,41,1*7D
$GBGSV,4,2,13,07,60,309,39,40,60,330,41,43,57,036,30,39,57,188,39,1*74
$GBGSV,4,3,13,28,57,223,40,10,51,290,34,25,36,119,46,37,31,322,44,1*79
$GBGSV,4,4,13,34,10,040,19,1*4E
$GBGSV,2,1,08,23,74,037,40,40,60,330,38,39,57,188,39,43,57,036,30,4*73
$GBGSV,2,2,08,28,57,223,41,25,36,119,43,37,31,322,40,34,10,040,20,4*78
$GNACCURACY,3.6*13
$PAIRSAT,1,35,2,0,201,3,0,200,4,0,221,5,0,200,6,0,200,7,0,201,8,0,221,9,0,220,10,0,200,11,0,200,12,0,200,13,0,200,14,0,200,15,0,200,16,0,201,17,0,200,18,0,200,19,0,200,20,0,200,21,0,201,22,0,200,23,0,200,24,0,200,25,0,200,26,0,220,27,0,221,28,0,200,29,0,200,30,0,221,31,0,200,32,0,200,194,0,621,195,0,621,196,0,620,199,0,621*5A
$PAIRSAT,2,24,65,0,200,66,0,200,67,0,200,68,0,200,69,0,200,70,0,200,71,0,200,72,0,200,73,0,200,74,0,200,75,0,200,76,0,200,77,0,201,78,0,201,79,0,201,80,0,200,81,0,201,82,0,201,83,0,200,84,0,200,85,0,200,86,0,200,87,0,201,88,0,201*7B
$PAIRSAT,3,23,2,0,1200,3,0,1200,4,0,1200,5,0,200,7,0,1200,8,0,1200,9,0,1200,10,0,1200,11,0,1200,12,0,1200,13,0,1221,15,0,1220,19,0,1201,21,0,1221,24,0,1200,25,0,1200,26,0,1221,27,0,1221,30,0,1200,31,0,1200,33,0,1200,34,0,1000,36,0,1200*6B
$PAIRSAT,4,46,1,0,200,2,0,200,3,0,600,4,0,200,5,0,200,6,0,201,7,0,201,8,0,200,9,0,201,10,0,201,11,0,200,12,0,200,13,0,200,14,0,200,16,0,201,19,0,600,20,0,600,21,0,600,22,0,600,23,0,621,24,0,600,25,0,621,26,0,600,27,0,600,28,0,621,29,0,600,30,0,600,32,0,600,33,0,600,34,0,621,35,0,600,36,0,600,37,0,621,38,0,600,39,0,621,40,0,621,41,0,600,42,0,600,43,0,621,44,0,400,45,0,400,46,0,400,59,0,400,60,0,400,61,0,400,62,0,400*4A
$PAIRDGP,10,2,4,7,8,9,16,21,26,27,30*42
$GNGGA,041309.200,2500.7853938,N,12132.4479002,E,4,57,0.48,16.723,M,15.25,M,1,3335*42
$GNRMC,041309.200,A,2500.7853938,N,12132.4479002,E,0.02,317.03,090324,,,R,V*1F
$GPHDT,134.732,T*35
$GNACCURACY,3.6*13
$GNGGA,041309.300,2500.7853906,N,12132.4478965,E,4,57,0.48,16.718,M,15.25,M,1,3335*4F
$GNRMC,041309.300,A,2500.7853906,N,12132.4478965,E,0.02,317.03,090324,,,R,V*1A
$GPHDT,,T*1B
$GNACCURACY,3.6*13
$GNGGA,041309.400,2500.7853917,N,12132.4478966,E,4,57,0.48,16.723,M,15.25,M,1,3335*43
$GNRMC,041309.400,A,2500.7853917,N,12132.4478966,E,0.02,317.03,090324,,,R,V*1E
$GPHDT,134.405,T*32
$GNACCURACY,3.6*13
$GNGGA,041309.500,2500.7853937,N,12132.4478971,E,4,57,0.48,16.730,M,15.25,M,1,3335*44
$GNRMC,041309.500,A,2500.7853937,N,12132.4478971,E,0.02,317.03,090324,,,R,V*1B
$GPHDT,,T*1B
$GNACCURACY,3.6*13
$GNGGA,041309.600,2500.7853928,N,12132.4478988,E,4,57,0.48,16.729,M,15.25,M,1,3335*47
$GNRMC,041309.600,A,2500.7853928,N,12132.4478988,E,0.01,317.03,090324,,,R,V*13
$GPHDT,134.207,T*36
$GNACCURACY,3.6*13
$GNGGA,041309.700,2500.7853962,N,12132.4479011,E,4,57,0.48,16.733,M,15.25,M,0,3335*4A
$GNRMC,041309.700,A,2500.7853962,N,12132.4479011,E,0.02,317.03,090324,,,R,V*17
$GPHDT,,T*1B
$GNACCURACY,3.6*13
$GNGGA,041309.800,2500.7853911,N,12132.4478961,E,4,57,0.48,16.721,M,15.25,M,0,3335*4D
$GNRMC,041309.800,A,2500.7853911,N,12132.4478961,E,0.02,317.03,090324,,,R,V*13
$GPHDT,133.705,T*36
$GNACCURACY,3.6*13
$GNGGA,041309.900,2500.7853930,N,12132.4478955,E,4,56,0.48,16.732,M,15.25,M,0,3335*4B
$GNRMC,041309.900,A,2500.7853930,N,12132.4478955,E,0.02,317.03,090324,,,R,V*16
$GPHDT,,T*1B
$GNACCURACY,3.6*13
$GNGGA,041310.000,2500.7853935,N,12132.4478976,E,4,56,0.48,16.733,M,15.25,M,1,3335*4E
$GNRMC,041310.000,A,2500.7853935,N,12132.4478976,E,0.02,317.03,090324,,,R,V*13
$GPHDT,134.095,T*3F
$GNACCURACY,3.6*13
$GNGGA,041310.100,2500.7853903,N,12132.4478958,E,4,56,0.48,16.722,M,15.25,M,1,3335*46
$GNRMC,041310.100,A,2500.7853903,N,12132.4478958,E,0.02,317.03,090324,,,R,V*1B
$GPHDT,,T*1B
$GNGSA,A,3,195,194,21,08,199,02,07,27,16,09,196,04,0.73,0.48,0.55,1*06
$GNGSA,A,3,30,,,,,,,,,,,,0.73,0.48,0.55,1*0A
$GNGSA,A,3,81,78,88,79,77,82,,,,,,,0.73,0.48,0.55,2*08
$GNGSA,A,3,21,13,26,27,15,,,,,,,,0.73,0.48,0.55,3*0F
$GNGSA,A,3,23,09,06,16,07,40,43,39,28,10,25,37,0.73,0.48,0.55,4*03
$GNGSA,A,3,34,,,,,,,,,,,,0.73,0.48,0.55,4*0B
$GPGSV,4,1,15,195,65,113,45,194,64,053,27,21,62,153,44,08,61,358,34,1*62
$GPGSV,4,2,15,199,60,167,37,50,60,167,40,02,50,176,44,07,43,315,45,1*53
$GPGSV,4,3,15,27,31,037,32,16,26,077,31,09,23,244,21,196,19,169,21,1*56
$GPGSV,4,4,15,04,16,201,17,30,12,320,18,26,07,101,20,1*5F
$GPGSV,3,1,09,195,65,113,45,194,64,053,35,08,61,358,42,199,60,167,45,8*55
$GPGSV,3,2,09,27,31,037,28,09,23,244,17,196,19,169,20,30,12,320,40,8*5F
$GPGSV,3,3,09,26,07,101,23,8*56
$GLGSV,2,1,07,81,67,203,43,78,57,041,24,88,53,030,31,79,27,335,45,1*74
$GLGSV,2,2,07,77,22,112,27,82,17,205,31,87,01,026,,1*4B
$GAGSV,2,1,06,21,55,014,39,13,54,078,26,26,45,172,31,27,28,081,19,7*7F
$GAGSV,2,2,06,19,26,240,,15,13,038,18,7*7B
$GAGSV,1,1,04,21,55,014,40,26,45,172,40,27,28,081,21,15,13,038,21,1*7D
$GBGSV,4,1,13,23,74,037,41,09,72,263,36,06,70,214,41,16,67,199,41,1*7D
$GBGSV,4,2,13,07,60,309,39,40,60,330,41,43,57,036,32,39,57,188,38,1*77
$GBGSV,4,3,13,28,57,223,40,10,51,290,34,25,36,119,46,37,31,322,44,1*79
$GBGSV,4,4,13,34,10,040,21,1*45
$GBGSV,2,1,08,23,74,037,40,40,60,330,38,39,57,188,39,43,57,036,30,4*73
$GBGSV,2,2,08,28,57,223,41,25,36,119,43,37,31,322,40,34,10,040,20,4*78
$GNACCURACY,3.6*13
$PAIRSAT,1,35,2,0,201,3,0,200,4,0,221,5,0,200,6,0,200,7,0,201,8,0,221,9,0,220,10,0,200,11,0,200,12,0,200,13,0,200,14,0,200,15,0,200,16,0,201,17,0,200,18,0,200,19,0,200,20,0,200,21,0,201,22,0,200,23,0,200,24,0,200,25,0,200,26,0,220,27,0,221,28,0,200,29,0,200,30,0,221,31,0,200,32,0,200,194,0,621,195,0,621,196,0,620,199,0,621*5A
$PAIRSAT,2,24,65,0,200,66,0,200,67,0,200,68,0,200,69,0,200,70,0,200,71,0,200,72,0,200,73,0,200,74,0,200,75,0,200,76,0,200,77,0,201,78,0,201,79,0,201,80,0,200,81,0,201,82,0,201,83,0,200,84,0,200,85,0,200,86,0,200,87,0,201,88,0,201*7B
$PAIRSAT,3,23,2,0,1200,3,0,1200,4,0,1200,5,0,200,7,0,1200,8,0,1200,9,0,1200,10,0,1200,11,0,1200,12,0,1200,13,0,1221,15,0,1220,19,0,1201,21,0,1221,24,0,1200,25,0,1200,26,0,1221,27,0,1221,30,0,1200,31,0,1200,33,0,1200,34,0,1000,36,0,1200*6B
$PAIRSAT,4,46,1,0,200,2,0,200,3,0,600,4,0,200,5,0,200,6,0,201,7,0,201,8,0,200,9,0,201,10,0,201,11,0,200,12,0,200,13,0,200,14,0,200,16,0,201,19,0,600,20,0,600,21,0,600,22,0,600,23,0,621,24,0,600,25,0,621,26,0,600,27,0,600,28,0,621,29,0,600,30,0,600,32,0,600,33,0,600,34,0,621,35,0,600,36,0,600,37,0,621,38,0,600,39,0,621,40,0,621,41,0,600,42,0,600,43,0,621,44,0,400,45,0,400,46,0,400,59,0,400,60,0,400,61,0,400,62,0,400*4A
$PAIRDGP,10,2,4,7,8,9,16,21,26,27,30*42
$GNGGA,041310.200,2500.7853916,N,12132.4478997,E,4,56,0.48,16.723,M,15.25,M,1,3335*43
$GNRMC,041310.200,A,2500.7853916,N,12132.4478997,E,0.03,317.03,090324,,,R,V*1E
$GPHDT,133.735,T*35
$GNACCURACY,3.6*13
$GNGGA,041310.300,2500.7853915,N,12132.4478969,E,4,56,0.48,16.728,M,15.25,M,1,3335*4B
$GNRMC,041310.300,A,2500.7853915,N,12132.4478969,E,0.03,317.03,090324,,,R,V*1D
$GPHDT,,T*1B
$GNACCURACY,3.6*13
$GNGGA,041310.400,2500.7853915,N,12132.4478958,E,4,56,0.48,16.735,M,15.25,M,1,3335*42
$GNRMC,041310.400,A,2500.7853915,N,12132.4478958,E,0.02,317.03,090324,,,R,V*19
$GPHDT,134.010,T*32
$GNACCURACY,3.6*13
$GNGGA,041310.500,2500.7853956,N,12132.4478963,E,4,56,0.48,16.736,M,15.25,M,0,3335*4E
$GNRMC,041310.500,A,2500.7853956,N,12132.4478963,E,0.02,317.03,090324,,,R,V*17
$GPHDT,,T*1B
$GNACCURACY,3.6*13
$GNGGA,041310.600,2500.7853945,N,12132.4478967,E,4,56,0.48,16.718,M,15.25,M,0,3335*47
$GNRMC,041310.600,A,2500.7853945,N,12132.4478967,E,0.03,317.03,090324,,,R,V*13
$GPHDT,134.262,T*35
$GNACCURACY,3.6*13
$GNGGA,041310.700,2500.7853957,N,12132.4478959,E,4,56,0.48,16.730,M,15.25,M,0,3335*42
$GNRMC,041310.700,A,2500.7853957,N,12132.4478959,E,0.03,317.03,090324,,,R,V*1C
$GPHDT,,T*1B
$GNACCURACY,3.6*13
$GNGGA,041310.800,2500.7853975,N,12132.4478976,E,4,56,0.48,16.741,M,15.25,M,0,3335*46
$GNRMC,041310.800,A,2500.7853975,N,12132.4478976,E,0.02,317.03,090324,,,R,V*1F
$GPHDT,134.105,T*37
$GNACCURACY,3.6*13
$GNGGA,041310.900,2500.7853969,N,12132.4478992,E,4,56,0.48,16.731,M,15.25,M,0,3335*47
$GNRMC,041310.900,A,2500.7853969,N,12132.4478992,E,0.01,317.03,090324,,,R,V*1A
$GPHDT,,T*1B
$GNACCURACY,3.6*13
$GNGGA,041311.000,2500.7853951,N,12132.4478984,E,4,56,0.48,16.731,M,15.25,M,1,3335*42
$GNRMC,041311.000,A,2500.7853951,N,12132.4478984,E,0.02,317.03,090324,,,R,V*1D
$GPHDT,133.862,T*38
$GNACCURACY,3.6*13
$GNGGA,041311.100,2500.7853947,N,12132.4478969,E,4,56,0.48,16.728,M,15.25,M,1,3335*4F
$GNRMC,041311.100,A,2500.7853947,N,12132.4478969,E,0.02,317.03,090324,,,R,V*18
$GPHDT,,T*1B
$GNGSA,A,3,195,194,21,08,199,02,07,27,16,09,196,04,0.73,0.48,0.55,1*06
$GNGSA,A,3,30,,,,,,,,,,,,0.73,0.48,0.55,1*0A
$GNGSA,A,3,81,78,88,79,77,82,,,,,,,0.73,0.48,0.55,2*08
$GNGSA,A,3,21,13,26,27,15,,,,,,,,0.73,0.48,0.55,3*0F
$GNGSA,A,3,23,09,06,16,40,07,43,28,39,10,25,37,0.73,0.48,0.55,4*03
$GNGSA,A,3,34,,,,,,,,,,,,0.73,0.48,0.55,4*0B
$GPGSV,4,1,15,195,65,113,45,194,64,053,29,21,62,153,44,08,61,358,34,1*6C
$GPGSV,4,2,15,199,60,167,37,50,60,167,40,02,50,176,44,07,43,315,45,1*53
$GPGSV,4,3,15,27,31,037,32,16,26,077,32,09,23,244,20,196,19,169,19,1*5F
$GPGSV,4,4,15,04,16,201,17,30,12,320,20,26,07,101,19,1*5E
$GPGSV,3,1,09,195,65,113,45,194,64,053,35,08,61,358,42,199,60,167,45,8*55
$GPGSV,3,2,09,27,31,037,28,09,23,244,18,196,19,169,21,30,12,320,40,8*51
$GPGSV,3,3,09,26,07,101,23,8*56
$GLGSV,2,1,07,81,67,203,43,78,57,041,24,88,53,030,32,79,27,335,45,1*77
$GLGSV,2,2,07,77,22,112,27,82,17,205,31,87,01,026,,1*4B
$GAGSV,2,1,07,21,55,014,39,13,54,078,25,26,45,172,31,27,28,081,20,7*77
$GAGSV,2,2,07,19,26,240,,15,13,038,18,04,12,298,,7*4E
$GAGSV,1,1,04,21,55,014,40,26,45,172,40,27,28,081,21,15,13,038,21,1*7D
$GBGSV,4,1,13,23,74,037,41,09,72,263,36,06,70,214,41,16,67,199,41,1*7D
$GBGSV,4,2,13,40,60,330,41,07,60,309,40,43,57,036,29,28,57,223,40,1*7E
$GBGSV,4,3,13,39,57,188,38,10,51,290,34,25,36,119,46,37,31,322,44,1*74
$GBGSV,4,4,13,34,10,040,21,1*45
$GBGSV,2,1,08,23,74,037,40,40,60,330,38,39,57,188,39,43,57,036,29,4*7B
$GBGSV,2,2,08,28,57,223,41,25,36,119,43,37,31,322,40,34,10,040,20,4*78
$GNACCURACY,3.6*13
$PAIRSAT,1,35,2,0,201,3,0,200,4,0,221,5,0,200,6,0,200,7,0,201,8,0,221,9,0,220,10,0,200,11,0,200,12,0,200,13,0,200,14,0,200,15,0,200,16,0,201,17,0,200,18,0,200,19,0,200,20,0,200,21,0,201,22,0,200,23,0,200,24,0,200,25,0,200,26,0,220,27,0,221,28,0,200,29,0,200,30,0,221,31,0,200,32,0,200,194,0,621,195,0,621,196,0,620,199,0,621*5A
$PAIRSAT,2,24,65,0,200,66,0,200,67,0,200,68,0,200,69,0,200,70,0,200,71,0,200,72,0,200,73,0,200,74,0,200,75,0,200,76,0,200,77,0,201,78,0,201,79,0,201,80,0,200,81,0,201,82,0,201,83,0,200,84,0,200,85,0,200,86,0,200,87,0,201,88,0,201*7B
$PAIRSAT,3,23,2,0,1200,3,0,1200,4,0,1200,5,0,200,7,0,1200,8,0,1200,9,0,1200,10,0,1200,11,0,1200,12,0,1200,13,0,1221,15,0,1220,19,0,1201,21,0,1221,24,0,1200,25,0,1200,26,0,1221,27,0,1221,30,0,1200,31,0,1200,33,0,1200,34,0,1000,36,0,1200*6B
$PAIRSAT,4,46,1,0,200,2,0,200,3,0,600,4,0,200,5,0,200,6,0,201,7,0,201,8,0,200,9,0,201,10,0,201,11,0,200,12,0,200,13,0,200,14,0,200,16,0,201,19,0,600,20,0,600,21,0,600,22,0,600,23,0,621,24,0,600,25,0,621,26,0,600,27,0,600,28,0,621,29,0,600,30,0,600,32,0,600,33,0,600,34,0,621,35,0,600,36,0,600,37,0,621,38,0,600,39,0,621,40,0,621,41,0,600,42,0,600,43,0,621,44,0,400,45,0,400,46,0,400,59,0,400,60,0,400,61,0,400,62,0,400*4A
$PAIRDGP,10,2,4,7,8,9,16,21,26,27,30*42
$GNGGA,041311.200,2500.7853961,N,12132.4478945,E,4,56,0.48,16.741,M,15.25,M,1,3335*49
$GNRMC,041311.200,A,2500.7853961,N,12132.4478945,E,0.01,317.03,090324,,,R,V*12
$GPHDT,133.591,T*39
$GNACCURACY,3.7*12
$GNGGA,041311.300,2500.7853969,N,12132.4478965,E,4,56,0.48,16.737,M,15.25,M,1,3335*43
$GNRMC,041311.300,A,2500.7853969,N,12132.4478965,E,0.01,317.03,090324,,,R,V*19
$GPHDT,,T*1B
$GNACCURACY,3.7*12
$GNGGA,041311.400,2500.7853960,N,12132.4478958,E,4,56,0.48,16.737,M,15.25,M,1,3335*43
$GNRMC,041311.400,A,2500.7853960,N,12132.4478958,E,0.01,317.03,090324,,,R,V*19
$GPHDT,133.754,T*32
$GNACCURACY,3.7*12
$GNGGA,041311.500,2500.7853977,N,12132.4478963,E,4,55,0.49,16.729,M,15.25,M,1,3335*41
$GNRMC,041311.500,A,2500.7853977,N,12132.4478963,E,0.01,317.03,090324,,,R,V*16
$GPHDT,,T*1B
$GNACCURACY,3.7*12
$GNGGA,041311.600,2500.7853953,N,12132.4478939,E,4,56,0.49,16.740,M,15.25,M,0,3335*46
$GNRMC,041311.600,A,2500.7853953,N,12132.4478939,E,0.01,317.03,090324,,,R,V*1C
$GPHDT,133.724,T*35
$GNACCURACY,3.7*12
$GNGGA,041311.700,2500.7853978,N,12132.4478959,E,4,56,0.49,16.745,M,15.25,M,0,3335*4D
$GNRMC,041311.700,A,2500.7853978,N,12132.4478959,E,0.02,317.03,090324,,,R,V*11
$GPHDT,,T*1B
$GNACCURACY,3.7*12
$GNGGA,041311.800,2500.7853968,N,12132.4478991,E,4,56,0.48,16.747,M,15.25,M,0,3335*44
$GNRMC,041311.800,A,2500.7853968,N,12132.4478991,E,0.02,317.03,090324,,,R,V*1B
$GPHDT,134.463,T*32
$GNACCURACY,3.7*12
$GNGGA,041311.900,2500.7853980,N,12132.4478973,E,4,56,0.48,16.733,M,15.25,M,0,3335*4C
$GNRMC,041311.900,A,2500.7853980,N,12132.4478973,E,0.02,317.03,090324,,,R,V*10
$GPHDT,,T*1B
$GNACCURACY,3.7*12
$GNGGA,041312.000,2500.7854013,N,12132.4479015,E,4,56,0.48,16.755,M,15.25,M,1,3335*4B
$GNRMC,041312.000,A,2500.7854013,N,12132.4479015,E,0.02,317.03,090324,,,R,V*16
$GPHDT,135.035,T*34
$GNACCURACY,3.7*12
$GNGGA,041312.100,2500.7853982,N,12132.4478976,E,4,56,0.48,16.757,M,15.25,M,1,3335*43
$GNRMC,041312.100,A,2500.7853982,N,12132.4478976,E,0.02,317.03,090324,,,R,V*1C
$GPHDT,,T*1B
$GNGSA,A,3,195,194,21,08,199,02,07,27,16,09,196,04,0.73,0.48,0.55,1*06
$GNGSA,A,3,30,,,,,,,,,,,,0.73,0.48,0.55,1*0A
$GNGSA,A,3,81,78,88,79,77,82,,,,,,,0.73,0.48,0.55,2*08
$GNGSA,A,3,21,13,26,27,15,,,,,,,,0.73,0.48,0.55,3*0F
$GNGSA,A,3,23,09,06,16,07,40,28,43,39,10,25,37,0.73,0.48,0.55,4*03
$GNGSA,A,3,34,,,,,,,,,,,,0.73,0.48,0.55,4*0B
$GPGSV,4,1,15,195,65,113,45,194,64,053,28,21,62,153,44,08,61,358,36,1*6F
$GPGSV,4,2,15,199,60,167,37,50,60,167,40,02,50,176,44,07,43,315,46,1*50
$GPGSV,4,3,15,27,31,037,33,16,26,077,31,09,23,244,20,196,19,169,19,1*5D
$GPGSV,4,4,15,04,16,201,17,30,12,320,22,26,07,101,17,1*52
$GPGSV,3,1,09,195,65,113,45,194,64,053,35,08,61,358,42,199,60,167,45,8*55
$GPGSV,3,2,09,27,31,037,28,09,23,244,17,196,19,169,21,30,12,320,40,8*5E
$GPGSV,3,3,09,26,07,101,22,8*57
$GLGSV,2,1,07,81,67,203,43,78,57,041,28,88,53,030,32,79,27,335,45,1*7B
$GLGSV,2,2,07,77,22,112,27,82,17,205,31,87,01,026,,1*4B
$GAGSV,2,1,07,21,55,014,39,13,54,078,24,26,45,172,33,27,28,081,21,7*75
$GAGSV,2,2,07,19,26,239,,15,13,038,18,04,12,298,,7*40
$GAGSV,1,1,04,21,55,014,40,26,45,172,40,27,28,081,21,15,13,038,20,1*7C
$GBGSV,4,1,15,23,74,037,41,09,72,263,36,06,70,214,41,16,67,199,41,1*7B
$GBGSV,4,2,15,07,60,309,40,40,60,330,41,28,57,223,40,43,57,036,30,1*70
$GBGSV,4,3,15,39,57,188,38,10,51,290,34,25,36,119,46,37,31,322,44,1*72
$GBGSV,4,4,15,38,11,168,,27,11,221,,34,10,040,22,1*40
$GBGSV,2,1,08,23,74,037,40,40,60,330,38,39,57,188,39,43,57,036,31,4*72
$GBGSV,2,2,08,28,57,223,41,25,36,119,43,37,31,322,41,34,10,040,20,4*79
$GNACCURACY,3.7*12
$PAIRSAT,1,35,2,0,201,3,0,200,4,0,221,5,0,200,6,0,200,7,0,201,8,0,221,9,0,220,10,0,200,11,0,200,12,0,200,13,0,200,14,0,200,15,0,200,16,0,201,17,0,200,18,0,200,19,0,200,20,0,200,21,0,201,22,0,200,23,0,200,24,0,200,25,0,200,26,0,220,27,0,221,28,0,200,29,0,200,30,0,221,31,0,200,32,0,200,194,0,621,195,0,621,196,0,620,199,0,621*5A
$PAIRSAT,2,24,65,0,200,66,0,200,67,0,200,68,0,200,69,0,200,70,0,200,71,0,200,72,0,200,73,0,200,74,0,200,75,0,200,76,0,200,77,0,201,78,0,201,79,0,201,80,0,200,81,0,201,82,0,201,83,0,200,84,0,200,85,0,200,86,0,200,87,0,201,88,0,201*7B
$PAIRSAT,3,23,2,0,1200,3,0,1200,4,0,1200,5,0,200,7,0,1200,8,0,1200,9,0,1200,10,0,1200,11,0,1200,12,0,1200,13,0,1221,15,0,1220,19,0,1201,21,0,1221,24,0,1200,25,0,1200,26,0,1221,27,0,1221,30,0,1200,31,0,1200,33,0,1200,34,0,1000,36,0,1200*6B
$PAIRSAT,4,46,1,0,200,2,0,200,3,0,600,4,0,200,5,0,200,6,0,201,7,0,201,8,0,200,9,0,201,10,0,201,11,0,200,12,0,200,13,0,200,14,0,200,16,0,201,19,0,600,20,0,600,21,0,600,22,0,600,23,0,621,24,0,600,25,0,621,26,0,600,27,0,600,28,0,621,29,0,600,30,0,600,32,0,600,33,0,600,34,0,621,35,0,600,36,0,600,37,0,621,38,0,600,39,0,621,40,0,621,41,0,600,42,0,600,43,0,621,44,0,400,45,0,400,46,0,400,59,0,400,60,0,400,61,0,400,62,0,400*4A
$PAIRDGP,10,2,4,7,8,9,16,21,26,27,30*42
$GNGGA,041312.200,2500.7853985,N,12132.4478984,E,4,56,0.48,16.748,M,15.25,M,1,3335*44
$GNRMC,041312.200,A,2500.7853985,N,12132.4478984,E,0.02,317.03,090324,,,R,V*15
$GPHDT,134.644,T*35
$GNACCURACY,3.7*12
$GNGGA,041312.300,2500.7853984,N,12132.4478989,E,4,56,0.48,16.742,M,15.25,M,1,3335*43
$GNRMC,041312.300,A,2500.7853984,N,12132.4478989,E,0.02,317.03,090324,,,R,V*18
$GPHDT,,T*1B
$GNACCURACY,3.7*12
$GNGGA,041312.400,2500.7853979,N,12132.4479023,E,4,56,0.48,16.744,M,15.25,M,1,3335*48
$GNRMC,041312.400,A,2500.7853979,N,12132.4479023,E,0.02,317.03,090324,,,R,V*15
$GPHDT,135.415,T*32
$GNACCURACY,3.7*12
$GNGGA,041312.500,2500.7854009,N,12132.4479024,E,4,56,0.48,16.742,M,15.25,M,1,3335*41
$GNRMC,041312.500,A,2500.7854009,N,12132.4479024,E,0.03,317.03,090324,,,R,V*1B
$GPHDT,,T*1B
$GNACCURACY,3.7*12
$GNGGA,041312.600,2500.7