$FW : RTK35X,V1.1X0314AS,Lib20210517,1*54
$Tool : LOCOSYS , GNSS Firebird , v1.0.0.19*39
$---------------------------------------------------*2D
$GNACCURACY,3.7*12
$GNGGA,041257.100,2500.7853779,N,12132.4479237,E,4,53,0.50,16.669,M,15.25,M,1,3335*46
$GNRMC,041257.100,A,2500.7853779,N,12132.4479237,E,0.01,317.03,090324,,,R,V*1A
$GPHDT,,T*1B
$GNGSA,A,3,195,194,21,08,199,02,07,27,16,196,30,09,0.76,0.50,0.57,1*0F
$GNGSA,A,3,81,78,88,79,77,82,,,,,,,0.76,0.50,0.57,2*06
$GNGSA,A,3,21,13,26,27,15,,,,,,,,0.76,0.50,0.57,3*01
$GNGSA,A,3,23,09,06,16,07,40,43,28,39,10,37,34,0.76,0.50,0.57,4*0D
$GNGSA,A,3,25,,,,,,,,,,,,0.76,0.50,0.57,4*05
$GPGSV,4,1,15,195,65,113,38,194,64,053,25,21,62,154,43,08,61,358,42,1*6B
$GPGSV,4,2,15,199,60,167,38,50,60,167,42,02,50,176,46,07,43,315,45,1*5C
$GPGSV,4,3,15,27,31,037,36,16,27,077,33,09,23,245,15,196,19,169,22,1*54
$GPGSV,4,4,15,04,16,202,14,30,12,320,29,26,07,101,23,1*5E
$GPGSV,2,1,08,195,65,113,41,194,64,053,37,08,61,358,46,199,60,167,46,8*54
$GPGSV,2,2,08,27,31,037,27,09,23,245,14,196,19,169,28,30,12,320,41,8*5B
$GLGSV,2,1,07,81,67,203,44,78,57,041,36,88,53,030,38,79,27,335,44,1*78
$GLGSV,2,2,07,77,22,112,24,82,17,205,16,87,01,026,,1*4D
$GAGSV,2,1,08,21,55,014,41,13,54,078,23,26,45,172,40,27,28,081,21,7*76
$GAGSV,2,2,08,19,26,240,,15,13,038,19,04,12,298,,33,05,199,,7*74
$GAGSV,1,1,03,21,55,014,42,26,45,172,42,27,28,081,23,1*46
$GBGSV,4,1,13,23,74,036,42,09,72,263,37,06,70,214,42,16,67,199,42,1*7E
$GBGSV,4,2,13,07,60,309,40,40,60,330,42,43,57,036,35,28,57,223,36,1*71
$GBGSV,4,3,13,39,57,188,42,10,51,290,36,25,36,119,,37,31,322,47,1*7A
$GBGSV,4,4,13,34,10,040,26,1*42
$GBGSV,2,1,07,23,74,036,42,40,60,330,42,28,57,223,39,39,57,188,40,4*7E
$GBGSV,2,2,07,43,57,036,35,25,36,119,42,37,31,322,42,4*4C
$GNACCURACY,3.7*12
$PAIRSAT,1,35,2,0,201,3,0,200,4,0,221,5,0,200,6,0,200,7,0,201,8,0,221,9,0,220,10,0,200,11,0,200,12,0,200,13,0,200,14,0,200,15,0,200,16,0,201,17,0,200,18,0,200,19,0,200,20,0,200,21,0,201,22,0,200,23,0,200,24,0,200,25,0,200,26,0,220,27,0,221,28,0,200,29,0,200,30,0,221,31,0,200,32,0,200,194,0,621,195,0,621,196,0,620,199,0,621*5A
$PAIRSAT,2,24,65,0,200,66,0,200,67,0,200,68,0,200,69,0,200,70,0,200,71,0,200,72,0,200,73,0,200,74,0,200,75,0,200,76,0,200,77,0,201,78,0,201,79,0,201,80,0,200,81,0,201,82,0,201,83,0,200,84,0,200,85,0,200,86,0,200,87,0,201,88,0,201*7B
$PAIRSAT,3,23,2,0,1200,3,0,1200,4,0,1200,5,0,200,7,0,1200,8,0,1200,9,0,1200,10,0,1200,11,0,1200,12,0,1200,13,0,1221,15,0,1220,19,0,1201,21,0,1221,24,0,1200,25,0,1200,26,0,1221,27,0,1221,30,0,1200,31,0,1200,33,0,1200,34,0,1000,36,0,1200*6B
$PAIRSAT,4,46,1,0,200,2,0,200,3,0,600,4,0,200,5,0,200,6,0,201,7,0,201,8,0,200,9,0,201,10,0,201,11,0,200,12,0,200,13,0,200,14,0,200,16,0,201,19,0,600,20,0,600,21,0,600,22,0,600,23,0,621,24,0,600,25,0,621,26,0,600,27,0,600,28,0,621,29,0,600,30,0,600,32,0,600,33,0,600,34,0,621,35,0,600,36,0,600,37,0,621,38,0,600,39,0,621,40,0,621,41,0,600,42,0,600,43,0,621,44,0,400,45,0,400,46,0,400,59,0,400,60,0,400,61,0,400,62,0,400*4A
$PAIRDGP,10,2,4,7,8,9,16,21,26,27,30*42
$GNGGA,041257.200,2500.7853753,N,12132.4479219,E,4,52,0.50,16.657,M,15.25,M,1,3335*4D
$GNRMC,041257.200,A,2500.7853753,N,12132.4479219,E,0.01,317.03,090324,,,R,V*1D
$GPHDT,186.956,T*30
$GNACCURACY,3.7*12
$GNGGA,041257.300,2500.7853757,N,12132.4479170,E,4,52,0.50,16.662,M,15.25,M,1,3335*42
$GNRMC,041257.300,A,2500.7853757,N,12132.4479170,E,0.01,317.03,090324,,,R,V*14
$GPHDT,,T*1B
$GNACCURACY,3.7*12
$GNGGA,041257.400,2500.7853742,N,12132.4479188,E,4,52,0.50,16.659,M,15.25,M,1,3335*4E
$GNRMC,041257.400,A,2500.7853742,N,12132.4479188,E,0.01,317.03,090324,,,R,V*10
$GPHDT,187.807,T*34
$GNACCURACY,3.7*12
$GNGGA,041257.500,2500.7853739,N,12132.4479195,E,4,52,0.50,16.671,M,15.25,M,1,3335*45
$GNRMC,041257.500,A,2500.7853739,N,12132.4479195,E,0.01,317.03,090324,,,R,V*11
$GPHDT,,T*1B
$GNACCURACY,3.7*12
$GNGGA,041257.600,2500.7853722,N,12132.4479173,E,4,52,0.50,16.662,M,15.25,M,1,3335*46
$GNRMC,041257.600,A,2500.7853722,N,12132.4479173,E,0.01,317.03,090324,,,R,V*10
$GPHDT,185.824,T*37
$GNACCURACY,3.7*12
$GNGGA,041257.700,2500.7853718,N,12132.4479202,E,4,52,0.50,16.656,M,15.25,M,1,3335*4C
$GNRMC,041257.700,A,2500.7853718,N,12132.4479202,E,0.02,317.03,090324,,,R,V*1E
$GPHDT,,T*1B
$GNACCURACY,3.7*12
$GNGGA,041257.800,2500.7853717,N,12132.4479182,E,4,52,0.50,16.666,M,15.25,M,0,3335*45
$GNRMC,041257.800,A,2500.7853717,N,12132.4479182,E,0.01,317.03,090324,,,R,V*16
$GPHDT,186.105,T*3E
$GNACCURACY,3.7*12
$GNGGA,041257.900,2500.7853700,N,12132.4479187,E,4,52,0.50,16.658,M,15.25,M,0,3335*4A
$GNRMC,041257.900,A,2500.7853700,N,12132.4479187,E,0.01,317.03,090324,,,R,V*14
$GPHDT,,T*1B
$GNACCURACY,3.7*12
$GNGGA,041258.000,2500.7853714,N,12132.4479161,E,4,52,0.50,16.663,M,15.25,M,1,3335*48
$GNRMC,041258.000,A,2500.7853714,N,12132.4479161,E,0.01,317.03,090324,,,R,V*1F
$GPHDT,186.131,T*39
$GNACCURACY,3.7*12
$GNGGA,041258.100,2500.7853705,N,12132.4479169,E,4,54,0.50,16.657,M,15.25,M,1,3335*40
$GNRMC,041258.100,A,2500.7853705,N,12132.4479169,E,0.01,317.03,090324,,,R,V*16
$GPHDT,,T*1B
$GNGSA,A,3,195,194,21,08,199,02,07,27,16,196,30,09,0.76,0.50,0.57,1*0F
$GNGSA,A,3,81,78,88,79,77,82,,,,,,,0.76,0.50,0.57,2*06
$GNGSA,A,3,21,13,26,27,15,,,,,,,,0.76,0.50,0.57,3*01
$GNGSA,A,3,23,09,06,16,07,40,43,28,39,10,25,37,0.76,0.50,0.57,4*0D
$GNGSA,A,3,34,,,,,,,,,,,,0.76,0.50,0.57,4*05
$GPGSV,4,1,15,195,65,113,38,194,64,053,27,21,62,154,43,08,61,358,42,1*69
$GPGSV,4,2,15,199,60,167,39,50,60,167,42,02,50,176,46,07,43,315,45,1*5D
$GPGSV,4,3,15,27,31,037,36,16,27,077,31,09,23,245,15,196,19,169,17,1*50
$GPGSV,4,4,15,04,16,202,15,30,12,320,24,26,07,101,22,1*53
$GPGSV,2,1,08,195,65,113,40,194,64,053,37,08,61,358,46,199,60,167,45,8*56
$GPGSV,2,2,08,27,31,037,23,09,23,245,14,196,19,169,27,30,12,320,41,8*50
$GLGSV,2,1,07,81,67,203,44,78,57,041,34,88,53,030,39,79,27,335,44,1*7B
$GLGSV,2,2,07,77,22,112,24,82,17,205,15,87,01,026,,1*4E
$GAGSV,2,1,08,21,55,014,41,13,54,078,28,26,45,172,40,27,28,081,19,7*76
$GAGSV,2,2,08,19,26,240,,15,13,038,23,04,12,298,,33,05,199,,7*7D
$GAGSV,1,1,04,21,55,014,41,26,45,172,42,27,28,081,23,15,13,038,17,1*79
$GBGSV,4,1,13,23,74,036,42,09,72,263,38,06,70,214,42,16,67,199,42,1*71
$GBGSV,4,2,13,07,60,309,40,40,60,330,42,43,57,036,33,28,57,223,37,1*76
$GBGSV,4,3,13,39,57,188,42,10,51,290,36,25,36,119,42,37,31,322,46,1*7D
$GBGSV,4,4,13,34,10,040,27,1*43
$GBGSV,2,1,07,23,74,036,42,40,60,330,41,28,57,223,39,39,57,188,40,4*7D
$GBGSV,2,2,07,43,57,036,33,25,36,119,43,37,31,322,43,4*4A
$GNACCURACY,3.7*12
$PAIRSAT,1,35,2,0,201,3,0,200,4,0,221,5,0,200,6,0,200,7,0,201,8,0,221,9,0,220,10,0,200,11,0,200,12,0,200,13,0,200,14,0,200,15,0,200,16,0,201,17,0,200,18,0,200,19,0,200,20,0,200,21,0,201,22,0,200,23,0,200,24,0,200,25,0,200,26,0,220,27,0,221,28,0,200,29,0,200,30,0,221,31,0,200,32,0,200,194,0,621,195,0,621,196,0,620,199,0,621*5A
$PAIRSAT,2,24,65,0,200,66,0,200,67,0,200,68,0,200,69,0,200,70,0,200,71,0,200,72,0,200,73,0,200,74,0,200,75,0,200,76,0,200,77,0,201,78,0,201,79,0,201,80,0,200,81,0,201,82,0,201,83,0,200,84,0,200,85,0,200,86,0,200,87,0,201,88,0,201*7B
$PAIRSAT,3,23,2,0,1200,3,0,1200,4,0,1200,5,0,200,7,0,1200,8,0,1200,9,0,1200,10,0,1200,11,0,1200,12,0,1200,13,0,1221,15,0,1220,19,0,1201,21,0,1221,24,0,1200,25,0,1200,26,0,1221,27,0,1221,30,0,1200,31,0,1200,33,0,1200,34,0,1000,36,0,1200*6B
$PAIRSAT,4,46,1,0,200,2,0,200,3,0,600,4,0,200,5,0,200,6,0,201,7,0,201,8,0,200,9,0,201,10,0,201,11,0,200,12,0,200,13,0,200,14,0,200,16,0,201,19,0,600,20,0,600,21,0,600,22,0,600,23,0,621,24,0,600,25,0,621,26,0,600,27,0,600,28,0,621,29,0,600,30,0,600,32,0,600,33,0,600,34,0,621,35,0,600,36,0,600,37,0,621,38,0,600,39,0,621,40,0,621,41,0,600,42,0,600,43,0,621,44,0,400,45,0,400,46,0,400,59,0,400,60,0,400,61,0,400,62,0,400*4A
$PAIRDGP,10,2,4,7,8,9,16,21,26,27,30*42
$GNGGA,041258.200,2500.7853724,N,12132.4479190,E,4,54,0.50,16.659,M,15.25,M,1,3335*48
$GNRMC,041258.200,A,2500.7853724,N,12132.4479190,E,0.01,317.03,090324,,,R,V*10
$GPHDT,186.045,T*3B
$GNACCURACY,3.6*13
$GNGGA,041258.300,2500.7853710,N,12132.4479158,E,4,54,0.50,16.659,M,15.25,M,1,3335*4A
$GNRMC,041258.300,A,2500.7853710,N,12132.4479158,E,0.02,317.03,090324,,,R,V*11
$GPHDT,,T*1B
$GNACCURACY,3.6*13
$GNGGA,041258.400,2500.7853712,N,12132.4479194,E,4,54,0.50,16.644,M,15.25,M,1,3335*43
$GNRMC,041258.400,A,2500.7853712,N,12132.4479194,E,0.01,317.03,090324,,,R,V*17
$GPHDT,185.941,T*35
$GNACCURACY,3.6*13
$GNGGA,041258.500,2500.7853745,N,12132.4479199,E,4,54,0.50,16.642,M,15.25,M,0,3335*4A
$GNRMC,041258.500,A,2500.7853745,N,12132.4479199,E,0.01,317.03,090324,,,R,V*19
$GPHDT,,T*1B
$GNACCURACY,3.6*13
$GNGGA,041258.600,2500.7853721,N,12132.4479186,E,4,55,0.50,16.645,M,15.25,M,0,3335*43
$GNRMC,041258.600,A,2500.7853721,N,12132.4479186,E,0.01,317.03,090324,,,R,V*16
$GPHDT,186.100,T*3B
$GNACCURACY,3.6*13
$GNGGA,041258.700,2500.7853740,N,12132.4479155,E,4,55,0.50,16.646,M,15.25,M,0,3335*48
$GNRMC,041258.700,A,2500.7853740,N,12132.4479155,E,0.01,317.03,090324,,,R,V*1E
$GPHDT,,T*1B
$GNACCURACY,3.6*13
$GNGGA,041258.800,2500.7853713,N,12132.4479165,E,4,55,0.50,16.654,M,15.25,M,0,3335*41
$GNRMC,041258.800,A,2500.7853713,N,12132.4479165,E,0.01,317.03,090324,,,R,V*14
$GPHDT,186.018,T*33
$GNACCURACY,3.6*13
$GNGGA,041258.900,2500.7853719,N,12132.4479152,E,4,55,0.50,16.641,M,15.25,M,0,3335*4A
$GNRMC,041258.900,A,2500.7853719,N,12132.4479152,E,0.01,317.03,090324,,,R,V*1B
$GPHDT,,T*1B
$GNACCURACY,3.6*13
$GNGGA,041259.000,2500.7853718,N,12132.4479133,E,4,55,0.50,16.651,M,15.25,M,1,3335*44
$GNRMC,041259.000,A,2500.7853718,N,12132.4479133,E,0.01,317.03,090324,,,R,V*15
$GPHDT,184.570,T*3A
$GNACCURACY,3.6*13
$GNGGA,041259.100,2500.7853722,N,12132.4479181,E,4,54,0.52,16.643,M,15.25,M,1,3335*45
$GNRMC,041259.100,A,2500.7853722,N,12132.4479181,E,0.01,317.03,090324,,,R,V*14
$GPHDT,,T*1B
$GNGSA,A,3,195,194,21,08,199,02,07,27,16,196,30,,0.78,0.52,0.59,1*04
$GNGSA,A,3,81,78,88,79,77,82,,,,,,,0.78,0.52,0.59,2*04
$GNGSA,A,3,21,13,26,27,15,,,,,,,,0.78,0.52,0.59,3*03
$GNGSA,A,3,23,09,06,16,40,07,28,43,39,10,25,37,0.78,0.52,0.59,4*0F
$GNGSA,A,3,34,,,,,,,,,,,,0.78,0.52,0.59,4*07
$GPGSV,4,1,15,195,65,113,38,194,64,053,31,21,62,154,43,08,61,358,42,1*6E
$GPGSV,4,2,15,199,60,167,39,50,60,167,42,02,50,176,46,07,43,315,45,1*5D
$GPGSV,4,3,15,27,31,037,36,16,27,077,31,09,23,245,17,196,19,169,17,1*52
$GPGSV,4,4,15,04,16,202,16,30,12,320,26,26,07,101,,1*52
$GPGSV,2,1,07,195,65,113,40,194,64,053,37,08,61,358,45,199,60,167,45,8*5A
$GPGSV,2,2,07,27,31,037,26,196,19,169,27,30,12,320,41,8*64
$GLGSV,2,1,08,81,67,203,43,78,57,041,34,88,53,030,39,79,27,335,44,1*73
$GLGSV,2,2,08,77,22,112,24,82,17,205,17,69,03,279,,87,01,026,,1*73
$GAGSV,2,1,08,21,55,014,41,13,54,078,26,26,45,172,40,27,28,081,20,7*72
$GAGSV,2,2,08,19,26,240,,15,13,038,21,04,12,298,,33,05,199,,7*7F
$GAGSV,2,1,05,21,55,014,40,13,54,078,21,26,45,172,41,27,28,081,21,1*7F
$GAGSV,2,2,05,15,13,038,20,1*4F
$GBGSV,4,1,14,23,74,036,42,09,72,263,38,06,70,214,42,16,67,199,42,1*76
$GBGSV,4,2,14,40,60,330,42,07,60,309,40,28,57,223,39,43,57,036,32,1*7E
$GBGSV,4,3,14,39,57,188,41,10,51,290,36,25,36,119,43,37,31,322,46,1*78
$GBGSV,4,4,14,38,11,168,,34,10,040,28,1*7F
$GBGSV,2,1,07,23,74,036,42,40,60,330,41,28,57,223,40,39,57,188,40,4*73
$GBGSV,2,2,07,43,57,036,34,25,36,119,43,37,31,322,43,4*4D
$GNACCURACY,3.6*13
$PAIRSAT,1,35,2,0,201,3,0,200,4,0,221,5,0,200,6,0,200,7,0,201,8,0,221,9,0,220,10,0,200,11,0,200,12,0,200,13,0,200,14,0,200,15,0,200,16,0,201,17,0,200,18,0,200,19,0,200,20,0,200,21,0,201,22,0,200,23,0,200,24,0,200,25,0,200,26,0,220,27,0,221,28,0,200,29,0,200,30,0,221,31,0,200,32,0,200,194,0,621,195,0,621,196,0,620,199,0,621*5A
$PAIRSAT,2,24,65,0,200,66,0,200,67,0,200,68,0,200,69,0,200,70,0,200,71,0,200,72,0,200,73,0,200,74,0,200,75,0,200,76,0,200,77,0,201,78,0,201,79,0,201,80,0,200,81,0,201,82,0,201,83,0,200,84,0,200,85,0,200,86,0,200,87,0,201,88,0,201*7B
$PAIRSAT,3,23,2,0,1200,3,0,1200,4,0,1200,5,0,200,7,0,1200,8,0,1200,9,0,1200,10,0,1200,11,0,1200,12,0,1200,13,0,1221,15,0,1220,19,0,1201,21,0,1221,24,0,1200,25,0,1200,26,0,1221,27,0,1221,30,0,1200,31,0,1200,33,0,1200,34,0,1000,36,0,1200*6B
$PAIRSAT,4,46,1,0,200,2,0,200,3,0,600,4,0,200,5,0,200,6,0,201,7,0,201,8,0,200,9,0,201,10,0,201,11,0,200,12,0,200,13,0,200,14,0,200,16,0,201,19,0,600,20,0,600,21,0,600,22,0,600,23,0,621,24,0,600,25,0,621,26,0,600,27,0,600,28,0,621,29,0,600,30,0,600,32,0,600,33,0,600,34,0,621,35,0,600,36,0,600,37,0,621,38,0,600,39,0,621,40,0,621,41,0,600,42,0,600,43,0,621,44,0,400,45,0,400,46,0,400,59,0,400,60,0,400,61,0,400,62,0,400*4A
$PAIRDGP,10,2,4,7,8,9,16,21,26,27,30*42
$GNGGA,041259.200,2500.7853716,N,12132.4479164,E,4,54,0.52,16.644,M,15.25,M,1,3335*4D
$GNRMC,041259.200,A,2500.7853716,N,12132.4479164,E,0.01,317.03,090324,,,R,V*1B
$GPHDT,185.725,T*39
$GNACCURACY,3.6*13
$GNGGA,041259.300,2500.7853731,N,12132.4479168,E,4,54,0.52,16.647,M,15.25,M,1,3335*46
$GNRMC,041259.300,A,2500.7853731,N,12132.4479168,E,0.02,317.03,090324,,,R,V*10
$GPHDT,,T*1B
$GNACCURACY,3.6*13
$GNGGA,041259.400,2500.7853725,N,12132.4479169,E,4,54,0.52,16.649,M,15.25,M,1,3335*4B
$GNRMC,041259.400,A,2500.7853725,N,12132.4479169,E,0.01,317.03,090324,,,R,V*10
$GPHDT,185.387,T*35
$GNACCURACY,3.5*10
$GNGGA,041259.500,2500.7853721,N,12132.4479183,E,4,54,0.52,16.640,M,15.25,M,1,3335*43
$GNRMC,041259.500,A,2500.7853721,N,12132.4479183,E,0.01,317.03,090324,,,R,V*11
$GPHDT,,T*1B
$GNACCURACY,3.6*13
$GNGGA,041259.600,2500.7853720,N,12132.4479137,E,4,54,0.52,16.650,M,15.25,M,0,3335*4E
$GNRMC,041259.600,A,2500.7853720,N,12132.4479137,E,0.01,317.03,090324,,,R,V*1C
$GPHDT,184.919,T*39
$GNACCURACY,3.6*13
$GNGGA,041259.700,2500.7853735,N,12132.4479142,E,4,54,0.52,16.664,M,15.25,M,0,3335*4E
$GNRMC,041259.700,A,2500.7853735,N,12132.4479142,E,0.01,317.03,090324,,,R,V*1B
$GPHDT,,T*1B
$GNACCURACY,3.6*13
$GNGGA,041259.800,2500.7853729,N,12132.4479160,E,4,54,0.52,16.651,M,15.25,M,0,3335*4A
$GNRMC,041259.800,A,2500.7853729,N,12132.4479160,E,0.01,317.03,090324,,,R,V*19
$GPHDT,185.997,T*3E
$GNACCURACY,3.6*13
$GNGGA,041259.900,2500.7853727,N,12132.4479164,E,4,55,0.50,16.665,M,15.25,M,0,3335*45
$GNRMC,041259.900,A,2500.7853727,N,12132.4479164,E,0.01,317.03,090324,,,R,V*12
$GPHDT,,T*1B
$GNACCURACY,3.6*13
$GNGGA,041300.000,2500.7853717,N,12132.4479180,E,4,55,0.50,16.657,M,15.25,M,1,3335*48
$GNRMC,041300.000,A,2500.7853717,N,12132.4479180,E,0.01,317.03,090324,,,R,V*1F
$GPHDT,185.795,T*32
$GNACCURACY,3.6*13
$GNGGA,041300.100,2500.7853736,N,12132.4479127,E,4,55,0.52,16.662,M,15.25,M,1,3335*43
$GNRMC,041300.100,A,2500.7853736,N,12132.4479127,E,0.01,317.03,090324,,,R,V*10
$GPHDT,,T*1B
$GNGSA,A,3,195,194,21,08,199,02,07,27,16,196,30,,0.78,0.52,0.59,1*04
$GNGSA,A,3,81,78,88,79,77,82,,,,,,,0.78,0.52,0.59,2*04
$GNGSA,A,3,21,13,26,27,15,,,,,,,,0.78,0.52,0.59,3*03
$GNGSA,A,3,23,09,06,16,07,40,43,28,39,10,25,37,0.78,0.52,0.59,4*0F
$GNGSA,A,3,34,,,,,,,,,,,,0.78,0.52,0.59,4*07
$GPGSV,4,1,15,195,65,113,38,194,64,053,31,21,62,154,43,08,61,358,42,1*6E
$GPGSV,4,2,15,50,60,167,42,199,60,167,39,02,50,176,46,07,43,315,46,1*5E
$GPGSV,4,3,15,27,31,037,36,16,27,077,30,09,23,245,16,196,19,169,17,1*52
$GPGSV,4,4,15,04,16,202,12,30,12,320,25,26,07,101,20,1*57
$GPGSV,2,1,07,195,65,113,40,194,64,053,38,08,61,358,45,199,60,167,45,8*55
$GPGSV,2,2,07,27,31,037,26,196,19,169,29,30,12,320,42,8*69
$GLGSV,3,1,09,81,67,203,43,78,57,041,34,88,53,030,39,79,27,335,44,1*73
$GLGSV,3,2,09,77,22,112,26,82,17,205,22,69,03,279,,87,01,026,,1*77
$GLGSV,3,3,09,68,01,234,,1*4B
$GAGSV,2,1,08,21,55,014,41,13,54,078,24,26,45,172,40,27,28,081,22,7*72
$GAGSV,2,2,08,19,26,240,,15,13,038,20,04,12,298,,33,05,199,,7*7E
$GAGSV,2,1,05,21,55,014,41,13,54,078,22,26,45,172,41,27,28,081,21,1*7D
$GAGSV,2,2,05,15,13,038,21,1*4E
$GBGSV,4,1,14,23,74,036,42,09,72,263,38,06,70,214,42,16,67,199,42,1*76
$GBGSV,4,2,14,07,60,309,40,40,60,330,42,43,57,036,31,28,57,223,37,1*73
$GBGSV,4,3,14,39,57,188,40,10,51,290,36,25,36,119,41,37,31,322,46,1*7B
$GBGSV,4,4,14,34,10,040,29,08,02,177,,1*71
$GBGSV,2,1,08,23,74,036,42,40,60,330,41,39,57,188,40,43,57,036,34,4*74
$GBGSV,2,2,08,28,57,223,40,25,36,119,44,37,31,322,43,34,10,040,20,4*7D
$GNACCURACY,3.6*13
$PAIRSAT,1,35,2,0,201,3,0,200,4,0,221,5,0,200,6,0,200,7,0,201,8,0,221,9,0,220,10,0,200,11,0,200,12,0,200,13,0,200,14,0,200,15,0,200,16,0,201,17,0,200,18,0,200,19,0,200,20,0,200,21,0,201,22,0,200,23,0,200,24,0,200,25,0,200,26,0,220,27,0,221,28,0,200,29,0,200,30,0,221,31,0,200,32,0,200,194,0,621,195,0,621,196,0,620,199,0,621*5A
$PAIRSAT,2,24,65,0,200,66,0,200,67,0,200,68,0,200,69,0,200,70,0,200,71,0,200,72,0,200,73,0,200,74,0,200,75,0,200,76,0,200,77,0,201,78,0,201,79,0,201,80,0,200,81,0,201,82,0,201,83,0,200,84,0,200,85,0,200,86,0,200,87,0,201,88,0,201*7B
$PAIRSAT,3,23,2,0,1200,3,0,1200,4,0,1200,5,0,200,7,0,1200,8,0,1200,9,0,1200,10,0,1200,11,0,1200,12,0,1200,13,0,1221,15,0,1220,19,0,1201,21,0,1221,24,0,1200,25,0,1200,26,0,1221,27,0,1221,30,0,1200,31,0,1200,33,0,1200,34,0,1000,36,0,1200*6B
$PAIRSAT,4,46,1,0,200,2,0,200,3,0,600,4,0,200,5,0,200,6,0,201,7,0,201,8,0,200,9,0,201,10,0,201,11,0,200,12,0,200,13,0,200,14,0,200,16,0,201,19,0,600,20,0,600,21,0,600,22,0,600,23,0,621,24,0,600,25,0,621,26,0,600,27,0,600,28,0,621,29,0,600,30,0,600,32,0,600,33,0,600,34,0,621,35,0,600,36,0,600,37,0,621,38,0,600,39,0,621,40,0,621,41,0,600,42,0,600,43,0,621,44,0,400,45,0,400,46,0,400,59,0,400,60,0,400,61,0,400,62,0,400*4A
$PAIRDGP,10,2,4,7,8,9,16,21,26,27,30*42
$GNGGA,041300.200,2500.7853723,N,12132.4479139,E,4,55,0.52,16.659,M,15.25,M,1,3335*43
$GNRMC,041300.200,A,2500.7853723,N,12132.4479139,E,0.01,317.03,090324,,,R,V*18
$GPHDT,185.068,T*37
$GNACCURACY,3.6*13
$GNGGA,041300.300,2500.7853725,N,12132.4479143,E,4,56,0.50,16.647,M,15.25,M,1,3335*47
$GNRMC,041300.300,A,2500.7853725,N,12132.4479143,E,0.01,317.03,090324,,,R,V*12
$GPHDT,,T*1B
$GNACCURACY,3.6*13
$GNGGA,041300.400,2500.7853732,N,12132.4479125,E,4,56,0.50,16.654,M,15.25,M,1,3335*44
$GNRMC,041300.400,A,2500.7853732,N,12132.4479125,E,0.01,317.03,090324,,,R,V*13
$GPHDT,184.934,T*36
$GNACCURACY,3.6*13
$GNGGA,041300.500,2500.7853720,N,12132.4479158,E,4,56,0.50,16.649,M,15.25,M,1,3335*40
$GNRMC,041300.500,A,2500.7853720,N,12132.4479158,E,0.01,317.03,090324,,,R,V*1B
$GPHDT,,T*1B
$GNACCURACY,3.6*13
$GNGGA,041300.600,2500.7853722,N,12132.4479105,E,4,56,0.50,16.645,M,15.25,M,1,3335*45
$GNRMC,041300.600,A,2500.7853722,N,12132.4479105,E,0.01,317.03,090324,,,R,V*12
$GPHDT,184.632,T*3F
$GNACCURACY,3.6*13
$GNGGA,041300.700,2500.7853722,N,12132.4479185,E,4,56,0.50,16.660,M,15.25,M,0,3335*4A
$GNRMC,041300.700,A,2500.7853722,N,12132.4479185,E,0.01,317.03,090324,,,R,V*1B
$GPHDT,,T*1B
$GNACCURACY,3.6*13
$GNGGA,041300.800,2500.7853696,N,12132.4479142,E,4,55,0.52,16.640,M,15.25,M,0,3335*43
$GNRMC,041300.800,A,2500.7853696,N,12132.4479142,E,0.01,317.03,090324,,,R,V*11
$GPHDT,184.571,T*3B
$GNACCURACY,3.6*13
$GNGGA,041300.900,2500.7853716,N,12132.4479165,E,4,55,0.52,16.652,M,15.25,M,0,3335*4D
$GNRMC,041300.900,A,2500.7853716,N,12132.4479165,E,0.02,317.03,090324,,,R,V*1F
$GPHDT,,T*1B
$GNACCURACY,3.6*13
$GNGGA,041301.000,2500.7853708,N,12132.4479138,E,4,55,0.52,16.641,M,15.25,M,1,3335*41
$GNRMC,041301.000,A,2500.7853708,N,12132.4479138,E,0.01,317.03,090324,,,R,V*13
$GPHDT,184.476,T*3D
$GNACCURACY,3.6*13
$GNGGA,041301.100,2500.7853723,N,12132.4479144,E,4,55,0.52,16.641,M,15.25,M,1,3335*42
$GNRMC,041301.100,A,2500.7853723,N,12132.4479144,E,0.01,317.03,090324,,,R,V*10
$GPHDT,,T*1B
$GNGSA,A,3,195,194,21,08,199,02,07,27,16,196,30,,0.78,0.52,0.59,1*04
$GNGSA,A,3,81,78,88,79,77,82,,,,,,,0.78,0.52,0.59,2*04
$GNGSA,A,3,21,13,26,27,15,,,,,,,,0.78,0.52,0.59,3*03
$GNGSA,A,3,23,09,06,16,07,40,43,28,39,10,25,37,0.78,0.52,0.59,4*0F
$GNGSA,A,3,34,,,,,,,,,,,,0.78,0.52,0.59,4*07
$GPGSV,4,1,15,195,65,113,38,194,64,053,31,21,62,154,43,08,61,358,42,1*6E
$GPGSV,4,2,15,199,60,167,39,50,60,167,42,02,50,176,46,07,43,315,46,1*5E
$GPGSV,4,3,15,27,31,037,37,16,27,077,32,09,23,245,16,196,19,169,17,1*51
$GPGSV,4,4,15,04,16,202,12,30,12,320,27,26,07,101,18,1*5E
$GPGSV,2,1,08,195,65,113,40,194,64,053,38,08,61,358,45,199,60,167,45,8*5A
$GPGSV,2,2,08,27,31,037,26,196,19,169,27,30,12,320,42,26,07,101,20,8*59
$GLGSV,2,1,07,81,67,203,43,78,57,041,34,88,53,030,39,79,27,335,44,1*7C
$GLGSV,2,2,07,77,22,112,25,82,17,205,23,87,01,026,,1*4A
$GAGSV,2,1,08,21,55,014,41,13,54,078,25,26,45,172,40,27,28,081,21,7*70
$GAGSV,2,2,08,19,26,240,,15,13,038,19,04,12,298,,33,05,199,,7*74
$GAGSV,2,1,05,21,55,014,41,13,54,078,22,26,45,172,41,27,28,081,22,1*7E
$GAGSV,2,2,05,15,13,038,20,1*4F
$GBGSV,4,1,13,23,74,036,42,09,72,263,38,06,70,214,42,16,67,199,42,1*71
$GBGSV,4,2,13,07,60,309,40,40,60,330,42,43,57,036,31,28,57,223,37,1*74
$GBGSV,4,3,13,39,57,188,39,10,51,290,36,25,36,119,41,37,31,322,46,1*72
$GBGSV,4,4,13,34,10,040,29,1*4D
$GBGSV,2,1,08,23,74,036,42,40,60,330,41,39,57,188,40,43,57,036,33,4*73
$GBGSV,2,2,08,28,57,223,39,25,36,119,44,37,31,322,43,34,10,040,18,4*78
$GNACCURACY,3.6*13
$PAIRSAT,1,35,2,0,201,3,0,200,4,0,221,5,0,200,6,0,200,7,0,201,8,0,221,9,0,220,10,0,200,11,0,200,12,0,200,13,0,200,14,0,200,15,0,200,16,0,201,17,0,200,18,0,200,19,0,200,20,0,200,21,0,201,22,0,200,23,0,200,24,0,200,25,0,200,26,0,220,27,0,221,28,0,200,29,0,200,30,0,221,31,0,200,32,0,200,194,0,621,195,0,621,196,0,620,199,0,621*5A
$PAIRSAT,2,24,65,0,200,66,0,200,67,0,200,68,0,200,69,0,200,70,0,200,71,0,200,72,0,200,73,0,200,74,0,200,75,0,200,76,0,200,77,0,201,78,0,201,79,0,201,80,0,200,81,0,201,82,0,201,83,0,200,84,0,200,85,0,200,86,0,200,87,0,201,88,0,201*7B
$PAIRSAT,3,23,2,0,1200,3,0,1200,4,0,1200,5,0,200,7,0,1200,8,0,1200,9,0,1200,10,0,1200,11,0,1200,12,0,1200,13,0,1221,15,0,1220,19,0,1201,21,0,1221,24,0,1200,25,0,1200,26,0,1221,27,0,1221,30,0,1200,31,0,1200,33,0,1200,34,0,1000,36,0,1200*6B
$PAIRSAT,4,46,1,0,200,2,0,200,3,0,600,4,0,200,5,0,200,6,0,201,7,0,201,8,0,200,9,0,201,10,0,201,11,0,200,12,0,200,13,0,200,14,0,200,16,0,201,19,0,600,20,0,600,21,0,600,22,0,600,23,0,621,24,0,600,25,0,621,26,0,600,27,0,600,28,0,621,29,0,600,30,0,600,32,0,600,33,0,600,34,0,621,35,0,600,36,0,600,37,0,621,38,0,600,39,0,621,40,0,621,41,0,600,42,0,600,43,0,621,44,0,400,45,0,400,46,0,400,59,0,400,60,0,400,61,0,400,62,0,400*4A
$PAIRDGP,10,2,4,7,8,9,16,21,26,27,30*42
$GNGGA,041301.200,2500.7853715,N,12132.4479203,E,4,55,0.52,16.632,M,15.25,M,1,3335*40
$GNRMC,041301.200,A,2500.7853715,N,12132.4479203,E,0.02,317.03,090324,,,R,V*15
$GPHDT,185.905,T*35
$GNACCURACY,3.6*13
$GNGGA,041301.300,2500.7853722,N,12132.4479158,E,4,55,0.52,16.646,M,15.25,M,1,3335*4B
$GNRMC,041301.300,A,2500.7853722,N,12132.4479158,E,0.02,317.03,090324,,,R,V*1D
$GPHDT,,T*1B
$GNACCURACY,3.6*13
$GNGGA,041301.400,2500.7853717,N,12132.4479139,E,4,55,0.52,16.641,M,15.25,M,1,3335*4A
$GNRMC,041301.400,A,2500.7853717,N,12132.4479139,E,0.02,317.03,090324,,,R,V*1B
$GPHDT,184.877,T*30
$GNACCURACY,3.6*13
$GNGGA,041301.500,2500.7853717,N,12132.4479104,E,4,55,0.52,16.648,M,15.25,M,0,3335*4D
$GNRMC,041301.500,A,2500.7853717,N,12132.4479104,E,0.02,317.03,090324,,,R,V*14
$GPHDT,,T*1B
$GNACCURACY,3.6*13
$GNGGA,041301.600,2500.7853743,N,12132.4479138,E,4,55,0.52,16.659,M,15.25,M,0,3335*40
$GNRMC,041301.600,A,2500.7853743,N,12132.4479138,E,0.02,317.03,090324,,,R,V*19
$GPHDT,184.935,T*37
$GNACCURACY,3.6*13
$GNGGA,041301.700,2500.7853717,N,12132.4479113,E,4,55,0.52,16.661,M,15.25,M,0,3335*42
$GNRMC,041301.700,A,2500.7853717,N,12132.4479113,E,0.02,317.03,090324,,,R,V*10
$GPHDT,,T*1B
$GNACCURACY,3.7*12
$GNGGA,041301.800,2500.7853695,N,12132.4479107,E,4,55,0.52,16.655,M,15.25,M,0,3335*44
$GNRMC,041301.800,A,2500.7853695,N,12132.4479107,E,0.01,317.03,090324,,,R,V*12
$GPHDT,184.599,T*3D
$GNACCURACY,3.7*12
$GNGGA,041301.900,2500.7853724,N,12132.4479119,E,4,55,0.52,16.662,M,15.25,M,0,3335*45
$GNRMC,041301.900,A,2500.7853724,N,12132.4479119,E,0.02,317.03,090324,,,R,V*14
$GPHDT,,T*1B
$GNACCURACY,3.7*12
$GNGGA,041302.000,2500.7853719,N,12132.4479108,E,4,55,0.52,16.656,M,15.25,M,1,3335*47
$GNRMC,041302.000,A,2500.7853719,N,12132.4479108,E,0.02,317.03,090324,,,R,V*10
$GPHDT,185.500,T*3C
$GNACCURACY,3.7*12
$GNGGA,041302.100,2500.7853720,N,12132.4479099,E,4,55,0.52,16.666,M,15.25,M,1,3335*46
$GNRMC,041302.100,A,2500.7853720,N,12132.4479099,E,0.01,317.03,090324,,,R,V*11
$GPHDT,,T*1B
$GNGSA,A,3,195,194,21,08,199,02,07,27,16,196,30,,0.78,0.52,0.59,1*04
$GNGSA,A,3,81,78,88,79,77,82,,,,,,,0.78,0.52,0.59,2*04
$GNGSA,A,3,21,13,26,27,15,,,,,,,,0.78,0.52,0.59,3*03
$GNGSA,A,3,23,09,06,16,07,40,28,43,39,10,25,37,0.78,0.52,0.59,4*0F
$GNGSA,A,3,34,,,,,,,,,,,,0.78,0.52,0.59,4*07
$GPGSV,4,1,15,195,65,113,38,194,64,053,31,21,62,154,43,08,61,358,42,1*6E
$GPGSV,4,2,15,199,60,167,39,50,60,167,42,02,50,176,46,07,43,315,46,1*5E
$GPGSV,4,3,15,27,31,037,38,16,27,077,32,09,23,245,16,196,19,169,17,1*5E
$GPGSV,4,4,15,04,16,202,15,30,12,320,26,26,07,101,20,1*53
$GPGSV,2,1,08,195,65,113,40,194,64,053,38,08,61,358,45,199,60,167,45,8*5A
$GPGSV,2,2,08,27,31,037,26,196,19,169,29,30,12,320,42,26,07,101,22,8*55
$GLGSV,2,1,08,81,67,203,43,78,57,041,34,88,53,030,39,79,27,335,44,1*73
$GLGSV,2,2,08,77,22,112,23,82,17,205,23,69,03,279,,87,01,026,,1*73
$GAGSV,2,1,08,21,55,014,41,13,54,078,24,26,45,172,40,27,28,081,20,7*70
$GAGSV,2,2,08,19,26,240,,15,13,038,19,04,12,298,,33,05,199,,7*74
$GAGSV,2,1,05,21,55,014,41,13,54,078,20,26,45,172,41,27,28,081,22,1*7C
$GAGSV,2,2,05,15,13,038,20,1*4F
$GBGSV,4,1,13,23,74,037,42,09,72,263,38,06,70,214,42,16,67,199,42,1*70
$GBGSV,4,2,13,07,60,309,40,40,60,330,42,28,57,223,36,43,57,036,31,1*75
$GBGSV,4,3,13,39,57,188,39,10,51,290,36,25,36,119,41,37,31,322,46,1*72
$GBGSV,4,4,13,34,10,040,30,1*45
$GBGSV,2,1,08,23,74,037,42,40,60,330,41,39,57,188,40,43,57,036,33,4*72
$GBGSV,2,2,08,28,57,223,39,25,36,119,44,37,31,322,43,34,10,040,18,4*78
$GNACCURACY,3.6*13
$PAIRSAT,1,35,2,0,201,3,0,200,4,0,221,5,0,200,6,0,200,7,0,201,8,0,221,9,0,220,10,0,200,11,0,200,12,0,200,13,0,200,14,0,200,15,0,200,16,0,201,17,0,200,18,0,200,19,0,200,20,0,200,21,0,201,22,0,200,23,0,200,24,0,200,25,0,200,26,0,220,27,0,221,28,0,200,29,0,200,30,0,221,31,0,200,32,0,200,194,0,621,195,0,621,196,0,620,199,0,621*5A
$PAIRSAT,2,24,65,0,200,66,0,200,67,0,200,68,0,200,69,0,200,70,0,200,71,0,200,72,0,200,73,0,200,74,0,200,75,0,200,76,0,200,77,0,201,78,0,201,79,0,201,80,0,200,81,0,201,82,0,201,83,0,200,84,0,200,85,0,200,86,0,200,87,0,201,88,0,201*7B
$PAIRSAT,3,23,2,0,1200,3,0,1200,4,0,1200,5,0,200,7,0,1200,8,0,1200,9,0,1200,10,0,1200,11,0,1200,12,0,1200,13,0,1221,15,0,1220,19,0,1201,21,0,1221,24,0,1200,25,0,1200,26,0,1221,27,0,1221,30,0,1200,31,0,1200,33,0,1200,34,0,1000,36,0,1200*6B
$PAIRSAT,4,46,1,0,200,2,0,200,3,0,600,4,0,200,5,0,200,6,0,201,7,0,201,8,0,200,9,0,201,10,0,201,11,0,200,12,0,200,13,0,200,14,0,200,16,0,201,19,0,600,20,0,600,21,0,600,22,0,600,23,0,621,24,0,600,25,0,621,26,0,600,27,0,600,28,0,621,29,0,600,30,0,600,32,0,600,33,0,600,34,0,621,35,0,600,36,0,600,37,0,621,38,0,600,39,0,621,40,0,621,41,0,600,42,0,600,43,0,621,44,0,400,45,0,400,46,0,400,59,0,400,60,0,400,61,0,400,62,0,400*4A
$PAIRDGP,10,2,4,7,8,9,16,21,26,27,30*42
$GNGGA,041302.200,2500.7853711,N,12132.4479095,E,4,55,0.52,16.656,M,15.25,M,1,3335*48
$GNRMC,041302.200,A,2500.7853711,N,12132.4479095,E,0.02,317.03,090324,,,R,V*1F
$GPHDT,184.632,T*3F
$GNACCURACY,3.6*13
$GNGGA,041302.300,2500.7853713,N,12132.4479150,E,4,55,0.52,16.660,M,15.25,M,1,3335*46
$GNRMC,041302.300,A,2500.7853713,N,12132.4479150,E,0.02,317.03,090324,,,R,V*14
$GPHDT,,T*1B
$GNACCURACY,3.7*12
$GNGGA,041302.400,2500.7853719,N,12132.4479131,E,4,55,0.52,16.662,M,15.25,M,1,3335*4E
$GNRMC,041302.400,A,2500.7853719,N,12132.4479131,E,0.02,317.03,090324,,,R,V*1E
$GPHDT,184.917,T*37
$GNACCURACY,3.7*12
$GNGGA,041302.500,2500.7853720,N,12132.4479149,E,4,55,0.52,16.670,M,15.25,M,1,3335*49
$GNRMC,041302.500,A,2500.7853720,N,12132.4479149,E,0.01,317.03,090324,,,R,V*19
$GPHDT,,T*1B
$GNACCURACY,3.7*12
$GNGGA,041302.600,2500.7853730,N,12132.4479133,E,4,55,0.52,16.661,M,15.25,M,1,3335*46
$GNRMC,041302.600,A,2500.7853730,N,12132.4479133,E,0.01,317.03,090324,,,R,V*16
$GPHDT,183.908,T*3E
$GNACCURACY,3.7*12
$GNGGA,041302.700,2500.7853683,N,12132.4479105,E,4,55,0.52,16.652,M,15.25,M,0,3335*4A
$GNRMC,041302.700,A,2500.7853683,N,12132.4479105,E,0.01,317.03,090324,,,R,V*1B
$GPHDT,,T*1B
$GNACCURACY,3.7*12
$GNGGA,041302.800,2