$FW : RTK35X,V1.1X0314AS,Lib20210517,1*54
$Tool : LOCOSYS , GNSS Firebird , v1.0.0.19*39
$---------------------------------------------------*2D
$GPHDT,,T*1B
$GNGSA,A,3,195,194,21,08,199,02,07,27,196,09,04,30,0.83,0.49,0.67,1*0D
$GNGSA,A,3,81,78,88,79,77,82,,,,,,,0.83,0.49,0.67,2*07
$GNGSA,A,3,21,13,26,27,15,,,,,,,,0.83,0.49,0.67,3*00
$GNGSA,A,3,23,09,06,16,40,07,43,28,39,10,25,37,0.83,0.49,0.67,4*0C
$GNGSA,A,3,34,,,,,,,,,,,,0.83,0.49,0.67,4*04
$GPGSV,4,1,15,195,65,113,40,194,64,053,33,21,62,153,43,08,61,358,36,1*67
$GPGSV,4,2,15,199,60,167,40,50,60,167,42,02,50,176,45,07,43,315,41,1*54
$GPGSV,4,3,15,27,31,037,38,16,26,077,25,09,22,244,18,196,19,169,19,1*59
$GPGSV,4,4,15,04,16,201,10,30,12,320,15,26,07,101,20,1*55
$GPGSV,3,1,10,195,65,113,44,194,64,053,39,08,61,358,39,199,60,167,43,8*5A
$GPGSV,3,2,10,27,31,037,36,09,22,244,22,196,19,169,25,04,16,201,25,8*58
$GPGSV,3,3,10,30,12,320,32,26,07,101,17,8*69
$GLGSV,2,1,07,81,67,203,45,78,57,041,37,88,53,030,40,79,28,335,22,1*78
$GLGSV,2,2,07,77,22,112,17,82,17,205,32,87,01,026,,1*4B
$GAGSV,2,1,07,21,55,014,39,13,54,078,26,26,45,172,44,27,28,081,22,7*74
$GAGSV,2,2,07,19,26,239,,15,13,038,22,04,12,298,18,7*40
$GAGSV,2,1,05,21,55,014,41,13,54,078,25,26,45,172,44,27,28,081,18,1*75
$GAGSV,2,2,05,15,13,038,20,1*4F
$GBGSV,4,1,13,23,74,037,45,09,72,263,40,06,70,214,40,16,67,199,43,1*7B
$GBGSV,4,2,13,40,60,330,40,07,60,309,38,43,57,036,35,28,57,223,41,1*7C
$GBGSV,4,3,13,39,57,188,43,10,51,290,34,25,36,119,38,37,31,322,35,1*77
$GBGSV,4,4,13,34,10,040,35,1*40
$GBGSV,2,1,07,23,74,037,43,40,60,330,39,39,57,188,43,43,57,036,38,4*7B
$GBGSV,2,2,07,28,57,223,38,25,36,119,38,37,31,322,29,4*4A
$GNACCURACY,3.7*12
$PAIRSAT,1,35,2,0,201,3,0,200,4,0,221,5,0,200,6,0,200,7,0,201,8,0,221,9,0,220,10,0,200,11,0,200,12,0,200,13,0,200,14,0,200,15,0,200,16,0,201,17,0,200,18,0,200,19,0,200,20,0,200,21,0,201,22,0,200,23,0,200,24,0,200,25,0,200,26,0,220,27,0,221,28,0,200,29,0,200,30,0,221,31,0,200,32,0,200,194,0,621,195,0,621,196,0,620,199,0,621*5A
$PAIRSAT,2,24,65,0,200,66,0,200,67,0,200,68,0,200,69,0,200,70,0,200,71,0,200,72,0,200,73,0,200,74,0,200,75,0,200,76,0,200,77,0,201,78,0,201,79,0,201,80,0,200,81,0,201,82,0,201,83,0,200,84,0,200,85,0,200,86,0,200,87,0,201,88,0,201*7B
$PAIRSAT,3,23,2,0,1200,3,0,1200,4,0,1200,5,0,200,7,0,1200,8,0,1200,9,0,1200,10,0,1200,11,0,1200,12,0,1200,13,0,1221,15,0,1220,19,0,1201,21,0,1221,24,0,1200,25,0,1200,26,0,1221,27,0,1221,30,0,1200,31,0,1200,33,0,1200,34,0,1000,36,0,1200*6B
$PAIRSAT,4,46,1,0,200,2,0,200,3,0,600,4,0,200,5,0,200,6,0,201,7,0,201,8,0,200,9,0,201,10,0,201,11,0,200,12,0,200,13,0,200,14,0,200,16,0,201,19,0,600,20,0,600,21,0,600,22,0,600,23,0,621,24,0,600,25,0,621,26,0,600,27,0,600,28,0,621,29,0,600,30,0,600,32,0,600,33,0,600,34,0,621,35,0,600,36,0,600,37,0,621,38,0,600,39,0,621,40,0,621,41,0,600,42,0,600,43,0,621,44,0,400,45,0,400,46,0,400,59,0,400,60,0,400,61,0,400,62,0,400*4A
$PAIRDGP,10,2,4,7,8,9,16,21,26,27,30*42
$GNGGA,041324.200,2500.7853942,N,12132.4478914,E,4,54,0.49,16.718,M,15.25,M,1,3335*45
$GNRMC,041324.200,A,2500.7853942,N,12132.4478914,E,0.01,317.03,090324,,,R,V*11
$GPHDT,91.004,T*09
$GNACCURACY,3.6*13
$GNGGA,041324.300,2500.7853941,N,12132.4478921,E,4,54,0.49,16.751,M,15.25,M,1,3335*4C
$GNRMC,041324.300,A,2500.7853941,N,12132.4478921,E,0.01,317.03,090324,,,R,V*15
$GPHDT,,T*1B
$GNACCURACY,3.7*12
$GNGGA,041324.400,2500.7853947,N,12132.4478935,E,4,54,0.49,16.739,M,15.25,M,1,3335*46
$GNRMC,041324.400,A,2500.7853947,N,12132.4478935,E,0.01,317.03,090324,,,R,V*11
$GPHDT,90.557,T*0B
$GNACCURACY,3.7*12
$GNGGA,041324.500,2500.7853920,N,12132.4478916,E,4,55,0.48,16.748,M,15.25,M,1,3335*41
$GNRMC,041324.500,A,2500.7853920,N,12132.4478916,E,0.01,317.03,090324,,,R,V*10
$GPHDT,,T*1B
$GNACCURACY,3.7*12
$GNGGA,041324.600,2500.7853938,N,12132.4478968,E,4,55,0.48,16.744,M,15.25,M,1,3335*4E
$GNRMC,041324.600,A,2500.7853938,N,12132.4478968,E,0.01,317.03,090324,,,R,V*13
$GPHDT,90.457,T*0A
$GNACCURACY,3.7*12
$GNGGA,041324.700,2500.7853915,N,12132.4478901,E,4,55,0.48,16.745,M,15.25,M,0,3335*4F
$GNRMC,041324.700,A,2500.7853915,N,12132.4478901,E,0.01,317.03,090324,,,R,V*12
$GPHDT,,T*1B
$GNACCURACY,3.7*12
$GNGGA,041324.800,2500.7853926,N,12132.4478862,E,4,54,0.48,16.740,M,15.25,M,0,3335*40
$GNRMC,041324.800,A,2500.7853926,N,12132.4478862,E,0.01,317.03,090324,,,R,V*19
$GPHDT,90.342,T*09
$GNACCURACY,3.7*12
$GNGGA,041324.900,2500.7853917,N,12132.4478894,E,4,54,0.48,16.739,M,15.25,M,0,3335*44
$GNRMC,041324.900,A,2500.7853917,N,12132.4478894,E,0.01,317.03,090324,,,R,V*13
$GPHDT,,T*1B
$GNACCURACY,3.7*12
$GNGGA,041325.000,2500.7853920,N,12132.4478920,E,4,54,0.48,16.736,M,15.25,M,1,3335*48
$GNRMC,041325.000,A,2500.7853920,N,12132.4478920,E,0.01,317.03,090324,,,R,V*11
$GPHDT,90.375,T*0D
$GNACCURACY,3.7*12
$GNGGA,041325.100,2500.7853921,N,12132.4478907,E,4,54,0.48,16.751,M,15.25,M,1,3335*4C
$GNRMC,041325.100,A,2500.7853921,N,12132.4478907,E,0.01,317.03,090324,,,R,V*14
$GPHDT,,T*1B
$GNGSA,A,3,195,194,21,08,199,02,07,27,16,196,09,04,0.81,0.48,0.66,1*0B
$GNGSA,A,3,30,,,,,,,,,,,,0.81,0.48,0.66,1*07
$GNGSA,A,3,81,78,88,79,77,82,,,,,,,0.81,0.48,0.66,2*05
$GNGSA,A,3,21,13,26,27,15,,,,,,,,0.81,0.48,0.66,3*02
$GNGSA,A,3,23,09,06,16,40,07,43,28,39,10,37,34,0.81,0.48,0.66,4*0E
$GNGSA,A,3,25,,,,,,,,,,,,0.81,0.48,0.66,4*06
$GPGSV,4,1,15,195,65,113,40,194,64,053,33,21,62,153,43,08,61,358,38,1*69
$GPGSV,4,2,15,199,60,167,39,50,60,167,42,02,50,176,45,07,43,315,39,1*55
$GPGSV,4,3,15,27,31,037,39,16,26,077,27,09,22,244,18,196,19,169,20,1*50
$GPGSV,4,4,15,04,16,201,12,30,13,320,17,26,07,101,20,1*54
$GPGSV,3,1,10,195,65,113,44,194,64,053,38,08,61,358,39,199,60,167,43,8*5B
$GPGSV,3,2,10,27,31,037,36,09,22,244,21,196,19,169,25,04,16,201,25,8*5B
$GPGSV,3,3,10,30,13,320,32,26,07,101,16,8*69
$GLGSV,2,1,07,81,67,203,44,78,57,041,37,88,53,030,40,79,28,335,21,1*7A
$GLGSV,2,2,07,77,22,112,17,82,17,205,31,87,01,026,,1*48
$GAGSV,2,1,07,21,55,014,39,13,54,078,27,26,45,172,44,27,28,081,22,7*75
$GAGSV,2,2,07,19,26,239,,15,13,038,24,04,12,298,18,7*46
$GAGSV,2,1,05,21,55,014,41,13,54,078,26,26,45,172,44,27,28,081,16,1*78
$GAGSV,2,2,05,15,13,038,20,1*4F
$GBGSV,4,1,13,23,74,037,45,09,72,263,40,06,70,214,41,16,67,199,43,1*7A
$GBGSV,4,2,13,40,60,330,40,07,60,309,37,43,57,036,36,28,57,223,41,1*70
$GBGSV,4,3,13,39,57,188,43,10,51,290,34,25,36,119,,37,31,322,36,1*7F
$GBGSV,4,4,13,34,10,040,35,1*40
$GBGSV,2,1,07,23,74,037,43,40,60,330,39,39,57,188,43,43,57,036,38,4*7B
$GBGSV,2,2,07,28,57,223,38,25,36,119,38,37,31,322,30,4*42
$GNACCURACY,3.7*12
$PAIRSAT,1,35,2,0,201,3,0,200,4,0,221,5,0,200,6,0,200,7,0,201,8,0,221,9,0,220,10,0,200,11,0,200,12,0,200,13,0,200,14,0,200,15,0,200,16,0,201,17,0,200,18,0,200,19,0,200,20,0,200,21,0,201,22,0,200,23,0,200,24,0,200,25,0,200,26,0,220,27,0,221,28,0,200,29,0,200,30,0,221,31,0,200,32,0,200,194,0,621,195,0,621,196,0,620,199,0,621*5A
$PAIRSAT,2,24,65,0,200,66,0,200,67,0,200,68,0,200,69,0,200,70,0,200,71,0,200,72,0,200,73,0,200,74,0,200,75,0,200,76,0,200,77,0,201,78,0,201,79,0,201,80,0,200,81,0,201,82,0,201,83,0,200,84,0,200,85,0,200,86,0,200,87,0,201,88,0,201*7B
$PAIRSAT,3,23,2,0,1200,3,0,1200,4,0,1200,5,0,200,7,0,1200,8,0,1200,9,0,1200,10,0,1200,11,0,1200,12,0,1200,13,0,1221,15,0,1220,19,0,1201,21,0,1221,24,0,1200,25,0,1200,26,0,1221,27,0,1221,30,0,1200,31,0,1200,33,0,1200,34,0,1000,36,0,1200*6B
$PAIRSAT,4,46,1,0,200,2,0,200,3,0,600,4,0,200,5,0,200,6,0,201,7,0,201,8,0,200,9,0,201,10,0,201,11,0,200,12,0,200,13,0,200,14,0,200,16,0,201,19,0,600,20,0,600,21,0,600,22,0,600,23,0,621,24,0,600,25,0,621,26,0,600,27,0,600,28,0,621,29,0,600,30,0,600,32,0,600,33,0,600,34,0,621,35,0,600,36,0,600,37,0,621,38,0,600,39,0,621,40,0,621,41,0,600,42,0,600,43,0,621,44,0,400,45,0,400,46,0,400,59,0,400,60,0,400,61,0,400,62,0,400*4A
$PAIRDGP,10,2,4,7,8,9,16,21,26,27,30*42
$GNGGA,041325.200,2500.7853936,N,12132.4478906,E,4,54,0.48,16.745,M,15.25,M,1,3335*4D
$GNRMC,041325.200,A,2500.7853936,N,12132.4478906,E,0.01,317.03,090324,,,R,V*10
$GPHDT,90.309,T*06
$GNACCURACY,3.7*12
$GNGGA,041325.300,2500.7853910,N,12132.4478890,E,4,54,0.48,16.747,M,15.25,M,1,3335*44
$GNRMC,041325.300,A,2500.7853910,N,12132.4478890,E,0.01,317.03,090324,,,R,V*1B
$GPHDT,,T*1B
$GNACCURACY,3.7*12
$GNGGA,041325.400,2500.7853928,N,12132.4478911,E,4,54,0.48,16.750,M,15.25,M,1,3335*46
$GNRMC,041325.400,A,2500.7853928,N,12132.4478911,E,0.01,317.03,090324,,,R,V*1F
$GPHDT,90.396,T*00
$GNACCURACY,3.7*12
$GNGGA,041325.500,2500.7853937,N,12132.4478918,E,4,54,0.48,16.751,M,15.25,M,1,3335*41
$GNRMC,041325.500,A,2500.7853937,N,12132.4478918,E,0.01,317.03,090324,,,R,V*19
$GPHDT,,T*1B
$GNACCURACY,3.7*12
$GNGGA,041325.600,2500.7853937,N,12132.4478917,E,4,54,0.48,16.761,M,15.25,M,0,3335*4F
$GNRMC,041325.600,A,2500.7853937,N,12132.4478917,E,0.01,317.03,090324,,,R,V*15
$GPHDT,90.477,T*08
$GNACCURACY,3.7*12
$GNGGA,041325.700,2500.7853925,N,12132.4478929,E,4,54,0.48,16.753,M,15.25,M,0,3335*41
$GNRMC,041325.700,A,2500.7853925,N,12132.4478929,E,0.01,317.03,090324,,,R,V*1A
$GPHDT,,T*1B
$GNACCURACY,3.7*12
$GNGGA,041325.800,2500.7853925,N,12132.4478924,E,4,54,0.48,16.764,M,15.25,M,0,3335*47
$GNRMC,041325.800,A,2500.7853925,N,12132.4478924,E,0.01,317.03,090324,,,R,V*18
$GPHDT,90.117,T*0B
$GNACCURACY,3.7*12
$GNGGA,041325.900,2500.7853934,N,12132.4478950,E,4,54,0.48,16.751,M,15.25,M,0,3335*43
$GNRMC,041325.900,A,2500.7853934,N,12132.4478950,E,0.01,317.03,090324,,,R,V*1A
$GPHDT,,T*1B
$GNACCURACY,3.7*12
$GNGGA,041326.000,2500.7853935,N,12132.4478929,E,4,54,0.48,16.759,M,15.25,M,1,3335*4F
$GNRMC,041326.000,A,2500.7853935,N,12132.4478929,E,0.01,317.03,090324,,,R,V*1F
$GPHDT,90.112,T*0E
$GNACCURACY,3.7*12
$GNGGA,041326.100,2500.7853940,N,12132.4478935,E,4,54,0.48,16.763,M,15.25,M,1,3335*48
$GNRMC,041326.100,A,2500.7853940,N,12132.4478935,E,0.01,317.03,090324,,,R,V*11
$GPHDT,,T*1B
$GNGSA,A,3,195,194,21,08,199,02,07,27,16,09,196,04,0.81,0.48,0.66,1*0B
$GNGSA,A,3,30,,,,,,,,,,,,0.81,0.48,0.66,1*07
$GNGSA,A,3,81,78,88,79,77,82,,,,,,,0.81,0.48,0.66,2*05
$GNGSA,A,3,21,13,26,27,15,,,,,,,,0.81,0.48,0.66,3*02
$GNGSA,A,3,23,09,06,16,40,07,43,28,39,10,37,34,0.81,0.48,0.66,4*0E
$GNGSA,A,3,25,,,,,,,,,,,,0.81,0.48,0.66,4*06
$GPGSV,4,1,15,195,65,113,41,194,64,053,33,21,62,153,43,08,61,358,38,1*68
$GPGSV,4,2,15,199,60,167,39,50,60,167,42,02,50,176,45,07,43,315,39,1*55
$GPGSV,4,3,15,27,31,037,39,16,26,077,28,09,22,244,19,196,19,169,18,1*55
$GPGSV,4,4,15,04,16,201,14,30,13,320,16,26,07,101,20,1*53
$GPGSV,3,1,10,195,65,113,44,194,64,053,38,08,61,358,38,199,60,167,43,8*5A
$GPGSV,3,2,10,27,31,037,36,09,22,244,21,196,19,169,26,04,16,201,26,8*5B
$GPGSV,3,3,10,30,13,320,33,26,07,101,15,8*6B
$GLGSV,2,1,07,81,67,203,44,78,57,041,37,88,53,030,40,79,28,335,21,1*7A
$GLGSV,2,2,07,77,22,112,15,82,17,205,31,87,01,026,,1*4A
$GAGSV,2,1,07,21,55,014,39,13,54,078,30,26,45,172,44,27,28,081,24,7*75
$GAGSV,2,2,07,19,26,239,,15,13,038,24,04,12,298,18,7*46
$GAGSV,2,1,05,21,55,014,41,13,54,078,25,26,45,172,44,27,28,081,13,1*7E
$GAGSV,2,2,05,15,13,038,20,1*4F
$GBGSV,4,1,13,23,74,037,45,09,72,263,40,06,70,214,41,16,67,199,43,1*7A
$GBGSV,4,2,13,40,60,330,39,07,60,309,37,43,57,036,36,28,57,223,41,1*7E
$GBGSV,4,3,13,39,57,188,43,10,51,290,33,25,36,119,,37,31,322,36,1*78
$GBGSV,4,4,13,34,10,040,35,1*40
$GBGSV,2,1,07,23,74,037,43,40,60,330,39,39,57,188,43,43,57,036,38,4*7B
$GBGSV,2,2,07,28,57,223,38,25,36,119,38,37,31,322,31,4*43
$GNACCURACY,3.7*12
$PAIRSAT,1,35,2,0,201,3,0,200,4,0,221,5,0,200,6,0,200,7,0,201,8,0,221,9,0,220,10,0,200,11,0,200,12,0,200,13,0,200,14,0,200,15,0,200,16,0,201,17,0,200,18,0,200,19,0,200,20,0,200,21,0,201,22,0,200,23,0,200,24,0,200,25,0,200,26,0,220,27,0,221,28,0,200,29,0,200,30,0,221,31,0,200,32,0,200,194,0,621,195,0,621,196,0,620,199,0,621*5A
$PAIRSAT,2,24,65,0,200,66,0,200,67,0,200,68,0,200,69,0,200,70,0,200,71,0,200,72,0,200,73,0,200,74,0,200,75,0,200,76,0,200,77,0,201,78,0,201,79,0,201,80,0,200,81,0,201,82,0,201,83,0,200,84,0,200,85,0,200,86,0,200,87,0,201,88,0,201*7B
$PAIRSAT,3,23,2,0,1200,3,0,1200,4,0,1200,5,0,200,7,0,1200,8,0,1200,9,0,1200,10,0,1200,11,0,1200,12,0,1200,13,0,1221,15,0,1220,19,0,1201,21,0,1221,24,0,1200,25,0,1200,26,0,1221,27,0,1221,30,0,1200,31,0,1200,33,0,1200,34,0,1000,36,0,1200*6B
$PAIRSAT,4,46,1,0,200,2,0,200,3,0,600,4,0,200,5,0,200,6,0,201,7,0,201,8,0,200,9,0,201,10,0,201,11,0,200,12,0,200,13,0,200,14,0,200,16,0,201,19,0,600,20,0,600,21,0,600,22,0,600,23,0,621,24,0,600,25,0,621,26,0,600,27,0,600,28,0,621,29,0,600,30,0,600,32,0,600,33,0,600,34,0,621,35,0,600,36,0,600,37,0,621,38,0,600,39,0,621,40,0,621,41,0,600,42,0,600,43,0,621,44,0,400,45,0,400,46,0,400,59,0,400,60,0,400,61,0,400,62,0,400*4A
$PAIRDGP,10,2,4,7,8,9,16,21,26,27,30*42
$GNGGA,041326.200,2500.7853934,N,12132.4478923,E,4,55,0.48,16.758,M,15.25,M,1,3335*46
$GNRMC,041326.200,A,2500.7853934,N,12132.4478923,E,0.01,317.03,090324,,,R,V*16
$GPHDT,90.312,T*0C
$GNACCURACY,3.7*12
$GNGGA,041326.300,2500.7853946,N,12132.4478964,E,4,55,0.48,16.764,M,15.25,M,1,3335*4E
$GNRMC,041326.300,A,2500.7853946,N,12132.4478964,E,0.01,317.03,090324,,,R,V*11
$GPHDT,,T*1B
$GNACCURACY,3.7*12
$GNGGA,041326.400,2500.7853929,N,12132.4478955,E,4,56,0.48,16.753,M,15.25,M,1,3335*45
$GNRMC,041326.400,A,2500.7853929,N,12132.4478955,E,0.01,317.03,090324,,,R,V*1D
$GPHDT,90.131,T*0F
$GNACCURACY,3.7*12
$GNGGA,041326.500,2500.7853949,N,12132.4478928,E,4,55,0.48,16.754,M,15.25,M,1,3335*4C
$GNRMC,041326.500,A,2500.7853949,N,12132.4478928,E,0.01,317.03,090324,,,R,V*10
$GPHDT,,T*1B
$GNACCURACY,3.7*12
$GNGGA,041326.600,2500.7853934,N,12132.4478943,E,4,55,0.48,16.756,M,15.25,M,1,3335*4A
$GNRMC,041326.600,A,2500.7853934,N,12132.4478943,E,0.01,317.03,090324,,,R,V*14
$GPHDT,90.237,T*0A
$GNACCURACY,3.7*12
$GNGGA,041326.700,2500.7853938,N,12132.4478958,E,4,55,0.48,16.740,M,15.25,M,0,3335*4B
$GNRMC,041326.700,A,2500.7853938,N,12132.4478958,E,0.01,317.03,090324,,,R,V*13
$GPHDT,,T*1B
$GNACCURACY,3.7*12
$GNGGA,041326.800,2500.7853932,N,12132.4478913,E,4,55,0.48,16.746,M,15.25,M,0,3335*47
$GNRMC,041326.800,A,2500.7853932,N,12132.4478913,E,0.01,317.03,090324,,,R,V*19
$GPHDT,90.547,T*0A
$GNACCURACY,3.7*12
$GNGGA,041326.900,2500.7853929,N,12132.4478926,E,4,55,0.48,16.744,M,15.25,M,0,3335*48
$GNRMC,041326.900,A,2500.7853929,N,12132.4478926,E,0.01,317.03,090324,,,R,V*14
$GPHDT,,T*1B
$GNACCURACY,3.7*12
$GNGGA,041327.000,2500.7853947,N,12132.4478933,E,4,55,0.48,16.745,M,15.25,M,1,3335*4C
$GNRMC,041327.000,A,2500.7853947,N,12132.4478933,E,0.01,317.03,090324,,,R,V*10
$GPHDT,90.493,T*02
$GNACCURACY,3.7*12
$GNGGA,041327.100,2500.7853929,N,12132.4478945,E,4,55,0.48,16.743,M,15.25,M,1,3335*42
$GNRMC,041327.100,A,2500.7853929,N,12132.4478945,E,0.01,317.03,090324,,,R,V*18
$GPHDT,,T*1B
$GNGSA,A,3,195,194,21,08,199,02,07,27,16,09,196,04,0.81,0.48,0.66,1*0B
$GNGSA,A,3,30,,,,,,,,,,,,0.81,0.48,0.66,1*07
$GNGSA,A,3,81,78,88,79,77,82,,,,,,,0.81,0.48,0.66,2*05
$GNGSA,A,3,21,13,26,27,15,,,,,,,,0.81,0.48,0.66,3*02
$GNGSA,A,3,23,09,06,16,40,07,43,28,39,10,25,37,0.81,0.48,0.66,4*0E
$GNGSA,A,3,34,,,,,,,,,,,,0.81,0.48,0.66,4*06
$GPGSV,4,1,15,195,65,113,42,194,64,053,34,21,62,153,43,08,61,358,38,1*6C
$GPGSV,4,2,15,199,60,167,39,50,60,167,42,02,50,176,45,07,43,315,39,1*55
$GPGSV,4,3,15,27,31,037,39,16,26,077,26,09,22,244,20,196,19,169,18,1*51
$GPGSV,4,4,15,04,16,201,16,30,13,320,15,26,07,101,20,1*52
$GPGSV,3,1,10,195,65,113,45,194,64,053,39,08,61,358,38,199,60,167,43,8*5A
$GPGSV,3,2,10,27,31,037,35,09,22,244,21,196,19,169,27,04,16,201,27,8*58
$GPGSV,3,3,10,30,13,320,33,26,07,101,17,8*69
$GLGSV,2,1,07,81,67,203,44,78,57,041,37,88,53,030,40,79,28,335,22,1*79
$GLGSV,2,2,07,77,22,112,12,82,17,205,31,87,01,026,,1*4D
$GAGSV,2,1,07,21,55,014,39,13,54,077,25,26,45,172,44,27,28,081,24,7*7E
$GAGSV,2,2,07,19,26,239,,15,13,038,24,04,12,298,18,7*46
$GAGSV,2,1,05,21,55,014,41,13,54,077,26,26,45,172,44,27,28,081,17,1*76
$GAGSV,2,2,05,15,13,038,22,1*4D
$GBGSV,4,1,13,23,74,037,45,09,72,263,40,06,70,214,41,16,67,199,43,1*7A
$GBGSV,4,2,13,40,60,330,39,07,60,309,37,43,57,036,37,28,57,223,42,1*7C
$GBGSV,4,3,13,39,57,188,43,10,51,290,33,25,36,119,34,37,31,322,37,1*7E
$GBGSV,4,4,13,34,10,040,35,1*40
$GBGSV,2,1,07,23,74,037,43,40,60,330,39,39,57,188,43,43,57,036,38,4*7B
$GBGSV,2,2,07,28,57,223,38,25,36,119,39,37,31,322,29,4*4B
$GNACCURACY,3.7*12
$PAIRSAT,1,35,2,0,201,3,0,200,4,0,221,5,0,200,6,0,200,7,0,201,8,0,221,9,0,220,10,0,200,11,0,200,12,0,200,13,0,200,14,0,200,15,0,200,16,0,201,17,0,200,18,0,200,19,0,200,20,0,200,21,0,201,22,0,200,23,0,200,24,0,200,25,0,200,26,0,220,27,0,221,28,0,200,29,0,200,30,0,221,31,0,200,32,0,200,194,0,621,195,0,621,196,0,620,199,0,621*5A
$PAIRSAT,2,24,65,0,200,66,0,200,67,0,200,68,0,200,69,0,200,70,0,200,71,0,200,72,0,200,73,0,200,74,0,200,75,0,200,76,0,200,77,0,201,78,0,201,79,0,201,80,0,200,81,0,201,82,0,201,83,0,200,84,0,200,85,0,200,86,0,200,87,0,201,88,0,201*7B
$PAIRSAT,3,23,2,0,1200,3,0,1200,4,0,1200,5,0,200,7,0,1200,8,0,1200,9,0,1200,10,0,1200,11,0,1200,12,0,1200,13,0,1221,15,0,1220,19,0,1201,21,0,1221,24,0,1200,25,0,1200,26,0,1221,27,0,1221,30,0,1200,31,0,1200,33,0,1200,34,0,1000,36,0,1200*6B
$PAIRSAT,4,46,1,0,200,2,0,200,3,0,600,4,0,200,5,0,200,6,0,201,7,0,201,8,0,200,9,0,201,10,0,201,11,0,200,12,0,200,13,0,200,14,0,200,16,0,201,19,0,600,20,0,600,21,0,600,22,0,600,23,0,621,24,0,600,25,0,621,26,0,600,27,0,600,28,0,621,29,0,600,30,0,600,32,0,600,33,0,600,34,0,621,35,0,600,36,0,600,37,0,621,38,0,600,39,0,621,40,0,621,41,0,600,42,0,600,43,0,621,44,0,400,45,0,400,46,0,400,59,0,400,60,0,400,61,0,400,62,0,400*4A
$PAIRDGP,10,2,4,7,8,9,16,21,26,27,30*42
$GNGGA,041327.200,2500.7853945,N,12132.4478956,E,4,56,0.48,16.746,M,15.25,M,1,3335*4F
$GNRMC,041327.200,A,2500.7853945,N,12132.4478956,E,0.01,317.03,090324,,,R,V*13
$GPHDT,90.266,T*0E
$GNACCURACY,3.7*12
$GNGGA,041327.300,2500.7853945,N,12132.4478936,E,4,56,0.48,16.749,M,15.25,M,1,3335*47
$GNRMC,041327.300,A,2500.7853945,N,12132.4478936,E,0.01,317.03,090324,,,R,V*14
$GPHDT,,T*1B
$GNACCURACY,3.7*12
$GNGGA,041327.400,2500.7853943,N,12132.4478948,E,4,56,0.48,16.751,M,15.25,M,1,3335*46
$GNRMC,041327.400,A,2500.7853943,N,12132.4478948,E,0.01,317.03,090324,,,R,V*1C
$GPHDT,90.455,T*08
$GNACCURACY,3.7*12
$GNGGA,041327.500,2500.7853930,N,12132.4478907,E,4,55,0.48,16.754,M,15.25,M,1,3335*4E
$GNRMC,041327.500,A,2500.7853930,N,12132.4478907,E,0.01,317.03,090324,,,R,V*12
$GPHDT,,T*1B
$GNACCURACY,3.7*12
$GNGGA,041327.600,2500.7853953,N,12132.4478943,E,4,55,0.48,16.752,M,15.25,M,1,3335*4E
$GNRMC,041327.600,A,2500.7853953,N,12132.4478943,E,0.01,317.03,090324,,,R,V*14
$GPHDT,90.413,T*0A
$GNACCURACY,3.7*12
$GNGGA,041327.700,2500.7853939,N,12132.4478951,E,4,55,0.48,16.752,M,15.25,M,0,3335*41
$GNRMC,041327.700,A,2500.7853939,N,12132.4478951,E,0.01,317.03,090324,,,R,V*1A
$GPHDT,,T*1B
$GNACCURACY,3.7*12
$GNGGA,041327.800,2500.7853943,N,12132.4478989,E,4,55,0.48,16.740,M,15.25,M,0,3335*45
$GNRMC,041327.800,A,2500.7853943,N,12132.4478989,E,0.01,317.03,090324,,,R,V*1D
$GPHDT,90.344,T*0F
$GNACCURACY,3.7*12
$GNGGA,041327.900,2500.7853940,N,12132.4478932,E,4,55,0.48,16.755,M,15.25,M,0,3335*43
$GNRMC,041327.900,A,2500.7853940,N,12132.4478932,E,0.01,317.03,090324,,,R,V*1F
$GPHDT,,T*1B
$GNACCURACY,3.7*12
$GNGGA,041328.000,2500.7853932,N,12132.4478957,E,4,56,0.48,16.753,M,15.25,M,1,3335*47
$GNRMC,041328.000,A,2500.7853932,N,12132.4478957,E,0.01,317.03,090324,,,R,V*1F
$GPHDT,90.187,T*02
$GNACCURACY,3.7*12
$GNGGA,041328.100,2500.7853937,N,12132.4478944,E,4,56,0.48,16.755,M,15.25,M,1,3335*47
$GNRMC,041328.100,A,2500.7853937,N,12132.4478944,E,0.01,317.03,090324,,,R,V*19
$GPHDT,,T*1B
$GNGSA,A,3,195,194,21,08,199,02,07,27,16,09,196,04,0.81,0.48,0.66,1*0B
$GNGSA,A,3,30,,,,,,,,,,,,0.81,0.48,0.66,1*07
$GNGSA,A,3,81,78,88,79,77,82,,,,,,,0.81,0.48,0.66,2*05
$GNGSA,A,3,21,13,26,27,15,,,,,,,,0.81,0.48,0.66,3*02
$GNGSA,A,3,23,09,06,16,40,07,43,28,39,10,25,37,0.81,0.48,0.66,4*0E
$GNGSA,A,3,34,,,,,,,,,,,,0.81,0.48,0.66,4*06
$GPGSV,4,1,15,195,65,113,42,194,64,053,34,21,62,153,43,08,61,358,38,1*6C
$GPGSV,4,2,15,199,60,167,39,50,60,167,42,02,50,176,45,07,43,315,39,1*55
$GPGSV,4,3,15,27,31,037,39,16,26,077,26,09,22,244,20,196,19,169,18,1*51
$GPGSV,4,4,15,04,16,201,16,30,13,320,,26,07,101,21,1*57
$GPGSV,3,1,10,195,65,113,45,194,64,053,39,08,61,358,37,199,60,167,43,8*55
$GPGSV,3,2,10,27,31,037,35,09,22,244,21,196,19,169,27,04,16,201,26,8*59
$GPGSV,3,3,10,30,13,320,32,26,07,101,17,8*68
$GLGSV,2,1,07,81,67,203,44,78,57,041,39,88,53,030,40,79,28,335,23,1*76
$GLGSV,2,2,07,77,22,112,12,82,17,205,32,87,01,026,,1*4E
$GAGSV,2,1,07,21,55,014,39,13,54,077,21,26,45,172,44,27,28,081,24,7*7A
$GAGSV,2,2,07,19,26,239,,15,12,038,25,04,12,298,18,7*46
$GAGSV,2,1,05,21,55,014,40,13,54,077,26,26,45,172,44,27,28,081,17,1*77
$GAGSV,2,2,05,15,12,038,22,1*4C
$GBGSV,4,1,13,23,74,037,45,09,72,263,40,06,70,214,41,16,67,199,43,1*7A
$GBGSV,4,2,13,40,60,330,39,07,60,309,37,43,57,036,37,28,57,223,42,1*7C
$GBGSV,4,3,13,39,57,188,43,10,51,290,33,25,36,119,30,37,31,322,37,1*7A
$GBGSV,4,4,13,34,10,040,35,1*40
$GBGSV,2,1,07,23,74,037,43,40,60,330,39,39,57,188,43,43,57,036,38,4*7B
$GBGSV,2,2,07,28,57,223,38,25,36,119,39,37,31,322,28,4*4A
$GNACCURACY,3.7*12
$PAIRSAT,1,35,2,0,201,3,0,200,4,0,221,5,0,200,6,0,200,7,0,201,8,0,221,9,0,220,10,0,200,11,0,200,12,0,200,13,0,200,14,0,200,15,0,200,16,0,201,17,0,200,18,0,200,19,0,200,20,0,200,21,0,201,22,0,200,23,0,200,24,0,200,25,0,200,26,0,220,27,0,221,28,0,200,29,0,200,30,0,221,31,0,200,32,0,200,194,0,621,195,0,621,196,0,620,199,0,621*5A
$PAIRSAT,2,24,65,0,200,66,0,200,67,0,200,68,0,200,69,0,200,70,0,200,71,0,200,72,0,200,73,0,200,74,0,200,75,0,200,76,0,200,77,0,201,78,0,201,79,0,201,80,0,200,81,0,201,82,0,201,83,0,200,84,0,200,85,0,200,86,0,200,87,0,201,88,0,201*7B
$PAIRSAT,3,23,2,0,1200,3,0,1200,4,0,1200,5,0,200,7,0,1200,8,0,1200,9,0,1200,10,0,1200,11,0,1200,12,0,1200,13,0,1221,15,0,1220,19,0,1201,21,0,1221,24,0,1200,25,0,1200,26,0,1221,27,0,1221,30,0,1200,31,0,1200,33,0,1200,34,0,1000,36,0,1200*6B
$PAIRSAT,4,46,1,0,200,2,0,200,3,0,600,4,0,200,5,0,200,6,0,201,7,0,201,8,0,200,9,0,201,10,0,201,11,0,200,12,0,200,13,0,200,14,0,200,16,0,201,19,0,600,20,0,600,21,0,600,22,0,600,23,0,621,24,0,600,25,0,621,26,0,600,27,0,600,28,0,621,29,0,600,30,0,600,32,0,600,33,0,600,34,0,621,35,0,600,36,0,600,37,0,621,38,0,600,39,0,621,40,0,621,41,0,600,42,0,600,43,0,621,44,0,400,45,0,400,46,0,400,59,0,400,60,0,400,61,0,400,62,0,400*4A
$PAIRDGP,10,2,4,7,8,9,16,21,26,27,30*42
$GNGGA,041328.200,2500.7853933,N,12132.4478965,E,4,56,0.48,16.736,M,15.25,M,1,3335*46
$GNRMC,041328.200,A,2500.7853933,N,12132.4478965,E,0.01,317.03,090324,,,R,V*1D
$GPHDT,89.968,T*03
$GNACCURACY,3.7*12
$GNGGA,041328.300,2500.7853928,N,12132.4478951,E,4,56,0.48,16.747,M,15.25,M,1,3335*4C
$GNRMC,041328.300,A,2500.7853928,N,12132.4478951,E,0.01,317.03,090324,,,R,V*11
$GPHDT,,T*1B
$GNACCURACY,3.7*12
$GNGGA,041328.400,2500.7853925,N,12132.4478975,E,4,55,0.48,16.747,M,15.25,M,1,3335*43
$GNRMC,041328.400,A,2500.7853925,N,12132.4478975,E,0.01,317.03,090324,,,R,V*1D
$GPHDT,90.017,T*0A
$GNACCURACY,3.6*13
$GNGGA,041328.500,2500.7853936,N,12132.4478990,E,4,54,0.50,16.758,M,15.25,M,1,3335*4D
$GNRMC,041328.500,A,2500.7853936,N,12132.4478990,E,0.01,317.03,090324,,,R,V*15
$GPHDT,,T*1B
$GNACCURACY,3.6*13
$GNGGA,041328.600,2500.7853878,N,12132.4478999,E,4,54,0.50,16.751,M,15.25,M,0,3335*44
$GNRMC,041328.600,A,2500.7853878,N,12132.4478999,E,0.02,317.03,090324,,,R,V*17
$GPHDT,89.816,T*0B
$GNACCURACY,3.6*13
$GNGGA,041328.700,2500.7853925,N,12132.4478968,E,4,54,0.50,16.766,M,15.25,M,0,3335*46
$GNRMC,041328.700,A,2500.7853925,N,12132.4478968,E,0.01,317.03,090324,,,R,V*12
$GPHDT,,T*1B
$GNACCURACY,3.7*12
$GNGGA,041328.800,2500.7853942,N,12132.4478958,E,4,54,0.50,16.761,M,15.25,M,0,3335*4C
$GNRMC,041328.800,A,2500.7853942,N,12132.4478958,E,0.01,317.03,090324,,,R,V*1F
$GPHDT,89.545,T*00
$GNACCURACY,3.7*12
$GNGGA,041328.900,2500.7853923,N,12132.4478971,E,4,54,0.50,16.765,M,15.25,M,0,3335*45
$GNRMC,041328.900,A,2500.7853923,N,12132.4478971,E,0.01,317.03,090324,,,R,V*12
$GPHDT,,T*1B
