$FW : RTK35X,V1.1X0314AS,Lib20210517,1*54
$Tool : LOCOSYS , GNSS Firebird , v1.0.0.19*39
$---------------------------------------------------*2D
$GNACCURACY,3.6*13
$GNGGA,041237.900,2500.7853760,N,12132.4479005,E,4,57,0.48,16.695,M,15.25,M,0,3335*4C
$GNRMC,041237.900,A,2500.7853760,N,12132.4479005,E,0.03,317.03,090324,,,R,V*1D
$GPHDT,,T*1B
$GNACCURACY,3.6*13
$GNGGA,041238.000,2500.7853782,N,12132.4479035,E,4,57,0.48,16.686,M,15.25,M,1,3335*46
$GNRMC,041238.000,A,2500.7853782,N,12132.4479035,E,0.01,317.03,090324,,,R,V*16
$GPHDT,271.383,T*39
$GNACCURACY,3.6*13
$GNGGA,041238.100,2500.7853795,N,12132.4479022,E,4,57,0.48,16.686,M,15.25,M,1,3335*47
$GNRMC,041238.100,A,2500.7853795,N,12132.4479022,E,0.01,317.03,090324,,,R,V*17
$GPHDT,,T*1B
$GNGSA,A,3,195,194,21,08,199,02,07,27,16,196,04,30,0.73,0.48,0.55,1*0C
$GNGSA,A,3,09,,,,,,,,,,,,0.73,0.48,0.55,1*00
$GNGSA,A,3,81,78,88,79,77,82,,,,,,,0.73,0.48,0.55,2*08
$GNGSA,A,3,21,13,26,27,15,,,,,,,,0.73,0.48,0.55,3*0F
$GNGSA,A,3,23,09,06,16,07,40,43,28,39,10,25,37,0.73,0.48,0.55,4*03
$GNGSA,A,3,34,,,,,,,,,,,,0.73,0.48,0.55,4*0B
$GPGSV,4,1,15,195,65,113,40,194,64,053,33,21,62,154,36,08,61,357,45,1*69
$GPGSV,4,2,15,199,60,167,35,50,60,167,38,02,50,176,30,07,43,316,39,1*55
$GPGSV,4,3,15,27,32,037,37,16,27,077,32,09,23,245,14,196,19,169,19,1*5E
$GPGSV,4,4,15,04,16,202,20,30,12,320,33,26,07,101,,1*53
$GPGSV,3,1,10,195,65,113,43,194,64,053,41,08,61,357,45,199,60,167,42,8*57
$GPGSV,3,2,10,27,32,037,39,09,23,245,18,196,19,169,17,04,16,202,23,8*59
$GPGSV,3,3,10,30,12,320,31,26,07,101,20,8*6E
$GLGSV,2,1,07,81,67,202,39,78,57,041,40,88,53,030,38,79,27,335,41,1*77
$GLGSV,2,2,07,77,22,112,30,82,17,205,29,87,01,026,,1*44
$GAGSV,2,1,08,21,55,014,43,13,54,078,30,26,45,172,27,27,28,081,17,7*72
$GAGSV,2,2,08,19,26,240,,15,13,038,17,04,12,298,,33,05,199,,7*7A
$GAGSV,1,1,04,21,55,014,42,13,54,078,20,26,45,172,36,27,28,081,23,1*7C
$GBGSV,4,1,13,23,74,036,43,09,73,264,40,06,70,214,40,16,67,199,39,1*77
$GBGSV,4,2,13,07,60,309,33,40,60,330,43,43,57,036,39,28,57,223,32,1*7C
$GBGSV,4,3,13,39,57,187,35,10,51,290,30,25,36,119,47,37,31,322,43,1*74
$GBGSV,4,4,13,34,10,040,23,1*47
$GBGSV,2,1,08,23,74,036,44,40,60,330,40,39,57,187,21,43,57,036,41,4*79
$GBGSV,2,2,08,28,57,223,36,25,36,119,38,37,31,322,40,34,10,040,13,4*74
$GNACCURACY,3.6*13
$PAIRSAT,1,35,2,0,201,3,0,200,4,0,221,5,0,200,6,0,200,7,0,201,8,0,221,9,0,220,10,0,200,11,0,200,12,0,200,13,0,200,14,0,200,15,0,200,16,0,201,17,0,200,18,0,200,19,0,200,20,0,200,21,0,201,22,0,200,23,0,200,24,0,200,25,0,200,26,0,220,27,0,221,28,0,200,29,0,200,30,0,221,31,0,200,32,0,200,194,0,621,195,0,621,196,0,620,199,0,621*5A
$PAIRSAT,2,24,65,0,200,66,0,200,67,0,200,68,0,200,69,0,200,70,0,200,71,0,200,72,0,200,73,0,200,74,0,200,75,0,200,76,0,200,77,0,201,78,0,201,79,0,201,80,0,200,81,0,201,82,0,201,83,0,200,84,0,200,85,0,200,86,0,200,87,0,201,88,0,201*7B
$PAIRSAT,3,23,2,0,1200,3,0,1200,4,0,1200,5,0,200,7,0,1200,8,0,1200,9,0,1200,10,0,1200,11,0,1200,12,0,1200,13,0,1221,15,0,1220,19,0,1201,21,0,1221,24,0,1200,25,0,1200,26,0,1221,27,0,1221,30,0,1200,31,0,1200,33,0,1200,34,0,1000,36,0,1200*6B
$PAIRSAT,4,46,1,0,200,2,0,200,3,0,600,4,0,200,5,0,200,6,0,201,7,0,201,8,0,200,9,0,201,10,0,201,11,0,200,12,0,200,13,0,200,14,0,200,16,0,201,19,0,600,20,0,600,21,0,600,22,0,600,23,0,621,24,0,600,25,0,621,26,0,600,27,0,600,28,0,621,29,0,600,30,0,600,32,0,600,33,0,600,34,0,621,35,0,600,36,0,600,37,0,621,38,0,600,39,0,621,40,0,621,41,0,600,42,0,600,43,0,621,44,0,400,45,0,400,46,0,400,59,0,400,60,0,400,61,0,400,62,0,400*4A
$PAIRDGP,10,2,4,7,8,9,16,21,26,27,30*42
$GNGGA,041238.200,2500.7853778,N,12132.4479016,E,4,57,0.48,16.683,M,15.25,M,1,3335*45
$GNRMC,041238.200,A,2500.7853778,N,12132.4479016,E,0.01,317.03,090324,,,R,V*10
$GPHDT,271.891,T*31
$GNACCURACY,3.6*13
$GNGGA,041238.300,2500.7853797,N,12132.4479064,E,4,57,0.48,16.694,M,15.25,M,1,3335*46
$GNRMC,041238.300,A,2500.7853797,N,12132.4479064,E,0.01,317.03,090324,,,R,V*15
$GPHDT,,T*1B
$GNACCURACY,3.6*13
$GNGGA,041238.400,2500.7853789,N,12132.4479018,E,4,57,0.48,16.687,M,15.25,M,1,3335*47
$GNRMC,041238.400,A,2500.7853789,N,12132.4479018,E,0.01,317.03,090324,,,R,V*16
$GPHDT,272.134,T*34
$GNACCURACY,3.6*13
$GNGGA,041238.500,2500.7853791,N,12132.4479038,E,4,57,0.48,16.694,M,15.25,M,1,3335*4F
$GNRMC,041238.500,A,2500.7853791,N,12132.4479038,E,0.01,317.03,090324,,,R,V*1C
$GPHDT,,T*1B
$GNACCURACY,3.6*13
$GNGGA,041238.600,2500.7853798,N,12132.4479016,E,4,57,0.48,16.691,M,15.25,M,0,3335*4D
$GNRMC,041238.600,A,2500.7853798,N,12132.4479016,E,0.01,317.03,090324,,,R,V*1A
$GPHDT,272.634,T*33
$GNACCURACY,3.6*13
$GNGGA,041238.700,2500.7853746,N,12132.4478974,E,4,57,0.48,16.697,M,15.25,M,0,3335*45
$GNRMC,041238.700,A,2500.7853746,N,12132.4478974,E,0.01,317.03,090324,,,R,V*14
$GPHDT,,T*1B
$GNACCURACY,3.6*13
$GNGGA,041238.800,2500.7853770,N,12132.4478971,E,4,57,0.48,16.674,M,15.25,M,0,3335*47
$GNRMC,041238.800,A,2500.7853770,N,12132.4478971,E,0.01,317.03,090324,,,R,V*1B
$GPHDT,273.486,T*39
$GNACCURACY,3.6*13
$GNGGA,041238.900,2500.7853752,N,12132.4478973,E,4,57,0.48,16.682,M,15.25,M,0,3335*4D
$GNRMC,041238.900,A,2500.7853752,N,12132.4478973,E,0.01,317.03,090324,,,R,V*18
$GPHDT,,T*1B
$GNACCURACY,3.6*13
$GNGGA,041239.000,2500.7853755,N,12132.4479020,E,4,57,0.48,16.700,M,15.25,M,1,3335*46
$GNRMC,041239.000,A,2500.7853755,N,12132.4479020,E,0.01,317.03,090324,,,R,V*19
$GPHDT,273.430,T*34
$GNACCURACY,3.6*13
$GNGGA,041239.100,2500.7853802,N,12132.4479016,E,4,57,0.48,16.714,M,15.25,M,1,3335*4A
$GNRMC,041239.100,A,2500.7853802,N,12132.4479016,E,0.01,317.03,090324,,,R,V*10
$GPHDT,,T*1B
$GNGSA,A,3,195,194,21,08,199,02,07,27,16,196,04,30,0.73,0.48,0.55,1*0C
$GNGSA,A,3,09,,,,,,,,,,,,0.73,0.48,0.55,1*00
$GNGSA,A,3,81,78,88,79,77,82,,,,,,,0.73,0.48,0.55,2*08
$GNGSA,A,3,21,13,26,27,15,,,,,,,,0.73,0.48,0.55,3*0F
$GNGSA,A,3,23,09,06,16,07,40,28,43,39,10,25,37,0.73,0.48,0.55,4*03
$GNGSA,A,3,34,,,,,,,,,,,,0.73,0.48,0.55,4*0B
$GPGSV,4,1,15,195,65,113,40,194,64,053,34,21,62,154,39,08,61,357,45,1*61
$GPGSV,4,2,15,199,60,167,35,50,60,167,38,02,50,176,38,07,43,316,40,1*53
$GPGSV,4,3,15,27,32,037,37,16,27,077,30,09,23,245,14,196,19,169,18,1*5D
$GPGSV,4,4,15,04,16,202,24,30,12,320,34,26,07,101,,1*50
$GPGSV,3,1,10,195,65,113,46,194,64,053,41,08,61,357,46,199,60,167,44,8*57
$GPGSV,3,2,10,27,32,037,39,09,23,245,18,196,19,169,17,04,16,202,24,8*5E
$GPGSV,3,3,10,30,12,320,30,26,07,101,20,8*6F
$GLGSV,2,1,08,81,67,202,43,78,57,041,40,88,53,030,37,79,27,335,41,1*7A
$GLGSV,2,2,08,77,22,112,30,82,17,205,28,68,01,235,,87,01,026,,1*71
$GAGSV,2,1,08,21,55,014,44,13,54,078,30,26,45,172,26,27,28,081,17,7*74
$GAGSV,2,2,08,19,26,240,,15,13,038,17,04,12,298,,33,05,199,,7*7A
$GAGSV,1,1,04,21,55,014,42,13,54,078,18,26,45,172,38,27,28,081,25,1*7F
$GBGSV,4,1,13,23,74,036,42,09,73,264,40,06,70,214,42,16,67,199,43,1*79
$GBGSV,4,2,13,07,60,309,37,40,60,330,43,28,57,223,38,43,57,036,38,1*73
$GBGSV,4,3,13,39,57,187,31,10,51,290,30,25,36,119,48,37,31,322,43,1*7F
$GBGSV,4,4,13,34,10,040,24,1*40
$GBGSV,2,1,08,23,74,036,44,40,60,330,41,39,57,187,34,43,57,036,41,4*7C
$GBGSV,2,2,08,28,57,223,40,25,36,119,40,37,31,322,39,34,10,040,14,4*73
$GNACCURACY,3.6*13
$PAIRSAT,1,35,2,0,201,3,0,200,4,0,221,5,0,200,6,0,200,7,0,201,8,0,221,9,0,220,10,0,200,11,0,200,12,0,200,13,0,200,14,0,200,15,0,200,16,0,201,17,0,200,18,0,200,19,0,200,20,0,200,21,0,201,22,0,200,23,0,200,24,0,200,25,0,200,26,0,220,27,0,221,28,0,200,29,0,200,30,0,221,31,0,200,32,0,200,194,0,621,195,0,621,196,0,620,199,0,621*5A
$PAIRSAT,2,24,65,0,200,66,0,200,67,0,200,68,0,200,69,0,200,70,0,200,71,0,200,72,0,200,73,0,200,74,0,200,75,0,200,76,0,200,77,0,201,78,0,201,79,0,201,80,0,200,81,0,201,82,0,201,83,0,200,84,0,200,85,0,200,86,0,200,87,0,201,88,0,201*7B
$PAIRSAT,3,23,2,0,1200,3,0,1200,4,0,1200,5,0,200,7,0,1200,8,0,1200,9,0,1200,10,0,1200,11,0,1200,12,0,1200,13,0,1221,15,0,1220,19,0,1201,21,0,1221,24,0,1200,25,0,1200,26,0,1221,27,0,1221,30,0,1200,31,0,1200,33,0,1200,34,0,1000,36,0,1200*6B
$PAIRSAT,4,46,1,0,200,2,0,200,3,0,600,4,0,200,5,0,200,6,0,201,7,0,201,8,0,200,9,0,201,10,0,201,11,0,200,12,0,200,13,0,200,14,0,200,16,0,201,19,0,600,20,0,600,21,0,600,22,0,600,23,0,621,24,0,600,25,0,621,26,0,600,27,0,600,28,0,621,29,0,600,30,0,600,32,0,600,33,0,600,34,0,621,35,0,600,36,0,600,37,0,621,38,0,600,39,0,621,40,0,621,41,0,600,42,0,600,43,0,621,44,0,400,45,0,400,46,0,400,59,0,400,60,0,400,61,0,400,62,0,400*4A
$PAIRDGP,10,2,4,7,8,9,16,21,26,27,30*42
$GNGGA,041239.200,2500.7853768,N,12132.4478969,E,4,57,0.48,16.692,M,15.25,M,1,3335*45
$GNRMC,041239.200,A,2500.7853768,N,12132.4478969,E,0.01,317.03,090324,,,R,V*10
$GPHDT,273.268,T*3F
$GNACCURACY,3.6*13
$GNGGA,041239.300,2500.7853775,N,12132.4478987,E,4,57,0.48,16.693,M,15.25,M,1,3335*49
$GNRMC,041239.300,A,2500.7853775,N,12132.4478987,E,0.01,317.03,090324,,,R,V*1D
$GPHDT,,T*1B
$GNACCURACY,3.6*13
$GNGGA,041239.400,2500.7853762,N,12132.4478972,E,4,57,0.48,16.687,M,15.25,M,1,3335*47
$GNRMC,041239.400,A,2500.7853762,N,12132.4478972,E,0.01,317.03,090324,,,R,V*16
$GPHDT,273.384,T*3C
$GNACCURACY,3.6*13
$GNGGA,041239.500,2500.7853747,N,12132.4478976,E,4,57,0.48,16.681,M,15.25,M,1,3335*43
$GNRMC,041239.500,A,2500.7853747,N,12132.4478976,E,0.01,317.03,090324,,,R,V*14
$GPHDT,,T*1B
$GNACCURACY,3.6*13
$GNGGA,041239.600,2500.7853748,N,12132.4478971,E,4,57,0.48,16.681,M,15.25,M,1,3335*48
$GNRMC,041239.600,A,2500.7853748,N,12132.4478971,E,0.01,317.03,090324,,,R,V*1F
$GPHDT,272.720,T*37
$GNACCURACY,3.6*13
$GNGGA,041239.700,2500.7853762,N,12132.4478978,E,4,57,0.48,16.681,M,15.25,M,1,3335*48
$GNRMC,041239.700,A,2500.7853762,N,12132.4478978,E,0.01,317.03,090324,,,R,V*1F
$GPHDT,,T*1B
$GNACCURACY,3.6*13
$GNGGA,041239.800,2500.7853778,N,12132.4478960,E,4,57,0.48,16.654,M,15.25,M,1,3335*4D
$GNRMC,041239.800,A,2500.7853778,N,12132.4478960,E,0.00,317.03,090324,,,R,V*13
$GPHDT,272.725,T*32
$GNACCURACY,3.6*13
$GNGGA,041239.900,2500.7853755,N,12132.4478970,E,4,58,0.48,16.687,M,15.25,M,0,3335*42
$GNRMC,041239.900,A,2500.7853755,N,12132.4478970,E,0.01,317.03,090324,,,R,V*1D
$GPHDT,,T*1B
$GNACCURACY,3.6*13
$GNGGA,041240.000,2500.7853758,N,12132.4478999,E,4,58,0.48,16.709,M,15.25,M,1,3335*49
$GNRMC,041240.000,A,2500.7853758,N,12132.4478999,E,0.01,317.03,090324,,,R,V*10
$GPHDT,272.319,T*39
$GNACCURACY,3.6*13
$GNGGA,041240.100,2500.7853756,N,12132.4479016,E,4,58,0.48,16.716,M,15.25,M,1,3335*47
$GNRMC,041240.100,A,2500.7853756,N,12132.4479016,E,0.02,317.03,090324,,,R,V*13
$GPHDT,,T*1B
$GNGSA,A,3,195,194,21,08,199,02,07,27,16,196,04,30,0.73,0.48,0.55,1*0C
$GNGSA,A,3,09,,,,,,,,,,,,0.73,0.48,0.55,1*00
$GNGSA,A,3,81,78,88,79,77,82,,,,,,,0.73,0.48,0.55,2*08
$GNGSA,A,3,21,13,26,27,15,,,,,,,,0.73,0.48,0.55,3*0F
$GNGSA,A,3,23,09,06,16,40,07,43,28,39,10,25,37,0.73,0.48,0.55,4*03
$GNGSA,A,3,34,,,,,,,,,,,,0.73,0.48,0.55,4*0B
$GPGSV,4,1,15,195,65,113,41,194,64,053,35,21,62,154,42,08,61,357,44,1*6C
$GPGSV,4,2,15,199,60,167,36,50,60,167,39,02,50,176,41,07,43,316,41,1*5E
$GPGSV,4,3,15,27,32,037,38,16,27,077,31,09,23,245,13,196,19,169,15,1*59
$GPGSV,4,4,15,04,16,202,21,30,12,320,34,26,07,101,,1*55
$GPGSV,3,1,10,195,65,113,46,194,64,053,41,08,61,357,46,199,60,167,44,8*57
$GPGSV,3,2,10,27,32,037,38,09,23,245,19,196,19,169,17,04,16,202,26,8*5C
$GPGSV,3,3,10,30,12,320,30,26,07,101,18,8*64
$GLGSV,2,1,07,81,67,202,44,78,57,041,40,88,53,030,38,79,27,335,41,1*7D
$GLGSV,2,2,07,77,22,112,28,82,17,205,28,87,01,026,,1*4C
$GAGSV,2,1,07,21,55,014,44,13,54,078,29,26,45,172,29,27,28,081,20,7*78
$GAGSV,2,2,07,19,26,240,,15,13,038,19,04,12,298,,7*4F
$GAGSV,2,1,05,21,55,014,43,13,54,078,19,26,45,172,37,27,28,081,25,1*72
$GAGSV,2,2,05,15,13,038,19,1*45
$GBGSV,4,1,13,23,74,036,42,09,73,264,39,06,70,214,42,16,67,199,43,1*77
$GBGSV,4,2,13,40,60,330,43,07,60,309,36,43,57,036,38,28,57,223,39,1*73
$GBGSV,4,3,13,39,57,187,28,10,51,290,30,25,36,119,48,37,31,322,42,1*76
$GBGSV,4,4,13,34,10,040,24,1*40
$GBGSV,2,1,08,23,74,036,44,40,60,330,41,39,57,187,36,43,57,036,41,4*7E
$GBGSV,2,2,08,28,57,223,40,25,36,119,41,37,31,322,39,34,10,040,11,4*77
$GNACCURACY,3.6*13
$PAIRSAT,1,35,2,0,201,3,0,200,4,0,221,5,0,200,6,0,200,7,0,201,8,0,221,9,0,220,10,0,200,11,0,200,12,0,200,13,0,200,14,0,200,15,0,200,16,0,201,17,0,200,18,0,200,19,0,200,20,0,200,21,0,201,22,0,200,23,0,200,24,0,200,25,0,200,26,0,220,27,0,221,28,0,200,29,0,200,30,0,221,31,0,200,32,0,200,194,0,621,195,0,621,196,0,620,199,0,621*5A
$PAIRSAT,2,24,65,0,200,66,0,200,67,0,200,68,0,200,69,0,200,70,0,200,71,0,200,72,0,200,73,0,200,74,0,200,75,0,200,76,0,200,77,0,201,78,0,201,79,0,201,80,0,200,81,0,201,82,0,201,83,0,200,84,0,200,85,0,200,86,0,200,87,0,201,88,0,201*7B
$PAIRSAT,3,23,2,0,1200,3,0,1200,4,0,1200,5,0,200,7,0,1200,8,0,1200,9,0,1200,10,0,1200,11,0,1200,12,0,1200,13,0,1221,15,0,1220,19,0,1201,21,0,1221,24,0,1200,25,0,1200,26,0,1221,27,0,1221,30,0,1200,31,0,1200,33,0,1200,34,0,1000,36,0,1200*6B
$PAIRSAT,4,46,1,0,200,2,0,200,3,0,600,4,0,200,5,0,200,6,0,201,7,0,201,8,0,200,9,0,201,10,0,201,11,0,200,12,0,200,13,0,200,14,0,200,16,0,201,19,0,600,20,0,600,21,0,600,22,0,600,23,0,621,24,0,600,25,0,621,26,0,600,27,0,600,28,0,621,29,0,600,30,0,600,32,0,600,33,0,600,34,0,621,35,0,600,36,0,600,37,0,621,38,0,600,39,0,621,40,0,621,41,0,600,42,0,600,43,0,621,44,0,400,45,0,400,46,0,400,59,0,400,60,0,400,61,0,400,62,0,400*4A
$PAIRDGP,10,2,4,7,8,9,16,21,26,27,30*42
$GNGGA,041240.200,2500.7853719,N,12132.4478994,E,4,58,0.48,16.705,M,15.25,M,1,3335*4F
$GNRMC,041240.200,A,2500.7853719,N,12132.4478994,E,0.02,317.03,090324,,,R,V*19
$GPHDT,273.125,T*35
$GNACCURACY,3.6*13
$GNGGA,041240.300,2500.7853726,N,12132.4479012,E,4,58,0.48,16.707,M,15.25,M,1,3335*46
$GNRMC,041240.300,A,2500.7853726,N,12132.4479012,E,0.02,317.03,090324,,,R,V*12
$GPHDT,,T*1B
$GNACCURACY,3.6*13
$GNGGA,041240.400,2500.7853750,N,12132.4479018,E,4,58,0.48,16.703,M,15.25,M,1,3335*4E
$GNRMC,041240.400,A,2500.7853750,N,12132.4479018,E,0.02,317.03,090324,,,R,V*1E
$GPHDT,272.725,T*32
$GNACCURACY,3.6*13
$GNGGA,041240.500,2500.7853713,N,12132.4478954,E,4,57,0.48,16.696,M,15.25,M,0,3335*4B
$GNRMC,041240.500,A,2500.7853713,N,12132.4478954,E,0.02,317.03,090324,,,R,V*18
$GPHDT,,T*1B
$GNACCURACY,3.6*13
$GNGGA,041240.600,2500.7853734,N,12132.4479007,E,4,57,0.48,16.709,M,15.25,M,0,3335*44
$GNRMC,041240.600,A,2500.7853734,N,12132.4479007,E,0.02,317.03,090324,,,R,V*10
$GPHDT,272.515,T*33
$GNACCURACY,3.6*13
$GNGGA,041240.700,2500.7853737,N,12132.4479006,E,4,57,0.48,16.718,M,15.25,M,0,3335*47
$GNRMC,041240.700,A,2500.7853737,N,12132.4479006,E,0.02,317.03,090324,,,R,V*13
$GPHDT,,T*1B
$GNACCURACY,3.6*13
$GNGGA,041240.800,2500.7853706,N,12132.4478958,E,4,57,0.48,16.705,M,15.25,M,0,3335*45
$GNRMC,041240.800,A,2500.7853706,N,12132.4478958,E,0.01,317.03,090324,,,R,V*1E
$GPHDT,273.156,T*31
$GNACCURACY,3.6*13
$GNGGA,041240.900,2500.7853734,N,12132.4478996,E,4,57,0.48,16.702,M,15.25,M,0,3335*40
$GNRMC,041240.900,A,2500.7853734,N,12132.4478996,E,0.00,317.03,090324,,,R,V*1D
$GPHDT,,T*1B
$GNACCURACY,3.6*13
$GNGGA,041241.000,2500.7853714,N,12132.4478963,E,4,57,0.48,16.700,M,15.25,M,1,3335*43
$GNRMC,041241.000,A,2500.7853714,N,12132.4478963,E,0.00,317.03,090324,,,R,V*1D
$GPHDT,273.076,T*32
$GNACCURACY,3.6*13
$GNGGA,041241.100,2500.7853697,N,12132.4478981,E,4,56,0.48,16.695,M,15.25,M,1,3335*48
$GNRMC,041241.100,A,2500.7853697,N,12132.4478981,E,0.00,317.03,090324,,,R,V*1A
$GPHDT,,T*1B
$GNGSA,A,3,195,194,21,08,199,02,07,27,16,196,04,30,0.73,0.48,0.55,1*0C
$GNGSA,A,3,09,,,,,,,,,,,,0.73,0.48,0.55,1*00
$GNGSA,A,3,81,78,88,79,77,82,,,,,,,0.73,0.48,0.55,2*08
$GNGSA,A,3,21,13,26,27,15,,,,,,,,0.73,0.48,0.55,3*0F
$GNGSA,A,3,23,09,06,16,40,07,43,28,39,10,25,37,0.73,0.48,0.55,4*03
$GNGSA,A,3,34,,,,,,,,,,,,0.73,0.48,0.55,4*0B
$GPGSV,4,1,15,195,65,113,41,194,64,053,32,21,62,154,38,08,61,357,45,1*67
$GPGSV,4,2,15,199,60,167,36,50,60,167,39,02,50,176,38,07,43,316,39,1*5F
$GPGSV,4,3,15,27,32,037,37,16,27,077,31,09,23,245,11,196,19,169,16,1*57
$GPGSV,4,4,15,04,16,202,22,30,12,320,31,26,07,101,,1*53
$GPGSV,3,1,09,195,65,113,45,194,64,053,40,08,61,357,44,199,60,167,43,8*58
$GPGSV,3,2,09,27,32,037,40,09,23,245,19,04,16,202,22,30,12,320,32,8*61
$GPGSV,3,3,09,26,07,101,19,8*5F
$GLGSV,2,1,07,81,67,202,40,78,57,041,41,88,53,030,38,79,27,335,42,1*7B
$GLGSV,2,2,07,77,22,112,30,82,17,205,29,87,01,026,,1*44
$GAGSV,2,1,07,21,55,014,44,13,54,078,30,26,45,172,21,27,28,081,19,7*72
$GAGSV,2,2,07,19,26,240,,15,13,038,17,04,12,298,,7*41
$GAGSV,1,1,04,21,55,014,42,13,54,078,17,26,45,172,39,27,28,081,22,1*76
$GBGSV,4,1,13,23,74,036,42,09,73,264,41,06,70,214,41,16,67,199,39,1*76
$GBGSV,4,2,13,40,60,330,43,07,60,309,36,43,57,036,36,28,57,223,35,1*71
$GBGSV,4,3,13,39,57,187,31,10,51,290,33,25,36,119,48,37,31,322,42,1*7D
$GBGSV,4,4,13,34,10,040,26,1*42
$GBGSV,2,1,08,23,74,036,44,40,60,330,41,39,57,187,28,43,57,036,41,4*71
$GBGSV,2,2,08,28,57,223,37,25,36,119,39,37,31,322,40,34,10,040,13,4*74
$GNACCURACY,3.6*13
$PAIRSAT,1,35,2,0,201,3,0,200,4,0,221,5,0,200,6,0,200,7,0,201,8,0,221,9,0,220,10,0,200,11,0,200,12,0,200,13,0,200,14,0,200,15,0,200,16,0,201,17,0,200,18,0,200,19,0,200,20,0,200,21,0,201,22,0,200,23,0,200,24,0,200,25,0,200,26,0,220,27,0,221,28,0,200,29,0,200,30,0,221,31,0,200,32,0,200,194,0,621,195,0,621,196,0,620,199,0,621*5A
$PAIRSAT,2,24,65,0,200,66,0,200,67,0,200,68,0,200,69,0,200,70,0,200,71,0,200,72,0,200,73,0,200,74,0,200,75,0,200,76,0,200,77,0,201,78,0,201,79,0,201,80,0,200,81,0,201,82,0,201,83,0,200,84,0,200,85,0,200,86,0,200,87,0,201,88,0,201*7B
$PAIRSAT,3,23,2,0,1200,3,0,1200,4,0,1200,5,0,200,7,0,1200,8,0,1200,9,0,1200,10,0,1200,11,0,1200,12,0,1200,13,0,1221,15,0,1220,19,0,1201,21,0,1221,24,0,1200,25,0,1200,26,0,1221,27,0,1221,30,0,1200,31,0,1200,33,0,1200,34,0,1000,36,0,1200*6B
$PAIRSAT,4,46,1,0,200,2,0,200,3,0,600,4,0,200,5,0,200,6,0,201,7,0,201,8,0,200,9,0,201,10,0,201,11,0,200,12,0,200,13,0,200,14,0,200,16,0,201,19,0,600,20,0,600,21,0,600,22,0,600,23,0,621,24,0,600,25,0,621,26,0,600,27,0,600,28,0,621,29,0,600,30,0,600,32,0,600,33,0,600,34,0,621,35,0,600,36,0,600,37,0,621,38,0,600,39,0,621,40,0,621,41,0,600,42,0,600,43,0,621,44,0,400,45,0,400,46,0,400,59,0,400,60,0,400,61,0,400,62,0,400*4A
$PAIRDGP,10,2,4,7,8,9,16,21,26,27,30*42
$GNGGA,041241.200,2500.7853736,N,12132.4478987,E,4,56,0.48,16.695,M,15.25,M,1,3335*47
$GNRMC,041241.200,A,2500.7853736,N,12132.4478987,E,0.01,317.03,090324,,,R,V*14
$GPHDT,272.933,T*3B
$GNACCURACY,3.6*13
$GNGGA,041241.300,2500.7853694,N,12132.4478981,E,4,56,0.48,16.698,M,15.25,M,1,3335*44
$GNRMC,041241.300,A,2500.7853694,N,12132.4478981,E,0.01,317.03,090324,,,R,V*1A
$GPHDT,,T*1B
$GNACCURACY,3.6*13
$GNGGA,041241.400,2500.7853697,N,12132.4478975,E,4,55,0.48,16.695,M,15.25,M,1,3335*45
$GNRMC,041241.400,A,2500.7853697,N,12132.4478975,E,0.02,317.03,090324,,,R,V*16
$GPHDT,272.964,T*39
$GNACCURACY,3.6*13
$GNGGA,041241.500,2500.7853681,N,12132.4478978,E,4,55,0.48,16.685,M,15.25,M,1,3335*4F
$GNRMC,041241.500,A,2500.7853681,N,12132.4478978,E,0.02,317.03,090324,,,R,V*1D
$GPHDT,,T*1B
$GNACCURACY,3.6*13
$GNGGA,041241.600,2500.7853712,N,12132.4478982,E,4,55,0.48,16.700,M,15.25,M,0,3335*4F
$GNRMC,041241.600,A,2500.7853712,N,12132.4478982,E,0.02,317.03,090324,,,R,V*10
$GPHDT,273.219,T*39
$GNACCURACY,3.6*13
$GNGGA,041241.700,2500.7853710,N,12132.4478985,E,4,55,0.48,16.695,M,15.25,M,0,3335*46
$GNRMC,041241.700,A,2500.7853710,N,12132.4478985,E,0.01,317.03,090324,,,R,V*17
$GPHDT,,T*1B
$GNACCURACY,3.6*13
$GNGGA,041241.800,2500.7853714,N,12132.4478995,E,4,55,0.48,16.699,M,15.25,M,0,3335*40
$GNRMC,041241.800,A,2500.7853714,N,12132.4478995,E,0.01,317.03,090324,,,R,V*1D
$GPHDT,273.392,T*3B
$GNACCURACY,3.6*13
$GNGGA,041241.900,2500.7853739,N,12132.4479014,E,4,55,0.48,16.715,M,15.25,M,0,3335*4A
$GNRMC,041241.900,A,2500.7853739,N,12132.4479014,E,0.01,317.03,090324,,,R,V*12
$GPHDT,,T*1B
$GNACCURACY,3.6*13
$GNGGA,041242.000,2500.7853710,N,12132.4478997,E,4,55,0.48,16.704,M,15.25,M,1,3335*49
$GNRMC,041242.000,A,2500.7853710,N,12132.4478997,E,0.01,317.03,090324,,,R,V*10
$GPHDT,273.049,T*3E
$GNACCURACY,3.6*13
$GNGGA,041242.100,2500.7853734,N,12132.4479021,E,4,55,0.48,16.705,M,15.25,M,1,3335*4A
$GNRMC,041242.100,A,2500.7853734,N,12132.4479021,E,0.01,317.03,090324,,,R,V*12
$GPHDT,,T*1B
$GNGSA,A,3,195,194,21,08,199,02,07,27,16,196,04,30,0.73,0.48,0.55,1*0C
$GNGSA,A,3,09,,,,,,,,,,,,0.73,0.48,0.55,1*00
$GNGSA,A,3,81,78,88,79,77,82,,,,,,,0.73,0.48,0.55,2*08
$GNGSA,A,3,21,13,26,27,15,,,,,,,,0.73,0.48,0.55,3*0F
$GNGSA,A,3,23,09,06,16,07,40,43,39,28,10,25,37,0.73,0.48,0.55,4*03
$GNGSA,A,3,34,,,,,,,,,,,,0.73,0.48,0.55,4*0B
$GPGSV,4,1,15,195,65,113,41,194,64,053,30,21,62,154,38,08,61,357,45,1*65
$GPGSV,4,2,15,199,60,167,36,50,60,167,39,02,50,176,38,07,43,316,40,1*51
$GPGSV,4,3,15,27,32,037,37,16,27,077,31,09,23,245,10,196,19,169,15,1*55
$GPGSV,4,4,15,04,16,202,22,30,12,320,30,26,07,101,,1*52
$GPGSV,3,1,09,195,65,113,44,194,64,053,39,08,61,357,44,199,60,167,43,8*57
$GPGSV,3,2,09,27,32,037,40,09,23,245,19,04,16,202,20,30,12,320,32,8*63
$GPGSV,3,3,09,26,07,101,19,8*5F
$GLGSV,2,1,07,81,67,202,40,78,57,041,42,88,53,030,38,79,27,335,41,1*7B
$GLGSV,2,2,07,77,22,112,30,82,17,205,28,87,01,026,,1*45
$GAGSV,2,1,06,21,55,014,44,13,54,078,31,26,45,172,26,27,28,081,18,7*74
$GAGSV,2,2,06,19,26,240,,15,13,038,15,7*76
$GAGSV,1,1,04,21,55,014,42,13,54,078,17,26,45,172,38,27,28,081,20,1*75
$GBGSV,4,1,13,23,74,036,42,09,73,264,42,06,70,214,40,16,67,199,39,1*74
$GBGSV,4,2,13,07,60,309,36,40,60,330,43,43,57,036,36,39,57,187,30,1*79
$GBGSV,4,3,13,28,57,223,33,10,51,290,33,25,36,119,48,37,31,322,43,1*73
$GBGSV,4,4,13,34,10,040,26,1*42
$GBGSV,2,1,07,23,74,036,44,40,60,330,41,39,57,187,26,43,57,036,41,4*70
$GBGSV,2,2,07,28,57,223,37,25,36,119,39,37,31,322,40,4*4B
$GNACCURACY,3.6*13
$PAIRSAT,1,35,2,0,201,3,0,200,4,0,221,5,0,200,6,0,200,7,0,201,8,0,221,9,0,220,10,0,200,11,0,200,12,0,200,13,0,200,14,0,200,15,0,200,16,0,201,17,0,200,18,0,200,19,0,200,20,0,200,21,0,201,22,0,200,23,0,200,24,0,200,25,0,200,26,0,220,27,0,221,28,0,200,29,0,200,30,0,221,31,0,200,32,0,200,194,0,621,195,0,621,196,0,620,199,0,621*5A
$PAIRSAT,2,24,65,0,200,66,0,200,67,0,200,68,0,200,69,0,200,70,0,200,71,0,200,72,0,200,73,0,200,74,0,200,75,0,200,76,0,200,77,0,201,78,0,201,79,0,201,80,0,200,81,0,201,82,0,201,83,0,200,84,0,200,85,0,200,86,0,200,87,0,201,88,0,201*7B
$PAIRSAT,3,23,2,0,1200,3,0,1200,4,0,1200,5,0,200,7,0,1200,8,0,1200,9,0,1200,10,0,1200,11,0,1200,12,0,1200,13,0,1221,15,0,1220,19,0,1201,21,0,1221,24,0,1200,25,0,1200,26,0,1221,27,0,1221,30,0,1200,31,0,1200,33,0,1200,34,0,1000,36,0,1200*6B
$PAIRSAT,4,46,1,0,200,2,0,200,3,0,600,4,0,200,5,0,200,6,0,201,7,0,201,8,0,200,9,0,201,10,0,201,11,0,200,12,0,200,13,0,200,14,0,200,16,0,201,19,0,600,20,0,600,21,0,600,22,0,600,23,0,621,24,0,600,25,0,621,26,0,600,27,0,600,28,0,621,29,0,600,30,0,600,32,0,600,33,0,600,34,0,621,35,0,600,36,0,600,37,0,621,38,0,600,39,0,621,40,0,621,41,0,600,42,0,600,43,0,621,44,0,400,45,0,400,46,0,400,59,0,400,60,0,400,61,0,400,62,0,400*4A
$PAIRDGP,10,2,4,7,8,9,16,21,26,27,30*42
$GNGGA,041242.200,2500.7853714,N,12132.4479016,E,4,55,0.48,16.700,M,15.25,M,1,3335*4A
$GNRMC,041242.200,A,2500.7853714,N,12132.4479016,E,0.01,317.03,090324,,,R,V*17
$GPHDT,273.048,T*3F
$GNACCURACY,3.6*13
$GNGGA,041242.300,2500.7853720,N,12132.4479008,E,4,55,0.48,16.694,M,15.25,M,1,3335*4F
$GNRMC,041242.300,A,2500.7853720,N,12132.4479008,E,0.01,317.03,090324,,,R,V*1E
$GPHDT,,T*1B
$GNACCURACY,3.6*13
$GNGGA,041242.400,2500.7853703,N,12132.4478992,E,4,56,0.48,16.696,M,15.25,M,1,3335*43
$GNRMC,041242.400,A,2500.7853703,N,12132.4478992,E,0.01,317.03,090324,,,R,V*13
$GPHDT,273.135,T*34
$GNACCURACY,3.6*13
$GNGGA,041242.500,2500.7853726,N,12132.4478991,E,4,56,0.48,16.693,M,15.25,M,1,3335*43
$GNRMC,041242.500,A,2500.7853726,N,12132.4478991,E,0.02,317.03,090324,,,R,V*15
$GPHDT,,T*1B
$GNACCURACY,3.6*13
$GNGGA,041242.600,2500.7853681,N,12132.4478973,E,4,56,0.48,16.689,M,15.25,M,1,3335*4B
$GNRMC,041242.600,A,2500.7853681,N,12132.4478973,E,0.02,317.03,090324,,,R,V*16
$GPHDT,273.607,T*32
$GNACCURACY,3.6*13
$GNGGA,041242.700,2500.7853724,N,12132.4478962,E,4,56,0.48,16.704,M,15.25,M,0,3335*41
$GNRMC,041242.700,A,2500.7853724,N,12132.4478962,E,0.03,317.03,090324,,,R,V*18
$GPHDT,,T*1B
$GNACCURACY,3.6*13
$GNGGA,041242.800,2500.7853718,N,12132.4478964,E,4,56,0.48,16.691,M,15.25,M,0,3335*4A
$GNRMC,041242.800,A,2500.7853718,N,12132.4478964,E,0.03,317.03,090324,,,R,V*1E
$GPHDT,273.469,T*38
$GNACCURACY,3.6*13
$GNGGA,041242.900,2500.7853716,N,12132.4478989,E,4,56,0.48,16.693,M,15.25,M,0,3335*44
$GNRMC,041242.900,A,2500.7853716,N,12132.4478989,E,0.03,317.03,090324,,,R,V*12
$GPHDT,,T*1B
$GNACCURACY,3.6*13
$GNGGA,041243.000,2500.7853718,N,12132.4478967,E,4,56,0.48,16.697,M,15.25,M,1,3335*47
$GNRMC,041243.000,A,2500.7853718,N,12132.4478967,E,0.03,317.03,090324,,,R,V*14
$GPHDT,273.603,T*36
$GNACCURACY,3.6*13
$GNGGA,041243.100,2500.7853717,N,12132.4478958,E,4,56,0.48,16.700,M,15.25,M,1,3335*4A
$GNRMC,041243.100,A,2500.7853717,N,12132.4478958,E,0.02,317.03,090324,,,R,V*17
$GPHDT,,T*1B
$GNGSA,A,3,195,194,21,08,199,02,07,27,16,196,04,30,0.73,0.48,0.55,1*0C
$GNGSA,A,3,09,,,,,,,,,,,,0.73,0.48,0.55,1*00
$GNGSA,A,3,81,78,88,79,77,82,,,,,,,0.73,0.48,0.55,2*08
$GNGSA,A,3,21,13,26,27,15,,,,,,,,0.73,0.48,0.55,3*0F
$GNGSA,A,3,23,09,06,16,07,40,43,39,28,10,25,37,0.73,0.48,0.55,4*03
$GNGSA,A,3,34,,,,,,,,,,,,0.73,0.48,0.55,4*0B
$GPGSV,4,1,15,195,65,113,41,194,64,053,32,21,62,154,38,08,61,357,45,1*67
$GPGSV,4,2,15,199,60,167,36,50,60,167,39,02,50,176,38,07,43,316,41,1*50
$GPGSV,4,3,15,27,32,037,37,16,27,077,31,09,23,245,11,196,19,169,15,1*54
$GPGSV,4,4,15,04,16,202,24,30,12,320,33,26,07,101,,1*57
$GPGSV,3,1,09,195,65,113,44,194,64,053,40,08,61,357,45,199,60,167,43,8*58
$GPGSV,3,2,09,27,32,037,40,09,23,245,20,04,16,202,22,30,12,320,32,8*6B
$GPGSV,3,3,09,26,07,101,20,8*55
$GLGSV,2,1,07,81,67,203,42,78,57,041,42,88,53,030,38,79,27,335,41,1*78
$GLGSV,2,2,07,77,22,112,30,82,17,205,28,87,01,026,,1*45
$GAGSV,2,1,06,21,55,014,44,13,54,078,31,26,45,172,20,27,28,081,16,7*7C
$GAGSV,2,2,06,19,26,240,,15,13,038,17,7*74
$GAGSV,2,1,05,21,55,014,43,13,54,078,17,26,45,172,38,27,28,081,21,1*77
$GAGSV,2,2,05,15,13,038,20,1*4F
$GBGSV,4,1,13,23,74,036,42,09,73,264,42,06,70,214,40,16,67,199,39,1*74
$GBGSV,4,2,13,07,60,309,36,40,60,330,44,43,57,036,36,39,57,187,28,1*77
$GBGSV,4,3,13,28,57,223,33,10,51,290,33,25,36,119,48,37,31,322,43,1*73
$GBGSV,4,4,13,34,10,040,24,1*40
$GBGSV,2,1,07,23,74,036,44,40,60,330,41,39,57,187,26,43,57,036,41,4*70
$GBGSV,2,2,07,28,57,223,39,25,36,119,39,37,31,322,40,4*45
$GNACCURACY,3.6*13
$PAIRSAT,1,35,2,0,201,3,0,200,4,0,221,5,0,200,6,0,200,7,0,201,8,0,221,9,0,220,10,0,200,11,0,200,12,0,200,13,0,200,14,0,200,15,0,200,16,0,201,17,0,200,18,0,200,19,0,200,20,0,200,21,0,201,22,0,200,23,0,200,24,0,200,25,0,200,26,0,220,27,0,221,28,0,200,29,0,200,30,0,221,31,0,200,32,0,200,194,0,621,195,0,621,196,0,620,199,0,621*5A
$PAIRSAT,2,24,65,0,200,66,0,200,67,0,200,68,0,200,69,0,200,70,0,200,71,0,200,72,0,200,73,0,200,74,0,200,75,0,200,76,0,200,77,0,201,78,0,201,79,0,201,80,0,200,81,0,201,82,0,201,83,0,200,84,0,200,85,0,200,86,0,200,87,0,201,88,0,201*7B
$PAIRSAT,3,23,2,0,1200,3,0,1200,4,0,1200,5,0,200,7,0,1200,8,0,1200,9,0,1200,10,0,1200,11,0,1200,12,0,1200,13,0,1221,15,0,1220,19,0,1201,21,0,1221,24,0,1200,25,0,1200,26,0,1221,27,0,1221,30,0,1200,31,0,1200,33,0,