$FW : RTK35X,V1.1X0314AS,Lib20210517,1*54
$Tool : LOCOSYS , GNSS Firebird , v1.0.0.19*39
$---------------------------------------------------*2D
$GNACCURACY,3.6*13
$GNGGA,041227.000,2500.7853866,N,12132.4478871,E,4,58,0.48,16.690,M,15.25,M,1,3335*4C
$GNRMC,041227.000,A,2500.7853866,N,12132.4478871,E,0.00,317.03,090324,,,R,V*15
$GPHDT,319.139,T*35
$GNACCURACY,3.6*13
$GNGGA,041227.100,2500.7853821,N,12132.4478826,E,4,58,0.48,16.681,M,15.25,M,1,3335*4C
$GNRMC,041227.100,A,2500.7853821,N,12132.4478826,E,0.01,317.03,090324,,,R,V*14
$GPHDT,,T*1B
$GNGSA,A,3,195,194,21,08,199,02,07,27,16,196,04,30,0.73,0.48,0.55,1*0C
$GNGSA,A,3,09,,,,,,,,,,,,0.73,0.48,0.55,1*00
$GNGSA,A,3,81,78,88,79,77,82,,,,,,,0.73,0.48,0.55,2*08
$GNGSA,A,3,21,13,26,27,15,,,,,,,,0.73,0.48,0.55,3*0F
$GNGSA,A,3,23,09,06,16,07,40,43,39,28,10,25,37,0.73,0.48,0.55,4*03
$GNGSA,A,3,34,,,,,,,,,,,,0.73,0.48,0.55,4*0B
$GPGSV,4,1,15,195,65,113,40,194,64,053,33,21,61,154,39,08,61,357,40,1*60
$GPGSV,4,2,15,199,60,167,32,50,60,167,35,02,50,176,41,07,43,316,40,1*57
$GPGSV,4,3,15,27,32,037,37,16,27,077,17,09,23,245,17,196,19,169,18,1*5B
$GPGSV,4,4,15,04,17,202,18,30,12,320,28,26,07,100,12,1*51
$GPGSV,3,1,10,195,65,113,46,194,64,053,39,08,61,357,44,199,60,167,35,8*5C
$GPGSV,3,2,10,27,32,037,41,09,23,245,17,196,19,169,19,04,17,202,16,8*50
$GPGSV,3,3,10,30,12,320,36,26,07,100,21,8*69
$GLGSV,2,1,07,81,67,202,37,78,57,041,43,88,53,030,40,79,27,335,34,1*77
$GLGSV,2,2,07,77,22,112,30,82,17,205,19,87,01,026,,1*47
$GAGSV,2,1,06,21,55,014,41,13,54,078,27,26,45,172,35,27,28,081,23,7*7C
$GAGSV,2,2,06,19,26,240,,15,13,038,21,7*71
$GAGSV,2,1,05,21,55,014,41,13,54,078,26,26,45,172,36,27,28,081,24,1*7C
$GAGSV,2,2,05,15,13,038,13,1*4F
$GBGSV,4,1,13,23,74,035,42,09,73,264,35,06,70,214,38,16,67,199,37,1*76
$GBGSV,4,2,13,07,60,309,41,40,60,330,43,43,57,036,34,39,57,187,34,1*7F
$GBGSV,4,3,13,28,57,223,34,10,51,290,34,25,36,119,46,37,31,322,41,1*7F
$GBGSV,4,4,13,34,10,040,25,1*41
$GBGSV,2,1,08,23,74,035,46,40,60,330,42,39,57,187,38,43,57,036,39,4*7D
$GBGSV,2,2,08,28,57,223,31,25,36,119,42,37,31,322,38,34,10,040,15,4*77
$GNACCURACY,3.6*13
$PAIRSAT,1,35,2,0,201,3,0,200,4,0,221,5,0,200,6,0,200,7,0,201,8,0,221,9,0,220,10,0,200,11,0,200,12,0,200,13,0,200,14,0,200,15,0,200,16,0,201,17,0,200,18,0,200,19,0,200,20,0,200,21,0,201,22,0,200,23,0,200,24,0,200,25,0,200,26,0,220,27,0,221,28,0,200,29,0,200,30,0,221,31,0,200,32,0,200,194,0,621,195,0,621,196,0,620,199,0,621*5A
$PAIRSAT,2,24,65,0,200,66,0,200,67,0,200,68,0,200,69,0,200,70,0,200,71,0,200,72,0,200,73,0,200,74,0,200,75,0,200,76,0,200,77,0,201,78,0,201,79,0,201,80,0,200,81,0,201,82,0,201,83,0,200,84,0,200,85,0,200,86,0,200,87,0,201,88,0,201*7B
$PAIRSAT,3,23,2,0,1200,3,0,1200,4,0,1200,5,0,200,7,0,1200,8,0,1200,9,0,1200,10,0,1200,11,0,1200,12,0,1200,13,0,1221,15,0,1220,19,0,1201,21,0,1221,24,0,1200,25,0,1200,26,0,1221,27,0,1221,30,0,1200,31,0,1200,33,0,1200,34,0,1000,36,0,1200*6B
$PAIRSAT,4,46,1,0,200,2,0,200,3,0,600,4,0,200,5,0,200,6,0,201,7,0,201,8,0,200,9,0,201,10,0,201,11,0,200,12,0,200,13,0,200,14,0,200,16,0,201,19,0,600,20,0,600,21,0,600,22,0,600,23,0,621,24,0,600,25,0,621,26,0,600,27,0,600,28,0,621,29,0,600,30,0,600,32,0,600,33,0,600,34,0,621,35,0,600,36,0,600,37,0,621,38,0,600,39,0,621,40,0,621,41,0,600,42,0,600,43,0,621,44,0,400,45,0,400,46,0,400,59,0,400,60,0,400,61,0,400,62,0,400*4A
$PAIRDGP,10,2,4,7,8,9,16,21,26,27,30*42
$GNGGA,041227.200,2500.7853819,N,12132.4478824,E,4,58,0.48,16.682,M,15.25,M,1,3335*45
$GNRMC,041227.200,A,2500.7853819,N,12132.4478824,E,0.01,317.03,090324,,,R,V*1E
$GPHDT,319.661,T*3F
$GNACCURACY,3.6*13
$GNGGA,041227.300,2500.7853783,N,12132.4478832,E,4,58,0.48,16.671,M,15.25,M,1,3335*43
$GNRMC,041227.300,A,2500.7853783,N,12132.4478832,E,0.01,317.03,090324,,,R,V*14
$GPHDT,,T*1B
$GNACCURACY,3.6*13
$GNGGA,041227.400,2500.7853819,N,12132.4478870,E,4,58,0.48,16.681,M,15.25,M,1,3335*41
$GNRMC,041227.400,A,2500.7853819,N,12132.4478870,E,0.00,317.03,090324,,,R,V*18
$GPHDT,319.534,T*3C
$GNACCURACY,3.6*13
$GNGGA,041227.500,2500.7853813,N,12132.4478837,E,4,58,0.48,16.693,M,15.25,M,1,3335*4A
$GNRMC,041227.500,A,2500.7853813,N,12132.4478837,E,0.01,317.03,090324,,,R,V*11
$GPHDT,,T*1B
$GNACCURACY,3.6*13
$GNGGA,041227.600,2500.7853827,N,12132.4478855,E,4,58,0.48,16.684,M,15.25,M,1,3335*4C
$GNRMC,041227.600,A,2500.7853827,N,12132.4478855,E,0.01,317.03,090324,,,R,V*11
$GPHDT,319.267,T*3D
$GNACCURACY,3.6*13
$GNGGA,041227.700,2500.7853836,N,12132.4478923,E,4,57,0.48,16.682,M,15.25,M,0,3335*45
$GNRMC,041227.700,A,2500.7853836,N,12132.4478923,E,0.00,317.03,090324,,,R,V*11
$GPHDT,,T*1B
$GNACCURACY,3.6*13
$GNGGA,041227.800,2500.7853808,N,12132.4478893,E,4,57,0.48,16.678,M,15.25,M,0,3335*48
$GNRMC,041227.800,A,2500.7853808,N,12132.4478893,E,0.01,317.03,090324,,,R,V*18
$GPHDT,319.124,T*39
$GNACCURACY,3.6*13
$GNGGA,041227.900,2500.7853811,N,12132.4478893,E,4,57,0.48,16.697,M,15.25,M,0,3335*40
$GNRMC,041227.900,A,2500.7853811,N,12132.4478893,E,0.01,317.03,090324,,,R,V*11
$GPHDT,,T*1B
$GNACCURACY,3.6*13
$GNGGA,041228.000,2500.7853819,N,12132.4478924,E,4,57,0.48,16.691,M,15.25,M,1,3335*44
$GNRMC,041228.000,A,2500.7853819,N,12132.4478924,E,0.02,317.03,090324,,,R,V*11
$GPHDT,318.640,T*3D
$GNACCURACY,3.6*13
$GNGGA,041228.100,2500.7853825,N,12132.4478943,E,4,57,0.48,16.694,M,15.25,M,1,3335*4E
$GNRMC,041228.100,A,2500.7853825,N,12132.4478943,E,0.01,317.03,090324,,,R,V*1D
$GPHDT,,T*1B
$GNGSA,A,3,195,194,21,08,199,02,07,27,16,196,04,30,0.73,0.48,0.55,1*0C
$GNGSA,A,3,09,,,,,,,,,,,,0.73,0.48,0.55,1*00
$GNGSA,A,3,81,78,88,79,77,82,,,,,,,0.73,0.48,0.55,2*08
$GNGSA,A,3,21,13,26,27,15,,,,,,,,0.73,0.48,0.55,3*0F
$GNGSA,A,3,23,09,06,16,07,40,43,39,28,10,25,37,0.73,0.48,0.55,4*03
$GNGSA,A,3,34,,,,,,,,,,,,0.73,0.48,0.55,4*0B
$GPGSV,4,1,15,195,65,113,40,194,64,053,34,21,61,154,40,08,61,357,42,1*6B
$GPGSV,4,2,15,199,60,167,36,50,60,167,38,02,50,176,42,07,43,316,39,1*53
$GPGSV,4,3,15,27,32,037,37,16,27,077,17,09,23,245,16,196,19,169,19,1*5B
$GPGSV,4,4,15,04,17,202,18,30,12,320,27,26,07,100,09,1*54
$GPGSV,3,1,10,195,65,113,46,194,64,053,40,08,61,357,43,199,60,167,40,8*57
$GPGSV,3,2,10,27,32,037,41,09,23,245,16,196,19,169,19,04,17,202,13,8*54
$GPGSV,3,3,10,30,12,320,36,26,07,100,19,8*62
$GLGSV,2,1,07,81,67,202,40,78,57,041,43,88,53,030,39,79,27,335,28,1*74
$GLGSV,2,2,07,77,22,112,30,82,17,205,18,87,01,026,,1*46
$GAGSV,2,1,06,21,55,014,40,13,54,078,30,26,45,172,38,27,28,081,22,7*77
$GAGSV,2,2,06,19,26,240,,15,13,038,23,7*73
$GAGSV,1,1,04,21,55,014,41,13,54,078,27,26,45,172,40,27,28,081,24,1*7E
$GBGSV,4,1,13,23,74,035,43,09,73,264,39,06,70,214,40,16,67,199,40,1*74
$GBGSV,4,2,13,07,60,309,41,40,60,330,43,43,57,036,34,39,57,187,36,1*7D
$GBGSV,4,3,13,28,57,223,36,10,51,290,36,25,36,119,46,37,31,322,42,1*7C
$GBGSV,4,4,13,34,10,040,23,1*47
$GBGSV,2,1,08,23,74,035,44,40,60,330,42,39,57,187,36,43,57,036,40,4*7F
$GBGSV,2,2,08,28,57,223,37,25,36,119,42,37,31,322,38,34,10,040,13,4*77
$GNACCURACY,3.6*13
$PAIRSAT,1,35,2,0,201,3,0,200,4,0,221,5,0,200,6,0,200,7,0,201,8,0,221,9,0,220,10,0,200,11,0,200,12,0,200,13,0,200,14,0,200,15,0,200,16,0,201,17,0,200,18,0,200,19,0,200,20,0,200,21,0,201,22,0,200,23,0,200,24,0,200,25,0,200,26,0,220,27,0,221,28,0,200,29,0,200,30,0,221,31,0,200,32,0,200,194,0,621,195,0,621,196,0,620,199,0,621*5A
$PAIRSAT,2,24,65,0,200,66,0,200,67,0,200,68,0,200,69,0,200,70,0,200,71,0,200,72,0,200,73,0,200,74,0,200,75,0,200,76,0,200,77,0,201,78,0,201,79,0,201,80,0,200,81,0,201,82,0,201,83,0,200,84,0,200,85,0,200,86,0,200,87,0,201,88,0,201*7B
$PAIRSAT,3,23,2,0,1200,3,0,1200,4,0,1200,5,0,200,7,0,1200,8,0,1200,9,0,1200,10,0,1200,11,0,1200,12,0,1200,13,0,1221,15,0,1220,19,0,1201,21,0,1221,24,0,1200,25,0,1200,26,0,1221,27,0,1221,30,0,1200,31,0,1200,33,0,1200,34,0,1000,36,0,1200*6B
$PAIRSAT,4,46,1,0,200,2,0,200,3,0,600,4,0,200,5,0,200,6,0,201,7,0,201,8,0,200,9,0,201,10,0,201,11,0,200,12,0,200,13,0,200,14,0,200,16,0,201,19,0,600,20,0,600,21,0,600,22,0,600,23,0,621,24,0,600,25,0,621,26,0,600,27,0,600,28,0,621,29,0,600,30,0,600,32,0,600,33,0,600,34,0,621,35,0,600,36,0,600,37,0,621,38,0,600,39,0,621,40,0,621,41,0,600,42,0,600,43,0,621,44,0,400,45,0,400,46,0,400,59,0,400,60,0,400,61,0,400,62,0,400*4A
$PAIRDGP,10,2,4,7,8,9,16,21,26,27,30*42
$GNGGA,041228.200,2500.7853815,N,12132.4478934,E,4,57,0.48,16.703,M,15.25,M,1,3335*41
$GNRMC,041228.200,A,2500.7853815,N,12132.4478934,E,0.01,317.03,090324,,,R,V*1D
$GPHDT,318.401,T*3A
$GNACCURACY,3.5*10
$GNGGA,041228.300,2500.7853818,N,12132.4478931,E,4,57,0.48,16.694,M,15.25,M,1,3335*47
$GNRMC,041228.300,A,2500.7853818,N,12132.4478931,E,0.03,317.03,090324,,,R,V*16
$GPHDT,,T*1B
$GNACCURACY,3.5*10
$GNGGA,041228.400,2500.7853806,N,12132.4478933,E,4,57,0.48,16.695,M,15.25,M,1,3335*4C
$GNRMC,041228.400,A,2500.7853806,N,12132.4478933,E,0.03,317.03,090324,,,R,V*1C
$GPHDT,318.671,T*3F
$GNACCURACY,3.5*10
$GNGGA,041228.500,2500.7853818,N,12132.4478933,E,4,57,0.48,16.677,M,15.25,M,1,3335*4E
$GNRMC,041228.500,A,2500.7853818,N,12132.4478933,E,0.01,317.03,090324,,,R,V*10
$GPHDT,,T*1B
$GNACCURACY,3.5*10
$GNGGA,041228.600,2500.7853799,N,12132.4478934,E,4,57,0.48,16.693,M,15.25,M,1,3335*46
$GNRMC,041228.600,A,2500.7853799,N,12132.4478934,E,0.01,317.03,090324,,,R,V*12
$GPHDT,318.876,T*36
$GNACCURACY,3.5*10
$GNGGA,041228.700,2500.7853812,N,12132.4478895,E,4,57,0.48,16.696,M,15.25,M,0,3335*45
$GNRMC,041228.700,A,2500.7853812,N,12132.4478895,E,0.01,317.03,090324,,,R,V*15
$GPHDT,,T*1B
$GNACCURACY,3.5*10
$GNGGA,041228.800,2500.7853801,N,12132.4478890,E,4,57,0.48,16.726,M,15.25,M,0,3335*47
$GNRMC,041228.800,A,2500.7853801,N,12132.4478890,E,0.02,317.03,090324,,,R,V*1E
$GPHDT,319.006,T*38
$GNACCURACY,3.5*10
$GNGGA,041228.900,2500.7853813,N,12132.4478911,E,4,57,0.48,16.714,M,15.25,M,0,3335*4C
$GNRMC,041228.900,A,2500.7853813,N,12132.4478911,E,0.02,317.03,090324,,,R,V*14
$GPHDT,,T*1B
$GNACCURACY,3.5*10
$GNGGA,041229.000,2500.7853807,N,12132.4478913,E,4,57,0.48,16.715,M,15.25,M,1,3335*43
$GNRMC,041229.000,A,2500.7853807,N,12132.4478913,E,0.02,317.03,090324,,,R,V*1B
$GPHDT,318.434,T*3C
$GNACCURACY,3.5*10
$GNGGA,041229.100,2500.7853802,N,12132.4478911,E,4,58,0.48,16.721,M,15.25,M,1,3335*4D
$GNRMC,041229.100,A,2500.7853802,N,12132.4478911,E,0.02,317.03,090324,,,R,V*1D
$GPHDT,,T*1B
$GNGSA,A,3,195,194,21,08,199,02,07,27,16,09,196,04,0.73,0.48,0.55,1*06
$GNGSA,A,3,30,,,,,,,,,,,,0.73,0.48,0.55,1*0A
$GNGSA,A,3,81,78,88,79,77,82,,,,,,,0.73,0.48,0.55,2*08
$GNGSA,A,3,21,13,26,27,15,,,,,,,,0.73,0.48,0.55,3*0F
$GNGSA,A,3,23,09,06,16,07,40,43,39,28,10,25,37,0.73,0.48,0.55,4*03
$GNGSA,A,3,34,,,,,,,,,,,,0.73,0.48,0.55,4*0B
$GPGSV,4,1,15,195,65,113,40,194,64,053,34,21,61,154,39,08,61,357,42,1*65
$GPGSV,4,2,15,199,60,167,37,50,60,167,39,02,50,176,42,07,43,316,41,1*5C
$GPGSV,4,3,15,27,32,037,34,16,27,077,21,09,23,245,17,196,19,169,19,1*5C
$GPGSV,4,4,15,04,17,202,16,30,12,320,29,26,07,100,14,1*58
$GPGSV,3,1,10,195,65,113,47,194,64,053,40,08,61,357,43,199,60,167,44,8*52
$GPGSV,3,2,10,27,32,037,40,09,23,245,17,196,19,169,19,04,17,202,17,8*50
$GPGSV,3,3,10,30,12,320,36,26,07,100,23,8*6B
$GLGSV,2,1,07,81,67,202,41,78,57,041,43,88,53,030,39,79,27,335,34,1*78
$GLGSV,2,2,07,77,22,112,29,82,17,205,24,87,01,026,,1*41
$GAGSV,2,1,06,21,55,014,40,13,54,078,31,26,45,172,39,27,28,081,19,7*7F
$GAGSV,2,2,06,19,26,240,,15,13,038,25,7*75
$GAGSV,1,1,04,21,55,014,41,13,54,078,28,26,45,172,41,27,28,081,26,1*72
$GBGSV,4,1,13,23,74,035,43,09,73,264,39,06,70,214,41,16,67,199,42,1*77
$GBGSV,4,2,13,07,60,309,41,40,60,330,43,43,57,036,33,39,57,187,42,1*79
$GBGSV,4,3,13,28,57,223,37,10,51,290,35,25,36,119,46,37,31,322,43,1*7F
$GBGSV,4,4,13,34,10,040,22,1*46
$GBGSV,2,1,08,23,74,035,45,40,60,330,42,39,57,187,40,43,57,036,40,4*7F
$GBGSV,2,2,08,28,57,223,41,25,36,119,42,37,31,322,31,34,10,040,13,4*7F
$GNACCURACY,3.5*10
$PAIRSAT,1,35,2,0,201,3,0,200,4,0,221,5,0,200,6,0,200,7,0,201,8,0,221,9,0,220,10,0,200,11,0,200,12,0,200,13,0,200,14,0,200,15,0,200,16,0,201,17,0,200,18,0,200,19,0,200,20,0,200,21,0,201,22,0,200,23,0,200,24,0,200,25,0,200,26,0,220,27,0,221,28,0,200,29,0,200,30,0,221,31,0,200,32,0,200,194,0,621,195,0,621,196,0,620,199,0,621*5A
$PAIRSAT,2,24,65,0,200,66,0,200,67,0,200,68,0,200,69,0,200,70,0,200,71,0,200,72,0,200,73,0,200,74,0,200,75,0,200,76,0,200,77,0,201,78,0,201,79,0,201,80,0,200,81,0,201,82,0,201,83,0,200,84,0,200,85,0,200,86,0,200,87,0,201,88,0,201*7B
$PAIRSAT,3,23,2,0,1200,3,0,1200,4,0,1200,5,0,200,7,0,1200,8,0,1200,9,0,1200,10,0,1200,11,0,1200,12,0,1200,13,0,1221,15,0,1220,19,0,1201,21,0,1221,24,0,1200,25,0,1200,26,0,1221,27,0,1221,30,0,1200,31,0,1200,33,0,1200,34,0,1000,36,0,1200*6B
$PAIRSAT,4,46,1,0,200,2,0,200,3,0,600,4,0,200,5,0,200,6,0,201,7,0,201,8,0,200,9,0,201,10,0,201,11,0,200,12,0,200,13,0,200,14,0,200,16,0,201,19,0,600,20,0,600,21,0,600,22,0,600,23,0,621,24,0,600,25,0,621,26,0,600,27,0,600,28,0,621,29,0,600,30,0,600,32,0,600,33,0,600,34,0,621,35,0,600,36,0,600,37,0,621,38,0,600,39,0,621,40,0,621,41,0,600,42,0,600,43,0,621,44,0,400,45,0,400,46,0,400,59,0,400,60,0,400,61,0,400,62,0,400*4A
$PAIRDGP,10,2,4,7,8,9,16,21,26,27,30*42
$GNGGA,041229.200,2500.7853807,N,12132.4478907,E,4,58,0.48,16.721,M,15.25,M,1,3335*4C
$GNRMC,041229.200,A,2500.7853807,N,12132.4478907,E,0.01,317.03,090324,,,R,V*1F
$GPHDT,318.615,T*3D
$GNACCURACY,3.5*10
$GNGGA,041229.300,2500.7853796,N,12132.4478894,E,4,58,0.48,16.714,M,15.25,M,1,3335*47
$GNRMC,041229.300,A,2500.7853796,N,12132.4478894,E,0.01,317.03,090324,,,R,V*12
$GPHDT,,T*1B
$GNACCURACY,3.5*10
$GNGGA,041229.400,2500.7853815,N,12132.4478894,E,4,58,0.48,16.726,M,15.25,M,1,3335*45
$GNRMC,041229.400,A,2500.7853815,N,12132.4478894,E,0.00,317.03,090324,,,R,V*10
$GPHDT,318.646,T*3B
$GNACCURACY,3.5*10
$GNGGA,041229.500,2500.7853802,N,12132.4478887,E,4,58,0.48,16.728,M,15.25,M,1,3335*4E
$GNRMC,041229.500,A,2500.7853802,N,12132.4478887,E,0.01,317.03,090324,,,R,V*14
$GPHDT,,T*1B
$GNACCURACY,3.5*10
$GNGGA,041229.600,2500.7853793,N,12132.4478902,E,4,58,0.48,16.711,M,15.25,M,0,3335*4D
$GNRMC,041229.600,A,2500.7853793,N,12132.4478902,E,0.01,317.03,090324,,,R,V*1C
$GPHDT,318.863,T*32
$GNACCURACY,3.5*10
$GNGGA,041229.700,2500.7853797,N,12132.4478897,E,4,58,0.48,16.717,M,15.25,M,0,3335*43
$GNRMC,041229.700,A,2500.7853797,N,12132.4478897,E,0.01,317.03,090324,,,R,V*14
$GPHDT,,T*1B
$GNACCURACY,3.5*10
$GNGGA,041229.800,2500.7853802,N,12132.4478908,E,4,58,0.48,16.715,M,15.25,M,0,3335*4A
$GNRMC,041229.800,A,2500.7853802,N,12132.4478908,E,0.02,317.03,090324,,,R,V*1C
$GPHDT,318.569,T*35
$GNACCURACY,3.5*10
$GNGGA,041229.900,2500.7853809,N,12132.4478905,E,4,58,0.48,16.716,M,15.25,M,0,3335*4E
$GNRMC,041229.900,A,2500.7853809,N,12132.4478905,E,0.01,317.03,090324,,,R,V*18
$GPHDT,,T*1B
$GNACCURACY,3.5*10
$GNGGA,041230.000,2500.7853780,N,12132.4478912,E,4,58,0.48,16.723,M,15.25,M,1,3335*40
$GNRMC,041230.000,A,2500.7853780,N,12132.4478912,E,0.00,317.03,090324,,,R,V*10
$GPHDT,318.840,T*33
$GNACCURACY,3.5*10
$GNGGA,041230.100,2500.7853816,N,12132.4478934,E,4,58,0.48,16.692,M,15.25,M,1,3335*4E
$GNRMC,041230.100,A,2500.7853816,N,12132.4478934,E,0.01,317.03,090324,,,R,V*14
$GPHDT,,T*1B
$GNGSA,A,3,195,194,21,08,199,02,07,27,16,09,196,04,0.82,0.48,0.67,1*09
$GNGSA,A,3,30,,,,,,,,,,,,0.82,0.48,0.67,1*05
$GNGSA,A,3,81,78,88,79,77,82,,,,,,,0.82,0.48,0.67,2*07
$GNGSA,A,3,21,13,26,27,15,,,,,,,,0.82,0.48,0.67,3*00
$GNGSA,A,3,23,09,06,16,40,07,43,28,39,10,25,37,0.82,0.48,0.67,4*0C
$GNGSA,A,3,34,,,,,,,,,,,,0.82,0.48,0.67,4*04
$GPGSV,4,1,15,195,65,113,40,194,64,053,36,21,61,154,41,08,61,357,42,1*68
$GPGSV,4,2,15,199,60,167,38,50,60,167,40,02,50,176,42,07,43,316,41,1*5D
$GPGSV,4,3,15,27,32,037,34,16,27,077,24,09,23,245,18,196,19,169,18,1*57
$GPGSV,4,4,15,04,17,202,16,30,12,320,28,26,07,100,16,1*5B
$GPGSV,3,1,10,195,65,113,46,194,64,053,41,08,61,357,43,199,60,167,44,8*52
$GPGSV,3,2,10,27,32,037,38,09,23,245,17,196,19,169,19,04,17,202,14,8*5C
$GPGSV,3,3,10,30,12,320,36,26,07,100,21,8*69
$GLGSV,2,1,07,81,67,202,39,78,57,041,43,88,53,030,39,79,27,335,29,1*7B
$GLGSV,2,2,07,77,22,112,29,82,17,205,24,87,01,026,,1*41
$GAGSV,2,1,07,21,55,014,40,13,54,078,27,26,45,172,39,27,28,081,20,7*73
$GAGSV,2,2,07,19,26,240,,15,13,038,25,04,12,298,,7*40
$GAGSV,1,1,04,21,55,014,41,13,54,078,28,26,45,172,41,27,28,081,23,1*77
$GBGSV,4,1,13,23,74,036,43,09,73,264,38,06,70,214,41,16,67,199,41,1*76
$GBGSV,4,2,13,40,60,330,43,07,60,309,41,43,57,036,33,28,57,223,35,1*74
$GBGSV,4,3,13,39,57,187,40,10,51,290,37,25,36,119,46,37,31,322,44,1*77
$GBGSV,4,4,13,34,10,040,24,1*40
$GBGSV,2,1,08,23,74,036,45,40,60,330,43,39,57,187,36,43,57,036,40,4*7C
$GBGSV,2,2,08,28,57,223,39,25,36,119,42,37,31,322,38,34,10,040,15,4*7F
$GNACCURACY,3.5*10
$PAIRSAT,1,35,2,0,201,3,0,200,4,0,221,5,0,200,6,0,200,7,0,201,8,0,221,9,0,220,10,0,200,11,0,200,12,0,200,13,0,200,14,0,200,15,0,200,16,0,201,17,0,200,18,0,200,19,0,200,20,0,200,21,0,201,22,0,200,23,0,200,24,0,200,25,0,200,26,0,220,27,0,221,28,0,200,29,0,200,30,0,221,31,0,200,32,0,200,194,0,621,195,0,621,196,0,620,199,0,621*5A
$PAIRSAT,2,24,65,0,200,66,0,200,67,0,200,68,0,200,69,0,200,70,0,200,71,0,200,72,0,200,73,0,200,74,0,200,75,0,200,76,0,200,77,0,201,78,0,201,79,0,201,80,0,200,81,0,201,82,0,201,83,0,200,84,0,200,85,0,200,86,0,200,87,0,201,88,0,201*7B
$PAIRSAT,3,23,2,0,1200,3,0,1200,4,0,1200,5,0,200,7,0,1200,8,0,1200,9,0,1200,10,0,1200,11,0,1200,12,0,1200,13,0,1221,15,0,1220,19,0,1201,21,0,1221,24,0,1200,25,0,1200,26,0,1221,27,0,1221,30,0,1200,31,0,1200,33,0,1200,34,0,1000,36,0,1200*6B
$PAIRSAT,4,46,1,0,200,2,0,200,3,0,600,4,0,200,5,0,200,6,0,201,7,0,201,8,0,200,9,0,201,10,0,201,11,0,200,12,0,200,13,0,200,14,0,200,16,0,201,19,0,600,20,0,600,21,0,600,22,0,600,23,0,621,24,0,600,25,0,621,26,0,600,27,0,600,28,0,621,29,0,600,30,0,600,32,0,600,33,0,600,34,0,621,35,0,600,36,0,600,37,0,621,38,0,600,39,0,621,40,0,621,41,0,600,42,0,600,43,0,621,44,0,400,45,0,400,46,0,400,59,0,400,60,0,400,61,0,400,62,0,400*4A
$PAIRDGP,10,2,4,7,8,9,16,21,26,27,30*42
$GNGGA,041230.200,2500.7853836,N,12132.4478949,E,4,58,0.48,16.695,M,15.25,M,1,3335*42
$GNRMC,041230.200,A,2500.7853836,N,12132.4478949,E,0.00,317.03,090324,,,R,V*1E
$GPHDT,319.674,T*3B
$GNACCURACY,3.5*10
$GNGGA,041230.300,2500.7853795,N,12132.4478939,E,4,58,0.48,16.697,M,15.25,M,1,3335*40
$GNRMC,041230.300,A,2500.7853795,N,12132.4478939,E,0.00,317.03,090324,,,R,V*1E
$GPHDT,,T*1B
$GNACCURACY,3.5*10
$GNGGA,041230.400,2500.7853827,N,12132.4478959,E,4,58,0.48,16.694,M,15.25,M,1,3335*44
$GNRMC,041230.400,A,2500.7853827,N,12132.4478959,E,0.00,317.03,090324,,,R,V*19
$GPHDT,318.709,T*31
$GNACCURACY,3.5*10
$GNGGA,041230.500,2500.7853823,N,12132.4478947,E,4,58,0.48,16.694,M,15.25,M,1,3335*4E
$GNRMC,041230.500,A,2500.7853823,N,12132.4478947,E,0.00,317.03,090324,,,R,V*13
$GPHDT,,T*1B
$GNACCURACY,3.5*10
$GNGGA,041230.600,2500.7853764,N,12132.4478925,E,4,58,0.48,16.722,M,15.25,M,0,3335*48
$GNRMC,041230.600,A,2500.7853764,N,12132.4478925,E,0.00,317.03,090324,,,R,V*18
$GPHDT,318.949,T*3B
$GNACCURACY,3.5*10
$GNGGA,041230.700,2500.7853785,N,12132.4478923,E,4,58,0.48,16.717,M,15.25,M,0,3335*46
$GNRMC,041230.700,A,2500.7853785,N,12132.4478923,E,0.00,317.03,090324,,,R,V*10
$GPHDT,,T*1B
$GNACCURACY,3.5*10
$GNGGA,041230.800,2500.7853767,N,12132.4478922,E,4,58,0.48,16.710,M,15.25,M,0,3335*43
$GNRMC,041230.800,A,2500.7853767,N,12132.4478922,E,0.00,317.03,090324,,,R,V*12
$GPHDT,319.109,T*36
$GNACCURACY,3.5*10
$GNGGA,041230.900,2500.7853777,N,12132.4478896,E,4,58,0.48,16.704,M,15.25,M,0,3335*48
$GNRMC,041230.900,A,2500.7853777,N,12132.4478896,E,0.00,317.03,090324,,,R,V*1C
$GPHDT,,T*1B
$GNACCURACY,3.5*10
$GNGGA,041231.000,2500.7853783,N,12132.4478911,E,4,58,0.48,16.717,M,15.25,M,1,3335*46
$GNRMC,041231.000,A,2500.7853783,N,12132.4478911,E,0.00,317.03,090324,,,R,V*11
$GPHDT,318.363,T*39
$GNACCURACY,3.5*10
$GNGGA,041231.100,2500.7853775,N,12132.4478927,E,4,58,0.48,16.716,M,15.25,M,1,3335*4A
$GNRMC,041231.100,A,2500.7853775,N,12132.4478927,E,0.00,317.03,090324,,,R,V*1C
$GPHDT,,T*1B
$GNGSA,A,3,195,194,21,08,199,02,07,27,16,09,196,04,0.82,0.48,0.67,1*09
$GNGSA,A,3,30,,,,,,,,,,,,0.82,0.48,0.67,1*05
$GNGSA,A,3,81,78,88,79,77,82,,,,,,,0.82,0.48,0.67,2*07
$GNGSA,A,3,21,13,26,27,15,,,,,,,,0.82,0.48,0.67,3*00
$GNGSA,A,3,23,09,06,16,40,07,43,28,39,10,25,37,0.82,0.48,0.67,4*0C
$GNGSA,A,3,34,,,,,,,,,,,,0.82,0.48,0.67,4*04
$GPGSV,4,1,15,195,65,113,40,194,64,053,35,21,61,154,41,08,61,357,41,1*68
$GPGSV,4,2,15,199,60,167,38,50,60,167,40,02,50,176,42,07,43,316,41,1*5D
$GPGSV,4,3,15,27,32,037,34,16,27,077,25,09,23,245,17,196,19,169,17,1*56
$GPGSV,4,4,15,04,17,202,16,30,12,320,27,26,07,100,,1*53
$GPGSV,3,1,10,195,65,113,46,194,64,053,41,08,61,357,43,199,60,167,44,8*52
$GPGSV,3,2,10,27,32,037,38,09,23,245,17,196,19,169,20,04,17,202,18,8*5A
$GPGSV,3,3,10,30,12,320,36,26,07,100,20,8*68
$GLGSV,2,1,07,81,67,202,40,78,57,041,43,88,53,030,39,79,27,335,30,1*7D
$GLGSV,2,2,07,77,22,112,28,82,17,205,25,87,01,026,,1*41
$GAGSV,2,1,07,21,55,014,40,13,54,078,28,26,45,172,39,27,28,081,20,7*7C
$GAGSV,2,2,07,19,26,240,,15,13,038,26,04,12,298,,7*43
$GAGSV,1,1,04,21,55,014,41,13,54,078,27,26,45,172,41,27,28,081,26,1*7D
$GBGSV,4,1,13,23,74,036,42,09,73,264,38,06,70,214,41,16,67,199,41,1*77
$GBGSV,4,2,13,40,60,330,43,07,60,309,41,43,57,036,34,28,57,223,36,1*70
$GBGSV,4,3,13,39,57,187,40,10,51,290,37,25,36,119,46,37,31,322,44,1*77
$GBGSV,4,4,13,34,10,040,24,1*40
$GBGSV,2,1,08,23,74,036,45,40,60,330,43,39,57,187,37,43,57,036,40,4*7D
$GBGSV,2,2,08,28,57,223,40,25,36,119,42,37,31,322,38,34,10,040,16,4*72
$GNACCURACY,3.5*10
$PAIRSAT,1,35,2,0,201,3,0,200,4,0,221,5,0,200,6,0,200,7,0,201,8,0,221,9,0,220,10,0,200,11,0,200,12,0,200,13,0,200,14,0,200,15,0,200,16,0,201,17,0,200,18,0,200,19,0,200,20,0,200,21,0,201,22,0,200,23,0,200,24,0,200,25,0,200,26,0,220,27,0,221,28,0,200,29,0,200,30,0,221,31,0,200,32,0,200,194,0,621,195,0,621,196,0,620,199,0,621*5A
$PAIRSAT,2,24,65,0,200,66,0,200,67,0,200,68,0,200,69,0,200,70,0,200,71,0,200,72,0,200,73,0,200,74,0,200,75,0,200,76,0,200,77,0,201,78,0,201,79,0,201,80,0,200,81,0,201,82,0,201,83,0,200,84,0,200,85,0,200,86,0,200,87,0,201,88,0,201*7B
$PAIRSAT,3,23,2,0,1200,3,0,1200,4,0,1200,5,0,200,7,0,1200,8,0,1200,9,0,1200,10,0,1200,11,0,1200,12,0,1200,13,0,1221,15,0,1220,19,0,1201,21,0,1221,24,0,1200,25,0,1200,26,0,1221,27,0,1221,30,0,1200,31,0,1200,33,0,1200,34,0,1000,36,0,1200*6B
$PAIRSAT,4,46,1,0,200,2,0,200,3,0,600,4,0,200,5,0,200,6,0,201,7,0,201,8,0,200,9,0,201,10,0,201,11,0,200,12,0,200,13,0,200,14,0,200,16,0,201,19,0,600,20,0,600,21,0,600,22,0,600,23,0,621,24,0,600,25,0,621,26,0,600,27,0,600,28,0,621,29,0,600,30,0,600,32,0,600,33,0,600,34,0,621,35,0,600,36,0,600,37,0,621,38,0,600,39,0,621,40,0,621,41,0,600,42,0,600,43,0,621,44,0,400,45,0,400,46,0,400,59,0,400,60,0,400,61,0,400,62,0,400*4A
$PAIRDGP,10,2,4,7,8,9,16,21,26,27,30*42
$GNGGA,041231.200,2500.7853772,N,12132.4478907,E,4,58,0.48,16.703,M,15.25,M,1,3335*48
$GNRMC,041231.200,A,2500.7853772,N,12132.4478907,E,0.00,317.03,090324,,,R,V*1A
$GPHDT,319.052,T*39
$GNACCURACY,3.5*10
$GNGGA,041231.300,2500.7853771,N,12132.4478896,E,4,58,0.48,16.715,M,15.25,M,1,3335*44
$GNRMC,041231.300,A,2500.7853771,N,12132.4478896,E,0.00,317.03,090324,,,R,V*11
$GPHDT,,T*1B
$GNACCURACY,3.5*10
$GNGGA,041231.400,2500.7853771,N,12132.4478906,E,4,58,0.48,16.713,M,15.25,M,1,3335*4D
$GNRMC,041231.400,A,2500.7853771,N,12132.4478906,E,0.00,317.03,090324,,,R,V*1E
$GPHDT,318.509,T*33
$GNACCURACY,3.5*10
$GNGGA,041231.500,2500.7853782,N,12132.4478834,E,4,58,0.48,16.728,M,15.25,M,0,3335*49
$GNRMC,041231.500,A,2500.7853782,N,12132.4478834,E,0.00,317.03,090324,,,R,V*13
$GPHDT,,T*1B
$GNACCURACY,3.5*10
$GNGGA,041231.600,2500.7853794,N,12132.4478864,E,4,58,0.48,16.717,M,15.25,M,0,3335*44
$GNRMC,041231.600,A,2500.7853794,N,12132.4478864,E,0.00,317.03,090324,,,R,V*12
$GPHDT,318.905,T*33
$GNACCURACY,3.5*10
$GNGGA,041231.700,2500.7853766,N,12132.4478837,E,4,58,0.48,16.720,M,15.25,M,0,3335*4A
$GNRMC,041231.700,A,2500.7853766,N,12132.4478837,E,0.00,317.03,090324,,,R,V*18
$GPHDT,,T*1B
$GNACCURACY,3.5*10
$GNGGA,041231.800,2500.7853795,N,12132.4478830,E,4,58,0.48,16.712,M,15.25,M,0,3335*4F
$GNRMC,041231.800,A,2500.7853795,N,12132.4478830,E,0.00,317.03,090324,,,R,V*1C
$GPHDT,319.364,T*3F
$GNACCURACY,3.6*13
$GNGGA,041231.900,2500.7853785,N,12132.4478849,E,4,58,0.48,16.717,M,15.25,M,0,3335*44
$GNRMC,041231.900,A,2500.7853785,N,12132.4478849,E,0.00,317.03,090324,,,R,V*12
$GPHDT,,T*1B
$GNACCURACY,3.6*13
$GNGGA,041232.000,2500.7853821,N,12132.4478890,E,4,58,0.48,16.688,M,15.25,M,1,3335*4D
$GNRMC,041232.000,A,2500.7853821,N,12132.4478890,E,0.00,317.03,090324,,,R,V*1D
$GPHDT,318.831,T*35
$GNACCURACY,3.6*13
$GNGGA,041232.100,2500.7853828,N,12132.4478917,E,4,58,0.48,16.694,M,15.25,M,1,3335*46
$GNRMC,041232.100,A,2500.7853828,N,12132.4478917,E,0.00,317.03,090324,,,R,V*1B
$GPHDT,,T*1B
$GNGSA,A,3,195,194,21,08,199,02,07,27,09,196,04,30,0.83,0.49,0.67,1*0D
$GNGSA,A,3,81,78,88,79,77,82,,,,,,,0.83,0.49,0.67,2*07
$GNGSA,A,3,21,13,26,27,15,,,,,,,,0.83,0.49,0.67,3*00
$GNGSA,A,3,23,09,06,16,40,07,43,28,39,10,25,37,0.83,0.49,0.67,4*0C
$GNGSA,A,3,34,,,,,,,,,,,,0.83,0.49,0.67,4*04
$GPGSV,4,1,15,195,65,113,40,194,64,053,35,21,61,154,41,08,61,357,41,1*68
$GPGSV,4,2,15,199,60,167,37,50,60,167,40,02,50,176,42,07,43,316,41,1*52
$GPGSV,4,3,15,27,32,037,34,16,27,077,24,09,23,245,17,196,19,169,18,1*58
$GPGSV,4,4,15,04,17,202,18,30,12,320,26,26,07,100,,1*5C
$GPGSV,3,1,10,195,65,113,45,194,64,053,40,08,61,357,43,199,60,167,44,8*50
$GPGSV,3,2,10,27,32,037,38,09,23,245,17,196,19,169,21,04,17,202,17,8*54
$GPGSV,3,3,10,30,12,320,35,26,07,100,18,8*60
$GLGSV,2,1,07,81,67,202,40,78,57,041,43,88,53,030,39,79,27,335,29,1*75
$GLGSV,2,2,07,77,22,112,28,82,17,205,22,87,01,026,,1*46
$GAGSV,2,1,07,21,55,014,40,13,54,078,29,26,45,172,39,27,28,081,20,7*7D
$GAGSV,2,2,07,19,26,240,,15,13,038,27,04,12,298,,7*42
$GAGSV,1,1,04,21,55,014,41,13,54,078,23,26,45,172,41,27,28,081,25,1*7A
$GBGSV,4,1,13,23,74,036,42,09,73,264,38,06,70,214,41,16,67,199,41,1*77
$GBGSV,4,2,13,40,60,330,43,07,60,309,41,43,57,036,35,28,57,223,36,1*71
$GBGSV,4,3,13,39,57,187,40,10,51,290,37,25,36,119,46,37,31,322,44,1*77
$GBGSV,4,4,13,34,10,040,24,1*40
$GBGSV,2,1,08,23,74,036,44,40,60,330,43,39,57,187,38,43,57,036,40,4*73
$GBGSV,2,2,08,28,57,223,40,25,36,119,41,37,31,322,37,34,10,040,16,4*7E
$GNACCURACY,3.6*13
$PAIRSAT,1,35,2,0,201,3,0,200,4,0,221,5,0,200,6,0,200,7,0,201,8,0,221,9,0,220,10,0,200,11,0,200,12,0,200,13,0,200,14,0,200,15,0,200,16,0,201,17,0,200,18,0,200,19,0,200,20,0,200,21,0,201,22,0,200,23,0,200,24,0,200,25,0,200,26,0,220,27,0,221,28,0,200,29,0,200,30,0,221,31,0,200,32,0,200,194,0,621,195,0,621,196,0,620,199,0,621*5A
$PAIRSAT,2,24,65,0,200,66,0,200,67,0,200,68,0,200,69,0,200,70,0,200,71,0,200,72,0,200,73,0,200,74,0,200,75,0,200,76,0,200,77,0,201,78,0,201,79,0,201,80,0,200,81,0,201,82,0,201,83,0,200,84,0,200,85,0,200,86,0,200,87,0,201,88,0,201*7B
$PAIRSAT,3,23,2,0,1200,3,0,1200,4,0,1200,5,0,200,7,0,1200,8,0,1200,9,0,1200,10,0,1200,11,0,1200,12,0,1200,13,0,1221,15,0,1220,19,0,1201,21,0,1221,24,0,1200,25,0,1200,26,0,1221,27,0,1221,30,0,1200,31,0,1200,33,0,1200,34,0,1000,36,0,1200*6B
$PAIRSAT,4,46,1,0,200,2,0,200,3,0,600,4,0,200,5,0,200,6,0,201,7,0,201,8,0,200,9,0,201,10,0,201,11,0,200,12,0,200,13,0,200,14,0,200,16,0,201,19,0,600,20,0,600,21,0,600,22,0,600,23,0,621,24,0,600,25,0,621,26,0,600,27,0,600,28,0,621,29,0,600,30,0,600,32,0,600,33,0,600,34,0,621,35,0,600,36,0,600,37,0,621,38,0,600,39,0,621,40,0,621,41,0,600,42,0,600,43,0,621,44,0,400,45,0,400,46,0,400,59,0,400,60,0,400,61,0,400,62,0,400*4A
$PAIRDGP,10,2,4,7,8,9,16,21,26,27,30*42
$GNGGA,041232.200,2500.7853819,N,12132.4478913,E,4,57,0.49,16.701,M,15.25,M,1,3335*40
$GNRMC,041232.200,A,2500.7853819,N,12132.4478913,E,0.00,317.03,090324,,,R,V*1E
$GPHDT,318.155,T*3E
$GNACCURACY,3.6*13
$GNGGA,041232.300,2500.7853792,N,12132.4478851,E,4,57,0.49,16.708,M,15.25,M,1,3335*43
$GNRMC,041232.300,A,2500.7853792,N,12132.4478851,E,0.00,317.03,090324,,,R,V*14
$GPHDT,,T*1B
$GNACCURACY,3.6*13
$GNGGA,041232.400,2500.7853815,N,12132.4478917,E,4,57,0.49,16.696,M,15.25,M,1,3335*41
$GNRMC,041232.400,A,2500.7853815,N,12132.4478917,E,0.00,317.03,090324,,,R,V*10
$GPHDT,318.420,T*39
$GNACCURACY,3.6*13
$GNGGA,041232.500,2500.7853813,N,12132.4478918,E,4,58,0.48,16.691,M,15.25,M,0,3335*41
$GNRMC,041232.500,A,2500.7853813,N,12132.4478918,E,0.00,317.03,090324,,,R,V*18
$GPHDT,,T*1B
$GNACCURACY,3.6*13
$GNGGA,041232.600,2500.7853823,N,12132.4478916,E,4,58,0.48,16.690,M,15.25,M,0,3335*4E
$GNRMC,041232.600,A,2500.7853823,N,12132.4478916,E,0.00,317.03,090324,,,R,V*16
$GPHDT,318.411,T*3B
$GNACCURACY,3.6*13
$GNGGA,041232.700,2500.7853807,N,12132.4478916,E,4,58,0.48,16.704,M,15.25,M,0,3335*45
$GNRMC,041232.700,A,2500.7853807,N,12132.4478916,E,0.00,317.03,090324,,,R,V*11
$GPHDT,,T*1B
$GNACCURACY,3.6*13
$GNGGA,041232.800,2500.7853823,N,12132.4478909,E,4,58,0.48,16.692,M,15.25,M,0,3335*4C
$GNRMC,041232.800,A,2500.7853823,N,12132.4478909,E,0.00,317.03,090324,,,R,V*16
$GPHDT,319.090,T*37
$GNACCURACY,3.6*13
$GNGGA,041232.900,2500.7853817,N,12132.4478941,E,4,58,0.48,16.694,M,15.25,M,0,3335*40
$GNRMC,041232.900,A,2500.7853817,N,12132.4478941,E,0.00,317.03,090324,,,R,V*1C
$GPHDT,,T*1B
$GNACCURACY,3.6*13
$GNGGA,041233.000,2500.7853770,N,12132.4478859,E,4,58,0.48,16.671,M,15.25,M,1,3335*44
$GNRMC,041233.000,A,2500.7853770,N,12132.4478859,E,0.00,317.03,090324,,,R,V*12
$GPHDT,320.286,T*38
$GNACCURACY,3.6*13
$GNGGA,041233.100,2500.7853804,N,12132.4478907,E,4,58,0.48,16.697,M,15.25,M,1,3335*4B
$GNRMC,041233.100,A,2500.7853804,N,12132.4478907,E,0.00,317.03,090324,,,R,V*15
$GPHDT,,T*1B
$GNGSA,A,3,195,194,21,08,199,02,07,27,16,09,196,04,0.82,0.48,0.67,1*09
$GNGSA,A,3,30,,,,,,,,,,,,0.82,0.48,0.67,1*05
$GNGSA,A,3,81,78,88,79,77,82,,,,,,,0.82,0.48,0.67,2*07
$GNGSA,A,3,21,13,26,27,15,,,,,,,,0.82,0.48,0.67,3*00
$GNGSA,A,3,23,09,06,16,07,40,39,28,43,10,25,37,0.82,0.48,0.67,4*0C
$GNGSA,A,3,34,,,,,,,,,,,,0.82,0.48,0.67,4*04
$GPGSV,4,1,15,195,65,113,41,194,64,053,35,21,61,154,41,08,61,357,41,1*69
$GPGSV,4,2,15,199,60,167,37,50,60,167,40,02,50,176,42,07,43,316,40,1*53
$GPGSV,4,3,15,27,32,037,36,16,27,077,27,09,23,245,17,196,19,169,18,1*59
$GPGSV,4,4,15,04,17,202,20,30,12,320,25,26,07,100,,1*54
$GPGSV,3,1,10,195,65,113,45,194,64,053,40,08,61,357,43,199,60,167,44,8*50
$GPGSV,3,2,10,27,32,037,38,09,23,245,17,196,19,169,20,04,17,202,18,8*5A
$GPGSV,3,3,10,30,12,320,35,26,07,100,18,8*60
$GLGSV,2,1,07,81,67,202,40,78,57,041,43,88,53,030,40,79,27,335,23,1*71
$GLGSV,2,2,07,77,22,112,27,82,17,205,22,87,01,026,,1*49
$GAGSV,2,1,07,21,55,014,40,13,54,078,29,26,45,172,38,27,28,081,19,7*76
$GAGSV,2,2,07,19,26,240,,15,13,038,27,04,12,298,,7*42
$GAGSV,1,1,04,21,55,014,41,13,54,078,26,26,45,172,41,27,28,081,25,1*7F
$GBGSV,4,1,14,23,74,036,41,09,73,264,39,06,70,214,41,16,67,199,41,1*72
$GBGSV,4,2,14,07,60,309,41,40,60,330,43,39,57,187,40,28,57,223,35,1*71
$GBGSV,4,3,14,43,57,036,36,10,51,290,37,25,36,119,46,37,31,322,44,1*77
$GBGSV,4,4,14,27,11,221,,34,10,040,24,1*73
$GBGSV,2,1,08,23,74,036,44,40,60,330,43,39,57,187,38,43,57,036,40,4*73
$GBGSV,2,2,08,28,57,223,40,25,36,119,41,37,31,322,37,34,10,040,17,4*7F
$GNACCURACY,3.6*13
$PAIRSAT,1,35,2,0,201,3,0,200,4,0,221,5,0,200,6,0,200,7,0,201,8,0,221,9,0,220,10,0,200,11,0,200,12,0,200,13,0,200,14,0,200,15,0,200,16,0,201,17,0,200,18,0,200,19,0,200,20,0,200,21,0,201,22,0,200,23,0,200,24,0,200,25,0,200,26,0,220,27,0,221,28,0,200,29,0,200,30,0,221,31,0,200,32,0,200,194,0,621,195,0,621,196,0,620,199,0,621*5A
$PAIRSAT,2,24,65,0,200,66,0,200,67,0,200,68,0,200,69,0,200,70,0,200,71,0,200,72,0,200,73,0,200,74,0,200,75,0,200,76,0,200,77,0,201,78,0,201,79,0,201,80,0,200,81,0,201,82,0,201,83,0,200,84,0,200,85,0,200,86,0,200,87,0,201,88,0,201*7B
$PAIRSAT,3,23,2,0,1200,3,0,1200,4,0,1200,5,0,200,7,0,1200,8,0,1200,9,0,1200,10,0,1200,11,0,1200,12,0,1200,13,0,1221,15,0,1220,19,0,1201,21,0,1221,24,0,1200,25,0,1200,26,0,1221,27,0,1221,30,0,1200,31,0,1200,33,0,1200,34,0,1000,36,0,1200*6B
$PAIRSAT,4,46,1,0,200,2,0,200,3,0,600,4,0,200,5,0,200,6,0,201,7,0,201,8,0,200,9,0,201,10,0,201,11,0,200,12,0,200,13,0,200,14,0,200,16,0,201,19,0,600,20,0,600,21,0,600,22,0,600,23,0,621,24,0,600,25,0,621,26,0,600,27,0,600,28,0,621,29,0,600,30,0,600,32,0,600,33,0,600,34,0,621,35,0,600,36,0,600,37,0,621,38,0,600,39,0,621,40,0,621,41,0,600,42,0,600,43,0,621,44,0,400,45,0,400,46,0,400,59,0,400,60,0,400,61,0,400,62,0,400*4A
$PAIRDGP,10,2,4,7,8,9,16,21,26,27,30*42
$GNGGA,041233.200,2500.7853800,N,12132.4478918,E,4,58,0.48,16.689,M,15.25,M,1,3335*4D
$GNRMC,041233.200,A,2500.7853800,N,12132.4478918,E,0.00,317.03,090324,,,R,V*1C
$GPHDT,320.007,T*33
$GNACCURACY,3.6*13
$GNGGA,041233.300,2500.7853802,N,12132.4478910,E,4,58,0.48,16.694,M,15.25,M,1,3335*4A
$GNRMC,041233.300,A,2500.7853802,N,12132.4478910,E,0.00,317.03,090324,,,R,V*17
$GPHDT,,T*1B
$GNACCURACY,3.6*13
$GNGGA,041233.400,2500.7853823,N,12132.4478934,E,4,58,0.48,16.689,M,15.25,M,1,3335*44
$GNRMC,041233.400,A,2500.7853823,N,12132.4478934,E,0.00,317.03,090324,,,R,V*15
$GPHDT,319.450,T*3F
$GNACCURACY,3.6*13
$GNGGA,041233.500,2500.7853807,N,12132.4478927,E,4,58,0.48,16.681,M,15.25,M,1,3335*49
$GNRMC,041233.500,A,2500.7853807,N,12132.4478927,E,0.00,317.03,090324,,,R,V*10
$GPHDT,,T*1B
$GNACCURACY,3.6*13
$GNGGA,041233.600,2500.7853806,N,12132.4478938,E,4,58,0.48,16.690,M,15.25,M,1,3335*45
$GNRMC,041233.600,A,2500.7853806,N,12132.4478938,E,0.01,317.03,090324,,,R,V*1D
$GPHDT,319.324,T*3B
