$FW : RTK35X,V1.1X0314AS,Lib20210517,1*54
$Tool : LOCOSYS , GNSS Firebird , v1.0.0.19*39
$---------------------------------------------------*2D
$GNACCURACY,3.5*10
$GNGGA,041247.000,2500.7853739,N,12132.4479010,E,4,55,0.50,16.664,M,15.25,M,1,3335*4E
$GNRMC,041247.000,A,2500.7853739,N,12132.4479010,E,0.03,317.03,090324,,,R,V*1B
$GPHDT,227.353,T*37
$GNACCURACY,3.5*10
$GNGGA,041247.100,2500.7853720,N,12132.4478892,E,4,55,0.50,16.742,M,15.25,M,1,3335*41
$GNRMC,041247.100,A,2500.7853720,N,12132.4478892,E,0.02,317.03,090324,,,R,V*10
$GPHDT,,T*1B
$GNGSA,A,3,195,194,21,08,199,02,07,27,16,09,196,04,0.75,0.49,0.57,1*03
$GNGSA,A,3,30,,,,,,,,,,,,0.75,0.49,0.57,1*0F
$GNGSA,A,3,81,78,88,79,77,82,,,,,,,0.75,0.49,0.57,2*0D
$GNGSA,A,3,21,13,26,27,,,,,,,,,0.75,0.49,0.57,3*0E
$GNGSA,A,3,23,09,06,16,40,07,43,28,39,10,25,37,0.75,0.49,0.57,4*06
$GNGSA,A,3,34,,,,,,,,,,,,0.75,0.49,0.57,4*0E
$GPGSV,4,1,15,195,65,113,40,194,64,053,34,21,62,154,36,08,61,357,43,1*68
$GPGSV,4,2,15,199,60,167,32,50,60,167,35,02,50,176,40,07,43,316,47,1*51
$GPGSV,4,3,15,27,32,037,35,16,27,077,24,09,23,245,15,196,19,169,17,1*54
$GPGSV,4,4,15,04,16,202,21,30,12,320,29,26,07,101,,1*59
$GPGSV,3,1,10,195,65,113,44,194,64,053,39,08,61,357,46,199,60,167,43,8*5D
$GPGSV,3,2,10,27,32,037,40,09,23,245,22,196,19,169,25,04,16,202,26,8*5A
$GPGSV,3,3,10,30,12,320,38,26,07,101,15,8*61
$GLGSV,2,1,07,81,67,203,44,78,57,041,41,88,53,030,38,79,27,335,44,1*78
$GLGSV,2,2,07,77,22,112,15,82,17,205,30,87,01,026,,1*4B
$GAGSV,2,1,07,21,55,014,44,13,54,078,27,26,45,172,34,27,28,081,15,7*7C
$GAGSV,2,2,07,19,26,240,,15,13,038,,04,12,298,,7*47
$GAGSV,1,1,04,21,55,014,42,13,54,078,27,26,45,172,37,27,28,081,21,1*78
$GBGSV,4,1,13,23,74,036,44,09,72,263,39,06,70,214,43,16,67,199,43,1*76
$GBGSV,4,2,13,40,60,330,44,07,60,309,41,43,57,036,30,28,57,223,39,1*7C
$GBGSV,4,3,13,39,57,188,40,10,51,290,39,25,36,119,34,37,31,322,46,1*71
$GBGSV,4,4,13,34,10,040,20,1*44
$GBGSV,2,1,07,23,74,036,44,40,60,330,40,39,57,188,37,43,57,036,40,4*7F
$GBGSV,2,2,07,28,57,223,39,25,36,119,35,37,31,322,44,4*4D
$GNACCURACY,3.5*10
$PAIRSAT,1,35,2,0,201,3,0,200,4,0,221,5,0,200,6,0,200,7,0,201,8,0,221,9,0,220,10,0,200,11,0,200,12,0,200,13,0,200,14,0,200,15,0,200,16,0,201,17,0,200,18,0,200,19,0,200,20,0,200,21,0,201,22,0,200,23,0,200,24,0,200,25,0,200,26,0,220,27,0,221,28,0,200,29,0,200,30,0,221,31,0,200,32,0,200,194,0,621,195,0,621,196,0,620,199,0,621*5A
$PAIRSAT,2,24,65,0,200,66,0,200,67,0,200,68,0,200,69,0,200,70,0,200,71,0,200,72,0,200,73,0,200,74,0,200,75,0,200,76,0,200,77,0,201,78,0,201,79,0,201,80,0,200,81,0,201,82,0,201,83,0,200,84,0,200,85,0,200,86,0,200,87,0,201,88,0,201*7B
$PAIRSAT,3,23,2,0,1200,3,0,1200,4,0,1200,5,0,200,7,0,1200,8,0,1200,9,0,1200,10,0,1200,11,0,1200,12,0,1200,13,0,1221,15,0,1220,19,0,1201,21,0,1221,24,0,1200,25,0,1200,26,0,1221,27,0,1221,30,0,1200,31,0,1200,33,0,1200,34,0,1000,36,0,1200*6B
$PAIRSAT,4,46,1,0,200,2,0,200,3,0,600,4,0,200,5,0,200,6,0,201,7,0,201,8,0,200,9,0,201,10,0,201,11,0,200,12,0,200,13,0,200,14,0,200,16,0,201,19,0,600,20,0,600,21,0,600,22,0,600,23,0,621,24,0,600,25,0,621,26,0,600,27,0,600,28,0,621,29,0,600,30,0,600,32,0,600,33,0,600,34,0,621,35,0,600,36,0,600,37,0,621,38,0,600,39,0,621,40,0,621,41,0,600,42,0,600,43,0,621,44,0,400,45,0,400,46,0,400,59,0,400,60,0,400,61,0,400,62,0,400*4A
$PAIRDGP,10,2,4,7,8,9,16,21,26,27,30*42
$GNGGA,041247.200,2500.7853793,N,12132.4478838,E,4,56,0.49,16.795,M,15.25,M,1,3335*4B
$GNRMC,041247.200,A,2500.7853793,N,12132.4478838,E,0.02,317.03,090324,,,R,V*1B
$GPHDT,227.497,T*38
$GNACCURACY,3.5*10
$GNGGA,041247.300,2500.7853765,N,12132.4478870,E,4,56,0.49,16.769,M,15.25,M,1,3335*4C
$GNRMC,041247.300,A,2500.7853765,N,12132.4478870,E,0.01,317.03,090324,,,R,V*1C
$GPHDT,,T*1B
$GNACCURACY,3.5*10
$GNGGA,041247.400,2500.7853750,N,12132.4478930,E,4,56,0.49,16.743,M,15.25,M,1,3335*40
$GNRMC,041247.400,A,2500.7853750,N,12132.4478930,E,0.00,317.03,090324,,,R,V*19
$GPHDT,228.719,T*32
$GNACCURACY,3.5*10
$GNGGA,041247.500,2500.7853748,N,12132.4478913,E,4,56,0.49,16.758,M,15.25,M,1,3335*43
$GNRMC,041247.500,A,2500.7853748,N,12132.4478913,E,0.00,317.03,090324,,,R,V*10
$GPHDT,,T*1B
$GNACCURACY,3.5*10
$GNGGA,041247.600,2500.7853746,N,12132.4478903,E,4,56,0.49,16.738,M,15.25,M,1,3335*49
$GNRMC,041247.600,A,2500.7853746,N,12132.4478903,E,0.01,317.03,090324,,,R,V*1D
$GPHDT,229.292,T*35
$GNACCURACY,3.5*10
$GNGGA,041247.700,2500.7853749,N,12132.4478909,E,4,55,0.50,16.748,M,15.25,M,0,3335*40
$GNRMC,041247.700,A,2500.7853749,N,12132.4478909,E,0.01,317.03,090324,,,R,V*19
$GPHDT,,T*1B
$GNACCURACY,3.5*10
$GNGGA,041247.800,2500.7853793,N,12132.4478895,E,4,55,0.50,16.757,M,15.25,M,0,3335*42
$GNRMC,041247.800,A,2500.7853793,N,12132.4478895,E,0.02,317.03,090324,,,R,V*16
$GPHDT,230.160,T*33
$GNACCURACY,3.5*10
$GNGGA,041247.900,2500.7853784,N,12132.4478860,E,4,55,0.50,16.770,M,15.25,M,0,3335*4A
$GNRMC,041247.900,A,2500.7853784,N,12132.4478860,E,0.02,317.03,090324,,,R,V*1B
$GPHDT,,T*1B
$GNACCURACY,3.5*10
$GNGGA,041248.000,2500.7853800,N,12132.4478954,E,4,55,0.50,16.749,M,15.25,M,1,3335*42
$GNRMC,041248.000,A,2500.7853800,N,12132.4478954,E,0.03,317.03,090324,,,R,V*19
$GPHDT,230.515,T*35
$GNACCURACY,3.5*10
$GNGGA,041248.100,2500.7853769,N,12132.4478912,E,4,55,0.50,16.748,M,15.25,M,1,3335*40
$GNRMC,041248.100,A,2500.7853769,N,12132.4478912,E,0.04,317.03,090324,,,R,V*1D
$GPHDT,,T*1B
$GNGSA,A,3,195,194,21,08,199,02,07,27,16,09,196,04,0.75,0.49,0.57,1*03
$GNGSA,A,3,30,,,,,,,,,,,,0.75,0.49,0.57,1*0F
$GNGSA,A,3,81,78,88,79,77,82,,,,,,,0.75,0.49,0.57,2*0D
$GNGSA,A,3,21,13,26,27,,,,,,,,,0.75,0.49,0.57,3*0E
$GNGSA,A,3,23,09,06,16,07,40,39,28,43,10,25,37,0.75,0.49,0.57,4*06
$GNGSA,A,3,34,,,,,,,,,,,,0.75,0.49,0.57,4*0E
$GPGSV,4,1,15,195,65,113,39,194,64,053,30,21,62,154,39,08,61,357,43,1*6D
$GPGSV,4,2,15,199,60,167,34,50,60,167,36,02,50,176,41,07,43,316,46,1*54
$GPGSV,4,3,15,27,32,037,31,16,27,077,22,09,23,245,17,196,19,169,19,1*5A
$GPGSV,4,4,15,04,16,202,20,30,12,320,31,26,07,101,,1*51
$GPGSV,3,1,10,195,65,113,43,194,64,053,38,08,61,357,46,199,60,167,43,8*5B
$GPGSV,3,2,10,27,32,037,39,09,23,245,19,196,19,169,25,04,16,202,26,8*5C
$GPGSV,3,3,10,30,12,320,38,26,07,101,13,8*67
$GLGSV,2,1,07,81,67,203,44,78,57,041,42,88,53,030,37,79,27,335,43,1*73
$GLGSV,2,2,07,77,22,112,16,82,17,205,32,87,01,026,,1*4A
$GAGSV,2,1,07,21,55,014,44,13,54,078,25,26,45,172,32,27,28,081,17,7*7A
$GAGSV,2,2,07,19,26,240,,15,13,038,,04,12,298,,7*47
$GAGSV,1,1,04,21,55,014,42,13,54,078,27,26,45,172,39,27,28,081,21,1*76
$GBGSV,4,1,14,23,74,036,44,09,72,263,38,06,70,214,43,16,67,199,43,1*70
$GBGSV,4,2,14,07,60,309,42,40,60,330,44,39,57,188,40,28,57,223,36,1*79
$GBGSV,4,3,14,43,57,036,32,10,51,290,36,25,36,119,37,37,31,322,47,1*77
$GBGSV,4,4,14,27,11,221,,34,10,040,23,1*74
$GBGSV,2,1,07,23,74,036,44,40,60,330,41,39,57,188,38,43,57,036,38,4*7E
$GBGSV,2,2,07,28,57,223,39,25,36,119,35,37,31,322,44,4*4D
$GNACCURACY,3.5*10
$PAIRSAT,1,35,2,0,201,3,0,200,4,0,221,5,0,200,6,0,200,7,0,201,8,0,221,9,0,220,10,0,200,11,0,200,12,0,200,13,0,200,14,0,200,15,0,200,16,0,201,17,0,200,18,0,200,19,0,200,20,0,200,21,0,201,22,0,200,23,0,200,24,0,200,25,0,200,26,0,220,27,0,221,28,0,200,29,0,200,30,0,221,31,0,200,32,0,200,194,0,621,195,0,621,196,0,620,199,0,621*5A
$PAIRSAT,2,24,65,0,200,66,0,200,67,0,200,68,0,200,69,0,200,70,0,200,71,0,200,72,0,200,73,0,200,74,0,200,75,0,200,76,0,200,77,0,201,78,0,201,79,0,201,80,0,200,81,0,201,82,0,201,83,0,200,84,0,200,85,0,200,86,0,200,87,0,201,88,0,201*7B
$PAIRSAT,3,23,2,0,1200,3,0,1200,4,0,1200,5,0,200,7,0,1200,8,0,1200,9,0,1200,10,0,1200,11,0,1200,12,0,1200,13,0,1221,15,0,1220,19,0,1201,21,0,1221,24,0,1200,25,0,1200,26,0,1221,27,0,1221,30,0,1200,31,0,1200,33,0,1200,34,0,1000,36,0,1200*6B
$PAIRSAT,4,46,1,0,200,2,0,200,3,0,600,4,0,200,5,0,200,6,0,201,7,0,201,8,0,200,9,0,201,10,0,201,11,0,200,12,0,200,13,0,200,14,0,200,16,0,201,19,0,600,20,0,600,21,0,600,22,0,600,23,0,621,24,0,600,25,0,621,26,0,600,27,0,600,28,0,621,29,0,600,30,0,600,32,0,600,33,0,600,34,0,621,35,0,600,36,0,600,37,0,621,38,0,600,39,0,621,40,0,621,41,0,600,42,0,600,43,0,621,44,0,400,45,0,400,46,0,400,59,0,400,60,0,400,61,0,400,62,0,400*4A
$PAIRDGP,10,2,4,7,8,9,16,21,26,27,30*42
$GNGGA,041248.200,2500.7853765,N,12132.4478894,E,4,56,0.49,16.752,M,15.25,M,1,3335*40
$GNRMC,041248.200,A,2500.7853765,N,12132.4478894,E,0.03,317.03,090324,,,R,V*1A
$GPHDT,230.481,T*39
$GNACCURACY,3.5*10
$GNGGA,041248.300,2500.7853745,N,12132.4478932,E,4,56,0.49,16.730,M,15.25,M,1,3335*4A
$GNRMC,041248.300,A,2500.7853745,N,12132.4478932,E,0.03,317.03,090324,,,R,V*14
$GPHDT,,T*1B
$GNACCURACY,3.5*10
$GNGGA,041248.400,2500.7853751,N,12132.4478941,E,4,56,0.49,16.742,M,15.25,M,1,3335*49
$GNRMC,041248.400,A,2500.7853751,N,12132.4478941,E,0.03,317.03,090324,,,R,V*12
$GPHDT,231.614,T*36
$GNACCURACY,3.5*10
$GNGGA,041248.500,2500.7853772,N,12132.4478982,E,4,56,0.49,16.736,M,15.25,M,1,3335*45
$GNRMC,041248.500,A,2500.7853772,N,12132.4478982,E,0.03,317.03,090324,,,R,V*1D
$GPHDT,,T*1B
$GNACCURACY,3.5*10
$GNGGA,041248.600,2500.7853727,N,12132.4479021,E,4,56,0.49,16.718,M,15.25,M,0,3335*4A
$GNRMC,041248.600,A,2500.7853727,N,12132.4479021,E,0.03,317.03,090324,,,R,V*1F
$GPHDT,231.043,T*32
$GNACCURACY,3.5*10
$GNGGA,041248.700,2500.7853726,N,12132.4478999,E,4,55,0.49,16.712,M,15.25,M,0,3335*48
$GNRMC,041248.700,A,2500.7853726,N,12132.4478999,E,0.03,317.03,090324,,,R,V*14
$GPHDT,,T*1B
$GNACCURACY,3.5*10
$GNGGA,041248.800,2500.7853727,N,12132.4479051,E,4,55,0.49,16.706,M,15.25,M,0,3335*4F
$GNRMC,041248.800,A,2500.7853727,N,12132.4479051,E,0.03,317.03,090324,,,R,V*16
$GPHDT,231.337,T*32
$GNACCURACY,3.5*10
$GNGGA,041248.900,2500.7853786,N,12132.4478982,E,4,55,0.49,16.744,M,15.25,M,0,3335*45
$GNRMC,041248.900,A,2500.7853786,N,12132.4478982,E,0.03,317.03,090324,,,R,V*1A
$GPHDT,,T*1B
$GNACCURACY,3.5*10
$GNGGA,041249.000,2500.7853779,N,12132.4479000,E,4,55,0.49,16.737,M,15.25,M,1,3335*4A
$GNRMC,041249.000,A,2500.7853779,N,12132.4479000,E,0.03,317.03,090324,,,R,V*10
$GPHDT,231.158,T*39
$GNACCURACY,3.5*10
$GNGGA,041249.100,2500.7853688,N,12132.4479076,E,4,55,0.49,16.694,M,15.25,M,1,3335*4D
$GNRMC,041249.100,A,2500.7853688,N,12132.4479076,E,0.02,317.03,090324,,,R,V*1E
$GPHDT,,T*1B
$GNGSA,A,3,195,194,21,08,199,02,07,27,16,09,196,04,0.75,0.49,0.57,1*03
$GNGSA,A,3,30,,,,,,,,,,,,0.75,0.49,0.57,1*0F
$GNGSA,A,3,81,78,88,79,77,82,,,,,,,0.75,0.49,0.57,2*0D
$GNGSA,A,3,21,13,26,27,,,,,,,,,0.75,0.49,0.57,3*0E
$GNGSA,A,3,23,09,06,16,40,07,43,28,39,10,37,34,0.75,0.49,0.57,4*06
$GNGSA,A,3,25,,,,,,,,,,,,0.75,0.49,0.57,4*0E
$GPGSV,4,1,15,195,65,113,41,194,64,053,29,21,62,154,42,08,61,357,40,1*65
$GPGSV,4,2,15,199,60,167,37,50,60,167,40,02,50,176,45,07,43,316,44,1*50
$GPGSV,4,3,15,27,32,037,32,16,27,077,20,09,23,245,18,196,19,169,17,1*5A
$GPGSV,4,4,15,04,16,202,21,30,12,320,26,26,07,101,16,1*51
$GPGSV,3,1,10,195,65,113,44,194,64,053,39,08,61,357,47,199,60,167,46,8*59
$GPGSV,3,2,10,27,32,037,38,09,23,245,18,196,19,169,27,04,16,202,25,8*5D
$GPGSV,3,3,10,30,12,320,39,26,07,101,13,8*66
$GLGSV,2,1,07,81,67,203,44,78,57,041,42,88,53,030,37,79,27,335,43,1*73
$GLGSV,2,2,07,77,22,112,19,82,17,205,28,87,01,026,,1*4E
$GAGSV,2,1,07,21,55,014,44,13,54,078,25,26,45,172,35,27,28,081,16,7*7C
$GAGSV,2,2,07,19,26,240,,15,13,038,,04,12,298,,7*47
$GAGSV,1,1,04,21,55,014,42,13,54,078,22,26,45,172,39,27,28,081,20,1*72
$GBGSV,4,1,13,23,74,036,42,09,72,263,38,06,70,214,43,16,67,199,44,1*76
$GBGSV,4,2,13,40,60,330,43,07,60,309,42,43,57,036,30,28,57,223,37,1*76
$GBGSV,4,3,13,39,57,188,42,10,51,290,36,25,36,119,,37,31,322,46,1*7B
$GBGSV,4,4,13,34,10,040,18,1*4F
$GBGSV,2,1,07,23,74,036,44,40,60,330,42,39,57,188,41,43,57,036,38,4*73
$GBGSV,2,2,07,28,57,223,39,25,36,119,36,37,31,322,45,4*4F
$GNACCURACY,3.5*10
$PAIRSAT,1,35,2,0,201,3,0,200,4,0,221,5,0,200,6,0,200,7,0,201,8,0,221,9,0,220,10,0,200,11,0,200,12,0,200,13,0,200,14,0,200,15,0,200,16,0,201,17,0,200,18,0,200,19,0,200,20,0,200,21,0,201,22,0,200,23,0,200,24,0,200,25,0,200,26,0,220,27,0,221,28,0,200,29,0,200,30,0,221,31,0,200,32,0,200,194,0,621,195,0,621,196,0,620,199,0,621*5A
$PAIRSAT,2,24,65,0,200,66,0,200,67,0,200,68,0,200,69,0,200,70,0,200,71,0,200,72,0,200,73,0,200,74,0,200,75,0,200,76,0,200,77,0,201,78,0,201,79,0,201,80,0,200,81,0,201,82,0,201,83,0,200,84,0,200,85,0,200,86,0,200,87,0,201,88,0,201*7B
$PAIRSAT,3,23,2,0,1200,3,0,1200,4,0,1200,5,0,200,7,0,1200,8,0,1200,9,0,1200,10,0,1200,11,0,1200,12,0,1200,13,0,1221,15,0,1220,19,0,1201,21,0,1221,24,0,1200,25,0,1200,26,0,1221,27,0,1221,30,0,1200,31,0,1200,33,0,1200,34,0,1000,36,0,1200*6B
$PAIRSAT,4,46,1,0,200,2,0,200,3,0,600,4,0,200,5,0,200,6,0,201,7,0,201,8,0,200,9,0,201,10,0,201,11,0,200,12,0,200,13,0,200,14,0,200,16,0,201,19,0,600,20,0,600,21,0,600,22,0,600,23,0,621,24,0,600,25,0,621,26,0,600,27,0,600,28,0,621,29,0,600,30,0,600,32,0,600,33,0,600,34,0,621,35,0,600,36,0,600,37,0,621,38,0,600,39,0,621,40,0,621,41,0,600,42,0,600,43,0,621,44,0,400,45,0,400,46,0,400,59,0,400,60,0,400,61,0,400,62,0,400*4A
$PAIRDGP,10,2,4,7,8,9,16,21,26,27,30*42
$GNGGA,041249.200,2500.7853768,N,12132.4479030,E,4,55,0.49,16.722,M,15.25,M,1,3335*4F
$GNRMC,041249.200,A,2500.7853768,N,12132.4479030,E,0.02,317.03,090324,,,R,V*10
$GPHDT,231.324,T*30
$GNACCURACY,3.5*10
$GNGGA,041249.300,2500.7853749,N,12132.4478993,E,4,55,0.49,16.740,M,15.25,M,1,3335*48
$GNRMC,041249.300,A,2500.7853749,N,12132.4478993,E,0.03,317.03,090324,,,R,V*12
$GPHDT,,T*1B
$GNACCURACY,3.5*10
$GNGGA,041249.400,2500.7853717,N,12132.4478931,E,4,55,0.49,16.740,M,15.25,M,1,3335*4C
$GNRMC,041249.400,A,2500.7853717,N,12132.4478931,E,0.03,317.03,090324,,,R,V*16
$GPHDT,230.817,T*3A
$GNACCURACY,3.5*10
$GNGGA,041249.500,2500.7853733,N,12132.4478907,E,4,55,0.49,16.753,M,15.25,M,1,3335*4C
$GNRMC,041249.500,A,2500.7853733,N,12132.4478907,E,0.02,317.03,090324,,,R,V*15
$GPHDT,,T*1B
$GNACCURACY,3.5*10
$GNGGA,041249.600,2500.7853728,N,12132.4478868,E,4,56,0.49,16.755,M,15.25,M,0,3335*49
$GNRMC,041249.600,A,2500.7853728,N,12132.4478868,E,0.02,317.03,090324,,,R,V*14
$GPHDT,230.263,T*33
$GNACCURACY,3.5*10
$GNGGA,041249.700,2500.7853746,N,12132.4478878,E,4,56,0.49,16.756,M,15.25,M,0,3335*42
$GNRMC,041249.700,A,2500.7853746,N,12132.4478878,E,0.02,317.03,090324,,,R,V*1C
$GPHDT,,T*1B
$GNACCURACY,3.5*10
$GNGGA,041249.800,2500.7853735,N,12132.4478871,E,4,56,0.49,16.754,M,15.25,M,0,3335*42
$GNRMC,041249.800,A,2500.7853735,N,12132.4478871,E,0.02,317.03,090324,,,R,V*1E
$GPHDT,230.336,T*32
$GNACCURACY,3.5*10
$GNGGA,041249.900,2500.7853769,N,12132.4478876,E,4,56,0.49,16.772,M,15.25,M,0,3335*49
$GNRMC,041249.900,A,2500.7853769,N,12132.4478876,E,0.01,317.03,090324,,,R,V*12
$GPHDT,,T*1B
$GNACCURACY,3.5*10
$GNGGA,041250.000,2500.7853775,N,12132.4478848,E,4,56,0.49,16.774,M,15.25,M,1,3335*4F
$GNRMC,041250.000,A,2500.7853775,N,12132.4478848,E,0.01,317.03,090324,,,R,V*13
$GPHDT,229.464,T*3A
$GNACCURACY,3.5*10
$GNGGA,041250.100,2500.7853747,N,12132.4478828,E,4,56,0.49,16.773,M,15.25,M,1,3335*4E
$GNRMC,041250.100,A,2500.7853747,N,12132.4478828,E,0.01,317.03,090324,,,R,V*15
$GPHDT,,T*1B
$GNGSA,A,3,195,194,21,08,199,02,07,27,16,09,196,04,0.75,0.49,0.57,1*03
$GNGSA,A,3,30,,,,,,,,,,,,0.75,0.49,0.57,1*0F
$GNGSA,A,3,81,78,88,79,77,82,,,,,,,0.75,0.49,0.57,2*0D
$GNGSA,A,3,21,13,26,27,,,,,,,,,0.75,0.49,0.57,3*0E
$GNGSA,A,3,23,09,06,16,40,07,43,28,39,10,25,37,0.75,0.49,0.57,4*06
$GNGSA,A,3,34,,,,,,,,,,,,0.75,0.49,0.57,4*0E
$GPGSV,4,1,15,195,65,113,41,194,64,053,32,21,62,154,38,08,61,357,42,1*60
$GPGSV,4,2,15,199,60,167,31,50,60,167,35,02,50,176,43,07,43,315,44,1*51
$GPGSV,4,3,15,27,32,037,32,16,27,077,19,09,23,245,18,196,19,169,16,1*51
$GPGSV,4,4,15,04,16,202,20,30,12,320,30,26,07,101,15,1*54
$GPGSV,3,1,09,195,65,113,44,194,64,053,39,08,61,357,44,199,60,167,44,8*50
$GPGSV,3,2,09,27,32,037,38,09,23,245,19,196,19,169,27,04,16,202,25,8*54
$GPGSV,3,3,09,30,12,320,39,8*5F
$GLGSV,2,1,07,81,67,203,44,78,57,041,42,88,53,030,37,79,27,335,43,1*73
$GLGSV,2,2,07,77,22,112,18,82,17,205,28,87,01,026,,1*4F
$GAGSV,2,1,07,21,55,014,44,13,54,078,21,26,45,172,31,27,28,081,15,7*7F
$GAGSV,2,2,07,19,26,240,,15,13,038,,04,12,298,,7*47
$GAGSV,1,1,04,21,55,014,42,13,54,078,23,26,45,172,38,27,28,081,21,1*73
$GBGSV,4,1,13,23,74,036,44,09,72,263,38,06,70,214,43,16,67,199,43,1*77
$GBGSV,4,2,13,40,60,330,44,07,60,309,42,43,57,036,29,28,57,223,37,1*79
$GBGSV,4,3,13,39,57,188,41,10,51,290,36,25,36,119,41,37,31,322,47,1*7C
$GBGSV,4,4,13,34,10,040,18,1*4F
$GBGSV,2,1,07,23,74,036,45,40,60,330,40,28,57,223,39,39,57,188,39,4*75
$GBGSV,2,2,07,43,57,036,38,25,36,119,36,37,31,322,44,4*44
$GNACCURACY,3.5*10
$PAIRSAT,1,35,2,0,201,3,0,200,4,0,221,5,0,200,6,0,200,7,0,201,8,0,221,9,0,220,10,0,200,11,0,200,12,0,200,13,0,200,14,0,200,15,0,200,16,0,201,17,0,200,18,0,200,19,0,200,20,0,200,21,0,201,22,0,200,23,0,200,24,0,200,25,0,200,26,0,220,27,0,221,28,0,200,29,0,200,30,0,221,31,0,200,32,0,200,194,0,621,195,0,621,196,0,620,199,0,621*5A
$PAIRSAT,2,24,65,0,200,66,0,200,67,0,200,68,0,200,69,0,200,70,0,200,71,0,200,72,0,200,73,0,200,74,0,200,75,0,200,76,0,200,77,0,201,78,0,201,79,0,201,80,0,200,81,0,201,82,0,201,83,0,200,84,0,200,85,0,200,86,0,200,87,0,201,88,0,201*7B
$PAIRSAT,3,23,2,0,1200,3,0,1200,4,0,1200,5,0,200,7,0,1200,8,0,1200,9,0,1200,10,0,1200,11,0,1200,12,0,1200,13,0,1221,15,0,1220,19,0,1201,21,0,1221,24,0,1200,25,0,1200,26,0,1221,27,0,1221,30,0,1200,31,0,1200,33,0,1200,34,0,1000,36,0,1200*6B
$PAIRSAT,4,46,1,0,200,2,0,200,3,0,600,4,0,200,5,0,200,6,0,201,7,0,201,8,0,200,9,0,201,10,0,201,11,0,200,12,0,200,13,0,200,14,0,200,16,0,201,19,0,600,20,0,600,21,0,600,22,0,600,23,0,621,24,0,600,25,0,621,26,0,600,27,0,600,28,0,621,29,0,600,30,0,600,32,0,600,33,0,600,34,0,621,35,0,600,36,0,600,37,0,621,38,0,600,39,0,621,40,0,621,41,0,600,42,0,600,43,0,621,44,0,400,45,0,400,46,0,400,59,0,400,60,0,400,61,0,400,62,0,400*4A
$PAIRDGP,10,2,4,7,8,9,16,21,26,27,30*42
$GNGGA,041250.200,2500.7853745,N,12132.4478806,E,4,56,0.49,16.774,M,15.25,M,1,3335*44
$GNRMC,041250.200,A,2500.7853745,N,12132.4478806,E,0.02,317.03,090324,,,R,V*1B
$GPHDT,229.111,T*3D
$GNACCURACY,3.5*10
$GNGGA,041250.300,2500.7853747,N,12132.4478831,E,4,56,0.49,16.770,M,15.25,M,1,3335*47
$GNRMC,041250.300,A,2500.7853747,N,12132.4478831,E,0.03,317.03,090324,,,R,V*1D
$GPHDT,,T*1B
$GNACCURACY,3.5*10
$GNGGA,041250.400,2500.7853757,N,12132.4478821,E,4,56,0.49,16.779,M,15.25,M,0,3335*48
$GNRMC,041250.400,A,2500.7853757,N,12132.4478821,E,0.03,317.03,090324,,,R,V*1A
$GPHDT,229.424,T*3E
$GNACCURACY,3.5*10
$GNGGA,041250.500,2500.7853737,N,12132.4478814,E,4,56,0.49,16.773,M,15.25,M,0,3335*43
$GNRMC,041250.500,A,2500.7853737,N,12132.4478814,E,0.03,317.03,090324,,,R,V*1B
$GPHDT,,T*1B
$GNACCURACY,3.6*13
$GNGGA,041250.600,2500.7853754,N,12132.4478815,E,4,56,0.49,16.778,M,15.25,M,0,3335*4F
$GNRMC,041250.600,A,2500.7853754,N,12132.4478815,E,0.03,317.03,090324,,,R,V*1C
$GPHDT,229.537,T*3D
$GNACCURACY,3.6*13
$GNGGA,041250.700,2500.7853745,N,12132.4478841,E,4,56,0.49,16.781,M,15.25,M,0,3335*49
$GNRMC,041250.700,A,2500.7853745,N,12132.4478841,E,0.04,317.03,090324,,,R,V*1B
$GPHDT,,T*1B
$GNACCURACY,3.6*13
$GNGGA,041250.800,2500.7853766,N,12132.4478811,E,4,56,0.49,16.794,M,15.25,M,0,3335*46
$GNRMC,041250.800,A,2500.7853766,N,12132.4478811,E,0.03,317.03,090324,,,R,V*17
$GPHDT,229.418,T*31
$GNACCURACY,3.6*13
$GNGGA,041250.900,2500.7853742,N,12132.4478817,E,4,56,0.49,16.774,M,15.25,M,0,3335*49
$GNRMC,041250.900,A,2500.7853742,N,12132.4478817,E,0.03,317.03,090324,,,R,V*16
$GPHDT,,T*1B
$GNACCURACY,3.6*13
$GNGGA,041251.000,2500.7853757,N,12132.4478819,E,4,56,0.49,16.775,M,15.25,M,1,3335*4B
$GNRMC,041251.000,A,2500.7853757,N,12132.4478819,E,0.03,317.03,090324,,,R,V*14
$GPHDT,229.294,T*33
$GNACCURACY,3.6*13
$GNGGA,041251.100,2500.7853765,N,12132.4478865,E,4,56,0.49,16.767,M,15.25,M,1,3335*43
$GNRMC,041251.100,A,2500.7853765,N,12132.4478865,E,0.02,317.03,090324,,,R,V*1E
$GPHDT,,T*1B
$GNGSA,A,3,195,194,21,08,199,02,07,27,16,09,196,04,0.75,0.49,0.57,1*03
$GNGSA,A,3,30,,,,,,,,,,,,0.75,0.49,0.57,1*0F
$GNGSA,A,3,81,78,88,79,77,82,,,,,,,0.75,0.49,0.57,2*0D
$GNGSA,A,3,21,13,26,27,,,,,,,,,0.75,0.49,0.57,3*0E
$GNGSA,A,3,23,09,06,16,40,07,43,28,39,10,25,37,0.75,0.49,0.57,4*06
$GNGSA,A,3,34,,,,,,,,,,,,0.75,0.49,0.57,4*0E
$GPGSV,4,1,15,195,65,113,40,194,64,053,31,21,62,154,40,08,61,358,43,1*63
$GPGSV,4,2,15,199,60,167,32,50,60,167,35,02,50,176,42,07,43,315,46,1*51
$GPGSV,4,3,15,27,32,037,34,16,27,077,24,09,23,245,16,196,19,169,15,1*54
$GPGSV,4,4,15,04,16,202,19,30,12,320,28,26,07,101,12,1*50
$GPGSV,3,1,09,195,65,113,44,194,64,053,38,08,61,358,44,199,60,167,43,8*59
$GPGSV,3,2,09,27,32,037,38,09,23,245,20,196,19,169,25,04,16,202,27,8*5E
$GPGSV,3,3,09,30,12,320,40,8*51
$GLGSV,2,1,07,81,67,203,44,78,57,041,42,88,53,030,38,79,27,335,43,1*7C
$GLGSV,2,2,07,77,22,112,18,82,17,205,28,87,01,026,,1*4F
$GAGSV,2,1,07,21,55,014,44,13,54,078,19,26,45,172,32,27,28,081,12,7*70
$GAGSV,2,2,07,19,26,240,,15,13,038,,04,12,298,,7*47
$GAGSV,1,1,04,21,55,014,42,13,54,078,25,26,45,172,38,27,28,081,22,1*76
$GBGSV,4,1,13,23,74,036,44,09,72,263,38,06,70,214,43,16,67,199,43,1*77
$GBGSV,4,2,13,40,60,330,44,07,60,309,42,43,57,036,32,28,57,223,37,1*73
$GBGSV,4,3,13,39,57,188,40,10,51,290,36,25,36,119,40,37,31,322,47,1*7C
$GBGSV,4,4,13,34,10,040,18,1*4F
$GBGSV,2,1,07,23,74,036,45,40,60,330,40,28,57,223,39,39,57,188,39,4*75
$GBGSV,2,2,07,43,57,036,39,25,36,119,36,37,31,322,44,4*45
$GNACCURACY,3.6*13
$PAIRSAT,1,35,2,0,201,3,0,200,4,0,221,5,0,200,6,0,200,7,0,201,8,0,221,9,0,220,10,0,200,11,0,200,12,0,200,13,0,200,14,0,200,15,0,200,16,0,201,17,0,200,18,0,200,19,0,200,20,0,200,21,0,201,22,0,200,23,0,200,24,0,200,25,0,200,26,0,220,27,0,221,28,0,200,29,0,200,30,0,221,31,0,200,32,0,200,194,0,621,195,0,621,196,0,620,199,0,621*5A
$PAIRSAT,2,24,65,0,200,66,0,200,67,0,200,68,0,200,69,0,200,70,0,200,71,0,200,72,0,200,73,0,200,74,0,200,75,0,200,76,0,200,77,0,201,78,0,201,79,0,201,80,0,200,81,0,201,82,0,201,83,0,200,84,0,200,85,0,200,86,0,200,87,0,201,88,0,201*7B
$PAIRSAT,3,23,2,0,1200,3,0,1200,4,0,1200,5,0,200,7,0,1200,8,0,1200,9,0,1200,10,0,1200,11,0,1200,12,0,1200,13,0,1221,15,0,1220,19,0,1201,21,0,1221,24,0,1200,25,0,1200,26,0,1221,27,0,1221,30,0,1200,31,0,1200,33,0,1200,34,0,1000,36,0,1200*6B
$PAIRSAT,4,46,1,0,200,2,0,200,3,0,600,4,0,200,5,0,200,6,0,201,7,0,201,8,0,200,9,0,201,10,0,201,11,0,200,12,0,200,13,0,200,14,0,200,16,0,201,19,0,600,20,0,600,21,0,600,22,0,600,23,0,621,24,0,600,25,0,621,26,0,600,27,0,600,28,0,621,29,0,600,30,0,600,32,0,600,33,0,600,34,0,621,35,0,600,36,0,600,37,0,621,38,0,600,39,0,621,40,0,621,41,0,600,42,0,600,43,0,621,44,0,400,45,0,400,46,0,400,59,0,400,60,0,400,61,0,400,62,0,400*4A
$PAIRDGP,10,2,4,7,8,9,16,21,26,27,30*42
$GNGGA,041251.200,2500.7853744,N,12132.4478819,E,4,56,0.49,16.770,M,15.25,M,1,3335*4E
$GNRMC,041251.200,A,2500.7853744,N,12132.4478819,E,0.03,317.03,090324,,,R,V*14
$GPHDT,229.302,T*3D
$GNACCURACY,3.6*13
$GNGGA,041251.300,2500.7853771,N,12132.4478864,E,4,56,0.49,16.772,M,15.25,M,1,3335*41
$GNRMC,041251.300,A,2500.7853771,N,12132.4478864,E,0.03,317.03,090324,,,R,V*19
$GPHDT,,T*1B
$GNACCURACY,3.6*13
$GNGGA,041251.400,2500.7853745,N,12132.4478831,E,4,56,0.49,16.769,M,15.25,M,1,3335*4B
$GNRMC,041251.400,A,2500.7853745,N,12132.4478831,E,0.02,317.03,090324,,,R,V*18
$GPHDT,229.513,T*3B
$GNACCURACY,3.6*13
$GNGGA,041251.500,2500.7853742,N,12132.4478853,E,4,56,0.49,16.770,M,15.25,M,1,3335*41
$GNRMC,041251.500,A,2500.7853742,N,12132.4478853,E,0.02,317.03,090324,,,R,V*1A
$GPHDT,,T*1B
$GNACCURACY,3.6*13
$GNGGA,041251.600,2500.7853743,N,12132.4478807,E,4,56,0.49,16.765,M,15.25,M,0,3335*47
$GNRMC,041251.600,A,2500.7853743,N,12132.4478807,E,0.03,317.03,090324,,,R,V*18
$GPHDT,229.461,T*3F
$GNACCURACY,3.6*13
$GNGGA,041251.700,2500.7853749,N,12132.4478808,E,4,56,0.49,16.764,M,15.25,M,0,3335*42
$GNRMC,041251.700,A,2500.7853749,N,12132.4478808,E,0.02,317.03,090324,,,R,V*1D
$GPHDT,,T*1B
$GNACCURACY,3.6*13
$GNGGA,041251.800,2500.7853752,N,12132.4478810,E,4,56,0.49,16.760,M,15.25,M,0,3335*4A
$GNRMC,041251.800,A,2500.7853752,N,12132.4478810,E,0.01,317.03,090324,,,R,V*12
$GPHDT,229.164,T*3F
$GNACCURACY,3.6*13
$GNGGA,041251.900,2500.7853750,N,12132.4478862,E,4,56,0.49,16.761,M,15.25,M,0,3335*4D
$GNRMC,041251.900,A,2500.7853750,N,12132.4478862,E,0.01,317.03,090324,,,R,V*14
$GPHDT,,T*1B
$GNACCURACY,3.6*13
$GNGGA,041252.000,2500.7853755,N,12132.4478858,E,4,56,0.49,16.763,M,15.25,M,1,3335*48
$GNRMC,041252.000,A,2500.7853755,N,12132.4478858,E,0.02,317.03,090324,,,R,V*11
$GPHDT,229.292,T*35
$GNACCURACY,3.6*13
$GNGGA,041252.100,2500.7853694,N,12132.4478893,E,4,56,0.49,16.733,M,15.25,M,1,3335*47
$GNRMC,041252.100,A,2500.7853694,N,12132.4478893,E,0.01,317.03,090324,,,R,V*18
$GPHDT,,T*1B
$GNGSA,A,3,195,194,21,08,199,02,07,27,16,09,196,04,0.75,0.49,0.57,1*03
$GNGSA,A,3,30,,,,,,,,,,,,0.75,0.49,0.57,1*0F
$GNGSA,A,3,81,78,88,79,77,82,,,,,,,0.75,0.49,0.57,2*0D
$GNGSA,A,3,21,13,26,27,,,,,,,,,0.75,0.49,0.57,3*0E
$GNGSA,A,3,23,09,06,16,40,07,43,28,39,10,25,37,0.75,0.49,0.57,4*06
$GNGSA,A,3,34,,,,,,,,,,,,0.75,0.49,0.57,4*0E
$GPGSV,4,1,15,195,65,113,39,194,64,053,28,21,62,154,39,08,61,358,43,1*6B
$GPGSV,4,2,15,199,60,167,31,50,60,167,33,02,50,176,42,07,43,315,46,1*54
$GPGSV,4,3,15,27,31,037,34,16,27,077,24,09,23,245,16,196,19,169,16,1*54
$GPGSV,4,4,15,04,16,202,19,30,12,320,28,26,07,101,12,1*50
$GPGSV,3,1,09,195,65,113,44,194,64,053,38,08,61,358,44,199,60,167,43,8*59
$GPGSV,3,2,09,27,31,037,38,09,23,245,20,196,19,169,25,04,16,202,26,8*5C
$GPGSV,3,3,09,30,12,320,40,8*51
$GLGSV,2,1,07,81,67,203,44,78,57,041,42,88,53,030,38,79,27,335,43,1*7C
$GLGSV,2,2,07,77,22,112,19,82,17,205,29,87,01,026,,1*4F
$GAGSV,2,1,07,21,55,014,44,13,54,078,13,26,45,172,34,27,28,081,16,7*78
$GAGSV,2,2,07,19,26,240,,15,13,038,,04,12,298,,7*47
$GAGSV,1,1,04,21,55,014,42,13,54,078,21,26,45,172,38,27,28,081,21,1*71
$GBGSV,4,1,13,23,74,036,44,09,72,263,38,06,70,214,43,16,67,199,43,1*77
$GBGSV,4,2,13,40,60,330,44,07,60,309,42,43,57,036,32,28,57,223,36,1*72
$GBGSV,4,3,13,39,57,188,40,10,51,290,36,25,36,119,38,37,31,322,47,1*73
$GBGSV,4,4,13,34,10,040,22,1*46
$GBGSV,2,1,07,23,74,036,44,40,60,330,40,28,57,223,39,39,57,188,39,4*74
$GBGSV,2,2,07,43,57,036,39,25,36,119,36,37,31,322,44,4*45
$GNACCURACY,3.6*13
$PAIRSAT,1,35,2,0,201,3,0,200,4,0,221,5,0,200,6,0,200,7,0,201,8,0,221,9,0,220,10,0,200,11,0,200,12,0,200,13,0,200,14,0,200,15,0,200,16,0,201,17,0,200,18,0,200,19,0,200,20,0,200,21,0,201,22,0,200,23,0,200,24,0,200,25,0,200,26,0,220,27,0,221,28,0,200,29,0,200,30,0,221,31,0,200,32,0,200,194,0,621,195,0,621,196,0,620,199,0,621*5A
$PAIRSAT,2,24,65,0,200,66,0,200,67,0,200,68,0,200,69,0,200,70,0,200,71,0,200,72,0,200,73,0,200,74,0,200,75,0,200,76,0,200,77,0,201,78,0,201,79,0,201,80,0,200,81,0,201,82,0,201,83,0,200,84,0,200,85,0,200,86,0,200,87,0,201,88,0,201*7B
$PAIRSAT,3,23,2,0,1200,3,0,1200,4,0,1200,5,0,200,7,0,1200,8,0,1200,9,0,1200,10,0,1200,11,0,1200,12,0,1200,13,0,1221,15,0,1220,19,0,1201,21,0,1221,24,0,1200,25,0,1200,26,0,1221,27,0,1221,30,0,1200,31,0,1200,33,0,1200,34,0,1000,36,0,1200*6B
$PAIRSAT,4,46,1,0,200,2,0,200,3,0,600,4,0,200,5,0,200,6,0,201,7,0,201,8,0,200,9,0,201,10,0,201,11,0,200,12,0,200,13,0,200,14,0,200,16,0,201,19,0,600,20,0,600,21,0,600,22,0,600,23,0,621,24,0,600,25,0,621,26,0,600,27,0,600,28,0,621,29,0,600,30,0,600,32,0,600,33,0,600,34,0,621,35,0,600,36,0,600,37,0,621,38,0,600,39,0,621,40,0,621,41,0,600,42,0,600,43,0,621,44,0,400,45,0,400,46,0,400,59,0,400,60,0,400,61,0,400,62,0,400*4A
$PAIRDGP,10,2,4,7,8,9,16,21,26,27,30*42
$GNGGA,041252.200,2500.7853724,N,12132.4478883,E,4,56,0.49,16.753,M,15.25,M,1,3335*49
$GNRMC,041252.200,A,2500.7853724,N,12132.4478883,E,0.01,317.03,090324,,,R,V*10
$GPHDT,229.558,T*34
$GNACCURACY,3.6*13
$GNGGA,041252.300,2500.7853713,N,12132.4478883,E,4,56,0.49,16.756,M,15.25,M,1,3335*49
$GNRMC,041252.300,A,2500.7853713,N,12132.4478883,E,0.01,317.03,090324,,,R,V*15
$GPHDT,,T*1B
$GNACCURACY,3.6*13
$GNGGA,041252.400,2500.7853731,N,12132.4478926,E,4,56,0.49,16.735,M,15.25,M,1,3335*45
$GNRMC,041252.400,A,2500.7853731,N,12132.4478926,E,0.01,317.03,090324,,,R,V*1C
$GPHDT,228.785,T*37
$GNACCURACY,3.6*13
$GNGGA,041252.500,2500.7853765,N,12132.4479011,E,4,56,0.49,16.672,M,15.25,M,0,3335*4A
$GNRMC,041252.500,A,2500.7853765,N,12132.4479011,E,0.02,317.03,090324,,,R,V*13
$GPHDT,,T*1B
$GNACCURACY,3.6*13
$GNGGA,041252.600,2500.7853757,N,12132.4479037,E,4,56,0.49,16.662,M,15.25,M,0,3335*4D
$GNRMC,041252.600,A,2500.7853757,N,12132.4479037,E,0.01,317.03,090324,,,R,V*16
$GPHDT,228.052,T*3A
$GNACCURACY,3.6*13
$GNGGA,041252.700,2500.7853754,N,12132.4479023,E,4,54,0.50,16.654,M,15.25,M,0,3335*45
$GNRMC,041252.700,A,2500.7853754,N,12132.4479023,E,0.01,317.03,090324,,,R,V*11
$GPHDT,,T*1B
