$FW : RTK35X,V1.1X0314AS,Lib20210517,1*54
$Tool : LOCOSYS , GNSS Firebird , v1.0.0.19*39
$---------------------------------------------------*2D
$GPHDT,,T*1B
$GNACCURACY,3.6*13
$GNGGA,041217.600,2500.7853833,N,12132.4478989,E,4,57,0.48,16.696,M,15.25,M,0,3335*47
$GNRMC,041217.600,A,2500.7853833,N,12132.4478989,E,0.02,317.03,090324,,,R,V*14
$GPHDT,4.462,T*31
$GNACCURACY,3.6*13
$GNGGA,041217.700,2500.7853821,N,12132.4478972,E,4,58,0.48,16.716,M,15.25,M,0,3335*47
$GNRMC,041217.700,A,2500.7853821,N,12132.4478972,E,0.02,317.03,090324,,,R,V*12
$GPHDT,,T*1B
$GNACCURACY,3.6*13
$GNGGA,041217.800,2500.7853826,N,12132.4478962,E,4,58,0.48,16.709,M,15.25,M,0,3335*40
$GNRMC,041217.800,A,2500.7853826,N,12132.4478962,E,0.02,317.03,090324,,,R,V*1B
$GPHDT,4.716,T*31
$GNACCURACY,3.6*13
$GNGGA,041217.900,2500.7853845,N,12132.4478957,E,4,58,0.48,16.710,M,15.25,M,0,3335*4A
$GNRMC,041217.900,A,2500.7853845,N,12132.4478957,E,0.01,317.03,090324,,,R,V*1A
$GPHDT,,T*1B
$GNACCURACY,3.6*13
$GNGGA,041218.000,2500.7853840,N,12132.4478948,E,4,58,0.48,16.710,M,15.25,M,1,3335*46
$GNRMC,041218.000,A,2500.7853840,N,12132.4478948,E,0.01,317.03,090324,,,R,V*17
$GPHDT,5.373,T*37
$GNACCURACY,3.6*13
$GNGGA,041218.100,2500.7853834,N,12132.4478904,E,4,58,0.48,16.697,M,15.25,M,1,3335*42
$GNRMC,041218.100,A,2500.7853834,N,12132.4478904,E,0.01,317.03,090324,,,R,V*1D
$GPHDT,,T*1B
$GNGSA,A,3,195,194,21,08,199,02,07,27,16,09,196,04,0.73,0.48,0.55,1*06
$GNGSA,A,3,30,,,,,,,,,,,,0.73,0.48,0.55,1*0A
$GNGSA,A,3,81,78,88,79,77,82,,,,,,,0.73,0.48,0.55,2*08
$GNGSA,A,3,21,13,26,27,15,,,,,,,,0.73,0.48,0.55,3*0F
$GNGSA,A,3,23,09,06,16,07,40,43,28,39,10,25,37,0.73,0.48,0.55,4*03
$GNGSA,A,3,34,,,,,,,,,,,,0.73,0.48,0.55,4*0B
$GPGSV,4,1,15,195,65,113,42,194,64,053,23,21,61,154,39,08,61,357,44,1*67
$GPGSV,4,2,15,199,60,167,38,50,60,167,40,02,50,176,44,07,43,316,36,1*5B
$GPGSV,4,3,15,27,32,037,25,16,27,077,28,09,23,245,13,196,19,169,18,1*50
$GPGSV,4,4,15,04,17,202,18,30,12,320,32,26,07,100,15,1*5D
$GPGSV,3,1,09,195,65,113,46,194,64,053,42,08,61,357,48,199,60,167,45,8*53
$GPGSV,3,2,09,27,32,037,38,196,19,169,24,04,17,202,24,30,12,320,30,8*56
$GPGSV,3,3,09,26,07,100,15,8*52
$GLGSV,2,1,07,81,67,202,43,78,57,040,41,88,54,030,36,79,27,335,36,1*73
$GLGSV,2,2,07,77,23,112,27,82,17,205,28,87,01,026,,1*42
$GAGSV,2,1,08,21,55,013,40,13,54,078,31,26,45,172,40,27,28,081,22,7*70
$GAGSV,2,2,08,19,27,240,,15,13,038,17,04,12,298,,33,05,199,,7*7B
$GAGSV,2,1,05,21,55,013,43,13,54,078,21,26,45,172,39,27,28,081,22,1*77
$GAGSV,2,2,05,15,13,038,23,1*4C
$GBGSV,4,1,13,23,74,035,38,09,73,264,25,06,70,214,41,16,67,199,44,1*70
$GBGSV,4,2,13,07,60,309,34,40,60,330,42,43,57,036,33,28,57,223,40,1*75
$GBGSV,4,3,13,39,57,187,43,10,51,290,27,25,36,119,46,37,31,322,41,1*70
$GBGSV,4,4,13,34,10,040,17,1*40
$GBGSV,2,1,08,23,74,035,45,40,60,330,41,39,57,187,42,43,57,036,37,4*7E
$GBGSV,2,2,08,28,57,223,41,25,36,119,36,37,31,322,41,34,10,040,19,4*71
$GNACCURACY,3.6*13
$PAIRSAT,1,35,2,0,201,3,0,200,4,0,221,5,0,200,6,0,200,7,0,201,8,0,221,9,0,220,10,0,200,11,0,200,12,0,200,13,0,200,14,0,200,15,0,200,16,0,201,17,0,200,18,0,200,19,0,200,20,0,200,21,0,201,22,0,200,23,0,200,24,0,200,25,0,200,26,0,220,27,0,221,28,0,200,29,0,200,30,0,221,31,0,200,32,0,200,194,0,621,195,0,621,196,0,620,199,0,621*5A
$PAIRSAT,2,24,65,0,200,66,0,200,67,0,200,68,0,200,69,0,200,70,0,200,71,0,200,72,0,200,73,0,200,74,0,200,75,0,200,76,0,200,77,0,201,78,0,201,79,0,201,80,0,200,81,0,201,82,0,201,83,0,200,84,0,200,85,0,200,86,0,200,87,0,201,88,0,201*7B
$PAIRSAT,3,23,2,0,1200,3,0,1200,4,0,1200,5,0,200,7,0,1200,8,0,1200,9,0,1200,10,0,1200,11,0,1200,12,0,1200,13,0,1221,15,0,1220,19,0,1201,21,0,1221,24,0,1200,25,0,1200,26,0,1221,27,0,1221,30,0,1200,31,0,1200,33,0,1200,34,0,1000,36,0,1200*6B
$PAIRSAT,4,46,1,0,200,2,0,200,3,0,600,4,0,200,5,0,200,6,0,201,7,0,201,8,0,200,9,0,201,10,0,201,11,0,200,12,0,200,13,0,200,14,0,200,16,0,201,19,0,600,20,0,600,21,0,600,22,0,600,23,0,621,24,0,600,25,0,621,26,0,600,27,0,600,28,0,621,29,0,600,30,0,600,32,0,600,33,0,600,34,0,621,35,0,600,36,0,600,37,0,621,38,0,600,39,0,621,40,0,621,41,0,600,42,0,600,43,0,621,44,0,400,45,0,400,46,0,400,59,0,400,60,0,400,61,0,400,62,0,400*4A
$PAIRDGP,10,2,4,7,8,9,16,21,26,27,30*42
$GNGGA,041218.200,2500.7853848,N,12132.4478910,E,4,58,0.48,16.718,M,15.25,M,1,3335*49
$GNRMC,041218.200,A,2500.7853848,N,12132.4478910,E,0.01,317.03,090324,,,R,V*10
$GPHDT,5.356,T*30
$GNACCURACY,3.6*13
$GNGGA,041218.300,2500.7853845,N,12132.4478924,E,4,58,0.48,16.709,M,15.25,M,1,3335*42
$GNRMC,041218.300,A,2500.7853845,N,12132.4478924,E,0.01,317.03,090324,,,R,V*1B
$GPHDT,,T*1B
$GNACCURACY,3.6*13
$GNGGA,041218.400,2500.7853834,N,12132.4478914,E,4,58,0.48,16.707,M,15.25,M,1,3335*4E
$GNRMC,041218.400,A,2500.7853834,N,12132.4478914,E,0.01,317.03,090324,,,R,V*19
$GPHDT,5.624,T*30
$GNACCURACY,3.6*13
$GNGGA,041218.500,2500.7853830,N,12132.4478946,E,4,58,0.48,16.707,M,15.25,M,1,3335*4C
$GNRMC,041218.500,A,2500.7853830,N,12132.4478946,E,0.01,317.03,090324,,,R,V*1B
$GPHDT,,T*1B
$GNACCURACY,3.6*13
$GNGGA,041218.600,2500.7853825,N,12132.4478889,E,4,58,0.48,16.717,M,15.25,M,0,3335*49
$GNRMC,041218.600,A,2500.7853825,N,12132.4478889,E,0.01,317.03,090324,,,R,V*1E
$GPHDT,5.711,T*37
$GNACCURACY,3.6*13
$GNGGA,041218.700,2500.7853836,N,12132.4478930,E,4,58,0.48,16.725,M,15.25,M,0,3335*48
$GNRMC,041218.700,A,2500.7853836,N,12132.4478930,E,0.01,317.03,090324,,,R,V*1E
$GPHDT,,T*1B
$GNACCURACY,3.6*13
$GNGGA,041218.800,2500.7853817,N,12132.4478921,E,4,57,0.50,16.703,M,15.25,M,0,3335*46
$GNRMC,041218.800,A,2500.7853817,N,12132.4478921,E,0.00,317.03,090324,,,R,V*13
$GPHDT,5.231,T*30
$GNACCURACY,3.6*13
$GNGGA,041218.900,2500.7853823,N,12132.4478914,E,4,57,0.50,16.715,M,15.25,M,0,3335*41
$GNRMC,041218.900,A,2500.7853823,N,12132.4478914,E,0.00,317.03,090324,,,R,V*13
$GPHDT,,T*1B
$GNACCURACY,3.6*13
$GNGGA,041219.000,2500.7853825,N,12132.4478890,E,4,57,0.50,16.723,M,15.25,M,1,3335*46
$GNRMC,041219.000,A,2500.7853825,N,12132.4478890,E,0.01,317.03,090324,,,R,V*11
$GPHDT,5.783,T*3C
$GNACCURACY,3.6*13
$GNGGA,041219.100,2500.7853828,N,12132.4478894,E,4,57,0.50,16.715,M,15.25,M,1,3335*4B
$GNRMC,041219.100,A,2500.7853828,N,12132.4478894,E,0.01,317.03,090324,,,R,V*19
$GPHDT,,T*1B
$GNGSA,A,3,195,194,21,08,199,02,07,27,16,196,04,30,0.76,0.50,0.57,1*02
$GNGSA,A,3,81,78,88,79,77,82,,,,,,,0.76,0.50,0.57,2*06
$GNGSA,A,3,21,13,26,27,15,,,,,,,,0.76,0.50,0.57,3*01
$GNGSA,A,3,23,09,06,16,07,40,28,43,39,10,25,37,0.76,0.50,0.57,4*0D
$GNGSA,A,3,34,,,,,,,,,,,,0.76,0.50,0.57,4*05
$GPGSV,4,1,15,195,65,113,42,194,64,053,29,21,61,154,39,08,61,357,45,1*6C
$GPGSV,4,2,15,199,60,167,36,50,60,167,39,02,50,176,44,07,43,316,37,1*5A
$GPGSV,4,3,15,27,32,037,22,16,27,077,28,09,23,245,14,196,19,169,20,1*5B
$GPGSV,4,4,15,04,17,202,18,30,12,320,33,26,07,100,13,1*5A
$GPGSV,2,1,08,195,65,113,46,194,64,053,42,08,61,357,48,199,60,167,46,8*50
$GPGSV,2,2,08,27,32,037,38,196,19,169,24,04,17,202,24,30,12,320,33,8*55
$GLGSV,2,1,08,81,67,202,43,78,57,040,41,88,54,030,36,79,27,335,37,1*7D
$GLGSV,2,2,08,77,23,112,27,82,17,205,27,69,03,280,,87,01,026,,1*74
$GAGSV,2,1,08,21,55,013,40,13,54,078,31,26,45,172,40,27,28,081,20,7*72
$GAGSV,2,2,08,19,27,240,,15,13,038,17,04,12,298,,33,05,199,,7*7B
$GAGSV,2,1,05,21,55,013,43,13,54,078,18,26,45,172,40,27,28,081,22,1*73
$GAGSV,2,2,05,15,13,038,24,1*4B
$GBGSV,4,1,13,23,74,035,38,09,73,264,23,06,70,214,42,16,67,199,44,1*75
$GBGSV,4,2,13,07,60,309,37,40,60,330,42,28,57,223,40,43,57,036,33,1*76
$GBGSV,4,3,13,39,57,187,43,10,51,290,24,25,36,119,46,37,31,322,41,1*73
$GBGSV,4,4,13,34,10,040,16,1*41
$GBGSV,2,1,08,23,74,035,46,40,60,330,41,39,57,187,42,43,57,036,37,4*7D
$GBGSV,2,2,08,28,57,223,41,25,36,119,38,37,31,322,41,34,10,040,19,4*7F
$GNACCURACY,3.6*13
$PAIRSAT,1,35,2,0,201,3,0,200,4,0,221,5,0,200,6,0,200,7,0,201,8,0,221,9,0,220,10,0,200,11,0,200,12,0,200,13,0,200,14,0,200,15,0,200,16,0,201,17,0,200,18,0,200,19,0,200,20,0,200,21,0,201,22,0,200,23,0,200,24,0,200,25,0,200,26,0,220,27,0,221,28,0,200,29,0,200,30,0,221,31,0,200,32,0,200,194,0,621,195,0,621,196,0,620,199,0,621*5A
$PAIRSAT,2,24,65,0,200,66,0,200,67,0,200,68,0,200,69,0,200,70,0,200,71,0,200,72,0,200,73,0,200,74,0,200,75,0,200,76,0,200,77,0,201,78,0,201,79,0,201,80,0,200,81,0,201,82,0,201,83,0,200,84,0,200,85,0,200,86,0,200,87,0,201,88,0,201*7B
$PAIRSAT,3,23,2,0,1200,3,0,1200,4,0,1200,5,0,200,7,0,1200,8,0,1200,9,0,1200,10,0,1200,11,0,1200,12,0,1200,13,0,1221,15,0,1220,19,0,1201,21,0,1221,24,0,1200,25,0,1200,26,0,1221,27,0,1221,30,0,1200,31,0,1200,33,0,1200,34,0,1000,36,0,1200*6B
$PAIRSAT,4,46,1,0,200,2,0,200,3,0,600,4,0,200,5,0,200,6,0,201,7,0,201,8,0,200,9,0,201,10,0,201,11,0,200,12,0,200,13,0,200,14,0,200,16,0,201,19,0,600,20,0,600,21,0,600,22,0,600,23,0,621,24,0,600,25,0,621,26,0,600,27,0,600,28,0,621,29,0,600,30,0,600,32,0,600,33,0,600,34,0,621,35,0,600,36,0,600,37,0,621,38,0,600,39,0,621,40,0,621,41,0,600,42,0,600,43,0,621,44,0,400,45,0,400,46,0,400,59,0,400,60,0,400,61,0,400,62,0,400*4A
$PAIRDGP,10,2,4,7,8,9,16,21,26,27,30*42
$GNGGA,041219.200,2500.7853825,N,12132.4478930,E,4,57,0.50,16.722,M,15.25,M,1,3335*4E
$GNRMC,041219.200,A,2500.7853825,N,12132.4478930,E,0.00,317.03,090324,,,R,V*19
$GPHDT,4.421,T*36
$GNACCURACY,3.6*13
$GNGGA,041219.300,2500.7853830,N,12132.4478928,E,4,57,0.50,16.719,M,15.25,M,1,3335*4A
$GNRMC,041219.300,A,2500.7853830,N,12132.4478928,E,0.00,317.03,090324,,,R,V*15
$GPHDT,,T*1B
$GNACCURACY,3.6*13
$GNGGA,041219.400,2500.7853850,N,12132.4478983,E,4,57,0.50,16.721,M,15.25,M,1,3335*41
$GNRMC,041219.400,A,2500.7853850,N,12132.4478983,E,0.00,317.03,090324,,,R,V*15
$GPHDT,3.873,T*3A
$GNACCURACY,3.6*13
$GNGGA,041219.500,2500.7853836,N,12132.4478976,E,4,57,0.50,16.715,M,15.25,M,0,3335*4C
$GNRMC,041219.500,A,2500.7853836,N,12132.4478976,E,0.01,317.03,090324,,,R,V*1F
$GPHDT,,T*1B
$GNACCURACY,3.6*13
$GNGGA,041219.600,2500.7853839,N,12132.4478996,E,4,57,0.50,16.724,M,15.25,M,0,3335*4C
$GNRMC,041219.600,A,2500.7853839,N,12132.4478996,E,0.01,317.03,090324,,,R,V*1D
$GPHDT,3.849,T*33
$GNACCURACY,3.6*13
$GNGGA,041219.700,2500.7853841,N,12132.4478992,E,4,57,0.50,16.713,M,15.25,M,0,3335*42
$GNRMC,041219.700,A,2500.7853841,N,12132.4478992,E,0.01,317.03,090324,,,R,V*17
$GPHDT,,T*1B
$GNACCURACY,3.6*13
$GNGGA,041219.800,2500.7853820,N,12132.4478959,E,4,57,0.50,16.714,M,15.25,M,0,3335*4A
$GNRMC,041219.800,A,2500.7853820,N,12132.4478959,E,0.01,317.03,090324,,,R,V*18
$GPHDT,4.440,T*31
$GNACCURACY,3.6*13
$GNGGA,041219.900,2500.7853831,N,12132.4478997,E,4,57,0.50,16.711,M,15.25,M,0,3335*4C
$GNRMC,041219.900,A,2500.7853831,N,12132.4478997,E,0.01,317.03,090324,,,R,V*1B
$GPHDT,,T*1B
$GNACCURACY,3.6*13
$GNGGA,041220.000,2500.7853826,N,12132.4479006,E,4,57,0.50,16.703,M,15.25,M,1,3335*4B
$GNRMC,041220.000,A,2500.7853826,N,12132.4479006,E,0.01,317.03,090324,,,R,V*1E
$GPHDT,4.255,T*33
$GNACCURACY,3.6*13
$GNGGA,041220.100,2500.7853843,N,12132.4479022,E,4,57,0.50,16.713,M,15.25,M,1,3335*4E
$GNRMC,041220.100,A,2500.7853843,N,12132.4479022,E,0.01,317.03,090324,,,R,V*1A
$GPHDT,,T*1B
$GNGSA,A,3,195,194,21,08,199,02,07,27,16,196,04,30,0.76,0.50,0.57,1*02
$GNGSA,A,3,81,78,88,79,77,82,,,,,,,0.76,0.50,0.57,2*06
$GNGSA,A,3,21,13,26,27,15,,,,,,,,0.76,0.50,0.57,3*01
$GNGSA,A,3,23,09,06,16,40,07,43,28,39,10,25,37,0.76,0.50,0.57,4*0D
$GNGSA,A,3,34,,,,,,,,,,,,0.76,0.50,0.57,4*05
$GPGSV,4,1,15,195,65,113,41,194,64,053,31,21,61,154,41,08,61,357,43,1*6F
$GPGSV,4,2,15,199,60,167,37,50,60,167,40,02,50,176,46,07,43,316,40,1*57
$GPGSV,4,3,15,27,32,037,30,16,27,077,26,09,23,245,16,196,19,169,20,1*54
$GPGSV,4,4,15,04,17,202,18,30,12,320,33,26,07,100,13,1*5A
$GPGSV,2,1,08,195,65,113,46,194,64,053,40,08,61,357,48,199,60,167,46,8*52
$GPGSV,2,2,08,27,32,037,38,196,19,169,25,04,17,202,25,30,12,320,38,8*5E
$GLGSV,3,1,09,81,67,202,43,78,57,040,39,88,54,030,38,79,27,335,37,1*7C
$GLGSV,3,2,09,77,23,112,28,82,17,205,30,69,03,280,,68,01,235,,1*7C
$GLGSV,3,3,09,87,01,026,,1*4B
$GAGSV,2,1,07,21,55,013,39,13,54,078,32,26,45,172,40,27,28,081,22,7*72
$GAGSV,2,2,07,19,27,240,,15,13,038,18,33,05,199,,7*4F
$GAGSV,2,1,05,21,55,013,42,13,54,078,17,26,45,172,40,27,28,081,24,1*7B
$GAGSV,2,2,05,15,13,038,22,1*4D
$GBGSV,4,1,13,23,74,035,39,09,73,264,35,06,70,214,40,16,67,199,44,1*71
$GBGSV,4,2,13,40,60,330,45,07,60,309,41,43,57,036,33,28,57,223,38,1*7F
$GBGSV,4,3,13,39,57,187,42,10,51,290,34,25,36,119,46,37,31,322,43,1*71
$GBGSV,4,4,13,34,10,040,16,1*41
$GBGSV,2,1,08,23,74,035,43,40,60,330,44,39,57,187,42,43,57,036,37,4*7D
$GBGSV,2,2,08,28,57,223,41,25,36,119,40,37,31,322,41,34,10,040,19,4*70
$GNACCURACY,3.6*13
$PAIRSAT,1,35,2,0,201,3,0,200,4,0,221,5,0,200,6,0,200,7,0,201,8,0,221,9,0,220,10,0,200,11,0,200,12,0,200,13,0,200,14,0,200,15,0,200,16,0,201,17,0,200,18,0,200,19,0,200,20,0,200,21,0,201,22,0,200,23,0,200,24,0,200,25,0,200,26,0,220,27,0,221,28,0,200,29,0,200,30,0,221,31,0,200,32,0,200,194,0,621,195,0,621,196,0,620,199,0,621*5A
$PAIRSAT,2,24,65,0,200,66,0,200,67,0,200,68,0,200,69,0,200,70,0,200,71,0,200,72,0,200,73,0,200,74,0,200,75,0,200,76,0,200,77,0,201,78,0,201,79,0,201,80,0,200,81,0,201,82,0,201,83,0,200,84,0,200,85,0,200,86,0,200,87,0,201,88,0,201*7B
$PAIRSAT,3,23,2,0,1200,3,0,1200,4,0,1200,5,0,200,7,0,1200,8,0,1200,9,0,1200,10,0,1200,11,0,1200,12,0,1200,13,0,1221,15,0,1220,19,0,1201,21,0,1221,24,0,1200,25,0,1200,26,0,1221,27,0,1221,30,0,1200,31,0,1200,33,0,1200,34,0,1000,36,0,1200*6B
$PAIRSAT,4,46,1,0,200,2,0,200,3,0,600,4,0,200,5,0,200,6,0,201,7,0,201,8,0,200,9,0,201,10,0,201,11,0,200,12,0,200,13,0,200,14,0,200,16,0,201,19,0,600,20,0,600,21,0,600,22,0,600,23,0,621,24,0,600,25,0,621,26,0,600,27,0,600,28,0,621,29,0,600,30,0,600,32,0,600,33,0,600,34,0,621,35,0,600,36,0,600,37,0,621,38,0,600,39,0,621,40,0,621,41,0,600,42,0,600,43,0,621,44,0,400,45,0,400,46,0,400,59,0,400,60,0,400,61,0,400,62,0,400*4A
$PAIRDGP,10,2,4,7,8,9,16,21,26,27,30*42
$GNGGA,041220.200,2500.7853846,N,12132.4479025,E,4,57,0.50,16.727,M,15.25,M,1,3335*48
$GNRMC,041220.200,A,2500.7853846,N,12132.4479025,E,0.00,317.03,090324,,,R,V*1A
$GPHDT,4.140,T*34
$GNACCURACY,3.6*13
$GNGGA,041220.300,2500.7853840,N,12132.4479032,E,4,57,0.50,16.723,M,15.25,M,1,3335*4D
$GNRMC,041220.300,A,2500.7853840,N,12132.4479032,E,0.00,317.03,090324,,,R,V*1B
$GPHDT,,T*1B
$GNACCURACY,3.6*13
$GNGGA,041220.400,2500.7853835,N,12132.4479013,E,4,57,0.50,16.731,M,15.25,M,1,3335*48
$GNRMC,041220.400,A,2500.7853835,N,12132.4479013,E,0.01,317.03,090324,,,R,V*1C
$GPHDT,3.441,T*37
$GNACCURACY,3.6*13
$GNGGA,041220.500,2500.7853832,N,12132.4479004,E,4,57,0.50,16.740,M,15.25,M,1,3335*4E
$GNRMC,041220.500,A,2500.7853832,N,12132.4479004,E,0.01,317.03,090324,,,R,V*1C
$GPHDT,,T*1B
$GNACCURACY,3.6*13
$GNGGA,041220.600,2500.7853826,N,12132.4479012,E,4,57,0.50,16.739,M,15.25,M,1,3335*41
$GNRMC,041220.600,A,2500.7853826,N,12132.4479012,E,0.01,317.03,090324,,,R,V*1D
$GPHDT,4.591,T*3C
$GNACCURACY,3.6*13
$GNGGA,041220.700,2500.7853856,N,12132.4478970,E,4,57,0.50,16.732,M,15.25,M,0,3335*41
$GNRMC,041220.700,A,2500.7853856,N,12132.4478970,E,0.00,317.03,090324,,,R,V*16
$GPHDT,,T*1B
$GNACCURACY,3.6*13
$GNGGA,041220.800,2500.7853835,N,12132.4478975,E,4,57,0.50,16.726,M,15.25,M,0,3335*4B
$GNRMC,041220.800,A,2500.7853835,N,12132.4478975,E,0.01,317.03,090324,,,R,V*18
$GPHDT,4.428,T*3F
$GNACCURACY,3.6*13
$GNGGA,041220.900,2500.7853839,N,12132.4478961,E,4,57,0.50,16.730,M,15.25,M,0,3335*44
$GNRMC,041220.900,A,2500.7853839,N,12132.4478961,E,0.00,317.03,090324,,,R,V*11
$GPHDT,,T*1B
$GNACCURACY,3.6*13
$GNGGA,041221.000,2500.7853829,N,12132.4478941,E,4,57,0.50,16.733,M,15.25,M,1,3335*4D
$GNRMC,041221.000,A,2500.7853829,N,12132.4478941,E,0.01,317.03,090324,,,R,V*1B
$GPHDT,4.577,T*34
$GNACCURACY,3.6*13
$GNGGA,041221.100,2500.7853834,N,12132.4478968,E,4,57,0.50,16.732,M,15.25,M,1,3335*4A
$GNRMC,041221.100,A,2500.7853834,N,12132.4478968,E,0.01,317.03,090324,,,R,V*1D
$GPHDT,,T*1B
$GNGSA,A,3,195,194,21,08,199,02,07,27,16,196,04,30,0.76,0.50,0.57,1*02
$GNGSA,A,3,81,78,88,79,77,82,,,,,,,0.76,0.50,0.57,2*06
$GNGSA,A,3,21,13,26,27,15,,,,,,,,0.76,0.50,0.57,3*01
$GNGSA,A,3,23,09,06,16,40,07,43,28,39,10,25,37,0.76,0.50,0.57,4*0D
$GNGSA,A,3,34,,,,,,,,,,,,0.76,0.50,0.57,4*05
$GPGSV,4,1,15,195,65,113,41,194,64,053,32,21,61,154,41,08,61,357,43,1*6C
$GPGSV,4,2,15,199,60,167,37,50,60,167,40,02,50,176,46,07,43,316,41,1*56
$GPGSV,4,3,15,27,32,037,30,16,27,077,23,09,23,245,15,196,19,169,19,1*58
$GPGSV,4,4,15,04,17,202,20,30,12,320,33,26,07,100,14,1*56
$GPGSV,3,1,09,195,65,113,46,194,64,053,40,08,61,357,48,199,60,167,46,8*52
$GPGSV,3,2,09,27,32,037,38,196,19,169,25,04,17,202,25,30,12,320,39,8*5F
$GPGSV,3,3,09,26,07,100,17,8*50
$GLGSV,2,1,07,81,67,202,43,78,57,040,39,88,54,030,37,79,27,335,37,1*7C
$GLGSV,2,2,07,77,23,112,28,82,17,205,30,87,01,026,,1*44
$GAGSV,2,1,07,21,55,013,40,13,54,078,32,26,45,172,40,27,28,081,21,7*7F
$GAGSV,2,2,07,19,27,240,,15,13,038,18,33,05,199,,7*4F
$GAGSV,2,1,05,21,55,013,42,13,54,078,17,26,45,172,42,27,28,081,24,1*79
$GAGSV,2,2,05,15,13,038,21,1*4E
$GBGSV,4,1,13,23,74,035,39,09,73,264,34,06,70,214,40,16,67,199,44,1*70
$GBGSV,4,2,13,40,60,330,45,07,60,309,41,43,57,036,34,28,57,223,35,1*75
$GBGSV,4,3,13,39,57,187,42,10,51,290,34,25,36,119,47,37,31,322,44,1*77
$GBGSV,4,4,13,34,10,040,14,1*43
$GBGSV,2,1,08,23,74,035,44,40,60,330,44,39,57,187,42,43,57,036,38,4*75
$GBGSV,2,2,08,28,57,223,41,25,36,119,40,37,31,322,42,34,10,040,22,4*7B
$GNACCURACY,3.6*13
$PAIRSAT,1,35,2,0,201,3,0,200,4,0,221,5,0,200,6,0,200,7,0,201,8,0,221,9,0,220,10,0,200,11,0,200,12,0,200,13,0,200,14,0,200,15,0,200,16,0,201,17,0,200,18,0,200,19,0,200,20,0,200,21,0,201,22,0,200,23,0,200,24,0,200,25,0,200,26,0,220,27,0,221,28,0,200,29,0,200,30,0,221,31,0,200,32,0,200,194,0,621,195,0,621,196,0,620,199,0,621*5A
$PAIRSAT,2,24,65,0,200,66,0,200,67,0,200,68,0,200,69,0,200,70,0,200,71,0,200,72,0,200,73,0,200,74,0,200,75,0,200,76,0,200,77,0,201,78,0,201,79,0,201,80,0,200,81,0,201,82,0,201,83,0,200,84,0,200,85,0,200,86,0,200,87,0,201,88,0,201*7B
$PAIRSAT,3,23,2,0,1200,3,0,1200,4,0,1200,5,0,200,7,0,1200,8,0,1200,9,0,1200,10,0,1200,11,0,1200,12,0,1200,13,0,1221,15,0,1220,19,0,1201,21,0,1221,24,0,1200,25,0,1200,26,0,1221,27,0,1221,30,0,1200,31,0,1200,33,0,1200,34,0,1000,36,0,1200*6B
$PAIRSAT,4,46,1,0,200,2,0,200,3,0,600,4,0,200,5,0,200,6,0,201,7,0,201,8,0,200,9,0,201,10,0,201,11,0,200,12,0,200,13,0,200,14,0,200,16,0,201,19,0,600,20,0,600,21,0,600,22,0,600,23,0,621,24,0,600,25,0,621,26,0,600,27,0,600,28,0,621,29,0,600,30,0,600,32,0,600,33,0,600,34,0,621,35,0,600,36,0,600,37,0,621,38,0,600,39,0,621,40,0,621,41,0,600,42,0,600,43,0,621,44,0,400,45,0,400,46,0,400,59,0,400,60,0,400,61,0,400,62,0,400*4A
$PAIRDGP,10,2,4,7,8,9,16,21,26,27,30*42
$GNGGA,041221.200,2500.7853794,N,12132.4478921,E,4,57,0.50,16.723,M,15.25,M,1,3335*41
$GNRMC,041221.200,A,2500.7853794,N,12132.4478921,E,0.01,317.03,090324,,,R,V*16
$GPHDT,4.961,T*3F
$GNACCURACY,3.6*13
$GNGGA,041221.300,2500.7853833,N,12132.4478939,E,4,56,0.50,16.724,M,15.25,M,1,3335*4D
$GNRMC,041221.300,A,2500.7853833,N,12132.4478939,E,0.00,317.03,090324,,,R,V*1D
$GPHDT,,T*1B
$GNACCURACY,3.6*13
$GNGGA,041221.400,2500.7853823,N,12132.4478961,E,4,57,0.48,16.721,M,15.25,M,1,3335*4B
$GNRMC,041221.400,A,2500.7853823,N,12132.4478961,E,0.00,317.03,090324,,,R,V*16
$GPHDT,4.437,T*31
$GNACCURACY,3.6*13
$GNGGA,041221.500,2500.7853826,N,12132.4478990,E,4,57,0.48,16.731,M,15.25,M,1,3335*40
$GNRMC,041221.500,A,2500.7853826,N,12132.4478990,E,0.01,317.03,090324,,,R,V*1D
$GPHDT,,T*1B
$GNACCURACY,3.6*13
$GNGGA,041221.600,2500.7853817,N,12132.4478968,E,4,56,0.49,16.731,M,15.25,M,0,3335*47
$GNRMC,041221.600,A,2500.7853817,N,12132.4478968,E,0.01,317.03,090324,,,R,V*1B
$GPHDT,4.240,T*37
$GNACCURACY,3.6*13
$GNGGA,041221.700,2500.7853854,N,12132.4479026,E,4,56,0.49,16.738,M,15.25,M,0,3335*4A
$GNRMC,041221.700,A,2500.7853854,N,12132.4479026,E,0.02,317.03,090324,,,R,V*1C
$GPHDT,,T*1B
$GNACCURACY,3.6*13
$GNGGA,041221.800,2500.7853849,N,12132.4479003,E,4,56,0.49,16.732,M,15.25,M,0,3335*44
$GNRMC,041221.800,A,2500.7853849,N,12132.4479003,E,0.02,317.03,090324,,,R,V*18
$GPHDT,4.267,T*32
$GNACCURACY,3.6*13
$GNGGA,041221.900,2500.7853859,N,12132.4479023,E,4,57,0.49,16.743,M,15.25,M,0,3335*41
$GNRMC,041221.900,A,2500.7853859,N,12132.4479023,E,0.01,317.03,090324,,,R,V*19
$GPHDT,,T*1B
$GNACCURACY,3.6*13
$GNGGA,041222.000,2500.7853858,N,12132.4479019,E,4,57,0.49,16.733,M,15.25,M,1,3335*45
$GNRMC,041222.000,A,2500.7853858,N,12132.4479019,E,0.01,317.03,090324,,,R,V*1B
$GPHDT,3.949,T*32
$GNACCURACY,3.6*13
$GNGGA,041222.100,2500.7853869,N,12132.4479019,E,4,57,0.49,16.740,M,15.25,M,1,3335*42
$GNRMC,041222.100,A,2500.7853869,N,12132.4479019,E,0.01,317.03,090324,,,R,V*18
$GPHDT,,T*1B
$GNGSA,A,3,195,194,21,08,199,02,07,27,09,196,04,30,0.74,0.49,0.56,1*07
$GNGSA,A,3,81,78,88,79,77,82,,,,,,,0.74,0.49,0.56,2*0D
$GNGSA,A,3,21,13,26,27,15,,,,,,,,0.74,0.49,0.56,3*0A
$GNGSA,A,3,23,09,06,16,40,07,43,28,39,10,25,37,0.74,0.49,0.56,4*06
$GNGSA,A,3,34,,,,,,,,,,,,0.74,0.49,0.56,4*0E
$GPGSV,4,1,15,195,65,113,41,194,64,053,32,21,61,154,41,08,61,357,42,1*6D
$GPGSV,4,2,15,199,60,167,37,50,60,167,40,02,50,176,46,07,43,316,37,1*57
$GPGSV,4,3,15,27,32,037,28,16,27,077,22,09,23,245,16,196,19,169,19,1*53
$GPGSV,4,4,15,04,17,202,23,30,12,320,33,26,07,100,14,1*55
$GPGSV,3,1,09,195,65,113,46,194,64,053,40,08,61,357,48,199,60,167,45,8*51
$GPGSV,3,2,09,27,32,037,38,196,19,169,25,04,17,202,26,30,12,320,36,8*53
$GPGSV,3,3,09,26,07,100,15,8*52
$GLGSV,2,1,07,81,67,202,42,78,57,040,41,88,54,030,35,79,27,335,36,1*71
$GLGSV,2,2,07,77,23,112,28,82,17,205,28,87,01,026,,1*4D
$GAGSV,2,1,07,21,55,013,40,13,54,078,32,26,45,172,40,27,28,081,19,7*74
$GAGSV,2,2,07,19,27,240,,15,13,038,18,33,05,199,,7*4F
$GAGSV,2,1,05,21,55,013,41,13,54,078,17,26,45,172,42,27,28,081,23,1*7D
$GAGSV,2,2,05,15,13,038,18,1*44
$GBGSV,4,1,13,23,74,035,39,09,73,264,32,06,70,214,40,16,67,199,44,1*76
$GBGSV,4,2,13,40,60,330,45,07,60,309,39,43,57,036,33,28,57,223,38,1*70
$GBGSV,4,3,13,39,57,187,42,10,51,290,31,25,36,119,47,37,31,322,44,1*72
$GBGSV,4,4,13,34,10,040,17,1*40
$GBGSV,2,1,08,23,74,035,44,40,60,330,44,39,57,187,42,43,57,036,38,4*75
$GBGSV,2,2,08,28,57,223,42,25,36,119,40,37,31,322,42,34,10,040,19,4*70
$GNACCURACY,3.6*13
$PAIRSAT,1,35,2,0,201,3,0,200,4,0,221,5,0,200,6,0,200,7,0,201,8,0,221,9,0,220,10,0,200,11,0,200,12,0,200,13,0,200,14,0,200,15,0,200,16,0,201,17,0,200,18,0,200,19,0,200,20,0,200,21,0,201,22,0,200,23,0,200,24,0,200,25,0,200,26,0,220,27,0,221,28,0,200,29,0,200,30,0,221,31,0,200,32,0,200,194,0,621,195,0,621,196,0,620,199,0,621*5A
$PAIRSAT,2,24,65,0,200,66,0,200,67,0,200,68,0,200,69,0,200,70,0,200,71,0,200,72,0,200,73,0,200,74,0,200,75,0,200,76,0,200,77,0,201,78,0,201,79,0,201,80,0,200,81,0,201,82,0,201,83,0,200,84,0,200,85,0,200,86,0,200,87,0,201,88,0,201*7B
$PAIRSAT,3,23,2,0,1200,3,0,1200,4,0,1200,5,0,200,7,0,1200,8,0,1200,9,0,1200,10,0,1200,11,0,1200,12,0,1200,13,0,1221,15,0,1220,19,0,1201,21,0,1221,24,0,1200,25,0,1200,26,0,1221,27,0,1221,30,0,1200,31,0,1200,33,0,1200,34,0,1000,36,0,1200*6B
$PAIRSAT,4,46,1,0,200,2,0,200,3,0,600,4,0,200,5,0,200,6,0,201,7,0,201,8,0,200,9,0,201,10,0,201,11,0,200,12,0,200,13,0,200,14,0,200,16,0,201,19,0,600,20,0,600,21,0,600,22,0,600,23,0,621,24,0,600,25,0,621,26,0,600,27,0,600,28,0,621,29,0,600,30,0,600,32,0,600,33,0,600,34,0,621,35,0,600,36,0,600,37,0,621,38,0,600,39,0,621,40,0,621,41,0,600,42,0,600,43,0,621,44,0,400,45,0,400,46,0,400,59,0,400,60,0,400,61,0,400,62,0,400*4A
$PAIRDGP,10,2,4,7,8,9,16,21,26,27,30*42
$GNGGA,041222.200,2500.7853879,N,12132.4479045,E,4,57,0.49,16.744,M,15.25,M,1,3335*4D
$GNRMC,041222.200,A,2500.7853879,N,12132.4479045,E,0.01,317.03,090324,,,R,V*13
$GPHDT,4.049,T*3C
$GNACCURACY,3.6*13
$GNGGA,041222.300,2500.7853866,N,12132.4479067,E,4,58,0.48,16.744,M,15.25,M,1,3335*4C
$GNRMC,041222.300,A,2500.7853866,N,12132.4479067,E,0.01,317.03,090324,,,R,V*1C
$GPHDT,,T*1B
$GNACCURACY,3.6*13
$GNGGA,041222.400,2500.7853879,N,12132.4479058,E,4,58,0.48,16.735,M,15.25,M,1,3335*4F
$GNRMC,041222.400,A,2500.7853879,N,12132.4479058,E,0.00,317.03,090324,,,R,V*18
$GPHDT,3.916,T*38
$GNACCURACY,3.6*13
$GNGGA,041222.500,2500.7853885,N,12132.4479053,E,4,58,0.48,16.737,M,15.25,M,1,3335*44
$GNRMC,041222.500,A,2500.7853885,N,12132.4479053,E,0.00,317.03,090324,,,R,V*11
$GPHDT,,T*1B
$GNACCURACY,3.6*13
$GNGGA,041222.600,2500.7853850,N,12132.4479031,E,4,58,0.48,16.724,M,15.25,M,0,3335*48
$GNRMC,041222.600,A,2500.7853850,N,12132.4479031,E,0.01,317.03,090324,,,R,V*1F
$GPHDT,3.983,T*34
$GNACCURACY,3.6*13
$GNGGA,041222.700,2500.7853844,N,12132.4479075,E,4,58,0.48,16.731,M,15.25,M,0,3335*48
$GNRMC,041222.700,A,2500.7853844,N,12132.4479075,E,0.01,317.03,090324,,,R,V*1B
$GPHDT,,T*1B
$GNACCURACY,3.6*13
$GNGGA,041222.800,2500.7853864,N,12132.4479034,E,4,58,0.48,16.730,M,15.25,M,0,3335*41
$GNRMC,041222.800,A,2500.7853864,N,12132.4479034,E,0.02,317.03,090324,,,R,V*10
$GPHDT,3.921,T*3C
$GNACCURACY,3.6*13
$GNGGA,041222.900,2500.7853839,N,12132.4479027,E,4,58,0.48,16.725,M,15.25,M,0,3335*4E
$GNRMC,041222.900,A,2500.7853839,N,12132.4479027,E,0.01,317.03,090324,,,R,V*18
$GPHDT,,T*1B
