$FW : RTK35X,V1.1X0314AS,Lib20210517,1*54
$Tool : LOCOSYS , GNSS Firebird , v1.0.0.19*39
$---------------------------------------------------*2D
$GNACCURACY,3.6*13
$GNGGA,041209.000,2500.7853803,N,12132.4479003,E,4,58,0.50,16.689,M,15.25,M,1,3335*4E
$GNRMC,041209.000,A,2500.7853803,N,12132.4479003,E,0.01,317.03,090324,,,R,V*17
$GPHDT,46.672,T*04
$GNACCURACY,3.6*13
$GNGGA,041209.100,2500.7853818,N,12132.4479027,E,4,58,0.50,16.698,M,15.25,M,1,3335*43
$GNRMC,041209.100,A,2500.7853818,N,12132.4479027,E,0.01,317.03,090324,,,R,V*1A
$GPHDT,,T*1B
$GNGSA,A,3,195,194,21,08,199,02,07,27,16,09,196,04,0.76,0.50,0.57,1*08
$GNGSA,A,3,30,,,,,,,,,,,,0.76,0.50,0.57,1*04
$GNGSA,A,3,81,78,88,79,77,,,,,,,,0.76,0.50,0.57,2*0C
$GNGSA,A,3,21,13,26,27,15,,,,,,,,0.76,0.50,0.57,3*01
$GNGSA,A,3,23,09,06,16,07,40,43,39,28,10,25,37,0.76,0.50,0.57,4*0D
$GNGSA,A,3,34,,,,,,,,,,,,0.76,0.50,0.57,4*05
$GPGSV,4,1,15,195,65,113,42,194,64,053,28,21,61,154,41,08,61,357,43,1*64
$GPGSV,4,2,15,199,60,167,38,50,60,167,42,02,50,176,45,07,42,316,45,1*5D
$GPGSV,4,3,15,27,32,037,37,16,27,077,32,09,23,245,19,196,19,169,25,1*5C
$GPGSV,4,4,15,04,17,202,20,30,12,320,25,26,07,100,21,1*57
$GPGSV,3,1,10,195,65,113,47,194,64,053,40,08,61,357,47,199,60,167,47,8*55
$GPGSV,3,2,10,27,32,037,37,09,23,245,13,196,19,169,23,04,17,202,28,8*51
$GPGSV,3,3,10,30,12,320,40,26,07,100,20,8*69
$GLGSV,2,1,07,81,66,202,44,78,57,040,41,88,54,030,39,79,27,335,32,1*7E
$GLGSV,2,2,07,77,23,112,30,82,17,205,32,87,01,026,,1*4F
$GAGSV,2,1,06,21,55,013,40,13,54,078,27,26,45,172,41,27,28,081,25,7*7F
$GAGSV,2,2,06,19,27,240,,15,13,038,17,7*75
$GAGSV,2,1,05,21,55,013,43,13,54,078,27,26,45,172,37,27,28,081,26,1*7B
$GAGSV,2,2,05,15,13,038,22,1*4D
$GBGSV,4,1,13,23,74,035,42,09,73,264,37,06,71,214,42,16,67,199,43,1*7B
$GBGSV,4,2,13,07,60,309,40,40,60,329,45,43,57,036,37,39,57,187,43,1*73
$GBGSV,4,3,13,28,57,223,41,10,51,290,33,25,36,119,47,37,31,322,45,1*7F
$GBGSV,4,4,13,34,10,040,19,1*4E
$GBGSV,2,1,08,23,74,035,45,40,60,329,41,39,57,187,42,43,57,036,40,4*76
$GBGSV,2,2,08,28,57,223,41,25,36,119,44,37,31,322,44,34,10,040,25,4*7E
$GNACCURACY,3.6*13
$PAIRSAT,1,35,2,0,201,3,0,200,4,0,221,5,0,200,6,0,200,7,0,201,8,0,221,9,0,220,10,0,200,11,0,200,12,0,200,13,0,200,14,0,200,15,0,200,16,0,201,17,0,200,18,0,200,19,0,200,20,0,200,21,0,201,22,0,200,23,0,200,24,0,200,25,0,200,26,0,220,27,0,221,28,0,200,29,0,200,30,0,221,31,0,200,32,0,200,194,0,621,195,0,621,196,0,620,199,0,621*5A
$PAIRSAT,2,24,65,0,200,66,0,200,67,0,200,68,0,200,69,0,200,70,0,200,71,0,200,72,0,200,73,0,200,74,0,200,75,0,200,76,0,200,77,0,201,78,0,201,79,0,201,80,0,200,81,0,201,82,0,200,83,0,200,84,0,200,85,0,200,86,0,200,87,0,201,88,0,201*7A
$PAIRSAT,3,23,2,0,1200,3,0,1200,4,0,1200,5,0,200,7,0,1200,8,0,1200,9,0,1200,10,0,1200,11,0,1200,12,0,1200,13,0,1221,15,0,1220,19,0,1201,21,0,1221,24,0,1200,25,0,1200,26,0,1221,27,0,1221,30,0,1200,31,0,1200,33,0,1200,34,0,1000,36,0,1200*6B
$PAIRSAT,4,46,1,0,200,2,0,200,3,0,600,4,0,200,5,0,200,6,0,201,7,0,201,8,0,200,9,0,201,10,0,201,11,0,200,12,0,200,13,0,200,14,0,200,16,0,201,19,0,600,20,0,600,21,0,600,22,0,600,23,0,621,24,0,600,25,0,621,26,0,600,27,0,600,28,0,621,29,0,600,30,0,600,32,0,600,33,0,600,34,0,621,35,0,600,36,0,600,37,0,621,38,0,600,39,0,621,40,0,621,41,0,600,42,0,600,43,0,621,44,0,400,45,0,400,46,0,400,59,0,400,60,0,400,61,0,400,62,0,400*4A
$PAIRDGP,10,2,4,7,8,9,16,21,26,27,30*42
$GNGGA,041209.200,2500.7853818,N,12132.4479025,E,4,57,0.50,16.692,M,15.25,M,1,3335*47
$GNRMC,041209.200,A,2500.7853818,N,12132.4479025,E,0.01,317.03,090324,,,R,V*1B
$GPHDT,46.919,T*06
$GNACCURACY,3.6*13
$GNGGA,041209.300,2500.7853810,N,12132.4479001,E,4,57,0.50,16.677,M,15.25,M,1,3335*43
$GNRMC,041209.300,A,2500.7853810,N,12132.4479001,E,0.01,317.03,090324,,,R,V*14
$GPHDT,,T*1B
$GNACCURACY,3.6*13
$GNGGA,041209.400,2500.7853822,N,12132.4479007,E,4,57,0.50,16.687,M,15.25,M,1,3335*4C
$GNRMC,041209.400,A,2500.7853822,N,12132.4479007,E,0.01,317.03,090324,,,R,V*14
$GPHDT,47.157,T*05
$GNACCURACY,3.6*13
$GNGGA,041209.500,2500.7853815,N,12132.4479007,E,4,57,0.50,16.691,M,15.25,M,0,3335*4F
$GNRMC,041209.500,A,2500.7853815,N,12132.4479007,E,0.01,317.03,090324,,,R,V*11
$GPHDT,,T*1B
$GNACCURACY,3.6*13
$GNGGA,041209.600,2500.7853818,N,12132.4479000,E,4,57,0.50,16.697,M,15.25,M,0,3335*40
$GNRMC,041209.600,A,2500.7853818,N,12132.4479000,E,0.01,317.03,090324,,,R,V*18
$GPHDT,46.617,T*07
$GNACCURACY,3.6*13
$GNGGA,041209.700,2500.7853818,N,12132.4478990,E,4,57,0.50,16.691,M,15.25,M,0,3335*46
$GNRMC,041209.700,A,2500.7853818,N,12132.4478990,E,0.01,317.03,090324,,,R,V*18
$GPHDT,,T*1B
$GNACCURACY,3.6*13
$GNGGA,041209.800,2500.7853822,N,12132.4479024,E,4,58,0.48,16.697,M,15.25,M,0,3335*47
$GNRMC,041209.800,A,2500.7853822,N,12132.4479024,E,0.00,317.03,090324,,,R,V*18
$GPHDT,46.829,T*04
$GNACCURACY,3.6*13
$GNGGA,041209.900,2500.7853820,N,12132.4479009,E,4,58,0.48,16.701,M,15.25,M,0,3335*45
$GNRMC,041209.900,A,2500.7853820,N,12132.4479009,E,0.01,317.03,090324,,,R,V*15
$GPHDT,,T*1B
$GNACCURACY,3.6*13
$GNGGA,041210.000,2500.7853820,N,12132.4479012,E,4,58,0.48,16.695,M,15.25,M,1,3335*43
$GNRMC,041210.000,A,2500.7853820,N,12132.4479012,E,0.00,317.03,090324,,,R,V*1F
$GPHDT,47.060,T*00
$GNACCURACY,3.6*13
$GNGGA,041210.100,2500.7853809,N,12132.4478986,E,4,58,0.48,16.691,M,15.25,M,1,3335*48
$GNRMC,041210.100,A,2500.7853809,N,12132.4478986,E,0.00,317.03,090324,,,R,V*10
$GPHDT,,T*1B
$GNGSA,A,3,195,194,21,08,199,02,07,27,16,09,196,04,0.73,0.48,0.55,1*06
$GNGSA,A,3,30,,,,,,,,,,,,0.73,0.48,0.55,1*0A
$GNGSA,A,3,81,78,88,79,77,82,,,,,,,0.73,0.48,0.55,2*08
$GNGSA,A,3,21,13,26,27,15,,,,,,,,0.73,0.48,0.55,3*0F
$GNGSA,A,3,23,09,06,16,40,07,43,28,39,10,25,37,0.73,0.48,0.55,4*03
$GNGSA,A,3,34,,,,,,,,,,,,0.73,0.48,0.55,4*0B
$GPGSV,4,1,15,195,65,113,42,194,64,053,27,21,61,154,42,08,61,357,43,1*68
$GPGSV,4,2,15,199,60,167,38,50,60,167,42,02,50,176,45,07,42,316,45,1*5D
$GPGSV,4,3,15,27,32,037,37,16,27,077,32,09,23,245,19,196,19,169,21,1*58
$GPGSV,4,4,15,04,17,202,19,30,12,320,25,26,07,100,21,1*5D
$GPGSV,3,1,09,195,65,113,47,194,64,053,40,08,61,357,47,199,60,167,47,8*5D
$GPGSV,3,2,09,27,32,037,37,196,19,169,23,04,17,202,26,30,12,320,40,8*5B
$GPGSV,3,3,09,26,07,100,20,8*54
$GLGSV,2,1,07,81,67,202,44,78,57,040,40,88,54,030,39,79,27,335,29,1*74
$GLGSV,2,2,07,77,23,112,30,82,17,205,32,87,01,026,,1*4F
$GAGSV,2,1,07,21,55,013,40,13,54,078,24,26,45,172,41,27,28,081,22,7*7A
$GAGSV,2,2,07,19,27,240,,15,13,038,16,04,12,298,,7*41
$GAGSV,2,1,05,21,55,013,43,13,54,078,25,26,45,172,37,27,28,081,25,1*7A
$GAGSV,2,2,05,15,13,038,20,1*4F
$GBGSV,4,1,13,23,74,035,42,09,73,264,37,06,71,214,41,16,67,199,43,1*78
$GBGSV,4,2,13,40,60,329,45,07,60,309,40,43,57,036,37,28,57,223,41,1*7C
$GBGSV,4,3,13,39,57,187,44,10,51,290,33,25,36,119,47,37,31,322,43,1*71
$GBGSV,4,4,13,34,10,040,19,1*4E
$GBGSV,2,1,08,23,74,035,45,40,60,329,40,39,57,187,41,43,57,036,40,4*74
$GBGSV,2,2,08,28,57,223,41,25,36,119,44,37,31,322,42,34,10,040,22,4*7F
$GNACCURACY,3.6*13
$PAIRSAT,1,35,2,0,201,3,0,200,4,0,221,5,0,200,6,0,200,7,0,201,8,0,221,9,0,220,10,0,200,11,0,200,12,0,200,13,0,200,14,0,200,15,0,200,16,0,201,17,0,200,18,0,200,19,0,200,20,0,200,21,0,201,22,0,200,23,0,200,24,0,200,25,0,200,26,0,220,27,0,221,28,0,200,29,0,200,30,0,221,31,0,200,32,0,200,194,0,621,195,0,621,196,0,620,199,0,621*5A
$PAIRSAT,2,24,65,0,200,66,0,200,67,0,200,68,0,200,69,0,200,70,0,200,71,0,200,72,0,200,73,0,200,74,0,200,75,0,200,76,0,200,77,0,201,78,0,201,79,0,201,80,0,200,81,0,201,82,0,201,83,0,200,84,0,200,85,0,200,86,0,200,87,0,201,88,0,201*7B
$PAIRSAT,3,23,2,0,1200,3,0,1200,4,0,1200,5,0,200,7,0,1200,8,0,1200,9,0,1200,10,0,1200,11,0,1200,12,0,1200,13,0,1221,15,0,1220,19,0,1201,21,0,1221,24,0,1200,25,0,1200,26,0,1221,27,0,1221,30,0,1200,31,0,1200,33,0,1200,34,0,1000,36,0,1200*6B
$PAIRSAT,4,46,1,0,200,2,0,200,3,0,600,4,0,200,5,0,200,6,0,201,7,0,201,8,0,200,9,0,201,10,0,201,11,0,200,12,0,200,13,0,200,14,0,200,16,0,201,19,0,600,20,0,600,21,0,600,22,0,600,23,0,621,24,0,600,25,0,621,26,0,600,27,0,600,28,0,621,29,0,600,30,0,600,32,0,600,33,0,600,34,0,621,35,0,600,36,0,600,37,0,621,38,0,600,39,0,621,40,0,621,41,0,600,42,0,600,43,0,621,44,0,400,45,0,400,46,0,400,59,0,400,60,0,400,61,0,400,62,0,400*4A
$PAIRDGP,10,2,4,7,8,9,16,21,26,27,30*42
$GNGGA,041210.200,2500.7853830,N,12132.4479023,E,4,58,0.48,16.705,M,15.25,M,1,3335*4A
$GNRMC,041210.200,A,2500.7853830,N,12132.4479023,E,0.01,317.03,090324,,,R,V*1F
$GPHDT,47.261,T*03
$GNACCURACY,3.6*13
$GNGGA,041210.300,2500.7853833,N,12132.4479031,E,4,58,0.48,16.703,M,15.25,M,1,3335*4D
$GNRMC,041210.300,A,2500.7853833,N,12132.4479031,E,0.00,317.03,090324,,,R,V*1F
$GPHDT,,T*1B
$GNACCURACY,3.6*13
$GNGGA,041210.400,2500.7853822,N,12132.4479023,E,4,58,0.48,16.693,M,15.25,M,1,3335*41
$GNRMC,041210.400,A,2500.7853822,N,12132.4479023,E,0.00,317.03,090324,,,R,V*1B
$GPHDT,47.486,T*0C
$GNACCURACY,3.6*13
$GNGGA,041210.500,2500.7853818,N,12132.4479024,E,4,58,0.48,16.701,M,15.25,M,1,3335*44
$GNRMC,041210.500,A,2500.7853818,N,12132.4479024,E,0.01,317.03,090324,,,R,V*15
$GPHDT,,T*1B
$GNACCURACY,3.6*13
$GNGGA,041210.600,2500.7853821,N,12132.4479044,E,4,57,0.50,16.705,M,15.25,M,1,3335*49
$GNRMC,041210.600,A,2500.7853821,N,12132.4479044,E,0.01,317.03,090324,,,R,V*1A
$GPHDT,47.428,T*08
$GNACCURACY,3.6*13
$GNGGA,041210.700,2500.7853830,N,12132.4479018,E,4,58,0.48,16.692,M,15.25,M,0,3335*49
$GNRMC,041210.700,A,2500.7853830,N,12132.4479018,E,0.01,317.03,090324,,,R,V*12
$GPHDT,,T*1B
$GNACCURACY,3.6*13
$GNGGA,041210.800,2500.7853819,N,12132.4479022,E,4,57,0.50,16.694,M,15.25,M,0,3335*44
$GNRMC,041210.800,A,2500.7853819,N,12132.4479022,E,0.01,317.03,090324,,,R,V*1F
$GPHDT,47.254,T*05
$GNACCURACY,3.6*13
$GNGGA,041210.900,2500.7853830,N,12132.4479039,E,4,57,0.50,16.698,M,15.25,M,0,3335*48
$GNRMC,041210.900,A,2500.7853830,N,12132.4479039,E,0.00,317.03,090324,,,R,V*1E
$GPHDT,,T*1B
$GNACCURACY,3.6*13
$GNGGA,041211.000,2500.7853826,N,12132.4479022,E,4,57,0.50,16.698,M,15.25,M,1,3335*4C
$GNRMC,041211.000,A,2500.7853826,N,12132.4479022,E,0.02,317.03,090324,,,R,V*19
$GPHDT,47.418,T*0B
$GNACCURACY,3.6*13
$GNGGA,041211.100,2500.7853826,N,12132.4479042,E,4,57,0.50,16.686,M,15.25,M,1,3335*44
$GNRMC,041211.100,A,2500.7853826,N,12132.4479042,E,0.01,317.03,090324,,,R,V*1D
$GPHDT,,T*1B
$GNGSA,A,3,195,194,21,08,199,02,07,27,16,196,04,30,0.76,0.50,0.57,1*02
$GNGSA,A,3,81,78,88,79,77,82,,,,,,,0.76,0.50,0.57,2*06
$GNGSA,A,3,21,13,26,27,15,,,,,,,,0.76,0.50,0.57,3*01
$GNGSA,A,3,23,09,06,16,40,07,43,28,39,10,25,37,0.76,0.50,0.57,4*0D
$GNGSA,A,3,34,,,,,,,,,,,,0.76,0.50,0.57,4*05
$GPGSV,4,1,15,195,65,113,42,194,64,053,27,21,61,154,42,08,61,357,43,1*68
$GPGSV,4,2,15,199,60,167,38,50,60,167,42,02,50,176,45,07,42,316,44,1*5C
$GPGSV,4,3,15,27,32,037,37,16,27,077,31,09,23,245,18,196,19,169,20,1*5B
$GPGSV,4,4,15,04,17,202,19,30,12,320,25,26,07,100,20,1*5C
$GPGSV,3,1,09,195,65,113,47,194,64,053,41,08,61,357,47,199,60,167,47,8*5C
$GPGSV,3,2,09,27,32,037,37,196,19,169,23,04,17,202,26,30,12,320,40,8*5B
$GPGSV,3,3,09,26,07,100,20,8*54
$GLGSV,2,1,07,81,67,202,44,78,57,040,39,88,54,030,39,79,27,335,29,1*7A
$GLGSV,2,2,07,77,23,112,30,82,17,205,32,87,01,026,,1*4F
$GAGSV,2,1,07,21,55,013,41,13,54,078,24,26,45,172,41,27,28,081,21,7*78
$GAGSV,2,2,07,19,27,240,,15,13,038,16,04,12,298,,7*41
$GAGSV,2,1,05,21,55,013,43,13,54,078,24,26,45,172,36,27,28,081,26,1*79
$GAGSV,2,2,05,15,13,038,20,1*4F
$GBGSV,4,1,13,23,74,035,42,09,73,264,37,06,71,214,41,16,67,199,44,1*7F
$GBGSV,4,2,13,40,60,329,45,07,60,309,40,43,57,036,36,28,57,223,41,1*7D
$GBGSV,4,3,13,39,57,187,44,10,51,290,33,25,36,119,47,37,31,322,43,1*71
$GBGSV,4,4,13,34,10,040,18,1*4F
$GBGSV,2,1,08,23,74,035,45,40,60,329,40,39,57,187,41,43,57,036,40,4*74
$GBGSV,2,2,08,28,57,223,41,25,36,119,44,37,31,322,42,34,10,040,23,4*7E
$GNACCURACY,3.6*13
$PAIRSAT,1,35,2,0,201,3,0,200,4,0,221,5,0,200,6,0,200,7,0,201,8,0,221,9,0,220,10,0,200,11,0,200,12,0,200,13,0,200,14,0,200,15,0,200,16,0,201,17,0,200,18,0,200,19,0,200,20,0,200,21,0,201,22,0,200,23,0,200,24,0,200,25,0,200,26,0,220,27,0,221,28,0,200,29,0,200,30,0,221,31,0,200,32,0,200,194,0,621,195,0,621,196,0,620,199,0,621*5A
$PAIRSAT,2,24,65,0,200,66,0,200,67,0,200,68,0,200,69,0,200,70,0,200,71,0,200,72,0,200,73,0,200,74,0,200,75,0,200,76,0,200,77,0,201,78,0,201,79,0,201,80,0,200,81,0,201,82,0,201,83,0,200,84,0,200,85,0,200,86,0,200,87,0,201,88,0,201*7B
$PAIRSAT,3,23,2,0,1200,3,0,1200,4,0,1200,5,0,200,7,0,1200,8,0,1200,9,0,1200,10,0,1200,11,0,1200,12,0,1200,13,0,1221,15,0,1220,19,0,1201,21,0,1221,24,0,1200,25,0,1200,26,0,1221,27,0,1221,30,0,1200,31,0,1200,33,0,1200,34,0,1000,36,0,1200*6B
$PAIRSAT,4,46,1,0,200,2,0,200,3,0,600,4,0,200,5,0,200,6,0,201,7,0,201,8,0,200,9,0,201,10,0,201,11,0,200,12,0,200,13,0,200,14,0,200,16,0,201,19,0,600,20,0,600,21,0,600,22,0,600,23,0,621,24,0,600,25,0,621,26,0,600,27,0,600,28,0,621,29,0,600,30,0,600,32,0,600,33,0,600,34,0,621,35,0,600,36,0,600,37,0,621,38,0,600,39,0,621,40,0,621,41,0,600,42,0,600,43,0,621,44,0,400,45,0,400,46,0,400,59,0,400,60,0,400,61,0,400,62,0,400*4A
$PAIRDGP,10,2,4,7,8,9,16,21,26,27,30*42
$GNGGA,041211.200,2500.7853835,N,12132.4479020,E,4,57,0.50,16.690,M,15.25,M,1,3335*46
$GNRMC,041211.200,A,2500.7853835,N,12132.4479020,E,0.01,317.03,090324,,,R,V*18
$GPHDT,47.465,T*01
$GNACCURACY,3.6*13
$GNGGA,041211.300,2500.7853849,N,12132.4479052,E,4,57,0.49,16.707,M,15.25,M,1,3335*4E
$GNRMC,041211.300,A,2500.7853849,N,12132.4479052,E,0.01,317.03,090324,,,R,V*17
$GPHDT,,T*1B
$GNACCURACY,3.6*13
$GNGGA,041211.400,2500.7853835,N,12132.4479030,E,4,57,0.49,16.703,M,15.25,M,1,3335*42
$GNRMC,041211.400,A,2500.7853835,N,12132.4479030,E,0.01,317.03,090324,,,R,V*1F
$GPHDT,47.577,T*03
$GNACCURACY,3.6*13
$GNGGA,041211.500,2500.7853834,N,12132.4479029,E,4,57,0.49,16.699,M,15.25,M,1,3335*48
$GNRMC,041211.500,A,2500.7853834,N,12132.4479029,E,0.01,317.03,090324,,,R,V*17
$GPHDT,,T*1B
$GNACCURACY,3.6*13
$GNGGA,041211.600,2500.7853829,N,12132.4479018,E,4,57,0.49,16.695,M,15.25,M,1,3335*49
$GNRMC,041211.600,A,2500.7853829,N,12132.4479018,E,0.01,317.03,090324,,,R,V*1A
$GPHDT,47.593,T*09
$GNACCURACY,3.6*13
$GNGGA,041211.700,2500.7853838,N,12132.4479047,E,4,58,0.48,16.704,M,15.25,M,0,3335*44
$GNRMC,041211.700,A,2500.7853838,N,12132.4479047,E,0.00,317.03,090324,,,R,V*10
$GPHDT,,T*1B
$GNACCURACY,3.6*13
$GNGGA,041211.800,2500.7853822,N,12132.4479044,E,4,58,0.48,16.704,M,15.25,M,0,3335*43
$GNRMC,041211.800,A,2500.7853822,N,12132.4479044,E,0.00,317.03,090324,,,R,V*17
$GPHDT,47.486,T*0C
$GNACCURACY,3.6*13
$GNGGA,041211.900,2500.7853835,N,12132.4479014,E,4,58,0.48,16.698,M,15.25,M,0,3335*45
$GNRMC,041211.900,A,2500.7853835,N,12132.4479014,E,0.00,317.03,090324,,,R,V*15
$GPHDT,,T*1B
$GNACCURACY,3.6*13
$GNGGA,041212.000,2500.7853830,N,12132.4479032,E,4,58,0.48,16.701,M,15.25,M,1,3335*4E
$GNRMC,041212.000,A,2500.7853830,N,12132.4479032,E,0.01,317.03,090324,,,R,V*1F
$GPHDT,47.468,T*0C
$GNACCURACY,3.6*13
$GNGGA,041212.100,2500.7853830,N,12132.4479023,E,4,58,0.48,16.700,M,15.25,M,1,3335*4E
$GNRMC,041212.100,A,2500.7853830,N,12132.4479023,E,0.01,317.03,090324,,,R,V*1E
$GPHDT,,T*1B
$GNGSA,A,3,195,194,21,08,199,02,07,27,16,09,196,04,0.73,0.48,0.55,1*06
$GNGSA,A,3,30,,,,,,,,,,,,0.73,0.48,0.55,1*0A
$GNGSA,A,3,81,78,88,79,77,82,,,,,,,0.73,0.48,0.55,2*08
$GNGSA,A,3,21,13,26,27,15,,,,,,,,0.73,0.48,0.55,3*0F
$GNGSA,A,3,23,09,06,16,40,07,43,28,39,10,25,37,0.73,0.48,0.55,4*03
$GNGSA,A,3,34,,,,,,,,,,,,0.73,0.48,0.55,4*0B
$GPGSV,4,1,15,195,65,113,42,194,64,053,25,21,61,154,42,08,61,357,43,1*6A
$GPGSV,4,2,15,199,60,167,38,50,60,167,42,02,50,176,45,07,42,316,44,1*5C
$GPGSV,4,3,15,27,32,037,37,16,27,077,29,09,23,245,18,196,19,169,21,1*53
$GPGSV,4,4,15,04,17,202,19,30,12,320,25,26,07,100,19,1*56
$GPGSV,3,1,09,195,65,113,47,194,64,053,42,08,61,357,48,199,60,167,48,8*5F
$GPGSV,3,2,09,27,32,037,37,196,19,169,23,04,17,202,26,30,12,320,40,8*5B
$GPGSV,3,3,09,26,07,100,20,8*54
$GLGSV,2,1,07,81,67,202,44,78,57,040,39,88,54,030,39,79,27,335,28,1*7B
$GLGSV,2,2,07,77,23,112,30,82,17,205,32,87,01,026,,1*4F
$GAGSV,2,1,07,21,55,013,41,13,54,078,22,26,45,172,41,27,28,081,24,7*7B
$GAGSV,2,2,07,19,27,240,,15,13,038,17,04,12,298,,7*40
$GAGSV,2,1,05,21,55,013,43,13,54,078,29,26,45,172,38,27,28,081,27,1*7B
$GAGSV,2,2,05,15,13,038,21,1*4E
$GBGSV,4,1,13,23,74,035,42,09,73,264,36,06,70,214,41,16,67,199,44,1*7F
$GBGSV,4,2,13,40,60,329,45,07,60,309,40,43,57,036,37,28,57,223,40,1*7D
$GBGSV,4,3,13,39,57,187,44,10,51,290,33,25,36,119,47,37,31,322,43,1*71
$GBGSV,4,4,13,34,10,040,18,1*4F
$GBGSV,2,1,08,23,74,035,45,40,60,329,40,39,57,187,41,43,57,036,40,4*74
$GBGSV,2,2,08,28,57,223,41,25,36,119,44,37,31,322,42,34,10,040,23,4*7E
$GNACCURACY,3.6*13
$PAIRSAT,1,35,2,0,201,3,0,200,4,0,221,5,0,200,6,0,200,7,0,201,8,0,221,9,0,220,10,0,200,11,0,200,12,0,200,13,0,200,14,0,200,15,0,200,16,0,201,17,0,200,18,0,200,19,0,200,20,0,200,21,0,201,22,0,200,23,0,200,24,0,200,25,0,200,26,0,220,27,0,221,28,0,200,29,0,200,30,0,221,31,0,200,32,0,200,194,0,621,195,0,621,196,0,620,199,0,621*5A
$PAIRSAT,2,24,65,0,200,66,0,200,67,0,200,68,0,200,69,0,200,70,0,200,71,0,200,72,0,200,73,0,200,74,0,200,75,0,200,76,0,200,77,0,201,78,0,201,79,0,201,80,0,200,81,0,201,82,0,201,83,0,200,84,0,200,85,0,200,86,0,200,87,0,201,88,0,201*7B
$PAIRSAT,3,23,2,0,1200,3,0,1200,4,0,1200,5,0,200,7,0,1200,8,0,1200,9,0,1200,10,0,1200,11,0,1200,12,0,1200,13,0,1221,15,0,1220,19,0,1201,21,0,1221,24,0,1200,25,0,1200,26,0,1221,27,0,1221,30,0,1200,31,0,1200,33,0,1200,34,0,1000,36,0,1200*6B
$PAIRSAT,4,46,1,0,200,2,0,200,3,0,600,4,0,200,5,0,200,6,0,201,7,0,201,8,0,200,9,0,201,10,0,201,11,0,200,12,0,200,13,0,200,14,0,200,16,0,201,19,0,600,20,0,600,21,0,600,22,0,600,23,0,621,24,0,600,25,0,621,26,0,600,27,0,600,28,0,621,29,0,600,30,0,600,32,0,600,33,0,600,34,0,621,35,0,600,36,0,600,37,0,621,38,0,600,39,0,621,40,0,621,41,0,600,42,0,600,43,0,621,44,0,400,45,0,400,46,0,400,59,0,400,60,0,400,61,0,400,62,0,400*4A
$PAIRDGP,10,2,4,7,8,9,16,21,26,27,30*42
$GNGGA,041212.200,2500.7853831,N,12132.4479028,E,4,58,0.48,16.700,M,15.25,M,1,3335*47
$GNRMC,041212.200,A,2500.7853831,N,12132.4479028,E,0.00,317.03,090324,,,R,V*16
$GPHDT,47.857,T*0C
$GNACCURACY,3.6*13
$GNGGA,041212.300,2500.7853823,N,12132.4479032,E,4,58,0.48,16.698,M,15.25,M,1,3335*4E
$GNRMC,041212.300,A,2500.7853823,N,12132.4479032,E,0.00,317.03,090324,,,R,V*1F
$GPHDT,,T*1B
$GNACCURACY,3.6*13
$GNGGA,041212.400,2500.7853833,N,12132.4479039,E,4,58,0.48,16.712,M,15.25,M,1,3335*40
$GNRMC,041212.400,A,2500.7853833,N,12132.4479039,E,0.01,317.03,090324,,,R,V*13
$GPHDT,48.013,T*0B
$GNACCURACY,3.6*13
$GNGGA,041212.500,2500.7853813,N,12132.4479010,E,4,58,0.48,16.679,M,15.25,M,1,3335*44
$GNRMC,041212.500,A,2500.7853813,N,12132.4479010,E,0.01,317.03,090324,,,R,V*1B
$GPHDT,,T*1B
$GNACCURACY,3.6*13
$GNGGA,041212.600,2500.7853819,N,12132.4479028,E,4,57,0.50,16.696,M,15.25,M,1,3335*41
$GNRMC,041212.600,A,2500.7853819,N,12132.4479028,E,0.01,317.03,090324,,,R,V*19
$GPHDT,48.542,T*0A
$GNACCURACY,3.6*13
$GNGGA,041212.700,2500.7853822,N,12132.4479015,E,4,58,0.48,16.690,M,15.25,M,0,3335*47
$GNRMC,041212.700,A,2500.7853822,N,12132.4479015,E,0.00,317.03,090324,,,R,V*1F
$GPHDT,,T*1B
$GNACCURACY,3.6*13
$GNGGA,041212.800,2500.7853825,N,12132.4479017,E,4,58,0.48,16.691,M,15.25,M,0,3335*4C
$GNRMC,041212.800,A,2500.7853825,N,12132.4479017,E,0.01,317.03,090324,,,R,V*14
$GPHDT,48.328,T*00
$GNACCURACY,3.6*13
$GNGGA,041212.900,2500.7853838,N,12132.4479018,E,4,58,0.48,16.695,M,15.25,M,0,3335*4A
$GNRMC,041212.900,A,2500.7853838,N,12132.4479018,E,0.01,317.03,090324,,,R,V*16
$GPHDT,,T*1B
$GNACCURACY,3.6*13
$GNGGA,041213.000,2500.7853811,N,12132.4479030,E,4,58,0.48,16.698,M,15.25,M,1,3335*4F
$GNRMC,041213.000,A,2500.7853811,N,12132.4479030,E,0.01,3