$FW : RTK35X,V1.1X0314AS,Lib20210517,1*54
$Tool : LOCOSYS , GNSS Firebird , v1.0.0.19*39
$---------------------------------------------------*2D
$GNACCURACY,3.7*12
$GNGGA,041421.000,2500.7893296,N,12132.4438213,E,4,52,0.53,16.741,M,15.25,M,1,3335*42
$GNRMC,041421.000,A,2500.7893296,N,12132.4438213,E,0.00,317.96,090324,,,R,V*1A
$GPHDT,280.183,T*35
$GNACCURACY,3.7*12
$GNGGA,041421.100,2500.7893299,N,12132.4438233,E,4,52,0.53,16.739,M,15.25,M,1,3335*41
$GNRMC,041421.100,A,2500.7893299,N,12132.4438233,E,0.00,317.96,090324,,,R,V*16
$GPHDT,,T*1B
$GNGSA,A,3,195,194,21,08,199,02,07,27,16,196,04,30,0.87,0.51,0.70,1*08
$GNGSA,A,3,81,78,88,79,82,,,,,,,,0.87,0.51,0.70,2*0C
$GNGSA,A,3,21,13,26,27,15,,,,,,,,0.87,0.51,0.70,3*0B
$GNGSA,A,3,23,09,06,16,07,40,28,43,39,10,25,37,0.87,0.51,0.70,4*07
$GNGSA,A,3,34,,,,,,,,,,,,0.87,0.51,0.70,4*0F
$GPGSV,4,1,15,195,65,113,42,194,64,053,42,21,62,153,40,08,61,359,43,1*63
$GPGSV,4,2,15,199,60,167,31,50,60,167,34,02,51,176,28,07,43,315,34,1*5B
$GPGSV,4,3,15,27,31,037,44,16,26,078,33,09,22,244,19,196,19,169,18,1*5A
$GPGSV,4,4,15,04,16,201,33,30,13,320,17,26,07,101,18,1*5C
$GPGSV,2,1,08,195,65,113,39,194,64,053,44,08,61,359,46,199,60,167,37,8*58
$GPGSV,2,2,08,27,31,037,45,196,19,169,19,04,16,201,32,30,13,320,21,8*55
$GLGSV,2,1,06,81,68,204,41,78,58,043,44,88,52,030,43,79,28,335,42,1*78
$GLGSV,2,2,06,77,22,113,17,82,18,205,27,1*7A
$GAGSV,2,1,07,21,55,015,42,13,54,077,41,26,46,172,28,27,28,081,22,7*7E
$GAGSV,2,2,07,19,26,239,,15,12,038,,04,12,297,17,7*41
$GAGSV,2,1,05,21,55,015,44,13,54,077,42,26,46,172,35,27,28,081,31,1*71
$GAGSV,2,2,05,15,12,038,24,1*4A
$GBGSV,4,1,13,23,75,038,45,09,72,262,41,06,70,214,40,16,67,199,42,1*74
$GBGSV,4,2,13,07,60,310,38,40,60,330,42,28,58,224,42,43,56,036,46,1*78
$GBGSV,4,3,13,39,56,188,27,10,51,291,23,25,36,120,31,37,32,322,39,1*7F
$GBGSV,4,4,13,34,10,040,22,1*46
$GBGSV,2,1,08,23,75,038,45,40,60,330,42,28,58,224,42,43,56,036,44,4*71
$GBGSV,2,2,08,39,56,188,31,25,36,120,29,37,32,322,37,34,10,040,28,4*71
$GNACCURACY,3.7*12
$PAIRSAT,1,35,2,0,201,3,0,200,4,0,221,5,0,200,6,0,200,7,0,201,8,0,221,9,0,220,10,0,200,11,0,200,12,0,200,13,0,200,14,0,200,15,0,200,16,0,201,17,0,200,18,0,200,19,0,200,20,0,200,21,0,201,22,0,200,23,0,200,24,0,200,25,0,200,26,0,220,27,0,221,28,0,200,29,0,200,30,0,221,31,0,200,32,0,200,194,0,621,195,0,621,196,0,620,199,0,621*5A
$PAIRSAT,2,24,65,0,200,66,0,200,67,0,200,68,0,200,69,0,200,70,0,200,71,0,200,72,0,200,73,0,200,74,0,200,75,0,200,76,0,200,77,0,201,78,0,201,79,0,201,80,0,200,81,0,201,82,0,201,83,0,200,84,0,200,85,0,200,86,0,200,87,0,201,88,0,201*7B
$PAIRSAT,3,23,2,0,1200,3,0,1200,4,0,1200,5,0,200,7,0,1200,8,0,1200,9,0,1200,10,0,1200,11,0,1200,12,0,1200,13,0,1221,15,0,1220,19,0,1201,21,0,1221,24,0,1200,25,0,1200,26,0,1221,27,0,1221,30,0,1200,31,0,1200,33,0,1200,34,0,1000,36,0,1200*6B
$PAIRSAT,4,46,1,0,200,2,0,200,3,0,600,4,0,200,5,0,200,6,0,201,7,0,201,8,0,200,9,0,201,10,0,201,11,0,200,12,0,200,13,0,200,14,0,200,16,0,201,19,0,600,20,0,600,21,0,600,22,0,600,23,0,621,24,0,600,25,0,621,26,0,600,27,0,600,28,0,621,29,0,600,30,0,600,32,0,600,33,0,600,34,0,621,35,0,600,36,0,600,37,0,621,38,0,600,39,0,621,40,0,621,41,0,600,42,0,600,43,0,621,44,0,400,45,0,400,46,0,400,59,0,400,60,0,400,61,0,400,62,0,400*4A
$PAIRDGP,10,2,4,7,8,9,16,21,26,27,30*42
$GNGGA,041421.200,2500.7893376,N,12132.4438271,E,4,53,0.51,16.761,M,15.25,M,1,3335*4A
$GNRMC,041421.200,A,2500.7893376,N,12132.4438271,E,0.00,317.96,090324,,,R,V*13
$GPHDT,278.784,T*33
$GNACCURACY,3.7*12
$GNGGA,041421.300,2500.7893310,N,12132.4438179,E,4,52,0.51,16.720,M,15.25,M,1,3335*44
$GNRMC,041421.300,A,2500.7893310,N,12132.4438179,E,0.01,317.96,090324,,,R,V*18
$GPHDT,,T*1B
$GNACCURACY,3.7*12
$GNGGA,041421.400,2500.7893311,N,12132.4438184,E,4,52,0.51,16.717,M,15.25,M,1,3335*44
$GNRMC,041421.400,A,2500.7893311,N,12132.4438184,E,0.00,317.96,090324,,,R,V*1D
$GPHDT,279.034,T*3E
$GNACCURACY,3.7*12
$GNGGA,041421.500,2500.7893345,N,12132.4438204,E,4,52,0.51,16.750,M,15.25,M,1,3335*4C
$GNRMC,041421.500,A,2500.7893345,N,12132.4438204,E,0.00,317.96,090324,,,R,V*16
$GPHDT,,T*1B
$GNACCURACY,3.7*12
$GNGGA,041421.600,2500.7893336,N,12132.4438166,E,4,53,0.50,16.733,M,15.25,M,1,3335*49
$GNRMC,041421.600,A,2500.7893336,N,12132.4438166,E,0.01,317.96,090324,,,R,V*17
$GPHDT,278.727,T*3A
$GNACCURACY,3.7*12
$GNGGA,041421.700,2500.7893320,N,12132.4438142,E,4,53,0.50,16.731,M,15.25,M,0,3335*4A
$GNRMC,041421.700,A,2500.7893320,N,12132.4438142,E,0.00,317.96,090324,,,R,V*16
$GPHDT,,T*1B
$GNACCURACY,3.7*12
$GNGGA,041421.800,2500.7893315,N,12132.4438133,E,4,53,0.50,16.729,M,15.25,M,0,3335*4C
$GNRMC,041421.800,A,2500.7893315,N,12132.4438133,E,0.00,317.96,090324,,,R,V*19
$GPHDT,278.420,T*3E
$GNACCURACY,3.7*12
$GNGGA,041421.900,2500.7893324,N,12132.4438135,E,4,53,0.50,16.721,M,15.25,M,0,3335*41
$GNRMC,041421.900,A,2500.7893324,N,12132.4438135,E,0.00,317.96,090324,,,R,V*1C
$GPHDT,,T*1B
$GNACCURACY,3.7*12
$GNGGA,041422.000,2500.7893329,N,12132.4438180,E,4,53,0.50,16.730,M,15.25,M,1,3335*49
$GNRMC,041422.000,A,2500.7893329,N,12132.4438180,E,0.00,317.96,090324,,,R,V*15
$GPHDT,277.524,T*34
$GNACCURACY,3.7*12
$GNGGA,041422.100,2500.7893308,N,12132.4438169,E,4,54,0.50,16.706,M,15.25,M,1,3335*4E
$GNRMC,041422.100,A,2500.7893308,N,12132.4438169,E,0.00,317.96,090324,,,R,V*10
$GPHDT,,T*1B
$GNGSA,A,3,195,194,21,08,199,02,07,27,16,196,04,30,0.85,0.50,0.69,1*03
$GNGSA,A,3,81,78,88,79,77,82,,,,,,,0.85,0.50,0.69,2*07
$GNGSA,A,3,21,13,26,27,15,,,,,,,,0.85,0.50,0.69,3*00
$GNGSA,A,3,23,09,06,16,07,40,28,43,39,10,25,37,0.85,0.50,0.69,4*0C
$GNGSA,A,3,34,,,,,,,,,,,,0.85,0.50,0.69,4*04
$GPGSV,4,1,15,195,65,113,43,194,64,053,42,21,62,153,42,08,61,359,43,1*60
$GPGSV,4,2,15,199,60,167,35,50,60,167,38,02,51,176,40,07,43,315,37,1*5E
$GPGSV,4,3,15,27,31,037,45,16,26,078,33,09,22,244,20,196,19,169,19,1*50
$GPGSV,4,4,15,04,16,201,30,30,13,320,17,26,07,101,18,1*5F
$GPGSV,2,1,07,195,65,113,45,194,64,053,44,08,61,359,47,199,60,167,44,8*59
$GPGSV,2,2,07,27,31,037,46,04,16,201,29,30,13,320,20,8*52
$GLGSV,2,1,06,81,68,204,44,78,58,043,44,88,52,030,44,79,28,335,42,1*7A
$GLGSV,2,2,06,77,22,113,15,82,18,205,26,1*79
$GAGSV,2,1,07,21,55,015,44,13,54,077,40,26,46,172,33,27,28,081,26,7*77
$GAGSV,2,2,07,19,26,239,,15,12,038,17,04,12,297,16,7*46
$GAGSV,2,1,05,21,55,015,43,13,54,077,43,26,46,172,34,27,28,081,31,1*76
$GAGSV,2,2,05,15,12,038,24,1*4A
$GBGSV,4,1,13,23,75,038,45,09,72,262,41,06,70,214,41,16,67,199,44,1*73
$GBGSV,4,2,13,07,60,310,40,40,60,330,43,28,58,224,43,43,56,036,46,1*77
$GBGSV,4,3,13,39,56,188,39,10,51,291,23,25,36,120,31,37,32,322,38,1*71
$GBGSV,4,4,13,34,10,040,21,1*45
$GBGSV,2,1,08,23,75,038,45,40,60,330,42,28,58,224,44,43,56,036,45,4*76
$GBGSV,2,2,08,39,56,188,38,25,36,120,32,37,32,322,37,34,10,040,30,4*7B
$GNACCURACY,3.7*12
$PAIRSAT,1,35,2,0,201,3,0,200,4,0,221,5,0,200,6,0,200,7,0,201,8,0,221,9,0,220,10,0,200,11,0,200,12,0,200,13,0,200,14,0,200,15,0,200,16,0,201,17,0,200,18,0,200,19,0,200,20,0,200,21,0,201,22,0,200,23,0,200,24,0,200,25,0,200,26,0,220,27,0,221,28,0,200,29,0,200,30,0,221,31,0,200,32,0,200,194,0,621,195,0,621,196,0,620,199,0,621*5A
$PAIRSAT,2,24,65,0,200,66,0,200,67,0,200,68,0,200,69,0,200,70,0,200,71,0,200,72,0,200,73,0,200,74,0,200,75,0,200,76,0,200,77,0,201,78,0,201,79,0,201,80,0,200,81,0,201,82,0,201,83,0,200,84,0,200,85,0,200,86,0,200,87,0,201,88,0,201*7B
$PAIRSAT,3,23,2,0,1200,3,0,1200,4,0,1200,5,0,200,7,0,1200,8,0,1200,9,0,1200,10,0,1200,11,0,1200,12,0,1200,13,0,1221,15,0,1220,19,0,1201,21,0,1221,24,0,1200,25,0,1200,26,0,1221,27,0,1221,30,0,1200,31,0,1200,33,0,1200,34,0,1000,36,0,1200*6B
$PAIRSAT,4,46,1,0,200,2,0,200,3,0,600,4,0,200,5,0,200,6,0,201,7,0,201,8,0,200,9,0,201,10,0,201,11,0,200,12,0,200,13,0,200,14,0,200,16,0,201,19,0,600,20,0,600,21,0,600,22,0,600,23,0,621,24,0,600,25,0,621,26,0,600,27,0,600,28,0,621,29,0,600,30,0,600,32,0,600,33,0,600,34,0,621,35,0,600,36,0,600,37,0,621,38,0,600,39,0,621,40,0,621,41,0,600,42,0,600,43,0,621,44,0,400,45,0,400,46,0,400,59,0,400,60,0,400,61,0,400,62,0,400*4A
$PAIRDGP,10,2,4,7,8,9,16,21,26,27,30*42
$GNGGA,041422.200,2500.7893301,N,12132.4438176,E,4,54,0.50,16.704,M,15.25,M,1,3335*48
$GNRMC,041422.200,A,2500.7893301,N,12132.4438176,E,0.00,317.96,090324,,,R,V*14
$GPHDT,277.802,T*3D
$GNACCURACY,3.6*13
$GNGGA,041422.300,2500.7893293,N,12132.4438149,E,4,54,0.50,16.705,M,15.25,M,1,3335*4E
$GNRMC,041422.300,A,2500.7893293,N,12132.4438149,E,0.00,317.96,090324,,,R,V*13
$GPHDT,,T*1B
$GNACCURACY,3.6*13
$GNGGA,041422.400,2500.7893302,N,12132.4438164,E,4,54,0.50,16.712,M,15.25,M,1,3335*49
$GNRMC,041422.400,A,2500.7893302,N,12132.4438164,E,0.00,317.96,090324,,,R,V*12
$GPHDT,277.686,T*3F
$GNACCURACY,3.6*13
$GNGGA,041422.500,2500.7893330,N,12132.4438150,E,4,54,0.50,16.720,M,15.25,M,0,3335*4E
$GNRMC,041422.500,A,2500.7893330,N,12132.4438150,E,0.00,317.96,090324,,,R,V*15
$GPHDT,,T*1B
$GNACCURACY,3.6*13
$GNGGA,041422.600,2500.7893367,N,12132.4438150,E,4,54,0.50,16.738,M,15.25,M,0,3335*46
$GNRMC,041422.600,A,2500.7893367,N,12132.4438150,E,0.00,317.96,090324,,,R,V*14
$GPHDT,277.780,T*38
$GNACCURACY,3.6*13
$GNGGA,041422.700,2500.7893402,N,12132.4438124,E,4,54,0.50,16.751,M,15.25,M,0,3335*4F
$GNRMC,041422.700,A,2500.7893402,N,12132.4438124,E,0.00,317.96,090324,,,R,V*12
$GPHDT,,T*1B
$GNACCURACY,3.6*13
$GNGGA,041422.800,2500.7893397,N,12132.4438131,E,4,54,0.50,16.754,M,15.25,M,0,3335*4A
$GNRMC,041422.800,A,2500.7893397,N,12132.4438131,E,0.00,317.96,090324,,,R,V*12
$GPHDT,277.211,T*35
$GNACCURACY,3.6*13
$GNGGA,041422.900,2500.7893387,N,12132.4438134,E,4,55,0.48,16.751,M,15.25,M,0,3335*42
$GNRMC,041422.900,A,2500.7893387,N,12132.4438134,E,0.00,317.96,090324,,,R,V*17
$GPHDT,,T*1B
$GNACCURACY,3.6*13
$GNGGA,041423.000,2500.7893401,N,12132.4438132,E,4,55,0.48,16.762,M,15.25,M,1,3335*44
$GNRMC,041423.000,A,2500.7893401,N,12132.4438132,E,0.00,317.96,090324,,,R,V*10
$GPHDT,276.969,T*30
$GNACCURACY,3.6*13
$GNGGA,041423.100,2500.7893389,N,12132.4438155,E,4,55,0.48,16.752,M,15.25,M,1,3335*40
$GNRMC,041423.100,A,2500.7893389,N,12132.4438155,E,0.00,317.96,090324,,,R,V*17
$GPHDT,,T*1B
$GNGSA,A,3,195,194,21,08,199,02,07,27,16,196,04,09,0.82,0.48,0.66,1*08
$GNGSA,A,3,30,,,,,,,,,,,,0.82,0.48,0.66,1*04
$GNGSA,A,3,81,78,88,79,77,82,,,,,,,0.82,0.48,0.66,2*06
$GNGSA,A,3,21,13,26,27,15,,,,,,,,0.82,0.48,0.66,3*01
$GNGSA,A,3,23,09,06,16,07,40,28,43,39,10,25,37,0.82,0.48,0.66,4*0D
$GNGSA,A,3,34,,,,,,,,,,,,0.82,0.48,0.66,4*05
$GPGSV,4,1,15,195,65,113,43,194,64,053,42,21,62,153,43,08,61,359,43,1*61
$GPGSV,4,2,15,199,60,167,36,50,60,167,38,02,51,176,42,07,43,315,35,1*5D
$GPGSV,4,3,15,27,31,037,45,16,26,078,33,09,22,244,18,196,19,169,26,1*57
$GPGSV,4,4,15,04,16,201,29,30,13,320,20,26,07,101,18,1*53
$GPGSV,2,1,08,195,65,113,45,194,64,053,45,08,61,359,46,199,60,167,44,8*56
$GPGSV,2,2,08,27,31,037,46,09,22,244,12,04,16,201,29,30,13,320,18,8*6E
$GLGSV,2,1,06,81,68,204,44,78,58,043,44,88,52,030,44,79,28,335,43,1*7B
$GLGSV,2,2,06,77,22,113,16,82,18,205,27,1*7B
$GAGSV,2,1,07,21,55,015,44,13,54,077,41,26,46,172,37,27,28,081,27,7*73
$GAGSV,2,2,07,19,26,239,,15,12,038,20,04,12,297,16,7*42
$GAGSV,2,1,05,21,55,015,43,13,54,077,44,26,46,172,37,27,28,081,31,1*72
$GAGSV,2,2,05,15,12,038,26,1*48
$GBGSV,4,1,13,23,75,039,45,09,72,262,41,06,70,214,42,16,67,199,45,1*70
$GBGSV,4,2,13,07,60,310,40,40,60,330,43,28,58,224,44,43,56,036,46,1*70
$GBGSV,4,3,13,39,56,188,40,10,51,291,21,25,36,120,32,37,32,322,39,1*7F
$GBGSV,4,4,13,34,10,040,20,1*44
$GBGSV,2,1,08,23,75,039,47,40,60,330,42,28,58,224,45,43,56,036,44,4*75
$GBGSV,2,2,08,39,56,188,40,25,36,120,33,37,32,322,37,34,10,040,29,4*7D
$GNACCURACY,3.6*13
$PAIRSAT,1,35,2,0,201,3,0,200,4,0,221,5,0,200,6,0,200,7,0,201,8,0,221,9,0,220,10,0,200,11,0,200,12,0,200,13,0,200,14,0,200,15,0,200,16,0,201,17,0,200,18,0,200,19,0,200,20,0,200,21,0,201,22,0,200,23,0,200,24,0,200,25,0,200,26,0,220,27,0,221,28,0,200,29,0,200,30,0,221,31,0,200,32,0,200,194,0,621,195,0,621,196,0,620,199,0,621*5A
$PAIRSAT,2,24,65,0,200,66,0,200,67,0,200,68,0,200,69,0,200,70,0,200,71,0,200,72,0,200,73,0,200,74,0,200,75,0,200,76,0,200,77,0,201,78,0,201,79,0,201,80,0,200,81,0,201,82,0,201,83,0,200,84,0,200,85,0,200,86,0,200,87,0,201,88,0,201*7B
$PAIRSAT,3,23,2,0,1200,3,0,1200,4,0,1200,5,0,200,7,0,1200,8,0,1200,9,0,1200,10,0,1200,11,0,1200,12,0,1200,13,0,1221,15,0,1220,19,0,1201,21,0,1221,24,0,1200,25,0,1200,26,0,1221,27,0,1221,30,0,1200,31,0,1200,33,0,1200,34,0,1000,36,0,1200*6B
$PAIRSAT,4,46,1,0,200,2,0,200,3,0,600,4,0,200,5,0,200,6,0,201,7,0,201,8,0,200,9,0,201,10,0,201,11,0,200,12,0,200,13,0,200,14,0,200,16,0,201,19,0,600,20,0,600,21,0,600,22,0,600,23,0,621,24,0,600,25,0,621,26,0,600,27,0,600,28,0,621,29,0,600,30,0,600,32,0,600,33,0,600,34,0,621,35,0,600,36,0,600,37,0,621,38,0,600,39,0,621,40,0,621,41,0,600,42,0,600,43,0,621,44,0,400,45,0,400,46,0,400,59,0,400,60,0,400,61,0,400,62,0,400*4A
$PAIRDGP,10,2,4,7,8,9,16,21,26,27,30*42
$GNGGA,041423.200,2500.7893393,N,12132.4438115,E,4,55,0.48,16.753,M,15.25,M,1,3335*4D
$GNRMC,041423.200,A,2500.7893393,N,12132.4438115,E,0.00,317.96,090324,,,R,V*1B
$GPHDT,276.533,T*33
$GNACCURACY,3.6*13
$GNGGA,041423.300,2500.7893396,N,12132.4438115,E,4,55,0.48,16.757,M,15.25,M,1,3335*4D
$GNRMC,041423.300,A,2500.7893396,N,12132.4438115,E,0.00,317.96,090324,,,R,V*1F
$GPHDT,,T*1B
$GNACCURACY,3.6*13
$GNGGA,041423.400,2500.7893367,N,12132.4438161,E,4,56,0.48,16.741,M,15.25,M,1,3335*43
$GNRMC,041423.400,A,2500.7893367,N,12132.4438161,E,0.00,317.96,090324,,,R,V*15
$GPHDT,276.582,T*39
$GNACCURACY,3.6*13
$GNGGA,041423.500,2500.7893377,N,12132.4438123,E,4,57,0.48,16.753,M,15.25,M,1,3335*47
$GNRMC,041423.500,A,2500.7893377,N,12132.4438123,E,0.00,317.96,090324,,,R,V*13
$GPHDT,,T*1B
$GNACCURACY,3.6*13
$GNGGA,041423.600,2500.7893389,N,12132.4438118,E,4,57,0.48,16.752,M,15.25,M,1,3335*4C
$GNRMC,041423.600,A,2500.7893389,N,12132.4438118,E,0.01,317.96,090324,,,R,V*18
$GPHDT,276.062,T*32
$GNACCURACY,3.6*13
$GNGGA,041423.700,2500.7893389,N,12132.4438095,E,4,57,0.48,16.751,M,15.25,M,0,3335*4B
$GNRMC,041423.700,A,2500.7893389,N,12132.4438095,E,0.01,317.96,090324,,,R,V*1D
$GPHDT,,T*1B
$GNACCURACY,3.6*13
$GNGGA,041423.800,2500.7893367,N,12132.4438115,E,4,57,0.48,16.755,M,15.25,M,0,3335*49
$GNRMC,041423.800,A,2500.7893367,N,12132.4438115,E,0.01,317.96,090324,,,R,V*1B
$GPHDT,276.026,T*32
$GNACCURACY,3.6*13
$GNGGA,041423.900,2500.7893365,N,12132.4438114,E,4,57,0.48,16.750,M,15.25,M,0,3335*4E
$GNRMC,041423.900,A,2500.7893365,N,12132.4438114,E,0.01,317.96,090324,,,R,V*19
$GPHDT,,T*1B
$GNACCURACY,3.6*13
$GNGGA,041424.000,2500.7893362,N,12132.4438122,E,4,57,0.48,16.744,M,15.25,M,1,3335*46
$GNRMC,041424.000,A,2500.7893362,N,12132.4438122,E,0.00,317.96,090324,,,R,V*14
$GPHDT,275.927,T*39
$GNACCURACY,3.6*13
$GNGGA,041424.100,2500.7893375,N,12132.4438113,E,4,57,0.48,16.754,M,15.25,M,1,3335*42
$GNRMC,041424.100,A,2500.7893375,N,12132.4438113,E,0.01,317.96,090324,,,R,V*10
$GPHDT,,T*1B
$GNGSA,A,3,195,194,21,08,199,02,07,27,16,196,04,30,0.82,0.48,0.66,1*02
$GNGSA,A,3,09,,,,,,,,,,,,0.82,0.48,0.66,1*0E
$GNGSA,A,3,81,78,88,79,77,82,,,,,,,0.82,0.48,0.66,2*06
$GNGSA,A,3,21,13,26,27,15,,,,,,,,0.82,0.48,0.66,3*01
$GNGSA,A,3,23,09,06,16,40,07,28,39,43,10,25,37,0.82,0.48,0.66,4*0D
$GNGSA,A,3,34,,,,,,,,,,,,0.82,0.48,0.66,4*05
$GPGSV,4,1,15,195,65,113,43,194,64,053,42,21,62,153,43,08,61,359,43,1*61
$GPGSV,4,2,15,199,60,167,36,50,60,167,38,02,51,176,42,07,43,315,35,1*5D
$GPGSV,4,3,15,27,31,037,45,16,26,078,32,09,22,244,17,196,19,169,27,1*58
$GPGSV,4,4,15,04,16,201,30,30,13,320,24,26,07,101,18,1*5F
$GPGSV,3,1,09,195,65,113,45,194,64,053,45,08,61,359,46,199,60,167,44,8*56
$GPGSV,3,2,09,27,31,037,46,09,22,244,11,196,19,169,28,04,16,201,29,8*56
$GPGSV,3,3,09,30,13,320,21,8*57
$GLGSV,2,1,06,81,68,204,44,78,58,043,44,88,52,030,44,79,28,335,43,1*7B
$GLGSV,2,2,06,77,22,113,16,82,18,205,27,1*7B
$GAGSV,2,1,07,21,55,015,44,13,54,077,41,26,46,172,37,27,28,081,27,7*73
$GAGSV,2,2,07,19,26,239,,15,12,038,21,04,12,297,16,7*43
$GAGSV,2,1,05,21,55,015,43,13,54,077,44,26,46,172,37,27,28,081,32,1*71
$GAGSV,2,2,05,15,12,038,25,1*4B
$GBGSV,4,1,14,23,75,039,45,09,72,262,41,06,70,214,42,16,67,199,45,1*77
$GBGSV,4,2,14,40,60,330,43,07,60,310,40,28,58,224,44,39,56,188,40,1*78
$GBGSV,4,3,14,43,56,036,46,10,51,291,21,25,36,120,31,37,32,322,39,1*74
$GBGSV,4,4,14,27,11,221,,34,10,040,20,1*77
$GBGSV,2,1,08,23,75,039,47,40,60,330,42,28,58,224,45,43,56,036,44,4*75
$GBGSV,2,2,08,39,56,188,40,25,36,120,33,37,32,322,37,34,10,040,29,4*7D
$GNACCURACY,3.6*13
$PAIRSAT,1,35,2,0,201,3,0,200,4,0,221,5,0,200,6,0,200,7,0,201,8,0,221,9,0,220,10,0,200,11,0,200,12,0,200,13,0,200,14,0,200,15,0,200,16,0,201,17,0,200,18,0,200,19,0,200,20,0,200,21,0,201,22,0,200,23,0,200,24,0,200,25,0,200,26,0,220,27,0,221,28,0,200,29,0,200,30,0,221,31,0,200,32,0,200,194,0,621,195,0,621,196,0,620,199,0,621*5A
$PAIRSAT,2,24,65,0,200,66,0,200,67,0,200,68,0,200,69,0,200,70,0,200,71,0,200,72,0,200,73,0,200,74,0,200,75,0,200,76,0,200,77,0,201,78,0,201,79,0,201,80,0,200,81,0,201,82,0,201,83,0,200,84,0,200,85,0,200,86,0,200,87,0,201,88,0,201*7B
$PAIRSAT,3,23,2,0,1200,3,0,1200,4,0,1200,5,0,200,7,0,1200,8,0,1200,9,0,1200,10,0,1200,11,0,1200,12,0,1200,13,0,1221,15,0,1220,19,0,1201,21,0,1221,24,0,1200,25,0,1200,26,0,1221,27,0,1221,30,0,1200,31,0,1200,33,0,1200,34,0,1000,36,0,1200*6B
$PAIRSAT,4,46,1,0,200,2,0,200,3,0,600,4,0,200,5,0,200,6,0,201,7,0,201,8,0,200,9,0,201,10,0,201,11,0,200,12,0,200,13,0,200,14,0,200,16,0,201,19,0,600,20,0,600,21,0,600,22,0,600,23,0,621,24,0,600,25,0,621,26,0,600,27,0,600,28,0,621,29,0,600,30,0,600,32,0,600,33,0,600,34,0,621,35,0,600,36,0,600,37,0,621,38,0,600,39,0,621,40,0,621,41,0,600,42,0,600,43,0,621,44,0,400,45,0,400,46,0,400,59,0,400,60,0,400,61,0,400,62,0,400*4A
$PAIRDGP,10,2,4,7,8,9,16,21,26,27,30*42
$GNGGA,041424.200,2500.7893371,N,12132.4438103,E,4,57,0.48,16.760,M,15.25,M,1,3335*43
$GNRMC,041424.200,A,2500.7893371,N,12132.4438103,E,0.01,317.96,090324,,,R,V*16
$GPHDT,275.907,T*3B
$GNACCURACY,3.6*13
$GNGGA,041424.300,2500.7893374,N,12132.4438105,E,4,57,0.48,16.755,M,15.25,M,1,3335*47
$GNRMC,041424.300,A,2500.7893374,N,12132.4438105,E,0.01,317.96,090324,,,R,V*14
$GPHDT,,T*1B
$GNACCURACY,3.6*13
$GNGGA,041424.400,2500.7893364,N,12132.4438160,E,4,57,0.48,16.723,M,15.25,M,1,3335*43
$GNRMC,041424.400,A,2500.7893364,N,12132.4438160,E,0.01,317.96,090324,,,R,V*11
$GPHDT,275.895,T*31
$GNACCURACY,3.6*13
$GNGGA,041424.500,2500.7893376,N,12132.4438083,E,4,57,0.48,16.759,M,15.25,M,1,3335*40
$GNRMC,041424.500,A,2500.7893376,N,12132.4438083,E,0.01,317.96,090324,,,R,V*1F
$GPHDT,,T*1B
$GNACCURACY,3.6*13
$GNGGA,041424.600,2500.7893362,N,12132.4438138,E,4,57,0.48,16.752,M,15.25,M,0,3335*4D
$GNRMC,041424.600,A,2500.7893362,N,12132.4438138,E,0.01,317.96,090324,,,R,V*18
$GPHDT,275.513,T*32
$GNACCURACY,3.6*13
$GNGGA,041424.700,2500.7893367,N,12132.4438104,E,4,57,0.48,16.746,M,15.25,M,0,3335*43
$GNRMC,041424.700,A,2500.7893367,N,12132.4438104,E,0.01,317.96,090324,,,R,V*13
$GPHDT,,T*1B
$GNACCURACY,3.6*13
$GNGGA,041424.800,2500.7893358,N,12132.4438131,E,4,57,0.48,16.749,M,15.25,M,0,3335*49
$GNRMC,041424.800,A,2500.7893358,N,12132.4438131,E,0.01,317.96,090324,,,R,V*16
$GPHDT,275.943,T*3B
$GNACCURACY,3.6*13
$GNGGA,041424.900,2500.7893377,N,12132.4438139,E,4,57,0.48,16.755,M,15.25,M,0,3335*40
$GNRMC,041424.900,A,2500.7893377,N,12132.4438139,E,0.01,317.96,090324,,,R,V*12
$GPHDT,,T*1B
$GNACCURACY,3.6*13
$GNGGA,041425.000,2500.7893365,N,12132.4438132,E,4,57,0.48,16.752,M,15.25,M,1,3335*46
$GNRMC,041425.000,A,2500.7893365,N,12132.4438132,E,0.01,317.96,090324,,,R,V*12
$GPHDT,275.646,T*31
$GNACCURACY,3.6*13
$GNGGA,041425.100,2500.7893350,N,12132.4438164,E,4,57,0.48,16.744,M,15.25,M,1,3335*45
$GNRMC,041425.100,A,2500.7893350,N,12132.4438164,E,0.01,317.96,090324,,,R,V*16
$GPHDT,,T*1B
$GNGSA,A,3,195,194,21,08,199,02,07,27,16,196,04,30,0.82,0.48,0.66,1*02
$GNGSA,A,3,09,,,,,,,,,,,,0.82,0.48,0.66,1*0E
$GNGSA,A,3,81,78,88,79,77,82,,,,,,,0.82,0.48,0.66,2*06
$GNGSA,A,3,21,13,26,27,15,,,,,,,,0.82,0.48,0.66,3*01
$GNGSA,A,3,23,09,06,16,40,07,28,39,43,10,25,37,0.82,0.48,0.66,4*0D
$GNGSA,A,3,34,,,,,,,,,,,,0.82,0.48,0.66,4*05
$GPGSV,4,1,15,195,65,113,43,194,64,053,42,21,62,153,43,08,61,359,43,1*61
$GPGSV,4,2,15,199,60,167,36,50,60,167,38,02,51,176,42,07,43,315,34,1*5C
$GPGSV,4,3,15,27,31,037,45,16,26,078,32,09,22,244,17,196,19,169,28,1*57
$GPGSV,4,4,15,04,16,201,31,30,13,320,27,26,07,101,18,1*5D
$GPGSV,3,1,09,195,65,113,45,194,64,053,45,08,61,359,45,199,60,167,45,8*54
$GPGSV,3,2,09,27,31,037,46,09,22,244,10,196,19,169,28,04,16,201,29,8*57
$GPGSV,3,3,09,30,13,320,21,8*57
$GLGSV,2,1,06,81,68,204,44,78,58,043,44,88,52,030,44,79,28,335,43,1*7B
$GLGSV,2,2,06,77,22,113,16,82,18,205,28,1*74
$GAGSV,2,1,07,21,55,015,44,13,54,077,41,26,46,172,37,27,28,081,27,7*73
$GAGSV,2,2,07,19,26,239,,15,12,038,23,04,12,297,16,7*41
$GAGSV,2,1,05,21,55,015,43,13,54,077,44,26,46,172,38,27,28,081,31,1*7D
$GAGSV,2,2,05,15,12,038,25,1*4B
$GBGSV,4,1,14,23,75,039,45,09,72,262,41,06,70,214,42,16,67,199,45,1*77
$GBGSV,4,2,14,40,60,330,43,07,60,310,40,28,58,224,44,39,56,188,41,1*79
$GBGSV,4,3,14,43,56,036,46,10,51,291,21,25,36,120,29,37,32,322,39,1*7D
$GBGSV,4,4,14,27,11,221,,34,10,040,22,1*75
$GBGSV,2,1,08,23,75,039,47,40,60,330,42,28,58,224,45,43,56,036,44,4*75
$GBGSV,2,2,08,39,56,188,41,25,36,120,33,37,32,322,37,34,10,040,29,4*7C
$GNACCURACY,3.6*13
$PAIRSAT,1,35,2,0,201,3,0,200,4,0,221,5,0,200,6,0,200,7,0,201,8,0,221,9,0,220,10,0,200,11,0,200,12,0,200,13,0,200,14,0,200,15,0,200,16,0,201,17,0,200,18,0,200,19,0,200,20,0,200,21,0,201,22,0,200,23,0,200,24,0,200,25,0,200,26,0,220,27,0,221,28,0,200,29,0,200,30,0,221,31,0,200,32,0,200,194,0,621,195,0,621,196,0,620,199,0,621*5A
$PAIRSAT,2,24,65,0,200,66,0,200,67,0,200,68,0,200,69,0,200,70,0,200,71,0,200,72,0,200,73,0,200,74,0,200,75,0,200,76,0,200,77,0,201,78,0,201,79,0,201,80,0,200,81,0,201,82,0,201,83,0,200,84,0,200,85,0,200,86,0,200,87,0,201,88,0,201*7B
$PAIRSAT,3,23,2,0,1200,3,0,1200,4,0,1200,5,0,200,7,0,1200,8,0,1200,9,0,1200,10,0,1200,11,0,1200,12,0,1200,13,0,1221,15,0,1220,19,0,1201,21,0,1221,24,0,1200,25,0,1200,26,0,1221,27,0,1221,30,0,1200,31,0,1200,33,0,1200,34,0,1000,36,0,1200*6B
$PAIRSAT,4,46,1,0,200,2,0,200,3,0,600,4,0,200,5,0,200,6,0,201,7,0,201,8,0,200,9,0,201,10,0,201,11,0,200,12,0,200,13,0,200,14,0,200,16,0,201,19,0,600,20,0,600,21,0,600,22,0,600,23,0,621,24,0,600,25,0,621,26,0,600,27,0,600,28,0,621,29,0,600,30,0,600,32,0,600,33,0,600,34,0,621,35,0,600,36,0,600,37,0,621,38,0,600,39,0,621,40,0,621,41,0,600,42,0,600,43,0,621,44,0,400,45,0,400,46,0,400,59,0,400,60,0,400,61,0,400,62,0,400*4A
$PAIRDGP,10,2,4,7,8,9,16,21,26,27,30*42
$GNGGA,041425.200,2500.7893357,N,12132.4438144,E,4,57,0.48,16.755,M,15.25,M,1,3335*43
$GNRMC,041425.200,A,2500.7893357,N,12132.4438144,E,0.01,317.96,090324,,,R,V*10
$GPHDT,275.955,T*3C
$GNACCURACY,3.6*13
$GNGGA,041425.300,2500.7893363,N,12132.4438117,E,4,57,0.48,16.754,M,15.25,M,1,3335*42
$GNRMC,041425.300,A,2500.7893363,N,12132.4438117,E,0.01,317.96,090324,,,R,V*10
$GPHDT,,T*1B
$GNACCURACY,3.6*13
$GNGGA,041425.400,2500.7893361,N,12132.4438148,E,4,57,0.48,16.745,M,15.25,M,1,3335*4D
$GNRMC,041425.400,A,2500.7893361,N,12132.4438148,E,0.01,317.96,090324,,,R,V*1F
$GPHDT,275.700,T*32
$GNACCURACY,3.6*13
$GNGGA,041425.500,2500.7893340,N,12132.4438136,E,4,56,0.50,16.733,M,15.25,M,0,3335*4E
$GNRMC,041425.500,A,2500.7893340,N,12132.4438136,E,0.01,317.96,090324,,,R,V*14
$GPHDT,,T*1B
$GNACCURACY,3.6*13
$GNGGA,041425.600,2500.7893368,N,12132.4438115,E,4,56,0.50,16.744,M,15.25,M,0,3335*46
$GNRMC,041425.600,A,2500.7893368,N,12132.4438115,E,0.01,317.96,090324,,,R,V*1C
$GPHDT,275.769,T*3D
$GNACCURACY,3.6*13
$GNGGA,041425.700,2500.7893349,N,12132.4438153,E,4,56,0.50,16.745,M,15.25,M,0,3335*47
$GNRMC,041425.700,A,2500.7893349,N,12132.4438153,E,0.01,317.96,090324,,,R,V*1C
$GPHDT,,T*1B
$GNACCURACY,3.6*13
$GNGGA,041425.800,2500.7893355,N,12132.4438160,E,4,56,0.50,16.749,M,15.25,M,0,3335*49
$GNRMC,041425.800,A,2500.7893355,N,12132.4438160,E,0.01,317.96,090324,,,R,V*1E
$GPHDT,275.697,T*3D
$GNACCURACY,3.6*13
$GNGGA,041425.900,2500.7893339,N,12132.4438152,E,4,56,0.50,16.739,M,15.25,M,0,3335*44
$GNRMC,041425.900,A,2500.7893339,N,12132.4438152,E,0.01,317.96,090324,,,R,V*14
$GPHDT,,T*1B
$GNACCURACY,3.6*13
$GNGGA,041426.000,2500.7893354,N,12132.4438127,E,4,56,0.50,16.749,M,15.25,M,1,3335*41
$GNRMC,041426.000,A,2500.7893354,N,12132.4438127,E,0.01,317.96,090324,,,R,V*17
$GPHDT,275.901,T*3D
$GNACCURACY,3.6*13
$GNGGA,041426.100,2500.7893336,N,12132.4438182,E,4,56,0.50,16.744,M,15.25,M,1,3335*46
$GNRMC,041426.100,A,2500.7893336,N,12132.4438182,E,0.01,317.96,090324,,,R,V*1D
$GPHDT,,T*1B
$GNGSA,A,3,195,194,21,08,199,02,07,27,16,196,04,30,0.85,0.50,0.69,1*03
$GNGSA,A,3,81,78,88,79,77,82,,,,,,,0.85,0.50,0.69,2*07
$GNGSA,A,3,21,13,26,27,15,,,,,,,,0.85,0.50,0.69,3*00
$GNGSA,A,3,23,09,06,16,07,40,28,43,39,10,25,37,0.85,0.50,0.69,4*0C
$GNGSA,A,3,34,,,,,,,,,,,,0.85,0.50,0.69,4*04
$GPGSV,4,1,15,195,65,113,43,194,64,053,42,21,62,153,43,08,61,359,43,1*61
$GPGSV,4,2,15,199,60,167,36,50,60,167,38,02,51,176,41,07,43,315,35,1*5E
$GPGSV,4,3,15,27,31,037,45,16,26,078,33,09,22,244,15,196,19,169,26,1*5A
$GPGSV,4,4,15,04,16,201,31,30,13,320,25,26,07,101,17,1*50
$GPGSV,2,1,08,195,65,113,45,194,64,053,45,08,61,359,45,199,60,167,45,8*54
$GPGSV,2,2,08,27,31,037,46,196,19,169,29,04,16,201,29,30,13,320,21,8*5F
$GLGSV,2,1,06,81,68,204,44,78,58,043,45,88,52,030,44,79,28,335,43,1*7A
$GLGSV,2,2,06,77,22,113,16,82,18,205,29,1*75
$GAGSV,2,1,07,21,55,015,44,13,54,077,41,26,46,172,38,27,28,081,27,7*7C
$GAGSV,2,2,07,19,26,239,,15,12,038,21,04,12,297,15,7*40
$GAGSV,2,1,05,21,55,015,43,13,54,077,44,26,46,172,37,27,28,081,32,1*71
$GAGSV,2,2,05,15,12,038,26,1*48
$GBGSV,4,1,13,23,75,039,45,09,72,262,41,06,70,214,42,16,67,199,45,1*70
$GBGSV,4,2,13,07,60,310,40,40,60,330,43,28,58,224,44,43,56,036,46,1*70
$GBGSV,4,3,13,39,56,188,41,10,51,291,21,25,36,120,29,37,32,322,39,1*74
$GBGSV,4,4,13,34,10,040,20,1*44
$GBGSV,2,1,08,23,75,039,47,40,60,330,42,28,58,224,45,43,56,036,44,4*75
$GBGSV,2,2,08,39,56,188,41,25,36,120,33,37,32,322,37,34,10,040,29,4*7C
$GNACCURACY,3.7*12
$PAIRSAT,1,35,2,0,201,3,0,200,4,0,221,5,0,200,6,0,200,7,0,201,8,0,221,9,0,220,10,0,200,11,0,200,12,0,200,13,0,200,14,0,200,15,0,200,16,0,201,17,0,200,18,0,200,19,0,200,20,0,200,21,0,201,22,0,200,23,0,200,24,0,200,25,0,200,26,0,220,27,0,221,28,0,200,29,0,200,30,0,221,31,0,200,32,0,200,194,0,621,195,0,621,196,0,620,199,0,621*5A
$PAIRSAT,2,24,65,0,200,66,0,200,67,0,200,68,0,200,69,0,200,70,0,200,71,0,200,72,0,200,73,0,200,74,0,200,75,0,200,76,0,200,77,0,201,78,0,201,79,0,201,80,0,200,81,0,201,82,0,201,83,0,200,84,0,200,85,0,200,86,0,200,87,0,201,88,0,201*7B
$PAIRSAT,3,23,2,0,1200,3,0,1200,4,0,1200,5,0,200,7,0,1200,8,0,1200,9,0,1200,10,0,1200,11,0,1200,12,0,1200,13,0,1221,15,0,1220,19,0,1201,21,0,1221,24,0,1200,25,0,1200,26,0,1221,27,0,1221,30,0,1200,31,0,1200,33,0,1200,34,0,1000,36,0,1200*6B
$PAIRSAT,4,46,1,0,200,2,0,200,3,0,600,4,0,200,5,0,200,6,0,201,7,0,201,8,0,200,9,0,201,10,0,201,11,0,200,12,0,200,13,0,200,14,0,200,16,0,201,19,0,600,20,0,600,21,0,600,22,0,600,23,0,621,24,0,600,25,0,621,26,0,600,27,0,600,28,0,621,29,0,600,30,0,600,32,0,600,33,0,600,34,0,621,35,0,600,36,0,600,37,0,621,38,0,600,39,0,621,40,0,621,41,0,600,42,0,600,43,0,621,44,0,400,45,0,400,46,0,400,59,0,400,60,0,400,61,0,400,62,0,400*4A
$PAIRDGP,10,2,4,7,8,9,16,21,26,27,30*42
$GNGGA,041426.200,2500.7893351,N,12132.4438179,E,4,56,0.50,16.755,M,15.25,M,1,3335*40
$GNRMC,041426.200,A,2500.7893351,N,12132.4438179,E,0.01,317.96,090324,,,R,V*1B
$GPHDT,275.775,T*30
$GNACCURACY,3.7*12
$GNGGA,041426.300,2500.7893361,N,12132.4438140,E,4,56,0.50,16.760,M,15.25,M,1,3335*4E
$GNRMC,041426.300,A,2500.7893361,N,12132.4438140,E,0.01,317.96,090324,,,R,V*13
$GPHDT,,T*1B
$GNACCURACY,3.7*12
$GNGGA,041426.400,2500.7893361,N,12132.4438184,E,4,56,0.50,16.751,M,15.25,M,1,3335*43
$GNRMC,041426.400,A,2500.7893361,N,12132.4438184,E,0.01,317.96,090324,,,R,V*1C
$GPHDT,276.016,T*31
$GNACCURACY,3.7*12
$GNGGA,041426.500,2500.7893351,N,12132.4438186,E,4,56,0.50,16.751,M,15.25,M,1,3335*43
$GNRMC,041426.500,A,2500.7893351,N,12132.4438186,E,0.01,317.96,090324,,,R,V*1C
$GPHDT,,T*1B
$GNACCURACY,3.7*12
$GNGGA,041426.600,2500.7893346,N,12132.4438172,E,4,56,0.50,16.741,M,15.25,M,1,3335*4C
$GNRMC,041426.600,A,2500.7893346,N,12132.4438172,E,0.01,317.96,090324,,,R,V*12
$GPHDT,275.976,T*3D
$GNACCURACY,3.7*12
$GNGGA,041426.700,2500.7893340,N,12132.4438129,E,4,56,0.50,16.752,M,15.25,M,0,3335*46
$GNRMC,041426.700,A,2500.7893340,N,12132.4438129,E,0.01,317.96,090324,,,R,V*1B
$GPHDT,,T*1B
$GNACCURACY,3.7*12
$GNGGA,041426.800,2500.7893347,N,12132.4438162,E,4,56,0.50,16.747,M,15.25,M,0,3335*45
$GNRMC,041426.800,A,2500.7893347,N,12132.4438162,E,0.01,317.96,090324,,,R,V*1C
$GPHDT,275.950,T*39
$GNACCURACY,3.7*12
$GNGGA,041426.900,2500.7893352,N,12132.4438127,E,4,56,0.50,16.751,M,15.25,M,0,3335*46
$GNRMC,041426.900,A,2500.7893352,N,12132.4438127,E,0.01,317.96,090324,,,R,V*18
$GPHDT,,T*1B
$GNACCURACY,3.7*12
$GNGGA,041427.000,2500.7893335,N,12132.4438134,E,4,56,0.50,16.745,M,15.25,M,1,3335*49
$GNRMC,041427.000,A,2500.7893335,N,12132.4438134,E,0.01,317.96,090324,,,R,V*13
$GPHDT,276.076,T*37
$GNACCURACY,3.7*12
$GNGGA,041427.100,2500.7893342,N,12132.4438156,E,4,56,0.50,16.756,M,15.25,M,1,3335*4E
$GNRMC,041427.100,A,2500.7893342,N,12132.4438156,E,0.01,317.96,090324,,,R,V*16
$GPHDT,,T*1B
