$FW : RTK35X,V1.1X0314AS,Lib20210517,1*54
$Tool : LOCOSYS , GNSS Firebird , v1.0.0.19*39
$---------------------------------------------------*2D
$GNACCURACY,3.6*13
$GNGGA,041431.600,2500.7893374,N,12132.4438268,E,4,56,0.50,16.749,M,15.25,M,0,3335*4A
$GNRMC,041431.600,A,2500.7893374,N,12132.4438268,E,0.02,317.96,090324,,,R,V*1E
$GPHDT,226.922,T*3A
$GNACCURACY,3.6*13
$GNGGA,041431.700,2500.7893381,N,12132.4438280,E,4,56,0.50,16.726,M,15.25,M,0,3335*4E
$GNRMC,041431.700,A,2500.7893381,N,12132.4438280,E,0.02,317.96,090324,,,R,V*13
$GPHDT,,T*1B
$GNACCURACY,3.6*13
$GNGGA,041431.800,2500.7893386,N,12132.4438278,E,4,56,0.50,16.729,M,15.25,M,0,3335*4E
$GNRMC,041431.800,A,2500.7893386,N,12132.4438278,E,0.02,317.96,090324,,,R,V*1C
$GPHDT,227.299,T*30
$GNACCURACY,3.6*13
$GNGGA,041431.900,2500.7893412,N,12132.4438299,E,4,55,0.50,16.756,M,15.25,M,0,3335*41
$GNRMC,041431.900,A,2500.7893412,N,12132.4438299,E,0.02,317.96,090324,,,R,V*18
$GPHDT,,T*1B
$GNACCURACY,3.6*13
$GNGGA,041432.000,2500.7893404,N,12132.4438351,E,4,55,0.50,16.761,M,15.25,M,1,3335*4C
$GNRMC,041432.000,A,2500.7893404,N,12132.4438351,E,0.02,317.96,090324,,,R,V*10
$GPHDT,227.141,T*36
$GNACCURACY,3.6*13
$GNGGA,041432.100,2500.7893371,N,12132.4438310,E,4,55,0.50,16.737,M,15.25,M,1,3335*4E
$GNRMC,041432.100,A,2500.7893371,N,12132.4438310,E,0.02,317.96,090324,,,R,V*11
$GPHDT,,T*1B
$GNGSA,A,3,195,194,21,08,199,02,07,27,09,196,04,30,0.83,0.50,0.67,1*05
$GNGSA,A,3,81,78,88,79,77,82,,,,,,,0.83,0.50,0.67,2*0F
$GNGSA,A,3,21,13,26,15,27,,,,,,,,0.83,0.50,0.67,3*08
$GNGSA,A,3,23,09,06,16,07,40,28,43,39,10,25,37,0.83,0.50,0.67,4*04
$GNGSA,A,3,34,,,,,,,,,,,,0.83,0.50,0.67,4*0C
$GPGSV,4,1,15,195,65,113,40,194,64,053,39,21,63,153,41,08,61,359,42,1*6C
$GPGSV,4,2,15,199,60,167,34,50,60,167,37,02,51,176,41,07,43,315,44,1*55
$GPGSV,4,3,15,27,31,037,42,16,26,078,17,09,22,244,20,196,19,169,18,1*50
$GPGSV,4,4,15,04,16,201,35,30,13,320,30,26,07,101,19,1*5E
$GPGSV,3,1,09,195,65,113,40,194,64,053,41,08,61,359,47,199,60,167,45,8*57
$GPGSV,3,2,09,27,31,037,45,196,19,169,20,04,16,201,34,30,13,320,35,8*5C
$GPGSV,3,3,09,26,07,101,14,8*52
$GLGSV,2,1,06,81,68,204,42,78,58,043,43,88,52,030,42,79,28,335,45,1*7A
$GLGSV,2,2,06,77,22,113,22,82,18,205,34,1*7E
$GAGSV,2,1,08,21,55,015,42,13,54,077,38,26,46,172,43,27,28,081,,7*72
$GAGSV,2,2,08,19,26,239,,15,12,038,20,04,12,297,14,33,05,199,,7*7B
$GAGSV,2,1,05,21,55,015,42,13,54,077,38,26,46,172,41,27,28,081,18,1*72
$GAGSV,2,2,05,15,12,038,21,1*4F
$GBGSV,4,1,13,23,75,039,47,09,72,262,41,06,70,214,41,16,67,199,45,1*71
$GBGSV,4,2,13,07,60,310,41,40,60,330,40,28,58,224,46,43,56,036,44,1*72
$GBGSV,4,3,13,39,56,188,43,10,51,291,23,25,36,120,37,37,32,322,45,1*70
$GBGSV,4,4,13,34,10,040,20,1*44
$GBGSV,2,1,08,23,75,039,46,40,60,330,43,28,58,224,42,39,56,188,41,4*7E
$GBGSV,2,2,08,43,56,036,42,25,36,120,18,37,32,322,45,34,10,040,26,4*75
$GNACCURACY,3.6*13
$PAIRSAT,1,35,2,0,201,3,0,200,4,0,221,5,0,200,6,0,200,7,0,201,8,0,221,9,0,220,10,0,200,11,0,200,12,0,200,13,0,200,14,0,200,15,0,200,16,0,201,17,0,200,18,0,200,19,0,200,20,0,200,21,0,201,22,0,200,23,0,200,24,0,200,25,0,200,26,0,220,27,0,221,28,0,200,29,0,200,30,0,221,31,0,200,32,0,200,194,0,621,195,0,621,196,0,620,199,0,621*5A
$PAIRSAT,2,24,65,0,200,66,0,200,67,0,200,68,0,200,69,0,200,70,0,200,71,0,200,72,0,200,73,0,200,74,0,200,75,0,200,76,0,200,77,0,201,78,0,201,79,0,201,80,0,200,81,0,201,82,0,201,83,0,200,84,0,200,85,0,200,86,0,200,87,0,201,88,0,201*7B
$PAIRSAT,3,23,2,0,1200,3,0,1200,4,0,1200,5,0,200,7,0,1200,8,0,1200,9,0,1200,10,0,1200,11,0,1200,12,0,1200,13,0,1221,15,0,1220,19,0,1201,21,0,1221,24,0,1200,25,0,1200,26,0,1221,27,0,1221,30,0,1200,31,0,1200,33,0,1200,34,0,1000,36,0,1200*6B
$PAIRSAT,4,46,1,0,200,2,0,200,3,0,600,4,0,200,5,0,200,6,0,201,7,0,201,8,0,200,9,0,201,10,0,201,11,0,200,12,0,200,13,0,200,14,0,200,16,0,201,19,0,600,20,0,600,21,0,600,22,0,600,23,0,621,24,0,600,25,0,621,26,0,600,27,0,600,28,0,621,29,0,600,30,0,600,32,0,600,33,0,600,34,0,621,35,0,600,36,0,600,37,0,621,38,0,600,39,0,621,40,0,621,41,0,600,42,0,600,43,0,621,44,0,400,45,0,400,46,0,400,59,0,400,60,0,400,61,0,400,62,0,400*4A
$PAIRDGP,10,2,4,7,8,9,16,21,26,27,30*42
$GNGGA,041432.200,2500.7893382,N,12132.4438288,E,4,55,0.50,16.731,M,15.25,M,1,3335*47
$GNRMC,041432.200,A,2500.7893382,N,12132.4438288,E,0.02,317.96,090324,,,R,V*1E
$GPHDT,227.149,T*3E
$GNACCURACY,3.6*13
$GNGGA,041432.300,2500.7893379,N,12132.4438320,E,4,54,0.52,16.725,M,15.25,M,1,3335*47
$GNRMC,041432.300,A,2500.7893379,N,12132.4438320,E,0.02,317.96,090324,,,R,V*18
$GPHDT,,T*1B
$GNACCURACY,3.6*13
$GNGGA,041432.400,2500.7893375,N,12132.4438329,E,4,54,0.52,16.741,M,15.25,M,1,3335*47
$GNRMC,041432.400,A,2500.7893375,N,12132.4438329,E,0.02,317.96,090324,,,R,V*1A
$GPHDT,227.800,T*3A
$GNACCURACY,3.6*13
$GNGGA,041432.500,2500.7893391,N,12132.4438290,E,4,54,0.52,16.731,M,15.25,M,1,3335*48
$GNRMC,041432.500,A,2500.7893391,N,12132.4438290,E,0.02,317.96,090324,,,R,V*12
$GPHDT,,T*1B
$GNACCURACY,3.6*13
$GNGGA,041432.600,2500.7893389,N,12132.4438317,E,4,54,0.52,16.737,M,15.25,M,0,3335*4B
$GNRMC,041432.600,A,2500.7893389,N,12132.4438317,E,0.02,317.96,090324,,,R,V*16
$GPHDT,227.794,T*38
$GNACCURACY,3.6*13
$GNGGA,041432.700,2500.7893390,N,12132.4438300,E,4,54,0.52,16.734,M,15.25,M,0,3335*47
$GNRMC,041432.700,A,2500.7893390,N,12132.4438300,E,0.02,317.96,090324,,,R,V*19
$GPHDT,,T*1B
$GNACCURACY,3.6*13
$GNGGA,041432.800,2500.7893391,N,12132.4438315,E,4,54,0.52,16.750,M,15.25,M,0,3335*4F
$GNRMC,041432.800,A,2500.7893391,N,12132.4438315,E,0.02,317.96,090324,,,R,V*13
$GPHDT,227.748,T*39
$GNACCURACY,3.6*13
$GNGGA,041432.900,2500.7893396,N,12132.4438313,E,4,54,0.52,16.757,M,15.25,M,0,3335*48
$GNRMC,041432.900,A,2500.7893396,N,12132.4438313,E,0.02,317.96,090324,,,R,V*13
$GPHDT,,T*1B
$GNACCURACY,3.6*13
$GNGGA,041433.000,2500.7893384,N,12132.4438313,E,4,54,0.52,16.754,M,15.25,M,1,3335*41
$GNRMC,041433.000,A,2500.7893384,N,12132.4438313,E,0.02,317.96,090324,,,R,V*18
$GPHDT,227.399,T*31
$GNACCURACY,3.6*13
$GNGGA,041433.100,2500.7893379,N,12132.4438313,E,4,55,0.50,16.756,M,15.25,M,1,3335*43
$GNRMC,041433.100,A,2500.7893379,N,12132.4438313,E,0.02,317.96,090324,,,R,V*1B
$GPHDT,,T*1B
$GNGSA,A,3,195,194,21,08,199,02,07,27,09,196,04,30,0.85,0.51,0.68,1*0D
$GNGSA,A,3,81,78,88,79,77,82,,,,,,,0.85,0.51,0.68,2*07
$GNGSA,A,3,21,13,26,15,,,,,,,,,0.85,0.51,0.68,3*05
$GNGSA,A,3,23,09,06,16,07,40,28,43,39,10,25,37,0.85,0.51,0.68,4*0C
$GNGSA,A,3,34,,,,,,,,,,,,0.85,0.51,0.68,4*04
$GPGSV,4,1,15,195,65,113,42,194,64,053,39,21,63,153,42,08,61,359,42,1*6D
$GPGSV,4,2,15,199,60,167,35,50,60,167,38,02,51,176,43,07,43,315,42,1*5F
$GPGSV,4,3,15,27,31,037,44,16,26,078,16,09,22,244,20,196,19,169,18,1*57
$GPGSV,4,4,15,04,16,201,34,30,13,320,29,26,07,101,19,1*57
$GPGSV,3,1,09,195,65,113,43,194,64,053,44,08,61,359,47,199,60,167,47,8*53
$GPGSV,3,2,09,27,31,037,46,196,19,169,18,04,16,201,35,30,13,320,37,8*57
$GPGSV,3,3,09,26,07,101,14,8*52
$GLGSV,2,1,06,81,68,204,42,78,58,043,43,88,52,030,43,79,28,335,45,1*7B
$GLGSV,2,2,06,77,22,113,23,82,18,205,34,1*7F
$GAGSV,2,1,08,21,55,015,41,13,54,077,40,26,46,171,42,27,28,081,,7*7C
$GAGSV,2,2,08,19,26,239,,15,12,038,19,04,12,297,17,33,05,199,,7*72
$GAGSV,1,1,04,21,55,015,43,13,54,077,42,26,46,171,43,15,12,038,23,1*7F
$GBGSV,4,1,13,23,75,039,46,09,72,262,41,06,70,214,41,16,67,199,45,1*70
$GBGSV,4,2,13,07,60,310,42,40,60,330,41,28,58,224,46,43,56,036,44,1*70
$GBGSV,4,3,13,39,56,188,43,10,51,291,22,25,36,120,38,37,32,322,44,1*7F
$GBGSV,4,4,13,34,10,040,25,1*41
$GBGSV,2,1,08,23,75,039,47,40,60,330,43,28,58,224,43,39,56,188,42,4*7D
$GBGSV,2,2,08,43,56,036,42,25,36,120,23,37,32,322,45,34,10,040,28,4*73
$GNACCURACY,3.6*13
$PAIRSAT,1,35,2,0,201,3,0,200,4,0,221,5,0,200,6,0,200,7,0,201,8,0,221,9,0,220,10,0,200,11,0,200,12,0,200,13,0,200,14,0,200,15,0,200,16,0,201,17,0,200,18,0,200,19,0,200,20,0,200,21,0,201,22,0,200,23,0,200,24,0,200,25,0,200,26,0,220,27,0,221,28,0,200,29,0,200,30,0,221,31,0,200,32,0,200,194,0,621,195,0,621,196,0,620,199,0,621*5A
$PAIRSAT,2,24,65,0,200,66,0,200,67,0,200,68,0,200,69,0,200,70,0,200,71,0,200,72,0,200,73,0,200,74,0,200,75,0,200,76,0,200,77,0,201,78,0,201,79,0,201,80,0,200,81,0,201,82,0,201,83,0,200,84,0,200,85,0,200,86,0,200,87,0,201,88,0,201*7B
$PAIRSAT,3,23,2,0,1200,3,0,1200,4,0,1200,5,0,200,7,0,1200,8,0,1200,9,0,1200,10,0,1200,11,0,1200,12,0,1200,13,0,1221,15,0,1220,19,0,1201,21,0,1221,24,0,1200,25,0,1200,26,0,1221,27,0,1221,30,0,1200,31,0,1200,33,0,1200,34,0,1000,36,0,1200*6B
$PAIRSAT,4,46,1,0,200,2,0,200,3,0,600,4,0,200,5,0,200,6,0,201,7,0,201,8,0,200,9,0,201,10,0,201,11,0,200,12,0,200,13,0,200,14,0,200,16,0,201,19,0,600,20,0,600,21,0,600,22,0,600,23,0,621,24,0,600,25,0,621,26,0,600,27,0,600,28,0,621,29,0,600,30,0,600,32,0,600,33,0,600,34,0,621,35,0,600,36,0,600,37,0,621,38,0,600,39,0,621,40,0,621,41,0,600,42,0,600,43,0,621,44,0,400,45,0,400,46,0,400,59,0,400,60,0,400,61,0,400,62,0,400*4A
$PAIRDGP,10,2,4,7,8,9,16,21,26,27,30*42
$GNGGA,041433.200,2500.7893401,N,12132.4438321,E,4,54,0.51,16.745,M,15.25,M,1,3335*4B
$GNRMC,041433.200,A,2500.7893401,N,12132.4438321,E,0.02,317.96,090324,,,R,V*11
$GPHDT,227.835,T*3C
$GNACCURACY,3.6*13
$GNGGA,041433.300,2500.7893421,N,12132.4438337,E,4,53,0.54,16.759,M,15.25,M,1,3335*40
$GNRMC,041433.300,A,2500.7893421,N,12132.4438337,E,0.02,317.96,090324,,,R,V*15
$GPHDT,,T*1B
$GNACCURACY,3.6*13
$GNGGA,041433.400,2500.7893421,N,12132.4438339,E,4,53,0.54,16.762,M,15.25,M,1,3335*41
$GNRMC,041433.400,A,2500.7893421,N,12132.4438339,E,0.01,317.96,090324,,,R,V*1F
$GPHDT,228.094,T*30
$GNACCURACY,3.6*13
$GNGGA,041433.500,2500.7893407,N,12132.4438319,E,4,54,0.52,16.753,M,15.25,M,0,3335*44
$GNRMC,041433.500,A,2500.7893407,N,12132.4438319,E,0.01,317.96,090324,,,R,V*18
$GPHDT,,T*1B
$GNACCURACY,3.6*13
$GNGGA,041433.600,2500.7893416,N,12132.4438303,E,4,54,0.52,16.762,M,15.25,M,0,3335*4E
$GNRMC,041433.600,A,2500.7893416,N,12132.4438303,E,0.01,317.96,090324,,,R,V*10
$GPHDT,227.711,T*35
$GNACCURACY,3.6*13
$GNGGA,041433.700,2500.7893420,N,12132.4438334,E,4,54,0.52,16.767,M,15.25,M,0,3335*4B
$GNRMC,041433.700,A,2500.7893420,N,12132.4438334,E,0.01,317.96,090324,,,R,V*10
$GPHDT,,T*1B
$GNACCURACY,3.6*13
$GNGGA,041433.800,2500.7893412,N,12132.4438331,E,4,54,0.52,16.752,M,15.25,M,0,3335*46
$GNRMC,041433.800,A,2500.7893412,N,12132.4438331,E,0.01,317.96,090324,,,R,V*1B
$GPHDT,228.275,T*3D
$GNACCURACY,3.6*13
$GNGGA,041433.900,2500.7893409,N,12132.4438309,E,4,55,0.52,16.763,M,15.25,M,0,3335*45
$GNRMC,041433.900,A,2500.7893409,N,12132.4438309,E,0.01,317.96,090324,,,R,V*1B
$GPHDT,,T*1B
$GNACCURACY,3.6*13
$GNGGA,041434.000,2500.7893415,N,12132.4438320,E,4,55,0.52,16.751,M,15.25,M,1,3335*4D
$GNRMC,041434.000,A,2500.7893415,N,12132.4438320,E,0.02,317.96,090324,,,R,V*10
$GPHDT,227.917,T*3D
$GNACCURACY,3.6*13
$GNGGA,041434.100,2500.7893402,N,12132.4438313,E,4,55,0.52,16.761,M,15.25,M,1,3335*49
$GNRMC,041434.100,A,2500.7893402,N,12132.4438313,E,0.01,317.96,090324,,,R,V*14
$GPHDT,,T*1B
$GNGSA,A,3,195,194,21,08,199,02,07,27,196,04,30,,0.86,0.52,0.69,1*05
$GNGSA,A,3,81,78,88,79,77,82,,,,,,,0.86,0.52,0.69,2*06
$GNGSA,A,3,21,13,26,27,15,,,,,,,,0.86,0.52,0.69,3*01
$GNGSA,A,3,23,09,06,16,07,40,28,39,43,10,25,37,0.86,0.52,0.69,4*0D
$GNGSA,A,3,34,,,,,,,,,,,,0.86,0.52,0.69,4*05
$GPGSV,4,1,15,195,65,113,43,194,64,053,38,21,63,153,43,08,61,359,42,1*6C
$GPGSV,4,2,15,199,60,167,36,50,60,167,38,02,51,176,42,07,43,315,43,1*5C
$GPGSV,4,3,15,27,31,037,44,16,26,078,17,09,22,244,18,196,19,169,17,1*52
$GPGSV,4,4,15,04,16,201,34,30,13,320,29,26,07,101,17,1*59
$GPGSV,3,1,09,195,65,113,44,194,64,053,44,08,61,359,47,199,60,167,47,8*54
$GPGSV,3,2,09,27,31,037,46,196,19,169,17,04,16,201,35,30,13,320,37,8*58
$GPGSV,3,3,09,26,07,101,13,8*55
$GLGSV,2,1,07,81,68,204,42,78,58,043,43,88,52,030,42,79,28,335,45,1*7B
$GLGSV,2,2,07,77,22,113,22,82,18,205,34,69,03,279,,1*4F
$GAGSV,2,1,08,21,55,015,42,13,54,077,40,26,46,171,42,27,28,082,18,7*75
$GAGSV,2,2,08,19,26,239,,15,12,038,19,04,12,297,16,33,06,199,,7*70
$GAGSV,2,1,05,21,55,015,43,13,54,077,44,26,46,171,44,27,28,082,18,1*7D
$GAGSV,2,2,05,15,12,038,22,1*4C
$GBGSV,4,1,14,23,75,039,46,09,72,262,41,06,70,214,41,16,67,199,45,1*77
$GBGSV,4,2,14,07,60,310,42,40,60,330,41,28,58,224,46,39,56,188,44,1*7E
$GBGSV,4,3,14,43,56,036,44,10,51,291,23,25,36,120,38,37,32,322,44,1*77
$GBGSV,4,4,14,34,10,040,23,08,02,177,,1*7B
$GBGSV,2,1,08,23,75,039,47,40,60,330,43,28,58,224,43,39,56,188,42,4*7D
$GBGSV,2,2,08,43,56,036,42,25,36,120,25,37,32,322,45,34,10,040,29,4*74
$GNACCURACY,3.7*12
$PAIRSAT,1,35,2,0,201,3,0,200,4,0,221,5,0,200,6,0,200,7,0,201,8,0,221,9,0,220,10,0,200,11,0,200,12,0,200,13,0,200,14,0,200,15,0,200,16,0,201,17,0,200,18,0,200,19,0,200,20,0,200,21,0,201,22,0,200,23,0,200,24,0,200,25,0,200,26,0,220,27,0,221,28,0,200,29,0,200,30,0,221,31,0,200,32,0,200,194,0,621,195,0,621,196,0,620,199,0,621*5A
$PAIRSAT,2,24,65,0,200,66,0,200,67,0,200,68,0,200,69,0,200,70,0,200,71,0,200,72,0,200,73,0,200,74,0,200,75,0,200,76,0,200,77,0,201,78,0,201,79,0,201,80,0,200,81,0,201,82,0,201,83,0,200,84,0,200,85,0,200,86,0,200,87,0,201,88,0,201*7B
$PAIRSAT,3,23,2,0,1200,3,0,1200,4,0,1200,5,0,200,7,0,1200,8,0,1200,9,0,1200,10,0,1200,11,0,1200,12,0,1200,13,0,1221,15,0,1220,19,0,1201,21,0,1221,24,0,1200,25,0,1200,26,0,1221,27,0,1221,30,0,1200,31,0,1200,33,0,1200,34,0,1000,36,0,1200*6B
$PAIRSAT,4,46,1,0,200,2,0,200,3,0,600,4,0,200,5,0,200,6,0,201,7,0,201,8,0,200,9,0,201,10,0,201,11,0,200,12,0,200,13,0,200,14,0,200,16,0,201,19,0,600,20,0,600,21,0,600,22,0,600,23,0,621,24,0,600,25,0,621,26,0,600,27,0,600,28,0,621,29,0,600,30,0,600,32,0,600,33,0,600,34,0,621,35,0,600,36,0,600,37,0,621,38,0,600,39,0,621,40,0,621,41,0,600,42,0,600,43,0,621,44,0,400,45,0,400,46,0,400,59,0,400,60,0,400,61,0,400,62,0,400*4A
$PAIRDGP,10,2,4,7,8,9,16,21,26,27,30*42
$GNGGA,041434.200,2500.7893396,N,12132.4438326,E,4,55,0.52,16.757,M,15.25,M,1,3335*43
$GNRMC,041434.200,A,2500.7893396,N,12132.4438326,E,0.01,317.96,090324,,,R,V*1B
$GPHDT,228.317,T*38
$GNACCURACY,3.6*13
$GNGGA,041434.300,2500.7893388,N,12132.4438295,E,4,55,0.52,16.741,M,15.25,M,1,3335*43
$GNRMC,041434.300,A,2500.7893388,N,12132.4438295,E,0.01,317.96,090324,,,R,V*1C
$GPHDT,,T*1B
$GNACCURACY,3.6*13
$GNGGA,041434.400,2500.7893411,N,12132.4438308,E,4,55,0.52,16.772,M,15.25,M,0,3335*47
$GNRMC,041434.400,A,2500.7893411,N,12132.4438308,E,0.01,317.96,090324,,,R,V*19
$GPHDT,228.153,T*3A
$GNACCURACY,3.6*13
$GNGGA,041434.500,2500.7893426,N,12132.4438286,E,4,55,0.52,16.759,M,15.25,M,0,3335*4C
$GNRMC,041434.500,A,2500.7893426,N,12132.4438286,E,0.01,317.96,090324,,,R,V*1B
$GPHDT,,T*1B
$GNACCURACY,3.6*13
$GNGGA,041434.600,2500.7893408,N,12132.4438299,E,4,55,0.52,16.768,M,15.25,M,0,3335*4F
$GNRMC,041434.600,A,2500.7893408,N,12132.4438299,E,0.01,317.96,090324,,,R,V*1A
$GPHDT,228.300,T*3E
$GNACCURACY,3.6*13
$GNGGA,041434.700,2500.7893418,N,12132.4438323,E,4,55,0.52,16.773,M,15.25,M,0,3335*45
$GNRMC,041434.700,A,2500.7893418,N,12132.4438323,E,0.01,317.96,090324,,,R,V*1A
$GPHDT,,T*1B
$GNACCURACY,3.6*13
$GNGGA,041434.800,2500.7893428,N,12132.4438286,E,4,54,0.52,16.768,M,15.25,M,0,3335*4C
$GNRMC,041434.800,A,2500.7893428,N,12132.4438286,E,0.01,317.96,090324,,,R,V*18
$GPHDT,227.990,T*32
$GNACCURACY,3.6*13
$GNGGA,041434.900,2500.7893408,N,12132.4438315,E,4,54,0.52,16.768,M,15.25,M,0,3335*44
$GNRMC,041434.900,A,2500.7893408,N,12132.4438315,E,0.01,317.96,090324,,,R,V*10
$GPHDT,,T*1B
$GNACCURACY,3.6*13
$GNGGA,041435.000,2500.7893421,N,12132.4438300,E,4,54,0.52,16.764,M,15.25,M,1,3335*4E
$GNRMC,041435.000,A,2500.7893421,N,12132.4438300,E,0.01,317.96,090324,,,R,V*17
$GPHDT,228.176,T*3D
$GNACCURACY,3.6*13
$GNGGA,041435.100,2500.7893419,N,12132.4438298,E,4,53,0.52,16.768,M,15.25,M,1,3335*4F
$GNRMC,041435.100,A,2500.7893419,N,12132.4438298,E,0.01,317.96,090324,,,R,V*1D
$GPHDT,,T*1B
$GNGSA,A,3,195,194,21,08,199,02,07,27,196,04,30,,0.86,0.52,0.69,1*05
$GNGSA,A,3,81,78,88,79,77,82,,,,,,,0.86,0.52,0.69,2*06
$GNGSA,A,3,21,13,26,27,15,,,,,,,,0.86,0.52,0.69,3*01
$GNGSA,A,3,23,09,06,16,07,40,28,39,43,10,25,37,0.86,0.52,0.69,4*0D
$GNGSA,A,3,34,,,,,,,,,,,,0.86,0.52,0.69,4*05
$GPGSV,4,1,15,195,65,113,43,194,64,053,38,21,63,153,43,08,61,359,42,1*6C
$GPGSV,4,2,15,199,60,167,36,50,60,167,39,02,51,176,42,07,43,315,44,1*5A
$GPGSV,4,3,15,27,31,037,44,16,26,078,18,09,22,244,17,196,19,169,17,1*52
$GPGSV,4,4,15,04,16,201,34,30,13,320,29,26,07,101,18,1*56
$GPGSV,2,1,08,195,65,113,44,194,64,053,44,08,61,359,47,199,60,167,47,8*54
$GPGSV,2,2,08,27,31,037,44,04,16,201,35,30,13,320,36,26,07,101,13,8*64
$GLGSV,2,1,07,81,68,204,42,78,58,043,43,88,52,030,42,79,28,335,45,1*7B
$GLGSV,2,2,07,77,22,113,22,82,18,205,34,69,03,278,,1*4E
$GAGSV,2,1,08,21,55,015,42,13,54,077,40,26,46,171,42,27,28,082,20,7*7E
$GAGSV,2,2,08,19,26,239,,15,12,038,19,04,12,297,15,33,06,199,,7*73
$GAGSV,1,1,04,21,55,015,43,13,54,077,44,26,46,171,44,15,12,038,21,1*7C
$GBGSV,4,1,14,23,75,039,46,09,72,262,41,06,70,214,41,16,67,199,45,1*77
$GBGSV,4,2,14,07,60,310,42,40,60,330,41,28,58,224,46,39,56,188,44,1*7E
$GBGSV,4,3,14,43,56,036,44,10,51,291,23,25,36,120,38,37,32,322,44,1*77
$GBGSV,4,4,14,34,10,040,22,08,02,177,,1*7A
$GBGSV,2,1,08,23,75,039,47,40,60,330,42,28,58,224,43,39,56,188,42,4*7C
$GBGSV,2,2,08,43,56,036,42,25,36,120,25,37,32,322,45,34,10,040,29,4*74
$GNACCURACY,3.6*13
$PAIRSAT,1,35,2,0,201,3,0,200,4,0,221,5,0,200,6,0,200,7,0,201,8,0,221,9,0,220,10,0,200,11,0,200,12,0,200,13,0,200,14,0,200,15,0,200,16,0,201,17,0,200,18,0,200,19,0,200,20,0,200,21,0,201,22,0,200,23,0,200,24,0,200,25,0,200,26,0,220,27,0,221,28,0,200,29,0,200,30,0,221,31,0,200,32,0,200,194,0,621,195,0,621,196,0,620,199,0,621*5A
$PAIRSAT,2,24,65,0,200,66,0,200,67,0,200,68,0,200,69,0,200,70,0,200,71,0,200,72,0,200,73,0,200,74,0,200,75,0,200,76,0,200,77,0,201,78,0,201,79,0,201,80,0,200,81,0,201,82,0,201,83,0,200,84,0,200,85,0,200,86,0,200,87,0,201,88,0,201*7B
$PAIRSAT,3,23,2,0,1200,3,0,1200,4,0,1200,5,0,200,7,0,1200,8,0,1200,9,0,1200,10,0,1200,11,0,1200,12,0,1200,13,0,1221,15,0,1220,19,0,1201,21,0,1221,24,0,1200,25,0,1200,26,0,1221,27,0,1221,30,0,1200,31,0,1200,33,0,1200,34,0,1000,36,0,1200*6B
$PAIRSAT,4,46,1,0,200,2,0,200,3,0,600,4,0,200,5,0,200,6,0,201,7,0,201,8,0,200,9,0,201,10,0,201,11,0,200,12,0,200,13,0,200,14,0,200,16,0,201,19,0,600,20,0,600,21,0,600,22,0,600,23,0,621,24,0,600,25,0,621,26,0,600,27,0,600,28,0,621,29,0,600,30,0,600,32,0,600,33,0,600,34,0,621,35,0,600,36,0,600,37,0,621,38,0,600,39,0,621,40,0,621,41,0,600,42,0,600,43,0,621,44,0,400,45,0,400,46,0,400,59,0,400,60,0,400,61,0,400,62,0,400*4A
$PAIRDGP,10,2,4,7,8,9,16,21,26,27,30*42
$GNGGA,041435.200,2500.7893416,N,12132.4438283,E,4,53,0.52,16.763,M,15.25,M,1,3335*42
$GNRMC,041435.200,A,2500.7893416,N,12132.4438283,E,0.01,317.96,090324,,,R,V*1B
$GPHDT,228.267,T*3E
$GNACCURACY,3.6*13
$GNGGA,041435.300,2500.7893429,N,12132.4438297,E,4,53,0.52,16.772,M,15.25,M,1,3335*4A
$GNRMC,041435.300,A,2500.7893429,N,12132.4438297,E,0.01,317.96,090324,,,R,V*13
$GPHDT,,T*1B
$GNACCURACY,3.6*13
$GNGGA,041435.400,2500.7893413,N,12132.4438308,E,4,53,0.52,16.767,M,15.25,M,1,3335*47
$GNRMC,041435.400,A,2500.7893413,N,12132.4438308,E,0.01,317.96,090324,,,R,V*1A
$GPHDT,228.420,T*3B
$GNACCURACY,3.6*13
$GNGGA,041435.500,2500.7893407,N,12132.4438312,E,4,55,0.52,16.764,M,15.25,M,1,3335*4D
$GNRMC,041435.500,A,2500.7893407,N,12132.4438312,E,0.01,317.96,090324,,,R,V*15
$GPHDT,,T*1B
$GNACCURACY,3.6*13
$GNGGA,041435.600,2500.7893426,N,12132.4438310,E,4,55,0.52,16.775,M,15.25,M,0,3335*4E
$GNRMC,041435.600,A,2500.7893426,N,12132.4438310,E,0.01,317.96,090324,,,R,V*17
$GPHDT,228.668,T*35
$GNACCURACY,3.6*13
$GNGGA,041435.700,2500.7893427,N,12132.4438299,E,4,55,0.52,16.770,M,15.25,M,0,3335*4B
$GNRMC,041435.700,A,2500.7893427,N,12132.4438299,E,0.01,317.96,090324,,,R,V*17
$GPHDT,,T*1B
$GNACCURACY,3.6*13
$GNGGA,041435.800,2500.7893416,N,12132.4438303,E,4,55,0.52,16.772,M,15.25,M,0,3335*46
$GNRMC,041435.800,A,2500.7893416,N,12132.4438303,E,0.01,317.96,090324,,,R,V*18
$GPHDT,228.233,T*3F
$GNACCURACY,3.6*13
$GNGGA,041435.900,2500.7893413,N,12132.4438293,E,4,55,0.52,16.770,M,15.25,M,0,3335*48
$GNRMC,041435.900,A,2500.7893413,N,12132.4438293,E,0.01,317.96,090324,,,R,V*14
$GPHDT,,T*1B
$GNACCURACY,3.6*13
$GNGGA,041436.000,2500.7893425,N,12132.4438301,E,4,55,0.52,16.772,M,15.25,M,1,3335*4E
$GNRMC,041436.000,A,2500.7893425,N,12132.4438301,E,0.01,317.96,090324,,,R,V*11
$GPHDT,228.387,T*31
$GNACCURACY,3.6*13
$GNGGA,041436.100,2500.7893412,N,12132.4438307,E,4,55,0.52,16.773,M,15.25,M,1,3335*4C
$GNRMC,041436.100,A,2500.7893412,N,12132.4438307,E,0.01,317.96,090324,,,R,V*12
$GPHDT,,T*1B
$GNGSA,A,3,195,194,21,08,199,02,07,27,196,04,30,,0.86,0.52,0.69,1*05
$GNGSA,A,3,81,78,88,79,77,82,,,,,,,0.86,0.52,0.69,2*06
$GNGSA,A,3,21,13,26,27,15,,,,,,,,0.86,0.52,0.69,3*01
$GNGSA,A,3,23,09,06,16,07,40,28,43,39,10,25,37,0.86,0.52,0.69,4*0D
$GNGSA,A,3,34,,,,,,,,,,,,0.86,0.52,0.69,4*05
$GPGSV,4,1,15,195,65,113,43,194,64,053,38,21,63,153,44,08,61,359,42,1*6B
$GPGSV,4,2,15,199,60,167,36,50,60,167,39,02,51,176,42,07,43,315,44,1*5A
$GPGSV,4,3,15,27,31,037,44,16,26,078,21,09,22,244,18,196,19,169,17,1*57
$GPGSV,4,4,15,04,16,201,34,30,13,320,28,26,07,101,17,1*58
$GPGSV,3,1,09,195,65,113,44,194,64,053,44,08,61,359,47,199,60,167,47,8*54
$GPGSV,3,2,09,27,31,037,44,196,19,169,20,04,16,201,35,30,13,320,36,8*5F
$GPGSV,3,3,09,26,07,101,12,8*54
$GLGSV,2,1,07,81,68,204,42,78,58,043,43,88,52,030,42,79,28,336,45,1*78
$GLGSV,2,2,07,77,22,113,21,82,18,206,34,69,03,278,,1*4E
$GAGSV,2,1,08,21,55,015,42,13,54,077,40,26,46,171,42,27,28,082,20,7*7E
$GAGSV,2,2,08,19,26,239,,15,12,038,19,04,12,297,15,33,06,199,,7*73
$GAGSV,2,1,05,21,55,015,43,13,54,077,44,26,46,171,44,27,28,082,20,1*76
$GAGSV,2,2,05,15,12,038,22,1*4C
$GBGSV,4,1,13,23,75,039,46,09,72,262,41,06,70,214,41,16,67,199,45,1*70
$GBGSV,4,2,13,07,60,310,42,40,60,330,41,28,58,224,46,43,56,036,44,1*70
$GBGSV,4,3,13,39,56,188,44,10,51,291,23,25,36,120,38,37,32,322,44,1*79
$GBGSV,4,4,13,34,10,040,22,1*46
$GBGSV,2,1,08,23,75,039,47,40,60,330,42,28,58,224,43,39,56,188,42,4*7C
$GBGSV,2,2,08,43,56,036,42,25,36,120,25,37,32,322,45,34,10,040,28,4*75
$GNACCURACY,3.6*13
$PAIRSAT,1,35,2,0,201,3,0,200,4,0,221,5,0,200,6,0,200,7,0,201,8,0,221,9,0,220,10,0,200,11,0,200,12,0,200,13,0,200,14,0,200,15,0,200,16,0,201,17,0,200,18,0,200,19,0,200,20,0,200,21,0,201,22,0,200,23,0,200,24,0,200,25,0,200,26,0,220,27,0,221,28,0,200,29,0,200,30,0,221,31,0,200,32,0,200,194,0,621,195,0,621,196,0,620,199,0,621*5A
$PAIRSAT,2,24,65,0,200,66,0,200,67,0,200,68,0,200,69,0,200,70,0,200,71,0,200,72,0,200,73,0,200,74,0,200,75,0,200,76,0,200,77,0,201,78,0,201,79,0,201,80,0,200,81,0,201,82,0,201,83,0,200,84,0,200,85,0,200,86,0,200,87,0,201,88,0,201*7B
$PAIRSAT,3,23,2,0,1200,3,0,1200,4,0,1200,5,0,200,7,0,1200,8,0,1200,9,0,1200,10,0,1200,11,0,1200,12,0,1200,13,0,1221,15,0,1220,19,0,1201,21,0,1221,24,0,1200,25,0,1200,26,0,1221,27,0,1221,30,0,1200,31,0,1200,33,0,1200,34,0,1000,36,0,1200*6B
$PAIRSAT,4,46,1,0,200,2,0,200,3,0,600,4,0,200,5,0,200,6,0,201,7,0,201,8,0,200,9,0,201,10,0,201,11,0,200,12,0,200,13,0,200,14,0,200,16,0,201,19,0,600,20,0,600,21,0,600,22,0,600,23,0,621,24,0,600,25,0,621,26,0,600,27,0,600,28,0,621,29,0,600,30,0,600,32,0,600,33,0,600,34,0,621,35,0,600,36,0,600,37,0,621,38,0,600,39,0,621,40,0,621,41,0,600,42,0,600,43,0,621,44,0,400,45,0,400,46,0,400,59,0,400,60,0,400,61,0,400,62,0,400*4A
$PAIRDGP,10,2,4,7,8,9,16,21,26,27,30*42
$GNGGA,041436.200,2500.7893423,N,12132.4438319,E,4,55,0.52,16.780,M,15.25,M,1,3335*4E
$GNRMC,041436.200,A,2500.7893423,N,12132.4438319,E,0.01,317.96,090324,,,R,V*1C
$GPHDT,227.988,T*3B
$GNACCURACY,3.6*13
$GNGGA,041436.300,2500.7893409,N,12132.4438317,E,4,56,0.50,16.767,M,15.25,M,1,3335*41
$GNRMC,041436.300,A,2500.7893409,N,12132.4438317,E,0.01,317.96,090324,,,R,V*1B
$GPHDT,,T*1B
$GNACCURACY,3.6*13
$GNGGA,041436.400,2500.7893422,N,12132.4438330,E,4,55,0.52,16.772,M,15.25,M,1,3335*4F
$GNRMC,041436.400,A,2500.7893422,N,12132.4438330,E,0.01,317.96,090324,,,R,V*10
$GPHDT,228.062,T*39
$GNACCURACY,3.6*13
$GNGGA,041436.500,2500.7893428,N,12132.4438327,E,4,55,0.52,16.775,M,15.25,M,1,3335*45
$GNRMC,041436.500,A,2500.7893428,N,12132.4438327,E,0.01,317.96,090324,,,R,V*1D
$GPHDT,,T*1B
$GNACCURACY,3.6*13
$GNGGA,041436.600,2500.7893418,N,12132.4438314,E,4,54,0.52,16.782,M,15.25,M,1,3335*4C
$GNRMC,041436.600,A,2500.7893418,N,12132.4438314,E,0.01,317.96,090324,,,R,V*1D
$GPHDT,228.000,T*3D
$GNACCURACY,3.6*13
$GNGGA,041436.700,2500.7893418,N,12132.4438306,E,4,55,0.50,16.776,M,15.25,M,1,3335*46
$GNRMC,041436.700,A,2500.7893418,N,12132.4438306,E,0.01,317.96,090324,,,R,V*1F
$GPHDT,,T*1B
$GNACCURACY,3.6*13
$GNGGA,041436.800,2500.7893404,N,12132.4438304,E,4,55,0.50,16.777,M,15.25,M,0,3335*46
$GNRMC,041436.800,A,2500.7893404,N,12132.4438304,E,0.01,317.96,090324,,,R,V*1F
$GPHDT,228.020,T*3F
$GNACCURACY,3.6*13
$GNGGA,041436.900,2500.7893393,N,12132.4438299,E,4,55,0.50,16.769,M,15.25,M,0,3335*44
$GNRMC,041436.900,A,2500.7893393,N,12132.4438299,E,0.00,317.96,090324,,,R,V*13
$GPHDT,,T*1B
$GNACCURACY,3.6*13
$GNGGA,041437.000,2500.7893394,N,12132.4438313,E,4,55,0.50,16.776,M,15.25,M,1,3335*47
$GNRMC,041437.000,A,2500.7893394,N,12132.4438313,E,0.01,317.96,090324,,,R,V*1E
$GPHDT,228.802,T*37
$GNACCURACY,3.6*13
$GNGGA,041437.100,2500.7893401,N,12132.4438313,E,4,55,0.50,16.774,M,15.25,M,1,3335*4F
$GNRMC,041437.100,A,2500.7893401,N,12132.4438313,E,0.01,317.96,090324,,,R,V*14
$GPHDT,,T*1B
$GNGSA,A,3,195,194,21,08,199,02,07,27,16,196,04,30,0.85,0.50,0.69,1*03
$GNGSA,A,3,81,78,88,79,77,82,,,,,,,0.85,0.50,0.69,2*07
$GNGSA,A,3,21,13,26,27,15,,,,,,,,0.85,0.50,0.69,3*00
$GNGSA,A,3,23,09,06,16,07,40,28,43,39,10,25,37,0.85,0.50,0.69,4*0C
$GNGSA,A,3,34,,,,,,,,,,,,0.85,0.50,0.69,4*04
$GPGSV,4,1,15,195,65,113,43,194,64,053,40,21,63,153,44,08,61,359,43,1*65
$GPGSV,4,2,15,199,60,167,36,50,60,167,39,02,51,176,42,07,43,315,44,1*5A
$GPGSV,4,3,15,27,31,037,44,16,26,078,24,09,22,244,16,196,19,169,18,1*53
$GPGSV,4,4,15,04,16,201,33,30,13,320,30,26,07,101,16,1*57
$GPGSV,2,1,07,195,65,113,43,194,64,053,44,08,61,359,45,199,60,167,47,8*5E
$GPGSV,2,2,07,27,31,037,44,04,16,201,35,30,13,320,36,8*5A
$GLGSV,2,1,06,81,68,204,42,78,58,043,43,88,52,030,42,79,28,336,45,1*79
$GLGSV,2,2,06,77,22,113,20,82,18,206,33,1*78
$GAGSV,2,1,08,21,55,015,43,13,54,077,40,26,46,171,42,27,28,082,23,7*7C
$GAGSV,2,2,08,19,26,239,,15,12,038,19,04,12,297,13,33,06,199,,7*75
$GAGSV,2,1,05,21,55,015,43,13,54,077,44,26,46,171,44,27,28,082,21,1*77
$GAGSV,2,2,05,15,12,038,22,1*4C
$GBGSV,4,1,13,23,75,039,46,09,72,262,41,06,70,214,42,16,67,199,44,1*72
$GBGSV,4,2,13,07,60,310,42,40,60,330,41,28,58,224,46,43,56,036,43,1*77
$GBGSV,4,3,13,39,56,188,44,10,51,291,23,25,36,120,38,37,32,322,44,1*79
$GBGSV,4,4,13,34,10,040,22,1*46
$GBGSV,2,1,08,23,75,039,47,40,60,330,43,28,58,224,43,43,56,036,43,4*75
$GBGSV,2,2,08,39,56,188,42,25,36,120,23,37,32,322,44,34,10,040,29,4*7A
$GNACCURACY,3.6*13
$PAIRSAT,1,35,2,0,201,3,0,200,4,0,221,5,0,200,6,0,200,7,0,201,8,0,221,9,0,220,10,0,200,11,0,200,12,0,200,13,0,200,14,0,200,15,0,200,16,0,201,17,0,200,18,0,200,19,0,200,20,0,200,21,0,201,22,0,200,23,0,200,24,0,200,25,0,200,26,0,220,27,0,221,28,0,200,29,0,200,30,0,221,31,0,200,32,0,200,194,0,621,195,0,621,196,0,620,199,0,621*5A
$PAIRSAT,2,24,65,0,200,66,0,200,67,0,200,68,0,200,69,0,200,70,0,200,71,0,200,72,0,200,73,0,200,74,0,200,75,0,200,76,0,200,77,0,201,78,0,201,79,0,201,80,0,200,81,0,201,82,0,201,83,0,200,84,0,200,85,0,200,86,0,200,87,0,201,88,0,201*7B
$PAIRSAT,3,23,2,0,1200,3,0,1200,4,0,1200,5,0,200,7,0,1200,8,0,1200,9,0,1200,10,0,1200,11,0,1200,12,0,1200,13,0,1221,15,0,1220,19,0,1201,21,0,1221,24,0,1200,25,0,1200,26,0,1221,27,0,1221,30,0,1200,31,0,1200,33,0,1200,34,0,1000,36,0,1200*6B
$PAIRSAT,4,46,1,0,200,2,0,200,3,0,600,4,0,200,5,0,200,6,0,201,7,0,201,8,0,200,9,0,201,10,0,201,11,0,200,12,0,200,13,0,200,14,0,200,16,0,201,19,0,600,20,0,600,21,0,600,22,0,600,23,0,621,24,0,600,25,0,621,26,0,600,27,0,600,28,0,621,29,0,600,30,0,600,32,0,600,33,0,600,34,0,621,35,0,600,36,0,600,37,0,621,38,0,600,39,0,621,40,0,621,41,0,600,42,0,600,43,0,621,44,0,400,45,0,400,46,0,400,59,0,400,60,0,400,61,0,400,62,0,400*4A
$PAIRDGP,10,2,4,7,8,9,16,21,26,27,30*42
$GNGGA,041437.200,2500.7893396,N,12132.4438303,E,4,55,0.50,16.766,M,15.25,M,1,3335*47
$GNRMC,041437.200,A,2500.7893396,N,12132.4438303,E,0.01,317.96,090324,,,R,V*1F
$GPHDT,228.718,T*33
$GNACCURACY,3.6*13
$GNGGA,041437.300,2500.7893386,N,12132.4438307,E,4,56,0.50,16.769,M,15.25,M,1,3335*4F
$GNRMC,041437.300,A,2500.7893386,N,12132.4438307,E,0.01,317.96,090324,,,R,V*1B
$GPHDT,,T*1B
$GNACCURACY,3.6*13
$GNGGA,041437.400,2500.7893389,N,12132.4438307,E,4,56,0.50,16.775,M,15.25,M,0,3335*4B
$GNRMC,041437.400,A,2500.7893389,N,12132.4438307,E,0.01,317.96,090324,,,R,V*13
$GPHDT,229.085,T*31
$GNACCURACY,3.6*13
$GNGGA,041437.500,2500.7893389,N,12132.4438283,E,4,56,0.50,16.774,M,15.25,M,0,3335*46
$GNRMC,041437.500,A,2500.7893389,N,12132.4438283,E,0.01,317.96,090324,,,R,V*1F
$GPHDT,,T*1B
$GNACCURACY,3.6*13
$GNGGA,041437.600,2500.7893386,N,12132.4438299,E,4,56,0.50,16.773,M,15.25,M,0,3335*46
$GNRMC,041437.600,A,2500.7893386,N,12132.4438299,E,0.01,317.96,090324,,,R,V*18
$GPHDT,228.925,T*33
$GNACCURACY,3.6*13
$GNGGA,041437.700,2500.7893378,N,12132.4438304,E,4,56,0.50,16.766,M,15.25,M,0,3335*47
$GNRMC,041437.700,A,2500.7893378,N,12132.4438304,E,0.01,317.96,090324,,,R,V*1D
$GPHDT,,T*1B
$GNACCURACY,3.6*13
$GNGGA,041437.800,2500.7893374,N,12132.4438304,E,4,56,0.50,16.773,M,15.25,M,0,3335*40
$GNRMC,041437.800,A,2500.7893374,N,12132.4438304,E,0.01,317.96,090324,,,R,V*1E
$GPHDT,228.868,T*3B
$GNACCURACY,3.6*13
$GNGGA,041437.900,2500.7893397,N,12132.4438298,E,4,56,0.50,16.774,M,15.25,M,0,3335*4F
$GNRMC,041437.900,A,2500.7893397,N,12132.4438298,E,0.00,317.96,090324,,,R,V*17
$GPHDT,,T*1B
$GNACCURACY,3.6*13
$GNGGA,041438.000,2500.7893385,N,12132.4438308,E,4,56,0.50,16.769,M,15.25,M,1,3335*4F
$GNRMC,041438.000,A,2500.7893385,N,12132.4438308,E,0.00,317.96,090324,,,R,V*1A
$GPHDT,228.495,T*35
