$FW : RTK35X,V1.1X0314AS,Lib20210517,1*54
$Tool : LOCOSYS , GNSS Firebird , v1.0.0.19*39
$---------------------------------------------------*2D
$GPHDT,,T*1B
$GNACCURACY,3.7*12
$GNGGA,041350.000,2500.7893477,N,12132.4438246,E,4,54,0.50,16.817,M,15.25,M,1,3335*43
$GNRMC,041350.000,A,2500.7893477,N,12132.4438246,E,0.01,317.96,090324,,,R,V*13
$GPHDT,44.902,T*0E
$GNACCURACY,3.7*12
$GNGGA,041350.100,2500.7893481,N,12132.4438234,E,4,54,0.50,16.814,M,15.25,M,1,3335*4D
$GNRMC,041350.100,A,2500.7893481,N,12132.4438234,E,0.01,317.96,090324,,,R,V*1E
$GPHDT,,T*1B
$GNGSA,A,3,195,194,21,08,199,02,07,27,16,196,04,30,0.74,0.50,0.55,1*02
$GNGSA,A,3,09,,,,,,,,,,,,0.74,0.50,0.55,1*0E
$GNGSA,A,3,81,78,88,79,77,82,,,,,,,0.74,0.50,0.55,2*06
$GNGSA,A,3,21,13,26,27,15,,,,,,,,0.74,0.50,0.55,3*01
$GNGSA,A,3,23,09,06,16,07,40,43,28,39,37,25,34,0.74,0.50,0.55,4*0B
$GPGSV,4,1,15,195,65,113,41,194,64,053,39,21,62,153,45,08,61,358,42,1*69
$GPGSV,4,2,15,199,60,167,37,50,60,167,40,02,50,176,44,07,43,315,39,1*58
$GPGSV,4,3,15,27,31,037,44,16,26,077,34,09,22,244,20,196,19,169,23,1*50
$GPGSV,4,4,15,04,16,201,35,30,13,320,27,26,07,101,19,1*58
$GPGSV,3,1,09,195,65,113,43,194,64,053,44,08,61,358,46,199,60,167,43,8*57
$GPGSV,3,2,09,27,31,037,44,09,22,244,16,04,16,201,33,30,13,320,17,8*6C
$GPGSV,3,3,09,26,07,101,14,8*52
$GLGSV,2,1,07,81,67,203,43,78,57,042,43,88,53,030,44,79,28,335,32,1*7B
$GLGSV,2,2,07,77,22,113,17,82,18,205,29,87,01,026,,1*4F
$GAGSV,2,1,08,21,55,014,42,13,54,077,37,26,46,172,44,27,28,081,31,7*79
$GAGSV,2,2,08,19,26,239,,15,12,038,26,04,12,297,16,33,05,199,,7*7F
$GAGSV,2,1,05,21,55,014,44,13,54,077,39,26,46,172,45,27,28,081,16,1*7E
$GAGSV,2,2,05,15,12,038,21,1*4F
$GBGSV,4,1,13,23,75,037,45,09,72,263,41,06,70,214,44,16,67,199,44,1*78
$GBGSV,4,2,13,07,60,309,37,40,60,330,41,43,57,036,46,28,57,223,44,1*73
$GBGSV,4,3,13,39,56,188,44,10,51,291,18,25,36,119,,37,32,322,37,1*74
$GBGSV,4,4,13,34,10,040,,1*46
$GBGSV,2,1,08,23,75,037,47,40,60,330,42,43,57,036,44,28,57,223,45,4*72
$GBGSV,2,2,08,39,56,188,40,25,36,119,33,37,32,322,38,34,10,040,25,4*74
$GNACCURACY,3.7*12
$PAIRSAT,1,35,2,0,201,3,0,200,4,0,221,5,0,200,6,0,200,7,0,201,8,0,221,9,0,220,10,0,200,11,0,200,12,0,200,13,0,200,14,0,200,15,0,200,16,0,201,17,0,200,18,0,200,19,0,200,20,0,200,21,0,201,22,0,200,23,0,200,24,0,200,25,0,200,26,0,220,27,0,221,28,0,200,29,0,200,30,0,221,31,0,200,32,0,200,194,0,621,195,0,621,196,0,620,199,0,621*5A
$PAIRSAT,2,24,65,0,200,66,0,200,67,0,200,68,0,200,69,0,200,70,0,200,71,0,200,72,0,200,73,0,200,74,0,200,75,0,200,76,0,200,77,0,201,78,0,201,79,0,201,80,0,200,81,0,201,82,0,201,83,0,200,84,0,200,85,0,200,86,0,200,87,0,201,88,0,201*7B
$PAIRSAT,3,23,2,0,1200,3,0,1200,4,0,1200,5,0,200,7,0,1200,8,0,1200,9,0,1200,10,0,1200,11,0,1200,12,0,1200,13,0,1221,15,0,1220,19,0,1201,21,0,1221,24,0,1200,25,0,1200,26,0,1221,27,0,1221,30,0,1200,31,0,1200,33,0,1200,34,0,1000,36,0,1200*6B
$PAIRSAT,4,46,1,0,200,2,0,200,3,0,600,4,0,200,5,0,200,6,0,201,7,0,201,8,0,200,9,0,201,10,0,201,11,0,200,12,0,200,13,0,200,14,0,200,16,0,201,19,0,600,20,0,600,21,0,600,22,0,600,23,0,621,24,0,600,25,0,621,26,0,600,27,0,600,28,0,621,29,0,600,30,0,600,32,0,600,33,0,600,34,0,621,35,0,600,36,0,600,37,0,621,38,0,600,39,0,621,40,0,621,41,0,600,42,0,600,43,0,621,44,0,400,45,0,400,46,0,400,59,0,400,60,0,400,61,0,400,62,0,400*4A
$PAIRDGP,10,2,4,7,8,9,16,21,26,27,30*42
$GNGGA,041350.200,2500.7893472,N,12132.4438253,E,4,54,0.50,16.818,M,15.25,M,1,3335*4F
$GNRMC,041350.200,A,2500.7893472,N,12132.4438253,E,0.01,317.96,090324,,,R,V*10
$GPHDT,45.214,T*03
$GNACCURACY,3.7*12
$GNGGA,041350.300,2500.7893492,N,12132.4438270,E,4,54,0.50,16.832,M,15.25,M,1,3335*49
$GNRMC,041350.300,A,2500.7893492,N,12132.4438270,E,0.01,317.96,090324,,,R,V*1E
$GPHDT,,T*1B
$GNACCURACY,3.7*12
$GNGGA,041350.400,2500.7893492,N,12132.4438254,E,4,54,0.50,16.824,M,15.25,M,1,3335*4F
$GNRMC,041350.400,A,2500.7893492,N,12132.4438254,E,0.01,317.96,090324,,,R,V*1F
$GPHDT,45.995,T*01
$GNACCURACY,3.7*12
$GNGGA,041350.500,2500.7893485,N,12132.4438291,E,4,54,0.50,16.830,M,15.25,M,1,3335*44
$GNRMC,041350.500,A,2500.7893485,N,12132.4438291,E,0.01,317.96,090324,,,R,V*11
$GPHDT,,T*1B
$GNACCURACY,3.7*12
$GNGGA,041350.600,2500.7893475,N,12132.4438278,E,4,54,0.50,16.845,M,15.25,M,0,3335*4C
$GNRMC,041350.600,A,2500.7893475,N,12132.4438278,E,0.01,317.96,090324,,,R,V*1A
$GPHDT,45.716,T*04
$GNACCURACY,3.7*12
$GNGGA,041350.700,2500.7893471,N,12132.4438262,E,4,54,0.50,16.836,M,15.25,M,0,3335*46
$GNRMC,041350.700,A,2500.7893471,N,12132.4438262,E,0.02,317.96,090324,,,R,V*17
$GPHDT,,T*1B
$GNACCURACY,3.7*12
$GNGGA,041350.800,2500.7893478,N,12132.4438288,E,4,54,0.50,16.845,M,15.25,M,0,3335*40
$GNRMC,041350.800,A,2500.7893478,N,12132.4438288,E,0.01,317.96,090324,,,R,V*16
$GPHDT,45.713,T*01
$GNACCURACY,3.7*12
$GNGGA,041350.900,2500.7893472,N,12132.4438285,E,4,54,0.50,16.841,M,15.25,M,0,3335*42
$GNRMC,041350.900,A,2500.7893472,N,12132.4438285,E,0.02,317.96,090324,,,R,V*13
$GPHDT,,T*1B
$GNACCURACY,3.7*12
$GNGGA,041351.000,2500.7893462,N,12132.4438286,E,4,54,0.50,16.853,M,15.25,M,1,3335*4A
$GNRMC,041351.000,A,2500.7893462,N,12132.4438286,E,0.02,317.96,090324,,,R,V*19
$GPHDT,45.842,T*0A
$GNACCURACY,3.7*12
$GNGGA,041351.100,2500.7893469,N,12132.4438274,E,4,54,0.50,16.845,M,15.25,M,1,3335*4A
$GNRMC,041351.100,A,2500.7893469,N,12132.4438274,E,0.02,317.96,090324,,,R,V*1E
$GPHDT,,T*1B
$GNGSA,A,3,195,194,21,08,199,02,07,27,16,196,04,30,0.74,0.50,0.55,1*02
$GNGSA,A,3,09,,,,,,,,,,,,0.74,0.50,0.55,1*0E
$GNGSA,A,3,81,78,88,79,77,82,,,,,,,0.74,0.50,0.55,2*06
$GNGSA,A,3,21,13,26,27,15,,,,,,,,0.74,0.50,0.55,3*01
$GNGSA,A,3,23,09,06,16,07,40,28,43,39,37,25,34,0.74,0.50,0.55,4*0B
$GPGSV,4,1,15,195,65,113,41,194,64,053,40,21,62,153,45,08,61,358,43,1*66
$GPGSV,4,2,15,199,60,167,37,50,60,167,40,02,50,176,45,07,43,315,42,1*55
$GPGSV,4,3,15,27,31,037,45,16,26,077,35,09,22,244,20,196,19,169,26,1*55
$GPGSV,4,4,15,04,16,201,35,30,13,320,28,26,07,101,19,1*57
$GPGSV,3,1,09,195,65,113,44,194,64,053,44,08,61,358,47,199,60,167,43,8*51
$GPGSV,3,2,09,27,31,037,46,09,22,244,16,04,16,201,35,30,13,320,21,8*6D
$GPGSV,3,3,09,26,07,101,15,8*53
$GLGSV,2,1,07,81,67,203,44,78,57,042,43,88,53,030,44,79,28,335,38,1*76
$GLGSV,2,2,07,77,22,113,18,82,18,205,32,87,01,026,,1*4A
$GAGSV,2,1,08,21,55,014,42,13,54,077,37,26,46,172,44,27,28,081,32,7*7A
$GAGSV,2,2,08,19,26,239,,15,12,038,26,04,12,297,17,33,05,199,,7*7E
$GAGSV,2,1,05,21,55,014,44,13,54,077,40,26,46,172,45,27,28,081,16,1*70
$GAGSV,2,2,05,15,12,038,23,1*4D
$GBGSV,4,1,14,23,75,038,44,09,72,263,42,06,70,214,42,16,67,199,44,1*74
$GBGSV,4,2,14,07,60,309,37,40,60,330,42,28,58,224,43,43,57,036,45,1*7B
$GBGSV,4,3,14,39,56,188,43,10,51,291,18,25,36,119,,37,32,322,38,1*7B
$GBGSV,4,4,14,34,10,040,,08,02,177,,1*7A
$GBGSV,2,1,08,23,75,038,47,40,60,330,43,28,58,224,45,43,57,036,44,4*74
$GBGSV,2,2,08,39,56,188,41,25,36,119,33,37,32,322,34,34,10,040,27,4*7B
$GNACCURACY,3.6*13
$PAIRSAT,1,35,2,0,201,3,0,200,4,0,221,5,0,200,6,0,200,7,0,201,8,0,221,9,0,220,10,0,200,11,0,200,12,0,200,13,0,200,14,0,200,15,0,200,16,0,201,17,0,200,18,0,200,19,0,200,20,0,200,21,0,201,22,0,200,23,0,200,24,0,200,25,0,200,26,0,220,27,0,221,28,0,200,29,0,200,30,0,221,31,0,200,32,0,200,194,0,621,195,0,621,196,0,620,199,0,621*5A
$PAIRSAT,2,24,65,0,200,66,0,200,67,0,200,68,0,200,69,0,200,70,0,200,71,0,200,72,0,200,73,0,200,74,0,200,75,0,200,76,0,200,77,0,201,78,0,201,79,0,201,80,0,200,81,0,201,82,0,201,83,0,200,84,0,200,85,0,200,86,0,200,87,0,201,88,0,201*7B
$PAIRSAT,3,23,2,0,1200,3,0,1200,4,0,1200,5,0,200,7,0,1200,8,0,1200,9,0,1200,10,0,1200,11,0,1200,12,0,1200,13,0,1221,15,0,1220,19,0,1201,21,0,1221,24,0,1200,25,0,1200,26,0,1221,27,0,1221,30,0,1200,31,0,1200,33,0,1200,34,0,1000,36,0,1200*6B
$PAIRSAT,4,46,1,0,200,2,0,200,3,0,600,4,0,200,5,0,200,6,0,201,7,0,201,8,0,200,9,0,201,10,0,201,11,0,200,12,0,200,13,0,200,14,0,200,16,0,201,19,0,600,20,0,600,21,0,600,22,0,600,23,0,621,24,0,600,25,0,621,26,0,600,27,0,600,28,0,621,29,0,600,30,0,600,32,0,600,33,0,600,34,0,621,35,0,600,36,0,600,37,0,621,38,0,600,39,0,621,40,0,621,41,0,600,42,0,600,43,0,621,44,0,400,45,0,400,46,0,400,59,0,400,60,0,400,61,0,400,62,0,400*4A
$PAIRDGP,10,2,4,7,8,9,16,21,26,27,30*42
$GNGGA,041351.200,2500.7893478,N,12132.4438263,E,4,54,0.50,16.829,M,15.25,M,1,3335*45
$GNRMC,041351.200,A,2500.7893478,N,12132.4438263,E,0.01,317.96,090324,,,R,V*18
$GPHDT,46.110,T*07
$GNACCURACY,3.6*13
$GNGGA,041351.300,2500.7893472,N,12132.4438269,E,4,54,0.50,16.827,M,15.25,M,1,3335*4A
$GNRMC,041351.300,A,2500.7893472,N,12132.4438269,E,0.01,317.96,090324,,,R,V*19
$GPHDT,,T*1B
$GNACCURACY,3.6*13
$GNGGA,041351.400,2500.7893482,N,12132.4438283,E,4,54,0.50,16.813,M,15.25,M,1,3335*41
$GNRMC,041351.400,A,2500.7893482,N,12132.4438283,E,0.02,317.96,090324,,,R,V*16
$GPHDT,46.368,T*0A
$GNACCURACY,3.6*13
$GNGGA,041351.500,2500.7893474,N,12132.4438258,E,4,54,0.50,16.791,M,15.25,M,1,3335*4A
$GNRMC,041351.500,A,2500.7893474,N,12132.4438258,E,0.02,317.96,090324,,,R,V*18
$GPHDT,,T*1B
$GNACCURACY,3.6*13
$GNGGA,041351.600,2500.7893490,N,12132.4438275,E,4,54,0.50,16.748,M,15.25,M,0,3335*49
$GNRMC,041351.600,A,2500.7893490,N,12132.4438275,E,0.01,317.96,090324,,,R,V*1D
$GPHDT,47.200,T*04
$GNACCURACY,3.6*13
$GNGGA,041351.700,2500.7893468,N,12132.4438276,E,4,54,0.50,16.750,M,15.25,M,0,3335*45
$GNRMC,041351.700,A,2500.7893468,N,12132.4438276,E,0.00,317.96,090324,,,R,V*19
$GPHDT,,T*1B
$GNACCURACY,3.6*13
$GNGGA,041351.800,2500.7893468,N,12132.4438290,E,4,54,0.50,16.752,M,15.25,M,0,3335*40
$GNRMC,041351.800,A,2500.7893468,N,12132.4438290,E,0.01,317.96,090324,,,R,V*1F
$GPHDT,46.547,T*01
$GNACCURACY,3.6*13
$GNGGA,041351.900,2500.7893455,N,12132.4438309,E,4,54,0.50,16.768,M,15.25,M,0,3335*47
$GNRMC,041351.900,A,2500.7893455,N,12132.4438309,E,0.00,317.96,090324,,,R,V*10
$GPHDT,,T*1B
$GNACCURACY,3.6*13
$GNGGA,041352.000,2500.7893454,N,12132.4438325,E,4,54,0.50,16.765,M,15.25,M,1,3335*4E
$GNRMC,041352.000,A,2500.7893454,N,12132.4438325,E,0.00,317.96,090324,,,R,V*15
$GPHDT,46.423,T*02
$GNACCURACY,3.6*13
$GNGGA,041352.100,2500.7893459,N,12132.4438347,E,4,55,0.48,16.765,M,15.25,M,1,3335*4E
$GNRMC,041352.100,A,2500.7893459,N,12132.4438347,E,0.00,317.96,090324,,,R,V*1D
$GPHDT,,T*1B
$GNGSA,A,3,195,194,21,08,199,02,07,27,16,196,04,30,0.74,0.50,0.55,1*02
$GNGSA,A,3,09,,,,,,,,,,,,0.74,0.50,0.55,1*0E
$GNGSA,A,3,81,78,88,79,77,82,,,,,,,0.74,0.50,0.55,2*06
$GNGSA,A,3,21,13,26,27,15,,,,,,,,0.74,0.50,0.55,3*01
$GNGSA,A,3,23,09,06,16,07,40,28,43,39,37,25,34,0.74,0.50,0.55,4*0B
$GPGSV,4,1,15,195,65,113,41,194,64,053,40,21,62,153,45,08,61,358,43,1*66
$GPGSV,4,2,15,199,60,167,37,50,60,167,40,02,50,176,46,07,43,315,36,1*55
$GPGSV,4,3,15,27,31,037,45,16,26,077,35,09,22,244,18,196,19,169,28,1*50
$GPGSV,4,4,15,04,16,201,36,30,13,320,23,26,07,101,19,1*5F
$GPGSV,3,1,09,195,65,113,44,194,64,053,43,08,61,358,48,199,60,167,46,8*5C
$GPGSV,3,2,09,27,31,037,46,09,22,244,18,04,16,201,33,30,13,320,32,8*67
$GPGSV,3,3,09,26,07,101,15,8*53
$GLGSV,2,1,08,81,67,203,44,78,57,042,42,88,53,030,42,79,28,335,44,1*75
$GLGSV,2,2,08,77,22,113,20,82,18,205,32,69,03,279,,87,01,026,,1*7E
$GAGSV,2,1,08,21,55,014,42,13,54,077,36,26,46,172,44,27,28,081,31,7*78
$GAGSV,2,2,08,19,26,239,,04,12,297,17,15,12,038,25,33,05,199,,7*7D
$GAGSV,2,1,05,21,55,014,44,13,54,077,40,26,46,172,44,27,28,081,19,1*7E
$GAGSV,2,2,05,15,12,038,22,1*4C
$GBGSV,4,1,13,23,75,038,44,09,72,263,42,06,70,214,42,16,67,199,44,1*73
$GBGSV,4,2,13,07,60,309,38,40,60,330,42,28,58,224,43,43,57,036,45,1*73
$GBGSV,4,3,13,39,56,188,43,10,51,291,19,25,36,119,,37,32,322,26,1*72
$GBGSV,4,4,13,34,10,040,,1*46
$GBGSV,2,1,08,23,75,038,47,40,60,330,42,28,58,224,45,43,57,036,44,4*75
$GBGSV,2,2,08,39,56,188,42,25,36,119,34,37,32,322,25,34,10,040,26,4*7E
$GNACCURACY,3.6*13
$PAIRSAT,1,35,2,0,201,3,0,200,4,0,221,5,0,200,6,0,200,7,0,201,8,0,221,9,0,220,10,0,200,11,0,200,12,0,200,13,0,200,14,0,200,15,0,200,16,0,201,17,0,200,18,0,200,19,0,200,20,0,200,21,0,201,22,0,200,23,0,200,24,0,200,25,0,200,26,0,220,27,0,221,28,0,200,29,0,200,30,0,221,31,0,200,32,0,200,194,0,621,195,0,621,196,0,620,199,0,621*5A
$PAIRSAT,2,24,65,0,200,66,0,200,67,0,200,68,0,200,69,0,200,70,0,200,71,0,200,72,0,200,73,0,200,74,0,200,75,0,200,76,0,200,77,0,201,78,0,201,79,0,201,80,0,200,81,0,201,82,0,201,83,0,200,84,0,200,85,0,200,86,0,200,87,0,201,88,0,201*7B
$PAIRSAT,3,23,2,0,1200,3,0,1200,4,0,1200,5,0,200,7,0,1200,8,0,1200,9,0,1200,10,0,1200,11,0,1200,12,0,1200,13,0,1221,15,0,1220,19,0,1201,21,0,1221,24,0,1200,25,0,1200,26,0,1221,27,0,1221,30,0,1200,31,0,1200,33,0,1200,34,0,1000,36,0,1200*6B
$PAIRSAT,4,46,1,0,200,2,0,200,3,0,600,4,0,200,5,0,200,6,0,201,7,0,201,8,0,200,9,0,201,10,0,201,11,0,200,12,0,200,13,0,200,14,0,200,16,0,201,19,0,600,20,0,600,21,0,600,22,0,600,23,0,621,24,0,600,25,0,621,26,0,600,27,0,600,28,0,621,29,0,600,30,0,600,32,0,600,33,0,600,34,0,621,35,0,600,36,0,600,37,0,621,38,0,600,39,0,621,40,0,621,41,0,600,42,0,600,43,0,621,44,0,400,45,0,400,46,0,400,59,0,400,60,0,400,61,0,400,62,0,400*4A
$PAIRDGP,10,2,4,7,8,9,16,21,26,27,30*42
$GNGGA,041352.200,2500.7893471,N,12132.4438297,E,4,54,0.50,16.750,M,15.25,M,1,3335*45
$GNRMC,041352.200,A,2500.7893471,N,12132.4438297,E,0.01,317.96,090324,,,R,V*19
$GPHDT,47.007,T*01
$GNACCURACY,3.6*13
$GNGGA,041352.300,2500.7893450,N,12132.4438207,E,4,54,0.50,16.796,M,15.25,M,1,3335*44
$GNRMC,041352.300,A,2500.7893450,N,12132.4438207,E,0.01,317.96,090324,,,R,V*12
$GPHDT,,T*1B
$GNACCURACY,3.6*13
$GNGGA,041352.400,2500.7893454,N,12132.4438178,E,4,54,0.50,16.787,M,15.25,M,1,3335*4C
$GNRMC,041352.400,A,2500.7893454,N,12132.4438178,E,0.03,317.96,090324,,,R,V*18
$GPHDT,46.426,T*07
$GNACCURACY,3.6*13
$GNGGA,041352.500,2500.7893454,N,12132.4438260,E,4,55,0.48,16.785,M,15.25,M,0,3335*4C
$GNRMC,041352.500,A,2500.7893454,N,12132.4438260,E,0.02,317.96,090324,,,R,V*12
$GPHDT,,T*1B
$GNACCURACY,3.6*13
$GNGGA,041352.600,2500.7893444,N,12132.4438230,E,4,55,0.48,16.785,M,15.25,M,0,3335*4B
$GNRMC,041352.600,A,2500.7893444,N,12132.4438230,E,0.01,317.96,090324,,,R,V*16
$GPHDT,46.486,T*0D
$GNACCURACY,3.6*13
$GNGGA,041352.700,2500.7893441,N,12132.4438245,E,4,55,0.48,16.777,M,15.25,M,0,3335*40
$GNRMC,041352.700,A,2500.7893441,N,12132.4438245,E,0.02,317.96,090324,,,R,V*13
$GPHDT,,T*1B
$GNACCURACY,3.6*13
$GNGGA,041352.800,2500.7893430,N,12132.4438238,E,4,54,0.50,16.786,M,15.25,M,0,3335*45
$GNRMC,041352.800,A,2500.7893430,N,12132.4438238,E,0.01,317.96,090324,,,R,V*13
$GPHDT,46.103,T*05
$GNACCURACY,3.6*13
$GNGGA,041352.900,2500.7893452,N,12132.4438204,E,4,55,0.48,16.791,M,15.25,M,0,3335*41
$GNRMC,041352.900,A,2500.7893452,N,12132.4438204,E,0.01,317.96,090324,,,R,V*19
$GPHDT,,T*1B
$GNACCURACY,3.6*13
$GNGGA,041353.000,2500.7893447,N,12132.4438218,E,4,55,0.48,16.784,M,15.25,M,1,3335*45
$GNRMC,041353.000,A,2500.7893447,N,12132.4438218,E,0.01,317.96,090324,,,R,V*18
$GPHDT,46.395,T*08
$GNACCURACY,3.6*13
$GNGGA,041353.100,2500.7893438,N,12132.4438229,E,4,55,0.48,16.787,M,15.25,M,1,3335*4D
$GNRMC,041353.100,A,2500.7893438,N,12132.4438229,E,0.01,317.96,090324,,,R,V*13
$GPHDT,,T*1B
$GNGSA,A,3,195,194,21,08,199,02,07,27,16,196,04,30,0.73,0.48,0.55,1*0C
$GNGSA,A,3,09,,,,,,,,,,,,0.73,0.48,0.55,1*00
$GNGSA,A,3,81,78,88,79,77,82,,,,,,,0.73,0.48,0.55,2*08
$GNGSA,A,3,21,13,26,27,15,,,,,,,,0.73,0.48,0.55,3*0F
$GNGSA,A,3,23,09,06,16,07,40,28,43,39,10,37,25,0.73,0.48,0.55,4*03
$GNGSA,A,3,34,,,,,,,,,,,,0.73,0.48,0.55,4*0B
$GPGSV,4,1,15,195,65,113,42,194,64,053,41,21,62,153,44,08,61,358,43,1*65
$GPGSV,4,2,15,199,60,167,37,50,60,167,39,02,50,176,45,07,43,315,42,1*5B
$GPGSV,4,3,15,27,31,037,44,16,26,077,35,09,22,244,18,196,19,169,28,1*51
$GPGSV,4,4,15,04,16,201,36,30,13,320,27,26,07,101,20,1*51
$GPGSV,2,1,08,195,65,113,42,194,64,053,43,08,61,358,48,199,60,167,45,8*59
$GPGSV,2,2,08,27,31,037,47,09,22,244,17,04,16,201,33,30,13,320,27,8*6D
$GLGSV,2,1,07,81,67,203,44,78,57,042,42,88,53,030,42,79,28,335,36,1*7F
$GLGSV,2,2,07,77,22,113,20,82,18,205,32,87,01,026,,1*41
$GAGSV,2,1,08,21,55,014,42,13,54,077,36,26,46,172,42,27,28,081,32,7*7D
$GAGSV,2,2,08,19,26,239,,15,12,038,23,04,12,297,17,33,05,199,,7*7B
$GAGSV,2,1,05,21,55,014,45,13,54,077,40,26,46,172,44,27,28,081,18,1*7E
$GAGSV,2,2,05,15,12,038,23,1*4D
$GBGSV,4,1,13,23,75,038,44,09,72,263,41,06,70,214,42,16,67,199,44,1*70
$GBGSV,4,2,13,07,60,309,39,40,60,330,43,28,58,224,44,43,56,036,45,1*75
$GBGSV,4,3,13,39,56,188,43,10,51,291,20,25,36,119,,37,32,322,36,1*79
$GBGSV,4,4,13,34,10,040,,1*46
$GBGSV,2,1,08,23,75,038,46,40,60,330,44,28,58,224,45,43,56,036,44,4*73
$GBGSV,2,2,08,39,56,188,42,25,36,119,34,37,32,322,35,34,10,040,24,4*7D
$GNACCURACY,3.6*13
$PAIRSAT,1,35,2,0,201,3,0,200,4,0,221,5,0,200,6,0,200,7,0,201,8,0,221,9,0,220,10,0,200,11,0,200,12,0,200,13,0,200,14,0,200,15,0,200,16,0,201,17,0,200,18,0,200,19,0,200,20,0,200,21,0,201,22,0,200,23,0,200,24,0,200,25,0,200,26,0,220,27,0,221,28,0,200,29,0,200,30,0,221,31,0,200,32,0,200,194,0,621,195,0,621,196,0,620,199,0,621*5A
$PAIRSAT,2,24,65,0,200,66,0,200,67,0,200,68,0,200,69,0,200,70,0,200,71,0,200,72,0,200,73,0,200,74,0,200,75,0,200,76,0,200,77,0,201,78,0,201,79,0,201,80,0,200,81,0,201,82,0,201,83,0,200,84,0,200,85,0,200,86,0,200,87,0,201,88,0,201*7B
$PAIRSAT,3,23,2,0,1200,3,0,1200,4,0,1200,5,0,200,7,0,1200,8,0,1200,9,0,1200,10,0,1200,11,0,1200,12,0,1200,13,0,1221,15,0,1220,19,0,1201,21,0,1221,24,0,1200,25,0,1200,26,0,1221,27,0,1221,30,0,1200,31,0,1200,33,0,1200,34,0,1000,36,0,1200*6B
$PAIRSAT,4,46,1,0,200,2,0,200,3,0,600,4,0,200,5,0,200,6,0,201,7,0,201,8,0,200,9,0,201,10,0,201,11,0,200,12,0,200,13,0,200,14,0,200,16,0,201,19,0,600,20,0,600,21,0,600,22,0,600,23,0,621,24,0,600,25,0,621,26,0,600,27,0,600,28,0,621,29,0,600,30,0,600,32,0,600,33,0,600,34,0,621,35,0,600,36,0,600,37,0,621,38,0,600,39,0,621,40,0,621,41,0,600,42,0,600,43,0,621,44,0,400,45,0,400,46,0,400,59,0,400,60,0,400,61,0,400,62,0,400*4A
$PAIRDGP,10,2,4,7,8,9,16,21,26,27,30*42
$GNGGA,041353.200,2500.7893443,N,12132.4438230,E,4,55,0.48,16.790,M,15.25,M,1,3335*4C
$GNRMC,041353.200,A,2500.7893443,N,12132.4438230,E,0.01,317.96,090324,,,R,V*14
$GPHDT,46.512,T*01
$GNACCURACY,3.5*10
$GNGGA,041353.300,2500.7893421,N,12132.4438245,E,4,55,0.48,16.783,M,15.25,M,1,3335*49
$GNRMC,041353.300,A,2500.7893421,N,12132.4438245,E,0.02,317.96,090324,,,R,V*10
$GPHDT,,T*1B
$GNACCURACY,3.5*10
$GNGGA,041353.400,2500.7893438,N,12132.4438219,E,4,54,0.50,16.796,M,15.25,M,1,3335*43
$GNRMC,041353.400,A,2500.7893438,N,12132.4438219,E,0.01,317.96,090324,,,R,V*15
$GPHDT,46.692,T*0A
$GNACCURACY,3.5*10
$GNGGA,041353.500,2500.7893434,N,12132.4438254,E,4,54,0.50,16.790,M,15.25,M,1,3335*41
$GNRMC,041353.500,A,2500.7893434,N,12132.4438254,E,0.01,317.96,090324,,,R,V*11
$GPHDT,,T*1B
$GNACCURACY,3.5*10
$GNGGA,041353.600,2500.7893433,N,12132.4438239,E,4,55,0.48,16.795,M,15.25,M,0,3335*42
$GNRMC,041353.600,A,2500.7893433,N,12132.4438239,E,0.01,317.96,090324,,,R,V*1E
$GPHDT,46.578,T*0D
$GNACCURACY,3.6*13
$GNGGA,041353.700,2500.7893450,N,12132.4438246,E,4,55,0.48,16.790,M,15.25,M,0,3335*4B
$GNRMC,041353.700,A,2500.7893450,N,12132.4438246,E,0.01,317.96,090324,,,R,V*12
$GPHDT,,T*1B
$GNACCURACY,3.6*13
$GNGGA,041353.800,2500.7893441,N,12132.4438242,E,4,55,0.48,16.792,M,15.25,M,0,3335*42
$GNRMC,041353.800,A,2500.7893441,N,12132.4438242,E,0.01,317.96,090324,,,R,V*19
$GPHDT,46.854,T*0E
$GNACCURACY,3.6*13
$GNGGA,041353.900,2500.7893437,N,12132.4438235,E,4,55,0.48,16.791,M,15.25,M,0,3335*41
$GNRMC,041353.900,A,2500.7893437,N,12132.4438235,E,0.01,317.96,090324,,,R,V*19
$GPHDT,,T*1B
$GNACCURACY,3.6*13
$GNGGA,041354.000,2500.7893429,N,12132.4438252,E,4,54,0.50,16.787,M,15.25,M,1,3335*4F
$GNRMC,041354.000,A,2500.7893429,N,12132.4438252,E,0.00,317.96,090324,,,R,V*18
$GPHDT,46.517,T*04
$GNACCURACY,3.6*13
$GNGGA,041354.100,2500.7893429,N,12132.4438256,E,4,55,0.50,16.790,M,15.25,M,1,3335*4D
$GNRMC,041354.100,A,2500.7893429,N,12132.4438256,E,0.01,317.96,090324,,,R,V*1C
$GPHDT,,T*1B
$GNGSA,A,3,195,194,21,08,199,02,07,27,16,196,04,30,0.74,0.50,0.55,1*02
$GNGSA,A,3,09,,,,,,,,,,,,0.74,0.50,0.55,1*0E
$GNGSA,A,3,81,78,88,79,77,82,,,,,,,0.74,0.50,0.55,2*06
$GNGSA,A,3,21,13,26,27,15,,,,,,,,0.74,0.50,0.55,3*01
$GNGSA,A,3,23,09,06,16,07,40,28,43,39,37,25,34,0.74,0.50,0.55,4*0B
$GPGSV,4,1,15,195,65,113,42,194,64,053,41,21,62,153,44,08,61,358,43,1*65
$GPGSV,4,2,15,199,60,167,37,50,60,167,39,02,50,176,45,07,43,315,42,1*5B
$GPGSV,4,3,15,27,31,037,44,16,26,077,35,09,22,244,17,196,19,169,25,1*53
$GPGSV,4,4,15,04,16,201,37,30,13,320,28,26,07,101,22,1*5D
$GPGSV,3,1,09,195,65,113,42,194,64,053,43,08,61,358,48,199,60,167,45,8*59
$GPGSV,3,2,09,27,31,037,47,09,22,244,16,196,19,169,24,04,16,201,32,8*56
$GPGSV,3,3,09,30,13,320,29,8*5F
$GLGSV,2,1,07,81,67,203,44,78,57,042,42,88,53,030,42,79,28,335,35,1*7C
$GLGSV,2,2,07,77,22,113,21,82,18,205,32,87,01,026,,1*40
$GAGSV,2,1,08,21,55,014,42,13,54,077,36,26,46,172,42,27,28,081,32,7*7D
$GAGSV,2,2,08,19,26,239,,15,12,038,21,04,12,297,18,33,05,199,,7*76
$GAGSV,2,1,05,21,55,014,45,13,54,077,40,26,46,172,44,27,28,081,15,1*73
$GAGSV,2,2,05,15,12,038,24,1*4A
$GBGSV,4,1,13,23,75,038,44,09,72,263,41,06,70,214,42,16,67,199,44,1*70
$GBGSV,4,2,13,07,60,309,39,40,60,330,43,28,58,224,44,43,56,036,45,1*75
$GBGSV,4,3,13,39,56,188,44,10,51,291,21,25,36,119,,37,32,322,40,1*7E
$GBGSV,4,4,13,34,10,040,,1*46
$GBGSV,2,1,08,23,75,038,45,40,60,330,44,28,58,224,45,43,56,036,44,4*70
$GBGSV,2,2,08,39,56,188,42,25,36,119,34,37,32,322,37,34,10,040,25,4*7E
$GNACCURACY,3.6*13
$PAIRSAT,1,35,2,0,201,3,0,200,4,0,221,5,0,200,6,0,200,7,0,201,8,0,221,9,0,220,10,0,200,11,0,200,12,0,200,13,0,200,14,0,200,15,0,200,16,0,201,17,0,200,18,0,200,19,0,200,20,0,200,21,0,201,22,0,200,23,0,200,24,0,200,25,0,200,26,0,220,27,0,221,28,0,200,29,0,200,30,0,221,31,0,200,32,0,200,194,0,621,195,0,621,196,0,620,199,0,621*5A
$PAIRSAT,2,24,65,0,200,66,0,200,67,0,200,68,0,200,69,0,200,70,0,200,71,0,200,72,0,200,73,0,200,74,0,200,75,0,200,76,0,200,77,0,201,78,0,201,79,0,201,80,0,200,81,0,201,82,0,201,83,0,200,84,0,200,85,0,200,86,0,200,87,0,201,88,0,201*7B
$PAIRSAT,3,23,2,0,1200,3,0,1200,4,0,1200,5,0,200,7,0,1200,8,0,1200,9,0,1200,10,0,1200,11,0,1200,12,0,1200,13,0,1221,15,0,1220,19,0,1201,21,0,1221,24,0,1200,25,0,1200,26,0,1221,27,0,1221,30,0,1200,31,0,1200,33,0,1200,34,0,1000,36,0,1200*6B
$PAIRSAT,4,46,1,0,200,2,0,200,3,0,600,4,0,200,5,0,200,6,0,201,7,0,201,8,0,200,9,0,201,10,0,201,11,0,200,12,0,200,13,0,200,14,0,200,16,0,201,19,0,600,20,0,600,21,0,600,22,0,600,23,0,621,24,0,600,25,0,621,26,0,600,27,0,600,28,0,621,29,0,600,30,0,600,32,0,600,33,0,600,34,0,621,35,0,600,36,0,600,37,0,621,38,0,600,39,0,621,40,0,621,41,0,600,42,0,600,43,0,621,44,0,400,45,0,400,46,0,400,59,0,400,60,0,400,61,0,400,62,0,400*4A
$PAIRDGP,10,2,4,7,8,9,16,21,26,27,30*42
$GNGGA,041354.200,2500.7893443,N,12132.4438246,E,4,55,0.50,16.786,M,15.25,M,1,3335*44
$GNRMC,041354.200,A,2500.7893443,N,12132.4438246,E,0.01,317.96,090324,,,R,V*12
$GPHDT,46.657,T*03
$GNACCURACY,3.5*10
$GNGGA,041354.300,2500.7893434,N,12132.4438241,E,4,55,0.50,16.785,M,15.25,M,1,3335*41
$GNRMC,041354.300,A,2500.7893434,N,12132.4438241,E,0.01,317.96,090324,,,R,V*14
$GPHDT,,T*1B
$GNACCURACY,3.6*13
$GNGGA,041354.400,2500.7893442,N,12132.4438225,E,4,55,0.50,16.787,M,15.25,M,1,3335*47
$GNRMC,041354.400,A,2500.7893442,N,12132.4438225,E,0.01,317.96,090324,,,R,V*10
$GPHDT,46.586,T*0C
$GNACCURACY,3.6*13
$GNGGA,041354.500,2500.7893433,N,12132.4438249,E,4,55,0.50,16.800,M,15.25,M,1,3335*4A
$GNRMC,041354.500,A,2500.7893433,N,12132.4438249,E,0.01,317.96,090324,,,R,V*1D
$GPHDT,,T*1B
$GNACCURACY,3.6*13
$GNGGA,041354.600,2500.7893426,N,12132.4438237,E,4,55,0.50,16.777,M,15.25,M,1,3335*4B
$GNRMC,041354.600,A,2500.7893426,N,12132.4438237,E,0.00,317.96,090324,,,R,V*12
$GPHDT,46.511,T*02
$GNACCURACY,3.6*13
$GNGGA,041354.700,2500.7893438,N,12132.4438226,E,4,55,0.50,16.784,M,15.25,M,1,3335*49
$GNRMC,041354.700,A,2500.7893438,N,12132.4438226,E,0.01,317.96,090324,,,R,V*1D
$GPHDT,,T*1B
$GNACCURACY,3.6*13
$GNGGA,041354.800,2500.7893414,N,12132.4438247,E,4,55,0.50,16.782,M,15.25,M,0,3335*48
$GNRMC,041354.800,A,2500.7893414,N,12132.4438247,E,0.01,317.96,090324,,,R,V*1B
$GPHDT,46.463,T*06
$GNACCURACY,3.6*13
$GNGGA,041354.900,2500.7893434,N,12132.4438232,E,4,56,0.50,16.783,M,15.25,M,0,3335*4B
$GNRMC,041354.900,A,2500.7893434,N,12132.4438232,E,0.01,317.96,090324,,,R,V*1A
$GPHDT,,T*1B
$GNACCURACY,3.6*13
$GNGGA,041355.000,2500.7893433,N,12132.4438219,E,4,56,0.50,16.789,M,15.25,M,1,3335*46
$GNRMC,041355.000,A,2500.7893433,N,12132.4438219,E,0.02,317.96,090324,,,R,V*1F
$GPHDT,46.855,T*0F
$GNACCURACY,3.6*13
$GNGGA,041355.100,2500.7893438,N,12132.4438217,E,4,56,0.50,16.784,M,15.25,M,1,3335*4F
$GNRMC,041355.100,A,2500.7893438,N,12132.4438217,E,0.01,317.96,090324,,,R,V*18
$GPHDT,,T*1B
$GNGSA,A,3,195,194,21,08,199,02,07,27,16,196,04,30,0.74,0.50,0.55,1*02
$GNGSA,A,3,09,,,,,,,,,,,,0.74,0.50,0.55,1*0E
$GNGSA,A,3,81,78,88,79,77,82,,,,,,,0.74,0.50,0.55,2*06
$GNGSA,A,3,21,13,26,27,15,,,,,,,,0.74,0.50,0.55,3*01
$GNGSA,A,3,23,09,06,16,07,40,28,43,39,25,37,34,0.74,0.50,0.55,4*0B
$GPGSV,4,1,15,195,65,113,42,194,64,053,41,21,62,153,44,08,61,358,43,1*65
$GPGSV,4,2,15,199,60,167,37,50,60,167,40,02,51,176,45,07,43,315,42,1*54
$GPGSV,4,3,15,27,31,037,44,16,26,077,35,09,22,244,15,196,19,169,25,1*51
$GPGSV,4,4,15,04,16,201,37,30,13,320,27,26,07,101,23,1*53
$GPGSV,3,1,09,195,65,113,42,194,64,053,43,08,61,358,48,199,60,167,45,8*59
$GPGSV,3,2,09,27,31,037,47,09,22,244,16,196,19,169,23,04,16,201,33,8*50
$GPGSV,3,3,09,30,13,320,29,8*5F
$GLGSV,2,1,07,81,67,203,44,78,57,042,42,88,53,030,42,79,28,335,32,1*7B
$GLGSV,2,2,07,77,22,113,21,82,18,205,32,87,01,026,,1*40
$GAGSV,2,1,08,21,55,014,42,13,54,077,35,26,46,172,42,27,28,081,32,7*7E
$GAGSV,2,2,08,19,26,239,,15,12,038,19,04,12,297,18,33,05,199,,7*7D
$GAGSV,2,1,05,21,55,014,45,13,54,077,40,26,46,172,44,27,28,081,15,1*73
$GAGSV,2,2,05,15,12,038,24,1*4A
$GBGSV,4,1,13,23,75,038,44,09,72,263,41,06,70,214,42,16,67,199,44,1*70
$GBGSV,4,2,13,07,60,309,39,40,60,330,43,28,58,224,44,43,56,036,45,1*75
$GBGSV,4,3,13,39,56,188,44,10,51,291,19,25,36,119,35,37,32,322,38,1*7C
$GBGSV,4,4,13,34,10,040,,1*46
$GBGSV,2,1,08,23,75,038,45,40,60,330,44,28,58,224,45,43,56,036,44,4*70
$GBGSV,2,2,08,39,56,188,42,25,36,119,34,37,32,322,37,34,10,040,26,4*7D
$GNACCURACY,3.6*13
$PAIRSAT,1,35,2,0,201,3,0,200,4,0,221,5,0,200,6,0,200,7,0,201,8,0,221,9,0,220,10,0,200,11,0,200,12,0,200,13,0,200,14,0,200,15,0,200,16,0,201,17,0,200,18,0,200,19,0,200,20,0,200,21,0,201,22,0,200,23,0,200,24,0,200,25,0,200,26,0,220,27,0,221,28,0,200,29,0,200,30,0,221,31,0,200,32,0,200,194,0,621,195,0,621,196,0,620,199,0,621*5A
$PAIRSAT,2,24,65,0,200,66,0,200,67,0,200,68,0,200,69,0,200,70,0,200,71,0,200,72,0,200,73,0,200,74,0,200,75,0,200,76,0,200,77,0,201,78,0,201,79,0,201,80,0,200,81,0,201,82,0,201,83,0,200,84,0,200,85,0,200,86,0,200,87,0,201,88,0,201*7B
$PAIRSAT,3,23,2,0,1200,3,0,1200,4,0,1200,5,0,200,7,0,1200,8,0,1200,9,0,1200,10,0,1200,11,0,1200,12,0,1200,13,0,1221,15,0,1220,19,0,1201,21,0,1221,24,0,1200,25,0,1200,26,0,1221,27,0,1221,30,0,1200,31,0,1200,33,0,1200,34,0,1000,36,0,1200*6B
$PAIRSAT,4,46,1,0,200,2,0,200,3,0,600,4,0,200,5,0,200,6,0,201,7,0,201,8,0,200,9,0,201,10,0,201,11,0,200,12,0,200,13,0,200,14,0,200,16,0,201,19,0,600,20,0,600,21,0,600,22,0,600,23,0,621,24,0,600,25,0,621,26,0,600,27,0,600,28,0,621,29,0,600,30,0,600,32,0,600,33,0,600,34,0,621,35,0,600,36,0,600,37,0,621,38,0,600,39,0,621,40,0,621,41,0,600,42,0,600,43,0,621,44,0,400,45,0,400,46,0,400,59,0,400,60,0,400,61,0,400,62,0,400*4A
$PAIRDGP,10,2,4,7,8,9,16,21,26,27,30*42
$GNGGA,041355.200,2500.7893436,N,12132.4438214,E,4,56,0.50,16.780,M,15.25,M,1,3335*45
$GNRMC,041355.200,A,2500.7893436,N,12132.4438214,E,0.00,317.96,090324,,,R,V*17
$GPHDT,46.414,T*06
$GNACCURACY,3.6*13
$GNGGA,041355.300,2500.7893434,N,12132.4438243,E,4,56,0.50,16.773,M,15.25,M,1,3335*48
$GNRMC,041355.300,A,2500.7893434,N,12132.4438243,E,0.00,317.96,090324,,,R,V*16
$GPHDT,,T*1B
$GNACCURACY,3.6*13
$GNGGA,041355.400,2500.7893440,N,12132.4438223,E,4,56,0.50,16.786,M,15.25,M,1,3335*40
$GNRMC,041355.400,A,2500.7893440,N,12132.4438223,E,0.01,317.96,090324,,,R,V*15
$GPHDT,46.466,T*03
$GNACCURACY,3.6*13
$GNGGA,041355.500,2500.7893436,N,12132.4438216,E,4,56,0.50,16.789,M,15.25,M,0,3335*48
$GNRMC,041355.500,A,2500.7893436,N,12132.4438216,E,0.00,317.96,090324,,,R,V*12
$GPHDT,,T*1B
$GNACCURACY,3.6*13
$GNGGA,041355.600,2500.7893443,N,12132.4438230,E,4,56,0.50,16.780,M,15.25,M,0,3335*44
$GNRMC,041355.600,A,2500.7893443,N,12132.4438230,E,0.01,317.96,090324,,,R,V*16
$GPHDT,46.957,T*0C
$GNACCURACY,3.6*13
$GNGGA,041355.700,2500.7893444,N,12132.4438230,E,4,56,0.50,16.791,M,15.25,M,0,3335*42
$GNRMC,041355.700,A,2500.7893444,N,12132.4438230,E,0.01,317.96,090324,,,R,V*10
$GPHDT,,T*1B
$GNACCURACY,3.6*13
$GNGGA,041355.800,2500.7893439,N,12132.4438225,E,4,56,0.50,16.781,M,15.25,M,0,3335*42
$GNRMC,041355.800,A,2500.7893439,N,12132.4438225,E,0.00,317.96,090324,,,R,V*10
$GPHDT,46.886,T*01
$GNACCURACY,3.6*13
$GNGGA,041355.900,2500.7893434,N,12132.4438229,E,4,56,0.50,16.792,M,15.25,M,0,3335*40
$GNRMC,041355.900,A,2500.7893434,N,12132.4438229,E,0.00,317.96,090324,,,R,V*10
$GPHDT,,T*1B
$GNACCURACY,3.6*13
$GNGGA,041356.000,2500.7893445,N,12132.4438229,E,4,56,0.50,16.778,M,15.25,M,1,3335*49
$GNRMC,041356.000,A,2500.7893445,N,12132.4438229,E,0.01,317.96,090324,,,R,V*1D
$GPHDT,47.264,T*06
$GNACCURACY,3.6*13
$GNGGA,041356.100,2500.7893456,N,12132.4438217,E,4,56,0.50,16.787,M,15.25,M,1,3335*47
$GNRMC,041356.100,A,2500.7893456,N,12132.4438217,E,0.00,317.96,090324,,,R,V*12
$GPHDT,,T*1B
$GNGSA,A,3,195,194,21,08,199,02,07,27,16,196,04,30,0.74,0.50,0.55,1*02
$GNGSA,A,3,09,,,,,,,,,,,,0.74,0.50,0.55,1*0E
$GNGSA,A,3,81,78,88,79,77,82,,,,,,,0.74,0.50,0.55,2*06
$GNGSA,A,3,21,13,26,27,15,,,,,,,,0.74,0.50,0.55,3*01
$GNGSA,A,3,23,09,06,16,07,40,28,43,39,25,37,34,0.74,0.50,0.55,4*0B
$GPGSV,4,1,15,195,65,113,42,194,64,053,41,21,62,153,44,08,61,358,43,1*65
$GPGSV,4,2,15,199,60,167,37,50,60,167,40,02,51,176,45,07,43,315,42,1*54
$GPGSV,4,3,15,27,31,037,44,16,26,077,35,09,22,244,14,196,19,169,26,1*53
$GPGSV,4,4,15,04,16,201,37,30,13,320,27,26,07,101,24,1*54
$GPGSV,3,1,09,195,65,113,42,194,64,053,43,08,61,358,49,199,60,167,46,8*5B
$GPGSV,3,2,09,27,31,037,47,09,22,244,16,196,19,169,26,04,16,201,34,8*52
$GPGSV,3,3,09,30,13,320,30,8*57
$GLGSV,2,1,07,81,67,203,44,78,57,042,42,88,53,030,42,79,28,335,33,1*7A
$GLGSV,2,2,07,77,22,113,18,82,18,205,33,87,01,026,,1*4B
$GAGSV,2,1,08,21,55,014,42,13,54,077,35,26,46,172,42,27,28,081,32,7*7E
$GAGSV,2,2,08,19,26,239,,15,12,038,19,04,12,297,18,33,05,199,,7*7D
$GAGSV,2,1,05,21,55,014,45,13,54,077,41,26,46,172,44,27,28,081,17,1*70
$GAGSV,2,2,05,15,12,038,25,1*4B
$GBGSV,4,1,13,23,75,038,44,09,72,263,41,06,70,214,42,16,67,199,44,1*70
$GBGSV,4,2,13,07,60,309,39,40,60,330,43,28,58,224,44,43,56,036,45,1*75
$GBGSV,4,3,13,39,56,188,44,10,51,291,20,25,36,119,36,37,32,322,38,1*75
$GBGSV,4,4,13,34,10,040,,1*46
$GBGSV,2,1,08,23,75,038,45,40,60,330,45,28,58,224,45,43,56,036,44,4*71
$GBGSV,2,2,08,39,56,188,42,25,36,119,34,37,32,322,37,34,10,040,26,4*7D
$GNACCURACY,3.6*13
$PAIRSAT,1,35,2,0,201,3,0,200,4,0,221,5,0,200,6,0,200,7,0,201,8,0,221,9,0,220,10,0,200,11,0,200,12,0,200,13,0,200,14,0,200,15,0,200,16,0,201,17,0,200,18,0,200,19,0,200,20,0,200,21,0,201,22,0,200,23,0,200,24,0,200,25,0,200,26,0,220,27,0,221,28,0,200,29,0,200,30,0,221,31,0,200,32,0,200,194,0,621,195,0,621,196,0,620,199,0,621*5A
$PAIRSAT,2,24,65,0,200,66,0,200,67,0,200,68,0,200,69,0,200,70,0,200,71,0,200,72,0,200,73,0,200,74,0,200,75,0,200,76,0,200,77,0,201,78,0,201,79,0,201,80,0,200,81,0,201,82,0,201,83,0,200,84,0,200,85,0,200,86,0,200,87,0,201,88,0,201*7B
$PAIRSAT,3,23,2,0,1200,3,0,1200,4,0,1200,5,0,200,7,0,1200,8,0,1200,9,0,1200,10,0,1200,11,0,1200,12,0,1200,13,0,1221,15,0,1220,19,0,1201,21,0,1221,24,0,1200,25,0,1200,26,0,1221,27,0,1221,30,0,1200,31,0,1200,33,0,1200,34,0,1000,36,0,1200*6B
$PAIRSAT,4,46,1,0,200,2,0,200,3,0,600,4,0,200,5,0,200,6,0,201,7,0,201,8,0,200,9,0,201,10,0,201,11,0,200,12,0,200,13,0,200,14,0,200,16,0,201,19,0,600,20,0,600,21,0,600,22,0,600,23,0,621,24,0,600,25,0,621,26,0,600,27,0,600,28,0,621,29,0,600,30,0,600,32,0,600,33,0,600,34,0,621,35,0,600,36,0,600,37,0,621,38,0,600,39,0,621,40,0,621,41,0,600,42,0,600,43,0,621,44,0,400,45,0,400,46,0,400,59,0,400,60,0,400,61,0,400,62,0,400*4A
$PAIRDGP,10,2,4,7,8,9,16,21,26,27,30*42
$GNGGA,041356.200,2500.7893449,N,12132.4438221,E,4,56,0.50,16.790,M,15.25,M,1,3335*49
$GNRMC,041356.200,A,2500.7893449,N,12132.4438221,E,0.00,317.96,090324,,,R,V*1A
$GPHDT,47.563,T*06
$GNACCURACY,3.7*12
$GNGGA,041356.300,2500.7893451,N,12132.4438218,E,4,57,0.48,16.783,M,15.25,M,1,3335*41
$GNRMC,041356.300,A,2500.7893451,N,12132.4438218,E,0.01,317.96,090324,,,R,V*19
$GPHDT,,T*1B
$GNACCURACY,3.7*12
$GNGGA,041356.400,2500.7893449,N,12132.4438217,E,4,57,0.48,16.790,M,15.25,M,1,3335*42
$GNRMC,041356.400,A,2500.7893449,N,12132.4438217,E,0.00,317.96,090324,,,R,V*19
$GPHDT,47.112,T*04
$GNACCURACY,3.7*12
$GNGGA,041356.500,2500.7893451,N,12132.4438233,E,4,57,0.48,16.780,M,15.25,M,1,3335*4D
$GNRMC,041356.500,A,2500.7893451,N,12132.4438233,E,0.01,317.96,090324,,,R,V*16
$GPHDT,,T*1B
$GNACCURACY,3.7*12
$GNGGA,041356.600,2500.7893434,N,12132.4438214,E,4,57,0.48,16.783,M,15.25,M,0,3335*4A
$GNRMC,041356.600,A,2500.7893434,N,12132.4438214,E,0.01,317.96,090324,,,R,V*13
$GPHDT,47.189,T*06
$GNACCURACY,3.7*12
$GNGGA,041356.700,2500.7893438,N,12132.4438211,E,4,57,0.48,16.788,M,15.25,M,0,3335*49
$GNRMC,041356.700,A,2500.7893438,N,12132.4438211,E,0.00,317.96,090324,,,R,V*1A
$GPHDT,,T*1B
$GNACCURACY,3.7*12
$GNGGA,041356.800,2500.7893444,N,12132.4438217,E,4,57,0.48,16.787,M,15.25,M,0,3335*44
$GNRMC,041356.800,A,2500.7893444,N,12132.4438217,E,0.00,317.96,090324,,,R,V*18
$GPHDT,47.158,T*0A
$GNACCURACY,3.7*12
$GNGGA,041356.900,2500.7893440,N,12132.4438222,E,4,56,0.50,16.775,M,15.25,M,0,3335*42
$GNRMC,041356.900,A,2500.7893440,N,12132.4438222,E,0.00,317.96,090324,,,R,V*1B
$GPHDT,,T*1B
$GNACCURACY,3.7*12
$GNGGA,041357.000,2500.7893440,N,12132.4438198,E,4,57,0.48,16.780,M,15.25,M,1,3335*4B
$GNRMC,041357.000,A,2500.7893440,N,12132.4438198,E,0.01,317.96,090324,,,R,V*10
$GPHDT,47.423,T*03
$GNACCURACY,3.7*12
$GNGGA,041357.100,2500.7893444,N,12132.4438226,E,4,56,0.50,16.784,M,15.25,M,1,3335*44
$GNRMC,041357.100,A,2500.7893444,N,12132.4438226,E,0.00,317.96,090324,,,R,V*12
$GPHDT,,T*1B
$GNGSA,A,3,195,194,21,08,199,02,07,27,16,196,04,30,0.74,0.50,0.55,1*02
$GNGSA,A,3,09,,,,,,,,,,,,0.74,0.50,0.55,1*0E
$GNGSA,A,3,81,78,88,79,77,82,,,,,,,0.74,0.50,0.55,2*06
$GNGSA,A,3,21,13,26,27,15,,,,,,,,0.74,0.50,0.55,3*01
$GNGSA,A,3,23,09,06,16,40,07,28,43,39,25,37,34,0.74,0.50,0.55,4*0B
$GPGSV,4,1,15,195,65,113,42,194,64,053,41,21,62,153,44,08,61,358,43,1*65
$GPGSV,4,2,15,199,60,167,37,50,60,167,40,02,51,176,45,07,43,315,42,1*54
$GPGSV,4,3,15,27,31,037,44,16,26,077,35,09,22,244,16,196,19,169,26,1*51
$GPGSV,4,4,15,04,16,201,37,30,13,320,26,26,07,101,24,1*55
$GPGSV,3,1,09,195,65,113,42,194,64,053,43,08,61,358,49,199,60,167,46,8*5B
$GPGSV,3,2,09,27,31,037,47,09,22,244,15,196,19,169,25,04,16,201,34,8*52
$GPGSV,3,3,09,30,13,320,29,8*5F
$GLGSV,2,1,07,81,67,203,44,78,57,042,42,88,53,030,42,79,28,335,34,1*7D
$GLGSV,2,2,07,77,22,113,18,82,18,205,33,87,01,026,,1*4B
$GAGSV,2,1,07,21,55,014,42,13,54,077,36,26,46,172,42,27,28,081,33,7*73
$GAGSV,2,2,07,19,26,239,,15,12,038,19,04,12,297,18,7*46
$GAGSV,2,1,05,21,55,014,45,13,54,077,41,26,46,172,44,27,28,081,15,1*72
$GAGSV,2,2,05,15,12,038,25,1*4B
$GBGSV,4,1,13,23,75,038,44,09,72,263,41,06,70,214,42,16,67,199,44,1*70
$GBGSV,4,2,13,40,60,330,43,07,60,309,39,28,58,224,44,43,56,036,45,1*75
$GBGSV,4,3,13,39,56,188,44,10,51,291,21,25,36,119,36,37,32,322,38,1*74
$GBGSV,4,4,13,34,10,040,,1*46
$GBGSV,2,1,08,23,75,038,45,40,60,330,45,28,58,224,45,43,56,036,44,4*71
$GBGSV,2,2,08,39,56,188,42,25,36,119,34,37,32,322,37,34,10,040,24,4*7F
$GNACCURACY,3.7*12
$PAIRSAT,1,35,2,0,201,3,0,200,4,0,221,5,0,200,6,0,200,7,0,201,8,0,221,9,0,220,10,0,200,11,0,200,12,0,200,13,0,200,14,0,200,15,0,200,16,0,201,17,0,200,18,0,200,19,0,200,20,0,200,21,0,201,22,0,200,23,0,200,24,0,200,25,0,200,26,0,220,27,0,221,28,0,200,29,0,200,30,0,221,31,0,200,32,0,200,194,0,621,195,0,621,196,0,620,199,0,621*5A
$PAIRSAT,2,24,65,0,200,66,0,200,67,0,200,68,0,200,69,0,200,70,0,200,71,0,200,72,0,200,73,0,200,74,0,200,75,0,200,76,0,200,77,0,201,78,0,201,79,0,201,80,0,200,81,0,201,82,0,201,83,0,200,84,0,200,85,0,200,86,0,200,87,0,201,88,0,201*7B
$PAIRSAT,3,23,2,0,1200,3,0,1200,4,0,1200,5,0,200,7,0,1200,8,0,1200,9,0,1200,10,0,1200,11,0,1200,12,0,1200,13,0,1221,15,0,1220,19,0,1201,21,0,1221,24,0,1200,25,0,1200,26,0,1221,27,0,1221,30,0,1200,31,0,1200,33,0,1200,34,0,1000,36,0,1200*6B
$PAIRSAT,4,46,1,0,200,2,0,200,3,0,600,4,0,200,5,0,200,6,0,201,7,0,201,8,0,200,9,0,201,10,0,201,11,0,200,12,0,200,13,0,200,14,0,200,16,0,201,19,0,600,20,0,600,21,0,600,22,0,600,23,0,621,24,0,600,25,0,621,26,0,600,27,0,600,28,0,621,29,0,600,30,0,600,32,0,600,33,0,600,34,0,621,35,0,600,36,0,600,37,0,621,38,0,600,39,0,621,40,0,621,41,0,600,42,0,600,43,0,621,44,0,400,45,0,400,46,0,400,59,0,400,60,0,400,61,0,400,62,0,400*4A
$PAIRDGP,10,2,4,7,8,9,16,21,26,27,30*42
$GNGGA,041357.200,2500.7893438,N,12132.4438216,E,4,56,0.50,16.789,M,15.25,M,1,3335*42
$GNRMC,041357.200,A,2500.7893438,N,12132.4438216,E,0.01,317.96,090324,,,R,V*18
$GPHDT,47.064,T*04
$GNACCURACY,3.7*12
$GNGGA,041357.300,2500.7893449,N,12132.4438224,E,4,56,0.50,16.781,M,15.25,M,1,3335*4C
$GNRMC,041357.300,A,2500.7893449,N,12132.4438224,E,0.01,317.96,090324,,,R,V*1E
$GPHDT,,T*1B
$GNACCURACY,3.7*12
$GNGGA,041357.400,2500.7893434,N,12132.4438217,E,4,55,0.50,16.779,M,15.25,M,1,3335*45
$GNRMC,041357.400,A,2500.7893434,N,12132.4438217,E,0.01,317.96,090324,,,R,V*13
$GPHDT,47.365,T*06
$GNACCURACY,3.7*12
$GNGGA,041357.500,2500.7893451,N,12132.4438227,E,4,55,0.50,16.775,M,15.25,M,1,3335*48
$GNRMC,041357.500,A,2500.7893451,N,12132.4438227,E,0.01,317.96,090324,,,R,V*12
$GPHDT,,T*1B
$GNACCURACY,3.7*12
$GNGGA,041357.600,2500.7893446,N,12132.4438238,E,4,55,0.50,16.770,M,15.25,M,1,3335*46
$GNRMC,041357.600,A,2500.7893446,N,12132.4438238,E,0.01,317.96,090324,,,R,V*19
$GPHDT,47.108,T*0F
$GNACCURACY,3.7*12
$GNGGA,041357.700,2500.7893446,N,12132.4438221,E,4,55,0.50,16.781,M,15.25,M,0,3335*40
$GNRMC,041357.700,A,2500.7893446,N,12132.4438221,E,0.02,317.96,090324,,,R,V*13
$GPHDT,,T*1B
$GNACCURACY,3.7*12
$GNGGA,041357.800,2500.7893439,N,12132.4438226,E,4,55,0.50,16.791,M,15.25,M,0,3335*41
$GNRMC,041357.800,A,2500.7893439,N,12132.4438226,E,0.01,317.96,090324,,,R,V*10
$GPHDT,47.186,T*09
$GNACCURACY,3.7*12
$GNGGA,041357.900,2500.7893463,N,12132.4438165,E,4,55,0.50,16.781,M,15.25,M,0,3335*4A
$GNRMC,041357.900,A,2500.7893463,N,12132.4438165,E,0.01,317.96,090324,,,R,V*1A
$GPHDT,,T*1B
$GNACCURACY,3.7*12
$GNGGA,041358.000,2500.7893433,N,12132.4438262,E,4,55,0.50,16.772,M,15.25,M,1,3335*40
$GNRMC,041358.000,A,2500.7893433,N,12132.4438262,E,0.00,317.96,090324,,,R,V*1C
$GPHDT,46.608,T*09
$GNACCURACY,3.7*12
$GNGGA,041358.100,2500.7893456,N,12132.4438193,E,4,55,0.50,16.777,M,15.25,M,1,3335*4A
$GNRMC,041358.100,A,2500.7893456,N,12132.4438193,E,0.00,317.96,090324,,,R,V*13
$GPHDT,,T*1B
$GNGSA,A,3,195,194,21,08,199,02,07,27,16,196,04,30,0.74,0.50,0.55,1*02
$GNGSA,A,3,09,,,,,,,,,,,,0.74,0.50,0.55,1*0E
$GNGSA,A,3,81,78,88,79,77,82,,,,,,,0.74,0.50,0.55,2*06
$GNGSA,A,3,21,13,26,27,15,,,,,,,,0.74,0.50,0.55,3*01
$GNGSA,A,3,23,09,06,16,40,07,28,43,39,25,37,34,0.74,0.50,0.55,4*0B
$GPGSV,4,1,15,195,65,113,41,194,64,053,41,21,62,153,44,08,61,358,43,1*66
$GPGSV,4,2,15,199,60,167,37,50,60,167,40,02,51,176,46,07,43,315,42,1*57
$GPGSV,4,3,15,27,31,037,44,16,26,077,37,09,22,244,15,196,19,169,25,1*53
$GPGSV,4,4,15,04,16,201,37,30,13,320,27,26,07,101,23,1*53
$GPGSV,3,1,09,195,65,113,42,194,64,053,43,08,61,358,49,199,60,167,46,8*5B
$GPGSV,3,2,09,27,31,037,47,09,22,244,16,196,19,169,24,04,16,201,34,8*50
$GPGSV,3,3,09,30,13,320,30,8*57
$GLGSV,2,1,07,81,67,203,44,78,57,042,43,88,53,030,42,79,28,335,30,1*78
$GLGSV,2,2,07,77,22,113,18,82,18,205,32,87,01,026,,1*4A
$GAGSV,2,1,07,21,55,014,42,13,54,077,37,26,46,172,42,27,28,081,33,7*72
$GAGSV,2,2,07,19,26,239,,15,12,038,20,04,12,297,18,7*4C
$GAGSV,1,1,04,21,55,014,45,13,54,077,41,26,46,172,44,15,12,038,24,1*78
$GBGSV,4,1,13,23,75,038,44,09,72,263,41,06,70,214,42,16,67,199,44,1*70
$GBGSV,4,2,13,40,60,330,43,07,60,309,39,28,58,224,43,43,56,036,45,1*72
$GBGSV,4,3,13,39,56,188,44,10,51,291,20,25,36,119,35,37,32,322,37,1*79
$GBGSV,4,4,13,34,10,040,,1*46
$GBGSV,2,1,08,23,75,038,46,40,60,330,44,28,58,224,45,43,56,036,44,4*73
$GBGSV,2,2,08,39,56,188,42,25,36,119,33,37,32,322,35,34,10,040,24,4*7A
$GNACCURACY,3.7*12
$PAIRSAT,1,35,2,0,201,3,0,200,4,0,221,5,0,200,6,0,200,7,0,201,8,0,221,9,0,220,10,0,200,11,0,200,12,0,200,13,0,200,14,0,200,15,0,200,16,0,201,17,0,200,18,0,200,19,0,200,20,0,200,21,0,201,22,0,200,23,0,200,24,0,200,25,0,200,26,0,220,27,0,221,28,0,200,29,0,200,30,0,221,31,0,200,32,0,200,194,0,621,195,0,621,196,0,620,199,0,621*5A
$PAIRSAT,2,24,65,0,200,66,0,200,67,0,200,68,0,200,69,0,200,70,0,200,71,0,200,72,0,200,73,0,200,74,0,200,75,0,200,76,0,200,77,0,201,78,0,201,79,0,201,80,0,200,81,0,201,82,0,201,83,0,200,84,0,200,85,0,200,86,0,200,87,0,201,88,0,201*7B
$PAIRSAT,3,23,2,0,1200,3,0,1200,4,0,1200,5,0,200,7,0,1200,8,0,1200,9,0,1200,10,0,1200,11,0,1200,12,0,1200,13,0,1221,15,0,1220,19,0,1201,21,0,1221,24,0,1200,25,0,1200,26,0,1221,27,0,1221,30,0,1200,31,0,1200,33,0,1200,34,0,1000,36,0,1200*6B
$PAIRSAT,4,46,1,0,200,2,0,200,3,0,600,4,0,200,5,0,200,6,0,201,7,0,201,8,0,200,9,0,201,10,0,201,11,0,200,12,0,200,13,0,200,14,0,200,16,0,201,19,0,600,20,0,600,21,0,600,22,0,600,23,0,621,24,0,600,25,0,621,26,0,600,27,0,600,28,0,621,29,0,600,30,0,600,32,0,600,33,0,600,34,0,621,35,0,600,36,0,600,37,0,621,38,0,600,39,0,621,40,0,621,41,0,600,42,0,600,43,0,621,44,0,400,45,0,400,46,0,400,59,0,400,60,0,400,61,0,400,62,0,400*4A
$PAIRDGP,10,2,4,7,8,9,16,21,26,27,30*42
$GNGGA,041358.200,2500.7893471,N,12132.4438165,E,4,55,0.50,16.785,M,15.25,M,1,3335*48
$GNRMC,041358.200,A,2500.7893471,N,12132.4438165,E,0.01,317.96,090324,,,R,V*1D
$GPHDT,47.911,T*0F
$GNACCURACY,3.7*12
$GNGGA,041358.300,2500.7893458,N,12132.4438159,E,4,55,0.50,16.791,M,15.25,M,1,3335*48
$GNRMC,041358.300,A,2500.7893458,N,12132.4438159,E,0.02,317.96,090324,,,R,V*1B
$GPHDT,,T*1B
$GNACCURACY,3.7*12
$GNGGA,041358.400,2500.7893450,N,12132.4438182,E,4,55,0.50,16.788,M,15.25,M,1,3335*49
$GNRMC,041358.400,A,2500.7893450,N,12132.4438182,E,0.02,317.96,090324,,,R,V*12
$GPHDT,47.574,T*00
$GNACCURACY,3.7*12
$GNGGA,041358.500,2500.7893470,N,12132.4438161,E,4,55,0.50,16.777,M,15.25,M,0,3335*46
$GNRMC,041358.500,A,2500.7893470,N,12132.4438161,E,0.01,317.96,090324,,,R,V*1F
$GPHDT,,T*1B
$GNACCURACY,3.7*12
$GNGGA,041358.600,2500.7893469,N,12132.4438174,E,4,56,0.48,16.783,M,15.25,M,0,3335*48
$GNRMC,041358.600,A,2500.7893469,N,12132.4438174,E,0.01,317.96,090324,,,R,V*10
$GPHDT,47.900,T*0F
