$FW : RTK35X,V1.1X0314AS,Lib20210517,1*54
$Tool : LOCOSYS , GNSS Firebird , v1.0.0.19*39
$---------------------------------------------------*2D
$GNACCURACY,3.5*10
$GNGGA,041412.100,2500.7893435,N,12132.4438057,E,4,53,0.51,16.774,M,15.25,M,1,3335*4B
$GNRMC,041412.100,A,2500.7893435,N,12132.4438057,E,0.01,317.96,090324,,,R,V*17
$GPHDT,,T*1B
$GNGSA,A,3,195,194,21,08,199,02,07,27,16,196,04,30,0.77,0.51,0.57,1*02
$GNGSA,A,3,81,78,88,79,82,,,,,,,,0.77,0.51,0.57,2*06
$GNGSA,A,3,21,13,26,27,15,,,,,,,,0.77,0.51,0.57,3*01
$GNGSA,A,3,23,09,06,16,07,40,28,43,39,10,25,37,0.77,0.51,0.57,4*0D
$GNGSA,A,3,34,,,,,,,,,,,,0.77,0.51,0.57,4*05
$GPGSV,4,1,15,195,65,113,43,194,64,053,39,21,62,153,43,08,61,359,41,1*6F
$GPGSV,4,2,15,199,60,167,33,50,60,167,36,02,51,176,39,07,43,315,39,1*56
$GPGSV,4,3,15,27,31,037,42,16,26,078,33,09,22,244,12,196,19,169,31,1*5C
$GPGSV,4,4,15,04,16,201,28,30,13,320,20,26,07,101,20,1*59
$GPGSV,2,1,08,195,65,113,44,194,64,053,43,08,61,359,45,199,60,167,40,8*56
$GPGSV,2,2,08,27,31,037,45,196,19,169,29,04,16,201,17,30,13,320,34,8*55
$GLGSV,2,1,06,81,68,204,39,78,58,042,43,88,53,030,46,79,28,335,24,1*75
$GLGSV,2,2,06,77,22,113,16,82,18,205,26,1*7A
$GAGSV,2,1,07,21,55,015,42,13,54,077,39,26,46,172,41,27,28,081,32,7*7F
$GAGSV,2,2,07,19,26,239,,15,12,038,17,04,12,297,13,7*43
$GAGSV,1,1,04,21,55,015,41,13,54,077,42,26,46,172,38,15,12,038,13,1*71
$GBGSV,4,1,13,23,75,038,46,09,72,262,40,06,70,214,37,16,67,199,38,1*7B
$GBGSV,4,2,13,07,60,309,42,40,60,330,42,28,58,224,33,43,56,036,47,1*7A
$GBGSV,4,3,13,39,56,188,37,10,51,291,24,25,36,120,35,37,32,322,39,1*7D
$GBGSV,4,4,13,34,10,040,,1*46
$GBGSV,2,1,08,23,75,038,46,40,60,330,41,28,58,224,31,43,56,036,43,4*72
$GBGSV,2,2,08,39,56,188,35,25,36,120,29,37,32,322,38,34,10,040,24,4*76
$GNACCURACY,3.5*10
$PAIRSAT,1,35,2,0,201,3,0,200,4,0,221,5,0,200,6,0,200,7,0,201,8,0,221,9,0,220,10,0,200,11,0,200,12,0,200,13,0,200,14,0,200,15,0,200,16,0,201,17,0,200,18,0,200,19,0,200,20,0,200,21,0,201,22,0,200,23,0,200,24,0,200,25,0,200,26,0,220,27,0,221,28,0,200,29,0,200,30,0,221,31,0,200,32,0,200,194,0,621,195,0,621,196,0,620,199,0,621*5A
$PAIRSAT,2,24,65,0,200,66,0,200,67,0,200,68,0,200,69,0,200,70,0,200,71,0,200,72,0,200,73,0,200,74,0,200,75,0,200,76,0,200,77,0,201,78,0,201,79,0,201,80,0,200,81,0,201,82,0,201,83,0,200,84,0,200,85,0,200,86,0,200,87,0,201,88,0,201*7B
$PAIRSAT,3,23,2,0,1200,3,0,1200,4,0,1200,5,0,200,7,0,1200,8,0,1200,9,0,1200,10,0,1200,11,0,1200,12,0,1200,13,0,1221,15,0,1220,19,0,1201,21,0,1221,24,0,1200,25,0,1200,26,0,1221,27,0,1221,30,0,1200,31,0,1200,33,0,1200,34,0,1000,36,0,1200*6B
$PAIRSAT,4,46,1,0,200,2,0,200,3,0,600,4,0,200,5,0,200,6,0,201,7,0,201,8,0,200,9,0,201,10,0,201,11,0,200,12,0,200,13,0,200,14,0,200,16,0,201,19,0,600,20,0,600,21,0,600,22,0,600,23,0,621,24,0,600,25,0,621,26,0,600,27,0,600,28,0,621,29,0,600,30,0,600,32,0,600,33,0,600,34,0,621,35,0,600,36,0,600,37,0,621,38,0,600,39,0,621,40,0,621,41,0,600,42,0,600,43,0,621,44,0,400,45,0,400,46,0,400,59,0,400,60,0,400,61,0,400,62,0,400*4A
$PAIRDGP,10,2,4,7,8,9,16,21,26,27,30*42
$GNGGA,041412.200,2500.7893439,N,12132.4438107,E,4,53,0.51,16.767,M,15.25,M,1,3335*42
$GNRMC,041412.200,A,2500.7893439,N,12132.4438107,E,0.01,317.96,090324,,,R,V*1C
$GPHDT,314.943,T*3D
$GNACCURACY,3.5*10
$GNGGA,041412.300,2500.7893450,N,12132.4438119,E,4,53,0.51,16.781,M,15.25,M,1,3335*4B
$GNRMC,041412.300,A,2500.7893450,N,12132.4438119,E,0.02,317.96,090324,,,R,V*1E
$GPHDT,,T*1B
$GNACCURACY,3.5*10
$GNGGA,041412.400,2500.7893439,N,12132.4438122,E,4,53,0.51,16.759,M,15.25,M,1,3335*4E
$GNRMC,041412.400,A,2500.7893439,N,12132.4438122,E,0.01,317.96,090324,,,R,V*1D
$GPHDT,315.238,T*3B
$GNACCURACY,3.5*10
$GNGGA,041412.500,2500.7893423,N,12132.4438116,E,4,53,0.51,16.752,M,15.25,M,1,3335*48
$GNRMC,041412.500,A,2500.7893423,N,12132.4438116,E,0.01,317.96,090324,,,R,V*10
$GPHDT,,T*1B
$GNACCURACY,3.5*10
$GNGGA,041412.600,2500.7893425,N,12132.4438101,E,4,53,0.51,16.764,M,15.25,M,0,3335*4F
$GNRMC,041412.600,A,2500.7893425,N,12132.4438101,E,0.02,317.96,090324,,,R,V*10
$GPHDT,315.566,T*37
$GNACCURACY,3.5*10
$GNGGA,041412.700,2500.7893426,N,12132.4438102,E,4,53,0.51,16.759,M,15.25,M,0,3335*40
$GNRMC,041412.700,A,2500.7893426,N,12132.4438102,E,0.01,317.96,090324,,,R,V*12
$GPHDT,,T*1B
$GNACCURACY,3.5*10
$GNGGA,041412.800,2500.7893423,N,12132.4438049,E,4,53,0.51,16.767,M,15.25,M,0,3335*49
$GNRMC,041412.800,A,2500.7893423,N,12132.4438049,E,0.01,317.96,090324,,,R,V*16
$GPHDT,317.068,T*3E
$GNACCURACY,3.5*10
$GNGGA,041412.900,2500.7893443,N,12132.4438046,E,4,53,0.51,16.773,M,15.25,M,0,3335*44
$GNRMC,041412.900,A,2500.7893443,N,12132.4438046,E,0.01,317.96,090324,,,R,V*1E
$GPHDT,,T*1B
$GNACCURACY,3.5*10
$GNGGA,041413.000,2500.7893435,N,12132.4438067,E,4,53,0.51,16.771,M,15.25,M,1,3335*4D
$GNRMC,041413.000,A,2500.7893435,N,12132.4438067,E,0.01,317.96,090324,,,R,V*14
$GPHDT,317.111,T*31
$GNACCURACY,3.5*10
$GNGGA,041413.100,2500.7893445,N,12132.4438062,E,4,53,0.51,16.780,M,15.25,M,1,3335*40
$GNRMC,041413.100,A,2500.7893445,N,12132.4438062,E,0.01,317.96,090324,,,R,V*17
$GPHDT,,T*1B
$GNGSA,A,3,195,194,21,08,199,02,07,27,16,196,04,30,0.77,0.51,0.57,1*02
$GNGSA,A,3,81,78,88,79,82,,,,,,,,0.77,0.51,0.57,2*06
$GNGSA,A,3,21,13,26,27,15,,,,,,,,0.77,0.51,0.57,3*01
$GNGSA,A,3,23,09,06,16,07,40,28,43,39,10,25,37,0.77,0.51,0.57,4*0D
$GNGSA,A,3,34,,,,,,,,,,,,0.77,0.51,0.57,4*05
$GPGSV,4,1,15,195,65,113,44,194,64,053,41,21,62,153,42,08,61,359,41,1*66
$GPGSV,4,2,15,199,60,167,35,50,60,167,37,02,51,176,43,07,43,315,36,1*53
$GPGSV,4,3,15,27,31,037,41,16,26,078,29,09,22,244,11,196,19,169,30,1*56
$GPGSV,4,4,15,04,16,201,29,30,13,320,18,26,07,101,19,1*59
$GPGSV,2,1,08,195,65,113,44,194,64,053,43,08,61,359,45,199,60,167,45,8*53
$GPGSV,2,2,08,27,31,037,45,196,19,169,29,04,16,201,19,30,13,320,35,8*5A
$GLGSV,2,1,06,81,68,204,44,78,58,042,43,88,53,030,46,79,28,335,22,1*79
$GLGSV,2,2,06,77,22,113,16,82,18,205,27,1*7B
$GAGSV,2,1,07,21,55,015,42,13,54,077,40,26,46,172,41,27,28,081,30,7*73
$GAGSV,2,2,07,19,26,239,,15,12,038,17,04,12,297,15,7*45
$GAGSV,1,1,04,21,55,015,42,13,54,077,43,26,46,172,42,15,12,038,14,1*79
$GBGSV,4,1,13,23,75,038,46,09,72,262,42,06,70,214,41,16,67,199,43,1*74
$GBGSV,4,2,13,07,60,309,42,40,60,330,42,28,58,224,42,43,56,036,47,1*7C
$GBGSV,4,3,13,39,56,188,43,10,51,291,24,25,36,120,36,37,32,322,40,1*73
$GBGSV,4,4,13,34,10,040,,1*46
$GBGSV,2,1,08,23,75,038,47,40,60,330,41,28,58,224,41,43,56,036,44,4*73
$GBGSV,2,2,08,39,56,188,39,25,36,120,30,37,32,322,38,34,10,040,27,4*71
$GNACCURACY,3.6*13
$PAIRSAT,1,35,2,0,201,3,0,200,4,0,221,5,0,200,6,0,200,7,0,201,8,0,221,9,0,220,10,0,200,11,0,200,12,0,200,13,0,200,14,0,200,15,0,200,16,0,201,17,0,200,18,0,200,19,0,200,20,0,200,21,0,201,22,0,200,23,0,200,24,0,200,25,0,200,26,0,220,27,0,221,28,0,200,29,0,200,30,0,221,31,0,200,32,0,200,194,0,621,195,0,621,196,0,620,199,0,621*5A
$PAIRSAT,2,24,65,0,200,66,0,200,67,0,200,68,0,200,69,0,200,70,0,200,71,0,200,72,0,200,73,0,200,74,0,200,75,0,200,76,0,200,77,0,201,78,0,201,79,0,201,80,0,200,81,0,201,82,0,201,83,0,200,84,0,200,85,0,200,86,0,200,87,0,201,88,0,201*7B
$PAIRSAT,3,23,2,0,1200,3,0,1200,4,0,1200,5,0,200,7,0,1200,8,0,1200,9,0,1200,10,0,1200,11,0,1200,12,0,1200,13,0,1221,15,0,1220,19,0,1201,21,0,1221,24,0,1200,25,0,1200,26,0,1221,27,0,1221,30,0,1200,31,0,1200,33,0,1200,34,0,1000,36,0,1200*6B
$PAIRSAT,4,46,1,0,200,2,0,200,3,0,600,4,0,200,5,0,200,6,0,201,7,0,201,8,0,200,9,0,201,10,0,201,11,0,200,12,0,200,13,0,200,14,0,200,16,0,201,19,0,600,20,0,600,21,0,600,22,0,600,23,0,621,24,0,600,25,0,621,26,0,600,27,0,600,28,0,621,29,0,600,30,0,600,32,0,600,33,0,600,34,0,621,35,0,600,36,0,600,37,0,621,38,0,600,39,0,621,40,0,621,41,0,600,42,0,600,43,0,621,44,0,400,45,0,400,46,0,400,59,0,400,60,0,400,61,0,400,62,0,400*4A
$PAIRDGP,10,2,4,7,8,9,16,21,26,27,30*42
$GNGGA,041413.200,2500.7893442,N,12132.4438099,E,4,53,0.51,16.749,M,15.25,M,1,3335*45
$GNRMC,041413.200,A,2500.7893442,N,12132.4438099,E,0.02,317.96,090324,,,R,V*14
$GPHDT,317.280,T*3A
$GNACCURACY,3.6*13
$GNGGA,041413.300,2500.7893448,N,12132.4438082,E,4,53,0.51,16.777,M,15.25,M,1,3335*49
$GNRMC,041413.300,A,2500.7893448,N,12132.4438082,E,0.01,317.96,090324,,,R,V*16
$GPHDT,,T*1B
$GNACCURACY,3.6*13
$GNGGA,041413.400,2500.7893451,N,12132.4438062,E,4,53,0.51,16.775,M,15.25,M,1,3335*4A
$GNRMC,041413.400,A,2500.7893451,N,12132.4438062,E,0.01,317.96,090324,,,R,V*17
$GPHDT,317.656,T*35
$GNACCURACY,3.6*13
$GNGGA,041413.500,2500.7893450,N,12132.4438060,E,4,53,0.51,16.771,M,15.25,M,0,3335*4D
$GNRMC,041413.500,A,2500.7893450,N,12132.4438060,E,0.01,317.96,090324,,,R,V*15
$GPHDT,,T*1B
$GNACCURACY,3.6*13
$GNGGA,041413.600,2500.7893451,N,12132.4438086,E,4,53,0.51,16.770,M,15.25,M,0,3335*46
$GNRMC,041413.600,A,2500.7893451,N,12132.4438086,E,0.01,317.96,090324,,,R,V*1F
$GPHDT,317.619,T*3E
$GNACCURACY,3.6*13
$GNGGA,041413.700,2500.7893445,N,12132.4438073,E,4,53,0.51,16.754,M,15.25,M,0,3335*4E
$GNRMC,041413.700,A,2500.7893445,N,12132.4438073,E,0.00,317.96,090324,,,R,V*10
$GPHDT,,T*1B
$GNACCURACY,3.6*13
$GNGGA,041413.800,2500.7893447,N,12132.4438094,E,4,53,0.51,16.771,M,15.25,M,0,3335*4D
$GNRMC,041413.800,A,2500.7893447,N,12132.4438094,E,0.01,317.96,090324,,,R,V*15
$GPHDT,317.630,T*35
$GNACCURACY,3.6*13
$GNGGA,041413.900,2500.7893452,N,12132.4438060,E,4,54,0.50,16.761,M,15.25,M,0,3335*44
$GNRMC,041413.900,A,2500.7893452,N,12132.4438060,E,0.01,317.96,090324,,,R,V*1B
$GPHDT,,T*1B
$GNACCURACY,3.6*13
$GNGGA,041414.000,2500.7893443,N,12132.4438049,E,4,54,0.50,16.763,M,15.25,M,1,3335*42
$GNRMC,041414.000,A,2500.7893443,N,12132.4438049,E,0.01,317.96,090324,,,R,V*1E
$GPHDT,317.989,T*38
$GNACCURACY,3.6*13
$GNGGA,041414.100,2500.7893462,N,12132.4438069,E,4,54,0.50,16.768,M,15.25,M,1,3335*49
$GNRMC,041414.100,A,2500.7893462,N,12132.4438069,E,0.01,317.96,090324,,,R,V*1E
$GPHDT,,T*1B
$GNGSA,A,3,195,194,21,08,199,02,07,27,16,196,04,30,0.76,0.50,0.57,1*02
$GNGSA,A,3,81,78,88,79,77,82,,,,,,,0.76,0.50,0.57,2*06
$GNGSA,A,3,21,13,26,27,15,,,,,,,,0.76,0.50,0.57,3*01
$GNGSA,A,3,23,09,06,16,07,40,28,43,39,10,25,37,0.76,0.50,0.57,4*0D
$GNGSA,A,3,34,,,,,,,,,,,,0.76,0.50,0.57,4*05
$GPGSV,4,1,15,195,65,113,44,194,64,053,41,21,62,153,42,08,61,359,41,1*66
$GPGSV,4,2,15,199,60,167,34,50,60,167,36,02,51,176,44,07,43,315,36,1*54
$GPGSV,4,3,15,27,31,037,42,16,26,078,30,09,22,244,13,196,19,169,30,1*5F
$GPGSV,4,4,15,04,16,201,30,30,13,320,17,26,07,101,20,1*54
$GPGSV,2,1,07,195,65,113,44,194,64,053,43,08,61,359,45,199,60,167,45,8*5C
$GPGSV,2,2,07,27,31,037,45,196,19,169,32,30,13,320,35,8*67
$GLGSV,2,1,06,81,68,204,45,78,58,042,44,88,53,030,45,79,28,335,20,1*7E
$GLGSV,2,2,06,77,22,113,17,82,18,205,29,1*74
$GAGSV,2,1,07,21,55,015,42,13,54,077,40,26,46,172,41,27,28,081,29,7*7B
$GAGSV,2,2,07,19,26,239,,15,12,038,17,04,12,297,13,7*43
$GAGSV,2,1,05,21,55,015,42,13,54,077,44,26,46,172,42,27,28,081,23,1*72
$GAGSV,2,2,05,15,12,038,12,1*4F
$GBGSV,4,1,13,23,75,038,46,09,72,262,42,06,70,214,41,16,67,199,44,1*73
$GBGSV,4,2,13,07,60,309,42,40,60,330,42,28,58,224,42,43,56,036,47,1*7C
$GBGSV,4,3,13,39,56,188,43,10,51,291,24,25,36,120,37,37,32,322,42,1*70
$GBGSV,4,4,13,34,10,040,,1*46
$GBGSV,2,1,08,23,75,038,47,40,60,330,41,28,58,224,42,43,56,036,44,4*70
$GBGSV,2,2,08,39,56,188,40,25,36,120,31,37,32,322,38,34,10,040,27,4*7E
$GNACCURACY,3.6*13
$PAIRSAT,1,35,2,0,201,3,0,200,4,0,221,5,0,200,6,0,200,7,0,201,8,0,221,9,0,220,10,0,200,11,0,200,12,0,200,13,0,200,14,0,200,15,0,200,16,0,201,17,0,200,18,0,200,19,0,200,20,0,200,21,0,201,22,0,200,23,0,200,24,0,200,25,0,200,26,0,220,27,0,221,28,0,200,29,0,200,30,0,221,31,0,200,32,0,200,194,0,621,195,0,621,196,0,620,199,0,621*5A
$PAIRSAT,2,24,65,0,200,66,0,200,67,0,200,68,0,200,69,0,200,70,0,200,71,0,200,72,0,200,73,0,200,74,0,200,75,0,200,76,0,200,77,0,201,78,0,201,79,0,201,80,0,200,81,0,201,82,0,201,83,0,200,84,0,200,85,0,200,86,0,200,87,0,201,88,0,201*7B
$PAIRSAT,3,23,2,0,1200,3,0,1200,4,0,1200,5,0,200,7,0,1200,8,0,1200,9,0,1200,10,0,1200,11,0,1200,12,0,1200,13,0,1221,15,0,1220,19,0,1201,21,0,1221,24,0,1200,25,0,1200,26,0,1221,27,0,1221,30,0,1200,31,0,1200,33,0,1200,34,0,1000,36,0,1200*6B
$PAIRSAT,4,46,1,0,200,2,0,200,3,0,600,4,0,200,5,0,200,6,0,201,7,0,201,8,0,200,9,0,201,10,0,201,11,0,200,12,0,200,13,0,200,14,0,200,16,0,201,19,0,600,20,0,600,21,0,600,22,0,600,23,0,621,24,0,600,25,0,621,26,0,600,27,0,600,28,0,621,29,0,600,30,0,600,32,0,600,33,0,600,34,0,621,35,0,600,36,0,600,37,0,621,38,0,600,39,0,621,40,0,621,41,0,600,42,0,600,43,0,621,44,0,400,45,0,400,46,0,400,59,0,400,60,0,400,61,0,400,62,0,400*4A
$PAIRDGP,10,2,4,7,8,9,16,21,26,27,30*42
$GNGGA,041414.200,2500.7893446,N,12132.4438083,E,4,54,0.50,16.765,M,15.25,M,1,3335*45
$GNRMC,041414.200,A,2500.7893446,N,12132.4438083,E,0.01,317.96,090324,,,R,V*1F
$GPHDT,317.661,T*31
$GNACCURACY,3.6*13
$GNGGA,041414.300,2500.7893457,N,12132.4438062,E,4,54,0.50,16.778,M,15.25,M,1,3335*47
$GNRMC,041414.300,A,2500.7893457,N,12132.4438062,E,0.01,317.96,090324,,,R,V*11
$GPHDT,,T*1B
$GNACCURACY,3.6*13
$GNGGA,041414.400,2500.7893464,N,12132.4438102,E,4,54,0.50,16.765,M,15.25,M,1,3335*4B
$GNRMC,041414.400,A,2500.7893464,N,12132.4438102,E,0.02,317.96,090324,,,R,V*12
$GPHDT,317.506,T*33
$GNACCURACY,3.6*13
$GNGGA,041414.500,2500.7893434,N,12132.4438066,E,4,54,0.50,16.765,M,15.25,M,0,3335*4D
$GNRMC,041414.500,A,2500.7893434,N,12132.4438066,E,0.02,317.96,090324,,,R,V*15
$GPHDT,,T*1B
$GNACCURACY,3.6*13
$GNGGA,041414.600,2500.7893454,N,12132.4438069,E,4,54,0.50,16.773,M,15.25,M,0,3335*40
$GNRMC,041414.600,A,2500.7893454,N,12132.4438069,E,0.02,317.96,090324,,,R,V*1F
$GPHDT,317.933,T*39
$GNACCURACY,3.6*13
$GNGGA,041414.700,2500.7893445,N,12132.4438081,E,4,54,0.50,16.766,M,15.25,M,0,3335*43
$GNRMC,041414.700,A,2500.7893445,N,12132.4438081,E,0.03,317.96,090324,,,R,V*19
$GPHDT,,T*1B
$GNACCURACY,3.6*13
$GNGGA,041414.800,2500.7893455,N,12132.4438070,E,4,54,0.50,16.770,M,15.25,M,0,3335*44
$GNRMC,041414.800,A,2500.7893455,N,12132.4438070,E,0.03,317.96,090324,,,R,V*19
$GPHDT,317.732,T*36
$GNACCURACY,3.6*13
$GNGGA,041414.900,2500.7893442,N,12132.4438069,E,4,54,0.50,16.769,M,15.25,M,0,3335*43
$GNRMC,041414.900,A,2500.7893442,N,12132.4438069,E,0.03,317.96,090324,,,R,V*16
$GPHDT,,T*1B
$GNACCURACY,3.6*13
$GNGGA,041415.000,2500.7893448,N,12132.4438058,E,4,55,0.50,16.772,M,15.25,M,1,3335*49
$GNRMC,041415.000,A,2500.7893448,N,12132.4438058,E,0.02,317.96,090324,,,R,V*17
$GPHDT,317.907,T*3E
$GNACCURACY,3.6*13
$GNGGA,041415.100,2500.7893452,N,12132.4438067,E,4,54,0.50,16.765,M,15.25,M,1,3335*48
$GNRMC,041415.100,A,2500.7893452,N,12132.4438067,E,0.02,317.96,090324,,,R,V*11
$GPHDT,,T*1B
$GNGSA,A,3,195,194,21,08,199,02,07,27,16,196,04,30,0.76,0.50,0.57,1*02
$GNGSA,A,3,81,78,88,79,77,82,,,,,,,0.76,0.50,0.57,2*06
$GNGSA,A,3,21,13,26,27,15,,,,,,,,0.76,0.50,0.57,3*01
$GNGSA,A,3,23,09,06,16,07,40,28,39,43,10,25,37,0.76,0.50,0.57,4*0D
$GNGSA,A,3,34,,,,,,,,,,,,0.76,0.50,0.57,4*05
$GPGSV,4,1,15,195,65,113,44,194,64,053,41,21,62,153,42,08,61,359,41,1*66
$GPGSV,4,2,15,199,60,167,34,50,60,167,36,02,51,176,44,07,43,315,36,1*54
$GPGSV,4,3,15,27,31,037,42,16,26,078,31,09,22,244,13,196,19,169,30,1*5E
$GPGSV,4,4,15,04,16,201,30,30,13,320,18,26,07,101,20,1*5B
$GPGSV,2,1,08,195,65,113,44,194,64,053,43,08,61,359,46,199,60,167,45,8*50
$GPGSV,2,2,08,27,31,037,45,196,19,169,30,04,16,201,25,30,13,320,34,8*5C
$GLGSV,2,1,06,81,68,204,45,78,58,042,44,88,53,030,46,79,28,335,19,1*77
$GLGSV,2,2,06,77,22,113,14,82,18,205,29,1*77
$GAGSV,2,1,08,21,55,015,42,13,54,077,40,26,46,172,41,27,28,081,29,7*74
$GAGSV,2,2,08,19,26,239,,04,12,297,12,15,12,038,16,33,05,199,,7*78
$GAGSV,2,1,05,21,55,015,41,13,54,077,44,26,46,172,42,27,28,081,24,1*76
$GAGSV,2,2,05,15,12,038,12,1*4F
$GBGSV,4,1,14,23,75,038,46,09,72,262,42,06,70,214,42,16,67,199,44,1*77
$GBGSV,4,2,14,07,60,309,41,40,60,330,42,28,58,224,42,39,56,188,43,1*75
$GBGSV,4,3,14,43,56,036,47,10,51,291,26,25,36,120,37,37,32,322,41,1*7B
$GBGSV,4,4,14,38,11,168,,34,10,040,,1*75
$GBGSV,2,1,08,23,75,038,47,40,60,330,41,28,58,224,42,43,56,036,44,4*70
$GBGSV,2,2,08,39,56,188,40,25,36,120,32,37,32,322,36,34,10,040,27,4*73
$GNACCURACY,3.6*13
$PAIRSAT,1,35,2,0,201,3,0,200,4,0,221,5,0,200,6,0,200,7,0,201,8,0,221,9,0,220,10,0,200,11,0,200,12,0,200,13,0,200,14,0,200,15,0,200,16,0,201,17,0,200,18,0,200,19,0,200,20,0,200,21,0,201,22,0,200,23,0,200,24,0,200,25,0,200,26,0,220,27,0,221,28,0,200,29,0,200,30,0,221,31,0,200,32,0,200,194,0,621,195,0,621,196,0,620,199,0,621*5A
$PAIRSAT,2,24,65,0,200,66,0,200,67,0,200,68,0,200,69,0,200,70,0,200,71,0,200,72,0,200,73,0,200,74,0,200,75,0,200,76,0,200,77,0,201,78,0,201,79,0,201,80,0,200,81,0,201,82,0,201,83,0,200,84,0,200,85,0,200,86,0,200,87,0,201,88,0,201*7B
$PAIRSAT,3,23,2,0,1200,3,0,1200,4,0,1200,5,0,200,7,0,1200,8,0,1200,9,0,1200,10,0,1200,11,0,1200,12,0,1200,13,0,1221,15,0,1220,19,0,1201,21,0,1221,24,0,1200,25,0,1200,26,0,1221,27,0,1221,30,0,1200,31,0,1200,33,0,1200,34,0,1000,36,0,1200*6B
$PAIRSAT,4,46,1,0,200,2,0,200,3,0,600,4,0,200,5,0,200,6,0,201,7,0,201,8,0,200,9,0,201,10,0,201,11,0,200,12,0,200,13,0,200,14,0,200,16,0,201,19,0,600,20,0,600,21,0,600,22,0,600,23,0,621,24,0,600,25,0,621,26,0,600,27,0,600,28,0,621,29,0,600,30,0,600,32,0,600,33,0,600,34,0,621,35,0,600,36,0,600,37,0,621,38,0,600,39,0,621,40,0,621,41,0,600,42,0,600,43,0,621,44,0,400,45,0,400,46,0,400,59,0,400,60,0,400,61,0,400,62,0,400*4A
$PAIRDGP,10,2,4,7,8,9,16,21,26,27,30*42
$GNGGA,041415.200,2500.7893450,N,12132.4438101,E,4,55,0.50,16.750,M,15.25,M,1,3335*4F
$GNRMC,041415.200,A,2500.7893450,N,12132.4438101,E,0.02,317.96,090324,,,R,V*11
$GPHDT,317.613,T*34
$GNACCURACY,3.6*13
$GNGGA,041415.300,2500.7893446,N,12132.4438086,E,4,55,0.50,16.769,M,15.25,M,1,3335*4D
$GNRMC,041415.300,A,2500.7893446,N,12132.4438086,E,0.02,317.96,090324,,,R,V*19
$GPHDT,,T*1B
$GNACCURACY,3.6*13
$GNGGA,041415.400,2500.7893450,N,12132.4438068,E,4,54,0.50,16.769,M,15.25,M,1,3335*4C
$GNRMC,041415.400,A,2500.7893450,N,12132.4438068,E,0.02,317.96,090324,,,R,V*19
$GPHDT,317.504,T*31
$GNACCURACY,3.6*13
$GNGGA,041415.500,2500.7893445,N,12132.4438089,E,4,54,0.50,16.769,M,15.25,M,1,3335*46
$GNRMC,041415.500,A,2500.7893445,N,12132.4438089,E,0.02,317.96,090324,,,R,V*13
$GPHDT,,T*1B
$GNACCURACY,3.6*13
$GNGGA,041415.600,2500.7893449,N,12132.4438079,E,4,54,0.50,16.762,M,15.25,M,0,3335*4C
$GNRMC,041415.600,A,2500.7893449,N,12132.4438079,E,0.01,317.96,090324,,,R,V*10
$GPHDT,317.714,T*32
$GNACCURACY,3.6*13
$GNGGA,041415.700,2500.7893452,N,12132.4438100,E,4,53,0.50,16.770,M,15.25,M,0,3335*4C
$GNRMC,041415.700,A,2500.7893452,N,12132.4438100,E,0.02,317.96,090324,,,R,V*17
$GPHDT,,T*1B
$GNACCURACY,3.6*13
$GNGGA,041415.800,2500.7893453,N,12132.4438088,E,4,53,0.50,16.772,M,15.25,M,0,3335*41
$GNRMC,041415.800,A,2500.7893453,N,12132.4438088,E,0.01,317.96,090324,,,R,V*1B
$GPHDT,317.327,T*36
$GNACCURACY,3.7*12
$GNGGA,041415.900,2500.7893460,N,12132.4438104,E,4,53,0.50,16.770,M,15.25,M,0,3335*47
$GNRMC,041415.900,A,2500.7893460,N,12132.4438104,E,0.02,317.96,090324,,,R,V*1C
$GPHDT,,T*1B
$GNACCURACY,3.7*12
$GNGGA,041416.000,2500.7893445,N,12132.4438089,E,4,53,0.50,16.768,M,15.25,M,1,3335*46
$GNRMC,041416.000,A,2500.7893445,N,12132.4438089,E,0.02,317.96,090324,,,R,V*15
$GPHDT,317.524,T*33
$GNACCURACY,3.7*12
$GNGGA,041416.100,2500.7893460,N,12132.4438099,E,4,53,0.50,16.769,M,15.25,M,1,3335*40
$GNRMC,041416.100,A,2500.7893460,N,12132.4438099,E,0.02,317.96,090324,,,R,V*12
$GPHDT,,T*1B
$GNGSA,A,3,195,194,21,08,199,02,07,27,16,196,04,30,0.76,0.50,0.57,1*02
$GNGSA,A,3,81,78,88,79,77,82,,,,,,,0.76,0.50,0.57,2*06
$GNGSA,A,3,21,13,26,27,15,,,,,,,,0.76,0.50,0.57,3*01
$GNGSA,A,3,23,09,06,16,07,40,28,43,39,10,25,37,0.76,0.50,0.57,4*0D
$GNGSA,A,3,34,,,,,,,,,,,,0.76,0.50,0.57,4*05
$GPGSV,4,1,15,195,65,113,44,194,64,053,41,21,62,153,42,08,61,359,42,1*65
$GPGSV,4,2,15,199,60,167,34,50,60,167,36,02,51,176,45,07,43,315,37,1*54
$GPGSV,4,3,15,27,31,037,42,16,26,078,31,09,22,244,14,196,19,169,30,1*59
$GPGSV,4,4,15,04,16,201,30,30,13,320,18,26,07,101,21,1*5A
$GPGSV,2,1,08,195,65,113,44,194,64,053,43,08,61,359,46,199,60,167,45,8*50
$GPGSV,2,2,08,27,31,037,45,196,19,169,29,04,16,201,25,30,13,320,34,8*54
$GLGSV,2,1,06,81,68,204,45,78,58,042,44,88,53,030,46,79,28,335,16,1*78
$GLGSV,2,2,06,77,22,113,11,82,18,205,29,1*72
$GAGSV,2,1,08,21,55,015,42,13,54,077,40,26,46,172,41,27,28,081,30,7*7C
$GAGSV,2,2,08,19,26,239,,15,12,038,16,04,12,297,14,33,05,199,,7*7E
$GAGSV,1,1,03,21,55,015,41,13,54,077,45,26,46,172,42,1*42
$GBGSV,4,1,13,23,75,038,46,09,72,262,42,06,70,214,42,16,67,199,44,1*70
$GBGSV,4,2,13,07,60,309,41,40,60,330,42,28,58,224,42,43,56,036,47,1*7F
$GBGSV,4,3,13,39,56,188,44,10,51,291,25,25,36,120,37,37,32,322,41,1*75
$GBGSV,4,4,13,34,10,040,,1*46
$GBGSV,2,1,08,23,75,038,48,40,60,330,41,28,58,224,42,43,56,036,44,4*7F
$GBGSV,2,2,08,39,56,188,40,25,36,120,33,37,32,322,35,34,10,040,27,4*71
$GNACCURACY,3.7*12
$PAIRSAT,1,35,2,0,201,3,0,200,4,0,221,5,0,200,6,0,200,7,0,201,8,0,221,9,0,220,10,0,200,11,0,200,12,0,200,13,0,200,14,0,200,15,0,200,16,0,201,17,0,200,18,0,200,19,0,200,20,0,200,21,0,201,22,0,200,23,0,200,24,0,200,25,0,200,26,0,220,27,0,221,28,0,200,29,0,200,30,0,221,31,0,200,32,0,200,194,0,621,195,0,621,196,0,620,199,0,621*5A
$PAIRSAT,2,24,65,0,200,66,0,200,67,0,200,68,0,200,69,0,200,70,0,200,71,0,200,72,0,200,73,0,200,74,0,200,75,0,200,76,0,200,77,0,201,78,0,201,79,0,201,80,0,200,81,0,201,82,0,201,83,0,200,84,0,200,85,0,200,86,0,200,87,0,201,88,0,201*7B
$PAIRSAT,3,23,2,0,1200,3,0,1200,4,0,1200,5,0,200,7,0,1200,8,0,1200,9,0,1200,10,0,1200,11,0,1200,12,0,1200,13,0,1221,15,0,1220,19,0,1201,21,0,1221,24,0,1200,25,0,1200,26,0,1221,27,0,1221,30,0,1200,31,0,1200,33,0,1200,34,0,1000,36,0,1200*6B
$PAIRSAT,4,46,1,0,200,2,0,200,3,0,600,4,0,200,5,0,200,6,0,201,7,0,201,8,0,200,9,0,201,10,0,201,11,0,200,12,0,200,13,0,200,14,0,200,16,0,201,19,0,600,20,0,600,21,0,600,22,0,600,23,0,621,24,0,600,25,0,621,26,0,600,27,0,600,28,0,621,29,0,600,30,0,600,32,0,600,33,0,600,34,0,621,35,0,600,36,0,600,37,0,621,38,0,600,39,0,621,40,0,621,41,0,600,42,0,600,43,0,621,44,0,400,45,0,400,46,0,400,59,0,400,60,0,400,61,0,400,62,0,400*4A
$PAIRDGP,10,2,4,7,8,9,16,21,26,27,30*42
$GNGGA,041416.200,2500.7893455,N,12132.4438100,E,4,53,0.50,16.777,M,15.25,M,1,3335*4B
$GNRMC,041416.200,A,2500.7893455,N,12132.4438100,E,0.02,317.96,090324,,,R,V*16
$GPHDT,317.364,T*31
$GNACCURACY,3.6*13
$GNGGA,041416.300,2500.7893442,N,12132.4438106,E,4,53,0.50,16.768,M,15.25,M,1,3335*44
$GNRMC,041416.300,A,2500.7893442,N,12132.4438106,E,0.01,317.96,090324,,,R,V*14
$GPHDT,,T*1B
$GNACCURACY,3.6*13
$GNGGA,041416.400,2500.7893436,N,12132.4438076,E,4,53,0.50,16.760,M,15.25,M,1,3335*4E
$GNRMC,041416.400,A,2500.7893436,N,12132.4438076,E,0.01,317.96,090324,,,R,V*16
$GPHDT,317.918,T*30
$GNACCURACY,3.6*13
$GNGGA,041416.500,2500.7893421,N,12132.4438119,E,4,52,0.51,16.763,M,15.25,M,0,3335*43
$GNRMC,041416.500,A,2500.7893421,N,12132.4438119,E,0.00,317.96,090324,,,R,V*18
$GPHDT,,T*1B
$GNACCURACY,3.6*13
$GNGGA,041416.600,2500.7893455,N,12132.4438110,E,4,52,0.51,16.772,M,15.25,M,0,3335*4A
$GNRMC,041416.600,A,2500.7893455,N,12132.4438110,E,0.01,317.96,090324,,,R,V*10
$GPHDT,317.732,T*36
$GNACCURACY,3.6*13
$GNGGA,041416.700,2500.7893440,N,12132.4438098,E,4,52,0.51,16.778,M,15.25,M,0,3335*44
$GNRMC,041416.700,A,2500.7893440,N,12132.4438098,E,0.01,317.96,090324,,,R,V*14
$GPHDT,,T*1B
$GNACCURACY,3.6*13
$GNGGA,041416.800,2500.7893451,N,12132.4438097,E,4,52,0.51,16.769,M,15.25,M,0,3335*44
$GNRMC,041416.800,A,2500.7893451,N,12132.4438097,E,0.01,317.96,090324,,,R,V*14
$GPHDT,317.760,T*31
$GNACCURACY,3.6*13
$GNGGA,041416.900,2500.7893448,N,12132.4438113,E,4,52,0.51,16.769,M,15.25,M,0,3335*40
$GNRMC,041416.900,A,2500.7893448,N,12132.4438113,E,0.02,317.96,090324,,,R,V*13
$GPHDT,,T*1B
$GNACCURACY,3.6*13
$GNGGA,041417.000,2500.7893439,N,12132.4438087,E,4,52,0.51,16.777,M,15.25,M,1,3335*4C
$GNRMC,041417.000,A,2500.7893439,N,12132.4438087,E,0.02,317.96,090324,,,R,V*11
$GPHDT,318.005,T*3A
$GNACCURACY,3.6*13
$GNGGA,041417.100,2500.7893450,N,12132.4438107,E,4,52,0.51,16.774,M,15.25,M,1,3335*48
$GNRMC,041417.100,A,2500.7893450,N,12132.4438107,E,0.02,317.96,090324,,,R,V*16
$GPHDT,,T*1B
$GNGSA,A,3,195,194,21,08,199,02,07,27,16,196,04,30,0.77,0.51,0.57,1*02
$GNGSA,A,3,81,78,88,79,82,,,,,,,,0.77,0.51,0.57,2*06
$GNGSA,A,3,21,13,26,27,15,,,,,,,,0.77,0.51,0.57,3*01
$GNGSA,A,3,23,09,06,16,07,40,28,43,39,10,25,37,0.77,0.51,0.57,4*0D
$GNGSA,A,3,34,,,,,,,,,,,,0.77,0.51,0.57,4*05
$GPGSV,4,1,15,195,65,113,44,194,64,053,41,21,62,153,42,08,61,359,42,1*65
$GPGSV,4,2,15,199,60,167,34,50,60,167,37,02,51,176,45,07,43,315,38,1*5A
$GPGSV,4,3,15,27,31,037,43,16,26,078,30,09,22,244,17,196,19,169,31,1*5B
$GPGSV,4,4,15,04,16,201,31,30,13,320,22,26,07,101,22,1*51
$GPGSV,2,1,08,195,65,113,44,194,64,053,44,08,61,359,46,199,60,167,45,8*57
$GPGSV,2,2,08,27,31,037,45,196,19,169,31,04,16,201,25,30,13,320,35,8*5C
$GLGSV,2,1,06,81,68,204,45,78,58,042,44,88,53,030,46,79,28,335,16,1*78
$GLGSV,2,2,06,77,22,113,15,82,18,205,27,1*78
$GAGSV,2,1,08,21,55,015,42,13,54,077,40,26,46,172,42,27,28,081,29,7*77
$GAGSV,2,2,08,19,26,239,,15,12,038,17,04,12,297,15,33,05,199,,7*7E
$GAGSV,1,1,03,21,55,015,42,13,54,077,45,26,46,172,43,1*40
$GBGSV,4,1,13,23,75,038,46,09,72,262,42,06,70,214,42,16,67,199,44,1*70
$GBGSV,4,2,13,07,60,309,41,40,60,330,42,28,58,224,40,43,56,036,47,1*7D
$GBGSV,4,3,13,39,56,188,44,10,51,291,26,25,36,120,37,37,32,322,41,1*76
$GBGSV,4,4,13,34,10,040,,1*46
$GBGSV,2,1,08,23,75,038,48,40,60,330,42,28,58,224,40,43,56,036,44,4*7E
$GBGSV,2,2,08,39,56,188,41,25,36,120,31,37,32,322,35,34,10,040,26,4*73
$GNACCURACY,3.6*13
$PAIRSAT,1,35,2,0,201,3,0,200,4,0,221,5,0,200,6,0,200,7,0,201,8,0,221,9,0,220,10,0,200,11,0,200,12,0,200,13,0,200,14,0,200,15,0,200,16,0,201,17,0,200,18,0,200,19,0,200,20,0,200,21,0,201,22,0,200,23,0,200,24,0,200,25,0,200,26,0,220,27,0,221,28,0,200,29,0,200,30,0,221,31,0,200,32,0,200,194,0,621,195,0,621,196,0,620,199,0,621*5A
$PAIRSAT,2,24,65,0,200,66,0,200,67,0,200,68,0,200,69,0,200,70,0,200,71,0,200,72,0,200,73,0,200,74,0,200,75,0,200,76,0,200,77,0,201,78,0,201,79,0,201,80,0,200,81,0,201,82,0,201,83,0,200,84,0,200,85,0,200,86,0,200,87,0,201,88,0,201*7B
$PAIRSAT,3,23,2,0,1200,3,0,1200,4,0,1200,5,0,200,7,0,1200,8,0,1200,9,0,1200,10,0,1200,11,0,1200,12,0,1200,13,0,1221,15,0,1220,19,0,1201,21,0,1221,24,0,1200,25,0,1200,26,0,1221,27,0,1221,30,0,1200,31,0,1200,33,0,1200,34,0,1000,36,0,1200*6B
$PAIRSAT,4,46,1,0,200,2,0,200,3,0,600,4,0,200,5,0,200,6,0,201,7,0,201,8,0,200,9,0,201,10,0,201,11,0,200,12,0,200,13,0,200,14,0,200,16,0,201,19,0,600,20,0,600,21,0,600,22,0,600,23,0,621,24,0,600,25,0,621,26,0,600,27,0,600,28,0,621,29,0,600,30,0,600,32,0,600,33,0,600,34,0,621,35,0,600,36,0,600,37,0,621,38,0,600,39,0,621,40,0,621,41,0,600,42,0,600,43,0,621,44,0,400,45,0,400,46,0,400,59,0,400,60,0,400,61,0,400,62,0,400*4A
$PAIRDGP,10,2,4,7,8,9,16,21,26,27,30*42
$GNGGA,041417.200,2500.7893455,N,12132.4438105,E,4,52,0.51,16.769,M,15.25,M,1,3335*40
$GNRMC,041417.200,A,2500.7893455,N,12132.4438105,E,0.02,317.96,090324,,,R,V*12
$GPHDT,318.043,T*38
$GNACCURACY,3.6*13
$GNGGA,041417.300,2500.7893463,N,12132.4438139,E,4,52,0.51,16.746,M,15.25,M,1,3335*46
$GNRMC,041417.300,A,2500.7893463,N,12132.4438139,E,0.02,317.96,090324,,,R,V*19
$GPHDT,,T*1B
$GNACCURACY,3.6*13
$GNGGA,041417.400,2500.7893464,N,12132.4438119,E,4,52,0.51,16.774,M,15.25,M,1,3335*45
$GNRMC,041417.400,A,2500.7893464,N,12132.4438119,E,0.02,317.96,090324,,,R,V*1B
$GPHDT,318.112,T*3D
$GNACCURACY,3.6*13
$GNGGA,041417.500,2500.7893456,N,12132.4438118,E,4,52,0.51,16.769,M,15.25,M,1,3335*48
$GNRMC,041417.500,A,2500.7893456,N,12132.4438118,E,0.02,317.96,090324,,,R,V*1A
$GPHDT,,T*1B
