$FW : RTK35X,V1.1X0314AS,Lib20210517,1*54
$Tool : LOCOSYS , GNSS Firebird , v1.0.0.19*39
$---------------------------------------------------*2D
21,35,0,600,36,0,600,37,0,621,38,0,600,39,0,621,40,0,621,41,0,600,42,0,600,43,0,621,44,0,400,45,0,400,46,0,400,59,0,400,60,0,400,61,0,400,62,0,400*4A
$PAIRDGP,10,2,4,7,8,9,16,21,26,27,30*42
$GNGGA,041458.200,2500.7893421,N,12132.4438005,E,4,54,0.53,16.836,M,15.25,M,1,3335*48
$GNRMC,041458.200,A,2500.7893421,N,12132.4438005,E,0.03,317.96,090324,,,R,V*1A
$GPHDT,92.349,T*00
$GNACCURACY,3.7*12
$GNGGA,041458.300,2500.7893423,N,12132.4438025,E,4,53,0.53,16.836,M,15.25,M,1,3335*4E
$GNRMC,041458.300,A,2500.7893423,N,12132.4438025,E,0.02,317.96,090324,,,R,V*1A
$GPHDT,,T*1B
$GNACCURACY,3.7*12
$GNGGA,041458.400,2500.7893444,N,12132.4438044,E,4,53,0.53,16.858,M,15.25,M,1,3335*47
$GNRMC,041458.400,A,2500.7893444,N,12132.4438044,E,0.01,317.96,090324,,,R,V*18
$GPHDT,93.307,T*0B
$GNACCURACY,3.7*12
$GNGGA,041458.500,2500.7893430,N,12132.4438026,E,4,53,0.53,16.858,M,15.25,M,0,3335*40
$GNRMC,041458.500,A,2500.7893430,N,12132.4438026,E,0.01,317.96,090324,,,R,V*1E
$GPHDT,,T*1B
$GNACCURACY,3.7*12
$GNGGA,041458.600,2500.7893409,N,12132.4438018,E,4,53,0.53,16.853,M,15.25,M,0,3335*4F
$GNRMC,041458.600,A,2500.7893409,N,12132.4438018,E,0.01,317.96,090324,,,R,V*1A
$GPHDT,93.594,T*07
$GNACCURACY,3.7*12
$GNGGA,041458.700,2500.7893396,N,12132.4438045,E,4,53,0.53,16.865,M,15.25,M,0,3335*42
$GNRMC,041458.700,A,2500.7893396,N,12132.4438045,E,0.01,317.96,090324,,,R,V*12
$GPHDT,,T*1B
$GNACCURACY,3.7*12
$GNGGA,041458.800,2500.7893429,N,12132.4438046,E,4,52,0.53,16.856,M,15.25,M,0,3335*4C
$GNRMC,041458.800,A,2500.7893429,N,12132.4438046,E,0.01,317.96,090324,,,R,V*1D
$GPHDT,93.614,T*0C
$GNACCURACY,3.7*12
$GNGGA,041458.900,2500.7893421,N,12132.4438001,E,4,52,0.53,16.868,M,15.25,M,0,3335*4B
$GNRMC,041458.900,A,2500.7893421,N,12132.4438001,E,0.01,317.96,090324,,,R,V*17
$GPHDT,,T*1B
$GNACCURACY,3.7*12
$GNGGA,041459.000,2500.7893414,N,12132.4438050,E,4,52,0.53,16.872,M,15.25,M,1,3335*4B
$GNRMC,041459.000,A,2500.7893414,N,12132.4438050,E,0.03,317.96,090324,,,R,V*1F
$GPHDT,93.474,T*08
$GNACCURACY,3.7*12
$GNGGA,041459.100,2500.7893364,N,12132.4438071,E,4,52,0.53,16.858,M,15.25,M,1,3335*41
$GNRMC,041459.100,A,2500.7893364,N,12132.4438071,E,0.03,317.96,090324,,,R,V*1D
$GPHDT,,T*1B
$GNGSA,A,3,195,194,21,08,199,02,07,27,16,196,04,30,0.79,0.53,0.59,1*00
$GNGSA,A,3,81,78,88,79,77,82,,,,,,,0.79,0.53,0.59,2*04
$GNGSA,A,3,21,13,26,15,27,,,,,,,,0.79,0.53,0.59,3*03
$GNGSA,A,3,23,09,06,16,07,40,28,43,39,25,37,,0.79,0.53,0.59,4*0E
$GPGSV,4,1,15,195,65,113,43,194,64,053,39,21,63,152,43,08,61,359,39,1*60
$GPGSV,4,2,15,199,60,167,37,50,60,167,40,02,51,176,47,07,44,315,36,1*52
$GPGSV,4,3,15,27,31,037,42,16,26,078,40,09,22,244,16,196,19,169,31,1*5C
$GPGSV,4,4,15,04,16,201,34,30,13,319,20,26,07,101,15,1*58
$GPGSV,2,1,08,195,65,113,45,194,64,053,46,08,61,359,45,199,60,167,46,8*54
$GPGSV,2,2,08,27,31,037,45,196,19,169,25,04,16,201,34,30,13,319,27,8*50
$GLGSV,2,1,06,81,68,204,43,78,58,043,42,88,52,030,40,79,28,336,27,1*7F
$GLGSV,2,2,06,77,22,113,13,82,18,206,29,1*73
$GAGSV,2,1,08,21,55,015,42,13,54,076,39,26,46,171,43,27,28,082,,7*72
$GAGSV,2,2,08,19,26,239,,15,12,038,16,04,12,297,13,33,06,199,,7*7A
$GAGSV,2,1,05,21,55,015,43,13,54,076,43,26,46,171,44,27,28,082,26,1*76
$GAGSV,2,2,05,15,12,038,23,1*4D
$GBGSV,4,1,13,23,75,039,45,09,72,262,43,06,70,214,43,16,66,199,45,1*72
$GBGSV,4,2,13,07,60,310,39,40,60,330,39,28,58,224,47,43,56,036,46,1*70
$GBGSV,4,3,13,39,56,188,43,10,51,291,18,25,36,120,34,37,32,322,30,1*79
$GBGSV,4,4,13,34,09,040,,1*4E
$GBGSV,2,1,07,23,75,039,48,40,60,330,39,28,58,224,43,39,56,188,43,4*71
$GBGSV,2,2,07,43,56,036,43,25,36,120,25,37,32,322,32,4*43
$GNACCURACY,3.6*13
$PAIRSAT,1,35,2,0,201,3,0,200,4,0,221,5,0,200,6,0,200,7,0,201,8,0,221,9,0,220,10,0,200,11,0,200,12,0,200,13,0,200,14,0,200,15,0,200,16,0,201,17,0,200,18,0,200,19,0,200,20,0,200,21,0,201,22,0,200,23,0,200,24,0,200,25,0,200,26,0,220,27,0,221,28,0,200,29,0,200,30,0,221,31,0,200,32,0,200,194,0,621,195,0,621,196,0,620,199,0,621*5A
$PAIRSAT,2,24,65,0,200,66,0,200,67,0,200,68,0,200,69,0,200,70,0,200,71,0,200,72,0,200,73,0,200,74,0,200,75,0,200,76,0,200,77,0,201,78,0,201,79,0,201,80,0,200,81,0,201,82,0,201,83,0,200,84,0,200,85,0,200,86,0,200,87,0,201,88,0,201*7B
$PAIRSAT,3,23,2,0,1200,3,0,1200,4,0,1200,5,0,200,7,0,1200,8,0,1200,9,0,1200,10,0,1200,11,0,1200,12,0,1200,13,0,1221,15,0,1220,19,0,1201,21,0,1221,24,0,1200,25,0,1200,26,0,1221,27,0,1221,30,0,1200,31,0,1200,33,0,1200,34,0,1000,36,0,1200*6B
$PAIRSAT,4,46,1,0,200,2,0,200,3,0,600,4,0,200,5,0,200,6,0,201,7,0,201,8,0,200,9,0,201,10,0,201,11,0,200,12,0,200,13,0,200,14,0,200,16,0,201,19,0,600,20,0,600,21,0,600,22,0,600,23,0,621,24,0,600,25,0,621,26,0,600,27,0,600,28,0,621,29,0,600,30,0,600,32,0,600,33,0,600,34,0,621,35,0,600,36,0,600,37,0,621,38,0,600,39,0,621,40,0,621,41,0,600,42,0,600,43,0,621,44,0,400,45,0,400,46,0,400,59,0,400,60,0,400,61,0,400,62,0,400*4A
$PAIRDGP,10,2,4,7,8,9,16,21,26,27,30*42
$GNGGA,041459.200,2500.7893362,N,12132.4438045,E,4,52,0.53,16.907,M,15.25,M,1,3335*48
$GNRMC,041459.200,A,2500.7893362,N,12132.4438045,E,0.02,317.96,090324,,,R,V*1E
$GPHDT,92.285,T*01
$GNACCURACY,3.6*13
$GNGGA,041459.300,2500.7893401,N,12132.4438056,E,4,52,0.53,16.898,M,15.25,M,1,3335*4E
$GNRMC,041459.300,A,2500.7893401,N,12132.4438056,E,0.02,317.96,090324,,,R,V*1F
$GPHDT,,T*1B
$GNACCURACY,3.6*13
$GNGGA,041459.400,2500.7893416,N,12132.4438041,E,4,52,0.53,16.897,M,15.25,M,1,3335*46
$GNRMC,041459.400,A,2500.7893416,N,12132.4438041,E,0.01,317.96,090324,,,R,V*1B
$GPHDT,92.689,T*09
$GNACCURACY,3.6*13
$GNGGA,041459.500,2500.7893410,N,12132.4438073,E,4,53,0.53,16.905,M,15.25,M,1,3335*4B
$GNRMC,041459.500,A,2500.7893410,N,12132.4438073,E,0.02,317.96,090324,,,R,V*1E
$GPHDT,,T*1B
$GNACCURACY,3.6*13
$GNGGA,041459.600,2500.7893472,N,12132.4438087,E,4,53,0.53,16.914,M,15.25,M,0,3335*46
$GNRMC,041459.600,A,2500.7893472,N,12132.4438087,E,0.02,317.96,090324,,,R,V*12
$GPHDT,93.264,T*0F
$GNACCURACY,3.6*13
$GNGGA,041459.700,2500.7893455,N,12132.4438063,E,4,53,0.53,16.895,M,15.25,M,0,3335*40
$GNRMC,041459.700,A,2500.7893455,N,12132.4438063,E,0.02,317.96,090324,,,R,V*1C
$GPHDT,,T*1B
$GNACCURACY,3.6*13
$GNGGA,041459.800,2500.7893434,N,12132.4438055,E,4,53,0.53,16.894,M,15.25,M,0,3335*4C
$GNRMC,041459.800,A,2500.7893434,N,12132.4438055,E,0.01,317.96,090324,,,R,V*12
$GPHDT,92.625,T*0F
$GNACCURACY,3.6*13
$GNGGA,041459.900,2500.7893437,N,12132.4438043,E,4,53,0.53,16.890,M,15.25,M,0,3335*4D
$GNRMC,041459.900,A,2500.7893437,N,12132.4438043,E,0.01,317.96,090324,,,R,V*17
$GPHDT,,T*1B
$GNACCURACY,3.7*12
$GNGGA,041500.000,2500.7893428,N,12132.4437990,E,4,52,0.54,16.869,M,15.25,M,1,3335*4E
$GNRMC,041500.000,A,2500.7893428,N,12132.4437990,E,0.00,317.96,090324,,,R,V*14
$GPHDT,92.695,T*04
$GNACCURACY,3.7*12
$GNGGA,041500.100,2500.7893421,N,12132.4437996,E,4,52,0.54,16.893,M,15.25,M,1,3335*45
$GNRMC,041500.100,A,2500.7893421,N,12132.4437996,E,0.00,317.96,090324,,,R,V*1A
$GPHDT,,T*1B
$GNGSA,A,3,195,194,21,199,08,02,07,27,16,196,04,30,0.81,0.54,0.60,1*0A
$GNGSA,A,3,81,78,88,79,82,,,,,,,,0.81,0.54,0.60,2*0E
$GNGSA,A,3,21,13,26,27,15,,,,,,,,0.81,0.54,0.60,3*09
$GNGSA,A,3,23,09,06,16,07,40,28,43,39,25,37,,0.81,0.54,0.60,4*04
$GPGSV,4,1,15,195,65,113,43,194,64,053,40,21,63,152,43,199,60,167,36,1*56
$GPGSV,4,2,15,08,60,359,38,50,60,167,39,02,51,176,46,07,44,315,36,1*64
$GPGSV,4,3,15,27,31,037,42,16,26,078,40,09,22,244,15,196,19,169,27,1*58
$GPGSV,4,4,15,04,16,201,34,30,13,319,18,26,07,101,16,1*50
$GPGSV,2,1,08,195,65,113,45,194,64,053,45,08,60,359,44,199,60,167,46,8*57
$GPGSV,2,2,08,27,31,037,44,196,19,169,25,04,16,201,33,30,13,319,26,8*57
$GLGSV,2,1,06,81,68,204,43,78,58,043,43,88,52,030,38,79,28,336,29,1*7F
$GLGSV,2,2,06,77,22,113,16,82,18,206,30,1*7E
$GAGSV,2,1,08,21,55,015,42,13,54,076,40,26,46,171,42,27,28,082,21,7*7E
$GAGSV,2,2,08,19,26,239,,15,12,038,18,04,12,297,13,33,06,199,,7*74
$GAGSV,2,1,05,21,55,015,43,13,54,076,43,26,46,171,44,27,28,082,25,1*75
$GAGSV,2,2,05,15,12,038,24,1*4A
$GBGSV,4,1,13,23,75,039,45,09,72,262,44,06,70,214,42,16,66,199,45,1*74
$GBGSV,4,2,13,07,60,310,36,40,60,330,37,28,58,224,47,43,56,036,46,1*71
$GBGSV,4,3,13,39,56,188,43,10,51,291,18,25,36,120,35,37,32,322,30,1*78
$GBGSV,4,4,13,34,09,040,,1*4E
$GBGSV,2,1,07,23,75,039,48,40,60,330,34,28,58,224,44,39,56,188,43,4*7B
$GBGSV,2,2,07,43,56,036,42,25,36,120,27,37,32,322,32,4*40
$GNACCURACY,3.7*12
$PAIRSAT,1,35,2,0,201,3,0,200,4,0,221,5,0,200,6,0,200,7,0,201,8,0,221,9,0,220,10,0,200,11,0,200,12,0,200,13,0,200,14,0,200,15,0,200,16,0,201,17,0,200,18,0,200,19,0,200,20,0,200,21,0,201,22,0,200,23,0,200,24,0,200,25,0,200,26,0,220,27,0,221,28,0,200,29,0,200,30,0,221,31,0,200,32,0,200,194,0,621,195,0,621,196,0,620,199,0,621*5A
$PAIRSAT,2,24,65,0,200,66,0,200,67,0,200,68,0,200,69,0,200,70,0,200,71,0,200,72,0,200,73,0,200,74,0,200,75,0,200,76,0,200,77,0,201,78,0,201,79,0,201,80,0,200,81,0,201,82,0,201,83,0,200,84,0,200,85,0,200,86,0,200,87,0,201,88,0,201*7B
$PAIRSAT,3,23,2,0,1200,3,0,1200,4,0,1200,5,0,200,7,0,1200,8,0,1200,9,0,1200,10,0,1200,11,0,1200,12,0,1200,13,0,1221,15,0,1220,19,0,1201,21,0,1221,24,0,1200,25,0,1200,26,0,1221,27,0,1221,30,0,1200,31,0,1200,33,0,1200,34,0,1000,36,0,1200*6B
$PAIRSAT,4,46,1,0,200,2,0,200,3,0,600,4,0,200,5,0,200,6,0,201,7,0,201,8,0,200,9,0,201,10,0,201,11,0,200,12,0,200,13,0,200,14,0,200,16,0,201,19,0,600,20,0,600,21,0,600,22,0,600,23,0,621,24,0,600,25,0,621,26,0,600,27,0,600,28,0,621,29,0,600,30,0,600,32,0,600,33,0,600,34,0,621,35,0,600,36,0,600,37,0,621,38,0,600,39,0,621,40,0,621,41,0,600,42,0,600,43,0,621,44,0,400,45,0,400,46,0,400,59,0,400,60,0,400,61,0,400,62,0,400*4A
$PAIRDGP,10,2,4,7,8,9,16,21,26,27,30*42
$GNGGA,041500.200,2500.7893399,N,12132.4438062,E,4,52,0.54,16.911,M,15.25,M,1,3335*44
$GNRMC,041500.200,A,2500.7893399,N,12132.4438062,E,0.01,317.96,090324,,,R,V*11
$GPHDT,92.807,T*01
$GNACCURACY,3.6*13
$GNGGA,041500.300,2500.7893391,N,12132.4438038,E,4,52,0.54,16.892,M,15.25,M,1,3335*48
$GNRMC,041500.300,A,2500.7893391,N,12132.4438038,E,0.00,317.96,090324,,,R,V*16
$GPHDT,,T*1B
$GNACCURACY,3.6*13
$GNGGA,041500.400,2500.7893397,N,12132.4438055,E,4,52,0.54,16.874,M,15.25,M,1,3335*4A
$GNRMC,041500.400,A,2500.7893397,N,12132.4438055,E,0.01,317.96,090324,,,R,V*1D
$GPHDT,92.532,T*0A
$GNACCURACY,3.7*12
$GNGGA,041500.500,2500.7893414,N,12132.4438091,E,4,52,0.54,16.843,M,15.25,M,1,3335*4B
$GNRMC,041500.500,A,2500.7893414,N,12132.4438091,E,0.01,317.96,090324,,,R,V*18
$GPHDT,,T*1B
$GNACCURACY,3.7*12
$GNGGA,041500.600,2500.7893425,N,12132.4438098,E,4,52,0.54,16.856,M,15.25,M,1,3335*47
$GNRMC,041500.600,A,2500.7893425,N,12132.4438098,E,0.01,317.96,090324,,,R,V*10
$GPHDT,92.534,T*0C
$GNACCURACY,3.7*12
$GNGGA,041500.700,2500.7893414,N,12132.4438084,E,4,52,0.54,16.851,M,15.25,M,0,3335*4F
$GNRMC,041500.700,A,2500.7893414,N,12132.4438084,E,0.01,317.96,090324,,,R,V*1E
$GPHDT,,T*1B
$GNACCURACY,3.7*12
$GNGGA,041500.800,2500.7893417,N,12132.4438082,E,4,52,0.54,16.833,M,15.25,M,0,3335*41
$GNRMC,041500.800,A,2500.7893417,N,12132.4438082,E,0.00,317.96,090324,,,R,V*15
$GPHDT,92.343,T*0A
$GNACCURACY,3.7*12
$GNGGA,041500.900,2500.7893379,N,12132.4438072,E,4,52,0.54,16.806,M,15.25,M,0,3335*46
$GNRMC,041500.900,A,2500.7893379,N,12132.4438072,E,0.01,317.96,090324,,,R,V*15
$GPHDT,,T*1B
$GNACCURACY,3.7*12
$GNGGA,041501.000,2500.7893395,N,12132.4438086,E,4,52,0.54,16.831,M,15.25,M,1,3335*42
$GNRMC,041501.000,A,2500.7893395,N,12132.4438086,E,0.01,317.96,090324,,,R,V*14
$GPHDT,92.170,T*08
$GNACCURACY,3.7*12
$GNGGA,041501.100,2500.7893412,N,12132.4438096,E,4,53,0.54,16.821,M,15.25,M,1,3335*4A
$GNRMC,041501.100,A,2500.7893412,N,12132.4438096,E,0.02,317.96,090324,,,R,V*1F
$GPHDT,,T*1B
$GNGSA,A,3,195,194,21,199,08,02,07,27,16,196,04,30,0.81,0.54,0.60,1*0A
$GNGSA,A,3,81,78,88,79,82,,,,,,,,0.81,0.54,0.60,2*0E
$GNGSA,A,3,21,13,26,27,15,,,,,,,,0.81,0.54,0.60,3*09
$GNGSA,A,3,23,09,06,16,07,40,28,43,39,25,37,,0.81,0.54,0.60,4*04
$GPGSV,4,1,15,195,65,113,42,194,64,053,40,21,63,152,43,199,60,167,37,1*56
$GPGSV,4,2,15,08,60,359,41,50,60,167,39,02,51,176,47,07,44,315,39,1*64
$GPGSV,4,3,15,27,31,037,43,16,26,078,40,09,22,244,17,196,19,169,30,1*5D
$GPGSV,4,4,15,04,16,201,34,30,13,319,22,26,07,101,16,1*59
$GPGSV,2,1,08,195,65,113,45,194,64,053,45,08,60,359,46,199,60,167,46,8*55
$GPGSV,2,2,08,27,31,037,44,196,19,169,28,04,16,201,34,30,13,319,25,8*5E
$GLGSV,2,1,07,81,68,204,43,78,58,043,43,88,52,030,40,79,28,336,25,1*7D
$GLGSV,2,2,07,77,22,113,17,82,18,206,29,69,02,278,,1*46
$GAGSV,2,1,08,21,55,015,42,13,54,076,39,26,46,171,43,27,28,082,20,7*70
$GAGSV,2,2,08,19,26,239,,15,12,038,18,04,12,297,,33,06,199,,7*76
$GAGSV,2,1,05,21,55,015,43,13,54,076,43,26,46,171,44,27,28,082,26,1*76
$GAGSV,2,2,05,15,12,038,23,1*4D
$GBGSV,4,1,13,23,75,039,45,09,72,262,42,06,70,214,43,16,66,199,45,1*73
$GBGSV,4,2,13,07,60,310,38,40,60,330,41,28,58,224,47,43,56,036,46,1*7E
$GBGSV,4,3,13,39,56,188,43,10,51,291,18,25,36,120,35,37,32,322,36,1*7E
$GBGSV,4,4,13,34,09,040,,1*4E
$GBGSV,2,1,07,23,75,039,48,40,60,330,40,28,58,224,44,39,56,188,43,4*78
$GBGSV,2,2,07,43,56,036,43,25,36,120,27,37,32,322,34,4*47
$GNACCURACY,3.7*12
$PAIRSAT,1,35,2,0,201,3,0,200,4,0,221,5,0,200,6,0,200,7,0,201,8,0,221,9,0,220,10,0,200,11,0,200,12,0,200,13,0,200,14,0,200,15,0,200,16,0,201,17,0,200,18,0,200,19,0,200,20,0,200,21,0,201,22,0,200,23,0,200,24,0,200,25,0,200,26,0,220,27,0,221,28,0,200,29,0,200,30,0,221,31,0,200,32,0,200,194,0,621,195,0,621,196,0,620,199,0,621*5A
$PAIRSAT,2,24,65,0,200,66,0,200,67,0,200,68,0,200,69,0,200,70,0,200,71,0,200,72,0,200,73,0,200,74,0,200,75,0,200,76,0,200,77,0,201,78,0,201,79,0,201,80,0,200,81,0,201,82,0,201,83,0,200,84,0,200,85,0,200,86,0,200,87,0,200,88,0,201*7A
$PAIRSAT,3,23,2,0,1200,3,0,1200,4,0,1200,5,0,200,7,0,1200,8,0,1200,9,0,1200,10,0,1200,11,0,1200,12,0,1200,13,0,1221,15,0,1220,19,0,1201,21,0,1221,24,0,1200,25,0,1200,26,0,1221,27,0,1221,30,0,1200,31,0,1200,33,0,1200,34,0,1000,36,0,1200*6B
$PAIRSAT,4,46,1,0,200,2,0,200,3,0,600,4,0,200,5,0,200,6,0,201,7,0,201,8,0,200,9,0,201,10,0,201,11,0,200,12,0,200,13,0,200,14,0,200,16,0,201,19,0,600,20,0,600,21,0,600,22,0,600,23,0,621,24,0,600,25,0,621,26,0,600,27,0,600,28,0,621,29,0,600,30,0,600,32,0,600,33,0,600,34,0,621,35,0,600,36,0,600,37,0,621,38,0,600,39,0,621,40,0,621,41,0,600,42,0,600,43,0,621,44,0,400,45,0,400,46,0,400,59,0,400,60,0,400,61,0,400,62,0,400*4A
$PAIRDGP,10,2,4,7,8,9,16,21,26,27,30*42
$GNGGA,041501.200,2500.7893407,N,12132.4438123,E,4,53,0.54,16.829,M,15.25,M,1,3335*4A
$GNRMC,041501.200,A,2500.7893407,N,12132.4438123,E,0.02,317.96,090324,,,R,V*17
$GPHDT,92.228,T*06
$GNACCURACY,3.7*12
$GNGGA,041501.300,2500.7893406,N,12132.4438078,E,4,53,0.54,16.822,M,15.25,M,1,3335*4E
$GNRMC,041501.300,A,2500.7893406,N,12132.4438078,E,0.01,317.96,090324,,,R,V*1B
$GPHDT,,T*1B
$GNACCURACY,3.7*12
$GNGGA,041501.400,2500.7893405,N,12132.4438103,E,4,53,0.54,16.825,M,15.25,M,1,3335*40
$GNRMC,041501.400,A,2500.7893405,N,12132.4438103,E,0.01,317.96,090324,,,R,V*12
$GPHDT,92.174,T*0C
$GNACCURACY,3.7*12
$GNGGA,041501.500,2500.7893442,N,12132.4438015,E,4,52,0.54,16.858,M,15.25,M,0,3335*4E
$GNRMC,041501.500,A,2500.7893442,N,12132.4438015,E,0.01,317.96,090324,,,R,V*16
$GPHDT,,T*1B
$GNACCURACY,3.7*12
$GNGGA,041501.600,2500.7893443,N,12132.4438025,E,4,52,0.54,16.871,M,15.25,M,0,3335*44
$GNRMC,041501.600,A,2500.7893443,N,12132.4438025,E,0.01,317.96,090324,,,R,V*17
$GPHDT,92.491,T*02
$GNACCURACY,3.7*12
$GNGGA,041501.700,2500.7893461,N,12132.4437940,E,4,52,0.54,16.838,M,15.25,M,0,3335*4D
$GNRMC,041501.700,A,2500.7893461,N,12132.4437940,E,0.00,317.96,090324,,,R,V*12
$GPHDT,,T*1B
$GNACCURACY,3.7*12
$GNGGA,041501.800,2500.7893452,N,12132.4437947,E,4,52,0.54,16.854,M,15.25,M,0,3335*4F
$GNRMC,041501.800,A,2500.7893452,N,12132.4437947,E,0.01,317.96,090324,,,R,V*1B
$GPHDT,92.552,T*0C
$GNACCURACY,3.7*12
$GNGGA,041501.900,2500.7893447,N,12132.4438035,E,4,52,0.54,16.864,M,15.25,M,0,3335*4A
$GNRMC,041501.900,A,2500.7893447,N,12132.4438035,E,0.01,317.96,090324,,,R,V*1D
$GPHDT,,T*1B
$GNACCURACY,3.7*12
$GNGGA,041502.000,2500.7893442,N,12132.4438041,E,4,52,0.54,16.857,M,15.25,M,1,3335*47
$GNRMC,041502.000,A,2500.7893442,N,12132.4438041,E,0.01,317.96,090324,,,R,V*11
$GPHDT,92.622,T*08
$GNACCURACY,3.7*12
$GNGGA,041502.100,2500.7893444,N,12132.4438029,E,4,52,0.54,16.863,M,15.25,M,1,3335*49
$GNRMC,041502.100,A,2500.7893444,N,12132.4438029,E,0.02,317.96,090324,,,R,V*1B
$GPHDT,,T*1B
$GNGSA,A,3,195,194,21,199,08,02,07,27,16,196,04,30,0.81,0.54,0.60,1*0A
$GNGSA,A,3,81,78,88,79,82,,,,,,,,0.81,0.54,0.60,2*0E
$GNGSA,A,3,21,13,26,27,15,,,,,,,,0.81,0.54,0.60,3*09
$GNGSA,A,3,23,09,06,16,07,40,28,43,39,25,37,,0.81,0.54,0.60,4*04
$GPGSV,4,1,15,195,65,113,42,194,64,053,41,21,63,152,44,199,60,167,37,1*50
$GPGSV,4,2,15,08,60,359,40,50,60,167,40,02,51,176,47,07,44,315,36,1*64
$GPGSV,4,3,15,27,31,037,43,16,26,078,40,09,22,244,18,196,19,169,30,1*52
$GPGSV,4,4,15,04,16,201,32,30,13,319,20,26,07,101,15,1*5E
$GPGSV,2,1,08,195,65,113,44,194,64,053,45,08,60,359,45,199,60,167,46,8*57
$GPGSV,2,2,08,27,31,037,44,196,19,169,23,04,16,201,35,30,13,319,26,8*57
$GLGSV,2,1,06,81,68,204,43,78,58,043,43,88,52,030,40,79,28,336,28,1*71
$GLGSV,2,2,06,77,22,113,17,82,18,206,26,1*78
$GAGSV,2,1,08,21,55,015,42,13,54,076,40,26,46,171,43,27,28,082,21,7*7F
$GAGSV,2,2,08,19,26,239,,15,12,038,18,04,12,297,,33,06,199,,7*76
$GAGSV,2,1,05,21,55,015,43,13,54,076,43,26,46,171,44,27,28,082,27,1*77
$GAGSV,2,2,05,15,12,038,22,1*4C
$GBGSV,4,1,13,23,75,039,45,09,72,262,43,06,70,214,42,16,66,199,45,1*73
$GBGSV,4,2,13,07,60,310,38,40,60,330,39,28,58,224,47,43,56,036,46,1*71
$GBGSV,4,3,13,39,56,188,43,10,51,291,18,25,36,120,35,37,32,322,34,1*7C
$GBGSV,4,4,13,34,09,040,,1*4E
$GBGSV,2,1,07,23,75,039,48,40,60,330,38,28,58,224,43,39,56,188,43,4*70
$GBGSV,2,2,07,43,56,036,43,25,36,120,28,37,32,322,33,4*4F
$GNACCURACY,3.7*12
$PAIRSAT,1,35,2,0,201,3,0,200,4,0,221,5,0,200,6,0,200,7,0,201,8,0,221,9,0,220,10,0,200,11,0,200,12,0,200,13,0,200,14,0,200,15,0,200,16,0,201,17,0,200,18,0,200,19,0,200,20,0,200,21,0,201,22,0,200,23,0,200,24,0,200,25,0,200,26,0,220,27,0,221,28,0,200,29,0,200,30,0,221,31,0,200,32,0,200,194,0,621,195,0,621,196,0,620,199,0,621*5A
$PAIRSAT,2,24,65,0,200,66,0,200,67,0,200,68,0,200,69,0,200,70,0,200,71,0,200,72,0,200,73,0,200,74,0,200,75,0,200,76,0,200,77,0,201,78,0,201,79,0,201,80,0,200,81,0,201,82,0,201,83,0,200,84,0,200,85,0,200,86,0,200,87,0,200,88,0,201*7A
$PAIRSAT,3,23,2,0,1200,3,0,1200,4,0,1200,5,0,200,7,0,1200,8,0,1200,9,0,1200,10,0,1200,11,0,1200,12,0,1200,13,0,1221,15,0,1220,19,0,1201,21,0,1221,24,0,1200,25,0,1200,26,0,1221,27,0,1221,30,0,1200,31,0,1200,33,0,1200,34,0,1000,36,0,1200*6B
$PAIRSAT,4,46,1,0,200,2,0,200,3,0,600,4,0,200,5,0,200,6,0,201,7,0,201,8,0,200,9,0,201,10,0,201,11,0,200,12,0,200,13,0,200,14,0,200,16,0,201,19,0,600,20,0,600,21,0,600,22,0,600,23,0,621,24,0,600,25,0,621,26,0,600,27,0,600,28,0,621,29,0,600,30,0,600,32,0,600,33,0,600,34,0,621,35,0,600,36,0,600,37,0,621,38,0,600,39,0,621,40,0,621,41,0,600,42,0,600,43,0,621,44,0,400,45,0,400,46,0,400,59,0,400,60,0,400,61,0,400,62,0,400*4A
$PAIRDGP,10,2,4,7,8,9,16,21,26,27,30*42
$GNGGA,041502.200,2500.7893417,N,12132.4438049,E,4,52,0.54,16.843,M,15.25,M,1,3335*48
$GNRMC,041502.200,A,2500.7893417,N,12132.4438049,E,0.02,317.96,090324,,,R,V*18
$GPHDT,92.717,T*0F
$GNACCURACY,3.7*12
$GNGGA,041502.300,2500.7893423,N,12132.4438027,E,4,53,0.54,16.848,M,15.25,M,1,3335*4C
$GNRMC,041502.300,A,2500.7893423,N,12132.4438027,E,0.02,317.96,090324,,,R,V*16
$GPHDT,,T*1B
$GNACCURACY,3.7*12
$GNGGA,041502.400,2500.7893433,N,12132.4438010,E,4,53,0.54,16.853,M,15.25,M,1,3335*44
$GNRMC,041502.400,A,2500.7893433,N,12132.4438010,E,0.02,317.96,090324,,,R,V*14
$GPHDT,92.819,T*0E
$GNACCURACY,3.7*12
$GNGGA,041502.500,2500.7893446,N,12132.4438044,E,4,53,0.54,16.849,M,15.25,M,0,3335*4C
$GNRMC,041502.500,A,2500.7893446,N,12132.4438044,E,0.02,317.96,090324,,,R,V*16
$GPHDT,,T*1B
$GNACCURACY,3.7*12
$GNGGA,041502.600,2500.7893431,N,12132.4438027,E,4,54,0.53,16.848,M,15.25,M,0,3335*4B
$GNRMC,041502.600,A,2500.7893431,N,12132.4438027,E,0.02,317.96,090324,,,R,V*10
$GPHDT,92.962,T*03
$GNACCURACY,3.7*12
$GNGGA,041502.700,2500.7893436,N,12132.4438020,E,4,54,0.53,16.847,M,15.25,M,0,3335*45
$GNRMC,041502.700,A,2500.7893436,N,12132.4438020,E,0.02,317.96,090324,,,R,V*11
$GPHDT,,T*1B
$GNACCURACY,3.7*12
$GNGGA,041502.800,2500.7893417,N,12132.4438020,E,4,54,0.53,16.843,M,15.25,M,0,3335*4D
$GNRMC,041502.800,A,2500.7893417,N,12132.4438020,E,0.02,317.96,090324,,,R,V*1D
$GPHDT,92.881,T*0F
$GNACCURACY,3.7*12
$GNGGA,041502.900,2500.7893437,N,12132.4438101,E,4,54,0.53,16.848,M,15.25,M,0,3335*47
$GNRMC,041502.900,A,2500.7893437,N,12132.4438101,E,0.03,317.96,090324,,,R,V*1D
$GPHDT,,T*1B
$GNACCURACY,3.7*12
$GNGGA,041503.000,2500.7893413,N,12132.4438080,E,4,54,0.53,16.833,M,15.25,M,1,3335*4C
$GNRMC,041503.000,A,2500.7893413,N,12132.4438080,E,0.02,317.96,090324,,,R,V*1A
$GPHDT,92.617,T*0E
$GNACCURACY,3.7*12
$GNGGA,041503.100,2500.7893429,N,12132.4438117,E,4,54,0.53,16.855,M,15.25,M,1,3335*4B
$GNRMC,041503.100,A,2500.7893429,N,12132.4438117,E,0.02,317.96,090324,,,R,V*1D
$GPHDT,,T*1B
$GNGSA,A,3,195,194,21,199,08,02,07,27,16,196,04,30,0.79,0.53,0.59,1*00
$GNGSA,A,3,81,78,88,79,77,82,,,,,,,0.79,0.53,0.59,2*04
$GNGSA,A,3,21,13,26,27,15,,,,,,,,0.79,0.53,0.59,3*03
$GNGSA,A,3,23,09,06,16,07,40,28,43,39,25,37,,0.79,0.53,0.59,4*0E
$GPGSV,4,1,15,195,65,113,42,194,64,053,40,21,63,152,44,199,60,167,37,1*51
$GPGSV,4,2,15,08,60,359,38,50,60,167,40,02,51,176,47,07,44,315,38,1*65
$GPGSV,4,3,15,27,31,037,42,16,26,078,38,09,22,244,17,196,19,168,30,1*52
$GPGSV,4,4,15,04,16,201,33,30,13,319,26,26,07,101,15,1*59
$GPGSV,2,1,08,195,65,113,44,194,64,053,45,08,60,359,45,199,60,167,45,8*54
$GPGSV,2,2,08,27,31,037,44,196,19,168,28,04,16,201,34,30,13,319,22,8*58
$GLGSV,2,1,06,81,68,204,43,78,58,043,43,88,52,030,38,79,28,336,31,1*76
$GLGSV,2,2,06,77,22,113,16,82,18,206,29,1*76
$GAGSV,2,1,07,21,55,015,41,13,54,076,40,26,46,171,43,27,28,082,22,7*70
$GAGSV,2,2,07,19,26,239,,15,12,038,18,33,06,199,,7*42
$GAGSV,2,1,05,21,55,015,43,13,54,076,43,26,46,171,44,27,28,082,26,1*76
$GAGSV,2,2,05,15,12,038,22,1*4C
$GBGSV,4,1,13,23,75,039,45,09,72,262,42,06,70,214,42,16,66,199,45,1*72
$GBGSV,4,2,13,07,60,310,37,40,60,330,39,28,58,224,46,43,56,036,46,1*7F
$GBGSV,4,3,13,39,56,188,43,10,51,291,16,25,36,120,30,37,32,322,33,1*70
$GBGSV,4,4,13,34,09,040,,1*4E
$GBGSV,2,1,07,23,75,039,48,40,60,330,38,28,58,224,44,39,56,188,43,4*77
$GBGSV,2,2,07,43,56,036,42,25,36,120,27,37,32,322,35,4*47
$GNACCURACY,3.7*12
$PAIRSAT,1,35,2,0,201,3,0,200,4,0,221,5,0,200,6,0,200,7,0,201,8,0,221,9,0,220,10,0,200,11,0,200,12,0,200,13,0,200,14,0,200,15,0,200,16,0,201,17,0,200,18,0,200,19,0,200,20,0,200,21,0,201,22,0,200,23,0,200,24,0,200,25,0,200,26,0,220,27,0,221,28,0,200,29,0,200,30,0,221,31,0,200,32,0,200,194,0,621,195,0,621,196,0,620,199,0,621*5A
$PAIRSAT,2,24,65,0,200,66,0,200,67,0,200,68,0,200,69,0,200,70,0,200,71,0,200,72,0,200,73,0,200,74,0,200,75,0,200,76,0,200,77,0,201,78,0,201,79,0,201,80,0,200,81,0,201,82,0,201,83,0,200,84,0,200,85,0,200,86,0,200,87,0,200,88,0,201*7A
$PAIRSAT,3,23,2,0,1200,3,0,1200,4,0,1200,5,0,200,7,0,1200,8,0,1200,9,0,1200,10,0,1200,11,0,1200,12,0,1200,13,0,1221,15,0,1220,19,0,1201,21,0,1221,24,0,1200,25,0,1200,26,0,1221,27,0,1221,30,0,1200,31,0,1200,33,0,1200,34,0,1000,36,0,1200*6B
$PAIRSAT,4,46,1,0,200,2,0,200,3,0,600,4,0,200,5,0,200,6,0,201,7,0,201,8,0,200,9,0,201,10,0,201,11,0,200,12,0,200,13,0,200,14,0,200,16,0,201,19,0,600,20,0,600,21,0,600,22,0,600,23,0,621,24,0,600,25,0,621,26,0,600,27,0,600,28,0,621,29,0,600,30,0,600,32,0,600,33,0,600,34,0,621,35,0,600,36,0,600,37,0,621,38,0,600,39,0,621,40,0,621,41,0,600,42,0,600,43,0,621,44,0,400,45,0,400,46,0,400,59,0,400,60,0,400,61,0,400,62,0,400*4A
$PAIRDGP,10,2,4,7,8,9,16,21,26,27,30*42
$GNGGA,041503.200,2500.7893427,N,12132.4438120,E,4,54,0.53,16.858,M,15.25,M,1,3335*4F
$GNRMC,041503.200,A,2500.7893427,N,12132.4438120,E,0.01,317.96,090324,,,R,V*17
$GPHDT,92.538,T*00
$GNACCURACY,3.7*12
$GNGGA,041503.300,2500.7893410,N,12132.4438114,E,4,54,0.53,16.854,M,15.25,M,1,3335*41
$GNRMC,041503.300,A,2500.7893410,N,12132.4438114,E,0.02,317.96,090324,,,R,V*16
$GPHDT,,T*1B
$GNACCURACY,3.7*12
$GNGGA,041503.400,2500.7893432,N,12132.4438114,E,4,54,0.53,16.862,M,15.25,M,1,3335*43
$GNRMC,041503.400,A,2500.7893432,N,12132.4438114,E,0.02,317.96,090324,,,R,V*11
$GPHDT,92.617,T*0E
$GNACCURACY,3.7*12
$GNGGA,041503.500,2500.7893427,N,12132.4438103,E,4,54,0.53,16.861,M,15.25,M,1,3335*43
$GNRMC,041503.500,A,2500.7893427,N,12132.4438103,E,0.01,317.96,090324,,,R,V*11
$GPHDT,,T*1B
$GNACCURACY,3.7*12
$GNGGA,041503.600,2500.7893421,N,12132.4438097,E,4,54,0.53,16.844,M,15.25,M,1,3335*4D
$GNRMC,041503.600,A,2500.7893421,N,12132.4438097,E,0.01,317.96,090324,,,R,V*18
$GPHDT,92.631,T*0A
