$FW : RTK35X,V1.1X0314AS,Lib20210517,1*54
$Tool : LOCOSYS , GNSS Firebird , v1.0.0.19*39
$---------------------------------------------------*2D
,R,V*1E
$GPHDT,138.658,T*34
$GNACCURACY,3.5*10
$GNGGA,041449.700,2500.7893398,N,12132.4438143,E,4,54,0.49,16.867,M,15.25,M,0,3335*45
$GNRMC,041449.700,A,2500.7893398,N,12132.4438143,E,0.01,317.96,090324,,,R,V*1B
$GPHDT,,T*1B
$GNACCURACY,3.5*10
$GNGGA,041449.800,2500.7893401,N,12132.4438095,E,4,54,0.49,16.872,M,15.25,M,0,3335*43
$GNRMC,041449.800,A,2500.7893401,N,12132.4438095,E,0.02,317.96,090324,,,R,V*1A
$GPHDT,137.333,T*33
$GNACCURACY,3.5*10
$GNGGA,041449.900,2500.7893407,N,12132.4438116,E,4,54,0.49,16.850,M,15.25,M,0,3335*4E
$GNRMC,041449.900,A,2500.7893407,N,12132.4438116,E,0.02,317.96,090324,,,R,V*17
$GPHDT,,T*1B
$GNACCURACY,3.5*10
$GNGGA,041450.000,2500.7893384,N,12132.4438089,E,4,53,0.50,16.845,M,15.25,M,1,3335*4E
$GNRMC,041450.000,A,2500.7893384,N,12132.4438089,E,0.02,317.96,090324,,,R,V*1D
$GPHDT,137.247,T*31
$GNACCURACY,3.5*10
$GNGGA,041450.100,2500.7893399,N,12132.4438087,E,4,53,0.50,16.841,M,15.25,M,1,3335*49
$GNRMC,041450.100,A,2500.7893399,N,12132.4438087,E,0.02,317.96,090324,,,R,V*1E
$GPHDT,,T*1B
$GNGSA,A,3,195,194,21,08,199,02,07,27,16,09,196,04,0.85,0.49,0.70,1*09
$GNGSA,A,3,30,,,,,,,,,,,,0.85,0.49,0.70,1*05
$GNGSA,A,3,81,78,88,79,77,82,,,,,,,0.85,0.49,0.70,2*07
$GNGSA,A,3,21,13,26,27,15,,,,,,,,0.85,0.49,0.70,3*00
$GNGSA,A,3,23,09,06,16,07,40,28,43,39,10,25,37,0.85,0.49,0.70,4*0C
$GPGSV,4,1,15,195,65,113,43,194,64,053,40,21,63,152,43,08,61,359,38,1*6F
$GPGSV,4,2,15,199,60,167,36,50,60,167,38,02,51,176,44,07,44,315,44,1*5A
$GPGSV,4,3,15,27,31,037,25,16,26,078,39,09,22,244,15,196,19,169,31,1*50
$GPGSV,4,4,15,04,16,201,36,30,13,319,29,26,07,101,14,1*52
$GPGSV,2,1,08,195,65,113,47,194,64,053,43,08,61,359,43,199,60,167,44,8*57
$GPGSV,2,2,08,27,31,037,28,09,22,244,13,04,16,201,31,30,13,319,36,8*68
$GLGSV,2,1,06,81,68,204,43,78,58,043,40,88,52,030,38,79,28,336,42,1*71
$GLGSV,2,2,06,77,22,113,20,82,18,206,33,1*78
$GAGSV,2,1,08,21,55,015,39,13,54,076,40,26,46,171,32,27,28,082,26,7*72
$GAGSV,2,2,08,19,26,239,,15,12,038,13,04,12,297,14,33,06,199,,7*78
$GAGSV,1,1,04,21,55,015,39,13,54,076,43,26,46,171,40,27,28,082,23,1*78
$GBGSV,4,1,13,23,75,039,41,09,72,262,41,06,70,214,43,16,67,199,45,1*75
$GBGSV,4,2,13,07,60,310,39,40,60,330,42,28,58,224,48,43,56,036,41,1*74
$GBGSV,4,3,13,39,56,188,41,10,51,291,18,25,36,120,31,37,32,322,43,1*7A
$GBGSV,4,4,13,34,09,040,,1*4E
$GBGSV,2,1,07,23,75,039,46,40,60,330,41,28,58,224,43,39,56,188,41,4*72
$GBGSV,2,2,07,43,56,036,36,25,36,120,27,37,32,322,39,4*48
$GNACCURACY,3.5*10
$PAIRSAT,1,35,2,0,201,3,0,200,4,0,221,5,0,200,6,0,200,7,0,201,8,0,221,9,0,220,10,0,200,11,0,200,12,0,200,13,0,200,14,0,200,15,0,200,16,0,201,17,0,200,18,0,200,19,0,200,20,0,200,21,0,201,22,0,200,23,0,200,24,0,200,25,0,200,26,0,220,27,0,221,28,0,200,29,0,200,30,0,221,31,0,200,32,0,200,194,0,621,195,0,621,196,0,620,199,0,621*5A
$PAIRSAT,2,24,65,0,200,66,0,200,67,0,200,68,0,200,69,0,200,70,0,200,71,0,200,72,0,200,73,0,200,74,0,200,75,0,200,76,0,200,77,0,201,78,0,201,79,0,201,80,0,200,81,0,201,82,0,201,83,0,200,84,0,200,85,0,200,86,0,200,87,0,201,88,0,201*7B
$PAIRSAT,3,23,2,0,1200,3,0,1200,4,0,1200,5,0,200,7,0,1200,8,0,1200,9,0,1200,10,0,1200,11,0,1200,12,0,1200,13,0,1221,15,0,1220,19,0,1201,21,0,1221,24,0,1200,25,0,1200,26,0,1221,27,0,1221,30,0,1200,31,0,1200,33,0,1200,34,0,1000,36,0,1200*6B
$PAIRSAT,4,46,1,0,200,2,0,200,3,0,600,4,0,200,5,0,200,6,0,201,7,0,201,8,0,200,9,0,201,10,0,201,11,0,200,12,0,200,13,0,200,14,0,200,16,0,201,19,0,600,20,0,600,21,0,600,22,0,600,23,0,621,24,0,600,25,0,621,26,0,600,27,0,600,28,0,621,29,0,600,30,0,600,32,0,600,33,0,600,34,0,621,35,0,600,36,0,600,37,0,621,38,0,600,39,0,621,40,0,621,41,0,600,42,0,600,43,0,621,44,0,400,45,0,400,46,0,400,59,0,400,60,0,400,61,0,400,62,0,400*4A
$PAIRDGP,10,2,4,7,8,9,16,21,26,27,30*42
$GNGGA,041450.200,2500.7893400,N,12132.4438075,E,4,54,0.49,16.855,M,15.25,M,1,3335*4A
$GNRMC,041450.200,A,2500.7893400,N,12132.4438075,E,0.02,317.96,090324,,,R,V*17
$GPHDT,137.898,T*39
$GNACCURACY,3.5*10
$GNGGA,041450.300,2500.7893441,N,12132.4438084,E,4,54,0.49,16.853,M,15.25,M,1,3335*46
$GNRMC,041450.300,A,2500.7893441,N,12132.4438084,E,0.02,317.96,090324,,,R,V*1D
$GPHDT,,T*1B
$GNACCURACY,3.5*10
$GNGGA,041450.400,2500.7893414,N,12132.4438110,E,4,54,0.49,16.837,M,15.25,M,1,3335*4F
$GNRMC,041450.400,A,2500.7893414,N,12132.4438110,E,0.02,317.96,090324,,,R,V*16
$GPHDT,137.986,T*37
$GNACCURACY,3.5*10
$GNGGA,041450.500,2500.7893364,N,12132.4438042,E,4,54,0.49,16.830,M,15.25,M,0,3335*4E
$GNRMC,041450.500,A,2500.7893364,N,12132.4438042,E,0.02,317.96,090324,,,R,V*11
$GPHDT,,T*1B
$GNACCURACY,3.5*10
$GNGGA,041450.600,2500.7893409,N,12132.4438082,E,4,53,0.49,16.856,M,15.25,M,0,3335*4A
$GNRMC,041450.600,A,2500.7893409,N,12132.4438082,E,0.02,317.96,090324,,,R,V*12
$GPHDT,137.337,T*37
$GNACCURACY,3.5*10
$GNGGA,041450.700,2500.7893436,N,12132.4438049,E,4,53,0.49,16.871,M,15.25,M,0,3335*45
$GNRMC,041450.700,A,2500.7893436,N,12132.4438049,E,0.02,317.96,090324,,,R,V*18
$GPHDT,,T*1B
$GNACCURACY,3.5*10
$GNGGA,041450.800,2500.7893446,N,12132.4438071,E,4,53,0.49,16.872,M,15.25,M,0,3335*45
$GNRMC,041450.800,A,2500.7893446,N,12132.4438071,E,0.02,317.96,090324,,,R,V*1B
$GPHDT,137.734,T*30
$GNACCURACY,3.6*13
$GNGGA,041450.900,2500.7893441,N,12132.4438065,E,4,54,0.51,16.856,M,15.25,M,0,3335*4E
$GNRMC,041450.900,A,2500.7893441,N,12132.4438065,E,0.02,317.96,090324,,,R,V*18
$GPHDT,,T*1B
$GNACCURACY,3.6*13
$GNGGA,041451.000,2500.7893427,N,12132.4438030,E,4,54,0.51,16.857,M,15.25,M,1,3335*46
$GNRMC,041451.000,A,2500.7893427,N,12132.4438030,E,0.02,317.96,090324,,,R,V*10
$GPHDT,138.380,T*34
$GNACCURACY,3.6*13
$GNGGA,041451.100,2500.7893436,N,12132.4438063,E,4,54,0.51,16.861,M,15.25,M,1,3335*44
$GNRMC,041451.100,A,2500.7893436,N,12132.4438063,E,0.02,317.96,090324,,,R,V*17
$GPHDT,,T*1B
$GNGSA,A,3,195,194,21,08,199,02,07,27,16,196,04,30,0.78,0.51,0.59,1*03
$GNGSA,A,3,81,78,88,79,77,82,,,,,,,0.78,0.51,0.59,2*07
$GNGSA,A,3,21,13,26,27,15,,,,,,,,0.78,0.51,0.59,3*00
$GNGSA,A,3,23,09,06,16,07,40,28,43,39,10,25,37,0.78,0.51,0.59,4*0C
$GPGSV,4,1,15,195,65,113,43,194,64,053,40,21,63,152,43,08,61,359,37,1*60
$GPGSV,4,2,15,199,60,167,35,50,60,167,38,02,51,176,44,07,44,315,43,1*5E
$GPGSV,4,3,15,27,31,037,37,16,26,078,40,09,22,244,14,196,19,169,27,1*5B
$GPGSV,4,4,15,04,16,201,35,30,13,319,30,26,07,101,16,1*5B
$GPGSV,3,1,09,195,65,113,47,194,64,053,43,08,61,359,43,199,60,167,43,8*50
$GPGSV,3,2,09,27,31,037,38,09,22,244,14,196,19,169,31,04,16,201,31,8*5B
$GPGSV,3,3,09,30,13,319,33,8*5E
$GLGSV,2,1,06,81,68,204,43,78,58,043,38,88,52,030,34,79,28,336,38,1*7F
$GLGSV,2,2,06,77,22,113,22,82,18,206,34,1*7D
$GAGSV,2,1,08,21,55,015,34,13,54,076,40,26,46,171,30,27,28,082,27,7*7C
$GAGSV,2,2,08,19,26,239,,15,12,038,14,04,12,297,16,33,06,199,,7*7D
$GAGSV,1,1,04,21,55,015,35,13,54,076,43,26,46,171,39,27,28,082,21,1*78
$GBGSV,4,1,13,23,75,039,42,09,72,262,40,06,70,214,43,16,67,199,45,1*77
$GBGSV,4,2,13,07,60,310,41,40,60,330,40,28,58,224,48,43,56,036,38,1*77
$GBGSV,4,3,13,39,56,188,41,10,51,291,19,25,36,120,27,37,32,322,39,1*71
$GBGSV,4,4,13,34,09,040,,1*4E
$GBGSV,2,1,07,23,75,039,46,40,60,330,40,28,58,224,44,39,56,188,41,4*74
$GBGSV,2,2,07,43,56,036,38,25,36,120,27,37,32,322,39,4*46
$GNACCURACY,3.6*13
$PAIRSAT,1,35,2,0,201,3,0,200,4,0,221,5,0,200,6,0,200,7,0,201,8,0,221,9,0,220,10,0,200,11,0,200,12,0,200,13,0,200,14,0,200,15,0,200,16,0,201,17,0,200,18,0,200,19,0,200,20,0,200,21,0,201,22,0,200,23,0,200,24,0,200,25,0,200,26,0,220,27,0,221,28,0,200,29,0,200,30,0,221,31,0,200,32,0,200,194,0,621,195,0,621,196,0,620,199,0,621*5A
$PAIRSAT,2,24,65,0,200,66,0,200,67,0,200,68,0,200,69,0,200,70,0,200,71,0,200,72,0,200,73,0,200,74,0,200,75,0,200,76,0,200,77,0,201,78,0,201,79,0,201,80,0,200,81,0,201,82,0,201,83,0,200,84,0,200,85,0,200,86,0,200,87,0,201,88,0,201*7B
$PAIRSAT,3,23,2,0,1200,3,0,1200,4,0,1200,5,0,200,7,0,1200,8,0,1200,9,0,1200,10,0,1200,11,0,1200,12,0,1200,13,0,1221,15,0,1220,19,0,1201,21,0,1221,24,0,1200,25,0,1200,26,0,1221,27,0,1221,30,0,1200,31,0,1200,33,0,1200,34,0,1000,36,0,1200*6B
$PAIRSAT,4,46,1,0,200,2,0,200,3,0,600,4,0,200,5,0,200,6,0,201,7,0,201,8,0,200,9,0,201,10,0,201,11,0,200,12,0,200,13,0,200,14,0,200,16,0,201,19,0,600,20,0,600,21,0,600,22,0,600,23,0,621,24,0,600,25,0,621,26,0,600,27,0,600,28,0,621,29,0,600,30,0,600,32,0,600,33,0,600,34,0,621,35,0,600,36,0,600,37,0,621,38,0,600,39,0,621,40,0,621,41,0,600,42,0,600,43,0,621,44,0,400,45,0,400,46,0,400,59,0,400,60,0,400,61,0,400,62,0,400*4A
$PAIRDGP,10,2,4,7,8,9,16,21,26,27,30*42
$GNGGA,041451.200,2500.7893421,N,12132.4438059,E,4,54,0.51,16.849,M,15.25,M,1,3335*42
$GNRMC,041451.200,A,2500.7893421,N,12132.4438059,E,0.03,317.96,090324,,,R,V*1A
$GPHDT,139.434,T*3D
$GNACCURACY,3.6*13
$GNGGA,041451.300,2500.7893410,N,12132.4438066,E,4,55,0.51,16.835,M,15.25,M,1,3335*47
$GNRMC,041451.300,A,2500.7893410,N,12132.4438066,E,0.02,317.96,090324,,,R,V*14
$GPHDT,,T*1B
$GNACCURACY,3.6*13
$GNGGA,041451.400,2500.7893423,N,12132.4438074,E,4,56,0.49,16.841,M,15.25,M,1,3335*4A
$GNRMC,041451.400,A,2500.7893423,N,12132.4438074,E,0.03,317.96,090324,,,R,V*11
$GPHDT,140.011,T*30
$GNACCURACY,3.6*13
$GNGGA,041451.500,2500.7893415,N,12132.4438072,E,4,56,0.49,16.852,M,15.25,M,1,3335*4A
$GNRMC,041451.500,A,2500.7893415,N,12132.4438072,E,0.02,317.96,090324,,,R,V*12
$GPHDT,,T*1B
$GNACCURACY,3.6*13
$GNGGA,041451.600,2500.7893388,N,12132.4438060,E,4,55,0.51,16.846,M,15.25,M,1,3335*46
$GNRMC,041451.600,A,2500.7893388,N,12132.4438060,E,0.02,317.96,090324,,,R,V*11
$GPHDT,139.599,T*3B
$GNACCURACY,3.6*13
$GNGGA,041451.700,2500.7893400,N,12132.4438104,E,4,55,0.51,16.845,M,15.25,M,0,3335*41
$GNRMC,041451.700,A,2500.7893400,N,12132.4438104,E,0.01,317.96,090324,,,R,V*17
$GPHDT,,T*1B
$GNACCURACY,3.6*13
$GNGGA,041451.800,2500.7893409,N,12132.4438111,E,4,55,0.51,16.864,M,15.25,M,0,3335*40
$GNRMC,041451.800,A,2500.7893409,N,12132.4438111,E,0.01,317.96,090324,,,R,V*15
$GPHDT,140.537,T*31
$GNACCURACY,3.6*13
$GNGGA,041451.900,2500.7893412,N,12132.4438118,E,4,55,0.51,16.854,M,15.25,M,0,3335*41
$GNRMC,041451.900,A,2500.7893412,N,12132.4438118,E,0.01,317.96,090324,,,R,V*17
$GPHDT,,T*1B
$GNACCURACY,3.6*13
$GNGGA,041452.000,2500.7893414,N,12132.4438128,E,4,54,0.51,16.849,M,15.25,M,1,3335*42
$GNRMC,041452.000,A,2500.7893414,N,12132.4438128,E,0.01,317.96,090324,,,R,V*18
$GPHDT,140.564,T*37
$GNACCURACY,3.6*13
$GNGGA,041452.100,2500.7893408,N,12132.4438089,E,4,55,0.49,16.853,M,15.25,M,1,3335*47
$GNRMC,041452.100,A,2500.7893408,N,12132.4438089,E,0.01,317.96,090324,,,R,V*1E
$GPHDT,,T*1B
$GNGSA,A,3,195,194,21,08,199,02,07,27,16,196,04,30,0.75,0.49,0.57,1*09
$GNGSA,A,3,09,,,,,,,,,,,,0.75,0.49,0.57,1*05
$GNGSA,A,3,81,78,88,79,77,82,,,,,,,0.75,0.49,0.57,2*0D
$GNGSA,A,3,21,13,27,15,26,,,,,,,,0.75,0.49,0.57,3*0A
$GNGSA,A,3,23,09,06,16,07,40,28,43,39,10,25,37,0.75,0.49,0.57,4*06
$GPGSV,4,1,15,195,65,113,43,194,64,053,41,21,63,152,43,08,61,359,40,1*61
$GPGSV,4,2,15,199,60,167,35,50,60,167,38,02,51,176,43,07,44,315,44,1*5E
$GPGSV,4,3,15,27,31,037,30,16,26,078,40,09,22,244,13,196,19,169,28,1*54
$GPGSV,4,4,15,04,16,201,33,30,13,319,32,26,07,101,13,1*5A
$GPGSV,3,1,09,195,65,113,47,194,64,053,44,08,61,359,45,199,60,167,43,8*51
$GPGSV,3,2,09,27,31,037,34,09,22,244,13,196,19,169,29,04,16,201,28,8*51
$GPGSV,3,3,09,30,13,319,36,8*5B
$GLGSV,2,1,06,81,68,204,43,78,58,043,40,88,52,030,40,79,28,336,40,1*7C
$GLGSV,2,2,06,77,22,113,22,82,18,206,33,1*7A
$GAGSV,2,1,07,21,55,015,41,13,54,076,41,26,46,171,,27,28,082,27,7*73
$GAGSV,2,2,07,19,26,239,,15,12,038,16,04,12,297,14,7*45
$GAGSV,2,1,05,21,55,015,39,13,54,076,43,26,46,171,39,27,28,082,22,1*75
$GAGSV,2,2,05,15,12,038,20,1*4E
$GBGSV,4,1,13,23,75,039,42,09,72,262,42,06,70,214,43,16,67,199,45,1*75
$GBGSV,4,2,13,07,60,310,41,40,60,330,42,28,58,224,48,43,56,036,41,1*7B
$GBGSV,4,3,13,39,56,188,42,10,51,291,20,25,36,120,30,37,32,322,43,1*73
$GBGSV,4,4,13,34,09,040,,1*4E
$GBGSV,2,1,07,23,75,039,46,40,60,330,42,28,58,224,43,39,56,188,41,4*71
$GBGSV,2,2,07,43,56,036,39,25,36,120,27,37,32,322,40,4*49
$GNACCURACY,3.6*13
$PAIRSAT,1,35,2,0,201,3,0,200,4,0,221,5,0,200,6,0,200,7,0,201,8,0,221,9,0,220,10,0,200,11,0,200,12,0,200,13,0,200,14,0,200,15,0,200,16,0,201,17,0,200,18,0,200,19,0,200,20,0,200,21,0,201,22,0,200,23,0,200,24,0,200,25,0,200,26,0,220,27,0,221,28,0,200,29,0,200,30,0,221,31,0,200,32,0,200,194,0,621,195,0,621,196,0,620,199,0,621*5A
$PAIRSAT,2,24,65,0,200,66,0,200,67,0,200,68,0,200,69,0,200,70,0,200,71,0,200,72,0,200,73,0,200,74,0,200,75,0,200,76,0,200,77,0,201,78,0,201,79,0,201,80,0,200,81,0,201,82,0,201,83,0,200,84,0,200,85,0,200,86,0,200,87,0,201,88,0,201*7B
$PAIRSAT,3,23,2,0,1200,3,0,1200,4,0,1200,5,0,200,7,0,1200,8,0,1200,9,0,1200,10,0,1200,11,0,1200,12,0,1200,13,0,1221,15,0,1220,19,0,1201,21,0,1221,24,0,1200,25,0,1200,26,0,1221,27,0,1221,30,0,1200,31,0,1200,33,0,1200,34,0,1000,36,0,1200*6B
$PAIRSAT,4,46,1,0,200,2,0,200,3,0,600,4,0,200,5,0,200,6,0,201,7,0,201,8,0,200,9,0,201,10,0,201,11,0,200,12,0,200,13,0,200,14,0,200,16,0,201,19,0,600,20,0,600,21,0,600,22,0,600,23,0,621,24,0,600,25,0,621,26,0,600,27,0,600,28,0,621,29,0,600,30,0,600,32,0,600,33,0,600,34,0,621,35,0,600,36,0,600,37,0,621,38,0,600,39,0,621,40,0,621,41,0,600,42,0,600,43,0,621,44,0,400,45,0,400,46,0,400,59,0,400,60,0,400,61,0,400,62,0,400*4A
$PAIRDGP,10,2,4,7,8,9,16,21,26,27,30*42
$GNGGA,041452.200,2500.7893404,N,12132.4438107,E,4,55,0.49,16.861,M,15.25,M,1,3335*4E
$GNRMC,041452.200,A,2500.7893404,N,12132.4438107,E,0.02,317.96,090324,,,R,V*15
$GPHDT,139.574,T*38
$GNACCURACY,3.6*13
$GNGGA,041452.300,2500.7893402,N,12132.4438071,E,4,56,0.49,16.844,M,15.25,M,1,3335*4D
$GNRMC,041452.300,A,2500.7893402,N,12132.4438071,E,0.02,317.96,090324,,,R,V*12
$GPHDT,,T*1B
$GNACCURACY,3.6*13
$GNGGA,041452.400,2500.7893414,N,12132.4438086,E,4,56,0.49,16.837,M,15.25,M,1,3335*41
$GNRMC,041452.400,A,2500.7893414,N,12132.4438086,E,0.02,317.96,090324,,,R,V*1A
$GPHDT,139.848,T*3A
$GNACCURACY,3.7*12
$GNGGA,041452.500,2500.7893410,N,12132.4438083,E,4,54,0.53,16.844,M,15.25,M,0,3335*4D
$GNRMC,041452.500,A,2500.7893410,N,12132.4438083,E,0.01,317.96,090324,,,R,V*19
$GPHDT,,T*1B
$GNACCURACY,3.7*12
$GNGGA,041452.600,2500.7893401,N,12132.4438085,E,4,55,0.50,16.859,M,15.25,M,0,3335*46
$GNRMC,041452.600,A,2500.7893401,N,12132.4438085,E,0.01,317.96,090324,,,R,V*1C
$GPHDT,139.872,T*33
$GNACCURACY,3.7*12
$GNGGA,041452.700,2500.7893446,N,12132.4438059,E,4,55,0.51,16.878,M,15.25,M,0,3335*47
$GNRMC,041452.700,A,2500.7893446,N,12132.4438059,E,0.01,317.96,090324,,,R,V*1F
$GPHDT,,T*1B
$GNACCURACY,3.7*12
$GNGGA,041452.800,2500.7893450,N,12132.4438086,E,4,56,0.49,16.875,M,15.25,M,0,3335*4A
$GNRMC,041452.800,A,2500.7893450,N,12132.4438086,E,0.01,317.96,090324,,,R,V*15
$GPHDT,139.723,T*38
$GNACCURACY,3.7*12
$GNGGA,041452.900,2500.7893468,N,12132.4438035,E,4,56,0.49,16.883,M,15.25,M,0,3335*41
$GNRMC,041452.900,A,2500.7893468,N,12132.4438035,E,0.01,317.96,090324,,,R,V*17
$GPHDT,,T*1B
$GNACCURACY,3.7*12
$GNGGA,041453.000,2500.7893462,N,12132.4438023,E,4,56,0.49,16.879,M,15.25,M,1,3335*40
$GNRMC,041453.000,A,2500.7893462,N,12132.4438023,E,0.02,317.96,090324,,,R,V*11
$GPHDT,139.129,T*34
$GNACCURACY,3.7*12
$GNGGA,041453.100,2500.7893459,N,12132.4438027,E,4,56,0.49,16.869,M,15.25,M,1,3335*4C
$GNRMC,041453.100,A,2500.7893459,N,12132.4438027,E,0.02,317.96,090324,,,R,V*1C
$GPHDT,,T*1B
$GNGSA,A,3,195,194,21,08,199,02,07,27,16,196,04,30,0.75,0.49,0.57,1*09
$GNGSA,A,3,09,,,,,,,,,,,,0.75,0.49,0.57,1*05
$GNGSA,A,3,81,78,88,79,77,82,,,,,,,0.75,0.49,0.57,2*0D
$GNGSA,A,3,21,13,26,27,15,,,,,,,,0.75,0.49,0.57,3*0A
$GNGSA,A,3,23,09,06,16,07,40,28,43,39,10,25,37,0.75,0.49,0.57,4*06
$GPGSV,4,1,15,195,65,113,43,194,64,053,41,21,63,152,43,08,61,359,36,1*60
$GPGSV,4,2,15,199,60,167,35,50,60,167,38,02,51,176,43,07,44,315,43,1*59
$GPGSV,4,3,15,27,31,037,36,16,26,078,39,09,22,244,14,196,19,169,28,1*5B
$GPGSV,4,4,15,04,16,201,32,30,13,319,31,26,07,101,17,1*5C
$GPGSV,3,1,09,195,65,113,46,194,64,053,44,08,61,359,42,199,60,167,43,8*57
$GPGSV,3,2,09,27,31,037,38,09,22,244,12,196,19,169,31,04,16,201,29,8*54
$GPGSV,3,3,09,30,13,319,34,8*59
$GLGSV,2,1,06,81,68,204,42,78,58,043,40,88,52,030,33,79,28,336,38,1*76
$GLGSV,2,2,06,77,22,113,21,82,18,206,33,1*79
$GAGSV,2,1,07,21,55,015,34,13,54,076,41,26,46,171,32,27,28,082,28,7*7F
$GAGSV,2,2,07,19,26,239,,15,12,038,15,04,12,297,16,7*44
$GAGSV,2,1,05,21,55,015,35,13,54,076,42,26,46,171,39,27,28,082,23,1*79
$GAGSV,2,2,05,15,12,038,21,1*4F
$GBGSV,4,1,13,23,75,039,42,09,72,262,41,06,70,214,43,16,67,199,45,1*76
$GBGSV,4,2,13,07,60,310,42,40,60,330,42,28,58,224,48,43,56,036,40,1*79
$GBGSV,4,3,13,39,56,188,42,10,51,291,20,25,36,120,27,37,32,322,40,1*76
$GBGSV,4,4,13,34,09,040,,1*4E
$GBGSV,2,1,07,23,75,039,46,40,60,330,41,28,58,224,44,39,56,188,41,4*75
$GBGSV,2,2,07,43,56,036,39,25,36,120,28,37,32,322,41,4*47
$GNACCURACY,3.7*12
$PAIRSAT,1,35,2,0,201,3,0,200,4,0,221,5,0,200,6,0,200,7,0,201,8,0,221,9,0,220,10,0,200,11,0,200,12,0,200,13,0,200,14,0,200,15,0,200,16,0,201,17,0,200,18,0,200,19,0,200,20,0,200,21,0,201,22,0,200,23,0,200,24,0,200,25,0,200,26,0,220,27,0,221,28,0,200,29,0,200,30,0,221,31,0,200,32,0,200,194,0,621,195,0,621,196,0,620,199,0,621*5A
$PAIRSAT,2,24,65,0,200,66,0,200,67,0,200,68,0,200,69,0,200,70,0,200,71,0,200,72,0,200,73,0,200,74,0,200,75,0,200,76,0,200,77,0,201,78,0,201,79,0,201,80,0,200,81,0,201,82,0,201,83,0,200,84,0,200,85,0,200,86,0,200,87,0,201,88,0,201*7B
$PAIRSAT,3,23,2,0,1200,3,0,1200,4,0,1200,5,0,200,7,0,1200,8,0,1200,9,0,1200,10,0,1200,11,0,1200,12,0,1200,13,0,1221,15,0,1220,19,0,1201,21,0,1221,24,0,1200,25,0,1200,26,0,1221,27,0,1221,30,0,1200,31,0,1200,33,0,1200,34,0,1000,36,0,1200*6B
$PAIRSAT,4,46,1,0,200,2,0,200,3,0,600,4,0,200,5,0,200,6,0,201,7,0,201,8,0,200,9,0,201,10,0,201,11,0,200,12,0,200,13,0,200,14,0,200,16,0,201,19,0,600,20,0,600,21,0,600,22,0,600,23,0,621,24,0,600,25,0,621,26,0,600,27,0,600,28,0,621,29,0,600,30,0,600,32,0,600,33,0,600,34,0,621,35,0,600,36,0,600,37,0,621,38,0,600,39,0,621,40,0,621,41,0,600,42,0,600,43,0,621,44,0,400,45,0,400,46,0,400,59,0,400,60,0,400,61,0,400,62,0,400*4A
$PAIRDGP,10,2,4,7,8,9,16,21,26,27,30*42
$GNGGA,041453.200,2500.7893455,N,12132.4438055,E,4,56,0.49,16.879,M,15.25,M,1,3335*47
$GNRMC,041453.200,A,2500.7893455,N,12132.4438055,E,0.02,317.96,090324,,,R,V*16
$GPHDT,139.382,T*37
$GNACCURACY,3.8*1D
$GNGGA,041453.300,2500.7893446,N,12132.4438034,E,4,55,0.50,16.867,M,15.25,M,1,3335*47
$GNRMC,041453.300,A,2500.7893446,N,12132.4438034,E,0.01,317.96,090324,,,R,V*11
$GPHDT,,T*1B
$GNACCURACY,3.8*1D
$GNGGA,041453.400,2500.7893428,N,12132.4438071,E,4,55,0.50,16.832,M,15.25,M,1,3335*49
$GNRMC,041453.400,A,2500.7893428,N,12132.4438071,E,0.02,317.96,090324,,,R,V*1C
$GPHDT,138.884,T*3B
$GNACCURACY,3.8*1D
$GNGGA,041453.500,2500.7893422,N,12132.4438075,E,4,55,0.50,16.861,M,15.25,M,1,3335*40
$GNRMC,041453.500,A,2500.7893422,N,12132.4438075,E,0.02,317.96,090324,,,R,V*13
$GPHDT,,T*1B
$GNACCURACY,3.8*1D
$GNGGA,041453.600,2500.7893420,N,12132.4438094,E,4,55,0.50,16.877,M,15.25,M,0,3335*48
$GNRMC,041453.600,A,2500.7893420,N,12132.4438094,E,0.01,317.96,090324,,,R,V*1E
$GPHDT,139.391,T*35
$GNACCURACY,3.8*1D
$GNGGA,041453.700,2500.7893392,N,12132.4438106,E,4,55,0.50,16.867,M,15.25,M,0,3335*4C
$GNRMC,041453.700,A,2500.7893392,N,12132.4438106,E,0.02,317.96,090324,,,R,V*18
$GPHDT,,T*1B
$GNACCURACY,3.8*1D
$GNGGA,041453.800,2500.7893402,N,12132.4438121,E,4,56,0.49,16.876,M,15.25,M,0,3335*43
$GNRMC,041453.800,A,2500.7893402,N,12132.4438121,E,0.02,317.96,090324,,,R,V*1C
$GPHDT,139.479,T*34
$GNACCURACY,3.8*1D
$GNGGA,041453.900,2500.7893401,N,12132.4438117,E,4,55,0.50,16.874,M,15.25,M,0,3335*4D
$GNRMC,041453.900,A,2500.7893401,N,12132.4438117,E,0.02,317.96,090324,,,R,V*1B
$GPHDT,,T*1B
$GNACCURACY,3.8*1D
$GNGGA,041454.000,2500.7893404,N,12132.4438085,E,4,56,0.49,16.881,M,15.25,M,1,3335*4C
$GNRMC,041454.000,A,2500.7893404,N,12132.4438085,E,0.01,317.96,090324,,,R,V*19
$GPHDT,139.274,T*3F
$GNACCURACY,3.8*1D
$GNGGA,041454.100,2500.7893403,N,12132.4438094,E,4,56,0.49,16.864,M,15.25,M,1,3335*41
$GNRMC,041454.100,A,2500.7893403,N,12132.4438094,E,0.01,317.96,090324,,,R,V*1F
$GPHDT,,T*1B
$GNGSA,A,3,195,194,21,08,199,02,07,27,16,196,04,30,0.75,0.49,0.57,1*09
$GNGSA,A,3,09,,,,,,,,,,,,0.75,0.49,0.57,1*05
$GNGSA,A,3,81,78,88,79,77,82,,,,,,,0.75,0.49,0.57,2*0D
$GNGSA,A,3,21,13,26,27,15,,,,,,,,0.75,0.49,0.57,3*0A
$GNGSA,A,3,23,09,06,16,07,40,28,43,39,10,25,37,0.75,0.49,0.57,4*06
$GPGSV,4,1,15,195,65,113,43,194,64,053,41,21,63,152,43,08,61,359,42,1*63
$GPGSV,4,2,15,199,60,167,35,50,60,167,38,02,51,176,43,07,44,315,44,1*5E
$GPGSV,4,3,15,27,31,037,32,16,26,078,39,09,22,244,14,196,19,169,26,1*51
$GPGSV,4,4,15,04,16,201,32,30,13,319,33,26,07,101,15,1*5C
$GPGSV,3,1,09,195,65,113,46,194,64,053,44,08,61,359,45,199,60,167,43,8*50
$GPGSV,3,2,09,27,31,037,34,09,22,244,09,196,19,169,32,04,16,201,28,8*50
$GPGSV,3,3,09,30,13,319,36,8*5B
$GLGSV,2,1,06,81,68,204,43,78,58,043,41,88,52,030,39,79,28,336,40,1*73
$GLGSV,2,2,06,77,22,113,21,82,18,206,33,1*79
$GAGSV,2,1,07,21,55,015,40,13,54,076,41,26,46,171,27,27,28,082,28,7*78
$GAGSV,2,2,07,19,26,239,,15,12,038,15,04,12,297,15,7*47
$GAGSV,2,1,05,21,55,015,39,13,54,076,42,26,46,171,39,27,28,082,24,1*72
$GAGSV,2,2,05,15,12,038,19,1*44
$GBGSV,4,1,13,23,75,039,42,09,72,262,42,06,70,214,43,16,67,199,45,1*75
$GBGSV,4,2,13,07,60,310,39,40,60,330,42,28,58,224,48,43,56,036,41,1*74
$GBGSV,4,3,13,39,56,188,42,10,51,291,20,25,36,120,29,37,32,322,44,1*7C
$GBGSV,4,4,13,34,09,040,,1*4E
$GBGSV,2,1,07,23,75,039,46,40,60,330,43,28,58,224,43,39,56,188,41,4*70
$GBGSV,2,2,07,43,56,036,39,25,36,120,28,37,32,322,40,4*46
$GNACCURACY,3.8*1D
$PAIRSAT,1,35,2,0,201,3,0,200,4,0,221,5,0,200,6,0,200,7,0,201,8,0,221,9,0,220,10,0,200,11,0,200,12,0,200,13,0,200,14,0,200,15,0,200,16,0,201,17,0,200,18,0,200,19,0,200,20,0,200,21,0,201,22,0,200,23,0,200,24,0,200,25,0,200,26,0,220,27,0,221,28,0,200,29,0,200,30,0,221,31,0,200,32,0,200,194,0,621,195,0,621,196,0,620,199,0,621*5A
$PAIRSAT,2,24,65,0,200,66,0,200,67,0,200,68,0,200,69,0,200,70,0,200,71,0,200,72,0,200,73,0,200,74,0,200,75,0,200,76,0,200,77,0,201,78,0,201,79,0,201,80,0,200,81,0,201,82,0,201,83,0,200,84,0,200,85,0,200,86,0,200,87,0,201,88,0,201*7B
$PAIRSAT,3,23,2,0,1200,3,0,1200,4,0,1200,5,0,200,7,0,1200,8,0,1200,9,0,1200,10,0,1200,11,0,1200,12,0,1200,13,0,1221,15,0,1220,19,0,1201,21,0,1221,24,0,1200,25,0,1200,26,0,1221,27,0,1221,30,0,1200,31,0,1200,33,0,1200,34,0,1000,36,0,1200*6B
$PAIRSAT,4,46,1,0,200,2,0,200,3,0,600,4,0,200,5,0,200,6,0,201,7,0,201,8,0,200,9,0,201,10,0,201,11,0,200,12,0,200,13,0,200,14,0,200,16,0,201,19,0,600,20,0,600,21,0,600,22,0,600,23,0,621,24,0,600,25,0,621,26,0,600,27,0,600,28,0,621,29,0,600,30,0,600,32,0,600,33,0,600,34,0,621,35,0,600,36,0,600,37,0,621,38,0,600,39,0,621,40,0,621,41,0,600,42,0,600,43,0,621,44,0,400,45,0,400,46,0,400,59,0,400,60,0,400,61,0,400,62,0,400*4A
$PAIRDGP,10,2,4,7,8,9,16,21,26,27,30*42
$GNGGA,041454.200,2500.7893423,N,12132.4438091,E,4,56,0.49,16.887,M,15.25,M,1,3335*48
$GNRMC,041454.200,A,2500.7893423,N,12132.4438091,E,0.01,317.96,090324,,,R,V*1B
$GPHDT,139.265,T*3F
$GNACCURACY,3.7*12
$GNGGA,041454.300,2500.7893417,N,12132.4438083,E,4,56,0.49,16.877,M,15.25,M,1,3335*42
$GNRMC,041454.300,A,2500.7893417,N,12132.4438083,E,0.01,317.96,090324,,,R,V*1E
$GPHDT,,T*1B
$GNACCURACY,3.8*1D
$GNGGA,041454.400,2500.7893420,N,12132.4438078,E,4,55,0.49,16.868,M,15.25,M,1,3335*48
$GNRMC,041454.400,A,2500.7893420,N,12132.4438078,E,0.01,317.96,090324,,,R,V*19
$GPHDT,138.869,T*38
$GNACCURACY,3.8*1D
$GNGGA,041454.500,2500.7893440,N,12132.4438137,E,4,55,0.49,16.878,M,15.25,M,1,3335*44
$GNRMC,041454.500,A,2500.7893440,N,12132.4438137,E,0.01,317.96,090324,,,R,V*14
$GPHDT,,T*1B
$GNACCURACY,3.8*1D
$GNGGA,041454.600,2500.7893424,N,12132.4438050,E,4,55,0.49,16.867,M,15.25,M,1,3335*4B
$GNRMC,041454.600,A,2500.7893424,N,12132.4438050,E,0.01,317.96,090324,,,R,V*15
$GPHDT,138.616,T*3E
$GNACCURACY,3.8*1D
$GNGGA,041454.700,2500.7893419,N,12132.4437978,E,4,55,0.49,16.855,M,15.25,M,0,3335*48
$GNRMC,041454.700,A,2500.7893419,N,12132.4437978,E,0.02,317.96,090324,,,R,V*15
$GPHDT,,T*1B
$GNACCURACY,3.8*1D
$GNGGA,041454.800,2500.7893409,N,12132.4438027,E,4,56,0.49,16.876,M,15.25,M,0,3335*48
$GNRMC,041454.800,A,2500.7893409,N,12132.4438027,E,0.02,317.96,090324,,,R,V*17
$GPHDT,138.932,T*37
$GNACCURACY,3.8*1D
$GNGGA,041454.900,2500.7893432,N,12132.4438044,E,4,56,0.49,16.870,M,15.25,M,0,3335*42
$GNRMC,041454.900,A,2500.7893432,N,12132.4438044,E,0.01,317.96,090324,,,R,V*18
$GPHDT,,T*1B
$GNACCURACY,3.8*1D
$GNGGA,041455.000,2500.7893417,N,12132.4438035,E,4,56,0.49,16.862,M,15.25,M,1,3335*49
$GNRMC,041455.000,A,2500.7893417,N,12132.4438035,E,0.01,317.96,090324,,,R,V*11
$GPHDT,138.721,T*3B
$GNACCURACY,3.8*1D
$GNGGA,041455.100,2500.7893390,N,12132.4438067,E,4,56,0.49,16.863,M,15.25,M,1,3335*46
$GNRMC,041455.100,A,2500.7893390,N,12132.4438067,E,0.01,317.96,090324,,,R,V*1F
$GPHDT,,T*1B
$GNGSA,A,3,195,194,21,08,199,02,07,27,16,196,04,30,0.76,0.50,0.57,1*02
$GNGSA,A,3,09,,,,,,,,,,,,0.76,0.50,0.57,1*0E
$GNGSA,A,3,81,78,88,79,77,82,,,,,,,0.76,0.50,0.57,2*06
$GNGSA,A,3,21,13,26,27,15,,,,,,,,0.76,0.50,0.57,3*01
$GNGSA,A,3,23,09,06,16,40,07,28,39,43,25,37,,0.76,0.50,0.57,4*0C
$GPGSV,4,1,15,195,65,113,43,194,64,053,40,21,63,152,43,08,61,359,35,1*62
$GPGSV,4,2,15,199,60,167,35,50,60,167,38,02,51,176,43,07,44,315,42,1*58
$GPGSV,4,3,15,27,31,037,32,16,26,078,39,09,22,244,13,196,19,169,25,1*55
$GPGSV,4,4,15,04,16,201,33,30,13,319,32,26,07,101,14,1*5D
$GPGSV,3,1,09,195,65,113,46,194,64,053,44,08,61,359,40,199,60,167,43,8*55
$GPGSV,3,2,09,27,31,037,34,09,22,244,13,196,19,169,30,04,16,201,28,8*59
$GPGSV,3,3,09,30,13,319,37,8*5A
$GLGSV,2,1,06,81,68,204,42,78,58,043,41,88,52,030,31,79,28,336,40,1*7A
$GLGSV,2,2,06,77,22,113,21,82,18,206,33,1*79
$GAGSV,2,1,07,21,55,015,34,13,54,076,40,26,46,171,25,27,28,082,29,7*79
$GAGSV,2,2,07,19,26,239,,15,12,038,15,04,12,297,13,7*41
$GAGSV,2,1,05,21,55,015,37,13,54,076,41,26,46,171,39,27,28,082,25,1*7E
$GAGSV,2,2,05,15,12,038,23,1*4D
$GBGSV,4,1,14,23,75,039,42,09,72,262,42,06,70,214,43,16,66,199,45,1*73
$GBGSV,4,2,14,40,60,330,41,07,60,310,39,28,58,224,48,39,56,188,43,1*7B
$GBGSV,4,3,14,43,56,036,38,10,51,291,20,25,36,120,28,37,32,322,42,1*78
$GBGSV,4,4,14,27,11,221,,34,09,040,,1*7D
$GBGSV,2,1,07,23,75,039,45,40,60,330,40,28,58,224,43,39,56,188,40,4*71
$GBGSV,2,2,07,43,56,036,39,25,36,120,27,37,32,322,42,4*4B
$GNACCURACY,3.8*1D
$PAIRSAT,1,35,2,0,201,3,0,200,4,0,221,5,0,200,6,0,200,7,0,201,8,0,221,9,0,220,10,0,200,11,0,200,12,0,200,13,0,200,14,0,200,15,0,200,16,0,201,17,0,200,18,0,200,19,0,200,20,0,200,21,0,201,22,0,200,23,0,200,24,0,200,25,0,200,26,0,220,27,0,221,28,0,200,29,0,200,30,0,221,31,0,200,32,0,200,194,0,621,195,0,621,196,0,620,199,0,621*5A
$PAIRSAT,2,24,65,0,200,66,0,200,67,0,200,68,0,200,69,0,200,70,0,200,71,0,200,72,0,200,73,0,200,74,0,200,75,0,200,76,0,200,77,0,201,78,0,201,79,0,201,80,0,200,81,0,201,82,0,201,83,0,200,84,0,200,85,0,200,86,0,200,87,0,201,88,0,201*7B
$PAIRSAT,3,23,2,0,1200,3,0,1200,4,0,1200,5,0,200,7,0,1200,8,0,1200,9,0,1200,10,0,1200,11,0,1200,12,0,1200,13,0,1221,15,0,1220,19,0,1201,21,0,1221,24,0,1200,25,0,1200,26,0,1221,27,0,1221,30,0,1200,31,0,1200,33,0,1200,34,0,1000,36,0,1200*6B
$PAIRSAT,4,46,1,0,200,2,0,200,3,0,600,4,0,200,5,0,200,6,0,201,7,0,201,8,0,200,9,0,201,10,0,201,11,0,200,12,0,200,13,0,200,14,0,200,16,0,201,19,0,600,20,0,600,21,0,600,22,0,600,23,0,621,24,0,600,25,0,621,26,0,600,27,0,600,28,0,621,29,0,600,30,0,60