$FW : RTK35X,V1.1X0314AS,Lib20210517,1*54
$Tool : LOCOSYS , GNSS Firebird , v1.0.0.19*39
$---------------------------------------------------*2D
$GPHDT,,T*1B
$GNGSA,A,3,195,194,21,08,199,02,07,27,16,196,04,30,0.89,0.53,0.72,1*06
$GNGSA,A,3,81,78,88,79,77,82,,,,,,,0.89,0.53,0.72,2*02
$GNGSA,A,3,21,13,26,27,15,,,,,,,,0.89,0.53,0.72,3*05
$GNGSA,A,3,23,09,06,16,07,40,28,43,39,25,37,,0.89,0.53,0.72,4*08
$GPGSV,4,1,15,195,65,113,41,194,64,053,35,21,63,153,42,08,61,359,42,1*62
$GPGSV,4,2,15,199,60,167,35,50,60,167,37,02,51,176,43,07,43,315,42,1*50
$GPGSV,4,3,15,27,31,037,44,16,26,078,35,09,22,244,17,196,19,169,30,1*58
$GPGSV,4,4,15,04,16,201,24,30,13,320,30,26,07,101,14,1*53
$GPGSV,2,1,08,195,65,113,41,194,64,053,41,08,61,359,46,199,60,167,44,8*56
$GPGSV,2,2,08,27,31,037,42,196,19,169,30,04,16,201,22,30,13,320,37,8*5F
$GLGSV,2,1,06,81,68,204,42,78,58,043,40,88,52,030,40,79,28,336,43,1*7E
$GLGSV,2,2,06,77,22,113,16,82,18,206,20,1*7F
$GAGSV,2,1,07,21,55,015,42,13,54,077,34,26,46,171,41,27,28,082,22,7*73
$GAGSV,2,2,07,19,26,239,,15,12,038,18,04,12,297,13,7*4C
$GAGSV,2,1,05,21,55,015,44,13,54,077,39,26,46,171,44,27,28,082,17,1*7F
$GAGSV,2,2,05,15,12,038,17,1*4A
$GBGSV,4,1,13,23,75,039,45,09,72,262,41,06,70,214,41,16,67,199,44,1*72
$GBGSV,4,2,13,07,60,310,40,40,60,330,43,28,58,224,45,43,56,036,44,1*73
$GBGSV,4,3,13,39,56,188,44,10,51,291,19,25,36,120,35,37,32,322,44,1*7D
$GBGSV,4,4,13,34,09,040,16,1*49
$GBGSV,2,1,08,23,75,039,46,40,60,330,43,28,58,224,41,43,56,036,39,4*7B
$GBGSV,2,2,08,39,56,188,40,25,36,120,29,37,32,322,44,34,09,040,18,4*78
$GNACCURACY,3.5*10
$PAIRSAT,1,35,2,0,201,3,0,200,4,0,221,5,0,200,6,0,200,7,0,201,8,0,221,9,0,220,10,0,200,11,0,200,12,0,200,13,0,200,14,0,200,15,0,200,16,0,201,17,0,200,18,0,200,19,0,200,20,0,200,21,0,201,22,0,200,23,0,200,24,0,200,25,0,200,26,0,220,27,0,221,28,0,200,29,0,200,30,0,221,31,0,200,32,0,200,194,0,621,195,0,621,196,0,620,199,0,621*5A
$PAIRSAT,2,24,65,0,200,66,0,200,67,0,200,68,0,200,69,0,200,70,0,200,71,0,200,72,0,200,73,0,200,74,0,200,75,0,200,76,0,200,77,0,201,78,0,201,79,0,201,80,0,200,81,0,201,82,0,201,83,0,200,84,0,200,85,0,200,86,0,200,87,0,201,88,0,201*7B
$PAIRSAT,3,23,2,0,1200,3,0,1200,4,0,1200,5,0,200,7,0,1200,8,0,1200,9,0,1200,10,0,1200,11,0,1200,12,0,1200,13,0,1221,15,0,1220,19,0,1201,21,0,1221,24,0,1200,25,0,1200,26,0,1221,27,0,1221,30,0,1200,31,0,1200,33,0,1200,34,0,1000,36,0,1200*6B
$PAIRSAT,4,46,1,0,200,2,0,200,3,0,600,4,0,200,5,0,200,6,0,201,7,0,201,8,0,200,9,0,201,10,0,201,11,0,200,12,0,200,13,0,200,14,0,200,16,0,201,19,0,600,20,0,600,21,0,600,22,0,600,23,0,621,24,0,600,25,0,621,26,0,600,27,0,600,28,0,621,29,0,600,30,0,600,32,0,600,33,0,600,34,0,621,35,0,600,36,0,600,37,0,621,38,0,600,39,0,621,40,0,621,41,0,600,42,0,600,43,0,621,44,0,400,45,0,400,46,0,400,59,0,400,60,0,400,61,0,400,62,0,400*4A
$PAIRDGP,10,2,4,7,8,9,16,21,26,27,30*42
$GNGGA,041441.200,2500.7893414,N,12132.4438347,E,4,54,0.53,16.787,M,15.25,M,1,3335*46
$GNRMC,041441.200,A,2500.7893414,N,12132.4438347,E,0.01,317.96,090324,,,R,V*13
$GPHDT,190.741,T*3F
$GNACCURACY,3.5*10
$GNGGA,041441.300,2500.7893400,N,12132.4438365,E,4,54,0.53,16.772,M,15.25,M,1,3335*48
$GNRMC,041441.300,A,2500.7893400,N,12132.4438365,E,0.01,317.96,090324,,,R,V*17
$GPHDT,,T*1B
$GNACCURACY,3.5*10
$GNGGA,041441.400,2500.7893407,N,12132.4438293,E,4,54,0.53,16.776,M,15.25,M,1,3335*44
$GNRMC,041441.400,A,2500.7893407,N,12132.4438293,E,0.01,317.96,090324,,,R,V*1F
$GPHDT,191.197,T*33
$GNACCURACY,3.5*10
$GNGGA,041441.500,2500.7893377,N,12132.4438271,E,4,54,0.53,16.793,M,15.25,M,1,3335*42
$GNRMC,041441.500,A,2500.7893377,N,12132.4438271,E,0.01,317.96,090324,,,R,V*12
$GPHDT,,T*1B
$GNACCURACY,3.5*10
$GNGGA,041441.600,2500.7893417,N,12132.4438354,E,4,54,0.53,16.809,M,15.25,M,0,3335*4B
$GNRMC,041441.600,A,2500.7893417,N,12132.4438354,E,0.01,317.96,090324,,,R,V*16
$GPHDT,192.286,T*33
$GNACCURACY,3.6*13
$GNGGA,041441.700,2500.7893387,N,12132.4438325,E,4,54,0.53,16.795,M,15.25,M,0,3335*48
$GNRMC,041441.700,A,2500.7893387,N,12132.4438325,E,0.01,317.96,090324,,,R,V*1F
$GPHDT,,T*1B
$GNACCURACY,3.6*13
$GNGGA,041441.800,2500.7893412,N,12132.4438346,E,4,54,0.53,16.809,M,15.25,M,0,3335*43
$GNRMC,041441.800,A,2500.7893412,N,12132.4438346,E,0.01,317.96,090324,,,R,V*1E
$GPHDT,192.731,T*3A
$GNACCURACY,3.6*13
$GNGGA,041441.900,2500.7893399,N,12132.4438357,E,4,54,0.53,16.802,M,15.25,M,0,3335*4D
$GNRMC,041441.900,A,2500.7893399,N,12132.4438357,E,0.00,317.96,090324,,,R,V*1A
$GPHDT,,T*1B
$GNACCURACY,3.6*13
$GNGGA,041442.000,2500.7893403,N,12132.4438350,E,4,54,0.53,16.803,M,15.25,M,1,3335*44
$GNRMC,041442.000,A,2500.7893403,N,12132.4438350,E,0.00,317.96,090324,,,R,V*13
$GPHDT,192.248,T*31
$GNACCURACY,3.5*10
$GNGGA,041442.100,2500.7893430,N,12132.4438298,E,4,54,0.53,16.820,M,15.25,M,1,3335*41
$GNRMC,041442.100,A,2500.7893430,N,12132.4438298,E,0.00,317.96,090324,,,R,V*17
$GPHDT,,T*1B
$GNGSA,A,3,195,194,21,08,199,02,07,27,16,196,04,30,0.89,0.53,0.72,1*06
$GNGSA,A,3,81,78,88,79,77,82,,,,,,,0.89,0.53,0.72,2*02
$GNGSA,A,3,21,13,26,27,15,,,,,,,,0.89,0.53,0.72,3*05
$GNGSA,A,3,23,09,06,16,40,07,28,39,43,25,37,,0.89,0.53,0.72,4*08
$GPGSV,4,1,15,195,65,113,43,194,64,053,38,21,63,153,42,08,61,359,42,1*6D
$GPGSV,4,2,15,199,60,167,36,50,60,167,39,02,51,176,44,07,43,315,43,1*5B
$GPGSV,4,3,15,27,31,037,42,16,26,078,34,09,22,244,16,196,19,169,33,1*5D
$GPGSV,4,4,15,04,16,201,24,30,13,320,31,26,07,101,15,1*53
$GPGSV,2,1,08,195,65,113,43,194,64,053,42,08,61,359,47,199,60,167,45,8*57
$GPGSV,2,2,08,27,31,037,37,196,19,169,26,04,16,201,22,30,13,320,38,8*55
$GLGSV,2,1,06,81,68,204,42,78,58,043,41,88,52,030,37,79,28,336,44,1*78
$GLGSV,2,2,06,77,22,113,19,82,18,206,24,1*74
$GAGSV,2,1,07,21,55,015,42,13,54,077,30,26,46,171,42,27,28,082,20,7*76
$GAGSV,2,2,07,19,26,239,,15,12,038,17,04,12,297,13,7*43
$GAGSV,2,1,05,21,55,015,44,13,54,077,40,26,46,171,44,27,28,082,18,1*7E
$GAGSV,2,2,05,15,12,038,15,1*48
$GBGSV,4,1,14,23,75,039,45,09,72,262,42,06,70,214,42,16,67,199,44,1*75
$GBGSV,4,2,14,40,60,330,42,07,60,310,42,28,58,224,45,39,56,188,45,1*7F
$GBGSV,4,3,14,43,56,036,42,10,51,291,20,25,36,120,35,37,32,322,46,1*7D
$GBGSV,4,4,14,38,11,168,,34,09,040,15,1*79
$GBGSV,2,1,08,23,75,039,46,40,60,330,44,28,58,224,41,43,56,036,41,4*73
$GBGSV,2,2,08,39,56,188,40,25,36,120,29,37,32,322,44,34,09,040,16,4*76
$GNACCURACY,3.5*10
$PAIRSAT,1,35,2,0,201,3,0,200,4,0,221,5,0,200,6,0,200,7,0,201,8,0,221,9,0,220,10,0,200,11,0,200,12,0,200,13,0,200,14,0,200,15,0,200,16,0,201,17,0,200,18,0,200,19,0,200,20,0,200,21,0,201,22,0,200,23,0,200,24,0,200,25,0,200,26,0,220,27,0,221,28,0,200,29,0,200,30,0,221,31,0,200,32,0,200,194,0,621,195,0,621,196,0,620,199,0,621*5A
$PAIRSAT,2,24,65,0,200,66,0,200,67,0,200,68,0,200,69,0,200,70,0,200,71,0,200,72,0,200,73,0,200,74,0,200,75,0,200,76,0,200,77,0,201,78,0,201,79,0,201,80,0,200,81,0,201,82,0,201,83,0,200,84,0,200,85,0,200,86,0,200,87,0,201,88,0,201*7B
$PAIRSAT,3,23,2,0,1200,3,0,1200,4,0,1200,5,0,200,7,0,1200,8,0,1200,9,0,1200,10,0,1200,11,0,1200,12,0,1200,13,0,1221,15,0,1220,19,0,1201,21,0,1221,24,0,1200,25,0,1200,26,0,1221,27,0,1221,30,0,1200,31,0,1200,33,0,1200,34,0,1000,36,0,1200*6B
$PAIRSAT,4,46,1,0,200,2,0,200,3,0,600,4,0,200,5,0,200,6,0,201,7,0,201,8,0,200,9,0,201,10,0,201,11,0,200,12,0,200,13,0,200,14,0,200,16,0,201,19,0,600,20,0,600,21,0,600,22,0,600,23,0,621,24,0,600,25,0,621,26,0,600,27,0,600,28,0,621,29,0,600,30,0,600,32,0,600,33,0,600,34,0,621,35,0,600,36,0,600,37,0,621,38,0,600,39,0,621,40,0,621,41,0,600,42,0,600,43,0,621,44,0,400,45,0,400,46,0,400,59,0,400,60,0,400,61,0,400,62,0,400*4A
$PAIRDGP,10,2,4,7,8,9,16,21,26,27,30*42
$GNGGA,041442.200,2500.7893445,N,12132.4438291,E,4,54,0.53,16.839,M,15.25,M,1,3335*41
$GNRMC,041442.200,A,2500.7893445,N,12132.4438291,E,0.00,317.96,090324,,,R,V*1F
$GPHDT,191.197,T*33
$GNACCURACY,3.5*10
$GNGGA,041442.300,2500.7893431,N,12132.4438280,E,4,53,0.53,16.856,M,15.25,M,1,3335*4D
$GNRMC,041442.300,A,2500.7893431,N,12132.4438280,E,0.00,317.96,090324,,,R,V*1D
$GPHDT,,T*1B
$GNACCURACY,3.5*10
$GNGGA,041442.400,2500.7893408,N,12132.4438284,E,4,53,0.53,16.838,M,15.25,M,1,3335*4C
$GNRMC,041442.400,A,2500.7893408,N,12132.4438284,E,0.00,317.96,090324,,,R,V*14
$GPHDT,190.472,T*3C
$GNACCURACY,3.5*10
$GNGGA,041442.500,2500.7893402,N,12132.4438241,E,4,53,0.53,16.857,M,15.25,M,1,3335*47
$GNRMC,041442.500,A,2500.7893402,N,12132.4438241,E,0.00,317.96,090324,,,R,V*16
$GPHDT,,T*1B
$GNACCURACY,3.5*10
$GNGGA,041442.600,2500.7893401,N,12132.4438235,E,4,53,0.53,16.855,M,15.25,M,1,3335*46
$GNRMC,041442.600,A,2500.7893401,N,12132.4438235,E,0.00,317.96,090324,,,R,V*15
$GPHDT,189.651,T*37
$GNACCURACY,3.5*10
$GNGGA,041442.700,2500.7893398,N,12132.4438260,E,4,54,0.53,16.871,M,15.25,M,1,3335*41
$GNRMC,041442.700,A,2500.7893398,N,12132.4438260,E,0.00,317.96,090324,,,R,V*13
$GPHDT,,T*1B
$GNACCURACY,3.5*10
$GNGGA,041442.800,2500.7893382,N,12132.4438212,E,4,54,0.53,16.851,M,15.25,M,0,3335*43
$GNRMC,041442.800,A,2500.7893382,N,12132.4438212,E,0.00,317.96,090324,,,R,V*12
$GPHDT,189.939,T*36
$GNACCURACY,3.5*10
$GNGGA,041442.900,2500.7893368,N,12132.4438210,E,4,53,0.53,16.840,M,15.25,M,0,3335*43
$GNRMC,041442.900,A,2500.7893368,N,12132.4438210,E,0.00,317.96,090324,,,R,V*15
$GPHDT,,T*1B
$GNACCURACY,3.5*10
$GNGGA,041443.000,2500.7893382,N,12132.4438189,E,4,53,0.53,16.838,M,15.25,M,1,3335*42
$GNRMC,041443.000,A,2500.7893382,N,12132.4438189,E,0.00,317.96,090324,,,R,V*1A
$GPHDT,189.514,T*35
$GNACCURACY,3.5*10
$GNGGA,041443.100,2500.7893390,N,12132.4438207,E,4,53,0.53,16.802,M,15.25,M,1,3335*4C
$GNRMC,041443.100,A,2500.7893390,N,12132.4438207,E,0.00,317.96,090324,,,R,V*1D
$GPHDT,,T*1B
$GNGSA,A,3,195,194,21,08,199,02,07,27,16,196,04,30,0.89,0.53,0.72,1*06
$GNGSA,A,3,81,78,88,79,77,82,,,,,,,0.89,0.53,0.72,2*02
$GNGSA,A,3,21,13,26,27,15,,,,,,,,0.89,0.53,0.72,3*05
$GNGSA,A,3,23,09,06,16,07,40,28,43,39,25,37,,0.89,0.53,0.72,4*08
$GPGSV,4,1,15,195,65,113,43,194,64,053,37,21,63,153,42,08,61,359,43,1*63
$GPGSV,4,2,15,199,60,167,36,50,60,167,39,02,51,176,44,07,43,315,43,1*5B
$GPGSV,4,3,15,27,31,037,41,16,26,078,35,09,22,244,16,196,19,169,31,1*5D
$GPGSV,4,4,15,04,16,201,23,30,13,320,29,26,07,101,15,1*5D
$GPGSV,2,1,07,195,65,113,43,194,64,053,41,08,61,359,46,199,60,167,45,8*5A
$GPGSV,2,2,07,27,31,037,36,04,16,201,23,30,13,320,38,8*56
$GLGSV,2,1,06,81,68,204,43,78,58,043,39,88,52,030,36,79,28,336,45,1*76
$GLGSV,2,2,06,77,22,113,19,82,18,206,25,1*75
$GAGSV,2,1,08,21,55,015,40,13,54,077,30,26,46,171,42,27,28,082,20,7*7B
$GAGSV,2,2,08,19,26,239,,15,12,038,16,04,12,297,12,33,06,199,,7*7B
$GAGSV,2,1,05,21,55,015,41,13,54,077,40,26,46,171,44,27,28,082,16,1*75
$GAGSV,2,2,05,15,12,038,14,1*49
$GBGSV,4,1,13,23,75,039,43,09,72,262,42,06,70,214,42,16,67,199,44,1*74
$GBGSV,4,2,13,07,60,310,41,40,60,330,42,28,58,224,46,43,56,036,41,1*75
$GBGSV,4,3,13,39,56,188,46,10,51,291,20,25,36,120,36,37,32,322,44,1*76
$GBGSV,4,4,13,34,09,040,15,1*4A
$GBGSV,2,1,08,23,75,039,45,40,60,330,44,28,58,224,41,43,56,036,38,4*7E
$GBGSV,2,2,08,39,56,188,40,25,36,120,28,37,32,322,44,34,09,040,16,4*77
$GNACCURACY,3.5*10
$PAIRSAT,1,35,2,0,201,3,0,200,4,0,221,5,0,200,6,0,200,7,0,201,8,0,221,9,0,220,10,0,200,11,0,200,12,0,200,13,0,200,14,0,200,15,0,200,16,0,201,17,0,200,18,0,200,19,0,200,20,0,200,21,0,201,22,0,200,23,0,200,24,0,200,25,0,200,26,0,220,27,0,221,28,0,200,29,0,200,30,0,221,31,0,200,32,0,200,194,0,621,195,0,621,196,0,620,199,0,621*5A
$PAIRSAT,2,24,65,0,200,66,0,200,67,0,200,68,0,200,69,0,200,70,0,200,71,0,200,72,0,200,73,0,200,74,0,200,75,0,200,76,0,200,77,0,201,78,0,201,79,0,201,80,0,200,81,0,201,82,0,201,83,0,200,84,0,200,85,0,200,86,0,200,87,0,201,88,0,201*7B
$PAIRSAT,3,23,2,0,1200,3,0,1200,4,0,1200,5,0,200,7,0,1200,8,0,1200,9,0,1200,10,0,1200,11,0,1200,12,0,1200,13,0,1221,15,0,1220,19,0,1201,21,0,1221,24,0,1200,25,0,1200,26,0,1221,27,0,1221,30,0,1200,31,0,1200,33,0,1200,34,0,1000,36,0,1200*6B
$PAIRSAT,4,46,1,0,200,2,0,200,3,0,600,4,0,200,5,0,200,6,0,201,7,0,201,8,0,200,9,0,201,10,0,201,11,0,200,12,0,200,13,0,200,14,0,200,16,0,201,19,0,600,20,0,600,21,0,600,22,0,600,23,0,621,24,0,600,25,0,621,26,0,600,27,0,600,28,0,621,29,0,600,30,0,600,32,0,600,33,0,600,34,0,621,35,0,600,36,0,600,37,0,621,38,0,600,39,0,621,40,0,621,41,0,600,42,0,600,43,0,621,44,0,400,45,0,400,46,0,400,59,0,400,60,0,400,61,0,400,62,0,400*4A
$PAIRDGP,10,2,4,7,8,9,16,21,26,27,30*42
$GNGGA,041443.200,2500.7893414,N,12132.4438225,E,4,53,0.53,16.810,M,15.25,M,1,3335*47
$GNRMC,041443.200,A,2500.7893414,N,12132.4438225,E,0.00,317.96,090324,,,R,V*15
$GPHDT,189.532,T*31
$GNACCURACY,3.5*10
$GNGGA,041443.300,2500.7893374,N,12132.4438228,E,4,53,0.53,16.806,M,15.25,M,1,3335*4D
$GNRMC,041443.300,A,2500.7893374,N,12132.4438228,E,0.00,317.96,090324,,,R,V*18
$GPHDT,,T*1B
$GNACCURACY,3.5*10
$GNGGA,041443.400,2500.7893398,N,12132.4438199,E,4,53,0.53,16.823,M,15.25,M,1,3335*46
$GNRMC,041443.400,A,2500.7893398,N,12132.4438199,E,0.00,317.96,090324,,,R,V*14
$GPHDT,190.155,T*3C
$GNACCURACY,3.5*10
$GNGGA,041443.500,2500.7893375,N,12132.4438234,E,4,53,0.53,16.815,M,15.25,M,1,3335*45
$GNRMC,041443.500,A,2500.7893375,N,12132.4438234,E,0.00,317.96,090324,,,R,V*12
$GPHDT,,T*1B
$GNACCURACY,3.5*10
$GNGGA,041443.600,2500.7893356,N,12132.4438227,E,4,53,0.53,16.807,M,15.25,M,0,3335*47
$GNRMC,041443.600,A,2500.7893356,N,12132.4438227,E,0.00,317.96,090324,,,R,V*12
$GPHDT,190.230,T*3C
$GNACCURACY,3.5*10
$GNGGA,041443.700,2500.7893369,N,12132.4438238,E,4,53,0.53,16.827,M,15.25,M,0,3335*46
$GNRMC,041443.700,A,2500.7893369,N,12132.4438238,E,0.00,317.96,090324,,,R,V*11
$GPHDT,,T*1B
$GNACCURACY,3.5*10
$GNGGA,041443.800,2500.7893386,N,12132.4438219,E,4,53,0.53,16.822,M,15.25,M,0,3335*4E
$GNRMC,041443.800,A,2500.7893386,N,12132.4438219,E,0.00,317.96,090324,,,R,V*1C
$GPHDT,190.534,T*3F
$GNACCURACY,3.5*10
$GNGGA,041443.900,2500.7893399,N,12132.4438191,E,4,53,0.53,16.828,M,15.25,M,0,3335*48
$GNRMC,041443.900,A,2500.7893399,N,12132.4438191,E,0.00,317.96,090324,,,R,V*10
$GPHDT,,T*1B
$GNACCURACY,3.5*10
$GNGGA,041444.000,2500.7893386,N,12132.4438256,E,4,53,0.53,16.803,M,15.25,M,1,3335*48
$GNRMC,041444.000,A,2500.7893386,N,12132.4438256,E,0.00,317.96,090324,,,R,V*18
$GPHDT,189.334,T*31
$GNACCURACY,3.5*10
$GNGGA,041444.100,2500.7893376,N,12132.4438269,E,4,53,0.53,16.821,M,15.25,M,1,3335*4A
$GNRMC,041444.100,A,2500.7893376,N,12132.4438269,E,0.00,317.96,090324,,,R,V*1A
$GPHDT,,T*1B
$GNGSA,A,3,195,194,21,08,199,02,07,27,16,196,04,30,0.89,0.53,0.72,1*06
$GNGSA,A,3,81,78,88,79,77,82,,,,,,,0.89,0.53,0.72,2*02
$GNGSA,A,3,21,13,26,27,15,,,,,,,,0.89,0.53,0.72,3*05
$GNGSA,A,3,23,09,06,16,40,07,28,39,43,25,37,,0.89,0.53,0.72,4*08
$GPGSV,4,1,15,195,65,113,43,194,64,053,38,21,63,153,42,08,61,359,43,1*6C
$GPGSV,4,2,15,199,60,167,36,50,60,167,39,02,51,176,44,07,44,315,43,1*5C
$GPGSV,4,3,15,27,31,037,41,16,26,078,36,09,22,244,15,196,19,169,31,1*5D
$GPGSV,4,4,15,04,16,201,23,30,13,320,30,26,07,101,17,1*57
$GPGSV,2,1,07,195,65,113,43,194,64,053,41,08,61,359,46,199,60,167,45,8*5A
$GPGSV,2,2,07,27,31,037,34,04,16,201,20,30,13,320,38,8*57
$GLGSV,2,1,06,81,68,204,43,78,58,043,40,88,52,030,36,79,28,336,44,1*79
$GLGSV,2,2,06,77,22,113,19,82,18,206,25,1*75
$GAGSV,2,1,08,21,55,015,40,13,54,077,31,26,46,171,42,27,28,082,19,7*70
$GAGSV,2,2,08,19,26,239,,04,12,297,13,15,12,038,14,33,06,199,,7*78
$GAGSV,2,1,05,21,55,015,42,13,54,077,39,26,46,171,44,27,28,082,16,1*78
$GAGSV,2,2,05,15,12,038,11,1*4C
$GBGSV,4,1,14,23,75,039,45,09,72,262,42,06,70,214,42,16,67,199,44,1*75
$GBGSV,4,2,14,40,60,330,42,07,60,310,42,28,58,224,46,39,56,188,45,1*7C
$GBGSV,4,3,14,43,56,036,41,10,51,291,20,25,36,120,35,37,32,322,45,1*7D
$GBGSV,4,4,14,34,09,040,14,08,02,177,,1*77
$GBGSV,2,1,08,23,75,039,46,40,60,330,44,28,58,224,42,43,56,036,40,4*71
$GBGSV,2,2,08,39,56,188,41,25,36,120,26,37,32,322,45,34,09,040,16,4*79
$GNACCURACY,3.5*10
$PAIRSAT,1,35,2,0,201,3,0,200,4,0,221,5,0,200,6,0,200,7,0,201,8,0,221,9,0,220,10,0,200,11,0,200,12,0,200,13,0,200,14,0,200,15,0,200,16,0,201,17,0,200,18,0,200,19,0,200,20,0,200,21,0,201,22,0,200,23,0,200,24,0,200,25,0,200,26,0,220,27,0,221,28,0,200,29,0,200,30,0,221,31,0,200,32,0,200,194,0,621,195,0,621,196,0,620,199,0,621*5A
$PAIRSAT,2,24,65,0,200,66,0,200,67,0,200,68,0,200,69,0,200,70,0,200,71,0,200,72,0,200,73,0,200,74,0,200,75,0,200,76,0,200,77,0,201,78,0,201,79,0,201,80,0,200,81,0,201,82,0,201,83,0,200,84,0,200,85,0,200,86,0,200,87,0,201,88,0,201*7B
$PAIRSAT,3,23,2,0,1200,3,0,1200,4,0,1200,5,0,200,7,0,1200,8,0,1200,9,0,1200,10,0,1200,11,0,1200,12,0,1200,13,0,1221,15,0,1220,19,0,1201,21,0,1221,24,0,1200,25,0,1200,26,0,1221,27,0,1221,30,0,1200,31,0,1200,33,0,1200,34,0,1000,36,0,1200*6B
$PAIRSAT,4,46,1,0,200,2,0,200,3,0,600,4,0,200,5,0,200,6,0,201,7,0,201,8,0,200,9,0,201,10,0,201,11,0,200,12,0,200,13,0,200,14,0,200,16,0,201,19,0,600,20,0,600,21,0,600,22,0,600,23,0,621,24,0,600,25,0,621,26,0,600,27,0,600,28,0,621,29,0,600,30,0,600,32,0,600,33,0,600,34,0,621,35,0,600,36,0,600,37,0,621,38,0,600,39,0,621,40,0,621,41,0,600,42,0,600,43,0,621,44,0,400,45,0,400,46,0,400,59,0,400,60,0,400,61,0,400,62,0,400*4A
$PAIRDGP,10,2,4,7,8,9,16,21,26,27,30*42
$GNGGA,041444.200,2500.7893359,N,12132.4438240,E,4,53,0.53,16.847,M,15.25,M,1,3335*4F
$GNRMC,041444.200,A,2500.7893359,N,12132.4438240,E,0.00,317.96,090324,,,R,V*1F
$GPHDT,189.978,T*33
$GNACCURACY,3.5*10
$GNGGA,041444.300,2500.7893357,N,12132.4438204,E,4,54,0.51,16.837,M,15.25,M,1,3335*42
$GNRMC,041444.300,A,2500.7893357,N,12132.4438204,E,0.00,317.96,090324,,,R,V*10
$GPHDT,,T*1B
$GNACCURACY,3.5*10
$GNGGA,041444.400,2500.7893362,N,12132.4438201,E,4,54,0.53,16.835,M,15.25,M,1,3335*46
$GNRMC,041444.400,A,2500.7893362,N,12132.4438201,E,0.00,317.96,090324,,,R,V*14
$GPHDT,188.840,T*38
$GNACCURACY,3.6*13
$GNGGA,041444.500,2500.7893356,N,12132.4438223,E,4,52,0.53,16.843,M,15.25,M,1,3335*47
$GNRMC,041444.500,A,2500.7893356,N,12132.4438223,E,0.00,317.96,090324,,,R,V*12
$GPHDT,,T*1B
$GNACCURACY,3.6*13
$GNGGA,041444.600,2500.7893372,N,12132.4438200,E,4,53,0.53,16.843,M,15.25,M,0,3335*43
$GNRMC,041444.600,A,2500.7893372,N,12132.4438200,E,0.00,317.96,090324,,,R,V*16
$GPHDT,189.250,T*32
$GNACCURACY,3.6*13
$GNGGA,041444.700,2500.7893374,N,12132.4438204,E,4,53,0.53,16.839,M,15.25,M,0,3335*4D
$GNRMC,041444.700,A,2500.7893374,N,12132.4438204,E,0.00,317.96,090324,,,R,V*15
$GPHDT,,T*1B
$GNACCURACY,3.6*13
$GNGGA,041444.800,2500.7893373,N,12132.4438189,E,4,53,0.53,16.839,M,15.25,M,0,3335*43
$GNRMC,041444.800,A,2500.7893373,N,12132.4438189,E,0.00,317.96,090324,,,R,V*1B
$GPHDT,188.846,T*3E
$GNACCURACY,3.6*13
$GNGGA,041444.900,2500.7893363,N,12132.4438196,E,4,53,0.53,16.841,M,15.25,M,0,3335*42
$GNRMC,041444.900,A,2500.7893363,N,12132.4438196,E,0.00,317.96,090324,,,R,V*15
$GPHDT,,T*1B
$GNACCURACY,3.6*13
$GNGGA,041445.000,2500.7893395,N,12132.4438206,E,4,54,0.51,16.841,M,15.25,M,1,3335*4D
$GNRMC,041445.000,A,2500.7893395,N,12132.4438206,E,0.00,317.96,090324,,,R,V*1E
$GPHDT,188.427,T*35
$GNACCURACY,3.6*13
$GNGGA,041445.100,2500.7893383,N,12132.4438218,E,4,54,0.51,16.838,M,15.25,M,1,3335*4A
$GNRMC,041445.100,A,2500.7893383,N,12132.4438218,E,0.00,317.96,090324,,,R,V*17
$GPHDT,,T*1B
$GNGSA,A,3,195,194,21,08,199,02,07,27,16,196,04,30,0.89,0.53,0.72,1*06
$GNGSA,A,3,81,78,88,79,77,82,,,,,,,0.89,0.53,0.72,2*02
$GNGSA,A,3,21,13,26,27,15,,,,,,,,0.89,0.53,0.72,3*05
$GNGSA,A,3,23,09,06,16,07,40,28,43,39,25,37,,0.89,0.53,0.72,4*08
$GPGSV,4,1,15,195,65,113,43,194,64,053,37,21,63,152,42,08,61,359,43,1*62
$GPGSV,4,2,15,199,60,167,36,50,60,167,39,02,51,176,44,07,44,315,43,1*5C
$GPGSV,4,3,15,27,31,037,41,16,26,078,37,09,22,244,15,196,19,169,32,1*5F
$GPGSV,4,4,15,04,16,201,23,30,13,320,28,26,07,101,15,1*5C
$GPGSV,2,1,08,195,65,113,43,194,64,053,40,08,61,359,46,199,60,167,45,8*54
$GPGSV,2,2,08,27,31,037,33,196,19,169,23,04,16,201,24,30,13,320,38,8*52
$GLGSV,2,1,06,81,68,204,43,78,58,043,40,88,52,030,37,79,28,336,44,1*78
$GLGSV,2,2,06,77,22,113,19,82,18,206,26,1*76
$GAGSV,2,1,08,21,55,015,40,13,54,077,27,26,46,171,42,27,28,082,22,7*7F
$GAGSV,2,2,08,19,26,239,,15,12,038,16,04,12,297,15,33,06,199,,7*7C
$GAGSV,1,1,04,21,55,015,42,13,54,077,39,26,46,171,44,27,28,082,15,1*79
$GBGSV,4,1,13,23,75,039,44,09,72,262,42,06,70,214,42,16,67,199,44,1*73
$GBGSV,4,2,13,07,60,310,41,40,60,330,42,28,58,224,46,43,56,036,40,1*74
$GBGSV,4,3,13,39,56,188,45,10,51,291,21,25,36,120,34,37,32,322,45,1*77
$GBGSV,4,4,13,34,09,040,,1*4E
$GBGSV,2,1,08,23,75,039,45,40,60,330,43,28,58,224,42,43,56,036,40,4*75
$GBGSV,2,2,08,39,56,188,41,25,36,120,25,37,32,322,45,34,09,040,14,4*78
$GNACCURACY,3.6*13
$PAIRSAT,1,35,2,0,201,3,0,200,4,0,221,5,0,200,6,0,200,7,0,201,8,0,221,9,0,220,10,0,200,11,0,200,12,0,200,13,0,200,14,0,200,15,0,200,16,0,201,17,0,200,18,0,200,19,0,200,20,0,200,21,0,201,22,0,200,23,0,200,24,0,200,25,0,200,26,0,220,27,0,221,28,0,200,29,0,200,30,0,221,31,0,200,32,0,200,194,0,621,195,0,621,196,0,620,199,0,621*5A
$PAIRSAT,2,24,65,0,200,66,0,200,67,0,200,68,0,200,69,0,200,70,0,200,71,0,200,72,0,200,73,0,200,74,0,200,75,0,200,76,0,200,77,0,201,78,0,201,79,0,201,80,0,200,81,0,201,82,0,201,83,0,200,84,0,200,85,0,200,86,0,200,87,0,201,88,0,201*7B
$PAIRSAT,3,23,2,0,1200,3,0,1200,4,0,1200,5,0,200,7,0,1200,8,0,1200,9,0,1200,10,0,1200,11,0,1200,12,0,1200,13,0,1221,15,0,1220,19,0,1201,21,0,1221,24,0,1200,25,0,1200,26,0,1221,27,0,1221,30,0,1200,31,0,1200,33,0,1200,34,0,1000,36,0,1200*6B
$PAIRSAT,4,46,1,0,200,2,0,200,3,0,600,4,0,200,5,0,200,6,0,201,7,0,201,8,0,200,9,0,201,10,0,201,11,0,200,12,0,200,13,0,200,14,0,200,16,0,201,19,0,600,20,0,600,21,0,600,22,0,600,23,0,621,24,0,600,25,0,621,26,0,600,27,0,600,28,0,621,29,0,600,30,0,600,32,0,600,33,0,600,34,0,621,35,0,600,36,0,600,37,0,621,38,0,600,39,0,621,40,0,621,41,0,600,42,0,600,43,0,621,44,0,400,45,0,400,46,0,400,59,0,400,60,0,400,61,0,400,62,0,400*4A
$PAIRDGP,10,2,4,7,8,9,16,21,26,27,30*42
$GNGGA,041445.200,2500.7893381,N,12132.4438224,E,4,53,0.53,16.816,M,15.25,M,1,3335*4D
$GNRMC,041445.200,A,2500.7893381,N,12132.4438224,E,0.00,317.96,090324,,,R,V*19
$GPHDT,188.892,T*37
$GNACCURACY,3.6*13
$GNGGA,041445.300,2500.7893385,N,12132.4438219,E,4,52,0.53,16.822,M,15.25,M,1,3335*40
$GNRMC,041445.300,A,2500.7893385,N,12132.4438219,E,0.00,317.96,090324,,,R,V*12
$GPHDT,,T*1B
$GNACCURACY,3.6*13
$GNGGA,041445.400,2500.7893392,N,12132.4438208,E,4,52,0.53,16.827,M,15.25,M,1,3335*44
$GNRMC,041445.400,A,2500.7893392,N,12132.4438208,E,0.00,317.96,090324,,,R,V*13
$GPHDT,189.429,T*3A
$GNACCURACY,3.6*13
$GNGGA,041445.500,2500.7893400,N,12132.4438265,E,4,53,0.51,16.834,M,15.25,M,1,3335*43
$GNRMC,041445.500,A,2500.7893400,N,12132.4438265,E,0.00,317.96,090324,,,R,V*15
$GPHDT,,T*1B
$GNACCURACY,3.6*13
$GNGGA,041445.600,2500.7893380,N,12132.4438176,E,4,52,0.53,16.807,M,15.25,M,1,3335*4D
$GNRMC,041445.600,A,2500.7893380,N,12132.4438176,E,0.00,317.96,090324,,,R,V*18
$GPHDT,189.079,T*3B
$GNACCURACY,3.6*13
$GNGGA,041445.700,2500.7893435,N,12132.4438191,E,4,52,0.53,16.842,M,15.25,M,0,3335*4C
$GNRMC,041445.700,A,2500.7893435,N,12132.4438191,E,0.00,317.96,090324,,,R,V*19
$GPHDT,,T*1B
$GNACCURACY,3.6*13
$GNGGA,041445.800,2500.7893399,N,12132.4438245,E,4,52,0.53,16.829,M,15.25,M,0,3335*45
$GNRMC,041445.800,A,2500.7893399,N,12132.4438245,E,0.00,317.96,090324,,,R,V*1D
$GPHDT,190.105,T*39
$GNACCURACY,3.6*13
$GNGGA,041445.900,2500.7893395,N,12132.4438246,E,4,52,0.53,16.831,M,15.25,M,0,3335*42
$GNRMC,041445.900,A,2500.7893395,N,12132.4438246,E,0.00,317.96,090324,,,R,V*13
$GPHDT,,T*1B
$GNACCURACY,3.6*13
$GNGGA,041446.000,2500.7893389,N,12132.4438224,E,4,53,0.50,16.840,M,15.25,M,1,3335*44
$GNRMC,041446.000,A,2500.7893389,N,12132.4438224,E,0.00,317.96,090324,,,R,V*10
$GPHDT,190.108,T*34
$GNACCURACY,3.6*13
$GNGGA,041446.100,2500.7893386,N,12132.4438187,E,4,53,0.50,16.836,M,15.25,M,1,3335*41
$GNRMC,041446.100,A,2500.7893386,N,12132.4438187,E,0.00,317.96,090324,,,R,V*14
$GPHDT,,T*1B
$GNGSA,A,3,195,194,21,08,199,02,07,27,16,196,04,30,0.86,0.50,0.70,1*08
$GNGSA,A,3,09,,,,,,,,,,,,0.86,0.50,0.70,1*04
$GNGSA,A,3,81,78,88,79,77,82,,,,,,,0.86,0.50,0.70,2*0C
$GNGSA,A,3,21,13,26,27,15,,,,,,,,0.86,0.50,0.70,3*0B
$GNGSA,A,3,23,09,06,16,07,40,28,43,39,25,37,,0.86,0.50,0.70,4*06
$GPGSV,4,1,15,195,65,113,42,194,64,053,35,21,63,152,42,08,61,359,41,1*63
$GPGSV,4,2,15,199,60,167,37,50,60,167,39,02,51,176,45,07,44,315,43,1*5C
$GPGSV,4,3,15,27,31,037,40,16,26,078,37,09,22,244,15,196,19,169,32,1*5E
$GPGSV,4,4,15,04,16,201,23,30,13,319,31,26,07,101,15,1*5E
$GPGSV,3,1,09,195,65,113,43,194,64,053,38,08,61,359,46,199,60,167,45,8*5B
$GPGSV,3,2,09,27,31,037,36,09,22,244,18,196,19,169,29,04,16,201,24,8*54
$GPGSV,3,3,09,30,13,319,38,8*55
$GLGSV,2,1,06,81,68,204,43,78,58,043,40,88,52,030,38,79,28,336,43,1*70
$GLGSV,2,2,06,77,22,113,19,82,18,206,22,1*72
$GAGSV,2,1,08,21,55,015,40,13,54,077,23,26,46,171,42,27,28,082,19,7*73
$GAGSV,2,2,08,19,26,239,,15,12,038,14,04,12,297,16,33,06,199,,7*7D
$GAGSV,1,1,04,21,55,015,44,13,54,077,40,26,46,171,44,27,28,082,16,1*72
$GBGSV,4,1,13,23,75,039,42,09,72,262,42,06,70,214,42,16,67,199,44,1*75
$GBGSV,4,2,13,07,60,310,42,40,60,330,44,28,58,224,46,43,56,036,42,1*73
$GBGSV,4,3,13,39,56,188,45,10,51,291,20,25,36,120,33,37,32,322,45,1*71
$GBGSV,4,4,13,34,09,040,,1*4E
$GBGSV,2,1,08,23,75,039,45,40,60,330,42,28,58,224,42,43,56,036,41,4*75
$GBGSV,2,2,08,39,56,188,41,25,36,120,27,37,32,322,45,34,09,040,12,4*7C
$GNACCURACY,3.6*13
$PAIRSAT,1,35,2,0,201,3,0,200,4,0,221,5,0,200,6,0,200,7,0,201,8,0,221,9,0,220,10,0,200,11,0,200,12,0,200,13,0,200,14,0,200,15,0,200,16,0,201,17,0,200,18,0,200,19,0,200,20,0,200,21,0,201,22,0,200,23,0,200,24,0,200,25,0,200,26,0,220,27,0,221,28,0,200,29,0,200,30,0,221,31,0,200,32,0,200,194,0,621,195,0,621,196,0,620,199,0,621*5A
$PAIRSAT,2,24,65,0,200,66,0,200,67,0,200,68,0,200,69,0,200,70,0,200,71,0,200,72,0,200,73,0,200,74,0,200,75,0,200,76,0,200,77,0,201,78,0,201,79,0,201,80,0,200,81,0,201,82,0,201,83,0,200,84,0,200,85,0,200,86,0,200,87,0,201,88,0,201*7B
$PAIRSAT,3,23,2,0,1200,3,0,1200,4,0,1200,5,0,200,7,0,1200,8,0,1200,9,0,1200,10,0,1200,11,0,1200,12,0,1200,13,0,1221,15,0,1220,19,0,1201,21,0,1221,24,0,1200,25,0,1200,26,0,1221,27,0,1221,30,0,1200,31,0,1200,33,0,1200,34,0,1000,36,0,1200*6B
$PAIRSAT,4,46,1,0,200,2,0,200,3,0,600,4,0,200,5,0,200,6,0,201,7,0,201,8,0,200,9,0,201,10,0,201,11,0,200,12,0,200,13,0,200,14,0,200,16,0,201,19,0,600,20,0,600,21,0,600,22,0,600,23,0,621,24,0,600,25,0,621,26,0,600,27,0,600,28,0,621,29,0,600,30,0,600,32,0,600,33,0,600,34,0,621,35,0,600,36,0,600,37,0,621,38,0,600,39,0,621,40,0,621,41,0,600,42,0,600,43,0,621,44,0,400,45,0,400,46,0,400,59,0,400,60,0,400,61,0,400,62,0,400*4A
$PAIRDGP,10,2,4,7,8,9,16,21,26,27,30*42
$GNGGA,041446.200,2500.7893379,N,12132.4438154,E,4,54,0.50,16.838,M,15.25,M,1,3335*45
$GNRMC,041446.200,A,2500.7893379,N,12132.4438154,E,0.00,317.96,090324,,,R,V*19
$GPHDT,188.955,T*3D
$GNACCURACY,3.5*10
$GNGGA,041446.300,2500.7893370,N,12132.4438180,E,4,54,0.50,16.834,M,15.25,M,1,3335*48
$GNRMC,041446.300,A,2500.7893370,N,12132.4438180,E,0.00,317.96,090324,,,R,V*18
$GPHDT,,T*1B
$GNACCURACY,3.5*10
$GNGGA,041446.400,2500.7893382,N,12132.4438160,E,4,54,0.50,16.846,M,15.25,M,1,3335*49
$GNRMC,041446.400,A,2500.7893382,N,12132.4438160,E,0.00,317.96,090324,,,R,V*1C
$GPHDT,188.728,T*39
$GNACCURACY,3.5*10
$GNGGA,041446.500,2500.7893382,N,12132.4438136,E,4,54,0.50,16.837,M,15.25,M,1,3335*4D
$GNRMC,041446.500,A,2500.7893382,N,12132.4438136,E,0.00,317.96,090324,,,R,V*1E
