$FW : RTK35X,V1.1X0314AS,Lib20210517,1*54
$Tool : LOCOSYS , GNSS Firebird , v1.0.0.19*39
$---------------------------------------------------*2D
2.4438259,E,4,55,0.50,16.793,M,15.25,M,1,3335*4A
$GNRMC,041402.300,A,2500.7893471,N,12132.4438259,E,0.01,317.96,090324,,,R,V*18
$GPHDT,,T*1B
$GNACCURACY,3.6*13
$GNGGA,041402.400,2500.7893471,N,12132.4438268,E,4,55,0.50,16.781,M,15.25,M,1,3335*4C
$GNRMC,041402.400,A,2500.7893471,N,12132.4438268,E,0.01,317.96,090324,,,R,V*1D
$GPHDT,8.286,T*31
$GNACCURACY,3.6*13
$GNGGA,041402.500,2500.7893500,N,12132.4438353,E,4,56,0.50,16.730,M,15.25,M,0,3335*4B
$GNRMC,041402.500,A,2500.7893500,N,12132.4438353,E,0.01,317.96,090324,,,R,V*12
$GPHDT,,T*1B
$GNACCURACY,3.6*13
$GNGGA,041402.600,2500.7893500,N,12132.4438362,E,4,56,0.50,16.742,M,15.25,M,0,3335*4F
$GNRMC,041402.600,A,2500.7893500,N,12132.4438362,E,0.01,317.96,090324,,,R,V*13
$GPHDT,7.179,T*3D
$GNACCURACY,3.6*13
$GNGGA,041402.700,2500.7893491,N,12132.4438393,E,4,56,0.50,16.737,M,15.25,M,0,3335*4B
$GNRMC,041402.700,A,2500.7893491,N,12132.4438393,E,0.01,317.96,090324,,,R,V*15
$GPHDT,,T*1B
$GNACCURACY,3.6*13
$GNGGA,041402.800,2500.7893499,N,12132.4438385,E,4,55,0.51,16.746,M,15.25,M,0,3335*4F
$GNRMC,041402.800,A,2500.7893499,N,12132.4438385,E,0.01,317.96,090324,,,R,V*15
$GPHDT,7.167,T*32
$GNACCURACY,3.6*13
$GNGGA,041402.900,2500.7893513,N,12132.4438441,E,4,55,0.51,16.725,M,15.25,M,0,3335*47
$GNRMC,041402.900,A,2500.7893513,N,12132.4438441,E,0.01,317.96,090324,,,R,V*18
$GPHDT,,T*1B
$GNACCURACY,3.7*12
$GNGGA,041403.000,2500.7893491,N,12132.4438387,E,4,55,0.51,16.751,M,15.25,M,1,3335*4B
$GNRMC,041403.000,A,2500.7893491,N,12132.4438387,E,0.02,317.96,090324,,,R,V*15
$GPHDT,6.794,T*39
$GNACCURACY,3.7*12
$GNGGA,041403.100,2500.7893498,N,12132.4438322,E,4,55,0.51,16.747,M,15.25,M,1,3335*4B
$GNRMC,041403.100,A,2500.7893498,N,12132.4438322,E,0.02,317.96,090324,,,R,V*12
$GPHDT,,T*1B
$GNGSA,A,3,195,194,21,08,199,02,07,27,16,196,04,30,0.77,0.51,0.57,1*02
$GNGSA,A,3,81,78,88,79,77,82,,,,,,,0.77,0.51,0.57,2*06
$GNGSA,A,3,21,13,26,27,15,,,,,,,,0.77,0.51,0.57,3*01
$GNGSA,A,3,23,09,06,16,07,40,28,43,39,25,37,34,0.77,0.51,0.57,4*0B
$GPGSV,4,1,15,195,65,113,44,194,64,053,43,21,62,153,45,08,61,358,42,1*61
$GPGSV,4,2,15,199,60,167,32,50,60,167,35,02,51,176,44,07,43,315,44,1*54
$GPGSV,4,3,15,27,31,037,39,16,26,077,32,09,22,244,17,196,19,169,19,1*51
$GPGSV,4,4,15,04,16,201,34,30,13,320,24,26,07,101,15,1*56
$GPGSV,2,1,08,195,65,113,44,194,64,053,42,08,61,358,45,199,60,167,43,8*55
$GPGSV,2,2,08,27,31,037,38,196,19,169,23,04,16,201,26,30,13,320,37,8*54
$GLGSV,2,1,08,81,67,203,40,78,58,042,41,88,53,030,41,79,28,335,41,1*7B
$GLGSV,2,2,08,77,22,113,12,82,18,205,32,69,03,279,,87,01,026,,1*7F
$GAGSV,2,1,08,21,55,015,39,13,54,077,39,26,46,172,43,27,28,081,23,7*7E
$GAGSV,2,2,08,19,26,239,,04,12,297,17,15,12,038,16,33,05,199,,7*7D
$GAGSV,2,1,05,21,55,015,40,13,54,077,44,26,46,172,41,27,28,081,22,1*72
$GAGSV,2,2,05,15,12,038,16,1*4B
$GBGSV,4,1,13,23,75,038,43,09,72,263,38,06,70,214,36,16,67,199,39,1*70
$GBGSV,4,2,13,07,60,309,39,40,60,330,42,28,58,224,36,43,56,036,44,1*70
$GBGSV,4,3,13,39,56,188,42,10,51,291,16,25,36,119,33,37,32,322,40,1*7C
$GBGSV,4,4,13,34,10,040,,1*46
$GBGSV,2,1,08,23,75,038,43,40,60,330,42,28,58,224,39,43,56,036,39,4*71
$GBGSV,2,2,08,39,56,188,38,25,36,119,28,37,32,322,40,34,10,040,18,4*70
$GNACCURACY,3.7*12
$PAIRSAT,1,35,2,0,201,3,0,200,4,0,221,5,0,200,6,0,200,7,0,201,8,0,221,9,0,220,10,0,200,11,0,200,12,0,200,13,0,200,14,0,200,15,0,200,16,0,201,17,0,200,18,0,200,19,0,200,20,0,200,21,0,201,22,0,200,23,0,200,24,0,200,25,0,200,26,0,220,27,0,221,28,0,200,29,0,200,30,0,221,31,0,200,32,0,200,194,0,621,195,0,621,196,0,620,199,0,621*5A
$PAIRSAT,2,24,65,0,200,66,0,200,67,0,200,68,0,200,69,0,200,70,0,200,71,0,200,72,0,200,73,0,200,74,0,200,75,0,200,76,0,200,77,0,201,78,0,201,79,0,201,80,0,200,81,0,201,82,0,201,83,0,200,84,0,200,85,0,200,86,0,200,87,0,201,88,0,201*7B
$PAIRSAT,3,23,2,0,1200,3,0,1200,4,0,1200,5,0,200,7,0,1200,8,0,1200,9,0,1200,10,0,1200,11,0,1200,12,0,1200,13,0,1221,15,0,1220,19,0,1201,21,0,1221,24,0,1200,25,0,1200,26,0,1221,27,0,1221,30,0,1200,31,0,1200,33,0,1200,34,0,1000,36,0,1200*6B
$PAIRSAT,4,46,1,0,200,2,0,200,3,0,600,4,0,200,5,0,200,6,0,201,7,0,201,8,0,200,9,0,201,10,0,201,11,0,200,12,0,200,13,0,200,14,0,200,16,0,201,19,0,600,20,0,600,21,0,600,22,0,600,23,0,621,24,0,600,25,0,621,26,0,600,27,0,600,28,0,621,29,0,600,30,0,600,32,0,600,33,0,600,34,0,621,35,0,600,36,0,600,37,0,621,38,0,600,39,0,621,40,0,621,41,0,600,42,0,600,43,0,621,44,0,400,45,0,400,46,0,400,59,0,400,60,0,400,61,0,400,62,0,400*4A
$PAIRDGP,10,2,4,7,8,9,16,21,26,27,30*42
$GNGGA,041403.200,2500.7893514,N,12132.4438287,E,4,54,0.51,16.769,M,15.25,M,1,3335*4E
$GNRMC,041403.200,A,2500.7893514,N,12132.4438287,E,0.03,317.96,090324,,,R,V*1B
$GPHDT,7.361,T*36
$GNACCURACY,3.7*12
$GNGGA,041403.300,2500.7893485,N,12132.4438166,E,4,56,0.50,16.749,M,15.25,M,1,3335*4B
$GNRMC,041403.300,A,2500.7893485,N,12132.4438166,E,0.05,317.96,090324,,,R,V*19
$GPHDT,,T*1B
$GNACCURACY,3.6*13
$GNGGA,041403.400,2500.7893483,N,12132.4438184,E,4,56,0.50,16.753,M,15.25,M,1,3335*4D
$GNRMC,041403.400,A,2500.7893483,N,12132.4438184,E,0.03,317.96,090324,,,R,V*12
$GPHDT,9.609,T*33
$GNACCURACY,3.6*13
$GNGGA,041403.500,2500.7893512,N,12132.4438277,E,4,55,0.51,16.752,M,15.25,M,1,3335*49
$GNRMC,041403.500,A,2500.7893512,N,12132.4438277,E,0.02,317.96,090324,,,R,V*14
$GPHDT,,T*1B
$GNACCURACY,3.6*13
$GNGGA,041403.600,2500.7893507,N,12132.4438217,E,4,55,0.50,16.733,M,15.25,M,1,3335*4E
$GNRMC,041403.600,A,2500.7893507,N,12132.4438217,E,0.01,317.96,090324,,,R,V*16
$GPHDT,8.998,T*35
$GNACCURACY,3.6*13
$GNGGA,041403.700,2500.7893520,N,12132.4438233,E,4,55,0.51,16.762,M,15.25,M,1,3335*49
$GNRMC,041403.700,A,2500.7893520,N,12132.4438233,E,0.01,317.96,090324,,,R,V*14
$GPHDT,,T*1B
$GNACCURACY,3.6*13
$GNGGA,041403.800,2500.7893476,N,12132.4438248,E,4,56,0.50,16.700,M,15.25,M,0,3335*4F
$GNRMC,041403.800,A,2500.7893476,N,12132.4438248,E,0.01,317.96,090324,,,R,V*15
$GPHDT,8.385,T*33
$GNACCURACY,3.6*13
$GNGGA,041403.900,2500.7893479,N,12132.4438144,E,4,55,0.50,16.749,M,15.25,M,0,3335*40
$GNRMC,041403.900,A,2500.7893479,N,12132.4438144,E,0.01,317.96,090324,,,R,V*14
$GPHDT,,T*1B
$GNACCURACY,3.6*13
$GNGGA,041404.000,2500.7893475,N,12132.4438129,E,4,56,0.50,16.753,M,15.25,M,1,3335*40
$GNRMC,041404.000,A,2500.7893475,N,12132.4438129,E,0.02,317.96,090324,,,R,V*1E
$GPHDT,8.196,T*33
$GNACCURACY,3.6*13
$GNGGA,041404.100,2500.7893466,N,12132.4438168,E,4,55,0.50,16.740,M,15.25,M,1,3335*47
$GNRMC,041404.100,A,2500.7893466,N,12132.4438168,E,0.01,317.96,090324,,,R,V*1B
$GPHDT,,T*1B
$GNGSA,A,3,195,194,21,08,199,02,07,27,16,09,196,04,0.75,0.50,0.56,1*0A
$GNGSA,A,3,30,,,,,,,,,,,,0.75,0.50,0.56,1*06
$GNGSA,A,3,81,78,88,79,82,,,,,,,,0.75,0.50,0.56,2*04
$GNGSA,A,3,21,13,26,27,15,,,,,,,,0.75,0.50,0.56,3*03
$GNGSA,A,3,23,09,06,16,07,40,28,43,39,10,25,37,0.75,0.50,0.56,4*0F
$GNGSA,A,3,34,,,,,,,,,,,,0.75,0.50,0.56,4*07
$GPGSV,4,1,15,195,65,113,42,194,64,053,42,21,62,153,43,08,61,358,43,1*61
$GPGSV,4,2,15,199,60,167,33,50,60,167,36,02,51,176,45,07,43,315,44,1*57
$GPGSV,4,3,15,27,31,037,37,16,26,077,34,09,22,244,17,196,19,169,24,1*57
$GPGSV,4,4,15,04,16,201,35,30,13,320,22,26,07,101,18,1*5C
$GPGSV,2,1,08,195,65,113,44,194,64,053,44,08,61,358,46,199,60,167,45,8*56
$GPGSV,2,2,08,27,31,037,40,196,19,169,19,04,16,201,31,30,13,320,37,8*54
$GLGSV,2,1,07,81,68,204,43,78,58,042,41,88,53,030,42,79,28,335,41,1*7C
$GLGSV,2,2,07,77,22,113,13,82,18,205,34,69,03,279,,1*4D
$GAGSV,2,1,08,21,55,015,39,13,54,077,39,26,46,172,43,27,28,081,22,7*7F
$GAGSV,2,2,08,19,26,239,,15,12,038,16,04,12,297,17,33,05,199,,7*7D
$GAGSV,2,1,05,21,55,015,40,13,54,077,43,26,46,172,43,27,28,081,28,1*7D
$GAGSV,2,2,05,15,12,038,16,1*4B
$GBGSV,4,1,13,23,75,038,45,09,72,263,41,06,70,214,42,16,67,199,42,1*77
$GBGSV,4,2,13,07,60,309,41,40,60,330,43,28,58,224,46,43,56,036,44,1*79
$GBGSV,4,3,13,39,56,188,43,10,51,291,22,25,36,119,29,37,32,322,41,1*70
$GBGSV,4,4,13,34,10,040,,1*46
$GBGSV,2,1,08,23,75,038,45,40,60,330,44,28,58,224,43,43,56,036,41,4*73
$GBGSV,2,2,08,39,56,188,40,25,36,119,29,37,32,322,43,34,10,040,19,4*7C
$GNACCURACY,3.6*13
$PAIRSAT,1,35,2,0,201,3,0,200,4,0,221,5,0,200,6,0,200,7,0,201,8,0,221,9,0,220,10,0,200,11,0,200,12,0,200,13,0,200,14,0,200,15,0,200,16,0,201,17,0,200,18,0,200,19,0,200,20,0,200,21,0,201,22,0,200,23,0,200,24,0,200,25,0,200,26,0,220,27,0,221,28,0,200,29,0,200,30,0,221,31,0,200,32,0,200,194,0,621,195,0,621,196,0,620,199,0,621*5A
$PAIRSAT,2,24,65,0,200,66,0,200,67,0,200,68,0,200,69,0,200,70,0,200,71,0,200,72,0,200,73,0,200,74,0,200,75,0,200,76,0,200,77,0,201,78,0,201,79,0,201,80,0,200,81,0,201,82,0,201,83,0,200,84,0,200,85,0,200,86,0,200,87,0,201,88,0,201*7B
$PAIRSAT,3,23,2,0,1200,3,0,1200,4,0,1200,5,0,200,7,0,1200,8,0,1200,9,0,1200,10,0,1200,11,0,1200,12,0,1200,13,0,1221,15,0,1220,19,0,1201,21,0,1221,24,0,1200,25,0,1200,26,0,1221,27,0,1221,30,0,1200,31,0,1200,33,0,1200,34,0,1000,36,0,1200*6B
$PAIRSAT,4,46,1,0,200,2,0,200,3,0,600,4,0,200,5,0,200,6,0,201,7,0,201,8,0,200,9,0,201,10,0,201,11,0,200,12,0,200,13,0,200,14,0,200,16,0,201,19,0,600,20,0,600,21,0,600,22,0,600,23,0,621,24,0,600,25,0,621,26,0,600,27,0,600,28,0,621,29,0,600,30,0,600,32,0,600,33,0,600,34,0,621,35,0,600,36,0,600,37,0,621,38,0,600,39,0,621,40,0,621,41,0,600,42,0,600,43,0,621,44,0,400,45,0,400,46,0,400,59,0,400,60,0,400,61,0,400,62,0,400*4A
$PAIRDGP,10,2,4,7,8,9,16,21,26,27,30*42
$GNGGA,041404.200,2500.7893499,N,12132.4438249,E,4,55,0.50,16.742,M,15.25,M,1,3335*46
$GNRMC,041404.200,A,2500.7893499,N,12132.4438249,E,0.00,317.96,090324,,,R,V*19
$GPHDT,8.035,T*3B
$GNACCURACY,3.6*13
$GNGGA,041404.300,2500.7893506,N,12132.4438211,E,4,55,0.50,16.762,M,15.25,M,1,3335*4F
$GNRMC,041404.300,A,2500.7893506,N,12132.4438211,E,0.01,317.96,090324,,,R,V*13
$GPHDT,,T*1B
$GNACCURACY,3.6*13
$GNGGA,041404.400,2500.7893480,N,12132.4438241,E,4,55,0.51,16.713,M,15.25,M,1,3335*45
$GNRMC,041404.400,A,2500.7893480,N,12132.4438241,E,0.00,317.96,090324,,,R,V*1F
$GPHDT,7.977,T*3B
$GNACCURACY,3.6*13
$GNGGA,041404.500,2500.7893479,N,12132.4438140,E,4,55,0.51,16.747,M,15.25,M,0,3335*40
$GNRMC,041404.500,A,2500.7893479,N,12132.4438140,E,0.01,317.96,090324,,,R,V*1B
$GPHDT,,T*1B
$GNACCURACY,3.6*13
$GNGGA,041404.600,2500.7893494,N,12132.4438130,E,4,54,0.51,16.752,M,15.25,M,0,3335*42
$GNRMC,041404.600,A,2500.7893494,N,12132.4438130,E,0.01,317.96,090324,,,R,V*1C
$GPHDT,8.270,T*38
$GNACCURACY,3.6*13
$GNGGA,041404.700,2500.7893493,N,12132.4438138,E,4,54,0.51,16.739,M,15.25,M,0,3335*41
$GNRMC,041404.700,A,2500.7893493,N,12132.4438138,E,0.02,317.96,090324,,,R,V*11
$GPHDT,,T*1B
$GNACCURACY,3.6*13
$GNGGA,041404.800,2500.7893507,N,12132.4438233,E,4,55,0.50,16.774,M,15.25,M,0,3335*43
$GNRMC,041404.800,A,2500.7893507,N,12132.4438233,E,0.02,317.96,090324,,,R,V*1A
$GPHDT,7.257,T*32
$GNACCURACY,3.6*13
$GNGGA,041404.900,2500.7893525,N,12132.4438231,E,4,54,0.50,16.755,M,15.25,M,0,3335*42
$GNRMC,041404.900,A,2500.7893525,N,12132.4438231,E,0.02,317.96,090324,,,R,V*19
$GPHDT,,T*1B
$GNACCURACY,3.6*13
$GNGGA,041405.000,2500.7893513,N,12132.4438218,E,4,54,0.50,16.756,M,15.25,M,1,3335*46
$GNRMC,041405.000,A,2500.7893513,N,12132.4438218,E,0.02,317.96,090324,,,R,V*1F
$GPHDT,7.929,T*30
$GNACCURACY,3.6*13
$GNGGA,041405.100,2500.7893510,N,12132.4438238,E,4,54,0.50,16.761,M,15.25,M,1,3335*42
$GNRMC,041405.100,A,2500.7893510,N,12132.4438238,E,0.02,317.96,090324,,,R,V*1F
$GPHDT,,T*1B
$GNGSA,A,3,195,194,21,08,199,02,07,27,16,09,196,04,0.75,0.50,0.56,1*0A
$GNGSA,A,3,30,,,,,,,,,,,,0.75,0.50,0.56,1*06
$GNGSA,A,3,81,78,88,79,82,,,,,,,,0.75,0.50,0.56,2*04
$GNGSA,A,3,21,13,26,27,15,,,,,,,,0.75,0.50,0.56,3*03
$GNGSA,A,3,23,09,06,16,07,40,28,43,39,10,25,37,0.75,0.50,0.56,4*0F
$GNGSA,A,3,34,,,,,,,,,,,,0.75,0.50,0.56,4*07
$GPGSV,4,1,15,195,65,113,42,194,64,053,42,21,62,153,44,08,61,358,42,1*67
$GPGSV,4,2,15,199,60,167,32,50,60,167,35,02,51,176,45,07,43,315,45,1*54
$GPGSV,4,3,15,27,31,037,35,16,26,077,34,09,22,244,17,196,19,169,23,1*52
$GPGSV,4,4,15,04,16,201,35,30,13,320,21,26,07,101,17,1*50
$GPGSV,2,1,07,195,65,113,45,194,64,053,43,08,61,358,47,199,60,167,44,8*5F
$GPGSV,2,2,07,27,31,037,41,04,16,201,33,30,13,320,38,8*57
$GLGSV,2,1,06,81,68,204,44,78,58,042,41,88,53,030,42,79,28,335,41,1*7A
$GLGSV,2,2,06,77,22,113,13,82,18,205,34,1*7C
$GAGSV,2,1,08,21,55,015,39,13,54,077,40,26,46,172,43,27,28,081,20,7*73
$GAGSV,2,2,08,19,26,239,,15,12,038,14,04,12,297,17,33,05,199,,7*7F
$GAGSV,2,1,05,21,55,015,42,13,54,077,43,26,46,172,44,27,28,081,25,1*75
$GAGSV,2,2,05,15,12,038,16,1*4B
$GBGSV,4,1,13,23,75,038,44,09,72,262,41,06,70,214,42,16,67,199,42,1*77
$GBGSV,4,2,13,07,60,309,41,40,60,330,43,28,58,224,43,43,56,036,44,1*7C
$GBGSV,4,3,13,39,56,188,43,10,51,291,22,25,36,119,31,37,32,322,41,1*79
$GBGSV,4,4,13,34,10,040,,1*46
$GBGSV,2,1,08,23,75,038,45,40,60,330,44,28,58,224,40,43,56,036,39,4*7F
$GBGSV,2,2,08,39,56,188,41,25,36,119,31,37,32,322,43,34,10,040,19,4*74
$GNACCURACY,3.6*13
$PAIRSAT,1,35,2,0,201,3,0,200,4,0,221,5,0,200,6,0,200,7,0,201,8,0,221,9,0,220,10,0,200,11,0,200,12,0,200,13,0,200,14,0,200,15,0,200,16,0,201,17,0,200,18,0,200,19,0,200,20,0,200,21,0,201,22,0,200,23,0,200,24,0,200,25,0,200,26,0,220,27,0,221,28,0,200,29,0,200,30,0,221,31,0,200,32,0,200,194,0,621,195,0,621,196,0,620,199,0,621*5A
$PAIRSAT,2,24,65,0,200,66,0,200,67,0,200,68,0,200,69,0,200,70,0,200,71,0,200,72,0,200,73,0,200,74,0,200,75,0,200,76,0,200,77,0,201,78,0,201,79,0,201,80,0,200,81,0,201,82,0,201,83,0,200,84,0,200,85,0,200,86,0,200,87,0,201,88,0,201*7B
$PAIRSAT,3,23,2,0,1200,3,0,1200,4,0,1200,5,0,200,7,0,1200,8,0,1200,9,0,1200,10,0,1200,11,0,1200,12,0,1200,13,0,1221,15,0,1220,19,0,1201,21,0,1221,24,0,1200,25,0,1200,26,0,1221,27,0,1221,30,0,1200,31,0,1200,33,0,1200,34,0,1000,36,0,1200*6B
$PAIRSAT,4,46,1,0,200,2,0,200,3,0,600,4,0,200,5,0,200,6,0,201,7,0,201,8,0,200,9,0,201,10,0,201,11,0,200,12,0,200,13,0,200,14,0,200,16,0,201,19,0,600,20,0,600,21,0,600,22,0,600,23,0,621,24,0,600,25,0,621,26,0,600,27,0,600,28,0,621,29,0,600,30,0,600,32,0,600,33,0,600,34,0,621,35,0,600,36,0,600,37,0,621,38,0,600,39,0,621,40,0,621,41,0,600,42,0,600,43,0,621,44,0,400,45,0,400,46,0,400,59,0,400,60,0,400,61,0,400,62,0,400*4A
$PAIRDGP,10,2,4,7,8,9,16,21,26,27,30*42
$GNGGA,041405.200,2500.7893509,N,12132.4438212,E,4,54,0.50,16.763,M,15.25,M,1,3335*43
$GNRMC,041405.200,A,2500.7893509,N,12132.4438212,E,0.02,317.96,090324,,,R,V*1C
$GPHDT,8.003,T*3E
$GNACCURACY,3.6*13
$GNGGA,041405.300,2500.7893515,N,12132.4438170,E,4,54,0.50,16.773,M,15.25,M,1,3335*49
$GNRMC,041405.300,A,2500.7893515,N,12132.4438170,E,0.01,317.96,090324,,,R,V*14
$GPHDT,,T*1B
$GNACCURACY,3.6*13
$GNGGA,041405.400,2500.7893511,N,12132.4438178,E,4,54,0.50,16.796,M,15.25,M,1,3335*49
$GNRMC,041405.400,A,2500.7893511,N,12132.4438178,E,0.00,317.96,090324,,,R,V*1E
$GPHDT,8.284,T*33
$GNACCURACY,3.6*13
$GNGGA,041405.500,2500.7893493,N,12132.4438183,E,4,53,0.51,16.797,M,15.25,M,1,3335*40
$GNRMC,041405.500,A,2500.7893493,N,12132.4438183,E,0.01,317.96,090324,,,R,V*11
$GPHDT,,T*1B
$GNACCURACY,3.6*13
$GNGGA,041405.600,2500.7893459,N,12132.4438107,E,4,53,0.51,16.760,M,15.25,M,0,3335*40
$GNRMC,041405.600,A,2500.7893459,N,12132.4438107,E,0.02,317.96,090324,,,R,V*1B
$GPHDT,8.429,T*32
$GNACCURACY,3.6*13
$GNGGA,041405.700,2500.7893458,N,12132.4438129,E,4,53,0.51,16.763,M,15.25,M,0,3335*4F
$GNRMC,041405.700,A,2500.7893458,N,12132.4438129,E,0.01,317.96,090324,,,R,V*14
$GPHDT,,T*1B
$GNACCURACY,3.6*13
$GNGGA,041405.800,2500.7893469,N,12132.4438119,E,4,53,0.51,16.751,M,15.25,M,0,3335*40
$GNRMC,041405.800,A,2500.7893469,N,12132.4438119,E,0.01,317.96,090324,,,R,V*1A
$GPHDT,8.240,T*3B
$GNACCURACY,3.6*13
$GNGGA,041405.900,2500.7893466,N,12132.4438127,E,4,53,0.51,16.750,M,15.25,M,0,3335*42
$GNRMC,041405.900,A,2500.7893466,N,12132.4438127,E,0.01,317.96,090324,,,R,V*19
$GPHDT,,T*1B
$GNACCURACY,3.6*13
$GNGGA,041406.000,2500.7893463,N,12132.4438134,E,4,53,0.51,16.759,M,15.25,M,1,3335*47
$GNRMC,041406.000,A,2500.7893463,N,12132.4438134,E,0.02,317.96,090324,,,R,V*17
$GPHDT,8.057,T*3F
$GNACCURACY,3.6*13
$GNGGA,041406.100,2500.7893475,N,12132.4438143,E,4,53,0.51,16.751,M,15.25,M,1,3335*49
$GNRMC,041406.100,A,2500.7893475,N,12132.4438143,E,0.01,317.96,090324,,,R,V*12
$GPHDT,,T*1B
$GNGSA,A,3,195,194,21,08,199,02,07,27,16,196,04,30,0.77,0.51,0.57,1*02
$GNGSA,A,3,81,78,88,79,82,,,,,,,,0.77,0.51,0.57,2*06
$GNGSA,A,3,21,13,26,27,15,,,,,,,,0.77,0.51,0.57,3*01
$GNGSA,A,3,23,09,06,16,07,40,28,43,39,10,25,37,0.77,0.51,0.57,4*0D
$GNGSA,A,3,34,,,,,,,,,,,,0.77,0.51,0.57,4*05
$GPGSV,4,1,15,195,65,113,42,194,64,053,42,21,62,153,44,08,61,358,42,1*67
$GPGSV,4,2,15,199,60,167,33,50,60,167,36,02,51,176,45,07,43,315,45,1*56
$GPGSV,4,3,15,27,31,037,38,16,26,077,37,09,22,244,16,196,19,169,19,1*54
$GPGSV,4,4,15,04,16,201,35,30,13,320,19,26,07,101,19,1*55
$GPGSV,2,1,07,195,65,113,43,194,64,053,44,08,61,358,47,199,60,167,45,8*5F
$GPGSV,2,2,07,27,31,037,41,04,16,201,31,30,13,320,37,8*5A
$GLGSV,2,1,06,81,68,204,43,78,58,042,41,88,53,030,42,79,28,335,42,1*7E
$GLGSV,2,2,06,77,22,113,15,82,18,205,34,1*7A
$GAGSV,2,1,08,21,55,015,39,13,54,077,40,26,46,172,43,27,28,081,21,7*72
$GAGSV,2,2,08,19,26,239,,15,12,038,13,04,12,297,17,33,05,199,,7*78
$GAGSV,2,1,05,21,55,015,41,13,54,077,43,26,46,172,42,27,28,081,26,1*73
$GAGSV,2,2,05,15,12,038,16,1*4B
$GBGSV,4,1,13,23,75,038,44,09,72,262,41,06,70,214,42,16,67,199,42,1*77
$GBGSV,4,2,13,07,60,309,41,40,60,330,43,28,58,224,46,43,56,036,44,1*79
$GBGSV,4,3,13,39,56,188,43,10,51,291,23,25,36,119,27,37,32,322,42,1*7C
$GBGSV,4,4,13,34,10,040,,1*46
$GBGSV,2,1,08,23,75,038,45,40,60,330,45,28,58,224,44,43,56,036,40,4*74
$GBGSV,2,2,08,39,56,188,41,25,36,119,30,37,32,322,44,34,10,040,20,4*78
$GNACCURACY,3.6*13
$PAIRSAT,1,35,2,0,201,3,0,200,4,0,221,5,0,200,6,0,200,7,0,201,8,0,221,9,0,220,10,0,200,11,0,200,12,0,200,13,0,200,14,0,200,15,0,200,16,0,201,17,0,200,18,0,200,19,0,200,20,0,200,21,0,201,22,0,200,23,0,200,24,0,200,25,0,200,26,0,220,27,0,221,28,0,200,29,0,200,30,0,221,31,0,200,32,0,200,194,0,621,195,0,621,196,0,620,199,0,621*5A
$PAIRSAT,2,24,65,0,200,66,0,200,67,0,200,68,0,200,69,0,200,70,0,200,71,0,200,72,0,200,73,0,200,74,0,200,75,0,200,76,0,200,77,0,201,78,0,201,79,0,201,80,0,200,81,0,201,82,0,201,83,0,200,84,0,200,85,0,200,86,0,200,87,0,201,88,0,201*7B
$PAIRSAT,3,23,2,0,1200,3,0,1200,4,0,1200,5,0,200,7,0,1200,8,0,1200,9,0,1200,10,0,1200,11,0,1200,12,0,1200,13,0,1221,15,0,1220,19,0,1201,21,0,1221,24,0,1200,25,0,1200,26,0,1221,27,0,1221,30,0,1200,31,0,1200,33,0,1200,34,0,1000,36,0,1200*6B
$PAIRSAT,4,46,1,0,200,2,0,200,3,0,600,4,0,200,5,0,200,6,0,201,7,0,201,8,0,200,9,0,201,10,0,201,11,0,200,12,0,200,13,0,200,14,0,200,16,0,201,19,0,600,20,0,600,21,0,600,22,0,600,23,0,621,24,0,600,25,0,621,26,0,600,27,0,600,28,0,621,29,0,600,30,0,600,32,0,600,33,0,600,34,0,621,35,0,600,36,0,600,37,0,621,38,0,600,39,0,621,40,0,621,41,0,600,42,0,600,43,0,621,44,0,400,45,0,400,46,0,400,59,0,400,60,0,400,61,0,400,62,0,400*4A
$PAIRDGP,10,2,4,7,8,9,16,21,26,27,30*42
$GNGGA,041406.200,2500.7893465,N,12132.4438131,E,4,53,0.51,16.758,M,15.25,M,1,3335*47
$GNRMC,041406.200,A,2500.7893465,N,12132.4438131,E,0.01,317.96,090324,,,R,V*15
$GPHDT,8.125,T*3B
$GNACCURACY,3.6*13
$GNGGA,041406.300,2500.7893468,N,12132.4438168,E,4,53,0.51,16.788,M,15.25,M,1,3335*4A
$GNRMC,041406.300,A,2500.7893468,N,12132.4438168,E,0.01,317.96,090324,,,R,V*15
$GPHDT,,T*1B
$GNACCURACY,3.6*13
$GNGGA,041406.400,2500.7893442,N,12132.4438166,E,4,53,0.51,16.835,M,15.25,M,1,3335*42
$GNRMC,041406.400,A,2500.7893442,N,12132.4438166,E,0.02,317.96,090324,,,R,V*17
$GPHDT,7.707,T*32
$GNACCURACY,3.6*13
$GNGGA,041406.500,2500.7893450,N,12132.4438161,E,4,53,0.51,16.816,M,15.25,M,0,3335*47
$GNRMC,041406.500,A,2500.7893450,N,12132.4438161,E,0.01,317.96,090324,,,R,V*11
$GPHDT,,T*1B
$GNACCURACY,3.6*13
$GNGGA,041406.600,2500.7893434,N,12132.4438153,E,4,54,0.50,16.780,M,15.25,M,0,3335*41
$GNRMC,041406.600,A,2500.7893434,N,12132.4438153,E,0.01,317.96,090324,,,R,V*11
$GPHDT,7.861,T*3D
$GNACCURACY,3.6*13
$GNGGA,041406.700,2500.7893441,N,12132.4438147,E,4,54,0.50,16.759,M,15.25,M,0,3335*43
$GNRMC,041406.700,A,2500.7893441,N,12132.4438147,E,0.02,317.96,090324,,,R,V*14
$GPHDT,,T*1B
$GNACCURACY,3.6*13
$GNGGA,041406.800,2500.7893428,N,12132.4438148,E,4,54,0.50,16.776,M,15.25,M,0,3335*41
$GNRMC,041406.800,A,2500.7893428,N,12132.4438148,E,0.02,317.96,090324,,,R,V*1B
$GPHDT,7.961,T*3C
$GNACCURACY,3.6*13
$GNGGA,041406.900,2500.7893431,N,12132.4438160,E,4,53,0.51,16.771,M,15.25,M,0,3335*43
$GNRMC,041406.900,A,2500.7893431,N,12132.4438160,E,0.02,317.96,090324,,,R,V*18
$GPHDT,,T*1B
$GNACCURACY,3.6*13
$GNGGA,041407.000,2500.7893423,N,12132.4438150,E,4,53,0.51,16.769,M,15.25,M,1,3335*43
$GNRMC,041407.000,A,2500.7893423,N,12132.4438150,E,0.02,317.96,090324,,,R,V*10
$GPHDT,7.782,T*3F
$GNACCURACY,3.6*13
$GNGGA,041407.100,2500.7893429,N,12132.4438135,E,4,55,0.50,16.776,M,15.25,M,1,3335*42
$GNRMC,041407.100,A,2500.7893429,N,12132.4438135,E,0.01,317.96,090324,,,R,V*1B
$GPHDT,,T*1B
$GNGSA,A,3,195,194,21,08,199,02,07,27,16,196,04,30,0.77,0.51,0.57,1*02
$GNGSA,A,3,81,78,88,79,82,,,,,,,,0.77,0.51,0.57,2*06
$GNGSA,A,3,21,13,26,27,15,,,,,,,,0.77,0.51,0.57,3*01
$GNGSA,A,3,23,09,06,16,07,40,28,43,39,10,25,37,0.77,0.51,0.57,4*0D
$GNGSA,A,3,34,,,,,,,,,,,,0.77,0.51,0.57,4*05
$GPGSV,4,1,15,195,65,113,41,194,64,053,41,21,62,153,44,08,61,358,42,1*67
$GPGSV,4,2,15,199,60,167,33,50,60,167,36,02,51,176,45,07,43,315,45,1*56
$GPGSV,4,3,15,27,31,037,36,16,26,077,36,09,22,244,15,196,19,169,18,1*59
$GPGSV,4,4,15,04,16,201,35,30,13,320,19,26,07,101,19,1*55
$GPGSV,2,1,08,195,65,113,45,194,64,053,44,08,61,358,47,199,60,167,43,8*50
$GPGSV,2,2,08,27,31,037,40,196,19,169,24,04,16,201,34,30,13,320,39,8*51
$GLGSV,2,1,06,81,68,204,43,78,58,042,40,88,53,030,41,79,28,335,39,1*70
$GLGSV,2,2,06,77,22,113,16,82,18,205,34,1*79
$GAGSV,2,1,08,21,55,015,39,13,54,077,39,26,46,172,43,27,28,081,19,7*77
$GAGSV,2,2,08,19,26,239,,15,12,038,16,04,12,297,16,33,05,199,,7*7C
$GAGSV,2,1,05,21,55,015,42,13,54,077,44,26,46,172,43,27,28,081,26,1*76
$GAGSV,2,2,05,15,12,038,16,1*4B
$GBGSV,4,1,13,23,75,038,44,09,72,262,41,06,70,214,42,16,67,199,42,1*77
$GBGSV,4,2,13,07,60,309,40,40,60,330,43,28,58,224,45,43,56,036,44,1*7B
$GBGSV,4,3,13,39,56,188,43,10,51,291,21,25,36,120,32,37,32,322,42,1*70
$GBGSV,4,4,13,34,10,040,,1*46
$GBGSV,2,1,08,23,75,038,45,40,60,330,45,28,58,224,43,43,56,036,40,4*73
$GBGSV,2,2,08,39,56,188,42,25,36,120,29,37,32,322,44,34,10,040,21,4*78
$GNACCURACY,3.6*13
$PAIRSAT,1,35,2,0,201,3,0,200,4,0,221,5,0,200,6,0,200,7,0,201,8,0,221,9,0,220,10,0,200,11,0,200,12,0,200,13,0,200,14,0,200,15,0,200,16,0,201,17,0,200,18,0,200,19,0,200,20,0,200,21,0,201,22,0,200,23,0,200,24,0,200,25,0,200,26,0,220,27,0,221,28,0,200,29,0,200,30,0,221,31,0,200,32,0,200,194,0,621,195,0,621,196,0,620,199,0,621*5A
$PAIRSAT,2,24,65,0,200,66,0,200,67,0,200,68,0,200,69,0,200,70,0,200,71,0,200,72,0,200,73,0,200,74,0,200,75,0,200,76,0,200,77,0,201,78,0,201,79,0,201,80,0,200,81,0,201,82,0,201,83,0,200,84,0,200,85,0,200,86,0,200,87,0,201,88,0,201*7B
$PAIRSAT,3,23,2,0,1200,3,0,1200,4,0,1200,5,0,200,7,0,1200,8,0,1200,9,0,1200,10,0,1200,11,0,1200,12,0,1200,13,0,1221,15,0,1220,19,0,1201,21,0,1221,24,0,1200,25,0,1200,26,0,1221,27,0,1221,30,0,1200,31,0,1200,33,0,1200,34,0,1000,36,0,1200*6B
$PAIRSAT,4,46,1,0,200,2,0,200,3,0,600,4,0,200,5,0,200,6,0,201,7,0,201,8,0,200,9,0,201,10,0,201,11,0,200,12,0,200,13,0,200,14,0,200,16,0,201,19,0,600,20,0,600,21,0,600,22,0,600,23,0,621,24,0,600,25,0,621,26,0,600,27,0,600,28,0,621,29,0,600,30,0,600,32,0,600,33,0,600,34,0,621,35,0,600,36,0,600,37,0,621,38,0,600,39,0,621,40,0,621,41,0,600,42,0,600,43,0,621,44,0,400,45,0,400,46,0,400,59,0,400,60,0,400,61,0,400,62,0,400*4A
$PAIRDGP,10,2,4,7,8,9,16,21,26,27,30*42
$GNGGA,041407.200,2500.7893431,N,12132.4438159,E,4,54,0.51,16.776,M,15.25,M,1,3335*42
$GNRMC,041407.200,A,2500.7893431,N,12132.4438159,E,0.01,317.96,090324,,,R,V*1B
$GPHDT,7.832,T*3B
$GNACCURACY,3.6*13
$GNGGA,041407.300,2500.7893437,N,12132.4438149,E,4,55,0.51,16.778,M,15.25,M,1,3335*4B
$GNRMC,041407.300,A,2500.7893437,N,12132.4438149,E,0.02,317.96,090324,,,R,V*1E
$GPHDT,,T*1B
$GNACCURACY,3.6*13
$GNGGA,041407.400,2500.7893414,N,12132.4438179,E,4,54,0.51,16.776,M,15.25,M,1,3335*41
$GNRMC,041407.400,A,2500.7893414,N,12132.4438179,E,0.01,317.96,090324,,,R,V*18
$GPHDT,7.757,T*37
$GNACCURACY,3.6*13
$GNGGA,041407.500,2500.7893383,N,12132.4438096,E,4,52,0.53,16.785,M,15.25,M,0,3335*40
$GNRMC,041407.500,A,2500.7893383,N,12132.4438096,E,0.01,317.96,090324,,,R,V*10
$GPHDT,,T*1B
$GNACCURACY,3.6*13
$GNGGA,041407.600,2500.7893412,N,12132.4438146,E,4,53,0.51,16.783,M,15.25,M,0,3335*45
$GNRMC,041407.600,A,2500.7893412,N,12132.4438146,E,0.02,317.96,090324,,,R,V*13
$GPHDT,7.758,T*38
$GNACCURACY,3.6*13
$GNGGA,041407.700,2500.7893400,N,12132.4438072,E,4,53,0.51,16.777,M,15.25,M,0,3335*4A
$GNRMC,041407.700,A,2500.7893400,N,12132.4438072,E,0.01,317.96,090324,,,R,V*14
$GPHDT,,T*1B
$GNACCURACY,3.6*13
$GNGGA,041407.800,2500.7893399,N,12132.4438092,E,4,53,0.51,16.757,M,15.25,M,0,3335*4E
$GNRMC,041407.800,A,2500.7893399,N,12132.4438092,E,0.01,317.96,090324,,,R,V*12
$GPHDT,8.347,T*3D
$GNACCURACY,3.6*13
$GNGGA,041407.900,2500.7893403,N,12132.4438136,E,4,53,0.51,16.784,M,15.25,M,0,3335*4A
$GNRMC,041407.900,A,2500.7893403,N,12132.4438136,E,0.01,317.96,090324,,,R,V*18
$GPHDT,,T*1B
$GNACCURACY,3.6*13
$GNGGA,041408.000,2500.7893416,N,12132.4438154,E,4,53,0.51,16.783,M,15.25,M,1,3335*4A
$GNRMC,041408.000,A,2500.7893416,N,12132.4438154,E,0.02,317.96,090324,,,R,V*1D
$GPHDT,8.060,T*3B
$GNACCURACY,3.6*13
$GNGGA,041408.100,2500.7893452,N,12132.4438187,E,4,52,0.53,16.746,M,15.25,M,1,3335*4F
$GNRMC,041408.100,A,2500.7893452,N,12132.4438187,E,0.01,317.96,090324,,,R,V*11
$GPHDT,,T*1B
$GNGSA,A,3,195,194,21,08,199,02,07,27,16,196,04,30,0.78,0.53,0.57,1*0F
$GNGSA,A,3,81,78,88,79,82,,,,,,,,0.78,0.53,0.57,2*0B
$GNGSA,A,3,21,13,26,27,15,,,,,,,,0.78,0.53,0.57,3*0C
$GNGSA,A,3,23,09,06,16,07,40,28,43,39,37,25,34,0.78,0.53,0.57,4*06
$GPGSV,4,1,15,195,65,113,41,194,64,053,41,21,62,153,44,08,61,358,43,1*66
$GPGSV,4,2,15,199,60,167,33,50,60,167,36,02,51,176,45,07,43,315,44,1*57
$GPGSV,4,3,15,27,31,037,35,16,26,077,36,09,22,244,13,196,19,169,18,1*5C
$GPGSV,4,4,15,04,16,201,35,30,13,320,24,26,07,101,21,1*50
$GPGSV,2,1,07,195,65,113,44,194,64,053,44,08,61,358,47,199,60,167,44,8*59
$GPGSV,2,2,07,27,31,037,40,04,16,201,31,30,13,320,39,8*55
$GLGSV,2,1,06,81,68,204,43,78,58,042,41,88,53,030,42,79,28,335,39,1*72
$GLGSV,2,2,06,77,22,113,16,82,18,205,34,1*79
$GAGSV,2,1,08,21,55,015,39,13,54,077,39,26,46,172,43,27,28,081,20,7*7D
$GAGSV,2,2,08,19,26,239,,15,12,038,15,04,12,297,15,33,05,199,,7*7C
$GAGSV,2,1,05,21,55,015,41,13,54,077,44,26,46,172,43,27,28,081,24,1*77
$GAGSV,2,2,05,15,12,038,16,1*4B
$GBGSV,4,1,13,23,75,038,44,09,72,262,42,06,70,214,42,16,