$FW : RTK35X,V1.1X0314AS,Lib20210517,1*54
$Tool : LOCOSYS , GNSS Firebird , v1.0.0.19*39
$---------------------------------------------------*2D
3335*41
$GNRMC,041538.400,A,2500.7933064,N,12132.4397879,E,0.00,323.05,090324,,,R,V*1A
$GPHDT,6.768,T*3A
$GNACCURACY,3.7*12
$GNGGA,041538.500,2500.7933075,N,12132.4397881,E,4,50,0.57,16.768,M,15.25,M,1,3335*44
$GNRMC,041538.500,A,2500.7933075,N,12132.4397881,E,0.01,323.05,090324,,,R,V*1D
$GPHDT,,T*1B
$GNACCURACY,3.7*12
$GNGGA,041538.600,2500.7933077,N,12132.4397881,E,4,50,0.57,16.773,M,15.25,M,1,3335*4F
$GNRMC,041538.600,A,2500.7933077,N,12132.4397881,E,0.01,323.05,090324,,,R,V*1C
$GPHDT,7.662,T*30
$GNACCURACY,3.7*12
$GNGGA,041538.700,2500.7933083,N,12132.4397879,E,4,50,0.57,16.799,M,15.25,M,0,3335*47
$GNRMC,041538.700,A,2500.7933083,N,12132.4397879,E,0.01,323.05,090324,,,R,V*11
$GPHDT,,T*1B
$GNACCURACY,3.7*12
$GNGGA,041538.800,2500.7933078,N,12132.4397856,E,4,50,0.57,16.785,M,15.25,M,0,3335*4C
$GNRMC,041538.800,A,2500.7933078,N,12132.4397856,E,0.01,323.05,090324,,,R,V*17
$GPHDT,7.308,T*39
$GNACCURACY,3.7*12
$GNGGA,041538.900,2500.7933116,N,12132.4397883,E,4,50,0.57,16.797,M,15.25,M,0,3335*4F
$GNRMC,041538.900,A,2500.7933116,N,12132.4397883,E,0.01,323.05,090324,,,R,V*17
$GPHDT,,T*1B
$GNACCURACY,3.7*12
$GNGGA,041539.000,2500.7933133,N,12132.4397914,E,4,51,0.56,16.810,M,15.25,M,1,3335*4E
$GNRMC,041539.000,A,2500.7933133,N,12132.4397914,E,0.02,323.05,090324,,,R,V*14
$GPHDT,6.812,T*38
$GNACCURACY,3.7*12
$GNGGA,041539.100,2500.7933113,N,12132.4397924,E,4,51,0.56,16.808,M,15.25,M,1,3335*47
$GNRMC,041539.100,A,2500.7933113,N,12132.4397924,E,0.02,323.05,090324,,,R,V*14
$GPHDT,,T*1B
$GNGSA,A,3,195,194,21,199,08,02,07,27,16,196,04,,0.83,0.56,0.62,1*0B
$GNGSA,A,3,81,78,88,79,77,82,,,,,,,0.83,0.56,0.62,2*0C
$GNGSA,A,3,21,13,26,27,15,,,,,,,,0.83,0.56,0.62,3*0B
$GNGSA,A,3,23,09,06,16,07,40,28,43,39,25,37,,0.83,0.56,0.62,4*06
$GPGSV,4,1,15,195,65,112,42,194,64,053,41,21,63,152,41,199,60,167,34,1*57
$GPGSV,4,2,15,08,60,000,45,50,60,167,35,02,51,176,45,07,44,315,42,1*6D
$GPGSV,4,3,15,27,31,037,29,16,26,078,44,09,22,243,13,196,19,168,13,1*56
$GPGSV,4,4,15,04,16,201,24,30,13,319,18,26,06,102,16,1*53
$GPGSV,2,1,07,195,65,112,46,194,64,053,45,199,60,167,45,08,60,000,47,8*55
$GPGSV,2,2,07,27,31,037,36,04,16,201,26,26,06,102,18,8*50
$GLGSV,2,1,06,81,68,204,44,78,58,044,40,88,52,029,41,79,28,336,43,1*76
$GLGSV,2,2,06,77,22,114,19,82,18,206,16,1*72
$GAGSV,2,1,07,21,55,016,41,13,54,076,43,26,46,171,41,27,28,082,42,7*74
$GAGSV,2,2,07,19,26,239,,15,12,037,14,33,06,199,,7*41
$GAGSV,2,1,05,21,55,016,42,13,54,076,44,26,46,171,42,27,28,082,41,1*74
$GAGSV,2,2,05,15,12,037,12,1*40
$GBGSV,4,1,13,23,75,040,44,09,72,262,41,06,70,214,42,16,66,199,44,1*7F
$GBGSV,4,2,13,07,60,310,38,40,60,330,44,28,58,224,44,43,56,035,43,1*7E
$GBGSV,4,3,13,39,56,188,44,10,51,291,18,25,35,120,40,37,32,322,42,1*7B
$GBGSV,4,4,13,34,09,040,,1*4E
$GBGSV,2,1,07,23,75,040,46,40,60,330,44,28,58,224,42,39,56,188,45,4*7C
$GBGSV,2,2,07,43,56,035,41,25,35,120,39,37,32,322,40,4*49
$GNACCURACY,3.7*12
$PAIRSAT,1,35,2,0,201,3,0,200,4,0,221,5,0,200,6,0,200,7,0,201,8,0,221,9,0,220,10,0,200,11,0,200,12,0,200,13,0,200,14,0,200,15,0,200,16,0,201,17,0,200,18,0,200,19,0,200,20,0,200,21,0,201,22,0,200,23,0,200,24,0,200,25,0,200,26,0,220,27,0,221,28,0,200,29,0,200,30,0,221,31,0,200,32,0,200,194,0,621,195,0,621,196,0,620,199,0,621*5A
$PAIRSAT,2,24,65,0,200,66,0,200,67,0,200,68,0,200,69,0,200,70,0,200,71,0,200,72,0,200,73,0,200,74,0,200,75,0,200,76,0,200,77,0,201,78,0,201,79,0,201,80,0,200,81,0,201,82,0,201,83,0,200,84,0,200,85,0,200,86,0,200,87,0,200,88,0,201*7A
$PAIRSAT,3,23,2,0,1200,3,0,1200,4,0,1200,5,0,200,7,0,1200,8,0,1200,9,0,1200,10,0,1200,11,0,1200,12,0,1200,13,0,1221,15,0,1220,19,0,1201,21,0,1221,24,0,1200,25,0,1200,26,0,1221,27,0,1221,30,0,1200,31,0,1200,33,0,1200,34,0,1000,36,0,1200*6B
$PAIRSAT,4,46,1,0,200,2,0,200,3,0,600,4,0,200,5,0,200,6,0,201,7,0,201,8,0,200,9,0,201,10,0,201,11,0,200,12,0,200,13,0,200,14,0,200,16,0,201,19,0,600,20,0,600,21,0,600,22,0,600,23,0,621,24,0,600,25,0,621,26,0,600,27,0,600,28,0,621,29,0,600,30,0,600,32,0,600,33,0,600,34,0,621,35,0,600,36,0,600,37,0,621,38,0,600,39,0,621,40,0,621,41,0,600,42,0,600,43,0,621,44,0,400,45,0,400,46,0,400,59,0,400,60,0,400,61,0,400,62,0,400*4A
$PAIRDGP,10,2,4,7,8,9,16,21,26,27,30*42
$GNGGA,041539.200,2500.7933113,N,12132.4397946,E,4,51,0.56,16.794,M,15.25,M,1,3335*4A
$GNRMC,041539.200,A,2500.7933113,N,12132.4397946,E,0.03,323.05,090324,,,R,V*12
$GPHDT,6.185,T*3F
$GNACCURACY,3.7*12
$GNGGA,041539.300,2500.7933097,N,12132.4397903,E,4,51,0.56,16.789,M,15.25,M,1,3335*4B
$GNRMC,041539.300,A,2500.7933097,N,12132.4397903,E,0.03,323.05,090324,,,R,V*1F
$GPHDT,,T*1B
$GNACCURACY,3.7*12
$GNGGA,041539.400,2500.7933093,N,12132.4397952,E,4,51,0.56,16.796,M,15.25,M,1,3335*42
$GNRMC,041539.400,A,2500.7933093,N,12132.4397952,E,0.03,323.05,090324,,,R,V*18
$GPHDT,5.920,T*3B
$GNACCURACY,3.7*12
$GNGGA,041539.500,2500.7933099,N,12132.4397980,E,4,51,0.56,16.810,M,15.25,M,1,3335*47
$GNRMC,041539.500,A,2500.7933099,N,12132.4397980,E,0.04,323.05,090324,,,R,V*1B
$GPHDT,,T*1B
$GNACCURACY,3.7*12
$GNGGA,041539.600,2500.7933097,N,12132.4397951,E,4,51,0.56,16.798,M,15.25,M,1,3335*49
$GNRMC,041539.600,A,2500.7933097,N,12132.4397951,E,0.04,323.05,090324,,,R,V*1A
$GPHDT,5.271,T*34
$GNACCURACY,3.7*12
$GNGGA,041539.700,2500.7933088,N,12132.4397941,E,4,51,0.56,16.791,M,15.25,M,0,3335*4F
$GNRMC,041539.700,A,2500.7933088,N,12132.4397941,E,0.04,323.05,090324,,,R,V*14
$GPHDT,,T*1B
$GNACCURACY,3.7*12
$GNGGA,041539.800,2500.7933095,N,12132.4397946,E,4,52,0.56,16.790,M,15.25,M,0,3335*49
$GNRMC,041539.800,A,2500.7933095,N,12132.4397946,E,0.03,323.05,090324,,,R,V*17
$GPHDT,5.635,T*30
$GNACCURACY,3.7*12
$GNGGA,041539.900,2500.7933066,N,12132.4397916,E,4,52,0.56,16.784,M,15.25,M,0,3335*44
$GNRMC,041539.900,A,2500.7933066,N,12132.4397916,E,0.02,323.05,090324,,,R,V*1E
$GPHDT,,T*1B
$GNACCURACY,3.7*12
$GNGGA,041540.000,2500.7933097,N,12132.4397961,E,4,52,0.56,16.793,M,15.25,M,1,3335*4A
$GNRMC,041540.000,A,2500.7933097,N,12132.4397961,E,0.02,323.05,090324,,,R,V*17
$GPHDT,5.479,T*3A
$GNACCURACY,3.7*12
$GNGGA,041540.100,2500.7933080,N,12132.4397944,E,4,52,0.56,16.790,M,15.25,M,1,3335*49
$GNRMC,041540.100,A,2500.7933080,N,12132.4397944,E,0.01,323.05,090324,,,R,V*14
$GPHDT,,T*1B
$GNGSA,A,3,195,194,21,08,199,02,07,27,16,196,04,,0.97,0.56,0.79,1*04
$GNGSA,A,3,81,78,88,79,77,82,,,,,,,0.97,0.56,0.79,2*03
$GNGSA,A,3,21,13,26,27,15,,,,,,,,0.97,0.56,0.79,3*04
$GNGSA,A,3,23,09,06,16,07,40,28,39,43,25,37,,0.97,0.56,0.79,4*09
$GPGSV,4,1,15,195,65,112,42,194,64,053,41,21,63,152,42,50,60,167,36,1*62
$GPGSV,4,2,15,08,60,000,45,199,60,167,34,02,51,176,45,07,44,315,42,1*58
$GPGSV,4,3,15,27,31,037,29,16,26,078,44,09,22,243,17,196,19,168,15,1*54
$GPGSV,4,4,15,04,16,201,24,30,13,319,20,26,06,102,17,1*59
$GPGSV,2,1,08,195,65,112,46,194,64,053,45,08,60,000,47,199,60,167,45,8*5A
$GPGSV,2,2,08,27,31,037,36,196,19,168,23,04,16,201,25,26,06,102,17,8*5B
$GLGSV,2,1,06,81,68,204,44,78,58,044,40,88,52,029,39,79,28,336,43,1*79
$GLGSV,2,2,06,77,22,114,22,82,18,206,17,1*7B
$GAGSV,2,1,06,21,55,016,41,13,54,076,43,26,46,171,41,27,28,082,42,7*75
$GAGSV,2,2,06,19,26,239,,15,12,037,13,7*70
$GAGSV,2,1,05,21,55,016,42,13,54,076,44,26,46,171,43,27,28,082,41,1*75
$GAGSV,2,2,05,15,12,037,13,1*41
$GBGSV,4,1,13,23,75,040,44,09,72,262,42,06,70,214,42,16,66,199,44,1*7C
$GBGSV,4,2,13,07,60,310,38,40,60,330,44,28,58,224,43,39,56,188,44,1*74
$GBGSV,4,3,13,43,56,035,42,10,51,291,18,25,35,120,40,37,32,322,42,1*77
$GBGSV,4,4,13,34,09,040,,1*4E
$GBGSV,2,1,07,23,75,040,46,40,60,330,44,28,58,224,42,39,56,188,44,4*7D
$GBGSV,2,2,07,43,56,035,42,25,35,120,39,37,32,322,37,4*4A
$GNACCURACY,3.7*12
$PAIRSAT,1,35,2,0,201,3,0,200,4,0,221,5,0,200,6,0,200,7,0,201,8,0,221,9,0,220,10,0,200,11,0,200,12,0,200,13,0,200,14,0,200,15,0,200,16,0,201,17,0,200,18,0,200,19,0,200,20,0,200,21,0,201,22,0,200,23,0,200,24,0,200,25,0,200,26,0,220,27,0,221,28,0,200,29,0,200,30,0,221,31,0,200,32,0,200,194,0,621,195,0,621,196,0,620,199,0,621*5A
$PAIRSAT,2,24,65,0,200,66,0,200,67,0,200,68,0,200,69,0,200,70,0,200,71,0,200,72,0,200,73,0,200,74,0,200,75,0,200,76,0,200,77,0,201,78,0,201,79,0,201,80,0,200,81,0,201,82,0,201,83,0,200,84,0,200,85,0,200,86,0,200,87,0,200,88,0,201*7A
$PAIRSAT,3,23,2,0,1200,3,0,1200,4,0,1200,5,0,200,7,0,1200,8,0,1200,9,0,1200,10,0,1200,11,0,1200,12,0,1200,13,0,1221,15,0,1220,19,0,1201,21,0,1221,24,0,1200,25,0,1200,26,0,1221,27,0,1221,30,0,1200,31,0,1200,33,0,1200,34,0,1000,36,0,1200*6B
$PAIRSAT,4,46,1,0,200,2,0,200,3,0,600,4,0,200,5,0,200,6,0,201,7,0,201,8,0,200,9,0,201,10,0,201,11,0,200,12,0,200,13,0,200,14,0,200,16,0,201,19,0,600,20,0,600,21,0,600,22,0,600,23,0,621,24,0,600,25,0,621,26,0,600,27,0,600,28,0,621,29,0,600,30,0,600,32,0,600,33,0,600,34,0,621,35,0,600,36,0,600,37,0,621,38,0,600,39,0,621,40,0,621,41,0,600,42,0,600,43,0,621,44,0,400,45,0,400,46,0,400,59,0,400,60,0,400,61,0,400,62,0,400*4A
$PAIRDGP,10,2,4,7,8,9,16,21,26,27,30*42
$GNGGA,041540.200,2500.7933079,N,12132.4397958,E,4,52,0.56,16.776,M,15.25,M,1,3335*49
$GNRMC,041540.200,A,2500.7933079,N,12132.4397958,E,0.00,323.05,090324,,,R,V*1D
$GPHDT,5.489,T*35
$GNACCURACY,3.7*12
$GNGGA,041540.300,2500.7933084,N,12132.4397956,E,4,52,0.56,16.789,M,15.25,M,1,3335*44
$GNRMC,041540.300,A,2500.7933084,N,12132.4397956,E,0.01,323.05,090324,,,R,V*11
$GPHDT,,T*1B
$GNACCURACY,3.7*12
$GNGGA,041540.400,2500.7933047,N,12132.4397935,E,4,52,0.56,16.792,M,15.25,M,1,3335*43
$GNRMC,041540.400,A,2500.7933047,N,12132.4397935,E,0.00,323.05,090324,,,R,V*1D
$GPHDT,5.611,T*36
$GNACCURACY,3.7*12
$GNGGA,041540.500,2500.7933066,N,12132.4397907,E,4,50,0.56,16.772,M,15.25,M,0,3335*4D
$GNRMC,041540.500,A,2500.7933066,N,12132.4397907,E,0.00,323.05,090324,,,R,V*1E
$GPHDT,,T*1B
$GNACCURACY,3.7*12
$GNGGA,041540.600,2500.7933055,N,12132.4397893,E,4,50,0.56,16.774,M,15.25,M,0,3335*44
$GNRMC,041540.600,A,2500.7933055,N,12132.4397893,E,0.00,323.05,090324,,,R,V*11
$GPHDT,5.803,T*3B
$GNACCURACY,3.7*12
$GNGGA,041540.700,2500.7933064,N,12132.4397920,E,4,50,0.56,16.781,M,15.25,M,0,3335*44
$GNRMC,041540.700,A,2500.7933064,N,12132.4397920,E,0.00,323.05,090324,,,R,V*1B
$GPHDT,,T*1B
$GNACCURACY,3.7*12
$GNGGA,041540.800,2500.7933048,N,12132.4397921,E,4,50,0.56,16.775,M,15.25,M,0,3335*4F
$GNRMC,041540.800,A,2500.7933048,N,12132.4397921,E,0.00,323.05,090324,,,R,V*1B
$GPHDT,5.189,T*30
$GNACCURACY,3.7*12
$GNGGA,041540.900,2500.7933055,N,12132.4397921,E,4,50,0.56,16.781,M,15.25,M,0,3335*49
$GNRMC,041540.900,A,2500.7933055,N,12132.4397921,E,0.00,323.05,090324,,,R,V*16
$GPHDT,,T*1B
$GNACCURACY,3.7*12
$GNGGA,041541.000,2500.7933057,N,12132.4397909,E,4,50,0.56,16.775,M,15.25,M,1,3335*43
$GNRMC,041541.000,A,2500.7933057,N,12132.4397909,E,0.00,323.05,090324,,,R,V*16
$GPHDT,5.373,T*37
$GNACCURACY,3.7*12
$GNGGA,041541.100,2500.7933046,N,12132.4397907,E,4,50,0.56,16.774,M,15.25,M,1,3335*4D
$GNRMC,041541.100,A,2500.7933046,N,12132.4397907,E,0.00,323.05,090324,,,R,V*19
$GPHDT,,T*1B
$GNGSA,A,3,195,194,21,08,199,02,07,27,16,196,04,,0.97,0.56,0.79,1*04
$GNGSA,A,3,81,78,88,79,77,82,,,,,,,0.97,0.56,0.79,2*03
$GNGSA,A,3,21,13,26,27,15,,,,,,,,0.97,0.56,0.79,3*04
$GNGSA,A,3,23,09,06,16,07,40,28,39,43,25,37,,0.97,0.56,0.79,4*09
$GPGSV,4,1,15,195,65,112,42,194,64,053,40,21,63,152,43,50,60,167,38,1*6C
$GPGSV,4,2,15,08,60,000,45,199,60,167,35,02,51,176,45,07,44,315,42,1*59
$GPGSV,4,3,15,27,31,037,29,16,26,078,44,09,22,243,18,196,19,168,15,1*5B
$GPGSV,4,4,15,04,16,201,24,30,13,319,,26,06,102,16,1*5A
$GPGSV,2,1,08,195,65,112,46,194,64,053,44,08,60,000,47,199,60,167,45,8*5B
$GPGSV,2,2,08,27,31,037,36,196,19,168,23,04,16,201,25,26,06,102,17,8*5B
$GLGSV,2,1,06,81,69,205,44,78,58,044,40,88,52,029,39,79,28,336,43,1*79
$GLGSV,2,2,06,77,22,114,20,82,18,206,17,1*79
$GAGSV,2,1,06,21,55,016,41,13,54,076,43,26,46,171,41,27,28,082,42,7*75
$GAGSV,2,2,06,19,26,239,,15,12,037,14,7*77
$GAGSV,1,1,04,21,55,016,42,13,54,076,44,26,46,171,43,27,28,082,41,1*77
$GBGSV,4,1,13,23,75,040,44,09,72,262,42,06,70,214,42,16,66,199,44,1*7C
$GBGSV,4,2,13,07,60,310,38,40,60,330,44,28,58,224,44,39,56,188,44,1*73
$GBGSV,4,3,13,43,56,035,41,10,51,291,17,25,35,120,40,37,32,322,42,1*7B
$GBGSV,4,4,13,34,09,040,,1*4E
$GBGSV,2,1,07,23,75,040,46,40,60,330,44,28,58,224,42,39,56,188,41,4*78
$GBGSV,2,2,07,43,56,035,42,25,35,120,39,37,32,322,37,4*4A
$GNACCURACY,3.7*12
$PAIRSAT,1,35,2,0,201,3,0,200,4,0,221,5,0,200,6,0,200,7,0,201,8,0,221,9,0,220,10,0,200,11,0,200,12,0,200,13,0,200,14,0,200,15,0,200,16,0,201,17,0,200,18,0,200,19,0,200,20,0,200,21,0,201,22,0,200,23,0,200,24,0,200,25,0,200,26,0,220,27,0,221,28,0,200,29,0,200,30,0,221,31,0,200,32,0,200,194,0,621,195,0,621,196,0,620,199,0,621*5A
$PAIRSAT,2,24,65,0,200,66,0,200,67,0,200,68,0,200,69,0,200,70,0,200,71,0,200,72,0,200,73,0,200,74,0,200,75,0,200,76,0,200,77,0,201,78,0,201,79,0,201,80,0,200,81,0,201,82,0,201,83,0,200,84,0,200,85,0,200,86,0,200,87,0,200,88,0,201*7A
$PAIRSAT,3,23,2,0,1200,3,0,1200,4,0,1200,5,0,200,7,0,1200,8,0,1200,9,0,1200,10,0,1200,11,0,1200,12,0,1200,13,0,1221,15,0,1220,19,0,1201,21,0,1221,24,0,1200,25,0,1200,26,0,1221,27,0,1221,30,0,1200,31,0,1200,33,0,1200,34,0,1000,36,0,1200*6B
$PAIRSAT,4,46,1,0,200,2,0,200,3,0,600,4,0,200,5,0,200,6,0,201,7,0,201,8,0,200,9,0,201,10,0,201,11,0,200,12,0,200,13,0,200,14,0,200,16,0,201,19,0,600,20,0,600,21,0,600,22,0,600,23,0,621,24,0,600,25,0,621,26,0,600,27,0,600,28,0,621,29,0,600,30,0,600,32,0,600,33,0,600,34,0,621,35,0,600,36,0,600,37,0,621,38,0,600,39,0,621,40,0,621,41,0,600,42,0,600,43,0,621,44,0,400,45,0,400,46,0,400,59,0,400,60,0,400,61,0,400,62,0,400*4A
$PAIRDGP,10,2,4,7,8,9,16,21,26,27,30*42
$GNGGA,041541.200,2500.7933040,N,12132.4397927,E,4,50,0.56,16.779,M,15.25,M,1,3335*47
$GNRMC,041541.200,A,2500.7933040,N,12132.4397927,E,0.00,323.05,090324,,,R,V*1E
$GPHDT,5.142,T*37
$GNACCURACY,3.6*13
$GNGGA,041541.300,2500.7933049,N,12132.4397916,E,4,50,0.56,16.777,M,15.25,M,1,3335*43
$GNRMC,041541.300,A,2500.7933049,N,12132.4397916,E,0.00,323.05,090324,,,R,V*14
$GPHDT,,T*1B
$GNACCURACY,3.6*13
$GNGGA,041541.400,2500.7933038,N,12132.4397915,E,4,51,0.52,16.773,M,15.25,M,1,3335*40
$GNRMC,041541.400,A,2500.7933038,N,12132.4397915,E,0.00,323.05,090324,,,R,V*16
$GPHDT,5.330,T*30
$GNACCURACY,3.6*13
$GNGGA,041541.500,2500.7933043,N,12132.4397911,E,4,50,0.52,16.775,M,15.25,M,1,3335*4E
$GNRMC,041541.500,A,2500.7933043,N,12132.4397911,E,0.00,323.05,090324,,,R,V*1F
$GPHDT,,T*1B
$GNACCURACY,3.6*13
$GNGGA,041541.600,2500.7933046,N,12132.4397923,E,4,50,0.52,16.773,M,15.25,M,1,3335*4F
$GNRMC,041541.600,A,2500.7933046,N,12132.4397923,E,0.00,323.05,090324,,,R,V*18
$GPHDT,5.495,T*38
$GNACCURACY,3.6*13
$GNGGA,041541.700,2500.7933045,N,12132.4397920,E,4,50,0.52,16.790,M,15.25,M,0,3335*42
$GNRMC,041541.700,A,2500.7933045,N,12132.4397920,E,0.00,323.05,090324,,,R,V*19
$GPHDT,,T*1B
$GNACCURACY,3.6*13
$GNGGA,041541.800,2500.7933060,N,12132.4397905,E,4,50,0.52,16.787,M,15.25,M,0,3335*4B
$GNRMC,041541.800,A,2500.7933060,N,12132.4397905,E,0.00,323.05,090324,,,R,V*16
$GPHDT,5.771,T*31
$GNACCURACY,3.6*13
$GNGGA,041541.900,2500.7933049,N,12132.4397924,E,4,50,0.52,16.790,M,15.25,M,0,3335*44
$GNRMC,041541.900,A,2500.7933049,N,12132.4397924,E,0.00,323.05,090324,,,R,V*1F
$GPHDT,,T*1B
$GNACCURACY,3.6*13
$GNGGA,041542.000,2500.7933057,N,12132.4397921,E,4,50,0.52,16.789,M,15.25,M,1,3335*4D
$GNRMC,041542.000,A,2500.7933057,N,12132.4397921,E,0.00,323.05,090324,,,R,V*1F
$GPHDT,5.706,T*31
$GNACCURACY,3.6*13
$GNGGA,041542.100,2500.7933039,N,12132.4397908,E,4,50,0.52,16.782,M,15.25,M,1,3335*44
$GNRMC,041542.100,A,2500.7933039,N,12132.4397908,E,0.00,323.05,090324,,,R,V*1D
$GPHDT,,T*1B
$GNGSA,A,3,195,194,21,08,199,02,07,27,16,09,196,04,0.92,0.52,0.75,1*00
$GNGSA,A,3,81,78,88,79,77,82,,,,,,,0.92,0.52,0.75,2*0E
$GNGSA,A,3,21,13,26,27,15,,,,,,,,0.92,0.52,0.75,3*09
$GNGSA,A,3,23,09,06,16,07,40,28,39,43,25,37,,0.92,0.52,0.75,4*04
$GPGSV,4,1,15,195,65,112,42,194,64,053,40,21,63,152,43,50,60,167,38,1*6C
$GPGSV,4,2,15,08,60,000,45,199,60,167,35,02,51,176,45,07,44,315,41,1*5A
$GPGSV,4,3,15,27,31,037,32,16,26,078,44,09,22,243,18,196,19,168,14,1*50
$GPGSV,4,4,15,04,16,201,21,30,13,319,,26,06,102,16,1*5F
$GPGSV,2,1,08,195,65,112,46,194,64,053,44,08,60,000,47,199,60,167,45,8*5B
$GPGSV,2,2,08,27,31,037,37,196,19,168,23,04,16,201,25,26,06,102,17,8*5A
$GLGSV,2,1,06,81,69,205,44,78,58,044,40,88,52,029,38,79,28,336,43,1*78
$GLGSV,2,2,06,77,22,114,20,82,18,206,17,1*79
$GAGSV,2,1,06,21,55,016,41,13,54,076,42,26,46,171,41,27,28,082,42,7*74
$GAGSV,2,2,06,19,26,239,,15,12,037,12,7*71
$GAGSV,1,1,04,21,55,016,42,13,54,076,44,26,46,171,43,27,28,082,41,1*77
$GBGSV,4,1,13,23,75,040,44,09,72,262,42,06,70,214,43,16,66,199,44,1*7D
$GBGSV,4,2,13,07,60,310,38,40,60,330,44,28,58,224,44,39,56,188,44,1*73
$GBGSV,4,3,13,43,56,035,41,10,51,291,16,25,35,120,40,37,32,322,42,1*7A
$GBGSV,4,4,13,34,09,040,,1*4E
$GBGSV,2,1,07,23,75,040,46,40,60,330,44,28,58,224,42,39,56,188,41,4*78
$GBGSV,2,2,07,43,56,035,42,25,35,120,40,37,32,322,37,4*44
$GNACCURACY,3.6*13
$PAIRSAT,1,35,2,0,201,3,0,200,4,0,221,5,0,200,6,0,200,7,0,201,8,0,221,9,0,220,10,0,200,11,0,200,12,0,200,13,0,200,14,0,200,15,0,200,16,0,201,17,0,200,18,0,200,19,0,200,20,0,200,21,0,201,22,0,200,23,0,200,24,0,200,25,0,200,26,0,220,27,0,221,28,0,200,29,0,200,30,0,221,31,0,200,32,0,200,194,0,621,195,0,621,196,0,620,199,0,621*5A
$PAIRSAT,2,24,65,0,200,66,0,200,67,0,200,68,0,200,69,0,200,70,0,200,71,0,200,72,0,200,73,0,200,74,0,200,75,0,200,76,0,200,77,0,201,78,0,201,79,0,201,80,0,200,81,0,201,82,0,201,83,0,200,84,0,200,85,0,200,86,0,200,87,0,200,88,0,201*7A
$PAIRSAT,3,23,2,0,1200,3,0,1200,4,0,1200,5,0,200,7,0,1200,8,0,1200,9,0,1200,10,0,1200,11,0,1200,12,0,1200,13,0,1221,15,0,1220,19,0,1201,21,0,1221,24,0,1200,25,0,1200,26,0,1221,27,0,1221,30,0,1200,31,0,1200,33,0,1200,34,0,1000,36,0,1200*6B
$PAIRSAT,4,46,1,0,200,2,0,200,3,0,600,4,0,200,5,0,200,6,0,201,7,0,201,8,0,200,9,0,201,10,0,201,11,0,200,12,0,200,13,0,200,14,0,200,16,0,201,19,0,600,20,0,600,21,0,600,22,0,600,23,0,621,24,0,600,25,0,621,26,0,600,27,0,600,28,0,621,29,0,600,30,0,600,32,0,600,33,0,600,34,0,621,35,0,600,36,0,600,37,0,621,38,0,600,39,0,621,40,0,621,41,0,600,42,0,600,43,0,621,44,0,400,45,0,400,46,0,400,59,0,400,60,0,400,61,0,400,62,0,400*4A
$PAIRDGP,10,2,4,7,8,9,16,21,26,27,30*42
$GNGGA,041542.200,2500.7933066,N,12132.4397932,E,4,50,0.52,16.761,M,15.25,M,1,3335*49
$GNRMC,041542.200,A,2500.7933066,N,12132.4397932,E,0.00,323.05,090324,,,R,V*1D
$GPHDT,5.427,T*31
$GNACCURACY,3.6*13
$GNGGA,041542.300,2500.7933056,N,12132.4397913,E,4,49,0.55,16.786,M,15.25,M,1,3335*4E
$GNRMC,041542.300,A,2500.7933056,N,12132.4397913,E,0.00,323.05,090324,,,R,V*1C
$GPHDT,,T*1B
$GNACCURACY,3.6*13
$GNGGA,041542.400,2500.7933051,N,12132.4397919,E,4,49,0.55,16.791,M,15.25,M,1,3335*42
$GNRMC,041542.400,A,2500.7933051,N,12132.4397919,E,0.00,323.05,090324,,,R,V*16
$GPHDT,5.681,T*3F
$GNACCURACY,3.6*13
$GNGGA,041542.500,2500.7933054,N,12132.4397935,E,4,49,0.55,16.790,M,15.25,M,1,3335*49
$GNRMC,041542.500,A,2500.7933054,N,12132.4397935,E,0.00,323.05,090324,,,R,V*1C
$GPHDT,,T*1B
$GNACCURACY,3.6*13
$GNGGA,041542.600,2500.7933059,N,12132.4397936,E,4,49,0.55,16.793,M,15.25,M,1,3335*47
$GNRMC,041542.600,A,2500.7933059,N,12132.4397936,E,0.00,323.05,090324,,,R,V*11
$GPHDT,5.474,T*37
$GNACCURACY,3.6*13
$GNGGA,041542.700,2500.7933053,N,12132.4397921,E,4,49,0.55,16.784,M,15.25,M,0,3335*4D
$GNRMC,041542.700,A,2500.7933053,N,12132.4397921,E,0.00,323.05,090324,,,R,V*1C
$GPHDT,,T*1B
$GNACCURACY,3.6*13
$GNGGA,041542.800,2500.7933066,N,12132.4397917,E,4,49,0.55,16.776,M,15.25,M,0,3335*4C
$GNRMC,041542.800,A,2500.7933066,N,12132.4397917,E,0.00,323.05,090324,,,R,V*10
$GPHDT,5.758,T*3A
$GNACCURACY,3.6*13
$GNGGA,041542.900,2500.7933053,N,12132.4397921,E,4,49,0.55,16.786,M,15.25,M,0,3335*41
$GNRMC,041542.900,A,2500.7933053,N,12132.4397921,E,0.00,323.05,090324,,,R,V*12
$GPHDT,,T*1B
$GNACCURACY,3.6*13
$GNGGA,041543.000,2500.7933051,N,12132.4397897,E,4,49,0.55,16.778,M,15.25,M,1,3335*47
$GNRMC,041543.000,A,2500.7933051,N,12132.4397897,E,0.00,323.05,090324,,,R,V*14
$GPHDT,6.206,T*37
$GNACCURACY,3.6*13
$GNGGA,041543.100,2500.7933066,N,12132.4397924,E,4,49,0.55,16.786,M,15.25,M,1,3335*4A
$GNRMC,041543.100,A,2500.7933066,N,12132.4397924,E,0.00,323.05,090324,,,R,V*18
$GPHDT,,T*1B
$GNGSA,A,3,195,194,21,08,199,02,07,27,16,09,196,04,0.98,0.55,0.82,1*05
$GNGSA,A,3,81,78,88,79,77,82,,,,,,,0.98,0.55,0.82,2*0B
$GNGSA,A,3,21,13,26,27,,,,,,,,,0.98,0.55,0.82,3*08
$GNGSA,A,3,23,09,06,16,07,40,28,39,43,25,37,,0.98,0.55,0.82,4*01
$GPGSV,4,1,15,195,65,112,42,194,64,053,40,21,63,152,43,50,60,167,37,1*63
$GPGSV,4,2,15,08,60,000,45,199,60,167,35,02,51,176,45,07,44,315,41,1*5A
$GPGSV,4,3,15,27,31,037,32,16,26,078,44,09,22,243,18,196,19,168,15,1*51
$GPGSV,4,4,15,04,16,201,22,30,13,319,,26,06,102,16,1*5C
$GPGSV,2,1,08,195,65,112,46,194,64,053,44,08,60,000,47,199,60,167,44,8*5A
$GPGSV,2,2,08,27,31,037,36,196,19,168,24,04,16,201,26,26,06,102,15,8*5D
$GLGSV,2,1,06,81,69,205,44,78,58,044,40,88,52,029,39,79,28,336,43,1*79
$GLGSV,2,2,06,77,22,114,19,82,18,206,17,1*73
$GAGSV,2,1,06,21,55,016,41,13,54,076,42,26,46,171,42,27,28,082,42,7*77
$GAGSV,2,2,06,19,26,239,,15,12,037,,7*72
$GAGSV,1,1,04,21,55,016,41,13,54,076,43,26,46,171,43,27,28,082,41,1*73
$GBGSV,4,1,13,23,75,040,44,09,72,261,42,06,70,214,43,16,66,199,44,1*7E
$GBGSV,4,2,13,07,60,310,38,40,60,330,44,28,58,224,44,39,56,188,44,1*73
$GBGSV,4,3,13,43,56,035,41,10,51,291,15,25,35,120,40,37,32,322,42,1*79
$GBGSV,4,4,13,34,09,040,,1*4E
$GBGSV,2,1,07,23,75,040,46,40,60,330,43,28,58,224,42,39,56,188,41,4*7F
$GBGSV,2,2,07,43,56,035,42,25,35,120,40,37,32,322,39,4*4A
$GNACCURACY,3.6*13
$PAIRSAT,1,35,2,0,201,3,0,200,4,0,221,5,0,200,6,0,200,7,0,201,8,0,221,9,0,220,10,0,200,11,0,200,12,0,200,13,0,200,14,0,200,15,0,200,16,0,201,17,0,200,18,0,200,19,0,200,20,0,200,21,0,201,22,0,200,23,0,200,24,0,200,25,0,200,26,0,220,27,0,221,28,0,200,29,0,200,30,0,221,31,0,200,32,0,200,194,0,621,195,0,621,196,0,620,199,0,621*5A
$PAIRSAT,2,24,65,0,200,66,0,200,67,0,200,68,0,200,69,0,200,70,0,200,71,0,200,72,0,200,73,0,200,74,0,200,75,0,200,76,0,200,77,0,201,78,0,201,79,0,201,80,0,200,81,0,201,82,0,201,83,0,200,84,0,200,85,0,200,86,0,200,87,0,200,88,0,201*7A
$PAIRSAT,3,23,2,0,1200,3,0,1200,4,0,1200,5,0,200,7,0,1200,8,0,1200,9,0,1200,10,0,1200,11,0,1200,12,0,1200,13,0,1221,15,0,1220,19,0,1201,21,0,1221,24,0,1200,25,0,1200,26,0,1221,27,0,1221,30,0,1200,31,0,1200,33,0,1200,34,0,1000,36,0,1200*6B
$PAIRSAT,4,46,1,0,200,2,0,200,3,0,600,4,0,200,5,0,200,6,0,201,7,0,201,8,0,200,9,0,201,10,0,201,11,0,200,12,0,200,13,0,200,14,0,200,16,0,201,19,0,600,20,0,600,21,0,600,22,0,600,23,0,621,24,0,600,25,0,621,26,0,600,27,0,600,28,0,621,29,0,600,30,0,600,32,0,600,33,0,600,34,0,621,35,0,600,36,0,600,37,0,621,38,0,600,39,0,621,40,0,621,41,0,600,42,0,600,43,0,621,44,0,400,45,0,400,46,0,400,59,0,400,60,0,400,61,0,400,62,0,400*4A
$PAIRDGP,10,2,4,7,8,9,16,21,26,27,30*42
$GNGGA,041543.200,2500.7933068,N,12132.4397913,E,4,49,0.55,16.783,M,15.25,M,1,3335*46
$GNRMC,041543.200,A,2500.7933068,N,12132.4397913,E,0.01,323.05,090324,,,R,V*10
$GPHDT,6.094,T*3E
$GNACCURACY,3.6*13
$GNGGA,041543.300,2500.7933063,N,12132.4397927,E,4,49,0.55,16.786,M,15.25,M,1,3335*4E
$GNRMC,041543.300,A,2500.7933063,N,12132.4397927,E,0.00,323.05,090324,,,R,V*1C
$GPHDT,,T*1B
$GNACCURACY,3.6*13
$GNGGA,041543.400,2500.7933071,N,12132.4397933,E,4,49,0.55,16.789,M,15.25,M,1,3335*40
$GNRMC,041543.400,A,2500.7933071,N,12132.4397933,E,0.00,323.05,090324,,,R,V*1D
$GPHDT,6.036,T*36
$GNACCURACY,3.6*13
$GNGGA,041543.500,2500.7933067,N,12132.4397911,E,4,49,0.55,16.779,M,15.25,M,0,3335*48
$GNRMC,041543.500,A,2500.7933067,N,12132.4397911,E,0.00,323.05,090324,,,R,V*1B
$GPHDT,,T*1B
$GNACCURACY,3.6*13
$GNGGA,041543.600,2500.7933073,N,12132.4397934,E,4,49,0.55,16.790,M,15.25,M,0,3335*4E
$GNRMC,041543.600,A,2500.7933073,N,12132.4397934,E,0.00,323.05,090324,,,R,V*1A
$GPHDT,5.993,T*33
$GNACCURACY,3.6*13
$GNGGA,041543.700,2500.7933061,N,12132.4397902,E,4,49,0.55,16.770,M,15.25,M,0,3335*47
$GNRMC,041543.700,A,2500.7933061,N,12132.4397902,E,0.00,323.05,090324,,,R,V*1D
$GPHDT,,T*1B
$GNACCURACY,3.6*13
$GNGGA,041543.800,2500.7933069,N,12132.4397937,E,4,49,0.55,16.786,M,15.25,M,0,3335*4F
$GNRMC,041543.800,A,2500.7933069,N,12132.4397937,E,0.00,323.05,090324,,,R,V*1C
$GPHDT,5.693,T*3C
$GNACCURACY,3.6*13
$GNGGA,041543.900,2500.7933068,N,12132.4397902,E,4,49,0.55,16.781,M,15.25,M,0,3335*4E
$GNRMC,041543.900,A,2500.7933068,N,12132.4397902,E,0.00,323.05,090324,,,R,V*1A
$GPHDT,,T*1B
$GNACCURACY,3.6*13
$GNGGA,041544.000,2500.7933061,N,12132.4397928,E,4,49,0.55,16.772,M,15.25,M,1,3335*4C
$GNRMC,041544.000,A,2500.7933061,N,12132.4397928,E,0.00,323.05,090324,,,R,V*15
$GPHDT,5.696,T*39
$GNACCURACY,3.6*13
$GNGGA,041544.100,2500.7933076,N,12132.4397907,E,4,49,0.55,16.775,M,15.25,M,1,3335*41
$GNRMC,041544.100,A,2500.7933076,N,12132.4397907,E,0.00,323.05,090324,,,R,V*1F
$GPHDT,,T*1B
$GNGSA,A,3,195,194,21,08,199,02,07,27,16,09,196,04,0.98,0.55,0.82,1*05
$GNGSA,A,3,81,78,88,79,77,82,,,,,,,0.98,0.55,0.82,2*0B
$GNGSA,A,3,21,13,26,27,,,,,,,,,0.98,0.55,0.82,3*08
$GNGSA,A,3,23,09,06,16,07,40,28,39,43,25,37,,0.98,0.55,0.82,4*01
$GPGSV,4,1,15,195,65,112,42,194,64,053,40,21,63,152,43,50,60,167,37,1*63
$GPGSV,4,2,15,08,60,000,45,199,60,167,35,02,51,176,45,07,44,315,41,1*5A
$GPGSV,4,3,15,27,31,037,32,16,26,078,44,09,22,243,19,196,19,168,13,1*56
$GPGSV,4,4,15,04,16,201,23,30,13,319,24,26,06,102,17,1*5A
$GPGSV,3,1,09,195,65,112,46,194,64,053,44,08,60,000,47,199,60,167,44,8*5A
$GPGSV,3,2,09,27,31,037,36,196,19,168,25,04,16,201,27,30,13,319,28,8*58
$GPGSV,3,3,09,26,06,102,13,8*57
$GLGSV,2,1,06,81,69,205,44,78,58,044,40,88,52,029,39,79,28,336,43,1*79
$GLGSV,2,2,06,77,22,114,19,82,18,206,17,1*73
$GAGSV,2,1,06,21,55,016,41,13,54,076,42,26,46,171,42,27,28,082,41,7*74
$GAGSV,2,2,06,19,26,239,,15,12,037,,7*72
$GAGSV,1,1,04,21,55,016,41,13,54,076,43,26,46,171,43,27,28,082,41,1*73
$GBGSV,4,1,13,23,75,041,44,09,72,261,42,06,70,214,43,16,66,199,44,1*7F
$GBGSV,4,2,13,07,60,310,38,40,60,330,44,28,58,225,44,39,56,188,44,1*72
$GBGSV,4,3,13,43,56,035,41,10,51,291,13,25,35,120,40,37,32,322,42,1*7F
$GBGSV,4,4,13,34,09,040,,1*4E
$GBGSV,2,1,07,23,75,041,46,40,60,330,43,28,58,225,42,39,56,188,41,4*7F
$GBGSV,2,2,07,43,56,035,42,25,35,120,40,37,32,322,38,4*4B
$GNACCURACY,3.6*13
$PAIRSAT,1,35,2,0,201,3,0,200,4,0,221,5,0,200,6,0,200,7,0,201,8,0,221,9,0,220,10,0,200,11,0,200,12,0,200,13,0,200,14,0,200,15,0,200,16,0,201,17,0,200,18,0,200,19,0,200,20,0,200,21,0,201,22,0,200,23,0,200,24,0,200,25,0,200,26,0,220,27,0,221,28,0,200,29,0,200,30,0,221,31,0,200,32,0,200,194,0,621,195,0,621,196,0,620,199,0,621*5A
$PAIRSAT,2,24,65,0,200,66,0,200,67,0,200,68,0,200,69,0,200,70,0,200,71,0,200,72,0,200,73,0,200,74,0,200,75,0,200,76,0,200,77,0,201,78,0,201,79,0,201,80,0,200,81,0,201,82,0,201,83,0,200,84,0,200,85,0,200,86,0,200,87,0,200,88,0,201*7A
$PAIRSAT,3,23,2,0,1200,3,0,1200,4,0,1200,5,0,200,7,0,1200,8,0,1200,9,0,1200,10,0,1200,11,0,1200,12,0,1200,13,0,1221,15,0,1220,19,0,1201,21,0,1221,24,0,1200,25,0,1200,26,0,1221,27,0,1221,30,0,1200,31,0,1200,33,0,1200,34,0,1000,36,0,1200*6B
$PAIRSAT,4,46,1,0,200,2,0,200,3,0,600,4,0,200,5,0,200,6,0,201,7,0,201,8,0,200,9,0,201,10,0,201,11,0,200,12,0,200,13,0,200,14,0,200,16,0,201,19,0,600,20,0,600,21,0,600,22,0,600,23,0,621,24,0,600,25,0,621,26,0,600,27,0,600,28,0,621,29,0,600,30,0,600,32,0,600,33,0,600,34,0,621,35,0,600,36,0,600,37,0,621,38,0,600,39,0,621,40,0,621,41,0,600,42,0,600,43,0,621,44,0,400,45,0,400,46,0,400,59,0,400,60,0,400,61,0,400,62,0,400*4A
$PAIRDGP,10,2,4,7,8,9,16,21,26,27,30*42
$GNGGA,041544.200,2500.7933067,N,12132.4397917,E,4,49,0.55,16.778,M,15.25,M,1,3335*4E
$GNRMC,041544.200,A,2500.7933067,N,12132.4397917,E,0.00,323.05,090324,,,R,V*1D
$GPHDT,5.837,T*3C
$GNACCURACY,3.6*13
$GNGGA,041544.300,2500.7933070,N,12132.4397923,E,4,51,0.52,16.779,M,15.25,M,1,3335*41
$GNRMC,041544.300,A,2500.7933070,N,12132.4397923,E,0.00,323.05,090324,,,R,V*1D
$GPHDT,,T*1B
$GNACCURACY,3.6*13
$GNGGA,041544.400,2500.7933074,N,12132.4397899,E,4,51,0.52,16.769,M,15.25,M,1,3335*43
$GNRMC,041544.400,A,2500.7933074,N,12132.4397899,E,0.00,323.05,090324,,,R,V*1E
$GPHDT,6.202,T*33
$GNACCURACY,3.6*13
$GNGGA,041544.500,2500.7933078,N,12132.4397901,E,4,51,0.52,16.780,M,15.25,M,0,3335*48
$GNRMC,041544.500,A,2500.7933078,N,12132.4397901,E,0.00,323.05,090324,,,R,V*13
$GPHDT,,T*1B
$GNACCURACY,3.6*13
$GNGGA,041544.600,2500.7933077,N,12132.4397895,E,4,52,0.52,16.770,M,15.25,M,0,3335*44
$GNRMC,041544.600,A,2500.7933077,N,12132.4397895,E,0.01,323.05,090324,,,R,V*12
$GPHDT,6.198,T*33
