$FW : RTK35X,V1.1X0314AS,Lib20210517,1*54
$Tool : LOCOSYS , GNSS Firebird , v1.0.0.19*39
$---------------------------------------------------*2D
3016,N,12132.4397693,E,4,50,0.55,16.767,M,15.25,M,0,3335*4A
$GNRMC,041547.700,A,2500.7933016,N,12132.4397693,E,0.01,323.05,090324,,,R,V*1F
$GPHDT,,T*1B
$GNACCURACY,3.6*13
$GNGGA,041547.800,2500.7933014,N,12132.4397700,E,4,50,0.55,16.768,M,15.25,M,0,3335*43
$GNRMC,041547.800,A,2500.7933014,N,12132.4397700,E,0.01,323.05,090324,,,R,V*19
$GPHDT,317.087,T*3F
$GNACCURACY,3.6*13
$GNGGA,041547.900,2500.7933015,N,12132.4397679,E,4,50,0.55,16.769,M,15.25,M,0,3335*4D
$GNRMC,041547.900,A,2500.7933015,N,12132.4397679,E,0.01,323.05,090324,,,R,V*16
$GPHDT,,T*1B
$GNACCURACY,3.6*13
$GNGGA,041548.000,2500.7933022,N,12132.4397706,E,4,50,0.55,16.772,M,15.25,M,1,3335*4D
$GNRMC,041548.000,A,2500.7933022,N,12132.4397706,E,0.01,323.05,090324,,,R,V*1D
$GPHDT,317.309,T*3A
$GNACCURACY,3.6*13
$GNGGA,041548.100,2500.7933013,N,12132.4397680,E,4,50,0.55,16.767,M,15.25,M,1,3335*45
$GNRMC,041548.100,A,2500.7933013,N,12132.4397680,E,0.01,323.05,090324,,,R,V*11
$GPHDT,,T*1B
$GNGSA,A,3,195,194,21,08,199,02,07,27,16,196,04,,1.02,0.55,0.86,1*0A
$GNGSA,A,3,81,78,88,79,77,82,,,,,,,1.02,0.55,0.86,2*0D
$GNGSA,A,3,21,13,26,27,,,,,,,,,1.02,0.55,0.86,3*0E
$GNGSA,A,3,23,09,06,16,07,40,28,39,43,10,25,37,1.02,0.55,0.86,4*06
$GPGSV,4,1,15,195,65,112,42,194,64,053,41,21,63,152,42,50,60,167,39,1*6D
$GPGSV,4,2,15,08,60,000,46,199,60,167,36,02,52,176,45,07,44,315,42,1*5A
$GPGSV,4,3,15,27,31,037,41,16,26,078,43,09,22,243,14,196,19,168,22,1*5A
$GPGSV,4,4,15,04,15,201,25,30,13,319,18,26,06,102,15,1*52
$GPGSV,2,1,07,195,65,112,44,194,64,053,44,08,60,000,43,199,60,167,45,8*52
$GPGSV,2,2,07,27,31,037,39,196,19,168,19,04,15,201,20,8*63
$GLGSV,2,1,06,81,69,205,43,78,58,044,43,88,52,029,44,79,28,336,32,1*71
$GLGSV,2,2,06,77,22,114,17,82,18,206,17,1*7D
$GAGSV,2,1,06,21,55,016,43,13,54,076,42,26,46,171,39,27,28,082,42,7*79
$GAGSV,2,2,06,19,26,239,,15,12,037,,7*72
$GAGSV,1,1,04,21,55,016,42,13,54,076,45,26,46,171,44,27,28,082,37,1*70
$GBGSV,4,1,13,23,75,041,45,09,72,261,42,06,70,214,39,16,66,199,42,1*75
$GBGSV,4,2,13,07,60,310,41,40,60,331,43,28,58,225,41,39,56,188,43,1*78
$GBGSV,4,3,13,43,56,035,46,10,51,291,21,25,35,120,41,37,32,322,38,1*75
$GBGSV,4,4,13,34,09,040,,1*4E
$GBGSV,2,1,07,23,75,041,46,40,60,331,43,28,58,225,40,39,56,188,37,4*7D
$GBGSV,2,2,07,43,56,035,45,25,35,120,39,37,32,322,31,4*4B
$GNACCURACY,3.6*13
$PAIRSAT,1,35,2,0,201,3,0,200,4,0,221,5,0,200,6,0,200,7,0,201,8,0,221,9,0,220,10,0,200,11,0,200,12,0,200,13,0,200,14,0,200,15,0,200,16,0,201,17,0,200,18,0,200,19,0,200,20,0,200,21,0,201,22,0,200,23,0,200,24,0,200,25,0,200,26,0,220,27,0,221,28,0,200,29,0,200,30,0,221,31,0,200,32,0,200,194,0,621,195,0,621,196,0,620,199,0,621*5A
$PAIRSAT,2,24,65,0,200,66,0,200,67,0,200,68,0,200,69,0,200,70,0,200,71,0,200,72,0,200,73,0,200,74,0,200,75,0,200,76,0,200,77,0,201,78,0,201,79,0,201,80,0,200,81,0,201,82,0,201,83,0,200,84,0,200,85,0,200,86,0,200,87,0,200,88,0,201*7A
$PAIRSAT,3,23,2,0,1200,3,0,1200,4,0,1200,5,0,200,7,0,1200,8,0,1200,9,0,1200,10,0,1200,11,0,1200,12,0,1200,13,0,1221,15,0,1220,19,0,1201,21,0,1221,24,0,1200,25,0,1200,26,0,1221,27,0,1221,30,0,1200,31,0,1200,33,0,1200,34,0,1000,36,0,1200*6B
$PAIRSAT,4,46,1,0,200,2,0,200,3,0,600,4,0,200,5,0,200,6,0,201,7,0,201,8,0,200,9,0,201,10,0,201,11,0,200,12,0,200,13,0,200,14,0,200,16,0,201,19,0,600,20,0,600,21,0,600,22,0,600,23,0,621,24,0,600,25,0,621,26,0,600,27,0,600,28,0,621,29,0,600,30,0,600,32,0,600,33,0,600,34,0,621,35,0,600,36,0,600,37,0,621,38,0,600,39,0,621,40,0,621,41,0,600,42,0,600,43,0,621,44,0,400,45,0,400,46,0,400,59,0,400,60,0,400,61,0,400,62,0,400*4A
$PAIRDGP,10,2,4,7,8,9,16,21,26,27,30*42
$GNGGA,041548.200,2500.7933023,N,12132.4397682,E,4,50,0.55,16.768,M,15.25,M,1,3335*48
$GNRMC,041548.200,A,2500.7933023,N,12132.4397682,E,0.01,323.05,090324,,,R,V*13
$GPHDT,316.987,T*37
$GNACCURACY,3.6*13
$GNGGA,041548.300,2500.7933026,N,12132.4397674,E,4,50,0.55,16.768,M,15.25,M,1,3335*45
$GNRMC,041548.300,A,2500.7933026,N,12132.4397674,E,0.01,323.05,090324,,,R,V*1E
$GPHDT,,T*1B
$GNACCURACY,3.6*13
$GNGGA,041548.400,2500.7933013,N,12132.4397692,E,4,50,0.55,16.765,M,15.25,M,1,3335*41
$GNRMC,041548.400,A,2500.7933013,N,12132.4397692,E,0.01,323.05,090324,,,R,V*17
$GPHDT,317.643,T*31
$GNACCURACY,3.6*13
$GNGGA,041548.500,2500.7933020,N,12132.4397677,E,4,50,0.55,16.764,M,15.25,M,1,3335*4A
$GNRMC,041548.500,A,2500.7933020,N,12132.4397677,E,0.01,323.05,090324,,,R,V*1D
$GPHDT,,T*1B
$GNACCURACY,3.6*13
$GNGGA,041548.600,2500.7933022,N,12132.4397682,E,4,50,0.55,16.772,M,15.25,M,1,3335*46
$GNRMC,041548.600,A,2500.7933022,N,12132.4397682,E,0.01,323.05,090324,,,R,V*16
$GPHDT,317.692,T*3D
$GNACCURACY,3.6*13
$GNGGA,041548.700,2500.7933006,N,12132.4397672,E,4,50,0.55,16.768,M,15.25,M,1,3335*45
$GNRMC,041548.700,A,2500.7933006,N,12132.4397672,E,0.01,323.05,090324,,,R,V*1E
$GPHDT,,T*1B
$GNACCURACY,3.6*13
$GNGGA,041548.800,2500.7933004,N,12132.4397671,E,4,51,0.52,16.763,M,15.25,M,0,3335*47
$GNRMC,041548.800,A,2500.7933004,N,12132.4397671,E,0.01,323.05,090324,,,R,V*10
$GPHDT,318.050,T*3A
$GNACCURACY,3.6*13
$GNGGA,041548.900,2500.7933024,N,12132.4397686,E,4,49,0.57,16.772,M,15.25,M,0,3335*40
$GNRMC,041548.900,A,2500.7933024,N,12132.4397686,E,0.01,323.05,090324,,,R,V*1B
$GPHDT,,T*1B
$GNACCURACY,3.6*13
$GNGGA,041549.000,2500.7933018,N,12132.4397684,E,4,50,0.55,16.769,M,15.25,M,1,3335*44
$GNRMC,041549.000,A,2500.7933018,N,12132.4397684,E,0.01,323.05,090324,,,R,V*1E
$GPHDT,317.594,T*38
$GNACCURACY,3.6*13
$GNGGA,041549.100,2500.7933040,N,12132.4397699,E,4,50,0.55,16.771,M,15.25,M,1,3335*4D
$GNRMC,041549.100,A,2500.7933040,N,12132.4397699,E,0.01,323.05,090324,,,R,V*1E
$GPHDT,,T*1B
$GNGSA,A,3,195,194,21,199,08,02,07,27,16,196,04,,1.02,0.55,0.86,1*0A
$GNGSA,A,3,81,78,88,79,77,82,,,,,,,1.02,0.55,0.86,2*0D
$GNGSA,A,3,21,13,26,27,,,,,,,,,1.02,0.55,0.86,3*0E
$GNGSA,A,3,23,09,06,16,07,40,28,43,39,10,25,37,1.02,0.55,0.86,4*06
$GPGSV,4,1,15,195,65,112,42,194,64,053,41,21,63,152,42,199,60,167,36,1*56
$GPGSV,4,2,15,08,60,000,46,50,60,167,39,02,52,176,46,07,44,315,42,1*62
$GPGSV,4,3,15,27,31,037,41,16,26,078,42,09,22,243,13,196,19,168,20,1*5E
$GPGSV,4,4,15,04,15,201,25,30,13,319,19,26,06,102,13,1*55
$GPGSV,2,1,07,195,65,112,44,194,64,053,45,08,60,000,43,199,60,167,45,8*53
$GPGSV,2,2,07,27,31,037,40,196,19,168,18,04,15,201,20,8*6C
$GLGSV,2,1,06,81,69,205,42,78,58,044,44,88,52,029,44,79,28,336,31,1*74
$GLGSV,2,2,06,77,22,114,15,82,18,206,17,1*7F
$GAGSV,2,1,07,21,55,016,43,13,54,076,42,26,46,171,40,27,28,082,42,7*76
$GAGSV,2,2,07,19,26,239,,15,12,037,,04,12,297,,7*48
$GAGSV,1,1,04,21,55,016,42,13,54,076,45,26,46,171,44,27,28,082,39,1*7E
$GBGSV,4,1,13,23,75,041,45,09,72,261,42,06,70,214,39,16,66,199,42,1*75
$GBGSV,4,2,13,07,60,310,41,40,60,331,42,28,58,225,41,43,56,035,46,1*76
$GBGSV,4,3,13,39,56,188,42,10,51,291,21,25,35,120,40,37,32,322,40,1*75
$GBGSV,4,4,13,34,09,040,,1*4E
$GBGSV,2,1,07,23,75,041,46,40,60,331,43,28,58,225,42,39,56,188,39,4*71
$GBGSV,2,2,07,43,56,035,45,25,35,120,38,37,32,322,35,4*4E
$GNACCURACY,3.6*13
$PAIRSAT,1,35,2,0,201,3,0,200,4,0,221,5,0,200,6,0,200,7,0,201,8,0,221,9,0,220,10,0,200,11,0,200,12,0,200,13,0,200,14,0,200,15,0,200,16,0,201,17,0,200,18,0,200,19,0,200,20,0,200,21,0,201,22,0,200,23,0,200,24,0,200,25,0,200,26,0,220,27,0,221,28,0,200,29,0,200,30,0,221,31,0,200,32,0,200,194,0,621,195,0,621,196,0,620,199,0,621*5A
$PAIRSAT,2,24,65,0,200,66,0,200,67,0,200,68,0,200,69,0,200,70,0,200,71,0,200,72,0,200,73,0,200,74,0,200,75,0,200,76,0,200,77,0,201,78,0,201,79,0,201,80,0,200,81,0,201,82,0,201,83,0,200,84,0,200,85,0,200,86,0,200,87,0,200,88,0,201*7A
$PAIRSAT,3,23,2,0,1200,3,0,1200,4,0,1200,5,0,200,7,0,1200,8,0,1200,9,0,1200,10,0,1200,11,0,1200,12,0,1200,13,0,1221,15,0,1220,19,0,1201,21,0,1221,24,0,1200,25,0,1200,26,0,1221,27,0,1221,30,0,1200,31,0,1200,33,0,1200,34,0,1000,36,0,1200*6B
$PAIRSAT,4,46,1,0,200,2,0,200,3,0,600,4,0,200,5,0,200,6,0,201,7,0,201,8,0,200,9,0,201,10,0,201,11,0,200,12,0,200,13,0,200,14,0,200,16,0,201,19,0,600,20,0,600,21,0,600,22,0,600,23,0,621,24,0,600,25,0,621,26,0,600,27,0,600,28,0,621,29,0,600,30,0,600,32,0,600,33,0,600,34,0,621,35,0,600,36,0,600,37,0,621,38,0,600,39,0,621,40,0,621,41,0,600,42,0,600,43,0,621,44,0,400,45,0,400,46,0,400,59,0,400,60,0,400,61,0,400,62,0,400*4A
$PAIRDGP,10,2,4,7,8,9,16,21,26,27,30*42
$GNGGA,041549.200,2500.7933028,N,12132.4397693,E,4,50,0.55,16.767,M,15.25,M,1,3335*4D
$GNRMC,041549.200,A,2500.7933028,N,12132.4397693,E,0.01,323.05,090324,,,R,V*19
$GPHDT,317.360,T*35
$GNACCURACY,3.6*13
$GNGGA,041549.300,2500.7933017,N,12132.4397655,E,4,50,0.55,16.770,M,15.25,M,1,3335*4C
$GNRMC,041549.300,A,2500.7933017,N,12132.4397655,E,0.01,323.05,090324,,,R,V*1E
$GPHDT,,T*1B
$GNACCURACY,3.6*13
$GNGGA,041549.400,2500.7933013,N,12132.4397652,E,4,50,0.55,16.765,M,15.25,M,1,3335*4C
$GNRMC,041549.400,A,2500.7933013,N,12132.4397652,E,0.01,323.05,090324,,,R,V*1A
$GPHDT,317.494,T*39
$GNACCURACY,3.6*13
$GNGGA,041549.500,2500.7933021,N,12132.4397679,E,4,50,0.55,16.763,M,15.25,M,0,3335*42
$GNRMC,041549.500,A,2500.7933021,N,12132.4397679,E,0.01,323.05,090324,,,R,V*13
$GPHDT,,T*1B
$GNACCURACY,3.6*13
$GNGGA,041549.600,2500.7933007,N,12132.4397659,E,4,50,0.55,16.749,M,15.25,M,0,3335*4F
$GNRMC,041549.600,A,2500.7933007,N,12132.4397659,E,0.01,323.05,090324,,,R,V*16
$GPHDT,317.726,T*33
$GNACCURACY,3.6*13
$GNGGA,041549.700,2500.7933031,N,12132.4397684,E,4,50,0.55,16.753,M,15.25,M,0,3335*40
$GNRMC,041549.700,A,2500.7933031,N,12132.4397684,E,0.01,323.05,090324,,,R,V*12
$GPHDT,,T*1B
$GNACCURACY,3.6*13
$GNGGA,041549.800,2500.7933029,N,12132.4397671,E,4,49,0.57,16.763,M,15.25,M,0,3335*45
$GNRMC,041549.800,A,2500.7933029,N,12132.4397671,E,0.01,323.05,090324,,,R,V*1E
$GPHDT,317.432,T*35
$GNACCURACY,3.6*13
$GNGGA,041549.900,2500.7933021,N,12132.4397676,E,4,48,0.57,16.766,M,15.25,M,0,3335*4F
$GNRMC,041549.900,A,2500.7933021,N,12132.4397676,E,0.01,323.05,090324,,,R,V*10
$GPHDT,,T*1B
$GNACCURACY,3.6*13
$GNGGA,041550.000,2500.7933026,N,12132.4397662,E,4,48,0.57,16.763,M,15.25,M,1,3335*48
$GNRMC,041550.000,A,2500.7933026,N,12132.4397662,E,0.01,323.05,090324,,,R,V*13
$GPHDT,317.672,T*33
$GNACCURACY,3.6*13
$GNGGA,041550.100,2500.7933031,N,12132.4397674,E,4,49,0.57,16.768,M,15.25,M,1,3335*42
$GNRMC,041550.100,A,2500.7933031,N,12132.4397674,E,0.01,323.05,090324,,,R,V*13
$GPHDT,,T*1B
$GNGSA,A,3,195,194,21,199,08,02,07,27,16,196,04,,1.03,0.57,0.86,1*09
$GNGSA,A,3,81,78,88,79,77,82,,,,,,,1.03,0.57,0.86,2*0E
$GNGSA,A,3,21,13,26,27,,,,,,,,,1.03,0.57,0.86,3*0D
$GNGSA,A,3,23,09,06,16,40,07,28,39,43,25,37,,1.03,0.57,0.86,4*04
$GPGSV,4,1,15,195,65,112,42,194,64,053,41,21,63,152,42,199,60,167,33,1*53
$GPGSV,4,2,15,08,60,000,46,50,60,167,35,02,52,176,46,07,44,315,42,1*6E
$GPGSV,4,3,15,27,31,037,42,16,26,078,41,09,22,243,12,196,19,168,21,1*5E
$GPGSV,4,4,15,04,15,201,25,30,13,319,17,26,06,102,13,1*5B
$GPGSV,2,1,07,195,65,112,44,194,64,053,44,08,60,000,45,199,60,167,45,8*54
$GPGSV,2,2,07,27,31,037,40,196,19,168,22,04,15,201,24,8*61
$GLGSV,2,1,06,81,69,205,44,78,58,044,44,88,52,029,44,79,28,336,34,1*77
$GLGSV,2,2,06,77,22,114,15,82,18,206,17,1*7F
$GAGSV,2,1,07,21,55,016,43,13,54,076,42,26,46,171,41,27,28,082,42,7*77
$GAGSV,2,2,07,19,26,239,,15,12,037,,04,12,297,,7*48
$GAGSV,1,1,04,21,55,016,42,13,54,076,45,26,46,171,44,27,28,082,40,1*70
$GBGSV,4,1,15,23,75,041,46,09,72,261,42,06,70,214,40,16,66,199,43,1*7F
$GBGSV,4,2,15,40,60,331,42,07,60,310,39,28,58,225,42,39,56,188,43,1*73
$GBGSV,4,3,15,43,56,035,47,10,51,291,20,25,35,120,40,37,32,322,40,1*7D
$GBGSV,4,4,15,27,12,221,,38,11,168,,34,09,040,,1*4B
$GBGSV,2,1,07,23,75,041,47,40,60,331,43,28,58,225,43,39,56,188,43,4*7C
$GBGSV,2,2,07,43,56,035,45,25,35,120,40,37,32,322,29,4*4C
$GNACCURACY,3.6*13
$PAIRSAT,1,35,2,0,201,3,0,200,4,0,221,5,0,200,6,0,200,7,0,201,8,0,221,9,0,220,10,0,200,11,0,200,12,0,200,13,0,200,14,0,200,15,0,200,16,0,201,17,0,200,18,0,200,19,0,200,20,0,200,21,0,201,22,0,200,23,0,200,24,0,200,25,0,200,26,0,220,27,0,221,28,0,200,29,0,200,30,0,221,31,0,200,32,0,200,194,0,621,195,0,621,196,0,620,199,0,621*5A
$PAIRSAT,2,24,65,0,200,66,0,200,67,0,200,68,0,200,69,0,200,70,0,200,71,0,200,72,0,200,73,0,200,74,0,200,75,0,200,76,0,200,77,0,201,78,0,201,79,0,201,80,0,200,81,0,201,82,0,201,83,0,200,84,0,200,85,0,200,86,0,200,87,0,200,88,0,201*7A
$PAIRSAT,3,23,2,0,1200,3,0,1200,4,0,1200,5,0,200,7,0,1200,8,0,1200,9,0,1200,10,0,1200,11,0,1200,12,0,1200,13,0,1221,15,0,1220,19,0,1201,21,0,1221,24,0,1200,25,0,1200,26,0,1221,27,0,1221,30,0,1200,31,0,1200,33,0,1200,34,0,1000,36,0,1200*6B
$PAIRSAT,4,46,1,0,200,2,0,200,3,0,600,4,0,200,5,0,200,6,0,201,7,0,201,8,0,200,9,0,201,10,0,201,11,0,200,12,0,200,13,0,200,14,0,200,16,0,201,19,0,600,20,0,600,21,0,600,22,0,600,23,0,621,24,0,600,25,0,621,26,0,600,27,0,600,28,0,621,29,0,600,30,0,600,32,0,600,33,0,600,34,0,621,35,0,600,36,0,600,37,0,621,38,0,600,39,0,621,40,0,621,41,0,600,42,0,600,43,0,621,44,0,400,45,0,400,46,0,400,59,0,400,60,0,400,61,0,400,62,0,400*4A
$PAIRDGP,10,2,4,7,8,9,16,21,26,27,30*42
$GNGGA,041550.200,2500.7933028,N,12132.4397654,E,4,50,0.57,16.763,M,15.25,M,1,3335*48
$GNRMC,041550.200,A,2500.7933028,N,12132.4397654,E,0.01,323.05,090324,,,R,V*1A
$GPHDT,317.846,T*3A
$GNACCURACY,3.6*13
$GNGGA,041550.300,2500.7933027,N,12132.4397661,E,4,50,0.57,16.763,M,15.25,M,1,3335*40
$GNRMC,041550.300,A,2500.7933027,N,12132.4397661,E,0.01,323.05,090324,,,R,V*12
$GPHDT,,T*1B
$GNACCURACY,3.6*13
$GNGGA,041550.400,2500.7933024,N,12132.4397682,E,4,50,0.57,16.764,M,15.25,M,1,3335*4E
$GNRMC,041550.400,A,2500.7933024,N,12132.4397682,E,0.00,323.05,090324,,,R,V*1A
$GPHDT,317.960,T*3F
$GNACCURACY,3.6*13
$GNGGA,041550.500,2500.7933003,N,12132.4397672,E,4,49,0.57,16.753,M,15.25,M,1,3335*49
$GNRMC,041550.500,A,2500.7933003,N,12132.4397672,E,0.00,323.05,090324,,,R,V*11
$GPHDT,,T*1B
$GNACCURACY,3.6*13
$GNGGA,041550.600,2500.7932981,N,12132.4397682,E,4,50,0.57,16.758,M,15.25,M,1,3335*44
$GNRMC,041550.600,A,2500.7932981,N,12132.4397682,E,0.00,323.05,090324,,,R,V*1F
$GPHDT,318.045,T*3E
$GNACCURACY,3.6*13
$GNGGA,041550.700,2500.7933006,N,12132.4397646,E,4,50,0.57,16.757,M,15.25,M,0,3335*44
$GNRMC,041550.700,A,2500.7933006,N,12132.4397646,E,0.00,323.05,090324,,,R,V*11
$GPHDT,,T*1B
$GNACCURACY,3.6*13
$GNGGA,041550.800,2500.7932990,N,12132.4397655,E,4,50,0.57,16.770,M,15.25,M,0,3335*4B
$GNRMC,041550.800,A,2500.7932990,N,12132.4397655,E,0.00,323.05,090324,,,R,V*1B
$GPHDT,317.884,T*34
$GNACCURACY,3.6*13
$GNGGA,041550.900,2500.7933007,N,12132.4397659,E,4,50,0.57,16.767,M,15.25,M,0,3335*46
$GNRMC,041550.900,A,2500.7933007,N,12132.4397659,E,0.00,323.05,090324,,,R,V*10
$GPHDT,,T*1B
$GNACCURACY,3.6*13
$GNGGA,041551.000,2500.7933013,N,12132.4397662,E,4,49,0.57,16.765,M,15.25,M,1,3335*48
$GNRMC,041551.000,A,2500.7933013,N,12132.4397662,E,0.00,323.05,090324,,,R,V*15
$GPHDT,317.546,T*37
$GNACCURACY,3.6*13
$GNGGA,041551.100,2500.7933017,N,12132.4397677,E,4,49,0.57,16.729,M,15.25,M,1,3335*41
$GNRMC,041551.100,A,2500.7933017,N,12132.4397677,E,0.00,323.05,090324,,,R,V*14
$GPHDT,,T*1B
$GNGSA,A,3,195,194,21,199,08,02,07,27,16,196,04,,1.03,0.57,0.86,1*09
$GNGSA,A,3,81,78,88,79,77,82,,,,,,,1.03,0.57,0.86,2*0E
$GNGSA,A,3,21,13,26,27,,,,,,,,,1.03,0.57,0.86,3*0D
$GNGSA,A,3,23,09,06,16,40,07,28,39,43,25,37,,1.03,0.57,0.86,4*04
$GPGSV,4,1,15,195,65,112,42,194,64,053,41,21,63,152,42,199,60,167,35,1*55
$GPGSV,4,2,15,08,60,000,46,50,60,167,37,02,52,176,46,07,44,315,43,1*6D
$GPGSV,4,3,15,27,30,037,42,16,26,078,41,09,22,243,12,196,19,168,19,1*54
$GPGSV,4,4,15,04,15,201,25,30,13,319,17,26,06,102,11,1*59
$GPGSV,2,1,07,195,65,112,45,194,64,053,46,08,60,000,44,199,60,167,45,8*56
$GPGSV,2,2,07,27,30,037,40,196,19,168,18,04,15,201,23,8*6E
$GLGSV,2,1,06,81,69,205,44,78,58,044,45,88,52,029,44,79,28,336,35,1*77
$GLGSV,2,2,06,77,22,114,14,82,18,206,16,1*7F
$GAGSV,2,1,07,21,55,016,42,13,54,076,42,26,46,171,42,27,28,082,42,7*75
$GAGSV,2,2,07,19,26,239,,15,12,037,,04,12,297,,7*48
$GAGSV,1,1,04,21,55,016,42,13,54,076,45,26,46,171,45,27,28,082,40,1*71
$GBGSV,4,1,14,23,75,041,46,09,72,261,43,06,70,214,40,16,66,199,43,1*7F
$GBGSV,4,2,14,40,60,331,42,07,60,310,40,28,58,225,41,39,56,188,41,1*7D
$GBGSV,4,3,14,43,56,035,47,10,51,291,19,25,35,120,41,37,32,322,42,1*75
$GBGSV,4,4,14,38,11,168,,34,09,040,,1*7D
$GBGSV,2,1,07,23,75,041,46,40,60,331,43,28,58,225,42,39,56,188,38,4*70
$GBGSV,2,2,07,43,56,035,45,25,35,120,40,37,32,322,34,4*40
$GNACCURACY,3.7*12
$PAIRSAT,1,35,2,0,201,3,0,200,4,0,221,5,0,200,6,0,200,7,0,201,8,0,221,9,0,220,10,0,200,11,0,200,12,0,200,13,0,200,14,0,200,15,0,200,16,0,201,17,0,200,18,0,200,19,0,200,20,0,200,21,0,201,22,0,200,23,0,200,24,0,200,25,0,200,26,0,220,27,0,221,28,0,200,29,0,200,30,0,221,31,0,200,32,0,200,194,0,621,195,0,621,196,0,620,199,0,621*5A
$PAIRSAT,2,24,65,0,200,66,0,200,67,0,200,68,0,200,69,0,200,70,0,200,71,0,200,72,0,200,73,0,200,74,0,200,75,0,200,76,0,200,77,0,201,78,0,201,79,0,201,80,0,200,81,0,201,82,0,201,83,0,200,84,0,200,85,0,200,86,0,200,87,0,200,88,0,201*7A
$PAIRSAT,3,23,2,0,1200,3,0,1200,4,0,1200,5,0,200,7,0,1200,8,0,1200,9,0,1200,10,0,1200,11,0,1200,12,0,1200,13,0,1221,15,0,1220,19,0,1201,21,0,1221,24,0,1200,25,0,1200,26,0,1221,27,0,1221,30,0,1200,31,0,1200,33,0,1200,34,0,1000,36,0,1200*6B
$PAIRSAT,4,46,1,0,200,2,0,200,3,0,600,4,0,200,5,0,200,6,0,201,7,0,201,8,0,200,9,0,201,10,0,201,11,0,200,12,0,200,13,0,200,14,0,200,16,0,201,19,0,600,20,0,600,21,0,600,22,0,600,23,0,621,24,0,600,25,0,621,26,0,600,27,0,600,28,0,621,29,0,600,30,0,600,32,0,600,33,0,600,34,0,621,35,0,600,36,0,600,37,0,621,38,0,600,39,0,621,40,0,621,41,0,600,42,0,600,43,0,621,44,0,400,45,0,400,46,0,400,59,0,400,60,0,400,61,0,400,62,0,400*4A
$PAIRDGP,10,2,4,7,8,9,16,21,26,27,30*42
$GNGGA,041551.200,2500.7932998,N,12132.4397656,E,4,49,0.57,16.757,M,15.25,M,1,3335*47
$GNRMC,041551.200,A,2500.7932998,N,12132.4397656,E,0.00,323.05,090324,,,R,V*1B
$GPHDT,317.688,T*36
$GNACCURACY,3.7*12
$GNGGA,041551.300,2500.7933005,N,12132.4397674,E,4,49,0.57,16.760,M,15.25,M,1,3335*4E
$GNRMC,041551.300,A,2500.7933005,N,12132.4397674,E,0.00,323.05,090324,,,R,V*16
$GPHDT,,T*1B
$GNACCURACY,3.7*12
$GNGGA,041551.400,2500.7933010,N,12132.4397655,E,4,49,0.57,16.764,M,15.25,M,1,3335*4A
$GNRMC,041551.400,A,2500.7933010,N,12132.4397655,E,0.00,323.05,090324,,,R,V*16
$GPHDT,317.699,T*36
$GNACCURACY,3.7*12
$GNGGA,041551.500,2500.7933012,N,12132.4397666,E,4,50,0.57,16.764,M,15.25,M,1,3335*41
$GNRMC,041551.500,A,2500.7933012,N,12132.4397666,E,0.00,323.05,090324,,,R,V*15
$GPHDT,,T*1B
$GNACCURACY,3.7*12
$GNGGA,041551.600,2500.7933015,N,12132.4397666,E,4,50,0.55,16.766,M,15.25,M,1,3335*45
$GNRMC,041551.600,A,2500.7933015,N,12132.4397666,E,0.00,323.05,090324,,,R,V*11
$GPHDT,318.178,T*31
$GNACCURACY,3.7*12
$GNGGA,041551.700,2500.7933018,N,12132.4397667,E,4,49,0.55,16.766,M,15.25,M,1,3335*40
$GNRMC,041551.700,A,2500.7933018,N,12132.4397667,E,0.00,323.05,090324,,,R,V*1C
$GPHDT,,T*1B
$GNACCURACY,3.7*12
$GNGGA,041551.800,2500.7933028,N,12132.4397680,E,4,49,0.55,16.775,M,15.25,M,0,3335*46
$GNRMC,041551.800,A,2500.7933028,N,12132.4397680,E,0.00,323.05,090324,,,R,V*19
$GPHDT,317.703,T*34
$GNACCURACY,3.7*12
$GNGGA,041551.900,2500.7933035,N,12132.4397647,E,4,48,0.57,16.760,M,15.25,M,0,3335*47
$GNRMC,041551.900,A,2500.7933035,N,12132.4397647,E,0.00,323.05,090324,,,R,V*1F
$GPHDT,,T*1B
$GNACCURACY,3.7*12
$GNGGA,041552.000,2500.7933026,N,12132.4397660,E,4,48,0.57,16.764,M,15.25,M,1,3335*4F
$GNRMC,041552.000,A,2500.7933026,N,12132.4397660,E,0.00,323.05,090324,,,R,V*12
$GPHDT,317.963,T*3C
$GNACCURACY,3.7*12
$GNGGA,041552.100,2500.7933023,N,12132.4397667,E,4,48,0.59,16.768,M,15.25,M,1,3335*4E
$GNRMC,041552.100,A,2500.7933023,N,12132.4397667,E,0.00,323.05,090324,,,R,V*11
$GPHDT,,T*1B
$GNGSA,A,3,195,194,21,199,08,02,07,27,16,196,04,,1.12,0.59,0.95,1*05
$GNGSA,A,3,81,78,88,79,,,,,,,,,1.12,0.59,0.95,2*08
$GNGSA,A,3,21,13,26,27,,,,,,,,,1.12,0.59,0.95,3*01
$GNGSA,A,3,23,09,06,16,07,40,28,43,39,10,25,37,1.12,0.59,0.95,4*09
$GPGSV,4,1,15,195,65,112,42,194,64,053,41,21,63,152,42,199,60,167,35,1*55
$GPGSV,4,2,15,08,60,000,46,50,60,167,37,02,52,176,46,07,44,315,43,1*6D
$GPGSV,4,3,15,27,30,037,41,16,26,078,41,09,22,243,12,196,19,168,18,1*56
$GPGSV,4,4,15,04,15,201,25,30,13,319,19,26,06,102,10,1*56
$GPGSV,2,1,07,195,65,112,45,194,64,053,46,08,60,000,44,199,60,167,44,8*57
$GPGSV,2,2,07,27,30,037,40,196,19,168,21,04,15,201,22,8*65
$GLGSV,2,1,06,81,69,205,43,78,58,044,45,88,52,029,44,79,28,336,31,1*74
$GLGSV,2,2,06,77,22,114,14,82,18,206,13,1*7A
$GAGSV,2,1,07,21,55,016,42,13,54,076,42,26,46,171,42,27,28,082,41,7*76
$GAGSV,2,2,07,19,26,239,,15,12,037,,04,12,297,,7*48
$GAGSV,1,1,04,21,55,016,42,13,54,076,45,26,46,171,45,27,28,082,39,1*7F
$GBGSV,4,1,13,23,75,041,46,09,72,261,43,06,70,214,40,16,66,199,42,1*79
$GBGSV,4,2,13,07,60,310,41,40,60,331,42,28,58,225,41,43,56,035,47,1*77
$GBGSV,4,3,13,39,56,188,40,10,51,291,19,25,35,120,41,37,32,322,42,1*7F
$GBGSV,4,4,13,34,09,040,,1*4E
$GBGSV,2,1,07,23,75,041,46,40,60,331,44,28,58,225,42,39,56,188,38,4*77
$GBGSV,2,2,07,43,56,035,45,25,35,120,40,37,32,322,36,4*42
$GNACCURACY,3.7*12
$PAIRSAT,1,35,2,0,201,3,0,200,4,0,221,5,0,200,6,0,200,7,0,201,8,0,221,9,0,220,10,0,200,11,0,200,12,0,200,13,0,200,14,0,200,15,0,200,16,0,201,17,0,200,18,0,200,19,0,200,20,0,200,21,0,201,22,0,200,23,0,200,24,0,200,25,0,200,26,0,220,27,0,221,28,0,200,29,0,200,30,0,221,31,0,200,32,0,200,194,0,621,195,0,621,196,0,620,199,0,621*5A
$PAIRSAT,2,24,65,0,200,66,0,200,67,0,200,68,0,200,69,0,200,70,0,200,71,0,200,72,0,200,73,0,200,74,0,200,75,0,200,76,0,200,77,0,201,78,0,201,79,0,201,80,0,200,81,0,201,82,0,201,83,0,200,84,0,200,85,0,200,86,0,200,87,0,200,88,0,201*7A
$PAIRSAT,3,23,2,0,1200,3,0,1200,4,0,1200,5,0,200,7,0,1200,8,0,1200,9,0,1200,10,0,1200,11,0,1200,12,0,1200,13,0,1221,15,0,1220,19,0,1201,21,0,1221,24,0,1200,25,0,1200,26,0,1221,27,0,1221,30,0,1200,31,0,1200,33,0,1200,34,0,1000,36,0,1200*6B
$PAIRSAT,4,46,1,0,200,2,0,200,3,0,600,4,0,200,5,0,200,6,0,201,7,0,201,8,0,200,9,0,201,10,0,201,11,0,200,12,0,200,13,0,200,14,0,200,16,0,201,19,0,600,20,0,600,21,0,600,22,0,600,23,0,621,24,0,600,25,0,621,26,0,600,27,0,600,28,0,621,29,0,600,30,0,600,32,0,600,33,0,600,34,0,621,35,0,600,36,0,600,37,0,621,38,0,600,39,0,621,40,0,621,41,0,600,42,0,600,43,0,621,44,0,400,45,0,400,46,0,400,59,0,400,60,0,400,61,0,400,62,0,400*4A
$PAIRDGP,10,2,4,7,8,9,16,21,26,27,30*42
$GNGGA,041552.200,2500.7933050,N,12132.4397692,E,4,49,0.59,16.766,M,15.25,M,1,3335*4C
$GNRMC,041552.200,A,2500.7933050,N,12132.4397692,E,0.00,323.05,090324,,,R,V*1C
$GPHDT,317.534,T*32
$GNACCURACY,3.6*13
$GNGGA,041552.300,2500.7933026,N,12132.4397675,E,4,49,0.59,16.765,M,15.25,M,1,3335*46
$GNRMC,041552.300,A,2500.7933026,N,12132.4397675,E,0.00,323.05,090324,,,R,V*15
$GPHDT,,T*1B
$GNACCURACY,3.6*13
$GNGGA,041552.400,2500.7933015,N,12132.4397675,E,4,49,0.59,16.769,M,15.25,M,1,3335*4D
$GNRMC,041552.400,A,2500.7933015,N,12132.4397675,E,0.00,323.05,090324,,,R,V*12
$GPHDT,317.703,T*34
$GNACCURACY,3.6*13
$GNGGA,041552.500,2500.7933041,N,12132.4397671,E,4,49,0.59,16.766,M,15.25,M,1,3335*46
$GNRMC,041552.500,A,2500.7933041,N,12132.4397671,E,0.00,323.05,090324,,,R,V*16
$GPHDT,,T*1B
$GNACCURACY,3.6*13
$GNGGA,041552.600,2500.7933022,N,12132.4397684,E,4,49,0.59,16.768,M,15.25,M,1,3335*44
$GNRMC,041552.600,A,2500.7933022,N,12132.4397684,E,0.00,323.05,090324,,,R,V*1A
$GPHDT,317.634,T*31
$GNACCURACY,3.6*13
$GNGGA,041552.700,2500.7933038,N,12132.4397694,E,4,49,0.59,16.765,M,15.25,M,1,3335*42
$GNRMC,041552.700,A,2500.7933038,N,12132.4397694,E,0.00,323.05,090324,,,R,V*11
$GPHDT,,T*1B
$GNACCURACY,3.6*13
$GNGGA,041552.800,2500.7933025,N,12132.4397663,E,4,49,0.59,16.770,M,15.25,M,1,3335*4D
$GNRMC,041552.800,A,2500.7933025,N,12132.4397663,E,0.00,323.05,090324,,,R,V*1A
$GPHDT,317.702,T*35
$GNACCURACY,3.6*13
$GNGGA,041552.900,2500.7933027,N,12132.4397682,E,4,48,0.61,16.764,M,15.25,M,1,3335*4E
$GNRMC,041552.900,A,2500.7933027,N,12132.4397682,E,0.00,323.05,090324,,,R,V*16
$GPHDT,,T*1B
$GNACCURACY,3.6*13
$GNGGA,041553.000,2500.7933030,N,12132.4397695,E,4,48,0.61,16.769,M,15.25,M,2,3335*48
$GNRMC,041553.000,A,2500.7933030,N,12132.4397695,E,0.00,323.05,090324,,,R,V*1E
$GPHDT,317.373,T*37
$GNACCURACY,3.6*13
$GNGGA,041553.100,2500.7933064,N,12132.4397733,E,4,49,0.59,16.749,M,15.25,M,2,3335*4D
$GNRMC,041553.100,A,2500.7933064,N,12132.4397733,E,0.00,323.05,090324,,,R,V*13
$GPHDT,,T*1B
$GNGSA,A,3,195,194,21,199,08,02,07,27,16,196,04,,1.12,0.59,0.95,1*05
$GNGSA,A,3,81,78,88,79,,,,,,,,,1.12,0.59,0.95,2*08
$GNGSA,A,3,21,13,26,27,,,,,,,,,1.12,0.59,0.95,3*01
$GNGSA,A,3,23,09,06,16,07,40,28,43,39,10,25,37,1.12,0.59,0.95,4*09
$GPGSV,4,1,15,195,65,112,42,194,64,053,41,21,63,152,42,199,60,167,35,1*55
$GPGSV,4,2,15,08,60,000,46,50,60,167,37,02,52,176,46,07,44,315,43,1*6D
$GPGSV,4,3,15,27,30,037,41,16,26,078,41,09,22,243,14,196,19,168,18,1*50
$GPGSV,4,4,15,04,15,201,25,30,13,319,18,26,06,102,10,1*57
$GPGSV,2,1,07,195,65,112,45,194,64,053,46,08,60,000,43,199,60,167,44,8*50
$GPGSV,2,2,07,27,30,037,40,196,19,168,22,04,15,201,21,8*65
$GLGSV,2,1,06,81,69,205,43,78,58,044,45,88,52,029,44,79,28,336,31,1*74
$GLGSV,2,2,06,77,22,114,12,82,18,206,16,1*79
$GAGSV,2,1,08,21,55,016,42,13,54,076,42,26,46,171,42,27,28,082,41,7*79
$GAGSV,2,2,08,19,26,239,,15,12,037,,04,12,297,,33,06,199,,7*70
$GAGSV,1,1,04,21,55,016,42,13,54,076,45,26,46,171,45,27,28,082,39,1*7F
$GBGSV,4,1,13,23,75,041,46,09,72,261,43,06,70,214,40,16,66,199,42,1*79
$GBGSV,4,2,13,07,60,310,41,40,60,331,42,28,58,225,41,43,56,035,47,1*77
$GBGSV,4,3,13,39,56,188,40,10,51,291,19,25,35,120,41,37,32,322,42,1*7F
$GBGSV,4,4,13,34,09,040,,1*4E
$GBGSV,2,1,07,23,75,041,46,40,60,331,44,28,58,225,42,39,56,188,38,4*77
$GBGSV,2,2,07,43,56,035,45,25,35,120,39,37,32,322,36,4*4C
$GNACCURACY,3.6*13
$PAIRSAT,1,35,2,0,201,3,0,200,4,0,221,5,0,200,6,0,200,7,0,201,8,0,221,9,0,220,10,0,200,11,0,200,12,0,200,13,0,200,14,0,200,15,0,200,16,0,201,17,0,200,18,0,200,19,0,200,20,0,200,21,0,201,22,0,200,23,0,200,24,0,200,25,0,200,26,0,220,27,0,221,28,0,200,29,0,200,30,0,221,31,0,200,32,0,200,194,0,621,195,0,621,196,0,620,199,0,621*5A
$PAIRSAT,2,24,65,0,200,66,0,200,67,0,200,68,0,200,69,0,200,70,0,200,71,0,200,72,0,200,73,0,200,74,0,200,75,0,200,76,0,200,77,0,201,78,0,201,79,0,201,80,0,200,81,0,201,82,0,201,83,0,200,84,0,200,85,0,200,86,0,200,87,0,200,88,0,201*7A
$PAIRSAT,3,23,2,0,1200,3,0,1200,4,0,1200,5,0,200,7,0,1200,8,0,1200,9,0,1200,10,0,1200,11,0,1200,12,0,1200,13,0,1221,15,0,1220,19,0,1201,21,0,1221,24,0,1200,25,0,1200,26,0,1221,27,0,1221,30,0,1200,31,0,1200,33,0,1200,34,0,1000,36,0,1200*6B
$PAIRSAT,4,46,1,0,200,2,0,200,3,0,600,4,0,200,5,0,200,6,0,201,7,0,201,8,0,200,9,0,201,10,0,201,11,0,200,12,0,200,13,0,200,14,0,200,16,0,201,19,0,600,20,0,600,21,0,600,22,0,600,23,0,621,24,0,600,25,0,621,26,0,600,27,0,600,28,0,621,29,0,600,30,0,600,32,0,600,33,0,600,34,0,621,35,0,600,36,0,600,37,0,621,38,0,600,39,0,621,40,0,621,41,0,600,42,0,600,43,0,621,44,0,400,45,0,400,46,0,400,59,0,400,60,0,400,61,0,400,62,0,400*4A
$PAIRDGP,10,2,4,7,8,9,16,21,26,27,30*42
$GNGGA,041553.200,2500.7933047,N,12132.4397701,E,4,49,0.59,16.766,M,15.25,M,2,3335*43
$GNRMC,041553.200,A,2500.7933047,N,12132.4397701,E,0.00,323.05,090324,,,R,V*10
$GPHDT,317.241,T*37
$GNACCURACY,3.6*13
$GNGGA,041553.300,2500.7933034,N,12132.4397701,E,4,49,0.59,16.767,M,15.25,M,2,3335*47
$GNRMC,041553.300,A,2500.7933034,N,12132.4397701,E,0.00,323.05,090324,,,R,V*15
$GPHDT,,T*1B
$GNACCURACY,3.6*13
$GNGGA,041553.400,2500.7933046,N,12132.4397710,E,4,49,0.59,16.767,M,15.25,M,2,3335*45
$GNRMC,041553.400,A,2500.7933046,N,12132.4397710,E,0.00,323.05,090324,,,R,V*17
$GPHDT,317.220,T*30
$GNACCURACY,3.6*13
$GNGGA,041553.500,2500.7933035,N,12132.4397676,E,4,49,0.59,16.770,M,15.25,M,1,3335*44
$GNRMC,041553.500,A,2500.7933035,N,12132.4397676,E,0.00,323.05,090324,,,R,V*13
$GPHDT,,T*1B
$GNACCURACY,3.6*13
$GNGGA,041553.600,2500.7933048,N,12132.4397690,E,4,49,0.59,16.772,M,15.25,M,1,3335*47
$GNRMC,041553.600,A,2500.7933048,N,12132.4397690,E,0.00,323.05,090324,,,R,V*12
$GPHDT,317.271,T*34
$GNACCURACY,3.6*13
$GNGGA,041553.700,2500.7933028,N,12132.4397683,E,4,48,0.61,16.770,M,15.25,M,1,3335*4A
$GNRMC,041553.700,A,2500.7933028,N,12132.4397683,E,0.00,323.05,090324,,,R,V*17
$GPHDT,,T*1B
