$FW : RTK35X,V1.1X0314AS,Lib20210517,1*54
$Tool : LOCOSYS , GNSS Firebird , v1.0.0.19*39
$---------------------------------------------------*2D
7B
$GBGSV,4,2,13,07,60,310,41,40,60,330,43,28,58,224,44,39,56,188,43,1*7D
$GBGSV,4,3,13,43,56,035,43,10,51,291,21,25,35,120,38,37,32,322,44,1*75
$GBGSV,4,4,13,34,09,040,,1*4E
$GBGSV,2,1,07,23,75,040,47,40,60,330,44,28,58,224,43,39,56,188,43,4*7A
$GBGSV,2,2,07,43,56,035,43,25,35,120,38,37,32,322,43,4*49
$GNACCURACY,3.7*12
$PAIRSAT,1,35,2,0,201,3,0,200,4,0,221,5,0,200,6,0,200,7,0,201,8,0,221,9,0,220,10,0,200,11,0,200,12,0,200,13,0,200,14,0,200,15,0,200,16,0,201,17,0,200,18,0,200,19,0,200,20,0,200,21,0,201,22,0,200,23,0,200,24,0,200,25,0,200,26,0,220,27,0,221,28,0,200,29,0,200,30,0,221,31,0,200,32,0,200,194,0,621,195,0,621,196,0,620,199,0,621*5A
$PAIRSAT,2,24,65,0,200,66,0,200,67,0,200,68,0,200,69,0,200,70,0,200,71,0,200,72,0,200,73,0,200,74,0,200,75,0,200,76,0,200,77,0,201,78,0,201,79,0,201,80,0,200,81,0,201,82,0,201,83,0,200,84,0,200,85,0,200,86,0,200,87,0,200,88,0,201*7A
$PAIRSAT,3,23,2,0,1200,3,0,1200,4,0,1200,5,0,200,7,0,1200,8,0,1200,9,0,1200,10,0,1200,11,0,1200,12,0,1200,13,0,1221,15,0,1220,19,0,1201,21,0,1221,24,0,1200,25,0,1200,26,0,1221,27,0,1221,30,0,1200,31,0,1200,33,0,1200,34,0,1000,36,0,1200*6B
$PAIRSAT,4,46,1,0,200,2,0,200,3,0,600,4,0,200,5,0,200,6,0,201,7,0,201,8,0,200,9,0,201,10,0,201,11,0,200,12,0,200,13,0,200,14,0,200,16,0,201,19,0,600,20,0,600,21,0,600,22,0,600,23,0,621,24,0,600,25,0,621,26,0,600,27,0,600,28,0,621,29,0,600,30,0,600,32,0,600,33,0,600,34,0,621,35,0,600,36,0,600,37,0,621,38,0,600,39,0,621,40,0,621,41,0,600,42,0,600,43,0,621,44,0,400,45,0,400,46,0,400,59,0,400,60,0,400,61,0,400,62,0,400*4A
$PAIRDGP,10,2,4,7,8,9,16,21,26,27,30*42
$GNGGA,041527.200,2500.7933083,N,12132.4397790,E,4,56,0.50,16.814,M,15.25,M,1,3335*4E
$GNRMC,041527.200,A,2500.7933083,N,12132.4397790,E,0.01,323.05,090324,,,R,V*12
$GPHDT,48.850,T*04
$GNACCURACY,3.7*12
$GNGGA,041527.300,2500.7933093,N,12132.4397751,E,4,55,0.52,16.815,M,15.25,M,1,3335*43
$GNRMC,041527.300,A,2500.7933093,N,12132.4397751,E,0.02,323.05,090324,,,R,V*1C
$GPHDT,,T*1B
$GNACCURACY,3.7*12
$GNGGA,041527.400,2500.7933066,N,12132.4397789,E,4,55,0.51,16.820,M,15.25,M,1,3335*4E
$GNRMC,041527.400,A,2500.7933066,N,12132.4397789,E,0.02,323.05,090324,,,R,V*14
$GPHDT,47.809,T*07
$GNACCURACY,3.7*12
$GNGGA,041527.500,2500.7933073,N,12132.4397791,E,4,54,0.52,16.812,M,15.25,M,1,3335*41
$GNRMC,041527.500,A,2500.7933073,N,12132.4397791,E,0.03,323.05,090324,,,R,V*19
$GPHDT,,T*1B
$GNACCURACY,3.7*12
$GNGGA,041527.600,2500.7933069,N,12132.4397808,E,4,55,0.52,16.825,M,15.25,M,1,3335*43
$GNRMC,041527.600,A,2500.7933069,N,12132.4397808,E,0.03,323.05,090324,,,R,V*1E
$GPHDT,46.802,T*0D
$GNACCURACY,3.7*12
$GNGGA,041527.700,2500.7933063,N,12132.4397801,E,4,54,0.51,16.826,M,15.25,M,0,3335*41
$GNRMC,041527.700,A,2500.7933063,N,12132.4397801,E,0.02,323.05,090324,,,R,V*1D
$GPHDT,,T*1B
$GNACCURACY,3.7*12
$GNGGA,041527.800,2500.7933063,N,12132.4397833,E,4,54,0.51,16.817,M,15.25,M,0,3335*4D
$GNRMC,041527.800,A,2500.7933063,N,12132.4397833,E,0.03,323.05,090324,,,R,V*12
$GPHDT,46.679,T*0F
$GNACCURACY,3.7*12
$GNGGA,041527.900,2500.7933065,N,12132.4397770,E,4,54,0.51,16.822,M,15.25,M,0,3335*44
$GNRMC,041527.900,A,2500.7933065,N,12132.4397770,E,0.01,323.05,090324,,,R,V*1F
$GPHDT,,T*1B
$GNACCURACY,3.7*12
$GNGGA,041528.000,2500.7933064,N,12132.4397808,E,4,54,0.51,16.835,M,15.25,M,1,3335*44
$GNRMC,041528.000,A,2500.7933064,N,12132.4397808,E,0.01,323.05,090324,,,R,V*18
$GPHDT,47.031,T*04
$GNACCURACY,3.7*12
$GNGGA,041528.100,2500.7933070,N,12132.4397785,E,4,54,0.51,16.829,M,15.25,M,1,3335*47
$GNRMC,041528.100,A,2500.7933070,N,12132.4397785,E,0.01,323.05,090324,,,R,V*16
$GPHDT,,T*1B
$GNGSA,A,3,195,194,21,199,08,02,07,27,16,09,196,04,0.78,0.51,0.59,1*09
$GNGSA,A,3,30,,,,,,,,,,,,0.78,0.51,0.59,1*05
$GNGSA,A,3,81,78,88,79,77,,,,,,,,0.78,0.51,0.59,2*0D
$GNGSA,A,3,21,13,26,27,15,,,,,,,,0.78,0.51,0.59,3*00
$GNGSA,A,3,23,09,06,16,40,07,28,39,43,10,25,37,0.78,0.51,0.59,4*0C
$GPGSV,4,1,15,195,65,112,41,194,64,053,42,21,63,152,41,199,60,167,34,1*57
$GPGSV,4,2,15,08,60,359,41,50,60,167,37,02,51,176,45,07,44,315,44,1*62
$GPGSV,4,3,15,27,31,037,40,16,26,078,36,09,22,244,17,196,19,168,17,1*5B
$GPGSV,4,4,15,04,16,201,25,30,13,319,17,26,07,102,16,1*5C
$GPGSV,3,1,10,195,65,112,44,194,64,053,45,08,60,359,49,199,60,167,46,8*52
$GPGSV,3,2,10,27,31,037,39,09,22,244,14,196,19,168,25,04,16,201,28,8*5E
$GPGSV,3,3,10,30,13,319,31,26,07,102,15,8*60
$GLGSV,2,1,06,81,68,204,43,78,58,044,43,88,52,029,43,79,28,336,36,1*72
$GLGSV,2,2,06,77,22,114,17,82,18,206,15,1*7F
$GAGSV,2,1,07,21,55,015,41,13,54,076,37,26,46,171,42,27,28,082,31,7*73
$GAGSV,2,2,07,19,26,239,,15,12,037,21,04,12,297,,7*4B
$GAGSV,2,1,05,21,55,015,42,13,54,076,41,26,46,171,42,27,28,082,30,1*74
$GAGSV,2,2,05,15,12,037,15,1*47
$GBGSV,4,1,14,23,75,040,43,09,72,262,41,06,70,214,41,16,66,199,44,1*7C
$GBGSV,4,2,14,40,60,330,43,07,60,310,40,28,58,224,44,39,56,188,43,1*7B
$GBGSV,4,3,14,43,56,035,44,10,51,291,21,25,35,120,37,37,32,322,43,1*7D
$GBGSV,4,4,14,27,12,221,,34,09,040,,1*7E
$GBGSV,2,1,07,23,75,040,47,40,60,330,44,28,58,224,43,39,56,188,45,4*7C
$GBGSV,2,2,07,43,56,035,43,25,35,120,38,37,32,322,40,4*4A
$GNACCURACY,3.7*12
$PAIRSAT,1,35,2,0,201,3,0,200,4,0,221,5,0,200,6,0,200,7,0,201,8,0,221,9,0,220,10,0,200,11,0,200,12,0,200,13,0,200,14,0,200,15,0,200,16,0,201,17,0,200,18,0,200,19,0,200,20,0,200,21,0,201,22,0,200,23,0,200,24,0,200,25,0,200,26,0,220,27,0,221,28,0,200,29,0,200,30,0,221,31,0,200,32,0,200,194,0,621,195,0,621,196,0,620,199,0,621*5A
$PAIRSAT,2,24,65,0,200,66,0,200,67,0,200,68,0,200,69,0,200,70,0,200,71,0,200,72,0,200,73,0,200,74,0,200,75,0,200,76,0,200,77,0,201,78,0,201,79,0,201,80,0,200,81,0,201,82,0,201,83,0,200,84,0,200,85,0,200,86,0,200,87,0,200,88,0,201*7A
$PAIRSAT,3,23,2,0,1200,3,0,1200,4,0,1200,5,0,200,7,0,1200,8,0,1200,9,0,1200,10,0,1200,11,0,1200,12,0,1200,13,0,1221,15,0,1220,19,0,1201,21,0,1221,24,0,1200,25,0,1200,26,0,1221,27,0,1221,30,0,1200,31,0,1200,33,0,1200,34,0,1000,36,0,1200*6B
$PAIRSAT,4,46,1,0,200,2,0,200,3,0,600,4,0,200,5,0,200,6,0,201,7,0,201,8,0,200,9,0,201,10,0,201,11,0,200,12,0,200,13,0,200,14,0,200,16,0,201,19,0,600,20,0,600,21,0,600,22,0,600,23,0,621,24,0,600,25,0,621,26,0,600,27,0,600,28,0,621,29,0,600,30,0,600,32,0,600,33,0,600,34,0,621,35,0,600,36,0,600,37,0,621,38,0,600,39,0,621,40,0,621,41,0,600,42,0,600,43,0,621,44,0,400,45,0,400,46,0,400,59,0,400,60,0,400,61,0,400,62,0,400*4A
$PAIRDGP,10,2,4,7,8,9,16,21,26,27,30*42
$GNGGA,041528.200,2500.7933061,N,12132.4397762,E,4,55,0.51,16.812,M,15.25,M,1,3335*44
$GNRMC,041528.200,A,2500.7933061,N,12132.4397762,E,0.02,323.05,090324,,,R,V*1F
$GPHDT,47.009,T*0F
$GNACCURACY,3.6*13
$GNGGA,041528.300,2500.7933064,N,12132.4397804,E,4,55,0.51,16.826,M,15.25,M,1,3335*48
$GNRMC,041528.300,A,2500.7933064,N,12132.4397804,E,0.01,323.05,090324,,,R,V*17
$GPHDT,,T*1B
$GNACCURACY,3.6*13
$GNGGA,041528.400,2500.7933079,N,12132.4397804,E,4,55,0.51,16.823,M,15.25,M,1,3335*46
$GNRMC,041528.400,A,2500.7933079,N,12132.4397804,E,0.01,323.05,090324,,,R,V*1C
$GPHDT,47.114,T*02
$GNACCURACY,3.6*13
$GNGGA,041528.500,2500.7933066,N,12132.4397773,E,4,54,0.51,16.810,M,15.25,M,0,3335*46
$GNRMC,041528.500,A,2500.7933066,N,12132.4397773,E,0.01,323.05,090324,,,R,V*1C
$GPHDT,,T*1B
$GNACCURACY,3.6*13
$GNGGA,041528.600,2500.7933072,N,12132.4397761,E,4,54,0.51,16.805,M,15.25,M,0,3335*47
$GNRMC,041528.600,A,2500.7933072,N,12132.4397761,E,0.01,323.05,090324,,,R,V*19
$GPHDT,47.636,T*05
$GNACCURACY,3.6*13
$GNGGA,041528.700,2500.7933055,N,12132.4397781,E,4,54,0.51,16.808,M,15.25,M,0,3335*40
$GNRMC,041528.700,A,2500.7933055,N,12132.4397781,E,0.01,323.05,090324,,,R,V*13
$GPHDT,,T*1B
$GNACCURACY,3.6*13
$GNGGA,041528.800,2500.7933068,N,12132.4397815,E,4,53,0.51,16.808,M,15.25,M,0,3335*44
$GNRMC,041528.800,A,2500.7933068,N,12132.4397815,E,0.01,323.05,090324,,,R,V*10
$GPHDT,46.620,T*03
$GNACCURACY,3.7*12
$GNGGA,041528.900,2500.7933048,N,12132.4397803,E,4,53,0.51,16.804,M,15.25,M,0,3335*4C
$GNRMC,041528.900,A,2500.7933048,N,12132.4397803,E,0.01,323.05,090324,,,R,V*14
$GPHDT,,T*1B
$GNACCURACY,3.7*12
$GNGGA,041529.000,2500.7933066,N,12132.4397826,E,4,53,0.51,16.810,M,15.25,M,1,3335*4B
$GNRMC,041529.000,A,2500.7933066,N,12132.4397826,E,0.02,323.05,090324,,,R,V*14
$GPHDT,46.571,T*04
$GNACCURACY,3.6*13
$GNGGA,041529.100,2500.7933054,N,12132.4397819,E,4,53,0.52,16.791,M,15.25,M,1,3335*42
$GNRMC,041529.100,A,2500.7933054,N,12132.4397819,E,0.02,323.05,090324,,,R,V*18
$GPHDT,,T*1B
$GNGSA,A,3,195,194,21,199,08,02,07,27,16,196,09,04,0.78,0.52,0.59,1*0A
$GNGSA,A,3,30,,,,,,,,,,,,0.78,0.52,0.59,1*06
$GNGSA,A,3,81,78,88,79,77,,,,,,,,0.78,0.52,0.59,2*0E
$GNGSA,A,3,21,13,26,27,15,,,,,,,,0.78,0.52,0.59,3*03
$GNGSA,A,3,23,09,06,16,07,40,28,43,39,25,37,,0.78,0.52,0.59,4*0E
$GPGSV,4,1,15,195,65,112,41,194,64,053,42,21,63,152,41,199,60,167,34,1*57
$GPGSV,4,2,15,08,60,359,41,50,60,167,37,02,51,176,45,07,44,315,44,1*62
$GPGSV,4,3,15,27,31,037,40,16,26,078,37,09,22,244,18,196,19,168,16,1*54
$GPGSV,4,4,15,04,16,201,25,30,13,319,16,26,07,102,15,1*5E
$GPGSV,3,1,09,195,65,112,44,194,64,053,45,08,60,359,49,199,60,167,45,8*59
$GPGSV,3,2,09,27,31,037,39,09,22,244,12,196,19,168,28,04,16,201,28,8*5D
$GPGSV,3,3,09,30,13,319,30,8*5D
$GLGSV,2,1,06,81,68,204,43,78,58,044,43,88,52,029,43,79,28,336,38,1*7C
$GLGSV,2,2,06,77,22,114,17,82,18,206,12,1*78
$GAGSV,2,1,07,21,55,015,41,13,54,076,38,26,46,171,42,27,28,082,31,7*7C
$GAGSV,2,2,07,19,26,239,,15,12,037,19,04,12,297,,7*40
$GAGSV,2,1,05,21,55,015,43,13,54,076,41,26,46,171,43,27,28,082,24,1*71
$GAGSV,2,2,05,15,12,037,15,1*47
$GBGSV,4,1,13,23,75,040,43,09,72,262,40,06,70,214,40,16,66,199,44,1*7B
$GBGSV,4,2,13,07,60,310,38,40,60,330,43,28,58,224,44,43,56,035,44,1*7E
$GBGSV,4,3,13,39,56,188,43,10,51,291,20,25,35,120,37,37,32,322,45,1*70
$GBGSV,4,4,13,34,09,040,,1*4E
$GBGSV,2,1,07,23,75,040,47,40,60,330,45,28,58,224,43,39,56,188,44,4*7C
$GBGSV,2,2,07,43,56,035,43,25,35,120,39,37,32,322,44,4*4F
$GNACCURACY,3.6*13
$PAIRSAT,1,35,2,0,201,3,0,200,4,0,221,5,0,200,6,0,200,7,0,201,8,0,221,9,0,220,10,0,200,11,0,200,12,0,200,13,0,200,14,0,200,15,0,200,16,0,201,17,0,200,18,0,200,19,0,200,20,0,200,21,0,201,22,0,200,23,0,200,24,0,200,25,0,200,26,0,220,27,0,221,28,0,200,29,0,200,30,0,221,31,0,200,32,0,200,194,0,621,195,0,621,196,0,620,199,0,621*5A
$PAIRSAT,2,24,65,0,200,66,0,200,67,0,200,68,0,200,69,0,200,70,0,200,71,0,200,72,0,200,73,0,200,74,0,200,75,0,200,76,0,200,77,0,201,78,0,201,79,0,201,80,0,200,81,0,201,82,0,201,83,0,200,84,0,200,85,0,200,86,0,200,87,0,200,88,0,201*7A
$PAIRSAT,3,23,2,0,1200,3,0,1200,4,0,1200,5,0,200,7,0,1200,8,0,1200,9,0,1200,10,0,1200,11,0,1200,12,0,1200,13,0,1221,15,0,1220,19,0,1201,21,0,1221,24,0,1200,25,0,1200,26,0,1221,27,0,1221,30,0,1200,31,0,1200,33,0,1200,34,0,1000,36,0,1200*6B
$PAIRSAT,4,46,1,0,200,2,0,200,3,0,600,4,0,200,5,0,200,6,0,201,7,0,201,8,0,200,9,0,201,10,0,201,11,0,200,12,0,200,13,0,200,14,0,200,16,0,201,19,0,600,20,0,600,21,0,600,22,0,600,23,0,621,24,0,600,25,0,621,26,0,600,27,0,600,28,0,621,29,0,600,30,0,600,32,0,600,33,0,600,34,0,621,35,0,600,36,0,600,37,0,621,38,0,600,39,0,621,40,0,621,41,0,600,42,0,600,43,0,621,44,0,400,45,0,400,46,0,400,59,0,400,60,0,400,61,0,400,62,0,400*4A
$PAIRDGP,10,2,4,7,8,9,16,21,26,27,30*42
$GNGGA,041529.200,2500.7933050,N,12132.4397824,E,4,52,0.52,16.796,M,15.25,M,1,3335*4D
$GNRMC,041529.200,A,2500.7933050,N,12132.4397824,E,0.03,323.05,090324,,,R,V*10
$GPHDT,46.324,T*02
$GNACCURACY,3.6*13
$GNGGA,041529.300,2500.7933044,N,12132.4397816,E,4,53,0.52,16.790,M,15.25,M,1,3335*4F
$GNRMC,041529.300,A,2500.7933044,N,12132.4397816,E,0.02,323.05,090324,,,R,V*14
$GPHDT,,T*1B
$GNACCURACY,3.6*13
$GNGGA,041529.400,2500.7933068,N,12132.4397837,E,4,52,0.52,16.813,M,15.25,M,1,3335*40
$GNRMC,041529.400,A,2500.7933068,N,12132.4397837,E,0.01,323.05,090324,,,R,V*1D
$GPHDT,46.250,T*00
$GNACCURACY,3.6*13
$GNGGA,041529.500,2500.7933065,N,12132.4397805,E,4,53,0.52,16.809,M,15.25,M,1,3335*47
$GNRMC,041529.500,A,2500.7933065,N,12132.4397805,E,0.01,323.05,090324,,,R,V*10
$GPHDT,,T*1B
$GNACCURACY,3.6*13
$GNGGA,041529.600,2500.7933055,N,12132.4397810,E,4,53,0.52,16.806,M,15.25,M,1,3335*4C
$GNRMC,041529.600,A,2500.7933055,N,12132.4397810,E,0.02,323.05,090324,,,R,V*17
$GPHDT,46.543,T*05
$GNACCURACY,3.6*13
$GNGGA,041529.700,2500.7933056,N,12132.4397757,E,4,53,0.52,16.816,M,15.25,M,0,3335*42
$GNRMC,041529.700,A,2500.7933056,N,12132.4397757,E,0.02,323.05,090324,,,R,V*19
$GPHDT,,T*1B
$GNACCURACY,3.6*13
$GNGGA,041529.800,2500.7933056,N,12132.4397830,E,4,53,0.52,16.811,M,15.25,M,0,3335*44
$GNRMC,041529.800,A,2500.7933056,N,12132.4397830,E,0.02,323.05,090324,,,R,V*18
$GPHDT,46.433,T*03
$GNACCURACY,3.6*13
$GNGGA,041529.900,2500.7933047,N,12132.4397799,E,4,54,0.51,16.817,M,15.25,M,0,3335*4B
$GNRMC,041529.900,A,2500.7933047,N,12132.4397799,E,0.02,323.05,090324,,,R,V*15
$GPHDT,,T*1B
$GNACCURACY,3.6*13
$GNGGA,041530.000,2500.7933036,N,12132.4397784,E,4,53,0.52,16.820,M,15.25,M,1,3335*41
$GNRMC,041530.000,A,2500.7933036,N,12132.4397784,E,0.02,323.05,090324,,,R,V*1E
$GPHDT,46.275,T*07
$GNACCURACY,3.6*13
$GNGGA,041530.100,2500.7933046,N,12132.4397790,E,4,53,0.52,16.827,M,15.25,M,1,3335*45
$GNRMC,041530.100,A,2500.7933046,N,12132.4397790,E,0.01,323.05,090324,,,R,V*1E
$GPHDT,,T*1B
$GNGSA,A,3,195,194,21,199,08,02,07,27,16,09,196,04,0.78,0.52,0.59,1*0A
$GNGSA,A,3,30,,,,,,,,,,,,0.78,0.52,0.59,1*06
$GNGSA,A,3,81,78,88,79,77,,,,,,,,0.78,0.52,0.59,2*0E
$GNGSA,A,3,21,13,26,27,15,,,,,,,,0.78,0.52,0.59,3*03
$GNGSA,A,3,23,09,06,16,07,40,28,43,39,25,37,,0.78,0.52,0.59,4*0E
$GPGSV,4,1,15,195,65,112,41,194,64,053,42,21,63,152,41,199,60,167,34,1*57
$GPGSV,4,2,15,08,60,359,41,50,60,167,37,02,51,176,45,07,44,315,44,1*62
$GPGSV,4,3,15,27,31,037,38,16,26,078,33,09,22,244,17,196,19,168,14,1*52
$GPGSV,4,4,15,04,16,201,24,30,13,319,17,26,07,102,17,1*5C
$GPGSV,3,1,09,195,65,112,44,194,64,053,44,08,60,359,49,199,60,167,45,8*58
$GPGSV,3,2,09,27,31,037,38,09,22,244,11,196,19,168,29,04,16,201,28,8*5E
$GPGSV,3,3,09,30,13,319,30,8*5D
$GLGSV,2,1,06,81,68,204,43,78,58,044,43,88,52,029,42,79,28,336,40,1*72
$GLGSV,2,2,06,77,22,114,18,82,18,206,16,1*73
$GAGSV,2,1,07,21,55,015,40,13,54,076,38,26,46,171,42,27,28,082,31,7*7D
$GAGSV,2,2,07,19,26,239,,15,12,037,19,04,12,297,,7*40
$GAGSV,2,1,05,21,55,015,44,13,54,076,41,26,46,171,44,27,28,082,26,1*73
$GAGSV,2,2,05,15,12,037,14,1*46
$GBGSV,4,1,13,23,75,040,43,09,72,262,40,06,70,214,40,16,66,199,44,1*7B
$GBGSV,4,2,13,07,60,310,38,40,60,330,43,28,58,224,43,43,56,035,43,1*7E
$GBGSV,4,3,13,39,56,188,43,10,51,291,19,25,35,120,37,37,32,322,45,1*7A
$GBGSV,4,4,13,34,09,040,,1*4E
$GBGSV,2,1,07,23,75,040,47,40,60,330,46,28,58,224,43,39,56,188,44,4*7F
$GBGSV,2,2,07,43,56,035,43,25,35,120,39,37,32,322,45,4*4E
$GNACCURACY,3.6*13
$PAIRSAT,1,35,2,0,201,3,0,200,4,0,221,5,0,200,6,0,200,7,0,201,8,0,221,9,0,220,10,0,200,11,0,200,12,0,200,13,0,200,14,0,200,15,0,200,16,0,201,17,0,200,18,0,200,19,0,200,20,0,200,21,0,201,22,0,200,23,0,200,24,0,200,25,0,200,26,0,220,27,0,221,28,0,200,29,0,200,30,0,221,31,0,200,32,0,200,194,0,621,195,0,621,196,0,620,199,0,621*5A
$PAIRSAT,2,24,65,0,200,66,0,200,67,0,200,68,0,200,69,0,200,70,0,200,71,0,200,72,0,200,73,0,200,74,0,200,75,0,200,76,0,200,77,0,201,78,0,201,79,0,201,80,0,200,81,0,201,82,0,201,83,0,200,84,0,200,85,0,200,86,0,200,87,0,200,88,0,201*7A
$PAIRSAT,3,23,2,0,1200,3,0,1200,4,0,1200,5,0,200,7,0,1200,8,0,1200,9,0,1200,10,0,1200,11,0,1200,12,0,1200,13,0,1221,15,0,1220,19,0,1201,21,0,1221,24,0,1200,25,0,1200,26,0,1221,27,0,1221,30,0,1200,31,0,1200,33,0,1200,34,0,1000,36,0,1200*6B
$PAIRSAT,4,46,1,0,200,2,0,200,3,0,600,4,0,200,5,0,200,6,0,201,7,0,201,8,0,200,9,0,201,10,0,201,11,0,200,12,0,200,13,0,200,14,0,200,16,0,201,19,0,600,20,0,600,21,0,600,22,0,600,23,0,621,24,0,600,25,0,621,26,0,600,27,0,600,28,0,621,29,0,600,30,0,600,32,0,600,33,0,600,34,0,621,35,0,600,36,0,600,37,0,621,38,0,600,39,0,621,40,0,621,41,0,600,42,0,600,43,0,621,44,0,400,45,0,400,46,0,400,59,0,400,60,0,400,61,0,400,62,0,400*4A
$PAIRDGP,10,2,4,7,8,9,16,21,26,27,30*42
$GNGGA,041530.200,2500.7933055,N,12132.4397817,E,4,53,0.52,16.801,M,15.25,M,1,3335*40
$GNRMC,041530.200,A,2500.7933055,N,12132.4397817,E,0.02,323.05,090324,,,R,V*1C
$GPHDT,47.277,T*04
$GNACCURACY,3.6*13
$GNGGA,041530.300,2500.7933051,N,12132.4397835,E,4,53,0.52,16.794,M,15.25,M,1,3335*46
$GNRMC,041530.300,A,2500.7933051,N,12132.4397835,E,0.02,323.05,090324,,,R,V*19
$GPHDT,,T*1B
$GNACCURACY,3.6*13
$GNGGA,041530.400,2500.7933062,N,12132.4397821,E,4,52,0.52,16.805,M,15.25,M,1,3335*42
$GNRMC,041530.400,A,2500.7933062,N,12132.4397821,E,0.03,323.05,090324,,,R,V*1A
$GPHDT,47.068,T*08
$GNACCURACY,3.6*13
$GNGGA,041530.500,2500.7933067,N,12132.4397858,E,4,52,0.52,16.794,M,15.25,M,0,3335*4E
$GNRMC,041530.500,A,2500.7933067,N,12132.4397858,E,0.02,323.05,090324,,,R,V*11
$GPHDT,,T*1B
$GNACCURACY,3.6*13
$GNGGA,041530.600,2500.7933069,N,12132.4397866,E,4,52,0.52,16.806,M,15.25,M,0,3335*4A
$GNRMC,041530.600,A,2500.7933069,N,12132.4397866,E,0.01,323.05,090324,,,R,V*12
$GPHDT,46.967,T*0F
$GNACCURACY,3.6*13
$GNGGA,041530.700,2500.7933071,N,12132.4397890,E,4,52,0.52,16.798,M,15.25,M,0,3335*43
$GNRMC,041530.700,A,2500.7933071,N,12132.4397890,E,0.02,323.05,090324,,,R,V*10
$GPHDT,,T*1B
$GNACCURACY,3.6*13
$GNGGA,041530.800,2500.7933065,N,12132.4397861,E,4,51,0.54,16.809,M,15.25,M,0,3335*45
$GNRMC,041530.800,A,2500.7933065,N,12132.4397861,E,0.02,323.05,090324,,,R,V*14
$GPHDT,46.860,T*09
$GNACCURACY,3.6*13
$GNGGA,041530.900,2500.7933067,N,12132.4397871,E,4,51,0.54,16.805,M,15.25,M,0,3335*4B
$GNRMC,041530.900,A,2500.7933067,N,12132.4397871,E,0.02,323.05,090324,,,R,V*16
$GPHDT,,T*1B
$GNACCURACY,3.6*13
$GNGGA,041531.000,2500.7933077,N,12132.4397918,E,4,51,0.54,16.777,M,15.25,M,1,3335*47
$GNRMC,041531.000,A,2500.7933077,N,12132.4397918,E,0.03,323.05,090324,,,R,V*10
$GPHDT,46.734,T*07
$GNACCURACY,3.6*13
$GNGGA,041531.100,2500.7933077,N,12132.4397923,E,4,52,0.52,16.769,M,15.25,M,1,3335*44
$GNRMC,041531.100,A,2500.7933077,N,12132.4397923,E,0.03,323.05,090324,,,R,V*19
$GPHDT,,T*1B
$GNGSA,A,3,195,194,21,199,08,02,07,27,16,09,196,04,0.78,0.52,0.59,1*0A
$GNGSA,A,3,30,,,,,,,,,,,,0.78,0.52,0.59,1*06
$GNGSA,A,3,81,78,88,79,77,,,,,,,,0.78,0.52,0.59,2*0E
$GNGSA,A,3,21,13,26,27,15,,,,,,,,0.78,0.52,0.59,3*03
$GNGSA,A,3,23,09,06,16,07,40,28,43,39,25,37,,0.78,0.52,0.59,4*0E
$GPGSV,4,1,15,195,65,112,40,194,64,053,42,21,63,152,41,199,60,167,34,1*56
$GPGSV,4,2,15,08,60,359,40,50,60,167,37,02,51,176,45,07,44,315,45,1*62
$GPGSV,4,3,15,27,31,037,34,16,26,078,33,09,22,244,18,196,19,168,13,1*56
$GPGSV,4,4,15,04,16,201,23,30,13,319,17,26,07,102,17,1*5B
$GPGSV,2,1,08,195,65,112,43,194,64,053,44,08,60,359,49,199,60,167,45,8*5F
$GPGSV,2,2,08,27,31,037,35,196,19,168,28,04,16,201,28,30,13,319,30,8*50
$GLGSV,2,1,06,81,68,204,43,78,58,044,43,88,52,029,41,79,28,336,40,1*71
$GLGSV,2,2,06,77,22,114,16,82,18,206,13,1*78
$GAGSV,2,1,08,21,55,015,39,13,54,076,38,26,46,171,42,27,28,082,29,7*75
$GAGSV,2,2,08,19,26,239,,15,12,037,19,04,12,297,,33,06,199,,7*78
$GAGSV,2,1,05,21,55,015,42,13,54,076,42,26,46,171,44,27,28,082,31,1*70
$GAGSV,2,2,05,15,12,037,15,1*47
$GBGSV,4,1,13,23,75,040,43,09,72,262,40,06,70,214,40,16,66,199,45,1*7A
$GBGSV,4,2,13,07,60,310,38,40,60,330,43,28,58,224,43,43,56,035,40,1*7D
$GBGSV,4,3,13,39,56,188,42,10,51,291,18,25,35,120,38,37,32,322,46,1*76
$GBGSV,4,4,13,34,09,040,,1*4E
$GBGSV,2,1,07,23,75,040,46,40,60,330,45,28,58,224,43,39,56,188,44,4*7D
$GBGSV,2,2,07,43,56,035,41,25,35,120,39,37,32,322,44,4*4D
$GNACCURACY,3.6*13
$PAIRSAT,1,35,2,0,201,3,0,200,4,0,221,5,0,200,6,0,200,7,0,201,8,0,221,9,0,220,10,0,200,11,0,200,12,0,200,13,0,200,14,0,200,15,0,200,16,0,201,17,0,200,18,0,200,19,0,200,20,0,200,21,0,201,22,0,200,23,0,200,24,0,200,25,0,200,26,0,220,27,0,221,28,0,200,29,0,200,30,0,221,31,0,200,32,0,200,194,0,621,195,0,621,196,0,620,199,0,621*5A
$PAIRSAT,2,24,65,0,200,66,0,200,67,0,200,68,0,200,69,0,200,70,0,200,71,0,200,72,0,200,73,0,200,74,0,200,75,0,200,76,0,200,77,0,201,78,0,201,79,0,201,80,0,200,81,0,201,82,0,201,83,0,200,84,0,200,85,0,200,86,0,200,87,0,200,88,0,201*7A
$PAIRSAT,3,23,2,0,1200,3,0,1200,4,0,1200,5,0,200,7,0,1200,8,0,1200,9,0,1200,10,0,1200,11,0,1200,12,0,1200,13,0,1221,15,0,1220,19,0,1201,21,0,1221,24,0,1200,25,0,1200,26,0,1221,27,0,1221,30,0,1200,31,0,1200,33,0,1200,34,0,1000,36,0,1200*6B
$PAIRSAT,4,46,1,0,200,2,0,200,3,0,600,4,0,200,5,0,200,6,0,201,7,0,201,8,0,200,9,0,201,10,0,201,11,0,200,12,0,200,13,0,200,14,0,200,16,0,201,19,0,600,20,0,600,21,0,600,22,0,600,23,0,621,24,0,600,25,0,621,26,0,600,27,0,600,28,0,621,29,0,600,30,0,600,32,0,600,33,0,600,34,0,621,35,0,600,36,0,600,37,0,621,38,0,600,39,0,621,40,0,621,41,0,600,42,0,600,43,0,621,44,0,400,45,0,400,46,0,400,59,0,400,60,0,400,61,0,400,62,0,400*4A
$PAIRDGP,10,2,4,7,8,9,16,21,26,27,30*42
$GNGGA,041531.200,2500.7933090,N,12132.4397945,E,4,52,0.52,16.771,M,15.25,M,1,3335*47
$GNRMC,041531.200,A,2500.7933090,N,12132.4397945,E,0.03,323.05,090324,,,R,V*13
$GPHDT,46.573,T*06
$GNACCURACY,3.6*13
$GNGGA,041531.300,2500.7933097,N,12132.4397935,E,4,51,0.52,16.779,M,15.25,M,1,3335*4D
$GNRMC,041531.300,A,2500.7933097,N,12132.4397935,E,0.04,323.05,090324,,,R,V*15
$GPHDT,,T*1B
$GNACCURACY,3.6*13
$GNGGA,041531.400,2500.7933104,N,12132.4397934,E,4,51,0.52,16.775,M,15.25,M,1,3335*4C
$GNRMC,041531.400,A,2500.7933104,N,12132.4397934,E,0.04,323.05,090324,,,R,V*18
$GPHDT,47.279,T*0A
$GNACCURACY,3.6*13
$GNGGA,041531.500,2500.7933100,N,12132.4397880,E,4,51,0.52,16.783,M,15.25,M,1,3335*4E
$GNRMC,041531.500,A,2500.7933100,N,12132.4397880,E,0.03,323.05,090324,,,R,V*14
$GPHDT,,T*1B
$GNACCURACY,3.6*13
$GNGGA,041531.600,2500.7933098,N,12132.4397748,E,4,51,0.52,16.858,M,15.25,M,1,3335*4F
$GNRMC,041531.600,A,2500.7933098,N,12132.4397748,E,0.03,323.05,090324,,,R,V*1C
$GPHDT,47.245,T*05
$GNACCURACY,3.6*13
$GNGGA,041531.700,2500.7933099,N,12132.4397835,E,4,51,0.52,16.787,M,15.25,M,0,3335*46
$GNRMC,041531.700,A,2500.7933099,N,12132.4397835,E,0.03,323.05,090324,,,R,V*19
$GPHDT,,T*1B
$GNACCURACY,3.6*13
$GNGGA,041531.800,2500.7933081,N,12132.4397845,E,4,51,0.52,16.775,M,15.25,M,0,3335*4A
$GNRMC,041531.800,A,2500.7933081,N,12132.4397845,E,0.03,323.05,090324,,,R,V*18
$GPHDT,47.260,T*02
$GNACCURACY,3.6*13
$GNGGA,041531.900,2500.7933071,N,12132.4397795,E,4,51,0.52,16.790,M,15.25,M,0,3335*4D
$GNRMC,041531.900,A,2500.7933071,N,12132.4397795,E,0.02,323.05,090324,,,R,V*15
$GPHDT,,T*1B
$GNACCURACY,3.6*13
$GNGGA,041532.000,2500.7933076,N,12132.4397784,E,4,51,0.52,16.807,M,15.25,M,1,3335*40
$GNRMC,041532.000,A,2500.7933076,N,12132.4397784,E,0.02,323.05,090324,,,R,V*18
$GPHDT,47.205,T*01
$GNACCURACY,3.6*13
$GNGGA,041532.100,2500.7933096,N,12132.4397844,E,4,51,0.52,16.772,M,15.25,M,1,3335*41
$GNRMC,041532.100,A,2500.7933096,N,12132.4397844,E,0.02,323.05,090324,,,R,V*14
$GPHDT,,T*1B
$GNGSA,A,3,195,194,21,199,08,02,07,27,16,09,196,04,0.78,0.52,0.59,1*0A
$GNGSA,A,3,30,,,,,,,,,,,,0.78,0.52,0.59,1*06
$GNGSA,A,3,81,78,88,79,77,,,,,,,,0.78,0.52,0.59,2*0E
$GNGSA,A,3,21,13,26,27,15,,,,,,,,0.78,0.52,0.59,3*03
$GNGSA,A,3,23,09,06,16,07,40,28,43,39,25,37,,0.78,0.52,0.59,4*0E
$GPGSV,4,1,15,195,65,112,42,194,64,053,42,21,63,152,41,199,60,167,34,1*54
$GPGSV,4,2,15,08,60,359,41,50,60,167,37,02,51,176,45,07,44,315,44,1*62
$GPGSV,4,3,15,27,31,037,35,16,26,078,31,09,22,244,18,196,19,168,11,1*57
$GPGSV,4,4,15,04,16,201,23,30,13,319,17,26,07,102,15,1*59
$GPGSV,2,1,08,195,65,112,44,194,64,053,46,08,60,359,48,199,60,167,46,8*58
$GPGSV,2,2,08,27,31,037,40,196,19,168,27,04,16,201,28,30,13,319,32,8*5F
$GLGSV,2,1,06,81,68,204,43,78,58,044,43,88,52,029,42,79,28,336,40,1*72
$GLGSV,2,2,06,77,22,114,16,82,18,206,14,1*7F
$GAGSV,2,1,08,21,55,015,38,13,54,076,38,26,46,171,42,27,28,082,30,7*7C
$GAGSV,2,2,08,19,26,239,,15,12,037,19,04,12,297,,33,06,199,,7*78
$GAGSV,2,1,05,21,55,015,42,13,54,076,43,26,46,171,44,27,28,082,30,1*70
$GAGSV,2,2,05,15,12,037,16,1*44
$GBGSV,4,1,13,23,75,040,43,09,72,262,40,06,70,214,40,16,66,199,45,1*7A
$GBGSV,4,2,13,07,60,310,39,40,60,330,43,28,58,224,43,43,56,035,42,1*7E
$GBGSV,4,3,13,39,56,188,43,10,51,291,18,25,35,120,38,37,32,322,46,1*77
$GBGSV,4,4,13,34,09,040,,1*4E
$GBGSV,2,1,07,23,75,040,47,40,60,330,45,28,58,224,43,39,56,188,44,4*7C
$GBGSV,2,2,07,43,56,035,42,25,35,120,39,37,32,322,45,4*4F
$GNACCURACY,3.6*13
$PAIRSAT,1,35,2,0,201,3,0,200,4,0,221,5,0,200,6,0,200,7,0,201,8,0,221,9,0,220,10,0,200,11,0,200,12,0,200,13,0,200,14,0,200,15,0,200,16,0,201,17,0,200,18,0,200,19,0,200,20,0,200,21,0,201,22,0,200,23,0,200,24,0,200,25,0,200,26,0,220,27,0,221,28,0,200,29,0,200,30,0,221,31,0,200,32,0,200,194,0,621,195,0,621,196,0,620,199,0,621*5A
$PAIRSAT,2,24,65,0,200,66,0,200,67,0,200,68,0,200,69,0,200,70,0,200,71,0,200,72,0,200,73,0,200,74,0,200,75,0,200,76,0,200,77,0,201,78,0,201,79,0,201,80,0,200,81,0,201,82,0,201,83,0,200,84,0,200,85,0,200,86,0,200,87,0,200,88,0,201*7A
$PAIRSAT,3,23,2,0,1200,3,0,1200,4,0,1200,5,0,200,7,0,1200,8,0,1200,9,0,1200,10,0,1200,11,0,1200,12,0,1200,13,0,1221,15,0,1220,19,0,1201,21,0,1221,24,0,1200,25,0,1200,26,0,1221,27,0,1221,30,0,1200,31,0,1200,33,0,1200,34,0,1000,36,0,1200*6B
$PAIRSAT,4,46,1,0,200,2,0,200,3,0,600,4,0,200,5,0,200,6,0,201,7,0,201,8,0,200,9,0,201,10,0,201,11,0,200,12,0,200,13,0,200,14,0,200,16,0,201,19,0,600,20,0,600,21,0,600,22,0,600,23,0,621,24,0,600,25,0,621,26,0,600,27,0,600,28,0,621,29,0,600,30,0,600,32,0,600,33,0,600,34,0,621,35,0,600,36,0,600,37,0,621,38,0,600,39,0,621,40,0,621,41,0,600,42,0,600,43,0,621,44,0,400,45,0,400,46,0,400,59,0,400,60,0,400,61,0,400,62,0,400*4A
$PAIRDGP,10,2,4,7,8,9,16,21,26,27,30*42
$GNGGA,041532.200,2500.7933071,N,12132.4397840,E,4,51,0.52,16.786,M,15.25,M,1,3335*44
$GNRMC,041532.200,A,2500.7933071,N,12132.4397840,E,0.02,323.05,090324,,,R,V*1A
$GPHDT,46.800,T*0F
$GNACCURACY,3.6*13
$GNGGA,041532.300,2500.7933061,N,12132.4397865,E,4,51,0.52,16.785,M,15.25,M,1,3335*40
$GNRMC,041532.300,A,2500.7933061,N,12132.4397865,E,0.01,323.05,090324,,,R,V*1E
$GPHDT,,T*1B
$GNACCURACY,3.6*13
$GNGGA,041532.400,2500.7933083,N,12132.4397817,E,4,51,0.52,16.786,M,15.25,M,1,3335*4D
$GNRMC,041532.400,A,2500.7933083,N,12132.4397817,E,0.02,323.05,090324,,,R,V*13
$GPHDT,47.004,T*02
$GNACCURACY,3.6*13
$GNGGA,041532.500,2500.7933088,N,12132.4397899,E,4,51,0.52,16.757,M,15.25,M,1,3335*4D
$GNRMC,041532.500,A,2500.7933088,N,12132.4397899,E,0.02,323.05,090324,,,R,V*1F
$GPHDT,,T*1B
$GNACCURACY,3.6*13
$GNGGA,041532.600,2500.7933075,N,12132.4397868,E,4,51,0.52,16.745,M,15.25,M,0,3335*40
$GNRMC,041532.600,A,2500.7933075,N,12132.4397868,E,0.02,323.05,090324,,,R,V*10
$GPHDT,47.490,T*0B
$GNACCURACY,3.6*13
$GNGGA,041532.700,2500.7933061,N,12132.4397902,E,4,51,0.52,16.738,M,15.25,M,0,3335*43
$GNRMC,041532.700,A,2500.7933061,N,12132.4397902,E,0.02,323.05,090324,,,R,V*19
$GPHDT,,T*1B
$GNACCURACY,3.6*13
$GNGGA,041532.800,2500.7933048,N,12132.4397845,E,4,51,0.52,16.797,M,15.25,M,0,3335*40
$GNRMC,041532.800,A,2500.7933048,N,12132.4397845,E,0.02,323.05,090324,,,R,V*1F
$GPHDT,46.714,T*05
$GNACCURACY,3.6*13
$GNGGA,041532.900,2500.7933067,N,12132.4397842,E,4,51,0.52,16.798,M,15.25,M,0,3335*44
$GNRMC,041532.900,A,2500.7933067,N,12132.4397842,E,0.03,323.05,090324,,,R,V*15
$GPHDT,,T*1B
$GNACCURACY,3.6*13
$GNGGA,041533.000,2500.7933062,N,12132.4397831,E,4,52,0.51,16.805,M,15.25,M,1,3335*47
$GNRMC,041533.000,A,2500.7933062,N,12132.4397831,E,0.03,323.05,090324,,,R,V*1C
$GPHDT,46.898,T*0E
$GNACCURACY,3.6*13
$GNGGA,041533.100,2500.7933075,N,12132.4397840,E,4,52,0.51,16.793,M,15.25,M,1,3335*46
$GNRMC,041533.100,A,2500.7933075,N,12132.4397840,E,0.03,323.05,090324,,,R,V*1D
$GPHDT,,T*1B
$GNGSA,A,3,195,194,21,199,08,02,07,27,16,09,196,04,0.78,0.52,0.59,1*0A
$GNGSA,A,3,30,,,,,,,,,,,,0.78,0.52,0.59,1*06
$GNGSA,A,3,81,78,88,79,77,,,,,,,,0.78,0.52,0.59,2*0E
$GNGSA,A,3,21,13,26,27,15,,,,,,,,0.78,0.52,0.59,3*03
$GNGSA,A,3,23,09,06,16,40,07,28,39,43,25,37,,0.78,0.52,0.59,4*0E
$GPGSV,4,1,15,195,65,112,42,194,64,053,42,21,63,152,41,199,60,167,35,1*55
$GPGSV,4,2,15,08,60,000,44,50,60,167,37,02,51,176,45,07,44,315,44,1*68
$GPGSV,4,3,15,27,31,037,37,16,26,078,30,09,22,243,17,196,19,168,11,1*5C
$GPGSV,4,4,15,04,16,201,23,30,13,319,18,26,07,102,14,1*57
$GPGSV,2,1,08,195,65,112,44,194,64,053,45,08,60,000,49,199,60,167,46,8*55
$GPGSV,2,2,08,27,31,037,40,196,19,168,29,04,16,201,27,30,13,319,31,8*5D
$GLGSV,2,1,06,81,68,204,44,78,58,044,43,88,52,029,42,79,28,336,40,1*75
$GLGSV,2,2,06,77,22,114,15,82,18,206,14,1*7C
$GAGSV,2,1,08,21,55,015,41,13,54,076,38,26,46,171,42,27,28,082,30,7*72
$GAGSV,2,2,08,19,26,239,,04,12,297,,15,12,037,20,33,06,199,,7*72
$GAGSV,2,1,05,21,55,015,44,13,54,076,42,26,46,171,44,27,28,082,29,1*7F
$GAGSV,2,2,05,15,12,037,16,1*44
$GBGSV,4,1,14,23,75,040,43,09,72,262,41,06,70,214,40,16,66,199,45,1*7C
$GBGSV,4,2,14,40,60,330,43,07,60,310,37,28,58,224,43,39,56,188,43,1*7C
$GBGSV,4,3,14,43,56,035,42,10,51,291,19,25,35,120,38,37,32,322,46,1*7A
$GBGSV,4,4,14,34,09,040,,08,02,177,,1*72
$GBGSV,2,1,07,23,75,040,47,40,60,330,46,28,58,224,43,39,56,188,44,4*7F
$GBGSV,2,2,07,43,56,035,43,25,35,120,39,37,32,322,45,4*4E
$GNACCURACY,3.6*13
$PAIRSAT,1,35,2,0,201,3,0,200,4,0,221,5,0,200,6,0,200,7,0,201,8,0,221,9,0,220,10,0,200,11,0,200,12,0,200,13,0,200,14,0,200,15,0,200,16,0,201,17,0,200,18,0,200,19,0,200,20,0,200,21,0,201,22,0,200,23,0,200,24,0,200,25,0,200,26,0,220,27,0,221,28,0,200,29,0,200,30,0,221,31,0,200,32,0,200,194,0,621,195,0,621,196,0,620,199,0,621*5A
$PAIRSAT,2,24,65,0,200,66,0,200,67,0,200,68,0,200,69,0,200,70,0,200,71,0,200,72,0,200,73,0,200,74,0,200,75,0,200,76,0,200,77,0,201,78,0,201,79,0,201,80,0,200,81,0,201,82,0,201,83,0,200,84,0,200,85,0,200,86,0,200,87,0,200,88,0,201*7A
$PAIRSAT,3,23,2,0,1200,3,0,1200,4,0,1200,5,0,200,7,0,1200,8,0,1200,9,0,1200,10,0,1200,11,0,1200,12,0,1200,13,0,1221,15,0,1220,19,0,1201,21,0,1221,24,0,1200,25,0,1200,26,0,1221,27,0,1221,30,0,1200,31,0,1200,33,0,1200,34,0,1000,36,0,1200*6B
$PAIRSAT,4,46,1,0,200,2,0,200,3,0,600,4,0,200,5,0,200,6,0,201,7,0,201,8,0,200,9,0,201,10,0,201,11,0,200,12,0,200,13,0,200,14,0,200,16,0,201,19,0,600,20,0,600,21,0,600,22,0,600,23,0,621,24,0,600,25,0,621,26,0,600,27,0,600,28,0,621,29,0,600,30,0,600,32,0,600,33,0,600,34,0,621,35,0,600,36,0,600,37,0,621,38,0,600,39,0,621,40,0,621,41,0,600,42,0,600,43,0,621,44,0,400,45,0,400,46,0,400,59,0,400,60,0,400,61,0,400,62,0,400*4A
$PAIRDGP,10,2,4,7,8,9,16,21,26,27,30*42
$GNGGA,041533.200,2500.7933075,N,12132.4397875,E,4,51,0.52,16.792,M,15.25,M,1,3335*42
$GNRMC,041533.200,A,2500.7933075,N,12132.4397875,E,0.03,323.05,090324,,,R,V*18
$GPHDT,47.134,T*00
$GNACCURACY,3.7*12
$GNGGA,041533.300,2500.7933063,N,12132.4397839,E,4,51,0.52,16.796,M,15.25,M,1,3335*48
$GNRMC,041533.300,A,2500.7933063,N,12132.4397839,E,0.03,323.05,090324,,,R,V*16
$GPHDT,,T*1B
$GNACCURACY,3.6*13
$GNGGA,041533.400,2500.7933072,N,12132.4397882,E,4,51,0.52,16.790,M,15.25,M,1,3335*49
$GNRMC,041533.400,A,2500.7933072,N,12132.4397882,E,0.02,323.05,090324,,,R,V*10
$GPHDT,46.655,T*01
$GNACCURACY,3.6*13
$GNGGA,041533.500,2500.7933056,N,12132.4397845,E,4,51,0.52,16.775,M,15.25,M,0,3335*4F
$GNRMC,041533.500,A,2500.7933056,N,12132.4397845,E,0.02,323.05,090324,,,R,V*1C
$GPHDT,,T*1B
$GNACCURACY,3.7*12
$GNGGA,041533.600,2500.7933064,N,12132.4397882,E,4,52,0.52,16.785,M,15.25,M,0,3335*4A
$GNRMC,041533.600,A,2500.7933064,N,12132.4397882,E,0.03,323.05,090324,,,R,V*14
$GPHDT,46.488,T*03
$GNACCURACY,3.7*12
$GNGGA,041533.700,2500.7933077,N,12132.4397854,E,4,52,0.52,16.803,M,15.25,M,0,3335*43
$GNRMC,041533.700,A,2500.7933077,N,12132.4397854,E,0.03,323.05,090324,,,R,V*1C
$GPHDT,,T*1B
$GNACCURACY,3.7*12
$GNGGA,041533.800,2500.7933067,N,12132.4397846,E,4,51,0.52,16.789,M,15.25,M,0,3335*40
$GNRMC,041533.800,A,2500.7933067,N,12132.4397846,E,0.03,323.05,090324,,,R,V*11
$GPHDT,46.299,T*05
$GNACCURACY,3.7*12
$GNGGA,041533.900,2500.7933062,N,12132.4397846,E,4,51,0.52,16.795,M,15.25,M,0,3335*49
$GNRMC,041533.900,A,2500.7933062,N,12132.4397846,E,0.04,323.05,090324,,,R,V*12
$GPHDT,,T*1B
$GNACCURACY,3.7*12
$GNGGA,041534.000,2500.7933058,N,12132.4397820,E,4,51,0.52,16.794,M,15.25,M,1,3335*4E
$GNRMC,041534.000,A,2500.7933058,N,12132.4397820,E,0.03,323.05,090324,,,R,V*12
$GPHDT,46.846,T*0D
$GNACCURACY,3.7*12
$GNGGA,041534.100,2500.7933063,N,12132.4397854,E,4,51,0.52,16.804,M,15.25,M,1,3335*42
$GNRMC,041534.100,A,2500.7933063,N,12132.4397854,E,0.02,323.05,090324,,,R,V*19
$GPHDT,,T*1B
$GNGSA,A,3,195,194,21,199,08,02,07,27,16,09,196,04,0.78,0.52,0.59,1*0A
$GNGSA,A,3,30,,,,,,,,,,,,0.78,0.52,0.59,1*06
$GNGSA,A,3,81,78,88,79,77,,,,,,,,0.78,0.52,0.59,2*0E
$GNGSA,A,3,21,13,26,27,15,,,,,,,,0.78,0.52,0.59,3*03
$GNGSA,A,3,23,09,06,16,07,40,28,43,39,25,37,,0.78,0.52,0.59,4*0E
$GPGSV,4,1,15,195,65,112,42,194,64,053,42,21,63,152,41,199,60,167,34,1*54
$GPGSV,4,2,15,08,60,000,44,50,60,167,37,02,51,176,45,07,44,315,44,1*68
$GPGSV,4,3,15,27,31,037,37,16,26,078,32,09,22,243,16,196,19,168,13,1*5D
$GPGSV,4,4,15,04,16,201,24,30,13,319,17,26,06,102,15,1*5F
$GPGSV,3,1,09,195,65,112,44,194,64,053,45,08,60,000,49,199,60,167,46,8*55
$GPGSV,3,2,09,27,31,037,39,196,19,168,29,04,16,201,29,30,13,319,31,8*5D
$GPGSV,3,3,09,26,06,102,19,8*5D
$GLGSV,2,1,06,81,68,204,44,78,58,044,43,88,52,029,43,79,28,336,39,1*7A
$GLGSV,2,2,06,77,22,114,16,82,18,206,15,1*7E
$GAGSV,2,1,08,21,55,015,41,13,54,076,38,26,46,171,42,27,28,082,32,7*70
$GAGSV,2,2,08,19,26,239,,15,12,037,20,04,12,297,,33,06,199,,7*72
$GAGSV,2,1,05,21,55,015,44,13,54,076,42,26,46,171,45,27,28,082,31,1*77
$GAGSV,2,2,05,15,12,037,16,1*44
$GBGSV,4,1,13,23,75,040,43,09,72,262,41,06,70,214,40,16,66,199,45,1*7B
$GBGSV,4,2,13,07,60,310,38,40,60,330,44,28,58,224,44,43,56,035,42,1*7F
$GBGSV,4,3,13,39,56,188,44,10,51,2