$FW : RTK35X,V1.1X0314AS,Lib20210517,1*54
$Tool : LOCOSYS , GNSS Firebird , v1.0.0.19*39
$---------------------------------------------------*2D
132.4397748,E,0.00,323.05,090324,,,R,V*12
$GPHDT,,T*1B
$GNACCURACY,3.6*13
$GNGGA,041607.400,2500.7932946,N,12132.4397762,E,4,51,0.53,16.795,M,15.25,M,1,3335*47
$GNRMC,041607.400,A,2500.7932946,N,12132.4397762,E,0.00,323.05,090324,,,R,V*18
$GPHDT,226.284,T*3D
$GNACCURACY,3.6*13
$GNGGA,041607.500,2500.7932939,N,12132.4397746,E,4,51,0.53,16.788,M,15.25,M,1,3335*44
$GNRMC,041607.500,A,2500.7932939,N,12132.4397746,E,0.00,323.05,090324,,,R,V*17
$GPHDT,,T*1B
$GNACCURACY,3.6*13
$GNGGA,041607.600,2500.7932934,N,12132.4397759,E,4,51,0.53,16.807,M,15.25,M,0,3335*4D
$GNRMC,041607.600,A,2500.7932934,N,12132.4397759,E,0.00,323.05,090324,,,R,V*17
$GPHDT,225.758,T*3A
$GNACCURACY,3.6*13
$GNGGA,041607.700,2500.7932958,N,12132.4397732,E,4,51,0.53,16.797,M,15.25,M,0,3335*4D
$GNRMC,041607.700,A,2500.7932958,N,12132.4397732,E,0.00,323.05,090324,,,R,V*11
$GPHDT,,T*1B
$GNACCURACY,3.6*13
$GNGGA,041607.800,2500.7932959,N,12132.4397726,E,4,51,0.53,16.793,M,15.25,M,0,3335*42
$GNRMC,041607.800,A,2500.7932959,N,12132.4397726,E,0.00,323.05,090324,,,R,V*1A
$GPHDT,225.333,T*33
$GNACCURACY,3.6*13
$GNGGA,041607.900,2500.7932950,N,12132.4397747,E,4,51,0.53,16.799,M,15.25,M,0,3335*47
$GNRMC,041607.900,A,2500.7932950,N,12132.4397747,E,0.00,323.05,090324,,,R,V*15
$GPHDT,,T*1B
$GNACCURACY,3.6*13
$GNGGA,041608.000,2500.7932962,N,12132.4397778,E,4,51,0.53,16.807,M,15.25,M,1,3335*45
$GNRMC,041608.000,A,2500.7932962,N,12132.4397778,E,0.00,323.05,090324,,,R,V*1E
$GPHDT,226.029,T*38
$GNACCURACY,3.6*13
$GNGGA,041608.100,2500.7932950,N,12132.4397748,E,4,51,0.53,16.805,M,15.25,M,1,3335*44
$GNRMC,041608.100,A,2500.7932950,N,12132.4397748,E,0.00,323.05,090324,,,R,V*1D
$GPHDT,,T*1B
$GNGSA,A,3,195,194,21,199,08,02,07,27,16,09,04,30,0.92,0.53,0.75,1*3C
$GNGSA,A,3,196,,,,,,,,,,,,0.92,0.53,0.75,1*30
$GNGSA,A,3,81,78,88,79,,,,,,,,,0.92,0.53,0.75,2*05
$GNGSA,A,3,21,13,26,27,15,,,,,,,,0.92,0.53,0.75,3*08
$GNGSA,A,3,23,09,06,16,40,07,28,39,43,25,37,,0.92,0.53,0.75,4*05
$GPGSV,4,1,15,195,65,112,40,194,64,053,41,21,63,151,41,199,60,167,34,1*56
$GPGSV,4,2,15,08,60,000,43,50,60,167,36,02,52,176,42,07,44,315,45,1*6B
$GPGSV,4,3,15,27,30,038,39,16,26,078,41,09,22,243,18,196,19,168,13,1*57
$GPGSV,4,4,15,04,15,201,23,30,14,319,29,26,06,102,,1*55
$GPGSV,2,1,08,195,65,112,41,194,64,053,45,08,60,000,41,199,60,167,45,8*5B
$GPGSV,2,2,08,27,30,038,40,196,19,168,20,04,15,201,28,30,14,319,26,8*57
$GLGSV,2,1,06,81,69,205,43,78,58,044,44,88,52,029,43,79,29,336,44,1*71
$GLGSV,2,2,06,77,21,114,13,82,19,206,15,1*79
$GAGSV,2,1,07,21,55,016,42,13,54,076,41,26,47,171,41,27,28,082,37,7*76
$GAGSV,2,2,07,19,26,239,,15,12,037,22,04,12,297,,7*48
$GAGSV,1,1,04,21,55,016,42,13,54,076,45,26,47,171,42,27,28,082,36,1*76
$GBGSV,4,1,14,23,75,041,46,09,72,261,41,06,69,214,40,16,66,199,41,1*77
$GBGSV,4,2,14,40,60,331,43,07,60,310,41,28,58,225,46,39,56,188,45,1*7E
$GBGSV,4,3,14,43,56,035,44,10,51,291,17,25,35,120,33,37,32,322,45,1*7A
$GBGSV,4,4,14,27,12,221,,34,09,040,,1*7E
$GBGSV,2,1,07,23,75,041,48,40,60,331,45,28,58,225,44,39,56,188,44,4*75
$GBGSV,2,2,07,43,56,035,42,25,35,120,29,37,32,322,43,4*48
$GNACCURACY,3.6*13
$PAIRSAT,1,35,2,0,201,3,0,200,4,0,221,5,0,200,6,0,200,7,0,201,8,0,221,9,0,220,10,0,200,11,0,200,12,0,200,13,0,200,14,0,200,15,0,200,16,0,201,17,0,200,18,0,200,19,0,200,20,0,200,21,0,201,22,0,200,23,0,200,24,0,200,25,0,200,26,0,220,27,0,221,28,0,200,29,0,200,30,0,221,31,0,200,32,0,200,194,0,621,195,0,621,196,0,620,199,0,621*5A
$PAIRSAT,2,24,65,0,200,66,0,200,67,0,200,68,0,200,69,0,200,70,0,200,71,0,200,72,0,200,73,0,200,74,0,200,75,0,200,76,0,200,77,0,201,78,0,201,79,0,201,80,0,200,81,0,201,82,0,201,83,0,200,84,0,200,85,0,200,86,0,200,87,0,200,88,0,201*7A
$PAIRSAT,3,23,2,0,1200,3,0,1200,4,0,1200,5,0,200,7,0,1200,8,0,1200,9,0,1200,10,0,1200,11,0,1200,12,0,1200,13,0,1221,15,0,1220,19,0,1201,21,0,1221,24,0,1200,25,0,1200,26,0,1221,27,0,1221,30,0,1200,31,0,1200,33,0,1200,34,0,1000,36,0,1200*6B
$PAIRSAT,4,46,1,0,200,2,0,200,3,0,600,4,0,200,5,0,200,6,0,201,7,0,201,8,0,200,9,0,201,10,0,201,11,0,200,12,0,200,13,0,200,14,0,200,16,0,201,19,0,600,20,0,600,21,0,600,22,0,600,23,0,621,24,0,600,25,0,621,26,0,600,27,0,600,28,0,621,29,0,600,30,0,600,32,0,600,33,0,600,34,0,621,35,0,600,36,0,600,37,0,621,38,0,600,39,0,621,40,0,621,41,0,600,42,0,600,43,0,621,44,0,400,45,0,400,46,0,400,59,0,400,60,0,400,61,0,400,62,0,400*4A
$PAIRDGP,10,2,4,7,8,9,16,21,26,27,30*42
$GNGGA,041608.200,2500.7932972,N,12132.4397763,E,4,51,0.53,16.807,M,15.25,M,1,3335*4C
$GNRMC,041608.200,A,2500.7932972,N,12132.4397763,E,0.00,323.05,090324,,,R,V*17
$GPHDT,225.695,T*3A
$GNACCURACY,3.6*13
$GNGGA,041608.300,2500.7932966,N,12132.4397774,E,4,51,0.53,16.805,M,15.25,M,1,3335*4C
$GNRMC,041608.300,A,2500.7932966,N,12132.4397774,E,0.00,323.05,090324,,,R,V*15
$GPHDT,,T*1B
$GNACCURACY,3.6*13
$GNGGA,041608.400,2500.7932941,N,12132.4397767,E,4,51,0.53,16.793,M,15.25,M,1,3335*4C
$GNRMC,041608.400,A,2500.7932941,N,12132.4397767,E,0.00,323.05,090324,,,R,V*15
$GPHDT,226.495,T*3B
$GNACCURACY,3.6*13
$GNGGA,041608.500,2500.7932937,N,12132.4397788,E,4,50,0.56,16.791,M,15.25,M,1,3335*4B
$GNRMC,041608.500,A,2500.7932937,N,12132.4397788,E,0.00,323.05,090324,,,R,V*14
$GPHDT,,T*1B
$GNACCURACY,3.6*13
$GNGGA,041608.600,2500.7932947,N,12132.4397818,E,4,49,0.56,16.795,M,15.25,M,1,3335*45
$GNRMC,041608.600,A,2500.7932947,N,12132.4397818,E,0.00,323.05,090324,,,R,V*16
$GPHDT,226.377,T*30
$GNACCURACY,3.6*13
$GNGGA,041608.700,2500.7932952,N,12132.4397829,E,4,50,0.56,16.798,M,15.25,M,1,3335*47
$GNRMC,041608.700,A,2500.7932952,N,12132.4397829,E,0.00,323.05,090324,,,R,V*11
$GPHDT,,T*1B
$GNACCURACY,3.6*13
$GNGGA,041608.800,2500.7932962,N,12132.4397833,E,4,50,0.56,16.791,M,15.25,M,0,3335*48
$GNRMC,041608.800,A,2500.7932962,N,12132.4397833,E,0.00,323.05,090324,,,R,V*16
$GPHDT,226.784,T*38
$GNACCURACY,3.6*13
$GNGGA,041608.900,2500.7932971,N,12132.4397834,E,4,50,0.56,16.796,M,15.25,M,0,3335*4B
$GNRMC,041608.900,A,2500.7932971,N,12132.4397834,E,0.00,323.05,090324,,,R,V*12
$GPHDT,,T*1B
$GNACCURACY,3.6*13
$GNGGA,041609.000,2500.7932986,N,12132.4397807,E,4,50,0.56,16.794,M,15.25,M,1,3335*48
$GNRMC,041609.000,A,2500.7932986,N,12132.4397807,E,0.00,323.05,090324,,,R,V*12
$GPHDT,226.904,T*3E
$GNACCURACY,3.6*13
$GNGGA,041609.100,2500.7932989,N,12132.4397819,E,4,49,0.56,16.788,M,15.25,M,1,3335*4C
$GNRMC,041609.100,A,2500.7932989,N,12132.4397819,E,0.00,323.05,090324,,,R,V*13
$GPHDT,,T*1B
$GNGSA,A,3,195,194,21,199,08,02,07,27,16,04,30,196,0.97,0.56,0.79,1*07
$GNGSA,A,3,81,78,88,79,,,,,,,,,0.97,0.56,0.79,2*09
$GNGSA,A,3,21,13,26,27,15,,,,,,,,0.97,0.56,0.79,3*04
$GNGSA,A,3,23,09,06,16,07,40,28,39,43,37,25,,0.97,0.56,0.79,4*09
$GPGSV,4,1,15,195,65,112,43,194,64,053,41,21,63,151,44,199,60,167,34,1*50
$GPGSV,4,2,15,08,60,000,43,50,60,167,37,02,52,176,43,07,44,315,44,1*6A
$GPGSV,4,3,15,27,30,038,39,16,26,078,41,09,22,243,17,196,19,168,16,1*5D
$GPGSV,4,4,15,04,15,201,24,30,14,319,28,26,06,102,,1*53
$GPGSV,2,1,08,195,65,112,43,194,64,053,41,08,60,000,42,199,60,167,45,8*5E
$GPGSV,2,2,08,27,30,038,39,196,19,168,23,04,15,201,28,30,14,319,26,8*5A
$GLGSV,2,1,06,81,69,205,43,78,58,044,44,88,52,029,43,79,29,336,44,1*71
$GLGSV,2,2,06,77,21,114,13,82,19,206,17,1*7B
$GAGSV,2,1,08,21,55,016,41,13,54,076,41,26,47,171,41,27,28,082,40,7*7A
$GAGSV,2,2,08,19,26,239,,04,12,297,,15,12,037,21,33,06,199,,7*73
$GAGSV,1,1,04,21,55,016,43,13,54,076,46,26,47,171,42,27,28,082,37,1*75
$GBGSV,4,1,14,23,75,041,46,09,72,261,41,06,69,214,40,16,66,199,41,1*77
$GBGSV,4,2,14,07,60,310,41,40,60,331,43,28,58,225,46,39,56,188,45,1*7E
$GBGSV,4,3,14,43,56,035,45,10,51,291,18,25,35,120,,37,32,322,45,1*74
$GBGSV,4,4,14,38,11,168,,34,09,040,,1*7D
$GBGSV,2,1,07,23,75,041,46,40,60,331,45,28,58,225,44,39,56,188,44,4*7B
$GBGSV,2,2,07,43,56,035,43,25,35,120,33,37,32,322,43,4*42
$GNACCURACY,3.6*13
$PAIRSAT,1,35,2,0,201,3,0,200,4,0,221,5,0,200,6,0,200,7,0,201,8,0,221,9,0,220,10,0,200,11,0,200,12,0,200,13,0,200,14,0,200,15,0,200,16,0,201,17,0,200,18,0,200,19,0,200,20,0,200,21,0,201,22,0,200,23,0,200,24,0,200,25,0,200,26,0,220,27,0,221,28,0,200,29,0,200,30,0,221,31,0,200,32,0,200,194,0,621,195,0,621,196,0,620,199,0,621*5A
$PAIRSAT,2,24,65,0,200,66,0,200,67,0,200,68,0,200,69,0,200,70,0,200,71,0,200,72,0,200,73,0,200,74,0,200,75,0,200,76,0,200,77,0,201,78,0,201,79,0,201,80,0,200,81,0,201,82,0,201,83,0,200,84,0,200,85,0,200,86,0,200,87,0,200,88,0,201*7A
$PAIRSAT,3,23,2,0,1200,3,0,1200,4,0,1200,5,0,200,7,0,1200,8,0,1200,9,0,1200,10,0,1200,11,0,1200,12,0,1200,13,0,1221,15,0,1220,19,0,1201,21,0,1221,24,0,1200,25,0,1200,26,0,1221,27,0,1221,30,0,1200,31,0,1200,33,0,1200,34,0,1000,36,0,1200*6B
$PAIRSAT,4,46,1,0,200,2,0,200,3,0,600,4,0,200,5,0,200,6,0,201,7,0,201,8,0,200,9,0,201,10,0,201,11,0,200,12,0,200,13,0,200,14,0,200,16,0,201,19,0,600,20,0,600,21,0,600,22,0,600,23,0,621,24,0,600,25,0,621,26,0,600,27,0,600,28,0,621,29,0,600,30,0,600,32,0,600,33,0,600,34,0,621,35,0,600,36,0,600,37,0,621,38,0,600,39,0,621,40,0,621,41,0,600,42,0,600,43,0,621,44,0,400,45,0,400,46,0,400,59,0,400,60,0,400,61,0,400,62,0,400*4A
$PAIRDGP,10,2,4,7,8,9,16,21,26,27,30*42
$GNGGA,041609.200,2500.7932977,N,12132.4397777,E,4,49,0.56,16.788,M,15.25,M,1,3335*49
$GNRMC,041609.200,A,2500.7932977,N,12132.4397777,E,0.00,323.05,090324,,,R,V*16
$GPHDT,227.039,T*38
$GNACCURACY,3.7*12
$GNGGA,041609.300,2500.7932996,N,12132.4397787,E,4,48,0.56,16.786,M,15.25,M,1,3335*47
$GNRMC,041609.300,A,2500.7932996,N,12132.4397787,E,0.00,323.05,090324,,,R,V*17
$GPHDT,,T*1B
$GNACCURACY,3.7*12
$GNGGA,041609.400,2500.7932990,N,12132.4397802,E,4,48,0.56,16.791,M,15.25,M,1,3335*42
$GNRMC,041609.400,A,2500.7932990,N,12132.4397802,E,0.00,323.05,090324,,,R,V*14
$GPHDT,226.751,T*30
$GNACCURACY,3.6*13
$GNGGA,041609.500,2500.7933008,N,12132.4397774,E,4,49,0.56,16.784,M,15.25,M,1,3335*41
$GNRMC,041609.500,A,2500.7933008,N,12132.4397774,E,0.00,323.05,090324,,,R,V*12
$GPHDT,,T*1B
$GNACCURACY,3.6*13
$GNGGA,041609.600,2500.7932985,N,12132.4397781,E,4,49,0.56,16.792,M,15.25,M,1,3335*42
$GNRMC,041609.600,A,2500.7932985,N,12132.4397781,E,0.00,323.05,090324,,,R,V*16
$GPHDT,227.145,T*32
$GNACCURACY,3.7*12
$GNGGA,041609.700,2500.7933007,N,12132.4397779,E,4,49,0.56,16.789,M,15.25,M,0,3335*4D
$GNRMC,041609.700,A,2500.7933007,N,12132.4397779,E,0.00,323.05,090324,,,R,V*12
$GPHDT,,T*1B
$GNACCURACY,3.7*12
$GNGGA,041609.800,2500.7932999,N,12132.4397797,E,4,50,0.54,16.795,M,15.25,M,0,3335*4A
$GNRMC,041609.800,A,2500.7932999,N,12132.4397797,E,0.00,323.05,090324,,,R,V*12
$GPHDT,227.215,T*34
$GNACCURACY,3.7*12
$GNGGA,041609.900,2500.7932994,N,12132.4397769,E,4,50,0.54,16.794,M,15.25,M,0,3335*46
$GNRMC,041609.900,A,2500.7932994,N,12132.4397769,E,0.01,323.05,090324,,,R,V*1E
$GPHDT,,T*1B
$GNACCURACY,3.7*12
$GNGGA,041610.000,2500.7933004,N,12132.4397775,E,4,50,0.54,16.787,M,15.25,M,1,3335*48
$GNRMC,041610.000,A,2500.7933004,N,12132.4397775,E,0.01,323.05,090324,,,R,V*13
$GPHDT,227.204,T*34
$GNACCURACY,3.7*12
$GNGGA,041610.100,2500.7933012,N,12132.4397777,E,4,50,0.54,16.789,M,15.25,M,1,3335*42
$GNRMC,041610.100,A,2500.7933012,N,12132.4397777,E,0.01,323.05,090324,,,R,V*17
$GPHDT,,T*1B
$GNGSA,A,3,195,194,21,199,08,02,07,27,16,04,30,196,0.92,0.54,0.74,1*0D
$GNGSA,A,3,81,78,88,79,82,,,,,,,,0.92,0.54,0.74,2*09
$GNGSA,A,3,21,13,26,27,15,,,,,,,,0.92,0.54,0.74,3*0E
$GNGSA,A,3,23,09,06,16,40,07,28,39,43,25,37,,0.92,0.54,0.74,4*03
$GPGSV,4,1,15,195,65,112,43,194,64,053,41,21,63,151,44,199,60,167,35,1*51
$GPGSV,4,2,15,08,60,000,43,50,60,167,38,02,52,176,44,07,44,315,44,1*62
$GPGSV,4,3,15,27,30,038,39,16,26,078,41,09,22,243,17,196,19,168,17,1*5C
$GPGSV,4,4,15,04,15,201,26,30,14,319,25,26,06,102,,1*5C
$GPGSV,2,1,08,195,65,112,45,194,64,053,41,08,60,000,42,199,60,167,46,8*5B
$GPGSV,2,2,08,27,30,038,40,196,19,168,22,04,15,201,28,30,14,319,28,8*5B
$GLGSV,2,1,06,81,69,205,42,78,58,044,44,88,52,029,43,79,29,336,44,1*70
$GLGSV,2,2,06,77,21,114,12,82,19,206,13,1*7E
$GAGSV,2,1,08,21,55,016,41,13,54,076,41,26,47,171,41,27,28,082,40,7*7A
$GAGSV,2,2,08,19,26,238,,04,12,297,,15,12,037,21,33,06,199,,7*72
$GAGSV,1,1,04,21,55,016,43,13,54,076,45,26,47,171,42,27,28,082,37,1*76
$GBGSV,4,1,14,23,75,041,46,09,72,261,41,06,69,214,40,16,66,199,41,1*77
$GBGSV,4,2,14,40,60,331,43,07,60,310,41,28,58,225,46,39,56,188,45,1*7E
$GBGSV,4,3,14,43,56,035,45,10,51,291,19,25,35,120,31,37,32,322,45,1*77
$GBGSV,4,4,14,34,09,040,,08,02,177,,1*72
$GBGSV,2,1,07,23,75,041,46,40,60,331,46,28,58,225,44,39,56,188,46,4*7A
$GBGSV,2,2,07,43,56,035,43,25,35,120,34,37,32,322,44,4*42
$GNACCURACY,3.7*12
$PAIRSAT,1,35,2,0,201,3,0,200,4,0,221,5,0,200,6,0,200,7,0,201,8,0,221,9,0,220,10,0,200,11,0,200,12,0,200,13,0,200,14,0,200,15,0,200,16,0,201,17,0,200,18,0,200,19,0,200,20,0,200,21,0,201,22,0,200,23,0,200,24,0,200,25,0,200,26,0,220,27,0,221,28,0,200,29,0,200,30,0,221,31,0,200,32,0,200,194,0,621,195,0,621,196,0,620,199,0,621*5A
$PAIRSAT,2,24,65,0,200,66,0,200,67,0,200,68,0,200,69,0,200,70,0,200,71,0,200,72,0,200,73,0,200,74,0,200,75,0,200,76,0,200,77,0,201,78,0,201,79,0,201,80,0,200,81,0,201,82,0,201,83,0,200,84,0,200,85,0,200,86,0,200,87,0,200,88,0,201*7A
$PAIRSAT,3,23,2,0,1200,3,0,1200,4,0,1200,5,0,200,7,0,1200,8,0,1200,9,0,1200,10,0,1200,11,0,1200,12,0,1200,13,0,1221,15,0,1220,19,0,1201,21,0,1221,24,0,1200,25,0,1200,26,0,1221,27,0,1221,30,0,1200,31,0,1200,33,0,1200,34,0,1000,36,0,1200*6B
$PAIRSAT,4,46,1,0,200,2,0,200,3,0,600,4,0,200,5,0,200,6,0,201,7,0,201,8,0,200,9,0,201,10,0,201,11,0,200,12,0,200,13,0,200,14,0,200,16,0,201,19,0,600,20,0,600,21,0,600,22,0,600,23,0,621,24,0,600,25,0,621,26,0,600,27,0,600,28,0,621,29,0,600,30,0,600,32,0,600,33,0,600,34,0,621,35,0,600,36,0,600,37,0,621,38,0,600,39,0,621,40,0,621,41,0,600,42,0,600,43,0,621,44,0,400,45,0,400,46,0,400,59,0,400,60,0,400,61,0,400,62,0,400*4A
$PAIRDGP,10,2,4,7,8,9,16,21,26,27,30*42
$GNGGA,041610.200,2500.7933004,N,12132.4397822,E,4,51,0.54,16.747,M,15.25,M,1,3335*4A
$GNRMC,041610.200,A,2500.7933004,N,12132.4397822,E,0.01,323.05,090324,,,R,V*1C
$GPHDT,226.952,T*3D
$GNACCURACY,3.6*13
$GNGGA,041610.300,2500.7932999,N,12132.4397762,E,4,51,0.54,16.792,M,15.25,M,1,3335*44
$GNRMC,041610.300,A,2500.7932999,N,12132.4397762,E,0.01,323.05,090324,,,R,V*1A
$GPHDT,,T*1B
$GNACCURACY,3.6*13
$GNGGA,041610.400,2500.7933006,N,12132.4397783,E,4,51,0.54,16.790,M,15.25,M,1,3335*40
$GNRMC,041610.400,A,2500.7933006,N,12132.4397783,E,0.01,323.05,090324,,,R,V*1C
$GPHDT,226.899,T*3B
$GNACCURACY,3.6*13
$GNGGA,041610.500,2500.7932993,N,12132.4397780,E,4,51,0.54,16.791,M,15.25,M,0,3335*46
$GNRMC,041610.500,A,2500.7932993,N,12132.4397780,E,0.00,323.05,090324,,,R,V*1B
$GPHDT,,T*1B
$GNACCURACY,3.6*13
$GNGGA,041610.600,2500.7933011,N,12132.4397785,E,4,51,0.54,16.789,M,15.25,M,0,3335*4B
$GNRMC,041610.600,A,2500.7933011,N,12132.4397785,E,0.00,323.05,090324,,,R,V*1F
$GPHDT,226.886,T*35
$GNACCURACY,3.6*13
$GNGGA,041610.700,2500.7932997,N,12132.4397769,E,4,51,0.54,16.784,M,15.25,M,0,3335*43
$GNRMC,041610.700,A,2500.7932997,N,12132.4397769,E,0.01,323.05,090324,,,R,V*1B
$GPHDT,,T*1B
$GNACCURACY,3.6*13
$GNGGA,041610.800,2500.7932989,N,12132.4397783,E,4,51,0.54,16.778,M,15.25,M,0,3335*44
$GNRMC,041610.800,A,2500.7932989,N,12132.4397783,E,0.01,323.05,090324,,,R,V*1F
$GPHDT,227.290,T*39
$GNACCURACY,3.6*13
$GNGGA,041610.900,2500.7933008,N,12132.4397791,E,4,51,0.54,16.787,M,15.25,M,0,3335*47
$GNRMC,041610.900,A,2500.7933008,N,12132.4397791,E,0.01,323.05,090324,,,R,V*1C
$GPHDT,,T*1B
$GNACCURACY,3.6*13
$GNGGA,041611.000,2500.7933004,N,12132.4397787,E,4,51,0.54,16.791,M,15.25,M,1,3335*42
$GNRMC,041611.000,A,2500.7933004,N,12132.4397787,E,0.01,323.05,090324,,,R,V*1F
$GPHDT,226.915,T*3E
$GNACCURACY,3.6*13
$GNGGA,041611.100,2500.7933003,N,12132.4397792,E,4,51,0.54,16.788,M,15.25,M,1,3335*48
$GNRMC,041611.100,A,2500.7933003,N,12132.4397792,E,0.01,323.05,090324,,,R,V*1D
$GPHDT,,T*1B
$GNGSA,A,3,195,194,21,199,08,02,07,27,16,04,30,196,0.92,0.54,0.74,1*0D
$GNGSA,A,3,81,78,88,79,82,,,,,,,,0.92,0.54,0.74,2*09
$GNGSA,A,3,21,13,26,27,15,,,,,,,,0.92,0.54,0.74,3*0E
$GNGSA,A,3,23,09,06,16,40,07,28,39,43,25,37,,0.92,0.54,0.74,4*03
$GPGSV,4,1,15,195,65,112,43,194,64,053,41,21,63,151,44,199,60,167,35,1*51
$GPGSV,4,2,15,08,60,000,43,50,60,167,38,02,52,176,44,07,44,315,44,1*62
$GPGSV,4,3,15,27,30,038,39,16,26,078,41,09,22,243,17,196,19,168,17,1*5C
$GPGSV,4,4,15,04,15,201,26,30,14,319,25,26,06,102,,1*5C
$GPGSV,2,1,08,195,65,112,45,194,64,053,41,08,60,000,42,199,60,167,46,8*5B
$GPGSV,2,2,08,27,30,038,40,196,19,168,23,04,15,201,28,30,14,319,28,8*5A
$GLGSV,2,1,06,81,69,205,42,78,58,044,44,88,52,029,43,79,29,336,44,1*70
$GLGSV,2,2,06,77,21,114,12,82,19,206,14,1*79
$GAGSV,2,1,08,21,55,016,41,13,54,076,40,26,47,171,41,27,28,082,40,7*7B
$GAGSV,2,2,08,19,26,238,,04,12,297,,15,12,037,21,33,06,199,,7*72
$GAGSV,1,1,04,21,55,016,43,13,54,076,45,26,47,171,42,27,28,082,37,1*76
$GBGSV,4,1,14,23,75,041,46,09,72,261,41,06,69,214,40,16,66,199,41,1*77
$GBGSV,4,2,14,40,60,331,43,07,60,310,41,28,58,225,46,39,56,188,45,1*7E
$GBGSV,4,3,14,43,56,035,45,10,51,291,19,25,35,120,31,37,32,322,45,1*77
$GBGSV,4,4,14,34,09,040,,08,02,177,,1*72
$GBGSV,2,1,07,23,75,041,46,40,60,331,46,28,58,225,44,39,56,188,46,4*7A
$GBGSV,2,2,07,43,56,035,43,25,35,120,34,37,32,322,44,4*42
$GNACCURACY,3.6*13
$PAIRSAT,1,35,2,0,201,3,0,200,4,0,221,5,0,200,6,0,200,7,0,201,8,0,221,9,0,220,10,0,200,11,0,200,12,0,200,13,0,200,14,0,200,15,0,200,16,0,201,17,0,200,18,0,200,19,0,200,20,0,200,21,0,201,22,0,200,23,0,200,24,0,200,25,0,200,26,0,220,27,0,221,28,0,200,29,0,200,30,0,221,31,0,200,32,0,200,194,0,621,195,0,621,196,0,620,199,0,621*5A
$PAIRSAT,2,24,65,0,200,66,0,200,67,0,200,68,0,200,69,0,200,70,0,200,71,0,200,72,0,200,73,0,200,74,0,200,75,0,200,76,0,200,77,0,201,78,0,201,79,0,201,80,0,200,81,0,201,82,0,201,83,0,200,84,0,200,85,0,200,86,0,200,87,0,200,88,0,201*7A
$PAIRSAT,3,23,2,0,1200,3,0,1200,4,0,1200,5,0,200,7,0,1200,8,0,1200,9,0,1200,10,0,1200,11,0,1200,12,0,1200,13,0,1221,15,0,1220,19,0,1201,21,0,1221,24,0,1200,25,0,1200,26,0,1221,27,0,1221,30,0,1200,31,0,1200,33,0,1200,34,0,1000,36,0,1200*6B
$PAIRSAT,4,46,1,0,200,2,0,200,3,0,600,4,0,200,5,0,200,6,0,201,7,0,201,8,0,200,9,0,201,10,0,201,11,0,200,12,0,200,13,0,200,14,0,200,16,0,201,19,0,600,20,0,600,21,0,600,22,0,600,23,0,621,24,0,600,25,0,621,26,0,600,27,0,600,28,0,621,29,0,600,30,0,600,32,0,600,33,0,600,34,0,621,35,0,600,36,0,600,37,0,621,38,0,600,39,0,621,40,0,621,41,0,600,42,0,600,43,0,621,44,0,400,45,0,400,46,0,400,59,0,400,60,0,400,61,0,400,62,0,400*4A
$PAIRDGP,10,2,4,7,8,9,16,21,26,27,30*42
$GNGGA,041611.200,2500.7933000,N,12132.4397779,E,4,51,0.54,16.785,M,15.25,M,1,3335*40
$GNRMC,041611.200,A,2500.7933000,N,12132.4397779,E,0.01,323.05,090324,,,R,V*18
$GPHDT,227.159,T*3F
$GNACCURACY,3.6*13
$GNGGA,041611.300,2500.7933001,N,12132.4397788,E,4,51,0.54,16.789,M,15.25,M,1,3335*42
$GNRMC,041611.300,A,2500.7933001,N,12132.4397788,E,0.01,323.05,090324,,,R,V*16
$GPHDT,,T*1B
$GNACCURACY,3.6*13
$GNGGA,041611.400,2500.7932997,N,12132.4397774,E,4,51,0.54,16.795,M,15.25,M,1,3335*4C
$GNRMC,041611.400,A,2500.7932997,N,12132.4397774,E,0.01,323.05,090324,,,R,V*15
$GPHDT,226.628,T*3F
$GNACCURACY,3.6*13
$GNGGA,041611.500,2500.7933004,N,12132.4397791,E,4,51,0.54,16.786,M,15.25,M,1,3335*46
$GNRMC,041611.500,A,2500.7933004,N,12132.4397791,E,0.01,323.05,090324,,,R,V*1D
$GPHDT,,T*1B
$GNACCURACY,3.6*13
$GNGGA,041611.600,2500.7932966,N,12132.4397783,E,4,51,0.54,16.797,M,15.25,M,0,3335*4B
$GNRMC,041611.600,A,2500.7932966,N,12132.4397783,E,0.01,323.05,090324,,,R,V*11
$GPHDT,227.093,T*38
$GNACCURACY,3.6*13
$GNGGA,041611.700,2500.7932996,N,12132.4397784,E,4,51,0.52,16.797,M,15.25,M,0,3335*44
$GNRMC,041611.700,A,2500.7932996,N,12132.4397784,E,0.01,323.05,090324,,,R,V*18
$GPHDT,,T*1B
$GNACCURACY,3.6*13
$GNGGA,041611.800,2500.7932992,N,12132.4397771,E,4,51,0.52,16.793,M,15.25,M,0,3335*41
$GNRMC,041611.800,A,2500.7932992,N,12132.4397771,E,0.01,323.05,090324,,,R,V*19
$GPHDT,226.717,T*32
$GNACCURACY,3.6*13
$GNGGA,041611.900,2500.7932984,N,12132.4397798,E,4,52,0.52,16.792,M,15.25,M,0,3335*42
$GNRMC,041611.900,A,2500.7932984,N,12132.4397798,E,0.01,323.05,090324,,,R,V*18
$GPHDT,,T*1B
$GNACCURACY,3.6*13
$GNGGA,041612.000,2500.7932990,N,12132.4397784,E,4,52,0.52,16.792,M,15.25,M,1,3335*41
$GNRMC,041612.000,A,2500.7932990,N,12132.4397784,E,0.00,323.05,090324,,,R,V*1B
$GPHDT,226.641,T*30
$GNACCURACY,3.6*13
$GNGGA,041612.100,2500.7932990,N,12132.4397787,E,4,52,0.52,16.796,M,15.25,M,1,3335*47
$GNRMC,041612.100,A,2500.7932990,N,12132.4397787,E,0.01,323.05,090324,,,R,V*18
$GPHDT,,T*1B
$GNGSA,A,3,195,194,21,199,08,02,07,27,16,04,30,09,0.78,0.52,0.58,1*36
$GNGSA,A,3,196,,,,,,,,,,,,0.78,0.52,0.58,1*3A
$GNGSA,A,3,81,78,88,79,82,,,,,,,,0.78,0.52,0.58,2*05
$GNGSA,A,3,21,13,26,27,15,,,,,,,,0.78,0.52,0.58,3*02
$GNGSA,A,3,23,09,06,16,07,40,28,43,39,25,37,,0.78,0.52,0.58,4*0F
$GPGSV,4,1,15,195,65,112,43,194,64,053,41,21,63,151,44,199,60,167,35,1*51
$GPGSV,4,2,15,08,60,000,43,50,60,167,38,02,52,176,44,07,44,315,44,1*62
$GPGSV,4,3,15,27,30,038,39,16,26,078,41,09,22,243,15,196,19,168,17,1*5E
$GPGSV,4,4,15,04,15,201,26,30,14,319,24,26,06,102,,1*5D
$GPGSV,3,1,09,195,65,112,45,194,64,053,42,08,60,000,42,199,60,167,46,8*58
$GPGSV,3,2,09,27,30,038,40,09,22,243,17,196,19,168,23,04,15,201,28,8*57
$GPGSV,3,3,09,30,14,319,28,8*53
$GLGSV,2,1,06,81,69,205,42,78,58,044,44,88,52,029,42,79,29,336,44,1*71
$GLGSV,2,2,06,77,21,114,12,82,19,206,15,1*78
$GAGSV,2,1,08,21,55,016,41,13,54,076,40,26,47,171,41,27,28,082,40,7*7B
$GAGSV,2,2,08,19,26,238,,15,12,037,22,04,12,297,,33,06,199,,7*71
$GAGSV,1,1,04,21,55,016,43,13,54,076,45,26,47,171,42,27,28,082,37,1*76
$GBGSV,4,1,13,23,75,041,46,09,72,261,41,06,69,214,40,16,66,199,41,1*70
$GBGSV,4,2,13,07,60,310,41,40,60,331,43,28,58,225,45,43,56,035,45,1*70
$GBGSV,4,3,13,39,56,188,45,10,51,291,18,25,35,120,32,37,32,322,45,1*78
$GBGSV,4,4,13,34,09,040,,1*4E
$GBGSV,2,1,07,23,75,041,46,40,60,331,46,28,58,225,44,39,56,188,46,4*7A
$GBGSV,2,2,07,43,56,035,43,25,35,120,34,37,32,322,44,4*42
$GNACCURACY,3.6*13
$PAIRSAT,1,35,2,0,201,3,0,200,4,0,221,5,0,200,6,0,200,7,0,201,8,0,221,9,0,220,10,0,200,11,0,200,12,0,200,13,0,200,14,0,200,15,0,200,16,0,201,17,0,200,18,0,200,19,0,200,20,0,200,21,0,201,22,0,200,23,0,200,24,0,200,25,0,200,26,0,220,27,0,221,28,0,200,29,0,200,30,0,221,31,0,200,32,0,200,194,0,621,195,0,621,196,0,620,199,0,621*5A
$PAIRSAT,2,24,65,0,200,66,0,200,67,0,200,68,0,200,69,0,200,70,0,200,71,0,200,72,0,200,73,0,200,74,0,200,75,0,200,76,0,200,77,0,201,78,0,201,79,0,201,80,0,200,81,0,201,82,0,201,83,0,200,84,0,200,85,0,200,86,0,200,87,0,200,88,0,201*7A
$PAIRSAT,3,23,2,0,1200,3,0,1200,4,0,1200,5,0,200,7,0,1200,8,0,1200,9,0,1200,10,0,1200,11,0,1200,12,0,1200,13,0,1221,15,0,1220,19,0,1201,21,0,1221,24,0,1200,25,0,1200,26,0,1221,27,0,1221,30,0,1200,31,0,1200,33,0,1200,34,0,1000,36,0,1200*6B
$PAIRSAT,4,46,1,0,200,2,0,200,3,0,600,4,0,200,5,0,200,6,0,201,7,0,201,8,0,200,9,0,201,10,0,201,11,0,200,12,0,200,13,0,200,14,0,200,16,0,201,19,0,600,20,0,600,21,0,600,22,0,600,23,0,621,24,0,600,25,0,621,26,0,600,27,0,600,28,0,621,29,0,600,30,0,600,32,0,600,33,0,600,34,0,621,35,0,600,36,0,600,37,0,621,38,0,600,39,0,621,40,0,621,41,0,600,42,0,600,43,0,621,44,0,400,45,0,400,46,0,400,59,0,400,60,0,400,61,0,400,62,0,400*4A
$PAIRDGP,10,2,4,7,8,9,16,21,26,27,30*42
$GNGGA,041612.200,2500.7932988,N,12132.4397791,E,4,52,0.52,16.795,M,15.25,M,1,3335*49
$GNRMC,041612.200,A,2500.7932988,N,12132.4397791,E,0.01,323.05,090324,,,R,V*15
$GPHDT,226.522,T*36
$GNACCURACY,3.6*13
$GNGGA,041612.300,2500.7932997,N,12132.4397782,E,4,52,0.52,16.797,M,15.25,M,1,3335*46
$GNRMC,041612.300,A,2500.7932997,N,12132.4397782,E,0.01,323.05,090324,,,R,V*18
$GPHDT,,T*1B
$GNACCURACY,3.6*13
$GNGGA,041612.400,2500.7932979,N,12132.4397775,E,4,51,0.53,16.794,M,15.25,M,1,3335*48
$GNRMC,041612.400,A,2500.7932979,N,12132.4397775,E,0.01,323.05,090324,,,R,V*17
$GPHDT,227.055,T*32
$GNACCURACY,3.6*13
$GNGGA,041612.500,2500.7932997,N,12132.4397807,E,4,51,0.53,16.795,M,15.25,M,1,3335*42
$GNRMC,041612.500,A,2500.7932997,N,12132.4397807,E,0.01,323.05,090324,,,R,V*1C
$GPHDT,,T*1B
$GNACCURACY,3.6*13
$GNGGA,041612.600,2500.7932989,N,12132.4397750,E,4,51,0.53,16.783,M,15.25,M,0,3335*45
$GNRMC,041612.600,A,2500.7932989,N,12132.4397750,E,0.00,323.05,090324,,,R,V*1C
$GPHDT,227.125,T*34
$GNACCURACY,3.6*13
$GNGGA,041612.700,2500.7932998,N,12132.4397760,E,4,51,0.53,16.796,M,15.25,M,0,3335*43
$GNRMC,041612.700,A,2500.7932998,N,12132.4397760,E,0.00,323.05,090324,,,R,V*1E
$GPHDT,,T*1B
$GNACCURACY,3.6*13
$GNGGA,041612.800,2500.7933005,N,12132.4397750,E,4,51,0.53,16.793,M,15.25,M,0,3335*46
$GNRMC,041612.800,A,2500.7933005,N,12132.4397750,E,0.00,323.05,090324,,,R,V*1E
$GPHDT,226.971,T*3C
$GNACCURACY,3.6*13
$GNGGA,041612.900,2500.7932988,N,12132.4397762,E,4,51,0.53,16.785,M,15.25,M,0,3335*4C
$GNRMC,041612.900,A,2500.7932988,N,12132.4397762,E,0.01,323.05,090324,,,R,V*12
$GPHDT,,T*1B
$GNACCURACY,3.6*13
$GNGGA,041613.000,2500.7932993,N,12132.4397742,E,4,50,0.53,16.791,M,15.25,M,1,3335*49
$GNRMC,041613.000,A,2500.7932993,N,12132.4397742,E,0.00,323.05,090324,,,R,V*13
$GPHDT,226.733,T*34
$GNACCURACY,3.6*13
$GNGGA,041613.100,2500.7932983,N,12132.4397750,E,4,51,0.53,16.792,M,15.25,M,1,3335*48
$GNRMC,041613.100,A,2500.7932983,N,12132.4397750,E,0.00,323.05,090324,,,R,V*10
$GPHDT,,T*1B
$GNGSA,A,3,195,194,21,199,08,02,07,27,16,04,30,09,0.80,0.53,0.60,1*3B
$GNGSA,A,3,196,,,,,,,,,,,,0.80,0.53,0.60,1*37
$GNGSA,A,3,81,78,88,79,,,,,,,,,0.80,0.53,0.60,2*02
$GNGSA,A,3,21,13,26,27,15,,,,,,,,0.80,0.53,0.60,3*0F
$GNGSA,A,3,23,09,06,16,07,40,28,43,39,25,37,,0.80,0.53,0.60,4*02
$GPGSV,4,1,15,195,65,112,43,194,64,053,41,21,63,151,44,199,60,167,36,1*52
$GPGSV,4,2,15,08,60,000,43,50,60,167,38,02,52,176,44,07,44,315,44,1*62
$GPGSV,4,3,15,27,30,038,39,16,26,078,41,09,22,243,17,196,19,168,15,1*5E
$GPGSV,4,4,15,04,15,201,25,30,14,319,25,26,06,102,,1*5F
$GPGSV,3,1,09,195,65,112,45,194,64,053,42,08,60,000,42,199,60,167,46,8*58
$GPGSV,3,2,09,27,30,038,40,09,22,243,15,196,19,168,22,04,15,201,28,8*54
$GPGSV,3,3,09,30,14,319,26,8*5D
$GLGSV,2,1,06,81,69,205,42,78,58,044,44,88,52,029,41,79,29,336,44,1*72
$GLGSV,2,2,06,77,21,114,,82,19,206,16,1*78
$GAGSV,2,1,08,21,55,016,41,13,54,076,39,26,47,171,41,27,28,082,40,7*75
$GAGSV,2,2,08,19,26,238,,15,12,037,22,04,12,297,,33,06,199,,7*71
$GAGSV,1,1,04,21,55,016,43,13,54,076,44,26,47,171,42,27,28,082,37,1*77
$GBGSV,4,1,13,23,75,041,46,09,72,261,41,06,69,214,40,16,66,199,41,1*70
$GBGSV,4,2,13,07,60,310,41,40,60,331,43,28,58,225,45,43,56,035,45,1*70
$GBGSV,4,3,13,39,56,188,45,10,51,291,18,25,35,120,32,37,32,322,45,1*78
$GBGSV,4,4,13,34,09,040,,1*4E
$GBGSV,2,1,07,23,75,041,46,40,60,331,46,28,58,225,44,39,56,188,46,4*7A
$GBGSV,2,2,07,43,56,035,43,25,35,120,34,37,32,322,44,4*42
$GNACCURACY,3.6*13
$PAIRSAT,1,35,2,0,201,3,0,200,4,0,221,5,0,200,6,0,200,7,0,201,8,0,221,9,0,220,10,0,200,11,0,200,12,0,200,13,0,200,14,0,200,15,0,200,16,0,201,17,0,200,18,0,200,19,0,200,20,0,200,21,0,201,22,0,200,23,0,200,24,0,200,25,0,200,26,0,220,27,0,221,28,0,200,29,0,200,30,0,221,31,0,200,32,0,200,194,0,621,195,0,621,196,0,620,199,0,621*5A
$PAIRSAT,2,24,65,0,200,66,0,200,67,0,200,68,0,200,69,0,200,70,0,200,71,0,200,72,0,200,73,0,200,74,0,200,75,0,200,76,0,200,77,0,201,78,0,201,79,0,201,80,0,200,81,0,201,82,0,201,83,0,200,84,0,200,85,0,200,86,0,200,87,0,200,88,0,201*7A
$PAIRSAT,3,23,2,0,1200,3,0,1200,4,0,1200,5,0,200,7,0,1200,8,0,1200,9,0,1200,10,0,1200,11,0,1200,12,0,1200,13,0,1221,15,0,1220,19,0,1201,21,0,1221,24,0,1200,25,0,1