$FW : RTK35X,V1.1X0314AS,Lib20210517,1*54
$Tool : LOCOSYS , GNSS Firebird , v1.0.0.19*39
$---------------------------------------------------*2D
$GNACCURACY,3.6*13
$GNGGA,041616.600,2500.7932999,N,12132.4397899,E,4,50,0.52,16.787,M,15.25,M,0,3335*4E
$GNRMC,041616.600,A,2500.7932999,N,12132.4397899,E,0.02,323.05,090324,,,R,V*11
$GPHDT,188.318,T*3E
$GNACCURACY,3.6*13
$GNGGA,041616.700,2500.7932995,N,12132.4397900,E,4,50,0.52,16.786,M,15.25,M,0,3335*43
$GNRMC,041616.700,A,2500.7932995,N,12132.4397900,E,0.03,323.05,090324,,,R,V*1C
$GPHDT,,T*1B
$GNACCURACY,3.6*13
$GNGGA,041616.800,2500.7932992,N,12132.4397899,E,4,50,0.52,16.767,M,15.25,M,0,3335*45
$GNRMC,041616.800,A,2500.7932992,N,12132.4397899,E,0.03,323.05,090324,,,R,V*15
$GPHDT,187.858,T*3E
$GNACCURACY,3.6*13
$GNGGA,041616.900,2500.7932994,N,12132.4397893,E,4,50,0.52,16.785,M,15.25,M,0,3335*44
$GNRMC,041616.900,A,2500.7932994,N,12132.4397893,E,0.02,323.05,090324,,,R,V*19
$GPHDT,,T*1B
$GNACCURACY,3.6*13
$GNGGA,041617.000,2500.7932983,N,12132.4397942,E,4,50,0.52,16.790,M,15.25,M,1,3335*42
$GNRMC,041617.000,A,2500.7932983,N,12132.4397942,E,0.02,323.05,090324,,,R,V*1A
$GPHDT,187.842,T*35
$GNACCURACY,3.6*13
$GNGGA,041617.100,2500.7933014,N,12132.4397912,E,4,51,0.52,16.772,M,15.25,M,1,3335*4D
$GNRMC,041617.100,A,2500.7933014,N,12132.4397912,E,0.03,323.05,090324,,,R,V*19
$GPHDT,,T*1B
$GNGSA,A,3,195,194,21,199,08,02,07,27,16,30,09,196,0.78,0.52,0.58,1*0C
$GNGSA,A,3,04,,,,,,,,,,,,0.78,0.52,0.58,1*00
$GNGSA,A,3,81,78,88,79,82,,,,,,,,0.78,0.52,0.58,2*05
$GNGSA,A,3,21,13,26,27,15,,,,,,,,0.78,0.52,0.58,3*02
$GNGSA,A,3,23,09,06,16,07,40,28,43,39,37,25,,0.78,0.52,0.58,4*0F
$GPGSV,4,1,15,195,65,112,41,194,64,053,38,21,63,151,43,199,60,167,36,1*59
$GPGSV,4,2,15,08,60,000,39,50,60,167,38,02,52,176,46,07,44,315,45,1*6C
$GPGSV,4,3,15,27,30,038,37,16,26,078,30,09,22,243,18,196,19,168,12,1*5E
$GPGSV,4,4,15,04,15,201,18,30,14,319,22,26,06,102,,1*56
$GPGSV,3,1,09,195,65,112,39,194,64,053,41,08,60,000,45,199,60,167,46,8*57
$GPGSV,3,2,09,27,30,038,36,09,22,243,16,196,19,168,24,04,15,201,24,8*5C
$GPGSV,3,3,09,30,14,319,29,8*52
$GLGSV,2,1,06,81,69,205,43,78,58,044,41,88,51,029,41,79,29,336,43,1*72
$GLGSV,2,2,06,77,21,114,13,82,19,206,15,1*79
$GAGSV,2,1,07,21,55,016,41,13,54,076,36,26,47,171,42,27,28,082,28,7*78
$GAGSV,2,2,07,19,26,238,,15,12,037,20,33,06,199,,7*47
$GAGSV,1,1,04,21,55,016,42,13,54,076,39,26,47,171,44,27,28,082,28,1*74
$GBGSV,4,1,13,23,75,042,46,09,72,261,43,06,69,214,39,16,66,199,41,1*7F
$GBGSV,4,2,13,07,60,310,41,40,60,331,43,28,59,225,43,43,56,035,44,1*76
$GBGSV,4,3,13,39,56,188,44,10,51,291,15,25,35,120,,37,32,322,43,1*73
$GBGSV,4,4,13,34,09,040,,1*4E
$GBGSV,2,1,07,23,75,042,45,40,60,331,43,28,59,225,42,39,56,188,43,4*7D
$GBGSV,2,2,07,43,56,035,43,25,35,120,34,37,32,322,42,4*44
$GNACCURACY,3.6*13
$PAIRSAT,1,35,2,0,201,3,0,200,4,0,221,5,0,200,6,0,200,7,0,201,8,0,221,9,0,220,10,0,200,11,0,200,12,0,200,13,0,200,14,0,200,15,0,200,16,0,201,17,0,200,18,0,200,19,0,200,20,0,200,21,0,201,22,0,200,23,0,200,24,0,200,25,0,200,26,0,220,27,0,221,28,0,200,29,0,200,30,0,221,31,0,200,32,0,200,194,0,621,195,0,621,196,0,620,199,0,621*5A
$PAIRSAT,2,24,65,0,200,66,0,200,67,0,200,68,0,200,69,0,200,70,0,200,71,0,200,72,0,200,73,0,200,74,0,200,75,0,200,76,0,200,77,0,201,78,0,201,79,0,201,80,0,200,81,0,201,82,0,201,83,0,200,84,0,200,85,0,200,86,0,200,87,0,200,88,0,201*7A
$PAIRSAT,3,23,2,0,1200,3,0,1200,4,0,1200,5,0,200,7,0,1200,8,0,1200,9,0,1200,10,0,1200,11,0,1200,12,0,1200,13,0,1221,15,0,1220,19,0,1201,21,0,1221,24,0,1200,25,0,1200,26,0,1221,27,0,1221,30,0,1200,31,0,1200,33,0,1200,34,0,1000,36,0,1200*6B
$PAIRSAT,4,46,1,0,200,2,0,200,3,0,600,4,0,200,5,0,200,6,0,201,7,0,201,8,0,200,9,0,201,10,0,201,11,0,200,12,0,200,13,0,200,14,0,200,16,0,201,19,0,600,20,0,600,21,0,600,22,0,600,23,0,621,24,0,600,25,0,621,26,0,600,27,0,600,28,0,621,29,0,600,30,0,600,32,0,600,33,0,600,34,0,621,35,0,600,36,0,600,37,0,621,38,0,600,39,0,621,40,0,621,41,0,600,42,0,600,43,0,621,44,0,400,45,0,400,46,0,400,59,0,400,60,0,400,61,0,400,62,0,400*4A
$PAIRDGP,10,2,4,7,8,9,16,21,26,27,30*42
$GNGGA,041617.200,2500.7933003,N,12132.4397895,E,4,50,0.52,16.789,M,15.25,M,1,3335*43
$GNRMC,041617.200,A,2500.7933003,N,12132.4397895,E,0.02,323.05,090324,,,R,V*13
$GPHDT,186.619,T*34
$GNACCURACY,3.6*13
$GNGGA,041617.300,2500.7933002,N,12132.4397924,E,4,50,0.52,16.779,M,15.25,M,1,3335*47
$GNRMC,041617.300,A,2500.7933002,N,12132.4397924,E,0.02,323.05,090324,,,R,V*18
$GPHDT,,T*1B
$GNACCURACY,3.6*13
$GNGGA,041617.400,2500.7933003,N,12132.4397927,E,4,50,0.52,16.778,M,15.25,M,1,3335*43
$GNRMC,041617.400,A,2500.7933003,N,12132.4397927,E,0.02,323.05,090324,,,R,V*1D
$GPHDT,186.853,T*34
$GNACCURACY,3.6*13
$GNGGA,041617.500,2500.7933005,N,12132.4397899,E,4,50,0.52,16.794,M,15.25,M,0,3335*43
$GNRMC,041617.500,A,2500.7933005,N,12132.4397899,E,0.03,323.05,090324,,,R,V*1F
$GPHDT,,T*1B
$GNACCURACY,3.6*13
$GNGGA,041617.600,2500.7932999,N,12132.4397927,E,4,51,0.52,16.788,M,15.25,M,0,3335*45
$GNRMC,041617.600,A,2500.7932999,N,12132.4397927,E,0.03,323.05,090324,,,R,V*15
$GPHDT,186.708,T*35
$GNACCURACY,3.6*13
$GNGGA,041617.700,2500.7932997,N,12132.4397911,E,4,51,0.52,16.794,M,15.25,M,0,3335*42
$GNRMC,041617.700,A,2500.7932997,N,12132.4397911,E,0.02,323.05,090324,,,R,V*1E
$GPHDT,,T*1B
$GNACCURACY,3.6*13
$GNGGA,041617.800,2500.7932998,N,12132.4397909,E,4,51,0.52,16.792,M,15.25,M,0,3335*4D
$GNRMC,041617.800,A,2500.7932998,N,12132.4397909,E,0.02,323.05,090324,,,R,V*17
$GPHDT,186.506,T*39
$GNACCURACY,3.6*13
$GNGGA,041617.900,2500.7933008,N,12132.4397895,E,4,52,0.52,16.788,M,15.25,M,0,3335*41
$GNRMC,041617.900,A,2500.7933008,N,12132.4397895,E,0.02,323.05,090324,,,R,V*13
$GPHDT,,T*1B
$GNACCURACY,3.6*13
$GNGGA,041618.000,2500.7932988,N,12132.4397907,E,4,52,0.52,16.772,M,15.25,M,1,3335*49
$GNRMC,041618.000,A,2500.7932988,N,12132.4397907,E,0.02,323.05,090324,,,R,V*1F
$GPHDT,186.408,T*36
$GNACCURACY,3.6*13
$GNGGA,041618.100,2500.7933004,N,12132.4397897,E,4,51,0.54,16.797,M,15.25,M,1,3335*42
$GNRMC,041618.100,A,2500.7933004,N,12132.4397897,E,0.01,323.05,090324,,,R,V*19
$GPHDT,,T*1B
$GNGSA,A,3,195,194,21,199,08,02,07,27,09,30,196,04,0.80,0.54,0.59,1*0F
$GNGSA,A,3,81,78,88,79,82,,,,,,,,0.80,0.54,0.59,2*05
$GNGSA,A,3,21,13,26,27,15,,,,,,,,0.80,0.54,0.59,3*02
$GNGSA,A,3,23,09,06,16,07,40,28,39,43,25,37,,0.80,0.54,0.59,4*0F
$GPGSV,4,1,15,195,65,112,41,194,64,053,38,21,63,151,43,199,60,167,36,1*59
$GPGSV,4,2,15,08,60,000,40,50,60,167,38,02,52,176,46,07,44,315,45,1*62
$GPGSV,4,3,15,27,30,038,37,16,26,078,24,09,22,243,18,196,19,168,,1*58
$GPGSV,4,4,15,04,15,201,18,30,14,319,25,26,06,102,,1*51
$GPGSV,3,1,09,195,65,112,38,194,64,053,41,08,60,000,45,199,60,167,46,8*56
$GPGSV,3,2,09,27,30,038,36,09,22,243,16,196,19,168,24,04,15,201,24,8*5C
$GPGSV,3,3,09,30,14,319,28,8*53
$GLGSV,2,1,06,81,69,205,43,78,58,044,40,88,51,029,41,79,29,336,42,1*72
$GLGSV,2,2,06,77,21,114,12,82,19,206,14,1*79
$GAGSV,2,1,07,21,55,016,41,13,54,076,36,26,47,171,42,27,28,082,29,7*79
$GAGSV,2,2,07,19,26,238,,15,12,037,21,33,06,199,,7*46
$GAGSV,1,1,04,21,55,016,43,13,54,076,39,26,47,171,44,27,28,082,32,1*7E
$GBGSV,4,1,13,23,75,042,47,09,72,261,43,06,69,214,40,16,66,199,42,1*73
$GBGSV,4,2,13,07,60,310,41,40,60,331,43,28,59,225,43,39,56,188,44,1*7C
$GBGSV,4,3,13,43,55,035,44,10,51,291,15,25,35,120,30,37,32,322,42,1*78
$GBGSV,4,4,13,34,09,040,,1*4E
$GBGSV,2,1,07,23,75,042,45,40,60,331,43,28,59,225,42,39,56,188,43,4*7D
$GBGSV,2,2,07,43,55,035,43,25,35,120,35,37,32,322,42,4*46
$GNACCURACY,3.6*13
$PAIRSAT,1,35,2,0,201,3,0,200,4,0,221,5,0,200,6,0,200,7,0,201,8,0,221,9,0,220,10,0,200,11,0,200,12,0,200,13,0,200,14,0,200,15,0,200,16,0,201,17,0,200,18,0,200,19,0,200,20,0,200,21,0,201,22,0,200,23,0,200,24,0,200,25,0,200,26,0,220,27,0,221,28,0,200,29,0,200,30,0,221,31,0,200,32,0,200,194,0,621,195,0,621,196,0,620,199,0,621*5A
$PAIRSAT,2,24,65,0,200,66,0,200,67,0,200,68,0,200,69,0,200,70,0,200,71,0,200,72,0,200,73,0,200,74,0,200,75,0,200,76,0,200,77,0,201,78,0,201,79,0,201,80,0,200,81,0,201,82,0,201,83,0,200,84,0,200,85,0,200,86,0,200,87,0,200,88,0,201*7A
$PAIRSAT,3,23,2,0,1200,3,0,1200,4,0,1200,5,0,200,7,0,1200,8,0,1200,9,0,1200,10,0,1200,11,0,1200,12,0,1200,13,0,1221,15,0,1220,19,0,1201,21,0,1221,24,0,1200,25,0,1200,26,0,1221,27,0,1221,30,0,1200,31,0,1200,33,0,1200,34,0,1000,36,0,1200*6B
$PAIRSAT,4,46,1,0,200,2,0,200,3,0,600,4,0,200,5,0,200,6,0,201,7,0,201,8,0,200,9,0,201,10,0,201,11,0,200,12,0,200,13,0,200,14,0,200,16,0,201,19,0,600,20,0,600,21,0,600,22,0,600,23,0,621,24,0,600,25,0,621,26,0,600,27,0,600,28,0,621,29,0,600,30,0,600,32,0,600,33,0,600,34,0,621,35,0,600,36,0,600,37,0,621,38,0,600,39,0,621,40,0,621,41,0,600,42,0,600,43,0,621,44,0,400,45,0,400,46,0,400,59,0,400,60,0,400,61,0,400,62,0,400*4A
$PAIRDGP,10,2,4,7,8,9,16,21,26,27,30*42
$GNGGA,041618.200,2500.7932984,N,12132.4397878,E,4,51,0.54,16.802,M,15.25,M,1,3335*43
$GNRMC,041618.200,A,2500.7932984,N,12132.4397878,E,0.01,323.05,090324,,,R,V*1B
$GPHDT,185.944,T*30
$GNACCURACY,3.6*13
$GNGGA,041618.300,2500.7933006,N,12132.4397928,E,4,51,0.54,16.788,M,15.25,M,1,3335*49
$GNRMC,041618.300,A,2500.7933006,N,12132.4397928,E,0.01,323.05,090324,,,R,V*1C
$GPHDT,,T*1B
$GNACCURACY,3.6*13
$GNGGA,041618.400,2500.7933002,N,12132.4397882,E,4,51,0.54,16.784,M,15.25,M,1,3335*47
$GNRMC,041618.400,A,2500.7933002,N,12132.4397882,E,0.01,323.05,090324,,,R,V*1E
$GPHDT,185.643,T*38
$GNACCURACY,3.6*13
$GNGGA,041618.500,2500.7932996,N,12132.4397901,E,4,51,0.54,16.790,M,15.25,M,1,3335*4C
$GNRMC,041618.500,A,2500.7932996,N,12132.4397901,E,0.02,323.05,090324,,,R,V*13
$GPHDT,,T*1B
$GNACCURACY,3.6*13
$GNGGA,041618.600,2500.7932994,N,12132.4397891,E,4,52,0.52,16.786,M,15.25,M,1,3335*47
$GNRMC,041618.600,A,2500.7932994,N,12132.4397891,E,0.02,323.05,090324,,,R,V*1A
$GPHDT,185.639,T*35
$GNACCURACY,3.6*13
$GNGGA,041618.700,2500.7933001,N,12132.4397889,E,4,52,0.52,16.796,M,15.25,M,0,3335*4B
$GNRMC,041618.700,A,2500.7933001,N,12132.4397889,E,0.02,323.05,090324,,,R,V*16
$GPHDT,,T*1B
$GNACCURACY,3.6*13
$GNGGA,041618.800,2500.7932999,N,12132.4397883,E,4,52,0.52,16.795,M,15.25,M,0,3335*44
$GNRMC,041618.800,A,2500.7932999,N,12132.4397883,E,0.02,323.05,090324,,,R,V*1A
$GPHDT,185.766,T*3E
$GNACCURACY,3.6*13
$GNGGA,041618.900,2500.7932992,N,12132.4397901,E,4,52,0.52,16.788,M,15.25,M,0,3335*49
$GNRMC,041618.900,A,2500.7932992,N,12132.4397901,E,0.01,323.05,090324,,,R,V*18
$GPHDT,,T*1B
$GNACCURACY,3.6*13
$GNGGA,041619.000,2500.7932985,N,12132.4397886,E,4,52,0.52,16.792,M,15.25,M,1,3335*43
$GNRMC,041619.000,A,2500.7932985,N,12132.4397886,E,0.01,323.05,090324,,,R,V*18
$GPHDT,185.572,T*39
$GNACCURACY,3.6*13
$GNGGA,041619.100,2500.7932988,N,12132.4397908,E,4,52,0.52,16.792,M,15.25,M,1,3335*48
$GNRMC,041619.100,A,2500.7932988,N,12132.4397908,E,0.02,323.05,090324,,,R,V*10
$GPHDT,,T*1B
$GNGSA,A,3,195,194,21,199,08,02,07,27,16,09,30,196,0.78,0.52,0.58,1*0C
$GNGSA,A,3,04,,,,,,,,,,,,0.78,0.52,0.58,1*00
$GNGSA,A,3,81,78,88,79,82,,,,,,,,0.78,0.52,0.58,2*05
$GNGSA,A,3,21,13,26,27,15,,,,,,,,0.78,0.52,0.58,3*02
$GNGSA,A,3,23,09,06,16,07,40,28,39,43,25,37,,0.78,0.52,0.58,4*0F
$GPGSV,4,1,15,195,65,112,42,194,64,053,38,21,63,151,43,199,60,167,36,1*5A
$GPGSV,4,2,15,08,60,000,39,50,60,167,38,02,52,176,46,07,44,315,45,1*6C
$GPGSV,4,3,15,27,30,038,38,16,26,078,28,09,22,243,17,196,19,168,,1*54
$GPGSV,4,4,15,04,15,201,19,30,14,319,25,26,06,102,,1*50
$GPGSV,3,1,09,195,65,112,39,194,64,053,41,08,60,000,45,199,60,167,46,8*57
$GPGSV,3,2,09,27,30,038,37,09,22,243,16,196,19,168,24,04,15,201,24,8*5D
$GPGSV,3,3,09,30,14,319,28,8*53
$GLGSV,2,1,06,81,69,205,43,78,58,044,40,88,51,029,41,79,29,336,42,1*72
$GLGSV,2,2,06,77,21,114,13,82,19,206,15,1*79
$GAGSV,2,1,07,21,55,016,41,13,54,076,37,26,47,171,42,27,28,082,29,7*78
$GAGSV,2,2,07,19,26,238,,15,12,037,21,33,06,199,,7*46
$GAGSV,1,1,04,21,55,016,43,13,54,076,39,26,47,171,44,27,28,082,32,1*7E
$GBGSV,4,1,13,23,75,042,47,09,72,261,43,06,69,214,40,16,66,199,42,1*73
$GBGSV,4,2,13,07,60,310,41,40,60,331,43,28,59,225,43,39,56,188,44,1*7C
$GBGSV,4,3,13,43,55,035,44,10,51,291,14,25,35,120,29,37,32,322,42,1*71
$GBGSV,4,4,13,34,09,040,,1*4E
$GBGSV,2,1,07,23,75,042,45,40,60,331,43,28,59,225,42,39,56,188,43,4*7D
$GBGSV,2,2,07,43,55,035,43,25,35,120,35,37,32,322,42,4*46
$GNACCURACY,3.6*13
$PAIRSAT,1,35,2,0,201,3,0,200,4,0,221,5,0,200,6,0,200,7,0,201,8,0,221,9,0,220,10,0,200,11,0,200,12,0,200,13,0,200,14,0,200,15,0,200,16,0,201,17,0,200,18,0,200,19,0,200,20,0,200,21,0,201,22,0,200,23,0,200,24,0,200,25,0,200,26,0,220,27,0,221,28,0,200,29,0,200,30,0,221,31,0,200,32,0,200,194,0,621,195,0,621,196,0,620,199,0,621*5A
$PAIRSAT,2,24,65,0,200,66,0,200,67,0,200,68,0,200,69,0,200,70,0,200,71,0,200,72,0,200,73,0,200,74,0,200,75,0,200,76,0,200,77,0,201,78,0,201,79,0,201,80,0,200,81,0,201,82,0,201,83,0,200,84,0,200,85,0,200,86,0,200,87,0,200,88,0,201*7A
$PAIRSAT,3,23,2,0,1200,3,0,1200,4,0,1200,5,0,200,7,0,1200,8,0,1200,9,0,1200,10,0,1200,11,0,1200,12,0,1200,13,0,1221,15,0,1220,19,0,1201,21,0,1221,24,0,1200,25,0,1200,26,0,1221,27,0,1221,30,0,1200,31,0,1200,33,0,1200,34,0,1000,36,0,1200*6B
$PAIRSAT,4,46,1,0,200,2,0,200,3,0,600,4,0,200,5,0,200,6,0,201,7,0,201,8,0,200,9,0,201,10,0,201,11,0,200,12,0,200,13,0,200,14,0,200,16,0,201,19,0,600,20,0,600,21,0,600,22,0,600,23,0,621,24,0,600,25,0,621,26,0,600,27,0,600,28,0,621,29,0,600,30,0,600,32,0,600,33,0,600,34,0,621,35,0,600,36,0,600,37,0,621,38,0,600,39,0,621,40,0,621,41,0,600,42,0,600,43,0,621,44,0,400,45,0,400,46,0,400,59,0,400,60,0,400,61,0,400,62,0,400*4A
$PAIRDGP,10,2,4,7,8,9,16,21,26,27,30*42
$GNGGA,041619.200,2500.7933003,N,12132.4397910,E,4,52,0.52,16.786,M,15.25,M,1,3335*4C
$GNRMC,041619.200,A,2500.7933003,N,12132.4397910,E,0.02,323.05,090324,,,R,V*11
$GPHDT,185.965,T*33
$GNACCURACY,3.6*13
$GNGGA,041619.300,2500.7933007,N,12132.4397882,E,4,52,0.52,16.797,M,15.25,M,1,3335*43
$GNRMC,041619.300,A,2500.7933007,N,12132.4397882,E,0.01,323.05,090324,,,R,V*1D
$GPHDT,,T*1B
$GNACCURACY,3.6*13
$GNGGA,041619.400,2500.7932996,N,12132.4397900,E,4,52,0.52,16.792,M,15.25,M,1,3335*4A
$GNRMC,041619.400,A,2500.7932996,N,12132.4397900,E,0.00,323.05,090324,,,R,V*10
$GPHDT,185.682,T*35
$GNACCURACY,3.6*13
$GNGGA,041619.500,2500.7932989,N,12132.4397895,E,4,52,0.52,16.792,M,15.25,M,1,3335*48
$GNRMC,041619.500,A,2500.7932989,N,12132.4397895,E,0.01,323.05,090324,,,R,V*13
$GPHDT,,T*1B
$GNACCURACY,3.6*13
$GNGGA,041619.600,2500.7933013,N,12132.4397881,E,4,52,0.52,16.794,M,15.25,M,0,3335*42
$GNRMC,041619.600,A,2500.7933013,N,12132.4397881,E,0.01,323.05,090324,,,R,V*1E
$GPHDT,185.309,T*33
$GNACCURACY,3.6*13
$GNGGA,041619.700,2500.7933008,N,12132.4397906,E,4,52,0.52,16.813,M,15.25,M,0,3335*47
$GNRMC,041619.700,A,2500.7933008,N,12132.4397906,E,0.01,323.05,090324,,,R,V*1B
$GPHDT,,T*1B
$GNACCURACY,3.6*13
$GNGGA,041619.800,2500.7932998,N,12132.4397888,E,4,52,0.52,16.800,M,15.25,M,0,3335*4C
$GNRMC,041619.800,A,2500.7932998,N,12132.4397888,E,0.01,323.05,090324,,,R,V*12
$GPHDT,185.640,T*3B
$GNACCURACY,3.6*13
$GNGGA,041619.900,2500.7933009,N,12132.4397882,E,4,52,0.52,16.804,M,15.25,M,0,3335*43
$GNRMC,041619.900,A,2500.7933009,N,12132.4397882,E,0.00,323.05,090324,,,R,V*18
$GPHDT,,T*1B
$GNACCURACY,3.6*13
$GNGGA,041620.000,2500.7933012,N,12132.4397883,E,4,52,0.52,16.814,M,15.25,M,1,3335*4B
$GNRMC,041620.000,A,2500.7933012,N,12132.4397883,E,0.00,323.05,090324,,,R,V*10
$GPHDT,185.561,T*3B
$GNACCURACY,3.6*13
$GNGGA,041620.100,2500.7933023,N,12132.4397891,E,4,52,0.52,16.794,M,15.25,M,1,3335*4C
$GNRMC,041620.100,A,2500.7933023,N,12132.4397891,E,0.01,323.05,090324,,,R,V*11
$GPHDT,,T*1B
$GNGSA,A,3,195,194,21,199,08,02,07,27,16,09,30,196,0.78,0.52,0.58,1*0C
$GNGSA,A,3,04,,,,,,,,,,,,0.78,0.52,0.58,1*00
$GNGSA,A,3,81,78,88,79,82,,,,,,,,0.78,0.52,0.58,2*05
$GNGSA,A,3,21,13,26,27,15,,,,,,,,0.78,0.52,0.58,3*02
$GNGSA,A,3,23,09,06,16,07,40,28,39,43,25,37,,0.78,0.52,0.58,4*0F
$GPGSV,4,1,15,195,65,112,42,194,64,053,38,21,63,151,43,199,60,167,37,1*5B
$GPGSV,4,2,15,08,60,000,39,50,60,167,39,02,52,176,46,07,44,315,45,1*6D
$GPGSV,4,3,15,27,30,038,38,16,26,078,28,09,22,243,17,196,19,168,,1*54
$GPGSV,4,4,15,04,15,201,19,30,14,319,24,26,06,102,,1*51
$GPGSV,3,1,09,195,65,112,39,194,64,053,41,08,60,000,46,199,60,167,46,8*54
$GPGSV,3,2,09,27,30,038,37,09,22,243,15,196,19,168,24,04,15,201,24,8*5E
$GPGSV,3,3,09,30,14,319,28,8*53
$GLGSV,2,1,06,81,69,205,43,78,58,044,40,88,51,029,42,79,29,336,42,1*71
$GLGSV,2,2,06,77,21,114,12,82,19,206,16,1*7B
$GAGSV,2,1,08,21,55,016,41,13,54,076,37,26,47,171,42,27,28,082,29,7*77
$GAGSV,2,2,08,19,26,238,,15,12,037,21,04,12,297,,33,06,199,,7*72
$GAGSV,1,1,04,21,55,016,43,13,54,076,39,26,47,171,44,27,28,082,32,1*7E
$GBGSV,4,1,13,23,75,042,47,09,72,261,43,06,69,214,40,16,66,199,42,1*73
$GBGSV,4,2,13,07,60,310,41,40,60,331,43,28,59,225,43,39,56,188,44,1*7C
$GBGSV,4,3,13,43,55,035,44,10,51,291,14,25,35,120,28,37,32,322,42,1*70
$GBGSV,4,4,13,34,09,040,,1*4E
$GBGSV,2,1,07,23,75,042,45,40,60,331,43,28,59,225,42,39,56,188,43,4*7D
$GBGSV,2,2,07,43,55,035,43,25,35,120,35,37,32,322,42,4*46
$GNACCURACY,3.6*13
$PAIRSAT,1,35,2,0,201,3,0,200,4,0,221,5,0,200,6,0,200,7,0,201,8,0,221,9,0,220,10,0,200,11,0,200,12,0,200,13,0,200,14,0,200,15,0,200,16,0,201,17,0,200,18,0,200,19,0,200,20,0,200,21,0,201,22,0,200,23,0,200,24,0,200,25,0,200,26,0,220,27,0,221,28,0,200,29,0,200,30,0,221,31,0,200,32,0,200,194,0,621,195,0,621,196,0,620,199,0,621*5A
$PAIRSAT,2,24,65,0,200,66,0,200,67,0,200,68,0,200,69,0,200,70,0,200,71,0,200,72,0,200,73,0,200,74,0,200,75,0,200,76,0,200,77,0,201,78,0,201,79,0,201,80,0,200,81,0,201,82,0,201,83,0,200,84,0,200,85,0,200,86,0,200,87,0,200,88,0,201*7A
$PAIRSAT,3,23,2,0,1200,3,0,1200,4,0,1200,5,0,200,7,0,1200,8,0,1200,9,0,1200,10,0,1200,11,0,1200,12,0,1200,13,0,1221,15,0,1220,19,0,1201,21,0,1221,24,0,1200,25,0,1200,26,0,1221,27,0,1221,30,0,1200,31,0,1200,33,0,1200,34,0,1000,36,0,1200*6B
$PAIRSAT,4,46,1,0,200,2,0,200,3,0,600,4,0,200,5,0,200,6,0,201,7,0,201,8,0,200,9,0,201,10,0,201,11,0,200,12,0,200,13,0,200,14,0,200,16,0,201,19,0,600,20,0,600,21,0,600,22,0,600,23,0,621,24,0,600,25,0,621,26,0,600,27,0,600,28,0,621,29,0,600,30,0,600,32,0,600,33,0,600,34,0,621,35,0,600,36,0,600,37,0,621,38,0,600,39,0,621,40,0,621,41,0,600,42,0,600,43,0,621,44,0,400,45,0,400,46,0,400,59,0,400,60,0,400,61,0,400,62,0,400*4A
$PAIRDGP,10,2,4,7,8,9,16,21,26,27,30*42
$GNGGA,041620.200,2500.7933008,N,12132.4397876,E,4,52,0.52,16.804,M,15.25,M,1,3335*49
$GNRMC,041620.200,A,2500.7933008,N,12132.4397876,E,0.01,323.05,090324,,,R,V*12
$GPHDT,185.438,T*36
$GNACCURACY,3.6*13
$GNGGA,041620.300,2500.7933018,N,12132.4397917,E,4,52,0.52,16.808,M,15.25,M,1,3335*43
$GNRMC,041620.300,A,2500.7933018,N,12132.4397917,E,0.01,323.05,090324,,,R,V*14
$GPHDT,,T*1B
$GNACCURACY,3.6*13
$GNGGA,041620.400,2500.7933011,N,12132.4397880,E,4,52,0.52,16.810,M,15.25,M,1,3335*4B
$GNRMC,041620.400,A,2500.7933011,N,12132.4397880,E,0.01,323.05,090324,,,R,V*15
$GPHDT,185.361,T*3D
$GNACCURACY,3.6*13
$GNGGA,041620.500,2500.7933008,N,12132.4397895,E,4,53,0.52,16.806,M,15.25,M,1,3335*40
$GNRMC,041620.500,A,2500.7933008,N,12132.4397895,E,0.01,323.05,090324,,,R,V*18
$GPHDT,,T*1B
$GNACCURACY,3.6*13
$GNGGA,041620.600,2500.7933020,N,12132.4397912,E,4,53,0.52,16.791,M,15.25,M,0,3335*47
$GNRMC,041620.600,A,2500.7933020,N,12132.4397912,E,0.02,323.05,090324,,,R,V*1C
$GPHDT,185.532,T*3D
$GNACCURACY,3.6*13
$GNGGA,041620.700,2500.7933003,N,12132.4397871,E,4,53,0.52,16.787,M,15.25,M,0,3335*44
$GNRMC,041620.700,A,2500.7933003,N,12132.4397871,E,0.02,323.05,090324,,,R,V*18
$GPHDT,,T*1B
$GNACCURACY,3.6*13
$GNGGA,041620.800,2500.7933015,N,12132.4397919,E,4,53,0.52,16.806,M,15.25,M,0,3335*45
$GNRMC,041620.800,A,2500.7933015,N,12132.4397919,E,0.01,323.05,090324,,,R,V*1C
$GPHDT,185.611,T*3F
$GNACCURACY,3.6*13
$GNGGA,041620.900,2500.7933010,N,12132.4397900,E,4,53,0.52,16.807,M,15.25,M,0,3335*48
$GNRMC,041620.900,A,2500.7933010,N,12132.4397900,E,0.01,323.05,090324,,,R,V*10
$GPHDT,,T*1B
$GNACCURACY,3.6*13
$GNGGA,041621.000,2500.7933002,N,12132.4397891,E,4,53,0.52,16.801,M,15.25,M,1,3335*4D
$GNRMC,041621.000,A,2500.7933002,N,12132.4397891,E,0.01,323.05,090324,,,R,V*12
$GPHDT,185.398,T*3B
$GNACCURACY,3.6*13
$GNGGA,041621.100,2500.7933025,N,12132.4397905,E,4,53,0.52,16.800,M,15.25,M,1,3335*44
$GNRMC,041621.100,A,2500.7933025,N,12132.4397905,E,0.02,323.05,090324,,,R,V*19
$GPHDT,,T*1B
$GNGSA,A,3,195,194,21,199,08,02,07,27,16,09,30,196,0.78,0.52,0.58,1*0C
$GNGSA,A,3,04,,,,,,,,,,,,0.78,0.52,0.58,1*00
$GNGSA,A,3,81,78,88,79,82,,,,,,,,0.78,0.52,0.58,2*05
$GNGSA,A,3,21,13,26,27,15,,,,,,,,0.78,0.52,0.58,3*02
$GNGSA,A,3,23,09,06,16,07,40,28,39,43,25,37,,0.78,0.52,0.58,4*0F
$GPGSV,4,1,15,195,65,112,42,194,64,053,38,21,63,151,43,199,60,167,37,1*5B
$GPGSV,4,2,15,08,60,000,39,50,60,167,39,02,52,176,46,07,44,315,45,1*6D
$GPGSV,4,3,15,27,30,038,38,16,26,078,27,09,22,243,16,196,19,168,,1*5A
$GPGSV,4,4,15,04,15,201,19,30,14,319,25,26,06,102,,1*50
$GPGSV,3,1,09,195,65,112,39,194,64,053,41,08,60,000,46,199,60,167,46,8*54
$GPGSV,3,2,09,27,30,038,37,09,22,243,14,196,19,168,24,04,15,201,24,8*5F
$GPGSV,3,3,09,30,14,319,28,8*53
$GLGSV,2,1,06,81,69,205,43,78,58,044,39,88,51,029,42,79,29,336,42,1*7F
$GLGSV,2,2,06,77,21,114,13,82,19,206,15,1*79
$GAGSV,2,1,08,21,55,016,41,13,54,076,37,26,47,171,42,27,28,082,29,7*77
$GAGSV,2,2,08,19,26,238,,15,12,037,21,04,12,297,,33,06,199,,7*72
$GAGSV,2,1,05,21,55,016,43,13,54,076,39,26,47,171,44,27,28,082,31,1*7F
$GAGSV,2,2,05,15,12,037,19,1*4B
$GBGSV,4,1,13,23,75,042,47,09,72,261,43,06,69,214,40,16,66,199,42,1*73
$GBGSV,4,2,13,07,60,310,41,40,60,331,43,28,59,225,43,39,56,188,44,1*7C
$GBGSV,4,3,13,43,55,035,44,10,51,291,13,25,35,120,27,37,32,322,42,1*78
$GBGSV,4,4,13,34,09,040,25,1*49
$GBGSV,2,1,07,23,75,042,45,40,60,331,43,28,59,225,42,39,56,188,43,4*7D
$GBGSV,2,2,07,43,55,035,43,25,35,120,35,37,32,322,42,4*46
$GNACCURACY,3.6*13
$PAIRSAT,1,35,2,0,201,3,0,200,4,0,221,5,0,200,6,0,200,7,0,201,8,0,221,9,0,220,10,0,200,11,0,200,12,0,200,13,0,200,14,0,200,15,0,200,16,0,201,17,0,200,18,0,200,19,0,200,20,0,200,21,0,201,22,0,200,23,0,200,24,0,200,25,0,200,26,0,220,27,0,221,28,0,200,29,0,200,30,0,221,31,0,200,32,0,200,194,0,621,195,0,621,196,0,620,199,0,621*5A
$PAIRSAT,2,24,65,0,200,66,0,200,67,0,200,68,0,200,69,0,200,70,0,200,71,0,200,72,0,200,73,0,200,74,0,200,75,0,200,76,0,200,77,0,201,78,0,201,79,0,201,80,0,200,81,0,201,82,0,201,83,0,200,84,0,200,85,0,200,86,0,200,87,0,200,88,0,201*7A
$PAIRSAT,3,23,2,0,1200,3,0,1200,4,0,1200,5,0,200,7,0,1200,8,0,1200,9,0,1200,10,0,1200,11,0,1200,12,0,1200,13,0,1221,15,0,1220,19,0,1201,21,0,1221,24,0,1200,25,0,1200,26,0,1221,27,0,1221,30,0,1200,31,0,1200,33,0,1200,34,0,1000,36,0,1200*6B
$PAIRSAT,4,46,1,0,200,2,0,200,3,0,600,4,0,200,5,0,200,6,0,201,7,0,201,8,0,200,9,0,201,10,0,201,11,0,200,12,0,200,13,0,200,14,0,200,16,0,201,19,0,600,20,0,600,21,0,600,22,0,600,23,0,621,24,0,600,25,0,621,26,0,600,27,0,600,28,0,621,29,0,600,30,0,600,32,0,600,33,0,600,34,0,621,35,0,600,36,0,600,37,0,621,38,0,600,39,0,621,40,0,621,41,0,600,42,0,600,43,0,621,44,0,400,45,0,400,46,0,400,59,0,400,60,0,400,61,0,400,62,0,400*4A
$PAIRDGP,10,2,4,7,8,9,16,21,26,27,30*42
$GNGGA,041621.200,2500.7933023,N,12132.4397919,E,4,53,0.52,16.809,M,15.25,M,1,3335*45
$GNRMC,041621.200,A,2500.7933023,N,12132.4397919,E,0.02,323.05,090324,,,R,V*11
$GPHDT,185.580,T*34
$GNACCURACY,3.6*13
$GNGGA,041621.300,2500.7933011,N,12132.4397881,E,4,53,0.52,16.813,M,15.25,M,1,3335*4E
$GNRMC,041621.300,A,2500.7933011,N,12132.4397881,E,0.01,323.05,090324,,,R,V*12
$GPHDT,,T*1B
$GNACCURACY,3.6*13
$GNGGA,041621.400,2500.7933021,N,12132.4397895,E,4,53,0.52,16.804,M,15.25,M,1,3335*49
$GNRMC,041621.400,A,2500.7933021,N,12132.4397895,E,0.01,323.05,090324,,,R,V*13
$GPHDT,185.153,T*3E
$GNACCURACY,3.6*13
$GNGGA,041621.500,2500.7933015,N,12132.4397887,E,4,53,0.52,16.805,M,15.25,M,1,3335*4D
$GNRMC,041621.500,A,2500.7933015,N,12132.4397887,E,0.01,323.05,090324,,,R,V*16
$GPHDT,,T*1B
$GNACCURACY,3.6*13
$GNGGA,041621.600,2500.7933023,N,12132.4397868,E,4,52,0.52,16.810,M,15.25,M,1,3335*4F
$GNRMC,041621.600,A,2500.7933023,N,12132.4397868,E,0.02,323.05,090324,,,R,V*12
$GPHDT,184.952,T*36
$GNACCURACY,3.6*13
$GNGGA,041621.700,2500.7933010,N,12132.4397894,E,4,52,0.52,16.796,M,15.25,M,0,3335*4D
$GNRMC,041621.700,A,2500.7933010,N,12132.4397894,E,0.01,323.05,090324,,,R,V*13
$GPHDT,,T*1B
$GNACCURACY,3.6*13
$GNGGA,041621.800,2500.7933029,N,12132.4397877,E,4,52,0.52,16.809,M,15.25,M,0,3335*4C
$GNRMC,041621.800,A,2500.7933029,N,12132.4397877,E,0.02,323.05,090324,,,R,V*18
$GPHDT,185.126,T*3C
$GNACCURACY,3.6*13
$GNGGA,041621.900,2500.7933013,N,12132.4397888,E,4,52,0.52,16.791,M,15.25,M,0,3335*4A
$GNRMC,041621.900,A,2500.7933013,N,12132.4397888,E,0.02,323.05,090324,,,R,V*10
$GPHDT,,T*1B
$GNACCURACY,3.6*13
$GNGGA,041622.000,2500.7933023,N,12132.4397901,E,4,52,0.52,16.800,M,15.25,M,1,3335*45
$GNRMC,041622.000,A,2500.7933023,N,12132.4397901,E,0.02,323.05,090324,,,R,V*19
$GPHDT,185.575,T*3E
$GNACCURACY,3.6*13
$GNGGA,041622.100,2500.7933011,N,12132.4397890,E,4,52,0.52,16.792,M,15.25,M,1,3335*48
$GNRMC,041622.100,A,2500.7933011,N,12132.4397890,E,0.01,323.05,090324,,,R,V*13
$GPHDT,,T*1B
$GNGSA,A,3,195,194,21,199,08,02,07,27,16,09,30,196,0.78,0.52,0.58,1*0C
$GNGSA,A,3,04,,,,,,,,,,,,0.78,0.52,0.58,1*00
$GNGSA,A,3,81,78,88,79,82,,,,,,,,0.78,0.52,0.58,2*05
$GNGSA,A,3,21,13,26,27,15,,,,,,,,0.78,0.52,0.58,3*02
$GNGSA,A,3,23,09,06,16,07,40,28,39,43,37,25,,0.78,0.52,0.58,4*0F
$GPGSV,4,1,15,195,65,112,42,194,64,053,38,21,63,151,43,199,60,167,37,1*5B
$GPGSV,4,2,15,08,60,000,39,50,60,167,39,02,52,176,46,07,44,315,45,1*6D
$GPGSV,4,3,15,27,30,038,38,16,26,079,28,09,22,243,16,196,19,168,,1*54
$GPGSV,4,4,15,04,15,201,19,30,14,319,25,26,06,102,,1*50
$GPGSV,3,1,09,195,65,112,40,194,64,053,41,08,60,000,46,199,60,167,46,8*5A
$GPGSV,3,2,09,27,30,038,37,09,22,243,16,196,19,168,23,04,15,201,24,8*5A
$GPGSV,3,3,09,30,14,319,28,8*53
$GLGSV,2,1,06,81,69,205,43,78,58,044,39,88,51,029,42,79,29,336,42,1*7F
$GLGSV,2,2,06,77,21,114,12,82,19,206,12,1*7F
$GAGSV,2,1,07,21,55,016,41,13,54,076,37,26,47,171,42,27,28,082,29,7*78
$GAGSV,2,2,07,19,26,238,,15,12,037,19,04,12,297,,7*41
$GAGSV,2,1,05,21,55,016,43,13,54,076,39,26,47,171,44,27,28,082,30,1*7E
$GAGSV,2,2,05,15,12,037,19,1*4B
$GBGSV,4,1,13,23,75,042,47,09,72,261,43,06,69,214,40,16,66,199,42,1*73
$GBGSV,4,2,13,07,60,310,41,40,60,331,43,28,59,225,43,39,56,188,44,1*7C
$GBGSV,4,3,13,43,55,035,44,10,51,291,14,25,35,120,25,37,32,322,42,1*7D
$GBGSV,4,4,13,34,09,040,,1*4E
$GBGSV,2,1,07,23,75,042,45,40,60,331,43,28,59,225,42,39,56,188,43,4*7D
$GBGSV,2,2,07,43,55,035,43,25,35,120,36,37,32,322,42,4*45
$GNACCURACY,3.6*13
$PAIRSAT,1,35,2,0,201,3,0,200,4,0,221,5,0,200,6,0,200,7,0,201,8,0,221,9,0,220,10,0,200,11,0,200,12,0,200,13,0,200,14,0,200,15,0,200,16,0,201,17,0,200,18,0,200,19,0,200,20,0,200,21,0