$FW : RTK35X,V1.1X0314AS,Lib20210517,1*54
$Tool : LOCOSYS , GNSS Firebird , v1.0.0.19*39
$---------------------------------------------------*2D
0,14,0,200,16,0,201,19,0,600,20,0,600,21,0,600,22,0,600,23,0,621,24,0,600,25,0,621,26,0,600,27,0,600,28,0,621,29,0,600,30,0,600,32,0,600,33,0,600,34,0,621,35,0,600,36,0,600,37,0,621,38,0,600,39,0,621,40,0,621,41,0,600,42,0,600,43,0,621,44,0,400,45,0,400,46,0,400,59,0,400,60,0,400,61,0,400,62,0,400*4A
$PAIRDGP,10,2,4,7,8,9,16,21,26,27,30*42
$GNGGA,041557.200,2500.7933005,N,12132.4397929,E,4,50,0.56,16.733,M,15.25,M,1,3335*41
$GNRMC,041557.200,A,2500.7933005,N,12132.4397929,E,0.01,323.05,090324,,,R,V*17
$GPHDT,276.420,T*30
$GNACCURACY,3.6*13
$GNGGA,041557.300,2500.7932984,N,12132.4397870,E,4,50,0.56,16.778,M,15.25,M,1,3335*43
$GNRMC,041557.300,A,2500.7932984,N,12132.4397870,E,0.01,323.05,090324,,,R,V*1A
$GPHDT,,T*1B
$GNACCURACY,3.6*13
$GNGGA,041557.400,2500.7932996,N,12132.4397844,E,4,51,0.56,16.775,M,15.25,M,1,3335*4C
$GNRMC,041557.400,A,2500.7932996,N,12132.4397844,E,0.01,323.05,090324,,,R,V*19
$GPHDT,275.551,T*34
$GNACCURACY,3.6*13
$GNGGA,041557.500,2500.7933004,N,12132.4397892,E,4,51,0.53,16.779,M,15.25,M,1,3335*4C
$GNRMC,041557.500,A,2500.7933004,N,12132.4397892,E,0.01,323.05,090324,,,R,V*10
$GPHDT,,T*1B
$GNACCURACY,3.6*13
$GNGGA,041557.600,2500.7932985,N,12132.4397859,E,4,51,0.53,16.769,M,15.25,M,1,3335*48
$GNRMC,041557.600,A,2500.7932985,N,12132.4397859,E,0.01,323.05,090324,,,R,V*15
$GPHDT,274.970,T*3A
$GNACCURACY,3.7*12
$GNGGA,041557.700,2500.7932996,N,12132.4397847,E,4,52,0.53,16.773,M,15.25,M,0,3335*4D
$GNRMC,041557.700,A,2500.7932996,N,12132.4397847,E,0.01,323.05,090324,,,R,V*19
$GPHDT,,T*1B
$GNACCURACY,3.7*12
$GNGGA,041557.800,2500.7932964,N,12132.4397844,E,4,52,0.53,16.764,M,15.25,M,0,3335*4A
$GNRMC,041557.800,A,2500.7932964,N,12132.4397844,E,0.01,323.05,090324,,,R,V*18
$GPHDT,275.896,T*32
$GNACCURACY,3.7*12
$GNGGA,041557.900,2500.7932954,N,12132.4397825,E,4,52,0.53,16.760,M,15.25,M,0,3335*4B
$GNRMC,041557.900,A,2500.7932954,N,12132.4397825,E,0.01,323.05,090324,,,R,V*1D
$GPHDT,,T*1B
$GNACCURACY,3.7*12
$GNGGA,041558.000,2500.7932974,N,12132.4397833,E,4,52,0.53,16.766,M,15.25,M,1,3335*4F
$GNRMC,041558.000,A,2500.7932974,N,12132.4397833,E,0.01,323.05,090324,,,R,V*1E
$GPHDT,276.169,T*38
$GNACCURACY,3.7*12
$GNGGA,041558.100,2500.7932953,N,12132.4397821,E,4,52,0.53,16.759,M,15.25,M,1,3335*44
$GNRMC,041558.100,A,2500.7932953,N,12132.4397821,E,0.01,323.05,090324,,,R,V*19
$GPHDT,,T*1B
$GNGSA,A,3,195,194,21,199,08,02,07,27,16,196,30,04,0.89,0.53,0.72,1*06
$GNGSA,A,3,81,78,88,79,77,82,,,,,,,0.89,0.53,0.72,2*02
$GNGSA,A,3,21,13,26,27,15,,,,,,,,0.89,0.53,0.72,3*05
$GNGSA,A,3,23,09,06,16,07,40,28,43,39,25,37,,0.89,0.53,0.72,4*08
$GPGSV,4,1,15,195,65,112,42,194,64,053,41,21,63,152,39,199,60,167,34,1*58
$GPGSV,4,2,15,08,60,000,48,50,60,167,36,02,52,176,32,07,44,315,39,1*6C
$GPGSV,4,3,15,27,30,037,40,16,26,078,44,09,22,243,17,196,19,168,22,1*5E
$GPGSV,4,4,15,04,15,201,23,30,13,319,24,26,06,102,,1*5F
$GPGSV,2,1,08,195,65,112,42,194,64,053,44,08,60,000,45,199,60,167,40,8*58
$GPGSV,2,2,08,27,30,037,41,196,19,168,17,04,15,201,24,30,13,319,25,8*55
$GLGSV,2,1,06,81,69,205,42,78,58,044,44,88,52,029,41,79,29,336,43,1*75
$GLGSV,2,2,06,77,21,114,14,82,19,206,12,1*79
$GAGSV,2,1,08,21,55,016,42,13,54,076,42,26,47,171,30,27,28,082,42,7*7E
$GAGSV,2,2,08,19,26,239,,15,12,037,18,04,12,297,,33,06,199,,7*79
$GAGSV,1,1,04,21,55,016,44,13,54,076,43,26,47,171,35,27,28,082,41,1*76
$GBGSV,4,1,13,23,75,041,44,09,72,261,43,06,69,214,40,16,66,199,41,1*70
$GBGSV,4,2,13,07,60,310,39,40,60,331,42,28,58,225,42,43,56,035,44,1*78
$GBGSV,4,3,13,39,56,188,33,10,51,291,13,25,35,120,38,37,32,322,41,1*7C
$GBGSV,4,4,13,34,09,040,,1*4E
$GBGSV,2,1,07,23,75,041,46,40,60,331,42,28,58,225,43,39,56,188,33,4*7B
$GBGSV,2,2,07,43,56,035,45,25,35,120,38,37,32,322,38,4*43
$GNACCURACY,3.7*12
$PAIRSAT,1,35,2,0,201,3,0,200,4,0,221,5,0,200,6,0,200,7,0,201,8,0,221,9,0,220,10,0,200,11,0,200,12,0,200,13,0,200,14,0,200,15,0,200,16,0,201,17,0,200,18,0,200,19,0,200,20,0,200,21,0,201,22,0,200,23,0,200,24,0,200,25,0,200,26,0,220,27,0,221,28,0,200,29,0,200,30,0,221,31,0,200,32,0,200,194,0,621,195,0,621,196,0,620,199,0,621*5A
$PAIRSAT,2,24,65,0,200,66,0,200,67,0,200,68,0,200,69,0,200,70,0,200,71,0,200,72,0,200,73,0,200,74,0,200,75,0,200,76,0,200,77,0,201,78,0,201,79,0,201,80,0,200,81,0,201,82,0,201,83,0,200,84,0,200,85,0,200,86,0,200,87,0,200,88,0,201*7A
$PAIRSAT,3,23,2,0,1200,3,0,1200,4,0,1200,5,0,200,7,0,1200,8,0,1200,9,0,1200,10,0,1200,11,0,1200,12,0,1200,13,0,1221,15,0,1220,19,0,1201,21,0,1221,24,0,1200,25,0,1200,26,0,1221,27,0,1221,30,0,1200,31,0,1200,33,0,1200,34,0,1000,36,0,1200*6B
$PAIRSAT,4,46,1,0,200,2,0,200,3,0,600,4,0,200,5,0,200,6,0,201,7,0,201,8,0,200,9,0,201,10,0,201,11,0,200,12,0,200,13,0,200,14,0,200,16,0,201,19,0,600,20,0,600,21,0,600,22,0,600,23,0,621,24,0,600,25,0,621,26,0,600,27,0,600,28,0,621,29,0,600,30,0,600,32,0,600,33,0,600,34,0,621,35,0,600,36,0,600,37,0,621,38,0,600,39,0,621,40,0,621,41,0,600,42,0,600,43,0,621,44,0,400,45,0,400,46,0,400,59,0,400,60,0,400,61,0,400,62,0,400*4A
$PAIRDGP,10,2,4,7,8,9,16,21,26,27,30*42
$GNGGA,041558.200,2500.7932964,N,12132.4397834,E,4,52,0.53,16.764,M,15.25,M,1,3335*49
$GNRMC,041558.200,A,2500.7932964,N,12132.4397834,E,0.01,323.05,090324,,,R,V*1A
$GPHDT,276.232,T*35
$GNACCURACY,3.6*13
$GNGGA,041558.300,2500.7932980,N,12132.4397861,E,4,52,0.53,16.763,M,15.25,M,1,3335*45
$GNRMC,041558.300,A,2500.7932980,N,12132.4397861,E,0.01,323.05,090324,,,R,V*11
$GPHDT,,T*1B
$GNACCURACY,3.6*13
$GNGGA,041558.400,2500.7932964,N,12132.4397848,E,4,52,0.53,16.764,M,15.25,M,1,3335*44
$GNRMC,041558.400,A,2500.7932964,N,12132.4397848,E,0.01,323.05,090324,,,R,V*17
$GPHDT,276.131,T*35
$GNACCURACY,3.6*13
$GNGGA,041558.500,2500.7932950,N,12132.4397797,E,4,52,0.53,16.757,M,15.25,M,0,3335*4E
$GNRMC,041558.500,A,2500.7932950,N,12132.4397797,E,0.01,323.05,090324,,,R,V*1C
$GPHDT,,T*1B
$GNACCURACY,3.6*13
$GNGGA,041558.600,2500.7932924,N,12132.4397786,E,4,52,0.53,16.759,M,15.25,M,0,3335*40
$GNRMC,041558.600,A,2500.7932924,N,12132.4397786,E,0.01,323.05,090324,,,R,V*1C
$GPHDT,276.537,T*37
$GNACCURACY,3.6*13
$GNGGA,041558.700,2500.7932950,N,12132.4397772,E,4,52,0.53,16.757,M,15.25,M,0,3335*47
$GNRMC,041558.700,A,2500.7932950,N,12132.4397772,E,0.01,323.05,090324,,,R,V*15
$GPHDT,,T*1B
$GNACCURACY,3.6*13
$GNGGA,041558.800,2500.7932937,N,12132.4397791,E,4,53,0.53,16.766,M,15.25,M,0,3335*47
$GNRMC,041558.800,A,2500.7932937,N,12132.4397791,E,0.01,323.05,090324,,,R,V*16
$GPHDT,276.451,T*36
$GNACCURACY,3.6*13
$GNGGA,041558.900,2500.7932950,N,12132.4397794,E,4,53,0.53,16.758,M,15.25,M,0,3335*4F
$GNRMC,041558.900,A,2500.7932950,N,12132.4397794,E,0.01,323.05,090324,,,R,V*13
$GPHDT,,T*1B
$GNACCURACY,3.6*13
$GNGGA,041559.000,2500.7932936,N,12132.4397788,E,4,53,0.53,16.759,M,15.25,M,1,3335*4A
$GNRMC,041559.000,A,2500.7932936,N,12132.4397788,E,0.01,323.05,090324,,,R,V*16
$GPHDT,276.500,T*33
$GNACCURACY,3.6*13
$GNGGA,041559.100,2500.7932916,N,12132.4397761,E,4,53,0.53,16.754,M,15.25,M,1,3335*43
$GNRMC,041559.100,A,2500.7932916,N,12132.4397761,E,0.01,323.05,090324,,,R,V*12
$GPHDT,,T*1B
$GNGSA,A,3,195,194,21,199,08,02,07,27,16,196,04,30,0.89,0.53,0.72,1*06
$GNGSA,A,3,81,78,88,79,77,82,,,,,,,0.89,0.53,0.72,2*02
$GNGSA,A,3,21,13,26,27,15,,,,,,,,0.89,0.53,0.72,3*05
$GNGSA,A,3,23,09,06,16,07,40,28,43,39,25,37,,0.89,0.53,0.72,4*08
$GPGSV,4,1,15,195,65,112,42,194,64,053,41,21,63,152,39,199,60,167,33,1*5F
$GPGSV,4,2,15,08,60,000,48,50,60,167,36,02,52,176,28,07,44,315,40,1*69
$GPGSV,4,3,15,27,30,037,38,16,26,078,44,09,22,243,17,196,19,168,22,1*51
$GPGSV,4,4,15,04,15,201,24,30,13,319,23,26,06,102,,1*5F
$GPGSV,2,1,08,195,65,112,42,194,64,053,44,08,60,000,45,199,60,167,39,8*56
$GPGSV,2,2,08,27,30,037,41,196,19,168,15,04,15,201,24,30,13,319,25,8*57
$GLGSV,2,1,06,81,69,205,42,78,58,044,44,88,52,029,41,79,29,336,43,1*75
$GLGSV,2,2,06,77,21,114,16,82,19,206,12,1*7B
$GAGSV,2,1,08,21,55,016,42,13,54,076,41,26,47,171,27,27,28,082,41,7*78
$GAGSV,2,2,08,19,26,239,,15,12,037,20,04,12,297,,33,06,199,,7*72
$GAGSV,1,1,04,21,55,016,43,13,54,076,43,26,47,171,33,27,28,082,41,1*77
$GBGSV,4,1,13,23,75,041,44,09,72,261,43,06,69,214,39,16,66,199,40,1*7F
$GBGSV,4,2,13,07,60,310,39,40,60,331,42,28,58,225,42,43,56,035,45,1*79
$GBGSV,4,3,13,39,56,188,30,10,51,291,14,25,35,120,38,37,32,322,40,1*79
$GBGSV,4,4,13,34,09,040,,1*4E
$GBGSV,2,1,07,23,75,041,47,40,60,331,42,28,58,225,43,39,56,188,33,4*7A
$GBGSV,2,2,07,43,56,035,45,25,35,120,38,37,32,322,37,4*4C
$GNACCURACY,3.6*13
$PAIRSAT,1,35,2,0,201,3,0,200,4,0,221,5,0,200,6,0,200,7,0,201,8,0,221,9,0,220,10,0,200,11,0,200,12,0,200,13,0,200,14,0,200,15,0,200,16,0,201,17,0,200,18,0,200,19,0,200,20,0,200,21,0,201,22,0,200,23,0,200,24,0,200,25,0,200,26,0,220,27,0,221,28,0,200,29,0,200,30,0,221,31,0,200,32,0,200,194,0,621,195,0,621,196,0,620,199,0,621*5A
$PAIRSAT,2,24,65,0,200,66,0,200,67,0,200,68,0,200,69,0,200,70,0,200,71,0,200,72,0,200,73,0,200,74,0,200,75,0,200,76,0,200,77,0,201,78,0,201,79,0,201,80,0,200,81,0,201,82,0,201,83,0,200,84,0,200,85,0,200,86,0,200,87,0,200,88,0,201*7A
$PAIRSAT,3,23,2,0,1200,3,0,1200,4,0,1200,5,0,200,7,0,1200,8,0,1200,9,0,1200,10,0,1200,11,0,1200,12,0,1200,13,0,1221,15,0,1220,19,0,1201,21,0,1221,24,0,1200,25,0,1200,26,0,1221,27,0,1221,30,0,1200,31,0,1200,33,0,1200,34,0,1000,36,0,1200*6B
$PAIRSAT,4,46,1,0,200,2,0,200,3,0,600,4,0,200,5,0,200,6,0,201,7,0,201,8,0,200,9,0,201,10,0,201,11,0,200,12,0,200,13,0,200,14,0,200,16,0,201,19,0,600,20,0,600,21,0,600,22,0,600,23,0,621,24,0,600,25,0,621,26,0,600,27,0,600,28,0,621,29,0,600,30,0,600,32,0,600,33,0,600,34,0,621,35,0,600,36,0,600,37,0,621,38,0,600,39,0,621,40,0,621,41,0,600,42,0,600,43,0,621,44,0,400,45,0,400,46,0,400,59,0,400,60,0,400,61,0,400,62,0,400*4A
$PAIRDGP,10,2,4,7,8,9,16,21,26,27,30*42
$GNGGA,041559.200,2500.7932933,N,12132.4397781,E,4,53,0.53,16.759,M,15.25,M,1,3335*44
$GNRMC,041559.200,A,2500.7932933,N,12132.4397781,E,0.01,323.05,090324,,,R,V*18
$GPHDT,276.363,T*30
$GNACCURACY,3.6*13
$GNGGA,041559.300,2500.7932930,N,12132.4397785,E,4,53,0.53,16.765,M,15.25,M,1,3335*4D
$GNRMC,041559.300,A,2500.7932930,N,12132.4397785,E,0.01,323.05,090324,,,R,V*1E
$GPHDT,,T*1B
$GNACCURACY,3.6*13
$GNGGA,041559.400,2500.7932944,N,12132.4397782,E,4,52,0.53,16.755,M,15.25,M,1,3335*4C
$GNRMC,041559.400,A,2500.7932944,N,12132.4397782,E,0.01,323.05,090324,,,R,V*1D
$GPHDT,276.260,T*32
$GNACCURACY,3.6*13
$GNGGA,041559.500,2500.7932934,N,12132.4397787,E,4,53,0.53,16.756,M,15.25,M,1,3335*4D
$GNRMC,041559.500,A,2500.7932934,N,12132.4397787,E,0.01,323.05,090324,,,R,V*1E
$GPHDT,,T*1B
$GNACCURACY,3.6*13
$GNGGA,041559.600,2500.7932919,N,12132.4397762,E,4,52,0.54,16.763,M,15.25,M,0,3335*4B
$GNRMC,041559.600,A,2500.7932919,N,12132.4397762,E,0.01,323.05,090324,,,R,V*19
$GPHDT,276.602,T*32
$GNACCURACY,3.6*13
$GNGGA,041559.700,2500.7932911,N,12132.4397761,E,4,52,0.54,16.763,M,15.25,M,0,3335*41
$GNRMC,041559.700,A,2500.7932911,N,12132.4397761,E,0.01,323.05,090324,,,R,V*13
$GPHDT,,T*1B
$GNACCURACY,3.6*13
$GNGGA,041559.800,2500.7932944,N,12132.4397772,E,4,52,0.54,16.760,M,15.25,M,0,3335*4F
$GNRMC,041559.800,A,2500.7932944,N,12132.4397772,E,0.01,323.05,090324,,,R,V*1E
$GPHDT,276.538,T*38
$GNACCURACY,3.6*13
$GNGGA,041559.900,2500.7932958,N,12132.4397783,E,4,52,0.54,16.765,M,15.25,M,0,3335*48
$GNRMC,041559.900,A,2500.7932958,N,12132.4397783,E,0.01,323.05,090324,,,R,V*1C
$GPHDT,,T*1B
$GNACCURACY,3.6*13
$GNGGA,041600.000,2500.7932941,N,12132.4397774,E,4,52,0.54,16.750,M,15.25,M,1,3335*49
$GNRMC,041600.000,A,2500.7932941,N,12132.4397774,E,0.01,323.05,090324,,,R,V*1A
$GPHDT,276.909,T*36
$GNACCURACY,3.6*13
$GNGGA,041600.100,2500.7932942,N,12132.4397746,E,4,51,0.54,16.762,M,15.25,M,1,3335*48
$GNRMC,041600.100,A,2500.7932942,N,12132.4397746,E,0.01,323.05,090324,,,R,V*19
$GPHDT,,T*1B
$GNGSA,A,3,195,194,21,199,08,02,07,27,16,196,30,04,0.93,0.54,0.76,1*0E
$GNGSA,A,3,81,78,88,79,77,,,,,,,,0.93,0.54,0.76,2*00
$GNGSA,A,3,21,13,26,27,15,,,,,,,,0.93,0.54,0.76,3*0D
$GNGSA,A,3,23,09,06,16,07,40,28,43,39,25,37,,0.93,0.54,0.76,4*00
$GPGSV,4,1,15,195,65,112,42,194,64,053,41,21,63,152,39,199,60,167,30,1*5C
$GPGSV,4,2,15,08,60,000,46,50,60,167,33,02,52,176,29,07,44,315,40,1*63
$GPGSV,4,3,15,27,30,037,38,16,26,078,44,09,22,243,,196,19,168,20,1*55
$GPGSV,4,4,15,04,15,201,23,30,13,319,23,26,06,102,,1*58
$GPGSV,2,1,08,195,65,112,43,194,64,053,44,08,60,000,45,199,60,167,37,8*59
$GPGSV,2,2,08,27,30,037,41,196,19,168,14,04,15,201,23,30,13,319,25,8*51
$GLGSV,2,1,06,81,69,205,42,78,58,044,44,88,52,029,43,79,29,336,43,1*77
$GLGSV,2,2,06,77,21,114,15,82,19,206,11,1*7B
$GAGSV,2,1,08,21,55,016,42,13,54,076,40,26,47,171,26,27,28,082,41,7*78
$GAGSV,2,2,08,19,26,239,,15,12,037,19,04,12,297,,33,06,199,,7*78
$GAGSV,1,1,04,21,55,016,42,13,54,076,42,26,47,171,32,27,28,082,40,1*77
$GBGSV,4,1,13,23,75,041,45,09,72,261,43,06,69,214,38,16,66,199,40,1*7F
$GBGSV,4,2,13,07,60,310,39,40,60,331,42,28,58,225,40,43,56,035,46,1*78
$GBGSV,4,3,13,39,56,188,32,10,51,291,13,25,35,120,38,37,32,322,40,1*7C
$GBGSV,4,4,13,34,09,040,,1*4E
$GBGSV,2,1,07,23,75,041,48,40,60,331,43,28,58,225,43,39,56,188,31,4*76
$GBGSV,2,2,07,43,56,035,44,25,35,120,37,37,32,322,37,4*42
$GNACCURACY,3.6*13
$PAIRSAT,1,35,2,0,201,3,0,200,4,0,221,5,0,200,6,0,200,7,0,201,8,0,221,9,0,220,10,0,200,11,0,200,12,0,200,13,0,200,14,0,200,15,0,200,16,0,201,17,0,200,18,0,200,19,0,200,20,0,200,21,0,201,22,0,200,23,0,200,24,0,200,25,0,200,26,0,220,27,0,221,28,0,200,29,0,200,30,0,221,31,0,200,32,0,200,194,0,621,195,0,621,196,0,620,199,0,621*5A
$PAIRSAT,2,24,65,0,200,66,0,200,67,0,200,68,0,200,69,0,200,70,0,200,71,0,200,72,0,200,73,0,200,74,0,200,75,0,200,76,0,200,77,0,201,78,0,201,79,0,201,80,0,200,81,0,201,82,0,201,83,0,200,84,0,200,85,0,200,86,0,200,87,0,200,88,0,201*7A
$PAIRSAT,3,23,2,0,1200,3,0,1200,4,0,1200,5,0,200,7,0,1200,8,0,1200,9,0,1200,10,0,1200,11,0,1200,12,0,1200,13,0,1221,15,0,1220,19,0,1201,21,0,1221,24,0,1200,25,0,1200,26,0,1221,27,0,1221,30,0,1200,31,0,1200,33,0,1200,34,0,1000,36,0,1200*6B
$PAIRSAT,4,46,1,0,200,2,0,200,3,0,600,4,0,200,5,0,200,6,0,201,7,0,201,8,0,200,9,0,201,10,0,201,11,0,200,12,0,200,13,0,200,14,0,200,16,0,201,19,0,600,20,0,600,21,0,600,22,0,600,23,0,621,24,0,600,25,0,621,26,0,600,27,0,600,28,0,621,29,0,600,30,0,600,32,0,600,33,0,600,34,0,621,35,0,600,36,0,600,37,0,621,38,0,600,39,0,621,40,0,621,41,0,600,42,0,600,43,0,621,44,0,400,45,0,400,46,0,400,59,0,400,60,0,400,61,0,400,62,0,400*4A
$PAIRDGP,10,2,4,7,8,9,16,21,26,27,30*42
$GNGGA,041600.200,2500.7932957,N,12132.4397767,E,4,51,0.54,16.756,M,15.25,M,1,3335*4B
$GNRMC,041600.200,A,2500.7932957,N,12132.4397767,E,0.01,323.05,090324,,,R,V*1D
$GPHDT,276.772,T*34
$GNACCURACY,3.6*13
$GNGGA,041600.300,2500.7932943,N,12132.4397775,E,4,51,0.54,16.756,M,15.25,M,1,3335*4C
$GNRMC,041600.300,A,2500.7932943,N,12132.4397775,E,0.01,323.05,090324,,,R,V*1A
$GPHDT,,T*1B
$GNACCURACY,3.6*13
$GNGGA,041600.400,2500.7932942,N,12132.4397764,E,4,51,0.54,16.748,M,15.25,M,1,3335*45
$GNRMC,041600.400,A,2500.7932942,N,12132.4397764,E,0.01,323.05,090324,,,R,V*1C
$GPHDT,276.880,T*36
$GNACCURACY,3.6*13
$GNGGA,041600.500,2500.7932952,N,12132.4397770,E,4,51,0.54,16.758,M,15.25,M,0,3335*40
$GNRMC,041600.500,A,2500.7932952,N,12132.4397770,E,0.01,323.05,090324,,,R,V*19
$GPHDT,,T*1B
$GNACCURACY,3.6*13
$GNGGA,041600.600,2500.7932984,N,12132.4397779,E,4,50,0.54,16.770,M,15.25,M,0,3335*4A
$GNRMC,041600.600,A,2500.7932984,N,12132.4397779,E,0.00,323.05,090324,,,R,V*19
$GPHDT,276.729,T*3A
$GNACCURACY,3.6*13
$GNGGA,041600.700,2500.7932990,N,12132.4397841,E,4,52,0.52,16.781,M,15.25,M,0,3335*40
$GNRMC,041600.700,A,2500.7932990,N,12132.4397841,E,0.00,323.05,090324,,,R,V*19
$GPHDT,,T*1B
$GNACCURACY,3.6*13
$GNGGA,041600.800,2500.7933011,N,12132.4397838,E,4,52,0.52,16.771,M,15.25,M,0,3335*4F
$GNRMC,041600.800,A,2500.7933011,N,12132.4397838,E,0.01,323.05,090324,,,R,V*18
$GPHDT,275.847,T*3E
$GNACCURACY,3.6*13
$GNGGA,041600.900,2500.7932985,N,12132.4397823,E,4,51,0.52,16.760,M,15.25,M,0,3335*42
$GNRMC,041600.900,A,2500.7932985,N,12132.4397823,E,0.01,323.05,090324,,,R,V*16
$GPHDT,,T*1B
$GNACCURACY,3.6*13
$GNGGA,041601.000,2500.7932988,N,12132.4397814,E,4,51,0.52,16.759,M,15.25,M,1,3335*48
$GNRMC,041601.000,A,2500.7932988,N,12132.4397814,E,0.01,323.05,090324,,,R,V*17
$GPHDT,276.335,T*33
$GNACCURACY,3.6*13
$GNGGA,041601.100,2500.7932987,N,12132.4397826,E,4,51,0.52,16.755,M,15.25,M,1,3335*4B
$GNRMC,041601.100,A,2500.7932987,N,12132.4397826,E,0.01,323.05,090324,,,R,V*18
$GPHDT,,T*1B
$GNGSA,A,3,195,194,21,199,08,02,07,27,16,09,196,30,0.89,0.52,0.73,1*0B
$GNGSA,A,3,04,,,,,,,,,,,,0.89,0.52,0.73,1*07
$GNGSA,A,3,81,78,88,79,77,,,,,,,,0.89,0.52,0.73,2*08
$GNGSA,A,3,21,13,26,27,15,,,,,,,,0.89,0.52,0.73,3*05
$GNGSA,A,3,23,09,06,16,07,40,28,43,39,25,37,,0.89,0.52,0.73,4*08
$GPGSV,4,1,15,195,65,112,43,194,64,053,41,21,63,152,42,199,60,167,33,1*52
$GPGSV,4,2,15,08,60,000,45,50,60,167,36,02,52,176,40,07,44,315,41,1*6B
$GPGSV,4,3,15,27,30,037,39,16,26,078,44,09,22,243,20,196,19,168,19,1*5C
$GPGSV,4,4,15,04,15,201,18,30,13,319,24,26,06,102,,1*57
$GPGSV,2,1,08,195,65,112,44,194,64,053,44,08,60,000,44,199,60,167,43,8*5C
$GPGSV,2,2,08,27,30,037,40,196,19,168,15,04,15,201,23,30,13,319,24,8*50
$GLGSV,2,1,06,81,69,205,43,78,58,044,44,88,52,029,43,79,29,336,44,1*71
$GLGSV,2,2,06,77,21,114,15,82,19,206,15,1*7F
$GAGSV,2,1,08,21,55,016,43,13,54,076,41,26,47,171,35,27,28,082,42,7*79
$GAGSV,2,2,08,19,26,239,,15,12,037,19,04,12,297,,33,06,199,,7*78
$GAGSV,1,1,04,21,55,016,43,13,54,076,44,26,47,171,39,27,28,082,41,1*7A
$GBGSV,4,1,13,23,75,041,44,09,72,261,43,06,69,214,40,16,66,199,42,1*73
$GBGSV,4,2,13,07,60,310,38,40,60,331,42,28,58,225,43,43,56,035,46,1*7A
$GBGSV,4,3,13,39,56,188,39,10,51,291,16,25,35,120,40,37,32,322,41,1*7C
$GBGSV,4,4,13,34,09,040,,1*4E
$GBGSV,2,1,07,23,75,041,46,40,60,331,43,28,58,225,43,39,56,188,37,4*7E
$GBGSV,2,2,07,43,56,035,44,25,35,120,37,37,32,322,36,4*43
$GNACCURACY,3.6*13
$PAIRSAT,1,35,2,0,201,3,0,200,4,0,221,5,0,200,6,0,200,7,0,201,8,0,221,9,0,220,10,0,200,11,0,200,12,0,200,13,0,200,14,0,200,15,0,200,16,0,201,17,0,200,18,0,200,19,0,200,20,0,200,21,0,201,22,0,200,23,0,200,24,0,200,25,0,200,26,0,220,27,0,221,28,0,200,29,0,200,30,0,221,31,0,200,32,0,200,194,0,621,195,0,621,196,0,620,199,0,621*5A
$PAIRSAT,2,24,65,0,200,66,0,200,67,0,200,68,0,200,69,0,200,70,0,200,71,0,200,72,0,200,73,0,200,74,0,200,75,0,200,76,0,200,77,0,201,78,0,201,79,0,201,80,0,200,81,0,201,82,0,201,83,0,200,84,0,200,85,0,200,86,0,200,87,0,200,88,0,201*7A
$PAIRSAT,3,23,2,0,1200,3,0,1200,4,0,1200,5,0,200,7,0,1200,8,0,1200,9,0,1200,10,0,1200,11,0,1200,12,0,1200,13,0,1221,15,0,1220,19,0,1201,21,0,1221,24,0,1200,25,0,1200,26,0,1221,27,0,1221,30,0,1200,31,0,1200,33,0,1200,34,0,1000,36,0,1200*6B
$PAIRSAT,4,46,1,0,200,2,0,200,3,0,600,4,0,200,5,0,200,6,0,201,7,0,201,8,0,200,9,0,201,10,0,201,11,0,200,12,0,200,13,0,200,14,0,200,16,0,201,19,0,600,20,0,600,21,0,600,22,0,600,23,0,621,24,0,600,25,0,621,26,0,600,27,0,600,28,0,621,29,0,600,30,0,600,32,0,600,33,0,600,34,0,621,35,0,600,36,0,600,37,0,621,38,0,600,39,0,621,40,0,621,41,0,600,42,0,600,43,0,621,44,0,400,45,0,400,46,0,400,59,0,400,60,0,400,61,0,400,62,0,400*4A
$PAIRDGP,10,2,4,7,8,9,16,21,26,27,30*42
$GNGGA,041601.200,2500.7933001,N,12132.4397849,E,4,52,0.52,16.765,M,15.25,M,1,3335*47
$GNRMC,041601.200,A,2500.7933001,N,12132.4397849,E,0.01,323.05,090324,,,R,V*14
$GPHDT,276.223,T*35
$GNACCURACY,3.6*13
$GNGGA,041601.300,2500.7933020,N,12132.4397831,E,4,52,0.52,16.763,M,15.25,M,1,3335*4C
$GNRMC,041601.300,A,2500.7933020,N,12132.4397831,E,0.01,323.05,090324,,,R,V*19
$GPHDT,,T*1B
$GNACCURACY,3.6*13
$GNGGA,041601.400,2500.7933017,N,12132.4397854,E,4,51,0.52,16.767,M,15.25,M,1,3335*4B
$GNRMC,041601.400,A,2500.7933017,N,12132.4397854,E,0.01,323.05,090324,,,R,V*19
$GPHDT,275.504,T*34
$GNACCURACY,3.6*13
$GNGGA,041601.500,2500.7933021,N,12132.4397826,E,4,52,0.52,16.757,M,15.25,M,0,3335*4B
$GNRMC,041601.500,A,2500.7933021,N,12132.4397826,E,0.01,323.05,090324,,,R,V*18
$GPHDT,,T*1B
$GNACCURACY,3.6*13
$GNGGA,041601.600,2500.7933043,N,12132.4397821,E,4,52,0.52,16.753,M,15.25,M,0,3335*4F
$GNRMC,041601.600,A,2500.7933043,N,12132.4397821,E,0.01,323.05,090324,,,R,V*18
$GPHDT,275.430,T*32
$GNACCURACY,3.6*13
$GNGGA,041601.700,2500.7933005,N,12132.4397843,E,4,52,0.52,16.755,M,15.25,M,0,3335*4E
$GNRMC,041601.700,A,2500.7933005,N,12132.4397843,E,0.01,323.05,090324,,,R,V*1F
$GPHDT,,T*1B
$GNACCURACY,3.6*13
$GNGGA,041601.800,2500.7933006,N,12132.4397832,E,4,51,0.52,16.749,M,15.25,M,0,3335*4A
$GNRMC,041601.800,A,2500.7933006,N,12132.4397832,E,0.01,323.05,090324,,,R,V*15
$GPHDT,276.025,T*31
$GNACCURACY,3.6*13
$GNGGA,041601.900,2500.7933002,N,12132.4397837,E,4,51,0.52,16.754,M,15.25,M,0,3335*46
$GNRMC,041601.900,A,2500.7933002,N,12132.4397837,E,0.01,323.05,090324,,,R,V*15
$GPHDT,,T*1B
$GNACCURACY,3.6*13
$GNGGA,041602.000,2500.7933053,N,12132.4397845,E,4,51,0.52,16.754,M,15.25,M,1,3335*4C
$GNRMC,041602.000,A,2500.7933053,N,12132.4397845,E,0.01,323.05,090324,,,R,V*1E
$GPHDT,275.754,T*33
$GNACCURACY,3.6*13
$GNGGA,041602.100,2500.7933038,N,12132.4397843,E,4,51,0.52,16.754,M,15.25,M,1,3335*46
$GNRMC,041602.100,A,2500.7933038,N,12132.4397843,E,0.01,323.05,090324,,,R,V*14
$GPHDT,,T*1B
$GNGSA,A,3,195,194,21,199,08,02,07,27,16,09,196,30,0.89,0.52,0.73,1*0B
$GNGSA,A,3,04,,,,,,,,,,,,0.89,0.52,0.73,1*07
$GNGSA,A,3,81,78,88,79,77,,,,,,,,0.89,0.52,0.73,2*08
$GNGSA,A,3,21,13,26,27,15,,,,,,,,0.89,0.52,0.73,3*05
$GNGSA,A,3,23,09,06,16,07,40,28,43,39,25,37,,0.89,0.52,0.73,4*08
$GPGSV,4,1,15,195,65,112,43,194,64,053,41,21,63,152,42,199,60,167,34,1*55
$GPGSV,4,2,15,08,60,000,45,50,60,167,36,02,52,176,40,07,44,315,41,1*6B
$GPGSV,4,3,15,27,30,037,39,16,26,078,44,09,22,243,19,196,19,168,18,1*57
$GPGSV,4,4,15,04,15,201,16,30,13,319,23,26,06,102,,1*5E
$GPGSV,2,1,08,195,65,112,44,194,64,053,44,08,60,000,44,199,60,167,43,8*5C
$GPGSV,2,2,08,27,30,037,40,196,19,168,11,04,15,201,22,30,13,319,25,8*54
$GLGSV,2,1,06,81,69,205,44,78,58,044,44,88,52,029,43,79,29,336,44,1*76
$GLGSV,2,2,06,77,21,114,15,82,19,206,14,1*7E
$GAGSV,2,1,07,21,55,016,43,13,54,076,41,26,47,171,35,27,28,082,41,7*75
$GAGSV,2,2,07,19,26,239,,15,12,037,18,04,12,297,,7*41
$GAGSV,1,1,04,21,55,016,43,13,54,076,44,26,47,171,40,27,28,082,42,1*77
$GBGSV,4,1,13,23,75,041,45,09,72,261,43,06,69,214,40,16,66,199,42,1*72
$GBGSV,4,2,13,07,60,310,38,40,60,331,42,28,58,225,43,43,56,035,46,1*7A
$GBGSV,4,3,13,39,56,188,39,10,51,291,15,25,35,120,40,37,32,322,41,1*7F
$GBGSV,4,4,13,34,09,040,,1*4E
$GBGSV,2,1,07,23,75,041,46,40,60,331,43,28,58,225,43,39,56,188,38,4*71
$GBGSV,2,2,07,43,56,035,44,25,35,120,37,37,32,322,36,4*43
$GNACCURACY,3.7*12
$PAIRSAT,1,35,2,0,201,3,0,200,4,0,221,5,0,200,6,0,200,7,0,201,8,0,221,9,0,220,10,0,200,11,0,200,12,0,200,13,0,200,14,0,200,15,0,200,16,0,201,17,0,200,18,0,200,19,0,200,20,0,200,21,0,201,22,0,200,23,0,200,24,0,200,25,0,200,26,0,220,27,0,221,28,0,200,29,0,200,30,0,221,31,0,200,32,0,200,194,0,621,195,0,621,196,0,620,199,0,621*5A
$PAIRSAT,2,24,65,0,200,66,0,200,67,0,200,68,0,200,69,0,200,70,0,200,71,0,200,72,0,200,73,0,200,74,0,200,75,0,200,76,0,200,77,0,201,78,0,201,79,0,201,80,0,200,81,0,201,82,0,201,83,0,200,84,0,200,85,0,200,86,0,200,87,0,200,88,0,201*7A
$PAIRSAT,3,23,2,0,1200,3,0,1200,4,0,1200,5,0,200,7,0,1200,8,0,1200,9,0,1200,10,0,1200,11,0,1200,12,0,1200,13,0,1221,15,0,1220,19,0,1201,21,0,1221,24,0,1200,25,0,1200,26,0,1221,27,0,1221,30,0,1200,31,0,1200,33,0,1200,34,0,1000,36,0,1200*6B
$PAIRSAT,4,46,1,0,200,2,0,200,3,0,600,4,0,200,5,0,200,6,0,201,7,0,201,8,0,200,9,0,201,10,0,201,11,0,200,12,0,200,13,0,200,14,0,200,16,0,201,19,0,600,20,0,600,21,0,600,22,0,600,23,0,621,24,0,600,25,0,621,26,0,600,27,0,600,28,0,621,29,0,600,30,0,600,32,0,600,33,0,600,34,0,621,35,0,600,36,0,600,37,0,621,38,0,600,39,0,621,40,0,621,41,0,600,42,0,600,43,0,621,44,0,400,45,0,400,46,0,400,59,0,400,60,0,400,61,0,400,62,0,400*4A
$PAIRDGP,10,2,4,7,8,9,16,21,26,27,30*42
$GNGGA,041602.200,2500.7933045,N,12132.4397850,E,4,52,0.52,16.756,M,15.25,M,1,3335*4C
$GNRMC,041602.200,A,2500.7933045,N,12132.4397850,E,0.01,323.05,090324,,,R,V*1F
$GPHDT,275.199,T*34
$GNACCURACY,3.7*12
$GNGGA,041602.300,2500.7933038,N,12132.4397826,E,4,52,0.52,16.758,M,15.25,M,1,3335*48
$GNRMC,041602.300,A,2500.7933038,N,12132.4397826,E,0.01,323.05,090324,,,R,V*15
$GPHDT,,T*1B
$GNACCURACY,3.7*12
$GNGGA,041602.400,2500.7933026,N,12132.4397837,E,4,50,0.53,16.753,M,15.25,M,1,3335*48
$GNRMC,041602.400,A,2500.7933026,N,12132.4397837,E,0.01,323.05,090324,,,R,V*1D
$GPHDT,275.068,T*3B
$GNACCURACY,3.7*12
$GNGGA,041602.500,2500.7933032,N,12132.4397845,E,4,49,0.53,16.747,M,15.25,M,1,3335*44
$GNRMC,041602.500,A,2500.7933032,N,12132.4397845,E,0.01,323.05,090324,,,R,V*1C
$GPHDT,,T*1B
$GNACCURACY,3.7*12
$GNGGA,041602.600,2500.7933026,N,12132.4397861,E,4,49,0.53,16.762,M,15.25,M,0,3335*42
$GNRMC,041602.600,A,2500.7933026,N,12132.4397861,E,0.01,323.05,090324,,,R,V*1C
$GPHDT,275.216,T*30
$GNACCURACY,3.7*12
$GNGGA,041602.700,2500.7933041,N,12132.4397854,E,4,49,0.53,16.762,M,15.25,M,0,3335*44
$GNRMC,041602.700,A,2500.7933041,N,12132.4397854,E,0.01,323.05,090324,,,R,V*1A
$GPHDT,,T*1B
$GNACCURACY,3.7*12
$GNGGA,041602.800,2500.7933012,N,12132.4397860,E,4,49,0.53,16.763,M,15.25,M,0,3335*4B
$GNRMC,041602.800,A,2500.7933012,N,12132.4397860,E,0.01,323.05,090324,,,R,V*14
$GPHDT,275.561,T*37
$GNACCURACY,3.7*12
$GNGGA,041602.900,2500.7933011,N,12132.4397881,E,4,49,0.53,16.766,M,15.25,M,0,3335*43
$GNRMC,041602.900,A,2500.7933011,N,12132.4397881,E,0.01,323.05,090324,,,R,V*19
$GPHDT,,T*1B
$GNACCURACY,3.7*12
$GNGGA,041603.000,2500.7933062,N,12132.4397886,E,4,49,0.53,16.771,M,15.25,M,1,3335*4F
$GNRMC,041603.000,A,2500.7933062,N,12132.4397886,E,0.00,323.05,090324,,,R,V*13
$GPHDT,275.612,T*30
