$FW : RTK35X,V1.1X0314AS,Lib20210517,1*54
$Tool : LOCOSYS , GNSS Firebird , v1.0.0.19*39
$---------------------------------------------------*2D
16.776,M,15.25,M,1,3335*4A
$GNRMC,041626.400,A,2500.7933070,N,12132.4397899,E,0.02,323.05,090324,,,R,V*1F
$GPHDT,139.270,T*3B
$GNACCURACY,3.6*13
$GNGGA,041626.500,2500.7933077,N,12132.4397962,E,4,51,0.56,16.776,M,15.25,M,1,3335*49
$GNRMC,041626.500,A,2500.7933077,N,12132.4397962,E,0.02,323.05,090324,,,R,V*1C
$GPHDT,,T*1B
$GNACCURACY,3.6*13
$GNGGA,041626.600,2500.7933069,N,12132.4397935,E,4,51,0.56,16.780,M,15.25,M,1,3335*4E
$GNRMC,041626.600,A,2500.7933069,N,12132.4397935,E,0.02,323.05,090324,,,R,V*12
$GPHDT,139.793,T*33
$GNACCURACY,3.7*12
$GNGGA,041626.700,2500.7933079,N,12132.4397938,E,4,52,0.54,16.777,M,15.25,M,0,3335*4B
$GNRMC,041626.700,A,2500.7933079,N,12132.4397938,E,0.02,323.05,090324,,,R,V*1F
$GPHDT,,T*1B
$GNACCURACY,3.7*12
$GNGGA,041626.800,2500.7933066,N,12132.4397916,E,4,53,0.52,16.772,M,15.25,M,0,3335*44
$GNRMC,041626.800,A,2500.7933066,N,12132.4397916,E,0.02,323.05,090324,,,R,V*12
$GPHDT,139.892,T*3D
$GNACCURACY,3.7*12
$GNGGA,041626.900,2500.7933049,N,12132.4397945,E,4,53,0.52,16.764,M,15.25,M,0,3335*49
$GNRMC,041626.900,A,2500.7933049,N,12132.4397945,E,0.02,323.05,090324,,,R,V*18
$GPHDT,,T*1B
$GNACCURACY,3.7*12
$GNGGA,041627.000,2500.7933071,N,12132.4397937,E,4,53,0.52,16.768,M,15.25,M,1,3335*42
$GNRMC,041627.000,A,2500.7933071,N,12132.4397937,E,0.01,323.05,090324,,,R,V*1D
$GPHDT,139.805,T*33
$GNACCURACY,3.7*12
$GNGGA,041627.100,2500.7933087,N,12132.4397953,E,4,53,0.52,16.769,M,15.25,M,1,3335*49
$GNRMC,041627.100,A,2500.7933087,N,12132.4397953,E,0.01,323.05,090324,,,R,V*17
$GPHDT,,T*1B
$GNGSA,A,3,195,194,21,199,08,02,07,27,16,09,196,04,0.78,0.52,0.58,1*0B
$GNGSA,A,3,30,,,,,,,,,,,,0.78,0.52,0.58,1*07
$GNGSA,A,3,81,78,88,79,82,,,,,,,,0.78,0.52,0.58,2*05
$GNGSA,A,3,21,13,26,27,15,,,,,,,,0.78,0.52,0.58,3*02
$GNGSA,A,3,23,09,06,16,07,40,28,39,43,25,37,,0.78,0.52,0.58,4*0F
$GPGSV,4,1,15,195,65,112,43,194,64,053,39,21,63,151,42,199,60,167,36,1*5B
$GPGSV,4,2,15,08,60,000,40,50,60,167,39,02,52,176,43,07,44,315,45,1*66
$GPGSV,4,3,15,27,30,038,31,16,26,079,40,09,22,243,14,196,19,168,26,1*55
$GPGSV,4,4,15,04,15,201,22,30,14,319,24,26,06,102,,1*59
$GPGSV,2,1,07,195,65,112,43,194,64,053,37,08,60,000,45,199,60,167,44,8*56
$GPGSV,2,2,07,27,30,038,28,09,22,243,14,04,15,201,20,8*55
$GLGSV,2,1,06,81,69,205,44,78,58,044,27,88,51,029,33,79,29,336,44,1*77
$GLGSV,2,2,06,77,21,114,,82,19,206,18,1*76
$GAGSV,2,1,08,21,55,016,36,13,54,075,31,26,47,171,34,27,28,082,35,7*7E
$GAGSV,2,2,08,19,25,238,,15,12,037,15,04,12,297,,33,06,199,,7*76
$GAGSV,2,1,05,21,55,016,36,13,54,075,37,26,47,171,40,27,28,082,37,1*72
$GAGSV,2,2,05,15,12,037,17,1*45
$GBGSV,4,1,13,23,75,042,42,09,72,261,41,06,69,214,41,16,66,199,42,1*75
$GBGSV,4,2,13,07,60,310,38,40,60,331,43,28,59,225,47,39,56,188,44,1*76
$GBGSV,4,3,13,43,55,035,41,10,51,291,18,25,35,120,39,37,32,322,42,1*79
$GBGSV,4,4,13,34,09,040,25,1*49
$GBGSV,2,1,07,23,75,042,43,40,60,331,42,28,59,225,42,39,56,188,44,4*7D
$GBGSV,2,2,07,43,55,035,35,25,35,120,38,37,32,322,40,4*48
$GNACCURACY,3.7*12
$PAIRSAT,1,35,2,0,201,3,0,200,4,0,221,5,0,200,6,0,200,7,0,201,8,0,221,9,0,220,10,0,200,11,0,200,12,0,200,13,0,200,14,0,200,15,0,200,16,0,201,17,0,200,18,0,200,19,0,200,20,0,200,21,0,201,22,0,200,23,0,200,24,0,200,25,0,200,26,0,220,27,0,221,28,0,200,29,0,200,30,0,221,31,0,200,32,0,200,194,0,621,195,0,621,196,0,620,199,0,621*5A
$PAIRSAT,2,24,65,0,200,66,0,200,67,0,200,68,0,200,69,0,200,70,0,200,71,0,200,72,0,200,73,0,200,74,0,200,75,0,200,76,0,200,77,0,201,78,0,201,79,0,201,80,0,200,81,0,201,82,0,201,83,0,200,84,0,200,85,0,200,86,0,200,87,0,200,88,0,201*7A
$PAIRSAT,3,23,2,0,1200,3,0,1200,4,0,1200,5,0,200,7,0,1200,8,0,1200,9,0,1200,10,0,1200,11,0,1200,12,0,1200,13,0,1221,15,0,1220,19,0,1201,21,0,1221,24,0,1200,25,0,1200,26,0,1221,27,0,1221,30,0,1200,31,0,1200,33,0,1200,34,0,1000,36,0,1200*6B
$PAIRSAT,4,46,1,0,200,2,0,200,3,0,600,4,0,200,5,0,200,6,0,201,7,0,201,8,0,200,9,0,201,10,0,201,11,0,200,12,0,200,13,0,200,14,0,200,16,0,201,19,0,600,20,0,600,21,0,600,22,0,600,23,0,621,24,0,600,25,0,621,26,0,600,27,0,600,28,0,621,29,0,600,30,0,600,32,0,600,33,0,600,34,0,621,35,0,600,36,0,600,37,0,621,38,0,600,39,0,621,40,0,621,41,0,600,42,0,600,43,0,621,44,0,400,45,0,400,46,0,400,59,0,400,60,0,400,61,0,400,62,0,400*4A
$PAIRDGP,10,2,4,7,8,9,16,21,26,27,30*42
$GNGGA,041627.200,2500.7933072,N,12132.4397965,E,4,53,0.52,16.773,M,15.25,M,1,3335*4E
$GNRMC,041627.200,A,2500.7933072,N,12132.4397965,E,0.01,323.05,090324,,,R,V*1B
$GPHDT,139.966,T*37
$GNACCURACY,3.6*13
$GNGGA,041627.300,2500.7933095,N,12132.4397983,E,4,53,0.52,16.773,M,15.25,M,1,3335*4E
$GNRMC,041627.300,A,2500.7933095,N,12132.4397983,E,0.01,323.05,090324,,,R,V*1B
$GPHDT,,T*1B
$GNACCURACY,3.6*13
$GNGGA,041627.400,2500.7933105,N,12132.4397955,E,4,53,0.52,16.790,M,15.25,M,1,3335*47
$GNRMC,041627.400,A,2500.7933105,N,12132.4397955,E,0.01,323.05,090324,,,R,V*1F
$GPHDT,140.199,T*31
$GNACCURACY,3.6*13
$GNGGA,041627.500,2500.7933091,N,12132.4397913,E,4,53,0.52,16.792,M,15.25,M,0,3335*4B
$GNRMC,041627.500,A,2500.7933091,N,12132.4397913,E,0.00,323.05,090324,,,R,V*11
$GPHDT,,T*1B
$GNACCURACY,3.6*13
$GNGGA,041627.600,2500.7933109,N,12132.4397934,E,4,54,0.52,16.790,M,15.25,M,0,3335*48
$GNRMC,041627.600,A,2500.7933109,N,12132.4397934,E,0.01,323.05,090324,,,R,V*16
$GPHDT,140.115,T*35
$GNACCURACY,3.6*13
$GNGGA,041627.700,2500.7933086,N,12132.4397904,E,4,54,0.52,16.793,M,15.25,M,0,3335*4F
$GNRMC,041627.700,A,2500.7933086,N,12132.4397904,E,0.01,323.05,090324,,,R,V*12
$GPHDT,,T*1B
$GNACCURACY,3.6*13
$GNGGA,041627.800,2500.7933086,N,12132.4397945,E,4,53,0.52,16.794,M,15.25,M,0,3335*45
$GNRMC,041627.800,A,2500.7933086,N,12132.4397945,E,0.00,323.05,090324,,,R,V*19
$GPHDT,140.622,T*36
$GNACCURACY,3.6*13
$GNGGA,041627.900,2500.7933098,N,12132.4397878,E,4,53,0.52,16.797,M,15.25,M,0,3335*47
$GNRMC,041627.900,A,2500.7933098,N,12132.4397878,E,0.01,323.05,090324,,,R,V*19
$GPHDT,,T*1B
$GNACCURACY,3.6*13
$GNGGA,041628.000,2500.7933114,N,12132.4397912,E,4,53,0.52,16.802,M,15.25,M,1,3335*4B
$GNRMC,041628.000,A,2500.7933114,N,12132.4397912,E,0.01,323.05,090324,,,R,V*17
$GPHDT,140.367,T*32
$GNACCURACY,3.6*13
$GNGGA,041628.100,2500.7933083,N,12132.4397952,E,4,53,0.52,16.775,M,15.25,M,1,3335*4E
$GNRMC,041628.100,A,2500.7933083,N,12132.4397952,E,0.01,323.05,090324,,,R,V*1D
$GPHDT,,T*1B
$GNGSA,A,3,195,194,21,199,08,02,07,27,16,09,196,04,0.78,0.52,0.58,1*0B
$GNGSA,A,3,30,,,,,,,,,,,,0.78,0.52,0.58,1*07
$GNGSA,A,3,81,78,88,79,82,,,,,,,,0.78,0.52,0.58,2*05
$GNGSA,A,3,21,13,26,27,15,,,,,,,,0.78,0.52,0.58,3*02
$GNGSA,A,3,23,09,06,16,07,40,28,39,43,25,37,,0.78,0.52,0.58,4*0F
$GPGSV,4,1,15,195,65,112,43,194,64,053,39,21,63,151,42,199,60,167,36,1*5B
$GPGSV,4,2,15,08,60,000,40,50,60,167,39,02,52,176,42,07,44,315,45,1*67
$GPGSV,4,3,15,27,30,038,31,16,26,079,40,09,22,243,13,196,19,168,25,1*51
$GPGSV,4,4,15,04,15,201,23,30,14,319,24,26,06,102,,1*58
$GPGSV,2,1,08,195,65,112,43,194,64,053,36,08,60,000,45,199,60,167,44,8*58
$GPGSV,2,2,08,27,30,038,30,09,22,243,12,04,15,201,19,30,14,319,26,8*66
$GLGSV,2,1,06,81,69,205,44,78,58,044,26,88,51,029,32,79,29,336,44,1*77
$GLGSV,2,2,06,77,21,114,,82,19,206,18,1*76
$GAGSV,2,1,08,21,55,016,36,13,54,075,33,26,47,171,34,27,28,082,34,7*7D
$GAGSV,2,2,08,19,25,238,,15,12,037,16,04,12,297,,33,06,199,,7*75
$GAGSV,2,1,05,21,55,016,35,13,54,075,37,26,47,171,40,27,28,082,37,1*71
$GAGSV,2,2,05,15,12,037,17,1*45
$GBGSV,4,1,13,23,75,042,42,09,72,261,41,06,69,214,41,16,66,199,43,1*74
$GBGSV,4,2,13,07,60,310,38,40,60,331,43,28,59,225,47,39,56,188,44,1*76
$GBGSV,4,3,13,43,55,035,41,10,51,291,18,25,35,120,39,37,32,322,42,1*79
$GBGSV,4,4,13,34,09,040,25,1*49
$GBGSV,2,1,07,23,75,042,42,40,60,331,41,28,59,225,42,39,56,188,44,4*7F
$GBGSV,2,2,07,43,55,035,35,25,35,120,39,37,32,322,40,4*49
$GNACCURACY,3.6*13
$PAIRSAT,1,35,2,0,201,3,0,200,4,0,221,5,0,200,6,0,200,7,0,201,8,0,221,9,0,220,10,0,200,11,0,200,12,0,200,13,0,200,14,0,200,15,0,200,16,0,201,17,0,200,18,0,200,19,0,200,20,0,200,21,0,201,22,0,200,23,0,200,24,0,200,25,0,200,26,0,220,27,0,221,28,0,200,29,0,200,30,0,221,31,0,200,32,0,200,194,0,621,195,0,621,196,0,620,199,0,621*5A
$PAIRSAT,2,24,65,0,200,66,0,200,67,0,200,68,0,200,69,0,200,70,0,200,71,0,200,72,0,200,73,0,200,74,0,200,75,0,200,76,0,200,77,0,201,78,0,201,79,0,201,80,0,200,81,0,201,82,0,201,83,0,200,84,0,200,85,0,200,86,0,200,87,0,200,88,0,201*7A
$PAIRSAT,3,23,2,0,1200,3,0,1200,4,0,1200,5,0,200,7,0,1200,8,0,1200,9,0,1200,10,0,1200,11,0,1200,12,0,1200,13,0,1221,15,0,1220,19,0,1201,21,0,1221,24,0,1200,25,0,1200,26,0,1221,27,0,1221,30,0,1200,31,0,1200,33,0,1200,34,0,1000,36,0,1200*6B
$PAIRSAT,4,46,1,0,200,2,0,200,3,0,600,4,0,200,5,0,200,6,0,201,7,0,201,8,0,200,9,0,201,10,0,201,11,0,200,12,0,200,13,0,200,14,0,200,16,0,201,19,0,600,20,0,600,21,0,600,22,0,600,23,0,621,24,0,600,25,0,621,26,0,600,27,0,600,28,0,621,29,0,600,30,0,600,32,0,600,33,0,600,34,0,621,35,0,600,36,0,600,37,0,621,38,0,600,39,0,621,40,0,621,41,0,600,42,0,600,43,0,621,44,0,400,45,0,400,46,0,400,59,0,400,60,0,400,61,0,400,62,0,400*4A
$PAIRDGP,10,2,4,7,8,9,16,21,26,27,30*42
$GNGGA,041628.200,2500.7933096,N,12132.4397867,E,4,53,0.52,16.789,M,15.25,M,1,3335*4D
$GNRMC,041628.200,A,2500.7933096,N,12132.4397867,E,0.01,323.05,090324,,,R,V*1D
$GPHDT,139.712,T*3A
$GNACCURACY,3.6*13
$GNGGA,041628.300,2500.7933112,N,12132.4397906,E,4,53,0.52,16.801,M,15.25,M,1,3335*48
$GNRMC,041628.300,A,2500.7933112,N,12132.4397906,E,0.01,323.05,090324,,,R,V*17
$GPHDT,,T*1B
$GNACCURACY,3.6*13
$GNGGA,041628.400,2500.7933080,N,12132.4397929,E,4,54,0.52,16.778,M,15.25,M,1,3335*4E
$GNRMC,041628.400,A,2500.7933080,N,12132.4397929,E,0.01,323.05,090324,,,R,V*17
$GPHDT,140.028,T*3A
$GNACCURACY,3.6*13
$GNGGA,041628.500,2500.7933080,N,12132.4397901,E,4,53,0.52,16.782,M,15.25,M,0,3335*46
$GNRMC,041628.500,A,2500.7933080,N,12132.4397901,E,0.01,323.05,090324,,,R,V*1C
$GPHDT,,T*1B
$GNACCURACY,3.6*13
$GNGGA,041628.600,2500.7933073,N,12132.4397907,E,4,53,0.52,16.766,M,15.25,M,0,3335*45
$GNRMC,041628.600,A,2500.7933073,N,12132.4397907,E,0.01,323.05,090324,,,R,V*15
$GPHDT,139.590,T*32
$GNACCURACY,3.6*13
$GNGGA,041628.700,2500.7933090,N,12132.4397901,E,4,53,0.52,16.773,M,15.25,M,0,3335*4B
$GNRMC,041628.700,A,2500.7933090,N,12132.4397901,E,0.01,323.05,090324,,,R,V*1F
$GPHDT,,T*1B
$GNACCURACY,3.6*13
$GNGGA,041628.800,2500.7933083,N,12132.4397922,E,4,52,0.54,16.786,M,15.25,M,0,3335*4A
$GNRMC,041628.800,A,2500.7933083,N,12132.4397922,E,0.01,323.05,090324,,,R,V*13
$GPHDT,139.254,T*3D
$GNACCURACY,3.6*13
$GNGGA,041628.900,2500.7933081,N,12132.4397934,E,4,52,0.54,16.774,M,15.25,M,0,3335*43
$GNRMC,041628.900,A,2500.7933081,N,12132.4397934,E,0.01,323.05,090324,,,R,V*17
$GPHDT,,T*1B
$GNACCURACY,3.6*13
$GNGGA,041629.000,2500.7933092,N,12132.4397927,E,4,52,0.54,16.780,M,15.25,M,1,3335*41
$GNRMC,041629.000,A,2500.7933092,N,12132.4397927,E,0.01,323.05,090324,,,R,V*1F
$GPHDT,139.665,T*3B
$GNACCURACY,3.6*13
$GNGGA,041629.100,2500.7933083,N,12132.4397918,E,4,52,0.54,16.775,M,15.25,M,1,3335*46
$GNRMC,041629.100,A,2500.7933083,N,12132.4397918,E,0.01,323.05,090324,,,R,V*12
$GPHDT,,T*1B
$GNGSA,A,3,195,194,21,199,08,02,07,27,16,196,04,30,0.81,0.54,0.60,1*0A
$GNGSA,A,3,81,78,88,79,82,,,,,,,,0.81,0.54,0.60,2*0E
$GNGSA,A,3,21,13,26,27,15,,,,,,,,0.81,0.54,0.60,3*09
$GNGSA,A,3,23,09,06,16,40,07,28,39,43,25,37,,0.81,0.54,0.60,4*04
$GPGSV,4,1,15,195,65,112,43,194,64,053,39,21,63,151,42,199,60,167,36,1*5B
$GPGSV,4,2,15,08,60,000,41,50,60,167,39,02,52,176,41,07,44,315,45,1*65
$GPGSV,4,3,15,27,30,038,28,16,26,079,40,09,22,243,13,196,19,168,27,1*5B
$GPGSV,4,4,15,04,15,201,23,30,14,319,24,26,06,102,,1*58
$GPGSV,2,1,08,195,65,112,44,194,64,053,37,08,60,000,44,199,60,167,44,8*5F
$GPGSV,2,2,08,27,30,038,30,09,22,243,13,04,15,201,20,30,14,319,27,8*6C
$GLGSV,2,1,07,81,69,205,44,78,58,045,27,88,51,029,32,79,29,336,44,1*76
$GLGSV,2,2,07,77,21,114,,82,19,206,19,69,02,278,,1*46
$GAGSV,2,1,07,21,55,016,36,13,54,075,34,26,47,171,33,27,28,082,35,7*73
$GAGSV,2,2,07,19,25,238,,15,12,037,17,33,06,199,,7*40
$GAGSV,2,1,05,21,55,016,36,13,54,075,39,26,47,171,40,27,28,082,38,1*73
$GAGSV,2,2,05,15,12,037,19,1*4B
$GBGSV,4,1,13,23,75,042,42,09,72,261,41,06,69,214,41,16,66,199,43,1*74
$GBGSV,4,2,13,40,60,331,43,07,60,310,38,28,59,225,47,39,56,188,44,1*76
$GBGSV,4,3,13,43,55,035,41,10,51,291,18,25,35,120,39,37,32,322,43,1*78
$GBGSV,4,4,13,34,09,040,23,1*4F
$GBGSV,2,1,07,23,75,042,43,40,60,331,41,28,59,225,42,39,56,188,44,4*7E
$GBGSV,2,2,07,43,55,035,35,25,35,120,40,37,32,322,41,4*46
$GNACCURACY,3.6*13
$PAIRSAT,1,35,2,0,201,3,0,200,4,0,221,5,0,200,6,0,200,7,0,201,8,0,221,9,0,220,10,0,200,11,0,200,12,0,200,13,0,200,14,0,200,15,0,200,16,0,201,17,0,200,18,0,200,19,0,200,20,0,200,21,0,201,22,0,200,23,0,200,24,0,200,25,0,200,26,0,220,27,0,221,28,0,200,29,0,200,30,0,221,31,0,200,32,0,200,194,0,621,195,0,621,196,0,620,199,0,621*5A
$PAIRSAT,2,24,65,0,200,66,0,200,67,0,200,68,0,200,69,0,200,70,0,200,71,0,200,72,0,200,73,0,200,74,0,200,75,0,200,76,0,200,77,0,201,78,0,201,79,0,201,80,0,200,81,0,201,82,0,201,83,0,200,84,0,200,85,0,200,86,0,200,87,0,200,88,0,201*7A
$PAIRSAT,3,23,2,0,1200,3,0,1200,4,0,1200,5,0,200,7,0,1200,8,0,1200,9,0,1200,10,0,1200,11,0,1200,12,0,1200,13,0,1221,15,0,1220,19,0,1201,21,0,1221,24,0,1200,25,0,1200,26,0,1221,27,0,1221,30,0,1200,31,0,1200,33,0,1200,34,0,1000,36,0,1200*6B
$PAIRSAT,4,46,1,0,200,2,0,200,3,0,600,4,0,200,5,0,200,6,0,201,7,0,201,8,0,200,9,0,201,10,0,201,11,0,200,12,0,200,13,0,200,14,0,200,16,0,201,19,0,600,20,0,600,21,0,600,22,0,600,23,0,621,24,0,600,25,0,621,26,0,600,27,0,600,28,0,621,29,0,600,30,0,600,32,0,600,33,0,600,34,0,621,35,0,600,36,0,600,37,0,621,38,0,600,39,0,621,40,0,621,41,0,600,42,0,600,43,0,621,44,0,400,45,0,400,46,0,400,59,0,400,60,0,400,61,0,400,62,0,400*4A
$PAIRDGP,10,2,4,7,8,9,16,21,26,27,30*42
$GNGGA,041629.200,2500.7933105,N,12132.4397897,E,4,52,0.54,16.797,M,15.25,M,1,3335*40
$GNRMC,041629.200,A,2500.7933105,N,12132.4397897,E,0.01,323.05,090324,,,R,V*18
$GPHDT,139.483,T*31
$GNACCURACY,3.5*10
$GNGGA,041629.300,2500.7933102,N,12132.4397902,E,4,55,0.50,16.785,M,15.25,M,1,3335*4B
$GNRMC,041629.300,A,2500.7933102,N,12132.4397902,E,0.01,323.05,090324,,,R,V*13
$GPHDT,,T*1B
$GNACCURACY,3.5*10
$GNGGA,041629.400,2500.7933122,N,12132.4397946,E,4,54,0.53,16.794,M,15.25,M,1,3335*4C
$GNRMC,041629.400,A,2500.7933122,N,12132.4397946,E,0.01,323.05,090324,,,R,V*16
$GPHDT,139.738,T*32
$GNACCURACY,3.5*10
$GNGGA,041629.500,2500.7933117,N,12132.4397919,E,4,54,0.53,16.793,M,15.25,M,1,3335*46
$GNRMC,041629.500,A,2500.7933117,N,12132.4397919,E,0.01,323.05,090324,,,R,V*1B
$GPHDT,,T*1B
$GNACCURACY,3.5*10
$GNGGA,041629.600,2500.7933106,N,12132.4397891,E,4,54,0.53,16.798,M,15.25,M,1,3335*4F
$GNRMC,041629.600,A,2500.7933106,N,12132.4397891,E,0.01,323.05,090324,,,R,V*19
$GPHDT,139.526,T*3F
$GNACCURACY,3.5*10
$GNGGA,041629.700,2500.7933097,N,12132.4397923,E,4,54,0.53,16.781,M,15.25,M,0,3335*46
$GNRMC,041629.700,A,2500.7933097,N,12132.4397923,E,0.01,323.05,090324,,,R,V*19
$GPHDT,,T*1B
$GNACCURACY,3.6*13
$GNGGA,041629.800,2500.7933085,N,12132.4397906,E,4,54,0.53,16.782,M,15.25,M,0,3335*4E
$GNRMC,041629.800,A,2500.7933085,N,12132.4397906,E,0.01,323.05,090324,,,R,V*12
$GPHDT,139.763,T*3C
$GNACCURACY,3.6*13
$GNGGA,041629.900,2500.7933063,N,12132.4397926,E,4,54,0.53,16.773,M,15.25,M,0,3335*4B
$GNRMC,041629.900,A,2500.7933063,N,12132.4397926,E,0.01,323.05,090324,,,R,V*19
$GPHDT,,T*1B
$GNACCURACY,3.6*13
$GNGGA,041630.000,2500.7933067,N,12132.4397947,E,4,54,0.53,16.752,M,15.25,M,1,3335*4B
$GNRMC,041630.000,A,2500.7933067,N,12132.4397947,E,0.01,323.05,090324,,,R,V*1B
$GPHDT,139.896,T*39
$GNACCURACY,3.6*13
$GNGGA,041630.100,2500.7933060,N,12132.4397929,E,4,52,0.53,16.766,M,15.25,M,1,3335*44
$GNRMC,041630.100,A,2500.7933060,N,12132.4397929,E,0.01,323.05,090324,,,R,V*15
$GPHDT,,T*1B
$GNGSA,A,3,195,194,21,199,08,02,07,27,16,196,30,04,0.79,0.53,0.59,1*00
$GNGSA,A,3,81,78,88,79,77,82,,,,,,,0.79,0.53,0.59,2*04
$GNGSA,A,3,21,13,26,27,15,,,,,,,,0.79,0.53,0.59,3*03
$GNGSA,A,3,23,09,06,16,07,40,28,39,43,25,37,,0.79,0.53,0.59,4*0E
$GPGSV,4,1,15,195,65,112,43,194,64,053,38,21,63,151,42,199,60,167,36,1*5A
$GPGSV,4,2,15,08,60,000,41,50,60,167,39,02,52,176,41,07,44,315,45,1*65
$GPGSV,4,3,15,27,30,038,30,16,26,079,40,09,22,243,14,196,19,168,26,1*54
$GPGSV,4,4,15,04,15,201,21,30,14,319,24,26,06,102,,1*5A
$GPGSV,2,1,07,195,65,112,44,194,64,053,36,08,60,000,44,199,60,167,44,8*51
$GPGSV,2,2,07,27,30,038,27,04,15,201,20,30,14,319,26,8*5A
$GLGSV,2,1,06,81,69,205,44,78,58,045,26,88,51,029,28,79,29,336,44,1*7D
$GLGSV,2,2,06,77,21,114,19,82,19,206,17,1*71
$GAGSV,2,1,07,21,55,016,36,13,54,075,33,26,47,171,33,27,28,082,35,7*74
$GAGSV,2,2,07,19,25,238,,15,12,037,17,33,06,199,,7*40
$GAGSV,2,1,05,21,55,016,34,13,54,075,39,26,47,171,40,27,28,082,37,1*7E
$GAGSV,2,2,05,15,12,037,18,1*4A
$GBGSV,4,1,13,23,75,042,40,09,72,261,43,06,69,214,41,16,66,199,43,1*74
$GBGSV,4,2,13,07,60,310,38,40,60,331,43,28,59,225,47,39,56,188,44,1*76
$GBGSV,4,3,13,43,55,035,38,10,51,291,18,25,35,120,39,37,32,322,43,1*76
$GBGSV,4,4,13,34,09,040,23,1*4F
$GBGSV,2,1,07,23,75,042,41,40,60,331,40,28,59,225,43,39,56,188,44,4*7C
$GBGSV,2,2,07,43,55,035,33,25,35,120,39,37,32,322,41,4*4E
$GNACCURACY,3.6*13
$PAIRSAT,1,35,2,0,201,3,0,200,4,0,221,5,0,200,6,0,200,7,0,201,8,0,221,9,0,220,10,0,200,11,0,200,12,0,200,13,0,200,14,0,200,15,0,200,16,0,201,17,0,200,18,0,200,19,0,200,20,0,200,21,0,201,22,0,200,23,0,200,24,0,200,25,0,200,26,0,220,27,0,221,28,0,200,29,0,200,30,0,221,31,0,200,32,0,200,194,0,621,195,0,621,196,0,620,199,0,621*5A
$PAIRSAT,2,24,65,0,200,66,0,200,67,0,200,68,0,200,69,0,200,70,0,200,71,0,200,72,0,200,73,0,200,74,0,200,75,0,200,76,0,200,77,0,201,78,0,201,79,0,201,80,0,200,81,0,201,82,0,201,83,0,200,84,0,200,85,0,200,86,0,200,87,0,200,88,0,201*7A
$PAIRSAT,3,23,2,0,1200,3,0,1200,4,0,1200,5,0,200,7,0,1200,8,0,1200,9,0,1200,10,0,1200,11,0,1200,12,0,1200,13,0,1221,15,0,1220,19,0,1201,21,0,1221,24,0,1200,25,0,1200,26,0,1221,27,0,1221,30,0,1200,31,0,1200,33,0,1200,34,0,1000,36,0,1200*6B
$PAIRSAT,4,46,1,0,200,2,0,200,3,0,600,4,0,200,5,0,200,6,0,201,7,0,201,8,0,200,9,0,201,10,0,201,11,0,200,12,0,200,13,0,200,14,0,200,16,0,201,19,0,600,20,0,600,21,0,600,22,0,600,23,0,621,24,0,600,25,0,621,26,0,600,27,0,600,28,0,621,29,0,600,30,0,600,32,0,600,33,0,600,34,0,621,35,0,600,36,0,600,37,0,621,38,0,600,39,0,621,40,0,621,41,0,600,42,0,600,43,0,621,44,0,400,45,0,400,46,0,400,59,0,400,60,0,400,61,0,400,62,0,400*4A
$PAIRDGP,10,2,4,7,8,9,16,21,26,27,30*42
$GNGGA,041630.200,2500.7933052,N,12132.4397940,E,4,52,0.53,16.772,M,15.25,M,1,3335*4C
$GNRMC,041630.200,A,2500.7933052,N,12132.4397940,E,0.01,323.05,090324,,,R,V*18
$GPHDT,139.717,T*3F
$GNACCURACY,3.5*10
$GNGGA,041630.300,2500.7933066,N,12132.4397987,E,4,52,0.53,16.761,M,15.25,M,1,3335*43
$GNRMC,041630.300,A,2500.7933066,N,12132.4397987,E,0.00,323.05,090324,,,R,V*14
$GPHDT,,T*1B
$GNACCURACY,3.6*13
$GNGGA,041630.400,2500.7933066,N,12132.4397959,E,4,53,0.53,16.767,M,15.25,M,1,3335*40
$GNRMC,041630.400,A,2500.7933066,N,12132.4397959,E,0.00,323.05,090324,,,R,V*10
$GPHDT,140.011,T*30
$GNACCURACY,3.6*13
$GNGGA,041630.500,2500.7933057,N,12132.4397955,E,4,52,0.53,16.768,M,15.25,M,1,3335*41
$GNRMC,041630.500,A,2500.7933057,N,12132.4397955,E,0.01,323.05,090324,,,R,V*1E
$GPHDT,,T*1B
$GNACCURACY,3.6*13
$GNGGA,041630.600,2500.7933073,N,12132.4397971,E,4,52,0.53,16.771,M,15.25,M,1,3335*4A
$GNRMC,041630.600,A,2500.7933073,N,12132.4397971,E,0.01,323.05,090324,,,R,V*1D
$GPHDT,140.315,T*37
$GNACCURACY,3.6*13
$GNGGA,041630.700,2500.7933080,N,12132.4397951,E,4,52,0.53,16.763,M,15.25,M,0,3335*47
$GNRMC,041630.700,A,2500.7933080,N,12132.4397951,E,0.01,323.05,090324,,,R,V*12
$GPHDT,,T*1B
$GNACCURACY,3.6*13
$GNGGA,041630.800,2500.7933078,N,12132.4397927,E,4,53,0.53,16.766,M,15.25,M,0,3335*4A
$GNRMC,041630.800,A,2500.7933078,N,12132.4397927,E,0.01,323.05,090324,,,R,V*1B
$GPHDT,139.896,T*39
$GNACCURACY,3.6*13
$GNGGA,041630.900,2500.7933074,N,12132.4397937,E,4,53,0.53,16.768,M,15.25,M,0,3335*48
$GNRMC,041630.900,A,2500.7933074,N,12132.4397937,E,0.02,323.05,090324,,,R,V*14
$GPHDT,,T*1B
$GNACCURACY,3.6*13
$GNGGA,041631.000,2500.7933080,N,12132.4397970,E,4,53,0.53,16.757,M,15.25,M,1,3335*45
$GNRMC,041631.000,A,2500.7933080,N,12132.4397970,E,0.02,323.05,090324,,,R,V*14
$GPHDT,140.076,T*31
$GNACCURACY,3.6*13
$GNGGA,041631.100,2500.7933081,N,12132.4397931,E,4,53,0.53,16.765,M,15.25,M,1,3335*41
$GNRMC,041631.100,A,2500.7933081,N,12132.4397931,E,0.02,323.05,090324,,,R,V*11
$GPHDT,,T*1B
$GNGSA,A,3,195,194,21,199,08,02,07,27,16,196,04,30,0.79,0.53,0.59,1*00
$GNGSA,A,3,81,78,88,79,77,82,,,,,,,0.79,0.53,0.59,2*04
$GNGSA,A,3,21,13,26,27,15,,,,,,,,0.79,0.53,0.59,3*03
$GNGSA,A,3,23,09,06,16,07,40,28,39,43,25,37,,0.79,0.53,0.59,4*0E
$GPGSV,4,1,15,195,65,112,43,194,64,053,38,21,63,151,42,199,60,167,36,1*5A
$GPGSV,4,2,15,08,60,000,42,50,60,167,39,02,52,176,41,07,44,315,45,1*66
$GPGSV,4,3,15,27,30,038,29,16,26,079,37,09,22,243,14,196,19,168,25,1*5F
$GPGSV,4,4,15,04,15,201,21,30,14,319,24,26,06,102,,1*5A
$GPGSV,2,1,07,195,65,112,43,194,64,053,35,08,60,000,44,199,60,167,44,8*55
$GPGSV,2,2,07,27,30,038,30,04,15,201,20,30,14,319,26,8*5C
$GLGSV,2,1,06,81,69,205,44,78,58,045,25,88,51,029,32,79,29,336,44,1*75
$GLGSV,2,2,06,77,21,114,18,82,19,206,16,1*71
$GAGSV,2,1,07,21,55,016,36,13,54,075,33,26,47,171,33,27,28,082,35,7*74
$GAGSV,2,2,07,19,25,238,,15,12,037,17,33,06,199,,7*40
$GAGSV,2,1,05,21,55,016,35,13,54,075,38,26,47,171,40,27,28,082,37,1*7E
$GAGSV,2,2,05,15,12,037,16,1*44
$GBGSV,4,1,13,23,75,042,40,09,72,261,43,06,69,214,41,16,66,199,43,1*74
$GBGSV,4,2,13,07,60,310,38,40,60,331,43,28,59,225,47,39,56,188,44,1*76
$GBGSV,4,3,13,43,55,035,40,10,51,291,18,25,35,120,39,37,32,322,43,1*79
$GBGSV,4,4,13,34,09,040,21,1*4D
$GBGSV,2,1,07,23,75,042,41,40,60,331,40,28,59,225,43,39,56,188,44,4*7C
$GBGSV,2,2,07,43,55,035,33,25,35,120,39,37,32,322,41,4*4E
$GNACCURACY,3.6*13
$PAIRSAT,1,35,2,0,201,3,0,200,4,0,221,5,0,200,6,0,200,7,0,201,8,0,221,9,0,220,10,0,200,11,0,200,12,0,200,13,0,200,14,0,200,15,0,200,16,0,201,17,0,200,18,0,200,19,0,200,20,0,200,21,0,201,22,0,200,23,0,200,24,0,200,25,0,200,26,0,220,27,0,221,28,0,200,29,0,200,30,0,221,31,0,200,32,0,200,194,0,621,195,0,621,196,0,620,199,0,621*5A
$PAIRSAT,2,24,65,0,200,66,0,200,67,0,200,68,0,200,69,0,200,70,0,200,71,0,200,72,0,200,73,0,200,74,0,200,75,0,200,76,0,200,77,0,201,78,0,201,79,0,201,80,0,200,81,0,201,82,0,201,83,0,200,84,0,200,85,0,200,86,0,200,87,0,200,88,0,201*7A
$PAIRSAT,3,23,2,0,1200,3,0,1200,4,0,1200,5,0,200,7,0,1200,8,0,1200,9,0,1200,10,0,1200,11,0,1200,12,0,1200,13,0,1221,15,0,1220,19,0,1201,21,0,1221,24,0,1200,25,0,1200,26,0,1221,27,0,1221,30,0,1200,31,0,1200,33,0,1200,34,0,1000,36,0,1200*6B
$PAIRSAT,4,46,1,0,200,2,0,200,3,0,600,4,0,200,5,0,200,6,0,201,7,0,201,8,0,200,9,0,201,10,0,201,11,0,200,12,0,200,13,0,200,14,0,200,16,0,201,19,0,600,20,0,600,21,0,600,22,0,600,23,0,621,24,0,600,25,0,621,26,0,600,27,0,600,28,0,621,29,0,600,30,0,600,32,0,600,33,0,600,34,0,621,35,0,600,36,0,600,37,0,621,38,0,600,39,0,621,40,0,621,41,0,600,42,0,600,43,0,621,44,0,400,45,0,400,46,0,400,59,0,400,60,0,400,61,0,400,62,0,400*4A
$PAIRDGP,10,2,4,7,8,9,16,21,26,27,30*42
$GNGGA,041631.200,2500.7933104,N,12132.4397960,E,4,53,0.53,16.765,M,15.25,M,1,3335*4A
$GNRMC,041631.200,A,2500.7933104,N,12132.4397960,E,0.03,323.05,090324,,,R,V*1B
$GPHDT,140.359,T*3F
$GNACCURACY,3.6*13
$GNGGA,041631.300,2500.7933068,N,12132.4397951,E,4,52,0.53,16.762,M,15.25,M,1,3335*44
$GNRMC,041631.300,A,2500.7933068,N,12132.4397951,E,0.01,323.05,090324,,,R,V*11
$GPHDT,,T*1B
$GNACCURACY,3.6*13
$GNGGA,041631.400,2500.7933084,N,12132.4397941,E,4,52,0.53,16.770,M,15.25,M,1,3335*43
$GNRMC,041631.400,A,2500.7933084,N,12132.4397941,E,0.00,323.05,090324,,,R,V*14
$GPHDT,140.032,T*31
$GNACCURACY,3.6*13
$GNGGA,041631.500,2500.7933098,N,12132.4397954,E,4,53,0.53,16.769,M,15.25,M,1,3335*42
$GNRMC,041631.500,A,2500.7933098,N,12132.4397954,E,0.00,323.05,090324,,,R,V*1C
$GPHDT,,T*1B
$GNACCURACY,3.6*13
$GNGGA,041631.600,2500.7933085,N,12132.4397907,E,4,53,0.53,16.777,M,15.25,M,0,3335*45
$GNRMC,041631.600,A,2500.7933085,N,12132.4397907,E,0.00,323.05,090324,,,R,V*15
$GPHDT,140.099,T*30
$GNACCURACY,3.6*13
$GNGGA,041631.700,2500.7933041,N,12132.4397920,E,4,53,0.53,16.757,M,15.25,M,0,3335*4B
$GNRMC,041631.700,A,2500.7933041,N,12132.4397920,E,0.00,323.05,090324,,,R,V*19
$GPHDT,,T*1B
$GNACCURACY,3.6*13
$GNGGA,041631.800,2500.7933071,N,12132.4397919,E,4,53,0.53,16.766,M,15.25,M,0,3335*4F
$GNRMC,041631.800,A,2500.7933071,N,12132.4397919,E,0.00,323.05,090324,,,R,V*1F
$GPHDT,140.218,T*3B
$GNACCURACY,3.6*13
$GNGGA,041631.900,2500.7933074,N,12132.4397909,E,4,53,0.53,16.767,M,15.25,M,0,3335*4B
$GNRMC,041631.900,A,2500.7933074,N,12132.4397909,E,0.00,323.05,090324,,,R,V*1A
$GPHDT,,T*1B
$GNACCURACY,3.6*13
$GNGGA,041632.000,2500.7933071,N,12132.4397920,E,4,53,0.53,16.770,M,15.25,M,1,3335*48
$GNRMC,041632.000,A,2500.7933071,N,12132.4397920,E,0.00,323.05,090324,,,R,V*1E
$GPHDT,140.306,T*35
$GNACCURACY,3.6*13
$GNGGA,041632.100,2500.7933074,N,12132.4397915,E,4,52,0.53,16.757,M,15.25,M,1,3335*4E
$GNRMC,041632.100,A,2500.7933074,N,12132.4397915,E,0.01,323.05,090324,,,R,V*1D
$GPHDT,,T*1B
$GNGSA,A,3,195,194,21,199,08,02,07,27,16,196,30,04,0.89,0.53,0.72,1*06
$GNGSA,A,3,81,78,88,79,77,82,,,,,,,0.89,0.53,0.72,2*02
$GNGSA,A,3,21,13,26,27,15,,,,,,,,0.89,0.53,0.72,3*05
$GNGSA,A,3,23,09,06,16,07,40,28,39,43,25,37,,0.89,0.53,0.72,4*08
$GPGSV,4,1,15,195,65,112,43,194,64,053,38,21,63,151,42,199,60,167,36,1*5A
$GPGSV,4,2,15,08,60,000,42,50,60,167,39,02,52,176,41,07,44,315,45,1*66
$GPGSV,4,3,15,27,30,038,29,16,26,079,36,09,22,243,15,196,19,168,27,1*5D
$GPGSV,4,4,15,04,15,201,21,30,14,319,24,26,06,102,,1*5A
$GPGSV,2,1,07,195,65,112,43,194,64,053,35,08,60,000,44,199,60,167,44,8*55
$GPGSV,2,2,07,27,30,038,30,04,15,201,22,30,14,319,27,8*5F
$GLGSV,2,1,06,81,69,205,43,78,58,045,26,88,51,029,32,79,29,336,44,1*71
$GLGSV,2,2,06,77,21,114,19,82,19,206,16,1*70
$GAGSV,2,1,07,21,55,016,36,13,54,075,33,26,47,171,33,27,28,082,35,7*74
$GAGSV,2,2,07,19,25,238,,15,12,037,18,33,06,199,,7*4F
$GAGSV,2,1,05,21,55,016,35,13,54,075,38,26,47,171,40,27,28,082,37,1*7E
$GAGSV,2,2,05,15,12,037,16,1*44
$GBGSV,4,1,13,23,75,042,40,09,72,261,43,06,69,214,41,16,66,199,43,1*74
$GBGSV,4,2,13,07,60,310,38,40,60,331,43,28,59,225,47,39,56,188,44,1*76
$GBGSV,4,3,13,43,55,035,41,10,51,291,18,25,35,120,39,37,32,322,43,1*78
$GBGSV,4,4,13,34,09,040,23,1*4F
$GBGSV,2,1,07,23,75,042,41,40,60,331,41,28,59,225,43,39,56,188,44,4*7D
$GBGSV,2,2,07,43,55,035,34,25,35,120,39,37,32,322,41,4*49
$GNACCURACY,3.6*13
$PAIRSAT,1,35,2,0,201,3,0,200,4,0,221,5,0,200,6,0,200,7,0,201,8,0,221,9,0,220,10,0,200,11,0,200,12,0,200,13,0,200,14,0,200,15,0,200,16,0,201,17,0,200,18,0,200,19,0,200,20,0,200,21,0,201,22,0,200,23,0,200,24,0,200,25,0,200,26,0,220,27,0,221,28,0,200,29,0,200,30,0,221,31,0,200,32,0,200,194,0,621,195,0,621,196,0,620,199,0,621*5A
$PAIRSAT,2,24,65,0,200,66,0,200,67,0,200,68,0,200,69,0,200,70,0,200,71,0,200,72,0,200,73,0,200,74,0,200,75,0,200,76,0,200,77,0,201,78,0,201,79,0,201,80,0,200,81,0,201,82,0,201,83,0,200,84,0,200,85,0,200,86,0,200,87,0,200,88,0,201*7A
$PAIRSAT,3,23,2,0,1200,3,0,1200,4,0,1200,5,0,200,7,0,1200,8,0,1200,9,0,1200,10,0,1200,11,0,1200,12,0,1200,13,0,1221,15,0,1220,19,0,1201,21,0,1221,24,0,1200,25,0,1200,26,0,1221,27,0,1221,30,0,1200,31,0,1200,33,0,1200,34,0,1000,36,0,1200*6B
$PAIRSAT,4,46,1,0,200,2,0,200,3,0,600,4,0,200,5,0,200,6,0,201,7,0,201,8,0,200,9,0,201,10,0,201,11,0,200,12,0,200,13,0,200,14,0,200,16,0,201,19,0,600,20,0,600,21,0,600,22,0,600,23,0,621,24,0,600,25,0,621,26,0,600,27,0,600,28,0,621,29,0,600,30,0,600,32,0,600,33,0,600,34,0,621,35,0,600,36,0,600,37,0,621,38,0,600,39,0,621,40,0,621,41,0,600,42,0,600,43,0,621,44,0,400,45,0,400,46,0,400,59,0,400,60,0,400,61,0,400,62,0,400*4A
$PAIRDGP,10,2,4,7,8,9,16,21,26,27,30*42
$GNGGA,041632.2