$FW : RTK35X,V1.1X0314AS,Lib20210517,1*54
$Tool : LOCOSYS , GNSS Firebird , v1.0.0.19*39
$---------------------------------------------------*2D
.4397804,E,0.01,323.05,090324,,,R,V*1E
$GPHDT,,T*1B
$GNACCURACY,3.7*12
$GNGGA,041636.400,2500.7933026,N,12132.4397821,E,4,50,0.54,16.793,M,15.25,M,1,3335*43
$GNRMC,041636.400,A,2500.7933026,N,12132.4397821,E,0.02,323.05,090324,,,R,V*1E
$GPHDT,80.091,T*05
$GNACCURACY,3.7*12
$GNGGA,041636.500,2500.7933055,N,12132.4397808,E,4,50,0.54,16.768,M,15.25,M,0,3335*48
$GNRMC,041636.500,A,2500.7933055,N,12132.4397808,E,0.01,323.05,090324,,,R,V*13
$GPHDT,,T*1B
$GNACCURACY,3.7*12
$GNGGA,041636.600,2500.7933050,N,12132.4397787,E,4,50,0.54,16.777,M,15.25,M,0,3335*48
$GNRMC,041636.600,A,2500.7933050,N,12132.4397787,E,0.01,323.05,090324,,,R,V*1D
$GPHDT,82.205,T*08
$GNACCURACY,3.7*12
$GNGGA,041636.700,2500.7933027,N,12132.4397795,E,4,50,0.54,16.796,M,15.25,M,0,3335*45
$GNRMC,041636.700,A,2500.7933027,N,12132.4397795,E,0.02,323.05,090324,,,R,V*1C
$GPHDT,,T*1B
$GNACCURACY,3.7*12
$GNGGA,041636.800,2500.7933035,N,12132.4397760,E,4,50,0.54,16.790,M,15.25,M,0,3335*45
$GNRMC,041636.800,A,2500.7933035,N,12132.4397760,E,0.02,323.05,090324,,,R,V*1A
$GPHDT,82.796,T*07
$GNACCURACY,3.7*12
$GNGGA,041636.900,2500.7933025,N,12132.4397795,E,4,50,0.54,16.800,M,15.25,M,0,3335*49
$GNRMC,041636.900,A,2500.7933025,N,12132.4397795,E,0.02,323.05,090324,,,R,V*10
$GPHDT,,T*1B
$GNACCURACY,3.7*12
$GNGGA,041637.000,2500.7933039,N,12132.4397792,E,4,50,0.54,16.782,M,15.25,M,1,3335*4F
$GNRMC,041637.000,A,2500.7933039,N,12132.4397792,E,0.01,323.05,090324,,,R,V*11
$GPHDT,83.863,T*03
$GNACCURACY,3.7*12
$GNGGA,041637.100,2500.7933027,N,12132.4397772,E,4,50,0.54,16.793,M,15.25,M,1,3335*4F
$GNRMC,041637.100,A,2500.7933027,N,12132.4397772,E,0.01,323.05,090324,,,R,V*11
$GPHDT,,T*1B
$GNGSA,A,3,195,194,21,08,199,02,07,27,16,09,196,04,0.96,0.54,0.79,1*0E
$GNGSA,A,3,81,78,88,79,77,,,,,,,,0.96,0.54,0.79,2*0A
$GNGSA,A,3,21,13,26,27,15,,,,,,,,0.96,0.54,0.79,3*07
$GNGSA,A,3,23,09,06,16,07,40,28,39,43,37,25,,0.96,0.54,0.79,4*0A
$GPGSV,4,1,15,195,65,112,43,194,64,053,41,21,63,151,43,50,60,167,41,1*61
$GPGSV,4,2,15,08,60,000,43,199,60,167,38,02,52,176,44,07,44,314,39,1*5D
$GPGSV,4,3,15,27,30,038,34,16,26,079,39,09,22,243,16,196,19,168,25,1*5F
$GPGSV,4,4,15,04,15,200,20,30,14,319,18,26,06,102,,1*55
$GPGSV,2,1,07,195,65,112,44,194,64,053,44,08,60,000,32,199,60,167,44,8*55
$GPGSV,2,2,07,27,30,038,29,196,19,168,24,04,15,200,29,8*6A
$GLGSV,2,1,06,81,69,205,43,78,58,045,42,88,51,029,37,79,29,336,29,1*7D
$GLGSV,2,2,06,77,21,114,19,82,19,206,14,1*72
$GAGSV,2,1,06,21,55,016,28,13,54,075,40,26,47,171,42,27,28,082,39,7*74
$GAGSV,2,2,06,19,25,238,,15,12,037,18,7*79
$GAGSV,2,1,05,21,55,016,35,13,54,075,42,26,47,171,42,27,28,082,38,1*7E
$GAGSV,2,2,05,15,12,037,16,1*44
$GBGSV,4,1,13,23,75,042,45,09,72,261,42,06,69,214,40,16,66,199,44,1*76
$GBGSV,4,2,13,07,60,310,33,40,60,331,38,28,59,225,46,39,56,188,46,1*72
$GBGSV,4,3,13,43,55,035,42,10,51,291,12,25,35,121,,37,33,322,31,1*7E
$GBGSV,4,4,13,34,09,040,27,1*4B
$GBGSV,2,1,07,23,75,042,45,40,60,331,39,28,59,225,43,39,56,188,43,4*71
$GBGSV,2,2,07,43,55,035,38,25,35,121,28,37,33,322,31,4*42
$GNACCURACY,3.7*12
$PAIRSAT,1,35,2,0,201,3,0,200,4,0,221,5,0,200,6,0,200,7,0,201,8,0,221,9,0,220,10,0,200,11,0,200,12,0,200,13,0,200,14,0,200,15,0,200,16,0,201,17,0,200,18,0,200,19,0,200,20,0,200,21,0,201,22,0,200,23,0,200,24,0,200,25,0,200,26,0,220,27,0,221,28,0,200,29,0,200,30,0,221,31,0,200,32,0,200,194,0,621,195,0,621,196,0,620,199,0,621*5A
$PAIRSAT,2,24,65,0,200,66,0,200,67,0,200,68,0,200,69,0,200,70,0,200,71,0,200,72,0,200,73,0,200,74,0,200,75,0,200,76,0,200,77,0,201,78,0,201,79,0,201,80,0,200,81,0,201,82,0,201,83,0,200,84,0,200,85,0,200,86,0,200,87,0,200,88,0,201*7A
$PAIRSAT,3,23,2,0,1200,3,0,1200,4,0,1200,5,0,200,7,0,1200,8,0,1200,9,0,1200,10,0,1200,11,0,1200,12,0,1200,13,0,1221,15,0,1220,19,0,1201,21,0,1221,24,0,1200,25,0,1200,26,0,1221,27,0,1221,30,0,1200,31,0,1200,33,0,1200,34,0,1000,36,0,1200*6B
$PAIRSAT,4,46,1,0,200,2,0,200,3,0,600,4,0,200,5,0,200,6,0,201,7,0,201,8,0,200,9,0,201,10,0,201,11,0,200,12,0,200,13,0,200,14,0,200,16,0,201,19,0,600,20,0,600,21,0,600,22,0,600,23,0,621,24,0,600,25,0,621,26,0,600,27,0,600,28,0,621,29,0,600,30,0,600,32,0,600,33,0,600,34,0,621,35,0,600,36,0,600,37,0,621,38,0,600,39,0,621,40,0,621,41,0,600,42,0,600,43,0,621,44,0,400,45,0,400,46,0,400,59,0,400,60,0,400,61,0,400,62,0,400*4A
$PAIRDGP,10,2,4,7,8,9,16,21,26,27,30*42
$GNGGA,041637.200,2500.7933059,N,12132.4397827,E,4,50,0.54,16.776,M,15.25,M,1,3335*41
$GNRMC,041637.200,A,2500.7933059,N,12132.4397827,E,0.01,323.05,090324,,,R,V*14
$GPHDT,84.430,T*0E
$GNACCURACY,3.6*13
$GNGGA,041637.300,2500.7933068,N,12132.4397803,E,4,50,0.54,16.781,M,15.25,M,1,3335*4C
$GNRMC,041637.300,A,2500.7933068,N,12132.4397803,E,0.01,323.05,090324,,,R,V*11
$GPHDT,,T*1B
$GNACCURACY,3.6*13
$GNGGA,041637.400,2500.7933061,N,12132.4397809,E,4,50,0.54,16.771,M,15.25,M,1,3335*47
$GNRMC,041637.400,A,2500.7933061,N,12132.4397809,E,0.01,323.05,090324,,,R,V*15
$GPHDT,85.050,T*0D
$GNACCURACY,3.6*13
$GNGGA,041637.500,2500.7933076,N,12132.4397805,E,4,51,0.54,16.781,M,15.25,M,0,3335*43
$GNRMC,041637.500,A,2500.7933076,N,12132.4397805,E,0.01,323.05,090324,,,R,V*1E
$GPHDT,,T*1B
$GNACCURACY,3.6*13
$GNGGA,041637.600,2500.7933060,N,12132.4397806,E,4,51,0.54,16.768,M,15.25,M,0,3335*43
$GNRMC,041637.600,A,2500.7933060,N,12132.4397806,E,0.01,323.05,090324,,,R,V*19
$GPHDT,84.692,T*04
$GNACCURACY,3.6*13
$GNGGA,041637.700,2500.7933027,N,12132.4397814,E,4,51,0.54,16.789,M,15.25,M,0,3335*4D
$GNRMC,041637.700,A,2500.7933027,N,12132.4397814,E,0.01,323.05,090324,,,R,V*18
$GPHDT,,T*1B
$GNACCURACY,3.6*13
$GNGGA,041637.800,2500.7933033,N,12132.4397807,E,4,51,0.54,16.793,M,15.25,M,0,3335*4E
$GNRMC,041637.800,A,2500.7933033,N,12132.4397807,E,0.01,323.05,090324,,,R,V*10
$GPHDT,84.669,T*00
$GNACCURACY,3.6*13
$GNGGA,041637.900,2500.7933026,N,12132.4397805,E,4,51,0.54,16.783,M,15.25,M,0,3335*48
$GNRMC,041637.900,A,2500.7933026,N,12132.4397805,E,0.01,323.05,090324,,,R,V*17
$GPHDT,,T*1B
$GNACCURACY,3.6*13
$GNGGA,041638.000,2500.7933050,N,12132.4397806,E,4,51,0.54,16.785,M,15.25,M,1,3335*4B
$GNRMC,041638.000,A,2500.7933050,N,12132.4397806,E,0.01,323.05,090324,,,R,V*13
$GPHDT,84.584,T*00
$GNACCURACY,3.6*13
$GNGGA,041638.100,2500.7933031,N,12132.4397802,E,4,51,0.54,16.791,M,15.25,M,1,3335*4C
$GNRMC,041638.100,A,2500.7933031,N,12132.4397802,E,0.01,323.05,090324,,,R,V*11
$GPHDT,,T*1B
$GNGSA,A,3,195,194,21,08,199,02,07,27,16,09,196,04,0.96,0.54,0.79,1*0E
$GNGSA,A,3,81,78,88,79,77,,,,,,,,0.96,0.54,0.79,2*0A
$GNGSA,A,3,21,13,26,27,15,,,,,,,,0.96,0.54,0.79,3*07
$GNGSA,A,3,23,09,06,16,07,40,28,39,43,25,37,,0.96,0.54,0.79,4*0A
$GPGSV,4,1,15,195,65,112,42,194,64,053,41,21,63,151,43,50,60,167,41,1*60
$GPGSV,4,2,15,08,60,000,43,199,60,167,38,02,52,176,44,07,44,314,39,1*5D
$GPGSV,4,3,15,27,30,038,37,16,26,079,38,09,22,243,14,196,19,168,25,1*5F
$GPGSV,4,4,15,04,15,200,21,30,14,319,18,26,06,102,,1*54
$GPGSV,2,1,07,195,65,112,45,194,64,053,44,08,60,000,36,199,60,167,44,8*50
$GPGSV,2,2,07,27,30,038,29,196,19,168,25,04,15,200,29,8*6B
$GLGSV,2,1,06,81,69,205,43,78,58,045,43,88,51,029,38,79,29,336,29,1*73
$GLGSV,2,2,06,77,21,114,19,82,19,206,13,1*75
$GAGSV,2,1,06,21,55,016,33,13,54,075,41,26,47,171,42,27,28,082,39,7*7F
$GAGSV,2,2,06,19,25,238,,15,12,037,17,7*76
$GAGSV,2,1,05,21,55,016,35,13,54,075,43,26,47,171,43,27,28,082,40,1*71
$GAGSV,2,2,05,15,12,037,16,1*44
$GBGSV,4,1,13,23,75,042,46,09,72,261,43,06,69,214,40,16,66,199,44,1*74
$GBGSV,4,2,13,07,60,310,33,40,60,331,39,28,59,225,46,39,56,188,45,1*70
$GBGSV,4,3,13,43,55,035,44,10,51,291,13,25,35,121,34,37,33,322,30,1*7F
$GBGSV,4,4,13,34,09,040,27,1*4B
$GBGSV,2,1,07,23,75,042,46,40,60,331,40,28,59,225,44,39,56,188,45,4*7D
$GBGSV,2,2,07,43,55,035,39,25,35,121,30,37,33,322,29,4*43
$GNACCURACY,3.7*12
$PAIRSAT,1,35,2,0,201,3,0,200,4,0,221,5,0,200,6,0,200,7,0,201,8,0,221,9,0,220,10,0,200,11,0,200,12,0,200,13,0,200,14,0,200,15,0,200,16,0,201,17,0,200,18,0,200,19,0,200,20,0,200,21,0,201,22,0,200,23,0,200,24,0,200,25,0,200,26,0,220,27,0,221,28,0,200,29,0,200,30,0,221,31,0,200,32,0,200,194,0,621,195,0,621,196,0,620,199,0,621*5A
$PAIRSAT,2,24,65,0,200,66,0,200,67,0,200,68,0,200,69,0,200,70,0,200,71,0,200,72,0,200,73,0,200,74,0,200,75,0,200,76,0,200,77,0,201,78,0,201,79,0,201,80,0,200,81,0,201,82,0,201,83,0,200,84,0,200,85,0,200,86,0,200,87,0,200,88,0,201*7A
$PAIRSAT,3,23,2,0,1200,3,0,1200,4,0,1200,5,0,200,7,0,1200,8,0,1200,9,0,1200,10,0,1200,11,0,1200,12,0,1200,13,0,1221,15,0,1220,19,0,1201,21,0,1221,24,0,1200,25,0,1200,26,0,1221,27,0,1221,30,0,1200,31,0,1200,33,0,1200,34,0,1000,36,0,1200*6B
$PAIRSAT,4,46,1,0,200,2,0,200,3,0,600,4,0,200,5,0,200,6,0,201,7,0,201,8,0,200,9,0,201,10,0,201,11,0,200,12,0,200,13,0,200,14,0,200,16,0,201,19,0,600,20,0,600,21,0,600,22,0,600,23,0,621,24,0,600,25,0,621,26,0,600,27,0,600,28,0,621,29,0,600,30,0,600,32,0,600,33,0,600,34,0,621,35,0,600,36,0,600,37,0,621,38,0,600,39,0,621,40,0,621,41,0,600,42,0,600,43,0,621,44,0,400,45,0,400,46,0,400,59,0,400,60,0,400,61,0,400,62,0,400*4A
$PAIRDGP,10,2,4,7,8,9,16,21,26,27,30*42
$GNGGA,041638.200,2500.7933042,N,12132.4397801,E,4,50,0.54,16.798,M,15.25,M,1,3335*40
$GNRMC,041638.200,A,2500.7933042,N,12132.4397801,E,0.01,323.05,090324,,,R,V*15
$GPHDT,84.843,T*06
$GNACCURACY,3.7*12
$GNGGA,041638.300,2500.7933053,N,12132.4397799,E,4,51,0.54,16.801,M,15.25,M,1,3335*41
$GNRMC,041638.300,A,2500.7933053,N,12132.4397799,E,0.01,323.05,090324,,,R,V*1A
$GPHDT,,T*1B
$GNACCURACY,3.7*12
$GNGGA,041638.400,2500.7933066,N,12132.4397807,E,4,51,0.54,16.796,M,15.25,M,1,3335*49
$GNRMC,041638.400,A,2500.7933066,N,12132.4397807,E,0.01,323.05,090324,,,R,V*13
$GPHDT,84.817,T*07
$GNACCURACY,3.7*12
$GNGGA,041638.500,2500.7933067,N,12132.4397794,E,4,51,0.54,16.804,M,15.25,M,1,3335*48
$GNRMC,041638.500,A,2500.7933067,N,12132.4397794,E,0.01,323.05,090324,,,R,V*16
$GPHDT,,T*1B
$GNACCURACY,3.7*12
$GNGGA,041638.600,2500.7933047,N,12132.4397769,E,4,52,0.54,16.791,M,15.25,M,0,3335*4A
$GNRMC,041638.600,A,2500.7933047,N,12132.4397769,E,0.01,323.05,090324,,,R,V*15
$GPHDT,84.939,T*0A
$GNACCURACY,3.7*12
$GNGGA,041638.700,2500.7933052,N,12132.4397774,E,4,52,0.54,16.789,M,15.25,M,0,3335*4A
$GNRMC,041638.700,A,2500.7933052,N,12132.4397774,E,0.01,323.05,090324,,,R,V*1C
$GPHDT,,T*1B
$GNACCURACY,3.7*12
$GNGGA,041638.800,2500.7933053,N,12132.4397772,E,4,52,0.54,16.789,M,15.25,M,0,3335*42
$GNRMC,041638.800,A,2500.7933053,N,12132.4397772,E,0.01,323.05,090324,,,R,V*14
$GPHDT,84.487,T*02
$GNACCURACY,3.7*12
$GNGGA,041638.900,2500.7933069,N,12132.4397762,E,4,51,0.54,16.792,M,15.25,M,0,3335*42
$GNRMC,041638.900,A,2500.7933069,N,12132.4397762,E,0.01,323.05,090324,,,R,V*1D
$GPHDT,,T*1B
$GNACCURACY,3.7*12
$GNGGA,041639.000,2500.7933048,N,12132.4397765,E,4,50,0.58,16.781,M,15.25,M,1,3335*40
$GNRMC,041639.000,A,2500.7933048,N,12132.4397765,E,0.01,323.05,090324,,,R,V*11
$GPHDT,84.152,T*0F
$GNACCURACY,3.7*12
$GNGGA,041639.100,2500.7933053,N,12132.4397756,E,4,50,0.58,16.788,M,15.25,M,1,3335*42
$GNRMC,041639.100,A,2500.7933053,N,12132.4397756,E,0.01,323.05,090324,,,R,V*1A
$GPHDT,,T*1B
$GNGSA,A,3,195,194,21,08,199,02,07,27,16,196,04,,1.02,0.58,0.84,1*05
$GNGSA,A,3,81,78,88,79,77,,,,,,,,1.02,0.58,0.84,2*08
$GNGSA,A,3,21,13,26,27,15,,,,,,,,1.02,0.58,0.84,3*05
$GNGSA,A,3,23,09,06,16,07,40,28,39,43,25,37,,1.02,0.58,0.84,4*08
$GPGSV,4,1,15,195,65,112,42,194,64,053,41,21,64,151,43,50,60,167,41,1*67
$GPGSV,4,2,15,08,60,000,44,199,60,167,38,02,52,176,45,07,44,314,38,1*5A
$GPGSV,4,3,15,27,30,038,36,16,26,079,37,09,22,243,12,196,19,168,22,1*50
$GPGSV,4,4,15,04,15,200,21,30,14,319,18,26,06,102,,1*54
$GPGSV,2,1,07,195,65,112,45,194,64,053,44,08,60,000,38,199,60,167,44,8*5E
$GPGSV,2,2,07,27,30,038,29,196,19,168,21,04,15,200,28,8*6E
$GLGSV,2,1,06,81,69,205,43,78,58,045,43,88,51,029,38,79,29,336,28,1*72
$GLGSV,2,2,06,77,21,114,17,82,19,206,13,1*7B
$GAGSV,2,1,06,21,55,016,31,13,54,075,41,26,47,171,42,27,28,082,39,7*7D
$GAGSV,2,2,06,19,25,238,,15,12,037,17,7*76
$GAGSV,2,1,05,21,55,016,35,13,54,075,43,26,47,171,42,27,28,082,40,1*70
$GAGSV,2,2,05,15,12,037,15,1*47
$GBGSV,4,1,13,23,75,042,46,09,72,261,43,06,69,214,40,16,66,199,44,1*74
$GBGSV,4,2,13,07,60,310,34,40,60,331,39,28,59,225,46,39,56,188,45,1*77
$GBGSV,4,3,13,43,55,035,44,10,51,291,13,25,35,121,35,37,33,322,31,1*7F
$GBGSV,4,4,13,34,09,040,26,1*4A
$GBGSV,2,1,07,23,75,042,46,40,60,331,40,28,59,225,44,39,56,188,45,4*7D
$GBGSV,2,2,07,43,55,035,38,25,35,121,31,37,33,322,31,4*4A
$GNACCURACY,3.7*12
$PAIRSAT,1,35,2,0,201,3,0,200,4,0,221,5,0,200,6,0,200,7,0,201,8,0,221,9,0,220,10,0,200,11,0,200,12,0,200,13,0,200,14,0,200,15,0,200,16,0,201,17,0,200,18,0,200,19,0,200,20,0,200,21,0,201,22,0,200,23,0,200,24,0,200,25,0,200,26,0,220,27,0,221,28,0,200,29,0,200,30,0,221,31,0,200,32,0,200,194,0,621,195,0,621,196,0,620,199,0,621*5A
$PAIRSAT,2,24,65,0,200,66,0,200,67,0,200,68,0,200,69,0,200,70,0,200,71,0,200,72,0,200,73,0,200,74,0,200,75,0,200,76,0,200,77,0,201,78,0,201,79,0,201,80,0,200,81,0,201,82,0,201,83,0,200,84,0,200,85,0,200,86,0,200,87,0,200,88,0,201*7A
$PAIRSAT,3,23,2,0,1200,3,0,1200,4,0,1200,5,0,200,7,0,1200,8,0,1200,9,0,1200,10,0,1200,11,0,1200,12,0,1200,13,0,1221,15,0,1220,19,0,1201,21,0,1221,24,0,1200,25,0,1200,26,0,1221,27,0,1221,30,0,1200,31,0,1200,33,0,1200,34,0,1000,36,0,1200*6B
$PAIRSAT,4,46,1,0,200,2,0,200,3,0,600,4,0,200,5,0,200,6,0,201,7,0,201,8,0,200,9,0,201,10,0,201,11,0,200,12,0,200,13,0,200,14,0,200,16,0,201,19,0,600,20,0,600,21,0,600,22,0,600,23,0,621,24,0,600,25,0,621,26,0,600,27,0,600,28,0,621,29,0,600,30,0,600,32,0,600,33,0,600,34,0,621,35,0,600,36,0,600,37,0,621,38,0,600,39,0,621,40,0,621,41,0,600,42,0,600,43,0,621,44,0,400,45,0,400,46,0,400,59,0,400,60,0,400,61,0,400,62,0,400*4A
$PAIRDGP,10,2,4,7,8,9,16,21,26,27,30*42
$GNGGA,041639.200,2500.7933062,N,12132.4397754,E,4,50,0.58,16.782,M,15.25,M,1,3335*4B
$GNRMC,041639.200,A,2500.7933062,N,12132.4397754,E,0.01,323.05,090324,,,R,V*19
$GPHDT,84.222,T*0B
$GNACCURACY,3.7*12
$GNGGA,041639.300,2500.7933062,N,12132.4397749,E,4,50,0.58,16.783,M,15.25,M,1,3335*47
$GNRMC,041639.300,A,2500.7933062,N,12132.4397749,E,0.01,323.05,090324,,,R,V*14
$GPHDT,,T*1B
$GNACCURACY,3.7*12
$GNGGA,041639.400,2500.7933055,N,12132.4397756,E,4,50,0.58,16.786,M,15.25,M,1,3335*4F
$GNRMC,041639.400,A,2500.7933055,N,12132.4397756,E,0.01,323.05,090324,,,R,V*19
$GPHDT,84.101,T*09
$GNACCURACY,3.7*12
$GNGGA,041639.500,2500.7933055,N,12132.4397760,E,4,50,0.58,16.782,M,15.25,M,1,3335*4F
$GNRMC,041639.500,A,2500.7933055,N,12132.4397760,E,0.01,323.05,090324,,,R,V*1D
$GPHDT,,T*1B
$GNACCURACY,3.7*12
$GNGGA,041639.600,2500.7933052,N,12132.4397735,E,4,51,0.58,16.779,M,15.25,M,1,3335*4E
$GNRMC,041639.600,A,2500.7933052,N,12132.4397735,E,0.01,323.05,090324,,,R,V*19
$GPHDT,83.946,T*05
$GNACCURACY,3.7*12
$GNGGA,041639.700,2500.7933053,N,12132.4397741,E,4,50,0.58,16.781,M,15.25,M,0,3335*4A
$GNRMC,041639.700,A,2500.7933053,N,12132.4397741,E,0.01,323.05,090324,,,R,V*1A
$GPHDT,,T*1B
$GNACCURACY,3.7*12
$GNGGA,041639.800,2500.7933068,N,12132.4397729,E,4,50,0.58,16.779,M,15.25,M,0,3335*44
$GNRMC,041639.800,A,2500.7933068,N,12132.4397729,E,0.01,323.05,090324,,,R,V*13
$GPHDT,84.291,T*03
$GNACCURACY,3.7*12
$GNGGA,041639.900,2500.7933055,N,12132.4397757,E,4,50,0.58,16.787,M,15.25,M,0,3335*43
$GNRMC,041639.900,A,2500.7933055,N,12132.4397757,E,0.01,323.05,090324,,,R,V*15
$GPHDT,,T*1B
$GNACCURACY,3.7*12
$GNGGA,041640.000,2500.7933058,N,12132.4397750,E,4,50,0.58,16.777,M,15.25,M,1,3335*40
$GNRMC,041640.000,A,2500.7933058,N,12132.4397750,E,0.01,323.05,090324,,,R,V*18
$GPHDT,84.306,T*0C
$GNACCURACY,3.7*12
$GNGGA,041640.100,2500.7933065,N,12132.4397742,E,4,50,0.58,16.778,M,15.25,M,1,3335*43
$GNRMC,041640.100,A,2500.7933065,N,12132.4397742,E,0.01,323.05,090324,,,R,V*14
$GPHDT,,T*1B
$GNGSA,A,3,195,194,21,199,08,02,07,27,16,196,04,,1.02,0.58,0.84,1*05
$GNGSA,A,3,81,78,88,79,77,,,,,,,,1.02,0.58,0.84,2*08
$GNGSA,A,3,21,13,26,27,15,,,,,,,,1.02,0.58,0.84,3*05
$GNGSA,A,3,23,09,06,16,40,07,28,39,43,25,37,,1.02,0.58,0.84,4*08
$GPGSV,4,1,15,195,65,112,42,194,64,053,41,21,64,151,43,199,60,167,38,1*5D
$GPGSV,4,2,15,08,60,000,44,50,60,167,41,02,52,176,45,07,44,314,39,1*61
$GPGSV,4,3,15,27,30,038,36,16,26,079,38,09,22,243,15,196,19,168,20,1*5A
$GPGSV,4,4,15,04,15,200,22,30,14,319,18,26,06,102,,1*57
$GPGSV,2,1,07,195,65,112,45,194,64,053,44,08,60,000,40,199,60,167,44,8*51
$GPGSV,2,2,07,27,30,038,28,196,19,168,22,04,15,200,28,8*6C
$GLGSV,2,1,06,81,69,205,43,78,58,045,43,88,51,029,38,79,29,336,23,1*79
$GLGSV,2,2,06,77,21,114,17,82,19,206,12,1*7A
$GAGSV,2,1,07,21,55,016,29,13,54,075,41,26,47,171,42,27,28,082,39,7*75
$GAGSV,2,2,07,19,25,238,,15,12,037,18,04,12,297,,7*43
$GAGSV,2,1,05,21,55,016,35,13,54,075,43,26,47,171,42,27,28,082,40,1*70
$GAGSV,2,2,05,15,12,037,16,1*44
$GBGSV,4,1,14,23,75,042,46,09,72,261,43,06,69,214,40,16,66,199,44,1*73
$GBGSV,4,2,14,40,60,331,39,07,60,310,34,28,59,225,46,39,56,188,44,1*71
$GBGSV,4,3,14,43,55,035,43,10,51,291,12,25,35,121,36,37,33,322,36,1*7A
$GBGSV,4,4,14,27,12,221,,34,09,040,26,1*7A
$GBGSV,2,1,07,23,75,042,46,40,60,331,41,28,59,225,44,39,56,188,45,4*7C
$GBGSV,2,2,07,43,55,035,38,25,35,121,31,37,33,322,30,4*4B
$GNACCURACY,3.7*12
$PAIRSAT,1,35,2,0,201,3,0,200,4,0,221,5,0,200,6,0,200,7,0,201,8,0,221,9,0,220,10,0,200,11,0,200,12,0,200,13,0,200,14,0,200,15,0,200,16,0,201,17,0,200,18,0,200,19,0,200,20,0,200,21,0,201,22,0,200,23,0,200,24,0,200,25,0,200,26,0,220,27,0,221,28,0,200,29,0,200,30,0,221,31,0,200,32,0,200,194,0,621,195,0,621,196,0,620,199,0,621*5A
$PAIRSAT,2,24,65,0,200,66,0,200,67,0,200,68,0,200,69,0,200,70,0,200,71,0,200,72,0,200,73,0,200,74,0,200,75,0,200,76,0,200,77,0,201,78,0,201,79,0,201,80,0,200,81,0,201,82,0,201,83,0,200,84,0,200,85,0,200,86,0,200,87,0,200,88,0,201*7A
$PAIRSAT,3,23,2,0,1200,3,0,1200,4,0,1200,5,0,200,7,0,1200,8,0,1200,9,0,1200,10,0,1200,11,0,1200,12,0,1200,13,0,1221,15,0,1220,19,0,1201,21,0,1221,24,0,1200,25,0,1200,26,0,1221,27,0,1221,30,0,1200,31,0,1200,33,0,1200,34,0,1000,36,0,1200*6B
$PAIRSAT,4,46,1,0,200,2,0,200,3,0,600,4,0,200,5,0,200,6,0,201,7,0,201,8,0,200,9,0,201,10,0,201,11,0,200,12,0,200,13,0,200,14,0,200,16,0,201,19,0,600,20,0,600,21,0,600,22,0,600,23,0,621,24,0,600,25,0,621,26,0,600,27,0,600,28,0,621,29,0,600,30,0,600,32,0,600,33,0,600,34,0,621,35,0,600,36,0,600,37,0,621,38,0,600,39,0,621,40,0,621,41,0,600,42,0,600,43,0,621,44,0,400,45,0,400,46,0,400,59,0,400,60,0,400,61,0,400,62,0,400*4A
$PAIRDGP,10,2,4,7,8,9,16,21,26,27,30*42
$GNGGA,041640.200,2500.7933050,N,12132.4397744,E,4,50,0.58,16.785,M,15.25,M,1,3335*42
$GNRMC,041640.200,A,2500.7933050,N,12132.4397744,E,0.01,323.05,090324,,,R,V*17
$GPHDT,84.433,T*0D
$GNACCURACY,3.7*12
$GNGGA,041640.300,2500.7933041,N,12132.4397755,E,4,50,0.58,16.797,M,15.25,M,1,3335*40
$GNRMC,041640.300,A,2500.7933041,N,12132.4397755,E,0.01,323.05,090324,,,R,V*16
$GPHDT,,T*1B
$GNACCURACY,3.7*12
$GNGGA,041640.400,2500.7933058,N,12132.4397776,E,4,50,0.58,16.799,M,15.25,M,1,3335*40
$GNRMC,041640.400,A,2500.7933058,N,12132.4397776,E,0.01,323.05,090324,,,R,V*18
$GPHDT,84.461,T*0A
$GNACCURACY,3.7*12
$GNGGA,041640.500,2500.7933063,N,12132.4397745,E,4,50,0.58,16.783,M,15.25,M,0,3335*43
$GNRMC,041640.500,A,2500.7933063,N,12132.4397745,E,0.01,323.05,090324,,,R,V*11
$GPHDT,,T*1B
$GNACCURACY,3.7*12
$GNGGA,041640.600,2500.7933047,N,12132.4397778,E,4,50,0.58,16.798,M,15.25,M,0,3335*42
$GNRMC,041640.600,A,2500.7933047,N,12132.4397778,E,0.01,323.05,090324,,,R,V*1A
$GPHDT,84.111,T*08
$GNACCURACY,3.7*12
$GNGGA,041640.700,2500.7933062,N,12132.4397774,E,4,50,0.58,16.791,M,15.25,M,0,3335*41
$GNRMC,041640.700,A,2500.7933062,N,12132.4397774,E,0.01,323.05,090324,,,R,V*10
$GPHDT,,T*1B
$GNACCURACY,3.7*12
$GNGGA,041640.800,2500.7933042,N,12132.4397804,E,4,50,0.58,16.784,M,15.25,M,0,3335*40
$GNRMC,041640.800,A,2500.7933042,N,12132.4397804,E,0.02,323.05,090324,,,R,V*16
$GPHDT,83.907,T*00
$GNACCURACY,3.7*12
$GNGGA,041640.900,2500.7933051,N,12132.4397800,E,4,50,0.58,16.805,M,15.25,M,0,3335*41
$GNRMC,041640.900,A,2500.7933051,N,12132.4397800,E,0.02,323.05,090324,,,R,V*11
$GPHDT,,T*1B
$GNACCURACY,3.7*12
$GNGGA,041641.000,2500.7933039,N,12132.4397792,E,4,50,0.58,16.788,M,15.25,M,1,3335*48
$GNRMC,041641.000,A,2500.7933039,N,12132.4397792,E,0.02,323.05,090324,,,R,V*13
$GPHDT,83.893,T*0C
$GNACCURACY,3.7*12
$GNGGA,041641.100,2500.7933070,N,12132.4397780,E,4,52,0.54,16.794,M,15.25,M,1,3335*44
$GNRMC,041641.100,A,2500.7933070,N,12132.4397780,E,0.02,323.05,090324,,,R,V*1C
$GPHDT,,T*1B
$GNGSA,A,3,195,194,21,199,08,02,07,27,16,196,04,09,0.95,0.54,0.78,1*0C
$GNGSA,A,3,81,78,88,79,77,,,,,,,,0.95,0.54,0.78,2*08
$GNGSA,A,3,21,13,26,27,15,,,,,,,,0.95,0.54,0.78,3*05
$GNGSA,A,3,23,09,06,16,40,07,28,39,43,25,37,,0.95,0.54,0.78,4*08
$GPGSV,4,1,15,195,65,112,42,194,64,053,41,21,64,151,43,199,60,167,38,1*5D
$GPGSV,4,2,15,08,60,000,44,50,60,167,41,02,52,176,46,07,44,314,39,1*62
$GPGSV,4,3,15,27,30,038,36,16,26,079,38,09,22,243,13,196,19,168,24,1*58
$GPGSV,4,4,15,04,15,200,22,30,14,319,17,26,06,102,,1*58
$GPGSV,2,1,08,195,65,112,45,194,64,053,44,08,60,000,39,199,60,167,44,8*50
$GPGSV,2,2,08,27,30,038,27,09,22,243,17,196,19,168,22,04,15,200,28,8*56
$GLGSV,2,1,06,81,69,205,43,78,58,045,43,88,51,029,38,79,29,336,28,1*72
$GLGSV,2,2,06,77,21,114,17,82,19,206,12,1*7A
$GAGSV,2,1,07,21,55,016,27,13,54,075,41,26,47,171,42,27,28,082,39,7*7B
$GAGSV,2,2,07,19,25,238,,15,12,037,16,04,12,296,,7*4C
$GAGSV,2,1,05,21,55,016,35,13,54,075,43,26,47,171,42,27,28,082,40,1*70
$GAGSV,2,2,05,15,12,037,14,1*46
$GBGSV,4,1,14,23,75,042,46,09,72,261,43,06,69,214,40,16,66,199,44,1*73
$GBGSV,4,2,14,40,60,331,39,07,60,310,35,28,59,225,46,39,56,188,44,1*70
$GBGSV,4,3,14,43,55,035,43,10,51,291,11,25,35,121,35,37,33,322,32,1*7E
$GBGSV,4,4,14,38,11,168,,34,09,040,26,1*79
$GBGSV,2,1,07,23,75,042,46,40,60,331,41,28,59,225,44,39,56,188,45,4*7C
$GBGSV,2,2,07,43,55,035,38,25,35,121,31,37,33,322,32,4*49
$GNACCURACY,3.7*12
$PAIRSAT,1,35,2,0,201,3,0,200,4,0,221,5,0,200,6,0,200,7,0,201,8,0,221,9,0,220,10,0,200,11,0,200,12,0,200,13,0,200,14,0,200,15,0,200,16,0,201,17,0,200,18,0,200,19,0,200,20,0,200,21,0,201,22,0,200,23,0,200,24,0,200,25,0,200,26,0,220,27,0,221,28,0,200,29,0,200,30,0,221,31,0,200,32,0,200,194,0,621,195,0,621,196,0,620,199,0,621*5A
$PAIRSAT,2,24,65,0,200,66,0,200,67,0,200,68,0,200,69,0,200,70,0,200,71,0,200,72,0,200,73,0,200,74,0,200,75,0,200,76,0,200,77,0,201,78,0,201,79,0,201,80,0,200,81,0,201,82,0,201,83,0,200,84,0,200,85,0,200,86,0,200,87,0,200,88,0,201*7A
$PAIRSAT,3,23,2,0,1200,3,0,1200,4,0,1200,5,0,200,7,0,1200,8,0,1200,9,0,1200,10,0,1200,11,0,1200,12,0,1200,13,0,1221,15,0,1220,19,0,1201,21,0,1221,24,0,1200,25,0,1200,26,0,1221,27,0,1221,30,0,1200,31,0,1200,33,0,1200,34,0,1000,36,0,1200*6B
$PAIRSAT,4,46,1,0,200,2,0,200,3,0,600,4,0,200,5,0,200,6,0,201,7,0,201,8,0,200,9,0,201,10,0,201,11,0,200,12,0,200,13,0,200,14,0,200,16,0,201,19,0,600,20,0,600,21,0,600,22,0,600,23,0,621,24,0,600,25,0,621,26,0,600,27,0,600,28,0,621,29,0,600,30,0,600,32,0,600,33,0,600,34,0,621,35,0,600,36,0,600,37,0,621,38,0,600,39,0,621,40,0,621,41,0,600,42,0,600,43,0,621,44,0,400,45,0,400,46,0,400,59,0,400,60,0,400,61,0,400,62,0,400*4A
$PAIRDGP,10,2,4,7,8,9,16,21,26,27,30*42
$GNGGA,041641.200,2500.7933051,N,12132.4397797,E,4,52,0.54,16.782,M,15.25,M,1,3335*45
$GNRMC,041641.200,A,2500.7933051,N,12132.4397797,E,0.01,323.05,090324,,,R,V*19
$GPHDT,83.721,T*0A
$GNACCURACY,3.7*12
$GNGGA,041641.300,2500.7933045,N,12132.4397785,E,4,51,0.54,16.790,M,15.25,M,1,3335*42
$GNRMC,041641.300,A,2500.7933045,N,12132.4397785,E,0.01,323.05,090324,,,R,V*1E
$GPHDT,,T*1B
$GNACCURACY,3.7*12
$GNGGA,041641.400,2500.7933034,N,12132.4397792,E,4,51,0.54,16.796,M,15.25,M,1,3335*43
$GNRMC,041641.400,A,2500.7933034,N,12132.4397792,E,0.01,323.05,090324,,,R,V*19
$GPHDT,83.485,T*07
$GNACCURACY,3.7*12
$GNGGA,041641.500,2500.7933053,N,12132.4397787,E,4,51,0.54,16.789,M,15.25,M,1,3335*49
$GNRMC,041641.500,A,2500.7933053,N,12132.4397787,E,0.01,323.05,090324,,,R,V*1D
$GPHDT,,T*1B
$GNACCURACY,3.7*12
$GNGGA,041641.600,2500.7933048,N,12132.4397804,E,4,51,0.54,16.788,M,15.25,M,1,3335*45
$GNRMC,041641.600,A,2500.7933048,N,12132.4397804,E,0.01,323.05,090324,,,R,V*10
$GPHDT,83.676,T*09
$GNACCURACY,3.7*12
$GNGGA,041641.700,2500.7933041,N,12132.4397770,E,4,51,0.54,16.786,M,15.25,M,0,3335*4E
$GNRMC,041641.700,A,2500.7933041,N,12132.4397770,E,0.01,323.05,090324,,,R,V*14
$GPHDT,,T*1B
$GNACCURACY,3.7*12
$GNGGA,041641.800,2500.7933037,N,12132.4397772,E,4,51,0.54,16.787,M,15.25,M,0,3335*43
$GNRMC,041641.800,A,2500.7933037,N,12132.4397772,E,0.01,323.05,090324,,,R,V*18
$GPHDT,83.810,T*07
$GNACCURACY,3.7*12
$GNGGA,041641.900,2500.7933038,N,12132.4397762,E,4,51,0.54,16.785,M,15.25,M,0,3335*4E
$GNRMC,041641.900,A,2500.7933038,N,12132.4397762,E,0.01,323.05,090324,,,R,V*17
$GPHDT,,T*1B
$GNACCURACY,3.7*12
$GNGGA,041642.000,2500.7933050,N,12132.4397770,E,4,50,0.58,16.797,M,15.25,M,1,3335*46
$GNRMC,041642.000,A,2500.7933050,N,12132.4397770,E,0.01,323.05,090324,,,R,V*10
$GPHDT,83.846,T*04
$GNACCURACY,3.7*12
$GNGGA,041642.100,2500.7933039,N,12132.4397755,E,4,50,0.58,16.794,M,15.25,M,1,3335*4C
$GNRMC,041642.100,A,2500.7933039,N,12132.4397755,E,0.01,323.05,090324,,,R,V*19
$GPHDT,,T*1B
$GNGSA,A,3,195,194,21,199,08,02,07,27,16,196,04,,1.02,0.58,0.84,1*05
$GNGSA,A,3,81,78,88,79,77,,,,,,,,1.02,0.58,0.84,2*08
$GNGSA,A,3,21,13,26,27,15,,,,,,,,1.02,0.58,0.84,3*05
$GNGSA,A,3,23,09,06,16,07,40,28,39,43,25,37,,1.02,0.58,0.84,4*08
$GPGSV,4,1,15,195,65,112,42,194,64,053,41,21,64,151,43,199,60,167,38,1*5D
$GPGSV,4,2,15,08,60,000,44,50,60,167,41,02,52,176,46,07,44,314,39,1*62
$GPGSV,4,3,15,27,30,038,37,16,26,079,37,09,22,243,12,196,19,168,23,1*50
$GPGSV,4,4,15,04,15,200,22,30,14,319,16,26,06,102,,1*59
$GPGSV,2,1,08,195,65,112,45,194,64,053,44,08,60,000,39,199,60,167,44,8*50
$GPGSV,2,2,08,27,30,038,29,09,22,243,13,196,19,168,22,04,15,200,28,8*5C
$GLGSV,2,1,06,81,69,205,43,78,58,045,43,88,51,029,38,79,29,336,26,1*7C
$GLGSV,2,2,06,77,21,114,17,82,19,206,,1*79
$GAGSV,2,1,07,21,55,016,27,13,54,075,41,26,47,171,42,27,28,082,39,7*7B
$GAGSV,2,2,07,19,25,238,,15,12,037,15,04,12,296,,7*4F
$GAGSV,2,1,05,21,55,016,35,13,54,075,43,26,47,171,42,27,28,082,40,1*70
$GAGSV,2,2,05,15,12,037,15,1*47
$GBGSV,4,1,13,23,75,042,46,09,72,261,43,06,69,214,40,16,66,199,44,1*74
$GBGSV,4,2,13,07,60,310,35,40,60,331,39,28,59,225,46,39,56,188,44,1*77
$GBGSV,4,3,13,43,55,035,43,10,51,291,09,25,35,121,36,37,33,322,33,1*72
$GBGSV,4,4,13,34,09,040,27,1*4B
$GBGSV,2,1,07,23,75,042,46,40,60,331,41,28,59,225,44,39,56,188,45,4*7C
$GBGSV,2,2,07,43,55,035,38,25,35,121,31,37,33,322,32,4*49
$GNACCURACY,3.7*12
$PAIRSAT,1,35,2,0,201,3,0,200,4,0,221,5,0,200,6,0,200,7,0,201,8,0,221,9,0,220,10,0,200,11,0,200,12,0,200,13,0,200,14,0,200,15,0,200,16,0,201,17,0,200,18,0,200,19,0,200,20,0,200,21,0,201,22,0,200,23,0,200,24,0,200,25,0,200,26,0,220,27,0,221,28,0,200,29,0,200,30,0,221,31,0,200,32,0,200,194,0,621,195,0,621,196,0,620,199,0,621*5A
$PAIRSAT,2,24,65,0,200,66,0,200,67,0,200,68,0,200,69,0,200,70,0,200,71,0,200,72,0,200,73,0,200,74,0,200,75,0,200,76,0,200,77,0,201,78,0,201,79,0,201,80,0,200,81,0,201,82,0,201,83,0,200,84,0,200,85,0,200,86,0,200,87,0,200,88,0,201*7A
$PAIRSAT,3,23,2,0,1200,3,0,1200,4,0,1200,5,0,200,7,0,1200,8,0,1200,9,0,1200,10,0,1200,11,0,1200,12,0,1200,13,0,1221,15,0,1220,19,0,1201,21,0,1221,24,0,1200,25,0,1200,26,0,1221,27,0,1221,30,0,1200,31,0,1200,33,0,1200,34,0,1000,36,0,1200*6B
$PAIRSAT,4,46,1,0,200,2,0,200,3,0,600,4,0,200,5,0,200,6,0,201,7,0,201,8,0,200,9,0,201,10,0,201,11,0,200,12,0,200,13,0,200,14,0,200,16,0,201,19,0,600,20,0,600,21,0,600,22,0,600,23,0,621,24,0,600,25,0,621,26,0,600,27,0,600,28,0,621,29,0,600,30,0,600,32,0,600,33,0,600,34,0,621,35,0,600,36,0,600,37,0,621,38,0,600,39,0,621,40,0,621,41,0,600,42,0,600,43,0,621,44,0,400,45,0,400,46,0,400,59,0,400,60,0,400,61,0,400,62,0,400*4A
$PAIRDGP,10,2,4,7,8,9,16,21,26,27,30*42
$GNGGA,041642.200,2500.7933043,N,12132.4397775,E,4,50,0.58,16.791,M,15.25,M,1,3335*45
$GNRMC,041642.200,A,2500.7933043,N,12132.4397775,E,0.01,323.05,090324,,,R,V*15
$GPHDT,83.936,T*02
$GNACCURACY,3.6*13
$GNGGA,041642.300,2500.7933050,N,12132.4397779,E,4,51,0.58,16.786,M,15.25,M,1,3335*4D
$GNRMC,041642.300,A,2500.7933050,N,12132.4397779,E,0.01,323.05,090324,,,R,V*1A
$GPHDT,,T*1B
$GNACCURACY,3.7*12
$GNGGA,041642.400,2500.7933042,N,12132.4397753,E,4,50,0.58,16.787,M,15.25,M,1,3335*41
$GNRMC,041642.400,A,2500.7933042,N,12132.4397753,E,0.01,323.05,090324,,,R,V*16
$GPHDT,83.805,T*03
$GNACCURACY,3.7*12
$GNGGA,041642.500,2500.7933044,N,12132.4397770,E,4,50,0.58,16.781,M,15.25,M,1,3335*41
$GNRMC,041642.500,A,2500.7933044,N,12132.4397770,E,0.01,323.05,090324,,,R,V*10
$GPHDT,,T*1B
$GNACCURACY,3.7*12
$GNGGA,041642.600,2500.7933027,N,12132.4397763,E,4,50,0.58,16.793,M,15.25,M,1,3335*46
$GNRMC,041642.600,A,2500.7933027,N,12132.4397763,E,0.01,323.05,090324,,,R,V*14
$GPHDT,83.833,T*06
$GNACCURACY,3.7*12
$GNGGA,041642.700,2500.7933053,N,12132.4397777,E,4,50,0.58,16.790,M,15.25,M,0,3335*43
$GNRMC,041642.700,A,2500.7933053,N,12132.4397777,E,0.01,323.05,090324,,,R,V*13
$GPHDT,,T*1B
$GNACCURACY,3.7*12
$GNGGA,041642.800,2500.7933049,N,12132.4397772,E,4,50,0.58,16.779,M,15.25,M,0,3335*45
$GNRMC,041642.800,A,2500.7933049,N,12132.4397772,E,0.01,323.05,090324,,,R,V*12
