$FW : RTK35X,V1.1X0314AS,Lib20210517,1*54
$Tool : LOCOSYS , GNSS Firebird , v1.0.0.19*39
$---------------------------------------------------*2D
7*12
$GNGGA,041731.300,2500.7972464,N,12132.4357312,E,4,53,0.52,16.797,M,15.25,M,1,3335*43
$GNRMC,041731.300,A,2500.7972464,N,12132.4357312,E,0.01,345.47,090324,,,R,V*1A
$GPHDT,,T*1B
$GNACCURACY,3.7*12
$GNGGA,041731.400,2500.7972469,N,12132.4357301,E,4,53,0.52,16.793,M,15.25,M,1,3335*4F
$GNRMC,041731.400,A,2500.7972469,N,12132.4357301,E,0.01,345.47,090324,,,R,V*12
$GPHDT,273.913,T*38
$GNACCURACY,3.7*12
$GNGGA,041731.500,2500.7972474,N,12132.4357319,E,4,51,0.54,16.808,M,15.25,M,0,3335*43
$GNRMC,041731.500,A,2500.7972474,N,12132.4357319,E,0.01,345.47,090324,,,R,V*16
$GPHDT,,T*1B
$GNACCURACY,3.7*12
$GNGGA,041731.600,2500.7972527,N,12132.4357309,E,4,51,0.54,16.799,M,15.25,M,0,3335*41
$GNRMC,041731.600,A,2500.7972527,N,12132.4357309,E,0.01,345.47,090324,,,R,V*13
$GPHDT,273.926,T*3E
$GNACCURACY,3.7*12
$GNGGA,041731.700,2500.7972475,N,12132.4357310,E,4,51,0.54,16.816,M,15.25,M,0,3335*46
$GNRMC,041731.700,A,2500.7972475,N,12132.4357310,E,0.01,345.47,090324,,,R,V*1C
$GPHDT,,T*1B
$GNACCURACY,3.7*12
$GNGGA,041731.800,2500.7972454,N,12132.4357285,E,4,51,0.54,16.788,M,15.25,M,0,3335*4F
$GNRMC,041731.800,A,2500.7972454,N,12132.4357285,E,0.01,345.47,090324,,,R,V*1D
$GPHDT,273.858,T*36
$GNACCURACY,3.7*12
$GNGGA,041731.900,2500.7972522,N,12132.4357266,E,4,52,0.54,16.795,M,15.25,M,0,3335*4C
$GNRMC,041731.900,A,2500.7972522,N,12132.4357266,E,0.01,345.47,090324,,,R,V*11
$GPHDT,,T*1B
$GNACCURACY,3.7*12
$GNGGA,041732.000,2500.7972514,N,12132.4357291,E,4,52,0.54,16.812,M,15.25,M,1,3335*4A
$GNRMC,041732.000,A,2500.7972514,N,12132.4357291,E,0.01,345.47,090324,,,R,V*16
$GPHDT,274.127,T*30
$GNACCURACY,3.7*12
$GNGGA,041732.100,2500.7972504,N,12132.4357291,E,4,51,0.54,16.799,M,15.25,M,1,3335*45
$GNRMC,041732.100,A,2500.7972504,N,12132.4357291,E,0.01,345.47,090324,,,R,V*16
$GPHDT,,T*1B
$GNGSA,A,3,195,194,21,08,199,02,07,27,16,196,30,,1.04,0.59,0.86,1*07
$GNGSA,A,3,81,78,88,79,77,,,,,,,,1.04,0.59,0.86,2*0D
$GNGSA,A,3,21,13,26,27,15,,,,,,,,1.04,0.59,0.86,3*00
$GNGSA,A,3,23,09,06,16,07,40,28,39,43,25,37,,1.04,0.59,0.86,4*0D
$GPGSV,4,1,15,195,66,112,37,194,64,054,42,21,64,151,40,50,60,167,27,1*61
$GPGSV,4,2,15,08,60,001,44,199,60,167,25,02,52,176,35,07,45,314,40,1*5E
$GPGSV,4,3,15,27,30,038,40,16,26,079,34,09,22,243,12,196,19,168,23,1*53
$GPGSV,4,4,15,04,15,200,14,30,14,319,26,26,06,102,,1*5F
$GPGSV,2,1,07,195,66,112,38,194,64,054,46,08,60,001,48,199,60,167,37,8*50
$GPGSV,2,2,07,27,30,038,37,196,19,168,12,30,14,319,25,8*63
$GLGSV,2,1,06,81,70,206,43,78,58,046,44,88,51,029,44,79,29,336,40,1*78
$GLGSV,2,2,06,77,21,114,17,82,19,206,,1*79
$GAGSV,2,1,06,21,55,017,38,13,54,075,41,26,47,171,35,27,28,083,33,7*7E
$GAGSV,2,2,06,19,25,238,,15,11,037,15,7*77
$GAGSV,2,1,05,21,55,017,39,13,54,075,43,26,47,171,35,27,28,083,32,1*79
$GAGSV,2,2,05,15,11,037,17,1*46
$GBGSV,4,1,13,23,75,043,46,09,72,260,36,06,69,214,42,16,66,199,40,1*70
$GBGSV,4,2,13,07,60,310,40,40,60,331,43,28,59,225,45,39,56,188,41,1*7E
$GBGSV,4,3,13,43,55,035,44,10,51,292,,25,35,121,35,37,33,322,37,1*78
$GBGSV,4,4,13,34,09,040,,1*4E
$GBGSV,2,1,07,23,75,043,47,40,60,331,41,28,59,225,43,39,56,188,38,4*71
$GBGSV,2,2,07,43,55,035,44,25,35,121,33,37,33,322,40,4*45
$GNACCURACY,3.7*12
$PAIRSAT,1,35,2,0,201,3,0,200,4,0,221,5,0,200,6,0,200,7,0,201,8,0,221,9,0,220,10,0,200,11,0,200,12,0,200,13,0,200,14,0,200,15,0,200,16,0,201,17,0,200,18,0,200,19,0,200,20,0,200,21,0,201,22,0,200,23,0,200,24,0,200,25,0,200,26,0,220,27,0,221,28,0,200,29,0,200,30,0,221,31,0,200,32,0,200,194,0,621,195,0,621,196,0,620,199,0,621*5A
$PAIRSAT,2,24,65,0,200,66,0,200,67,0,200,68,0,200,69,0,200,70,0,200,71,0,200,72,0,200,73,0,200,74,0,200,75,0,200,76,0,200,77,0,201,78,0,201,79,0,201,80,0,200,81,0,201,82,0,201,83,0,200,84,0,200,85,0,200,86,0,200,87,0,200,88,0,201*7A
$PAIRSAT,3,23,2,0,1200,3,0,1200,4,0,1200,5,0,200,7,0,1200,8,0,1200,9,0,1200,10,0,1200,11,0,1200,12,0,1200,13,0,1221,15,0,1220,19,0,1201,21,0,1221,24,0,1200,25,0,1200,26,0,1221,27,0,1221,30,0,1200,31,0,1200,33,0,1200,34,0,1200,36,0,1200*69
$PAIRSAT,4,46,1,0,200,2,0,200,3,0,600,4,0,200,5,0,200,6,0,201,7,0,201,8,0,200,9,0,201,10,0,201,11,0,200,12,0,200,13,0,200,14,0,200,16,0,201,19,0,600,20,0,600,21,0,600,22,0,600,23,0,621,24,0,600,25,0,621,26,0,600,27,0,600,28,0,621,29,0,600,30,0,600,32,0,600,33,0,600,34,0,621,35,0,600,36,0,600,37,0,621,38,0,600,39,0,621,40,0,621,41,0,600,42,0,600,43,0,621,44,0,600,45,0,400,46,0,400,59,0,400,60,0,400,61,0,400,62,0,400*48
$PAIRDGP,10,2,4,7,8,9,16,21,26,27,30*42
$GNGGA,041732.200,2500.7972474,N,12132.4357268,E,4,50,0.59,16.802,M,15.25,M,1,3335*47
$GNRMC,041732.200,A,2500.7972474,N,12132.4357268,E,0.01,345.47,090324,,,R,V*15
$GPHDT,274.077,T*34
$GNACCURACY,3.7*12
$GNGGA,041732.300,2500.7972478,N,12132.4357289,E,4,50,0.59,16.781,M,15.25,M,1,3335*41
$GNRMC,041732.300,A,2500.7972478,N,12132.4357289,E,0.01,345.47,090324,,,R,V*17
$GPHDT,,T*1B
$GNACCURACY,3.7*12
$GNGGA,041732.400,2500.7972488,N,12132.4357256,E,4,50,0.59,16.795,M,15.25,M,1,3335*4E
$GNRMC,041732.400,A,2500.7972488,N,12132.4357256,E,0.01,345.47,090324,,,R,V*1D
$GPHDT,274.099,T*34
$GNACCURACY,3.7*12
$GNGGA,041732.500,2500.7972493,N,12132.4357302,E,4,50,0.59,16.743,M,15.25,M,1,3335*4E
$GNRMC,041732.500,A,2500.7972493,N,12132.4357302,E,0.01,345.47,090324,,,R,V*16
$GPHDT,,T*1B
$GNACCURACY,3.7*12
$GNGGA,041732.600,2500.7972409,N,12132.4357307,E,4,50,0.59,16.737,M,15.25,M,1,3335*48
$GNRMC,041732.600,A,2500.7972409,N,12132.4357307,E,0.01,345.47,090324,,,R,V*13
$GPHDT,274.894,T*31
$GNACCURACY,3.7*12
$GNGGA,041732.700,2500.7972397,N,12132.4357266,E,4,50,0.59,16.727,M,15.25,M,0,3335*4F
$GNRMC,041732.700,A,2500.7972397,N,12132.4357266,E,0.01,345.47,090324,,,R,V*14
$GPHDT,,T*1B
$GNACCURACY,3.7*12
$GNGGA,041732.800,2500.7972421,N,12132.4357280,E,4,49,0.59,16.735,M,15.25,M,0,3335*49
$GNRMC,041732.800,A,2500.7972421,N,12132.4357280,E,0.01,345.47,090324,,,R,V*19
$GPHDT,274.622,T*32
$GNACCURACY,3.7*12
$GNGGA,041732.900,2500.7972388,N,12132.4357289,E,4,49,0.59,16.718,M,15.25,M,0,3335*4A
$GNRMC,041732.900,A,2500.7972388,N,12132.4357289,E,0.01,345.47,090324,,,R,V*15
$GPHDT,,T*1B
$GNACCURACY,3.7*12
$GNGGA,041733.000,2500.7972410,N,12132.4357319,E,4,49,0.59,16.759,M,15.25,M,1,3335*48
$GNRMC,041733.000,A,2500.7972410,N,12132.4357319,E,0.01,345.47,090324,,,R,V*13
$GPHDT,274.828,T*36
$GNACCURACY,3.7*12
$GNGGA,041733.100,2500.7972392,N,12132.4357294,E,4,49,0.59,16.753,M,15.25,M,1,3335*4A
$GNRMC,041733.100,A,2500.7972392,N,12132.4357294,E,0.01,345.47,090324,,,R,V*1B
$GPHDT,,T*1B
$GNGSA,A,3,195,194,21,08,199,02,07,27,16,30,196,,1.04,0.59,0.86,1*07
$GNGSA,A,3,81,78,88,79,77,,,,,,,,1.04,0.59,0.86,2*0D
$GNGSA,A,3,21,13,26,27,15,,,,,,,,1.04,0.59,0.86,3*00
$GNGSA,A,3,23,09,06,16,07,40,28,39,43,25,37,,1.04,0.59,0.86,4*0D
$GPGSV,4,1,15,195,66,112,43,194,64,054,42,21,64,151,43,50,60,167,31,1*66
$GPGSV,4,2,15,08,60,001,46,199,60,167,30,02,52,176,39,07,45,314,39,1*5A
$GPGSV,4,3,15,27,30,038,39,16,26,079,31,09,22,243,15,196,19,168,20,1*5C
$GPGSV,4,4,15,04,15,200,16,30,14,319,25,26,06,102,,1*5E
$GPGSV,2,1,07,195,66,112,42,194,64,054,45,08,60,001,48,199,60,167,42,8*5C
$GPGSV,2,2,07,27,30,038,37,196,19,168,13,30,14,319,22,8*65
$GLGSV,2,1,06,81,70,206,43,78,58,046,45,88,51,029,43,79,29,336,40,1*7E
$GLGSV,2,2,06,77,21,114,17,82,19,206,,1*79
$GAGSV,2,1,06,21,55,017,38,13,54,075,42,26,47,171,33,27,28,083,34,7*7C
$GAGSV,2,2,06,19,25,238,,15,11,037,14,7*76
$GAGSV,2,1,05,21,55,017,43,13,54,075,43,26,47,171,34,27,28,083,34,1*73
$GAGSV,2,2,05,15,11,037,18,1*49
$GBGSV,4,1,13,23,75,043,43,09,72,260,35,06,69,214,42,16,66,199,41,1*77
$GBGSV,4,2,13,07,60,310,40,40,60,331,44,28,59,225,45,39,56,188,42,1*7A
$GBGSV,4,3,13,43,55,035,45,10,51,292,,25,35,121,40,37,33,322,35,1*79
$GBGSV,4,4,13,34,09,040,,1*4E
$GBGSV,2,1,06,23,75,043,47,40,60,331,41,28,59,225,44,39,56,188,40,4*78
$GBGSV,2,2,06,25,35,121,35,37,33,322,39,4*7D
$GNACCURACY,3.7*12
$PAIRSAT,1,35,2,0,201,3,0,200,4,0,221,5,0,200,6,0,200,7,0,201,8,0,221,9,0,220,10,0,200,11,0,200,12,0,200,13,0,200,14,0,200,15,0,200,16,0,201,17,0,200,18,0,200,19,0,200,20,0,200,21,0,201,22,0,200,23,0,200,24,0,200,25,0,200,26,0,220,27,0,221,28,0,200,29,0,200,30,0,221,31,0,200,32,0,200,194,0,621,195,0,621,196,0,620,199,0,621*5A
$PAIRSAT,2,24,65,0,200,66,0,200,67,0,200,68,0,200,69,0,200,70,0,200,71,0,200,72,0,200,73,0,200,74,0,200,75,0,200,76,0,200,77,0,201,78,0,201,79,0,201,80,0,200,81,0,201,82,0,201,83,0,200,84,0,200,85,0,200,86,0,200,87,0,200,88,0,201*7A
$PAIRSAT,3,23,2,0,1200,3,0,1200,4,0,1200,5,0,200,7,0,1200,8,0,1200,9,0,1200,10,0,1200,11,0,1200,12,0,1200,13,0,1221,15,0,1220,19,0,1201,21,0,1221,24,0,1200,25,0,1200,26,0,1221,27,0,1221,30,0,1200,31,0,1200,33,0,1200,34,0,1200,36,0,1200*69
$PAIRSAT,4,46,1,0,200,2,0,200,3,0,600,4,0,200,5,0,200,6,0,201,7,0,201,8,0,200,9,0,201,10,0,201,11,0,200,12,0,200,13,0,200,14,0,200,16,0,201,19,0,600,20,0,600,21,0,600,22,0,600,23,0,621,24,0,600,25,0,621,26,0,600,27,0,600,28,0,621,29,0,600,30,0,600,32,0,600,33,0,600,34,0,621,35,0,600,36,0,600,37,0,621,38,0,600,39,0,621,40,0,621,41,0,600,42,0,600,43,0,621,44,0,600,45,0,400,46,0,400,59,0,400,60,0,400,61,0,400,62,0,400*48
$PAIRDGP,10,2,4,7,8,9,16,21,26,27,30*42
$GNGGA,041733.200,2500.7972374,N,12132.4357276,E,4,49,0.59,16.728,M,15.25,M,1,3335*41
$GNRMC,041733.200,A,2500.7972374,N,12132.4357276,E,0.01,345.47,090324,,,R,V*1C
$GPHDT,275.379,T*38
$GNACCURACY,3.7*12
$GNGGA,041733.300,2500.7972385,N,12132.4357312,E,4,49,0.59,16.751,M,15.25,M,1,3335*43
$GNRMC,041733.300,A,2500.7972385,N,12132.4357312,E,0.01,345.47,090324,,,R,V*10
$GPHDT,,T*1B
$GNACCURACY,3.7*12
$GNGGA,041733.400,2500.7972382,N,12132.4357301,E,4,49,0.59,16.738,M,15.25,M,1,3335*4E
$GNRMC,041733.400,A,2500.7972382,N,12132.4357301,E,0.01,345.47,090324,,,R,V*12
$GPHDT,275.525,T*37
$GNACCURACY,3.7*12
$GNGGA,041733.500,2500.7972403,N,12132.4357299,E,4,49,0.59,16.746,M,15.25,M,0,3335*49
$GNRMC,041733.500,A,2500.7972403,N,12132.4357299,E,0.01,345.47,090324,,,R,V*1D
$GPHDT,,T*1B
$GNACCURACY,3.8*1D
$GNGGA,041733.600,2500.7972428,N,12132.4357286,E,4,49,0.59,16.770,M,15.25,M,0,3335*48
$GNRMC,041733.600,A,2500.7972428,N,12132.4357286,E,0.01,345.47,090324,,,R,V*19
$GPHDT,275.666,T*33
$GNACCURACY,3.8*1D
$GNGGA,041733.700,2500.7972425,N,12132.4357306,E,4,49,0.59,16.782,M,15.25,M,0,3335*40
$GNRMC,041733.700,A,2500.7972425,N,12132.4357306,E,0.01,345.47,090324,,,R,V*1C
$GPHDT,,T*1B
$GNACCURACY,3.8*1D
$GNGGA,041733.800,2500.7972435,N,12132.4357323,E,4,49,0.59,16.788,M,15.25,M,0,3335*43
$GNRMC,041733.800,A,2500.7972435,N,12132.4357323,E,0.01,345.47,090324,,,R,V*15
$GPHDT,275.559,T*3C
$GNACCURACY,3.8*1D
$GNGGA,041733.900,2500.7972491,N,12132.4357310,E,4,49,0.59,16.788,M,15.25,M,0,3335*4C
$GNRMC,041733.900,A,2500.7972491,N,12132.4357310,E,0.01,345.47,090324,,,R,V*1A
$GPHDT,,T*1B
$GNACCURACY,3.8*1D
$GNGGA,041734.000,2500.7972485,N,12132.4357343,E,4,49,0.59,16.809,M,15.25,M,1,3335*46
$GNRMC,041734.000,A,2500.7972485,N,12132.4357343,E,0.01,345.47,090324,,,R,V*17
$GPHDT,275.774,T*31
$GNACCURACY,3.8*1D
$GNGGA,041734.100,2500.7972495,N,12132.4357318,E,4,50,0.59,16.802,M,15.25,M,1,3335*4B
$GNRMC,041734.100,A,2500.7972495,N,12132.4357318,E,0.01,345.47,090324,,,R,V*19
$GPHDT,,T*1B
$GNGSA,A,3,195,194,21,08,199,02,07,27,196,30,,,1.05,0.60,0.86,1*0B
$GNGSA,A,3,81,78,88,79,77,,,,,,,,1.05,0.60,0.86,2*06
$GNGSA,A,3,21,13,26,27,15,,,,,,,,1.05,0.60,0.86,3*0B
$GNGSA,A,3,23,09,06,16,07,40,28,39,43,25,37,,1.05,0.60,0.86,4*06
$GPGSV,4,1,15,195,66,112,38,194,64,054,43,21,64,151,40,50,60,167,28,1*60
$GPGSV,4,2,15,08,60,001,47,199,60,167,27,02,52,176,34,07,45,314,39,1*50
$GPGSV,4,3,15,27,30,038,39,16,26,079,25,09,22,243,14,196,19,168,22,1*5A
$GPGSV,4,4,15,04,15,200,15,30,14,319,23,26,06,102,,1*5B
$GPGSV,2,1,07,195,66,112,37,194,64,054,46,08,60,001,48,199,60,167,40,8*5F
$GPGSV,2,2,07,27,30,038,36,196,19,168,12,30,14,319,22,8*65
$GLGSV,2,1,06,81,70,206,39,78,58,046,45,88,51,029,43,79,29,336,40,1*73
$GLGSV,2,2,06,77,21,115,17,82,19,206,,1*78
$GAGSV,2,1,06,21,55,017,38,13,54,075,42,26,47,171,37,27,28,083,31,7*7D
$GAGSV,2,2,06,19,25,238,,15,11,037,14,7*76
$GAGSV,2,1,05,21,55,017,44,13,54,075,45,26,47,171,36,27,28,083,32,1*76
$GAGSV,2,2,05,15,11,037,19,1*48
$GBGSV,4,1,13,23,75,043,46,09,72,260,35,06,69,214,42,16,66,199,39,1*7D
$GBGSV,4,2,13,07,60,310,40,40,60,331,43,28,59,225,44,39,56,188,42,1*7C
$GBGSV,4,3,13,43,55,035,44,10,51,292,,25,35,121,38,37,33,322,36,1*74
$GBGSV,4,4,13,34,09,040,,1*4E
$GBGSV,2,1,06,23,75,043,47,40,60,331,41,28,59,225,44,39,56,188,40,4*78
$GBGSV,2,2,06,25,35,121,32,37,33,322,37,4*74
$GNACCURACY,3.8*1D
$PAIRSAT,1,35,2,0,201,3,0,200,4,0,221,5,0,200,6,0,200,7,0,201,8,0,221,9,0,220,10,0,200,11,0,200,12,0,200,13,0,200,14,0,200,15,0,200,16,0,201,17,0,200,18,0,200,19,0,200,20,0,200,21,0,201,22,0,200,23,0,200,24,0,200,25,0,200,26,0,220,27,0,221,28,0,200,29,0,200,30,0,221,31,0,200,32,0,200,194,0,621,195,0,621,196,0,620,199,0,621*5A
$PAIRSAT,2,24,65,0,200,66,0,200,67,0,200,68,0,200,69,0,200,70,0,200,71,0,200,72,0,200,73,0,200,74,0,200,75,0,200,76,0,200,77,0,201,78,0,201,79,0,201,80,0,200,81,0,201,82,0,201,83,0,200,84,0,200,85,0,200,86,0,200,87,0,200,88,0,201*7A
$PAIRSAT,3,23,2,0,1200,3,0,1200,4,0,1200,5,0,200,7,0,1200,8,0,1200,9,0,1200,10,0,1200,11,0,1200,12,0,1200,13,0,1221,15,0,1220,19,0,1201,21,0,1221,24,0,1200,25,0,1200,26,0,1221,27,0,1221,30,0,1200,31,0,1200,33,0,1200,34,0,1200,36,0,1200*69
$PAIRSAT,4,46,1,0,200,2,0,200,3,0,600,4,0,200,5,0,200,6,0,201,7,0,201,8,0,200,9,0,201,10,0,201,11,0,200,12,0,200,13,0,200,14,0,200,16,0,201,19,0,600,20,0,600,21,0,600,22,0,600,23,0,621,24,0,600,25,0,621,26,0,600,27,0,600,28,0,621,29,0,600,30,0,600,32,0,600,33,0,600,34,0,621,35,0,600,36,0,600,37,0,621,38,0,600,39,0,621,40,0,621,41,0,600,42,0,600,43,0,621,44,0,600,45,0,400,46,0,400,59,0,400,60,0,400,61,0,400,62,0,400*48
$PAIRDGP,10,2,4,7,8,9,16,21,26,27,30*42
$GNGGA,041734.200,2500.7972520,N,12132.4357297,E,4,49,0.60,16.801,M,15.25,M,1,3335*40
$GNRMC,041734.200,A,2500.7972520,N,12132.4357297,E,0.02,345.47,090324,,,R,V*10
$GPHDT,273.983,T*31
$GNACCURACY,3.8*1D
$GNGGA,041734.300,2500.7972517,N,12132.4357291,E,4,50,0.56,16.808,M,15.25,M,1,3335*47
$GNRMC,041734.300,A,2500.7972517,N,12132.4357291,E,0.02,345.47,090324,,,R,V*13
$GPHDT,,T*1B
$GNACCURACY,3.8*1D
$GNGGA,041734.400,2500.7972501,N,12132.4357301,E,4,50,0.56,16.797,M,15.25,M,1,3335*46
$GNRMC,041734.400,A,2500.7972501,N,12132.4357301,E,0.02,345.47,090324,,,R,V*1B
$GPHDT,273.951,T*3E
$GNACCURACY,3.8*1D
$GNGGA,041734.500,2500.7972467,N,12132.4357327,E,4,50,0.56,16.770,M,15.25,M,0,3335*4A
$GNRMC,041734.500,A,2500.7972467,N,12132.4357327,E,0.02,345.47,090324,,,R,V*1F
$GPHDT,,T*1B
$GNACCURACY,3.8*1D
$GNGGA,041734.600,2500.7972482,N,12132.4357305,E,4,51,0.54,16.760,M,15.25,M,0,3335*40
$GNRMC,041734.600,A,2500.7972482,N,12132.4357305,E,0.02,345.47,090324,,,R,V*17
$GPHDT,273.960,T*3C
$GNACCURACY,3.8*1D
$GNGGA,041734.700,2500.7972462,N,12132.4357305,E,4,51,0.54,16.748,M,15.25,M,0,3335*45
$GNRMC,041734.700,A,2500.7972462,N,12132.4357305,E,0.02,345.47,090324,,,R,V*18
$GPHDT,,T*1B
$GNACCURACY,3.8*1D
$GNGGA,041734.800,2500.7972446,N,12132.4357270,E,4,51,0.54,16.742,M,15.25,M,0,3335*45
$GNRMC,041734.800,A,2500.7972446,N,12132.4357270,E,0.01,345.47,090324,,,R,V*11
$GPHDT,274.301,T*36
$GNACCURACY,3.8*1D
$GNGGA,041734.900,2500.7972473,N,12132.4357280,E,4,51,0.54,16.732,M,15.25,M,0,3335*4A
$GNRMC,041734.900,A,2500.7972473,N,12132.4357280,E,0.01,345.47,090324,,,R,V*19
$GPHDT,,T*1B
$GNACCURACY,3.8*1D
$GNGGA,041735.000,2500.7972470,N,12132.4357312,E,4,51,0.54,16.757,M,15.25,M,1,3335*49
$GNRMC,041735.000,A,2500.7972470,N,12132.4357312,E,0.02,345.47,090324,,,R,V*1B
$PAIR010,0,0,2304,533873*37
$GPHDT,274.173,T*31
$GNACCURACY,3.8*1D
$GNGGA,041735.100,2500.7972476,N,12132.4357329,E,4,51,0.54,16.746,M,15.25,M,1,3335*46
$GNRMC,041735.100,A,2500.7972476,N,12132.4357329,E,0.01,345.47,090324,,,R,V*17
$GPHDT,,T*1B
$GNGSA,A,3,195,194,21,199,08,02,07,27,16,196,04,30,0.93,0.54,0.76,1*0E
$GNGSA,A,3,81,78,88,79,77,,,,,,,,0.93,0.54,0.76,2*00
$GNGSA,A,3,21,13,26,27,15,,,,,,,,0.93,0.54,0.76,3*0D
$GNGSA,A,3,23,09,06,16,07,40,28,39,43,25,37,,0.93,0.54,0.76,4*00
$GPGSV,4,1,15,195,66,112,43,194,64,054,42,21,64,151,43,199,60,167,30,1*53
$GPGSV,4,2,15,08,60,001,47,50,60,167,33,02,52,176,40,07,45,314,39,1*62
$GPGSV,4,3,15,27,30,038,37,16,26,079,33,09,22,243,15,196,19,168,20,1*50
$GPGSV,4,4,15,04,15,200,16,30,14,319,24,26,06,102,,1*5F
$GPGSV,2,1,07,195,66,112,42,194,64,054,45,08,60,001,48,199,60,167,42,8*5C
$GPGSV,2,2,07,27,30,038,37,196,19,168,15,30,14,319,22,8*63
$GLGSV,2,1,06,81,70,206,42,78,58,046,45,88,51,029,44,79,29,336,40,1*78
$GLGSV,2,2,06,77,21,115,17,82,19,206,,1*78
$GAGSV,2,1,07,21,55,017,38,13,54,075,42,26,47,171,36,27,28,083,34,7*78
$GAGSV,2,2,07,19,25,238,,04,12,296,,15,11,037,16,7*4F
$GAGSV,2,1,05,21,55,017,43,13,54,075,44,26,47,171,35,27,28,083,33,1*72
$GAGSV,2,2,05,15,11,037,18,1*49
$GBGSV,4,1,13,23,75,043,44,09,72,260,35,06,69,214,42,16,66,199,40,1*71
$GBGSV,4,2,13,07,60,310,40,40,60,331,43,28,59,225,44,39,56,188,42,1*7C
$GBGSV,4,3,13,43,55,035,44,10,51,292,,25,35,121,39,37,33,322,36,1*75
$GBGSV,4,4,13,34,09,040,,1*4E
$GBGSV,2,1,06,23,75,043,47,40,60,331,41,28,59,225,44,39,56,188,41,4*79
$GBGSV,2,2,06,25,35,121,36,37,33,322,37,4*70
$GNACCURACY,3.8*1D
$PAIRSAT,1,35,2,0,201,3,0,200,4,0,221,5,0,200,6,0,200,7,0,201,8,0,221,9,0,220,10,0,200,11,0,200,12,0,200,13,0,200,14,0,200,15,0,200,16,0,201,17,0,200,18,0,200,19,0,200,20,0,200,21,0,201,22,0,200,23,0,200,24,0,200,25,0,200,26,0,220,27,0,221,28,0,200,29,0,200,30,0,221,31,0,200,32,0,200,194,0,621,195,0,621,196,0,620,199,0,621*5A
$PAIRSAT,2,24,65,0,200,66,0,200,67,0,200,68,0,200,69,0,200,70,0,200,71,0,200,72,0,200,73,0,200,74,0,200,75,0,200,76,0,200,77,0,201,78,0,201,79,0,201,80,0,200,81,0,201,82,0,201,83,0,200,84,0,200,85,0,200,86,0,200,87,0,200,88,0,201*7A
$PAIRSAT,3,23,2,0,1200,3,0,1200,4,0,1200,5,0,200,7,0,1200,8,0,1200,9,0,1200,10,0,1200,11,0,1200,12,0,1200,13,0,1221,15,0,1220,19,0,1201,21,0,1221,24,0,1200,25,0,1200,26,0,1221,27,0,1221,30,0,1200,31,0,1200,33,0,1200,34,0,1200,36,0,1200*69
$PAIRSAT,4,46,1,0,200,2,0,200,3,0,600,4,0,200,5,0,200,6,0,201,7,0,201,8,0,200,9,0,201,10,0,201,11,0,200,12,0,200,13,0,200,14,0,200,16,0,201,19,0,600,20,0,600,21,0,600,22,0,600,23,0,621,24,0,600,25,0,621,26,0,600,27,0,600,28,0,621,29,0,600,30,0,600,32,0,600,33,0,600,34,0,621,35,0,600,36,0,600,37,0,621,38,0,600,39,0,621,40,0,621,41,0,600,42,0,600,43,0,621,44,0,600,45,0,400,46,0,400,59,0,400,60,0,400,61,0,400,62,0,400*48
$PAIRDGP,10,2,4,7,8,9,16,21,26,27,30*42
$GNGGA,041735.200,2500.7972485,N,12132.4357328,E,4,51,0.54,16.731,M,15.25,M,1,3335*48
$GNRMC,041735.200,A,2500.7972485,N,12132.4357328,E,0.01,345.47,090324,,,R,V*19
$GPHDT,274.120,T*37
$GNACCURACY,3.8*1D
$GNGGA,041735.300,2500.7972475,N,12132.4357340,E,4,51,0.54,16.755,M,15.25,M,1,3335*4A
$GNRMC,041735.300,A,2500.7972475,N,12132.4357340,E,0.01,345.47,090324,,,R,V*19
$GPHDT,,T*1B
$GNACCURACY,3.8*1D
$GNGGA,041735.400,2500.7972475,N,12132.4357336,E,4,51,0.54,16.760,M,15.25,M,1,3335*4A
$GNRMC,041735.400,A,2500.7972475,N,12132.4357336,E,0.01,345.47,090324,,,R,V*1F
$GPHDT,274.241,T*33
$GNACCURACY,3.8*1D
$GNGGA,041735.500,2500.7972468,N,12132.4357330,E,4,51,0.54,16.753,M,15.25,M,1,3335*41
$GNRMC,041735.500,A,2500.7972468,N,12132.4357330,E,0.01,345.47,090324,,,R,V*14
$GPHDT,,T*1B
$GNACCURACY,3.8*1D
$GNGGA,041735.600,2500.7972476,N,12132.4357354,E,4,51,0.54,16.770,M,15.25,M,1,3335*4E
$GNRMC,041735.600,A,2500.7972476,N,12132.4357354,E,0.01,345.47,090324,,,R,V*1A
$GPHDT,274.394,T*3A
$GNACCURACY,3.8*1D
$GNGGA,041735.700,2500.7972447,N,12132.4357297,E,4,51,0.54,16.750,M,15.25,M,0,3335*40
$GNRMC,041735.700,A,2500.7972447,N,12132.4357297,E,0.02,345.47,090324,,,R,V*14
$GPHDT,,T*1B
$GNACCURACY,3.8*1D
$GNGGA,041735.800,2500.7972466,N,12132.4357297,E,4,51,0.54,16.764,M,15.25,M,0,3335*4B
$GNRMC,041735.800,A,2500.7972466,N,12132.4357297,E,0.02,345.47,090324,,,R,V*18
$GPHDT,274.424,T*36
$GNACCURACY,3.8*1D
$GNGGA,041735.900,2500.7972472,N,12132.4357295,E,4,51,0.54,16.801,M,15.25,M,0,3335*41
$GNRMC,041735.900,A,2500.7972472,N,12132.4357295,E,0.02,345.47,090324,,,R,V*1E
$GPHDT,,T*1B
$GNACCURACY,3.8*1D
$GNGGA,041736.000,2500.7972503,N,12132.4357290,E,4,51,0.54,16.799,M,15.25,M,1,3335*46
$GNRMC,041736.000,A,2500.7972503,N,12132.4357290,E,0.02,345.47,090324,,,R,V*16
$GPHDT,274.211,T*36
$GNACCURACY,3.8*1D
$GNGGA,041736.100,2500.7972488,N,12132.4357308,E,4,51,0.54,16.805,M,15.25,M,1,3335*4F
$GNRMC,041736.100,A,2500.7972488,N,12132.4357308,E,0.02,345.47,090324,,,R,V*15
$GPHDT,,T*1B
$GNGSA,A,3,195,194,21,199,08,02,07,27,16,196,04,30,0.93,0.54,0.76,1*0E
$GNGSA,A,3,81,78,88,79,77,,,,,,,,0.93,0.54,0.76,2*00
$GNGSA,A,3,21,13,26,27,15,,,,,,,,0.93,0.54,0.76,3*0D
$GNGSA,A,3,23,09,06,16,40,07,28,39,43,25,37,,0.93,0.54,0.76,4*00
$GPGSV,4,1,15,195,66,112,39,194,64,054,42,21,64,151,41,199,60,167,28,1*55
$GPGSV,4,2,15,08,60,001,47,50,60,167,30,02,52,176,35,07,45,314,39,1*63
$GPGSV,4,3,15,27,30,038,38,16,26,079,29,09,22,243,16,196,19,168,21,1*56
$GPGSV,4,4,15,04,15,200,12,30,14,319,23,26,06,102,,1*5C
$GPGSV,2,1,07,195,66,112,38,194,64,054,46,08,60,001,48,199,60,167,39,8*5E
$GPGSV,2,2,07,27,30,038,37,196,19,168,14,30,14,319,24,8*64
$GLGSV,2,1,06,81,70,206,41,78,58,046,45,88,51,029,44,79,29,336,40,1*7B
$GLGSV,2,2,06,77,21,115,17,82,19,206,,1*78
$GAGSV,2,1,07,21,55,017,38,13,54,075,42,26,47,171,37,27,28,083,31,7*7C
$GAGSV,2,2,07,19,25,238,,04,12,296,,15,11,037,17,7*4E
$GAGSV,2,1,05,21,55,017,43,13,54,075,44,26,47,171,35,27,28,083,32,1*73
$GAGSV,2,2,05,15,11,037,18,1*49
$GBGSV,4,1,15,23,75,043,46,09,72,260,35,06,69,214,42,16,66,199,40,1*75
$GBGSV,4,2,15,40,60,331,43,07,60,311,40,28,59,225,44,39,56,188,42,1*7B
$GBGSV,4,3,15,43,55,035,43,10,50,292,,25,35,121,39,37,33,322,35,1*76
$GBGSV,4,4,15,27,12,222,,38,11,168,,34,09,040,,1*48
$GBGSV,2,1,06,23,75,043,47,40,60,331,40,28,59,225,44,39,56,188,39,4*77
$GBGSV,2,2,06,25,35,121,34,37,33,322,37,4*72
$GNACCURACY,3.8*1D
$PAIRSAT,1,35,2,0,201,3,0,200,4,0,221,5,0,200,6,0,200,7,0,201,8,0,221,9,0,220,10,0,200,11,0,200,12,0,200,13,0,200,14,0,200,15,0,200,16,0,201,17,0,200,18,0,200,19,0,200,20,0,200,21,0,201,22,0,200,23,0,200,24,0,200,25,0,200,26,0,220,27,0,221,28,0,200,29,0,200,30,0,221,31,0,200,32,0,200,194,0,621,195,0,621,196,0,620,199,0,621*5A
$PAIRSAT,2,24,65,0,200,66,0,200,67,0,200,68,0,200,69,0,200,70,0,200,71,0,200,72,0,200,73,0,200,74,0,200,75,0,200,76,0,200,77,0,201,78,0,201,79,0,201,80,0,200,81,0,201,82,0,201,83,0,200,84,0,200,85,0,200,86