$FW : RTK35X,V1.1X0314AS,Lib20210517,1*54
$Tool : LOCOSYS , GNSS Firebird , v1.0.0.19*39
$---------------------------------------------------*2D
500.7972658,N,12132.4357332,E,0.02,345.47,090324,,,R,V*14
$GPHDT,,T*1B
$GNGSA,A,3,195,194,21,08,199,02,07,27,16,09,196,,0.82,0.54,0.62,1*05
$GNGSA,A,3,81,78,88,79,77,82,,,,,,,0.82,0.54,0.62,2*0F
$GNGSA,A,3,21,13,26,27,15,,,,,,,,0.82,0.54,0.62,3*08
$GNGSA,A,3,23,09,06,16,07,40,28,39,43,25,37,,0.82,0.54,0.62,4*05
$GPGSV,4,1,15,195,65,112,44,194,64,053,40,21,64,151,46,50,60,167,38,1*6B
$GPGSV,4,2,15,08,60,001,46,199,60,167,35,02,52,176,45,07,44,314,31,1*5D
$GPGSV,4,3,15,27,30,038,34,16,26,079,28,09,22,243,19,196,19,168,22,1*57
$GPGSV,4,4,15,04,15,200,13,30,14,319,19,26,06,102,,1*54
$GPGSV,2,1,06,195,65,112,45,194,64,053,43,08,60,001,47,199,60,167,44,8*51
$GPGSV,2,2,06,27,30,038,31,196,19,168,24,8*5B
$GLGSV,2,1,06,81,69,206,43,78,58,045,37,88,51,029,38,79,29,336,39,1*72
$GLGSV,2,2,06,77,21,114,19,82,19,206,16,1*70
$GAGSV,2,1,06,21,55,016,41,13,54,075,43,26,47,171,41,27,28,083,38,7*7B
$GAGSV,2,2,06,19,25,238,,15,12,037,19,7*78
$GAGSV,2,1,05,21,55,016,38,13,54,075,43,26,47,171,42,27,28,083,34,1*7F
$GAGSV,2,2,05,15,12,037,16,1*44
$GBGSV,4,1,13,23,75,043,45,09,72,261,34,06,69,214,44,16,66,199,42,1*74
$GBGSV,4,2,13,07,60,310,38,40,60,331,42,28,59,225,45,39,56,188,45,1*74
$GBGSV,4,3,13,43,55,035,43,10,51,292,,25,35,121,43,37,33,322,37,1*7E
$GBGSV,4,4,13,34,09,040,,1*4E
$GBGSV,2,1,07,23,75,043,46,40,60,331,39,28,59,225,44,39,56,188,43,4*74
$GBGSV,2,2,07,43,55,035,42,25,35,121,39,37,33,322,23,4*4C
$GNACCURACY,3.5*10
$PAIRSAT,1,35,2,0,201,3,0,200,4,0,221,5,0,200,6,0,200,7,0,201,8,0,221,9,0,220,10,0,200,11,0,200,12,0,200,13,0,200,14,0,200,15,0,200,16,0,201,17,0,200,18,0,200,19,0,200,20,0,200,21,0,201,22,0,200,23,0,200,24,0,200,25,0,200,26,0,220,27,0,221,28,0,200,29,0,200,30,0,221,31,0,200,32,0,200,194,0,621,195,0,621,196,0,620,199,0,621*5A
$PAIRSAT,2,24,65,0,200,66,0,200,67,0,200,68,0,200,69,0,200,70,0,200,71,0,200,72,0,200,73,0,200,74,0,200,75,0,200,76,0,200,77,0,201,78,0,201,79,0,201,80,0,200,81,0,201,82,0,201,83,0,200,84,0,200,85,0,200,86,0,200,87,0,200,88,0,201*7A
$PAIRSAT,3,23,2,0,1200,3,0,1200,4,0,1200,5,0,200,7,0,1200,8,0,1200,9,0,1200,10,0,1200,11,0,1200,12,0,1200,13,0,1221,15,0,1220,19,0,1201,21,0,1221,24,0,1200,25,0,1200,26,0,1221,27,0,1221,30,0,1200,31,0,1200,33,0,1200,34,0,1200,36,0,1200*69
$PAIRSAT,4,46,1,0,200,2,0,200,3,0,600,4,0,200,5,0,200,6,0,201,7,0,201,8,0,200,9,0,201,10,0,201,11,0,200,12,0,200,13,0,200,14,0,200,16,0,201,19,0,600,20,0,600,21,0,600,22,0,600,23,0,621,24,0,600,25,0,621,26,0,600,27,0,600,28,0,621,29,0,600,30,0,600,32,0,600,33,0,600,34,0,621,35,0,600,36,0,600,37,0,621,38,0,600,39,0,621,40,0,621,41,0,600,42,0,600,43,0,621,44,0,400,45,0,400,46,0,400,59,0,400,60,0,400,61,0,400,62,0,400*4A
$PAIRDGP,10,2,4,7,8,9,16,21,26,27,30*42
$GNGGA,041713.200,2500.7972672,N,12132.4357345,E,4,50,0.54,16.654,M,15.25,M,1,3335*4E
$GNRMC,041713.200,A,2500.7972672,N,12132.4357345,E,0.01,345.47,090324,,,R,V*1C
$GPHDT,10.177,T*05
$GNACCURACY,3.5*10
$GNGGA,041713.300,2500.7972667,N,12132.4357368,E,4,49,0.57,16.661,M,15.25,M,1,3335*49
$GNRMC,041713.300,A,2500.7972667,N,12132.4357368,E,0.01,345.47,090324,,,R,V*16
$GPHDT,,T*1B
$GNACCURACY,3.5*10
$GNGGA,041713.400,2500.7972675,N,12132.4357392,E,4,49,0.57,16.672,M,15.25,M,1,3335*4A
$GNRMC,041713.400,A,2500.7972675,N,12132.4357392,E,0.01,345.47,090324,,,R,V*17
$GPHDT,8.813,T*37
$GNACCURACY,3.5*10
$GNGGA,041713.500,2500.7972644,N,12132.4357383,E,4,49,0.57,16.674,M,15.25,M,1,3335*4F
$GNRMC,041713.500,A,2500.7972644,N,12132.4357383,E,0.02,345.47,090324,,,R,V*17
$GPHDT,,T*1B
$GNACCURACY,3.5*10
$GNGGA,041713.600,2500.7972672,N,12132.4357348,E,4,49,0.57,16.681,M,15.25,M,0,3335*45
$GNRMC,041713.600,A,2500.7972672,N,12132.4357348,E,0.02,345.47,090324,,,R,V*16
$GPHDT,8.692,T*30
$GNACCURACY,3.6*13
$GNGGA,041713.700,2500.7972653,N,12132.4357283,E,4,49,0.57,16.733,M,15.25,M,0,3335*49
$GNRMC,041713.700,A,2500.7972653,N,12132.4357283,E,0.01,345.47,090324,,,R,V*11
$GPHDT,,T*1B
$GNACCURACY,3.6*13
$GNGGA,041713.800,2500.7972649,N,12132.4357289,E,4,49,0.57,16.748,M,15.25,M,0,3335*4B
$GNRMC,041713.800,A,2500.7972649,N,12132.4357289,E,0.01,345.47,090324,,,R,V*1F
$GPHDT,7.265,T*33
$GNACCURACY,3.6*13
$GNGGA,041713.900,2500.7972648,N,12132.4357301,E,4,49,0.57,16.776,M,15.25,M,0,3335*47
$GNRMC,041713.900,A,2500.7972648,N,12132.4357301,E,0.02,345.47,090324,,,R,V*1D
$GPHDT,,T*1B
$GNACCURACY,3.6*13
$GNGGA,041714.000,2500.7972672,N,12132.4357273,E,4,49,0.57,16.751,M,15.25,M,1,3335*40
$GNRMC,041714.000,A,2500.7972672,N,12132.4357273,E,0.02,345.47,090324,,,R,V*1E
$GPHDT,6.479,T*39
$GNACCURACY,3.5*10
$GNGGA,041714.100,2500.7972655,N,12132.4357295,E,4,50,0.57,16.755,M,15.25,M,1,3335*40
$GNRMC,041714.100,A,2500.7972655,N,12132.4357295,E,0.02,345.47,090324,,,R,V*12
$GPHDT,,T*1B
$GNGSA,A,3,195,194,21,08,199,02,07,27,16,196,,,0.86,0.57,0.65,1*0C
$GNGSA,A,3,81,78,88,79,77,82,,,,,,,0.86,0.57,0.65,2*0F
$GNGSA,A,3,21,13,26,27,15,,,,,,,,0.86,0.57,0.65,3*08
$GNGSA,A,3,23,09,06,16,07,40,28,39,43,25,37,,0.86,0.57,0.65,4*05
$GPGSV,4,1,15,195,65,112,44,194,64,053,40,21,64,151,46,50,60,167,38,1*6B
$GPGSV,4,2,15,08,60,001,45,199,60,167,35,02,52,176,45,07,44,314,39,1*56
$GPGSV,4,3,15,27,30,038,34,16,26,079,27,09,22,243,17,196,19,168,23,1*57
$GPGSV,4,4,15,04,15,200,12,30,14,319,20,26,06,102,,1*5F
$GPGSV,2,1,06,195,65,112,45,194,64,053,43,08,60,001,47,199,60,167,44,8*51
$GPGSV,2,2,06,27,30,038,28,196,19,168,25,8*52
$GLGSV,2,1,06,81,69,206,42,78,58,045,39,88,51,029,37,79,29,336,41,1*7D
$GLGSV,2,2,06,77,21,114,21,82,19,206,16,1*7B
$GAGSV,2,1,06,21,55,016,39,13,54,075,43,26,47,171,41,27,28,083,36,7*7A
$GAGSV,2,2,06,19,25,238,,15,12,037,19,7*78
$GAGSV,2,1,05,21,55,016,38,13,54,075,43,26,47,171,42,27,28,083,36,1*7D
$GAGSV,2,2,05,15,12,037,18,1*4A
$GBGSV,4,1,13,23,75,043,45,09,72,261,34,06,69,214,44,16,66,199,42,1*74
$GBGSV,4,2,13,07,60,310,39,40,60,331,45,28,59,225,45,39,56,188,45,1*72
$GBGSV,4,3,13,43,55,035,43,10,51,292,,25,35,121,43,37,33,322,37,1*7E
$GBGSV,4,4,13,34,09,040,,1*4E
$GBGSV,2,1,07,23,75,043,45,40,60,331,42,28,59,225,44,39,56,188,43,4*7B
$GBGSV,2,2,07,43,55,035,42,25,35,121,40,37,33,322,34,4*44
$GNACCURACY,3.6*13
$PAIRSAT,1,35,2,0,201,3,0,200,4,0,221,5,0,200,6,0,200,7,0,201,8,0,221,9,0,220,10,0,200,11,0,200,12,0,200,13,0,200,14,0,200,15,0,200,16,0,201,17,0,200,18,0,200,19,0,200,20,0,200,21,0,201,22,0,200,23,0,200,24,0,200,25,0,200,26,0,220,27,0,221,28,0,200,29,0,200,30,0,221,31,0,200,32,0,200,194,0,621,195,0,621,196,0,620,199,0,621*5A
$PAIRSAT,2,24,65,0,200,66,0,200,67,0,200,68,0,200,69,0,200,70,0,200,71,0,200,72,0,200,73,0,200,74,0,200,75,0,200,76,0,200,77,0,201,78,0,201,79,0,201,80,0,200,81,0,201,82,0,201,83,0,200,84,0,200,85,0,200,86,0,200,87,0,200,88,0,201*7A
$PAIRSAT,3,23,2,0,1200,3,0,1200,4,0,1200,5,0,200,7,0,1200,8,0,1200,9,0,1200,10,0,1200,11,0,1200,12,0,1200,13,0,1221,15,0,1220,19,0,1201,21,0,1221,24,0,1200,25,0,1200,26,0,1221,27,0,1221,30,0,1200,31,0,1200,33,0,1200,34,0,1200,36,0,1200*69
$PAIRSAT,4,46,1,0,200,2,0,200,3,0,600,4,0,200,5,0,200,6,0,201,7,0,201,8,0,200,9,0,201,10,0,201,11,0,200,12,0,200,13,0,200,14,0,200,16,0,201,19,0,600,20,0,600,21,0,600,22,0,600,23,0,621,24,0,600,25,0,621,26,0,600,27,0,600,28,0,621,29,0,600,30,0,600,32,0,600,33,0,600,34,0,621,35,0,600,36,0,600,37,0,621,38,0,600,39,0,621,40,0,621,41,0,600,42,0,600,43,0,621,44,0,400,45,0,400,46,0,400,59,0,400,60,0,400,61,0,400,62,0,400*4A
$PAIRDGP,10,2,4,7,8,9,16,21,26,27,30*42
$GNGGA,041714.200,2500.7972641,N,12132.4357278,E,4,50,0.57,16.749,M,15.25,M,1,3335*48
$GNRMC,041714.200,A,2500.7972641,N,12132.4357278,E,0.03,345.47,090324,,,R,V*16
$GPHDT,5.238,T*39
$GNACCURACY,3.6*13
$GNGGA,041714.300,2500.7972625,N,12132.4357274,E,4,50,0.57,16.736,M,15.25,M,1,3335*4F
$GNRMC,041714.300,A,2500.7972625,N,12132.4357274,E,0.02,345.47,090324,,,R,V*18
$GPHDT,,T*1B
$GNACCURACY,3.6*13
$GNGGA,041714.400,2500.7972637,N,12132.4357276,E,4,50,0.57,16.746,M,15.25,M,1,3335*4E
$GNRMC,041714.400,A,2500.7972637,N,12132.4357276,E,0.02,345.47,090324,,,R,V*1E
$GPHDT,4.545,T*35
$GNACCURACY,3.6*13
$GNGGA,041714.500,2500.7972615,N,12132.4357287,E,4,50,0.57,16.756,M,15.25,M,0,3335*41
$GNRMC,041714.500,A,2500.7972615,N,12132.4357287,E,0.02,345.47,090324,,,R,V*11
$GPHDT,,T*1B
$GNACCURACY,3.6*13
$GNGGA,041714.600,2500.7972623,N,12132.4357266,E,4,51,0.54,16.752,M,15.25,M,0,3335*4E
$GNRMC,041714.600,A,2500.7972623,N,12132.4357266,E,0.01,345.47,090324,,,R,V*1B
$GPHDT,4.689,T*36
$GNACCURACY,3.6*13
$GNGGA,041714.700,2500.7972630,N,12132.4357323,E,4,51,0.54,16.768,M,15.25,M,0,3335*44
$GNRMC,041714.700,A,2500.7972630,N,12132.4357323,E,0.02,345.47,090324,,,R,V*1B
$GPHDT,,T*1B
$GNACCURACY,3.6*13
$GNGGA,041714.800,2500.7972612,N,12132.4357245,E,4,51,0.54,16.754,M,15.25,M,0,3335*45
$GNRMC,041714.800,A,2500.7972612,N,12132.4357245,E,0.01,345.47,090324,,,R,V*16
$GPHDT,4.663,T*32
$GNACCURACY,3.6*13
$GNGGA,041714.900,2500.7972616,N,12132.4357267,E,4,51,0.54,16.760,M,15.25,M,0,3335*47
$GNRMC,041714.900,A,2500.7972616,N,12132.4357267,E,0.01,345.47,090324,,,R,V*13
$GPHDT,,T*1B
$GNACCURACY,3.6*13
$GNGGA,041715.000,2500.7972628,N,12132.4357290,E,4,51,0.54,16.766,M,15.25,M,1,3335*4D
$GNRMC,041715.000,A,2500.7972628,N,12132.4357290,E,0.01,345.47,090324,,,R,V*1E
$GPHDT,4.336,T*37
$GNACCURACY,3.6*13
$GNGGA,041715.100,2500.7972616,N,12132.4357274,E,4,51,0.54,16.761,M,15.25,M,1,3335*4C
$GNRMC,041715.100,A,2500.7972616,N,12132.4357274,E,0.01,345.47,090324,,,R,V*18
$GPHDT,,T*1B
$GNGSA,A,3,195,194,21,199,08,02,07,27,16,09,196,,0.82,0.54,0.62,1*05
$GNGSA,A,3,81,78,88,79,77,82,,,,,,,0.82,0.54,0.62,2*0F
$GNGSA,A,3,21,13,26,27,15,,,,,,,,0.82,0.54,0.62,3*08
$GNGSA,A,3,23,09,06,16,07,40,28,39,43,25,37,,0.82,0.54,0.62,4*05
$GPGSV,4,1,15,195,65,112,43,194,64,053,40,21,64,151,46,199,60,167,35,1*55
$GPGSV,4,2,15,08,60,001,44,50,60,167,38,02,52,176,45,07,44,314,42,1*62
$GPGSV,4,3,15,27,30,038,33,16,26,079,27,09,22,243,19,196,19,168,23,1*5E
$GPGSV,4,4,15,04,15,200,12,30,14,319,20,26,06,102,,1*5F
$GPGSV,2,1,06,195,65,112,45,194,64,053,44,08,60,001,47,199,60,167,44,8*56
$GPGSV,2,2,06,27,30,038,34,196,19,168,27,8*5D
$GLGSV,2,1,06,81,69,206,42,78,58,045,40,88,51,029,38,79,29,336,41,1*7C
$GLGSV,2,2,06,77,21,114,22,82,19,206,17,1*79
$GAGSV,2,1,07,21,55,016,39,13,54,075,43,26,47,171,41,27,28,083,37,7*7A
$GAGSV,2,2,07,19,25,238,,15,12,037,19,04,12,296,,7*43
$GAGSV,2,1,05,21,55,016,38,13,54,075,44,26,47,171,43,27,28,083,37,1*7A
$GAGSV,2,2,05,15,12,037,19,1*4B
$GBGSV,4,1,13,23,75,043,45,09,72,261,35,06,69,214,44,16,66,199,42,1*75
$GBGSV,4,2,13,07,60,310,40,40,60,331,45,28,59,225,45,39,56,188,45,1*7C
$GBGSV,4,3,13,43,55,035,43,10,51,292,,25,35,121,43,37,33,322,38,1*71
$GBGSV,4,4,13,34,09,040,,1*4E
$GBGSV,2,1,07,23,75,043,45,40,60,331,43,28,59,225,44,39,56,188,43,4*7A
$GBGSV,2,2,07,43,55,035,42,25,35,121,41,37,33,322,38,4*49
$GNACCURACY,3.6*13
$PAIRSAT,1,35,2,0,201,3,0,200,4,0,221,5,0,200,6,0,200,7,0,201,8,0,221,9,0,220,10,0,200,11,0,200,12,0,200,13,0,200,14,0,200,15,0,200,16,0,201,17,0,200,18,0,200,19,0,200,20,0,200,21,0,201,22,0,200,23,0,200,24,0,200,25,0,200,26,0,220,27,0,221,28,0,200,29,0,200,30,0,221,31,0,200,32,0,200,194,0,621,195,0,621,196,0,620,199,0,621*5A
$PAIRSAT,2,24,65,0,200,66,0,200,67,0,200,68,0,200,69,0,200,70,0,200,71,0,200,72,0,200,73,0,200,74,0,200,75,0,200,76,0,200,77,0,201,78,0,201,79,0,201,80,0,200,81,0,201,82,0,201,83,0,200,84,0,200,85,0,200,86,0,200,87,0,200,88,0,201*7A
$PAIRSAT,3,23,2,0,1200,3,0,1200,4,0,1200,5,0,200,7,0,1200,8,0,1200,9,0,1200,10,0,1200,11,0,1200,12,0,1200,13,0,1221,15,0,1220,19,0,1201,21,0,1221,24,0,1200,25,0,1200,26,0,1221,27,0,1221,30,0,1200,31,0,1200,33,0,1200,34,0,1200,36,0,1200*69
$PAIRSAT,4,46,1,0,200,2,0,200,3,0,600,4,0,200,5,0,200,6,0,201,7,0,201,8,0,200,9,0,201,10,0,201,11,0,200,12,0,200,13,0,200,14,0,200,16,0,201,19,0,600,20,0,600,21,0,600,22,0,600,23,0,621,24,0,600,25,0,621,26,0,600,27,0,600,28,0,621,29,0,600,30,0,600,32,0,600,33,0,600,34,0,621,35,0,600,36,0,600,37,0,621,38,0,600,39,0,621,40,0,621,41,0,600,42,0,600,43,0,621,44,0,400,45,0,400,46,0,400,59,0,400,60,0,400,61,0,400,62,0,400*4A
$PAIRDGP,10,2,4,7,8,9,16,21,26,27,30*42
$GNGGA,041715.200,2500.7972609,N,12132.4357286,E,4,51,0.54,16.766,M,15.25,M,1,3335*4B
$GNRMC,041715.200,A,2500.7972609,N,12132.4357286,E,0.01,345.47,090324,,,R,V*18
$GPHDT,4.320,T*30
$GNACCURACY,3.6*13
$GNGGA,041715.300,2500.7972613,N,12132.4357273,E,4,51,0.54,16.756,M,15.25,M,1,3335*48
$GNRMC,041715.300,A,2500.7972613,N,12132.4357273,E,0.01,345.47,090324,,,R,V*18
$GPHDT,,T*1B
$GNACCURACY,3.6*13
$GNGGA,041715.400,2500.7972608,N,12132.4357263,E,4,51,0.54,16.765,M,15.25,M,1,3335*44
$GNRMC,041715.400,A,2500.7972608,N,12132.4357263,E,0.02,345.47,090324,,,R,V*17
$GPHDT,4.315,T*36
$GNACCURACY,3.6*13
$GNGGA,041715.500,2500.7972610,N,12132.4357279,E,4,51,0.54,16.756,M,15.25,M,1,3335*47
$GNRMC,041715.500,A,2500.7972610,N,12132.4357279,E,0.02,345.47,090324,,,R,V*14
$GPHDT,,T*1B
$GNACCURACY,3.6*13
$GNGGA,041715.600,2500.7972596,N,12132.4357247,E,4,51,0.54,16.763,M,15.25,M,0,3335*43
$GNRMC,041715.600,A,2500.7972596,N,12132.4357247,E,0.01,345.47,090324,,,R,V*14
$GPHDT,4.289,T*32
$GNACCURACY,3.6*13
$GNGGA,041715.700,2500.7972594,N,12132.4357177,E,4,51,0.54,16.762,M,15.25,M,0,3335*41
$GNRMC,041715.700,A,2500.7972594,N,12132.4357177,E,0.00,345.47,090324,,,R,V*16
$GPHDT,,T*1B
$GNACCURACY,3.6*13
$GNGGA,041715.800,2500.7972580,N,12132.4357177,E,4,51,0.54,16.768,M,15.25,M,0,3335*41
$GNRMC,041715.800,A,2500.7972580,N,12132.4357177,E,0.01,345.47,090324,,,R,V*1D
$GPHDT,4.700,T*36
$GNACCURACY,3.6*13
$GNGGA,041715.900,2500.7972595,N,12132.4357253,E,4,51,0.54,16.772,M,15.25,M,0,3335*4A
$GNRMC,041715.900,A,2500.7972595,N,12132.4357253,E,0.00,345.47,090324,,,R,V*1C
$GPHDT,,T*1B
$GNACCURACY,3.6*13
$GNGGA,041716.000,2500.7972589,N,12132.4357260,E,4,51,0.54,16.771,M,15.25,M,1,3335*4F
$GNRMC,041716.000,A,2500.7972589,N,12132.4357260,E,0.01,345.47,090324,,,R,V*1A
$GPHDT,4.393,T*38
$GNACCURACY,3.6*13
$GNGGA,041716.100,2500.7972604,N,12132.4357257,E,4,51,0.54,16.776,M,15.25,M,1,3335*4B
$GNRMC,041716.100,A,2500.7972604,N,12132.4357257,E,0.01,345.47,090324,,,R,V*19
$GPHDT,,T*1B
$GNGSA,A,3,195,194,21,199,08,02,07,27,16,09,196,,0.82,0.54,0.62,1*05
$GNGSA,A,3,81,78,88,79,77,82,,,,,,,0.82,0.54,0.62,2*0F
$GNGSA,A,3,21,13,26,27,15,,,,,,,,0.82,0.54,0.62,3*08
$GNGSA,A,3,23,09,06,16,40,07,28,39,43,25,37,,0.82,0.54,0.62,4*05
$GPGSV,4,1,15,195,65,112,43,194,64,053,40,21,64,151,46,199,60,167,36,1*56
$GPGSV,4,2,15,08,60,001,44,50,60,167,38,02,52,176,46,07,44,314,41,1*62
$GPGSV,4,3,15,27,30,038,33,16,26,079,28,09,22,243,18,196,19,168,23,1*50
$GPGSV,4,4,15,04,15,200,15,30,14,319,19,26,06,102,,1*52
$GPGSV,2,1,06,195,65,112,44,194,64,053,44,08,60,001,47,199,60,167,45,8*56
$GPGSV,2,2,06,27,30,038,32,196,19,168,27,8*5B
$GLGSV,2,1,06,81,69,206,43,78,58,045,40,88,51,029,38,79,29,336,41,1*7D
$GLGSV,2,2,06,77,21,114,21,82,19,206,17,1*7A
$GAGSV,2,1,07,21,55,016,41,13,54,075,43,26,47,171,41,27,28,083,37,7*75
$GAGSV,2,2,07,19,25,238,,15,12,037,18,04,12,296,,7*42
$GAGSV,2,1,05,21,55,016,38,13,54,075,44,26,47,171,43,27,28,083,36,1*7B
$GAGSV,2,2,05,15,12,037,19,1*4B
$GBGSV,4,1,14,23,75,043,46,09,72,261,34,06,69,214,44,16,66,199,43,1*71
$GBGSV,4,2,14,40,60,331,43,07,60,310,33,28,59,225,45,39,56,188,45,1*79
$GBGSV,4,3,14,43,55,035,43,10,51,292,,25,35,121,43,37,33,322,38,1*76
$GBGSV,4,4,14,38,11,168,,34,09,040,,1*7D
$GBGSV,2,1,07,23,75,043,47,40,60,331,41,28,59,225,43,39,56,188,43,4*7D
$GBGSV,2,2,07,43,55,035,42,25,35,121,42,37,33,322,34,4*46
$GNACCURACY,3.6*13
$PAIRSAT,1,35,2,0,201,3,0,200,4,0,221,5,0,200,6,0,200,7,0,201,8,0,221,9,0,220,10,0,200,11,0,200,12,0,200,13,0,200,14,0,200,15,0,200,16,0,201,17,0,200,18,0,200,19,0,200,20,0,200,21,0,201,22,0,200,23,0,200,24,0,200,25,0,200,26,0,220,27,0,221,28,0,200,29,0,200,30,0,221,31,0,200,32,0,200,194,0,621,195,0,621,196,0,620,199,0,621*5A
$PAIRSAT,2,24,65,0,200,66,0,200,67,0,200,68,0,200,69,0,200,70,0,200,71,0,200,72,0,200,73,0,200,74,0,200,75,0,200,76,0,200,77,0,201,78,0,201,79,0,201,80,0,200,81,0,201,82,0,201,83,0,200,84,0,200,85,0,200,86,0,200,87,0,200,88,0,201*7A
$PAIRSAT,3,23,2,0,1200,3,0,1200,4,0,1200,5,0,200,7,0,1200,8,0,1200,9,0,1200,10,0,1200,11,0,1200,12,0,1200,13,0,1221,15,0,1220,19,0,1201,21,0,1221,24,0,1200,25,0,1200,26,0,1221,27,0,1221,30,0,1200,31,0,1200,33,0,1200,34,0,1200,36,0,1200*69
$PAIRSAT,4,46,1,0,200,2,0,200,3,0,600,4,0,200,5,0,200,6,0,201,7,0,201,8,0,200,9,0,201,10,0,201,11,0,200,12,0,200,13,0,200,14,0,200,16,0,201,19,0,600,20,0,600,21,0,600,22,0,600,23,0,621,24,0,600,25,0,621,26,0,600,27,0,600,28,0,621,29,0,600,30,0,600,32,0,600,33,0,600,34,0,621,35,0,600,36,0,600,37,0,621,38,0,600,39,0,621,40,0,621,41,0,600,42,0,600,43,0,621,44,0,400,45,0,400,46,0,400,59,0,400,60,0,400,61,0,400,62,0,400*4A
$PAIRDGP,10,2,4,7,8,9,16,21,26,27,30*42
$GNGGA,041716.200,2500.7972600,N,12132.4357288,E,4,51,0.54,16.772,M,15.25,M,1,3335*4A
$GNRMC,041716.200,A,2500.7972600,N,12132.4357288,E,0.01,345.47,090324,,,R,V*1C
$GPHDT,4.197,T*3E
$GNACCURACY,3.6*13
$GNGGA,041716.300,2500.7972596,N,12132.4357252,E,4,51,0.54,16.780,M,15.25,M,1,3335*4D
$GNRMC,041716.300,A,2500.7972596,N,12132.4357252,E,0.01,345.47,090324,,,R,V*16
$GPHDT,,T*1B
$GNACCURACY,3.6*13
$GNGGA,041716.400,2500.7972588,N,12132.4357271,E,4,51,0.54,16.771,M,15.25,M,1,3335*4A
$GNRMC,041716.400,A,2500.7972588,N,12132.4357271,E,0.01,345.47,090324,,,R,V*1F
$GPHDT,4.469,T*3A
$GNACCURACY,3.6*13
$GNGGA,041716.500,2500.7972618,N,12132.4357300,E,4,52,0.52,16.790,M,15.25,M,0,3335*4D
$GNRMC,041716.500,A,2500.7972618,N,12132.4357300,E,0.01,345.47,090324,,,R,V*13
$GPHDT,,T*1B
$GNACCURACY,3.6*13
$GNGGA,041716.600,2500.7972612,N,12132.4357297,E,4,52,0.52,16.783,M,15.25,M,0,3335*49
$GNRMC,041716.600,A,2500.7972612,N,12132.4357297,E,0.01,345.47,090324,,,R,V*15
$GPHDT,4.534,T*33
$GNACCURACY,3.6*13
$GNGGA,041716.700,2500.7972606,N,12132.4357279,E,4,52,0.52,16.774,M,15.25,M,0,3335*45
$GNRMC,041716.700,A,2500.7972606,N,12132.4357279,E,0.00,345.47,090324,,,R,V*10
$GPHDT,,T*1B
$GNACCURACY,3.6*13
$GNGGA,041716.800,2500.7972620,N,12132.4357280,E,4,52,0.52,16.780,M,15.25,M,0,3335*43
$GNRMC,041716.800,A,2500.7972620,N,12132.4357280,E,0.00,345.47,090324,,,R,V*1D
$GPHDT,4.547,T*37
$GNACCURACY,3.6*13
$GNGGA,041716.900,2500.7972608,N,12132.4357299,E,4,52,0.52,16.783,M,15.25,M,0,3335*43
$GNRMC,041716.900,A,2500.7972608,N,12132.4357299,E,0.01,345.47,090324,,,R,V*1F
$GPHDT,,T*1B
$GNACCURACY,3.6*13
$GNGGA,041717.000,2500.7972633,N,12132.4357270,E,4,52,0.52,16.782,M,15.25,M,1,3335*44
$GNRMC,041717.000,A,2500.7972633,N,12132.4357270,E,0.01,345.47,090324,,,R,V*18
$GPHDT,4.127,T*35
$GNACCURACY,3.6*13
$GNGGA,041717.100,2500.7972632,N,12132.4357314,E,4,52,0.52,16.775,M,15.25,M,1,3335*4F
$GNRMC,041717.100,A,2500.7972632,N,12132.4357314,E,0.02,345.47,090324,,,R,V*18
$GPHDT,,T*1B
$GNGSA,A,3,195,194,21,199,08,02,07,27,16,09,196,30,0.78,0.52,0.59,1*0D
$GNGSA,A,3,81,78,88,79,77,82,,,,,,,0.78,0.52,0.59,2*04
$GNGSA,A,3,21,13,26,27,15,,,,,,,,0.78,0.52,0.59,3*03
$GNGSA,A,3,23,09,06,16,07,40,28,39,43,25,37,,0.78,0.52,0.59,4*0E
$GPGSV,4,1,15,195,65,112,43,194,64,053,40,21,64,151,46,199,60,167,35,1*55
$GPGSV,4,2,15,08,60,001,44,50,60,167,37,02,52,176,46,07,44,314,42,1*6E
$GPGSV,4,3,15,27,30,038,34,16,26,079,28,09,22,243,17,196,19,168,23,1*58
$GPGSV,4,4,15,04,15,200,13,30,14,319,21,26,06,102,,1*5F
$GPGSV,2,1,07,195,65,112,45,194,64,053,44,08,60,001,47,199,60,167,46,8*55
$GPGSV,2,2,07,27,30,038,29,196,19,168,25,30,14,319,23,8*6E
$GLGSV,2,1,06,81,69,206,43,78,58,045,40,88,51,029,36,79,29,336,41,1*73
$GLGSV,2,2,06,77,21,114,21,82,19,206,17,1*7A
$GAGSV,2,1,07,21,55,016,41,13,54,075,43,26,47,171,41,27,28,083,37,7*75
$GAGSV,2,2,07,19,25,238,,15,12,037,18,04,12,296,,7*42
$GAGSV,2,1,05,21,55,016,38,13,54,075,44,26,47,171,43,27,28,083,36,1*7B
$GAGSV,2,2,05,15,12,037,16,1*44
$GBGSV,4,1,13,23,75,043,46,09,72,261,34,06,69,214,44,16,66,199,43,1*76
$GBGSV,4,2,13,07,60,310,39,40,60,331,45,28,59,225,45,39,56,188,45,1*72
$GBGSV,4,3,13,43,55,035,43,10,51,292,,25,35,121,43,37,33,322,38,1*71
$GBGSV,4,4,13,34,09,040,,1*4E
$GBGSV,2,1,07,23,75,043,45,40,60,331,42,28,59,225,43,39,56,188,43,4*7C
$GBGSV,2,2,07,43,55,035,42,25,35,121,41,37,33,322,37,4*46
$GNACCURACY,3.6*13
$PAIRSAT,1,35,2,0,201,3,0,200,4,0,221,5,0,200,6,0,200,7,0,201,8,0,221,9,0,220,10,0,200,11,0,200,12,0,200,13,0,200,14,0,200,15,0,200,16,0,201,17,0,200,18,0,200,19,0,200,20,0,200,21,0,201,22,0,200,23,0,200,24,0,200,25,0,200,26,0,220,27,0,221,28,0,200,29,0,200,30,0,221,31,0,200,32,0,200,194,0,621,195,0,621,196,0,620,199,0,621*5A
$PAIRSAT,2,24,65,0,200,66,0,200,67,0,200,68,0,200,69,0,200,70,0,200,71,0,200,72,0,200,73,0,200,74,0,200,75,0,200,76,0,200,77,0,201,78,0,201,79,0,201,80,0,200,81,0,201,82,0,201,83,0,200,84,0,200,85,0,200,86,0,200,87,0,200,88,0,201*7A
$PAIRSAT,3,23,2,0,1200,3,0,1200,4,0,1200,5,0,200,7,0,1200,8,0,1200,9,0,1200,10,0,1200,11,0,1200,12,0,1200,13,0,1221,15,0,1220,19,0,1201,21,0,1221,24,0,1200,25,0,1200,26,0,1221,27,0,1221,30,0,1200,31,0,1200,33,0,1200,34,0,1200,36,0,1200*69
$PAIRSAT,4,46,1,0,200,2,0,200,3,0,600,4,0,200,5,0,200,6,0,201,7,0,201,8,0,200,9,0,201,10,0,201,11,0,200,12,0,200,13,0,200,14,0,200,16,0,201,19,0,600,20,0,600,21,0,600,22,0,600,23,0,621,24,0,600,25,0,621,26,0,600,27,0,600,28,0,621,29,0,600,30,0,600,32,0,600,33,0,600,34,0,621,35,0,600,36,0,600,37,0,621,38,0,600,39,0,621,40,0,621,41,0,600,42,0,600,43,0,621,44,0,400,45,0,400,46,0,400,59,0,400,60,0,400,61,0,400,62,0,400*4A
$PAIRDGP,10,2,4,7,8,9,16,21,26,27,30*42
$GNGGA,041717.200,2500.7972642,N,12132.4357312,E,4,52,0.52,16.784,M,15.25,M,1,3335*43
$GNRMC,041717.200,A,2500.7972642,N,12132.4357312,E,0.02,345.47,090324,,,R,V*1A
$GPHDT,3.966,T*3F
$GNACCURACY,3.6*13
$GNGGA,041717.300,2500.7972629,N,12132.4357310,E,4,52,0.52,16.787,M,15.25,M,1,3335*4E
$GNRMC,041717.300,A,2500.7972629,N,12132.4357310,E,0.02,345.47,090324,,,R,V*14
$GPHDT,,T*1B
$GNACCURACY,3.6*13
$GNGGA,041717.400,2500.7972649,N,12132.4357296,E,4,52,0.52,16.774,M,15.25,M,1,3335*4C
$GNRMC,041717.400,A,2500.7972649,N,12132.4357296,E,0.02,345.47,090324,,,R,V*1A
$GPHDT,3.978,T*30
$GNACCURACY,3.6*13
$GNGGA,041717.500,2500.7972628,N,12132.4357253,E,4,52,0.52,16.769,M,15.25,M,0,3335*4E
$GNRMC,041717.500,A,2500.7972628,N,12132.4357253,E,0.02,345.47,090324,,,R,V*15
$GPHDT,,T*1B
$GNACCURACY,3.6*13
$GNGGA,041717.600,2500.7972614,N,12132.4357230,E,4,51,0.52,16.764,M,15.25,M,0,3335*49
$GNRMC,041717.600,A,2500.7972614,N,12132.4357230,E,0.01,345.47,090324,,,R,V*1F
$GPHDT,3.990,T*36
$GNACCURACY,3.6*13
$GNGGA,041717.700,2500.7972619,N,12132.4357230,E,4,51,0.52,16.781,M,15.25,M,0,3335*4E
$GNRMC,041717.700,A,2500.7972619,N,12132.4357230,E,0.00,345.47,090324,,,R,V*12
$GPHDT,,T*1B
$GNACCURACY,3.6*13
$GNGGA,041717.800,2500.7972614,N,12132.4357223,E,4,51,0.52,16.763,M,15.25,M,0,3335*42
$GNRMC,041717.800,A,2500.7972614,N,12132.4357223,E,0.00,345.47,090324,,,R,V*12
$GPHDT,4.091,T*39
$GNACCURACY,3.6*13
$GNGGA,041717.900,2500.7972594,N,12132.4357250,E,4,51,0.52,16.760,M,15.25,M,0,3335*4F
$GNRMC,041717.900,A,2500.7972594,N,12132.4357250,E,0.01,345.47,090324,,,R,V*1D
$GPHDT,,T*1B
$GNACCURACY,3.6*13
$GNGGA,041718.000,2500.7972600,N,12132.4357201,E,4,51,0.52,16.768,M,15.25,M,1,3335*4A
$GNRMC,041718.000,A,2500.7972600,N,12132.4357201,E,0.02,345.47,090324,,,R,V*12
$GPHDT,4.372,T*37
$GNACCURACY,3.6*13
$GNGGA,041718.100,2500.7972592,N,12132.4357193,E,4,51,0.52,16.771,M,15.25,M,1,3335*43
$GNRMC,041718.100,A,2500.7972592,N,12132.4357193,E,0.01,345.47,090324,,,R,V*10
$GPHDT,,T*1B
$GNGSA,A,3,195,194,21,199,08,02,07,27,16,09,196,30,0.78,0.52,0.59,1*0D
$GNGSA,A,3,81,78,88,79,77,82,,,,,,,0.78,0.52,0.59,2*04
$GNGSA,A,3,21,13,26,27,15,,,,,,,,0.78,0.52,0.59,3*03
$GNGSA,A,3,23,09,06,16,07,40,28,39,43,25,37,,0.78,0.52,0.59,4*0E
$GPGSV,4,1,15,195,65,112,43,194,64,053,40,21,64,151,46,199,60,167,35,1*55
$GPGSV,4,2,15,08,60,001,44,50,60,167,37,02,52,176,46,07,44,314,41,1*6D
$GPGSV,4,3,15,27,30,038,34,16,26,079,29,09,22,243,14,196,19,168,23,1*5A
$GPGSV,4,4,15,04,15,200,16,30,14,319,19,26,06,102,,1*51
$GPGSV,2,1,07,195,65,112,44,194,64,053,44,08,60,001,47,199,60,167,44,8*56
$GPGSV,2,2,07,27,30,038,28,196,19,168,24,30,14,319,24,8*69
$GLGSV,2,1,06,81,70,206,43,78,58,046,41,88,51,029,39,79,29,336,41,1*76
$GLGSV,2,2,06,77,21,114,21,82,19,206,17,1*7A
$GAGSV,2,1,07,21,55,016,40,13,54,075,43,26,47,171,41,27,28,083,37,7*74
$GAGSV,2,2,07,19,25,238,,15,12,037,18,04,12,296,,7*42
$GAGSV,1,1,04,21,55,016,37,13,54,075,43,26,47,171,43,27,28,083,35,1*72
$GBGSV,4,1,13,23,75,043,46,09,72,261,35,06,69,214,44,16,66,199,43,1*77
$GBGSV,4,2,13,07,60,310,36,40,60,331,44,28,59,225,45,39,56,188,45,1*7C
$GBGSV,4,3,13,43,55,035,43,10,51,292,,25,35,121,43,37,33,322,37,1*7E
$GBGSV,4,4,13,34,09,040,,1*4E
$GBGSV,2,1,07,23,75,043,46,40,60,331,40,28,59,225,43,39,56,188,43,4*7D
$GBGSV,2,2,07,43,55,035,42,25,35,121,40,37,33,322,34,4*44
$GNACCURACY,3.6*13
$PAIRSAT,1,35,2,0,201,3,0,200,4,0,221,5,0,200,6,0,200,7,0,201,8,0,221,9,0,220,10,0,200,11,0,200,12,0,200,13,0,200,14,0,200,15,0,200,16,0,201,17,0,200,18,0,200,19,0,200,20,0,200,21,0,201,22,0,200,23,0,200,24,0,200,25,0,200,26,0,220,27,0,221,28,0,200,29,0,200,30,0,221,31,0,200,32,0,200,194,0,621,195,0,621,196,0,620,199,0,621*5A
$PAIRSAT,2,24,65,0,200,66,0,200,67,0,200,68,0,200,69,0,200,70,0,200,71,0,200,72,0,200,73,0,200,74,0,200,75,0,200,76,0,200,77,0,201,78,0,201,79,0,201,80,0,200,81,0,201,82,0,201,83,0,200,84,0,200,85,0,200,86,0,200,87,0,200,88,0,201*7A
$PAIRSAT,3,23,2,0,1200,3,0,1200,4,0,1200,5,0,200,7,0,1200,8,0,1200,9,0,1200,10,0,1200,11,0,1200,12,0,1200,13,0,1221,15,0,1220,19,0,1201,21,0,1221,24,0,1200,25,0,1200,26,0,1221,27,0,1221,30,0,1200,31,0,1200,33,0,1200,34,0,1200,36,0,1200*69
$PAIRSAT,4,46,1,0,200,2,0,200,3,0,600,4,0,200,5,0,200,6,0,201,7,0,201,8,0,200,9,0,201,10,0,201,11,0,200,12,0,200,13,0,200,14,0,200,16,0,201,19,0,600,20,0,600,21,0,600,22,0,600,23,0,621,24,0,600,25,0,621,26,0,600,27,0,600,28,0,621,29,0,600,30,0,600,32,0,600,33,0,600,34,0,621,35,0,600,36,0,600,37,0,621,38,0,600,39,0,621,40,0,621,41,0,600,42,0,600,43,0,621,44,0,400,45,0,400,46,0,400,59,0,400,60,0,400,61,0,400,62,0,400*4A
$PAIRDGP,10,2,4,7,8,9,16,21,26,27,30*42
$GNGGA,041718.200,2500.7972606,N,12132.4357276,E,4,51,0.52,16.773,M,15.25,M,1,3335*44
$GNRMC,041718.200,A,2500.7972606,N,12132.4357276,E,0.02,345.47,090324,,,R,V*16
$GPHDT,3.532,T*32
$GNACCURACY,3.6*13
$GNGGA,041718.300,2500.7972603,N,12132.4357286,E,4,52,0.50,16.776,M,15.25,M,1,3335*4B
$GNRMC,041718.300,A,2500.7972603,N,12132.4357286,E,0.02,345.47,090324,,,R,V*1D
$GPHDT,,T*1B
$GNACCURACY,3.6*13
$GNGGA,041718.400,2500.7972599,N,12132.4357307,E,4,52,0.50,16.786,M,15.25,M,1,3335*4B
$GNRMC,041718.400,A,2500.7972599,N,12132.4357307,E,0.01,345.47,090324,,,R,V*11
$GPHDT,4.009,T*38
$GNACCURACY,3.6*13
$GNGGA,041718.500,2500.7972602,N,12132.4357297,E,4,53,0.50,16.785,M,15.25,M,1,3335*41
$GNRMC,041718.500,A,2500.7972602,N,12132.4357297,E,0.02,345.47,090324,,,R,V*1A
$GPHDT,,T*1B
$GNACCURACY,3.6*13
$GNGGA,041718.600,2500.7972594,N,12132.4357286,E,4,51,0.52,16.775,M,15.25,M,1,3335*41
$GNRMC,041718.600,A,2500.7972594,N,12132.4357286,E,0.01,345.47,090324,,,R,V*16
$GPHDT,4.250,T*36
$GNACCURACY,3.6*13
$GNGGA,041718.700,2500.7972605,N,12132.4357287,E,4,52,0.50,16.792,M,15.25,M,0,3335*43
$GNRMC,041718.700,A,2500.7972605,N,12132.4357287,E,0.01,345.47,090324,,,R,V*1D
$GPHDT,,T*1B
$GNACCURACY,3.6*13
$GNGGA,041718.800,2500.7972612,N,12132.4357292,E,4,51,0.52,16.797,M,15.25,M,0,3335*4A
$GNRMC,041718.800,A,2500.7972612,N,12132.4357292,E,0.01,345.47,090324,,,R,V*10
$GPHDT,4.354,T*33
$GNACCURACY,3.6*13
$GNGGA,041718.900,2500.7972601,N,12132.4357296,E,4,52,0.50,16.792,M,15.25,M,0,3335*49
$GNRMC,041718.900,A,2500.7972601,N,12132.4357296,E,0.01,345.47,090324,,,R,V*17
$GPHDT,,T*1B
