$FW : RTK35X,V1.1X0314AS,Lib20210517,1*54
$Tool : LOCOSYS , GNSS Firebird , v1.0.0.19*39
$---------------------------------------------------*2D
$GNACCURACY,3.6*13
$GNGGA,041801.800,2500.7972570,N,12132.4357425,E,4,49,0.54,16.805,M,15.25,M,0,3335*4B
$GNRMC,041801.800,A,2500.7972570,N,12132.4357425,E,0.02,345.47,090324,,,R,V*19
$GPHDT,138.493,T*31
$GNACCURACY,3.6*13
$GNGGA,041801.900,2500.7972545,N,12132.4357433,E,4,49,0.54,16.802,M,15.25,M,0,3335*4C
$GNRMC,041801.900,A,2500.7972545,N,12132.4357433,E,0.02,345.47,090324,,,R,V*19
$GPHDT,,T*1B
$GNACCURACY,3.6*13
$GNGGA,041802.000,2500.7972546,N,12132.4357415,E,4,49,0.54,16.805,M,15.25,M,1,3335*47
$GNRMC,041802.000,A,2500.7972546,N,12132.4357415,E,0.02,345.47,090324,,,R,V*14
$GPHDT,138.427,T*3E
$GNACCURACY,3.6*13
$GNGGA,041802.100,2500.7972530,N,12132.4357413,E,4,49,0.54,16.805,M,15.25,M,1,3335*41
$GNRMC,041802.100,A,2500.7972530,N,12132.4357413,E,0.02,345.47,090324,,,R,V*12
$GPHDT,,T*1B
$GNGSA,A,3,195,194,21,199,08,02,07,27,16,04,30,,0.92,0.54,0.75,1*32
$GNGSA,A,3,81,78,88,79,77,82,,,,,,,0.92,0.54,0.75,2*08
$GNGSA,A,3,21,13,26,27,15,,,,,,,,0.92,0.54,0.75,3*0F
$GNGSA,A,3,23,09,06,16,07,40,28,43,39,25,37,,0.92,0.54,0.75,4*02
$GPGSV,4,1,15,195,66,112,42,194,64,054,38,21,64,150,44,199,60,167,33,1*5A
$GPGSV,4,2,15,08,60,001,39,50,60,167,36,02,53,175,42,07,45,314,43,1*63
$GPGSV,4,3,15,27,30,038,31,16,26,079,14,09,21,242,14,196,19,168,12,1*51
$GPGSV,4,4,15,04,15,200,16,30,14,319,18,26,06,103,,1*51
$GPGSV,2,1,06,195,66,112,46,194,64,054,42,08,60,001,31,199,60,167,44,8*56
$GPGSV,2,2,06,27,30,038,27,30,14,319,21,8*6D
$GLGSV,2,1,06,81,70,206,42,78,58,046,36,88,51,029,35,79,29,337,40,1*7B
$GLGSV,2,2,06,77,21,115,17,82,20,206,14,1*77
$GAGSV,2,1,07,21,55,017,30,13,54,074,43,26,47,171,37,27,28,083,38,7*7D
$GAGSV,2,2,07,19,25,238,,15,11,037,19,33,07,199,,7*4C
$GAGSV,2,1,05,21,55,017,36,13,54,074,44,26,47,171,36,27,28,083,36,1*77
$GAGSV,2,2,05,15,11,037,21,1*43
$GBGSV,4,1,13,23,75,044,43,09,72,260,35,06,69,214,43,16,66,200,42,1*71
$GBGSV,4,2,13,07,60,311,38,40,59,331,38,28,59,226,46,43,55,035,33,1*7A
$GBGSV,4,3,13,39,55,188,41,10,50,292,,25,35,121,45,37,33,323,37,1*70
$GBGSV,4,4,13,34,08,040,,1*4F
$GBGSV,2,1,06,23,75,044,45,28,59,226,44,40,59,331,40,39,55,188,39,4*78
$GBGSV,2,2,06,25,35,121,44,37,33,323,35,4*76
$GNACCURACY,3.6*13
$PAIRSAT,1,35,2,0,201,3,0,200,4,0,221,5,0,200,6,0,200,7,0,201,8,0,221,9,0,220,10,0,200,11,0,200,12,0,200,13,0,200,14,0,200,15,0,200,16,0,201,17,0,200,18,0,200,19,0,200,20,0,200,21,0,201,22,0,200,23,0,200,24,0,200,25,0,200,26,0,220,27,0,221,28,0,200,29,0,200,30,0,221,31,0,200,32,0,200,194,0,621,195,0,621,196,0,620,199,0,621*5A
$PAIRSAT,2,24,65,0,200,66,0,200,67,0,200,68,0,200,69,0,200,70,0,200,71,0,200,72,0,200,73,0,200,74,0,200,75,0,200,76,0,200,77,0,201,78,0,201,79,0,201,80,0,200,81,0,201,82,0,201,83,0,200,84,0,200,85,0,200,86,0,200,87,0,200,88,0,201*7A
$PAIRSAT,3,23,2,0,1200,3,0,1200,4,0,1200,5,0,200,7,0,1200,8,0,1200,9,0,1200,10,0,1200,11,0,1200,12,0,1200,13,0,1221,15,0,1220,19,0,1201,21,0,1221,24,0,1200,25,0,1200,26,0,1221,27,0,1221,30,0,1200,31,0,1200,33,0,1200,34,0,1200,36,0,1200*69
$PAIRSAT,4,46,1,0,200,2,0,200,3,0,600,4,0,200,5,0,200,6,0,201,7,0,201,8,0,200,9,0,201,10,0,201,11,0,200,12,0,200,13,0,200,14,0,200,16,0,201,19,0,600,20,0,600,21,0,600,22,0,600,23,0,621,24,0,600,25,0,621,26,0,600,27,0,600,28,0,621,29,0,600,30,0,600,32,0,600,33,0,600,34,0,621,35,0,600,36,0,600,37,0,621,38,0,600,39,0,621,40,0,621,41,0,600,42,0,600,43,0,621,44,0,600,45,0,600,46,0,400,59,0,400,60,0,400,61,0,400,62,0,400*4A
$PAIRDGP,10,2,4,7,8,9,16,21,26,27,30*42
$GNGGA,041802.200,2500.7972534,N,12132.4357423,E,4,49,0.54,16.808,M,15.25,M,1,3335*48
$GNRMC,041802.200,A,2500.7972534,N,12132.4357423,E,0.02,345.47,090324,,,R,V*16
$GPHDT,138.209,T*34
$GNACCURACY,3.6*13
$GNGGA,041802.300,2500.7972540,N,12132.4357420,E,4,49,0.54,16.815,M,15.25,M,1,3335*45
$GNRMC,041802.300,A,2500.7972540,N,12132.4357420,E,0.02,345.47,090324,,,R,V*17
$GPHDT,,T*1B
$GNACCURACY,3.6*13
$GNGGA,041802.400,2500.7972558,N,12132.4357431,E,4,49,0.54,16.805,M,15.25,M,1,3335*4A
$GNRMC,041802.400,A,2500.7972558,N,12132.4357431,E,0.02,345.47,090324,,,R,V*19
$GPHDT,138.529,T*31
$GNACCURACY,3.6*13
$GNGGA,041802.500,2500.7972547,N,12132.4357430,E,4,49,0.54,16.812,M,15.25,M,0,3335*43
$GNRMC,041802.500,A,2500.7972547,N,12132.4357430,E,0.02,345.47,090324,,,R,V*17
$GPHDT,,T*1B
$GNACCURACY,3.6*13
$GNGGA,041802.600,2500.7972538,N,12132.4357399,E,4,48,0.55,16.805,M,15.25,M,0,3335*4A
$GNRMC,041802.600,A,2500.7972538,N,12132.4357399,E,0.02,345.47,090324,,,R,V*18
$GPHDT,138.123,T*3F
$GNACCURACY,3.6*13
$GNGGA,041802.700,2500.7972535,N,12132.4357413,E,4,48,0.55,16.799,M,15.25,M,0,3335*49
$GNRMC,041802.700,A,2500.7972535,N,12132.4357413,E,0.02,345.47,090324,,,R,V*11
$GPHDT,,T*1B
$GNACCURACY,3.6*13
$GNGGA,041802.800,2500.7972552,N,12132.4357439,E,4,48,0.55,16.804,M,15.25,M,0,3335*44
$GNRMC,041802.800,A,2500.7972552,N,12132.4357439,E,0.02,345.47,090324,,,R,V*17
$GPHDT,138.399,T*3C
$GNACCURACY,3.6*13
$GNGGA,041802.900,2500.7972548,N,12132.4357456,E,4,48,0.55,16.803,M,15.25,M,0,3335*40
$GNRMC,041802.900,A,2500.7972548,N,12132.4357456,E,0.02,345.47,090324,,,R,V*14
$GPHDT,,T*1B
$GNACCURACY,3.6*13
$GNGGA,041803.000,2500.7972555,N,12132.4357426,E,4,49,0.54,16.792,M,15.25,M,1,3335*45
$GNRMC,041803.000,A,2500.7972555,N,12132.4357426,E,0.02,345.47,090324,,,R,V*17
$GPHDT,138.435,T*3D
$GNACCURACY,3.6*13
$GNGGA,041803.100,2500.7972552,N,12132.4357439,E,4,49,0.54,16.791,M,15.25,M,1,3335*4E
$GNRMC,041803.100,A,2500.7972552,N,12132.4357439,E,0.02,345.47,090324,,,R,V*1F
$GPHDT,,T*1B
$GNGSA,A,3,195,194,21,08,199,02,07,27,16,04,30,,0.92,0.54,0.75,1*32
$GNGSA,A,3,81,78,88,79,77,82,,,,,,,0.92,0.54,0.75,2*08
$GNGSA,A,3,21,13,26,27,15,,,,,,,,0.92,0.54,0.75,3*0F
$GNGSA,A,3,23,09,06,16,07,40,28,39,43,25,37,,0.92,0.54,0.75,4*02
$GPGSV,4,1,15,195,66,112,42,194,64,054,38,21,64,150,44,50,60,167,36,1*6B
$GPGSV,4,2,15,08,60,001,40,199,60,167,33,02,53,175,42,07,45,314,43,1*5C
$GPGSV,4,3,15,27,30,038,31,16,26,079,28,09,21,242,12,196,19,168,16,1*5C
$GPGSV,4,4,15,04,15,200,17,30,14,319,16,26,06,103,,1*5E
$GPGSV,2,1,06,195,66,112,46,194,64,054,42,08,60,001,31,199,60,167,44,8*56
$GPGSV,2,2,06,27,30,038,25,30,14,319,20,8*6E
$GLGSV,2,1,06,81,70,206,42,78,58,046,38,88,51,029,37,79,29,337,41,1*76
$GLGSV,2,2,06,77,21,115,17,82,20,206,13,1*70
$GAGSV,2,1,06,21,55,017,31,13,54,074,43,26,47,171,38,27,28,083,38,7*72
$GAGSV,2,2,06,19,25,238,,15,11,037,19,7*7B
$GAGSV,2,1,05,21,55,017,33,13,54,074,44,26,47,171,37,27,28,083,37,1*72
$GAGSV,2,2,05,15,11,037,20,1*42
$GBGSV,4,1,13,23,75,044,43,09,72,260,35,06,69,214,43,16,66,200,42,1*71
$GBGSV,4,2,13,07,60,311,37,40,59,331,38,28,59,226,47,39,55,188,41,1*7B
$GBGSV,4,3,13,43,55,035,35,10,50,292,,25,35,121,45,37,33,323,37,1*79
$GBGSV,4,4,13,34,08,040,,1*4F
$GBGSV,2,1,06,23,75,044,45,28,59,226,44,40,59,331,40,39,55,188,39,4*78
$GBGSV,2,2,06,25,35,121,44,37,33,323,36,4*75
$GNACCURACY,3.6*13
$PAIRSAT,1,35,2,0,201,3,0,200,4,0,221,5,0,200,6,0,200,7,0,201,8,0,221,9,0,220,10,0,200,11,0,200,12,0,200,13,0,200,14,0,200,15,0,200,16,0,201,17,0,200,18,0,200,19,0,200,20,0,200,21,0,201,22,0,200,23,0,200,24,0,200,25,0,200,26,0,220,27,0,221,28,0,200,29,0,200,30,0,221,31,0,200,32,0,200,194,0,621,195,0,621,196,0,620,199,0,621*5A
$PAIRSAT,2,24,65,0,200,66,0,200,67,0,200,68,0,200,69,0,200,70,0,200,71,0,200,72,0,200,73,0,200,74,0,200,75,0,200,76,0,200,77,0,201,78,0,201,79,0,201,80,0,200,81,0,201,82,0,201,83,0,200,84,0,200,85,0,200,86,0,200,87,0,200,88,0,201*7A
$PAIRSAT,3,23,2,0,1200,3,0,1200,4,0,1200,5,0,200,7,0,1200,8,0,1200,9,0,1200,10,0,1200,11,0,1200,12,0,1200,13,0,1221,15,0,1220,19,0,1201,21,0,1221,24,0,1200,25,0,1200,26,0,1221,27,0,1221,30,0,1200,31,0,1200,33,0,1200,34,0,1200,36,0,1200*69
$PAIRSAT,4,46,1,0,200,2,0,200,3,0,600,4,0,200,5,0,200,6,0,201,7,0,201,8,0,200,9,0,201,10,0,201,11,0,200,12,0,200,13,0,200,14,0,200,16,0,201,19,0,600,20,0,600,21,0,600,22,0,600,23,0,621,24,0,600,25,0,621,26,0,600,27,0,600,28,0,621,29,0,600,30,0,600,32,0,600,33,0,600,34,0,621,35,0,600,36,0,600,37,0,621,38,0,600,39,0,621,40,0,621,41,0,600,42,0,600,43,0,621,44,0,600,45,0,600,46,0,400,59,0,400,60,0,400,61,0,400,62,0,400*4A
$PAIRDGP,10,2,4,7,8,9,16,21,26,27,30*42
$GNGGA,041803.200,2500.7972573,N,12132.4357439,E,4,49,0.54,16.783,M,15.25,M,1,3335*4D
$GNRMC,041803.200,A,2500.7972573,N,12132.4357439,E,0.02,345.47,090324,,,R,V*1F
$GPHDT,138.628,T*33
$GNACCURACY,3.6*13
$GNGGA,041803.300,2500.7972574,N,12132.4357430,E,4,49,0.54,16.768,M,15.25,M,1,3335*47
$GNRMC,041803.300,A,2500.7972574,N,12132.4357430,E,0.02,345.47,090324,,,R,V*10
$GPHDT,,T*1B
$GNACCURACY,3.6*13
$GNGGA,041803.400,2500.7972562,N,12132.4357451,E,4,48,0.56,16.783,M,15.25,M,1,3335*46
$GNRMC,041803.400,A,2500.7972562,N,12132.4357451,E,0.02,345.47,090324,,,R,V*17
$GPHDT,138.789,T*39
$GNACCURACY,3.6*13
$GNGGA,041803.500,2500.7972563,N,12132.4357437,E,4,48,0.56,16.776,M,15.25,M,1,3335*4C
$GNRMC,041803.500,A,2500.7972563,N,12132.4357437,E,0.02,345.47,090324,,,R,V*17
$GPHDT,,T*1B
$GNACCURACY,3.6*13
$GNGGA,041803.600,2500.7972590,N,12132.4357370,E,4,48,0.56,16.789,M,15.25,M,0,3335*46
$GNRMC,041803.600,A,2500.7972590,N,12132.4357370,E,0.02,345.47,090324,,,R,V*1C
$GPHDT,138.324,T*3A
$GNACCURACY,3.6*13
$GNGGA,041803.700,2500.7972575,N,12132.4357339,E,4,48,0.56,16.785,M,15.25,M,0,3335*4D
$GNRMC,041803.700,A,2500.7972575,N,12132.4357339,E,0.02,345.47,090324,,,R,V*1B
$GPHDT,,T*1B
$GNACCURACY,3.6*13
$GNGGA,041803.800,2500.7972584,N,12132.4357338,E,4,48,0.56,16.790,M,15.25,M,0,3335*49
$GNRMC,041803.800,A,2500.7972584,N,12132.4357338,E,0.02,345.47,090324,,,R,V*1B
$GPHDT,138.306,T*3A
$GNACCURACY,3.6*13
$GNGGA,041803.900,2500.7972551,N,12132.4357367,E,4,48,0.54,16.785,M,15.25,M,0,3335*4C
$GNRMC,041803.900,A,2500.7972551,N,12132.4357367,E,0.02,345.47,090324,,,R,V*18
$GPHDT,,T*1B
$GNACCURACY,3.6*13
$GNGGA,041804.000,2500.7972537,N,12132.4357365,E,4,48,0.54,16.776,M,15.25,M,1,3335*4D
$GNRMC,041804.000,A,2500.7972537,N,12132.4357365,E,0.02,345.47,090324,,,R,V*14
$GPHDT,138.288,T*3D
$GNACCURACY,3.6*13
$GNGGA,041804.100,2500.7972548,N,12132.4357356,E,4,48,0.54,16.778,M,15.25,M,1,3335*4A
$GNRMC,041804.100,A,2500.7972548,N,12132.4357356,E,0.02,345.47,090324,,,R,V*1D
$GPHDT,,T*1B
$GNGSA,A,3,195,194,21,08,199,02,07,27,16,196,04,30,0.93,0.54,0.76,1*0E
$GNGSA,A,3,81,78,88,79,77,,,,,,,,0.93,0.54,0.76,2*00
$GNGSA,A,3,21,13,26,27,15,,,,,,,,0.93,0.54,0.76,3*0D
$GNGSA,A,3,23,09,06,16,07,40,28,39,43,25,37,,0.93,0.54,0.76,4*00
$GPGSV,4,1,15,195,66,112,43,194,64,054,40,21,64,150,44,50,60,167,36,1*65
$GPGSV,4,2,15,08,60,001,42,199,60,167,35,02,53,175,42,07,45,314,44,1*5F
$GPGSV,4,3,15,27,30,038,32,16,26,079,25,09,21,242,16,196,19,168,17,1*57
$GPGSV,4,4,15,04,15,200,15,30,14,319,22,26,06,103,,1*5B
$GPGSV,2,1,06,195,66,112,46,194,64,054,45,08,60,001,38,199,60,167,44,8*58
$GPGSV,2,2,06,27,30,038,28,30,14,319,26,8*65
$GLGSV,2,1,06,81,70,206,42,78,58,046,42,88,51,029,39,79,29,337,44,1*70
$GLGSV,2,2,06,77,21,115,18,82,20,206,11,1*7D
$GAGSV,2,1,06,21,55,017,38,13,54,074,42,26,47,171,38,27,27,083,38,7*75
$GAGSV,2,2,06,19,25,238,,15,11,037,19,7*7B
$GAGSV,1,1,04,13,54,074,45,26,47,171,37,27,27,083,37,15,11,037,21,1*78
$GBGSV,4,1,13,23,75,044,45,09,72,260,34,06,69,214,43,16,66,200,42,1*76
$GBGSV,4,2,13,07,60,311,39,40,59,331,43,28,59,226,47,39,55,188,41,1*79
$GBGSV,4,3,13,43,55,035,41,10,50,292,,25,35,121,46,37,33,323,40,1*79
$GBGSV,4,4,13,34,08,040,,1*4F
$GBGSV,2,1,06,23,75,044,46,28,59,226,44,40,59,331,42,39,55,188,39,4*79
$GBGSV,2,2,06,25,35,121,44,37,33,323,42,4*76
$GNACCURACY,3.6*13
$PAIRSAT,1,35,2,0,201,3,0,200,4,0,221,5,0,200,6,0,200,7,0,201,8,0,221,9,0,220,10,0,200,11,0,200,12,0,200,13,0,200,14,0,200,15,0,200,16,0,201,17,0,200,18,0,200,19,0,200,20,0,200,21,0,201,22,0,200,23,0,200,24,0,200,25,0,200,26,0,220,27,0,221,28,0,200,29,0,200,30,0,221,31,0,200,32,0,200,194,0,621,195,0,621,196,0,620,199,0,621*5A
$PAIRSAT,2,24,65,0,200,66,0,200,67,0,200,68,0,200,69,0,200,70,0,200,71,0,200,72,0,200,73,0,200,74,0,200,75,0,200,76,0,200,77,0,201,78,0,201,79,0,201,80,0,200,81,0,201,82,0,201,83,0,200,84,0,200,85,0,200,86,0,200,87,0,200,88,0,201*7A
$PAIRSAT,3,23,2,0,1200,3,0,1200,4,0,1200,5,0,200,7,0,1200,8,0,1200,9,0,1200,10,0,1200,11,0,1200,12,0,1200,13,0,1221,15,0,1220,19,0,1201,21,0,1221,24,0,1200,25,0,1200,26,0,1221,27,0,1221,30,0,1200,31,0,1200,33,0,1200,34,0,1200,36,0,1200*69
$PAIRSAT,4,46,1,0,200,2,0,200,3,0,600,4,0,200,5,0,200,6,0,201,7,0,201,8,0,200,9,0,201,10,0,201,11,0,200,12,0,200,13,0,200,14,0,200,16,0,201,19,0,600,20,0,600,21,0,600,22,0,600,23,0,621,24,0,600,25,0,621,26,0,600,27,0,600,28,0,621,29,0,600,30,0,600,32,0,600,33,0,600,34,0,621,35,0,600,36,0,600,37,0,621,38,0,600,39,0,621,40,0,621,41,0,600,42,0,600,43,0,621,44,0,600,45,0,600,46,0,400,59,0,400,60,0,400,61,0,400,62,0,400*4A
$PAIRDGP,10,2,4,7,8,9,16,21,26,27,30*42
$GNGGA,041804.200,2500.7972540,N,12132.4357398,E,4,48,0.54,16.785,M,15.25,M,1,3335*41
$GNRMC,041804.200,A,2500.7972540,N,12132.4357398,E,0.02,345.47,090324,,,R,V*14
$GPHDT,138.634,T*3E
$GNACCURACY,3.6*13
$GNGGA,041804.300,2500.7972524,N,12132.4357374,E,4,49,0.54,16.776,M,15.25,M,1,3335*4D
$GNRMC,041804.300,A,2500.7972524,N,12132.4357374,E,0.02,345.47,090324,,,R,V*15
$GPHDT,,T*1B
$GNACCURACY,3.6*13
$GNGGA,041804.400,2500.7972552,N,12132.4357393,E,4,50,0.54,16.784,M,15.25,M,1,3335*47
$GNRMC,041804.400,A,2500.7972552,N,12132.4357393,E,0.02,345.47,090324,,,R,V*1A
$GPHDT,138.721,T*3B
$GNACCURACY,3.6*13
$GNGGA,041804.500,2500.7972533,N,12132.4357376,E,4,50,0.54,16.791,M,15.25,M,0,3335*4F
$GNRMC,041804.500,A,2500.7972533,N,12132.4357376,E,0.02,345.47,090324,,,R,V*17
$GPHDT,,T*1B
$GNACCURACY,3.6*13
$GNGGA,041804.600,2500.7972564,N,12132.4357418,E,4,50,0.54,16.795,M,15.25,M,0,3335*45
$GNRMC,041804.600,A,2500.7972564,N,12132.4357418,E,0.02,345.47,090324,,,R,V*19
$GPHDT,138.812,T*34
$GNACCURACY,3.6*13
$GNGGA,041804.700,2500.7972559,N,12132.4357406,E,4,50,0.54,16.797,M,15.25,M,0,3335*47
$GNRMC,041804.700,A,2500.7972559,N,12132.4357406,E,0.02,345.47,090324,,,R,V*19
$GPHDT,,T*1B
$GNACCURACY,3.6*13
$GNGGA,041804.800,2500.7972534,N,12132.4357359,E,4,50,0.54,16.787,M,15.25,M,0,3335*4F
$GNRMC,041804.800,A,2500.7972534,N,12132.4357359,E,0.02,345.47,090324,,,R,V*10
$GPHDT,138.614,T*3C
$GNACCURACY,3.6*13
$GNGGA,041804.900,2500.7972553,N,12132.4357370,E,4,49,0.54,16.785,M,15.25,M,0,3335*4E
$GNRMC,041804.900,A,2500.7972553,N,12132.4357370,E,0.02,345.47,090324,,,R,V*1B
$GPHDT,,T*1B
$GNACCURACY,3.6*13
$GNGGA,041805.000,2500.7972547,N,12132.4357396,E,4,49,0.54,16.791,M,15.25,M,1,3335*4F
$GNRMC,041805.000,A,2500.7972547,N,12132.4357396,E,0.02,345.47,090324,,,R,V*1E
$GPHDT,138.978,T*39
$GNACCURACY,3.6*13
$GNGGA,041805.100,2500.7972547,N,12132.4357380,E,4,49,0.54,16.796,M,15.25,M,1,3335*4E
$GNRMC,041805.100,A,2500.7972547,N,12132.4357380,E,0.02,345.47,090324,,,R,V*18
$GPHDT,,T*1B
$GNGSA,A,3,195,194,21,08,199,02,07,27,16,196,04,30,0.93,0.54,0.76,1*0E
$GNGSA,A,3,81,78,88,79,77,,,,,,,,0.93,0.54,0.76,2*00
$GNGSA,A,3,21,13,26,27,15,,,,,,,,0.93,0.54,0.76,3*0D
$GNGSA,A,3,23,09,06,16,07,40,28,39,43,25,37,,0.93,0.54,0.76,4*00
$GPGSV,4,1,15,195,66,112,43,194,64,054,39,21,64,150,44,50,60,167,36,1*6B
$GPGSV,4,2,15,08,60,001,36,199,60,167,33,02,53,175,42,07,45,314,44,1*5A
$GPGSV,4,3,15,27,30,038,32,16,26,079,33,09,21,242,17,196,19,168,17,1*51
$GPGSV,4,4,15,04,15,200,16,30,14,319,29,26,06,103,,1*53
$GPGSV,2,1,06,195,66,112,46,194,64,054,45,08,60,001,27,199,60,167,44,8*56
$GPGSV,2,2,06,27,30,038,20,30,14,319,23,8*68
$GLGSV,2,1,06,81,70,206,42,78,58,046,39,88,51,029,38,79,29,337,41,1*78
$GLGSV,2,2,06,77,21,115,20,82,20,206,13,1*74
$GAGSV,2,1,06,21,55,017,31,13,54,074,42,26,47,171,38,27,27,083,38,7*7C
$GAGSV,2,2,06,19,25,238,,15,11,037,19,7*7B
$GAGSV,1,1,04,13,54,074,44,26,47,171,39,27,27,083,38,15,11,037,22,1*7B
$GBGSV,4,1,13,23,75,044,43,09,72,260,35,06,69,214,43,16,66,200,43,1*70
$GBGSV,4,2,13,07,60,311,40,40,59,331,40,28,59,226,47,39,55,188,41,1*74
$GBGSV,4,3,13,43,55,035,36,10,50,292,,25,35,121,46,37,33,323,41,1*78
$GBGSV,4,4,13,34,08,040,,1*4F
$GBGSV,2,1,06,23,75,044,46,28,59,226,45,40,59,331,38,39,55,188,39,4*75
$GBGSV,2,2,06,25,35,121,44,37,33,323,36,4*75
$GNACCURACY,3.6*13
$PAIRSAT,1,35,2,0,201,3,0,200,4,0,221,5,0,200,6,0,200,7,0,201,8,0,221,9,0,220,10,0,200,11,0,200,12,0,200,13,0,200,14,0,200,15,0,200,16,0,201,17,0,200,18,0,200,19,0,200,20,0,200,21,0,201,22,0,200,23,0,200,24,0,200,25,0,200,26,0,220,27,0,221,28,0,200,29,0,200,30,0,221,31,0,200,32,0,200,194,0,621,195,0,621,196,0,620,199,0,621*5A
$PAIRSAT,2,24,65,0,200,66,0,200,67,0,200,68,0,200,69,0,200,70,0,200,71,0,200,72,0,200,73,0,200,74,0,200,75,0,200,76,0,200,77,0,201,78,0,201,79,0,201,80,0,200,81,0,201,82,0,201,83,0,200,84,0,200,85,0,200,86,0,200,87,0,200,88,0,201*7A
$PAIRSAT,3,23,2,0,1200,3,0,1200,4,0,1200,5,0,200,7,0,1200,8,0,1200,9,0,1200,10,0,1200,11,0,1200,12,0,1200,13,0,1221,15,0,1220,19,0,1201,21,0,1221,24,0,1200,25,0,1200,26,0,1221,27,0,1221,30,0,1200,31,0,1200,33,0,1200,34,0,1200,36,0,1200*69
$PAIRSAT,4,46,1,0,200,2,0,200,3,0,600,4,0,200,5,0,200,6,0,201,7,0,201,8,0,200,9,0,201,10,0,201,11,0,200,12,0,200,13,0,200,14,0,200,16,0,201,19,0,600,20,0,600,21,0,600,22,0,600,23,0,621,24,0,600,25,0,621,26,0,600,27,0,600,28,0,621,29,0,600,30,0,600,32,0,600,33,0,600,34,0,621,35,0,600,36,0,600,37,0,621,38,0,600,39,0,621,40,0,621,41,0,600,42,0,600,43,0,621,44,0,600,45,0,600,46,0,400,59,0,400,60,0,400,61,0,400,62,0,400*4A
$PAIRDGP,10,2,4,7,8,9,16,21,26,27,30*42
$GNGGA,041805.200,2500.7972548,N,12132.4357385,E,4,49,0.54,16.792,M,15.25,M,1,3335*43
$GNRMC,041805.200,A,2500.7972548,N,12132.4357385,E,0.02,345.47,090324,,,R,V*11
$GPHDT,138.963,T*33
$GNACCURACY,3.5*10
$GNGGA,041805.300,2500.7972571,N,12132.4357401,E,4,49,0.54,16.794,M,15.25,M,1,3335*45
$GNRMC,041805.300,A,2500.7972571,N,12132.4357401,E,0.02,345.47,090324,,,R,V*11
$GPHDT,,T*1B
$GNACCURACY,3.5*10
$GNGGA,041805.400,2500.7972542,N,12132.4357401,E,4,50,0.54,16.776,M,15.25,M,1,3335*46
$GNRMC,041805.400,A,2500.7972542,N,12132.4357401,E,0.02,345.47,090324,,,R,V*16
$GPHDT,138.997,T*38
$GNACCURACY,3.6*13
$GNGGA,041805.500,2500.7972556,N,12132.4357401,E,4,50,0.54,16.807,M,15.25,M,1,3335*4B
$GNRMC,041805.500,A,2500.7972556,N,12132.4357401,E,0.02,345.47,090324,,,R,V*12
$GPHDT,,T*1B
$GNACCURACY,3.6*13
$GNGGA,041805.600,2500.7972541,N,12132.4357409,E,4,50,0.54,16.789,M,15.25,M,1,3335*4F
$GNRMC,041805.600,A,2500.7972541,N,12132.4357409,E,0.02,345.47,090324,,,R,V*1F
$GPHDT,138.883,T*3C
$GNACCURACY,3.6*13
$GNGGA,041805.700,2500.7972559,N,12132.4357386,E,4,50,0.54,16.799,M,15.25,M,0,3335*47
$GNRMC,041805.700,A,2500.7972559,N,12132.4357386,E,0.02,345.47,090324,,,R,V*17
$GPHDT,,T*1B
$GNACCURACY,3.6*13
$GNGGA,041805.800,2500.7972585,N,12132.4357422,E,4,50,0.54,16.793,M,15.25,M,0,3335*4A
$GNRMC,041805.800,A,2500.7972585,N,12132.4357422,E,0.02,345.47,090324,,,R,V*10
$GPHDT,139.061,T*39
$GNACCURACY,3.6*13
$GNGGA,041805.900,2500.7972566,N,12132.4357403,E,4,50,0.54,16.793,M,15.25,M,0,3335*45
$GNRMC,041805.900,A,2500.7972566,N,12132.4357403,E,0.02,345.47,090324,,,R,V*1F
$GPHDT,,T*1B
$GNACCURACY,3.6*13
$GNGGA,041806.000,2500.7972578,N,12132.4357386,E,4,50,0.54,16.779,M,15.25,M,1,3335*4F
$GNRMC,041806.000,A,2500.7972578,N,12132.4357386,E,0.02,345.47,090324,,,R,V*10
$GPHDT,138.934,T*31
$GNACCURACY,3.6*13
$GNGGA,041806.100,2500.7972578,N,12132.4357388,E,4,50,0.54,16.774,M,15.25,M,1,3335*4D
$GNRMC,041806.100,A,2500.7972578,N,12132.4357388,E,0.02,345.47,090324,,,R,V*1F
$GPHDT,,T*1B
$GNGSA,A,3,195,194,21,08,199,02,07,27,16,196,04,30,0.93,0.54,0.76,1*0E
$GNGSA,A,3,81,78,88,79,77,,,,,,,,0.93,0.54,0.76,2*00
$GNGSA,A,3,21,13,26,27,15,,,,,,,,0.93,0.54,0.76,3*0D
$GNGSA,A,3,23,09,06,16,07,40,28,39,43,25,37,,0.93,0.54,0.76,4*00
$GPGSV,4,1,15,195,66,112,43,194,64,054,39,21,64,150,44,50,60,167,36,1*6B
$GPGSV,4,2,15,08,60,001,41,199,60,167,34,02,53,175,42,07,45,314,45,1*5C
$GPGSV,4,3,15,27,30,038,29,16,26,079,30,09,21,242,17,196,19,168,17,1*58
$GPGSV,4,4,15,04,15,200,17,30,14,319,25,26,06,103,,1*5E
$GPGSV,2,1,06,195,66,112,45,194,64,054,44,08,60,001,40,199,60,167,44,8*55
$GPGSV,2,2,06,27,30,038,29,30,14,319,26,8*64
$GLGSV,2,1,06,81,70,206,42,78,58,046,39,88,51,029,37,79,29,337,43,1*75
$GLGSV,2,2,06,77,21,115,20,82,20,206,,1*76
$GAGSV,2,1,06,21,55,017,36,13,54,074,43,26,47,171,38,27,27,083,39,7*7B
$GAGSV,2,2,06,19,25,238,,15,11,037,19,7*7B
$GAGSV,2,1,05,21,55,017,40,13,54,074,45,26,47,171,39,27,27,083,38,1*79
$GAGSV,2,2,05,15,11,037,22,1*40
$GBGSV,4,1,13,23,75,044,45,09,72,260,34,06,69,214,43,16,66,200,43,1*77
$GBGSV,4,2,13,07,60,311,40,40,59,331,42,28,59,226,47,39,55,188,42,1*75
$GBGSV,4,3,13,43,55,035,39,10,50,292,,25,35,121,46,37,33,323,41,1*77
$GBGSV,4,4,13,34,08,040,,1*4F
$GBGSV,2,1,06,23,75,044,47,28,59,226,45,40,59,331,43,39,55,188,40,4*76
$GBGSV,2,2,06,25,35,121,44,37,33,323,40,4*74
$GNACCURACY,3.6*13
$PAIRSAT,1,35,2,0,201,3,0,200,4,0,221,5,0,200,6,0,200,7,0,201,8,0,221,9,0,220,10,0,200,11,0,200,12,0,200,13,0,200,14,0,200,15,0,200,16,0,201,17,0,200,18,0,200,19,0,200,20,0,200,21,0,201,22,0,200,23,0,200,24,0,200,25,0,200,26,0,220,27,0,221,28,0,200,29,0,200,30,0,221,31,0,200,32,0,200,194,0,621,195,0,621,196,0,620,199,0,621*5A
$PAIRSAT,2,24,65,0,200,66,0,200,67,0,200,68,0,200,69,0,200,70,0,200,71,0,200,72,0,200,73,0,200,74,0,200,75,0,200,76,0,200,77,0,201,78,0,201,79,0,201,80,0,200,81,0,201,82,0,201,83,0,200,84,0,200,85,0,200,86,0,200,87,0,200,88,0,201*7A
$PAIRSAT,3,23,2,0,1200,3,0,1200,4,0,1200,5,0,200,7,0,1200,8,0,1200,9,0,1200,10,0,1200,11,0,1200,12,0,1200,13,0,1221,15,0,1220,19,0,1201,21,0,1221,24,0,1200,25,0,1200,26,0,1221,27,0,1221,30,0,1200,31,0,1200,33,0,1200,34,0,1200,36,0,1200*69
$PAIRSAT,4,46,1,0,200,2,0,200,3,0,600,4,0,200,5,0,200,6,0,201,7,0,201,8,0,200,9,0,201,10,0,201,11,0,200,12,0,200,13,0,200,14,0,200,16,0,201,19,0,600,20,0,600,21,0,600,22,0,600,23,0,621,24,0,600,25,0,621,26,0,600,27,0,600,28,0,621,29,0,600,30,0,600,32,0,600,33,0,600,34,0,621,35,0,600,36,0,600,37,0,621,38,0,600,39,0,621,40,0,621,41,0,600,42,0,600,43,0,621,44,0,600,45,0,600,46,0,400,59,0,400,60,0,400,61,0,400,62,0,400*4A
$PAIRDGP,10,2,4,7,8,9,16,21,26,27,30*42
$GNGGA,041806.200,2500.7972595,N,12132.4357405,E,4,50,0.54,16.777,M,15.25,M,1,3335*4C
$GNRMC,041806.200,A,2500.7972595,N,12132.4357405,E,0.02,345.47,090324,,,R,V*1D
$GPHDT,138.790,T*31
$GNACCURACY,3.5*10
$GNGGA,041806.300,2500.7972593,N,12132.4357379,E,4,50,0.54,16.773,M,15.25,M,1,3335*43
$GNRMC,041806.300,A,2500.7972593,N,12132.4357379,E,0.02,345.47,090324,,,R,V*16
$GPHDT,,T*1B
$GNACCURACY,3.5*10
$GNGGA,041806.400,2500.7972581,N,12132.4357394,E,4,50,0.54,16.762,M,15.25,M,1,3335*44
$GNRMC,041806.400,A,2500.7972581,N,12132.4357394,E,0.02,345.47,090324,,,R,V*11
$GPHDT,138.532,T*3B
$GNACCURACY,3.5*10
$GNGGA,041806.500,2500.7972573,N,12132.4357366,E,4,49,0.54,16.777,M,15.25,M,1,3335*49
$GNRMC,041806.500,A,2500.7972573,N,12132.4357366,E,0.02,345.47,090324,,,R,V*10
$GPHDT,,T*1B
$GNACCURACY,3.5*10
$GNGGA,041806.600,2500.7972598,N,12132.4357397,E,4,50,0.52,16.776,M,15.25,M,1,3335*4E
$GNRMC,041806.600,A,2500.7972598,N,12132.4357397,E,0.02,345.47,090324,,,R,V*18
$GPHDT,138.543,T*3D
$GNACCURACY,3.5*10
$GNGGA,041806.700,2500.7972574,N,12132.4357397,E,4,50,0.52,16.757,M,15.25,M,1,3335*4E
$GNRMC,041806.700,A,2500.7972574,N,12132.4357397,E,0.02,345.47,090324,,,R,V*1B
$GPHDT,,T*1B
$GNACCURACY,3.5*10
$GNGGA,041806.800,2500.7972558,N,12132.4357400,E,4,50,0.52,16.773,M,15.25,M,0,3335*41
$GNRMC,041806.800,A,2500.7972558,N,12132.4357400,E,0.02,345.47,090324,,,R,V*13
$GPHDT,138.432,T*3A
$GNACCURACY,3.5*10
$GNGGA,041806.900,2500.7972552,N,12132.4357364,E,4,49,0.53,16.756,M,15.25,M,0,3335*41
$GNRMC,041806.900,A,2500.7972552,N,12132.4357364,E,0.02,345.47,090324,,,R,V*1D
$GPHDT,,T*1B
$GNACCURACY,3.5*10
$GNGGA,041807.000,2500.7972591,N,12132.4357360,E,4,49,0.53,16.776,M,15.25,M,1,3335*41
$GNRMC,041807.000,A,2500.7972591,N,12132.4357360,E,0.02,345.47,090324,,,R,V*1E
$GPHDT,138.303,T*3F
$GNACCURACY,3.5*10
$GNGGA,041807.100,2500.7972588,N,12132.4357374,E,4,49,0.53,16.767,M,15.25,M,1,3335*4D
$GNRMC,041807.100,A,2500.7972588,N,12132.4357374,E,0.02,345.47,090324,,,R,V*12
$GPHDT,,T*1B
$GNGSA,A,3,195,194,21,08,199,02,07,09,196,04,30,27,0.91,0.53,0.74,1*07
$GNGSA,A,3,81,78,88,79,77,,,,,,,,0.91,0.53,0.74,2*07
$GNGSA,A,3,21,13,26,27,15,,,,,,,,0.91,0.53,0.74,3*0A
$GNGSA,A,3,23,09,06,16,07,40,28,39,43,25,37,,0.91,0.53,0.74,4*07
$GPGSV,4,1,15,195,66,112,43,194,64,054,40,21,64,150,44,50,60,167,36,1*65
$GPGSV,4,2,15,08,60,001,42,199,60,167,34,02,53,175,42,07,45,314,45,1*5F
$GPGSV,4,3,15,27,30,038,20,16,26,079,,09,21,242,18,196,19,168,17,1*5D
$GPGSV,4,4,15,04,15,200,17,30,14,319,26,26,06,103,,1*5D
$GPGSV,2,1,06,195,66,112,46,194,64,054,45,08,60,001,41,199,60,167,44,8*56
$GPGSV,2,2,06,27,30,038,30,30,14,319,28,8*62
$GLGSV,2,1,06,81,70,207,42,78,58,046,41,88,50,029,40,79,29,337,43,1*7A
$GLGSV,2,2,06,77,21,115,19,82,20,206,,1*7C
$GAGSV,2,1,06,21,55,017,38,13,54,074,43,26,47,171,38,27,27,083,39,7*75
$GAGSV,2,2,06,19,25,238,,15,11,037,19,7*7B
$GAGSV,2,1,05,21,55,017,41,13,54,074,45,26,47,171,37,27,27,083,38,1*76
$GAGSV,2,2,05,15,11,037,22,1*40
$GBGSV,4,1,13,23,75,044,46,09,72,260,34,06,69,214,43,16,66,200,43,1*74
$GBGSV,4,2,13,07,60,311,40,40,59,331,42,28,59,226,47,39,55,188,42,1*75
$GBGSV,4,3,13,43,55,035,39,10,50,292,,25,35,121,46,37,33,323,41,1*77
$GBGSV,4,4,13,34,08,040,,1*4F
$GBGSV,2,1,06,23,75,044,47,28,59,226,45,40,59,331,44,39,55,188,40,4*71
$GBGSV,2,2,06,25,35,121,44,37,33,323,40,4*74
$GNACCURACY,3.5*10
$PAIRSAT,1,35,2,0,201,3,0,200,4,0,221,5,0,200,6,0,200,7,0,201,8,0,221,9,0,220,10,0,200,11,0,200,12,0,200,13,0,200,14,0,200,15,0,200,16,0,201,17,0,200,18,0,200,19,0,200,20,0,200,21,0,201,22,0,200,23,0,200,24,0,200,25,0,200,26,0,220,27,0,221,28,0,200,29,0,200,30,0,221,31,0,200,32,0,200,194,0,621,195,0,621,196,0,620,199,0,621*5A
$PAIRSAT,2,24,65,0,200,66,0,200,67,0,200,68,0,200,69,0,200,70,0,200,71,0,200,72,0,200,73,0,200,74,0,200,75,0,200,76,0,200,77,0,201,78,0,201,79,0,201,80,0,200,81,0,201,82,0,201,83,0,200,84,0,200,85,0,200,86,0,200,87,0,200,88,0,201*7A
$PAIRSAT,3,23,2,0,1200,3,0,1200,4,0,1200,5,0,200,7,0,1200,8,0,1200,9,0,1200,10,0,1200,11,0,1200,12,0,1200,13,0,1221,15,0,1220,19,0,1201,21,0,1221,24,0,1200,25,0,1200,26,0,1221,27,0,1221,30,0,1200,31,0,1200,33,0,1200,34,0,1200,36,0,1200*69
$PAIRSAT,4,46,1,0,200,2,0,200,3,0,600,4,0,200,5,0,200,6,0,201,7,0,201,8,0,200,9,0,201,10,0,201,11,0,200,12,0,200,13,0,200,14,0,200,16,0,201,19,0,600,20,0,600,21,0,600,22,0,600,23,0,621,24,0,600,25,0,621,26,0,600,27,0,600,28,0,621,29,0,600,30,0,600,32,0,600,33,0,600,34,0,621,35,0,600,36,0,600,37,0,621,38,0,600,39,0,621,40,0,621,41,0,600,42,0,600,43,0,621,44,0,600,45,0,600,46,0,400,59,0,400,60,0,400,61,0,400,62,0,400*4A
$PAIRDGP,10,2,4,7,8,9,16,21,26,27,30*42
$GNGGA,041807.200,2500.7972594,N,12132.4357374,E,4,49,0.53,16.784,M,15.25,M,1,3335*4E
$GNRMC,041807.200,A,2500.7972594,N,12132.4357374,E,0.02,345.47,090324,,,R,V*1C
$GPHDT,138.474,T*38
$GNACCURACY,3.5*10
$GNGGA,041807.300,2500.7972583,N,12132.4357340,E,4,49,0.53,16.766,M,15.25,M,1,3335*42
$GNRMC,041807.300,A,2500.7972583,N,12132.4357340,E,0.02,345.47,090324,,,R,V*1C
$GPHDT,,T*1B
$GNACCURACY,3.5*10
$GNGGA,041807.400,2500.7972595,N,12132.4357344,E,4,49,0.53,16.769,M,15.25,M,1,3335*49
$GNRMC,041807.400,A,2500.7972595,N,12132.4357344,E,0.02,345.47,090324,,,R,V*18
$GPHDT,138.228,T*37
$GNACCURACY,3.5*10
$GNGGA,041807.500,2500.7972606,N,12132.4357366,E,4,49,0.53,16.767,M,15.25,M,0,3335*4E
$GNRMC,041807.500,A,2500.7972606,N,12132.4357366,E,0.02,345.47,090324,,,R,V*10
$GPHDT,,T*1B
$GNACCURACY,3.5*10
$GNGGA,041807.600,2500.7972618,N,12132.4357328,E,4,49,0.53,16.771,M,15.25,M,0,3335*4F
$GNRMC,041807.600,A,2500.7972618,N,12132.4357328,E,0.02,345.47,090324,,,R,V*16
$GPHDT,138.274,T*3E
$GNACCURACY,3.6*13
$GNGGA,041807.700,2500.7972597,N,12132.4357344,E,4,49,0.53,16.780,M,15.25,M,0,3335*4E
$GNRMC,041807.700,A,2500.7972597,N,12132.4357344,E,0.02,345.47,090324,,,R,V*19
$GPHDT,,T*1B
$GNACCURACY,3.5*10
$GNGGA,041807.800,2500.7972604,N,12132.4357345,E,4,49,0.53,16.783,M,15.25,M,0,3335*4A
$GNRMC,041807.800,A,2500.7972604,N,12132.4357345,E,0.01,345.47,090324,,,R,V*1D
$GPHDT,138.622,T*39
$GNACCURACY,3.6*13
$GNGGA,041807.900,2500.7972598,N,12132.4357315,E,4,49,0.53,16.769,M,15.25,M,0,3335*4C
$GNRMC,041807.900,A,2500.7972598,N,12132.4357315,E,0.02,345.47,090324,,,R,V*1C
