$FW : RTK35X,V1.1X0314AS,Lib20210517,1*54
$Tool : LOCOSYS , GNSS Firebird , v1.0.0.19*39
$---------------------------------------------------*2D
$GPHDT,,T*1B
$GNACCURACY,3.6*13
$GNGGA,041751.800,2500.7972536,N,12132.4357513,E,4,48,0.54,16.798,M,15.25,M,0,3335*4D
$GNRMC,041751.800,A,2500.7972536,N,12132.4357513,E,0.02,345.47,090324,,,R,V*15
$GPHDT,187.760,T*3A
$GNACCURACY,3.6*13
$GNGGA,041751.900,2500.7972511,N,12132.4357492,E,4,48,0.54,16.775,M,15.25,M,0,3335*42
$GNRMC,041751.900,A,2500.7972511,N,12132.4357492,E,0.01,345.47,090324,,,R,V*1A
$GPHDT,,T*1B
$GNACCURACY,3.6*13
$GNGGA,041752.000,2500.7972523,N,12132.4357528,E,4,49,0.54,16.799,M,15.25,M,1,3335*4B
$GNRMC,041752.000,A,2500.7972523,N,12132.4357528,E,0.01,345.47,090324,,,R,V*11
$GPHDT,187.812,T*30
$GNACCURACY,3.6*13
$GNGGA,041752.100,2500.7972520,N,12132.4357522,E,4,48,0.54,16.792,M,15.25,M,1,3335*49
$GNRMC,041752.100,A,2500.7972520,N,12132.4357522,E,0.01,345.47,090324,,,R,V*19
$GPHDT,,T*1B
$GNGSA,A,3,195,194,21,199,08,02,07,16,196,30,27,,0.98,0.56,0.80,1*0A
$GNGSA,A,3,81,78,88,79,82,,,,,,,,0.98,0.56,0.80,2*0A
$GNGSA,A,3,21,13,26,27,15,,,,,,,,0.98,0.56,0.80,3*0D
$GNGSA,A,3,23,09,06,16,07,40,28,43,39,25,37,,0.98,0.56,0.80,4*00
$GPGSV,4,1,15,195,66,112,42,194,64,054,37,21,64,150,46,199,60,167,37,1*53
$GPGSV,4,2,15,08,60,001,44,50,60,167,39,02,53,175,45,07,45,314,44,1*66
$GPGSV,4,3,15,27,30,038,25,16,26,079,25,09,22,242,12,196,19,168,18,1*59
$GPGSV,4,4,15,04,15,200,15,30,14,319,29,26,06,102,,1*51
$GPGSV,2,1,06,195,66,112,41,194,64,054,40,08,60,001,43,199,60,167,46,8*54
$GPGSV,2,2,06,27,30,038,18,30,14,319,29,8*69
$GLGSV,2,1,06,81,70,206,41,78,58,046,39,88,51,029,38,79,29,337,45,1*7F
$GLGSV,2,2,06,77,21,115,15,82,20,206,20,1*72
$GAGSV,2,1,08,21,55,017,43,13,54,074,31,26,47,171,41,27,28,083,32,7*78
$GAGSV,2,2,08,19,25,238,,04,12,296,,15,11,037,20,33,07,199,,7*73
$GAGSV,1,1,04,21,55,017,37,13,54,074,33,26,47,171,43,27,28,083,29,1*78
$GBGSV,4,1,13,23,75,044,44,09,72,260,35,06,69,214,40,16,66,199,42,1*76
$GBGSV,4,2,13,07,60,311,42,40,60,331,43,28,59,226,44,43,55,035,37,1*77
$GBGSV,4,3,13,39,55,188,44,10,50,292,,25,35,121,39,37,33,322,42,1*7D
$GBGSV,4,4,13,34,08,040,,1*4F
$GBGSV,2,1,06,23,75,044,44,40,60,331,41,28,59,226,42,39,55,188,40,4*7A
$GBGSV,2,2,06,25,35,121,43,37,33,322,43,4*71
$GNACCURACY,3.6*13
$PAIRSAT,1,35,2,0,201,3,0,200,4,0,221,5,0,200,6,0,200,7,0,201,8,0,221,9,0,220,10,0,200,11,0,200,12,0,200,13,0,200,14,0,200,15,0,200,16,0,201,17,0,200,18,0,200,19,0,200,20,0,200,21,0,201,22,0,200,23,0,200,24,0,200,25,0,200,26,0,220,27,0,221,28,0,200,29,0,200,30,0,221,31,0,200,32,0,200,194,0,621,195,0,621,196,0,620,199,0,621*5A
$PAIRSAT,2,24,65,0,200,66,0,200,67,0,200,68,0,200,69,0,200,70,0,200,71,0,200,72,0,200,73,0,200,74,0,200,75,0,200,76,0,200,77,0,201,78,0,201,79,0,201,80,0,200,81,0,201,82,0,201,83,0,200,84,0,200,85,0,200,86,0,200,87,0,200,88,0,201*7A
$PAIRSAT,3,23,2,0,1200,3,0,1200,4,0,1200,5,0,200,7,0,1200,8,0,1200,9,0,1200,10,0,1200,11,0,1200,12,0,1200,13,0,1221,15,0,1220,19,0,1201,21,0,1221,24,0,1200,25,0,1200,26,0,1221,27,0,1221,30,0,1200,31,0,1200,33,0,1200,34,0,1200,36,0,1200*69
$PAIRSAT,4,46,1,0,200,2,0,200,3,0,600,4,0,200,5,0,200,6,0,201,7,0,201,8,0,200,9,0,201,10,0,201,11,0,200,12,0,200,13,0,200,14,0,200,16,0,201,19,0,600,20,0,600,21,0,600,22,0,600,23,0,621,24,0,600,25,0,621,26,0,600,27,0,600,28,0,621,29,0,600,30,0,600,32,0,600,33,0,600,34,0,621,35,0,600,36,0,600,37,0,621,38,0,600,39,0,621,40,0,621,41,0,600,42,0,600,43,0,621,44,0,600,45,0,400,46,0,400,59,0,400,60,0,400,61,0,400,62,0,400*48
$PAIRDGP,10,2,4,7,8,9,16,21,26,27,30*42
$GNGGA,041752.200,2500.7972523,N,12132.4357563,E,4,47,0.56,16.798,M,15.25,M,1,3335*4B
$GNRMC,041752.200,A,2500.7972523,N,12132.4357563,E,0.01,345.47,090324,,,R,V*1C
$GPHDT,187.520,T*3C
$GNACCURACY,3.6*13
$GNGGA,041752.300,2500.7972499,N,12132.4357503,E,4,47,0.56,16.800,M,15.25,M,1,3335*42
$GNRMC,041752.300,A,2500.7972499,N,12132.4357503,E,0.01,345.47,090324,,,R,V*1B
$GPHDT,,T*1B
$GNACCURACY,3.6*13
$GNGGA,041752.400,2500.7972502,N,12132.4357493,E,4,47,0.56,16.798,M,15.25,M,1,3335*40
$GNRMC,041752.400,A,2500.7972502,N,12132.4357493,E,0.01,345.47,090324,,,R,V*17
$GPHDT,186.619,T*34
$GNACCURACY,3.6*13
$GNGGA,041752.500,2500.7972500,N,12132.4357496,E,4,49,0.54,16.788,M,15.25,M,0,3335*4A
$GNRMC,041752.500,A,2500.7972500,N,12132.4357496,E,0.01,345.47,090324,,,R,V*11
$GPHDT,,T*1B
$GNACCURACY,3.6*13
$GNGGA,041752.600,2500.7972503,N,12132.4357468,E,4,48,0.54,16.792,M,15.25,M,0,3335*41
$GNRMC,041752.600,A,2500.7972503,N,12132.4357468,E,0.00,345.47,090324,,,R,V*11
$GPHDT,186.209,T*31
$GNACCURACY,3.6*13
$GNGGA,041752.700,2500.7972502,N,12132.4357507,E,4,49,0.54,16.787,M,15.25,M,0,3335*4C
$GNRMC,041752.700,A,2500.7972502,N,12132.4357507,E,0.00,345.47,090324,,,R,V*19
$GPHDT,,T*1B
$GNACCURACY,3.6*13
$GNGGA,041752.800,2500.7972497,N,12132.4357483,E,4,49,0.54,16.792,M,15.25,M,0,3335*47
$GNRMC,041752.800,A,2500.7972497,N,12132.4357483,E,0.00,345.47,090324,,,R,V*16
$GPHDT,186.668,T*32
$GNACCURACY,3.6*13
$GNGGA,041752.900,2500.7972513,N,12132.4357494,E,4,48,0.56,16.796,M,15.25,M,0,3335*4A
$GNRMC,041752.900,A,2500.7972513,N,12132.4357494,E,0.00,345.47,090324,,,R,V*1C
$GPHDT,,T*1B
$GNACCURACY,3.6*13
$GNGGA,041753.000,2500.7972503,N,12132.4357475,E,4,47,0.57,16.804,M,15.25,M,1,3335*47
$GNRMC,041753.000,A,2500.7972503,N,12132.4357475,E,0.00,345.47,090324,,,R,V*1A
$GPHDT,186.458,T*33
$GNACCURACY,3.6*13
$GNGGA,041753.100,2500.7972501,N,12132.4357493,E,4,47,0.57,16.799,M,15.25,M,1,3335*47
$GNRMC,041753.100,A,2500.7972501,N,12132.4357493,E,0.00,345.47,090324,,,R,V*11
$GPHDT,,T*1B
$GNGSA,A,3,195,194,21,199,08,02,07,16,196,30,,,0.99,0.57,0.81,1*0E
$GNGSA,A,3,81,78,88,79,82,,,,,,,,0.99,0.57,0.81,2*0B
$GNGSA,A,3,21,13,26,27,15,,,,,,,,0.99,0.57,0.81,3*0C
$GNGSA,A,3,23,09,06,16,07,40,28,43,39,25,37,,0.99,0.57,0.81,4*01
$GPGSV,4,1,15,195,66,112,43,194,64,054,38,21,64,150,46,199,60,167,38,1*52
$GPGSV,4,2,15,08,60,001,44,50,60,167,40,02,53,175,45,07,45,314,44,1*68
$GPGSV,4,3,15,27,30,038,24,16,26,079,29,09,22,242,15,196,19,168,17,1*5C
$GPGSV,4,4,15,04,15,200,15,30,14,319,29,26,06,102,,1*51
$GPGSV,2,1,05,195,66,112,41,194,64,054,40,08,60,001,42,199,60,167,46,8*56
$GPGSV,2,2,05,30,14,319,30,8*56
$GLGSV,2,1,06,81,70,206,41,78,58,046,39,88,51,029,39,79,29,337,46,1*7D
$GLGSV,2,2,06,77,21,115,17,82,20,206,20,1*70
$GAGSV,2,1,08,21,55,017,43,13,54,074,32,26,47,171,42,27,28,083,32,7*78
$GAGSV,2,2,08,19,25,238,,04,12,296,,15,11,037,20,33,07,199,,7*73
$GAGSV,2,1,05,21,55,017,35,13,54,074,32,26,47,171,43,27,28,083,31,1*70
$GAGSV,2,2,05,15,11,037,18,1*49
$GBGSV,4,1,13,23,75,044,44,09,72,260,35,06,69,214,41,16,66,200,42,1*74
$GBGSV,4,2,13,07,60,311,42,40,60,331,43,28,59,226,44,43,55,035,39,1*79
$GBGSV,4,3,13,39,55,188,44,10,50,292,,25,35,121,39,37,33,322,41,1*7E
$GBGSV,4,4,13,34,08,040,,1*4F
$GBGSV,2,1,06,23,75,044,44,40,60,331,41,28,59,226,42,39,55,188,40,4*7A
$GBGSV,2,2,06,25,35,121,43,37,33,322,43,4*71
$GNACCURACY,3.6*13
$PAIRSAT,1,35,2,0,201,3,0,200,4,0,221,5,0,200,6,0,200,7,0,201,8,0,221,9,0,220,10,0,200,11,0,200,12,0,200,13,0,200,14,0,200,15,0,200,16,0,201,17,0,200,18,0,200,19,0,200,20,0,200,21,0,201,22,0,200,23,0,200,24,0,200,25,0,200,26,0,220,27,0,221,28,0,200,29,0,200,30,0,221,31,0,200,32,0,200,194,0,621,195,0,621,196,0,620,199,0,621*5A
$PAIRSAT,2,24,65,0,200,66,0,200,67,0,200,68,0,200,69,0,200,70,0,200,71,0,200,72,0,200,73,0,200,74,0,200,75,0,200,76,0,200,77,0,201,78,0,201,79,0,201,80,0,200,81,0,201,82,0,201,83,0,200,84,0,200,85,0,200,86,0,200,87,0,200,88,0,201*7A
$PAIRSAT,3,23,2,0,1200,3,0,1200,4,0,1200,5,0,200,7,0,1200,8,0,1200,9,0,1200,10,0,1200,11,0,1200,12,0,1200,13,0,1221,15,0,1220,19,0,1201,21,0,1221,24,0,1200,25,0,1200,26,0,1221,27,0,1221,30,0,1200,31,0,1200,33,0,1200,34,0,1200,36,0,1200*69
$PAIRSAT,4,46,1,0,200,2,0,200,3,0,600,4,0,200,5,0,200,6,0,201,7,0,201,8,0,200,9,0,201,10,0,201,11,0,200,12,0,200,13,0,200,14,0,200,16,0,201,19,0,600,20,0,600,21,0,600,22,0,600,23,0,621,24,0,600,25,0,621,26,0,600,27,0,600,28,0,621,29,0,600,30,0,600,32,0,600,33,0,600,34,0,621,35,0,600,36,0,600,37,0,621,38,0,600,39,0,621,40,0,621,41,0,600,42,0,600,43,0,621,44,0,600,45,0,400,46,0,400,59,0,400,60,0,400,61,0,400,62,0,400*48
$PAIRDGP,10,2,4,7,8,9,16,21,26,27,30*42
$GNGGA,041753.200,2500.7972517,N,12132.4357498,E,4,47,0.57,16.794,M,15.25,M,1,3335*45
$GNRMC,041753.200,A,2500.7972517,N,12132.4357498,E,0.00,345.47,090324,,,R,V*1E
$GPHDT,186.613,T*3E
$GNACCURACY,3.6*13
$GNGGA,041753.300,2500.7972502,N,12132.4357491,E,4,47,0.56,16.796,M,15.25,M,1,3335*4A
$GNRMC,041753.300,A,2500.7972502,N,12132.4357491,E,0.00,345.47,090324,,,R,V*12
$GPHDT,,T*1B
$GNACCURACY,3.6*13
$GNGGA,041753.400,2500.7972519,N,12132.4357489,E,4,47,0.56,16.788,M,15.25,M,1,3335*41
$GNRMC,041753.400,A,2500.7972519,N,12132.4357489,E,0.00,345.47,090324,,,R,V*16
$GPHDT,186.546,T*3D
$GNACCURACY,3.6*13
$GNGGA,041753.500,2500.7972514,N,12132.4357507,E,4,47,0.56,16.799,M,15.25,M,1,3335*4A
$GNRMC,041753.500,A,2500.7972514,N,12132.4357507,E,0.00,345.47,090324,,,R,V*1D
$GPHDT,,T*1B
$GNACCURACY,3.6*13
$GNGGA,041753.600,2500.7972525,N,12132.4357532,E,4,48,0.54,16.806,M,15.25,M,1,3335*49
$GNRMC,041753.600,A,2500.7972525,N,12132.4357532,E,0.00,345.47,090324,,,R,V*1A
$GPHDT,187.240,T*3D
$GNACCURACY,3.6*13
$GNGGA,041753.700,2500.7972521,N,12132.4357504,E,4,49,0.54,16.820,M,15.25,M,0,3335*4D
$GNRMC,041753.700,A,2500.7972521,N,12132.4357504,E,0.00,345.47,090324,,,R,V*1A
$GPHDT,,T*1B
$GNACCURACY,3.6*13
$GNGGA,041753.800,2500.7972511,N,12132.4357513,E,4,48,0.54,16.790,M,15.25,M,0,3335*42
$GNRMC,041753.800,A,2500.7972511,N,12132.4357513,E,0.00,345.47,090324,,,R,V*10
$GPHDT,186.672,T*39
$GNACCURACY,3.6*13
$GNGGA,041753.900,2500.7972506,N,12132.4357506,E,4,48,0.54,16.808,M,15.25,M,0,3335*4F
$GNRMC,041753.900,A,2500.7972506,N,12132.4357506,E,0.00,345.47,090324,,,R,V*13
$GPHDT,,T*1B
$GNACCURACY,3.6*13
$GNGGA,041754.000,2500.7972524,N,12132.4357503,E,4,49,0.54,16.810,M,15.25,M,1,3335*4D
$GNRMC,041754.000,A,2500.7972524,N,12132.4357503,E,0.00,345.47,090324,,,R,V*18
$GPHDT,186.010,T*3B
$GNACCURACY,3.6*13
$GNGGA,041754.100,2500.7972514,N,12132.4357496,E,4,49,0.54,16.803,M,15.25,M,1,3335*40
$GNRMC,041754.100,A,2500.7972514,N,12132.4357496,E,0.00,345.47,090324,,,R,V*17
$GPHDT,,T*1B
$GNGSA,A,3,195,194,21,199,08,02,07,16,196,04,30,,0.91,0.54,0.73,1*0C
$GNGSA,A,3,81,78,88,79,77,82,,,,,,,0.91,0.54,0.73,2*0D
$GNGSA,A,3,21,13,26,27,15,,,,,,,,0.91,0.54,0.73,3*0A
$GNGSA,A,3,23,09,06,16,07,40,28,39,43,25,37,,0.91,0.54,0.73,4*07
$GPGSV,4,1,15,195,66,112,43,194,64,054,38,21,64,150,46,199,60,167,38,1*52
$GPGSV,4,2,15,08,60,001,43,50,60,167,40,02,53,175,45,07,45,314,44,1*6F
$GPGSV,4,3,15,27,30,038,23,16,26,079,26,09,22,242,16,196,19,168,15,1*55
$GPGSV,4,4,15,04,15,200,15,30,14,319,29,26,06,102,,1*51
$GPGSV,2,1,05,195,66,112,41,194,64,054,40,08,60,001,42,199,60,167,46,8*56
$GPGSV,2,2,05,30,14,319,31,8*57
$GLGSV,2,1,06,81,70,206,41,78,58,046,39,88,51,029,37,79,29,337,46,1*73
$GLGSV,2,2,06,77,21,115,16,82,20,206,19,1*7B
$GAGSV,2,1,08,21,55,017,43,13,54,074,29,26,47,171,42,27,28,083,32,7*72
$GAGSV,2,2,08,19,25,238,,04,12,296,,15,11,037,20,33,07,199,,7*73
$GAGSV,2,1,05,21,55,017,35,13,54,074,33,26,47,171,43,27,28,083,31,1*71
$GAGSV,2,2,05,15,11,037,19,1*48
$GBGSV,4,1,14,23,75,044,44,09,72,260,35,06,69,214,41,16,66,200,42,1*73
$GBGSV,4,2,14,07,60,311,42,40,60,331,43,28,59,226,44,39,55,188,44,1*7E
$GBGSV,4,3,14,43,55,035,38,10,50,292,,25,35,121,38,37,33,322,41,1*79
$GBGSV,4,4,14,27,13,222,,34,08,040,,1*7D
$GBGSV,2,1,06,23,75,044,44,40,60,331,41,28,59,226,42,39,55,188,41,4*7B
$GBGSV,2,2,06,25,35,121,43,37,33,322,43,4*71
$GNACCURACY,3.6*13
$PAIRSAT,1,35,2,0,201,3,0,200,4,0,221,5,0,200,6,0,200,7,0,201,8,0,221,9,0,220,10,0,200,11,0,200,12,0,200,13,0,200,14,0,200,15,0,200,16,0,201,17,0,200,18,0,200,19,0,200,20,0,200,21,0,201,22,0,200,23,0,200,24,0,200,25,0,200,26,0,220,27,0,221,28,0,200,29,0,200,30,0,221,31,0,200,32,0,200,194,0,621,195,0,621,196,0,620,199,0,621*5A
$PAIRSAT,2,24,65,0,200,66,0,200,67,0,200,68,0,200,69,0,200,70,0,200,71,0,200,72,0,200,73,0,200,74,0,200,75,0,200,76,0,200,77,0,201,78,0,201,79,0,201,80,0,200,81,0,201,82,0,201,83,0,200,84,0,200,85,0,200,86,0,200,87,0,200,88,0,201*7A
$PAIRSAT,3,23,2,0,1200,3,0,1200,4,0,1200,5,0,200,7,0,1200,8,0,1200,9,0,1200,10,0,1200,11,0,1200,12,0,1200,13,0,1221,15,0,1220,19,0,1201,21,0,1221,24,0,1200,25,0,1200,26,0,1221,27,0,1221,30,0,1200,31,0,1200,33,0,1200,34,0,1200,36,0,1200*69
$PAIRSAT,4,46,1,0,200,2,0,200,3,0,600,4,0,200,5,0,200,6,0,201,7,0,201,8,0,200,9,0,201,10,0,201,11,0,200,12,0,200,13,0,200,14,0,200,16,0,201,19,0,600,20,0,600,21,0,600,22,0,600,23,0,621,24,0,600,25,0,621,26,0,600,27,0,600,28,0,621,29,0,600,30,0,600,32,0,600,33,0,600,34,0,621,35,0,600,36,0,600,37,0,621,38,0,600,39,0,621,40,0,621,41,0,600,42,0,600,43,0,621,44,0,600,45,0,400,46,0,400,59,0,400,60,0,400,61,0,400,62,0,400*48
$PAIRDGP,10,2,4,7,8,9,16,21,26,27,30*42
$GNGGA,041754.200,2500.7972516,N,12132.4357499,E,4,49,0.54,16.819,M,15.25,M,1,3335*45
$GNRMC,041754.200,A,2500.7972516,N,12132.4357499,E,0.00,345.47,090324,,,R,V*19
$GPHDT,185.553,T*3A
$GNACCURACY,3.6*13
$GNGGA,041754.300,2500.7972519,N,12132.4357492,E,4,48,0.56,16.808,M,15.25,M,1,3335*43
$GNRMC,041754.300,A,2500.7972519,N,12132.4357492,E,0.00,345.47,090324,,,R,V*1C
$GPHDT,,T*1B
$GNACCURACY,3.6*13
$GNGGA,041754.400,2500.7972520,N,12132.4357520,E,4,48,0.56,16.799,M,15.25,M,1,3335*41
$GNRMC,041754.400,A,2500.7972520,N,12132.4357520,E,0.00,345.47,090324,,,R,V*19
$GPHDT,185.725,T*39
$GNACCURACY,3.6*13
$GNGGA,041754.500,2500.7972497,N,12132.4357512,E,4,48,0.56,16.802,M,15.25,M,0,3335*40
$GNRMC,041754.500,A,2500.7972497,N,12132.4357512,E,0.00,345.47,090324,,,R,V*14
$GPHDT,,T*1B
$GNACCURACY,3.6*13
$GNGGA,041754.600,2500.7972524,N,12132.4357511,E,4,47,0.56,16.800,M,15.25,M,0,3335*44
$GNRMC,041754.600,A,2500.7972524,N,12132.4357511,E,0.00,345.47,090324,,,R,V*1D
$GPHDT,184.721,T*3C
$GNACCURACY,3.6*13
$GNGGA,041754.700,2500.7972508,N,12132.4357485,E,4,47,0.56,16.809,M,15.25,M,0,3335*4E
$GNRMC,041754.700,A,2500.7972508,N,12132.4357485,E,0.00,345.47,090324,,,R,V*1E
$GPHDT,,T*1B
$GNACCURACY,3.6*13
$GNGGA,041754.800,2500.7972516,N,12132.4357506,E,4,47,0.56,16.807,M,15.25,M,0,3335*4A
$GNRMC,041754.800,A,2500.7972516,N,12132.4357506,E,0.00,345.47,090324,,,R,V*14
$GPHDT,185.055,T*39
$GNACCURACY,3.6*13
$GNGGA,041754.900,2500.7972514,N,12132.4357518,E,4,48,0.56,16.806,M,15.25,M,0,3335*48
$GNRMC,041754.900,A,2500.7972514,N,12132.4357518,E,0.00,345.47,090324,,,R,V*18
$GPHDT,,T*1B
$GNACCURACY,3.6*13
$GNGGA,041755.000,2500.7972498,N,12132.4357508,E,4,48,0.56,16.800,M,15.25,M,1,3335*43
$GNRMC,041755.000,A,2500.7972498,N,12132.4357508,E,0.00,345.47,090324,,,R,V*14
$GPHDT,185.050,T*3C
$GNACCURACY,3.6*13
$GNGGA,041755.100,2500.7972510,N,12132.4357473,E,4,48,0.56,16.807,M,15.25,M,1,3335*49
$GNRMC,041755.100,A,2500.7972510,N,12132.4357473,E,0.00,345.47,090324,,,R,V*19
$GPHDT,,T*1B
$GNGSA,A,3,195,194,21,199,08,02,07,16,196,30,,,0.96,0.56,0.78,1*06
$GNGSA,A,3,81,78,88,79,77,82,,,,,,,0.96,0.56,0.78,2*03
$GNGSA,A,3,21,13,26,27,15,,,,,,,,0.96,0.56,0.78,3*04
$GNGSA,A,3,23,09,06,16,07,28,40,39,43,25,37,,0.96,0.56,0.78,4*09
$GPGSV,4,1,15,195,66,112,43,194,64,054,38,21,64,150,46,199,60,167,38,1*52
$GPGSV,4,2,15,08,60,001,42,50,60,167,40,02,53,175,45,07,45,314,44,1*6E
$GPGSV,4,3,15,27,30,038,20,16,26,079,27,09,22,242,17,196,19,168,16,1*55
$GPGSV,4,4,15,04,15,200,14,30,14,319,29,26,06,102,,1*50
$GPGSV,2,1,05,195,66,112,41,194,64,054,39,08,60,001,42,199,60,167,46,8*58
$GPGSV,2,2,05,30,14,319,31,8*57
$GLGSV,2,1,06,81,70,206,41,78,58,046,38,88,51,029,37,79,29,337,46,1*72
$GLGSV,2,2,06,77,21,115,16,82,20,206,17,1*75
$GAGSV,2,1,08,21,55,017,43,13,54,074,29,26,47,171,42,27,28,083,32,7*72
$GAGSV,2,2,08,19,25,238,,04,12,296,,15,11,037,20,33,07,199,,7*73
$GAGSV,2,1,05,21,55,017,32,13,54,074,33,26,47,171,43,27,28,083,30,1*77
$GAGSV,2,2,05,15,11,037,19,1*48
$GBGSV,4,1,13,23,75,044,44,09,72,260,35,06,69,214,41,16,66,200,42,1*74
$GBGSV,4,2,13,07,60,311,42,28,59,226,44,40,59,331,43,39,55,188,44,1*73
$GBGSV,4,3,13,43,55,035,37,10,50,292,,25,35,121,38,37,33,323,41,1*70
$GBGSV,4,4,13,34,08,040,,1*4F
$GBGSV,2,1,06,23,75,044,44,28,59,226,42,40,59,331,41,39,55,188,41,4*71
$GBGSV,2,2,06,25,35,121,43,37,33,323,43,4*70
$GNACCURACY,3.6*13
$PAIRSAT,1,35,2,0,201,3,0,200,4,0,221,5,0,200,6,0,200,7,0,201,8,0,221,9,0,220,10,0,200,11,0,200,12,0,200,13,0,200,14,0,200,15,0,200,16,0,201,17,0,200,18,0,200,19,0,200,20,0,200,21,0,201,22,0,200,23,0,200,24,0,200,25,0,200,26,0,220,27,0,221,28,0,200,29,0,200,30,0,221,31,0,200,32,0,200,194,0,621,195,0,621,196,0,620,199,0,621*5A
$PAIRSAT,2,24,65,0,200,66,0,200,67,0,200,68,0,200,69,0,200,70,0,200,71,0,200,72,0,200,73,0,200,74,0,200,75,0,200,76,0,200,77,0,201,78,0,201,79,0,201,80,0,200,81,0,201,82,0,201,83,0,200,84,0,200,85,0,200,86,0,200,87,0,200,88,0,201*7A
$PAIRSAT,3,23,2,0,1200,3,0,1200,4,0,1200,5,0,200,7,0,1200,8,0,1200,9,0,1200,10,0,1200,11,0,1200,12,0,1200,13,0,1221,15,0,1220,19,0,1201,21,0,1221,24,0,1200,25,0,1200,26,0,1221,27,0,1221,30,0,1200,31,0,1200,33,0,1200,34,0,1200,36,0,1200*69
$PAIRSAT,4,46,1,0,200,2,0,200,3,0,600,4,0,200,5,0,200,6,0,201,7,0,201,8,0,200,9,0,201,10,0,201,11,0,200,12,0,200,13,0,200,14,0,200,16,0,201,19,0,600,20,0,600,21,0,600,22,0,600,23,0,621,24,0,600,25,0,621,26,0,600,27,0,600,28,0,621,29,0,600,30,0,600,32,0,600,33,0,600,34,0,621,35,0,600,36,0,600,37,0,621,38,0,600,39,0,621,40,0,621,41,0,600,42,0,600,43,0,621,44,0,600,45,0,400,46,0,400,59,0,400,60,0,400,61,0,400,62,0,400*48
$PAIRDGP,10,2,4,7,8,9,16,21,26,27,30*42
$GNGGA,041755.200,2500.7972503,N,12132.4357517,E,4,48,0.56,16.804,M,15.25,M,1,3335*48
$GNRMC,041755.200,A,2500.7972503,N,12132.4357517,E,0.00,345.47,090324,,,R,V*1B
$GPHDT,185.172,T*3D
$GNACCURACY,3.6*13
$GNGGA,041755.300,2500.7972515,N,12132.4357521,E,4,48,0.56,16.811,M,15.25,M,1,3335*4F
$GNRMC,041755.300,A,2500.7972515,N,12132.4357521,E,0.00,345.47,090324,,,R,V*18
$GPHDT,,T*1B
$GNACCURACY,3.6*13
$GNGGA,041755.400,2500.7972519,N,12132.4357501,E,4,48,0.56,16.806,M,15.25,M,1,3335*40
$GNRMC,041755.400,A,2500.7972519,N,12132.4357501,E,0.00,345.47,090324,,,R,V*11
$GPHDT,185.325,T*3D
$GNACCURACY,3.6*13
$GNGGA,041755.500,2500.7972505,N,12132.4357478,E,4,48,0.56,16.802,M,15.25,M,0,3335*46
$GNRMC,041755.500,A,2500.7972505,N,12132.4357478,E,0.00,345.47,090324,,,R,V*12
$GPHDT,,T*1B
$GNACCURACY,3.6*13
$GNGGA,041755.600,2500.7972523,N,12132.4357524,E,4,48,0.56,16.811,M,15.25,M,0,3335*4B
$GNRMC,041755.600,A,2500.7972523,N,12132.4357524,E,0.00,345.47,090324,,,R,V*1D
$GPHDT,185.711,T*3E
$GNACCURACY,3.6*13
$GNGGA,041755.700,2500.7972512,N,12132.4357503,E,4,48,0.56,16.806,M,15.25,M,0,3335*4B
$GNRMC,041755.700,A,2500.7972512,N,12132.4357503,E,0.00,345.47,090324,,,R,V*1B
$GPHDT,,T*1B
$GNACCURACY,3.6*13
$GNGGA,041755.800,2500.7972514,N,12132.4357507,E,4,48,0.56,16.802,M,15.25,M,0,3335*42
$GNRMC,041755.800,A,2500.7972514,N,12132.4357507,E,0.00,345.47,090324,,,R,V*16
$GPHDT,185.475,T*3F
$GNACCURACY,3.6*13
$GNGGA,041755.900,2500.7972520,N,12132.4357501,E,4,48,0.56,16.807,M,15.25,M,0,3335*47
$GNRMC,041755.900,A,2500.7972520,N,12132.4357501,E,0.00,345.47,090324,,,R,V*16
$GPHDT,,T*1B
$GNACCURACY,3.6*13
$GNGGA,041756.000,2500.7972504,N,12132.4357473,E,4,49,0.55,16.811,M,15.25,M,1,3335*4B
$GNRMC,041756.000,A,2500.7972504,N,12132.4357473,E,0.00,345.47,090324,,,R,V*1E
$GPHDT,184.796,T*30
$GNACCURACY,3.6*13
$GNGGA,041756.100,2500.7972514,N,12132.4357502,E,4,49,0.55,16.810,M,15.25,M,1,3335*4D
$GNRMC,041756.100,A,2500.7972514,N,12132.4357502,E,0.00,345.47,090324,,,R,V*19
$GPHDT,,T*1B
$GNGSA,A,3,195,194,21,199,08,02,07,16,196,30,27,,0.95,0.55,0.78,1*03
$GNGSA,A,3,81,78,88,79,77,82,,,,,,,0.95,0.55,0.78,2*03
$GNGSA,A,3,21,13,26,27,15,,,,,,,,0.95,0.55,0.78,3*04
$GNGSA,A,3,23,09,06,16,07,28,40,39,43,25,37,,0.95,0.55,0.78,4*09
$GPGSV,4,1,15,195,66,112,43,194,64,054,38,21,64,150,46,199,60,167,38,1*52
$GPGSV,4,2,15,08,60,001,42,50,60,167,40,02,53,175,45,07,45,314,44,1*6E
$GPGSV,4,3,15,27,30,038,19,16,26,079,29,09,22,242,17,196,19,168,17,1*50
$GPGSV,4,4,15,04,15,200,14,30,14,319,29,26,06,102,,1*50
$GPGSV,2,1,06,195,66,112,41,194,64,054,39,08,60,001,41,199,60,167,46,8*58
$GPGSV,2,2,06,27,30,038,24,30,14,319,30,8*6E
$GLGSV,2,1,06,81,70,206,41,78,58,046,38,88,51,029,37,79,29,337,46,1*72
$GLGSV,2,2,06,77,21,115,17,82,20,206,17,1*74
$GAGSV,2,1,08,21,55,017,43,13,54,074,29,26,47,171,42,27,28,083,32,7*72
$GAGSV,2,2,08,19,25,238,,04,12,296,,15,11,037,20,33,07,199,,7*73
$GAGSV,2,1,05,21,55,017,34,13,54,074,33,26,47,171,43,27,28,083,29,1*79
$GAGSV,2,2,05,15,11,037,19,1*48
$GBGSV,4,1,13,23,75,044,44,09,72,260,35,06,69,214,41,16,66,200,42,1*74
$GBGSV,4,2,13,07,60,311,42,28,59,226,44,40,59,331,43,39,55,188,44,1*73
$GBGSV,4,3,13,43,55,035,37,10,50,292,,25,35,121,38,37,33,323,42,1*73
$GBGSV,4,4,13,34,08,040,,1*4F
$GBGSV,2,1,06,23,75,044,44,28,59,226,42,40,59,331,41,39,55,188,41,4*71
$GBGSV,2,2,06,25,35,121,43,37,33,323,43,4*70
$GNACCURACY,3.6*13
$PAIRSAT,1,35,2,0,201,3,0,200,4,0,221,5,0,200,6,0,200,7,0,201,8,0,221,9,0,220,10,0,200,11,0,200,12,0,200,13,0,200,14,0,200,15,0,200,16,0,201,17,0,200,18,0,200,19,0,200,20,0,200,21,0,201,22,0,200,23,0,200,24,0,200,25,0,200,26,0,220,27,0,221,28,0,200,29,0,200,30,0,221,31,0,200,32,0,200,194,0,621,195,0,621,196,0,620,199,0,621*5A
$PAIRSAT,2,24,65,0,200,66,0,200,67,0,200,68,0,200,69,0,200,70,0,200,71,0,200,72,0,200,73,0,200,74,0,200,75,0,200,76,0,200,77,0,201,78,0,201,79,0,201,80,0,200,81,0,201,82,0,201,83,0,200,84,0,200,85,0,200,86,0,200,87,0,200,88,0,201*7A
$PAIRSAT,3,23,2,0,1200,3,0,1200,4,0,1200,5,0,200,7,0,1200,8,0,1200,9,0,1200,10,0,1200,11,0,1200,12,0,1200,13,0,1221,15,0,1220,19,0,1201,21,0,1221,24,0,1200,25,0,1200,26,0,1221,27,0,1221,30,0,1200,31,0,1200,33,0,1200,34,0,1200,36,0,1200*69
$PAIRSAT,4,46,1,0,200,2,0,200,3,0,600,4,0,200,5,0,200,6,0,201,7,0,201,8,0,200,9,0,201,10,0,201,11,0,200,12,0,200,13,0,200,14,0,200,16,0,201,19,0,600,20,0,600,21,0,600,22,0,600,23,0,621,24,0,600,25,0,621,26,0,600,27,0,600,28,0,621,29,0,600,30,0,600,32,0,600,33,0,600,34,0,621,35,0,600,36,0,600,37,0,621,38,0,600,39,0,621,40,0,621,41,0,600,42,0,600,43,0,621,44,0,600,45,0,400,46,0,400,59,0,400,60,0,400,61,0,400,62,0,400*48
$PAIRDGP,10,2,4,7,8,9,16,21,26,27,30*42
$GNGGA,041756.200,2500.7972506,N,12132.4357532,E,4,49,0.55,16.797,M,15.25,M,1,3335*4E
$GNRMC,041756.200,A,2500.7972506,N,12132.4357532,E,0.00,345.47,090324,,,R,V*1A
$GPHDT,185.459,T*31
$GNACCURACY,3.6*13
$GNGGA,041756.300,2500.7972520,N,12132.4357491,E,4,49,0.55,16.822,M,15.25,M,1,3335*42
$GNRMC,041756.300,A,2500.7972520,N,12132.4357491,E,0.01,345.47,090324,,,R,V*16
$GPHDT,,T*1B
$GNACCURACY,3.6*13
$GNGGA,041756.400,2500.7972503,N,12132.4357511,E,4,49,0.55,16.800,M,15.25,M,1,3335*4D
$GNRMC,041756.400,A,2500.7972503,N,12132.4357511,E,0.01,345.47,090324,,,R,V*19
$GPHDT,185.077,T*39
$GNACCURACY,3.6*13
$GNGGA,041756.500,2500.7972515,N,12132.4357513,E,4,49,0.55,16.801,M,15.25,M,1,3335*48
$GNRMC,041756.500,A,2500.7972515,N,12132.4357513,E,0.01,345.47,090324,,,R,V*1D
$GPHDT,,T*1B
$GNACCURACY,3.6*13
$GNGGA,041756.600,2500.7972523,N,12132.4357544,E,4,48,0.55,16.806,M,15.25,M,1,3335*4A
$GNRMC,041756.600,A,2500.7972523,N,12132.4357544,E,0.01,345.47,090324,,,R,V*19
$GPHDT,185.280,T*33
$GNACCURACY,3.6*13
$GNGGA,041756.700,2500.7972499,N,12132.4357482,E,4,48,0.55,16.808,M,15.25,M,0,3335*4F
$GNRMC,041756.700,A,2500.7972499,N,12132.4357482,E,0.01,345.47,090324,,,R,V*13
$GPHDT,,T*1B
$GNACCURACY,3.6*13
$GNGGA,041756.800,2500.7972514,N,12132.4357504,E,4,48,0.55,16.802,M,15.25,M,0,3335*41
$GNRMC,041756.800,A,2500.7972514,N,12132.4357504,E,0.01,345.47,090324,,,R,V*17
$GPHDT,185.360,T*3C
$GNACCURACY,3.6*13
$GNGGA,041756.900,2500.7972502,N,12132.4357510,E,4,48,0.55,16.809,M,15.25,M,0,3335*49
$GNRMC,041756.900,A,2500.7972502,N,12132.4357510,E,0.01,345.47,090324,,,R,V*14
$GPHDT,,T*1B
$GNACCURACY,3.6*13
$GNGGA,041757.000,2500.7972503,N,12132.4357488,E,4,48,0.55,16.816,M,15.25,M,1,3335*4F
$GNRMC,041757.000,A,2500.7972503,N,12132.4357488,E,0.01,345.47,090324,,,R,V*1D
$GPHDT,185.136,T*3D
$GNACCURACY,3.6*13
$GNGGA,041757.100,2500.7972518,N,12132.4357525,E,4,48,0.55,16.815,M,15.25,M,1,3335*41
$GNRMC,041757.100,A,2500.7972518,N,12132.4357525,E,0.01,345.47,090324,,,R,V*10
$GPHDT,,T*1B
$GNGSA,A,3,195,194,21,199,08,02,07,16,196,30,27,,0.95,0.55,0.78,1*03
$GNGSA,A,3,81,78,88,79,77,82,,,,,,,0.95,0.55,0.78,2*03
$GNGSA,A,3,21,13,26,27,15,,,,,,,,0.95,0.55,0.78,3*04
$GNGSA,A,3,23,09,06,16,07,28,40,39,43,25,37,,0.95,0.55,0.78,4*09
$GPGSV,4,1,15,195,66,112,43,194,64,054,38,21,64,150,46,199,60,167,38,1*52
$GPGSV,4,2,15,08,60,001,42,50,60,167,41,02,53,175,45,07,45,314,44,1*6F
$GPGSV,4,3,15,27,30,038,25,16,26,079,30,09,22,242,16,196,19,168,17,1*56
$GPGSV,4,4,15,04,15,200,13,30,14,319,28,26,06,102,,1*56
$GPGSV,2,1,06,195,66,112,41,194,64,054,39,08,60,001,41,199,60,167,46,8*58
$GPGSV,2,2,06,27,30,038,25,30,14,319,33,8*6C
$GLGSV,2,1,06,81,70,206,41,78,58,046,37,88,51,029,34,79,29,337,46,1*7E
$GLGSV,2,2,06,77,21,115,18,82,20,206,17,1*7B
$GAGSV,2,1,08,21,55,017,42,13,54,074,27,26,47,171,42,27,28,083,32,7*7D
$GAGSV,2,2,08,19,25,238,,04,12,296,,15,11,037,20,33,07,199,,7*73
$GAGSV,1,1,04,13,54,074,33,26,47,171,43,27,28,083,30,15,11,037,20,1*73
$GBGSV,4,1,14,23,75,044,44,09,72,260,35,06,69,214,41,16,66,200,42,1*73
$GBGSV,4,2,14,07,60,311,42,28,59,226,43,40,59,331,43,39,55,188,44,1*73
$GBGSV,4,3,14,43,55,035,37,10,50,292,,25,35,121,38,37,33,323,43,1*75
$GBGSV,4,4,14,34,08,040,,08,02,177,,1*73
$GBGSV,2,1,06,23,75,044,44,28,59,226,42,40,59,331,41,39,55,188,41,4*71
$GBGSV,2,2,06,25,35,121,43,37,33,323,43,4*70
$GNACCURACY,3.6*13
$PAIRSAT,1,35,2,0,201,3,0,200,4,0,221,5,0,200,6,0,200,7,0,201,8,0,221,9,0,220,10,0,200,11,0,200,12,0,200,13,0,200,14,0,200,15,0,200,16,0,201,17,0,200,18,0,200,19,0,200,20,0,200,21,0,201,22,0,200,23,0,200,24,0,200,25,0,200,26,0,220,27,0,221,28,0,200,29,0,200,30,0,221,31,0,200,32,0,200,194,0,621,195,0,621,196,0,620,199,0,621*5A
$PAIRSAT,2,24,65,0,200,66,0,200,67,0,200,68,0,200,69,0,200,70,0,200,71,0,200,72,0,200,73,0,200,74,0,200,75,0,200,76,0,200,77,0,201,78,0,201,79,0,201,80,0,200,81,0,201,82,0,201,83,0,200,84,0,200,85,0,200,86,0,200,87,0,200,88,0,201*7A
$PAIRSAT,3,23,2,0,1200,3,0,1200,4,0,1200,5,0,200,7,0,1200,8,0,1200,9,0,1200,10,0,1200,11,0,1200,12,0,1200,13,0,1221,15,0,1220,19,0,1201,21,0,1221,24,0,1200,25,0,1200,26,0,1221,27,0,1221,30,0,1200,31,0,1200,33,0,1200,34,0,1200,36,0,1200*69
$PAIRSAT,4,46,1,0,200,2,0,200,3,0,600,4,0,200,5,0,200,6,0,201,7,0,201,8,0,200,9,0,201,10,0,201,11,0,200,12,0,200,13,0,200,14,0,200,16,0,201,19,0,600,20,0,600,21,0,600,22,0,600,23,0,621,24,0,600,25,0,621,26,0,600,27,0,600,28,0,621,29,0,600,30,0,600,32,0,600,33,0,600,34,0,621,35,0,600,36,0,600,37,0,621,38,0,600,39,0,621,40,0,621,41,0,600,42,0,600,43,0,621,44,0,600,45,0,600,46,0,400,59,0,400,60,0,400,61,0,400,62,0,400*4A
$PAIRDGP,10,2,4,7,8,9,16,21,26,27,30*42
$GNGGA,041757.200,2500.7972496,N,12132.4357478,E,4,48,0.55,16.794,M,15.25,M,1,3335*4A
$GNRMC,041757.200,A,2500.7972496,N,12132.4357478,E,0.01,345.47,090324,,,R,V*1D
$GPHDT,184.985,T*3C
$GNACCURACY,3.6*13
$GNGGA,041757.300,2500.7972502,N,12132.4357472,E,4,49,0.55,16.819,M,15.25,M,1,3335*46
$GNRMC,041757.300,A,2500.7972502,N,12132.4357472,E,0.01,345.47,090324,,,R,V*1A
$GPHDT,,T*1B
$GNACCURACY,3.6*13
$GNGGA,041757.400,2500.7972512,N,12132.4357470,E,4,49,0.55,16.812,M,15.25,M,1,3335*49
$GNRMC,041757.400,A,2500.7972512,N,12132.4357470,E,0.01,345.47,090324,,,R,V*1E
$GPHDT,184.637,T*3A
$GNACCURACY,