$FW : RTK35X,V1.1X0314AS,Lib20210517,1*54
$Tool : LOCOSYS , GNSS Firebird , v1.0.0.19*39
$---------------------------------------------------*2D
1,0.53,0.74,3*0A
$GNGSA,A,3,23,09,06,16,07,40,28,39,43,25,37,,0.91,0.53,0.74,4*07
$GPGSV,4,1,15,195,66,112,41,194,64,054,34,21,64,151,43,199,60,167,35,1*55
$GPGSV,4,2,15,08,60,001,45,50,60,167,37,02,52,176,43,07,45,314,44,1*6D
$GPGSV,4,3,15,27,30,038,31,16,26,079,21,09,22,243,14,196,19,168,19,1*5E
$GPGSV,4,4,15,04,15,200,16,30,14,319,31,26,06,102,,1*5B
$GPGSV,2,1,06,195,66,112,36,194,64,054,41,08,60,001,47,199,60,167,47,8*50
$GPGSV,2,2,06,27,30,038,32,30,14,319,36,8*6F
$GLGSV,2,1,07,81,70,206,43,78,58,046,38,88,51,029,42,79,29,336,44,1*70
$GLGSV,2,2,07,77,21,115,14,82,19,206,,69,02,277,,1*45
$GAGSV,2,1,08,21,55,017,41,13,54,075,37,26,47,171,41,27,28,083,31,7*7E
$GAGSV,2,2,08,19,25,238,,04,12,296,,15,11,037,21,33,07,199,,7*72
$GAGSV,1,1,04,21,55,017,44,13,54,075,33,26,47,171,44,15,11,037,14,1*70
$GBGSV,4,1,14,23,75,044,45,09,72,260,34,06,69,214,42,16,66,199,42,1*73
$GBGSV,4,2,14,07,60,311,42,40,60,331,44,28,59,226,47,39,55,188,45,1*7B
$GBGSV,4,3,14,43,55,035,40,10,50,292,,25,35,121,30,37,33,322,44,1*7B
$GBGSV,4,4,14,34,08,040,,08,02,177,,1*73
$GBGSV,2,1,06,23,75,044,43,40,60,331,41,28,59,226,43,39,55,188,42,4*7E
$GBGSV,2,2,06,25,35,121,37,37,33,322,44,4*75
$GNACCURACY,3.8*1D
$PAIRSAT,1,35,2,0,201,3,0,200,4,0,221,5,0,200,6,0,200,7,0,201,8,0,221,9,0,220,10,0,200,11,0,200,12,0,200,13,0,200,14,0,200,15,0,200,16,0,201,17,0,200,18,0,200,19,0,200,20,0,200,21,0,201,22,0,200,23,0,200,24,0,200,25,0,200,26,0,220,27,0,221,28,0,200,29,0,200,30,0,221,31,0,200,32,0,200,194,0,621,195,0,621,196,0,620,199,0,621*5A
$PAIRSAT,2,24,65,0,200,66,0,200,67,0,200,68,0,200,69,0,200,70,0,200,71,0,200,72,0,200,73,0,200,74,0,200,75,0,200,76,0,200,77,0,201,78,0,201,79,0,201,80,0,200,81,0,201,82,0,201,83,0,200,84,0,200,85,0,200,86,0,200,87,0,200,88,0,201*7A
$PAIRSAT,3,23,2,0,1200,3,0,1200,4,0,1200,5,0,200,7,0,1200,8,0,1200,9,0,1200,10,0,1200,11,0,1200,12,0,1200,13,0,1221,15,0,1220,19,0,1201,21,0,1221,24,0,1200,25,0,1200,26,0,1221,27,0,1221,30,0,1200,31,0,1200,33,0,1200,34,0,1200,36,0,1200*69
$PAIRSAT,4,46,1,0,200,2,0,200,3,0,600,4,0,200,5,0,200,6,0,201,7,0,201,8,0,200,9,0,201,10,0,201,11,0,200,12,0,200,13,0,200,14,0,200,16,0,201,19,0,600,20,0,600,21,0,600,22,0,600,23,0,621,24,0,600,25,0,621,26,0,600,27,0,600,28,0,621,29,0,600,30,0,600,32,0,600,33,0,600,34,0,621,35,0,600,36,0,600,37,0,621,38,0,600,39,0,621,40,0,621,41,0,600,42,0,600,43,0,621,44,0,600,45,0,400,46,0,400,59,0,400,60,0,400,61,0,400,62,0,400*48
$PAIRDGP,10,2,4,7,8,9,16,21,26,27,30*42
$GNGGA,041741.200,2500.7972455,N,12132.4357426,E,4,49,0.53,16.768,M,15.25,M,1,3335*4D
$GNRMC,041741.200,A,2500.7972455,N,12132.4357426,E,0.02,345.47,090324,,,R,V*1D
$GPHDT,229.782,T*31
$GNACCURACY,3.6*13
$GNGGA,041741.300,2500.7972439,N,12132.4357444,E,4,49,0.53,16.741,M,15.25,M,1,3335*49
$GNRMC,041741.300,A,2500.7972439,N,12132.4357444,E,0.02,345.47,090324,,,R,V*12
$GPHDT,,T*1B
$GNACCURACY,3.6*13
$GNGGA,041741.400,2500.7972461,N,12132.4357420,E,4,49,0.53,16.763,M,15.25,M,1,3335*41
$GNRMC,041741.400,A,2500.7972461,N,12132.4357420,E,0.02,345.47,090324,,,R,V*1A
$GPHDT,229.486,T*36
$GNACCURACY,3.6*13
$GNGGA,041741.500,2500.7972460,N,12132.4357446,E,4,52,0.50,16.756,M,15.25,M,0,3335*4F
$GNRMC,041741.500,A,2500.7972460,N,12132.4357446,E,0.02,345.47,090324,,,R,V*1A
$GPHDT,,T*1B
$GNACCURACY,3.6*13
$GNGGA,041741.600,2500.7972461,N,12132.4357423,E,4,51,0.50,16.753,M,15.25,M,0,3335*48
$GNRMC,041741.600,A,2500.7972461,N,12132.4357423,E,0.02,345.47,090324,,,R,V*1B
$GPHDT,229.814,T*31
$GNACCURACY,3.6*13
$GNGGA,041741.700,2500.7972469,N,12132.4357483,E,4,51,0.50,16.745,M,15.25,M,0,3335*4C
$GNRMC,041741.700,A,2500.7972469,N,12132.4357483,E,0.02,345.47,090324,,,R,V*18
$GPHDT,,T*1B
$GNACCURACY,3.6*13
$GNGGA,041741.800,2500.7972466,N,12132.4357425,E,4,50,0.52,16.757,M,15.25,M,0,3335*40
$GNRMC,041741.800,A,2500.7972466,N,12132.4357425,E,0.02,345.47,090324,,,R,V*14
$GPHDT,230.114,T*30
$GNACCURACY,3.6*13
$GNGGA,041741.900,2500.7972473,N,12132.4357506,E,4,50,0.52,16.744,M,15.25,M,0,3335*47
$GNRMC,041741.900,A,2500.7972473,N,12132.4357506,E,0.02,345.47,090324,,,R,V*11
$GPHDT,,T*1B
$GNACCURACY,3.6*13
$GNGGA,041742.000,2500.7972462,N,12132.4357455,E,4,49,0.54,16.741,M,15.25,M,1,3335*40
$GNRMC,041742.000,A,2500.7972462,N,12132.4357455,E,0.02,345.47,090324,,,R,V*1C
$GPHDT,230.556,T*32
$GNACCURACY,3.6*13
$GNGGA,041742.100,2500.7972472,N,12132.4357477,E,4,49,0.54,16.738,M,15.25,M,1,3335*4E
$GNRMC,041742.100,A,2500.7972472,N,12132.4357477,E,0.02,345.47,090324,,,R,V*1C
$GPHDT,,T*1B
$GNGSA,A,3,195,194,21,199,08,02,07,27,16,09,196,30,0.93,0.54,0.76,1*03
$GNGSA,A,3,81,78,88,79,82,,,,,,,,0.93,0.54,0.76,2*0A
$GNGSA,A,3,21,13,26,27,15,,,,,,,,0.93,0.54,0.76,3*0D
$GNGSA,A,3,23,09,06,16,07,40,28,43,39,25,37,,0.93,0.54,0.76,4*00
$GPGSV,4,1,15,195,66,112,41,194,64,054,34,21,64,151,43,199,60,167,35,1*55
$GPGSV,4,2,15,08,60,001,45,50,60,167,37,02,53,175,43,07,45,314,45,1*6E
$GPGSV,4,3,15,27,30,038,28,16,26,079,24,09,22,242,15,196,19,168,20,1*59
$GPGSV,4,4,15,04,15,200,15,30,14,319,31,26,06,102,,1*58
$GPGSV,2,1,06,195,66,112,37,194,64,054,41,08,60,001,47,199,60,167,47,8*51
$GPGSV,2,2,06,27,30,038,32,30,14,319,36,8*6F
$GLGSV,2,1,06,81,70,206,43,78,58,046,38,88,51,029,42,79,29,336,44,1*71
$GLGSV,2,2,06,77,21,115,12,82,19,206,18,1*74
$GAGSV,2,1,08,21,55,017,41,13,54,075,34,26,47,171,41,27,28,083,31,7*7D
$GAGSV,2,2,08,19,25,238,,04,12,296,,15,11,037,21,33,07,199,,7*72
$GAGSV,2,1,05,21,55,017,44,13,54,075,31,26,47,171,44,27,28,083,30,1*72
$GAGSV,2,2,05,15,11,037,14,1*45
$GBGSV,4,1,13,23,75,044,44,09,72,260,34,06,69,214,42,16,66,199,42,1*75
$GBGSV,4,2,13,07,60,311,42,40,60,331,44,28,59,226,47,43,55,035,38,1*7C
$GBGSV,4,3,13,39,55,188,45,10,50,292,,25,35,121,30,37,33,322,44,1*73
$GBGSV,4,4,13,34,08,040,,1*4F
$GBGSV,2,1,06,23,75,044,42,40,60,331,42,28,59,226,43,39,55,188,42,4*7C
$GBGSV,2,2,06,25,35,121,38,37,33,322,44,4*7A
$GNACCURACY,3.6*13
$PAIRSAT,1,35,2,0,201,3,0,200,4,0,221,5,0,200,6,0,200,7,0,201,8,0,221,9,0,220,10,0,200,11,0,200,12,0,200,13,0,200,14,0,200,15,0,200,16,0,201,17,0,200,18,0,200,19,0,200,20,0,200,21,0,201,22,0,200,23,0,200,24,0,200,25,0,200,26,0,220,27,0,221,28,0,200,29,0,200,30,0,221,31,0,200,32,0,200,194,0,621,195,0,621,196,0,620,199,0,621*5A
$PAIRSAT,2,24,65,0,200,66,0,200,67,0,200,68,0,200,69,0,200,70,0,200,71,0,200,72,0,200,73,0,200,74,0,200,75,0,200,76,0,200,77,0,201,78,0,201,79,0,201,80,0,200,81,0,201,82,0,201,83,0,200,84,0,200,85,0,200,86,0,200,87,0,200,88,0,201*7A
$PAIRSAT,3,23,2,0,1200,3,0,1200,4,0,1200,5,0,200,7,0,1200,8,0,1200,9,0,1200,10,0,1200,11,0,1200,12,0,1200,13,0,1221,15,0,1220,19,0,1201,21,0,1221,24,0,1200,25,0,1200,26,0,1221,27,0,1221,30,0,1200,31,0,1200,33,0,1200,34,0,1200,36,0,1200*69
$PAIRSAT,4,46,1,0,200,2,0,200,3,0,600,4,0,200,5,0,200,6,0,201,7,0,201,8,0,200,9,0,201,10,0,201,11,0,200,12,0,200,13,0,200,14,0,200,16,0,201,19,0,600,20,0,600,21,0,600,22,0,600,23,0,621,24,0,600,25,0,621,26,0,600,27,0,600,28,0,621,29,0,600,30,0,600,32,0,600,33,0,600,34,0,621,35,0,600,36,0,600,37,0,621,38,0,600,39,0,621,40,0,621,41,0,600,42,0,600,43,0,621,44,0,600,45,0,400,46,0,400,59,0,400,60,0,400,61,0,400,62,0,400*48
$PAIRDGP,10,2,4,7,8,9,16,21,26,27,30*42
$GNGGA,041742.200,2500.7972468,N,12132.4357500,E,4,50,0.54,16.738,M,15.25,M,1,3335*4F
$GNRMC,041742.200,A,2500.7972468,N,12132.4357500,E,0.02,345.47,090324,,,R,V*15
$GPHDT,230.991,T*35
$GNACCURACY,3.6*13
$GNGGA,041742.300,2500.7972487,N,12132.4357496,E,4,50,0.54,16.748,M,15.25,M,1,3335*46
$GNRMC,041742.300,A,2500.7972487,N,12132.4357496,E,0.02,345.47,090324,,,R,V*1B
$GPHDT,,T*1B
$GNACCURACY,3.6*13
$GNGGA,041742.400,2500.7972470,N,12132.4357478,E,4,49,0.56,16.745,M,15.25,M,1,3335*4E
$GNRMC,041742.400,A,2500.7972470,N,12132.4357478,E,0.02,345.47,090324,,,R,V*14
$GPHDT,230.816,T*3B
$GNACCURACY,3.6*13
$GNGGA,041742.500,2500.7972484,N,12132.4357479,E,4,49,0.56,16.756,M,15.25,M,1,3335*47
$GNRMC,041742.500,A,2500.7972484,N,12132.4357479,E,0.02,345.47,090324,,,R,V*1F
$GPHDT,,T*1B
$GNACCURACY,3.6*13
$GNGGA,041742.600,2500.7972479,N,12132.4357456,E,4,49,0.56,16.750,M,15.25,M,1,3335*4D
$GNRMC,041742.600,A,2500.7972479,N,12132.4357456,E,0.02,345.47,090324,,,R,V*13
$GPHDT,230.893,T*36
$GNACCURACY,3.6*13
$GNGGA,041742.700,2500.7972466,N,12132.4357448,E,4,49,0.56,16.752,M,15.25,M,1,3335*4F
$GNRMC,041742.700,A,2500.7972466,N,12132.4357448,E,0.02,345.47,090324,,,R,V*13
$GPHDT,,T*1B
$GNACCURACY,3.6*13
$GNGGA,041742.800,2500.7972489,N,12132.4357415,E,4,49,0.56,16.769,M,15.25,M,0,3335*40
$GNRMC,041742.800,A,2500.7972489,N,12132.4357415,E,0.02,345.47,090324,,,R,V*15
$GPHDT,229.915,T*31
$GNACCURACY,3.6*13
$GNGGA,041742.900,2500.7972475,N,12132.4357401,E,4,49,0.56,16.744,M,15.25,M,0,3335*48
$GNRMC,041742.900,A,2500.7972475,N,12132.4357401,E,0.02,345.47,090324,,,R,V*12
$GPHDT,,T*1B
$GNACCURACY,3.6*13
$GNGGA,041743.000,2500.7972452,N,12132.4357402,E,4,49,0.56,16.737,M,15.25,M,1,3335*43
$GNRMC,041743.000,A,2500.7972452,N,12132.4357402,E,0.02,345.47,090324,,,R,V*1C
$GPHDT,230.086,T*3A
$GNACCURACY,3.6*13
$GNGGA,041743.100,2500.7972440,N,12132.4357411,E,4,49,0.56,16.757,M,15.25,M,1,3335*45
$GNRMC,041743.100,A,2500.7972440,N,12132.4357411,E,0.02,345.47,090324,,,R,V*1C
$GPHDT,,T*1B
$GNGSA,A,3,195,194,21,199,08,02,07,27,16,196,30,,0.98,0.56,0.80,1*0A
$GNGSA,A,3,81,78,88,79,82,,,,,,,,0.98,0.56,0.80,2*0A
$GNGSA,A,3,21,13,26,27,15,,,,,,,,0.98,0.56,0.80,3*0D
$GNGSA,A,3,23,09,06,16,07,40,28,43,39,25,37,,0.98,0.56,0.80,4*00
$GPGSV,4,1,15,195,66,112,41,194,64,054,40,21,64,150,43,199,60,167,31,1*53
$GPGSV,4,2,15,08,60,001,45,50,60,167,35,02,53,175,43,07,45,314,46,1*6F
$GPGSV,4,3,15,27,30,038,34,16,26,079,32,09,22,242,16,196,19,168,22,1*52
$GPGSV,4,4,15,04,15,200,17,30,14,319,31,26,06,102,,1*5A
$GPGSV,2,1,06,195,66,112,41,194,64,054,44,08,60,001,46,199,60,167,47,8*54
$GPGSV,2,2,06,27,30,038,34,30,14,319,36,8*69
$GLGSV,2,1,06,81,70,206,43,78,58,046,42,88,51,029,41,79,29,336,44,1*7F
$GLGSV,2,2,06,77,21,115,17,82,19,206,17,1*7E
$GAGSV,2,1,08,21,55,017,42,13,54,075,39,26,47,171,41,27,28,083,31,7*73
$GAGSV,2,2,08,19,25,238,,04,12,296,,15,11,037,19,33,07,199,,7*79
$GAGSV,2,1,05,21,55,017,44,13,54,075,39,26,47,171,44,27,28,083,27,1*7C
$GAGSV,2,2,05,15,11,037,14,1*45
$GBGSV,4,1,13,23,75,044,46,09,72,260,34,06,69,214,42,16,66,199,42,1*77
$GBGSV,4,2,13,07,60,311,42,40,60,331,44,28,59,226,46,43,55,035,38,1*7D
$GBGSV,4,3,13,39,55,188,45,10,50,292,,25,35,121,31,37,33,322,44,1*72
$GBGSV,4,4,13,34,08,040,,1*4F
$GBGSV,2,1,06,23,75,044,45,40,60,331,42,28,59,226,43,39,55,188,43,4*7A
$GBGSV,2,2,06,25,35,121,34,37,33,322,44,4*76
$GNACCURACY,3.6*13
$PAIRSAT,1,35,2,0,201,3,0,200,4,0,221,5,0,200,6,0,200,7,0,201,8,0,221,9,0,220,10,0,200,11,0,200,12,0,200,13,0,200,14,0,200,15,0,200,16,0,201,17,0,200,18,0,200,19,0,200,20,0,200,21,0,201,22,0,200,23,0,200,24,0,200,25,0,200,26,0,220,27,0,221,28,0,200,29,0,200,30,0,221,31,0,200,32,0,200,194,0,621,195,0,621,196,0,620,199,0,621*5A
$PAIRSAT,2,24,65,0,200,66,0,200,67,0,200,68,0,200,69,0,200,70,0,200,71,0,200,72,0,200,73,0,200,74,0,200,75,0,200,76,0,200,77,0,201,78,0,201,79,0,201,80,0,200,81,0,201,82,0,201,83,0,200,84,0,200,85,0,200,86,0,200,87,0,200,88,0,201*7A
$PAIRSAT,3,23,2,0,1200,3,0,1200,4,0,1200,5,0,200,7,0,1200,8,0,1200,9,0,1200,10,0,1200,11,0,1200,12,0,1200,13,0,1221,15,0,1220,19,0,1201,21,0,1221,24,0,1200,25,0,1200,26,0,1221,27,0,1221,30,0,1200,31,0,1200,33,0,1200,34,0,1200,36,0,1200*69
$PAIRSAT,4,46,1,0,200,2,0,200,3,0,600,4,0,200,5,0,200,6,0,201,7,0,201,8,0,200,9,0,201,10,0,201,11,0,200,12,0,200,13,0,200,14,0,200,16,0,201,19,0,600,20,0,600,21,0,600,22,0,600,23,0,621,24,0,600,25,0,621,26,0,600,27,0,600,28,0,621,29,0,600,30,0,600,32,0,600,33,0,600,34,0,621,35,0,600,36,0,600,37,0,621,38,0,600,39,0,621,40,0,621,41,0,600,42,0,600,43,0,621,44,0,600,45,0,400,46,0,400,59,0,400,60,0,400,61,0,400,62,0,400*48
$PAIRDGP,10,2,4,7,8,9,16,21,26,27,30*42
$GNGGA,041743.200,2500.7972434,N,12132.4357477,E,4,49,0.56,16.707,M,15.25,M,1,3335*40
$GNRMC,041743.200,A,2500.7972434,N,12132.4357477,E,0.02,345.47,090324,,,R,V*1C
$GPHDT,230.421,T*33
$GNACCURACY,3.6*13
$GNGGA,041743.300,2500.7972432,N,12132.4357434,E,4,50,0.54,16.725,M,15.25,M,1,3335*4A
$GNRMC,041743.300,A,2500.7972432,N,12132.4357434,E,0.02,345.47,090324,,,R,V*1C
$GPHDT,,T*1B
$GNACCURACY,3.6*13
$GNGGA,041743.400,2500.7972430,N,12132.4357418,E,4,50,0.54,16.724,M,15.25,M,1,3335*40
$GNRMC,041743.400,A,2500.7972430,N,12132.4357418,E,0.02,345.47,090324,,,R,V*17
$GPHDT,230.012,T*37
$GNACCURACY,3.6*13
$GNGGA,041743.500,2500.7972422,N,12132.4357411,E,4,50,0.54,16.705,M,15.25,M,0,3335*49
$GNRMC,041743.500,A,2500.7972422,N,12132.4357411,E,0.02,345.47,090324,,,R,V*1C
$GPHDT,,T*1B
$GNACCURACY,3.6*13
$GNGGA,041743.600,2500.7972435,N,12132.4357426,E,4,50,0.54,16.703,M,15.25,M,0,3335*4E
$GNRMC,041743.600,A,2500.7972435,N,12132.4357426,E,0.02,345.47,090324,,,R,V*1D
$GPHDT,230.069,T*3B
$GNACCURACY,3.6*13
$GNGGA,041743.700,2500.7972433,N,12132.4357432,E,4,49,0.54,16.702,M,15.25,M,0,3335*45
$GNRMC,041743.700,A,2500.7972433,N,12132.4357432,E,0.02,345.47,090324,,,R,V*1F
$GPHDT,,T*1B
$GNACCURACY,3.6*13
$GNGGA,041743.800,2500.7972429,N,12132.4357422,E,4,48,0.57,16.710,M,15.25,M,0,3335*41
$GNRMC,041743.800,A,2500.7972429,N,12132.4357422,E,0.02,345.47,090324,,,R,V*1A
$GPHDT,230.061,T*33
$GNACCURACY,3.6*13
$GNGGA,041743.900,2500.7972441,N,12132.4357387,E,4,48,0.57,16.718,M,15.25,M,0,3335*4E
$GNRMC,041743.900,A,2500.7972441,N,12132.4357387,E,0.02,345.47,090324,,,R,V*1D
$GPHDT,,T*1B
$GNACCURACY,3.6*13
$GNGGA,041744.000,2500.7972437,N,12132.4357431,E,4,48,0.57,16.709,M,15.25,M,1,3335*4A
$GNRMC,041744.000,A,2500.7972437,N,12132.4357431,E,0.02,345.47,090324,,,R,V*18
$GPHDT,229.923,T*34
$GNACCURACY,3.6*13
$GNGGA,041744.100,2500.7972434,N,12132.4357428,E,4,48,0.57,16.707,M,15.25,M,1,3335*4E
$GNRMC,041744.100,A,2500.7972434,N,12132.4357428,E,0.02,345.47,090324,,,R,V*12
$GPHDT,,T*1B
$GNGSA,A,3,195,194,21,199,08,02,07,27,16,196,04,30,0.92,0.54,0.74,1*0D
$GNGSA,A,3,81,78,88,79,82,,,,,,,,0.92,0.54,0.74,2*09
$GNGSA,A,3,21,13,26,27,15,,,,,,,,0.92,0.54,0.74,3*0E
$GNGSA,A,3,23,09,06,16,07,40,28,43,39,25,37,,0.92,0.54,0.74,4*03
$GPGSV,4,1,15,195,66,112,42,194,64,054,42,21,64,150,43,199,60,167,34,1*57
$GPGSV,4,2,15,08,60,001,45,50,60,167,35,02,53,175,44,07,45,314,46,1*68
$GPGSV,4,3,15,27,30,038,35,16,26,079,31,09,22,242,17,196,19,168,22,1*51
$GPGSV,4,4,15,04,15,200,18,30,14,319,28,26,06,102,,1*5D
$GPGSV,2,1,06,195,66,112,42,194,64,054,45,08,60,001,46,199,60,167,47,8*56
$GPGSV,2,2,06,27,30,038,34,30,14,319,35,8*6A
$GLGSV,2,1,06,81,70,206,41,78,58,046,42,88,51,029,43,79,29,336,44,1*7F
$GLGSV,2,2,06,77,21,115,14,82,19,206,14,1*7E
$GAGSV,2,1,08,21,55,017,42,13,54,075,41,26,47,171,41,27,28,083,30,7*7D
$GAGSV,2,2,08,19,25,238,,04,12,296,,15,11,037,21,33,07,199,,7*72
$GAGSV,1,1,04,21,55,017,43,13,54,075,41,26,47,171,44,15,11,037,13,1*75
$GBGSV,4,1,13,23,75,044,46,09,72,260,34,06,69,214,42,16,66,199,42,1*77
$GBGSV,4,2,13,07,60,311,42,40,60,331,44,28,59,226,46,43,55,035,38,1*7D
$GBGSV,4,3,13,39,55,188,45,10,50,292,,25,35,121,36,37,33,322,44,1*75
$GBGSV,4,4,13,34,08,040,,1*4F
$GBGSV,2,1,06,23,75,044,45,40,60,331,42,28,59,226,43,39,55,188,43,4*7A
$GBGSV,2,2,06,25,35,121,35,37,33,322,44,4*77
$GNACCURACY,3.6*13
$PAIRSAT,1,35,2,0,201,3,0,200,4,0,221,5,0,200,6,0,200,7,0,201,8,0,221,9,0,220,10,0,200,11,0,200,12,0,200,13,0,200,14,0,200,15,0,200,16,0,201,17,0,200,18,0,200,19,0,200,20,0,200,21,0,201,22,0,200,23,0,200,24,0,200,25,0,200,26,0,220,27,0,221,28,0,200,29,0,200,30,0,221,31,0,200,32,0,200,194,0,621,195,0,621,196,0,620,199,0,621*5A
$PAIRSAT,2,24,65,0,200,66,0,200,67,0,200,68,0,200,69,0,200,70,0,200,71,0,200,72,0,200,73,0,200,74,0,200,75,0,200,76,0,200,77,0,201,78,0,201,79,0,201,80,0,200,81,0,201,82,0,201,83,0,200,84,0,200,85,0,200,86,0,200,87,0,200,88,0,201*7A
$PAIRSAT,3,23,2,0,1200,3,0,1200,4,0,1200,5,0,200,7,0,1200,8,0,1200,9,0,1200,10,0,1200,11,0,1200,12,0,1200,13,0,1221,15,0,1220,19,0,1201,21,0,1221,24,0,1200,25,0,1200,26,0,1221,27,0,1221,30,0,1200,31,0,1200,33,0,1200,34,0,1200,36,0,1200*69
$PAIRSAT,4,46,1,0,200,2,0,200,3,0,600,4,0,200,5,0,200,6,0,201,7,0,201,8,0,200,9,0,201,10,0,201,11,0,200,12,0,200,13,0,200,14,0,200,16,0,201,19,0,600,20,0,600,21,0,600,22,0,600,23,0,621,24,0,600,25,0,621,26,0,600,27,0,600,28,0,621,29,0,600,30,0,600,32,0,600,33,0,600,34,0,621,35,0,600,36,0,600,37,0,621,38,0,600,39,0,621,40,0,621,41,0,600,42,0,600,43,0,621,44,0,600,45,0,400,46,0,400,59,0,400,60,0,400,61,0,400,62,0,400*48
$PAIRDGP,10,2,4,7,8,9,16,21,26,27,30*42
$GNGGA,041744.200,2500.7972432,N,12132.4357428,E,4,49,0.54,16.713,M,15.25,M,1,3335*4C
$GNRMC,041744.200,A,2500.7972432,N,12132.4357428,E,0.02,345.47,090324,,,R,V*17
$GPHDT,230.181,T*3C
$GNACCURACY,3.6*13
$GNGGA,041744.300,2500.7972435,N,12132.4357412,E,4,49,0.54,16.697,M,15.25,M,1,3335*4E
$GNRMC,041744.300,A,2500.7972435,N,12132.4357412,E,0.01,345.47,090324,,,R,V*1B
$GPHDT,,T*1B
$GNACCURACY,3.6*13
$GNGGA,041744.400,2500.7972447,N,12132.4357435,E,4,50,0.53,16.706,M,15.25,M,1,3335*4F
$GNRMC,041744.400,A,2500.7972447,N,12132.4357435,E,0.01,345.47,090324,,,R,V*1C
$GPHDT,230.009,T*3D
$GNACCURACY,3.6*13
$GNGGA,041744.500,2500.7972457,N,12132.4357451,E,4,50,0.53,16.707,M,15.25,M,1,3335*4C
$GNRMC,041744.500,A,2500.7972457,N,12132.4357451,E,0.02,345.47,090324,,,R,V*1D
$GPHDT,,T*1B
$GNACCURACY,3.6*13
$GNGGA,041744.600,2500.7972445,N,12132.4357419,E,4,48,0.54,16.691,M,15.25,M,1,3335*40
$GNRMC,041744.600,A,2500.7972445,N,12132.4357419,E,0.01,345.47,090324,,,R,V*12
$GPHDT,229.989,T*34
$GNACCURACY,3.6*13
$GNGGA,041744.700,2500.7972445,N,12132.4357419,E,4,48,0.54,16.708,M,15.25,M,1,3335*40
$GNRMC,041744.700,A,2500.7972445,N,12132.4357419,E,0.01,345.47,090324,,,R,V*13
$GPHDT,,T*1B
$GNACCURACY,3.6*13
$GNGGA,041744.800,2500.7972446,N,12132.4357423,E,4,47,0.55,16.732,M,15.25,M,0,3335*43
$GNRMC,041744.800,A,2500.7972446,N,12132.4357423,E,0.01,345.47,090324,,,R,V*16
$GPHDT,229.777,T*3B
$GNACCURACY,3.6*13
$GNGGA,041744.900,2500.7972436,N,12132.4357416,E,4,47,0.55,16.743,M,15.25,M,0,3335*45
$GNRMC,041744.900,A,2500.7972436,N,12132.4357416,E,0.02,345.47,090324,,,R,V*15
$GPHDT,,T*1B
$GNACCURACY,3.6*13
$GNGGA,041745.000,2500.7972449,N,12132.4357379,E,4,48,0.52,16.748,M,15.25,M,1,3335*49
$GNRMC,041745.000,A,2500.7972449,N,12132.4357379,E,0.01,345.47,090324,,,R,V*18
$GPHDT,229.190,T*34
$GNACCURACY,3.6*13
$GNGGA,041745.100,2500.7972476,N,12132.4357417,E,4,48,0.52,16.744,M,15.25,M,1,3335*47
$GNRMC,041745.100,A,2500.7972476,N,12132.4357417,E,0.02,345.47,090324,,,R,V*19
$GPHDT,,T*1B
$GNGSA,A,3,195,194,21,199,08,02,07,27,16,09,04,30,0.91,0.52,0.74,1*3F
$GNGSA,A,3,81,78,88,79,77,82,,,,,,,0.91,0.52,0.74,2*0C
$GNGSA,A,3,21,13,26,15,,,,,,,,,0.91,0.52,0.74,3*0E
$GNGSA,A,3,23,09,06,16,07,40,28,43,39,25,37,,0.91,0.52,0.74,4*06
$GPGSV,4,1,15,195,66,112,43,194,64,054,41,21,64,150,43,199,60,167,33,1*52
$GPGSV,4,2,15,08,60,001,46,50,60,167,35,02,53,175,44,07,45,314,46,1*6B
$GPGSV,4,3,15,27,30,038,36,16,26,079,32,09,22,242,16,196,19,168,23,1*51
$GPGSV,4,4,15,04,15,200,20,30,14,319,29,26,06,102,,1*57
$GPGSV,2,1,07,195,66,112,41,194,64,054,45,08,60,001,46,199,60,167,47,8*54
$GPGSV,2,2,07,27,30,038,33,196,19,168,27,30,14,319,35,8*60
$GLGSV,2,1,06,81,70,206,43,78,58,046,43,88,51,029,43,79,29,336,44,1*7C
$GLGSV,2,2,06,77,21,115,17,82,19,206,17,1*7E
$GAGSV,2,1,08,21,55,017,42,13,54,075,38,26,47,171,41,27,28,083,27,7*75
$GAGSV,2,2,08,19,25,238,,04,12,296,,15,11,037,23,33,07,199,,7*70
$GAGSV,1,1,03,21,55,017,42,13,54,075,41,26,47,171,44,1*41
$GBGSV,4,1,13,23,75,044,46,09,72,260,33,06,69,214,42,16,66,199,42,1*70
$GBGSV,4,2,13,07,60,311,42,40,60,331,44,28,59,226,46,43,55,035,40,1*72
$GBGSV,4,3,13,39,55,188,45,10,50,292,,25,35,121,31,37,33,322,44,1*72
$GBGSV,4,4,13,34,08,040,,1*4F
$GBGSV,2,1,06,23,75,044,46,40,60,331,42,28,59,226,43,39,55,188,43,4*79
$GBGSV,2,2,06,25,35,121,30,37,33,322,44,4*72
$GNACCURACY,3.6*13
$PAIRSAT,1,35,2,0,201,3,0,200,4,0,221,5,0,200,6,0,200,7,0,201,8,0,221,9,0,220,10,0,200,11,0,200,12,0,200,13,0,200,14,0,200,15,0,200,16,0,201,17,0,200,18,0,200,19,0,200,20,0,200,21,0,201,22,0,200,23,0,200,24,0,200,25,0,200,26,0,220,27,0,221,28,0,200,29,0,200,30,0,221,31,0,200,32,0,200,194,0,621,195,0,621,196,0,620,199,0,621*5A
$PAIRSAT,2,24,65,0,200,66,0,200,67,0,200,68,0,200,69,0,200,70,0,200,71,0,200,72,0,200,73,0,200,74,0,200,75,0,200,76,0,200,77,0,201,78,0,201,79,0,201,80,0,200,81,0,201,82,0,201,83,0,200,84,0,200,85,0,200,86,0,200,87,0,200,88,0,201*7A
$PAIRSAT,3,23,2,0,1200,3,0,1200,4,0,1200,5,0,200,7,0,1200,8,0,1200,9,0,1200,10,0,1200,11,0,1200,12,0,1200,13,0,1221,15,0,1220,19,0,1201,21,0,1221,24,0,1200,25,0,1200,26,0,1221,27,0,1221,30,0,1200,31,0,1200,33,0,1200,34,0,1200,36,0,1200*69
$PAIRSAT,4,46,1,0,200,2,0,200,3,0,600,4,0,200,5,0,200,6,0,201,7,0,201,8,0,200,9,0,201,10,0,201,11,0,200,12,0,200,13,0,200,14,0,200,16,0,201,19,0,600,20,0,600,21,0,600,22,0,600,23,0,621,24,0,600,25,0,621,26,0,600,27,0,600,28,0,621,29,0,600,30,0,600,32,0,600,33,0,600,34,0,621,35,0,600,36,0,600,37,0,621,38,0,600,39,0,621,40,0,621,41,0,600,42,0,600,43,0,621,44,0,600,45,0,400,46,0,400,59,0,400,60,0,400,61,0,400,62,0,400*48
$PAIRDGP,10,2,4,7,8,9,16,21,26,27,30*42
$GNGGA,041745.200,2500.7972476,N,12132.4357416,E,4,48,0.52,16.747,M,15.25,M,1,3335*46
$GNRMC,041745.200,A,2500.7972476,N,12132.4357416,E,0.02,345.47,090324,,,R,V*1B
$GPHDT,229.234,T*39
$GNACCURACY,3.7*12
$GNGGA,041745.300,2500.7972472,N,12132.4357469,E,4,50,0.51,16.728,M,15.25,M,1,3335*48
$GNRMC,041745.300,A,2500.7972472,N,12132.4357469,E,0.02,345.47,090324,,,R,V*16
$GPHDT,,T*1B
$GNACCURACY,3.7*12
$GNGGA,041745.400,2500.7972478,N,12132.4357451,E,4,50,0.51,16.738,M,15.25,M,1,3335*4F
$GNRMC,041745.400,A,2500.7972478,N,12132.4357451,E,0.02,345.47,090324,,,R,V*10
$GPHDT,229.759,T*37
$GNACCURACY,3.7*12
$GNGGA,041745.500,2500.7972466,N,12132.4357446,E,4,51,0.50,16.735,M,15.25,M,1,3335*4A
$GNRMC,041745.500,A,2500.7972466,N,12132.4357446,E,0.02,345.47,090324,,,R,V*18
$GPHDT,,T*1B
$GNACCURACY,3.7*12
$GNGGA,041745.600,2500.7972458,N,12132.4357448,E,4,52,0.50,16.745,M,15.25,M,1,3335*4E
$GNRMC,041745.600,A,2500.7972458,N,12132.4357448,E,0.02,345.47,090324,,,R,V*18
$GPHDT,229.838,T*3F
$GNACCURACY,3.7*12
$GNGGA,041745.700,2500.7972465,N,12132.4357417,E,4,52,0.50,16.746,M,15.25,M,0,3335*49
$GNRMC,041745.700,A,2500.7972465,N,12132.4357417,E,0.02,345.47,090324,,,R,V*1D
$GPHDT,,T*1B
$GNACCURACY,3.7*12
$GNGGA,041745.800,2500.7972443,N,12132.4357441,E,4,52,0.50,16.744,M,15.25,M,0,3335*43
$GNRMC,041745.800,A,2500.7972443,N,12132.4357441,E,0.02,345.47,090324,,,R,V*15
$GPHDT,229.881,T*3D
$GNACCURACY,3.7*12
$GNGGA,041745.900,2500.7972466,N,12132.4357431,E,4,52,0.50,16.753,M,15.25,M,0,3335*44
$GNRMC,041745.900,A,2500.7972466,N,12132.4357431,E,0.02,345.47,090324,,,R,V*14
$GPHDT,,T*1B
$GNACCURACY,3.7*12
$GNGGA,041746.000,2500.7972457,N,12132.4357431,E,4,52,0.50,16.744,M,15.25,M,1,3335*4B
$GNRMC,041746.000,A,2500.7972457,N,12132.4357431,E,0.02,345.47,090324,,,R,V*1C
$GPHDT,229.626,T*3E
$GNACCURACY,3.7*12
$GNGGA,041746.100,2500.7972465,N,12132.4357444,E,4,52,0.50,16.754,M,15.25,M,1,3335*48
$GNRMC,041746.100,A,2500.7972465,N,12132.4357444,E,0.01,345.47,090324,,,R,V*1D
$GPHDT,,T*1B
$GNGSA,A,3,195,194,21,199,08,02,07,27,16,09,196,04,0.86,0.50,0.70,1*02
$GNGSA,A,3,30,,,,,,,,,,,,0.86,0.50,0.70,1*0E
$GNGSA,A,3,81,78,88,79,77,82,,,,,,,0.86,0.50,0.70,2*0C
$GNGSA,A,3,21,13,26,27,15,,,,,,,,0.86,0.50,0.70,3*0B
$GNGSA,A,3,23,09,06,16,07,40,28,39,43,25,37,,0.86,0.50,0.70,4*06
$GPGSV,4,1,15,195,66,112,42,194,64,054,40,21,64,150,43,199,60,167,33,1*52
$GPGSV,4,2,15,08,60,001,46,50,60,167,35,02,53,175,44,07,45,314,46,1*6B
$GPGSV,4,3,15,27,30,038,36,16,26,079,30,09,22,242,18,196,19,168,23,1*5D
$GPGSV,4,4,15,04,15,200,20,30,14,319,31,26,06,102,,1*5E
$GPGSV,2,1,07,195,66,112,39,194,64,054,43,08,60,001,46,199,60,167,47,8*5D
$GPGSV,2,2,07,27,30,038,30,196,19,168,25,30,14,319,36,8*62
$GLGSV,2,1,06,81,70,206,43,78,58,046,41,88,51,029,42,79,29,336,44,1*7F
$GLGSV,2,2,06,77,21,115,17,82,19,206,15,1*7C
$GAGSV,2,1,08,21,55,017,41,13,54,075,36,26,47,171,41,27,28,083,28,7*77
$GAGSV,2,2,08,19,25,238,,04,12,296,,15,11,037,21,33,07,199,,7*72
$GAGSV,1,1,04,21,55,017,43,13,54,075,39,26,47,171,44,27,28,083,27,1*79
$GBGSV,4,1,14,23,75,044,46,09,72,260,33,06,69,214,42,16,66,199,42,1*77
$GBGSV,4,2,14,07,60,311,42,40,60,331,41,28,59,226,46,39,55,188,45,1*7F
$GBGSV,4,3,14,43,55,035,40,10,50,292,,25,35,121,25,37,33,322,44,1*7F
$GBGSV,4,4,14,27,12,222,,34,08,040,,1*7C
$GBGSV,2,1,06,23,75,044,46,40,60,331,42,28,59,226,43,39,55,188,43,4*79
$GBGSV,2,2,06,25,35,121,31,37,33,322,44,4*73
$GNACCURACY,3.7*12
$PAIRSAT,1,35,2,0,201,3,0,200,4,0,221,5,0,200,6,0,200,7,0,201,8,0,221,9,0,220,10,0,200,11,0,200,12,0,200,13,0,200,14,0,200,15,0,200,16,0,201,17,0,200,18,0,200,19,0,200,20,0,200,21,0,201,22,0,200,23,0,200,24,0,200,25,0,200,26,0,220,27,0,221,28,0,200,29,0,200,30,0,221,31,0,200,32,0,200,194,0,621,195,0,621,196,0,620,199,0,621*5A
$PAIRSAT,2,24,65,0,200,66,0,200,67,0,200,68,0,200,69,0,200,70,0,200,71,0,200,72,0,200,73,0,200,74,0,200,75,0,200,76,0,200,77,0,201,78,0,201,79,0,201,80,0,200,81,0,201,82,0,201,83,0,200,84,0,200,85,0,200,86,0,200,87,0,200,88,0,201*7A
$PAIRSAT,3,23,2,0,1200,3,0,1200,4,0,1200,5,0,200,7,0,1200,8,0,1200,9,0,1200,10,0,1200,11,0,1200,12,0,1200,13,0,1221,15,0,1220,19,0,1201,21,0,1221,24,0,1200,25,0,1200,26,0,1221,27,0,1221,30,0,1200,31,0,1200,33,0,1200,34,0,1200,36,0,1200*69
$PAIRSAT,4,46,1,0,200,2,0,200,3,0,600,4,0,200,5,0,200,6,0,201,7,0,201,8,0,200,9,0,201,10,0,201,11,0,200,12,0,200,13,0,200,14,0,200,16,0,201,19,0,600,20,0,600,21,0,600,22,0,600,23,0,621,24,0,600,25,0,621,26,0,600,27,0,600,28,0,621,29,0,600,30,0,600,32,0,600,33,0,600,34,0,621,35,0,600,36,0,600,37,0,621,38,0,600,39,0,621,40,0,621,41,0,600,42,0,600,43,0,621,44,0,600,45,0,400,46,0,400,59,0,400,60,0,400,61,0,400,62,0,400*48
$PAIRDGP,10,2,4,7,8,9,16,21,26,27,30*42
$GNGGA,041746.200,2500.7972454,N,12132.4357453,E,4,52,0.50,16.737,M,15.25,M,1,3335*4A
$GNRMC,041746.200,A,2500.7972454,N,12132.4357453,E,0.02,345.47,090324,,,R,V*19
$GPHDT,229.807,T*33
$GNACCURACY,3.6*13
$GNGGA,041746.300,2500.7972452,N,12132.4357444,E,4,52,0.50,16.739,M,15.25,M,1,3335*45
$GNRMC,041746.300,A,2500.7972452,N,12132.4357444,E,0.02,345.47,090324,,,R,V*18
$GPHDT,,T*1B
$GNACCURACY,3.6*13
$GNGGA,041746.400,2500.7972452,N,12132.4357458,E,4,52,0.50,16.735,M,15.25,M,1,3335*43
$GNRMC,041746.400,A,2500.7972452,N,12132.4357458,E,0.02,345.47,090324,,,R,V*12
$GPHDT,229.622,T*3A
$GNACCURACY,3.6*13
$GNGGA,041746.500,2500.7972436,N,12132.4357438,E,4,52,0.50,16.740,M,15.25,M,0,3335*45
$GNRMC,041746.500,A,2500.7972436,N,12132.4357438,E,0.02,345.47,090324,,,R,V*17
$GPHDT,,T*1B
$GNACCURACY,3.6*13
$GNGGA,041746.600,2500.7972443,N,12132.4357443,E,4,52,0.50,16.752,M,15.25,M,0,3335*4B
$GNRMC,041746.600,A,2500.7972443,N,12132.4357443,E,0.02,345.47,090324,,,R,V*1A
$GPHDT,229.395,T*33
$GNACCURACY,3.6*13
$GNGGA,041746.700,2500.7972444,N,12132.4357446,E,4,52,0.50,16.749,M,15.25,M,0,3335*42
$GNRMC,041746.700,A,2500.7972444,N,12132.4357446,E,0.02,345.47,090324,,,R,V*19
$GPHDT,,T*1B
$GNACCURACY,3.6*13
$GNGGA,041746.800,2500.7972440,N,12132.4357451,E,4,52,0.50,16.750,M,15.25,M,0,3335*47
$GNRMC,041746.800,A,2500.7972440,N,12132.4357451,E,0.02,345.47,090324,,,R,V*14
$GPHDT,229.403,T*3B
$GNACCURACY,3.6*13
$GNGGA,041746.900,2500.7972448,N,12132.4357451,E,4,52,0.50,16.762,M,15.25,M,0,3335*4F
$GNRMC,041746.900,A,2500.7972448,N,12132.4357451,E,0.02,345.47,090324,,,R,V*1D
$GPHDT,,T*1B
$GNACCURACY,3.6*13
$GNGGA,041747.000,2500.7972440,N,12132.4357473,E,4,52,0.50,16.739,M,15.25,M,1,3335*40
$GNRMC,041747.000,A,2500.7972440,N,12132.4357473,E,0.01,345.47,090324,,,R,V*1E
$GPHDT,229.345,T*3E
$GNACCURACY,3.6*13
$GNGGA,041747.100,2500.7972447,N,12132.4357456,E,4,52,0.50,16.757,M,15.25,M,1,3335*49
$GNRMC,041747.100,A,2500.7972447,N,12132.4357456,E,0.01,345.47,090324,,,R,V*1F
$GPHDT,,T*1B
$GNGSA,A,3,195,194,21,199,08,02,07,27,16,09,196,04,0.86,0.50,0.70,1*02
$GNGSA,A,3,30,,,,,,,,,,,,0.86,0.50,0.70,1*0E
$GNGSA,A,3,81,78,88,79,77,82,,,,,,,0.86,0.50,0.70,2*0C
$GNGSA,A,3,21,13,26,27,15,,,,,,,,0.86,0.50,0.70,3*0B
$GNGSA,A,3,23,09,06,16,07,40,28,39,43,25,37,,0.86,0.50,0.70,4*06
$GPGSV,4,1,15,195,66,112,41,194,64,054,40,21,64,150,43,199,60,167,33,1*51
$GPGSV,4,2,15,08,60,001,46,50,60,167,35,02,53,175,44,07,45,314,45,1*68
$GPGSV,4,3,15,27,30,038,37,16,26,079,31,09,22,242,21,196,19,168,21,1*55
$GPGSV,4,4,15,04,15,200,18,30,14,319,31,26,06,102,,1*55
$GPGSV,2,1,07,195,66,112,38,194,64,054,42,08,60,001,46,199,60,167,46,8*5C
$GPGSV,2,2,07,27,30,038,30,196,19,168,23,30,14,319,35,8*67
$GLGSV,2,1,06,81,70,206,43,78,58,046,41,88,51,029,42,79,29,336,44,1*7F
$GLGSV,2,2,06,77,21,115,15,82,19,206,15,1*7E
$GAGSV,2,1,08,21,55,017,41,13,54,074,36,26,47,171,40,27,28,083,26,7*79
$GAGSV,2,2,08,19,25,238,,04,12,296,,15,11,037,20,33,07,199,,7*73
$GAGSV,1,1,04,21,55,017,43,13,54,074,39,26,47,171,42,27,28,083,25,1*7C
$GBGSV,4,1,14,23,75,044,46,09,72,260,32,06,69,214,42,16,66,199,42,1*76
$GBGSV,4,2,14,07,60,311,42,40,60,331,41,28,59,226,46,39,55,188,45,1*7F
$GBGSV,4,3,14,43,55,035,40,10,50,292,,25,35,121,22,37,33,322,44,1*78
$GBGSV,4,4,14,27,12,222,,34,08,040,,1*7C
$GBGSV,2,1,06,23,75,044,45,40,60,331,41,28,59,226,43,39,55,188,43,4*79
$GBGSV,2,2,06,25,35,121,28,37,33,322,43,4*7C
$GNACCURACY,3.6*13
$PAIRSAT,1,35,2,0,201,3,0,200,4,0,221,5,0,200,6,0,200,7,0,201,8,0,221,9,0,220,10,0,200,11,0,200,12,0,200,13,0,200,14,0,200,15,0,200,16,0,201,17,0,200,18,0,200,19,0,200,20,0,200,21,0,201,22,0,200,23,0,200,24,0,200,25,0,200,26,0,220,27,0,221,28,0,200,29,0,200,30,0,221,31,0,200,32,0,200,194,0,621,195,0,621,196,0,620,199,0,621*5A
$PAIRSAT,2,24,65,0,200,66,0,200,67,0,200,68,0,200,69,0,200,70,0,200,71,0,200,72,0,200,73,0,200,74,0,200,75,0,200,76,0,200,77,0,201,78,0,201,79,0,201,80,0,200,81,0,201,82,0,201,83,0,200,84,0,200,85,0,200,86,0,200,87,0,200,88,0,201*7A
$PAIRSAT,3,23,2,0,1200,3,0,1200,4,0,1200,5,0,200,7,0,1200,8,0,1200,9,0,1200,10,0,1200,11,0,1200,12,0,1200,13,0,1221,15,0,1220,19,0,1201,21,0,1221,24,0,1200,25,0,1200,26,0,1221,27,0,1221,30,0,1200,31,0,1200,33,0,1200,34,0,1200,36,0,1200*69
$PAIRSAT,4,46,1,0,200,2,0,200,3,0,600,4,0,200,5,0,200,6,0,201,7,0,201,8,0,200,9,0,201,10,0,201,11,0,200,12,0,200,13,0,200,14,0,200,16,0,201,19,0,600,20,0,600,21,0,600,22,0,600,23,0,621,24,0,600,25,0,621,26,0,600,27,0,600,28,0,621,29,0,600,30,0,600,32,0,600,33,0,600,34,0,621,35,0,600,36,0,600,37,0,621,38,0,600,39,0,6