$FW : RTK35X,V1.1X0314AS,Lib20210517,1*54
$Tool : LOCOSYS , GNSS Firebird , v1.0.0.19*39
$---------------------------------------------------*2D
9,25,238,,15,12,037,17,04,12,296,,33,06,199,,7*75
$GAGSV,1,1,04,21,55,016,39,13,54,075,46,26,47,171,41,27,28,083,36,1*78
$GBGSV,4,1,13,23,75,043,47,09,72,260,35,06,69,214,37,16,66,199,40,1*70
$GBGSV,4,2,13,07,60,310,41,40,60,331,43,28,59,225,34,39,56,188,40,1*78
$GBGSV,4,3,13,43,55,035,46,10,51,292,,25,35,121,43,37,33,322,42,1*79
$GBGSV,4,4,13,34,09,040,,1*4E
$GBGSV,2,1,07,23,75,043,48,40,60,331,42,28,59,225,30,39,56,188,38,4*79
$GBGSV,2,2,07,43,55,035,44,25,35,121,41,37,33,322,33,4*44
$GNACCURACY,3.6*13
$PAIRSAT,1,35,2,0,201,3,0,200,4,0,221,5,0,200,6,0,200,7,0,201,8,0,221,9,0,220,10,0,200,11,0,200,12,0,200,13,0,200,14,0,200,15,0,200,16,0,201,17,0,200,18,0,200,19,0,200,20,0,200,21,0,201,22,0,200,23,0,200,24,0,200,25,0,200,26,0,220,27,0,221,28,0,200,29,0,200,30,0,221,31,0,200,32,0,200,194,0,621,195,0,621,196,0,620,199,0,621*5A
$PAIRSAT,2,24,65,0,200,66,0,200,67,0,200,68,0,200,69,0,200,70,0,200,71,0,200,72,0,200,73,0,200,74,0,200,75,0,200,76,0,200,77,0,201,78,0,201,79,0,201,80,0,200,81,0,201,82,0,201,83,0,200,84,0,200,85,0,200,86,0,200,87,0,200,88,0,201*7A
$PAIRSAT,3,23,2,0,1200,3,0,1200,4,0,1200,5,0,200,7,0,1200,8,0,1200,9,0,1200,10,0,1200,11,0,1200,12,0,1200,13,0,1221,15,0,1220,19,0,1201,21,0,1221,24,0,1200,25,0,1200,26,0,1221,27,0,1221,30,0,1200,31,0,1200,33,0,1200,34,0,1200,36,0,1200*69
$PAIRSAT,4,46,1,0,200,2,0,200,3,0,600,4,0,200,5,0,200,6,0,201,7,0,201,8,0,200,9,0,201,10,0,201,11,0,200,12,0,200,13,0,200,14,0,200,16,0,201,19,0,600,20,0,600,21,0,600,22,0,600,23,0,621,24,0,600,25,0,621,26,0,600,27,0,600,28,0,621,29,0,600,30,0,600,32,0,600,33,0,600,34,0,621,35,0,600,36,0,600,37,0,621,38,0,600,39,0,621,40,0,621,41,0,600,42,0,600,43,0,621,44,0,400,45,0,400,46,0,400,59,0,400,60,0,400,61,0,400,62,0,400*4A
$PAIRDGP,10,2,4,7,8,9,16,21,26,27,30*42
$GNGGA,041722.200,2500.7972550,N,12132.4357145,E,4,51,0.52,16.719,M,15.25,M,1,3335*42
$GNRMC,041722.200,A,2500.7972550,N,12132.4357145,E,0.01,345.47,090324,,,R,V*1F
$GPHDT,321.137,T*30
$GNACCURACY,3.6*13
$GNGGA,041722.300,2500.7972541,N,12132.4357172,E,4,51,0.52,16.724,M,15.25,M,1,3335*49
$GNRMC,041722.300,A,2500.7972541,N,12132.4357172,E,0.01,345.47,090324,,,R,V*1A
$GPHDT,,T*1B
$GNACCURACY,3.6*13
$GNGGA,041722.400,2500.7972568,N,12132.4357200,E,4,51,0.52,16.724,M,15.25,M,1,3335*43
$GNRMC,041722.400,A,2500.7972568,N,12132.4357200,E,0.01,345.47,090324,,,R,V*10
$GPHDT,321.333,T*36
$GNACCURACY,3.6*13
$GNGGA,041722.500,2500.7972559,N,12132.4357202,E,4,51,0.52,16.719,M,15.25,M,1,3335*4C
$GNRMC,041722.500,A,2500.7972559,N,12132.4357202,E,0.01,345.47,090324,,,R,V*11
$GPHDT,,T*1B
$GNACCURACY,3.6*13
$GNGGA,041722.600,2500.7972565,N,12132.4357189,E,4,51,0.52,16.722,M,15.25,M,0,3335*49
$GNRMC,041722.600,A,2500.7972565,N,12132.4357189,E,0.02,345.47,090324,,,R,V*1E
$GPHDT,321.096,T*3A
$GNACCURACY,3.6*13
$GNGGA,041722.700,2500.7972554,N,12132.4357180,E,4,51,0.52,16.717,M,15.25,M,0,3335*45
$GNRMC,041722.700,A,2500.7972554,N,12132.4357180,E,0.02,345.47,090324,,,R,V*14
$GPHDT,,T*1B
$GNACCURACY,3.6*13
$GNGGA,041722.800,2500.7972531,N,12132.4357167,E,4,51,0.52,16.718,M,15.25,M,0,3335*4F
$GNRMC,041722.800,A,2500.7972531,N,12132.4357167,E,0.01,345.47,090324,,,R,V*12
$GPHDT,321.444,T*31
$GNACCURACY,3.6*13
$GNGGA,041722.900,2500.7972551,N,12132.4357192,E,4,51,0.52,16.718,M,15.25,M,0,3335*42
$GNRMC,041722.900,A,2500.7972551,N,12132.4357192,E,0.01,345.47,090324,,,R,V*1F
$GPHDT,,T*1B
$GNACCURACY,3.6*13
$GNGGA,041723.000,2500.7972541,N,12132.4357187,E,4,51,0.52,16.715,M,15.25,M,1,3335*43
$GNRMC,041723.000,A,2500.7972541,N,12132.4357187,E,0.01,345.47,090324,,,R,V*12
$GPHDT,320.872,T*39
$GNACCURACY,3.6*13
$GNGGA,041723.100,2500.7972557,N,12132.4357211,E,4,50,0.52,16.726,M,15.25,M,1,3335*48
$GNRMC,041723.100,A,2500.7972557,N,12132.4357211,E,0.02,345.47,090324,,,R,V*1B
$GPHDT,,T*1B
$GNGSA,A,3,195,194,21,199,08,02,07,27,16,09,196,04,0.78,0.52,0.59,1*0A
$GNGSA,A,3,30,,,,,,,,,,,,0.78,0.52,0.59,1*06
$GNGSA,A,3,81,78,88,79,77,,,,,,,,0.78,0.52,0.59,2*0E
$GNGSA,A,3,21,13,26,27,15,,,,,,,,0.78,0.52,0.59,3*03
$GNGSA,A,3,23,09,06,16,07,40,28,39,43,25,37,,0.78,0.52,0.59,4*0E
$GPGSV,4,1,15,195,65,112,44,194,64,053,42,21,64,151,44,199,60,167,31,1*56
$GPGSV,4,2,15,08,60,001,41,50,60,167,32,02,52,176,39,07,44,314,44,1*60
$GPGSV,4,3,15,27,30,038,40,16,26,079,35,09,22,243,19,196,19,168,18,1*51
$GPGSV,4,4,15,04,15,200,18,30,14,319,23,26,06,102,,1*56
$GPGSV,2,1,07,195,65,112,47,194,64,053,45,08,60,001,45,199,60,167,40,8*52
$GPGSV,2,2,07,27,30,038,36,196,19,168,17,30,14,319,30,8*63
$GLGSV,2,1,06,81,70,206,39,78,58,046,45,88,51,029,46,79,29,336,33,1*72
$GLGSV,2,2,06,77,21,114,20,82,19,206,14,1*78
$GAGSV,2,1,08,21,55,016,37,13,54,075,43,26,47,171,38,27,28,083,35,7*77
$GAGSV,2,2,08,19,25,238,,15,12,037,17,04,12,296,,33,06,199,,7*75
$GAGSV,1,1,04,21,55,016,37,13,54,075,45,26,47,171,41,27,28,083,36,1*75
$GBGSV,4,1,13,23,75,043,46,09,72,260,35,06,69,214,38,16,66,199,38,1*71
$GBGSV,4,2,13,07,60,310,41,40,60,331,43,28,59,225,37,39,56,188,39,1*75
$GBGSV,4,3,13,43,55,035,47,10,51,292,,25,35,121,44,37,33,322,42,1*7F
$GBGSV,4,4,13,34,09,040,,1*4E
$GBGSV,2,1,07,23,75,043,48,40,60,331,41,28,59,225,35,39,56,188,38,4*7F
$GBGSV,2,2,07,43,55,035,44,25,35,121,41,37,33,322,32,4*45
$GNACCURACY,3.6*13
$PAIRSAT,1,35,2,0,201,3,0,200,4,0,221,5,0,200,6,0,200,7,0,201,8,0,221,9,0,220,10,0,200,11,0,200,12,0,200,13,0,200,14,0,200,15,0,200,16,0,201,17,0,200,18,0,200,19,0,200,20,0,200,21,0,201,22,0,200,23,0,200,24,0,200,25,0,200,26,0,220,27,0,221,28,0,200,29,0,200,30,0,221,31,0,200,32,0,200,194,0,621,195,0,621,196,0,620,199,0,621*5A
$PAIRSAT,2,24,65,0,200,66,0,200,67,0,200,68,0,200,69,0,200,70,0,200,71,0,200,72,0,200,73,0,200,74,0,200,75,0,200,76,0,200,77,0,201,78,0,201,79,0,201,80,0,200,81,0,201,82,0,201,83,0,200,84,0,200,85,0,200,86,0,200,87,0,200,88,0,201*7A
$PAIRSAT,3,23,2,0,1200,3,0,1200,4,0,1200,5,0,200,7,0,1200,8,0,1200,9,0,1200,10,0,1200,11,0,1200,12,0,1200,13,0,1221,15,0,1220,19,0,1201,21,0,1221,24,0,1200,25,0,1200,26,0,1221,27,0,1221,30,0,1200,31,0,1200,33,0,1200,34,0,1200,36,0,1200*69
$PAIRSAT,4,46,1,0,200,2,0,200,3,0,600,4,0,200,5,0,200,6,0,201,7,0,201,8,0,200,9,0,201,10,0,201,11,0,200,12,0,200,13,0,200,14,0,200,16,0,201,19,0,600,20,0,600,21,0,600,22,0,600,23,0,621,24,0,600,25,0,621,26,0,600,27,0,600,28,0,621,29,0,600,30,0,600,32,0,600,33,0,600,34,0,621,35,0,600,36,0,600,37,0,621,38,0,600,39,0,621,40,0,621,41,0,600,42,0,600,43,0,621,44,0,400,45,0,400,46,0,400,59,0,400,60,0,400,61,0,400,62,0,400*4A
$PAIRDGP,10,2,4,7,8,9,16,21,26,27,30*42
$GNGGA,041723.200,2500.7972514,N,12132.4357187,E,4,50,0.52,16.733,M,15.25,M,1,3335*44
$GNRMC,041723.200,A,2500.7972514,N,12132.4357187,E,0.02,345.47,090324,,,R,V*13
$GPHDT,320.350,T*32
$GNACCURACY,3.6*13
$GNGGA,041723.300,2500.7972543,N,12132.4357140,E,4,50,0.52,16.762,M,15.25,M,1,3335*48
$GNRMC,041723.300,A,2500.7972543,N,12132.4357140,E,0.01,345.47,090324,,,R,V*18
$GPHDT,,T*1B
$GNACCURACY,3.6*13
$GNGGA,041723.400,2500.7972528,N,12132.4357182,E,4,49,0.52,16.769,M,15.25,M,1,3335*4F
$GNRMC,041723.400,A,2500.7972528,N,12132.4357182,E,0.00,345.47,090324,,,R,V*1D
$GPHDT,320.019,T*3C
$GNACCURACY,3.6*13
$GNGGA,041723.500,2500.7972508,N,12132.4357183,E,4,49,0.52,16.756,M,15.25,M,1,3335*41
$GNRMC,041723.500,A,2500.7972508,N,12132.4357183,E,0.01,345.47,090324,,,R,V*1E
$GPHDT,,T*1B
$GNACCURACY,3.6*13
$GNGGA,041723.600,2500.7972500,N,12132.4357181,E,4,50,0.52,16.750,M,15.25,M,1,3335*46
$GNRMC,041723.600,A,2500.7972500,N,12132.4357181,E,0.01,345.47,090324,,,R,V*17
$GPHDT,320.527,T*34
$GNACCURACY,3.6*13
$GNGGA,041723.700,2500.7972514,N,12132.4357170,E,4,50,0.52,16.760,M,15.25,M,0,3335*4E
$GNRMC,041723.700,A,2500.7972514,N,12132.4357170,E,0.02,345.47,090324,,,R,V*1E
$GPHDT,,T*1B
$GNACCURACY,3.6*13
$GNGGA,041723.800,2500.7972522,N,12132.4357164,E,4,50,0.52,16.762,M,15.25,M,0,3335*43
$GNRMC,041723.800,A,2500.7972522,N,12132.4357164,E,0.02,345.47,090324,,,R,V*11
$GPHDT,320.270,T*31
$GNACCURACY,3.6*13
$GNGGA,041723.900,2500.7972526,N,12132.4357179,E,4,50,0.52,16.763,M,15.25,M,0,3335*4B
$GNRMC,041723.900,A,2500.7972526,N,12132.4357179,E,0.02,345.47,090324,,,R,V*18
$GPHDT,,T*1B
$GNACCURACY,3.6*13
$GNGGA,041724.000,2500.7972514,N,12132.4357172,E,4,50,0.52,16.756,M,15.25,M,1,3335*48
$GNRMC,041724.000,A,2500.7972514,N,12132.4357172,E,0.02,345.47,090324,,,R,V*1C
$GPHDT,319.814,T*33
$GNACCURACY,3.6*13
$GNGGA,041724.100,2500.7972524,N,12132.4357194,E,4,50,0.52,16.762,M,15.25,M,1,3335*45
$GNRMC,041724.100,A,2500.7972524,N,12132.4357194,E,0.02,345.47,090324,,,R,V*16
$GPHDT,,T*1B
$GNGSA,A,3,195,194,21,199,08,02,07,27,16,09,196,04,0.78,0.52,0.59,1*0A
$GNGSA,A,3,30,,,,,,,,,,,,0.78,0.52,0.59,1*06
$GNGSA,A,3,81,78,88,79,77,,,,,,,,0.78,0.52,0.59,2*0E
$GNGSA,A,3,21,13,26,27,15,,,,,,,,0.78,0.52,0.59,3*03
$GNGSA,A,3,23,09,06,16,07,40,28,39,43,25,37,,0.78,0.52,0.59,4*0E
$GPGSV,4,1,15,195,65,112,44,194,64,053,42,21,64,151,45,199,60,167,35,1*53
$GPGSV,4,2,15,08,60,001,41,50,60,167,37,02,52,176,42,07,44,314,44,1*69
$GPGSV,4,3,15,27,30,038,40,16,26,079,35,09,22,243,19,196,19,168,18,1*51
$GPGSV,4,4,15,04,15,200,18,30,14,319,22,26,06,102,,1*57
$GPGSV,2,1,07,195,65,112,45,194,64,053,45,08,60,001,45,199,60,167,42,8*52
$GPGSV,2,2,07,27,30,038,37,196,19,168,18,30,14,319,28,8*64
$GLGSV,2,1,06,81,70,206,42,78,58,046,44,88,51,029,44,79,29,336,33,1*7D
$GLGSV,2,2,06,77,21,114,20,82,19,206,12,1*7E
$GAGSV,2,1,08,21,55,016,36,13,54,075,43,26,47,171,39,27,28,083,35,7*77
$GAGSV,2,2,08,19,25,238,,15,12,037,18,04,12,296,,33,06,199,,7*7A
$GAGSV,1,1,04,21,55,016,36,13,54,075,45,26,47,171,41,27,28,083,38,1*7A
$GBGSV,4,1,13,23,75,043,46,09,72,260,35,06,69,214,41,16,66,199,41,1*71
$GBGSV,4,2,13,07,60,310,41,40,60,331,43,28,59,225,43,39,56,188,39,1*76
$GBGSV,4,3,13,43,55,035,47,10,51,292,,25,35,121,44,37,33,322,42,1*7F
$GBGSV,4,4,13,34,09,040,,1*4E
$GBGSV,2,1,07,23,75,043,47,40,60,331,41,28,59,225,39,39,56,188,39,4*7D
$GBGSV,2,2,07,43,55,035,44,25,35,121,41,37,33,322,36,4*41
$GNACCURACY,3.6*13
$PAIRSAT,1,35,2,0,201,3,0,200,4,0,221,5,0,200,6,0,200,7,0,201,8,0,221,9,0,220,10,0,200,11,0,200,12,0,200,13,0,200,14,0,200,15,0,200,16,0,201,17,0,200,18,0,200,19,0,200,20,0,200,21,0,201,22,0,200,23,0,200,24,0,200,25,0,200,26,0,220,27,0,221,28,0,200,29,0,200,30,0,221,31,0,200,32,0,200,194,0,621,195,0,621,196,0,620,199,0,621*5A
$PAIRSAT,2,24,65,0,200,66,0,200,67,0,200,68,0,200,69,0,200,70,0,200,71,0,200,72,0,200,73,0,200,74,0,200,75,0,200,76,0,200,77,0,201,78,0,201,79,0,201,80,0,200,81,0,201,82,0,201,83,0,200,84,0,200,85,0,200,86,0,200,87,0,200,88,0,201*7A
$PAIRSAT,3,23,2,0,1200,3,0,1200,4,0,1200,5,0,200,7,0,1200,8,0,1200,9,0,1200,10,0,1200,11,0,1200,12,0,1200,13,0,1221,15,0,1220,19,0,1201,21,0,1221,24,0,1200,25,0,1200,26,0,1221,27,0,1221,30,0,1200,31,0,1200,33,0,1200,34,0,1200,36,0,1200*69
$PAIRSAT,4,46,1,0,200,2,0,200,3,0,600,4,0,200,5,0,200,6,0,201,7,0,201,8,0,200,9,0,201,10,0,201,11,0,200,12,0,200,13,0,200,14,0,200,16,0,201,19,0,600,20,0,600,21,0,600,22,0,600,23,0,621,24,0,600,25,0,621,26,0,600,27,0,600,28,0,621,29,0,600,30,0,600,32,0,600,33,0,600,34,0,621,35,0,600,36,0,600,37,0,621,38,0,600,39,0,621,40,0,621,41,0,600,42,0,600,43,0,621,44,0,400,45,0,400,46,0,400,59,0,400,60,0,400,61,0,400,62,0,400*4A
$PAIRDGP,10,2,4,7,8,9,16,21,26,27,30*42
$GNGGA,041724.200,2500.7972526,N,12132.4357165,E,4,50,0.52,16.767,M,15.25,M,1,3335*4F
$GNRMC,041724.200,A,2500.7972526,N,12132.4357165,E,0.03,345.47,090324,,,R,V*18
$GPHDT,319.715,T*3D
$GNACCURACY,3.6*13
$GNGGA,041724.300,2500.7972522,N,12132.4357176,E,4,50,0.52,16.759,M,15.25,M,1,3335*45
$GNRMC,041724.300,A,2500.7972522,N,12132.4357176,E,0.02,345.47,090324,,,R,V*1E
$GPHDT,,T*1B
$GNACCURACY,3.6*13
$GNGGA,041724.400,2500.7972542,N,12132.4357191,E,4,51,0.52,16.770,M,15.25,M,1,3335*47
$GNRMC,041724.400,A,2500.7972542,N,12132.4357191,E,0.02,345.47,090324,,,R,V*16
$GPHDT,319.813,T*34
$GNACCURACY,3.6*13
$GNGGA,041724.500,2500.7972555,N,12132.4357157,E,4,50,0.52,16.773,M,15.25,M,1,3335*48
$GNRMC,041724.500,A,2500.7972555,N,12132.4357157,E,0.03,345.47,090324,,,R,V*1A
$GPHDT,,T*1B
$GNACCURACY,3.6*13
$GNGGA,041724.600,2500.7972583,N,12132.4357121,E,4,50,0.52,16.761,M,15.25,M,1,3335*42
$GNRMC,041724.600,A,2500.7972583,N,12132.4357121,E,0.03,345.47,090324,,,R,V*13
$GPHDT,319.477,T*3A
$GNACCURACY,3.6*13
$GNGGA,041724.700,2500.7972591,N,12132.4357123,E,4,50,0.52,16.751,M,15.25,M,0,3335*40
$GNRMC,041724.700,A,2500.7972591,N,12132.4357123,E,0.03,345.47,090324,,,R,V*13
$GPHDT,,T*1B
$GNACCURACY,3.6*13
$GNGGA,041724.800,2500.7972600,N,12132.4357132,E,4,50,0.52,16.765,M,15.25,M,0,3335*43
$GNRMC,041724.800,A,2500.7972600,N,12132.4357132,E,0.03,345.47,090324,,,R,V*17
$GPHDT,319.415,T*3E
$GNACCURACY,3.6*13
$GNGGA,041724.900,2500.7972593,N,12132.4357114,E,4,50,0.52,16.767,M,15.25,M,0,3335*4D
$GNRMC,041724.900,A,2500.7972593,N,12132.4357114,E,0.02,345.47,090324,,,R,V*1A
$GPHDT,,T*1B
$GNACCURACY,3.6*13
$GNGGA,041725.000,2500.7972601,N,12132.4357130,E,4,50,0.52,16.759,M,15.25,M,1,3335*47
$GNRMC,041725.000,A,2500.7972601,N,12132.4357130,E,0.02,345.47,090324,,,R,V*1C
$GPHDT,318.965,T*35
$GNACCURACY,3.6*13
$GNGGA,041725.100,2500.7972600,N,12132.4357121,E,4,50,0.52,16.754,M,15.25,M,1,3335*4A
$GNRMC,041725.100,A,2500.7972600,N,12132.4357121,E,0.02,345.47,090324,,,R,V*1C
$GPHDT,,T*1B
$GNGSA,A,3,195,21,194,08,199,02,07,27,16,09,196,04,0.78,0.52,0.59,1*0A
$GNGSA,A,3,30,,,,,,,,,,,,0.78,0.52,0.59,1*06
$GNGSA,A,3,81,78,88,79,77,,,,,,,,0.78,0.52,0.59,2*0E
$GNGSA,A,3,21,13,26,27,15,,,,,,,,0.78,0.52,0.59,3*03
$GNGSA,A,3,23,09,06,16,40,07,28,39,43,25,37,,0.78,0.52,0.59,4*0E
$GPGSV,4,1,15,195,65,112,44,21,64,151,44,194,64,053,42,50,60,167,32,1*61
$GPGSV,4,2,15,08,60,001,41,199,60,167,30,02,52,176,39,07,44,314,44,1*56
$GPGSV,4,3,15,27,30,038,40,16,26,079,35,09,22,243,19,196,19,168,18,1*51
$GPGSV,4,4,15,04,15,200,19,30,14,319,21,26,06,102,,1*55
$GPGSV,2,1,07,195,65,112,46,194,64,053,45,08,60,001,45,199,60,167,40,8*53
$GPGSV,2,2,07,27,30,038,36,196,19,168,16,30,14,319,32,8*60
$GLGSV,2,1,06,81,70,206,39,78,58,046,44,88,51,029,45,79,29,336,31,1*72
$GLGSV,2,2,06,77,21,114,20,82,19,206,12,1*7E
$GAGSV,2,1,07,21,55,016,36,13,54,075,43,26,47,171,37,27,28,083,35,7*76
$GAGSV,2,2,07,19,25,238,,15,12,037,18,33,06,199,,7*4F
$GAGSV,1,1,04,21,55,016,38,13,54,075,45,26,47,171,41,27,28,083,36,1*7A
$GBGSV,4,1,14,23,75,043,46,09,72,260,35,06,69,214,39,16,66,199,38,1*77
$GBGSV,4,2,14,40,60,331,43,07,60,310,41,28,59,225,36,39,56,188,38,1*72
$GBGSV,4,3,14,43,55,035,47,10,51,292,,25,35,121,44,37,33,322,40,1*7A
$GBGSV,4,4,14,34,09,040,,51,,,27,1*48
$GBGSV,2,1,07,23,75,043,47,40,60,331,40,28,59,225,34,39,56,188,35,4*7D
$GBGSV,2,2,07,43,55,035,43,25,35,121,40,37,33,322,31,4*40
$GNACCURACY,3.6*13
$PAIRSAT,1,35,2,0,201,3,0,200,4,0,221,5,0,200,6,0,200,7,0,201,8,0,221,9,0,220,10,0,200,11,0,200,12,0,200,13,0,200,14,0,200,15,0,200,16,0,201,17,0,200,18,0,200,19,0,200,20,0,200,21,0,201,22,0,200,23,0,200,24,0,200,25,0,200,26,0,220,27,0,221,28,0,200,29,0,200,30,0,221,31,0,200,32,0,200,194,0,621,195,0,621,196,0,620,199,0,621*5A
$PAIRSAT,2,24,65,0,200,66,0,200,67,0,200,68,0,200,69,0,200,70,0,200,71,0,200,72,0,200,73,0,200,74,0,200,75,0,200,76,0,200,77,0,201,78,0,201,79,0,201,80,0,200,81,0,201,82,0,201,83,0,200,84,0,200,85,0,200,86,0,200,87,0,200,88,0,201*7A
$PAIRSAT,3,23,2,0,1200,3,0,1200,4,0,1200,5,0,200,7,0,1200,8,0,1200,9,0,1200,10,0,1200,11,0,1200,12,0,1200,13,0,1221,15,0,1220,19,0,1201,21,0,1221,24,0,1200,25,0,1200,26,0,1221,27,0,1221,30,0,1200,31,0,1200,33,0,1200,34,0,1200,36,0,1200*69
$PAIRSAT,4,46,1,0,200,2,0,200,3,0,600,4,0,200,5,0,200,6,0,201,7,0,201,8,0,200,9,0,201,10,0,201,11,0,200,12,0,200,13,0,200,14,0,200,16,0,201,19,0,600,20,0,600,21,0,600,22,0,600,23,0,621,24,0,600,25,0,621,26,0,600,27,0,600,28,0,621,29,0,600,30,0,600,32,0,600,33,0,600,34,0,621,35,0,600,36,0,600,37,0,621,38,0,600,39,0,621,40,0,621,41,0,600,42,0,600,43,0,621,44,0,400,45,0,400,46,0,400,59,0,400,60,0,400,61,0,400,62,0,400*4A
$PAIRDGP,10,2,4,7,8,9,16,21,26,27,30*42
$GNGGA,041725.200,2500.7972589,N,12132.4357078,E,4,50,0.52,16.763,M,15.25,M,1,3335*42
$GNRMC,041725.200,A,2500.7972589,N,12132.4357078,E,0.01,345.47,090324,,,R,V*13
$GPHDT,319.179,T*31
$GNACCURACY,3.6*13
$GNGGA,041725.300,2500.7972578,N,12132.4357100,E,4,51,0.52,16.761,M,15.25,M,1,3335*40
$GNRMC,041725.300,A,2500.7972578,N,12132.4357100,E,0.01,345.47,090324,,,R,V*12
$GPHDT,,T*1B
$GNACCURACY,3.6*13
$GNGGA,041725.400,2500.7972558,N,12132.4357205,E,4,51,0.52,16.734,M,15.25,M,1,3335*43
$GNRMC,041725.400,A,2500.7972558,N,12132.4357205,E,0.01,345.47,090324,,,R,V*11
$GPHDT,318.965,T*35
$GNACCURACY,3.6*13
$GNGGA,041725.500,2500.7972530,N,12132.4357164,E,4,51,0.52,16.744,M,15.25,M,0,3335*4E
$GNRMC,041725.500,A,2500.7972530,N,12132.4357164,E,0.02,345.47,090324,,,R,V*19
$GPHDT,,T*1B
$GNACCURACY,3.6*13
$GNGGA,041725.600,2500.7972532,N,12132.4357103,E,4,51,0.52,16.769,M,15.25,M,0,3335*41
$GNRMC,041725.600,A,2500.7972532,N,12132.4357103,E,0.02,345.47,090324,,,R,V*19
$GPHDT,318.567,T*3B
$GNACCURACY,3.6*13
$GNGGA,041725.700,2500.7972523,N,12132.4357137,E,4,50,0.52,16.748,M,15.25,M,0,3335*45
$GNRMC,041725.700,A,2500.7972523,N,12132.4357137,E,0.02,345.47,090324,,,R,V*1F
$GPHDT,,T*1B
$GNACCURACY,3.6*13
$GNGGA,041725.800,2500.7972522,N,12132.4357143,E,4,50,0.52,16.751,M,15.25,M,0,3335*40
$GNRMC,041725.800,A,2500.7972522,N,12132.4357143,E,0.02,345.47,090324,,,R,V*12
$GPHDT,319.108,T*37
$GNACCURACY,3.6*13
$GNGGA,041725.900,2500.7972527,N,12132.4357138,E,4,50,0.52,16.758,M,15.25,M,0,3335*41
$GNRMC,041725.900,A,2500.7972527,N,12132.4357138,E,0.02,345.47,090324,,,R,V*1A
$GPHDT,,T*1B
$GNACCURACY,3.6*13
$GNGGA,041726.000,2500.7972532,N,12132.4357136,E,4,50,0.52,16.756,M,15.25,M,1,3335*4E
$GNRMC,041726.000,A,2500.7972532,N,12132.4357136,E,0.01,345.47,090324,,,R,V*19
$GPHDT,319.016,T*39
$GNACCURACY,3.6*13
$GNGGA,041726.100,2500.7972542,N,12132.4357145,E,4,51,0.52,16.757,M,15.25,M,1,3335*4C
$GNRMC,041726.100,A,2500.7972542,N,12132.4357145,E,0.01,345.47,090324,,,R,V*1B
$GPHDT,,T*1B
$GNGSA,A,3,195,21,194,08,199,02,07,27,16,09,196,04,0.78,0.52,0.59,1*0A
$GNGSA,A,3,30,,,,,,,,,,,,0.78,0.52,0.59,1*06
$GNGSA,A,3,81,78,88,79,77,,,,,,,,0.78,0.52,0.59,2*0E
$GNGSA,A,3,21,13,26,27,15,,,,,,,,0.78,0.52,0.59,3*03
$GNGSA,A,3,23,09,06,16,40,07,28,39,43,25,37,,0.78,0.52,0.59,4*0E
$GPGSV,4,1,15,195,65,112,44,21,64,151,44,194,64,053,41,50,60,167,38,1*68
$GPGSV,4,2,15,08,60,001,41,199,60,167,35,02,52,176,44,07,45,314,43,1*5F
$GPGSV,4,3,15,27,30,038,41,16,26,079,36,09,22,243,19,196,19,168,19,1*52
$GPGSV,4,4,15,04,15,200,19,30,14,319,19,26,06,102,,1*5E
$GPGSV,2,1,07,195,65,112,45,194,64,053,45,08,60,001,45,199,60,167,44,8*54
$GPGSV,2,2,07,27,30,038,36,196,19,168,20,30,14,319,30,8*67
$GLGSV,2,1,06,81,70,206,43,78,58,046,44,88,51,029,45,79,29,336,32,1*7C
$GLGSV,2,2,06,77,21,114,20,82,19,206,12,1*7E
$GAGSV,2,1,07,21,55,016,36,13,54,075,43,26,47,171,41,27,28,083,36,7*74
$GAGSV,2,2,07,19,25,238,,15,12,037,19,33,06,199,,7*4E
$GAGSV,1,1,04,13,54,075,45,26,47,171,43,27,28,083,37,15,12,037,18,1*7C
$GBGSV,4,1,14,23,75,043,46,09,72,260,36,06,69,214,42,16,66,199,42,1*75
$GBGSV,4,2,14,40,60,331,43,07,60,310,40,28,59,225,44,39,56,188,41,1*78
$GBGSV,4,3,14,43,55,035,47,10,51,292,,25,35,121,44,37,33,322,41,1*7B
$GBGSV,4,4,14,34,09,040,,51,,,27,1*48
$GBGSV,2,1,07,23,75,043,47,40,60,331,41,28,59,225,41,39,56,188,40,4*7C
$GBGSV,2,2,07,43,55,035,44,25,35,121,40,37,33,322,36,4*40
$GNACCURACY,3.6*13
$PAIRSAT,1,35,2,0,201,3,0,200,4,0,221,5,0,200,6,0,200,7,0,201,8,0,221,9,0,220,10,0,200,11,0,200,12,0,200,13,0,200,14,0,200,15,0,200,16,0,201,17,0,200,18,0,200,19,0,200,20,0,200,21,0,201,22,0,200,23,0,200,24,0,200,25,0,200,26,0,220,27,0,221,28,0,200,29,0,200,30,0,221,31,0,200,32,0,200,194,0,621,195,0,621,196,0,620,199,0,621*5A
$PAIRSAT,2,24,65,0,200,66,0,200,67,0,200,68,0,200,69,0,200,70,0,200,71,0,200,72,0,200,73,0,200,74,0,200,75,0,200,76,0,200,77,0,201,78,0,201,79,0,201,80,0,200,81,0,201,82,0,201,83,0,200,84,0,200,85,0,200,86,0,200,87,0,200,88,0,201*7A
$PAIRSAT,3,23,2,0,1200,3,0,1200,4,0,1200,5,0,200,7,0,1200,8,0,1200,9,0,1200,10,0,1200,11,0,1200,12,0,1200,13,0,1221,15,0,1220,19,0,1201,21,0,1221,24,0,1200,25,0,1200,26,0,1221,27,0,1221,30,0,1200,31,0,1200,33,0,1200,34,0,1200,36,0,1200*69
$PAIRSAT,4,46,1,0,200,2,0,200,3,0,600,4,0,200,5,0,200,6,0,201,7,0,201,8,0,200,9,0,201,10,0,201,11,0,200,12,0,200,13,0,200,14,0,200,16,0,201,19,0,600,20,0,600,21,0,600,22,0,600,23,0,621,24,0,600,25,0,621,26,0,600,27,0,600,28,0,621,29,0,600,30,0,600,32,0,600,33,0,600,34,0,621,35,0,600,36,0,600,37,0,621,38,0,600,39,0,621,40,0,621,41,0,600,42,0,600,43,0,621,44,0,400,45,0,400,46,0,400,59,0,400,60,0,400,61,0,400,62,0,400*4A
$PAIRDGP,10,2,4,7,8,9,16,21,26,27,30*42
$GNGGA,041726.200,2500.7972538,N,12132.4357142,E,4,51,0.52,16.756,M,15.25,M,1,3335*44
$GNRMC,041726.200,A,2500.7972538,N,12132.4357142,E,0.02,345.47,090324,,,R,V*11
$GPHDT,318.810,T*36
$GNACCURACY,3.6*13
$GNGGA,041726.300,2500.7972537,N,12132.4357142,E,4,52,0.52,16.758,M,15.25,M,1,3335*47
$GNRMC,041726.300,A,2500.7972537,N,12132.4357142,E,0.01,345.47,090324,,,R,V*1C
$GPHDT,,T*1B
$GNACCURACY,3.6*13
$GNGGA,041726.400,2500.7972528,N,12132.4357136,E,4,51,0.52,16.760,M,15.25,M,1,3335*45
$GNRMC,041726.400,A,2500.7972528,N,12132.4357136,E,0.00,345.47,090324,,,R,V*17
$GPHDT,319.442,T*3C
$GNACCURACY,3.6*13
$GNGGA,041726.500,2500.7972528,N,12132.4357160,E,4,51,0.52,16.759,M,15.25,M,1,3335*4D
$GNRMC,041726.500,A,2500.7972528,N,12132.4357160,E,0.01,345.47,090324,,,R,V*14
$GPHDT,,T*1B
$GNACCURACY,3.6*13
$GNGGA,041726.600,2500.7972511,N,12132.4357144,E,4,51,0.52,16.762,M,15.25,M,1,3335*4A
$GNRMC,041726.600,A,2500.7972511,N,12132.4357144,E,0.01,345.47,090324,,,R,V*1B
$GPHDT,319.373,T*39
$GNACCURACY,3.6*13
$GNGGA,041726.700,2500.7972498,N,12132.4357182,E,4,51,0.52,16.730,M,15.25,M,1,3335*46
$GNRMC,041726.700,A,2500.7972498,N,12132.4357182,E,0.00,345.47,090324,,,R,V*11
$GPHDT,,T*1B
$GNACCURACY,3.6*13
$GNGGA,041726.800,2500.7972513,N,12132.4357184,E,4,52,0.52,16.716,M,15.25,M,0,3335*4B
$GNRMC,041726.800,A,2500.7972513,N,12132.4357184,E,0.00,345.47,090324,,,R,V*1A
$GPHDT,319.268,T*32
$GNACCURACY,3.6*13
$GNGGA,041726.900,2500.7972531,N,12132.4357162,E,4,52,0.52,16.726,M,15.25,M,0,3335*41
$GNRMC,041726.900,A,2500.7972531,N,12132.4357162,E,0.01,345.47,090324,,,R,V*12
$GPHDT,,T*1B
$GNACCURACY,3.6*13
$GNGGA,041727.000,2500.7972540,N,12132.4357110,E,4,52,0.52,16.750,M,15.25,M,1,3335*4A
$GNRMC,041727.000,A,2500.7972540,N,12132.4357110,E,0.00,345.47,090324,,,R,V*18
$GPHDT,319.352,T*3A
$GNACCURACY,3.6*13
$GNGGA,041727.100,2500.7972557,N,12132.4357124,E,4,52,0.52,16.761,M,15.25,M,1,3335*48
$GNRMC,041727.100,A,2500.7972557,N,12132.4357124,E,0.00,345.47,090324,,,R,V*18
$GPHDT,,T*1B
$GNGSA,A,3,195,21,194,08,199,02,07,27,16,09,196,04,0.89,0.52,0.73,1*0C
$GNGSA,A,3,30,,,,,,,,,,,,0.89,0.52,0.73,1*00
$GNGSA,A,3,81,78,88,79,77,,,,,,,,0.89,0.52,0.73,2*08
$GNGSA,A,3,21,13,26,27,15,,,,,,,,0.89,0.52,0.73,3*05
$GNGSA,A,3,23,09,06,16,40,07,28,39,43,25,37,,0.89,0.52,0.73,4*08
$GPGSV,4,1,15,195,65,112,43,21,64,151,45,194,64,053,42,50,60,167,37,1*62
$GPGSV,4,2,15,08,60,001,42,199,60,167,35,02,52,176,40,07,45,314,42,1*59
$GPGSV,4,3,15,27,30,038,41,16,26,079,35,09,22,243,19,196,19,168,19,1*51
$GPGSV,4,4,15,04,15,200,19,30,14,319,19,26,06,102,,1*5E
$GPGSV,2,1,07,195,65,112,46,194,64,053,45,08,60,001,45,199,60,167,41,8*52
$GPGSV,2,2,07,27,30,038,34,196,19,168,18,30,14,319,30,8*6E
$GLGSV,2,1,06,81,70,206,41,78,58,046,45,88,51,029,45,79,29,336,31,1*7C
$GLGSV,2,2,06,77,21,114,20,82,19,206,11,1*7D
$GAGSV,2,1,07,21,55,016,36,13,54,075,43,26,47,171,39,27,28,083,35,7*78
$GAGSV,2,2,07,19,25,238,,15,12,037,19,33,06,199,,7*4E
$GAGSV,1,1,04,13,54,075,45,26,47,171,43,27,28,083,37,15,12,037,18,1*7C
$GBGSV,4,1,14,23,75,043,46,09,72,260