$FW : RTK35X,V1.1X0314AS,Lib20210517,1*54
$Tool : LOCOSYS , GNSS Firebird , v1.0.0.19*39
$---------------------------------------------------*2D
$GNACCURACY,3.6*13
$GNGGA,041703.900,2500.7972608,N,12132.4357462,E,4,51,0.52,16.735,M,15.25,M,0,3335*4B
$GNRMC,041703.900,A,2500.7972608,N,12132.4357462,E,0.01,345.47,090324,,,R,V*19
$GPHDT,,T*1B
$GNACCURACY,3.6*13
$GNGGA,041704.000,2500.7972616,N,12132.4357479,E,4,51,0.52,16.735,M,15.25,M,1,3335*41
$GNRMC,041704.000,A,2500.7972616,N,12132.4357479,E,0.02,345.47,090324,,,R,V*11
$GPHDT,48.889,T*00
$GNACCURACY,3.6*13
$GNGGA,041704.100,2500.7972606,N,12132.4357482,E,4,51,0.52,16.728,M,15.25,M,1,3335*49
$GNRMC,041704.100,A,2500.7972606,N,12132.4357482,E,0.02,345.47,090324,,,R,V*15
$GPHDT,,T*1B
$GNGSA,A,3,195,194,21,199,08,02,07,27,16,09,196,30,0.78,0.52,0.59,1*0D
$GNGSA,A,3,81,78,88,79,77,82,,,,,,,0.78,0.52,0.59,2*04
$GNGSA,A,3,21,13,26,27,15,,,,,,,,0.78,0.52,0.59,3*03
$GNGSA,A,3,23,09,06,16,07,40,28,39,43,25,37,,0.78,0.52,0.59,4*0E
$GPGSV,4,1,15,195,65,112,44,194,64,053,40,21,64,151,45,199,60,167,37,1*53
$GPGSV,4,2,15,08,60,000,44,50,60,167,39,02,52,176,45,07,44,314,44,1*64
$GPGSV,4,3,15,27,30,038,34,16,26,079,25,09,22,243,17,196,19,168,20,1*56
$GPGSV,4,4,15,04,15,200,18,30,14,319,28,26,06,102,,1*5D
$GPGSV,2,1,06,195,65,112,45,194,64,053,44,08,60,000,47,199,60,167,46,8*55
$GPGSV,2,2,06,27,30,038,38,30,14,319,34,8*67
$GLGSV,2,1,06,81,69,206,43,78,58,045,43,88,51,029,40,79,29,336,41,1*71
$GLGSV,2,2,06,77,21,114,13,82,19,206,19,1*75
$GAGSV,2,1,08,21,55,016,42,13,54,075,40,26,47,171,42,27,28,083,32,7*7C
$GAGSV,2,2,08,19,25,238,,15,12,037,20,04,12,296,,33,06,199,,7*71
$GAGSV,1,1,04,21,55,016,40,13,54,075,41,26,47,171,44,15,12,037,19,1*7E
$GBGSV,4,1,13,23,75,042,45,09,72,261,35,06,69,214,42,16,66,199,43,1*73
$GBGSV,4,2,13,07,60,310,41,40,60,331,45,28,59,225,44,39,56,188,44,1*7D
$GBGSV,4,3,13,43,55,035,44,10,51,292,,25,35,121,43,37,33,322,42,1*7B
$GBGSV,4,4,13,34,09,040,,1*4E
$GBGSV,2,1,07,23,75,042,45,40,60,331,42,28,59,225,42,39,56,188,42,4*7D
$GBGSV,2,2,07,43,55,035,43,25,35,121,40,37,33,322,44,4*42
$GNACCURACY,3.6*13
$PAIRSAT,1,35,2,0,201,3,0,200,4,0,221,5,0,200,6,0,200,7,0,201,8,0,221,9,0,220,10,0,200,11,0,200,12,0,200,13,0,200,14,0,200,15,0,200,16,0,201,17,0,200,18,0,200,19,0,200,20,0,200,21,0,201,22,0,200,23,0,200,24,0,200,25,0,200,26,0,220,27,0,221,28,0,200,29,0,200,30,0,221,31,0,200,32,0,200,194,0,621,195,0,621,196,0,620,199,0,621*5A
$PAIRSAT,2,24,65,0,200,66,0,200,67,0,200,68,0,200,69,0,200,70,0,200,71,0,200,72,0,200,73,0,200,74,0,200,75,0,200,76,0,200,77,0,201,78,0,201,79,0,201,80,0,200,81,0,201,82,0,201,83,0,200,84,0,200,85,0,200,86,0,200,87,0,200,88,0,201*7A
$PAIRSAT,3,23,2,0,1200,3,0,1200,4,0,1200,5,0,200,7,0,1200,8,0,1200,9,0,1200,10,0,1200,11,0,1200,12,0,1200,13,0,1221,15,0,1220,19,0,1201,21,0,1221,24,0,1200,25,0,1200,26,0,1221,27,0,1221,30,0,1200,31,0,1200,33,0,1200,34,0,1200,36,0,1200*69
$PAIRSAT,4,46,1,0,200,2,0,200,3,0,600,4,0,200,5,0,200,6,0,201,7,0,201,8,0,200,9,0,201,10,0,201,11,0,200,12,0,200,13,0,200,14,0,200,16,0,201,19,0,600,20,0,600,21,0,600,22,0,600,23,0,621,24,0,600,25,0,621,26,0,600,27,0,600,28,0,621,29,0,600,30,0,600,32,0,600,33,0,600,34,0,621,35,0,600,36,0,600,37,0,621,38,0,600,39,0,621,40,0,621,41,0,600,42,0,600,43,0,621,44,0,400,45,0,400,46,0,400,59,0,400,60,0,400,61,0,400,62,0,400*4A
$PAIRDGP,10,2,4,7,8,9,16,21,26,27,30*42
$GNGGA,041704.200,2500.7972592,N,12132.4357447,E,4,51,0.52,16.731,M,15.25,M,1,3335*45
$GNRMC,041704.200,A,2500.7972592,N,12132.4357447,E,0.01,345.47,090324,,,R,V*12
$GPHDT,48.504,T*08
$GNACCURACY,3.6*13
$GNGGA,041704.300,2500.7972619,N,12132.4357460,E,4,51,0.52,16.735,M,15.25,M,1,3335*45
$GNRMC,041704.300,A,2500.7972619,N,12132.4357460,E,0.01,345.47,090324,,,R,V*16
$GPHDT,,T*1B
$GNACCURACY,3.6*13
$GNGGA,041704.400,2500.7972616,N,12132.4357456,E,4,51,0.52,16.726,M,15.25,M,1,3335*4A
$GNRMC,041704.400,A,2500.7972616,N,12132.4357456,E,0.01,345.47,090324,,,R,V*1B
$GPHDT,48.209,T*02
$GNACCURACY,3.6*13
$GNGGA,041704.500,2500.7972610,N,12132.4357461,E,4,51,0.52,16.724,M,15.25,M,1,3335*4B
$GNRMC,041704.500,A,2500.7972610,N,12132.4357461,E,0.01,345.47,090324,,,R,V*18
$GPHDT,,T*1B
$GNACCURACY,3.6*13
$GNGGA,041704.600,2500.7972616,N,12132.4357473,E,4,51,0.52,16.738,M,15.25,M,0,3335*41
$GNRMC,041704.600,A,2500.7972616,N,12132.4357473,E,0.01,345.47,090324,,,R,V*1E
$GPHDT,48.379,T*04
$GNACCURACY,3.6*13
$GNGGA,041704.700,2500.7972618,N,12132.4357452,E,4,51,0.52,16.738,M,15.25,M,0,3335*4D
$GNRMC,041704.700,A,2500.7972618,N,12132.4357452,E,0.02,345.47,090324,,,R,V*11
$GPHDT,,T*1B
$GNACCURACY,3.6*13
$GNGGA,041704.800,2500.7972614,N,12132.4357457,E,4,51,0.52,16.736,M,15.25,M,0,3335*45
$GNRMC,041704.800,A,2500.7972614,N,12132.4357457,E,0.02,345.47,090324,,,R,V*17
$GPHDT,48.742,T*08
$GNACCURACY,3.6*13
$GNGGA,041704.900,2500.7972627,N,12132.4357460,E,4,51,0.52,16.732,M,15.25,M,0,3335*44
$GNRMC,041704.900,A,2500.7972627,N,12132.4357460,E,0.02,345.47,090324,,,R,V*12
$GPHDT,,T*1B
$GNACCURACY,3.6*13
$GNGGA,041705.000,2500.7972609,N,12132.4357448,E,4,52,0.52,16.731,M,15.25,M,1,3335*4B
$GNRMC,041705.000,A,2500.7972609,N,12132.4357448,E,0.02,345.47,090324,,,R,V*1C
$GPHDT,48.623,T*0E
$GNACCURACY,3.6*13
$GNGGA,041705.100,2500.7972621,N,12132.4357460,E,4,52,0.52,16.723,M,15.25,M,1,3335*49
$GNRMC,041705.100,A,2500.7972621,N,12132.4357460,E,0.01,345.47,090324,,,R,V*1E
$GPHDT,,T*1B
$GNGSA,A,3,195,194,21,199,08,02,07,27,09,196,30,,0.80,0.53,0.60,1*06
$GNGSA,A,3,81,78,88,79,77,82,,,,,,,0.80,0.53,0.60,2*08
$GNGSA,A,3,21,13,26,27,15,,,,,,,,0.80,0.53,0.60,3*0F
$GNGSA,A,3,23,09,06,16,40,07,28,39,43,25,37,,0.80,0.53,0.60,4*02
$GPGSV,4,1,15,195,65,112,44,194,64,053,40,21,64,151,45,199,60,167,37,1*53
$GPGSV,4,2,15,08,60,000,44,50,60,167,39,02,52,176,45,07,44,314,44,1*64
$GPGSV,4,3,15,27,30,038,33,16,26,079,25,09,22,243,17,196,19,168,20,1*51
$GPGSV,4,4,15,04,15,200,18,30,14,319,29,26,06,102,,1*5C
$GPGSV,2,1,06,195,65,112,45,194,64,053,44,08,60,000,47,199,60,167,46,8*55
$GPGSV,2,2,06,27,30,038,37,30,14,319,34,8*68
$GLGSV,2,1,06,81,69,206,43,78,58,045,43,88,51,029,43,79,29,336,41,1*72
$GLGSV,2,2,06,77,21,114,16,82,19,206,19,1*70
$GAGSV,2,1,07,21,55,016,42,13,54,075,40,26,47,171,42,27,28,083,32,7*73
$GAGSV,2,2,07,19,25,238,,15,12,037,20,33,06,199,,7*44
$GAGSV,2,1,05,21,55,016,39,13,54,075,41,26,47,171,44,27,28,083,29,1*76
$GAGSV,2,2,05,15,12,037,17,1*45
$GBGSV,4,1,14,23,75,043,45,09,72,261,35,06,69,214,42,16,66,199,42,1*74
$GBGSV,4,2,14,40,60,331,45,07,60,310,41,28,59,225,44,39,56,188,45,1*7B
$GBGSV,4,3,14,43,55,035,44,10,51,292,,25,35,121,43,37,33,322,40,1*7E
$GBGSV,4,4,14,34,09,040,,08,02,177,,1*72
$GBGSV,2,1,07,23,75,043,45,40,60,331,41,28,59,225,42,39,56,188,42,4*7F
$GBGSV,2,2,07,43,55,035,43,25,35,121,40,37,33,322,44,4*42
$GNACCURACY,3.6*13
$PAIRSAT,1,35,2,0,201,3,0,200,4,0,221,5,0,200,6,0,200,7,0,201,8,0,221,9,0,220,10,0,200,11,0,200,12,0,200,13,0,200,14,0,200,15,0,200,16,0,201,17,0,200,18,0,200,19,0,200,20,0,200,21,0,201,22,0,200,23,0,200,24,0,200,25,0,200,26,0,220,27,0,221,28,0,200,29,0,200,30,0,221,31,0,200,32,0,200,194,0,621,195,0,621,196,0,620,199,0,621*5A
$PAIRSAT,2,24,65,0,200,66,0,200,67,0,200,68,0,200,69,0,200,70,0,200,71,0,200,72,0,200,73,0,200,74,0,200,75,0,200,76,0,200,77,0,201,78,0,201,79,0,201,80,0,200,81,0,201,82,0,201,83,0,200,84,0,200,85,0,200,86,0,200,87,0,200,88,0,201*7A
$PAIRSAT,3,23,2,0,1200,3,0,1200,4,0,1200,5,0,200,7,0,1200,8,0,1200,9,0,1200,10,0,1200,11,0,1200,12,0,1200,13,0,1221,15,0,1220,19,0,1201,21,0,1221,24,0,1200,25,0,1200,26,0,1221,27,0,1221,30,0,1200,31,0,1200,33,0,1200,34,0,1200,36,0,1200*69
$PAIRSAT,4,46,1,0,200,2,0,200,3,0,600,4,0,200,5,0,200,6,0,201,7,0,201,8,0,200,9,0,201,10,0,201,11,0,200,12,0,200,13,0,200,14,0,200,16,0,201,19,0,600,20,0,600,21,0,600,22,0,600,23,0,621,24,0,600,25,0,621,26,0,600,27,0,600,28,0,621,29,0,600,30,0,600,32,0,600,33,0,600,34,0,621,35,0,600,36,0,600,37,0,621,38,0,600,39,0,621,40,0,621,41,0,600,42,0,600,43,0,621,44,0,400,45,0,400,46,0,400,59,0,400,60,0,400,61,0,400,62,0,400*4A
$PAIRDGP,10,2,4,7,8,9,16,21,26,27,30*42
$GNGGA,041705.200,2500.7972608,N,12132.4357438,E,4,51,0.53,16.779,M,15.25,M,1,3335*41
$GNRMC,041705.200,A,2500.7972608,N,12132.4357438,E,0.00,345.47,090324,,,R,V*1A
$GPHDT,48.808,T*09
$GNACCURACY,3.6*13
$GNGGA,041705.300,2500.7972618,N,12132.4357459,E,4,51,0.53,16.738,M,15.25,M,1,3335*43
$GNRMC,041705.300,A,2500.7972618,N,12132.4357459,E,0.01,345.47,090324,,,R,V*1C
$GPHDT,,T*1B
$GNACCURACY,3.6*13
$GNGGA,041705.400,2500.7972626,N,12132.4357507,E,4,51,0.53,16.751,M,15.25,M,1,3335*4C
$GNRMC,041705.400,A,2500.7972626,N,12132.4357507,E,0.01,345.47,090324,,,R,V*1C
$GPHDT,48.428,T*07
$GNACCURACY,3.6*13
$GNGGA,041705.500,2500.7972626,N,12132.4357505,E,4,51,0.53,16.735,M,15.25,M,1,3335*4D
$GNRMC,041705.500,A,2500.7972626,N,12132.4357505,E,0.01,345.47,090324,,,R,V*1F
$GPHDT,,T*1B
$GNACCURACY,3.6*13
$GNGGA,041705.600,2500.7972600,N,12132.4357460,E,4,51,0.53,16.739,M,15.25,M,0,3335*45
$GNRMC,041705.600,A,2500.7972600,N,12132.4357460,E,0.01,345.47,090324,,,R,V*1A
$GPHDT,48.700,T*0E
$GNACCURACY,3.6*13
$GNGGA,041705.700,2500.7972621,N,12132.4357469,E,4,51,0.53,16.737,M,15.25,M,0,3335*40
$GNRMC,041705.700,A,2500.7972621,N,12132.4357469,E,0.01,345.47,090324,,,R,V*11
$GPHDT,,T*1B
$GNACCURACY,3.6*13
$GNGGA,041705.800,2500.7972594,N,12132.4357452,E,4,52,0.53,16.741,M,15.25,M,0,3335*48
$GNRMC,041705.800,A,2500.7972594,N,12132.4357452,E,0.01,345.47,090324,,,R,V*1B
$GPHDT,48.747,T*0D
$GNACCURACY,3.6*13
$GNGGA,041705.900,2500.7972605,N,12132.4357470,E,4,51,0.53,16.736,M,15.25,M,0,3335*41
$GNRMC,041705.900,A,2500.7972605,N,12132.4357470,E,0.01,345.47,090324,,,R,V*11
$GPHDT,,T*1B
$GNACCURACY,3.6*13
$GNGGA,041706.000,2500.7972605,N,12132.4357467,E,4,51,0.53,16.735,M,15.25,M,1,3335*4F
$GNRMC,041706.000,A,2500.7972605,N,12132.4357467,E,0.00,345.47,090324,,,R,V*1C
$GPHDT,48.921,T*03
$GNACCURACY,3.6*13
$GNGGA,041706.100,2500.7972629,N,12132.4357463,E,4,51,0.53,16.762,M,15.25,M,1,3335*46
$GNRMC,041706.100,A,2500.7972629,N,12132.4357463,E,0.01,345.47,090324,,,R,V*16
$GPHDT,,T*1B
$GNGSA,A,3,195,194,21,199,08,02,07,27,16,09,196,30,0.81,0.53,0.61,1*01
$GNGSA,A,3,81,78,88,79,82,,,,,,,,0.81,0.53,0.61,2*08
$GNGSA,A,3,21,13,26,27,15,,,,,,,,0.81,0.53,0.61,3*0F
$GNGSA,A,3,23,09,06,16,40,07,28,39,43,25,37,,0.81,0.53,0.61,4*02
$GPGSV,4,1,15,195,65,112,44,194,64,053,40,21,64,151,45,199,60,167,37,1*53
$GPGSV,4,2,15,08,60,000,44,50,60,167,39,02,52,176,45,07,44,314,44,1*64
$GPGSV,4,3,15,27,30,038,34,16,26,079,25,09,22,243,17,196,19,168,20,1*56
$GPGSV,4,4,15,04,15,200,19,30,14,319,29,26,06,102,,1*5D
$GPGSV,2,1,06,195,65,112,45,194,64,053,44,08,60,000,47,199,60,167,46,8*55
$GPGSV,2,2,06,27,30,038,37,30,14,319,35,8*69
$GLGSV,2,1,07,81,69,206,43,78,58,045,43,88,51,029,43,79,29,336,41,1*73
$GLGSV,2,2,07,77,21,114,15,82,19,206,21,69,02,277,,1*46
$GAGSV,2,1,07,21,55,016,42,13,54,075,40,26,47,171,42,27,28,083,33,7*72
$GAGSV,2,2,07,19,25,238,,15,12,037,20,33,06,199,,7*44
$GAGSV,2,1,05,21,55,016,41,13,54,075,41,26,47,171,44,27,28,083,28,1*78
$GAGSV,2,2,05,15,12,037,18,1*4A
$GBGSV,4,1,14,23,75,043,46,09,72,261,35,06,69,214,42,16,66,199,42,1*77
$GBGSV,4,2,14,40,60,331,45,07,60,310,40,28,59,225,44,39,56,188,45,1*7A
$GBGSV,4,3,14,43,55,035,44,10,51,292,,25,35,121,43,37,33,322,41,1*7F
$GBGSV,4,4,14,34,09,040,,08,02,177,,1*72
$GBGSV,2,1,07,23,75,043,45,40,60,331,43,28,59,225,42,39,56,188,42,4*7D
$GBGSV,2,2,07,43,55,035,43,25,35,121,41,37,33,322,44,4*43
$GNACCURACY,3.6*13
$PAIRSAT,1,35,2,0,201,3,0,200,4,0,221,5,0,200,6,0,200,7,0,201,8,0,221,9,0,220,10,0,200,11,0,200,12,0,200,13,0,200,14,0,200,15,0,200,16,0,201,17,0,200,18,0,200,19,0,200,20,0,200,21,0,201,22,0,200,23,0,200,24,0,200,25,0,200,26,0,220,27,0,221,28,0,200,29,0,200,30,0,221,31,0,200,32,0,200,194,0,621,195,0,621,196,0,620,199,0,621*5A
$PAIRSAT,2,24,65,0,200,66,0,200,67,0,200,68,0,200,69,0,200,70,0,200,71,0,200,72,0,200,73,0,200,74,0,200,75,0,200,76,0,200,77,0,201,78,0,201,79,0,201,80,0,200,81,0,201,82,0,201,83,0,200,84,0,200,85,0,200,86,0,200,87,0,200,88,0,201*7A
$PAIRSAT,3,23,2,0,1200,3,0,1200,4,0,1200,5,0,200,7,0,1200,8,0,1200,9,0,1200,10,0,1200,11,0,1200,12,0,1200,13,0,1221,15,0,1220,19,0,1201,21,0,1221,24,0,1200,25,0,1200,26,0,1221,27,0,1221,30,0,1200,31,0,1200,33,0,1200,34,0,1200,36,0,1200*69
$PAIRSAT,4,46,1,0,200,2,0,200,3,0,600,4,0,200,5,0,200,6,0,201,7,0,201,8,0,200,9,0,201,10,0,201,11,0,200,12,0,200,13,0,200,14,0,200,16,0,201,19,0,600,20,0,600,21,0,600,22,0,600,23,0,621,24,0,600,25,0,621,26,0,600,27,0,600,28,0,621,29,0,600,30,0,600,32,0,600,33,0,600,34,0,621,35,0,600,36,0,600,37,0,621,38,0,600,39,0,621,40,0,621,41,0,600,42,0,600,43,0,621,44,0,400,45,0,400,46,0,400,59,0,400,60,0,400,61,0,400,62,0,400*4A
$PAIRDGP,10,2,4,7,8,9,16,21,26,27,30*42
$GNGGA,041706.200,2500.7972640,N,12132.4357537,E,4,51,0.53,16.732,M,15.25,M,1,3335*4F
$GNRMC,041706.200,A,2500.7972640,N,12132.4357537,E,0.01,345.47,090324,,,R,V*1A
$GPHDT,48.648,T*03
$GNACCURACY,3.6*13
$GNGGA,041706.300,2500.7972627,N,12132.4357495,E,4,51,0.53,16.737,M,15.25,M,1,3335*43
$GNRMC,041706.300,A,2500.7972627,N,12132.4357495,E,0.02,345.47,090324,,,R,V*10
$GPHDT,,T*1B
$GNACCURACY,3.6*13
$GNGGA,041706.400,2500.7972609,N,12132.4357465,E,4,51,0.53,16.726,M,15.25,M,1,3335*47
$GNRMC,041706.400,A,2500.7972609,N,12132.4357465,E,0.02,345.47,090324,,,R,V*14
$GPHDT,48.939,T*0A
$GNACCURACY,3.6*13
$GNGGA,041706.500,2500.7972624,N,12132.4357470,E,4,51,0.53,16.728,M,15.25,M,1,3335*43
$GNRMC,041706.500,A,2500.7972624,N,12132.4357470,E,0.01,345.47,090324,,,R,V*1D
$GPHDT,,T*1B
$GNACCURACY,3.6*13
$GNGGA,041706.600,2500.7972620,N,12132.4357465,E,4,51,0.53,16.739,M,15.25,M,1,3335*40
$GNRMC,041706.600,A,2500.7972620,N,12132.4357465,E,0.01,345.47,090324,,,R,V*1E
$GPHDT,49.266,T*0A
$GNACCURACY,3.6*13
$GNGGA,041706.700,2500.7972588,N,12132.4357421,E,4,51,0.53,16.729,M,15.25,M,0,3335*40
$GNRMC,041706.700,A,2500.7972588,N,12132.4357421,E,0.00,345.47,090324,,,R,V*1F
$GPHDT,,T*1B
$GNACCURACY,3.6*13
$GNGGA,041706.800,2500.7972618,N,12132.4357420,E,4,51,0.53,16.738,M,15.25,M,0,3335*44
$GNRMC,041706.800,A,2500.7972618,N,12132.4357420,E,0.00,345.47,090324,,,R,V*1B
$GPHDT,49.273,T*0E
$GNACCURACY,3.6*13
$GNGGA,041706.900,2500.7972617,N,12132.4357434,E,4,52,0.53,16.734,M,15.25,M,0,3335*40
$GNRMC,041706.900,A,2500.7972617,N,12132.4357434,E,0.01,345.47,090324,,,R,V*11
$GPHDT,,T*1B
$GNACCURACY,3.6*13
$GNGGA,041707.000,2500.7972614,N,12132.4357434,E,4,52,0.53,16.733,M,15.25,M,1,3335*4D
$GNRMC,041707.000,A,2500.7972614,N,12132.4357434,E,0.00,345.47,090324,,,R,V*1B
$GPHDT,49.130,T*0A
$GNACCURACY,3.6*13
$GNGGA,041707.100,2500.7972631,N,12132.4357459,E,4,52,0.53,16.728,M,15.25,M,1,3335*4A
$GNRMC,041707.100,A,2500.7972631,N,12132.4357459,E,0.00,345.47,090324,,,R,V*16
$GPHDT,,T*1B
$GNGSA,A,3,195,194,21,199,08,02,07,27,16,09,196,30,0.81,0.53,0.61,1*01
$GNGSA,A,3,81,78,88,79,82,,,,,,,,0.81,0.53,0.61,2*08
$GNGSA,A,3,21,13,26,27,15,,,,,,,,0.81,0.53,0.61,3*0F
$GNGSA,A,3,23,09,06,16,07,40,28,39,43,25,37,,0.81,0.53,0.61,4*02
$GPGSV,4,1,15,195,65,112,43,194,64,053,40,21,64,151,45,199,60,167,36,1*55
$GPGSV,4,2,15,08,60,000,44,50,60,167,38,02,52,176,45,07,44,314,43,1*62
$GPGSV,4,3,15,27,30,038,33,16,26,079,27,09,22,243,16,196,19,168,20,1*52
$GPGSV,4,4,15,04,15,200,19,30,14,319,27,26,06,102,,1*53
$GPGSV,2,1,07,195,65,112,45,194,64,053,44,08,60,000,47,199,60,167,46,8*54
$GPGSV,2,2,07,27,30,038,36,09,22,243,16,30,14,319,33,8*54
$GLGSV,2,1,06,81,69,206,43,78,58,045,43,88,51,029,44,79,29,336,41,1*75
$GLGSV,2,2,06,77,21,114,16,82,19,206,20,1*7A
$GAGSV,2,1,07,21,55,016,42,13,54,075,39,26,47,171,42,27,28,083,31,7*7E
$GAGSV,2,2,07,19,25,238,,15,12,037,19,33,06,199,,7*4E
$GAGSV,2,1,05,21,55,016,39,13,54,075,42,26,47,171,44,27,28,083,30,1*7D
$GAGSV,2,2,05,15,12,037,17,1*45
$GBGSV,4,1,13,23,75,043,46,09,72,261,36,06,69,214,42,16,66,199,42,1*73
$GBGSV,4,2,13,07,60,310,41,40,60,331,45,28,59,225,44,39,56,188,45,1*7C
$GBGSV,4,3,13,43,55,035,45,10,51,292,,25,35,121,43,37,33,322,36,1*79
$GBGSV,4,4,13,34,09,040,,1*4E
$GBGSV,2,1,07,23,75,043,45,40,60,331,41,28,59,225,42,39,56,188,42,4*7F
$GBGSV,2,2,07,43,55,035,43,25,35,121,41,37,33,322,43,4*44
$GNACCURACY,3.6*13
$PAIRSAT,1,35,2,0,201,3,0,200,4,0,221,5,0,200,6,0,200,7,0,201,8,0,221,9,0,220,10,0,200,11,0,200,12,0,200,13,0,200,14,0,200,15,0,200,16,0,201,17,0,200,18,0,200,19,0,200,20,0,200,21,0,201,22,0,200,23,0,200,24,0,200,25,0,200,26,0,220,27,0,221,28,0,200,29,0,200,30,0,221,31,0,200,32,0,200,194,0,621,195,0,621,196,0,620,199,0,621*5A
$PAIRSAT,2,24,65,0,200,66,0,200,67,0,200,68,0,200,69,0,200,70,0,200,71,0,200,72,0,200,73,0,200,74,0,200,75,0,200,76,0,200,77,0,201,78,0,201,79,0,201,80,0,200,81,0,201,82,0,201,83,0,200,84,0,200,85,0,200,86,0,200,87,0,200,88,0,201*7A
$PAIRSAT,3,23,2,0,1200,3,0,1200,4,0,1200,5,0,200,7,0,1200,8,0,1200,9,0,1200,10,0,1200,11,0,1200,12,0,1200,13,0,1221,15,0,1220,19,0,1201,21,0,1221,24,0,1200,25,0,1200,26,0,1221,27,0,1221,30,0,1200,31,0,1200,33,0,1200,34,0,1200,36,0,1200*69
$PAIRSAT,4,46,1,0,200,2,0,200,3,0,600,4,0,200,5,0,200,6,0,201,7,0,201,8,0,200,9,0,201,10,0,201,11,0,200,12,0,200,13,0,200,14,0,200,16,0,201,19,0,600,20,0,600,21,0,600,22,0,600,23,0,621,24,0,600,25,0,621,26,0,600,27,0,600,28,0,621,29,0,600,30,0,600,32,0,600,33,0,600,34,0,621,35,0,600,36,0,600,37,0,621,38,0,600,39,0,621,40,0,621,41,0,600,42,0,600,43,0,621,44,0,400,45,0,400,46,0,400,59,0,400,60,0,400,61,0,400,62,0,400*4A
$PAIRDGP,10,2,4,7,8,9,16,21,26,27,30*42
$GNGGA,041707.200,2500.7972606,N,12132.4357395,E,4,52,0.53,16.757,M,15.25,M,1,3335*42
$GNRMC,041707.200,A,2500.7972606,N,12132.4357395,E,0.01,345.47,090324,,,R,V*17
$GPHDT,49.060,T*0E
$GNACCURACY,3.6*13
$GNGGA,041707.300,2500.7972616,N,12132.4357470,E,4,52,0.53,16.750,M,15.25,M,1,3335*49
$GNRMC,041707.300,A,2500.7972616,N,12132.4357470,E,0.01,345.47,090324,,,R,V*1B
$GPHDT,,T*1B
$GNACCURACY,3.6*13
$GNGGA,041707.400,2500.7972620,N,12132.4357503,E,4,52,0.53,16.743,M,15.25,M,1,3335*4C
$GNRMC,041707.400,A,2500.7972620,N,12132.4357503,E,0.01,345.47,090324,,,R,V*1C
$GPHDT,48.628,T*05
$GNACCURACY,3.6*13
$GNGGA,041707.500,2500.7972627,N,12132.4357503,E,4,52,0.53,16.740,M,15.25,M,1,3335*49
$GNRMC,041707.500,A,2500.7972627,N,12132.4357503,E,0.01,345.47,090324,,,R,V*1A
$GPHDT,,T*1B
$GNACCURACY,3.6*13
$GNGGA,041707.600,2500.7972582,N,12132.4357450,E,4,52,0.53,16.775,M,15.25,M,1,3335*47
$GNRMC,041707.600,A,2500.7972582,N,12132.4357450,E,0.02,345.47,090324,,,R,V*11
$GPHDT,48.791,T*06
$GNACCURACY,3.6*13
$GNGGA,041707.700,2500.7972568,N,12132.4357438,E,4,52,0.53,16.773,M,15.25,M,0,3335*4B
$GNRMC,041707.700,A,2500.7972568,N,12132.4357438,E,0.02,345.47,090324,,,R,V*1A
$GPHDT,,T*1B
$GNACCURACY,3.6*13
$GNGGA,041707.800,2500.7972576,N,12132.4357425,E,4,53,0.53,16.763,M,15.25,M,0,3335*47
$GNRMC,041707.800,A,2500.7972576,N,12132.4357425,E,0.01,345.47,090324,,,R,V*15
$GPHDT,48.827,T*04
$GNACCURACY,3.6*13
$GNGGA,041707.900,2500.7972546,N,12132.4357417,E,4,52,0.53,16.777,M,15.25,M,0,3335*40
$GNRMC,041707.900,A,2500.7972546,N,12132.4357417,E,0.01,345.47,090324,,,R,V*16
$GPHDT,,T*1B
$GNACCURACY,3.6*13
$GNGGA,041708.000,2500.7972544,N,12132.4357413,E,4,52,0.53,16.773,M,15.25,M,1,3335*45
$GNRMC,041708.000,A,2500.7972544,N,12132.4357413,E,0.00,345.47,090324,,,R,V*17
$GPHDT,48.608,T*07
$GNACCURACY,3.6*13
$GNGGA,041708.100,2500.7972597,N,12132.4357453,E,4,51,0.53,16.741,M,15.25,M,1,3335*4C
$GNRMC,041708.100,A,2500.7972597,N,12132.4357453,E,0.01,345.47,090324,,,R,V*1D
$GPHDT,,T*1B
$GNGSA,A,3,195,194,21,199,08,02,07,27,16,09,196,30,0.81,0.53,0.61,1*01
$GNGSA,A,3,81,78,88,79,82,,,,,,,,0.81,0.53,0.61,2*08
$GNGSA,A,3,21,13,26,27,15,,,,,,,,0.81,0.53,0.61,3*0F
$GNGSA,A,3,23,09,06,16,07,40,28,39,43,25,37,,0.81,0.53,0.61,4*02
$GPGSV,4,1,15,195,65,112,43,194,64,053,40,21,64,151,45,199,60,167,36,1*55
$GPGSV,4,2,15,08,60,000,44,50,60,167,38,02,52,176,45,07,44,314,44,1*65
$GPGSV,4,3,15,27,30,038,34,16,26,079,28,09,22,243,16,196,19,168,19,1*50
$GPGSV,4,4,15,04,15,200,18,30,14,319,30,26,06,102,,1*54
$GPGSV,2,1,07,195,65,112,45,194,64,053,44,08,60,000,47,199,60,167,46,8*54
$GPGSV,2,2,07,27,30,038,37,09,22,243,17,30,14,319,34,8*53
$GLGSV,2,1,06,81,69,206,43,78,58,045,43,88,51,029,44,79,29,336,41,1*75
$GLGSV,2,2,06,77,21,114,15,82,19,206,20,1*79
$GAGSV,2,1,07,21,55,016,42,13,54,075,39,26,47,171,42,27,28,083,32,7*7D
$GAGSV,2,2,07,19,25,238,,15,12,037,19,33,06,199,,7*4E
$GAGSV,2,1,05,21,55,016,40,13,54,075,42,26,47,171,44,27,28,083,29,1*7B
$GAGSV,2,2,05,15,12,037,17,1*45
$GBGSV,4,1,13,23,75,043,46,09,72,261,35,06,69,214,42,16,66,199,42,1*70
$GBGSV,4,2,13,07,60,310,40,40,60,331,45,28,59,225,44,39,56,188,45,1*7D
$GBGSV,4,3,13,43,55,035,45,10,51,292,,25,35,121,43,37,33,322,42,1*7A
$GBGSV,4,4,13,34,09,040,,1*4E
$GBGSV,2,1,07,23,75,043,45,40,60,331,43,28,59,225,42,39,56,188,42,4*7D
$GBGSV,2,2,07,43,55,035,43,25,35,121,41,37,33,322,44,4*43
$GNACCURACY,3.6*13
$PAIRSAT,1,35,2,0,201,3,0,200,4,0,221,5,0,200,6,0,200,7,0,201,8,0,221,9,0,220,10,0,200,11,0,200,12,0,200,13,0,200,14,0,200,15,0,200,16,0,201,17,0,200,18,0,200,19,0,200,20,0,200,21,0,201,22,0,200,23,0,200,24,0,200,25,0,200,26,0,220,27,0,221,28,0,200,29,0,200,30,0,221,31,0,200,32,0,200,194,0,621,195,0,621,196,0,620,199,0,621*5A
$PAIRSAT,2,24,65,0,200,66,0,200,67,0,200,68,0,200,69,0,200,70,0,200,71,0,200,72,0,200,73,0,200,74,0,200,75,0,200,76,0,200,77,0,201,78,0,201,79,0,201,80,0,200,81,0,201,82,0,201,83,0,200,84,0,200,85,0,200,86,0,200,87,0,200,88,0,201*7A
$PAIRSAT,3,23,2,0,1200,3,0,1200,4,0,1200,5,0,200,7,0,1200,8,0,1200,9,0,1200,10,0,1200,11,0,1200,12,0,1200,13,0,1221,15,0,1220,19,0,1201,21,0,1221,24,0,1200,25,0,1200,26,0,1221,27,0,1221,30,0,1200,31,0,1200,33,0,1200,34,0,1200,36,0,1200*69
$PAIRSAT,4,46,1,0,200,2,0,200,3,0,600,4,0,200,5,0,200,6,0,201,7,0,201,8,0,200,9,0,201,10,0,201,11,0,200,12,0,200,13,0,200,14,0,200,16,0,201,19,0,600,20,0,600,21,0,600,22,0,600,23,0,621,24,0,600,25,0,621,26,0,600,27,0,600,28,0,621,29,0,600,30,0,600,32,0,600,33,0,600,34,0,621,35,0,600,36,0,600,37,0,621,38,0,600,39,0,621,40,0,621,41,0,600,42,0,600,43,0,621,44,0,400,45,0,400,46,0,400,59,0,400,60,0,400,61,0,400,62,0,400*4A
$PAIRDGP,10,2,4,7,8,9,16,21,26,27,30*42
$GNGGA,041708.200,2500.7972584,N,12132.4357433,E,4,51,0.53,16.796,M,15.25,M,1,3335*41
$GNRMC,041708.200,A,2500.7972584,N,12132.4357433,E,0.01,345.47,090324,,,R,V*1A
$GPHDT,48.424,T*0B
$GNACCURACY,3.6*13
$GNGGA,041708.300,2500.7972561,N,12132.4357426,E,4,52,0.52,16.777,M,15.25,M,1,3335*42
$GNRMC,041708.300,A,2500.7972561,N,12132.4357426,E,0.01,345.47,090324,,,R,V*14
$GPHDT,,T*1B
$GNACCURACY,3.6*13
$GNGGA,041708.400,2500.7972562,N,12132.4357445,E,4,52,0.52,16.772,M,15.25,M,1,3335*46
$GNRMC,041708.400,A,2500.7972562,N,12132.4357445,E,0.01,345.47,090324,,,R,V*15
$GPHDT,48.452,T*0A
$GNACCURACY,3.6*13
$GNGGA,041708.500,2500.7972578,N,12132.4357433,E,4,53,0.50,16.773,M,15.25,M,1,3335*4F
$GNRMC,041708.500,A,2500.7972578,N,12132.4357433,E,0.01,345.47,090324,,,R,V*1E
$GPHDT,,T*1B
$GNACCURACY,3.6*13
$GNGGA,041708.600,2500.7972628,N,12132.4357496,E,4,53,0.50,16.735,M,15.25,M,0,3335*46
$GNRMC,041708.600,A,2500.7972628,N,12132.4357496,E,0.01,345.47,090324,,,R,V*14
$GPHDT,48.647,T*0C
$GNACCURACY,3.6*13
$GNGGA,041708.700,2500.7972620,N,12132.4357494,E,4,53,0.50,16.740,M,15.25,M,0,3335*4F
$GNRMC,041708.700,A,2500.7972620,N,12132.4357494,E,0.01,345.47,090324,,,R,V*1F
$GPHDT,,T*1B
$GNACCURACY,3.6*13
$GNGGA,041708.800,2500.7972631,N,12132.4357478,E,4,53,0.50,16.744,M,15.25,M,0,3335*46
$GNRMC,041708.800,A,2500.7972631,N,12132.4357478,E,0.01,345.47,090324,,,R,V*12
$GPHDT,48.857,T*03
$GNACCURACY,3.6*13
$GNGGA,041708.900,2500.7972629,N,12132.4357467,E,4,53,0.50,16.744,M,15.25,M,0,3335*40
$GNRMC,041708.900,A,2500.7972629,N,12132.4357467,E,0.01,345.47,090324,,,R,V*14
$GPHDT,,T*1B
$GNACCURACY,3.6*13
$GNGGA,041709.000,2500.7972625,N,12132.4357449,E,4,53,0.50,16.739,M,15.25,M,1,3335*43
$GNRMC,041709.000,A,2500.7972625,N,12132.4357449,E,0.01,345.47,090324,,,R,V*1C
$GPHDT,48.831,T*03
$GNACCURACY,3.6*13
$GNGGA,041709.100,2500.7972624,N,12132.4357457,E,4,53,0.50,16.738,M,15.25,M,1,3335*4D
$GNRMC,041709.100,A,2500.7972624,N,12132.4357457,E,0.01,345.47,090324,,,R,V*13
$GPHDT,,T*1B
$GNGSA,A,3,195,194,21,199,08,02,07,27,16,09,196,04,0.76,0.50,0.57,1*08
$GNGSA,A,3,30,,,,,,,,,,,,0.76,0.50,0.57,1*04
$GNGSA,A,3,81,78,88,79,77,82,,,,,,,0.76,0.50,0.57,2*06
$GNGSA,A,3,21,13,26,27,15,,,,,,,,0.76,0.50,0.57,3*01
$GNGSA,A,3,23,09,06,16,07,40,28,39,43,25,37,,0.76,0.50,0.57,4*0C
$GPGSV,4,1,15,195,65,112,43,194,64,053,40,21,64,151,45,199,60,167,36,1*55
$GPGSV,4,2,15,08,60,000,44,50,60,167,39,02,52,176,45,07,44,314,44,1*64
$GPGSV,4,3,15,27,30,038,34,16,26,079,28,09,22,243,16,196,19,168,19,1*50
$GPGSV,4,4,15,04,15,200,18,30,14,319,28,26,06,102,,1*5D
$GPGSV,2,1,07,195,65,112,45,194,64,053,44,08,60,000,47,199,60,167,46,8*54
$GPGSV,2,2,07,27,30,038,37,09,22,243,17,30,14,319,33,8*54
$GLGSV,2,1,06,81,69,206,43,78,58,045,43,88,51,029,44,79,29,336,40,1*74
$GLGSV,2,2,06,77,21,114,17,82,19,206,20,1*7B
$GAGSV,2,1,07,21,55,016,41,13,54,075,39,26,47,171,42,27,28,083,32,7*7E
$GAGSV,2,2,07,19,25,238,,15,12,037,19,33,06,199,,7*4E
$GAGSV,2,1,05,21,55,016,40,13,54,075,42,26,47,171,44,27,28,083,28,1*7A
$GAGSV,2,2,05,15,12,037,16,1*44
$GBGSV,4,1,13,23,75,043,46,09,72,261,36,06,69,214,42,16,66,199,42,1*73
$GBGSV,4,2,13,07,60,310,42,40,60,331,45,28,59,225,44,39,56,188,45,1*7F
$GBGSV,4,3,13,43,55,035,45,10,51,292,,25,35,121,43,37,33,322,40,1*78
$GBGSV,4,4,13,34,09,040,,1*4E
$GBGSV,2,1,07,23,75,043,45,40,60,331,40,28,59,225,42,39,56,188,42,4*7E
$GBGSV,2,2,07,43,55,035,43,25,35,121,41,37,33,322,44,4*43
$GNACCURACY,3.6*13
$PAIRSAT,1,35,2,0,201,3,0,200,4,0,221,5,0,200,6,0,200,7,0,201,8,0,221,9,0,220,10,0,200,11,0,200,12,0,200,13,0,200,14,0,200,15,0,200,16,0,201,17,0,200,18,0,200,19,0,200,20,0,200,21,0,201,22,0,200,23,0,200,24,0,200,25,0,200,26,0,220,27,0,221,28,0,200,29,0,200,30,0,221,31,0,200,32,0,200,194,0,621,195,0,621,196,0,620,199,0,621*5A
$PAIRSAT,2,24,65,0,200,66,0,200,67,0,200,68,0,200,69,0,200,70,0,200,71,0,200,72,0,200,73,0,200,74,0,200,75,0,200,76,0,200,77,0,201,78,0,201,79,0,201,80,0,200,81,0,201,82,0,201,83,0,200,84,0,200,85,0,200,86,0,200,87,0,200,88,0,201*7A
$PAIRSAT,3,23,2,0,1200,3,0,1200,4,0,1200,5,0,200,7,0,1200,8,0,1200,9,0,1200,10,0,1200,11,0,1200,12,0,1200,13,0,1221,15,0,1220,19,0,1201,21,0,1221,24,0,1200,25,0,1200,26,0,1221,27,0,1221,30,0,1200,31,0,1200,33,0,1200,34,0,1200,36,0,1200*69
$PAIRSAT,4,46,1,0,200,2,0,200,3,0,600,4,0,200,5,0,200,6,0,201,7,0,201,8,0,200,9,0,201,10,0,201,11,0,200,12,0,200,13,0,200,14,0,200,16,0,201,19,0,600,20,0,600,21,0,600,22,0,600,23,0,621,24,0,600,25,0,621,26,0,600,27,0,600,28,0,621,29,0,600,30,0,600,32,0,600,33,0,600,34,0,621,35,0,600,36,0,600,37,0,621,38,0,600,39,0,621,40,0,621,41,0,600,42,0,600,43,0,621,44,0,400,45,0,400,46,0,400,59,0,400,60,0,400,61,0,400,62,0,400*4A
$PAIRDGP,10,2,4,7,8,9,16,21,26,27,30*42
$GNGGA,041709.200,2500.7972624,N,12132.4357414,E,4,53,0.50,16.783,M,15.25,M,1,3335*49
$GNRMC,041709.200,A,2500.7972624,N,12132.4357414,E,0.01,345.47,090324,,,R,V*17
$GPHDT,48.645,T*0E
$GNACCURACY,3.6*13
$GNGGA,041709.300,2500.7972636,N,12132.4357467,E,4,53,0.50,16.733,M,15.25,M,1,3335*44
$GNRMC,041709.300,A,2500.7972636,N,12132.4357467,E,0.00,345.47,090324,,,R,V*10
$GPHDT,,T*1B
$GNACCURACY,3.6*13
$GNGGA,041709.400,2500.7972623,N,12132.4357468,E,4,53,0.50,16.744,M,15.25,M,1,3335*48
$GNRMC,041709.400,A,2500.7972623,N,12132.4357468,E,0.00,345.47,090324,,,R,V*1C
$GPHDT,48.728,T*04
$GNACCURACY,3.6*13
$GNGGA,041709.500,2500.7972592,N,12132.4357425,E,4,53,0.50,16.772,M,15.25,M,1,3335*4C
$GNRMC,041709.500,A,2500.7972592,N,12132.4357425,E,0.01,345.47,090324,,,R,V*1C
$GPHDT,,T*1B
$GNACCURACY,3.6*13
$GNGGA,041709.600,2500.7972589,N,12132.4357399,E,4,53,0.50,16.783,M,15.25,M,1,3335*4B
$GNRMC,041709.600,A,2500.7972589,N,12132.4357399,E,0.01,345.47,090324,,,R,V*15
