$FW : RTK35X,V1.1X0314AS,Lib20210517,1*54
$Tool : LOCOSYS , GNSS Firebird , v1.0.0.19*39
$---------------------------------------------------*2D
$GNACCURACY,3.5*10
$GNGGA,041811.800,2500.7972614,N,12132.4357337,E,4,51,0.54,16.815,M,15.25,M,0,3335*47
$GNRMC,041811.800,A,2500.7972614,N,12132.4357337,E,0.00,345.47,090324,,,R,V*1F
$GPHDT,94.179,T*07
$GNACCURACY,3.5*10
$GNGGA,041811.900,2500.7972621,N,12132.4357346,E,4,51,0.54,16.838,M,15.25,M,0,3335*49
$GNRMC,041811.900,A,2500.7972621,N,12132.4357346,E,0.00,345.47,090324,,,R,V*1E
$GPHDT,,T*1B
$GNACCURACY,3.5*10
$GNGGA,041812.000,2500.7972582,N,12132.4357378,E,4,51,0.54,16.839,M,15.25,M,1,3335*44
$GNRMC,041812.000,A,2500.7972582,N,12132.4357378,E,0.00,345.47,090324,,,R,V*13
$GPHDT,93.186,T*00
$GNACCURACY,3.5*10
$GNGGA,041812.100,2500.7972586,N,12132.4357370,E,4,51,0.54,16.840,M,15.25,M,1,3335*47
$GNRMC,041812.100,A,2500.7972586,N,12132.4357370,E,0.00,345.47,090324,,,R,V*1E
$GPHDT,,T*1B
$GNGSA,A,3,195,194,21,199,08,02,07,27,16,09,196,30,0.95,0.54,0.78,1*0B
$GNGSA,A,3,81,78,88,79,77,,,,,,,,0.95,0.54,0.78,2*08
$GNGSA,A,3,21,13,26,27,15,,,,,,,,0.95,0.54,0.78,3*05
$GNGSA,A,3,23,09,06,16,07,28,40,39,43,25,37,,0.95,0.54,0.78,4*08
$GPGSV,4,1,15,195,66,112,39,194,64,054,42,21,64,150,44,199,60,167,38,1*50
$GPGSV,4,2,15,08,60,001,35,50,60,167,40,02,53,175,45,07,45,314,37,1*6A
$GPGSV,4,3,15,27,30,038,35,16,26,079,35,09,21,242,17,196,19,168,16,1*51
$GPGSV,4,4,15,04,15,200,12,30,14,319,22,26,06,103,,1*5C
$GPGSV,2,1,07,195,66,112,46,194,64,054,44,08,60,001,35,199,60,167,46,8*57
$GPGSV,2,2,07,27,30,038,32,196,19,168,12,30,14,319,27,8*64
$GLGSV,2,1,06,81,70,207,40,78,58,046,42,88,50,029,37,79,29,337,26,1*78
$GLGSV,2,2,06,77,21,115,16,82,20,206,,1*73
$GAGSV,2,1,08,21,55,017,41,13,54,074,44,26,47,171,42,27,27,083,37,7*71
$GAGSV,2,2,08,19,25,238,,04,12,296,,15,11,037,17,33,07,199,,7*77
$GAGSV,2,1,05,21,55,017,36,13,54,074,45,26,47,171,44,27,27,083,38,1*72
$GAGSV,2,2,05,15,11,037,18,1*49
$GBGSV,4,1,13,23,75,045,46,09,72,260,36,06,69,214,43,16,66,200,44,1*70
$GBGSV,4,2,13,07,60,311,35,28,59,226,47,40,59,331,41,39,55,188,45,1*73
$GBGSV,4,3,13,43,55,035,41,10,50,292,,25,35,121,39,37,33,323,31,1*77
$GBGSV,4,4,13,34,08,040,,1*4F
$GBGSV,2,1,06,23,75,045,46,28,59,226,44,40,59,331,40,39,55,188,44,4*70
$GBGSV,2,2,06,25,35,121,36,37,33,323,23,4*74
$GNACCURACY,3.5*10
$PAIRSAT,1,35,2,0,201,3,0,200,4,0,221,5,0,200,6,0,200,7,0,201,8,0,221,9,0,220,10,0,200,11,0,200,12,0,200,13,0,200,14,0,200,15,0,200,16,0,201,17,0,200,18,0,200,19,0,200,20,0,200,21,0,201,22,0,200,23,0,200,24,0,200,25,0,200,26,0,220,27,0,221,28,0,200,29,0,200,30,0,221,31,0,200,32,0,200,194,0,621,195,0,621,196,0,620,199,0,621*5A
$PAIRSAT,2,24,65,0,200,66,0,200,67,0,200,68,0,200,69,0,200,70,0,200,71,0,200,72,0,200,73,0,200,74,0,200,75,0,200,76,0,200,77,0,201,78,0,201,79,0,201,80,0,200,81,0,201,82,0,201,83,0,200,84,0,200,85,0,200,86,0,200,87,0,200,88,0,201*7A
$PAIRSAT,3,23,2,0,1200,3,0,1200,4,0,1200,5,0,200,7,0,1200,8,0,1200,9,0,1200,10,0,1200,11,0,1200,12,0,1200,13,0,1221,15,0,1220,19,0,1201,21,0,1221,24,0,1200,25,0,1200,26,0,1221,27,0,1221,30,0,1200,31,0,1200,33,0,1200,34,0,1200,36,0,1200*69
$PAIRSAT,4,46,1,0,200,2,0,200,3,0,600,4,0,200,5,0,200,6,0,201,7,0,201,8,0,200,9,0,201,10,0,201,11,0,200,12,0,200,13,0,200,14,0,200,16,0,201,19,0,600,20,0,600,21,0,600,22,0,600,23,0,621,24,0,600,25,0,621,26,0,600,27,0,600,28,0,621,29,0,600,30,0,600,32,0,600,33,0,600,34,0,621,35,0,600,36,0,600,37,0,621,38,0,600,39,0,621,40,0,621,41,0,600,42,0,600,43,0,621,44,0,600,45,0,600,46,0,400,59,0,400,60,0,400,61,0,400,62,0,400*4A
$PAIRDGP,10,2,4,7,8,9,16,21,26,27,30*42
$GNGGA,041812.200,2500.7972595,N,12132.4357381,E,4,51,0.54,16.833,M,15.25,M,1,3335*4C
$GNRMC,041812.200,A,2500.7972595,N,12132.4357381,E,0.00,345.47,090324,,,R,V*11
$GPHDT,93.238,T*06
$GNACCURACY,3.5*10
$GNGGA,041812.300,2500.7972592,N,12132.4357383,E,4,51,0.54,16.852,M,15.25,M,1,3335*4F
$GNRMC,041812.300,A,2500.7972592,N,12132.4357383,E,0.00,345.47,090324,,,R,V*15
$GPHDT,,T*1B
$GNACCURACY,3.5*10
$GNGGA,041812.400,2500.7972598,N,12132.4357317,E,4,51,0.54,16.864,M,15.25,M,1,3335*4A
$GNRMC,041812.400,A,2500.7972598,N,12132.4357317,E,0.00,345.47,090324,,,R,V*15
$GPHDT,93.440,T*0F
$GNACCURACY,3.5*10
$GNGGA,041812.500,2500.7972596,N,12132.4357322,E,4,51,0.54,16.873,M,15.25,M,1,3335*45
$GNRMC,041812.500,A,2500.7972596,N,12132.4357322,E,0.00,345.47,090324,,,R,V*1C
$GPHDT,,T*1B
$GNACCURACY,3.5*10
$GNGGA,041812.600,2500.7972610,N,12132.4357308,E,4,51,0.54,16.868,M,15.25,M,1,3335*49
$GNRMC,041812.600,A,2500.7972610,N,12132.4357308,E,0.00,345.47,090324,,,R,V*1A
$GPHDT,93.105,T*0B
$GNACCURACY,3.5*10
$GNGGA,041812.700,2500.7972600,N,12132.4357371,E,4,51,0.54,16.865,M,15.25,M,0,3335*4B
$GNRMC,041812.700,A,2500.7972600,N,12132.4357371,E,0.00,345.47,090324,,,R,V*14
$GPHDT,,T*1B
$GNACCURACY,3.5*10
$GNGGA,041812.800,2500.7972589,N,12132.4357311,E,4,51,0.54,16.858,M,15.25,M,0,3335*4E
$GNRMC,041812.800,A,2500.7972589,N,12132.4357311,E,0.00,345.47,090324,,,R,V*1F
$GPHDT,92.835,T*00
$GNACCURACY,3.5*10
$GNGGA,041812.900,2500.7972567,N,12132.4357364,E,4,51,0.54,16.845,M,15.25,M,0,3335*41
$GNRMC,041812.900,A,2500.7972567,N,12132.4357364,E,0.00,345.47,090324,,,R,V*1C
$GPHDT,,T*1B
$GNACCURACY,3.5*10
$GNGGA,041813.000,2500.7972597,N,12132.4357380,E,4,51,0.54,16.844,M,15.25,M,1,3335*4C
$GNRMC,041813.000,A,2500.7972597,N,12132.4357380,E,0.00,345.47,090324,,,R,V*11
$GPHDT,92.920,T*05
$GNACCURACY,3.5*10
$GNGGA,041813.100,2500.7972570,N,12132.4357422,E,4,51,0.54,16.811,M,15.25,M,1,3335*4B
$GNRMC,041813.100,A,2500.7972570,N,12132.4357422,E,0.00,345.47,090324,,,R,V*16
$GPHDT,,T*1B
$GNGSA,A,3,195,194,21,199,08,02,07,27,16,09,196,30,0.95,0.54,0.78,1*0B
$GNGSA,A,3,81,78,88,79,77,,,,,,,,0.95,0.54,0.78,2*08
$GNGSA,A,3,21,13,26,27,15,,,,,,,,0.95,0.54,0.78,3*05
$GNGSA,A,3,23,09,06,16,07,28,40,39,43,25,37,,0.95,0.54,0.78,4*08
$GPGSV,4,1,15,195,66,112,40,194,64,054,42,21,64,150,44,199,60,167,37,1*51
$GPGSV,4,2,15,08,60,001,37,50,60,167,41,02,53,175,45,07,45,314,40,1*69
$GPGSV,4,3,15,27,30,038,36,16,26,079,32,09,21,242,16,196,19,168,16,1*54
$GPGSV,4,4,15,04,15,200,12,30,14,319,22,26,06,103,,1*5C
$GPGSV,2,1,07,195,66,112,46,194,64,054,45,08,60,001,40,199,60,167,46,8*54
$GPGSV,2,2,07,27,30,038,32,196,19,168,11,30,14,319,29,8*69
$GLGSV,2,1,06,81,70,207,40,78,58,046,43,88,50,029,38,79,29,337,25,1*75
$GLGSV,2,2,06,77,21,115,14,82,20,206,,1*71
$GAGSV,2,1,08,21,55,017,43,13,54,074,44,26,47,171,42,27,27,083,34,7*70
$GAGSV,2,2,08,19,25,238,,04,12,296,,15,11,037,17,33,07,199,,7*77
$GAGSV,2,1,05,21,55,017,38,13,54,074,45,26,47,171,44,27,27,083,38,1*7C
$GAGSV,2,2,05,15,11,037,18,1*49
$GBGSV,4,1,13,23,75,045,46,09,72,260,36,06,69,214,43,16,66,200,43,1*77
$GBGSV,4,2,13,07,60,311,35,28,59,226,47,40,59,331,41,39,55,188,45,1*73
$GBGSV,4,3,13,43,55,035,42,10,50,292,,25,35,121,40,37,33,323,31,1*7A
$GBGSV,4,4,13,34,08,040,,1*4F
$GBGSV,2,1,06,23,75,045,47,28,59,226,44,40,59,331,41,39,55,188,44,4*70
$GBGSV,2,2,06,25,35,121,36,37,33,323,26,4*71
$GNACCURACY,3.5*10
$PAIRSAT,1,35,2,0,201,3,0,200,4,0,221,5,0,200,6,0,200,7,0,201,8,0,221,9,0,220,10,0,200,11,0,200,12,0,200,13,0,200,14,0,200,15,0,200,16,0,201,17,0,200,18,0,200,19,0,200,20,0,200,21,0,201,22,0,200,23,0,200,24,0,200,25,0,200,26,0,220,27,0,221,28,0,200,29,0,200,30,0,221,31,0,200,32,0,200,194,0,621,195,0,621,196,0,620,199,0,621*5A
$PAIRSAT,2,24,65,0,200,66,0,200,67,0,200,68,0,200,69,0,200,70,0,200,71,0,200,72,0,200,73,0,200,74,0,200,75,0,200,76,0,200,77,0,201,78,0,201,79,0,201,80,0,200,81,0,201,82,0,201,83,0,200,84,0,200,85,0,200,86,0,200,87,0,200,88,0,201*7A
$PAIRSAT,3,23,2,0,1200,3,0,1200,4,0,1200,5,0,200,7,0,1200,8,0,1200,9,0,1200,10,0,1200,11,0,1200,12,0,1200,13,0,1221,15,0,1220,19,0,1201,21,0,1221,24,0,1200,25,0,1200,26,0,1221,27,0,1221,30,0,1200,31,0,1200,33,0,1200,34,0,1200,36,0,1200*69
$PAIRSAT,4,46,1,0,200,2,0,200,3,0,600,4,0,200,5,0,200,6,0,201,7,0,201,8,0,200,9,0,201,10,0,201,11,0,200,12,0,200,13,0,200,14,0,200,16,0,201,19,0,600,20,0,600,21,0,600,22,0,600,23,0,621,24,0,600,25,0,621,26,0,600,27,0,600,28,0,621,29,0,600,30,0,600,32,0,600,33,0,600,34,0,621,35,0,600,36,0,600,37,0,621,38,0,600,39,0,621,40,0,621,41,0,600,42,0,600,43,0,621,44,0,600,45,0,600,46,0,400,59,0,400,60,0,400,61,0,400,62,0,400*4A
$PAIRDGP,10,2,4,7,8,9,16,21,26,27,30*42
$GNGGA,041813.200,2500.7972564,N,12132.4357412,E,4,51,0.54,16.818,M,15.25,M,1,3335*47
$GNRMC,041813.200,A,2500.7972564,N,12132.4357412,E,0.00,345.47,090324,,,R,V*13
$GPHDT,92.663,T*0D
$GNACCURACY,3.5*10
$GNGGA,041813.300,2500.7972555,N,12132.4357349,E,4,51,0.54,16.809,M,15.25,M,1,3335*4D
$GNRMC,041813.300,A,2500.7972555,N,12132.4357349,E,0.00,345.47,090324,,,R,V*19
$GPHDT,,T*1B
$GNACCURACY,3.5*10
$GNGGA,041813.400,2500.7972562,N,12132.4357330,E,4,51,0.54,16.818,M,15.25,M,1,3335*40
$GNRMC,041813.400,A,2500.7972562,N,12132.4357330,E,0.00,345.47,090324,,,R,V*14
$GPHDT,92.678,T*07
$GNACCURACY,3.5*10
$GNGGA,041813.500,2500.7972556,N,12132.4357284,E,4,51,0.54,16.814,M,15.25,M,0,3335*45
$GNRMC,041813.500,A,2500.7972556,N,12132.4357284,E,0.00,345.47,090324,,,R,V*1C
$GPHDT,,T*1B
$GNACCURACY,3.5*10
$GNGGA,041813.600,2500.7972569,N,12132.4357314,E,4,50,0.54,16.786,M,15.25,M,0,3335*47
$GNRMC,041813.600,A,2500.7972569,N,12132.4357314,E,0.00,345.47,090324,,,R,V*1B
$GPHDT,92.708,T*01
$GNACCURACY,3.5*10
$GNGGA,041813.700,2500.7972587,N,12132.4357364,E,4,50,0.54,16.726,M,15.25,M,0,3335*4B
$GNRMC,041813.700,A,2500.7972587,N,12132.4357364,E,0.00,345.47,090324,,,R,V*1D
$GPHDT,,T*1B
$GNACCURACY,3.5*10
$GNGGA,041813.800,2500.7972578,N,12132.4357366,E,4,50,0.54,16.709,M,15.25,M,0,3335*4B
$GNRMC,041813.800,A,2500.7972578,N,12132.4357366,E,0.00,345.47,090324,,,R,V*10
$GPHDT,92.963,T*02
$GNACCURACY,3.6*13
$GNGGA,041813.900,2500.7972577,N,12132.4357289,E,4,50,0.54,16.782,M,15.25,M,0,3335*46
$GNRMC,041813.900,A,2500.7972577,N,12132.4357289,E,0.00,345.47,090324,,,R,V*1E
$GPHDT,,T*1B
$GNACCURACY,3.5*10
$GNGGA,041814.000,2500.7972563,N,12132.4357282,E,4,50,0.54,16.787,M,15.25,M,1,3335*42
$GNRMC,041814.000,A,2500.7972563,N,12132.4357282,E,0.00,345.47,090324,,,R,V*1E
$GPHDT,92.901,T*06
$GNACCURACY,3.5*10
$GNGGA,041814.100,2500.7972556,N,12132.4357271,E,4,50,0.54,16.794,M,15.25,M,1,3335*4B
$GNRMC,041814.100,A,2500.7972556,N,12132.4357271,E,0.00,345.47,090324,,,R,V*15
$GPHDT,,T*1B
$GNGSA,A,3,195,194,21,199,08,02,07,27,16,09,196,30,0.95,0.54,0.78,1*0B
$GNGSA,A,3,81,78,88,79,77,,,,,,,,0.95,0.54,0.78,2*08
$GNGSA,A,3,21,13,26,27,15,,,,,,,,0.95,0.54,0.78,3*05
$GNGSA,A,3,23,09,06,16,07,28,40,39,43,25,37,,0.95,0.54,0.78,4*08
$GPGSV,4,1,15,195,66,112,41,194,64,054,42,21,64,150,44,199,60,167,38,1*5F
$GPGSV,4,2,15,08,60,001,42,50,60,167,40,02,53,175,46,07,45,314,43,1*6A
$GPGSV,4,3,15,27,30,038,35,16,26,079,31,09,21,242,16,196,19,168,17,1*55
$GPGSV,4,4,15,04,15,200,14,30,14,319,27,26,06,103,,1*5F
$GPGSV,2,1,06,195,66,112,44,194,64,054,47,08,60,001,45,199,60,167,46,8*50
$GPGSV,2,2,06,27,30,038,33,30,14,319,31,8*69
$GLGSV,2,1,06,81,70,207,41,78,58,046,44,88,50,029,41,79,29,337,31,1*78
$GLGSV,2,2,06,77,21,115,14,82,20,206,,1*71
$GAGSV,2,1,08,21,55,017,45,13,54,074,44,26,47,171,42,27,27,083,33,7*71
$GAGSV,2,2,08,19,25,238,,04,12,296,,15,11,037,17,33,07,199,,7*77
$GAGSV,2,1,05,21,55,017,43,13,54,074,45,26,47,171,44,27,27,083,37,1*7F
$GAGSV,2,2,05,15,11,037,19,1*48
$GBGSV,4,1,13,23,75,045,45,09,72,260,36,06,69,214,43,16,66,200,43,1*74
$GBGSV,4,2,13,07,60,311,40,28,59,226,46,40,59,331,41,39,55,188,45,1*70
$GBGSV,4,3,13,43,55,035,44,10,50,292,,25,35,121,40,37,33,323,35,1*78
$GBGSV,4,4,13,34,08,040,,1*4F
$GBGSV,2,1,06,23,75,045,48,28,59,226,44,40,59,331,42,39,55,188,43,4*7B
$GBGSV,2,2,06,25,35,121,37,37,33,323,33,4*74
$GNACCURACY,3.6*13
$PAIRSAT,1,35,2,0,201,3,0,200,4,0,221,5,0,200,6,0,200,7,0,201,8,0,221,9,0,220,10,0,200,11,0,200,12,0,200,13,0,200,14,0,200,15,0,200,16,0,201,17,0,200,18,0,200,19,0,200,20,0,200,21,0,201,22,0,200,23,0,200,24,0,200,25,0,200,26,0,220,27,0,221,28,0,200,29,0,200,30,0,221,31,0,200,32,0,200,194,0,621,195,0,621,196,0,620,199,0,621*5A
$PAIRSAT,2,24,65,0,200,66,0,200,67,0,200,68,0,200,69,0,200,70,0,200,71,0,200,72,0,200,73,0,200,74,0,200,75,0,200,76,0,200,77,0,201,78,0,201,79,0,201,80,0,200,81,0,201,82,0,201,83,0,200,84,0,200,85,0,200,86,0,200,87,0,200,88,0,201*7A
$PAIRSAT,3,23,2,0,1200,3,0,1200,4,0,1200,5,0,200,7,0,1200,8,0,1200,9,0,1200,10,0,1200,11,0,1200,12,0,1200,13,0,1221,15,0,1220,19,0,1201,21,0,1221,24,0,1200,25,0,1200,26,0,1221,27,0,1221,30,0,1200,31,0,1200,33,0,1200,34,0,1200,36,0,1200*69
$PAIRSAT,4,46,1,0,200,2,0,200,3,0,600,4,0,200,5,0,200,6,0,201,7,0,201,8,0,200,9,0,201,10,0,201,11,0,200,12,0,200,13,0,200,14,0,200,16,0,201,19,0,600,20,0,600,21,0,600,22,0,600,23,0,621,24,0,600,25,0,621,26,0,600,27,0,600,28,0,621,29,0,600,30,0,600,32,0,600,33,0,600,34,0,621,35,0,600,36,0,600,37,0,621,38,0,600,39,0,621,40,0,621,41,0,600,42,0,600,43,0,621,44,0,600,45,0,600,46,0,400,59,0,400,60,0,400,61,0,400,62,0,400*4A
$PAIRDGP,10,2,4,7,8,9,16,21,26,27,30*42
$GNGGA,041814.200,2500.7972557,N,12132.4357275,E,4,50,0.54,16.804,M,15.25,M,1,3335*4B
$GNRMC,041814.200,A,2500.7972557,N,12132.4357275,E,0.00,345.47,090324,,,R,V*13
$GPHDT,92.765,T*0A
$GNACCURACY,3.6*13
$GNGGA,041814.300,2500.7972575,N,12132.4357283,E,4,50,0.54,16.781,M,15.25,M,1,3335*41
$GNRMC,041814.300,A,2500.7972575,N,12132.4357283,E,0.00,345.47,090324,,,R,V*1B
$GPHDT,,T*1B
$GNACCURACY,3.6*13
$GNGGA,041814.400,2500.7972556,N,12132.4357279,E,4,50,0.54,16.792,M,15.25,M,1,3335*40
$GNRMC,041814.400,A,2500.7972556,N,12132.4357279,E,0.00,345.47,090324,,,R,V*18
$GPHDT,92.789,T*08
$GNACCURACY,3.6*13
$GNGGA,041814.500,2500.7972580,N,12132.4357322,E,4,50,0.54,16.806,M,15.25,M,0,3335*46
$GNRMC,041814.500,A,2500.7972580,N,12132.4357322,E,0.00,345.47,090324,,,R,V*1D
$GPHDT,,T*1B
$GNACCURACY,3.6*13
$GNGGA,041814.600,2500.7972580,N,12132.4357309,E,4,49,0.55,16.785,M,15.25,M,0,3335*41
$GNRMC,041814.600,A,2500.7972580,N,12132.4357309,E,0.00,345.47,090324,,,R,V*17
$GPHDT,92.949,T*0A
$GNACCURACY,3.6*13
$GNGGA,041814.700,2500.7972575,N,12132.4357341,E,4,49,0.55,16.800,M,15.25,M,0,3335*44
$GNRMC,041814.700,A,2500.7972575,N,12132.4357341,E,0.00,345.47,090324,,,R,V*10
$GPHDT,,T*1B
$GNACCURACY,3.6*13
$GNGGA,041814.800,2500.7972569,N,12132.4357314,E,4,49,0.55,16.800,M,15.25,M,0,3335*46
$GNRMC,041814.800,A,2500.7972569,N,12132.4357314,E,0.00,345.47,090324,,,R,V*12
$GPHDT,92.633,T*08
$GNACCURACY,3.6*13
$GNGGA,041814.900,2500.7972578,N,12132.4357320,E,4,49,0.55,16.801,M,15.25,M,0,3335*41
$GNRMC,041814.900,A,2500.7972578,N,12132.4357320,E,0.01,345.47,090324,,,R,V*15
$GPHDT,,T*1B
$GNACCURACY,3.6*13
$GNGGA,041815.000,2500.7972588,N,12132.4357326,E,4,49,0.55,16.797,M,15.25,M,1,3335*41
$GNRMC,041815.000,A,2500.7972588,N,12132.4357326,E,0.01,345.47,090324,,,R,V*14
$GPHDT,92.839,T*0C
$GNACCURACY,3.6*13
$GNGGA,041815.100,2500.7972577,N,12132.4357319,E,4,49,0.55,16.792,M,15.25,M,1,3335*49
$GNRMC,041815.100,A,2500.7972577,N,12132.4357319,E,0.00,345.47,090324,,,R,V*18
$GPHDT,,T*1B
$GNGSA,A,3,195,21,194,199,08,02,07,27,16,09,196,30,0.99,0.55,0.82,1*03
$GNGSA,A,3,81,78,88,79,,,,,,,,,0.99,0.55,0.82,2*00
$GNGSA,A,3,21,13,26,27,15,,,,,,,,0.99,0.55,0.82,3*0D
$GNGSA,A,3,23,09,06,16,07,28,40,39,43,25,37,,0.99,0.55,0.82,4*00
$GPGSV,4,1,15,195,66,112,41,21,64,150,44,194,64,054,41,50,60,167,40,1*67
$GPGSV,4,2,15,199,60,167,37,08,59,001,42,02,53,175,46,07,45,314,44,1*53
$GPGSV,4,3,15,27,30,038,36,16,26,079,31,09,21,242,16,196,19,168,17,1*56
$GPGSV,4,4,15,04,15,200,13,30,14,319,26,26,06,103,,1*59
$GPGSV,2,1,06,195,66,112,45,194,64,054,47,199,60,167,46,08,59,001,45,8*5B
$GPGSV,2,2,06,27,30,038,34,30,14,319,31,8*6E
$GLGSV,2,1,06,81,70,207,41,78,58,046,44,88,50,029,43,79,29,337,32,1*79
$GLGSV,2,2,06,77,21,115,12,82,20,206,,1*77
$GAGSV,2,1,08,21,55,017,46,13,54,074,44,26,47,171,42,27,27,083,33,7*72
$GAGSV,2,2,08,19,25,238,,04,12,296,,15,11,037,17,33,07,199,,7*77
$GAGSV,2,1,05,21,55,017,43,13,54,074,45,26,47,171,43,27,27,083,37,1*78
$GAGSV,2,2,05,15,11,037,20,1*42
$GBGSV,4,1,13,23,75,045,44,09,72,260,36,06,69,214,43,16,66,200,43,1*75
$GBGSV,4,2,13,07,60,311,40,28,59,226,46,40,59,331,42,39,55,188,45,1*73
$GBGSV,4,3,13,43,55,035,44,10,50,292,,25,35,121,40,37,33,323,35,1*78
$GBGSV,4,4,13,34,08,040,,1*4F
$GBGSV,2,1,06,23,75,045,48,28,59,226,43,40,59,331,42,39,55,188,43,4*7C
$GBGSV,2,2,06,25,35,121,36,37,33,323,33,4*75
$GNACCURACY,3.6*13
$PAIRSAT,1,35,2,0,201,3,0,200,4,0,221,5,0,200,6,0,200,7,0,201,8,0,221,9,0,220,10,0,200,11,0,200,12,0,200,13,0,200,14,0,200,15,0,200,16,0,201,17,0,200,18,0,200,19,0,200,20,0,200,21,0,201,22,0,200,23,0,200,24,0,200,25,0,200,26,0,220,27,0,221,28,0,200,29,0,200,30,0,221,31,0,200,32,0,200,194,0,621,195,0,621,196,0,620,199,0,621*5A
$PAIRSAT,2,24,65,0,200,66,0,200,67,0,200,68,0,200,69,0,200,70,0,200,71,0,200,72,0,200,73,0,200,74,0,200,75,0,200,76,0,200,77,0,201,78,0,201,79,0,201,80,0,200,81,0,201,82,0,201,83,0,200,84,0,200,85,0,200,86,0,200,87,0,200,88,0,201*7A
$PAIRSAT,3,23,2,0,1200,3,0,1200,4,0,1200,5,0,200,7,0,1200,8,0,1200,9,0,1200,10,0,1200,11,0,1200,12,0,1200,13,0,1221,15,0,1220,19,0,1201,21,0,1221,24,0,1200,25,0,1200,26,0,1221,27,0,1221,30,0,1200,31,0,1200,33,0,1200,34,0,1200,36,0,1200*69
$PAIRSAT,4,46,1,0,200,2,0,200,3,0,600,4,0,200,5,0,200,6,0,201,7,0,201,8,0,200,9,0,201,10,0,201,11,0,200,12,0,200,13,0,200,14,0,200,16,0,201,19,0,600,20,0,600,21,0,600,22,0,600,23,0,621,24,0,600,25,0,621,26,0,600,27,0,600,28,0,621,29,0,600,30,0,600,32,0,600,33,0,600,34,0,621,35,0,600,36,0,600,37,0,621,38,0,600,39,0,621,40,0,621,41,0,600,42,0,600,43,0,621,44,0,600,45,0,600,46,0,400,59,0,400,60,0,400,61,0,400,62,0,400*4A
$PAIRDGP,10,2,4,7,8,9,16,21,26,27,30*42
$GNGGA,041815.200,2500.7972563,N,12132.4357307,E,4,49,0.55,16.786,M,15.25,M,1,3335*45
$GNRMC,041815.200,A,2500.7972563,N,12132.4357307,E,0.01,345.47,090324,,,R,V*10
$GPHDT,92.648,T*04
$GNACCURACY,3.6*13
$GNGGA,041815.300,2500.7972570,N,12132.4357305,E,4,49,0.55,16.792,M,15.25,M,1,3335*41
$GNRMC,041815.300,A,2500.7972570,N,12132.4357305,E,0.00,345.47,090324,,,R,V*10
$GPHDT,,T*1B
$GNACCURACY,3.6*13
$GNGGA,041815.400,2500.7972578,N,12132.4357323,E,4,49,0.55,16.791,M,15.25,M,1,3335*49
$GNRMC,041815.400,A,2500.7972578,N,12132.4357323,E,0.00,345.47,090324,,,R,V*1B
$GPHDT,92.759,T*05
$GNACCURACY,3.6*13
$GNGGA,041815.500,2500.7972568,N,12132.4357328,E,4,49,0.55,16.790,M,15.25,M,1,3335*43
$GNRMC,041815.500,A,2500.7972568,N,12132.4357328,E,0.00,345.47,090324,,,R,V*10
$GPHDT,,T*1B
$GNACCURACY,3.6*13
$GNGGA,041815.600,2500.7972581,N,12132.4357297,E,4,49,0.55,16.781,M,15.25,M,0,3335*43
$GNRMC,041815.600,A,2500.7972581,N,12132.4357297,E,0.01,345.47,090324,,,R,V*10
$GPHDT,92.947,T*04
$GNACCURACY,3.6*13
$GNGGA,041815.700,2500.7972575,N,12132.4357284,E,4,49,0.55,16.801,M,15.25,M,0,3335*4C
$GNRMC,041815.700,A,2500.7972575,N,12132.4357284,E,0.01,345.47,090324,,,R,V*18
$GPHDT,,T*1B
$GNACCURACY,3.6*13
$GNGGA,041815.800,2500.7972567,N,12132.4357302,E,4,49,0.55,16.774,M,15.25,M,0,3335*42
$GNRMC,041815.800,A,2500.7972567,N,12132.4357302,E,0.01,345.47,090324,,,R,V*1B
$GPHDT,92.859,T*0A
$GNACCURACY,3.6*13
$GNGGA,041815.900,2500.7972563,N,12132.4357300,E,4,49,0.55,16.776,M,15.25,M,0,3335*47
$GNRMC,041815.900,A,2500.7972563,N,12132.4357300,E,0.01,345.47,090324,,,R,V*1C
$GPHDT,,T*1B
$GNACCURACY,3.6*13
$GNGGA,041816.000,2500.7972560,N,12132.4357291,E,4,49,0.55,16.771,M,15.25,M,1,3335*41
$GNRMC,041816.000,A,2500.7972560,N,12132.4357291,E,0.01,345.47,090324,,,R,V*1C
$GPHDT,92.784,T*05
$GNACCURACY,3.6*13
$GNGGA,041816.100,2500.7972575,N,12132.4357312,E,4,49,0.55,16.778,M,15.25,M,1,3335*47
$GNRMC,041816.100,A,2500.7972575,N,12132.4357312,E,0.01,345.47,090324,,,R,V*13
$GPHDT,,T*1B
$GNGSA,A,3,195,21,194,199,08,02,07,27,16,09,196,30,0.99,0.55,0.82,1*03
$GNGSA,A,3,81,78,88,79,,,,,,,,,0.99,0.55,0.82,2*00
$GNGSA,A,3,21,13,26,27,15,,,,,,,,0.99,0.55,0.82,3*0D
$GNGSA,A,3,23,09,06,16,07,28,40,39,43,25,37,,0.99,0.55,0.82,4*00
$GPGSV,4,1,15,195,66,112,41,21,64,150,44,194,64,054,41,50,60,167,39,1*69
$GPGSV,4,2,15,199,60,167,37,08,59,001,42,02,53,175,46,07,45,314,44,1*53
$GPGSV,4,3,15,27,30,038,36,16,26,079,31,09,21,242,16,196,19,168,17,1*56
$GPGSV,4,4,15,04,15,200,14,30,14,319,26,26,06,103,,1*5E
$GPGSV,2,1,06,195,66,112,45,194,64,054,47,199,60,167,46,08,59,001,45,8*5B
$GPGSV,2,2,06,27,30,038,33,30,14,319,31,8*69
$GLGSV,2,1,07,81,70,207,41,78,58,046,44,88,50,029,42,79,29,337,32,1*79
$GLGSV,2,2,07,77,21,115,14,82,20,206,,69,02,277,,1*4F
$GAGSV,2,1,08,21,55,017,46,13,54,074,44,26,47,171,42,27,27,083,32,7*73
$GAGSV,2,2,08,19,25,238,,04,12,296,,15,11,037,17,33,07,199,,7*77
$GAGSV,2,1,05,21,55,017,43,13,54,074,45,26,47,171,43,27,27,083,37,1*78
$GAGSV,2,2,05,15,11,037,20,1*42
$GBGSV,4,1,14,23,75,045,44,09,72,260,36,06,69,214,43,16,66,200,43,1*72
$GBGSV,4,2,14,07,60,311,40,28,59,226,46,40,59,331,42,39,55,188,45,1*74
$GBGSV,4,3,14,43,55,035,44,10,50,292,,25,35,121,40,37,33,323,36,1*7C
$GBGSV,4,4,14,34,08,040,,08,02,177,,1*73
$GBGSV,2,1,06,23,75,045,48,28,59,226,43,40,59,331,42,39,55,188,43,4*7C
$GBGSV,2,2,06,25,35,121,37,37,33,323,34,4*73
$GNACCURACY,3.6*13
$PAIRSAT,1,35,2,0,201,3,0,200,4,0,221,5,0,200,6,0,200,7,0,201,8,0,221,9,0,220,10,0,200,11,0,200,12,0,200,13,0,200,14,0,200,15,0,200,16,0,201,17,0,200,18,0,200,19,0,200,20,0,200,21,0,201,22,0,200,23,0,200,24,0,200,25,0,200,26,0,220,27,0,221,28,0,200,29,0,200,30,0,221,31,0,200,32,0,200,194,0,621,195,0,621,196,0,620,199,0,621*5A
$PAIRSAT,2,24,65,0,200,66,0,200,67,0,200,68,0,200,69,0,200,70,0,200,71,0,200,72,0,200,73,0,200,74,0,200,75,0,200,76,0,200,77,0,201,78,0,201,79,0,201,80,0,200,81,0,201,82,0,201,83,0,200,84,0,200,85,0,200,86,0,200,87,0,200,88,0,201*7A
$PAIRSAT,3,23,2,0,1200,3,0,1200,4,0,1200,5,0,200,7,0,1200,8,0,1200,9,0,1200,10,0,1200,11,0,1200,12,0,1200,13,0,1221,15,0,1220,19,0,1201,21,0,1221,24,0,1200,25,0,1200,26,0,1221,27,0,1221,30,0,1200,31,0,1200,33,0,1200,34,0,1200,36,0,1200*69
$PAIRSAT,4,46,1,0,200,2,0,200,3,0,600,4,0,200,5,0,200,6,0,201,7,0,201,8,0,200,9,0,201,10,0,201,11,0,200,12,0,200,13,0,200,14,0,200,16,0,201,19,0,600,20,0,600,21,0,600,22,0,600,23,0,621,24,0,600,25,0,621,26,0,600,27,0,600,28,0,621,29,0,600,30,0,600,32,0,600,33,0,600,34,0,621,35,0,600,36,0,600,37,0,621,38,0,600,39,0,621,40,0,621,41,0,600,42,0,600,43,0,621,44,0,600,45,0,600,46,0,400,59,0,400,60,0,400,61,0,400,62,0,400*4A
$PAIRDGP,10,2,4,7,8,9,16,21,26,27,30*42
$GNGGA,041816.200,2500.7972556,N,12132.4357281,E,4,49,0.55,16.770,M,15.25,M,1,3335*46
$GNRMC,041816.200,A,2500.7972556,N,12132.4357281,E,0.01,345.47,090324,,,R,V*1A
$GPHDT,92.478,T*05
$GNACCURACY,3.6*13
$GNGGA,041816.300,2500.7972570,N,12132.4357310,E,4,49,0.55,16.783,M,15.25,M,1,3335*46
$GNRMC,041816.300,A,2500.7972570,N,12132.4357310,E,0.01,345.47,090324,,,R,V*16
$GPHDT,,T*1B
$GNACCURACY,3.6*13
$GNGGA,041816.400,2500.7972555,N,12132.4357291,E,4,49,0.55,16.767,M,15.25,M,1,3335*44
$GNRMC,041816.400,A,2500.7972555,N,12132.4357291,E,0.01,345.47,090324,,,R,V*1E
$GPHDT,92.801,T*07
$GNACCURACY,3.6*13
$GNGGA,041816.500,2500.7972551,N,12132.4357280,E,4,49,0.55,16.764,M,15.25,M,0,3335*43
$GNRMC,041816.500,A,2500.7972551,N,12132.4357280,E,0.01,345.47,090324,,,R,V*1B
$GPHDT,,T*1B
$GNACCURACY,3.6*13
$GNGGA,041816.600,2500.7972566,N,12132.4357305,E,4,49,0.55,16.770,M,15.25,M,0,3335*4D
$GNRMC,041816.600,A,2500.7972566,N,12132.4357305,E,0.01,345.47,090324,,,R,V*10
$GPHDT,92.889,T*07
$GNACCURACY,3.6*13
$GNGGA,041816.700,2500.7972540,N,12132.4357300,E,4,49,0.55,16.776,M,15.25,M,0,3335*4B
$GNRMC,041816.700,A,2500.7972540,N,12132.4357300,E,0.01,345.47,090324,,,R,V*10
$GPHDT,,T*1B
$GNACCURACY,3.6*13
$GNGGA,041816.800,2500.7972567,N,12132.4357280,E,4,49,0.55,16.768,M,15.25,M,0,3335*47
$GNRMC,041816.800,A,2500.7972567,N,12132.4357280,E,0.01,345.47,090324,,,R,V*13
$GPHDT,92.658,T*05
$GNACCURACY,3.6*13
$GNGGA,041816.900,2500.7972557,N,12132.4357288,E,4,49,0.55,16.772,M,15.25,M,0,3335*46
$GNRMC,041816.900,A,2500.7972557,N,12132.4357288,E,0.01,345.47,090324,,,R,V*19
$GPHDT,,T*1B
$GNACCURACY,3.6*13
$GNGGA,041817.000,2500.7972543,N,12132.4357310,E,4,49,0.55,16.762,M,15.25,M,1,3335*4B
$GNRMC,041817.000,A,2500.7972543,N,12132.4357310,E,0.01,345.47,090324,,,R,V*14
$GPHDT,92.489,T*0B
$GNACCURACY,3.6*13
$GNGGA,041817.100,2500.7972569,N,12132.4357320,E,4,49,0.55,16.729,M,15.25,M,1,3335*4E
$GNRMC,041817.100,A,2500.7972569,N,12132.4357320,E,0.01,345.47,090324,,,R,V*1E
$GPHDT,,T*1B
$GNGSA,A,3,195,21,194,199,08,02,07,27,16,09,196,30,0.99,0.55,0.82,1*03
$GNGSA,A,3,81,78,88,79,,,,,,,,,0.99,0.55,0.82,2*00
$GNGSA,A,3,21,13,26,27,15,,,,,,,,0.99,0.55,0.82,3*0D
$GNGSA,A,3,23,09,06,16,07,28,40,39,43,25,37,,0.99,0.55,0.82,4*00
$G