$FW : RTK35X,V1.1X0314AS,Lib20210517,1*54
$Tool : LOCOSYS , GNSS Firebird , v1.0.0.19*39
$---------------------------------------------------*2D
60552,E,0.03,135.00,090324,,,R,V*15
$GPHDT,223.330,T*36
$GNACCURACY,2.8*1C
$GNGGA,040855.300,2500.7775048,N,12132.4560505,E,4,54,0.49,16.680,M,15.25,M,1,3335*44
$GNRMC,040855.300,A,2500.7775048,N,12132.4560505,E,0.05,135.00,090324,,,R,V*15
$GPHDT,,T*1B
$GNACCURACY,2.8*1C
$GNGGA,040855.400,2500.7775078,N,12132.4560555,E,4,54,0.49,16.700,M,15.25,M,1,3335*4C
$GNRMC,040855.400,A,2500.7775078,N,12132.4560555,E,0.04,135.00,090324,,,R,V*15
$GPHDT,223.288,T*34
$GNACCURACY,2.8*1C
$GNGGA,040855.500,2500.7775044,N,12132.4560539,E,4,54,0.49,16.658,M,15.25,M,1,3335*44
$GNRMC,040855.500,A,2500.7775044,N,12132.4560539,E,0.04,135.00,090324,,,R,V*11
$GPHDT,,T*1B
$GNACCURACY,2.8*1C
$GNGGA,040855.600,2500.7775066,N,12132.4560489,E,4,54,0.49,16.707,M,15.25,M,0,3335*47
$GNRMC,040855.600,A,2500.7775066,N,12132.4560489,E,0.04,135.00,090324,,,R,V*18
$GPHDT,222.956,T*3D
$GNACCURACY,2.8*1C
$GNGGA,040855.700,2500.7775078,N,12132.4560519,E,4,54,0.49,16.696,M,15.25,M,0,3335*48
$GNRMC,040855.700,A,2500.7775078,N,12132.4560519,E,0.05,135.00,090324,,,R,V*1F
$GPHDT,,T*1B
$GNACCURACY,2.9*1D
$GNGGA,040855.800,2500.7775067,N,12132.4560501,E,4,54,0.49,16.687,M,15.25,M,0,3335*40
$GNRMC,040855.800,A,2500.7775067,N,12132.4560501,E,0.05,135.00,090324,,,R,V*17
$GPHDT,222.708,T*38
$GNACCURACY,2.9*1D
$GNGGA,040855.900,2500.7775033,N,12132.4560482,E,4,54,0.49,16.682,M,15.25,M,0,3335*4F
$GNRMC,040855.900,A,2500.7775033,N,12132.4560482,E,0.05,135.00,090324,,,R,V*1D
$GPHDT,,T*1B
$GNACCURACY,2.9*1D
$GNGGA,040856.000,2500.7775155,N,12132.4560448,E,4,54,0.49,16.727,M,15.25,M,1,3335*4D
$GNRMC,040856.000,A,2500.7775155,N,12132.4560448,E,0.05,135.00,090324,,,R,V*10
$GPHDT,222.093,T*3D
$GNACCURACY,2.9*1D
$GNGGA,040856.100,2500.7775163,N,12132.4560450,E,4,54,0.49,16.743,M,15.25,M,1,3335*42
$GNRMC,040856.100,A,2500.7775163,N,12132.4560450,E,0.05,135.00,090324,,,R,V*1D
$GPHDT,,T*1B
$GNGSA,A,3,195,194,08,21,199,02,07,27,16,09,196,30,0.77,0.49,0.59,1*08
$GNGSA,A,3,04,,,,,,,,,,,,0.77,0.49,0.59,1*04
$GNGSA,A,3,81,78,88,79,77,,,,,,,,0.77,0.49,0.59,2*0B
$GNGSA,A,3,13,21,26,27,19,15,,,,,,,0.77,0.49,0.59,3*0E
$GNGSA,A,3,09,23,06,16,40,07,43,39,28,10,25,37,0.77,0.49,0.59,4*0A
$GPGSV,4,1,15,195,64,114,35,194,64,052,37,08,62,355,43,21,60,156,37,1*6E
$GPGSV,4,2,15,199,60,167,25,50,60,167,28,02,48,177,33,07,41,316,41,1*53
$GPGSV,4,3,15,27,33,036,24,16,27,075,27,09,23,246,19,196,19,169,18,1*55
$GPGSV,4,4,15,04,18,203,16,30,11,320,33,26,08,099,15,1*51
$GPGSV,2,1,08,194,64,052,41,195,64,114,33,08,62,355,44,199,60,167,26,8*5D
$GPGSV,2,2,08,27,33,036,28,09,23,246,26,04,18,203,23,30,11,320,41,8*69
$GLGSV,2,1,06,81,65,200,44,78,56,037,38,88,55,032,37,79,26,334,37,1*79
$GLGSV,2,2,06,77,23,110,19,87,03,026,,1*7F
$GAGSV,2,1,06,13,55,081,37,21,54,011,29,26,44,172,21,27,29,079,29,7*78
$GAGSV,2,2,06,19,27,241,27,15,14,039,18,7*78
$GAGSV,1,1,04,13,55,081,36,21,54,011,29,27,29,079,19,19,27,241,26,1*70
$GBGSV,3,1,12,09,73,266,39,23,73,031,43,06,71,215,36,16,68,198,42,1*7E
$GBGSV,3,2,12,40,60,329,42,07,60,308,40,43,59,037,36,39,58,187,30,1*76
$GBGSV,3,3,12,28,56,221,40,10,51,289,37,25,37,117,33,37,30,321,39,1*72
$GBGSV,2,1,07,23,73,031,42,40,60,329,40,43,59,037,36,39,58,187,30,4*78
$GBGSV,2,2,07,28,56,221,35,25,37,117,31,37,30,321,44,4*4B
$GNACCURACY,2.9*1D
$PAIRSAT,1,35,2,0,201,3,0,200,4,0,221,5,0,200,6,0,200,7,0,201,8,0,221,9,0,220,10,0,200,11,0,200,12,0,200,13,0,200,14,0,200,15,0,200,16,0,201,17,0,200,18,0,200,19,0,200,20,0,200,21,0,201,22,0,200,23,0,200,24,0,200,25,0,200,26,0,220,27,0,221,28,0,200,29,0,200,30,0,221,31,0,200,32,0,200,194,0,621,195,0,621,196,0,620,199,0,621*5A
$PAIRSAT,2,24,65,0,200,66,0,200,67,0,200,68,0,200,69,0,200,70,0,200,71,0,200,72,0,200,73,0,200,74,0,200,75,0,200,76,0,200,77,0,201,78,0,201,79,0,201,80,0,200,81,0,201,82,0,200,83,0,200,84,0,200,85,0,200,86,0,200,87,0,201,88,0,201*7A
$PAIRSAT,3,23,2,0,1200,3,0,1200,4,0,1200,5,0,200,7,0,1200,8,0,1200,9,0,1200,10,0,1200,11,0,1200,12,0,1200,13,0,1221,15,0,1220,19,0,1201,21,0,1221,24,0,1200,25,0,1200,26,0,1221,27,0,1221,30,0,1200,31,0,1200,33,0,1200,34,0,1000,36,0,1200*6B
$PAIRSAT,4,46,1,0,200,2,0,200,3,0,600,4,0,200,5,0,200,6,0,201,7,0,201,8,0,200,9,0,201,10,0,201,11,0,200,12,0,200,13,0,200,14,0,200,16,0,201,19,0,600,20,0,600,21,0,600,22,0,600,23,0,621,24,0,600,25,0,621,26,0,600,27,0,600,28,0,621,29,0,600,30,0,600,32,0,600,33,0,600,34,0,621,35,0,600,36,0,600,37,0,621,38,0,400,39,0,421,40,0,421,41,0,400,42,0,400,43,0,421,44,0,400,45,0,400,46,0,400,59,0,400,60,0,400,61,0,400,62,0,400*4A
$PAIRDGP,10,2,4,7,8,9,16,21,26,27,30*42
$GNGGA,040856.200,2500.7775112,N,12132.4560481,E,4,54,0.49,16.714,M,15.25,M,1,3335*49
$GNRMC,040856.200,A,2500.7775112,N,12132.4560481,E,0.06,135.00,090324,,,R,V*17
$GPHDT,221.463,T*35
$GNACCURACY,2.9*1D
$GNGGA,040856.300,2500.7775089,N,12132.4560657,E,4,54,0.49,16.689,M,15.25,M,1,3335*47
$GNRMC,040856.300,A,2500.7775089,N,12132.4560657,E,0.05,135.00,090324,,,R,V*1F
$GPHDT,,T*1B
$GNACCURACY,2.8*1C
$GNGGA,040856.400,2500.7775090,N,12132.4560592,E,4,54,0.49,16.751,M,15.25,M,1,3335*46
$GNRMC,040856.400,A,2500.7775090,N,12132.4560592,E,0.05,135.00,090324,,,R,V*1A
$GPHDT,224.207,T*34
$GNACCURACY,2.8*1C
$GNGGA,040856.500,2500.7775068,N,12132.4560658,E,4,54,0.49,16.731,M,15.25,M,1,3335*43
$GNRMC,040856.500,A,2500.7775068,N,12132.4560658,E,0.07,135.00,090324,,,R,V*1B
$GPHDT,,T*1B
$GNACCURACY,2.8*1C
$GNGGA,040856.600,2500.7775092,N,12132.4560627,E,4,54,0.49,16.747,M,15.25,M,1,3335*4C
$GNRMC,040856.600,A,2500.7775092,N,12132.4560627,E,0.05,135.00,090324,,,R,V*17
$GPHDT,224.016,T*36
$GNACCURACY,2.8*1C
$GNGGA,040856.700,2500.7775058,N,12132.4560511,E,4,53,0.49,16.747,M,15.25,M,1,3335*4A
$GNRMC,040856.700,A,2500.7775058,N,12132.4560511,E,0.05,135.00,090324,,,R,V*16
$GPHDT,,T*1B
$GNACCURACY,2.8*1C
$GNGGA,040856.800,2500.7775009,N,12132.4560479,E,4,54,0.49,16.730,M,15.25,M,0,3335*48
$GNRMC,040856.800,A,2500.7775009,N,12132.4560479,E,0.06,135.00,090324,,,R,V*11
$GPHDT,223.352,T*32
$GNACCURACY,2.8*1C
$GNGGA,040856.900,2500.7775032,N,12132.4560534,E,4,54,0.49,16.736,M,15.25,M,0,3335*4F
$GNRMC,040856.900,A,2500.7775032,N,12132.4560534,E,0.05,135.00,090324,,,R,V*13
$GPHDT,,T*1B
$GNACCURACY,2.8*1C
$GNGGA,040857.000,2500.7775003,N,12132.4560506,E,4,54,0.49,16.724,M,15.25,M,1,3335*46
$GNRMC,040857.000,A,2500.7775003,N,12132.4560506,E,0.05,135.00,090324,,,R,V*18
$GPHDT,223.772,T*34
$GNACCURACY,2.8*1C
$GNGGA,040857.100,2500.7775022,N,12132.4560533,E,4,54,0.49,16.730,M,15.25,M,1,3335*47
$GNRMC,040857.100,A,2500.7775022,N,12132.4560533,E,0.04,135.00,090324,,,R,V*1D
$GPHDT,,T*1B
$GNGSA,A,3,195,194,08,21,199,02,07,27,16,09,196,30,0.77,0.49,0.59,1*08
$GNGSA,A,3,04,,,,,,,,,,,,0.77,0.49,0.59,1*04
$GNGSA,A,3,81,78,88,79,77,,,,,,,,0.77,0.49,0.59,2*0B
$GNGSA,A,3,13,21,26,27,19,15,,,,,,,0.77,0.49,0.59,3*0E
$GNGSA,A,3,09,23,06,16,07,40,43,39,28,10,25,37,0.77,0.49,0.59,4*0A
$GPGSV,4,1,15,195,64,114,41,194,64,052,40,08,62,355,45,21,60,156,41,1*6A
$GPGSV,4,2,15,50,60,167,30,199,60,167,27,02,48,177,33,07,41,316,42,1*5B
$GPGSV,4,3,15,27,33,036,24,16,27,075,31,09,23,246,24,196,19,169,22,1*55
$GPGSV,4,4,15,04,18,203,17,30,11,320,36,26,08,099,17,1*57
$GPGSV,2,1,08,194,64,052,43,195,64,114,41,08,62,355,44,199,60,167,23,8*5F
$GPGSV,2,2,08,27,33,036,29,09,23,246,29,04,18,203,24,30,11,320,43,8*62
$GLGSV,2,1,06,81,65,200,45,78,56,037,41,88,55,032,37,79,26,334,38,1*79
$GLGSV,2,2,06,77,23,110,17,87,03,026,,1*71
$GAGSV,2,1,07,13,55,081,39,21,54,011,31,26,44,172,25,27,29,079,31,7*73
$GAGSV,2,2,07,19,27,241,28,15,14,039,18,04,12,299,,7*43
$GAGSV,1,1,04,13,55,081,43,21,54,011,33,27,29,079,27,19,27,241,29,1*7B
$GBGSV,4,1,13,09,73,266,40,23,73,031,46,06,71,215,36,16,68,198,42,1*73
$GBGSV,4,2,13,07,60,308,40,40,60,329,43,43,59,037,41,39,58,187,31,1*70
$GBGSV,4,3,13,28,56,221,38,10,51,289,39,25,37,117,32,37,30,321,40,1*7A
$GBGSV,4,4,13,34,11,040,,1*47
$GBGSV,2,1,07,23,73,031,46,40,60,329,44,43,59,037,43,39,58,187,33,4*79
$GBGSV,2,2,07,28,56,221,34,25,37,117,30,37,30,321,46,4*49
$GNACCURACY,2.8*1C
$PAIRSAT,1,35,2,0,201,3,0,200,4,0,221,5,0,200,6,0,200,7,0,201,8,0,221,9,0,220,10,0,200,11,0,200,12,0,200,13,0,200,14,0,200,15,0,200,16,0,201,17,0,200,18,0,200,19,0,200,20,0,200,21,0,201,22,0,200,23,0,200,24,0,200,25,0,200,26,0,220,27,0,221,28,0,200,29,0,200,30,0,221,31,0,200,32,0,200,194,0,621,195,0,621,196,0,620,199,0,621*5A
$PAIRSAT,2,24,65,0,200,66,0,200,67,0,200,68,0,200,69,0,200,70,0,200,71,0,200,72,0,200,73,0,200,74,0,200,75,0,200,76,0,200,77,0,201,78,0,201,79,0,201,80,0,200,81,0,201,82,0,200,83,0,200,84,0,200,85,0,200,86,0,200,87,0,201,88,0,201*7A
$PAIRSAT,3,23,2,0,1200,3,0,1200,4,0,1200,5,0,200,7,0,1200,8,0,1200,9,0,1200,10,0,1200,11,0,1200,12,0,1200,13,0,1221,15,0,1220,19,0,1201,21,0,1221,24,0,1200,25,0,1200,26,0,1221,27,0,1221,30,0,1200,31,0,1200,33,0,1200,34,0,1000,36,0,1200*6B
$PAIRSAT,4,46,1,0,200,2,0,200,3,0,600,4,0,200,5,0,200,6,0,201,7,0,201,8,0,200,9,0,201,10,0,201,11,0,200,12,0,200,13,0,200,14,0,200,16,0,201,19,0,600,20,0,600,21,0,600,22,0,600,23,0,621,24,0,600,25,0,621,26,0,600,27,0,600,28,0,621,29,0,600,30,0,600,32,0,600,33,0,600,34,0,621,35,0,600,36,0,600,37,0,621,38,0,600,39,0,421,40,0,421,41,0,400,42,0,400,43,0,421,44,0,400,45,0,400,46,0,400,59,0,400,60,0,400,61,0,400,62,0,400*48
$PAIRDGP,10,2,4,7,8,9,16,21,26,27,30*42
$GNGGA,040857.200,2500.7775036,N,12132.4560591,E,4,54,0.49,16.733,M,15.25,M,1,3335*4A
$GNRMC,040857.200,A,2500.7775036,N,12132.4560591,E,0.03,135.00,090324,,,R,V*14
$GPHDT,224.658,T*3A
$GNACCURACY,2.8*1C
$GNGGA,040857.300,2500.7775042,N,12132.4560521,E,4,54,0.49,16.729,M,15.25,M,1,3335*48
$GNRMC,040857.300,A,2500.7775042,N,12132.4560521,E,0.04,135.00,090324,,,R,V*1A
$GPHDT,,T*1B
$GNACCURACY,2.8*1C
$GNGGA,040857.400,2500.7775064,N,12132.4560582,E,4,54,0.49,16.727,M,15.25,M,1,3335*4C
$GNRMC,040857.400,A,2500.7775064,N,12132.4560582,E,0.03,135.00,090324,,,R,V*17
$GPHDT,223.732,T*30
$GNACCURACY,2.8*1C
$GNGGA,040857.500,2500.7775101,N,12132.4560652,E,4,54,0.49,16.703,M,15.25,M,0,3335*46
$GNRMC,040857.500,A,2500.7775101,N,12132.4560652,E,0.03,135.00,090324,,,R,V*1A
$GPHDT,,T*1B
$GNACCURACY,2.8*1C
$GNGGA,040857.600,2500.7775123,N,12132.4560584,E,4,54,0.49,16.758,M,15.25,M,0,3335*43
$GNRMC,040857.600,A,2500.7775123,N,12132.4560584,E,0.01,135.00,090324,,,R,V*13
$GPHDT,224.838,T*32
$GNACCURACY,2.8*1C
$GNGGA,040857.700,2500.7775153,N,12132.4560581,E,4,55,0.49,16.767,M,15.25,M,0,3335*4D
$GNRMC,040857.700,A,2500.7775153,N,12132.4560581,E,0.01,135.00,090324,,,R,V*10
$GPHDT,,T*1B
$GNACCURACY,2.8*1C
$GNGGA,040857.800,2500.7775205,N,12132.4560620,E,4,55,0.49,16.761,M,15.25,M,0,3335*4C
$GNRMC,040857.800,A,2500.7775205,N,12132.4560620,E,0.01,135.00,090324,,,R,V*17
$GPHDT,223.780,T*39
$GNACCURACY,2.8*1C
$GNGGA,040857.900,2500.7775064,N,12132.4560522,E,4,54,0.49,16.755,M,15.25,M,0,3335*4F
$GNRMC,040857.900,A,2500.7775064,N,12132.4560522,E,0.02,135.00,090324,,,R,V*11
$GPHDT,,T*1B
$GNACCURACY,2.8*1C
$GNGGA,040858.000,2500.7775162,N,12132.4560574,E,4,55,0.49,16.778,M,15.25,M,1,3335*42
$GNRMC,040858.000,A,2500.7775162,N,12132.4560574,E,0.01,135.00,090324,,,R,V*10
$GPHDT,223.791,T*39
$GNACCURACY,2.8*1C
$GNGGA,040858.100,2500.7775166,N,12132.4560572,E,4,55,0.49,16.769,M,15.25,M,1,3335*41
$GNRMC,040858.100,A,2500.7775166,N,12132.4560572,E,0.01,135.00,090324,,,R,V*13
$GPHDT,,T*1B
$GNGSA,A,3,195,194,08,199,21,02,07,27,16,09,196,04,0.77,0.49,0.59,1*0F
$GNGSA,A,3,30,,,,,,,,,,,,0.77,0.49,0.59,1*03
$GNGSA,A,3,81,78,88,79,77,,,,,,,,0.77,0.49,0.59,2*0B
$GNGSA,A,3,13,21,26,27,19,15,,,,,,,0.77,0.49,0.59,3*0E
$GNGSA,A,3,23,09,06,16,40,07,43,39,28,10,25,37,0.77,0.49,0.59,4*0A
$GPGSV,4,1,15,195,64,114,42,194,64,052,41,08,62,355,43,50,60,167,29,1*64
$GPGSV,4,2,15,199,60,167,26,21,60,156,41,02,48,177,33,07,41,316,42,1*58
$GPGSV,4,3,15,27,33,036,29,16,27,075,32,09,23,246,23,196,19,169,22,1*5C
$GPGSV,4,4,15,04,18,203,15,30,11,320,35,26,08,099,17,1*56
$GPGSV,2,1,08,194,64,052,43,195,64,114,43,08,62,355,47,199,60,167,27,8*5A
$GPGSV,2,2,08,27,33,036,29,09,23,246,30,04,18,203,24,30,11,320,43,8*6A
$GLGSV,2,1,06,81,65,200,46,78,56,037,42,88,55,032,38,79,26,334,38,1*76
$GLGSV,2,2,06,77,23,110,17,87,03,026,,1*71
$GAGSV,2,1,08,13,55,081,37,21,54,011,31,26,44,172,24,27,29,079,26,7*75
$GAGSV,2,2,08,19,27,241,28,15,14,039,18,04,12,299,,33,04,199,,7*79
$GAGSV,1,1,04,13,55,081,41,21,54,011,33,27,29,079,25,19,27,241,27,1*75
$GBGSV,4,1,14,23,73,031,46,09,73,266,40,06,71,215,37,16,68,199,43,1*75
$GBGSV,4,2,14,40,60,329,44,07,60,308,40,43,59,037,43,39,58,187,33,1*70
$GBGSV,4,3,14,28,56,221,38,10,51,289,38,25,37,117,39,37,30,321,41,1*76
$GBGSV,4,4,14,34,11,040,,27,10,220,,1*74
$GBGSV,2,1,07,23,73,031,46,40,60,329,43,43,59,037,42,39,58,187,32,4*7E
$GBGSV,2,2,07,28,56,221,35,25,37,117,31,37,30,321,46,4*49
$GNACCURACY,2.8*1C
$PAIRSAT,1,35,2,0,201,3,0,200,4,0,221,5,0,200,6,0,200,7,0,201,8,0,221,9,0,220,10,0,200,11,0,200,12,0,200,13,0,200,14,0,200,15,0,200,16,0,201,17,0,200,18,0,200,19,0,200,20,0,200,21,0,201,22,0,200,23,0,200,24,0,200,25,0,200,26,0,220,27,0,221,28,0,200,29,0,200,30,0,221,31,0,200,32,0,200,194,0,621,195,0,621,196,0,620,199,0,621*5A
$PAIRSAT,2,24,65,0,200,66,0,200,67,0,200,68,0,200,69,0,200,70,0,200,71,0,200,72,0,200,73,0,200,74,0,200,75,0,200,76,0,200,77,0,201,78,0,201,79,0,201,80,0,200,81,0,201,82,0,200,83,0,200,84,0,200,85,0,200,86,0,200,87,0,201,88,0,201*7A
$PAIRSAT,3,23,2,0,1200,3,0,1200,4,0,1200,5,0,200,7,0,1200,8,0,1200,9,0,1200,10,0,1200,11,0,1200,12,0,1200,13,0,1221,15,0,1220,19,0,1201,21,0,1221,24,0,1200,25,0,1200,26,0,1221,27,0,1221,30,0,1200,31,0,1200,33,0,1200,34,0,1000,36,0,1200*6B
$PAIRSAT,4,46,1,0,200,2,0,200,3,0,600,4,0,200,5,0,200,6,0,201,7,0,201,8,0,200,9,0,201,10,0,201,11,0,200,12,0,200,13,0,200,14,0,200,16,0,201,19,0,600,20,0,600,21,0,600,22,0,600,23,0,621,24,0,600,25,0,621,26,0,600,27,0,600,28,0,621,29,0,600,30,0,600,32,0,600,33,0,600,34,0,621,35,0,600,36,0,600,37,0,621,38,0,600,39,0,421,40,0,421,41,0,400,42,0,400,43,0,421,44,0,400,45,0,400,46,0,400,59,0,400,60,0,400,61,0,400,62,0,400*48
$PAIRDGP,10,2,4,7,8,9,16,21,26,27,30*42
$GNGGA,040858.200,2500.7775165,N,12132.4560576,E,4,55,0.49,16.760,M,15.25,M,1,3335*4C
$GNRMC,040858.200,A,2500.7775165,N,12132.4560576,E,0.01,135.00,090324,,,R,V*17
$GPHDT,223.873,T*3A
$GNACCURACY,2.8*1C
$GNGGA,040858.300,2500.7775157,N,12132.4560578,E,4,55,0.49,16.756,M,15.25,M,1,3335*47
$GNRMC,040858.300,A,2500.7775157,N,12132.4560578,E,0.01,135.00,090324,,,R,V*19
$GPHDT,,T*1B
$GNACCURACY,2.8*1C
$GNGGA,040858.400,2500.7775145,N,12132.4560574,E,4,55,0.49,16.750,M,15.25,M,1,3335*49
$GNRMC,040858.400,A,2500.7775145,N,12132.4560574,E,0.02,135.00,090324,,,R,V*12
$GPHDT,223.936,T*3A
$GNACCURACY,2.8*1C
$GNGGA,040858.500,2500.7775075,N,12132.4560571,E,4,55,0.49,16.755,M,15.25,M,0,3335*4B
$GNRMC,040858.500,A,2500.7775075,N,12132.4560571,E,0.01,135.00,090324,,,R,V*17
$GPHDT,,T*1B
$GNACCURACY,2.8*1C
$GNGGA,040858.600,2500.7775196,N,12132.4560598,E,4,55,0.49,16.767,M,15.25,M,0,3335*42
$GNRMC,040858.600,A,2500.7775196,N,12132.4560598,E,0.01,135.00,090324,,,R,V*1F
$GPHDT,223.870,T*39
$GNACCURACY,2.8*1C
$GNGGA,040858.700,2500.7775063,N,12132.4560538,E,4,55,0.49,16.783,M,15.25,M,0,3335*48
$GNRMC,040858.700,A,2500.7775063,N,12132.4560538,E,0.03,135.00,090324,,,R,V*1D
$GPHDT,,T*1B
$GNACCURACY,2.8*1C
$GNGGA,040858.800,2500.7775129,N,12132.4560460,E,4,55,0.49,16.768,M,15.25,M,0,3335*41
$GNRMC,040858.800,A,2500.7775129,N,12132.4560460,E,0.04,135.00,090324,,,R,V*16
$GPHDT,223.487,T*3D
$GNACCURACY,2.8*1C
$GNGGA,040858.900,2500.7775143,N,12132.4560573,E,4,55,0.49,16.774,M,15.25,M,0,3335*42
$GNRMC,040858.900,A,2500.7775143,N,12132.4560573,E,0.04,135.00,090324,,,R,V*18
$GPHDT,,T*1B
$GNACCURACY,2.8*1C
$GNGGA,040859.000,2500.7775123,N,12132.4560526,E,4,55,0.49,16.770,M,15.25,M,1,3335*49
$GNRMC,040859.000,A,2500.7775123,N,12132.4560526,E,0.04,135.00,090324,,,R,V*16
$GPHDT,223.433,T*32
$GNACCURACY,2.8*1C
$GNGGA,040859.100,2500.7775102,N,12132.4560549,E,4,55,0.49,16.751,M,15.25,M,1,3335*41
$GNRMC,040859.100,A,2500.7775102,N,12132.4560549,E,0.04,135.00,090324,,,R,V*1D
$GPHDT,,T*1B
$GNGSA,A,3,195,194,08,199,21,02,07,27,16,09,196,04,0.77,0.49,0.59,1*0F
$GNGSA,A,3,30,,,,,,,,,,,,0.77,0.49,0.59,1*03
$GNGSA,A,3,81,78,88,79,77,,,,,,,,0.77,0.49,0.59,2*0B
$GNGSA,A,3,13,21,26,27,19,15,,,,,,,0.77,0.49,0.59,3*0E
$GNGSA,A,3,23,09,06,16,40,07,43,39,28,10,25,37,0.77,0.49,0.59,4*0A
$GPGSV,4,1,15,195,64,114,41,194,64,052,41,08,62,355,45,50,60,167,29,1*61
$GPGSV,4,2,15,199,60,167,27,21,60,156,41,02,48,177,33,07,41,316,42,1*59
$GPGSV,4,3,15,27,33,036,32,16,27,075,35,09,23,246,24,196,19,169,21,1*55
$GPGSV,4,4,15,04,18,203,17,30,11,320,36,26,08,099,17,1*57
$GPGSV,2,1,08,194,64,052,44,195,64,114,42,08,62,355,46,199,60,167,28,8*52
$GPGSV,2,2,08,27,33,036,29,09,23,246,28,04,18,203,24,30,11,320,43,8*63
$GLGSV,2,1,06,81,65,200,46,78,56,037,42,88,55,032,36,79,26,334,38,1*78
$GLGSV,2,2,06,77,23,110,16,87,03,026,,1*70
$GAGSV,2,1,08,13,55,081,39,21,54,011,32,26,44,172,24,27,29,079,34,7*7B
$GAGSV,2,2,08,19,27,241,28,15,14,039,19,04,12,299,,33,04,199,,7*78
$GAGSV,1,1,04,13,55,081,41,21,54,011,33,27,29,079,25,19,27,241,27,1*75
$GBGSV,4,1,13,23,73,031,47,09,73,266,40,06,71,215,38,16,68,199,43,1*7C
$GBGSV,4,2,13,40,60,329,41,07,60,308,41,43,59,037,43,39,58,187,30,1*70
$GBGSV,4,3,13,28,56,221,38,10,51,289,38,25,37,117,28,37,30,321,40,1*70
$GBGSV,4,4,13,34,11,040,,1*47
$GBGSV,2,1,07,23,73,031,45,40,60,329,43,43,59,037,42,39,58,187,33,4*7C
$GBGSV,2,2,07,28,56,221,34,25,37,117,26,37,30,321,46,4*4E
$GNACCURACY,2.8*1C
$PAIRSAT,1,35,2,0,201,3,0,200,4,0,221,5,0,200,6,0,200,7,0,201,8,0,221,9,0,220,10,0,200,11,0,200,12,0,200,13,0,200,14,0,200,15,0,200,16,0,201,17,0,200,18,0,200,19,0,200,20,0,200,21,0,201,22,0,200,23,0,200,24,0,200,25,0,200,26,0,220,27,0,221,28,0,200,29,0,200,30,0,221,31,0,200,32,0,200,194,0,621,195,0,621,196,0,620,199,0,621*5A
$PAIRSAT,2,24,65,0,200,66,0,200,67,0,200,68,0,200,69,0,200,70,0,200,71,0,200,72,0,200,73,0,200,74,0,200,75,0,200,76,0,200,77,0,201,78,0,201,79,0,201,80,0,200,81,0,201,82,0,200,83,0,200,84,0,200,85,0,200,86,0,200,87,0,201,88,0,201*7A
$PAIRSAT,3,23,2,0,1200,3,0,1200,4,0,1200,5,0,200,7,0,1200,8,0,1200,9,0,1200,10,0,1200,11,0,1200,12,0,1200,13,0,1221,15,0,1220,19,0,1201,21,0,1221,24,0,1200,25,0,1200,26,0,1221,27,0,1221,30,0,1200,31,0,1200,33,0,1200,34,0,1000,36,0,1200*6B
$PAIRSAT,4,46,1,0,200,2,0,200,3,0,600,4,0,200,5,0,200,6,0,201,7,0,201,8,0,200,9,0,201,10,0,201,11,0,200,12,0,200,13,0,200,14,0,200,16,0,201,19,0,600,20,0,600,21,0,600,22,0,600,23,0,621,24,0,600,25,0,621,26,0,600,27,0,600,28,0,621,29,0,600,30,0,600,32,0,600,33,0,600,34,0,621,35,0,600,36,0,600,37,0,621,38,0,600,39,0,421,40,0,421,41,0,400,42,0,400,43,0,421,44,0,400,45,0,400,46,0,400,59,0,400,60,0,400,61,0,400,62,0,400*48
$PAIRDGP,10,2,4,7,8,9,16,21,26,27,30*42
$GNGGA,040859.200,2500.7775100,N,12132.4560564,E,4,55,0.49,16.741,M,15.25,M,1,3335*4E
$GNRMC,040859.200,A,2500.7775100,N,12132.4560564,E,0.03,135.00,090324,,,R,V*14
$GPHDT,223.807,T*39
$GNACCURACY,2.8*1C
$GNGGA,040859.300,2500.7775070,N,12132.4560559,E,4,55,0.49,16.737,M,15.25,M,1,3335*46
$GNRMC,040859.300,A,2500.7775070,N,12132.4560559,E,0.03,135.00,090324,,,R,V*1D
$GPHDT,,T*1B
$GNACCURACY,2.8*1C
$GNGGA,040859.400,2500.7775130,N,12132.4560567,E,4,55,0.49,16.744,M,15.25,M,1,3335*4D
$GNRMC,040859.400,A,2500.7775130,N,12132.4560567,E,0.03,135.00,090324,,,R,V*12
$GPHDT,223.600,T*30
$GNACCURACY,2.8*1C
$GNGGA,040859.500,2500.7775108,N,12132.4560536,E,4,55,0.49,16.749,M,15.25,M,1,3335*4E
$GNRMC,040859.500,A,2500.7775108,N,12132.4560536,E,0.02,135.00,090324,,,R,V*1D
$GPHDT,,T*1B
$GNACCURACY,2.8*1C
$GNGGA,040859.600,2500.7775103,N,12132.4560529,E,4,55,0.49,16.762,M,15.25,M,1,3335*41
$GNRMC,040859.600,A,2500.7775103,N,12132.4560529,E,0.02,135.00,090324,,,R,V*1B
$GPHDT,223.183,T*3C
$GNACCURACY,2.8*1C
$GNGGA,040859.700,2500.7775109,N,12132.4560554,E,4,55,0.49,16.740,M,15.25,M,1,3335*40
$GNRMC,040859.700,A,2500.7775109,N,12132.4560554,E,0.02,135.00,090324,,,R,V*1A
$GPHDT,,T*1B
$GNACCURACY,2.8*1C
$GNGGA,040859.800,2500.7775106,N,12132.4560541,E,4,55,0.49,16.752,M,15.25,M,0,3335*46
$GNRMC,040859.800,A,2500.7775106,N,12132.4560541,E,0.02,135.00,090324,,,R,V*1E
$GPHDT,223.100,T*37
$GNACCURACY,2.8*1C
$GNGGA,040859.900,2500.7775124,N,12132.4560538,E,4,55,0.49,16.756,M,15.25,M,0,3335*4D
$GNRMC,040859.900,A,2500.7775124,N,12132.4560538,E,0.03,135.00,090324,,,R,V*10
$GPHDT,,T*1B
$GNACCURACY,2.8*1C
$GNGGA,040900.000,2500.7775102,N,12132.4560541,E,4,55,0.49,16.760,M,15.25,M,1,3335*47
$GNRMC,040900.000,A,2500.7775102,N,12132.4560541,E,0.03,135.00,090324,,,R,V*1E
$GPHDT,223.220,T*36
$GNACCURACY,2.8*1C
$GNGGA,040900.100,2500.7775120,N,12132.4560533,E,4,55,0.49,16.753,M,15.25,M,1,3335*43
$GNRMC,040900.100,A,2500.7775120,N,12132.4560533,E,0.04,135.00,090324,,,R,V*1D
$GPHDT,,T*1B
$GNGSA,A,3,195,194,08,199,21,02,07,27,16,09,196,04,0.77,0.49,0.59,1*0F
$GNGSA,A,3,30,,,,,,,,,,,,0.77,0.49,0.59,1*03
$GNGSA,A,3,81,78,88,79,77,,,,,,,,0.77,0.49,0.59,2*0B
$GNGSA,A,3,13,21,26,27,19,15,,,,,,,0.77,0.49,0.59,3*0E
$GNGSA,A,3,23,09,06,16,40,07,43,39,28,10,25,37,0.77,0.49,0.59,4*0A
$GPGSV,4,1,15,195,64,114,41,194,64,052,42,08,62,355,44,50,60,167,29,1*63
$GPGSV,4,2,15,199,60,167,27,21,60,156,41,02,48,177,33,07,41,316,42,1*59
$GPGSV,4,3,15,27,33,036,33,16,27,075,38,09,23,246,25,196,19,169,20,1*59
$GPGSV,4,4,15,04,18,203,17,30,11,320,36,26,08,099,18,1*58
$GPGSV,2,1,08,194,64,052,44,195,64,114,42,08,62,355,46,199,60,167,28,8*52
$GPGSV,2,2,08,27,33,036,29,09,23,246,28,04,18,203,26,30,11,320,43,8*61
$GLGSV,2,1,06,81,65,200,46,78,56,037,42,88,55,032,36,79,26,334,38,1*78
$GLGSV,2,2,06,77,23,110,18,87,03,026,,1*7E
$GAGSV,2,1,08,13,55,081,40,21,54,011,32,26,44,172,24,27,29,079,36,7*77
$GAGSV,2,2,08,19,27,241,28,15,14,039,19,04,12,299,,33,04,199,,7*78
$GAGSV,1,1,04,13,55,081,43,21,54,011,33,27,29,079,31,19,27,241,28,1*7D
$GBGSV,4,1,13,23,73,031,47,09,73,266,39,06,71,215,38,16,68,199,43,1*72
$GBGSV,4,2,13,40,60,329,42,07,60,308,41,43,59,037,43,39,58,187,30,1*73
$GBGSV,4,3,13,28,56,221,38,10,51,289,38,25,37,117,31,37,30,321,41,1*79
$GBGSV,4,4,13,34,11,040,,1*47
$GBGSV,2,1,07,23,73,031,45,40,60,329,43,43,59,037,43,39,58,187,34,4*7A
$GBGSV,2,2,07,28,56,221,33,25,37,117,32,37,30,321,46,4*4C
$GNACCURACY,2.8*1C
$PAIRSAT,1,35,2,0,201,3,0,200,4,0,221,5,0,200,6,0,200,7,0,201,8,0,221,9,0,220,10,0,200,11,0,200,12,0,200,13,0,200,14,0,200,15,0,200,16,0,201,17,0,200,18,0,200,19,0,200,20,0,200,21,0,201,22,0,200,23,0,200,24,0,200,25,0,200,26,0,220,27,0,221,28,0,200,29,0,200,30,0,221,31,0,200,32,0,200,194,0,621,195,0,621,196,0,620,199,0,621*5A
$PAIRSAT,2,24,65,0,200,66,0,200,67,0,200,68,0,200,69,0,200,70,0,200,71,0,200,72,0,200,73,0,200,74,0,200,75,0,200,76,0,200,77,0,201,78,0,201,79,0,201,80,0,200,81,0,201,82,0,200,83,0,200,84,0,200,85,0,200,86,0,200,87,0,201,88,0,201*7A
$PAIRSAT,3,23,2,0,1200,3,0,1200,4,0,1200,5,0,200,7,0,1200,8,0,1200,9,0,1200,10,0,1200,11,0,1200,12,0,1200,13,0,1221,15,0,1220,19,0,1201,21,0,1221,24,0,1200,25,0,1200,26,0,1221,27,0,1221,30,0,1200,31,0,1200,33,0,1200,34,0,1000,36,0,1200*6B
$PAIRSAT,4,46,1,0,200,2,0,200,3,0,600,4,0,200,5,0,200,6,0,201,7,0,201,8,0,200,9,0,201,10,0,201,11,0,200,12,0,200,13,0,200,14,0,200,16,0,201,19,0,600,20,0,600,21,0,600,22,0,600,23,0,621,24,0,600,25,0,621,26,0,600,27,0,600,28,0,621,29,0,600,30,0,600,32,0,600,33,0,600,34,0,621,35,0,600,36,0,600,37,0,621,38,0,600,39,0,421,40,0,421,41,0,400,42,0,400,43,0,421,44,0,400,45,0,400,46,0,400,59,0,400,60,0,400,61,0,400,62,0,400*48
$PAIRDGP,10,2,4,7,8,9,16,21,26,27,30*42
$GNGGA,040900.200,2500.7775113,N,12132.4560533,E,4,55,0.49,16.755,M,15.25,M,1,3335*46
$GNRMC,040900.200,A,2500.7775113,N,12132.4560533,E,0.03,135.00,090324,,,R,V*19
$GPHDT,222.836,T*3A
$GNACCURACY,2.8*1C
$GN