$FW : RTK35X,V1.1X0314AS,Lib20210517,1*54
$Tool : LOCOSYS , GNSS Firebird , v1.0.0.19*39
$---------------------------------------------------*2D
$GNACCURACY,2.8*1C
$GNGGA,040926.700,2500.7775403,N,12132.4560451,E,4,57,0.47,16.738,M,15.25,M,0,3335*40
$GNRMC,040926.700,A,2500.7775403,N,12132.4560451,E,0.03,135.00,090324,,,R,V*19
$GPHDT,,T*1B
$GNACCURACY,2.8*1C
$GNGGA,040926.800,2500.7775359,N,12132.4560498,E,4,57,0.47,16.746,M,15.25,M,0,3335*4B
$GNRMC,040926.800,A,2500.7775359,N,12132.4560498,E,0.02,135.00,090324,,,R,V*1A
$GPHDT,87.160,T*0D
$GNACCURACY,2.8*1C
$GNGGA,040926.900,2500.7775390,N,12132.4560494,E,4,57,0.47,16.746,M,15.25,M,0,3335*43
$GNRMC,040926.900,A,2500.7775390,N,12132.4560494,E,0.03,135.00,090324,,,R,V*13
$GPHDT,,T*1B
$GNACCURACY,2.8*1C
$GNGGA,040927.000,2500.7775369,N,12132.4560463,E,4,56,0.48,16.743,M,15.25,M,1,3335*4F
$GNRMC,040927.000,A,2500.7775369,N,12132.4560463,E,0.03,135.00,090324,,,R,V*15
$GPHDT,87.500,T*0F
$GNACCURACY,2.8*1C
$GNGGA,040927.100,2500.7775330,N,12132.4560487,E,4,55,0.49,16.747,M,15.25,M,1,3335*4E
$GNRMC,040927.100,A,2500.7775330,N,12132.4560487,E,0.02,135.00,090324,,,R,V*13
$GPHDT,,T*1B
$GNGSA,A,3,195,194,08,21,199,02,07,27,16,09,04,30,0.77,0.49,0.59,1*32
$GNGSA,A,3,81,78,88,79,77,,,,,,,,0.77,0.49,0.59,2*0B
$GNGSA,A,3,13,21,26,27,19,15,,,,,,,0.77,0.49,0.59,3*0E
$GNGSA,A,3,23,09,06,16,07,40,39,43,28,10,25,37,0.77,0.49,0.59,4*0A
$GNGSA,A,3,34,,,,,,,,,,,,0.77,0.49,0.59,4*02
$GPGSV,4,1,15,195,64,114,45,194,64,052,42,08,62,355,34,21,60,155,38,1*67
$GPGSV,4,2,15,50,60,167,29,199,60,167,27,02,48,177,27,07,41,316,36,1*55
$GPGSV,4,3,15,27,33,036,29,16,27,075,39,09,23,246,23,196,19,169,12,1*54
$GPGSV,4,4,15,04,18,203,18,30,11,320,28,26,08,099,14,1*54
$GPGSV,2,1,08,194,64,052,44,195,64,114,43,08,62,355,41,199,60,167,30,8*5D
$GPGSV,2,2,08,27,33,036,30,09,23,246,32,04,18,203,25,30,11,320,26,8*62
$GLGSV,2,1,06,81,65,201,43,78,57,037,38,88,55,031,35,79,26,334,24,1*7D
$GLGSV,2,2,06,77,23,110,23,87,03,026,,1*76
$GAGSV,2,1,07,13,55,080,42,21,54,012,21,26,44,172,18,27,29,079,41,7*75
$GAGSV,2,2,07,19,27,241,26,15,14,039,18,04,12,299,,7*4D
$GAGSV,1,1,04,13,55,080,45,21,54,012,21,27,29,079,41,19,27,241,29,1*7C
$GBGSV,4,1,13,23,74,031,42,09,73,266,40,06,71,215,41,16,68,199,43,1*70
$GBGSV,4,2,13,07,60,308,33,40,60,329,38,39,58,187,28,43,58,036,39,1*7F
$GBGSV,4,3,13,28,56,221,40,10,51,289,33,25,37,118,22,37,30,321,35,1*73
$GBGSV,4,4,13,34,11,040,27,1*42
$GBGSV,2,1,07,23,74,031,44,40,60,329,34,39,58,187,31,43,58,036,39,4*74
$GBGSV,2,2,07,28,56,221,36,25,37,118,31,37,30,321,34,4*40
$GNACCURACY,2.8*1C
$PAIRSAT,1,35,2,0,201,3,0,200,4,0,221,5,0,200,6,0,200,7,0,201,8,0,221,9,0,220,10,0,200,11,0,200,12,0,200,13,0,200,14,0,200,15,0,200,16,0,201,17,0,200,18,0,200,19,0,200,20,0,200,21,0,201,22,0,200,23,0,200,24,0,200,25,0,200,26,0,220,27,0,221,28,0,200,29,0,200,30,0,221,31,0,200,32,0,200,194,0,621,195,0,621,196,0,620,199,0,621*5A
$PAIRSAT,2,24,65,0,200,66,0,200,67,0,200,68,0,200,69,0,200,70,0,200,71,0,200,72,0,200,73,0,200,74,0,200,75,0,200,76,0,200,77,0,201,78,0,201,79,0,201,80,0,200,81,0,201,82,0,200,83,0,200,84,0,200,85,0,200,86,0,200,87,0,201,88,0,201*7A
$PAIRSAT,3,23,2,0,1200,3,0,1200,4,0,1200,5,0,200,7,0,1200,8,0,1200,9,0,1200,10,0,1200,11,0,1200,12,0,1200,13,0,1221,15,0,1220,19,0,1201,21,0,1221,24,0,1200,25,0,1200,26,0,1221,27,0,1221,30,0,1200,31,0,1200,33,0,1200,34,0,1000,36,0,1200*6B
$PAIRSAT,4,46,1,0,200,2,0,200,3,0,600,4,0,200,5,0,200,6,0,201,7,0,201,8,0,200,9,0,201,10,0,201,11,0,200,12,0,200,13,0,200,14,0,200,16,0,201,19,0,600,20,0,600,21,0,600,22,0,600,23,0,621,24,0,600,25,0,621,26,0,600,27,0,600,28,0,621,29,0,600,30,0,600,32,0,600,33,0,600,34,0,621,35,0,600,36,0,600,37,0,621,38,0,600,39,0,621,40,0,421,41,0,400,42,0,400,43,0,421,44,0,400,45,0,400,46,0,400,59,0,400,60,0,400,61,0,400,62,0,400*4A
$PAIRDGP,10,2,4,7,8,9,16,21,26,27,30*42
$GNGGA,040927.200,2500.7775314,N,12132.4560480,E,4,55,0.49,16.733,M,15.25,M,1,3335*4F
$GNRMC,040927.200,A,2500.7775314,N,12132.4560480,E,0.02,135.00,090324,,,R,V*11
$GPHDT,87.655,T*0C
$GNACCURACY,2.8*1C
$GNGGA,040927.300,2500.7775363,N,12132.4560402,E,4,55,0.49,16.718,M,15.25,M,1,3335*4D
$GNRMC,040927.300,A,2500.7775363,N,12132.4560402,E,0.02,135.00,090324,,,R,V*1A
$GPHDT,,T*1B
$GNACCURACY,2.8*1C
$GNGGA,040927.400,2500.7775321,N,12132.4560521,E,4,55,0.49,16.741,M,15.25,M,1,3335*40
$GNRMC,040927.400,A,2500.7775321,N,12132.4560521,E,0.01,135.00,090324,,,R,V*18
$GPHDT,86.755,T*0C
$GNACCURACY,2.8*1C
$GNGGA,040927.500,2500.7775360,N,12132.4560502,E,4,54,0.50,16.747,M,15.25,M,1,3335*4A
$GNRMC,040927.500,A,2500.7775360,N,12132.4560502,E,0.02,135.00,090324,,,R,V*1E
$GPHDT,,T*1B
$GNACCURACY,2.8*1C
$GNGGA,040927.600,2500.7775290,N,12132.4560581,E,4,54,0.50,16.748,M,15.25,M,0,3335*42
$GNRMC,040927.600,A,2500.7775290,N,12132.4560581,E,0.02,135.00,090324,,,R,V*18
$GPHDT,86.470,T*08
$GNACCURACY,2.8*1C
$GNGGA,040927.700,2500.7775305,N,12132.4560464,E,4,53,0.50,16.717,M,15.25,M,0,3335*49
$GNRMC,040927.700,A,2500.7775305,N,12132.4560464,E,0.02,135.00,090324,,,R,V*1E
$GPHDT,,T*1B
$GNACCURACY,2.8*1C
$GNGGA,040927.800,2500.7775310,N,12132.4560504,E,4,53,0.50,16.735,M,15.25,M,0,3335*45
$GNRMC,040927.800,A,2500.7775310,N,12132.4560504,E,0.02,135.00,090324,,,R,V*12
$GPHDT,87.020,T*08
$GNACCURACY,2.8*1C
$GNGGA,040927.900,2500.7775346,N,12132.4560577,E,4,54,0.50,16.748,M,15.25,M,0,3335*4E
$GNRMC,040927.900,A,2500.7775346,N,12132.4560577,E,0.01,135.00,090324,,,R,V*17
$GPHDT,,T*1B
$GNACCURACY,2.8*1C
$GNGGA,040928.000,2500.7775335,N,12132.4560557,E,4,55,0.50,16.754,M,15.25,M,1,3335*43
$GNRMC,040928.000,A,2500.7775335,N,12132.4560557,E,0.01,135.00,090324,,,R,V*17
$GPHDT,87.662,T*08
$GNACCURACY,2.8*1C
$GNGGA,040928.100,2500.7775364,N,12132.4560503,E,4,55,0.50,16.741,M,15.25,M,1,3335*43
$GNRMC,040928.100,A,2500.7775364,N,12132.4560503,E,0.01,135.00,090324,,,R,V*13
$GPHDT,,T*1B
$GNGSA,A,3,195,194,08,199,21,07,27,16,09,04,30,,0.77,0.50,0.59,1*38
$GNGSA,A,3,81,78,88,79,77,,,,,,,,0.77,0.50,0.59,2*03
$GNGSA,A,3,13,21,26,27,19,15,,,,,,,0.77,0.50,0.59,3*06
$GNGSA,A,3,23,09,06,16,07,40,43,39,28,10,25,37,0.77,0.50,0.59,4*02
$GNGSA,A,3,34,,,,,,,,,,,,0.77,0.50,0.59,4*0A
$GPGSV,4,1,15,195,64,114,45,194,64,052,42,08,62,355,37,50,60,167,30,1*6B
$GPGSV,4,2,15,199,60,167,27,21,60,155,40,02,48,177,20,07,41,316,33,1*5F
$GPGSV,4,3,15,27,33,036,28,16,27,075,39,09,23,246,20,196,19,169,16,1*52
$GPGSV,4,4,15,04,18,203,17,30,11,320,26,26,08,099,14,1*55
$GPGSV,2,1,08,194,64,052,46,195,64,114,43,08,62,355,44,199,60,167,31,8*5B
$GPGSV,2,2,08,27,33,036,26,09,23,246,29,04,18,203,27,30,11,320,29,8*62
$GLGSV,2,1,06,81,65,201,43,78,57,038,39,88,55,031,34,79,26,334,19,1*7C
$GLGSV,2,2,06,77,23,110,21,87,03,026,,1*74
$GAGSV,2,1,07,13,55,080,42,21,54,012,22,26,44,172,17,27,29,079,40,7*78
$GAGSV,2,2,07,19,27,241,27,15,14,039,19,04,12,299,,7*4D
$GAGSV,2,1,06,13,55,080,45,21,54,012,25,26,44,172,23,27,29,079,42,1*7A
$GAGSV,2,2,06,19,27,241,28,15,14,039,20,1*7A
$GBGSV,4,1,14,23,74,031,42,09,73,266,42,06,71,215,37,16,68,199,42,1*75
$GBGSV,4,2,14,07,60,308,36,40,60,329,38,43,58,036,41,39,58,187,30,1*7B
$GBGSV,4,3,14,28,56,221,39,10,51,289,30,25,37,118,29,37,30,321,32,1*75
$GBGSV,4,4,14,34,11,040,26,27,10,220,,1*70
$GBGSV,2,1,07,23,74,031,45,40,60,329,37,39,58,187,32,43,58,036,41,4*7A
$GBGSV,2,2,07,28,56,221,35,25,37,118,33,37,30,321,28,4*4C
$GNACCURACY,2.8*1C
$PAIRSAT,1,35,2,0,201,3,0,200,4,0,221,5,0,200,6,0,200,7,0,201,8,0,221,9,0,220,10,0,200,11,0,200,12,0,200,13,0,200,14,0,200,15,0,200,16,0,201,17,0,200,18,0,200,19,0,200,20,0,200,21,0,201,22,0,200,23,0,200,24,0,200,25,0,200,26,0,220,27,0,221,28,0,200,29,0,200,30,0,221,31,0,200,32,0,200,194,0,621,195,0,621,196,0,620,199,0,621*5A
$PAIRSAT,2,24,65,0,200,66,0,200,67,0,200,68,0,200,69,0,200,70,0,200,71,0,200,72,0,200,73,0,200,74,0,200,75,0,200,76,0,200,77,0,201,78,0,201,79,0,201,80,0,200,81,0,201,82,0,200,83,0,200,84,0,200,85,0,200,86,0,200,87,0,201,88,0,201*7A
$PAIRSAT,3,23,2,0,1200,3,0,1200,4,0,1200,5,0,200,7,0,1200,8,0,1200,9,0,1200,10,0,1200,11,0,1200,12,0,1200,13,0,1221,15,0,1220,19,0,1201,21,0,1221,24,0,1200,25,0,1200,26,0,1221,27,0,1221,30,0,1200,31,0,1200,33,0,1200,34,0,1000,36,0,1200*6B
$PAIRSAT,4,46,1,0,200,2,0,200,3,0,600,4,0,200,5,0,200,6,0,201,7,0,201,8,0,200,9,0,201,10,0,201,11,0,200,12,0,200,13,0,200,14,0,200,16,0,201,19,0,600,20,0,600,21,0,600,22,0,600,23,0,621,24,0,600,25,0,621,26,0,600,27,0,600,28,0,621,29,0,600,30,0,600,32,0,600,33,0,600,34,0,621,35,0,600,36,0,600,37,0,621,38,0,600,39,0,621,40,0,421,41,0,400,42,0,400,43,0,421,44,0,400,45,0,400,46,0,400,59,0,400,60,0,400,61,0,400,62,0,400*4A
$PAIRDGP,10,2,4,7,8,9,16,21,26,27,30*42
$GNGGA,040928.200,2500.7775369,N,12132.4560501,E,4,55,0.50,16.734,M,15.25,M,1,3335*4D
$GNRMC,040928.200,A,2500.7775369,N,12132.4560501,E,0.01,135.00,090324,,,R,V*1F
$GPHDT,88.110,T*05
$GNACCURACY,2.8*1C
$GNGGA,040928.300,2500.7775350,N,12132.4560554,E,4,55,0.50,16.737,M,15.25,M,1,3335*45
$GNRMC,040928.300,A,2500.7775350,N,12132.4560554,E,0.01,135.00,090324,,,R,V*14
$GPHDT,,T*1B
$GNACCURACY,2.8*1C
$GNGGA,040928.400,2500.7775375,N,12132.4560505,E,4,55,0.50,16.730,M,15.25,M,1,3335*46
$GNRMC,040928.400,A,2500.7775375,N,12132.4560505,E,0.01,135.00,090324,,,R,V*10
$GPHDT,88.618,T*0A
$GNACCURACY,2.8*1C
$GNGGA,040928.500,2500.7775362,N,12132.4560545,E,4,55,0.50,16.736,M,15.25,M,1,3335*43
$GNRMC,040928.500,A,2500.7775362,N,12132.4560545,E,0.01,135.00,090324,,,R,V*13
$GPHDT,,T*1B
$GNACCURACY,2.8*1C
$GNGGA,040928.600,2500.7775344,N,12132.4560558,E,4,55,0.50,16.729,M,15.25,M,1,3335*46
$GNRMC,040928.600,A,2500.7775344,N,12132.4560558,E,0.01,135.00,090324,,,R,V*18
$GPHDT,88.449,T*0C
$GNACCURACY,2.8*1C
$GNGGA,040928.700,2500.7775326,N,12132.4560554,E,4,55,0.50,16.726,M,15.25,M,0,3335*41
$GNRMC,040928.700,A,2500.7775326,N,12132.4560554,E,0.01,135.00,090324,,,R,V*11
$GPHDT,,T*1B
$GNACCURACY,2.8*1C
$GNGGA,040928.800,2500.7775283,N,12132.4560614,E,4,55,0.50,16.743,M,15.25,M,0,3335*44
$GNRMC,040928.800,A,2500.7775283,N,12132.4560614,E,0.00,135.00,090324,,,R,V*16
$GPHDT,87.224,T*0E
$GNACCURACY,2.8*1C
$GNGGA,040928.900,2500.7775285,N,12132.4560605,E,4,54,0.50,16.733,M,15.25,M,0,3335*45
$GNRMC,040928.900,A,2500.7775285,N,12132.4560605,E,0.01,135.00,090324,,,R,V*10
$GPHDT,,T*1B
$GNACCURACY,2.8*1C
$GNGGA,040929.000,2500.7775269,N,12132.4560600,E,4,54,0.50,16.722,M,15.25,M,1,3335*4B
$GNRMC,040929.000,A,2500.7775269,N,12132.4560600,E,0.00,135.00,090324,,,R,V*1E
$GPHDT,87.294,T*05
$GNACCURACY,2.8*1C
$GNGGA,040929.100,2500.7775274,N,12132.4560618,E,4,55,0.50,16.739,M,15.25,M,1,3335*44
$GNRMC,040929.100,A,2500.7775274,N,12132.4560618,E,0.00,135.00,090324,,,R,V*1A
$GPHDT,,T*1B
$GNGSA,A,3,195,194,08,199,21,07,27,16,09,04,30,,0.77,0.50,0.59,1*38
$GNGSA,A,3,81,78,88,79,77,,,,,,,,0.77,0.50,0.59,2*03
$GNGSA,A,3,13,21,26,27,19,15,,,,,,,0.77,0.50,0.59,3*06
$GNGSA,A,3,23,09,06,16,07,40,39,43,28,10,25,37,0.77,0.50,0.59,4*02
$GNGSA,A,3,34,,,,,,,,,,,,0.77,0.50,0.59,4*0A
$GPGSV,4,1,15,195,64,114,45,194,64,052,42,08,62,355,38,50,60,167,29,1*6C
$GPGSV,4,2,15,199,60,167,27,21,60,155,40,02,48,177,18,07,41,316,30,1*57
$GPGSV,4,3,15,27,33,036,27,16,27,075,39,09,23,246,20,196,19,169,15,1*5E
$GPGSV,4,4,15,04,18,203,16,30,11,320,26,26,08,099,15,1*55
$GPGSV,2,1,08,194,64,052,46,195,64,114,42,08,62,355,44,199,60,167,31,8*5A
$GPGSV,2,2,08,27,33,036,29,09,23,246,32,04,18,203,26,30,11,320,31,8*6F
$GLGSV,2,1,07,81,65,201,43,78,57,038,39,88,55,031,35,79,26,334,19,1*7C
$GLGSV,2,2,07,77,23,110,19,69,04,281,,87,02,026,,1*4F
$GAGSV,2,1,08,13,55,080,42,21,54,012,24,26,44,172,16,27,29,079,40,7*70
$GAGSV,2,2,08,19,27,241,28,15,14,039,19,04,12,299,,33,04,199,,7*78
$GAGSV,2,1,06,13,55,080,45,21,54,012,28,26,44,172,25,27,29,079,42,1*71
$GAGSV,2,2,06,19,27,241,28,15,14,039,21,1*7B
$GBGSV,4,1,14,23,74,031,43,09,73,266,42,06,71,215,38,16,68,199,43,1*7A
$GBGSV,4,2,14,07,60,308,37,40,60,329,38,39,58,187,31,43,58,036,42,1*78
$GBGSV,4,3,14,28,56,221,41,10,51,289,32,25,37,118,30,37,30,321,32,1*70
$GBGSV,4,4,14,34,11,040,27,27,10,220,,1*71
$GBGSV,2,1,07,23,74,031,45,40,60,329,38,39,58,187,32,43,58,036,41,4*75
$GBGSV,2,2,07,28,56,221,34,25,37,118,35,37,30,321,27,4*44
$GNACCURACY,2.8*1C
$PAIRSAT,1,35,2,0,201,3,0,200,4,0,221,5,0,200,6,0,200,7,0,201,8,0,221,9,0,220,10,0,200,11,0,200,12,0,200,13,0,200,14,0,200,15,0,200,16,0,201,17,0,200,18,0,200,19,0,200,20,0,200,21,0,201,22,0,200,23,0,200,24,0,200,25,0,200,26,0,220,27,0,221,28,0,200,29,0,200,30,0,221,31,0,200,32,0,200,194,0,621,195,0,621,196,0,620,199,0,621*5A
$PAIRSAT,2,24,65,0,200,66,0,200,67,0,200,68,0,200,69,0,200,70,0,200,71,0,200,72,0,200,73,0,200,74,0,200,75,0,200,76,0,200,77,0,201,78,0,201,79,0,201,80,0,200,81,0,201,82,0,200,83,0,200,84,0,200,85,0,200,86,0,200,87,0,201,88,0,201*7A
$PAIRSAT,3,23,2,0,1200,3,0,1200,4,0,1200,5,0,200,7,0,1200,8,0,1200,9,0,1200,10,0,1200,11,0,1200,12,0,1200,13,0,1221,15,0,1220,19,0,1201,21,0,1221,24,0,1200,25,0,1200,26,0,1221,27,0,1221,30,0,1200,31,0,1200,33,0,1200,34,0,1000,36,0,1200*6B
$PAIRSAT,4,46,1,0,200,2,0,200,3,0,600,4,0,200,5,0,200,6,0,201,7,0,201,8,0,200,9,0,201,10,0,201,11,0,200,12,0,200,13,0,200,14,0,200,16,0,201,19,0,600,20,0,600,21,0,600,22,0,600,23,0,621,24,0,600,25,0,621,26,0,600,27,0,600,28,0,621,29,0,600,30,0,600,32,0,600,33,0,600,34,0,621,35,0,600,36,0,600,37,0,621,38,0,600,39,0,621,40,0,421,41,0,400,42,0,400,43,0,421,44,0,400,45,0,400,46,0,400,59,0,400,60,0,400,61,0,400,62,0,400*4A
$PAIRDGP,10,2,4,7,8,9,16,21,26,27,30*42
$GNGGA,040929.200,2500.7775265,N,12132.4560614,E,4,56,0.50,16.743,M,15.25,M,1,3335*45
$GNRMC,040929.200,A,2500.7775265,N,12132.4560614,E,0.00,135.00,090324,,,R,V*15
$GPHDT,87.070,T*0D
$GNACCURACY,2.8*1C
$GNGGA,040929.300,2500.7775271,N,12132.4560605,E,4,56,0.50,16.750,M,15.25,M,1,3335*43
$GNRMC,040929.300,A,2500.7775271,N,12132.4560605,E,0.00,135.00,090324,,,R,V*11
$GPHDT,,T*1B
$GNACCURACY,2.8*1C
$GNGGA,040929.400,2500.7775335,N,12132.4560516,E,4,56,0.50,16.743,M,15.25,M,1,3335*46
$GNRMC,040929.400,A,2500.7775335,N,12132.4560516,E,0.01,135.00,090324,,,R,V*17
$GPHDT,87.169,T*04
$GNACCURACY,2.8*1C
$GNGGA,040929.500,2500.7775318,N,12132.4560594,E,4,56,0.50,16.752,M,15.25,M,0,3335*43
$GNRMC,040929.500,A,2500.7775318,N,12132.4560594,E,0.01,135.00,090324,,,R,V*13
$GPHDT,,T*1B
$GNACCURACY,2.8*1C
$GNGGA,040929.600,2500.7775308,N,12132.4560559,E,4,56,0.50,16.740,M,15.25,M,0,3335*43
$GNRMC,040929.600,A,2500.7775308,N,12132.4560559,E,0.02,135.00,090324,,,R,V*13
$GPHDT,87.045,T*0B
$GNACCURACY,2.8*1C
$GNGGA,040929.700,2500.7775274,N,12132.4560552,E,4,56,0.50,16.737,M,15.25,M,0,3335*43
$GNRMC,040929.700,A,2500.7775274,N,12132.4560552,E,0.02,135.00,090324,,,R,V*13
$GPHDT,,T*1B
$GNACCURACY,2.8*1C
$GNGGA,040929.800,2500.7775277,N,12132.4560537,E,4,56,0.50,16.716,M,15.25,M,0,3335*4F
$GNRMC,040929.800,A,2500.7775277,N,12132.4560537,E,0.02,135.00,090324,,,R,V*1C
$GPHDT,86.689,T*0C
$GNACCURACY,2.8*1C
$GNGGA,040929.900,2500.7775307,N,12132.4560557,E,4,56,0.50,16.723,M,15.25,M,0,3335*48
$GNRMC,040929.900,A,2500.7775307,N,12132.4560557,E,0.02,135.00,090324,,,R,V*1D
$GPHDT,,T*1B
$GNACCURACY,2.8*1C
$GNGGA,040930.000,2500.7775314,N,12132.4560486,E,4,57,0.49,16.705,M,15.25,M,1,3335*4A
$GNRMC,040930.000,A,2500.7775314,N,12132.4560486,E,0.01,135.00,090324,,,R,V*10
$GPHDT,86.761,T*0B
$GNACCURACY,2.8*1C
$GNGGA,040930.100,2500.7775277,N,12132.4560529,E,4,57,0.49,16.715,M,15.25,M,1,3335*4A
$GNRMC,040930.100,A,2500.7775277,N,12132.4560529,E,0.01,135.00,090324,,,R,V*11
$GPHDT,,T*1B
$GNGSA,A,3,195,194,08,199,21,02,07,27,16,09,04,30,0.77,0.49,0.59,1*32
$GNGSA,A,3,81,78,88,79,77,,,,,,,,0.77,0.49,0.59,2*0B
$GNGSA,A,3,13,21,26,27,19,15,,,,,,,0.77,0.49,0.59,3*0E
$GNGSA,A,3,23,09,06,16,40,07,43,39,28,10,25,37,0.77,0.49,0.59,4*0A
$GNGSA,A,3,34,,,,,,,,,,,,0.77,0.49,0.59,4*02
$GPGSV,4,1,15,195,64,114,45,194,64,052,42,08,62,355,40,50,60,167,31,1*6A
$GPGSV,4,2,15,199,60,167,29,21,60,155,41,02,48,177,26,07,41,316,28,1*5C
$GPGSV,4,3,15,27,33,036,29,16,27,075,36,09,23,246,24,196,19,169,12,1*5C
$GPGSV,4,4,15,04,18,203,17,30,11,320,30,26,08,099,14,1*52
$GPGSV,3,1,09,194,64,052,46,195,64,114,44,08,62,355,45,199,60,167,32,8*5E
$GPGSV,3,2,09,27,33,036,28,09,23,246,30,196,19,169,18,04,18,203,24,8*5F
$GPGSV,3,3,09,30,11,320,34,8*51
$GLGSV,2,1,06,81,65,201,43,78,57,038,37,88,55,031,33,79,26,334,27,1*78
$GLGSV,2,2,06,77,23,110,22,87,02,026,,1*76
$GAGSV,2,1,08,13,55,080,42,21,54,012,24,26,44,172,19,27,29,079,38,7*70
$GAGSV,2,2,08,19,27,241,28,15,14,039,20,04,12,299,,33,04,199,,7*72
$GAGSV,2,1,06,13,55,080,45,21,54,012,26,26,44,172,21,27,29,079,41,1*78
$GAGSV,2,2,06,19,27,241,28,15,14,039,20,1*7A
$GBGSV,4,1,13,23,74,031,43,09,73,266,40,06,71,215,40,16,68,199,43,1*70
$GBGSV,4,2,13,40,60,329,40,07,60,308,38,43,58,036,40,39,58,187,31,1*7D
$GBGSV,4,3,13,28,56,221,39,10,51,289,38,25,37,118,31,37,30,321,36,1*77
$GBGSV,4,4,13,34,11,040,25,1*40
$GBGSV,2,1,07,23,74,031,45,40,60,329,39,39,58,187,31,43,58,036,41,4*77
$GBGSV,2,2,07,28,56,221,37,25,37,118,33,37,30,321,31,4*46
$GNACCURACY,2.8*1C
$PAIRSAT,1,35,2,0,201,3,0,200,4,0,221,5,0,200,6,0,200,7,0,201,8,0,221,9,0,220,10,0,200,11,0,200,12,0,200,13,0,200,14,0,200,15,0,200,16,0,201,17,0,200,18,0,200,19,0,200,20,0,200,21,0,201,22,0,200,23,0,200,24,0,200,25,0,200,26,0,220,27,0,221,28,0,200,29,0,200,30,0,221,31,0,200,32,0,200,194,0,621,195,0,621,196,0,620,199,0,621*5A
$PAIRSAT,2,24,65,0,200,66,0,200,67,0,200,68,0,200,69,0,200,70,0,200,71,0,200,72,0,200,73,0,200,74,0,200,75,0,200,76,0,200,77,0,201,78,0,201,79,0,201,80,0,200,81,0,201,82,0,200,83,0,200,84,0,200,85,0,200,86,0,200,87,0,201,88,0,201*7A
$PAIRSAT,3,23,2,0,1200,3,0,1200,4,0,1200,5,0,200,7,0,1200,8,0,1200,9,0,1200,10,0,1200,11,0,1200,12,0,1200,13,0,1221,15,0,1220,19,0,1201,21,0,1221,24,0,1200,25,0,1200,26,0,1221,27,0,1221,30,0,1200,31,0,1200,33,0,1200,34,0,1000,36,0,1200*6B
$PAIRSAT,4,46,1,0,200,2,0,200,3,0,600,4,0,200,5,0,200,6,0,201,7,0,201,8,0,200,9,0,201,10,0,201,11,0,200,12,0,200,13,0,200,14,0,200,16,0,201,19,0,600,20,0,600,21,0,600,22,0,600,23,0,621,24,0,600,25,0,621,26,0,600,27,0,600,28,0,621,29,0,600,30,0,600,32,0,600,33,0,600,34,0,621,35,0,600,36,0,600,37,0,621,38,0,600,39,0,621,40,0,421,41,0,400,42,0,400,43,0,421,44,0,400,45,0,400,46,0,400,59,0,400,60,0,400,61,0,400,62,0,400*4A
$PAIRDGP,10,2,4,7,8,9,16,21,26,27,30*42
$GNGGA,040930.200,2500.7775309,N,12132.4560477,E,4,57,0.49,16.695,M,15.25,M,1,3335*42
$GNRMC,040930.200,A,2500.7775309,N,12132.4560477,E,0.01,135.00,090324,,,R,V*10
$GPHDT,87.069,T*05
$GNACCURACY,2.8*1C
$GNGGA,040930.300,2500.7775267,N,12132.4560541,E,4,58,0.47,16.704,M,15.25,M,1,3335*46
$GNRMC,040930.300,A,2500.7775267,N,12132.4560541,E,0.01,135.00,090324,,,R,V*1C
$GPHDT,,T*1B
$GNACCURACY,2.8*1C
$GNGGA,040930.400,2500.7775207,N,12132.4560639,E,4,58,0.47,16.723,M,15.25,M,0,3335*4F
$GNRMC,040930.400,A,2500.7775207,N,12132.4560639,E,0.01,135.00,090324,,,R,V*11
$GPHDT,86.941,T*07
$GNACCURACY,2.8*1C
$GNGGA,040930.500,2500.7775275,N,12132.4560606,E,4,58,0.48,16.722,M,15.25,M,0,3335*49
$GNRMC,040930.500,A,2500.7775275,N,12132.4560606,E,0.00,135.00,090324,,,R,V*18
$GPHDT,,T*1B
$GNACCURACY,2.8*1C
$GNGGA,040930.600,2500.7775231,N,12132.4560615,E,4,58,0.47,16.727,M,15.25,M,0,3335*42
$GNRMC,040930.600,A,2500.7775231,N,12132.4560615,E,0.02,135.00,090324,,,R,V*1B
$GPHDT,85.705,T*0A
$GNACCURACY,2.8*1C
$GNGGA,040930.700,2500.7775241,N,12132.4560603,E,4,57,0.48,16.731,M,15.25,M,0,3335*44
$GNRMC,040930.700,A,2500.7775241,N,12132.4560603,E,0.03,135.00,090324,,,R,V*1B
$GPHDT,,T*1B
$GNACCURACY,2.8*1C
$GNGGA,040930.800,2500.7775274,N,12132.4560664,E,4,56,0.48,16.753,M,15.25,M,0,3335*49
$GNRMC,040930.800,A,2500.7775274,N,12132.4560664,E,0.04,135.00,090324,,,R,V*14
$GPHDT,86.111,T*0A
$GNACCURACY,2.8*1C
$GNGGA,040930.900,2500.7775277,N,12132.4560631,E,4,56,0.48,16.729,M,15.25,M,0,3335*46
$GNRMC,040930.900,A,2500.7775277,N,12132.4560631,E,0.04,135.00,090324,,,R,V*16
$GPHDT,,T*1B
$GNACCURACY,2.8*1C
$GNGGA,040931.000,2500.7775270,N,12132.4560567,E,4,57,0.47,16.729,M,15.25,M,1,3335*46
$GNRMC,040931.000,A,2500.7775270,N,12132.4560567,E,0.03,135.00,090324,,,R,V*1E
$GPHDT,86.498,T*0E
$GNACCURACY,2.8*1C
$GNGGA,040931.100,2500.7775293,N,12132.4560597,E,4,56,0.48,16.740,M,15.25,M,1,3335*44
$GNRMC,040931.100,A,2500.7775293,N,12132.4560597,E,0.03,135.00,090324,,,R,V*1D
$GPHDT,,T*1B
$GNGSA,A,3,195,194,08,199,21,02,07,27,16,09,04,196,0.74,0.47,0.57,1*0C
$GNGSA,A,3,30,,,,,,,,,,,,0.74,0.47,0.57,1*00
$GNGSA,A,3,81,78,88,79,77,,,,,,,,0.74,0.47,0.57,2*08
$GNGSA,A,3,13,21,26,27,19,15,,,,,,,0.74,0.47,0.57,3*0D
$GNGSA,A,3,23,09,06,16,40,07,43,39,28,10,25,37,0.74,0.47,0.57,4*09
$GNGSA,A,3,34,,,,,,,,,,,,0.74,0.47,0.57,4*01
$GPGSV,4,1,15,195,64,114,45,194,64,052,41,08,62,355,40,50,60,167,30,1*68
$GPGSV,4,2,15,199,60,167,28,21,60,155,41,02,48,177,26,07,41,316,34,1*50
$GPGSV,4,3,15,27,33,036,23,16,27,075,38,09,23,246,22,196,19,169,13,1*5F
$GPGSV,4,4,15,04,18,203,18,30,11,320,24,26,08,099,13,1*5F
$GPGSV,3,1,09,194,64,052,45,195,64,114,44,08,62,355,45,199,60,167,33,8*5C
$GPGSV,3,2,09,27,33,036,32,09,23,246,32,196,19,169,15,04,18,203,24,8*5B
$GPGSV,3,3,09,30,11,320,31,8*54
$GLGSV,2,1,06,81,65,201,43,78,57,038,38,88,55,031,30,79,26,334,18,1*78
$GLGSV,2,2,06,77,23,110,23,87,02,026,,1*77
$GAGSV,2,1,08,13,55,080,42,21,54,012,19,26,44,172,20,27,29,079,40,7*7B
$GAGSV,2,2,08,19,27,241,25,15,14,039,21,04,12,299,,33,04,199,,7*7E
$GAGSV,2,1,06,13,55,080,45,21,54,012,27,26,44,172,22,27,29,079,40,1*7B
$GAGSV,2,2,06,19,27,241,29,15,14,039,20,1*7B
$GBGSV,4,1,13,23,74,032,41,09,73,266,39,06,71,215,37,16,68,199,41,1*7D
$GBGSV,4,2,13,40,60,329,40,07,60,308,33,43,58,036,40,39,58,187,26,1*70
$GBGSV,4,3,13,28,56,221,39,10,51,289,22,25,37,118,30,37,30,321,34,1*7F
$GBGSV,4,4,13,34,11,040,25,1*40
$GBGSV,2,1,07,23,74,032,43,40,60,329,39,39,58,187,31,43,58,036,40,4*73
$GBGSV,2,2,07,28,56,221,36,25,37,118,32,37,30,321,32,4*45
$GNACCURACY,2.8*1C
$PAIRSAT,1,35,2,0,201,3,0,200,4,0,221,5,0,200,6,0,200,7,0,201,8,0,221,9,0,220,10,0,200,11,0,200,12,0,200,13,0,200,14,0,200,15,0,200,16,0,201,17,0,200,18,0,200,19,0,200,20,0,200,21,0,201,22,0,200,23,0,200,24,0,200,25,0,200,26,0,220,27,0,221,28,0,200,29,0,200,30,0,221,31,0,200,32,0,200,194,0,621,195,0,621,196,0,620,199,0,621*5A
$PAIRSAT,2,24,65,0,200,66,0,200,67,0,200,68,0,200,69,0,200,70,0,200,71,0,200,72,0,200,73,0,200,74,0,200,75,0,200,76,0,200,77,0,201,78,0,201,79,0,201,80,0,200,81,0,201,82,0,200,83,0,200,84,0,200,85,0,200,86,0,200,87,0,201,88,0,201*7A
$PAIRSAT,3,23,2,0,1200,3,0,1200,4,0,1200,5,0,200,7,0,1200,8,0,1200,9,0,1200,10,0,1200,11,0,1200,12,0,1200,13,0,1221,15,0,1220,19,0,1201,21,0,1221,24,0,1200,25,0,1200,26,0,1221,27,0,1221,30,0,1200,31,0,1200,33,0,1200,34,0,1000,36,0,1200*6B
$PAIRSAT,4,46,1,0,200,2,0,200,3,0,600,4,0,200,5,0,200,6,0,201,7,0,201,8,0,200,9,0,201,10,0,201,11,0,200,12,0,200,13,0,200,14,0,200,16,0,201,19,0,600,20,0,600,21,0,600,22,0,600,23,0,621,24,0,600,25,0,621,26,0,600,27,0,600,28,0,621,29,0,600,30,0,600,32,0,600,33,0,600,34,0,621,35,0,600,36,0,600,37,0,621,38,0,600,39,0,621,40,0,421,41,0,400,42,0,400,43,0,421,44,0,400,45,0,400,46,0,400,59,0,400,60,0,400,61,0,400,62,0,400*4A
$PAIRDGP,10,2,4,7,8,9,16,21,26,27,30*42
$GNGGA,040931.200,2500.7775256,N,12132.4560556,E,4,57,0.47,16.723,M,15.25,M,1,3335*48
$GNRMC,040931.200,A,2500.7775256,N,12132.4560556,E,0.03,135.00,090324,,,R,V*1A
$GPHDT,86.172,T*0F
$GNACCURACY,2.8*1C
$GNGGA,040931.300,2500.7775250,N,12132.4560566,E,4,57,0.47,16.718,M,15.25,M,1,3335*44
$GNRMC,040931.300,A,2500.7775250,N,12132.4560566,E,0.02,135.00,090324,,,R,V*1F
$GPHDT,,T*1B
$GNACCURACY,2.8*1C
$GNGGA,040931.400,2500.7775249,N,12132.4560585,E,4,58,0.47,16.719,M,15.25,M,1,3335*48
$GNRMC,040931.400,A,2500.7775249,N,12132.4560585,E,0.02,135.00,090324,,,R,V*1D
$GPHDT,86.206,T*0F
$GNACCURACY,2.8*1C
$GNGGA,040931.500,2500.7775276,N,12132.4560563,E,4,57,0.48,16.731,M,15.25,M,0,3335*46
$GNRMC,040931.500,A,2500.7775276,N,12132.4560563,E,0.01,135.00,090324,,,R,V*1B
$GPHDT,,T*1B
$GNACCURACY,2.8*1C
$GNGGA,040931.600,2500.7775331,N,12132.4560528,E,4,57,0.48,16.730,M,15.25,M,0,3335*49
$GNRMC,040931.600,A,2500.7775331,N,12132.4560528,E,0.04,135.00,090324,,,R,V*10
$GPHDT,87.007,T*0D
$GNACCURACY,2.8*1C
$GNGGA,040931.700,2500.7775304,N,12132.4560555,E,4,57,0.48,16.736,M,15.25,M,0,3335*42
$GNRMC,040931.700,A,2500.7775304,N,12132.4560555,E,0.02,135.00,090324,,,R,V*1B
$GPHDT,,T*1B
$GNACCURACY,2.8*1C
$GNGGA,040931.800,2500.7775333,N,12132.4560574,E,4,56,0.48,16.744,M,15.25,M,0,3335*4E
$GNRMC,040931.800,A,2500.7775333,N,12132.4560574,E,0.03,135.00,090324,,,R,V*12
$GPHDT,86.686,T*03
$GNACCURACY,2.8*1C
$GNGGA,040931.900,2500.7775302,N,12132.4560569,E,4,56,0.48,16.743,M,15.25,M,0,3335*46
$GNRMC,040931.900,A,2500.7775302,N,12132.4560569,E,0.02,135.00,090324,,,R,V*1C
$GPHDT,,T*1B
$GNACCURACY,2.8*1C
$GNGGA,040932.000,2500.7775308,N,12132.4560576,E,4,56,0.48,16.737,M,15.25,M,1,3335*4A
$GNRMC,040932.000,A,2500.7775308,N,12132.4560576,E,0.04,135.00,090324,,,R,V*14
$GPHDT,86.462,T*0B
$GNACCURACY,2.8*1C
$GNGGA,040932.100,2500.7775296,N,12132.4560525,E,4,56,0.48,16.720,M,15.25,M,1,3335*4D
$GNRMC,040932.100,A,2500.7775296,N,12132.4560525,E,0.03,135.00,090324,,,R,V*12
$GPHDT,,T*1B
$GNGSA,A,3,195,194,08,199,21,07,27,16,09,04,30,196,0.75,0.48,0.57,1*03
$GNGSA,A,3,81,78,88,79,77,,,,,,,,0.75,0.48,0.57,2*06
$GNGSA,A,3,13,21,26,27,19,15,,,,,,,0.75,0.48,0.57,3*03
$GNGSA,A,3,23,09,06,16,07,40,39,43,28,10,25,37,0.75,0.48,0.57,4*07
$GNGSA,A,3,34,,,,,,,,,,,,0.75,0.48,0.57,4*0F
$GPGSV,4,1,15,195,64,114,45,194,64,052,41,08,62,355,41,50,60,167,30,1*69
$GPGSV,4,2,15,199,60,167,28,21,60,155,41,02,48,177,22,07,41,316,32,1*52
$GPGSV,4,3,15,27,33,036,26,16,27,075,37,09,23,246,25,196,19,169,13,1*52
$GPGSV,4,4,15,04,18,203,18,30,11,320,31,26,08,099,14,1*5C
$GPGSV,2,1,08,194,64,052,46,195,64,114,44,08,62,355,46,199,60,167,31,8*5E
$GPGSV,2,2,08,09,23,246,29,196,19,169,17,04,18,203,23,30,11,320,33,8*57
$GLGSV,2,1,07,81,65,201,43,78,57,038,39,88,55,031,35,79,26,334,28,1*7E
$GLGSV,2,2,07,77,23,110,21,68,02,236,,87,02,026,,1*4F
$GAGSV,2,1,08,13,55,080,42,21,54,012,24,26,44,172,20,27,29,079,39,7*7B
$GAGSV,2,2,08,19,27,241,28,15,14,039,19,04,12,299,,33,04,199,,7*78
$GAGSV,2,1,06,13,55,080,45,21,54,012,28,26,44,172,22,27,29,079,40,1*74
$GAGSV,2,2,06,19,27,241,28,15,14,039,22,1*78
$GBGSV,4,1,13,23,74,032,43,09,73,266,40,06,71,215,40,16,68,199,42,1*72
$GBGSV,4,2,13,07,60,308,39,40,60,329,41,39,58,187,29,43,58,036,41,1*75
$GBGSV,4,3,13,28,56,221,39,10,51,289,37,25,37,118,30,37,30,321,37,1*78
$GBGSV,4,4,13,34,11,040,26,1*43
$GBGSV,2,1,07,23,74,032,45,40,60,329,40,39,58,187,29,43,58,036,41,4*73
$GBGSV,2,2,07,28,56,221,37,25,37,118,34,37,30,321,34,4*44
$GNACCURACY,2.8*1C
$PAIRSAT,1,35,2,0,201,3,0,200,4,0,221,5,0,200,6,0,200,7,0,201,8,0,221,9,0,220,10,0,200,11,0,200,12,0,200,13,0,200,14,0,200,15,0,200,16,0,201,17,0,200,18,0,200,19,0,200,20,0,200,21,0,201,22,0,200,23,0,200,24,0,200,25,0,200,26,0,220,27,0,221,28,0,200,29,0,200,30,0,221,31,0,200,32,0,200,194,0,621,195,0,621,196,0,620,199,0,621*5A
$PAIRSAT,2,24,65,0,200,66,0,200,67,0,200,68,0,200,69,0,200,70,0,200,71,0,200,72,0,200,73,0,200,74,0,200,75,0,200,76,0,200,77,0,201,78,0,201,79,0,201,80,0,200,81,0,201,82,0,200,83,0,200,84,0,200,85,0,200,86,0,200,87,0,201,88,0,201*7A
$PAIRSAT,3,23,2,0,1200,3,0,1200,4,0,1200,5,0,200,7,0,1200,8,0,1200,9,0,1200,10,0,1200,11,0,1200,12,0,1200,13,0,1221,15,0,1220,19,0,1201,21,0,1221,24,0,1200,25,0,1200,26,0,1221,27,0,1221,30,0,1200,31,0,1200,33,0,1200,34,0,1000,36,0,1200*6B
$PAIRSAT,4,46,1,0,200,2,0,200,3,0,600,4,0,200,5,0,200,6,0,201,7,0,201,8,0,200,9,0,201,10,0,201,11,0,200,12,0,200,13,0,200,14,0,200,16,0,201,19,0,600,20,0,600,21,0,600,22,0,600,23,0,621,24,0,600,25,0,621,26,0,600,27,0,600,28,0,621,29,0,600,30,0,600,32,0,600,33,0,600,34,0,621,35,0,600,36,0,600,37,0,621,38,0,600,39,0,621,40,0,421,41,0,400,42,0,400,43,0,421,44,0,400,45,0,400,46,0,400,59,0,400,60,0,400,61,0,400,62,0,400*4A
$PAIRDGP,10,2,4,7,8,9,16,21,26,27,30*42
$GNGGA,040932.200,2500.7775296,N,12132.4560556,E,4,56,0.48,16.729,M,15.25,M,1,3335*43
$GNRMC,040932.200,A,2500.7775296,N,12132.4560556,E,0.03,135.00,090324,,,R,V*15
$GPHDT,86.400,T*0F
$GNACCURACY,2.8*1C
$GNGGA,040932.300,2500.7775312,N,12132.4560570,E,4,56,0.48,16.736,M,15.25,M,1,3335*45
$GNRMC,040932.300,A,2500.7775312,N,12132.4560570,E,0.02,135.00,090324,,,R,V*1C
$GPHDT,,T*1B
$GNACCURACY,2.8*1C
$GNGGA,040932.400,2500.7775304,N,12132.4560567,E,4,56,0.48,16.736,M,15.25,M,1,3335*43
$GNRMC,040932.400,A,2500.7775304,N,12132.4560567,E,0.02,135.00,090324,,,R,V*1A
$GPHDT,86.469,T*00
$GNACCURACY,2.8*1C
$GNGGA,040932.500,2500.7775334,N,12132.4560618,E,4,56,0.48,16.761,M,15.25,M,1,3335*48
$GNRMC,040932.500,A,2500.7775334,N,12132.4560618,E,0.02,135.00,090324,,,R,V*13
$GPHDT,,T*1B
$GNACCURACY,2.8*1C
$GNGGA,040932.600,2500.7775292,N,12132.4560552,E,4,56,0.48,16.761,M,15.25,M,0,3335*4A
$GNRMC,040932.600,A,2500.7775292,N,12132.4560552,E,0.02,135.00,090324,,,R,V*10
$GPHDT,86.342,T*0E
$GNACCURACY,2.8*1C
$GNGGA,040932.700,2500.7775296,N,12132.4560608,E,4,56,0.48,16.750,M,15.25,M,0,3335*41
$GNRMC,040932.700,A,2500.7775296,N,12132.4560608,E,0.02,135.00,090324,,,R,V*19
$GPHDT,,T*1B
$GNACCURACY,2.8*1C
$GNGGA,040932.800,2500.7775302,N,12132.4560626,E,4,56,0.48,16.751,M,15.25,M,0,3335*4F
$GNRMC,040932.800,A,2500.7775302,N,12132.4560626,E,0.03,135.00,090324,,,R,V*17
$GPHDT,85.018,T*01
$GNACCURACY,2.8*1C
$GNGGA,040932.900,2500.7775302,N,12132.4560666,E,4,56,0.48,16.760,M,15.25,M,0,3335*48
$GNRMC,040932.900,A,2500.7775302,N,12132.4560666,E,0.03,135.00,090324,,,R,V*12
$GPHDT,,T*1B
$GNACCURACY,2.8*1C
$GNGGA,040933.000,2500.7775406,N,12132.4560693,E,4,56,0.48,16.765,M,15.25,M,1,3335*4D
$GNRMC,040933.000,A,2500.7775406,N,12132.4560693,E,0.03,135.00,090324,,,R,V*13
$GPHDT,83.939,T*0D
$GNACCURACY,2.8*1C
$GNGGA,040933.100,2500.7775440,N,12132.4560735,E,4,56,0.48,16.803,M,15.25,M,1,3335*4C
$GNRMC,040933.100,A,2500.7775440,N,12132.4560735,E,0.03,135.00,090324,,,R,V*1D
$GPHDT,,T*1B
$GNGSA,A,3,195,194,08,21,199,07,27,16,09,04,30,196,0.75,0.48,0.57,1*03
$GNGSA,A,3,81,78,88,79,77,,,,,,,,0.75,0.48,0.57,2*06
$GNGSA,A,3,13,21,26,27,19,15,,,,,,,0.75,0.48,0.57,3*03
$GNGSA,A,3,23,09,06,16,07,40,43,39,28,10,25,37,0.75,0.48,0.57,4*07
$GNGSA,A,3,34,,,,,,,,,,,,0.75,0.48,0.57,4*0F
$GPGSV,4,1,15,195,64,114,45,194,64,052,40,08,62,355,40,21,60,155,42,1*6B
$GPGSV,4,2,15,5