$FW : RTK35X,V1.1X0314AS,Lib20210517,1*54
$Tool : LOCOSYS , GNSS Firebird , v1.0.0.19*39
$---------------------------------------------------*2D
52,0.52,16.740,M,15.25,M,1,3335*42
$GNRMC,040841.400,A,2500.7775433,N,12132.4560490,E,0.03,135.00,090324,,,R,V*14
$GPHDT,258.381,T*30
$GNACCURACY,2.9*1D
$GNGGA,040841.500,2500.7775287,N,12132.4560522,E,4,53,0.52,16.756,M,15.25,M,1,3335*44
$GNRMC,040841.500,A,2500.7775287,N,12132.4560522,E,0.03,135.00,090324,,,R,V*14
$GPHDT,,T*1B
$GNACCURACY,2.9*1D
$GNGGA,040841.600,2500.7775282,N,12132.4560505,E,4,53,0.52,16.744,M,15.25,M,1,3335*44
$GNRMC,040841.600,A,2500.7775282,N,12132.4560505,E,0.03,135.00,090324,,,R,V*17
$GPHDT,259.084,T*37
$GNACCURACY,2.9*1D
$GNGGA,040841.700,2500.7775282,N,12132.4560531,E,4,53,0.52,16.754,M,15.25,M,0,3335*42
$GNRMC,040841.700,A,2500.7775282,N,12132.4560531,E,0.02,135.00,090324,,,R,V*10
$GPHDT,,T*1B
$GNACCURACY,2.9*1D
$GNGGA,040841.800,2500.7775252,N,12132.4560506,E,4,52,0.52,16.745,M,15.25,M,0,3335*45
$GNRMC,040841.800,A,2500.7775252,N,12132.4560506,E,0.02,135.00,090324,,,R,V*16
$GPHDT,258.559,T*33
$GNACCURACY,2.9*1D
$GNGGA,040841.900,2500.7775296,N,12132.4560520,E,4,53,0.52,16.756,M,15.25,M,0,3335*4B
$GNRMC,040841.900,A,2500.7775296,N,12132.4560520,E,0.02,135.00,090324,,,R,V*1B
$GPHDT,,T*1B
$GNACCURACY,2.9*1D
$GNGGA,040842.000,2500.7775286,N,12132.4560497,E,4,52,0.52,16.736,M,15.25,M,1,3335*4B
$GNRMC,040842.000,A,2500.7775286,N,12132.4560497,E,0.02,135.00,090324,,,R,V*1D
$GPHDT,258.740,T*39
$GNACCURACY,2.9*1D
$GNGGA,040842.100,2500.7775288,N,12132.4560502,E,4,52,0.52,16.759,M,15.25,M,1,3335*40
$GNRMC,040842.100,A,2500.7775288,N,12132.4560502,E,0.02,135.00,090324,,,R,V*1F
$GPHDT,,T*1B
$GNGSA,A,3,195,194,08,199,21,02,07,27,16,09,30,04,0.81,0.52,0.62,1*39
$GNGSA,A,3,81,78,88,79,77,,,,,,,,0.81,0.52,0.62,2*00
$GNGSA,A,3,13,21,26,27,15,,,,,,,,0.81,0.52,0.62,3*0D
$GNGSA,A,3,23,09,06,16,40,07,43,28,10,25,37,39,0.81,0.52,0.62,4*01
$GPGSV,4,1,15,195,64,114,35,194,64,052,41,08,63,354,45,50,60,167,26,1*6D
$GPGSV,4,2,15,199,60,167,23,21,60,156,35,02,48,177,26,07,41,316,40,1*58
$GPGSV,4,3,15,27,33,036,32,16,27,075,39,09,24,247,28,196,19,169,15,1*54
$GPGSV,4,4,15,04,18,203,14,30,11,320,31,26,08,099,20,1*57
$GPGSV,3,1,09,195,64,114,36,194,64,052,44,08,63,354,46,199,60,167,26,8*5F
$GPGSV,3,2,09,27,33,036,25,09,24,247,28,04,18,203,20,30,11,320,39,8*60
$GPGSV,3,3,09,26,08,099,16,8*5F
$GLGSV,2,1,06,81,65,200,40,78,56,037,41,88,55,032,31,79,26,334,34,1*76
$GLGSV,2,2,06,77,23,110,20,87,03,026,11,1*75
$GAGSV,2,1,07,13,55,081,39,21,54,011,32,26,44,172,21,27,29,079,38,7*7D
$GAGSV,2,2,07,19,27,241,29,15,14,039,19,04,12,299,,7*43
$GAGSV,2,1,06,13,55,081,39,21,54,011,32,26,44,172,20,27,29,079,35,1*76
$GAGSV,2,2,06,19,27,241,26,15,14,039,14,1*73
$GBGSV,4,1,13,23,73,030,46,09,73,266,40,06,71,215,32,16,68,198,39,1*7A
$GBGSV,4,2,13,40,61,329,44,07,60,308,41,43,59,037,40,39,58,187,16,1*73
$GBGSV,4,3,13,28,56,221,36,10,51,289,33,25,37,117,29,37,30,321,43,1*77
$GBGSV,4,4,13,34,12,040,,1*44
$GBGSV,2,1,07,23,73,030,43,40,61,329,44,43,59,037,43,39,58,187,27,4*79
$GBGSV,2,2,07,28,56,221,35,25,37,117,33,37,30,321,39,4*43
$GNACCURACY,2.9*1D
$PAIRSAT,1,35,2,0,201,3,0,200,4,0,221,5,0,200,6,0,200,7,0,201,8,0,221,9,0,220,10,0,200,11,0,200,12,0,200,13,0,200,14,0,200,15,0,200,16,0,201,17,0,200,18,0,200,19,0,200,20,0,200,21,0,201,22,0,200,23,0,200,24,0,200,25,0,200,26,0,220,27,0,221,28,0,200,29,0,200,30,0,221,31,0,200,32,0,200,194,0,621,195,0,621,196,0,620,199,0,621*5A
$PAIRSAT,2,24,65,0,200,66,0,200,67,0,200,68,0,200,69,0,200,70,0,200,71,0,200,72,0,200,73,0,200,74,0,200,75,0,200,76,0,200,77,0,1,78,0,201,79,0,201,80,0,200,81,0,201,82,0,200,83,0,200,84,0,200,85,0,200,86,0,200,87,0,201,88,0,201*78
$PAIRSAT,3,23,2,0,1200,3,0,1200,4,0,1200,5,0,200,7,0,1200,8,0,1200,9,0,1200,10,0,1200,11,0,1200,12,0,1200,13,0,1221,15,0,1220,19,0,200,21,0,221,24,0,1200,25,0,1200,26,0,1221,27,0,1221,30,0,1200,31,0,1200,33,0,1200,34,0,1000,36,0,1200*6A
$PAIRSAT,4,46,1,0,200,2,0,200,3,0,600,4,0,200,5,0,200,6,0,201,7,0,201,8,0,200,9,0,201,10,0,201,11,0,200,12,0,200,13,0,200,14,0,200,16,0,201,19,0,600,20,0,600,21,0,600,22,0,600,23,0,621,24,0,600,25,0,621,26,0,600,27,0,600,28,0,621,29,0,600,30,0,600,32,0,600,33,0,600,34,0,621,35,0,600,36,0,600,37,0,621,38,0,400,39,0,421,40,0,421,41,0,400,42,0,400,43,0,421,44,0,400,45,0,400,46,0,400,59,0,400,60,0,400,61,0,400,62,0,400*4A
$PAIRDGP,10,2,4,7,8,9,16,21,26,27,30*42
$GNGGA,040842.200,2500.7775330,N,12132.4560522,E,4,52,0.52,16.756,M,15.25,M,1,3335*4C
$GNRMC,040842.200,A,2500.7775330,N,12132.4560522,E,0.02,135.00,090324,,,R,V*1C
$GPHDT,258.262,T*3C
$GNACCURACY,2.9*1D
$GNGGA,040842.300,2500.7775307,N,12132.4560509,E,4,52,0.52,16.747,M,15.25,M,1,3335*40
$GNRMC,040842.300,A,2500.7775307,N,12132.4560509,E,0.01,135.00,090324,,,R,V*13
$GPHDT,,T*1B
$GNACCURACY,2.9*1D
$GNGGA,040842.400,2500.7775274,N,12132.4560507,E,4,52,0.52,16.754,M,15.25,M,1,3335*4E
$GNRMC,040842.400,A,2500.7775274,N,12132.4560507,E,0.01,135.00,090324,,,R,V*1F
$GPHDT,257.825,T*3A
$GNACCURACY,2.9*1D
$GNGGA,040842.500,2500.7775255,N,12132.4560464,E,4,52,0.52,16.736,M,15.25,M,0,3335*4D
$GNRMC,040842.500,A,2500.7775255,N,12132.4560464,E,0.02,135.00,090324,,,R,V*1A
$GPHDT,,T*1B
$GNACCURACY,2.9*1D
$GNGGA,040842.600,2500.7775199,N,12132.4560452,E,4,53,0.52,16.733,M,15.25,M,0,3335*4C
$GNRMC,040842.600,A,2500.7775199,N,12132.4560452,E,0.02,135.00,090324,,,R,V*1F
$GPHDT,259.181,T*33
$GNACCURACY,2.9*1D
$GNGGA,040842.700,2500.7775169,N,12132.4560420,E,4,53,0.52,16.682,M,15.25,M,0,3335*4C
$GNRMC,040842.700,A,2500.7775169,N,12132.4560420,E,0.01,135.00,090324,,,R,V*17
$GPHDT,,T*1B
$GNACCURACY,2.9*1D
$GNGGA,040842.800,2500.7775148,N,12132.4560428,E,4,53,0.52,16.695,M,15.25,M,0,3335*4E
$GNRMC,040842.800,A,2500.7775148,N,12132.4560428,E,0.01,135.00,090324,,,R,V*13
$GPHDT,259.595,T*32
$GNACCURACY,2.9*1D
$GNGGA,040842.900,2500.7775151,N,12132.4560464,E,4,53,0.52,16.720,M,15.25,M,0,3335*40
$GNRMC,040842.900,A,2500.7775151,N,12132.4560464,E,0.01,135.00,090324,,,R,V*12
$GPHDT,,T*1B
$GNACCURACY,2.9*1D
$GNGGA,040843.000,2500.7775176,N,12132.4560421,E,4,53,0.52,16.718,M,15.25,M,1,3335*46
$GNRMC,040843.000,A,2500.7775176,N,12132.4560421,E,0.01,135.00,090324,,,R,V*1E
$GPHDT,258.791,T*35
$GNACCURACY,2.9*1D
$GNGGA,040843.100,2500.7775217,N,12132.4560395,E,4,53,0.52,16.712,M,15.25,M,1,3335*41
$GNRMC,040843.100,A,2500.7775217,N,12132.4560395,E,0.01,135.00,090324,,,R,V*13
$GPHDT,,T*1B
$GNGSA,A,3,195,194,08,199,21,02,07,27,16,09,30,04,0.81,0.52,0.62,1*39
$GNGSA,A,3,81,78,88,79,77,,,,,,,,0.81,0.52,0.62,2*00
$GNGSA,A,3,13,21,26,27,15,,,,,,,,0.81,0.52,0.62,3*0D
$GNGSA,A,3,23,09,06,16,40,07,43,39,28,10,25,37,0.81,0.52,0.62,4*01
$GPGSV,4,1,15,195,64,114,37,194,64,052,41,08,63,354,41,50,60,167,26,1*6B
$GPGSV,4,2,15,199,60,167,23,21,60,156,33,02,48,177,28,07,41,316,38,1*5F
$GPGSV,4,3,15,27,33,036,33,16,27,075,40,09,24,247,28,196,19,169,17,1*59
$GPGSV,4,4,15,04,18,203,16,30,11,320,31,26,08,099,19,1*5F
$GPGSV,3,1,09,195,64,114,40,194,64,052,45,08,63,354,45,199,60,167,28,8*52
$GPGSV,3,2,09,27,33,036,26,09,24,247,30,04,18,203,20,30,11,320,38,8*6B
$GPGSV,3,3,09,26,08,099,15,8*5C
$GLGSV,2,1,06,81,65,200,43,78,56,037,39,88,55,032,30,79,26,334,33,1*7C
$GLGSV,2,2,06,77,23,110,18,87,03,026,11,1*7E
$GAGSV,2,1,07,13,55,081,38,21,54,011,29,26,44,172,21,27,29,079,40,7*79
$GAGSV,2,2,07,19,27,241,29,15,14,039,18,04,12,299,,7*42
$GAGSV,2,1,06,13,55,081,38,21,54,011,32,26,44,172,20,27,29,079,35,1*77
$GAGSV,2,2,06,19,27,241,27,15,14,039,15,1*73
$GBGSV,4,1,13,23,73,031,47,09,73,266,39,06,71,215,36,16,68,198,42,1*7C
$GBGSV,4,2,13,40,61,329,43,07,60,308,40,43,59,037,38,39,58,187,22,1*7D
$GBGSV,4,3,13,28,56,221,40,10,51,289,34,25,37,117,29,37,30,321,42,1*70
$GBGSV,4,4,13,34,12,040,,1*44
$GBGSV,2,1,07,23,73,031,45,40,61,329,42,43,59,037,42,39,58,187,30,4*7F
$GBGSV,2,2,07,28,56,221,37,25,37,117,35,37,30,321,43,4*4A
$GNACCURACY,2.9*1D
$PAIRSAT,1,35,2,0,201,3,0,200,4,0,221,5,0,200,6,0,200,7,0,201,8,0,221,9,0,220,10,0,200,11,0,200,12,0,200,13,0,200,14,0,200,15,0,200,16,0,201,17,0,200,18,0,200,19,0,200,20,0,200,21,0,201,22,0,200,23,0,200,24,0,200,25,0,200,26,0,220,27,0,221,28,0,200,29,0,200,30,0,221,31,0,200,32,0,200,194,0,621,195,0,621,196,0,620,199,0,621*5A
$PAIRSAT,2,24,65,0,200,66,0,200,67,0,200,68,0,200,69,0,200,70,0,200,71,0,200,72,0,200,73,0,200,74,0,200,75,0,200,76,0,200,77,0,1,78,0,201,79,0,201,80,0,200,81,0,201,82,0,200,83,0,200,84,0,200,85,0,200,86,0,200,87,0,201,88,0,201*78
$PAIRSAT,3,23,2,0,1200,3,0,1200,4,0,1200,5,0,200,7,0,1200,8,0,1200,9,0,1200,10,0,1200,11,0,1200,12,0,1200,13,0,1221,15,0,1220,19,0,200,21,0,221,24,0,1200,25,0,1200,26,0,1221,27,0,1221,30,0,1200,31,0,1200,33,0,1200,34,0,1000,36,0,1200*6A
$PAIRSAT,4,46,1,0,200,2,0,200,3,0,600,4,0,200,5,0,200,6,0,201,7,0,201,8,0,200,9,0,201,10,0,201,11,0,200,12,0,200,13,0,200,14,0,200,16,0,201,19,0,600,20,0,600,21,0,600,22,0,600,23,0,621,24,0,600,25,0,621,26,0,600,27,0,600,28,0,621,29,0,600,30,0,600,32,0,600,33,0,600,34,0,621,35,0,600,36,0,600,37,0,621,38,0,400,39,0,421,40,0,421,41,0,400,42,0,400,43,0,421,44,0,400,45,0,400,46,0,400,59,0,400,60,0,400,61,0,400,62,0,400*4A
$PAIRDGP,10,2,4,7,8,9,16,21,26,27,30*42
$GNGGA,040843.200,2500.7775223,N,12132.4560411,E,4,53,0.52,16.704,M,15.25,M,1,3335*49
$GNRMC,040843.200,A,2500.7775223,N,12132.4560411,E,0.03,135.00,090324,,,R,V*1E
$GPHDT,259.866,T*33
$GNACCURACY,2.9*1D
$GNGGA,040843.300,2500.7775237,N,12132.4560433,E,4,53,0.52,16.727,M,15.25,M,1,3335*4C
$GNRMC,040843.300,A,2500.7775237,N,12132.4560433,E,0.03,135.00,090324,,,R,V*1A
$GPHDT,,T*1B
$GNACCURACY,2.9*1D
$GNGGA,040843.400,2500.7775220,N,12132.4560467,E,4,53,0.52,16.737,M,15.25,M,1,3335*4D
$GNRMC,040843.400,A,2500.7775220,N,12132.4560467,E,0.04,135.00,090324,,,R,V*1D
$GPHDT,259.919,T*3A
$GNACCURACY,2.9*1D
$GNGGA,040843.500,2500.7775252,N,12132.4560481,E,4,53,0.52,16.746,M,15.25,M,1,3335*47
$GNRMC,040843.500,A,2500.7775252,N,12132.4560481,E,0.03,135.00,090324,,,R,V*16
$GPHDT,,T*1B
$GNACCURACY,2.9*1D
$GNGGA,040843.600,2500.7775300,N,12132.4560491,E,4,53,0.52,16.758,M,15.25,M,0,3335*4D
$GNRMC,040843.600,A,2500.7775300,N,12132.4560491,E,0.03,135.00,090324,,,R,V*12
$GPHDT,259.413,T*3D
$GNACCURACY,2.9*1D
$GNGGA,040843.700,2500.7775278,N,12132.4560499,E,4,53,0.52,16.738,M,15.25,M,0,3335*4C
$GNRMC,040843.700,A,2500.7775278,N,12132.4560499,E,0.02,135.00,090324,,,R,V*14
$GPHDT,,T*1B
$GNACCURACY,2.9*1D
$GNGGA,040843.800,2500.7775281,N,12132.4560493,E,4,53,0.52,16.741,M,15.25,M,0,3335*41
$GNRMC,040843.800,A,2500.7775281,N,12132.4560493,E,0.03,135.00,090324,,,R,V*16
$GPHDT,259.161,T*3D
$GNACCURACY,2.9*1D
$GNGGA,040843.900,2500.7775274,N,12132.4560542,E,4,53,0.52,16.754,M,15.25,M,0,3335*43
$GNRMC,040843.900,A,2500.7775274,N,12132.4560542,E,0.02,135.00,090324,,,R,V*11
$GPHDT,,T*1B
$GNACCURACY,2.9*1D
$GNGGA,040844.000,2500.7775247,N,12132.4560482,E,4,53,0.52,16.733,M,15.25,M,1,3335*40
$GNRMC,040844.000,A,2500.7775247,N,12132.4560482,E,0.03,135.00,090324,,,R,V*13
$GPHDT,259.744,T*3C
$GNACCURACY,2.9*1D
$GNGGA,040844.100,2500.7775260,N,12132.4560508,E,4,53,0.52,16.734,M,15.25,M,1,3335*40
$GNRMC,040844.100,A,2500.7775260,N,12132.4560508,E,0.03,135.00,090324,,,R,V*14
$GPHDT,,T*1B
$GNGSA,A,3,195,194,08,199,21,02,07,27,16,09,196,30,0.78,0.51,0.59,1*0E
$GNGSA,A,3,04,,,,,,,,,,,,0.78,0.51,0.59,1*02
$GNGSA,A,3,81,78,88,79,77,,,,,,,,0.78,0.51,0.59,2*0D
$GNGSA,A,3,13,21,26,27,15,,,,,,,,0.78,0.51,0.59,3*00
$GNGSA,A,3,23,09,06,16,40,07,43,39,28,10,25,37,0.78,0.51,0.59,4*0C
$GPGSV,4,1,15,195,64,114,43,194,64,052,40,08,63,354,43,50,60,167,26,1*6B
$GPGSV,4,2,15,199,60,167,24,21,60,156,39,02,48,177,29,07,41,316,39,1*52
$GPGSV,4,3,15,27,33,036,34,16,27,075,42,09,24,247,29,196,19,169,19,1*53
$GPGSV,4,4,15,04,18,203,16,30,11,320,33,26,08,099,18,1*5C
$GPGSV,3,1,09,195,64,114,42,194,64,052,46,08,63,354,48,199,60,167,27,8*51
$GPGSV,3,2,09,27,33,036,26,09,24,247,31,04,18,203,23,30,11,320,37,8*66
$GPGSV,3,3,09,26,08,099,16,8*5F
$GLGSV,2,1,06,81,65,200,44,78,56,037,45,88,55,032,36,79,26,334,32,1*77
$GLGSV,2,2,06,77,23,110,20,87,03,026,13,1*77
$GAGSV,2,1,07,13,55,081,42,21,54,011,31,26,44,172,22,27,29,079,43,7*7D
$GAGSV,2,2,07,19,27,241,29,15,14,039,18,04,12,299,,7*42
$GAGSV,2,1,06,13,55,081,45,21,54,011,35,26,44,172,20,27,29,079,38,1*77
$GAGSV,2,2,06,19,27,241,30,15,14,039,16,1*76
$GBGSV,4,1,13,23,73,031,45,09,73,266,39,06,71,215,38,16,68,198,43,1*71
$GBGSV,4,2,13,40,60,329,43,07,60,308,39,43,59,037,42,39,58,187,27,1*7A
$GBGSV,4,3,13,28,56,221,41,10,51,289,32,25,37,117,33,37,30,321,42,1*7C
$GBGSV,4,4,13,34,11,040,,1*47
$GBGSV,2,1,07,23,73,031,45,40,60,329,44,43,59,037,42,39,58,187,31,4*79
$GBGSV,2,2,07,28,56,221,38,25,37,117,32,37,30,321,44,4*45
$GNACCURACY,2.9*1D
$PAIRSAT,1,35,2,0,201,3,0,200,4,0,221,5,0,200,6,0,200,7,0,201,8,0,221,9,0,220,10,0,200,11,0,200,12,0,200,13,0,200,14,0,200,15,0,200,16,0,201,17,0,200,18,0,200,19,0,200,20,0,200,21,0,201,22,0,200,23,0,200,24,0,200,25,0,200,26,0,220,27,0,221,28,0,200,29,0,200,30,0,221,31,0,200,32,0,200,194,0,621,195,0,621,196,0,620,199,0,621*5A
$PAIRSAT,2,24,65,0,200,66,0,200,67,0,200,68,0,200,69,0,200,70,0,200,71,0,200,72,0,200,73,0,200,74,0,200,75,0,200,76,0,200,77,0,1,78,0,201,79,0,201,80,0,200,81,0,201,82,0,200,83,0,200,84,0,200,85,0,200,86,0,200,87,0,201,88,0,201*78
$PAIRSAT,3,23,2,0,1200,3,0,1200,4,0,1200,5,0,200,7,0,1200,8,0,1200,9,0,1200,10,0,1200,11,0,1200,12,0,1200,13,0,1221,15,0,1220,19,0,200,21,0,221,24,0,1200,25,0,1200,26,0,1221,27,0,1221,30,0,1200,31,0,1200,33,0,1200,34,0,1000,36,0,1200*6A
$PAIRSAT,4,46,1,0,200,2,0,200,3,0,600,4,0,200,5,0,200,6,0,201,7,0,201,8,0,200,9,0,201,10,0,201,11,0,200,12,0,200,13,0,200,14,0,200,16,0,201,19,0,600,20,0,600,21,0,600,22,0,600,23,0,621,24,0,600,25,0,621,26,0,600,27,0,600,28,0,621,29,0,600,30,0,600,32,0,600,33,0,600,34,0,621,35,0,600,36,0,600,37,0,621,38,0,400,39,0,421,40,0,421,41,0,400,42,0,400,43,0,421,44,0,400,45,0,400,46,0,400,59,0,400,60,0,400,61,0,400,62,0,400*4A
$PAIRDGP,10,2,4,7,8,9,16,21,26,27,30*42
$GNGGA,040844.200,2500.7775230,N,12132.4560550,E,4,54,0.51,16.736,M,15.25,M,1,3335*4D
$GNRMC,040844.200,A,2500.7775230,N,12132.4560550,E,0.02,135.00,090324,,,R,V*1E
$GPHDT,260.029,T*3A
$GNACCURACY,2.9*1D
$GNGGA,040844.300,2500.7775221,N,12132.4560507,E,4,54,0.51,16.732,M,15.25,M,1,3335*4A
$GNRMC,040844.300,A,2500.7775221,N,12132.4560507,E,0.01,135.00,090324,,,R,V*1E
$GPHDT,,T*1B
$GNACCURACY,2.9*1D
$GNGGA,040844.400,2500.7775225,N,12132.4560505,E,4,54,0.51,16.722,M,15.25,M,1,3335*4A
$GNRMC,040844.400,A,2500.7775225,N,12132.4560505,E,0.01,135.00,090324,,,R,V*1F
$GPHDT,260.183,T*3B
$GNACCURACY,2.9*1D
$GNGGA,040844.500,2500.7775225,N,12132.4560411,E,4,54,0.51,16.744,M,15.25,M,1,3335*4F
$GNRMC,040844.500,A,2500.7775225,N,12132.4560411,E,0.01,135.00,090324,,,R,V*1A
$GPHDT,,T*1B
$GNACCURACY,2.9*1D
$GNGGA,040844.600,2500.7775216,N,12132.4560424,E,4,55,0.51,16.753,M,15.25,M,0,3335*4C
$GNRMC,040844.600,A,2500.7775216,N,12132.4560424,E,0.01,135.00,090324,,,R,V*1F
$GPHDT,259.937,T*36
$GNACCURACY,2.9*1D
$GNGGA,040844.700,2500.7775209,N,12132.4560411,E,4,55,0.51,16.754,M,15.25,M,0,3335*42
$GNRMC,040844.700,A,2500.7775209,N,12132.4560411,E,0.02,135.00,090324,,,R,V*15
$GPHDT,,T*1B
$GNACCURACY,2.9*1D
$GNGGA,040844.800,2500.7775239,N,12132.4560438,E,4,55,0.51,16.747,M,15.25,M,0,3335*47
$GNRMC,040844.800,A,2500.7775239,N,12132.4560438,E,0.02,135.00,090324,,,R,V*12
$GPHDT,259.756,T*3F
$GNACCURACY,2.8*1C
$GNGGA,040844.900,2500.7775240,N,12132.4560450,E,4,55,0.51,16.753,M,15.25,M,0,3335*43
$GNRMC,040844.900,A,2500.7775240,N,12132.4560450,E,0.03,135.00,090324,,,R,V*12
$GPHDT,,T*1B
$GNACCURACY,2.8*1C
$GNGGA,040845.000,2500.7775249,N,12132.4560444,E,4,55,0.51,16.754,M,15.25,M,1,3335*41
$GNRMC,040845.000,A,2500.7775249,N,12132.4560444,E,0.03,135.00,090324,,,R,V*16
$GPHDT,259.573,T*3A
$GNACCURACY,2.8*1C
$GNGGA,040845.100,2500.7775257,N,12132.4560461,E,4,55,0.51,16.756,M,15.25,M,1,3335*4A
$GNRMC,040845.100,A,2500.7775257,N,12132.4560461,E,0.03,135.00,090324,,,R,V*1F
$GPHDT,,T*1B
$GNGSA,A,3,195,194,08,199,21,02,07,27,16,09,196,30,0.78,0.51,0.59,1*0E
$GNGSA,A,3,04,,,,,,,,,,,,0.78,0.51,0.59,1*02
$GNGSA,A,3,81,78,88,79,77,,,,,,,,0.78,0.51,0.59,2*0D
$GNGSA,A,3,13,21,26,27,15,,,,,,,,0.78,0.51,0.59,3*00
$GNGSA,A,3,23,09,06,16,07,40,43,39,28,10,25,37,0.78,0.51,0.59,4*0C
$GPGSV,4,1,15,195,64,114,38,194,64,052,42,08,63,354,43,50,60,167,27,1*64
$GPGSV,4,2,15,199,60,167,23,21,60,156,38,02,48,177,26,07,41,316,39,1*5B
$GPGSV,4,3,15,27,33,036,29,16,27,075,37,09,24,247,31,196,19,169,21,1*5F
$GPGSV,4,4,15,04,18,203,17,30,11,320,31,26,08,099,18,1*5F
$GPGSV,3,1,10,194,64,052,46,195,64,114,36,08,63,354,47,199,60,167,29,8*5B
$GPGSV,3,2,10,27,33,036,25,09,24,247,31,196,19,169,17,04,18,203,22,8*54
$GPGSV,3,3,10,30,11,320,37,26,08,099,16,8*61
$GLGSV,2,1,06,81,65,200,44,78,56,037,43,88,55,032,31,79,26,334,32,1*76
$GLGSV,2,2,06,77,23,110,19,87,03,026,15,1*7B
$GAGSV,2,1,08,13,55,081,41,21,54,011,32,26,44,172,25,27,29,079,41,7*77
$GAGSV,2,2,08,19,27,241,30,15,14,039,22,04,12,299,,33,04,199,,7*79
$GAGSV,2,1,06,13,55,081,43,21,54,011,35,26,44,172,23,27,29,079,39,1*73
$GAGSV,2,2,06,19,27,241,32,15,14,039,15,1*77
$GBGSV,4,1,13,23,73,031,45,09,73,266,39,06,71,215,37,16,68,198,43,1*7E
$GBGSV,4,2,13,07,60,308,39,40,60,329,43,43,59,037,40,39,58,187,23,1*7C
$GBGSV,4,3,13,28,56,221,38,10,51,289,31,25,37,117,32,37,30,321,43,1*71
$GBGSV,4,4,13,34,11,040,,1*47
$GBGSV,2,1,07,23,73,031,46,40,60,329,43,43,59,037,44,39,58,187,33,4*79
$GBGSV,2,2,07,28,56,221,38,25,37,117,20,37,30,321,43,4*41
$GNACCURACY,2.8*1C
$PAIRSAT,1,35,2,0,201,3,0,200,4,0,221,5,0,200,6,0,200,7,0,201,8,0,221,9,0,220,10,0,200,11,0,200,12,0,200,13,0,200,14,0,200,15,0,200,16,0,201,17,0,200,18,0,200,19,0,200,20,0,200,21,0,201,22,0,200,23,0,200,24,0,200,25,0,200,26,0,220,27,0,221,28,0,200,29,0,200,30,0,221,31,0,200,32,0,200,194,0,621,195,0,621,196,0,620,199,0,621*5A
$PAIRSAT,2,24,65,0,200,66,0,200,67,0,200,68,0,200,69,0,200,70,0,200,71,0,200,72,0,200,73,0,200,74,0,200,75,0,200,76,0,200,77,0,1,78,0,201,79,0,201,80,0,200,81,0,201,82,0,200,83,0,200,84,0,200,85,0,200,86,0,200,87,0,201,88,0,201*78
$PAIRSAT,3,23,2,0,1200,3,0,1200,4,0,1200,5,0,200,7,0,1200,8,0,1200,9,0,1200,10,0,1200,11,0,1200,12,0,1200,13,0,1221,15,0,1220,19,0,200,21,0,221,24,0,1200,25,0,1200,26,0,1221,27,0,1221,30,0,1200,31,0,1200,33,0,1200,34,0,1000,36,0,1200*6A
$PAIRSAT,4,46,1,0,200,2,0,200,3,0,600,4,0,200,5,0,200,6,0,201,7,0,201,8,0,200,9,0,201,10,0,201,11,0,200,12,0,200,13,0,200,14,0,200,16,0,201,19,0,600,20,0,600,21,0,600,22,0,600,23,0,621,24,0,600,25,0,621,26,0,600,27,0,600,28,0,621,29,0,600,30,0,600,32,0,600,33,0,600,34,0,621,35,0,600,36,0,600,37,0,621,38,0,400,39,0,421,40,0,421,41,0,400,42,0,400,43,0,421,44,0,400,45,0,400,46,0,400,59,0,400,60,0,400,61,0,400,62,0,400*4A
$PAIRDGP,10,2,4,7,8,9,16,21,26,27,30*42
$GNGGA,040845.200,2500.7775290,N,12132.4560449,E,4,55,0.51,16.743,M,15.25,M,1,3335*4C
$GNRMC,040845.200,A,2500.7775290,N,12132.4560449,E,0.03,135.00,090324,,,R,V*1D
$GPHDT,258.916,T*34
$GNACCURACY,2.8*1C
$GNGGA,040845.300,2500.7775316,N,12132.4560414,E,4,55,0.51,16.744,M,15.25,M,1,3335*4D
$GNRMC,040845.300,A,2500.7775316,N,12132.4560414,E,0.02,135.00,090324,,,R,V*1A
$GPHDT,,T*1B
$GNACCURACY,2.8*1C
$GNGGA,040845.400,2500.7775308,N,12132.4560399,E,4,55,0.51,16.734,M,15.25,M,1,3335*40
$GNRMC,040845.400,A,2500.7775308,N,12132.4560399,E,0.02,135.00,090324,,,R,V*10
$GPHDT,258.726,T*39
$GNACCURACY,2.8*1C
$GNGGA,040845.500,2500.7775311,N,12132.4560368,E,4,55,0.51,16.737,M,15.25,M,0,3335*45
$GNRMC,040845.500,A,2500.7775311,N,12132.4560368,E,0.02,135.00,090324,,,R,V*17
$GPHDT,,T*1B
$GNACCURACY,2.8*1C
$GNGGA,040845.600,2500.7775293,N,12132.4560417,E,4,55,0.51,16.734,M,15.25,M,0,3335*41
$GNRMC,040845.600,A,2500.7775293,N,12132.4560417,E,0.01,135.00,090324,,,R,V*13
$GPHDT,259.265,T*3A
$GNACCURACY,2.8*1C
$GNGGA,040845.700,2500.7775387,N,12132.4560449,E,4,55,0.51,16.750,M,15.25,M,0,3335*4D
$GNRMC,040845.700,A,2500.7775387,N,12132.4560449,E,0.01,135.00,090324,,,R,V*1D
$GPHDT,,T*1B
$GNACCURACY,2.8*1C
$GNGGA,040845.800,2500.7775415,N,12132.4560474,E,4,55,0.51,16.750,M,15.25,M,0,3335*40
$GNRMC,040845.800,A,2500.7775415,N,12132.4560474,E,0.02,135.00,090324,,,R,V*13
$GPHDT,258.606,T*3A
$GNACCURACY,2.8*1C
$GNGGA,040845.900,2500.7775388,N,12132.4560454,E,4,55,0.51,16.756,M,15.25,M,0,3335*46
$GNRMC,040845.900,A,2500.7775388,N,12132.4560454,E,0.01,135.00,090324,,,R,V*10
$GPHDT,,T*1B
$GNACCURACY,2.8*1C
$GNGGA,040846.000,2500.7775372,N,12132.4560459,E,4,55,0.51,16.756,M,15.25,M,1,3335*45
$GNRMC,040846.000,A,2500.7775372,N,12132.4560459,E,0.00,135.00,090324,,,R,V*13
$GPHDT,259.082,T*31
$GNACCURACY,2.8*1C
$GNGGA,040846.100,2500.7775287,N,12132.4560422,E,4,56,0.51,16.741,M,15.25,M,1,3335*46
$GNRMC,040846.100,A,2500.7775287,N,12132.4560422,E,0.01,135.00,090324,,,R,V*14
$GPHDT,,T*1B
$GNGSA,A,3,195,194,08,199,21,02,07,27,16,09,196,04,0.78,0.51,0.59,1*09
$GNGSA,A,3,30,,,,,,,,,,,,0.78,0.51,0.59,1*05
$GNGSA,A,3,81,78,88,79,77,,,,,,,,0.78,0.51,0.59,2*0D
$GNGSA,A,3,13,21,26,27,15,,,,,,,,0.78,0.51,0.59,3*00
$GNGSA,A,3,09,23,06,16,07,40,43,39,28,10,25,37,0.78,0.51,0.59,4*0C
$GPGSV,4,1,15,195,64,114,36,194,64,052,42,08,63,354,43,50,60,167,26,1*6B
$GPGSV,4,2,15,199,60,167,21,21,60,156,38,02,48,177,26,07,41,316,39,1*59
$GPGSV,4,3,15,27,33,036,29,16,27,075,42,09,24,247,31,196,19,169,18,1*57
$GPGSV,4,4,15,04,18,203,18,30,11,320,32,26,08,099,18,1*53
$GPGSV,3,1,10,194,64,052,45,195,64,114,37,08,63,354,47,199,60,167,31,8*50
$GPGSV,3,2,10,27,33,036,21,09,24,247,32,196,19,169,17,04,18,203,20,8*51
$GPGSV,3,3,10,30,11,320,36,26,08,099,13,8*65
$GLGSV,2,1,08,81,65,200,39,78,56,037,43,88,55,032,34,79,26,334,33,1*76
$GLGSV,2,2,08,77,23,110,19,69,04,281,,87,03,026,14,68,02,236,,1*7F
$GAGSV,2,1,07,13,55,081,41,21,54,011,30,26,44,172,22,27,29,079,43,7*7F
$GAGSV,2,2,07,19,27,241,30,15,14,039,22,33,04,199,,7*43
$GAGSV,2,1,06,13,55,081,42,21,54,011,34,26,44,172,21,27,29,079,39,1*71
$GAGSV,2,2,06,19,27,241,29,15,14,039,13,1*7B
$GBGSV,4,1,13,09,73,266,38,23,73,031,43,06,71,215,32,16,68,198,40,1*7F
$GBGSV,4,2,13,07,60,308,41,40,60,329,44,43,59,037,40,39,58,187,21,1*76
$GBGSV,4,3,13,28,56,221,37,10,51,289,34,25,37,117,37,37,30,321,43,1*7E
$GBGSV,4,4,13,34,11,040,,1*47
$GBGSV,2,1,07,23,73,031,45,40,60,329,43,43,59,037,43,39,58,187,29,4*76
$GBGSV,2,2,07,28,56,221,37,25,37,117,23,37,30,321,44,4*4A
$GNACCURACY,2.8*1C
$PAIRSAT,1,35,2,0,201,3,0,200,4,0,221,5,0,200,6,0,200,7,0,201,8,0,221,9,0,220,10,0,200,11,0,200,12,0,200,13,0,200,14,0,200,15,0,200,16,0,201,17,0,200,18,0,200,19,0,200,20,0,200,21,0,201,22,0,200,23,0,200,24,0,200,25,0,200,26,0,220,27,0,221,28,0,200,29,0,200,30,0,221,31,0,200,32,0,200,194,0,621,195,0,621,196,0,620,199,0,621*5A
$PAIRSAT,2,24,65,0,200,66,0,200,67,0,200,68,0,200,69,0,200,70,0,200,71,0,200,72,0,200,73,0,200,74,0,200,75,0,200,76,0,200,77,0,1,78,0,201,79,0,201,80,0,200,81,0,201,82,0,200,83,0,200,84,0,200,85,0,200,86,0,200,87,0,201,88,0,201*78
$PAIRSAT,3,23,2,0,1200,3,0,1200,4,0,1200,5,0,200,7,0,1200,8,0,1200,9,0,1200,10,0,1200,11,0,1200,12,0,1200,13,0,1221,15,0,1220,19,0,200,21,0,221,24,0,1200,25,0,1200,26,0,1221,27,0,1221,30,0,1200,31,0,1200,33,0,1200,34,0,1000,36,0,1200*6A
$PAIRSAT,4,46,1,0,200,2,0,200,3,0,600,4,0,200,5,0,200,6,0,201,7,0,201,8,0,200,9,0,201,10,0,201,11,0,200,12,0,200,13,0,200,14,0,200,16,0,201,19,0,600,20,0,600,21,0,600,22,0,600,23,0,621,24,0,600,25,0,621,26,0,600,27,0,600,28,0,621,29,0,600,30,0,600,32,0,600,33,0,600,34,0,621,35,0,600,36,0,600,37,0,621,38,0,400,39,0,421,40,0,421,41,0,400,42,0,400,43,0,421,44,0,400,45,0,400,46,0,400,59,0,400,60,0,400,61,0,400,62,0,400*4A
$PAIRDGP,10,2,4,7,8,9,16,21,26,27,30*42
$GNGGA,040846.200,2500.7775232,N,12132.4560388,E,4,56,0.51,16.722,M,15.25,M,1,3335*49
$GNRMC,040846.200,A,2500.7775232,N,12132.4560388,E,0.01,135.00,090324,,,R,V*1E
$GPHDT,260.493,T*3F
$GNACCURACY,2.8*1C
$GNGGA,040846.300,2500.7775165,N,12132.4560404,E,4,56,0.51,16.735,M,15.25,M,1,3335*4C
$GNRMC,040846.300,A,2500.7775165,N,12132.4560404,E,0.01,135.00,090324,,,R,V*1D
$GPHDT,,T*1B
$GNACCURACY,2.8*1C
$GNGGA,040846.400,2500.7775421,N,12132.4560446,E,4,55,0.51,16.770,M,15.25,M,1,3335*4A
$GNRMC,040846.400,A,2500.7775421,N,12132.4560446,E,0.01,135.00,090324,,,R,V*19
$GPHDT,258.309,T*30
$GNACCURACY,2.8*1C
$GNGGA,040846.500,2500.7775295,N,12132.4560452,E,4,56,0.51,16.729,M,15.25,M,1,3335*48
$GNRMC,040846.500,A,2500.7775295,N,12132.4560452,E,0.02,135.00,090324,,,R,V*17
$GPHDT,,T*1B
$GNACCURACY,2.8*1C
$GNGGA,040846.600,2500.7775211,N,12132.4560359,E,4,56,0.51,16.720,M,15.25,M,0,3335*43
$GNRMC,040846.600,A,2500.7775211,N,12132.4560359,E,0.01,135.00,090324,,,R,V*17
$GPHDT,260.034,T*36
$GNACCURACY,2.8*1C
$GNGGA,040846.700,2500.7775170,N,12132.4560357,E,4,56,0.51,16.730,M,15.25,M,0,3335*49
$GNRMC,040846.700,A,2500.7775170,N,12132.4560357,E,0.02,135.00,090324,,,R,V*1F
$GPHDT,,T*1B
$GNACCURACY,2.8*1C
$GNGGA,040846.800,2500.7775282,N,12132.4560430,E,4,56,0.51,16.728,M,15.25,M,0,3335*47
$GNRMC,040846.800,A,2500.7775282,N,12132.4560430,E,0.02,135.00,090324,,,R,V*18
$GPHDT,259.209,T*30
$GNACCURACY,2.8*1C
$GNGGA,040846.900,2500.7775243,N,12132.4560479,E,4,56,0.51,16.729,M,15.25,M,0,3335*47
$GNRMC,040846.900,A,2500.7775243,N,12132.4560479,E,0.01,135.00,090324,,,R,V*1A
$GPHDT,,T*1B
$GNACCURACY,2.8*1C
$GNGGA,040847.000,2500.7775220,N,12132.4560458,E,4,56,0.51,16.714,M,15.25,M,1,3335*46
$GNRMC,040847.000,A,2500.7775220,N,12132.4560458,E,0.00,135.00,090324,,,R,V*15
$GPHDT,259.531,T*3C
$GNACCURACY,2.8*1C
$GNGGA,040847.100,2500.7775244,N,12132.4560444,E,4,56,0.50,16.714,M,15.25,M,1,3335*49
$GNRMC,040847.100,A,2500.7775244,N,12132.4560444,E,0.01,135.00,090324,,,R,V*1A
$GPHDT,,T*1B
$GNGSA,A,3,195,194,08,199,21,02,07,27,16,09,196,04,0.79,0.50,0.61,1*02
$GNGSA,A,3,30,,,,,,,,,,,,0.79,0.50,0.61,1*0E
$GNGSA,A,3,81,78,88,79,77,,,,,,,,0.79,0.50,0.61,2*06
$GNGSA,A,3,13,21,26,27,19,,,,,,,,0.79,0.50,0.61,3*07
$GNGSA,A,3,23,09,06,16,40,07,43,39,28,10,25,37,0.79,0.50,0.61,4*07
$GPGSV,4,1,15,195,64,114,37,194,64,052,43,08,63,354,43,50,60,167,26,1*6B
$GPGSV,4,2,15,199,60,167,21,21,60,156,31,02,48,177,28,07,41,316,38,1*5F
$GPGSV,4,3,15,27,33,036,34,16,27,075,42,09,24,247,29,196,19,169,19,1*53
$GPGSV,4,4,15,04,18,203,15,30,11,320,35,26,08,099,18,1*59
$GPGSV,3,1,10,194,64,052,44,195,64,114,35,08,63,354,46,199,60,167,29,8*5B
$GPGSV,3,2,10,27,33,036,22,09,24,247,30,196,19,169,16,04,18,203,20,8*51
$GPGSV,3,3,10,30,11,320,37,26,08,099,12,8*65
$GLGSV,2,1,07,81,65,200,41,78,56,037,43,88,55,032,35,79,26,334,35,1*71
$GLGSV,2,2,07,77,23,110,20,87,03,026,15,68,02,236,,1*4B
$GAGSV,2,1,07,13,55,081,41,21,54,011,33,26,44,172,23,27,29,079,42,7*7C
$GAGSV,2,2,07,19,27,241,31,15,14,039,,33,04,199,,7*42
$GAGSV,2,1,05,13,55,081,41,21,54,011,34,26,44,172,20,27,29,079,37,1*7E
$GAGSV,2,2,05,19,27,241,28,1*40
$GBGSV,4,1,13,23,73,031,46,09,73,266,39,06,71,215,36,16,68,198,41,1*7E
$GBGSV,4,2,13,40,60,329,42,07,60,308,40,43,59,037,40,39,58,187,20,1*70
$GBGSV,4,3,13,28,56,221,37,10,51,289,35,25,37,117,33,37,30,321,42,1*7A
$GBGSV,4,4,13,34,11,040,,1*47
$GBGSV,2,1,07,23,73,031,44,40,60,329,44,43,59,