$FW : RTK35X,V1.1X0314AS,Lib20210517,1*54
$Tool : LOCOSYS , GNSS Firebird , v1.0.0.19*39
$---------------------------------------------------*2D
,201,82,0,200,83,0,200,84,0,200,85,0,200,86,0,200,87,0,201,88,0,201*78
$PAIRSAT,3,23,2,0,1200,3,0,1200,4,0,1200,5,0,200,7,0,1200,8,0,1200,9,0,1200,10,0,1200,11,0,1200,12,0,1200,13,0,1221,15,0,220,19,0,200,21,0,221,24,0,1200,25,0,1200,26,0,1221,27,0,1221,30,0,1200,31,0,1200,33,0,1200,34,0,1000,36,0,1200*5B
$PAIRSAT,4,46,1,0,200,2,0,200,3,0,600,4,0,200,5,0,200,6,0,201,7,0,201,8,0,200,9,0,201,10,0,201,11,0,200,12,0,200,13,0,200,14,0,200,16,0,201,19,0,600,20,0,600,21,0,600,22,0,600,23,0,621,24,0,600,25,0,621,26,0,600,27,0,600,28,0,621,29,0,600,30,0,600,32,0,600,33,0,600,34,0,621,35,0,600,36,0,400,37,0,421,38,0,400,39,0,421,40,0,421,41,0,400,42,0,400,43,0,421,44,0,400,45,0,400,46,0,400,59,0,400,60,0,400,61,0,400,62,0,400*4A
$PAIRDGP,10,2,4,7,8,9,16,21,26,27,30*42
$GNGGA,040746.200,2500.7775369,N,12132.4560583,E,4,52,0.50,16.751,M,15.25,M,1,3335*45
$GNRMC,040746.200,A,2500.7775369,N,12132.4560583,E,0.03,135.00,090324,,,R,V*11
$GPHDT,44.557,T*02
$GNACCURACY,2.7*13
$GNGGA,040746.300,2500.7775371,N,12132.4560609,E,4,52,0.50,16.762,M,15.25,M,1,3335*4C
$GNRMC,040746.300,A,2500.7775371,N,12132.4560609,E,0.02,135.00,090324,,,R,V*19
$GPHDT,,T*1B
$GNACCURACY,2.7*13
$GNGGA,040746.400,2500.7775359,N,12132.4560641,E,4,52,0.50,16.772,M,15.25,M,1,3335*4C
$GNRMC,040746.400,A,2500.7775359,N,12132.4560641,E,0.02,135.00,090324,,,R,V*18
$GPHDT,44.325,T*01
$GNACCURACY,2.7*13
$GNGGA,040746.500,2500.7775336,N,12132.4560651,E,4,52,0.50,16.795,M,15.25,M,0,3335*4D
$GNRMC,040746.500,A,2500.7775336,N,12132.4560651,E,0.01,135.00,090324,,,R,V*12
$GPHDT,,T*1B
$GNACCURACY,2.7*13
$GNGGA,040746.600,2500.7775342,N,12132.4560657,E,4,53,0.50,16.810,M,15.25,M,0,3335*48
$GNRMC,040746.600,A,2500.7775342,N,12132.4560657,E,0.02,135.00,090324,,,R,V*17
$GPHDT,43.837,T*0E
$GNACCURACY,2.7*13
$GNGGA,040746.700,2500.7775352,N,12132.4560666,E,4,53,0.50,16.802,M,15.25,M,0,3335*49
$GNRMC,040746.700,A,2500.7775352,N,12132.4560666,E,0.02,135.00,090324,,,R,V*15
$GPHDT,,T*1B
$GNACCURACY,2.7*13
$GNGGA,040746.800,2500.7775390,N,12132.4560667,E,4,53,0.50,16.802,M,15.25,M,0,3335*49
$GNRMC,040746.800,A,2500.7775390,N,12132.4560667,E,0.02,135.00,090324,,,R,V*15
$GPHDT,44.381,T*0F
$GNACCURACY,2.7*13
$GNGGA,040746.900,2500.7775331,N,12132.4560603,E,4,53,0.50,16.789,M,15.25,M,0,3335*4D
$GNRMC,040746.900,A,2500.7775331,N,12132.4560603,E,0.03,135.00,090324,,,R,V*1C
$GPHDT,,T*1B
$GNACCURACY,2.7*13
$GNGGA,040747.000,2500.7775311,N,12132.4560567,E,4,53,0.50,16.778,M,15.25,M,1,3335*49
$GNRMC,040747.000,A,2500.7775311,N,12132.4560567,E,0.03,135.00,090324,,,R,V*17
$GPHDT,44.771,T*04
$GNACCURACY,2.7*13
$GNGGA,040747.100,2500.7775340,N,12132.4560594,E,4,53,0.50,16.793,M,15.25,M,1,3335*45
$GNRMC,040747.100,A,2500.7775340,N,12132.4560594,E,0.03,135.00,090324,,,R,V*1E
$GPHDT,,T*1B
$GNGSA,A,3,194,195,08,199,21,07,27,16,09,196,04,30,0.77,0.50,0.58,1*07
$GNGSA,A,3,81,78,88,79,77,,,,,,,,0.77,0.50,0.58,2*02
$GNGSA,A,3,13,21,26,27,15,,,,,,,,0.77,0.50,0.58,3*0F
$GNGSA,A,3,23,09,06,16,40,07,43,39,28,10,25,37,0.77,0.50,0.58,4*03
$GNGSA,A,3,34,,,,,,,,,,,,0.77,0.50,0.58,4*0B
$GPGSV,4,1,15,194,64,052,42,195,64,114,46,08,63,354,40,50,60,167,30,1*68
$GPGSV,4,2,15,199,60,167,27,21,59,156,42,02,47,177,21,07,41,317,38,1*50
$GPGSV,4,3,15,27,33,035,26,16,28,075,36,09,24,247,21,196,19,169,18,1*56
$GPGSV,4,4,15,04,18,203,28,30,11,320,29,26,08,099,17,1*55
$GPGSV,2,1,08,194,64,052,43,195,64,114,43,08,63,354,47,199,60,167,33,8*5F
$GPGSV,2,2,08,27,33,035,31,09,24,247,30,04,18,203,18,30,11,320,34,8*69
$GLGSV,2,1,06,81,64,200,44,78,56,036,38,88,56,032,37,79,25,333,36,1*7F
$GLGSV,2,2,06,77,24,110,22,87,03,026,15,1*74
$GAGSV,2,1,08,13,55,081,39,21,54,011,33,26,43,172,19,27,29,079,34,7*73
$GAGSV,2,2,08,19,28,241,22,15,14,039,20,04,12,300,,33,03,199,,7*71
$GAGSV,1,1,03,13,55,081,43,21,54,011,37,27,29,079,36,1*49
$GBGSV,4,1,14,23,73,029,45,09,73,267,39,06,72,215,39,16,68,198,42,1*7D
$GBGSV,4,2,14,40,61,328,43,07,60,308,40,43,59,037,41,39,58,187,27,1*70
$GBGSV,4,3,14,28,55,220,42,10,51,289,28,25,38,117,41,37,29,321,25,1*72
$GBGSV,4,4,14,34,12,040,26,27,09,220,,1*7B
$GBGSV,2,1,07,23,73,029,48,40,61,328,43,43,59,037,42,39,58,187,32,4*79
$GBGSV,2,2,07,28,55,220,37,25,38,117,41,37,29,321,38,4*40
$GNACCURACY,2.7*13
$PAIRSAT,1,35,2,0,201,3,0,200,4,0,221,5,0,200,6,0,200,7,0,201,8,0,221,9,0,220,10,0,200,11,0,200,12,0,200,13,0,200,14,0,200,15,0,200,16,0,201,17,0,200,18,0,200,19,0,200,20,0,200,21,0,201,22,0,200,23,0,200,24,0,200,25,0,200,26,0,220,27,0,221,28,0,200,29,0,200,30,0,221,31,0,200,32,0,200,194,0,621,195,0,621,196,0,620,199,0,621*5A
$PAIRSAT,2,24,65,0,200,66,0,200,67,0,200,68,0,200,69,0,200,70,0,200,71,0,200,72,0,200,73,0,200,74,0,200,75,0,200,76,0,200,77,0,1,78,0,201,79,0,201,80,0,200,81,0,201,82,0,200,83,0,200,84,0,200,85,0,200,86,0,200,87,0,201,88,0,201*78
$PAIRSAT,3,23,2,0,1200,3,0,1200,4,0,1200,5,0,200,7,0,1200,8,0,1200,9,0,1200,10,0,1200,11,0,1200,12,0,1200,13,0,1221,15,0,220,19,0,200,21,0,221,24,0,1200,25,0,1200,26,0,1221,27,0,1221,30,0,1200,31,0,1200,33,0,1200,34,0,1000,36,0,1200*5B
$PAIRSAT,4,46,1,0,200,2,0,200,3,0,600,4,0,200,5,0,200,6,0,201,7,0,201,8,0,200,9,0,201,10,0,201,11,0,200,12,0,200,13,0,200,14,0,200,16,0,201,19,0,600,20,0,600,21,0,600,22,0,600,23,0,621,24,0,600,25,0,621,26,0,600,27,0,600,28,0,621,29,0,600,30,0,600,32,0,600,33,0,600,34,0,621,35,0,600,36,0,400,37,0,421,38,0,400,39,0,421,40,0,421,41,0,400,42,0,400,43,0,421,44,0,400,45,0,400,46,0,400,59,0,400,60,0,400,61,0,400,62,0,400*4A
$PAIRDGP,10,2,4,7,8,9,16,21,26,27,30*42
$GNGGA,040747.200,2500.7775349,N,12132.4560589,E,4,53,0.50,16.800,M,15.25,M,1,3335*46
$GNRMC,040747.200,A,2500.7775349,N,12132.4560589,E,0.03,135.00,090324,,,R,V*18
$GPHDT,44.703,T*01
$GNACCURACY,2.7*13
$GNGGA,040747.300,2500.7775320,N,12132.4560611,E,4,54,0.50,16.791,M,15.25,M,1,3335*4A
$GNRMC,040747.300,A,2500.7775320,N,12132.4560611,E,0.02,135.00,090324,,,R,V*15
$GPHDT,,T*1B
$GNACCURACY,2.7*13
$GNGGA,040747.400,2500.7775344,N,12132.4560619,E,4,54,0.50,16.775,M,15.25,M,1,3335*4D
$GNRMC,040747.400,A,2500.7775344,N,12132.4560619,E,0.02,135.00,090324,,,R,V*18
$GPHDT,44.627,T*06
$GNACCURACY,2.7*13
$GNGGA,040747.500,2500.7775322,N,12132.4560600,E,4,54,0.50,16.784,M,15.25,M,0,3335*4B
$GNRMC,040747.500,A,2500.7775322,N,12132.4560600,E,0.02,135.00,090324,,,R,V*11
$GPHDT,,T*1B
$GNACCURACY,2.7*13
$GNGGA,040747.600,2500.7775348,N,12132.4560649,E,4,54,0.50,16.809,M,15.25,M,0,3335*43
$GNRMC,040747.600,A,2500.7775348,N,12132.4560649,E,0.01,135.00,090324,,,R,V*10
$GPHDT,44.091,T*0D
$GNACCURACY,2.7*13
$GNGGA,040747.700,2500.7775363,N,12132.4560698,E,4,54,0.50,16.809,M,15.25,M,0,3335*47
$GNRMC,040747.700,A,2500.7775363,N,12132.4560698,E,0.02,135.00,090324,,,R,V*17
$GPHDT,,T*1B
$GNACCURACY,2.7*13
$GNGGA,040747.800,2500.7775338,N,12132.4560647,E,4,54,0.50,16.785,M,15.25,M,0,3335*4F
$GNRMC,040747.800,A,2500.7775338,N,12132.4560647,E,0.01,135.00,090324,,,R,V*17
$GPHDT,44.280,T*0F
$GNACCURACY,2.7*13
$GNGGA,040747.900,2500.7775331,N,12132.4560637,E,4,54,0.50,16.784,M,15.25,M,0,3335*41
$GNRMC,040747.900,A,2500.7775331,N,12132.4560637,E,0.01,135.00,090324,,,R,V*18
$GPHDT,,T*1B
$GNACCURACY,2.7*13
$GNGGA,040748.000,2500.7775341,N,12132.4560639,E,4,54,0.50,16.780,M,15.25,M,1,3335*4B
$GNRMC,040748.000,A,2500.7775341,N,12132.4560639,E,0.01,135.00,090324,,,R,V*17
$GPHDT,44.565,T*03
$GNACCURACY,2.7*13
$GNGGA,040748.100,2500.7775332,N,12132.4560625,E,4,54,0.50,16.784,M,15.25,M,1,3335*47
$GNRMC,040748.100,A,2500.7775332,N,12132.4560625,E,0.01,135.00,090324,,,R,V*1F
$GPHDT,,T*1B
$GNGSA,A,3,194,195,08,199,21,07,27,16,09,196,04,30,0.77,0.50,0.58,1*07
$GNGSA,A,3,81,78,88,79,77,,,,,,,,0.77,0.50,0.58,2*02
$GNGSA,A,3,13,21,26,27,15,,,,,,,,0.77,0.50,0.58,3*0F
$GNGSA,A,3,23,09,06,16,40,07,43,39,28,10,25,37,0.77,0.50,0.58,4*03
$GNGSA,A,3,34,,,,,,,,,,,,0.77,0.50,0.58,4*0B
$GPGSV,4,1,15,194,64,052,42,195,64,114,46,08,63,354,39,50,60,167,28,1*6F
$GPGSV,4,2,15,199,60,167,26,21,59,156,41,02,47,177,19,07,41,317,40,1*56
$GPGSV,4,3,15,27,33,035,27,16,28,075,38,09,24,247,20,196,19,169,18,1*58
$GPGSV,4,4,15,04,18,203,27,30,11,320,32,26,08,099,17,1*50
$GPGSV,2,1,08,194,64,052,44,195,64,114,44,08,63,354,48,199,60,167,33,8*50
$GPGSV,2,2,08,27,33,035,31,09,24,247,32,04,18,203,18,30,11,320,37,8*68
$GLGSV,2,1,06,81,64,200,44,78,56,036,39,88,56,032,37,79,25,333,38,1*70
$GLGSV,2,2,06,77,24,110,21,87,03,026,15,1*77
$GAGSV,2,1,08,13,55,081,40,21,54,011,32,26,43,172,17,27,29,079,31,7*77
$GAGSV,2,2,08,19,28,241,24,15,14,039,21,04,12,300,,33,03,199,,7*76
$GAGSV,1,1,04,13,55,081,44,21,54,011,37,26,43,172,23,27,29,079,34,1*7D
$GBGSV,4,1,13,23,73,029,45,09,73,267,36,06,72,215,40,16,68,198,43,1*7A
$GBGSV,4,2,13,40,61,328,44,07,60,308,41,43,59,037,40,39,58,187,28,1*7F
$GBGSV,4,3,13,28,55,220,42,10,51,289,37,25,38,117,41,37,29,321,42,1*7A
$GBGSV,4,4,13,34,12,040,24,1*42
$GBGSV,2,1,07,23,73,029,48,40,61,328,43,43,59,037,43,39,58,187,34,4*7E
$GBGSV,2,2,07,28,55,220,37,25,38,117,41,37,29,321,43,4*4C
$GNACCURACY,2.7*13
$PAIRSAT,1,35,2,0,201,3,0,200,4,0,221,5,0,200,6,0,200,7,0,201,8,0,221,9,0,220,10,0,200,11,0,200,12,0,200,13,0,200,14,0,200,15,0,200,16,0,201,17,0,200,18,0,200,19,0,200,20,0,200,21,0,201,22,0,200,23,0,200,24,0,200,25,0,200,26,0,220,27,0,221,28,0,200,29,0,200,30,0,221,31,0,200,32,0,200,194,0,621,195,0,621,196,0,620,199,0,621*5A
$PAIRSAT,2,24,65,0,200,66,0,200,67,0,200,68,0,200,69,0,200,70,0,200,71,0,200,72,0,200,73,0,200,74,0,200,75,0,200,76,0,200,77,0,1,78,0,201,79,0,201,80,0,200,81,0,201,82,0,200,83,0,200,84,0,200,85,0,200,86,0,200,87,0,201,88,0,201*78
$PAIRSAT,3,23,2,0,1200,3,0,1200,4,0,1200,5,0,200,7,0,1200,8,0,1200,9,0,1200,10,0,1200,11,0,1200,12,0,1200,13,0,1221,15,0,220,19,0,200,21,0,221,24,0,1200,25,0,1200,26,0,1221,27,0,1221,30,0,1200,31,0,1200,33,0,1200,34,0,1000,36,0,1200*5B
$PAIRSAT,4,46,1,0,200,2,0,200,3,0,600,4,0,200,5,0,200,6,0,201,7,0,201,8,0,200,9,0,201,10,0,201,11,0,200,12,0,200,13,0,200,14,0,200,16,0,201,19,0,600,20,0,600,21,0,600,22,0,600,23,0,621,24,0,600,25,0,621,26,0,600,27,0,600,28,0,621,29,0,600,30,0,600,32,0,600,33,0,600,34,0,621,35,0,600,36,0,400,37,0,421,38,0,400,39,0,421,40,0,421,41,0,400,42,0,400,43,0,421,44,0,400,45,0,400,46,0,400,59,0,400,60,0,400,61,0,400,62,0,400*4A
$PAIRDGP,10,2,4,7,8,9,16,21,26,27,30*42
$GNGGA,040748.200,2500.7775304,N,12132.4560648,E,4,54,0.50,16.791,M,15.25,M,1,3335*4E
$GNRMC,040748.200,A,2500.7775304,N,12132.4560648,E,0.01,135.00,090324,,,R,V*12
$GPHDT,43.829,T*01
$GNACCURACY,2.7*13
$GNGGA,040748.300,2500.7775328,N,12132.4560636,E,4,54,0.50,16.784,M,15.25,M,1,3335*4C
$GNRMC,040748.300,A,2500.7775328,N,12132.4560636,E,0.00,135.00,090324,,,R,V*15
$GPHDT,,T*1B
$GNACCURACY,2.7*13
$GNGGA,040748.400,2500.7775401,N,12132.4560577,E,4,54,0.50,16.771,M,15.25,M,1,3335*4B
$GNRMC,040748.400,A,2500.7775401,N,12132.4560577,E,0.01,135.00,090324,,,R,V*19
$GPHDT,43.714,T*00
$GNACCURACY,2.7*13
$GNGGA,040748.500,2500.7775363,N,12132.4560536,E,4,54,0.50,16.756,M,15.25,M,0,3335*48
$GNRMC,040748.500,A,2500.7775363,N,12132.4560536,E,0.02,135.00,090324,,,R,V*1D
$GPHDT,,T*1B
$GNACCURACY,2.7*13
$GNGGA,040748.600,2500.7775344,N,12132.4560530,E,4,54,0.50,16.747,M,15.25,M,0,3335*48
$GNRMC,040748.600,A,2500.7775344,N,12132.4560530,E,0.01,135.00,090324,,,R,V*1E
$GPHDT,44.474,T*02
$GNACCURACY,2.7*13
$GNGGA,040748.700,2500.7775363,N,12132.4560553,E,4,53,0.50,16.762,M,15.25,M,0,3335*49
$GNRMC,040748.700,A,2500.7775363,N,12132.4560553,E,0.01,135.00,090324,,,R,V*1F
$GPHDT,,T*1B
$GNACCURACY,2.7*13
$GNGGA,040748.800,2500.7775358,N,12132.4560557,E,4,54,0.50,16.757,M,15.25,M,0,3335*4B
$GNRMC,040748.800,A,2500.7775358,N,12132.4560557,E,0.01,135.00,090324,,,R,V*1C
$GPHDT,45.272,T*03
$GNACCURACY,2.7*13
$GNGGA,040748.900,2500.7775350,N,12132.4560568,E,4,54,0.50,16.754,M,15.25,M,0,3335*4D
$GNRMC,040748.900,A,2500.7775350,N,12132.4560568,E,0.01,135.00,090324,,,R,V*19
$GPHDT,,T*1B
$GNACCURACY,2.7*13
$GNGGA,040749.000,2500.7775365,N,12132.4560532,E,4,55,0.50,16.745,M,15.25,M,1,3335*4C
$GNRMC,040749.000,A,2500.7775365,N,12132.4560532,E,0.01,135.00,090324,,,R,V*18
$GPHDT,45.311,T*07
$GNACCURACY,2.7*13
$GNGGA,040749.100,2500.7775372,N,12132.4560555,E,4,55,0.50,16.754,M,15.25,M,1,3335*4A
$GNRMC,040749.100,A,2500.7775372,N,12132.4560555,E,0.01,135.00,090324,,,R,V*1E
$GPHDT,,T*1B
$GNGSA,A,3,194,195,08,199,21,07,27,16,09,196,04,30,0.77,0.50,0.58,1*07
$GNGSA,A,3,81,78,88,79,77,,,,,,,,0.77,0.50,0.58,2*02
$GNGSA,A,3,13,21,26,27,15,,,,,,,,0.77,0.50,0.58,3*0F
$GNGSA,A,3,23,09,06,16,40,07,43,39,28,10,25,37,0.77,0.50,0.58,4*03
$GNGSA,A,3,34,,,,,,,,,,,,0.77,0.50,0.58,4*0B
$GPGSV,4,1,15,194,64,052,42,195,64,114,46,08,63,354,39,50,60,167,28,1*6F
$GPGSV,4,2,15,199,60,167,26,21,59,156,41,02,47,177,22,07,41,317,41,1*5F
$GPGSV,4,3,15,27,33,035,25,16,28,075,37,09,24,247,23,196,19,169,18,1*56
$GPGSV,4,4,15,04,18,203,27,30,11,320,31,26,08,099,16,1*52
$GPGSV,2,1,08,194,64,052,44,195,64,114,44,08,63,354,48,199,60,167,34,8*57
$GPGSV,2,2,08,27,33,035,31,09,24,247,32,04,18,203,18,30,11,320,34,8*6B
$GLGSV,2,1,06,81,64,200,44,78,56,036,39,88,56,032,37,79,25,333,37,1*7F
$GLGSV,2,2,06,77,24,110,21,87,03,026,17,1*75
$GAGSV,2,1,08,13,55,081,41,21,54,011,32,26,43,172,15,27,29,079,32,7*77
$GAGSV,2,2,08,19,28,241,25,15,14,039,20,04,12,300,,33,03,199,,7*76
$GAGSV,2,1,05,13,55,081,44,21,54,011,37,27,29,079,35,19,28,241,20,1*7F
$GAGSV,2,2,05,15,14,039,20,1*49
$GBGSV,4,1,13,23,73,029,45,09,73,267,36,06,72,215,38,16,68,198,43,1*75
$GBGSV,4,2,13,40,61,328,44,07,60,308,41,43,59,037,41,39,58,187,23,1*75
$GBGSV,4,3,13,28,55,220,43,10,51,289,33,25,38,117,42,37,29,321,26,1*7E
$GBGSV,4,4,13,34,12,040,25,1*43
$GBGSV,2,1,08,23,73,029,48,40,61,328,43,43,59,037,43,39,58,187,33,4*76
$GBGSV,2,2,08,28,55,220,37,25,38,117,42,37,29,321,40,34,12,040,19,4*7B
$GNACCURACY,2.7*13
$PAIRSAT,1,35,2,0,201,3,0,200,4,0,221,5,0,200,6,0,200,7,0,201,8,0,221,9,0,220,10,0,200,11,0,200,12,0,200,13,0,200,14,0,200,15,0,200,16,0,201,17,0,200,18,0,200,19,0,200,20,0,200,21,0,201,22,0,200,23,0,200,24,0,200,25,0,200,26,0,220,27,0,221,28,0,200,29,0,200,30,0,221,31,0,200,32,0,200,194,0,621,195,0,621,196,0,620,199,0,621*5A
$PAIRSAT,2,24,65,0,200,66,0,200,67,0,200,68,0,200,69,0,200,70,0,200,71,0,200,72,0,200,73,0,200,74,0,200,75,0,200,76,0,200,77,0,1,78,0,201,79,0,201,80,0,200,81,0,201,82,0,200,83,0,200,84,0,200,85,0,200,86,0,200,87,0,201,88,0,201*78
$PAIRSAT,3,23,2,0,1200,3,0,1200,4,0,1200,5,0,200,7,0,1200,8,0,1200,9,0,1200,10,0,1200,11,0,1200,12,0,1200,13,0,1221,15,0,220,19,0,200,21,0,221,24,0,1200,25,0,1200,26,0,1221,27,0,1221,30,0,1200,31,0,1200,33,0,1200,34,0,1000,36,0,1200*5B
$PAIRSAT,4,46,1,0,200,2,0,200,3,0,600,4,0,200,5,0,200,6,0,201,7,0,201,8,0,200,9,0,201,10,0,201,11,0,200,12,0,200,13,0,200,14,0,200,16,0,201,19,0,600,20,0,600,21,0,600,22,0,600,23,0,621,24,0,600,25,0,621,26,0,600,27,0,600,28,0,621,29,0,600,30,0,600,32,0,600,33,0,600,34,0,621,35,0,600,36,0,400,37,0,421,38,0,400,39,0,421,40,0,421,41,0,400,42,0,400,43,0,421,44,0,400,45,0,400,46,0,400,59,0,400,60,0,400,61,0,400,62,0,400*4A
$PAIRDGP,10,2,4,7,8,9,16,21,26,27,30*42
$GNGGA,040749.200,2500.7775349,N,12132.4560495,E,4,55,0.50,16.750,M,15.25,M,1,3335*48
$GNRMC,040749.200,A,2500.7775349,N,12132.4560495,E,0.01,135.00,090324,,,R,V*18
$GPHDT,45.487,T*0F
$GNACCURACY,2.7*13
$GNGGA,040749.300,2500.7775366,N,12132.4560538,E,4,56,0.50,16.754,M,15.25,M,1,3335*45
$GNRMC,040749.300,A,2500.7775366,N,12132.4560538,E,0.01,135.00,090324,,,R,V*12
$GPHDT,,T*1B
$GNACCURACY,2.7*13
$GNGGA,040749.400,2500.7775361,N,12132.4560541,E,4,55,0.50,16.761,M,15.25,M,1,3335*4E
$GNRMC,040749.400,A,2500.7775361,N,12132.4560541,E,0.01,135.00,090324,,,R,V*1C
$GPHDT,45.417,T*06
$GNACCURACY,2.7*13
$GNGGA,040749.500,2500.7775342,N,12132.4560534,E,4,55,0.50,16.770,M,15.25,M,1,3335*4C
$GNRMC,040749.500,A,2500.7775342,N,12132.4560534,E,0.01,135.00,090324,,,R,V*1E
$GPHDT,,T*1B
$GNACCURACY,2.7*13
$GNGGA,040749.600,2500.7775374,N,12132.4560543,E,4,55,0.50,16.766,M,15.25,M,0,3335*4C
$GNRMC,040749.600,A,2500.7775374,N,12132.4560543,E,0.00,135.00,090324,,,R,V*19
$GPHDT,45.353,T*01
$GNACCURACY,2.7*13
$GNGGA,040749.700,2500.7775397,N,12132.4560523,E,4,56,0.50,16.773,M,15.25,M,0,3335*41
$GNRMC,040749.700,A,2500.7775397,N,12132.4560523,E,0.01,135.00,090324,,,R,V*12
$GPHDT,,T*1B
$GNACCURACY,2.7*13
$GNGGA,040749.800,2500.7775407,N,12132.4560538,E,4,56,0.50,16.770,M,15.25,M,0,3335*49
$GNRMC,040749.800,A,2500.7775407,N,12132.4560538,E,0.02,135.00,090324,,,R,V*1A
$GPHDT,45.890,T*05
$GNACCURACY,2.7*13
$GNGGA,040749.900,2500.7775426,N,12132.4560569,E,4,56,0.50,16.774,M,15.25,M,0,3335*4B
$GNRMC,040749.900,A,2500.7775426,N,12132.4560569,E,0.02,135.00,090324,,,R,V*1C
$GPHDT,,T*1B
$GNACCURACY,2.7*13
$GNGGA,040750.000,2500.7775431,N,12132.4560559,E,4,55,0.50,16.776,M,15.25,M,1,3335*4F
$GNRMC,040750.000,A,2500.7775431,N,12132.4560559,E,0.00,135.00,090324,,,R,V*1A
$GPHDT,46.044,T*07
$GNACCURACY,2.7*13
$GNGGA,040750.100,2500.7775390,N,12132.4560521,E,4,54,0.50,16.768,M,15.25,M,1,3335*43
$GNRMC,040750.100,A,2500.7775390,N,12132.4560521,E,0.01,135.00,090324,,,R,V*19
$GPHDT,,T*1B
$GNGSA,A,3,194,195,08,199,21,07,27,16,09,196,04,30,0.77,0.50,0.58,1*07
$GNGSA,A,3,81,78,88,79,77,,,,,,,,0.77,0.50,0.58,2*02
$GNGSA,A,3,13,21,26,27,15,,,,,,,,0.77,0.50,0.58,3*0F
$GNGSA,A,3,23,09,06,16,40,07,43,39,28,10,25,37,0.77,0.50,0.58,4*03
$GNGSA,A,3,34,,,,,,,,,,,,0.77,0.50,0.58,4*0B
$GPGSV,4,1,15,194,64,052,42,195,64,114,46,08,63,354,37,50,60,167,29,1*60
$GPGSV,4,2,15,199,60,167,27,21,59,156,41,02,47,177,25,07,41,317,41,1*59
$GPGSV,4,3,15,27,33,035,30,16,28,075,37,09,24,247,22,196,19,169,19,1*52
$GPGSV,4,4,15,04,18,203,27,30,11,320,30,26,08,099,17,1*52
$GPGSV,2,1,08,194,64,052,44,195,64,114,44,08,63,354,48,199,60,167,34,8*57
$GPGSV,2,2,08,27,33,035,30,09,24,247,28,04,18,203,19,30,11,320,34,8*60
$GLGSV,2,1,06,81,64,200,45,78,56,036,39,88,56,032,38,79,25,333,36,1*70
$GLGSV,2,2,06,77,24,110,23,87,03,026,16,1*76
$GAGSV,2,1,08,13,55,081,40,21,54,011,32,26,43,172,16,27,29,079,30,7*77
$GAGSV,2,2,08,19,28,241,26,15,14,039,20,04,12,300,,33,03,199,,7*75
$GAGSV,2,1,05,13,55,081,44,21,54,011,37,26,43,172,20,27,29,079,35,1*7D
$GAGSV,2,2,05,19,28,241,28,1*4F
$GBGSV,4,1,13,23,73,029,46,09,73,267,36,06,72,215,37,16,68,198,43,1*79
$GBGSV,4,2,13,40,61,328,44,07,60,308,41,43,59,037,41,39,58,187,23,1*75
$GBGSV,4,3,13,28,55,220,43,10,51,289,36,25,38,117,42,37,29,321,34,1*78
$GBGSV,4,4,13,34,12,040,25,1*43
$GBGSV,2,1,08,23,73,029,48,40,61,328,43,43,59,037,43,39,58,187,31,4*74
$GBGSV,2,2,08,28,55,220,38,25,38,117,42,37,29,321,42,34,12,040,21,4*7D
$GNACCURACY,2.7*13
$PAIRSAT,1,35,2,0,201,3,0,200,4,0,221,5,0,200,6,0,200,7,0,201,8,0,221,9,0,220,10,0,200,11,0,200,12,0,200,13,0,200,14,0,200,15,0,200,16,0,201,17,0,200,18,0,200,19,0,200,20,0,200,21,0,201,22,0,200,23,0,200,24,0,200,25,0,200,26,0,220,27,0,221,28,0,200,29,0,200,30,0,221,31,0,200,32,0,200,194,0,621,195,0,621,196,0,620,199,0,621*5A
$PAIRSAT,2,24,65,0,200,66,0,200,67,0,200,68,0,200,69,0,200,70,0,200,71,0,200,72,0,200,73,0,200,74,0,200,75,0,200,76,0,200,77,0,1,78,0,201,79,0,201,80,0,200,81,0,201,82,0,200,83,0,200,84,0,200,85,0,200,86,0,200,87,0,201,88,0,201*78
$PAIRSAT,3,23,2,0,1200,3,0,1200,4,0,1200,5,0,200,7,0,1200,8,0,1200,9,0,1200,10,0,1200,11,0,1200,12,0,1200,13,0,1221,15,0,220,19,0,200,21,0,221,24,0,1200,25,0,1200,26,0,1221,27,0,1221,30,0,1200,31,0,1200,33,0,1200,34,0,1000,36,0,1200*5B
$PAIRSAT,4,46,1,0,200,2,0,200,3,0,600,4,0,200,5,0,200,6,0,201,7,0,201,8,0,200,9,0,201,10,0,201,11,0,200,12,0,200,13,0,200,14,0,200,16,0,201,19,0,600,20,0,600,21,0,600,22,0,600,23,0,621,24,0,600,25,0,621,26,0,600,27,0,600,28,0,621,29,0,600,30,0,600,32,0,600,33,0,600,34,0,621,35,0,600,36,0,400,37,0,421,38,0,400,39,0,421,40,0,421,41,0,400,42,0,400,43,0,421,44,0,400,45,0,400,46,0,400,59,0,400,60,0,400,61,0,400,62,0,400*4A
$PAIRDGP,10,2,4,7,8,9,16,21,26,27,30*42
$GNGGA,040750.200,2500.7775429,N,12132.4560558,E,4,55,0.50,16.785,M,15.25,M,1,3335*49
$GNRMC,040750.200,A,2500.7775429,N,12132.4560558,E,0.00,135.00,090324,,,R,V*10
$GPHDT,46.116,T*01
$GNACCURACY,2.7*13
$GNGGA,040750.300,2500.7775406,N,12132.4560533,E,4,55,0.50,16.772,M,15.25,M,1,3335*40
$GNRMC,040750.300,A,2500.7775406,N,12132.4560533,E,0.01,135.00,090324,,,R,V*10
$GPHDT,,T*1B
$GNACCURACY,2.7*13
$GNGGA,040750.400,2500.7775410,N,12132.4560594,E,4,55,0.50,16.790,M,15.25,M,1,3335*41
$GNRMC,040750.400,A,2500.7775410,N,12132.4560594,E,0.01,135.00,090324,,,R,V*1D
$GPHDT,45.650,T*07
$GNACCURACY,2.7*13
$GNGGA,040750.500,2500.7775403,N,12132.4560544,E,4,55,0.50,16.783,M,15.25,M,1,3335*4D
$GNRMC,040750.500,A,2500.7775403,N,12132.4560544,E,0.00,135.00,090324,,,R,V*12
$GPHDT,,T*1B
$GNACCURACY,2.7*13
$GNGGA,040750.600,2500.7775423,N,12132.4560543,E,4,55,0.50,16.785,M,15.25,M,1,3335*4D
$GNRMC,040750.600,A,2500.7775423,N,12132.4560543,E,0.00,135.00,090324,,,R,V*14
$GPHDT,46.017,T*01
$GNACCURACY,2.7*13
$GNGGA,040750.700,2500.7775424,N,12132.4560564,E,4,55,0.50,16.778,M,15.25,M,1,3335*4C
$GNRMC,040750.700,A,2500.7775424,N,12132.4560564,E,0.01,135.00,090324,,,R,V*16
$GPHDT,,T*1B
$GNACCURACY,2.7*13
$GNGGA,040750.800,2500.7775406,N,12132.4560557,E,4,55,0.50,16.767,M,15.25,M,0,3335*4C
$GNRMC,040750.800,A,2500.7775406,N,12132.4560557,E,0.01,135.00,090324,,,R,V*19
$GPHDT,45.820,T*0E
$GNACCURACY,2.7*13
$GNGGA,040750.900,2500.7775376,N,12132.4560537,E,4,54,0.50,16.769,M,15.25,M,0,3335*44
$GNRMC,040750.900,A,2500.7775376,N,12132.4560537,E,0.02,135.00,090324,,,R,V*1D
$GPHDT,,T*1B
$GNACCURACY,2.7*13
$GNGGA,040751.000,2500.7775416,N,12132.4560584,E,4,55,0.50,16.762,M,15.25,M,1,3335*4E
$GNRMC,040751.000,A,2500.7775416,N,12132.4560584,E,0.00,135.00,090324,,,R,V*1E
$GPHDT,45.998,T*0C
$GNACCURACY,2.7*13
$GNGGA,040751.100,2500.7775400,N,12132.4560586,E,4,55,0.50,16.781,M,15.25,M,1,3335*47
$GNRMC,040751.100,A,2500.7775400,N,12132.4560586,E,0.01,135.00,090324,,,R,V*1B
$GPHDT,,T*1B
$GNGSA,A,3,194,195,08,199,21,07,27,16,09,196,04,30,0.77,0.50,0.58,1*07
$GNGSA,A,3,81,78,88,79,77,,,,,,,,0.77,0.50,0.58,2*02
$GNGSA,A,3,13,21,26,27,15,,,,,,,,0.77,0.50,0.58,3*0F
$GNGSA,A,3,23,09,06,16,40,07,43,39,28,10,25,37,0.77,0.50,0.58,4*03
$GNGSA,A,3,34,,,,,,,,,,,,0.77,0.50,0.58,4*0B
$GPGSV,4,1,15,194,64,052,42,195,64,114,46,08,63,354,38,50,60,167,29,1*6F
$GPGSV,4,2,15,199,60,167,27,21,59,156,42,02,47,177,21,07,41,317,41,1*5E
$GPGSV,4,3,15,27,33,035,30,16,28,075,37,09,24,247,21,196,19,169,19,1*51
$GPGSV,4,4,15,04,18,203,26,30,11,320,29,26,08,099,17,1*5B
$GPGSV,2,1,08,194,64,052,44,195,64,114,45,08,63,354,48,199,60,167,34,8*56
$GPGSV,2,2,08,27,33,035,31,09,24,247,28,04,18,203,20,30,11,320,35,8*6A
$GLGSV,2,1,06,81,64,200,45,78,56,036,39,88,56,032,38,79,25,333,37,1*71
$GLGSV,2,2,06,77,24,110,21,87,03,026,15,1*77
$GAGSV,2,1,08,13,55,081,40,21,54,011,31,26,43,172,17,27,29,079,31,7*74
$GAGSV,2,2,08,19,28,241,26,15,14,039,19,04,12,300,,33,03,199,,7*7F
$GAGSV,2,1,05,13,55,081,44,21,54,011,37,26,43,172,19,27,29,079,35,1*77
$GAGSV,2,2,05,19,28,241,28,1*4F
$GBGSV,4,1,13,23,73,029,46,09,73,267,37,06,72,215,37,16,68,198,43,1*78
$GBGSV,4,2,13,40,61,328,44,07,60,308,41,43,59,037,41,39,58,187,24,1*72
$GBGSV,4,3,13,28,55,220,43,10,51,289,34,25,38,117,42,37,29,321,28,1*77
$GBGSV,4,4,13,34,12,040,25,1*43
$GBGSV,2,1,08,23,73,029,48,40,61,328,43,43,59,037,43,39,58,187,32,4*77
$GBGSV,2,2,08,28,55,220,38,25,38,117,41,37,29,321,41,34,12,040,20,4*7C
$GNACCURACY,2.7*13
$PAIRSAT,1,35,2,0,201,3,0,200,4,0,221,5,0,200,6,0,200,7,0,201,8,0,221,9,0,220,10,0,200,11,0,200,12,0,200,13,0,200,14,0,200,15,0,200,16,0,201,17,0,200,18,0,200,19,0,200,20,0,200,21,0,201,22,0,200,23,0,200,24,0,200,25,0,200,26,0,220,27,0,221,28,0,200,29,0,200,30,0,221,31,0,200,32,0,200,194,0,621,195,0,621,196,0,620,199,0,621*5A
$PAIRSAT,2,24,65,0,200,66,0,200,67,0,200,68,0,200,69,0,200,70,0,200,71,0,200,72,0,200,73,0,200,74,0,200,75,0,200,76,0,200,77,0,1,78,0,201,79,0,201,80,0,200,81,0,201,82,0,200,83,0,200,84,0,200,85,0,200,86,0,200,87,0,201,88,0,201*78
$PAIRSAT,3,23,2,0,1200,3,0,1200,4,0,1200,5,0,200,7,0,1200,8,0,1200,9,0,1200,10,0,1200,11,0,1200,12,0,1200,13,0,1221,15,0,220,19,0,200,21,0,221,24,0,1200,25,0,1200,26,0,1221,27,0,1221,30,0,1200,31,0,1200,33,0,1200,34,0,1000,36,0,1200*5B
$PAIRSAT,4,46,1,0,200,2,0,200,3,0,600,4,0,200,5,0,200,6,0,201,7,0,201,8,0,200,9,0,201,10,0,201,11,0,200,12,0,200,13,0,200,14,0,200,16,0,201,19,0,600,20,0,600,21,0,600,22,0,600,23,0,621,24,0,600,25,0,621,26,0,600,27,0,600,28,0,621,29,0,600,30,0,600,32,0,600,33,0,600,34,0,621,35,0,600,36,0,400,37,0,421,38,0,400,39,0,421,40,0,421,41,0,400,42,0,400,43,0,421,44,0,400,45,0,400,46,0,400,59,0,400,60,0,400,61,0,400,62,0,400*4A
$PAIRDGP,10,2,4,7,8,9,16,21,26,27,30*42
$GNGGA,040751.200,2500.7775377,N,12132.4560580,E,4,55,0.50,16.770,M,15.25,M,1,3335*4B
$GNRMC,040751.200,A,2500.7775377,N,12132.4560580,E,0.01,135.00,090324,,,R,V*19
$GPHDT,45.715,T*07
$GNACCURACY,2.7*13
$GNGGA,040751.300,2500.7775377,N,12132.4560607,E,4,55,0.50,16.796,M,15.25,M,1,3335*4E
$GNRMC,040751.300,A,2500.7775377,N,12132.4560607,E,0.00,135.00,090324,,,R,V*15
$GPHDT,,T*1B
$GNACCURACY,2.7*13
$GNGGA,040751.400,2500.7775382,N,12132.4560599,E,4,55,0.50,16.791,M,15.25,M,1,3335*40
$GNRMC,040751.400,A,2500.7775382,N,12132.4560599,E,0.00,135.00,090324,,,R,V*1C
$GPHDT,45.581,T*08
$GNACCURACY,2.7*13
$GNGGA,040751.500,2500.7775362,N,12132.4560575,E,4,55,0.50,16.777,M,15.25,M,1,3335*45
$GNRMC,040751.500,A,2500.7775362,N,12132.4560575,E,0.00,135.00,090324,,,R,V*11
$GPHDT,,T*1B
$GNACCURACY,2.7*13
$GNGGA,040751.600,2500.7775373,N,12132.4560555,E,4,55,0.50,16.769,M,15.25,M,0,3335*4A
$GNRMC,040751.600,A,2500.7775373,N,12132.4560555,E,0.02,135.00,090324,,,R,V*12
$GPHDT,45.449,T*0D
$GNACCURACY,2.7*13
$GNGGA,040751.700,2500.7775364,N,12132.4560556,E,4,55,0.50,16.770,M,15.25,M,0,3335*46
$GNRMC,040751.700,A,2500.7775364,N,12132.4560556,E,0.01,135.00,090324,,,R,V*15
$GPHDT,,T*1B
$GNACCURACY,2.7*13
$GNGGA,040751.800,2500.7775359,N,12132.4560534,E,4,55,0.50,16.751,M,15.25,M,0,3335*40
$GNRMC,040751.800,A,2500.7775359,N,12132.4560534,E,0.01,135.00,090324,,,R,V*10
$GPHDT,45.430,T*03
$GNACCURACY,2.7*13
$GNGGA,040751.900,2500.7775385,N,12132.4560523,E,4,55,0.50,16.758,M,15.25,M,0,3335*4F
$GNRMC,040751.900,A,2500.7775385,N,12132.4560523,E,0.02,135.00,090324,,,R,V*15
$GPHDT,,T*1B
$GNACCURACY,2.7*13
$GNGGA,040752.000,2500.7775380,N,12132.4560535,E,4,55,0.50,16.759,M,15.25,M,1,3335*47
$GNRMC,040752.000,A,2500.7775380,N,12132.4560535,E,0.02,135.00,090324,,,R,V*1D
$GPHDT,44.808,T*05
$GNACCURACY,2.7*13
$GNGGA,040752.100,2500.7775380,N,12132.4560557,E,4,55,0.50,16.766,M,15.25,M,1,3335*4E
$GNRMC,040752.100,A,2500.7775380,N,12132.4560557,E,0.02,135.00,090324,,,R,V*18
$GPHDT,,T*1B
$GNGSA,A,3,194,195,08,199,21,07,27,16,09,196,04,30,0.77,0.50,0.58,1*07
$GNGSA,A,3,81,78,88,79,77,,,,,,,,0.77,0.50,0.58,2*02
$GNGSA,A,3,13,21,26,27,15,,,,,,,,0.77,0.50,0.58,3*0F
$GNGSA,A,3,09,23,06,16,40,07,43,39,28,10,25,37,0.77,0.50,0.58,4*03
$GNGSA,A,3,34,,,,,,,,,,,,0.77,0.50,0.58,4*0B
$GPGSV,4,1,15,194,64,052,42,195,64,114,46,08,63,354,39,50,60,167,29,1*6E
$GPGSV,4,2,15,199,60,167,26,21,59,156,41,02,47,177,24,07,41,317,40,1*58
$GPGSV,4,3,15,27,33,035,27,16,28,075,37,09,24,247,25,196,19,169,19,1*53
$GPGSV,4,4,15,04,18,203,26,30,11,320,27,26,08,099,17,1*55
$GPGSV,2,1,08,194,64,052,45,195,64,114,45,08,63,354,48,199,60,167,36,8*55
$GPGSV,2,2,08,27,33,035,31,09,24,247,30,04,18,203,21,30,11,320,30,8*67
$GLGSV,2,1,08,81,64,200,45,78,56,036,39,88,56,032,37,79,25,333,29,1*7F
$GLGSV,2,2,08,77,24,110,23,69,04,282,,87,03,026,16,68,02,237,,1*71
$GAGSV,2,1,08,13,55,081,40,21,54,011,31,26,43,172,18,27,29,079,31,7*7B
$GAGSV,2,2,08,19,28,241,25,15,14,039,19,04,12,300,,33,03,199,,7*7C
$GAGSV,1,1,04,13,55,081,44,21,54,011,37,27,29,079,34,19,28,241,30,1*7D
$GBGSV,4,1,13,09,73,267,36,23,73,029,46,06,72,215,39,16,68,198,43,1*77
$GBGSV,4,2,13,40,61,328,44,07,60,308,40,43,59,037,42,39,58,187,25,1*71
$GBGSV,4,3,13,28,55,220,43,10,51,289,36,25,38,117,42,37,29,321,38,1*74
$GBGSV,4,4,13,34,12,040,25,1*43
$GBGSV,2,1,08,23,73,029,48,40,61,328,42,43,59,037,43,39,58,187,34,4*70
$GBGSV,2,2,08,28,55,220,36,25,38,117,41,37,29,321,42,34,12,040,20,4*71
$GNACCURACY,2.7*13
$PAIRSAT,1,35,2,0,201,3,0,200,4,0,221,5,0,200,6,0,200,7,0,201,8,0,221,9,0,220,10,0,200,11,0,200,12,0,200,13,0,200,14,0,200,15,0,200,16,0,201,17,0,200,18,0,200,19,0,200,20,0,200,21,0,201,22,0,200,23,0,200,24,0,200,25,0,200,26,0,220,27,0,221,28,0,200,29,0,200,30,0,221,31,0,200,32,0,200,194,0,621,195,0,621,196,0,620,199,0,621*5A
$PAIRSAT,2,24,65,0,200,66,0,200,67,0,200,68,0,200,69,0,200,70,0,200,71,0,200,72,0,200,73,0,200,74,0,200,75,0,200,76,0,200,77,0,1,78,0,201,79,0,201,80,0,200,81,0,201,82,0,200,83,0,200,84,0,200,85,0,200,86,0,200,87,0,201,88,0,201*78
$PAIRSAT,3,23,2,0,1200,3,0,1200,4,0,1200,5,0,200,7,0,1200,8,0,1200,9,0,1200,10,0,1200,11,0,1200,12,0,1200,13,0,1221,15,0,220,19,0,200,21,0,221,24,0,1200,25,0,1200,26,0,1221,27,0,1221,30,0,1200,31,0,1200,33,0,1200,34,0,1000,36,0,1200*5B
$PAIRSAT,4,46,1,0,200,2,0,200,3,0,600,4,0,200,5,0,200,6,0,201,7,0,201,8,0,200,9,0,201,10,0,201,11,0,200,12,0,200,13,0,200,14,0,200,16,0,201,19,0,600,20,0,600,21,0,600,22,0,600,23,0,621,24,0,600,25,0,621,26,0,600,27,0,600,28,0,621,29,0,600,30,0,600,32,0,600,33,0,600,34,0,621,35,0,600,36,0,400,37,0,421,38,0,400,39,0,421,40,0,421,41,0,400,42,0,400,43,0,421,44,0,400,45,0,400,46,0,400,59,0,400,60,0,400,61,0,400,62,0,400*4A
$PAIRDGP,10,2,4,7,8,9,16,21,26,27,30*42
$GNGGA,040752.200,2500.7775397,N,12132.4560557,E,4,54,0.50,16.763,M,15.25,M,1,3335*4F
$GNRMC,040752.200,A,2500.7775397,N,12132.4560557,E,0.02,135.00,090324,,,R,V*1D
$GPHDT,44.499,T*01
$GNACCURACY,2.7*13
$GNGGA,040752.300,2500.7775384,N,12132.4560581,E,4,55,0.50,16.760,M,15.25,M,1,3335*45
$GNRMC,040752.300,A,2500.7775384,N,12132.4560581,E,0.02,135.00,090324,,,R,V*15
$GPHDT,,T*1B
$GNACCURACY,2.7*13
$GNGGA,040752.400,2500.7775377,N,12132.4560591,E,4,54,0.50,16.763,M,15.25,M,1,3335*4D
$GNRMC,040752.400,A,2500.7775377,N,12132.4560591,E,0.03,135.00,090324,,,R,V*1E
$GPHDT,43.683,T*0F
$GNACCURACY,2.7*13
$GNGGA,040752.500,2500.7775346,N,12132.4560636,E,4,53,0.50,16.764,M,15.25,M,1,3335*40
$GNRMC,040752.500,A,2500.7775346,N,12132.4560636,E,0.04,135.00,090324,,,R,V*14
$GPHDT,,T*1B
$GNACCURACY,2.7*13
$GNGGA,040752.600,2500.7775388,N,12132.4560581,E,4,53,0.50,16.753,M,15.25,M,0,3335*4B
$GNRMC,040752.600,A,2500.7775388,N,12132.4560581,E,0.03,135.00,090324,,,R,V*1D
$GPHDT,42.383,T*0B
$GNACCURACY,2.7*13
$GNGGA,040752.700,2500.7775461,N,12132.4560504,E,4,53,0.50,16.781,M,15.25,M,0,3335*48
$GNRMC,040752.700,A,2500.7775461,N,12132.4560504,E,0.06,135.00,090324,,,R,V*14
$GPHDT,,T*1B
$GNACCURACY,2.7*13
$GNGGA,040752.800,2500.7775462,N,12132.4560400,E,4,53,0.50,16.765,M,15.25,M,0,3335*4B
$GNRMC,040752.800,A,2500.7775462,N,12132.4560400,E,0.08,135.00,090324,,,R,V*13
$GPHDT,42.193,T*08
$GNACCURACY,2.7*13
$GNGGA,040752.900,2500.7775477,N,12132.4560289,E,4,53,0.50,16.770,M,15.25,M,0,3335*4D
$GNRMC,040752.900,A,2500.7775477,N,12132.4560289,E,0.08,135.00,090324,,,R,V*11
$GPHDT,,T*1B
$GNACCURACY,2.7*13
$GNGGA,040753.000,2500.7775511,N,12132.4560285,E,4,53,0.50,16.831,M,15.25,M,1,3335*43
$GNRMC,040753.000,A,2500.7775511,N,12132.4560285,E,0.06,135.00,090324,,,R,V*1A
$GPHDT,41.128,T*0B
$GN