$FW : RTK35X,V1.1X0314AS,Lib20210517,1*54
$Tool : LOCOSYS , GNSS Firebird , v1.0.0.19*39
$---------------------------------------------------*2D
$GNACCURACY,2.8*1C
$GNGGA,040916.700,2500.7775316,N,12132.4560598,E,4,54,0.49,16.755,M,15.25,M,0,3335*42
$GNRMC,040916.700,A,2500.7775316,N,12132.4560598,E,0.01,135.00,090324,,,R,V*1F
$GPHDT,,T*1B
$GNACCURACY,2.8*1C
$GNGGA,040916.800,2500.7775288,N,12132.4560612,E,4,54,0.49,16.752,M,15.25,M,0,3335*4D
$GNRMC,040916.800,A,2500.7775288,N,12132.4560612,E,0.02,135.00,090324,,,R,V*14
$GPHDT,134.498,T*36
$GNACCURACY,2.8*1C
$GNGGA,040916.900,2500.7775237,N,12132.4560612,E,4,54,0.49,16.744,M,15.25,M,0,3335*4F
$GNRMC,040916.900,A,2500.7775237,N,12132.4560612,E,0.02,135.00,090324,,,R,V*11
$GPHDT,,T*1B
$GNACCURACY,2.8*1C
$GNGGA,040917.000,2500.7775279,N,12132.4560600,E,4,55,0.49,16.742,M,15.25,M,1,3335*48
$GNRMC,040917.000,A,2500.7775279,N,12132.4560600,E,0.02,135.00,090324,,,R,V*10
$GPHDT,133.819,T*34
$GNACCURACY,2.8*1C
$GNGGA,040917.100,2500.7775404,N,12132.4560693,E,4,55,0.49,16.769,M,15.25,M,1,3335*46
$GNRMC,040917.100,A,2500.7775404,N,12132.4560693,E,0.04,135.00,090324,,,R,V*11
$GPHDT,,T*1B
$GNGSA,A,3,195,194,08,199,21,02,07,27,16,09,196,04,0.77,0.49,0.59,1*0F
$GNGSA,A,3,30,,,,,,,,,,,,0.77,0.49,0.59,1*03
$GNGSA,A,3,81,78,88,79,77,,,,,,,,0.77,0.49,0.59,2*0B
$GNGSA,A,3,13,21,26,27,19,15,,,,,,,0.77,0.49,0.59,3*0E
$GNGSA,A,3,23,09,06,16,40,07,43,39,28,10,25,37,0.77,0.49,0.59,4*0A
$GPGSV,4,1,15,195,64,114,44,194,64,052,41,08,62,355,39,50,60,167,30,1*67
$GPGSV,4,2,15,199,60,167,27,21,60,156,40,02,48,177,25,07,41,316,34,1*5E
$GPGSV,4,3,15,27,33,036,31,16,27,075,41,09,23,246,24,196,19,169,17,1*50
$GPGSV,4,4,15,04,18,203,17,30,11,320,33,26,08,099,20,1*56
$GPGSV,2,1,08,194,64,052,44,195,64,114,45,08,62,355,39,199,60,167,29,8*5C
$GPGSV,2,2,08,27,33,036,28,09,23,246,26,196,19,169,20,30,11,320,36,8*5E
$GLGSV,2,1,06,81,65,201,44,78,57,037,35,88,55,031,35,79,26,334,29,1*7A
$GLGSV,2,2,06,77,23,110,31,87,03,026,,1*75
$GAGSV,2,1,08,13,55,081,43,21,54,012,19,26,44,172,19,27,29,079,41,7*70
$GAGSV,2,2,08,19,27,241,30,15,14,039,16,04,12,299,,33,04,199,,7*7E
$GAGSV,1,1,04,13,55,081,44,21,54,012,29,27,29,079,43,19,27,241,25,1*7A
$GBGSV,4,1,13,23,74,031,41,09,73,266,41,06,71,215,39,16,68,199,43,1*7D
$GBGSV,4,2,13,40,60,329,38,07,60,308,36,43,58,036,34,39,58,187,30,1*7E
$GBGSV,4,3,13,28,56,221,42,10,51,289,29,25,37,118,43,37,30,321,39,1*71
$GBGSV,4,4,13,34,11,040,,1*47
$GBGSV,2,1,07,23,74,031,43,40,60,329,37,39,58,187,28,43,58,036,38,4*79
$GBGSV,2,2,07,28,56,221,39,25,37,118,42,37,30,321,41,4*49
$GNACCURACY,2.8*1C
$PAIRSAT,1,35,2,0,201,3,0,200,4,0,221,5,0,200,6,0,200,7,0,201,8,0,221,9,0,220,10,0,200,11,0,200,12,0,200,13,0,200,14,0,200,15,0,200,16,0,201,17,0,200,18,0,200,19,0,200,20,0,200,21,0,201,22,0,200,23,0,200,24,0,200,25,0,200,26,0,220,27,0,221,28,0,200,29,0,200,30,0,221,31,0,200,32,0,200,194,0,621,195,0,621,196,0,620,199,0,621*5A
$PAIRSAT,2,24,65,0,200,66,0,200,67,0,200,68,0,200,69,0,200,70,0,200,71,0,200,72,0,200,73,0,200,74,0,200,75,0,200,76,0,200,77,0,201,78,0,201,79,0,201,80,0,200,81,0,201,82,0,200,83,0,200,84,0,200,85,0,200,86,0,200,87,0,201,88,0,201*7A
$PAIRSAT,3,23,2,0,1200,3,0,1200,4,0,1200,5,0,200,7,0,1200,8,0,1200,9,0,1200,10,0,1200,11,0,1200,12,0,1200,13,0,1221,15,0,1220,19,0,1201,21,0,1221,24,0,1200,25,0,1200,26,0,1221,27,0,1221,30,0,1200,31,0,1200,33,0,1200,34,0,1000,36,0,1200*6B
$PAIRSAT,4,46,1,0,200,2,0,200,3,0,600,4,0,200,5,0,200,6,0,201,7,0,201,8,0,200,9,0,201,10,0,201,11,0,200,12,0,200,13,0,200,14,0,200,16,0,201,19,0,600,20,0,600,21,0,600,22,0,600,23,0,621,24,0,600,25,0,621,26,0,600,27,0,600,28,0,621,29,0,600,30,0,600,32,0,600,33,0,600,34,0,621,35,0,600,36,0,600,37,0,621,38,0,600,39,0,421,40,0,421,41,0,400,42,0,400,43,0,421,44,0,400,45,0,400,46,0,400,59,0,400,60,0,400,61,0,400,62,0,400*48
$PAIRDGP,10,2,4,7,8,9,16,21,26,27,30*42
$GNGGA,040917.200,2500.7775260,N,12132.4560439,E,4,55,0.49,16.715,M,15.25,M,1,3335*48
$GNRMC,040917.200,A,2500.7775260,N,12132.4560439,E,0.03,135.00,090324,,,R,V*13
$GPHDT,132.883,T*36
$GNACCURACY,2.8*1C
$GNGGA,040917.300,2500.7775296,N,12132.4560671,E,4,55,0.49,16.759,M,15.25,M,1,3335*46
$GNRMC,040917.300,A,2500.7775296,N,12132.4560671,E,0.04,135.00,090324,,,R,V*12
$GPHDT,,T*1B
$GNACCURACY,2.8*1C
$GNGGA,040917.400,2500.7775350,N,12132.4560625,E,4,54,0.50,16.758,M,15.25,M,1,3335*43
$GNRMC,040917.400,A,2500.7775350,N,12132.4560625,E,0.04,135.00,090324,,,R,V*1F
$GPHDT,135.447,T*35
$GNACCURACY,2.8*1C
$GNGGA,040917.500,2500.7775325,N,12132.4560587,E,4,55,0.48,16.754,M,15.25,M,0,3335*4E
$GNRMC,040917.500,A,2500.7775325,N,12132.4560587,E,0.03,135.00,090324,,,R,V*10
$GPHDT,,T*1B
$GNACCURACY,2.8*1C
$GNGGA,040917.600,2500.7775364,N,12132.4560645,E,4,56,0.48,16.767,M,15.25,M,0,3335*46
$GNRMC,040917.600,A,2500.7775364,N,12132.4560645,E,0.03,135.00,090324,,,R,V*1B
$GPHDT,136.021,T*32
$GNACCURACY,2.8*1C
$GNGGA,040917.700,2500.7775314,N,12132.4560629,E,4,56,0.47,16.773,M,15.25,M,0,3335*40
$GNRMC,040917.700,A,2500.7775314,N,12132.4560629,E,0.03,135.00,090324,,,R,V*17
$GPHDT,,T*1B
$GNACCURACY,2.8*1C
$GNGGA,040917.800,2500.7775336,N,12132.4560608,E,4,56,0.48,16.757,M,15.25,M,0,3335*45
$GNRMC,040917.800,A,2500.7775336,N,12132.4560608,E,0.03,135.00,090324,,,R,V*1B
$GPHDT,135.036,T*37
$GNACCURACY,2.8*1C
$GNGGA,040917.900,2500.7775354,N,12132.4560590,E,4,56,0.47,16.760,M,15.25,M,0,3335*49
$GNRMC,040917.900,A,2500.7775354,N,12132.4560590,E,0.03,135.00,090324,,,R,V*1C
$GPHDT,,T*1B
$GNACCURACY,2.8*1C
$GNGGA,040918.000,2500.7775308,N,12132.4560637,E,4,56,0.47,16.765,M,15.25,M,1,3335*4C
$GNRMC,040918.000,A,2500.7775308,N,12132.4560637,E,0.03,135.00,090324,,,R,V*1D
$GPHDT,135.361,T*36
$GNACCURACY,2.8*1C
$GNGGA,040918.100,2500.7775319,N,12132.4560582,E,4,56,0.47,16.749,M,15.25,M,1,3335*4E
$GNRMC,040918.100,A,2500.7775319,N,12132.4560582,E,0.03,135.00,090324,,,R,V*11
$GPHDT,,T*1B
$GNGSA,A,3,195,194,08,199,21,02,07,27,16,09,196,04,0.74,0.47,0.57,1*0C
$GNGSA,A,3,30,,,,,,,,,,,,0.74,0.47,0.57,1*00
$GNGSA,A,3,81,78,88,79,77,,,,,,,,0.74,0.47,0.57,2*08
$GNGSA,A,3,13,21,26,27,19,15,,,,,,,0.74,0.47,0.57,3*0D
$GNGSA,A,3,23,09,06,16,07,40,39,43,28,10,25,37,0.74,0.47,0.57,4*09
$GNGSA,A,3,34,,,,,,,,,,,,0.74,0.47,0.57,4*01
$GPGSV,4,1,15,195,64,114,44,194,64,052,42,08,62,355,38,50,60,167,31,1*64
$GPGSV,4,2,15,199,60,167,28,21,60,156,40,02,48,177,26,07,41,316,34,1*52
$GPGSV,4,3,15,27,33,036,29,16,27,075,41,09,23,246,23,196,19,169,19,1*50
$GPGSV,4,4,15,04,18,203,17,30,11,320,34,26,08,099,19,1*5B
$GPGSV,2,1,08,194,64,052,44,195,64,114,45,08,62,355,42,199,60,167,30,8*58
$GPGSV,2,2,08,27,33,036,26,09,23,246,23,196,19,169,20,30,11,320,36,8*55
$GLGSV,2,1,07,81,65,201,44,78,57,037,37,88,55,031,35,79,26,334,29,1*79
$GLGSV,2,2,07,77,23,110,29,69,04,281,,87,03,026,,1*4D
$GAGSV,2,1,08,13,55,081,43,21,54,012,19,26,44,172,19,27,29,079,41,7*70
$GAGSV,2,2,08,19,27,241,30,15,14,039,16,04,12,299,,33,04,199,,7*7E
$GAGSV,1,1,04,13,55,081,44,21,54,012,29,27,29,079,44,19,27,241,24,1*7C
$GBGSV,4,1,13,23,74,031,41,09,73,266,40,06,71,215,38,16,68,199,43,1*7D
$GBGSV,4,2,13,07,60,308,39,40,60,329,40,39,58,187,30,43,58,036,37,1*7D
$GBGSV,4,3,13,28,56,221,42,10,51,289,33,25,37,118,43,37,30,321,37,1*74
$GBGSV,4,4,13,34,11,040,26,1*43
$GBGSV,2,1,07,23,74,031,43,40,60,329,39,39,58,187,30,43,58,036,39,4*7F
$GBGSV,2,2,07,28,56,221,40,25,37,118,42,37,30,321,41,4*47
$GNACCURACY,2.8*1C
$PAIRSAT,1,35,2,0,201,3,0,200,4,0,221,5,0,200,6,0,200,7,0,201,8,0,221,9,0,220,10,0,200,11,0,200,12,0,200,13,0,200,14,0,200,15,0,200,16,0,201,17,0,200,18,0,200,19,0,200,20,0,200,21,0,201,22,0,200,23,0,200,24,0,200,25,0,200,26,0,220,27,0,221,28,0,200,29,0,200,30,0,221,31,0,200,32,0,200,194,0,621,195,0,621,196,0,620,199,0,621*5A
$PAIRSAT,2,24,65,0,200,66,0,200,67,0,200,68,0,200,69,0,200,70,0,200,71,0,200,72,0,200,73,0,200,74,0,200,75,0,200,76,0,200,77,0,201,78,0,201,79,0,201,80,0,200,81,0,201,82,0,200,83,0,200,84,0,200,85,0,200,86,0,200,87,0,201,88,0,201*7A
$PAIRSAT,3,23,2,0,1200,3,0,1200,4,0,1200,5,0,200,7,0,1200,8,0,1200,9,0,1200,10,0,1200,11,0,1200,12,0,1200,13,0,1221,15,0,1220,19,0,1201,21,0,1221,24,0,1200,25,0,1200,26,0,1221,27,0,1221,30,0,1200,31,0,1200,33,0,1200,34,0,1000,36,0,1200*6B
$PAIRSAT,4,46,1,0,200,2,0,200,3,0,600,4,0,200,5,0,200,6,0,201,7,0,201,8,0,200,9,0,201,10,0,201,11,0,200,12,0,200,13,0,200,14,0,200,16,0,201,19,0,600,20,0,600,21,0,600,22,0,600,23,0,621,24,0,600,25,0,621,26,0,600,27,0,600,28,0,621,29,0,600,30,0,600,32,0,600,33,0,600,34,0,621,35,0,600,36,0,600,37,0,621,38,0,600,39,0,421,40,0,421,41,0,400,42,0,400,43,0,421,44,0,400,45,0,400,46,0,400,59,0,400,60,0,400,61,0,400,62,0,400*48
$PAIRDGP,10,2,4,7,8,9,16,21,26,27,30*42
$GNGGA,040918.200,2500.7775311,N,12132.4560570,E,4,56,0.47,16.746,M,15.25,M,1,3335*47
$GNRMC,040918.200,A,2500.7775311,N,12132.4560570,E,0.02,135.00,090324,,,R,V*16
$GPHDT,135.006,T*34
$GNACCURACY,2.8*1C
$GNGGA,040918.300,2500.7775278,N,12132.4560566,E,4,56,0.47,16.762,M,15.25,M,1,3335*49
$GNRMC,040918.300,A,2500.7775278,N,12132.4560566,E,0.02,135.00,090324,,,R,V*1E
$GPHDT,,T*1B
$GNACCURACY,2.8*1C
$GNGGA,040918.400,2500.7775284,N,12132.4560603,E,4,56,0.47,16.754,M,15.25,M,1,3335*48
$GNRMC,040918.400,A,2500.7775284,N,12132.4560603,E,0.03,135.00,090324,,,R,V*1B
$GPHDT,135.136,T*36
$GNACCURACY,2.8*1C
$GNGGA,040918.500,2500.7775268,N,12132.4560601,E,4,56,0.47,16.751,M,15.25,M,1,3335*4C
$GNRMC,040918.500,A,2500.7775268,N,12132.4560601,E,0.03,135.00,090324,,,R,V*1A
$GPHDT,,T*1B
$GNACCURACY,2.8*1C
$GNGGA,040918.600,2500.7775284,N,12132.4560626,E,4,57,0.47,16.765,M,15.25,M,0,3335*4F
$GNRMC,040918.600,A,2500.7775284,N,12132.4560626,E,0.03,135.00,090324,,,R,V*1E
$GPHDT,134.872,T*3E
$GNACCURACY,2.8*1C
$GNGGA,040918.700,2500.7775252,N,12132.4560606,E,4,58,0.47,16.759,M,15.25,M,0,3335*47
$GNRMC,040918.700,A,2500.7775252,N,12132.4560606,E,0.03,135.00,090324,,,R,V*16
$GPHDT,,T*1B
$GNACCURACY,2.8*1C
$GNGGA,040918.800,2500.7775307,N,12132.4560625,E,4,58,0.47,16.763,M,15.25,M,0,3335*41
$GNRMC,040918.800,A,2500.7775307,N,12132.4560625,E,0.03,135.00,090324,,,R,V*19
$GPHDT,135.071,T*34
$GNACCURACY,2.8*1C
$GNGGA,040918.900,2500.7775283,N,12132.4560617,E,4,58,0.47,16.754,M,15.25,M,0,3335*48
$GNRMC,040918.900,A,2500.7775283,N,12132.4560617,E,0.03,135.00,090324,,,R,V*14
$GPHDT,,T*1B
$GNACCURACY,2.8*1C
$GNGGA,040919.000,2500.7775280,N,12132.4560594,E,4,58,0.47,16.763,M,15.25,M,1,3335*4E
$GNRMC,040919.000,A,2500.7775280,N,12132.4560594,E,0.02,135.00,090324,,,R,V*16
$GPHDT,134.698,T*34
$GNACCURACY,2.8*1C
$GNGGA,040919.100,2500.7775288,N,12132.4560578,E,4,58,0.47,16.759,M,15.25,M,1,3335*4C
$GNRMC,040919.100,A,2500.7775288,N,12132.4560578,E,0.01,135.00,090324,,,R,V*1E
$GPHDT,,T*1B
$GNGSA,A,3,195,194,08,199,21,02,07,27,16,09,196,04,0.74,0.47,0.57,1*0C
$GNGSA,A,3,30,,,,,,,,,,,,0.74,0.47,0.57,1*00
$GNGSA,A,3,81,78,88,79,77,,,,,,,,0.74,0.47,0.57,2*08
$GNGSA,A,3,13,21,26,27,19,15,,,,,,,0.74,0.47,0.57,3*0D
$GNGSA,A,3,23,09,06,16,07,40,43,39,28,10,25,37,0.74,0.47,0.57,4*09
$GNGSA,A,3,34,,,,,,,,,,,,0.74,0.47,0.57,4*01
$GPGSV,4,1,15,195,64,114,44,194,64,052,42,08,62,355,40,50,60,167,30,1*6A
$GPGSV,4,2,15,199,60,167,28,21,60,156,39,02,48,177,27,07,41,316,39,1*50
$GPGSV,4,3,15,27,33,036,25,16,27,075,42,09,23,246,26,196,19,169,19,1*5A
$GPGSV,4,4,15,04,18,203,16,30,11,320,36,26,08,099,18,1*59
$GPGSV,3,1,09,194,64,052,46,195,64,114,44,08,62,355,43,199,60,167,30,8*5A
$GPGSV,3,2,09,27,33,036,29,09,23,246,28,196,19,169,19,04,18,203,17,8*56
$GPGSV,3,3,09,30,11,320,39,8*5C
$GLGSV,2,1,08,81,65,201,45,78,57,037,38,88,55,031,36,79,26,334,31,1*72
$GLGSV,2,2,08,77,23,110,31,69,04,281,,87,03,026,,68,02,236,,1*70
$GAGSV,2,1,08,13,55,081,43,21,54,012,16,26,44,172,20,27,29,079,42,7*76
$GAGSV,2,2,08,19,27,241,30,15,14,039,14,04,12,299,,33,04,199,,7*7C
$GAGSV,2,1,05,13,55,081,45,21,54,012,31,26,44,172,18,27,29,079,45,1*72
$GAGSV,2,2,05,19,27,241,27,1*4F
$GBGSV,4,1,13,23,74,031,42,09,73,266,40,06,71,215,39,16,68,199,43,1*7F
$GBGSV,4,2,13,07,60,308,38,40,60,329,42,43,58,036,38,39,58,187,27,1*77
$GBGSV,4,3,13,28,56,221,42,10,51,289,28,25,37,118,42,37,30,321,40,1*7F
$GBGSV,4,4,13,34,11,040,27,1*42
$GBGSV,2,1,07,23,74,031,44,40,60,329,42,39,58,187,29,43,58,036,40,4*72
$GBGSV,2,2,07,28,56,221,37,25,37,118,42,37,30,321,42,4*44
$GNACCURACY,2.8*1C
$PAIRSAT,1,35,2,0,201,3,0,200,4,0,221,5,0,200,6,0,200,7,0,201,8,0,221,9,0,220,10,0,200,11,0,200,12,0,200,13,0,200,14,0,200,15,0,200,16,0,201,17,0,200,18,0,200,19,0,200,20,0,200,21,0,201,22,0,200,23,0,200,24,0,200,25,0,200,26,0,220,27,0,221,28,0,200,29,0,200,30,0,221,31,0,200,32,0,200,194,0,621,195,0,621,196,0,620,199,0,621*5A
$PAIRSAT,2,24,65,0,200,66,0,200,67,0,200,68,0,200,69,0,200,70,0,200,71,0,200,72,0,200,73,0,200,74,0,200,75,0,200,76,0,200,77,0,201,78,0,201,79,0,201,80,0,200,81,0,201,82,0,200,83,0,200,84,0,200,85,0,200,86,0,200,87,0,201,88,0,201*7A
$PAIRSAT,3,23,2,0,1200,3,0,1200,4,0,1200,5,0,200,7,0,1200,8,0,1200,9,0,1200,10,0,1200,11,0,1200,12,0,1200,13,0,1221,15,0,1220,19,0,1201,21,0,1221,24,0,1200,25,0,1200,26,0,1221,27,0,1221,30,0,1200,31,0,1200,33,0,1200,34,0,1000,36,0,1200*6B
$PAIRSAT,4,46,1,0,200,2,0,200,3,0,600,4,0,200,5,0,200,6,0,201,7,0,201,8,0,200,9,0,201,10,0,201,11,0,200,12,0,200,13,0,200,14,0,200,16,0,201,19,0,600,20,0,600,21,0,600,22,0,600,23,0,621,24,0,600,25,0,621,26,0,600,27,0,600,28,0,621,29,0,600,30,0,600,32,0,600,33,0,600,34,0,621,35,0,600,36,0,600,37,0,621,38,0,600,39,0,421,40,0,421,41,0,400,42,0,400,43,0,421,44,0,400,45,0,400,46,0,400,59,0,400,60,0,400,61,0,400,62,0,400*48
$PAIRDGP,10,2,4,7,8,9,16,21,26,27,30*42
$GNGGA,040919.200,2500.7775290,N,12132.4560573,E,4,58,0.47,16.762,M,15.25,M,1,3335*45
$GNRMC,040919.200,A,2500.7775290,N,12132.4560573,E,0.01,135.00,090324,,,R,V*1F
$GPHDT,134.325,T*37
$GNACCURACY,2.8*1C
$GNGGA,040919.300,2500.7775273,N,12132.4560547,E,4,58,0.47,16.765,M,15.25,M,1,3335*49
$GNRMC,040919.300,A,2500.7775273,N,12132.4560547,E,0.02,135.00,090324,,,R,V*17
$GPHDT,,T*1B
$GNACCURACY,2.8*1C
$GNGGA,040919.400,2500.7775273,N,12132.4560559,E,4,58,0.47,16.764,M,15.25,M,1,3335*40
$GNRMC,040919.400,A,2500.7775273,N,12132.4560559,E,0.03,135.00,090324,,,R,V*1E
$GPHDT,133.885,T*31
$GNACCURACY,2.8*1C
$GNGGA,040919.500,2500.7775246,N,12132.4560565,E,4,58,0.47,16.762,M,15.25,M,1,3335*4E
$GNRMC,040919.500,A,2500.7775246,N,12132.4560565,E,0.03,135.00,090324,,,R,V*16
$GPHDT,,T*1B
$GNACCURACY,2.8*1C
$GNGGA,040919.600,2500.7775283,N,12132.4560560,E,4,57,0.49,16.753,M,15.25,M,0,3335*43
$GNRMC,040919.600,A,2500.7775283,N,12132.4560560,E,0.03,135.00,090324,,,R,V*19
$GPHDT,134.405,T*32
$GNACCURACY,2.8*1C
$GNGGA,040919.700,2500.7775238,N,12132.4560537,E,4,57,0.49,16.759,M,15.25,M,0,3335*4A
$GNRMC,040919.700,A,2500.7775238,N,12132.4560537,E,0.03,135.00,090324,,,R,V*1A
$GPHDT,,T*1B
$GNACCURACY,2.8*1C
$GNGGA,040919.800,2500.7775244,N,12132.4560510,E,4,56,0.50,16.740,M,15.25,M,0,3335*4A
$GNRMC,040919.800,A,2500.7775244,N,12132.4560510,E,0.03,135.00,090324,,,R,V*1B
$GPHDT,134.007,T*34
$GNACCURACY,2.8*1C
$GNGGA,040919.900,2500.7775320,N,12132.4560498,E,4,56,0.50,16.752,M,15.25,M,0,3335*4A
$GNRMC,040919.900,A,2500.7775320,N,12132.4560498,E,0.03,135.00,090324,,,R,V*18
$GPHDT,,T*1B
$GNACCURACY,2.8*1C
$GNGGA,040920.000,2500.7775339,N,12132.4560615,E,4,56,0.50,16.766,M,15.25,M,1,3335*40
$GNRMC,040920.000,A,2500.7775339,N,12132.4560615,E,0.03,135.00,090324,,,R,V*14
$GPHDT,135.396,T*3E
$GNACCURACY,2.8*1C
$GNGGA,040920.100,2500.7775301,N,12132.4560507,E,4,57,0.49,16.744,M,15.25,M,1,3335*43
$GNRMC,040920.100,A,2500.7775301,N,12132.4560507,E,0.02,135.00,090324,,,R,V*1F
$GPHDT,,T*1B
$GNGSA,A,3,195,194,08,199,21,02,07,27,16,09,196,04,0.74,0.47,0.57,1*0C
$GNGSA,A,3,30,,,,,,,,,,,,0.74,0.47,0.57,1*00
$GNGSA,A,3,81,78,88,79,77,,,,,,,,0.74,0.47,0.57,2*08
$GNGSA,A,3,13,21,26,27,19,15,,,,,,,0.74,0.47,0.57,3*0D
$GNGSA,A,3,23,09,06,16,40,07,43,39,28,10,25,37,0.74,0.47,0.57,4*09
$GNGSA,A,3,34,,,,,,,,,,,,0.74,0.47,0.57,4*01
$GPGSV,4,1,15,195,64,114,44,194,64,052,42,08,62,355,34,50,60,167,31,1*68
$GPGSV,4,2,15,199,60,167,28,21,60,156,38,02,48,177,24,07,41,316,35,1*5E
$GPGSV,4,3,15,27,33,036,24,16,27,075,43,09,23,246,26,196,19,169,19,1*5A
$GPGSV,4,4,15,04,18,203,15,30,11,320,35,26,08,099,16,1*57
$GPGSV,3,1,09,194,64,052,45,195,64,114,44,08,62,355,40,199,60,167,30,8*5A
$GPGSV,3,2,09,27,33,036,30,09,23,246,28,196,19,169,19,04,18,203,17,8*5E
$GPGSV,3,3,09,30,11,320,38,8*5D
$GLGSV,2,1,07,81,65,201,44,78,57,037,39,88,55,031,36,79,26,334,30,1*7C
$GLGSV,2,2,07,77,23,110,31,87,03,026,,68,02,236,,1*4F
$GAGSV,2,1,08,13,55,081,43,21,54,012,17,26,44,172,20,27,29,079,42,7*77
$GAGSV,2,2,08,19,27,241,30,15,14,039,17,04,12,299,,33,04,199,,7*7F
$GAGSV,2,1,05,13,55,081,45,21,54,012,26,26,44,172,20,27,29,079,45,1*7F
$GAGSV,2,2,05,19,27,241,25,1*4D
$GBGSV,4,1,15,23,74,031,42,09,73,266,40,06,71,215,40,16,68,199,43,1*77
$GBGSV,4,2,15,40,60,329,40,07,60,308,37,43,58,036,38,39,58,187,29,1*72
$GBGSV,4,3,15,28,56,221,42,10,51,289,34,25,37,118,42,37,30,321,39,1*7A
$GBGSV,4,4,15,34,11,040,25,38,10,168,,08,01,177,,1*4B
$GBGSV,2,1,07,23,74,031,44,40,60,329,36,39,58,187,29,43,58,036,39,4*7F
$GBGSV,2,2,07,28,56,221,39,25,37,118,43,37,30,321,42,4*4B
$GNACCURACY,2.8*1C
$PAIRSAT,1,35,2,0,201,3,0,200,4,0,221,5,0,200,6,0,200,7,0,201,8,0,221,9,0,220,10,0,200,11,0,200,12,0,200,13,0,200,14,0,200,15,0,200,16,0,201,17,0,200,18,0,200,19,0,200,20,0,200,21,0,201,22,0,200,23,0,200,24,0,200,25,0,200,26,0,220,27,0,221,28,0,200,29,0,200,30,0,221,31,0,200,32,0,200,194,0,621,195,0,621,196,0,620,199,0,621*5A
$PAIRSAT,2,24,65,0,200,66,0,200,67,0,200,68,0,200,69,0,200,70,0,200,71,0,200,72,0,200,73,0,200,74,0,200,75,0,200,76,0,200,77,0,201,78,0,201,79,0,201,80,0,200,81,0,201,82,0,200,83,0,200,84,0,200,85,0,200,86,0,200,87,0,201,88,0,201*7A
$PAIRSAT,3,23,2,0,1200,3,0,1200,4,0,1200,5,0,200,7,0,1200,8,0,1200,9,0,1200,10,0,1200,11,0,1200,12,0,1200,13,0,1221,15,0,1220,19,0,1201,21,0,1221,24,0,1200,25,0,1200,26,0,1221,27,0,1221,30,0,1200,31,0,1200,33,0,1200,34,0,1000,36,0,1200*6B
$PAIRSAT,4,46,1,0,200,2,0,200,3,0,600,4,0,200,5,0,200,6,0,201,7,0,201,8,0,200,9,0,201,10,0,201,11,0,200,12,0,200,13,0,200,14,0,200,16,0,201,19,0,600,20,0,600,21,0,600,22,0,600,23,0,621,24,0,600,25,0,621,26,0,600,27,0,600,28,0,621,29,0,600,30,0,600,32,0,600,33,0,600,34,0,621,35,0,600,36,0,600,37,0,621,38,0,600,39,0,421,40,0,421,41,0,400,42,0,400,43,0,421,44,0,400,45,0,400,46,0,400,59,0,400,60,0,400,61,0,400,62,0,400*48
$PAIRDGP,10,2,4,7,8,9,16,21,26,27,30*42
$GNGGA,040920.200,2500.7775310,N,12132.4560507,E,4,58,0.47,16.751,M,15.25,M,1,3335*45
$GNRMC,040920.200,A,2500.7775310,N,12132.4560507,E,0.01,135.00,090324,,,R,V*1F
$GPHDT,134.458,T*3A
$GNACCURACY,2.8*1C
$GNGGA,040920.300,2500.7775286,N,12132.4560549,E,4,58,0.47,16.744,M,15.25,M,1,3335*44
$GNRMC,040920.300,A,2500.7775286,N,12132.4560549,E,0.01,135.00,090324,,,R,V*1A
$GPHDT,,T*1B
$GNACCURACY,2.8*1C
$GNGGA,040920.400,2500.7775281,N,12132.4560542,E,4,58,0.47,16.742,M,15.25,M,1,3335*49
$GNRMC,040920.400,A,2500.7775281,N,12132.4560542,E,0.01,135.00,090324,,,R,V*11
$GPHDT,134.352,T*37
$GNACCURACY,2.8*1C
$GNGGA,040920.500,2500.7775275,N,12132.4560550,E,4,58,0.47,16.747,M,15.25,M,1,3335*45
$GNRMC,040920.500,A,2500.7775275,N,12132.4560550,E,0.02,135.00,090324,,,R,V*1B
$GPHDT,,T*1B
$GNACCURACY,2.8*1C
$GNGGA,040920.600,2500.7775281,N,12132.4560567,E,4,58,0.48,16.755,M,15.25,M,1,3335*45
$GNRMC,040920.600,A,2500.7775281,N,12132.4560567,E,0.02,135.00,090324,,,R,V*17
$GPHDT,134.630,T*36
$GNACCURACY,2.8*1C
$GNGGA,040920.700,2500.7775246,N,12132.4560591,E,4,58,0.47,16.755,M,15.25,M,0,3335*48
$GNRMC,040920.700,A,2500.7775246,N,12132.4560591,E,0.02,135.00,090324,,,R,V*14
$GPHDT,,T*1B
$GNACCURACY,2.8*1C
$GNGGA,040920.800,2500.7775261,N,12132.4560560,E,4,58,0.47,16.756,M,15.25,M,0,3335*4F
$GNRMC,040920.800,A,2500.7775261,N,12132.4560560,E,0.03,135.00,090324,,,R,V*11
$GPHDT,133.663,T*37
$GNACCURACY,2.8*1C
$GNGGA,040920.900,2500.7775270,N,12132.4560589,E,4,57,0.49,16.754,M,15.25,M,0,3335*4A
$GNRMC,040920.900,A,2500.7775270,N,12132.4560589,E,0.03,135.00,090324,,,R,V*17
$GPHDT,,T*1B
$GNACCURACY,2.8*1C
$GNGGA,040921.000,2500.7775265,N,12132.4560595,E,4,58,0.47,16.755,M,15.25,M,1,3335*4A
$GNRMC,040921.000,A,2500.7775265,N,12132.4560595,E,0.03,135.00,090324,,,R,V*16
$GPHDT,133.762,T*37
$GNACCURACY,2.8*1C
$GNGGA,040921.100,2500.7775259,N,12132.4560607,E,4,58,0.47,16.753,M,15.25,M,1,3335*4A
$GNRMC,040921.100,A,2500.7775259,N,12132.4560607,E,0.02,135.00,090324,,,R,V*11
$GPHDT,,T*1B
