$FW : RTK35X,V1.1X0314AS,Lib20210517,1*54
$Tool : LOCOSYS , GNSS Firebird , v1.0.0.19*39
$---------------------------------------------------*2D
$GPHDT,,T*1B
$GNACCURACY,2.7*13
$GNGGA,040757.600,2500.7775419,N,12132.4560583,E,4,54,0.50,16.761,M,15.25,M,0,3335*45
$GNRMC,040757.600,A,2500.7775419,N,12132.4560583,E,0.04,135.00,090324,,,R,V*12
$GPHDT,8.226,T*3B
$GNACCURACY,2.7*13
$GNGGA,040757.700,2500.7775397,N,12132.4560580,E,4,54,0.50,16.753,M,15.25,M,0,3335*47
$GNRMC,040757.700,A,2500.7775397,N,12132.4560580,E,0.03,135.00,090324,,,R,V*16
$GPHDT,,T*1B
$GNACCURACY,2.7*13
$GNGGA,040757.800,2500.7775390,N,12132.4560595,E,4,54,0.50,16.761,M,15.25,M,0,3335*4A
$GNRMC,040757.800,A,2500.7775390,N,12132.4560595,E,0.03,135.00,090324,,,R,V*1A
$GPHDT,7.987,T*34
$GNACCURACY,2.7*13
$GNGGA,040757.900,2500.7775401,N,12132.4560602,E,4,54,0.50,16.752,M,15.25,M,0,3335*49
$GNRMC,040757.900,A,2500.7775401,N,12132.4560602,E,0.03,135.00,090324,,,R,V*19
$GPHDT,,T*1B
$GNACCURACY,2.7*13
$GNGGA,040758.000,2500.7775425,N,12132.4560618,E,4,54,0.50,16.763,M,15.25,M,1,3335*41
$GNRMC,040758.000,A,2500.7775425,N,12132.4560618,E,0.02,135.00,090324,,,R,V*13
$GPHDT,7.963,T*3E
$GNACCURACY,2.7*13
$GNGGA,040758.100,2500.7775418,N,12132.4560615,E,4,54,0.50,16.758,M,15.25,M,1,3335*4B
$GNRMC,040758.100,A,2500.7775418,N,12132.4560615,E,0.02,135.00,090324,,,R,V*11
$GPHDT,,T*1B
$GNGSA,A,3,194,195,08,199,21,07,27,16,09,196,04,30,0.77,0.50,0.58,1*07
$GNGSA,A,3,81,78,88,79,77,,,,,,,,0.77,0.50,0.58,2*02
$GNGSA,A,3,13,21,26,27,15,,,,,,,,0.77,0.50,0.58,3*0F
$GNGSA,A,3,23,09,06,16,40,07,43,39,28,10,25,37,0.77,0.50,0.58,4*03
$GNGSA,A,3,34,,,,,,,,,,,,0.77,0.50,0.58,4*0B
$GPGSV,4,1,15,194,64,052,41,195,64,114,44,08,63,354,39,50,60,167,28,1*6E
$GPGSV,4,2,15,199,60,167,24,21,59,156,40,02,48,177,22,07,41,317,44,1*56
$GPGSV,4,3,15,27,33,035,19,16,28,075,41,09,24,247,19,196,19,169,16,1*5F
$GPGSV,4,4,15,04,18,203,23,30,11,320,37,26,08,099,16,1*50
$GPGSV,2,1,08,194,64,052,42,195,64,114,45,08,63,354,47,199,60,167,31,8*5A
$GPGSV,2,2,08,27,33,035,25,09,24,247,20,04,18,203,17,30,11,320,42,8*63
$GLGSV,2,1,06,81,64,200,45,78,56,036,37,88,56,032,35,79,25,333,36,1*73
$GLGSV,2,2,06,77,24,110,25,87,03,026,12,1*74
$GAGSV,2,1,07,13,55,081,45,21,54,011,29,26,43,172,18,27,29,079,40,7*7E
$GAGSV,2,2,07,19,28,241,27,15,14,039,20,04,12,300,,7*49
$GAGSV,2,1,05,13,55,081,46,21,54,011,32,26,43,172,23,27,29,079,38,1*74
$GAGSV,2,2,05,19,28,241,24,1*43
$GBGSV,4,1,13,23,73,030,43,09,73,267,36,06,72,215,39,16,68,198,43,1*7A
$GBGSV,4,2,13,40,61,328,40,07,60,308,38,43,59,037,40,39,58,187,22,1*7F
$GBGSV,4,3,13,28,55,221,41,10,51,289,33,25,37,117,42,37,30,321,42,1*78
$GBGSV,4,4,13,34,12,040,16,1*43
$GBGSV,2,1,08,23,73,030,47,40,61,328,44,43,59,037,39,39,58,187,31,4*79
$GBGSV,2,2,08,28,55,221,30,25,37,117,40,37,30,321,44,34,12,040,18,4*7D
$GNACCURACY,2.7*13
$PAIRSAT,1,35,2,0,201,3,0,200,4,0,221,5,0,200,6,0,200,7,0,201,8,0,221,9,0,220,10,0,200,11,0,200,12,0,200,13,0,200,14,0,200,15,0,200,16,0,201,17,0,200,18,0,200,19,0,200,20,0,200,21,0,201,22,0,200,23,0,200,24,0,200,25,0,200,26,0,220,27,0,221,28,0,200,29,0,200,30,0,221,31,0,200,32,0,200,194,0,621,195,0,621,196,0,620,199,0,621*5A
$PAIRSAT,2,24,65,0,200,66,0,200,67,0,200,68,0,200,69,0,200,70,0,200,71,0,200,72,0,200,73,0,200,74,0,200,75,0,200,76,0,200,77,0,1,78,0,201,79,0,201,80,0,200,81,0,201,82,0,200,83,0,200,84,0,200,85,0,200,86,0,200,87,0,201,88,0,201*78
$PAIRSAT,3,23,2,0,1200,3,0,1200,4,0,1200,5,0,200,7,0,1200,8,0,1200,9,0,1200,10,0,1200,11,0,1200,12,0,1200,13,0,1221,15,0,220,19,0,200,21,0,221,24,0,1200,25,0,1200,26,0,1221,27,0,1221,30,0,1200,31,0,1200,33,0,1200,34,0,1000,36,0,1200*5B
$PAIRSAT,4,46,1,0,200,2,0,200,3,0,600,4,0,200,5,0,200,6,0,201,7,0,201,8,0,200,9,0,201,10,0,201,11,0,200,12,0,200,13,0,200,14,0,200,16,0,201,19,0,600,20,0,600,21,0,600,22,0,600,23,0,621,24,0,600,25,0,621,26,0,600,27,0,600,28,0,621,29,0,600,30,0,600,32,0,600,33,0,600,34,0,621,35,0,600,36,0,600,37,0,421,38,0,400,39,0,421,40,0,421,41,0,400,42,0,400,43,0,421,44,0,400,45,0,400,46,0,400,59,0,400,60,0,400,61,0,400,62,0,400*48
$PAIRDGP,10,2,4,7,8,9,16,21,26,27,30*42
$GNGGA,040758.200,2500.7775405,N,12132.4560589,E,4,54,0.50,16.744,M,15.25,M,1,3335*4F
$GNRMC,040758.200,A,2500.7775405,N,12132.4560589,E,0.01,135.00,090324,,,R,V*1B
$GPHDT,8.559,T*34
$GNACCURACY,2.7*13
$GNGGA,040758.300,2500.7775365,N,12132.4560562,E,4,54,0.50,16.735,M,15.25,M,1,3335*4C
$GNRMC,040758.300,A,2500.7775365,N,12132.4560562,E,0.02,135.00,090324,,,R,V*1D
$GPHDT,,T*1B
$GNACCURACY,2.7*13
$GNGGA,040758.400,2500.7775350,N,12132.4560584,E,4,54,0.50,16.731,M,15.25,M,1,3335*41
$GNRMC,040758.400,A,2500.7775350,N,12132.4560584,E,0.02,135.00,090324,,,R,V*14
$GPHDT,8.532,T*39
$GNACCURACY,2.7*13
$GNGGA,040758.500,2500.7775395,N,12132.4560580,E,4,55,0.50,16.746,M,15.25,M,1,3335*4C
$GNRMC,040758.500,A,2500.7775395,N,12132.4560580,E,0.02,135.00,090324,,,R,V*18
$GPHDT,,T*1B
$GNACCURACY,2.7*13
$GNGGA,040758.600,2500.7775383,N,12132.4560562,E,4,55,0.50,16.738,M,15.25,M,0,3335*4C
$GNRMC,040758.600,A,2500.7775383,N,12132.4560562,E,0.03,135.00,090324,,,R,V*11
$GPHDT,8.657,T*39
$GNACCURACY,2.7*13
$GNGGA,040758.700,2500.7775400,N,12132.4560571,E,4,55,0.50,16.745,M,15.25,M,0,3335*49
$GNRMC,040758.700,A,2500.7775400,N,12132.4560571,E,0.03,135.00,090324,,,R,V*1E
$GPHDT,,T*1B
$GNACCURACY,2.7*13
$GNGGA,040758.800,2500.7775393,N,12132.4560575,E,4,55,0.50,16.745,M,15.25,M,0,3335*4F
$GNRMC,040758.800,A,2500.7775393,N,12132.4560575,E,0.03,135.00,090324,,,R,V*18
$GPHDT,8.800,T*35
$GNACCURACY,2.7*13
$GNGGA,040758.900,2500.7775375,N,12132.4560574,E,4,55,0.50,16.736,M,15.25,M,0,3335*43
$GNRMC,040758.900,A,2500.7775375,N,12132.4560574,E,0.03,135.00,090324,,,R,V*10
$GPHDT,,T*1B
$GNACCURACY,2.7*13
$GNGGA,040759.000,2500.7775379,N,12132.4560580,E,4,54,0.50,16.737,M,15.25,M,1,3335*4D
$GNRMC,040759.000,A,2500.7775379,N,12132.4560580,E,0.03,135.00,090324,,,R,V*1F
$GPHDT,8.203,T*3C
$GNACCURACY,2.7*13
$GNGGA,040759.100,2500.7775407,N,12132.4560580,E,4,54,0.50,16.739,M,15.25,M,1,3335*4C
$GNRMC,040759.100,A,2500.7775407,N,12132.4560580,E,0.03,135.00,090324,,,R,V*10
$GPHDT,,T*1B
$GNGSA,A,3,194,195,08,199,21,07,27,16,09,196,04,30,0.77,0.50,0.58,1*07
$GNGSA,A,3,81,78,88,79,77,,,,,,,,0.77,0.50,0.58,2*02
$GNGSA,A,3,13,21,26,27,15,,,,,,,,0.77,0.50,0.58,3*0F
$GNGSA,A,3,23,09,06,16,40,07,43,39,28,10,25,37,0.77,0.50,0.58,4*03
$GNGSA,A,3,34,,,,,,,,,,,,0.77,0.50,0.58,4*0B
$GPGSV,4,1,15,194,64,052,41,195,64,114,44,08,63,354,41,50,60,167,25,1*6C
$GPGSV,4,2,15,199,60,167,21,21,59,156,38,02,48,177,22,07,41,317,44,1*5C
$GPGSV,4,3,15,27,33,035,19,16,28,075,41,09,24,247,18,196,19,169,15,1*5D
$GPGSV,4,4,15,04,18,203,19,30,11,320,38,26,08,099,16,1*56
$GPGSV,2,1,08,194,64,052,44,195,64,114,45,08,63,354,46,199,60,167,34,8*58
$GPGSV,2,2,08,27,33,035,26,09,24,247,23,04,18,203,18,30,11,320,42,8*6C
$GLGSV,2,1,06,81,64,200,46,78,56,036,38,88,56,032,35,79,25,333,36,1*7F
$GLGSV,2,2,06,77,24,110,28,87,03,026,12,1*79
$GAGSV,2,1,08,13,55,081,45,21,54,011,30,26,43,172,17,27,29,079,41,7*77
$GAGSV,2,2,08,19,28,241,26,15,14,039,20,04,12,300,,33,03,199,,7*75
$GAGSV,2,1,05,13,55,081,46,21,54,011,34,26,43,172,26,27,29,079,40,1*78
$GAGSV,2,2,05,19,28,241,27,1*40
$GBGSV,4,1,14,23,73,030,43,09,73,267,36,06,72,215,39,16,68,198,43,1*7D
$GBGSV,4,2,14,40,61,328,40,07,60,308,38,43,59,037,40,39,58,187,25,1*7F
$GBGSV,4,3,14,28,55,221,42,10,51,289,36,25,37,117,39,37,30,321,43,1*74
$GBGSV,4,4,14,34,12,040,16,27,09,220,,1*78
$GBGSV,2,1,08,23,73,030,47,40,61,328,44,43,59,037,40,39,58,187,32,4*74
$GBGSV,2,2,08,28,55,221,31,25,37,117,40,37,30,321,44,34,12,040,19,4*7D
$GNACCURACY,2.7*13
$PAIRSAT,1,35,2,0,201,3,0,200,4,0,221,5,0,200,6,0,200,7,0,201,8,0,221,9,0,220,10,0,200,11,0,200,12,0,200,13,0,200,14,0,200,15,0,200,16,0,201,17,0,200,18,0,200,19,0,200,20,0,200,21,0,201,22,0,200,23,0,200,24,0,200,25,0,200,26,0,220,27,0,221,28,0,200,29,0,200,30,0,221,31,0,200,32,0,200,194,0,621,195,0,621,196,0,620,199,0,621*5A
$PAIRSAT,2,24,65,0,200,66,0,200,67,0,200,68,0,200,69,0,200,70,0,200,71,0,200,72,0,200,73,0,200,74,0,200,75,0,200,76,0,200,77,0,1,78,0,201,79,0,201,80,0,200,81,0,201,82,0,200,83,0,200,84,0,200,85,0,200,86,0,200,87,0,201,88,0,201*78
$PAIRSAT,3,23,2,0,1200,3,0,1200,4,0,1200,5,0,200,7,0,1200,8,0,1200,9,0,1200,10,0,1200,11,0,1200,12,0,1200,13,0,1221,15,0,220,19,0,200,21,0,221,24,0,1200,25,0,1200,26,0,1221,27,0,1221,30,0,1200,31,0,1200,33,0,1200,34,0,1000,36,0,1200*5B
$PAIRSAT,4,46,1,0,200,2,0,200,3,0,600,4,0,200,5,0,200,6,0,201,7,0,201,8,0,200,9,0,201,10,0,201,11,0,200,12,0,200,13,0,200,14,0,200,16,0,201,19,0,600,20,0,600,21,0,600,22,0,600,23,0,621,24,0,600,25,0,621,26,0,600,27,0,600,28,0,621,29,0,600,30,0,600,32,0,600,33,0,600,34,0,621,35,0,600,36,0,600,37,0,421,38,0,400,39,0,421,40,0,421,41,0,400,42,0,400,43,0,421,44,0,400,45,0,400,46,0,400,59,0,400,60,0,400,61,0,400,62,0,400*48
$PAIRDGP,10,2,4,7,8,9,16,21,26,27,30*42
$GNGGA,040759.200,2500.7775390,N,12132.4560561,E,4,54,0.50,16.735,M,15.25,M,1,3335*45
$GNRMC,040759.200,A,2500.7775390,N,12132.4560561,E,0.03,135.00,090324,,,R,V*15
$GPHDT,8.116,T*3B
$GNACCURACY,2.7*13
$GNGGA,040759.300,2500.7775369,N,12132.4560566,E,4,53,0.52,16.740,M,15.25,M,1,3335*42
$GNRMC,040759.300,A,2500.7775369,N,12132.4560566,E,0.02,135.00,090324,,,R,V*14
$GPHDT,,T*1B
$GNACCURACY,2.7*13
$GNGGA,040759.400,2500.7775381,N,12132.4560570,E,4,53,0.52,16.738,M,15.25,M,1,3335*4B
$GNRMC,040759.400,A,2500.7775381,N,12132.4560570,E,0.02,135.00,090324,,,R,V*12
$GPHDT,8.184,T*30
$GNACCURACY,2.7*13
$GNGGA,040759.500,2500.7775401,N,12132.4560614,E,4,53,0.52,16.756,M,15.25,M,1,3335*4C
$GNRMC,040759.500,A,2500.7775401,N,12132.4560614,E,0.01,135.00,090324,,,R,V*1E
$GPHDT,,T*1B
$GNACCURACY,2.7*13
$GNGGA,040759.600,2500.7775380,N,12132.4560585,E,4,53,0.52,16.742,M,15.25,M,1,3335*4F
$GNRMC,040759.600,A,2500.7775380,N,12132.4560585,E,0.02,135.00,090324,,,R,V*1B
$GPHDT,7.853,T*3C
$GNACCURACY,2.7*13
$GNGGA,040759.700,2500.7775372,N,12132.4560575,E,4,53,0.52,16.743,M,15.25,M,0,3335*4C
$GNRMC,040759.700,A,2500.7775372,N,12132.4560575,E,0.02,135.00,090324,,,R,V*18
$GPHDT,,T*1B
$GNACCURACY,2.7*13
$GNGGA,040759.800,2500.7775364,N,12132.4560585,E,4,53,0.52,16.751,M,15.25,M,0,3335*48
$GNRMC,040759.800,A,2500.7775364,N,12132.4560585,E,0.03,135.00,090324,,,R,V*1E
$GPHDT,7.599,T*37
$GNACCURACY,2.7*13
$GNGGA,040759.900,2500.7775374,N,12132.4560602,E,4,53,0.52,16.750,M,15.25,M,0,3335*45
$GNRMC,040759.900,A,2500.7775374,N,12132.4560602,E,0.03,135.00,090324,,,R,V*12
$GPHDT,,T*1B
$GNACCURACY,2.7*13
$GNGGA,040800.000,2500.7775363,N,12132.4560580,E,4,53,0.52,16.747,M,15.25,M,1,3335*47
$GNRMC,040800.000,A,2500.7775363,N,12132.4560580,E,0.02,135.00,090324,,,R,V*16
$GPHDT,8.061,T*3A
$GNACCURACY,2.7*13
$GNGGA,040800.100,2500.7775398,N,12132.4560605,E,4,53,0.52,16.762,M,15.25,M,1,3335*4B
$GNRMC,040800.100,A,2500.7775398,N,12132.4560605,E,0.02,135.00,090324,,,R,V*1D
$GPHDT,,T*1B
$GNGSA,A,3,194,195,08,199,21,07,27,16,09,04,30,,0.80,0.52,0.60,1*38
$GNGSA,A,3,81,78,88,79,77,,,,,,,,0.80,0.52,0.60,2*03
$GNGSA,A,3,13,21,26,27,15,,,,,,,,0.80,0.52,0.60,3*0E
$GNGSA,A,3,23,09,06,16,40,07,43,39,28,10,25,37,0.80,0.52,0.60,4*02
$GNGSA,A,3,34,,,,,,,,,,,,0.80,0.52,0.60,4*0A
$GPGSV,4,1,15,194,64,052,41,195,64,114,44,08,63,354,41,50,60,167,27,1*6E
$GPGSV,4,2,15,199,60,167,24,21,59,156,40,02,48,177,19,07,41,317,45,1*5F
$GPGSV,4,3,15,27,33,035,19,16,27,075,43,09,24,247,15,196,19,169,12,1*5A
$GPGSV,4,4,15,04,18,203,19,30,11,320,38,26,08,099,18,1*58
$GPGSV,2,1,08,194,64,052,44,195,64,114,46,08,63,354,46,199,60,167,33,8*5C
$GPGSV,2,2,08,27,33,035,26,09,24,247,24,04,18,203,18,30,11,320,42,8*6B
$GLGSV,2,1,06,81,64,200,46,78,56,036,38,88,56,032,35,79,25,333,36,1*7F
$GLGSV,2,2,06,77,24,110,26,87,03,026,11,1*74
$GAGSV,2,1,08,13,55,081,45,21,54,011,28,26,43,172,17,27,29,079,41,7*7E
$GAGSV,2,2,08,19,28,241,27,15,14,039,21,04,12,300,,33,03,199,,7*75
$GAGSV,2,1,05,13,55,081,46,21,54,011,34,26,43,172,26,27,29,079,40,1*78
$GAGSV,2,2,05,19,28,241,28,1*4F
$GBGSV,4,1,13,23,73,030,43,09,73,267,37,06,72,215,39,16,68,198,43,1*7B
$GBGSV,4,2,13,40,61,328,39,07,60,308,37,43,59,037,40,39,58,187,25,1*79
$GBGSV,4,3,13,28,55,221,40,10,51,289,37,25,37,117,40,37,30,321,43,1*7E
$GBGSV,4,4,13,34,12,040,17,1*42
$GBGSV,2,1,08,23,73,030,48,40,61,328,45,43,59,037,40,39,58,187,32,4*7A
$GBGSV,2,2,08,28,55,221,33,25,37,117,40,37,30,321,45,34,12,040,19,4*7E
$GNACCURACY,2.7*13
$PAIRSAT,1,35,2,0,201,3,0,200,4,0,221,5,0,200,6,0,200,7,0,201,8,0,221,9,0,220,10,0,200,11,0,200,12,0,200,13,0,200,14,0,200,15,0,200,16,0,201,17,0,200,18,0,200,19,0,200,20,0,200,21,0,201,22,0,200,23,0,200,24,0,200,25,0,200,26,0,220,27,0,221,28,0,200,29,0,200,30,0,221,31,0,200,32,0,200,194,0,621,195,0,621,196,0,620,199,0,621*5A
$PAIRSAT,2,24,65,0,200,66,0,200,67,0,200,68,0,200,69,0,200,70,0,200,71,0,200,72,0,200,73,0,200,74,0,200,75,0,200,76,0,200,77,0,1,78,0,201,79,0,201,80,0,200,81,0,201,82,0,200,83,0,200,84,0,200,85,0,200,86,0,200,87,0,201,88,0,201*78
$PAIRSAT,3,23,2,0,1200,3,0,1200,4,0,1200,5,0,200,7,0,1200,8,0,1200,9,0,1200,10,0,1200,11,0,1200,12,0,1200,13,0,1221,15,0,220,19,0,200,21,0,221,24,0,1200,25,0,1200,26,0,1221,27,0,1221,30,0,1200,31,0,1200,33,0,1200,34,0,1000,36,0,1200*5B
$PAIRSAT,4,46,1,0,200,2,0,200,3,0,600,4,0,200,5,0,200,6,0,201,7,0,201,8,0,200,9,0,201,10,0,201,11,0,200,12,0,200,13,0,200,14,0,200,16,0,201,19,0,600,20,0,600,21,0,600,22,0,600,23,0,621,24,0,600,25,0,621,26,0,600,27,0,600,28,0,621,29,0,600,30,0,600,32,0,600,33,0,600,34,0,621,35,0,600,36,0,600,37,0,421,38,0,400,39,0,421,40,0,421,41,0,400,42,0,400,43,0,421,44,0,400,45,0,400,46,0,400,59,0,400,60,0,400,61,0,400,62,0,400*48
$PAIRDGP,10,2,4,7,8,9,16,21,26,27,30*42
$GNGGA,040800.200,2500.7775412,N,12132.4560617,E,4,53,0.52,16.748,M,15.25,M,1,3335*46
$GNRMC,040800.200,A,2500.7775412,N,12132.4560617,E,0.02,135.00,090324,,,R,V*18
$GPHDT,7.565,T*34
$GNACCURACY,2.7*13
$GNGGA,040800.300,2500.7775398,N,12132.4560589,E,4,53,0.52,16.746,M,15.25,M,1,3335*48
$GNRMC,040800.300,A,2500.7775398,N,12132.4560589,E,0.02,135.00,090324,,,R,V*18
$GPHDT,,T*1B
$GNACCURACY,2.7*13
$GNGGA,040800.400,2500.7775415,N,12132.4560591,E,4,53,0.52,16.751,M,15.25,M,1,3335*42
$GNRMC,040800.400,A,2500.7775415,N,12132.4560591,E,0.02,135.00,090324,,,R,V*14
$GPHDT,8.262,T*3B
$GNACCURACY,2.7*13
$GNGGA,040800.500,2500.7775428,N,12132.4560595,E,4,53,0.52,16.761,M,15.25,M,0,3335*4B
$GNRMC,040800.500,A,2500.7775428,N,12132.4560595,E,0.03,135.00,090324,,,R,V*1E
$GPHDT,,T*1B
$GNACCURACY,2.7*13
$GNGGA,040800.600,2500.7775417,N,12132.4560579,E,4,53,0.52,16.764,M,15.25,M,0,3335*43
$GNRMC,040800.600,A,2500.7775417,N,12132.4560579,E,0.05,135.00,090324,,,R,V*15
$GPHDT,8.260,T*39
$GNACCURACY,2.7*13
$GNGGA,040800.700,2500.7775423,N,12132.4560615,E,4,53,0.52,16.762,M,15.25,M,0,3335*4A
$GNRMC,040800.700,A,2500.7775423,N,12132.4560615,E,0.06,135.00,090324,,,R,V*19
$GPHDT,,T*1B
$GNACCURACY,2.7*13
$GNGGA,040800.800,2500.7775423,N,12132.4560619,E,4,53,0.52,16.776,M,15.25,M,0,3335*4C
$GNRMC,040800.800,A,2500.7775423,N,12132.4560619,E,0.07,135.00,090324,,,R,V*1B
$GPHDT,8.007,T*3A
$GNACCURACY,2.7*13
$GNGGA,040800.900,2500.7775376,N,12132.4560564,E,4,54,0.50,16.758,M,15.25,M,0,3335*4A
$GNRMC,040800.900,A,2500.7775376,N,12132.4560564,E,0.06,135.00,090324,,,R,V*15
$GPHDT,,T*1B
$GNACCURACY,2.7*13
$GNGGA,040801.000,2500.7775371,N,12132.4560588,E,4,53,0.50,16.754,M,15.25,M,1,3335*4D
$GNRMC,040801.000,A,2500.7775371,N,12132.4560588,E,0.06,135.00,090324,,,R,V*18
$GPHDT,8.322,T*3E
$GNACCURACY,2.7*13
$GNGGA,040801.100,2500.7775374,N,12132.4560607,E,4,54,0.50,16.755,M,15.25,M,1,3335*4B
$GNRMC,040801.100,A,2500.7775374,N,12132.4560607,E,0.05,135.00,090324,,,R,V*1B
$GPHDT,,T*1B
$GNGSA,A,3,194,195,08,199,21,07,27,16,09,04,30,196,0.77,0.50,0.58,1*07
$GNGSA,A,3,81,78,88,79,77,,,,,,,,0.77,0.50,0.58,2*02
$GNGSA,A,3,13,21,26,27,15,,,,,,,,0.77,0.50,0.58,3*0F
$GNGSA,A,3,23,09,06,16,40,07,43,39,28,10,25,37,0.77,0.50,0.58,4*03
$GNGSA,A,3,34,,,,,,,,,,,,0.77,0.50,0.58,4*0B
$GPGSV,4,1,15,194,64,052,41,195,64,114,44,08,63,354,42,50,60,167,28,1*62
$GPGSV,4,2,15,199,60,167,25,21,59,156,41,02,48,177,18,07,41,317,46,1*5D
$GPGSV,4,3,15,27,33,036,18,16,27,075,43,09,24,247,20,196,19,169,12,1*5E
$GPGSV,4,4,15,04,18,203,20,30,11,320,34,26,08,099,19,1*5F
$GPGSV,3,1,09,194,64,052,45,195,64,114,46,08,63,354,47,199,60,167,34,8*5B
$GPGSV,3,2,09,27,33,036,28,09,24,247,21,196,19,169,17,04,18,203,19,8*58
$GPGSV,3,3,09,30,11,320,43,8*51
$GLGSV,2,1,06,81,64,200,45,78,56,036,38,88,56,032,36,79,25,333,36,1*7F
$GLGSV,2,2,06,77,24,110,26,87,03,026,14,1*71
$GAGSV,2,1,08,13,55,081,45,21,54,011,30,26,43,172,18,27,29,079,41,7*78
$GAGSV,2,2,08,19,28,241,25,15,14,039,21,04,12,300,,33,03,199,,7*77
$GAGSV,2,1,05,13,55,081,46,21,54,011,35,26,43,172,26,27,29,079,40,1*79
$GAGSV,2,2,05,19,28,241,26,1*41
$GBGSV,4,1,13,23,73,030,44,09,73,267,38,06,72,215,39,16,68,198,42,1*72
$GBGSV,4,2,13,40,61,328,39,07,60,308,38,43,59,037,41,39,58,187,26,1*74
$GBGSV,4,3,13,28,55,221,40,10,51,289,37,25,37,117,39,37,30,321,43,1*70
$GBGSV,4,4,13,34,12,040,17,1*42
$GBGSV,2,1,08,23,73,030,48,40,61,328,45,43,59,037,40,39,58,187,33,4*7B
$GBGSV,2,2,08,28,55,221,33,25,37,117,41,37,30,321,46,34,12,040,21,4*77
$GNACCURACY,2.7*13
$PAIRSAT,1,35,2,0,201,3,0,200,4,0,221,5,0,200,6,0,200,7,0,201,8,0,221,9,0,220,10,0,200,11,0,200,12,0,200,13,0,200,14,0,200,15,0,200,16,0,201,17,0,200,18,0,200,19,0,200,20,0,200,21,0,201,22,0,200,23,0,200,24,0,200,25,0,200,26,0,220,27,0,221,28,0,200,29,0,200,30,0,221,31,0,200,32,0,200,194,0,621,195,0,621,196,0,620,199,0,621*5A
$PAIRSAT,2,24,65,0,200,66,0,200,67,0,200,68,0,200,69,0,200,70,0,200,71,0,200,72,0,200,73,0,200,74,0,200,75,0,200,76,0,200,77,0,1,78,0,201,79,0,201,80,0,200,81,0,201,82,0,200,83,0,200,84,0,200,85,0,200,86,0,200,87,0,201,88,0,201*78
$PAIRSAT,3,23,2,0,1200,3,0,1200,4,0,1200,5,0,200,7,0,1200,8,0,1200,9,0,1200,10,0,1200,11,0,1200,12,0,1200,13,0,1221,15,0,220,19,0,200,21,0,221,24,0,1200,25,0,1200,26,0,1221,27,0,1221,30,0,1200,31,0,1200,33,0,1200,34,0,1000,36,0,1200*5B
$PAIRSAT,4,46,1,0,200,2,0,200,3,0,600,4,0,200,5,0,200,6,0,201,7,0,201,8,0,200,9,0,201,10,0,201,11,0,200,12,0,200,13,0,200,14,0,200,16,0,201,19,0,600,20,0,600,21,0,600,22,0,600,23,0,621,24,0,600,25,0,621,26,0,600,27,0,600,28,0,621,29,0,600,30,0,600,32,0,600,33,0,600,34,0,621,35,0,600,36,0,600,37,0,421,38,0,400,39,0,421,40,0,421,41,0,400,42,0,400,43,0,421,44,0,400,45,0,400,46,0,400,59,0,400,60,0,400,61,0,400,62,0,400*48
$PAIRDGP,10,2,4,7,8,9,16,21,26,27,30*42
$GNGGA,040801.200,2500.7775369,N,12132.4560583,E,4,54,0.50,16.756,M,15.25,M,1,3335*48
$GNRMC,040801.200,A,2500.7775369,N,12132.4560583,E,0.05,135.00,090324,,,R,V*1B
$GPHDT,8.692,T*30
$GNACCURACY,2.7*13
$GNGGA,040801.300,2500.7775371,N,12132.4560575,E,4,54,0.50,16.747,M,15.25,M,1,3335*49
$GNRMC,040801.300,A,2500.7775371,N,12132.4560575,E,0.04,135.00,090324,,,R,V*1B
$GPHDT,,T*1B
$GNACCURACY,2.7*13
$GNGGA,040801.400,2500.7775383,N,12132.4560600,E,4,54,0.50,16.755,M,15.25,M,1,3335*41
$GNRMC,040801.400,A,2500.7775383,N,12132.4560600,E,0.04,135.00,090324,,,R,V*10
$GPHDT,8.673,T*3F
$GNACCURACY,2.7*13
$GNGGA,040801.500,2500.7775355,N,12132.4560590,E,4,54,0.50,16.746,M,15.25,M,1,3335*43
$GNRMC,040801.500,A,2500.7775355,N,12132.4560590,E,0.04,135.00,090324,,,R,V*10
$GPHDT,,T*1B
$GNACCURACY,2.7*13
$GNGGA,040801.600,2500.7775358,N,12132.4560578,E,4,54,0.50,16.740,M,15.25,M,0,3335*4C
$GNRMC,040801.600,A,2500.7775358,N,12132.4560578,E,0.04,135.00,090324,,,R,V*18
$GPHDT,8.606,T*3D
$GNACCURACY,2.7*13
$GNGGA,040801.700,2500.7775365,N,12132.4560563,E,4,54,0.50,16.729,M,15.25,M,0,3335*46
$GNRMC,040801.700,A,2500.7775365,N,12132.4560563,E,0.03,135.00,090324,,,R,V*1A
$GPHDT,,T*1B
$GNACCURACY,2.7*13
$GNGGA,040801.800,2500.7775361,N,12132.4560574,E,4,54,0.50,16.729,M,15.25,M,0,3335*4B
$GNRMC,040801.800,A,2500.7775361,N,12132.4560574,E,0.04,135.00,090324,,,R,V*10
$GPHDT,8.828,T*3F
$GNACCURACY,2.7*13
$GNGGA,040801.900,2500.7775404,N,12132.4560587,E,4,54,0.50,16.736,M,15.25,M,0,3335*4C
$GNRMC,040801.900,A,2500.7775404,N,12132.4560587,E,0.04,135.00,090324,,,R,V*19
$GPHDT,,T*1B
$GNACCURACY,2.7*13
$GNGGA,040802.000,2500.7775416,N,12132.4560584,E,4,54,0.50,16.743,M,15.25,M,1,3335*45
$GNRMC,040802.000,A,2500.7775416,N,12132.4560584,E,0.03,135.00,090324,,,R,V*14
$GPHDT,8.658,T*36
$GNACCURACY,2.7*13
$GNGGA,040802.100,2500.7775435,N,12132.4560613,E,4,54,0.50,16.751,M,15.25,M,1,3335*4B
$GNRMC,040802.100,A,2500.7775435,N,12132.4560613,E,0.02,135.00,090324,,,R,V*18
$GPHDT,,T*1B
$GNGSA,A,3,194,195,08,199,21,07,27,16,04,30,09,196,0.77,0.50,0.58,1*07
$GNGSA,A,3,81,78,88,79,77,,,,,,,,0.77,0.50,0.58,2*02
$GNGSA,A,3,13,21,26,27,15,,,,,,,,0.77,0.50,0.58,3*0F
$GNGSA,A,3,23,09,06,16,40,07,43,39,28,10,25,37,0.77,0.50,0.58,4*03
$GNGSA,A,3,34,,,,,,,,,,,,0.77,0.50,0.58,4*0B
$GPGSV,4,1,15,194,64,052,41,195,64,114,44,08,63,354,42,50,60,167,29,1*63
$GPGSV,4,2,15,199,60,167,27,21,59,156,42,02,48,177,20,07,41,317,46,1*57
$GPGSV,4,3,15,27,33,036,20,16,27,075,42,09,24,247,19,196,19,169,17,1*5B
$GPGSV,4,4,15,04,18,203,19,30,11,320,34,26,08,099,19,1*55
$GPGSV,3,1,10,194,64,052,43,195,64,114,45,08,63,354,47,199,60,167,31,8*53
$GPGSV,3,2,10,27,33,036,28,09,24,247,20,196,19,169,16,04,18,203,19,8*50
$GPGSV,3,3,10,30,11,320,42,26,08,099,17,8*62
$GLGSV,2,1,06,81,64,200,45,78,56,036,38,88,56,032,35,79,25,333,35,1*7F
$GLGSV,2,2,06,77,24,110,24,87,03,026,,1*76
$GAGSV,2,1,08,13,55,081,45,21,54,011,30,26,43,172,18,27,29,079,40,7*79
$GAGSV,2,2,08,19,28,241,26,15,14,039,22,04,12,299,,33,03,199,,7*76
$GAGSV,2,1,05,13,55,081,46,21,54,011,35,26,43,172,24,27,29,079,40,1*7B
$GAGSV,2,2,05,19,28,241,24,1*43
$GBGSV,4,1,13,23,73,030,44,09,73,267,38,06,72,215,38,16,68,198,41,1*70
$GBGSV,4,2,13,40,61,328,40,07,60,308,38,43,59,037,41,39,58,187,25,1*79
$GBGSV,4,3,13,28,55,221,41,10,51,289,37,25,37,117,41,37,30,321,42,1*7F
$GBGSV,4,4,13,34,12,040,,1*44
$GBGSV,2,1,08,23,73,030,48,40,61,328,45,43,59,037,40,39,58,187,33,4*7B
$GBGSV,2,2,08,28,55,221,36,25,37,117,40,37,30,321,46,34,12,040,20,4*72
$GNACCURACY,2.7*13
$PAIRSAT,1,35,2,0,201,3,0,200,4,0,221,5,0,200,6,0,200,7,0,201,8,0,221,9,0,220,10,0,200,11,0,200,12,0,200,13,0,200,14,0,200,15,0,200,16,0,201,17,0,200,18,0,200,19,0,200,20,0,200,21,0,201,22,0,200,23,0,200,24,0,200,25,0,200,26,0,220,27,0,221,28,0,200,29,0,200,30,0,221,31,0,200,32,0,200,194,0,621,195,0,621,196,0,620,199,0,621*5A
$PAIRSAT,2,24,65,0,200,66,0,200,67,0,200,68,0,200,69,0,200,70,0,200,71,0,200,72,0,200,73,0,200,74,0,200,75,0,200,76,0,200,77,0,1,78,0,201,79,0,201,80,0,200,81,0,201,82,0,200,83,0,200,84,0,200,85,0,200,86,0,200,87,0,201,88,0,201*78
$PAIRSAT,3,23,2,0,1200,3,0,1200,4,0,1200,5,0,200,7,0,1200,8,0,1200,9,0,1200,10,0,1200,11,0,1200,12,0,1200,13,0,1221,15,0,1220,19,0,200,21,0,221,24,0,1200,25,0,1200,26,0,1221,27,0,1221,30,0,1200,31,0,1200,33,0,1200,34,0,1000,36,0,1200*6A
$PAIRSAT,4,46,1,0,200,2,0,200,3,0,600,4,0,200,5,0,200,6,0,201,7,0,201,8,0,200,9,0,201,10,0,201,11,0,200,12,0,200,13,0,200,14,0,200,16,0,201,19,0,600,20,0,600,21,0,600,22,0,600,23,0,621,24,0,600,25,0,621,26,0,600,27,0,600,28,0,621,29,0,600,30,0,600,32,0,600,33,0,600,34,0,621,35,0,600,36,0,600,37,0,421,38,0,400,39,0,421,40,0,421,41,0,400,42,0,400,43,0,421,44,0,400,45,0,400,46,0,400,59,0,400,60,0,400,61,0,400,62,0,400*48
$PAIRDGP,10,2,4,7,8,9,16,21,26,27,30*42
$GNGGA,040802.200,2500.7775415,N,12132.4560585,E,4,53,0.50,16.749,M,15.25,M,1,3335*48
$GNRMC,040802.200,A,2500.7775415,N,12132.4560585,E,0.02,135.00,090324,,,R,V*15
$GPHDT,8.726,T*3E
$GNACCURACY,2.7*13
$GNGGA,040802.300,2500.7775430,N,12132.4560614,E,4,53,0.50,16.755,M,15.25,M,1,3335*48
$GNRMC,040802.300,A,2500.7775430,N,12132.4560614,E,0.02,135.00,090324,,,R,V*18
$GPHDT,,T*1B
$GNACCURACY,2.7*13
$GNGGA,040802.400,2500.7775395,N,12132.4560610,E,4,53,0.50,16.756,M,15.25,M,1,3335*40
$GNRMC,040802.400,A,2500.7775395,N,12132.4560610,E,0.01,135.00,090324,,,R,V*10
$GPHDT,8.449,T*34
$GNACCURACY,2.7*13
$GNGGA,040802.500,2500.7775425,N,12132.4560590,E,4,54,0.50,16.761,M,15.25,M,1,3335*45
$GNRMC,040802.500,A,2500.7775425,N,12132.4560590,E,0.01,135.00,090324,,,R,V*16
$GPHDT,,T*1B
$GNACCURACY,2.7*13
$GNGGA,040802.600,2500.7775390,N,12132.4560577,E,4,55,0.50,16.747,M,15.25,M,0,3335*42
$GNRMC,040802.600,A,2500.7775390,N,12132.4560577,E,0.01,135.00,090324,,,R,V*15
$GPHDT,8.549,T*35
$GNACCURACY,2.7*13
$GNGGA,040802.700,2500.7775415,N,12132.4560587,E,4,56,0.50,16.749,M,15.25,M,0,3335*4B
$GNRMC,040802.700,A,2500.7775415,N,12132.4560587,E,0.01,135.00,090324,,,R,V*11
$GPHDT,,T*1B
$GNACCURACY,2.7*13
$GNGGA,040802.800,2500.7775386,N,12132.4560587,E,4,56,0.50,16.749,M,15.25,M,0,3335*49
$GNRMC,040802.800,A,2500.7775386,N,12132.4560587,E,0.01,135.00,090324,,,R,V*13
$GPHDT,8.391,T*36
$GNACCURACY,2.7*13
$GNGGA,040802.900,2500.7775418,N,12132.4560601,E,4,56,0.50,16.755,M,15.25,M,0,3335*48
$GNRMC,040802.900,A,2500.7775418,N,12132.4560601,E,0.01,135.00,090324,,,R,V*1F
$GPHDT,,T*1B
$GNACCURACY,2.7*13
$GNGGA,040803.000,2500.7775406,N,12132.4560577,E,4,55,0.50,16.750,M,15.25,M,1,3335*4A
$GNRMC,040803.000,A,2500.7775406,N,12132.4560577,E,0.01,135.00,090324,,,R,V*1A
$GPHDT,8.282,T*35
$GNACCURACY,2.7*13
$GNGGA,040803.100,2500.7775429,N,12132.4560605,E,4,56,0.50,16.754,M,15.25,M,1,3335*47
$GNRMC,040803.100,A,2500.7775429,N,12132.4560605,E,0.01,135.00,090324,,,R,V*10
$GPHDT,,T*1B
$GNGSA,A,3,194,195,08,199,21,02,07,27,16,09,196,04,0.76,0.50,0.58,1*07
$GNGSA,A,3,30,,,,,,,,,,,,0.76,0.50,0.58,1*0B
$GNGSA,A,3,81,78,88,79,77,,,,,,,,0.76,0.50,0.58,2*03
$GNGSA,A,3,13,21,26,27,15,,,,,,,,0.76,0.50,0.58,3*0E
$GNGSA,A,3,23,09,06,16,40,07,43,39,28,10,25,37,0.76,0.50,0.58,4*02
$GNGSA,A,3,34,,,,,,,,,,,,0.76,0.50,0.58,4*0A
$GPGSV,4,1,15,194,64,052,41,195,64,114,44,08,63,354,42,50,60,167,28,1*62
$GPGSV,4,2,15,199,60,167,24,21,59,156,41,02,48,177,26,07,41,317,46,1*51
$GPGSV,4,3,15,27,33,036,22,16,27,075,42,09,24,247,22,196,19,169,17,1*51
$GPGSV,4,4,15,04,18,203,18,30,11,320,37,26,08,099,21,1*5C
$GPGSV,3,1,09,194,64,052,43,195,64,114,45,08,63,354,47,199,60,167,33,8*59
$GPGSV,3,2,09,27,33,036,21,09,24,247,18,196,19,169,16,04,18,203,20,8*50
$GPGSV,3,3,09,30,11,320,43,8*51
$GLGSV,2,1,06,81,64,200,44,78,56,036,37,88,56,032,33,79,25,333,36,1*74
$GLGSV,2,2,06,77,24,110,24,87,03,026,,1*76
$GAGSV,2,1,08,13,55,081,45,21,54,011,30,26,43,172,23,27,29,079,40,7*71
$GAGSV,2,2,08,19,28,241,26,15,14,039,20,04,12,299,,33,03,199,,7*74
$GAGSV,2,1,05,13,55,081,46,21,54,011,34,26,43,172,24,27,29,079,39,1*74
$GAGSV,2,2,05,19,28,241,27,1*40
$GBGSV,4,1,13,23,73,030,44,09,73,267,38,06,72,215,40,16,68,198,42,1*7C
$GBGSV,4,2,13,40,61,328,40,07,60,308,38,43,59,037,41,39,58,187,29,1*75
$GBGSV,4,3,13,28,55,221,41,10,51,289,36,25,37,117,40,37,30,321,42,1*7F
$GBGSV,4,4,13,34,12,040,,1*44
$GBGSV,2,1,08,23,73,030,48,40,61,328,45,43,59,037,40,39,58,187,31,4*79
$GBGSV,2,2,08,28,55,221,37,25,37,117,39,37,30,321,46,34,12,040,20,4*7D
$GNACCURACY,2.7*13
$PAIRSAT,1,35,2,0,201,3,0,200,4,0,221,5,0,200,6,0,200,7,0,201,8,0,221,9,0,220,10,0,200,11,0,200,12,0,200,13,0,200,14,0,200,15,0,200,16,0,201,17,0,200,18,0,200,19,0,200,20,0,200,21,0,201,22,0,200,23,0,200,24,0,200,25,0,200,26,0,220,27,0,221,28,0,200,29,0,200,30,0,221,31,0,200,32,0,200,194,0,621,195,0,621,196,0,620,199,0,621*5A
$PAIRSAT,2,24,65,0,200,66,0,200,67,0,200,68,0,200,69,0,200,70,0,200,71,0,200,72,0,200,73,0,200,74,0,200,75,0,200,76,0,200,77,0,1,78,0,201,79,0,201,80,0,200,81,0,201,82,0,200,83,0,200,84,0,200,85,0,200,86,0,200,87,0,201,88,0,201*78
$PAIRSAT,3,23,2,0,1200,3,0,1200,4,0,1200,5,0,200,7,0,1200,8,0,1200,9,0,1200,10,0,1200,11,0,1200,12,0,1200,13,0,1221,15,0,1220,19,0,200,21,0,221,24,0,1200,25,0,1200,26,0,1221,27,0,1221,30,0,1200,31,0,1200,33,0,1200,34,0,1000,36,0,1200*6A
$PAIRSAT,4,46,1,0,200,2,0,200,3,0,600,4,0,200,5,0,200,6,0,201,7,0,201,8,0,200,9,0,201,10,0,201,11,0,200,12,0,200,13,0,200,14,0,200,16,0,201,19,0,600,20,0,600,21,0,600,22,0,600,23,0,621,24,0,600,25,0,621,26,0,600,27,0,600,28,0,621,29,0,600,30,0,600,32,0,600,33,0,600,34,0,621,35,0,600,36,0,600,37,0,421,38,0,400,39,0,421,40,0,421,41,0,400,42,0,400,43,0,421,44,0,400,45,0,400,46,0,400,59,0,400,60,0,400,61,0,400,62,0,400*48
$PAIRDGP,10,2,4,7,8,9,16,21,26,27,30*42
$GNGGA,040803.200,2500.7775440,N,12132.4560609,E,4,56,0.50,16.757,M,15.25,M,1,3335*44
$GNRMC,040803.200,A,2500.7775440,N,12132.4560609,E,0.01,135.00,090324,,,R,V*10
$GPHDT,7.716,T*32
$GNACCURACY,2.7*13
$GNGGA,040803.300,2500.7775431,N,12132.4560612,E,4,56,0.50,16.758,M,15.25,M,1,3335*46
$GNRMC,040803.300,A,2500.7775431,N,12132.4560612,E,0.00,135.00,090324,,,R,V*1C
$GPHDT,,T*1B
$GNACCURACY,2.7*13
$GNGGA,040803.400,2500.7775432,N,12132.4560602,E,4,56,0.50,16.750,M,15.25,M,1,3335*4B
$GNRMC,040803.400,A,2500.7775432,N,12132.4560602,E,0.01,135.00,090324,,,R,V*18
$GPHDT,7.750,T*30
$GNACCURACY,2.7*13
$GNGGA,040803.500,2500.7775437,N,12132.4560612,E,4,56,0.50,16.756,M,15.25,M,1,3335*48
$GNRMC,040803.500,A,2500.7775437,N,12132.4560612,E,0.01,135.00,090324,,,R,V*1D
$GPHDT,,T*1B
$GNACCURACY,2.7*13
$GNGGA,040803.600,2500.7775411,N,12132.4560601,E,4,56,0.50,16.766,M,15.25,M,0,3335*4F
$GNRMC,040803.600,A,2500.7775411,N,12132.4560601,E,0.01,135.00,090324,,,R,V*18
$GPHDT,7.449,T*3B
