$FW : RTK35X,V1.1X0314AS,Lib20210517,1*54
$Tool : LOCOSYS , GNSS Firebird , v1.0.0.19*39
$---------------------------------------------------*2D
,09,04,30,0.79,0.50,0.61,1*3F
$GNGSA,A,3,81,78,88,79,77,,,,,,,,0.79,0.50,0.61,2*06
$GNGSA,A,3,13,21,26,27,19,15,,,,,,,0.79,0.50,0.61,3*03
$GNGSA,A,3,23,09,06,16,07,40,39,43,28,10,25,37,0.79,0.50,0.61,4*07
$GPGSV,4,1,15,195,64,114,43,194,64,052,38,08,62,355,44,50,60,167,30,1*64
$GPGSV,4,2,15,199,60,167,28,21,60,156,37,02,48,177,32,07,41,316,42,1*56
$GPGSV,4,3,15,27,33,036,30,16,27,075,36,09,23,246,17,196,19,169,13,1*55
$GPGSV,4,4,15,04,18,203,17,30,11,320,37,26,08,099,22,1*50
$GPGSV,2,1,08,194,64,052,40,195,64,114,45,08,62,355,42,199,60,167,27,8*5A
$GPGSV,2,2,08,27,33,036,27,09,23,246,17,04,18,203,16,30,11,320,46,8*65
$GLGSV,2,1,07,81,65,200,42,78,56,037,30,88,55,032,33,79,26,334,38,1*7D
$GLGSV,2,2,07,77,23,110,14,87,03,026,,68,02,236,,1*48
$GAGSV,2,1,08,13,55,081,38,21,54,011,24,26,44,172,18,27,29,079,36,7*70
$GAGSV,2,2,08,19,27,241,19,15,14,039,21,04,12,299,,33,04,199,,7*71
$GAGSV,1,1,04,13,55,081,44,21,54,011,28,27,29,079,39,19,27,241,18,1*7B
$GBGSV,4,1,13,23,73,031,43,09,73,266,41,06,71,215,39,16,68,199,42,1*79
$GBGSV,4,2,13,07,60,308,40,40,60,329,42,39,58,187,35,43,58,036,33,1*70
$GBGSV,4,3,13,28,56,221,41,10,51,289,39,25,37,117,37,37,30,321,42,1*73
$GBGSV,4,4,13,34,11,040,,1*47
$GBGSV,2,1,07,23,73,031,42,40,60,329,45,39,58,187,33,43,58,036,30,4*78
$GBGSV,2,2,07,28,56,221,36,25,37,117,35,37,30,321,46,4*4E
$GNACCURACY,2.8*1C
$PAIRSAT,1,35,2,0,201,3,0,200,4,0,221,5,0,200,6,0,200,7,0,201,8,0,221,9,0,220,10,0,200,11,0,200,12,0,200,13,0,200,14,0,200,15,0,200,16,0,201,17,0,200,18,0,200,19,0,200,20,0,200,21,0,201,22,0,200,23,0,200,24,0,200,25,0,200,26,0,220,27,0,221,28,0,200,29,0,200,30,0,221,31,0,200,32,0,200,194,0,621,195,0,621,196,0,620,199,0,621*5A
$PAIRSAT,2,24,65,0,200,66,0,200,67,0,200,68,0,200,69,0,200,70,0,200,71,0,200,72,0,200,73,0,200,74,0,200,75,0,200,76,0,200,77,0,201,78,0,201,79,0,201,80,0,200,81,0,201,82,0,200,83,0,200,84,0,200,85,0,200,86,0,200,87,0,201,88,0,201*7A
$PAIRSAT,3,23,2,0,1200,3,0,1200,4,0,1200,5,0,200,7,0,1200,8,0,1200,9,0,1200,10,0,1200,11,0,1200,12,0,1200,13,0,1221,15,0,1220,19,0,1201,21,0,1221,24,0,1200,25,0,1200,26,0,1221,27,0,1221,30,0,1200,31,0,1200,33,0,1200,34,0,1000,36,0,1200*6B
$PAIRSAT,4,46,1,0,200,2,0,200,3,0,600,4,0,200,5,0,200,6,0,201,7,0,201,8,0,200,9,0,201,10,0,201,11,0,200,12,0,200,13,0,200,14,0,200,16,0,201,19,0,600,20,0,600,21,0,600,22,0,600,23,0,621,24,0,600,25,0,621,26,0,600,27,0,600,28,0,621,29,0,600,30,0,600,32,0,600,33,0,600,34,0,621,35,0,600,36,0,600,37,0,621,38,0,600,39,0,421,40,0,421,41,0,400,42,0,400,43,0,421,44,0,400,45,0,400,46,0,400,59,0,400,60,0,400,61,0,400,62,0,400*48
$PAIRDGP,10,2,4,7,8,9,16,21,26,27,30*42
$GNGGA,040904.200,2500.7775130,N,12132.4560581,E,4,54,0.50,16.759,M,15.25,M,1,3335*4F
$GNRMC,040904.200,A,2500.7775130,N,12132.4560581,E,0.01,135.00,090324,,,R,V*17
$GPHDT,186.588,T*3F
$GNACCURACY,2.8*1C
$GNGGA,040904.300,2500.7775104,N,12132.4560586,E,4,54,0.50,16.727,M,15.25,M,1,3335*47
$GNRMC,040904.300,A,2500.7775104,N,12132.4560586,E,0.01,135.00,090324,,,R,V*16
$GPHDT,,T*1B
$GNACCURACY,2.8*1C
$GNGGA,040904.400,2500.7775093,N,12132.4560543,E,4,54,0.50,16.739,M,15.25,M,1,3335*49
$GNRMC,040904.400,A,2500.7775093,N,12132.4560543,E,0.01,135.00,090324,,,R,V*17
$GPHDT,186.533,T*3F
$GNACCURACY,2.8*1C
$GNGGA,040904.500,2500.7775036,N,12132.4560462,E,4,54,0.50,16.747,M,15.25,M,1,3335*4C
$GNRMC,040904.500,A,2500.7775036,N,12132.4560462,E,0.01,135.00,090324,,,R,V*1B
$GPHDT,,T*1B
$GNACCURACY,2.8*1C
$GNGGA,040904.600,2500.7774984,N,12132.4560430,E,4,54,0.50,16.738,M,15.25,M,0,3335*40
$GNRMC,040904.600,A,2500.7774984,N,12132.4560430,E,0.02,135.00,090324,,,R,V*1D
$GPHDT,185.933,T*30
$GNACCURACY,2.8*1C
$GNGGA,040904.700,2500.7775202,N,12132.4560586,E,4,54,0.50,16.769,M,15.25,M,0,3335*4D
$GNRMC,040904.700,A,2500.7775202,N,12132.4560586,E,0.01,135.00,090324,,,R,V*17
$GPHDT,,T*1B
$GNACCURACY,2.8*1C
$GNGGA,040904.800,2500.7775078,N,12132.4560425,E,4,54,0.50,16.776,M,15.25,M,0,3335*4B
$GNRMC,040904.800,A,2500.7775078,N,12132.4560425,E,0.02,135.00,090324,,,R,V*1C
$GPHDT,184.748,T*33
$GNACCURACY,2.8*1C
$GNGGA,040904.900,2500.7775170,N,12132.4560516,E,4,54,0.50,16.748,M,15.25,M,0,3335*4F
$GNRMC,040904.900,A,2500.7775170,N,12132.4560516,E,0.02,135.00,090324,,,R,V*15
$GPHDT,,T*1B
$GNACCURACY,2.8*1C
$GNGGA,040905.000,2500.7775160,N,12132.4560512,E,4,54,0.50,16.756,M,15.25,M,1,3335*4C
$GNRMC,040905.000,A,2500.7775160,N,12132.4560512,E,0.01,135.00,090324,,,R,V*1B
$GPHDT,185.877,T*31
$GNACCURACY,2.8*1C
$GNGGA,040905.100,2500.7775125,N,12132.4560548,E,4,54,0.50,16.755,M,15.25,M,1,3335*40
$GNRMC,040905.100,A,2500.7775125,N,12132.4560548,E,0.01,135.00,090324,,,R,V*14
$GPHDT,,T*1B
$GNGSA,A,3,195,194,08,21,199,02,07,27,16,09,04,30,0.79,0.50,0.61,1*3F
$GNGSA,A,3,81,78,88,79,77,,,,,,,,0.79,0.50,0.61,2*06
$GNGSA,A,3,13,21,26,27,19,15,,,,,,,0.79,0.50,0.61,3*03
$GNGSA,A,3,09,23,06,16,07,40,39,43,28,10,25,37,0.79,0.50,0.61,4*07
$GPGSV,4,1,15,195,64,114,44,194,64,052,38,08,62,355,43,21,60,156,37,1*67
$GPGSV,4,2,15,50,60,167,30,199,60,167,28,02,48,177,31,07,41,316,42,1*56
$GPGSV,4,3,15,27,33,036,32,16,27,075,38,09,23,246,16,196,19,169,16,1*5D
$GPGSV,4,4,15,04,18,203,16,30,11,320,40,26,08,099,21,1*52
$GPGSV,2,1,08,194,64,052,40,195,64,114,44,08,62,355,41,199,60,167,27,8*58
$GPGSV,2,2,08,27,33,036,27,09,23,246,17,04,18,203,14,30,11,320,46,8*67
$GLGSV,2,1,06,81,65,200,42,78,56,037,33,88,55,032,31,79,26,334,37,1*72
$GLGSV,2,2,06,77,23,110,16,87,03,026,,1*70
$GAGSV,2,1,07,13,55,081,37,21,54,011,19,26,44,172,20,27,29,079,38,7*7B
$GAGSV,2,2,07,19,27,241,20,15,14,039,22,33,04,199,,7*42
$GAGSV,1,1,04,13,55,081,42,21,54,011,23,27,29,079,39,19,27,241,18,1*76
$GBGSV,4,1,13,09,73,266,42,23,73,031,43,06,71,215,39,16,68,199,42,1*7A
$GBGSV,4,2,13,07,60,308,39,40,60,329,42,39,58,187,34,43,58,036,29,1*74
$GBGSV,4,3,13,28,56,221,41,10,51,289,37,25,37,117,37,37,30,321,43,1*7C
$GBGSV,4,4,13,34,11,040,,1*47
$GBGSV,2,1,07,23,73,031,43,40,60,329,45,39,58,187,33,43,58,036,34,4*7D
$GBGSV,2,2,07,28,56,221,37,25,37,117,34,37,30,321,46,4*4E
$GNACCURACY,2.8*1C
$PAIRSAT,1,35,2,0,201,3,0,200,4,0,221,5,0,200,6,0,200,7,0,201,8,0,221,9,0,220,10,0,200,11,0,200,12,0,200,13,0,200,14,0,200,15,0,200,16,0,201,17,0,200,18,0,200,19,0,200,20,0,200,21,0,201,22,0,200,23,0,200,24,0,200,25,0,200,26,0,220,27,0,221,28,0,200,29,0,200,30,0,221,31,0,200,32,0,200,194,0,621,195,0,621,196,0,620,199,0,621*5A
$PAIRSAT,2,24,65,0,200,66,0,200,67,0,200,68,0,200,69,0,200,70,0,200,71,0,200,72,0,200,73,0,200,74,0,200,75,0,200,76,0,200,77,0,201,78,0,201,79,0,201,80,0,200,81,0,201,82,0,200,83,0,200,84,0,200,85,0,200,86,0,200,87,0,201,88,0,201*7A
$PAIRSAT,3,23,2,0,1200,3,0,1200,4,0,1200,5,0,200,7,0,1200,8,0,1200,9,0,1200,10,0,1200,11,0,1200,12,0,1200,13,0,1221,15,0,1220,19,0,1201,21,0,1221,24,0,1200,25,0,1200,26,0,1221,27,0,1221,30,0,1200,31,0,1200,33,0,1200,34,0,1000,36,0,1200*6B
$PAIRSAT,4,46,1,0,200,2,0,200,3,0,600,4,0,200,5,0,200,6,0,201,7,0,201,8,0,200,9,0,201,10,0,201,11,0,200,12,0,200,13,0,200,14,0,200,16,0,201,19,0,600,20,0,600,21,0,600,22,0,600,23,0,621,24,0,600,25,0,621,26,0,600,27,0,600,28,0,621,29,0,600,30,0,600,32,0,600,33,0,600,34,0,621,35,0,600,36,0,600,37,0,621,38,0,600,39,0,421,40,0,421,41,0,400,42,0,400,43,0,421,44,0,400,45,0,400,46,0,400,59,0,400,60,0,400,61,0,400,62,0,400*48
$PAIRDGP,10,2,4,7,8,9,16,21,26,27,30*42
$GNGGA,040905.200,2500.7775165,N,12132.4560572,E,4,54,0.50,16.763,M,15.25,M,1,3335*4B
$GNRMC,040905.200,A,2500.7775165,N,12132.4560572,E,0.01,135.00,090324,,,R,V*1A
$GPHDT,186.693,T*36
$GNACCURACY,2.8*1C
$GNGGA,040905.300,2500.7775153,N,12132.4560564,E,4,54,0.50,16.768,M,15.25,M,1,3335*43
$GNRMC,040905.300,A,2500.7775153,N,12132.4560564,E,0.00,135.00,090324,,,R,V*18
$GPHDT,,T*1B
$GNACCURACY,2.8*1C
$GNGGA,040905.400,2500.7775145,N,12132.4560572,E,4,54,0.50,16.761,M,15.25,M,1,3335*4D
$GNRMC,040905.400,A,2500.7775145,N,12132.4560572,E,0.01,135.00,090324,,,R,V*1E
$GPHDT,186.717,T*3B
$GNACCURACY,2.8*1C
$GNGGA,040905.500,2500.7775171,N,12132.4560605,E,4,54,0.50,16.767,M,15.25,M,1,3335*4E
$GNRMC,040905.500,A,2500.7775171,N,12132.4560605,E,0.01,135.00,090324,,,R,V*1B
$GPHDT,,T*1B
$GNACCURACY,2.8*1C
$GNGGA,040905.600,2500.7775161,N,12132.4560596,E,4,54,0.50,16.748,M,15.25,M,1,3335*48
$GNRMC,040905.600,A,2500.7775161,N,12132.4560596,E,0.02,135.00,090324,,,R,V*13
$GPHDT,186.294,T*35
$GNACCURACY,2.8*1C
$GNGGA,040905.700,2500.7775120,N,12132.4560579,E,4,54,0.50,16.732,M,15.25,M,0,3335*41
$GNRMC,040905.700,A,2500.7775120,N,12132.4560579,E,0.02,135.00,090324,,,R,V*16
$GPHDT,,T*1B
$GNACCURACY,2.8*1C
$GNGGA,040905.800,2500.7775126,N,12132.4560580,E,4,54,0.50,16.731,M,15.25,M,0,3335*4D
$GNRMC,040905.800,A,2500.7775126,N,12132.4560580,E,0.03,135.00,090324,,,R,V*18
$GPHDT,186.402,T*3C
$GNACCURACY,2.8*1C
$GNGGA,040905.900,2500.7775176,N,12132.4560591,E,4,54,0.50,16.741,M,15.25,M,0,3335*4E
$GNRMC,040905.900,A,2500.7775176,N,12132.4560591,E,0.03,135.00,090324,,,R,V*1C
$GPHDT,,T*1B
$GNACCURACY,2.8*1C
$GNGGA,040906.000,2500.7775167,N,12132.4560656,E,4,54,0.50,16.709,M,15.25,M,1,3335*41
$GNRMC,040906.000,A,2500.7775167,N,12132.4560656,E,0.02,135.00,090324,,,R,V*1F
$GPHDT,183.688,T*39
$GNACCURACY,2.8*1C
$GNGGA,040906.100,2500.7775178,N,12132.4560708,E,4,54,0.50,16.700,M,15.25,M,1,3335*4D
$GNRMC,040906.100,A,2500.7775178,N,12132.4560708,E,0.02,135.00,090324,,,R,V*1A
$GPHDT,,T*1B
$GNGSA,A,3,195,194,08,199,21,02,07,27,16,09,04,30,0.79,0.50,0.61,1*3F
$GNGSA,A,3,81,78,88,79,77,,,,,,,,0.79,0.50,0.61,2*06
$GNGSA,A,3,13,21,26,27,19,15,,,,,,,0.79,0.50,0.61,3*03
$GNGSA,A,3,23,09,06,16,40,07,39,43,28,10,25,37,0.79,0.50,0.61,4*07
$GPGSV,4,1,15,195,64,114,44,194,64,052,40,08,62,355,43,50,60,167,32,1*69
$GPGSV,4,2,15,199,60,167,29,21,60,156,39,02,48,177,33,07,41,316,42,1*58
$GPGSV,4,3,15,27,33,036,33,16,27,075,34,09,23,246,16,196,19,169,16,1*50
$GPGSV,4,4,15,04,18,203,16,30,11,320,38,26,08,099,22,1*5E
$GPGSV,2,1,08,194,64,052,43,195,64,114,45,08,62,355,46,199,60,167,27,8*5D
$GPGSV,2,2,08,27,33,036,26,09,23,246,17,04,18,203,12,30,11,320,46,8*60
$GLGSV,2,1,06,81,65,200,42,78,56,037,37,88,55,032,33,79,26,334,36,1*75
$GLGSV,2,2,06,77,23,110,17,87,03,026,,1*71
$GAGSV,2,1,07,13,55,081,39,21,54,011,25,26,44,172,19,27,29,079,34,7*7C
$GAGSV,2,2,07,19,27,241,19,15,14,039,21,33,04,199,,7*4B
$GAGSV,1,1,04,13,55,081,43,21,54,011,32,27,29,079,34,19,27,241,18,1*7A
$GBGSV,4,1,15,23,73,031,46,09,73,266,42,06,71,215,39,16,68,199,43,1*78
$GBGSV,4,2,15,40,60,329,42,07,60,308,40,39,58,187,34,43,58,036,34,1*70
$GBGSV,4,3,15,28,56,221,40,10,51,289,37,25,37,117,35,37,30,321,43,1*79
$GBGSV,4,4,15,34,11,040,,38,10,168,,08,01,177,,1*4C
$GBGSV,2,1,07,23,73,031,45,40,60,329,42,39,58,187,32,43,58,036,39,4*70
$GBGSV,2,2,07,28,56,221,37,25,37,117,37,37,30,321,46,4*4D
$GNACCURACY,2.8*1C
$PAIRSAT,1,35,2,0,201,3,0,200,4,0,221,5,0,200,6,0,200,7,0,201,8,0,221,9,0,220,10,0,200,11,0,200,12,0,200,13,0,200,14,0,200,15,0,200,16,0,201,17,0,200,18,0,200,19,0,200,20,0,200,21,0,201,22,0,200,23,0,200,24,0,200,25,0,200,26,0,220,27,0,221,28,0,200,29,0,200,30,0,221,31,0,200,32,0,200,194,0,621,195,0,621,196,0,620,199,0,621*5A
$PAIRSAT,2,24,65,0,200,66,0,200,67,0,200,68,0,200,69,0,200,70,0,200,71,0,200,72,0,200,73,0,200,74,0,200,75,0,200,76,0,200,77,0,201,78,0,201,79,0,201,80,0,200,81,0,201,82,0,200,83,0,200,84,0,200,85,0,200,86,0,200,87,0,201,88,0,201*7A
$PAIRSAT,3,23,2,0,1200,3,0,1200,4,0,1200,5,0,200,7,0,1200,8,0,1200,9,0,1200,10,0,1200,11,0,1200,12,0,1200,13,0,1221,15,0,1220,19,0,1201,21,0,1221,24,0,1200,25,0,1200,26,0,1221,27,0,1221,30,0,1200,31,0,1200,33,0,1200,34,0,1000,36,0,1200*6B
$PAIRSAT,4,46,1,0,200,2,0,200,3,0,600,4,0,200,5,0,200,6,0,201,7,0,201,8,0,200,9,0,201,10,0,201,11,0,200,12,0,200,13,0,200,14,0,200,16,0,201,19,0,600,20,0,600,21,0,600,22,0,600,23,0,621,24,0,600,25,0,621,26,0,600,27,0,600,28,0,621,29,0,600,30,0,600,32,0,600,33,0,600,34,0,621,35,0,600,36,0,600,37,0,621,38,0,600,39,0,421,40,0,421,41,0,400,42,0,400,43,0,421,44,0,400,45,0,400,46,0,400,59,0,400,60,0,400,61,0,400,62,0,400*48
$PAIRDGP,10,2,4,7,8,9,16,21,26,27,30*42
$GNGGA,040906.200,2500.7775179,N,12132.4560690,E,4,54,0.50,16.706,M,15.25,M,1,3335*49
$GNRMC,040906.200,A,2500.7775179,N,12132.4560690,E,0.02,135.00,090324,,,R,V*18
$GPHDT,183.885,T*3A
$GNACCURACY,2.8*1C
$GNGGA,040906.300,2500.7775180,N,12132.4560717,E,4,54,0.50,16.702,M,15.25,M,1,3335*44
$GNRMC,040906.300,A,2500.7775180,N,12132.4560717,E,0.02,135.00,090324,,,R,V*11
$GPHDT,,T*1B
$GNACCURACY,2.8*1C
$GNGGA,040906.400,2500.7775181,N,12132.4560739,E,4,54,0.50,16.703,M,15.25,M,1,3335*4F
$GNRMC,040906.400,A,2500.7775181,N,12132.4560739,E,0.02,135.00,090324,,,R,V*1B
$GPHDT,183.880,T*3F
$GNACCURACY,2.8*1C
$GNGGA,040906.500,2500.7775133,N,12132.4560557,E,4,53,0.50,16.745,M,15.25,M,0,3335*49
$GNRMC,040906.500,A,2500.7775133,N,12132.4560557,E,0.01,135.00,090324,,,R,V*1A
$GPHDT,,T*1B
$GNACCURACY,2.8*1C
$GNGGA,040906.600,2500.7775174,N,12132.4560566,E,4,53,0.50,16.744,M,15.25,M,0,3335*4A
$GNRMC,040906.600,A,2500.7775174,N,12132.4560566,E,0.03,135.00,090324,,,R,V*1A
$GPHDT,183.538,T*31
$GNACCURACY,2.8*1C
$GNGGA,040906.700,2500.7775146,N,12132.4560540,E,4,53,0.50,16.745,M,15.25,M,0,3335*4F
$GNRMC,040906.700,A,2500.7775146,N,12132.4560540,E,0.03,135.00,090324,,,R,V*1E
$GPHDT,,T*1B
$GNACCURACY,2.8*1C
$GNGGA,040906.800,2500.7775136,N,12132.4560551,E,4,53,0.50,16.755,M,15.25,M,0,3335*46
$GNRMC,040906.800,A,2500.7775136,N,12132.4560551,E,0.03,135.00,090324,,,R,V*16
$GPHDT,183.162,T*3A
$GNACCURACY,2.8*1C
$GNGGA,040906.900,2500.7775135,N,12132.4560525,E,4,53,0.50,16.753,M,15.25,M,0,3335*41
$GNRMC,040906.900,A,2500.7775135,N,12132.4560525,E,0.02,135.00,090324,,,R,V*16
$GPHDT,,T*1B
$GNACCURACY,2.8*1C
$GNGGA,040907.000,2500.7775140,N,12132.4560545,E,4,54,0.49,16.751,M,15.25,M,1,3335*41
$GNRMC,040907.000,A,2500.7775140,N,12132.4560545,E,0.03,135.00,090324,,,R,V*1B
$GPHDT,183.143,T*39
$GNACCURACY,2.8*1C
$GNGGA,040907.100,2500.7775136,N,12132.4560542,E,4,54,0.49,16.749,M,15.25,M,1,3335*4F
$GNRMC,040907.100,A,2500.7775136,N,12132.4560542,E,0.02,135.00,090324,,,R,V*1D
$GPHDT,,T*1B
$GNGSA,A,3,195,194,08,199,21,02,07,27,16,09,196,04,0.77,0.49,0.59,1*0F
$GNGSA,A,3,30,,,,,,,,,,,,0.77,0.49,0.59,1*03
$GNGSA,A,3,81,78,88,79,77,,,,,,,,0.77,0.49,0.59,2*0B
$GNGSA,A,3,13,21,26,27,19,15,,,,,,,0.77,0.49,0.59,3*0E
$GNGSA,A,3,09,23,06,16,40,07,39,43,28,10,25,37,0.77,0.49,0.59,4*0A
$GPGSV,4,1,15,195,64,114,44,194,64,052,40,08,62,355,44,50,60,167,32,1*6E
$GPGSV,4,2,15,199,60,167,30,21,60,156,40,02,48,177,33,07,41,316,42,1*5E
$GPGSV,4,3,15,27,33,036,30,16,27,075,38,09,23,246,17,196,19,169,16,1*5E
$GPGSV,4,4,15,04,18,203,16,30,11,320,37,26,08,099,22,1*51
$GPGSV,2,1,07,194,64,052,43,195,64,114,45,08,62,355,44,199,60,167,27,8*50
$GPGSV,2,2,07,27,33,036,22,09,23,246,16,30,11,320,46,8*55
$GLGSV,2,1,07,81,65,200,42,78,56,037,32,88,55,032,32,79,26,334,36,1*70
$GLGSV,2,2,07,77,23,110,21,82,15,204,,87,03,026,,1*4D
$GAGSV,2,1,06,13,55,081,39,21,54,011,21,26,44,172,18,27,29,079,36,7*7A
$GAGSV,2,2,06,19,27,241,18,15,14,039,21,7*7E
$GAGSV,1,1,04,13,55,081,43,21,54,011,31,27,29,079,38,19,27,241,18,1*75
$GBGSV,4,1,14,09,73,266,42,23,73,031,46,06,71,215,39,16,68,199,43,1*79
$GBGSV,4,2,14,40,60,329,40,07,60,308,41,39,58,187,34,43,58,036,30,1*76
$GBGSV,4,3,14,28,56,221,41,10,51,289,37,25,37,117,39,37,30,321,42,1*74
$GBGSV,4,4,14,34,11,040,,08,01,177,,1*78
$GBGSV,2,1,07,23,73,031,45,40,60,329,44,39,58,187,32,43,58,036,31,4*7E
$GBGSV,2,2,07,28,56,221,37,25,37,117,35,37,30,321,46,4*4F
$GNACCURACY,2.8*1C
$PAIRSAT,1,35,2,0,201,3,0,200,4,0,221,5,0,200,6,0,200,7,0,201,8,0,221,9,0,220,10,0,200,11,0,200,12,0,200,13,0,200,14,0,200,15,0,200,16,0,201,17,0,200,18,0,200,19,0,200,20,0,200,21,0,201,22,0,200,23,0,200,24,0,200,25,0,200,26,0,220,27,0,221,28,0,200,29,0,200,30,0,221,31,0,200,32,0,200,194,0,621,195,0,621,196,0,620,199,0,621*5A
$PAIRSAT,2,24,65,0,200,66,0,200,67,0,200,68,0,200,69,0,200,70,0,200,71,0,200,72,0,200,73,0,200,74,0,200,75,0,200,76,0,200,77,0,201,78,0,201,79,0,201,80,0,200,81,0,201,82,0,200,83,0,200,84,0,200,85,0,200,86,0,200,87,0,201,88,0,201*7A
$PAIRSAT,3,23,2,0,1200,3,0,1200,4,0,1200,5,0,200,7,0,1200,8,0,1200,9,0,1200,10,0,1200,11,0,1200,12,0,1200,13,0,1221,15,0,1220,19,0,1201,21,0,1221,24,0,1200,25,0,1200,26,0,1221,27,0,1221,30,0,1200,31,0,1200,33,0,1200,34,0,1000,36,0,1200*6B
$PAIRSAT,4,46,1,0,200,2,0,200,3,0,600,4,0,200,5,0,200,6,0,201,7,0,201,8,0,200,9,0,201,10,0,201,11,0,200,12,0,200,13,0,200,14,0,200,16,0,201,19,0,600,20,0,600,21,0,600,22,0,600,23,0,621,24,0,600,25,0,621,26,0,600,27,0,600,28,0,621,29,0,600,30,0,600,32,0,600,33,0,600,34,0,621,35,0,600,36,0,600,37,0,621,38,0,600,39,0,421,40,0,421,41,0,400,42,0,400,43,0,421,44,0,400,45,0,400,46,0,400,59,0,400,60,0,400,61,0,400,62,0,400*48
$PAIRDGP,10,2,4,7,8,9,16,21,26,27,30*42
$GNGGA,040907.200,2500.7775128,N,12132.4560538,E,4,54,0.49,16.745,M,15.25,M,1,3335*42
$GNRMC,040907.200,A,2500.7775128,N,12132.4560538,E,0.02,135.00,090324,,,R,V*1C
$GPHDT,181.717,T*3C
$GNACCURACY,2.8*1C
$GNGGA,040907.300,2500.7775145,N,12132.4560548,E,4,54,0.49,16.747,M,15.25,M,1,3335*4D
$GNRMC,040907.300,A,2500.7775145,N,12132.4560548,E,0.02,135.00,090324,,,R,V*11
$GPHDT,,T*1B
$GNACCURACY,2.8*1C
$GNGGA,040907.400,2500.7775148,N,12132.4560542,E,4,54,0.49,16.744,M,15.25,M,1,3335*4E
$GNRMC,040907.400,A,2500.7775148,N,12132.4560542,E,0.01,135.00,090324,,,R,V*12
$GPHDT,181.009,T*34
$GNACCURACY,2.8*1C
$GNGGA,040907.500,2500.7775139,N,12132.4560589,E,4,54,0.49,16.742,M,15.25,M,0,3335*49
$GNRMC,040907.500,A,2500.7775139,N,12132.4560589,E,0.01,135.00,090324,,,R,V*12
$GPHDT,,T*1B
$GNACCURACY,2.8*1C
$GNGGA,040907.600,2500.7775098,N,12132.4560607,E,4,54,0.49,16.729,M,15.25,M,0,3335*48
$GNRMC,040907.600,A,2500.7775098,N,12132.4560607,E,0.01,135.00,090324,,,R,V*1E
$GPHDT,180.660,T*3C
$GNACCURACY,2.8*1C
$GNGGA,040907.700,2500.7775102,N,12132.4560626,E,4,54,0.49,16.724,M,15.25,M,0,3335*45
$GNRMC,040907.700,A,2500.7775102,N,12132.4560626,E,0.01,135.00,090324,,,R,V*1E
$GPHDT,,T*1B
$GNACCURACY,2.8*1C
$GNGGA,040907.800,2500.7775109,N,12132.4560591,E,4,54,0.49,16.719,M,15.25,M,0,3335*40
$GNRMC,040907.800,A,2500.7775109,N,12132.4560591,E,0.02,135.00,090324,,,R,V*16
$GPHDT,182.180,T*37
$GNACCURACY,2.8*1C
$GNGGA,040907.900,2500.7775124,N,12132.4560603,E,4,54,0.49,16.718,M,15.25,M,0,3335*47
$GNRMC,040907.900,A,2500.7775124,N,12132.4560603,E,0.01,135.00,090324,,,R,V*13
$GPHDT,,T*1B
$GNACCURACY,2.8*1C
$GNGGA,040908.000,2500.7775118,N,12132.4560608,E,4,54,0.49,16.715,M,15.25,M,1,3335*49
$GNRMC,040908.000,A,2500.7775118,N,12132.4560608,E,0.01,135.00,090324,,,R,V*11
$GPHDT,182.471,T*3C
$GNACCURACY,2.8*1C
$GNGGA,040908.100,2500.7775102,N,12132.4560628,E,4,54,0.49,16.705,M,15.25,M,1,3335*40
$GNRMC,040908.100,A,2500.7775102,N,12132.4560628,E,0.01,135.00,090324,,,R,V*19
$GPHDT,,T*1B
$GNGSA,A,3,195,194,08,199,21,02,07,27,09,196,04,30,0.78,0.50,0.59,1*0C
$GNGSA,A,3,81,78,88,79,77,,,,,,,,0.78,0.50,0.59,2*0C
$GNGSA,A,3,13,21,26,27,19,15,,,,,,,0.78,0.50,0.59,3*09
$GNGSA,A,3,23,09,06,16,40,07,43,39,28,10,25,37,0.78,0.50,0.59,4*0D
$GPGSV,4,1,15,195,64,114,43,194,64,052,40,08,62,355,41,50,60,167,32,1*6C
$GPGSV,4,2,15,199,60,167,30,21,60,156,41,02,48,177,33,07,41,316,41,1*5C
$GPGSV,4,3,15,27,33,036,32,16,27,075,23,09,23,246,18,196,19,169,16,1*59
$GPGSV,4,4,15,04,18,203,16,30,11,320,37,26,08,099,22,1*51
$GPGSV,2,1,07,194,64,052,43,195,64,114,45,08,62,355,45,199,60,167,29,8*5F
$GPGSV,2,2,07,27,33,036,24,09,23,246,17,30,11,320,46,8*52
$GLGSV,2,1,07,81,65,200,42,78,56,037,32,88,55,032,33,79,26,334,35,1*72
$GLGSV,2,2,07,77,23,110,22,82,15,204,,87,03,026,,1*4E
$GAGSV,2,1,07,13,55,081,38,21,54,011,21,26,44,172,18,27,29,079,25,7*78
$GAGSV,2,2,07,19,27,241,18,15,14,039,20,04,12,299,,7*4B
$GAGSV,1,1,04,13,55,081,43,21,54,011,31,27,29,079,30,19,27,241,18,1*7D
$GBGSV,4,1,13,23,73,031,45,09,73,266,42,06,71,215,39,16,68,199,43,1*7D
$GBGSV,4,2,13,40,60,329,42,07,60,308,41,43,58,036,30,39,58,187,33,1*74
$GBGSV,4,3,13,28,56,221,40,10,51,289,37,25,37,117,36,37,30,321,42,1*7D
$GBGSV,4,4,13,34,11,040,,1*47
$GBGSV,2,1,07,23,73,031,45,40,60,329,43,39,58,187,33,43,58,036,37,4*7E
$GBGSV,2,2,07,28,56,221,36,25,37,117,35,37,30,321,46,4*4E
$GNACCURACY,2.8*1C
$PAIRSAT,1,35,2,0,201,3,0,200,4,0,221,5,0,200,6,0,200,7,0,201,8,0,221,9,0,220,10,0,200,11,0,200,12,0,200,13,0,200,14,0,200,15,0,200,16,0,201,17,0,200,18,0,200,19,0,200,20,0,200,21,0,201,22,0,200,23,0,200,24,0,200,25,0,200,26,0,220,27,0,221,28,0,200,29,0,200,30,0,221,31,0,200,32,0,200,194,0,621,195,0,621,196,0,620,199,0,621*5A
$PAIRSAT,2,24,65,0,200,66,0,200,67,0,200,68,0,200,69,0,200,70,0,200,71,0,200,72,0,200,73,0,200,74,0,200,75,0,200,76,0,200,77,0,201,78,0,201,79,0,201,80,0,200,81,0,201,82,0,200,83,0,200,84,0,200,85,0,200,86,0,200,87,0,201,88,0,201*7A
$PAIRSAT,3,23,2,0,1200,3,0,1200,4,0,1200,5,0,200,7,0,1200,8,0,1200,9,0,1200,10,0,1200,11,0,1200,12,0,1200,13,0,1221,15,0,1220,19,0,1201,21,0,1221,24,0,1200,25,0,1200,26,0,1221,27,0,1221,30,0,1200,31,0,1200,33,0,1200,34,0,1000,36,0,1200*6B
$PAIRSAT,4,46,1,0,200,2,0,200,3,0,600,4,0,200,5,0,200,6,0,201,7,0,201,8,0,200,9,0,201,10,0,201,11,0,200,12,0,200,13,0,200,14,0,200,16,0,201,19,0,600,20,0,600,21,0,600,22,0,600,23,0,621,24,0,600,25,0,621,26,0,600,27,0,600,28,0,621,29,0,600,30,0,600,32,0,600,33,0,600,34,0,621,35,0,600,36,0,600,37,0,621,38,0,600,39,0,421,40,0,421,41,0,400,42,0,400,43,0,421,44,0,400,45,0,400,46,0,400,59,0,400,60,0,400,61,0,400,62,0,400*48
$PAIRDGP,10,2,4,7,8,9,16,21,26,27,30*42
$GNGGA,040908.200,2500.7775045,N,12132.4560588,E,4,53,0.50,16.700,M,15.25,M,1,3335*42
$GNRMC,040908.200,A,2500.7775045,N,12132.4560588,E,0.01,135.00,090324,,,R,V*11
$GPHDT,182.501,T*3A
$GNACCURACY,2.8*1C
$GNGGA,040908.300,2500.7775074,N,12132.4560624,E,4,53,0.50,16.707,M,15.25,M,1,3335*43
$GNRMC,040908.300,A,2500.7775074,N,12132.4560624,E,0.01,135.00,090324,,,R,V*17
$GPHDT,,T*1B
$GNACCURACY,2.8*1C
$GNGGA,040908.400,2500.7775053,N,12132.4560579,E,4,54,0.50,16.722,M,15.25,M,1,3335*4A
$GNRMC,040908.400,A,2500.7775053,N,12132.4560579,E,0.01,135.00,090324,,,R,V*1E
$GPHDT,182.226,T*38
$GNACCURACY,2.8*1C
$GNGGA,040908.500,2500.7775037,N,12132.4560540,E,4,54,0.50,16.729,M,15.25,M,1,3335*48
$GNRMC,040908.500,A,2500.7775037,N,12132.4560540,E,0.02,135.00,090324,,,R,V*14
$GPHDT,,T*1B
$GNACCURACY,2.8*1C
$GNGGA,040908.600,2500.7774996,N,12132.4560495,E,4,55,0.49,16.744,M,15.25,M,1,3335*43
$GNRMC,040908.600,A,2500.7774996,N,12132.4560495,E,0.01,135.00,090324,,,R,V*1E
$GPHDT,181.549,T*35
$GNACCURACY,2.8*1C
$GNGGA,040908.700,2500.7774993,N,12132.4560485,E,4,55,0.49,16.749,M,15.25,M,1,3335*4B
$GNRMC,040908.700,A,2500.7774993,N,12132.4560485,E,0.02,135.00,090324,,,R,V*18
$GPHDT,,T*1B
$GNACCURACY,2.8*1C
$GNGGA,040908.800,2500.7775016,N,12132.4560466,E,4,55,0.49,16.760,M,15.25,M,0,3335*46
$GNRMC,040908.800,A,2500.7775016,N,12132.4560466,E,0.01,135.00,090324,,,R,V*1C
$GPHDT,180.390,T*36
$GNACCURACY,2.8*1C
$GNGGA,040908.900,2500.7774999,N,12132.4560471,E,4,55,0.49,16.749,M,15.25,M,0,3335*45
$GNRMC,040908.900,A,2500.7774999,N,12132.4560471,E,0.01,135.00,090324,,,R,V*14
$GPHDT,,T*1B
$GNACCURACY,2.8*1C
$GNGGA,040909.000,2500.7774995,N,12132.4560480,E,4,55,0.49,16.756,M,15.25,M,1,3335*40
$GNRMC,040909.000,A,2500.7774995,N,12132.4560480,E,0.01,135.00,090324,,,R,V*1E
$GPHDT,179.751,T*39
$GNACCURACY,2.8*1C
$GNGGA,040909.100,2500.7775054,N,12132.4560553,E,4,55,0.49,16.756,M,15.25,M,1,3335*4B
$GNRMC,040909.100,A,2500.7775054,N,12132.4560553,E,0.01,135.00,090324,,,R,V*15
$GPHDT,,T*1B
$GNGSA,A,3,195,194,08,199,21,02,07,27,16,09,196,30,0.79,0.50,0.61,1*05
$GNGSA,A,3,81,78,88,79,77,,,,,,,,0.79,0.50,0.61,2*06
$GNGSA,A,3,13,21,26,27,19,15,,,,,,,0.79,0.50,0.61,3*03
$GNGSA,A,3,23,09,06,16,40,07,39,43,28,10,25,37,0.79,0.50,0.61,4*07
$GPGSV,4,1,15,195,64,114,43,194,64,052,40,08,62,355,40,50,60,167,32,1*6D
$GPGSV,4,2,15,199,60,167,30,21,60,156,43,02,48,177,33,07,41,316,42,1*5D
$GPGSV,4,3,15,27,33,036,30,16,27,075,37,09,23,246,26,196,19,169,17,1*52
$GPGSV,4,4,15,04,18,203,14,30,11,320,37,26,08,099,21,1*50
$GPGSV,2,1,07,194,64,052,43,195,64,114,44,08,62,355,42,199,60,167,29,8*59
$GPGSV,2,2,07,27,33,036,23,09,23,246,18,30,11,320,46,8*5A
$GLGSV,2,1,07,81,65,200,43,78,56,037,30,88,55,032,29,79,26,334,34,1*7B
$GLGSV,2,2,07,77,23,110,23,82,15,204,,87,03,026,,1*4F
$GAGSV,2,1,07,13,55,081,36,21,54,012,23,26,44,172,19,27,29,079,36,7*74
$GAGSV,2,2,07,19,27,241,19,15,14,039,23,04,12,299,,7*49
$GAGSV,2,1,05,13,55,081,41,21,54,012,29,27,29,079,39,19,27,241,21,1*74
$GAGSV,2,2,05,15,14,039,19,1*43
$GBGSV,4,1,14,23,73,031,44,09,73,266,42,06,71,215,40,16,68,199,43,1*75
$GBGSV,4,2,14,40,60,329,40,07,60,308,39,39,58,187,31,43,58,036,39,1*75
$GBGSV,4,3,14,28,56,221,41,10,51,289,37,25,37,117,41,37,30,321,43,1*7A
$GBGSV,4,4,14,34,11,040,,27,10,220,,1*74
$GBGSV,2,1,07,23,73,031,44,40,60,329,43,39,58,187,33,43,58,036,31,4*79
$GBGSV,2,2,07,28,56,221,34,25,37,117,39,37,30,321,46,4*40
$GNACCURACY,2.8*1C
$PAIRSAT,1,35,2,0,201,3,0,200,4,0,221,5,0,200,6,0,200,7,0,201,8,0,221,9,0,220,10,0,200,11,0,200,12,0,200,13,0,200,14,0,200,15,0,200,16,0,201,17,0,200,18,0,200,19,0,200,20,0,200,21,0,201,22,0,200,23,0,200,24,0,200,25,0,200,26,0,220,27,0,221,28,0,200,29,0,200,30,0,221,31,0,200,32,0,200,194,0,621,195,0,621,196,0,620,199,0,621*5A
$PAIRSAT,2,24,65,0,200,66,0,200,67,0,200,68,0,200,69,0,200,70,0,200,71,0,200,72,0,200,73,0,200,74,0,200,75,0,200,76,0,200,77,0,201,78,0,201,79,0,201,80,0,200,81,0,201,82,0,200,83,0,200,84,0,200,85,0,200,86,0,200,87,0,201,88,0,201*7A
$PAIRSAT,3,23,2,0,1200,3,0,1200,4,0,1200,5,0,200,7,0,1200,8,0,1200,9,0,1200,10,0,1200,11,0,1200,12,0,1200,13,0,1221,15,0,1220,19,0,1201,21,0,1221,24,0,1200,25,0,1200,26,0,1221,27,0,1221,30,0,1200,31,0,1200,33,0,1200,34,0,1000,36,0,1200*6B
$PAIRSAT,4,46,1,0,200,2,0,200,3,0,600,4,0,200,5,0,200,6,0,201,7,0,201,8,0,200,9,0,201,10,0,201,11,0,200,12,0,200,13,0,200,14,0,200,16,0,201,19,0,600,20,0,600,21,0,600,22,0,600,23,0,621,24,0,600,25,0,621,26,0,600,27,0,600,28,0,621,29,0,600,30,0,600,32,0,600,33,0,600,34,0,621,35,0,600,36,0,600,37,0,621,38,0,600,39,0,421,40,0,421,41,0,400,42,0,400,43,0,421,44,0,400,45,0,400,46,0,400,59,0,400,60,0,400,61,0,400,62,0,400*48
$PAIRDGP,10,2,4,7,8,9,16,21,26,27,30*42
$GNGGA,040909.200,2500.7775045,N,12132.4560529,E,4,54,0.50,16.751,M,15.25,M,1,3335*4B
$GNRMC,040909.200,A,2500.7775045,N,12132.4560529,E,0.01,135.00,090324,,,R,V*1B
$GPHDT,179.713,T*3F
$GNACCURACY,2.8*1C
$GNGGA,040909.300,2500.7775030,N,12132.4560518,E,4,54,0.50,16.745,M,15.25,M,1,3335*4F
$GNRMC,040909.300,A,2500.7775030,N,12132.4560518,E,0.01,135.00,090324,,,R,V*1A
$GPHDT,,T*1B
$GNACCURACY,2.8*1C
$GNGGA,040909.400,2500.7775074,N,12132.4560525,E,4,54,0.50,16.752,M,15.25,M,1,3335*40
$GNRMC,040909.400,A,2500.7775074,N,12132.4560525,E,0.01,135.00,090324,,,R,V*13
$GPHDT,179.927,T*36
$GNACCURACY,2.8*1C
$GNGGA,040909.500,2500.7775129,N,12132.4560522,E,4,54,0.50,16.760,M,15.25,M,0,3335*4F
$GNRMC,040909.500,A,2500.7775129,N,12132.4560522,E,0.01,135.00,090324,,,R,V*1C
$GPHDT,,T*1B
$GNACCURACY,2.8*1C
$GNGGA,040909.600,2500.7775174,N,12132.4560589,E,4,54,0.50,16.748,M,15.25,M,0,3335*4F
$GNRMC,040909.600,A,2500.7775174,N,12132.4560589,E,0.01,135.00,090324,,,R,V*16
$GPHDT,180.531,T*3B
$GNACCURACY,2.8*1C
$GNGGA,040909.700,2500.7775169,N,12132.4560584,E,4,54,0.50,16.750,M,15.25,M,0,3335*46
$GNRMC,040909.700,A,2500.7775169,N,12132.4560584,E,0.01,135.00,090324,,,R,V*16
$GPHDT,,T*1B
$GNACCURACY,2.8*1C
$GNGGA,040909.800,2500.7775186,N,12132.4560599,E,4,54,0.50,16.753,M,15.25,M,0,3335*47
$GNRMC,040909.800,A,2500.7775186,N,12132.4560599,E,0.01,135.00,090324,,,R,V*14
$GPHDT,180.999,T*35
$GNACCURACY,2.8*1C
$GNGGA,040909.900,2500.7775196,N,12132.4560625,E,4,54,0.50,16.745,M,15.25,M,0,3335*44
$GNRMC,040909.900,A,2500.7775196,N,12132.4560625,E,0.01,135.00,090324,,,R,V*10
$GPHDT,,T*1B
