$FW : RTK35X,V1.1X0314AS,Lib20210517,1*54
$Tool : LOCOSYS , GNSS Firebird , v1.0.0.19*39
$---------------------------------------------------*2D
221,31,25,37,117,40,37,30,321,30,34,12,040,16,4*71
$GNACCURACY,2.7*13
$PAIRSAT,1,35,2,0,201,3,0,200,4,0,221,5,0,200,6,0,200,7,0,201,8,0,221,9,0,220,10,0,200,11,0,200,12,0,200,13,0,200,14,0,200,15,0,200,16,0,201,17,0,200,18,0,200,19,0,200,20,0,200,21,0,201,22,0,200,23,0,200,24,0,200,25,0,200,26,0,220,27,0,221,28,0,200,29,0,200,30,0,221,31,0,200,32,0,200,194,0,621,195,0,621,196,0,620,199,0,621*5A
$PAIRSAT,2,24,65,0,200,66,0,200,67,0,200,68,0,200,69,0,200,70,0,200,71,0,200,72,0,200,73,0,200,74,0,200,75,0,200,76,0,200,77,0,1,78,0,201,79,0,201,80,0,200,81,0,201,82,0,200,83,0,200,84,0,200,85,0,200,86,0,200,87,0,201,88,0,201*78
$PAIRSAT,3,23,2,0,1200,3,0,1200,4,0,1200,5,0,200,7,0,1200,8,0,1200,9,0,1200,10,0,1200,11,0,1200,12,0,1200,13,0,1221,15,0,1220,19,0,200,21,0,221,24,0,1200,25,0,1200,26,0,1221,27,0,1221,30,0,1200,31,0,1200,33,0,1200,34,0,1000,36,0,1200*6A
$PAIRSAT,4,46,1,0,200,2,0,200,3,0,600,4,0,200,5,0,200,6,0,201,7,0,201,8,0,200,9,0,201,10,0,201,11,0,200,12,0,200,13,0,200,14,0,200,16,0,201,19,0,600,20,0,600,21,0,600,22,0,600,23,0,621,24,0,600,25,0,621,26,0,600,27,0,600,28,0,621,29,0,600,30,0,600,32,0,600,33,0,600,34,0,621,35,0,600,36,0,600,37,0,421,38,0,400,39,0,421,40,0,421,41,0,400,42,0,400,43,0,421,44,0,400,45,0,400,46,0,400,59,0,400,60,0,400,61,0,400,62,0,400*48
$PAIRDGP,10,2,4,7,8,9,16,21,26,27,30*42
$GNGGA,040808.200,2500.7775356,N,12132.4560431,E,4,56,0.50,16.783,M,15.25,M,1,3335*4F
$GNRMC,040808.200,A,2500.7775356,N,12132.4560431,E,0.01,135.00,090324,,,R,V*12
$GPHDT,315.995,T*37
$GNACCURACY,2.7*13
$GNGGA,040808.300,2500.7775318,N,12132.4560391,E,4,56,0.50,16.772,M,15.25,M,1,3335*47
$GNRMC,040808.300,A,2500.7775318,N,12132.4560391,E,0.01,135.00,090324,,,R,V*14
$GPHDT,,T*1B
$GNACCURACY,2.8*1C
$GNGGA,040808.400,2500.7775349,N,12132.4560410,E,4,57,0.50,16.779,M,15.25,M,1,3335*40
$GNRMC,040808.400,A,2500.7775349,N,12132.4560410,E,0.01,135.00,090324,,,R,V*19
$GPHDT,317.074,T*33
$GNACCURACY,2.8*1C
$GNGGA,040808.500,2500.7775407,N,12132.4560443,E,4,57,0.50,16.792,M,15.25,M,1,3335*4F
$GNRMC,040808.500,A,2500.7775407,N,12132.4560443,E,0.03,135.00,090324,,,R,V*11
$GPHDT,,T*1B
$GNACCURACY,2.8*1C
$GNGGA,040808.600,2500.7775373,N,12132.4560477,E,4,57,0.50,16.799,M,15.25,M,1,3335*44
$GNRMC,040808.600,A,2500.7775373,N,12132.4560477,E,0.05,135.00,090324,,,R,V*17
$GPHDT,316.842,T*3F
$GNACCURACY,2.8*1C
$GNGGA,040808.700,2500.7775277,N,12132.4560408,E,4,56,0.50,16.789,M,15.25,M,0,3335*49
$GNRMC,040808.700,A,2500.7775277,N,12132.4560408,E,0.04,135.00,090324,,,R,V*1A
$GPHDT,,T*1B
$GNACCURACY,2.8*1C
$GNGGA,040808.800,2500.7775313,N,12132.4560408,E,4,56,0.50,16.779,M,15.25,M,0,3335*4A
$GNRMC,040808.800,A,2500.7775313,N,12132.4560408,E,0.05,135.00,090324,,,R,V*17
$GPHDT,317.356,T*30
$GNACCURACY,2.8*1C
$GNGGA,040808.900,2500.7775283,N,12132.4560398,E,4,56,0.50,16.781,M,15.25,M,0,3335*4A
$GNRMC,040808.900,A,2500.7775283,N,12132.4560398,E,0.06,135.00,090324,,,R,V*13
$GPHDT,,T*1B
$GNACCURACY,2.8*1C
$GNGGA,040809.000,2500.7775290,N,12132.4560406,E,4,56,0.50,16.775,M,15.25,M,1,3335*4A
$GNRMC,040809.000,A,2500.7775290,N,12132.4560406,E,0.07,135.00,090324,,,R,V*18
$GPHDT,317.369,T*3C
$GNACCURACY,2.8*1C
$GNGGA,040809.100,2500.7775282,N,12132.4560378,E,4,54,0.50,16.777,M,15.25,M,1,3335*46
$GNRMC,040809.100,A,2500.7775282,N,12132.4560378,E,0.06,135.00,090324,,,R,V*15
$GPHDT,,T*1B
$GNGSA,A,3,194,195,08,199,21,07,27,16,09,04,30,196,0.77,0.50,0.58,1*07
$GNGSA,A,3,81,88,78,79,77,,,,,,,,0.77,0.50,0.58,2*02
$GNGSA,A,3,13,21,26,27,15,,,,,,,,0.77,0.50,0.58,3*0F
$GNGSA,A,3,09,23,06,16,40,07,43,39,28,10,25,37,0.77,0.50,0.58,4*03
$GNGSA,A,3,34,,,,,,,,,,,,0.77,0.50,0.58,4*0B
$GPGSV,4,1,15,194,64,052,43,195,64,114,45,08,63,354,39,50,60,167,26,1*63
$GPGSV,4,2,15,199,60,167,20,21,59,156,32,02,48,177,23,07,41,317,37,1*52
$GPGSV,4,3,15,27,33,036,28,16,27,075,42,09,24,247,16,196,19,169,15,1*5E
$GPGSV,4,4,15,04,18,203,18,30,11,320,29,26,08,099,25,1*57
$GPGSV,3,1,09,195,64,114,44,194,64,052,45,08,63,354,42,199,60,167,33,8*5B
$GPGSV,3,2,09,27,33,036,29,09,24,247,24,196,19,169,13,30,11,320,38,8*55
$GPGSV,3,3,09,26,08,099,20,8*5A
$GLGSV,2,1,06,81,64,200,41,88,56,032,35,78,56,036,40,79,26,333,29,1*7A
$GLGSV,2,2,06,77,24,110,22,87,03,026,16,1*77
$GAGSV,2,1,06,13,55,081,45,21,54,011,26,26,43,172,21,27,29,079,41,7*7B
$GAGSV,2,2,06,19,28,241,21,15,14,039,19,7*70
$GAGSV,2,1,06,13,55,081,46,21,54,011,31,26,43,172,18,27,29,079,40,1*73
$GAGSV,2,2,06,19,28,241,18,15,14,039,17,1*72
$GBGSV,4,1,13,09,73,267,40,23,73,030,47,06,71,215,32,16,68,198,39,1*7A
$GBGSV,4,2,13,40,61,328,41,07,60,308,36,43,59,037,43,39,58,187,27,1*76
$GBGSV,4,3,13,28,55,221,39,10,51,289,38,25,37,117,42,37,30,321,32,1*7B
$GBGSV,4,4,13,34,12,040,,1*44
$GBGSV,2,1,08,23,73,030,45,40,61,328,40,43,59,037,43,39,58,187,30,4*73
$GBGSV,2,2,08,28,55,221,29,25,37,117,41,37,30,321,29,34,12,040,16,4*71
$GNACCURACY,2.8*1C
$PAIRSAT,1,35,2,0,201,3,0,200,4,0,221,5,0,200,6,0,200,7,0,201,8,0,221,9,0,220,10,0,200,11,0,200,12,0,200,13,0,200,14,0,200,15,0,200,16,0,201,17,0,200,18,0,200,19,0,200,20,0,200,21,0,201,22,0,200,23,0,200,24,0,200,25,0,200,26,0,220,27,0,221,28,0,200,29,0,200,30,0,221,31,0,200,32,0,200,194,0,621,195,0,621,196,0,620,199,0,621*5A
$PAIRSAT,2,24,65,0,200,66,0,200,67,0,200,68,0,200,69,0,200,70,0,200,71,0,200,72,0,200,73,0,200,74,0,200,75,0,200,76,0,200,77,0,1,78,0,201,79,0,201,80,0,200,81,0,201,82,0,200,83,0,200,84,0,200,85,0,200,86,0,200,87,0,201,88,0,201*78
$PAIRSAT,3,23,2,0,1200,3,0,1200,4,0,1200,5,0,200,7,0,1200,8,0,1200,9,0,1200,10,0,1200,11,0,1200,12,0,1200,13,0,1221,15,0,1220,19,0,200,21,0,221,24,0,1200,25,0,1200,26,0,1221,27,0,1221,30,0,1200,31,0,1200,33,0,1200,34,0,1000,36,0,1200*6A
$PAIRSAT,4,46,1,0,200,2,0,200,3,0,600,4,0,200,5,0,200,6,0,201,7,0,201,8,0,200,9,0,201,10,0,201,11,0,200,12,0,200,13,0,200,14,0,200,16,0,201,19,0,600,20,0,600,21,0,600,22,0,600,23,0,621,24,0,600,25,0,621,26,0,600,27,0,600,28,0,621,29,0,600,30,0,600,32,0,600,33,0,600,34,0,621,35,0,600,36,0,600,37,0,421,38,0,400,39,0,421,40,0,421,41,0,400,42,0,400,43,0,421,44,0,400,45,0,400,46,0,400,59,0,400,60,0,400,61,0,400,62,0,400*48
$PAIRDGP,10,2,4,7,8,9,16,21,26,27,30*42
$GNGGA,040809.200,2500.7775340,N,12132.4560378,E,4,54,0.50,16.766,M,15.25,M,1,3335*4A
$GNRMC,040809.200,A,2500.7775340,N,12132.4560378,E,0.04,135.00,090324,,,R,V*1B
$GPHDT,317.462,T*30
$GNACCURACY,2.8*1C
$GNGGA,040809.300,2500.7775318,N,12132.4560383,E,4,54,0.50,16.762,M,15.25,M,1,3335*46
$GNRMC,040809.300,A,2500.7775318,N,12132.4560383,E,0.02,135.00,090324,,,R,V*15
$GPHDT,,T*1B
$GNACCURACY,2.8*1C
$GNGGA,040809.400,2500.7775365,N,12132.4560377,E,4,54,0.50,16.761,M,15.25,M,1,3335*43
$GNRMC,040809.400,A,2500.7775365,N,12132.4560377,E,0.02,135.00,090324,,,R,V*13
$GPHDT,317.353,T*35
$GNACCURACY,2.8*1C
$GNGGA,040809.500,2500.7775341,N,12132.4560360,E,4,54,0.50,16.783,M,15.25,M,0,3335*4F
$GNRMC,040809.500,A,2500.7775341,N,12132.4560360,E,0.02,135.00,090324,,,R,V*12
$GPHDT,,T*1B
$GNACCURACY,2.8*1C
$GNGGA,040809.600,2500.7775383,N,12132.4560390,E,4,53,0.50,16.784,M,15.25,M,0,3335*4D
$GNRMC,040809.600,A,2500.7775383,N,12132.4560390,E,0.02,135.00,090324,,,R,V*10
$GPHDT,317.504,T*31
$GNACCURACY,2.8*1C
$GNGGA,040809.700,2500.7775376,N,12132.4560370,E,4,53,0.50,16.778,M,15.25,M,0,3335*4B
$GNRMC,040809.700,A,2500.7775376,N,12132.4560370,E,0.01,135.00,090324,,,R,V*16
$GPHDT,,T*1B
$GNACCURACY,2.7*13
$GNGGA,040809.800,2500.7775367,N,12132.4560350,E,4,53,0.50,16.776,M,15.25,M,0,3335*48
$GNRMC,040809.800,A,2500.7775367,N,12132.4560350,E,0.02,135.00,090324,,,R,V*18
$GPHDT,318.359,T*30
$GNACCURACY,2.7*13
$GNGGA,040809.900,2500.7775393,N,12132.4560396,E,4,54,0.50,16.782,M,15.25,M,0,3335*44
$GNRMC,040809.900,A,2500.7775393,N,12132.4560396,E,0.02,135.00,090324,,,R,V*18
$GPHDT,,T*1B
$GNACCURACY,2.7*13
$GNGGA,040810.000,2500.7775370,N,12132.4560378,E,4,54,0.50,16.774,M,15.25,M,1,3335*40
$GNRMC,040810.000,A,2500.7775370,N,12132.4560378,E,0.02,135.00,090324,,,R,V*14
$GPHDT,318.001,T*3E
$GNACCURACY,2.7*13
$GNGGA,040810.100,2500.7775362,N,12132.4560383,E,4,54,0.50,16.772,M,15.25,M,1,3335*40
$GNRMC,040810.100,A,2500.7775362,N,12132.4560383,E,0.03,135.00,090324,,,R,V*13
$GPHDT,,T*1B
$GNGSA,A,3,194,195,08,199,21,07,27,16,09,04,30,196,0.77,0.50,0.58,1*07
$GNGSA,A,3,81,88,78,79,77,,,,,,,,0.77,0.50,0.58,2*02
$GNGSA,A,3,13,21,26,27,15,,,,,,,,0.77,0.50,0.58,3*0F
$GNGSA,A,3,09,23,06,16,40,07,43,39,28,10,25,37,0.77,0.50,0.58,4*03
$GNGSA,A,3,34,,,,,,,,,,,,0.77,0.50,0.58,4*0B
$GPGSV,4,1,15,194,64,052,43,195,64,114,45,08,63,354,40,50,60,167,27,1*6C
$GPGSV,4,2,15,199,60,167,24,21,59,156,39,02,48,177,23,07,41,317,39,1*53
$GPGSV,4,3,15,27,33,036,29,16,27,075,41,09,24,247,20,196,19,169,16,1*5A
$GPGSV,4,4,15,04,18,203,18,30,11,320,29,26,08,099,25,1*57
$GPGSV,3,1,10,194,64,052,46,195,64,114,45,08,63,354,44,199,60,167,34,8*50
$GPGSV,3,2,10,27,33,036,29,09,24,247,21,196,19,169,14,04,18,203,16,8*5D
$GPGSV,3,3,10,30,11,320,38,26,08,099,21,8*6A
$GLGSV,2,1,06,81,64,200,44,88,56,032,36,78,56,036,40,79,26,333,30,1*74
$GLGSV,2,2,06,77,24,110,23,87,03,026,17,1*77
$GAGSV,2,1,06,13,55,081,44,21,54,011,28,26,43,172,21,27,29,079,42,7*77
$GAGSV,2,2,06,19,28,241,17,15,14,039,19,7*75
$GAGSV,2,1,06,13,55,081,45,21,54,011,34,26,43,172,19,27,29,079,42,1*76
$GAGSV,2,2,06,19,28,241,17,15,14,039,18,1*72
$GBGSV,4,1,13,09,73,267,40,23,73,030,47,06,71,215,36,16,68,198,42,1*72
$GBGSV,4,2,13,40,61,328,40,07,60,308,37,43,59,037,44,39,58,187,27,1*71
$GBGSV,4,3,13,28,55,221,41,10,51,289,38,25,37,117,42,37,30,321,37,1*71
$GBGSV,4,4,13,34,12,040,,1*44
$GBGSV,2,1,08,23,73,030,48,40,61,328,41,43,59,037,42,39,58,187,32,4*7C
$GBGSV,2,2,08,28,55,221,35,25,37,117,41,37,30,321,30,34,12,040,16,4*74
$GNACCURACY,2.7*13
$PAIRSAT,1,35,2,0,201,3,0,200,4,0,221,5,0,200,6,0,200,7,0,201,8,0,221,9,0,220,10,0,200,11,0,200,12,0,200,13,0,200,14,0,200,15,0,200,16,0,201,17,0,200,18,0,200,19,0,200,20,0,200,21,0,201,22,0,200,23,0,200,24,0,200,25,0,200,26,0,220,27,0,221,28,0,200,29,0,200,30,0,221,31,0,200,32,0,200,194,0,621,195,0,621,196,0,620,199,0,621*5A
$PAIRSAT,2,24,65,0,200,66,0,200,67,0,200,68,0,200,69,0,200,70,0,200,71,0,200,72,0,200,73,0,200,74,0,200,75,0,200,76,0,200,77,0,1,78,0,201,79,0,201,80,0,200,81,0,201,82,0,200,83,0,200,84,0,200,85,0,200,86,0,200,87,0,201,88,0,201*78
$PAIRSAT,3,23,2,0,1200,3,0,1200,4,0,1200,5,0,200,7,0,1200,8,0,1200,9,0,1200,10,0,1200,11,0,1200,12,0,1200,13,0,1221,15,0,1220,19,0,200,21,0,221,24,0,1200,25,0,1200,26,0,1221,27,0,1221,30,0,1200,31,0,1200,33,0,1200,34,0,1000,36,0,1200*6A
$PAIRSAT,4,46,1,0,200,2,0,200,3,0,600,4,0,200,5,0,200,6,0,201,7,0,201,8,0,200,9,0,201,10,0,201,11,0,200,12,0,200,13,0,200,14,0,200,16,0,201,19,0,600,20,0,600,21,0,600,22,0,600,23,0,621,24,0,600,25,0,621,26,0,600,27,0,600,28,0,621,29,0,600,30,0,600,32,0,600,33,0,600,34,0,621,35,0,600,36,0,600,37,0,421,38,0,400,39,0,421,40,0,421,41,0,400,42,0,400,43,0,421,44,0,400,45,0,400,46,0,400,59,0,400,60,0,400,61,0,400,62,0,400*48
$PAIRDGP,10,2,4,7,8,9,16,21,26,27,30*42
$GNGGA,040810.200,2500.7775367,N,12132.4560387,E,4,54,0.50,16.772,M,15.25,M,1,3335*42
$GNRMC,040810.200,A,2500.7775367,N,12132.4560387,E,0.03,135.00,090324,,,R,V*11
$GPHDT,317.847,T*3B
$GNACCURACY,2.7*13
$GNGGA,040810.300,2500.7775389,N,12132.4560386,E,4,54,0.50,16.788,M,15.25,M,1,3335*47
$GNRMC,040810.300,A,2500.7775389,N,12132.4560386,E,0.03,135.00,090324,,,R,V*11
$GPHDT,,T*1B
$GNACCURACY,2.7*13
$GNGGA,040810.400,2500.7775343,N,12132.4560373,E,4,54,0.50,16.784,M,15.25,M,1,3335*40
$GNRMC,040810.400,A,2500.7775343,N,12132.4560373,E,0.05,135.00,090324,,,R,V*1C
$GPHDT,317.988,T*39
$GNACCURACY,2.7*13
$GNGGA,040810.500,2500.7775393,N,12132.4560403,E,4,54,0.50,16.785,M,15.25,M,0,3335*4C
$GNRMC,040810.500,A,2500.7775393,N,12132.4560403,E,0.05,135.00,090324,,,R,V*10
$GPHDT,,T*1B
$GNACCURACY,2.7*13
$GNGGA,040810.600,2500.7775405,N,12132.4560360,E,4,54,0.50,16.784,M,15.25,M,0,3335*44
$GNRMC,040810.600,A,2500.7775405,N,12132.4560360,E,0.05,135.00,090324,,,R,V*19
$GPHDT,317.996,T*36
$GNACCURACY,2.7*13
$GNGGA,040810.700,2500.7775407,N,12132.4560366,E,4,54,0.50,16.770,M,15.25,M,0,3335*4A
$GNRMC,040810.700,A,2500.7775407,N,12132.4560366,E,0.04,135.00,090324,,,R,V*1D
$GPHDT,,T*1B
$GNACCURACY,2.7*13
$GNGGA,040810.800,2500.7775373,N,12132.4560390,E,4,55,0.50,16.769,M,15.25,M,0,3335*41
$GNRMC,040810.800,A,2500.7775373,N,12132.4560390,E,0.04,135.00,090324,,,R,V*1F
$GPHDT,318.870,T*30
$GNACCURACY,2.7*13
$GNGGA,040810.900,2500.7775404,N,12132.4560399,E,4,55,0.50,16.772,M,15.25,M,0,3335*44
$GNRMC,040810.900,A,2500.7775404,N,12132.4560399,E,0.04,135.00,090324,,,R,V*10
$GPHDT,,T*1B
$GNACCURACY,2.7*13
$GNGGA,040811.000,2500.7775440,N,12132.4560422,E,4,54,0.50,16.787,M,15.25,M,1,3335*41
$GNRMC,040811.000,A,2500.7775440,N,12132.4560422,E,0.03,135.00,090324,,,R,V*18
$GPHDT,318.089,T*3E
$GNACCURACY,2.8*1C
$GNGGA,040811.100,2500.7775438,N,12132.4560429,E,4,54,0.50,16.782,M,15.25,M,1,3335*41
$GNRMC,040811.100,A,2500.7775438,N,12132.4560429,E,0.02,135.00,090324,,,R,V*1C
$GPHDT,,T*1B
$GNGSA,A,3,194,195,08,21,02,07,27,16,09,04,199,196,0.76,0.50,0.58,1*07
$GNGSA,A,3,30,,,,,,,,,,,,0.76,0.50,0.58,1*0B
$GNGSA,A,3,81,88,78,79,77,,,,,,,,0.76,0.50,0.58,2*03
$GNGSA,A,3,13,21,26,27,15,,,,,,,,0.76,0.50,0.58,3*0E
$GNGSA,A,3,09,23,06,16,40,07,43,39,28,10,25,37,0.76,0.50,0.58,4*02
$GNGSA,A,3,34,,,,,,,,,,,,0.76,0.50,0.58,4*0A
$GPGSV,4,1,15,194,64,052,43,195,64,114,45,08,63,354,40,50,60,167,28,1*63
$GPGSV,4,2,15,199,60,167,25,21,59,156,38,02,48,177,25,07,41,317,37,1*5B
$GPGSV,4,3,15,27,33,036,30,16,27,075,42,09,24,247,18,196,19,169,23,1*5C
$GPGSV,4,4,15,04,18,203,17,30,11,320,25,26,08,099,25,1*54
$GPGSV,3,1,10,194,64,052,45,195,64,114,47,08,63,354,44,199,60,167,30,8*55
$GPGSV,3,2,10,27,33,036,28,09,24,247,22,196,19,169,14,04,18,203,15,8*5C
$GPGSV,3,3,10,30,11,320,38,26,08,099,22,8*69
$GLGSV,2,1,06,81,64,200,37,88,56,032,36,78,56,036,42,79,26,333,29,1*7A
$GLGSV,2,2,06,77,24,110,22,87,03,026,15,1*74
$GAGSV,2,1,06,13,55,081,44,21,54,011,26,26,43,172,20,27,29,079,43,7*79
$GAGSV,2,2,06,19,28,241,16,15,14,039,24,7*7A
$GAGSV,2,1,05,13,55,081,46,21,54,011,32,26,43,172,17,27,29,079,40,1*7C
$GAGSV,2,2,05,15,14,039,16,1*4C
$GBGSV,4,1,13,09,73,267,40,23,73,030,47,06,71,215,33,16,68,198,38,1*7A
$GBGSV,4,2,13,40,61,328,42,07,60,308,38,43,59,037,42,39,58,187,20,1*7D
$GBGSV,4,3,13,28,55,221,34,10,51,289,39,25,37,117,42,37,30,321,37,1*72
$GBGSV,4,4,13,34,12,040,,1*44
$GBGSV,2,1,08,23,73,030,48,40,61,328,41,43,59,037,43,39,58,187,25,4*7B
$GBGSV,2,2,08,28,55,221,32,25,37,117,40,37,30,321,36,34,12,040,16,4*74
$GNACCURACY,2.8*1C
$PAIRSAT,1,35,2,0,201,3,0,200,4,0,221,5,0,200,6,0,200,7,0,201,8,0,221,9,0,220,10,0,200,11,0,200,12,0,200,13,0,200,14,0,200,15,0,200,16,0,201,17,0,200,18,0,200,19,0,200,20,0,200,21,0,201,22,0,200,23,0,200,24,0,200,25,0,200,26,0,220,27,0,221,28,0,200,29,0,200,30,0,221,31,0,200,32,0,200,194,0,621,195,0,621,196,0,620,199,0,621*5A
$PAIRSAT,2,24,65,0,200,66,0,200,67,0,200,68,0,200,69,0,200,70,0,200,71,0,200,72,0,200,73,0,200,74,0,200,75,0,200,76,0,200,77,0,1,78,0,201,79,0,201,80,0,200,81,0,201,82,0,200,83,0,200,84,0,200,85,0,200,86,0,200,87,0,201,88,0,201*78
$PAIRSAT,3,23,2,0,1200,3,0,1200,4,0,1200,5,0,200,7,0,1200,8,0,1200,9,0,1200,10,0,1200,11,0,1200,12,0,1200,13,0,1221,15,0,1220,19,0,200,21,0,221,24,0,1200,25,0,1200,26,0,1221,27,0,1221,30,0,1200,31,0,1200,33,0,1200,34,0,1000,36,0,1200*6A
$PAIRSAT,4,46,1,0,200,2,0,200,3,0,600,4,0,200,5,0,200,6,0,201,7,0,201,8,0,200,9,0,201,10,0,201,11,0,200,12,0,200,13,0,200,14,0,200,16,0,201,19,0,600,20,0,600,21,0,600,22,0,600,23,0,621,24,0,600,25,0,621,26,0,600,27,0,600,28,0,621,29,0,600,30,0,600,32,0,600,33,0,600,34,0,621,35,0,600,36,0,600,37,0,421,38,0,400,39,0,421,40,0,421,41,0,400,42,0,400,43,0,421,44,0,400,45,0,400,46,0,400,59,0,400,60,0,400,61,0,400,62,0,400*48
$PAIRDGP,10,2,4,7,8,9,16,21,26,27,30*42
$GNGGA,040811.200,2500.7775430,N,12132.4560419,E,4,53,0.50,16.767,M,15.25,M,1,3335*45
$GNRMC,040811.200,A,2500.7775430,N,12132.4560419,E,0.01,135.00,090324,,,R,V*17
$GPHDT,318.151,T*3A
$GNACCURACY,2.8*1C
$GNGGA,040811.300,2500.7775397,N,12132.4560434,E,4,56,0.50,16.783,M,15.25,M,1,3335*4E
$GNRMC,040811.300,A,2500.7775397,N,12132.4560434,E,0.02,135.00,090324,,,R,V*10
$GPHDT,,T*1B
$GNACCURACY,2.8*1C
$GNGGA,040811.400,2500.7775430,N,12132.4560443,E,4,56,0.50,16.773,M,15.25,M,1,3335*4C
$GNRMC,040811.400,A,2500.7775430,N,12132.4560443,E,0.02,135.00,090324,,,R,V*1D
$GPHDT,317.742,T*31
$GNACCURACY,2.8*1C
$GNGGA,040811.500,2500.7775415,N,12132.4560445,E,4,56,0.50,16.791,M,15.25,M,1,3335*40
$GNRMC,040811.500,A,2500.7775415,N,12132.4560445,E,0.02,135.00,090324,,,R,V*1D
$GPHDT,,T*1B
$GNACCURACY,2.8*1C
$GNGGA,040811.600,2500.7775362,N,12132.4560419,E,4,56,0.50,16.777,M,15.25,M,0,3335*44
$GNRMC,040811.600,A,2500.7775362,N,12132.4560419,E,0.03,135.00,090324,,,R,V*11
$GPHDT,317.774,T*34
$GNACCURACY,2.8*1C
$GNGGA,040811.700,2500.7775341,N,12132.4560389,E,4,57,0.50,16.780,M,15.25,M,0,3335*43
$GNRMC,040811.700,A,2500.7775341,N,12132.4560389,E,0.03,135.00,090324,,,R,V*1F
$GPHDT,,T*1B
$GNACCURACY,2.8*1C
$GNGGA,040811.800,2500.7775334,N,12132.4560371,E,4,57,0.50,16.785,M,15.25,M,0,3335*4C
$GNRMC,040811.800,A,2500.7775334,N,12132.4560371,E,0.03,135.00,090324,,,R,V*15
$GPHDT,317.990,T*30
$GNACCURACY,2.8*1C
$GNGGA,040811.900,2500.7775314,N,12132.4560355,E,4,57,0.50,16.781,M,15.25,M,0,3335*4D
$GNRMC,040811.900,A,2500.7775314,N,12132.4560355,E,0.03,135.00,090324,,,R,V*10
$GPHDT,,T*1B
$GNACCURACY,2.8*1C
$GNGGA,040812.000,2500.7775335,N,12132.4560383,E,4,56,0.50,16.757,M,15.25,M,1,3335*44
$GNRMC,040812.000,A,2500.7775335,N,12132.4560383,E,0.02,135.00,090324,,,R,V*13
$GPHDT,317.978,T*36
$GNACCURACY,2.8*1C
$GNGGA,040812.100,2500.7775332,N,12132.4560375,E,4,57,0.50,16.758,M,15.25,M,1,3335*45
$GNRMC,040812.100,A,2500.7775332,N,12132.4560375,E,0.02,135.00,090324,,,R,V*1C
$GPHDT,,T*1B
$GNGSA,A,3,194,195,08,199,21,02,07,27,16,09,196,04,0.76,0.50,0.58,1*07
$GNGSA,A,3,30,,,,,,,,,,,,0.76,0.50,0.58,1*0B
$GNGSA,A,3,81,88,78,79,77,,,,,,,,0.76,0.50,0.58,2*03
$GNGSA,A,3,13,21,26,27,15,,,,,,,,0.76,0.50,0.58,3*0E
$GNGSA,A,3,09,23,06,16,40,07,43,39,28,10,25,37,0.76,0.50,0.58,4*02
$GNGSA,A,3,34,,,,,,,,,,,,0.76,0.50,0.58,4*0A
$GPGSV,4,1,15,194,64,052,43,195,64,114,46,08,63,354,41,50,60,167,28,1*61
$GPGSV,4,2,15,199,60,167,25,21,59,156,39,02,48,177,26,07,41,317,39,1*57
$GPGSV,4,3,15,27,33,036,28,16,27,075,40,09,24,247,21,196,19,169,18,1*55
$GPGSV,4,4,15,04,18,203,19,30,11,320,29,26,08,099,26,1*55
$GPGSV,3,1,10,194,64,052,45,195,64,114,46,08,63,354,44,199,60,167,32,8*56
$GPGSV,3,2,10,27,33,036,30,09,24,247,22,196,19,169,14,04,18,203,14,8*54
$GPGSV,3,3,10,30,11,320,38,26,08,099,20,8*6B
$GLGSV,2,1,06,81,64,200,43,88,56,032,37,78,56,036,41,79,26,333,26,1*74
$GLGSV,2,2,06,77,24,110,21,87,03,026,17,1*75
$GAGSV,2,1,06,13,55,081,44,21,54,011,27,26,43,172,19,27,29,079,41,7*70
$GAGSV,2,2,06,19,28,241,17,15,14,039,25,7*7A
$GAGSV,2,1,05,13,55,081,45,21,54,011,32,26,43,172,16,27,29,079,40,1*7E
$GAGSV,2,2,05,15,14,039,16,1*4C
$GBGSV,4,1,13,09,73,267,40,23,73,030,47,06,71,215,36,16,68,198,41,1*71
$GBGSV,4,2,13,40,61,328,42,07,60,308,38,43,59,037,43,39,58,187,24,1*78
$GBGSV,4,3,13,28,55,221,39,10,51,289,39,25,37,117,42,37,30,321,35,1*7D
$GBGSV,4,4,13,34,12,040,,1*44
$GBGSV,2,1,08,23,73,030,47,40,61,328,41,43,59,037,42,39,58,187,29,4*79
$GBGSV,2,2,08,28,55,221,33,25,37,117,40,37,30,321,33,34,12,040,16,4*70
$GNACCURACY,2.8*1C
$PAIRSAT,1,35,2,0,201,3,0,200,4,0,221,5,0,200,6,0,200,7,0,201,8,0,221,9,0,220,10,0,200,11,0,200,12,0,200,13,0,200,14,0,200,15,0,200,16,0,201,17,0,200,18,0,200,19,0,200,20,0,200,21,0,201,22,0,200,23,0,200,24,0,200,25,0,200,26,0,220,27,0,221,28,0,200,29,0,200,30,0,221,31,0,200,32,0,200,194,0,621,195,0,621,196,0,620,199,0,621*5A
$PAIRSAT,2,24,65,0,200,66,0,200,67,0,200,68,0,200,69,0,200,70,0,200,71,0,200,72,0,200,73,0,200,74,0,200,75,0,200,76,0,200,77,0,1,78,0,201,79,0,201,80,0,200,81,0,201,82,0,200,83,0,200,84,0,200,85,0,200,86,0,200,87,0,201,88,0,201*78
$PAIRSAT,3,23,2,0,1200,3,0,1200,4,0,1200,5,0,200,7,0,1200,8,0,1200,9,0,1200,10,0,1200,11,0,1200,12,0,1200,13,0,1221,15,0,1220,19,0,200,21,0,221,24,0,1200,25,0,1200,26,0,1221,27,0,1221,30,0,1200,31,0,1200,33,0,1200,34,0,1000,36,0,1200*6A
$PAIRSAT,4,46,1,0,200,2,0,200,3,0,600,4,0,200,5,0,200,6,0,201,7,0,201,8,0,200,9,0,201,10,0,201,11,0,200,12,0,200,13,0,200,14,0,200,16,0,201,19,0,600,20,0,600,21,0,600,22,0,600,23,0,621,24,0,600,25,0,621,26,0,600,27,0,600,28,0,621,29,0,600,30,0,600,32,0,600,33,0,600,34,0,621,35,0,600,36,0,600,37,0,421,38,0,400,39,0,421,40,0,421,41,0,400,42,0,400,43,0,421,44,0,400,45,0,400,46,0,400,59,0,400,60,0,400,61,0,400,62,0,400*48
$PAIRDGP,10,2,4,7,8,9,16,21,26,27,30*42
$GNGGA,040812.200,2500.7775348,N,12132.4560363,E,4,57,0.50,16.751,M,15.25,M,1,3335*45
$GNRMC,040812.200,A,2500.7775348,N,12132.4560363,E,0.02,135.00,090324,,,R,V*15
$GPHDT,318.502,T*38
$GNACCURACY,2.8*1C
$GNGGA,040812.300,2500.7775372,N,12132.4560387,E,4,56,0.50,16.756,M,15.25,M,1,3335*41
$GNRMC,040812.300,A,2500.7775372,N,12132.4560387,E,0.03,135.00,090324,,,R,V*16
$GPHDT,,T*1B
$GNACCURACY,2.7*13
$GNGGA,040812.400,2500.7775387,N,12132.4560403,E,4,55,0.50,16.745,M,15.25,M,1,3335*46
$GNRMC,040812.400,A,2500.7775387,N,12132.4560403,E,0.02,135.00,090324,,,R,V*11
$GPHDT,317.687,T*39
$GNACCURACY,2.7*13
$GNGGA,040812.500,2500.7775385,N,12132.4560376,E,4,56,0.50,16.760,M,15.25,M,1,3335*44
$GNRMC,040812.500,A,2500.7775385,N,12132.4560376,E,0.03,135.00,090324,,,R,V*16
$GPHDT,,T*1B
$GNACCURACY,2.7*13
$GNGGA,040812.600,2500.7775385,N,12132.4560383,E,4,55,0.50,16.753,M,15.25,M,1,3335*4E
$GNRMC,040812.600,A,2500.7775385,N,12132.4560383,E,0.02,135.00,090324,,,R,V*1E
$GPHDT,318.343,T*3B
$GNACCURACY,2.7*13
$GNGGA,040812.700,2500.7775390,N,12132.4560430,E,4,55,0.50,16.764,M,15.25,M,0,3335*41
$GNRMC,040812.700,A,2500.7775390,N,12132.4560430,E,0.02,135.00,090324,,,R,V*14
$GPHDT,,T*1B
$GNACCURACY,2.7*13
$GNGGA,040812.800,2500.7775378,N,12132.4560391,E,4,56,0.50,16.751,M,15.25,M,0,3335*41
$GNRMC,040812.800,A,2500.7775378,N,12132.4560391,E,0.03,135.00,090324,,,R,V*10
$GPHDT,318.130,T*3D
$GNACCURACY,2.7*13
$GNGGA,040812.900,2500.7775370,N,12132.4560407,E,4,55,0.50,16.762,M,15.25,M,0,3335*43
$GNRMC,040812.900,A,2500.7775370,N,12132.4560407,E,0.03,135.00,090324,,,R,V*11
$GPHDT,,T*1B
$GNACCURACY,2.7*13
$GNGGA,040813.000,2500.7775354,N,12132.4560378,E,4,56,0.50,16.759,M,15.25,M,1,3335*48
$GNRMC,040813.000,A,2500.7775354,N,12132.4560378,E,0.03,135.00,090324,,,R,V*10
$GPHDT,318.585,T*37
$GNACCURACY,2.7*13
$GNGGA,040813.100,2500.7775370,N,12132.4560395,E,4,56,0.50,16.766,M,15.25,M,1,3335*40
$GNRMC,040813.100,A,2500.7775370,N,12132.4560395,E,0.03,135.00,090324,,,R,V*14
$GPHDT,,T*1B
$GNGSA,A,3,194,195,08,199,21,02,07,27,16,09,196,04,0.76,0.50,0.58,1*07
$GNGSA,A,3,30,,,,,,,,,,,,0.76,0.50,0.58,1*0B
$GNGSA,A,3,81,88,78,79,77,,,,,,,,0.76,0.50,0.58,2*03
$GNGSA,A,3,13,21,26,27,15,,,,,,,,0.76,0.50,0.58,3*0E
$GNGSA,A,3,09,23,06,16,40,07,43,39,28,10,25,37,0.76,0.50,0.58,4*02
$GNGSA,A,3,34,,,,,,,,,,,,0.76,0.50,0.58,4*0A
$GPGSV,4,1,15,194,64,052,43,195,64,114,46,08,63,354,41,50,60,167,28,1*61
$GPGSV,4,2,15,199,60,167,25,21,59,156,39,02,48,177,26,07,41,317,39,1*57
$GPGSV,4,3,15,27,33,036,28,16,27,075,41,09,24,247,20,196,19,169,17,1*5A
$GPGSV,4,4,15,04,18,203,19,30,11,320,27,26,08,099,24,1*59
$GPGSV,3,1,09,194,64,052,45,195,64,114,46,08,63,354,44,199,60,167,33,8*5F
$GPGSV,3,2,09,27,33,036,30,09,24,247,21,04,18,203,12,30,11,320,38,8*6D
$GPGSV,3,3,09,26,08,099,23,8*59
$GLGSV,2,1,06,81,64,200,43,88,56,032,37,78,56,036,41,79,26,333,30,1*73
$GLGSV,2,2,06,77,24,110,17,87,03,026,17,1*70
$GAGSV,2,1,06,13,55,081,45,21,54,011,24,26,43,172,24,27,29,079,41,7*7C
$GAGSV,2,2,06,19,28,241,18,15,14,039,21,7*71
$GAGSV,2,1,05,13,55,081,45,21,54,011,33,26,43,172,19,27,29,079,42,1*72
$GAGSV,2,2,05,15,14,039,16,1*4C
$GBGSV,4,1,13,09,73,267,40,23,73,030,47,06,71,215,37,16,68,198,41,1*70
$GBGSV,4,2,13,40,61,328,41,07,60,308,38,43,59,037,43,39,58,187,24,1*7B
$GBGSV,4,3,13,28,55,221,40,10,51,289,40,25,37,117,42,37,30,321,37,1*7F
$GBGSV,4,4,13,34,12,040,,1*44
$GBGSV,2,1,08,23,73,030,48,40,61,328,41,43,59,037,42,39,58,187,29,4*76
$GBGSV,2,2,08,28,55,221,34,25,37,117,39,37,30,321,32,34,12,040,16,4*78
$GNACCURACY,2.7*13
$PAIRSAT,1,35,2,0,201,3,0,200,4,0,221,5,0,200,6,0,200,7,0,201,8,0,221,9,0,220,10,0,200,11,0,200,12,0,200,13,0,200,14,0,200,15,0,200,16,0,201,17,0,200,18,0,200,19,0,200,20,0,200,21,0,201,22,0,200,23,0,200,24,0,200,25,0,200,26,0,220,27,0,221,28,0,200,29,0,200,30,0,221,31,0,200,32,0,200,194,0,621,195,0,621,196,0,620,199,0,621*5A
$PAIRSAT,2,24,65,0,200,66,0,200,67,0,200,68,0,200,69,0,200,70,0,200,71,0,200,72,0,200,73,0,200,74,0,200,75,0,200,76,0,200,77,0,1,78,0,201,79,0,201,80,0,200,81,0,201,82,0,200,83,0,200,84,0,200,85,0,200,86,0,200,87,0,201,88,0,201*78
$PAIRSAT,3,23,2,0,1200,3,0,1200,4,0,1200,5,0,200,7,0,1200,8,0,1200,9,0,1200,10,0,1200,11,0,1200,12,0,1200,13,0,1221,15,0,1220,19,0,200,21,0,221,24,0,1200,25,0,1200,26,0,1221,27,0,1221,30,0,1200,31,0,1200,33,0,1200,34,0,1000,36,0,1200*6A
$PAIRSAT,4,46,1,0,200,2,0,200,3,0,600,4,0,200,5,0,200,6,0,201,7,0,201,8,0,200,9,0,201,10,0,201,11,0,200,12,0,200,13,0,200,14,0,200,16,0,201,19,0,600,20,0,600,21,0,600,22,0,600,23,0,621,24,0,600,25,0,621,26,0,600,27,0,600,28,0,621,29,0,600,30,0,600,32,0,600,33,0,600,34,0,621,35,0,600,36,0,600,37,0,421,38,0,400,39,0,421,40,0,421,41,0,400,42,0,400,43,0,421,44,0,400,45,0,400,46,0,400,59,0,400,60,0,400,61,0,400,62,0,400*48
$PAIRDGP,10,2,4,7,8,9,16,21,26,27,30*42
$GNGGA,040813.200,2500.7775350,N,12132.4560398,E,4,56,0.50,16.757,M,15.25,M,1,3335*4E
$GNRMC,040813.200,A,2500.7775350,N,12132.4560398,E,0.03,135.00,090324,,,R,V*18
$GPHDT,318.346,T*3E
$GNACCURACY,2.7*13
$GNGGA,040813.300,2500.7775346,N,12132.4560400,E,4,55,0.50,16.767,M,15.25,M,1,3335*4E
$GNRMC,040813.300,A,2500.7775346,N,12132.4560400,E,0.03,135.00,090324,,,R,V*18
$GPHDT,,T*1B
$GNACCURACY,2.7*13
$GNGGA,040813.400,2500.7775351,N,12132.4560381,E,4,55,0.50,16.770,M,15.25,M,1,3335*47
$GNRMC,040813.400,A,2500.7775351,N,12132.4560381,E,0.09,135.00,090324,,,R,V*1D
$GPHDT,317.961,T*3E
$GNACCURACY,2.7*13
$GNGGA,040813.500,2500.7775359,N,12132.4560383,E,4,55,0.50,16.774,M,15.25,M,1,3335*48
$GNRMC,040813.500,A,2500.7775359,N,12132.4560383,E,0.07,135.00,090324,,,R,V*18
$GPHDT,,T*1B
$GNACCURACY,2.7*13
$GNGGA,040813.600,2500.7775381,N,12132.4560375,E,4,55,0.50,16.758,M,15.25,M,0,3335*48
$GNRMC,040813.600,A,2500.7775381,N,12132.4560375,E,0.06,135.00,090324,,,R,V*16
$GPHDT,317.984,T*35
$GNACCURACY,2.7*13
$GNGGA,040813.700,2500.7775377,N,12132.4560370,E,4,56,0.50,16.761,M,15.25,M,0,3335*4C
$GNRMC,040813.700,A,2500.7775377,N,12132.4560370,E,0.05,135.00,090324,,,R,V*18
$GPHDT,,T*1B
$GNACCURACY,2.7*13
$GNGGA,040813.800,2500.7775410,N,12132.4560354,E,4,54,0.50,16.761,M,15.25,M,0,3335*41
$GNRMC,040813.800,A,2500.7775410,N,12132.4560354,E,0.05,135.00,090324,,,R,V*17
$GPHDT,316.261,T*34
$GNACCURACY,2.7*13
$GNGGA,040813.900,2500.7775364,N,12132.4560364,E,4,55,0.50,16.758,M,15.25,M,0,3335*4C
$GNRMC,040813.900,A,2500.7775364,N,12132.4560364,E,0.06,135.00,090324,,,R,V*12
$GPHDT,,T*1B
$GNACCURACY,2.7*13
$GNGGA,040814.000,2500.7775375,N,12132.4560355,E,4,55,0.50,16.764,M,15.25,M,1,3335*4E
$GNRMC,040814.000,A,2500.7775375,N,12132.4560355,E,0.05,135.00,090324,,,R,V*1D
$GPHDT,311.388,T*35
$GNACCURACY,2.8*1C
$GNGGA,040814.100,2500.7775355,N,12132.4560390,E,4,56,0.50,16.772,M,15.25,M,1,3335*40
$GNRMC,040814.100,A,2500.7775355,N,12132.4560390,E,0.06,135.00,090324,,,R,V*14
$GPHDT,,T*1B
$GNGSA,A,3,194,195,08,199,21,07,27,16,09,196,04,30,0.77,0.50,0.58,1*07
$GNGSA,A,3,81,78,88,79,77,,,,,,,,0.77,0.50,0.58,2*02
$GNGSA,A,3,13,21,26,27,15,,,,,,,,0.77,0.50,0.58,3*0F
$GNGSA,A,3,23,09,06,16,40,07,43,39,28,10,25,37,0.77,0.50,0.58,4*03
$GNGSA,A,3,34,,,,,,,,,,,,0.77,0.50,0.58,4*0B
$GPGSV,4,1,15,194,64,052,42,195,64,114,46,08,63,354,41,50,60,167,28,1*60
$GPGSV,4,2,15,199,60,167,25,21,59,156,38,02,48,177,24,07,41,317,39,1*54
$GPGSV,4,3,15,27,33,036,28,16,27,075,41,09,24,247,18,196,19,169,17,1*51
$GPGSV,4,4,15,04,18,203,19,30,11,320,30,26,08,099,24,1*5F
$GPGSV,3,1,09,194,64,052,45,195,64,114,46,08,63,354,43,199,60,167,32,8*59
$GPGSV,3,2,09,27,33,036,33,09,24,247,20,04,18,203,15,30,11,320,38,8*68
$GPGSV,3,3,09,26,08,099,21,8*5B
$GLGSV,2,1,07,81,64,200,42,78,56,036,41,88,56,032,36,79,26,333,29,1*7A
$GLGSV,2,2,07,77,24,110,17,82,15,204,,87,03,026,17,1*49
$GAGSV,2,1,07,13,55,081,45,21,54,011,25,26,43,172,24,27,29,079,41,7*7C
$GAGSV,2,2,07,19,28,241,18,15,14,039,22,04,12,299,,7*46
$GAGSV,2,1,05,13,55,081,45,21,54,011,33,26,43,172,20,27,29,079,43,1*79
$GAGSV,2,2,05,15,14,039,16,1*4C
$GBGSV,4,1,13,23,73,030,47,09,73,267,40,06,71,215,34,16,68,198,40,1*72
$GBGSV,4,2,13,40,61,328,40,07,60,308,38,43,59,037,44,39,58,187,23,1*7A
$GBGSV,4,3,13,28,55,221,39,10,51,289,40,25,37,117,42,37,30,321,28,1*7F
$GBGSV,4,4,13,34,12,040,,1*44
$GBGSV,2,1,08,23,73,030,48,40,61,328,41,43,59,037,42,39,58,187,29,4*76
$GBGSV,2,2,08,28,55,221,31,25,37,117,41,37,30,321,35,34,12,040,17,4*74
$GNACCURACY,2.7*13
$PAIRSAT,1,35,2,0,201,3,0,200,4,0,221,5,0,200,6,0,200,7,0,201,8,0,221,9,0,220,10,0,200,11,0,200,12,0,200,13,0,200,14,0,200,15,0,200,16,0,201,17,0,200,18,0,200,19,0,200,20,0,200,21,0,201,22,0,200,23,0,200,24,0,200,25,0,200,26,0,220,27,0,221,28,0,200,29,0,200,30,0,221,31,0,200,32,0,200,194,0,621,195,0,621,196,0,620,199,0,621*5A
$PAIRSAT,2,24,65,0,200,66,0,200,67,0,200,68,0,200,69,0,200,70,0,200,71,0,200,72,0,200,73,0,200,74,0,200,75,0,200,76,0,200,77,0,1,78,0,201,79,0,201,80,0,200,81,0,201,82,0,200,83,0,200,84,0,200,85,0,200,86,0,200,87,0,201,88,0,201*78
$PAIRSAT,3,23,2,0,1200,3,0,1200,4,0,1200,5,0,200,7,0,1200,8,0,1200,9,0,1200,10,0,1200,11,0,1200,12,0,1200,13,0,1221,15,0,1220,19,0,200,21,0,221,24,0,1200,25,0,1200,26,0,1221,27,0,1221,30,0,1200,31,0,1200,33,0,1200,34,0,1000,36,0,1200*6A
$PAIRSAT,4,46,1,0,200,2,0,200,3,0,600,4,0,200,5,0,200,6,0,201,7,0,201,8,0,200,9,0,201,10,0,201,11,0,200,12,0,200,13,0,200,14,0,200,16,0,201,19,0,600,20,0,600,21,0,600,22,0,600,23,0,621,24,0,600,25,0,621,26,0,600,27,0,600,28,0,621,29,0,600,30,0,600,32,0,600,33,0,600,34,0,621,35,0,600,36,0,600,37,0,421,38,0,400,39,0,421,40,0,421,41,0,400,42,0,400,43,0,421,44,0,400,45,0,400,46,0,400,59,0,400,60,0,400,61,0,400,62,0,400*48
$PAIRDGP,10,2,4,7,8,9,16,21,26,27,30*42
$GNGGA,040814.200,2500.7775345,N,12132.4560358,E,4,55,0.50,16.766,M,15.25,M,1,3335*40
$GNRMC,040814.200,A,2500.7775345,N,12132.4560358,E,0.05,135.00,090324,,,R,V*11
$GPHDT,305.745,T*35
$GNACCURACY,2.7*13
$GNGGA,040814.300,2500.7775317,N,12132.4560402,E,4,55,0.50,16.782,M,15.25,M,1,3335*44
$GNRMC,040814.300,A,2500.7775317,N,12132.4560402,E,0.05,135.00,090324,,,R,V*1F
$GPHDT,,T*1B
$GNACCURACY,2.7*13
$GNGGA,040814.400,2500.7775298,N,12132.4560414,E,4,55,0.50,16.779,M,15.25,M,1,3335*46
$GNRMC,040814.400,A,2500.7775298,N,12132.4560414,E,0.05,135.00,090324,,,R,V*19
$GPHDT,298.014,