$FW : RTK35X,V1.1X0314AS,Lib20210517,1*54
$Tool : LOCOSYS , GNSS Firebird , v1.0.0.19*39
$---------------------------------------------------*2D
,27,15,,,,,,,,1.03,0.57,0.86,3*09
$GNGSA,A,3,23,09,06,16,07,28,40,39,43,10,25,37,1.03,0.57,0.86,4*05
$GPGSV,4,1,15,195,66,111,45,21,65,149,36,194,64,054,43,199,60,167,22,1*5E
$GPGSV,4,2,15,50,60,167,25,08,59,002,47,02,53,175,40,07,45,314,28,1*6E
$GPGSV,4,3,15,27,29,038,40,16,25,080,33,09,21,242,,196,19,168,19,1*51
$GPGSV,4,4,15,30,15,319,26,04,14,200,,26,06,103,,1*5B
$GPGSV,2,1,07,195,66,111,45,194,64,054,41,199,60,167,36,08,59,002,45,8*5B
$GPGSV,2,2,07,27,29,038,45,30,15,319,21,04,14,200,13,8*50
$GLGSV,2,1,06,81,70,207,34,78,58,047,42,88,50,028,43,79,30,337,37,1*70
$GLGSV,2,2,06,77,21,115,22,82,20,206,,1*74
$GAGSV,2,1,08,21,55,018,44,13,54,073,40,26,48,171,31,27,27,083,37,7*73
$GAGSV,2,2,08,19,25,237,,04,12,296,,15,11,037,25,33,07,199,,7*79
$GAGSV,2,1,05,21,55,018,46,13,54,073,42,26,48,171,36,27,27,083,38,1*70
$GAGSV,2,2,05,15,11,037,15,1*44
$GBGSV,4,1,14,23,76,046,46,09,72,259,18,06,69,214,24,16,65,200,33,1*73
$GBGSV,4,2,14,07,60,311,34,28,60,226,21,40,59,331,37,39,55,189,36,1*7B
$GBGSV,4,3,14,43,54,035,45,10,50,292,18,25,34,122,44,37,33,323,32,1*77
$GBGSV,4,4,14,38,12,168,,34,08,040,,1*7F
$GBGSV,2,1,05,23,76,046,45,28,60,226,14,40,59,331,41,25,34,122,35,4*72
$GBGSV,2,2,05,37,33,323,31,4*42
$GNACCURACY,2.6*12
$PAIRSAT,1,35,2,0,201,3,0,200,4,0,221,5,0,200,6,0,200,7,0,201,8,0,221,9,0,220,10,0,200,11,0,200,12,0,200,13,0,200,14,0,200,15,0,200,16,0,201,17,0,200,18,0,200,19,0,200,20,0,200,21,0,201,22,0,200,23,0,200,24,0,200,25,0,200,26,0,220,27,0,221,28,0,200,29,0,200,30,0,221,31,0,200,32,0,200,194,0,621,195,0,621,196,0,620,199,0,621*5A
$PAIRSAT,2,24,65,0,200,66,0,200,67,0,200,68,0,200,69,0,200,70,0,200,71,0,200,72,0,200,73,0,200,74,0,200,75,0,200,76,0,200,77,0,201,78,0,201,79,0,201,80,0,200,81,0,201,82,0,201,83,0,200,84,0,200,85,0,200,86,0,200,87,0,200,88,0,201*7A
$PAIRSAT,3,23,2,0,1200,3,0,1200,4,0,1200,5,0,200,7,0,1200,8,0,1200,9,0,1200,10,0,1200,11,0,1200,12,0,1200,13,0,1221,15,0,1220,19,0,1201,21,0,1221,24,0,1200,25,0,1200,26,0,1221,27,0,1221,30,0,1200,31,0,1200,33,0,1200,34,0,1200,36,0,1200*69
$PAIRSAT,4,46,1,0,200,2,0,200,3,0,600,4,0,200,5,0,200,6,0,201,7,0,201,8,0,200,9,0,201,10,0,201,11,0,200,12,0,200,13,0,200,14,0,200,16,0,201,19,0,600,20,0,600,21,0,600,22,0,600,23,0,621,24,0,600,25,0,621,26,0,600,27,0,600,28,0,621,29,0,600,30,0,600,32,0,600,33,0,600,34,0,621,35,0,600,36,0,600,37,0,621,38,0,600,39,0,621,40,0,621,41,0,600,42,0,600,43,0,621,44,0,600,45,0,600,46,0,600,59,0,400,60,0,400,61,0,400,62,0,400*48
$PAIRDGP,10,2,4,7,8,9,16,21,26,27,30*42
$GNGGA,041910.200,2500.8021049,N,12132.4335973,E,2,49,0.57,14.958,M,15.25,M,1,3335*4A
$GNRMC,041910.200,A,2500.8021049,N,12132.4335973,E,0.02,312.77,090324,,,D,V*00
$GPHDT,,T*1B
$GNACCURACY,2.6*12
$GNGGA,041910.300,2500.8021049,N,12132.4336033,E,2,49,0.57,14.953,M,15.25,M,1,3335*4E
$GNRMC,041910.300,A,2500.8021049,N,12132.4336033,E,0.02,312.77,090324,,,D,V*0F
$GPHDT,,T*1B
$GNACCURACY,2.6*12
$GNGGA,041910.400,2500.8021109,N,12132.4336093,E,2,50,0.57,14.951,M,15.25,M,1,3335*4C
$GNRMC,041910.400,A,2500.8021109,N,12132.4336093,E,0.02,312.77,090324,,,D,V*07
$GPHDT,,T*1B
$GNACCURACY,2.6*12
$GNGGA,041910.500,2500.8021109,N,12132.4336093,E,2,49,0.57,14.950,M,15.25,M,0,3335*45
$GNRMC,041910.500,A,2500.8021109,N,12132.4336093,E,0.02,312.77,090324,,,D,V*06
$GPHDT,,T*1B
$GNACCURACY,2.6*12
$GNGGA,041910.600,2500.8021169,N,12132.4336153,E,2,49,0.57,14.948,M,15.25,M,0,3335*44
$GNRMC,041910.600,A,2500.8021169,N,12132.4336153,E,0.02,312.77,090324,,,D,V*0E
$GPHDT,,T*1B
$GNACCURACY,2.6*12
$GNGGA,041910.700,2500.8021169,N,12132.4336213,E,2,49,0.57,14.947,M,15.25,M,0,3335*4D
$GNRMC,041910.700,A,2500.8021169,N,12132.4336213,E,0.02,312.77,090324,,,D,V*08
$GPHDT,,T*1B
$GNACCURACY,2.6*12
$GNGGA,041910.800,2500.8021229,N,12132.4336213,E,2,49,0.57,14.943,M,15.25,M,0,3335*41
$GNRMC,041910.800,A,2500.8021229,N,12132.4336213,E,0.02,312.77,090324,,,D,V*00
$GPHDT,,T*1B
$GNACCURACY,2.6*12
$GNGGA,041910.900,2500.8021229,N,12132.4336273,E,2,50,0.57,14.937,M,15.25,M,0,3335*4D
$GNRMC,041910.900,A,2500.8021229,N,12132.4336273,E,0.02,312.77,090324,,,D,V*07
$GPHDT,,T*1B
$GNACCURACY,2.6*12
$GNGGA,041911.000,2500.8021229,N,12132.4336273,E,2,50,0.57,14.928,M,15.25,M,1,3335*4A
$GNRMC,041911.000,A,2500.8021229,N,12132.4336273,E,0.02,312.77,090324,,,D,V*0F
$GPHDT,,T*1B
$GNACCURACY,2.6*12
$GNGGA,041911.100,2500.8021289,N,12132.4336333,E,2,50,0.57,14.922,M,15.25,M,1,3335*4E
$GNRMC,041911.100,A,2500.8021289,N,12132.4336333,E,0.02,312.77,090324,,,D,V*01
$GPHDT,,T*1B
$GNGSA,A,3,195,21,194,199,08,02,07,27,16,196,30,,1.03,0.57,0.86,1*0E
$GNGSA,A,3,81,78,88,79,77,,,,,,,,1.03,0.57,0.86,2*04
$GNGSA,A,3,21,13,26,27,15,,,,,,,,1.03,0.57,0.86,3*09
$GNGSA,A,3,23,09,06,16,28,07,40,39,43,10,25,37,1.03,0.57,0.86,4*05
$GPGSV,4,1,15,195,66,111,45,21,65,149,35,194,64,054,43,199,60,167,21,1*5E
$GPGSV,4,2,15,50,60,167,25,08,59,002,47,02,53,175,40,07,45,314,26,1*60
$GPGSV,4,3,15,27,29,038,39,16,25,080,34,09,21,242,,196,19,168,18,1*59
$GPGSV,4,4,15,30,15,319,26,04,14,200,,26,06,103,,1*5B
$GPGSV,2,1,07,195,66,111,45,194,64,054,41,199,60,167,36,08,59,002,45,8*5B
$GPGSV,2,2,07,27,29,038,43,30,15,319,20,04,14,200,12,8*56
$GLGSV,2,1,06,81,70,207,34,78,58,048,42,88,50,028,44,79,30,337,37,1*78
$GLGSV,2,2,06,77,21,115,22,82,20,206,,1*74
$GAGSV,2,1,08,21,55,018,44,13,54,073,40,26,48,171,34,27,27,083,38,7*79
$GAGSV,2,2,08,19,25,237,,04,12,296,,15,11,037,25,33,07,199,,7*79
$GAGSV,2,1,05,21,55,018,46,13,54,073,42,26,48,171,34,27,27,083,37,1*7D
$GAGSV,2,2,05,15,11,037,13,1*42
$GBGSV,4,1,14,23,76,046,46,09,72,259,18,06,69,214,26,16,65,200,32,1*70
$GBGSV,4,2,14,28,60,226,20,07,60,311,34,40,59,331,37,39,55,189,34,1*78
$GBGSV,4,3,14,43,54,035,45,10,50,292,19,25,34,122,44,37,33,323,33,1*77
$GBGSV,4,4,14,34,08,040,,08,02,177,,1*73
$GBGSV,2,1,06,23,76,046,45,28,60,226,13,40,59,331,40,39,55,189,25,4*7D
$GBGSV,2,2,06,25,34,122,37,37,33,323,31,4*74
$GNACCURACY,2.6*12
$PAIRSAT,1,35,2,0,201,3,0,200,4,0,221,5,0,200,6,0,200,7,0,201,8,0,221,9,0,220,10,0,200,11,0,200,12,0,200,13,0,200,14,0,200,15,0,200,16,0,201,17,0,200,18,0,200,19,0,200,20,0,200,21,0,201,22,0,200,23,0,200,24,0,200,25,0,200,26,0,220,27,0,221,28,0,200,29,0,200,30,0,221,31,0,200,32,0,200,194,0,621,195,0,621,196,0,620,199,0,621*5A
$PAIRSAT,2,24,65,0,200,66,0,200,67,0,200,68,0,200,69,0,200,70,0,200,71,0,200,72,0,200,73,0,200,74,0,200,75,0,200,76,0,200,77,0,201,78,0,201,79,0,201,80,0,200,81,0,201,82,0,201,83,0,200,84,0,200,85,0,200,86,0,200,87,0,200,88,0,201*7A
$PAIRSAT,3,23,2,0,1200,3,0,1200,4,0,1200,5,0,200,7,0,1200,8,0,1200,9,0,1200,10,0,1200,11,0,1200,12,0,1200,13,0,1221,15,0,1220,19,0,1201,21,0,1221,24,0,1200,25,0,1200,26,0,1221,27,0,1221,30,0,1200,31,0,1200,33,0,1200,34,0,1200,36,0,1200*69
$PAIRSAT,4,46,1,0,200,2,0,200,3,0,600,4,0,200,5,0,200,6,0,201,7,0,201,8,0,200,9,0,201,10,0,201,11,0,200,12,0,200,13,0,200,14,0,200,16,0,201,19,0,600,20,0,600,21,0,600,22,0,600,23,0,621,24,0,600,25,0,621,26,0,600,27,0,600,28,0,621,29,0,600,30,0,600,32,0,600,33,0,600,34,0,621,35,0,600,36,0,600,37,0,621,38,0,600,39,0,621,40,0,621,41,0,600,42,0,600,43,0,621,44,0,600,45,0,600,46,0,600,59,0,400,60,0,400,61,0,400,62,0,400*48
$PAIRDGP,10,2,4,7,8,9,16,21,26,27,30*42
$GNGGA,041911.200,2500.8021289,N,12132.4336333,E,2,50,0.57,14.915,M,15.25,M,1,3335*49
$GNRMC,041911.200,A,2500.8021289,N,12132.4336333,E,0.02,312.77,090324,,,D,V*02
$GPHDT,,T*1B
$GNACCURACY,2.6*12
$GNGGA,041911.300,2500.8021289,N,12132.4336393,E,2,50,0.57,14.908,M,15.25,M,1,3335*4E
$GNRMC,041911.300,A,2500.8021289,N,12132.4336393,E,0.02,312.77,090324,,,D,V*09
$GPHDT,,T*1B
$GNACCURACY,2.6*12
$GNGGA,041911.400,2500.8021349,N,12132.4336453,E,2,49,0.57,14.901,M,15.25,M,1,3335*4E
$GNRMC,041911.400,A,2500.8021349,N,12132.4336453,E,0.02,312.77,090324,,,D,V*08
$GPHDT,,T*1B
$GNACCURACY,2.6*12
$GNGGA,041911.500,2500.8021349,N,12132.4336453,E,2,50,0.57,14.892,M,15.25,M,0,3335*4D
$GNRMC,041911.500,A,2500.8021349,N,12132.4336453,E,0.02,312.77,090324,,,D,V*09
$GPHDT,,T*1B
$GNACCURACY,2.6*12
$GNGGA,041911.600,2500.8021409,N,12132.4336513,E,2,49,0.57,14.887,M,15.25,M,0,3335*44
$GNRMC,041911.600,A,2500.8021409,N,12132.4336513,E,0.02,312.77,090324,,,D,V*0C
$GPHDT,,T*1B
$GNACCURACY,2.6*12
$GNGGA,041911.700,2500.8021469,N,12132.4336573,E,2,49,0.57,14.883,M,15.25,M,0,3335*41
$GNRMC,041911.700,A,2500.8021469,N,12132.4336573,E,0.02,312.77,090324,,,D,V*0D
$GPHDT,,T*1B
$GNACCURACY,2.6*12
$GNGGA,041911.800,2500.8021529,N,12132.4336573,E,2,49,0.57,14.877,M,15.25,M,0,3335*40
$GNRMC,041911.800,A,2500.8021529,N,12132.4336573,E,0.02,312.77,090324,,,D,V*07
$GPHDT,,T*1B
$GNACCURACY,2.6*12
$GNGGA,041911.900,2500.8021589,N,12132.4336633,E,2,49,0.57,14.865,M,15.25,M,0,3335*4F
$GNRMC,041911.900,A,2500.8021589,N,12132.4336633,E,0.02,312.77,090324,,,D,V*0B
$GPHDT,,T*1B
$GNACCURACY,2.6*12
$GNGGA,041912.000,2500.8021589,N,12132.4336633,E,2,49,0.57,14.854,M,15.25,M,1,3335*46
$GNRMC,041912.000,A,2500.8021589,N,12132.4336633,E,0.02,312.77,090324,,,D,V*01
$GPHDT,,T*1B
$GNACCURACY,2.6*12
$GNGGA,041912.100,2500.8021649,N,12132.4336693,E,2,50,0.57,14.844,M,15.25,M,1,3335*4B
$GNRMC,041912.100,A,2500.8021649,N,12132.4336693,E,0.02,312.77,090324,,,D,V*05
$GPHDT,,T*1B
$GNGSA,A,3,195,21,194,199,08,02,07,27,16,196,30,,1.03,0.57,0.86,1*0E
$GNGSA,A,3,81,78,88,79,77,,,,,,,,1.03,0.57,0.86,2*04
$GNGSA,A,3,21,13,26,27,15,,,,,,,,1.03,0.57,0.86,3*09
$GNGSA,A,3,23,09,06,16,07,28,40,39,43,10,25,37,1.03,0.57,0.86,4*05
$GPGSV,4,1,15,195,66,111,45,21,65,149,39,194,64,054,43,199,60,167,26,1*55
$GPGSV,4,2,15,50,60,167,30,08,59,002,47,02,53,175,38,07,45,314,21,1*6C
$GPGSV,4,3,15,27,29,038,41,16,25,080,35,09,21,242,,196,19,168,18,1*57
$GPGSV,4,4,15,30,15,319,28,04,14,200,,26,06,103,,1*55
$GPGSV,2,1,08,195,66,111,45,194,64,054,41,199,60,167,37,08,59,002,46,8*56
$GPGSV,2,2,08,27,29,038,46,196,19,168,20,30,15,319,20,04,14,200,13,8*56
$GLGSV,2,1,06,81,71,208,34,78,58,048,42,88,50,028,44,79,30,337,38,1*79
$GLGSV,2,2,06,77,21,115,21,82,20,207,,1*76
$GAGSV,2,1,08,21,55,018,43,13,54,073,40,26,48,171,31,27,27,083,39,7*7A
$GAGSV,2,2,08,19,25,237,,04,12,296,,15,11,037,25,33,07,199,,7*79
$GAGSV,2,1,05,21,55,018,46,13,54,073,41,26,48,171,36,27,27,083,38,1*73
$GAGSV,2,2,05,15,11,037,15,1*44
$GBGSV,4,1,13,23,76,046,46,09,72,259,17,06,69,214,24,16,65,200,31,1*79
$GBGSV,4,2,13,07,60,311,33,28,60,226,20,40,59,331,36,39,55,189,36,1*7B
$GBGSV,4,3,13,43,54,035,45,10,50,292,19,25,34,122,44,37,33,323,32,1*71
$GBGSV,4,4,13,34,08,040,,1*4F
$GBGSV,2,1,06,23,76,046,45,40,59,331,40,39,55,189,29,43,54,035,41,4*7C
$GBGSV,2,2,06,25,34,122,38,37,33,323,32,4*78
$GNACCURACY,2.6*12
$PAIRSAT,1,35,2,0,201,3,0,200,4,0,221,5,0,200,6,0,200,7,0,201,8,0,221,9,0,220,10,0,200,11,0,200,12,0,200,13,0,200,14,0,200,15,0,200,16,0,201,17,0,200,18,0,200,19,0,200,20,0,200,21,0,201,22,0,200,23,0,200,24,0,200,25,0,200,26,0,220,27,0,221,28,0,200,29,0,200,30,0,221,31,0,200,32,0,200,194,0,621,195,0,621,196,0,620,199,0,621*5A
$PAIRSAT,2,24,65,0,200,66,0,200,67,0,200,68,0,200,69,0,200,70,0,200,71,0,200,72,0,200,73,0,200,74,0,200,75,0,200,76,0,200,77,0,201,78,0,201,79,0,201,80,0,200,81,0,201,82,0,201,83,0,200,84,0,200,85,0,200,86,0,200,87,0,200,88,0,201*7A
$PAIRSAT,3,23,2,0,1200,3,0,1200,4,0,1200,5,0,200,7,0,1200,8,0,1200,9,0,1200,10,0,1200,11,0,1200,12,0,1200,13,0,1221,15,0,1220,19,0,1201,21,0,1221,24,0,1200,25,0,1200,26,0,1221,27,0,1221,30,0,1200,31,0,1200,33,0,1200,34,0,1200,36,0,1200*69
$PAIRSAT,4,46,1,0,200,2,0,200,3,0,600,4,0,200,5,0,200,6,0,201,7,0,201,8,0,200,9,0,201,10,0,201,11,0,200,12,0,200,13,0,200,14,0,200,16,0,201,19,0,600,20,0,600,21,0,600,22,0,600,23,0,621,24,0,600,25,0,621,26,0,600,27,0,600,28,0,621,29,0,600,30,0,600,32,0,600,33,0,600,34,0,621,35,0,600,36,0,600,37,0,621,38,0,600,39,0,621,40,0,621,41,0,600,42,0,600,43,0,621,44,0,600,45,0,600,46,0,600,59,0,400,60,0,400,61,0,400,62,0,400*48
$PAIRDGP,10,2,4,7,8,9,16,21,26,27,30*42
$GNGGA,041912.200,2500.8021649,N,12132.4336693,E,2,50,0.57,14.835,M,15.25,M,1,3335*4E
$GNRMC,041912.200,A,2500.8021649,N,12132.4336693,E,0.02,312.77,090324,,,D,V*06
$GPHDT,,T*1B
$GNACCURACY,2.6*12
$GNGGA,041912.300,2500.8021709,N,12132.4336693,E,2,50,0.57,14.825,M,15.25,M,1,3335*4B
$GNRMC,041912.300,A,2500.8021709,N,12132.4336693,E,0.02,312.77,090324,,,D,V*02
$GPHDT,,T*1B
$GNACCURACY,2.6*12
$GNGGA,041912.400,2500.8021769,N,12132.4336753,E,2,50,0.57,14.815,M,15.25,M,1,3335*44
$GNRMC,041912.400,A,2500.8021769,N,12132.4336753,E,0.02,312.77,090324,,,D,V*0E
$GPHDT,,T*1B
$GNACCURACY,2.6*12
$GNGGA,041912.500,2500.8021769,N,12132.4336753,E,2,50,0.57,14.802,M,15.25,M,1,3335*43
$GNRMC,041912.500,A,2500.8021769,N,12132.4336753,E,0.02,312.77,090324,,,D,V*0F
$GPHDT,,T*1B
$GNACCURACY,2.6*12
$GNGGA,041912.600,2500.8021829,N,12132.4336753,E,2,50,0.57,14.791,M,15.25,M,1,3335*4E
$GNRMC,041912.600,A,2500.8021829,N,12132.4336753,E,0.02,312.77,090324,,,D,V*07
$GPHDT,,T*1B
$GNACCURACY,2.6*12
$GNGGA,041912.700,2500.8021829,N,12132.4336813,E,2,50,0.57,14.781,M,15.25,M,0,3335*44
$GNRMC,041912.700,A,2500.8021829,N,12132.4336813,E,0.02,312.77,090324,,,D,V*0D
$GPHDT,,T*1B
$GNACCURACY,2.6*12
$GNGGA,041912.800,2500.8021829,N,12132.4336813,E,2,50,0.57,14.771,M,15.25,M,0,3335*44
$GNRMC,041912.800,A,2500.8021829,N,12132.4336813,E,0.02,312.77,090324,,,D,V*02
$GPHDT,,T*1B
$GNACCURACY,2.6*12
$GNGGA,041912.900,2500.8021889,N,12132.4336873,E,2,50,0.57,14.759,M,15.25,M,0,3335*43
$GNRMC,041912.900,A,2500.8021889,N,12132.4336873,E,0.02,312.77,090324,,,D,V*0F
$GPHDT,,T*1B
$GNACCURACY,2.6*12
$GNGGA,041913.000,2500.8021889,N,12132.4336873,E,2,49,0.57,14.750,M,15.25,M,1,3335*4B
$GNRMC,041913.000,A,2500.8021889,N,12132.4336873,E,0.02,312.77,090324,,,D,V*07
$GPHDT,,T*1B
$GNACCURACY,2.6*12
$GNGGA,041913.100,2500.8021949,N,12132.4336873,E,2,48,0.57,14.739,M,15.25,M,1,3335*49
$GNRMC,041913.100,A,2500.8021949,N,12132.4336873,E,0.02,312.77,090324,,,D,V*0B
$GPHDT,,T*1B
$GNGSA,A,3,195,21,194,199,08,02,07,27,16,196,30,,1.03,0.57,0.86,1*0E
$GNGSA,A,3,81,78,88,79,77,,,,,,,,1.03,0.57,0.86,2*04
$GNGSA,A,3,21,13,26,27,15,,,,,,,,1.03,0.57,0.86,3*09
$GNGSA,A,3,23,09,06,16,07,28,40,39,43,10,25,37,1.03,0.57,0.86,4*05
$GPGSV,4,1,15,195,66,111,45,21,65,149,39,194,64,054,43,199,60,167,29,1*5A
$GPGSV,4,2,15,50,60,167,31,08,59,002,48,02,53,175,39,07,45,314,18,1*69
$GPGSV,4,3,15,27,29,038,41,16,25,080,34,09,21,242,,196,19,168,19,1*57
$GPGSV,4,4,15,30,15,319,24,04,14,200,,26,06,103,,1*59
$GPGSV,2,1,06,195,66,111,45,194,64,054,43,199,60,167,38,08,59,002,46,8*55
$GPGSV,2,2,06,27,29,038,46,30,15,319,19,8*68
$GLGSV,2,1,06,81,71,208,35,78,58,048,42,88,50,028,43,79,30,337,38,1*7F
$GLGSV,2,2,06,77,21,115,23,82,20,207,,1*74
$GAGSV,2,1,08,21,55,018,42,13,54,073,40,26,48,171,35,27,27,083,39,7*7F
$GAGSV,2,2,08,19,25,237,,04,12,296,,15,11,037,25,33,07,199,,7*79
$GAGSV,2,1,05,21,55,018,46,13,54,073,42,26,48,171,36,27,27,083,39,1*71
$GAGSV,2,2,05,15,11,037,15,1*44
$GBGSV,4,1,13,23,76,046,46,09,72,259,17,06,69,214,24,16,65,200,31,1*79
$GBGSV,4,2,13,07,60,311,33,28,60,226,19,40,59,331,36,39,55,189,36,1*71
$GBGSV,4,3,13,43,54,035,43,10,50,292,20,25,34,122,44,37,33,323,30,1*7F
$GBGSV,4,4,13,34,08,040,25,1*48
$GBGSV,2,1,06,23,76,046,46,40,59,331,40,39,55,189,30,43,54,035,39,4*78
$GBGSV,2,2,06,25,34,122,39,37,33,323,31,4*7A
$GNACCURACY,2.6*12
$PAIRSAT,1,35,2,0,201,3,0,200,4,0,221,5,0,200,6,0,200,7,0,201,8,0,221,9,0,220,10,0,200,11,0,200,12,0,200,13,0,200,14,0,200,15,0,200,16,0,201,17,0,200,18,0,200,19,0,200,20,0,200,21,0,201,22,0,200,23,0,200,24,0,200,25,0,200,26,0,220,27,0,221,28,0,200,29,0,200,30,0,221,31,0,200,32,0,200,194,0,621,195,0,621,196,0,620,199,0,621*5A
$PAIRSAT,2,24,65,0,200,66,0,200,67,0,200,68,0,200,69,0,200,70,0,200,71,0,200,72,0,200,73,0,200,74,0,200,75,0,200,76,0,200,77,0,201,78,0,201,79,0,201,80,0,200,81,0,201,82,0,201,83,0,200,84,0,200,85,0,200,86,0,200,87,0,200,88,0,201*7A
$PAIRSAT,3,23,2,0,1200,3,0,1200,4,0,1200,5,0,200,7,0,1200,8,0,1200,9,0,1200,10,0,1200,11,0,1200,12,0,1200,13,0,1221,15,0,1220,19,0,1201,21,0,1221,24,0,1200,25,0,1200,26,0,1221,27,0,1221,30,0,1200,31,0,1200,33,0,1200,34,0,1200,36,0,1200*69
$PAIRSAT,4,46,1,0,200,2,0,200,3,0,600,4,0,200,5,0,200,6,0,201,7,0,201,8,0,200,9,0,201,10,0,201,11,0,200,12,0,200,13,0,200,14,0,200,16,0,201,19,0,600,20,0,600,21,0,600,22,0,600,23,0,621,24,0,600,25,0,621,26,0,600,27,0,600,28,0,621,29,0,600,30,0,600,32,0,600,33,0,600,34,0,621,35,0,600,36,0,600,37,0,621,38,0,600,39,0,621,40,0,621,41,0,600,42,0,600,43,0,621,44,0,600,45,0,600,46,0,600,59,0,400,60,0,400,61,0,400,62,0,400*48
$PAIRDGP,10,2,4,7,8,9,16,21,26,27,30*42
$GNGGA,041913.200,2500.8021949,N,12132.4336933,E,2,48,0.57,14.729,M,15.25,M,1,3335*4E
$GNRMC,041913.200,A,2500.8021949,N,12132.4336933,E,0.02,312.77,090324,,,D,V*0D
$GPHDT,,T*1B
$GNACCURACY,2.6*12
$GNGGA,041913.300,2500.8022009,N,12132.4336933,E,2,48,0.57,14.716,M,15.25,M,1,3335*4D
$GNRMC,041913.300,A,2500.8022009,N,12132.4336933,E,0.02,312.77,090324,,,D,V*02
$GPHDT,,T*1B
$GNACCURACY,2.6*12
$GNGGA,041913.400,2500.8022009,N,12132.4336993,E,2,48,0.57,14.704,M,15.25,M,1,3335*43
$GNRMC,041913.400,A,2500.8022009,N,12132.4336993,E,0.02,312.77,090324,,,D,V*0F
$GPHDT,,T*1B
$GNACCURACY,2.6*12
$GNGGA,041913.500,2500.8022069,N,12132.4336993,E,2,48,0.57,14.693,M,15.25,M,0,3335*4A
$GNRMC,041913.500,A,2500.8022069,N,12132.4336993,E,0.02,312.77,090324,,,D,V*08
$GPHDT,,T*1B
$GNACCURACY,2.6*12
$GNGGA,041913.600,2500.8022069,N,12132.4336993,E,2,48,0.57,14.682,M,15.25,M,0,3335*49
$GNRMC,041913.600,A,2500.8022069,N,12132.4336993,E,0.02,312.77,090324,,,D,V*0B
$GPHDT,,T*1B
$GNACCURACY,2.6*12
$GNGGA,041913.700,2500.8022129,N,12132.4337053,E,2,48,0.57,14.669,M,15.25,M,0,3335*4C
$GNRMC,041913.700,A,2500.8022129,N,12132.4337053,E,0.02,312.77,090324,,,D,V*0B
$GPHDT,,T*1B
$GNACCURACY,2.6*12
$GNGGA,041913.800,2500.8022189,N,12132.4337053,E,2,49,0.57,14.655,M,15.25,M,0,3335*47
$GNRMC,041913.800,A,2500.8022189,N,12132.4337053,E,0.02,312.77,090324,,,D,V*0E
$GPHDT,,T*1B
$GNACCURACY,2.6*12
$GNGGA,041913.900,2500.8022249,N,12132.4337113,E,2,49,0.57,14.642,M,15.25,M,0,3335*4A
$GNRMC,041913.900,A,2500.8022249,N,12132.4337113,E,0.02,312.77,090324,,,D,V*05
$GPHDT,,T*1B
$GNACCURACY,2.6*12
$GNGGA,041914.000,2500.8022249,N,12132.4337113,E,2,49,0.57,14.627,M,15.25,M,1,3335*46
$GNRMC,041914.000,A,2500.8022249,N,12132.4337113,E,0.02,312.77,090324,,,D,V*0B
$GPHDT,,T*1B
$GNACCURACY,2.6*12
$GNGGA,041914.100,2500.8022309,N,12132.4337173,E,2,50,0.53,14.615,M,15.25,M,1,3335*49
$GNRMC,041914.100,A,2500.8022309,N,12132.4337173,E,0.02,312.77,090324,,,D,V*09
$GPHDT,,T*1B
$GNGSA,A,3,195,21,194,199,08,02,07,27,16,196,30,04,0.93,0.53,0.76,1*09
$GNGSA,A,3,81,78,88,79,77,,,,,,,,0.93,0.53,0.76,2*07
$GNGSA,A,3,21,13,26,27,15,,,,,,,,0.93,0.53,0.76,3*0A
$GNGSA,A,3,23,09,06,16,07,28,40,39,43,10,25,37,0.93,0.53,0.76,4*06
$GPGSV,4,1,15,195,66,111,46,21,65,149,39,194,64,054,43,199,60,167,29,1*59
$GPGSV,4,2,15,50,60,167,32,08,59,002,48,02,53,175,38,07,45,314,18,1*6B
$GPGSV,4,3,15,27,29,038,41,16,25,080,35,09,21,242,,196,19,168,20,1*5C
$GPGSV,4,4,15,30,15,319,29,04,14,200,17,26,06,103,,1*52
$GPGSV,2,1,06,195,66,111,45,194,64,054,42,199,60,167,38,08,59,002,45,8*57
$GPGSV,2,2,06,27,29,038,46,30,15,319,19,8*68
$GLGSV,2,1,07,81,71,208,34,78,58,048,42,88,50,028,43,79,30,337,38,1*7F
$GLGSV,2,2,07,77,21,115,22,82,20,207,,69,02,276,,1*4A
$GAGSV,2,1,08,21,55,018,42,13,54,073,40,26,48,171,33,27,27,083,39,7*79
$GAGSV,2,2,08,19,25,237,,04,12,296,,15,11,037,25,33,07,199,,7*79
$GAGSV,2,1,05,21,55,018,46,13,54,073,42,26,48,171,36,27,27,083,38,1*70
$GAGSV,2,2,05,15,11,037,14,1*45
$GBGSV,4,1,13,23,76,046,46,09,72,259,18,06,69,214,23,16,65,200,31,1*71
$GBGSV,4,2,13,07,60,311,34,28,60,226,19,40,59,331,35,39,55,189,36,1*75
$GBGSV,4,3,13,43,54,035,44,10,50,292,20,25,34,122,44,37,33,323,30,1*78
$GBGSV,4,4,13,34,08,040,23,1*4E
$GBGSV,2,1,06,23,76,046,46,40,59,331,40,39,55,189,29,43,54,035,43,4*7D
$GBGSV,2,2,06,25,34,122,40,37,33,323,30,4*75
$GNACCURACY,2.6*12
$PAIRSAT,1,35,2,0,201,3,0,200,4,0,221,5,0,200,6,0,200,7,0,201,8,0,221,9,0,220,10,0,200,11,0,200,12,0,200,13,0,200,14,0,200,15,0,200,16,0,201,17,0,200,18,0,200,19,0,200,20,0,200,21,0,201,22,0,200,23,0,200,24,0,200,25,0,200,26,0,220,27,0,221,28,0,200,29,0,200,30,0,221,31,0,200,32,0,200,194,0,621,195,0,621,196,0,620,199,0,621*5A
$PAIRSAT,2,24,65,0,200,66,0,200,67,0,200,68,0,200,69,0,200,70,0,200,71,0,200,72,0,200,73,0,200,74,0,200,75,0,200,76,0,200,77,0,201,78,0,201,79,0,201,80,0,200,81,0,201,82,0,201,83,0,200,84,0,200,85,0,200,86,0,200,87,0,200,88,0,201*7A
$PAIRSAT,3,23,2,0,1200,3,0,1200,4,0,1200,5,0,200,7,0,1200,8,0,1200,9,0,1200,10,0,1200,11,0,1200,12,0,1200,13,0,1221,15,0,1220,19,0,1201,21,0,1221,24,0,1200,25,0,1200,26,0,1221,27,0,1221,30,0,1200,31,0,1200,33,0,1200,34,0,1200,36,0,1200*69
$PAIRSAT,4,46,1,0,200,2,0,200,3,0,600,4,0,200,5,0,200,6,0,201,7,0,201,8,0,200,9,0,201,10,0,201,11,0,200,12,0,200,13,0,200,14,0,200,16,0,201,19,0,600,20,0,600,21,0,600,22,0,600,23,0,621,24,0,600,25,0,621,26,0,600,27,0,600,28,0,621,29,0,600,30,0,600,32,0,600,33,0,600,34,0,621,35,0,600,36,0,600,37,0,621,38,0,600,39,0,621,40,0,621,41,0,600,42,0,600,43,0,621,44,0,600,45,0,600,46,0,600,59,0,400,60,0,400,61,0,400,62,0,400*48
$PAIRDGP,10,2,4,7,8,9,16,21,26,27,30*42
$GNGGA,041914.200,2500.8022429,N,12132.4337233,E,2,50,0.53,14.603,M,15.25,M,1,3335*4F
$GNRMC,041914.200,A,2500.8022429,N,12132.4337233,E,0.02,312.77,090324,,,D,V*08
$GPHDT,,T*1B
$GNACCURACY,2.6*12
$GNGGA,041914.300,2500.8022489,N,12132.4337233,E,2,50,0.53,14.592,M,15.25,M,1,3335*4F
$GNRMC,041914.300,A,2500.8022489,N,12132.4337233,E,0.02,312.77,090324,,,D,V*03
$GPHDT,,T*1B
$GNACCURACY,2.6*12
$GNGGA,041914.400,2500.8022549,N,12132.4337233,E,2,50,0.53,14.580,M,15.25,M,1,3335*46
$GNRMC,041914.400,A,2500.8022549,N,12132.4337233,E,0.02,312.77,090324,,,D,V*09
$GPHDT,,T*1B
$GNACCURACY,2.6*12
$GNGGA,041914.500,2500.8022609,N,12132.4337233,E,2,50,0.53,14.565,M,15.25,M,1,3335*4B
$GNRMC,041914.500,A,2500.8022609,N,12132.4337233,E,0.02,312.77,090324,,,D,V*0F
$GPHDT,,T*1B
$GNACCURACY,2.6*12
$GNGGA,041914.600,2500.8022669,N,12132.4337293,E,2,49,0.53,14.549,M,15.25,M,1,3335*42
$GNRMC,041914.600,A,2500.8022669,N,12132.4337293,E,0.02,312.77,090324,,,D,V*00
$GPHDT,,T*1B
$GNACCURACY,2.6*12
$GNGGA,041914.700,2500.8022669,N,12132.4337293,E,2,49,0.53,14.532,M,15.25,M,0,3335*4E
$GNRMC,041914.700,A,2500.8022669,N,12132.4337293,E,0.02,312.77,090324,,,D,V*01
$GPHDT,,T*1B
$GNACCURACY,2.6*12
$GNGGA,041914.800,2500.8022729,N,12132.4337353,E,2,49,0.53,14.515,M,15.25,M,0,3335*4C
$GNRMC,041914.800,A,2500.8022729,N,12132.4337353,E,0.02,312.77,090324,,,D,V*06
$GPHDT,,T*1B
$GNACCURACY,2.6*12
$GNGGA,041914.900,2500.8022789,N,12132.4337353,E,2,49,0.53,14.497,M,15.25,M,0,3335*4C
$GNRMC,041914.900,A,2500.8022789,N,12132.4337353,E,0.02,312.77,090324,,,D,V*0D
$GPHDT,,T*1B
$GNACCURACY,2.6*12
$GNGGA,041915.000,2500.8022789,N,12132.4337353,E,2,49,0.53,14.477,M,15.25,M,1,3335*4B
$GNRMC,041915.000,A,2500.8022789,N,12132.4337353,E,0.02,312.77,090324,,,D,V*05
$GPHDT,,T*1B
$GNACCURACY,2.6*12
$GNGGA,041915.100,2500.8022789,N,12132.4337353,E,2,50,0.53,14.458,M,15.25,M,1,3335*4F
$GNRMC,041915.100,A,2500.8022789,N,12132.4337353,E,0.02,312.77,090324,,,D,V*04
$GPHDT,,T*1B
$GNGSA,A,3,195,21,194,199,08,02,07,27,16,196,30,04,0.93,0.53,0.76,1*09
$GNGSA,A,3,81,78,88,79,77,,,,,,,,0.93,0.53,0.76,2*07
$GNGSA,A,3,21,13,26,27,15,,,,,,,,0.93,0.53,0.76,3*0A
$GNGSA,A,3,23,09,06,16,28,07,40,39,43,10,25,37,0.93,0.53,0.76,4*06
$GPGSV,4,1,15,195,66,111,46,21,65,149,39,194,64,054,43,199,60,167,28,1*58
$GPGSV,4,2,15,50,60,167,31,08,59,002,48,02,53,175,38,07,45,314,22,1*61
$GPGSV,4,3,15,27,29,038,41,16,25,080,35,09,21,242,,196,19,168,19,1*56
$GPGSV,4,4,15,30,15,319,26,04,14,200,18,26,06,103,,1*52
$GPGSV,2,1,07,195,66,111,45,194,64,054,42,199,60,167,38,08,59,002,44,8*57
$GPGSV,2,2,07,27,29,038,46,196,19,168,21,30,15,319,18,8*62
$GLGSV,2,1,07,81,71,208,34,78,58,048,42,88,50,028,43,79,30,337,37,1*70
$GLGSV,2,2,07,77,21,115,22,82,20,207,,69,02,276,,1*4A
$GAGSV,2,1,07,21,55,018,43,13,54,073,40,26,48,171,34,27,27,083,40,7*7E
$GAGSV,2,2,07,19,25,237,,15,11,037,24,33,07,199,,7*4D
$GAGSV,1,1,04,21,55,018,46,13,54,073,40,26,48,171,36,27,27,083,38,1*70
$GBGSV,4,1,13,23,76,046,47,09,72,259,19,06,69,214,23,16,65,200,32,1*72
$GBGSV,4,2,13,28,60,227,20,07,60,311,34,40,59,331,35,39,55,189,36,1*7E
$GBGSV,4,3,13,43,54,035,43,10,50,292,20,25,34,122,44,37,33,323,27,1*79
$GBGSV,4,4,13,34,08,040,23,1*4E
$GBGSV,2,1,06,23,76,046,46,40,59,331,41,39,55,189,30,43,54,035,41,4*76
$GBGSV,2,2,06,25,34,122,40,37,33,323,31,4*74
$GNACCURACY,2.6*12
$PAIRSAT,1,35,2,0,201,3,0,200,4,0,221,5,0,200,6,0,200,7,0,201,8,0,221,9,0,220,10,0,200,11,0,200,12,0,200,13,0,200,14,0,200,15,0,200,16,0,201,17,0,200,18,0,200,19,0,200,20,0,200,21,0,201,22,0,200,23,0,200,24,0,200,25,0,200,26,0,220,27,0,221,28,0,200,29,0,200,30,0,221,31,0,200,32,0,200,194,0,621,195,0,621,196,0,620,199,0,621*5A
$PAIRSAT,2,24,65,0,200,66,0,200,67,0,200,68,0,200,69,0,200,70,0,200,71,0,200,72,0,200,73,0,200,74,0,200,75,0,200,76,0,200,77,0,201,78,0,201,79,0,201,80,0,200,81,0,201,82,0,201,83,0,200,84,0,200,85,0,200,86,0,200,87,0,200,88,0,201*7A
$PAIRSAT,3,23,2,0,1200,3,0,1200,4,0,1200,5,0,200,7,0,1200,8,0,1200,9,0,1200,10,0,1200,11,0,1200,12,0,1200,13,0,1221,15,0,1220,19,0,1201,21,0,1221,24,0,1200,25,0,1200,26,0,1221,27,0,1221,30,0,1200,31,0,1200,33,0,1200,34,0,1200,36,0,1200*69
$PAIRSAT,4,46,1,0,200,2,0,200,3,0,600,4,0,200,5,0,200,6,0,201,7,0,201,8,0,200,9,0,201,10,0,201,11,0,200,12,0,200,13,0,200,14,0,200,16,0,201,19,0,600,20,0,600,21,0,600,22,0,600,23,0,621,24,0,600,25,0,621,26,0,600,27,0,600,28,0,621,29,0,600,30,0,600,32,0,600,33,0,600,34,0,621,35,0,600,36,0,600,37,0,621,38,0,600,39,0,621,40,0,621,41,0,600,42,0,600,43,0,621,44,0,600,45,0,600,46,0,600,59,0,400,60,0,400,61,0,400,62,0,400*48
$PAIRDGP,10,2,4,7,8,9,16,21,26,27,30*42
$GNGGA,041915.200,2500.8022849,N,12132.4337413,E,2,50,0.53,14.440,M,15.25,M,1,3335*45
$GNRMC,041915.200,A,2500.8022849,N,12132.4337413,E,0.02,312.77,090324,,,D,V*07
$GPHDT,,T*1B
$GNACCURACY,2.6*12
$GNGGA,041915.300,2500.8022849,N,12132.4337473,E,2,50,0.53,14.421,M,15.25,M,1,3335*45
$GNRMC,041915.300,A,2500.8022849,N,12132.4337473,E,0.02,312.77,090324,,,D,V*00
$GPHDT,,T*1B
$GNACCURACY,2.6*12
$GNGGA,041915.400,2500.8022909,N,12132.4337473,E,2,50,0.53,14.402,M,15.25,M,1,3335*46
$GNRMC,041915.400,A,2500.8022909,N,12132.4337473,E,0.02,312.77,090324,,,D,V*02
$GPHDT,,T*1B
$GNACCURACY,2.6*12
$GNGGA,041915.500,2500.8022969,N,12132.4337533,E,2,50,0.53,14.385,M,15.25,M,1,3335*4C
$GNRMC,041915.500,A,2500.8022969,N,12132.4337533,E,0.02,312.77,090324,,,D,V*00
$GPHDT,,T*1B
$GNACCURACY,2.6*12
$GNGGA,041915.600,2500.8023029,N,12132.4337533,E,2,50,0.53,14.368,M,15.25,M,0,3335*41
$GNRMC,041915.600,A,2500.8023029,N,12132.4337533,E,0.02,312.77,090324,,,D,V*0F
$GPHDT,,T*1B
$GNACCURACY,2.6*12
$GNGGA,041915.700,2500.8023029,N,12132.4337533,E,2,50,0.53,14.349,M,15.25,M,0,3335*43
$GNRMC,041915.700,A,2500.8023029,N,12132.4337533,E,0.02,312.77,090324,,,D,V*0E
$GPHDT,,T*1B
$GNACCURACY,2.6*12
$GNGGA,041915.800,2500.8023089,N,12132.4337593,E,2,50,0.53,14.331,M,15.25,M,0,3335*43
$GNRMC,041915.800,A,2500.8023089,N,12132.4337593,E,0.02,312.77,090324,,,D,V*01
$GPHDT,,T*1B
$GNACCURACY,2.7*13
$GNGGA,041915.900,2500.8023089,N,12132.4337593,E,2,50,0.53,14.312,M,15.25,M,0,3335*43
$GNRMC,041915.900,A,2500.8023089,N,12132.4337593,E,0.02,312.77,090324,,,D,V*00
$GPHDT,,T*1B
$GNACCURACY,2.7*13
$GNGGA,041916.000,2500.8023149,N,12132.4337593,E,2,50,0.53,14.293,M,15.25,M,1,3335*4D
$GNRMC,041916.000,A,2500.8023149,N,12132.4337593,E,0.02,312.77,090324,,,D,V*07
