$FW : RTK35X,V1.1X0314AS,Lib20210517,1*54
$Tool : LOCOSYS , GNSS Firebird , v1.0.0.19*39
$---------------------------------------------------*2D
$GNACCURACY,2.7*13
$GNGGA,041919.600,2500.8023509,N,12132.4336153,E,2,49,0.53,13.597,M,15.25,M,0,3335*40
$GNRMC,041919.600,A,2500.8023509,N,12132.4336153,E,0.01,312.77,090324,,,D,V*04
$GPHDT,,T*1B
$GNACCURACY,2.7*13
$GNGGA,041919.700,2500.8023509,N,12132.4336033,E,2,49,0.53,13.572,M,15.25,M,0,3335*4D
$GNRMC,041919.700,A,2500.8023509,N,12132.4336033,E,0.01,312.77,090324,,,D,V*02
$GPHDT,,T*1B
$GNACCURACY,2.7*13
$GNGGA,041919.800,2500.8023509,N,12132.4335913,E,2,49,0.53,13.545,M,15.25,M,0,3335*4E
$GNRMC,041919.800,A,2500.8023509,N,12132.4335913,E,0.01,312.77,090324,,,D,V*05
$GPHDT,,T*1B
$GNACCURACY,2.7*13
$GNGGA,041919.900,2500.8023509,N,12132.4335853,E,2,49,0.53,13.521,M,15.25,M,0,3335*48
$GNRMC,041919.900,A,2500.8023509,N,12132.4335853,E,0.01,312.77,090324,,,D,V*01
$GPHDT,,T*1B
$GNACCURACY,2.7*13
$GNGGA,041920.000,2500.8023509,N,12132.4335793,E,2,49,0.53,13.498,M,15.25,M,1,3335*4A
$GNRMC,041920.000,A,2500.8023509,N,12132.4335793,E,0.01,312.77,090324,,,D,V*01
$GPHDT,,T*1B
$GNACCURACY,2.7*13
$GNGGA,041920.100,2500.8023509,N,12132.4335673,E,2,49,0.53,13.474,M,15.25,M,1,3335*46
$GNRMC,041920.100,A,2500.8023509,N,12132.4335673,E,0.01,312.77,090324,,,D,V*0F
$GPHDT,,T*1B
$GNGSA,A,3,195,21,194,199,08,02,07,27,16,196,30,04,0.93,0.53,0.76,1*09
$GNGSA,A,3,81,78,88,79,77,,,,,,,,0.93,0.53,0.76,2*07
$GNGSA,A,3,21,13,26,27,15,,,,,,,,0.93,0.53,0.76,3*0A
$GNGSA,A,3,23,09,06,16,28,07,40,39,43,10,37,25,0.93,0.53,0.76,4*06
$GPGSV,4,1,15,195,66,111,44,21,65,149,40,194,64,054,43,50,60,167,29,1*61
$GPGSV,4,2,15,199,60,167,27,08,59,002,44,02,53,175,41,07,45,314,25,1*57
$GPGSV,4,3,15,27,29,038,37,16,25,080,34,09,21,242,,196,19,168,19,1*56
$GPGSV,4,4,15,30,15,319,25,04,14,200,14,26,06,103,,1*5D
$GPGSV,2,1,06,195,66,111,44,194,64,054,43,199,60,167,39,08,59,002,44,8*57
$GPGSV,2,2,06,27,29,038,45,30,15,319,23,8*62
$GLGSV,2,1,06,81,71,208,32,78,58,048,40,88,50,028,41,79,30,337,42,1*75
$GLGSV,2,2,06,77,21,115,23,82,20,207,,1*74
$GAGSV,2,1,06,21,55,018,43,13,54,073,39,26,48,171,35,27,27,083,36,7*71
$GAGSV,2,2,06,19,25,237,,15,11,037,24,7*7A
$GAGSV,1,1,04,21,55,018,44,13,54,073,40,26,48,171,32,27,27,083,28,1*77
$GBGSV,4,1,13,23,76,046,46,09,72,259,21,06,69,214,18,16,65,200,32,1*70
$GBGSV,4,2,13,28,60,227,20,07,60,311,39,40,59,331,40,39,55,189,39,1*7E
$GBGSV,4,3,13,43,54,035,46,10,50,292,26,37,34,323,34,25,34,122,33,1*7F
$GBGSV,4,4,13,34,08,040,26,1*4B
$GBGSV,2,1,05,23,76,046,46,40,59,331,43,39,55,189,31,25,34,122,41,4*77
$GBGSV,2,2,05,37,34,323,37,4*43
$GNACCURACY,2.7*13
$PAIRSAT,1,35,2,0,201,3,0,200,4,0,221,5,0,200,6,0,200,7,0,201,8,0,221,9,0,220,10,0,200,11,0,200,12,0,200,13,0,200,14,0,200,15,0,200,16,0,201,17,0,200,18,0,200,19,0,200,20,0,200,21,0,201,22,0,200,23,0,200,24,0,200,25,0,200,26,0,220,27,0,221,28,0,200,29,0,200,30,0,221,31,0,200,32,0,200,194,0,621,195,0,621,196,0,620,199,0,621*5A
$PAIRSAT,2,24,65,0,200,66,0,200,67,0,200,68,0,200,69,0,200,70,0,200,71,0,200,72,0,200,73,0,200,74,0,200,75,0,200,76,0,200,77,0,201,78,0,201,79,0,201,80,0,200,81,0,201,82,0,201,83,0,200,84,0,200,85,0,200,86,0,200,87,0,200,88,0,201*7A
$PAIRSAT,3,23,2,0,1200,3,0,1200,4,0,1200,5,0,200,7,0,1200,8,0,1200,9,0,1200,10,0,1200,11,0,1200,12,0,1200,13,0,1221,15,0,1220,19,0,1201,21,0,1221,24,0,1200,25,0,1200,26,0,1221,27,0,1221,30,0,1200,31,0,1200,33,0,1200,34,0,1200,36,0,1200*69
$PAIRSAT,4,46,1,0,200,2,0,200,3,0,600,4,0,200,5,0,200,6,0,201,7,0,201,8,0,200,9,0,201,10,0,201,11,0,200,12,0,200,13,0,200,14,0,200,16,0,201,19,0,600,20,0,600,21,0,600,22,0,600,23,0,621,24,0,600,25,0,621,26,0,600,27,0,600,28,0,621,29,0,600,30,0,600,32,0,600,33,0,600,34,0,621,35,0,600,36,0,600,37,0,621,38,0,600,39,0,621,40,0,621,41,0,600,42,0,600,43,0,621,44,0,600,45,0,600,46,0,600,59,0,400,60,0,400,61,0,400,62,0,400*48
$PAIRDGP,10,2,4,7,8,9,16,21,26,27,30*42
$GNGGA,041920.200,2500.8023449,N,12132.4335613,E,2,49,0.53,13.451,M,15.25,M,1,3335*41
$GNRMC,041920.200,A,2500.8023449,N,12132.4335613,E,0.01,312.77,090324,,,D,V*0F
$GPHDT,,T*1B
$GNACCURACY,2.7*13
$GNGGA,041920.300,2500.8023449,N,12132.4335493,E,2,49,0.53,13.430,M,15.25,M,1,3335*4D
$GNRMC,041920.300,A,2500.8023449,N,12132.4335493,E,0.01,312.77,090324,,,D,V*04
$GPHDT,,T*1B
$GNACCURACY,2.7*13
$GNGGA,041920.400,2500.8023449,N,12132.4335433,E,2,49,0.53,13.407,M,15.25,M,1,3335*44
$GNRMC,041920.400,A,2500.8023449,N,12132.4335433,E,0.01,312.77,090324,,,D,V*09
$GPHDT,,T*1B
$GNACCURACY,2.7*13
$GNGGA,041920.500,2500.8023449,N,12132.4335373,E,2,49,0.53,13.383,M,15.25,M,1,3335*4D
$GNRMC,041920.500,A,2500.8023449,N,12132.4335373,E,0.01,312.77,090324,,,D,V*0B
$GPHDT,,T*1B
$GNACCURACY,2.7*13
$GNGGA,041920.600,2500.8023449,N,12132.4335253,E,2,48,0.57,13.359,M,15.25,M,1,3335*4F
$GNRMC,041920.600,A,2500.8023449,N,12132.4335253,E,0.01,312.77,090324,,,D,V*0B
$GPHDT,,T*1B
$GNACCURACY,2.7*13
$GNGGA,041920.700,2500.8023449,N,12132.4335133,E,2,48,0.57,13.333,M,15.25,M,0,3335*46
$GNRMC,041920.700,A,2500.8023449,N,12132.4335133,E,0.01,312.77,090324,,,D,V*0F
$GPHDT,,T*1B
$GNACCURACY,2.7*13
$GNGGA,041920.800,2500.8023449,N,12132.4335013,E,2,49,0.57,13.308,M,15.25,M,0,3335*43
$GNRMC,041920.800,A,2500.8023449,N,12132.4335013,E,0.01,312.77,090324,,,D,V*03
$GPHDT,,T*1B
$GNACCURACY,2.7*13
$GNGGA,041920.900,2500.8023449,N,12132.4334893,E,2,49,0.57,13.279,M,15.25,M,0,3335*44
$GNRMC,041920.900,A,2500.8023449,N,12132.4334893,E,0.01,312.77,090324,,,D,V*03
$GPHDT,,T*1B
$GNACCURACY,2.7*13
$GNGGA,041921.000,2500.8023449,N,12132.4334773,E,2,49,0.57,13.253,M,15.25,M,1,3335*44
$GNRMC,041921.000,A,2500.8023449,N,12132.4334773,E,0.01,312.77,090324,,,D,V*0A
$GPHDT,,T*1B
$GNACCURACY,2.7*13
$GNGGA,041921.100,2500.8023449,N,12132.4334653,E,2,48,0.57,13.225,M,15.25,M,1,3335*46
$GNRMC,041921.100,A,2500.8023449,N,12132.4334653,E,0.01,312.77,090324,,,D,V*08
$GPHDT,,T*1B
$GNGSA,A,3,195,21,194,199,08,02,07,27,16,196,30,,1.03,0.57,0.86,1*0E
$GNGSA,A,3,81,78,88,79,77,,,,,,,,1.03,0.57,0.86,2*04
$GNGSA,A,3,21,13,26,27,15,,,,,,,,1.03,0.57,0.86,3*09
$GNGSA,A,3,23,09,06,16,28,07,40,39,43,10,37,25,1.03,0.57,0.86,4*05
$GPGSV,4,1,15,195,66,111,44,21,65,149,40,194,64,054,43,50,60,167,28,1*60
$GPGSV,4,2,15,199,60,167,26,08,59,002,44,02,53,175,41,07,45,314,24,1*57
$GPGSV,4,3,15,27,29,038,37,16,25,080,31,09,21,242,,196,19,168,21,1*58
$GPGSV,4,4,15,30,15,319,25,04,14,200,16,26,06,103,,1*5F
$GPGSV,2,1,06,195,66,111,44,194,64,054,43,199,60,167,39,08,59,002,44,8*57
$GPGSV,2,2,06,27,29,038,46,30,15,319,21,8*63
$GLGSV,2,1,06,81,71,208,33,78,58,048,41,88,50,028,42,79,30,337,42,1*76
$GLGSV,2,2,06,77,21,115,22,82,20,207,,1*75
$GAGSV,2,1,06,21,55,018,43,13,54,073,39,26,48,171,37,27,27,083,35,7*70
$GAGSV,2,2,06,19,25,237,,15,11,037,26,7*78
$GAGSV,2,1,05,21,55,018,44,13,54,073,39,26,48,171,35,27,27,083,29,1*7D
$GAGSV,2,2,05,15,11,037,22,1*40
$GBGSV,4,1,13,23,76,046,46,09,72,259,20,06,69,214,19,16,65,200,34,1*76
$GBGSV,4,2,13,28,60,227,19,07,60,311,39,40,59,331,40,39,55,189,39,1*74
$GBGSV,4,3,13,43,54,035,46,10,50,292,26,37,34,323,35,25,34,122,34,1*79
$GBGSV,4,4,13,34,08,040,25,1*48
$GBGSV,2,1,06,23,76,046,46,40,59,331,43,39,55,189,31,43,54,035,40,4*74
$GBGSV,2,2,06,25,34,122,41,37,34,323,37,4*74
$GNACCURACY,2.7*13
$PAIRSAT,1,35,2,0,201,3,0,200,4,0,221,5,0,200,6,0,200,7,0,201,8,0,221,9,0,220,10,0,200,11,0,200,12,0,200,13,0,200,14,0,200,15,0,200,16,0,201,17,0,200,18,0,200,19,0,200,20,0,200,21,0,201,22,0,200,23,0,200,24,0,200,25,0,200,26,0,220,27,0,221,28,0,200,29,0,200,30,0,221,31,0,200,32,0,200,194,0,621,195,0,621,196,0,620,199,0,621*5A
$PAIRSAT,2,24,65,0,200,66,0,200,67,0,200,68,0,200,69,0,200,70,0,200,71,0,200,72,0,200,73,0,200,74,0,200,75,0,200,76,0,200,77,0,201,78,0,201,79,0,201,80,0,200,81,0,201,82,0,201,83,0,200,84,0,200,85,0,200,86,0,200,87,0,200,88,0,201*7A
$PAIRSAT,3,23,2,0,1200,3,0,1200,4,0,1200,5,0,200,7,0,1200,8,0,1200,9,0,1200,10,0,1200,11,0,1200,12,0,1200,13,0,1221,15,0,1220,19,0,1201,21,0,1221,24,0,1200,25,0,1200,26,0,1221,27,0,1221,30,0,1200,31,0,1200,33,0,1200,34,0,1200,36,0,1200*69
$PAIRSAT,4,46,1,0,200,2,0,200,3,0,600,4,0,200,5,0,200,6,0,201,7,0,201,8,0,200,9,0,201,10,0,201,11,0,200,12,0,200,13,0,200,14,0,200,16,0,201,19,0,600,20,0,600,21,0,600,22,0,600,23,0,621,24,0,600,25,0,621,26,0,600,27,0,600,28,0,621,29,0,600,30,0,600,32,0,600,33,0,600,34,0,621,35,0,600,36,0,600,37,0,621,38,0,600,39,0,621,40,0,621,41,0,600,42,0,600,43,0,621,44,0,600,45,0,600,46,0,600,59,0,400,60,0,400,61,0,400,62,0,400*48
$PAIRDGP,10,2,4,7,8,9,16,21,26,27,30*42
$GNGGA,041921.200,2500.8023389,N,12132.4334533,E,2,49,0.57,13.198,M,15.25,M,1,3335*4F
$GNRMC,041921.200,A,2500.8023389,N,12132.4334533,E,0.01,312.77,090324,,,D,V*05
$GPHDT,,T*1B
$GNACCURACY,2.7*13
$GNGGA,041921.300,2500.8023449,N,12132.4334413,E,2,49,0.57,13.170,M,15.25,M,1,3335*40
$GNRMC,041921.300,A,2500.8023449,N,12132.4334413,E,0.01,312.77,090324,,,D,V*0C
$GPHDT,,T*1B
$GNACCURACY,2.7*13
$GNGGA,041921.400,2500.8023449,N,12132.4334233,E,2,49,0.57,13.141,M,15.25,M,1,3335*41
$GNRMC,041921.400,A,2500.8023449,N,12132.4334233,E,0.01,312.77,090324,,,D,V*0F
$GPHDT,,T*1B
$GNACCURACY,2.7*13
$GNGGA,041921.500,2500.8023449,N,12132.4334113,E,2,49,0.57,13.112,M,15.25,M,1,3335*47
$GNRMC,041921.500,A,2500.8023449,N,12132.4334113,E,0.01,312.77,090324,,,D,V*0F
$GPHDT,,T*1B
$GNACCURACY,2.7*13
$GNGGA,041921.600,2500.8023449,N,12132.4333993,E,2,49,0.57,13.085,M,15.25,M,0,3335*4D
$GNRMC,041921.600,A,2500.8023449,N,12132.4333993,E,0.01,312.77,090324,,,D,V*0B
$GPHDT,,T*1B
$GNACCURACY,2.7*13
$GNGGA,041921.700,2500.8023449,N,12132.4333873,E,2,50,0.57,13.057,M,15.25,M,0,3335*44
$GNRMC,041921.700,A,2500.8023449,N,12132.4333873,E,0.01,312.77,090324,,,D,V*05
$GPHDT,,T*1B
$GNACCURACY,2.7*13
$GNGGA,041921.800,2500.8023449,N,12132.4333813,E,2,50,0.57,13.029,M,15.25,M,0,3335*44
$GNRMC,041921.800,A,2500.8023449,N,12132.4333813,E,0.01,312.77,090324,,,D,V*0C
$GPHDT,,T*1B
$GNACCURACY,2.7*13
$GNGGA,041921.900,2500.8023449,N,12132.4333693,E,2,50,0.57,13.002,M,15.25,M,0,3335*4A
$GNRMC,041921.900,A,2500.8023449,N,12132.4333693,E,0.01,312.77,090324,,,D,V*0B
$GPHDT,,T*1B
$GNACCURACY,2.7*13
$GNGGA,041922.000,2500.8023449,N,12132.4333573,E,2,50,0.57,12.976,M,15.25,M,1,3335*47
$GNRMC,041922.000,A,2500.8023449,N,12132.4333573,E,0.01,312.77,090324,,,D,V*0C
$GPHDT,,T*1B
$GNACCURACY,2.7*13
$GNGGA,041922.100,2500.8023449,N,12132.4333393,E,2,50,0.57,12.944,M,15.25,M,1,3335*4F
$GNRMC,041922.100,A,2500.8023449,N,12132.4333393,E,0.01,312.77,090324,,,D,V*05
$GPHDT,,T*1B
$GNGSA,A,3,195,21,194,199,08,02,07,27,16,196,30,,1.03,0.57,0.86,1*0E
$GNGSA,A,3,81,78,88,79,77,,,,,,,,1.03,0.57,0.86,2*04
$GNGSA,A,3,21,13,26,27,15,,,,,,,,1.03,0.57,0.86,3*09
$GNGSA,A,3,23,09,06,16,28,07,40,39,43,10,37,25,1.03,0.57,0.86,4*05
$GPGSV,4,1,15,195,66,111,44,21,65,149,40,194,64,054,41,50,60,167,28,1*62
$GPGSV,4,2,15,199,60,167,26,08,59,002,45,02,53,175,41,07,45,314,24,1*56
$GPGSV,4,3,15,27,29,038,38,16,25,080,31,09,21,242,,196,19,168,22,1*54
$GPGSV,4,4,15,30,15,319,26,04,14,200,15,26,06,103,,1*5F
$GPGSV,2,1,06,195,66,111,44,194,64,054,43,199,60,167,39,08,59,002,44,8*57
$GPGSV,2,2,06,27,29,038,46,30,15,319,21,8*63
$GLGSV,2,1,06,81,71,208,33,78,58,048,41,88,50,028,42,79,30,337,41,1*75
$GLGSV,2,2,06,77,21,115,22,82,20,207,,1*75
$GAGSV,2,1,06,21,55,018,43,13,54,073,39,26,48,171,37,27,27,083,34,7*71
$GAGSV,2,2,06,19,25,237,,15,11,037,25,7*7B
$GAGSV,2,1,05,21,55,018,44,13,54,073,37,26,48,171,35,27,27,083,29,1*73
$GAGSV,2,2,05,15,11,037,22,1*40
$GBGSV,4,1,13,23,76,046,46,09,72,259,20,06,69,214,21,16,65,200,34,1*7D
$GBGSV,4,2,13,28,60,227,19,07,60,311,39,40,59,331,40,39,55,189,39,1*74
$GBGSV,4,3,13,43,54,035,46,10,50,292,26,37,34,323,34,25,34,122,34,1*78
$GBGSV,4,4,13,34,08,040,25,1*48
$GBGSV,2,1,07,23,76,046,46,28,60,227,17,40,59,331,43,39,55,189,31,4*7C
$GBGSV,2,2,07,43,54,035,38,25,34,122,40,37,34,323,37,4*4F
$GNACCURACY,2.7*13
$PAIRSAT,1,35,2,0,201,3,0,200,4,0,221,5,0,200,6,0,200,7,0,201,8,0,221,9,0,220,10,0,200,11,0,200,12,0,200,13,0,200,14,0,200,15,0,200,16,0,201,17,0,200,18,0,200,19,0,200,20,0,200,21,0,201,22,0,200,23,0,200,24,0,200,25,0,200,26,0,220,27,0,221,28,0,200,29,0,200,30,0,221,31,0,200,32,0,200,194,0,621,195,0,621,196,0,620,199,0,621*5A
$PAIRSAT,2,24,65,0,200,66,0,200,67,0,200,68,0,200,69,0,200,70,0,200,71,0,200,72,0,200,73,0,200,74,0,200,75,0,200,76,0,200,77,0,201,78,0,201,79,0,201,80,0,200,81,0,201,82,0,201,83,0,200,84,0,200,85,0,200,86,0,200,87,0,200,88,0,201*7A
$PAIRSAT,3,23,2,0,1200,3,0,1200,4,0,1200,5,0,200,7,0,1200,8,0,1200,9,0,1200,10,0,1200,11,0,1200,12,0,1200,13,0,1221,15,0,1220,19,0,1201,21,0,1221,24,0,1200,25,0,1200,26,0,1221,27,0,1221,30,0,1200,31,0,1200,33,0,1200,34,0,1200,36,0,1200*69
$PAIRSAT,4,46,1,0,200,2,0,200,3,0,600,4,0,200,5,0,200,6,0,201,7,0,201,8,0,200,9,0,201,10,0,201,11,0,200,12,0,200,13,0,200,14,0,200,16,0,201,19,0,600,20,0,600,21,0,600,22,0,600,23,0,621,24,0,600,25,0,621,26,0,600,27,0,600,28,0,621,29,0,600,30,0,600,32,0,600,33,0,600,34,0,621,35,0,600,36,0,600,37,0,621,38,0,600,39,0,621,40,0,621,41,0,600,42,0,600,43,0,621,44,0,600,45,0,600,46,0,600,59,0,400,60,0,400,61,0,400,62,0,400*48
$PAIRDGP,10,2,4,7,8,9,16,21,26,27,30*42
$GNGGA,041922.200,2500.8023449,N,12132.4333273,E,2,50,0.57,12.915,M,15.25,M,1,3335*47
$GNRMC,041922.200,A,2500.8023449,N,12132.4333273,E,0.01,312.77,090324,,,D,V*09
$GPHDT,,T*1B
$GNACCURACY,2.7*13
$GNGGA,041922.300,2500.8023449,N,12132.4333153,E,2,51,0.57,12.884,M,15.25,M,1,3335*4F
$GNRMC,041922.300,A,2500.8023449,N,12132.4333153,E,0.01,312.77,090324,,,D,V*09
$GPHDT,,T*1B
$GNACCURACY,2.7*13
$GNGGA,041922.400,2500.8023389,N,12132.4333033,E,2,51,0.57,12.851,M,15.25,M,1,3335*4C
$GNRMC,041922.400,A,2500.8023389,N,12132.4333033,E,0.01,312.77,090324,,,D,V*02
$GPHDT,,T*1B
$GNACCURACY,2.7*13
$GNGGA,041922.500,2500.8023389,N,12132.4332913,E,2,51,0.57,12.823,M,15.25,M,0,3335*43
$GNRMC,041922.500,A,2500.8023389,N,12132.4332913,E,0.02,312.77,090324,,,D,V*0A
$GPHDT,,T*1B
$GNACCURACY,2.7*13
$GNGGA,041922.600,2500.8023389,N,12132.4332793,E,2,51,0.57,12.794,M,15.25,M,0,3335*45
$GNRMC,041922.600,A,2500.8023389,N,12132.4332793,E,0.02,312.77,090324,,,D,V*0F
$GPHDT,,T*1B
$GNACCURACY,2.7*13
$GNGGA,041922.700,2500.8023329,N,12132.4332673,E,2,51,0.57,12.765,M,15.25,M,0,3335*4F
$GNRMC,041922.700,A,2500.8023329,N,12132.4332673,E,0.02,312.77,090324,,,D,V*0B
$GPHDT,,T*1B
$GNACCURACY,2.7*13
$GNGGA,041922.800,2500.8023329,N,12132.4332553,E,2,51,0.57,12.735,M,15.25,M,0,3335*44
$GNRMC,041922.800,A,2500.8023329,N,12132.4332553,E,0.02,312.77,090324,,,D,V*05
$GPHDT,,T*1B
$GNACCURACY,2.7*13
$GNGGA,041922.900,2500.8023329,N,12132.4332433,E,2,51,0.57,12.706,M,15.25,M,0,3335*42
$GNRMC,041922.900,A,2500.8023329,N,12132.4332433,E,0.02,312.77,090324,,,D,V*03
$GPHDT,,T*1B
$GNACCURACY,2.7*13
$GNGGA,041923.000,2500.8023329,N,12132.4332313,E,2,51,0.57,12.678,M,15.25,M,1,3335*46
$GNRMC,041923.000,A,2500.8023329,N,12132.4332313,E,0.02,312.77,090324,,,D,V*0E
$GPHDT,,T*1B
$GNACCURACY,2.7*13
$GNGGA,041923.100,2500.8023329,N,12132.4332193,E,2,51,0.57,12.647,M,15.25,M,1,3335*41
$GNRMC,041923.100,A,2500.8023329,N,12132.4332193,E,0.02,312.77,090324,,,D,V*05
$GPHDT,,T*1B
$GNGSA,A,3,195,21,194,199,08,02,07,27,16,196,30,,1.03,0.57,0.86,1*0E
$GNGSA,A,3,81,78,88,79,77,,,,,,,,1.03,0.57,0.86,2*04
$GNGSA,A,3,21,13,26,27,15,,,,,,,,1.03,0.57,0.86,3*09
$GNGSA,A,3,23,09,06,16,28,07,40,39,43,10,37,25,1.03,0.57,0.86,4*05
$GPGSV,4,1,15,195,66,111,44,21,65,149,39,194,64,054,42,50,60,167,26,1*61
$GPGSV,4,2,15,199,60,167,24,08,59,002,45,02,53,175,41,07,45,314,20,1*50
$GPGSV,4,3,15,27,29,038,37,16,25,080,31,09,21,242,,196,19,168,22,1*5B
$GPGSV,4,4,15,30,15,319,25,04,14,200,17,26,06,103,,1*5E
$GPGSV,2,1,07,195,66,111,43,194,64,054,43,199,60,167,39,08,59,002,43,8*56
$GPGSV,2,2,07,27,29,038,47,196,19,168,24,30,15,319,21,8*6C
$GLGSV,2,1,06,81,71,208,34,78,58,048,41,88,50,028,42,79,30,337,41,1*72
$GLGSV,2,2,06,77,21,115,21,82,20,207,,1*76
$GAGSV,2,1,06,21,55,018,43,13,54,073,39,26,48,171,37,27,27,083,29,7*7D
$GAGSV,2,2,06,19,25,237,,15,11,037,26,7*78
$GAGSV,2,1,05,21,55,018,44,13,54,073,37,26,48,171,35,27,27,083,28,1*72
$GAGSV,2,2,05,15,11,037,24,1*46
$GBGSV,4,1,13,23,76,046,46,09,72,259,20,06,69,214,23,16,65,200,34,1*7F
$GBGSV,4,2,13,28,60,227,19,07,60,311,39,40,59,331,40,39,55,189,39,1*74
$GBGSV,4,3,13,43,54,035,46,10,50,292,26,37,34,323,34,25,34,122,35,1*79
$GBGSV,4,4,13,34,08,040,24,1*49
$GBGSV,2,1,07,23,76,046,47,28,60,227,17,40,59,331,42,39,55,189,31,4*7C
$GBGSV,2,2,07,43,54,035,39,25,34,122,40,37,34,323,37,4*4E
$GNACCURACY,2.7*13
$PAIRSAT,1,35,2,0,201,3,0,200,4,0,221,5,0,200,6,0,200,7,0,201,8,0,221,9,0,220,10,0,200,11,0,200,12,0,200,13,0,200,14,0,200,15,0,200,16,0,201,17,0,200,18,0,200,19,0,200,20,0,200,21,0,201,22,0,200,23,0,200,24,0,200,25,0,200,26,0,220,27,0,221,28,0,200,29,0,200,30,0,221,31,0,200,32,0,200,194,0,621,195,0,621,196,0,620,199,0,621*5A
$PAIRSAT,2,24,65,0,200,66,0,200,67,0,200,68,0,200,69,0,200,70,0,200,71,0,200,72,0,200,73,0,200,74,0,200,75,0,200,76,0,200,77,0,201,78,0,201,79,0,201,80,0,200,81,0,201,82,0,201,83,0,200,84,0,200,85,0,200,86,0,200,87,0,200,88,0,201*7A
$PAIRSAT,3,23,2,0,1200,3,0,1200,4,0,1200,5,0,200,7,0,1200,8,0,1200,9,0,1200,10,0,1200,11,0,1200,12,0,1200,13,0,1221,15,0,1220,19,0,1201,21,0,1221,24,0,1200,25,0,1200,26,0,1221,27,0,1221,30,0,1200,31,0,1200,33,0,1200,34,0,1200,36,0,1200*69
$PAIRSAT,4,46,1,0,200,2,0,200,3,0,600,4,0,200,5,0,200,6,0,201,7,0,201,8,0,200,9,0,201,10,0,201,11,0,200,12,0,200,13,0,200,14,0,200,16,0,201,19,0,600,20,0,600,21,0,600,22,0,600,23,0,621,24,0,600,25,0,621,26,0,600,27,0,600,28,0,621,29,0,600,30,0,600,32,0,600,33,0,600,34,0,621,35,0,600,36,0,600,37,0,621,38,0,600,39,0,621,40,0,621,41,0,600,42,0,600,43,0,621,44,0,600,45,0,600,46,0,600,59,0,400,60,0,400,61,0,400,62,0,400*48
$PAIRDGP,10,2,4,7,8,9,16,21,26,27,30*42
$GNGGA,041923.200,2500.8023329,N,12132.4332073,E,2,51,0.57,12.613,M,15.25,M,1,3335*4C
$GNRMC,041923.200,A,2500.8023329,N,12132.4332073,E,0.02,312.77,090324,,,D,V*09
$GPHDT,,T*1B
$GNACCURACY,2.7*13
$GNGGA,041923.300,2500.8023269,N,12132.4332013,E,2,51,0.57,12.586,M,15.25,M,1,3335*41
$GNRMC,041923.300,A,2500.8023269,N,12132.4332013,E,0.02,312.77,090324,,,D,V*0B
$GPHDT,,T*1B
$GNACCURACY,2.7*13
$GNGGA,041923.400,2500.8023269,N,12132.4331893,E,2,51,0.57,12.559,M,15.25,M,1,3335*47
$GNRMC,041923.400,A,2500.8023269,N,12132.4331893,E,0.02,312.77,090324,,,D,V*0F
$GPHDT,,T*1B
$GNACCURACY,2.7*13
$GNGGA,041923.500,2500.8023269,N,12132.4331833,E,2,51,0.57,12.534,M,15.25,M,1,3335*47
$GNRMC,041923.500,A,2500.8023269,N,12132.4331833,E,0.02,312.77,090324,,,D,V*04
$GPHDT,,T*1B
$GNACCURACY,2.7*13
$GNGGA,041923.600,2500.8023209,N,12132.4331713,E,2,51,0.57,12.505,M,15.25,M,1,3335*4D
$GNRMC,041923.600,A,2500.8023209,N,12132.4331713,E,0.02,312.77,090324,,,D,V*0C
$GPHDT,,T*1B
$GNACCURACY,2.7*13
$GNGGA,041923.700,2500.8023209,N,12132.4331593,E,2,51,0.57,12.476,M,15.25,M,0,3335*42
$GNRMC,041923.700,A,2500.8023209,N,12132.4331593,E,0.02,312.77,090324,,,D,V*07
$GPHDT,,T*1B
$GNACCURACY,2.7*13
$GNGGA,041923.800,2500.8023209,N,12132.4331473,E,2,51,0.57,12.450,M,15.25,M,0,3335*46
$GNRMC,041923.800,A,2500.8023209,N,12132.4331473,E,0.02,312.77,090324,,,D,V*07
$GPHDT,,T*1B
$GNACCURACY,2.7*13
$GNGGA,041923.900,2500.8023209,N,12132.4331353,E,2,51,0.57,12.417,M,15.25,M,0,3335*41
$GNRMC,041923.900,A,2500.8023209,N,12132.4331353,E,0.03,312.77,090324,,,D,V*02
$GPHDT,,T*1B
$GNACCURACY,2.7*13
$GNGGA,041924.000,2500.8023209,N,12132.4331233,E,2,51,0.57,12.387,M,15.25,M,1,3335*47
$GNRMC,041924.000,A,2500.8023209,N,12132.4331233,E,0.03,312.77,090324,,,D,V*0B
$GPHDT,,T*1B
$GNACCURACY,2.7*13
$GNGGA,041924.100,2500.8023149,N,12132.4331053,E,2,51,0.57,12.359,M,15.25,M,1,3335*46
$GNRMC,041924.100,A,2500.8023149,N,12132.4331053,E,0.03,312.77,090324,,,D,V*09
$GPHDT,,T*1B
$GNGSA,A,3,195,21,194,199,08,02,07,27,16,196,30,,1.03,0.57,0.86,1*0E
$GNGSA,A,3,81,78,88,79,77,,,,,,,,1.03,0.57,0.86,2*04
$GNGSA,A,3,21,13,26,27,15,,,,,,,,1.03,0.57,0.86,3*09
$GNGSA,A,3,23,09,06,16,28,07,40,39,43,10,37,25,1.03,0.57,0.86,4*05
$GPGSV,4,1,15,195,66,111,43,21,65,149,39,194,64,054,43,50,60,167,28,1*69
$GPGSV,4,2,15,199,60,167,24,08,59,002,45,02,53,175,40,07,45,314,21,1*50
$GPGSV,4,3,15,27,29,038,38,16,25,080,34,09,21,242,,196,19,168,21,1*52
$GPGSV,4,4,15,30,15,319,26,04,14,200,17,26,06,103,,1*5D
$GPGSV,2,1,07,195,66,111,44,194,64,054,43,199,60,167,39,08,59,002,42,8*50
$GPGSV,2,2,07,27,29,038,46,196,19,168,24,30,15,319,20,8*6C
$GLGSV,2,1,06,81,71,208,34,78,58,048,41,88,50,028,42,79,30,337,41,1*72
$GLGSV,2,2,06,77,21,115,22,82,20,207,,1*75
$GAGSV,2,1,06,21,55,018,43,13,54,073,39,26,48,171,36,27,27,083,35,7*71
$GAGSV,2,2,06,19,25,237,,15,11,037,25,7*7B
$GAGSV,2,1,05,21,55,018,44,13,54,073,40,26,48,171,31,27,27,083,29,1*77
$GAGSV,2,2,05,15,11,037,22,1*40
$GBGSV,4,1,13,23,76,046,46,09,72,259,20,06,69,214,21,16,65,200,34,1*7D
$GBGSV,4,2,13,28,60,227,19,07,60,311,39,40,59,331,41,39,55,189,39,1*75
$GBGSV,4,3,13,43,54,035,46,10,50,292,28,37,34,323,34,25,34,122,33,1*71
$GBGSV,4,4,13,34,08,040,24,1*49
$GBGSV,2,1,07,23,76,046,47,28,60,227,15,40,59,331,42,39,55,189,31,4*7E
$GBGSV,2,2,07,43,54,035,38,25,34,122,40,37,34,323,36,4*4E
$GNACCURACY,2.7*13
$PAIRSAT,1,35,2,0,201,3,0,200,4,0,221,5,0,200,6,0,200,7,0,201,8,0,221,9,0,220,10,0,200,11,0,200,12,0,200,13,0,200,14,0,200,15,0,200,16,0,201,17,0,200,18,0,200,19,0,200,20,0,200,21,0,201,22,0,200,23,0,200,24,0,200,25,0,200,26,0,220,27,0,221,28,0,200,29,0,200,30,0,221,31,0,200,32,0,200,194,0,621,195,0,621,196,0,620,199,0,621*5A
$PAIRSAT,2,24,65,0,200,66,0,200,67,0,200,68,0,200,69,0,200,70,0,200,71,0,200,72,0,200,73,0,200,74,0,200,75,0,200,76,0,200,77,0,201,78,0,201,79,0,201,80,0,200,81,0,201,82,0,201,83,0,200,84,0,200,85,0,200,86,0,200,87,0,200,88,0,201*7A
$PAIRSAT,3,23,2,0,1200,3,0,1200,4,0,1200,5,0,200,7,0,1200,8,0,1200,9,0,1200,10,0,1200,11,0,1200,12,0,1200,13,0,1221,15,0,1220,19,0,1201,21,0,1221,24,0,1200,25,0,1200,26,0,1221,27,0,1221,30,0,1200,31,0,1200,33,0,1200,34,0,1200,36,0,1200*69
$PAIRSAT,4,46,1,0,200,2,0,200,3,0,600,4,0,200,5,0,200,6,0,201,7,0,201,8,0,200,9,0,201,10,0,201,11,0,200,12,0,200,13,0,200,14,0,200,16,0,201,19,0,600,20,0,600,21,0,600,22,0,600,23,0,621,24,0,600,25,0,621,26,0,600,27,0,600,28,0,621,29,0,600,30,0,600,32,0,600,33,0,600,34,0,621,35,0,600,36,0,600,37,0,621,38,0,600,39,0,621,40,0,621,41,0,600,42,0,600,43,0,621,44,0,600,45,0,600,46,0,600,59,0,400,60,0,400,61,0,400,62,0,400*48
$PAIRDGP,10,2,4,7,8,9,16,21,26,27,30*42
$GNGGA,041924.200,2500.8023209,N,12132.4330873,E,2,51,0.57,12.331,M,15.25,M,1,3335*47
$GNRMC,041924.200,A,2500.8023209,N,12132.4330873,E,0.03,312.77,090324,,,D,V*06
$GPHDT,,T*1B
$GNACCURACY,2.7*13
$GNGGA,041924.300,2500.8023209,N,12132.4330753,E,2,51,0.57,12.306,M,15.25,M,1,3335*4F
$GNRMC,041924.300,A,2500.8023209,N,12132.4330753,E,0.03,312.77,090324,,,D,V*0A
$GPHDT,,T*1B
$GNACCURACY,2.7*13
$GNGGA,041924.400,2500.8023209,N,12132.4330573,E,2,51,0.57,12.281,M,15.25,M,1,3335*46
$GNRMC,041924.400,A,2500.8023209,N,12132.4330573,E,0.03,312.77,090324,,,D,V*0D
$GPHDT,,T*1B
$GNACCURACY,2.7*13
$GNGGA,041924.500,2500.8023269,N,12132.4330453,E,2,50,0.57,12.259,M,15.25,M,1,3335*46
$GNRMC,041924.500,A,2500.8023269,N,12132.4330453,E,0.03,312.77,090324,,,D,V*09
$GPHDT,,T*1B
$GNACCURACY,2.7*13
$GNGGA,041924.600,2500.8023269,N,12132.4330333,E,2,51,0.57,12.232,M,15.25,M,0,3335*49
$GNRMC,041924.600,A,2500.8023269,N,12132.4330333,E,0.03,312.77,090324,,,D,V*0B
$GPHDT,,T*1B
$GNACCURACY,2.7*13
$GNGGA,041924.700,2500.8023269,N,12132.4330153,E,2,51,0.57,12.204,M,15.25,M,0,3335*49
$GNRMC,041924.700,A,2500.8023269,N,12132.4330153,E,0.03,312.77,090324,,,D,V*0E
$GPHDT,,T*1B
$GNACCURACY,2.7*13
$GNGGA,041924.800,2500.8023329,N,12132.4330033,E,2,50,0.57,12.178,M,15.25,M,0,3335*4D
$GNRMC,041924.800,A,2500.8023329,N,12132.4330033,E,0.03,312.77,090324,,,D,V*03
$GPHDT,,T*1B
$GNACCURACY,2.7*13
$GNGGA,041924.900,2500.8023329,N,12132.4329853,E,2,50,0.57,12.148,M,15.25,M,0,3335*49
$GNRMC,041924.900,A,2500.8023329,N,12132.4329853,E,0.04,312.77,090324,,,D,V*03
$GPHDT,,T*1B
$GNACCURACY,2.7*13
$GNGGA,041925.000,2500.8023329,N,12132.4329673,E,2,51,0.57,12.118,M,15.25,M,1,3335*48
$GNRMC,041925.000,A,2500.8023329,N,12132.4329673,E,0.04,312.77,090324,,,D,V*07
$GPHDT,,T*1B
$GNACCURACY,2.7*13
$GNGGA,041925.100,2500.8023389,N,12132.4329553,E,2,50,0.57,12.091,M,15.25,M,1,3335*43
$GNRMC,041925.100,A,2500.8023389,N,12132.4329553,E,0.04,312.77,090324,,,D,V*0D
$GPHDT,,T*1B
$GNGSA,A,3,195,21,194,199,08,02,07,27,16,196,30,,1.03,0.57,0.86,1*0E
$GNGSA,A,3,81,78,88,79,77,,,,,,,,1.03,0.57,0.86,2*04
$GNGSA,A,3,21,13,26,27,15,,,,,,,,1.03,0.57,0.86,3*09
$GNGSA,A,3,23,09,06,16,28,07,40,39,43,10,37,25,1.03,0.57,0.86,4*05
$GPGSV,4,1,15,195,66,111,46,21,65,149,40,194,64,054,42,50,60,167,31,1*6B
$GPGSV,4,2,15,199,60,167,29,08,59,002,45,02,53,175,40,07,45,314,22,1*5E
$GPGSV,4,3,15,27,29,038,39,16,25,080,30,09,21,242,,196,19,168,21,1*57
$GPGSV,4,4,15,30,15,319,25,04,14,200,15,26,06,103,,1*5C
$GPGSV,2,1,07,195