$FW : RTK35X,V1.1X0314AS,Lib20210517,1*54
$Tool : LOCOSYS , GNSS Firebird , v1.0.0.19*39
$---------------------------------------------------*2D
$GPHDT,,T*1B
$GNACCURACY,3.6*13
$GNGGA,041859.800,2500.8014809,N,12132.4332193,E,2,48,0.54,15.739,M,15.25,M,0,3335*4C
$GNRMC,041859.800,A,2500.8014809,N,12132.4332193,E,0.06,312.77,090324,,,D,V*09
$GPHDT,,T*1B
$GNACCURACY,3.6*13
$GNGGA,041859.900,2500.8014929,N,12132.4332253,E,2,48,0.54,15.726,M,15.25,M,0,3335*4F
$GNRMC,041859.900,A,2500.8014929,N,12132.4332253,E,0.05,312.77,090324,,,D,V*07
$GPHDT,,T*1B
$GNACCURACY,3.6*13
$GNGGA,041900.000,2500.8015049,N,12132.4332373,E,2,49,0.54,15.714,M,15.25,M,1,3335*47
$GNRMC,041900.000,A,2500.8015049,N,12132.4332373,E,0.02,312.77,090324,,,D,V*09
$GPHDT,,T*1B
$GNACCURACY,3.7*12
$GNGGA,041900.100,2500.8015109,N,12132.4332433,E,2,49,0.53,15.701,M,15.25,M,1,3335*43
$GNRMC,041900.100,A,2500.8015109,N,12132.4332433,E,0.01,312.77,090324,,,D,V*0D
$GPHDT,,T*1B
$GNGSA,A,3,195,21,194,199,08,02,07,27,16,196,30,04,0.81,0.53,0.61,1*0C
$GNGSA,A,3,81,78,88,79,77,,,,,,,,0.81,0.53,0.61,2*02
$GNGSA,A,3,21,13,26,27,15,,,,,,,,0.81,0.53,0.61,3*0F
$GNGSA,A,3,23,09,06,16,28,07,40,39,43,10,25,37,0.81,0.53,0.61,4*03
$GPGSV,4,1,15,195,66,111,46,21,65,150,39,194,64,054,42,50,60,167,29,1*64
$GPGSV,4,2,15,199,60,167,26,08,59,002,44,02,53,175,40,07,45,314,33,1*50
$GPGSV,4,3,15,27,29,038,42,16,25,080,36,09,21,242,17,196,19,168,19,1*50
$GPGSV,4,4,15,30,15,319,25,04,15,200,,26,06,103,,1*59
$GPGSV,2,1,07,195,66,111,46,194,64,054,46,199,60,167,40,08,59,002,42,8*59
$GPGSV,2,2,07,27,29,038,43,30,15,319,28,04,15,200,22,8*5C
$GLGSV,2,1,06,81,70,207,33,78,58,047,43,88,50,028,43,79,30,337,26,1*76
$GLGSV,2,2,06,77,21,115,26,82,20,206,,1*70
$GAGSV,2,1,06,21,55,017,42,13,54,074,44,26,48,171,35,27,27,083,38,7*7C
$GAGSV,2,2,06,19,25,238,,15,11,037,22,7*73
$GAGSV,1,1,04,21,55,017,44,13,54,074,42,26,48,171,42,27,27,083,38,1*7B
$GBGSV,4,1,13,23,76,046,46,09,72,259,21,06,69,214,24,16,65,200,26,1*7A
$GBGSV,4,2,13,28,60,226,21,07,60,311,39,40,59,331,39,39,55,189,37,1*7E
$GBGSV,4,3,13,43,54,035,46,10,50,292,31,25,34,122,45,37,33,323,33,1*78
$GBGSV,4,4,13,34,08,040,,1*4F
$GBGSV,2,1,06,23,76,046,47,28,60,226,17,40,59,331,43,39,55,189,20,4*7D
$GBGSV,2,2,06,25,34,122,41,37,33,323,32,4*76
$GNACCURACY,3.7*12
$PAIRSAT,1,35,2,0,201,3,0,200,4,0,221,5,0,200,6,0,200,7,0,201,8,0,221,9,0,220,10,0,200,11,0,200,12,0,200,13,0,200,14,0,200,15,0,200,16,0,201,17,0,200,18,0,200,19,0,200,20,0,200,21,0,201,22,0,200,23,0,200,24,0,200,25,0,200,26,0,220,27,0,221,28,0,200,29,0,200,30,0,221,31,0,200,32,0,200,194,0,621,195,0,621,196,0,620,199,0,621*5A
$PAIRSAT,2,24,65,0,200,66,0,200,67,0,200,68,0,200,69,0,200,70,0,200,71,0,200,72,0,200,73,0,200,74,0,200,75,0,200,76,0,200,77,0,201,78,0,201,79,0,201,80,0,200,81,0,201,82,0,201,83,0,200,84,0,200,85,0,200,86,0,200,87,0,200,88,0,201*7A
$PAIRSAT,3,23,2,0,1200,3,0,1200,4,0,1200,5,0,200,7,0,1200,8,0,1200,9,0,1200,10,0,1200,11,0,1200,12,0,1200,13,0,1221,15,0,1220,19,0,1201,21,0,1221,24,0,1200,25,0,1200,26,0,1221,27,0,1221,30,0,1200,31,0,1200,33,0,1200,34,0,1200,36,0,1200*69
$PAIRSAT,4,46,1,0,200,2,0,200,3,0,600,4,0,200,5,0,200,6,0,201,7,0,201,8,0,200,9,0,201,10,0,201,11,0,200,12,0,200,13,0,200,14,0,200,16,0,201,19,0,600,20,0,600,21,0,600,22,0,600,23,0,621,24,0,600,25,0,621,26,0,600,27,0,600,28,0,621,29,0,600,30,0,600,32,0,600,33,0,600,34,0,621,35,0,600,36,0,600,37,0,621,38,0,600,39,0,621,40,0,621,41,0,600,42,0,600,43,0,621,44,0,600,45,0,600,46,0,600,59,0,400,60,0,400,61,0,400,62,0,400*48
$PAIRDGP,10,2,4,7,8,9,16,21,26,27,30*42
$GNGGA,041900.200,2500.8015229,N,12132.4332493,E,2,50,0.53,15.689,M,15.25,M,1,3335*42
$GNRMC,041900.200,A,2500.8015229,N,12132.4332493,E,0.01,312.77,090324,,,D,V*05
$GPHDT,,T*1B
$GNACCURACY,3.7*12
$GNGGA,041900.300,2500.8015289,N,12132.4332553,E,2,50,0.53,15.677,M,15.25,M,1,3335*45
$GNRMC,041900.300,A,2500.8015289,N,12132.4332553,E,0.02,312.77,090324,,,D,V*00
$GPHDT,,T*1B
$GNACCURACY,3.7*12
$GNGGA,041900.400,2500.8015409,N,12132.4332613,E,2,51,0.53,15.667,M,15.25,M,1,3335*4B
$GNRMC,041900.400,A,2500.8015409,N,12132.4332613,E,0.02,312.77,090324,,,D,V*0E
$GPHDT,,T*1B
$GNACCURACY,3.7*12
$GNGGA,041900.500,2500.8015529,N,12132.4332673,E,2,51,0.53,15.656,M,15.25,M,0,3335*4C
$GNRMC,041900.500,A,2500.8015529,N,12132.4332673,E,0.01,312.77,090324,,,D,V*09
$GPHDT,,T*1B
$GNACCURACY,3.7*12
$GNGGA,041900.600,2500.8015649,N,12132.4332733,E,2,51,0.53,15.645,M,15.25,M,0,3335*4D
$GNRMC,041900.600,A,2500.8015649,N,12132.4332733,E,0.01,312.77,090324,,,D,V*0A
$GPHDT,,T*1B
$GNACCURACY,3.7*12
$GNGGA,041900.700,2500.8015709,N,12132.4332793,E,2,51,0.53,15.635,M,15.25,M,0,3335*44
$GNRMC,041900.700,A,2500.8015709,N,12132.4332793,E,0.01,312.77,090324,,,D,V*04
$GPHDT,,T*1B
$GNACCURACY,3.7*12
$GNGGA,041900.800,2500.8015829,N,12132.4332913,E,2,51,0.53,15.624,M,15.25,M,0,3335*40
$GNRMC,041900.800,A,2500.8015829,N,12132.4332913,E,0.01,312.77,090324,,,D,V*00
$GPHDT,,T*1B
$GNACCURACY,3.7*12
$GNGGA,041900.900,2500.8015889,N,12132.4332973,E,2,50,0.53,15.615,M,15.25,M,0,3335*4E
$GNRMC,041900.900,A,2500.8015889,N,12132.4332973,E,0.01,312.77,090324,,,D,V*0D
$GPHDT,,T*1B
$GNACCURACY,3.7*12
$GNGGA,041901.000,2500.8016009,N,12132.4333033,E,2,50,0.53,15.606,M,15.25,M,1,3335*4A
$GNRMC,041901.000,A,2500.8016009,N,12132.4333033,E,0.01,312.77,090324,,,D,V*0A
$GPHDT,,T*1B
$GNACCURACY,3.7*12
$GNGGA,041901.100,2500.8016069,N,12132.4333093,E,2,50,0.53,15.598,M,15.25,M,1,3335*43
$GNRMC,041901.100,A,2500.8016069,N,12132.4333093,E,0.01,312.77,090324,,,D,V*07
$GPHDT,,T*1B
$GNGSA,A,3,195,21,194,199,08,02,07,27,16,196,30,04,0.81,0.53,0.61,1*0C
$GNGSA,A,3,81,78,88,79,77,,,,,,,,0.81,0.53,0.61,2*02
$GNGSA,A,3,21,13,26,27,15,,,,,,,,0.81,0.53,0.61,3*0F
$GNGSA,A,3,23,09,06,16,28,07,40,39,43,10,25,37,0.81,0.53,0.61,4*03
$GPGSV,4,1,15,195,66,111,46,21,65,150,39,194,64,054,43,50,60,167,29,1*65
$GPGSV,4,2,15,199,60,167,26,08,59,002,44,02,53,175,40,07,45,314,33,1*50
$GPGSV,4,3,15,27,29,038,42,16,25,080,33,09,21,242,16,196,19,168,19,1*54
$GPGSV,4,4,15,30,15,319,25,04,15,200,,26,06,103,,1*59
$GPGSV,2,1,08,195,66,111,46,194,64,054,46,199,60,167,40,08,59,002,42,8*56
$GPGSV,2,2,08,27,29,038,42,196,19,168,22,30,15,319,28,04,15,200,23,8*5A
$GLGSV,2,1,06,81,70,207,33,78,58,047,43,88,50,028,43,79,30,337,25,1*75
$GLGSV,2,2,06,77,21,115,27,82,20,206,,1*71
$GAGSV,2,1,06,21,55,017,42,13,54,074,44,26,48,171,35,27,27,083,37,7*73
$GAGSV,2,2,06,19,25,238,,15,11,037,23,7*72
$GAGSV,1,1,04,21,55,017,44,13,54,074,42,26,48,171,43,27,27,083,37,1*75
$GBGSV,4,1,13,23,76,046,46,09,72,259,21,06,69,214,24,16,65,200,26,1*7A
$GBGSV,4,2,13,28,60,226,21,07,60,311,39,40,59,331,39,39,55,189,36,1*7F
$GBGSV,4,3,13,43,54,035,46,10,50,292,31,25,34,122,46,37,33,323,35,1*7D
$GBGSV,4,4,13,34,08,040,,1*4F
$GBGSV,2,1,06,23,76,046,47,28,60,226,18,40,59,331,43,39,55,189,21,4*73
$GBGSV,2,2,06,25,34,122,41,37,33,323,31,4*75
$GNACCURACY,3.7*12
$PAIRSAT,1,35,2,0,201,3,0,200,4,0,221,5,0,200,6,0,200,7,0,201,8,0,221,9,0,220,10,0,200,11,0,200,12,0,200,13,0,200,14,0,200,15,0,200,16,0,201,17,0,200,18,0,200,19,0,200,20,0,200,21,0,201,22,0,200,23,0,200,24,0,200,25,0,200,26,0,220,27,0,221,28,0,200,29,0,200,30,0,221,31,0,200,32,0,200,194,0,621,195,0,621,196,0,620,199,0,621*5A
$PAIRSAT,2,24,65,0,200,66,0,200,67,0,200,68,0,200,69,0,200,70,0,200,71,0,200,72,0,200,73,0,200,74,0,200,75,0,200,76,0,200,77,0,201,78,0,201,79,0,201,80,0,200,81,0,201,82,0,201,83,0,200,84,0,200,85,0,200,86,0,200,87,0,200,88,0,201*7A
$PAIRSAT,3,23,2,0,1200,3,0,1200,4,0,1200,5,0,200,7,0,1200,8,0,1200,9,0,1200,10,0,1200,11,0,1200,12,0,1200,13,0,1221,15,0,1220,19,0,1201,21,0,1221,24,0,1200,25,0,1200,26,0,1221,27,0,1221,30,0,1200,31,0,1200,33,0,1200,34,0,1200,36,0,1200*69
$PAIRSAT,4,46,1,0,200,2,0,200,3,0,600,4,0,200,5,0,200,6,0,201,7,0,201,8,0,200,9,0,201,10,0,201,11,0,200,12,0,200,13,0,200,14,0,200,16,0,201,19,0,600,20,0,600,21,0,600,22,0,600,23,0,621,24,0,600,25,0,621,26,0,600,27,0,600,28,0,621,29,0,600,30,0,600,32,0,600,33,0,600,34,0,621,35,0,600,36,0,600,37,0,621,38,0,600,39,0,621,40,0,621,41,0,600,42,0,600,43,0,621,44,0,600,45,0,600,46,0,600,59,0,400,60,0,400,61,0,400,62,0,400*48
$PAIRDGP,10,2,4,7,8,9,16,21,26,27,30*42
$GNGGA,041901.200,2500.8016189,N,12132.4333153,E,2,50,0.53,15.590,M,15.25,M,1,3335*4A
$GNRMC,041901.200,A,2500.8016189,N,12132.4333153,E,0.01,312.77,090324,,,D,V*06
$GPHDT,,T*1B
$GNACCURACY,3.7*12
$GNGGA,041901.300,2500.8016249,N,12132.4333153,E,2,51,0.53,15.581,M,15.25,M,1,3335*45
$GNRMC,041901.300,A,2500.8016249,N,12132.4333153,E,0.03,312.77,090324,,,D,V*0A
$GPHDT,,T*1B
$GNACCURACY,3.7*12
$GNGGA,041901.400,2500.8016369,N,12132.4333213,E,2,50,0.53,15.571,M,15.25,M,1,3335*48
$GNRMC,041901.400,A,2500.8016369,N,12132.4333213,E,0.02,312.77,090324,,,D,V*08
$GPHDT,,T*1B
$GNACCURACY,3.7*12
$GNGGA,041901.500,2500.8016429,N,12132.4333273,E,2,51,0.53,15.560,M,15.25,M,0,3335*4C
$GNRMC,041901.500,A,2500.8016429,N,12132.4333273,E,0.00,312.77,090324,,,D,V*0E
$GPHDT,,T*1B
$GNACCURACY,3.7*12
$GNGGA,041901.600,2500.8016489,N,12132.4333333,E,2,51,0.53,15.551,M,15.25,M,0,3335*42
$GNRMC,041901.600,A,2500.8016489,N,12132.4333333,E,0.01,312.77,090324,,,D,V*03
$GPHDT,,T*1B
$GNACCURACY,3.7*12
$GNGGA,041901.700,2500.8016549,N,12132.4333453,E,2,51,0.53,15.540,M,15.25,M,0,3335*4F
$GNRMC,041901.700,A,2500.8016549,N,12132.4333453,E,0.02,312.77,090324,,,D,V*0D
$GPHDT,,T*1B
$GNACCURACY,3.7*12
$GNGGA,041901.800,2500.8016669,N,12132.4333513,E,2,51,0.53,15.531,M,15.25,M,0,3335*42
$GNRMC,041901.800,A,2500.8016669,N,12132.4333513,E,0.02,312.77,090324,,,D,V*06
$GPHDT,,T*1B
$GNACCURACY,3.7*12
$GNGGA,041901.900,2500.8016789,N,12132.4333573,E,2,51,0.53,15.521,M,15.25,M,0,3335*4B
$GNRMC,041901.900,A,2500.8016789,N,12132.4333573,E,0.01,312.77,090324,,,D,V*0D
$GPHDT,,T*1B
$GNACCURACY,3.7*12
$GNGGA,041902.000,2500.8016849,N,12132.4333633,E,2,51,0.53,15.510,M,15.25,M,1,3335*46
$GNRMC,041902.000,A,2500.8016849,N,12132.4333633,E,0.02,312.77,090324,,,D,V*00
$GPHDT,,T*1B
$GNACCURACY,3.7*12
$GNGGA,041902.100,2500.8016969,N,12132.4333693,E,2,51,0.53,15.500,M,15.25,M,1,3335*4F
$GNRMC,041902.100,A,2500.8016969,N,12132.4333693,E,0.02,312.77,090324,,,D,V*08
$GPHDT,,T*1B
$GNGSA,A,3,195,21,194,199,08,02,07,27,16,196,30,04,0.81,0.53,0.61,1*0C
$GNGSA,A,3,81,78,88,79,77,,,,,,,,0.81,0.53,0.61,2*02
$GNGSA,A,3,21,13,26,27,15,,,,,,,,0.81,0.53,0.61,3*0F
$GNGSA,A,3,23,09,06,16,28,07,40,39,43,10,25,37,0.81,0.53,0.61,4*03
$GPGSV,4,1,15,195,66,111,46,21,65,150,40,194,64,054,44,50,60,167,28,1*6D
$GPGSV,4,2,15,199,60,167,25,08,59,002,43,02,53,175,41,07,45,314,31,1*57
$GPGSV,4,3,15,27,29,038,43,16,25,080,34,09,21,242,15,196,19,168,18,1*50
$GPGSV,4,4,15,30,15,319,26,04,15,200,,26,06,103,,1*5A
$GPGSV,2,1,08,195,66,111,46,194,64,054,45,199,60,167,40,08,59,002,44,8*53
$GPGSV,2,2,08,27,29,038,43,196,19,168,20,30,15,319,28,04,15,200,20,8*5A
$GLGSV,2,1,06,81,70,207,33,78,58,047,43,88,50,028,43,79,30,337,23,1*73
$GLGSV,2,2,06,77,21,115,24,82,20,206,,1*72
$GAGSV,2,1,06,21,55,017,42,13,54,074,43,26,48,171,37,27,27,083,38,7*79
$GAGSV,2,2,06,19,25,238,,15,11,037,22,7*73
$GAGSV,1,1,04,21,55,017,44,13,54,074,43,26,48,171,41,27,27,083,37,1*76
$GBGSV,4,1,13,23,76,046,47,09,72,259,21,06,69,214,24,16,65,200,28,1*75
$GBGSV,4,2,13,28,60,226,24,07,60,311,39,40,59,331,39,39,55,189,37,1*7B
$GBGSV,4,3,13,43,54,035,46,10,50,292,30,25,34,122,46,37,33,323,33,1*7A
$GBGSV,4,4,13,34,08,040,,1*4F
$GBGSV,2,1,06,23,76,046,47,28,60,226,17,40,59,331,41,39,55,189,18,4*74
$GBGSV,2,2,06,25,34,122,42,37,33,323,33,4*74
$GNACCURACY,3.7*12
$PAIRSAT,1,35,2,0,201,3,0,200,4,0,221,5,0,200,6,0,200,7,0,201,8,0,221,9,0,220,10,0,200,11,0,200,12,0,200,13,0,200,14,0,200,15,0,200,16,0,201,17,0,200,18,0,200,19,0,200,20,0,200,21,0,201,22,0,200,23,0,200,24,0,200,25,0,200,26,0,220,27,0,221,28,0,200,29,0,200,30,0,221,31,0,200,32,0,200,194,0,621,195,0,621,196,0,620,199,0,621*5A
$PAIRSAT,2,24,65,0,200,66,0,200,67,0,200,68,0,200,69,0,200,70,0,200,71,0,200,72,0,200,73,0,200,74,0,200,75,0,200,76,0,200,77,0,201,78,0,201,79,0,201,80,0,200,81,0,201,82,0,201,83,0,200,84,0,200,85,0,200,86,0,200,87,0,200,88,0,201*7A
$PAIRSAT,3,23,2,0,1200,3,0,1200,4,0,1200,5,0,200,7,0,1200,8,0,1200,9,0,1200,10,0,1200,11,0,1200,12,0,1200,13,0,1221,15,0,1220,19,0,1201,21,0,1221,24,0,1200,25,0,1200,26,0,1221,27,0,1221,30,0,1200,31,0,1200,33,0,1200,34,0,1200,36,0,1200*69
$PAIRSAT,4,46,1,0,200,2,0,200,3,0,600,4,0,200,5,0,200,6,0,201,7,0,201,8,0,200,9,0,201,10,0,201,11,0,200,12,0,200,13,0,200,14,0,200,16,0,201,19,0,600,20,0,600,21,0,600,22,0,600,23,0,621,24,0,600,25,0,621,26,0,600,27,0,600,28,0,621,29,0,600,30,0,600,32,0,600,33,0,600,34,0,621,35,0,600,36,0,600,37,0,621,38,0,600,39,0,621,40,0,621,41,0,600,42,0,600,43,0,621,44,0,600,45,0,600,46,0,600,59,0,400,60,0,400,61,0,400,62,0,400*48
$PAIRDGP,10,2,4,7,8,9,16,21,26,27,30*42
$GNGGA,041902.200,2500.8017029,N,12132.4333753,E,2,51,0.53,15.489,M,15.25,M,1,3335*4D
$GNRMC,041902.200,A,2500.8017029,N,12132.4333753,E,0.03,312.77,090324,,,D,V*0B
$GPHDT,,T*1B
$GNACCURACY,3.7*12
$GNGGA,041902.300,2500.8017149,N,12132.4333813,E,2,51,0.53,15.480,M,15.25,M,1,3335*49
$GNRMC,041902.300,A,2500.8017149,N,12132.4333813,E,0.01,312.77,090324,,,D,V*04
$GPHDT,,T*1B
$GNACCURACY,3.7*12
$GNGGA,041902.400,2500.8017269,N,12132.4333873,E,2,51,0.53,15.472,M,15.25,M,1,3335*44
$GNRMC,041902.400,A,2500.8017269,N,12132.4333873,E,0.01,312.77,090324,,,D,V*04
$GPHDT,,T*1B
$GNACCURACY,3.7*12
$GNGGA,041902.500,2500.8017329,N,12132.4333933,E,2,51,0.53,15.462,M,15.25,M,1,3335*44
$GNRMC,041902.500,A,2500.8017329,N,12132.4333933,E,0.01,312.77,090324,,,D,V*05
$GPHDT,,T*1B
$GNACCURACY,3.7*12
$GNGGA,041902.600,2500.8017449,N,12132.4333993,E,2,51,0.53,15.454,M,15.25,M,1,3335*49
$GNRMC,041902.600,A,2500.8017449,N,12132.4333993,E,0.01,312.77,090324,,,D,V*0D
$GPHDT,,T*1B
$GNACCURACY,3.7*12
$GNGGA,041902.700,2500.8017569,N,12132.4334053,E,2,51,0.53,15.446,M,15.25,M,0,3335*4B
$GNRMC,041902.700,A,2500.8017569,N,12132.4334053,E,0.02,312.77,090324,,,D,V*0E
$GPHDT,,T*1B
$GNACCURACY,3.7*12
$GNGGA,041902.800,2500.8017629,N,12132.4334113,E,2,51,0.53,15.437,M,15.25,M,0,3335*40
$GNRMC,041902.800,A,2500.8017629,N,12132.4334113,E,0.02,312.77,090324,,,D,V*03
$GPHDT,,T*1B
$GNACCURACY,3.7*12
$GNGGA,041902.900,2500.8017749,N,12132.4334113,E,2,51,0.53,15.428,M,15.25,M,0,3335*48
$GNRMC,041902.900,A,2500.8017749,N,12132.4334113,E,0.02,312.77,090324,,,D,V*05
$GPHDT,,T*1B
$GNACCURACY,3.7*12
$GNGGA,041903.000,2500.8017809,N,12132.4334173,E,2,51,0.53,15.418,M,15.25,M,1,3335*4F
$GNRMC,041903.000,A,2500.8017809,N,12132.4334173,E,0.02,312.77,090324,,,D,V*00
$GPHDT,,T*1B
$GNACCURACY,3.7*12
$GNGGA,041903.100,2500.8017929,N,12132.4334233,E,2,51,0.53,15.408,M,15.25,M,1,3335*4B
$GNRMC,041903.100,A,2500.8017929,N,12132.4334233,E,0.02,312.77,090324,,,D,V*05
$GPHDT,,T*1B
$GNGSA,A,3,195,21,194,199,08,02,07,27,16,196,30,09,0.78,0.51,0.59,1*0E
$GNGSA,A,3,04,,,,,,,,,,,,0.78,0.51,0.59,1*02
$GNGSA,A,3,81,78,88,79,77,,,,,,,,0.78,0.51,0.59,2*0D
$GNGSA,A,3,21,13,26,27,15,,,,,,,,0.78,0.51,0.59,3*00
$GNGSA,A,3,23,09,06,16,28,07,40,39,43,10,25,37,0.78,0.51,0.59,4*0C
$GPGSV,4,1,15,195,66,111,46,21,65,150,40,194,64,054,44,50,60,167,28,1*6D
$GPGSV,4,2,15,199,60,167,26,08,59,002,43,02,53,175,41,07,45,314,26,1*52
$GPGSV,4,3,15,27,29,038,43,16,25,080,36,09,21,242,14,196,19,168,20,1*58
$GPGSV,4,4,15,30,15,319,26,04,14,200,,26,06,103,,1*5B
$GPGSV,3,1,09,195,66,111,46,194,64,054,45,199,60,167,40,08,59,002,44,8*53
$GPGSV,3,2,09,27,29,038,43,09,21,242,17,196,19,168,20,30,15,319,25,8*5F
$GPGSV,3,3,09,04,14,200,18,8*5E
$GLGSV,2,1,06,81,70,207,34,78,58,047,43,88,50,028,43,79,30,337,25,1*72
$GLGSV,2,2,06,77,21,115,24,82,20,206,,1*72
$GAGSV,2,1,06,21,55,017,42,13,54,074,43,26,48,171,37,27,27,083,38,7*79
$GAGSV,2,2,06,19,25,238,,15,11,037,21,7*70
$GAGSV,1,1,04,21,55,017,44,13,54,074,43,26,48,171,41,27,27,083,38,1*79
$GBGSV,4,1,13,23,76,046,47,09,72,259,22,06,69,214,24,16,65,200,28,1*76
$GBGSV,4,2,13,28,60,226,26,07,60,311,39,40,59,331,39,39,55,189,37,1*79
$GBGSV,4,3,13,43,54,035,46,10,50,292,30,25,34,122,46,37,33,323,35,1*7C
$GBGSV,4,4,13,34,08,040,,1*4F
$GBGSV,2,1,07,23,76,046,47,28,60,226,18,40,59,331,41,39,55,189,15,4*77
$GBGSV,2,2,07,43,54,035,41,25,34,122,42,37,33,323,33,4*40
$GNACCURACY,3.7*12
$PAIRSAT,1,35,2,0,201,3,0,200,4,0,221,5,0,200,6,0,200,7,0,201,8,0,221,9,0,220,10,0,200,11,0,200,12,0,200,13,0,200,14,0,200,15,0,200,16,0,201,17,0,200,18,0,200,19,0,200,20,0,200,21,0,201,22,0,200,23,0,200,24,0,200,25,0,200,26,0,220,27,0,221,28,0,200,29,0,200,30,0,221,31,0,200,32,0,200,194,0,621,195,0,621,196,0,620,199,0,621*5A
$PAIRSAT,2,24,65,0,200,66,0,200,67,0,200,68,0,200,69,0,200,70,0,200,71,0,200,72,0,200,73,0,200,74,0,200,75,0,200,76,0,200,77,0,201,78,0,201,79,0,201,80,0,200,81,0,201,82,0,201,83,0,200,84,0,200,85,0,200,86,0,200,87,0,200,88,0,201*7A
$PAIRSAT,3,23,2,0,1200,3,0,1200,4,0,1200,5,0,200,7,0,1200,8,0,1200,9,0,1200,10,0,1200,11,0,1200,12,0,1200,13,0,1221,15,0,1220,19,0,1201,21,0,1221,24,0,1200,25,0,1200,26,0,1221,27,0,1221,30,0,1200,31,0,1200,33,0,1200,34,0,1200,36,0,1200*69
$PAIRSAT,4,46,1,0,200,2,0,200,3,0,600,4,0,200,5,0,200,6,0,201,7,0,201,8,0,200,9,0,201,10,0,201,11,0,200,12,0,200,13,0,200,14,0,200,16,0,201,19,0,600,20,0,600,21,0,600,22,0,600,23,0,621,24,0,600,25,0,621,26,0,600,27,0,600,28,0,621,29,0,600,30,0,600,32,0,600,33,0,600,34,0,621,35,0,600,36,0,600,37,0,621,38,0,600,39,0,621,40,0,621,41,0,600,42,0,600,43,0,621,44,0,600,45,0,600,46,0,600,59,0,400,60,0,400,61,0,400,62,0,400*48
$PAIRDGP,10,2,4,7,8,9,16,21,26,27,30*42
$GNGGA,041903.200,2500.8017989,N,12132.4334233,E,2,52,0.51,15.399,M,15.25,M,1,3335*4C
$GNRMC,041903.200,A,2500.8017989,N,12132.4334233,E,0.02,312.77,090324,,,D,V*0C
$GPHDT,,T*1B
$GNACCURACY,3.7*12
$GNGGA,041903.300,2500.8018049,N,12132.4334293,E,2,52,0.51,15.391,M,15.25,M,1,3335*45
$GNRMC,041903.300,A,2500.8018049,N,12132.4334293,E,0.03,312.77,090324,,,D,V*0C
$GPHDT,,T*1B
$GNACCURACY,3.7*12
$GNGGA,041903.400,2500.8018109,N,12132.4334353,E,2,52,0.51,15.382,M,15.25,M,1,3335*48
$GNRMC,041903.400,A,2500.8018109,N,12132.4334353,E,0.02,312.77,090324,,,D,V*02
$GPHDT,,T*1B
$GNACCURACY,3.7*12
$GNGGA,041903.500,2500.8018229,N,12132.4334413,E,2,52,0.51,15.375,M,15.25,M,1,3335*43
$GNRMC,041903.500,A,2500.8018229,N,12132.4334413,E,0.02,312.77,090324,,,D,V*01
$GPHDT,,T*1B
$GNACCURACY,3.7*12
$GNGGA,041903.600,2500.8018289,N,12132.4334473,E,2,52,0.51,15.367,M,15.25,M,1,3335*4F
$GNRMC,041903.600,A,2500.8018289,N,12132.4334473,E,0.01,312.77,090324,,,D,V*0D
$GPHDT,,T*1B
$GNACCURACY,3.7*12
$GNGGA,041903.700,2500.8018349,N,12132.4334533,E,2,52,0.51,15.361,M,15.25,M,1,3335*40
$GNRMC,041903.700,A,2500.8018349,N,12132.4334533,E,0.01,312.77,090324,,,D,V*04
$GPHDT,,T*1B
$GNACCURACY,3.7*12
$GNGGA,041903.800,2500.8018409,N,12132.4334593,E,2,52,0.51,15.353,M,15.25,M,0,3335*46
$GNRMC,041903.800,A,2500.8018409,N,12132.4334593,E,0.02,312.77,090324,,,D,V*01
$GPHDT,,T*1B
$GNACCURACY,3.7*12
$GNGGA,041903.900,2500.8018469,N,12132.4334593,E,2,52,0.51,15.343,M,15.25,M,0,3335*40
$GNRMC,041903.900,A,2500.8018469,N,12132.4334593,E,0.02,312.77,090324,,,D,V*06
$GPHDT,,T*1B
$GNACCURACY,3.7*12
$GNGGA,041904.000,2500.8018529,N,12132.4334653,E,2,52,0.51,15.338,M,15.25,M,1,3335*49
$GNRMC,041904.000,A,2500.8018529,N,12132.4334653,E,0.02,312.77,090324,,,D,V*02
$GPHDT,,T*1B
$GNACCURACY,3.7*12
$GNGGA,041904.100,2500.8018589,N,12132.4334653,E,2,51,0.53,15.331,M,15.25,M,1,3335*4A
$GNRMC,041904.100,A,2500.8018589,N,12132.4334653,E,0.01,312.77,090324,,,D,V*0A
$GPHDT,,T*1B
$GNGSA,A,3,195,21,194,199,08,02,07,27,16,196,30,04,0.93,0.53,0.76,1*09
$GNGSA,A,3,81,78,88,79,77,,,,,,,,0.93,0.53,0.76,2*07
$GNGSA,A,3,21,13,26,27,15,,,,,,,,0.93,0.53,0.76,3*0A
$GNGSA,A,3,23,09,06,16,28,07,40,39,43,10,25,37,0.93,0.53,0.76,4*06
$GPGSV,4,1,15,195,66,111,46,21,65,149,40,194,64,054,44,50,60,167,28,1*65
$GPGSV,4,2,15,199,60,167,25,08,59,002,43,02,53,175,41,07,45,314,22,1*55
$GPGSV,4,3,15,27,29,038,43,16,25,080,36,09,21,242,17,196,19,168,19,1*51
$GPGSV,4,4,15,30,15,319,28,04,14,200,,26,06,103,,1*55
$GPGSV,3,1,09,195,66,111,46,194,64,054,45,199,60,167,40,08,59,002,44,8*53
$GPGSV,3,2,09,27,29,038,43,09,21,242,15,196,19,168,18,30,15,319,28,8*5B
$GPGSV,3,3,09,04,14,200,18,8*5E
$GLGSV,2,1,06,81,70,207,34,78,58,047,43,88,50,028,43,79,30,337,23,1*74
$GLGSV,2,2,06,77,21,115,21,82,20,206,,1*77
$GAGSV,2,1,06,21,55,017,42,13,54,074,43,26,48,171,37,27,27,083,38,7*79
$GAGSV,2,2,06,19,25,238,,15,11,037,20,7*71
$GAGSV,1,1,04,21,55,017,44,13,54,074,43,26,48,171,41,27,27,083,38,1*79
$GBGSV,4,1,13,23,76,046,47,09,72,259,22,06,69,214,24,16,65,200,28,1*76
$GBGSV,4,2,13,28,60,226,26,07,60,311,39,40,59,331,39,39,55,189,37,1*79
$GBGSV,4,3,13,43,54,035,45,10,50,292,30,25,34,122,46,37,33,323,33,1*79
$GBGSV,4,4,13,34,08,040,,1*4F
$GBGSV,2,1,07,23,76,046,47,28,60,226,18,40,59,331,41,39,55,189,14,4*76
$GBGSV,2,2,07,43,54,035,41,25,34,122,42,37,33,323,33,4*40
$GNACCURACY,3.7*12
$PAIRSAT,1,35,2,0,201,3,0,200,4,0,221,5,0,200,6,0,200,7,0,201,8,0,221,9,0,220,10,0,200,11,0,200,12,0,200,13,0,200,14,0,200,15,0,200,16,0,201,17,0,200,18,0,200,19,0,200,20,0,200,21,0,201,22,0,200,23,0,200,24,0,200,25,0,200,26,0,220,27,0,221,28,0,200,29,0,200,30,0,221,31,0,200,32,0,200,194,0,621,195,0,621,196,0,620,199,0,621*5A
$PAIRSAT,2,24,65,0,200,66,0,200,67,0,200,68,0,200,69,0,200,70,0,200,71,0,200,72,0,200,73,0,200,74,0,200,75,0,200,76,0,200,77,0,201,78,0,201,79,0,201,80,0,200,81,0,201,82,0,201,83,0,200,84,0,200,85,0,200,86,0,200,87,0,200,88,0,201*7A
$PAIRSAT,3,23,2,0,1200,3,0,1200,4,0,1200,5,0,200,7,0,1200,8,0,1200,9,0,1200,10,0,1200,11,0,1200,12,0,1200,13,0,1221,15,0,1220,19,0,1201,21,0,1221,24,0,1200,25,0,1200,26,0,1221,27,0,1221,30,0,1200,31,0,1200,33,0,1200,34,0,1200,36,0,1200*69
$PAIRSAT,4,46,1,0,200,2,0,200,3,0,600,4,0,200,5,0,200,6,0,201,7,0,201,8,0,200,9,0,201,10,0,201,11,0,200,12,0,200,13,0,200,14,0,200,16,0,201,19,0,600,20,0,600,21,0,600,22,0,600,23,0,621,24,0,600,25,0,621,26,0,600,27,0,600,28,0,621,29,0,600,30,0,600,32,0,600,33,0,600,34,0,621,35,0,600,36,0,600,37,0,621,38,0,600,39,0,621,40,0,621,41,0,600,42,0,600,43,0,621,44,0,600,45,0,600,46,0,600,59,0,400,60,0,400,61,0,400,62,0,400*48
$PAIRDGP,10,2,4,7,8,9,16,21,26,27,30*42
$GNGGA,041904.200,2500.8018649,N,12132.4334713,E,2,51,0.53,15.326,M,15.25,M,1,3335*45
$GNRMC,041904.200,A,2500.8018649,N,12132.4334713,E,0.01,312.77,090324,,,D,V*03
$GPHDT,,T*1B
$GNACCURACY,2.9*1D
$GNGGA,041904.300,2500.8018709,N,12132.4334713,E,2,50,0.53,15.320,M,15.25,M,1,3335*46
$GNRMC,041904.300,A,2500.8018709,N,12132.4334713,E,0.00,312.77,090324,,,D,V*06
$GPHDT,,T*1B
$GNACCURACY,2.9*1D
$GNGGA,041904.400,2500.8018769,N,12132.4334773,E,2,50,0.53,15.316,M,15.25,M,1,3335*44
$GNRMC,041904.400,A,2500.8018769,N,12132.4334773,E,0.00,312.77,090324,,,D,V*01
$GPHDT,,T*1B
$GNACCURACY,2.9*1D
$GNGGA,041904.500,2500.8018829,N,12132.4334833,E,2,50,0.53,15.310,M,15.25,M,0,3335*42
$GNRMC,041904.500,A,2500.8018829,N,12132.4334833,E,0.00,312.77,090324,,,D,V*00
$GPHDT,,T*1B
$GNACCURACY,2.9*1D
$GNGGA,041904.600,2500.8018889,N,12132.4334833,E,2,51,0.51,15.305,M,15.25,M,0,3335*4C
$GNRMC,041904.600,A,2500.8018889,N,12132.4334833,E,0.00,312.77,090324,,,D,V*09
$GPHDT,,T*1B
$GNACCURACY,2.9*1D
$GNGGA,041904.700,2500.8018949,N,12132.4334893,E,2,51,0.51,15.299,M,15.25,M,0,3335*4E
$GNRMC,041904.700,A,2500.8018949,N,12132.4334893,E,0.00,312.77,090324,,,D,V*0F
$GPHDT,,T*1B
$GNACCURACY,2.9*1D
$GNGGA,041904.800,2500.8019009,N,12132.4334953,E,2,51,0.51,15.294,M,15.25,M,0,3335*4D
$GNRMC,041904.800,A,2500.8019009,N,12132.4334953,E,0.00,312.77,090324,,,D,V*01
$GPHDT,,T*1B
$GNACCURACY,2.9*1D
$GNGGA,041904.900,2500.8019069,N,12132.4334953,E,2,51,0.51,15.289,M,15.25,M,0,3335*46
$GNRMC,041904.900,A,2500.8019069,N,12132.4334953,E,0.00,312.77,090324,,,D,V*06
$GPHDT,,T*1B
$GNACCURACY,2.9*1D
$GNGGA,041905.000,2500.8019129,N,12132.4335013,E,2,51,0.51,15.284,M,15.25,M,1,3335*4B
$GNRMC,041905.000,A,2500.8019129,N,12132.4335013,E,0.00,312.77,090324,,,D,V*07
$GPHDT,,T*1B
$GNACCURACY,2.9*1D
$GNGGA,041905.100,2500.8019189,N,12132.4335013,E,2,51,0.51,15.278,M,15.25,M,1,3335*43
$GNRMC,041905.100,A,2500.8019189,N,12132.4335013,E,0.00,312.77,090324,,,D,V*0C
$GPHDT,,T*1B
$GNGSA,A,3,195,21,194,199,08,02,07,27,16,196,30,09,0.88,0.51,0.72,1*08
$GNGSA,A,3,04,,,,,,,,,,,,0.88,0.51,0.72,1*04
$GNGSA,A,3,81,78,88,79,77,,,,,,,,0.88,0.51,0.72,2*0B
$GNGSA,A,3,21,13,26,27,15,,,,,,,,0.88,0.51,0.72,3*06
$GNGSA,A,3,23,09,06,16,28,07,40,39,43,10,25,37,0.88,0.51,0.72,4*0A
$GPGSV,4,1,15,195,66,111,46,21,65,149,40,194,64,054,44,50,60,167,28,1*65
$GPGSV,4,2,15,199,60,167,25,08,59,002,43,02,53,175,41,07,45,314,22,1*55
$GPGSV,4,3,15,27,29,038,43,16,25,080,36,09,21,242,16,196,19,168,19,1*50
$GPGSV,4,4,15,30,15,319,27,04,14,200,,26,06,103,,1*5A
$GPGSV,2,1,08,195,66,111,46,194,64,054,45,199,60,167,40,08,59,002,43,8*54
$GPGSV,2,2,08,27,29,038,43,09,21,242,16,30,15,319,28,04,14,200,15,8*6F
$GLGSV,2,1,06,81,70,207,34,78,58,047,43,88,50,028,42,79,30,337,23,1*75
$GLGSV,2,2,06,77,21,115,21,82,20,206,,1*77
$GAGSV,2,1,06,21,55,017,42,13,54,074,43,26,48,171,37,27,27,083,38,7*79
$GAGSV,2,2,06,19,25,238,,15,11,037,20,7*71
$GAGSV,1,1,04,21,55,017,44,13,54,074,43,26,48,171,41,27,27,083,38,1*79
$GBGSV,4,1,13,23,76,046,47,09,72,259,22,06,69,214,24,16,65,200,28,1*76
$GBGSV,4,2,13,28,60,226,25,07,60,311,39,40,59,331,39,39,55,189,37,1*7A
$GBGSV,4,3,13,43,54,035,45,10,50,292,30,25,34,122,46,37,33,323,33,1*79
$GBGSV,4,4,13,34,08,040,,1*4F
$GBGSV,2,1,07,23,76,046,47,28,60,226,18,40,59,331,41,39,55,189,12,4*70
$GBGSV,2,2,07,43,54,035,40,25,34,122,43,37,33,323,32,4*41
$GNACCURACY,2.9*1D
$PAIRSAT,1,35,2,0,201,3,0,200,4,0,221,5,0,200,6,0,200,7,0,201,8,0,221,9,0,220,10,0,200,11,0,200,12,0,200,13,0,200,14,0,200,15,0,200,16,0,201,17,0,200,18,0,200,19,0,200,20,0,200,21,0,201,22,0,200,23,0,200,24,0,200,25,0,200,26,0,220,27,0,221,28,0,200,29,0,200,30,0,221,31,0,200,32,0,200,194,0,621,195,0,621,196,0,620,199,0,621*5A
$PAIRSAT,2,24,65,0,200,66,0,200,67,0,200,68,0,200,69,0,200,70,0,200,71,0,200,72,0,200,73,0,200,74,0,200,75,0,200,76,0,200,77,0,201,78,0,201,79,0,201,80,0,200,81,0,201,82,0,201,83,0,200,84,0,200,85,0,200,86,0,200,87,0,200,88,0,201*7A
$PAIRSAT,3,23,2,0,1200,3,0,1200,4,0,1200,5,0,200,7,0,1200,8,0,1200,9,0,1200,10,0,1200,11,0,1200,12,0,1200,13,0,1221,15,0,1220,19,0,1201,21,0,1221,24,0,1200,25,0,1200,26,0,1221,27,0,1221,30,0,1200,31,0,1200,33,0,1200,34,0,1200,36,0,1200*69
$PAIRSAT,4,46,1,0,200,2,0,200,3,0,600,4,0,200,5,0,200,6,0,201,7,0,201,8,0,200,9,0,201,10,0,201,11,0,200,12,0,200,13,0,200,14,0,200,16,0,201,19,0,600,20,0,600,21,0,600,22,0,600,23,0,621,24,0,600,25,0,621,26,0,600,27,0,600,28,0,621,29,0,600,30,0,600,32,0,600,33,0,600,34,0,621,35,0,600,36,0,600,37,0,621,38,0,600,39,0,621,40,0,621,41,0,600,42,0,600,43,0,621,44,0,600,45,0,600,46,0,600,59,0,400,60,0,400,61,0,400,62,0,400*48
$PAIRDGP,10,2,4,7,8,9,16,21,26,27,30*42
$GNGGA,041905.200,2500.8019249,N,12132.4335073,E,2,51,0.51,15.274,M,15.25,M,1,3335*45
$GNRMC,041905.200,A,2500.8019249,N,12132.4335073,E,0.00,312.77,090324,,,D,V*06
$GPHDT,,T*1B
$GNACCURACY,2.6*12
$GNGGA,041905.300,2500.8019309,N,12132.4335073,E,2,51,0.51,15.269,M,15.25,M,1,3335*4D
$GNRMC,041905.300,A,2500.8019309,N,12132.4335073,E,0.00,312.77,090324,,,D,V*02
$GPHDT,,T*1B
$GNACCURACY,2.6*12
$GNGGA,041905.400,2500.8019369,N,12132.4335133,E,2,51,0.51,15.266,M,15.25,M,1,3335*46
$GNRMC,041905.400,A,2500.8019369,N,12132.4335133,E,0.00,312.77,090324,,,D,V*06
$GPHDT,,T*1B
$GNACCURACY,2.6*12
$GNGGA,041905.500,2500.8019429,N,12132.4335133,E,2,51,0.51,15.263,M,15.25,M,1,3335*41
$GNRMC,041905.500,A,2500.8019429,N,12132.4335133,E,0.00,312.77,090324,,,D,V*04
$GPHDT,,T*1B
$GNACCURACY,2.6*12
$GNGGA,041905.600,2500.8019489,N,12132.4335193,E,2,50,0.53,15.257,M,15.25,M,0,3335*47
$GNRMC,041905.600,A,2500.8019489,N,12132.4335193,E,0.00,312.77,090324,,,D,V*07
$GPHDT,,T*1B
$GNACCURACY,2.6*12
$GNGGA,041905.700,2500.8019549,N,12132.4335193,E,2,50,0.53,15.253,M,15.25,M,0,3335*4F
$GNRMC,041905.700,A,2500.8019549,N,12132.4335193,E,0.00,312.77,090324,,,D,V*0B
$GPHDT,,T*1B
$GNACCURACY,2.6*12
$GNGGA,041905.800,2500.8019609,N,12132.4335253,E,2,50,0.53,15.248,M,15.25,M,0,3335*42
$GNRMC,041905.800,A,2500.8019609,N,12132.4335253,E,0.00,312.77,090324,,,D,V*0C
$GPHDT,,T*1B
$GNACCURACY,2.6*12
$GNGGA,041905.900,2500.8019669,N,12132.4335253,E,2,50,0.53,15.242,M,15.25,M,0,3335*4F
$GNRMC,041905.900,A,2500.8019669,N,12132.4335253,E,0.00,312.77,090324,,,D,V*0B
$GPHDT,,T*1B
$GNACCURACY,2.6*12
$GNGGA,041906.000,2500.8019729,N,12132.4335253,E,2,51,0.51,15.238,M,15.25,M,1,3335*4F
$GNRMC,041906.000,A,2500.8019729,N,12132.4335253,E,0.00,312.77,090324,,,D,V*04
$GPHDT,,T*1B
$GNACCURACY,2.6*12
$GNGGA,041906.100,2500.8019789,N,12132.4335313,E,2,50,0.53,15.232,M,15.25,M,1,3335*48
$GNRMC,041906.100,A,2500.8019789,N,12132.4335313,E,0.00,312.77,090324,,,D,V*0A
$GPHDT,,T*1B
