$FW : RTK35X,V1.1X0314AS,Lib20210517,1*54
$Tool : LOCOSYS , GNSS Firebird , v1.0.0.19*39
$---------------------------------------------------*2D
$GNACCURACY,2.7*13
$GNGGA,041929.800,2500.8023809,N,12132.4323313,E,2,55,0.49,10.798,M,15.25,M,0,3335*4A
$GNRMC,041929.800,A,2500.8023809,N,12132.4323313,E,0.00,312.77,090324,,,D,V*07
$GPHDT,,T*1B
$GNACCURACY,2.7*13
$GNGGA,041929.900,2500.8023749,N,12132.4323193,E,2,55,0.49,10.775,M,15.25,M,0,3335*49
$GNRMC,041929.900,A,2500.8023749,N,12132.4323193,E,0.00,312.77,090324,,,D,V*07
$GPHDT,,T*1B
$GNACCURACY,2.7*13
$GNGGA,041930.000,2500.8023689,N,12132.4323073,E,2,55,0.49,10.753,M,15.25,M,1,3335*4F
$GNRMC,041930.000,A,2500.8023689,N,12132.4323073,E,0.00,312.77,090324,,,D,V*04
$GPHDT,,T*1B
$GNACCURACY,2.7*13
$GNGGA,041930.100,2500.8023629,N,12132.4322953,E,2,54,0.49,10.730,M,15.25,M,1,3335*4A
$GNRMC,041930.100,A,2500.8023629,N,12132.4322953,E,0.00,312.77,090324,,,D,V*05
$GPHDT,,T*1B
$GNGSA,A,3,195,21,194,08,02,07,27,16,09,196,30,04,0.85,0.49,0.70,1*3B
$GNGSA,A,3,199,,,,,,,,,,,,0.85,0.49,0.70,1*37
$GNGSA,A,3,81,78,88,79,77,82,,,,,,,0.85,0.49,0.70,2*07
$GNGSA,A,3,21,13,26,27,15,,,,,,,,0.85,0.49,0.70,3*00
$GNGSA,A,3,23,09,06,16,07,28,40,39,43,10,37,25,0.85,0.49,0.70,4*0C
$GPGSV,4,1,15,195,66,111,46,21,65,149,39,194,64,054,42,199,60,167,24,1*55
$GPGSV,4,2,15,50,60,167,27,08,59,002,40,02,53,175,40,07,45,314,27,1*64
$GPGSV,4,3,15,27,29,038,29,16,25,080,34,09,21,242,16,196,19,168,20,1*54
$GPGSV,4,4,15,30,15,319,30,04,14,200,16,26,06,103,,1*5B
$GPGSV,2,1,08,195,66,111,43,194,64,054,42,199,60,167,41,08,59,002,34,8*57
$GPGSV,2,2,08,27,29,038,37,196,19,168,25,30,15,319,22,04,14,200,16,8*52
$GLGSV,2,1,06,81,71,208,35,78,58,048,39,88,50,028,38,79,30,337,39,1*7E
$GLGSV,2,2,06,77,21,116,27,82,20,207,15,1*77
$GAGSV,2,1,08,21,55,018,42,13,54,073,21,26,48,171,39,27,27,084,37,7*7D
$GAGSV,2,2,08,19,25,237,,04,12,295,,15,11,037,21,33,07,199,,7*7E
$GAGSV,1,1,04,21,55,018,40,13,54,073,32,26,48,171,40,27,27,084,34,1*79
$GBGSV,4,1,14,23,76,046,43,09,71,259,22,06,69,214,22,16,65,200,30,1*79
$GBGSV,4,2,14,07,60,311,38,28,60,227,18,40,59,331,41,39,55,189,37,1*7C
$GBGSV,4,3,14,43,54,035,35,10,50,292,30,37,34,323,33,25,34,122,39,1*76
$GBGSV,4,4,14,38,12,168,,34,08,040,21,1*7C
$GBGSV,2,1,06,23,76,046,47,28,60,227,13,40,59,331,42,39,55,189,30,4*78
$GBGSV,2,2,06,25,34,122,45,37,34,323,37,4*70
$GNACCURACY,2.7*13
$PAIRSAT,1,35,2,0,201,3,0,200,4,0,221,5,0,200,6,0,200,7,0,201,8,0,221,9,0,220,10,0,200,11,0,200,12,0,200,13,0,200,14,0,200,15,0,200,16,0,201,17,0,200,18,0,200,19,0,200,20,0,200,21,0,201,22,0,200,23,0,200,24,0,200,25,0,200,26,0,220,27,0,221,28,0,200,29,0,200,30,0,221,31,0,200,32,0,200,194,0,621,195,0,621,196,0,620,199,0,621*5A
$PAIRSAT,2,24,65,0,200,66,0,200,67,0,200,68,0,200,69,0,200,70,0,200,71,0,200,72,0,200,73,0,200,74,0,200,75,0,200,76,0,200,77,0,201,78,0,201,79,0,201,80,0,200,81,0,201,82,0,201,83,0,200,84,0,200,85,0,200,86,0,200,87,0,200,88,0,201*7A
$PAIRSAT,3,23,2,0,1200,3,0,1200,4,0,1200,5,0,200,7,0,1200,8,0,1200,9,0,1200,10,0,1200,11,0,1200,12,0,1200,13,0,1221,15,0,1220,19,0,1201,21,0,1221,24,0,1200,25,0,1200,26,0,1221,27,0,1221,30,0,1200,31,0,1200,33,0,1200,34,0,1200,36,0,1200*69
$PAIRSAT,4,46,1,0,200,2,0,200,3,0,600,4,0,200,5,0,200,6,0,201,7,0,201,8,0,200,9,0,201,10,0,201,11,0,200,12,0,200,13,0,200,14,0,200,16,0,201,19,0,600,20,0,600,21,0,600,22,0,600,23,0,621,24,0,600,25,0,621,26,0,600,27,0,600,28,0,621,29,0,600,30,0,600,32,0,600,33,0,600,34,0,621,35,0,600,36,0,600,37,0,621,38,0,600,39,0,621,40,0,621,41,0,600,42,0,600,43,0,621,44,0,600,45,0,600,46,0,600,59,0,400,60,0,400,61,0,400,62,0,400*48
$PAIRDGP,10,2,4,7,8,9,16,21,26,27,30*42
$GNGGA,041930.200,2500.8023569,N,12132.4322833,E,2,53,0.49,10.706,M,15.25,M,1,3335*4B
$GNRMC,041930.200,A,2500.8023569,N,12132.4322833,E,0.00,312.77,090324,,,D,V*06
$GPHDT,,T*1B
$GNACCURACY,2.7*13
$GNGGA,041930.300,2500.8023569,N,12132.4322653,E,2,54,0.49,10.681,M,15.25,M,1,3335*4B
$GNRMC,041930.300,A,2500.8023569,N,12132.4322653,E,0.00,312.77,090324,,,D,V*0F
$GPHDT,,T*1B
$GNACCURACY,2.7*13
$GNGGA,041930.400,2500.8023509,N,12132.4322533,E,2,54,0.49,10.657,M,15.25,M,1,3335*44
$GNRMC,041930.400,A,2500.8023509,N,12132.4322533,E,0.00,312.77,090324,,,D,V*0B
$GPHDT,,T*1B
$GNACCURACY,2.7*13
$GNGGA,041930.500,2500.8023449,N,12132.4322353,E,2,54,0.49,10.634,M,15.25,M,0,3335*44
$GNRMC,041930.500,A,2500.8023449,N,12132.4322353,E,0.00,312.77,090324,,,D,V*0F
$GPHDT,,T*1B
$GNACCURACY,2.7*13
$GNGGA,041930.600,2500.8023389,N,12132.4322233,E,2,54,0.49,10.611,M,15.25,M,0,3335*4C
$GNRMC,041930.600,A,2500.8023389,N,12132.4322233,E,0.00,312.77,090324,,,D,V*00
$GPHDT,,T*1B
$GNACCURACY,2.7*13
$GNGGA,041930.700,2500.8023269,N,12132.4322053,E,2,54,0.49,10.592,M,15.25,M,0,3335*4E
$GNRMC,041930.700,A,2500.8023269,N,12132.4322053,E,0.00,312.77,090324,,,D,V*0A
$GPHDT,,T*1B
$GNACCURACY,2.7*13
$GNGGA,041930.800,2500.8023089,N,12132.4321813,E,2,54,0.49,10.567,M,15.25,M,0,3335*48
$GNRMC,041930.800,A,2500.8023089,N,12132.4321813,E,0.00,312.77,090324,,,D,V*06
$GPHDT,,T*1B
$GNACCURACY,2.7*13
$GNGGA,041930.900,2500.8022969,N,12132.4321573,E,2,54,0.49,10.547,M,15.25,M,0,3335*46
$GNRMC,041930.900,A,2500.8022969,N,12132.4321573,E,0.00,312.77,090324,,,D,V*0A
$GPHDT,,T*1B
$GNACCURACY,2.7*13
$GNGGA,041931.000,2500.8022789,N,12132.4321273,E,2,53,0.52,10.525,M,15.25,M,1,3335*41
$GNRMC,041931.000,A,2500.8022789,N,12132.4321273,E,0.00,312.77,090324,,,D,V*05
$GPHDT,,T*1B
$GNACCURACY,2.7*13
$GNGGA,041931.100,2500.8022669,N,12132.4321033,E,2,53,0.52,10.498,M,15.25,M,1,3335*4E
$GNRMC,041931.100,A,2500.8022669,N,12132.4321033,E,0.00,312.77,090324,,,D,V*0D
$GPHDT,,T*1B
$GNGSA,A,3,195,21,194,199,08,02,07,27,16,09,196,30,0.85,0.49,0.70,1*0E
$GNGSA,A,3,04,,,,,,,,,,,,0.85,0.49,0.70,1*02
$GNGSA,A,3,81,78,88,79,77,82,,,,,,,0.85,0.49,0.70,2*07
$GNGSA,A,3,21,13,26,27,15,,,,,,,,0.85,0.49,0.70,3*00
$GNGSA,A,3,23,09,06,16,07,28,40,39,43,10,25,37,0.85,0.49,0.70,4*0C
$GPGSV,4,1,15,195,66,111,46,21,65,149,39,194,64,054,39,199,60,167,25,1*58
$GPGSV,4,2,15,50,60,167,27,08,59,002,43,02,53,175,42,07,45,314,21,1*63
$GPGSV,4,3,15,27,29,038,32,16,25,080,37,09,21,242,16,196,19,168,20,1*5D
$GPGSV,4,4,15,30,15,319,28,04,14,200,16,26,06,103,,1*52
$GPGSV,2,1,08,195,66,111,43,194,64,054,42,199,60,167,41,08,59,002,39,8*5A
$GPGSV,2,2,08,27,29,038,38,196,19,168,27,30,15,319,25,04,14,200,16,8*58
$GLGSV,2,1,06,81,71,208,35,78,58,048,36,88,50,028,40,79,30,337,40,1*70
$GLGSV,2,2,06,77,21,116,29,82,20,207,14,1*78
$GAGSV,2,1,08,21,55,018,42,13,54,073,31,26,48,171,39,27,27,084,34,7*7F
$GAGSV,2,2,08,19,25,237,,04,12,295,,15,11,037,20,33,07,199,,7*7F
$GAGSV,1,1,04,21,55,018,43,13,54,073,31,26,48,171,42,27,27,084,31,1*7E
$GBGSV,4,1,13,23,76,047,44,09,71,259,21,06,69,214,23,16,65,200,30,1*7A
$GBGSV,4,2,13,07,60,311,38,28,60,227,16,40,59,331,39,39,55,189,38,1*75
$GBGSV,4,3,13,43,54,035,37,10,50,292,30,25,34,122,37,37,34,323,35,1*7B
$GBGSV,4,4,13,34,08,040,22,1*4F
$GBGSV,2,1,06,23,76,047,47,28,60,227,09,40,59,331,42,39,55,189,25,4*76
$GBGSV,2,2,06,25,34,122,44,37,34,323,36,4*70
$GNACCURACY,2.7*13
$PAIRSAT,1,35,2,0,201,3,0,200,4,0,221,5,0,200,6,0,200,7,0,201,8,0,221,9,0,220,10,0,200,11,0,200,12,0,200,13,0,200,14,0,200,15,0,200,16,0,201,17,0,200,18,0,200,19,0,200,20,0,200,21,0,201,22,0,200,23,0,200,24,0,200,25,0,200,26,0,220,27,0,221,28,0,200,29,0,200,30,0,221,31,0,200,32,0,200,194,0,621,195,0,621,196,0,620,199,0,621*5A
$PAIRSAT,2,24,65,0,200,66,0,200,67,0,200,68,0,200,69,0,200,70,0,200,71,0,200,72,0,200,73,0,200,74,0,200,75,0,200,76,0,200,77,0,201,78,0,201,79,0,201,80,0,200,81,0,201,82,0,201,83,0,200,84,0,200,85,0,200,86,0,200,87,0,200,88,0,201*7A
$PAIRSAT,3,23,2,0,1200,3,0,1200,4,0,1200,5,0,200,7,0,1200,8,0,1200,9,0,1200,10,0,1200,11,0,1200,12,0,1200,13,0,1221,15,0,1220,19,0,1201,21,0,1221,24,0,1200,25,0,1200,26,0,1221,27,0,1221,30,0,1200,31,0,1200,33,0,1200,34,0,1200,36,0,1200*69
$PAIRSAT,4,46,1,0,200,2,0,200,3,0,600,4,0,200,5,0,200,6,0,201,7,0,201,8,0,200,9,0,201,10,0,201,11,0,200,12,0,200,13,0,200,14,0,200,16,0,201,19,0,600,20,0,600,21,0,600,22,0,600,23,0,621,24,0,600,25,0,621,26,0,600,27,0,600,28,0,621,29,0,600,30,0,600,32,0,600,33,0,600,34,0,621,35,0,600,36,0,600,37,0,621,38,0,600,39,0,621,40,0,621,41,0,600,42,0,600,43,0,621,44,0,600,45,0,600,46,0,600,59,0,400,60,0,400,61,0,400,62,0,400*48
$PAIRDGP,10,2,4,7,8,9,16,21,26,27,30*42
$GNGGA,041931.200,2500.8022549,N,12132.4320793,E,2,54,0.49,10.470,M,15.25,M,1,3335*4B
$GNRMC,041931.200,A,2500.8022549,N,12132.4320793,E,0.00,312.77,090324,,,D,V*03
$GPHDT,,T*1B
$GNACCURACY,2.7*13
$GNGGA,041931.300,2500.8022489,N,12132.4320613,E,2,54,0.49,10.443,M,15.25,M,1,3335*4E
$GNRMC,041931.300,A,2500.8022489,N,12132.4320613,E,0.00,312.77,090324,,,D,V*06
$GPHDT,,T*1B
$GNACCURACY,2.7*13
$GNGGA,041931.400,2500.8022489,N,12132.4320493,E,2,54,0.49,10.416,M,15.25,M,0,3335*42
$GNRMC,041931.400,A,2500.8022489,N,12132.4320493,E,0.00,312.77,090324,,,D,V*0B
$GPHDT,,T*1B
$GNACCURACY,2.7*13
$GNGGA,041931.500,2500.8022429,N,12132.4320253,E,2,53,0.49,10.387,M,15.25,M,0,3335*4B
$GNRMC,041931.500,A,2500.8022429,N,12132.4320253,E,0.00,312.77,090324,,,D,V*0A
$GPHDT,,T*1B
$GNACCURACY,2.7*13
$GNGGA,041931.600,2500.8022429,N,12132.4320073,E,2,53,0.49,10.361,M,15.25,M,0,3335*40
$GNRMC,041931.600,A,2500.8022429,N,12132.4320073,E,0.00,312.77,090324,,,D,V*09
$GPHDT,,T*1B
$GNACCURACY,2.7*13
$GNGGA,041931.700,2500.8022309,N,12132.4319893,E,2,53,0.49,10.335,M,15.25,M,0,3335*49
$GNRMC,041931.700,A,2500.8022309,N,12132.4319893,E,0.00,312.77,090324,,,D,V*01
$GPHDT,,T*1B
$GNACCURACY,2.7*13
$GNGGA,041931.800,2500.8022309,N,12132.4319713,E,2,54,0.49,10.312,M,15.25,M,0,3335*43
$GNRMC,041931.800,A,2500.8022309,N,12132.4319713,E,0.00,312.77,090324,,,D,V*09
$GPHDT,,T*1B
$GNACCURACY,2.7*13
$GNGGA,041931.900,2500.8022249,N,12132.4319533,E,2,54,0.49,10.286,M,15.25,M,0,3335*4B
$GNRMC,041931.900,A,2500.8022249,N,12132.4319533,E,0.00,312.77,090324,,,D,V*0D
$GPHDT,,T*1B
$GNACCURACY,2.7*13
$GNGGA,041932.000,2500.8022189,N,12132.4319353,E,2,54,0.49,10.265,M,15.25,M,1,3335*42
$GNRMC,041932.000,A,2500.8022189,N,12132.4319353,E,0.00,312.77,090324,,,D,V*08
$GPHDT,,T*1B
$GNACCURACY,2.7*13
$GNGGA,041932.100,2500.8022189,N,12132.4319173,E,2,54,0.49,10.246,M,15.25,M,1,3335*42
$GNRMC,041932.100,A,2500.8022189,N,12132.4319173,E,0.00,312.77,090324,,,D,V*09
$GPHDT,,T*1B
$GNGSA,A,3,195,21,194,199,08,02,07,27,16,196,30,04,0.85,0.49,0.70,1*03
$GNGSA,A,3,09,,,,,,,,,,,,0.85,0.49,0.70,1*0F
$GNGSA,A,3,81,78,88,79,77,82,,,,,,,0.85,0.49,0.70,2*07
$GNGSA,A,3,21,13,26,27,15,,,,,,,,0.85,0.49,0.70,3*00
$GNGSA,A,3,23,09,06,16,07,28,40,39,43,10,25,37,0.85,0.49,0.70,4*0C
$GPGSV,4,1,15,195,66,111,46,21,65,149,39,194,64,054,42,199,60,167,25,1*54
$GPGSV,4,2,15,50,60,167,27,08,59,002,41,02,53,175,41,07,45,314,22,1*61
$GPGSV,4,3,15,27,29,038,38,16,25,080,36,09,21,242,15,196,19,168,22,1*57
$GPGSV,4,4,15,30,15,319,27,04,14,200,16,26,06,103,,1*5D
$GPGSV,3,1,09,195,66,111,45,194,64,054,42,199,60,167,41,08,59,002,43,8*51
$GPGSV,3,2,09,27,29,038,40,09,21,242,17,196,19,168,27,30,15,319,24,8*5A
$GPGSV,3,3,09,04,14,200,16,8*50
$GLGSV,2,1,07,81,71,208,35,78,58,048,38,88,50,028,43,79,30,337,40,1*7C
$GLGSV,2,2,07,77,21,116,28,82,20,207,15,69,02,276,,1*47
$GAGSV,2,1,08,21,55,018,43,13,54,073,30,26,48,171,39,27,27,084,22,7*78
$GAGSV,2,2,08,19,25,237,,04,12,295,,15,11,037,23,33,07,199,,7*7C
$GAGSV,1,1,04,21,55,018,46,13,54,073,32,26,48,171,42,27,27,084,22,1*7A
$GBGSV,4,1,13,23,76,047,46,09,71,259,21,06,69,214,22,16,65,200,31,1*78
$GBGSV,4,2,13,07,60,311,38,28,60,227,16,40,59,332,40,39,55,189,37,1*77
$GBGSV,4,3,13,43,54,035,42,10,50,292,29,25,34,122,39,37,34,323,36,1*7C
$GBGSV,4,4,13,34,08,040,24,1*49
$GBGSV,2,1,07,23,76,047,48,28,60,227,11,40,59,332,42,39,55,189,24,4*73
$GBGSV,2,2,07,25,34,122,45,37,34,323,36,34,08,040,20,4*49
$GNACCURACY,2.7*13
$PAIRSAT,1,35,2,0,201,3,0,200,4,0,221,5,0,200,6,0,200,7,0,201,8,0,221,9,0,220,10,0,200,11,0,200,12,0,200,13,0,200,14,0,200,15,0,200,16,0,201,17,0,200,18,0,200,19,0,200,20,0,200,21,0,201,22,0,200,23,0,200,24,0,200,25,0,200,26,0,220,27,0,221,28,0,200,29,0,200,30,0,221,31,0,200,32,0,200,194,0,621,195,0,621,196,0,620,199,0,621*5A
$PAIRSAT,2,24,65,0,200,66,0,200,67,0,200,68,0,200,69,0,200,70,0,200,71,0,200,72,0,200,73,0,200,74,0,200,75,0,200,76,0,200,77,0,201,78,0,201,79,0,201,80,0,200,81,0,201,82,0,201,83,0,200,84,0,200,85,0,200,86,0,200,87,0,200,88,0,201*7A
$PAIRSAT,3,23,2,0,1200,3,0,1200,4,0,1200,5,0,200,7,0,1200,8,0,1200,9,0,1200,10,0,1200,11,0,1200,12,0,1200,13,0,1221,15,0,1220,19,0,1201,21,0,1221,24,0,1200,25,0,1200,26,0,1221,27,0,1221,30,0,1200,31,0,1200,33,0,1200,34,0,1200,36,0,1200*69
$PAIRSAT,4,46,1,0,200,2,0,200,3,0,600,4,0,200,5,0,200,6,0,201,7,0,201,8,0,200,9,0,201,10,0,201,11,0,200,12,0,200,13,0,200,14,0,200,16,0,201,19,0,600,20,0,600,21,0,600,22,0,600,23,0,621,24,0,600,25,0,621,26,0,600,27,0,600,28,0,621,29,0,600,30,0,600,32,0,600,33,0,600,34,0,621,35,0,600,36,0,600,37,0,621,38,0,600,39,0,621,40,0,621,41,0,600,42,0,600,43,0,621,44,0,600,45,0,600,46,0,600,59,0,400,60,0,400,61,0,400,62,0,400*48
$PAIRDGP,10,2,4,7,8,9,16,21,26,27,30*42
$GNGGA,041932.200,2500.8022189,N,12132.4318993,E,2,53,0.49,10.230,M,15.25,M,1,3335*40
$GNRMC,041932.200,A,2500.8022189,N,12132.4318993,E,0.00,312.77,090324,,,D,V*0D
$GPHDT,,T*1B
$GNACCURACY,2.7*13
$GNGGA,041932.300,2500.8022189,N,12132.4318753,E,2,53,0.49,10.215,M,15.25,M,1,3335*44
$GNRMC,041932.300,A,2500.8022189,N,12132.4318753,E,0.00,312.77,090324,,,D,V*0E
$GPHDT,,T*1B
$GNACCURACY,2.7*13
$GNGGA,041932.400,2500.8022129,N,12132.4318453,E,2,54,0.49,10.203,M,15.25,M,1,3335*4A
$GNRMC,041932.400,A,2500.8022129,N,12132.4318453,E,0.00,312.77,090324,,,D,V*00
$GPHDT,,T*1B
$GNACCURACY,2.7*13
$GNGGA,041932.500,2500.8021949,N,12132.4318153,E,2,54,0.49,10.188,M,15.25,M,1,3335*43
$GNRMC,041932.500,A,2500.8021949,N,12132.4318153,E,0.01,312.77,090324,,,D,V*08
$GPHDT,,T*1B
$GNACCURACY,2.7*13
$GNGGA,041932.600,2500.8021829,N,12132.4317973,E,2,55,0.49,10.176,M,15.25,M,1,3335*42
$GNRMC,041932.600,A,2500.8021829,N,12132.4317973,E,0.01,312.77,090324,,,D,V*09
$GPHDT,,T*1B
$GNACCURACY,2.7*13
$GNGGA,041932.700,2500.8021709,N,12132.4317733,E,2,55,0.49,10.163,M,15.25,M,0,3335*41
$GNRMC,041932.700,A,2500.8021709,N,12132.4317733,E,0.01,312.77,090324,,,D,V*0F
$GPHDT,,T*1B
$GNACCURACY,2.7*13
$GNGGA,041932.800,2500.8021589,N,12132.4317493,E,2,55,0.49,10.149,M,15.25,M,0,3335*45
$GNRMC,041932.800,A,2500.8021589,N,12132.4317493,E,0.01,312.77,090324,,,D,V*03
$GPHDT,,T*1B
$GNACCURACY,2.7*13
$GNGGA,041932.900,2500.8021469,N,12132.4317253,E,2,55,0.49,10.137,M,15.25,M,0,3335*48
$GNRMC,041932.900,A,2500.8021469,N,12132.4317253,E,0.01,312.77,090324,,,D,V*07
$GPHDT,,T*1B
$GNACCURACY,2.7*13
$GNGGA,041933.000,2500.8021349,N,12132.4317013,E,2,55,0.49,10.125,M,15.25,M,1,3335*41
$GNRMC,041933.000,A,2500.8021349,N,12132.4317013,E,0.01,312.77,090324,,,D,V*0C
$GPHDT,,T*1B
$GNACCURACY,2.7*13
$GNGGA,041933.100,2500.8021229,N,12132.4316773,E,2,55,0.49,10.108,M,15.25,M,1,3335*48
$GNRMC,041933.100,A,2500.8021229,N,12132.4316773,E,0.01,312.77,090324,,,D,V*0A
$GPHDT,,T*1B
$GNGSA,A,3,195,21,194,199,08,02,07,27,16,196,30,04,0.85,0.49,0.70,1*03
$GNGSA,A,3,09,,,,,,,,,,,,0.85,0.49,0.70,1*0F
$GNGSA,A,3,81,78,88,79,77,82,,,,,,,0.85,0.49,0.70,2*07
$GNGSA,A,3,21,13,26,27,15,,,,,,,,0.85,0.49,0.70,3*00
$GNGSA,A,3,23,09,06,16,07,28,40,39,43,10,25,37,0.85,0.49,0.70,4*0C
$GPGSV,4,1,15,195,66,111,45,21,65,149,39,194,64,054,39,199,60,167,23,1*5D
$GPGSV,4,2,15,50,60,167,27,08,59,002,43,02,53,175,43,07,45,314,20,1*63
$GPGSV,4,3,15,27,29,038,34,16,25,080,36,09,21,242,16,196,19,168,22,1*58
$GPGSV,4,4,15,30,15,319,30,04,14,200,16,26,06,103,,1*5B
$GPGSV,3,1,09,195,66,111,44,194,64,054,40,199,60,167,41,08,59,002,41,8*50
$GPGSV,3,2,09,27,29,038,39,09,21,242,17,196,19,168,25,30,15,319,24,8*56
$GPGSV,3,3,09,04,14,200,14,8*52
$GLGSV,2,1,06,81,71,208,35,78,58,048,35,88,50,028,40,79,30,337,39,1*7D
$GLGSV,2,2,06,77,21,116,28,82,20,207,15,1*78
$GAGSV,2,1,08,21,55,018,43,13,54,073,29,26,48,171,38,27,27,084,30,7*72
$GAGSV,2,2,08,19,25,237,,04,12,295,,15,11,037,23,33,07,199,,7*7C
$GAGSV,2,1,05,21,55,018,43,13,54,073,36,26,48,171,42,27,27,084,25,1*7E
$GAGSV,2,2,05,15,11,037,17,1*46
$GBGSV,4,1,13,23,76,047,43,09,71,259,20,06,69,214,22,16,65,200,31,1*7C
$GBGSV,4,2,13,07,60,311,38,28,60,227,16,40,59,332,40,39,55,189,37,1*77
$GBGSV,4,3,13,43,54,035,41,10,50,292,30,25,34,122,32,37,34,323,37,1*7D
$GBGSV,4,4,13,34,08,040,22,1*4F
$GBGSV,2,1,06,23,76,047,46,40,59,332,42,39,55,189,26,25,34,122,44,4*74
$GBGSV,2,2,06,37,34,323,37,34,08,040,18,4*72
$GNACCURACY,2.7*13
$PAIRSAT,1,35,2,0,201,3,0,200,4,0,221,5,0,200,6,0,200,7,0,201,8,0,221,9,0,220,10,0,200,11,0,200,12,0,200,13,0,200,14,0,200,15,0,200,16,0,201,17,0,200,18,0,200,19,0,200,20,0,200,21,0,201,22,0,200,23,0,200,24,0,200,25,0,200,26,0,220,27,0,221,28,0,200,29,0,200,30,0,221,31,0,200,32,0,200,194,0,621,195,0,621,196,0,620,199,0,621*5A
$PAIRSAT,2,24,65,0,200,66,0,200,67,0,200,68,0,200,69,0,200,70,0,200,71,0,200,72,0,200,73,0,200,74,0,200,75,0,200,76,0,200,77,0,201,78,0,201,79,0,201,80,0,200,81,0,201,82,0,201,83,0,200,84,0,200,85,0,200,86,0,200,87,0,200,88,0,201*7A
$PAIRSAT,3,23,2,0,1200,3,0,1200,4,0,1200,5,0,200,7,0,1200,8,0,1200,9,0,1200,10,0,1200,11,0,1200,12,0,1200,13,0,1221,15,0,1220,19,0,1201,21,0,1221,24,0,1200,25,0,1200,26,0,1221,27,0,1221,30,0,1200,31,0,1200,33,0,1200,34,0,1200,36,0,1200*69
$PAIRSAT,4,46,1,0,200,2,0,200,3,0,600,4,0,200,5,0,200,6,0,201,7,0,201,8,0,200,9,0,201,10,0,201,11,0,200,12,0,200,13,0,200,14,0,200,16,0,201,19,0,600,20,0,600,21,0,600,22,0,600,23,0,621,24,0,600,25,0,621,26,0,600,27,0,600,28,0,621,29,0,600,30,0,600,32,0,600,33,0,600,34,0,621,35,0,600,36,0,600,37,0,621,38,0,600,39,0,621,40,0,621,41,0,600,42,0,600,43,0,621,44,0,600,45,0,600,46,0,600,59,0,400,60,0,400,61,0,400,62,0,400*48
$PAIRDGP,10,2,4,7,8,9,16,21,26,27,30*42
$GNGGA,041933.200,2500.8021109,N,12132.4316593,E,2,54,0.49,10.099,M,15.25,M,1,3335*4E
$GNRMC,041933.200,A,2500.8021109,N,12132.4316593,E,0.01,312.77,090324,,,D,V*04
$GPHDT,,T*1B
$GNACCURACY,2.7*13
$GNGGA,041933.300,2500.8021049,N,12132.4316353,E,2,54,0.49,10.092,M,15.25,M,1,3335*4B
$GNRMC,041933.300,A,2500.8021049,N,12132.4316353,E,0.02,312.77,090324,,,D,V*09
$GPHDT,,T*1B
$GNACCURACY,2.7*13
$GNGGA,041933.400,2500.8020989,N,12132.4316173,E,2,54,0.49,10.073,M,15.25,M,1,3335*47
$GNRMC,041933.400,A,2500.8020989,N,12132.4316173,E,0.02,312.77,090324,,,D,V*0A
$GPHDT,,T*1B
$GNACCURACY,2.7*13
$GNGGA,041933.500,2500.8020929,N,12132.4316053,E,2,54,0.49,10.053,M,15.25,M,1,3335*4D
$GNRMC,041933.500,A,2500.8020929,N,12132.4316053,E,0.02,312.77,090324,,,D,V*02
$GPHDT,,T*1B
$GNACCURACY,2.7*13
$GNGGA,041933.600,2500.8020869,N,12132.4315873,E,2,54,0.49,10.031,M,15.25,M,0,3335*47
$GNRMC,041933.600,A,2500.8020869,N,12132.4315873,E,0.02,312.77,090324,,,D,V*0D
$GPHDT,,T*1B
$GNACCURACY,2.7*13
$GNGGA,041933.700,2500.8020809,N,12132.4315753,E,2,54,0.49,10.015,M,15.25,M,0,3335*4B
$GNRMC,041933.700,A,2500.8020809,N,12132.4315753,E,0.02,312.77,090324,,,D,V*07
$GPHDT,,T*1B
$GNACCURACY,2.7*13
$GNGGA,041933.800,2500.8020749,N,12132.4315633,E,2,54,0.49,9.997,M,15.25,M,0,3335*73
$GNRMC,041933.800,A,2500.8020749,N,12132.4315633,E,0.02,312.77,090324,,,D,V*04
$GPHDT,,T*1B
$GNACCURACY,2.7*13
$GNGGA,041933.900,2500.8020749,N,12132.4315513,E,2,54,0.49,9.980,M,15.25,M,0,3335*75
$GNRMC,041933.900,A,2500.8020749,N,12132.4315513,E,0.02,312.77,090324,,,D,V*04
$GPHDT,,T*1B
$GNACCURACY,2.7*13
$GNGGA,041934.000,2500.8020689,N,12132.4315393,E,2,54,0.49,9.965,M,15.25,M,1,3335*72
$GNRMC,041934.000,A,2500.8020689,N,12132.4315393,E,0.02,312.77,090324,,,D,V*09
$GPHDT,,T*1B
$GNACCURACY,2.7*13
$GNGGA,041934.100,2500.8020689,N,12132.4315153,E,2,54,0.49,9.948,M,15.25,M,1,3335*72
$GNRMC,041934.100,A,2500.8020689,N,12132.4315153,E,0.02,312.77,090324,,,D,V*06
$GPHDT,,T*1B
$GNGSA,A,3,195,21,194,199,08,02,07,27,16,196,30,04,0.85,0.49,0.70,1*03
$GNGSA,A,3,09,,,,,,,,,,,,0.85,0.49,0.70,1*0F
$GNGSA,A,3,81,78,88,79,77,82,,,,,,,0.85,0.49,0.70,2*07
$GNGSA,A,3,21,13,26,27,15,,,,,,,,0.85,0.49,0.70,3*00
$GNGSA,A,3,23,09,06,16,07,28,40,39,43,10,25,37,0.85,0.49,0.70,4*0C
$GPGSV,4,1,15,195,66,111,47,21,65,149,39,194,64,054,43,199,60,167,24,1*55
$GPGSV,4,2,15,50,60,167,27,08,59,002,40,02,53,175,41,07,45,314,21,1*63
$GPGSV,4,3,15,27,29,038,38,16,25,080,33,09,21,242,15,196,19,168,21,1*51
$GPGSV,4,4,15,30,15,319,29,04,14,200,16,26,06,103,,1*53
$GPGSV,3,1,09,195,66,111,45,194,64,054,43,199,60,167,41,08,59,002,43,8*50
$GPGSV,3,2,09,27,29,038,42,09,21,242,17,196,19,168,25,30,15,319,24,8*5A
$GPGSV,3,3,09,04,14,200,15,8*53
$GLGSV,2,1,06,81,71,208,35,78,58,048,39,88,50,028,42,79,30,337,40,1*7D
$GLGSV,2,2,06,77,21,116,28,82,20,207,15,1*78
$GAGSV,2,1,08,21,55,018,43,13,54,073,34,26,48,171,39,27,27,084,24,7*7A
$GAGSV,2,2,08,19,25,237,,04,12,295,,15,11,037,24,33,07,199,,7*7B
$GAGSV,2,1,05,21,55,018,46,13,54,073,33,26,48,171,42,27,27,084,24,1*7F
$GAGSV,2,2,05,15,11,037,19,1*48
$GBGSV,4,1,13,23,76,047,46,09,71,259,21,06,69,214,22,16,65,200,31,1*78
$GBGSV,4,2,13,07,60,311,38,28,60,227,16,40,59,332,41,39,55,189,37,1*76
$GBGSV,4,3,13,43,54,035,44,10,50,292,30,25,34,122,35,37,34,323,36,1*7E
$GBGSV,4,4,13,34,08,040,24,1*49
$GBGSV,2,1,07,23,76,047,49,40,59,332,42,39,55,189,23,43,54,035,40,4*7A
$GBGSV,2,2,07,25,34,122,46,37,34,323,36,34,08,040,19,4*40
$GNACCURACY,2.7*13
$PAIRSAT,1,35,2,0,201,3,0,200,4,0,221,5,0,200,6,0,200,7,0,201,8,0,221,9,0,220,10,0,200,11,0,200,12,0,200,13,0,200,14,0,200,15,0,200,16,0,201,17,0,200,18,0,200,19,0,200,20,0,200,21,0,201,22,0,200,23,0,200,24,0,200,25,0,200,26,0,220,27,0,221,28,0,200,29,0,200,30,0,221,31,0,200,32,0,200,194,0,621,195,0,621,196,0,620,199,0,621*5A
$PAIRSAT,2,24,65,0,200,66,0,200,67,0,200,68,0,200,69,0,200,70,0,200,71,0,200,72,0,200,73,0,200,74,0,200,75,0,200,76,0,200,77,0,201,78,0,201,79,0,201,80,0,200,81,0,201,82,0,201,83,0,200,84,0,200,85,0,200,86,0,200,87,0,200,88,0,201*7A
$PAIRSAT,3,23,2,0,1200,3,0,1200,4,0,1200,5,0,200,7,0,1200,8,0,1200,9,0,1200,10,0,1200,11,0,1200,12,0,1200,13,0,1221,15,0,1220,19,0,1201,21,0,1221,24,0,1200,25,0,1200,26,0,1221,27,0,1221,30,0,1200,31,0,1200,33,0,1200,34,0,1200,36,0,1200*69
$PAIRSAT,4,46,1,0,200,2,0,200,3,0,600,4,0,200,5,0,200,6,0,201,7,0,201,8,0,200,9,0,201,10,0,201,11,0,200,12,0,200,13,0,200,14,0,200,16,0,201,19,0,600,20,0,600,21,0,600,22,0,600,23,0,621,24,0,600,25,0,621,26,0,600,27,0,600,28,0,621,29,0,600,30,0,600,32,0,600,33,0,600,34,0,621,35,0,600,36,0,600,37,0,621,38,0,600,39,0,621,40,0,621,41,0,600,42,0,600,43,0,621,44,0,600,45,0,600,46,0,600,59,0,400,60,0,400,61,0,400,62,0,400*48
$PAIRDGP,10,2,4,7,8,9,16,21,26,27,30*42
$GNGGA,041934.200,2500.8020629,N,12132.4314913,E,2,54,0.49,9.939,M,15.25,M,1,3335*70
$GNRMC,041934.200,A,2500.8020629,N,12132.4314913,E,0.02,312.77,090324,,,D,V*02
$GPHDT,,T*1B
$GNACCURACY,2.7*13
$GNGGA,041934.300,2500.8020569,N,12132.4314613,E,2,54,0.49,9.933,M,15.25,M,1,3335*73
$GNRMC,041934.300,A,2500.8020569,N,12132.4314613,E,0.03,312.77,090324,,,D,V*0A
$GPHDT,,T*1B
$GNACCURACY,2.7*13
$GNGGA,041934.400,2500.8020509,N,12132.4314313,E,2,54,0.49,9.926,M,15.25,M,1,3335*73
$GNRMC,041934.400,A,2500.8020509,N,12132.4314313,E,0.03,312.77,090324,,,D,V*0E
$GPHDT,,T*1B
$GNACCURACY,2.7*13
$GNGGA,041934.500,2500.8020449,N,12132.4313953,E,2,54,0.49,9.912,M,15.25,M,0,3335*78
$GNRMC,041934.500,A,2500.8020449,N,12132.4313953,E,0.03,312.77,090324,,,D,V*03
$GPHDT,,T*1B
$GNACCURACY,2.7*13
$GNGGA,041934.600,2500.8020329,N,12132.4313653,E,2,54,0.49,9.901,M,15.25,M,0,3335*77
$GNRMC,041934.600,A,2500.8020329,N,12132.4313653,E,0.03,312.77,090324,,,D,V*0E
$GPHDT,,T*1B
$GNACCURACY,2.7*13
$GNGGA,041934.700,2500.8020209,N,12132.4313353,E,2,54,0.49,9.894,M,15.25,M,0,3335*7D
$GNRMC,041934.700,A,2500.8020209,N,12132.4313353,E,0.03,312.77,090324,,,D,V*09
$GPHDT,,T*1B
$GNACCURACY,2.7*13
$GNGGA,041934.800,2500.8020149,N,12132.4313053,E,2,54,0.49,9.887,M,15.25,M,0,3335*74
$GNRMC,041934.800,A,2500.8020149,N,12132.4313053,E,0.04,312.77,090324,,,D,V*05
$GPHDT,,T*1B
