$FW : RTK35X,V1.1X0314AS,Lib20210517,1*54
$Tool : LOCOSYS , GNSS Firebird , v1.0.0.19*39
$---------------------------------------------------*2D
$GNACCURACY,3.6*13
$GNGGA,041850.100,2500.8012229,N,12132.4322173,E,2,47,0.54,17.515,M,15.25,M,1,3335*4D
$GNRMC,041850.100,A,2500.8012229,N,12132.4322173,E,0.01,312.77,090324,,,D,V*0F
$GPHDT,,T*1B
$GNGSA,A,3,195,21,194,199,08,02,07,27,16,09,196,30,0.81,0.52,0.62,1*03
$GNGSA,A,3,04,,,,,,,,,,,,0.81,0.52,0.62,1*0F
$GNGSA,A,3,81,78,88,79,77,,,,,,,,0.81,0.52,0.62,2*00
$GNGSA,A,3,21,13,26,27,,,,,,,,,0.81,0.52,0.62,3*09
$GNGSA,A,3,23,06,16,07,28,40,39,43,10,25,37,,0.81,0.52,0.62,4*08
$GPGSV,4,1,15,195,66,111,46,21,65,150,39,194,64,054,42,199,60,167,22,1*5B
$GPGSV,4,2,15,50,60,167,26,08,59,002,44,02,53,175,43,07,45,314,31,1*65
$GPGSV,4,3,15,27,29,038,36,16,25,080,38,09,21,242,16,196,19,168,19,1*5C
$GPGSV,4,4,15,30,15,319,19,04,15,200,,26,06,103,,1*56
$GPGSV,2,1,07,195,66,111,47,194,64,054,43,199,60,167,39,08,59,002,46,8*57
$GPGSV,2,2,07,27,29,038,34,30,15,319,20,04,15,200,20,8*56
$GLGSV,2,1,06,81,70,207,32,78,58,047,42,88,50,029,40,79,30,337,36,1*75
$GLGSV,2,2,06,77,21,115,27,82,20,206,,1*71
$GAGSV,2,1,08,21,55,017,41,13,54,074,43,26,48,171,37,27,27,083,40,7*7B
$GAGSV,2,2,08,19,25,238,,04,12,296,,15,11,037,,33,07,199,,7*71
$GAGSV,1,1,04,21,55,017,44,13,54,074,41,26,48,171,37,27,27,083,33,1*71
$GBGSV,4,1,14,23,75,046,45,09,72,260,13,06,69,214,27,16,65,200,36,1*74
$GBGSV,4,2,14,07,60,311,34,28,59,226,19,40,59,331,40,39,55,189,37,1*7B
$GBGSV,4,3,14,43,54,035,44,10,50,292,19,25,34,121,46,37,33,323,31,1*75
$GBGSV,4,4,14,38,12,168,,34,08,040,,1*7F
$GBGSV,2,1,06,23,75,046,47,28,59,226,16,40,59,331,42,39,55,189,28,4*7C
$GBGSV,2,2,06,25,34,121,41,37,33,323,36,4*71
$GNACCURACY,3.6*13
$PAIRSAT,1,35,2,0,201,3,0,200,4,0,221,5,0,200,6,0,200,7,0,201,8,0,221,9,0,220,10,0,200,11,0,200,12,0,200,13,0,200,14,0,200,15,0,200,16,0,201,17,0,200,18,0,200,19,0,200,20,0,200,21,0,201,22,0,200,23,0,200,24,0,200,25,0,200,26,0,220,27,0,221,28,0,200,29,0,200,30,0,221,31,0,200,32,0,200,194,0,621,195,0,621,196,0,620,199,0,621*5A
$PAIRSAT,2,24,65,0,200,66,0,200,67,0,200,68,0,200,69,0,200,70,0,200,71,0,200,72,0,200,73,0,200,74,0,200,75,0,200,76,0,200,77,0,201,78,0,201,79,0,201,80,0,200,81,0,201,82,0,201,83,0,200,84,0,200,85,0,200,86,0,200,87,0,200,88,0,201*7A
$PAIRSAT,3,23,2,0,1200,3,0,1200,4,0,1200,5,0,200,7,0,1200,8,0,1200,9,0,1200,10,0,1200,11,0,1200,12,0,1200,13,0,1221,15,0,1220,19,0,1201,21,0,1221,24,0,1200,25,0,1200,26,0,1221,27,0,1221,30,0,1200,31,0,1200,33,0,1200,34,0,1200,36,0,1200*69
$PAIRSAT,4,46,1,0,200,2,0,200,3,0,600,4,0,200,5,0,200,6,0,201,7,0,201,8,0,200,9,0,201,10,0,201,11,0,200,12,0,200,13,0,200,14,0,200,16,0,201,19,0,600,20,0,600,21,0,600,22,0,600,23,0,621,24,0,600,25,0,621,26,0,600,27,0,600,28,0,621,29,0,600,30,0,600,32,0,600,33,0,600,34,0,621,35,0,600,36,0,600,37,0,621,38,0,600,39,0,621,40,0,621,41,0,600,42,0,600,43,0,621,44,0,600,45,0,600,46,0,600,59,0,400,60,0,400,61,0,400,62,0,400*48
$PAIRDGP,10,2,4,7,8,9,16,21,26,27,30*42
$GNGGA,041850.200,2500.8012229,N,12132.4322233,E,2,48,0.52,17.505,M,15.25,M,1,3335*41
$GNRMC,041850.200,A,2500.8012229,N,12132.4322233,E,0.01,312.77,090324,,,D,V*0B
$GPHDT,,T*1B
$GNACCURACY,3.6*13
$GNGGA,041850.300,2500.8012229,N,12132.4322353,E,2,47,0.55,17.495,M,15.25,M,1,3335*47
$GNRMC,041850.300,A,2500.8012229,N,12132.4322353,E,0.01,312.77,090324,,,D,V*0D
$GPHDT,,T*1B
$GNACCURACY,3.6*13
$GNGGA,041850.400,2500.8012229,N,12132.4322473,E,2,48,0.52,17.484,M,15.25,M,1,3335*4D
$GNRMC,041850.400,A,2500.8012229,N,12132.4322473,E,0.00,312.77,090324,,,D,V*0E
$GPHDT,,T*1B
$GNACCURACY,3.6*13
$GNGGA,041850.500,2500.8012169,N,12132.4322533,E,2,47,0.55,17.472,M,15.25,M,1,3335*4F
$GNRMC,041850.500,A,2500.8012169,N,12132.4322533,E,0.01,312.77,090324,,,D,V*0C
$GPHDT,,T*1B
$GNACCURACY,3.6*13
$GNGGA,041850.600,2500.8012169,N,12132.4322653,E,2,47,0.55,17.459,M,15.25,M,1,3335*40
$GNRMC,041850.600,A,2500.8012169,N,12132.4322653,E,0.01,312.77,090324,,,D,V*0A
$GPHDT,,T*1B
$GNACCURACY,3.6*13
$GNGGA,041850.700,2500.8012169,N,12132.4322773,E,2,48,0.52,17.447,M,15.25,M,0,3335*44
$GNRMC,041850.700,A,2500.8012169,N,12132.4322773,E,0.00,312.77,090324,,,D,V*09
$GPHDT,,T*1B
$GNACCURACY,3.6*13
$GNGGA,041850.800,2500.8012169,N,12132.4322893,E,2,47,0.55,17.433,M,15.25,M,0,3335*41
$GNRMC,041850.800,A,2500.8012169,N,12132.4322893,E,0.00,312.77,090324,,,D,V*07
$GPHDT,,T*1B
$GNACCURACY,3.6*13
$GNGGA,041850.900,2500.8012169,N,12132.4323013,E,2,47,0.55,17.419,M,15.25,M,0,3335*49
$GNRMC,041850.900,A,2500.8012169,N,12132.4323013,E,0.01,312.77,090324,,,D,V*06
$GPHDT,,T*1B
$GNACCURACY,3.6*13
$GNGGA,041851.000,2500.8012169,N,12132.4323133,E,2,46,0.57,17.404,M,15.25,M,1,3335*4C
$GNRMC,041851.000,A,2500.8012169,N,12132.4323133,E,0.01,312.77,090324,,,D,V*0D
$GPHDT,,T*1B
$GNACCURACY,3.6*13
$GNGGA,041851.100,2500.8012169,N,12132.4323253,E,2,47,0.55,17.390,M,15.25,M,1,3335*41
$GNRMC,041851.100,A,2500.8012169,N,12132.4323253,E,0.00,312.77,090324,,,D,V*08
$GPHDT,,T*1B
$GNGSA,A,3,195,21,194,199,08,02,07,27,16,196,30,04,0.83,0.54,0.63,1*0B
$GNGSA,A,3,81,78,88,79,77,,,,,,,,0.83,0.54,0.63,2*05
$GNGSA,A,3,21,13,26,27,,,,,,,,,0.83,0.54,0.63,3*0C
$GNGSA,A,3,23,09,06,16,07,28,40,39,43,10,25,37,0.83,0.54,0.63,4*04
$GPGSV,4,1,15,195,66,111,46,21,65,150,39,194,64,054,40,199,60,167,23,1*58
$GPGSV,4,2,15,50,60,167,26,08,59,002,44,02,53,175,43,07,45,314,31,1*65
$GPGSV,4,3,15,27,29,038,32,16,25,080,38,09,21,242,14,196,19,168,20,1*50
$GPGSV,4,4,15,30,15,319,18,04,15,200,,26,06,103,,1*57
$GPGSV,2,1,07,195,66,111,47,194,64,054,43,199,60,167,39,08,59,002,46,8*57
$GPGSV,2,2,07,27,29,038,34,30,15,319,25,04,15,200,19,8*59
$GLGSV,2,1,06,81,70,207,32,78,58,047,42,88,50,029,39,79,30,337,37,1*7A
$GLGSV,2,2,06,77,21,115,29,82,20,206,,1*7F
$GAGSV,2,1,08,21,55,017,41,13,54,074,43,26,48,171,37,27,27,083,40,7*7B
$GAGSV,2,2,08,19,25,238,,04,12,296,,15,11,037,,33,07,199,,7*71
$GAGSV,1,1,04,21,55,017,44,13,54,074,41,26,48,171,39,27,27,083,32,1*7E
$GBGSV,4,1,13,23,75,046,45,09,72,260,15,06,69,214,27,16,65,200,36,1*75
$GBGSV,4,2,13,07,60,311,33,28,59,226,19,40,59,331,40,39,55,189,37,1*7B
$GBGSV,4,3,13,43,54,035,44,10,50,292,19,25,34,121,46,37,33,323,32,1*71
$GBGSV,4,4,13,34,08,040,,1*4F
$GBGSV,2,1,06,23,75,046,48,28,59,226,16,40,59,331,42,39,55,189,28,4*73
$GBGSV,2,2,06,25,34,121,41,37,33,323,36,4*71
$GNACCURACY,3.6*13
$PAIRSAT,1,35,2,0,201,3,0,200,4,0,221,5,0,200,6,0,200,7,0,201,8,0,221,9,0,220,10,0,200,11,0,200,12,0,200,13,0,200,14,0,200,15,0,200,16,0,201,17,0,200,18,0,200,19,0,200,20,0,200,21,0,201,22,0,200,23,0,200,24,0,200,25,0,200,26,0,220,27,0,221,28,0,200,29,0,200,30,0,221,31,0,200,32,0,200,194,0,621,195,0,621,196,0,620,199,0,621*5A
$PAIRSAT,2,24,65,0,200,66,0,200,67,0,200,68,0,200,69,0,200,70,0,200,71,0,200,72,0,200,73,0,200,74,0,200,75,0,200,76,0,200,77,0,201,78,0,201,79,0,201,80,0,200,81,0,201,82,0,201,83,0,200,84,0,200,85,0,200,86,0,200,87,0,200,88,0,201*7A
$PAIRSAT,3,23,2,0,1200,3,0,1200,4,0,1200,5,0,200,7,0,1200,8,0,1200,9,0,1200,10,0,1200,11,0,1200,12,0,1200,13,0,1221,15,0,1220,19,0,1201,21,0,1221,24,0,1200,25,0,1200,26,0,1221,27,0,1221,30,0,1200,31,0,1200,33,0,1200,34,0,1200,36,0,1200*69
$PAIRSAT,4,46,1,0,200,2,0,200,3,0,600,4,0,200,5,0,200,6,0,201,7,0,201,8,0,200,9,0,201,10,0,201,11,0,200,12,0,200,13,0,200,14,0,200,16,0,201,19,0,600,20,0,600,21,0,600,22,0,600,23,0,621,24,0,600,25,0,621,26,0,600,27,0,600,28,0,621,29,0,600,30,0,600,32,0,600,33,0,600,34,0,621,35,0,600,36,0,600,37,0,621,38,0,600,39,0,621,40,0,621,41,0,600,42,0,600,43,0,621,44,0,600,45,0,600,46,0,600,59,0,400,60,0,400,61,0,400,62,0,400*48
$PAIRDGP,10,2,4,7,8,9,16,21,26,27,30*42
$GNGGA,041851.200,2500.8012109,N,12132.4323373,E,2,48,0.54,17.376,M,15.25,M,1,3335*41
$GNRMC,041851.200,A,2500.8012109,N,12132.4323373,E,0.01,312.77,090324,,,D,V*0F
$GPHDT,,T*1B
$GNACCURACY,3.6*13
$GNGGA,041851.300,2500.8012109,N,12132.4323553,E,2,47,0.55,17.360,M,15.25,M,1,3335*4D
$GNRMC,041851.300,A,2500.8012109,N,12132.4323553,E,0.01,312.77,090324,,,D,V*0A
$GPHDT,,T*1B
$GNACCURACY,3.6*13
$GNGGA,041851.400,2500.8012109,N,12132.4323613,E,2,48,0.54,17.344,M,15.25,M,1,3335*45
$GNRMC,041851.400,A,2500.8012109,N,12132.4323613,E,0.01,312.77,090324,,,D,V*0A
$GPHDT,,T*1B
$GNACCURACY,3.6*13
$GNGGA,041851.500,2500.8012109,N,12132.4323733,E,2,47,0.57,17.328,M,15.25,M,1,3335*41
$GNRMC,041851.500,A,2500.8012109,N,12132.4323733,E,0.01,312.77,090324,,,D,V*08
$GPHDT,,T*1B
$GNACCURACY,3.6*13
$GNGGA,041851.600,2500.8012169,N,12132.4323853,E,2,48,0.54,17.311,M,15.25,M,1,3335*4B
$GNRMC,041851.600,A,2500.8012169,N,12132.4323853,E,0.01,312.77,090324,,,D,V*04
$GPHDT,,T*1B
$GNACCURACY,3.6*13
$GNGGA,041851.700,2500.8012169,N,12132.4323973,E,2,47,0.55,17.294,M,15.25,M,0,3335*4A
$GNRMC,041851.700,A,2500.8012169,N,12132.4323973,E,0.01,312.77,090324,,,D,V*06
$GPHDT,,T*1B
$GNACCURACY,3.6*13
$GNGGA,041851.800,2500.8012169,N,12132.4324033,E,2,48,0.54,17.278,M,15.25,M,0,3335*43
$GNRMC,041851.800,A,2500.8012169,N,12132.4324033,E,0.01,312.77,090324,,,D,V*03
$GPHDT,,T*1B
$GNACCURACY,3.6*13
$GNGGA,041851.900,2500.8012169,N,12132.4324153,E,2,48,0.54,17.259,M,15.25,M,0,3335*46
$GNRMC,041851.900,A,2500.8012169,N,12132.4324153,E,0.01,312.77,090324,,,D,V*05
$GPHDT,,T*1B
$GNACCURACY,3.6*13
$GNGGA,041852.000,2500.8012109,N,12132.4324273,E,2,48,0.54,17.242,M,15.25,M,1,3335*40
$GNRMC,041852.000,A,2500.8012109,N,12132.4324273,E,0.01,312.77,090324,,,D,V*08
$GPHDT,,T*1B
$GNACCURACY,3.6*13
$GNGGA,041852.100,2500.8012169,N,12132.4324453,E,2,48,0.54,17.225,M,15.25,M,1,3335*42
$GNRMC,041852.100,A,2500.8012169,N,12132.4324453,E,0.02,312.77,090324,,,D,V*08
$GPHDT,,T*1B
$GNGSA,A,3,195,21,194,199,08,02,07,27,16,196,30,04,0.83,0.54,0.63,1*0B
$GNGSA,A,3,81,78,88,79,77,,,,,,,,0.83,0.54,0.63,2*05
$GNGSA,A,3,21,13,26,27,,,,,,,,,0.83,0.54,0.63,3*0C
$GNGSA,A,3,23,09,06,16,07,28,40,39,43,10,25,37,0.83,0.54,0.63,4*04
$GPGSV,4,1,15,195,66,111,46,21,65,150,39,194,64,054,39,199,60,167,24,1*51
$GPGSV,4,2,15,50,60,167,27,08,59,002,44,02,53,175,43,07,45,314,31,1*64
$GPGSV,4,3,15,27,29,038,34,16,25,080,38,09,21,242,13,196,19,168,21,1*50
$GPGSV,4,4,15,30,15,319,15,04,15,200,,26,06,103,,1*5A
$GPGSV,2,1,07,195,66,111,46,194,64,054,43,199,60,167,40,08,59,002,46,8*58
$GPGSV,2,2,07,27,29,038,34,30,15,319,26,04,15,200,18,8*5B
$GLGSV,2,1,06,81,70,207,31,78,58,047,42,88,50,029,39,79,30,337,37,1*79
$GLGSV,2,2,06,77,21,115,29,82,20,206,,1*7F
$GAGSV,2,1,08,21,55,017,41,13,54,074,43,26,48,171,36,27,27,083,40,7*7A
$GAGSV,2,2,08,19,25,238,,04,12,296,,15,11,037,,33,07,199,,7*71
$GAGSV,1,1,04,21,55,017,44,13,54,074,41,26,48,171,39,27,27,083,32,1*7E
$GBGSV,4,1,13,23,75,046,45,09,72,260,17,06,69,214,28,16,65,200,37,1*79
$GBGSV,4,2,13,07,60,311,33,28,59,226,20,40,59,331,41,39,55,189,38,1*7F
$GBGSV,4,3,13,43,54,035,44,10,50,292,18,25,34,121,46,37,33,323,33,1*71
$GBGSV,4,4,13,34,08,040,,1*4F
$GBGSV,2,1,07,23,75,046,48,28,59,226,15,40,59,331,42,39,55,189,28,4*71
$GBGSV,2,2,07,43,54,035,41,25,34,121,41,37,33,323,36,4*45
$GNACCURACY,3.6*13
$PAIRSAT,1,35,2,0,201,3,0,200,4,0,221,5,0,200,6,0,200,7,0,201,8,0,221,9,0,220,10,0,200,11,0,200,12,0,200,13,0,200,14,0,200,15,0,200,16,0,201,17,0,200,18,0,200,19,0,200,20,0,200,21,0,201,22,0,200,23,0,200,24,0,200,25,0,200,26,0,220,27,0,221,28,0,200,29,0,200,30,0,221,31,0,200,32,0,200,194,0,621,195,0,621,196,0,620,199,0,621*5A
$PAIRSAT,2,24,65,0,200,66,0,200,67,0,200,68,0,200,69,0,200,70,0,200,71,0,200,72,0,200,73,0,200,74,0,200,75,0,200,76,0,200,77,0,201,78,0,201,79,0,201,80,0,200,81,0,201,82,0,201,83,0,200,84,0,200,85,0,200,86,0,200,87,0,200,88,0,201*7A
$PAIRSAT,3,23,2,0,1200,3,0,1200,4,0,1200,5,0,200,7,0,1200,8,0,1200,9,0,1200,10,0,1200,11,0,1200,12,0,1200,13,0,1221,15,0,1220,19,0,1201,21,0,1221,24,0,1200,25,0,1200,26,0,1221,27,0,1221,30,0,1200,31,0,1200,33,0,1200,34,0,1200,36,0,1200*69
$PAIRSAT,4,46,1,0,200,2,0,200,3,0,600,4,0,200,5,0,200,6,0,201,7,0,201,8,0,200,9,0,201,10,0,201,11,0,200,12,0,200,13,0,200,14,0,200,16,0,201,19,0,600,20,0,600,21,0,600,22,0,600,23,0,621,24,0,600,25,0,621,26,0,600,27,0,600,28,0,621,29,0,600,30,0,600,32,0,600,33,0,600,34,0,621,35,0,600,36,0,600,37,0,621,38,0,600,39,0,621,40,0,621,41,0,600,42,0,600,43,0,621,44,0,600,45,0,600,46,0,600,59,0,400,60,0,400,61,0,400,62,0,400*48
$PAIRDGP,10,2,4,7,8,9,16,21,26,27,30*42
$GNGGA,041852.200,2500.8012169,N,12132.4324513,E,2,48,0.54,17.207,M,15.25,M,1,3335*44
$GNRMC,041852.200,A,2500.8012169,N,12132.4324513,E,0.02,312.77,090324,,,D,V*0E
$GPHDT,,T*1B
$GNACCURACY,3.6*13
$GNGGA,041852.300,2500.8012109,N,12132.4324633,E,2,48,0.54,17.188,M,15.25,M,1,3335*46
$GNRMC,041852.300,A,2500.8012109,N,12132.4324633,E,0.02,312.77,090324,,,D,V*08
$GPHDT,,T*1B
$GNACCURACY,3.6*13
$GNGGA,041852.400,2500.8012169,N,12132.4324753,E,2,48,0.54,17.168,M,15.25,M,1,3335*4E
$GNRMC,041852.400,A,2500.8012169,N,12132.4324753,E,0.02,312.77,090324,,,D,V*0E
$GPHDT,,T*1B
$GNACCURACY,3.6*13
$GNGGA,041852.500,2500.8012169,N,12132.4324873,E,2,47,0.57,17.150,M,15.25,M,1,3335*45
$GNRMC,041852.500,A,2500.8012169,N,12132.4324873,E,0.01,312.77,090324,,,D,V*01
$GPHDT,,T*1B
$GNACCURACY,3.6*13
$GNGGA,041852.600,2500.8012169,N,12132.4324993,E,2,47,0.57,17.131,M,15.25,M,0,3335*4F
$GNRMC,041852.600,A,2500.8012169,N,12132.4324993,E,0.02,312.77,090324,,,D,V*0E
$GPHDT,,T*1B
$GNACCURACY,3.6*13
$GNGGA,041852.700,2500.8012169,N,12132.4325113,E,2,48,0.54,17.112,M,15.25,M,0,3335*42
$GNRMC,041852.700,A,2500.8012169,N,12132.4325113,E,0.02,312.77,090324,,,D,V*0E
$GPHDT,,T*1B
$GNACCURACY,3.6*13
$GNGGA,041852.800,2500.8012169,N,12132.4325173,E,2,48,0.54,17.093,M,15.25,M,0,3335*43
$GNRMC,041852.800,A,2500.8012169,N,12132.4325173,E,0.02,312.77,090324,,,D,V*07
$GPHDT,,T*1B
$GNACCURACY,3.6*13
$GNGGA,041852.900,2500.8012169,N,12132.4325293,E,2,47,0.57,17.072,M,15.25,M,0,3335*4C
$GNRMC,041852.900,A,2500.8012169,N,12132.4325293,E,0.02,312.77,090324,,,D,V*0B
$GPHDT,,T*1B
$GNACCURACY,3.6*13
$GNGGA,041853.000,2500.8012169,N,12132.4325353,E,2,47,0.57,17.053,M,15.25,M,1,3335*4B
$GNRMC,041853.000,A,2500.8012169,N,12132.4325353,E,0.02,312.77,090324,,,D,V*0E
$GPHDT,,T*1B
$GNACCURACY,3.6*13
$GNGGA,041853.100,2500.8012169,N,12132.4325473,E,2,47,0.57,17.034,M,15.25,M,1,3335*4E
$GNRMC,041853.100,A,2500.8012169,N,12132.4325473,E,0.02,312.77,090324,,,D,V*0A
$GPHDT,,T*1B
$GNGSA,A,3,195,21,194,199,08,02,07,27,16,196,30,04,0.83,0.54,0.63,1*0B
$GNGSA,A,3,81,78,88,79,77,,,,,,,,0.83,0.54,0.63,2*05
$GNGSA,A,3,21,13,26,27,,,,,,,,,0.83,0.54,0.63,3*0C
$GNGSA,A,3,23,09,06,16,07,28,40,39,43,10,25,37,0.83,0.54,0.63,4*04
$GPGSV,4,1,15,195,66,111,46,21,65,150,39,194,64,054,38,199,60,167,24,1*50
$GPGSV,4,2,15,50,60,167,27,08,59,002,44,02,53,175,43,07,45,314,31,1*64
$GPGSV,4,3,15,27,29,038,34,16,25,080,37,09,21,242,13,196,19,168,19,1*54
$GPGSV,4,4,15,30,15,319,17,04,15,200,,26,06,103,,1*58
$GPGSV,2,1,07,195,66,111,46,194,64,054,43,199,60,167,40,08,59,002,46,8*58
$GPGSV,2,2,07,27,29,038,33,30,15,319,25,04,15,200,18,8*5F
$GLGSV,2,1,06,81,70,207,31,78,58,047,41,88,50,029,39,79,30,337,37,1*7A
$GLGSV,2,2,06,77,21,115,29,82,20,206,,1*7F
$GAGSV,2,1,08,21,55,017,41,13,54,074,43,26,48,171,36,27,27,083,40,7*7A
$GAGSV,2,2,08,19,25,238,,04,12,296,,15,11,037,,33,07,199,,7*71
$GAGSV,1,1,04,21,55,017,44,13,54,074,41,26,48,171,39,27,27,083,33,1*7F
$GBGSV,4,1,13,23,75,046,46,09,72,260,17,06,69,214,29,16,65,200,37,1*7B
$GBGSV,4,2,13,07,60,311,33,28,59,226,19,40,59,331,41,39,55,189,38,1*75
$GBGSV,4,3,13,43,54,035,44,10,50,292,17,25,34,121,46,37,33,323,32,1*7F
$GBGSV,4,4,13,34,08,040,,1*4F
$GBGSV,2,1,06,23,75,046,48,28,59,226,12,40,59,331,42,39,55,189,28,4*77
$GBGSV,2,2,06,25,34,121,41,37,33,323,36,4*71
$GNACCURACY,3.6*13
$PAIRSAT,1,35,2,0,201,3,0,200,4,0,221,5,0,200,6,0,200,7,0,201,8,0,221,9,0,220,10,0,200,11,0,200,12,0,200,13,0,200,14,0,200,15,0,200,16,0,201,17,0,200,18,0,200,19,0,200,20,0,200,21,0,201,22,0,200,23,0,200,24,0,200,25,0,200,26,0,220,27,0,221,28,0,200,29,0,200,30,0,221,31,0,200,32,0,200,194,0,621,195,0,621,196,0,620,199,0,621*5A
$PAIRSAT,2,24,65,0,200,66,0,200,67,0,200,68,0,200,69,0,200,70,0,200,71,0,200,72,0,200,73,0,200,74,0,200,75,0,200,76,0,200,77,0,201,78,0,201,79,0,201,80,0,200,81,0,201,82,0,201,83,0,200,84,0,200,85,0,200,86,0,200,87,0,200,88,0,201*7A
$PAIRSAT,3,23,2,0,1200,3,0,1200,4,0,1200,5,0,200,7,0,1200,8,0,1200,9,0,1200,10,0,1200,11,0,1200,12,0,1200,13,0,1221,15,0,1220,19,0,1201,21,0,1221,24,0,1200,25,0,1200,26,0,1221,27,0,1221,30,0,1200,31,0,1200,33,0,1200,34,0,1200,36,0,1200*69
$PAIRSAT,4,46,1,0,200,2,0,200,3,0,600,4,0,200,5,0,200,6,0,201,7,0,201,8,0,200,9,0,201,10,0,201,11,0,200,12,0,200,13,0,200,14,0,200,16,0,201,19,0,600,20,0,600,21,0,600,22,0,600,23,0,621,24,0,600,25,0,621,26,0,600,27,0,600,28,0,621,29,0,600,30,0,600,32,0,600,33,0,600,34,0,621,35,0,600,36,0,600,37,0,621,38,0,600,39,0,621,40,0,621,41,0,600,42,0,600,43,0,621,44,0,600,45,0,600,46,0,600,59,0,400,60,0,400,61,0,400,62,0,400*48
$PAIRDGP,10,2,4,7,8,9,16,21,26,27,30*42
$GNGGA,041853.200,2500.8012169,N,12132.4325533,E,2,48,0.54,17.014,M,15.25,M,1,3335*46
$GNRMC,041853.200,A,2500.8012169,N,12132.4325533,E,0.01,312.77,090324,,,D,V*0F
$GPHDT,,T*1B
$GNACCURACY,3.6*13
$GNGGA,041853.300,2500.8012169,N,12132.4325653,E,2,47,0.57,16.995,M,15.25,M,1,3335*4F
$GNRMC,041853.300,A,2500.8012169,N,12132.4325653,E,0.02,312.77,090324,,,D,V*08
$GPHDT,,T*1B
$GNACCURACY,3.6*13
$GNGGA,041853.400,2500.8012169,N,12132.4325713,E,2,47,0.57,16.976,M,15.25,M,1,3335*40
$GNRMC,041853.400,A,2500.8012169,N,12132.4325713,E,0.02,312.77,090324,,,D,V*0A
$GPHDT,,T*1B
$GNACCURACY,3.6*13
$GNGGA,041853.500,2500.8012169,N,12132.4325833,E,2,48,0.54,16.955,M,15.25,M,1,3335*41
$GNRMC,041853.500,A,2500.8012169,N,12132.4325833,E,0.02,312.77,090324,,,D,V*06
$GPHDT,,T*1B
$GNACCURACY,3.6*13
$GNGGA,041853.600,2500.8012169,N,12132.4325953,E,2,48,0.54,16.936,M,15.25,M,1,3335*40
$GNRMC,041853.600,A,2500.8012169,N,12132.4325953,E,0.02,312.77,090324,,,D,V*02
$GPHDT,,T*1B
$GNACCURACY,3.6*13
$GNGGA,041853.700,2500.8012109,N,12132.4326013,E,2,48,0.54,16.915,M,15.25,M,1,3335*48
$GNRMC,041853.700,A,2500.8012109,N,12132.4326013,E,0.01,312.77,090324,,,D,V*08
$GPHDT,,T*1B
$GNACCURACY,3.6*13
$GNGGA,041853.800,2500.8012169,N,12132.4326133,E,2,47,0.57,16.895,M,15.25,M,0,3335*46
$GNRMC,041853.800,A,2500.8012169,N,12132.4326133,E,0.02,312.77,090324,,,D,V*01
$GPHDT,,T*1B
$GNACCURACY,3.6*13
$GNGGA,041853.900,2500.8012169,N,12132.4326193,E,2,48,0.54,16.874,M,15.25,M,0,3335*4E
$GNRMC,041853.900,A,2500.8012169,N,12132.4326193,E,0.02,312.77,090324,,,D,V*0A
$GPHDT,,T*1B
$GNACCURACY,3.6*13
$GNGGA,041854.000,2500.8012169,N,12132.4326313,E,2,48,0.54,16.854,M,15.25,M,1,3335*49
$GNRMC,041854.000,A,2500.8012169,N,12132.4326313,E,0.01,312.77,090324,,,D,V*0D
$GPHDT,,T*1B
$GNACCURACY,3.6*13
$GNGGA,041854.100,2500.8012169,N,12132.4326433,E,2,48,0.54,16.833,M,15.25,M,1,3335*4C
$GNRMC,041854.100,A,2500.8012169,N,12132.4326433,E,0.02,312.77,090324,,,D,V*0A
$GPHDT,,T*1B
$GNGSA,A,3,195,21,194,199,08,02,07,27,16,196,30,04,0.83,0.54,0.63,1*0B
$GNGSA,A,3,81,78,88,79,77,,,,,,,,0.83,0.54,0.63,2*05
$GNGSA,A,3,21,13,26,27,,,,,,,,,0.83,0.54,0.63,3*0C
$GNGSA,A,3,23,09,06,16,07,28,40,39,43,10,25,37,0.83,0.54,0.63,4*04
$GPGSV,4,1,15,195,66,111,46,21,65,150,39,194,64,054,38,199,60,167,24,1*50
$GPGSV,4,2,15,50,60,167,27,08,59,002,44,02,53,175,43,07,45,314,31,1*64
$GPGSV,4,3,15,27,29,038,34,16,25,080,37,09,21,242,13,196,19,168,20,1*5E
$GPGSV,4,4,15,30,15,319,15,04,15,200,,26,06,103,,1*5A
$GPGSV,2,1,07,195,66,111,46,194,64,054,43,199,60,167,40,08,59,002,46,8*58
$GPGSV,2,2,07,27,29,038,33,30,15,319,25,04,15,200,18,8*5F
$GLGSV,2,1,07,81,70,207,31,78,58,047,42,88,50,029,39,79,30,337,37,1*78
$GLGSV,2,2,07,77,21,115,29,82,20,206,,69,02,276,,1*40
$GAGSV,2,1,08,21,55,017,41,13,54,074,43,26,48,171,36,27,27,083,40,7*7A
$GAGSV,2,2,08,19,25,238,,04,12,296,,15,11,037,,33,07,199,,7*71
$GAGSV,1,1,04,21,55,017,44,13,54,074,41,26,48,171,39,27,27,083,33,1*7F
$GBGSV,4,1,14,23,75,046,46,09,72,260,17,06,69,214,29,16,65,200,37,1*7C
$GBGSV,4,2,14,07,60,311,32,28,59,226,19,40,59,331,41,39,55,189,38,1*73
$GBGSV,4,3,14,43,54,035,44,10,50,292,17,25,34,121,46,37,33,323,31,1*7B
$GBGSV,4,4,14,34,08,040,,08,02,177,,1*73
$GBGSV,2,1,06,23,75,046,48,28,59,226,11,40,59,331,42,39,55,189,29,4*75
$GBGSV,2,2,06,25,34,121,41,37,33,323,36,4*71
$GNACCURACY,3.6*13
$PAIRSAT,1,35,2,0,201,3,0,200,4,0,221,5,0,200,6,0,200,7,0,201,8,0,221,9,0,220,10,0,200,11,0,200,12,0,200,13,0,200,14,0,200,15,0,200,16,0,201,17,0,200,18,0,200,19,0,200,20,0,200,21,0,201,22,0,200,23,0,200,24,0,200,25,0,200,26,0,220,27,0,221,28,0,200,29,0,200,30,0,221,31,0,200,32,0,200,194,0,621,195,0,621,196,0,620,199,0,621*5A
$PAIRSAT,2,24,65,0,200,66,0,200,67,0,200,68,0,200,69,0,200,70,0,200,71,0,200,72,0,200,73,0,200,74,0,200,75,0,200,76,0,200,77,0,201,78,0,201,79,0,201,80,0,200,81,0,201,82,0,201,83,0,200,84,0,200,85,0,200,86,0,200,87,0,200,88,0,201*7A
$PAIRSAT,3,23,2,0,1200,3,0,1200,4,0,1200,5,0,200,7,0,1200,8,0,1200,9,0,1200,10,0,1200,11,0,1200,12,0,1200,13,0,1221,15,0,1220,19,0,1201,21,0,1221,24,0,1200,25,0,1200,26,0,1221,27,0,1221,30,0,1200,31,0,1200,33,0,1200,34,0,1200,36,0,1200*69
$PAIRSAT,4,46,1,0,200,2,0,200,3,0,600,4,0,200,5,0,200,6,0,201,7,0,201,8,0,200,9,0,201,10,0,201,11,0,200,12,0,200,13,0,200,14,0,200,16,0,201,19,0,600,20,0,600,21,0,600,22,0,600,23,0,621,24,0,600,25,0,621,26,0,600,27,0,600,28,0,621,29,0,600,30,0,600,32,0,600,33,0,600,34,0,621,35,0,600,36,0,600,37,0,621,38,0,600,39,0,621,40,0,621,41,0,600,42,0,600,43,0,621,44,0,600,45,0,600,46,0,600,59,0,400,60,0,400,61,0,400,62,0,400*48
$PAIRDGP,10,2,4,7,8,9,16,21,26,27,30*42
$GNGGA,041854.200,2500.8012169,N,12132.4326493,E,2,48,0.54,16.812,M,15.25,M,1,3335*46
$GNRMC,041854.200,A,2500.8012169,N,12132.4326493,E,0.02,312.77,090324,,,D,V*03
$GPHDT,,T*1B
$GNACCURACY,3.6*13
$GNGGA,041854.300,2500.8012169,N,12132.4326613,E,2,48,0.54,16.790,M,15.25,M,1,3335*48
$GNRMC,041854.300,A,2500.8012169,N,12132.4326613,E,0.02,312.77,090324,,,D,V*08
$GPHDT,,T*1B
$GNACCURACY,3.6*13
$GNGGA,041854.400,2500.8012169,N,12132.4326673,E,2,48,0.54,16.769,M,15.25,M,1,3335*4F
$GNRMC,041854.400,A,2500.8012169,N,12132.4326673,E,0.02,312.77,090324,,,D,V*09
$GPHDT,,T*1B
$GNACCURACY,3.6*13
$GNGGA,041854.500,2500.8012169,N,12132.4326733,E,2,47,0.57,16.747,M,15.25,M,1,3335*4B
$GNRMC,041854.500,A,2500.8012169,N,12132.4326733,E,0.02,312.77,090324,,,D,V*0D
$GPHDT,,T*1B
$GNACCURACY,3.6*13
$GNGGA,041854.600,2500.8012169,N,12132.4326793,E,2,47,0.57,16.728,M,15.25,M,1,3335*4B
$GNRMC,041854.600,A,2500.8012169,N,12132.4326793,E,0.02,312.77,090324,,,D,V*04
$GPHDT,,T*1B
$GNACCURACY,3.6*13
$GNGGA,041854.700,2500.8012169,N,12132.4326913,E,2,48,0.54,16.709,M,15.25,M,0,3335*42
$GNRMC,041854.700,A,2500.8012169,N,12132.4326913,E,0.02,312.77,090324,,,D,V*03
$GPHDT,,T*1B
$GNACCURACY,3.6*13
$GNGGA,041854.800,2500.8012169,N,12132.4326973,E,2,48,0.54,16.690,M,15.25,M,0,3335*4A
$GNRMC,041854.800,A,2500.8012169,N,12132.4326973,E,0.01,312.77,090324,,,D,V*09
$GPHDT,,T*1B
$GNACCURACY,3.6*13
$GNGGA,041854.900,2500.8012229,N,12132.4327093,E,2,48,0.54,16.671,M,15.25,M,0,3335*45
$GNRMC,041854.900,A,2500.8012229,N,12132.4327093,E,0.02,312.77,090324,,,D,V*0A
$GPHDT,,T*1B
$GNACCURACY,3.6*13
$GNGGA,041855.000,2500.8012229,N,12132.4327153,E,2,48,0.54,16.651,M,15.25,M,1,3335*43
$GNRMC,041855.000,A,2500.8012229,N,12132.4327153,E,0.02,312.77,090324,,,D,V*0F
$GPHDT,,T*1B
$GNACCURACY,3.7*12
$GNGGA,041855.100,2500.8012229,N,12132.4327273,E,2,48,0.54,16.630,M,15.25,M,1,3335*44
$GNRMC,041855.100,A,2500.8012229,N,12132.4327273,E,0.03,312.77,090324,,,D,V*0E
$GPHDT,,T*1B
$GNGSA,A,3,195,21,194,199,08,02,07,27,16,196,30,,0.88,0.57,0.67,1*03
$GNGSA,A,3,81,78,88,79,77,,,,,,,,0.88,0.57,0.67,2*09
$GNGSA,A,3,21,13,26,27,,,,,,,,,0.88,0.57,0.67,3*00
$GNGSA,A,3,23,09,06,16,07,28,40,39,43,10,25,37,0.88,0.57,0.67,4*08
$GPGSV,4,1,15,195,66,111,46,21,65,150,39,194,64,054,38,199,60,167,25,1*51
$GPGSV,4,2,15,50,60,167,28,08,59,002,44,02,53,175,43,07,45,314,31,1*6B
$GPGSV,4,3,15,27,29,038,34,16,25,080,37,09,21,242,14,196,19,168,20,1*59
$GPGSV,4,4,15,30,15,319,17,04,15,200,,26,06,103,,1*58
$GPGSV,2,1,07,195,66,111,46,194,64,054,43,199,60,167,40,08,59,002,46,8*58
$GPGSV,2,2,07,27,29,038,33,30,15,319,25,04,15,200,17,8*50
$GLGSV,2,1,06,81,70,207,31,78,58,047,42,88,50,029,39,79,30,337,37,1*79
$GLGSV,2,2,06,77,21,115,27,82,20,206,,1*71
$GAGSV,2,1,08,21,55,017,41,13,54,074,43,26,48,171,36,27,27,083,40,7*7A
$GAGSV,2,2,08,19,25,238,,04,12,296,,15,11,037,,33,07,199,,7*71
$GAGSV,1,1,04,21,55,017,44,13,54,074,40,26,48,171,39,27,27,083,32,1*7F
$GBGSV,4,1,13,23,75,046,46,09,72,260,17,06,69,214,28,16,65,200,37,1*7A
$GBGSV,4,2,13,07,60,311,32,28,59,226,19,40,59,331,41,39,55,189,38,1*74
$GBGSV,4,3,13,43,54,035,44,10,50,292,15,25,34,121,46,37,33,323,31,1*7E
$GBGSV,4,4,13,34,08,040,,1*4F
$GBGSV,2,1,06,23,75,046,48,28,59,226,14,40,59,331,42,39,55,189,29,4*70
$GBGSV,2,2,06,25,34,121,41,37,33,323,36,4*71
$GNACCURACY,3.7*12
$PAIRSAT,1,35,2,0,201,3,0,200,4,0,221,5,0,200,6,0,200,7,0,201,8,0,221,9,0,220,10,0,200,11,0,200,12,0,200,13,0,200,14,0,200,15,0,200,16,0,201,17,0,200,18,0,200,19,0,200,20,0,200,21,0,201,22,0,200,23,0,200,24,0,200,25,0,200,26,0,220,27,0,221,28,0,200,29,0,200,30,0,221,31,0,200,32,0,200,194,0,621,195,0,621,196,0,620,199,0,621*5A
$PAIRSAT,2,24,65,0,200,66,0,200,67,0,200,68,0,200,69,0,200,70,0,200,71,0,200,72,0,200,73,0,200,74,0,200,75,0,200,76,0,200,77,0,201,78,0,201,79,0,201,80,0,200,81,0,201,82,0,201,83,0,200,84,0,200,85,0,200,86,0,200,87,0,200,88,0,201*7A
$PAIRSAT,3,23,2,0,1200,3,0,1200,4,0,1200,5,0,200,7,0,1200,8,0,1200,9,0,1200,10,0,1200,11,0,1200,12,0,1200,13,0,1221,15,0,1220,19,0,1201,21,0,1221,24,0,1200,25,0,1200,26,0,1221,27,0,1221,30,0,1200,31,0,1200,33,0,1200,34,0,1200,36,0,1200*69
$PAIRSAT,4,46,1,0,200,2,0,200,3,0,600,4,0,200,5,0,200,6,0,201,7,0,201,8,0,200,9,0,201,10,0,201,11,0,200,12,0,200,13,0,200,14,0,200,16,0,201,19,0,600,20,0,600,21,0,600,22,0,600,23,0,621,24,0,600,25,0,621,26,0,600,27,0,600,28,0,621,29,0,600,30,0,600,32,0,600,33,0,600,34,0,621,35,0,600,36,0,600,37,0,621,38,0,600,39,0,621,40,0,621,41,0,600,42,0,600,43,0,621,44,0,600,45,0,600,46,0,600,59,0,400,60,0,400,61,0,400,62,0,400*48
$PAIRDGP,10,2,4,7,8,9,16,21,26,27,30*42
$GNGGA,041855.200,2500.8012229,N,12132.4327333,E,2,47,0.57,16.608,M,15.25,M,1,3335*45
$GNRMC,041855.200,A,2500.8012229,N,12132.4327333,E,0.03,312.77,090324,,,D,V*08
$GPHDT,,T*1B
$GNACCURACY,3.7*12
$GNGGA,041855.300,2500.8012229,N,12132.4327453,E,2,47,0.57,16.586,M,15.25,M,1,3335*40
$GNRMC,041855.300,A,2500.8012229,N,12132.4327453,E,0.03,312.77,090324,,,D,V*08
$GPHDT,,T*1B
$GNACCURACY,3.7*12
$GNGGA,041855.400,2500.8012229,N,12132.4327513,E,2,48,0.54,16.565,M,15.25,M,1,3335*43
$GNRMC,041855.400,A,2500.8012229,N,12132.4327513,E,0.02,312.77,090324,,,D,V*0B
$GPHDT,,T*1B
$GNACCURACY,3.7*12
$GNGGA,041855.500,2500.8012229,N,12132.4327513,E,2,47,0.57,16.545,M,15.25,M,1,3335*4C
$GNRMC,041855.500,A,2500.8012229,N,12132.4327513,E,0.01,312.77,090324,,,D,V*09
$GPHDT,,T*1B
$GNACCURACY,3.7*12
$GNGGA,041855.600,2500.8012289,N,12132.4327633,E,2,47,0.57,16.523,M,15.25,M,0,3335*45
$GNRMC,041855.600,A,2500.8012289,N,12132.4327633,E,0.02,312.77,090324,,,D,V*02
$GPHDT,,T*1B
$GNACCURACY,3.7*12
$GNGGA,041855.700,2500.8012289,N,12132.4327693,E,2,47,0.57,16.501,M,15.25,M,0,3335*4E
$GNRMC,041855.700,A,2500.8012289,N,12132.4327693,E,0.02,312.77,090324,,,D,V*09
$GPHDT,,T*1B
$GNACCURACY,3.7*12
$GNGGA,041855.800,2500.8012289,N,12132.4327753,E,2,47,0.57,16.481,M,15.25,M,0,3335*45
$GNRMC,041855.800,A,2500.8012289,N,12132.4327753,E,0.02,312.77,090324,,,D,V*0B
$GPHDT,,T*1B
