$FW : RTK35X,V1.1X0314AS,Lib20210517,1*54
$Tool : LOCOSYS , GNSS Firebird , v1.0.0.19*39
$---------------------------------------------------*2D
132.4308913,E,2,50,0.55,8.766,M,15.25,M,0,3335*73
$GNRMC,041948.700,A,2500.8013909,N,12132.4308913,E,0.02,312.77,090324,,,D,V*0C
$GPHDT,,T*1B
$GNACCURACY,2.7*13
$GNGGA,041948.800,2500.8013969,N,12132.4308913,E,2,50,0.55,8.760,M,15.25,M,0,3335*7C
$GNRMC,041948.800,A,2500.8013969,N,12132.4308913,E,0.02,312.77,090324,,,D,V*05
$GPHDT,,T*1B
$GNACCURACY,2.7*13
$GNGGA,041948.900,2500.8014089,N,12132.4308913,E,2,48,0.57,8.754,M,15.25,M,0,3335*71
$GNRMC,041948.900,A,2500.8014089,N,12132.4308913,E,0.02,312.77,090324,,,D,V*04
$GPHDT,,T*1B
$GNACCURACY,2.7*13
$GNGGA,041949.000,2500.8014149,N,12132.4308913,E,2,47,0.57,8.749,M,15.25,M,1,3335*76
$GNRMC,041949.000,A,2500.8014149,N,12132.4308913,E,0.02,312.77,090324,,,D,V*01
$GPHDT,,T*1B
$GNACCURACY,2.7*13
$GNGGA,041949.100,2500.8014269,N,12132.4308973,E,2,48,0.57,8.739,M,15.25,M,1,3335*78
$GNRMC,041949.100,A,2500.8014269,N,12132.4308973,E,0.02,312.77,090324,,,D,V*07
$GPHDT,,T*1B
$GNGSA,A,3,195,21,194,199,08,02,27,16,196,30,04,,0.96,0.56,0.78,1*00
$GNGSA,A,3,81,78,88,79,,,,,,,,,0.96,0.56,0.78,2*09
$GNGSA,A,3,21,13,26,27,15,,,,,,,,0.96,0.56,0.78,3*04
$GNGSA,A,3,23,09,06,16,07,28,40,39,43,10,25,37,0.96,0.56,0.78,4*08
$GPGSV,4,1,15,195,66,111,47,21,65,149,40,194,64,054,43,199,60,167,24,1*5B
$GPGSV,4,2,15,50,60,167,28,08,59,002,43,02,54,175,44,07,45,314,24,1*68
$GPGSV,4,3,15,27,29,038,42,16,25,080,27,09,21,242,15,196,19,168,18,1*53
$GPGSV,4,4,15,30,15,319,26,04,14,200,15,26,06,103,,1*5F
$GPGSV,2,1,08,195,66,111,43,194,64,054,44,199,60,167,40,08,59,002,42,8*51
$GPGSV,2,2,08,27,29,038,44,196,19,168,16,30,15,319,19,04,14,200,17,8*5F
$GLGSV,2,1,07,81,71,208,34,78,58,048,40,88,50,028,44,79,30,337,37,1*75
$GLGSV,2,2,07,77,20,116,12,82,20,207,14,69,02,276,,1*4E
$GAGSV,2,1,08,21,55,018,43,13,54,073,42,26,48,171,39,27,27,084,38,7*76
$GAGSV,2,2,08,19,25,237,,04,12,295,,15,11,037,26,33,07,199,,7*79
$GAGSV,2,1,05,21,55,018,46,13,54,073,42,26,48,171,38,27,27,084,38,1*79
$GAGSV,2,2,05,15,11,037,14,1*45
$GBGSV,4,1,14,23,76,047,46,09,71,259,18,06,68,214,20,16,65,200,31,1*76
$GBGSV,4,2,14,07,60,311,32,28,60,227,14,40,59,332,34,39,55,189,36,1*7A
$GBGSV,4,3,14,43,54,035,41,10,50,292,20,37,34,323,18,25,34,122,37,1*73
$GBGSV,4,4,14,34,08,041,24,08,02,177,,1*74
$GBGSV,2,1,07,23,76,047,47,40,59,332,35,39,55,189,29,43,54,035,40,4*7E
$GBGSV,2,2,07,25,34,122,39,37,34,323,21,34,08,041,22,4*47
$GNACCURACY,2.7*13
$PAIRSAT,1,35,2,0,201,3,0,200,4,0,221,5,0,200,6,0,200,7,0,201,8,0,221,9,0,220,10,0,200,11,0,200,12,0,200,13,0,200,14,0,200,15,0,200,16,0,201,17,0,200,18,0,200,19,0,200,20,0,200,21,0,201,22,0,200,23,0,200,24,0,200,25,0,200,26,0,220,27,0,221,28,0,200,29,0,200,30,0,221,31,0,200,32,0,200,194,0,621,195,0,621,196,0,620,199,0,621*5A
$PAIRSAT,2,24,65,0,200,66,0,200,67,0,200,68,0,200,69,0,200,70,0,200,71,0,200,72,0,200,73,0,200,74,0,200,75,0,200,76,0,200,77,0,201,78,0,201,79,0,201,80,0,200,81,0,201,82,0,201,83,0,200,84,0,200,85,0,200,86,0,200,87,0,200,88,0,201*7A
$PAIRSAT,3,23,2,0,1200,3,0,1200,4,0,1200,5,0,200,7,0,1200,8,0,1200,9,0,1200,10,0,1200,11,0,1200,12,0,1200,13,0,1221,15,0,1220,19,0,1201,21,0,1221,24,0,1200,25,0,1200,26,0,1221,27,0,1221,30,0,1200,31,0,1200,33,0,1200,34,0,1200,36,0,1200*69
$PAIRSAT,4,46,1,0,200,2,0,200,3,0,600,4,0,200,5,0,200,6,0,201,7,0,201,8,0,200,9,0,201,10,0,201,11,0,200,12,0,200,13,0,200,14,0,200,16,0,201,19,0,600,20,0,600,21,0,600,22,0,600,23,0,621,24,0,600,25,0,621,26,0,600,27,0,600,28,0,621,29,0,600,30,0,600,32,0,600,33,0,600,34,0,621,35,0,600,36,0,600,37,0,621,38,0,600,39,0,621,40,0,621,41,0,600,42,0,600,43,0,621,44,0,600,45,0,600,46,0,600,59,0,400,60,0,400,61,0,400,62,0,400*48
$PAIRDGP,10,2,4,7,8,9,16,21,26,27,30*42
$GNGGA,041949.200,2500.8014329,N,12132.4308973,E,2,49,0.56,8.736,M,15.25,M,1,3335*71
$GNRMC,041949.200,A,2500.8014329,N,12132.4308973,E,0.02,312.77,090324,,,D,V*01
$GPHDT,,T*1B
$GNACCURACY,2.7*13
$GNGGA,041949.300,2500.8014449,N,12132.4308973,E,2,50,0.55,8.729,M,15.25,M,1,3335*74
$GNRMC,041949.300,A,2500.8014449,N,12132.4308973,E,0.02,312.77,090324,,,D,V*01
$GPHDT,,T*1B
$GNACCURACY,2.7*13
$GNGGA,041949.400,2500.8014509,N,12132.4308973,E,2,49,0.55,8.723,M,15.25,M,1,3335*74
$GNRMC,041949.400,A,2500.8014509,N,12132.4308973,E,0.02,312.77,090324,,,D,V*03
$GPHDT,,T*1B
$GNACCURACY,2.7*13
$GNGGA,041949.500,2500.8014569,N,12132.4308973,E,2,49,0.55,8.713,M,15.25,M,1,3335*70
$GNRMC,041949.500,A,2500.8014569,N,12132.4308973,E,0.02,312.77,090324,,,D,V*04
$GPHDT,,T*1B
$GNACCURACY,2.7*13
$GNGGA,041949.600,2500.8014689,N,12132.4308973,E,2,49,0.55,8.702,M,15.25,M,0,3335*7F
$GNRMC,041949.600,A,2500.8014689,N,12132.4308973,E,0.02,312.77,090324,,,D,V*0A
$GPHDT,,T*1B
$GNACCURACY,2.7*13
$GNGGA,041949.700,2500.8014749,N,12132.4308913,E,2,48,0.55,8.693,M,15.25,M,0,3335*7D
$GNRMC,041949.700,A,2500.8014749,N,12132.4308913,E,0.02,312.77,090324,,,D,V*00
$GPHDT,,T*1B
$GNACCURACY,2.7*13
$GNGGA,041949.800,2500.8014809,N,12132.4308913,E,2,49,0.55,8.682,M,15.25,M,0,3335*78
$GNRMC,041949.800,A,2500.8014809,N,12132.4308913,E,0.02,312.77,090324,,,D,V*04
$GPHDT,,T*1B
$GNACCURACY,2.7*13
$GNGGA,041949.900,2500.8014929,N,12132.4308913,E,2,48,0.55,8.672,M,15.25,M,0,3335*74
$GNRMC,041949.900,A,2500.8014929,N,12132.4308913,E,0.02,312.77,090324,,,D,V*06
$GPHDT,,T*1B
$GNACCURACY,2.7*13
$GNGGA,041950.000,2500.8015049,N,12132.4308913,E,2,48,0.56,8.657,M,15.25,M,1,3335*7E
$GNRMC,041950.000,A,2500.8015049,N,12132.4308913,E,0.02,312.77,090324,,,D,V*09
$GPHDT,,T*1B
$GNACCURACY,2.7*13
$GNGGA,041950.100,2500.8015109,N,12132.4308913,E,2,48,0.56,8.645,M,15.25,M,1,3335*79
$GNRMC,041950.100,A,2500.8015109,N,12132.4308913,E,0.02,312.77,090324,,,D,V*0D
$GPHDT,,T*1B
$GNGSA,A,3,195,21,194,199,08,02,27,16,196,30,04,,0.96,0.56,0.78,1*00
$GNGSA,A,3,81,78,88,79,,,,,,,,,0.96,0.56,0.78,2*09
$GNGSA,A,3,21,13,26,27,15,,,,,,,,0.96,0.56,0.78,3*04
$GNGSA,A,3,23,09,06,16,07,28,40,39,43,10,25,37,0.96,0.56,0.78,4*08
$GPGSV,4,1,15,195,66,111,47,21,65,149,40,194,64,054,43,199,60,167,24,1*5B
$GPGSV,4,2,15,50,60,167,28,08,59,002,43,02,54,175,44,07,45,314,24,1*68
$GPGSV,4,3,15,27,29,038,42,16,25,080,27,09,21,242,15,196,19,168,18,1*53
$GPGSV,4,4,15,30,15,319,27,04,14,200,15,26,06,103,,1*5E
$GPGSV,2,1,08,195,66,111,43,194,64,054,44,199,60,167,40,08,59,002,43,8*50
$GPGSV,2,2,08,27,29,038,44,196,19,168,20,30,15,319,18,04,14,200,16,8*5A
$GLGSV,2,1,06,81,71,208,34,78,58,048,40,88,50,028,44,79,30,337,37,1*74
$GLGSV,2,2,06,77,20,116,15,82,20,207,14,1*76
$GAGSV,2,1,08,21,55,018,42,13,54,073,42,26,48,171,39,27,27,084,38,7*77
$GAGSV,2,2,08,19,25,237,,04,12,295,,15,11,037,25,33,07,199,,7*7A
$GAGSV,2,1,05,21,55,018,46,13,54,073,42,26,48,171,38,27,27,084,38,1*79
$GAGSV,2,2,05,15,11,037,13,1*42
$GBGSV,4,1,13,23,76,047,47,09,71,259,18,06,68,214,20,16,65,200,32,1*73
$GBGSV,4,2,13,07,60,311,32,28,60,227,14,40,59,332,34,39,55,189,37,1*7C
$GBGSV,4,3,13,43,54,035,41,10,50,292,19,25,34,122,37,37,34,323,20,1*75
$GBGSV,4,4,13,34,08,041,24,1*48
$GBGSV,2,1,07,23,76,047,47,40,59,332,35,39,55,189,29,43,54,035,39,4*70
$GBGSV,2,2,07,25,34,122,39,37,34,323,19,34,08,041,22,4*4C
$GNACCURACY,2.7*13
$PAIRSAT,1,35,2,0,201,3,0,200,4,0,221,5,0,200,6,0,200,7,0,201,8,0,221,9,0,220,10,0,200,11,0,200,12,0,200,13,0,200,14,0,200,15,0,200,16,0,201,17,0,200,18,0,200,19,0,200,20,0,200,21,0,201,22,0,200,23,0,200,24,0,200,25,0,200,26,0,220,27,0,221,28,0,200,29,0,200,30,0,221,31,0,200,32,0,200,194,0,621,195,0,621,196,0,620,199,0,621*5A
$PAIRSAT,2,24,65,0,200,66,0,200,67,0,200,68,0,200,69,0,200,70,0,200,71,0,200,72,0,200,73,0,200,74,0,200,75,0,200,76,0,200,77,0,201,78,0,201,79,0,201,80,0,200,81,0,201,82,0,201,83,0,200,84,0,200,85,0,200,86,0,200,87,0,200,88,0,201*7A
$PAIRSAT,3,23,2,0,1200,3,0,1200,4,0,1200,5,0,200,7,0,1200,8,0,1200,9,0,1200,10,0,1200,11,0,1200,12,0,1200,13,0,1221,15,0,1220,19,0,1201,21,0,1221,24,0,1200,25,0,1200,26,0,1221,27,0,1221,30,0,1200,31,0,1200,33,0,1200,34,0,1200,36,0,1200*69
$PAIRSAT,4,46,1,0,200,2,0,200,3,0,600,4,0,200,5,0,200,6,0,201,7,0,201,8,0,200,9,0,201,10,0,201,11,0,200,12,0,200,13,0,200,14,0,200,16,0,201,19,0,600,20,0,600,21,0,600,22,0,600,23,0,621,24,0,600,25,0,621,26,0,600,27,0,600,28,0,621,29,0,600,30,0,600,32,0,600,33,0,600,34,0,621,35,0,600,36,0,600,37,0,621,38,0,600,39,0,621,40,0,621,41,0,600,42,0,600,43,0,621,44,0,600,45,0,600,46,0,600,59,0,400,60,0,400,61,0,400,62,0,400*48
$PAIRDGP,10,2,4,7,8,9,16,21,26,27,30*42
$GNGGA,041950.200,2500.8015229,N,12132.4308913,E,2,49,0.56,8.636,M,15.25,M,1,3335*7E
$GNRMC,041950.200,A,2500.8015229,N,12132.4308913,E,0.02,312.77,090324,,,D,V*0F
$GPHDT,,T*1B
$GNACCURACY,2.7*13
$GNGGA,041950.300,2500.8015349,N,12132.4308913,E,2,49,0.55,8.630,M,15.25,M,1,3335*7D
$GNRMC,041950.300,A,2500.8015349,N,12132.4308913,E,0.02,312.77,090324,,,D,V*09
$GPHDT,,T*1B
$GNACCURACY,2.7*13
$GNGGA,041950.400,2500.8015469,N,12132.4308913,E,2,50,0.55,8.622,M,15.25,M,1,3335*74
$GNRMC,041950.400,A,2500.8015469,N,12132.4308913,E,0.02,312.77,090324,,,D,V*0B
$GPHDT,,T*1B
$GNACCURACY,2.7*13
$GNGGA,041950.500,2500.8015589,N,12132.4308973,E,2,50,0.55,8.613,M,15.25,M,1,3335*7E
$GNRMC,041950.500,A,2500.8015589,N,12132.4308973,E,0.02,312.77,090324,,,D,V*03
$GPHDT,,T*1B
$GNACCURACY,2.7*13
$GNGGA,041950.600,2500.8015709,N,12132.4308913,E,2,49,0.55,8.605,M,15.25,M,1,3335*7E
$GNRMC,041950.600,A,2500.8015709,N,12132.4308913,E,0.02,312.77,090324,,,D,V*0C
$GPHDT,,T*1B
$GNACCURACY,2.7*13
$GNGGA,041950.700,2500.8015829,N,12132.4308973,E,2,49,0.55,8.599,M,15.25,M,1,3335*72
$GNRMC,041950.700,A,2500.8015829,N,12132.4308973,E,0.02,312.77,090324,,,D,V*06
$GPHDT,,T*1B
$GNACCURACY,2.7*13
$GNGGA,041950.800,2500.8016009,N,12132.4308913,E,2,49,0.55,8.595,M,15.25,M,0,3335*7F
$GNRMC,041950.800,A,2500.8016009,N,12132.4308913,E,0.02,312.77,090324,,,D,V*06
$GPHDT,,T*1B
$GNACCURACY,2.7*13
$GNGGA,041950.900,2500.8016069,N,12132.4308913,E,2,50,0.55,8.586,M,15.25,M,0,3335*72
$GNRMC,041950.900,A,2500.8016069,N,12132.4308913,E,0.02,312.77,090324,,,D,V*01
$GPHDT,,T*1B
$GNACCURACY,2.7*13
$GNGGA,041951.000,2500.8016189,N,12132.4308913,E,2,49,0.55,8.582,M,15.25,M,1,3335*78
$GNRMC,041951.000,A,2500.8016189,N,12132.4308913,E,0.02,312.77,090324,,,D,V*06
$GPHDT,,T*1B
$GNACCURACY,2.7*13
$GNGGA,041951.100,2500.8016309,N,12132.4308853,E,2,49,0.55,8.580,M,15.25,M,1,3335*74
$GNRMC,041951.100,A,2500.8016309,N,12132.4308853,E,0.02,312.77,090324,,,D,V*08
$GPHDT,,T*1B
$GNGSA,A,3,195,21,194,199,08,02,07,27,16,196,30,04,0.95,0.55,0.78,1*07
$GNGSA,A,3,81,78,88,79,,,,,,,,,0.95,0.55,0.78,2*09
$GNGSA,A,3,21,13,26,27,15,,,,,,,,0.95,0.55,0.78,3*04
$GNGSA,A,3,23,09,06,16,07,28,40,39,43,10,25,37,0.95,0.55,0.78,4*08
$GPGSV,4,1,15,195,66,111,47,21,65,149,41,194,64,054,43,199,60,167,24,1*5A
$GPGSV,4,2,15,50,60,167,28,08,59,002,43,02,54,175,44,07,45,314,26,1*6A
$GPGSV,4,3,15,27,29,038,42,16,25,080,29,09,21,242,15,196,19,168,17,1*52
$GPGSV,4,4,15,30,15,319,27,04,14,199,17,26,06,103,,1*5F
$GPGSV,2,1,08,195,66,111,42,194,64,054,43,199,60,167,40,08,59,002,42,8*57
$GPGSV,2,2,08,27,29,038,43,196,19,168,23,30,15,319,18,04,14,199,13,8*58
$GLGSV,2,1,06,81,71,208,34,78,58,048,41,88,50,028,44,79,30,337,37,1*75
$GLGSV,2,2,06,77,20,116,17,82,20,207,15,1*75
$GAGSV,2,1,07,21,55,018,42,13,54,073,42,26,48,171,39,27,27,084,38,7*78
$GAGSV,2,2,07,19,25,237,,15,11,037,23,33,07,199,,7*4A
$GAGSV,2,1,05,21,55,018,45,13,54,073,40,26,48,171,37,27,27,084,37,1*78
$GAGSV,2,2,05,15,11,037,10,1*41
$GBGSV,4,1,13,23,76,047,47,09,71,259,18,06,68,214,19,16,65,200,32,1*79
$GBGSV,4,2,13,07,60,311,33,28,60,227,16,40,59,332,34,39,55,189,37,1*7F
$GBGSV,4,3,13,43,54,035,41,10,50,292,18,25,34,122,37,37,34,323,26,1*72
$GBGSV,4,4,13,34,08,041,23,1*4F
$GBGSV,2,1,07,23,76,047,46,40,59,332,34,39,55,189,28,43,54,035,38,4*70
$GBGSV,2,2,07,25,34,122,38,37,34,323,19,34,08,041,22,4*4D
$GNACCURACY,2.7*13
$PAIRSAT,1,35,2,0,201,3,0,200,4,0,221,5,0,200,6,0,200,7,0,201,8,0,221,9,0,220,10,0,200,11,0,200,12,0,200,13,0,200,14,0,200,15,0,200,16,0,201,17,0,200,18,0,200,19,0,200,20,0,200,21,0,201,22,0,200,23,0,200,24,0,200,25,0,200,26,0,220,27,0,221,28,0,200,29,0,200,30,0,221,31,0,200,32,0,200,194,0,621,195,0,621,196,0,620,199,0,621*5A
$PAIRSAT,2,24,65,0,200,66,0,200,67,0,200,68,0,200,69,0,200,70,0,200,71,0,200,72,0,200,73,0,200,74,0,200,75,0,200,76,0,200,77,0,201,78,0,201,79,0,201,80,0,200,81,0,201,82,0,201,83,0,200,84,0,200,85,0,200,86,0,200,87,0,200,88,0,201*7A
$PAIRSAT,3,23,2,0,1200,3,0,1200,4,0,1200,5,0,200,7,0,1200,8,0,1200,9,0,1200,10,0,1200,11,0,1200,12,0,1200,13,0,1221,15,0,1220,19,0,1201,21,0,1221,24,0,1200,25,0,1200,26,0,1221,27,0,1221,30,0,1200,31,0,1200,33,0,1200,34,0,1200,36,0,1200*69
$PAIRSAT,4,46,1,0,200,2,0,200,3,0,600,4,0,200,5,0,200,6,0,201,7,0,201,8,0,200,9,0,201,10,0,201,11,0,200,12,0,200,13,0,200,14,0,200,16,0,201,19,0,600,20,0,600,21,0,600,22,0,600,23,0,621,24,0,600,25,0,621,26,0,600,27,0,600,28,0,621,29,0,600,30,0,600,32,0,600,33,0,600,34,0,621,35,0,600,36,0,600,37,0,621,38,0,600,39,0,621,40,0,621,41,0,600,42,0,600,43,0,621,44,0,600,45,0,600,46,0,600,59,0,400,60,0,400,61,0,400,62,0,400*48
$PAIRDGP,10,2,4,7,8,9,16,21,26,27,30*42
$GNGGA,041951.200,2500.8016489,N,12132.4308853,E,2,50,0.55,8.575,M,15.25,M,1,3335*7A
$GNRMC,041951.200,A,2500.8016489,N,12132.4308853,E,0.02,312.77,090324,,,D,V*04
$GPHDT,,T*1B
$GNACCURACY,2.7*13
$GNGGA,041951.300,2500.8016609,N,12132.4308793,E,2,50,0.55,8.569,M,15.25,M,1,3335*7F
$GNRMC,041951.300,A,2500.8016609,N,12132.4308793,E,0.03,312.77,090324,,,D,V*0D
$GPHDT,,T*1B
$GNACCURACY,2.7*13
$GNGGA,041951.400,2500.8016729,N,12132.4308733,E,2,49,0.55,8.568,M,15.25,M,1,3335*78
$GNRMC,041951.400,A,2500.8016729,N,12132.4308733,E,0.03,312.77,090324,,,D,V*03
$GPHDT,,T*1B
$GNACCURACY,2.7*13
$GNGGA,041951.500,2500.8016909,N,12132.4308673,E,2,50,0.53,8.563,M,15.25,M,0,3335*74
$GNRMC,041951.500,A,2500.8016909,N,12132.4308673,E,0.03,312.77,090324,,,D,V*0B
$GPHDT,,T*1B
$GNACCURACY,2.7*13
$GNGGA,041951.600,2500.8017029,N,12132.4308613,E,2,51,0.53,8.560,M,15.25,M,0,3335*79
$GNRMC,041951.600,A,2500.8017029,N,12132.4308613,E,0.03,312.77,090324,,,D,V*04
$GPHDT,,T*1B
$GNACCURACY,2.7*13
$GNGGA,041951.700,2500.8017209,N,12132.4308613,E,2,49,0.55,8.555,M,15.25,M,0,3335*71
$GNRMC,041951.700,A,2500.8017209,N,12132.4308613,E,0.03,312.77,090324,,,D,V*05
$GPHDT,,T*1B
$GNACCURACY,2.7*13
$GNGGA,041951.800,2500.8017389,N,12132.4308493,E,2,49,0.55,8.549,M,15.25,M,0,3335*70
$GNRMC,041951.800,A,2500.8017389,N,12132.4308493,E,0.03,312.77,090324,,,D,V*09
$GPHDT,,T*1B
$GNACCURACY,2.7*13
$GNGGA,041951.900,2500.8017509,N,12132.4308433,E,2,49,0.55,8.546,M,15.25,M,0,3335*7A
$GNRMC,041951.900,A,2500.8017509,N,12132.4308433,E,0.03,312.77,090324,,,D,V*0C
$GPHDT,,T*1B
$GNACCURACY,2.7*13
$GNGGA,041952.000,2500.8017689,N,12132.4308313,E,2,49,0.55,8.544,M,15.25,M,1,3335*7D
$GNRMC,041952.000,A,2500.8017689,N,12132.4308313,E,0.03,312.77,090324,,,D,V*08
$GPHDT,,T*1B
$GNACCURACY,2.7*13
$GNGGA,041952.100,2500.8017809,N,12132.4308253,E,2,49,0.55,8.538,M,15.25,M,1,3335*74
$GNRMC,041952.100,A,2500.8017809,N,12132.4308253,E,0.03,312.77,090324,,,D,V*0A
$GPHDT,,T*1B
$GNGSA,A,3,195,21,194,199,08,02,07,27,16,196,04,30,0.98,0.55,0.81,1*0C
$GNGSA,A,3,81,78,88,79,77,,,,,,,,0.98,0.55,0.81,2*02
$GNGSA,A,3,21,13,26,27,,,,,,,,,0.98,0.55,0.81,3*0B
$GNGSA,A,3,23,09,06,16,07,28,40,39,43,10,25,37,0.98,0.55,0.81,4*03
$GPGSV,4,1,15,195,66,111,47,21,65,149,41,194,64,054,43,199,60,167,24,1*5A
$GPGSV,4,2,15,50,60,167,28,08,59,002,43,02,54,175,44,07,45,313,26,1*6D
$GPGSV,4,3,15,27,29,038,42,16,25,080,31,09,21,242,15,196,19,168,19,1*55
$GPGSV,4,4,15,30,15,319,25,04,14,199,17,26,06,103,,1*5D
$GPGSV,2,1,08,195,66,111,43,194,64,054,44,199,60,167,40,08,59,002,43,8*50
$GPGSV,2,2,08,27,29,038,43,196,19,168,25,30,15,319,18,04,14,199,15,8*58
$GLGSV,2,1,06,81,71,208,34,78,58,048,41,88,50,028,44,79,30,337,37,1*75
$GLGSV,2,2,06,77,20,116,18,82,20,207,16,1*79
$GAGSV,2,1,07,21,55,018,42,13,54,073,42,26,48,171,39,27,27,084,37,7*77
$GAGSV,2,2,07,19,25,237,,15,11,037,,33,07,199,,7*4B
$GAGSV,1,1,04,21,55,018,46,13,54,073,41,26,48,171,38,27,27,084,37,1*77
$GBGSV,4,1,13,23,76,047,47,09,71,259,18,06,68,214,19,16,65,200,32,1*79
$GBGSV,4,2,13,07,60,311,33,28,60,227,16,40,59,332,35,39,55,189,37,1*7E
$GBGSV,4,3,13,43,54,035,42,10,50,292,18,25,34,122,38,37,34,323,26,1*7E
$GBGSV,4,4,13,34,08,041,23,1*4F
$GBGSV,2,1,06,23,76,047,47,40,59,332,35,39,55,189,30,25,34,122,39,4*78
$GBGSV,2,2,06,37,34,323,21,34,08,041,21,4*7E
$GNACCURACY,2.7*13
$PAIRSAT,1,35,2,0,201,3,0,200,4,0,221,5,0,200,6,0,200,7,0,201,8,0,221,9,0,220,10,0,200,11,0,200,12,0,200,13,0,200,14,0,200,15,0,200,16,0,201,17,0,200,18,0,200,19,0,200,20,0,200,21,0,201,22,0,200,23,0,200,24,0,200,25,0,200,26,0,220,27,0,221,28,0,200,29,0,200,30,0,221,31,0,200,32,0,200,194,0,621,195,0,621,196,0,620,199,0,621*5A
$PAIRSAT,2,24,65,0,200,66,0,200,67,0,200,68,0,200,69,0,200,70,0,200,71,0,200,72,0,200,73,0,200,74,0,200,75,0,200,76,0,200,77,0,201,78,0,201,79,0,201,80,0,200,81,0,201,82,0,201,83,0,200,84,0,200,85,0,200,86,0,200,87,0,200,88,0,201*7A
$PAIRSAT,3,23,2,0,1200,3,0,1200,4,0,1200,5,0,200,7,0,1200,8,0,1200,9,0,1200,10,0,1200,11,0,1200,12,0,1200,13,0,1221,15,0,1220,19,0,1201,21,0,1221,24,0,1200,25,0,1200,26,0,1221,27,0,1221,30,0,1200,31,0,1200,33,0,1200,34,0,1200,36,0,1200*69
$PAIRSAT,4,46,1,0,200,2,0,200,3,0,600,4,0,200,5,0,200,6,0,201,7,0,201,8,0,200,9,0,201,10,0,201,11,0,200,12,0,200,13,0,200,14,0,200,16,0,201,19,0,600,20,0,600,21,0,600,22,0,600,23,0,621,24,0,600,25,0,621,26,0,600,27,0,600,28,0,621,29,0,600,30,0,600,32,0,600,33,0,600,34,0,621,35,0,600,36,0,600,37,0,621,38,0,600,39,0,621,40,0,621,41,0,600,42,0,600,43,0,621,44,0,600,45,0,600,46,0,600,59,0,400,60,0,400,61,0,400,62,0,400*48
$PAIRDGP,10,2,4,7,8,9,16,21,26,27,30*42
$GNGGA,041952.200,2500.8017929,N,12132.4308253,E,2,49,0.55,8.538,M,15.25,M,1,3335*74
$GNRMC,041952.200,A,2500.8017929,N,12132.4308253,E,0.03,312.77,090324,,,D,V*0A
$GPHDT,,T*1B
$GNACCURACY,2.7*13
$GNGGA,041952.300,2500.8018049,N,12132.4308193,E,2,49,0.55,8.532,M,15.25,M,1,3335*70
$GNRMC,041952.300,A,2500.8018049,N,12132.4308193,E,0.03,312.77,090324,,,D,V*04
$GPHDT,,T*1B
$GNACCURACY,2.7*13
$GNGGA,041952.400,2500.8018169,N,12132.4308133,E,2,49,0.55,8.529,M,15.25,M,1,3335*74
$GNRMC,041952.400,A,2500.8018169,N,12132.4308133,E,0.03,312.77,090324,,,D,V*0A
$GPHDT,,T*1B
$GNACCURACY,2.7*13
$GNGGA,041952.500,2500.8018289,N,12132.4308013,E,2,49,0.55,8.522,M,15.25,M,1,3335*70
$GNRMC,041952.500,A,2500.8018289,N,12132.4308013,E,0.03,312.77,090324,,,D,V*05
$GPHDT,,T*1B
$GNACCURACY,2.7*13
$GNGGA,041952.600,2500.8018409,N,12132.4307953,E,2,49,0.55,8.518,M,15.25,M,0,3335*77
$GNRMC,041952.600,A,2500.8018409,N,12132.4307953,E,0.03,312.77,090324,,,D,V*0A
$GPHDT,,T*1B
$GNACCURACY,2.7*13
$GNGGA,041952.700,2500.8018589,N,12132.4307953,E,2,49,0.55,8.513,M,15.25,M,0,3335*74
$GNRMC,041952.700,A,2500.8018589,N,12132.4307953,E,0.03,312.77,090324,,,D,V*02
$GPHDT,,T*1B
$GNACCURACY,2.7*13
$GNGGA,041952.800,2500.8018709,N,12132.4307953,E,2,49,0.55,8.501,M,15.25,M,0,3335*72
$GNRMC,041952.800,A,2500.8018709,N,12132.4307953,E,0.04,312.77,090324,,,D,V*00
$GPHDT,,T*1B
$GNACCURACY,2.7*13
$GNGGA,041952.900,2500.8018829,N,12132.4307893,E,2,49,0.55,8.490,M,15.25,M,0,3335*7A
$GNRMC,041952.900,A,2500.8018829,N,12132.4307893,E,0.03,312.77,090324,,,D,V*06
$GPHDT,,T*1B
$GNACCURACY,2.7*13
$GNGGA,041953.000,2500.8018949,N,12132.4307893,E,2,49,0.55,8.482,M,15.25,M,1,3335*77
$GNRMC,041953.000,A,2500.8018949,N,12132.4307893,E,0.03,312.77,090324,,,D,V*09
$GPHDT,,T*1B
$GNACCURACY,2.7*13
$GNGGA,041953.100,2500.8019069,N,12132.4307893,E,2,49,0.55,8.471,M,15.25,M,1,3335*70
$GNRMC,041953.100,A,2500.8019069,N,12132.4307893,E,0.03,312.77,090324,,,D,V*02
$GPHDT,,T*1B
$GNGSA,A,3,195,21,194,199,08,02,07,27,16,196,04,30,0.93,0.53,0.76,1*09
$GNGSA,A,3,81,78,88,79,77,,,,,,,,0.93,0.53,0.76,2*07
$GNGSA,A,3,21,13,26,27,15,,,,,,,,0.93,0.53,0.76,3*0A
$GNGSA,A,3,23,09,06,16,28,07,40,39,43,10,25,37,0.93,0.53,0.76,4*06
$GPGSV,4,1,15,195,66,111,47,21,65,149,41,194,64,054,43,50,60,167,28,1*62
$GPGSV,4,2,15,199,60,167,24,08,59,002,43,02,54,175,44,07,45,313,24,1*57
$GPGSV,4,3,15,27,29,038,42,16,25,080,31,09,21,242,17,196,19,168,19,1*57
$GPGSV,4,4,15,30,15,319,24,04,14,199,18,26,06,103,,1*53
$GPGSV,2,1,08,195,66,111,43,194,64,054,44,199,60,167,40,08,59,002,43,8*50
$GPGSV,2,2,08,27,29,038,43,196,19,168,25,30,15,319,18,04,14,199,12,8*5F
$GLGSV,2,1,06,81,71,208,34,78,58,048,41,88,50,028,44,79,30,337,37,1*75
$GLGSV,2,2,06,82,20,207,13,77,20,116,18,1*7C
$GAGSV,2,1,06,21,55,018,42,13,54,073,42,26,48,171,39,27,27,084,37,7*76
$GAGSV,2,2,06,19,25,237,,15,11,037,22,7*7C
$GAGSV,1,1,04,21,55,018,46,13,54,073,41,26,48,171,38,27,27,084,37,1*77
$GBGSV,4,1,13,23,76,047,47,09,71,259,18,06,68,214,19,16,65,200,32,1*79
$GBGSV,4,2,13,28,60,227,18,07,60,311,33,40,59,332,35,39,55,189,37,1*70
$GBGSV,4,3,13,43,54,035,42,10,50,292,18,25,34,122,38,37,34,323,21,1*79
$GBGSV,4,4,13,34,08,041,25,1*49
$GBGSV,2,1,06,23,76,047,47,40,59,332,36,39,55,189,29,25,34,122,39,4*73
$GBGSV,2,2,06,37,34,323,20,34,08,041,20,4*7E
$GNACCURACY,2.7*13
$PAIRSAT,1,35,2,0,201,3,0,200,4,0,221,5,0,200,6,0,200,7,0,201,8,0,221,9,0,220,10,0,200,11,0,200,12,0,200,13,0,200,14,0,200,15,0,200,16,0,201,17,0,200,18,0,200,19,0,200,20,0,200,21,0,201,22,0,200,23,0,200,24,0,200,25,0,200,26,0,220,27,0,221,28,0,200,29,0,200,30,0,221,31,0,200,32,0,200,194,0,621,195,0,621,196,0,620,199,0,621*5A
$PAIRSAT,2,24,65,0,200,66,0,200,67,0,200,68,0,200,69,0,200,70,0,200,71,0,200,72,0,200,73,0,200,74,0,200,75,0,200,76,0,200,77,0,201,78,0,201,79,0,201,80,0,200,81,0,201,82,0,201,83,0,200,84,0,200,85,0,200,86,0,200,87,0,200,88,0,201*7A
$PAIRSAT,3,23,2,0,1200,3,0,1200,4,0,1200,5,0,200,7,0,1200,8,0,1200,9,0,1200,10,0,1200,11,0,1200,12,0,1200,13,0,1221,15,0,1220,19,0,1201,21,0,1221,24,0,1200,25,0,1200,26,0,1221,27,0,1221,30,0,1200,31,0,1200,33,0,1200,34,0,1200,36,0,1200*69
$PAIRSAT,4,46,1,0,200,2,0,200,3,0,600,4,0,200,5,0,200,6,0,201,7,0,201,8,0,200,9,0,201,10,0,201,11,0,200,12,0,200,13,0,200,14,0,200,16,0,201,19,0,600,20,0,600,21,0,600,22,0,600,23,0,621,24,0,600,25,0,621,26,0,600,27,0,600,28,0,621,29,0,600,30,0,600,32,0,600,33,0,600,34,0,621,35,0,600,36,0,600,37,0,621,38,0,600,39,0,621,40,0,621,41,0,600,42,0,600,43,0,621,44,0,600,45,0,600,46,0,600,59,0,400,60,0,400,61,0,400,62,0,400*48
$PAIRDGP,10,2,4,7,8,9,16,21,26,27,30*42
$GNGGA,041953.200,2500.8019129,N,12132.4307893,E,2,50,0.53,8.460,M,15.25,M,1,3335*78
$GNRMC,041953.200,A,2500.8019129,N,12132.4307893,E,0.03,312.77,090324,,,D,V*04
$GPHDT,,T*1B
$GNACCURACY,2.7*13
$GNGGA,041953.300,2500.8019249,N,12132.4307893,E,2,50,0.53,8.448,M,15.25,M,1,3335*76
$GNRMC,041953.300,A,2500.8019249,N,12132.4307893,E,0.03,312.77,090324,,,D,V*00
$GPHDT,,T*1B
$GNACCURACY,2.7*13
$GNGGA,041953.400,2500.8019369,N,12132.4307833,E,2,49,0.53,8.436,M,15.25,M,1,3335*79
$GNRMC,041953.400,A,2500.8019369,N,12132.4307833,E,0.04,312.77,090324,,,D,V*09
$GPHDT,,T*1B
$GNACCURACY,2.7*13
$GNGGA,041953.500,2500.8019489,N,12132.4307833,E,2,50,0.53,8.424,M,15.25,M,1,3335*7A
$GNRMC,041953.500,A,2500.8019489,N,12132.4307833,E,0.04,312.77,090324,,,D,V*01
$GPHDT,,T*1B
$GNACCURACY,2.7*13
$GNGGA,041953.600,2500.8019609,N,12132.4307833,E,2,50,0.53,8.413,M,15.25,M,0,3335*76
$GNRMC,041953.600,A,2500.8019609,N,12132.4307833,E,0.04,312.77,090324,,,D,V*08
$GPHDT,,T*1B
$GNACCURACY,2.7*13
$GNGGA,041953.700,2500.8019729,N,12132.4307833,E,2,50,0.53,8.400,M,15.25,M,0,3335*76
$GNRMC,041953.700,A,2500.8019729,N,12132.4307833,E,0.04,312.77,090324,,,D,V*0A
$GPHDT,,T*1B
$GNACCURACY,2.7*13
$GNGGA,041953.800,2500.8019789,N,12132.4307833,E,2,50,0.53,8.381,M,15.25,M,0,3335*7D
$GNRMC,041953.800,A,2500.8019789,N,12132.4307833,E,0.04,312.77,090324,,,D,V*0F
$GPHDT,,T*1B
$GNACCURACY,2.7*13
$GNGGA,041953.900,2500.8019909,N,12132.4307833,E,2,50,0.53,8.367,M,15.25,M,0,3335*72
$GNRMC,041953.900,A,2500.8019909,N,12132.4307833,E,0.04,312.77,090324,,,D,V*08
$GPHDT,,T*1B
$GNACCURACY,2.7*13
$GNGGA,041954.000,2500.8020029,N,12132.4307833,E,2,49,0.53,8.349,M,15.25,M,1,3335*78
$GNRMC,041954.000,A,2500.8020029,N,12132.4307833,E,0.04,312.77,090324,,,D,V*07
$GPHDT,,T*1B
$GNACCURACY,2.7*13
$GNGGA,041954.100,2500.8020089,N,12132.4307833,E,2,50,0.53,8.333,M,15.25,M,1,3335*76
$GNRMC,041954.100,A,2500.8020089,N,12132.4307833,E,0.04,312.77,090324,,,D,V*0C
$GPHDT,,T*1B
$GNGSA,A,3,195,21,194,199,08,02,07,27,16,196,04,30,0.93,0.53,0.76,1*09
$GNGSA,A,3,81,78,88,79,77,,,,,,,,0.93,0.53,0.76,2*07
$GNGSA,A,3,21,13,26,27,15,,,,,,,,0.93,0.53,0.76,3*0A
$GNGSA,A,3,23,09,06,16,28,07,40,39,43,10,25,37,0.93,0.53,0.76,4*06
$GPGSV,4,1,15,195,66,111,47,21,65,149,41,194,64,054,43,50,60,167,28,1*62
$GPGSV,4,2,15,199,60,167,24,08,59,002,43,02,54,175,44,07,45,313,25,1*56
$GPGSV,4,3,15,27,29,038,42,16,25,080,31,09,21,242,17,196,19,168,19,1*57
$GPGSV,4,4,15,30,15,319,25,04,14,199,17,26,05,103,,1*5E
$GPGSV,2,1,08,195,66,111,43,194,64,054,44,199,60,167,40,08,59,002,43,8*50
$GPGSV,2,2,08,27,29,038,43,196,19,168,25,30,15,319,19,04,14,199,16,8*5A
$GLGSV,2,1,06,81,71,208,34,78,58,048,41,88,50,028,44,79,30,337,37,1*75
$GLGSV,2,2,06,82,20,207,12,77,20,116,17,1*72
$GAGSV,2,1,06,21,55,018,42,13,54,073,42,26,48,171,39,27,27,084,37,7*76
$GAGSV,2,2,06,19,25,237,,15,11,037,22,7*7C
$GAGSV,1,1,04,21,55,018,46,13,54,073,41,26,48,171,38,27,27,084,37,1*77
$GBGSV,4,1,13,23,76,047,47,09,71,259,18,06,68,214,18,16,65,200,32,1*78
$GBGSV,4,2,13,28,60,227,18,07,60,311,33,40,59,332,35,39,55,189,37,1*70
$GBGSV,4,3,13,43,54,035,42,10,50,292,19,25,34,122,39,37,34,323,20,1*78
$GBGSV,4,4,13,34,08,041,25,1*49
$GBGSV,2,1,07,23,76,047,47,40,59,332,36,39,55,189,29,43,54,035,40,4*7D
$GBGSV,2,2,07,25,34,122,39,37,34,323,18,34,08,041,22,4*4D
$GNACCURACY,2.7*13
$PAIRSAT,1,35,2,0,201,3,0,200,4,0,221,5,0,200,6,0,200,7,0,201,8,0,221,9,0,220,10,0,200,11,0,200,12,0,200,13,0,200,14,0,200,15,0,200,16,0,201,17,0,200,18,0,200,19,0,200,20,0,200,21,0,201,22,0,200,23,0,200,24,0,200,25,0,200,26,0,220,27,0,221,28,0,200,29,0,200,30,0,221,31,0,200,32,0,200,194,0,621,195,0,621,196,0,620,199,0,621*5A
$PAIRSAT,2,24,65,0,200,66,0,200,67,0,200,68,0,200,69,0,200,70,0,200,71,0,200,72,0,200,73,0,200,74,0,200,75,0,200,76,0,200,77,0,201,78,0,201,79,0,201,80,0,200,81,0,201,82,0,201,83,0,200,84,0,200,85,0,200,86,0,200,87,0,200,88,0,201*7A
$PAIRSAT,3,23,2,0,1200,3,0,1200,4,0,1200,5,0,200,7,0,1200,8,0,1200,9,0,1200,10,0,1200,11,0,1200,12,0,1200,13,0,1221,15,0,1220,19,0,1201,21,0,1221,24,0,1200,25,0,1200,26,0,1221,27,0,1221,30,0,1200,31,0,1200,33,0,1200,34,0,1200,36,0,1200*69
$PAIRSAT,4,46,1,0,200,2,0,200,3,0,600,4,0,200,5,0,200,6,0,201,7,0,201,8,0,200,9,0,201,10,0,201,11,0,200,12,0,200,13,0,200,14,0,200,16,0,201,19,0,600,20,0,600,21,0,600,22,0,600,23,0,621,24,0,600,25,0,621,26,0,600,27,0,600,28,0,621,29,0,600,30,0,600,32,0,600,33,0,600,34,0,621,35,0,600,36,0,600,37,0,621,38,0,600,39,0,621,40,0,621,41,0,600,42,0,600,43,0,621,44,0,600,45,0,600,46,0,600,59,0,400,60,0,400,61,0,400,62,0,400*48
$PAIRDGP,10,2,4,7,8,9,16,21,26,27,30*42
$GNGGA,041954.200,2500.8020209,N,12132.4307833,E,2,50,0.53,8.318,M,15.25,M,1,3335*76
$GNRMC,041954.200,A,2500.8020209,N,12132.4307833,E,0.04,312.77,090324,,,D,V*05
$GPHDT,,T*1B
$GNACCURACY,2.7*13
$GNGGA,041954.300,2500.8020329,N,12132.4307833,E,2,50,0.53,8.303,M,15.25,M,1,3335*7E
$GNRMC,041954.300,A,2500.8020329,N,12132.4307833,E,0.04,312.77,090324,,,D,V*07
$GPHDT,,T*1B
$GNACCURACY,2.7*13
$GNGGA,041954.400,2500.8020449,N,12132.4307833,E,2,49,0.53,8.291,M,15.25,M,1,3335*7A
$GNRMC,041954.400,A,2500.8020449,N,12132.4307833,E,0.04,312.77,090324,,,D,V*01
$GPHDT,,T*1B
