$FW : RTK35X,V1.1X0314AS,Lib20210517,1*54
$Tool : LOCOSYS , GNSS Firebird , v1.0.0.19*39
$---------------------------------------------------*2D
41840.700,A,2500.8014449,N,12132.4318273,E,0.04,312.77,090324,,,D,V*01
$GPHDT,,T*1B
$GNACCURACY,3.8*1D
$GNGGA,041840.800,2500.8014449,N,12132.4318333,E,2,48,0.54,17.546,M,15.25,M,0,3335*44
$GNRMC,041840.800,A,2500.8014449,N,12132.4318333,E,0.03,312.77,090324,,,D,V*0C
$GPHDT,,T*1B
$GNACCURACY,3.8*1D
$GNGGA,041840.900,2500.8014449,N,12132.4318333,E,2,48,0.54,17.550,M,15.25,M,0,3335*42
$GNRMC,041840.900,A,2500.8014449,N,12132.4318333,E,0.03,312.77,090324,,,D,V*0D
$GPHDT,,T*1B
$GNACCURACY,3.8*1D
$GNGGA,041841.000,2500.8014449,N,12132.4318333,E,2,48,0.54,17.555,M,15.25,M,1,3335*4E
$GNRMC,041841.000,A,2500.8014449,N,12132.4318333,E,0.03,312.77,090324,,,D,V*05
$GPHDT,,T*1B
$GNACCURACY,3.8*1D
$GNGGA,041841.100,2500.8014449,N,12132.4318273,E,2,49,0.52,17.559,M,15.25,M,1,3335*41
$GNRMC,041841.100,A,2500.8014449,N,12132.4318273,E,0.02,312.77,090324,,,D,V*00
$GPHDT,,T*1B
$GNGSA,A,3,195,21,194,199,08,02,07,27,16,196,09,04,0.79,0.52,0.60,1*01
$GNGSA,A,3,81,78,88,79,77,82,,,,,,,0.79,0.52,0.60,2*0F
$GNGSA,A,3,21,13,26,27,15,,,,,,,,0.79,0.52,0.60,3*08
$GNGSA,A,3,23,09,06,16,07,28,40,39,43,10,25,37,0.79,0.52,0.60,4*04
$GPGSV,4,1,15,195,66,112,46,21,64,150,41,194,64,054,42,199,60,167,25,1*51
$GPGSV,4,2,15,50,60,167,28,08,59,002,45,02,53,175,44,07,45,314,34,1*68
$GPGSV,4,3,15,27,29,038,35,16,25,080,28,09,21,242,,196,19,168,19,1*59
$GPGSV,4,4,15,04,15,200,,30,14,319,18,26,06,103,,1*56
$GPGSV,2,1,08,195,66,112,45,194,64,054,44,199,60,167,40,08,59,002,45,8*53
$GPGSV,2,2,08,27,29,038,45,09,21,242,14,196,19,168,27,04,15,200,17,8*52
$GLGSV,2,1,06,81,70,207,33,78,58,047,42,88,50,029,45,79,30,337,29,1*7F
$GLGSV,2,2,06,77,21,115,24,82,20,206,13,1*70
$GAGSV,2,1,08,21,55,017,44,13,54,074,40,26,48,171,39,27,27,083,29,7*7C
$GAGSV,2,2,08,19,25,238,,04,12,296,,15,11,037,13,33,07,199,,7*73
$GAGSV,1,1,04,21,55,017,46,13,54,074,39,26,48,171,38,27,27,083,16,1*74
$GBGSV,4,1,14,23,75,045,46,09,72,260,16,06,69,214,26,16,65,200,35,1*73
$GBGSV,4,2,14,07,60,311,38,28,59,226,17,40,59,331,39,39,55,188,39,1*78
$GBGSV,4,3,14,43,55,035,45,10,50,292,29,25,34,121,43,37,33,323,32,1*70
$GBGSV,4,4,14,38,12,168,,34,08,040,,1*7F
$GBGSV,2,1,06,23,75,045,48,28,59,226,16,40,59,331,41,39,55,188,30,4*7B
$GBGSV,2,2,06,25,34,121,43,37,33,323,31,4*74
$GNACCURACY,3.8*1D
$PAIRSAT,1,35,2,0,201,3,0,200,4,0,221,5,0,200,6,0,200,7,0,201,8,0,221,9,0,220,10,0,200,11,0,200,12,0,200,13,0,200,14,0,200,15,0,200,16,0,201,17,0,200,18,0,200,19,0,200,20,0,200,21,0,201,22,0,200,23,0,200,24,0,200,25,0,200,26,0,220,27,0,221,28,0,200,29,0,200,30,0,221,31,0,200,32,0,200,194,0,621,195,0,621,196,0,620,199,0,621*5A
$PAIRSAT,2,24,65,0,200,66,0,200,67,0,200,68,0,200,69,0,200,70,0,200,71,0,200,72,0,200,73,0,200,74,0,200,75,0,200,76,0,200,77,0,201,78,0,201,79,0,201,80,0,200,81,0,201,82,0,201,83,0,200,84,0,200,85,0,200,86,0,200,87,0,200,88,0,201*7A
$PAIRSAT,3,23,2,0,1200,3,0,1200,4,0,1200,5,0,200,7,0,1200,8,0,1200,9,0,1200,10,0,1200,11,0,1200,12,0,1200,13,0,1221,15,0,1220,19,0,1201,21,0,1221,24,0,1200,25,0,1200,26,0,1221,27,0,1221,30,0,1200,31,0,1200,33,0,1200,34,0,1200,36,0,1200*69
$PAIRSAT,4,46,1,0,200,2,0,200,3,0,600,4,0,200,5,0,200,6,0,201,7,0,201,8,0,200,9,0,201,10,0,201,11,0,200,12,0,200,13,0,200,14,0,200,16,0,201,19,0,600,20,0,600,21,0,600,22,0,600,23,0,621,24,0,600,25,0,621,26,0,600,27,0,600,28,0,621,29,0,600,30,0,600,32,0,600,33,0,600,34,0,621,35,0,600,36,0,600,37,0,621,38,0,600,39,0,621,40,0,621,41,0,600,42,0,600,43,0,621,44,0,600,45,0,600,46,0,600,59,0,400,60,0,400,61,0,400,62,0,400*48
$PAIRDGP,10,2,4,7,8,9,16,21,26,27,30*42
$GNGGA,041841.200,2500.8014449,N,12132.4318333,E,2,51,0.52,17.563,M,15.25,M,1,3335*47
$GNRMC,041841.200,A,2500.8014449,N,12132.4318333,E,0.02,312.77,090324,,,D,V*06
$GPHDT,,T*1B
$GNACCURACY,3.9*1C
$GNGGA,041841.300,2500.8014389,N,12132.4318273,E,2,48,0.55,17.567,M,15.25,M,1,3335*43
$GNRMC,041841.300,A,2500.8014389,N,12132.4318273,E,0.01,312.77,090324,,,D,V*0A
$GPHDT,,T*1B
$GNACCURACY,3.9*1C
$GNGGA,041841.400,2500.8014389,N,12132.4318333,E,2,48,0.55,17.569,M,15.25,M,1,3335*4F
$GNRMC,041841.400,A,2500.8014389,N,12132.4318333,E,0.02,312.77,090324,,,D,V*0B
$GPHDT,,T*1B
$GNACCURACY,3.9*1C
$GNGGA,041841.500,2500.8014389,N,12132.4318273,E,2,47,0.55,17.572,M,15.25,M,1,3335*4E
$GNRMC,041841.500,A,2500.8014389,N,12132.4318273,E,0.01,312.77,090324,,,D,V*0C
$GPHDT,,T*1B
$GNACCURACY,3.9*1C
$GNGGA,041841.600,2500.8014389,N,12132.4318333,E,2,47,0.55,17.574,M,15.25,M,1,3335*4E
$GNRMC,041841.600,A,2500.8014389,N,12132.4318333,E,0.00,312.77,090324,,,D,V*0B
$GPHDT,,T*1B
$GNACCURACY,3.9*1C
$GNGGA,041841.700,2500.8014389,N,12132.4318333,E,2,47,0.55,17.577,M,15.25,M,0,3335*4D
$GNRMC,041841.700,A,2500.8014389,N,12132.4318333,E,0.01,312.77,090324,,,D,V*0B
$GPHDT,,T*1B
$GNACCURACY,3.9*1C
$GNGGA,041841.800,2500.8014449,N,12132.4318333,E,2,47,0.55,17.579,M,15.25,M,0,3335*47
$GNRMC,041841.800,A,2500.8014449,N,12132.4318333,E,0.01,312.77,090324,,,D,V*0F
$GPHDT,,T*1B
$GNACCURACY,3.9*1C
$GNGGA,041841.900,2500.8014449,N,12132.4318333,E,2,47,0.55,17.579,M,15.25,M,0,3335*46
$GNRMC,041841.900,A,2500.8014449,N,12132.4318333,E,0.01,312.77,090324,,,D,V*0E
$GPHDT,,T*1B
$GNACCURACY,3.9*1C
$GNGGA,041842.000,2500.8014449,N,12132.4318333,E,2,46,0.56,17.581,M,15.25,M,1,3335*48
$GNRMC,041842.000,A,2500.8014449,N,12132.4318333,E,0.01,312.77,090324,,,D,V*04
$GPHDT,,T*1B
$GNACCURACY,3.9*1C
$GNGGA,041842.100,2500.8014449,N,12132.4318333,E,2,47,0.56,17.582,M,15.25,M,1,3335*4B
$GNRMC,041842.100,A,2500.8014449,N,12132.4318333,E,0.01,312.77,090324,,,D,V*05
$GPHDT,,T*1B
$GNGSA,A,3,195,21,194,199,08,02,07,27,16,196,04,,0.86,0.56,0.65,1*09
$GNGSA,A,3,81,78,88,79,77,,,,,,,,0.86,0.56,0.65,2*04
$GNGSA,A,3,21,13,26,27,15,,,,,,,,0.86,0.56,0.65,3*09
$GNGSA,A,3,23,06,16,07,28,40,39,43,10,25,37,,0.86,0.56,0.65,4*0C
$GPGSV,4,1,15,195,66,112,46,21,64,150,42,194,64,054,40,199,60,167,25,1*50
$GPGSV,4,2,15,50,60,167,28,08,59,002,45,02,53,175,44,07,45,314,32,1*6E
$GPGSV,4,3,15,27,29,038,33,16,25,080,27,09,21,242,,196,19,168,20,1*5A
$GPGSV,4,4,15,04,15,200,,30,14,319,22,26,06,103,,1*5F
$GPGSV,2,1,06,195,66,112,45,194,64,054,44,199,60,167,40,08,59,002,45,8*5D
$GPGSV,2,2,06,27,29,038,45,04,15,200,17,8*6B
$GLGSV,2,1,06,81,70,207,33,78,58,047,41,88,50,029,46,79,30,337,26,1*70
$GLGSV,2,2,06,77,21,115,26,82,20,206,,1*70
$GAGSV,2,1,08,21,55,017,44,13,54,074,39,26,48,171,39,27,27,083,27,7*7C
$GAGSV,2,2,08,19,25,238,,04,12,296,,15,11,037,13,33,07,199,,7*73
$GAGSV,1,1,04,21,55,017,45,13,54,074,39,26,48,171,39,27,27,083,18,1*78
$GBGSV,4,1,13,23,75,046,46,09,72,260,15,06,69,214,26,16,65,200,34,1*75
$GBGSV,4,2,13,07,60,311,38,28,59,226,16,40,59,331,39,39,55,188,38,1*7F
$GBGSV,4,3,13,43,55,035,45,10,50,292,30,25,34,121,44,37,33,323,33,1*79
$GBGSV,4,4,13,34,08,040,,1*4F
$GBGSV,2,1,07,23,75,046,48,28,59,226,16,40,59,331,41,39,55,188,30,4*79
$GBGSV,2,2,07,43,55,035,41,25,34,121,43,37,33,323,25,4*44
$GNACCURACY,3.9*1C
$PAIRSAT,1,35,2,0,201,3,0,200,4,0,221,5,0,200,6,0,200,7,0,201,8,0,221,9,0,220,10,0,200,11,0,200,12,0,200,13,0,200,14,0,200,15,0,200,16,0,201,17,0,200,18,0,200,19,0,200,20,0,200,21,0,201,22,0,200,23,0,200,24,0,200,25,0,200,26,0,220,27,0,221,28,0,200,29,0,200,30,0,221,31,0,200,32,0,200,194,0,621,195,0,621,196,0,620,199,0,621*5A
$PAIRSAT,2,24,65,0,200,66,0,200,67,0,200,68,0,200,69,0,200,70,0,200,71,0,200,72,0,200,73,0,200,74,0,200,75,0,200,76,0,200,77,0,201,78,0,201,79,0,201,80,0,200,81,0,201,82,0,201,83,0,200,84,0,200,85,0,200,86,0,200,87,0,200,88,0,201*7A
$PAIRSAT,3,23,2,0,1200,3,0,1200,4,0,1200,5,0,200,7,0,1200,8,0,1200,9,0,1200,10,0,1200,11,0,1200,12,0,1200,13,0,1221,15,0,1220,19,0,1201,21,0,1221,24,0,1200,25,0,1200,26,0,1221,27,0,1221,30,0,1200,31,0,1200,33,0,1200,34,0,1200,36,0,1200*69
$PAIRSAT,4,46,1,0,200,2,0,200,3,0,600,4,0,200,5,0,200,6,0,201,7,0,201,8,0,200,9,0,201,10,0,201,11,0,200,12,0,200,13,0,200,14,0,200,16,0,201,19,0,600,20,0,600,21,0,600,22,0,600,23,0,621,24,0,600,25,0,621,26,0,600,27,0,600,28,0,621,29,0,600,30,0,600,32,0,600,33,0,600,34,0,621,35,0,600,36,0,600,37,0,621,38,0,600,39,0,621,40,0,621,41,0,600,42,0,600,43,0,621,44,0,600,45,0,600,46,0,600,59,0,400,60,0,400,61,0,400,62,0,400*48
$PAIRDGP,10,2,4,7,8,9,16,21,26,27,30*42
$GNGGA,041842.200,2500.8014449,N,12132.4318333,E,2,47,0.56,17.583,M,15.25,M,1,3335*49
$GNRMC,041842.200,A,2500.8014449,N,12132.4318333,E,0.02,312.77,090324,,,D,V*05
$GPHDT,,T*1B
$GNACCURACY,3.9*1C
$GNGGA,041842.300,2500.8014389,N,12132.4318273,E,2,47,0.56,17.586,M,15.25,M,1,3335*43
$GNRMC,041842.300,A,2500.8014389,N,12132.4318273,E,0.03,312.77,090324,,,D,V*0B
$GPHDT,,T*1B
$GNACCURACY,3.9*1C
$GNGGA,041842.400,2500.8014389,N,12132.4318273,E,2,46,0.57,17.587,M,15.25,M,1,3335*45
$GNRMC,041842.400,A,2500.8014389,N,12132.4318273,E,0.03,312.77,090324,,,D,V*0C
$GPHDT,,T*1B
$GNACCURACY,3.9*1C
$GNGGA,041842.500,2500.8014389,N,12132.4318333,E,2,46,0.57,17.589,M,15.25,M,1,3335*4F
$GNRMC,041842.500,A,2500.8014389,N,12132.4318333,E,0.02,312.77,090324,,,D,V*09
$GPHDT,,T*1B
$GNACCURACY,3.9*1C
$GNGGA,041842.600,2500.8014389,N,12132.4318333,E,2,46,0.57,17.593,M,15.25,M,0,3335*46
$GNRMC,041842.600,A,2500.8014389,N,12132.4318333,E,0.03,312.77,090324,,,D,V*0B
$GPHDT,,T*1B
$GNACCURACY,3.9*1C
$GNGGA,041842.700,2500.8014389,N,12132.4318393,E,2,46,0.57,17.597,M,15.25,M,0,3335*49
$GNRMC,041842.700,A,2500.8014389,N,12132.4318393,E,0.03,312.77,090324,,,D,V*00
$GPHDT,,T*1B
$GNACCURACY,3.9*1C
$GNGGA,041842.800,2500.8014329,N,12132.4318453,E,2,46,0.57,17.600,M,15.25,M,0,3335*4A
$GNRMC,041842.800,A,2500.8014329,N,12132.4318453,E,0.02,312.77,090324,,,D,V*0F
$GPHDT,,T*1B
$GNACCURACY,3.9*1C
$GNGGA,041842.900,2500.8014329,N,12132.4318453,E,2,46,0.57,17.602,M,15.25,M,0,3335*49
$GNRMC,041842.900,A,2500.8014329,N,12132.4318453,E,0.03,312.77,090324,,,D,V*0F
$GPHDT,,T*1B
$GNACCURACY,3.9*1C
$GNGGA,041843.000,2500.8014329,N,12132.4318513,E,2,46,0.57,17.603,M,15.25,M,1,3335*44
$GNRMC,041843.000,A,2500.8014329,N,12132.4318513,E,0.02,312.77,090324,,,D,V*03
$GPHDT,,T*1B
$GNACCURACY,4.0*12
$GNGGA,041843.100,2500.8014329,N,12132.4318513,E,2,46,0.57,17.605,M,15.25,M,1,3335*43
$GNRMC,041843.100,A,2500.8014329,N,12132.4318513,E,0.02,312.77,090324,,,D,V*02
$GPHDT,,T*1B
$GNGSA,A,3,195,21,194,199,08,02,07,27,16,196,04,,0.89,0.57,0.68,1*0A
$GNGSA,A,3,81,78,88,79,77,,,,,,,,0.89,0.57,0.68,2*07
$GNGSA,A,3,21,13,26,27,,,,,,,,,0.89,0.57,0.68,3*0E
$GNGSA,A,3,23,06,16,07,28,40,39,43,10,25,37,,0.89,0.57,0.68,4*0F
$GPGSV,4,1,15,195,66,112,46,21,64,150,42,194,64,054,40,199,60,167,25,1*50
$GPGSV,4,2,15,50,60,167,28,08,59,002,45,02,53,175,44,07,45,314,32,1*6E
$GPGSV,4,3,15,27,29,038,33,16,25,080,26,09,21,242,,196,19,168,23,1*58
$GPGSV,4,4,15,04,15,200,,30,14,319,21,26,06,103,,1*5C
$GPGSV,2,1,07,195,66,112,45,194,64,054,44,199,60,167,39,08,59,002,45,8*52
$GPGSV,2,2,07,27,29,038,44,04,15,200,19,30,14,319,17,8*5E
$GLGSV,2,1,06,81,70,207,33,78,58,047,41,88,50,029,46,79,30,337,29,1*7F
$GLGSV,2,2,06,77,21,115,25,82,20,206,,1*73
$GAGSV,2,1,08,21,55,017,44,13,54,074,39,26,48,171,39,27,27,083,26,7*7D
$GAGSV,2,2,08,19,25,238,,04,12,296,,15,11,037,,33,07,199,,7*71
$GAGSV,1,1,04,21,55,017,45,13,54,074,39,26,48,171,39,27,27,083,21,1*72
$GBGSV,4,1,13,23,75,046,46,09,72,260,13,06,69,214,26,16,65,200,34,1*73
$GBGSV,4,2,13,07,60,311,38,28,59,226,15,40,59,331,39,39,55,188,38,1*7C
$GBGSV,4,3,13,43,55,035,45,10,50,292,30,25,34,121,44,37,33,323,33,1*79
$GBGSV,4,4,13,34,08,040,,1*4F
$GBGSV,2,1,06,23,75,046,48,28,59,226,16,40,59,331,41,39,55,188,29,4*70
$GBGSV,2,2,06,25,34,121,43,37,33,323,25,4*71
$GNACCURACY,4.0*12
$PAIRSAT,1,35,2,0,201,3,0,200,4,0,221,5,0,200,6,0,200,7,0,201,8,0,221,9,0,220,10,0,200,11,0,200,12,0,200,13,0,200,14,0,200,15,0,200,16,0,201,17,0,200,18,0,200,19,0,200,20,0,200,21,0,201,22,0,200,23,0,200,24,0,200,25,0,200,26,0,220,27,0,221,28,0,200,29,0,200,30,0,221,31,0,200,32,0,200,194,0,621,195,0,621,196,0,620,199,0,621*5A
$PAIRSAT,2,24,65,0,200,66,0,200,67,0,200,68,0,200,69,0,200,70,0,200,71,0,200,72,0,200,73,0,200,74,0,200,75,0,200,76,0,200,77,0,201,78,0,201,79,0,201,80,0,200,81,0,201,82,0,201,83,0,200,84,0,200,85,0,200,86,0,200,87,0,200,88,0,201*7A
$PAIRSAT,3,23,2,0,1200,3,0,1200,4,0,1200,5,0,200,7,0,1200,8,0,1200,9,0,1200,10,0,1200,11,0,1200,12,0,1200,13,0,1221,15,0,1220,19,0,1201,21,0,1221,24,0,1200,25,0,1200,26,0,1221,27,0,1221,30,0,1200,31,0,1200,33,0,1200,34,0,1200,36,0,1200*69
$PAIRSAT,4,46,1,0,200,2,0,200,3,0,600,4,0,200,5,0,200,6,0,201,7,0,201,8,0,200,9,0,201,10,0,201,11,0,200,12,0,200,13,0,200,14,0,200,16,0,201,19,0,600,20,0,600,21,0,600,22,0,600,23,0,621,24,0,600,25,0,621,26,0,600,27,0,600,28,0,621,29,0,600,30,0,600,32,0,600,33,0,600,34,0,621,35,0,600,36,0,600,37,0,621,38,0,600,39,0,621,40,0,621,41,0,600,42,0,600,43,0,621,44,0,600,45,0,600,46,0,600,59,0,400,60,0,400,61,0,400,62,0,400*48
$PAIRDGP,10,2,4,7,8,9,16,21,26,27,30*42
$GNGGA,041843.200,2500.8014269,N,12132.4318513,E,2,46,0.57,17.606,M,15.25,M,1,3335*46
$GNRMC,041843.200,A,2500.8014269,N,12132.4318513,E,0.02,312.77,090324,,,D,V*04
$GPHDT,,T*1B
$GNACCURACY,4.0*12
$GNGGA,041843.300,2500.8014269,N,12132.4318513,E,2,46,0.57,17.607,M,15.25,M,1,3335*46
$GNRMC,041843.300,A,2500.8014269,N,12132.4318513,E,0.01,312.77,090324,,,D,V*06
$GPHDT,,T*1B
$GNACCURACY,4.0*12
$GNGGA,041843.400,2500.8014269,N,12132.4318573,E,2,45,0.57,17.608,M,15.25,M,1,3335*4B
$GNRMC,041843.400,A,2500.8014269,N,12132.4318573,E,0.00,312.77,090324,,,D,V*06
$GPHDT,,T*1B
$GNACCURACY,4.0*12
$GNGGA,041843.500,2500.8014269,N,12132.4318633,E,2,47,0.57,17.608,M,15.25,M,0,3335*4E
$GNRMC,041843.500,A,2500.8014269,N,12132.4318633,E,0.01,312.77,090324,,,D,V*01
$GPHDT,,T*1B
$GNACCURACY,4.0*12
$GNGGA,041843.600,2500.8014209,N,12132.4318633,E,2,48,0.55,17.610,M,15.25,M,0,3335*4F
$GNRMC,041843.600,A,2500.8014209,N,12132.4318633,E,0.01,312.77,090324,,,D,V*04
$GPHDT,,T*1B
$GNACCURACY,4.0*12
$GNGGA,041843.700,2500.8014209,N,12132.4318633,E,2,48,0.55,17.612,M,15.25,M,0,3335*4C
$GNRMC,041843.700,A,2500.8014209,N,12132.4318633,E,0.01,312.77,090324,,,D,V*05
$GPHDT,,T*1B
$GNACCURACY,4.0*12
$GNGGA,041843.800,2500.8014149,N,12132.4318693,E,2,48,0.55,17.612,M,15.25,M,0,3335*4E
$GNRMC,041843.800,A,2500.8014149,N,12132.4318693,E,0.01,312.77,090324,,,D,V*07
$GPHDT,,T*1B
$GNACCURACY,4.0*12
$GNGGA,041843.900,2500.8014149,N,12132.4318753,E,2,48,0.55,17.611,M,15.25,M,0,3335*41
$GNRMC,041843.900,A,2500.8014149,N,12132.4318753,E,0.01,312.77,090324,,,D,V*0B
$GPHDT,,T*1B
$GNACCURACY,4.0*12
$GNGGA,041844.000,2500.8014089,N,12132.4318813,E,2,48,0.55,17.613,M,15.25,M,1,3335*4A
$GNRMC,041844.000,A,2500.8014089,N,12132.4318813,E,0.01,312.77,090324,,,D,V*03
$GPHDT,,T*1B
$GNACCURACY,4.0*12
$GNGGA,041844.100,2500.8014089,N,12132.4318873,E,2,48,0.55,17.615,M,15.25,M,1,3335*4B
$GNRMC,041844.100,A,2500.8014089,N,12132.4318873,E,0.01,312.77,090324,,,D,V*04
$GPHDT,,T*1B
$GNGSA,A,3,195,21,194,199,08,02,07,27,16,196,04,30,0.85,0.55,0.64,1*0B
$GNGSA,A,3,81,78,88,79,77,,,,,,,,0.85,0.55,0.64,2*05
$GNGSA,A,3,21,13,26,27,,,,,,,,,0.85,0.55,0.64,3*0C
$GNGSA,A,3,23,06,16,07,28,40,39,43,10,25,37,,0.85,0.55,0.64,4*0D
$GPGSV,4,1,15,195,66,112,46,21,64,150,42,194,64,054,40,199,60,167,25,1*50
$GPGSV,4,2,15,50,60,167,28,08,59,002,45,02,53,175,44,07,45,314,33,1*6F
$GPGSV,4,3,15,27,29,038,35,16,25,080,26,09,21,242,,196,19,168,22,1*5F
$GPGSV,4,4,15,04,15,200,,30,14,319,21,26,06,103,,1*5C
$GPGSV,2,1,08,195,66,112,45,194,64,054,44,199,60,167,39,08,59,002,45,8*5D
$GPGSV,2,2,08,27,29,038,44,196,19,168,25,04,15,200,19,30,14,319,16,8*5E
$GLGSV,2,1,06,81,70,207,33,78,58,047,40,88,50,029,46,79,30,337,29,1*7E
$GLGSV,2,2,06,77,21,115,25,82,20,206,,1*73
$GAGSV,2,1,07,21,55,017,44,13,54,074,39,26,48,171,39,27,27,083,28,7*7C
$GAGSV,2,2,07,19,25,238,,04,12,296,,15,11,037,,7*48
$GAGSV,1,1,04,21,55,017,45,13,54,074,38,26,48,171,39,27,27,083,18,1*79
$GBGSV,4,1,13,23,75,046,46,09,72,260,13,06,69,214,26,16,65,200,34,1*73
$GBGSV,4,2,13,07,60,311,38,28,59,226,16,40,59,331,39,39,55,189,38,1*7E
$GBGSV,4,3,13,43,54,035,45,10,50,292,30,25,34,121,44,37,33,323,32,1*79
$GBGSV,4,4,13,34,08,040,,1*4F
$GBGSV,2,1,07,23,75,046,48,28,59,226,16,40,59,331,41,39,55,189,29,4*70
$GBGSV,2,2,07,43,54,035,41,25,34,121,43,37,33,323,28,4*48
$GNACCURACY,4.0*12
$PAIRSAT,1,35,2,0,201,3,0,200,4,0,221,5,0,200,6,0,200,7,0,201,8,0,221,9,0,220,10,0,200,11,0,200,12,0,200,13,0,200,14,0,200,15,0,200,16,0,201,17,0,200,18,0,200,19,0,200,20,0,200,21,0,201,22,0,200,23,0,200,24,0,200,25,0,200,26,0,220,27,0,221,28,0,200,29,0,200,30,0,221,31,0,200,32,0,200,194,0,621,195,0,621,196,0,620,199,0,621*5A
$PAIRSAT,2,24,65,0,200,66,0,200,67,0,200,68,0,200,69,0,200,70,0,200,71,0,200,72,0,200,73,0,200,74,0,200,75,0,200,76,0,200,77,0,201,78,0,201,79,0,201,80,0,200,81,0,201,82,0,201,83,0,200,84,0,200,85,0,200,86,0,200,87,0,200,88,0,201*7A
$PAIRSAT,3,23,2,0,1200,3,0,1200,4,0,1200,5,0,200,7,0,1200,8,0,1200,9,0,1200,10,0,1200,11,0,1200,12,0,1200,13,0,1221,15,0,1220,19,0,1201,21,0,1221,24,0,1200,25,0,1200,26,0,1221,27,0,1221,30,0,1200,31,0,1200,33,0,1200,34,0,1200,36,0,1200*69
$PAIRSAT,4,46,1,0,200,2,0,200,3,0,600,4,0,200,5,0,200,6,0,201,7,0,201,8,0,200,9,0,201,10,0,201,11,0,200,12,0,200,13,0,200,14,0,200,16,0,201,19,0,600,20,0,600,21,0,600,22,0,600,23,0,621,24,0,600,25,0,621,26,0,600,27,0,600,28,0,621,29,0,600,30,0,600,32,0,600,33,0,600,34,0,621,35,0,600,36,0,600,37,0,621,38,0,600,39,0,621,40,0,621,41,0,600,42,0,600,43,0,621,44,0,600,45,0,600,46,0,600,59,0,400,60,0,400,61,0,400,62,0,400*48
$PAIRDGP,10,2,4,7,8,9,16,21,26,27,30*42
$GNGGA,041844.200,2500.8014089,N,12132.4318933,E,2,48,0.55,17.617,M,15.25,M,1,3335*4F
$GNRMC,041844.200,A,2500.8014089,N,12132.4318933,E,0.02,312.77,090324,,,D,V*01
$GPHDT,,T*1B
$GNACCURACY,4.0*12
$GNGGA,041844.300,2500.8014029,N,12132.4318933,E,2,48,0.55,17.618,M,15.25,M,1,3335*4B
$GNRMC,041844.300,A,2500.8014029,N,12132.4318933,E,0.01,312.77,090324,,,D,V*09
$GPHDT,,T*1B
$GNACCURACY,4.0*12
$GNGGA,041844.400,2500.8014029,N,12132.4318993,E,2,48,0.55,17.620,M,15.25,M,1,3335*4D
$GNRMC,041844.400,A,2500.8014029,N,12132.4318993,E,0.02,312.77,090324,,,D,V*07
$GPHDT,,T*1B
$GNACCURACY,4.0*12
$GNGGA,041844.500,2500.8013969,N,12132.4318993,E,2,48,0.55,17.621,M,15.25,M,1,3335*47
$GNRMC,041844.500,A,2500.8013969,N,12132.4318993,E,0.01,312.77,090324,,,D,V*0F
$GPHDT,,T*1B
$GNACCURACY,4.0*12
$GNGGA,041844.600,2500.8013969,N,12132.4319053,E,2,47,0.55,17.623,M,15.25,M,0,3335*4C
$GNRMC,041844.600,A,2500.8013969,N,12132.4319053,E,0.02,312.77,090324,,,D,V*0B
$GPHDT,,T*1B
$GNACCURACY,4.0*12
$GNGGA,041844.700,2500.8013909,N,12132.4319113,E,2,47,0.52,17.624,M,15.25,M,0,3335*4E
$GNRMC,041844.700,A,2500.8013909,N,12132.4319113,E,0.01,312.77,090324,,,D,V*0A
$GPHDT,,T*1B
$GNACCURACY,4.1*13
$GNGGA,041844.800,2500.8013909,N,12132.4319113,E,2,46,0.55,17.624,M,15.25,M,0,3335*47
$GNRMC,041844.800,A,2500.8013909,N,12132.4319113,E,0.01,312.77,090324,,,D,V*05
$GPHDT,,T*1B
$GNACCURACY,4.1*13
$GNGGA,041844.900,2500.8013909,N,12132.4319173,E,2,47,0.55,17.625,M,15.25,M,0,3335*40
$GNRMC,041844.900,A,2500.8013909,N,12132.4319173,E,0.01,312.77,090324,,,D,V*02
$GPHDT,,T*1B
$GNACCURACY,4.1*13
$GNGGA,041845.000,2500.8013909,N,12132.4319233,E,2,47,0.55,17.624,M,15.25,M,1,3335*4F
$GNRMC,041845.000,A,2500.8013909,N,12132.4319233,E,0.01,312.77,090324,,,D,V*0D
$GPHDT,,T*1B
$GNACCURACY,4.1*13
$GNGGA,041845.100,2500.8013909,N,12132.4319293,E,2,48,0.52,17.624,M,15.25,M,1,3335*4C
$GNRMC,041845.100,A,2500.8013909,N,12132.4319293,E,0.01,312.77,090324,,,D,V*06
$GPHDT,,T*1B
$GNGSA,A,3,195,21,194,199,08,02,07,27,16,09,196,04,0.82,0.52,0.63,1*06
$GNGSA,A,3,30,,,,,,,,,,,,0.82,0.52,0.63,1*0A
$GNGSA,A,3,81,78,88,79,77,,,,,,,,0.82,0.52,0.63,2*02
$GNGSA,A,3,21,13,26,27,,,,,,,,,0.82,0.52,0.63,3*0B
$GNGSA,A,3,23,16,07,28,40,39,43,10,25,37,,,0.82,0.52,0.63,4*0C
$GPGSV,4,1,15,195,66,112,46,21,64,150,42,194,64,054,40,199,60,167,25,1*50
$GPGSV,4,2,15,50,60,167,28,08,59,002,45,02,53,175,44,07,45,314,33,1*6F
$GPGSV,4,3,15,27,29,038,34,16,25,080,26,09,21,242,17,196,19,168,22,1*58
$GPGSV,4,4,15,04,15,200,,30,14,319,19,26,06,103,,1*57
$GPGSV,2,1,08,195,66,112,45,194,64,054,44,199,60,167,39,08,59,002,45,8*5D
$GPGSV,2,2,08,27,29,038,44,196,19,168,23,04,15,200,19,30,14,319,16,8*58
$GLGSV,2,1,06,81,70,207,33,78,58,047,40,88,50,029,46,79,30,337,29,1*7E
$GLGSV,2,2,06,77,21,115,25,82,20,206,,1*73
$GAGSV,2,1,08,21,55,017,44,13,54,074,39,26,48,171,39,27,27,083,28,7*73
$GAGSV,2,2,08,19,25,238,,04,12,296,,15,11,037,18,33,07,199,,7*78
$GAGSV,1,1,04,21,55,017,45,13,54,074,38,26,48,171,39,27,27,083,15,1*74
$GBGSV,4,1,13,23,75,046,46,09,72,260,14,06,69,214,25,16,65,200,34,1*77
$GBGSV,4,2,13,07,60,311,38,28,59,226,17,40,59,331,39,39,55,189,38,1*7F
$GBGSV,4,3,13,43,54,035,45,10,50,292,30,25,34,121,44,37,33,323,32,1*79
$GBGSV,4,4,13,34,08,040,,1*4F
$GBGSV,2,1,06,23,75,046,48,28,59,226,16,40,59,331,41,39,55,189,29,4*71
$GBGSV,2,2,06,25,34,121,43,37,33,323,27,4*73
$GNACCURACY,4.1*13
$PAIRSAT,1,35,2,0,201,3,0,200,4,0,221,5,0,200,6,0,200,7,0,201,8,0,221,9,0,220,10,0,200,11,0,200,12,0,200,13,0,200,14,0,200,15,0,200,16,0,201,17,0,200,18,0,200,19,0,200,20,0,200,21,0,201,22,0,200,23,0,200,24,0,200,25,0,200,26,0,220,27,0,221,28,0,200,29,0,200,30,0,221,31,0,200,32,0,200,194,0,621,195,0,621,196,0,620,199,0,621*5A
$PAIRSAT,2,24,65,0,200,66,0,200,67,0,200,68,0,200,69,0,200,70,0,200,71,0,200,72,0,200,73,0,200,74,0,200,75,0,200,76,0,200,77,0,201,78,0,201,79,0,201,80,0,200,81,0,201,82,0,201,83,0,200,84,0,200,85,0,200,86,0,200,87,0,200,88,0,201*7A
$PAIRSAT,3,23,2,0,1200,3,0,1200,4,0,1200,5,0,200,7,0,1200,8,0,1200,9,0,1200,10,0,1200,11,0,1200,12,0,1200,13,0,1221,15,0,1220,19,0,1201,21,0,1221,24,0,1200,25,0,1200,26,0,1221,27,0,1221,30,0,1200,31,0,1200,33,0,1200,34,0,1200,36,0,1200*69
$PAIRSAT,4,46,1,0,200,2,0,200,3,0,600,4,0,200,5,0,200,6,0,201,7,0,201,8,0,200,9,0,201,10,0,201,11,0,200,12,0,200,13,0,200,14,0,200,16,0,201,19,0,600,20,0,600,21,0,600,22,0,600,23,0,621,24,0,600,25,0,621,26,0,600,27,0,600,28,0,621,29,0,600,30,0,600,32,0,600,33,0,600,34,0,621,35,0,600,36,0,600,37,0,621,38,0,600,39,0,621,40,0,621,41,0,600,42,0,600,43,0,621,44,0,600,45,0,600,46,0,600,59,0,400,60,0,400,61,0,400,62,0,400*48
$PAIRDGP,10,2,4,7,8,9,16,21,26,27,30*42
$GNGGA,041845.200,2500.8013849,N,12132.4319353,E,2,48,0.52,17.626,M,15.25,M,1,3335*45
$GNRMC,041845.200,A,2500.8013849,N,12132.4319353,E,0.01,312.77,090324,,,D,V*0D
$GPHDT,,T*1B
$GNACCURACY,4.1*13
$GNGGA,041845.300,2500.8013849,N,12132.4319353,E,2,48,0.52,17.625,M,15.25,M,1,3335*47
$GNRMC,041845.300,A,2500.8013849,N,12132.4319353,E,0.01,312.77,090324,,,D,V*0C
$GPHDT,,T*1B
$GNACCURACY,4.1*13
$GNGGA,041845.400,2500.8013849,N,12132.4319413,E,2,49,0.52,17.625,M,15.25,M,1,3335*42
$GNRMC,041845.400,A,2500.8013849,N,12132.4319413,E,0.01,312.77,090324,,,D,V*08
$GPHDT,,T*1B
$GNACCURACY,4.1*13
$GNGGA,041845.500,2500.8013789,N,12132.4319473,E,2,49,0.51,17.626,M,15.25,M,1,3335*46
$GNRMC,041845.500,A,2500.8013789,N,12132.4319473,E,0.01,312.77,090324,,,D,V*0C
$GPHDT,,T*1B
$GNACCURACY,4.1*13
$GNGGA,041845.600,2500.8013789,N,12132.4319473,E,2,50,0.51,17.626,M,15.25,M,0,3335*4C
$GNRMC,041845.600,A,2500.8013789,N,12132.4319473,E,0.01,312.77,090324,,,D,V*0F
$GPHDT,,T*1B
$GNACCURACY,4.1*13
$GNGGA,041845.700,2500.8013729,N,12132.4319533,E,2,50,0.51,17.625,M,15.25,M,0,3335*41
$GNRMC,041845.700,A,2500.8013729,N,12132.4319533,E,0.00,312.77,090324,,,D,V*00
$GPHDT,,T*1B
$GNACCURACY,4.1*13
$GNGGA,041845.800,2500.8013669,N,12132.4319593,E,2,49,0.53,17.626,M,15.25,M,0,3335*48
$GNRMC,041845.800,A,2500.8013669,N,12132.4319593,E,0.01,312.77,090324,,,D,V*01
$GPHDT,,T*1B
$GNACCURACY,4.1*13
$GNGGA,041845.900,2500.8013669,N,12132.4319713,E,2,51,0.51,17.626,M,15.25,M,0,3335*48
$GNRMC,041845.900,A,2500.8013669,N,12132.4319713,E,0.01,312.77,090324,,,D,V*0A
$GPHDT,,T*1B
$GNACCURACY,4.1*13
$GNGGA,041846.000,2500.8013609,N,12132.4319773,E,2,51,0.51,17.626,M,15.25,M,1,3335*43
$GNRMC,041846.000,A,2500.8013609,N,12132.4319773,E,0.02,312.77,090324,,,D,V*03
$GPHDT,,T*1B
$GNACCURACY,4.1*13
$GNGGA,041846.100,2500.8013609,N,12132.4319833,E,2,51,0.51,17.624,M,15.25,M,1,3335*4B
$GNRMC,041846.100,A,2500.8013609,N,12132.4319833,E,0.01,312.77,090324,,,D,V*0A
$GPHDT,,T*1B
$GNGSA,A,3,195,21,194,199,08,02,07,27,16,09,196,04,0.78,0.51,0.59,1*09
$GNGSA,A,3,30,,,,,,,,,,,,0.78,0.51,0.59,1*05
$GNGSA,A,3,81,78,88,79,77,,,,,,,,0.78,0.51,0.59,2*0D
$GNGSA,A,3,21,13,26,27,15,,,,,,,,0.78,0.51,0.59,3*00
$GNGSA,A,3,23,06,16,07,28,40,39,43,10,25,37,,0.78,0.51,0.59,4*05
$GPGSV,4,1,15,195,66,112,46,21,64,150,42,194,64,054,40,199,60,167,25,1*50
$GPGSV,4,2,15,50,60,167,28,08,59,002,45,02,53,175,44,07,45,314,32,1*6E
$GPGSV,4,3,15,27,29,038,35,16,25,080,25,09,21,242,17,196,19,168,23,1*5B
$GPGSV,4,4,15,04,15,200,,30,14,319,20,26,06,103,,1*5D
$GPGSV,2,1,08,195,66,112,45,194,64,054,44,199,60,167,39,08,59,002,45,8*5D
$GPGSV,2,2,08,27,29,038,44,196,19,168,25,04,15,200,19,30,14,319,16,8*5E
$GLGSV,2,1,06,81,70,207,33,78,58,047,40,88,50,029,46,79,30,337,28,1*7F
$GLGSV,2,2,06,77,21,115,26,82,20,206,,1*70
$GAGSV,2,1,08,21,55,017,44,13,54,074,39,26,48,171,39,27,27,083,29,7*72
$GAGSV,2,2,08,19,25,238,,04,12,296,,15,11,037,18,33,07,199,,7*78
$GAGSV,2,1,05,21,55,017,45,13,54,074,38,26,48,171,39,27,27,083,17,1*74
$GAGSV,2,2,05,15,11,037,16,1*47
$GBGSV,4,1,13,23,75,046,46,09,72,260,16,06,69,214,25,16,65,200,34,1*75
$GBGSV,4,2,13,07,60,311,38,28,59,226,17,40,59,331,39,39,55,189,38,1*7F
$GBGSV,4,3,13,43,54,035,45,10,50,292,30,25,34,121,44,37,33,323,32,1*79
$GBGSV,4,4,13,34,08,040,,1*4F
$GBGSV,2,1,06,23,75,046,48,28,59,226,15,40,59,331,41,39,55,189,29,4*72
$GBGSV,2,2,06,25,34,121,43,37,33,323,28,4*7C
$GNACCURACY,4.1*13
$PAIRSAT,1,35,2,0,201,3,0,200,4,0,221,5,0,200,6,0,200,7,0,201,8,0,221,9,0,220,10,0,200,11,0,200,12,0,200,13,0,200,14,0,200,15,0,200,16,0,201,17,0,200,18,0,200,19,0,200,20,0,200,21,0,201,22,0,200,23,0,200,24,0,200,25,0,200,26,0,220,27,0,221,28,0,200,29,0,200,30,0,221,31,0,200,32,0,200,194,0,621,195,0,621,196,0,620,199,0,621*5A
$PAIRSAT,2,24,65,0,200,66,0,200,67,0,200,68,0,200,69,0,200,70,0,200,71,0,200,72,0,200,73,0,200,74,0,200,75,0,200,76,0,200,77,0,201,78,0,201,79,0,201,80,0,200,81,0,201,82,0,201,83,0,200,84,0,200,85,0,200,86,0,200,87,0,200,88,0,201*7A
$PAIRSAT,3,23,2,0,1200,3,0,1200,4,0,1200,5,0,200,7,0,1200,8,0,1200,9,0,1200,10,0,1200,11,0,1200,12,0,1200,13,0,1221,15,0,1220,19,0,1201,21,0,1221,24,0,1200,25,0,1200,26,0,1221,27,0,1221,30,0,1200,31,0,1200,33,0,1200,34,0,1200,36,0,1200*69
$PAIRSAT,4,46,1,0,200,2,0,200,3,0,600,4,0,200,5,0,200,6,0,201,7,0,201,8,0,200,9,0,201,10,0,201,11,0,200,12,0,200,13,0,200,14,0,200,16,0,201,19,0,600,20,0,600,21,0,600,22,0,600,23,0,621,24,0,600,25,0,621,26,0,600,27,0,600,28,0,621,29,0,600,30,0,600,32,0,600,33,0,600,34,0,621,35,0,600,36,0,600,37,0,621,38,0,600,39,0,621,40,0,621,41,0,600,42,0,600,43,0,621,44,0,600,45,0,600,46,0,600,59,0,400,60,0,400,61,0,400,62,0,400*48
$PAIRDGP,10,2,4,7,8,9,16,21,26,27,30*42
$GNGGA,041846.200,2500.8013609,N,12132.4319833,E,2,51,0.51,17.623,M,15.25,M,1,3335*4F
$GNRMC,041846.200,A,2500.8013609,N,12132.4319833,E,0.01,312.77,090324,,,D,V*09
$GPHDT,,T*1B
$GNACCURACY,4.0*12
$GNGGA,041846.300,2500.8013549,N,12132.4319893,E,2,50,0.51,17.622,M,15.25,M,1,3335*43
$GNRMC,041846.300,A,2500.8013549,N,12132.4319893,E,0.00,312.77,090324,,,D,V*04
$GPHDT,,T*1B
$GNACCURACY,4.0*12
$GNGGA,041846.400,2500.8013489,N,12132.4320013,E,2,50,0.51,17.622,M,15.25,M,1,3335*43
$GNRMC,041846.400,A,2500.8013489,N,12132.4320013,E,0.01,312.77,090324,,,D,V*05
$GPHDT,,T*1B
$GNACCURACY,4.0*12
$GNGGA,041846.500,2500.8013489,N,12132.4320073,E,2,50,0.51,17.621,M,15.25,M,0,3335*46
$GNRMC,041846.500,A,2500.8013489,N,12132.4320073,E,0.00,312.77,090324,,,D,V*03
$GPHDT,,T*1B
$GNACCURACY,4.0*12
$GNGGA,041846.600,2500.8013429,N,12132.4320133,E,2,50,0.51,17.621,M,15.25,M,0,3335*4A
$GNRMC,041846.600,A,2500.8013429,N,12132.4320133,E,0.01,312.77,090324,,,D,V*0E
$GPHDT,,T*1B
