$FW : RTK35X,V1.1X0314AS,Lib20210517,1*54
$Tool : LOCOSYS , GNSS Firebird , v1.0.0.19*39
$---------------------------------------------------*2D
M,1,3335*71
$GNRMC,041939.100,A,2500.8016549,N,12132.4304533,E,0.07,312.77,090324,,,D,V*06
$GPHDT,,T*1B
$GNGSA,A,3,195,21,194,199,08,02,07,27,16,196,04,30,0.94,0.55,0.76,1*08
$GNGSA,A,3,81,78,88,79,77,,,,,,,,0.94,0.55,0.76,2*06
$GNGSA,A,3,21,13,26,27,15,,,,,,,,0.94,0.55,0.76,3*0B
$GNGSA,A,3,23,09,06,16,07,40,39,43,10,25,37,,0.94,0.55,0.76,4*0D
$GPGSV,4,1,15,195,66,111,46,21,65,149,37,194,64,054,38,199,60,167,25,1*57
$GPGSV,4,2,15,50,60,167,28,08,59,002,29,02,54,175,41,07,45,314,24,1*61
$GPGSV,4,3,15,27,29,038,30,16,25,080,40,09,21,242,13,196,19,168,18,1*51
$GPGSV,4,4,15,30,15,319,25,04,14,200,19,26,06,103,,1*50
$GPGSV,2,1,07,195,66,111,46,194,64,054,42,199,60,167,36,08,59,002,32,8*5B
$GPGSV,2,2,07,27,29,038,38,30,15,319,30,04,14,200,14,8*5D
$GLGSV,2,1,06,81,71,208,36,78,58,048,36,88,50,028,39,79,30,337,33,1*79
$GLGSV,2,2,06,77,21,116,28,82,20,207,15,1*78
$GAGSV,2,1,08,21,55,018,32,13,54,073,38,26,48,171,31,27,27,084,41,7*7B
$GAGSV,2,2,08,19,25,237,,04,12,295,,15,11,037,19,33,07,199,,7*75
$GAGSV,2,1,05,21,55,018,38,13,54,073,42,26,48,171,31,27,27,084,40,1*76
$GAGSV,2,2,05,15,11,037,14,1*45
$GBGSV,4,1,13,23,76,047,45,09,71,259,22,06,69,214,23,16,65,200,33,1*7B
$GBGSV,4,2,13,07,60,311,38,28,60,227,23,40,59,332,36,39,55,189,37,1*70
$GBGSV,4,3,13,43,54,035,38,10,50,292,28,25,34,122,45,37,34,323,22,1*7E
$GBGSV,4,4,13,34,08,040,16,1*48
$GBGSV,2,1,06,23,76,047,46,40,59,332,40,39,55,189,18,25,34,122,43,4*7C
$GBGSV,2,2,06,37,34,323,32,34,08,040,24,4*78
$GNACCURACY,2.7*13
$PAIRSAT,1,35,2,0,201,3,0,200,4,0,221,5,0,200,6,0,200,7,0,201,8,0,221,9,0,220,10,0,200,11,0,200,12,0,200,13,0,200,14,0,200,15,0,200,16,0,201,17,0,200,18,0,200,19,0,200,20,0,200,21,0,201,22,0,200,23,0,200,24,0,200,25,0,200,26,0,220,27,0,221,28,0,200,29,0,200,30,0,221,31,0,200,32,0,200,194,0,621,195,0,621,196,0,620,199,0,621*5A
$PAIRSAT,2,24,65,0,200,66,0,200,67,0,200,68,0,200,69,0,200,70,0,200,71,0,200,72,0,200,73,0,200,74,0,200,75,0,200,76,0,200,77,0,201,78,0,201,79,0,201,80,0,200,81,0,201,82,0,201,83,0,200,84,0,200,85,0,200,86,0,200,87,0,200,88,0,201*7A
$PAIRSAT,3,23,2,0,1200,3,0,1200,4,0,1200,5,0,200,7,0,1200,8,0,1200,9,0,1200,10,0,1200,11,0,1200,12,0,1200,13,0,1221,15,0,1220,19,0,1201,21,0,1221,24,0,1200,25,0,1200,26,0,1221,27,0,1221,30,0,1200,31,0,1200,33,0,1200,34,0,1200,36,0,1200*69
$PAIRSAT,4,46,1,0,200,2,0,200,3,0,600,4,0,200,5,0,200,6,0,201,7,0,201,8,0,200,9,0,201,10,0,201,11,0,200,12,0,200,13,0,200,14,0,200,16,0,201,19,0,600,20,0,600,21,0,600,22,0,600,23,0,621,24,0,600,25,0,621,26,0,600,27,0,600,28,0,621,29,0,600,30,0,600,32,0,600,33,0,600,34,0,621,35,0,600,36,0,600,37,0,621,38,0,600,39,0,621,40,0,621,41,0,600,42,0,600,43,0,621,44,0,600,45,0,600,46,0,600,59,0,400,60,0,400,61,0,400,62,0,400*48
$PAIRDGP,10,2,4,7,8,9,16,21,26,27,30*42
$GNGGA,041939.200,2500.8016489,N,12132.4304473,E,2,49,0.55,9.630,M,15.25,M,1,3335*7D
$GNRMC,041939.200,A,2500.8016489,N,12132.4304473,E,0.07,312.77,090324,,,D,V*0D
$GPHDT,,T*1B
$GNACCURACY,2.7*13
$GNGGA,041939.300,2500.8016369,N,12132.4304413,E,2,49,0.55,9.618,M,15.25,M,1,3335*79
$GNRMC,041939.300,A,2500.8016369,N,12132.4304413,E,0.06,312.77,090324,,,D,V*02
$GPHDT,,T*1B
$GNACCURACY,2.7*13
$GNGGA,041939.400,2500.8016309,N,12132.4304413,E,2,49,0.55,9.610,M,15.25,M,1,3335*70
$GNRMC,041939.400,A,2500.8016309,N,12132.4304413,E,0.06,312.77,090324,,,D,V*03
$GPHDT,,T*1B
$GNACCURACY,2.7*13
$GNGGA,041939.500,2500.8016249,N,12132.4304353,E,2,50,0.53,9.598,M,15.25,M,1,3335*7A
$GNRMC,041939.500,A,2500.8016249,N,12132.4304353,E,0.06,312.77,090324,,,D,V*04
$GPHDT,,T*1B
$GNACCURACY,2.7*13
$GNGGA,041939.600,2500.8016189,N,12132.4304353,E,2,51,0.53,9.588,M,15.25,M,1,3335*76
$GNRMC,041939.600,A,2500.8016189,N,12132.4304353,E,0.06,312.77,090324,,,D,V*08
$GPHDT,,T*1B
$GNACCURACY,2.7*13
$GNGGA,041939.700,2500.8016129,N,12132.4304353,E,2,52,0.52,9.576,M,15.25,M,0,3335*7F
$GNRMC,041939.700,A,2500.8016129,N,12132.4304353,E,0.06,312.77,090324,,,D,V*03
$GPHDT,,T*1B
$GNACCURACY,2.7*13
$GNGGA,041939.800,2500.8016069,N,12132.4304353,E,2,52,0.52,9.568,M,15.25,M,0,3335*7A
$GNRMC,041939.800,A,2500.8016069,N,12132.4304353,E,0.06,312.77,090324,,,D,V*09
$GPHDT,,T*1B
$GNACCURACY,2.7*13
$GNGGA,041939.900,2500.8015949,N,12132.4304353,E,2,52,0.52,9.558,M,15.25,M,0,3335*70
$GNRMC,041939.900,A,2500.8015949,N,12132.4304353,E,0.06,312.77,090324,,,D,V*00
$GPHDT,,T*1B
$GNACCURACY,2.7*13
$GNGGA,041940.000,2500.8015949,N,12132.4304353,E,2,52,0.52,9.548,M,15.25,M,1,3335*77
$GNRMC,041940.000,A,2500.8015949,N,12132.4304353,E,0.06,312.77,090324,,,D,V*07
$GPHDT,,T*1B
$GNACCURACY,2.7*13
$GNGGA,041940.100,2500.8015889,N,12132.4304353,E,2,52,0.52,9.539,M,15.25,M,1,3335*7D
$GNRMC,041940.100,A,2500.8015889,N,12132.4304353,E,0.06,312.77,090324,,,D,V*0B
$GPHDT,,T*1B
$GNGSA,A,3,195,21,194,199,08,02,07,27,16,196,04,30,0.89,0.52,0.72,1*07
$GNGSA,A,3,81,78,88,79,77,82,,,,,,,0.89,0.52,0.72,2*03
$GNGSA,A,3,21,13,26,27,15,,,,,,,,0.89,0.52,0.72,3*04
$GNGSA,A,3,23,09,06,16,07,28,40,39,43,10,25,37,0.89,0.52,0.72,4*08
$GPGSV,4,1,15,195,66,111,46,21,65,149,37,194,64,054,38,199,60,167,25,1*57
$GPGSV,4,2,15,50,60,167,28,08,59,002,26,02,54,175,41,07,45,314,25,1*6F
$GPGSV,4,3,15,27,29,038,34,16,25,080,40,09,21,242,14,196,19,168,18,1*52
$GPGSV,4,4,15,30,15,319,25,04,14,200,20,26,06,103,,1*5A
$GPGSV,2,1,07,195,66,111,46,194,64,054,42,199,60,167,35,08,59,002,32,8*58
$GPGSV,2,2,07,27,29,038,38,30,15,319,28,04,14,200,14,8*54
$GLGSV,2,1,06,81,71,208,36,78,58,048,37,88,50,028,40,79,30,337,32,1*77
$GLGSV,2,2,06,77,21,116,28,82,20,207,15,1*78
$GAGSV,2,1,08,21,55,018,33,13,54,073,38,26,48,171,30,27,27,084,41,7*7B
$GAGSV,2,2,08,19,25,237,,04,12,295,,15,11,037,20,33,07,199,,7*7F
$GAGSV,2,1,05,21,55,018,38,13,54,073,42,26,48,171,31,27,27,084,40,1*76
$GAGSV,2,2,05,15,11,037,13,1*42
$GBGSV,4,1,13,23,76,047,45,09,71,259,24,06,69,214,23,16,65,200,33,1*7D
$GBGSV,4,2,13,07,60,311,38,28,60,227,21,40,59,332,34,39,55,189,37,1*70
$GBGSV,4,3,13,43,54,035,38,10,50,292,29,25,34,122,45,37,34,323,24,1*79
$GBGSV,4,4,13,34,08,040,16,1*48
$GBGSV,2,1,07,23,76,047,46,40,59,332,39,39,55,189,13,43,54,035,38,4*75
$GBGSV,2,2,07,25,34,122,43,37,34,323,30,34,08,040,24,4*4D
$GNACCURACY,2.7*13
$PAIRSAT,1,35,2,0,201,3,0,200,4,0,221,5,0,200,6,0,200,7,0,201,8,0,221,9,0,220,10,0,200,11,0,200,12,0,200,13,0,200,14,0,200,15,0,200,16,0,201,17,0,200,18,0,200,19,0,200,20,0,200,21,0,201,22,0,200,23,0,200,24,0,200,25,0,200,26,0,220,27,0,221,28,0,200,29,0,200,30,0,221,31,0,200,32,0,200,194,0,621,195,0,621,196,0,620,199,0,621*5A
$PAIRSAT,2,24,65,0,200,66,0,200,67,0,200,68,0,200,69,0,200,70,0,200,71,0,200,72,0,200,73,0,200,74,0,200,75,0,200,76,0,200,77,0,201,78,0,201,79,0,201,80,0,200,81,0,201,82,0,201,83,0,200,84,0,200,85,0,200,86,0,200,87,0,200,88,0,201*7A
$PAIRSAT,3,23,2,0,1200,3,0,1200,4,0,1200,5,0,200,7,0,1200,8,0,1200,9,0,1200,10,0,1200,11,0,1200,12,0,1200,13,0,1221,15,0,1220,19,0,1201,21,0,1221,24,0,1200,25,0,1200,26,0,1221,27,0,1221,30,0,1200,31,0,1200,33,0,1200,34,0,1200,36,0,1200*69
$PAIRSAT,4,46,1,0,200,2,0,200,3,0,600,4,0,200,5,0,200,6,0,201,7,0,201,8,0,200,9,0,201,10,0,201,11,0,200,12,0,200,13,0,200,14,0,200,16,0,201,19,0,600,20,0,600,21,0,600,22,0,600,23,0,621,24,0,600,25,0,621,26,0,600,27,0,600,28,0,621,29,0,600,30,0,600,32,0,600,33,0,600,34,0,621,35,0,600,36,0,600,37,0,621,38,0,600,39,0,621,40,0,621,41,0,600,42,0,600,43,0,621,44,0,600,45,0,600,46,0,600,59,0,400,60,0,400,61,0,400,62,0,400*48
$PAIRDGP,10,2,4,7,8,9,16,21,26,27,30*42
$GNGGA,041940.200,2500.8015829,N,12132.4304353,E,2,51,0.52,9.528,M,15.25,M,1,3335*77
$GNRMC,041940.200,A,2500.8015829,N,12132.4304353,E,0.06,312.77,090324,,,D,V*02
$GPHDT,,T*1B
$GNACCURACY,2.7*13
$GNGGA,041940.300,2500.8015769,N,12132.4304413,E,2,51,0.52,9.519,M,15.25,M,1,3335*7C
$GNRMC,041940.300,A,2500.8015769,N,12132.4304413,E,0.06,312.77,090324,,,D,V*0B
$GPHDT,,T*1B
$GNACCURACY,2.7*13
$GNGGA,041940.400,2500.8015649,N,12132.4304413,E,2,50,0.52,9.508,M,15.25,M,1,3335*79
$GNRMC,041940.400,A,2500.8015649,N,12132.4304413,E,0.06,312.77,090324,,,D,V*0F
$GPHDT,,T*1B
$GNACCURACY,2.7*13
$GNGGA,041940.500,2500.8015649,N,12132.4304473,E,2,51,0.52,9.497,M,15.25,M,1,3335*78
$GNRMC,041940.500,A,2500.8015649,N,12132.4304473,E,0.06,312.77,090324,,,D,V*08
$GPHDT,,T*1B
$GNACCURACY,2.7*13
$GNGGA,041940.600,2500.8015529,N,12132.4304473,E,2,51,0.52,9.485,M,15.25,M,0,3335*7C
$GNRMC,041940.600,A,2500.8015529,N,12132.4304473,E,0.06,312.77,090324,,,D,V*0E
$GPHDT,,T*1B
$GNACCURACY,2.7*13
$GNGGA,041940.700,2500.8015469,N,12132.4304473,E,2,51,0.52,9.470,M,15.25,M,0,3335*72
$GNRMC,041940.700,A,2500.8015469,N,12132.4304473,E,0.06,312.77,090324,,,D,V*0A
$GPHDT,,T*1B
$GNACCURACY,2.7*13
$GNGGA,041940.800,2500.8015409,N,12132.4304533,E,2,51,0.52,9.460,M,15.25,M,0,3335*7F
$GNRMC,041940.800,A,2500.8015409,N,12132.4304533,E,0.05,312.77,090324,,,D,V*05
$GPHDT,,T*1B
$GNACCURACY,2.7*13
$GNGGA,041940.900,2500.8015349,N,12132.4304593,E,2,50,0.52,9.448,M,15.25,M,0,3335*7C
$GNRMC,041940.900,A,2500.8015349,N,12132.4304593,E,0.05,312.77,090324,,,D,V*0D
$GPHDT,,T*1B
$GNACCURACY,2.7*13
$GNGGA,041941.000,2500.8015289,N,12132.4304593,E,2,51,0.52,9.435,M,15.25,M,1,3335*73
$GNRMC,041941.000,A,2500.8015289,N,12132.4304593,E,0.05,312.77,090324,,,D,V*08
$GPHDT,,T*1B
$GNACCURACY,2.7*13
$GNGGA,041941.100,2500.8015229,N,12132.4304653,E,2,50,0.52,9.427,M,15.25,M,1,3335*75
$GNRMC,041941.100,A,2500.8015229,N,12132.4304653,E,0.05,312.77,090324,,,D,V*0C
$GPHDT,,T*1B
$GNGSA,A,3,195,21,194,199,08,02,07,27,16,196,04,30,0.89,0.52,0.72,1*07
$GNGSA,A,3,81,78,88,79,77,82,,,,,,,0.89,0.52,0.72,2*03
$GNGSA,A,3,21,13,26,27,15,,,,,,,,0.89,0.52,0.72,3*04
$GNGSA,A,3,23,09,06,16,07,28,40,39,43,10,25,37,0.89,0.52,0.72,4*08
$GPGSV,4,1,15,195,66,111,46,21,65,149,37,194,64,054,38,199,60,167,24,1*56
$GPGSV,4,2,15,50,60,167,27,08,59,002,30,02,54,175,41,07,45,314,25,1*67
$GPGSV,4,3,15,27,29,038,34,16,25,080,40,09,21,242,15,196,19,168,18,1*53
$GPGSV,4,4,15,30,15,319,25,04,14,200,19,26,06,103,,1*50
$GPGSV,2,1,06,195,66,111,46,194,64,054,42,199,60,167,35,08,59,002,33,8*58
$GPGSV,2,2,06,27,29,038,37,30,15,319,28,8*6C
$GLGSV,2,1,06,81,71,208,36,78,58,048,38,88,50,028,40,79,30,337,29,1*72
$GLGSV,2,2,06,77,21,116,28,82,20,207,17,1*7A
$GAGSV,2,1,07,21,55,018,31,13,54,073,38,26,48,171,30,27,27,084,41,7*76
$GAGSV,2,2,07,19,25,237,,15,11,037,20,33,07,199,,7*49
$GAGSV,2,1,05,21,55,018,38,13,54,073,42,26,48,171,31,27,27,084,40,1*76
$GAGSV,2,2,05,15,11,037,14,1*45
$GBGSV,4,1,13,23,76,047,45,09,71,259,24,06,69,214,23,16,65,200,32,1*7C
$GBGSV,4,2,13,07,60,311,37,28,60,227,20,40,59,332,34,39,55,189,37,1*7E
$GBGSV,4,3,13,43,54,035,38,10,50,292,29,25,34,122,45,37,34,323,24,1*79
$GBGSV,4,4,13,34,08,040,16,1*48
$GBGSV,2,1,06,23,76,047,46,40,59,332,39,39,55,189,13,25,34,122,43,4*79
$GBGSV,2,2,06,37,34,323,29,34,08,040,24,4*72
$GNACCURACY,2.7*13
$PAIRSAT,1,35,2,0,201,3,0,200,4,0,221,5,0,200,6,0,200,7,0,201,8,0,221,9,0,220,10,0,200,11,0,200,12,0,200,13,0,200,14,0,200,15,0,200,16,0,201,17,0,200,18,0,200,19,0,200,20,0,200,21,0,201,22,0,200,23,0,200,24,0,200,25,0,200,26,0,220,27,0,221,28,0,200,29,0,200,30,0,221,31,0,200,32,0,200,194,0,621,195,0,621,196,0,620,199,0,621*5A
$PAIRSAT,2,24,65,0,200,66,0,200,67,0,200,68,0,200,69,0,200,70,0,200,71,0,200,72,0,200,73,0,200,74,0,200,75,0,200,76,0,200,77,0,201,78,0,201,79,0,201,80,0,200,81,0,201,82,0,201,83,0,200,84,0,200,85,0,200,86,0,200,87,0,200,88,0,201*7A
$PAIRSAT,3,23,2,0,1200,3,0,1200,4,0,1200,5,0,200,7,0,1200,8,0,1200,9,0,1200,10,0,1200,11,0,1200,12,0,1200,13,0,1221,15,0,1220,19,0,1201,21,0,1221,24,0,1200,25,0,1200,26,0,1221,27,0,1221,30,0,1200,31,0,1200,33,0,1200,34,0,1200,36,0,1200*69
$PAIRSAT,4,46,1,0,200,2,0,200,3,0,600,4,0,200,5,0,200,6,0,201,7,0,201,8,0,200,9,0,201,10,0,201,11,0,200,12,0,200,13,0,200,14,0,200,16,0,201,19,0,600,20,0,600,21,0,600,22,0,600,23,0,621,24,0,600,25,0,621,26,0,600,27,0,600,28,0,621,29,0,600,30,0,600,32,0,600,33,0,600,34,0,621,35,0,600,36,0,600,37,0,621,38,0,600,39,0,621,40,0,621,41,0,600,42,0,600,43,0,621,44,0,600,45,0,600,46,0,600,59,0,400,60,0,400,61,0,400,62,0,400*48
$PAIRDGP,10,2,4,7,8,9,16,21,26,27,30*42
$GNGGA,041941.200,2500.8015169,N,12132.4304713,E,2,50,0.52,9.417,M,15.25,M,1,3335*77
$GNRMC,041941.200,A,2500.8015169,N,12132.4304713,E,0.05,312.77,090324,,,D,V*0D
$GPHDT,,T*1B
$GNACCURACY,2.7*13
$GNGGA,041941.300,2500.8015109,N,12132.4304773,E,2,50,0.52,9.406,M,15.25,M,1,3335*76
$GNRMC,041941.300,A,2500.8015109,N,12132.4304773,E,0.05,312.77,090324,,,D,V*0C
$GPHDT,,T*1B
$GNACCURACY,2.7*13
$GNGGA,041941.400,2500.8015049,N,12132.4304833,E,2,49,0.52,9.393,M,15.25,M,1,3335*7C
$GNRMC,041941.400,A,2500.8015049,N,12132.4304833,E,0.05,312.77,090324,,,D,V*05
$GPHDT,,T*1B
$GNACCURACY,2.7*13
$GNGGA,041941.500,2500.8014989,N,12132.4304833,E,2,49,0.52,9.380,M,15.25,M,1,3335*7B
$GNRMC,041941.500,A,2500.8014989,N,12132.4304833,E,0.05,312.77,090324,,,D,V*00
$GPHDT,,T*1B
$GNACCURACY,2.8*1C
$GNGGA,041941.600,2500.8014929,N,12132.4304893,E,2,49,0.52,9.365,M,15.25,M,1,3335*73
$GNRMC,041941.600,A,2500.8014929,N,12132.4304893,E,0.05,312.77,090324,,,D,V*03
$GPHDT,,T*1B
$GNACCURACY,2.8*1C
$GNGGA,041941.700,2500.8014809,N,12132.4304893,E,2,49,0.52,9.349,M,15.25,M,1,3335*7F
$GNRMC,041941.700,A,2500.8014809,N,12132.4304893,E,0.05,312.77,090324,,,D,V*01
$GPHDT,,T*1B
$GNACCURACY,2.8*1C
$GNGGA,041941.800,2500.8014809,N,12132.4304953,E,2,49,0.52,9.338,M,15.25,M,0,3335*7A
$GNRMC,041941.800,A,2500.8014809,N,12132.4304953,E,0.05,312.77,090324,,,D,V*03
$GPHDT,,T*1B
$GNACCURACY,2.8*1C
$GNGGA,041941.900,2500.8014749,N,12132.4305013,E,2,49,0.52,9.326,M,15.25,M,0,3335*73
$GNRMC,041941.900,A,2500.8014749,N,12132.4305013,E,0.05,312.77,090324,,,D,V*05
$GPHDT,,T*1B
$GNACCURACY,2.8*1C
$GNGGA,041942.000,2500.8014689,N,12132.4305073,E,2,49,0.52,9.315,M,15.25,M,1,3335*73
$GNRMC,041942.000,A,2500.8014689,N,12132.4305073,E,0.05,312.77,090324,,,D,V*04
$GPHDT,,T*1B
$GNACCURACY,2.8*1C
$GNGGA,041942.100,2500.8014629,N,12132.4305133,E,2,49,0.52,9.303,M,15.25,M,1,3335*7A
$GNRMC,041942.100,A,2500.8014629,N,12132.4305133,E,0.05,312.77,090324,,,D,V*0A
$GPHDT,,T*1B
$GNGSA,A,3,195,21,194,199,08,02,07,27,16,196,04,30,0.90,0.52,0.73,1*0E
$GNGSA,A,3,81,78,88,79,77,82,,,,,,,0.90,0.52,0.73,2*0A
$GNGSA,A,3,21,13,26,27,15,,,,,,,,0.90,0.52,0.73,3*0D
$GNGSA,A,3,23,09,06,16,07,40,39,43,10,25,37,,0.90,0.52,0.73,4*0B
$GPGSV,4,1,15,195,66,111,46,21,65,149,37,194,64,054,38,199,60,167,24,1*56
$GPGSV,4,2,15,50,60,167,27,08,59,002,29,02,54,175,40,07,45,314,24,1*6F
$GPGSV,4,3,15,27,29,038,34,16,25,080,40,09,21,242,12,196,19,168,18,1*54
$GPGSV,4,4,15,30,15,319,23,04,14,200,19,26,06,103,,1*56
$GPGSV,2,1,06,195,66,111,46,194,64,054,42,199,60,167,35,08,59,002,32,8*59
$GPGSV,2,2,06,27,29,038,37,30,15,319,27,8*63
$GLGSV,2,1,07,81,71,208,36,78,58,048,38,88,50,028,40,79,30,337,29,1*73
$GLGSV,2,2,07,77,21,116,29,82,20,207,17,69,02,276,,1*44
$GAGSV,2,1,08,21,55,018,31,13,54,073,38,26,48,171,29,27,27,084,41,7*71
$GAGSV,2,2,08,19,25,237,,04,12,295,,15,11,037,20,33,07,199,,7*7F
$GAGSV,2,1,05,21,55,018,38,13,54,073,42,26,48,171,30,27,27,084,40,1*77
$GAGSV,2,2,05,15,11,037,16,1*47
$GBGSV,4,1,14,23,76,047,45,09,71,259,24,06,69,214,23,16,65,200,32,1*7B
$GBGSV,4,2,14,28,60,227,21,07,60,311,37,40,59,332,35,39,55,189,37,1*79
$GBGSV,4,3,14,43,54,035,38,10,50,292,29,25,34,122,45,37,34,323,26,1*7C
$GBGSV,4,4,14,27,13,222,,34,08,040,14,1*78
$GBGSV,2,1,06,23,76,047,46,40,59,332,38,39,55,189,13,25,34,122,43,4*78
$GBGSV,2,2,06,37,34,323,29,34,08,040,24,4*72
$GNACCURACY,2.8*1C
$PAIRSAT,1,35,2,0,201,3,0,200,4,0,221,5,0,200,6,0,200,7,0,201,8,0,221,9,0,220,10,0,200,11,0,200,12,0,200,13,0,200,14,0,200,15,0,200,16,0,201,17,0,200,18,0,200,19,0,200,20,0,200,21,0,201,22,0,200,23,0,200,24,0,200,25,0,200,26,0,220,27,0,221,28,0,200,29,0,200,30,0,221,31,0,200,32,0,200,194,0,621,195,0,621,196,0,620,199,0,621*5A
$PAIRSAT,2,24,65,0,200,66,0,200,67,0,200,68,0,200,69,0,200,70,0,200,71,0,200,72,0,200,73,0,200,74,0,200,75,0,200,76,0,200,77,0,201,78,0,201,79,0,201,80,0,200,81,0,201,82,0,201,83,0,200,84,0,200,85,0,200,86,0,200,87,0,200,88,0,201*7A
$PAIRSAT,3,23,2,0,1200,3,0,1200,4,0,1200,5,0,200,7,0,1200,8,0,1200,9,0,1200,10,0,1200,11,0,1200,12,0,1200,13,0,1221,15,0,1220,19,0,1201,21,0,1221,24,0,1200,25,0,1200,26,0,1221,27,0,1221,30,0,1200,31,0,1200,33,0,1200,34,0,1200,36,0,1200*69
$PAIRSAT,4,46,1,0,200,2,0,200,3,0,600,4,0,200,5,0,200,6,0,201,7,0,201,8,0,200,9,0,201,10,0,201,11,0,200,12,0,200,13,0,200,14,0,200,16,0,201,19,0,600,20,0,600,21,0,600,22,0,600,23,0,621,24,0,600,25,0,621,26,0,600,27,0,600,28,0,621,29,0,600,30,0,600,32,0,600,33,0,600,34,0,621,35,0,600,36,0,600,37,0,621,38,0,600,39,0,621,40,0,621,41,0,600,42,0,600,43,0,621,44,0,600,45,0,600,46,0,600,59,0,400,60,0,400,61,0,400,62,0,400*48
$PAIRDGP,10,2,4,7,8,9,16,21,26,27,30*42
$GNGGA,041942.200,2500.8014569,N,12132.4305193,E,2,49,0.52,9.291,M,15.25,M,1,3335*7E
$GNRMC,041942.200,A,2500.8014569,N,12132.4305193,E,0.05,312.77,090324,,,D,V*04
$GPHDT,,T*1B
$GNACCURACY,2.8*1C
$GNGGA,041942.300,2500.8014509,N,12132.4305313,E,2,49,0.52,9.280,M,15.25,M,1,3335*73
$GNRMC,041942.300,A,2500.8014509,N,12132.4305313,E,0.04,312.77,090324,,,D,V*08
$GPHDT,,T*1B
$GNACCURACY,2.8*1C
$GNGGA,041942.400,2500.8014509,N,12132.4305373,E,2,49,0.52,9.269,M,15.25,M,1,3335*75
$GNRMC,041942.400,A,2500.8014509,N,12132.4305373,E,0.04,312.77,090324,,,D,V*09
$GPHDT,,T*1B
$GNACCURACY,2.7*13
$GNGGA,041942.500,2500.8014449,N,12132.4305433,E,2,49,0.52,9.257,M,15.25,M,0,3335*7E
$GNRMC,041942.500,A,2500.8014449,N,12132.4305433,E,0.04,312.77,090324,,,D,V*0E
$GPHDT,,T*1B
$GNACCURACY,2.7*13
$GNGGA,041942.600,2500.8014389,N,12132.4305493,E,2,49,0.52,9.245,M,15.25,M,0,3335*7F
$GNRMC,041942.600,A,2500.8014389,N,12132.4305493,E,0.04,312.77,090324,,,D,V*0C
$GPHDT,,T*1B
$GNACCURACY,2.7*13
$GNGGA,041942.700,2500.8014329,N,12132.4305553,E,2,49,0.52,9.233,M,15.25,M,0,3335*78
$GNRMC,041942.700,A,2500.8014329,N,12132.4305553,E,0.04,312.77,090324,,,D,V*0A
$GPHDT,,T*1B
$GNACCURACY,2.8*1C
$GNGGA,041942.800,2500.8014269,N,12132.4305613,E,2,48,0.53,9.221,M,15.25,M,0,3335*76
$GNRMC,041942.800,A,2500.8014269,N,12132.4305613,E,0.04,312.77,090324,,,D,V*07
$GPHDT,,T*1B
$GNACCURACY,2.7*13
$GNGGA,041942.900,2500.8014209,N,12132.4305673,E,2,47,0.55,9.212,M,15.25,M,0,3335*7E
$GNRMC,041942.900,A,2500.8014209,N,12132.4305673,E,0.04,312.77,090324,,,D,V*06
$GPHDT,,T*1B
$GNACCURACY,2.7*13
$GNGGA,041943.000,2500.8014149,N,12132.4305793,E,2,48,0.53,9.201,M,15.25,M,1,3335*74
$GNRMC,041943.000,A,2500.8014149,N,12132.4305793,E,0.04,312.77,090324,,,D,V*06
$GPHDT,,T*1B
$GNACCURACY,2.7*13
$GNGGA,041943.100,2500.8014089,N,12132.4305853,E,2,48,0.53,9.195,M,15.25,M,1,3335*75
$GNRMC,041943.100,A,2500.8014089,N,12132.4305853,E,0.04,312.77,090324,,,D,V*09
$GPHDT,,T*1B
$GNGSA,A,3,195,21,194,199,08,02,27,16,196,30,,,0.96,0.55,0.78,1*07
$GNGSA,A,3,81,78,88,79,77,82,,,,,,,0.96,0.55,0.78,2*00
$GNGSA,A,3,21,13,26,27,15,,,,,,,,0.96,0.55,0.78,3*07
$GNGSA,A,3,23,09,06,16,07,40,39,43,10,25,37,,0.96,0.55,0.78,4*01
$GPGSV,4,1,15,195,66,111,46,21,65,149,37,194,64,054,38,199,60,167,24,1*56
$GPGSV,4,2,15,50,60,167,27,08,59,002,29,02,54,175,40,07,45,314,26,1*6D
$GPGSV,4,3,15,27,29,038,34,16,25,080,40,09,21,242,16,196,19,168,18,1*50
$GPGSV,4,4,15,30,15,319,23,04,14,200,17,26,06,103,,1*58
$GPGSV,2,1,06,195,66,111,46,194,64,054,42,199,60,167,35,08,59,002,31,8*5A
$GPGSV,2,2,06,27,29,038,37,30,15,319,27,8*63
$GLGSV,2,1,06,81,71,208,36,78,58,048,37,88,50,028,40,79,30,337,29,1*7D
$GLGSV,2,2,06,77,21,116,29,82,20,207,17,1*7B
$GAGSV,2,1,08,21,55,018,31,13,54,073,39,26,48,171,29,27,27,084,41,7*70
$GAGSV,2,2,08,19,25,237,,04,12,295,,15,11,037,19,33,07,199,,7*75
$GAGSV,2,1,05,21,55,018,38,13,54,073,42,26,48,171,30,27,27,084,40,1*77
$GAGSV,2,2,05,15,11,037,16,1*47
$GBGSV,4,1,13,23,76,047,45,09,71,259,24,06,69,214,24,16,65,200,32,1*7B
$GBGSV,4,2,13,07,60,311,36,28,60,227,19,40,59,332,35,39,55,189,37,1*74
$GBGSV,4,3,13,43,54,035,38,10,50,292,29,25,34,122,45,37,34,323,26,1*7B
$GBGSV,4,4,13,34,08,040,15,1*4B
$GBGSV,2,1,06,23,76,047,46,40,59,332,38,39,55,189,12,25,34,122,43,4*79
$GBGSV,2,2,06,37,34,323,29,34,08,040,24,4*72
$GNACCURACY,2.8*1C
$PAIRSAT,1,35,2,0,201,3,0,200,4,0,221,5,0,200,6,0,200,7,0,201,8,0,221,9,0,220,10,0,200,11,0,200,12,0,200,13,0,200,14,0,200,15,0,200,16,0,201,17,0,200,18,0,200,19,0,200,20,0,200,21,0,201,22,0,200,23,0,200,24,0,200,25,0,200,26,0,220,27,0,221,28,0,200,29,0,200,30,0,221,31,0,200,32,0,200,194,0,621,195,0,621,196,0,620,199,0,621*5A
$PAIRSAT,2,24,65,0,200,66,0,200,67,0,200,68,0,200,69,0,200,70,0,200,71,0,200,72,0,200,73,0,200,74,0,200,75,0,200,76,0,200,77,0,201,78,0,201,79,0,201,80,0,200,81,0,201,82,0,201,83,0,200,84,0,200,85,0,200,86,0,200,87,0,200,88,0,201*7A
$PAIRSAT,3,23,2,0,1200,3,0,1200,4,0,1200,5,0,200,7,0,1200,8,0,1200,9,0,1200,10,0,1200,11,0,1200,12,0,1200,13,0,1221,15,0,1220,19,0,1201,21,0,1221,24,0,1200,25,0,1200,26,0,1221,27,0,1221,30,0,1200,31,0,1200,33,0,1200,34,0,1200,36,0,1200*69
$PAIRSAT,4,46,1,0,200,2,0,200,3,0,600,4,0,200,5,0,200,6,0,201,7,0,201,8,0,200,9,0,201,10,0,201,11,0,200,12,0,200,13,0,200,14,0,200,16,0,201,19,0,600,20,0,600,21,0,600,22,0,600,23,0,621,24,0,600,25,0,621,26,0,600,27,0,600,28,0,621,29,0,600,30,0,600,32,0,600,33,0,600,34,0,621,35,0,600,36,0,600,37,0,621,38,0,600,39,0,621,40,0,621,41,0,600,42,0,600,43,0,621,44,0,600,45,0,600,46,0,600,59,0,400,60,0,400,61,0,400,62,0,400*48
$PAIRDGP,10,2,4,7,8,9,16,21,26,27,30*42
$GNGGA,041943.200,2500.8014029,N,12132.4305973,E,2,47,0.55,9.184,M,15.25,M,1,3335*76
$GNRMC,041943.200,A,2500.8014029,N,12132.4305973,E,0.04,312.77,090324,,,D,V*03
$GPHDT,,T*1B
$GNACCURACY,2.8*1C
$GNGGA,041943.300,2500.8013969,N,12132.4306033,E,2,47,0.53,9.175,M,15.25,M,1,3335*7B
$GNRMC,041943.300,A,2500.8013969,N,12132.4306033,E,0.04,312.77,090324,,,D,V*06
$GPHDT,,T*1B
$GNACCURACY,2.8*1C
$GNGGA,041943.400,2500.8013969,N,12132.4306093,E,2,48,0.52,9.166,M,15.25,M,1,3335*7A
$GNRMC,041943.400,A,2500.8013969,N,12132.4306093,E,0.04,312.77,090324,,,D,V*0B
$GPHDT,,T*1B
$GNACCURACY,2.8*1C
$GNGGA,041943.500,2500.8013909,N,12132.4306153,E,2,48,0.52,9.157,M,15.25,M,0,3335*73
$GNRMC,041943.500,A,2500.8013909,N,12132.4306153,E,0.04,312.77,090324,,,D,V*01
$GPHDT,,T*1B
$GNACCURACY,2.8*1C
$GNGGA,041943.600,2500.8013789,N,12132.4306273,E,2,48,0.52,9.142,M,15.25,M,0,3335*73
$GNRMC,041943.600,A,2500.8013789,N,12132.4306273,E,0.04,312.77,090324,,,D,V*05
$GPHDT,,T*1B
$GNACCURACY,2.8*1C
$GNGGA,041943.700,2500.8013729,N,12132.4306333,E,2,49,0.52,9.130,M,15.25,M,0,3335*79
$GNRMC,041943.700,A,2500.8013729,N,12132.4306333,E,0.04,312.77,090324,,,D,V*0B
$GPHDT,,T*1B
$GNACCURACY,2.8*1C
$GNGGA,041943.800,2500.8013669,N,12132.4306393,E,2,49,0.52,9.117,M,15.25,M,0,3335*7C
$GNRMC,041943.800,A,2500.8013669,N,12132.4306393,E,0.04,312.77,090324,,,D,V*0B
$GPHDT,,T*1B
$GNACCURACY,2.8*1C
$GNGGA,041943.900,2500.8013609,N,12132.4306453,E,2,49,0.52,9.105,M,15.25,M,0,3335*73
$GNRMC,041943.900,A,2500.8013609,N,12132.4306453,E,0.04,312.77,090324,,,D,V*07
$GPHDT,,T*1B
$GNACCURACY,2.8*1C
$GNGGA,041944.000,2500.8013549,N,12132.4306513,E,2,49,0.52,9.092,M,15.25,M,1,3335*71
$GNRMC,041944.000,A,2500.8013549,N,12132.4306513,E,0.04,312.77,090324,,,D,V*0B
$GPHDT,,T*1B
$GNACCURACY,2.8*1C
$GNGGA,041944.100,2500.8013489,N,12132.4306573,E,2,49,0.52,9.073,M,15.25,M,1,3335*74
$GNRMC,041944.100,A,2500.8013489,N,12132.4306573,E,0.04,312.77,090324,,,D,V*01
$GPHDT,,T*1B
$GNGSA,A,3,195,21,194,199,08,02,07,27,16,196,04,30,0.89,0.52,0.72,1*07
$GNGSA,A,3,81,78,88,79,77,82,,,,,,,0.89,0.52,0.72,2*03
$GNGSA,A,3,21,13,26,27,15,,,,,,,,0.89,0.52,0.72,3*04
$GNGSA,A,3,23,09,06,16,07,28,40,39,43,10,25,37,0.89,0.52,0.72,4*08
$GPGSV,4,1,15,195,66,111,46,21,65,149,37,194,64,054,37,199,60,167,24,1*59
$GPGSV,4,2,15,50,60,167,27,08,59,002,30,02,54,175,40,07,45,314,25,1*66
$GPGSV,4,3,15,27,29,038,33,16,25,080,40,09,21,242,13,196,19,168,17,1*5D
$GPGSV,4,4,15,30,15,319,21,04,14,200,18,26,06,103,,1*55
$GPGSV,2,1,06,195,66,111,46,194,64,054,42,199,60,167,35,08,59,002,31,8*5A
$GPGSV,2,2,06,27,29,038,37,30,15,319,27,8*63
$GLGSV,2,1,06,81,71,208,36,78,58,048,37,88,50,028,41,79,30,337,28,1*7D
$GLGSV,2,2,06,77,20,116,29,82,20,207,17,1*7A
$GAGSV,2,1,08,21,55,018,30,13,54,073,39,26,48,171,29,27,27,084,42,7*72
$GAGSV,2,2,08,19,25,237,,04,12,295,,15,11,037,18,33,07,199,,7*74
$GAGSV,2,1,05,21,55,018,38,13,54,073,42,26,48,171,30,27,27,084,40,1*77
$GAGSV,2,2,05,15,11,037,16,1*47
$GBGSV,4,1,13,23,76,047,45,09,71,259,24,06,69,214,24,16,65,200,32,1*7B
$GBGSV,4,2,13,07,60,311,36,28,60,227,19,40,59,332,35,39,55,189,37,1*74
$GBGSV,4,3,13,43,54,035,38,10,50,292,29,25,34,122,45,37,34,323,24,1*79
$GBGSV,4,4,13,34,08,040,15,1*4B
$GBGSV,2,1,05,23,76,047,46,40,59,332,38,25,34,122,43,37,34,323,29,4*79
$GBGSV,2,2,05,34,08,040,22,4*4D
$GNACCURACY,2.8*1C
$PAIRSAT,1,35,2,0,201,3,0,200,4,0,221,5,0,200,6,0,200,7,0,201,8,0,221,9,0,220,10,0,200,11,0,200,12,0,200,13,0,200,14,0,200,15,0,200,16,0,201,17,0,200,18,0,200,19,0,200,20,0,200,21,0,201,22,0,200,23,0,200,24,0,200,25,0,200,26,0,220,27,0,221,28,0,200,29,0,200,30,0,221,31,0,200,32,0,200,194,0,621,195,0,621,196,0,620,199,0,621*5A
$PAIRSAT,2,24,65,0,200,66,0,200,67,0,200,68,0,200,69,0,200,70,0,200,71,0,200,72,0,200,73,0,200,74,0,200,75,0,200,76,0,200,77,0,201,78,0,201,79,0,201,80,0,200,81,0,201,82,0,201,83,0,200,84,0,200,85,0,200,86,0,200,87,0,200,88,0,201*7A
$PAIRSAT,3,23,2,0,1200,3,0,1200,4,0,1200,5,0,200,7,0,1200,8,0,1200,9,0,1200,10,0,1200,11,0,1200,12,0,1200,13,0,1221,15,0,1220,19,0,1201,21,0,1221,24,0,1200,25,0,1200,26,0,1221,27,0,1221,30,0,1200,31,0,1200,33,0,1200,34,0,1200,36,0,1200*69
$PAIRSAT,4,46,1,0,200,2,0,200,3,0,600,4,0,200,5,0,200,6,0,201,7,0,201,8,0,200,9,0,201,10,0,201,11,0,200,12,0,200,13,0,200,14,0,200,16,0,201,19,0,600,20,0,600,21,0,600,22,0,600,23,0,621,24,0,600,25,0,621,26,0,600,27,0,600,28,0,621,29,0,600,30,0,600,32,0,600,33,0,600,34,0,621,35,0,600,36,0,600,37,0,621,38,0,600,39,0,621,40,0,621,41,0,600,42,0,600,43,0,621,44,0,600,45,0,600,46,0,600,59,0,400,60,0,400,61,0,400,62,0,400*48
$PAIRDGP,10,2,4,7,8,9,16,21,26,27,30*42
$GNGGA,041944.200,2500.8013429,N,12132.4306693,E,2,49,0.52,9.061,M,15.25,M,1,3335*73
$GNRMC,041944.200,A,2500.8013429,N,12132.4306693,E,0.04,312.77,090324,,,D,V*05
$GPHDT,,T*1B
$GNACCURACY,2.8*1C
$GNGGA,041944.300,2500.8013369,N,12132.4306693,E,2,49,0.52,9.047,M,15.25,M,1,3335*75
$GNRMC,041944.300,A,2500.8013369,N,12132.4306693,E,0.04,312.77,090324,,,D,V*07
$GPHDT,,T*1B
$GNACCURACY,2.8*1C
$GNGGA,041944.400,2500.8013309,N,12132.4306753,E,2,49,0.52,9.030,M,15.25,M,1,3335*79
$GNRMC,041944.400,A,2500.8013309,N,12132.4306753,E,0.04,312.77,090324,,,D,V*0B
$GPHDT,,T*1B
$GNACCURACY,2.8*1C
$GNGGA,041944.500,2500.8013249,N,12132.4306813,E,2,49,0.52,9.018,M,15.25,M,1,3335*7C
$GNRMC,041944.500,A,2500.8013249,N,12132.4306813,E,0.04,312.77,090324,,,D,V*04
$GPHDT,,T*1B
