$FW : RTK35X,V1.1X0314AS,Lib20210517,1*54
$Tool : LOCOSYS , GNSS Firebird , v1.0.0.19*39
$---------------------------------------------------*2D
60,13,1*5F
$GPGSV,3,1,10,196,75,068,37,24,68,037,28,199,60,167,45,18,56,237,39,8*6E
$GPGSV,3,2,10,23,55,342,35,194,33,137,38,195,32,180,33,10,22,321,31,8*6B
$GPGSV,3,3,10,25,13,173,24,32,12,274,36,8*6C
$GLGSV,3,1,09,80,47,067,27,73,44,156,44,70,41,018,16,85,31,240,18,1*76
$GLGSV,3,2,09,86,28,295,41,71,24,320,36,69,11,079,22,79,07,029,19,1*70
$GLGSV,3,3,09,84,04,187,,1*47
$GAGSV,3,1,09,13,52,226,34,08,45,030,11,07,45,309,42,26,34,302,38,7*75
$GAGSV,3,2,09,30,29,140,34,02,27,081,16,15,19,174,24,03,08,068,14,7*70
$GAGSV,3,3,09,25,01,040,,7*48
$GAGSV,2,1,07,13,52,226,38,07,45,309,41,08,45,030,33,26,34,302,42,1*7E
$GAGSV,2,2,07,02,27,081,23,15,19,174,23,03,08,068,18,1*4E
$GBGSV,4,1,16,38,83,135,41,08,82,359,42,13,70,329,44,39,70,290,41,1*73
$GBGSV,4,2,16,16,66,265,41,06,65,260,42,46,61,101,17,19,51,351,47,1*78
$GBGSV,4,3,16,09,50,243,32,20,41,069,18,36,40,183,46,35,20,264,20,1*70
$GBGSV,4,4,16,37,19,045,30,29,16,208,26,22,14,305,16,07,05,191,,1*72
$GBGSV,2,1,08,38,83,135,44,39,70,290,45,46,61,101,30,19,51,351,44,4*75
$GBGSV,2,2,08,20,41,069,24,36,40,183,44,35,20,264,29,22,14,305,28,4*78
$GNACCURACY,2.4*10
$PAIRSAT,1,35,1,0,200,2,0,200,3,0,200,4,0,200,5,0,201,6,0,200,7,0,200,8,0,200,9,0,200,10,0,221,11,0,200,12,0,201,13,0,201,14,0,200,15,0,201,16,0,200,17,0,200,18,0,221,19,0,200,20,0,200,21,0,200,23,0,221,24,0,221,25,0,200,26,0,200,27,0,200,28,0,200,29,0,200,30,0,200,31,0,200,32,0,221,194,0,621,195,0,621,196,0,620,199,0,621*68
$PAIRSAT,2,24,65,0,200,66,0,200,67,0,200,68,0,200,69,0,201,70,0,201,71,0,201,72,0,200,73,0,201,74,0,200,75,0,200,76,0,200,77,0,200,78,0,200,79,0,201,80,0,201,81,0,200,82,0,200,83,0,200,84,0,200,85,0,201,86,0,201,87,0,200,88,0,200*7A
$PAIRSAT,3,23,2,0,1221,3,0,1221,4,0,1200,5,0,200,7,0,1221,8,0,1221,9,0,1200,10,0,1200,11,0,1200,12,0,1200,13,0,1221,15,0,1221,19,0,1200,21,0,1200,24,0,1200,25,0,1200,26,0,1221,27,0,1200,30,0,1221,31,0,1200,33,0,1200,34,0,1200,36,0,1200*6A
$PAIRSAT,4,50,1,0,200,2,0,200,3,0,200,4,0,200,5,0,200,6,0,201,7,0,200,8,0,201,9,0,201,10,0,200,11,0,200,12,0,200,13,0,201,14,0,200,15,0,200,16,0,201,19,0,621,20,0,621,21,0,600,22,0,621,23,0,600,24,0,600,25,0,600,26,0,600,27,0,600,28,0,600,29,0,621,30,0,600,31,0,200,32,0,600,33,0,600,34,0,600,35,0,621,36,0,621,37,0,621,38,0,621,39,0,621,40,0,600,41,0,600,42,0,600,43,0,600,44,0,600,45,0,600,46,0,621,56,0,200,57,0,200,58,0,200,59,0,600,60,0,600,61,0,600*41
$PAIRDGP,9,5,10,12,15,18,23,24,25,32*5B
$GNGGA,113809.200,2500.8196801,N,12132.4694800,E,2,61,0.42,21.800,M,15.25,M,27,3335*77
$GNRMC,113809.200,A,2500.8196801,N,12132.4694800,E,0.02,206.39,260623,,,D,V*0C
$GPHDT,,T*1B
$GNACCURACY,2.4*10
$GNGGA,113809.300,2500.8196621,N,12132.4694680,E,2,61,0.42,21.818,M,15.25,M,27,3335*75
$GNRMC,113809.300,A,2500.8196621,N,12132.4694680,E,0.01,206.39,260623,,,D,V*04
$GPHDT,,T*1B
$GNACCURACY,2.4*10
$GNGGA,113809.400,2500.8196441,N,12132.4694560,E,2,61,0.42,21.834,M,15.25,M,27,3335*75
$GNRMC,113809.400,A,2500.8196441,N,12132.4694560,E,0.02,206.39,260623,,,D,V*09
$GPHDT,,T*1B
$GNACCURACY,2.4*10
$GNGGA,113809.500,2500.8196321,N,12132.4694440,E,2,60,0.42,21.849,M,15.25,M,27,3335*7D
$GNRMC,113809.500,A,2500.8196321,N,12132.4694440,E,0.01,206.39,260623,,,D,V*09
$GPHDT,,T*1B
$GNACCURACY,2.4*10
$GNGGA,113809.600,2500.8196141,N,12132.4694320,E,2,60,0.42,21.864,M,15.25,M,27,3335*74
$GNRMC,113809.600,A,2500.8196141,N,12132.4694320,E,0.01,206.39,260623,,,D,V*0F
$GPHDT,,T*1B
$GNACCURACY,2.4*10
$GNGGA,113809.700,2500.8195961,N,12132.4694200,E,2,60,0.42,21.878,M,15.25,M,27,3335*72
$GNRMC,113809.700,A,2500.8195961,N,12132.4694200,E,0.01,206.39,260623,,,D,V*04
$GPHDT,,T*1B
$GNACCURACY,2.4*10
$GNGGA,113809.800,2500.8195781,N,12132.4694140,E,2,60,0.42,21.891,M,15.25,M,27,3335*7D
$GNRMC,113809.800,A,2500.8195781,N,12132.4694140,E,0.00,206.39,260623,,,D,V*0D
$GPHDT,,T*1B
$GNACCURACY,2.4*10
$GNGGA,113809.900,2500.8195601,N,12132.4694020,E,2,60,0.42,21.905,M,15.25,M,27,3335*7E
$GNRMC,113809.900,A,2500.8195601,N,12132.4694020,E,0.00,206.39,260623,,,D,V*02
$GPHDT,,T*1B
$GNACCURACY,2.4*10
$GNGGA,113810.000,2500.8195481,N,12132.4693900,E,2,61,0.42,21.920,M,15.25,M,28,3335*70
$GNRMC,113810.000,A,2500.8195481,N,12132.4693900,E,0.01,206.39,260623,,,D,V*04
$GPHDT,,T*1B
$GNACCURACY,2.4*10
$GNGGA,113810.100,2500.8195301,N,12132.4693780,E,2,61,0.42,21.934,M,15.25,M,28,3335*7D
$GNRMC,113810.100,A,2500.8195301,N,12132.4693780,E,0.01,206.39,260623,,,D,V*0C
$GPHDT,,T*1B
$GNGSA,A,3,196,24,199,18,23,15,194,195,12,10,05,32,0.69,0.42,0.54,1*0B
$GNGSA,A,3,80,73,70,85,86,71,69,,,,,,0.69,0.42,0.54,2*0B
$GNGSA,A,3,13,07,26,30,02,15,08,,,,,,0.69,0.42,0.54,3*07
$GNGSA,A,3,38,08,13,39,16,06,46,19,09,20,36,37,0.69,0.42,0.54,4*06
$GNGSA,A,3,29,35,22,,,,,,,,,,0.69,0.42,0.54,4*01
$GPGSV,4,1,15,196,75,068,26,24,68,037,31,199,60,167,37,18,56,237,40,1*66
$GPGSV,4,2,15,23,55,342,39,41,38,242,23,15,34,052,28,194,33,137,38,1*5F
$GPGSV,4,3,15,195,32,180,27,12,24,137,25,10,22,321,33,05,15,123,29,1*5B
$GPGSV,4,4,15,25,13,173,18,32,12,274,24,13,05,060,13,1*5F
$GPGSV,3,1,10,196,75,068,37,24,68,037,29,199,60,167,45,18,56,237,39,8*6F
$GPGSV,3,2,10,23,55,342,35,194,33,137,38,195,32,180,34,10,22,321,31,8*6C
$GPGSV,3,3,10,25,13,173,24,32,12,274,37,8*6D
$GLGSV,3,1,09,80,47,067,27,73,44,156,44,70,41,018,17,85,31,240,17,1*78
$GLGSV,3,2,09,86,28,295,40,71,24,320,36,69,11,079,22,79,07,029,18,1*70
$GLGSV,3,3,09,84,04,187,,1*47
$GAGSV,3,1,09,13,52,226,34,08,45,030,,07,45,309,42,26,34,302,38,7*75
$GAGSV,3,2,09,30,29,140,32,02,27,081,17,15,19,174,24,03,08,068,14,7*77
$GAGSV,3,3,09,25,01,040,,7*48
$GAGSV,2,1,07,13,52,226,38,07,45,309,41,08,45,030,33,26,34,302,42,1*7E
$GAGSV,2,2,07,02,27,081,23,15,19,174,24,03,08,068,18,1*49
$GBGSV,4,1,16,38,83,135,41,08,82,359,42,13,70,329,44,39,70,290,41,1*73
$GBGSV,4,2,16,16,66,265,41,06,65,260,42,46,61,101,18,19,51,351,47,1*77
$GBGSV,4,3,16,09,50,243,32,20,41,069,17,36,40,183,46,35,20,264,19,1*75
$GBGSV,4,4,16,37,19,045,30,29,16,208,26,22,14,305,18,07,05,191,,1*7C
$GBGSV,3,1,09,38,83,135,45,39,70,290,45,46,61,101,31,19,51,351,44,4*75
$GBGSV,3,2,09,20,41,069,24,36,40,183,44,35,20,264,29,37,19,045,24,4*7A
$GBGSV,3,3,09,22,14,305,29,4*42
$GNACCURACY,2.4*10
$PAIRSAT,1,35,1,0,200,2,0,200,3,0,200,4,0,200,5,0,201,6,0,200,7,0,200,8,0,200,9,0,200,10,0,221,11,0,200,12,0,201,13,0,201,14,0,200,15,0,201,16,0,200,17,0,200,18,0,221,19,0,200,20,0,200,21,0,200,23,0,221,24,0,221,25,0,200,26,0,200,27,0,200,28,0,200,29,0,200,30,0,200,31,0,200,32,0,221,194,0,621,195,0,621,196,0,620,199,0,621*68
$PAIRSAT,2,24,65,0,200,66,0,200,67,0,200,68,0,200,69,0,201,70,0,201,71,0,201,72,0,200,73,0,201,74,0,200,75,0,200,76,0,200,77,0,200,78,0,200,79,0,201,80,0,201,81,0,200,82,0,200,83,0,200,84,0,200,85,0,201,86,0,201,87,0,200,88,0,200*7A
$PAIRSAT,3,23,2,0,1221,3,0,1221,4,0,1200,5,0,200,7,0,1221,8,0,1221,9,0,1200,10,0,1200,11,0,1200,12,0,1200,13,0,1221,15,0,1221,19,0,1200,21,0,1200,24,0,1200,25,0,1200,26,0,1221,27,0,1200,30,0,1221,31,0,1200,33,0,1200,34,0,1200,36,0,1200*6A
$PAIRSAT,4,50,1,0,200,2,0,200,3,0,200,4,0,200,5,0,200,6,0,201,7,0,200,8,0,201,9,0,201,10,0,200,11,0,200,12,0,200,13,0,201,14,0,200,15,0,200,16,0,201,19,0,621,20,0,621,21,0,600,22,0,621,23,0,600,24,0,600,25,0,600,26,0,600,27,0,600,28,0,600,29,0,621,30,0,600,31,0,200,32,0,600,33,0,600,34,0,600,35,0,621,36,0,621,37,0,621,38,0,621,39,0,621,40,0,600,41,0,600,42,0,600,43,0,600,44,0,600,45,0,600,46,0,621,56,0,200,57,0,200,58,0,200,59,0,600,60,0,600,61,0,600*41
$PAIRDGP,9,5,10,12,15,18,23,24,25,32*5B
$GNGGA,113810.200,2500.8195181,N,12132.4693600,E,2,61,0.42,21.950,M,15.25,M,28,3335*7F
$GNRMC,113810.200,A,2500.8195181,N,12132.4693600,E,0.01,206.39,260623,,,D,V*0C
$GPHDT,,T*1B
$GNACCURACY,2.4*10
$GNGGA,113810.300,2500.8195001,N,12132.4693480,E,2,61,0.42,21.965,M,15.25,M,28,3335*7B
$GNRMC,113810.300,A,2500.8195001,N,12132.4693480,E,0.01,206.39,260623,,,D,V*0E
$GPHDT,,T*1B
$GNACCURACY,2.4*10
$GNGGA,113810.400,2500.8194881,N,12132.4693420,E,2,60,0.42,21.979,M,15.25,M,28,3335*7B
$GNRMC,113810.400,A,2500.8194881,N,12132.4693420,E,0.00,206.39,260623,,,D,V*03
$GPHDT,,T*1B
$GNACCURACY,2.4*10
$GNGGA,113810.500,2500.8194701,N,12132.4693240,E,2,61,0.42,21.992,M,15.25,M,28,3335*79
$GNRMC,113810.500,A,2500.8194701,N,12132.4693240,E,0.01,206.39,260623,,,D,V*04
$GPHDT,,T*1B
$GNACCURACY,2.4*10
$GNGGA,113810.600,2500.8194581,N,12132.4693180,E,2,60,0.42,22.007,M,15.25,M,28,3335*78
$GNRMC,113810.600,A,2500.8194581,N,12132.4693180,E,0.01,206.39,260623,,,D,V*02
$GPHDT,,T*1B
$GNACCURACY,2.4*10
$GNGGA,113810.700,2500.8194461,N,12132.4693120,E,2,60,0.42,22.019,M,15.25,M,28,3335*73
$GNRMC,113810.700,A,2500.8194461,N,12132.4693120,E,0.01,206.39,260623,,,D,V*06
$GPHDT,,T*1B
$GNACCURACY,2.4*10
$GNGGA,113810.800,2500.8194281,N,12132.4693000,E,2,61,0.42,22.032,M,15.25,M,28,3335*7F
$GNRMC,113810.800,A,2500.8194281,N,12132.4693000,E,0.00,206.39,260623,,,D,V*03
$GPHDT,,T*1B
$GNACCURACY,2.4*10
$GNGGA,113810.900,2500.8194161,N,12132.4692880,E,2,61,0.42,22.044,M,15.25,M,28,3335*73
$GNRMC,113810.900,A,2500.8194161,N,12132.4692880,E,0.02,206.39,260623,,,D,V*0C
$GPHDT,,T*1B
$GNACCURACY,2.4*10
$GNGGA,113811.000,2500.8194041,N,12132.4692760,E,2,61,0.42,22.055,M,15.25,M,29,3335*78
$GNRMC,113811.000,A,2500.8194041,N,12132.4692760,E,0.01,206.39,260623,,,D,V*05
$GPHDT,,T*1B
$GNACCURACY,2.4*10
$GNGGA,113811.100,2500.8193921,N,12132.4692640,E,2,61,0.42,22.069,M,15.25,M,29,3335*7D
$GNRMC,113811.100,A,2500.8193921,N,12132.4692640,E,0.01,206.39,260623,,,D,V*0F
$GPHDT,,T*1B
$GNGSA,A,3,196,24,199,18,23,15,194,195,12,10,05,32,0.69,0.42,0.54,1*0B
$GNGSA,A,3,80,73,70,85,86,71,69,,,,,,0.69,0.42,0.54,2*0B
$GNGSA,A,3,13,07,26,30,02,15,08,,,,,,0.69,0.42,0.54,3*07
$GNGSA,A,3,38,08,39,13,16,06,46,19,09,20,36,37,0.69,0.42,0.54,4*06
$GNGSA,A,3,29,35,22,,,,,,,,,,0.69,0.42,0.54,4*01
$GPGSV,4,1,15,196,75,068,26,24,68,037,31,199,60,167,37,18,56,237,41,1*67
$GPGSV,4,2,15,23,55,342,39,41,38,242,,15,34,052,27,194,33,137,38,1*51
$GPGSV,4,3,15,195,32,180,28,12,24,137,27,10,22,321,35,05,15,123,28,1*51
$GPGSV,4,4,15,25,13,173,18,32,12,274,27,13,05,060,15,1*5A
$GPGSV,3,1,10,196,75,068,37,24,68,037,32,199,60,167,45,18,56,237,39,8*65
$GPGSV,3,2,10,23,55,342,35,194,33,137,38,195,32,180,35,10,22,321,33,8*6F
$GPGSV,3,3,10,25,13,173,25,32,12,274,37,8*6C
$GLGSV,3,1,09,80,47,067,26,73,44,156,45,70,41,018,17,85,31,240,16,1*79
$GLGSV,3,2,09,86,28,295,40,71,24,320,36,69,11,079,20,79,07,029,18,1*72
$GLGSV,3,3,09,84,04,187,,1*47
$GAGSV,3,1,09,13,52,226,33,07,45,309,42,08,45,030,,26,34,302,38,7*72
$GAGSV,3,2,09,30,29,140,33,02,27,081,17,15,19,174,24,03,08,068,14,7*76
$GAGSV,3,3,09,25,01,040,,7*48
$GAGSV,2,1,07,13,52,226,39,07,45,309,41,08,45,030,34,26,34,302,42,1*78
$GAGSV,2,2,07,02,27,081,23,15,19,174,24,03,08,068,19,1*48
$GBGSV,4,1,15,38,83,135,41,08,82,359,42,39,70,290,41,13,70,329,44,1*70
$GBGSV,4,2,15,16,66,265,41,06,65,260,42,46,61,101,20,19,51,351,47,1*7F
$GBGSV,4,3,15,09,50,243,32,20,41,069,16,36,40,183,46,35,20,264,20,1*7D
$GBGSV,4,4,15,37,19,045,30,29,16,208,27,22,14,305,18,1*45
$GBGSV,3,1,09,38,83,135,46,39,70,290,46,46,61,101,31,19,51,351,44,4*75
$GBGSV,3,2,09,20,41,069,24,36,40,183,44,35,20,264,30,37,19,045,25,4*73
$GBGSV,3,3,09,22,14,305,28,4*43
$GNACCURACY,2.4*10
$PAIRSAT,1,35,1,0,200,2,0,200,3,0,200,4,0,200,5,0,201,6,0,200,7,0,200,8,0,200,9,0,200,10,0,221,11,0,200,12,0,201,13,0,201,14,0,200,15,0,201,16,0,200,17,0,200,18,0,221,19,0,200,20,0,200,21,0,200,23,0,221,24,0,221,25,0,200,26,0,200,27,0,200,28,0,200,29,0,200,30,0,200,31,0,200,32,0,221,194,0,621,195,0,621,196,0,620,199,0,621*68
$PAIRSAT,2,24,65,0,200,66,0,200,67,0,200,68,0,200,69,0,201,70,0,201,71,0,201,72,0,200,73,0,201,74,0,200,75,0,200,76,0,200,77,0,200,78,0,200,79,0,201,80,0,201,81,0,200,82,0,200,83,0,200,84,0,200,85,0,201,86,0,201,87,0,200,88,0,200*7A
$PAIRSAT,3,23,2,0,1221,3,0,1221,4,0,1200,5,0,200,7,0,1221,8,0,1221,9,0,1200,10,0,1200,11,0,1200,12,0,1200,13,0,1221,15,0,1221,19,0,1200,21,0,1200,24,0,1200,25,0,1200,26,0,1221,27,0,1200,30,0,1221,31,0,1200,33,0,1200,34,0,1200,36,0,1200*6A
$PAIRSAT,4,50,1,0,200,2,0,200,3,0,200,4,0,200,5,0,200,6,0,201,7,0,200,8,0,201,9,0,201,10,0,200,11,0,200,12,0,200,13,0,201,14,0,200,15,0,200,16,0,201,19,0,621,20,0,621,21,0,600,22,0,621,23,0,600,24,0,600,25,0,600,26,0,600,27,0,600,28,0,600,29,0,621,30,0,600,31,0,200,32,0,600,33,0,600,34,0,600,35,0,621,36,0,621,37,0,621,38,0,621,39,0,621,40,0,600,41,0,600,42,0,600,43,0,600,44,0,600,45,0,600,46,0,621,56,0,200,57,0,200,58,0,200,59,0,600,60,0,600,61,0,600*41
$PAIRDGP,9,5,10,12,15,18,23,24,25,32*5B
$GNGGA,113811.200,2500.8193741,N,12132.4692580,E,2,61,0.42,22.080,M,15.25,M,29,3335*7E
$GNRMC,113811.200,A,2500.8193741,N,12132.4692580,E,0.02,206.39,260623,,,D,V*08
$GPHDT,,T*1B
$GNACCURACY,2.4*10
$GNGGA,113811.300,2500.8193681,N,12132.4692460,E,2,61,0.42,22.091,M,15.25,M,29,3335*7D
$GNRMC,113811.300,A,2500.8193681,N,12132.4692460,E,0.02,206.39,260623,,,D,V*0B
$GPHDT,,T*1B
$GNACCURACY,2.4*10
$GNGGA,113811.400,2500.8193501,N,12132.4692340,E,2,61,0.42,22.102,M,15.25,M,29,3335*7F
$GNRMC,113811.400,A,2500.8193501,N,12132.4692340,E,0.02,206.39,260623,,,D,V*02
$GPHDT,,T*1B
$GNACCURACY,2.4*10
$GNGGA,113811.500,2500.8193381,N,12132.4692280,E,2,61,0.42,22.117,M,15.25,M,29,3335*79
$GNRMC,113811.500,A,2500.8193381,N,12132.4692280,E,0.02,206.39,260623,,,D,V*00
$GPHDT,,T*1B
$GNACCURACY,2.4*10
$GNGGA,113811.600,2500.8193261,N,12132.4692160,E,2,62,0.42,22.131,M,15.25,M,29,3335*7F
$GNRMC,113811.600,A,2500.8193261,N,12132.4692160,E,0.03,206.39,260623,,,D,V*00
$GPHDT,,T*1B
$GNACCURACY,2.4*10
$GNGGA,113811.700,2500.8193201,N,12132.4692160,E,2,61,0.42,22.144,M,15.25,M,29,3335*79
$GNRMC,113811.700,A,2500.8193201,N,12132.4692160,E,0.03,206.39,260623,,,D,V*07
$GPHDT,,T*1B
$GNACCURACY,2.4*10
$GNGGA,113811.800,2500.8193081,N,12132.4692100,E,2,61,0.42,22.157,M,15.25,M,29,3335*78
$GNRMC,113811.800,A,2500.8193081,N,12132.4692100,E,0.03,206.39,260623,,,D,V*04
$GPHDT,,T*1B
$GNACCURACY,2.4*10
$GNGGA,113811.900,2500.8192961,N,12132.4692040,E,2,61,0.42,22.168,M,15.25,M,29,3335*76
$GNRMC,113811.900,A,2500.8192961,N,12132.4692040,E,0.04,206.39,260623,,,D,V*01
$GPHDT,,T*1B
$GNACCURACY,2.4*10
$GNGGA,113812.000,2500.8192901,N,12132.4692040,E,2,61,0.42,22.182,M,15.25,M,30,3335*76
$GNRMC,113812.000,A,2500.8192901,N,12132.4692040,E,0.03,206.39,260623,,,D,V*0A
$GPHDT,,T*1B
$GNACCURACY,2.4*10
$GNGGA,113812.100,2500.8192781,N,12132.4692040,E,2,61,0.42,22.195,M,15.25,M,30,3335*77
$GNRMC,113812.100,A,2500.8192781,N,12132.4692040,E,0.03,206.39,260623,,,D,V*0D
$GPHDT,,T*1B
$GNGSA,A,3,196,24,199,18,23,15,194,195,12,10,05,32,0.69,0.42,0.54,1*0B
$GNGSA,A,3,80,73,70,85,86,71,69,,,,,,0.69,0.42,0.54,2*0B
$GNGSA,A,3,13,07,26,30,02,15,08,,,,,,0.69,0.42,0.54,3*07
$GNGSA,A,3,38,08,39,13,16,06,46,19,09,20,36,37,0.69,0.42,0.54,4*06
$GNGSA,A,3,29,35,22,,,,,,,,,,0.69,0.42,0.54,4*01
$GPGSV,4,1,15,196,75,068,25,24,68,037,32,199,60,167,35,18,56,237,41,1*65
$GPGSV,4,2,15,23,55,342,39,41,38,242,30,15,34,052,27,194,33,137,39,1*53
$GPGSV,4,3,15,195,32,180,31,12,24,137,26,10,22,321,34,05,15,123,28,1*59
$GPGSV,4,4,15,25,13,173,16,32,12,274,29,13,05,060,15,1*5A
$GPGSV,3,1,10,196,75,068,37,24,68,037,32,199,60,167,45,18,56,237,39,8*65
$GPGSV,3,2,10,23,55,342,35,194,33,137,41,195,32,180,36,10,22,321,30,8*61
$GPGSV,3,3,10,25,13,173,25,32,12,274,36,8*6D
$GLGSV,3,1,09,80,47,067,25,73,44,156,45,70,41,018,17,85,31,240,16,1*7A
$GLGSV,3,2,09,86,28,295,40,71,24,320,36,69,11,079,20,79,07,029,21,1*78
$GLGSV,3,3,09,84,03,187,,1*40
$GAGSV,3,1,09,13,52,226,35,07,45,309,42,08,45,030,,26,34,302,39,7*75
$GAGSV,3,2,09,30,29,140,33,02,27,081,17,15,19,174,24,03,08,068,,7*73
$GAGSV,3,3,09,25,01,040,,7*48
$GAGSV,2,1,07,13,52,226,40,07,45,309,42,08,45,030,34,26,34,302,40,1*77
$GAGSV,2,2,07,02,27,081,23,15,19,174,25,03,08,068,18,1*48
$GBGSV,4,1,15,38,83,135,41,08,82,359,42,39,70,290,40,13,70,329,44,1*71
$GBGSV,4,2,15,16,66,265,41,06,65,260,42,46,61,101,25,19,51,351,47,1*7A
$GBGSV,4,3,15,09,50,243,31,20,41,069,17,36,40,183,46,35,20,264,20,1*7F
$GBGSV,4,4,15,37,19,045,27,29,16,208,23,22,14,305,17,1*48
$GBGSV,3,1,09,38,83,135,46,39,70,290,46,46,61,101,30,19,51,351,44,4*74
$GBGSV,3,2,09,20,41,069,21,36,40,183,45,35,20,264,30,37,19,045,25,4*77
$GBGSV,3,3,09,22,14,305,24,4*4F
$GNACCURACY,2.4*10
$PAIRSAT,1,35,1,0,200,2,0,200,3,0,200,4,0,200,5,0,201,6,0,200,7,0,200,8,0,200,9,0,200,10,0,221,11,0,200,12,0,201,13,0,201,14,0,200,15,0,201,16,0,200,17,0,200,18,0,221,19,0,200,20,0,200,21,0,200,23,0,221,24,0,221,25,0,200,26,0,200,27,0,200,28,0,200,29,0,200,30,0,200,31,0,200,32,0,221,194,0,621,195,0,621,196,0,620,199,0,621*68
$PAIRSAT,2,24,65,0,200,66,0,200,67,0,200,68,0,200,69,0,201,70,0,201,71,0,201,72,0,200,73,0,201,74,0,200,75,0,200,76,0,200,77,0,200,78,0,200,79,0,201,80,0,201,81,0,200,82,0,200,83,0,200,84,0,200,85,0,201,86,0,201,87,0,200,88,0,200*7A
$PAIRSAT,3,23,2,0,1221,3,0,1221,4,0,1200,5,0,200,7,0,1221,8,0,1221,9,0,1200,10,0,1200,11,0,1200,12,0,1200,13,0,1221,15,0,1221,19,0,1200,21,0,1200,24,0,1200,25,0,1200,26,0,1221,27,0,1200,30,0,1221,31,0,1200,33,0,1200,34,0,1200,36,0,1200*6A
$PAIRSAT,4,50,1,0,200,2,0,200,3,0,200,4,0,200,5,0,200,6,0,201,7,0,200,8,0,201,9,0,201,10,0,200,11,0,200,12,0,200,13,0,201,14,0,200,15,0,200,16,0,201,19,0,621,20,0,621,21,0,600,22,0,621,23,0,600,24,0,600,25,0,600,26,0,600,27,0,600,28,0,600,29,0,621,30,0,600,31,0,200,32,0,600,33,0,600,34,0,600,35,0,621,36,0,621,37,0,621,38,0,621,39,0,621,40,0,600,41,0,600,42,0,600,43,0,600,44,0,600,45,0,600,46,0,621,56,0,200,57,0,200,58,0,200,59,0,600,60,0,600,61,0,600*41
$PAIRDGP,9,5,10,12,15,18,23,24,25,32*5B
$GNGGA,113812.200,2500.8192661,N,12132.4691980,E,2,61,0.42,22.208,M,15.25,M,30,3335*7A
$GNRMC,113812.200,A,2500.8192661,N,12132.4691980,E,0.04,206.39,260623,,,D,V*00
$GPHDT,,T*1B
$GNACCURACY,2.4*10
$GNGGA,113812.300,2500.8192541,N,12132.4691860,E,2,61,0.42,22.222,M,15.25,M,30,3335*7D
$GNRMC,113812.300,A,2500.8192541,N,12132.4691860,E,0.04,206.39,260623,,,D,V*0F
$GPHDT,,T*1B
$GNACCURACY,2.4*10
$GNGGA,113812.400,2500.8192481,N,12132.4691800,E,2,61,0.42,22.235,M,15.25,M,30,3335*77
$GNRMC,113812.400,A,2500.8192481,N,12132.4691800,E,0.05,206.39,260623,,,D,V*02
$GPHDT,,T*1B
$GNACCURACY,2.4*10
$GNGGA,113812.500,2500.8192421,N,12132.4691800,E,2,61,0.42,22.244,M,15.25,M,30,3335*7A
$GNRMC,113812.500,A,2500.8192421,N,12132.4691800,E,0.04,206.39,260623,,,D,V*08
$GPHDT,,T*1B
$GNACCURACY,2.4*10
$GNGGA,113812.600,2500.8192301,N,12132.4691800,E,2,61,0.42,22.253,M,15.25,M,30,3335*7A
$GNRMC,113812.600,A,2500.8192301,N,12132.4691800,E,0.04,206.39,260623,,,D,V*0E
$GPHDT,,T*1B
$GNACCURACY,2.4*10
$GNGGA,113812.700,2500.8192241,N,12132.4691740,E,2,61,0.42,22.262,M,15.25,M,30,3335*77
$GNRMC,113812.700,A,2500.8192241,N,12132.4691740,E,0.04,206.39,260623,,,D,V*01
$GPHDT,,T*1B
$GNACCURACY,2.4*10
$GNGGA,113812.800,2500.8192121,N,12132.4691620,E,2,61,0.42,22.273,M,15.25,M,30,3335*7A
$GNRMC,113812.800,A,2500.8192121,N,12132.4691620,E,0.05,206.39,260623,,,D,V*0D
$GPHDT,,T*1B
$GNACCURACY,2.4*10
$GNGGA,113812.900,2500.8192061,N,12132.4691560,E,2,61,0.42,22.285,M,15.25,M,30,3335*70
$GNRMC,113812.900,A,2500.8192061,N,12132.4691560,E,0.06,206.39,260623,,,D,V*0D
$GPHDT,,T*1B
$GNACCURACY,2.4*10
$GNGGA,113813.000,2500.8192001,N,12132.4691500,E,2,61,0.42,22.295,M,15.25,M,31,3335*78
$GNRMC,113813.000,A,2500.8192001,N,12132.4691500,E,0.05,206.39,260623,,,D,V*06
$GPHDT,,T*1B
$GNACCURACY,2.4*10
$GNGGA,113813.100,2500.8191881,N,12132.4691440,E,2,62,0.42,22.306,M,15.25,M,31,3335*77
$GNRMC,113813.100,A,2500.8191881,N,12132.4691440,E,0.05,206.39,260623,,,D,V*01
$GPHDT,,T*1B
$GNGSA,A,3,196,24,199,18,23,15,194,195,12,10,05,32,0.69,0.42,0.54,1*0B
$GNGSA,A,3,80,73,70,85,86,71,69,,,,,,0.69,0.42,0.54,2*0B
$GNGSA,A,3,13,07,26,30,02,15,08,,,,,,0.69,0.42,0.54,3*07
$GNGSA,A,3,38,08,39,13,16,06,46,19,09,20,36,37,0.69,0.42,0.54,4*06
$GNGSA,A,3,29,35,22,,,,,,,,,,0.69,0.42,0.54,4*01
$GPGSV,4,1,15,196,75,068,26,24,68,037,32,199,60,167,36,18,56,237,41,1*65
$GPGSV,4,2,15,23,55,342,39,41,38,242,29,15,34,052,26,194,33,137,39,1*5A
$GPGSV,4,3,15,195,32,180,33,12,24,137,27,10,22,321,35,05,15,123,27,1*54
$GPGSV,4,4,15,25,13,173,16,32,12,274,29,13,05,060,14,1*5B
$GPGSV,3,1,10,196,75,068,37,24,68,037,32,199,60,167,45,18,56,237,38,8*64
$GPGSV,3,2,10,23,55,342,35,194,33,137,41,195,32,180,36,10,22,321,29,8*69
$GPGSV,3,3,10,25,13,173,25,32,12,274,36,8*6D
$GLGSV,3,1,09,80,47,067,26,73,44,156,45,70,41,018,18,85,31,240,18,1*78
$GLGSV,3,2,09,86,28,295,40,71,24,320,37,69,11,079,20,79,07,029,21,1*79
$GLGSV,3,3,09,84,03,187,,1*40
$GAGSV,3,1,09,13,52,226,36,07,45,309,42,08,45,030,,26,34,302,39,7*76
$GAGSV,3,2,09,30,29,140,33,02,27,081,17,15,19,174,24,03,08,068,,7*73
$GAGSV,3,3,09,25,01,040,,7*48
$GAGSV,2,1,08,13,52,226,40,07,45,309,39,08,45,030,33,26,34,302,39,1*7D
$GAGSV,2,2,08,30,29,140,26,02,27,081,23,15,19,174,26,03,08,068,17,1*72
$GBGSV,4,1,15,38,83,135,40,08,82,359,42,39,70,290,40,13,70,329,44,1*70
$GBGSV,4,2,15,16,66,265,41,06,65,260,42,46,61,101,27,19,51,351,47,1*78
$GBGSV,4,3,15,09,50,243,35,20,41,069,18,36,40,183,46,35,20,264,20,1*74
$GBGSV,4,4,15,37,19,045,26,29,16,208,23,22,14,305,17,1*49
$GBGSV,3,1,09,38,83,135,46,39,70,290,44,46,61,101,29,19,51,351,44,4*7E
$GBGSV,3,2,09,20,41,069,22,36,40,183,44,35,20,264,29,37,19,045,24,4*7C
$GBGSV,3,3,09,22,14,305,26,4*4D
$GNACCURACY,2.4*10
$PAIRSAT,1,35,1,0,200,2,0,200,3,0,200,4,0,200,5,0,201,6,0,200,7,0,200,8,0,200,9,0,200,10,0,221,11,0,200,12,0,201,13,0,201,14,0,200,15,0,201,16,0,200,17,0,200,18,0,221,19,0,200,20,0,200,21,0,200,23,0,221,24,0,221,25,0,200,26,0,200,27,0,200,28,0,200,29,0,200,30,0,200,31,0,200,32,0,221,194,0,621,195,0,621,196,0,620,199,0,621*68
$PAIRSAT,2,24,65,0,200,66,0,200,67,0,200,68,0,200,69,0,201,70,0,201,71,0,201,72,0,200,73,0,201,74,0,200,75,0,200,76,0,200,77,0,200,78,0,200,79,0,201,80,0,201,81,0,200,82,0,200,83,0,200,84,0,200,85,0,201,86,0,201,87,0,200,88,0,200*7A
$PAIRSAT,3,23,2,0,1221,3,0,1221,4,0,1200,5,0,200,7,0,1221,8,0,1221,9,0,1200,10,0,1200,11,0,1200,12,0,1200,13,0,1221,15,0,1221,19,0,1200,21,0,1200,24,0,1200,25,0,1200,26,0,1221,27,0,1200,30,0,1221,31,0,1200,33,0,1200,34,0,1200,36,0,1200*6A
$PAIRSAT,4,50,1,0,200,2,0,200,3,0,200,4,0,200,5,0,200,6,0,201,7,0,200,8,0,201,9,0,201,10,0,200,11,0,200,12,0,200,13,0,201,14,0,200,15,0,200,16,0,201,19,0,621,20,0,621,21,0,600,22,0,621,23,0,600,24,0,600,25,0,600,26,0,600,27,0,600,28,0,600,29,0,621,30,0,600,31,0,200,32,0,600,33,0,600,34,0,600,35,0,621,36,0,621,37,0,621,38,0,621,39,0,621,40,0,600,41,0,600,42,0,600,43,0,600,44,0,600,45,0,600,46,0,621,56,0,200,57,0,200,58,0,200,59,0,600,60,0,600,61,0,600*41
$PAIRDGP,9,5,10,12,15,18,23,24,25,32*5B
$GNGGA,113813.200,2500.8191821,N,12132.4691380,E,2,62,0.42,22.318,M,15.25,M,31,3335*7A
$GNRMC,113813.200,A,2500.8191821,N,12132.4691380,E,0.05,206.39,260623,,,D,V*03
$GPHDT,,T*1B
$GNACCURACY,2.4*10
$GNGGA,113813.300,2500.8191761,N,12132.4691320,E,2,62,0.42,22.328,M,15.25,M,31,3335*79
$GNRMC,113813.300,A,2500.8191761,N,12132.4691320,E,0.04,206.39,260623,,,D,V*02
$GPHDT,,T*1B
$GNACCURACY,2.4*10
$GNGGA,113813.400,2500.8191641,N,12132.4691320,E,2,62,0.42,22.341,M,15.25,M,31,3335*72
$GNRMC,113813.400,A,2500.8191641,N,12132.4691320,E,0.03,206.39,260623,,,D,V*01
$GPHDT,,T*1B
$GNACCURACY,2.4*10
$GNGGA,113813.500,2500.8191581,N,12132.4691260,E,2,62,0.42,22.353,M,15.25,M,31,3335*7A
$GNRMC,113813.500,A,2500.8191581,N,12132.4691260,E,0.02,206.39,260623,,,D,V*0B
$GPHDT,,T*1B
$GNACCURACY,2.4*10
$GNGGA,113813.600,2500.8191521,N,12132.4691200,E,2,62,0.42,22.364,M,15.25,M,31,3335*71
$GNRMC,113813.600,A,2500.8191521,N,12132.4691200,E,0.01,206.39,260623,,,D,V*07
$GPHDT,,T*1B
$GNACCURACY,2.4*10
$GNGGA,113813.700,2500.8191461,N,12132.4691140,E,2,62,0.42,22.376,M,15.25,M,31,3335*71
$GNRMC,113813.700,A,2500.8191461,N,12132.4691140,E,0.01,206.39,260623,,,D,V*04
$GPHDT,,T*1B
$GNACCURACY,2.4*10
$GNGGA,113813.800,2500.8191341,N,12132.4691080,E,2,62,0.42,22.387,M,15.25,M,31,3335*78
$GNRMC,113813.800,A,2500.8191341,N,12132.4691080,E,0.01,206.39,260623,,,D,V*03
$GPHDT,,T*1B
$GNACCURACY,2.4*10
$GNGGA,113813.900,2500.8191281,N,12132.4691080,E,2,62,0.42,22.398,M,15.25,M,31,3335*7A
$GNRMC,113813.900,A,2500.8191281,N,12132.4691080,E,0.01,206.39,260623,,,D,V*0F
$GPHDT,,T*1B
$GNACCURACY,2.4*10
$GNGGA,113814.000,2500.8191221,N,12132.4691020,E,2,62,0.42,22.411,M,15.25,M,32,3335*71
$GNRMC,113814.000,A,2500.8191221,N,12132.4691020,E,0.01,206.39,260623,,,D,V*01
$GPHDT,,T*1B
$GNACCURACY,2.4*10
$GNGGA,113814.100,2500.8191161,N,12132.4690960,E,2,62,0.42,22.425,M,15.25,M,32,3335*7C
$GNRMC,113814.100,A,2500.8191161,N,12132.4690960,E,0.01,206.39,260623,,,D,V*0B
$GPHDT,,T*1B
$GNGSA,A,3,196,24,199,18,23,15,194,195,12,10,05,32,0.69,0.42,0.54,1*0B
$GNGSA,A,3,80,73,70,85,86,71,69,,,,,,0.69,0.42,0.54,2*0B
$GNGSA,A,3,13,07,26,30,02,15,08,,,,,,0.69,0.42,0.54,3*07
$GNGSA,A,3,38,08,13,39,16,06,46,19,09,20,36,37,0.69,0.42,0.54,4*06
$GNGSA,A,3,29,35,22,,,,,,,,,,0.69,0.42,0.54,4*01
$GPGSV,4,1,15,196,75,068,26,24,68,037,32,199,60,167,36,18,56,237,41,1*65
$GPGSV,4,2,15,23,55,342,39,41,38,242,30,15,34,052,26,194,33,137,39,1*52
$GPGSV,4,3,15,195,32,180,33,12,24,137,28,10,22,321,35,05,15,123,28,1*54
$GPGSV,4,4,15,25,13,173,17,32,12,274,29,13,05,060,13,1*5D
$GPGSV,3,1,10,196,75,068,37,24,68,037,31,199,60,167,45,18,56,237,38,8*67
$GPGSV,3,2,10,23,55,342,36,194,33,137,41,195,32,180,36,10,22,321,29,8*6A
$GPGSV,3,3,10,25,13,173,25,32,12,274,36,8*6D
$GLGSV,2,1,08,80,47,067,26,73,44,156,45,70,41,018,18,85,31,240,18,1*78
$GLGSV,2,2,08,86,28,295,41,71,24,320,37,69,11,079,19,79,07,029,21,1*72
$GAGSV,3,1,10,13,52,226,36,08,45,030,,07,45,309,42,26,34,302,39,7*7E
$GAGSV,3,2,10,30,29,140,32,02,27,081,15,15,19,174,22,03,08,068,14,7*7B
$GAGSV,3,3,10,27,04,186,,25,01,040,,7*7E
$GAGSV,2,1,08,13,52,226,41,07,45,309,39,08,45,030,33,26,34,302,39,1*7C
$GAGSV,2,2,08,30,29,140,26,02,27,081,22,15,19,174,26,03,08,068,16,1*72
$GBGSV,5,1,17,38,83,135,40,08,82,359,42,13,70,329,44,39,70,290,40,1*73
$GBGSV,5,2,17,16,66,265,41,06,65,260,42,46,61,101,28,19,51,351,47,1*74
$GBGSV,5,3,17,09,50,243,35,56,47,314,,20,41,069,18,36,40,183,46,1*77
$GBGSV,5,4,17,31,38,213,,35,20,264,19,37,19,045,26,29,16,208,20,1*79
$GBGSV,5,5,17,22,14,305,16,1*44
$GBGSV,3,1,09,38,83,135,46,39,70,290,44,46,61,101,29,19,51,351,44,4*7E
$GBGSV,3,2,09,20,41,069,23,36,40,183,44,35,20,264,28,37,19,045,24,4*7C
$GBGSV,3,3,09,22,14,305,25,4*4E
$GNACCURACY,2.4*10
$PAIRSAT,1,35,1,0,200,2,0,200,3,0,200,4,0,200,5,0,201,6,0,200,7,0,200,8,0,200,9,0,200,10,0,221,11,0,200,12,0,201,13,0,201,14,0,200,15,0,201,16,0,200,17,0,200,18,0,221,19,0,200,20,0,200,21,0,200,23,0,221,24,0,221,25,0,200,26,0,200,27,0,200,28,0,200,29,0,200,30,0,200,31,0,200,32,0,221,194,0,621,195,0,621,196,0,620,199,0,621*68
$PAIRSAT,2,24,65,0,200,66,0,200,67,0,200,68,0,200,69,0,201,70,0,201,71,0,201,72,0,200,73,0,201,74,0,200,75,0,200,76,0,200,77,0,200,78,0,200,79,0,201,80,0,201,81,0,200,82,0,200,83,0,200,84,0,200,85,0,201,86,0,201,87,0,200,88,0,200*7A
$PAIRSAT,3,23,2,0,1221,3,0,1221,4,0,1200,5,0,200,7,0,1221,8,0,1221,9,0,1200,10,0,1200,11,0,1200,12,0,1200,13,0,1221,15,0,1221,19,0,1200,21,0,1200,24,0,1200,25,0,1200,26,0,1221,27,0,1200,30,0,1221,31,0,1200,33,0,1200,34,0,1200,36,0,1200*6A
$PAIRSAT,4,50,1,0,200,2,0,200,3,0,200,4,0,200,5,0,200,6,0,201,7,0,200,8,0,201,9,0,201,10,0,200,11,0,200,12,0,200,13,0,201,14,0,200,15,0,200,16,0,201,19,0,621,20,0,621,21,0,600,22,0,621,23,0,600,24,0,600,25,0,600,26,0,600,27,0,600,28,0,600,29,0,621,30,0,600,31,0,200,32,0,600,33,0,600,34,0,600,35,0,621,36,0,621,37,0,621,38,0,621,39,0,621,40,0,600,41,0,600,42,0,600,43,0,600,44,0,600,45,0,600,46,0,621,56,0,200,57,0,200,58,0,200,59,0,600,60,0,600,61,0,600*41
$PAIRDGP,9,5,10,12,15,18,23,24,25,32*5B
$GNGGA,113814.200,2500.8191101,N,12132.4690900,E,2,62,0.42,22.438,M,15.25,M,32,3335*73
$GNRMC,113814.200,A,2500.8191101,N,12132.4690900,E,0.01,206.39,260623,,,D,V*08
$GPHDT,,T*1B
$GNACCURACY,2.4*10
$GNGGA,113814.300,2500.8191041,N,12132.4690840,E,2,62,0.42,22.453,M,15.25,M,32,3335*7F
$GNRMC,113814.300,A,2500.8191041,N,12132.4690840,E,0.02,206.39,260623,,,D,V*0A
$GPHDT,,T*1B
$GNACCURACY,2.4*10
$GNGGA,113814.400,2500.8190981,N,12132.4690780,E,2,62,0.42,22.467,M,15.25,M,32,3335*78
$GNRMC,113814.400,A,2500.8190981,N,12132.4690780,E,0.01,206.39,260623,,,D,V*09
$GPHDT,,T*1B
$GNACCURACY,2.4*10
$GNGGA,113814.500,2500.8190921,N,12132.4690720,E,2,62,0.42,22.480,M,15.25,M,32,3335*70
$GNRMC,113814.500,A,2500.8190921,N,12132.4690720,E,0.01,206.39,260623,,,D,V*08
$GPHDT,,T*1B
$GNACCURACY,2.4*10
$GNGGA,113814.600,2500.8190861,N,12132.4690660,E,2,62,0.42,22.494,M,15.25,M,32,3335*76
$GNRMC,113814.600,A,2500.8190861,N,12132.4690660,E,0.02,206.39,260623,,,D,V*08
$GPHDT,,T*1B
$GNACCURACY,2.4*10
$GNGGA,113814.700,2500.8190801,N,12132.4690600,E,2,62,0.42,22.508,M,15.25,M,32,3335*73
$GNRMC,113814.700,A,2500.8190801,N,12132.4690600,E,0.02,206.39,260623,,,D,V*09
$GPHDT,,T*1B
$GNACCURACY,2.4*10
$GNGGA,113814.800,2500.8190741,N,12132.4690600,E,2,62,0.42,22.519,M,15.25,M,32,3335*77
$GNRMC,113814.800,A,2500.8190741,N,12132.4690600,E,0.02,206.39,260623,,,D,V*0D
$GPHDT,,T*1B
$GNACCURACY,2.4*10
$GNGGA,113814.900,2500.8190681,N,12132.4690540,E,2,62,0.42,22.531,M,15.25,M,32,3335*76
$GNRMC,113814.900,A,2500.8190681,N,12132.4690540,E,0.03,206.39,260623,,,D,V*07
$GPHDT,,T*1B
$GNACCURACY,2.4*10
$GNGGA,113815.000,2500.8190621,N,12132.4690540,E,2,62,0.42,22.542,M,15.25,M,33,3335*71
$GNRMC,113815.000,A,2500.8190621,N,12132.4690540,E,0.03,206.39,260623,,,D,V*05
$GPHDT,,T*1B
$GNACCURACY,2.4*10
$GNGGA,113815.100,2500.8190561,N,12132.4690540,E,2,62,0.42,22.554,M,15.25,M,33,3335*70
$GNRMC,113815.100,A,2500.8190561,N,12132.4690540,E,0.03,206.39,260623,,,D,V*03
$GPHDT,,T*1B
$GNGSA,A,3,196,24,199,18,23,15,194,195,12,10,05,32,0.69,0.42,0.54,1*0B
$GNGSA,A,3,80,73,70,85,86,71,69,,,,,,0.69,0.42,0.54,2*0B
$GNGSA,A,3,13,07,26,30,02,15,08,,,,,,0.69,0.42,0.54,3*07
$GNGSA,A,3,38,08,39,13,16,06,46,19,09,20,36,37,0.69,0.42,0.54,4*06
$GNGSA,A,3,29,35,22,,,,,,,,,,0.69,0.42,0.54,4*01
$GPGSV,4,1,15,196,75,068,26,24,68,037,32,199,60,167,36,18,56,237,41,1*65
$GPGSV,4,2,15,23,55,342,39,41,38,242,27,15,34,052,26,194,33,137,39,1*54
$GPGSV,4,3,15,195,32,180,32,12,24,137,26,10,22,321,35,05,15,123,28,1*5B
$GPGSV,4,4,15,25,13,173,18,32,12,274,28,13,05,060,10,1*50
$GPGSV,3,1,10,196,75,068,37,24,68,037,31,199,60,167,45,18,56,237,39,8*66
$GPGSV,3,2,10,23,55,342,36,194,33,137,42,195,32,180,38,10,22,321,30,8*6F
$GPGSV,3,3,10,25,13,173,25,32,12,274,37,8*6C
$GLGSV,2,1,08,80,47,067,26,73,44,156,45,70,41,018,18,85,31,240,19,1*79
$GLGSV,2,2,08,86,28,295,40,71,24,320,37,69,11,079,19,79,07,029,22,1*70
$GAGSV,3,1,10,13,52,226,35,07,45,309,42,08,45,030,,26,34,302,37,7*73
$GAGSV,3,2,10,30,29,140,32,02,27,081,16,15,19,174,22,03,08,068,15,7*79
$GAGSV,3,3,10,27,04,186,,25,01,040,,7*7E
$GAGSV,2,1,08,13,52,226,41,07,45,309,40,08,45,030,33,26,34,302,40,1*7C
$GAGSV,2,2,08,30,29,140,28,02,27,081,23,15,19,174,27,03,08,068,16,1*7C
$GBGSV,4,1,15,38,83,135,40,08,82,359,42,39,70,29