$FW : RTK35X,V1.1X0314AS,Lib20210517,1*54
$Tool : LOCOSYS , GNSS Firebird , v1.0.0.19*39
$---------------------------------------------------*2D
5,070,27,24,66,036,32,199,60,167,38,23,57,343,40,1*66
$GPGSV,4,2,15,18,54,234,42,41,38,242,33,15,33,054,20,194,33,137,42,1*5F
$GPGSV,4,3,15,195,31,179,29,12,25,136,38,10,23,321,41,05,14,124,24,1*53
$GPGSV,4,4,15,25,14,173,21,32,12,275,36,13,04,062,,1*51
$GPGSV,3,1,10,196,75,070,39,24,66,036,36,199,60,167,45,23,57,343,37,8*6C
$GPGSV,3,2,10,18,54,234,45,194,33,137,38,195,31,179,33,10,23,321,27,8*66
$GPGSV,3,3,10,25,14,173,24,32,12,275,39,8*65
$GLGSV,3,1,09,80,47,064,26,73,46,155,44,70,41,021,,85,30,238,27,1*7A
$GLGSV,3,2,09,86,28,293,44,71,25,322,31,69,10,081,16,74,10,186,,1*71
$GLGSV,3,3,09,79,06,028,16,1*44
$GAGSV,3,1,10,13,51,225,40,07,45,311,41,08,44,032,26,26,34,301,41,7*7E
$GAGSV,3,2,10,30,30,139,38,02,27,079,13,15,17,173,25,03,08,069,17,7*7A
$GAGSV,3,3,10,27,05,186,,25,01,039,,7*71
$GAGSV,2,1,06,13,51,225,44,07,45,311,46,26,34,301,43,30,30,139,34,1*7E
$GAGSV,2,2,06,02,27,079,19,15,17,173,24,1*73
$GBGSV,4,1,16,08,83,357,39,38,82,142,46,13,71,327,43,39,70,292,44,1*79
$GBGSV,4,2,16,16,66,267,40,06,65,262,40,46,62,098,33,19,52,353,45,1*7C
$GBGSV,4,3,16,09,50,244,38,56,47,315,,36,42,183,47,20,41,071,18,1*76
$GBGSV,4,4,16,35,19,262,31,37,18,044,,22,15,306,32,29,15,207,26,1*78
$GBGSV,2,1,08,38,82,142,47,39,70,292,43,46,62,098,36,19,52,353,40,4*72
$GBGSV,2,2,08,36,42,183,46,35,19,262,20,22,15,306,37,29,15,207,28,4*7F
$GNACCURACY,3.3*16
$PAIRSAT,1,35,1,0,200,2,0,200,3,0,200,4,0,200,5,0,201,6,0,200,7,0,200,8,0,200,9,0,200,10,0,221,11,0,200,12,0,201,13,0,201,14,0,200,15,0,201,16,0,200,17,0,200,18,0,221,19,0,200,20,0,200,21,0,200,23,0,221,24,0,221,25,0,200,26,0,200,27,0,200,28,0,200,29,0,200,30,0,200,31,0,200,32,0,221,194,0,621,195,0,621,196,0,620,199,0,621*68
$PAIRSAT,2,24,65,0,200,66,0,200,67,0,200,68,0,200,69,0,201,70,0,201,71,0,201,72,0,200,73,0,201,74,0,200,75,0,200,76,0,200,77,0,200,78,0,200,79,0,201,80,0,201,81,0,200,82,0,200,83,0,200,84,0,200,85,0,201,86,0,201,87,0,200,88,0,200*7A
$PAIRSAT,3,23,2,0,1221,3,0,1221,4,0,1200,5,0,200,7,0,1221,8,0,1221,9,0,1200,10,0,1200,11,0,1200,12,0,1200,13,0,1221,15,0,1221,19,0,1200,21,0,1200,24,0,1200,25,0,1200,26,0,1221,27,0,1200,30,0,1221,31,0,1200,33,0,1200,34,0,1200,36,0,1200*6A
$PAIRSAT,4,50,1,0,200,2,0,200,3,0,200,4,0,200,5,0,200,6,0,201,7,0,200,8,0,201,9,0,201,10,0,200,11,0,200,12,0,200,13,0,201,14,0,200,15,0,200,16,0,201,19,0,621,20,0,621,21,0,600,22,0,621,23,0,600,24,0,600,25,0,600,26,0,600,27,0,600,28,0,600,29,0,621,30,0,600,31,0,200,32,0,600,33,0,600,34,0,600,35,0,621,36,0,621,37,0,621,38,0,621,39,0,621,40,0,600,41,0,600,42,0,600,43,0,600,44,0,600,45,0,600,46,0,621,56,0,200,57,0,200,58,0,200,59,0,600,60,0,600,61,0,600*41
$PAIRDGP,9,5,10,12,15,18,23,24,25,32*5B
$GNGGA,114151.200,2500.8187161,N,12132.4649449,E,4,62,0.45,16.069,M,15.25,M,7,3335*49
$GNRMC,114151.200,A,2500.8187161,N,12132.4649449,E,0.02,206.39,260623,,,R,V*17
$GPHDT,146.905,T*3A
$GNACCURACY,3.3*16
$GNGGA,114151.300,2500.8187163,N,12132.4649454,E,4,62,0.45,16.073,M,15.25,M,7,3335*4D
$GNRMC,114151.300,A,2500.8187163,N,12132.4649454,E,0.02,206.39,260623,,,R,V*18
$GPHDT,,T*1B
$GNACCURACY,3.3*16
$GNGGA,114151.400,2500.8187165,N,12132.4649463,E,4,62,0.45,16.060,M,15.25,M,7,3335*4A
$GNRMC,114151.400,A,2500.8187165,N,12132.4649463,E,0.02,206.39,260623,,,R,V*1D
$GPHDT,146.911,T*3F
$GNACCURACY,3.3*16
$GNGGA,114151.500,2500.8187167,N,12132.4649430,E,4,62,0.45,16.068,M,15.25,M,7,3335*47
$GNRMC,114151.500,A,2500.8187167,N,12132.4649430,E,0.02,206.39,260623,,,R,V*18
$GPHDT,,T*1B
$GNACCURACY,3.3*16
$GNGGA,114151.600,2500.8187166,N,12132.4649469,E,4,62,0.45,16.066,M,15.25,M,7,3335*47
$GNRMC,114151.600,A,2500.8187166,N,12132.4649469,E,0.03,206.39,260623,,,R,V*17
$GPHDT,147.306,T*32
$GNACCURACY,3.3*16
$GNGGA,114151.700,2500.8187183,N,12132.4649457,E,4,62,0.45,16.074,M,15.25,M,7,3335*43
$GNRMC,114151.700,A,2500.8187183,N,12132.4649457,E,0.03,206.39,260623,,,R,V*10
$GPHDT,,T*1B
$GNACCURACY,3.3*16
$GNGGA,114151.800,2500.8187179,N,12132.4649462,E,4,62,0.45,16.071,M,15.25,M,7,3335*4A
$GNRMC,114151.800,A,2500.8187179,N,12132.4649462,E,0.03,206.39,260623,,,R,V*1C
$GPHDT,147.301,T*35
$GNACCURACY,3.3*16
$GNGGA,114151.900,2500.8187181,N,12132.4649466,E,4,62,0.45,16.065,M,15.25,M,7,3335*4D
$GNRMC,114151.900,A,2500.8187181,N,12132.4649466,E,0.03,206.39,260623,,,R,V*1E
$GPHDT,,T*1B
$GNACCURACY,3.3*16
$GNGGA,114152.000,2500.8187172,N,12132.4649465,E,4,62,0.45,16.060,M,15.25,M,8,3335*42
$GNRMC,114152.000,A,2500.8187172,N,12132.4649465,E,0.02,206.39,260623,,,R,V*1A
$GPHDT,147.542,T*34
$GNACCURACY,3.3*16
$GNGGA,114152.100,2500.8187164,N,12132.4649477,E,4,62,0.45,16.066,M,15.25,M,8,3335*41
$GNRMC,114152.100,A,2500.8187164,N,12132.4649477,E,0.02,206.39,260623,,,R,V*1F
$GPHDT,,T*1B
$GNGSA,A,3,196,24,199,23,18,15,194,195,12,10,05,32,0.71,0.45,0.55,1*04
$GNGSA,A,3,80,73,85,86,71,69,,,,,,,0.71,0.45,0.55,2*03
$GNGSA,A,3,13,07,08,26,30,02,15,,,,,,0.71,0.45,0.55,3*08
$GNGSA,A,3,08,38,13,39,16,06,46,19,09,36,20,35,0.71,0.45,0.55,4*0B
$GNGSA,A,3,29,22,,,,,,,,,,,0.71,0.45,0.55,4*08
$GPGSV,4,1,15,196,75,070,27,24,66,036,33,199,60,167,37,23,57,343,40,1*68
$GPGSV,4,2,15,18,54,234,42,41,38,242,33,15,33,054,20,194,33,137,39,1*53
$GPGSV,4,3,15,195,31,179,31,12,25,136,37,10,23,321,41,05,14,124,23,1*52
$GPGSV,4,4,15,25,14,172,21,32,12,275,36,13,04,062,,1*50
$GPGSV,3,1,10,196,75,070,39,24,66,036,35,199,60,167,45,23,57,343,37,8*6F
$GPGSV,3,2,10,18,54,234,44,194,33,137,39,195,31,179,35,10,23,321,27,8*60
$GPGSV,3,3,10,25,14,172,22,32,12,275,38,8*63
$GLGSV,2,1,08,80,47,064,27,73,46,155,44,70,41,021,,85,30,238,25,1*79
$GLGSV,2,2,08,86,28,293,44,71,25,322,31,69,10,081,16,79,06,028,16,1*79
$GAGSV,3,1,10,13,51,225,40,07,45,311,42,08,44,032,25,26,34,301,41,7*7E
$GAGSV,3,2,10,30,30,139,38,02,27,079,11,15,17,173,24,03,08,069,16,7*78
$GAGSV,3,3,10,27,05,186,,25,01,039,,7*71
$GAGSV,2,1,06,13,51,225,43,07,45,311,46,26,34,301,43,30,30,139,34,1*79
$GAGSV,2,2,06,02,27,079,19,15,17,173,24,1*73
$GBGSV,4,1,15,08,83,357,39,38,82,142,46,13,71,327,43,39,70,292,44,1*7A
$GBGSV,4,2,15,16,66,267,40,06,65,262,40,46,62,098,33,19,52,353,46,1*7C
$GBGSV,4,3,15,09,50,244,38,36,42,183,47,20,41,071,18,35,19,262,31,1*78
$GBGSV,4,4,15,37,18,044,,29,15,207,24,22,15,306,30,1*41
$GBGSV,2,1,08,38,82,142,47,39,70,292,43,46,62,098,35,19,52,353,40,4*71
$GBGSV,2,2,08,36,42,183,45,35,19,262,24,22,15,306,36,29,15,207,26,4*77
$GNACCURACY,3.3*16
$PAIRSAT,1,35,1,0,200,2,0,200,3,0,200,4,0,200,5,0,201,6,0,200,7,0,200,8,0,200,9,0,200,10,0,221,11,0,200,12,0,201,13,0,201,14,0,200,15,0,201,16,0,200,17,0,200,18,0,221,19,0,200,20,0,200,21,0,200,23,0,221,24,0,221,25,0,200,26,0,200,27,0,200,28,0,200,29,0,200,30,0,200,31,0,200,32,0,221,194,0,621,195,0,621,196,0,620,199,0,621*68
$PAIRSAT,2,24,65,0,200,66,0,200,67,0,200,68,0,200,69,0,201,70,0,201,71,0,201,72,0,200,73,0,201,74,0,200,75,0,200,76,0,200,77,0,200,78,0,200,79,0,201,80,0,201,81,0,200,82,0,200,83,0,200,84,0,200,85,0,201,86,0,201,87,0,200,88,0,200*7A
$PAIRSAT,3,23,2,0,1221,3,0,1221,4,0,1200,5,0,200,7,0,1221,8,0,1221,9,0,1200,10,0,1200,11,0,1200,12,0,1200,13,0,1221,15,0,1221,19,0,1200,21,0,1200,24,0,1200,25,0,1200,26,0,1221,27,0,1200,30,0,1221,31,0,1200,33,0,1200,34,0,1200,36,0,1200*6A
$PAIRSAT,4,50,1,0,200,2,0,200,3,0,200,4,0,200,5,0,200,6,0,201,7,0,200,8,0,201,9,0,201,10,0,200,11,0,200,12,0,200,13,0,201,14,0,200,15,0,200,16,0,201,19,0,621,20,0,621,21,0,600,22,0,621,23,0,600,24,0,600,25,0,600,26,0,600,27,0,600,28,0,600,29,0,621,30,0,600,31,0,200,32,0,600,33,0,600,34,0,600,35,0,621,36,0,621,37,0,621,38,0,621,39,0,621,40,0,600,41,0,600,42,0,600,43,0,600,44,0,600,45,0,600,46,0,621,56,0,200,57,0,200,58,0,200,59,0,600,60,0,600,61,0,600*41
$PAIRDGP,9,5,10,12,15,18,23,24,25,32*5B
$GNGGA,114152.200,2500.8187160,N,12132.4649477,E,4,62,0.45,16.081,M,15.25,M,8,3335*4F
$GNRMC,114152.200,A,2500.8187160,N,12132.4649477,E,0.02,206.39,260623,,,R,V*18
$GPHDT,146.801,T*3F
$GNACCURACY,3.0*15
$GNGGA,114152.300,2500.8187193,N,12132.4649486,E,4,62,0.45,16.074,M,15.25,M,8,3335*46
$GNRMC,114152.300,A,2500.8187193,N,12132.4649486,E,0.02,206.39,260623,,,R,V*1B
$GPHDT,,T*1B
$GNACCURACY,3.0*15
$GNGGA,114152.400,2500.8187201,N,12132.4649491,E,4,62,0.45,16.086,M,15.25,M,8,3335*42
$GNRMC,114152.400,A,2500.8187201,N,12132.4649491,E,0.01,206.39,260623,,,R,V*11
$GPHDT,147.150,T*33
$GNACCURACY,3.0*15
$GNGGA,114152.500,2500.8187202,N,12132.4649475,E,4,62,0.45,16.074,M,15.25,M,8,3335*47
$GNRMC,114152.500,A,2500.8187202,N,12132.4649475,E,0.01,206.39,260623,,,R,V*19
$GPHDT,,T*1B
$GNACCURACY,3.0*15
$GNGGA,114152.600,2500.8187196,N,12132.4649462,E,4,62,0.45,16.084,M,15.25,M,8,3335*43
$GNRMC,114152.600,A,2500.8187196,N,12132.4649462,E,0.01,206.39,260623,,,R,V*12
$GPHDT,146.983,T*34
$GNACCURACY,3.0*15
$GNGGA,114152.700,2500.8187178,N,12132.4649447,E,4,62,0.45,16.068,M,15.25,M,8,3335*47
$GNRMC,114152.700,A,2500.8187178,N,12132.4649447,E,0.00,206.39,260623,,,R,V*15
$GPHDT,,T*1B
$GNACCURACY,3.0*15
$GNGGA,114152.800,2500.8187175,N,12132.4649461,E,4,62,0.45,16.083,M,15.25,M,8,3335*44
$GNRMC,114152.800,A,2500.8187175,N,12132.4649461,E,0.01,206.39,260623,,,R,V*12
$GPHDT,146.531,T*31
$GNACCURACY,3.0*15
$GNGGA,114152.900,2500.8187186,N,12132.4649441,E,4,62,0.45,16.080,M,15.25,M,8,3335*48
$GNRMC,114152.900,A,2500.8187186,N,12132.4649441,E,0.01,206.39,260623,,,R,V*1D
$GPHDT,,T*1B
$GNACCURACY,3.0*15
$GNGGA,114153.000,2500.8187179,N,12132.4649444,E,4,62,0.45,16.080,M,15.25,M,9,3335*44
$GNRMC,114153.000,A,2500.8187179,N,12132.4649444,E,0.01,206.39,260623,,,R,V*10
$GPHDT,146.489,T*33
$GNACCURACY,3.0*15
$GNGGA,114153.100,2500.8187191,N,12132.4649447,E,4,62,0.45,16.083,M,15.25,M,9,3335*43
$GNRMC,114153.100,A,2500.8187191,N,12132.4649447,E,0.01,206.39,260623,,,R,V*14
$GPHDT,,T*1B
$GNGSA,A,3,196,24,199,23,18,15,194,195,12,10,05,32,0.71,0.45,0.55,1*04
$GNGSA,A,3,80,73,85,86,71,69,,,,,,,0.71,0.45,0.55,2*03
$GNGSA,A,3,13,07,08,26,30,02,15,,,,,,0.71,0.45,0.55,3*08
$GNGSA,A,3,08,38,13,39,16,06,46,19,09,36,20,35,0.71,0.45,0.55,4*0B
$GNGSA,A,3,29,22,,,,,,,,,,,0.71,0.45,0.55,4*08
$GPGSV,4,1,15,196,75,070,29,24,66,036,34,199,60,167,37,23,57,343,40,1*61
$GPGSV,4,2,15,18,54,234,42,41,38,242,34,15,33,054,20,194,33,137,39,1*54
$GPGSV,4,3,15,195,31,179,31,12,25,136,37,10,23,321,41,05,14,124,22,1*53
$GPGSV,4,4,15,25,14,172,21,32,12,275,36,13,04,062,,1*50
$GPGSV,3,1,10,196,75,070,39,24,66,036,35,199,60,167,45,23,57,343,38,8*60
$GPGSV,3,2,10,18,54,234,44,194,33,137,36,195,31,179,34,10,23,321,26,8*6F
$GPGSV,3,3,10,25,14,172,24,32,12,275,39,8*64
$GLGSV,2,1,08,80,47,064,26,73,46,155,44,70,41,021,,85,30,238,26,1*7B
$GLGSV,2,2,08,86,28,293,44,71,25,322,32,69,10,081,14,79,06,028,17,1*79
$GAGSV,3,1,10,13,51,225,40,07,45,311,42,08,44,032,24,26,34,301,41,7*7F
$GAGSV,3,2,10,30,30,139,38,02,27,079,13,15,17,173,24,03,08,069,17,7*7B
$GAGSV,3,3,10,27,05,186,,25,01,039,,7*71
$GAGSV,2,1,06,13,51,225,42,07,45,311,46,26,34,301,42,30,30,139,33,1*7E
$GAGSV,2,2,06,02,27,079,19,15,17,173,24,1*73
$GBGSV,4,1,15,08,83,357,38,38,82,142,46,13,71,327,43,39,70,292,44,1*7B
$GBGSV,4,2,15,16,66,267,40,06,65,262,40,46,62,098,33,19,52,353,46,1*7C
$GBGSV,4,3,15,09,50,244,38,36,42,183,47,20,41,071,22,35,19,262,30,1*70
$GBGSV,4,4,15,37,18,044,,29,15,207,24,22,15,306,31,1*40
$GBGSV,2,1,08,38,82,142,46,39,70,292,43,46,62,098,35,19,52,353,39,4*7E
$GBGSV,2,2,08,36,42,183,45,35,19,262,27,22,15,306,36,29,15,207,26,4*74
$GNACCURACY,3.0*15
$PAIRSAT,1,35,1,0,200,2,0,200,3,0,200,4,0,200,5,0,201,6,0,200,7,0,200,8,0,200,9,0,200,10,0,221,11,0,200,12,0,201,13,0,201,14,0,200,15,0,201,16,0,200,17,0,200,18,0,221,19,0,200,20,0,200,21,0,200,23,0,221,24,0,221,25,0,200,26,0,200,27,0,200,28,0,200,29,0,200,30,0,200,31,0,200,32,0,221,194,0,621,195,0,621,196,0,620,199,0,621*68
$PAIRSAT,2,24,65,0,200,66,0,200,67,0,200,68,0,200,69,0,201,70,0,201,71,0,201,72,0,200,73,0,201,74,0,200,75,0,200,76,0,200,77,0,200,78,0,200,79,0,201,80,0,201,81,0,200,82,0,200,83,0,200,84,0,200,85,0,201,86,0,201,87,0,200,88,0,200*7A
$PAIRSAT,3,23,2,0,1221,3,0,1221,4,0,1200,5,0,200,7,0,1221,8,0,1221,9,0,1200,10,0,1200,11,0,1200,12,0,1200,13,0,1221,15,0,1221,19,0,1200,21,0,1200,24,0,1200,25,0,1200,26,0,1221,27,0,1200,30,0,1221,31,0,1200,33,0,1200,34,0,1200,36,0,1200*6A
$PAIRSAT,4,50,1,0,200,2,0,200,3,0,200,4,0,200,5,0,200,6,0,201,7,0,200,8,0,201,9,0,201,10,0,200,11,0,200,12,0,200,13,0,201,14,0,200,15,0,200,16,0,201,19,0,621,20,0,621,21,0,600,22,0,621,23,0,600,24,0,600,25,0,600,26,0,600,27,0,600,28,0,600,29,0,621,30,0,600,31,0,200,32,0,600,33,0,600,34,0,600,35,0,621,36,0,621,37,0,621,38,0,621,39,0,621,40,0,600,41,0,600,42,0,600,43,0,600,44,0,600,45,0,600,46,0,621,56,0,200,57,0,200,58,0,200,59,0,600,60,0,600,61,0,600*41
$PAIRDGP,9,5,10,12,15,18,23,24,25,32*5B
$GNGGA,114153.200,2500.8187179,N,12132.4649454,E,4,62,0.45,16.081,M,15.25,M,9,3335*46
$GNRMC,114153.200,A,2500.8187179,N,12132.4649454,E,0.00,206.39,260623,,,R,V*12
$GPHDT,146.784,T*3D
$GNACCURACY,3.0*15
$GNGGA,114153.300,2500.8187175,N,12132.4649422,E,4,62,0.45,16.072,M,15.25,M,9,3335*46
$GNRMC,114153.300,A,2500.8187175,N,12132.4649422,E,0.01,206.39,260623,,,R,V*1F
$GPHDT,,T*1B
$GNACCURACY,3.0*15
$GNGGA,114153.400,2500.8187163,N,12132.4649440,E,4,62,0.45,16.084,M,15.25,M,9,3335*4B
$GNRMC,114153.400,A,2500.8187163,N,12132.4649440,E,0.01,206.39,260623,,,R,V*1B
$GPHDT,147.380,T*3C
$GNACCURACY,3.0*15
$GNGGA,114153.500,2500.8187173,N,12132.4649426,E,4,62,0.45,16.078,M,15.25,M,9,3335*48
$GNRMC,114153.500,A,2500.8187173,N,12132.4649426,E,0.03,206.39,260623,,,R,V*19
$GPHDT,,T*1B
$GNACCURACY,3.0*15
$GNGGA,114153.600,2500.8187177,N,12132.4649420,E,4,62,0.45,16.071,M,15.25,M,9,3335*40
$GNRMC,114153.600,A,2500.8187177,N,12132.4649420,E,0.02,206.39,260623,,,R,V*19
$GPHDT,147.161,T*31
$GNACCURACY,3.0*15
$GNGGA,114153.700,2500.8187195,N,12132.4649450,E,4,62,0.45,16.088,M,15.25,M,9,3335*4C
$GNRMC,114153.700,A,2500.8187195,N,12132.4649450,E,0.01,206.39,260623,,,R,V*10
$GPHDT,,T*1B
$GNACCURACY,3.0*15
$GNGGA,114153.800,2500.8187200,N,12132.4649463,E,4,62,0.45,16.076,M,15.25,M,9,3335*4D
$GNRMC,114153.800,A,2500.8187200,N,12132.4649463,E,0.01,206.39,260623,,,R,V*10
$GPHDT,146.974,T*3C
$GNACCURACY,3.0*15
$GNGGA,114153.900,2500.8187206,N,12132.4649464,E,4,62,0.45,16.082,M,15.25,M,9,3335*46
$GNRMC,114153.900,A,2500.8187206,N,12132.4649464,E,0.01,206.39,260623,,,R,V*10
$GPHDT,,T*1B
$GNACCURACY,3.0*15
$GNGGA,114154.000,2500.8187211,N,12132.4649498,E,4,62,0.45,16.099,M,15.25,M,10,3335*7F
$GNRMC,114154.000,A,2500.8187211,N,12132.4649498,E,0.00,206.39,260623,,,R,V*1A
$GPHDT,147.694,T*3C
$GNACCURACY,3.0*15
$GNGGA,114154.100,2500.8187223,N,12132.4649489,E,4,62,0.45,16.092,M,15.25,M,10,3335*74
$GNRMC,114154.100,A,2500.8187223,N,12132.4649489,E,0.00,206.39,260623,,,R,V*1A
$GPHDT,,T*1B
$GNGSA,A,3,196,24,199,23,18,15,194,195,12,10,05,32,0.73,0.46,0.57,1*07
$GNGSA,A,3,80,73,85,86,71,,,,,,,,0.73,0.46,0.57,2*0F
$GNGSA,A,3,13,07,08,26,30,02,15,,,,,,0.73,0.46,0.57,3*0B
$GNGSA,A,3,08,38,13,39,16,06,46,19,09,36,20,35,0.73,0.46,0.57,4*08
$GNGSA,A,3,29,22,,,,,,,,,,,0.73,0.46,0.57,4*0B
$GPGSV,4,1,15,196,75,070,29,24,66,036,33,199,60,167,37,23,57,343,40,1*66
$GPGSV,4,2,15,18,54,234,42,41,38,242,34,15,33,054,19,194,33,137,39,1*5E
$GPGSV,4,3,15,195,31,179,30,12,25,136,37,10,23,321,41,05,14,124,21,1*51
$GPGSV,4,4,15,25,14,172,20,32,12,275,35,13,04,062,,1*52
$GPGSV,3,1,10,196,75,070,39,24,66,036,37,199,60,167,45,23,57,343,38,8*62
$GPGSV,3,2,10,18,54,234,45,194,33,137,37,195,31,179,34,10,23,321,26,8*6F
$GPGSV,3,3,10,25,14,172,24,32,12,275,38,8*65
$GLGSV,2,1,08,80,47,064,27,73,46,155,44,70,41,021,,85,30,238,25,1*79
$GLGSV,2,2,08,86,28,293,44,71,25,322,31,69,10,081,13,79,06,028,17,1*7D
$GAGSV,3,1,10,13,51,224,40,07,45,311,42,08,44,032,24,26,34,301,41,7*7E
$GAGSV,3,2,10,30,30,139,38,02,27,079,14,15,17,173,24,03,08,069,18,7*73
$GAGSV,3,3,10,27,05,186,,25,01,039,,7*71
$GAGSV,2,1,06,13,51,224,42,07,45,311,46,26,34,301,42,30,30,139,33,1*7F
$GAGSV,2,2,06,02,27,079,18,15,17,173,24,1*72
$GBGSV,4,1,15,08,83,357,38,38,82,142,47,13,71,327,43,39,70,292,44,1*7A
$GBGSV,4,2,15,16,66,267,40,06,65,262,40,46,62,098,33,19,52,353,46,1*7C
$GBGSV,4,3,15,09,50,244,38,36,42,183,46,20,41,071,22,35,19,262,31,1*70
$GBGSV,4,4,15,37,18,044,31,29,15,207,26,22,15,306,30,1*41
$GBGSV,2,1,08,38,82,142,46,39,70,292,42,46,62,098,35,19,52,353,39,4*7F
$GBGSV,2,2,08,36,42,183,45,35,19,262,25,22,15,306,36,29,15,207,27,4*77
$GNACCURACY,3.0*15
$PAIRSAT,1,35,1,0,200,2,0,200,3,0,200,4,0,200,5,0,201,6,0,200,7,0,200,8,0,200,9,0,200,10,0,221,11,0,200,12,0,201,13,0,201,14,0,200,15,0,201,16,0,200,17,0,200,18,0,221,19,0,200,20,0,200,21,0,200,23,0,221,24,0,221,25,0,200,26,0,200,27,0,200,28,0,200,29,0,200,30,0,200,31,0,200,32,0,221,194,0,621,195,0,621,196,0,620,199,0,621*68
$PAIRSAT,2,24,65,0,200,66,0,200,67,0,200,68,0,200,69,0,201,70,0,201,71,0,201,72,0,200,73,0,201,74,0,200,75,0,200,76,0,200,77,0,200,78,0,200,79,0,201,80,0,201,81,0,200,82,0,200,83,0,200,84,0,200,85,0,201,86,0,201,87,0,200,88,0,200*7A
$PAIRSAT,3,23,2,0,1221,3,0,1221,4,0,1200,5,0,200,7,0,1221,8,0,1221,9,0,1200,10,0,1200,11,0,1200,12,0,1200,13,0,1221,15,0,1221,19,0,1200,21,0,1200,24,0,1200,25,0,1200,26,0,1221,27,0,1200,30,0,1221,31,0,1200,33,0,1200,34,0,1200,36,0,1200*6A
$PAIRSAT,4,50,1,0,200,2,0,200,3,0,200,4,0,200,5,0,200,6,0,201,7,0,200,8,0,201,9,0,201,10,0,200,11,0,200,12,0,200,13,0,201,14,0,200,15,0,200,16,0,201,19,0,621,20,0,621,21,0,600,22,0,621,23,0,600,24,0,600,25,0,600,26,0,600,27,0,600,28,0,600,29,0,621,30,0,600,31,0,200,32,0,600,33,0,600,34,0,600,35,0,621,36,0,621,37,0,621,38,0,621,39,0,621,40,0,600,41,0,600,42,0,600,43,0,600,44,0,600,45,0,600,46,0,621,56,0,200,57,0,200,58,0,200,59,0,600,60,0,600,61,0,600*41
$PAIRDGP,9,5,10,12,15,18,23,24,25,32*5B
$GNGGA,114154.200,2500.8187209,N,12132.4649484,E,4,61,0.46,16.084,M,15.25,M,10,3335*75
$GNRMC,114154.200,A,2500.8187209,N,12132.4649484,E,0.01,206.39,260623,,,R,V*1D
$GPHDT,147.794,T*3D
$GNACCURACY,3.0*15
$GNGGA,114154.300,2500.8187193,N,12132.4649442,E,4,61,0.46,16.090,M,15.25,M,10,3335*7B
$GNRMC,114154.300,A,2500.8187193,N,12132.4649442,E,0.01,206.39,260623,,,R,V*16
$GPHDT,,T*1B
$GNACCURACY,3.0*15
$GNGGA,114154.400,2500.8187156,N,12132.4649410,E,4,61,0.47,16.088,M,15.25,M,10,3335*7A
$GNRMC,114154.400,A,2500.8187156,N,12132.4649410,E,0.00,206.39,260623,,,R,V*1E
$GPHDT,146.496,T*3D
$GNACCURACY,3.0*15
$GNGGA,114154.500,2500.8187171,N,12132.4649415,E,4,61,0.47,16.096,M,15.25,M,10,3335*74
$GNRMC,114154.500,A,2500.8187171,N,12132.4649415,E,0.00,206.39,260623,,,R,V*1F
$GPHDT,,T*1B
$GNACCURACY,3.0*15
$GNGGA,114154.600,2500.8187201,N,12132.4649430,E,4,61,0.47,16.078,M,15.25,M,10,3335*74
$GNRMC,114154.600,A,2500.8187201,N,12132.4649430,E,0.00,206.39,260623,,,R,V*1F
$GPHDT,147.205,T*30
$GNACCURACY,3.0*15
$GNGGA,114154.700,2500.8187210,N,12132.4649455,E,4,61,0.47,16.085,M,15.25,M,10,3335*74
$GNRMC,114154.700,A,2500.8187210,N,12132.4649455,E,0.00,206.39,260623,,,R,V*1D
$GPHDT,,T*1B
$GNACCURACY,3.0*15
$GNGGA,114154.800,2500.8187186,N,12132.4649417,E,4,61,0.47,16.095,M,15.25,M,10,3335*70
$GNRMC,114154.800,A,2500.8187186,N,12132.4649417,E,0.00,206.39,260623,,,R,V*18
$GPHDT,147.051,T*33
$GNACCURACY,2.9*1D
$GNGGA,114154.900,2500.8187205,N,12132.4649436,E,4,62,0.45,16.083,M,15.25,M,10,3335*7C
$GNRMC,114154.900,A,2500.8187205,N,12132.4649436,E,0.00,206.39,260623,,,R,V*12
$GPHDT,,T*1B
$GNACCURACY,2.9*1D
$GNGGA,114155.000,2500.8187195,N,12132.4649419,E,4,62,0.45,16.079,M,15.25,M,11,3335*77
$GNRMC,114155.000,A,2500.8187195,N,12132.4649419,E,0.01,206.39,260623,,,R,V*1C
$GPHDT,147.184,T*3A
$GNACCURACY,2.9*1D
$GNGGA,114155.100,2500.8187187,N,12132.4649409,E,4,62,0.45,16.094,M,15.25,M,11,3335*77
$GNRMC,114155.100,A,2500.8187187,N,12132.4649409,E,0.00,206.39,260623,,,R,V*1E
$GPHDT,,T*1B
$GNGSA,A,3,196,24,199,23,18,15,194,195,12,10,05,32,0.80,0.45,0.67,1*0B
$GNGSA,A,3,80,73,85,86,71,,,,,,,,0.80,0.45,0.67,2*03
$GNGSA,A,3,13,07,08,26,30,02,15,,,,,,0.80,0.45,0.67,3*07
$GNGSA,A,3,08,38,13,39,16,06,46,19,09,36,20,35,0.80,0.45,0.67,4*04
$GNGSA,A,3,37,22,29,,,,,,,,,,0.80,0.45,0.67,4*03
$GPGSV,4,1,15,196,75,070,27,24,66,036,32,199,60,167,37,23,57,343,40,1*69
$GPGSV,4,2,15,18,54,234,42,41,38,242,35,15,33,054,20,194,33,137,40,1*5B
$GPGSV,4,3,15,195,31,179,30,12,25,136,37,10,23,321,41,05,14,124,20,1*50
$GPGSV,4,4,15,25,14,172,18,32,12,275,35,13,04,062,,1*59
$GPGSV,3,1,10,196,75,070,39,24,66,036,37,199,60,167,45,23,57,343,35,8*6F
$GPGSV,3,2,10,18,54,234,44,194,33,137,39,195,31,179,35,10,23,321,26,8*61
$GPGSV,3,3,10,25,14,172,22,32,12,275,36,8*6D
$GLGSV,2,1,08,80,47,064,28,73,46,155,44,70,41,021,,85,30,238,23,1*70
$GLGSV,2,2,08,86,28,293,44,71,25,322,33,69,10,081,15,79,06,028,15,1*7B
$GAGSV,3,1,09,13,51,224,41,07,45,311,42,08,44,032,24,26,34,301,41,7*77
$GAGSV,3,2,09,30,30,139,38,02,27,079,13,15,17,173,24,03,08,069,18,7*7C
$GAGSV,3,3,09,27,05,186,,7*45
$GAGSV,2,1,06,13,51,224,42,07,45,311,45,26,34,301,42,30,30,139,33,1*7C
$GAGSV,2,2,06,02,27,079,18,15,17,173,24,1*72
$GBGSV,4,1,15,08,83,357,39,38,82,142,46,13,71,327,43,39,70,292,44,1*7A
$GBGSV,4,2,15,16,66,267,40,06,65,262,40,46,62,098,34,19,52,353,46,1*7B
$GBGSV,4,3,15,09,50,244,38,36,42,183,46,20,41,071,20,35,19,262,32,1*71
$GBGSV,4,4,15,37,18,044,30,22,15,306,30,29,15,207,31,1*46
$GBGSV,2,1,08,38,82,142,47,39,70,292,43,46,62,098,36,19,52,353,40,4*72
$GBGSV,2,2,08,36,42,183,45,35,19,262,25,22,15,306,36,29,15,207,25,4*75
$GNACCURACY,2.9*1D
$PAIRSAT,1,35,1,0,200,2,0,200,3,0,200,4,0,200,5,0,201,6,0,200,7,0,200,8,0,200,9,0,200,10,0,221,11,0,200,12,0,201,13,0,201,14,0,200,15,0,201,16,0,200,17,0,200,18,0,221,19,0,200,20,0,200,21,0,200,23,0,221,24,0,221,25,0,200,26,0,200,27,0,200,28,0,200,29,0,200,30,0,200,31,0,200,32,0,221,194,0,621,195,0,621,196,0,620,199,0,621*68
$PAIRSAT,2,24,65,0,200,66,0,200,67,0,200,68,0,200,69,0,201,70,0,201,71,0,201,72,0,200,73,0,201,74,0,200,75,0,200,76,0,200,77,0,200,78,0,200,79,0,201,80,0,201,81,0,200,82,0,200,83,0,200,84,0,200,85,0,201,86,0,201,87,0,200,88,0,200*7A
$PAIRSAT,3,23,2,0,1221,3,0,1221,4,0,1200,5,0,200,7,0,1221,8,0,1221,9,0,1200,10,0,1200,11,0,1200,12,0,1200,13,0,1221,15,0,1221,19,0,1200,21,0,1200,24,0,1200,25,0,1200,26,0,1221,27,0,1200,30,0,1221,31,0,1200,33,0,1200,34,0,1200,36,0,1200*6A
$PAIRSAT,4,50,1,0,200,2,0,200,3,0,200,4,0,200,5,0,200,6,0,201,7,0,200,8,0,201,9,0,201,10,0,200,11,0,200,12,0,200,13,0,201,14,0,200,15,0,200,16,0,201,19,0,621,20,0,621,21,0,600,22,0,621,23,0,600,24,0,600,25,0,600,26,0,600,27,0,600,28,0,600,29,0,621,30,0,600,31,0,200,32,0,600,33,0,600,34,0,600,35,0,621,36,0,621,37,0,621,38,0,621,39,0,621,40,0,600,41,0,600,42,0,600,43,0,600,44,0,600,45,0,600,46,0,621,56,0,200,57,0,200,58,0,200,59,0,600,60,0,600,61,0,600*41
$PAIRDGP,9,5,10,12,15,18,23,24,25,32*5B
$GNGGA,114155.200,2500.8187155,N,12132.4649383,E,4,62,0.45,16.086,M,15.25,M,11,3335*7D
$GNRMC,114155.200,A,2500.8187155,N,12132.4649383,E,0.00,206.39,260623,,,R,V*17
$GPHDT,146.710,T*30
$GNACCURACY,2.9*1D
$GNGGA,114155.300,2500.8187180,N,12132.4649411,E,4,62,0.45,16.100,M,15.25,M,11,3335*77
$GNRMC,114155.300,A,2500.8187180,N,12132.4649411,E,0.00,206.39,260623,,,R,V*12
$GPHDT,,T*1B
$GNACCURACY,3.0*15
$GNGGA,114155.400,2500.8187214,N,12132.4649473,E,4,61,0.47,16.106,M,15.25,M,11,3335*7D
$GNRMC,114155.400,A,2500.8187214,N,12132.4649473,E,0.00,206.39,260623,,,R,V*1F
$GPHDT,147.998,T*3F
$GNACCURACY,2.9*1D
$GNGGA,114155.500,2500.8187219,N,12132.4649463,E,4,62,0.45,16.107,M,15.25,M,11,3335*70
$GNRMC,114155.500,A,2500.8187219,N,12132.4649463,E,0.00,206.39,260623,,,R,V*12
$GPHDT,,T*1B
$GNACCURACY,2.9*1D
$GNGGA,114155.600,2500.8187217,N,12132.4649429,E,4,61,0.47,16.092,M,15.25,M,11,3335*7F
$GNRMC,114155.600,A,2500.8187217,N,12132.4649429,E,0.00,206.39,260623,,,R,V*11
$GPHDT,147.628,T*3B
$GNACCURACY,2.9*1D
$GNGGA,114155.700,2500.8187206,N,12132.4649424,E,4,61,0.47,16.096,M,15.25,M,11,3335*77
$GNRMC,114155.700,A,2500.8187206,N,12132.4649424,E,0.00,206.39,260623,,,R,V*1D
$GPHDT,,T*1B
$GNACCURACY,2.9*1D
$GNGGA,114155.800,2500.8187207,N,12132.4649430,E,4,60,0.47,16.101,M,15.25,M,11,3335*72
$GNRMC,114155.800,A,2500.8187207,N,12132.4649430,E,0.00,206.39,260623,,,R,V*16
$GPHDT,147.217,T*33
$GNACCURACY,3.0*15
$GNGGA,114155.900,2500.8187190,N,12132.4649421,E,4,61,0.47,16.090,M,15.25,M,11,3335*76
$GNRMC,114155.900,A,2500.8187190,N,12132.4649421,E,0.00,206.39,260623,,,R,V*1A
$GPHDT,,T*1B
$GNACCURACY,3.0*15
$GNGGA,114156.000,2500.8187206,N,12132.4649424,E,4,61,0.47,16.103,M,15.25,M,12,3335*7D
$GNRMC,114156.000,A,2500.8187206,N,12132.4649424,E,0.00,206.39,260623,,,R,V*19
$GPHDT,147.570,T*35
$GNACCURACY,3.0*15
$GNGGA,114156.100,2500.8187207,N,12132.4649415,E,4,61,0.47,16.096,M,15.25,M,12,3335*72
$GNRMC,114156.100,A,2500.8187207,N,12132.4649415,E,0.00,206.39,260623,,,R,V*1B
$GPHDT,,T*1B
$GNGSA,A,3,196,24,199,23,18,15,194,195,12,10,05,32,0.84,0.47,0.70,1*0B
$GNGSA,A,3,80,73,85,86,71,,,,,,,,0.84,0.47,0.70,2*03
$GNGSA,A,3,13,07,08,26,30,15,02,,,,,,0.84,0.47,0.70,3*07
$GNGSA,A,3,08,38,13,39,16,06,46,19,09,36,20,35,0.84,0.47,0.70,4*04
$GNGSA,A,3,22,29,,,,,,,,,,,0.84,0.47,0.70,4*07
$GPGSV,4,1,15,196,75,070,29,24,66,036,32,199,60,167,37,23,57,343,40,1*67
$GPGSV,4,2,15,18,54,234,42,41,38,242,34,15,33,054,18,194,33,137,40,1*51
$GPGSV,4,3,15,195,31,179,30,12,25,136,37,10,23,321,41,05,14,124,20,1*50
$GPGSV,4,4,15,25,14,172,17,32,12,275,35,13,04,062,,1*56
$GPGSV,3,1,10,196,75,070,40,24,66,036,37,199,60,167,46,23,57,343,37,8*60
$GPGSV,3,2,10,18,54,234,44,194,33,137,39,195,31,179,35,10,23,321,26,8*61
$GPGSV,3,3,10,25,14,172,23,32,12,275,38,8*62
$GLGSV,3,1,09,80,47,064,28,73,46,155,44,70,41,021,,85,30,238,24,1*77
$GLGSV,3,2,09,86,28,293,44,71,25,322,32,69,10,081,12,79,06,028,15,1*7D
$GLGSV,3,3,09,84,02,187,,1*41
$GAGSV,2,1,08,13,51,224,41,07,45,311,43,08,44,032,24,26,34,301,41,7*76
$GAGSV,2,2,08,30,30,139,38,02,27,079,,15,17,173,24,03,08,069,18,7*7E
$GAGSV,2,1,06,13,51,224,42,07,45,311,45,26,34,301,42,30,30,139,34,1*7B
$GAGSV,2,2,06,02,27,079,18,15,17,173,25,1*73
$GBGSV,5,1,17,08,83,357,38,38,82,142,46,13,71,327,43,39,70,292,44,1*78
$GBGSV,5,2,17,16,66,267,41,06,65,262,40,46,62,098,34,19,52,353,46,1*79
$GBGSV,5,3,17,09,50,244,38,36,42,183,46,20,41,071,20,35,19,262,33,1*73
$GBGSV,5,4,17,37,18,044,30,22,15,306,31,29,15,207,24,07,05,191,,1*7B
$GBGSV,5,5,17,44,03,306,,1*46
$GBGSV,3,1,10,38,82,142,47,39,70,292,44,46,62,098,36,19,52,353,40,4*7D
$GBGSV,3,2,10,36,42,183,45,20,41,071,19,35,19,262,28,37,18,044,26,4*79
$GBGSV,3,3,10,22,15,306,36,29,15,207,28,4*76
$GNACCURACY,2.9*1D
$PAIRSAT,1,35,1,0,200,2,0,200,3,0,200,4,0,200,5,0,201,6,0,200,7,0,200,8,0,200,9,0,200,10,0,221,11,0,200,12,0,201,13,0,201,14,0,200,15,0,201,16,0,200,17,0,200,18,0,221,19,0,200,20,0,200,21,0,200,23,0,221,24,0,221,25,0,200,26,0,200,27,0,200,28,0,200,29,0,200,30,0,200,31,0,200,32,0,221,194,0,621,195,0,621,196,0,620,199,0,621*68
$PAIRSAT,2,24,65,0,200,66,0,200,67,0,200,68,0,200,69,0,201,70,0,201,71,0,201,72,0,200,73,0,201,74,0,200,75,0,200,76,0,200,77,0,200,78,0,200,79,0,201,80,0,201,81,0,200,82,0,200,83,0,200,84,0,200,85,0,201,86,0,201,87,0,200,88,0,200*7A
$PAIRSAT,3,23,2,0,1221,3,0,1221,4,0,1200,5,0,200,7,0,1221,8,0,1221,9,0,1200,10,0,1200,11,0,1200,12,0,1200,13,0,1221,15,0,1221,19,0,1200,21,0,1200,24,0,1200,25,0,1200,26,0,1221,27,0,1200,30,0,1221,31,0,1200,33,0,1200,34,0,1200,36,0,1200*6A
$PAIRSAT,4,50,1,0,200,2,0,200,3,0,200,4,0,200,5,0,200,6,0,201,7,0,200,8,0,201,9,0,201,10,0,200,11,0,200,12,0,200,13,0,201,14,0,200,15,0,200,16,0,201,19,0,621,20,0,621,21,0,600,22,0,621,23,0,600,24,0,600,25,0,600,26,0,600,27,0,600,28,0,600,29,0,621,30,0,600,31,0,200,32,0,600,33,0,600,34,0,600,35,0,621,36,0,621,37,0,621,38,0,621,39,0,621,40,0,600,41,0,600,42,0,600,43,0,600,44,0,600,45,0,600,46,0,621,56,0,200,57,0,200,58,0,200,59,0,600,60,0,600,61,0,600*41
$PAIRDGP,9,5,10,12,15,18,23,24,25,32*5B
$GNGGA,114156.200,2500.8187225,N,12132.4649452,E,4,61,0.47,16.105,M,15.25,M,12,3335*79
$GNRMC,114156.200,A,2500.8187225,N,12132.4649452,E,0.00,206.39,260623,,,R,V*1B
$GPHDT,147.749,T*3D
$GNACCURACY,2.9*1D
$GNGGA,114156.300,2500.8187224,N,12132.4649444,E,4,61,0.47,16.104,M,15.25,M,12,3335*7F
$GNRMC,114156.300,A,2500.8187224,N,12132.4649444,E,0.00,206.39,260623,,,R,V*1C
$GPHDT,,T*1B
$GNACCURACY,2.9*1D
$GNGGA,114156.400,2500.8187244,N,12132.4649483,E,4,61,0.47,16.102,M,15.25,M,12,3335*73
$GNRMC,114156.400,A,2500.8187244,N,12132.4649483,E,0.00,206.39,260623,,,R,V*16
$GPHDT,148.475,T*3E
$GNACCURACY,2.9*1D
$GNGGA,114156.500,2500.8187210,N,12132.4649441,E,4,62,0.45,16.105,M,15.25,M,12,3335*7B
$GNRMC,114156.500,A,2500.8187210,N,12132.4649441,E,0.00,206.39,260623,,,R,V*18
$GPHDT,,T*1B
$GNACCURACY,2.9*1D
$GNGGA,114156.600,2500.8187187,N,12132.4649420,E,4,62,0.45,16.099,M,15.25,M,12,3335*76
$GNRMC,114156.600,A,2500.8187187,N,12132.4649420,E,0.00,206.39,260623,,,R,V*11
$GPHDT,147.348,T*38
$GNACCURACY,2.9*1D
$GNGGA,114156.700,2500.8187208,N,12132.4649420,E,4,61,0.47,16.097,M,15.25,M,12,3335*7C
$GNRMC,114156.700,A,2500.8187208,N,12132.4649420,E,0.00,206.39,260623,,,R,V*14
$GPHDT,,T*1B
$GNACCURACY,2.9*1D
$GNGGA,114156.800,2500.8187214,N,12132.4649451,E,4,61,0.47,16.103,M,15.25,M,12,3335*74
$GNRMC,114156.800,A,2500.8187214,N,12132.4649451,E,0.00,206.39,260623,,,R,V*10
$GPHDT,147.969,T*31
$GNACCURACY,2.9*1D
$GNGGA,114156.900,2500.8187228,N,12132.4649426,E,4,62,0.45,16.099,M,15.25,M,12,3335*79
$GNRMC,114156.900,A,2500.8187228,N,12132.4649426,E,0.00,206.39,260623,,,R,V*1E
$GPHDT,,T*1B
$GNACCURACY,2.9*1D
$GNGGA,114157.000,2500.8187211,N,12132.4649390,E,4,62,0.45,16.103,M,15.25,M,13,3335*72
$GNRMC,114157.000,A,2500.8187211,N,12132.4649390,E,0.00,206.39,260623,,,R,V*16
$GPHDT,147.372,T*31
$GNACCURACY,2.9*1D
$GNGGA,114157.100,2500.8187213,N,12132.4649422,E,4,62,0.45,16.097,M,15.25,M,13,3335*73
$GNRMC,114157.100,A,2500.8187213,N,12132.4649422,E,0.00,206.39,260623,,,R,V*1B
$GPHDT,,T*1B
$GNGSA,A,3,196,24,199,23,18,15,194,195,12,10,05,32,0.84,0.47,0.70,1*0B
$GNGSA,A,3,80,73,85,86,71,,,,,,,,0.84,0.47,0.70,2*03
$GNGSA,A,3,13,07,08,26,30,15,02,,,,,,0.84,0.47,0.70,3*07
$GNGSA,A,3,08,38,13,39,16,06,46,19,09,36,20,35,0.84,0.47,0.70,4*04
$GNGSA,A,3,22,29,,,,,,,,,,,0.84,0.47,0.70,4*07
$GPGSV,4,1,15,196,75,070,30,24,66,036,31,199,60,167,38,23,57,343,39,1*6D
$GPGSV,4,2,15,18,54,234,43,41,38,242,34,15,33,054,18,194,33,137,40,1*50
$GPGSV,4,3,15,195,31,179,30,12,25,136,37,10,23,321,41,05,14,124,19,1*5A
$GPGSV,4,4,15,25,14,172,17,32,12,275,36,13,04,062,,1*55
$GPGSV,3,1,10,196,75,070,40,24,66,036,36,199,60,167,46,23,57,343,36,8*60
$GPGSV,3,2,10,18,54,234,44,194,33,137,39,195,31,179,35,10,23,321,26,8*61
$GPGSV,3,3,10,25,14,172,24,32,12,275,39,8*64
$GLGSV,3,1,09,80,47,064,26,73,46,155,44,70,41,021,,85,30,238,23,1*7E
$GLGSV,3,2,09,86,28,293,44,71,25,322,33,69,10,081,15,79,06,028,15,1*7B
$GLGSV,3,3,09,84,02,187,,1*41
$GAGSV,3,1,09,13,51,224,41,07,45,311,43,08,44,032,24,26,34,301,41,7*76
$GAGSV,3,2,09,30,30,139,38,02,27,079,,15,17,173,24,03,08,069,17,7*71
$GAGSV,3,3,09,27,05,186,,7*45
$GAGSV,2,1,06,13,51,224,42,07,45,311,46,26,34,301,43,30,30,139,33,1*7E
$GAGSV,2,2,06,02,27,079,16,15,17,173,25,1*7D
$GBGSV,4,1,16,08,83,357,38,38,82,142,46,13,71,327,43,39,70,292,44,1*78
$GBGSV,4,2,16,16,66,267,41,06,65,262,41,46,62,098,35,19,52,353,46,1*79
$GBGSV,4,3,16,09,50,244,38,36,42,183,46,20,41,071,20,35,19,262,34,1*74
$GBGSV,4,4,16,37,18,044,30,22,15,306,30,29,15,207,24,07,05,191,,1*7A
$GBGSV,3,1,09,38,82,142,48,39,70,292,44,46,62,098,36,19,52,353,40,4*7A
$GBGSV,3,2,09,36,42,183,46,20,41,071,20,35,19,262,25,22,15,306,37,4*79
$GBGSV,3,3,09,29,15,207,28,4*4A
$GNACCURACY,2.9*1D
$PAIRSAT,1,35,1,0,200,2,0,200,3,0,200,4,0,200,5,0,201,6,0,200,7,0,200,8,0,200,9,0,200,10,0,221,11,0,200,12,0,201,13,0,201,14,0,200,15,0,201,16,0,200,17,0,200,18,0,221,19,0,200,20,0,200,21,0,200,23,0,221,24,0,221,25,0,200,26,0,200,27,0,200,28,0,200,29,0,200,30,0,200,31,0,200,32,0,221,194,0,621,195,0,621,196,0,620,199,0,621*68
$PAIRSAT,2,24,65,0,200,66,0,200,67,0,200,68,0,200,69,0,201,70,0,201,71,0,201,72,0,200,73,0,201,74,0,200,75,0,200,76,0,200,77,0,200,78,0,200,79,0,201,80,0,201,81,0,200,82,0,200,83,0,200,84,0,200,85,0,201,86,0,201,87,0,200,88,0,200*7A
$PAIRSAT,3,23,2,0,1221,3,0,1221,4,0,1200,5,0,200,7,0,1221,8,0,1221,9,0,1200,10,0,1200,11,0,1200,12,0,1200,13,0,1221,15,0,1221,19,0,1200,21,0,1200,24,0,1200,25,0,1200,26,0,1221,27,0,1200,30,0,1221,31,0,1200,33,0,1200,34,0,1200,36,0,1200*6A
$PAIRSAT,4,50,1,0,200,2,0,200,3,0,200,4,0,200,5,0,200,6,0,201,7,0,200,8,0,201,9,0,201,10,0,200,11,0,200,12,0,200,13,0,201,14,0,200,15,0,200,16,0,201,19,0,621,20,0,621,21,0,600,22,0,621,23,0,600,24,0,600,25,0,600,26,0,600,27,0,600,28,0,600,29,0,621,30,0,600,31,0,200,32,0,600,33,0,600,34,0,600,35,0,621,36,0,621,37,0,621,38,0,621,39,0,621,40,0,600,41,0,600,42,0,600,43,0,600,44,0,600,45,0,600,46,0,621,56,0,200,57,0,200,58,0,200,59,0,600,60,0,600,61,0,600*41
$PAIRDGP,9,5,10,12,15,18,23,24,25,32*5B
$GNGGA,114157.200,2500.8187211,N,12132.4649397,E,4,61,0.47,16.104,M,15.25,M,13,3335*71
$GNRMC,114157.200,A,2500.8187211,N,12132.4649397,E,0.00,206.39,260623,,,R,V*13
$GPHDT,147.839,T*35
$GNACCURACY,2.9*1D
$GNGGA,114157.300,2500.8187226,N,12132.4649416,E,4,61,0.47,16.104,M,15.25,M,13,3335*7A
$GNRMC,114157.300,A,2500.8187226,N,12132.4649416,E,0.00,206.39,260623,,,R,V*18
$GPHDT,,T*1B
$GNACCURACY,2.9*1D
$GNGGA,114157.400,2500.8187207,N,12132.4649411,E,4,61,0.47,16.110,M,15.25,M,13,3335*7C
$GNRMC,114157.400,A,2500.8187207,N,12132.4649411,E,0.00,206.39,260623,,,R,V*1B
$GPHDT,147.486,T*3D
$GNACCURACY,2.9*1D
$GNGGA,114157.500,2500.8187208,N,12132.4649407,E,4,62,0.45,16.109,M,15.25,M,13,3335*7C
$GNRMC,114157.500,A,2500.8187208,N,12132.4649407,E,0.00,206.39,260623,,,R,V*12
$GPHDT,,T*1B
$GNACCURACY,2.9*1D
$GNGGA,114157.600,2500.8187217,N,12132.4649429,E,4,62,0.45,16.123,M,15.25,M,13,3335*75
$GNRMC,114157.600,A,2500.8187217,N,12132.4649429,E,0.00,206.39,260623,,,R,V*13
$GPHDT,147.727,T*35
$GNACCURACY,2.9*1D
$GNGGA,114157.700,2500.8187220,N,12132.4649389,E,4,61,0.47,16.101,M,15.25,M,13,3335*7C
$GNRMC,114157.700,A,2500.8187220,N,12132.4649389,E,0.01,206.39,260623,,,R,V*1A
$GPHDT,,T*1B
$GNACCURACY,2.9*1D
$GNGGA,114157.800,2500.8187218,N,12132.4649405,E,4,61,0.47,16.114,M,15.25,M,13,3335*7F
$GNRMC,114157.800,A,2500.8187218,N,12132.4649405,E,0.01,206.39,260623,,,R,V*1D
$GPHDT,147.663,T*34
$GNACCURACY,2.9*1D
$GNGGA,114157.900,2500.8187193,N,12132.4649382,E,4,61,0.47,16.107,M,15.25,M,13,3335*74
$GNRMC,114157.900,A,2500.8187193,N,12132.4649382,E,0.00,206.39,260623,,,R,V*15
$GPHDT,,T*1B
$GNACCURACY,2.9*1D
$GNGGA,114158.000,2500.8187215,N,12132.4649408,E,4,61,0.47,16.111,M,15.25,M,14,3335*7A
$GNRMC,114158.000,A,2500.8187215,N,12132.4649408,E,0.01,206.39,260623,,,R,V*1A
$GPHDT,147.680,T*39
$GNACCURACY,2.9*1D
$GNGGA,114158.100,2500.8187210,N,12132.4649414,E,4,61,0.47,16.114,M,15.25,M,14,3335*76
$GNRMC,114158.100,A,2500.8187210,N,12132.4649414,E,0.01,206.39,260623,,,R,V*13
$GPHDT,,T*1B
$GNGSA,A,3,196,24,199,23,18,15,194,195,12,10,05,32,0.80,0.45,0.67,1*0B
$GNGSA,A,3,80,73,85,86,71,,,,,,,,0.80,0.45,0.67,2*03
$GNGSA,A,3,13,07,08,26,30,15,02,,,,,,0.80,0.45,0.67,3*07
$GNGSA,A,3,08,38,13,39,16,06,46,19,09,36,20,35,0.80,0.45,0.67,4*04
$GNGSA,A,3,37,22,29,,,,,,,,,,0.80,0.45,0.67,4*03
$GPGSV,4,1,15,196,75,070,29,24,66,