$FW : RTK35X,V1.1X0314AS,Lib20210517,1*54
$Tool : LOCOSYS , GNSS Firebird , v1.0.0.19*39
$---------------------------------------------------*2D
$GNACCURACY,2.8*1C
$GNGGA,113652.600,2500.8193081,N,12132.4670500,E,2,60,0.48,17.991,M,15.25,M,0,3335*43
$GNRMC,113652.600,A,2500.8193081,N,12132.4670500,E,0.02,206.39,260623,,,D,V*0A
$GPHDT,,T*1B
$GNACCURACY,2.8*1C
$GNGGA,113652.700,2500.8193081,N,12132.4670500,E,2,60,0.48,17.993,M,15.25,M,0,3335*40
$GNRMC,113652.700,A,2500.8193081,N,12132.4670500,E,0.02,206.39,260623,,,D,V*0B
$GPHDT,,T*1B
$GNACCURACY,2.8*1C
$GNGGA,113652.800,2500.8193141,N,12132.4670440,E,2,60,0.48,17.996,M,15.25,M,0,3335*42
$GNRMC,113652.800,A,2500.8193141,N,12132.4670440,E,0.03,206.39,260623,,,D,V*0D
$GPHDT,,T*1B
$GNACCURACY,2.8*1C
$GNGGA,113652.900,2500.8193141,N,12132.4670380,E,2,60,0.48,18.000,M,15.25,M,0,3335*41
$GNRMC,113652.900,A,2500.8193141,N,12132.4670380,E,0.03,206.39,260623,,,D,V*07
$GPHDT,,T*1B
$GNACCURACY,2.8*1C
$GNGGA,113653.000,2500.8193201,N,12132.4670380,E,2,59,0.48,18.005,M,15.25,M,1,3335*40
$GNRMC,113653.000,A,2500.8193201,N,12132.4670380,E,0.04,206.39,260623,,,D,V*0F
$GPHDT,,T*1B
$GNACCURACY,2.8*1C
$GNGGA,113653.100,2500.8193261,N,12132.4670380,E,2,59,0.48,18.010,M,15.25,M,1,3335*43
$GNRMC,113653.100,A,2500.8193261,N,12132.4670380,E,0.03,206.39,260623,,,D,V*0F
$GPHDT,,T*1B
$GNGSA,A,3,196,199,18,23,195,194,12,10,05,32,24,,0.75,0.48,0.58,1*04
$GNGSA,A,3,80,73,85,86,71,,,,,,,,0.75,0.48,0.58,2*08
$GNGSA,A,3,13,07,08,26,30,02,15,,,,,,0.75,0.48,0.58,3*0C
$GNGSA,A,3,38,08,39,13,16,06,46,19,09,20,36,35,0.75,0.48,0.58,4*0F
$GNGSA,A,3,29,22,,,,,,,,,,,0.75,0.48,0.58,4*0C
$GPGSV,4,1,15,196,75,068,25,24,69,037,17,199,60,167,37,18,56,238,42,1*6D
$GPGSV,4,2,15,23,55,341,23,41,38,242,33,15,34,052,15,195,32,180,26,1*5B
$GPGSV,4,3,15,194,32,137,41,12,23,137,25,10,21,321,37,05,16,122,26,1*5B
$GPGSV,4,4,15,25,12,174,21,32,11,273,33,13,06,060,13,1*52
$GPGSV,3,1,09,196,75,068,36,24,69,037,34,199,60,167,46,18,56,238,45,8*6C
$GPGSV,3,2,09,23,55,341,40,194,32,137,42,195,32,180,36,10,21,321,38,8*61
$GPGSV,3,3,09,32,11,273,31,8*51
$GLGSV,3,1,09,80,48,068,32,73,44,156,44,70,41,017,,85,32,240,23,1*71
$GLGSV,3,2,09,86,28,296,40,71,24,319,37,69,11,079,14,79,08,029,17,1*7D
$GLGSV,3,3,09,84,04,188,,1*48
$GAGSV,3,1,09,13,53,227,42,07,45,308,35,08,45,030,26,26,34,303,38,7*70
$GAGSV,3,2,09,30,29,141,33,02,27,081,17,15,19,174,26,03,09,067,,7*7E
$GAGSV,3,3,09,27,04,186,,7*44
$GAGSV,2,1,07,13,53,227,43,07,45,308,42,08,45,030,34,26,34,303,40,1*74
$GAGSV,2,2,07,30,29,141,33,02,27,081,21,15,19,174,26,1*49
$GBGSV,4,1,15,38,83,133,41,08,82,000,43,39,70,289,41,13,70,330,43,1*7F
$GBGSV,4,2,15,16,66,264,43,06,65,259,42,46,61,102,34,19,51,350,43,1*75
$GBGSV,4,3,15,09,50,242,39,20,42,069,27,36,39,183,44,35,20,264,35,1*7E
$GBGSV,4,4,15,37,20,045,,29,16,209,24,22,14,304,27,1*43
$GBGSV,2,1,07,38,83,133,45,39,70,289,42,46,61,102,35,19,51,350,42,4*73
$GBGSV,2,2,07,36,39,183,45,29,16,209,25,22,14,304,30,4*41
$GNACCURACY,2.8*1C
$PAIRSAT,1,35,1,0,200,2,0,200,3,0,200,4,0,200,5,0,201,6,0,200,7,0,200,8,0,200,9,0,200,10,0,221,11,0,200,12,0,201,13,0,201,14,0,200,15,0,201,16,0,200,17,0,200,18,0,221,19,0,200,20,0,200,21,0,200,23,0,221,24,0,221,25,0,200,26,0,200,27,0,200,28,0,200,29,0,200,30,0,200,31,0,200,32,0,221,194,0,621,195,0,621,196,0,620,199,0,621*68
$PAIRSAT,2,24,65,0,200,66,0,200,67,0,200,68,0,200,69,0,201,70,0,201,71,0,201,72,0,200,73,0,201,74,0,200,75,0,200,76,0,200,77,0,200,78,0,200,79,0,201,80,0,201,81,0,200,82,0,200,83,0,200,84,0,200,85,0,201,86,0,201,87,0,200,88,0,200*7A
$PAIRSAT,3,23,2,0,1221,3,0,1221,4,0,1200,5,0,200,7,0,1221,8,0,1221,9,0,1200,10,0,1200,11,0,1200,12,0,1200,13,0,1221,15,0,1221,19,0,1200,21,0,1200,24,0,1200,25,0,1200,26,0,1221,27,0,1200,30,0,1221,31,0,1200,33,0,1200,34,0,1200,36,0,1200*6A
$PAIRSAT,4,50,1,0,200,2,0,200,3,0,200,4,0,200,5,0,200,6,0,201,7,0,200,8,0,201,9,0,201,10,0,200,11,0,200,12,0,200,13,0,201,14,0,200,15,0,200,16,0,201,19,0,621,20,0,621,21,0,600,22,0,621,23,0,600,24,0,600,25,0,600,26,0,600,27,0,600,28,0,600,29,0,621,30,0,600,31,0,200,32,0,600,33,0,600,34,0,600,35,0,621,36,0,621,37,0,621,38,0,621,39,0,621,40,0,600,41,0,600,42,0,600,43,0,600,44,0,600,45,0,600,46,0,621,56,0,200,57,0,200,58,0,200,59,0,600,60,0,600,61,0,600*41
$PAIRDGP,9,5,10,12,15,18,23,24,25,32*5B
$GNGGA,113653.200,2500.8193261,N,12132.4670380,E,2,59,0.48,18.012,M,15.25,M,1,3335*42
$GNRMC,113653.200,A,2500.8193261,N,12132.4670380,E,0.03,206.39,260623,,,D,V*0C
$GPHDT,,T*1B
$GNACCURACY,2.8*1C
$GNGGA,113653.300,2500.8193321,N,12132.4670320,E,2,59,0.48,18.019,M,15.25,M,1,3335*47
$GNRMC,113653.300,A,2500.8193321,N,12132.4670320,E,0.04,206.39,260623,,,D,V*05
$GPHDT,,T*1B
$GNACCURACY,2.8*1C
$GNGGA,113653.400,2500.8193321,N,12132.4670320,E,2,59,0.48,18.026,M,15.25,M,1,3335*4C
$GNRMC,113653.400,A,2500.8193321,N,12132.4670320,E,0.03,206.39,260623,,,D,V*05
$GPHDT,,T*1B
$GNACCURACY,2.8*1C
$GNGGA,113653.500,2500.8193381,N,12132.4670260,E,2,59,0.48,18.034,M,15.25,M,0,3335*40
$GNRMC,113653.500,A,2500.8193381,N,12132.4670260,E,0.05,206.39,260623,,,D,V*0D
$GPHDT,,T*1B
$GNACCURACY,2.8*1C
$GNGGA,113653.600,2500.8193441,N,12132.4670200,E,2,59,0.48,18.043,M,15.25,M,0,3335*4E
$GNRMC,113653.600,A,2500.8193441,N,12132.4670200,E,0.05,206.39,260623,,,D,V*03
$GPHDT,,T*1B
$GNACCURACY,2.8*1C
$GNGGA,113653.700,2500.8193501,N,12132.4670200,E,2,59,0.48,18.046,M,15.25,M,0,3335*4F
$GNRMC,113653.700,A,2500.8193501,N,12132.4670200,E,0.04,206.39,260623,,,D,V*06
$GPHDT,,T*1B
$GNACCURACY,2.8*1C
$GNGGA,113653.800,2500.8193501,N,12132.4670140,E,2,59,0.48,18.051,M,15.25,M,0,3335*41
$GNRMC,113653.800,A,2500.8193501,N,12132.4670140,E,0.03,206.39,260623,,,D,V*09
$GPHDT,,T*1B
$GNACCURACY,2.8*1C
$GNGGA,113653.900,2500.8193561,N,12132.4670080,E,2,59,0.48,18.057,M,15.25,M,0,3335*4D
$GNRMC,113653.900,A,2500.8193561,N,12132.4670080,E,0.04,206.39,260623,,,D,V*04
$GPHDT,,T*1B
$GNACCURACY,2.8*1C
$GNGGA,113654.000,2500.8193561,N,12132.4670020,E,2,59,0.48,18.066,M,15.25,M,1,3335*4A
$GNRMC,113654.000,A,2500.8193561,N,12132.4670020,E,0.03,206.39,260623,,,D,V*07
$GPHDT,,T*1B
$GNACCURACY,2.8*1C
$GNGGA,113654.100,2500.8193561,N,12132.4670020,E,2,59,0.48,18.077,M,15.25,M,1,3335*4B
$GNRMC,113654.100,A,2500.8193561,N,12132.4670020,E,0.03,206.39,260623,,,D,V*06
$GPHDT,,T*1B
$GNGSA,A,3,196,199,18,23,195,194,12,10,05,32,24,,0.75,0.48,0.58,1*04
$GNGSA,A,3,80,73,85,86,71,,,,,,,,0.75,0.48,0.58,2*08
$GNGSA,A,3,13,07,08,26,30,02,15,,,,,,0.75,0.48,0.58,3*0C
$GNGSA,A,3,38,08,39,13,16,06,46,19,09,20,36,35,0.75,0.48,0.58,4*0F
$GNGSA,A,3,29,22,,,,,,,,,,,0.75,0.48,0.58,4*0C
$GPGSV,4,1,15,196,75,068,25,24,69,037,20,199,60,167,37,18,56,238,42,1*69
$GPGSV,4,2,15,23,55,341,24,41,38,242,31,15,34,052,16,195,32,180,25,1*5E
$GPGSV,4,3,15,194,32,137,42,12,23,137,25,10,21,321,37,05,16,122,25,1*5B
$GPGSV,4,4,15,25,12,174,21,32,11,273,32,13,06,060,15,1*55
$GPGSV,3,1,09,196,75,068,36,24,69,037,34,199,60,167,46,18,56,238,45,8*6C
$GPGSV,3,2,09,23,55,341,40,194,32,137,42,195,32,180,35,10,21,321,40,8*6D
$GPGSV,3,3,09,32,11,273,30,8*50
$GLGSV,3,1,09,80,48,068,31,73,44,156,44,70,41,017,,85,32,240,20,1*71
$GLGSV,3,2,09,86,28,296,38,71,24,319,40,69,11,079,13,79,08,029,19,1*7B
$GLGSV,3,3,09,84,04,188,,1*48
$GAGSV,3,1,09,13,53,227,42,07,45,308,40,08,45,030,26,26,34,303,33,7*79
$GAGSV,3,2,09,30,29,141,33,02,27,081,17,15,19,174,26,03,09,067,,7*7E
$GAGSV,3,3,09,27,04,186,,7*44
$GAGSV,2,1,07,13,53,227,42,07,45,308,40,08,45,030,33,26,34,303,36,1*71
$GAGSV,2,2,07,30,29,141,32,02,27,081,21,15,19,174,26,1*48
$GBGSV,4,1,15,38,83,133,40,08,82,000,43,39,70,289,41,13,70,330,43,1*7E
$GBGSV,4,2,15,16,66,264,43,06,65,259,42,46,61,102,35,19,51,350,43,1*74
$GBGSV,4,3,15,09,50,242,39,20,42,069,26,36,39,183,44,35,20,264,35,1*7F
$GBGSV,4,4,15,37,20,045,,29,16,209,24,22,14,304,23,1*47
$GBGSV,2,1,07,38,83,133,45,39,70,289,43,46,61,102,35,19,51,350,42,4*72
$GBGSV,2,2,07,36,39,183,45,29,16,209,24,22,14,304,30,4*40
$GNACCURACY,2.8*1C
$PAIRSAT,1,35,1,0,200,2,0,200,3,0,200,4,0,200,5,0,201,6,0,200,7,0,200,8,0,200,9,0,200,10,0,221,11,0,200,12,0,201,13,0,201,14,0,200,15,0,201,16,0,200,17,0,200,18,0,221,19,0,200,20,0,200,21,0,200,23,0,221,24,0,221,25,0,200,26,0,200,27,0,200,28,0,200,29,0,200,30,0,200,31,0,200,32,0,221,194,0,621,195,0,621,196,0,620,199,0,621*68
$PAIRSAT,2,24,65,0,200,66,0,200,67,0,200,68,0,200,69,0,201,70,0,201,71,0,201,72,0,200,73,0,201,74,0,200,75,0,200,76,0,200,77,0,200,78,0,200,79,0,201,80,0,201,81,0,200,82,0,200,83,0,200,84,0,200,85,0,201,86,0,201,87,0,200,88,0,200*7A
$PAIRSAT,3,23,2,0,1221,3,0,1221,4,0,1200,5,0,200,7,0,1221,8,0,1221,9,0,1200,10,0,1200,11,0,1200,12,0,1200,13,0,1221,15,0,1221,19,0,1200,21,0,1200,24,0,1200,25,0,1200,26,0,1221,27,0,1200,30,0,1221,31,0,1200,33,0,1200,34,0,1200,36,0,1200*6A
$PAIRSAT,4,50,1,0,200,2,0,200,3,0,200,4,0,200,5,0,200,6,0,201,7,0,200,8,0,201,9,0,201,10,0,200,11,0,200,12,0,200,13,0,201,14,0,200,15,0,200,16,0,201,19,0,621,20,0,621,21,0,600,22,0,621,23,0,600,24,0,600,25,0,600,26,0,600,27,0,600,28,0,600,29,0,621,30,0,600,31,0,200,32,0,600,33,0,600,34,0,600,35,0,621,36,0,621,37,0,621,38,0,621,39,0,621,40,0,600,41,0,600,42,0,600,43,0,600,44,0,600,45,0,600,46,0,621,56,0,200,57,0,200,58,0,200,59,0,600,60,0,600,61,0,600*41
$PAIRDGP,9,5,10,12,15,18,23,24,25,32*5B
$GNGGA,113654.200,2500.8193621,N,12132.4670020,E,2,59,0.48,18.089,M,15.25,M,1,3335*4E
$GNRMC,113654.200,A,2500.8193621,N,12132.4670020,E,0.03,206.39,260623,,,D,V*02
$GPHDT,,T*1B
$GNACCURACY,2.8*1C
$GNGGA,113654.300,2500.8193621,N,12132.4669960,E,2,60,0.48,18.100,M,15.25,M,1,3335*40
$GNRMC,113654.300,A,2500.8193621,N,12132.4669960,E,0.03,206.39,260623,,,D,V*06
$GPHDT,,T*1B
$GNACCURACY,2.8*1C
$GNGGA,113654.400,2500.8193621,N,12132.4669960,E,2,60,0.48,18.109,M,15.25,M,1,3335*4E
$GNRMC,113654.400,A,2500.8193621,N,12132.4669960,E,0.02,206.39,260623,,,D,V*00
$GPHDT,,T*1B
$GNACCURACY,2.8*1C
$GNGGA,113654.500,2500.8193681,N,12132.4669960,E,2,60,0.48,18.117,M,15.25,M,1,3335*4A
$GNRMC,113654.500,A,2500.8193681,N,12132.4669960,E,0.01,206.39,260623,,,D,V*08
$GPHDT,,T*1B
$GNACCURACY,2.8*1C
$GNGGA,113654.600,2500.8193681,N,12132.4670020,E,2,60,0.48,18.124,M,15.25,M,0,3335*4D
$GNRMC,113654.600,A,2500.8193681,N,12132.4670020,E,0.01,206.39,260623,,,D,V*0E
$GPHDT,,T*1B
$GNACCURACY,2.8*1C
$GNGGA,113654.700,2500.8193741,N,12132.4670020,E,2,60,0.48,18.130,M,15.25,M,0,3335*44
$GNRMC,113654.700,A,2500.8193741,N,12132.4670020,E,0.00,206.39,260623,,,D,V*03
$GPHDT,,T*1B
$GNACCURACY,2.8*1C
$GNGGA,113654.800,2500.8193801,N,12132.4669960,E,2,60,0.48,18.133,M,15.25,M,0,3335*46
$GNRMC,113654.800,A,2500.8193801,N,12132.4669960,E,0.01,206.39,260623,,,D,V*03
$GPHDT,,T*1B
$GNACCURACY,2.8*1C
$GNGGA,113654.900,2500.8193861,N,12132.4670020,E,2,60,0.48,18.141,M,15.25,M,0,3335*41
$GNRMC,113654.900,A,2500.8193861,N,12132.4670020,E,0.01,206.39,260623,,,D,V*01
$GPHDT,,T*1B
$GNACCURACY,2.8*1C
$GNGGA,113655.000,2500.8193861,N,12132.4669960,E,2,60,0.48,18.141,M,15.25,M,1,3335*4D
$GNRMC,113655.000,A,2500.8193861,N,12132.4669960,E,0.01,206.39,260623,,,D,V*0C
$GPHDT,,T*1B
$GNACCURACY,2.8*1C
$GNGGA,113655.100,2500.8193921,N,12132.4669960,E,2,61,0.47,18.144,M,15.25,M,1,3335*42
$GNRMC,113655.100,A,2500.8193921,N,12132.4669960,E,0.01,206.39,260623,,,D,V*08
$GPHDT,,T*1B
$GNGSA,A,3,196,24,199,18,23,195,194,12,10,05,32,,0.72,0.47,0.55,1*01
$GNGSA,A,3,80,73,85,86,71,69,,,,,,,0.72,0.47,0.55,2*02
$GNGSA,A,3,13,07,08,26,30,02,15,,,,,,0.72,0.47,0.55,3*09
$GNGSA,A,3,38,08,13,39,16,06,46,19,09,20,36,35,0.72,0.47,0.55,4*0A
$GNGSA,A,3,29,22,,,,,,,,,,,0.72,0.47,0.55,4*09
$GPGSV,4,1,15,196,75,068,26,24,69,037,21,199,60,167,37,18,56,238,43,1*6A
$GPGSV,4,2,15,23,55,341,28,41,38,242,31,15,34,052,14,195,32,180,24,1*51
$GPGSV,4,3,15,194,32,137,42,12,23,137,25,10,21,321,39,05,16,122,26,1*56
$GPGSV,4,4,15,25,12,174,22,32,11,273,32,13,06,060,14,1*57
$GPGSV,3,1,09,196,75,068,37,24,69,037,35,199,60,167,46,18,56,238,45,8*6C
$GPGSV,3,2,09,23,55,341,40,194,32,137,42,195,32,180,35,10,21,321,40,8*6D
$GPGSV,3,3,09,32,11,273,29,8*58
$GLGSV,3,1,10,80,48,068,30,73,44,156,44,70,41,017,,85,32,240,18,1*73
$GLGSV,3,2,10,86,28,296,38,71,24,319,40,69,11,079,14,79,08,029,21,1*7F
$GLGSV,3,3,10,74,07,186,,84,04,188,,1*7B
$GAGSV,3,1,10,13,53,227,42,07,45,308,39,08,45,030,26,26,34,303,35,7*79
$GAGSV,3,2,10,30,29,141,33,02,27,081,15,15,19,174,26,03,09,067,,7*74
$GAGSV,3,3,10,27,04,186,,25,02,040,,7*7D
$GAGSV,2,1,07,13,53,227,43,07,45,308,41,08,45,030,33,26,34,303,41,1*71
$GAGSV,2,2,07,30,29,141,32,02,27,081,22,15,19,174,27,1*4A
$GBGSV,4,1,15,38,83,133,40,08,82,000,43,13,70,330,43,39,70,289,42,1*7D
$GBGSV,4,2,15,16,66,264,43,06,65,259,42,46,61,102,35,19,51,350,43,1*74
$GBGSV,4,3,15,09,50,242,40,20,42,069,26,36,39,183,44,37,20,045,,1*74
$GBGSV,4,4,15,35,20,264,36,29,16,209,24,22,14,304,25,1*47
$GBGSV,2,1,07,38,83,133,45,39,70,289,44,46,61,102,35,19,51,350,42,4*75
$GBGSV,2,2,07,36,39,183,45,29,16,209,24,22,14,304,30,4*40
$GNACCURACY,2.8*1C
$PAIRSAT,1,35,1,0,200,2,0,200,3,0,200,4,0,200,5,0,201,6,0,200,7,0,200,8,0,200,9,0,200,10,0,221,11,0,200,12,0,201,13,0,201,14,0,200,15,0,201,16,0,200,17,0,200,18,0,221,19,0,200,20,0,200,21,0,200,23,0,221,24,0,221,25,0,200,26,0,200,27,0,200,28,0,200,29,0,200,30,0,200,31,0,200,32,0,221,194,0,621,195,0,621,196,0,620,199,0,621*68
$PAIRSAT,2,24,65,0,200,66,0,200,67,0,200,68,0,200,69,0,201,70,0,201,71,0,201,72,0,200,73,0,201,74,0,200,75,0,200,76,0,200,77,0,200,78,0,200,79,0,201,80,0,201,81,0,200,82,0,200,83,0,200,84,0,200,85,0,201,86,0,201,87,0,200,88,0,200*7A
$PAIRSAT,3,23,2,0,1221,3,0,1221,4,0,1200,5,0,200,7,0,1221,8,0,1221,9,0,1200,10,0,1200,11,0,1200,12,0,1200,13,0,1221,15,0,1221,19,0,1200,21,0,1200,24,0,1200,25,0,1200,26,0,1221,27,0,1200,30,0,1221,31,0,1200,33,0,1200,34,0,1200,36,0,1200*6A
$PAIRSAT,4,50,1,0,200,2,0,200,3,0,200,4,0,200,5,0,200,6,0,201,7,0,200,8,0,201,9,0,201,10,0,200,11,0,200,12,0,200,13,0,201,14,0,200,15,0,200,16,0,201,19,0,621,20,0,621,21,0,600,22,0,621,23,0,600,24,0,600,25,0,600,26,0,600,27,0,600,28,0,600,29,0,621,30,0,600,31,0,200,32,0,600,33,0,600,34,0,600,35,0,621,36,0,621,37,0,621,38,0,621,39,0,621,40,0,600,41,0,600,42,0,600,43,0,600,44,0,600,45,0,600,46,0,621,56,0,200,57,0,200,58,0,200,59,0,600,60,0,600,61,0,600*41
$PAIRDGP,9,5,10,12,15,18,23,24,25,32*5B
$GNGGA,113655.200,2500.8193921,N,12132.4669960,E,2,61,0.47,18.147,M,15.25,M,1,3335*42
$GNRMC,113655.200,A,2500.8193921,N,12132.4669960,E,0.01,206.39,260623,,,D,V*0B
$GPHDT,,T*1B
$GNACCURACY,2.8*1C
$GNGGA,113655.300,2500.8193981,N,12132.4669960,E,2,61,0.47,18.149,M,15.25,M,1,3335*47
$GNRMC,113655.300,A,2500.8193981,N,12132.4669960,E,0.00,206.39,260623,,,D,V*01
$GPHDT,,T*1B
$GNACCURACY,2.8*1C
$GNGGA,113655.400,2500.8193981,N,12132.4669960,E,2,61,0.47,18.152,M,15.25,M,0,3335*4B
$GNRMC,113655.400,A,2500.8193981,N,12132.4669960,E,0.01,206.39,260623,,,D,V*07
$GPHDT,,T*1B
$GNACCURACY,2.8*1C
$GNGGA,113655.500,2500.8194041,N,12132.4669960,E,2,61,0.47,18.152,M,15.25,M,0,3335*48
$GNRMC,113655.500,A,2500.8194041,N,12132.4669960,E,0.00,206.39,260623,,,D,V*05
$GPHDT,,T*1B
$GNACCURACY,2.8*1C
$GNGGA,113655.600,2500.8194041,N,12132.4669960,E,2,61,0.47,18.158,M,15.25,M,0,3335*41
$GNRMC,113655.600,A,2500.8194041,N,12132.4669960,E,0.01,206.39,260623,,,D,V*07
$GPHDT,,T*1B
$GNACCURACY,2.8*1C
$GNGGA,113655.700,2500.8194101,N,12132.4669960,E,2,61,0.47,18.159,M,15.25,M,0,3335*44
$GNRMC,113655.700,A,2500.8194101,N,12132.4669960,E,0.00,206.39,260623,,,D,V*02
$GPHDT,,T*1B
$GNACCURACY,2.8*1C
$GNGGA,113655.800,2500.8194161,N,12132.4669960,E,2,61,0.47,18.163,M,15.25,M,0,3335*44
$GNRMC,113655.800,A,2500.8194161,N,12132.4669960,E,0.00,206.39,260623,,,D,V*0B
$GPHDT,,T*1B
$GNACCURACY,2.8*1C
$GNGGA,113655.900,2500.8194221,N,12132.4669900,E,2,61,0.47,18.169,M,15.25,M,0,3335*4E
$GNRMC,113655.900,A,2500.8194221,N,12132.4669900,E,0.00,206.39,260623,,,D,V*0B
$GPHDT,,T*1B
$GNACCURACY,2.8*1C
$GNGGA,113656.000,2500.8194281,N,12132.4669900,E,2,61,0.47,18.174,M,15.25,M,1,3335*43
$GNRMC,113656.000,A,2500.8194281,N,12132.4669900,E,0.00,206.39,260623,,,D,V*0B
$GPHDT,,T*1B
$GNACCURACY,2.8*1C
$GNGGA,113656.100,2500.8194281,N,12132.4669900,E,2,60,0.47,18.183,M,15.25,M,1,3335*4B
$GNRMC,113656.100,A,2500.8194281,N,12132.4669900,E,0.00,206.39,260623,,,D,V*0A
$GPHDT,,T*1B
$GNGSA,A,3,196,24,199,18,23,195,194,12,10,05,32,,0.72,0.47,0.55,1*01
$GNGSA,A,3,80,73,85,86,71,69,,,,,,,0.72,0.47,0.55,2*02
$GNGSA,A,3,13,07,08,26,30,02,15,,,,,,0.72,0.47,0.55,3*09
$GNGSA,A,3,38,08,39,13,16,06,46,19,09,20,36,35,0.72,0.47,0.55,4*0A
$GNGSA,A,3,29,22,,,,,,,,,,,0.72,0.47,0.55,4*09
$GPGSV,4,1,15,196,75,068,26,24,69,037,20,199,60,167,37,18,56,238,43,1*6B
$GPGSV,4,2,15,23,55,341,27,41,38,242,31,15,34,052,17,195,32,180,23,1*5A
$GPGSV,4,3,15,194,32,137,42,12,23,137,27,10,21,321,39,05,16,122,26,1*54
$GPGSV,4,4,15,25,12,174,22,32,11,273,33,13,06,060,14,1*56
$GPGSV,3,1,09,196,75,068,37,24,69,037,35,199,60,167,46,18,56,238,45,8*6C
$GPGSV,3,2,09,23,55,341,40,194,32,137,42,195,32,180,36,10,21,321,38,8*61
$GPGSV,3,3,09,32,11,273,25,8*54
$GLGSV,3,1,10,80,48,068,31,73,44,156,44,70,41,017,,85,32,240,18,1*72
$GLGSV,3,2,10,86,28,296,38,71,24,319,39,69,11,079,19,79,08,029,22,1*7F
$GLGSV,3,3,10,74,07,186,,84,04,188,,1*7B
$GAGSV,3,1,09,13,53,227,42,07,45,308,39,08,45,030,24,26,34,303,38,7*7E
$GAGSV,3,2,09,30,29,141,33,02,27,081,15,15,19,174,26,03,09,067,,7*7C
$GAGSV,3,3,09,27,04,186,,7*44
$GAGSV,2,1,07,13,53,227,43,07,45,308,42,08,45,030,33,26,34,303,42,1*71
$GAGSV,2,2,07,30,29,141,34,02,27,081,22,15,19,174,26,1*4D
$GBGSV,4,1,15,38,83,133,40,08,82,000,43,39,70,289,42,13,70,330,43,1*7D
$GBGSV,4,2,15,16,66,264,42,06,65,259,41,46,61,102,34,19,51,350,43,1*77
$GBGSV,4,3,15,09,50,242,40,20,42,069,26,36,39,183,44,37,20,045,,1*74
$GBGSV,4,4,15,35,20,264,36,29,16,209,26,22,14,304,25,1*45
$GBGSV,2,1,07,38,83,133,45,39,70,289,44,46,61,102,35,19,51,350,41,4*76
$GBGSV,2,2,07,36,39,183,45,29,16,209,24,22,14,304,30,4*40
$GNACCURACY,2.8*1C
$PAIRSAT,1,35,1,0,200,2,0,200,3,0,200,4,0,200,5,0,201,6,0,200,7,0,200,8,0,200,9,0,200,10,0,221,11,0,200,12,0,201,13,0,201,14,0,200,15,0,201,16,0,200,17,0,200,18,0,221,19,0,200,20,0,200,21,0,200,23,0,221,24,0,221,25,0,200,26,0,200,27,0,200,28,0,200,29,0,200,30,0,200,31,0,200,32,0,221,194,0,621,195,0,621,196,0,620,199,0,621*68
$PAIRSAT,2,24,65,0,200,66,0,200,67,0,200,68,0,200,69,0,201,70,0,201,71,0,201,72,0,200,73,0,201,74,0,200,75,0,200,76,0,200,77,0,200,78,0,200,79,0,201,80,0,201,81,0,200,82,0,200,83,0,200,84,0,200,85,0,201,86,0,201,87,0,200,88,0,200*7A
$PAIRSAT,3,23,2,0,1221,3,0,1221,4,0,1200,5,0,200,7,0,1221,8,0,1221,9,0,1200,10,0,1200,11,0,1200,12,0,1200,13,0,1221,15,0,1221,19,0,1200,21,0,1200,24,0,1200,25,0,1200,26,0,1221,27,0,1200,30,0,1221,31,0,1200,33,0,1200,34,0,1200,36,0,1200*6A
$PAIRSAT,4,50,1,0,200,2,0,200,3,0,200,4,0,200,5,0,200,6,0,201,7,0,200,8,0,201,9,0,201,10,0,200,11,0,200,12,0,200,13,0,201,14,0,200,15,0,200,16,0,201,19,0,621,20,0,621,21,0,600,22,0,621,23,0,600,24,0,600,25,0,600,26,0,600,27,0,600,28,0,600,29,0,621,30,0,600,31,0,200,32,0,600,33,0,600,34,0,600,35,0,621,36,0,621,37,0,621,38,0,621,39,0,621,40,0,600,41,0,600,42,0,600,43,0,600,44,0,600,45,0,600,46,0,621,56,0,200,57,0,200,58,0,200,59,0,600,60,0,600,61,0,600*41
$PAIRDGP,9,5,10,12,15,18,23,24,25,32*5B
$GNGGA,113656.200,2500.8194281,N,12132.4669960,E,2,60,0.47,18.195,M,15.25,M,1,3335*49
$GNRMC,113656.200,A,2500.8194281,N,12132.4669960,E,0.01,206.39,260623,,,D,V*0E
$GPHDT,,T*1B
$GNACCURACY,2.8*1C
$GNGGA,113656.300,2500.8194341,N,12132.4669960,E,2,60,0.47,18.206,M,15.25,M,1,3335*4C
$GNRMC,113656.300,A,2500.8194341,N,12132.4669960,E,0.00,206.39,260623,,,D,V*03
$GPHDT,,T*1B
$GNACCURACY,2.8*1C
$GNGGA,113656.400,2500.8194341,N,12132.4670020,E,2,60,0.47,18.218,M,15.25,M,0,3335*40
$GNRMC,113656.400,A,2500.8194341,N,12132.4670020,E,0.00,206.39,260623,,,D,V*01
$GPHDT,,T*1B
$GNACCURACY,2.8*1C
$GNGGA,113656.500,2500.8194341,N,12132.4670080,E,2,60,0.47,18.231,M,15.25,M,0,3335*40
$GNRMC,113656.500,A,2500.8194341,N,12132.4670080,E,0.01,206.39,260623,,,D,V*0B
$GPHDT,,T*1B
$GNACCURACY,2.8*1C
$GNGGA,113656.600,2500.8194341,N,12132.4670080,E,2,61,0.45,18.244,M,15.25,M,0,3335*42
$GNRMC,113656.600,A,2500.8194341,N,12132.4670080,E,0.00,206.39,260623,,,D,V*09
$GPHDT,,T*1B
$GNACCURACY,2.8*1C
$GNGGA,113656.700,2500.8194401,N,12132.4670140,E,2,61,0.45,18.252,M,15.25,M,0,3335*4A
$GNRMC,113656.700,A,2500.8194401,N,12132.4670140,E,0.00,206.39,260623,,,D,V*06
$GPHDT,,T*1B
$GNACCURACY,2.8*1C
$GNGGA,113656.800,2500.8194401,N,12132.4670200,E,2,61,0.45,18.264,M,15.25,M,0,3335*47
$GNRMC,113656.800,A,2500.8194401,N,12132.4670200,E,0.01,206.39,260623,,,D,V*0F
$GPHDT,,T*1B
$GNACCURACY,2.8*1C
$GNGGA,113656.900,2500.8194401,N,12132.4670200,E,2,61,0.45,18.276,M,15.25,M,0,3335*45
$GNRMC,113656.900,A,2500.8194401,N,12132.4670200,E,0.02,206.39,260623,,,D,V*0D
$GPHDT,,T*1B
$GNACCURACY,2.8*1C
$GNGGA,113657.000,2500.8194461,N,12132.4670260,E,2,61,0.45,18.288,M,15.25,M,1,3335*4D
$GNRMC,113657.000,A,2500.8194461,N,12132.4670260,E,0.02,206.39,260623,,,D,V*05
$GPHDT,,T*1B
$GNACCURACY,2.8*1C
$GNGGA,113657.100,2500.8194461,N,12132.4670260,E,2,61,0.45,18.305,M,15.25,M,1,3335*48
$GNRMC,113657.100,A,2500.8194461,N,12132.4670260,E,0.01,206.39,260623,,,D,V*07
$GPHDT,,T*1B
$GNGSA,A,3,196,24,199,18,23,15,195,194,12,10,05,32,0.71,0.45,0.55,1*04
$GNGSA,A,3,80,73,85,86,71,69,,,,,,,0.71,0.45,0.55,2*03
$GNGSA,A,3,13,07,08,26,30,02,15,,,,,,0.71,0.45,0.55,3*08
$GNGSA,A,3,38,08,39,13,16,06,46,19,09,20,36,35,0.71,0.45,0.55,4*0B
$GNGSA,A,3,29,22,,,,,,,,,,,0.71,0.45,0.55,4*08
$GPGSV,4,1,15,196,75,068,26,24,69,037,20,199,60,167,37,18,56,238,43,1*6B
$GPGSV,4,2,15,23,55,341,27,41,38,242,32,15,34,052,18,195,32,180,22,1*57
$GPGSV,4,3,15,194,32,137,41,12,23,137,26,10,21,321,38,05,16,122,27,1*56
$GPGSV,4,4,15,25,12,174,21,32,11,273,34,13,06,060,13,1*55
$GPGSV,3,1,09,196,75,068,37,24,69,037,35,199,60,167,46,18,56,238,45,8*6C
$GPGSV,3,2,09,23,55,341,40,194,32,137,42,195,32,180,36,10,21,321,38,8*61
$GPGSV,3,3,09,32,11,273,25,8*54
$GLGSV,3,1,09,80,48,068,31,73,44,156,44,70,41,017,,85,32,240,17,1*75
$GLGSV,3,2,09,86,28,296,38,71,24,319,39,69,11,079,21,79,08,029,22,1*7C
$GLGSV,3,3,09,84,04,188,,1*48
$GAGSV,3,1,09,13,53,227,42,07,45,308,39,08,45,030,23,26,34,303,38,7*79
$GAGSV,3,2,09,30,29,141,33,02,27,081,17,15,19,174,26,03,09,067,,7*7E
$GAGSV,3,3,09,27,04,186,,7*44
$GAGSV,2,1,07,13,53,227,43,07,45,308,42,08,45,030,33,26,34,303,42,1*71
$GAGSV,2,2,07,30,29,141,32,02,27,081,22,15,19,174,26,1*4B
$GBGSV,4,1,15,38,83,133,40,08,82,000,43,39,70,289,42,13,70,330,43,1*7D
$GBGSV,4,2,15,16,66,264,42,06,65,259,41,46,61,102,34,19,51,350,43,1*77
$GBGSV,4,3,15,09,50,242,40,20,42,069,26,36,39,183,44,35,20,264,36,1*72
$GBGSV,4,4,15,37,20,045,,29,16,209,24,22,14,304,26,1*42
$GBGSV,2,1,07,38,83,133,45,39,70,289,44,46,61,102,35,19,51,350,41,4*76
$GBGSV,2,2,07,36,39,183,45,29,16,209,24,22,14,304,30,4*40
$GNACCURACY,2.8*1C
$PAIRSAT,1,35,1,0,200,2,0,200,3,0,200,4,0,200,5,0,201,6,0,200,7,0,200,8,0,200,9,0,200,10,0,221,11,0,200,12,0,201,13,0,201,14,0,200,15,0,201,16,0,200,17,0,200,18,0,221,19,0,200,20,0,200,21,0,200,23,0,221,24,0,221,25,0,200,26,0,200,27,0,200,28,0,200,29,0,200,30,0,200,31,0,200,32,0,221,194,0,621,195,0,621,196,0,620,199,0,621*68
$PAIRSAT,2,24,65,0,200,66,0,200,67,0,200,68,0,200,69,0,201,70,0,201,71,0,201,72,0,200,73,0,201,74,0,200,75,0,200,76,0,200,77,0,200,78,0,200,79,0,201,80,0,201,81,0,200,82,0,200,83,0,200,84,0,200,85,0,201,86,0,201,87,0,200,88,0,200*7A
$PAIRSAT,3,23,2,0,1221,3,0,1221,4,0,1200,5,0,200,7,0,1221,8,0,1221,9,0,1200,10,0,1200,11,0,1200,12,0,1200,13,0,1221,15,0,1221,19,0,1200,21,0,1200,24,0,1200,25,0,1200,26,0,1221,27,0,1200,30,0,1221,31,0,1200,33,0,1200,34,0,1200,36,0,1200*6A
$PAIRSAT,4,50,1,0,200,2,0,200,3,0,200,4,0,200,5,0,200,6,0,201,7,0,200,8,0,201,9,0,201,10,0,200,11,0,200,12,0,200,13,0,201,14,0,200,15,0,200,16,0,201,19,0,621,20,0,621,21,0,600,22,0,621,23,0,600,24,0,600,25,0,600,26,0,600,27,0,600,28,0,600,29,0,621,30,0,600,31,0,200,32,0,600,33,0,600,34,0,600,35,0,621,36,0,621,37,0,621,38,0,621,39,0,621,40,0,600,41,0,600,42,0,600,43,0,600,44,0,600,45,0,600,46,0,621,56,0,200,57,0,200,58,0,200,59,0,600,60,0,600,61,0,600*41
$PAIRDGP,9,5,10,12,15,18,23,24,25,32*5B
$GNGGA,113657.200,2500.8194461,N,12132.4670320,E,2,61,0.45,18.317,M,15.25,M,1,3335*4D
$GNRMC,113657.200,A,2500.8194461,N,12132.4670320,E,0.02,206.39,260623,,,D,V*02
$GPHDT,,T*1B
$GNACCURACY,2.8*1C
$GNGGA,113657.300,2500.8194461,N,12132.4670380,E,2,61,0.45,18.332,M,15.25,M,1,3335*41
$GNRMC,113657.300,A,2500.8194461,N,12132.4670380,E,0.01,206.39,260623,,,D,V*0A
$GPHDT,,T*1B
$GNACCURACY,2.8*1C
$GNGGA,113657.400,2500.8194461,N,12132.4670380,E,2,61,0.45,18.348,M,15.25,M,1,3335*4B
$GNRMC,113657.400,A,2500.8194461,N,12132.4670380,E,0.02,206.39,260623,,,D,V*0E
$GPHDT,,T*1B
$GNACCURACY,2.8*1C
$GNGGA,113657.500,2500.8194461,N,12132.4670440,E,2,61,0.45,18.367,M,15.25,M,1,3335*4C
$GNRMC,113657.500,A,2500.8194461,N,12132.4670440,E,0.02,206.39,260623,,,D,V*04
$GPHDT,,T*1B
$GNACCURACY,2.8*1C
$GNGGA,113657.600,2500.8194461,N,12132.4670500,E,2,61,0.45,18.382,M,15.25,M,0,3335*40
$GNRMC,113657.600,A,2500.8194461,N,12132.4670500,E,0.01,206.39,260623,,,D,V*01
$GPHDT,,T*1B
$GNACCURACY,2.8*1C
$GNGGA,113657.700,2500.8194461,N,12132.4670500,E,2,61,0.45,18.396,M,15.25,M,0,3335*44
$GNRMC,113657.700,A,2500.8194461,N,12132.4670500,E,0.01,206.39,260623,,,D,V*00
$GPHDT,,T*1B
$GNACCURACY,2.8*1C
$GNGGA,113657.800,2500.8194461,N,12132.4670500,E,2,61,0.45,18.413,M,15.25,M,0,3335*41
$GNRMC,113657.800,A,2500.8194461,N,12132.4670500,E,0.00,206.39,260623,,,D,V*0E
$GPHDT,,T*1B
$GNACCURACY,2.8*1C
$GNGGA,113657.900,2500.8194461,N,12132.4670500,E,2,61,0.45,18.428,M,15.25,M,0,3335*48
$GNRMC,113657.900,A,2500.8194461,N,12132.4670500,E,0.00,206.39,260623,,,D,V*0F
$GPHDT,,T*1B
$GNACCURACY,2.8*1C
$GNGGA,113658.000,2500.8194461,N,12132.4670560,E,2,61,0.45,18.447,M,15.25,M,1,3335*40
$GNRMC,113658.000,A,2500.8194461,N,12132.4670560,E,0.00,206.39,260623,,,D,V*0F
$GPHDT,,T*1B
$GNACCURACY,2.8*1C
$GNGGA,113658.100,2500.8194461,N,12132.4670500,E,2,61,0.45,18.463,M,15.25,M,1,3335*41
$GNRMC,113658.100,A,2500.8194461,N,12132.4670500,E,0.01,206.39,260623,,,D,V*09
$GPHDT,,T*1B
$GNGSA,A,3,196,24,199,18,23,15,195,194,12,10,05,32,0.71,0.45,0.55,1*04
$GNGSA,A,3,80,73,85,86,71,69,,,,,,,0.71,0.45,0.55,2*03
$GNGSA,A,3,13,07,08,26,30,02,15,,,,,,0.71,0.45,0.55,3*08
$GNGSA,A,3,38,08,39,13,16,06,46,19,09,20,36,35,0.71,0.45,0.55,4*0B
$GNGSA,A,3,29,22,,,,,,,,,,,0.71,0.45,0.55,4*08
$GPGSV,4,1,15,196,75,068,25,24,69,037,21,199,60,167,37,18,56,238,43,1*69
$GPGSV,4,2,15,23,55,341,27,41,38,242,32,15,34,052,15,195,32,180,23,1*5B
$GPGSV,4,3,15,194,32,137,41,12,23,137,26,10,22,321,38,05,16,122,27,1*55
$GPGSV,4,4,15,25,12,174,21,32,11,273,34,13,06,060,12,1*54
$GPGSV,3,1,09,196,75,068,37,24,69,037,35,199,60,167,46,18,56,238,45,8*6C
$GPGSV,3,2,09,23,55,341,40,194,32,137,42,195,32,180,35,10,22,321,37,8*6E
$GPGSV,3,3,09,32,11,273,26,8*57
$GLGSV,3,1,09,80,48,068,30,73,44,156,44,70,41,017,,85,32,240,16,1*75
$GLGSV,3,2,09,86,28,296,38,71,24,319,38,69,11,079,19,79,08,029,22,1*76
$GLGSV,3,3,09,84,04,188,,1*48
$GAGSV,3,1,10,13,53,227,42,07,45,308,39,08,45,030,23,26,34,303,38,7*71
$GAGSV,3,2,10,30,29,141,33,02,27,081,17,15,19,174,26,03,09,067,,7*76
$GAGSV,3,3,10,27,04,186,,25,02,040,,7*7D
$GAGSV,2,1,07,13,53,227,43,07,45,308,42,08,45,030,33,26,34,303,42,1*71
$GAGSV,2,2,07,30,29,141,32,02,27,081,22,15,19,174,25,1*48
$GBGSV,4,1,15,38,83,133,40,08,82,000,43,39,70,289,42,13,70,330,43,1*7D
$GBGSV,4,2,15,16,66,264,42,06,65,259,41,46,61,102,35,19,51,350,43,1*76
$GBGSV,4,3,15,09,50,242,40,20,42,069,26,36,39,183,44,37,20,045,,1*74
$GBGSV,4,4,15,35,20,264,36,29,16,209,23,22,14,304,27,1*42
$GBGSV,2,1,07,38,83,133,45,39,70,289,44,46,61,102,35,19,51,350,41,4*76
$GBGSV,2,2,07,36,39,183,45,29,16,209,24,22,14,304,30,4*40
$GNACCURACY,2.8*1C
$PAIRSAT,1,35,1,0,200,2,0,200,3,0,200,4,0,200,5,0,201,6,0,200,7,0,200,8,0,200,9,0,200,10,0,221,11,0,200,12,0,201,13,0,201,14,0,200,15,0,201,16,0,200,17,0,200,18,0,221,19,0,200,20,0,200,21,0,200,23,0,221,24,0,221,25,0,200,26,0,200,27,0,200,28,0,200,29,0,200,30,0,200,31,0,200,32,0,221,194,0,621,195,0,621,196,0,620,199,0,621*68
$PAIRSAT,2,24,65,0,200,66,0,200,67,0,200,68,0,200,69,0,201,70,0,201,71,0,201,72,0,200,73,0,201,74,0,200,75,0,200,76,0,200,77,0,200,78,0,200,79,0,201,80,0,201,81,0,200,82,0,200,83,0,200,84,0,200,85,0,201,86,0,201,87,0,200,88,0,200*7A
$PAIRSAT,3,23,2,0,1221,3,0,1221,4,0,1200,5,0,200,7,0,1221,8,0,1221,9,0,1200,10,0,1200,11,0,1200,12,0,1200,13,0,1221,15,0,1221,19,0,1200,21,0,1200,24,0,1200,25,0,1200,26,0,1221,27,0,1200,30,0,1221,31,0,1200,33,0,1200,34,0,1200,36,0,1200*6A
$PAIRSAT,4,50,1,0,200,2,0,200,3,0,200,4,0,200,5,0,200,6,0,201,7,0,200,8,0,201,9,0,201,10,0,200,11,0,200,12,0,200,13,0,201,14,0,200,15,0,200,16,0,201,19,0,621,20,0,621,21,0,600,22,0,621,23,0,600,24,0,600,25,0,600,26,0,600,27,0,600,28,0,600,29,0,621,30,0,600,31,0,200,32,0,600,33,0,600,34,0,600,35,0,621,36,0,621,37,0,621,38,0,621,39,0,621,40,0,600,41,0,600,42,0,600,43,0,600,44,0,600,45,0,600,46,0,621,56,0,200,57,0,200,58,0,200,59,0,600,60,0,600,61,0,600*41
$PAIRDGP,9,5,10,12,15,18,23,24,25,32*5B
$GNGGA,113658.200,2500.8194461,N,12132.4670560,E,2,61,0.45,18.475,M,15.25,M,1,3335*43
$GNRMC,113658.200,A,2500.8194461,N,12132.4670560,E,0.01,206.39,260623,,,D,V*0C
$GPHDT,,T*1B
$GNACCURACY,2.8*1C
$GNGGA,113658.300,2500.8194461,N,12132.4670560,E,2,61,0.45,18.493,M,15.25,M,1,3335*4A
$GNRMC,113658.300,A,2500.8194461,N,12132.4670560,E,0.02,206.39,260623,,,D,V*0E
$GPHDT,,T*1B
$GNACCURACY,2.8*1C
$GNGGA,113658.400,2500.8194461,N,12132.4670560,E,2,61,0.45,18.505,M,15.25,M,1,3335*43
$GNRMC,113658.400,A,2500.8194461,N,12132.4670560,E,0.02,206.39,260623,,,D,V*09
$GPHDT,,T*1B
$GNACCURACY,2.8*1C
$GNGGA,113658.500,2500.8194461,N,12132.4670560,E,2,61,0.45,18.521,M,15.25,M,1,3335*44
$GNRMC,113658.500,A,2500.8194461,N,12132.4670560,E,0.02,206.39,260623,,,D,V*08
$GPHDT,,T*1B
$GNACCURACY,2.8*1C
$GNGGA,113658.600,2500.8194461,N,12132.4670560,E,2,61,0.45,18.538,M,15.25,M,0,3335*4E
$GNRMC,113658.600,A,2500.8194461,N,12132.4670560,E,0.02,206.39,260623,,,D,V*0B
$GPHDT,,T*1B
$GNACCURACY,2.8*1C
$GNGGA,113658.700,2500.8194461,N,12132.4670620,E,2,61,0.45,18.553,M,15.25,M,0,3335*45
$GNRMC,113658.700,A,2500.8194461,N,12132.4670620,E,0.02,206.39,260623,,,D,V*0D
$GPHDT,,T*1B
$GNACCURACY,2.8*1C
$GNGGA,113658.800,2500.8194461,N,12132.4670620,E,2,61,0.45,18.569,M,15.25,M,0,3335*43
$GNRMC,113658.800,A,2500.8194461,N,12132.4670620,E,0.02,206.39,260623,,,D,V*02
$GPHDT,,T*1B
$GNACCURACY,2.8*1C
$GNGGA,113658.900,2500.8194401,N,12132.4670680,E,2,61,0.45,18.583,M,15.25,M,0,3335*4A
$GNRMC,113658.900,A,2500.8194401,N,12132.4670680,E,0.02,206.39,260623,,,D,V*0F
$GPHDT,,T*1B
$GNACCURACY,2.8*1C
$GNGGA,113659.000,2500.8194401,N,12132.4670680,E,2,61,0.45,18.596,M,15.25,M,1,3335*47
$GNRMC,113659.000,A,2500.8194401,N,12132.4670680,E,0.02,206.39,260623,,,D,V*07
$GPHDT,,T*1B
$GNACCURACY,2.8*1C
$GNGGA,113659.100,2500.8194401,N,12132.4670740,E,2,61,0.45,18.611,M,15.25,M,1,3335*47
$GNRMC,113659.100,A,2500.8194401,N,12132.4670740,E,0.01,206.39,260623,,,D,V*08
$GPHDT,,T*1B
$GNGSA,A,3,196,24,199,18,23,195,194,12,10,05,32,,0.72,0.47,0.55,1*01
$GNGSA,A,3,80,73,85,86,71,69,,,,,,,0.72,0.47,0.55,2*02
$GNGSA,A,3,13,07,08,26,30,02,15,,,,,,0.72,0.47,0.55,3*09
$GNGSA,A,3,38,08,39,13,16,06,46,19,09,20,36,35,0.72,0.47,0.55,4*0A
$GNGSA,A,3,29,22,,,,,,,,,,,0.72,0.47,0.55,4*09
$GPGSV,4,1,15,196,75,068,25,24,69,037,22,199,60,167,37,18,56,237,43,1*65
$GPGSV,4,2,15,23,55,341,26,41,38,242,32,15,34,052,13,195,32,180,26,1*59
$GPGSV,4,3,15,194,32,137,41,12,23,137,27,10,22,321,38,05,16,122,26,1*55
$GPGSV,4,4,15,25,12,174,18,32,11,273,34,13,06,060,12,1*5E
$GPGSV,3,1,09,196,75,068,37,24,69,037,34,199,60,167,46,18,56,237,45,8*62
$GPGSV,3,2,09,23,55,341,40,194,32,137,42,195,32,180,35,10,22,321,37,8*6E
$GPGSV,3,3,09,32,11,273,26,8*57
$GLGSV,3,1,09,80,48,068,30,73,44,156,44,70,41,017,,85,32,240,14,1*77
$GLGSV,3,2,09,86,28,296,38,71,24,319,38,69,11,079,19,79,08,029,23,1*77
$GLGSV,3,3,09,84,04,188,,1*48
$GAGSV,3,1,10,13,53,227,42,07,45,308,39,08,45,030,22,26,34,303,38,7*70
$GAGSV,3,2,10,30,29,141,33,02,27,081,17,15,19,174,26,03,09,067,,7*76
$GAGSV,3,3,10,27,04,186,,25,02,040,,7*7D
$GAGSV,2,1,07,13,53,227,43,07,45,308,42,08,45,030,33,26,34,303,42,1*71
$GAGSV,2,2,07,30,29,141,32,02,27,081,22,15,19,174,27,1*4A
$GBGSV,4,1,15,38,83,133,40,08,82,000,43,39,70,289,42,13,70,330,43,1*7D
$GBGSV,4,2,15,16,66,264,42,06,65,259,41,46,61,102,3