$FW : RTK35X,V1.1X0314AS,Lib20210517,1*54
$Tool : LOCOSYS , GNSS Firebird , v1.0.0.19*39
$---------------------------------------------------*2D
$GNACCURACY,2.4*10
$GNGGA,114213.800,2500.8187231,N,12132.4649211,E,4,63,0.45,16.306,M,15.25,M,29,3335*7C
$GNRMC,114213.800,A,2500.8187231,N,12132.4649211,E,0.01,206.39,260623,,,R,V*16
$GPHDT,104.016,T*37
$GNACCURACY,2.4*10
$GNGGA,114213.900,2500.8187243,N,12132.4649234,E,4,62,0.47,16.301,M,15.25,M,29,3335*7B
$GNRMC,114213.900,A,2500.8187243,N,12132.4649234,E,0.01,206.39,260623,,,R,V*15
$GPHDT,,T*1B
$GNACCURACY,2.4*10
$GNGGA,114214.000,2500.8187238,N,12132.4649221,E,4,62,0.47,16.295,M,15.25,M,30,3335*79
$GNRMC,114214.000,A,2500.8187238,N,12132.4649221,E,0.01,206.39,260623,,,R,V*13
$GPHDT,103.848,T*33
$GNACCURACY,2.4*10
$GNGGA,114214.100,2500.8187229,N,12132.4649248,E,4,62,0.47,16.302,M,15.25,M,30,3335*78
$GNRMC,114214.100,A,2500.8187229,N,12132.4649248,E,0.01,206.39,260623,,,R,V*1D
$GPHDT,,T*1B
$GNGSA,A,3,196,24,199,23,18,194,195,12,10,05,32,,0.71,0.47,0.54,1*03
$GNGSA,A,3,73,85,86,71,69,,,,,,,,0.71,0.47,0.54,2*08
$GNGSA,A,3,13,07,08,26,30,15,,,,,,,0.71,0.47,0.54,3*09
$GNGSA,A,3,08,38,13,39,16,06,46,19,09,36,20,35,0.71,0.47,0.54,4*08
$GNGSA,A,3,37,29,22,,,,,,,,,,0.71,0.47,0.54,4*0F
$GPGSV,4,1,15,196,75,070,29,24,66,036,30,199,60,167,38,23,57,343,38,1*65
$GPGSV,4,2,15,18,54,234,42,41,38,242,32,15,33,054,,194,33,137,42,1*5C
$GPGSV,4,3,15,195,31,179,31,12,25,135,39,10,23,322,41,05,14,124,21,1*5E
$GPGSV,4,4,15,25,14,172,21,32,12,275,36,13,04,062,,1*50
$GPGSV,3,1,10,196,75,070,40,24,66,036,38,199,60,167,46,23,57,343,39,8*61
$GPGSV,3,2,10,18,54,234,43,194,33,137,39,195,31,179,36,10,23,322,27,8*67
$GPGSV,3,3,10,25,14,172,23,32,12,275,35,8*6F
$GLGSV,3,1,09,73,47,155,44,80,47,063,17,70,41,021,,85,30,238,26,1*7F
$GLGSV,3,2,09,86,28,293,42,71,25,322,34,69,10,081,18,79,06,028,15,1*77
$GLGSV,3,3,09,84,02,186,,1*40
$GAGSV,3,1,10,13,51,224,40,07,45,311,41,08,44,032,19,26,34,300,40,7*73
$GAGSV,3,2,10,30,30,139,39,02,27,079,,15,17,173,18,03,08,069,18,7*78
$GAGSV,3,3,10,27,05,186,,25,01,039,,7*71
$GAGSV,2,1,06,13,51,224,41,07,45,311,46,08,44,032,18,26,34,300,43,1*77
$GAGSV,2,2,06,30,30,139,35,15,17,173,26,1*7D
$GBGSV,4,1,15,08,83,356,38,38,82,143,46,13,71,327,44,39,69,292,44,1*74
$GBGSV,4,2,15,16,66,267,40,06,65,262,40,46,62,097,38,19,52,353,45,1*7B
$GBGSV,4,3,15,09,50,244,38,36,42,183,47,20,41,071,21,35,19,262,26,1*74
$GBGSV,4,4,15,37,18,044,27,29,15,207,28,22,15,306,34,1*4C
$GBGSV,3,1,10,38,82,143,47,39,69,292,44,46,62,097,35,19,52,353,40,4*78
$GBGSV,3,2,10,36,42,183,46,20,41,071,19,35,19,262,19,37,18,044,23,4*7D
$GBGSV,3,3,10,22,15,306,34,29,15,207,31,4*7C
$GNACCURACY,2.4*10
$PAIRSAT,1,35,1,0,200,2,0,200,3,0,200,4,0,200,5,0,201,6,0,200,7,0,200,8,0,200,9,0,200,10,0,221,11,0,200,12,0,201,13,0,201,14,0,200,15,0,201,16,0,200,17,0,200,18,0,221,19,0,200,20,0,200,21,0,200,23,0,221,24,0,221,25,0,200,26,0,200,27,0,200,28,0,200,29,0,200,30,0,200,31,0,200,32,0,221,194,0,621,195,0,621,196,0,620,199,0,621*68
$PAIRSAT,2,24,65,0,200,66,0,200,67,0,200,68,0,200,69,0,201,70,0,201,71,0,201,72,0,200,73,0,201,74,0,200,75,0,200,76,0,200,77,0,200,78,0,200,79,0,201,80,0,201,81,0,200,82,0,200,83,0,200,84,0,200,85,0,201,86,0,201,87,0,200,88,0,200*7A
$PAIRSAT,3,23,2,0,1221,3,0,1221,4,0,1200,5,0,200,7,0,1221,8,0,1221,9,0,1200,10,0,1200,11,0,1200,12,0,1200,13,0,1221,15,0,1221,19,0,1200,21,0,1200,24,0,1200,25,0,1200,26,0,1221,27,0,1200,30,0,1221,31,0,1200,33,0,1200,34,0,1200,36,0,1200*6A
$PAIRSAT,4,50,1,0,200,2,0,200,3,0,200,4,0,200,5,0,200,6,0,201,7,0,200,8,0,201,9,0,201,10,0,200,11,0,200,12,0,200,13,0,201,14,0,200,15,0,200,16,0,201,19,0,621,20,0,621,21,0,600,22,0,621,23,0,600,24,0,600,25,0,600,26,0,600,27,0,600,28,0,600,29,0,621,30,0,600,31,0,200,32,0,600,33,0,600,34,0,600,35,0,621,36,0,621,37,0,621,38,0,621,39,0,621,40,0,600,41,0,600,42,0,600,43,0,600,44,0,600,45,0,600,46,0,621,56,0,200,57,0,200,58,0,200,59,0,600,60,0,600,61,0,600*41
$PAIRDGP,9,5,10,12,15,18,23,24,25,32*5B
$GNGGA,114214.200,2500.8187247,N,12132.4649221,E,4,62,0.47,16.293,M,15.25,M,30,3335*75
$GNRMC,114214.200,A,2500.8187247,N,12132.4649221,E,0.01,206.39,260623,,,R,V*19
$GPHDT,92.554,T*0A
$GNACCURACY,2.4*10
$GNGGA,114214.300,2500.8187241,N,12132.4649197,E,4,62,0.47,16.302,M,15.25,M,30,3335*75
$GNRMC,114214.300,A,2500.8187241,N,12132.4649197,E,0.01,206.39,260623,,,R,V*10
$GPHDT,,T*1B
$GNACCURACY,2.4*10
$GNGGA,114214.400,2500.8187246,N,12132.4649211,E,4,62,0.47,16.311,M,15.25,M,30,3335*7A
$GNRMC,114214.400,A,2500.8187246,N,12132.4649211,E,0.01,206.39,260623,,,R,V*1D
$GPHDT,92.814,T*03
$GNACCURACY,2.4*10
$GNGGA,114214.500,2500.8187255,N,12132.4649172,E,4,60,0.49,16.296,M,15.25,M,30,3335*7D
$GNRMC,114214.500,A,2500.8187255,N,12132.4649172,E,0.00,206.39,260623,,,R,V*19
$GPHDT,,T*1B
$GNACCURACY,2.4*10
$GNGGA,114214.600,2500.8187263,N,12132.4649181,E,4,62,0.47,16.304,M,15.25,M,30,3335*71
$GNRMC,114214.600,A,2500.8187263,N,12132.4649181,E,0.01,206.39,260623,,,R,V*12
$GPHDT,92.654,T*09
$GNACCURACY,2.4*10
$GNGGA,114214.700,2500.8187240,N,12132.4649151,E,4,62,0.47,16.296,M,15.25,M,30,3335*76
$GNRMC,114214.700,A,2500.8187240,N,12132.4649151,E,0.02,206.39,260623,,,R,V*1C
$GPHDT,,T*1B
$GNACCURACY,2.4*10
$GNGGA,114214.800,2500.8187245,N,12132.4649200,E,4,62,0.47,16.303,M,15.25,M,30,3335*76
$GNRMC,114214.800,A,2500.8187245,N,12132.4649200,E,0.02,206.39,260623,,,R,V*11
$GPHDT,92.659,T*04
$GNACCURACY,2.4*10
$GNGGA,114214.900,2500.8187273,N,12132.4649136,E,4,62,0.47,16.297,M,15.25,M,30,3335*78
$GNRMC,114214.900,A,2500.8187273,N,12132.4649136,E,0.02,206.39,260623,,,R,V*13
$GPHDT,,T*1B
$GNACCURACY,2.4*10
$GNGGA,114215.000,2500.8187244,N,12132.4649167,E,4,62,0.47,16.301,M,15.25,M,31,3335*7F
$GNRMC,114215.000,A,2500.8187244,N,12132.4649167,E,0.01,206.39,260623,,,R,V*18
$GPHDT,92.406,T*0C
$GNACCURACY,2.4*10
$GNGGA,114215.100,2500.8187252,N,12132.4649186,E,4,62,0.47,16.296,M,15.25,M,31,3335*79
$GNRMC,114215.100,A,2500.8187252,N,12132.4649186,E,0.01,206.39,260623,,,R,V*11
$GPHDT,,T*1B
$GNGSA,A,3,196,24,199,23,18,194,195,12,10,05,32,,0.70,0.45,0.54,1*00
$GNGSA,A,3,73,80,85,86,71,69,,,,,,,0.70,0.45,0.54,2*03
$GNGSA,A,3,13,07,08,26,30,15,,,,,,,0.70,0.45,0.54,3*0A
$GNGSA,A,3,08,38,13,39,16,06,46,19,09,36,20,35,0.70,0.45,0.54,4*0B
$GNGSA,A,3,37,29,22,,,,,,,,,,0.70,0.45,0.54,4*0C
$GPGSV,4,1,15,196,75,070,29,24,66,036,31,199,60,167,38,23,57,343,38,1*64
$GPGSV,4,2,15,18,54,234,42,41,38,242,33,15,33,054,,194,33,137,42,1*5D
$GPGSV,4,3,15,195,31,179,31,12,25,135,39,10,23,322,41,05,14,124,20,1*5F
$GPGSV,4,4,15,25,14,172,23,32,12,275,35,13,04,062,,1*51
$GPGSV,3,1,10,196,75,070,40,24,66,036,38,199,60,167,46,23,57,343,39,8*61
$GPGSV,3,2,10,18,54,234,43,194,33,137,38,195,31,179,36,10,23,322,26,8*67
$GPGSV,3,3,10,25,14,172,24,32,12,275,36,8*6B
$GLGSV,3,1,09,73,47,155,44,80,47,063,17,70,41,021,,85,29,238,26,1*77
$GLGSV,3,2,09,86,28,292,42,71,25,322,35,69,10,081,17,79,06,028,13,1*7E
$GLGSV,3,3,09,84,02,186,,1*40
$GAGSV,3,1,10,13,51,224,40,07,45,311,41,08,44,032,19,26,34,300,40,7*73
$GAGSV,3,2,10,30,30,139,40,02,27,079,,15,17,173,18,03,08,069,18,7*76
$GAGSV,3,3,10,27,05,186,,25,01,039,,7*71
$GAGSV,2,1,06,13,51,224,41,07,45,311,46,08,44,032,17,26,34,300,40,1*7B
$GAGSV,2,2,06,30,30,139,36,15,17,173,26,1*7E
$GBGSV,4,1,15,08,83,356,38,38,82,143,46,13,71,327,44,39,69,292,44,1*74
$GBGSV,4,2,15,16,66,267,40,06,65,262,40,46,62,097,38,19,52,353,45,1*7B
$GBGSV,4,3,15,09,50,244,38,36,42,183,47,20,41,071,20,35,19,262,26,1*75
$GBGSV,4,4,15,37,18,044,27,29,15,207,32,22,15,306,31,1*42
$GBGSV,3,1,10,38,82,143,47,39,69,292,43,46,62,097,35,19,52,353,40,4*7F
$GBGSV,3,2,10,36,42,183,46,20,41,071,19,35,19,262,18,37,18,044,23,4*7C
$GBGSV,3,3,10,22,15,306,31,29,15,207,30,4*78
$GNACCURACY,2.4*10
$PAIRSAT,1,35,1,0,200,2,0,200,3,0,200,4,0,200,5,0,201,6,0,200,7,0,200,8,0,200,9,0,200,10,0,221,11,0,200,12,0,201,13,0,201,14,0,200,15,0,201,16,0,200,17,0,200,18,0,221,19,0,200,20,0,200,21,0,200,23,0,221,24,0,221,25,0,200,26,0,200,27,0,200,28,0,200,29,0,200,30,0,200,31,0,200,32,0,221,194,0,621,195,0,621,196,0,620,199,0,621*68
$PAIRSAT,2,24,65,0,200,66,0,200,67,0,200,68,0,200,69,0,201,70,0,201,71,0,201,72,0,200,73,0,201,74,0,200,75,0,200,76,0,200,77,0,200,78,0,200,79,0,201,80,0,201,81,0,200,82,0,200,83,0,200,84,0,200,85,0,201,86,0,201,87,0,200,88,0,200*7A
$PAIRSAT,3,23,2,0,1221,3,0,1221,4,0,1200,5,0,200,7,0,1221,8,0,1221,9,0,1200,10,0,1200,11,0,1200,12,0,1200,13,0,1221,15,0,1221,19,0,1200,21,0,1200,24,0,1200,25,0,1200,26,0,1221,27,0,1200,30,0,1221,31,0,1200,33,0,1200,34,0,1200,36,0,1200*6A
$PAIRSAT,4,50,1,0,200,2,0,200,3,0,200,4,0,200,5,0,200,6,0,201,7,0,200,8,0,201,9,0,201,10,0,200,11,0,200,12,0,200,13,0,201,14,0,200,15,0,200,16,0,201,19,0,621,20,0,621,21,0,600,22,0,621,23,0,600,24,0,600,25,0,600,26,0,600,27,0,600,28,0,600,29,0,621,30,0,600,31,0,200,32,0,600,33,0,600,34,0,600,35,0,621,36,0,621,37,0,621,38,0,621,39,0,621,40,0,600,41,0,600,42,0,600,43,0,600,44,0,600,45,0,600,46,0,621,56,0,200,57,0,200,58,0,200,59,0,600,60,0,600,61,0,600*41
$PAIRDGP,9,5,10,12,15,18,23,24,25,32*5B
$GNGGA,114215.200,2500.8187234,N,12132.4649179,E,4,63,0.45,16.304,M,15.25,M,31,3335*73
$GNRMC,114215.200,A,2500.8187234,N,12132.4649179,E,0.01,206.39,260623,,,R,V*12
$GPHDT,92.666,T*08
$GNACCURACY,2.4*10
$GNGGA,114215.300,2500.8187252,N,12132.4649176,E,4,63,0.45,16.308,M,15.25,M,31,3335*71
$GNRMC,114215.300,A,2500.8187252,N,12132.4649176,E,0.01,206.39,260623,,,R,V*1C
$GPHDT,,T*1B
$GNACCURACY,2.4*10
$GNGGA,114215.400,2500.8187264,N,12132.4649188,E,4,63,0.45,16.296,M,15.25,M,31,3335*74
$GNRMC,114215.400,A,2500.8187264,N,12132.4649188,E,0.01,206.39,260623,,,R,V*1F
$GPHDT,92.446,T*08
$GNACCURACY,2.4*10
$GNGGA,114215.500,2500.8187245,N,12132.4649173,E,4,63,0.45,16.290,M,15.25,M,31,3335*74
$GNRMC,114215.500,A,2500.8187245,N,12132.4649173,E,0.01,206.39,260623,,,R,V*19
$GPHDT,,T*1B
$GNACCURACY,2.4*10
$GNGGA,114215.600,2500.8187277,N,12132.4649187,E,4,63,0.45,16.306,M,15.25,M,31,3335*73
$GNRMC,114215.600,A,2500.8187277,N,12132.4649187,E,0.01,206.39,260623,,,R,V*10
$GPHDT,92.528,T*01
$GNACCURACY,2.4*10
$GNGGA,114215.700,2500.8187225,N,12132.4649149,E,4,63,0.45,16.317,M,15.25,M,31,3335*77
$GNRMC,114215.700,A,2500.8187225,N,12132.4649149,E,0.01,206.39,260623,,,R,V*14
$GPHDT,,T*1B
$GNACCURACY,2.4*10
$GNGGA,114215.800,2500.8187271,N,12132.4649167,E,4,63,0.45,16.312,M,15.25,M,31,3335*70
$GNRMC,114215.800,A,2500.8187271,N,12132.4649167,E,0.01,206.39,260623,,,R,V*16
$GPHDT,92.765,T*0A
$GNACCURACY,2.4*10
$GNGGA,114215.900,2500.8187265,N,12132.4649197,E,4,62,0.45,16.309,M,15.25,M,31,3335*70
$GNRMC,114215.900,A,2500.8187265,N,12132.4649197,E,0.01,206.39,260623,,,R,V*1D
$GPHDT,,T*1B
$GNACCURACY,2.4*10
$GNGGA,114216.000,2500.8187262,N,12132.4649144,E,4,62,0.45,16.303,M,15.25,M,32,3335*7A
$GNRMC,114216.000,A,2500.8187262,N,12132.4649144,E,0.01,206.39,260623,,,R,V*1E
$GPHDT,92.343,T*0A
$GNACCURACY,2.4*10
$GNGGA,114216.100,2500.8187279,N,12132.4649177,E,4,62,0.45,16.317,M,15.25,M,32,3335*74
$GNRMC,114216.100,A,2500.8187279,N,12132.4649177,E,0.02,206.39,260623,,,R,V*16
$GPHDT,,T*1B
$GNGSA,A,3,196,24,199,23,18,194,195,12,10,05,32,,0.70,0.45,0.54,1*00
$GNGSA,A,3,73,80,85,86,71,69,,,,,,,0.70,0.45,0.54,2*03
$GNGSA,A,3,13,07,08,26,30,15,,,,,,,0.70,0.45,0.54,3*0A
$GNGSA,A,3,08,38,13,39,16,06,46,19,09,36,20,35,0.70,0.45,0.54,4*0B
$GNGSA,A,3,29,22,37,,,,,,,,,,0.70,0.45,0.54,4*0C
$GPGSV,4,1,15,196,75,070,27,24,66,036,32,199,60,167,38,23,57,343,37,1*66
$GPGSV,4,2,15,18,54,234,42,41,38,242,33,15,33,054,,194,33,137,42,1*5D
$GPGSV,4,3,15,195,31,179,30,12,25,135,39,10,23,322,41,05,14,124,19,1*54
$GPGSV,4,4,15,25,14,172,23,32,12,275,37,13,04,062,,1*53
$GPGSV,3,1,10,196,75,070,40,24,66,036,40,199,60,167,46,23,57,343,39,8*6E
$GPGSV,3,2,10,18,54,234,43,194,33,137,39,195,31,179,36,10,23,322,27,8*67
$GPGSV,3,3,10,25,14,172,23,32,12,275,36,8*6C
$GLGSV,3,1,09,73,47,155,44,80,47,063,18,70,41,021,,85,29,238,27,1*79
$GLGSV,3,2,09,86,28,292,42,71,25,322,34,69,10,081,15,74,10,186,,1*70
$GLGSV,3,3,09,79,06,028,13,1*41
$GAGSV,3,1,10,13,51,224,40,07,45,311,41,08,44,032,21,26,34,300,40,7*78
$GAGSV,3,2,10,30,30,139,40,02,27,079,,15,17,173,18,03,08,069,19,7*77
$GAGSV,3,3,10,27,05,186,,25,01,039,,7*71
$GAGSV,2,1,06,13,51,224,41,07,45,311,46,08,44,032,16,26,34,300,42,1*78
$GAGSV,2,2,06,30,30,139,35,15,17,173,26,1*7D
$GBGSV,4,1,15,08,83,356,38,38,82,143,46,13,71,327,44,39,69,292,43,1*73
$GBGSV,4,2,15,16,66,267,40,06,65,263,40,46,62,097,38,19,52,353,45,1*7A
$GBGSV,4,3,15,09,50,244,38,36,42,183,47,20,41,071,20,35,19,262,27,1*74
$GBGSV,4,4,15,37,18,044,,29,15,207,29,22,15,306,35,1*49
$GBGSV,3,1,10,38,82,143,47,39,69,292,43,46,62,097,34,19,52,353,40,4*7E
$GBGSV,3,2,10,36,42,183,46,20,41,071,19,35,19,262,23,37,18,044,19,4*7D
$GBGSV,3,3,10,22,15,306,34,29,15,207,30,4*7D
$GNACCURACY,2.4*10
$PAIRSAT,1,35,1,0,200,2,0,200,3,0,200,4,0,200,5,0,201,6,0,200,7,0,200,8,0,200,9,0,200,10,0,221,11,0,200,12,0,201,13,0,201,14,0,200,15,0,201,16,0,200,17,0,200,18,0,221,19,0,200,20,0,200,21,0,200,23,0,221,24,0,221,25,0,200,26,0,200,27,0,200,28,0,200,29,0,200,30,0,200,31,0,200,32,0,221,194,0,621,195,0,621,196,0,620,199,0,621*68
$PAIRSAT,2,24,65,0,200,66,0,200,67,0,200,68,0,200,69,0,201,70,0,201,71,0,201,72,0,200,73,0,201,74,0,200,75,0,200,76,0,200,77,0,200,78,0,200,79,0,201,80,0,201,81,0,200,82,0,200,83,0,200,84,0,200,85,0,201,86,0,201,87,0,200,88,0,200*7A
$PAIRSAT,3,23,2,0,1221,3,0,1221,4,0,1200,5,0,200,7,0,1221,8,0,1221,9,0,1200,10,0,1200,11,0,1200,12,0,1200,13,0,1221,15,0,1221,19,0,1200,21,0,1200,24,0,1200,25,0,1200,26,0,1221,27,0,1200,30,0,1221,31,0,1200,33,0,1200,34,0,1200,36,0,1200*6A
$PAIRSAT,4,50,1,0,200,2,0,200,3,0,200,4,0,200,5,0,200,6,0,201,7,0,200,8,0,201,9,0,201,10,0,200,11,0,200,12,0,200,13,0,201,14,0,200,15,0,200,16,0,201,19,0,621,20,0,621,21,0,600,22,0,621,23,0,600,24,0,600,25,0,600,26,0,600,27,0,600,28,0,600,29,0,621,30,0,600,31,0,200,32,0,600,33,0,600,34,0,600,35,0,621,36,0,621,37,0,621,38,0,621,39,0,621,40,0,600,41,0,600,42,0,600,43,0,600,44,0,600,45,0,600,46,0,621,56,0,200,57,0,200,58,0,200,59,0,600,60,0,600,61,0,600*41
$PAIRDGP,9,5,10,12,15,18,23,24,25,32*5B
$GNGGA,114216.200,2500.8187265,N,12132.4649162,E,4,62,0.45,16.303,M,15.25,M,32,3335*7B
$GNRMC,114216.200,A,2500.8187265,N,12132.4649162,E,0.01,206.39,260623,,,R,V*1F
$GPHDT,92.421,T*09
$GNACCURACY,2.4*10
$GNGGA,114216.300,2500.8187259,N,12132.4649179,E,4,62,0.45,16.311,M,15.25,M,32,3335*7C
$GNRMC,114216.300,A,2500.8187259,N,12132.4649179,E,0.00,206.39,260623,,,R,V*1A
$GPHDT,,T*1B
$GNACCURACY,2.4*10
$GNGGA,114216.400,2500.8187253,N,12132.4649155,E,4,63,0.45,16.316,M,15.25,M,32,3335*79
$GNRMC,114216.400,A,2500.8187253,N,12132.4649155,E,0.00,206.39,260623,,,R,V*19
$GPHDT,92.140,T*0B
$GNACCURACY,2.4*10
$GNGGA,114216.500,2500.8187264,N,12132.4649172,E,4,63,0.45,16.309,M,15.25,M,32,3335*77
$GNRMC,114216.500,A,2500.8187264,N,12132.4649172,E,0.00,206.39,260623,,,R,V*19
$GPHDT,,T*1B
$GNACCURACY,2.4*10
$GNGGA,114216.600,2500.8187258,N,12132.4649144,E,4,63,0.45,16.314,M,15.25,M,32,3335*72
$GNRMC,114216.600,A,2500.8187258,N,12132.4649144,E,0.00,206.39,260623,,,R,V*10
$GPHDT,92.124,T*09
$GNACCURACY,2.4*10
$GNGGA,114216.700,2500.8187263,N,12132.4649193,E,4,62,0.46,16.310,M,15.25,M,32,3335*77
$GNRMC,114216.700,A,2500.8187263,N,12132.4649193,E,0.01,206.39,260623,,,R,V*12
$GPHDT,,T*1B
$GNACCURACY,2.4*10
$GNGGA,114216.800,2500.8187270,N,12132.4649183,E,4,62,0.46,16.315,M,15.25,M,32,3335*7E
$GNRMC,114216.800,A,2500.8187270,N,12132.4649183,E,0.00,206.39,260623,,,R,V*1F
$GPHDT,92.705,T*0C
$GNACCURACY,2.4*10
$GNGGA,114216.900,2500.8187263,N,12132.4649161,E,4,62,0.46,16.320,M,15.25,M,32,3335*77
$GNRMC,114216.900,A,2500.8187263,N,12132.4649161,E,0.00,206.39,260623,,,R,V*10
$GPHDT,,T*1B
$GNACCURACY,2.4*10
$GNGGA,114217.000,2500.8187250,N,12132.4649175,E,4,62,0.46,16.322,M,15.25,M,33,3335*79
$GNRMC,114217.000,A,2500.8187250,N,12132.4649175,E,0.00,206.39,260623,,,R,V*1D
$GPHDT,92.563,T*0E
$GNACCURACY,2.4*10
$GNGGA,114217.100,2500.8187265,N,12132.4649152,E,4,61,0.47,16.323,M,15.25,M,33,3335*78
$GNRMC,114217.100,A,2500.8187265,N,12132.4649152,E,0.00,206.39,260623,,,R,V*1F
$GPHDT,,T*1B
$GNGSA,A,3,196,24,199,23,18,194,195,12,10,05,32,,0.84,0.47,0.69,1*07
$GNGSA,A,3,73,80,85,86,71,,,,,,,,0.84,0.47,0.69,2*0B
$GNGSA,A,3,13,07,08,26,30,15,,,,,,,0.84,0.47,0.69,3*0D
$GNGSA,A,3,08,38,13,39,16,06,46,19,09,36,20,35,0.84,0.47,0.69,4*0C
$GNGSA,A,3,29,22,37,,,,,,,,,,0.84,0.47,0.69,4*0B
$GPGSV,4,1,15,196,75,070,27,24,66,036,30,199,60,167,38,23,57,343,38,1*6B
$GPGSV,4,2,15,18,54,234,41,41,38,242,33,15,33,054,22,194,33,137,42,1*5E
$GPGSV,4,3,15,195,31,179,30,12,25,135,39,10,23,322,41,05,14,124,18,1*55
$GPGSV,4,4,15,25,14,172,23,32,12,275,33,13,04,062,,1*57
$GPGSV,3,1,10,196,75,070,40,24,66,036,40,199,60,167,46,23,57,343,39,8*6E
$GPGSV,3,2,10,18,54,234,43,194,33,137,39,195,31,179,36,10,23,322,28,8*68
$GPGSV,3,3,10,25,14,172,25,32,12,275,36,8*6A
$GLGSV,2,1,08,73,47,155,44,80,47,063,16,70,41,021,,85,29,238,26,1*76
$GLGSV,2,2,08,86,28,292,42,71,25,322,34,69,10,081,16,79,06,028,12,1*7F
$GAGSV,3,1,10,13,51,224,40,07,45,311,41,08,44,032,22,26,34,300,40,7*7B
$GAGSV,3,2,10,30,30,139,40,02,27,079,,15,17,173,18,03,08,069,19,7*77
$GAGSV,3,3,10,27,05,186,,25,01,039,,7*71
$GAGSV,2,1,06,13,51,224,41,07,45,311,46,08,44,032,14,26,34,300,42,1*7A
$GAGSV,2,2,06,30,30,139,35,15,17,173,26,1*7D
$GBGSV,4,1,15,08,83,356,38,38,82,143,46,13,71,327,44,39,69,292,43,1*73
$GBGSV,4,2,15,16,66,267,40,06,65,263,40,46,62,097,38,19,52,353,46,1*79
$GBGSV,4,3,15,09,50,244,38,36,42,183,46,20,41,072,20,35,19,262,29,1*78
$GBGSV,4,4,15,37,18,044,,29,15,207,31,22,15,306,34,1*41
$GBGSV,3,1,10,38,82,143,47,39,69,292,43,46,62,097,34,19,52,353,40,4*7E
$GBGSV,3,2,10,36,42,183,46,20,41,072,19,35,19,262,24,37,18,044,21,4*72
$GBGSV,3,3,10,22,15,306,34,29,15,207,30,4*7D
$GNACCURACY,2.4*10
$PAIRSAT,1,35,1,0,200,2,0,200,3,0,200,4,0,200,5,0,201,6,0,200,7,0,200,8,0,200,9,0,200,10,0,221,11,0,200,12,0,201,13,0,201,14,0,200,15,0,201,16,0,200,17,0,200,18,0,221,19,0,200,20,0,200,21,0,200,23,0,221,24,0,221,25,0,200,26,0,200,27,0,200,28,0,200,29,0,200,30,0,200,31,0,200,32,0,221,194,0,621,195,0,621,196,0,620,199,0,621*68
$PAIRSAT,2,24,65,0,200,66,0,200,67,0,200,68,0,200,69,0,201,70,0,201,71,0,201,72,0,200,73,0,201,74,0,200,75,0,200,76,0,200,77,0,200,78,0,200,79,0,201,80,0,201,81,0,200,82,0,200,83,0,200,84,0,200,85,0,201,86,0,201,87,0,200,88,0,200*7A
$PAIRSAT,3,23,2,0,1221,3,0,1221,4,0,1200,5,0,200,7,0,1221,8,0,1221,9,0,1200,10,0,1200,11,0,1200,12,0,1200,13,0,1221,15,0,1221,19,0,1200,21,0,1200,24,0,1200,25,0,1200,26,0,1221,27,0,1200,30,0,1221,31,0,1200,33,0,1200,34,0,1200,36,0,1200*6A
$PAIRSAT,4,50,1,0,200,2,0,200,3,0,200,4,0,200,5,0,200,6,0,201,7,0,200,8,0,201,9,0,201,10,0,200,11,0,200,12,0,200,13,0,201,14,0,200,15,0,200,16,0,201,19,0,621,20,0,621,21,0,600,22,0,621,23,0,600,24,0,600,25,0,600,26,0,600,27,0,600,28,0,600,29,0,621,30,0,600,31,0,200,32,0,600,33,0,600,34,0,600,35,0,621,36,0,621,37,0,621,38,0,621,39,0,621,40,0,600,41,0,600,42,0,600,43,0,600,44,0,600,45,0,600,46,0,621,56,0,200,57,0,200,58,0,200,59,0,600,60,0,600,61,0,600*41
$PAIRDGP,9,5,10,12,15,18,23,24,25,32*5B
$GNGGA,114217.200,2500.8187281,N,12132.4649155,E,4,61,0.47,16.324,M,15.25,M,33,3335*71
$GNRMC,114217.200,A,2500.8187281,N,12132.4649155,E,0.00,206.39,260623,,,R,V*11
$GPHDT,92.756,T*0A
$GNACCURACY,2.4*10
$GNGGA,114217.300,2500.8187252,N,12132.4649145,E,4,61,0.47,16.319,M,15.25,M,33,3335*71
$GNRMC,114217.300,A,2500.8187252,N,12132.4649145,E,0.01,206.39,260623,,,R,V*1E
$GPHDT,,T*1B
$GNACCURACY,2.4*10
$GNGGA,114217.400,2500.8187264,N,12132.4649119,E,4,61,0.47,16.330,M,15.25,M,33,3335*71
$GNRMC,114217.400,A,2500.8187264,N,12132.4649119,E,0.00,206.39,260623,,,R,V*14
$GPHDT,92.493,T*00
$GNACCURACY,2.4*10
$GNGGA,114217.500,2500.8187221,N,12132.4649153,E,4,61,0.47,16.335,M,15.25,M,33,3335*7A
$GNRMC,114217.500,A,2500.8187221,N,12132.4649153,E,0.00,206.39,260623,,,R,V*1A
$GPHDT,,T*1B
$GNACCURACY,2.4*10
$GNGGA,114217.600,2500.8187264,N,12132.4649162,E,4,61,0.47,16.327,M,15.25,M,33,3335*79
$GNRMC,114217.600,A,2500.8187264,N,12132.4649162,E,0.00,206.39,260623,,,R,V*1A
$GPHDT,92.306,T*0B
$GNACCURACY,2.4*10
$GNGGA,114217.700,2500.8187243,N,12132.4649189,E,4,61,0.47,16.341,M,15.25,M,33,3335*78
$GNRMC,114217.700,A,2500.8187243,N,12132.4649189,E,0.00,206.39,260623,,,R,V*1B
$GPHDT,,T*1B
$GNACCURACY,2.4*10
$GNGGA,114217.800,2500.8187274,N,12132.4649187,E,4,61,0.47,16.335,M,15.25,M,33,3335*7E
$GNRMC,114217.800,A,2500.8187274,N,12132.4649187,E,0.00,206.39,260623,,,R,V*1E
$GPHDT,92.311,T*0D
$GNACCURACY,2.4*10
$GNGGA,114217.900,2500.8187256,N,12132.4649148,E,4,61,0.47,16.321,M,15.25,M,33,3335*79
$GNRMC,114217.900,A,2500.8187256,N,12132.4649148,E,0.00,206.39,260623,,,R,V*1C
$GPHDT,,T*1B
$GNACCURACY,2.4*10
$GNGGA,114218.000,2500.8187255,N,12132.4649159,E,4,61,0.47,16.341,M,15.25,M,34,3335*7D
$GNRMC,114218.000,A,2500.8187255,N,12132.4649159,E,0.00,206.39,260623,,,R,V*19
$GPHDT,92.637,T*0C
$GNACCURACY,2.4*10
$GNGGA,114218.100,2500.8187230,N,12132.4649150,E,4,61,0.47,16.334,M,15.25,M,34,3335*74
$GNRMC,114218.100,A,2500.8187230,N,12132.4649150,E,0.00,206.39,260623,,,R,V*12
$GPHDT,,T*1B
$GNGSA,A,3,196,24,199,23,18,194,195,12,10,05,32,,0.84,0.47,0.69,1*07
$GNGSA,A,3,73,80,85,86,71,,,,,,,,0.84,0.47,0.69,2*0B
$GNGSA,A,3,13,07,08,26,30,15,,,,,,,0.84,0.47,0.69,3*0D
$GNGSA,A,3,08,38,13,39,16,06,46,19,09,36,20,35,0.84,0.47,0.69,4*0C
$GNGSA,A,3,22,29,37,,,,,,,,,,0.84,0.47,0.69,4*0B
$GPGSV,4,1,15,196,75,070,27,24,66,036,33,199,60,167,38,23,57,343,36,1*66
$GPGSV,4,2,15,18,54,234,41,41,38,242,33,15,33,054,22,194,33,137,42,1*5E
$GPGSV,4,3,15,195,31,179,29,12,25,135,38,10,23,322,41,05,14,124,18,1*5C
$GPGSV,4,4,15,25,14,172,23,32,12,275,35,13,04,062,,1*51
$GPGSV,3,1,10,196,75,070,40,24,66,036,40,199,60,167,46,23,57,343,39,8*6E
$GPGSV,3,2,10,18,54,234,43,194,33,137,40,195,31,179,36,10,23,322,27,8*69
$GPGSV,3,3,10,25,14,172,24,32,12,275,35,8*68
$GLGSV,2,1,08,73,47,155,44,80,47,063,17,70,41,021,,85,29,238,23,1*72
$GLGSV,2,2,08,86,28,292,42,71,25,322,34,69,10,081,16,79,06,028,12,1*7F
$GAGSV,3,1,10,13,51,224,40,07,45,311,42,08,44,032,21,26,34,300,40,7*7B
$GAGSV,3,2,10,30,30,139,40,02,27,079,,15,17,173,19,03,08,069,19,7*76
$GAGSV,3,3,10,27,05,186,,25,01,039,,7*71
$GAGSV,2,1,06,13,51,224,41,07,45,311,46,08,44,032,15,26,34,300,42,1*7B
$GAGSV,2,2,06,30,30,139,36,15,17,173,25,1*7D
$GBGSV,4,1,16,08,83,356,38,38,82,143,46,13,71,327,43,39,69,292,43,1*77
$GBGSV,4,2,16,16,66,267,40,06,65,263,40,46,62,097,38,19,52,353,45,1*79
$GBGSV,4,3,16,09,50,244,37,36,42,183,46,20,41,072,22,35,19,262,29,1*76
$GBGSV,4,4,16,37,18,044,,22,15,306,34,29,14,207,31,44,03,306,,1*75
$GBGSV,3,1,10,38,82,143,47,39,69,292,43,46,62,097,35,19,52,353,38,4*70
$GBGSV,3,2,10,36,42,183,46,20,41,072,19,35,19,262,23,37,18,044,19,4*7E
$GBGSV,3,3,10,22,15,306,33,29,14,207,29,4*73
$GNACCURACY,2.4*10
$PAIRSAT,1,35,1,0,200,2,0,200,3,0,200,4,0,200,5,0,201,6,0,200,7,0,200,8,0,200,9,0,200,10,0,221,11,0,200,12,0,201,13,0,201,14,0,200,15,0,201,16,0,200,17,0,200,18,0,221,19,0,200,20,0,200,21,0,200,23,0,221,24,0,221,25,0,200,26,0,200,27,0,200,28,0,200,29,0,200,30,0,200,31,0,200,32,0,221,194,0,621,195,0,621,196,0,620,199,0,621*68
$PAIRSAT,2,24,65,0,200,66,0,200,67,0,200,68,0,200,69,0,201,70,0,201,71,0,201,72,0,200,73,0,201,74,0,200,75,0,200,76,0,200,77,0,200,78,0,200,79,0,201,80,0,201,81,0,200,82,0,200,83,0,200,84,0,200,85,0,201,86,0,201,87,0,200,88,0,200*7A
$PAIRSAT,3,23,2,0,1221,3,0,1221,4,0,1200,5,0,200,7,0,1221,8,0,1221,9,0,1200,10,0,1200,11,0,1200,12,0,1200,13,0,1221,15,0,1221,19,0,1200,21,0,1200,24,0,1200,25,0,1200,26,0,1221,27,0,1200,30,0,1221,31,0,1200,33,0,1200,34,0,1200,36,0,1200*6A
$PAIRSAT,4,50,1,0,200,2,0,200,3,0,200,4,0,200,5,0,200,6,0,201,7,0,200,8,0,201,9,0,201,10,0,200,11,0,200,12,0,200,13,0,201,14,0,200,15,0,200,16,0,201,19,0,621,20,0,621,21,0,600,22,0,621,23,0,600,24,0,600,25,0,600,26,0,600,27,0,600,28,0,600,29,0,621,30,0,600,31,0,200,32,0,600,33,0,600,34,0,600,35,0,621,36,0,621,37,0,621,38,0,621,39,0,621,40,0,600,41,0,600,42,0,600,43,0,600,44,0,600,45,0,600,46,0,621,56,0,200,57,0,200,58,0,200,59,0,600,60,0,600,61,0,600*41
$PAIRDGP,9,5,10,12,15,18,23,24,25,32*5B
$GNGGA,114218.200,2500.8187256,N,12132.4649164,E,4,61,0.47,16.337,M,15.25,M,34,3335*73
$GNRMC,114218.200,A,2500.8187256,N,12132.4649164,E,0.00,206.39,260623,,,R,V*16
$GPHDT,93.052,T*08
$GNACCURACY,2.4*10
$GNGGA,114218.300,2500.8187222,N,12132.4649113,E,4,62,0.46,16.327,M,15.25,M,34,3335*72
$GNRMC,114218.300,A,2500.8187222,N,12132.4649113,E,0.00,206.39,260623,,,R,V*14
$GPHDT,,T*1B
$GNACCURACY,2.4*10
$GNGGA,114218.400,2500.8187229,N,12132.4649200,E,4,61,0.46,16.353,M,15.25,M,34,3335*7F
$GNRMC,114218.400,A,2500.8187229,N,12132.4649200,E,0.00,206.39,260623,,,R,V*19
$GPHDT,92.857,T*04
$GNACCURACY,2.4*10
$GNGGA,114218.500,2500.8187213,N,12132.4649170,E,4,60,0.47,16.353,M,15.25,M,34,3335*73
$GNRMC,114218.500,A,2500.8187213,N,12132.4649170,E,0.00,206.39,260623,,,R,V*15
$GPHDT,,T*1B
$GNACCURACY,2.4*10
$GNGGA,114218.600,2500.8187196,N,12132.4649175,E,4,60,0.47,16.344,M,15.25,M,34,3335*7D
$GNRMC,114218.600,A,2500.8187196,N,12132.4649175,E,0.00,206.39,260623,,,R,V*1D
$GPHDT,92.584,T*07
$GNACCURACY,2.4*10
$GNGGA,114218.700,2500.8187207,N,12132.4649154,E,4,60,0.47,16.359,M,15.25,M,34,3335*78
$GNRMC,114218.700,A,2500.8187207,N,12132.4649154,E,0.00,206.39,260623,,,R,V*14
$GPHDT,,T*1B
$GNACCURACY,2.4*10
$GNGGA,114218.800,2500.8187191,N,12132.4649151,E,4,60,0.47,16.356,M,15.25,M,34,3335*71
$GNRMC,114218.800,A,2500.8187191,N,12132.4649151,E,0.00,206.39,260623,,,R,V*12
$GPHDT,92.520,T*09
$GNACCURACY,2.4*10
$GNGGA,114218.900,2500.8187228,N,12132.4649137,E,4,60,0.47,16.340,M,15.25,M,34,3335*76
$GNRMC,114218.900,A,2500.8187228,N,12132.4649137,E,0.00,206.39,260623,,,R,V*12
$GPHDT,,T*1B
$GNACCURACY,2.4*10
$GNGGA,114219.000,2500.8187222,N,12132.4649159,E,4,60,0.47,16.353,M,15.25,M,35,3335*7F
$GNRMC,114219.000,A,2500.8187222,N,12132.4649159,E,0.00,206.39,260623,,,R,V*18
$GPHDT,92.679,T*06
$GNACCURACY,2.4*10
$GNGGA,114219.100,2500.8187235,N,12132.4649166,E,4,60,0.47,16.339,M,15.25,M,35,3335*78
$GNRMC,114219.100,A,2500.8187235,N,12132.4649166,E,0.00,206.39,260623,,,R,V*13
$GPHDT,,T*1B
$GNGSA,A,3,196,24,199,23,18,194,195,12,10,05,32,,0.79,0.45,0.65,1*0B
$GNGSA,A,3,73,80,85,86,71,69,,,,,,,0.79,0.45,0.65,2*08
$GNGSA,A,3,13,07,08,26,30,15,,,,,,,0.79,0.45,0.65,3*01
$GNGSA,A,3,08,38,13,39,16,06,46,19,09,36,20,35,0.79,0.45,0.65,4*00
$GNGSA,A,3,22,29,37,,,,,,,,,,0.79,0.45,0.65,4*07
$GPGSV,4,1,15,196,75,070,27,24,66,036,33,199,60,167,38,23,57,343,35,1*65
$GPGSV,4,2,15,18,54,234,41,41,38,242,33,15,33,054,23,194,33,137,42,1*5F
$GPGSV,4,3,15,195,31,179,29,12,25,135,38,10,23,322,41,05,14,124,18,1*5C
$GPGSV,4,4,15,25,14,172,24,32,12,275,35,13,04,062,,1*56
$GPGSV,3,1,10,196,75,070,40,24,66,036,41,199,60,167,46,23,57,343,38,8*6E
$GPGSV,3,2,10,18,54,234,43,194,33,137,39,195,31,179,36,10,23,322,27,8*67
$GPGSV,3,3,10,25,14,172,24,32,12,275,34,8*69
$GLGSV,2,1,08,73,47,155,44,80,47,063,16,70,41,021,,85,29,238,24,1*74
$GLGSV,2,2,08,86,28,292,42,71,25,322,35,69,10,081,16,79,06,028,11,1*7D
$GAGSV,3,1,09,13,51,224,40,07,45,311,41,08,44,032,23,26,34,300,41,7*73
$GAGSV,3,2,09,30,30,139,40,02,27,079,,15,17,173,18,03,08,069,19,7*7F
$GAGSV,3,3,09,25,01,039,,7*46
$GAGSV,2,1,06,13,51,224,41,07,45,311,46,08,44,032,16,26,34,300,43,1*79
$GAGSV,2,2,06,30,30,139,36,15,17,173,26,1*7E
$GBGSV,4,1,15,08,83,356,38,38,82,143,46,13,71,327,44,39,69,293,43,1*72
$GBGSV,4,2,15,16,66,267,40,06,65,263,39,46,62,097,38,19,52,353,43,1*72
$GBGSV,4,3,15,09,50,244,37,36,42,183,46,20,41,072,23,35,19,262,30,1*7C
$GBGSV,4,4,15,37,18,044,,22,15,306,31,29,14,207,31,1*45
$GBGSV,3,1,10,38,82,143,47,39,69,293,43,46,62,097,34,19,52,353,37,4*7F
$GBGSV,3,2,10,36,42,183,46,20,41,072,20,35,19,262,22,37,18,044,16,4*7A
$GBGSV,3,3,10,22,15,306,32,29,14,207,31,4*7B
$GNACCURACY,2.4*10
$PAIRSAT,1,35,1,0,200,2,0,200,3,0,200,4,0,200,5,0,201,6,0,200,7,0,200,8,0,200,9,0,200,10,0,221,11,0,200,12,0,201,13,0,201,14,0,200,15,0,201,16,0,200,17,0,200,18,0,221,19,0,200,20,0,200,21,0,200,23,0,221,24,0,221,25,0,200,26,0,200,27,0,200,28,0,200,29,0,200,30,0,200,31,0,200,32,0,221,194,0,621,195,0,621,196,0,620,199,0,621*68
$PAIRSAT,2,24,65,0,200,66,0,200,67,0,200,68,0,200,69,0,201,70,0,201,71,0,201,72,0,200,73,0,201,74,0,200,75,0,200,76,0,200,77,0,200,78,0,200,79,0,201,80,0,201,81,0,200,82,0,200,83,0,200,84,0,200,85,0,201,86,0,201,87,0,200,88,0,200*7A
$PAIRSAT,3,23,2,0,1221,3,0,1221,4,0,1200,5,0,200,7,0,1221,8,0,1221,9,0,1200,10,0,1200,11,0,1200,12,0,1200,13,0,1221,15,0,1221,19,0,1200,21,0,1200,24,0,1200,25,0,1200,26,0,1221,27,0,1200,30,0,1221,31,0,1200,33,0,1200,34,0,1200,36,0,1200*6A
$PAIRSAT,4,50,1,0,200,2,0,200,3,0,200,4,0,200,5,0,200,6,0,201,7,0,200,8,0,201,9,0,201,10,0,200,11,0,200,12,0,200,13,0,201,14,0,200,15,0,200,16,0,201,19,0,621,20,0,621,21,0,600,22,0,621,23,0,600,24,0,600,25,0,600,26,0,600,27,0,600,28,0,600,29,0,621,30,0,600,31,0,200,32,0,600,33,0,600,34,0,600,35,0,621,36,0,621,37,0,621,38,0,621,39,0,621,40,0,600,41,0,600,42,0,600,43,0,600,44,0,600,45,0,600,46,0,621,56,0,200,57,0,200,58,0,200,59,0,600,60,0,600,61,0,600*41
$PAIRDGP,9,5,10,12,15,18,23,24,25,32*5B
$GNGGA,114219.200,2500.8187244,N,12132.4649144,E,4,61,0.45,16.338,M,15.25,M,35,3335*7F
$GNRMC,114219.200,A,2500.8187244,N,12132.4649144,E,0.00,206.39,260623,,,R,V*16
$GPHDT,92.821,T*05
$GNACCURACY,2.4*10
$GNGGA,114219.300,2500.8187275,N,12132.4649122,E,4,61,0.45,16.343,M,15.25,M,35,3335*70
$GNRMC,114219.300,A,2500.8187275,N,12132.4649122,E,0.00,206.39,260623,,,R,V*15
$GPHDT,,T*1B
$GNACCURACY,2.4*10
$GNGGA,114219.400,2500.8187253,N,12132.4649131,E,4,60,0.45,16.347,M,15.25,M,35,3335*74
$GNRMC,114219.400,A,2500.8187253,N,12132.4649131,E,0.00,206.39,260623,,,R,V*14
$GPHDT,92.787,T*06
$GNACCURACY,2.4*10
$GNGGA,114219.500,2500.8187287,N,12132.4649127,E,4,60,0.45,16.343,M,15.25,M,35,3335*7F
$GNRMC,114219.500,A,2500.8187287,N,12132.4649127,E,0.00,206.39,260623,,,R,V*1B
$GPHDT,,T*1B
$GNACCURACY,2.4*10
$GNGGA,114219.600,2500.8187295,N,12132.4649138,E,4,60,0.45,16.341,M,15.25,M,35,3335*73
$GNRMC,114219.600,A,2500.8187295,N,12132.4649138,E,0.00,206.39,260623,,,R,V*15
$GPHDT,92.952,T*00
$GNACCURACY,2.4*10
$GNGGA,114219.700,2500.8187275,N,12132.4649124,E,4,61,0.45,16.343,M,15.25,M,35,3335*72
$GNRMC,114219.700,A,2500.8187275,N,12132.4649124,E,0.01,206.39,260623,,,R,V*16
$GPHDT,,T*1B
$GNACCURACY,2.4*10
$GNGGA,114219.800,2500.8187277,N,12132.4649141,E,4,61,0.45,16.359,M,15.25,M,35,3335*77
$GNRMC,114219.800,A,2500.8187277,N,12132.4649141,E,0.01,206.39,260623,,,R,V*18
$GPHDT,93.296,T*02
$GNACCURACY,2.4*10
$GNGGA,114219.900,2500.8187265,N,12132.4649142,E,4,61,0.45,16.346,M,15.25,M,35,3335*78
$GNRMC,114219.900,A,2500.8187265,N,12132.4649142,E,0.01,206.39,260623,,,R,V*19
$GPHDT,,T*1B
$GNACCURACY,2.4*10
$GNGGA,114220.000,2500.8187286,N,12132.4649125,E,4,61,0.45,16.344,M,15.25,M,36,3335*76
$GNRMC,114220.000,A,2500.8187286,N,12132.4649125,E,0.01,206.39,260623,,,R,V*16
$GPHDT,93.762,T*0C
$GNACCURACY,2.4*10
$GNGGA,114220.100,2500.8187269,N,12132.4649123,E,4,62,0.45,16.348,M,15.25,M,36,3335*7F
$GNRMC,114220.100,A,2500.8187269,N,12132.4649123,E,0.01,206.39,260623,,,R,V*10
$GPHDT,,T*1B
$GNGSA,A,3,196,24,199,23,18,15,194,195,12,10,05,32,0.78,0.45,0.64,1*0F
$GNGSA,A,3,73,80,85,86,71,69,,,,,,,0.78,0.45,0.64,2*08
$GNGSA,A,3,13,07,08,26,30,15,,,,,,,0.78,0.45,0.64,3*01
$GNGSA,A,3,08,38,13,39,16,06,46,19,09,36,20,35,0.78,0.45,0.64,4*00
$GNGSA,A,3,22,29,37,,,,,,,,,,0.78,0.45,0.64,4*07
$GPGSV,4,1,15,196,75,070,26,24,66,036,32,199,60,167,38,23,57,343,34,1*64
$GPGSV,4,2,15,18,54,234,41,41,38,242,31,15,33,054,22,194,33,137,42,1*5C
$GPGSV,4,3,15,195,31,179,29,12,25,135,38,10,23,322,41,05,14,124,18,1*5C
$GPGSV,4,4,15,25,14,172,24,32,12,275,34,13,04,062,,1*57
$GPGSV,3,1,10,196,75,070,40,24,66,036,41,199,60,167,46,23,57,343,39,8*6F
$GPGSV,3,2,10,18,54,234,44,194,33,137,39,195,31,179,37,10,23,322,26,8*60
$GPGSV,3,3,10,25,14,172,24,32,12,275,35,8*68
$GLGSV,3,1,09,73,47,155,44,80,47,063,14,70,41,021,,85,29,238,24,1*76
$GLGSV,3,2,09,86,28,292,42,71,25,322,35,69,10,081,16,79,06,028,12,1*7E
$GLGSV,3,3,09,84,02,186,,1*40
$GAGSV,3,1,09,13,51,224,40,07,45,311,39,08,44,032,22,26,34,300,40,7*7C
$GAGSV,3,2,09,30,30,139,40,02,27,079,,15,17,173,17,03,08,069,18,7*71
$GAGSV,3,3,09,25,01,039,,7*46
$GAGSV,2,1,06,13,51,224,41,07,45,311,46,08,44,032,17,26,34,300,41,1*7A
$GAGSV,2,2,06,30,30,139,35,15,17,173,26,1*7D
$GBGSV,4,1,16,08,83,356,39,38,82,143,46,13,71,327,44,39,69,293,43,1*70
$GBGSV,4,2,16,16,66,267,41,06,65,263,39,46,62,097,38,19,52,353,43,1*70
$GBGSV,4,3,16,09,50,244,38,36,42,183,46,20,41,072,21,35,19,262,31,1*73
$GBGSV,4,4,16,37,18,044,,22,15,306,33,29,14,207,34,10,02,201,,1*71
$GBGSV,3,1,10,38,82,143,47,39,69,293,42,46,62,097,35,19,52,353,37,4*7F
$GBGSV,3,2,10,36,42,183,46,20,41,072,20,35,19,262,19,37,18,044,18,4*7C
$GBGSV,3,3,10,22,15,306,33,29,14,207,32,4*79
$GNACCURACY,2.4*10
$PAIRSAT,1,35,1,0,200,2,0,200,3,0,200,4,0,200,5,0,201,6,0,200,7,0,200,8,0,200,9,0,200,10,0,221,11,0,200,12,0,201,13,0,201,14,0,200,15,0,201,16,0,200,17,0,200,18,0,221,19,0,200,20,0,200,21,0,200,23,0,221,24,0,221,25,0,200,26,0,200,27,0,200,28,0,200,29,0,200,30,0,200,31,0,200,32,0,221,194,0,621,195,0,621,196,0,620,199,0,621*68
$PAIRSAT,2,24,65,0,200,66,0,200,67,0,200,68,0,200,69,0,201,70,0,201,71,0,201,72,0,200,73,0,201,74,0,200,75,0,200,76,0,200,77,0,200,78,0,200,79,0,201,80,0,201,81,0,200,82,0,200,83,0,200,84,0,200,85,0,201,86,0,201,87,0,200,88,0,200*7A
$PAIRSAT,3,23,2,0,1221,3,0,1221,4,0,1200,5,0,200,7,0,1221,8,0,1221,9,0,1200,10,0,1200,11,0,1200,12,0,1200,13,0,1221,15,0,1221,19,0,1200,21,0,1200,24,0,1200,25,0,1200,26,0,1221,27,0,1200,30,0,1221,31,0,1200,33,0,1200,34,0,1200,36,0,1200*6A
$PAIRSAT,4,50,1,0,200,2,0,200,3,0,200,4,0,200,5,0,200,6,0,201,7,0,200,8,0,201,9,0,201,10,0,200,11,0,200,12,0,200,13,0,201,14,0,200,15,0,200,16,0,201,19,0,621,20,0,621,21,0,600,22,0,621,23,0,600,24,0,600,25,0,600,26,0,600,27,0,600,28,0,600,29,0,621,30,0,600,31,0,200,32,0,600,33,0,600,34,0,600,35,0,621,36,0,621,37,0,621,38,0,621,39,0,621,40,0,600,41,0,600,42,0,600,43,0,600,44,0,600,45,0,600,46,0,621,56,0,200,57,0,200,58,0,200,59,0,600,60,0,600,61,0,600*41
$PAIRDGP,9,5,10,12,15,18,23,24,25,32*5B
$GNGGA,114220.200,2500.8187248,N,12132.4649120,E,4,62,0.45,16.353,M,15.25,M,36,3335*76
$GNRMC,114220.200,A,2500.8187248,N,12132.4649120,E,0.01,206.39,260623,,,R,V*13
$GPHDT,93.321,T*0F
$GNACCURACY,2.4*10
$GNGGA,114220.300,2500.8187252,N,12132.4649145,E,4,61,0.45,16.357,M,15.25,M,36,3335*78
$GNRMC,114220.300,A,2500.8187252,N,12132.4649145,E,0.01,206.39,260623,,,R,V*1A
$GPHDT,,T*1B
$GNACCURACY,2.4*10
$GNGGA,114220.400,2500.8187223,N,12132.4649187,E,4,62,0.45,16.381,M,15.25,M,36,3335*7F
$GNRMC,114220.400,A,2500.8187223,N,12132.4649187,E,0.01,206.39,260623,,,R,V*15
$GPHDT,93.650,T*0C
$GNACCURACY,2.4*10
$GNGGA,114220.500,2500.8187184,N,12132.4649141,E,4,62,0.45,16.374,M,15.25,M,36,3335*70
$GNRMC,114220.500,A,2500.8187184,N,12132.4649141,E,0.01,206.39,260623,,,R,V*10
$GPHDT,,T*1B
$GNACCURACY,2.4*10
$GNGGA,114220.600,2500.8187171,N,12132.4649163,E,4,63,0.45,16.383,M,15.25,M,36,3335*70
$GNRMC,114220.600,A,2500.8187171,N,12132.4649163,E,0.01,206.39,260623,,,R,V*19
$GPHDT,92.572,T*0E
$GNACCURACY,2.4*10
$GNGGA,114220.700,2500.8187171,N,12132.4649114,E,4,63,0.45,16.375,M,15.25,M,36,3335*78
$GNRMC,114220.700,A,2500.8187171,N,12132.4649114,E,0.01,206.39,260623,,,R,V*18
$GPHDT,,T*1B
$GNACCURACY,2.4*10
$GNGGA,114220.800,2500.8187207,N,12132.4649132,E,4,63,0.45,16.371,M,15.25,M,36,3335*75
$GNRMC,114220.800,A,2500.8187207,N,12132.4649132,E,0.01,206.39,260623,,,R,V*11
$GPHDT,92.399,T*0D
$GNACCURACY,2.4*10
$GNGGA,114220.900,2500.8187186,N,12132.4649148,E,4,63,0.45,16.396,M,15.25,M,36,3335*7A
$GNRMC,114220.900,A,2500.8187186,N,12132.4649148,E,0.01,206.39,260623,,,R,V*17
$GPHDT,,T*1B
$GNACCURACY,2.4*10
$GNGGA,114221.000,2500.8187195,N,12132.4649150,E,4,62,0.45,16.374,M,15.25,M,37,3335*75
$GNRMC,114221.000,A,2500.8187195,N,12132.4649150,E,0.01,206.39,260623,,,R,V*14
$GPHDT,92.560,T*0D
$GNACCURACY,2.4*10
$GNGGA,114221.100,2500.8187194,N,12132.4649168,E,4,62,0.45,16.380,M,15.25,M,37,3335*75
$GNRMC,114221.100,A,2500.8187194,N,12132.4649168,E,0.01,206.39,260623,,,R,V*1F
$GPHDT,,T*1B
$GNGSA,A,3,196,24,199,23,18,194,195,12,10,05,32,,0.79,0.45,0.65,1*0B
$GNGSA,A,3,73,80,85,86,71,69,,,,,,,0.79,0.45,0.65,2*08
$GNGSA,A,3,13,07,08,26,30,15,,,,,,,0.79,0.45,0.65,3*01
$GNGSA,A,3,08,38,13,39,16,06,46,19,09,36,20,35,0.79,0.45,0.65,4*00
$GNGSA,A,3,22,29,37,,,,,,,,,,0.79,0.45,0.65,4*07
$GPGSV,4,1,15,196,75,070,25,24,66,036,35,199,60,167,38,23,57,343,32,1*66
$GPGSV,4,2,15,18,54,234,41,41,38,242,32,15,33,054,23,194,33,137,42,1*5E
$GPGSV,4,3,15,195,31,179,29,12,25,135,39,10,23,322,41,05,14,124,18,1*5D
$GPGSV,4,4,15,25,14,172,22,32,12,275,34,13,04,062,,1*51
$GPGSV,3,1,10,196,75,070,40,24,66,036,41,199,60,167,46,23,57,343,31,8*67
$GPGSV,3,2,10,18,54,234,44,194,33,137,40,195,31,179,37,10,23,322,27,8*6F
$GPGSV,3,3,10,25,14,172,23,32,12,275,34,8*6E
$GLGSV,3,1,09,73,47,155,44,80,47,063,19,70,41,021,,85,29,238,21,1*7E
$GLGSV,3,2,09,86,28,292,42,71,25,322,36,69,10,081,17,79,06,028,,1*7F
$GLGSV,3,3,09,84,02,186,,1*40
$GAGSV,3,1,09,13,51,224,40,07,45,311,42,08,44,032,20,26,34,300,39,7*7C
$GAGSV,3,2,09,30,30,139,39,02,27,079,,15,17,173,12,03,08,069,18,7*7A
$GAGSV,3,3,09,25,01,039,,7*46
$GAGSV,2,1,06,13,51,224,42,07,45,311,46,08,44,032,21,26,34,300,41,1*7C
$GAGSV,2,2,06,30,30,139,36,15,17,173,24,1*7C
$GBGSV,4,1,15,08,83,356,39,38,82,143,46,13,71,327,43,39,69,293,44,1*73
$GBGSV,4,2,15,16,66,267,39,06,65,263,39,46,62,097,38,19,52,353,42,1*7D
$GBGSV,4,3,15,09,50,244,38,36,42,183,46,20,41,072,23,35,19,262,29,1*7B
$GBGSV,4,4,15,37,18,044,27,22,15,306,35,29,14,207,30,1*45
$GBGSV,3,1,10,38,82,143,47,39,69,293,44,46,62,097,36,19,52,353,36,4*7B
$GBGSV,3,2,10,36,42,183,47,20,41,072,20,35,19,262,25,37,18,044,16,4*7C
$GBGSV,3,3,10,22,15,306,31,29,14,207,32,4*7B
$GNACCURACY,2.4*10
$PAIRSAT,1,35,1,0,200,2,0,200,3,0,200,4,0,200,5,0,201,6,0,200,7,0,200,8,0,200,9,0,200,10,0,221,11,0,200,12,0,201,13,0,201,14,0,200,15,0,201,16,0,200,17,0,200,18,0,221,19,0,200,20,0,200,21,0,200,23,0,221,24,0,221,25,0,200,26,0,200,27,0,200,28,0,200,29,0,200,30,0,200,31,0,200,32,0,221,194,0,621,195,0,621,196,0,620,199,0,621*68
$PAIRSAT,2,24,65,0,200,66,0,200,67,0,200,68,0,200,69,0,201,70,0,201,71,0,201,72,0,200,73,0,201,74,0,200,75,0,200,76,0,200,77,0,200,78,0,200,79,0,201,80,0,201,81,0,200,82,0,200,83,0,200,84,0,200,85,0,201,86,0,201,87,0,200,88,0,200*7A
$PAIRSAT,3,23,2,0,1221,3,0,1221,4,0,1200,5,0,200,7,0,1221,8,0,1221,9,0,1200,10,0,1200,11,0,1200,12,0,1200,13,0,1221,15,0,1221,19,0,1200,21,0,1200,24,0,1200,25,0,1200,26,0,1221,27,0,1200,30,0,1221,31,0,1200,33,0,1200,34,0,1200,36,0,1200*6A
$PAIRSAT,4,50,1,0,200,2,0,200,3,0,200,4,0,200,5,0,200,6,0,201,7,0,200,8,0,201,9,0,201,10,0,200,11,0,200,12,0,200,13,0,201,14,0,200,15,0,200,16,0,201,19,0,621,20,0,621,21,0,600,22,0,621,23,0,600,24,0,600,25,0,600,26,0,600,27,0,600,28,0,600,29,0,621,30,0,600,31,0,200,32,0,600,33,0,600,34,0,600,35,0,621,36,0,621,37,0,621,38,0,621,39,0,621,40,0,600,41,0,600,42,0,600,43,0,600,44,0,600,45,0,600,46,0,621,56,0,200,57,0,200,58,0,200,59,0,600,60,0,600,61,0,600*41
$PAIRDGP,9,5,10,12,15,18,23,24,25,32*5B
$GNGGA,114221.200,2500.8187198,N,12132.4649195,E,4,62,0.45,16.405,M,15.25,M,37,3335*72
$GNRMC,114221.200,A,2500.8187198,N,12132.4649195,E,0.01,206.39,260623,,,R,V*12
$GPHDT,92.191,T*07
$GNACCURACY,2.4*10
$GNGGA,114221.300,2500.8187210,N,12132.4649165,E,4,62,0.45,16.389,M,15.25,M,37,3335*7C
$GNRMC,114221.300,A,2500.8187210,N,12132.4649165,E,0.01,206.39,260623,,,R,V*1F
$GPHDT,,T*1B
$GNACCURACY,2.4*10
$GNGGA,114221.400,2500.8187210,N,12132.4649171,E,4,62,0.45,16.392,M,15.25,M,37,3335*74
$GNRMC,114221.400,A,2500.8187210,N,12132.4649171,E,0.01,206.39,260623,,,R,V*1D
$GPHDT,92.327,T*08
$GNACCURACY,2.4*10
$GNGGA,114221.500,2500.8187217,N,12132.4649125,E,4,62,0.45,16.391,M,15.25,M,37,3335*70
$GNRMC,114221.500,A,2500.8187217,N,12132.4649125,E,0.01,206.39,260623,,,R,V*1A
$GPHDT,,T*1B
$GNACCURACY,2.4*10
$GNGGA,114221.600,2500.8187171,N,12132.4649130,E,4,62,0.45,16.385,M,15.25,M,37,3335*71
$GNRMC,114221.600,A,2500.8187171,N,12132.4649130,E,0.01,206.39,260623,,,R,V*1E
$GPHDT,93.227,T*08
$GNACCURACY,2.4*10
$GNGGA,114221.700,2500.8187176,N,12132.4649133,E,4,62,0.45,16.380,M,15.25,M,37,3335*71
$GNRMC,114221.700,A,2500.8187176,N,12132.4649133,E,0.01,206.39,260623,,,R,V*1B
$GPHDT,,T*1B
$GNACCURACY,2.4*10
$GNGGA,114221.800,2500.8187156,N,12132.4649130,E,4,64,0.45,16.401,M,15.25,M,37,3335*77
$GNRMC,114221.800,A,2500.8187156,N,12132.4649130,E,0.01,206.39,260623,,,R,V*15
$GPHDT,92.991,T*0F
$GNACCURACY,2.4*10
$GNGGA,114221.900,2500.8187249,N,12132.4649157,E,4,64,0.45,16.408,M,15.25,M,37,3335*73
$GNRMC,114221.900,A,2500.8187249,N,12132.4649157,E,0.01,206.39,260623,,,R,V*18
$GPHDT,,T*1B
