$FW : RTK35X,V1.1X0314AS,Lib20210517,1*54
$Tool : LOCOSYS , GNSS Firebird , v1.0.0.19*39
$---------------------------------------------------*2D
$GNACCURACY,2.4*10
$GNGGA,114002.600,2500.8204600,N,12132.4647100,E,2,64,0.45,20.99,M,15.25,M,22,3335*49
$GNRMC,114002.600,A,2500.8204600,N,12132.4647100,E,0.00,206.39,260623,,,D,V*0E
$GPHDT,,T*1B
$GNACCURACY,2.4*10
$GNGGA,114002.700,2500.8204600,N,12132.4647000,E,2,64,0.45,20.99,M,15.25,M,22,3335*49
$GNRMC,114002.700,A,2500.8204600,N,12132.4647000,E,0.00,206.39,260623,,,D,V*0E
$GPHDT,,T*1B
$GNACCURACY,2.4*10
$GNGGA,114002.800,2500.8204600,N,12132.4647000,E,2,64,0.45,20.99,M,15.25,M,22,3335*46
$GNRMC,114002.800,A,2500.8204600,N,12132.4647000,E,0.00,206.39,260623,,,D,V*01
$GPHDT,,T*1B
$GNACCURACY,2.4*10
$GNGGA,114002.900,2500.8204600,N,12132.4647000,E,2,64,0.45,20.98,M,15.25,M,22,3335*46
$GNRMC,114002.900,A,2500.8204600,N,12132.4647000,E,0.00,206.39,260623,,,D,V*00
$GPHDT,,T*1B
$GNACCURACY,2.4*10
$GNGGA,114003.000,2500.8204500,N,12132.4647000,E,2,64,0.45,20.98,M,15.25,M,23,3335*4C
$GNRMC,114003.000,A,2500.8204500,N,12132.4647000,E,0.00,206.39,260623,,,D,V*0B
$GPHDT,,T*1B
$GNACCURACY,2.4*10
$GNGGA,114003.100,2500.8204500,N,12132.4646900,E,2,64,0.45,20.98,M,15.25,M,23,3335*45
$GNRMC,114003.100,A,2500.8204500,N,12132.4646900,E,0.00,206.39,260623,,,D,V*02
$GPHDT,,T*1B
$GNGSA,A,3,196,24,199,23,18,15,194,195,10,05,32,,0.85,0.47,0.71,1*08
$GNGSA,A,3,80,73,70,85,86,71,,,,,,,0.85,0.47,0.71,2*04
$GNGSA,A,3,13,07,08,26,30,02,15,,,,,,0.85,0.47,0.71,3*07
$GNGSA,A,3,38,08,39,13,16,06,46,19,09,20,36,35,0.85,0.47,0.71,4*04
$GNGSA,A,3,29,22,,,,,,,,,,,0.85,0.47,0.71,4*07
$GPGSV,4,1,15,196,75,069,22,24,67,036,31,199,60,167,38,23,56,342,36,1*68
$GPGSV,4,2,15,18,55,235,42,41,38,242,31,15,34,053,18,194,33,137,37,1*54
$GPGSV,4,3,15,195,32,180,29,12,24,136,21,10,23,321,40,05,15,123,23,1*5F
$GPGSV,4,4,15,25,13,173,19,32,12,274,37,13,05,061,16,1*58
$GPGSV,3,1,10,196,75,069,36,24,67,036,38,199,60,167,46,23,56,342,41,8*66
$GPGSV,3,2,10,18,55,235,43,194,33,137,41,195,32,180,37,10,23,321,36,8*6F
$GPGSV,3,3,10,25,13,173,21,32,12,274,30,8*6F
$GLGSV,2,1,08,80,47,065,26,73,45,155,41,70,41,019,21,85,30,239,28,1*7B
$GLGSV,2,2,08,86,28,294,41,71,24,321,21,69,11,080,16,79,06,028,23,1*7E
$GAGSV,3,1,10,13,52,225,39,07,45,310,43,08,44,031,12,26,34,301,42,7*77
$GAGSV,3,2,10,30,30,140,31,02,27,080,17,15,18,173,17,03,08,068,,7*76
$GAGSV,3,3,10,27,05,186,,25,01,039,,7*71
$GAGSV,2,1,07,13,52,225,41,07,45,310,45,08,44,031,33,26,34,301,42,1*7C
$GAGSV,2,2,07,30,30,140,37,02,27,080,20,15,18,173,24,1*40
$GBGSV,4,1,15,38,83,139,44,08,82,358,40,39,70,291,44,13,70,328,44,1*7F
$GBGSV,4,2,15,16,66,266,39,06,65,261,41,46,62,099,21,19,51,352,46,1*71
$GBGSV,4,3,15,09,50,243,38,20,41,070,28,36,41,183,46,37,19,044,,1*79
$GBGSV,4,4,15,35,19,263,36,29,15,208,16,22,14,305,36,1*4A
$GBGSV,3,1,09,38,83,139,46,39,70,291,45,46,62,099,28,19,51,352,44,4*73
$GBGSV,3,2,09,20,41,070,14,36,41,183,46,35,19,263,31,29,15,208,18,4*71
$GBGSV,3,3,09,22,14,305,34,4*4E
$GNACCURACY,2.4*10
$PAIRSAT,1,35,1,0,200,2,0,200,3,0,200,4,0,200,5,0,201,6,0,200,7,0,200,8,0,200,9,0,200,10,0,221,11,0,200,12,0,201,13,0,201,14,0,200,15,0,201,16,0,200,17,0,200,18,0,221,19,0,200,20,0,200,21,0,200,23,0,221,24,0,221,25,0,200,26,0,200,27,0,200,28,0,200,29,0,200,30,0,200,31,0,200,32,0,221,194,0,621,195,0,621,196,0,620,199,0,621*68
$PAIRSAT,2,24,65,0,200,66,0,200,67,0,200,68,0,200,69,0,201,70,0,201,71,0,201,72,0,200,73,0,201,74,0,200,75,0,200,76,0,200,77,0,200,78,0,200,79,0,201,80,0,201,81,0,200,82,0,200,83,0,200,84,0,200,85,0,201,86,0,201,87,0,200,88,0,200*7A
$PAIRSAT,3,23,2,0,1221,3,0,1221,4,0,1200,5,0,200,7,0,1221,8,0,1221,9,0,1200,10,0,1200,11,0,1200,12,0,1200,13,0,1221,15,0,1221,19,0,1200,21,0,1200,24,0,1200,25,0,1200,26,0,1221,27,0,1200,30,0,1221,31,0,1200,33,0,1200,34,0,1200,36,0,1200*6A
$PAIRSAT,4,50,1,0,200,2,0,200,3,0,200,4,0,200,5,0,200,6,0,201,7,0,200,8,0,201,9,0,201,10,0,200,11,0,200,12,0,200,13,0,201,14,0,200,15,0,200,16,0,201,19,0,621,20,0,621,21,0,600,22,0,621,23,0,600,24,0,600,25,0,600,26,0,600,27,0,600,28,0,600,29,0,621,30,0,600,31,0,200,32,0,600,33,0,600,34,0,600,35,0,621,36,0,621,37,0,621,38,0,621,39,0,621,40,0,600,41,0,600,42,0,600,43,0,600,44,0,600,45,0,600,46,0,621,56,0,200,57,0,200,58,0,200,59,0,600,60,0,600,61,0,600*41
$PAIRDGP,9,5,10,12,15,18,23,24,25,32*5B
$GNGGA,114003.200,2500.8204400,N,12132.4646900,E,2,63,0.47,20.98,M,15.25,M,23,3335*42
$GNRMC,114003.200,A,2500.8204400,N,12132.4646900,E,0.01,206.39,260623,,,D,V*01
$GPHDT,,T*1B
$GNACCURACY,2.4*10
$GNGGA,114003.300,2500.8204400,N,12132.4646800,E,2,63,0.47,20.97,M,15.25,M,23,3335*4D
$GNRMC,114003.300,A,2500.8204400,N,12132.4646800,E,0.01,206.39,260623,,,D,V*01
$GPHDT,,T*1B
$GNACCURACY,2.4*10
$GNGGA,114003.400,2500.8204300,N,12132.4646700,E,2,63,0.47,20.97,M,15.25,M,23,3335*42
$GNRMC,114003.400,A,2500.8204300,N,12132.4646700,E,0.01,206.39,260623,,,D,V*0E
$GPHDT,,T*1B
$GNACCURACY,2.4*10
$GNGGA,114003.500,2500.8204300,N,12132.4646700,E,2,63,0.47,20.97,M,15.25,M,23,3335*43
$GNRMC,114003.500,A,2500.8204300,N,12132.4646700,E,0.01,206.39,260623,,,D,V*0F
$GPHDT,,T*1B
$GNACCURACY,2.4*10
$GNGGA,114003.600,2500.8204300,N,12132.4646700,E,2,63,0.47,20.97,M,15.25,M,23,3335*40
$GNRMC,114003.600,A,2500.8204300,N,12132.4646700,E,0.01,206.39,260623,,,D,V*0C
$GPHDT,,T*1B
$GNACCURACY,2.4*10
$GNGGA,114003.700,2500.8204200,N,12132.4646700,E,2,63,0.47,20.96,M,15.25,M,23,3335*41
$GNRMC,114003.700,A,2500.8204200,N,12132.4646700,E,0.01,206.39,260623,,,D,V*0C
$GPHDT,,T*1B
$GNACCURACY,2.4*10
$GNGGA,114003.800,2500.8204200,N,12132.4646600,E,2,63,0.47,20.96,M,15.25,M,23,3335*4F
$GNRMC,114003.800,A,2500.8204200,N,12132.4646600,E,0.01,206.39,260623,,,D,V*02
$GPHDT,,T*1B
$GNACCURACY,2.4*10
$GNGGA,114003.900,2500.8204200,N,12132.4646600,E,2,63,0.47,20.95,M,15.25,M,23,3335*4D
$GNRMC,114003.900,A,2500.8204200,N,12132.4646600,E,0.01,206.39,260623,,,D,V*03
$GPHDT,,T*1B
$GNACCURACY,2.4*10
$GNGGA,114004.000,2500.8204200,N,12132.4646600,E,2,63,0.47,20.95,M,15.25,M,24,3335*44
$GNRMC,114004.000,A,2500.8204200,N,12132.4646600,E,0.01,206.39,260623,,,D,V*0D
$GPHDT,,T*1B
$GNACCURACY,2.4*10
$GNGGA,114004.100,2500.8204100,N,12132.4646500,E,2,63,0.47,20.94,M,15.25,M,24,3335*44
$GNRMC,114004.100,A,2500.8204100,N,12132.4646500,E,0.01,206.39,260623,,,D,V*0C
$GPHDT,,T*1B
$GNGSA,A,3,196,24,199,23,18,15,194,195,10,05,32,,0.80,0.45,0.66,1*09
$GNGSA,A,3,80,73,70,85,86,71,69,,,,,,0.80,0.45,0.66,2*0A
$GNGSA,A,3,13,07,08,26,30,02,15,,,,,,0.80,0.45,0.66,3*06
$GNGSA,A,3,38,08,39,13,16,06,46,19,09,20,36,35,0.80,0.45,0.66,4*05
$GNGSA,A,3,29,22,,,,,,,,,,,0.80,0.45,0.66,4*06
$GPGSV,4,1,15,196,75,069,22,24,67,036,31,199,60,167,38,23,56,342,37,1*69
$GPGSV,4,2,15,18,55,235,42,41,38,242,32,15,34,053,18,194,33,137,36,1*56
$GPGSV,4,3,15,195,32,180,28,12,24,136,23,10,23,321,40,05,15,123,23,1*5C
$GPGSV,4,4,15,25,13,173,19,32,12,274,37,13,05,061,16,1*58
$GPGSV,3,1,10,196,75,069,36,24,67,036,39,199,60,167,46,23,56,342,41,8*67
$GPGSV,3,2,10,18,55,235,44,194,33,137,40,195,32,180,33,10,23,321,36,8*6D
$GPGSV,3,3,10,25,13,173,20,32,12,274,30,8*6E
$GLGSV,2,1,08,80,47,065,27,73,45,155,41,70,41,019,21,85,30,239,28,1*7A
$GLGSV,2,2,08,86,28,294,41,71,24,321,20,69,11,080,15,79,06,028,23,1*7C
$GAGSV,3,1,10,13,52,225,39,07,45,310,43,08,44,031,12,26,34,301,42,7*77
$GAGSV,3,2,10,30,30,140,30,02,27,080,18,15,18,173,17,03,08,068,,7*78
$GAGSV,3,3,10,27,05,186,,25,01,039,,7*71
$GAGSV,2,1,07,13,52,225,43,07,45,310,45,08,44,031,33,26,34,301,42,1*7E
$GAGSV,2,2,07,30,30,140,37,02,27,080,21,15,18,173,22,1*47
$GBGSV,4,1,15,38,83,139,44,08,82,358,40,39,70,291,44,13,70,328,44,1*7F
$GBGSV,4,2,15,16,66,266,39,06,65,261,41,46,62,099,21,19,51,352,46,1*71
$GBGSV,4,3,15,09,50,243,38,20,41,070,28,36,41,183,41,37,19,044,,1*7E
$GBGSV,4,4,15,35,19,263,36,29,15,208,17,22,14,305,36,1*4B
$GBGSV,2,1,08,38,83,139,46,39,70,291,45,46,62,099,30,19,51,352,44,4*7A
$GBGSV,2,2,08,20,41,070,11,36,41,183,43,35,19,263,32,22,14,305,35,4*7B
$GNACCURACY,2.4*10
$PAIRSAT,1,35,1,0,200,2,0,200,3,0,200,4,0,200,5,0,201,6,0,200,7,0,200,8,0,200,9,0,200,10,0,221,11,0,200,12,0,201,13,0,201,14,0,200,15,0,201,16,0,200,17,0,200,18,0,221,19,0,200,20,0,200,21,0,200,23,0,221,24,0,221,25,0,200,26,0,200,27,0,200,28,0,200,29,0,200,30,0,200,31,0,200,32,0,221,194,0,621,195,0,621,196,0,620,199,0,621*68
$PAIRSAT,2,24,65,0,200,66,0,200,67,0,200,68,0,200,69,0,201,70,0,201,71,0,201,72,0,200,73,0,201,74,0,200,75,0,200,76,0,200,77,0,200,78,0,200,79,0,201,80,0,201,81,0,200,82,0,200,83,0,200,84,0,200,85,0,201,86,0,201,87,0,200,88,0,200*7A
$PAIRSAT,3,23,2,0,1221,3,0,1221,4,0,1200,5,0,200,7,0,1221,8,0,1221,9,0,1200,10,0,1200,11,0,1200,12,0,1200,13,0,1221,15,0,1221,19,0,1200,21,0,1200,24,0,1200,25,0,1200,26,0,1221,27,0,1200,30,0,1221,31,0,1200,33,0,1200,34,0,1200,36,0,1200*6A
$PAIRSAT,4,50,1,0,200,2,0,200,3,0,200,4,0,200,5,0,200,6,0,201,7,0,200,8,0,201,9,0,201,10,0,200,11,0,200,12,0,200,13,0,201,14,0,200,15,0,200,16,0,201,19,0,621,20,0,621,21,0,600,22,0,621,23,0,600,24,0,600,25,0,600,26,0,600,27,0,600,28,0,600,29,0,621,30,0,600,31,0,200,32,0,600,33,0,600,34,0,600,35,0,621,36,0,621,37,0,621,38,0,621,39,0,621,40,0,600,41,0,600,42,0,600,43,0,600,44,0,600,45,0,600,46,0,621,56,0,200,57,0,200,58,0,200,59,0,600,60,0,600,61,0,600*41
$PAIRDGP,9,5,10,12,15,18,23,24,25,32*5B
$GNGGA,114004.200,2500.8204000,N,12132.4646400,E,2,63,0.45,20.94,M,15.25,M,24,3335*45
$GNRMC,114004.200,A,2500.8204000,N,12132.4646400,E,0.01,206.39,260623,,,D,V*0F
$GPHDT,,T*1B
$GNACCURACY,2.4*10
$GNGGA,114004.300,2500.8204000,N,12132.4646400,E,2,64,0.45,20.94,M,15.25,M,24,3335*43
$GNRMC,114004.300,A,2500.8204000,N,12132.4646400,E,0.01,206.39,260623,,,D,V*0E
$GPHDT,,T*1B
$GNACCURACY,2.4*10
$GNGGA,114004.400,2500.8203900,N,12132.4646400,E,2,64,0.45,20.94,M,15.25,M,24,3335*4A
$GNRMC,114004.400,A,2500.8203900,N,12132.4646400,E,0.01,206.39,260623,,,D,V*07
$GPHDT,,T*1B
$GNACCURACY,2.4*10
$GNGGA,114004.500,2500.8203800,N,12132.4646400,E,2,64,0.45,20.94,M,15.25,M,24,3335*4A
$GNRMC,114004.500,A,2500.8203800,N,12132.4646400,E,0.01,206.39,260623,,,D,V*07
$GPHDT,,T*1B
$GNACCURACY,2.4*10
$GNGGA,114004.600,2500.8203700,N,12132.4646400,E,2,64,0.45,20.93,M,15.25,M,24,3335*41
$GNRMC,114004.600,A,2500.8203700,N,12132.4646400,E,0.01,206.39,260623,,,D,V*0B
$GPHDT,,T*1B
$GNACCURACY,2.4*10
$GNGGA,114004.700,2500.8203700,N,12132.4646300,E,2,64,0.45,20.93,M,15.25,M,24,3335*47
$GNRMC,114004.700,A,2500.8203700,N,12132.4646300,E,0.02,206.39,260623,,,D,V*0E
$GPHDT,,T*1B
$GNACCURACY,2.4*10
$GNGGA,114004.800,2500.8203600,N,12132.4646300,E,2,64,0.45,20.93,M,15.25,M,24,3335*49
$GNRMC,114004.800,A,2500.8203600,N,12132.4646300,E,0.01,206.39,260623,,,D,V*03
$GPHDT,,T*1B
$GNACCURACY,2.4*10
$GNGGA,114004.900,2500.8203600,N,12132.4646100,E,2,64,0.45,20.93,M,15.25,M,24,3335*4A
$GNRMC,114004.900,A,2500.8203600,N,12132.4646100,E,0.02,206.39,260623,,,D,V*03
$GPHDT,,T*1B
$GNACCURACY,2.4*10
$GNGGA,114005.000,2500.8203500,N,12132.4646100,E,2,62,0.45,20.93,M,15.25,M,25,3335*46
$GNRMC,114005.000,A,2500.8203500,N,12132.4646100,E,0.02,206.39,260623,,,D,V*08
$GPHDT,,T*1B
$GNACCURACY,2.4*10
$GNGGA,114005.100,2500.8203400,N,12132.4646000,E,2,62,0.45,20.93,M,15.25,M,25,3335*47
$GNRMC,114005.100,A,2500.8203400,N,12132.4646000,E,0.02,206.39,260623,,,D,V*09
$GPHDT,,T*1B
$GNGSA,A,3,196,24,199,23,18,15,194,195,10,05,32,,0.80,0.45,0.66,1*09
$GNGSA,A,3,80,73,70,85,86,71,69,,,,,,0.80,0.45,0.66,2*0A
$GNGSA,A,3,13,07,08,26,30,02,15,,,,,,0.80,0.45,0.66,3*06
$GNGSA,A,3,38,08,13,39,16,06,19,09,36,20,35,29,0.80,0.45,0.66,4*0C
$GNGSA,A,3,22,46,,,,,,,,,,,0.80,0.45,0.66,4*0F
$GPGSV,4,1,15,196,75,069,21,24,67,036,31,199,60,167,37,23,56,342,36,1*64
$GPGSV,4,2,15,18,55,235,42,41,38,242,32,15,34,053,18,194,33,137,37,1*57
$GPGSV,4,3,15,195,32,180,28,12,24,136,19,10,23,321,40,05,15,123,24,1*52
$GPGSV,4,4,15,25,13,173,19,32,12,274,37,13,05,061,17,1*59
$GPGSV,3,1,10,196,75,069,36,24,67,036,39,199,60,167,45,23,56,342,41,8*64
$GPGSV,3,2,10,18,55,235,44,194,33,137,40,195,32,180,34,10,23,321,36,8*6A
$GPGSV,3,3,10,25,13,173,23,32,12,274,29,8*65
$GLGSV,2,1,08,80,47,065,26,73,45,155,36,70,41,019,22,85,30,239,29,1*79
$GLGSV,2,2,08,86,28,294,41,71,24,321,19,69,11,080,11,79,06,028,24,1*75
$GAGSV,3,1,09,13,52,225,40,07,45,310,43,08,44,031,14,26,34,301,42,7*77
$GAGSV,3,2,09,30,30,140,31,02,27,080,18,15,18,173,17,03,08,068,,7*71
$GAGSV,3,3,09,27,05,186,,7*45
$GAGSV,2,1,07,13,52,225,43,07,45,310,45,08,44,031,33,26,34,301,42,1*7E
$GAGSV,2,2,07,30,30,140,37,02,27,080,20,15,18,173,21,1*45
$GBGSV,4,1,16,38,83,139,44,08,82,358,40,13,70,328,44,39,70,291,44,1*7C
$GBGSV,4,2,16,16,66,266,39,06,65,261,41,46,62,099,20,19,51,352,46,1*73
$GBGSV,4,3,16,09,50,243,38,56,47,315,,36,41,183,43,20,41,070,29,1*75
$GBGSV,4,4,16,35,19,263,34,37,19,044,,29,15,208,17,22,14,305,36,1*76
$GBGSV,2,1,08,38,83,139,46,39,70,291,45,46,62,099,30,19,51,352,44,4*7A
$GBGSV,2,2,08,20,41,070,10,36,41,183,43,35,19,263,31,22,14,305,35,4*79
$GNACCURACY,2.4*10
$PAIRSAT,1,35,1,0,200,2,0,200,3,0,200,4,0,200,5,0,201,6,0,200,7,0,200,8,0,200,9,0,200,10,0,221,11,0,200,12,0,201,13,0,201,14,0,200,15,0,201,16,0,200,17,0,200,18,0,221,19,0,200,20,0,200,21,0,200,23,0,221,24,0,221,25,0,200,26,0,200,27,0,200,28,0,200,29,0,200,30,0,200,31,0,200,32,0,221,194,0,621,195,0,621,196,0,620,199,0,621*68
$PAIRSAT,2,24,65,0,200,66,0,200,67,0,200,68,0,200,69,0,201,70,0,201,71,0,201,72,0,200,73,0,201,74,0,200,75,0,200,76,0,200,77,0,200,78,0,200,79,0,201,80,0,201,81,0,200,82,0,200,83,0,200,84,0,200,85,0,201,86,0,201,87,0,200,88,0,200*7A
$PAIRSAT,3,23,2,0,1221,3,0,1221,4,0,1200,5,0,200,7,0,1221,8,0,1221,9,0,1200,10,0,1200,11,0,1200,12,0,1200,13,0,1221,15,0,1221,19,0,1200,21,0,1200,24,0,1200,25,0,1200,26,0,1221,27,0,1200,30,0,1221,31,0,1200,33,0,1200,34,0,1200,36,0,1200*6A
$PAIRSAT,4,50,1,0,200,2,0,200,3,0,200,4,0,200,5,0,200,6,0,201,7,0,200,8,0,201,9,0,201,10,0,200,11,0,200,12,0,200,13,0,201,14,0,200,15,0,200,16,0,201,19,0,621,20,0,621,21,0,600,22,0,621,23,0,600,24,0,600,25,0,600,26,0,600,27,0,600,28,0,600,29,0,621,30,0,600,31,0,200,32,0,600,33,0,600,34,0,600,35,0,621,36,0,621,37,0,621,38,0,621,39,0,621,40,0,600,41,0,600,42,0,600,43,0,600,44,0,600,45,0,600,46,0,621,56,0,200,57,0,200,58,0,200,59,0,600,60,0,600,61,0,600*41
$PAIRDGP,9,5,10,12,15,18,23,24,25,32*5B
$GNGGA,114005.200,2500.8203400,N,12132.4646000,E,2,62,0.45,20.93,M,15.25,M,25,3335*44
$GNRMC,114005.200,A,2500.8203400,N,12132.4646000,E,0.01,206.39,260623,,,D,V*09
$GPHDT,,T*1B
$GNACCURACY,2.4*10
$GNGGA,114005.300,2500.8203400,N,12132.4646000,E,2,63,0.45,20.93,M,15.25,M,25,3335*44
$GNRMC,114005.300,A,2500.8203400,N,12132.4646000,E,0.01,206.39,260623,,,D,V*08
$GPHDT,,T*1B
$GNACCURACY,2.4*10
$GNGGA,114005.400,2500.8203400,N,12132.4645900,E,2,63,0.45,20.93,M,15.25,M,25,3335*49
$GNRMC,114005.400,A,2500.8203400,N,12132.4645900,E,0.01,206.39,260623,,,D,V*05
$GPHDT,,T*1B
$GNACCURACY,2.4*10
$GNGGA,114005.500,2500.8203400,N,12132.4645800,E,2,63,0.45,20.93,M,15.25,M,25,3335*49
$GNRMC,114005.500,A,2500.8203400,N,12132.4645800,E,0.01,206.39,260623,,,D,V*05
$GPHDT,,T*1B
$GNACCURACY,2.4*10
$GNGGA,114005.600,2500.8203400,N,12132.4645800,E,2,63,0.45,20.93,M,15.25,M,25,3335*4A
$GNRMC,114005.600,A,2500.8203400,N,12132.4645800,E,0.01,206.39,260623,,,D,V*06
$GPHDT,,T*1B
$GNACCURACY,2.4*10
$GNGGA,114005.700,2500.8203300,N,12132.4645700,E,2,63,0.45,20.94,M,15.25,M,25,3335*44
$GNRMC,114005.700,A,2500.8203300,N,12132.4645700,E,0.01,206.39,260623,,,D,V*0F
$GPHDT,,T*1B
$GNACCURACY,2.4*10
$GNGGA,114005.800,2500.8203300,N,12132.4645600,E,2,63,0.45,20.94,M,15.25,M,25,3335*4A
$GNRMC,114005.800,A,2500.8203300,N,12132.4645600,E,0.01,206.39,260623,,,D,V*01
$GPHDT,,T*1B
$GNACCURACY,2.4*10
$GNGGA,114005.900,2500.8203300,N,12132.4645500,E,2,63,0.45,20.94,M,15.25,M,25,3335*48
$GNRMC,114005.900,A,2500.8203300,N,12132.4645500,E,0.01,206.39,260623,,,D,V*03
$GPHDT,,T*1B
$GNACCURACY,2.4*10
$GNGGA,114006.000,2500.8203300,N,12132.4645500,E,2,63,0.45,20.94,M,15.25,M,26,3335*41
$GNRMC,114006.000,A,2500.8203300,N,12132.4645500,E,0.01,206.39,260623,,,D,V*09
$GPHDT,,T*1B
$GNACCURACY,2.4*10
$GNGGA,114006.100,2500.8203300,N,12132.4645400,E,2,63,0.45,20.95,M,15.25,M,26,3335*40
$GNRMC,114006.100,A,2500.8203300,N,12132.4645400,E,0.01,206.39,260623,,,D,V*09
$GPHDT,,T*1B
$GNGSA,A,3,196,24,199,23,18,15,194,195,10,05,32,,0.80,0.45,0.66,1*09
$GNGSA,A,3,80,73,70,85,86,71,69,,,,,,0.80,0.45,0.66,2*0A
$GNGSA,A,3,13,07,08,26,30,02,15,,,,,,0.80,0.45,0.66,3*06
$GNGSA,A,3,38,08,13,39,16,06,46,19,09,36,20,35,0.80,0.45,0.66,4*05
$GNGSA,A,3,29,22,,,,,,,,,,,0.80,0.45,0.66,4*06
$GPGSV,4,1,15,196,75,069,22,24,67,036,31,199,60,167,37,23,56,342,36,1*67
$GPGSV,4,2,15,18,55,235,42,41,38,242,32,15,34,053,17,194,33,137,33,1*5C
$GPGSV,4,3,15,195,32,180,29,12,24,136,20,10,23,321,40,05,15,123,24,1*59
$GPGSV,4,4,15,25,13,173,18,32,12,274,37,13,05,061,17,1*58
$GPGSV,3,1,10,196,75,069,36,24,67,036,39,199,60,167,46,23,56,342,41,8*67
$GPGSV,3,2,10,18,55,235,44,194,33,137,36,195,32,180,37,10,23,321,36,8*68
$GPGSV,3,3,10,25,13,173,23,32,12,274,29,8*65
$GLGSV,2,1,08,80,47,065,25,73,45,155,37,70,41,019,21,85,30,239,30,1*70
$GLGSV,2,2,08,86,28,294,41,71,24,321,19,69,11,080,15,79,06,028,24,1*71
$GAGSV,3,1,09,13,52,225,40,07,45,310,43,08,44,031,15,26,34,301,42,7*76
$GAGSV,3,2,09,30,30,140,29,02,27,080,18,15,18,173,17,03,08,068,,7*78
$GAGSV,3,3,09,27,05,186,,7*45
$GAGSV,2,1,07,13,52,225,43,07,45,310,45,08,44,031,32,26,34,301,42,1*7F
$GAGSV,2,2,07,30,30,140,35,02,27,080,20,15,18,173,23,1*45
$GBGSV,4,1,16,38,83,139,44,08,82,358,40,13,70,328,44,39,70,291,44,1*7C
$GBGSV,4,2,16,16,66,266,39,06,65,261,41,46,62,099,24,19,51,352,46,1*77
$GBGSV,4,3,16,09,50,244,38,56,47,315,,36,41,183,46,20,41,070,29,1*77
$GBGSV,4,4,16,35,19,263,34,37,19,044,,29,15,208,17,22,14,305,36,1*76
$GBGSV,2,1,08,38,83,139,46,39,70,291,45,46,62,099,29,19,51,352,44,4*72
$GBGSV,2,2,08,20,41,070,12,36,41,183,46,35,19,263,31,22,14,305,35,4*7E
$GNACCURACY,2.4*10
$PAIRSAT,1,35,1,0,200,2,0,200,3,0,200,4,0,200,5,0,201,6,0,200,7,0,200,8,0,200,9,0,200,10,0,221,11,0,200,12,0,201,13,0,201,14,0,200,15,0,201,16,0,200,17,0,200,18,0,221,19,0,200,20,0,200,21,0,200,23,0,221,24,0,221,25,0,200,26,0,200,27,0,200,28,0,200,29,0,200,30,0,200,31,0,200,32,0,221,194,0,621,195,0,621,196,0,620,199,0,621*68
$PAIRSAT,2,24,65,0,200,66,0,200,67,0,200,68,0,200,69,0,201,70,0,201,71,0,201,72,0,200,73,0,201,74,0,200,75,0,200,76,0,200,77,0,200,78,0,200,79,0,201,80,0,201,81,0,200,82,0,200,83,0,200,84,0,200,85,0,201,86,0,201,87,0,200,88,0,200*7A
$PAIRSAT,3,23,2,0,1221,3,0,1221,4,0,1200,5,0,200,7,0,1221,8,0,1221,9,0,1200,10,0,1200,11,0,1200,12,0,1200,13,0,1221,15,0,1221,19,0,1200,21,0,1200,24,0,1200,25,0,1200,26,0,1221,27,0,1200,30,0,1221,31,0,1200,33,0,1200,34,0,1200,36,0,1200*6A
$PAIRSAT,4,50,1,0,200,2,0,200,3,0,200,4,0,200,5,0,200,6,0,201,7,0,200,8,0,201,9,0,201,10,0,200,11,0,200,12,0,200,13,0,201,14,0,200,15,0,200,16,0,201,19,0,621,20,0,621,21,0,600,22,0,621,23,0,600,24,0,600,25,0,600,26,0,600,27,0,600,28,0,600,29,0,621,30,0,600,31,0,200,32,0,600,33,0,600,34,0,600,35,0,621,36,0,621,37,0,621,38,0,621,39,0,621,40,0,600,41,0,600,42,0,600,43,0,600,44,0,600,45,0,600,46,0,621,56,0,200,57,0,200,58,0,200,59,0,600,60,0,600,61,0,600*41
$PAIRDGP,9,5,10,12,15,18,23,24,25,32*5B
$GNGGA,114006.200,2500.8203200,N,12132.4645400,E,2,63,0.45,20.95,M,15.25,M,26,3335*42
$GNRMC,114006.200,A,2500.8203200,N,12132.4645400,E,0.01,206.39,260623,,,D,V*0B
$GPHDT,,T*1B
$GNACCURACY,2.4*10
$GNGGA,114006.300,2500.8203200,N,12132.4645300,E,2,63,0.45,20.95,M,15.25,M,26,3335*44
$GNRMC,114006.300,A,2500.8203200,N,12132.4645300,E,0.01,206.39,260623,,,D,V*0D
$GPHDT,,T*1B
$GNACCURACY,2.4*10
$GNGGA,114006.400,2500.8203100,N,12132.4645200,E,2,62,0.45,20.95,M,15.25,M,26,3335*40
$GNRMC,114006.400,A,2500.8203100,N,12132.4645200,E,0.01,206.39,260623,,,D,V*08
$GPHDT,,T*1B
$GNACCURACY,2.4*10
$GNGGA,114006.500,2500.8203100,N,12132.4645200,E,2,62,0.45,20.95,M,15.25,M,26,3335*41
$GNRMC,114006.500,A,2500.8203100,N,12132.4645200,E,0.01,206.39,260623,,,D,V*09
$GPHDT,,T*1B
$GNACCURACY,2.4*10
$GNGGA,114006.600,2500.8203100,N,12132.4645100,E,2,62,0.45,20.95,M,15.25,M,26,3335*41
$GNRMC,114006.600,A,2500.8203100,N,12132.4645100,E,0.01,206.39,260623,,,D,V*09
$GPHDT,,T*1B
$GNACCURACY,2.4*10
$GNGGA,114006.700,2500.8203000,N,12132.4645100,E,2,63,0.44,20.96,M,15.25,M,26,3335*42
$GNRMC,114006.700,A,2500.8203000,N,12132.4645100,E,0.01,206.39,260623,,,D,V*09
$GPHDT,,T*1B
$GNACCURACY,2.4*10
$GNGGA,114006.800,2500.8203000,N,12132.4645000,E,2,61,0.47,20.96,M,15.25,M,26,3335*4D
$GNRMC,114006.800,A,2500.8203000,N,12132.4645000,E,0.01,206.39,260623,,,D,V*07
$GPHDT,,T*1B
$GNACCURACY,2.4*10
$GNGGA,114006.900,2500.8203000,N,12132.4644900,E,2,61,0.47,20.96,M,15.25,M,26,3335*44
$GNRMC,114006.900,A,2500.8203000,N,12132.4644900,E,0.01,206.39,260623,,,D,V*0E
$GPHDT,,T*1B
$GNACCURACY,2.4*10
$GNGGA,114007.000,2500.8203000,N,12132.4644900,E,2,61,0.47,20.96,M,15.25,M,27,3335*4D
$GNRMC,114007.000,A,2500.8203000,N,12132.4644900,E,0.01,206.39,260623,,,D,V*06
$GPHDT,,T*1B
$GNACCURACY,2.4*10
$GNGGA,114007.100,2500.8202900,N,12132.4644800,E,2,61,0.47,20.97,M,15.25,M,27,3335*44
$GNRMC,114007.100,A,2500.8202900,N,12132.4644800,E,0.01,206.39,260623,,,D,V*0E
$GPHDT,,T*1B
$GNGSA,A,3,196,24,199,23,18,194,195,12,10,05,32,,0.85,0.47,0.71,1*0F
$GNGSA,A,3,80,73,70,85,86,71,,,,,,,0.85,0.47,0.71,2*04
$GNGSA,A,3,13,07,08,26,30,02,15,,,,,,0.85,0.47,0.71,3*07
$GNGSA,A,3,38,08,39,13,16,06,46,19,09,36,20,35,0.85,0.47,0.71,4*04
$GNGSA,A,3,29,22,,,,,,,,,,,0.85,0.47,0.71,4*07
$GPGSV,4,1,15,196,75,069,22,24,67,036,31,199,60,167,37,23,56,342,36,1*67
$GPGSV,4,2,15,18,55,235,42,41,38,242,32,15,34,053,17,194,33,137,34,1*5B
$GPGSV,4,3,15,195,32,180,29,12,24,136,20,10,23,321,40,05,15,123,23,1*5E
$GPGSV,4,4,15,25,13,173,19,32,12,274,37,13,05,061,17,1*59
$GPGSV,3,1,10,196,75,069,36,24,67,036,39,199,60,167,46,23,56,342,42,8*64
$GPGSV,3,2,10,18,55,235,44,194,33,137,36,195,32,180,37,10,23,321,37,8*69
$GPGSV,3,3,10,25,13,173,23,32,12,274,30,8*6D
$GLGSV,3,1,09,80,47,065,25,73,45,155,38,70,41,019,20,85,30,239,31,1*7F
$GLGSV,3,2,09,86,28,294,41,71,24,321,19,69,11,080,13,74,09,186,,1*76
$GLGSV,3,3,09,79,06,028,25,1*44
$GAGSV,3,1,09,13,52,225,40,07,45,310,43,08,44,031,15,26,34,301,42,7*76
$GAGSV,3,2,09,30,30,140,29,02,27,080,18,15,18,173,19,03,08,068,,7*76
$GAGSV,3,3,09,27,05,186,,7*45
$GAGSV,2,1,07,13,52,225,43,07,45,310,45,08,44,031,32,26,34,301,42,1*7F
$GAGSV,2,2,07,30,30,140,35,02,27,080,20,15,18,173,24,1*42
$GBGSV,4,1,15,38,83,139,44,08,82,358,40,39,70,291,44,13,70,328,44,1*7F
$GBGSV,4,2,15,16,66,266,39,06,65,261,41,46,62,099,25,19,51,352,46,1*75
$GBGSV,4,3,15,09,50,244,38,36,41,183,46,20,41,070,29,37,19,044,,1*7F
$GBGSV,4,4,15,35,19,263,34,29,15,208,15,22,14,305,36,1*4B
$GBGSV,2,1,07,38,83,139,46,39,70,291,45,46,62,099,29,19,51,352,44,4*7D
$GBGSV,2,2,07,36,41,183,46,35,19,263,31,22,14,305,34,4*43
$GNACCURACY,2.4*10
$PAIRSAT,1,35,1,0,200,2,0,200,3,0,200,4,0,200,5,0,201,6,0,200,7,0,200,8,0,200,9,0,200,10,0,221,11,0,200,12,0,201,13,0,201,14,0,200,15,0,201,16,0,200,17,0,200,18,0,221,19,0,200,20,0,200,21,0,200,23,0,221,24,0,221,25,0,200,26,0,200,27,0,200,28,0,200,29,0,200,30,0,200,31,0,200,32,0,221,194,0,621,195,0,621,196,0,620,199,0,621*68
$PAIRSAT,2,24,65,0,200,66,0,200,67,0,200,68,0,200,69,0,201,70,0,201,71,0,201,72,0,200,73,0,201,74,0,200,75,0,200,76,0,200,77,0,200,78,0,200,79,0,201,80,0,201,81,0,200,82,0,200,83,0,200,84,0,200,85,0,201,86,0,201,87,0,200,88,0,200*7A
$PAIRSAT,3,23,2,0,1221,3,0,1221,4,0,1200,5,0,200,7,0,1221,8,0,1221,9,0,1200,10,0,1200,11,0,1200,12,0,1200,13,0,1221,15,0,1221,19,0,1200,21,0,1200,24,0,1200,25,0,1200,26,0,1221,27,0,1200,30,0,1221,31,0,1200,33,0,1200,34,0,1200,36,0,1200*6A
$PAIRSAT,4,50,1,0,200,2,0,200,3,0,200,4,0,200,5,0,200,6,0,201,7,0,200,8,0,201,9,0,201,10,0,200,11,0,200,12,0,200,13,0,201,14,0,200,15,0,200,16,0,201,19,0,621,20,0,621,21,0,600,22,0,621,23,0,600,24,0,600,25,0,600,26,0,600,27,0,600,28,0,600,29,0,621,30,0,600,31,0,200,32,0,600,33,0,600,34,0,600,35,0,621,36,0,621,37,0,621,38,0,621,39,0,621,40,0,600,41,0,600,42,0,600,43,0,600,44,0,600,45,0,600,46,0,621,56,0,200,57,0,200,58,0,200,59,0,600,60,0,600,61,0,600*41
$PAIRDGP,9,5,10,12,15,18,23,24,25,32*5B
$GNGGA,114007.200,2500.8202900,N,12132.4644700,E,2,61,0.47,20.97,M,15.25,M,27,3335*48
$GNRMC,114007.200,A,2500.8202900,N,12132.4644700,E,0.01,206.39,260623,,,D,V*02
$GPHDT,,T*1B
$GNACCURACY,2.4*10
$GNGGA,114007.300,2500.8202800,N,12132.4644700,E,2,61,0.47,20.97,M,15.25,M,27,3335*48
$GNRMC,114007.300,A,2500.8202800,N,12132.4644700,E,0.01,206.39,260623,,,D,V*02
$GPHDT,,T*1B
$GNACCURACY,2.4*10
$GNGGA,114007.400,2500.8202800,N,12132.4644600,E,2,61,0.47,20.98,M,15.25,M,27,3335*41
$GNRMC,114007.400,A,2500.8202800,N,12132.4644600,E,0.01,206.39,260623,,,D,V*04
$GPHDT,,T*1B
$GNACCURACY,2.4*10
$GNGGA,114007.500,2500.8202800,N,12132.4644600,E,2,61,0.47,20.98,M,15.25,M,27,3335*40
$GNRMC,114007.500,A,2500.8202800,N,12132.4644600,E,0.01,206.39,260623,,,D,V*05
$GPHDT,,T*1B
$GNACCURACY,2.4*10
$GNGGA,114007.600,2500.8202800,N,12132.4644500,E,2,61,0.47,20.98,M,15.25,M,27,3335*40
$GNRMC,114007.600,A,2500.8202800,N,12132.4644500,E,0.01,206.39,260623,,,D,V*05
$GPHDT,,T*1B
$GNACCURACY,2.4*10
$GNGGA,114007.700,2500.8202700,N,12132.4644400,E,2,61,0.47,20.99,M,15.25,M,27,3335*4E
$GNRMC,114007.700,A,2500.8202700,N,12132.4644400,E,0.01,206.39,260623,,,D,V*0A
$GPHDT,,T*1B
$GNACCURACY,2.4*10
$GNGGA,114007.800,2500.8202700,N,12132.4644300,E,2,61,0.47,20.99,M,15.25,M,27,3335*46
$GNRMC,114007.800,A,2500.8202700,N,12132.4644300,E,0.01,206.39,260623,,,D,V*02
$GPHDT,,T*1B
$GNACCURACY,2.4*10
$GNGGA,114007.900,2500.8202600,N,12132.4644200,E,2,61,0.47,20.99,M,15.25,M,27,3335*47
$GNRMC,114007.900,A,2500.8202600,N,12132.4644200,E,0.01,206.39,260623,,,D,V*03
$GPHDT,,T*1B
$GNACCURACY,2.4*10
$GNGGA,114008.000,2500.8202500,N,12132.4644100,E,2,61,0.47,21.00,M,15.25,M,28,3335*4F
$GNRMC,114008.000,A,2500.8202500,N,12132.4644100,E,0.01,206.39,260623,,,D,V*05
$GPHDT,,T*1B
$GNACCURACY,2.4*10
$GNGGA,114008.100,2500.8202500,N,12132.4644000,E,2,59,0.47,21.00,M,15.25,M,28,3335*44
$GNRMC,114008.100,A,2500.8202500,N,12132.4644000,E,0.01,206.39,260623,,,D,V*05
$GPHDT,,T*1B
$GNGSA,A,3,196,24,199,23,18,194,195,10,05,32,,,0.86,0.47,0.72,1*0C
$GNGSA,A,3,80,73,70,85,86,71,,,,,,,0.86,0.47,0.72,2*04
$GNGSA,A,3,13,07,08,26,30,02,15,,,,,,0.86,0.47,0.72,3*07
$GNGSA,A,3,38,08,13,39,16,06,46,19,09,36,20,35,0.86,0.47,0.72,4*04
$GNGSA,A,3,29,22,,,,,,,,,,,0.86,0.47,0.72,4*07
$GPGSV,4,1,15,196,75,069,24,24,67,036,31,199,60,167,37,23,56,342,36,1*61
$GPGSV,4,2,15,18,55,235,42,41,38,242,32,15,34,053,17,194,33,137,32,1*5D
$GPGSV,4,3,15,195,32,180,29,12,24,136,19,10,23,321,40,05,15,123,23,1*54
$GPGSV,4,4,15,25,13,173,19,32,12,274,37,13,05,061,16,1*58
$GPGSV,3,1,10,196,75,069,37,24,67,036,39,199,60,167,46,23,56,342,42,8*65
$GPGSV,3,2,10,18,55,235,44,194,33,137,35,195,32,180,37,10,23,321,37,8*6A
$GPGSV,3,3,10,25,13,173,23,32,12,274,30,8*6D
$GLGSV,2,1,08,80,47,065,23,73,45,155,38,70,41,019,20,85,30,239,32,1*7A
$GLGSV,2,2,08,86,28,294,41,71,24,321,19,69,11,080,15,79,06,028,25,1*70
$GAGSV,3,1,09,13,52,225,39,07,45,310,43,08,44,031,15,26,34,301,42,7*78
$GAGSV,3,2,09,30,30,140,29,02,27,080,20,15,18,173,19,03,08,068,16,7*7A
$GAGSV,3,3,09,27,05,186,,7*45
$GAGSV,2,1,07,13,52,225,43,07,45,310,45,08,44,031,32,26,34,301,42,1*7F
$GAGSV,2,2,07,30,30,140,35,02,27,080,21,15,18,173,25,1*42
$GBGSV,4,1,15,38,83,139,44,08,82,358,40,13,70,328,44,39,70,291,44,1*7F
$GBGSV,4,2,15,16,66,266,39,06,65,261,41,46,62,099,23,19,51,352,46,1*73
$GBGSV,4,3,15,09,50,244,38,36,41,183,46,20,41,070,29,35,19,263,34,1*7D
$GBGSV,4,4,15,37,19,044,,29,15,208,17,22,14,305,36,1*4B
$GBGSV,2,1,08,38,83,139,46,39,70,291,45,46,62,099,30,19,51,352,44,4*7A
$GBGSV,2,2,08,20,41,070,16,36,41,183,46,35,19,263,31,22,14,305,34,4*7B
$GNACCURACY,2.4*10
$PAIRSAT,1,35,1,0,200,2,0,200,3,0,200,4,0,200,5,0,201,6,0,200,7,0,200,8,0,200,9,0,200,10,0,221,11,0,200,12,0,201,13,0,201,14,0,200,15,0,201,16,0,200,17,0,200,18,0,221,19,0,200,20,0,200,21,0,200,23,0,221,24,0,221,25,0,200,26,0,200,27,0,200,28,0,200,29,0,200,30,0,200,31,0,200,32,0,221,194,0,621,195,0,621,196,0,620,199,0,621*68
$PAIRSAT,2,24,65,0,200,66,0,200,67,0,200,68,0,200,69,0,201,70,0,201,71,0,201,72,0,200,73,0,201,74,0,200,75,0,200,76,0,200,77,0,200,78,0,200,79,0,201,80,0,201,81,0,200,82,0,200,83,0,200,84,0,200,85,0,201,86,0,201,87,0,200,88,0,200*7A
$PAIRSAT,3,23,2,0,1221,3,0,1221,4,0,1200,5,0,200,7,0,1221,8,0,1221,9,0,1200,10,0,1200,11,0,1200,12,0,1200,13,0,1221,15,0,1221,19,0,1200,21,0,1200,24,0,1200,25,0,1200,26,0,1221,27,0,1200,30,0,1221,31,0,1200,33,0,1200,34,0,1200,36,0,1200*6A
$PAIRSAT,4,50,1,0,200,2,0,200,3,0,200,4,0,200,5,0,200,6,0,201,7,0,200,8,0,201,9,0,201,10,0,200,11,0,200,12,0,200,13,0,201,14,0,200,15,0,200,16,0,201,19,0,621,20,0,621,21,0,600,22,0,621,23,0,600,24,0,600,25,0,600,26,0,600,27,0,600,28,0,600,29,0,621,30,0,600,31,0,200,32,0,600,33,0,600,34,0,600,35,0,621,36,0,621,37,0,621,38,0,621,39,0,621,40,0,600,41,0,600,42,0,600,43,0,600,44,0,600,45,0,600,46,0,621,56,0,200,57,0,200,58,0,200,59,0,600,60,0,600,61,0,600*41
$PAIRDGP,9,5,10,12,15,18,23,24,25,32*5B
$GNGGA,114008.200,2500.8202500,N,12132.4643900,E,2,59,0.47,21.00,M,15.25,M,28,3335*49
$GNRMC,114008.200,A,2500.8202500,N,12132.4643900,E,0.01,206.39,260623,,,D,V*08
$GPHDT,,T*1B
$GNACCURACY,2.4*10
$GNGGA,114008.300,2500.8202400,N,12132.4643900,E,2,59,0.47,21.01,M,15.25,M,28,3335*48
$GNRMC,114008.300,A,2500.8202400,N,12132.4643900,E,0.01,206.39,260623,,,D,V*08
$GPHDT,,T*1B
$GNACCURACY,2.4*10
$GNGGA,114008.400,2500.8202400,N,12132.4643800,E,2,59,0.47,21.01,M,15.25,M,28,3335*4E
$GNRMC,114008.400,A,2500.8202400,N,12132.4643800,E,0.01,206.39,260623,,,D,V*0E
$GPHDT,,T*1B
$GNACCURACY,2.4*10
$GNGGA,114008.500,2500.8202400,N,12132.4643700,E,2,59,0.47,21.01,M,15.25,M,28,3335*40
$GNRMC,114008.500,A,2500.8202400,N,12132.4643700,E,0.01,206.39,260623,,,D,V*00
$GPHDT,,T*1B
$GNACCURACY,2.4*10
$GNGGA,114008.600,2500.8202300,N,12132.4643600,E,2,59,0.47,21.02,M,15.25,M,28,3335*46
$GNRMC,114008.600,A,2500.8202300,N,12132.4643600,E,0.01,206.39,260623,,,D,V*05
$GPHDT,,T*1B
