$FW : RTK35X,V1.1X0314AS,Lib20210517,1*54
$Tool : LOCOSYS , GNSS Firebird , v1.0.0.19*39
$---------------------------------------------------*2D
7
$GNGGA,113710.700,2500.8192001,N,12132.4676800,E,2,62,0.46,19.248,M,15.25,M,0,3335*4A
$GNRMC,113710.700,A,2500.8192001,N,12132.4676800,E,0.02,206.39,260623,,,D,V*0E
$GPHDT,,T*1B
$GNACCURACY,2.3*17
$GNGGA,113710.800,2500.8191941,N,12132.4676740,E,2,62,0.46,19.255,M,15.25,M,0,3335*4C
$GNRMC,113710.800,A,2500.8191941,N,12132.4676740,E,0.02,206.39,260623,,,D,V*04
$GPHDT,,T*1B
$GNACCURACY,2.3*17
$GNGGA,113710.900,2500.8191941,N,12132.4676680,E,2,62,0.46,19.263,M,15.25,M,0,3335*45
$GNRMC,113710.900,A,2500.8191941,N,12132.4676680,E,0.02,206.39,260623,,,D,V*08
$GPHDT,,T*1B
$GNACCURACY,2.3*17
$GNGGA,113711.000,2500.8191941,N,12132.4676620,E,2,61,0.46,19.270,M,15.25,M,1,3335*47
$GNRMC,113711.000,A,2500.8191941,N,12132.4676620,E,0.03,206.39,260623,,,D,V*0B
$GPHDT,,T*1B
$GNACCURACY,2.3*17
$GNGGA,113711.100,2500.8191881,N,12132.4676560,E,2,61,0.46,19.276,M,15.25,M,1,3335*4A
$GNRMC,113711.100,A,2500.8191881,N,12132.4676560,E,0.02,206.39,260623,,,D,V*01
$GPHDT,,T*1B
$GNGSA,A,3,196,24,199,18,23,195,194,12,10,05,32,,0.73,0.46,0.57,1*03
$GNGSA,A,3,80,73,70,85,86,71,69,,,,,,0.73,0.46,0.57,2*07
$GNGSA,A,3,13,08,07,26,30,02,15,,,,,,0.73,0.46,0.57,3*0B
$GNGSA,A,3,38,08,13,39,16,06,46,19,09,36,35,29,0.73,0.46,0.57,4*01
$GNGSA,A,3,20,,,,,,,,,,,,0.73,0.46,0.57,4*02
$GPGSV,4,1,15,196,75,068,25,24,69,037,29,199,60,167,38,18,56,237,42,1*60
$GPGSV,4,2,15,23,55,342,36,41,38,242,30,15,34,052,14,195,32,180,27,1*5F
$GPGSV,4,3,15,194,32,137,41,12,23,137,17,10,22,321,28,05,16,122,29,1*58
$GPGSV,4,4,15,25,12,174,17,32,11,273,29,13,06,060,,1*5E
$GPGSV,3,1,09,196,75,068,36,24,69,037,33,199,60,167,46,18,56,237,43,8*62
$GPGSV,3,2,09,23,55,342,39,194,32,137,41,195,32,180,33,10,22,321,34,8*65
$GPGSV,3,3,09,32,11,273,28,8*59
$GLGSV,2,1,08,80,48,067,28,73,44,156,44,70,41,017,16,85,31,240,19,1*78
$GLGSV,2,2,08,86,28,296,40,71,24,319,30,69,11,079,17,79,07,029,22,1*70
$GAGSV,3,1,09,13,53,227,41,08,45,030,23,07,45,308,38,26,34,303,36,7*75
$GAGSV,3,2,09,30,29,141,33,02,27,081,18,15,19,174,27,03,09,067,,7*70
$GAGSV,3,3,09,25,01,040,,7*48
$GAGSV,2,1,07,13,53,227,45,07,45,308,42,08,45,030,34,26,34,303,38,1*7D
$GAGSV,2,2,07,30,29,141,25,02,27,081,26,15,19,174,23,1*4C
$GBGSV,4,1,15,38,83,134,40,08,82,000,43,13,70,330,45,39,70,290,41,1*77
$GBGSV,4,2,15,16,66,264,37,06,65,260,37,46,61,102,35,19,51,351,46,1*7B
$GBGSV,4,3,15,09,50,242,36,20,42,069,,36,40,183,44,35,20,264,33,1*7C
$GBGSV,4,4,15,37,20,045,,29,16,209,23,22,14,305,19,1*48
$GBGSV,3,1,09,38,83,134,44,39,70,290,43,46,61,102,35,19,51,351,45,4*75
$GBGSV,3,2,09,20,42,069,18,36,40,183,42,35,20,264,21,29,16,209,22,4*74
$GBGSV,3,3,09,22,14,305,23,4*48
$GNACCURACY,2.3*17
$PAIRSAT,1,35,1,0,200,2,0,200,3,0,200,4,0,200,5,0,201,6,0,200,7,0,200,8,0,200,9,0,200,10,0,221,11,0,200,12,0,201,13,0,201,14,0,200,15,0,201,16,0,200,17,0,200,18,0,221,19,0,200,20,0,200,21,0,200,23,0,221,24,0,221,25,0,200,26,0,200,27,0,200,28,0,200,29,0,200,30,0,200,31,0,200,32,0,221,194,0,621,195,0,621,196,0,620,199,0,621*68
$PAIRSAT,2,24,65,0,200,66,0,200,67,0,200,68,0,200,69,0,201,70,0,201,71,0,201,72,0,200,73,0,201,74,0,200,75,0,200,76,0,200,77,0,200,78,0,200,79,0,201,80,0,201,81,0,200,82,0,200,83,0,200,84,0,200,85,0,201,86,0,201,87,0,200,88,0,200*7A
$PAIRSAT,3,23,2,0,1221,3,0,1221,4,0,1200,5,0,200,7,0,1221,8,0,1221,9,0,1200,10,0,1200,11,0,1200,12,0,1200,13,0,1221,15,0,1221,19,0,1200,21,0,1200,24,0,1200,25,0,1200,26,0,1221,27,0,1200,30,0,1221,31,0,1200,33,0,1200,34,0,1200,36,0,1200*6A
$PAIRSAT,4,50,1,0,200,2,0,200,3,0,200,4,0,200,5,0,200,6,0,201,7,0,200,8,0,201,9,0,201,10,0,200,11,0,200,12,0,200,13,0,201,14,0,200,15,0,200,16,0,201,19,0,621,20,0,621,21,0,600,22,0,621,23,0,600,24,0,600,25,0,600,26,0,600,27,0,600,28,0,600,29,0,621,30,0,600,31,0,200,32,0,600,33,0,600,34,0,600,35,0,621,36,0,621,37,0,621,38,0,621,39,0,621,40,0,600,41,0,600,42,0,600,43,0,600,44,0,600,45,0,600,46,0,621,56,0,200,57,0,200,58,0,200,59,0,600,60,0,600,61,0,600*41
$PAIRDGP,9,5,10,12,15,18,23,24,25,32*5B
$GNGGA,113711.200,2500.8191821,N,12132.4676500,E,2,61,0.46,19.283,M,15.25,M,1,3335*4F
$GNRMC,113711.200,A,2500.8191821,N,12132.4676500,E,0.02,206.39,260623,,,D,V*0E
$GPHDT,,T*1B
$GNACCURACY,2.3*17
$GNGGA,113711.300,2500.8191821,N,12132.4676380,E,2,62,0.46,19.289,M,15.25,M,1,3335*49
$GNRMC,113711.300,A,2500.8191821,N,12132.4676380,E,0.03,206.39,260623,,,D,V*00
$GPHDT,,T*1B
$GNACCURACY,2.3*17
$GNGGA,113711.400,2500.8191761,N,12132.4676320,E,2,62,0.46,19.292,M,15.25,M,1,3335*45
$GNRMC,113711.400,A,2500.8191761,N,12132.4676320,E,0.03,206.39,260623,,,D,V*06
$GPHDT,,T*1B
$GNACCURACY,2.3*17
$GNGGA,113711.500,2500.8191761,N,12132.4676200,E,2,62,0.46,19.298,M,15.25,M,0,3335*4C
$GNRMC,113711.500,A,2500.8191761,N,12132.4676200,E,0.03,206.39,260623,,,D,V*04
$GPHDT,,T*1B
$GNACCURACY,2.2*16
$GNGGA,113711.600,2500.8191761,N,12132.4676140,E,2,62,0.46,19.305,M,15.25,M,0,3335*4D
$GNRMC,113711.600,A,2500.8191761,N,12132.4676140,E,0.02,206.39,260623,,,D,V*01
$GPHDT,,T*1B
$GNACCURACY,2.2*16
$GNGGA,113711.700,2500.8191701,N,12132.4676080,E,2,62,0.46,19.311,M,15.25,M,0,3335*42
$GNRMC,113711.700,A,2500.8191701,N,12132.4676080,E,0.01,206.39,260623,,,D,V*08
$GPHDT,,T*1B
$GNACCURACY,2.3*17
$GNGGA,113711.800,2500.8191701,N,12132.4676020,E,2,62,0.46,19.319,M,15.25,M,0,3335*4F
$GNRMC,113711.800,A,2500.8191701,N,12132.4676020,E,0.02,206.39,260623,,,D,V*0E
$GPHDT,,T*1B
$GNACCURACY,2.3*17
$GNGGA,113711.900,2500.8191641,N,12132.4675960,E,2,62,0.46,19.329,M,15.25,M,0,3335*46
$GNRMC,113711.900,A,2500.8191641,N,12132.4675960,E,0.02,206.39,260623,,,D,V*04
$GPHDT,,T*1B
$GNACCURACY,2.3*17
$GNGGA,113712.000,2500.8191641,N,12132.4675900,E,2,63,0.45,19.337,M,15.25,M,1,3335*46
$GNRMC,113712.000,A,2500.8191641,N,12132.4675900,E,0.02,206.39,260623,,,D,V*08
$GPHDT,,T*1B
$GNACCURACY,2.3*17
$GNGGA,113712.100,2500.8191641,N,12132.4675780,E,2,63,0.45,19.346,M,15.25,M,1,3335*47
$GNRMC,113712.100,A,2500.8191641,N,12132.4675780,E,0.02,206.39,260623,,,D,V*0F
$GPHDT,,T*1B
$GNGSA,A,3,196,24,199,18,23,195,194,12,10,05,32,,0.71,0.45,0.55,1*00
$GNGSA,A,3,80,73,70,85,86,71,69,,,,,,0.71,0.45,0.55,2*04
$GNGSA,A,3,13,08,07,26,30,02,15,,,,,,0.71,0.45,0.55,3*08
$GNGSA,A,3,38,08,13,39,16,06,46,19,09,20,36,35,0.71,0.45,0.55,4*0B
$GNGSA,A,3,29,22,,,,,,,,,,,0.71,0.45,0.55,4*08
$GPGSV,4,1,15,196,75,068,25,24,69,037,28,199,60,167,38,18,56,237,42,1*61
$GPGSV,4,2,15,23,55,342,35,41,38,242,29,15,34,052,17,195,32,180,29,1*59
$GPGSV,4,3,15,194,32,137,41,12,23,137,22,10,22,321,32,05,16,122,29,1*55
$GPGSV,4,4,15,25,12,174,15,32,11,273,30,13,06,060,,1*54
$GPGSV,3,1,09,196,75,068,36,24,69,037,33,199,60,167,45,18,56,237,43,8*61
$GPGSV,3,2,09,23,55,342,40,194,32,137,41,195,32,180,35,10,22,321,33,8*6A
$GPGSV,3,3,09,32,11,273,21,8*50
$GLGSV,2,1,08,80,48,067,28,73,44,156,44,70,41,017,16,85,31,240,23,1*71
$GLGSV,2,2,08,86,28,296,34,71,24,319,28,69,11,079,18,79,07,029,26,1*71
$GAGSV,3,1,09,13,53,227,41,08,45,030,22,07,45,308,39,26,34,303,36,7*75
$GAGSV,3,2,09,30,29,141,33,02,27,081,18,15,19,174,28,03,09,067,,7*7F
$GAGSV,3,3,09,25,01,040,,7*48
$GAGSV,2,1,08,13,53,227,45,07,45,308,42,08,45,030,34,26,34,303,39,1*73
$GAGSV,2,2,08,30,29,141,31,02,27,081,26,15,19,174,25,03,09,067,17,1*7D
$GBGSV,4,1,15,38,83,134,40,08,82,000,43,13,70,330,44,39,70,290,41,1*76
$GBGSV,4,2,15,16,66,264,37,06,65,260,37,46,61,102,35,19,51,351,46,1*7B
$GBGSV,4,3,15,09,50,242,36,20,42,069,26,36,40,183,44,35,20,264,32,1*79
$GBGSV,4,4,15,37,20,045,,29,16,209,23,22,14,305,24,1*46
$GBGSV,3,1,09,38,83,134,44,39,70,290,43,46,61,102,35,19,51,351,45,4*75
$GBGSV,3,2,09,20,42,069,15,36,40,183,42,35,20,264,21,29,16,209,21,4*7A
$GBGSV,3,3,09,22,14,305,27,4*4C
$GNACCURACY,2.3*17
$PAIRSAT,1,35,1,0,200,2,0,200,3,0,200,4,0,200,5,0,201,6,0,200,7,0,200,8,0,200,9,0,200,10,0,221,11,0,200,12,0,201,13,0,201,14,0,200,15,0,201,16,0,200,17,0,200,18,0,221,19,0,200,20,0,200,21,0,200,23,0,221,24,0,221,25,0,200,26,0,200,27,0,200,28,0,200,29,0,200,30,0,200,31,0,200,32,0,221,194,0,621,195,0,621,196,0,620,199,0,621*68
$PAIRSAT,2,24,65,0,200,66,0,200,67,0,200,68,0,200,69,0,201,70,0,201,71,0,201,72,0,200,73,0,201,74,0,200,75,0,200,76,0,200,77,0,200,78,0,200,79,0,201,80,0,201,81,0,200,82,0,200,83,0,200,84,0,200,85,0,201,86,0,201,87,0,200,88,0,200*7A
$PAIRSAT,3,23,2,0,1221,3,0,1221,4,0,1200,5,0,200,7,0,1221,8,0,1221,9,0,1200,10,0,1200,11,0,1200,12,0,1200,13,0,1221,15,0,1221,19,0,1200,21,0,1200,24,0,1200,25,0,1200,26,0,1221,27,0,1200,30,0,1221,31,0,1200,33,0,1200,34,0,1200,36,0,1200*6A
$PAIRSAT,4,50,1,0,200,2,0,200,3,0,200,4,0,200,5,0,200,6,0,201,7,0,200,8,0,201,9,0,201,10,0,200,11,0,200,12,0,200,13,0,201,14,0,200,15,0,200,16,0,201,19,0,621,20,0,621,21,0,600,22,0,621,23,0,600,24,0,600,25,0,600,26,0,600,27,0,600,28,0,600,29,0,621,30,0,600,31,0,200,32,0,600,33,0,600,34,0,600,35,0,621,36,0,621,37,0,621,38,0,621,39,0,621,40,0,600,41,0,600,42,0,600,43,0,600,44,0,600,45,0,600,46,0,621,56,0,200,57,0,200,58,0,200,59,0,600,60,0,600,61,0,600*41
$PAIRDGP,9,5,10,12,15,18,23,24,25,32*5B
$GNGGA,113712.200,2500.8191581,N,12132.4675720,E,2,63,0.45,19.353,M,15.25,M,1,3335*45
$GNRMC,113712.200,A,2500.8191581,N,12132.4675720,E,0.02,206.39,260623,,,D,V*09
$GPHDT,,T*1B
$GNACCURACY,2.3*17
$GNGGA,113712.300,2500.8191581,N,12132.4675600,E,2,63,0.45,19.363,M,15.25,M,1,3335*44
$GNRMC,113712.300,A,2500.8191581,N,12132.4675600,E,0.04,206.39,260623,,,D,V*0D
$GPHDT,,T*1B
$GNACCURACY,2.3*17
$GNGGA,113712.400,2500.8191521,N,12132.4675480,E,2,63,0.45,19.372,M,15.25,M,1,3335*43
$GNRMC,113712.400,A,2500.8191521,N,12132.4675480,E,0.04,206.39,260623,,,D,V*0A
$GPHDT,,T*1B
$GNACCURACY,2.3*17
$GNGGA,113712.500,2500.8191521,N,12132.4675360,E,2,62,0.45,19.380,M,15.25,M,1,3335*47
$GNRMC,113712.500,A,2500.8191521,N,12132.4675360,E,0.03,206.39,260623,,,D,V*05
$GPHDT,,T*1B
$GNACCURACY,2.3*17
$GNGGA,113712.600,2500.8191521,N,12132.4675240,E,2,63,0.45,19.387,M,15.25,M,1,3335*41
$GNRMC,113712.600,A,2500.8191521,N,12132.4675240,E,0.04,206.39,260623,,,D,V*02
$GPHDT,,T*1B
$GNACCURACY,2.3*17
$GNGGA,113712.700,2500.8191461,N,12132.4675060,E,2,64,0.44,19.395,M,15.25,M,0,3335*41
$GNRMC,113712.700,A,2500.8191461,N,12132.4675060,E,0.05,206.39,260623,,,D,V*07
$GPHDT,,T*1B
$GNACCURACY,2.3*17
$GNGGA,113712.800,2500.8191461,N,12132.4675000,E,2,64,0.44,19.402,M,15.25,M,0,3335*41
$GNRMC,113712.800,A,2500.8191461,N,12132.4675000,E,0.04,206.39,260623,,,D,V*0F
$GPHDT,,T*1B
$GNACCURACY,2.3*17
$GNGGA,113712.900,2500.8191461,N,12132.4674820,E,2,64,0.44,19.409,M,15.25,M,0,3335*40
$GNRMC,113712.900,A,2500.8191461,N,12132.4674820,E,0.04,206.39,260623,,,D,V*05
$GPHDT,,T*1B
$GNACCURACY,2.3*17
$GNGGA,113713.000,2500.8191461,N,12132.4674760,E,2,64,0.44,19.422,M,15.25,M,1,3335*4B
$GNRMC,113713.000,A,2500.8191461,N,12132.4674760,E,0.04,206.39,260623,,,D,V*06
$GPHDT,,T*1B
$GNACCURACY,2.3*17
$GNGGA,113713.100,2500.8191401,N,12132.4674700,E,2,64,0.44,19.437,M,15.25,M,1,3335*4E
$GNRMC,113713.100,A,2500.8191401,N,12132.4674700,E,0.04,206.39,260623,,,D,V*07
$GPHDT,,T*1B
$GNGSA,A,3,196,24,199,18,23,15,195,194,12,10,05,32,0.70,0.44,0.55,1*04
$GNGSA,A,3,80,73,70,85,86,71,69,,,,,,0.70,0.44,0.55,2*04
$GNGSA,A,3,13,08,07,26,30,02,15,,,,,,0.70,0.44,0.55,3*08
$GNGSA,A,3,38,08,13,39,16,06,46,19,09,20,36,35,0.70,0.44,0.55,4*0B
$GNGSA,A,3,29,22,,,,,,,,,,,0.70,0.44,0.55,4*08
$GPGSV,4,1,15,196,75,068,27,24,69,037,27,199,60,167,38,18,56,237,42,1*6C
$GPGSV,4,2,15,23,55,342,33,41,38,242,29,15,34,052,19,195,32,180,29,1*51
$GPGSV,4,3,15,194,32,137,42,12,23,137,23,10,22,321,36,05,16,122,29,1*53
$GPGSV,4,4,15,25,12,174,15,32,11,273,29,13,06,060,,1*5C
$GPGSV,3,1,09,196,75,068,36,24,69,037,33,199,60,167,45,18,56,237,43,8*61
$GPGSV,3,2,09,23,55,342,40,194,32,137,41,195,32,180,36,10,22,321,36,8*6C
$GPGSV,3,3,09,32,11,273,27,8*56
$GLGSV,2,1,08,80,48,067,30,73,44,156,44,70,41,017,16,85,31,240,25,1*7E
$GLGSV,2,2,08,86,28,296,37,71,24,319,31,69,11,079,18,79,07,029,25,1*79
$GAGSV,3,1,09,13,53,227,41,08,45,030,23,07,45,308,38,26,34,303,36,7*75
$GAGSV,3,2,09,30,29,141,33,02,27,081,18,15,19,174,27,03,09,067,,7*70
$GAGSV,3,3,09,25,01,040,,7*48
$GAGSV,2,1,08,13,53,227,45,07,45,308,42,08,45,030,34,26,34,303,41,1*7C
$GAGSV,2,2,08,30,29,141,28,02,27,081,26,15,19,174,25,03,09,067,16,1*74
$GBGSV,4,1,15,38,83,134,41,08,82,000,43,13,70,330,44,39,70,290,41,1*77
$GBGSV,4,2,15,16,66,264,38,06,65,260,37,46,61,102,36,19,51,351,46,1*77
$GBGSV,4,3,15,09,50,242,36,20,42,069,28,36,40,183,44,35,20,264,32,1*77
$GBGSV,4,4,15,37,20,045,,29,16,209,23,22,14,305,26,1*44
$GBGSV,3,1,09,38,83,134,44,39,70,290,43,46,61,102,36,19,51,351,45,4*76
$GBGSV,3,2,09,20,42,069,14,36,40,183,42,35,20,264,22,29,16,209,20,4*79
$GBGSV,3,3,09,22,14,305,27,4*4C
$GNACCURACY,2.3*17
$PAIRSAT,1,35,1,0,200,2,0,200,3,0,200,4,0,200,5,0,201,6,0,200,7,0,200,8,0,200,9,0,200,10,0,221,11,0,200,12,0,201,13,0,201,14,0,200,15,0,201,16,0,200,17,0,200,18,0,221,19,0,200,20,0,200,21,0,200,23,0,221,24,0,221,25,0,200,26,0,200,27,0,200,28,0,200,29,0,200,30,0,200,31,0,200,32,0,221,194,0,621,195,0,621,196,0,620,199,0,621*68
$PAIRSAT,2,24,65,0,200,66,0,200,67,0,200,68,0,200,69,0,201,70,0,201,71,0,201,72,0,200,73,0,201,74,0,200,75,0,200,76,0,200,77,0,200,78,0,200,79,0,201,80,0,201,81,0,200,82,0,200,83,0,200,84,0,200,85,0,201,86,0,201,87,0,200,88,0,200*7A
$PAIRSAT,3,23,2,0,1221,3,0,1221,4,0,1200,5,0,200,7,0,1221,8,0,1221,9,0,1200,10,0,1200,11,0,1200,12,0,1200,13,0,1221,15,0,1221,19,0,1200,21,0,1200,24,0,1200,25,0,1200,26,0,1221,27,0,1200,30,0,1221,31,0,1200,33,0,1200,34,0,1200,36,0,1200*6A
$PAIRSAT,4,50,1,0,200,2,0,200,3,0,200,4,0,200,5,0,200,6,0,201,7,0,200,8,0,201,9,0,201,10,0,200,11,0,200,12,0,200,13,0,201,14,0,200,15,0,200,16,0,201,19,0,621,20,0,621,21,0,600,22,0,621,23,0,600,24,0,600,25,0,600,26,0,600,27,0,600,28,0,600,29,0,621,30,0,600,31,0,200,32,0,600,33,0,600,34,0,600,35,0,621,36,0,621,37,0,621,38,0,621,39,0,621,40,0,600,41,0,600,42,0,600,43,0,600,44,0,600,45,0,600,46,0,621,56,0,200,57,0,200,58,0,200,59,0,600,60,0,600,61,0,600*41
$PAIRDGP,9,5,10,12,15,18,23,24,25,32*5B
$GNGGA,113713.200,2500.8191401,N,12132.4674580,E,2,64,0.44,19.442,M,15.25,M,1,3335*45
$GNRMC,113713.200,A,2500.8191401,N,12132.4674580,E,0.03,206.39,260623,,,D,V*09
$GPHDT,,T*1B
$GNACCURACY,2.3*17
$GNGGA,113713.300,2500.8191341,N,12132.4674520,E,2,64,0.44,19.456,M,15.25,M,1,3335*48
$GNRMC,113713.300,A,2500.8191341,N,12132.4674520,E,0.03,206.39,260623,,,D,V*01
$GPHDT,,T*1B
$GNACCURACY,2.3*17
$GNGGA,113713.400,2500.8191281,N,12132.4674340,E,2,64,0.44,19.460,M,15.25,M,1,3335*47
$GNRMC,113713.400,A,2500.8191281,N,12132.4674340,E,0.02,206.39,260623,,,D,V*0A
$GPHDT,,T*1B
$GNACCURACY,2.3*17
$GNGGA,113713.500,2500.8191221,N,12132.4674220,E,2,64,0.44,19.461,M,15.25,M,1,3335*4A
$GNRMC,113713.500,A,2500.8191221,N,12132.4674220,E,0.03,206.39,260623,,,D,V*07
$GPHDT,,T*1B
$GNACCURACY,2.3*17
$GNGGA,113713.600,2500.8191161,N,12132.4674100,E,2,64,0.44,19.464,M,15.25,M,0,3335*4B
$GNRMC,113713.600,A,2500.8191161,N,12132.4674100,E,0.03,206.39,260623,,,D,V*02
$GPHDT,,T*1B
$GNACCURACY,2.3*17
$GNGGA,113713.700,2500.8191101,N,12132.4673980,E,2,64,0.44,19.469,M,15.25,M,0,3335*46
$GNRMC,113713.700,A,2500.8191101,N,12132.4673980,E,0.03,206.39,260623,,,D,V*02
$GPHDT,,T*1B
$GNACCURACY,2.3*17
$GNGGA,113713.800,2500.8191041,N,12132.4673860,E,2,64,0.44,19.473,M,15.25,M,0,3335*48
$GNRMC,113713.800,A,2500.8191041,N,12132.4673860,E,0.03,206.39,260623,,,D,V*07
$GPHDT,,T*1B
$GNACCURACY,2.3*17
$GNGGA,113713.900,2500.8191041,N,12132.4673680,E,2,64,0.44,19.477,M,15.25,M,0,3335*4D
$GNRMC,113713.900,A,2500.8191041,N,12132.4673680,E,0.03,206.39,260623,,,D,V*06
$GPHDT,,T*1B
$GNACCURACY,2.3*17
$GNGGA,113714.000,2500.8190981,N,12132.4673620,E,2,64,0.44,19.490,M,15.25,M,1,3335*45
$GNRMC,113714.000,A,2500.8190981,N,12132.4673620,E,0.02,206.39,260623,,,D,V*07
$GPHDT,,T*1B
$GNACCURACY,2.3*17
$GNGGA,113714.100,2500.8190981,N,12132.4673620,E,2,63,0.44,19.508,M,15.25,M,1,3335*43
$GNRMC,113714.100,A,2500.8190981,N,12132.4673620,E,0.02,206.39,260623,,,D,V*06
$GPHDT,,T*1B
$GNGSA,A,3,196,24,199,18,23,15,195,194,12,10,05,32,0.70,0.44,0.55,1*04
$GNGSA,A,3,80,73,70,85,86,71,69,,,,,,0.70,0.44,0.55,2*04
$GNGSA,A,3,13,07,08,26,30,02,15,,,,,,0.70,0.44,0.55,3*08
$GNGSA,A,3,38,08,13,39,16,06,46,19,09,20,36,35,0.70,0.44,0.55,4*0B
$GNGSA,A,3,29,22,,,,,,,,,,,0.70,0.44,0.55,4*08
$GPGSV,4,1,15,196,75,068,26,24,69,037,26,199,60,167,38,18,56,237,42,1*6C
$GPGSV,4,2,15,23,55,342,34,41,38,242,29,15,34,052,20,195,32,180,30,1*54
$GPGSV,4,3,15,194,32,137,42,12,23,137,22,10,22,321,36,05,16,122,29,1*52
$GPGSV,4,4,15,25,12,174,16,32,11,273,32,13,06,060,,1*55
$GPGSV,3,1,09,196,75,068,36,24,69,037,33,199,60,167,45,18,56,237,43,8*61
$GPGSV,3,2,09,23,55,342,41,194,32,137,41,195,32,180,35,10,22,321,36,8*6E
$GPGSV,3,3,09,32,11,273,25,8*54
$GLGSV,3,1,09,80,48,067,29,73,44,156,44,70,41,017,16,85,31,240,24,1*77
$GLGSV,3,2,09,86,28,296,37,71,24,319,29,69,11,079,18,79,07,029,25,1*70
$GLGSV,3,3,09,74,07,186,,1*4A
$GAGSV,3,1,10,13,53,227,41,07,45,308,37,08,45,030,24,26,34,303,36,7*75
$GAGSV,3,2,10,30,29,141,32,02,27,081,18,15,19,174,27,03,09,067,,7*79
$GAGSV,3,3,10,27,04,186,,25,01,040,,7*7E
$GAGSV,2,1,08,13,53,227,45,07,45,308,42,08,45,030,34,26,34,303,41,1*7C
$GAGSV,2,2,08,30,29,141,28,02,27,081,25,15,19,174,25,03,09,067,14,1*75
$GBGSV,5,1,18,38,83,134,41,08,82,000,43,13,70,330,44,39,70,290,41,1*7B
$GBGSV,5,2,18,16,66,264,39,06,65,260,37,46,61,102,36,19,51,351,46,1*7A
$GBGSV,5,3,18,09,50,242,36,56,47,314,,20,42,069,27,36,40,183,44,1*77
$GBGSV,5,4,18,31,38,212,,37,20,045,,35,20,264,33,29,16,209,23,1*73
$GBGSV,5,5,18,22,14,305,27,07,05,191,,1*72
$GBGSV,3,1,09,38,83,134,44,39,70,290,43,46,61,102,36,19,51,351,45,4*76
$GBGSV,3,2,09,20,42,069,12,36,40,183,42,35,20,264,22,29,16,209,21,4*7E
$GBGSV,3,3,09,22,14,305,26,4*4D
$GNACCURACY,2.3*17
$PAIRSAT,1,35,1,0,200,2,0,200,3,0,200,4,0,200,5,0,201,6,0,200,7,0,200,8,0,200,9,0,200,10,0,221,11,0,200,12,0,201,13,0,201,14,0,200,15,0,201,16,0,200,17,0,200,18,0,221,19,0,200,20,0,200,21,0,200,23,0,221,24,0,221,25,0,200,26,0,200,27,0,200,28,0,200,29,0,200,30,0,200,31,0,200,32,0,221,194,0,621,195,0,621,196,0,620,199,0,621*68
$PAIRSAT,2,24,65,0,200,66,0,200,67,0,200,68,0,200,69,0,201,70,0,201,71,0,201,72,0,200,73,0,201,74,0,200,75,0,200,76,0,200,77,0,200,78,0,200,79,0,201,80,0,201,81,0,200,82,0,200,83,0,200,84,0,200,85,0,201,86,0,201,87,0,200,88,0,200*7A
$PAIRSAT,3,23,2,0,1221,3,0,1221,4,0,1200,5,0,200,7,0,1221,8,0,1221,9,0,1200,10,0,1200,11,0,1200,12,0,1200,13,0,1221,15,0,1221,19,0,1200,21,0,1200,24,0,1200,25,0,1200,26,0,1221,27,0,1200,30,0,1221,31,0,1200,33,0,1200,34,0,1200,36,0,1200*6A
$PAIRSAT,4,50,1,0,200,2,0,200,3,0,200,4,0,200,5,0,200,6,0,201,7,0,200,8,0,201,9,0,201,10,0,200,11,0,200,12,0,200,13,0,201,14,0,200,15,0,200,16,0,201,19,0,621,20,0,621,21,0,600,22,0,621,23,0,600,24,0,600,25,0,600,26,0,600,27,0,600,28,0,600,29,0,621,30,0,600,31,0,200,32,0,600,33,0,600,34,0,600,35,0,621,36,0,621,37,0,621,38,0,621,39,0,621,40,0,600,41,0,600,42,0,600,43,0,600,44,0,600,45,0,600,46,0,621,56,0,200,57,0,200,58,0,200,59,0,600,60,0,600,61,0,600*41
$PAIRDGP,9,5,10,12,15,18,23,24,25,32*5B
$GNGGA,113714.200,2500.8190981,N,12132.4673620,E,2,64,0.44,19.522,M,15.25,M,1,3335*4F
$GNRMC,113714.200,A,2500.8190981,N,12132.4673620,E,0.02,206.39,260623,,,D,V*05
$GPHDT,,T*1B
$GNACCURACY,2.3*17
$GNGGA,113714.300,2500.8190921,N,12132.4673620,E,2,64,0.44,19.537,M,15.25,M,1,3335*40
$GNRMC,113714.300,A,2500.8190921,N,12132.4673620,E,0.02,206.39,260623,,,D,V*0E
$GPHDT,,T*1B
$GNACCURACY,2.3*17
$GNGGA,113714.400,2500.8190921,N,12132.4673620,E,2,64,0.44,19.556,M,15.25,M,1,3335*40
$GNRMC,113714.400,A,2500.8190921,N,12132.4673620,E,0.01,206.39,260623,,,D,V*0A
$GPHDT,,T*1B
$GNACCURACY,2.3*17
$GNGGA,113714.500,2500.8190921,N,12132.4673560,E,2,64,0.44,19.571,M,15.25,M,1,3335*43
$GNRMC,113714.500,A,2500.8190921,N,12132.4673560,E,0.01,206.39,260623,,,D,V*0C
$GPHDT,,T*1B
$GNACCURACY,2.3*17
$GNGGA,113714.600,2500.8190921,N,12132.4673500,E,2,64,0.44,19.586,M,15.25,M,1,3335*4E
$GNRMC,113714.600,A,2500.8190921,N,12132.4673500,E,0.02,206.39,260623,,,D,V*0A
$GPHDT,,T*1B
$GNACCURACY,2.3*17
$GNGGA,113714.700,2500.8190921,N,12132.4673440,E,2,63,0.45,19.602,M,15.25,M,0,3335*42
$GNRMC,113714.700,A,2500.8190921,N,12132.4673440,E,0.01,206.39,260623,,,D,V*0D
$GPHDT,,T*1B
$GNACCURACY,2.3*17
$GNGGA,113714.800,2500.8190921,N,12132.4673440,E,2,63,0.45,19.617,M,15.25,M,0,3335*49
$GNRMC,113714.800,A,2500.8190921,N,12132.4673440,E,0.01,206.39,260623,,,D,V*02
$GPHDT,,T*1B
$GNACCURACY,2.3*17
$GNGGA,113714.900,2500.8190921,N,12132.4673380,E,2,63,0.45,19.634,M,15.25,M,0,3335*42
$GNRMC,113714.900,A,2500.8190921,N,12132.4673380,E,0.01,206.39,260623,,,D,V*08
$GPHDT,,T*1B
$GNACCURACY,2.3*17
$GNGGA,113715.000,2500.8190921,N,12132.4673380,E,2,62,0.45,19.656,M,15.25,M,1,3335*4E
$GNRMC,113715.000,A,2500.8190921,N,12132.4673380,E,0.01,206.39,260623,,,D,V*00
$GPHDT,,T*1B
$GNACCURACY,2.3*17
$GNGGA,113715.100,2500.8190921,N,12132.4673380,E,2,63,0.44,19.679,M,15.25,M,1,3335*42
$GNRMC,113715.100,A,2500.8190921,N,12132.4673380,E,0.01,206.39,260623,,,D,V*01
$GPHDT,,T*1B
$GNGSA,A,3,196,24,199,18,23,15,195,194,12,10,05,32,0.70,0.44,0.55,1*04
$GNGSA,A,3,80,73,70,85,86,71,69,,,,,,0.70,0.44,0.55,2*04
$GNGSA,A,3,13,08,07,26,30,02,15,,,,,,0.70,0.44,0.55,3*08
$GNGSA,A,3,38,08,13,39,16,06,46,19,09,20,36,35,0.70,0.44,0.55,4*0B
$GNGSA,A,3,29,22,,,,,,,,,,,0.70,0.44,0.55,4*08
$GPGSV,4,1,15,196,75,068,26,24,69,037,26,199,60,167,38,18,56,237,42,1*6C
$GPGSV,4,2,15,23,55,342,34,41,38,242,29,15,34,052,23,195,32,180,31,1*56
$GPGSV,4,3,15,194,32,137,42,12,23,137,22,10,22,321,31,05,16,122,29,1*55
$GPGSV,4,4,15,25,12,174,15,32,11,273,32,13,06,060,,1*56
$GPGSV,2,1,08,196,75,068,37,24,69,037,32,199,60,167,45,18,56,237,43,8*61
$GPGSV,2,2,08,23,55,342,41,194,32,137,41,195,32,180,35,10,22,321,34,8*6C
$GLGSV,2,1,08,80,48,067,30,73,44,156,44,70,41,017,16,85,31,240,24,1*7F
$GLGSV,2,2,08,86,28,296,38,71,24,319,22,69,11,079,18,79,07,029,23,1*72
$GAGSV,3,1,10,13,53,227,40,08,45,030,22,07,45,308,38,26,34,303,34,7*7F
$GAGSV,3,2,10,30,29,141,32,02,27,081,19,15,19,174,26,03,09,067,,7*79
$GAGSV,3,3,10,27,04,186,,25,01,040,,7*7E
$GAGSV,2,1,08,13,53,227,45,07,45,308,42,08,45,030,34,26,34,303,38,1*72
$GAGSV,2,2,08,30,29,141,28,02,27,081,25,15,19,174,25,03,09,067,13,1*72
$GBGSV,4,1,16,38,83,134,41,08,82,000,43,13,70,330,43,39,70,290,41,1*73
$GBGSV,4,2,16,16,66,264,39,06,65,260,38,46,61,102,36,19,51,351,46,1*7A
$GBGSV,4,3,16,09,50,242,36,20,42,069,29,36,40,183,44,31,38,212,,1*78
$GBGSV,4,4,16,37,20,045,,35,20,264,34,29,16,209,22,22,14,305,25,1*76
$GBGSV,3,1,09,38,83,134,44,39,70,290,43,46,61,102,36,19,51,351,45,4*76
$GBGSV,3,2,09,20,42,069,14,36,40,183,42,35,20,264,24,29,16,209,21,4*7E
$GBGSV,3,3,09,22,14,305,27,4*4C
$GNACCURACY,2.3*17
$PAIRSAT,1,35,1,0,200,2,0,200,3,0,200,4,0,200,5,0,201,6,0,200,7,0,200,8,0,200,9,0,200,10,0,221,11,0,200,12,0,201,13,0,201,14,0,200,15,0,201,16,0,200,17,0,200,18,0,221,19,0,200,20,0,200,21,0,200,23,0,221,24,0,221,25,0,200,26,0,200,27,0,200,28,0,200,29,0,200,30,0,200,31,0,200,32,0,221,194,0,621,195,0,621,196,0,620,199,0,621*68
$PAIRSAT,2,24,65,0,200,66,0,200,67,0,200,68,0,200,69,0,201,70,0,201,71,0,201,72,0,200,73,0,201,74,0,200,75,0,200,76,0,200,77,0,200,78,0,200,79,0,201,80,0,201,81,0,200,82,0,200,83,0,200,84,0,200,85,0,201,86,0,201,87,0,200,88,0,200*7A
$PAIRSAT,3,23,2,0,1221,3,0,1221,4,0,1200,5,0,200,7,0,1221,8,0,1221,9,0,1200,10,0,1200,11,0,1200,12,0,1200,13,0,1221,15,0,1221,19,0,1200,21,0,1200,24,0,1200,25,0,1200,26,0,1221,27,0,1200,30,0,1221,31,0,1200,33,0,1200,34,0,1200,36,0,1200*6A
$PAIRSAT,4,50,1,0,200,2,0,200,3,0,200,4,0,200,5,0,200,6,0,201,7,0,200,8,0,201,9,0,201,10,0,200,11,0,200,12,0,200,13,0,201,14,0,200,15,0,200,16,0,201,19,0,621,20,0,621,21,0,600,22,0,621,23,0,600,24,0,600,25,0,600,26,0,600,27,0,600,28,0,600,29,0,621,30,0,600,31,0,200,32,0,600,33,0,600,34,0,600,35,0,621,36,0,621,37,0,621,38,0,621,39,0,621,40,0,600,41,0,600,42,0,600,43,0,600,44,0,600,45,0,600,46,0,621,56,0,200,57,0,200,58,0,200,59,0,600,60,0,600,61,0,600*41
$PAIRDGP,9,5,10,12,15,18,23,24,25,32*5B
$GNGGA,113715.200,2500.8190921,N,12132.4673320,E,2,63,0.44,19.700,M,15.25,M,1,3335*44
$GNRMC,113715.200,A,2500.8190921,N,12132.4673320,E,0.01,206.39,260623,,,D,V*08
$GPHDT,,T*1B
$GNACCURACY,2.3*17
$GNGGA,113715.300,2500.8190921,N,12132.4673320,E,2,63,0.44,19.720,M,15.25,M,1,3335*47
$GNRMC,113715.300,A,2500.8190921,N,12132.4673320,E,0.02,206.39,260623,,,D,V*0A
$GPHDT,,T*1B
$GNACCURACY,2.3*17
$GNGGA,113715.400,2500.8190861,N,12132.4673260,E,2,63,0.44,19.739,M,15.25,M,1,3335*48
$GNRMC,113715.400,A,2500.8190861,N,12132.4673260,E,0.02,206.39,260623,,,D,V*0D
$GPHDT,,T*1B
$GNACCURACY,2.3*17
$GNGGA,113715.500,2500.8190861,N,12132.4673200,E,2,63,0.44,19.758,M,15.25,M,1,3335*48
$GNRMC,113715.500,A,2500.8190861,N,12132.4673200,E,0.02,206.39,260623,,,D,V*0A
$GPHDT,,T*1B
$GNACCURACY,2.3*17
$GNGGA,113715.600,2500.8190861,N,12132.4673200,E,2,63,0.44,19.773,M,15.25,M,1,3335*42
$GNRMC,113715.600,A,2500.8190861,N,12132.4673200,E,0.02,206.39,260623,,,D,V*09
$GPHDT,,T*1B
$GNACCURACY,2.3*17
$GNGGA,113715.700,2500.8190861,N,12132.4673140,E,2,63,0.44,19.790,M,15.25,M,1,3335*49
$GNRMC,113715.700,A,2500.8190861,N,12132.4673140,E,0.02,206.39,260623,,,D,V*0F
$GPHDT,,T*1B
$GNACCURACY,2.3*17
$GNGGA,113715.800,2500.8190801,N,12132.4673080,E,2,63,0.44,19.809,M,15.25,M,1,3335*42
$GNRMC,113715.800,A,2500.8190801,N,12132.4673080,E,0.03,206.39,260623,,,D,V*0A
$GPHDT,,T*1B
$GNACCURACY,2.3*17
$GNGGA,113715.900,2500.8190801,N,12132.4673020,E,2,62,0.45,19.828,M,15.25,M,1,3335*4A
$GNRMC,113715.900,A,2500.8190801,N,12132.4673020,E,0.03,206.39,260623,,,D,V*01
$GPHDT,,T*1B
$GNACCURACY,2.3*17
$GNGGA,113716.000,2500.8190801,N,12132.4673020,E,2,63,0.44,19.849,M,15.25,M,2,3335*44
$GNRMC,113716.000,A,2500.8190801,N,12132.4673020,E,0.02,206.39,260623,,,D,V*0A
$GPHDT,,T*1B
$GNACCURACY,2.3*17
$GNGGA,113716.100,2500.8190741,N,12132.4673080,E,2,61,0.46,19.867,M,15.25,M,2,3335*48
$GNRMC,113716.100,A,2500.8190741,N,12132.4673080,E,0.02,206.39,260623,,,D,V*0A
$GPHDT,,T*1B
$GNGSA,A,3,196,24,199,18,23,195,194,12,10,05,32,,0.73,0.46,0.57,1*03
$GNGSA,A,3,80,73,70,85,86,71,69,,,,,,0.73,0.46,0.57,2*07
$GNGSA,A,3,13,08,07,26,30,02,15,,,,,,0.73,0.46,0.57,3*0B
$GNGSA,A,3,38,08,13,39,16,06,46,19,09,20,36,35,0.73,0.46,0.57,4*08
$GNGSA,A,3,29,,,,,,,,,,,,0.73,0.46,0.57,4*0B
$GPGSV,4,1,15,196,75,068,27,24,69,037,27,199,60,167,37,18,56,237,42,1*63
$GPGSV,4,2,15,23,55,342,34,41,38,242,30,15,34,052,22,195,32,180,31,1*5F
$GPGSV,4,3,15,194,32,137,41,12,23,137,20,10,22,321,32,05,16,122,29,1*57
$GPGSV,4,4,15,25,12,174,16,32,11,273,31,13,06,060,,1*56
$GPGSV,2,1,08,196,75,068,37,24,69,037,33,199,60,167,45,18,56,237,44,8*67
$GPGSV,2,2,08,23,55,342,40,194,32,137,41,195,32,180,35,10,22,321,33,8*6A
$GLGSV,2,1,08,80,48,067,30,73,44,156,44,70,41,017,16,85,31,240,24,1*7F
$GLGSV,2,2,08,86,28,296,38,71,24,319,28,69,11,079,18,79,07,029,21,1*7A
$GAGSV,3,1,10,13,53,227,41,08,45,030,22,07,45,308,39,26,34,303,34,7*7F
$GAGSV,3,2,10,30,29,141,32,02,27,081,20,15,19,174,27,03,09,067,,7*72
$GAGSV,3,3,10,27,04,186,,25,01,040,,7*7E
$GAGSV,2,1,08,13,53,227,45,07,45,308,42,08,45,030,34,26,34,303,39,1*73
$GAGSV,2,2,08,30,29,141,29,02,27,081,25,15,19,174,25,03,09,067,12,1*72
$GBGSV,4,1,16,38,83,134,41,08,82,000,42,13,70,330,44,39,70,290,40,1*74
$GBGSV,4,2,16,16,66,264,38,06,65,260,38,46,61,102,36,19,51,351,46,1*7B
$GBGSV,4,3,16,09,50,242,36,20,42,069,29,36,40,183,44,31,38,212,,1*78
$GBGSV,4,4,16,37,20,045,,35,20,264,33,29,16,209,21,22,14,305,21,1*76
$GBGSV,3,1,09,38,83,134,44,39,70,290,44,46,61,102,36,19,51,351,45,4*71
$GBGSV,3,2,09,20,42,069,14,36,40,183,42,35,20,264,26,29,16,209,21,4*7C
$GBGSV,3,3,09,22,14,305,25,4*4E
$GNACCURACY,2.3*17
$PAIRSAT,1,35,1,0,200,2,0,200,3,0,200,4,0,200,5,0,201,6,0,200,7,0,200,8,0,200,9,0,200,10,0,221,11,0,200,12,0,201,13,0,201,14,0,200,15,0,201,16,0,200,17,0,200,18,0,221,19,0,200,20,0,200,21,0,200,23,0,221,24,0,221,25,0,200,26,0,200,27,0,200,28,0,200,29,0,200,30,0,200,31,0,200,32,0,221,194,0,621,195,0,621,196,0,620,199,0,621*68
$PAIRSAT,2,24,65,0,200,66,0,200,67,0,200,68,0,200,69,0,201,70,0,201,71,0,201,72,0,200,73,0,201,74,0,200,75,0,200,76,0,200,77,0,200,78,0,200,79,0,201,80,0,201,81,0,200,82,0,200,83,0,200,84,0,200,85,0,201,86,0,201,87,0,200,88,0,200*7A
$PAIRSAT,3,23,2,0,1221,3,0,1221,4,0,1200,5,0,200,7,0,1221,8,0,1221,9,0,1200,10,0,1200,11,0,1200,12,0,1200,13,0,1221,15,0,1221,19,0,1200,21,0,1200,24,0,1200,25,0,1200,26,0,1221,27,0,1200,30,0,1221,31,0,1200,33,0,1200,34,0,1200,36,0,1200*6A
$PAIRSAT,4,50,1,0,200,2,0,200,3,0,200,4,0,200,5,0,200,6,0,201,7,0,200,8,0,201,9,0,201,10,0,200,11,0,200,12,0,200,13,0,201,14,0,200,15,0,200,16,0,201,19,0,621,20,0,621,21,0,600,22,0,621,23,0,600,24,0,600,25,0,600,26,0,600,27,0,600,28,0,600,29,0,621,30,0,600,31,0,200,32,0,600,33,0,600,34,0,600,35,0,621,36,0,621,37,0,621,38,0,621,39,0,621,40,0,600,41,0,600,42,0,600,43,0,600,44,0,600,45,0,600,46,0,621,56,0,200,57,0,200,58,0,200,59,0,600,60,0,600,61,0,600*41
$PAIRDGP,9,5,10,12,15,18,23,24,25,32*5B
$GNGGA,113716.200,2500.8190741,N,12132.4673020,E,2,61,0.46,19.888,M,15.25,M,2,3335*40
$GNRMC,113716.200,A,2500.8190741,N,12132.4673020,E,0.03,206.39,260623,,,D,V*02
$GPHDT,,T*1B
$GNACCURACY,2.3*17
$GNGGA,113716.300,2500.8190741,N,12132.4673020,E,2,61,0.46,19.911,M,15.25,M,2,3335*40
$GNRMC,113716.300,A,2500.8190741,N,12132.4673020,E,0.02,206.39,260623,,,D,V*02
$GPHDT,,T*1B
$GNACCURACY,2.3*17
$GNGGA,113716.400,2500.8190741,N,12132.4673080,E,2,61,0.46,19.933,M,15.25,M,1,3335*4E
$GNRMC,113716.400,A,2500.8190741,N,12132.4673080,E,0.02,206.39,260623,,,D,V*0F
$GPHDT,,T*1B
$GNACCURACY,2.3*17
$GNGGA,113716.500,2500.8190741,N,12132.4673080,E,2,61,0.46,19.956,M,15.25,M,1,3335*4C
$GNRMC,113716.500,A,2500.8190741,N,12132.4673080,E,0.02,206.39,260623,,,D,V*0E
$GPHDT,,T*1B
$GNACCURACY,2.3*17
$GNGGA,113716.600,2500.8190741,N,12132.4673140,E,2,60,0.46,19.971,M,15.25,M,0,3335*47
$GNRMC,113716.600,A,2500.8190741,N,12132.4673140,E,0.01,206.39,260623,,,D,V*03
$GPHDT,,T*1B
$GNACCURACY,2.3*17
$GNGGA,113716.700,2500.8190741,N,12132.4673200,E,2,60,0.46,19.987,M,15.25,M,0,3335*48
$GNRMC,113716.700,A,2500.8190741,N,12132.4673200,E,0.01,206.39,260623,,,D,V*05
$GPHDT,,T*1B
$GNACCURACY,2.3*17
$GNGGA,113716.800,2500.8190681,N,12132.4673260,E,2,61,0.45,20.002,M,15.25,M,0,3335*40
$GNRMC,113716.800,A,2500.8190681,N,12132.4673260,E,0.02,206.39,260623,,,D,V*02
$GPHDT,,T*1B
$GNACCURACY,2.3*17
$GNGGA,113716.900,2500.8190681,N,12132.4673320,E,2,62,0.45,20.022,M,15.25,M,0,3335*45
$GNRMC,113716.900,A,2500.8190681,N,12132.4673320,E,0.01,206.39,260623,,,D,V*05
$GPHDT,,T*1B
$GNACCURACY,2.3*17
$GNGGA,113717.000,2500.8190681,N,12132.4673380,E,2,62,0.45,20.038,M,15.25,M,1,3335*4D
$GNRMC,113717.000,A,2500.8190681,N,12132.4673380,E,0.01,206.39,260623,,,D,V*07
$GPHDT,,T*1B
$GNACCURACY,2.3*17
$GNGGA,113717.100,2500.8190681,N,12132.4673440,E,2,63,0.45,20.053,M,15.25,M,1,3335*4B
$GNRMC,113717.100,A,2500.8190681,N,12132.4673440,E,0.01,206.39,260623,,,D,V*0D
$GPHDT,,T*1B
$GNGSA,A,3,196,24,199,18,23,195,194,12,10,05,32,,0.71,0.45,0.55,1*00
$GNGSA,A,3,80,73,70,85,86,71,69,,,,,,0.71,0.45,0.55,2*04
$GNGSA,A,3,13,07,08,26,30,02,15,,,,,,0.71,0.45,0.55,3*08
$GNGSA,A,3,38,08,39,13,16,06,46,19,09,20,36,35,0.71,0.45,0.55,4*0B
$GNGSA,A,3,29,22,,,,,,,,,,,0.71,0.45,0.55,4*08
$GPGSV,4,1,15,196,75,068,26,24,69,037,25,199,60,167,37,18,56,237,40,1*62
$GPGSV,4,2,15,23,55,342,34,41,38,242,26,15,34,052,25,195,32,180,25,1*5A
$GPGSV,4,3,15,194,32,137,41,12,23,137,19,10,22,321,33,05,16,122,30,1*54
$GPGSV,4,4,15,25,12,174,16,32,11,273,36,13,06,060,,1*51
$GPGSV,3,1,09,196,75,068,37,24,69,037,32,199,60,167,45,18,56,237,38,8*6D
$GPGSV,3,2,09,23,55,342,41,194,32,137,41,195,32,180,33,10,22,321,32,8*6C
$GPGSV,3,3,09,32,11,273,28,8*59
$GLGSV,2,1,08,80,48,067,30,73,44,156,44,70,41,017,16,85,31,240,24,1*7F
$GLGSV,2,2,08,86,28,296,37,71,24,319,29,69,11,079,17,79,07,029,21,1*7B
$GAGSV,3,1,10,13,53,227,41,07,45,308,39,08,45,030,21,26,34,303,36,7*7E
$GAGSV,3,2,10,30,29,141,33,02,27,081,19,15,19,174,26,03,09,067,,7*78
$GAGSV,3,3,10,27,04,186,,25,01,040,,7*7E
$GAGSV,2,1,08,13,53,227,43,07,45,308,42,08,45,030,34,26,34,303,40,1*7B
$GAGSV,2,2,08,30,29,141,27,02,27,081,25,15,19,174,23,03,09,067,12,1*7A
$GBGSV,4,1,15,38,83,134,41,08,82,000,43,39,70,290,41,13,70,330,44,1*77
$GBGSV,4,2,15,16,66,264,40,06,65,260,38,46,61,102,35,19,51,351,46,1*74
$GBGSV,4,3,15,09,50,242,34,20,42,069,28,36,40,183,44,37,20,045,,1*77
$GBGSV,4,4,15,35,20,264,32,29,16,209,24,22,14,305,24,1*43
$GBGSV,3,1,09,38,83,134,44,39,70,290,44,46,61,102,34,19,51,351,45,4*73
$GBGSV,3,2,09,20,42,069,12,36,40,183,42,35,20,264,27,29,16,209,21,4*7B
$GBGSV,3,3,09,22,14,305,26,4*4D
$GNACCURACY,2.3*17
$PAIRSAT,1,35,1,0,200,2,0,200,3,0,200,4,0,200,5,0,201,6,0,200,7,0,200,8,0,200,9,0,200,10,0,221,11,0,200,12,0,201,13,0,201,14,0,200,15,0,201,16,0,200,17,0,200,18,0,221,19,0,200,20,0,200,21,0,200,23,0,221,24,0,221,25,0,200,26,0,200,27,0,200,28,0,200,29,0,200,30,0,200,31,0,200,32,0,221,194,0,621,195,0,621,196,0,620,199,0,621*68
$PAIRSAT,2,24,65,0,200,66,0,200,67,0,200,68,0,200,69,0,201,70,0,201,71,0,201,72,0,200,73,0,201,74,0,200,75,0,200,76,0,200,77,0,200,78,0,200,79,0,201,80,0,201,81,0,200,82,0,200,83,0,200,84,0,200,85,0,201,86,0,201,87,0,200,88,0,200*7A
$PAIRSAT,3,23,2,0,1221,3,0,1221,4,0,1200,5,0,200,7,0,1221,8,0,1221,9,0,1200,10,0,1200,11,0,1200,12,0,1200,13,0,1221,15,0,1221,19,0,1200,21,0,1200,24,0,1200,25,0,1200,26,0,1221,27,0,1200,30,0,1221,31,0,1200,33,0,1200,34,0,1200,36,0,1200*6A
$PAIRSAT,4,50,1,0,200,2,0,200,3,0,200,4,0,200,5,0,200,6,0,201,7,0,200,8,0,201,9,0,201,10,0,200,11,0,200,12,0,200,13,0,201,14,0,200,15,0,200,16,0,201,19,0,621,20,0,621,21,0,600,22,0,621,23,0,600,24,0,600,25,0,600,26,0,600,27,0,600,28,0,600,29,0,621,30,0,600,31,0,200,32,0,600,33,0,600,34,0,600,35,0,621,36,0,621,37,0,621,38,0,621,39,0,621,40,0,600,41,0,600,42,0,600,43,0,600,44,0,600,45,0,600,46,0,621,56,0,200,57,0,200,58,0,200,59,0,600,60,0,600,61,0,600*41
$PAIRDGP,9,5,10,12,15,18,23,24,25,32*5B
$GNGGA,113717.200,2500.8190681,N,12132.4673500,E,2,64,0.45,20.065,M,15.25,M,1,3335*4F
$GNRMC,113717.200,A,2500.8190681,N,12132.4673500,E,0.02,206.39,260623,,,D,V*08
$GPHDT,,T*1B
$GNACCURACY,2.3*17
$GNGGA,113717.300,2500.8190681,N,12132.4673560,E,2,63,0.45,20.080,M,15.25,M,1,3335*44
$GNRMC,113717.300,A,2500.8190681,N,12132.4673560,E,0.03,206.39,260623,,,D,V*0E
$GPHDT,,T*1B
$GNACCURACY,2.3*17
$GNGGA,113717.400,2500.8190681,N,12132.4673620,E,2,64,0.44,20.096,M,15.25,M,1,3335*45
$GNRMC,113717.400,A,2500.8190681,N,12132.4673620,E,0.02,206.39,260623,,,D,V*0F
$GPHDT,,T*1B
$GNACCURACY,2.3*17
$GNGGA,113717.500,2500.8190681,N,12132.4673620,E,2,64,0.44,20.108,M,15.25,M,1,3335*42
$GNRMC,113717.500,A,2500.8190681,N,12132.4673620,E,0.02,206.39,260623,,,D,V*0E
$GPHDT,,T*1B
$GNACCURACY,2.3*17
$GNGGA,113717.600,2500.8190621,N,12132.4673620,E,2,65,0.44,20.112,M,15.25,M,1,3335*41
$GNRMC,113717.600,A,2500.8190621,N,12132.4673620,E,0.01,206.39,260623,,,D,V*04
$GPHDT,,T*1B
$GNACCURACY,2.3*17
$GNGGA,113717.700,2500.8190561,N,12132.4673560,E,2,63,0.45,20.119,M,15.25,M,0,3335*4D
$GNRMC,113717.700,A,2500.8190561,N,12132.4673560,E,0.02,206.39,260623,,,D,V*06
$GPHDT,,T*1B
$GNACCURACY,2.3*17
$GNGGA,113717.800,2500.8190561,N,12132.4673500,E,2,63,0.45,20.126,M,15.25,M,0,3335*48
$GNRMC,113717.800,A,2500.8190561,N,12132.4673500,E,0.01,206.39,260623,,,D,V*0C
$GPHDT,,T*1B
$GNACCURACY,2.3*17
$GNGGA,113717.900,2500.8190561,N,12132.4673440,E,2,63,0.45,20.132,M,15.25,M,0,3335*49
$GNRMC,113717.900,A,2500.8190561,N,12132.4673440,E,0.01,206.39,260623,,,D,V*08
$GPHDT,,T*1B
$GNACCURACY,2.3*17
$GNGGA,113718.000,2500.8190621,N,12132.4673440,E,2,63,0.45,20.142,M,15.25,M,1,3335*4E
$GNRMC,113718.000,A,2500.8190621,N,12132.4673440,E,0.00,206.39,260623,,,D,V*08
$GPHDT,,T*1B
$GNACCURACY,2.3*17
$GNGGA,113718.100,2500.8190621,N,12132.4673380,E,2,63,0.45,20.153,M,15.25,M,1,3335*44
$GNRMC,113718.100,A,2500.8190621,N,12132.4673380,E,0.01,206.39,260623,,,D,V*03
$GPHDT,,T*1B
$GNGSA,A,3,196,24,199,18,23,195,194,12,10,05,32,,0.71,0.45,0.55,1*00
$GNGSA,A,3,80,73,70,85,86,71,69,,,,,,0.71,0.45,0.55,2*04
$GNGSA,A,3,13,08,07,26,30,02,15,,,,,,0.71,0.45,0.55,3*08
$GNGSA,A,3,38,08,13,39,16,06,46,19,09,20,36,35,0.71,0.45,0.55,4*0B
$GNGSA,A,3,29,22,,,,,,,,,,,0.71,0.45,0.55,4*08
$GPGSV,4,1,15,196,75,068,27,24,69,037,20,199,60,167,37,18,56,237,29,1*69
$GPGSV,4,2,15,23,55,342,34,41,38,242,26,15,34,052,25,195,32,180,23,1*5C
$GPGSV,4,3,15,194,32,137,41,12,23,137,21,10,22,321,36,05,16,122,31,1*5B
$GPGSV,4,4,15,25,12,174,17,32,11,273,37,13,06,060,,1*51
$GPGSV,3,1,09,196,75,068,35,24,69,037,33,199,60,167,46,18,56,237,40,8*62
$GPGSV,3,2,09,23,55,342,40,194,32,137,43,195,32,180,31,10,22,321,33,8*6C
$GPGSV,3,3,09,32,11,273,26,8*57
$GLGSV,2,1,08,80,48,067,31,73,44,156,44,70,41,017,16,85,31,240,25,1*7F
$GLGSV,2,2,08,86,28,296,38,71,24,319,35,69,11,079,15,79,07,029,19,1*70
$GAGSV,3,1,09,13,53,227,27,08,45,030,22,07,45,308,39,26,34,303,36,7*75
$GAGSV,3,2,09,30,29,141,33,02,27,081,17,15,19,174,26,03,09,068,,7*71
$GAGSV,3,3,09,27,04,186,,7*44
$GAGSV,2,1,08,13,53,227,34,07,45,308,42,08,45,030,34,26,34,303,41,1*7A
$GAGSV,2,2,08,30,29,141,32,02,27,081,23,15,19,174,24,03,09,068,13,1*71
$GBGSV,4,1,15,38,83,134,41,08,82,000,43,13,70,330,44,39,70,290,38,1*79
$GBGSV,4,2,15,16,66,264,39,06,65,260,37,46,61,102,34,19,51,351,46,1*74
$GBGSV,4,3,15,09,50,242,35,20,42,069,28,36,40,183,43,35,20,264,37,1*76
$GBGSV,4,4,15,37,20,045,,29,16,209,25,22,14,305,26,1*42
$GBGSV,2,1,08,38,83,134,44,39,70,290,42,46,61,102,34,19,51,351,45,4*75
$GBGSV,2,2,08,36,40,183,44,35,20,264,27,29,16,209,23,22,14,305,23,4*75
$GNACCURACY,2.3*17
$PAIRSAT,1,35,1,0,200,2,0,200,3,0,200,4,0,200,5,0,201,6,0,200,7,0,200,8,0,200,9,0,200,10,0,221,11,0,200,12,0,201,13,0,201,14,0,200,15,0,201,16,0,200,17,0,200,18,0,221,19,0,200,20,0,200,21,0,200,23,0,221,24,0,221,25,0,200,26,0,200,27,0,200,28,0,200,29,0,200,30,0,200,31,0,200,32,0,221,194,0,621,195,0,621,196,0,620,199,0,621*68
$PAIRSAT,2,24,65,0,200,66,0,200,67,0,200,68,0,200,69,0,201,70,0,201,71,0,201,72,0,200,73,0,201,74,0,200,75,0,200,76,0,200,77,0,200,78,0,200,79,0,201,80,0,201,81,0,200,82,0,200,83,0,200,84,0,200,85,0,201,86,0,201,87,0,200,88,0,200*7A
$PAIRSAT,3,23,2,0,1221,3,0,1221,4,0,1200,5,0,200,7,0,1221,8,0,1221,9,0,1200,10,0,1200,11,0,1200,12,0,1200,13,0,1221,15,0,1221,19,0,1200,21,0,1200,24,0,1200,25,0,1200,26,0,1221,27,0,1200,30,0,1221,31,0,1200,33,0,1200,34,0,1200,36,0,1200*6A
$PAIRSAT,4,50,1,0,200,2,0,200,3,0,200,4,0,200,5,0,200,6,0,201,7,0,200,8,0,201,9,0,201,10,0,200,11,0,200,12,0,200,13,0,201,14,0,200,15,0,200,16,0,201,19,0,621,20,0,621,21,0,600,22,0,621,23,0,600,24,0,600,25,0,600,26,0,600,27,0,600,28,0,600,29,0,621,30,0,600,31,0,200,32,0,600,33,0,600,34,0,600,35,0,621,36,0,621,37,0,621,38,0,621,39,0,621,40,0,600,41,0,600,42,0,600,43,0,600,44,0,600,45,0,600,46,0,621,56,0,200,57,0,200,58,0,200,59,0,600,60,0,600,61,0,600*41
$PAIRDGP,9,5,10,12,15,18,23,24,25,32*5B
$GNGGA,113718.200,2500.8190621,N,12132.4673440,E,2,63,0.45,20.171,M,15.25,M,1,3335*4C
$GNRMC,113718.200,A,2500.8190621,N,12132.4673440,E,0.01,206.39,260623,,,D,V*0B
$GPHDT,,T*1B
$GNACCURACY,2.3*17
$GNGGA,113718.300,2500.8190561,N,12132.4673320,E,2,64,0.44,20.181,M,15.25,M,1,3335*42
$GNRMC,113718.300,A,2500.8190561,N,12132.4673320,E,0.01,206.39,260623,,,D,V*0C
$GPHDT,,T*1B
$GNACCURACY,2.3*17
$GNGGA,113718.400,2500.8190561,N,12132.4673320,E,2,64,0.44,20.196,M,15.25,M,1,3335*43
$GNRMC,113718.400,A,2500.8190561,N,12132.4673320,E,0.00,206.39,260623,,,D,V*0A
$GPHDT,,T*1B
$GNACCURACY,2.3*17
$GNGGA,113718.500,2500.8190501,N,12132.4673200,E,2,64,0.44,20.210,M,15.25,M,0,3335*4B
$GNRMC,113718.500,A,2500.8190501,N,12132.4673200,E,0.02,206.39,260623,,,D,V*0C
$GPHDT,,T*1B
$GNACCURACY,2.3*17
$GNGGA,113718.600,2500.8190501,N,12132.4673140,E,2,64,0.44,20.218,M,15.25,M,0,3335*47
$GNRMC,113718.600,A,2500.8190501,N,12132.4673140,E,0.02,206.39,260623,,,D,V*08
$GPHDT,,T*1B
$GNACCURACY,2.3*17
$GNGGA,113718.700,2500.8190441,N,12132.4673080,E,2,64,0.44,20.224,M,15.25,M,0,3335*41
$GNRMC,113718.700,A,2500.8190441,N,12132.4673080,E,0.02,206.39,260623,,,D,V*01
$GPHDT,,T*1B
$GNACCURACY,2.3*17
$GNGGA,113718.800,2500.8190381,N,12132.4673140,E,2,63,0.44,20.230,M,15.25,M,0,3335*4A
$GNRMC,113718.800,A,2500.8190381,N,12132.4673140,E,0.02,206.39,260623,,,D,V*08
$GPHDT,,T*1B
$GNACCURACY,2.3*17
$GNGGA,113718.900,2500.8190381,N,12132.4673200,E,2,64,0.44,20.237,M,15.25,M,0,3335*4C
$GNRMC,113718.900,A,2500.8190381,N,12132.4673200,E,0.02,206.39,260623,,,D,V*0E
$GPHDT,,T*1B
$GNACCURACY,2.4*10
$GNGGA,113719.000,2500.8190381,N,12132.4673200,E,2,63,0.45,20.247,M,15.25,M,1,3335*44
$GNRMC,113719.000,A,2500.8190381,N,12132.4673200,E,0.01,206.39,260623,,,D,V*05
$GPHDT,,T*1B
$