$FW : RTK35X,V1.1X0314AS,Lib20210517,1*54
$Tool : LOCOSYS , GNSS Firebird , v1.0.0.19*39
$---------------------------------------------------*2D
1*48
$GBGSV,3,1,10,38,83,136,46,39,70,290,44,46,61,101,23,19,51,351,45,4*7E
$GBGSV,3,2,10,20,41,069,11,36,40,183,40,35,20,264,33,37,19,044,21,4*7F
$GBGSV,3,3,10,29,16,208,19,22,14,305,29,4*74
$GNACCURACY,2.4*10
$PAIRSAT,1,35,1,0,200,2,0,200,3,0,200,4,0,200,5,0,201,6,0,200,7,0,200,8,0,200,9,0,200,10,0,221,11,0,200,12,0,201,13,0,201,14,0,200,15,0,201,16,0,200,17,0,200,18,0,221,19,0,200,20,0,200,21,0,200,23,0,221,24,0,221,25,0,200,26,0,200,27,0,200,28,0,200,29,0,200,30,0,200,31,0,200,32,0,221,194,0,621,195,0,621,196,0,620,199,0,621*68
$PAIRSAT,2,24,65,0,200,66,0,200,67,0,200,68,0,200,69,0,201,70,0,201,71,0,201,72,0,200,73,0,201,74,0,200,75,0,200,76,0,200,77,0,200,78,0,200,79,0,201,80,0,201,81,0,200,82,0,200,83,0,200,84,0,200,85,0,201,86,0,201,87,0,200,88,0,200*7A
$PAIRSAT,3,23,2,0,1221,3,0,1221,4,0,1200,5,0,200,7,0,1221,8,0,1221,9,0,1200,10,0,1200,11,0,1200,12,0,1200,13,0,1221,15,0,1221,19,0,1200,21,0,1200,24,0,1200,25,0,1200,26,0,1221,27,0,1200,30,0,1221,31,0,1200,33,0,1200,34,0,1200,36,0,1200*6A
$PAIRSAT,4,50,1,0,200,2,0,200,3,0,200,4,0,200,5,0,200,6,0,201,7,0,200,8,0,201,9,0,201,10,0,200,11,0,200,12,0,200,13,0,201,14,0,200,15,0,200,16,0,201,19,0,621,20,0,621,21,0,600,22,0,621,23,0,600,24,0,600,25,0,600,26,0,600,27,0,600,28,0,600,29,0,621,30,0,600,31,0,200,32,0,600,33,0,600,34,0,600,35,0,621,36,0,621,37,0,621,38,0,621,39,0,621,40,0,600,41,0,600,42,0,600,43,0,600,44,0,600,45,0,600,46,0,621,56,0,200,57,0,200,58,0,200,59,0,600,60,0,600,61,0,600*41
$PAIRDGP,9,5,10,12,15,18,23,24,25,32*5B
$GNGGA,113825.200,2500.8199400,N,12132.4673700,E,2,64,0.44,29.40,M,15.25,M,43,3335*48
$GNRMC,113825.200,A,2500.8199400,N,12132.4673700,E,0.05,206.39,260623,,,D,V*01
$GPHDT,,T*1B
$GNACCURACY,2.4*10
$GNGGA,113825.300,2500.8199400,N,12132.4673800,E,2,64,0.44,29.39,M,15.25,M,43,3335*48
$GNRMC,113825.300,A,2500.8199400,N,12132.4673800,E,0.05,206.39,260623,,,D,V*0F
$GPHDT,,T*1B
$GNACCURACY,2.4*10
$GNGGA,113825.400,2500.8199500,N,12132.4673900,E,2,64,0.44,29.38,M,15.25,M,43,3335*4E
$GNRMC,113825.400,A,2500.8199500,N,12132.4673900,E,0.03,206.39,260623,,,D,V*0E
$GPHDT,,T*1B
$GNACCURACY,2.4*10
$GNGGA,113825.500,2500.8199500,N,12132.4674000,E,2,64,0.44,29.38,M,15.25,M,43,3335*41
$GNRMC,113825.500,A,2500.8199500,N,12132.4674000,E,0.02,206.39,260623,,,D,V*00
$GPHDT,,T*1B
$GNACCURACY,2.4*10
$GNGGA,113825.600,2500.8199600,N,12132.4674100,E,2,64,0.44,29.37,M,15.25,M,43,3335*4F
$GNRMC,113825.600,A,2500.8199600,N,12132.4674100,E,0.01,206.39,260623,,,D,V*02
$GPHDT,,T*1B
$GNACCURACY,2.4*10
$GNGGA,113825.700,2500.8199600,N,12132.4674200,E,2,64,0.44,29.37,M,15.25,M,43,3335*4D
$GNRMC,113825.700,A,2500.8199600,N,12132.4674200,E,0.02,206.39,260623,,,D,V*03
$GPHDT,,T*1B
$GNACCURACY,2.4*10
$GNGGA,113825.800,2500.8199600,N,12132.4674200,E,2,63,0.44,29.36,M,15.25,M,43,3335*44
$GNRMC,113825.800,A,2500.8199600,N,12132.4674200,E,0.03,206.39,260623,,,D,V*0D
$GPHDT,,T*1B
$GNACCURACY,2.4*10
$GNGGA,113825.900,2500.8199500,N,12132.4674200,E,2,63,0.44,29.35,M,15.25,M,43,3335*45
$GNRMC,113825.900,A,2500.8199500,N,12132.4674200,E,0.05,206.39,260623,,,D,V*09
$GPHDT,,T*1B
$GNACCURACY,2.4*10
$GNGGA,113826.000,2500.8199600,N,12132.4674300,E,2,64,0.44,29.35,M,15.25,M,44,3335*4D
$GNRMC,113826.000,A,2500.8199600,N,12132.4674300,E,0.05,206.39,260623,,,D,V*01
$GPHDT,,T*1B
$GNACCURACY,2.4*10
$GNGGA,113826.100,2500.8199600,N,12132.4674300,E,2,63,0.44,29.34,M,15.25,M,44,3335*4A
$GNRMC,113826.100,A,2500.8199600,N,12132.4674300,E,0.04,206.39,260623,,,D,V*01
$GPHDT,,T*1B
$GNGSA,A,3,24,199,23,18,15,194,195,12,10,05,32,196,0.71,0.44,0.56,1*06
$GNGSA,A,3,80,73,70,85,86,71,,,,,,,0.71,0.44,0.56,2*09
$GNGSA,A,3,13,08,07,26,30,02,15,,,,,,0.71,0.44,0.56,3*0A
$GNGSA,A,3,38,08,13,39,16,06,46,19,09,20,36,35,0.71,0.44,0.56,4*09
$GNGSA,A,3,37,29,22,,,,,,,,,,0.71,0.44,0.56,4*0E
$GPGSV,4,1,15,196,75,068,23,24,68,037,32,199,60,167,33,23,56,342,38,1*60
$GPGSV,4,2,15,18,55,236,42,41,38,242,30,15,34,052,26,194,33,137,39,1*54
$GPGSV,4,3,15,195,32,180,30,12,24,137,29,10,22,321,35,05,15,123,26,1*58
$GPGSV,4,4,15,25,13,173,21,32,12,274,35,13,05,061,,1*56
$GPGSV,3,1,09,196,75,068,36,24,68,037,34,199,60,167,42,23,56,342,35,8*6A
$GPGSV,3,2,09,18,55,236,43,194,33,137,42,195,32,180,35,10,22,321,30,8*62
$GPGSV,3,3,09,32,12,274,33,8*57
$GLGSV,2,1,08,80,47,067,14,73,44,156,44,70,41,018,18,85,31,240,25,1*76
$GLGSV,2,2,08,86,28,295,41,71,24,320,37,69,11,080,15,79,07,029,27,1*7E
$GAGSV,3,1,09,13,52,226,35,08,45,030,17,07,45,309,43,26,34,302,42,7*7E
$GAGSV,3,2,09,30,29,140,30,02,27,080,14,15,18,174,18,03,08,068,,7*7C
$GAGSV,3,3,09,25,01,040,,7*48
$GAGSV,2,1,08,13,52,226,38,07,45,309,42,08,45,030,34,26,34,302,40,1*77
$GAGSV,2,2,08,30,29,140,22,02,27,080,21,15,18,174,26,03,08,068,17,1*74
$GBGSV,4,1,15,38,83,136,43,08,82,359,43,13,70,329,44,39,70,290,41,1*70
$GBGSV,4,2,15,16,66,265,40,06,65,260,44,46,61,101,33,19,51,351,46,1*7B
$GBGSV,4,3,15,09,50,243,39,20,41,069,20,36,40,183,40,35,20,264,27,1*72
$GBGSV,4,4,15,37,19,044,29,29,16,208,21,22,14,305,,1*43
$GBGSV,3,1,10,38,83,136,46,39,70,290,44,46,61,101,19,19,51,351,45,4*77
$GBGSV,3,2,10,20,41,069,11,36,40,183,40,35,20,264,28,37,19,044,22,4*76
$GBGSV,3,3,10,29,16,208,20,22,14,305,25,4*72
$GNACCURACY,2.4*10
$PAIRSAT,1,35,1,0,200,2,0,200,3,0,200,4,0,200,5,0,201,6,0,200,7,0,200,8,0,200,9,0,200,10,0,221,11,0,200,12,0,201,13,0,201,14,0,200,15,0,201,16,0,200,17,0,200,18,0,221,19,0,200,20,0,200,21,0,200,23,0,221,24,0,221,25,0,200,26,0,200,27,0,200,28,0,200,29,0,200,30,0,200,31,0,200,32,0,221,194,0,621,195,0,621,196,0,620,199,0,621*68
$PAIRSAT,2,24,65,0,200,66,0,200,67,0,200,68,0,200,69,0,201,70,0,201,71,0,201,72,0,200,73,0,201,74,0,200,75,0,200,76,0,200,77,0,200,78,0,200,79,0,201,80,0,201,81,0,200,82,0,200,83,0,200,84,0,200,85,0,201,86,0,201,87,0,200,88,0,200*7A
$PAIRSAT,3,23,2,0,1221,3,0,1221,4,0,1200,5,0,200,7,0,1221,8,0,1221,9,0,1200,10,0,1200,11,0,1200,12,0,1200,13,0,1221,15,0,1221,19,0,1200,21,0,1200,24,0,1200,25,0,1200,26,0,1221,27,0,1200,30,0,1221,31,0,1200,33,0,1200,34,0,1200,36,0,1200*6A
$PAIRSAT,4,50,1,0,200,2,0,200,3,0,200,4,0,200,5,0,200,6,0,201,7,0,200,8,0,201,9,0,201,10,0,200,11,0,200,12,0,200,13,0,201,14,0,200,15,0,200,16,0,201,19,0,621,20,0,621,21,0,600,22,0,621,23,0,600,24,0,600,25,0,600,26,0,600,27,0,600,28,0,600,29,0,621,30,0,600,31,0,200,32,0,600,33,0,600,34,0,600,35,0,621,36,0,621,37,0,621,38,0,621,39,0,621,40,0,600,41,0,600,42,0,600,43,0,600,44,0,600,45,0,600,46,0,621,56,0,200,57,0,200,58,0,200,59,0,600,60,0,600,61,0,600*41
$PAIRDGP,9,5,10,12,15,18,23,24,25,32*5B
$GNGGA,113826.200,2500.8199700,N,12132.4674300,E,2,63,0.44,29.34,M,15.25,M,44,3335*48
$GNRMC,113826.200,A,2500.8199700,N,12132.4674300,E,0.04,206.39,260623,,,D,V*03
$GPHDT,,T*1B
$GNACCURACY,2.4*10
$GNGGA,113826.300,2500.8199700,N,12132.4674400,E,2,62,0.45,29.33,M,15.25,M,44,3335*49
$GNRMC,113826.300,A,2500.8199700,N,12132.4674400,E,0.04,206.39,260623,,,D,V*05
$GPHDT,,T*1B
$GNACCURACY,2.4*10
$GNGGA,113826.400,2500.8199700,N,12132.4674500,E,2,62,0.45,29.33,M,15.25,M,44,3335*4F
$GNRMC,113826.400,A,2500.8199700,N,12132.4674500,E,0.04,206.39,260623,,,D,V*03
$GPHDT,,T*1B
$GNACCURACY,2.4*10
$GNGGA,113826.500,2500.8199700,N,12132.4674500,E,2,62,0.45,29.33,M,15.25,M,44,3335*4E
$GNRMC,113826.500,A,2500.8199700,N,12132.4674500,E,0.04,206.39,260623,,,D,V*02
$GPHDT,,T*1B
$GNACCURACY,2.4*10
$GNGGA,113826.600,2500.8199700,N,12132.4674600,E,2,62,0.45,29.33,M,15.25,M,44,3335*4E
$GNRMC,113826.600,A,2500.8199700,N,12132.4674600,E,0.03,206.39,260623,,,D,V*05
$GPHDT,,T*1B
$GNACCURACY,2.4*10
$GNGGA,113826.700,2500.8199700,N,12132.4674600,E,2,62,0.45,29.33,M,15.25,M,44,3335*4F
$GNRMC,113826.700,A,2500.8199700,N,12132.4674600,E,0.04,206.39,260623,,,D,V*03
$GPHDT,,T*1B
$GNACCURACY,2.4*10
$GNGGA,113826.800,2500.8199700,N,12132.4674600,E,2,62,0.45,29.33,M,15.25,M,44,3335*40
$GNRMC,113826.800,A,2500.8199700,N,12132.4674600,E,0.03,206.39,260623,,,D,V*0B
$GPHDT,,T*1B
$GNACCURACY,2.4*10
$GNGGA,113826.900,2500.8199700,N,12132.4674600,E,2,61,0.46,29.33,M,15.25,M,44,3335*41
$GNRMC,113826.900,A,2500.8199700,N,12132.4674600,E,0.03,206.39,260623,,,D,V*0A
$GPHDT,,T*1B
$GNACCURACY,2.4*10
$GNGGA,113827.000,2500.8199700,N,12132.4674600,E,2,62,0.45,29.33,M,15.25,M,45,3335*48
$GNRMC,113827.000,A,2500.8199700,N,12132.4674600,E,0.04,206.39,260623,,,D,V*05
$GPHDT,,T*1B
$GNACCURACY,2.4*10
$GNGGA,113827.100,2500.8199600,N,12132.4674700,E,2,62,0.45,29.32,M,15.25,M,45,3335*48
$GNRMC,113827.100,A,2500.8199600,N,12132.4674700,E,0.04,206.39,260623,,,D,V*04
$GPHDT,,T*1B
$GNGSA,A,3,24,199,23,18,15,194,195,12,10,05,32,196,0.72,0.45,0.56,1*04
$GNGSA,A,3,73,70,85,86,71,,,,,,,,0.72,0.45,0.56,2*03
$GNGSA,A,3,13,07,08,26,30,02,15,,,,,,0.72,0.45,0.56,3*08
$GNGSA,A,3,38,08,13,39,16,06,46,19,09,20,36,35,0.72,0.45,0.56,4*0B
$GNGSA,A,3,37,29,22,,,,,,,,,,0.72,0.45,0.56,4*0C
$GPGSV,4,1,15,196,75,068,20,24,68,037,32,199,60,167,33,23,56,342,38,1*63
$GPGSV,4,2,15,18,55,236,42,41,38,242,31,15,34,052,26,194,33,137,39,1*55
$GPGSV,4,3,15,195,32,180,29,12,24,137,29,10,22,321,36,05,15,123,26,1*53
$GPGSV,4,4,15,25,13,173,23,32,12,274,33,13,05,061,,1*52
$GPGSV,3,1,09,196,75,068,37,24,68,037,33,199,60,167,41,23,56,342,36,8*6C
$GPGSV,3,2,09,18,55,236,43,194,33,137,42,195,32,180,34,10,22,321,28,8*6A
$GPGSV,3,3,09,32,12,274,32,8*56
$GLGSV,3,1,09,80,47,067,17,73,44,156,44,70,41,018,18,85,31,240,26,1*76
$GLGSV,3,2,09,86,28,295,41,71,24,320,37,69,11,080,13,74,08,186,,1*7B
$GLGSV,3,3,09,79,07,029,28,1*49
$GAGSV,3,1,09,13,52,226,34,07,45,309,43,08,45,030,18,26,34,302,41,7*73
$GAGSV,3,2,09,30,29,140,31,02,27,080,13,15,18,174,18,03,08,068,,7*7A
$GAGSV,3,3,09,25,01,040,,7*48
$GAGSV,2,1,08,13,52,226,37,07,45,309,43,08,45,030,35,26,34,302,40,1*78
$GAGSV,2,2,08,30,29,140,25,02,27,080,21,15,18,174,26,03,08,068,14,1*70
$GBGSV,5,1,17,38,83,136,42,08,82,359,42,13,70,329,44,39,70,290,40,1*72
$GBGSV,5,2,17,16,66,265,40,06,65,260,44,46,61,101,34,19,51,351,46,1*7F
$GBGSV,5,3,17,09,50,243,39,56,47,314,,20,41,069,18,36,40,183,37,1*7D
$GBGSV,5,4,17,31,38,213,,35,20,264,28,37,19,044,30,29,16,208,22,1*7F
$GBGSV,5,5,17,22,14,305,28,1*49
$GBGSV,3,1,09,38,83,136,46,39,70,290,44,46,61,101,17,19,51,351,45,4*71
$GBGSV,3,2,09,36,40,183,40,35,20,264,31,37,19,044,22,29,16,208,18,4*71
$GBGSV,3,3,09,22,14,305,22,4*49
$GNACCURACY,2.4*10
$PAIRSAT,1,35,1,0,200,2,0,200,3,0,200,4,0,200,5,0,201,6,0,200,7,0,200,8,0,200,9,0,200,10,0,221,11,0,200,12,0,201,13,0,201,14,0,200,15,0,201,16,0,200,17,0,200,18,0,221,19,0,200,20,0,200,21,0,200,23,0,221,24,0,221,25,0,200,26,0,200,27,0,200,28,0,200,29,0,200,30,0,200,31,0,200,32,0,221,194,0,621,195,0,621,196,0,620,199,0,621*68
$PAIRSAT,2,24,65,0,200,66,0,200,67,0,200,68,0,200,69,0,201,70,0,201,71,0,201,72,0,200,73,0,201,74,0,200,75,0,200,76,0,200,77,0,200,78,0,200,79,0,201,80,0,201,81,0,200,82,0,200,83,0,200,84,0,200,85,0,201,86,0,201,87,0,200,88,0,200*7A
$PAIRSAT,3,23,2,0,1221,3,0,1221,4,0,1200,5,0,200,7,0,1221,8,0,1221,9,0,1200,10,0,1200,11,0,1200,12,0,1200,13,0,1221,15,0,1221,19,0,1200,21,0,1200,24,0,1200,25,0,1200,26,0,1221,27,0,1200,30,0,1221,31,0,1200,33,0,1200,34,0,1200,36,0,1200*6A
$PAIRSAT,4,50,1,0,200,2,0,200,3,0,200,4,0,200,5,0,200,6,0,201,7,0,200,8,0,201,9,0,201,10,0,200,11,0,200,12,0,200,13,0,201,14,0,200,15,0,200,16,0,201,19,0,621,20,0,621,21,0,600,22,0,621,23,0,600,24,0,600,25,0,600,26,0,600,27,0,600,28,0,600,29,0,621,30,0,600,31,0,200,32,0,600,33,0,600,34,0,600,35,0,621,36,0,621,37,0,621,38,0,621,39,0,621,40,0,600,41,0,600,42,0,600,43,0,600,44,0,600,45,0,600,46,0,621,56,0,200,57,0,200,58,0,200,59,0,600,60,0,600,61,0,600*41
$PAIRDGP,9,5,10,12,15,18,23,24,25,32*5B
$GNGGA,113827.200,2500.8199600,N,12132.4674700,E,2,62,0.45,29.32,M,15.25,M,45,3335*4B
$GNRMC,113827.200,A,2500.8199600,N,12132.4674700,E,0.03,206.39,260623,,,D,V*00
$GPHDT,,T*1B
$GNACCURACY,2.4*10
$GNGGA,113827.300,2500.8199600,N,12132.4674800,E,2,61,0.45,29.31,M,15.25,M,45,3335*45
$GNRMC,113827.300,A,2500.8199600,N,12132.4674800,E,0.03,206.39,260623,,,D,V*0E
$GPHDT,,T*1B
$GNACCURACY,2.4*10
$GNGGA,113827.400,2500.8199500,N,12132.4674700,E,2,61,0.45,29.30,M,15.25,M,45,3335*4F
$GNRMC,113827.400,A,2500.8199500,N,12132.4674700,E,0.02,206.39,260623,,,D,V*04
$GPHDT,,T*1B
$GNACCURACY,2.4*10
$GNGGA,113827.500,2500.8199500,N,12132.4674700,E,2,61,0.45,29.30,M,15.25,M,45,3335*4E
$GNRMC,113827.500,A,2500.8199500,N,12132.4674700,E,0.02,206.39,260623,,,D,V*05
$GPHDT,,T*1B
$GNACCURACY,2.4*10
$GNGGA,113827.600,2500.8199400,N,12132.4674600,E,2,61,0.45,29.30,M,15.25,M,45,3335*4D
$GNRMC,113827.600,A,2500.8199400,N,12132.4674600,E,0.02,206.39,260623,,,D,V*06
$GPHDT,,T*1B
$GNACCURACY,2.4*10
$GNGGA,113827.700,2500.8199400,N,12132.4674600,E,2,61,0.45,29.29,M,15.25,M,45,3335*44
$GNRMC,113827.700,A,2500.8199400,N,12132.4674600,E,0.02,206.39,260623,,,D,V*07
$GPHDT,,T*1B
$GNACCURACY,2.4*10
$GNGGA,113827.800,2500.8199300,N,12132.4674600,E,2,61,0.45,29.29,M,15.25,M,45,3335*4C
$GNRMC,113827.800,A,2500.8199300,N,12132.4674600,E,0.01,206.39,260623,,,D,V*0C
$GPHDT,,T*1B
$GNACCURACY,2.4*10
$GNGGA,113827.900,2500.8199200,N,12132.4674600,E,2,61,0.45,29.29,M,15.25,M,45,3335*4C
$GNRMC,113827.900,A,2500.8199200,N,12132.4674600,E,0.02,206.39,260623,,,D,V*0F
$GPHDT,,T*1B
$GNACCURACY,2.4*10
$GNGGA,113828.000,2500.8199200,N,12132.4674500,E,2,62,0.45,29.29,M,15.25,M,46,3335*49
$GNRMC,113828.000,A,2500.8199200,N,12132.4674500,E,0.00,206.39,260623,,,D,V*08
$GPHDT,,T*1B
$GNACCURACY,2.4*10
$GNGGA,113828.100,2500.8199200,N,12132.4674400,E,2,62,0.45,29.29,M,15.25,M,46,3335*49
$GNRMC,113828.100,A,2500.8199200,N,12132.4674400,E,0.01,206.39,260623,,,D,V*09
$GPHDT,,T*1B
$GNGSA,A,3,24,199,23,18,15,194,195,12,10,05,32,196,0.72,0.45,0.56,1*04
$GNGSA,A,3,73,70,85,86,71,,,,,,,,0.72,0.45,0.56,2*03
$GNGSA,A,3,13,07,08,26,30,02,15,,,,,,0.72,0.45,0.56,3*08
$GNGSA,A,3,38,08,13,39,16,06,46,19,09,20,36,35,0.72,0.45,0.56,4*0B
$GNGSA,A,3,37,29,22,,,,,,,,,,0.72,0.45,0.56,4*0C
$GPGSV,4,1,15,196,75,068,20,24,68,037,32,199,60,167,36,23,56,342,38,1*66
$GPGSV,4,2,15,18,55,236,42,41,38,242,32,15,34,052,27,194,33,137,39,1*57
$GPGSV,4,3,15,195,32,180,26,12,24,137,29,10,22,321,36,05,15,123,26,1*5C
$GPGSV,4,4,15,25,13,173,23,32,12,274,34,13,05,061,,1*55
$GPGSV,3,1,10,196,75,068,37,24,68,037,35,199,60,167,44,23,56,342,36,8*67
$GPGSV,3,2,10,18,55,236,42,194,33,137,41,195,32,180,36,10,22,321,31,8*6A
$GPGSV,3,3,10,25,13,173,25,32,12,274,32,8*69
$GLGSV,2,1,08,80,47,066,17,73,44,156,44,70,41,018,18,85,31,240,26,1*77
$GLGSV,2,2,08,86,28,295,41,71,24,320,37,69,11,080,13,79,07,029,28,1*77
$GAGSV,3,1,09,13,52,226,34,07,45,309,43,08,45,030,18,26,34,302,41,7*73
$GAGSV,3,2,09,30,29,140,30,02,27,080,14,15,18,174,18,03,08,068,,7*7C
$GAGSV,3,3,09,25,01,040,,7*48
$GAGSV,2,1,08,13,52,226,39,07,45,309,43,08,45,030,35,26,34,302,40,1*76
$GAGSV,2,2,08,30,29,140,22,02,27,080,22,15,18,174,27,03,08,068,15,1*74
$GBGSV,4,1,16,38,83,136,42,08,82,359,42,13,70,329,44,39,70,290,40,1*72
$GBGSV,4,2,16,16,66,265,40,06,65,260,44,46,61,101,34,19,51,351,46,1*7F
$GBGSV,4,3,16,09,50,243,39,20,41,069,18,36,40,183,41,31,38,213,,1*73
$GBGSV,4,4,16,35,20,264,26,37,19,044,32,29,16,208,22,22,14,305,29,1*72
$GBGSV,3,1,10,38,83,136,46,39,70,290,45,46,61,101,20,19,51,351,44,4*7D
$GBGSV,3,2,10,20,41,069,16,36,40,183,43,35,20,264,31,37,19,044,23,4*7B
$GBGSV,3,3,10,29,16,208,22,22,14,305,25,4*70
$GNACCURACY,2.4*10
$PAIRSAT,1,35,1,0,200,2,0,200,3,0,200,4,0,200,5,0,201,6,0,200,7,0,200,8,0,200,9,0,200,10,0,221,11,0,200,12,0,201,13,0,201,14,0,200,15,0,201,16,0,200,17,0,200,18,0,221,19,0,200,20,0,200,21,0,200,23,0,221,24,0,221,25,0,200,26,0,200,27,0,200,28,0,200,29,0,200,30,0,200,31,0,200,32,0,221,194,0,621,195,0,621,196,0,620,199,0,621*68
$PAIRSAT,2,24,65,0,200,66,0,200,67,0,200,68,0,200,69,0,201,70,0,201,71,0,201,72,0,200,73,0,201,74,0,200,75,0,200,76,0,200,77,0,200,78,0,200,79,0,201,80,0,201,81,0,200,82,0,200,83,0,200,84,0,200,85,0,201,86,0,201,87,0,200,88,0,200*7A
$PAIRSAT,3,23,2,0,1221,3,0,1221,4,0,1200,5,0,200,7,0,1221,8,0,1221,9,0,1200,10,0,1200,11,0,1200,12,0,1200,13,0,1221,15,0,1221,19,0,1200,21,0,1200,24,0,1200,25,0,1200,26,0,1221,27,0,1200,30,0,1221,31,0,1200,33,0,1200,34,0,1200,36,0,1200*6A
$PAIRSAT,4,50,1,0,200,2,0,200,3,0,200,4,0,200,5,0,200,6,0,201,7,0,200,8,0,201,9,0,201,10,0,200,11,0,200,12,0,200,13,0,201,14,0,200,15,0,200,16,0,201,19,0,621,20,0,621,21,0,600,22,0,621,23,0,600,24,0,600,25,0,600,26,0,600,27,0,600,28,0,600,29,0,621,30,0,600,31,0,200,32,0,600,33,0,600,34,0,600,35,0,621,36,0,621,37,0,621,38,0,621,39,0,621,40,0,600,41,0,600,42,0,600,43,0,600,44,0,600,45,0,600,46,0,621,56,0,200,57,0,200,58,0,200,59,0,600,60,0,600,61,0,600*41
$PAIRDGP,9,5,10,12,15,18,23,24,25,32*5B
$GNGGA,113828.200,2500.8199100,N,12132.4674300,E,2,62,0.45,29.29,M,15.25,M,46,3335*4E
$GNRMC,113828.200,A,2500.8199100,N,12132.4674300,E,0.02,206.39,260623,,,D,V*0D
$GPHDT,,T*1B
$GNACCURACY,2.4*10
$GNGGA,113828.300,2500.8199100,N,12132.4674300,E,2,62,0.45,29.29,M,15.25,M,46,3335*4F
$GNRMC,113828.300,A,2500.8199100,N,12132.4674300,E,0.01,206.39,260623,,,D,V*0F
$GPHDT,,T*1B
$GNACCURACY,2.4*10
$GNGGA,113828.400,2500.8199000,N,12132.4674200,E,2,62,0.45,29.28,M,15.25,M,46,3335*49
$GNRMC,113828.400,A,2500.8199000,N,12132.4674200,E,0.02,206.39,260623,,,D,V*0B
$GPHDT,,T*1B
$GNACCURACY,2.4*10
$GNGGA,113828.500,2500.8198900,N,12132.4674200,E,2,62,0.45,29.28,M,15.25,M,46,3335*40
$GNRMC,113828.500,A,2500.8198900,N,12132.4674200,E,0.02,206.39,260623,,,D,V*02
$GPHDT,,T*1B
$GNACCURACY,2.4*10
$GNGGA,113828.600,2500.8198900,N,12132.4674200,E,2,62,0.45,29.28,M,15.25,M,46,3335*43
$GNRMC,113828.600,A,2500.8198900,N,12132.4674200,E,0.02,206.39,260623,,,D,V*01
$GPHDT,,T*1B
$GNACCURACY,2.4*10
$GNGGA,113828.700,2500.8198900,N,12132.4674200,E,2,62,0.45,29.28,M,15.25,M,46,3335*42
$GNRMC,113828.700,A,2500.8198900,N,12132.4674200,E,0.02,206.39,260623,,,D,V*00
$GPHDT,,T*1B
$GNACCURACY,2.4*10
$GNGGA,113828.800,2500.8198900,N,12132.4674200,E,2,62,0.45,29.28,M,15.25,M,46,3335*4D
$GNRMC,113828.800,A,2500.8198900,N,12132.4674200,E,0.01,206.39,260623,,,D,V*0C
$GPHDT,,T*1B
$GNACCURACY,2.4*10
$GNGGA,113828.900,2500.8198900,N,12132.4674100,E,2,62,0.45,29.28,M,15.25,M,46,3335*4F
$GNRMC,113828.900,A,2500.8198900,N,12132.4674100,E,0.01,206.39,260623,,,D,V*0E
$GPHDT,,T*1B
$GNACCURACY,2.4*10
$GNGGA,113829.000,2500.8198900,N,12132.4674100,E,2,62,0.45,29.27,M,15.25,M,47,3335*49
$GNRMC,113829.000,A,2500.8198900,N,12132.4674100,E,0.01,206.39,260623,,,D,V*06
$GPHDT,,T*1B
$GNACCURACY,2.4*10
$GNGGA,113829.100,2500.8198900,N,12132.4674000,E,2,62,0.45,29.27,M,15.25,M,47,3335*49
$GNRMC,113829.100,A,2500.8198900,N,12132.4674000,E,0.02,206.39,260623,,,D,V*05
$GPHDT,,T*1B
$GNGSA,A,3,24,199,23,18,15,194,195,12,10,05,32,196,0.72,0.45,0.56,1*04
$GNGSA,A,3,73,70,85,86,71,,,,,,,,0.72,0.45,0.56,2*03
$GNGSA,A,3,13,08,07,26,30,02,15,,,,,,0.72,0.45,0.56,3*08
$GNGSA,A,3,38,08,13,39,16,06,46,19,09,20,36,35,0.72,0.45,0.56,4*0B
$GNGSA,A,3,37,29,22,,,,,,,,,,0.72,0.45,0.56,4*0C
$GPGSV,4,1,15,196,75,068,20,24,68,037,32,199,60,167,37,23,56,342,38,1*67
$GPGSV,4,2,15,18,55,236,42,41,38,242,31,15,34,052,28,194,33,137,40,1*55
$GPGSV,4,3,15,195,32,180,31,12,24,137,29,10,22,321,36,05,15,123,26,1*5A
$GPGSV,4,4,15,25,13,173,23,32,12,274,34,13,05,061,,1*55
$GPGSV,3,1,10,196,75,068,37,24,68,037,34,199,60,167,45,23,56,342,36,8*67
$GPGSV,3,2,10,18,55,236,42,194,33,137,41,195,32,180,36,10,22,321,29,8*63
$GPGSV,3,3,10,25,13,173,24,32,12,274,32,8*68
$GLGSV,2,1,08,80,47,066,17,73,44,156,44,70,41,018,17,85,31,240,27,1*79
$GLGSV,2,2,08,86,28,295,41,71,24,320,37,69,11,080,14,79,07,029,28,1*70
$GAGSV,3,1,09,13,52,226,33,08,45,030,18,07,45,309,43,26,34,302,41,7*74
$GAGSV,3,2,09,30,29,140,31,02,27,080,13,15,18,174,18,03,08,068,,7*7A
$GAGSV,3,3,09,25,01,040,,7*48
$GAGSV,2,1,08,13,52,226,36,07,45,309,43,08,45,030,34,26,34,302,40,1*78
$GAGSV,2,2,08,30,29,140,23,02,27,080,23,15,18,174,27,03,08,068,14,1*75
$GBGSV,4,1,15,38,83,136,42,08,82,359,42,13,70,329,44,39,70,290,40,1*71
$GBGSV,4,2,15,16,66,265,40,06,65,260,44,46,61,101,34,19,51,351,46,1*7C
$GBGSV,4,3,15,09,50,243,39,20,41,069,18,36,40,183,41,35,20,264,25,1*7A
$GBGSV,4,4,15,37,19,044,32,29,16,208,25,22,14,305,28,1*47
$GBGSV,3,1,10,38,83,136,46,39,70,290,45,46,61,101,18,19,51,351,44,4*76
$GBGSV,3,2,10,20,41,069,16,36,40,183,44,35,20,264,30,37,19,044,20,4*7E
$GBGSV,3,3,10,29,16,208,26,22,14,305,25,4*74
$GNACCURACY,2.4*10
$PAIRSAT,1,35,1,0,200,2,0,200,3,0,200,4,0,200,5,0,201,6,0,200,7,0,200,8,0,200,9,0,200,10,0,221,11,0,200,12,0,201,13,0,201,14,0,200,15,0,201,16,0,200,17,0,200,18,0,221,19,0,200,20,0,200,21,0,200,23,0,221,24,0,221,25,0,200,26,0,200,27,0,200,28,0,200,29,0,200,30,0,200,31,0,200,32,0,221,194,0,621,195,0,621,196,0,620,199,0,621*68
$PAIRSAT,2,24,65,0,200,66,0,200,67,0,200,68,0,200,69,0,201,70,0,201,71,0,201,72,0,200,73,0,201,74,0,200,75,0,200,76,0,200,77,0,200,78,0,200,79,0,201,80,0,201,81,0,200,82,0,200,83,0,200,84,0,200,85,0,201,86,0,201,87,0,200,88,0,200*7A
$PAIRSAT,3,23,2,0,1221,3,0,1221,4,0,1200,5,0,200,7,0,1221,8,0,1221,9,0,1200,10,0,1200,11,0,1200,12,0,1200,13,0,1221,15,0,1221,19,0,1200,21,0,1200,24,0,1200,25,0,1200,26,0,1221,27,0,1200,30,0,1221,31,0,1200,33,0,1200,34,0,1200,36,0,1200*6A
$PAIRSAT,4,50,1,0,200,2,0,200,3,0,200,4,0,200,5,0,200,6,0,201,7,0,200,8,0,201,9,0,201,10,0,200,11,0,200,12,0,200,13,0,201,14,0,200,15,0,200,16,0,201,19,0,621,20,0,621,21,0,600,22,0,621,23,0,600,24,0,600,25,0,600,26,0,600,27,0,600,28,0,600,29,0,621,30,0,600,31,0,200,32,0,600,33,0,600,34,0,600,35,0,621,36,0,621,37,0,621,38,0,621,39,0,621,40,0,600,41,0,600,42,0,600,43,0,600,44,0,600,45,0,600,46,0,621,56,0,200,57,0,200,58,0,200,59,0,600,60,0,600,61,0,600*41
$PAIRDGP,9,5,10,12,15,18,23,24,25,32*5B
$GNGGA,113829.200,2500.8199000,N,12132.4674100,E,2,64,0.45,29.27,M,15.25,M,47,3335*45
$GNRMC,113829.200,A,2500.8199000,N,12132.4674100,E,0.02,206.39,260623,,,D,V*0F
$GPHDT,,T*1B
$GNACCURACY,2.4*10
$GNGGA,113829.300,2500.8199000,N,12132.4674100,E,2,62,0.46,29.27,M,15.25,M,47,3335*41
$GNRMC,113829.300,A,2500.8199000,N,12132.4674100,E,0.03,206.39,260623,,,D,V*0F
$GPHDT,,T*1B
$GNACCURACY,2.4*10
$GNGGA,113829.400,2500.8199000,N,12132.4674100,E,2,65,0.44,29.26,M,15.25,M,47,3335*42
$GNRMC,113829.400,A,2500.8199000,N,12132.4674100,E,0.02,206.39,260623,,,D,V*09
$GPHDT,,T*1B
$GNACCURACY,2.4*10
$GNGGA,113829.500,2500.8199100,N,12132.4674100,E,2,65,0.44,29.26,M,15.25,M,47,3335*42
$GNRMC,113829.500,A,2500.8199100,N,12132.4674100,E,0.02,206.39,260623,,,D,V*09
$GPHDT,,T*1B
$GNACCURACY,2.4*10
$GNGGA,113829.600,2500.8199100,N,12132.4674200,E,2,66,0.44,29.26,M,15.25,M,47,3335*41
$GNRMC,113829.600,A,2500.8199100,N,12132.4674200,E,0.02,206.39,260623,,,D,V*09
$GPHDT,,T*1B
$GNACCURACY,2.4*10
$GNGGA,113829.700,2500.8199100,N,12132.4674200,E,2,66,0.44,29.26,M,15.25,M,47,3335*40
$GNRMC,113829.700,A,2500.8199100,N,12132.4674200,E,0.02,206.39,260623,,,D,V*08
$GPHDT,,T*1B
$GNACCURACY,2.4*10
$GNGGA,113829.800,2500.8199100,N,12132.4674200,E,2,66,0.44,29.25,M,15.25,M,47,3335*4C
$GNRMC,113829.800,A,2500.8199100,N,12132.4674200,E,0.03,206.39,260623,,,D,V*06
$GPHDT,,T*1B
$GNACCURACY,2.4*10
$GNGGA,113829.900,2500.8199100,N,12132.4674200,E,2,66,0.44,29.25,M,15.25,M,47,3335*4D
$GNRMC,113829.900,A,2500.8199100,N,12132.4674200,E,0.03,206.39,260623,,,D,V*07
$GPHDT,,T*1B
$GNACCURACY,2.4*10
$GNGGA,113830.000,2500.8199100,N,12132.4674200,E,2,66,0.44,29.25,M,15.25,M,48,3335*43
$GNRMC,113830.000,A,2500.8199100,N,12132.4674200,E,0.03,206.39,260623,,,D,V*06
$GPHDT,,T*1B
$GNACCURACY,2.4*10
$GNGGA,113830.100,2500.8199100,N,12132.4674200,E,2,64,0.45,29.25,M,15.25,M,48,3335*41
$GNRMC,113830.100,A,2500.8199100,N,12132.4674200,E,0.02,206.39,260623,,,D,V*06
$GPHDT,,T*1B
$GNGSA,A,3,24,199,23,18,15,194,195,12,10,05,32,196,0.71,0.44,0.56,1*06
$GNGSA,A,3,80,73,70,85,86,71,,,,,,,0.71,0.44,0.56,2*09
$GNGSA,A,3,13,08,07,26,30,02,15,,,,,,0.71,0.44,0.56,3*0A
$GNGSA,A,3,38,08,13,39,16,06,46,19,09,20,36,35,0.71,0.44,0.56,4*09
$GNGSA,A,3,37,29,22,,,,,,,,,,0.71,0.44,0.56,4*0E
$GPGSV,4,1,15,196,75,068,22,24,68,037,32,199,60,167,37,23,56,342,38,1*65
$GPGSV,4,2,15,18,55,236,42,41,38,242,31,15,34,052,26,194,33,137,40,1*5B
$GPGSV,4,3,15,195,32,180,32,12,24,137,30,10,22,321,36,05,15,123,26,1*51
$GPGSV,4,4,15,25,13,173,24,32,12,274,34,13,05,061,,1*52
$GPGSV,3,1,10,196,75,068,37,24,68,037,34,199,60,167,45,23,56,342,36,8*67
$GPGSV,3,2,10,18,55,236,42,194,33,137,41,195,32,180,37,10,22,321,29,8*62
$GPGSV,3,3,10,25,13,173,24,32,12,274,31,8*6B
$GLGSV,2,1,08,80,47,066,17,73,44,156,44,70,41,018,15,85,31,240,29,1*75
$GLGSV,2,2,08,86,28,295,41,71,24,320,37,69,11,080,15,79,07,029,28,1*71
$GAGSV,3,1,09,13,52,226,33,08,45,030,18,07,45,309,43,26,34,302,41,7*74
$GAGSV,3,2,09,30,29,140,31,02,27,080,14,15,18,174,18,03,08,068,,7*7D
$GAGSV,3,3,09,25,01,040,,7*48
$GAGSV,2,1,08,13,52,226,37,07,45,309,43,08,45,030,34,26,34,302,40,1*79
$GAGSV,2,2,08,30,29,140,25,02,27,080,22,15,18,174,27,03,08,068,17,1*71
$GBGSV,4,1,15,38,83,136,42,08,82,359,42,13,70,329,44,39,70,290,40,1*71
$GBGSV,4,2,15,16,66,265,40,06,65,260,44,46,61,101,34,19,51,351,46,1*7C
$GBGSV,4,3,15,09,50,243,39,20,41,069,19,36,40,183,41,35,20,264,26,1*78
$GBGSV,4,4,15,37,19,044,31,29,16,208,25,22,14,305,28,1*44
$GBGSV,3,1,10,38,83,136,46,39,70,290,45,46,61,101,20,19,51,351,44,4*7D
$GBGSV,3,2,10,20,41,069,15,36,40,183,44,35,20,264,30,37,19,044,21,4*7C
$GBGSV,3,3,10,29,16,208,25,22,14,305,25,4*77
$GNACCURACY,2.4*10
$PAIRSAT,1,35,1,0,200,2,0,200,3,0,200,4,0,200,5,0,201,6,0,200,7,0,200,8,0,200,9,0,200,10,0,221,11,0,200,12,0,201,13,0,201,14,0,200,15,0,201,16,0,200,17,0,200,18,0,221,19,0,200,20,0,200,21,0,200,23,0,221,24,0,221,25,0,200,26,0,200,27,0,200,28,0,200,29,0,200,30,0,200,31,0,200,32,0,221,194,0,621,195,0,621,196,0,620,199,0,621*68
$PAIRSAT,2,24,65,0,200,66,0,200,67,0,200,68,0,200,69,0,201,70,0,201,71,0,201,72,0,200,73,0,201,74,0,200,75,0,200,76,0,200,77,0,200,78,0,200,79,0,201,80,0,201,81,0,200,82,0,200,83,0,200,84,0,200,85,0,201,86,0,201,87,0,200,88,0,200*7A
$PAIRSAT,3,23,2,0,1221,3,0,1221,4,0,1200,5,0,200,7,0,1221,8,0,1221,9,0,1200,10,0,1200,11,0,1200,12,0,1200,13,0,1221,15,0,1221,19,0,1200,21,0,1200,24,0,1200,25,0,1200,26,0,1221,27,0,1200,30,0,1221,31,0,1200,33,0,1200,34,0,1200,36,0,1200*6A
$PAIRSAT,4,50,1,0,200,2,0,200,3,0,200,4,0,200,5,0,200,6,0,201,7,0,200,8,0,201,9,0,201,10,0,200,11,0,200,12,0,200,13,0,201,14,0,200,15,0,200,16,0,201,19,0,621,20,0,621,21,0,600,22,0,621,23,0,600,24,0,600,25,0,600,26,0,600,27,0,600,28,0,600,29,0,621,30,0,600,31,0,200,32,0,600,33,0,600,34,0,600,35,0,621,36,0,621,37,0,621,38,0,621,39,0,621,40,0,600,41,0,600,42,0,600,43,0,600,44,0,600,45,0,600,46,0,621,56,0,200,57,0,200,58,0,200,59,0,600,60,0,600,61,0,600*41
$PAIRDGP,9,5,10,12,15,18,23,24,25,32*5B
$GNGGA,113830.200,2500.8199100,N,12132.4674200,E,2,65,0.44,29.25,M,15.25,M,48,3335*42
$GNRMC,113830.200,A,2500.8199100,N,12132.4674200,E,0.02,206.39,260623,,,D,V*05
$GPHDT,,T*1B
$GNACCURACY,2.5*11
$GNGGA,113830.300,2500.8199100,N,12132.4674200,E,2,63,0.45,29.25,M,15.25,M,48,3335*44
$GNRMC,113830.300,A,2500.8199100,N,12132.4674200,E,0.02,206.39,260623,,,D,V*04
$GPHDT,,T*1B
$GNACCURACY,2.5*11
$GNGGA,113830.400,2500.8199100,N,12132.4674200,E,2,66,0.44,29.24,M,15.25,M,48,3335*46
$GNRMC,113830.400,A,2500.8199100,N,12132.4674200,E,0.02,206.39,260623,,,D,V*03
$GPHDT,,T*1B
$GNACCURACY,2.4*10
$GNGGA,113830.500,2500.8199100,N,12132.4674200,E,2,66,0.44,29.24,M,15.25,M,48,3335*47
$GNRMC,113830.500,A,2500.8199100,N,12132.4674200,E,0.02,206.39,260623,,,D,V*02
$GPHDT,,T*1B
$GNACCURACY,2.4*10
$GNGGA,113830.600,2500.8199100,N,12132.4674200,E,2,66,0.44,29.23,M,15.25,M,48,3335*43
$GNRMC,113830.600,A,2500.8199100,N,12132.4674200,E,0.03,206.39,260623,,,D,V*00
$GPHDT,,T*1B
$GNACCURACY,2.4*10
$GNGGA,113830.700,2500.8199100,N,12132.4674200,E,2,65,0.45,29.23,M,15.25,M,48,3335*40
$GNRMC,113830.700,A,2500.8199100,N,12132.4674200,E,0.01,206.39,260623,,,D,V*03
$GPHDT,,T*1B
$GNACCURACY,2.4*10
$GNGGA,113830.800,2500.8199100,N,12132.4674200,E,2,64,0.45,29.23,M,15.25,M,48,3335*4E
$GNRMC,113830.800,A,2500.8199100,N,12132.4674200,E,0.01,206.39,260623,,,D,V*0C
$GPHDT,,T*1B
$GNACCURACY,2.5*11
$GNGGA,113830.900,2500.8199000,N,12132.4674100,E,2,64,0.45,29.23,M,15.25,M,48,3335*4D
$GNRMC,113830.900,A,2500.8199000,N,12132.4674100,E,0.01,206.39,260623,,,D,V*0F
$GPHDT,,T*1B
$GNACCURACY,2.5*11
$GNGGA,113831.000,2500.8199000,N,12132.4674100,E,2,64,0.45,29.22,M,15.25,M,49,3335*45
$GNRMC,113831.000,A,2500.8199000,N,12132.4674100,E,0.00,206.39,260623,,,D,V*06
$GPHDT,,T*1B
$GNACCURACY,2.4*10
$GNGGA,113831.100,2500.8198900,N,12132.4674000,E,2,64,0.44,29.22,M,15.25,M,49,3335*4C
$GNRMC,113831.100,A,2500.8198900,N,12132.4674000,E,0.00,206.39,260623,,,D,V*0E
$GPHDT,,T*1B
$GNGSA,A,3,24,199,23,18,15,194,195,12,10,05,32,196,0.71,0.44,0.56,1*06
$GNGSA,A,3,80,73,70,85,86,71,,,,,,,0.71,0.44,0.56,2*09
$GNGSA,A,3,13,07,08,26,30,02,15,,,,,,0.71,0.44,0.56,3*0A
$GNGSA,A,3,38,08,13,39,16,06,46,19,09,20,36,35,0.71,0.44,0.56,4*09
$GNGSA,A,3,37,29,22,,,,,,,,,,0.71,0.44,0.56,4*0E
$GPGSV,4,1,15,196,75,068,21,24,68,037,33,199,60,167,37,23,56,342,38,1*67
$GPGSV,4,2,15,18,55,236,42,41,38,242,31,15,34,052,26,194,33,137,39,1*55
$GPGSV,4,3,15,195,32,180,24,12,24,137,31,10,22,321,37,05,15,123,25,1*55
$GPGSV,4,4,15,25,13,173,24,32,12,274,34,13,05,061,,1*52
$GPGSV,3,1,10,196,75,068,37,24,68,037,35,199,60,167,45,23,56,342,36,8*66
$GPGSV,3,2,10,18,55,236,41,194,33,137,42,195,32,180,35,10,22,321,29,8*60
$GPGSV,3,3,10,25,13,173,25,32,12,274,32,8*69
$GLGSV,2,1,08,80,47,066,19,73,44,156,44,70,41,018,15,85,31,240,29,1*7B
$GLGSV,2,2,08,86,28,295,41,71,24,320,36,69,11,080,13,79,07,029,28,1*76
$GAGSV,3,1,09,13,52,226,33,07,45,309,43,08,45,030,18,26,34,302,41,7*74
$GAGSV,3,2,09,30,29,140,30,02,27,080,14,15,18,174,18,03,08,068,,7*7C
$GAGSV,3,3,09,25,01,040,,7*48
$GAGSV,2,1,08,13,52,226,38,07,45,309,43,08,45,030,34,26,34,302,40,1*76
$GAGSV,2,2,08,30,29,140,26,02,27,080,21,15,18,174,27,03,08,068,16,1*70
$GBGSV,4,1,16,38,83,136,42,08,82,359,42,13,70,329,44,39,70,290,40,1*72
$GBGSV,4,2,16,16,66,265,40,06,65,260,44,46,61,101,34,19,51,351,46,1*7F
$GBGSV,4,3,16,09,50,243,39,20,41,069,19,36,40,183,41,35,20,264,26,1*7B
$GBGSV,4,4,16,37,19,044,31,29,16,208,20,22,14,305,28,07,05,191,,1*79
$GBGSV,3,1,10,38,83,136,46,39,70,290,45,46,61,101,20,19,51,351,44,4*7D
$GBGSV,3,2,10,20,41,069,14,36,40,183,43,35,20,264,29,37,19,044,21,4*72
$GBGSV,3,3,10,29,16,208,24,22,14,305,25,4*76
$GNACCURACY,2.4*10
$PAIRSAT,1,35,1,0,200,2,0,200,3,0,200,4,0,200,5,0,201,6,0,200,7,0,200,8,0,200,9,0,200,10,0,221,11,0,200,12,0,201,13,0,201,14,0,200,15,0,201,16,0,200,17,0,200,18,0,221,19,0,200,20,0,200,21,0,200,23,0,221,24,0,221,25,0,200,26,0,200,27,0,200,28,0,200,29,0,200,30,0,200,31,0,200,32,0,221,194,0,621,195,0,621,196,0,620,199,0,621*68
$PAIRSAT,2,24,65,0,200,66,0,200,67,0,200,68,0,200,69,0,201,70,0,201,71,0,201,72,0,200,73,0,201,74,0,200,75,0,200,76,0,200,77,0,200,78,0,200,79,0,201,80,0,201,81,0,200,82,0,200,83,0,200,84,0,200,85,0,201,86,0,201,87,0,200,88,0,200*7A
$PAIRSAT,3,23,2,0,1221,3,0,1221,4,0,1200,5,0,200,7,0,1221,8,0,1221,9,0,1200,10,0,1200,11,0,1200,12,0,1200,13,0,1221,15,0,1221,19,0,1200,21,0,1200,24,0,1200,25,0,1200,26,0,1221,27,0,1200,30,0,1221,31,0,1200,33,0,1200,34,0,1200,36,0,1200*6A
$PAIRSAT,4,50,1,0,200,2,0,200,3,0,200,4,0,200,5,0,200,6,0,201,7,0,200,8,0,201,9,0,201,10,0,200,11,0,200,12,0,200,13,0,201,14,0,200,15,0,200,16,0,201,19,0,621,20,0,621,21,0,600,22,0,621,23,0,600,24,0,600,25,0,600,26,0,600,27,0,600,28,0,600,29,0,621,30,0,600,31,0,200,32,0,600,33,0,600,34,0,600,35,0,621,36,0,621,37,0,621,38,0,621,39,0,621,40,0,600,41,0,600,42,0,600,43,0,600,44,0,600,45,0,600,46,0,621,56,0,200,57,0,200,58,0,200,59,0,600,60,0,600,61,0,600*41
$PAIRDGP,9,5,10,12,15,18,23,24,25,32*5B
$GNGGA,113831.200,2500.