$FW : RTK35X,V1.1X0314AS,Lib20210517,1*54
$Tool : LOCOSYS , GNSS Firebird , v1.0.0.19*39
$---------------------------------------------------*2D
4,10,23,321,40,05,14,124,16,1*56
$GPGSV,4,4,15,25,14,173,23,32,12,275,35,13,05,062,13,1*53
$GPGSV,3,1,10,196,75,069,39,24,67,036,33,199,60,167,46,23,57,343,39,8*6D
$GPGSV,3,2,10,18,55,234,43,194,33,137,36,195,31,179,32,10,23,321,31,8*69
$GPGSV,3,3,10,25,14,173,22,32,12,275,39,8*63
$GLGSV,2,1,08,80,47,064,21,73,46,155,44,70,41,020,,85,30,238,26,1*7D
$GLGSV,2,2,08,86,28,293,45,71,25,321,26,69,10,081,19,79,06,028,18,1*7C
$GAGSV,3,1,09,13,51,225,39,07,45,310,42,08,44,032,20,26,34,301,41,7*7C
$GAGSV,3,2,09,30,30,139,31,02,27,079,17,15,17,173,24,03,08,069,12,7*7B
$GAGSV,3,3,09,25,01,039,,7*46
$GAGSV,2,1,07,13,51,225,43,07,45,310,46,08,44,032,20,26,34,301,45,1*78
$GAGSV,2,2,07,30,30,139,33,02,27,079,21,15,17,173,26,1*40
$GBGSV,4,1,15,08,83,357,40,38,82,142,44,13,71,328,43,39,70,292,43,1*7E
$GBGSV,4,2,15,16,66,267,42,06,65,262,41,46,62,098,24,19,52,353,46,1*79
$GBGSV,4,3,15,09,50,244,38,36,41,183,46,20,41,071,18,35,19,262,31,1*7A
$GBGSV,4,4,15,37,18,044,24,22,15,306,31,29,15,207,18,1*49
$GBGSV,2,1,08,38,82,142,47,39,70,292,44,46,62,098,36,19,52,353,42,4*77
$GBGSV,2,2,08,20,41,071,20,36,41,183,44,22,15,306,38,29,15,207,26,4*76
$GNACCURACY,3.0*15
$PAIRSAT,1,35,1,0,200,2,0,200,3,0,200,4,0,200,5,0,201,6,0,200,7,0,200,8,0,200,9,0,200,10,0,221,11,0,200,12,0,201,13,0,201,14,0,200,15,0,201,16,0,200,17,0,200,18,0,221,19,0,200,20,0,200,21,0,200,23,0,221,24,0,221,25,0,200,26,0,200,27,0,200,28,0,200,29,0,200,30,0,200,31,0,200,32,0,221,194,0,621,195,0,621,196,0,620,199,0,621*68
$PAIRSAT,2,24,65,0,200,66,0,200,67,0,200,68,0,200,69,0,201,70,0,201,71,0,201,72,0,200,73,0,201,74,0,200,75,0,200,76,0,200,77,0,200,78,0,200,79,0,201,80,0,201,81,0,200,82,0,200,83,0,200,84,0,200,85,0,201,86,0,201,87,0,200,88,0,200*7A
$PAIRSAT,3,23,2,0,1221,3,0,1221,4,0,1200,5,0,200,7,0,1221,8,0,1221,9,0,1200,10,0,1200,11,0,1200,12,0,1200,13,0,1221,15,0,1221,19,0,1200,21,0,1200,24,0,1200,25,0,1200,26,0,1221,27,0,1200,30,0,1221,31,0,1200,33,0,1200,34,0,1200,36,0,1200*6A
$PAIRSAT,4,50,1,0,200,2,0,200,3,0,200,4,0,200,5,0,200,6,0,201,7,0,200,8,0,201,9,0,201,10,0,200,11,0,200,12,0,200,13,0,201,14,0,200,15,0,200,16,0,201,19,0,621,20,0,621,21,0,600,22,0,621,23,0,600,24,0,600,25,0,600,26,0,600,27,0,600,28,0,600,29,0,621,30,0,600,31,0,200,32,0,600,33,0,600,34,0,600,35,0,621,36,0,621,37,0,621,38,0,621,39,0,621,40,0,600,41,0,600,42,0,600,43,0,600,44,0,600,45,0,600,46,0,621,56,0,200,57,0,200,58,0,200,59,0,600,60,0,600,61,0,600*41
$PAIRDGP,9,5,10,12,15,18,23,24,25,32*5B
$GNGGA,114133.200,2500.8187140,N,12132.4649375,E,4,63,0.45,16.086,M,15.25,M,1,3335*40
$GNRMC,114133.200,A,2500.8187140,N,12132.4649375,E,0.01,206.39,260623,,,R,V*1B
$GPHDT,182.270,T*3B
$GNACCURACY,3.0*15
$GNGGA,114133.300,2500.8187121,N,12132.4649491,E,4,63,0.45,16.044,M,15.25,M,1,3335*45
$GNRMC,114133.300,A,2500.8187121,N,12132.4649491,E,0.00,206.39,260623,,,R,V*11
$GPHDT,,T*1B
$GNACCURACY,3.0*15
$GNGGA,114133.400,2500.8187121,N,12132.4649502,E,4,64,0.43,16.038,M,15.25,M,1,3335*43
$GNRMC,114133.400,A,2500.8187121,N,12132.4649502,E,0.00,206.39,260623,,,R,V*1D
$GPHDT,181.926,T*30
$GNACCURACY,3.0*15
$GNGGA,114133.500,2500.8187138,N,12132.4649381,E,4,64,0.43,16.075,M,15.25,M,1,3335*4E
$GNRMC,114133.500,A,2500.8187138,N,12132.4649381,E,0.00,206.39,260623,,,R,V*19
$GPHDT,,T*1B
$GNACCURACY,3.0*15
$GNGGA,114133.600,2500.8187135,N,12132.4649378,E,4,64,0.43,16.079,M,15.25,M,1,3335*4A
$GNRMC,114133.600,A,2500.8187135,N,12132.4649378,E,0.00,206.39,260623,,,R,V*11
$GPHDT,181.969,T*3B
$GNACCURACY,3.1*14
$GNGGA,114133.700,2500.8187123,N,12132.4649478,E,4,63,0.45,16.046,M,15.25,M,1,3335*46
$GNRMC,114133.700,A,2500.8187123,N,12132.4649478,E,0.01,206.39,260623,,,R,V*11
$GPHDT,,T*1B
$GNACCURACY,3.0*15
$GNGGA,114133.800,2500.8187111,N,12132.4649489,E,4,64,0.43,16.042,M,15.25,M,1,3335*43
$GNRMC,114133.800,A,2500.8187111,N,12132.4649489,E,0.01,206.39,260623,,,R,V*11
$GPHDT,181.988,T*34
$GNACCURACY,3.0*15
$GNGGA,114133.900,2500.8187114,N,12132.4649479,E,4,64,0.43,16.037,M,15.25,M,1,3335*4A
$GNRMC,114133.900,A,2500.8187114,N,12132.4649479,E,0.02,206.39,260623,,,R,V*19
$GPHDT,,T*1B
$GNACCURACY,3.1*14
$GNGGA,114134.000,2500.8187117,N,12132.4649513,E,4,63,0.45,16.043,M,15.25,M,2,3335*4B
$GNRMC,114134.000,A,2500.8187117,N,12132.4649513,E,0.02,206.39,260623,,,R,V*19
$GPHDT,182.539,T*31
$GNACCURACY,3.0*15
$GNGGA,114134.100,2500.8187119,N,12132.4649494,E,4,64,0.43,16.052,M,15.25,M,2,3335*4B
$GNRMC,114134.100,A,2500.8187119,N,12132.4649494,E,0.02,206.39,260623,,,R,V*18
$GPHDT,,T*1B
$GNGSA,A,3,196,24,199,23,18,15,194,195,12,10,05,32,0.71,0.45,0.55,1*04
$GNGSA,A,3,80,73,85,86,71,69,,,,,,,0.71,0.45,0.55,2*03
$GNGSA,A,3,13,07,08,26,30,02,15,,,,,,0.71,0.45,0.55,3*08
$GNGSA,A,3,08,38,13,39,16,06,46,19,09,36,20,35,0.71,0.45,0.55,4*0B
$GNGSA,A,3,22,29,,,,,,,,,,,0.71,0.45,0.55,4*08
$GPGSV,4,1,15,196,75,069,25,24,67,036,32,199,60,167,38,23,57,343,40,1*6D
$GPGSV,4,2,15,18,55,234,43,41,38,242,33,15,33,054,27,194,33,137,35,1*58
$GPGSV,4,3,15,195,31,179,30,12,25,136,33,10,23,321,40,05,14,124,16,1*50
$GPGSV,4,4,15,25,14,173,23,32,12,275,36,13,04,062,14,1*56
$GPGSV,3,1,10,196,75,069,39,24,67,036,33,199,60,167,46,23,57,343,39,8*6D
$GPGSV,3,2,10,18,55,234,43,194,33,137,36,195,31,179,32,10,23,321,32,8*6A
$GPGSV,3,3,10,25,14,173,23,32,12,275,39,8*62
$GLGSV,2,1,08,80,47,064,20,73,46,155,44,70,41,020,,85,30,238,25,1*7F
$GLGSV,2,2,08,86,28,293,45,71,25,321,25,69,10,081,17,79,06,028,17,1*7E
$GAGSV,3,1,09,13,51,225,40,07,45,310,43,08,44,032,20,26,34,301,41,7*73
$GAGSV,3,2,09,30,30,139,32,02,27,079,17,15,17,173,24,03,08,069,13,7*79
$GAGSV,3,3,09,25,01,039,,7*46
$GAGSV,2,1,07,13,51,225,42,07,45,310,46,08,44,032,23,26,34,301,45,1*7A
$GAGSV,2,2,07,30,30,139,33,02,27,079,23,15,17,173,27,1*43
$GBGSV,4,1,15,08,83,357,40,38,82,142,44,13,71,328,42,39,70,292,43,1*7F
$GBGSV,4,2,15,16,66,267,42,06,65,262,41,46,62,098,24,19,52,353,46,1*79
$GBGSV,4,3,15,09,50,244,38,36,41,183,46,20,41,071,17,35,19,262,31,1*75
$GBGSV,4,4,15,37,18,044,31,22,15,306,31,29,15,207,20,1*46
$GBGSV,2,1,08,38,82,142,47,39,70,292,44,46,62,098,36,19,52,353,42,4*77
$GBGSV,2,2,08,20,41,071,19,36,41,183,44,22,15,306,38,29,15,207,27,4*7D
$GNACCURACY,3.1*14
$PAIRSAT,1,35,1,0,200,2,0,200,3,0,200,4,0,200,5,0,201,6,0,200,7,0,200,8,0,200,9,0,200,10,0,221,11,0,200,12,0,201,13,0,201,14,0,200,15,0,201,16,0,200,17,0,200,18,0,221,19,0,200,20,0,200,21,0,200,23,0,221,24,0,221,25,0,200,26,0,200,27,0,200,28,0,200,29,0,200,30,0,200,31,0,200,32,0,221,194,0,621,195,0,621,196,0,620,199,0,621*68
$PAIRSAT,2,24,65,0,200,66,0,200,67,0,200,68,0,200,69,0,201,70,0,201,71,0,201,72,0,200,73,0,201,74,0,200,75,0,200,76,0,200,77,0,200,78,0,200,79,0,201,80,0,201,81,0,200,82,0,200,83,0,200,84,0,200,85,0,201,86,0,201,87,0,200,88,0,200*7A
$PAIRSAT,3,23,2,0,1221,3,0,1221,4,0,1200,5,0,200,7,0,1221,8,0,1221,9,0,1200,10,0,1200,11,0,1200,12,0,1200,13,0,1221,15,0,1221,19,0,1200,21,0,1200,24,0,1200,25,0,1200,26,0,1221,27,0,1200,30,0,1221,31,0,1200,33,0,1200,34,0,1200,36,0,1200*6A
$PAIRSAT,4,50,1,0,200,2,0,200,3,0,200,4,0,200,5,0,200,6,0,201,7,0,200,8,0,201,9,0,201,10,0,200,11,0,200,12,0,200,13,0,201,14,0,200,15,0,200,16,0,201,19,0,621,20,0,621,21,0,600,22,0,621,23,0,600,24,0,600,25,0,600,26,0,600,27,0,600,28,0,600,29,0,621,30,0,600,31,0,200,32,0,600,33,0,600,34,0,600,35,0,621,36,0,621,37,0,621,38,0,621,39,0,621,40,0,600,41,0,600,42,0,600,43,0,600,44,0,600,45,0,600,46,0,621,56,0,200,57,0,200,58,0,200,59,0,600,60,0,600,61,0,600*41
$PAIRDGP,9,5,10,12,15,18,23,24,25,32*5B
$GNGGA,114134.200,2500.8187133,N,12132.4649482,E,4,63,0.45,16.040,M,15.25,M,2,3335*45
$GNRMC,114134.200,A,2500.8187133,N,12132.4649482,E,0.03,206.39,260623,,,R,V*15
$GPHDT,182.091,T*36
$GNACCURACY,3.0*15
$GNGGA,114134.300,2500.8187141,N,12132.4649505,E,4,63,0.45,16.040,M,15.25,M,2,3335*4F
$GNRMC,114134.300,A,2500.8187141,N,12132.4649505,E,0.03,206.39,260623,,,R,V*1F
$GPHDT,,T*1B
$GNACCURACY,2.9*1D
$GNGGA,114134.400,2500.8187143,N,12132.4649462,E,4,64,0.43,16.057,M,15.25,M,2,3335*4D
$GNRMC,114134.400,A,2500.8187143,N,12132.4649462,E,0.03,206.39,260623,,,R,V*1A
$GPHDT,181.645,T*3A
$GNACCURACY,2.9*1D
$GNGGA,114134.500,2500.8187128,N,12132.4649498,E,4,64,0.43,16.042,M,15.25,M,2,3335*40
$GNRMC,114134.500,A,2500.8187128,N,12132.4649498,E,0.03,206.39,260623,,,R,V*13
$GPHDT,,T*1B
$GNACCURACY,3.0*15
$GNGGA,114134.600,2500.8187107,N,12132.4649472,E,4,63,0.45,16.044,M,15.25,M,2,3335*4D
$GNRMC,114134.600,A,2500.8187107,N,12132.4649472,E,0.02,206.39,260623,,,R,V*18
$GPHDT,181.790,T*33
$GNACCURACY,2.9*1D
$GNGGA,114134.700,2500.8187123,N,12132.4649483,E,4,63,0.45,16.036,M,15.25,M,2,3335*41
$GNRMC,114134.700,A,2500.8187123,N,12132.4649483,E,0.02,206.39,260623,,,R,V*11
$GPHDT,,T*1B
$GNACCURACY,2.9*1D
$GNGGA,114134.800,2500.8187160,N,12132.4649548,E,4,63,0.45,16.048,M,15.25,M,2,3335*46
$GNRMC,114134.800,A,2500.8187160,N,12132.4649548,E,0.02,206.39,260623,,,R,V*1F
$GPHDT,182.586,T*35
$GNACCURACY,2.9*1D
$GNGGA,114134.900,2500.8187117,N,12132.4649487,E,4,63,0.45,16.028,M,15.25,M,2,3335*43
$GNRMC,114134.900,A,2500.8187117,N,12132.4649487,E,0.01,206.39,260623,,,R,V*1F
$GPHDT,,T*1B
$GNACCURACY,2.9*1D
$GNGGA,114135.000,2500.8187089,N,12132.4649460,E,4,63,0.45,16.050,M,15.25,M,3,3335*4A
$GNRMC,114135.000,A,2500.8187089,N,12132.4649460,E,0.00,206.39,260623,,,R,V*19
$GPHDT,181.349,T*33
$GNACCURACY,2.9*1D
$GNGGA,114135.100,2500.8187110,N,12132.4649474,E,4,63,0.45,16.051,M,15.25,M,3,3335*4E
$GNRMC,114135.100,A,2500.8187110,N,12132.4649474,E,0.01,206.39,260623,,,R,V*1D
$GPHDT,,T*1B
$GNGSA,A,3,196,24,199,23,18,15,194,195,12,10,32,,0.71,0.45,0.55,1*01
$GNGSA,A,3,80,73,85,86,71,69,,,,,,,0.71,0.45,0.55,2*03
$GNGSA,A,3,13,07,08,26,30,02,15,,,,,,0.71,0.45,0.55,3*08
$GNGSA,A,3,08,38,13,39,16,06,46,19,09,36,20,35,0.71,0.45,0.55,4*0B
$GNGSA,A,3,37,22,29,,,,,,,,,,0.71,0.45,0.55,4*0C
$GPGSV,4,1,15,196,75,069,27,24,66,036,32,199,60,167,38,23,57,343,39,1*60
$GPGSV,4,2,15,18,54,234,43,41,38,242,33,15,33,054,27,194,33,137,36,1*5A
$GPGSV,4,3,15,195,31,179,29,12,25,136,32,10,23,321,40,05,14,124,18,1*57
$GPGSV,4,4,15,25,14,173,24,32,12,275,33,13,04,062,13,1*53
$GPGSV,3,1,10,196,75,069,39,24,66,036,34,199,60,167,45,23,57,343,36,8*67
$GPGSV,3,2,10,18,54,234,42,194,33,137,35,195,31,179,32,10,23,321,32,8*69
$GPGSV,3,3,10,25,14,173,22,32,12,275,40,8*6D
$GLGSV,2,1,08,80,47,064,19,73,46,155,44,70,41,020,,85,30,238,23,1*73
$GLGSV,2,2,08,86,28,293,45,71,25,321,25,69,10,081,15,79,06,028,17,1*7C
$GAGSV,3,1,09,13,51,225,40,07,45,310,42,08,44,032,21,26,34,301,41,7*73
$GAGSV,3,2,09,30,30,139,32,02,27,079,17,15,17,173,22,03,08,069,13,7*7F
$GAGSV,3,3,09,25,01,039,,7*46
$GAGSV,2,1,07,13,51,225,42,07,45,310,47,08,44,032,20,26,34,301,45,1*78
$GAGSV,2,2,07,30,30,139,30,02,27,079,22,15,17,173,26,1*40
$GBGSV,4,1,15,08,83,357,40,38,82,142,44,13,71,328,43,39,70,292,43,1*7E
$GBGSV,4,2,15,16,66,267,42,06,65,262,41,46,62,098,27,19,52,353,43,1*7F
$GBGSV,4,3,15,09,50,244,38,36,41,183,46,20,41,071,18,35,19,262,26,1*7C
$GBGSV,4,4,15,37,18,044,29,22,15,306,34,29,15,207,22,1*48
$GBGSV,2,1,08,38,82,142,46,39,70,292,44,46,62,098,36,19,52,353,39,4*7A
$GBGSV,2,2,08,20,41,071,17,36,41,183,45,22,15,306,38,29,15,207,27,4*72
$GNACCURACY,2.9*1D
$PAIRSAT,1,35,1,0,200,2,0,200,3,0,200,4,0,200,5,0,201,6,0,200,7,0,200,8,0,200,9,0,200,10,0,221,11,0,200,12,0,201,13,0,201,14,0,200,15,0,201,16,0,200,17,0,200,18,0,221,19,0,200,20,0,200,21,0,200,23,0,221,24,0,221,25,0,200,26,0,200,27,0,200,28,0,200,29,0,200,30,0,200,31,0,200,32,0,221,194,0,621,195,0,621,196,0,620,199,0,621*68
$PAIRSAT,2,24,65,0,200,66,0,200,67,0,200,68,0,200,69,0,201,70,0,201,71,0,201,72,0,200,73,0,201,74,0,200,75,0,200,76,0,200,77,0,200,78,0,200,79,0,201,80,0,201,81,0,200,82,0,200,83,0,200,84,0,200,85,0,201,86,0,201,87,0,200,88,0,200*7A
$PAIRSAT,3,23,2,0,1221,3,0,1221,4,0,1200,5,0,200,7,0,1221,8,0,1221,9,0,1200,10,0,1200,11,0,1200,12,0,1200,13,0,1221,15,0,1221,19,0,1200,21,0,1200,24,0,1200,25,0,1200,26,0,1221,27,0,1200,30,0,1221,31,0,1200,33,0,1200,34,0,1200,36,0,1200*6A
$PAIRSAT,4,50,1,0,200,2,0,200,3,0,200,4,0,200,5,0,200,6,0,201,7,0,200,8,0,201,9,0,201,10,0,200,11,0,200,12,0,200,13,0,201,14,0,200,15,0,200,16,0,201,19,0,621,20,0,621,21,0,600,22,0,621,23,0,600,24,0,600,25,0,600,26,0,600,27,0,600,28,0,600,29,0,621,30,0,600,31,0,200,32,0,600,33,0,600,34,0,600,35,0,621,36,0,621,37,0,621,38,0,621,39,0,621,40,0,600,41,0,600,42,0,600,43,0,600,44,0,600,45,0,600,46,0,621,56,0,200,57,0,200,58,0,200,59,0,600,60,0,600,61,0,600*41
$PAIRDGP,9,5,10,12,15,18,23,24,25,32*5B
$GNGGA,114135.200,2500.8187124,N,12132.4649398,E,4,63,0.45,16.045,M,15.25,M,3,3335*4A
$GNRMC,114135.200,A,2500.8187124,N,12132.4649398,E,0.01,206.39,260623,,,R,V*1C
$GPHDT,180.499,T*38
$GNACCURACY,2.9*1D
$GNGGA,114135.300,2500.8187107,N,12132.4649436,E,4,63,0.45,16.048,M,15.25,M,3,3335*44
$GNRMC,114135.300,A,2500.8187107,N,12132.4649436,E,0.03,206.39,260623,,,R,V*1D
$GPHDT,,T*1B
$GNACCURACY,2.9*1D
$GNGGA,114135.400,2500.8187132,N,12132.4649480,E,4,62,0.45,16.048,M,15.25,M,3,3335*49
$GNRMC,114135.400,A,2500.8187132,N,12132.4649480,E,0.03,206.39,260623,,,R,V*11
$GPHDT,182.131,T*3D
$GNACCURACY,2.9*1D
$GNGGA,114135.500,2500.8187156,N,12132.4649407,E,4,62,0.45,16.074,M,15.25,M,3,3335*4A
$GNRMC,114135.500,A,2500.8187156,N,12132.4649407,E,0.03,206.39,260623,,,R,V*1D
$GPHDT,,T*1B
$GNACCURACY,2.9*1D
$GNGGA,114135.600,2500.8187131,N,12132.4649425,E,4,63,0.45,16.078,M,15.25,M,3,3335*45
$GNRMC,114135.600,A,2500.8187131,N,12132.4649425,E,0.03,206.39,260623,,,R,V*1F
$GPHDT,181.850,T*30
$GNACCURACY,2.9*1D
$GNGGA,114135.700,2500.8187151,N,12132.4649443,E,4,63,0.45,16.060,M,15.25,M,3,3335*4B
$GNRMC,114135.700,A,2500.8187151,N,12132.4649443,E,0.03,206.39,260623,,,R,V*18
$GPHDT,,T*1B
$GNACCURACY,3.0*15
$GNGGA,114135.800,2500.8187125,N,12132.4649381,E,4,63,0.45,16.061,M,15.25,M,3,3335*4F
$GNRMC,114135.800,A,2500.8187125,N,12132.4649381,E,0.04,206.39,260623,,,R,V*1A
$GPHDT,181.632,T*3A
$GNACCURACY,2.9*1D
$GNGGA,114135.900,2500.8187134,N,12132.4649425,E,4,64,0.45,16.060,M,15.25,M,3,3335*41
$GNRMC,114135.900,A,2500.8187134,N,12132.4649425,E,0.03,206.39,260623,,,R,V*15
$GPHDT,,T*1B
$GNACCURACY,2.9*1D
$GNGGA,114136.000,2500.8187075,N,12132.4649322,E,4,64,0.45,16.082,M,15.25,M,4,3335*44
$GNRMC,114136.000,A,2500.8187075,N,12132.4649322,E,0.02,206.39,260623,,,R,V*1A
$GPHDT,179.854,T*33
$GNACCURACY,2.9*1D
$GNGGA,114136.100,2500.8187094,N,12132.4649437,E,4,64,0.45,16.051,M,15.25,M,4,3335*47
$GNRMC,114136.100,A,2500.8187094,N,12132.4649437,E,0.02,206.39,260623,,,R,V*17
$GPHDT,,T*1B
$GNGSA,A,3,196,24,199,23,18,15,194,195,12,10,32,,0.71,0.45,0.55,1*01
$GNGSA,A,3,80,73,85,86,71,69,,,,,,,0.71,0.45,0.55,2*03
$GNGSA,A,3,13,07,08,26,30,02,15,,,,,,0.71,0.45,0.55,3*08
$GNGSA,A,3,08,38,13,39,16,06,46,19,09,36,20,35,0.71,0.45,0.55,4*0B
$GNGSA,A,3,37,22,29,,,,,,,,,,0.71,0.45,0.55,4*0C
$GPGSV,4,1,15,196,75,070,25,24,66,036,34,199,60,167,37,23,57,343,40,1*6D
$GPGSV,4,2,15,18,54,234,43,41,38,242,35,15,33,054,27,194,33,137,33,1*59
$GPGSV,4,3,15,195,31,179,30,12,25,136,31,10,23,321,36,05,14,124,17,1*52
$GPGSV,4,4,15,25,14,173,23,32,12,275,32,13,04,062,11,1*57
$GPGSV,3,1,10,196,75,070,39,24,66,036,36,199,60,167,46,23,57,343,39,8*61
$GPGSV,3,2,10,18,54,234,44,194,33,137,33,195,31,179,33,10,23,321,26,8*6D
$GPGSV,3,3,10,25,14,173,23,32,12,275,39,8*62
$GLGSV,2,1,08,80,47,064,16,73,46,155,44,70,41,020,,85,30,238,26,1*79
$GLGSV,2,2,08,86,28,293,44,71,25,321,28,69,10,081,14,79,06,028,19,1*7F
$GAGSV,3,1,09,13,51,225,39,07,45,310,38,08,44,032,22,26,34,301,32,7*77
$GAGSV,3,2,09,30,30,139,32,02,27,079,18,15,17,173,20,03,08,069,13,7*72
$GAGSV,3,3,09,25,01,039,,7*46
$GAGSV,2,1,07,13,51,225,42,07,45,310,43,08,44,032,21,26,34,301,40,1*78
$GAGSV,2,2,07,30,30,139,31,02,27,079,22,15,17,173,26,1*41
$GBGSV,4,1,15,08,83,357,40,38,82,142,45,13,71,328,43,39,70,292,44,1*78
$GBGSV,4,2,15,16,66,267,42,06,65,262,41,46,62,098,30,19,52,353,46,1*7C
$GBGSV,4,3,15,09,50,244,38,36,41,183,46,20,41,071,24,35,19,262,28,1*7D
$GBGSV,4,4,15,37,18,044,29,22,15,306,26,29,15,207,24,1*4D
$GBGSV,3,1,09,38,82,142,47,39,70,292,44,46,62,098,35,19,52,353,41,4*77
$GBGSV,3,2,09,20,41,071,20,36,41,183,45,35,19,262,23,22,15,306,36,4*7E
$GBGSV,3,3,09,29,15,207,24,4*46
$GNACCURACY,2.9*1D
$PAIRSAT,1,35,1,0,200,2,0,200,3,0,200,4,0,200,5,0,201,6,0,200,7,0,200,8,0,200,9,0,200,10,0,221,11,0,200,12,0,201,13,0,201,14,0,200,15,0,201,16,0,200,17,0,200,18,0,221,19,0,200,20,0,200,21,0,200,23,0,221,24,0,221,25,0,200,26,0,200,27,0,200,28,0,200,29,0,200,30,0,200,31,0,200,32,0,221,194,0,621,195,0,621,196,0,620,199,0,621*68
$PAIRSAT,2,24,65,0,200,66,0,200,67,0,200,68,0,200,69,0,201,70,0,201,71,0,201,72,0,200,73,0,201,74,0,200,75,0,200,76,0,200,77,0,200,78,0,200,79,0,201,80,0,201,81,0,200,82,0,200,83,0,200,84,0,200,85,0,201,86,0,201,87,0,200,88,0,200*7A
$PAIRSAT,3,23,2,0,1221,3,0,1221,4,0,1200,5,0,200,7,0,1221,8,0,1221,9,0,1200,10,0,1200,11,0,1200,12,0,1200,13,0,1221,15,0,1221,19,0,1200,21,0,1200,24,0,1200,25,0,1200,26,0,1221,27,0,1200,30,0,1221,31,0,1200,33,0,1200,34,0,1200,36,0,1200*6A
$PAIRSAT,4,50,1,0,200,2,0,200,3,0,200,4,0,200,5,0,200,6,0,201,7,0,200,8,0,201,9,0,201,10,0,200,11,0,200,12,0,200,13,0,201,14,0,200,15,0,200,16,0,201,19,0,621,20,0,621,21,0,600,22,0,621,23,0,600,24,0,600,25,0,600,26,0,600,27,0,600,28,0,600,29,0,621,30,0,600,31,0,200,32,0,600,33,0,600,34,0,600,35,0,621,36,0,621,37,0,621,38,0,621,39,0,621,40,0,600,41,0,600,42,0,600,43,0,600,44,0,600,45,0,600,46,0,621,56,0,200,57,0,200,58,0,200,59,0,600,60,0,600,61,0,600*41
$PAIRDGP,9,5,10,12,15,18,23,24,25,32*5B
$GNGGA,114136.200,2500.8187111,N,12132.4649464,E,4,64,0.45,16.039,M,15.25,M,1,3335*45
$GNRMC,114136.200,A,2500.8187111,N,12132.4649464,E,0.02,206.39,260623,,,R,V*1E
$GPHDT,180.425,T*3F
$GNACCURACY,2.9*1D
$GNGGA,114136.300,2500.8187096,N,12132.4649446,E,4,64,0.45,16.045,M,15.25,M,1,3335*41
$GNRMC,114136.300,A,2500.8187096,N,12132.4649446,E,0.02,206.39,260623,,,R,V*11
$GPHDT,,T*1B
$GNACCURACY,3.0*15
$GNGGA,114136.400,2500.8187118,N,12132.4649445,E,4,63,0.45,16.057,M,15.25,M,1,3335*46
$GNRMC,114136.400,A,2500.8187118,N,12132.4649445,E,0.03,206.39,260623,,,R,V*13
$GPHDT,180.651,T*3E
$GNACCURACY,3.0*15
$GNGGA,114136.500,2500.8187088,N,12132.4649407,E,4,63,0.45,16.051,M,15.25,M,1,3335*4F
$GNRMC,114136.500,A,2500.8187088,N,12132.4649407,E,0.02,206.39,260623,,,R,V*1D
$GPHDT,,T*1B
$GNACCURACY,3.0*15
$GNGGA,114136.600,2500.8187125,N,12132.4649481,E,4,63,0.45,16.046,M,15.25,M,1,3335*42
$GNRMC,114136.600,A,2500.8187125,N,12132.4649481,E,0.01,206.39,260623,,,R,V*15
$GPHDT,181.840,T*31
$GNACCURACY,3.0*15
$GNGGA,114136.700,2500.8187113,N,12132.4649484,E,4,63,0.45,16.031,M,15.25,M,1,3335*43
$GNRMC,114136.700,A,2500.8187113,N,12132.4649484,E,0.02,206.39,260623,,,R,V*17
$GPHDT,,T*1B
$GNACCURACY,3.0*15
$GNGGA,114136.800,2500.8187114,N,12132.4649506,E,4,63,0.45,16.012,M,15.25,M,1,3335*41
$GNRMC,114136.800,A,2500.8187114,N,12132.4649506,E,0.01,206.39,260623,,,R,V*17
$GPHDT,182.115,T*3B
$GNACCURACY,3.0*15
$GNGGA,114136.900,2500.8187124,N,12132.4649453,E,4,63,0.45,16.065,M,15.25,M,1,3335*42
$GNRMC,114136.900,A,2500.8187124,N,12132.4649453,E,0.00,206.39,260623,,,R,V*15
$GPHDT,,T*1B
$GNACCURACY,3.0*15
$GNGGA,114137.000,2500.8187112,N,12132.4649405,E,4,63,0.45,16.055,M,15.25,M,2,3335*4C
$GNRMC,114137.000,A,2500.8187112,N,12132.4649405,E,0.01,206.39,260623,,,R,V*1A
$GPHDT,181.145,T*3D
$GNACCURACY,3.0*15
$GNGGA,114137.100,2500.8187126,N,12132.4649440,E,4,64,0.45,16.057,M,15.25,M,2,3335*4E
$GNRMC,114137.100,A,2500.8187126,N,12132.4649440,E,0.01,206.39,260623,,,R,V*1D
$GPHDT,,T*1B
$GNGSA,A,3,196,24,199,23,18,15,194,195,12,10,32,,0.72,0.45,0.56,1*01
$GNGSA,A,3,80,73,85,86,71,69,,,,,,,0.72,0.45,0.56,2*03
$GNGSA,A,3,13,07,08,26,30,02,15,,,,,,0.72,0.45,0.56,3*08
$GNGSA,A,3,08,38,13,39,16,06,46,19,09,20,36,35,0.72,0.45,0.56,4*0B
$GNGSA,A,3,29,22,,,,,,,,,,,0.72,0.45,0.56,4*08
$GPGSV,4,1,15,196,75,070,25,24,66,036,34,199,60,167,37,23,57,343,40,1*6D
$GPGSV,4,2,15,18,54,234,43,41,38,242,35,15,33,054,27,194,33,137,34,1*5E
$GPGSV,4,3,15,195,31,179,30,12,25,136,33,10,23,321,40,05,14,124,18,1*5E
$GPGSV,4,4,15,25,14,173,22,32,12,275,35,13,04,062,12,1*52
$GPGSV,3,1,10,196,75,070,39,24,66,036,36,199,60,167,46,23,57,343,40,8*6F
$GPGSV,3,2,10,18,54,234,44,194,33,137,34,195,31,179,32,10,23,321,32,8*6E
$GPGSV,3,3,10,25,14,173,23,32,12,275,40,8*6C
$GLGSV,2,1,08,80,47,064,16,73,46,155,44,70,41,020,,85,30,238,26,1*79
$GLGSV,2,2,08,86,28,293,42,71,25,321,26,69,10,081,15,79,06,028,21,1*7D
$GAGSV,3,1,10,13,51,225,39,07,45,311,43,08,44,032,21,26,34,301,38,7*7B
$GAGSV,3,2,10,30,30,139,32,02,27,079,19,15,17,173,24,03,08,069,13,7*7F
$GAGSV,3,3,10,27,05,186,,25,01,039,,7*71
$GAGSV,2,1,07,13,51,225,42,07,45,311,46,08,44,032,23,26,34,301,43,1*7D
$GAGSV,2,2,07,30,30,139,32,02,27,079,22,15,17,173,27,1*43
$GBGSV,4,1,15,08,83,357,40,38,82,142,45,13,71,328,43,39,70,292,44,1*78
$GBGSV,4,2,15,16,66,267,42,06,65,262,41,46,62,098,27,19,52,353,46,1*7A
$GBGSV,4,3,15,09,50,244,38,20,41,071,21,36,41,183,46,35,19,262,28,1*78
$GBGSV,4,4,15,37,18,044,29,29,15,207,24,22,15,306,32,1*48
$GBGSV,3,1,09,38,82,142,47,39,70,292,44,46,62,098,35,19,52,353,41,4*77
$GBGSV,3,2,09,20,41,071,21,36,41,183,45,35,19,262,22,22,15,306,38,4*70
$GBGSV,3,3,09,29,15,207,24,4*46
$GNACCURACY,3.0*15
$PAIRSAT,1,35,1,0,200,2,0,200,3,0,200,4,0,200,5,0,201,6,0,200,7,0,200,8,0,200,9,0,200,10,0,221,11,0,200,12,0,201,13,0,201,14,0,200,15,0,201,16,0,200,17,0,200,18,0,221,19,0,200,20,0,200,21,0,200,23,0,221,24,0,221,25,0,200,26,0,200,27,0,200,28,0,200,29,0,200,30,0,200,31,0,200,32,0,221,194,0,621,195,0,621,196,0,620,199,0,621*68
$PAIRSAT,2,24,65,0,200,66,0,200,67,0,200,68,0,200,69,0,201,70,0,201,71,0,201,72,0,200,73,0,201,74,0,200,75,0,200,76,0,200,77,0,200,78,0,200,79,0,201,80,0,201,81,0,200,82,0,200,83,0,200,84,0,200,85,0,201,86,0,201,87,0,200,88,0,200*7A
$PAIRSAT,3,23,2,0,1221,3,0,1221,4,0,1200,5,0,200,7,0,1221,8,0,1221,9,0,1200,10,0,1200,11,0,1200,12,0,1200,13,0,1221,15,0,1221,19,0,1200,21,0,1200,24,0,1200,25,0,1200,26,0,1221,27,0,1200,30,0,1221,31,0,1200,33,0,1200,34,0,1200,36,0,1200*6A
$PAIRSAT,4,50,1,0,200,2,0,200,3,0,200,4,0,200,5,0,200,6,0,201,7,0,200,8,0,201,9,0,201,10,0,200,11,0,200,12,0,200,13,0,201,14,0,200,15,0,200,16,0,201,19,0,621,20,0,621,21,0,600,22,0,621,23,0,600,24,0,600,25,0,600,26,0,600,27,0,600,28,0,600,29,0,621,30,0,600,31,0,200,32,0,600,33,0,600,34,0,600,35,0,621,36,0,621,37,0,621,38,0,621,39,0,621,40,0,600,41,0,600,42,0,600,43,0,600,44,0,600,45,0,600,46,0,621,56,0,200,57,0,200,58,0,200,59,0,600,60,0,600,61,0,600*41
$PAIRDGP,9,5,10,12,15,18,23,24,25,32*5B
$GNGGA,114137.200,2500.8187146,N,12132.4649502,E,4,63,0.45,16.049,M,15.25,M,2,3335*44
$GNRMC,114137.200,A,2500.8187146,N,12132.4649502,E,0.02,206.39,260623,,,R,V*1C
$GPHDT,181.949,T*39
$GNACCURACY,3.0*15
$GNGGA,114137.300,2500.8187121,N,12132.4649428,E,4,63,0.45,16.041,M,15.25,M,2,3335*45
$GNRMC,114137.300,A,2500.8187121,N,12132.4649428,E,0.02,206.39,260623,,,R,V*15
$GPHDT,,T*1B
$GNACCURACY,2.9*1D
$GNGGA,114137.400,2500.8187046,N,12132.4649383,E,4,65,0.43,16.021,M,15.25,M,2,3335*42
$GNRMC,114137.400,A,2500.8187046,N,12132.4649383,E,0.03,206.39,260623,,,R,V*15
$GPHDT,182.103,T*3C
$GNACCURACY,2.9*1D
$GNGGA,114137.500,2500.8187039,N,12132.4649449,E,4,64,0.45,15.998,M,15.25,M,2,3335*45
$GNRMC,114137.500,A,2500.8187039,N,12132.4649449,E,0.03,206.39,260623,,,R,V*1D
$GPHDT,,T*1B
$GNACCURACY,2.9*1D
$GNGGA,114137.600,2500.8187016,N,12132.4649416,E,4,64,0.45,16.002,M,15.25,M,2,3335*48
$GNRMC,114137.600,A,2500.8187016,N,12132.4649416,E,0.03,206.39,260623,,,R,V*19
$GPHDT,179.923,T*32
$GNACCURACY,2.9*1D
$GNGGA,114137.700,2500.8187032,N,12132.4649447,E,4,64,0.45,16.002,M,15.25,M,2,3335*4B
$GNRMC,114137.700,A,2500.8187032,N,12132.4649447,E,0.04,206.39,260623,,,R,V*1D
$GPHDT,,T*1B
$GNACCURACY,2.9*1D
$GNGGA,114137.800,2500.8187032,N,12132.4649458,E,4,64,0.45,16.004,M,15.25,M,2,3335*4C
$GNRMC,114137.800,A,2500.8187032,N,12132.4649458,E,0.03,206.39,260623,,,R,V*1B
$GPHDT,180.607,T*3D
$GNACCURACY,2.9*1D
$GNGGA,114137.900,2500.8187010,N,12132.4649443,E,4,64,0.45,15.999,M,15.25,M,2,3335*49
$GNRMC,114137.900,A,2500.8187010,N,12132.4649443,E,0.02,206.39,260623,,,R,V*11
$GPHDT,,T*1B
$GNACCURACY,2.9*1D
$GNGGA,114138.000,2500.8187013,N,12132.4649443,E,4,64,0.45,15.999,M,15.25,M,3,3335*4D
$GNRMC,114138.000,A,2500.8187013,N,12132.4649443,E,0.03,206.39,260623,,,R,V*15
$GPHDT,180.755,T*3B
$GNACCURACY,2.9*1D
$GNGGA,114138.100,2500.8187013,N,12132.4649465,E,4,64,0.45,16.001,M,15.25,M,3,3335*43
$GNRMC,114138.100,A,2500.8187013,N,12132.4649465,E,0.02,206.39,260623,,,R,V*11
$GPHDT,,T*1B
$GNGSA,A,3,196,24,199,23,18,15,194,195,12,10,05,32,0.80,0.45,0.67,1*0B
$GNGSA,A,3,80,73,85,86,71,,,,,,,,0.80,0.45,0.67,2*03
$GNGSA,A,3,13,07,08,26,30,02,15,,,,,,0.80,0.45,0.67,3*07
$GNGSA,A,3,08,38,13,39,16,06,46,19,09,20,36,35,0.80,0.45,0.67,4*04
$GNGSA,A,3,37,29,22,,,,,,,,,,0.80,0.45,0.67,4*03
$GPGSV,4,1,15,196,75,070,26,24,66,036,35,199,60,167,37,23,57,343,40,1*6F
$GPGSV,4,2,15,18,54,234,43,41,38,242,33,15,33,054,25,194,33,137,35,1*5B
$GPGSV,4,3,15,195,31,179,30,12,25,136,31,10,23,321,41,05,14,124,18,1*5D
$GPGSV,4,4,15,25,14,173,24,32,12,275,30,13,04,062,13,1*50
$GPGSV,3,1,10,196,75,070,39,24,66,036,36,199,60,167,46,23,57,343,39,8*61
$GPGSV,3,2,10,18,54,234,44,194,33,137,30,195,31,179,32,10,23,321,29,8*60
$GPGSV,3,3,10,25,14,173,23,32,12,275,40,8*6C
$GLGSV,2,1,08,80,47,064,19,73,46,155,45,70,41,020,,85,30,238,26,1*77
$GLGSV,2,2,08,86,28,293,44,71,25,321,27,69,10,081,14,79,06,028,19,1*70
$GAGSV,3,1,10,13,51,225,39,07,45,311,42,08,44,032,21,26,34,301,40,7*75
$GAGSV,3,2,10,30,30,139,29,02,27,079,20,15,17,173,24,03,08,069,12,7*7E
$GAGSV,3,3,10,27,05,186,,25,01,039,,7*71
$GAGSV,2,1,07,13,51,225,42,07,45,311,46,08,44,032,22,26,34,301,45,1*7A
$GAGSV,2,2,07,30,30,139,31,02,27,079,22,15,17,173,27,1*40
$GBGSV,4,1,15,08,83,357,40,38,82,142,45,13,71,328,43,39,70,292,43,1*7F
$GBGSV,4,2,15,16,66,267,42,06,65,262,41,46,62,098,25,19,52,353,46,1*78
$GBGSV,4,3,15,09,50,244,38,20,41,071,20,36,41,183,46,35,19,262,29,1*78
$GBGSV,4,4,15,37,18,044,29,29,15,207,27,22,15,306,34,1*4D
$GBGSV,3,1,09,38,82,142,47,39,70,292,44,46,62,098,34,19,52,353,41,4*76
$GBGSV,3,2,09,20,41,071,26,36,41,183,45,35,19,262,19,22,15,306,38,4*7F
$GBGSV,3,3,09,29,15,207,23,4*41
$GNACCURACY,2.9*1D
$PAIRSAT,1,35,1,0,200,2,0,200,3,0,200,4,0,200,5,0,201,6,0,200,7,0,200,8,0,200,9,0,200,10,0,221,11,0,200,12,0,201,13,0,201,14,0,200,15,0,201,16,0,200,17,0,200,18,0,221,19,0,200,20,0,200,21,0,200,23,0,221,24,0,221,25,0,200,26,0,200,27,0,200,28,0,200,29,0,200,30,0,200,31,0,200,32,0,221,194,0,621,195,0,621,196,0,620,199,0,621*68
$PAIRSAT,2,24,65,0,200,66,0,200,67,0,200,68,0,200,69,0,201,70,0,201,71,0,201,72,0,200,73,0,201,74,0,200,75,0,200,76,0,200,77,0,200,78,0,200,79,0,201,80,0,201,81,0,200,82,0,200,83,0,200,84,0,200,85,0,201,86,0,201,87,0,200,88,0,200*7A
$PAIRSAT,3,23,2,0,1221,3,0,1221,4,0,1200,5,0,200,7,0,1221,8,0,1221,9,0,1200,10,0,1200,11,0,1200,12,0,1200,13,0,1221,15,0,1221,19,0,1200,21,0,1200,24,0,1200,25,0,1200,26,0,1221,27,0,1200,30,0,1221,31,0,1200,33,0,1200,34,0,1200,36,0,1200*6A
$PAIRSAT,4,50,1,0,200,2,0,200,3,0,200,4,0,200,5,0,200,6,0,201,7,0,200,8,0,201,9,0,201,10,0,200,11,0,200,12,0,200,13,0,201,14,0,200,15,0,200,16,0,201,19,0,621,20,0,621,21,0,600,22,0,621,23,0,600,24,0,600,25,0,600,26,0,600,27,0,600,28,0,600,29,0,621,30,0,600,31,0,200,32,0,600,33,0,600,34,0,600,35,0,621,36,0,621,37,0,621,38,0,621,39,0,621,40,0,600,41,0,600,42,0,600,43,0,600,44,0,600,45,0,600,46,0,621,56,0,200,57,0,200,58,0,200,59,0,600,60,0,600,61,0,600*41
$PAIRDGP,9,5,10,12,15,18,23,24,25,32*5B
$GNGGA,114138.200,2500.8187029,N,12132.4649429,E,4,64,0.45,15.999,M,15.25,M,3,3335*4A
$GNRMC,114138.200,A,2500.8187029,N,12132.4649429,E,0.00,206.39,260623,,,R,V*11
$GPHDT,180.356,T*3C
$GNACCURACY,2.9*1D
$GNGGA,114138.300,2500.8187016,N,12132.4649447,E,4,64,0.45,16.002,M,15.25,M,3,3335*47
$GNRMC,114138.300,A,2500.8187016,N,12132.4649447,E,0.01,206.39,260623,,,R,V*15
$GPHDT,,T*1B
$GNACCURACY,2.9*1D
$GNGGA,114138.400,2500.8187026,N,12132.4649431,E,4,64,0.45,16.005,M,15.25,M,3,3335*45
$GNRMC,114138.400,A,2500.8187026,N,12132.4649431,E,0.00,206.39,260623,,,R,V*11
$GPHDT,180.718,T*32
$GNACCURACY,2.9*1D
$GNGGA,114138.500,2500.8187048,N,12132.4649424,E,4,64,0.45,16.012,M,15.25,M,3,3335*4E
$GNRMC,114138.500,A,2500.8187048,N,12132.4649424,E,0.00,206.39,260623,,,R,V*1C
$GPHDT,,T*1B
$GNACCURACY,2.9*1D
$GNGGA,114138.600,2500.8187046,N,12132.4649402,E,4,64,0.45,16.006,M,15.25,M,3,3335*42
$GNRMC,114138.600,A,2500.8187046,N,12132.4649402,E,0.00,206.39,260623,,,R,V*15
$GPHDT,180.022,T*3C
$GNACCURACY,2.9*1D
$GNGGA,114138.700,2500.8187054,N,12132.4649467,E,4,64,0.45,16.012,M,15.25,M,3,3335*46
$GNRMC,114138.700,A,2500.8187054,N,12132.4649467,E,0.01,206.39,260623,,,R,V*15
$GPHDT,,T*1B
$GNACCURACY,2.9*1D
$GNGGA,114138.800,2500.8187120,N,12132.4649388,E,4,64,0.45,16.048,M,15.25,M,3,3335*42
$GNRMC,114138.800,A,2500.8187120,N,12132.4649388,E,0.02,206.39,260623,,,R,V*1D
$GPHDT,181.012,T*3E
$GNACCURACY,3.0*15
$GNGGA,114138.900,2500.8187158,N,12132.4649278,E,4,63,0.46,16.099,M,15.25,M,3,3335*4A
$GNRMC,114138.900,A,2500.8187158,N,12132.4649278,E,0.05,206.39,260623,,,R,V*1A
$GPHDT,,T*1B
$GNACCURACY,3.0*15
$GNGGA,114139.000,2500.8187135,N,12132.4649410,E,4,63,0.46,16.055,M,15.25,M,4,3335*46
$GNRMC,114139.000,A,2500.8187135,N,12132.4649410,E,0.04,206.39,260623,,,R,V*10
$GPHDT,181.436,T*3C
$GNACCURACY,3.0*15
$GNGGA,114139.100,2500.8187127,N,12132.4649384,E,4,63,0.46,16.048,M,15.25,M,4,3335*42
$GNRMC,114139.100,A,2500.8187127,N,12132.4649384,E,0.04,206.39,260623,,,R,V*18
$GPHDT,,T*1B
