$FW : RTK35X,V1.1X0314AS,Lib20210517,1*54
$Tool : LOCOSYS , GNSS Firebird , v1.0.0.19*39
$---------------------------------------------------*2D
$GNACCURACY,4.7*15
$GNGGA,032002.400,2500.7828968,N,12132.4668292,E,4,51,0.52,16.657,M,15.25,M,1,3335*47
$GNRMC,032002.400,A,2500.7828968,N,12132.4668292,E,0.01,61.32,090324,,,R,V*26
$GPHDT,272.008,T*3A
$GNACCURACY,4.7*15
$GNGGA,032002.500,2500.7828973,N,12132.4668289,E,4,51,0.52,16.655,M,15.25,M,0,3335*45
$GNRMC,032002.500,A,2500.7828973,N,12132.4668289,E,0.02,61.32,090324,,,R,V*24
$GPHDT,,T*1B
$GNACCURACY,4.7*15
$GNGGA,032002.600,2500.7828982,N,12132.4668303,E,4,51,0.52,16.653,M,15.25,M,0,3335*4D
$GNRMC,032002.600,A,2500.7828982,N,12132.4668303,E,0.02,61.32,090324,,,R,V*2A
$GPHDT,271.988,T*38
$GNACCURACY,4.7*15
$GNGGA,032002.700,2500.7828995,N,12132.4668308,E,4,51,0.52,16.654,M,15.25,M,0,3335*46
$GNRMC,032002.700,A,2500.7828995,N,12132.4668308,E,0.03,61.32,090324,,,R,V*27
$GPHDT,,T*1B
$GNACCURACY,4.7*15
$GNGGA,032002.800,2500.7828968,N,12132.4668311,E,4,51,0.52,16.658,M,15.25,M,0,3335*4F
$GNRMC,032002.800,A,2500.7828968,N,12132.4668311,E,0.02,61.32,090324,,,R,V*23
$GPHDT,272.703,T*36
$GNACCURACY,4.7*15
$GNGGA,032002.900,2500.7828941,N,12132.4668314,E,4,51,0.52,16.660,M,15.25,M,0,3335*4B
$GNRMC,032002.900,A,2500.7828941,N,12132.4668314,E,0.25,61.32,090324,,,R,V*29
$GPHDT,,T*1B
$GNACCURACY,4.7*15
$GNGGA,032003.000,2500.7828973,N,12132.4668332,E,4,51,0.52,16.670,M,15.25,M,1,3335*46
$GNRMC,032003.000,A,2500.7828973,N,12132.4668332,E,0.09,61.32,090324,,,R,V*2A
$GPHDT,272.445,T*37
$GNGSA,A,3,08,194,195,27,21,16,04,09,02,196,31,26,0.91,0.51,0.76,1*33
$GNGSA,A,3,88,78,77,87,79,,,,,,,,0.91,0.51,0.76,2*01
$GNGSA,A,3,21,13,19,27,15,,,,,,,,0.91,0.51,0.76,3*06
$GNGSA,A,3,06,16,43,09,39,40,07,23,10,11,25,28,0.91,0.51,0.76,4*02
$GNGSA,A,3,34,,,,,,,,,,,,0.91,0.51,0.76,4*0E
$GPGSV,4,1,15,08,72,292,44,199,66,164,,194,63,045,43,195,56,124,36,1*50
$GPGSV,4,2,15,27,53,025,44,45,47,231,37,21,36,171,40,16,36,051,43,1*60
$GPGSV,4,3,15,04,35,219,43,09,31,271,25,02,24,182,36,07,22,320,15,1*68
$GPGSV,4,4,15,196,21,174,23,31,18,135,14,26,18,081,34,1*64
$GPGSV,2,1,07,08,72,292,43,194,63,045,41,195,56,124,35,27,53,025,38,8*67
$GPGSV,2,2,07,04,35,219,37,09,31,271,25,26,18,081,27,8*5F
$GLGSV,2,1,05,88,72,090,43,78,44,000,23,77,33,081,32,87,25,031,31,1*7B
$GLGSV,2,2,05,79,10,317,15,1*43
$GAGSV,2,1,08,21,50,344,27,13,48,113,33,19,38,261,28,27,35,059,42,7*70
$GAGSV,2,2,08,26,25,175,32,15,24,052,29,04,08,315,,20,,,29,7*46
$GAGSV,1,1,04,13,48,113,36,19,38,261,22,27,35,059,41,15,24,052,29,1*7B
$GBGSV,4,1,13,06,83,232,42,16,81,187,42,43,76,073,44,09,74,307,41,1*76
$GBGSV,4,2,13,39,69,173,42,40,67,312,44,07,63,291,38,23,59,352,45,1*7A
$GBGSV,4,3,13,10,52,274,31,11,51,048,45,25,49,091,42,28,36,206,23,1*71
$GBGSV,4,4,13,34,28,041,35,1*4A
$GBGSV,2,1,06,39,69,173,40,40,67,312,41,23,59,352,41,25,49,091,40,4*78
$GBGSV,2,2,06,28,36,206,21,34,28,041,32,4*74
$GNACCURACY,4.7*15
$PAIRSAT,1,27,2,0,201,3,0,200,4,0,221,5,0,200,7,0,1,8,0,21,9,0,21,14,0,200,15,0,200,16,0,201,17,0,200,18,0,200,19,0,200,20,0,200,21,0,201,22,0,200,23,0,200,24,0,200,25,0,200,26,0,221,27,0,221,28,0,200,31,0,1,194,0,421,195,0,621,196,0,220,199,0,600*61
$PAIRSAT,2,15,70,0,200,71,0,200,74,0,200,75,0,200,76,0,200,77,0,201,78,0,201,79,0,201,82,0,200,83,0,200,84,0,200,85,0,200,86,0,200,87,0,201,88,0,201*54
$PAIRSAT,3,19,2,0,1200,3,0,1200,4,0,1200,5,0,200,7,0,1200,8,0,1000,9,0,1000,13,0,21,15,0,21,19,0,21,21,0,221,25,0,1200,26,0,1200,27,0,1221,30,0,1200,31,0,1200,33,0,1200,34,0,1200,36,0,1200*56
$PAIRSAT,4,46,1,0,200,2,0,200,3,0,400,4,0,200,5,0,200,6,0,201,7,0,201,8,0,200,9,0,201,10,0,201,11,0,201,12,0,200,13,0,200,14,0,200,16,0,201,19,0,400,20,0,400,21,0,400,22,0,400,23,0,421,24,0,600,25,0,621,26,0,600,27,0,400,28,0,621,29,0,600,30,0,600,32,0,600,33,0,600,34,0,621,35,0,600,36,0,600,37,0,400,38,0,400,39,0,421,40,0,421,41,0,400,42,0,400,43,0,421,44,0,400,45,0,400,46,0,400,59,0,400,60,0,400,61,0,400,62,0,400*48
$PAIRDGP,8,2,4,7,8,9,16,21,27*7C
$GNGGA,032003.100,2500.7828965,N,12132.4668330,E,4,52,0.51,16.666,M,15.25,M,1,3335*45
$GNRMC,032003.100,A,2500.7828965,N,12132.4668330,E,0.03,61.32,090324,,,R,V*24
$GPHDT,,T*1B
$GNACCURACY,4.7*15
$GNGGA,032003.200,2500.7828953,N,12132.4668354,E,4,52,0.51,16.669,M,15.25,M,1,3335*4E
$GNRMC,032003.200,A,2500.7828953,N,12132.4668354,E,0.03,61.32,090324,,,R,V*20
$GPHDT,272.659,T*38
$GNACCURACY,4.7*15
$GNGGA,032003.300,2500.7828975,N,12132.4668320,E,4,51,0.55,16.659,M,15.25,M,1,3335*4C
$GNRMC,032003.300,A,2500.7828975,N,12132.4668320,E,0.03,61.32,090324,,,R,V*26
$GPHDT,,T*1B
$GNACCURACY,4.7*15
$GNGGA,032003.400,2500.7828967,N,12132.4668307,E,4,51,0.55,16.671,M,15.25,M,1,3335*47
$GNRMC,032003.400,A,2500.7828967,N,12132.4668307,E,0.08,61.32,090324,,,R,V*2C
$GPHDT,272.738,T*3E
$GNACCURACY,4.7*15
$GNGGA,032003.500,2500.7828929,N,12132.4668334,E,4,51,0.55,16.674,M,15.25,M,0,3335*48
$GNRMC,032003.500,A,2500.7828929,N,12132.4668334,E,0.05,61.32,090324,,,R,V*2A
$GPHDT,,T*1B
$GNACCURACY,4.7*15
$GNGGA,032003.600,2500.7828941,N,12132.4668322,E,4,51,0.55,16.676,M,15.25,M,0,3335*40
$GNRMC,032003.600,A,2500.7828941,N,12132.4668322,E,0.03,61.32,090324,,,R,V*26
$GPHDT,273.028,T*39
$GNACCURACY,4.7*15
$GNGGA,032003.700,2500.7828934,N,12132.4668324,E,4,51,0.55,16.674,M,15.25,M,0,3335*47
$GNRMC,032003.700,A,2500.7828934,N,12132.4668324,E,0.01,61.32,090324,,,R,V*21
$GPHDT,,T*1B
$GNACCURACY,4.7*15
$GNGGA,032003.800,2500.7828937,N,12132.4668317,E,4,50,0.57,16.674,M,15.25,M,0,3335*48
$GNRMC,032003.800,A,2500.7828937,N,12132.4668317,E,0.08,61.32,090324,,,R,V*24
$GPHDT,272.850,T*3F
$GNACCURACY,4.6*14
$GNGGA,032003.900,2500.7828939,N,12132.4668332,E,4,51,0.55,16.671,M,15.25,M,0,3335*46
$GNRMC,032003.900,A,2500.7828939,N,12132.4668332,E,0.03,61.32,090324,,,R,V*27
$GPHDT,,T*1B
$GNACCURACY,4.6*14
$GNGGA,032004.000,2500.7828943,N,12132.4668325,E,4,51,0.55,16.674,M,15.25,M,1,3335*47
$GNRMC,032004.000,A,2500.7828943,N,12132.4668325,E,0.03,61.32,090324,,,R,V*22
$GPHDT,272.611,T*34
$GNGSA,A,3,08,194,195,27,21,16,04,09,02,196,31,26,1.04,0.55,0.88,1*3B
$GNGSA,A,3,88,78,77,87,,,,,,,,,1.04,0.55,0.88,2*07
$GNGSA,A,3,21,13,19,27,15,,,,,,,,1.04,0.55,0.88,3*0E
$GNGSA,A,3,06,16,43,09,39,40,07,23,10,11,25,28,1.04,0.55,0.88,4*0A
$GNGSA,A,3,34,,,,,,,,,,,,1.04,0.55,0.88,4*06
$GPGSV,4,1,15,08,72,292,45,199,66,164,,194,63,045,43,195,56,124,38,1*5F
$GPGSV,4,2,15,27,53,025,44,45,47,231,36,21,36,171,44,16,36,051,43,1*65
$GPGSV,4,3,15,04,35,219,43,09,31,271,25,02,24,182,36,07,22,320,16,1*6B
$GPGSV,4,4,15,196,21,174,24,31,18,135,15,26,18,081,33,1*65
$GPGSV,2,1,07,08,72,292,43,194,63,045,41,195,56,124,38,27,53,025,38,8*6A
$GPGSV,2,2,07,04,35,219,38,09,31,271,26,26,18,081,27,8*53
$GLGSV,2,1,05,88,72,090,43,78,44,000,22,77,33,081,33,87,25,031,26,1*7D
$GLGSV,2,2,05,79,10,317,13,1*45
$GAGSV,2,1,08,21,50,344,27,13,48,113,38,19,38,261,28,27,35,059,42,7*7B
$GAGSV,2,2,08,26,25,175,32,15,24,052,30,04,08,315,,20,,,30,7*46
$GAGSV,1,1,04,13,48,113,39,19,38,261,23,27,35,059,41,15,24,052,29,1*75
$GBGSV,4,1,13,06,83,232,41,16,81,187,42,43,76,073,44,09,74,307,41,1*75
$GBGSV,4,2,13,39,69,173,44,40,67,313,44,07,63,291,39,23,59,352,45,1*7C
$GBGSV,4,3,13,10,52,274,32,11,51,048,44,25,49,091,43,28,36,206,20,1*71
$GBGSV,4,4,13,34,28,041,37,1*48
$GBGSV,2,1,06,39,69,173,40,40,67,313,42,23,59,352,41,25,49,091,42,4*78
$GBGSV,2,2,06,28,36,206,24,34,28,041,33,4*70
$GNACCURACY,4.6*14
$PAIRSAT,1,27,2,0,201,3,0,200,4,0,221,5,0,200,7,0,1,8,0,21,9,0,21,14,0,200,15,0,200,16,0,201,17,0,200,18,0,200,19,0,200,20,0,200,21,0,201,22,0,200,23,0,200,24,0,200,25,0,200,26,0,221,27,0,221,28,0,200,31,0,1,194,0,421,195,0,621,196,0,220,199,0,600*61
$PAIRSAT,2,15,70,0,200,71,0,200,74,0,200,75,0,200,76,0,200,77,0,201,78,0,201,79,0,201,82,0,200,83,0,200,84,0,200,85,0,200,86,0,200,87,0,201,88,0,201*54
$PAIRSAT,3,19,2,0,1200,3,0,1200,4,0,1200,5,0,200,7,0,1200,8,0,1000,9,0,1000,13,0,21,15,0,21,19,0,21,21,0,221,25,0,1200,26,0,1200,27,0,1221,30,0,1200,31,0,1200,33,0,1200,34,0,1200,36,0,1200*56
$PAIRSAT,4,46,1,0,200,2,0,200,3,0,400,4,0,200,5,0,200,6,0,201,7,0,201,8,0,200,9,0,201,10,0,201,11,0,201,12,0,200,13,0,200,14,0,200,16,0,201,19,0,400,20,0,400,21,0,400,22,0,400,23,0,421,24,0,600,25,0,621,26,0,600,27,0,400,28,0,621,29,0,600,30,0,600,32,0,600,33,0,600,34,0,621,35,0,600,36,0,600,37,0,400,38,0,400,39,0,421,40,0,421,41,0,400,42,0,400,43,0,421,44,0,400,45,0,400,46,0,400,59,0,400,60,0,400,61,0,400,62,0,400*48
$PAIRDGP,8,2,4,7,8,9,16,21,27*7C
$GNGGA,032004.100,2500.7828962,N,12132.4668311,E,4,51,0.55,16.661,M,15.25,M,1,3335*46
$GNRMC,032004.100,A,2500.7828962,N,12132.4668311,E,0.05,61.32,090324,,,R,V*21
$GPHDT,,T*1B
$GNACCURACY,4.6*14
$GNGGA,032004.200,2500.7828931,N,12132.4668338,E,4,51,0.55,16.686,M,15.25,M,1,3335*41
$GNRMC,032004.200,A,2500.7828931,N,12132.4668338,E,0.05,61.32,090324,,,R,V*2F
$GPHDT,272.579,T*39
$GNACCURACY,4.6*14
$GNGGA,032004.300,2500.7828934,N,12132.4668309,E,4,51,0.55,16.684,M,15.25,M,1,3335*45
$GNRMC,032004.300,A,2500.7828934,N,12132.4668309,E,0.03,61.32,090324,,,R,V*2F
$GPHDT,,T*1B
$GNACCURACY,4.6*14
$GNGGA,032004.400,2500.7828911,N,12132.4668335,E,4,51,0.55,16.700,M,15.25,M,1,3335*47
$GNRMC,032004.400,A,2500.7828911,N,12132.4668335,E,0.04,61.32,090324,,,R,V*27
$GPHDT,272.525,T*30
$GNACCURACY,4.6*14
$GNGGA,032004.500,2500.7828953,N,12132.4668331,E,4,50,0.55,16.696,M,15.25,M,1,3335*4B
$GNRMC,032004.500,A,2500.7828953,N,12132.4668331,E,0.01,61.32,090324,,,R,V*21
$GPHDT,,T*1B
$GNACCURACY,4.6*14
$GNGGA,032004.600,2500.7828940,N,12132.4668351,E,4,52,0.55,16.688,M,15.25,M,0,3335*40
$GNRMC,032004.600,A,2500.7828940,N,12132.4668351,E,0.06,61.32,090324,,,R,V*21
$GPHDT,272.103,T*30
$GNACCURACY,4.6*14
$GNGGA,032004.700,2500.7828944,N,12132.4668338,E,4,52,0.55,16.675,M,15.25,M,0,3335*48
$GNRMC,032004.700,A,2500.7828944,N,12132.4668338,E,0.08,61.32,090324,,,R,V*25
$GPHDT,,T*1B
$GNACCURACY,4.6*14
$GNGGA,032004.800,2500.7828948,N,12132.4668334,E,4,52,0.55,16.679,M,15.25,M,0,3335*4B
$GNRMC,032004.800,A,2500.7828948,N,12132.4668334,E,0.03,61.32,090324,,,R,V*21
$GPHDT,271.946,T*3A
$GNACCURACY,4.6*14
$GNGGA,032004.900,2500.7828956,N,12132.4668329,E,4,52,0.55,16.673,M,15.25,M,0,3335*43
$GNRMC,032004.900,A,2500.7828956,N,12132.4668329,E,0.06,61.32,090324,,,R,V*26
$GPHDT,,T*1B
$GNACCURACY,4.6*14
$GNGGA,032005.000,2500.7828953,N,12132.4668328,E,4,51,0.57,16.678,M,15.25,M,1,3335*44
$GNRMC,032005.000,A,2500.7828953,N,12132.4668328,E,0.03,61.32,090324,,,R,V*2F
$GPHDT,271.698,T*36
$GNGSA,A,3,08,194,195,27,21,16,04,09,02,26,196,,1.07,0.57,0.90,1*31
$GNGSA,A,3,88,78,77,87,,,,,,,,,1.07,0.57,0.90,2*0F
$GNGSA,A,3,21,13,19,27,15,,,,,,,,1.07,0.57,0.90,3*06
$GNGSA,A,3,06,16,43,09,39,40,07,23,10,11,25,28,1.07,0.57,0.90,4*02
$GNGSA,A,3,34,,,,,,,,,,,,1.07,0.57,0.90,4*0E
$GPGSV,4,1,15,08,72,292,45,199,66,164,,194,63,045,43,195,56,124,39,1*5E
$GPGSV,4,2,15,27,53,025,44,45,47,231,36,21,36,171,41,16,36,051,43,1*60
$GPGSV,4,3,15,04,35,219,42,09,31,271,24,02,24,182,38,07,22,320,17,1*64
$GPGSV,4,4,15,196,21,174,24,31,18,135,15,26,18,081,32,1*64
$GPGSV,2,1,08,08,72,292,43,194,63,045,42,195,56,124,40,27,53,025,37,8*66
$GPGSV,2,2,08,04,35,219,39,09,31,271,24,196,21,174,24,26,18,081,28,8*59
$GLGSV,2,1,05,88,72,090,43,78,44,000,23,77,33,081,31,87,25,031,26,1*7E
$GLGSV,2,2,05,79,10,317,15,1*43
$GAGSV,2,1,08,21,50,344,25,13,48,113,40,19,38,261,29,27,35,059,42,7*77
$GAGSV,2,2,08,26,25,175,32,15,24,052,27,04,08,315,,20,,,30,7*40
$GAGSV,1,1,04,13,48,113,41,19,38,261,25,27,35,059,41,15,24,052,29,1*7C
$GBGSV,4,1,13,06,83,232,41,16,81,187,42,43,76,073,43,09,74,307,41,1*72
$GBGSV,4,2,13,39,69,173,44,40,67,313,44,07,63,291,39,23,59,352,45,1*7C
$GBGSV,4,3,13,10,52,274,32,11,51,048,44,25,49,091,43,28,36,206,20,1*71
$GBGSV,4,4,13,34,28,041,36,1*49
$GBGSV,2,1,06,39,69,173,42,40,67,313,42,23,59,352,41,25,49,091,43,4*7B
$GBGSV,2,2,06,28,36,206,25,34,28,041,33,4*71
$GNACCURACY,4.6*14
$PAIRSAT,1,27,2,0,201,3,0,200,4,0,221,5,0,200,7,0,1,8,0,21,9,0,21,14,0,200,15,0,200,16,0,201,17,0,200,18,0,200,19,0,200,20,0,200,21,0,201,22,0,200,23,0,200,24,0,200,25,0,200,26,0,221,27,0,221,28,0,200,31,0,1,194,0,421,195,0,621,196,0,220,199,0,600*61
$PAIRSAT,2,15,70,0,200,71,0,200,74,0,200,75,0,200,76,0,200,77,0,201,78,0,201,79,0,201,82,0,200,83,0,200,84,0,200,85,0,200,86,0,200,87,0,201,88,0,201*54
$PAIRSAT,3,19,2,0,1200,3,0,1200,4,0,1200,5,0,200,7,0,1200,8,0,1000,9,0,1000,13,0,21,15,0,21,19,0,21,21,0,221,25,0,1200,26,0,1200,27,0,1221,30,0,1200,31,0,1200,33,0,1200,34,0,1200,36,0,1200*56
$PAIRSAT,4,46,1,0,200,2,0,200,3,0,400,4,0,200,5,0,200,6,0,201,7,0,201,8,0,200,9,0,201,10,0,201,11,0,201,12,0,200,13,0,200,14,0,200,16,0,201,19,0,400,20,0,400,21,0,400,22,0,400,23,0,421,24,0,600,25,0,621,26,0,600,27,0,400,28,0,621,29,0,600,30,0,600,32,0,600,33,0,600,34,0,621,35,0,600,36,0,600,37,0,400,38,0,400,39,0,421,40,0,421,41,0,400,42,0,400,43,0,421,44,0,400,45,0,400,46,0,400,59,0,400,60,0,400,61,0,400,62,0,400*48
$PAIRDGP,8,2,4,7,8,9,16,21,27*7C
$GNGGA,032005.100,2500.7828938,N,12132.4668329,E,4,50,0.57,16.684,M,15.25,M,1,3335*4B
$GNRMC,032005.100,A,2500.7828938,N,12132.4668329,E,0.02,61.32,090324,,,R,V*23
$GPHDT,,T*1B
$GNACCURACY,4.6*14
$GNGGA,032005.200,2500.7828955,N,12132.4668315,E,4,50,0.57,16.683,M,15.25,M,1,3335*4B
$GNRMC,032005.200,A,2500.7828955,N,12132.4668315,E,0.02,61.32,090324,,,R,V*24
$GPHDT,271.644,T*37
$GNACCURACY,4.6*14
$GNGGA,032005.300,2500.7828946,N,12132.4668313,E,4,50,0.57,16.682,M,15.25,M,1,3335*4F
$GNRMC,032005.300,A,2500.7828946,N,12132.4668313,E,0.01,61.32,090324,,,R,V*22
$GPHDT,,T*1B
$GNACCURACY,4.6*14
$GNGGA,032005.400,2500.7828961,N,12132.4668292,E,4,51,0.57,16.669,M,15.25,M,1,3335*41
$GNRMC,032005.400,A,2500.7828961,N,12132.4668292,E,0.01,61.32,090324,,,R,V*28
$GPHDT,272.099,T*32
$GNACCURACY,4.6*14
$GNGGA,032005.500,2500.7828925,N,12132.4668321,E,4,50,0.57,16.670,M,15.25,M,0,3335*41
$GNRMC,032005.500,A,2500.7828925,N,12132.4668321,E,0.00,61.32,090324,,,R,V*21
$GPHDT,,T*1B
$GNACCURACY,4.6*14
$GNGGA,032005.600,2500.7828940,N,12132.4668298,E,4,51,0.57,16.673,M,15.25,M,0,3335*40
$GNRMC,032005.600,A,2500.7828940,N,12132.4668298,E,0.01,61.32,090324,,,R,V*23
$GPHDT,272.153,T*35
$GNACCURACY,4.6*14
$GNGGA,032005.700,2500.7828928,N,12132.4668303,E,4,50,0.57,16.678,M,15.25,M,0,3335*46
$GNRMC,032005.700,A,2500.7828928,N,12132.4668303,E,0.03,61.32,090324,,,R,V*2D
$GPHDT,,T*1B
$GNACCURACY,4.6*14
$GNGGA,032005.800,2500.7828930,N,12132.4668279,E,4,50,0.57,16.656,M,15.25,M,0,3335*40
$GNRMC,032005.800,A,2500.7828930,N,12132.4668279,E,0.04,61.32,090324,,,R,V*20
$GPHDT,272.438,T*3D
$GNACCURACY,4.6*14
$GNGGA,032005.900,2500.7828911,N,12132.4668309,E,4,50,0.57,16.655,M,15.25,M,0,3335*47
$GNRMC,032005.900,A,2500.7828911,N,12132.4668309,E,0.04,61.32,090324,,,R,V*24
$GPHDT,,T*1B
$GNACCURACY,4.6*14
$GNGGA,032006.000,2500.7828915,N,12132.4668279,E,4,50,0.57,16.658,M,15.25,M,1,3335*43
$GNRMC,032006.000,A,2500.7828915,N,12132.4668279,E,0.02,61.32,090324,,,R,V*2A
$GPHDT,272.259,T*3C
$GNGSA,A,3,08,194,195,27,21,16,04,09,02,26,196,,1.07,0.57,0.90,1*31
$GNGSA,A,3,88,78,77,87,,,,,,,,,1.07,0.57,0.90,2*0F
$GNGSA,A,3,21,13,19,27,15,,,,,,,,1.07,0.57,0.90,3*06
$GNGSA,A,3,06,16,43,09,39,40,07,23,10,11,25,28,1.07,0.57,0.90,4*02
$GNGSA,A,3,34,,,,,,,,,,,,1.07,0.57,0.90,4*0E
$GPGSV,4,1,15,08,72,292,45,199,66,164,,194,63,045,43,195,56,124,40,1*50
$GPGSV,4,2,15,27,53,025,44,45,47,231,36,21,36,171,43,16,36,051,43,1*62
$GPGSV,4,3,15,04,35,219,42,09,31,271,24,02,24,182,32,07,22,320,14,1*6D
$GPGSV,4,4,15,196,21,174,20,31,18,135,13,26,18,081,32,1*66
$GPGSV,2,1,08,08,72,292,43,194,63,045,42,195,56,124,42,27,53,025,37,8*64
$GPGSV,2,2,08,04,35,219,38,09,31,271,21,196,21,174,24,26,18,081,29,8*5C
$GLGSV,2,1,05,88,72,090,43,78,44,000,26,77,33,081,29,87,25,031,24,1*70
$GLGSV,2,2,05,79,10,317,14,1*42
$GAGSV,2,1,08,21,50,344,26,13,48,113,39,19,38,261,29,27,35,059,42,7*7A
$GAGSV,2,2,08,26,25,175,30,15,24,052,26,04,08,315,,20,,,32,7*41
$GAGSV,1,1,04,13,48,113,41,19,38,261,22,27,35,059,40,15,24,052,29,1*7A
$GBGSV,4,1,13,06,83,232,41,16,81,187,42,43,76,073,44,09,74,307,41,1*75
$GBGSV,4,2,13,39,69,173,44,40,67,313,44,07,63,291,39,23,59,352,45,1*7C
$GBGSV,4,3,13,10,52,274,30,11,51,048,44,25,49,091,43,28,36,206,20,1*73
$GBGSV,4,4,13,34,28,041,37,1*48
$GBGSV,2,1,06,39,69,173,42,40,67,313,42,23,59,352,41,25,49,091,42,4*7A
$GBGSV,2,2,06,28,36,206,23,34,28,041,32,4*76
$GNACCURACY,4.6*14
$PAIRSAT,1,27,2,0,201,3,0,200,4,0,221,5,0,200,7,0,1,8,0,21,9,0,21,14,0,200,15,0,200,16,0,201,17,0,200,18,0,200,19,0,200,20,0,200,21,0,201,22,0,200,23,0,200,24,0,200,25,0,200,26,0,221,27,0,221,28,0,200,31,0,1,194,0,421,195,0,621,196,0,220,199,0,600*61
$PAIRSAT,2,15,70,0,200,71,0,200,74,0,200,75,0,200,76,0,200,77,0,201,78,0,201,79,0,201,82,0,200,83,0,200,84,0,200,85,0,200,86,0,200,87,0,201,88,0,201*54
$PAIRSAT,3,19,2,0,1200,3,0,1200,4,0,1200,5,0,200,7,0,1200,8,0,1000,9,0,1000,13,0,21,15,0,21,19,0,21,21,0,221,25,0,1200,26,0,1200,27,0,1221,30,0,1200,31,0,1200,33,0,1200,34,0,1200,36,0,1200*56
$PAIRSAT,4,46,1,0,200,2,0,200,3,0,400,4,0,200,5,0,200,6,0,201,7,0,201,8,0,200,9,0,201,10,0,201,11,0,201,12,0,200,13,0,200,14,0,200,16,0,201,19,0,400,20,0,400,21,0,400,22,0,400,23,0,421,24,0,600,25,0,621,26,0,600,27,0,400,28,0,621,29,0,600,30,0,600,32,0,600,33,0,600,34,0,621,35,0,600,36,0,600,37,0,400,38,0,400,39,0,421,40,0,421,41,0,400,42,0,400,43,0,421,44,0,400,45,0,400,46,0,400,59,0,400,60,0,400,61,0,400,62,0,400*48
$PAIRDGP,8,2,4,7,8,9,16,21,27*7C
$GNGGA,032006.100,2500.7828916,N,12132.4668291,E,4,50,0.57,16.646,M,15.25,M,1,3335*48
$GNRMC,032006.100,A,2500.7828916,N,12132.4668291,E,0.02,61.32,090324,,,R,V*2E
$GPHDT,,T*1B
$GNACCURACY,4.6*14
$GNGGA,032006.200,2500.7828928,N,12132.4668273,E,4,50,0.57,16.650,M,15.25,M,1,3335*4D
$GNRMC,032006.200,A,2500.7828928,N,12132.4668273,E,0.03,61.32,090324,,,R,V*2D
$GPHDT,271.837,T*3D
$GNACCURACY,4.6*14
$GNGGA,032006.300,2500.7828909,N,12132.4668281,E,4,50,0.57,16.651,M,15.25,M,1,3335*43
$GNRMC,032006.300,A,2500.7828909,N,12132.4668281,E,0.02,61.32,090324,,,R,V*23
$GPHDT,,T*1B
$GNACCURACY,4.6*14
$GNGGA,032006.400,2500.7828922,N,12132.4668296,E,4,50,0.57,16.654,M,15.25,M,1,3335*4E
$GNRMC,032006.400,A,2500.7828922,N,12132.4668296,E,0.02,61.32,090324,,,R,V*2B
$GPHDT,272.062,T*36
$GNACCURACY,4.6*14
$GNGGA,032006.500,2500.7828901,N,12132.4668283,E,4,50,0.57,16.657,M,15.25,M,1,3335*49
$GNRMC,032006.500,A,2500.7828901,N,12132.4668283,E,0.05,61.32,090324,,,R,V*28
$GPHDT,,T*1B
$GNACCURACY,4.6*14
$GNGGA,032006.600,2500.7828936,N,12132.4668288,E,4,50,0.57,16.661,M,15.25,M,0,3335*41
$GNRMC,032006.600,A,2500.7828936,N,12132.4668288,E,0.04,61.32,090324,,,R,V*25
$GPHDT,272.017,T*34
$GNACCURACY,4.6*14
$GNGGA,032006.700,2500.7828928,N,12132.4668292,E,4,50,0.57,16.657,M,15.25,M,0,3335*41
$GNRMC,032006.700,A,2500.7828928,N,12132.4668292,E,0.03,61.32,090324,,,R,V*27
$GPHDT,,T*1B
$GNACCURACY,4.6*14
$GNGGA,032006.800,2500.7828949,N,12132.4668287,E,4,49,0.57,16.655,M,15.25,M,0,3335*47
$GNRMC,032006.800,A,2500.7828949,N,12132.4668287,E,0.07,61.32,090324,,,R,V*2F
$GPHDT,272.014,T*37
$GNACCURACY,4.6*14
$GNGGA,032006.900,2500.7828942,N,12132.4668277,E,4,49,0.57,16.655,M,15.25,M,0,3335*42
$GNRMC,032006.900,A,2500.7828942,N,12132.4668277,E,0.04,61.32,090324,,,R,V*29
$GPHDT,,T*1B
$GNACCURACY,4.7*15
$GNGGA,032007.000,2500.7828924,N,12132.4668296,E,4,49,0.57,16.664,M,15.25,M,1,3335*46
$GNRMC,032007.000,A,2500.7828924,N,12132.4668296,E,0.02,61.32,090324,,,R,V*28
$GPHDT,272.180,T*3B
$GNGSA,A,3,08,194,195,27,21,16,04,09,02,26,196,,1.07,0.57,0.90,1*31
$GNGSA,A,3,88,78,77,87,,,,,,,,,1.07,0.57,0.90,2*0F
$GNGSA,A,3,21,13,19,27,15,,,,,,,,1.07,0.57,0.90,3*06
$GNGSA,A,3,06,16,43,09,39,40,07,23,10,11,25,28,1.07,0.57,0.90,4*02
$GNGSA,A,3,34,,,,,,,,,,,,1.07,0.57,0.90,4*0E
$GPGSV,4,1,15,08,72,292,45,199,66,164,,194,63,045,43,195,56,124,40,1*50
$GPGSV,4,2,15,27,53,025,44,45,47,231,38,21,36,171,43,16,36,051,43,1*6C
$GPGSV,4,3,15,04,35,219,42,09,31,271,24,02,25,182,30,07,22,320,15,1*6F
$GPGSV,4,4,15,196,21,174,19,31,18,135,13,26,18,081,30,1*6E
$GPGSV,2,1,07,08,72,292,43,194,63,045,42,195,56,124,42,27,53,025,36,8*6A
$GPGSV,2,2,07,04,35,219,38,196,21,174,24,26,18,081,28,8*6E
$GLGSV,2,1,05,88,72,090,43,78,44,000,25,77,33,081,28,87,25,031,30,1*77
$GLGSV,2,2,05,79,10,317,15,1*43
$GAGSV,2,1,08,21,50,344,26,13,48,113,39,19,38,261,27,27,35,059,41,7*77
$GAGSV,2,2,08,26,25,175,31,15,24,052,25,04,08,315,,20,,,31,7*40
$GAGSV,1,1,04,13,48,113,40,19,38,261,22,27,35,059,40,15,24,052,29,1*7B
$GBGSV,4,1,13,06,83,232,40,16,81,187,41,43,76,073,44,09,74,307,41,1*77
$GBGSV,4,2,13,39,69,173,44,40,67,313,44,07,63,291,39,23,59,352,45,1*7C
$GBGSV,4,3,13,10,52,274,28,11,51,048,44,25,49,091,43,28,36,206,18,1*71
$GBGSV,4,4,13,34,28,041,37,1*48
$GBGSV,2,1,06,39,69,173,41,40,67,313,42,23,59,352,41,25,49,091,42,4*79
$GBGSV,2,2,06,28,36,206,22,34,28,041,32,4*77
$GNACCURACY,4.7*15
$PAIRSAT,1,27,2,0,201,3,0,200,4,0,221,5,0,200,7,0,1,8,0,21,9,0,21,14,0,200,15,0,200,16,0,201,17,0,200,18,0,200,19,0,200,20,0,200,21,0,201,22,0,200,23,0,200,24,0,200,25,0,200,26,0,221,27,0,221,28,0,200,31,0,1,194,0,421,195,0,621,196,0,220,199,0,600*61
$PAIRSAT,2,15,70,0,200,71,0,200,74,0,200,75,0,200,76,0,200,77,0,201,78,0,201,79,0,201,82,0,200,83,0,200,84,0,200,85,0,200,86,0,200,87,0,201,88,0,201*54
$PAIRSAT,3,19,2,0,1200,3,0,1200,4,0,1200,5,0,200,7,0,1200,8,0,1000,9,0,1000,13,0,21,15,0,21,19,0,21,21,0,221,25,0,1200,26,0,1200,27,0,1221,30,0,1200,31,0,1200,33,0,1200,34,0,1200,36,0,1200*56
$PAIRSAT,4,46,1,0,200,2,0,200,3,0,400,4,0,200,5,0,200,6,0,201,7,0,201,8,0,200,9,0,201,10,0,201,11,0,201,12,0,200,13,0,200,14,0,200,16,0,201,19,0,400,20,0,400,21,0,400,22,0,400,23,0,421,24,0,600,25,0,621,26,0,600,27,0,400,28,0,621,29,0,600,30,0,600,32,0,600,33,0,600,34,0,621,35,0,600,36,0,600,37,0,400,38,0,400,39,0,421,40,0,421,41,0,400,42,0,400,43,0,421,44,0,400,45,0,400,46,0,400,59,0,400,60,0,400,61,0,400,62,0,400*48
$PAIRDGP,8,2,4,7,8,9,16,21,27*7C
$GNGGA,032007.100,2500.7828965,N,12132.4668285,E,4,49,0.57,16.650,M,15.25,M,1,3335*47
$GNRMC,032007.100,A,2500.7828965,N,12132.4668285,E,0.01,61.32,090324,,,R,V*2D
$GPHDT,,T*1B
$GNACCURACY,4.6*14
$GNGGA,032007.200,2500.7828926,N,12132.4668296,E,4,50,0.56,16.656,M,15.25,M,1,3335*4E
$GNRMC,032007.200,A,2500.7828926,N,12132.4668296,E,0.01,61.32,090324,,,R,V*2B
$GPHDT,272.278,T*3F
$GNACCURACY,4.6*14
$GNGGA,032007.300,2500.7828954,N,12132.4668301,E,4,51,0.56,16.655,M,15.25,M,1,3335*47
$GNRMC,032007.300,A,2500.7828954,N,12132.4668301,E,0.01,61.32,090324,,,R,V*20
$GPHDT,,T*1B
$GNACCURACY,4.6*14
$GNGGA,032007.400,2500.7828955,N,12132.4668288,E,4,51,0.56,16.662,M,15.25,M,1,3335*45
$GNRMC,032007.400,A,2500.7828955,N,12132.4668288,E,0.03,61.32,090324,,,R,V*24
$GPHDT,272.161,T*34
$GNACCURACY,4.6*14
$GNGGA,032007.500,2500.7828938,N,12132.4668293,E,4,51,0.56,16.660,M,15.25,M,1,3335*47
$GNRMC,032007.500,A,2500.7828938,N,12132.4668293,E,0.02,61.32,090324,,,R,V*25
$GPHDT,,T*1B
$GNACCURACY,4.6*14
$GNGGA,032007.600,2500.7828942,N,12132.4668290,E,4,51,0.56,16.653,M,15.25,M,1,3335*4A
$GNRMC,032007.600,A,2500.7828942,N,12132.4668290,E,0.02,61.32,090324,,,R,V*28
$GPHDT,272.167,T*32
$GNACCURACY,4.6*14
$GNGGA,032007.700,2500.7828930,N,12132.4668289,E,4,50,0.56,16.661,M,15.25,M,0,3335*47
$GNRMC,032007.700,A,2500.7828930,N,12132.4668289,E,0.01,61.32,090324,,,R,V*27
$GPHDT,,T*1B
$GNACCURACY,4.6*14
$GNGGA,032007.800,2500.7828947,N,12132.4668301,E,4,49,0.56,16.651,M,15.25,M,0,3335*42
$GNRMC,032007.800,A,2500.7828947,N,12132.4668301,E,0.04,61.32,090324,,,R,V*2C
$GPHDT,272.019,T*3A
$GNACCURACY,4.6*14
$GNGGA,032007.900,2500.7828929,N,12132.4668292,E,4,49,0.56,16.664,M,15.25,M,0,3335*46
$GNRMC,032007.900,A,2500.7828929,N,12132.4668292,E,0.03,61.32,090324,,,R,V*29
$GPHDT,,T*1B
$GNACCURACY,4.6*14
$GNGGA,032008.000,2500.7828937,N,12132.4668292,E,4,50,0.56,16.652,M,15.25,M,1,3335*43
$GNRMC,032008.000,A,2500.7828937,N,12132.4668292,E,0.02,61.32,090324,,,R,V*21
$GPHDT,272.248,T*3C
$GNGSA,A,3,08,194,195,27,16,21,04,09,02,26,196,,1.05,0.56,0.89,1*3A
$GNGSA,A,3,88,78,77,87,,,,,,,,,1.05,0.56,0.89,2*04
$GNGSA,A,3,21,13,19,27,26,15,,,,,,,1.05,0.56,0.89,3*09
$GNGSA,A,3,06,16,43,09,39,40,07,23,10,11,25,28,1.05,0.56,0.89,4*09
$GNGSA,A,3,34,,,,,,,,,,,,1.05,0.56,0.89,4*05
$GPGSV,4,1,15,08,72,292,45,199,66,164,,194,63,045,43,195,56,124,40,1*50
$GPGSV,4,2,15,27,53,025,44,45,47,231,36,16,36,052,43,21,36,171,43,1*61
$GPGSV,4,3,15,04,35,219,42,09,31,271,24,02,25,182,30,07,22,320,,1*6B
$GPGSV,4,4,15,196,21,174,20,31,18,135,15,26,18,081,30,1*62
$GPGSV,2,1,08,08,72,292,43,194,63,045,42,195,56,124,42,27,53,025,36,8*65
$GPGSV,2,2,08,04,35,219,38,09,31,271,23,196,21,174,24,26,18,081,29,8*5E
$GLGSV,2,1,05,88,72,090,43,78,44,000,26,77,33,081,28,87,25,031,30,1*74
$GLGSV,2,2,05,79,10,317,15,1*43
$GAGSV,2,1,08,21,50,344,27,13,48,113,39,19,38,261,26,27,35,059,41,7*77
$GAGSV,2,2,08,26,25,175,31,15,24,052,24,04,08,315,,20,,,31,7*41
$GAGSV,1,1,04,13,48,113,40,19,38,261,23,27,35,059,40,15,24,052,29,1*7A
$GBGSV,4,1,13,06,83,232,39,16,81,187,41,43,76,073,44,09,74,307,41,1*79
$GBGSV,4,2,13,39,69,173,44,40,67,313,44,07,63,291,39,23,59,352,45,1*7C
$GBGSV,4,3,13,10,52,274,28,11,51,048,44,25,49,091,43,28,36,206,18,1*71
$GBGSV,4,4,13,34,28,041,37,1*48
$GBGSV,2,1,06,39,69,173,41,40,67,313,41,23,59,352,41,25,49,091,42,4*7A
$GBGSV,2,2,06,28,36,206,22,34,28,041,33,4*76
$GNACCURACY,4.6*14
$PAIRSAT,1,27,2,0,201,3,0,200,4,0,221,5,0,200,7,0,1,8,0,21,9,0,21,14,0,200,15,0,200,16,0,201,17,0,200,18,0,200,19,0,200,20,0,200,21,0,201,22,0,200,23,0,200,24,0,200,25,0,200,26,0,221,27,0,221,28,0,200,31,0,1,194,0,421,195,0,621,196,0,220,199,0,600*61
$PAIRSAT,2,15,70,0,200,71,0,200,74,0,200,75,0,200,76,0,200,77,0,201,78,0,201,79,0,201,82,0,200,83,0,200,84,0,200,85,0,200,86,0,200,87,0,201,88,0,201*54
$PAIRSAT,3,19,2,0,1200,3,0,1200,4,0,1200,5,0,200,7,0,1200,8,0,1000,9,0,1000,13,0,21,15,0,21,19,0,21,21,0,221,25,0,1200,26,0,1201,27,0,1221,30,0,1200,31,0,1200,33,0,1200,34,0,1200,36,0,1200*57
$PAIRSAT,4,46,1,0,200,2,0,200,3,0,400,4,0,200,5,0,200,6,0,201,7,0,201,8,0,200,9,0,201,10,0,201,11,0,201,12,0,200,13,0,200,14,0,200,16,0,201,19,0,400,20,0,400,21,0,400,22,0,400,23,0,421,24,0,600,25,0,621,26,0,600,27,0,400,28,0,621,29,0,600,30,0,600,32,0,600,33,0,600,34,0,621,35,0,600,36,0,600,37,0,400,38,0,400,39,0,421,40,0,421,41,0,400,42,0,400,43,0,421,44,0,400,45,0,400,46,0,400,59,0,400,60,0,400,61,0,400,62,0,400*48
$PAIRDGP,8,2,4,7,8,9,16,21,27*7C
$GNGGA,032008.100,2500.7828941,N,12132.4668289,E,4,51,0.56,16.665,M,15.25,M,1,3335*4C
$GNRMC,032008.100,A,2500.7828941,N,12132.4668289,E,0.01,61.32,090324,,,R,V*28
$GPHDT,,T*1B
$GNACCURACY,4.6*14
$GNGGA,032008.200,2500.7828932,N,12132.4668299,E,4,51,0.56,16.662,M,15.25,M,1,3335*4D
$GNRMC,032008.200,A,2500.7828932,N,12132.4668299,E,0.02,61.32,090324,,,R,V*2D
$GPHDT,272.343,T*36
$GNACCURACY,4.6*14
$GNGGA,032008.300,2500.7828934,N,12132.4668300,E,4,50,0.56,16.666,M,15.25,M,1,3335*4E
$GNRMC,032008.300,A,2500.7828934,N,12132.4668300,E,0.02,61.32,090324,,,R,V*2B
$GPHDT,,T*1B
$GNACCURACY,4.6*14
$GNGGA,032008.400,2500.7828937,N,12132.4668299,E,4,51,0.51,16.665,M,15.25,M,1,3335*4E
$GNRMC,032008.400,A,2500.7828937,N,12132.4668299,E,0.01,61.32,090324,,,R,V*2D
$GPHDT,272.149,T*3E
$GNACCURACY,4.6*14
$GNGGA,032008.500,2500.7828935,N,12132.4668284,E,4,52,0.51,16.663,M,15.25,M,1,3335*44
$GNRMC,032008.500,A,2500.7828935,N,12132.4668284,E,0.01,61.32,090324,,,R,V*22
$GPHDT,,T*1B
$GNACCURACY,4.6*14
$GNGGA,032008.600,2500.7828939,N,12132.4668300,E,4,51,0.51,16.662,M,15.25,M,1,3335*44
$GNRMC,032008.600,A,2500.7828939,N,12132.4668300,E,0.01,61.32,090324,,,R,V*20
$GPHDT,272.146,T*31
$GNACCURACY,4.6*14
$GNGGA,032008.700,2500.7828924,N,12132.4668279,E,4,51,0.51,16.666,M,15.25,M,0,3335*43
$GNRMC,032008.700,A,2500.7828924,N,12132.4668279,E,0.01,61.32,090324,,,R,V*22
$GPHDT,,T*1B
$GNACCURACY,4.6*14
$GNGGA,032008.800,2500.7828921,N,12132.4668281,E,4,51,0.51,16.669,M,15.25,M,0,3335*41
$GNRMC,032008.800,A,2500.7828921,N,12132.4668281,E,0.01,61.32,090324,,,R,V*2F
$GPHDT,272.046,T*30
$GNACCURACY,4.6*14
$GNGGA,032008.900,2500.7828924,N,12132.4668278,E,4,51,0.51,16.672,M,15.25,M,0,3335*49
$GNRMC,032008.900,A,2500.7828924,N,12132.4668278,E,0.01,61.32,090324,,,R,V*2D
$GPHDT,,T*1B
$GNACCURACY,4.6*14
$GNGGA,032009.000,2500.7828917,N,12132.4668299,E,4,52,0.51,16.660,M,15.25,M,1,3335*4F
$GNRMC,032009.000,A,2500.7828917,N,12132.4668299,E,0.04,61.32,090324,,,R,V*2F
$GPHDT,271.968,T*36
$GNGSA,A,3,08,194,195,27,16,21,04,09,02,26,196,,0.91,0.51,0.76,1*31
$GNGSA,A,3,88,78,77,87,79,,,,,,,,0.91,0.51,0.76,2*01
$GNGSA,A,3,21,13,19,27,26,15,,,,,,,0.91,0.51,0.76,3*02
$GNGSA,A,3,06,16,43,09,39,40,07,23,10,11,25,28,0.91,0.51,0.76,4*02
$GNGSA,A,3,34,,,,,,,,,,,,0.91,0.51,0.76,4*0E
$GPGSV,4,1,15,08,72,292,45,199,66,164,,194,63,045,43,195,56,124,40,1*50
$GPGSV,4,2,15,27,53,025,44,45,47,231,38,16,36,052,43,21,36,171,43,1*6F
$GPGSV,4,3,15,04,35,219,42,09,31,271,24,02,25,182,30,07,22,320,,1*6B
$GPGSV,4,4,15,196,21,174,20,31,18,135,17,26,18,081,30,1*60
$GPGSV,2,1,08,08,72,292,43,194,63,045,42,195,56,124,42,27,53,025,36,8*65
$GPGSV,2,2,08,04,35,219,38,09,31,271,24,196,21,174,25,26,18,081,28,8*59
$GLGSV,2,1,05,88,72,090,42,78,44,000,26,77,33,081,27,87,25,031,30,1*7A
$GLGSV,2,2,05,79,10,317,16,1*40
$GAGSV,2,1,07,21,50,344,27,13,48,113,39,19,38,261,26,27,35,059,41,7*78
$GAGSV,2,2,07,26,25,175,31,15,24,052,24,20,,,31,7*75
$GAGSV,1,1,04,13,48,113,40,19,38,261,23,27,35,059,40,15,24,052,29,1*7A
$GBGSV,4,1,13,06,83,232,39,16,81,187,41,43,76,073,44,09,74,307,41,1*79
$GBGSV,4,2,13,39,69,173,44,40,67,313,44,07,63,291,39,23,59,352,45,1*7C
$GBGSV,4,3,13,10,52,274,28,11,51,048,44,25,49,091,43,28,36,206,18,1*71
$GBGSV,4,4,13,34,28,041,37,1*48
$GBGSV,2,1,06,39,69,173,41,40,67,313,41,23,59,352,42,25,49,091,42,4*79
$GBGSV,2,2,06,28,36,206,22,34,28,041,33,4*76
$GNACCURACY,4.5*17
$PAIRSAT,1,27,2,0,201,3,0,200,4,0,221,5,0,200,7,0,1,8,0,21,9,0,21,14,0,200,15,0,200,16,0,201,17,0,200,18,0,200,19,0,200,20,0,200,21,0,201,22,0,200,23,0,200,24,0,200,25,0,200,26,0,221,27,0,221,28,0,200,31,0,1,194,0,421,195,0,621,196,0,220,199,0,600*61
$PAIRSAT,2,15,70,0,200,71,0,200,74,0,200,75,0,200,76,0,200,77,0,201,78,0,201,79,0,201,82,0,200,83,0,200,84,0,200,85,0,200,86,0,200,87,0,201,88,0,201*54
$PAIRSAT,3,19,2,0,1200,3,0,1200,4,0,1200,5,0,200,7,0,1200,8,0,1000,9,0,1000,13,0,21,15,0,21,19,0,21,21,0,221,25,0,1200,26,0,1201,27,0,1221,30,0,1200,31,0,1200,33,0,1200,34,0,1200,36,0,1200*57
$PAIRSAT,4,46,1,0,200,2,0,200,3,0,400,4,0,200,5,0,200,6,0,201,7,0,201,8,0,200,9,0,201,10,0,201,11,0,201,12,0,200,13,0,200,14,0,200,16,0,201,19,0,400,20,0,400,21,0,400,22,0,400,23,0,421,24,0,600,25,0,621,26,0,600,27,0,400,28,0,621,29,0,600,30,0,600,32,0,600,33,0,600,34,0,621,35,0,600,36,0,600,37,0,400,38,0,400,39,0,421,40,0,421,41,0,400,42,0,400,43,0,421,44,0,400,45,0,400,46,0,400,59,0,400,60,0,400,61,0,400,62,0,400*48
$PAIRDGP,8,2,4,7,8,9,16,21,27*7C
$GNGGA,032009.100,2500.7828923,N,12132.4668292,E,4,52,0.51,16.668,M,15.25,M,1,3335*4A
$GNRMC,032009.100,A,2500.7828923,N,12132.4668292,E,0.02,61.32,090324,,,R,V*24
$GPHDT,,T*1B
$GNACCURACY,4.5*17
$GNGGA,032009.200,2500.7828933,N,12132.4668267,E,4,51,0.51,16.658,M,15.25,M,1,3335*42
$GNRMC,032009.200,A,2500.7828933,N,12132.4668267,E,0.01,61.32,090324,,,R,V*2F
$GPHDT,271.691,T*3F
$GNACCURACY,4.5*17
$GNGGA,032009.300,2500.7828908,N,12132.4668297,E,4,51,0.51,16.678,M,15.25,M,1,3335*46
$GNRMC,032009.300,A,2500.7828908,N,12132.4668297,E,0.01,61.32,090324,,,R,V*29
$GPHDT,,T*1B
$GNACCURACY,4.6*14
$GNGGA,032009.400,2500.7828930,N,12132.4668287,E,4,51,0.51,16.666,M,15.25,M,1,3335*44
$GNRMC,032009.400,A,2500.7828930,N,12132.4668287,E,0.01,61.32,090324,,,R,V*24
$GPHDT,271.892,T*32
$GNACCURACY,4.5*17
$GNGGA,032009.500,2500.7828928,N,12132.4668267,E,4,52,0.51,16.659,M,15.25,M,1,3335*4D
$GNRMC,032009.500,A,2500.7828928,N,12132.4668267,E,0.01,61.32,090324,,,R,V*22
$GPHDT,,T*1B
$GNACCURACY,4.5*17
$GNGGA,032009.600,2500.7828927,N,12132.4668274,E,4,52,0.51,16.655,M,15.25,M,0,3335*4E
$GNRMC,032009.600,A,2500.7828927,N,12132.4668274,E,0.01,61.32,090324,,,R,V*2C
$GPHDT,271.822,T*39
$GNACCURACY,4.5*17
$GNGGA,032009.700,2500.7828937,N,12132.4668278,E,4,52,0.51,16.660,M,15.25,M,0,3335*44
$GNRMC,032009.700,A,2500.7828937,N,12132.4668278,E,0.01,61.32,090324,,,R,V*20
$GPHDT,,T*1B
$GNACCURACY,4.6*14
$GNGGA,032009.800,2500.7828937,N,12132.4668262,E,4,52,0.51,16.651,M,15.25,M,0,3335*42
$GNRMC,032009.800,A,2500.7828937,N,12132.4668262,E,0.04,61.32,090324,,,R,V*21
$GPHDT,272.053,T*34
$GNACCURACY,4.6*14
$GNGGA,032009.900,2500.7828926,N,12132.4668274,E,4,52,0.51,16.661,M,15.25,M,0,3335*47
$GNRMC,032009.900,A,2500.7828926,N,12132.4668274,E,0.05,61.32,090324,,,R,V*26
$GPHDT,,T*1B
$GNACCURACY,4.6*14
$GNGGA,032010.000,2500.7828953,N,12132.4668257,E,4,52,0.51,16.652,M,15.25,M,1,3335*44
$GNRMC,032010.000,A,2500.7828953,N,12132.4668257,E,0.03,61.32,090324,,,R,V*22
$GPHDT,271.635,T*31
$GNGSA,A,3,08,194,195,27,16,21,04,09,02,26,196,,0.91,0.51,0.76,1*31
$GNGSA,A,3,88,78,77,87,79,,,,,,,,0.91,0.51,0.76,2*01
$GNGSA,A,3,21,13,19,27,26,15,,,,,,,0.91,0.51,0.76,3*02
$GNGSA,A,3,06,16,43,09,39,40,07,23,10,11,25,28,0.91,0.51,0.76,4*02
$GNGSA,A,3,34,,,,,,,,,,,,0.91,0.51,0.76,4*0E
$GPGSV,4,1,15,08,72,292,45,199,66,164,,194,63,045,43,195,57,124,40,1*51
$GPGSV,4,2,15,27,53,025,44,45,47,231,38,16,36,052,43,21,36,171,43,1*6F
$GPGSV,4,3,15,04,35,219,42,09,31,271,24,02,25,182,30,07,22,320,,1*6B
$GPGSV,4,4,15,196,21,174,20,31,18,135,15,26,18,081,29,1*6A
$GPGSV,2,1,08,08,72,292,43,194,63,045,42,195,57,124,42,27,53,025,36,8*64
$GPGSV,2,2,08,04,35,219,38,09,31,271,23,196,21,174,24,26,18,081,29,8*5E
$GLGSV,2,1,05,88,72,090,42,78,44,000,23,77,33,081,27,87,25,031,31,1*7E
$GLGSV,2,2,05,79,10,317,17,1*41
$GAGSV,2,1,07,21,50,344,27,13,48,113,39,19,38,261,26,27,35,059,41,7*78
$GAGSV,2,2,07,26,25,175,31,15,24,052,24,20,,,30,7*74
$GAGSV,1,1,04,13,48,113,40,19,38,261,24,27,35,059,40,15,24,052,28,1*7C
$GBGSV,4,1,13,06,83,232,39,16,81,187,41,43,76,073,44,09,74,307,41,1*79
$GBGSV,4,2,13,39,69,173,44,40,67,313,44,07,63,291,39,23,59,352,45,1*7C
$GBGSV,4,3,13,10,52,274,28,11,51,048,44,25,49,091,43,28,36,206,18,1*71
$GBGSV,4,4,13,34,28,041,37,1*48
$GBGSV,2,1,06,39,69,173,41,40,67,313,41,23,59,352,42,25,49,091,42,4*79
$GBGSV,2,2,06,28,36,206,21,34,28,041,33,4*75
$GNACCURACY,4.6*14
$PAIRSAT,1,27,2,0,201,3,0,200,4,0,221,5,0,200,7,0,1,8,0,21,9,0,21,14,0,200,15,0,200,16,0,201,17,0,200,18,0,200,19,0,200,20,0,200,21,0,201,22,0,200,23,0,200,24,0,200,25,0,200,26,0,221,27,0,221,28,0,200,31,0,1,194,0,421,195,0,621,196,0,220,199,0,600*61
$PAIRSAT,2,15,70,0,200,71,0,200,74,0,200,75,0,200,76,0,200,77,0,201,78,0,201,79,0,201,82,0,200,83,0,200,84,0,200,85,0,200,86,0,200,87,0,201,88,0,201*54
$PAIRSAT,3,19,2,0,1200,3,0,1200,4,0,1200,5,0,200,7,0,1200,8,0,1000,9,0,1000,13,0,21,15,0,21,19,0,21,21,0,221,25,0,1200,26,0,1201,27,0,1221,30,0,1200,31,0,1200,33,0,1200,34,0,1200,36,0,1200*57
$PAIRSAT,4,46,1,0,200,2,0,200,3,0,400,4,0,200,5,0,200,6,0,201,7,0,201,8,0,200,9,0,201,10,0,201,11,0,201,12,0,200,13,0,200,14,0,200,16,0,201,19,0,400,20,0,400,21,0,400,22,0,400,23,0,421,24,0,600,25,0,621,26,0,600,27,0,400,28,0,621,29,0,600,30,0,600,32,0,600,33,0,600,34,0,621,35,0,600,36,0,600,37,0,400,38,0,400,39,0,421,40,0,421,41,0,400,42,0,400,43,0,421,44,0,400,45,0,400,46,0,400,59,0,400,60,0,400,61,0,400,62,0,400*48
$PAIRDGP,8,2,4,7,8,9,16,21,27*7C
$GNGGA,032010.100,2500.7828933,N,12132.4668272,E,4,52,0.51,16.662,M,15.25,M,1,3335*47
$GNRMC,032010.100,A,2500.7828933,N,12132.4668272,E,0.00,61.32,090324,,,R,V*21
$GPHDT,,T*1B
$GNACCURACY,4.6*14
$GNGGA,032010.200,2500.7828942,N,12132.4668274,E,4,52,0.51,16.656,M,15.25,M,1,3335*43
$GNRMC,032010.200,A,2500.7828942,N,12132.4668274,E,0.02,61.32,090324,,,R,V*20
$GPHDT,271.591,T*3C
$GNACCURACY,4.6*14
$GNGGA,032010.300,2500.7828942,N,12132.4668269,E,4,52,0.51,16.657,M,15.25,M,1,3335*4F
$GNRMC,032010.300,A,2500.7828942,N,12132.4668269,E,0.00,61.32,090324,,,R,V*2F
$GPHDT,,T*1B
$GNACCURACY,4.6*14
$GNGGA,032010.400,2500.7828940,N,12132.4668276,E,4,52,0.51,16.659,M,15.25,M,1,3335*4A
$GNRMC,032010.400,A,2500.7828940,N,12132.4668276,E,0.00,61.32,090324,,,R,V*24
$GPHDT,271.798,T*37
$GNACCURACY,4.6*14
$GNGGA,032010.500,2500.7828919,N,12132.4668268,E,4,52,0.51,16.657,M,15.25,M,0,3335*47
$GNRMC,032010.500,A,2500.7828919,N,12132.4668268,E,0.00,61.32,090324,,,R,V*26
$GPHDT,,T*1B
$GNACCURACY,4.6*14
$GNGGA,032010.600,2500.7828940,N,12132.4668248,E,4,52,0.51,16.656,M,15.25,M,0,3335*4B
$GNRMC,032010.600,A,2500.7828940,N,12132.4668248,E,0.05,61.32,090324,,,R,V*2E
$GPHDT,271.510,T*35
$GNACCURACY,4.6*14
$GNGGA,032010.700,2500.7828935,N,12132.4668251,E,4,52,0.51,16.658,M,15.25,M,0,3335*4E
$GNRMC,032010.700,A,2500.7828935,N,12132.4668251,E,0.01,61.32,090324,,,R,V*21
$GPHDT,,T*1B
$GNACCURACY,4.6*14
$GNGGA,032010.800,2500.7828943,N,12132.4668257,E,4,52,0.51,16.653,M,15.25,M,0,3335*4D
$GNRMC,032010.800,A,2500.7828943,N,12132.4668257,E,0.02,61.32,090324,,,R,V*2A
$GPHDT,271.539,T*3E
$GNACCURACY,4.6*14
$GNGGA,032010.900,2500.7828943,N,12132.4668278,E,4,52,0.51,16.663,M,15.25,M,0,3335*42
$GNRMC,032010.900,A,2500.7828943,N,12132.4668278,E,0.04,61.32,090324,,,R,V*20
$GPHDT,,T*1B
$GNACCURACY,4.6*14
$GNGGA,032011.000,2500.7828918,N,12132.4668275,E,4,52,0.51,16.652,M,15.25,M,1,3335*4A
$GNRMC,032011.000,A,2500.7828918,N,12132.4668275,E,0.01,61.32,090324,,,R,V*2E
$GPHDT,272.058,T*3F
$GNGSA,A,3,08,194,195,27,16,21,04,09,02,26,196,,0.91,0.51,0.76,1*31
$GNGSA,A,3,88,78,77,87,79,,,,,,,,0.91,0.51,0.76,2*01
$GNGSA,A,3,21,13,19,27,26,15,,,,,,,0.91,0.51,0.76,3*02
$GNGSA,A,3,06,16,43,09,39,40,07,23,10,11,25,28,0.91,0.51,0.76,4*02
$GNGSA,A,3,34,,,,,,,,,,,,0.91,0.51,0.76,4*0E
$GPGSV,4,1,15,08,72,292,45,199,66,164,,194,63,045,43,195,57,124,40,1*51
$GPGSV,4,2,15,27,53,025,44,45,47,231,37,16,36,052,43,21,36,171,43,1*60
$GPGSV,4,3,15,04,35,219,42,09,31,271,24,02,25,182,31,07,22,320,,1*6A
$GPGSV,4,4,15,196,21,174,20,31,18,135,17,26,18,081,27,1*66
$GPGSV,2,1,08,08,72,292,43,194,63,045,42,195,57,124,42,27,53,025,36,8*64
$GPGSV,2,2,08,04,35,219,37,09,31,271,24,196,21,174,23,26,18,081,29,8*51
$GLGSV,2,1,05,88,72,090,43,78,44,000,22,77,33,081,27,87,25,031,32,1*7D
$GLGSV,2,2,05,79,10,317,16,1*40
$GAGSV,2,1,07,21,50,344,27,13,48,113,40,19,38,261,28,27,35,059,41,7*78
$GAGSV,2,2,07,26,25,175,31,15,24,052,24,20,,,30,7*74
$GAGSV,1,1,04,13,48,113,40,19,38,261,24,27,35,059,40,15,24,052,28,1*7C
$GBGSV,4,1,13,06,83,232,39,16,81,187,41,43,76,073,44,09,74,307,41,1*79
$GBGSV,4,2,13,39,69,173,44,40,67,313,44,07,63,291,39,23,59,352,45,1*7C
$GBGSV,4,3,13,10,52,274,29,11,51,048,44,25,49,091,43,28,36,206,19,1*71
$GBGSV,4,4,13,34,28,041,36,1*49
$GBGSV,2,1,06,39,69,173,41,40,67,313,41,23,59,352,42,25,49,091,42,4*79
$GBGSV,2,2,06,28,36,206,21,34,28,041,33,4*75
$GNACCURACY,4.6*14
$PAIRSAT,1,27,2,0,201,3,0,200,4,0,221,5,0,200,7,0,1,8,0,21,9,0,21,14,0,200,15,0,200,16,0,201,17,0,200,18,0,200,19,0,200,20,0,200,21,0,201,22,0,200,23,0,200,24,0,200,25,0,200,26,0,221,27,0,221,28,0,200,31,0,1,194,0,421,195,0,621,196,0,220,199,0,600*61
$PAIRSAT,2,15,70,0,200,71,0,200,74,0,200,75,0,200,76,0,200,77,0,201,78,0,201,79,0,201,82,0,200,83,0,200,84,0,200,85,0,200,86,0,200,87,0,201,88,0,201*54
$PAIRSAT,3,19,2,0,1200,3,0,1200,4,0,1200,5,0,200,7,0,1200,8,0,1000,9,0,1000,13,0,21,15,0,21,19,0,21,21,0,221,25,0,1200,26,0,1201,27,0,1221,30,0,1200,31,0,1200,33,0,1200,34,0,1200,36,0,1200*57
$PAIRSAT,4,46,1,0,200,2,0,200,3,0,400,4,0,200,5,0,200,6,0,201,7,0,201,8,0,200,9,0,201,10,0,201,11,0,201,12,0,200,13,0,200,14,0,200,16,0,201,19,0,400,20,0,400,21,0,400,22,0,400,23,0,421,24,0,600,25,0,621,26,0,600,27,0,400,28,0,621,29,0,600,30,0,600,32,0,600,33,0,600,34,0,621,35,0,600,36,0,600,37,0,400,38,0,400,39,0,421,40,0,421,41,0,400,42,0,400,43,0,421,44,0,400,45,0,400,46,0,400,59,0,400,60,0,400,61,0,400,62,0,400*48
$PAIRDGP,8,2,4,7,8,9,16,21,27*7C
$GNGGA,032011.100,2500.7828945,N,12132.4668278,E,4,52,0.51,16.657,M,15.25,M,1,3335*4B
$GNRMC,032011.100,A,2500.7828945,N,12132.4668278,E,0.02,61.32,090324,,,R,V*29
$GPHDT,,T*1B
$GNACCURACY,4.6*14
$GNGGA,032011.200,2500.7828913,N,12132.4668270,E,4,52,0.51,16.665,M,15.25,M,1,3335*42
$GNRMC,032011.200,A,2500.7828913,N,12132.4668270,E,0.00,61.32,090324,,,R,V*23
$GPHDT,272.214,T*35
$GNACCURACY,4.6*14
$GNGGA,032011.300,2500.7828915,N,12132.4668281,E,4,52,0.51,16.665,M,15.25,M,1,3335*4B
$GNRMC,032011.300,A,2500.7828915,N,12132.4668281,E,0.01,61.32,090324,,,R,V*2B
$GPHDT,,T*1B
$GNACCURACY,4.5*17
$GNGGA,032011.400,2500.7828915,N,12132.4668271,E,4,52,0.51,16.651,M,15.25,M,1,3335*44
$GNRMC,032011.400,A,2500.7828915,N,12132.4668271,E,0.00,61.32,090324,,,R,V*22
$GPHDT,271.973,T*3C
$GNACCURACY,4.5*17
$GNGGA,032011.500,2500.7828934,N,12132.4668262,E,4,52,0.51,16.663,M,15.25,M,0,3335*44
$GNRMC,032011.500,A,2500.7828934,N,12132.4668262,E,0.01,61.32,090324,,,R,V*23
$GPHDT,,T*1B
$GNACCURACY,4.5*17
$GNGGA,032011.600,2500.7828929,N,12132.4668278,E,4,52,0.51,16.651,M,15.25,M,0,3335*41
$GNRMC,032011.600,A,2500.7828929,N,12132.4668278,E,0.00,61.32,090324,,,R,V*26
$GPHDT,272.153,T*35
$GNACCURACY,4.5*17
$GNGGA,032011.700,2500.7828949,N,12132.4668266,E,4,52,0.51,16.663,M,15.25,M,0,3335*48
$GNRMC,032011.700,A,2500.7828949,N,12132.4668266,E,0.01,61.32,090324,,,R,V*2F
$GPHDT,,T*1B
$GNACCURACY,4.5*17
$GNGGA,032011.800,2500.7828935,N,12132.4668286,E,4,52,0.51,16.661,M,15.25,M,0,3335*40
$GNRMC,032011.800,A,2500.7828935,N,12132.4668286,E,0.00,61.32,090324,,,R,V*24
$GPHDT,272.033,T*32
$GNACCURACY,4.5*17
$GNGGA,032011.900,2500.7828946,N,12132.4668267,E,4,52,0.51,16.655,M,15.25,M,0,3335*4D
$GNRMC,032011.900,A,2500.7828946,N,12132.4668267,E,0.04,61.32,090324,,,R,V*2A
$GPHDT,,T*1B
$GNACCURACY,4.5*17
$GNGGA,032012.000,2500.7828927,N,12132.4668295,E,4,52,0.51,16.660,M,15.25,M,1,3335*4A
$GNRMC,032012.000,A,2500.7828927,N,12132.4668295,E,0.03,61.32,090324,,,R,V*2D
$GPHDT,271.852,T*3E
$GNGSA,A,3,08,194,195,27,16,21,04,09,02,26,196,,0.91,0.51,0.76,1*31
$GNGSA,A,3,88,78,77,87,79,,,,,,,,0.91,0.51,0.76,2*01
$GNGSA,A,3,21,13,19,27,26,15,,,,,,,0.91,0.51,0.76,3*02
$GNGSA,A,3,06,16,43,09,39,40,07,23,10,11,25,28,0.91,0.51,0.76,4*02
$GNGSA,A,3,34,,,,,,,,,,,,0.91,0.51,0.76,4*0E
$GPGSV,4,1,15,08,72,292,45,199,66,164,,194,63,045,42,195,57,124,40,1*50
$GPGSV,4,2,15,27,53,025,44,45,47,231,37,16,36,052,43,21,36,171,42,1*61
$GPGSV,4,3,15,04,35,219,42,09,31,271,24,02,25,182,24,07,22,320,,1*6E
$GPGSV,4,4,15,196,21,174,18,31,18,135,17,26,18,081,29,1*63
$GPGSV,2,1,08,08,72,292,43,194,63,045,42,195,57,124,41,27,53,025,37,8*66
$GPGSV,2,2,08,04,35,219,37,09,31,271,24,196,21,174,25,26,18,081,26,8*58
$GLGSV,2,1,05,88,72,090,42,78,44,000,25,77,33,081,30,87,25,031,32,1*7D
$GLGSV,2,2,05,79,10,317,14,1*42
$GAGSV,2,1,07,21,50,344,27,13,48,113,39,19,38,261,29,27,35,059,41,7*77
$GAGSV,2,2,07,26,25,175,30,15,24,052,24,20,,,30,7*75
$GAGSV,1,1,04,13,48,113,39,19,38,261,24,27,35,059,40,15,24,052,27,1*7D
$GBGSV,4,1,13,06,83,232,39,16,81,187,41,43,76,073,44,09,74,307,41,1*79
$GBGSV,4,2,13,39,69,173,44,40,67,313,44,07,63,291,39,23,59,352,45,1*7C
$GBGSV,4,3,13,10,52,274,29,11,51,048,44,25,49,091,43,28,36,206,19,1*71
$GBGSV,4,4,13,34,28,041,36,1*49
$GBGSV,2,1,06,39,69,173,41,40,67,313,41,23,59,352,41,25,49,091,42,4*7A
$GBGSV,2,2,06,28,36,206,20,34,28,041,32,4*75
$GNACCURACY,4.5*17
$PAIRSAT,1,28,2,0,201,3,0,200,4,0,221,5,0,200,6,0,200,7,0,1,8,0,21,9,0,21,14,0,200,15,0,200,16,0,201,17,0,200,18,0,200,19,0,200,20,0,200,21,0,201,22,0,200,23,0,200,24,0,200,25,0,200,26,0,221,27,0,221,28,0,200,31,0,1,194,0,421,195,0,621,196,0,220,199,0,600*76
$PAIRSAT,2,15,70,0,200,71,0,200,74,0,200,75,0,200,76,0,200,77,0,201,78,0,201,79,0,201,82,0,200,83,0,200,84,0,200,85,0,200,86,0,200,87,0,201,88,0,201*54
$PAIRSAT,3,19,2,0,1200,3,0,1200,4,0,1200,5,0,200,7,0,1200,8,0,1000,9,0,1000,13,0,21,15,0,21,19,0,21,21,0,221,25,0,1200,26,0,1201,27,0,1221,30,0,1200,31,0,1200,33,0,1200,34,0,1200,36,0,1200*57
$PAIRSAT,4,46,1,0,200,2,0,200,3,0,400,4,0,200,5,0,200,6,0,201,7,0,201,8,0,200,9,0,201,10,0,201,11,0,201,12,0,200,13,0,200,14,0,200,16,0,201,19,0,400,20,0,400,21,0,400,22,0,400,23,0,421,24,0,600,25,0,621,26,0,600,27,0,400,28,0,621,29,0,600,30,0,600,32,0,600,33,0,600,34,0,621,35,0,600,36,0,600,37,0,400,38,0,400,39,0,421,40,0,421,41,0,400,42,0,400,43,0,421,44,0,400,45,0,400,46,0,400,59,0,400,60,0,400,61,0,400,62,0,400*48
$PAIRDGP,8,2,4,7,8,9,16,21,27*7C
$GNGGA,032012.100,2500.7828940,N,12132.4668281,E,4,52,0.51,16.662,M,15.25,M,1,3335*4D
$GNRMC,032012.100,A,2500.7828940,N,12132.4668281,E,0.02,61.32,090324,,,R,V*29
$GPHDT,,T*1B
$GNACCURACY,4.5*17
$GNGGA,032012.200,2500.7828940,N,12132.4668278,E,4,52,0.51,16.660,M,15.25,M,1,3335*4A
$GNRMC,032012.200,A,2500.7828940,N,12132.4668278,E,0.00,61.32,090324,,,R,V*2E
$GPHDT,271.750,T*33
$GNACCURACY,4.5*17
$GNGGA,032012.300,2500.7828933,N,12132.4668295,E,4,52,0.51,16.656,M,15.25,M,1,3335*49
$GNRMC,032012.300,A,2500.7828933,N,12132.4668295,E,0.01,61.32,090324,,,R,V*29
$GPHDT,,T*1B
$GNACCURACY,4.5*17
$GNGGA,032012.400,2500.7828939,N,12132.4668280,E,4,51,0.51,16.656,M,15.25,M,1,3335*43
$GNRMC,032012.400,A,2500.7828939,N,12132.4668280,E,0.01,61.32,090324,,,R,V*20
$GPHDT,271.829,T*32
$GNACCURACY,4.6*14
$GNGGA,032012.500,2500.7828938,N,12132.4668292,E,4,51,0.51,16.654,M,15.25,M,1,3335*42
$GNRMC,032012.500,A,2500.7828938,N,12132.4668292,E,0.01,61.32,090324,,,R,V*23
$GPHDT,,T*1B
$GNACCURACY,4.6*14
$GNGGA,032012.600,2500.7828947,N,12132.4668296,E,4,52,0.51,16.664,M,15.25,M,1,3335*4D
$GNRMC,032012.600,A,2500.7828947,N,12132.4668296,E,0.01,61.32,090324,,,R,V*2C
$GPHDT,271.652,T*30
$GNACCURACY,4.6*14
$GNGGA,032012.700,2500.7828919,N,12132.4668294,E,4,53,0.50,16.651,M,15.25,M,0,3335*42
$GNRMC,032012.700,A,2500.7828919,N,12132.4668294,E,0.05,61.32,090324,,,R,V*20
$GPHDT,,T*1B
$GNACCURACY,4.6*14
$GNGGA,032012.800,2500.7828922,N,12132.4668276,E,4,52,0.50,16.664,M,15.25,M,0,3335*4E
$GNRMC,032012.800,A,2500.7828922,N,12132.4668276,E,0.05,61.32,090324,,,R,V*2B
$GPHDT,271.718,T*3F
$GNACCURACY,4.6*14
$GNGGA,032012.900,2500.7828941,N,12132.4668273,E,4,53,0.50,16.657,M,15.25,M,0,3335*4E
$GNRMC,032012.900,A,2500.7828941,N,12132.4668273,E,0.06,61.32,090324,,,R,V*29
$GPHDT,,T*1B
