$FW : RTK35X,V1.1X0314AS,Lib20210517,1*54
$Tool : LOCOSYS , GNSS Firebird , v1.0.0.19*39
$---------------------------------------------------*2D
$GNACCURACY,4.6*14
$GNGGA,031942.600,2500.7829028,N,12132.4668330,E,4,49,0.57,16.648,M,15.25,M,1,3335*4C
$GNRMC,031942.600,A,2500.7829028,N,12132.4668330,E,0.00,61.32,090324,,,R,V*2E
$GPHDT,355.401,T*33
$GNACCURACY,4.6*14
$GNGGA,031942.700,2500.7829013,N,12132.4668349,E,4,49,0.57,16.653,M,15.25,M,0,3335*40
$GNRMC,031942.700,A,2500.7829013,N,12132.4668349,E,0.00,61.32,090324,,,R,V*29
$GPHDT,,T*1B
$GNACCURACY,4.6*14
$GNGGA,031942.800,2500.7829040,N,12132.4668319,E,4,49,0.57,16.660,M,15.25,M,0,3335*4C
$GNRMC,031942.800,A,2500.7829040,N,12132.4668319,E,0.02,61.32,090324,,,R,V*27
$GPHDT,355.584,T*3F
$GNACCURACY,4.6*14
$GNGGA,031942.900,2500.7829010,N,12132.4668383,E,4,49,0.57,16.671,M,15.25,M,0,3335*4B
$GNRMC,031942.900,A,2500.7829010,N,12132.4668383,E,0.03,61.32,090324,,,R,V*21
$GPHDT,,T*1B
$GNACCURACY,4.6*14
$GNGGA,031943.000,2500.7829034,N,12132.4668348,E,4,49,0.57,16.669,M,15.25,M,1,3335*4A
$GNRMC,031943.000,A,2500.7829034,N,12132.4668348,E,0.02,61.32,090324,,,R,V*29
$GPHDT,355.355,T*35
$GNGSA,A,3,08,194,195,27,21,16,04,09,02,07,26,,1.06,0.57,0.89,1*01
$GNGSA,A,3,88,77,,,,,,,,,,,1.06,0.57,0.89,2*06
$GNGSA,A,3,21,13,19,27,15,,,,,,,,1.06,0.57,0.89,3*0F
$GNGSA,A,3,06,16,43,09,39,40,07,23,11,10,25,28,1.06,0.57,0.89,4*0B
$GNGSA,A,3,34,,,,,,,,,,,,1.06,0.57,0.89,4*07
$GPGSV,4,1,15,08,72,291,44,199,66,164,,194,63,045,42,195,56,124,39,1*5D
$GPGSV,4,2,15,27,53,025,41,45,47,231,39,21,36,171,45,16,36,051,40,1*6D
$GPGSV,4,3,15,04,35,219,38,09,31,271,24,02,24,182,37,07,22,320,24,1*66
$GPGSV,4,4,15,196,21,174,21,26,19,080,31,31,18,135,15,1*62
$GPGSV,2,1,08,08,72,291,45,194,63,045,42,195,56,124,40,27,53,025,33,8*67
$GPGSV,2,2,08,04,35,219,36,09,31,271,22,196,21,174,28,26,19,080,27,8*53
$GLGSV,2,1,05,88,72,091,43,78,44,000,,77,33,081,34,87,25,031,13,1*7D
$GLGSV,2,2,05,79,09,316,21,1*4D
$GAGSV,2,1,08,21,50,344,23,13,48,113,42,19,38,261,24,27,35,059,42,7*7E
$GAGSV,2,2,08,15,24,052,26,26,24,176,22,04,08,315,,20,,,35,7*47
$GAGSV,2,1,05,21,50,344,23,13,48,113,42,27,35,059,40,26,24,176,18,1*7C
$GAGSV,2,2,05,15,24,052,27,1*40
$GBGSV,4,1,14,06,83,232,40,16,81,187,39,43,76,074,45,09,74,307,41,1*79
$GBGSV,4,2,14,39,70,173,45,40,67,312,44,07,63,291,38,23,59,352,44,1*73
$GBGSV,4,3,14,11,52,049,41,10,52,274,29,25,49,091,38,28,36,206,19,1*7D
$GBGSV,4,4,14,34,28,042,34,37,14,313,,1*7F
$GBGSV,2,1,07,43,76,074,42,39,70,173,41,40,67,312,43,23,59,352,40,4*76
$GBGSV,2,2,07,25,49,091,41,28,36,206,27,34,28,042,26,4*42
$GNACCURACY,4.6*14
$PAIRSAT,1,27,2,0,201,3,0,200,4,0,221,5,0,200,7,0,1,8,0,21,9,0,21,14,0,200,15,0,200,16,0,201,17,0,200,18,0,200,19,0,200,20,0,200,21,0,201,22,0,200,23,0,200,24,0,200,25,0,200,26,0,221,27,0,221,28,0,200,31,0,1,194,0,421,195,0,621,196,0,200,199,0,600*63
$PAIRSAT,2,15,70,0,200,71,0,200,74,0,200,75,0,200,76,0,200,77,0,201,78,0,201,79,0,201,82,0,200,83,0,200,84,0,200,85,0,200,86,0,200,87,0,201,88,0,201*54
$PAIRSAT,3,19,2,0,1200,3,0,1200,4,0,1200,5,0,200,7,0,1000,8,0,1000,9,0,1000,13,0,21,15,0,21,19,0,21,21,0,221,25,0,1200,26,0,1200,27,0,1221,30,0,1200,31,0,1200,33,0,1200,34,0,1200,36,0,1200*54
$PAIRSAT,4,46,1,0,200,2,0,200,3,0,400,4,0,200,5,0,200,6,0,201,7,0,201,8,0,200,9,0,201,10,0,201,11,0,201,12,0,200,13,0,200,14,0,200,16,0,1,19,0,400,20,0,400,21,0,400,22,0,400,23,0,421,24,0,600,25,0,621,26,0,600,27,0,400,28,0,621,29,0,600,30,0,600,32,0,600,33,0,600,34,0,621,35,0,600,36,0,400,37,0,400,38,0,400,39,0,421,40,0,421,41,0,400,42,0,400,43,0,421,44,0,400,45,0,400,46,0,400,59,0,400,60,0,400,61,0,400,62,0,400*48
$PAIRDGP,7,4,7,8,9,16,21,27*6D
$GNGGA,031943.100,2500.7829031,N,12132.4668356,E,4,49,0.57,16.654,M,15.25,M,1,3335*4F
$GNRMC,031943.100,A,2500.7829031,N,12132.4668356,E,0.03,61.32,090324,,,R,V*23
$GPHDT,,T*1B
$GNACCURACY,4.7*15
$GNGGA,031943.200,2500.7829034,N,12132.4668350,E,4,50,0.55,16.667,M,15.25,M,1,3335*45
$GNRMC,031943.200,A,2500.7829034,N,12132.4668350,E,0.03,61.32,090324,,,R,V*23
$GPHDT,355.097,T*38
$GNACCURACY,4.6*14
$GNGGA,031943.300,2500.7829027,N,12132.4668341,E,4,50,0.55,16.665,M,15.25,M,1,3335*44
$GNRMC,031943.300,A,2500.7829027,N,12132.4668341,E,0.02,61.32,090324,,,R,V*21
$GPHDT,,T*1B
$GNACCURACY,4.6*14
$GNGGA,031943.400,2500.7829026,N,12132.4668357,E,4,50,0.55,16.662,M,15.25,M,1,3335*42
$GNRMC,031943.400,A,2500.7829026,N,12132.4668357,E,0.02,61.32,090324,,,R,V*20
$GPHDT,355.026,T*32
$GNACCURACY,4.6*14
$GNGGA,031943.500,2500.7829021,N,12132.4668333,E,4,50,0.55,16.670,M,15.25,M,1,3335*45
$GNRMC,031943.500,A,2500.7829021,N,12132.4668333,E,0.01,61.32,090324,,,R,V*27
$GPHDT,,T*1B
$GNACCURACY,4.6*14
$GNGGA,031943.600,2500.7829019,N,12132.4668395,E,4,49,0.55,16.666,M,15.25,M,0,3335*4F
$GNRMC,031943.600,A,2500.7829019,N,12132.4668395,E,0.01,61.32,090324,,,R,V*23
$GPHDT,354.868,T*31
$GNACCURACY,4.7*15
$GNGGA,031943.700,2500.7829012,N,12132.4668378,E,4,49,0.55,16.668,M,15.25,M,0,3335*48
$GNRMC,031943.700,A,2500.7829012,N,12132.4668378,E,0.06,61.32,090324,,,R,V*2D
$GPHDT,,T*1B
$GNACCURACY,4.7*15
$GNGGA,031943.800,2500.7829018,N,12132.4668360,E,4,50,0.55,16.665,M,15.25,M,0,3335*41
$GNRMC,031943.800,A,2500.7829018,N,12132.4668360,E,0.01,61.32,090324,,,R,V*26
$GPHDT,355.394,T*38
$GNACCURACY,4.7*15
$GNGGA,031943.900,2500.7829028,N,12132.4668375,E,4,50,0.55,16.662,M,15.25,M,0,3335*40
$GNRMC,031943.900,A,2500.7829028,N,12132.4668375,E,0.01,61.32,090324,,,R,V*20
$GPHDT,,T*1B
$GNACCURACY,4.7*15
$GNGGA,031944.000,2500.7828994,N,12132.4668400,E,4,50,0.55,16.677,M,15.25,M,1,3335*41
$GNRMC,031944.000,A,2500.7828994,N,12132.4668400,E,0.04,61.32,090324,,,R,V*21
$GPHDT,355.377,T*35
$GNGSA,A,3,08,194,195,27,21,16,04,09,02,07,26,31,1.02,0.55,0.86,1*0A
$GNGSA,A,3,88,77,,,,,,,,,,,1.02,0.55,0.86,2*0F
$GNGSA,A,3,21,13,19,27,15,,,,,,,,1.02,0.55,0.86,3*06
$GNGSA,A,3,06,16,43,09,39,40,07,23,11,10,25,28,1.02,0.55,0.86,4*02
$GNGSA,A,3,34,,,,,,,,,,,,1.02,0.55,0.86,4*0E
$GPGSV,4,1,15,08,72,291,44,199,66,164,,194,63,045,42,195,56,124,39,1*5D
$GPGSV,4,2,15,27,53,025,41,45,47,231,38,21,36,171,45,16,36,051,40,1*6C
$GPGSV,4,3,15,04,35,219,38,09,31,271,23,02,24,182,37,07,22,320,24,1*61
$GPGSV,4,4,15,196,21,174,20,26,19,080,30,31,18,135,13,1*64
$GPGSV,2,1,08,08,72,291,45,194,63,045,42,195,56,124,40,27,53,025,33,8*67
$GPGSV,2,2,08,04,35,219,36,09,31,271,21,196,21,174,28,26,19,080,28,8*5F
$GLGSV,2,1,05,88,72,090,43,78,44,000,,77,33,081,34,87,25,031,15,1*7A
$GLGSV,2,2,05,79,09,316,21,1*4D
$GAGSV,2,1,08,21,50,344,23,13,48,113,42,19,38,261,24,27,35,059,42,7*7E
$GAGSV,2,2,08,15,24,052,26,26,24,176,23,04,08,315,,20,,,35,7*46
$GAGSV,2,1,05,21,50,344,24,13,48,113,42,27,35,059,40,26,24,176,19,1*7A
$GAGSV,2,2,05,15,24,052,29,1*4E
$GBGSV,4,1,13,06,83,232,40,16,81,187,39,43,76,074,45,09,74,307,41,1*7E
$GBGSV,4,2,13,39,70,173,45,40,67,312,44,07,63,291,38,23,59,352,44,1*74
$GBGSV,4,3,13,11,52,049,41,10,52,274,29,25,49,091,38,28,36,206,19,1*7A
$GBGSV,4,4,13,34,28,042,34,1*48
$GBGSV,2,1,07,43,76,074,42,39,70,173,41,40,67,312,43,23,59,352,40,4*76
$GBGSV,2,2,07,25,49,091,41,28,36,206,28,34,28,042,27,4*4C
$GNACCURACY,4.6*14
$PAIRSAT,1,27,2,0,201,3,0,200,4,0,221,5,0,200,7,0,1,8,0,21,9,0,21,14,0,200,15,0,200,16,0,201,17,0,200,18,0,200,19,0,200,20,0,200,21,0,201,22,0,200,23,0,200,24,0,200,25,0,200,26,0,221,27,0,221,28,0,200,31,0,1,194,0,421,195,0,621,196,0,200,199,0,600*63
$PAIRSAT,2,15,70,0,200,71,0,200,74,0,200,75,0,200,76,0,200,77,0,201,78,0,201,79,0,201,82,0,200,83,0,200,84,0,200,85,0,200,86,0,200,87,0,201,88,0,201*54
$PAIRSAT,3,19,2,0,1200,3,0,1200,4,0,1200,5,0,200,7,0,1000,8,0,1000,9,0,1000,13,0,21,15,0,21,19,0,21,21,0,221,25,0,1200,26,0,1200,27,0,1221,30,0,1200,31,0,1200,33,0,1200,34,0,1200,36,0,1200*54
$PAIRSAT,4,46,1,0,200,2,0,200,3,0,400,4,0,200,5,0,200,6,0,201,7,0,201,8,0,200,9,0,201,10,0,201,11,0,201,12,0,200,13,0,200,14,0,200,16,0,1,19,0,400,20,0,400,21,0,400,22,0,400,23,0,421,24,0,600,25,0,621,26,0,600,27,0,400,28,0,621,29,0,600,30,0,600,32,0,600,33,0,600,34,0,621,35,0,600,36,0,400,37,0,400,38,0,400,39,0,421,40,0,421,41,0,400,42,0,400,43,0,421,44,0,400,45,0,400,46,0,400,59,0,400,60,0,400,61,0,400,62,0,400*48
$PAIRDGP,7,4,7,8,9,16,21,27*6D
$GNGGA,031944.100,2500.7829027,N,12132.4668369,E,4,49,0.55,16.667,M,15.25,M,1,3335*41
$GNRMC,031944.100,A,2500.7829027,N,12132.4668369,E,0.05,61.32,090324,,,R,V*29
$GPHDT,,T*1B
$GNACCURACY,4.7*15
$GNGGA,031944.200,2500.7829028,N,12132.4668362,E,4,49,0.55,16.657,M,15.25,M,1,3335*45
$GNRMC,031944.200,A,2500.7829028,N,12132.4668362,E,0.04,61.32,090324,,,R,V*2F
$GPHDT,355.464,T*30
$GNACCURACY,4.7*15
$GNGGA,031944.300,2500.7829025,N,12132.4668372,E,4,48,0.55,16.662,M,15.25,M,1,3335*4F
$GNRMC,031944.300,A,2500.7829025,N,12132.4668372,E,0.05,61.32,090324,,,R,V*23
$GPHDT,,T*1B
$GNACCURACY,4.7*15
$GNGGA,031944.400,2500.7829035,N,12132.4668365,E,4,48,0.55,16.659,M,15.25,M,1,3335*47
$GNRMC,031944.400,A,2500.7829035,N,12132.4668365,E,0.03,61.32,090324,,,R,V*25
$GPHDT,355.384,T*39
$GNACCURACY,4.7*15
$GNGGA,031944.500,2500.7829006,N,12132.4668341,E,4,48,0.55,16.658,M,15.25,M,0,3335*40
$GNRMC,031944.500,A,2500.7829006,N,12132.4668341,E,0.05,61.32,090324,,,R,V*24
$GPHDT,,T*1B
$GNACCURACY,4.7*15
$GNGGA,031944.600,2500.7829014,N,12132.4668347,E,4,48,0.55,16.662,M,15.25,M,0,3335*4F
$GNRMC,031944.600,A,2500.7829014,N,12132.4668347,E,0.04,61.32,090324,,,R,V*23
$GPHDT,355.291,T*3C
$GNACCURACY,4.7*15
$GNGGA,031944.700,2500.7829020,N,12132.4668359,E,4,49,0.55,16.659,M,15.25,M,0,3335*4F
$GNRMC,031944.700,A,2500.7829020,N,12132.4668359,E,0.02,61.32,090324,,,R,V*2C
$GPHDT,,T*1B
$GNACCURACY,4.7*15
$GNGGA,031944.800,2500.7829038,N,12132.4668352,E,4,49,0.55,16.657,M,15.25,M,0,3335*4C
$GNRMC,031944.800,A,2500.7829038,N,12132.4668352,E,0.03,61.32,090324,,,R,V*20
$GPHDT,355.204,T*30
$GNACCURACY,4.7*15
$GNGGA,031944.900,2500.7829039,N,12132.4668346,E,4,49,0.55,16.658,M,15.25,M,0,3335*46
$GNRMC,031944.900,A,2500.7829039,N,12132.4668346,E,0.06,61.32,090324,,,R,V*20
$GPHDT,,T*1B
$GNACCURACY,4.7*15
$GNGGA,031945.000,2500.7829030,N,12132.4668355,E,4,50,0.54,16.660,M,15.25,M,1,3335*46
$GNRMC,031945.000,A,2500.7829030,N,12132.4668355,E,0.01,61.32,090324,,,R,V*24
$GPHDT,355.408,T*3A
$GNGSA,A,3,08,194,195,27,21,16,04,09,02,07,26,31,0.99,0.54,0.83,1*0D
$GNGSA,A,3,88,77,87,,,,,,,,,,0.99,0.54,0.83,2*07
$GNGSA,A,3,21,13,19,27,15,,,,,,,,0.99,0.54,0.83,3*01
$GNGSA,A,3,06,16,43,09,39,40,07,23,11,10,25,28,0.99,0.54,0.83,4*05
$GNGSA,A,3,34,,,,,,,,,,,,0.99,0.54,0.83,4*09
$GPGSV,4,1,15,08,72,291,44,199,66,164,,194,63,045,42,195,56,124,39,1*5D
$GPGSV,4,2,15,27,53,025,41,45,47,231,38,21,36,171,45,16,36,051,40,1*6C
$GPGSV,4,3,15,04,35,219,38,09,31,271,21,02,24,182,36,07,22,320,23,1*65
$GPGSV,4,4,15,196,21,174,18,26,19,080,31,31,18,135,12,1*6F
$GPGSV,2,1,08,08,72,291,45,194,63,045,42,195,56,124,40,27,53,025,33,8*67
$GPGSV,2,2,08,04,35,219,36,09,31,271,21,196,21,174,28,26,19,080,28,8*5F
$GLGSV,2,1,05,88,72,090,43,78,44,000,,77,33,081,34,87,25,031,16,1*79
$GLGSV,2,2,05,79,09,316,22,1*4E
$GAGSV,2,1,08,21,50,344,23,13,48,113,42,19,38,261,24,27,35,059,42,7*7E
$GAGSV,2,2,08,15,24,052,25,26,24,176,23,04,08,315,,20,,,35,7*45
$GAGSV,2,1,05,21,50,344,24,13,48,113,42,27,35,059,40,26,24,176,19,1*7A
$GAGSV,2,2,05,15,24,052,29,1*4E
$GBGSV,4,1,13,06,83,232,39,16,81,187,39,43,76,074,45,09,74,307,41,1*70
$GBGSV,4,2,13,39,70,173,45,40,67,312,44,07,63,291,38,23,59,352,44,1*74
$GBGSV,4,3,13,11,52,048,41,10,52,274,29,25,49,091,38,28,36,206,19,1*7B
$GBGSV,4,4,13,34,28,042,34,1*48
$GBGSV,2,1,07,43,76,074,42,39,70,173,41,40,67,312,43,23,59,352,40,4*76
$GBGSV,2,2,07,25,49,091,41,28,36,206,28,34,28,042,27,4*4C
$GNACCURACY,4.7*15
$PAIRSAT,1,27,2,0,201,3,0,200,4,0,221,5,0,200,7,0,1,8,0,21,9,0,21,14,0,200,15,0,200,16,0,201,17,0,200,18,0,200,19,0,200,20,0,200,21,0,201,22,0,200,23,0,200,24,0,200,25,0,200,26,0,221,27,0,221,28,0,200,31,0,1,194,0,421,195,0,621,196,0,200,199,0,600*63
$PAIRSAT,2,15,70,0,200,71,0,200,74,0,200,75,0,200,76,0,200,77,0,201,78,0,201,79,0,201,82,0,200,83,0,200,84,0,200,85,0,200,86,0,200,87,0,201,88,0,201*54
$PAIRSAT,3,19,2,0,1200,3,0,1200,4,0,1200,5,0,200,7,0,1000,8,0,1000,9,0,1000,13,0,21,15,0,21,19,0,21,21,0,221,25,0,1200,26,0,1200,27,0,1221,30,0,1200,31,0,1200,33,0,1200,34,0,1200,36,0,1200*54
$PAIRSAT,4,46,1,0,200,2,0,200,3,0,400,4,0,200,5,0,200,6,0,201,7,0,201,8,0,200,9,0,201,10,0,201,11,0,201,12,0,200,13,0,200,14,0,200,16,0,1,19,0,400,20,0,400,21,0,400,22,0,400,23,0,421,24,0,600,25,0,621,26,0,600,27,0,400,28,0,621,29,0,600,30,0,600,32,0,600,33,0,600,34,0,621,35,0,600,36,0,400,37,0,400,38,0,400,39,0,421,40,0,421,41,0,400,42,0,400,43,0,421,44,0,400,45,0,400,46,0,400,59,0,400,60,0,400,61,0,400,62,0,400*48
$PAIRDGP,7,4,7,8,9,16,21,27*6D
$GNGGA,031945.100,2500.7829021,N,12132.4668364,E,4,50,0.54,16.656,M,15.25,M,1,3335*40
$GNRMC,031945.100,A,2500.7829021,N,12132.4668364,E,0.03,61.32,090324,,,R,V*25
$GPHDT,,T*1B
$GNACCURACY,4.7*15
$GNGGA,031945.200,2500.7829030,N,12132.4668359,E,4,50,0.54,16.663,M,15.25,M,1,3335*4B
$GNRMC,031945.200,A,2500.7829030,N,12132.4668359,E,0.02,61.32,090324,,,R,V*29
$GPHDT,355.376,T*34
$GNACCURACY,4.7*15
$GNGGA,031945.300,2500.7829018,N,12132.4668357,E,4,50,0.54,16.661,M,15.25,M,1,3335*4C
$GNRMC,031945.300,A,2500.7829018,N,12132.4668357,E,0.04,61.32,090324,,,R,V*2A
$GPHDT,,T*1B
$GNACCURACY,4.7*15
$GNGGA,031945.400,2500.7829017,N,12132.4668358,E,4,49,0.59,16.655,M,15.25,M,1,3335*49
$GNRMC,031945.400,A,2500.7829017,N,12132.4668358,E,0.04,61.32,090324,,,R,V*2D
$GPHDT,355.753,T*37
$GNACCURACY,4.7*15
$GNGGA,031945.500,2500.7829034,N,12132.4668361,E,4,49,0.59,16.656,M,15.25,M,1,3335*40
$GNRMC,031945.500,A,2500.7829034,N,12132.4668361,E,0.01,61.32,090324,,,R,V*22
$GPHDT,,T*1B
$GNACCURACY,4.7*15
$GNGGA,031945.600,2500.7829025,N,12132.4668351,E,4,48,0.60,16.668,M,15.25,M,0,3335*47
$GNRMC,031945.600,A,2500.7829025,N,12132.4668351,E,0.01,61.32,090324,,,R,V*22
$GPHDT,355.210,T*35
$GNACCURACY,4.7*15
$GNGGA,031945.700,2500.7829040,N,12132.4668338,E,4,49,0.59,16.656,M,15.25,M,0,3335*4C
$GNRMC,031945.700,A,2500.7829040,N,12132.4668338,E,0.02,61.32,090324,,,R,V*2C
$GPHDT,,T*1B
$GNACCURACY,4.8*1A
$GNGGA,031945.800,2500.7829019,N,12132.4668361,E,4,49,0.56,16.669,M,15.25,M,0,3335*40
$GNRMC,031945.800,A,2500.7829019,N,12132.4668361,E,0.03,61.32,090324,,,R,V*22
$GPHDT,355.607,T*37
$GNACCURACY,4.7*15
$GNGGA,031945.900,2500.7829026,N,12132.4668346,E,4,48,0.60,16.669,M,15.25,M,0,3335*4C
$GNRMC,031945.900,A,2500.7829026,N,12132.4668346,E,0.06,61.32,090324,,,R,V*2F
$GPHDT,,T*1B
$GNACCURACY,4.8*1A
$GNGGA,031946.000,2500.7829036,N,12132.4668348,E,4,48,0.60,16.669,M,15.25,M,1,3335*48
$GNRMC,031946.000,A,2500.7829036,N,12132.4668348,E,0.06,61.32,090324,,,R,V*2A
$GPHDT,355.457,T*30
$GNGSA,A,3,08,194,195,27,21,16,04,09,02,26,,,1.11,0.60,0.93,1*0F
$GNGSA,A,3,88,77,87,,,,,,,,,,1.11,0.60,0.93,2*00
$GNGSA,A,3,21,13,19,27,15,,,,,,,,1.11,0.60,0.93,3*06
$GNGSA,A,3,06,16,43,09,39,40,07,23,11,10,25,28,1.11,0.60,0.93,4*02
$GNGSA,A,3,34,,,,,,,,,,,,1.11,0.60,0.93,4*0E
$GPGSV,4,1,15,08,72,291,44,199,66,164,,194,63,045,42,195,56,124,39,1*5D
$GPGSV,4,2,15,27,53,025,41,45,47,231,39,21,36,171,45,16,36,051,40,1*6D
$GPGSV,4,3,15,04,35,219,38,09,31,271,23,02,24,182,36,07,22,320,21,1*65
$GPGSV,4,4,15,196,21,174,18,26,19,080,31,31,18,135,14,1*69
$GPGSV,2,1,08,08,72,291,45,194,63,045,42,195,56,124,40,27,53,025,33,8*67
$GPGSV,2,2,08,04,35,219,36,09,31,271,21,196,21,174,28,26,19,080,28,8*5F
$GLGSV,2,1,05,88,72,090,43,78,44,000,,77,33,081,34,87,25,031,16,1*79
$GLGSV,2,2,05,79,09,316,21,1*4D
$GAGSV,2,1,08,21,50,344,23,13,48,113,42,19,38,261,24,27,35,059,42,7*7E
$GAGSV,2,2,08,15,24,052,25,26,24,176,24,04,08,315,,20,,,34,7*43
$GAGSV,2,1,05,21,50,344,24,13,48,113,42,27,35,059,40,26,24,176,20,1*70
$GAGSV,2,2,05,15,24,052,29,1*4E
$GBGSV,4,1,13,06,83,232,39,16,81,187,39,43,76,074,45,09,74,307,41,1*70
$GBGSV,4,2,13,39,70,173,45,40,67,312,44,07,63,291,38,23,59,352,44,1*74
$GBGSV,4,3,13,11,52,048,41,10,52,274,28,25,49,091,38,28,36,206,21,1*71
$GBGSV,4,4,13,34,28,042,34,1*48
$GBGSV,2,1,07,43,76,074,42,39,70,173,41,40,67,312,43,23,59,352,40,4*76
$GBGSV,2,2,07,25,49,091,41,28,36,206,28,34,28,042,27,4*4C
$GNACCURACY,4.8*1A
$PAIRSAT,1,27,2,0,201,3,0,200,4,0,221,5,0,200,7,0,1,8,0,21,9,0,21,14,0,200,15,0,200,16,0,201,17,0,200,18,0,200,19,0,200,20,0,200,21,0,201,22,0,200,23,0,200,24,0,200,25,0,200,26,0,221,27,0,221,28,0,200,31,0,1,194,0,421,195,0,621,196,0,200,199,0,600*63
$PAIRSAT,2,15,70,0,200,71,0,200,74,0,200,75,0,200,76,0,200,77,0,201,78,0,201,79,0,201,82,0,200,83,0,200,84,0,200,85,0,200,86,0,200,87,0,201,88,0,201*54
$PAIRSAT,3,19,2,0,1200,3,0,1200,4,0,1200,5,0,200,7,0,1000,8,0,1000,9,0,1000,13,0,21,15,0,21,19,0,21,21,0,221,25,0,1200,26,0,1200,27,0,1221,30,0,1200,31,0,1200,33,0,1200,34,0,1200,36,0,1200*54
$PAIRSAT,4,46,1,0,200,2,0,200,3,0,400,4,0,200,5,0,200,6,0,201,7,0,201,8,0,200,9,0,201,10,0,201,11,0,201,12,0,200,13,0,200,14,0,200,16,0,1,19,0,400,20,0,400,21,0,400,22,0,400,23,0,421,24,0,600,25,0,621,26,0,600,27,0,400,28,0,621,29,0,600,30,0,600,32,0,600,33,0,600,34,0,621,35,0,600,36,0,400,37,0,400,38,0,400,39,0,421,40,0,421,41,0,400,42,0,400,43,0,421,44,0,400,45,0,400,46,0,400,59,0,400,60,0,400,61,0,400,62,0,400*48
$PAIRDGP,7,4,7,8,9,16,21,27*6D
$GNGGA,031946.100,2500.7829024,N,12132.4668374,E,4,48,0.60,16.669,M,15.25,M,1,3335*45
$GNRMC,031946.100,A,2500.7829024,N,12132.4668374,E,0.06,61.32,090324,,,R,V*27
$GPHDT,,T*1B
$GNACCURACY,4.8*1A
$GNGGA,031946.200,2500.7829022,N,12132.4668364,E,4,48,0.60,16.666,M,15.25,M,1,3335*4E
$GNRMC,031946.200,A,2500.7829022,N,12132.4668364,E,0.04,61.32,090324,,,R,V*21
$GPHDT,355.038,T*3D
$GNACCURACY,4.8*1A
$GNGGA,031946.300,2500.7829022,N,12132.4668356,E,4,49,0.56,16.668,M,15.25,M,1,3335*44
$GNRMC,031946.300,A,2500.7829022,N,12132.4668356,E,0.03,61.32,090324,,,R,V*26
$GPHDT,,T*1B
$GNACCURACY,4.8*1A
$GNGGA,031946.400,2500.7829011,N,12132.4668353,E,4,49,0.56,16.668,M,15.25,M,1,3335*46
$GNRMC,031946.400,A,2500.7829011,N,12132.4668353,E,0.03,61.32,090324,,,R,V*24
$GPHDT,355.393,T*3F
$GNACCURACY,4.8*1A
$GNGGA,031946.500,2500.7829040,N,12132.4668339,E,4,49,0.56,16.645,M,15.25,M,1,3335*40
$GNRMC,031946.500,A,2500.7829040,N,12132.4668339,E,0.04,61.32,090324,,,R,V*2A
$GPHDT,,T*1B
$GNACCURACY,4.8*1A
$GNGGA,031946.600,2500.7829033,N,12132.4668313,E,4,49,0.56,16.657,M,15.25,M,0,3335*4D
$GNRMC,031946.600,A,2500.7829033,N,12132.4668313,E,0.06,61.32,090324,,,R,V*27
$GPHDT,355.408,T*3A
$GNACCURACY,4.8*1A
$GNGGA,031946.700,2500.7829044,N,12132.4668294,E,4,49,0.56,16.652,M,15.25,M,0,3335*47
$GNRMC,031946.700,A,2500.7829044,N,12132.4668294,E,0.03,61.32,090324,,,R,V*2D
$GPHDT,,T*1B
$GNACCURACY,4.8*1A
$GNGGA,031946.800,2500.7829040,N,12132.4668325,E,4,49,0.56,16.650,M,15.25,M,0,3335*45
$GNRMC,031946.800,A,2500.7829040,N,12132.4668325,E,0.04,61.32,090324,,,R,V*2A
$GPHDT,355.664,T*32
$GNACCURACY,4.8*1A
$GNGGA,031946.900,2500.7829028,N,12132.4668343,E,4,49,0.56,16.656,M,15.25,M,0,3335*4C
$GNRMC,031946.900,A,2500.7829028,N,12132.4668343,E,0.04,61.32,090324,,,R,V*25
$GPHDT,,T*1B
$GNACCURACY,4.8*1A
$GNGGA,031947.000,2500.7829039,N,12132.4668306,E,4,49,0.56,16.651,M,15.25,M,1,3335*43
$GNRMC,031947.000,A,2500.7829039,N,12132.4668306,E,0.04,61.32,090324,,,R,V*2C
$GPHDT,355.421,T*31
$GNGSA,A,3,08,194,195,27,21,16,04,09,02,07,26,,1.03,0.56,0.87,1*0B
$GNGSA,A,3,88,77,87,,,,,,,,,,1.03,0.56,0.87,2*03
$GNGSA,A,3,21,13,19,27,15,,,,,,,,1.03,0.56,0.87,3*05
$GNGSA,A,3,06,16,43,09,39,40,07,23,10,11,25,28,1.03,0.56,0.87,4*01
$GNGSA,A,3,34,,,,,,,,,,,,1.03,0.56,0.87,4*0D
$GPGSV,4,1,15,08,72,291,44,199,66,164,,194,63,045,42,195,56,124,39,1*5D
$GPGSV,4,2,15,27,53,025,41,45,47,231,39,21,36,171,45,16,36,051,40,1*6D
$GPGSV,4,3,15,04,35,219,38,09,31,271,21,02,24,182,36,07,22,320,21,1*67
$GPGSV,4,4,15,196,21,174,18,26,19,080,31,31,18,135,13,1*6E
$GPGSV,2,1,08,08,72,291,45,194,63,045,42,195,56,124,40,27,53,025,33,8*67
$GPGSV,2,2,08,04,35,219,36,09,31,271,21,196,21,174,29,26,19,080,27,8*51
$GLGSV,2,1,05,88,72,090,43,78,44,000,,77,33,081,34,87,25,031,17,1*78
$GLGSV,2,2,05,79,09,316,19,1*46
$GAGSV,2,1,07,21,50,344,23,13,48,113,42,19,38,261,24,27,35,059,42,7*71
$GAGSV,2,2,07,15,24,052,25,26,24,176,25,20,,,34,7*76
$GAGSV,2,1,05,21,50,344,25,13,48,113,42,27,35,059,40,26,24,176,20,1*71
$GAGSV,2,2,05,15,24,052,29,1*4E
$GBGSV,4,1,13,06,83,232,39,16,81,187,39,43,76,074,45,09,74,307,41,1*70
$GBGSV,4,2,13,39,70,173,45,40,67,312,44,07,63,291,38,23,59,352,44,1*74
$GBGSV,4,3,13,10,52,274,29,11,52,048,41,25,49,091,38,28,36,206,21,1*70
$GBGSV,4,4,13,34,28,042,34,1*48
$GBGSV,2,1,07,43,76,074,42,39,70,173,41,40,67,312,43,23,59,352,40,4*76
$GBGSV,2,2,07,25,49,091,41,28,36,206,28,34,28,042,27,4*4C
$GNACCURACY,4.8*1A
$PAIRSAT,1,27,2,0,201,3,0,200,4,0,221,5,0,200,7,0,1,8,0,21,9,0,21,14,0,200,15,0,200,16,0,201,17,0,200,18,0,200,19,0,200,20,0,200,21,0,201,22,0,200,23,0,200,24,0,200,25,0,200,26,0,221,27,0,221,28,0,200,31,0,1,194,0,421,195,0,621,196,0,200,199,0,600*63
$PAIRSAT,2,15,70,0,200,71,0,200,74,0,200,75,0,200,76,0,200,77,0,201,78,0,201,79,0,201,82,0,200,83,0,200,84,0,200,85,0,200,86,0,200,87,0,201,88,0,201*54
$PAIRSAT,3,19,2,0,1200,3,0,1200,4,0,1200,5,0,200,7,0,1000,8,0,1000,9,0,1000,13,0,21,15,0,21,19,0,21,21,0,221,25,0,1200,26,0,1200,27,0,1221,30,0,1200,31,0,1200,33,0,1200,34,0,1200,36,0,1200*54
$PAIRSAT,4,46,1,0,200,2,0,200,3,0,400,4,0,200,5,0,200,6,0,201,7,0,201,8,0,200,9,0,201,10,0,201,11,0,201,12,0,200,13,0,200,14,0,200,16,0,1,19,0,400,20,0,400,21,0,400,22,0,400,23,0,421,24,0,600,25,0,621,26,0,600,27,0,400,28,0,621,29,0,600,30,0,600,32,0,600,33,0,600,34,0,621,35,0,600,36,0,400,37,0,400,38,0,400,39,0,421,40,0,421,41,0,400,42,0,400,43,0,421,44,0,400,45,0,400,46,0,400,59,0,400,60,0,400,61,0,400,62,0,400*48
$PAIRDGP,7,4,7,8,9,16,21,27*6D
$GNGGA,031947.100,2500.7829038,N,12132.4668315,E,4,49,0.56,16.654,M,15.25,M,1,3335*44
$GNRMC,031947.100,A,2500.7829038,N,12132.4668315,E,0.02,61.32,090324,,,R,V*28
$GPHDT,,T*1B
$GNACCURACY,4.8*1A
$GNGGA,031947.200,2500.7829042,N,12132.4668322,E,4,49,0.56,16.655,M,15.25,M,1,3335*4F
$GNRMC,031947.200,A,2500.7829042,N,12132.4668322,E,0.02,61.32,090324,,,R,V*22
$GPHDT,355.008,T*3E
$GNACCURACY,4.8*1A
$GNGGA,031947.300,2500.7829042,N,12132.4668311,E,4,49,0.56,16.658,M,15.25,M,1,3335*43
$GNRMC,031947.300,A,2500.7829042,N,12132.4668311,E,0.02,61.32,090324,,,R,V*23
$GPHDT,,T*1B
$GNACCURACY,4.8*1A
$GNGGA,031947.400,2500.7829044,N,12132.4668306,E,4,49,0.56,16.649,M,15.25,M,1,3335*44
$GNRMC,031947.400,A,2500.7829044,N,12132.4668306,E,0.04,61.32,090324,,,R,V*22
$GPHDT,355.415,T*36
$GNACCURACY,4.8*1A
$GNGGA,031947.500,2500.7829060,N,12132.4668313,E,4,49,0.56,16.663,M,15.25,M,1,3335*4F
$GNRMC,031947.500,A,2500.7829060,N,12132.4668313,E,0.01,61.32,090324,,,R,V*24
$GPHDT,,T*1B
$GNACCURACY,4.8*1A
$GNGGA,031947.600,2500.7829032,N,12132.4668326,E,4,49,0.56,16.651,M,15.25,M,0,3335*4D
$GNRMC,031947.600,A,2500.7829032,N,12132.4668326,E,0.02,61.32,090324,,,R,V*25
$GPHDT,355.489,T*33
$GNACCURACY,4.8*1A
$GNGGA,031947.700,2500.7829021,N,12132.4668365,E,4,49,0.56,16.669,M,15.25,M,0,3335*42
$GNRMC,031947.700,A,2500.7829021,N,12132.4668365,E,0.03,61.32,090324,,,R,V*20
$GPHDT,,T*1B
$GNACCURACY,4.8*1A
$GNGGA,031947.800,2500.7829025,N,12132.4668320,E,4,49,0.56,16.655,M,15.25,M,0,3335*47
$GNRMC,031947.800,A,2500.7829025,N,12132.4668320,E,0.04,61.32,090324,,,R,V*2D
$GPHDT,355.420,T*30
$GNACCURACY,4.8*1A
$GNGGA,031947.900,2500.7829016,N,12132.4668363,E,4,49,0.56,16.670,M,15.25,M,0,3335*46
$GNRMC,031947.900,A,2500.7829016,N,12132.4668363,E,0.06,61.32,090324,,,R,V*29
$GPHDT,,T*1B
$GNACCURACY,4.8*1A
$GNGGA,031948.000,2500.7829013,N,12132.4668359,E,4,49,0.56,16.656,M,15.25,M,1,3335*49
$GNRMC,031948.000,A,2500.7829013,N,12132.4668359,E,0.01,61.32,090324,,,R,V*24
$GPHDT,355.178,T*38
$GNGSA,A,3,08,194,195,27,21,16,04,09,02,26,,,1.11,0.60,0.93,1*0F
$GNGSA,A,3,88,77,87,,,,,,,,,,1.11,0.60,0.93,2*00
$GNGSA,A,3,21,13,19,27,15,,,,,,,,1.11,0.60,0.93,3*06
$GNGSA,A,3,06,16,43,09,39,40,07,23,10,11,25,28,1.11,0.60,0.93,4*02
$GNGSA,A,3,34,,,,,,,,,,,,1.11,0.60,0.93,4*0E
$GPGSV,4,1,15,08,72,291,44,199,66,164,,194,63,045,42,195,56,124,39,1*5D
$GPGSV,4,2,15,27,53,025,41,45,47,231,39,21,36,171,45,16,36,051,40,1*6D
$GPGSV,4,3,15,04,35,219,38,09,31,271,20,02,24,182,36,07,22,320,22,1*65
$GPGSV,4,4,15,196,21,174,17,26,19,080,32,31,18,135,14,1*65
$GPGSV,2,1,08,08,72,291,45,194,63,045,42,195,56,124,40,27,53,025,33,8*67
$GPGSV,2,2,08,04,35,219,36,09,31,271,21,196,21,174,29,26,19,080,27,8*51
$GLGSV,2,1,05,88,72,090,43,78,44,000,,77,33,081,34,87,25,031,18,1*77
$GLGSV,2,2,05,79,09,316,18,1*47
$GAGSV,2,1,07,21,50,344,22,13,48,113,42,19,38,261,24,27,35,059,42,7*70
$GAGSV,2,2,07,15,24,052,25,26,24,176,25,20,,,34,7*76
$GAGSV,2,1,05,21,50,344,25,13,48,113,42,27,35,059,40,26,24,176,20,1*71
$GAGSV,2,2,05,15,24,052,29,1*4E
$GBGSV,4,1,13,06,83,232,39,16,81,187,39,43,76,073,45,09,74,307,41,1*77
$GBGSV,4,2,13,39,69,173,45,40,67,312,44,07,63,291,38,23,59,352,44,1*7C
$GBGSV,4,3,13,10,52,274,29,11,52,048,41,25,49,091,38,28,36,206,21,1*70
$GBGSV,4,4,13,34,28,041,34,1*4B
$GBGSV,2,1,07,43,76,073,42,39,69,173,41,40,67,312,43,23,59,352,40,4*79
$GBGSV,2,2,07,25,49,091,41,28,36,206,28,34,28,041,27,4*4F
$GNACCURACY,4.8*1A
$PAIRSAT,1,27,2,0,201,3,0,200,4,0,221,5,0,200,7,0,1,8,0,21,9,0,21,14,0,200,15,0,200,16,0,201,17,0,200,18,0,200,19,0,200,20,0,200,21,0,201,22,0,200,23,0,200,24,0,200,25,0,200,26,0,221,27,0,221,28,0,200,31,0,1,194,0,421,195,0,621,196,0,200,199,0,600*63
$PAIRSAT,2,15,70,0,200,71,0,200,74,0,200,75,0,200,76,0,200,77,0,201,78,0,201,79,0,201,82,0,200,83,0,200,84,0,200,85,0,200,86,0,200,87,0,201,88,0,201*54
$PAIRSAT,3,19,2,0,1200,3,0,1200,4,0,1200,5,0,200,7,0,1000,8,0,1000,9,0,1000,13,0,21,15,0,21,19,0,21,21,0,221,25,0,1200,26,0,1200,27,0,1221,30,0,1200,31,0,1200,33,0,1200,34,0,1200,36,0,1200*54
$PAIRSAT,4,46,1,0,200,2,0,200,3,0,400,4,0,200,5,0,200,6,0,201,7,0,201,8,0,200,9,0,201,10,0,201,11,0,201,12,0,200,13,0,200,14,0,200,16,0,1,19,0,400,20,0,400,21,0,400,22,0,400,23,0,421,24,0,600,25,0,621,26,0,600,27,0,400,28,0,621,29,0,600,30,0,600,32,0,600,33,0,600,34,0,621,35,0,600,36,0,400,37,0,400,38,0,400,39,0,421,40,0,421,41,0,400,42,0,400,43,0,421,44,0,400,45,0,400,46,0,400,59,0,400,60,0,400,61,0,400,62,0,400*48
$PAIRDGP,7,4,7,8,9,16,21,27*6D
$GNGGA,031948.100,2500.7829039,N,12132.4668327,E,4,48,0.60,16.654,M,15.25,M,1,3335*4F
$GNRMC,031948.100,A,2500.7829039,N,12132.4668327,E,0.02,61.32,090324,,,R,V*27
$GPHDT,,T*1B
$GNACCURACY,4.8*1A
$GNGGA,031948.200,2500.7829028,N,12132.4668353,E,4,48,0.60,16.669,M,15.25,M,1,3335*41
$GNRMC,031948.200,A,2500.7829028,N,12132.4668353,E,0.01,61.32,090324,,,R,V*24
$GPHDT,355.369,T*3A
$GNACCURACY,4.8*1A
$GNGGA,031948.300,2500.7829024,N,12132.4668360,E,4,49,0.56,16.667,M,15.25,M,1,3335*46
$GNRMC,031948.300,A,2500.7829024,N,12132.4668360,E,0.09,61.32,090324,,,R,V*21
$GPHDT,,T*1B
$GNACCURACY,4.8*1A
$GNGGA,031948.400,2500.7829045,N,12132.4668330,E,4,48,0.60,16.655,M,15.25,M,1,3335*46
$GNRMC,031948.400,A,2500.7829045,N,12132.4668330,E,0.06,61.32,090324,,,R,V*2B
$GPHDT,355.569,T*3C
$GNACCURACY,4.9*1B
$GNGGA,031948.500,2500.7829013,N,12132.4668372,E,4,49,0.56,16.658,M,15.25,M,1,3335*4B
$GNRMC,031948.500,A,2500.7829013,N,12132.4668372,E,0.07,61.32,090324,,,R,V*2E
$GPHDT,,T*1B
$GNACCURACY,4.9*1B
$GNGGA,031948.600,2500.7829035,N,12132.4668351,E,4,49,0.56,16.662,M,15.25,M,1,3335*44
$GNRMC,031948.600,A,2500.7829035,N,12132.4668351,E,0.06,61.32,090324,,,R,V*29
$GPHDT,355.216,T*33
$GNACCURACY,4.9*1B
$GNGGA,031948.700,2500.7829026,N,12132.4668366,E,4,48,0.60,16.665,M,15.25,M,0,3335*41
$GNRMC,031948.700,A,2500.7829026,N,12132.4668366,E,0.05,61.32,090324,,,R,V*2D
$GPHDT,,T*1B
$GNACCURACY,4.9*1B
$GNGGA,031948.800,2500.7829040,N,12132.4668337,E,4,49,0.56,16.657,M,15.25,M,0,3335*4F
$GNRMC,031948.800,A,2500.7829040,N,12132.4668337,E,0.05,61.32,090324,,,R,V*26
$GPHDT,355.442,T*34
$GNACCURACY,4.9*1B
$GNGGA,031948.900,2500.7829022,N,12132.4668341,E,4,48,0.60,16.653,M,15.25,M,0,3335*4B
$GNRMC,031948.900,A,2500.7829022,N,12132.4668341,E,0.15,61.32,090324,,,R,V*23
$GPHDT,,T*1B
$GNACCURACY,4.9*1B
$GNGGA,031949.000,2500.7829015,N,12132.4668364,E,4,49,0.56,16.678,M,15.25,M,1,3335*4C
$GNRMC,031949.000,A,2500.7829015,N,12132.4668364,E,0.08,61.32,090324,,,R,V*24
$GPHDT,355.544,T*33
$GNGSA,A,3,08,194,195,27,21,16,04,09,02,07,26,,1.03,0.56,0.87,1*0B
$GNGSA,A,3,88,77,87,,,,,,,,,,1.03,0.56,0.87,2*03
$GNGSA,A,3,21,13,19,27,15,,,,,,,,1.03,0.56,0.87,3*05
$GNGSA,A,3,06,16,43,09,39,40,07,23,10,11,25,28,1.03,0.56,0.87,4*01
$GNGSA,A,3,34,,,,,,,,,,,,1.03,0.56,0.87,4*0D
$GPGSV,4,1,15,08,72,291,44,199,66,164,,194,63,045,42,195,56,124,39,1*5D
$GPGSV,4,2,15,27,53,025,41,45,47,231,39,21,36,171,45,16,36,051,40,1*6D
$GPGSV,4,3,15,04,35,219,38,09,31,271,20,02,24,182,36,07,22,320,21,1*66
$GPGSV,4,4,15,196,21,174,16,26,19,080,32,31,18,135,14,1*64
$GPGSV,2,1,08,08,72,291,45,194,63,045,42,195,56,124,40,27,53,025,33,8*67
$GPGSV,2,2,08,04,35,219,36,09,31,271,20,196,21,174,28,26,19,080,27,8*51
$GLGSV,2,1,05,88,72,090,43,78,44,000,,77,33,081,34,87,25,031,19,1*76
$GLGSV,2,2,05,79,09,316,18,1*47
$GAGSV,2,1,07,21,50,344,21,13,48,113,42,19,38,261,24,27,35,059,42,7*73
$GAGSV,2,2,07,15,24,052,24,26,24,176,24,20,,,34,7*76
$GAGSV,2,1,05,21,50,344,24,13,48,113,42,27,35,059,40,26,24,176,20,1*70
$GAGSV,2,2,05,15,24,052,29,1*4E
$GBGSV,4,1,13,06,83,232,39,16,81,187,39,43,76,073,45,09,74,307,41,1*77
$GBGSV,4,2,13,39,69,173,45,40,67,312,44,07,63,291,38,23,59,352,43,1*7B
$GBGSV,4,3,13,10,52,274,28,11,52,048,41,25,49,091,38,28,36,206,22,1*72
$GBGSV,4,4,13,34,28,041,33,1*4C
$GBGSV,2,1,07,43,76,073,42,39,69,173,41,40,67,312,43,23,59,352,40,4*79
$GBGSV,2,2,07,25,49,091,41,28,36,206,28,34,28,041,27,4*4F
$GNACCURACY,4.9*1B
$PAIRSAT,1,27,2,0,201,3,0,200,4,0,221,5,0,200,7,0,1,8,0,21,9,0,21,14,0,200,15,0,200,16,0,201,17,0,200,18,0,200,19,0,200,20,0,200,21,0,201,22,0,200,23,0,200,24,0,200,25,0,200,26,0,221,27,0,221,28,0,200,31,0,1,194,0,421,195,0,621,196,0,200,199,0,600*63
$PAIRSAT,2,15,70,0,200,71,0,200,74,0,200,75,0,200,76,0,200,77,0,201,78,0,201,79,0,201,82,0,200,83,0,200,84,0,200,85,0,200,86,0,200,87,0,201,88,0,201*54
$PAIRSAT,3,19,2,0,1200,3,0,1200,4,0,1200,5,0,200,7,0,1000,8,0,1000,9,0,1000,13,0,21,15,0,21,19,0,21,21,0,221,25,0,1200,26,0,1200,27,0,1221,30,0,1200,31,0,1200,33,0,1200,34,0,1200,36,0,1200*54
$PAIRSAT,4,46,1,0,200,2,0,200,3,0,400,4,0,200,5,0,200,6,0,201,7,0,201,8,0,200,9,0,201,10,0,201,11,0,201,12,0,200,13,0,200,14,0,200,16,0,1,19,0,400,20,0,400,21,0,400,22,0,400,23,0,421,24,0,600,25,0,621,26,0,600,27,0,400,28,0,621,29,0,600,30,0,600,32,0,600,33,0,600,34,0,621,35,0,600,36,0,400,37,0,400,38,0,400,39,0,421,40,0,421,41,0,400,42,0,400,43,0,421,44,0,400,45,0,400,46,0,400,59,0,400,60,0,400,61,0,400,62,0,400*48
$PAIRDGP,7,4,7,8,9,16,21,27*6D
$GNGGA,031949.100,2500.7829030,N,12132.4668340,E,4,49,0.56,16.660,M,15.25,M,1,3335*45
$GNRMC,031949.100,A,2500.7829030,N,12132.4668340,E,0.05,61.32,090324,,,R,V*29
$GPHDT,,T*1B
$GNACCURACY,4.9*1B
$GNGGA,031949.200,2500.7829028,N,12132.4668350,E,4,48,0.60,16.663,M,15.25,M,1,3335*49
$GNRMC,031949.200,A,2500.7829028,N,12132.4668350,E,0.07,61.32,090324,,,R,V*20
$GPHDT,355.206,T*32
$GNACCURACY,4.9*1B
$GNGGA,031949.300,2500.7829031,N,12132.4668351,E,4,49,0.56,16.670,M,15.25,M,1,3335*47
$GNRMC,031949.300,A,2500.7829031,N,12132.4668351,E,0.02,61.32,090324,,,R,V*2D
$GPHDT,,T*1B
$GNACCURACY,4.9*1B
$GNGGA,031949.400,2500.7829024,N,12132.4668360,E,4,49,0.56,16.674,M,15.25,M,1,3335*42
$GNRMC,031949.400,A,2500.7829024,N,12132.4668360,E,0.04,61.32,090324,,,R,V*2A
$GPHDT,355.364,T*37
$GNACCURACY,4.9*1B
$GNGGA,031949.500,2500.7829032,N,12132.4668366,E,4,48,0.60,16.670,M,15.25,M,1,3335*42
$GNRMC,031949.500,A,2500.7829032,N,12132.4668366,E,0.05,61.32,090324,,,R,V*2B
$GPHDT,,T*1B
$GNACCURACY,4.9*1B
$GNGGA,031949.600,2500.7829036,N,12132.4668362,E,4,48,0.60,16.665,M,15.25,M,1,3335*45
$GNRMC,031949.600,A,2500.7829036,N,12132.4668362,E,0.05,61.32,090324,,,R,V*28
$GPHDT,355.214,T*31
$GNACCURACY,4.9*1B
$GNGGA,031949.700,2500.7829039,N,12132.4668332,E,4,49,0.56,16.668,M,15.25,M,0,3335*46
$GNRMC,031949.700,A,2500.7829039,N,12132.4668332,E,0.00,61.32,090324,,,R,V*26
$GPHDT,,T*1B
$GNACCURACY,4.9*1B
$GNGGA,031949.800,2500.7829043,N,12132.4668350,E,4,48,0.60,16.666,M,15.25,M,0,3335*4A
$GNRMC,031949.800,A,2500.7829043,N,12132.4668350,E,0.02,61.32,090324,,,R,V*22
$GPHDT,355.376,T*34
$GNACCURACY,4.9*1B
$GNGGA,031949.900,2500.7829032,N,12132.4668327,E,4,49,0.56,16.666,M,15.25,M,0,3335*49
$GNRMC,031949.900,A,2500.7829032,N,12132.4668327,E,0.10,61.32,090324,,,R,V*26
$GPHDT,,T*1B
$GNACCURACY,4.9*1B
$GNGGA,031950.000,2500.7829031,N,12132.4668360,E,4,49,0.56,16.665,M,15.25,M,1,3335*4A
$GNRMC,031950.000,A,2500.7829031,N,12132.4668360,E,0.06,61.32,090324,,,R,V*20
$GPHDT,354.927,T*3B
$GNGSA,A,3,08,194,195,27,21,16,04,09,02,07,26,,1.03,0.56,0.87,1*0B
$GNGSA,A,3,88,77,87,,,,,,,,,,1.03,0.56,0.87,2*03
$GNGSA,A,3,21,13,19,27,15,,,,,,,,1.03,0.56,0.87,3*05
$GNGSA,A,3,06,16,43,09,39,40,07,23,10,11,25,28,1.03,0.56,0.87,4*01
$GNGSA,A,3,34,,,,,,,,,,,,1.03,0.56,0.87,4*0D
$GPGSV,4,1,15,08,72,291,44,199,66,164,,194,63,045,42,195,56,124,39,1*5D
$GPGSV,4,2,15,27,53,025,41,45,47,231,39,21,36,171,45,16,36,051,40,1*6D
$GPGSV,4,3,15,04,35,219,38,09,31,271,20,02,24,182,36,07,22,320,22,1*65
$GPGSV,4,4,15,196,21,174,16,26,19,080,32,31,18,135,15,1*65
$GPGSV,2,1,08,08,72,291,45,194,63,045,42,195,56,124,40,27,53,025,33,8*67
$GPGSV,2,2,08,04,35,219,36,09,31,271,20,196,21,174,28,26,19,080,27,8*51
$GLGSV,2,1,05,88,72,090,43,78,44,000,,77,33,081,34,87,25,031,22,1*7E
$GLGSV,2,2,05,79,09,316,18,1*47
$GAGSV,2,1,07,21,50,344,22,13,48,113,42,19,38,261,24,27,35,059,42,7*70
$GAGSV,2,2,07,15,24,052,24,26,24,176,24,20,,,34,7*76
$GAGSV,2,1,05,21,50,344,24,13,48,113,41,27,35,059,40,26,24,176,20,1*73
$GAGSV,2,2,05,15,24,052,29,1*4E
$GBGSV,4,1,13,06,83,232,39,16,81,187,39,43,76,073,45,09,74,307,41,1*77
$GBGSV,4,2,13,39,69,173,45,40,67,312,44,07,63,291,38,23,59,352,43,1*7B
$GBGSV,4,3,13,10,52,274,28,11,52,048,41,25,49,091,38,28,36,206,22,1*72
$GBGSV,4,4,13,34,28,041,33,1*4C
$GBGSV,2,1,07,43,76,073,42,39,69,173,41,40,67,312,43,23,59,352,40,4*79
$GBGSV,2,2,07,25,49,091,41,28,36,206,28,34,28,041,27,4*4F
$GNACCURACY,4.9*1B
$PAIRSAT,1,27,2,0,201,3,0,200,4,0,221,5,0,200,7,0,1,8,0,21,9,0,21,14,0,200,15,0,200,16,0,201,17,0,200,18,0,200,19,0,200,20,0,200,21,0,201,22,0,200,23,0,200,24,0,200,25,0,200,26,0,221,27,0,221,28,0,200,31,0,1,194,0,421,195,0,621,196,0,200,199,0,600*63
$PAIRSAT,2,15,70,0,200,71,0,200,74,0,200,75,0,200,76,0,200,77,0,201,78,0,201,79,0,201,82,0,200,83,0,200,84,0,200,85,0,200,86,0,200,87,0,201,88,0,201*54
$PAIRSAT,3,19,2,0,1200,3,0,1200,4,0,1200,5,0,200,7,0,1000,8,0,1000,9,0,1000,13,0,21,15,0,21,19,0,21,21,0,221,25,0,1200,26,0,1200,27,0,1221,30,0,1200,31,0,1200,33,0,1200,34,0,1200,36,0,1200*54
$PAIRSAT,4,46,1,0,200,2,0,200,3,0,400,4,0,200,5,0,200,6,0,201,7,0,201,8,0,200,9,0,201,10,0,201,11,0,201,12,0,200,13,0,200,14,0,200,16,0,1,19,0,400,20,0,400,21,0,400,22,0,400,23,0,421,24,0,600,25,0,621,26,0,600,27,0,400,28,0,621,29,0,600,30,0,600,32,0,600,33,0,600,34,0,621,35,0,600,36,0,400,37,0,400,38,0,400,39,0,421,40,0,421,41,0,400,42,0,400,43,0,421,44,0,400,45,0,400,46,0,400,59,0,400,60,0,400,61,0,400,62,0,400*48
$PAIRDGP,7,4,7,8,9,16,21,27*6D
$GNGGA,031950.100,2500.7829027,N,12132.4668352,E,4,49,0.56,16.671,M,15.25,M,1,3335*48
$GNRMC,031950.100,A,2500.7829027,N,12132.4668352,E,0.02,61.32,090324,,,R,V*23
$GPHDT,,T*1B
$GNACCURACY,4.9*1B
$GNGGA,031950.200,2500.7829052,N,12132.4668335,E,4,49,0.56,16.664,M,15.25,M,1,3335*4C
$GNRMC,031950.200,A,2500.7829052,N,12132.4668335,E,0.02,61.32,090324,,,R,V*23
$GPHDT,355.262,T*30
$GNACCURACY,4.9*1B
$GNGGA,031950.300,2500.7829030,N,12132.4668347,E,4,48,0.60,16.662,M,15.25,M,1,3335*4E
$GNRMC,031950.300,A,2500.7829030,N,12132.4668347,E,0.02,61.32,090324,,,R,V*23
$GPHDT,,T*1B
$GNACCURACY,4.9*1B
$GNGGA,031950.400,2500.7829035,N,12132.4668348,E,4,48,0.60,16.673,M,15.25,M,1,3335*43
$GNRMC,031950.400,A,2500.7829035,N,12132.4668348,E,0.01,61.32,090324,,,R,V*2D
$GPHDT,355.041,T*33
$GNACCURACY,4.9*1B
$GNGGA,031950.500,2500.7829045,N,12132.4668336,E,4,48,0.60,16.669,M,15.25,M,1,3335*47
$GNRMC,031950.500,A,2500.7829045,N,12132.4668336,E,0.01,61.32,090324,,,R,V*22
$GPHDT,,T*1B
$GNACCURACY,4.9*1B
$GNGGA,031950.600,2500.7829041,N,12132.4668319,E,4,48,0.60,16.660,M,15.25,M,1,3335*44
$GNRMC,031950.600,A,2500.7829041,N,12132.4668319,E,0.06,61.32,090324,,,R,V*2F
$GPHDT,355.525,T*34
$GNACCURACY,5.0*13
$GNGGA,031950.700,2500.7829023,N,12132.4668352,E,4,49,0.56,16.667,M,15.25,M,0,3335*4C
$GNRMC,031950.700,A,2500.7829023,N,12132.4668352,E,0.08,61.32,090324,,,R,V*2B
$GPHDT,,T*1B
$GNACCURACY,5.0*13
$GNGGA,031950.800,2500.7829015,N,12132.4668359,E,4,49,0.56,16.661,M,15.25,M,0,3335*4B
$GNRMC,031950.800,A,2500.7829015,N,12132.4668359,E,0.07,61.32,090324,,,R,V*25
$GPHDT,355.078,T*39
$GNACCURACY,5.0*13
$GNGGA,031950.900,2500.7829024,N,12132.4668355,E,4,49,0.56,16.684,M,15.25,M,0,3335*4F
$GNRMC,031950.900,A,2500.7829024,N,12132.4668355,E,0.03,61.32,090324,,,R,V*2E
$GPHDT,,T*1B
$GNACCURACY,5.1*12
$GNGGA,031951.000,2500.7829014,N,12132.4668364,E,4,48,0.60,16.674,M,15.25,M,1,3335*4C
$GNRMC,031951.000,A,2500.7829014,N,12132.4668364,E,0.03,61.32,090324,,,R,V*27
$GPHDT,355.521,T*30
$GNGSA,A,3,08,194,195,27,21,16,04,09,02,26,,,1.11,0.60,0.93,1*0F
$GNGSA,A,3,88,77,87,,,,,,,,,,1.11,0.60,0.93,2*00
$GNGSA,A,3,21,13,19,27,15,,,,,,,,1.11,0.60,0.93,3*06
$GNGSA,A,3,06,16,43,09,39,40,07,23,10,11,25,28,1.11,0.60,0.93,4*02
$GNGSA,A,3,34,,,,,,,,,,,,1.11,0.60,0.93,4*0E
$GPGSV,4,1,15,08,72,292,44,199,66,164,,194,63,045,42,195,56,124,39,1*5E
$GPGSV,4,2,15,27,53,025,41,45,47,231,39,21,36,171,45,16,36,051,40,1*6D
$GPGSV,4,3,15,04,35,219,39,09,31,271,20,02,24,182,36,07,22,320,25,1*63
$GPGSV,4,4,15,196,21,174,16,26,19,080,32,31,18,135,15,1*65
$GPGSV,2,1,08,08,72,292,45,194,63,045,42,195,56,124,40,27,53,025,33,8*64
$GPGSV,2,2,08,04,35,219,37,09,31,271,20,196,21,174,29,26,19,080,28,8*5E
$GLGSV,2,1,05,88,72,090,43,78,44,000,,77,33,081,35,87,25,031,21,1*7C
$GLGSV,2,2,05,79,09,316,18,1*47
$GAGSV,2,1,07,21,50,344,22,13,48,113,42,19,38,261,24,27,35,059,42,7*70
$GAGSV,2,2,07,15,24,052,24,26,24,176,24,20,,,34,7*76
$GAGSV,2,1,05,21,50,344,25,13,48,113,41,27,35,059,40,26,24,176,21,1*73
$GAGSV,2,2,05,15,24,052,29,1*4E
$GBGSV,4,1,13,06,83,232,39,16,81,187,38,43,76,073,45,09,74,307,41,1*76
$GBGSV,4,2,13,39,69,173,45,40,67,312,44,07,63,291,38,23,59,352,43,1*7B
$GBGSV,4,3,13,10,52,274,28,11,52,048,40,25,49,091,38,28,36,206,23,1*72
$GBGSV,4,4,13,34,28,041,33,1*4C
$GBGSV,2,1,07,43,76,073,42,39,69,173,42,40,67,312,43,23,59,352,40,4*7A
$GBGSV,2,2,07,25,49,091,41,28,36,206,28,34,28,041,28,4*40
$GNACCURACY,5.0*13
$PAIRSAT,1,27,2,0,201,3,0,200,4,0,221,5,0,200,7,0,1,8,0,21,9,0,21,14,0,200,15,0,200,16,0,201,17,0,200,18,0,200,19,0,200,20,0,200,21,0,201,22,0,200,23,0,200,24,0,200,25,0,200,26,0,221,27,0,221,28,0,200,31,0,1,194,0,421,195,0,621,196,0,200,199,0,600*63
$PAIRSAT,2,15,70,0,200,71,0,200,74,0,200,75,0,200,76,0,200,77,0,201,78,0,201,79,0,201,82,0,200,83,0,200,84,0,200,85,0,200,86,0,200,87,0,201,88,0,201*54
$PAIRSAT,3,19,2,0,1200,3,0,1200,4,0,1200,5,0,200,7,0,1000,8,0,1000,9,0,1000,13,0,21,15,0,21,19,0,21,21,0,221,25,0,1200,26,0,1200,27,0,1221,30,0,1200,31,0,1200,33,0,1200,34,0,1200,36,0,1200*54
$PAIRSAT,4,46,1,0,200,2,0,200,3,0,400,4,0,200,5,0,200,6,0,201,7,0,201,8,0,200,9,0,201,10,0,201,11,0,201,12,0,200,13,0,200,14,0,200,16,0,201,19,0,400,20,0,400,21,0,400,22,0,400,23,0,421,24,0,600,25,0,621,26,0,600,27,0,400,28,0,621,29,0,600,30,0,600,32,0,600,33,0,600,34,0,621,35,0,600,36,0,400,37,0,400,38,0,400,39,0,421,40,0,421,41,0,400,42,0,400,43,0,421,44,0,400,45,0,400,46,0,400,59,0,400,60,0,400,61,0,400,62,0,400*4A
$PAIRDGP,7,4,7,8,9,16,21,27*6D
$GNGGA,031951.100,2500.7829014,N,12132.4668366,E,4,48,0.60,16.669,M,15.25,M,1,3335*43
$GNRMC,031951.100,A,2500.7829014,N,12132.4668366,E,0.05,61.32,090324,,,R,V*22
$GPHDT,,T*1B
$GNACCURACY,5.0*13
$GNGGA,031951.200,2500.7829031,N,12132.4668352,E,4,48,0.60,16.672,M,15.25,M,1,3335*4A
$GNRMC,031951.200,A,2500.7829031,N,12132.4668352,E,0.04,61.32,090324,,,R,V*20
$GPHDT,354.913,T*3C
$GNACCURACY,5.0*13
$GNGGA,031951.300,2500.7829018,N,12132.4668373,E,4,48,0.60,16.683,M,15.25,M,1,3335*4D
$GNRMC,031951.300,A,2500.7829018,N,12132.4668373,E,0.03,61.32,090324,,,R,V*2E
$GPHDT,,T*1B
$GNACCURACY,5.0*13
$GNGGA,031951.400,2500.7829030,N,12132.4668333,E,4,49,0.59,16.665,M,15.25,M,1,3335*47
$GNRMC,031951.400,A,2500.7829030,N,12132.4668333,E,0.04,61.32,090324,,,R,V*20
$GPHDT,355.289,T*35
$GNACCURACY,5.0*13
$GNGGA,031951.500,2500.7829016,N,12132.4668361,E,4,49,0.59,16.658,M,15.25,M,1,3335*4B
$GNRMC,031951.500,A,2500.7829016,N,12132.4668361,E,0.04,61.32,090324,,,R,V*22
$GPHDT,,T*1B
$GNACCURACY,5.0*13
$GNGGA,031951.600,2500.7829017,N,12132.4668334,E,4,49,0.59,16.668,M,15.25,M,0,3335*4B
$GNRMC,031951.600,A,2500.7829017,N,12132.4668334,E,0.04,61.32,090324,,,R,V*20
$GPHDT,355.125,T*30
$GNACCURACY,5.0*13
$GNGGA,031951.700,2500.7829011,N,12132.4668353,E,4,49,0.59,16.657,M,15.25,M,0,3335*41
$GNRMC,031951.700,A,2500.7829011,N,12132.4668353,E,0.05,61.32,090324,,,R,V*27
$GPHDT,,T*1B
$GNACCURACY,5.1*12
$GNGGA,031951.800,2500.7829035,N,12132.4668341,E,4,49,0.59,16.667,M,15.25,M,0,3335*48
$GNRMC,031951.800,A,2500.7829035,N,12132.4668341,E,0.05,61.32,090324,,,R,V*2D
$GPHDT,355.226,T*30
$GNACCURACY,5.0*13
$GNGGA,031951.900,2500.7829029,N,12132.4668331,E,4,49,0.59,16.654,M,15.25,M,0,3335*43
$GNRMC,031951.900,A,2500.7829029,N,12132.4668331,E,0.06,61.32,090324,,,R,V*25
$GPHDT,,T*1B
$GNACCURACY,5.1*12
$GNGGA,031952.000,2500.7829008,N,12132.4668382,E,4,49,0.59,16.672,M,15.25,M,1,3335*47
$GNRMC,031952.000,A,2500.7829008,N,12132.4668382,E,0.05,61.32,090324,,,R,V*27
$GPHDT,354.897,T*31
$GNGSA,A,3,08,194,195,27,21,16,04,09,02,26,,,1.10,0.59,0.93,1*04
$GNGSA,A,3,88,78,77,87,,,,,,,,,1.10,0.59,0.93,2*04
$GNGSA,A,3,21,13,19,27,15,,,,,,,,1.10,0.59,0.93,3*0D
$GNGSA,A,3,06,16,43,09,39,40,07,23,10,11,25,28,1.10,0.59,0.93,4*09
$GNGSA,A,3,34,,,,,,,,,,,,1.10,0.59,0.93,4*05
$GPGSV,4,1,15,08,72,292,44,199,66,164,,194,63,045,42,195,56,124,39,1*5E
$GPGSV,4,2,15,27,53,025,41,45,47,231,39,21,36,171,45,16,36,051,40,1*6D
$GPGSV,4,3,15,04,35,219,39,09,31,271,20,02,24,182,36,07,22,320,23,1*65
$GPGSV,4,4,15,196,21,174,17,26,19,080,33,31,18,135,16,1*66
$GPGSV,2,1,08,08,72,292,45,194,63,045,42,195,56,124,40,27,53,025,33,8*64
$GPGSV,2,2,08,04,35,219,36,09,31,271,19,196,21,174,29,26,19,080,27,8*5A
$GLGSV,2,1,05,88,72,090,43,78,44,000,17,77,33,081,35,87,25,031,22,1*79
$GLGSV,2,2,05,79,09,316,18,1*47
$GAGSV,2,1,07,21,50,344,21,13,48,113,42,19,38,261,24,27,35,059,42,7*73
$GAGSV,2,2,07,15,24,052,24,26,24,176,23,20,,,34,7*71
$GAGSV,2,1,05,21,50,344,25,13,48,113,41,27,35,059,40,26,24,176,20,1*72
$GAGSV,2,2,05,15,24,052,29,1*4E
$GBGSV,4,1,13,06,83,232,39,16,81,187,38,43,76,073,45,09,74,307,41,1*76
$GBGSV,4,2,13,39,69,173,45,40,67,312,44,07,63,291,38,23,59,352,43,1*7B
$GBGSV,4,3,13,10,52,274,28,11,52,048,40,25,49,091,38,28,36,206,23,1*72
$GBGSV,4,4,13,34,28,041,33,1*4C
$GBGSV,2,1,07,43,76,073,42,39,69,173,42,40,67,312,43,23,59,352,40,4*7A
$GBGSV,2,2,07,25,49,091,41,28,36,206,28,34,28,041,27,4*4F
$GNACCURACY,5.1*12
$PAIRSAT,1,27,2,0,201,3,0,200,4,0,221,5,0,200,7,0,1,8,0,21,9,0,21,14,0,200,15,0,200,16,0,201,17,0,200,18,0,200,19,0,200,20,0,200,21,0,201,22,0,200,23,0,200,24,0,200,25,0,200,26,0,221,27,0,221,28,0,200,31,0,1,194,0,421,195,0,621,196,0,200,199,0,600*63
$PAIRSAT,2,15,70,0,200,71,0,200,74,0,200,75,0,200,76,0,200,77,0,201,78,0,201,79,0,201,82,0,200,83,0,200,84,0,200,85,0,200,86,0,200,87,0,201,88,0,201*54
$PAIRSAT,3,19,2,0,1200,3,0,1200,4,0,1200,5,0,200,7,0,1000,8,0,1000,9,0,1000,13,0,21,15,0,21,19,0,21,21,0,221,25,0,1200,26,0,1200,27,0,1221,30,0,1200,31,0,1200,33,0,1200,34,0,1200,36,0,1200*54
$PAIRSAT,4,46,1,0,200,2,0,200,3,0,400,4,0,200,5,0,200,6,0,201,7,0,201,8,0,200,9,0,201,10,0,201,11,0,201,12,0,200,13,0,200,14,0,200,16,0,201,19,0,400,20,0,400,21,0,400,22,0,400,23,0,421,24,0,600,25,0,621,26,0,600,27,0,400,28,0,621,29,0,600,30,0,600,32,0,600,33,0,600,34,0,621,35,0,600,36,0,400,37,0,400,38,0,400,39,0,421,40,0,421,41,0,400,42,0,400,43,0,421,44,0,400,45,0,400,46,0,400,59,0,400,60,0,400,61,0,400,62,0,400*4A
$PAIRDGP,7,4,7,8,9,16,21,27*6D
$GNGGA,031952.100,2500.7829038,N,12132.4668356,E,4,49,0.59,16.663,M,15.25,M,1,3335*4C
$GNRMC,031952.100,A,2500.7829038,N,12132.4668356,E,0.06,61.32,090324,,,R,V*2F
$GPHDT,,T*1B
$GNACCURACY,5.1*12
$GNGGA,031952.200,2500.7829008,N,12132.4668363,E,4,49,0.59,16.666,M,15.25,M,1,3335*4F
$GNRMC,031952.200,A,2500.7829008,N,12132.4668363,E,0.01,61.32,090324,,,R,V*2E
$GPHDT,355.120,T*35
$GNACCURACY,5.1*12
$GNGGA,031952.300,2500.7829027,N,12132.4668348,E,4,50,0.55,16.675,M,15.25,M,1,3335*4C
$GNRMC,031952.300,A,2500.7829027,N,12132.4668348,E,0.07,61.32,090324,,,R,V*2D
$GPHDT,,T*1B
$GNACCURACY,5.1*12
$GNGGA,031952.400,2500.7829016,N,12132.4668373,E,4,49,0.59,16.684,M,15.25,M,1,3335*4B
$GNRMC,031952.400,A,2500.7829016,N,12132.4668373,E,0.03,61.32,090324,,,R,V*24
$GPHDT,354.627,T*34
$GNACCURACY,5.1*12
$GNGGA,031952.500,2500.7829027,N,12132.4668337,E,4,49,0.59,16.661,M,15.25,M,1,3335*43
$GNRMC,031952.500,A,2500.7829027,N,12132.4668337,E,0.02,61.32,090324,,,R,V*26
$GPHDT,,T*1B
$GNACCURACY,5.1*12
$GNGGA,031952.600,2500.7829024,N,12132.4668342,E,4,49,0.59,16.659,M,15.25,M,1,3335*4A
$GNRMC,031952.600,A,2500.7829024,N,12132.4668342,E,0.03,61.32,090324,,,R,V*25
$GPHDT,355.014,T*33
$GNACCURACY,5.1*12
$GNGGA,031952.700,2500.7829026,N,12132.4668361,E,4,48,0.60,16.678,M,15.25,M,0,3335*41
$GNRMC,031952.700,A,2500.7829026,N,12132.4668361,E,0.05,61.32,090324,,,R,V*21
$GPHDT,,T*1B
