$FW : RTK35X,V1.1X0314AS,Lib20210517,1*54
$Tool : LOCOSYS , GNSS Firebird , v1.0.0.19*39
$---------------------------------------------------*2D
0,34,0,1200,36,0,1200*4E
$PAIRSAT,4,46,1,0,200,2,0,200,3,0,400,4,0,200,5,0,200,6,0,201,7,0,201,8,0,200,9,0,201,10,0,201,11,0,201,12,0,200,13,0,200,14,0,200,16,0,1,19,0,400,20,0,400,21,0,400,22,0,400,23,0,421,24,0,600,25,0,621,26,0,600,27,0,400,28,0,621,29,0,600,30,0,600,32,0,600,33,0,600,34,0,621,35,0,400,36,0,400,37,0,400,38,0,400,39,0,421,40,0,421,41,0,400,42,0,400,43,0,421,44,0,400,45,0,400,46,0,400,59,0,400,60,0,400,61,0,400,62,0,400*4A
$PAIRDGP,7,4,7,8,9,16,21,27*6D
$GNGGA,031917.100,2500.7829018,N,12132.4668430,E,4,49,0.60,16.639,M,15.25,M,1,3335*4D
$GNRMC,031917.100,A,2500.7829018,N,12132.4668430,E,0.00,61.32,090324,,,R,V*2D
$GPHDT,,T*1B
$GNACCURACY,4.5*17
$GNGGA,031917.200,2500.7829036,N,12132.4668422,E,4,49,0.60,16.635,M,15.25,M,1,3335*4D
$GNRMC,031917.200,A,2500.7829036,N,12132.4668422,E,0.00,61.32,090324,,,R,V*21
$GPHDT,48.012,T*0A
$GNACCURACY,4.5*17
$GNGGA,031917.300,2500.7829026,N,12132.4668441,E,4,49,0.60,16.639,M,15.25,M,1,3335*44
$GNRMC,031917.300,A,2500.7829026,N,12132.4668441,E,0.00,61.32,090324,,,R,V*24
$GPHDT,,T*1B
$GNACCURACY,4.6*14
$GNGGA,031917.400,2500.7829040,N,12132.4668384,E,4,50,0.59,16.631,M,15.25,M,1,3335*47
$GNRMC,031917.400,A,2500.7829040,N,12132.4668384,E,0.00,61.32,090324,,,R,V*2D
$GPHDT,48.224,T*0D
$GNACCURACY,4.6*14
$GNGGA,031917.500,2500.7829061,N,12132.4668345,E,4,50,0.59,16.608,M,15.25,M,0,3335*43
$GNRMC,031917.500,A,2500.7829061,N,12132.4668345,E,0.00,61.32,090324,,,R,V*22
$GPHDT,,T*1B
$GNACCURACY,4.6*14
$GNGGA,031917.600,2500.7829001,N,12132.4668439,E,4,50,0.59,16.655,M,15.25,M,0,3335*42
$GNRMC,031917.600,A,2500.7829001,N,12132.4668439,E,0.00,61.32,090324,,,R,V*2B
$GPHDT,48.755,T*0E
$GNACCURACY,4.6*14
$GNGGA,031917.700,2500.7829030,N,12132.4668472,E,4,50,0.59,16.629,M,15.25,M,0,3335*45
$GNRMC,031917.700,A,2500.7829030,N,12132.4668472,E,0.00,61.32,090324,,,R,V*27
$GPHDT,,T*1B
$GNACCURACY,4.6*14
$GNGGA,031917.800,2500.7829016,N,12132.4668435,E,4,50,0.59,16.644,M,15.25,M,0,3335*46
$GNRMC,031917.800,A,2500.7829016,N,12132.4668435,E,0.00,61.32,090324,,,R,V*2F
$GPHDT,48.386,T*04
$GNACCURACY,4.6*14
$GNGGA,031917.900,2500.7829008,N,12132.4668500,E,4,50,0.59,16.626,M,15.25,M,0,3335*4B
$GNRMC,031917.900,A,2500.7829008,N,12132.4668500,E,0.00,61.32,090324,,,R,V*26
$GPHDT,,T*1B
$GNACCURACY,4.6*14
$GNGGA,031918.000,2500.7828985,N,12132.4668495,E,4,50,0.59,16.651,M,15.25,M,1,3335*4C
$GNRMC,031918.000,A,2500.7828985,N,12132.4668495,E,0.00,61.32,090324,,,R,V*20
$GPHDT,47.681,T*09
$GNGSA,A,3,08,194,195,27,16,21,04,09,26,31,,,1.10,0.59,0.93,1*04
$GNGSA,A,3,88,78,77,87,,,,,,,,,1.10,0.59,0.93,2*04
$GNGSA,A,3,21,13,19,27,15,,,,,,,,1.10,0.59,0.93,3*0D
$GNGSA,A,3,06,16,43,09,39,40,07,23,10,11,25,28,1.10,0.59,0.93,4*09
$GNGSA,A,3,34,,,,,,,,,,,,1.10,0.59,0.93,4*05
$GPGSV,4,1,15,08,72,291,40,199,66,164,,194,63,045,40,195,56,124,41,1*54
$GPGSV,4,2,15,27,54,025,44,45,47,231,37,16,37,051,41,21,35,171,45,1*62
$GPGSV,4,3,15,04,35,220,37,09,31,272,26,02,24,182,36,07,22,320,12,1*66
$GPGSV,4,4,15,196,21,174,25,26,19,080,25,31,18,135,22,1*67
$GPGSV,2,1,07,08,72,291,42,194,63,045,41,195,56,124,42,27,54,025,36,8*6C
$GPGSV,2,2,07,04,35,220,39,09,31,272,18,26,19,080,21,8*50
$GLGSV,2,1,05,88,72,091,43,78,43,000,26,77,33,081,27,87,25,031,18,1*77
$GLGSV,2,2,05,79,09,316,14,1*4B
$GAGSV,2,1,07,21,50,344,18,13,48,113,40,19,38,261,25,27,35,059,25,7*7B
$GAGSV,2,2,07,15,24,052,25,26,24,176,27,20,,,34,7*74
$GAGSV,2,1,06,21,50,344,19,13,48,113,40,19,38,261,22,27,35,059,36,1*78
$GAGSV,2,2,06,26,24,176,24,15,24,052,21,1*71
$GBGSV,4,1,13,06,84,232,40,16,81,187,37,43,76,074,43,09,74,307,39,1*7E
$GBGSV,4,2,13,39,70,173,44,40,67,312,41,07,63,291,34,23,58,352,43,1*7A
$GBGSV,4,3,13,10,52,274,27,11,52,049,41,25,49,091,32,28,35,206,20,1*77
$GBGSV,4,4,13,34,29,042,31,1*4C
$GBGSV,2,1,07,43,76,074,40,39,70,173,41,40,67,312,38,23,58,352,38,4*76
$GBGSV,2,2,07,25,49,091,33,28,35,206,27,34,29,042,30,4*42
$GNACCURACY,4.6*14
$PAIRSAT,1,25,2,0,200,3,0,200,4,0,221,7,0,1,8,0,21,9,0,21,14,0,200,15,0,200,16,0,201,17,0,200,18,0,200,19,0,200,20,0,200,21,0,201,22,0,200,23,0,200,24,0,200,25,0,200,26,0,221,27,0,221,31,0,1,194,0,421,195,0,221,196,0,200,199,0,600*5B
$PAIRSAT,2,15,70,0,200,71,0,200,74,0,200,75,0,200,76,0,200,77,0,201,78,0,201,79,0,201,82,0,200,83,0,200,84,0,200,85,0,200,86,0,200,87,0,201,88,0,201*54
$PAIRSAT,3,18,2,0,1200,3,0,1200,4,0,1200,7,0,1000,8,0,1000,9,0,1000,13,0,21,15,0,21,19,0,21,21,0,221,25,0,1200,26,0,1200,27,0,1221,30,0,1200,31,0,1200,33,0,1200,34,0,1200,36,0,1200*4E
$PAIRSAT,4,46,1,0,200,2,0,200,3,0,400,4,0,200,5,0,200,6,0,201,7,0,201,8,0,200,9,0,201,10,0,201,11,0,201,12,0,200,13,0,200,14,0,200,16,0,1,19,0,400,20,0,400,21,0,400,22,0,400,23,0,421,24,0,600,25,0,621,26,0,600,27,0,400,28,0,621,29,0,600,30,0,600,32,0,600,33,0,600,34,0,621,35,0,400,36,0,400,37,0,400,38,0,400,39,0,421,40,0,421,41,0,400,42,0,400,43,0,421,44,0,400,45,0,400,46,0,400,59,0,400,60,0,400,61,0,400,62,0,400*4A
$PAIRDGP,7,4,7,8,9,16,21,27*6D
$GNGGA,031918.100,2500.7828996,N,12132.4668481,E,4,51,0.59,16.653,M,15.25,M,1,3335*49
$GNRMC,031918.100,A,2500.7828996,N,12132.4668481,E,0.01,61.32,090324,,,R,V*27
$GPHDT,,T*1B
$GNACCURACY,4.6*14
$GNGGA,031918.200,2500.7828999,N,12132.4668511,E,4,51,0.59,16.628,M,15.25,M,1,3335*41
$GNRMC,031918.200,A,2500.7828999,N,12132.4668511,E,0.01,61.32,090324,,,R,V*23
$GPHDT,48.256,T*08
$GNACCURACY,4.5*17
$GNGGA,031918.300,2500.7829009,N,12132.4668515,E,4,50,0.59,16.625,M,15.25,M,1,3335*49
$GNRMC,031918.300,A,2500.7829009,N,12132.4668515,E,0.01,61.32,090324,,,R,V*27
$GPHDT,,T*1B
$GNACCURACY,4.5*17
$GNGGA,031918.400,2500.7829049,N,12132.4668443,E,4,50,0.59,16.611,M,15.25,M,1,3335*4F
$GNRMC,031918.400,A,2500.7829049,N,12132.4668443,E,0.01,61.32,090324,,,R,V*26
$GPHDT,48.220,T*09
$GNACCURACY,4.5*17
$GNGGA,031918.500,2500.7829037,N,12132.4668418,E,4,50,0.59,16.631,M,15.25,M,1,3335*4B
$GNRMC,031918.500,A,2500.7829037,N,12132.4668418,E,0.00,61.32,090324,,,R,V*21
$GPHDT,,T*1B
$GNACCURACY,4.5*17
$GNGGA,031918.600,2500.7829045,N,12132.4668416,E,4,50,0.59,16.652,M,15.25,M,0,3335*47
$GNRMC,031918.600,A,2500.7829045,N,12132.4668416,E,0.00,61.32,090324,,,R,V*29
$GPHDT,48.416,T*0A
$GNACCURACY,4.5*17
$GNGGA,031918.700,2500.7829040,N,12132.4668416,E,4,50,0.59,16.653,M,15.25,M,0,3335*42
$GNRMC,031918.700,A,2500.7829040,N,12132.4668416,E,0.00,61.32,090324,,,R,V*2D
$GPHDT,,T*1B
$GNACCURACY,4.5*17
$GNGGA,031918.800,2500.7829015,N,12132.4668441,E,4,50,0.59,16.660,M,15.25,M,0,3335*4F
$GNRMC,031918.800,A,2500.7829015,N,12132.4668441,E,0.00,61.32,090324,,,R,V*20
$GPHDT,48.271,T*0D
$GNACCURACY,4.5*17
$GNGGA,031918.900,2500.7829012,N,12132.4668463,E,4,50,0.59,16.652,M,15.25,M,0,3335*48
$GNRMC,031918.900,A,2500.7829012,N,12132.4668463,E,0.00,61.32,090324,,,R,V*26
$GPHDT,,T*1B
$GNACCURACY,4.5*17
$GNGGA,031919.000,2500.7829003,N,12132.4668488,E,4,50,0.59,16.638,M,15.25,M,1,3335*48
$GNRMC,031919.000,A,2500.7829003,N,12132.4668488,E,0.00,61.32,090324,,,R,V*2B
$GPHDT,47.054,T*07
$GNGSA,A,3,08,194,195,27,16,21,04,09,31,26,,,1.10,0.59,0.93,1*04
$GNGSA,A,3,88,78,77,87,,,,,,,,,1.10,0.59,0.93,2*04
$GNGSA,A,3,21,13,19,27,15,,,,,,,,1.10,0.59,0.93,3*0D
$GNGSA,A,3,06,16,43,09,39,40,07,23,11,10,25,28,1.10,0.59,0.93,4*09
$GNGSA,A,3,34,,,,,,,,,,,,1.10,0.59,0.93,4*05
$GPGSV,4,1,15,08,72,291,40,199,66,164,,194,63,045,41,195,56,124,41,1*55
$GPGSV,4,2,15,27,54,025,44,45,47,231,36,16,37,051,39,21,35,171,45,1*6C
$GPGSV,4,3,15,04,35,220,37,09,31,271,24,02,24,182,36,07,22,320,14,1*61
$GPGSV,4,4,15,196,21,174,26,26,19,080,23,31,18,135,20,1*60
$GPGSV,2,1,07,08,72,291,41,194,63,045,41,195,56,124,41,27,54,025,36,8*6C
$GPGSV,2,2,07,04,35,220,38,09,31,271,19,26,19,080,21,8*53
$GLGSV,2,1,05,88,72,091,43,78,43,000,25,77,33,081,25,87,25,031,17,1*79
$GLGSV,2,2,05,79,09,316,13,1*4C
$GAGSV,2,1,08,21,50,344,19,13,48,113,39,19,38,261,24,27,35,059,26,7*79
$GAGSV,2,2,08,15,24,052,24,26,24,176,26,04,08,315,,20,,,34,7*40
$GAGSV,2,1,06,21,50,344,19,13,48,113,40,19,38,261,21,27,35,059,35,1*78
$GAGSV,2,2,06,26,24,176,23,15,24,052,21,1*76
$GBGSV,4,1,14,06,84,232,39,16,81,187,36,43,76,074,43,09,74,307,39,1*76
$GBGSV,4,2,14,39,70,173,44,40,67,312,41,07,63,291,34,23,58,352,43,1*7D
$GBGSV,4,3,14,11,52,049,41,10,52,274,25,25,49,091,36,28,35,206,20,1*76
$GBGSV,4,4,14,34,29,042,30,37,14,313,,1*7A
$GBGSV,2,1,07,43,76,074,40,39,70,173,40,40,67,312,38,23,58,352,39,4*76
$GBGSV,2,2,07,25,49,091,30,28,35,206,26,34,29,042,27,4*46
$GNACCURACY,4.5*17
$PAIRSAT,1,25,2,0,200,3,0,200,4,0,221,7,0,1,8,0,21,9,0,21,14,0,200,15,0,200,16,0,201,17,0,200,18,0,200,19,0,200,20,0,200,21,0,201,22,0,200,23,0,200,24,0,200,25,0,200,26,0,221,27,0,221,31,0,1,194,0,421,195,0,221,196,0,200,199,0,600*5B
$PAIRSAT,2,15,70,0,200,71,0,200,74,0,200,75,0,200,76,0,200,77,0,201,78,0,201,79,0,201,82,0,200,83,0,200,84,0,200,85,0,200,86,0,200,87,0,201,88,0,201*54
$PAIRSAT,3,18,2,0,1200,3,0,1200,4,0,1200,7,0,1000,8,0,1000,9,0,1000,13,0,21,15,0,21,19,0,21,21,0,221,25,0,1200,26,0,1200,27,0,1221,30,0,1200,31,0,1200,33,0,1200,34,0,1200,36,0,1200*4E
$PAIRSAT,4,46,1,0,200,2,0,200,3,0,400,4,0,200,5,0,200,6,0,201,7,0,201,8,0,200,9,0,201,10,0,201,11,0,201,12,0,200,13,0,200,14,0,200,16,0,1,19,0,400,20,0,400,21,0,400,22,0,400,23,0,421,24,0,600,25,0,621,26,0,600,27,0,400,28,0,621,29,0,600,30,0,600,32,0,600,33,0,600,34,0,621,35,0,400,36,0,400,37,0,400,38,0,400,39,0,421,40,0,421,41,0,400,42,0,400,43,0,421,44,0,400,45,0,400,46,0,400,59,0,400,60,0,400,61,0,400,62,0,400*4A
$PAIRDGP,7,4,7,8,9,16,21,27*6D
$GNGGA,031919.100,2500.7829007,N,12132.4668463,E,4,50,0.59,16.629,M,15.25,M,1,3335*48
$GNRMC,031919.100,A,2500.7829007,N,12132.4668463,E,0.00,61.32,090324,,,R,V*2B
$GPHDT,,T*1B
$GNACCURACY,4.6*14
$GNGGA,031919.200,2500.7829031,N,12132.4668449,E,4,51,0.59,16.661,M,15.25,M,1,3335*4B
$GNRMC,031919.200,A,2500.7829031,N,12132.4668449,E,0.00,61.32,090324,,,R,V*25
$GPHDT,47.578,T*0C
$GNACCURACY,4.6*14
$GNGGA,031919.300,2500.7829047,N,12132.4668453,E,4,51,0.59,16.670,M,15.25,M,1,3335*40
$GNRMC,031919.300,A,2500.7829047,N,12132.4668453,E,0.01,61.32,090324,,,R,V*2F
$GPHDT,,T*1B
$GNACCURACY,4.6*14
$GNGGA,031919.400,2500.7829053,N,12132.4668340,E,4,51,0.59,16.630,M,15.25,M,1,3335*43
$GNRMC,031919.400,A,2500.7829053,N,12132.4668340,E,0.00,61.32,090324,,,R,V*29
$GPHDT,47.826,T*0A
$GNACCURACY,4.6*14
$GNGGA,031919.500,2500.7829044,N,12132.4668412,E,4,50,0.62,16.642,M,15.25,M,1,3335*48
$GNRMC,031919.500,A,2500.7829044,N,12132.4668412,E,0.00,61.32,090324,,,R,V*2E
$GPHDT,,T*1B
$GNACCURACY,4.6*14
$GNGGA,031919.600,2500.7829052,N,12132.4668389,E,4,50,0.62,16.648,M,15.25,M,0,3335*42
$GNRMC,031919.600,A,2500.7829052,N,12132.4668389,E,0.00,61.32,090324,,,R,V*2F
$GPHDT,48.284,T*07
$GNACCURACY,4.6*14
$GNGGA,031919.700,2500.7829044,N,12132.4668377,E,4,50,0.62,16.644,M,15.25,M,0,3335*49
$GNRMC,031919.700,A,2500.7829044,N,12132.4668377,E,0.00,61.32,090324,,,R,V*28
$GPHDT,,T*1B
$GNACCURACY,4.6*14
$GNGGA,031919.800,2500.7829037,N,12132.4668377,E,4,48,0.62,16.654,M,15.25,M,0,3335*4A
$GNRMC,031919.800,A,2500.7829037,N,12132.4668377,E,0.01,61.32,090324,,,R,V*22
$GPHDT,49.418,T*05
$GNACCURACY,4.6*14
$GNGGA,031919.900,2500.7829055,N,12132.4668382,E,4,48,0.62,16.626,M,15.25,M,0,3335*40
$GNRMC,031919.900,A,2500.7829055,N,12132.4668382,E,0.01,61.32,090324,,,R,V*2D
$GPHDT,,T*1B
$GNACCURACY,4.6*14
$GNGGA,031920.000,2500.7829033,N,12132.4668407,E,4,48,0.62,16.639,M,15.25,M,1,3335*46
$GNRMC,031920.000,A,2500.7829033,N,12132.4668407,E,0.01,61.32,090324,,,R,V*24
$GPHDT,49.139,T*03
$GNGSA,A,3,08,194,195,27,21,16,04,09,31,26,,,1.10,0.59,0.93,1*04
$GNGSA,A,3,88,78,77,87,,,,,,,,,1.10,0.59,0.93,2*04
$GNGSA,A,3,21,13,19,27,15,,,,,,,,1.10,0.59,0.93,3*0D
$GNGSA,A,3,06,16,43,09,39,40,07,23,11,10,25,34,1.10,0.59,0.93,4*04
$GNGSA,A,3,28,,,,,,,,,,,,1.10,0.59,0.93,4*08
$GPGSV,4,1,15,08,72,291,41,199,66,164,,194,63,045,41,195,56,124,41,1*54
$GPGSV,4,2,15,27,54,025,44,45,47,231,34,21,36,171,44,16,36,051,38,1*6C
$GPGSV,4,3,15,04,35,220,38,09,31,271,22,02,24,182,36,07,22,320,17,1*6B
$GPGSV,4,4,15,196,21,174,25,26,19,080,22,31,18,135,19,1*68
$GPGSV,2,1,07,08,72,291,41,194,63,045,41,195,56,124,42,27,54,025,36,8*6F
$GPGSV,2,2,07,04,35,220,37,09,31,271,20,26,19,080,25,8*52
$GLGSV,2,1,05,88,72,091,43,78,43,000,25,77,33,081,26,87,25,031,24,1*7A
$GLGSV,2,2,05,79,09,316,15,1*4A
$GAGSV,2,1,08,21,50,344,20,13,48,113,40,19,38,261,25,27,35,059,26,7*7C
$GAGSV,2,2,08,15,24,052,26,26,24,176,26,04,08,315,,20,,,32,7*44
$GAGSV,2,1,06,21,50,344,19,13,48,113,40,19,38,261,22,27,35,059,34,1*7A
$GAGSV,2,2,06,26,24,176,23,15,24,052,20,1*77
$GBGSV,4,1,13,06,84,232,40,16,81,187,40,43,76,074,43,09,74,307,39,1*7E
$GBGSV,4,2,13,39,70,173,40,40,67,312,41,07,63,291,33,23,58,352,43,1*79
$GBGSV,4,3,13,11,52,049,40,10,52,274,24,25,49,091,37,28,35,206,17,1*74
$GBGSV,4,4,13,34,29,042,30,1*4D
$GBGSV,2,1,07,43,76,074,41,39,70,173,42,40,67,312,38,23,58,352,40,4*7B
$GBGSV,2,2,07,25,49,091,33,28,35,206,26,34,29,042,28,4*4A
$GNACCURACY,4.7*15
$PAIRSAT,1,25,2,0,200,3,0,200,4,0,221,7,0,1,8,0,21,9,0,21,14,0,200,15,0,200,16,0,201,17,0,200,18,0,200,19,0,200,20,0,200,21,0,201,22,0,200,23,0,200,24,0,200,25,0,200,26,0,221,27,0,221,31,0,1,194,0,421,195,0,221,196,0,200,199,0,600*5B
$PAIRSAT,2,15,70,0,200,71,0,200,74,0,200,75,0,200,76,0,200,77,0,201,78,0,201,79,0,201,82,0,200,83,0,200,84,0,200,85,0,200,86,0,200,87,0,201,88,0,201*54
$PAIRSAT,3,18,2,0,1200,3,0,1200,4,0,1200,7,0,1000,8,0,1000,9,0,1000,13,0,21,15,0,21,19,0,21,21,0,221,25,0,1200,26,0,1200,27,0,1221,30,0,1200,31,0,1200,33,0,1200,34,0,1200,36,0,1200*4E
$PAIRSAT,4,46,1,0,200,2,0,200,3,0,400,4,0,200,5,0,200,6,0,201,7,0,201,8,0,200,9,0,201,10,0,201,11,0,201,12,0,200,13,0,200,14,0,200,16,0,1,19,0,400,20,0,400,21,0,400,22,0,400,23,0,421,24,0,600,25,0,621,26,0,600,27,0,400,28,0,621,29,0,600,30,0,600,32,0,600,33,0,600,34,0,621,35,0,400,36,0,400,37,0,400,38,0,400,39,0,421,40,0,421,41,0,400,42,0,400,43,0,421,44,0,400,45,0,400,46,0,400,59,0,400,60,0,400,61,0,400,62,0,400*4A
$PAIRDGP,7,4,7,8,9,16,21,27*6D
$GNGGA,031920.100,2500.7829063,N,12132.4668379,E,4,48,0.59,16.631,M,15.25,M,1,3335*4C
$GNRMC,031920.100,A,2500.7829063,N,12132.4668379,E,0.01,61.32,090324,,,R,V*2E
$GPHDT,,T*1B
$GNACCURACY,4.7*15
$GNGGA,031920.200,2500.7829051,N,12132.4668377,E,4,48,0.59,16.617,M,15.25,M,1,3335*44
$GNRMC,031920.200,A,2500.7829051,N,12132.4668377,E,0.01,61.32,090324,,,R,V*22
$GPHDT,49.095,T*04
$GNACCURACY,4.7*15
$GNGGA,031920.300,2500.7829047,N,12132.4668401,E,4,48,0.59,16.624,M,15.25,M,1,3335*44
$GNRMC,031920.300,A,2500.7829047,N,12132.4668401,E,0.01,61.32,090324,,,R,V*22
$GPHDT,,T*1B
$GNACCURACY,4.7*15
$GNGGA,031920.400,2500.7829021,N,12132.4668416,E,4,48,0.59,16.638,M,15.25,M,1,3335*48
$GNRMC,031920.400,A,2500.7829021,N,12132.4668416,E,0.00,61.32,090324,,,R,V*22
$GPHDT,48.441,T*08
$GNACCURACY,4.7*15
$GNGGA,031920.500,2500.7829036,N,12132.4668412,E,4,49,0.59,16.615,M,15.25,M,1,3335*45
$GNRMC,031920.500,A,2500.7829036,N,12132.4668412,E,0.00,61.32,090324,,,R,V*21
$GPHDT,,T*1B
$GNACCURACY,4.7*15
$GNGGA,031920.600,2500.7829041,N,12132.4668434,E,4,49,0.59,16.619,M,15.25,M,1,3335*4E
$GNRMC,031920.600,A,2500.7829041,N,12132.4668434,E,0.01,61.32,090324,,,R,V*27
$GPHDT,47.922,T*0F
$GNACCURACY,4.7*15
$GNGGA,031920.700,2500.7829043,N,12132.4668437,E,4,49,0.59,16.627,M,15.25,M,0,3335*42
$GNRMC,031920.700,A,2500.7829043,N,12132.4668437,E,0.01,61.32,090324,,,R,V*27
$GPHDT,,T*1B
$GNACCURACY,4.8*1A
$GNGGA,031920.800,2500.7829044,N,12132.4668421,E,4,48,0.59,16.636,M,15.25,M,0,3335*4C
$GNRMC,031920.800,A,2500.7829044,N,12132.4668421,E,0.01,61.32,090324,,,R,V*28
$GPHDT,48.214,T*0E
$GNACCURACY,4.7*15
$GNGGA,031920.900,2500.7829066,N,12132.4668411,E,4,48,0.59,16.624,M,15.25,M,0,3335*4D
$GNRMC,031920.900,A,2500.7829066,N,12132.4668411,E,0.01,61.32,090324,,,R,V*2A
$GPHDT,,T*1B
$GNACCURACY,4.7*15
$GNGGA,031921.000,2500.7828989,N,12132.4668503,E,4,48,0.59,16.624,M,15.25,M,1,3335*4F
$GNRMC,031921.000,A,2500.7828989,N,12132.4668503,E,0.01,61.32,090324,,,R,V*29
$GPHDT,46.845,T*0E
$GNGSA,A,3,08,194,195,27,16,21,04,09,31,26,,,1.10,0.59,0.93,1*04
$GNGSA,A,3,88,78,77,87,,,,,,,,,1.10,0.59,0.93,2*04
$GNGSA,A,3,13,19,27,15,21,,,,,,,,1.10,0.59,0.93,3*0D
$GNGSA,A,3,06,16,43,09,39,40,07,23,10,11,25,28,1.10,0.59,0.93,4*09
$GNGSA,A,3,34,,,,,,,,,,,,1.10,0.59,0.93,4*05
$GPGSV,4,1,15,08,72,291,42,199,66,164,,194,63,045,41,195,56,124,41,1*57
$GPGSV,4,2,15,27,54,025,43,45,47,231,34,16,36,051,38,21,36,171,44,1*6B
$GPGSV,4,3,15,04,35,220,36,09,31,271,24,02,24,182,36,07,22,320,16,1*62
$GPGSV,4,4,15,196,21,174,23,26,19,080,23,31,18,135,19,1*6F
$GPGSV,2,1,08,08,72,291,44,194,63,045,41,195,56,124,42,27,54,025,36,8*65
$GPGSV,2,2,08,04,35,220,38,09,31,271,20,196,21,174,19,26,19,080,26,8*56
$GLGSV,2,1,05,88,72,091,42,78,43,000,23,77,33,081,25,87,25,031,23,1*79
$GLGSV,2,2,05,79,09,316,13,1*4C
$GAGSV,2,1,07,21,50,344,,13,48,113,40,19,38,261,25,27,35,059,29,7*7E
$GAGSV,2,2,07,15,24,052,26,26,24,176,26,04,08,315,,7*48
$GAGSV,2,1,06,21,50,344,19,13,48,113,42,19,38,261,21,27,35,059,36,1*79
$GAGSV,2,2,06,26,24,176,23,15,24,052,22,1*75
$GBGSV,4,1,13,06,84,232,39,16,81,187,36,43,76,074,44,09,74,307,40,1*78
$GBGSV,4,2,13,39,70,173,42,40,67,312,41,07,63,291,37,23,58,352,43,1*7F
$GBGSV,4,3,13,10,52,274,26,11,52,049,39,25,49,091,32,28,35,206,17,1*7D
$GBGSV,4,4,13,34,29,042,31,1*4C
$GBGSV,2,1,07,43,76,074,41,39,70,173,42,40,67,312,41,23,58,352,40,4*75
$GBGSV,2,2,07,25,49,091,34,28,35,206,27,34,29,042,28,4*4C
$GNACCURACY,4.7*15
$PAIRSAT,1,25,2,0,200,3,0,200,4,0,221,7,0,1,8,0,21,9,0,21,14,0,200,15,0,200,16,0,201,17,0,200,18,0,200,19,0,200,20,0,200,21,0,201,22,0,200,23,0,200,24,0,200,25,0,200,26,0,221,27,0,221,31,0,1,194,0,421,195,0,221,196,0,200,199,0,600*5B
$PAIRSAT,2,15,70,0,200,71,0,200,74,0,200,75,0,200,76,0,200,77,0,201,78,0,201,79,0,201,82,0,200,83,0,200,84,0,200,85,0,200,86,0,200,87,0,201,88,0,201*54
$PAIRSAT,3,19,2,0,1200,3,0,1200,4,0,1200,5,0,200,7,0,1000,8,0,1000,9,0,1000,13,0,21,15,0,21,19,0,21,21,0,221,25,0,1200,26,0,1200,27,0,1221,30,0,1200,31,0,1200,33,0,1200,34,0,1200,36,0,1200*54
$PAIRSAT,4,46,1,0,200,2,0,200,3,0,400,4,0,200,5,0,200,6,0,201,7,0,201,8,0,200,9,0,201,10,0,201,11,0,201,12,0,200,13,0,200,14,0,200,16,0,1,19,0,400,20,0,400,21,0,400,22,0,400,23,0,421,24,0,600,25,0,621,26,0,600,27,0,400,28,0,621,29,0,600,30,0,600,32,0,600,33,0,600,34,0,621,35,0,400,36,0,400,37,0,400,38,0,400,39,0,421,40,0,421,41,0,400,42,0,400,43,0,421,44,0,400,45,0,400,46,0,400,59,0,400,60,0,400,61,0,400,62,0,400*4A
$PAIRDGP,7,4,7,8,9,16,21,27*6D
$GNGGA,031921.100,2500.7829025,N,12132.4668460,E,4,48,0.59,16.609,M,15.25,M,1,3335*4B
$GNRMC,031921.100,A,2500.7829025,N,12132.4668460,E,0.01,61.32,090324,,,R,V*22
$GPHDT,,T*1B
$GNACCURACY,4.7*15
$GNGGA,031921.200,2500.7829009,N,12132.4668475,E,4,48,0.59,16.622,M,15.25,M,1,3335*4B
$GNRMC,031921.200,A,2500.7829009,N,12132.4668475,E,0.01,61.32,090324,,,R,V*2B
$GPHDT,47.659,T*0C
$GNACCURACY,4.7*15
$GNGGA,031921.300,2500.7829028,N,12132.4668420,E,4,48,0.59,16.606,M,15.25,M,1,3335*4F
$GNRMC,031921.300,A,2500.7829028,N,12132.4668420,E,0.01,61.32,090324,,,R,V*29
$GPHDT,,T*1B
$GNACCURACY,4.7*15
$GNGGA,031921.400,2500.7829026,N,12132.4668471,E,4,47,0.62,16.621,M,15.25,M,1,3335*40
$GNRMC,031921.400,A,2500.7829026,N,12132.4668471,E,0.01,61.32,090324,,,R,V*24
$GPHDT,47.468,T*0C
$GNACCURACY,4.7*15
$GNGGA,031921.500,2500.7829016,N,12132.4668473,E,4,47,0.62,16.615,M,15.25,M,1,3335*47
$GNRMC,031921.500,A,2500.7829016,N,12132.4668473,E,0.01,61.32,090324,,,R,V*24
$GPHDT,,T*1B
$GNACCURACY,4.7*15
$GNGGA,031921.600,2500.7829048,N,12132.4668484,E,4,48,0.62,16.626,M,15.25,M,1,3335*48
$GNRMC,031921.600,A,2500.7829048,N,12132.4668484,E,0.01,61.32,090324,,,R,V*24
$GPHDT,47.851,T*0A
$GNACCURACY,4.7*15
$GNGGA,031921.700,2500.7829013,N,12132.4668464,E,4,48,0.62,16.603,M,15.25,M,0,3335*4F
$GNRMC,031921.700,A,2500.7829013,N,12132.4668464,E,0.01,61.32,090324,,,R,V*25
$GPHDT,,T*1B
$GNACCURACY,4.7*15
$GNGGA,031921.800,2500.7829031,N,12132.4668528,E,4,49,0.59,16.648,M,15.25,M,0,3335*4F
$GNRMC,031921.800,A,2500.7829031,N,12132.4668528,E,0.01,61.32,090324,,,R,V*23
$GPHDT,47.367,T*04
$GNACCURACY,4.7*15
$GNGGA,031921.900,2500.7829037,N,12132.4668476,E,4,49,0.59,16.628,M,15.25,M,0,3335*44
$GNRMC,031921.900,A,2500.7829037,N,12132.4668476,E,0.01,61.32,090324,,,R,V*2E
$GPHDT,,T*1B
$GNACCURACY,4.7*15
$GNGGA,031922.000,2500.7829025,N,12132.4668456,E,4,49,0.59,16.610,M,15.25,M,1,3335*45
$GNRMC,031922.000,A,2500.7829025,N,12132.4668456,E,0.02,61.32,090324,,,R,V*26
$GPHDT,46.907,T*09
$GNGSA,A,3,08,194,195,27,16,21,04,09,31,26,,,1.10,0.59,0.93,1*04
$GNGSA,A,3,88,78,77,87,,,,,,,,,1.10,0.59,0.93,2*04
$GNGSA,A,3,21,13,19,27,15,,,,,,,,1.10,0.59,0.93,3*0D
$GNGSA,A,3,06,16,43,09,39,40,07,23,10,11,25,28,1.10,0.59,0.93,4*09
$GNGSA,A,3,34,,,,,,,,,,,,1.10,0.59,0.93,4*05
$GPGSV,4,1,15,08,72,291,43,199,66,164,,194,63,045,41,195,56,124,41,1*56
$GPGSV,4,2,15,27,54,025,43,45,47,231,35,16,36,051,38,21,36,171,44,1*6A
$GPGSV,4,3,15,04,35,220,36,09,31,271,24,02,24,182,35,07,22,320,16,1*61
$GPGSV,4,4,15,196,21,174,23,26,19,080,24,31,18,135,21,1*63
$GPGSV,2,1,08,08,72,291,44,194,63,045,41,195,56,124,42,27,54,025,35,8*66
$GPGSV,2,2,08,04,35,220,38,09,31,271,20,196,21,174,20,26,19,080,22,8*58
$GLGSV,2,1,05,88,72,091,42,78,43,000,22,77,33,081,26,87,25,031,21,1*79
$GLGSV,2,2,05,79,09,316,09,1*47
$GAGSV,2,1,07,21,50,344,20,13,48,113,40,19,38,261,27,27,35,059,29,7*7E
$GAGSV,2,2,07,15,24,052,26,26,24,176,26,04,08,315,,7*48
$GAGSV,2,1,06,21,50,344,19,13,48,113,42,19,38,261,19,27,35,059,35,1*71
$GAGSV,2,2,06,26,24,176,23,15,24,052,22,1*75
$GBGSV,4,1,13,06,84,232,38,16,81,187,37,43,76,074,44,09,74,307,41,1*79
$GBGSV,4,2,13,39,70,173,42,40,67,312,43,07,63,291,38,23,58,352,43,1*72
$GBGSV,4,3,13,10,52,274,30,11,52,049,39,25,49,091,30,28,35,206,20,1*7C
$GBGSV,4,4,13,34,29,042,33,1*4E
$GBGSV,2,1,07,43,76,074,41,39,70,173,41,40,67,312,42,23,58,352,41,4*74
$GBGSV,2,2,07,25,49,091,34,28,35,206,28,34,29,042,30,4*4A
$GNACCURACY,4.7*15
$PAIRSAT,1,25,2,0,200,3,0,200,4,0,221,7,0,1,8,0,21,9,0,21,14,0,200,15,0,200,16,0,201,17,0,200,18,0,200,19,0,200,20,0,200,21,0,201,22,0,200,23,0,200,24,0,200,25,0,200,26,0,221,27,0,221,31,0,1,194,0,421,195,0,221,196,0,200,199,0,600*5B
$PAIRSAT,2,15,70,0,200,71,0,200,74,0,200,75,0,200,76,0,200,77,0,201,78,0,201,79,0,201,82,0,200,83,0,200,84,0,200,85,0,200,86,0,200,87,0,201,88,0,201*54
$PAIRSAT,3,19,2,0,1200,3,0,1200,4,0,1200,5,0,200,7,0,1000,8,0,1000,9,0,1000,13,0,21,15,0,21,19,0,21,21,0,221,25,0,1200,26,0,1200,27,0,1221,30,0,1200,31,0,1200,33,0,1200,34,0,1200,36,0,1200*54
$PAIRSAT,4,46,1,0,200,2,0,200,3,0,400,4,0,200,5,0,200,6,0,201,7,0,201,8,0,200,9,0,201,10,0,201,11,0,201,12,0,200,13,0,200,14,0,200,16,0,1,19,0,400,20,0,400,21,0,400,22,0,400,23,0,421,24,0,600,25,0,621,26,0,600,27,0,400,28,0,621,29,0,600,30,0,600,32,0,600,33,0,600,34,0,621,35,0,400,36,0,400,37,0,400,38,0,400,39,0,421,40,0,421,41,0,400,42,0,400,43,0,421,44,0,400,45,0,400,46,0,400,59,0,400,60,0,400,61,0,400,62,0,400*4A
$PAIRDGP,7,4,7,8,9,16,21,27*6D
$GNGGA,031922.100,2500.7829001,N,12132.4668487,E,4,49,0.59,16.619,M,15.25,M,1,3335*47
$GNRMC,031922.100,A,2500.7829001,N,12132.4668487,E,0.02,61.32,090324,,,R,V*2D
$GPHDT,,T*1B
$GNACCURACY,4.7*15
$GNGGA,031922.200,2500.7829028,N,12132.4668444,E,4,49,0.59,16.612,M,15.25,M,1,3335*4B
$GNRMC,031922.200,A,2500.7829028,N,12132.4668444,E,0.01,61.32,090324,,,R,V*29
$GPHDT,47.592,T*08
$GNACCURACY,4.7*15
$GNGGA,031922.300,2500.7829007,N,12132.4668487,E,4,49,0.59,16.616,M,15.25,M,1,3335*4C
$GNRMC,031922.300,A,2500.7829007,N,12132.4668487,E,0.01,61.32,090324,,,R,V*2A
$GPHDT,,T*1B
$GNACCURACY,4.7*15
$GNGGA,031922.400,2500.7829014,N,12132.4668484,E,4,48,0.62,16.602,M,15.25,M,1,3335*46
$GNRMC,031922.400,A,2500.7829014,N,12132.4668484,E,0.01,61.32,090324,,,R,V*2C
$GPHDT,47.395,T*09
$GNACCURACY,4.8*1A
$GNGGA,031922.500,2500.7829012,N,12132.4668474,E,4,48,0.62,16.631,M,15.25,M,0,3335*4F
$GNRMC,031922.500,A,2500.7829012,N,12132.4668474,E,0.01,61.32,090324,,,R,V*24
$GPHDT,,T*1B
$GNACCURACY,4.7*15
$GNGGA,031922.600,2500.7829039,N,12132.4668446,E,4,48,0.62,16.610,M,15.25,M,0,3335*47
$GNRMC,031922.600,A,2500.7829039,N,12132.4668446,E,0.01,61.32,090324,,,R,V*2F
$GPHDT,47.072,T*03
$GNACCURACY,4.7*15
$GNGGA,031922.700,2500.7829031,N,12132.4668458,E,4,48,0.62,16.624,M,15.25,M,0,3335*46
$GNRMC,031922.700,A,2500.7829031,N,12132.4668458,E,0.01,61.32,090324,,,R,V*29
$GPHDT,,T*1B
$GNACCURACY,4.7*15
$GNGGA,031922.800,2500.7828987,N,12132.4668476,E,4,48,0.62,16.621,M,15.25,M,0,3335*45
$GNRMC,031922.800,A,2500.7828987,N,12132.4668476,E,0.02,61.32,090324,,,R,V*2C
$GPHDT,46.875,T*0D
$GNACCURACY,4.7*15
$GNGGA,031922.900,2500.7828979,N,12132.4668501,E,4,48,0.62,16.616,M,15.25,M,0,3335*40
$GNRMC,031922.900,A,2500.7828979,N,12132.4668501,E,0.02,61.32,090324,,,R,V*2D
$GPHDT,,T*1B
$GNACCURACY,4.7*15
$GNGGA,031923.000,2500.7828996,N,12132.4668482,E,4,48,0.62,16.615,M,15.25,M,1,3335*41
$GNRMC,031923.000,A,2500.7828996,N,12132.4668482,E,0.02,61.32,090324,,,R,V*2E
$GPHDT,46.740,T*04
$GNGSA,A,3,08,194,195,27,16,21,04,09,31,26,,,1.10,0.59,0.93,1*04
$GNGSA,A,3,88,78,77,87,,,,,,,,,1.10,0.59,0.93,2*04
$GNGSA,A,3,21,13,19,27,15,,,,,,,,1.10,0.59,0.93,3*0D
$GNGSA,A,3,06,16,43,09,39,40,07,23,10,11,25,28,1.10,0.59,0.93,4*09
$GNGSA,A,3,34,,,,,,,,,,,,1.10,0.59,0.93,4*05
$GPGSV,4,1,15,08,72,291,43,199,66,164,,194,63,045,41,195,56,124,41,1*56
$GPGSV,4,2,15,27,54,025,43,45,47,231,35,16,36,051,38,21,36,171,44,1*6A
$GPGSV,4,3,15,04,35,220,36,09,31,271,24,02,24,182,36,07,22,320,16,1*62
$GPGSV,4,4,15,196,21,174,24,26,19,080,23,31,18,135,19,1*68
$GPGSV,2,1,08,08,72,291,44,194,63,045,41,195,56,124,43,27,54,025,36,8*64
$GPGSV,2,2,08,04,35,220,38,09,31,271,20,196,21,174,22,26,19,080,25,8*5D
$GLGSV,2,1,05,88,72,091,42,78,43,000,22,77,33,081,25,87,25,031,23,1*78
$GLGSV,2,2,05,79,09,316,,1*4E
$GAGSV,2,1,07,21,50,344,23,13,48,113,40,19,38,261,27,27,35,059,29,7*7D
$GAGSV,2,2,07,15,24,052,26,26,24,176,26,04,08,315,,7*48
$GAGSV,2,1,06,21,50,344,21,13,48,113,42,19,38,261,22,27,35,059,35,1*72
$GAGSV,2,2,06,26,24,176,23,15,24,052,22,1*75
$GBGSV,4,1,13,06,84,232,38,16,81,187,37,43,76,074,44,09,74,307,41,1*79
$GBGSV,4,2,13,39,70,173,42,40,67,312,43,07,63,291,38,23,58,352,43,1*72
$GBGSV,4,3,13,10,52,274,31,11,52,049,39,25,49,091,31,28,35,206,23,1*7F
$GBGSV,4,4,13,34,29,042,33,1*4E
$GBGSV,2,1,07,43,76,074,41,39,70,173,41,40,67,312,43,23,58,352,41,4*75
$GBGSV,2,2,07,25,49,091,34,28,35,206,29,34,29,042,30,4*4B
$GNACCURACY,4.7*15
$PAIRSAT,1,25,2,0,200,3,0,200,4,0,221,7,0,1,8,0,21,9,0,21,14,0,200,15,0,200,16,0,201,17,0,200,18,0,200,19,0,200,20,0,200,21,0,201,22,0,200,23,0,200,24,0,200,25,0,200,26,0,221,27,0,221,31,0,1,194,0,421,195,0,221,196,0,200,199,0,600*5B
$PAIRSAT,2,15,70,0,200,71,0,200,74,0,200,75,0,200,76,0,200,77,0,201,78,0,201,79,0,201,82,0,200,83,0,200,84,0,200,85,0,200,86,0,200,87,0,201,88,0,201*54
$PAIRSAT,3,19,2,0,1200,3,0,1200,4,0,1200,5,0,200,7,0,1000,8,0,1000,9,0,1000,13,0,21,15,0,21,19,0,21,21,0,221,25,0,1200,26,0,1200,27,0,1221,30,0,1200,31,0,1200,33,0,1200,34,0,1200,36,0,1200*54
$PAIRSAT,4,46,1,0,200,2,0,200,3,0,400,4,0,200,5,0,200,6,0,201,7,0,201,8,0,200,9,0,201,10,0,201,11,0,201,12,0,200,13,0,200,14,0,200,16,0,1,19,0,400,20,0,400,21,0,400,22,0,400,23,0,421,24,0,600,25,0,621,26,0,600,27,0,400,28,0,621,29,0,600,30,0,600,32,0,600,33,0,600,34,0,621,35,0,400,36,0,400,37,0,400,38,0,400,39,0,421,40,0,421,41,0,400,42,0,400,43,0,421,44,0,400,45,0,400,46,0,400,59,0,400,60,0,400,61,0,400,62,0,400*4A
$PAIRDGP,7,4,7,8,9,16,21,27*6D
$GNGGA,031923.100,2500.7829001,N,12132.4668517,E,4,49,0.59,16.633,M,15.25,M,1,3335*46
$GNRMC,031923.100,A,2500.7829001,N,12132.4668517,E,0.02,61.32,090324,,,R,V*24
$GPHDT,,T*1B
$GNACCURACY,4.7*15
$GNGGA,031923.200,2500.7829016,N,12132.4668493,E,4,49,0.59,16.640,M,15.25,M,1,3335*4A
$GNRMC,031923.200,A,2500.7829016,N,12132.4668493,E,0.02,61.32,090324,,,R,V*2C
$GPHDT,46.855,T*0F
$GNACCURACY,4.7*15
$GNGGA,031923.300,2500.7829007,N,12132.4668508,E,4,48,0.59,16.631,M,15.25,M,1,3335*4F
$GNRMC,031923.300,A,2500.7829007,N,12132.4668508,E,0.02,61.32,090324,,,R,V*2E
$GPHDT,,T*1B
$GNACCURACY,4.7*15
$GNGGA,031923.400,2500.7829014,N,12132.4668490,E,4,49,0.59,16.635,M,15.25,M,1,3335*4F
$GNRMC,031923.400,A,2500.7829014,N,12132.4668490,E,0.02,61.32,090324,,,R,V*2B
$GPHDT,46.732,T*01
$GNACCURACY,4.7*15
$GNGGA,031923.500,2500.7829009,N,12132.4668486,E,4,48,0.59,16.621,M,15.25,M,0,3335*40
$GNRMC,031923.500,A,2500.7829009,N,12132.4668486,E,0.02,61.32,090324,,,R,V*21
$GPHDT,,T*1B
$GNACCURACY,4.7*15
$GNGGA,031923.600,2500.7829018,N,12132.4668481,E,4,50,0.59,16.615,M,15.25,M,0,3335*4A
$GNRMC,031923.600,A,2500.7829018,N,12132.4668481,E,0.02,61.32,090324,,,R,V*25
$GPHDT,47.238,T*0F
$GNACCURACY,4.7*15
$GNGGA,031923.700,2500.7829013,N,12132.4668482,E,4,49,0.59,16.628,M,15.25,M,0,3335*45
$GNRMC,031923.700,A,2500.7829013,N,12132.4668482,E,0.02,61.32,090324,,,R,V*2C
$GPHDT,,T*1B
$GNACCURACY,4.7*15
$GNGGA,031923.800,2500.7829012,N,12132.4668478,E,4,49,0.59,16.610,M,15.25,M,0,3335*45
$GNRMC,031923.800,A,2500.7829012,N,12132.4668478,E,0.02,61.32,090324,,,R,V*27
$GPHDT,47.142,T*01
$GNACCURACY,4.7*15
$GNGGA,031923.900,2500.7829013,N,12132.4668468,E,4,50,0.59,16.617,M,15.25,M,0,3335*4B
$GNRMC,031923.900,A,2500.7829013,N,12132.4668468,E,0.02,61.32,090324,,,R,V*26
$GPHDT,,T*1B
$GNACCURACY,4.7*15
$GNGGA,031924.000,2500.7829021,N,12132.4668460,E,4,50,0.59,16.610,M,15.25,M,1,3335*4A
$GNRMC,031924.000,A,2500.7829021,N,12132.4668460,E,0.02,61.32,090324,,,R,V*21
$GPHDT,46.927,T*0B
$GNGSA,A,3,08,194,195,27,16,21,04,09,26,,,,1.16,0.62,0.98,1*03
$GNGSA,A,3,88,78,77,87,,,,,,,,,1.16,0.62,0.98,2*01
$GNGSA,A,3,21,13,19,27,15,,,,,,,,1.16,0.62,0.98,3*08
$GNGSA,A,3,06,16,43,09,39,40,07,23,10,11,25,28,1.16,0.62,0.98,4*0C
$GNGSA,A,3,34,,,,,,,,,,,,1.16,0.62,0.98,4*00
$GPGSV,4,1,15,08,72,291,43,199,66,164,,194,63,045,41,195,56,124,41,1*56
$GPGSV,4,2,15,27,54,025,43,45,47,231,36,16,36,051,38,21,36,171,44,1*69
$GPGSV,4,3,15,04,35,220,36,09,31,271,24,02,24,182,36,07,22,320,14,1*60
$GPGSV,4,4,15,196,21,174,25,26,19,080,26,31,18,135,20,1*66
$GPGSV,2,1,08,08,72,291,44,194,63,045,41,195,56,124,43,27,54,025,35,8*67
$GPGSV,2,2,08,04,35,220,39,09,31,271,22,196,21,174,23,26,19,080,27,8*5D
$GLGSV,2,1,05,88,72,091,42,78,43,000,23,77,33,081,25,87,25,031,23,1*79
$GLGSV,2,2,05,79,09,316,,1*4E
$GAGSV,2,1,07,21,50,344,23,13,48,113,40,19,38,261,27,27,35,059,31,7*74
$GAGSV,2,2,07,15,24,052,26,26,24,176,27,04,08,315,,7*49
$GAGSV,2,1,06,21,50,344,21,13,48,113,42,19,38,261,20,27,35,059,34,1*71
$GAGSV,2,2,06,26,24,176,22,15,24,052,21,1*77
$GBGSV,4,1,13,06,84,232,38,16,81,187,37,43,76,074,44,09,74,307,41,1*79
$GBGSV,4,2,13,39,70,173,42,40,67,312,43,07,63,291,38,23,58,352,43,1*72
$GBGSV,4,3,13,10,52,274,30,11,52,049,39,25,49,091,32,28,35,206,23,1*7D
$GBGSV,4,4,13,34,29,042,33,1*4E
$GBGSV,2,1,07,43,76,074,41,39,70,173,41,40,67,312,43,23,58,352,41,4*75
$GBGSV,2,2,07,25,49,091,34,28,35,206,28,34,29,042,28,4*43
$GNACCURACY,4.7*15
$PAIRSAT,1,25,2,0,200,3,0,200,4,0,221,7,0,1,8,0,21,9,0,21,14,0,200,15,0,200,16,0,201,17,0,200,18,0,200,19,0,200,20,0,200,21,0,201,22,0,200,23,0,200,24,0,200,25,0,200,26,0,221,27,0,221,31,0,1,194,0,421,195,0,221,196,0,200,199,0,600*5B
$PAIRSAT,2,15,70,0,200,71,0,200,74,0,200,75,0,200,76,0,200,77,0,201,78,0,201,79,0,201,82,0,200,83,0,200,84,0,200,85,0,200,86,0,200,87,0,201,88,0,201*54
$PAIRSAT,3,19,2,0,1200,3,0,1200,4,0,1200,5,0,200,7,0,1000,8,0,1000,9,0,1000,13,0,21,15,0,21,19,0,21,21,0,221,25,0,1200,26,0,1200,27,0,1221,30,0,1200,31,0,1200,33,0,1200,34,0,1200,36,0,1200*54
$PAIRSAT,4,46,1,0,200,2,0,200,3,0,400,4,0,200,5,0,200,6,0,201,7,0,201,8,0,200,9,0,201,10,0,201,11,0,201,12,0,200,13,0,200,14,0,200,16,0,1,19,0,400,20,0,400,21,0,400,22,0,400,23,0,421,24,0,600,25,0,621,26,0,600,27,0,400,28,0,621,29,0,600,30,0,600,32,0,600,33,0,600,34,0,621,35,0,400,36,0,400,37,0,400,38,0,400,39,0,421,40,0,421,41,0,400,42,0,400,43,0,421,44,0,400,45,0,400,46,0,400,59,0,400,60,0,400,61,0,400,62,0,400*4A
$PAIRDGP,7,4,7,8,9,16,21,27*6D
$GNGGA,031924.100,2500.7829025,N,12132.4668491,E,4,49,0.62,16.613,M,15.25,M,1,3335*42
$GNRMC,031924.100,A,2500.7829025,N,12132.4668491,E,0.02,61.32,090324,,,R,V*2A
$GPHDT,,T*1B
$GNACCURACY,4.7*15
$GNGGA,031924.200,2500.7829014,N,12132.4668476,E,4,49,0.62,16.614,M,15.25,M,1,3335*4D
$GNRMC,031924.200,A,2500.7829014,N,12132.4668476,E,0.02,61.32,090324,,,R,V*22
$GPHDT,47.003,T*05
$GNACCURACY,4.7*15
$GNGGA,031924.300,2500.7829012,N,12132.4668485,E,4,49,0.62,16.615,M,15.25,M,1,3335*47
$GNRMC,031924.300,A,2500.7829012,N,12132.4668485,E,0.02,61.32,090324,,,R,V*29
$GPHDT,,T*1B
$GNACCURACY,4.7*15
$GNGGA,031924.400,2500.7829007,N,12132.4668489,E,4,49,0.62,16.610,M,15.25,M,1,3335*4D
$GNRMC,031924.400,A,2500.7829007,N,12132.4668489,E,0.02,61.32,090324,,,R,V*26
$GPHDT,46.865,T*0C
$GNACCURACY,4.7*15
$GNGGA,031924.500,2500.7829000,N,12132.4668493,E,4,49,0.62,16.610,M,15.25,M,1,3335*40
$GNRMC,031924.500,A,2500.7829000,N,12132.4668493,E,0.02,61.32,090324,,,R,V*2B
$GPHDT,,T*1B
$GNACCURACY,4.7*15
$GNGGA,031924.600,2500.7829006,N,12132.4668510,E,4,49,0.62,16.611,M,15.25,M,1,3335*4E
$GNRMC,031924.600,A,2500.7829006,N,12132.4668510,E,0.02,61.32,090324,,,R,V*24
$GPHDT,46.932,T*0F
$GNACCURACY,4.8*1A
$GNGGA,031924.700,2500.7829016,N,12132.4668497,E,4,50,0.59,16.604,M,15.25,M,0,3335*45
$GNRMC,031924.700,A,2500.7829016,N,12132.4668497,E,0.03,61.32,090324,,,R,V*2B
$GPHDT,,T*1B
$GNACCURACY,4.8*1A
$GNGGA,031924.800,2500.7829025,N,12132.4668504,E,4,50,0.59,16.620,M,15.25,M,0,3335*47
$GNRMC,031924.800,A,2500.7829025,N,12132.4668504,E,0.03,61.32,090324,,,R,V*2F
$GPHDT,46.603,T*02
$GNACCURACY,4.8*1A
$GNGGA,031924.900,2500.7829038,N,12132.4668472,E,4,50,0.59,16.592,M,15.25,M,0,3335*40
$GNRMC,031924.900,A,2500.7829038,N,12132.4668472,E,0.02,61.32,090324,,,R,V*23
$GPHDT,,T*1B
$GNACCURACY,4.8*1A
$GNGGA,031925.000,2500.7829003,N,12132.4668494,E,4,50,0.59,16.612,M,15.25,M,1,3335*42
$GNRMC,031925.000,A,2500.7829003,N,12132.4668494,E,0.02,61.32,090324,,,R,V*2B
$GPHDT,46.707,T*07
$GNGSA,A,3,08,194,195,27,16,21,04,09,26,31,,,1.10,0.59,0.93,1*04
$GNGSA,A,3,88,78,77,87,,,,,,,,,1.10,0.59,0.93,2*04
$GNGSA,A,3,21,13,19,27,15,,,,,,,,1.10,0.59,0.93,3*0D
$GNGSA,A,3,06,16,43,09,39,40,07,23,10,11,25,28,1.10,0.59,0.93,4*09
$GNGSA,A,3,34,,,,,,,,,,,,1.10,0.59,0.93,4*05
$GPGSV,4,1,15,08,72,291,43,199,66,164,,194,63,045,41,195,56,124,40,1*57
$GPGSV,4,2,15,27,54,025,43,45,47,231,36,16,36,051,38,21,36,171,44,1*69
$GPGSV,4,3,15,04,35,220,37,09,31,271,23,02,24,182,36,07,22,320,15,1*67
$GPGSV,4,4,15,196,21,174,23,26,19,080,26,31,18,135,19,1*6A
$GPGSV,2,1,08,08,72,291,44,194,63,045,41,195,56,124,43,27,54,025,35,8*67
$GPGSV,2,2,08,04,35,220,38,09,31,271,22,196,21,174,24,26,19,080,25,8*59
$GLGSV,2,1,05,88,72,091,42,78,43,000,23,77,33,081,24,87,25,031,23,1*78
$GLGSV,2,2,05,79,09,316,,1*4E
$GAGSV,2,1,07,21,50,344,21,13,48,113,40,19,38,261,28,27,35,059,31,7*79
$GAGSV,2,2,07,15,24,052,26,26,24,176,27,04,08,315,,7*49
$GAGSV,2,1,06,21,50,344,20,13,48,113,42,19,38,261,20,27,35,059,34,1*70
$GAGSV,2,2,06,26,24,176,24,15,24,052,21,1*71
$GBGSV,4,1,13,06,84,232,38,16,81,187,37,43,76,074,44,09,74,307,41,1*79
$GBGSV,4,2,13,39,70,173,43,40,67,312,43,07,63,291,38,23,58,352,43,1*73
$GBGSV,4,3,13,10,52,274,29,11,52,049,40,25,49,091,34,28,35,206,25,1*7B
$GBGSV,4,4,13,34,29,042,33,1*4E
$GBGSV,2,1,07,43,76,074,41,39,70,173,41,40,67,312,43,23,58,352,41,4*75
$GBGSV,2,2,07,25,49,091,33,28,35,206,27,34,29,042,28,4*4B
$GNACCURACY,4.8*1A
$PAIRSAT,1,25,2,0,200,3,0,200,4,0,221,7,0,1,8,0,21,9,0,21,14,0,200,15,0,200,16,0,201,17,0,200,18,0,200,19,0,200,20,0,200,21,0,201,22,0,200,23,0,200,24,0,200,25,0,200,26,0,221,27,0,221,31,0,1,194,0,421,195,0,221,196,0,200,199,0,600*5B
$PAIRSAT,2,15,70,0,200,71,0,200,74,0,200,75,0,200,76,0,200,77,0,201,78,0,201,79,0,201,82,0,200,83,0,200,84,0,200,85,0,200,86,0,200,87,0,201,88,0,201*54
$PAIRSAT,3,19,2,0,1200,3,0,1200,4,0,1200,5,0,200,7,0,1000,8,0,1000,9,0,1000,13,0,21,15,0,21,19,0,21,21,0,221,25,0,1200,26,0,1200,27,0,1221,30,0,1200,31,0,1200,33,0,1200,34,0,1200,36,0,1200*54
$PAIRSAT,4,46,1,0,200,2,0,200,3,0,400,4,0,200,5,0,200,6,0,201,7,0,201,8,0,200,9,0,201,10,0,201,11,0,201,12,0,200,13,0,200,14,0,200,16,0,1,19,0,400,20,0,400,21,0,400,22,0,400,23,0,421,24,0,600,25,0,621,26,0,600,27,0,400,28,0,621,29,0,600,30,0,600,32,0,600,33,0,600,34,0,621,35,0,400,36,0,400,37,0,400,38,0,400,39,0,421,40,0,421,41,0,400,42,0,400,43,0,421,44,0,400,45,0,400,46,0,400,59,0,400,60,0,400,61,0,400,62,0,400*4A
$PAIRDGP,7,4,7,8,9,16,21,27*6D
$GNGGA,031925.100,2500.7829023,N,12132.4668500,E,4,50,0.59,16.604,M,15.25,M,1,3335*4A
$GNRMC,031925.100,A,2500.7829023,N,12132.4668500,E,0.02,61.32,090324,,,R,V*24
$GPHDT,,T*1B
$GNACCURACY,4.8*1A
$GNGGA,031925.200,2500.7829019,N,12132.4668453,E,4,50,0.59,16.590,M,15.25,M,1,3335*49
$GNRMC,031925.200,A,2500.7829019,N,12132.4668453,E,0.02,61.32,090324,,,R,V*29
$GPHDT,46.863,T*0A
$GNACCURACY,4.8*1A
$GNGGA,031925.300,2500.7829013,N,12132.4668507,E,4,50,0.59,16.605,M,15.25,M,1,3335*4D
$GNRMC,031925.300,A,2500.7829013,N,12132.4668507,E,0.02,61.32,090324,,,R,V*22
$GPHDT,,T*1B
$GNACCURACY,4.8*1A
$GNGGA,031925.400,2500.7829025,N,12132.4668474,E,4,49,0.62,16.599,M,15.25,M,1,3335*4C
$GNRMC,031925.400,A,2500.7829025,N,12132.4668474,E,0.02,61.32,090324,,,R,V*25
$GPHDT,47.180,T*0F
$GNACCURACY,4.8*1A
$GNGGA,031925.500,2500.7829026,N,12132.4668480,E,4,49,0.62,16.592,M,15.25,M,1,3335*4E
$GNRMC,031925.500,A,2500.7829026,N,12132.4668480,E,0.02,61.32,090324,,,R,V*2C
$GPHDT,,T*1B
$GNACCURACY,4.8*1A
$GNGGA,031925.600,2500.7829021,N,12132.4668459,E,4,49,0.62,16.602,M,15.25,M,1,3335*44
$GNRMC,031925.600,A,2500.7829021,N,12132.4668459,E,0.02,61.32,090324,,,R,V*2C
$GPHDT,47.026,T*02
$GNACCURACY,4.8*1A
$GNGGA,031925.700,2500.7829039,N,12132.4668483,E,4,48,0.62,16.618,M,15.25,M,1,3335*41
$GNRMC,031925.700,A,2500.7829039,N,12132.4668483,E,0.02,61.32,090324,,,R,V*23
$GPHDT,,T*1B
$GNACCURACY,4.8*1A
$GNGGA,031925.800,2500.7829017,N,12132.4668465,E,4,49,0.62,16.613,M,15.25,M,0,3335*41
$GNRMC,031925.800,A,2500.7829017,N,12132.4668465,E,0.02,61.32,090324,,,R,V*28
$GPHDT,46.862,T*0B
$GNACCURACY,4.8*1A
$GNGGA,031925.900,2500.7829021,N,12132.4668466,E,4,49,0.62,16.611,M,15.25,M,0,3335*44
$GNRMC,031925.900,A,2500.7829021,N,12132.4668466,E,0.02,61.32,090324,,,R,V*2F
$GPHDT,,T*1B
$GNACCURACY,4.8*1A
$GNGGA,031926.000,2500.7829019,N,12132.4668460,E,4,49,0.62,16.603,M,15.25,M,1,3335*41
$GNRMC,031926.000,A,2500.7829019,N,12132.4668460,E,0.02,61.32,090324,,,R,V*28
$GPHDT,47.013,T*04
$GNGSA,A,3,08,194,195,27,16,21,04,09,31,26,,,1.10,0.59,0.93,1*04
$GNGSA,A,3,88,78,77,87,,,,,,,,,1.10,0.59,0.93,2*04
$GNGSA,A,3,21,13,19,27,15,,,,,,,,1.10,0.59,0.93,3*0D
$GNGSA,A,3,06,16,43,09,39,40,07,23,10,11,25,28,1.10,0.59,0.93,4*09
$GNGSA,A,3,34,,,,,,,,,,,,1.10,0.59,0.93,4*05
$GPGSV,4,1,15,08,72,291,43,199,66,164,,194,63,045,41,195,56,124,40,1*57
$GPGSV,4,2,15,27,54,025,43,45,47,231,36,16,36,051,38,21,36,171,44,1*69
$GPGSV,4,3,15,04,35,220,37,09,31,271,24,02,24,182,36,07,22,320,15,1*60
$GPGSV,4,4,15,196,21,174,24,26,19,080,25,31,18,135,20,1*64
$GPGSV,2,1,08,08,72,291,44,194,63,045,41,195,56,124,43,27,54,025,35,8*67
$GPGSV,2,2,08,04,35,220,38,09,31,271,23,196,21,174,24,26,19,080,25,8*58
$GLGSV,2,1,05,88,72,091,42,78,43,000,21,77,33,081,23,87,25,031,24,1*7A
$GLGSV,2,2,05,79,09,316,,1*4E
$GAGSV,2,1,07,21,50,344,23,13,48,113,40,19,38,261,28,27,35,059,31,7*7B
$GAGSV,2,2,07,15,24,052,26,26,24,176,27,04,08,315,,7*49
$GAGSV,2,1,06,21,50,344,21,13,48,113,42,19,38,261,22,27,35,059,35,1*72
$GAGSV,2,2,06,26,24,176,24,15,24,052,22,1*72
$GBGSV,4,1,13,06,84,232,38,16,81,187,37,43,76,074,44,09,74,307,41,1*79
$GBGSV,4,2,13,39,70,173,43,40,67,312,43,07,63,291,38,23,58,352,43,1*73
$GBGSV,4,3,13,10,52,274,28,11,52,049,40,25,49,091,34,28,35,206,25,1*7A
$GBGSV,4,4,13,34,29,042,33,1*4E
$GBGSV,2,1,07,43,76,074,41,39,70,173,42,40,67,312,43,23,58,352,41,4*76
$GBGSV,2,2,07,25,49,091,35,28,35,206,27,34,29,042,29,4*4C
$GNACCURACY,4.8*1A
$PAIRSAT,1,25,2,0,200,3,0,200,4,0,221,7,0,1,8,0,21,9,0,21,14,0,200,15,0,200,16,0,201,17,0,200,18,0,200,19,0,200,20,0,200,21,0,201,22,0,200,23,0,200,24,0,200,25,0,200,26,0,221,27,0,221,31,0,1,194,0,421,195,0,221,196,0,200,199,0,600*5B
$PAIRSAT,2,15,70,0,200,71,0,200,74,0,200,75,0,200,76,0,200,77,0,201,78,0,201,79,0,201,82,0,200,83,0,200,84,0,200,85,0,200,86,0,200,87,0,201,88,0,201*54
$PAIRSAT,3,19,2,0,1200,3,0,1200,4,0,1200,5,0,200,7,0,1000,8,0,1000,9,0,1000,13,0,21,15,0,21,19,0,21,21,0,221,25,0,1200,26,0,1200,27,0,1221,30,0,1200,31,0,1200,33,0,1200,34,0,1200,36,0,1200*54
$PAIRSAT,4,46,1,0,200,2,0,200,3,0,400,4,0,200,5,0,200,6,0,201,7,0,201,8,0,200,9,0,201,10,0,201,11,0,201,12,0,200,13,0,200,14,0,200,16,0,1,19,0,400,20,0,400,21,0,400,22,0,400,23,0,421,24,0,600,25,0,621,26,0,600,27,0,400,28,0,621,29,0,600,30,0,600,32,0,600,33,0,600,34,0,621,35,0,400,36,0,400,37,0,400,38,0,400,39,0,421,40,0,421,41,0,400,42,0,400,43,0,421,44,0,400,45,0,400,46,0,400,59,0,400,60,0,400,61,0,400,62,0,400*4A
$PAIRDGP,7,4,7,8,9,16,21,27*6D
$GNGGA,031926.100,2500.7829020,N,12132.4668450,E,4,49,0.59,16.612,M,15.25,M,1,3335*41
$GNRMC,031926.100,A,2500.7829020,N,12132.4668450,E,0.02,61.32,090324,,,R,V*20
$GPHDT,,T*1B
$GNACCURACY,4.8*1A
$GNGGA,031926.200,2500.7829020,N,12132.4668473,E,4,48,0.59,16.597,M,15.25,M,1,3335*4C
$GNRMC,031926.200,A,2500.7829020,N,12132.4668473,E,0.02,61.32,090324,,,R,V*22
$GPHDT,47.114,T*02
$GNACCURACY,4.8*1A
$GNGGA,031926.300,2500.7829024,N,12132.4668478,E,4,49,0.59,16.606,M,15.25,M,1,3335*48
$GNRMC,031926.300,A,2500.7829024,N,12132.4668478,E,0.02,61.32,090324,,,R,V*2C
$GPHDT,,T*1B
$GNACCURACY,4.8*1A
$GNGGA,031926.400,2500.7829018,N,12132.4668497,E,4,49,0.62,16.617,M,15.25,M,1,3335*49
$GNRMC,031926.400,A,2500.7829018,N,12132.4668497,E,0.02,61.32,090324,,,R,V*25
$GPHDT,47.330,T*06
$GNACCURACY,4.8*1A
$GNGGA,031926.500,2500.7829022,N,12132.4668458,E,4,49,0.62,16.594,M,15.25,M,1,3335*4A
$GNRMC,031926.500,A,2500.7829022,N,12132.4668458,E,0.02,61.32,090324,,,R,V*2E
$GPHDT,,T*1B
$GNACCURACY,4.8*1A
$GNGGA,031926.600,2500.7829006,N,12132.4668511,E,4,49,0.62,16.627,M,15.25,M,0,3335*49
$GNRMC,031926.600,A,2500.7829006,N,12132.4668511,E,0.02,61.32,090324,,,R,V*27
$GPHDT,47.491,T*0A
$GNACCURACY,4.8*1A
$GNGGA,031926.700,2500.7828987,N,12132.4668509,E,4,50,0.59,16.613,M,15.25,M,0,3335*47
$GNRMC,031926.700,A,2500.7828987,N,12132.4668509,E,0.02,61.32,090324,,,R,V*2E
$GPHDT,,T*1B
$GNACCURACY,4.8*1A
$GNGGA,031926.800,2500.7829011,N,12132.4668478,E,4,50,0.59,16.613,M,15.25,M,0,3335*48
$GNRMC,031926.800,A,2500.7829011,N,12132.4668478,E,0.02,61.32,090324,,,R,V*21
$GPHDT,47.090,T*0F
$GNACCURACY,4.8*1A
$GNGGA,031926.900,2500.7828989,N,12132.4668513,E,4,50,0.59,16.622,M,15.25,M,0,3335*4E
$GNRMC,031926.900,A,2500.7828989,N,12132.4668513,E,0.02,61.32,090324,,,R,V*25
$GPHDT,,T*1B
$GNACCURACY,4.8*1A
$GNGGA,031927.000,2500.7829013,N,12132.4668478,E,4,50,0.59,16.618,M,15.25,M,1,3335*49
$GNRMC,031927.000,A,2500.7829013,N,12132.4668478,E,0.02,61.32,090324,,,R,V*2A
$GPHDT,47.124,T*01
$GNGSA,A,3,08,194,195,27,16,21,04,09,26,31,,,1.10,0.59,0.93,1*04
$GNGSA,A,3,88,78,77,87,,,,,,,,,1.10,0.59,0.93,2*04
$GNGSA,A,3,21,13,19,27,15,,,,,,,,1.10,0.59,0.93,3*0D
$GNGSA,A,3,06,16,43,09,39,40,07,23,10,11,25,28,1.10,0.59,0.93,4*09
$GNGSA,A,3,34,,,,,,,,,,,,1.10,0.59,0.93,4*05
$GPGSV,4,1,15,08,72,291,43,199,66,164,,194,63,045,41,195,56,124,40,1*57
$GPGSV,4,2,15,27,54,025,43,45,47,231,36,16,36,051,38,21,36,171,44,1*69
$GPGSV,4,3,15,04,35,220,36,09,31,271,23,02,24,182,36,07,22,320,16,1*65
$GPGSV,4,4,15,196,21,174,24,26,19,080,28,31,18,135,22,1*6B
$GPGSV,2,1,08,08,72,291,44,194,63,045,41,195,56,124,43,27,54,025,35,8*67
$GPGSV,2,2,08,04,35,220,38,09,31,271,23,196,21,174,23,26,19,080,25,8*5F
$GLGSV,2,1,05,88,72,091,42,78,43,000,20,77,33,081,24,87,25,031,23,1*7B
$GLGSV,2,2,05,79,09,316,,1*4E
$GAGSV,2,1,07,21,50,344,24,13,48,113,40,19,38,261,28,27,35,059,31,7*7C
$GAGSV,2,2,07,15,24,052,26,26,24,176,27,04,08,315,,7*49
$GAGSV,2,1,06,21,50,344,21,13,48,113,42,19,38,261,21,27,35,059,35,1*71
$GAGSV,2,2,06,26,24,176,24,15,24,052,22,1*72
$GBGSV,4,1,13,06,84,232,38,16,81,187,37,43,76,074,44,09,74,307,41,1*79
$GBGSV,4,2,13,39,70,173,43,40,67,312,43,07,63,291,36,23,58,352,43,1*7D
$GBGSV,4,3,13,10,52,274,29,11,52,049,39,25,49,091,33,28,35,206,23,1*74
$GBGSV,4,4,13,34,29,042,33,1*4E
$GBGSV,2,1,07,43,76,074,41,39,70,173,42,40,67,312,43,23,58,352,41,4*76
$GBGSV,2,2,07,25,49,091,35,28,35,206,27,34,29,042,29,4*4C
$GNACCURACY,4.8*1A
$PAIRSAT,1,25,2,0,200,3,0,200,4,0,221,7,0,1,8,0,21,9,0,21,14,0,200,15,0,200,16,0,201,17,0,200,18,0,200,19,0,200,20,0,200,21,0,201,22,0,200,23,0,200,24,0,200,25,0,200,26,0,221,27,0,221,31,0,1,194,0,421,195,0,221,196,0,200,199,0,600*5B
$PAIRSAT,2,15,70,0,200,71,0,200,74,0,200,75,0,200,76,0,200,77,0,201,78,0,201,79,0,201,82,0,200,83,0,200,84,0,200,85,0,200,86,0,200,87,0,201,88,0,201*54
$PAIRSAT,3,19,2,0,1200,3,0,1200,4,0,1200,5,0,200,7,0,1000,8,0,1000,9,0,1000,13,0,21,15,0,21,19,0,21,21,0,221,25,0,1200,26,0,1200,27,0,1221,30,0,1200,31,0,1200,33,0,1200,34,0,1200,36,0,1200*54
$PAIRSAT,4,46,1,0,200,2,0,200,3,0,400,4,0,200,5,0,200,6,0,201,7,0,201,8,0,200,9,0,201,10,0,201,11,0,201,12,0,200,13,0,200,14,0,200,16,0,1,19,0,400,20,0,400,21,0,400,22,0,400,23,0,421,24,0,600,25,0,621,26,0,600,27,0,400,28,0,621,29,0,600,30,0,600,32,0,600,33,0,600,34,0,621,35,0,600,36,0,400,37,0,400,38,0,400,39,0,421,40,0,421,41,0,400,42,0,400,43,0,421,44,0,400,45,0,400,46,0,400,59,0,400,60,0,400,61,0,400,62,0,400*48
$PAIRDGP,7,4,7,8,9,16,21,27*6D
$GNGGA,031927.100,2500.7829011,N,12132.4668523,E,4,50,0.59,16.612,M,15.25,M,1,3335*4F
$GNRMC,031927.100,A,2500.7829011,N,12132.4668523,E,0.02,61.32,090324,,,R,V*26
$GPHDT,,T*1B
$GNACCURACY,4.8*1A
$GNGGA,031927.200,2500.7828999,N,12132.4668503,E,4,50,0.59,16.620,M,15.25,M,1,3335*47
$GNRMC,031927.200,A,2500.7828999,N,12132.4668503,E,0.02,61.32,090324,,,R,V*2F
$GPHDT,46.976,T*0F
$GNACCURACY,4.9*1B
$GNGGA,031927.300,2500.7828998,N,12132.4668513,E,4,50,0.59,16.615,M,15.25,M,1,3335*40
$GNRMC,031927.300,A,2500.7828998,N,12132.4668513,E,0.02,61.32,090324,,,R,V*2E
$GPHDT,,T*1B
$GNACCURACY,4.9*1B
$GNGGA,031927.400,2500.7829008,N,12132.4668503,E,4,50,0.59,16.600,M,15.25,M,1,3335*43
$GNRMC,031927.400,A,2500.7829008,N,12132.4668503,E,0.02,61.32,090324,,,R,V*29
$GPHDT,46.480,T*0B
$GNACCURACY,4.9*1B
$GNGGA,031927.500,2500.7829011,N,12132.4668485,E,4,50,0.59,16.612,M,15.25,M,0,3335*47
$GNRMC,031927.500,A,2500.7829011,N,12132.4668485,E,0.02,61.32,090324,,,R,V*2F
$GPHDT,,T*1B
$GNACCURACY,4.9*1B
$GNGGA,031927.600,2500.7829001,N,12132.4668466,E,4,50,0.59,16.610,M,15.25,M,0,3335*4A
$GNRMC,031927.600,A,2500.7829001,N,12132.4668466,E,0.02,61.32,090324,,,R,V*20
$GPHDT,46.447,T*00
$GNACCURACY,4.9*1B
$GNGGA,031927.700,2500.7829003,N,12132.4668488,E,4,49,0.62,16.623,M,15.25,M,0,3335*49
$GNRMC,031927.700,A,2500.7829003,N,12132.4668488,E,0.02,61.32,090324,,,R,V*23
$GPHDT,,T*1B
$GNACCURACY,4.9*1B
$GNGGA,031927.800,2500.7829027,N,12132.4668442,E,4,49,0.62,16.610,M,15.25,M,0,3335*46
$GNRMC,031927.800,A,2500.7829027,N,12132.4668442,E,0.02,61.32,090324,,,R,V*2C
$GPHDT,47.152,T*00
$GNACCURACY,4.9*1B
$GNGGA,031927.900,2500.7829018,N,12132.4668458,E,4,49,0.62,16.597,M,15.25,M,0,3335*4C
$GNRMC,031927.900,A,2500.7829018,N,12132.4668458,E,0.02,61.32,090324,,,R,V*2A
$GPHDT,,T*1B
$GNACCURACY,4.9*1B
$GNGGA,031928.000,2500.7829015,N,12132.4668458,E,4,49,0.62,16.608,M,15.25,M,1,3335*43
$GNRMC,031928.000,A,2500.7829015,N,12132.4668458,E,0.02,61.32,090324,,,R,V*21
$GPHDT,46.433,T*03
$GNGSA,A,3,08,194,195,27,21,16,04,09,26,,,,1.16,0.62,0.98,1*03