$FW : RTK35X,V1.1X0314AS,Lib20210517,1*54
$Tool : LOCOSYS , GNSS Firebird , v1.0.0.19*39
$---------------------------------------------------*2D
$GNACCURACY,3.0*15
$GNGGA,113346.000,2500.8168841,N,12132.4668154,E,2,60,0.45,16.898,M,15.25,M,48,3335*71
$GNRMC,113346.000,A,2500.8168841,N,12132.4668154,E,0.05,294.89,260623,,,D,V*07
$GPHDT,,T*1B
$GNACCURACY,3.0*15
$GNGGA,113346.100,2500.8168781,N,12132.4668094,E,2,60,0.45,16.900,M,15.25,M,48,3335*7E
$GNRMC,113346.100,A,2500.8168781,N,12132.4668094,E,0.04,294.89,260623,,,D,V*09
$GPHDT,,T*1B
$GNGSA,A,3,196,24,199,18,23,15,195,194,12,10,05,32,0.71,0.45,0.55,1*04
$GNGSA,A,3,80,73,85,86,71,69,,,,,,,0.71,0.45,0.55,2*03
$GNGSA,A,3,13,08,07,26,30,02,15,,,,,,0.71,0.45,0.55,3*08
$GNGSA,A,3,38,08,39,13,16,06,46,09,19,20,36,35,0.71,0.45,0.55,4*0B
$GNGSA,A,3,29,22,,,,,,,,,,,0.71,0.45,0.55,4*08
$GPGSV,4,1,15,196,75,067,27,24,70,039,23,199,60,167,37,18,57,240,41,1*6C
$GPGSV,4,2,15,23,54,341,39,41,38,242,36,15,35,050,32,195,33,180,31,1*55
$GPGSV,4,3,15,194,32,138,24,12,22,139,26,10,20,320,24,05,17,121,29,1*54
$GPGSV,4,4,15,25,11,174,18,32,11,272,36,13,06,059,14,1*52
$GPGSV,2,1,08,196,75,067,33,24,70,039,38,199,60,167,46,18,57,240,47,8*60
$GPGSV,2,2,08,23,54,341,43,194,32,138,34,10,20,320,29,32,11,272,31,8*59
$GLGSV,3,1,09,80,48,070,18,73,42,157,38,70,41,015,,85,33,242,24,1*7A
$GLGSV,3,2,09,86,27,298,42,71,23,318,21,69,12,077,17,79,09,030,31,1*7C
$GLGSV,3,3,09,84,05,188,,1*49
$GAGSV,3,1,10,13,54,228,40,08,45,028,26,07,44,307,41,26,33,304,40,7*79
$GAGSV,3,2,10,30,28,141,26,02,26,082,20,15,20,174,16,03,09,066,,7*7D
$GAGSV,3,3,10,27,03,187,,25,02,041,,7*7A
$GAGSV,1,1,04,13,54,228,43,07,44,307,45,26,33,304,42,30,28,141,26,1*73
$GBGSV,4,1,15,38,83,127,42,08,81,001,37,39,70,287,45,13,69,331,37,1*78
$GBGSV,4,2,15,16,66,262,42,06,65,258,39,46,61,105,40,09,50,241,41,1*78
$GBGSV,4,3,15,19,50,349,35,20,42,067,30,36,38,184,34,37,21,046,,1*77
$GBGSV,4,4,15,35,20,266,30,29,17,210,32,22,13,303,38,1*41
$GBGSV,3,1,09,38,83,127,46,39,70,287,44,46,61,105,37,19,50,349,44,4*78
$GBGSV,3,2,09,20,42,067,24,36,38,184,28,35,20,266,20,29,17,210,27,4*7E
$GBGSV,3,3,09,22,13,303,37,4*4C
$GNACCURACY,3.0*15
$PAIRSAT,1,35,1,0,200,2,0,200,3,0,200,4,0,200,5,0,201,6,0,200,7,0,200,8,0,200,9,0,200,10,0,221,11,0,200,12,0,201,13,0,201,14,0,200,15,0,201,16,0,200,17,0,200,18,0,221,19,0,200,20,0,200,21,0,200,23,0,221,24,0,221,25,0,200,26,0,200,27,0,200,28,0,200,29,0,200,30,0,200,31,0,200,32,0,221,194,0,621,195,0,621,196,0,620,199,0,621*68
$PAIRSAT,2,23,65,0,200,67,0,200,68,0,200,69,0,201,70,0,201,71,0,201,72,0,200,73,0,201,74,0,200,75,0,200,76,0,200,77,0,200,78,0,200,79,0,201,80,0,201,81,0,200,82,0,200,83,0,200,84,0,200,85,0,201,86,0,201,87,0,200,88,0,200*53
$PAIRSAT,3,23,2,0,1221,3,0,1221,4,0,1200,5,0,200,7,0,1221,8,0,1221,9,0,1200,10,0,1200,11,0,1200,12,0,1200,13,0,1221,15,0,1221,19,0,1200,21,0,1200,24,0,1200,25,0,1200,26,0,1221,27,0,1200,30,0,1221,31,0,1200,33,0,1200,34,0,1200,36,0,1200*6A
$PAIRSAT,4,50,1,0,200,2,0,200,3,0,200,4,0,200,5,0,200,6,0,201,7,0,200,8,0,201,9,0,201,10,0,200,11,0,200,12,0,200,13,0,201,14,0,200,15,0,200,16,0,201,19,0,621,20,0,621,21,0,600,22,0,621,23,0,600,24,0,600,25,0,600,26,0,600,27,0,600,28,0,600,29,0,621,30,0,600,31,0,200,32,0,600,33,0,600,34,0,600,35,0,621,36,0,621,37,0,621,38,0,621,39,0,621,40,0,600,41,0,600,42,0,600,43,0,600,44,0,600,45,0,600,46,0,621,56,0,200,57,0,200,58,0,200,59,0,600,60,0,600,61,0,600*41
$PAIRDGP,9,5,10,12,15,18,23,24,25,32*5B
$GNGGA,113346.200,2500.8168721,N,12132.4668094,E,2,60,0.45,16.904,M,15.25,M,48,3335*73
$GNRMC,113346.200,A,2500.8168721,N,12132.4668094,E,0.04,294.89,260623,,,D,V*00
$GPHDT,,T*1B
$GNACCURACY,2.9*1D
$GNGGA,113346.300,2500.8168661,N,12132.4668034,E,2,60,0.45,16.911,M,15.25,M,48,3335*79
$GNRMC,113346.300,A,2500.8168661,N,12132.4668034,E,0.00,294.89,260623,,,D,V*0A
$GPHDT,,T*1B
$GNACCURACY,2.9*1D
$GNGGA,113346.400,2500.8168601,N,12132.4667974,E,2,60,0.45,16.924,M,15.25,M,48,3335*7C
$GNRMC,113346.400,A,2500.8168601,N,12132.4667974,E,0.00,294.89,260623,,,D,V*09
$GPHDT,,T*1B
$GNACCURACY,2.9*1D
$GNGGA,113346.500,2500.8168601,N,12132.4667914,E,2,60,0.45,16.934,M,15.25,M,48,3335*7A
$GNRMC,113346.500,A,2500.8168601,N,12132.4667914,E,0.00,294.89,260623,,,D,V*0E
$GPHDT,,T*1B
$GNACCURACY,2.9*1D
$GNGGA,113346.600,2500.8168541,N,12132.4667854,E,2,60,0.45,16.945,M,15.25,M,48,3335*7D
$GNRMC,113346.600,A,2500.8168541,N,12132.4667854,E,0.00,294.89,260623,,,D,V*0F
$GPHDT,,T*1B
$GNACCURACY,2.9*1D
$GNGGA,113346.700,2500.8168421,N,12132.4667734,E,2,60,0.45,16.957,M,15.25,M,48,3335*71
$GNRMC,113346.700,A,2500.8168421,N,12132.4667734,E,0.01,294.89,260623,,,D,V*01
$GPHDT,,T*1B
$GNACCURACY,2.9*1D
$GNGGA,113346.800,2500.8168361,N,12132.4667734,E,2,60,0.45,16.965,M,15.25,M,48,3335*7C
$GNRMC,113346.800,A,2500.8168361,N,12132.4667734,E,0.00,294.89,260623,,,D,V*0C
$GPHDT,,T*1B
$GNACCURACY,2.9*1D
$GNGGA,113346.900,2500.8168301,N,12132.4667734,E,2,60,0.45,16.973,M,15.25,M,48,3335*7C
$GNRMC,113346.900,A,2500.8168301,N,12132.4667734,E,0.00,294.89,260623,,,D,V*0B
$GPHDT,,T*1B
$GNACCURACY,2.9*1D
$GNGGA,113347.000,2500.8168241,N,12132.4667674,E,2,61,0.45,16.980,M,15.25,M,49,3335*78
$GNRMC,113347.000,A,2500.8168241,N,12132.4667674,E,0.00,294.89,260623,,,D,V*03
$GPHDT,,T*1B
$GNACCURACY,2.9*1D
$GNGGA,113347.100,2500.8168301,N,12132.4667674,E,2,61,0.45,16.988,M,15.25,M,49,3335*74
$GNRMC,113347.100,A,2500.8168301,N,12132.4667674,E,0.00,294.89,260623,,,D,V*07
$GPHDT,,T*1B
$GNGSA,A,3,196,24,199,18,23,15,195,194,12,10,05,32,0.80,0.45,0.66,1*0A
$GNGSA,A,3,80,73,85,86,71,69,,,,,,,0.80,0.45,0.66,2*0D
$GNGSA,A,3,13,08,07,26,30,02,15,,,,,,0.80,0.45,0.66,3*06
$GNGSA,A,3,38,08,39,13,16,06,46,09,19,20,36,35,0.80,0.45,0.66,4*05
$GNGSA,A,3,29,22,,,,,,,,,,,0.80,0.45,0.66,4*06
$GPGSV,4,1,15,196,75,067,27,24,70,039,23,199,60,167,37,18,57,240,41,1*6C
$GPGSV,4,2,15,23,54,341,40,41,38,242,36,15,35,050,32,195,33,180,33,1*59
$GPGSV,4,3,15,194,32,138,24,12,22,139,29,10,20,320,24,05,17,121,29,1*5B
$GPGSV,4,4,15,25,11,174,18,32,11,272,36,13,06,059,15,1*53
$GPGSV,3,1,09,196,75,067,33,24,70,039,38,199,60,167,46,18,57,240,47,8*60
$GPGSV,3,2,09,23,54,341,43,195,33,180,26,194,32,138,28,10,20,320,29,8*60
$GPGSV,3,3,09,32,11,272,31,8*50
$GLGSV,3,1,09,80,48,070,18,73,42,157,39,70,41,015,,85,33,242,25,1*7A
$GLGSV,3,2,09,86,27,298,42,71,23,318,20,69,12,077,17,79,09,030,31,1*7D
$GLGSV,3,3,09,84,05,188,,1*49
$GAGSV,3,1,10,13,54,228,41,08,45,028,26,07,44,307,41,26,33,304,40,7*78
$GAGSV,3,2,10,30,28,141,28,02,26,082,20,15,20,174,16,03,09,066,,7*73
$GAGSV,3,3,10,27,03,187,,25,02,041,,7*7A
$GAGSV,2,1,05,13,54,228,43,07,44,307,44,26,33,304,42,30,28,141,29,1*7F
$GAGSV,2,2,05,15,20,174,17,1*42
$GBGSV,4,1,15,38,83,127,42,08,81,001,37,39,70,287,45,13,69,331,37,1*78
$GBGSV,4,2,15,16,66,262,41,06,65,258,39,46,61,105,42,09,50,241,41,1*79
$GBGSV,4,3,15,19,50,349,35,20,42,067,30,36,38,184,33,37,21,046,,1*70
$GBGSV,4,4,15,35,20,266,31,29,17,210,33,22,13,303,38,1*41
$GBGSV,3,1,09,38,83,127,47,39,70,287,44,46,61,105,41,19,50,349,44,4*78
$GBGSV,3,2,09,20,42,067,23,36,38,184,30,35,20,266,19,29,17,210,25,4*78
$GBGSV,3,3,09,22,13,303,36,4*4D
$GNACCURACY,2.9*1D
$PAIRSAT,1,35,1,0,200,2,0,200,3,0,200,4,0,200,5,0,201,6,0,200,7,0,200,8,0,200,9,0,200,10,0,221,11,0,200,12,0,201,13,0,201,14,0,200,15,0,201,16,0,200,17,0,200,18,0,221,19,0,200,20,0,200,21,0,200,23,0,221,24,0,221,25,0,200,26,0,200,27,0,200,28,0,200,29,0,200,30,0,200,31,0,200,32,0,221,194,0,621,195,0,621,196,0,620,199,0,621*68
$PAIRSAT,2,23,65,0,200,67,0,200,68,0,200,69,0,201,70,0,201,71,0,201,72,0,200,73,0,201,74,0,200,75,0,200,76,0,200,77,0,200,78,0,200,79,0,201,80,0,201,81,0,200,82,0,200,83,0,200,84,0,200,85,0,201,86,0,201,87,0,200,88,0,200*53
$PAIRSAT,3,23,2,0,1221,3,0,1221,4,0,1200,5,0,200,7,0,1221,8,0,1221,9,0,1200,10,0,1200,11,0,1200,12,0,1200,13,0,1221,15,0,1221,19,0,1200,21,0,1200,24,0,1200,25,0,1200,26,0,1221,27,0,1200,30,0,1221,31,0,1200,33,0,1200,34,0,1200,36,0,1200*6A
$PAIRSAT,4,50,1,0,200,2,0,200,3,0,200,4,0,200,5,0,200,6,0,201,7,0,200,8,0,201,9,0,201,10,0,200,11,0,200,12,0,200,13,0,201,14,0,200,15,0,200,16,0,201,19,0,621,20,0,621,21,0,600,22,0,621,23,0,600,24,0,600,25,0,600,26,0,600,27,0,600,28,0,600,29,0,621,30,0,600,31,0,200,32,0,600,33,0,600,34,0,600,35,0,621,36,0,621,37,0,621,38,0,621,39,0,621,40,0,600,41,0,600,42,0,600,43,0,600,44,0,600,45,0,600,46,0,621,56,0,200,57,0,200,58,0,200,59,0,600,60,0,600,61,0,600*41
$PAIRDGP,9,5,10,12,15,18,23,24,25,32*5B
$GNGGA,113347.200,2500.8167393,N,12132.4669878,E,4,62,0.45,16.142,M,15.25,M,49,3335*74
$GNRMC,113347.200,A,2500.8167393,N,12132.4669878,E,0.00,294.89,260623,,,R,V*1A
$GPHDT,,T*1B
$GNACCURACY,2.8*1C
$GNGGA,113347.300,2500.8167359,N,12132.4669867,E,4,63,0.45,16.133,M,15.25,M,49,3335*7A
$GNRMC,113347.300,A,2500.8167359,N,12132.4669867,E,0.00,294.89,260623,,,R,V*13
$GPHDT,,T*1B
$GNACCURACY,2.8*1C
$GNGGA,113347.400,2500.8167394,N,12132.4669874,E,4,63,0.45,16.134,M,15.25,M,49,3335*79
$GNRMC,113347.400,A,2500.8167394,N,12132.4669874,E,0.00,294.89,260623,,,R,V*17
$GPHDT,,T*1B
$GNACCURACY,2.8*1C
$GNGGA,113347.500,2500.8167355,N,12132.4669884,E,4,63,0.45,16.133,M,15.25,M,49,3335*7D
$GNRMC,113347.500,A,2500.8167355,N,12132.4669884,E,0.00,294.89,260623,,,R,V*14
$GPHDT,,T*1B
$GNACCURACY,2.8*1C
$GNGGA,113347.600,2500.8167379,N,12132.4669866,E,4,63,0.45,16.133,M,15.25,M,49,3335*7C
$GNRMC,113347.600,A,2500.8167379,N,12132.4669866,E,0.00,294.89,260623,,,R,V*15
$GPHDT,,T*1B
$GNACCURACY,2.8*1C
$GNGGA,113347.700,2500.8167357,N,12132.4669868,E,4,63,0.45,16.137,M,15.25,M,49,3335*7B
$GNRMC,113347.700,A,2500.8167357,N,12132.4669868,E,0.01,294.89,260623,,,R,V*17
$GPHDT,,T*1B
$GNACCURACY,2.8*1C
$GNGGA,113347.800,2500.8167383,N,12132.4669920,E,4,63,0.45,16.121,M,15.25,M,49,3335*77
$GNRMC,113347.800,A,2500.8167383,N,12132.4669920,E,0.00,294.89,260623,,,R,V*1D
$GPHDT,,T*1B
$GNACCURACY,2.8*1C
$GNGGA,113347.900,2500.8167397,N,12132.4669850,E,4,63,0.45,16.144,M,15.25,M,49,3335*76
$GNRMC,113347.900,A,2500.8167397,N,12132.4669850,E,0.00,294.89,260623,,,R,V*1F
$GPHDT,,T*1B
$GNACCURACY,2.9*1D
$GNGGA,113348.000,2500.8167428,N,12132.4669887,E,4,63,0.45,16.141,M,15.25,M,50,3335*74
$GNRMC,113348.000,A,2500.8167428,N,12132.4669887,E,0.00,294.89,260623,,,R,V*10
$GPHDT,,T*1B
$GNACCURACY,2.9*1D
$GNGGA,113348.100,2500.8167382,N,12132.4669890,E,4,63,0.45,16.134,M,15.25,M,50,3335*76
$GNRMC,113348.100,A,2500.8167382,N,12132.4669890,E,0.00,294.89,260623,,,R,V*10
$GPHDT,,T*1B
$GNGSA,A,3,196,24,199,18,23,15,195,194,12,10,05,32,0.80,0.45,0.66,1*0A
$GNGSA,A,3,80,73,85,86,71,69,,,,,,,0.80,0.45,0.66,2*0D
$GNGSA,A,3,13,08,07,26,30,02,15,,,,,,0.80,0.45,0.66,3*06
$GNGSA,A,3,38,08,39,13,16,06,46,09,19,20,36,35,0.80,0.45,0.66,4*05
$GNGSA,A,3,29,22,,,,,,,,,,,0.80,0.45,0.66,4*06
$GPGSV,4,1,15,196,75,067,27,24,70,039,23,199,60,167,38,18,57,240,41,1*63
$GPGSV,4,2,15,23,54,341,40,41,38,242,36,15,35,050,32,195,33,180,33,1*59
$GPGSV,4,3,15,194,32,138,24,12,22,139,29,10,20,320,23,05,17,121,29,1*5C
$GPGSV,4,4,15,25,11,174,19,32,11,272,36,13,06,059,14,1*53
$GPGSV,3,1,09,196,75,067,33,24,70,039,38,199,60,167,46,18,57,240,47,8*60
$GPGSV,3,2,09,23,54,341,43,195,33,180,26,194,32,138,29,10,20,320,28,8*60
$GPGSV,3,3,09,32,11,272,31,8*50
$GLGSV,2,1,08,80,48,070,18,73,42,157,39,70,41,015,,85,33,242,24,1*7B
$GLGSV,2,2,08,86,27,298,42,71,23,318,21,69,12,077,17,79,09,030,31,1*7C
$GAGSV,3,1,09,13,54,228,41,08,45,028,27,07,44,307,41,26,33,304,40,7*71
$GAGSV,3,2,09,30,28,141,29,02,26,082,20,15,20,174,15,03,09,066,,7*79
$GAGSV,3,3,09,25,02,041,,7*4A
$GAGSV,2,1,06,13,54,228,43,08,45,028,29,07,44,307,44,26,33,304,42,1*72
$GAGSV,2,2,06,30,28,141,29,15,20,174,18,1*78
$GBGSV,4,1,16,38,83,127,42,08,81,001,37,39,70,287,45,13,69,331,37,1*7B
$GBGSV,4,2,16,16,66,262,41,06,65,258,39,46,61,105,42,09,50,241,41,1*7A
$GBGSV,4,3,16,19,50,349,35,20,42,067,30,36,38,184,34,37,21,046,,1*74
$GBGSV,4,4,16,35,20,266,33,29,17,210,33,22,13,303,38,10,02,201,,1*70
$GBGSV,3,1,09,38,83,127,47,39,70,287,44,46,61,105,41,19,50,349,44,4*78
$GBGSV,3,2,09,20,42,067,22,36,38,184,30,35,20,266,19,29,17,210,25,4*79
$GBGSV,3,3,09,22,13,303,36,4*4D
$GNACCURACY,2.9*1D
$PAIRSAT,1,35,1,0,200,2,0,200,3,0,200,4,0,200,5,0,201,6,0,200,7,0,200,8,0,200,9,0,200,10,0,221,11,0,200,12,0,201,13,0,201,14,0,200,15,0,201,16,0,200,17,0,200,18,0,221,19,0,200,20,0,200,21,0,200,23,0,221,24,0,221,25,0,200,26,0,200,27,0,200,28,0,200,29,0,200,30,0,200,31,0,200,32,0,221,194,0,621,195,0,621,196,0,620,199,0,621*68
$PAIRSAT,2,23,65,0,200,67,0,200,68,0,200,69,0,201,70,0,201,71,0,201,72,0,200,73,0,201,74,0,200,75,0,200,76,0,200,77,0,200,78,0,200,79,0,201,80,0,201,81,0,200,82,0,200,83,0,200,84,0,200,85,0,201,86,0,201,87,0,200,88,0,200*53
$PAIRSAT,3,23,2,0,1221,3,0,1221,4,0,1200,5,0,200,7,0,1221,8,0,1221,9,0,1200,10,0,1200,11,0,1200,12,0,1200,13,0,1221,15,0,1221,19,0,1200,21,0,1200,24,0,1200,25,0,1200,26,0,1221,27,0,1200,30,0,1221,31,0,1200,33,0,1200,34,0,1200,36,0,1200*6A
$PAIRSAT,4,50,1,0,200,2,0,200,3,0,200,4,0,200,5,0,200,6,0,201,7,0,200,8,0,201,9,0,201,10,0,200,11,0,200,12,0,200,13,0,201,14,0,200,15,0,200,16,0,201,19,0,621,20,0,621,21,0,600,22,0,621,23,0,600,24,0,600,25,0,600,26,0,600,27,0,600,28,0,600,29,0,621,30,0,600,31,0,200,32,0,600,33,0,600,34,0,600,35,0,621,36,0,621,37,0,621,38,0,621,39,0,621,40,0,600,41,0,600,42,0,600,43,0,600,44,0,600,45,0,600,46,0,621,56,0,200,57,0,200,58,0,200,59,0,600,60,0,600,61,0,600*41
$PAIRDGP,9,5,10,12,15,18,23,24,25,32*5B
$GNGGA,113348.200,2500.8167383,N,12132.4669844,E,4,63,0.45,16.145,M,15.25,M,50,3335*7B
$GNRMC,113348.200,A,2500.8167383,N,12132.4669844,E,0.00,294.89,260623,,,R,V*1B
$GPHDT,,T*1B
$GNACCURACY,2.9*1D
$GNGGA,113348.300,2500.8167413,N,12132.4669890,E,4,63,0.45,16.137,M,15.25,M,50,3335*78
$GNRMC,113348.300,A,2500.8167413,N,12132.4669890,E,0.00,294.89,260623,,,R,V*1D
$GPHDT,,T*1B
$GNACCURACY,2.9*1D
$GNGGA,113348.400,2500.8167371,N,12132.4669907,E,4,63,0.45,16.138,M,15.25,M,50,3335*7C
$GNRMC,113348.400,A,2500.8167371,N,12132.4669907,E,0.00,294.89,260623,,,R,V*16
$GPHDT,,T*1B
$GNACCURACY,2.9*1D
$GNGGA,113348.500,2500.8167385,N,12132.4669877,E,4,63,0.45,16.145,M,15.25,M,50,3335*7A
$GNRMC,113348.500,A,2500.8167385,N,12132.4669877,E,0.00,294.89,260623,,,R,V*1A
$GPHDT,,T*1B
$GNACCURACY,2.9*1D
$GNGGA,113348.600,2500.8167373,N,12132.4669902,E,4,63,0.45,16.134,M,15.25,M,50,3335*75
$GNRMC,113348.600,A,2500.8167373,N,12132.4669902,E,0.00,294.89,260623,,,R,V*13
$GPHDT,,T*1B
$GNACCURACY,2.9*1D
$GNGGA,113348.700,2500.8167404,N,12132.4669894,E,4,63,0.45,16.146,M,15.25,M,50,3335*78
$GNRMC,113348.700,A,2500.8167404,N,12132.4669894,E,0.00,294.89,260623,,,R,V*1B
$GPHDT,,T*1B
$GNACCURACY,2.9*1D
$GNGGA,113348.800,2500.8167410,N,12132.4669899,E,4,63,0.45,16.147,M,15.25,M,50,3335*7E
$GNRMC,113348.800,A,2500.8167410,N,12132.4669899,E,0.00,294.89,260623,,,R,V*1C
$GPHDT,,T*1B
$GNACCURACY,3.0*15
$GNGGA,113348.900,2500.8167379,N,12132.4669915,E,4,63,0.45,16.146,M,15.25,M,50,3335*73
$GNRMC,113348.900,A,2500.8167379,N,12132.4669915,E,0.00,294.89,260623,,,R,V*10
$GPHDT,,T*1B
$GNACCURACY,3.0*15
$GNGGA,113349.000,2500.8167375,N,12132.4669918,E,4,63,0.45,16.139,M,15.25,M,51,3335*73
$GNRMC,113349.000,A,2500.8167375,N,12132.4669918,E,0.00,294.89,260623,,,R,V*19
$GPHDT,,T*1B
$GNACCURACY,3.0*15
$GNGGA,113349.100,2500.8167372,N,12132.4669903,E,4,63,0.45,16.146,M,15.25,M,51,3335*77
$GNRMC,113349.100,A,2500.8167372,N,12132.4669903,E,0.00,294.89,260623,,,R,V*15
$GPHDT,,T*1B
$GNGSA,A,3,196,24,199,18,23,15,195,194,12,10,05,32,0.80,0.45,0.66,1*0A
$GNGSA,A,3,80,73,85,86,71,69,,,,,,,0.80,0.45,0.66,2*0D
$GNGSA,A,3,13,08,07,26,30,02,15,,,,,,0.80,0.45,0.66,3*06
$GNGSA,A,3,38,08,39,13,16,06,46,09,19,20,36,35,0.80,0.45,0.66,4*05
$GNGSA,A,3,29,22,,,,,,,,,,,0.80,0.45,0.66,4*06
$GPGSV,4,1,15,196,75,067,27,24,70,039,21,199,60,167,38,18,57,240,41,1*61
$GPGSV,4,2,15,23,54,341,40,41,38,242,37,15,35,050,32,195,33,180,33,1*58
$GPGSV,4,3,15,194,32,138,26,12,22,139,29,10,20,320,23,05,17,121,29,1*5E
$GPGSV,4,4,15,25,11,174,19,32,11,272,35,13,06,059,12,1*56
$GPGSV,3,1,09,196,75,067,33,24,70,039,38,199,60,167,45,18,57,240,47,8*63
$GPGSV,3,2,09,23,54,341,43,195,33,180,26,194,32,138,28,10,20,320,28,8*61
$GPGSV,3,3,09,32,11,272,31,8*50
$GLGSV,2,1,08,80,48,070,19,73,42,157,39,70,41,015,,85,33,242,26,1*78
$GLGSV,2,2,08,86,27,298,42,71,23,318,24,69,12,077,17,79,09,030,33,1*7B
$GAGSV,3,1,09,13,54,228,41,08,45,028,27,07,44,307,41,26,33,304,40,7*71
$GAGSV,3,2,09,30,28,141,29,02,26,082,20,15,20,174,15,03,09,066,,7*79
$GAGSV,3,3,09,25,02,041,,7*4A
$GAGSV,2,1,06,13,54,228,43,08,45,028,29,07,44,307,44,26,33,304,42,1*72
$GAGSV,2,2,06,30,28,141,28,15,20,174,17,1*76
$GBGSV,4,1,15,38,83,127,42,08,81,001,37,39,70,287,45,13,69,331,38,1*77
$GBGSV,4,2,15,16,66,262,41,06,65,258,39,46,61,105,42,09,50,241,41,1*79
$GBGSV,4,3,15,19,50,349,35,20,42,067,30,36,38,184,34,37,21,046,,1*77
$GBGSV,4,4,15,35,20,266,31,29,17,210,33,22,13,303,38,1*41
$GBGSV,3,1,09,38,83,127,47,39,70,287,44,46,61,105,41,19,50,349,44,4*78
$GBGSV,3,2,09,20,42,067,22,36,38,184,30,35,20,266,18,29,17,210,25,4*78
$GBGSV,3,3,09,22,13,303,36,4*4D
$GNACCURACY,3.0*15
$PAIRSAT,1,35,1,0,200,2,0,200,3,0,200,4,0,200,5,0,201,6,0,200,7,0,200,8,0,200,9,0,200,10,0,221,11,0,200,12,0,201,13,0,201,14,0,200,15,0,201,16,0,200,17,0,200,18,0,221,19,0,200,20,0,200,21,0,200,23,0,221,24,0,221,25,0,200,26,0,200,27,0,200,28,0,200,29,0,200,30,0,200,31,0,200,32,0,221,194,0,621,195,0,621,196,0,620,199,0,621*68
$PAIRSAT,2,23,65,0,200,67,0,200,68,0,200,69,0,201,70,0,201,71,0,201,72,0,200,73,0,201,74,0,200,75,0,200,76,0,200,77,0,200,78,0,200,79,0,201,80,0,201,81,0,200,82,0,200,83,0,200,84,0,200,85,0,201,86,0,201,87,0,200,88,0,200*53
$PAIRSAT,3,23,2,0,1221,3,0,1221,4,0,1200,5,0,200,7,0,1221,8,0,1221,9,0,1200,10,0,1200,11,0,1200,12,0,1200,13,0,1221,15,0,1221,19,0,1200,21,0,1200,24,0,1200,25,0,1200,26,0,1221,27,0,1200,30,0,1221,31,0,1200,33,0,1200,34,0,1200,36,0,1200*6A
$PAIRSAT,4,50,1,0,200,2,0,200,3,0,200,4,0,200,5,0,200,6,0,201,7,0,200,8,0,201,9,0,201,10,0,200,11,0,200,12,0,200,13,0,201,14,0,200,15,0,200,16,0,201,19,0,621,20,0,621,21,0,600,22,0,621,23,0,600,24,0,600,25,0,600,26,0,600,27,0,600,28,0,600,29,0,621,30,0,600,31,0,200,32,0,600,33,0,600,34,0,600,35,0,621,36,0,621,37,0,621,38,0,621,39,0,621,40,0,600,41,0,600,42,0,600,43,0,600,44,0,600,45,0,600,46,0,621,56,0,200,57,0,200,58,0,200,59,0,600,60,0,600,61,0,600*41
$PAIRDGP,9,5,10,12,15,18,23,24,25,32*5B
$GNGGA,113349.200,2500.8167376,N,12132.4669892,E,4,63,0.45,16.143,M,15.25,M,51,3335*7C
$GNRMC,113349.200,A,2500.8167376,N,12132.4669892,E,0.00,294.89,260623,,,R,V*1B
$GPHDT,,T*1B
$GNACCURACY,3.0*15
$GNGGA,113349.300,2500.8167367,N,12132.4669942,E,4,63,0.45,16.130,M,15.25,M,51,3335*75
$GNRMC,113349.300,A,2500.8167367,N,12132.4669942,E,0.00,294.89,260623,,,R,V*16
$GPHDT,,T*1B
$GNACCURACY,3.0*15
$GNGGA,113349.400,2500.8167372,N,12132.4669893,E,4,63,0.45,16.144,M,15.25,M,51,3335*78
$GNRMC,113349.400,A,2500.8167372,N,12132.4669893,E,0.00,294.89,260623,,,R,V*18
$GPHDT,,T*1B
$GNACCURACY,3.0*15
$GNGGA,113349.500,2500.8167412,N,12132.4669850,E,4,63,0.45,16.157,M,15.25,M,51,3335*75
$GNRMC,113349.500,A,2500.8167412,N,12132.4669850,E,0.00,294.89,260623,,,R,V*17
$GPHDT,,T*1B
$GNACCURACY,3.0*15
$GNGGA,113349.600,2500.8167348,N,12132.4669894,E,4,63,0.45,16.143,M,15.25,M,51,3335*73
$GNRMC,113349.600,A,2500.8167348,N,12132.4669894,E,0.00,294.89,260623,,,R,V*14
$GPHDT,,T*1B
$GNACCURACY,3.0*15
$GNGGA,113349.700,2500.8167341,N,12132.4669862,E,4,62,0.45,16.134,M,15.25,M,51,3335*73
$GNRMC,113349.700,A,2500.8167341,N,12132.4669862,E,0.00,294.89,260623,,,R,V*15
$GPHDT,,T*1B
$GNACCURACY,3.0*15
$GNGGA,113349.800,2500.8167402,N,12132.4669922,E,4,62,0.45,16.145,M,15.25,M,51,3335*7F
$GNRMC,113349.800,A,2500.8167402,N,12132.4669922,E,0.00,294.89,260623,,,R,V*1F
$GPHDT,,T*1B
$GNACCURACY,3.0*15
$GNGGA,113349.900,2500.8167380,N,12132.4669883,E,4,62,0.45,16.147,M,15.25,M,51,3335*7B
$GNRMC,113349.900,A,2500.8167380,N,12132.4669883,E,0.00,294.89,260623,,,R,V*19
$GPHDT,,T*1B
$GNACCURACY,3.0*15
$GNGGA,113350.000,2500.8167392,N,12132.4669914,E,4,62,0.45,16.139,M,15.25,M,52,3335*7C
$GNRMC,113350.000,A,2500.8167392,N,12132.4669914,E,0.00,294.89,260623,,,R,V*14
$GPHDT,,T*1B
$GNACCURACY,3.0*15
$GNGGA,113350.100,2500.8167382,N,12132.4669911,E,4,62,0.45,16.142,M,15.25,M,52,3335*75
$GNRMC,113350.100,A,2500.8167382,N,12132.4669911,E,0.00,294.89,260623,,,R,V*11
$GPHDT,,T*1B
$GNGSA,A,3,196,24,199,18,23,15,195,194,12,10,05,32,0.80,0.45,0.66,1*0A
$GNGSA,A,3,80,73,85,86,71,69,,,,,,,0.80,0.45,0.66,2*0D
$GNGSA,A,3,13,08,07,26,30,02,15,,,,,,0.80,0.45,0.66,3*06
$GNGSA,A,3,38,08,39,13,16,06,46,09,19,20,36,35,0.80,0.45,0.66,4*05
$GNGSA,A,3,29,22,,,,,,,,,,,0.80,0.45,0.66,4*06
$GPGSV,4,1,15,196,75,067,28,24,70,039,21,199,60,167,38,18,57,240,42,1*6D
$GPGSV,4,2,15,23,54,341,40,41,38,242,37,15,35,050,31,195,33,180,34,1*5C
$GPGSV,4,3,15,194,32,138,25,12,22,139,28,10,20,320,25,05,17,121,29,1*5A
$GPGSV,4,4,15,25,11,174,18,32,11,272,35,13,06,059,13,1*56
$GPGSV,3,1,09,196,75,067,33,24,70,039,39,199,60,167,45,18,57,240,47,8*62
$GPGSV,3,2,09,23,54,341,43,195,33,180,26,194,32,138,28,10,20,320,28,8*61
$GPGSV,3,3,09,32,11,272,31,8*50
$GLGSV,3,1,09,80,48,070,21,73,42,157,39,70,41,015,,85,33,242,25,1*70
$GLGSV,3,2,09,86,27,298,42,71,23,318,26,69,12,077,17,79,09,030,33,1*79
$GLGSV,3,3,09,74,06,186,,1*4B
$GAGSV,3,1,10,13,54,228,41,08,45,028,27,07,44,307,41,26,33,304,40,7*79
$GAGSV,3,2,10,30,28,141,29,02,26,082,20,15,20,174,14,03,09,066,,7*70
$GAGSV,3,3,10,27,03,187,,25,02,041,,7*7A
$GAGSV,2,1,05,13,54,228,43,08,45,028,29,07,44,307,44,26,33,304,41,1*72
$GAGSV,2,2,05,30,28,141,29,1*46
$GBGSV,4,1,16,38,83,127,42,08,81,001,37,39,70,287,45,13,69,331,38,1*74
$GBGSV,4,2,16,16,66,262,41,06,65,258,39,46,61,105,42,09,50,241,41,1*7A
$GBGSV,4,3,16,19,50,349,35,20,42,067,29,36,38,184,34,37,21,046,,1*7C
$GBGSV,4,4,16,35,20,266,31,29,17,210,33,22,13,303,38,07,05,192,,1*7A
$GBGSV,3,1,09,38,83,127,47,39,70,287,44,46,61,105,41,19,50,349,44,4*78
$GBGSV,3,2,09,20,42,067,23,36,38,184,30,35,20,266,19,29,17,210,25,4*78
$GBGSV,3,3,09,22,13,303,36,4*4D
$GNACCURACY,3.0*15
$PAIRSAT,1,35,1,0,200,2,0,200,3,0,200,4,0,200,5,0,201,6,0,200,7,0,200,8,0,200,9,0,200,10,0,221,11,0,200,12,0,201,13,0,201,14,0,200,15,0,201,16,0,200,17,0,200,18,0,221,19,0,200,20,0,200,21,0,200,23,0,221,24,0,221,25,0,200,26,0,200,27,0,200,28,0,200,29,0,200,30,0,200,31,0,200,32,0,221,194,0,621,195,0,621,196,0,620,199,0,621*68
$PAIRSAT,2,23,65,0,200,67,0,200,68,0,200,69,0,201,70,0,201,71,0,201,72,0,200,73,0,201,74,0,200,75,0,200,76,0,200,77,0,200,78,0,200,79,0,201,80,0,201,81,0,200,82,0,200,83,0,200,84,0,200,85,0,201,86,0,201,87,0,200,88,0,200*53
$PAIRSAT,3,23,2,0,1221,3,0,1221,4,0,1200,5,0,200,7,0,1221,8,0,1221,9,0,1200,10,0,1200,11,0,1200,12,0,1200,13,0,1221,15,0,1221,19,0,1200,21,0,1200,24,0,1200,25,0,1200,26,0,1221,27,0,1200,30,0,1221,31,0,1200,33,0,1200,34,0,1200,36,0,1200*6A
$PAIRSAT,4,50,1,0,200,2,0,200,3,0,200,4,0,200,5,0,200,6,0,201,7,0,200,8,0,201,9,0,201,10,0,200,11,0,200,12,0,200,13,0,201,14,0,200,15,0,200,16,0,201,19,0,621,20,0,621,21,0,600,22,0,621,23,0,600,24,0,600,25,0,600,26,0,600,27,0,600,28,0,600,29,0,621,30,0,600,31,0,200,32,0,600,33,0,600,34,0,600,35,0,621,36,0,621,37,0,621,38,0,621,39,0,621,40,0,600,41,0,600,42,0,600,43,0,600,44,0,600,45,0,600,46,0,621,56,0,200,57,0,200,58,0,200,59,0,600,60,0,600,61,0,600*41
$PAIRDGP,9,5,10,12,15,18,23,24,25,32*5B
$GNGGA,113350.200,2500.8167391,N,12132.4669868,E,4,62,0.45,16.162,M,15.25,M,52,3335*79
$GNRMC,113350.200,A,2500.8167391,N,12132.4669868,E,0.00,294.89,260623,,,R,V*1F
$GPHDT,,T*1B
$GNACCURACY,3.0*15
$GNGGA,113350.300,2500.8167398,N,12132.4669900,E,4,62,0.45,16.150,M,15.25,M,52,3335*7F
$GNRMC,113350.300,A,2500.8167398,N,12132.4669900,E,0.00,294.89,260623,,,R,V*18
$GPHDT,,T*1B
$GNACCURACY,3.0*15
$GNGGA,113350.400,2500.8167384,N,12132.4669904,E,4,62,0.45,16.132,M,15.25,M,52,3335*75
$GNRMC,113350.400,A,2500.8167384,N,12132.4669904,E,0.00,294.89,260623,,,R,V*16
$GPHDT,,T*1B
$GNACCURACY,3.0*15
$GNGGA,113350.500,2500.8167382,N,12132.4669867,E,4,62,0.45,16.160,M,15.25,M,52,3335*71
$GNRMC,113350.500,A,2500.8167382,N,12132.4669867,E,0.00,294.89,260623,,,R,V*15
$GPHDT,,T*1B
$GNACCURACY,3.0*15
$GNGGA,113350.600,2500.8167416,N,12132.4669913,E,4,62,0.45,16.145,M,15.25,M,52,3335*7D
$GNRMC,113350.600,A,2500.8167416,N,12132.4669913,E,0.00,294.89,260623,,,R,V*1E
$GPHDT,,T*1B
$GNACCURACY,3.0*15
$GNGGA,113350.700,2500.8167377,N,12132.4669914,E,4,62,0.45,16.144,M,15.25,M,52,3335*7A
$GNRMC,113350.700,A,2500.8167377,N,12132.4669914,E,0.00,294.89,260623,,,R,V*18
$GPHDT,,T*1B
$GNACCURACY,3.0*15
$GNGGA,113350.800,2500.8167412,N,12132.4669924,E,4,62,0.45,16.155,M,15.25,M,52,3335*72
$GNRMC,113350.800,A,2500.8167412,N,12132.4669924,E,0.00,294.89,260623,,,R,V*10
$GPHDT,,T*1B
$GNACCURACY,3.0*15
$GNGGA,113350.900,2500.8167388,N,12132.4669906,E,4,62,0.45,16.139,M,15.25,M,52,3335*7D
$GNRMC,113350.900,A,2500.8167388,N,12132.4669906,E,0.00,294.89,260623,,,R,V*15
$GPHDT,,T*1B
$GNACCURACY,3.0*15
$GNGGA,113351.000,2500.8167400,N,12132.4669861,E,4,62,0.45,16.155,M,15.25,M,53,3335*79
$GNRMC,113351.000,A,2500.8167400,N,12132.4669861,E,0.00,294.89,260623,,,R,V*1A
$GPHDT,,T*1B
$GNACCURACY,3.0*15
$GNGGA,113351.100,2500.8167398,N,12132.4669944,E,4,62,0.45,16.158,M,15.25,M,53,3335*75
$GNRMC,113351.100,A,2500.8167398,N,12132.4669944,E,0.00,294.89,260623,,,R,V*1B
$GPHDT,,T*1B
$GNGSA,A,3,196,24,199,18,23,15,195,194,12,10,05,32,0.80,0.45,0.66,1*0A
$GNGSA,A,3,80,73,85,86,71,69,,,,,,,0.80,0.45,0.66,2*0D
$GNGSA,A,3,13,08,07,26,30,02,15,,,,,,0.80,0.45,0.66,3*06
$GNGSA,A,3,38,08,39,13,16,06,46,19,09,20,36,35,0.80,0.45,0.66,4*05
$GNGSA,A,3,29,22,,,,,,,,,,,0.80,0.45,0.66,4*06
$GPGSV,4,1,15,196,75,067,28,24,70,039,18,199,60,167,38,18,57,240,42,1*67
$GPGSV,4,2,15,23,54,341,40,41,38,242,37,15,35,050,30,195,33,180,33,1*5A
$GPGSV,4,3,15,194,32,138,28,12,22,139,28,10,20,320,26,05,17,121,29,1*54
$GPGSV,4,4,15,25,11,174,18,32,11,272,35,13,06,059,11,1*54
$GPGSV,3,1,09,196,75,067,33,24,70,039,39,199,60,167,45,18,57,240,47,8*62
$GPGSV,3,2,09,23,54,341,43,195,33,180,25,194,32,138,28,10,20,320,29,8*63
$GPGSV,3,3,09,32,11,272,31,8*50
$GLGSV,2,1,08,80,48,070,21,73,42,157,39,70,41,015,,85,33,242,21,1*74
$GLGSV,2,2,08,86,27,298,42,71,23,318,24,69,12,077,17,79,09,030,32,1*7A
$GAGSV,3,1,10,13,54,228,41,08,45,028,27,07,44,307,40,26,33,304,40,7*78
$GAGSV,3,2,10,30,28,141,29,02,26,082,20,15,20,174,15,03,09,066,,7*71
$GAGSV,3,3,10,27,03,187,,25,02,041,,7*7A
$GAGSV,2,1,05,13,54,228,43,08,45,028,31,07,44,307,44,26,33,304,42,1*78
$GAGSV,2,2,05,30,28,141,29,1*46
$GBGSV,4,1,16,38,83,127,42,08,81,001,37,39,70,287,45,13,69,331,38,1*74
$GBGSV,4,2,16,16,66,262,41,06,65,258,39,46,61,105,42,19,50,349,35,1*71
$GBGSV,4,3,16,09,50,241,41,20,42,067,29,36,38,184,34,37,21,046,,1*77
$GBGSV,4,4,16,35,20,266,30,29,17,210,33,22,13,303,38,07,05,192,,1*7B
$GBGSV,3,1,09,38,83,127,47,39,70,287,44,46,61,105,41,19,50,349,44,4*78
$GBGSV,3,2,09,20,42,067,24,36,38,184,30,35,20,266,21,29,17,210,25,4*74
$GBGSV,3,3,09,22,13,303,36,4*4D
$GNACCURACY,3.0*15
$PAIRSAT,1,35,1,0,200,2,0,200,3,0,200,4,0,200,5,0,201,6,0,200,7,0,200,8,0,200,9,0,200,10,0,221,11,0,200,12,0,201,13,0,201,14,0,200,15,0,201,16,0,200,17,0,200,18,0,221,19,0,200,20,0,200,21,0,200,23,0,221,24,0,221,25,0,200,26,0,200,27,0,200,28,0,200,29,0,200,30,0,200,31,0,200,32,0,221,194,0,621,195,0,621,196,0,620,199,0,621*68
$PAIRSAT,2,23,65,0,200,67,0,200,68,0,200,69,0,201,70,0,201,71,0,201,72,0,200,73,0,201,74,0,200,75,0,200,76,0,200,77,0,200,78,0,200,79,0,201,80,0,201,81,0,200,82,0,200,83,0,200,84,0,200,85,0,201,86,0,201,87,0,200,88,0,200*53
$PAIRSAT,3,23,2,0,1221,3,0,1221,4,0,1200,5,0,200,7,0,1221,8,0,1221,9,0,1200,10,0,1200,11,0,1200,12,0,1200,13,0,1221,15,0,1221,19,0,1200,21,0,1200,24,0,1200,25,0,1200,26,0,1221,27,0,1200,30,0,1221,31,0,1200,33,0,1200,34,0,1200,36,0,1200*6A
$PAIRSAT,4,50,1,0,200,2,0,200,3,0,200,4,0,200,5,0,200,6,0,201,7,0,200,8,0,201,9,0,201,10,0,200,11,0,200,12,0,200,13,0,201,14,0,200,15,0,200,16,0,201,19,0,621,20,0,621,21,0,600,22,0,621,23,0,600,24,0,600,25,0,600,26,0,600,27,0,600,28,0,600,29,0,621,30,0,600,31,0,200,32,0,600,33,0,600,34,0,600,35,0,621,36,0,621,37,0,621,38,0,621,39,0,621,40,0,600,41,0,600,42,0,600,43,0,600,44,0,600,45,0,600,46,0,621,56,0,200,57,0,200,58,0,200,59,0,600,60,0,600,61,0,600*41
$PAIRDGP,9,5,10,12,15,18,23,24,25,32*5B
$GNGGA,113351.200,2500.8167421,N,12132.4669843,E,4,62,0.45,16.165,M,15.25,M,53,3335*7B
$GNRMC,113351.200,A,2500.8167421,N,12132.4669843,E,0.00,294.89,260623,,,R,V*1B
$GPHDT,,T*1B
$GNACCURACY,3.0*15
$GNGGA,113351.300,2500.8167387,N,12132.4669888,E,4,62,0.45,16.157,M,15.25,M,53,3335*77
$GNRMC,113351.300,A,2500.8167387,N,12132.4669888,E,0.00,294.89,260623,,,R,V*16
$GPHDT,,T*1B
$GNACCURACY,3.0*15
$GNGGA,113351.400,2500.81673