$FW : RTK35X,V1.1X0314AS,Lib20210517,1*54
$Tool : LOCOSYS , GNSS Firebird , v1.0.0.19*39
$---------------------------------------------------*2D
$GNACCURACY,2.8*1C
$GNGGA,113537.000,2500.8167183,N,12132.4678155,E,2,64,0.43,15.633,M,15.25,M,6,3335*4D
$GNRMC,113537.000,A,2500.8167183,N,12132.4678155,E,0.02,294.89,260623,,,D,V*08
$GPHDT,,T*1B
$GNACCURACY,2.8*1C
$GNGGA,113537.100,2500.8167243,N,12132.4678275,E,2,64,0.43,15.626,M,15.25,M,6,3335*46
$GNRMC,113537.100,A,2500.8167243,N,12132.4678275,E,0.02,294.89,260623,,,D,V*07
$GPHDT,,T*1B
$GNGSA,A,3,196,24,199,18,23,15,195,194,12,10,05,32,0.69,0.43,0.54,1*0A
$GNGSA,A,3,80,73,85,86,71,69,,,,,,,0.69,0.43,0.54,2*0D
$GNGSA,A,3,13,07,08,26,30,02,15,,,,,,0.69,0.43,0.54,3*06
$GNGSA,A,3,38,08,13,39,16,06,46,19,09,20,36,35,0.69,0.43,0.54,4*05
$GNGSA,A,3,37,29,22,,,,,,,,,,0.69,0.43,0.54,4*02
$GPGSV,4,1,15,196,75,068,30,24,69,038,18,199,60,167,37,18,56,239,41,1*6B
$GPGSV,4,2,15,23,54,341,41,41,38,242,28,15,35,051,21,195,32,180,31,1*57
$GPGSV,4,3,15,194,32,138,34,12,23,138,16,10,21,320,29,05,16,122,27,1*56
$GPGSV,4,4,15,25,12,174,26,32,11,273,30,13,06,060,,1*54
$GPGSV,3,1,09,196,75,068,34,24,69,038,31,199,60,167,44,18,56,239,45,8*67
$GPGSV,3,2,09,23,54,341,40,194,32,138,31,195,32,180,30,10,21,320,27,8*62
$GPGSV,3,3,09,32,11,273,28,8*59
$GLGSV,3,1,09,80,48,069,24,73,43,157,40,70,41,016,,85,32,241,23,1*75
$GLGSV,3,2,09,86,28,297,42,71,23,318,36,69,11,078,17,79,08,030,21,1*76
$GLGSV,3,3,09,74,07,186,,1*4A
$GAGSV,3,1,09,13,53,227,40,07,45,308,43,08,45,029,24,26,34,303,39,7*78
$GAGSV,3,2,09,30,28,141,29,02,26,082,21,15,19,174,17,03,09,067,,7*71
$GAGSV,3,3,09,27,03,187,,7*42
$GAGSV,2,1,07,13,53,227,41,07,45,308,44,08,45,029,23,26,34,303,40,1*7E
$GAGSV,2,2,07,30,28,141,28,02,26,082,17,15,19,174,24,1*47
$GBGSV,5,1,17,38,83,130,42,08,81,000,39,13,70,330,40,39,70,289,45,1*75
$GBGSV,5,2,17,16,66,263,41,06,65,259,40,46,61,103,38,19,51,350,40,1*7F
$GBGSV,5,3,17,09,50,242,36,20,42,068,31,36,39,183,26,35,20,265,33,1*77
$GBGSV,5,4,17,37,20,045,25,29,16,209,36,22,13,304,30,07,05,191,,1*7E
$GBGSV,5,5,17,44,03,308,,1*48
$GBGSV,2,1,08,38,83,130,46,39,70,289,44,46,61,103,40,19,51,350,43,4*78
$GBGSV,2,2,08,36,39,183,31,37,20,045,18,29,16,209,35,22,13,304,21,4*75
$GNACCURACY,2.8*1C
$PAIRSAT,1,35,1,0,200,2,0,200,3,0,200,4,0,200,5,0,201,6,0,200,7,0,200,8,0,200,9,0,200,10,0,221,11,0,200,12,0,201,13,0,201,14,0,200,15,0,201,16,0,200,17,0,200,18,0,221,19,0,200,20,0,200,21,0,200,23,0,221,24,0,221,25,0,200,26,0,200,27,0,200,28,0,200,29,0,200,30,0,200,31,0,200,32,0,221,194,0,621,195,0,621,196,0,620,199,0,621*68
$PAIRSAT,2,24,65,0,200,66,0,200,67,0,200,68,0,200,69,0,201,70,0,201,71,0,201,72,0,200,73,0,201,74,0,200,75,0,200,76,0,200,77,0,200,78,0,200,79,0,201,80,0,201,81,0,200,82,0,200,83,0,200,84,0,200,85,0,201,86,0,201,87,0,200,88,0,200*7A
$PAIRSAT,3,23,2,0,1221,3,0,1221,4,0,1200,5,0,200,7,0,1221,8,0,1221,9,0,1200,10,0,1200,11,0,1200,12,0,1200,13,0,1221,15,0,1221,19,0,1200,21,0,1200,24,0,1200,25,0,1200,26,0,1221,27,0,1200,30,0,1221,31,0,1200,33,0,1200,34,0,1200,36,0,1200*6A
$PAIRSAT,4,50,1,0,200,2,0,200,3,0,200,4,0,200,5,0,200,6,0,201,7,0,200,8,0,201,9,0,201,10,0,200,11,0,200,12,0,200,13,0,201,14,0,200,15,0,200,16,0,201,19,0,621,20,0,621,21,0,600,22,0,621,23,0,600,24,0,600,25,0,600,26,0,600,27,0,600,28,0,600,29,0,621,30,0,600,31,0,200,32,0,600,33,0,600,34,0,600,35,0,621,36,0,621,37,0,621,38,0,621,39,0,621,40,0,600,41,0,600,42,0,600,43,0,600,44,0,600,45,0,600,46,0,621,56,0,200,57,0,200,58,0,200,59,0,600,60,0,600,61,0,600*41
$PAIRDGP,9,5,10,12,15,18,23,24,25,32*5B
$GNGGA,113537.200,2500.8167303,N,12132.4678395,E,2,64,0.43,15.618,M,15.25,M,6,3335*42
$GNRMC,113537.200,A,2500.8167303,N,12132.4678395,E,0.02,294.89,260623,,,D,V*0E
$GPHDT,,T*1B
$GNACCURACY,2.8*1C
$GNGGA,113537.300,2500.8167363,N,12132.4678515,E,2,63,0.45,15.613,M,15.25,M,6,3335*41
$GNRMC,113537.300,A,2500.8167363,N,12132.4678515,E,0.03,294.89,260623,,,D,V*06
$GPHDT,,T*1B
$GNACCURACY,2.9*1D
$GNGGA,113537.400,2500.8167423,N,12132.4678575,E,2,63,0.45,15.604,M,15.25,M,6,3335*45
$GNRMC,113537.400,A,2500.8167423,N,12132.4678575,E,0.02,294.89,260623,,,D,V*05
$GPHDT,,T*1B
$GNACCURACY,2.8*1C
$GNGGA,113537.500,2500.8167543,N,12132.4678695,E,2,63,0.45,15.594,M,15.25,M,6,3335*44
$GNRMC,113537.500,A,2500.8167543,N,12132.4678695,E,0.02,294.89,260623,,,D,V*0E
$GPHDT,,T*1B
$GNACCURACY,2.8*1C
$GNGGA,113537.600,2500.8167663,N,12132.4678755,E,2,63,0.45,15.583,M,15.25,M,0,3335*4B
$GNRMC,113537.600,A,2500.8167663,N,12132.4678755,E,0.02,294.89,260623,,,D,V*01
$GPHDT,,T*1B
$GNACCURACY,2.8*1C
$GNGGA,113537.700,2500.8167783,N,12132.4678815,E,2,64,0.43,15.573,M,15.25,M,0,3335*40
$GNRMC,113537.700,A,2500.8167783,N,12132.4678815,E,0.02,294.89,260623,,,D,V*04
$GPHDT,,T*1B
$GNACCURACY,2.8*1C
$GNGGA,113537.800,2500.8167843,N,12132.4678935,E,2,64,0.43,15.561,M,15.25,M,0,3335*4C
$GNRMC,113537.800,A,2500.8167843,N,12132.4678935,E,0.03,294.89,260623,,,D,V*0A
$GPHDT,,T*1B
$GNACCURACY,2.8*1C
$GNGGA,113537.900,2500.8168023,N,12132.4678995,E,2,64,0.43,15.549,M,15.25,M,0,3335*4C
$GNRMC,113537.900,A,2500.8168023,N,12132.4678995,E,0.03,294.89,260623,,,D,V*00
$GPHDT,,T*1B
$GNACCURACY,2.8*1C
$GNGGA,113538.000,2500.8168143,N,12132.4679055,E,2,64,0.43,15.536,M,15.25,M,1,3335*40
$GNRMC,113538.000,A,2500.8168143,N,12132.4679055,E,0.03,294.89,260623,,,D,V*05
$GPHDT,,T*1B
$GNACCURACY,2.8*1C
$GNGGA,113538.100,2500.8168263,N,12132.4679115,E,2,64,0.43,15.525,M,15.25,M,1,3335*47
$GNRMC,113538.100,A,2500.8168263,N,12132.4679115,E,0.03,294.89,260623,,,D,V*00
$GPHDT,,T*1B
$GNGSA,A,3,196,24,199,18,23,15,195,194,12,10,05,32,0.77,0.43,0.64,1*06
$GNGSA,A,3,80,73,85,86,71,69,,,,,,,0.77,0.43,0.64,2*01
$GNGSA,A,3,13,08,07,26,30,02,15,,,,,,0.77,0.43,0.64,3*0A
$GNGSA,A,3,38,08,13,39,16,06,46,19,09,20,36,35,0.77,0.43,0.64,4*09
$GNGSA,A,3,37,29,22,,,,,,,,,,0.77,0.43,0.64,4*0E
$GPGSV,4,1,15,196,75,068,31,24,69,038,18,199,60,167,37,18,56,238,45,1*6F
$GPGSV,4,2,15,23,54,341,40,41,38,242,35,15,35,051,25,195,32,180,34,1*5B
$GPGSV,4,3,15,194,32,138,34,12,23,138,17,10,21,320,28,05,16,122,26,1*57
$GPGSV,4,4,15,25,12,174,27,32,11,273,31,13,06,060,,1*54
$GPGSV,3,1,09,196,75,068,32,24,69,038,32,199,60,167,45,18,56,238,47,8*60
$GPGSV,3,2,09,23,54,341,40,194,32,138,31,195,32,180,31,10,21,320,30,8*65
$GPGSV,3,3,09,32,11,273,30,8*50
$GLGSV,2,1,08,80,48,069,23,73,43,157,41,70,41,016,,85,32,241,22,1*72
$GLGSV,2,2,08,86,28,297,43,71,23,318,36,69,11,078,18,79,08,030,30,1*78
$GAGSV,3,1,09,13,53,227,41,08,45,029,24,07,45,308,43,26,34,303,39,7*79
$GAGSV,3,2,09,30,28,141,30,02,26,082,21,15,19,174,17,03,09,067,,7*79
$GAGSV,3,3,09,27,03,187,,7*42
$GAGSV,2,1,07,13,53,227,43,07,45,308,44,08,45,029,24,26,34,303,42,1*79
$GAGSV,2,2,07,30,28,141,28,02,26,082,16,15,19,174,25,1*47
$GBGSV,4,1,15,38,83,130,42,08,81,000,39,13,70,330,40,39,70,289,45,1*76
$GBGSV,4,2,15,16,66,263,42,06,65,259,40,46,61,103,38,19,51,350,40,1*7F
$GBGSV,4,3,15,09,50,242,40,20,42,068,30,36,39,183,24,35,20,265,33,1*76
$GBGSV,4,4,15,37,20,045,25,29,16,209,33,22,13,304,31,1*42
$GBGSV,2,1,08,38,83,130,46,39,70,289,44,46,61,103,40,19,51,350,43,4*78
$GBGSV,2,2,08,36,39,183,32,37,20,045,18,29,16,209,34,22,13,304,21,4*77
$GNACCURACY,2.8*1C
$PAIRSAT,1,35,1,0,200,2,0,200,3,0,200,4,0,200,5,0,201,6,0,200,7,0,200,8,0,200,9,0,200,10,0,221,11,0,200,12,0,201,13,0,201,14,0,200,15,0,201,16,0,200,17,0,200,18,0,221,19,0,200,20,0,200,21,0,200,23,0,221,24,0,221,25,0,200,26,0,200,27,0,200,28,0,200,29,0,200,30,0,200,31,0,200,32,0,221,194,0,621,195,0,621,196,0,620,199,0,621*68
$PAIRSAT,2,24,65,0,200,66,0,200,67,0,200,68,0,200,69,0,201,70,0,201,71,0,201,72,0,200,73,0,201,74,0,200,75,0,200,76,0,200,77,0,200,78,0,200,79,0,201,80,0,201,81,0,200,82,0,200,83,0,200,84,0,200,85,0,201,86,0,201,87,0,200,88,0,200*7A
$PAIRSAT,3,23,2,0,1221,3,0,1221,4,0,1200,5,0,200,7,0,1221,8,0,1221,9,0,1200,10,0,1200,11,0,1200,12,0,1200,13,0,1221,15,0,1221,19,0,1200,21,0,1200,24,0,1200,25,0,1200,26,0,1221,27,0,1200,30,0,1221,31,0,1200,33,0,1200,34,0,1200,36,0,1200*6A
$PAIRSAT,4,50,1,0,200,2,0,200,3,0,200,4,0,200,5,0,200,6,0,201,7,0,200,8,0,201,9,0,201,10,0,200,11,0,200,12,0,200,13,0,201,14,0,200,15,0,200,16,0,201,19,0,621,20,0,621,21,0,600,22,0,621,23,0,600,24,0,600,25,0,600,26,0,600,27,0,600,28,0,600,29,0,621,30,0,600,31,0,200,32,0,600,33,0,600,34,0,600,35,0,621,36,0,621,37,0,621,38,0,621,39,0,621,40,0,600,41,0,600,42,0,600,43,0,600,44,0,600,45,0,600,46,0,621,56,0,200,57,0,200,58,0,200,59,0,600,60,0,600,61,0,600*41
$PAIRDGP,9,5,10,12,15,18,23,24,25,32*5B
$GNGGA,113538.200,2500.8168383,N,12132.4679175,E,2,64,0.43,15.515,M,15.25,M,1,3335*4E
$GNRMC,113538.200,A,2500.8168383,N,12132.4679175,E,0.01,294.89,260623,,,D,V*08
$GPHDT,,T*1B
$GNACCURACY,2.8*1C
$GNGGA,113538.300,2500.8168503,N,12132.4679295,E,2,64,0.43,15.501,M,15.25,M,1,3335*49
$GNRMC,113538.300,A,2500.8168503,N,12132.4679295,E,0.00,294.89,260623,,,D,V*0B
$GPHDT,,T*1B
$GNACCURACY,2.8*1C
$GNGGA,113538.400,2500.8168623,N,12132.4679295,E,2,64,0.43,15.488,M,15.25,M,1,3335*4F
$GNRMC,113538.400,A,2500.8168623,N,12132.4679295,E,0.01,294.89,260623,,,D,V*0C
$GPHDT,,T*1B
$GNACCURACY,2.8*1C
$GNGGA,113538.500,2500.8168743,N,12132.4679415,E,2,64,0.43,15.477,M,15.25,M,1,3335*47
$GNRMC,113538.500,A,2500.8168743,N,12132.4679415,E,0.00,294.89,260623,,,D,V*05
$GPHDT,,T*1B
$GNACCURACY,2.8*1C
$GNGGA,113538.600,2500.8168863,N,12132.4679535,E,2,64,0.43,15.469,M,15.25,M,0,3335*44
$GNRMC,113538.600,A,2500.8168863,N,12132.4679535,E,0.00,294.89,260623,,,D,V*08
$GPHDT,,T*1B
$GNACCURACY,2.8*1C
$GNGGA,113538.700,2500.8168923,N,12132.4679595,E,2,64,0.43,15.458,M,15.25,M,0,3335*48
$GNRMC,113538.700,A,2500.8168923,N,12132.4679595,E,0.01,294.89,260623,,,D,V*07
$GPHDT,,T*1B
$GNACCURACY,2.8*1C
$GNGGA,113538.800,2500.8168923,N,12132.4679775,E,2,63,0.45,15.447,M,15.25,M,0,3335*44
$GNRMC,113538.800,A,2500.8168923,N,12132.4679775,E,0.00,294.89,260623,,,D,V*05
$GPHDT,,T*1B
$GNACCURACY,2.8*1C
$GNGGA,113538.900,2500.8168983,N,12132.4679835,E,2,63,0.45,15.435,M,15.25,M,0,3335*41
$GNRMC,113538.900,A,2500.8168983,N,12132.4679835,E,0.00,294.89,260623,,,D,V*05
$GPHDT,,T*1B
$GNACCURACY,2.8*1C
$GNGGA,113539.000,2500.8169043,N,12132.4679955,E,2,63,0.45,15.428,M,15.25,M,1,3335*47
$GNRMC,113539.000,A,2500.8169043,N,12132.4679955,E,0.00,294.89,260623,,,D,V*0E
$GPHDT,,T*1B
$GNACCURACY,2.8*1C
$GNGGA,113539.100,2500.8169043,N,12132.4680015,E,2,63,0.45,15.423,M,15.25,M,1,3335*46
$GNRMC,113539.100,A,2500.8169043,N,12132.4680015,E,0.00,294.89,260623,,,D,V*04
$GPHDT,,T*1B
$GNGSA,A,3,196,24,199,18,23,15,195,194,12,10,05,32,0.77,0.43,0.64,1*06
$GNGSA,A,3,80,73,85,86,71,69,,,,,,,0.77,0.43,0.64,2*01
$GNGSA,A,3,13,08,07,26,30,02,15,,,,,,0.77,0.43,0.64,3*0A
$GNGSA,A,3,38,08,13,39,16,06,46,19,09,20,36,35,0.77,0.43,0.64,4*09
$GNGSA,A,3,37,29,22,,,,,,,,,,0.77,0.43,0.64,4*0E
$GPGSV,4,1,15,196,75,068,32,24,69,038,18,199,60,167,37,18,56,238,45,1*6C
$GPGSV,4,2,15,23,54,341,40,41,38,242,38,15,35,051,23,195,32,180,36,1*52
$GPGSV,4,3,15,194,32,138,34,12,23,138,17,10,21,320,31,05,16,122,26,1*5F
$GPGSV,4,4,15,25,12,174,26,32,11,273,30,13,06,060,,1*54
$GPGSV,3,1,09,196,75,068,34,24,69,038,32,199,60,167,47,18,56,238,48,8*6B
$GPGSV,3,2,09,23,54,341,40,194,32,138,31,195,32,180,33,10,21,320,29,8*6F
$GPGSV,3,3,09,32,11,273,32,8*52
$GLGSV,2,1,08,80,48,069,21,73,43,157,41,70,41,016,,85,32,241,20,1*72
$GLGSV,2,2,08,86,28,297,43,71,23,318,36,69,11,078,19,79,08,030,31,1*78
$GAGSV,3,1,09,13,53,227,41,08,45,029,23,07,45,308,43,26,34,303,39,7*7E
$GAGSV,3,2,09,30,28,141,30,02,26,082,20,15,19,174,17,03,09,067,,7*78
$GAGSV,3,3,09,27,03,187,,7*42
$GAGSV,2,1,07,13,53,227,44,07,45,308,45,08,45,029,24,26,34,303,41,1*7C
$GAGSV,2,2,07,30,28,141,28,02,26,082,16,15,19,174,25,1*47
$GBGSV,4,1,15,38,83,130,42,08,81,000,39,13,70,330,40,39,70,289,45,1*76
$GBGSV,4,2,15,16,66,263,42,06,65,259,40,46,61,103,38,19,51,350,41,1*7E
$GBGSV,4,3,15,09,50,242,42,20,42,068,30,36,39,183,26,35,20,265,31,1*74
$GBGSV,4,4,15,37,20,045,26,29,16,209,26,22,13,304,29,1*4C
$GBGSV,2,1,08,38,83,130,47,39,70,289,45,46,61,103,40,19,51,350,44,4*7F
$GBGSV,2,2,08,36,39,183,31,37,20,045,18,29,16,209,31,22,13,304,24,4*74
$GNACCURACY,2.8*1C
$PAIRSAT,1,35,1,0,200,2,0,200,3,0,200,4,0,200,5,0,201,6,0,200,7,0,200,8,0,200,9,0,200,10,0,221,11,0,200,12,0,201,13,0,201,14,0,200,15,0,201,16,0,200,17,0,200,18,0,221,19,0,200,20,0,200,21,0,200,23,0,221,24,0,221,25,0,200,26,0,200,27,0,200,28,0,200,29,0,200,30,0,200,31,0,200,32,0,221,194,0,621,195,0,621,196,0,620,199,0,621*68
$PAIRSAT,2,24,65,0,200,66,0,200,67,0,200,68,0,200,69,0,201,70,0,201,71,0,201,72,0,200,73,0,201,74,0,200,75,0,200,76,0,200,77,0,200,78,0,200,79,0,201,80,0,201,81,0,200,82,0,200,83,0,200,84,0,200,85,0,201,86,0,201,87,0,200,88,0,200*7A
$PAIRSAT,3,23,2,0,1221,3,0,1221,4,0,1200,5,0,200,7,0,1221,8,0,1221,9,0,1200,10,0,1200,11,0,1200,12,0,1200,13,0,1221,15,0,1221,19,0,1200,21,0,1200,24,0,1200,25,0,1200,26,0,1221,27,0,1200,30,0,1221,31,0,1200,33,0,1200,34,0,1200,36,0,1200*6A
$PAIRSAT,4,50,1,0,200,2,0,200,3,0,200,4,0,200,5,0,200,6,0,201,7,0,200,8,0,201,9,0,201,10,0,200,11,0,200,12,0,200,13,0,201,14,0,200,15,0,200,16,0,201,19,0,621,20,0,621,21,0,600,22,0,621,23,0,600,24,0,600,25,0,600,26,0,600,27,0,600,28,0,600,29,0,621,30,0,600,31,0,200,32,0,600,33,0,600,34,0,600,35,0,621,36,0,621,37,0,621,38,0,621,39,0,621,40,0,600,41,0,600,42,0,600,43,0,600,44,0,600,45,0,600,46,0,621,56,0,200,57,0,200,58,0,200,59,0,600,60,0,600,61,0,600*41
$PAIRDGP,9,5,10,12,15,18,23,24,25,32*5B
$GNGGA,113539.200,2500.8169103,N,12132.4680075,E,2,64,0.43,15.415,M,15.25,M,1,3335*42
$GNRMC,113539.200,A,2500.8169103,N,12132.4680075,E,0.00,294.89,260623,,,D,V*04
$GPHDT,,T*1B
$GNACCURACY,2.8*1C
$GNGGA,113539.300,2500.8169103,N,12132.4680195,E,2,64,0.43,15.406,M,15.25,M,1,3335*4E
$GNRMC,113539.300,A,2500.8169103,N,12132.4680195,E,0.00,294.89,260623,,,D,V*0A
$GPHDT,,T*1B
$GNACCURACY,2.8*1C
$GNGGA,113539.400,2500.8169223,N,12132.4680255,E,2,64,0.43,15.403,M,15.25,M,1,3335*42
$GNRMC,113539.400,A,2500.8169223,N,12132.4680255,E,0.00,294.89,260623,,,D,V*03
$GPHDT,,T*1B
$GNACCURACY,2.8*1C
$GNGGA,113539.500,2500.8169283,N,12132.4680315,E,2,64,0.43,15.399,M,15.25,M,1,3335*48
$GNRMC,113539.500,A,2500.8169283,N,12132.4680315,E,0.00,294.89,260623,,,D,V*0D
$GPHDT,,T*1B
$GNACCURACY,2.8*1C
$GNGGA,113539.600,2500.8169343,N,12132.4680315,E,2,64,0.43,15.393,M,15.25,M,1,3335*4C
$GNRMC,113539.600,A,2500.8169343,N,12132.4680315,E,0.00,294.89,260623,,,D,V*03
$GPHDT,,T*1B
$GNACCURACY,2.9*1D
$GNGGA,113539.700,2500.8169343,N,12132.4680375,E,2,64,0.43,15.388,M,15.25,M,0,3335*40
$GNRMC,113539.700,A,2500.8169343,N,12132.4680375,E,0.00,294.89,260623,,,D,V*04
$GPHDT,,T*1B
$GNACCURACY,2.9*1D
$GNGGA,113539.800,2500.8169403,N,12132.4680495,E,2,64,0.43,15.383,M,15.25,M,0,3335*4E
$GNRMC,113539.800,A,2500.8169403,N,12132.4680495,E,0.01,294.89,260623,,,D,V*00
$GPHDT,,T*1B
$GNACCURACY,2.9*1D
$GNGGA,113539.900,2500.8169403,N,12132.4680495,E,2,65,0.43,15.378,M,15.25,M,0,3335*4A
$GNRMC,113539.900,A,2500.8169403,N,12132.4680495,E,0.00,294.89,260623,,,D,V*00
$GPHDT,,T*1B
$GNACCURACY,2.9*1D
$GNGGA,113540.000,2500.8169343,N,12132.4680555,E,2,65,0.43,15.372,M,15.25,M,1,3335*48
$GNRMC,113540.000,A,2500.8169343,N,12132.4680555,E,0.00,294.89,260623,,,D,V*09
$GPHDT,,T*1B
$GNACCURACY,2.9*1D
$GNGGA,113540.100,2500.8169343,N,12132.4680615,E,2,65,0.43,15.365,M,15.25,M,1,3335*48
$GNRMC,113540.100,A,2500.8169343,N,12132.4680615,E,0.00,294.89,260623,,,D,V*0F
$GPHDT,,T*1B
$GNGSA,A,3,196,24,199,18,23,15,195,194,12,10,05,32,0.77,0.43,0.64,1*06
$GNGSA,A,3,80,73,85,86,71,69,,,,,,,0.77,0.43,0.64,2*01
$GNGSA,A,3,13,08,07,26,30,02,15,,,,,,0.77,0.43,0.64,3*0A
$GNGSA,A,3,38,08,13,39,16,06,46,19,09,20,36,35,0.77,0.43,0.64,4*09
$GNGSA,A,3,37,29,22,,,,,,,,,,0.77,0.43,0.64,4*0E
$GPGSV,4,1,15,196,75,068,32,24,69,038,18,199,60,167,38,18,56,238,45,1*63
$GPGSV,4,2,15,23,54,341,41,41,38,242,38,15,35,051,21,195,32,180,32,1*55
$GPGSV,4,3,15,194,32,137,35,12,23,138,17,10,21,320,30,05,16,122,25,1*53
$GPGSV,4,4,15,25,12,174,25,32,11,273,33,13,06,060,,1*54
$GPGSV,3,1,09,196,75,068,33,24,69,038,31,199,60,167,47,18,56,238,46,8*61
$GPGSV,3,2,09,23,54,341,40,194,32,137,30,195,32,180,28,10,21,320,29,8*6B
$GPGSV,3,3,09,32,11,273,31,8*51
$GLGSV,2,1,08,80,48,069,20,73,43,157,41,70,41,016,,85,32,241,20,1*73
$GLGSV,2,2,08,86,28,297,43,71,23,318,36,69,11,078,19,79,08,030,31,1*78
$GAGSV,3,1,09,13,53,227,40,08,45,029,21,07,45,308,43,26,34,303,40,7*73
$GAGSV,3,2,09,30,28,141,30,02,26,082,19,15,19,174,17,03,09,067,,7*72
$GAGSV,3,3,09,27,03,187,,7*42
$GAGSV,2,1,07,13,53,227,42,07,45,308,45,08,45,029,24,26,34,303,41,1*7A
$GAGSV,2,2,07,30,28,141,27,02,26,082,16,15,19,174,23,1*4E
$GBGSV,4,1,15,38,83,130,42,08,81,000,39,13,70,330,40,39,70,289,45,1*76
$GBGSV,4,2,15,16,66,263,42,06,65,259,40,46,61,103,38,19,51,350,41,1*7E
$GBGSV,4,3,15,09,50,242,42,20,42,068,29,36,39,183,30,35,20,265,31,1*7B
$GBGSV,4,4,15,37,20,045,23,29,16,209,28,22,13,304,29,1*47
$GBGSV,3,1,09,38,83,130,47,39,70,289,45,46,61,103,40,19,51,350,44,4*7F
$GBGSV,3,2,09,20,42,068,24,36,39,183,31,37,20,045,18,29,16,209,33,4*79
$GBGSV,3,3,09,22,13,304,28,4*45
$GNACCURACY,2.9*1D
$PAIRSAT,1,35,1,0,200,2,0,200,3,0,200,4,0,200,5,0,201,6,0,200,7,0,200,8,0,200,9,0,200,10,0,221,11,0,200,12,0,201,13,0,201,14,0,200,15,0,201,16,0,200,17,0,200,18,0,221,19,0,200,20,0,200,21,0,200,23,0,221,24,0,221,25,0,200,26,0,200,27,0,200,28,0,200,29,0,200,30,0,200,31,0,200,32,0,221,194,0,621,195,0,621,196,0,620,199,0,621*68
$PAIRSAT,2,24,65,0,200,66,0,200,67,0,200,68,0,200,69,0,201,70,0,201,71,0,201,72,0,200,73,0,201,74,0,200,75,0,200,76,0,200,77,0,200,78,0,200,79,0,201,80,0,201,81,0,200,82,0,200,83,0,200,84,0,200,85,0,201,86,0,201,87,0,200,88,0,200*7A
$PAIRSAT,3,23,2,0,1221,3,0,1221,4,0,1200,5,0,200,7,0,1221,8,0,1221,9,0,1200,10,0,1200,11,0,1200,12,0,1200,13,0,1221,15,0,1221,19,0,1200,21,0,1200,24,0,1200,25,0,1200,26,0,1221,27,0,1200,30,0,1221,31,0,1200,33,0,1200,34,0,1200,36,0,1200*6A
$PAIRSAT,4,50,1,0,200,2,0,200,3,0,200,4,0,200,5,0,200,6,0,201,7,0,200,8,0,201,9,0,201,10,0,200,11,0,200,12,0,200,13,0,201,14,0,200,15,0,200,16,0,201,19,0,621,20,0,621,21,0,600,22,0,621,23,0,600,24,0,600,25,0,600,26,0,600,27,0,600,28,0,600,29,0,621,30,0,600,31,0,200,32,0,600,33,0,600,34,0,600,35,0,621,36,0,621,37,0,621,38,0,621,39,0,621,40,0,600,41,0,600,42,0,600,43,0,600,44,0,600,45,0,600,46,0,621,56,0,200,57,0,200,58,0,200,59,0,600,60,0,600,61,0,600*41
$PAIRDGP,9,5,10,12,15,18,23,24,25,32*5B
$GNGGA,113540.200,2500.8167356,N,12132.4669904,E,4,65,0.43,16.174,M,15.25,M,1,3335*4E
$GNRMC,113540.200,A,2500.8167356,N,12132.4669904,E,0.00,294.89,260623,,,R,V*18
$GPHDT,,T*1B
$GNACCURACY,2.8*1C
$GNGGA,113540.300,2500.8167353,N,12132.4669895,E,4,65,0.43,16.178,M,15.25,M,1,3335*4F
$GNRMC,113540.300,A,2500.8167353,N,12132.4669895,E,0.00,294.89,260623,,,R,V*15
$GPHDT,,T*1B
$GNACCURACY,2.8*1C
$GNGGA,113540.400,2500.8167370,N,12132.4669917,E,4,65,0.43,16.179,M,15.25,M,1,3335*43
$GNRMC,113540.400,A,2500.8167370,N,12132.4669917,E,0.00,294.89,260623,,,R,V*18
$GPHDT,,T*1B
$GNACCURACY,2.8*1C
$GNGGA,113540.500,2500.8167315,N,12132.4669985,E,4,65,0.43,16.134,M,15.25,M,0,3335*42
$GNRMC,113540.500,A,2500.8167315,N,12132.4669985,E,0.00,294.89,260623,,,R,V*11
$GPHDT,,T*1B
$GNACCURACY,2.8*1C
$GNGGA,113540.600,2500.8167315,N,12132.4670000,E,4,65,0.43,16.117,M,15.25,M,0,3335*4C
$GNRMC,113540.600,A,2500.8167315,N,12132.4670000,E,0.00,294.89,260623,,,R,V*1E
$GPHDT,,T*1B
$GNACCURACY,2.8*1C
$GNGGA,113540.700,2500.8167314,N,12132.4669971,E,4,65,0.43,16.106,M,15.25,M,0,3335*4B
$GNRMC,113540.700,A,2500.8167314,N,12132.4669971,E,0.00,294.89,260623,,,R,V*19
$GPHDT,,T*1B
$GNACCURACY,2.8*1C
$GNGGA,113540.800,2500.8167302,N,12132.4670023,E,4,65,0.43,16.108,M,15.25,M,0,3335*4B
$GNRMC,113540.800,A,2500.8167302,N,12132.4670023,E,0.00,294.89,260623,,,R,V*17
$GPHDT,,T*1B
$GNACCURACY,2.8*1C
$GNGGA,113540.900,2500.8167317,N,12132.4670008,E,4,65,0.43,16.115,M,15.25,M,0,3335*4B
$GNRMC,113540.900,A,2500.8167317,N,12132.4670008,E,0.00,294.89,260623,,,R,V*1B
$GPHDT,,T*1B
$GNACCURACY,2.8*1C
$GNGGA,113541.000,2500.8167352,N,12132.4669880,E,4,65,0.43,16.165,M,15.25,M,1,3335*44
$GNRMC,113541.000,A,2500.8167352,N,12132.4669880,E,0.00,294.89,260623,,,R,V*12
$GPHDT,,T*1B
$GNACCURACY,2.8*1C
$GNGGA,113541.100,2500.8167352,N,12132.4669913,E,4,65,0.43,16.175,M,15.25,M,1,3335*4F
$GNRMC,113541.100,A,2500.8167352,N,12132.4669913,E,0.00,294.89,260623,,,R,V*18
$GPHDT,,T*1B
$GNGSA,A,3,196,24,199,18,23,15,195,194,12,10,05,32,0.77,0.43,0.64,1*06
$GNGSA,A,3,80,73,85,86,71,69,,,,,,,0.77,0.43,0.64,2*01
$GNGSA,A,3,13,08,07,26,30,02,15,,,,,,0.77,0.43,0.64,3*0A
$GNGSA,A,3,38,08,13,39,16,06,46,19,09,20,36,35,0.77,0.43,0.64,4*09
$GNGSA,A,3,37,29,22,,,,,,,,,,0.77,0.43,0.64,4*0E
$GPGSV,4,1,15,196,75,068,32,24,69,038,19,199,60,167,38,18,56,238,44,1*63
$GPGSV,4,2,15,23,54,341,41,41,38,242,38,15,35,051,22,195,32,180,33,1*57
$GPGSV,4,3,15,194,32,137,35,12,23,138,17,10,21,320,30,05,16,122,24,1*52
$GPGSV,4,4,15,25,12,174,24,32,11,273,33,13,06,060,,1*55
$GPGSV,3,1,09,196,75,068,33,24,69,038,31,199,60,167,47,18,56,238,46,8*61
$GPGSV,3,2,09,23,54,341,40,194,32,137,32,195,32,180,31,10,21,320,30,8*69
$GPGSV,3,3,09,32,11,273,31,8*51
$GLGSV,2,1,08,80,48,069,20,73,43,157,41,70,41,016,,85,32,241,21,1*72
$GLGSV,2,2,08,86,28,297,42,71,23,318,37,69,11,078,19,79,08,030,31,1*78
$GAGSV,3,1,09,13,53,227,40,08,45,029,20,07,45,308,43,26,34,303,40,7*72
$GAGSV,3,2,09,30,28,141,31,02,26,082,19,15,19,174,17,03,09,067,,7*73
$GAGSV,3,3,09,27,03,187,,7*42
$GAGSV,2,1,07,13,53,227,42,07,45,308,45,08,45,029,24,26,34,303,41,1*7A
$GAGSV,2,2,07,30,28,141,26,02,26,082,16,15,19,174,22,1*4E
$GBGSV,4,1,15,38,83,130,42,08,81,000,39,13,70,330,40,39,70,289,45,1*76
$GBGSV,4,2,15,16,66,263,42,06,65,259,41,46,61,103,39,19,51,350,41,1*7E
$GBGSV,4,3,15,09,50,242,42,20,42,068,27,36,39,183,30,35,20,265,32,1*76
$GBGSV,4,4,15,37,20,045,21,29,16,209,33,22,13,304,29,1*4F
$GBGSV,3,1,09,38,83,130,47,39,70,289,45,46,61,103,40,19,51,350,44,4*7F
$GBGSV,3,2,09,20,42,068,23,36,39,183,31,37,20,045,18,29,16,209,32,4*7F
$GBGSV,3,3,09,22,13,304,30,4*4C
$GNACCURACY,2.8*1C
$PAIRSAT,1,35,1,0,200,2,0,200,3,0,200,4,0,200,5,0,201,6,0,200,7,0,200,8,0,200,9,0,200,10,0,221,11,0,200,12,0,201,13,0,201,14,0,200,15,0,201,16,0,200,17,0,200,18,0,221,19,0,200,20,0,200,21,0,200,23,0,221,24,0,221,25,0,200,26,0,200,27,0,200,28,0,200,29,0,200,30,0,200,31,0,200,32,0,221,194,0,621,195,0,621,196,0,620,199,0,621*68
$PAIRSAT,2,24,65,0,200,66,0,200,67,0,200,68,0,200,69,0,201,70,0,201,71,0,201,72,0,200,73,0,201,74,0,200,75,0,200,76,0,200,77,0,200,78,0,200,79,0,201,80,0,201,81,0,200,82,0,200,83,0,200,84,0,200,85,0,201,86,0,201,87,0,200,88,0,200*7A
$PAIRSAT,3,23,2,0,1221,3,0,1221,4,0,1200,5,0,200,7,0,1221,8,0,1221,9,0,1200,10,0,1200,11,0,1200,12,0,1200,13,0,1221,15,0,1221,19,0,1200,21,0,1200,24,0,1200,25,0,1200,26,0,1221,27,0,1200,30,0,1221,31,0,1200,33,0,1200,34,0,1200,36,0,1200*6A
$PAIRSAT,4,50,1,0,200,2,0,200,3,0,200,4,0,200,5,0,200,6,0,201,7,0,200,8,0,201,9,0,201,10,0,200,11,0,200,12,0,200,13,0,201,14,0,200,15,0,200,16,0,201,19,0,621,20,0,621,21,0,600,22,0,621,23,0,600,24,0,600,25,0,600,26,0,600,27,0,600,28,0,600,29,0,621,30,0,600,31,0,200,32,0,600,33,0,600,34,0,600,35,0,621,36,0,621,37,0,621,38,0,621,39,0,621,40,0,600,41,0,600,42,0,600,43,0,600,44,0,600,45,0,600,46,0,621,56,0,200,57,0,200,58,0,200,59,0,600,60,0,600,61,0,600*41
$PAIRDGP,9,5,10,12,15,18,23,24,25,32*5B
$GNGGA,113541.200,2500.8167352,N,12132.4669929,E,4,65,0.43,16.169,M,15.25,M,1,3335*48
$GNRMC,113541.200,A,2500.8167352,N,12132.4669929,E,0.01,294.89,260623,,,R,V*13
$GPHDT,,T*1B
$GNACCURACY,2.8*1C
$GNGGA,113541.300,2500.8167366,N,12132.4669933,E,4,65,0.43,16.199,M,15.25,M,1,3335*4A
$GNRMC,113541.300,A,2500.8167366,N,12132.4669933,E,0.01,294.89,260623,,,R,V*1E
$GPHDT,,T*1B
$GNACCURACY,2.8*1C
$GNGGA,113541.400,2500.8167338,N,12132.4669896,E,4,65,0.43,16.174,M,15.25,M,1,3335*4B
$GNRMC,113541.400,A,2500.8167338,N,12132.4669896,E,0.01,294.89,260623,,,R,V*1C
$GPHDT,,T*1B
$GNACCURACY,2.8*1C
$GNGGA,113541.500,2500.8167355,N,12132.4669906,E,4,65,0.43,16.180,M,15.25,M,1,3335*42
$GNRMC,113541.500,A,2500.8167355,N,12132.4669906,E,0.01,294.89,260623,,,R,V*1E
$GPHDT,,T*1B
$GNACCURACY,2.8*1C
$GNGGA,113541.600,2500.8167370,N,12132.4669926,E,4,65,0.43,16.177,M,15.25,M,0,3335*4D
$GNRMC,113541.600,A,2500.8167370,N,12132.4669926,E,0.01,294.89,260623,,,R,V*18
$GPHDT,,T*1B
$GNACCURACY,2.8*1C
$GNGGA,113541.700,2500.8167367,N,12132.4669933,E,4,65,0.43,16.180,M,15.25,M,0,3335*46
$GNRMC,113541.700,A,2500.8167367,N,12132.4669933,E,0.01,294.89,260623,,,R,V*1B
$GPHDT,,T*1B
$GNACCURACY,2.8*1C
$GNGGA,113541.800,2500.8167369,N,12132.4669922,E,4,65,0.43,16.183,M,15.25,M,0,3335*44
$GNRMC,113541.800,A,2500.8167369,N,12132.4669922,E,0.01,294.89,260623,,,R,V*1A
$GPHDT,,T*1B
$GNACCURACY,2.8*1C
$GNGGA,113541.900,2500.8167361,N,12132.4669903,E,4,65,0.43,16.183,M,15.25,M,0,3335*4E
$GNRMC,113541.900,A,2500.8167361,N,12132.4669903,E,0.02,294.89,260623,,,R,V*13
$GPHDT,,T*1B
$GNACCURACY,2.8*1C
$GNGGA,113542.000,2500.8167302,N,12132.4669875,E,4,65,0.43,16.115,M,15.25,M,1,3335*4F
$GNRMC,113542.000,A,2500.8167302,N,12132.4669875,E,0.01,294.89,260623,,,R,V*1F
$GPHDT,,T*1B
$GNACCURACY,2.8*1C
$GNGGA,113542.100,2500.8167301,N,12132.4669874,E,4,65,0.43,16.115,M,15.25,M,1,3335*4C
$GNRMC,113542.100,A,2500.8167301,N,12132.4669874,E,0.01,294.89,260623,,,R,V*1C
$GPHDT,,T*1B
$GNGSA,A,3,196,24,199,18,23,15,195,194,12,10,05,32,0.77,0.43,0.64,1*06
$GNGSA,A,3,80,73,85,86,71,69,,,,,,,0.77,0.43,0.64,2*01
$GNGSA,A,3,13,08,07,26,30,02,15,,,,,,0.77,0.43,0.64,3*0A
$GNGSA,A,3,38,08,13,39,16,06,46,19,09,20,36,35,0.77,0.43,0.64,4*09
$GNGSA,A,3,37,29,22,,,,,,,,,,0.77,0.43,0.64,4*0E
$GPGSV,4,1,15,196,75,068,31,24,69,038,21,199,60,167,38,18,56,238,44,1*6B
$GPGSV,4,2,15,23,54,341,41,41,38,242,38,15,35,051,21,195,32,180,37,1*50
$GPGSV,4,3,15,194,32,137,35,12,23,138,18,10,21,320,32,05,16,122,24,1*5F
$GPGSV,4,4,15,25,12,174,23,32,11,273,33,13,06,060,,1*52
$GPGSV,3,1,09,196,75,068,33,24,69,038,31,199,60,167,47,18,56,238,46,8*61
$GPGSV,3,2,09,23,54,341,40,194,32,137,28,195,32,180,35,10,21,320,30,8*66
$GPGSV,3,3,09,32,11,273,31,8*51
$GLGSV,3,1,09,80,48,069,18,73,43,157,40,70,41,016,,85,32,241,17,1*7D
$GLGSV,3,2,09,86,28,297,42,71,23,318,37,69,11,078,19,79,08,030,29,1*71
$GLGSV,3,3,09,84,05,188,,1*49
$GAGSV,3,1,09,13,53,227,40,08,45,029,19,07,45,308,43,26,34,303,40,7*78
$GAGSV,3,2,09,30,28,141,29,02,26,082,17,15,19,174,17,03,09,067,,7*74
$GAGSV,3,3,09,27,03,187,,7*42
$GAGSV,2,1,07,13,53,227,40,07,45,308,45,08,45,029,24,26,34,303,41,1*78
$GAGSV,2,2,07,30,28,141,26,02,26,082,15,15,19,174,22,1*4D
$GBGSV,4,1,16,38,83,130,42,08,81,000,39,13,70,330,40,39,70,289,45,1*75
$GBGSV,4,2,16,16,66,263,42,06,65,259,41,46,61,103,38,19,51,350,41,1*7C
$GBGSV,4,3,16,09,50,242,42,20,42,068,27,36,39,183,28,35,20,265,31,1*7F
$GBGSV,4,4,16,37,20,045,21,29,16,209,29,22,13,304,30,44,03,308,,1*77
$GBGSV,3,1,09,38,83,130,47,39,70,289,45,46,61,103,40,19,51,350,44,4*7F
$GBGSV,3,2,09,20,42,068,24,36,39,183,32,37,20,045,18,29,16,209,32,4*7B
$GBGSV,3,3,09,22,13,304,29,4*44
$GNACCURACY,2.8*1C
$PAIRSAT,1,35,1,0,200,2,0,200,3,0,200,4,0,200,5,0,201,6,0,200,7,0,200,8,0,200,9,0,200,10,0,221,11,0,200,12,0,201,13,0,201,14,0,200,15,0,201,16,0,200,17,0,200,18,0,221,19,0,200,20,0,200,21,0,200,23,0,221,24,0,221,25,0,200,26,0,200,27,0,200,28,0,200,29,0,200,30,0,200,31,0,200,32,0,221,194,0,621,195,0,621,196,0,620,199,0,621*68
$PAIRSAT,2,24,65,0,200,66,0,200,67,0,200,68,0,200,69,0,201,70,0,201,71,0,201,72,0,200,73,0,201,74,0,200,75,0,200,76,0,200,77,0,200,78,0,200,79,0,201,80,0,201,81,0,200,82,0,200,83,0,200,84,0,200,85,0,201,86,0,201,87,0,200,88,0,200*7A
$PAIRSAT,3,23,2,0,1221,3,0,1221,4,0,1200,5,0,200,7,0,1221,8,0,1221,9,0,1200,10,0,1200,11,0,1200,12,0,1200,13,0,1221,15,0,1221,19,0,1200,21,0,1200,24,0,1200,25,0,1200,26,0,1221,27,0,1200,30,0,1221,31,0,1200,33,0,1200,34,0,1200,36,0,1200*6A
$PAIRSAT,4,50,1,0,200,2,0,200,3,0,200,4,0,200,5,0,200,6,0,201,7,0,200,8,0,201,9,0,201,10,0,200,11,0,200,12,0,200,13,0,201,14,0,200,15,0,200,16,0,201,19,0,621,20,0,621,21,0,600,22,0,621,23,0,600,24,0,600,25,0,600,26,0,600,27,0,600,28,0,600,29,0,621,30,0,600,31,0,200,32,0,600,33,0,600,34,0,600,35,0,621,36,0,621,37,0,621,38,0,621,39,0,621,40,0,600,41,0,600,42,0,600,43,0,600,44,0,600,45,0,600,46,0,621,56,0,200,57,0,200,58,0,200,59,0,600,60,0,600,61,0,600*41
$PAIRDGP,9,5,10,12,15,18,23,24,25,32*5B
$GNGGA,113542.200,2500.8167300,N,12132.4669911,E,4,65,0.43,16.134,M,15.25,M,1,3335*4F
$GNRMC,113542.200,A,2500.8167300,N,12132.4669911,E,0.01,294.89,260623,,,R,V*1C
$GPHDT,,T*1B
$GNACCURACY,2.8*1C
$GNGGA,113542.300,2500.8167297,N,12132.4670016,E,4,65,0.43,16.078,M,15.25,M,1,3335*4E
$GNRMC,113542.300,A,2500.8167297,N,12132.4670016,E,0.01,294.89,260623,,,R,V*14
$GPHDT,,T*1B
$GNACCURACY,2.8*1C
$GNGGA,113542.400,2500.8167287,N,12132.4670024,E,4,65,0.43,16.060,M,15.25,M,1,3335*40
$GNRMC,113542.400,A,2500.8167287,N,12132.4670024,E,0.01,294.89,260623,,,R,V*13
$GPHDT,,T*1B
$GNACCURACY,2.8*1C
$GNGGA,113542.500,2500.8167279,N,12132.4670026,E,4,65,0.43,16.068,M,15.25,M,0,3335*4B
$GNRMC,113542.500,A,2500.8167279,N,12132.4670026,E,0.01,294.89,260623,,,R,V*11
$GPHDT,,T*1B
$GNACCURACY,2.8*1C
$GNGGA,113542.600,2500.8167286,N,12132.4670054,E,4,65,0.43,16.064,M,15.25,M,0,3335*41
$GNRMC,113542.600,A,2500.8167286,N,12132.4670054,E,0.01,294.89,260623,,,R,V*17
$GPHDT,,T*1B
$GNACCURACY,2.8*1C
$GNGGA,113542.700,2500.8167272,N,12132.4669972,E,4,65,0.43,16.052,M,15.25,M,0,3335*4B
$GNRMC,113542.700,A,2500.8167272,N,12132.4669972,E,0.01,294.89,260623,,,R,V*18
$GPHDT,,T*1B
$GNACCURACY,2.8*1C
$GNGGA,113542.800,2500.8167302,N,12132.4669908,E,4,65,0.43,16.127,M,15.25,M,0,3335*4C
$GNRMC,113542.800,A,2500.8167302,N,12132.4669908,E,0.01,294.89,260623,,,R,V*1C
$GPHDT,,T*1B
$GNACCURACY,2.8*1C
$GNGGA,113542.900,2500.8167284,N,12132.4669910,E,4,65,0.43,16.125,M,15.25,M,0,3335*49
$GNRMC,113542.900,A,2500.8167284,N,12132.4669910,E,0.01,294.89,260623,,,R,V*1B
$GPHDT,,T*1B
$GNACCURACY,2.8*1C
$GNGGA,113543.000,2500.8167280,N,12132.4669892,E,4,65,0.43,16.155,M,15.25,M,1,3335*48
$GNRMC,113543.000,A,2500.8167280,N,12132.4669892,E,0.01,294.89,260623,,,R,V*1C
$GPHDT,,T*1B
$GNACCURACY,2.8*1C
$GNGGA,113543.100,2500.8167269,N,12132.4669927,E,4,65,0.43,16.143,M,15.25,M,1,3335*46
$GNRMC,113543.100,A,2500.8167269,N,12132.4669927,E,0.01,294.89,260623,,,R,V*15
$GPHDT,,T*1B
$GNGSA,A,3,196,24,199,18,23,15,195,194,12,10,05,32,0.77,0.43,0.64,1*06
$GNGSA,A,3,80,73,85,86,71,69,,,,,,,0.77,0.43,0.64,2*01
$GNGSA,A,3,13,07,08,26,30,02,15,,,,,,0.77,0.43,0.64,3*0A
$GNGSA,A,3,38,08,39,13,16,06,46,19,09,20,36,37,0.77,0.43,0.64,4*0B
$GNGSA,A,3,35,29,22,,,,,,,,,,0.77,0.43,0.64,4*0C
$GPGSV,4,1,15,196,75,068,31,24,69,038,23,199,60,167,38,18,56,238,44,1*69
$GPGSV,4,2,15,23,54,341,41,41,38,242,40,15,35,051,21,195,32,180,37,1*5F
$GPGSV,4,3,15,194,32,137,35,12,23,138,18,10,21,320,32,05,16,122,24,1*5F
$GPGSV,4,4,15,25,12,174,23,32,11,273,33,13,06,060,,1*52
$GPGSV,3,1,09,196,75,068,33,24,69,038,31,199,60,167,46,18,56,238,46,8*60
$GPGSV,3,2,09,23,54,341,40,194,32,137,27,195,32,180,35,10,21,320,29,8*61
$GPGSV,3,3,09,32,11,273,31,8*51
$GLGSV,3,1,09,80,48,069,18,73,43,157,40,70,41,016,,85,32,241,16,1*7C
$GLGSV,3,2,09,86,28,297,42,71,23,318,36,69,11,078,19,79,08,030,29,1*70
$GLGSV,3,3,09,84,05,188,,1*49
$GAGSV,3,1,10,13,53,227,40,07,45,308,43,08,45,029,17,26,34,303,40,7*7E
$GAGSV,3,2,10,30,29,141,28,02,26,082,14,15,19,174,18,03,09,067,,7*70
$GAGSV,3,3,10,27,03,187,,25,02,040,,7*7B
$GAGSV,2,1,07,13,53,227,40,07,45,308,45,08,45,029,23,26,34,303,41,1*7F
$GAGSV,2,2,07,30,29,141,27,02,26,082,15,15,19,174,23,1*4C
$GBGSV,4,1,15,38,83,130,43,08,81,000,39,39,70,289,45,13,70,330,40,1*77
$GBGSV,4,2,15,16,66,263,42,06,65,259,41,46,61,103,38,19,51,350,41,1*7F
$GBGSV,4,3,15,09,50,242,42,20,42,068,27,36,39,183,28,37,20,045,22,1*7C
$GBGSV,4,4,15,35,20,265,30,29,16,209,27,22,13,304,31,1*41
$GBGSV,3,1,09,38,83,130,47,39,70,289,44,46,61,103,40,19,51,350,44,4*7E
$GBGSV,3,2,09,20,42,068,24,36,39,183,32,37,20,045,19,29,16,209,32,4*7A
$GBGSV,3,3,09,22,13,304,29,4*44
$GNACCURACY,2.8*1C
$PAIRSAT,1,35,1,0,200,2,0,200,3,0,200,4,0,200,5,0,201,6,0,200,7,0,200,8,0,200,9,0,200,10,0,221,11,0,200,12,0,201,13,0,201,14,0,200,15,0,201,16,0,200,17,0,200,18,0,221,19,0,200,20,0,200,21,0,200,23,0,221,24,0,221,25,0,200,26,0,200,27,0,200,28,0,200,29,0,200,30,0,200,31,0,200,32,0,221,194,0,621,195,0,621,196,0,620,199,0,621*68
$PAIRSAT,2,24,65,0,200,66,0,200,67,0,200,68,0,200,69,0,201,70,0,201,71,0,201,72,0,200,73,0,201,74,0,200,75,0,200,76,0,200,77,0,200,78,0,200,79,0,201,80,0,201,81,0,200,82,0,200,83,0,200,84,0,200,85,0,201,86,0,201,87,0,200,88,0,200*7A
$PAIRSAT,3,23,2,0,1221,3,0,1221,4,0,1200,5,0,200,7,0,1221,8,0,1221,9,0,1200,10,0,1200,11,0,1200,12,0,1200,13,0,1221,15,0,1221,19,0,1200,21,0,1200,24,0,1200,25,0,1200,26,0,1221,27,0,1200,30,0,1221,31,0,1200,33,0,1200,34,0,1200,36,0,1200*6A
$PAIRSAT,4,50,1,0,200,2,0,200,3,0,200,4,0,200,5,0,200,6,0,201,7,0,200,8,0,201,9,0,201,10,0,200,11,0,200,12,0,200,13,0,201,14,0,200,15,0,200,16,0,201,19,0,621,20,0,621,21,0,600,22,0,621,23,0,600,24,0,600,25,0,600,26,0,600,27,0,600,28,0,600,29,0,621,30,0,600,31,0,200,32,0,600,33,0,600,34,0,600,35,0,621,36,0,621,37,0,621,38,0,621,39,0,621,40,0,600,41,0,600,42,0,600,43,0,600,44,0,600,45,0,600,46,0,621,56,0,200,57,0,200,58,0,200,59,0,600,60,0,600,61,0,600*41
$PAIRDGP,9,5,10,12,15,18,23,24,25,32*5B
$GNGGA,113543.200,2500.8167258,N,12132.4669886,E,4,65,0.43,16.144,M,15.25,M,1,3335*4A
$GNRMC,113543.200,A,2500.8167258,N,12132.4669886,E,0.01,294.89,260623,,,R,V*1E
$GPHDT,,T*1B
$GNACCURACY,2.8*1C
$GNGGA,113543.300,2500.8167262,N,12132.4670013,E,4,65,0.43,16.082,M,15.25,M,1,3335*45
$GNRMC,113543.300,A,2500.8167262,N,12132.4670013,E,0.01,294.89,260623,,,R,V*1A
$GPHDT,,T*1B
$GNACCURACY,2.8*1C
$GNGGA,113543.400,2500.8167243,N,12132.4669987,E,4,65,0.43,16.077,M,15.25,M,1,3335*47
$GNRMC,113543.400,A,2500.8167243,N,12132.4669987,E,0.01,294.89,260623,,,R,V*12
$GPHDT,,T*1B
$GNACCURACY,2.8*1C
$GNGGA,113543.500,2500.8167277,N,12132.4670041,E,4,65,0.43,16.078,M,15.25,M,1,3335*45
$GNRMC,113543.500,A,2500.8167277,N,12132.4670041,E,0.01,294.89,260623,,,R,V*1F
$GPHDT,,T*1B
$GNACCURACY,2.8*1C
$GNGGA,113543.600,2500.8167256,N,12132.4670022,E,4,65,0.43,16.062,M,15.25,M,1,3335*4B
$GNRMC,113543.600,A,2500.8167256,N,12132.4670022,E,0.01,294.89,260623,,,R,V*1A
$GPHDT,,T*1B
$GNACCURACY,2.8*1C
$GNGGA,113543.700,2500.8167254,N,12132.4670021,E,4,65,0.43,16.082,M,15.25,M,1,3335*45
$GNRMC,113543.700,A,2500.8167254,N,12132.4670021,E,0.01,294.89,260623,,,R,V*1A
$GPHDT,,T*1B
$GNACCURACY,2.8*1C
$GNGGA,113543.800,2500.8167262,N,12132.4670037,E,4,65,0.43,16.048,M,15.25,M,0,3335*4F
$GNRMC,113543.800,A,2500.8167262,N,12132.4670037,E,0.01,294.89,260623,,,R,V*17
$GPHDT,,T*1B
$GNACCURACY,2.8*1C
$GNGGA,113543.900,2500.8167255,N,12132.4670041,E,4,65,0.43,16.065,M,15.25,M,0,3335*44
$GNRMC,113543.900,A,2500.8167255,N,12132.4670041,E,0.01,294.89,260623,,,R,V*13
$GPHDT,,T*1B
$GNACCURACY,2.7*13
$GNGGA,113544.000,2500.8167267,N,12132.4670042,E,4,65,0.43,16.053,M,15.25,M,1,3335*4C
$GNRMC,113544.000,A,2500.8167267,N,12132.4670042,E,0.01,294.89,260623,,,R,V*1F
$GPHDT,,T*1B
$GNACCURACY,2.7*13
$GNGGA,113544.100,2500.8167251,N,12132.4670049,E,4,65,0.43,16.059,M,15.25,M,1,3335*49
$GNRMC,113544.100,A,2500.8167251,N,12132.4670049,E,0.01,294.89,260623,,,R,V*10
$GPHDT,,T*1B
$GNGSA,A,3,196,199,18,23,15,195,194,12,10,05,32,24,0.77,0.43,0.64,1*06
$GNGSA,A,3,80,73,85,86,71,69,,,,,,,0.77,0.43,0.64,2*01
$GNGSA,A,3,13,07,08,26,30,02,15,,,,,,0.77,0.43,0.64,3*0A
$GNGSA,A,3,38,08,39,13,16,06,46,19,09,20,36,37,0.77,0.43,0.64,4*0B
$GNGSA,A,3,35,29,22,,,,,,,,,,0.77,0.43,0.64,4*0C
$GPGSV,4,1,15,196,75,068,31,24,69,038,25,199,60,167,38,18,56,238,45,1*6E
$GPGSV,4,2,15,23,54,341,41,41,38,242,40,15,35,051,25,195,32,180,37,1*5B
$GPGSV,4,3,15,194,32,137,26,12,23,138,21,10,21,320,32,05,16,122,24,1*57
$GPGSV,4,4,15,25,12,174,22,32,11,273,32,13,06,060,,1*52
$GPGSV,3,1,09,196,75,068,32,24,69,038,30,199,60,167,46,18,56,238,46,8*60
$GPGSV,3,2,09,23,54,341,40,194,32,137,25,195,32,180,33,10,21,320,29,8*65
$GPGSV,3,3,09,32,11,273,31,8*51
$GLGSV,3,1,09,80,48,069,18,73,43,157,40,70,41,016,,85,32,241,17,1*7D
$GLGSV,3,2,09,86,28,297,43,71,23,318,36,69,11,078,21,79,08,030,30,1*72
$GLGSV,3,3,09,84,05,188,,1*49
$GAGSV,3,1,10,13,53,227,40,07,45,308,43,08,45,029,24,26,34,303,39,7*70
$GAGSV,3,2,10,30,29,141,25,02,26,082,16,15,19,174,18,03,09,067,,7*7F
$GAGSV,3,3,10,27,03,187,,25,02,040,,7*7B
$GAGSV,2,1,07,13,53,227,42,07,45,308,45,08,45,029,22,26,34,303,41,1*7C
$GAGSV,2,2,07,30,29,141,22,02,26,082,15,15,19,174,23,1*49
$GBGSV,4,1,15,38,83,130,43,08,81,000,39,39,70,289,45,13,70,330,40,1*77
$GBGSV,4,2,15,16,66,263,43,06,65,259,40,46,61,103,39,19,51,350,41,1*7E
$GBGSV,4,3,15,09,50,242,42,20,42,068,26,36,39,183,30,37,20,045,26,1*70
$GBGSV,4,4,15,35,20,265,31,29,16,209,32,22,13,304,32,1*47
$GBGSV,3,1,09,38,83,130,47,39,70,289,44,46,61,103,40,19,51,350,44,4*7E
$GBGSV,3,2,09,20,42,068,22,36,39,183,27,37,20,045,18,29,16,209,33,4*78
$GBGSV,3,3,09,22,13,304,20,4*4D
$GNACCURACY,2.7*13
$PAIRSAT,1,35,1,0,200,2,0,200,3,0,200,4,0,200,5,0,201,6,0,200,7,0,200,8,0,200,9,0,200,10,0,221,11,0,200,12,0,201,13,0,201,14,0,200,15,0,201,16,0,200,17,0,200,18,0,221,19,0,200,20,0,200,21,0,200,23,0,221,24,0,221,25,0,200,26,0,200,27,0,200,28,0,200,29,0,200,30,0,200,31,0,200,32,0,221,194,0,621,195,0,621,196,0,620,199,0,621*68
$PAIRSAT,2,24,65,0,200,66,0,200,67,0,200,68,0,200,69,0,201,70,0,201,71,0,201,72,0,200,73,0,201,74,0,200,75,0,200,76,0,200,77,0,200,78,0,200,79,0,201,80,0,201,81,0,200,82,0,200,83,0,200,84,0,200,85,0,201,86,0,201,87,0,200,88,0,200*7A
$PAIRSAT,3,23,2,0,1221,3,0,1221,4,0,1200,5,0,200,7,0,1221,8,0,1221,9,0,1200,10,0,1200,11,0,1200,12,0,1200,13,0,1221,15,0,1221,19,0,1200,21,0,1200,24,0,1200,25,0,1200,26,0,1221,27,0,1200,30,0,1221,31,0,1200,33,0,1200,34,0,1200,36,0,1200*6A
$PAIRSAT,4,50,1,0,200,2,0,200,3,0,200,4,0,200,5,0,200,6,0,201,7,0,200,8,0,201,9,0,201,10,0,200,11,0,200,12,0,200,13,0,201,14,0,200,15,0,200,16,0,201,19,0,621,20,0,621,21,0,600,22,0,621,23,0,600,24,0,600,25,0,600,26,0,600,27,0,600,28,0,600,29,0,621,30,0,600,31,0,200,32,0,600,33,0,600,34,0,600,35,0,621,36,0,621,37,0,621,38,0,621,39,0,621,40,0,600,41,0,600,42,0,600,43,0,600,44,0,600,45,0,600,46,0,621,56,0,200,57,0,200,58,0,200,59,0,600,60,0,600,61,0,600*41
$PAIRDGP,9,5,10,12,15,18,23,24,25,32*5B
$GNGGA,113544.200,2500.8167242,N,12132.4670068,E,4,64,0.43,16.049,M,15.25,M,1,3335*4B
$GNRMC,113544.200,A,2500.8167242,N,12132.4670068,E,0.01,294.89,260623,,,R,V*12
$GPHDT,,T*1B
$GNACCURACY,2.7*13
$GNGGA,113544.300,2500.8167267,N,12132.4670075,E,4,64,0.43,16.046,M,15.25,M,1,3335*4E
$GNRMC,113544.300,A,2500.8167267,N,12132.4670075,E,0.01,294.89,260623,,,R,V*18
$GPHDT,,T*1B
$GNACCURACY,2.7*13
$GNGGA,113544.400,2500.8167274,N,12132.4670092,E,4,65,0.43,16.055,M,15.25,M,1,3335*41
$GNRMC,113544.400,A,2500.8167274,N,12132.4670092,E,0.01,294.89,260623,,,R,V*14
$GPHDT,,T*1B
$GNACCURACY,2.7*13
$GNGGA,113544.500,2500.8167244,N,12132.4670030,E,4,65,0.43,16.059,M,15.25,M,1,3335*47
$GNRMC,113544.500,A,2500.8167244,N,12132.4670030,E,0.01,294.89,260623,,,R,V*1E
$GPHDT,,T*1B
$GNACCURACY,2.7*13
$GNGGA,113544.600,2500.8167267,N,12132.4670145,E,4,64,0.43,16.039,M,15.25,M,1,3335*41
$GNRMC,113544.600,A,2500.8167267,N,12132.4670145,E,0.01,294.89,260623,,,R,V*1F
$GPHDT,,T*1B
$GNACCURACY,2.7*13
$GNGGA,113544.700,2500.8167252,N,12132.4670056,E,4,65,0.43,16.025,M,15.25,M,1,3335*49
$GNRMC,113544.700,A,2500.8167252,N,12132.4670056,E,0.01,294.89,260623,,,R,V*1B
$GPHDT,,T*1B
$GNACCURACY,2.7*13
$GNGGA,113544.800,2500.8167232,N,12132.4670084,E,4,65,0.43,16.038,M,15.25,M,0,3335*42
$GNRMC,113544.800,A,2500.8167232,N,12132.4670084,E,0.01,294.89,260623,,,R,V*1D
$GPHDT,,T*1B
$GNACCURACY,2.7*13
$GNGGA,113544.900,2500.8167235,N,12132.4670064,E,4,65,0.43,16.025,M,15.25,M,0,3335*46
$GNRMC,113544.900,A,2500.8167235,N,12132.4670064,E,0.01,294.89,260623,,,R,V*15
$GPHDT,,T*1B
$GNACCURACY,2.7*13
$GNGGA,113545.000,2500.8167236,N,12132.4669969,E,4,65,0.43,16.069,M,15.25,M,1,3335*48
$GNRMC,113545.000,A,2500.8167236,N,12132.4669969,E,0.01,294.89,260623,,,R,V*12
$GPHDT,,T*1B
$GNACCURACY,2.7*13
$GNGGA,113545.100,2500.8167253,N,12132.4670028,E,4,65,0.43,16.072,M,15.25,M,1,3335*44
$GNRMC,113545.100,A,2500.8167253,N,12132.4670028,E,0.01,294.89,260623,,,R,V*14
$GPHDT,,T*1B
$GNGSA,A,3,196,24,199,18,23,15,195,194,12,10,05,32,0.77,0.43,0.64,1*06
$GNGSA,A,3,80,73,85,86,71,69,,,,,,,0.77,0.43,0.64,2*01
$GNGSA,A,3,13,07,08,26,30,02,15,,,,,,0.77,0.43,0.64,3*0A
$GNGSA,A,3,38,08,39,13,16,06,46,19,09,20,36,37,0.77,0.43,0.64,4*0B
$GNGSA,A,3,35,29,22,,,,,,,,,,0.77,0.43,0.64,4*0C
$GPGSV,4,1,15,196,75,068,32,24,69,038,28,199,60,167,38,18,56,238,46,1*63
$GPGSV,4,2,15,23,54,341,41,41,38,242,38,15,35,051,22,195,32,180,37,1*53
$GPGSV,4,3,15,194,32,137,35,12,23,138,21,10,21,320,31,05,16,122,22,1*50
$GPGSV,4,4,15,25,12,174,25,32,11,273,32,13,06,060,,1*55
$GPGSV,3,1,09,196,75,068,31,24,69,038,32,199,60,167,46,18,56,238,47,8*60
$GPGSV,3,2,09,23,54,341,40,194,32,137,33,195,32,180,32,10,21,320,29,8*63
$GPGSV,3,3,09,32,11,273,31,8*51
$GLGSV,3,1,09,80,48,069,16,73,43,157,41,70,41,016,,85,32,241,18,1*7D
$GLGSV,3,2,09,86,28,297,43,71,23,319,36,69,11,078,22,79,08,029,30,1*78
$GLGSV,3,3,09,84,05,188,,1*49
$GAGSV,3,1,10,13,53,227,41,07,45,308,43,08,45,029,21,26,34,303,40,7*7A
$GAGSV,3,2,10,30,29,141,29,02,26,082,16,15,19,174,20,03,09,067,,7*78
$GAGSV,3,3,10,27,03,187,,25,02,040,,7*7B
$GAGSV,2,1,07,13,53,227,43,07,45,308,45,08,45,029,23,26,34,303,42,1*7F
$GAGSV,2,2,07,30,29,141,25,02,26,082,14,15,19,174,25,1*49
$GBGSV,4,1,15,38,83,130,43,08,81,000,39,39,70,289,45,13,70,330,40,1*77
$GBGSV,4,2,15,16,66,263,43,06,65,259,40,46,61,103,36,19,51,350,41,1*71
$GBGSV,4,3,15,09,50,242,42,20,42,068,26,36,39,183,28,37,20,045,26,1*79
$GBGSV,4,4,15,35,20,265,30,29,16,209,31,22,13,304,30,1*47
$GBGSV,3,1,09,38,83,130,47,39,70,289,43,46,61,103,35,19,51,350,43,4*7C
$GBGSV,3,2,09,20,42,068,20,36,39,183,26,37,20,045,17,29,16,209,34,4*73
$GBGSV,3,3,09,22,13,304,17,4*49
$GNACCURACY,2.7*13
$PAIRSAT,1,35,1,0,200,2,0,200,3,0,200,4,0,200,5,0,201,6,0,200,7,0,200,8,0,200,9,0,200,10,0,221,11,0,200,12,0,201,13,0,201,14,0,200,15,0,201,16,0,200,17,0,200,18,0,221,19,0,200,20,0,200,21,0,200,23,0,221,24,0,221,25,0,200,26,0,200,27,0,200,28,0,200,29,0,200,30,0,200,31,0,200,32,0,221,194,0,621,195,0,621,196,0,620,199,0,621*68
$PAIRSAT,2,24,65,0,200,66,0,200,67,0,200,68,0,200,69,0,201,70,0,201,71,0,201,72,0,200,73,0,201,74,0,200,75,0,200,76,0,200,77,0,200,78,0,200,79,0,201,80,0,201,81,0,200,82,0,200,83,0,200,84,0,200,85,0,201,86,0,201,87,0,200,88,0,200*7A
$PAIRSAT,3,23,2,0,1221,3,0,1221,4,0,1200,5,0,200,7,0,1221,8,0,1221,9,0,1200,10,0,1200,11,0,1200,12,0,1200,13,0,1221,15,0,1221,19,0,1200,21,0,1200,24,0,1200,25,0,1200,26,0,1221,27,0,1200,30,0,1221,31,0,1200,33,0,1200,34,0,1200,36,0,1200*6A
$PAIRSAT,4,50,1,0,200,2,0,200,3,0,200,4,0,200,5,0,200,6,0,201,7,0,200,8,0,201,9,0,201,10,0,200,11,0,200,12,0,200,13,0,201,14,0,200,15,0,200,16,0,201,19,0,621,20,0,621,21,0,600,22,0,621,23,0,600,24,0,600,25,0,600,26,0,600,27,0,600,28,0,600,29,0,621,30,0,600,31,0,200,32,0,600,33,0,600,34,0,600,35,0,621,36,0,621,37,0,621,38,0,621,39,0,621,40,0,600,41,0,600,42,0,600,43,0,600,44,0,600,45,0,600,46,0,621,56,0,200,57,0,200,58,0,200,59,0,600,60,0,600,61,0,600*41
$PAIRDGP,9,5,10,12,15,18,23,24,25,32*5B
$GNGGA,113545.200,2500.8167239,N,12132.4669977,E,4,65,0.43,16.088,M,15.25,M,1,3335*45
$GNRMC,113545.200,A,2500.8167239,N,12132.4669977,E,0.01,294.89,260623,,,R,V*10
$GPHDT,,T*1B
$GNACCURACY,2.7*13
$GNGGA,113545.300,2500.8167280,N,12132.4669995,E,4,65,0.43,16.058,M,15.2