$FW : RTK35X,V1.1X0314AS,Lib20210517,1*54
$Tool : LOCOSYS , GNSS Firebird , v1.0.0.19*39
$---------------------------------------------------*2D
$GNACCURACY,2.9*1D
$GNGGA,113517.900,2500.8167435,N,12132.4669921,E,4,59,0.47,16.212,M,15.25,M,5,3335*4E
$GNRMC,113517.900,A,2500.8167435,N,12132.4669921,E,0.03,294.89,260623,,,R,V*17
$GPHDT,,T*1B
$GNACCURACY,2.9*1D
$GNGGA,113518.000,2500.8167415,N,12132.4669954,E,4,60,0.45,16.194,M,15.25,M,6,3335*4E
$GNRMC,113518.000,A,2500.8167415,N,12132.4669954,E,0.02,294.89,260623,,,R,V*10
$GPHDT,,T*1B
$GNACCURACY,2.9*1D
$GNGGA,113518.100,2500.8167403,N,12132.4669927,E,4,61,0.45,16.167,M,15.25,M,6,3335*41
$GNRMC,113518.100,A,2500.8167403,N,12132.4669927,E,0.03,294.89,260623,,,R,V*13
$GPHDT,,T*1B
$GNGSA,A,3,196,24,199,18,23,15,195,194,10,05,32,,0.70,0.45,0.54,1*07
$GNGSA,A,3,73,85,86,71,69,,,,,,,,0.70,0.45,0.54,2*0B
$GNGSA,A,3,13,08,07,26,30,02,15,,,,,,0.70,0.45,0.54,3*08
$GNGSA,A,3,38,08,39,13,16,06,46,19,09,36,35,37,0.70,0.45,0.54,4*0D
$GNGSA,A,3,29,22,,,,,,,,,,,0.70,0.45,0.54,4*08
$GPGSV,4,1,15,196,75,067,30,24,70,038,28,199,60,167,36,18,56,239,41,1*6E
$GPGSV,4,2,15,23,54,341,41,41,38,242,27,15,35,051,24,195,32,180,33,1*5F
$GPGSV,4,3,15,194,32,138,34,12,23,138,17,10,21,320,22,05,16,122,26,1*5D
$GPGSV,4,4,15,25,12,174,19,32,11,272,32,13,06,059,,1*51
$GPGSV,3,1,09,196,75,067,31,24,70,038,34,199,60,167,45,18,56,239,43,8*67
$GPGSV,3,2,09,23,54,341,42,194,32,138,33,195,32,180,29,10,21,320,34,8*68
$GPGSV,3,3,09,32,11,272,28,8*58
$GLGSV,2,1,08,80,48,069,18,73,43,157,36,70,41,016,,85,32,241,18,1*73
$GLGSV,2,2,08,86,28,297,44,71,23,318,35,69,11,078,13,79,08,030,26,1*70
$GAGSV,2,1,08,13,53,227,39,08,45,029,29,07,45,307,42,26,33,303,37,7*7C
$GAGSV,2,2,08,30,28,141,29,02,26,082,18,15,20,174,18,03,09,067,,7*7E
$GAGSV,2,1,06,13,53,227,40,07,45,307,45,08,45,029,24,26,33,303,44,1*74
$GAGSV,2,2,06,30,28,141,32,15,20,174,25,1*7C
$GBGSV,4,1,15,38,83,130,42,08,81,001,39,39,70,288,46,13,70,330,41,1*74
$GBGSV,4,2,15,16,66,263,43,06,65,259,40,46,61,104,38,19,51,350,38,1*76
$GBGSV,4,3,15,09,50,242,36,20,42,068,,36,39,183,29,35,20,265,34,1*7E
$GBGSV,4,4,15,37,20,045,26,29,16,209,36,22,13,304,35,1*40
$GBGSV,3,1,09,38,83,130,47,39,70,288,45,46,61,104,41,19,51,350,44,4*78
$GBGSV,3,2,09,36,39,183,29,35,20,265,18,37,20,045,15,29,16,209,30,4*7E
$GBGSV,3,3,09,22,13,304,19,4*47
$GNACCURACY,2.9*1D
$PAIRSAT,1,35,1,0,200,2,0,200,3,0,200,4,0,200,5,0,201,6,0,200,7,0,200,8,0,200,9,0,200,10,0,221,11,0,200,12,0,201,13,0,201,14,0,200,15,0,201,16,0,200,17,0,200,18,0,221,19,0,200,20,0,200,21,0,200,23,0,221,24,0,221,25,0,200,26,0,200,27,0,200,28,0,200,29,0,200,30,0,200,31,0,200,32,0,221,194,0,621,195,0,621,196,0,620,199,0,621*68
$PAIRSAT,2,24,65,0,200,66,0,200,67,0,200,68,0,200,69,0,201,70,0,201,71,0,201,72,0,200,73,0,201,74,0,200,75,0,200,76,0,200,77,0,200,78,0,200,79,0,201,80,0,201,81,0,200,82,0,200,83,0,200,84,0,200,85,0,201,86,0,201,87,0,200,88,0,200*7A
$PAIRSAT,3,23,2,0,1221,3,0,1221,4,0,1200,5,0,200,7,0,1221,8,0,1221,9,0,1200,10,0,1200,11,0,1200,12,0,1200,13,0,1221,15,0,1221,19,0,1200,21,0,1200,24,0,1200,25,0,1200,26,0,1221,27,0,1200,30,0,1221,31,0,1200,33,0,1200,34,0,1200,36,0,1200*6A
$PAIRSAT,4,50,1,0,200,2,0,200,3,0,200,4,0,200,5,0,200,6,0,201,7,0,200,8,0,201,9,0,201,10,0,200,11,0,200,12,0,200,13,0,201,14,0,200,15,0,200,16,0,201,19,0,621,20,0,621,21,0,600,22,0,621,23,0,600,24,0,600,25,0,600,26,0,600,27,0,600,28,0,600,29,0,621,30,0,600,31,0,200,32,0,600,33,0,600,34,0,600,35,0,621,36,0,621,37,0,621,38,0,621,39,0,621,40,0,600,41,0,600,42,0,600,43,0,600,44,0,600,45,0,600,46,0,621,56,0,200,57,0,200,58,0,200,59,0,600,60,0,600,61,0,600*41
$PAIRDGP,9,5,10,12,15,18,23,24,25,32*5B
$GNGGA,113518.200,2500.8167395,N,12132.4670001,E,4,61,0.45,16.178,M,15.25,M,6,3335*41
$GNRMC,113518.200,A,2500.8167395,N,12132.4670001,E,0.03,294.89,260623,,,R,V*1D
$GPHDT,,T*1B
$GNACCURACY,2.9*1D
$GNGGA,113518.300,2500.8167421,N,12132.4669974,E,4,61,0.45,16.183,M,15.25,M,6,3335*4F
$GNRMC,113518.300,A,2500.8167421,N,12132.4669974,E,0.03,294.89,260623,,,R,V*17
$GPHDT,,T*1B
$GNACCURACY,2.9*1D
$GNGGA,113518.400,2500.8167389,N,12132.4669925,E,4,61,0.45,16.239,M,15.25,M,6,3335*4B
$GNRMC,113518.400,A,2500.8167389,N,12132.4669925,E,0.03,294.89,260623,,,R,V*11
$GPHDT,,T*1B
$GNACCURACY,2.9*1D
$GNGGA,113518.500,2500.8167405,N,12132.4669903,E,4,61,0.45,16.233,M,15.25,M,6,3335*47
$GNRMC,113518.500,A,2500.8167405,N,12132.4669903,E,0.04,294.89,260623,,,R,V*10
$GPHDT,,T*1B
$GNACCURACY,2.9*1D
$GNGGA,113518.600,2500.8167381,N,12132.4669939,E,4,61,0.45,16.235,M,15.25,M,6,3335*40
$GNRMC,113518.600,A,2500.8167381,N,12132.4669939,E,0.04,294.89,260623,,,R,V*11
$GPHDT,,T*1B
$GNACCURACY,2.9*1D
$GNGGA,113518.700,2500.8167409,N,12132.4669986,E,4,61,0.45,16.231,M,15.25,M,6,3335*46
$GNRMC,113518.700,A,2500.8167409,N,12132.4669986,E,0.04,294.89,260623,,,R,V*13
$GPHDT,,T*1B
$GNACCURACY,2.9*1D
$GNGGA,113518.800,2500.8167393,N,12132.4669982,E,4,61,0.45,16.243,M,15.25,M,6,3335*4C
$GNRMC,113518.800,A,2500.8167393,N,12132.4669982,E,0.03,294.89,260623,,,R,V*1B
$GPHDT,,T*1B
$GNACCURACY,2.9*1D
$GNGGA,113518.900,2500.8167393,N,12132.4669903,E,4,61,0.45,16.236,M,15.25,M,3,3335*43
$GNRMC,113518.900,A,2500.8167393,N,12132.4669903,E,0.04,294.89,260623,,,R,V*14
$GPHDT,,T*1B
$GNACCURACY,2.9*1D
$GNGGA,113519.000,2500.8167444,N,12132.4670013,E,4,61,0.44,16.264,M,15.25,M,4,3335*47
$GNRMC,113519.000,A,2500.8167444,N,12132.4670013,E,0.04,294.89,260623,,,R,V*11
$GPHDT,,T*1B
$GNACCURACY,2.9*1D
$GNGGA,113519.100,2500.8167390,N,12132.4669921,E,4,61,0.44,16.228,M,15.25,M,4,3335*40
$GNRMC,113519.100,A,2500.8167390,N,12132.4669921,E,0.04,294.89,260623,,,R,V*1E
$GPHDT,,T*1B
$GNGSA,A,3,196,24,199,18,23,15,195,194,10,05,32,,0.70,0.44,0.54,1*06
$GNGSA,A,3,80,73,85,86,71,69,,,,,,,0.70,0.44,0.54,2*02
$GNGSA,A,3,13,08,07,26,30,02,15,,,,,,0.70,0.44,0.54,3*09
$GNGSA,A,3,38,08,39,13,16,06,46,19,09,20,36,35,0.70,0.44,0.54,4*0A
$GNGSA,A,3,37,29,22,,,,,,,,,,0.70,0.44,0.54,4*0D
$GPGSV,4,1,15,196,75,067,30,24,70,038,27,199,60,167,37,18,56,239,41,1*60
$GPGSV,4,2,15,23,54,341,41,41,38,242,27,15,35,051,23,195,32,180,30,1*5B
$GPGSV,4,3,15,194,32,138,35,12,23,138,18,10,21,320,22,05,16,122,27,1*52
$GPGSV,4,4,15,25,12,174,19,32,11,272,31,13,06,059,,1*52
$GPGSV,2,1,08,196,75,067,32,24,70,038,34,199,60,167,46,18,56,239,43,8*67
$GPGSV,2,2,08,23,54,341,42,194,32,138,33,10,21,320,34,32,11,272,29,8*5B
$GLGSV,2,1,08,80,48,069,17,73,43,157,39,70,41,016,,85,32,241,19,1*72
$GLGSV,2,2,08,86,28,297,44,71,23,318,35,69,11,078,16,79,08,030,25,1*76
$GAGSV,2,1,08,13,53,227,38,08,45,029,28,07,45,307,42,26,33,303,36,7*7D
$GAGSV,2,2,08,30,28,141,31,02,26,082,19,15,20,174,18,03,09,067,,7*76
$GAGSV,2,1,06,13,53,227,40,07,45,307,45,08,45,029,24,26,33,303,44,1*74
$GAGSV,2,2,06,30,28,141,32,15,20,174,24,1*7D
$GBGSV,4,1,15,38,83,130,42,08,81,001,39,39,70,288,46,13,70,330,41,1*74
$GBGSV,4,2,15,16,66,263,43,06,65,259,40,46,61,104,38,19,51,350,38,1*76
$GBGSV,4,3,15,09,50,242,36,20,42,068,27,36,39,183,29,35,20,265,34,1*7B
$GBGSV,4,4,15,37,20,045,26,29,16,209,38,22,13,304,35,1*4E
$GBGSV,2,1,08,38,83,130,47,39,70,288,45,46,61,104,41,19,51,350,44,4*78
$GBGSV,2,2,08,36,39,183,28,37,20,045,14,29,16,209,32,22,13,304,19,4*7D
$GNACCURACY,2.9*1D
$PAIRSAT,1,35,1,0,200,2,0,200,3,0,200,4,0,200,5,0,201,6,0,200,7,0,200,8,0,200,9,0,200,10,0,221,11,0,200,12,0,201,13,0,201,14,0,200,15,0,201,16,0,200,17,0,200,18,0,221,19,0,200,20,0,200,21,0,200,23,0,221,24,0,221,25,0,200,26,0,200,27,0,200,28,0,200,29,0,200,30,0,200,31,0,200,32,0,221,194,0,621,195,0,621,196,0,620,199,0,621*68
$PAIRSAT,2,24,65,0,200,66,0,200,67,0,200,68,0,200,69,0,201,70,0,201,71,0,201,72,0,200,73,0,201,74,0,200,75,0,200,76,0,200,77,0,200,78,0,200,79,0,201,80,0,201,81,0,200,82,0,200,83,0,200,84,0,200,85,0,201,86,0,201,87,0,200,88,0,200*7A
$PAIRSAT,3,23,2,0,1221,3,0,1221,4,0,1200,5,0,200,7,0,1221,8,0,1221,9,0,1200,10,0,1200,11,0,1200,12,0,1200,13,0,1221,15,0,1221,19,0,1200,21,0,1200,24,0,1200,25,0,1200,26,0,1221,27,0,1200,30,0,1221,31,0,1200,33,0,1200,34,0,1200,36,0,1200*6A
$PAIRSAT,4,50,1,0,200,2,0,200,3,0,200,4,0,200,5,0,200,6,0,201,7,0,200,8,0,201,9,0,201,10,0,200,11,0,200,12,0,200,13,0,201,14,0,200,15,0,200,16,0,201,19,0,621,20,0,621,21,0,600,22,0,621,23,0,600,24,0,600,25,0,600,26,0,600,27,0,600,28,0,600,29,0,621,30,0,600,31,0,200,32,0,600,33,0,600,34,0,600,35,0,621,36,0,621,37,0,621,38,0,621,39,0,621,40,0,600,41,0,600,42,0,600,43,0,600,44,0,600,45,0,600,46,0,621,56,0,200,57,0,200,58,0,200,59,0,600,60,0,600,61,0,600*41
$PAIRDGP,9,5,10,12,15,18,23,24,25,32*5B
$GNGGA,113519.200,2500.8167394,N,12132.4669969,E,4,61,0.44,16.205,M,15.25,M,1,3335*41
$GNRMC,113519.200,A,2500.8167394,N,12132.4669969,E,0.04,294.89,260623,,,R,V*15
$GPHDT,,T*1B
$GNACCURACY,2.9*1D
$GNGGA,113519.300,2500.8167358,N,12132.4669960,E,4,62,0.45,16.206,M,15.25,M,1,3335*48
$GNRMC,113519.300,A,2500.8167358,N,12132.4669960,E,0.03,294.89,260623,,,R,V*1A
$GPHDT,,T*1B
$GNACCURACY,2.8*1C
$GNGGA,113519.400,2500.8167283,N,12132.4670177,E,4,63,0.43,16.076,M,15.25,M,1,3335*4C
$GNRMC,113519.400,A,2500.8167283,N,12132.4670177,E,0.03,294.89,260623,,,R,V*1C
$GPHDT,,T*1B
$GNACCURACY,2.8*1C
$GNGGA,113519.500,2500.8167298,N,12132.4670151,E,4,63,0.43,16.048,M,15.25,M,1,3335*4E
$GNRMC,113519.500,A,2500.8167298,N,12132.4670151,E,0.02,294.89,260623,,,R,V*12
$GPHDT,,T*1B
$GNACCURACY,2.8*1C
$GNGGA,113519.600,2500.8167258,N,12132.4670144,E,4,62,0.45,15.998,M,15.25,M,0,3335*44
$GNRMC,113519.600,A,2500.8167258,N,12132.4670144,E,0.02,294.89,260623,,,R,V*19
$GPHDT,,T*1B
$GNACCURACY,2.8*1C
$GNGGA,113519.700,2500.8167268,N,12132.4670176,E,4,62,0.45,15.995,M,15.25,M,0,3335*4A
$GNRMC,113519.700,A,2500.8167268,N,12132.4670176,E,0.02,294.89,260623,,,R,V*1A
$GPHDT,,T*1B
$GNACCURACY,2.8*1C
$GNGGA,113519.800,2500.8167251,N,12132.4670129,E,4,61,0.45,16.023,M,15.25,M,0,3335*41
$GNRMC,113519.800,A,2500.8167251,N,12132.4670129,E,0.03,294.89,260623,,,R,V*14
$GPHDT,,T*1B
$GNACCURACY,2.8*1C
$GNGGA,113519.900,2500.8167288,N,12132.4670161,E,4,61,0.45,16.003,M,15.25,M,0,3335*4A
$GNRMC,113519.900,A,2500.8167288,N,12132.4670161,E,0.03,294.89,260623,,,R,V*1D
$GPHDT,,T*1B
$GNACCURACY,2.8*1C
$GNGGA,113520.000,2500.8167243,N,12132.4670196,E,4,61,0.45,15.973,M,15.25,M,1,3335*4A
$GNRMC,113520.000,A,2500.8167243,N,12132.4670196,E,0.02,294.89,260623,,,R,V*10
$GPHDT,,T*1B
$GNACCURACY,2.8*1C
$GNGGA,113520.100,2500.8167241,N,12132.4670234,E,4,62,0.45,15.983,M,15.25,M,1,3335*4E
$GNRMC,113520.100,A,2500.8167241,N,12132.4670234,E,0.02,294.89,260623,,,R,V*18
$GPHDT,,T*1B
$GNGSA,A,3,196,24,199,18,23,195,194,12,10,05,32,,0.70,0.45,0.54,1*00
$GNGSA,A,3,80,73,85,86,71,69,,,,,,,0.70,0.45,0.54,2*03
$GNGSA,A,3,13,08,07,26,30,02,15,,,,,,0.70,0.45,0.54,3*08
$GNGSA,A,3,38,08,39,13,16,06,46,19,09,20,36,35,0.70,0.45,0.54,4*0B
$GNGSA,A,3,37,29,22,,,,,,,,,,0.70,0.45,0.54,4*0C
$GPGSV,4,1,15,196,75,067,29,24,70,038,25,199,60,167,37,18,56,239,42,1*69
$GPGSV,4,2,15,23,54,341,41,41,38,242,26,15,35,051,23,195,32,180,35,1*5F
$GPGSV,4,3,15,194,32,138,35,12,23,138,19,10,21,320,22,05,16,122,28,1*5C
$GPGSV,4,4,15,25,12,174,19,32,11,272,31,13,06,059,,1*52
$GPGSV,3,1,09,196,75,067,34,24,70,038,34,199,60,167,46,18,56,239,43,8*61
$GPGSV,3,2,09,23,54,341,42,194,32,138,35,195,32,180,28,10,21,320,34,8*6F
$GPGSV,3,3,09,32,11,272,31,8*50
$GLGSV,2,1,08,80,48,069,19,73,43,157,39,70,41,016,,85,32,241,18,1*7D
$GLGSV,2,2,08,86,28,297,44,71,23,318,35,69,11,078,16,79,08,030,24,1*77
$GAGSV,2,1,08,13,53,227,40,08,45,029,28,07,45,307,42,26,33,303,38,7*7C
$GAGSV,2,2,08,30,28,141,30,02,26,082,19,15,20,174,17,03,09,067,,7*78
$GAGSV,2,1,06,13,53,227,42,08,45,029,24,07,45,307,45,26,33,303,44,1*76
$GAGSV,2,2,06,30,28,141,32,15,20,174,25,1*7C
$GBGSV,4,1,15,38,83,130,42,08,81,001,39,39,70,288,46,13,70,330,40,1*75
$GBGSV,4,2,15,16,66,263,43,06,65,259,40,46,61,104,39,19,51,350,37,1*78
$GBGSV,4,3,15,09,50,242,36,20,42,068,27,36,39,183,29,35,20,265,35,1*7A
$GBGSV,4,4,15,37,20,045,25,29,16,209,33,22,13,304,34,1*47
$GBGSV,2,1,08,38,83,130,47,39,70,288,45,46,61,104,41,19,51,350,44,4*78
$GBGSV,2,2,08,36,39,183,28,37,20,045,13,29,16,209,26,22,13,304,18,4*7E
$GNACCURACY,2.8*1C
$PAIRSAT,1,35,1,0,200,2,0,200,3,0,200,4,0,200,5,0,201,6,0,200,7,0,200,8,0,200,9,0,200,10,0,221,11,0,200,12,0,201,13,0,201,14,0,200,15,0,201,16,0,200,17,0,200,18,0,221,19,0,200,20,0,200,21,0,200,23,0,221,24,0,221,25,0,200,26,0,200,27,0,200,28,0,200,29,0,200,30,0,200,31,0,200,32,0,221,194,0,621,195,0,621,196,0,620,199,0,621*68
$PAIRSAT,2,24,65,0,200,66,0,200,67,0,200,68,0,200,69,0,201,70,0,201,71,0,201,72,0,200,73,0,201,74,0,200,75,0,200,76,0,200,77,0,200,78,0,200,79,0,201,80,0,201,81,0,200,82,0,200,83,0,200,84,0,200,85,0,201,86,0,201,87,0,200,88,0,200*7A
$PAIRSAT,3,23,2,0,1221,3,0,1221,4,0,1200,5,0,200,7,0,1221,8,0,1221,9,0,1200,10,0,1200,11,0,1200,12,0,1200,13,0,1221,15,0,1221,19,0,1200,21,0,1200,24,0,1200,25,0,1200,26,0,1221,27,0,1200,30,0,1221,31,0,1200,33,0,1200,34,0,1200,36,0,1200*6A
$PAIRSAT,4,50,1,0,200,2,0,200,3,0,200,4,0,200,5,0,200,6,0,201,7,0,200,8,0,201,9,0,201,10,0,200,11,0,200,12,0,200,13,0,201,14,0,200,15,0,200,16,0,201,19,0,621,20,0,621,21,0,600,22,0,621,23,0,600,24,0,600,25,0,600,26,0,600,27,0,600,28,0,600,29,0,621,30,0,600,31,0,200,32,0,600,33,0,600,34,0,600,35,0,621,36,0,621,37,0,621,38,0,621,39,0,621,40,0,600,41,0,600,42,0,600,43,0,600,44,0,600,45,0,600,46,0,621,56,0,200,57,0,200,58,0,200,59,0,600,60,0,600,61,0,600*41
$PAIRDGP,9,5,10,12,15,18,23,24,25,32*5B
$GNGGA,113520.200,2500.8167270,N,12132.4670193,E,4,62,0.45,15.986,M,15.25,M,1,3335*44
$GNRMC,113520.200,A,2500.8167270,N,12132.4670193,E,0.03,294.89,260623,,,R,V*16
$GPHDT,,T*1B
$GNACCURACY,2.8*1C
$GNGGA,113520.300,2500.8167275,N,12132.4670154,E,4,64,0.43,16.009,M,15.25,M,1,3335*46
$GNRMC,113520.300,A,2500.8167275,N,12132.4670154,E,0.02,294.89,260623,,,R,V*18
$GPHDT,,T*1B
$GNACCURACY,2.8*1C
$GNGGA,113520.400,2500.8167266,N,12132.4670149,E,4,64,0.43,15.992,M,15.25,M,1,3335*47
$GNRMC,113520.400,A,2500.8167266,N,12132.4670149,E,0.02,294.89,260623,,,R,V*11
$GPHDT,,T*1B
$GNACCURACY,2.8*1C
$GNGGA,113520.500,2500.8167304,N,12132.4670086,E,4,61,0.45,16.078,M,15.25,M,1,3335*4C
$GNRMC,113520.500,A,2500.8167304,N,12132.4670086,E,0.02,294.89,260623,,,R,V*17
$GPHDT,,T*1B
$GNACCURACY,2.9*1D
$GNGGA,113520.600,2500.8167359,N,12132.4670026,E,4,61,0.45,16.149,M,15.25,M,1,3335*4E
$GNRMC,113520.600,A,2500.8167359,N,12132.4670026,E,0.02,294.89,260623,,,R,V*16
$GPHDT,,T*1B
$GNACCURACY,2.9*1D
$GNGGA,113520.700,2500.8167317,N,12132.4670052,E,4,61,0.45,16.106,M,15.25,M,1,3335*4D
$GNRMC,113520.700,A,2500.8167317,N,12132.4670052,E,0.02,294.89,260623,,,R,V*1E
$GPHDT,,T*1B
$GNACCURACY,2.9*1D
$GNGGA,113520.800,2500.8167278,N,12132.4670039,E,4,63,0.45,16.086,M,15.25,M,1,3335*4C
$GNRMC,113520.800,A,2500.8167278,N,12132.4670039,E,0.02,294.89,260623,,,R,V*14
$GPHDT,,T*1B
$GNACCURACY,2.9*1D
$GNGGA,113520.900,2500.8167296,N,12132.4669971,E,4,63,0.45,16.075,M,15.25,M,1,3335*4C
$GNRMC,113520.900,A,2500.8167296,N,12132.4669971,E,0.03,294.89,260623,,,R,V*19
$GPHDT,,T*1B
$GNACCURACY,2.9*1D
$GNGGA,113521.000,2500.8167294,N,12132.4670031,E,4,63,0.45,16.061,M,15.25,M,2,3335*45
$GNRMC,113521.000,A,2500.8167294,N,12132.4670031,E,0.03,294.89,260623,,,R,V*16
$GPHDT,,T*1B
$GNACCURACY,2.9*1D
$GNGGA,113521.100,2500.8167296,N,12132.4670086,E,4,63,0.45,16.084,M,15.25,M,2,3335*41
$GNRMC,113521.100,A,2500.8167296,N,12132.4670086,E,0.02,294.89,260623,,,R,V*18
$GPHDT,,T*1B
$GNGSA,A,3,196,24,199,18,23,15,195,194,12,10,05,32,0.72,0.45,0.56,1*04
$GNGSA,A,3,80,73,85,86,71,,,,,,,,0.72,0.45,0.56,2*0C
$GNGSA,A,3,13,08,07,26,30,02,15,,,,,,0.72,0.45,0.56,3*08
$GNGSA,A,3,38,08,13,39,16,06,46,19,09,20,36,37,0.72,0.45,0.56,4*09
$GNGSA,A,3,35,29,22,,,,,,,,,,0.72,0.45,0.56,4*0E
$GPGSV,4,1,15,196,75,067,29,24,70,038,25,199,60,167,37,18,56,239,42,1*69
$GPGSV,4,2,15,23,54,341,41,41,38,242,26,15,35,051,22,195,32,180,35,1*5E
$GPGSV,4,3,15,194,32,138,35,12,23,138,18,10,21,320,24,05,16,122,28,1*5B
$GPGSV,4,4,15,25,12,174,18,32,11,272,30,13,06,059,,1*52
$GPGSV,3,1,09,196,75,067,34,24,70,038,33,199,60,167,46,18,56,239,43,8*66
$GPGSV,3,2,09,23,54,341,41,194,32,138,33,195,32,180,28,10,21,320,33,8*6D
$GPGSV,3,3,09,32,11,272,31,8*50
$GLGSV,3,1,09,80,48,069,19,73,43,157,39,70,41,016,,85,32,241,17,1*72
$GLGSV,3,2,09,86,28,297,44,71,23,318,34,69,11,078,12,79,08,030,21,1*77
$GLGSV,3,3,09,74,07,186,,1*4A
$GAGSV,2,1,08,13,53,227,41,08,45,029,29,07,45,307,42,26,33,303,39,7*7D
$GAGSV,2,2,08,30,28,141,30,02,26,082,18,15,20,174,17,03,09,067,,7*79
$GAGSV,2,1,06,13,53,227,42,07,45,307,46,08,45,029,24,26,33,303,44,1*75
$GAGSV,2,2,06,30,28,141,33,15,20,174,24,1*7C
$GBGSV,5,1,18,38,83,130,42,08,81,001,39,13,70,330,39,39,70,288,46,1*77
$GBGSV,5,2,18,16,66,263,43,06,65,259,40,46,61,104,38,19,51,350,37,1*75
$GBGSV,5,3,18,09,50,242,36,56,47,314,,20,42,068,29,36,39,183,29,1*7D
$GBGSV,5,4,18,31,38,212,,37,20,045,26,35,20,265,35,29,16,209,36,1*74
$GBGSV,5,5,18,22,13,304,33,07,05,191,,1*71
$GBGSV,3,1,09,38,83,130,47,39,70,288,45,46,61,104,41,19,51,350,44,4*78
$GBGSV,3,2,09,20,42,068,27,36,39,183,29,37,20,045,12,29,16,209,29,4*72
$GBGSV,3,3,09,22,13,304,17,4*49
$GNACCURACY,2.9*1D
$PAIRSAT,1,35,1,0,200,2,0,200,3,0,200,4,0,200,5,0,201,6,0,200,7,0,200,8,0,200,9,0,200,10,0,221,11,0,200,12,0,201,13,0,201,14,0,200,15,0,201,16,0,200,17,0,200,18,0,221,19,0,200,20,0,200,21,0,200,23,0,221,24,0,221,25,0,200,26,0,200,27,0,200,28,0,200,29,0,200,30,0,200,31,0,200,32,0,221,194,0,621,195,0,621,196,0,620,199,0,621*68
$PAIRSAT,2,24,65,0,200,66,0,200,67,0,200,68,0,200,69,0,201,70,0,201,71,0,201,72,0,200,73,0,201,74,0,200,75,0,200,76,0,200,77,0,200,78,0,200,79,0,201,80,0,201,81,0,200,82,0,200,83,0,200,84,0,200,85,0,201,86,0,201,87,0,200,88,0,200*7A
$PAIRSAT,3,23,2,0,1221,3,0,1221,4,0,1200,5,0,200,7,0,1221,8,0,1221,9,0,1200,10,0,1200,11,0,1200,12,0,1200,13,0,1221,15,0,1221,19,0,1200,21,0,1200,24,0,1200,25,0,1200,26,0,1221,27,0,1200,30,0,1221,31,0,1200,33,0,1200,34,0,1200,36,0,1200*6A
$PAIRSAT,4,50,1,0,200,2,0,200,3,0,200,4,0,200,5,0,200,6,0,201,7,0,200,8,0,201,9,0,201,10,0,200,11,0,200,12,0,200,13,0,201,14,0,200,15,0,200,16,0,201,19,0,621,20,0,621,21,0,600,22,0,621,23,0,600,24,0,600,25,0,600,26,0,600,27,0,600,28,0,600,29,0,621,30,0,600,31,0,200,32,0,600,33,0,600,34,0,600,35,0,621,36,0,621,37,0,621,38,0,621,39,0,621,40,0,600,41,0,600,42,0,600,43,0,600,44,0,600,45,0,600,46,0,621,56,0,200,57,0,200,58,0,200,59,0,600,60,0,600,61,0,600*41
$PAIRDGP,9,5,10,12,15,18,23,24,25,32*5B
$GNGGA,113521.200,2500.8167322,N,12132.4670083,E,4,63,0.45,16.076,M,15.25,M,2,3335*44
$GNRMC,113521.200,A,2500.8167322,N,12132.4670083,E,0.03,294.89,260623,,,R,V*11
$GPHDT,,T*1B
$GNACCURACY,2.9*1D
$GNGGA,113521.300,2500.8167288,N,12132.4670048,E,4,63,0.45,16.067,M,15.25,M,2,3335*43
$GNRMC,113521.300,A,2500.8167288,N,12132.4670048,E,0.02,294.89,260623,,,R,V*17
$GPHDT,,T*1B
$GNACCURACY,2.9*1D
$GNGGA,113521.400,2500.8167301,N,12132.4670016,E,4,63,0.45,16.075,M,15.25,M,2,3335*4C
$GNRMC,113521.400,A,2500.8167301,N,12132.4670016,E,0.02,294.89,260623,,,R,V*1B
$GPHDT,,T*1B
$GNACCURACY,2.9*1D
$GNGGA,113521.500,2500.8167298,N,12132.4670022,E,4,63,0.45,16.071,M,15.25,M,2,3335*4F
$GNRMC,113521.500,A,2500.8167298,N,12132.4670022,E,0.02,294.89,260623,,,R,V*1C
$GPHDT,,T*1B
$GNACCURACY,2.9*1D
$GNGGA,113521.600,2500.8167290,N,12132.4670040,E,4,63,0.45,16.071,M,15.25,M,2,3335*40
$GNRMC,113521.600,A,2500.8167290,N,12132.4670040,E,0.01,294.89,260623,,,R,V*10
$GPHDT,,T*1B
$GNACCURACY,2.9*1D
$GNGGA,113521.700,2500.8167296,N,12132.4670013,E,4,63,0.45,16.074,M,15.25,M,2,3335*44
$GNRMC,113521.700,A,2500.8167296,N,12132.4670013,E,0.01,294.89,260623,,,R,V*11
$GPHDT,,T*1B
$GNACCURACY,2.9*1D
$GNGGA,113521.800,2500.8167278,N,12132.4670012,E,4,64,0.45,16.071,M,15.25,M,2,3335*48
$GNRMC,113521.800,A,2500.8167278,N,12132.4670012,E,0.01,294.89,260623,,,R,V*1F
$GPHDT,,T*1B
$GNACCURACY,2.9*1D
$GNGGA,113521.900,2500.8167289,N,12132.4670012,E,4,64,0.45,16.076,M,15.25,M,2,3335*40
$GNRMC,113521.900,A,2500.8167289,N,12132.4670012,E,0.01,294.89,260623,,,R,V*10
$GPHDT,,T*1B
$GNACCURACY,3.0*15
$GNGGA,113522.000,2500.8167305,N,12132.4670010,E,4,64,0.45,16.072,M,15.25,M,3,3335*48
$GNRMC,113522.000,A,2500.8167305,N,12132.4670010,E,0.01,294.89,260623,,,R,V*1D
$GPHDT,,T*1B
$GNACCURACY,3.0*15
$GNGGA,113522.100,2500.8167306,N,12132.4670012,E,4,64,0.45,16.070,M,15.25,M,1,3335*48
$GNRMC,113522.100,A,2500.8167306,N,12132.4670012,E,0.01,294.89,260623,,,R,V*1D
$GPHDT,,T*1B
$GNGSA,A,3,196,24,199,18,23,15,195,194,12,10,05,32,0.72,0.45,0.56,1*04
$GNGSA,A,3,80,73,85,86,71,,,,,,,,0.72,0.45,0.56,2*0C
$GNGSA,A,3,13,07,08,26,30,02,15,,,,,,0.72,0.45,0.56,3*08
$GNGSA,A,3,38,08,13,39,16,06,46,19,09,20,36,35,0.72,0.45,0.56,4*0B
$GNGSA,A,3,37,29,22,,,,,,,,,,0.72,0.45,0.56,4*0C
$GPGSV,4,1,15,196,75,067,29,24,70,038,25,199,60,167,37,18,56,239,42,1*69
$GPGSV,4,2,15,23,54,341,41,41,38,242,26,15,35,051,22,195,32,180,35,1*5E
$GPGSV,4,3,15,194,32,138,35,12,23,138,17,10,21,320,22,05,16,122,28,1*52
$GPGSV,4,4,15,25,12,174,18,32,11,272,30,13,06,060,,1*58
$GPGSV,3,1,09,196,75,067,34,24,70,038,33,199,60,167,46,18,56,239,43,8*66
$GPGSV,3,2,09,23,54,341,41,194,32,138,32,195,32,180,28,10,21,320,33,8*6C
$GPGSV,3,3,09,32,11,272,31,8*50
$GLGSV,3,1,09,80,48,069,19,73,43,157,39,70,41,016,,85,32,241,15,1*70
$GLGSV,3,2,09,86,28,297,44,71,23,318,34,69,11,078,13,79,08,030,24,1*73
$GLGSV,3,3,09,74,07,186,,1*4A
$GAGSV,3,1,09,13,53,227,40,07,45,307,42,08,45,029,29,26,33,303,39,7*7C
$GAGSV,3,2,09,30,28,141,30,02,26,082,18,15,20,174,17,03,09,067,,7*79
$GAGSV,3,3,09,27,03,187,,7*42
$GAGSV,2,1,06,13,53,227,42,07,45,307,46,08,45,029,23,26,33,303,44,1*72
$GAGSV,2,2,06,30,28,141,32,15,20,174,23,1*7A
$GBGSV,4,1,16,38,83,130,42,08,81,001,39,13,70,330,39,39,70,288,46,1*78
$GBGSV,4,2,16,16,66,263,42,06,65,259,40,46,61,104,39,19,51,350,37,1*7A
$GBGSV,4,3,16,09,50,242,36,20,42,068,29,36,39,183,29,35,20,265,35,1*77
$GBGSV,4,4,16,37,20,045,22,29,16,209,37,22,13,304,33,07,05,191,,1*7B
$GBGSV,3,1,10,38,83,130,46,39,70,288,45,46,61,104,41,19,51,350,44,4*71
$GBGSV,3,2,10,20,42,068,28,36,39,183,28,35,20,265,19,37,20,045,13,4*74
$GBGSV,3,3,10,29,16,209,31,22,13,304,15,4*76
$GNACCURACY,3.0*15
$PAIRSAT,1,35,1,0,200,2,0,200,3,0,200,4,0,200,5,0,201,6,0,200,7,0,200,8,0,200,9,0,200,10,0,221,11,0,200,12,0,201,13,0,201,14,0,200,15,0,201,16,0,200,17,0,200,18,0,221,19,0,200,20,0,200,21,0,200,23,0,221,24,0,221,25,0,200,26,0,200,27,0,200,28,0,200,29,0,200,30,0,200,31,0,200,32,0,221,194,0,621,195,0,621,196,0,620,199,0,621*68
$PAIRSAT,2,24,65,0,200,66,0,200,67,0,200,68,0,200,69,0,201,70,0,201,71,0,201,72,0,200,73,0,201,74,0,200,75,0,200,76,0,200,77,0,200,78,0,200,79,0,201,80,0,201,81,0,200,82,0,200,83,0,200,84,0,200,85,0,201,86,0,201,87,0,200,88,0,200*7A
$PAIRSAT,3,23,2,0,1221,3,0,1221,4,0,1200,5,0,200,7,0,1221,8,0,1221,9,0,1200,10,0,1200,11,0,1200,12,0,1200,13,0,1221,15,0,1221,19,0,1200,21,0,1200,24,0,1200,25,0,1200,26,0,1221,27,0,1200,30,0,1221,31,0,1200,33,0,1200,34,0,1200,36,0,1200*6A
$PAIRSAT,4,50,1,0,200,2,0,200,3,0,200,4,0,200,5,0,200,6,0,201,7,0,200,8,0,201,9,0,201,10,0,200,11,0,200,12,0,200,13,0,201,14,0,200,15,0,200,16,0,201,19,0,621,20,0,621,21,0,600,22,0,621,23,0,600,24,0,600,25,0,600,26,0,600,27,0,600,28,0,600,29,0,621,30,0,600,31,0,200,32,0,600,33,0,600,34,0,600,35,0,621,36,0,621,37,0,621,38,0,621,39,0,621,40,0,600,41,0,600,42,0,600,43,0,600,44,0,600,45,0,600,46,0,621,56,0,200,57,0,200,58,0,200,59,0,600,60,0,600,61,0,600*41
$PAIRDGP,9,5,10,12,15,18,23,24,25,32*5B
$GNGGA,113522.200,2500.8167284,N,12132.4670064,E,4,64,0.45,16.061,M,15.25,M,1,3335*41
$GNRMC,113522.200,A,2500.8167284,N,12132.4670064,E,0.01,294.89,260623,,,R,V*14
$GPHDT,,T*1B
$GNACCURACY,2.8*1C
$GNGGA,113522.300,2500.8167286,N,12132.4670068,E,4,64,0.45,16.058,M,15.25,M,1,3335*44
$GNRMC,113522.300,A,2500.8167286,N,12132.4670068,E,0.01,294.89,260623,,,R,V*1B
$GPHDT,,T*1B
$GNACCURACY,2.8*1C
$GNGGA,113522.400,2500.8167296,N,12132.4670030,E,4,64,0.45,16.067,M,15.25,M,1,3335*43
$GNRMC,113522.400,A,2500.8167296,N,12132.4670030,E,0.01,294.89,260623,,,R,V*10
$GPHDT,,T*1B
$GNACCURACY,2.8*1C
$GNGGA,113522.500,2500.8167278,N,12132.4669999,E,4,64,0.45,16.073,M,15.25,M,1,3335*45
$GNRMC,113522.500,A,2500.8167278,N,12132.4669999,E,0.01,294.89,260623,,,R,V*13
$GPHDT,,T*1B
$GNACCURACY,2.8*1C
$GNGGA,113522.600,2500.8167277,N,12132.4670082,E,4,64,0.45,16.086,M,15.25,M,1,3335*48
$GNRMC,113522.600,A,2500.8167277,N,12132.4670082,E,0.01,294.89,260623,,,R,V*14
$GPHDT,,T*1B
$GNACCURACY,2.8*1C
$GNGGA,113522.700,2500.8167302,N,12132.4670070,E,4,64,0.45,16.083,M,15.25,M,1,3335*42
$GNRMC,113522.700,A,2500.8167302,N,12132.4670070,E,0.00,294.89,260623,,,R,V*1A
$GPHDT,,T*1B
$GNACCURACY,2.8*1C
$GNGGA,113522.800,2500.8167282,N,12132.4670029,E,4,64,0.45,16.085,M,15.25,M,1,3335*4E
$GNRMC,113522.800,A,2500.8167282,N,12132.4670029,E,0.00,294.89,260623,,,R,V*10
$GPHDT,,T*1B
$GNACCURACY,2.8*1C
$GNGGA,113522.900,2500.8167282,N,12132.4670048,E,4,63,0.45,16.087,M,15.25,M,1,3335*4D
$GNRMC,113522.900,A,2500.8167282,N,12132.4670048,E,0.00,294.89,260623,,,R,V*16
$GPHDT,,T*1B
$GNACCURACY,2.8*1C
$GNGGA,113523.000,2500.8167292,N,12132.4670048,E,4,63,0.45,16.084,M,15.25,M,2,3335*44
$GNRMC,113523.000,A,2500.8167292,N,12132.4670048,E,0.00,294.89,260623,,,R,V*1F
$GPHDT,,T*1B
$GNACCURACY,2.8*1C
$GNGGA,113523.100,2500.8167302,N,12132.4670098,E,4,63,0.45,16.075,M,15.25,M,1,3335*4D
$GNRMC,113523.100,A,2500.8167302,N,12132.4670098,E,0.00,294.89,260623,,,R,V*1B
$GPHDT,,T*1B
$GNGSA,A,3,196,24,199,18,23,15,195,194,12,10,05,32,0.81,0.45,0.67,1*0A
$GNGSA,A,3,80,73,86,71,,,,,,,,,0.81,0.45,0.67,2*0F
$GNGSA,A,3,13,07,08,26,30,02,15,,,,,,0.81,0.45,0.67,3*06
$GNGSA,A,3,38,08,13,39,16,06,46,19,09,20,36,35,0.81,0.45,0.67,4*05
$GNGSA,A,3,37,29,22,,,,,,,,,,0.81,0.45,0.67,4*02
$GPGSV,4,1,15,196,75,067,28,24,69,038,22,199,60,167,37,18,56,239,42,1*67
$GPGSV,4,2,15,23,54,341,41,41,38,242,27,15,35,051,21,195,32,180,36,1*5F
$GPGSV,4,3,15,194,32,138,35,12,23,138,14,10,21,320,24,05,16,122,28,1*57
$GPGSV,4,4,15,25,12,174,18,32,11,273,29,13,06,060,,1*51
$GPGSV,3,1,09,196,75,067,34,24,69,038,34,199,60,167,46,18,56,239,43,8*69
$GPGSV,3,2,09,23,54,341,41,194,32,138,33,195,32,180,29,10,21,320,33,8*6C
$GPGSV,3,3,09,32,11,273,30,8*50
$GLGSV,2,1,08,80,48,069,19,73,43,157,39,85,32,241,13,86,28,297,44,1*7B
$GLGSV,2,2,08,71,23,318,33,69,11,078,16,79,08,030,21,74,07,186,,1*77
$GAGSV,3,1,09,13,53,227,40,07,45,307,42,08,45,029,28,26,33,303,39,7*7D
$GAGSV,3,2,09,30,28,141,30,02,26,082,17,15,20,174,17,03,09,067,,7*76
$GAGSV,3,3,09,27,03,187,,7*42
$GAGSV,2,1,07,13,53,227,42,07,45,307,46,08,45,029,23,26,33,303,44,1*73
$GAGSV,2,2,07,30,28,141,32,02,26,082,17,15,20,174,23,1*41
$GBGSV,4,1,16,38,83,130,42,08,81,001,39,13,70,330,39,39,70,288,46,1*78
$GBGSV,4,2,16,16,66,263,42,06,65,259,40,46,61,104,39,19,51,350,37,1*7A
$GBGSV,4,3,16,09,50,242,36,20,42,068,29,36,39,183,29,35,20,265,33,1*71
$GBGSV,4,4,16,37,20,045,23,29,16,209,37,22,13,304,33,44,03,309,,1*78
$GBGSV,3,1,10,38,83,130,46,39,70,288,45,46,61,104,41,19,51,350,44,4*71
$GBGSV,3,2,10,20,42,068,29,36,39,183,29,35,20,265,18,37,20,045,13,4*75
$GBGSV,3,3,10,29,16,209,30,22,13,304,18,4*7A
$GNACCURACY,2.8*1C
$PAIRSAT,1,35,1,0,200,2,0,200,3,0,200,4,0,200,5,0,201,6,0,200,7,0,200,8,0,200,9,0,200,10,0,221,11,0,200,12,0,201,13,0,201,14,0,200,15,0,201,16,0,200,17,0,200,18,0,221,19,0,200,20,0,200,21,0,200,23,0,221,24,0,221,25,0,200,26,0,200,27,0,200,28,0,200,29,0,200,30,0,200,31,0,200,32,0,221,194,0,621,195,0,621,196,0,620,199,0,621*68
$PAIRSAT,2,24,65,0,200,66,0,200,67,0,200,68,0,200,69,0,201,70,0,201,71,0,201,72,0,200,73,0,201,74,0,200,75,0,200,76,0,200,77,0,200,78,0,200,79,0,201,80,0,201,81,0,200,82,0,200,83,0,200,84,0,200,85,0,201,86,0,201,87,0,200,88,0,200*7A
$PAIRSAT,3,23,2,0,1221,3,0,1221,4,0,1200,5,0,200,7,0,1221,8,0,1221,9,0,1200,10,0,1200,11,0,1200,12,0,1200,13,0,1221,15,0,1221,19,0,1200,21,0,1200,24,0,1200,25,0,1200,26,0,1221,27,0,1200,30,0,1221,31,0,1200,33,0,1200,34,0,1200,36,0,1200*6A
$PAIRSAT,4,50,1,0,200,2,0,200,3,0,200,4,0,200,5,0,200,6,0,201,7,0,200,8,0,201,9,0,201,10,0,200,11,0,200,12,0,200,13,0,201,14,0,200,15,0,200,16,0,201,19,0,621,20,0,621,21,0,600,22,0,621,23,0,600,24,0,600,25,0,600,26,0,600,27,0,600,28,0,600,29,0,621,30,0,600,31,0,200,32,0,600,33,0,600,34,0,600,35,0,621,36,0,621,37,0,621,38,0,621,39,0,621,40,0,600,41,0,600,42,0,600,43,0,600,44,0,600,45,0,600,46,0,621,56,0,200,57,0,200,58,0,200,59,0,600,60,0,600,61,0,600*41
$PAIRDGP,9,5,10,12,15,18,23,24,25,32*5B
$GNGGA,113523.200,2500.8167285,N,12132.4670087,E,4,64,0.45,16.079,M,15.25,M,1,3335*45
$GNRMC,113523.200,A,2500.8167285,N,12132.4670087,E,0.00,294.89,260623,,,R,V*18
$GPHDT,,T*1B
$GNACCURACY,2.8*1C
$GNGGA,113523.300,2500.8167285,N,12132.4670062,E,4,64,0.45,16.087,M,15.25,M,1,3335*4E
$GNRMC,113523.300,A,2500.8167285,N,12132.4670062,E,0.03,294.89,260623,,,R,V*11
$GPHDT,,T*1B
$GNACCURACY,2.8*1C
$GNGGA,113523.400,2500.8167300,N,12132.4670121,E,4,64,0.45,16.079,M,15.25,M,1,3335*42
$GNRMC,113523.400,A,2500.8167300,N,12132.4670121,E,0.05,294.89,260623,,,R,V*1A
$GPHDT,,T*1B
$GNACCURACY,2.8*1C
$GNGGA,113523.500,2500.8167296,N,12132.4670116,E,4,64,0.45,16.065,M,15.25,M,1,3335*44
$GNRMC,113523.500,A,2500.8167296,N,12132.4670116,E,0.04,294.89,260623,,,R,V*10
$GPHDT,,T*1B
$GNACCURACY,2.8*1C
$GNGGA,113523.600,2500.8167326,N,12132.4670104,E,4,64,0.45,16.072,M,15.25,M,0,3335*49
$GNRMC,113523.600,A,2500.8167326,N,12132.4670104,E,0.05,294.89,260623,,,R,V*1B
$GPHDT,,T*1B
$GNACCURACY,2.8*1C
$GNGGA,113523.700,2500.8167300,N,12132.4670098,E,4,64,0.45,16.078,M,15.25,M,0,3335*42
$GNRMC,113523.700,A,2500.8167300,N,12132.4670098,E,0.05,294.89,260623,,,R,V*1A
$GPHDT,,T*1B
$GNACCURACY,2.8*1C
$GNGGA,113523.800,2500.8167265,N,12132.4669965,E,4,64,0.45,16.102,M,15.25,M,0,3335*40
$GNRMC,113523.800,A,2500.8167265,N,12132.4669965,E,0.04,294.89,260623,,,R,V*15
$GPHDT,,T*1B
$GNACCURACY,2.8*1C
$GNGGA,113523.900,2500.8167304,N,12132.4669995,E,4,64,0.45,16.103,M,15.25,M,0,3335*49
$GNRMC,113523.900,A,2500.8167304,N,12132.4669995,E,0.03,294.89,260623,,,R,V*1A
$GPHDT,,T*1B
$GNACCURACY,2.8*1C
$GNGGA,113524.000,2500.8167285,N,12132.4669995,E,4,64,0.45,16.101,M,15.25,M,1,3335*4C
$GNRMC,113524.000,A,2500.8167285,N,12132.4669995,E,0.02,294.89,260623,,,R,V*1D
$GPHDT,,T*1B
