$FW : RTK35X,V1.1X0314AS,Lib20210517,1*54
$Tool : LOCOSYS , GNSS Firebird , v1.0.0.19*39
$---------------------------------------------------*2D
4,16,35,20,266,29,29,17,210,34,22,13,303,39,10,02,201,,1*7D
$GBGSV,3,1,09,38,83,126,48,39,70,287,44,46,61,105,38,19,50,348,44,4*79
$GBGSV,3,2,09,20,42,067,25,36,38,184,33,35,20,266,19,29,17,210,31,4*78
$GBGSV,3,3,09,22,13,303,35,4*4E
$GNACCURACY,2.8*1C
$PAIRSAT,1,35,1,0,200,2,0,200,3,0,200,4,0,200,5,0,201,6,0,200,7,0,200,8,0,200,9,0,200,10,0,221,11,0,200,12,0,201,13,0,201,14,0,200,15,0,201,16,0,200,17,0,200,18,0,221,19,0,200,20,0,200,21,0,200,23,0,221,24,0,221,25,0,200,26,0,200,27,0,200,28,0,200,29,0,200,30,0,200,31,0,200,32,0,221,194,0,621,195,0,621,196,0,620,199,0,621*68
$PAIRSAT,2,23,65,0,200,67,0,200,68,0,200,69,0,201,70,0,201,71,0,201,72,0,200,73,0,201,74,0,200,75,0,200,76,0,200,77,0,200,78,0,200,79,0,201,80,0,201,81,0,200,82,0,200,83,0,200,84,0,200,85,0,201,86,0,201,87,0,200,88,0,200*53
$PAIRSAT,3,23,2,0,1221,3,0,1221,4,0,1200,5,0,200,7,0,1221,8,0,1221,9,0,1200,10,0,1200,11,0,1200,12,0,1200,13,0,1221,15,0,1221,19,0,1200,21,0,1200,24,0,1200,25,0,1200,26,0,1221,27,0,1200,30,0,1221,31,0,1200,33,0,1200,34,0,1200,36,0,1200*6A
$PAIRSAT,4,50,1,0,200,2,0,200,3,0,200,4,0,200,5,0,200,6,0,201,7,0,200,8,0,201,9,0,201,10,0,200,11,0,200,12,0,200,13,0,201,14,0,200,15,0,200,16,0,201,19,0,621,20,0,621,21,0,600,22,0,621,23,0,600,24,0,600,25,0,600,26,0,600,27,0,600,28,0,600,29,0,621,30,0,600,31,0,200,32,0,600,33,0,600,34,0,600,35,0,621,36,0,621,37,0,621,38,0,621,39,0,621,40,0,600,41,0,600,42,0,600,43,0,600,44,0,600,45,0,600,46,0,621,56,0,200,57,0,200,58,0,200,59,0,600,60,0,600,61,0,600*41
$PAIRDGP,10,5,10,12,13,15,18,23,24,25,32*4D
$GNGGA,113327.200,2500.8154145,N,12132.4671148,E,2,62,0.45,23.994,M,15.25,M,29,3335*7D
$GNRMC,113327.200,A,2500.8154145,N,12132.4671148,E,0.01,294.89,260623,,,D,V*01
$GPHDT,,T*1B
$GNACCURACY,2.8*1C
$GNGGA,113327.300,2500.8154145,N,12132.4671208,E,2,62,0.45,23.990,M,15.25,M,29,3335*7F
$GNRMC,113327.300,A,2500.8154145,N,12132.4671208,E,0.02,294.89,260623,,,D,V*04
$GPHDT,,T*1B
$GNACCURACY,2.8*1C
$GNGGA,113327.400,2500.8154145,N,12132.4671268,E,2,61,0.45,23.989,M,15.25,M,29,3335*75
$GNRMC,113327.400,A,2500.8154145,N,12132.4671268,E,0.02,294.89,260623,,,D,V*05
$GPHDT,,T*1B
$GNACCURACY,2.8*1C
$GNGGA,113327.500,2500.8154145,N,12132.4671328,E,2,61,0.45,23.987,M,15.25,M,29,3335*7F
$GNRMC,113327.500,A,2500.8154145,N,12132.4671328,E,0.02,294.89,260623,,,D,V*01
$GPHDT,,T*1B
$GNACCURACY,2.8*1C
$GNGGA,113327.600,2500.8154145,N,12132.4671328,E,2,61,0.45,23.986,M,15.25,M,29,3335*7D
$GNRMC,113327.600,A,2500.8154145,N,12132.4671328,E,0.03,294.89,260623,,,D,V*03
$GPHDT,,T*1B
$GNACCURACY,2.8*1C
$GNGGA,113327.700,2500.8154085,N,12132.4671388,E,2,61,0.45,23.984,M,15.25,M,29,3335*79
$GNRMC,113327.700,A,2500.8154085,N,12132.4671388,E,0.03,294.89,260623,,,D,V*05
$GPHDT,,T*1B
$GNACCURACY,2.8*1C
$GNGGA,113327.800,2500.8154085,N,12132.4671448,E,2,61,0.45,23.985,M,15.25,M,29,3335*7C
$GNRMC,113327.800,A,2500.8154085,N,12132.4671448,E,0.03,294.89,260623,,,D,V*01
$GPHDT,,T*1B
$GNACCURACY,2.8*1C
$GNGGA,113327.900,2500.8154085,N,12132.4671448,E,2,62,0.45,23.984,M,15.25,M,29,3335*7F
$GNRMC,113327.900,A,2500.8154085,N,12132.4671448,E,0.04,294.89,260623,,,D,V*07
$GPHDT,,T*1B
$GNACCURACY,2.8*1C
$GNGGA,113328.000,2500.8154085,N,12132.4671508,E,2,62,0.45,23.982,M,15.25,M,30,3335*72
$GNRMC,113328.000,A,2500.8154085,N,12132.4671508,E,0.05,294.89,260623,,,D,V*05
$GPHDT,,T*1B
$GNACCURACY,2.8*1C
$GNGGA,113328.100,2500.8154025,N,12132.4671508,E,2,62,0.45,23.982,M,15.25,M,30,3335*79
$GNRMC,113328.100,A,2500.8154025,N,12132.4671508,E,0.05,294.89,260623,,,D,V*0E
$GPHDT,,T*1B
$GNGSA,A,3,196,24,199,18,23,15,195,194,12,10,05,32,0.71,0.45,0.55,1*04
$GNGSA,A,3,80,73,85,86,71,69,,,,,,,0.71,0.45,0.55,2*03
$GNGSA,A,3,13,08,07,26,30,02,15,,,,,,0.71,0.45,0.55,3*08
$GNGSA,A,3,38,08,39,13,16,06,46,09,19,20,36,35,0.71,0.45,0.55,4*0B
$GNGSA,A,3,29,22,,,,,,,,,,,0.71,0.45,0.55,4*08
$GPGSV,4,1,15,196,75,067,24,24,71,039,33,199,60,167,36,18,57,240,41,1*6E
$GPGSV,4,2,15,23,53,340,39,41,38,242,35,15,35,050,32,195,33,180,23,1*53
$GPGSV,4,3,15,194,32,138,18,12,22,139,32,10,20,320,26,05,17,121,25,1*50
$GPGSV,4,4,15,25,11,175,23,32,11,272,34,13,06,059,17,1*5A
$GPGSV,3,1,09,196,75,067,32,24,71,039,38,199,60,167,47,18,57,240,47,8*61
$GPGSV,3,2,09,23,53,340,42,195,33,180,22,194,32,138,34,10,20,320,32,8*64
$GPGSV,3,3,09,32,11,272,20,8*50
$GLGSV,3,1,09,80,48,071,22,73,42,157,37,70,41,015,,85,33,242,19,1*73
$GLGSV,3,2,09,86,27,298,42,71,23,317,25,69,12,077,18,79,09,030,29,1*71
$GLGSV,3,3,09,74,06,186,,1*4B
$GAGSV,3,1,10,13,54,228,43,08,45,028,26,07,44,306,43,26,33,304,41,7*78
$GAGSV,3,2,10,30,28,142,27,02,26,083,21,15,20,174,20,03,09,066,16,7*7D
$GAGSV,3,3,10,27,03,187,,25,02,041,,7*7A
$GAGSV,2,1,07,13,54,228,42,08,45,028,30,07,44,306,46,26,33,304,44,1*7F
$GAGSV,2,2,07,30,28,142,20,15,20,174,18,03,09,066,09,1*40
$GBGSV,5,1,18,38,83,126,41,08,81,001,38,39,70,287,45,13,69,331,37,1*79
$GBGSV,5,2,18,16,66,262,42,06,65,257,38,46,61,105,41,09,50,241,41,1*7B
$GBGSV,5,3,18,19,50,348,37,56,47,313,,20,42,067,35,36,38,184,24,1*78
$GBGSV,5,4,18,31,38,211,,37,21,046,,35,20,266,31,29,17,210,33,1*7A
$GBGSV,5,5,18,22,13,303,39,07,05,192,,1*7F
$GBGSV,2,1,08,38,83,126,48,39,70,287,44,46,61,105,37,19,50,348,44,4*76
$GBGSV,2,2,08,20,42,067,25,36,38,184,30,29,17,210,29,22,13,303,35,4*78
$GNACCURACY,2.8*1C
$PAIRSAT,1,35,1,0,200,2,0,200,3,0,200,4,0,200,5,0,201,6,0,200,7,0,200,8,0,200,9,0,200,10,0,221,11,0,200,12,0,201,13,0,201,14,0,200,15,0,201,16,0,200,17,0,200,18,0,221,19,0,200,20,0,200,21,0,200,23,0,221,24,0,221,25,0,200,26,0,200,27,0,200,28,0,200,29,0,200,30,0,200,31,0,200,32,0,221,194,0,621,195,0,621,196,0,620,199,0,621*68
$PAIRSAT,2,23,65,0,200,67,0,200,68,0,200,69,0,201,70,0,201,71,0,201,72,0,200,73,0,201,74,0,200,75,0,200,76,0,200,77,0,200,78,0,200,79,0,201,80,0,201,81,0,200,82,0,200,83,0,200,84,0,200,85,0,201,86,0,201,87,0,200,88,0,200*53
$PAIRSAT,3,23,2,0,1221,3,0,1221,4,0,1200,5,0,200,7,0,1221,8,0,1221,9,0,1200,10,0,1200,11,0,1200,12,0,1200,13,0,1221,15,0,1221,19,0,1200,21,0,1200,24,0,1200,25,0,1200,26,0,1221,27,0,1200,30,0,1221,31,0,1200,33,0,1200,34,0,1200,36,0,1200*6A
$PAIRSAT,4,50,1,0,200,2,0,200,3,0,200,4,0,200,5,0,200,6,0,201,7,0,200,8,0,201,9,0,201,10,0,200,11,0,200,12,0,200,13,0,201,14,0,200,15,0,200,16,0,201,19,0,621,20,0,621,21,0,600,22,0,621,23,0,600,24,0,600,25,0,600,26,0,600,27,0,600,28,0,600,29,0,621,30,0,600,31,0,200,32,0,600,33,0,600,34,0,600,35,0,621,36,0,621,37,0,621,38,0,621,39,0,621,40,0,600,41,0,600,42,0,600,43,0,600,44,0,600,45,0,600,46,0,621,56,0,200,57,0,200,58,0,200,59,0,600,60,0,600,61,0,600*41
$PAIRDGP,9,5,10,12,15,18,23,24,25,32*5B
$GNGGA,113328.200,2500.8154025,N,12132.4671568,E,2,62,0.45,23.981,M,15.25,M,30,3335*7F
$GNRMC,113328.200,A,2500.8154025,N,12132.4671568,E,0.05,294.89,260623,,,D,V*0B
$GPHDT,,T*1B
$GNACCURACY,2.8*1C
$GNGGA,113328.300,2500.8153965,N,12132.4671628,E,2,62,0.45,23.984,M,15.25,M,30,3335*76
$GNRMC,113328.300,A,2500.8153965,N,12132.4671628,E,0.05,294.89,260623,,,D,V*07
$GPHDT,,T*1B
$GNACCURACY,2.8*1C
$GNGGA,113328.400,2500.8153965,N,12132.4671628,E,2,63,0.45,23.983,M,15.25,M,30,3335*77
$GNRMC,113328.400,A,2500.8153965,N,12132.4671628,E,0.06,294.89,260623,,,D,V*03
$GPHDT,,T*1B
$GNACCURACY,2.8*1C
$GNGGA,113328.500,2500.8153965,N,12132.4671688,E,2,63,0.45,23.984,M,15.25,M,30,3335*7B
$GNRMC,113328.500,A,2500.8153965,N,12132.4671688,E,0.06,294.89,260623,,,D,V*08
$GPHDT,,T*1B
$GNACCURACY,2.8*1C
$GNGGA,113328.600,2500.8153905,N,12132.4671688,E,2,63,0.45,23.981,M,15.25,M,30,3335*7B
$GNRMC,113328.600,A,2500.8153905,N,12132.4671688,E,0.07,294.89,260623,,,D,V*0C
$GPHDT,,T*1B
$GNACCURACY,2.8*1C
$GNGGA,113328.700,2500.8153905,N,12132.4671748,E,2,63,0.45,23.980,M,15.25,M,30,3335*76
$GNRMC,113328.700,A,2500.8153905,N,12132.4671748,E,0.07,294.89,260623,,,D,V*00
$GPHDT,,T*1B
$GNACCURACY,2.8*1C
$GNGGA,113328.800,2500.8153905,N,12132.4671748,E,2,63,0.45,23.973,M,15.25,M,30,3335*75
$GNRMC,113328.800,A,2500.8153905,N,12132.4671748,E,0.06,294.89,260623,,,D,V*0E
$GPHDT,,T*1B
$GNACCURACY,2.8*1C
$GNGGA,113328.900,2500.8153845,N,12132.4671748,E,2,63,0.45,23.969,M,15.25,M,30,3335*7A
$GNRMC,113328.900,A,2500.8153845,N,12132.4671748,E,0.06,294.89,260623,,,D,V*0A
$GPHDT,,T*1B
$GNACCURACY,2.8*1C
$GNGGA,113329.000,2500.8153845,N,12132.4671748,E,2,63,0.45,23.964,M,15.25,M,31,3335*7E
$GNRMC,113329.000,A,2500.8153845,N,12132.4671748,E,0.04,294.89,260623,,,D,V*00
$GPHDT,,T*1B
$GNACCURACY,2.8*1C
$GNGGA,113329.100,2500.8153785,N,12132.4671748,E,2,63,0.45,23.959,M,15.25,M,31,3335*72
$GNRMC,113329.100,A,2500.8153785,N,12132.4671748,E,0.04,294.89,260623,,,D,V*02
$GPHDT,,T*1B
$GNGSA,A,3,196,24,199,18,23,15,195,194,12,10,05,32,0.71,0.45,0.55,1*04
$GNGSA,A,3,80,73,85,86,71,69,,,,,,,0.71,0.45,0.55,2*03
$GNGSA,A,3,13,08,07,26,30,02,15,,,,,,0.71,0.45,0.55,3*08
$GNGSA,A,3,38,08,39,13,16,06,46,19,09,20,36,35,0.71,0.45,0.55,4*0B
$GNGSA,A,3,29,22,,,,,,,,,,,0.71,0.45,0.55,4*08
$GPGSV,4,1,15,196,75,067,24,24,70,039,33,199,60,167,36,18,57,240,40,1*6E
$GPGSV,4,2,15,23,53,340,39,41,38,242,34,15,35,050,32,195,33,180,34,1*54
$GPGSV,4,3,15,194,32,138,18,12,22,139,32,10,20,320,25,05,17,121,26,1*50
$GPGSV,4,4,15,25,11,174,23,32,11,272,35,13,06,059,15,1*58
$GPGSV,3,1,09,196,75,067,33,24,70,039,38,199,60,167,48,18,57,240,47,8*6E
$GPGSV,3,2,09,23,53,340,42,195,33,180,24,194,32,138,34,10,20,320,31,8*61
$GPGSV,3,3,09,32,11,272,23,8*53
$GLGSV,2,1,08,80,48,071,23,73,42,157,37,70,41,015,,85,33,242,18,1*73
$GLGSV,2,2,08,86,27,298,42,71,23,317,27,69,12,077,18,79,09,030,29,1*73
$GAGSV,3,1,10,13,54,228,42,08,45,028,26,07,44,306,43,26,33,304,41,7*79
$GAGSV,3,2,10,30,28,142,27,02,26,083,20,15,20,174,20,03,09,066,16,7*7C
$GAGSV,3,3,10,27,03,187,,25,02,041,,7*7A
$GAGSV,2,1,07,13,54,228,42,08,45,028,30,07,44,306,46,26,33,304,44,1*7F
$GAGSV,2,2,07,30,28,142,22,15,20,174,18,03,09,066,09,1*42
$GBGSV,4,1,16,38,83,126,40,08,81,001,38,39,70,287,45,13,69,331,37,1*77
$GBGSV,4,2,16,16,66,262,42,06,65,257,37,46,61,105,41,19,50,348,37,1*73
$GBGSV,4,3,16,09,50,241,40,20,42,067,34,36,38,184,30,37,21,046,,1*7E
$GBGSV,4,4,16,35,20,266,28,29,17,210,30,22,13,303,39,07,05,192,,1*70
$GBGSV,3,1,09,38,83,126,48,39,70,287,44,46,61,105,38,19,50,348,44,4*79
$GBGSV,3,2,09,20,42,067,25,36,38,184,29,35,20,266,17,29,17,210,24,4*79
$GBGSV,3,3,09,22,13,303,35,4*4E
$GNACCURACY,2.8*1C
$PAIRSAT,1,35,1,0,200,2,0,200,3,0,200,4,0,200,5,0,201,6,0,200,7,0,200,8,0,200,9,0,200,10,0,221,11,0,200,12,0,201,13,0,201,14,0,200,15,0,201,16,0,200,17,0,200,18,0,221,19,0,200,20,0,200,21,0,200,23,0,221,24,0,221,25,0,200,26,0,200,27,0,200,28,0,200,29,0,200,30,0,200,31,0,200,32,0,221,194,0,621,195,0,621,196,0,620,199,0,621*68
$PAIRSAT,2,23,65,0,200,67,0,200,68,0,200,69,0,201,70,0,201,71,0,201,72,0,200,73,0,201,74,0,200,75,0,200,76,0,200,77,0,200,78,0,200,79,0,201,80,0,201,81,0,200,82,0,200,83,0,200,84,0,200,85,0,201,86,0,201,87,0,200,88,0,200*53
$PAIRSAT,3,23,2,0,1221,3,0,1221,4,0,1200,5,0,200,7,0,1221,8,0,1221,9,0,1200,10,0,1200,11,0,1200,12,0,1200,13,0,1221,15,0,1221,19,0,1200,21,0,1200,24,0,1200,25,0,1200,26,0,1221,27,0,1200,30,0,1221,31,0,1200,33,0,1200,34,0,1200,36,0,1200*6A
$PAIRSAT,4,50,1,0,200,2,0,200,3,0,200,4,0,200,5,0,200,6,0,201,7,0,200,8,0,201,9,0,201,10,0,200,11,0,200,12,0,200,13,0,201,14,0,200,15,0,200,16,0,201,19,0,621,20,0,621,21,0,600,22,0,621,23,0,600,24,0,600,25,0,600,26,0,600,27,0,600,28,0,600,29,0,621,30,0,600,31,0,200,32,0,600,33,0,600,34,0,600,35,0,621,36,0,621,37,0,621,38,0,621,39,0,621,40,0,600,41,0,600,42,0,600,43,0,600,44,0,600,45,0,600,46,0,621,56,0,200,57,0,200,58,0,200,59,0,600,60,0,600,61,0,600*41
$PAIRDGP,9,5,10,12,15,18,23,24,25,32*5B
$GNGGA,113329.200,2500.8153785,N,12132.4671748,E,2,63,0.45,23.957,M,15.25,M,31,3335*7F
$GNRMC,113329.200,A,2500.8153785,N,12132.4671748,E,0.04,294.89,260623,,,D,V*01
$GPHDT,,T*1B
$GNACCURACY,2.8*1C
$GNGGA,113329.300,2500.8167304,N,12132.4669914,E,4,63,0.45,16.091,M,15.25,M,31,3335*79
$GNRMC,113329.300,A,2500.8167304,N,12132.4669914,E,0.04,294.89,260623,,,R,V*12
$GPHDT,,T*1B
$GNACCURACY,2.8*1C
$GNGGA,113329.400,2500.8167328,N,12132.4669977,E,4,63,0.45,16.103,M,15.25,M,31,3335*7F
$GNRMC,113329.400,A,2500.8167328,N,12132.4669977,E,0.04,294.89,260623,,,R,V*1E
$GPHDT,,T*1B
$GNACCURACY,2.8*1C
$GNGGA,113329.500,2500.8167371,N,12132.4669965,E,4,63,0.45,16.110,M,15.25,M,31,3335*73
$GNRMC,113329.500,A,2500.8167371,N,12132.4669965,E,0.03,294.89,260623,,,R,V*17
$GPHDT,,T*1B
$GNACCURACY,2.8*1C
$GNGGA,113329.600,2500.8167341,N,12132.4670018,E,4,63,0.45,16.096,M,15.25,M,31,3335*77
$GNRMC,113329.600,A,2500.8167341,N,12132.4670018,E,0.02,294.89,260623,,,R,V*1D
$GPHDT,,T*1B
$GNACCURACY,2.8*1C
$GNGGA,113329.700,2500.8167350,N,12132.4669961,E,4,63,0.45,16.114,M,15.25,M,31,3335*72
$GNRMC,113329.700,A,2500.8167350,N,12132.4669961,E,0.03,294.89,260623,,,R,V*12
$GPHDT,,T*1B
$GNACCURACY,2.8*1C
$GNGGA,113329.800,2500.8167405,N,12132.4669936,E,4,63,0.45,16.117,M,15.25,M,31,3335*7B
$GNRMC,113329.800,A,2500.8167405,N,12132.4669936,E,0.02,294.89,260623,,,R,V*19
$GPHDT,,T*1B
$GNACCURACY,2.8*1C
$GNGGA,113329.900,2500.8167397,N,12132.4669958,E,4,63,0.45,16.128,M,15.25,M,31,3335*72
$GNRMC,113329.900,A,2500.8167397,N,12132.4669958,E,0.02,294.89,260623,,,R,V*1C
$GPHDT,,T*1B
$GNACCURACY,2.8*1C
$GNGGA,113330.000,2500.8167370,N,12132.4669973,E,4,63,0.45,16.102,M,15.25,M,32,3335*78
$GNRMC,113330.000,A,2500.8167370,N,12132.4669973,E,0.02,294.89,260623,,,R,V*1D
$GPHDT,,T*1B
$GNACCURACY,2.8*1C
$GNGGA,113330.100,2500.8167371,N,12132.4669996,E,4,63,0.45,16.117,M,15.25,M,32,3335*77
$GNRMC,113330.100,A,2500.8167371,N,12132.4669996,E,0.01,294.89,260623,,,R,V*15
$GPHDT,,T*1B
$GNGSA,A,3,196,24,199,18,23,15,195,194,12,10,05,32,0.71,0.45,0.55,1*04
$GNGSA,A,3,80,73,85,86,71,69,,,,,,,0.71,0.45,0.55,2*03
$GNGSA,A,3,13,08,07,26,30,02,15,,,,,,0.71,0.45,0.55,3*08
$GNGSA,A,3,38,08,39,13,16,06,46,19,09,20,36,35,0.71,0.45,0.55,4*0B
$GNGSA,A,3,29,22,,,,,,,,,,,0.71,0.45,0.55,4*08
$GPGSV,4,1,15,196,75,067,25,24,70,039,34,199,60,167,37,18,57,240,41,1*68
$GPGSV,4,2,15,23,53,340,39,41,38,242,35,15,35,050,32,195,33,180,34,1*55
$GPGSV,4,3,15,194,32,138,17,12,22,139,34,10,20,320,24,05,17,121,28,1*56
$GPGSV,4,4,15,25,11,174,23,32,11,272,34,13,06,059,16,1*5A
$GPGSV,3,1,09,196,75,067,32,24,70,039,38,199,60,167,48,18,57,240,47,8*6F
$GPGSV,3,2,09,23,53,340,42,195,33,180,25,194,32,138,33,10,20,320,30,8*66
$GPGSV,3,3,09,32,11,272,23,8*53
$GLGSV,2,1,08,80,48,071,22,73,42,157,37,70,41,015,,85,33,242,18,1*72
$GLGSV,2,2,08,86,27,298,42,71,23,317,27,69,12,077,18,79,09,030,26,1*7C
$GAGSV,3,1,10,13,54,228,43,08,45,028,27,07,44,306,43,26,33,304,41,7*79
$GAGSV,3,2,10,30,28,142,27,02,26,083,21,15,20,174,20,03,09,066,16,7*7D
$GAGSV,3,3,10,27,03,187,,25,02,041,,7*7A
$GAGSV,2,1,06,13,54,228,43,08,45,028,30,07,44,306,45,26,33,304,44,1*7C
$GAGSV,2,2,06,30,28,142,23,15,20,174,18,1*71
$GBGSV,4,1,16,38,83,126,41,08,81,001,38,39,70,287,45,13,69,331,37,1*76
$GBGSV,4,2,16,16,66,262,41,06,65,257,37,46,61,105,41,19,50,348,37,1*70
$GBGSV,4,3,16,09,50,241,41,20,42,067,34,36,38,184,32,37,21,046,,1*7D
$GBGSV,4,4,16,35,20,266,24,29,17,210,33,22,13,303,39,07,05,192,,1*7F
$GBGSV,3,1,09,38,83,126,48,39,70,287,44,46,61,105,39,19,50,348,44,4*78
$GBGSV,3,2,09,20,42,067,26,36,38,184,29,35,20,266,17,29,17,210,30,4*7F
$GBGSV,3,3,09,22,13,303,36,4*4D
$GNACCURACY,2.8*1C
$PAIRSAT,1,35,1,0,200,2,0,200,3,0,200,4,0,200,5,0,201,6,0,200,7,0,200,8,0,200,9,0,200,10,0,221,11,0,200,12,0,201,13,0,201,14,0,200,15,0,201,16,0,200,17,0,200,18,0,221,19,0,200,20,0,200,21,0,200,23,0,221,24,0,221,25,0,200,26,0,200,27,0,200,28,0,200,29,0,200,30,0,200,31,0,200,32,0,221,194,0,621,195,0,621,196,0,620,199,0,621*68
$PAIRSAT,2,23,65,0,200,67,0,200,68,0,200,69,0,201,70,0,201,71,0,201,72,0,200,73,0,201,74,0,200,75,0,200,76,0,200,77,0,200,78,0,200,79,0,201,80,0,201,81,0,200,82,0,200,83,0,200,84,0,200,85,0,201,86,0,201,87,0,200,88,0,200*53
$PAIRSAT,3,23,2,0,1221,3,0,1221,4,0,1200,5,0,200,7,0,1221,8,0,1221,9,0,1200,10,0,1200,11,0,1200,12,0,1200,13,0,1221,15,0,1221,19,0,1200,21,0,1200,24,0,1200,25,0,1200,26,0,1221,27,0,1200,30,0,1221,31,0,1200,33,0,1200,34,0,1200,36,0,1200*6A
$PAIRSAT,4,50,1,0,200,2,0,200,3,0,200,4,0,200,5,0,200,6,0,201,7,0,200,8,0,201,9,0,201,10,0,200,11,0,200,12,0,200,13,0,201,14,0,200,15,0,200,16,0,201,19,0,621,20,0,621,21,0,600,22,0,621,23,0,600,24,0,600,25,0,600,26,0,600,27,0,600,28,0,600,29,0,621,30,0,600,31,0,200,32,0,600,33,0,600,34,0,600,35,0,621,36,0,621,37,0,621,38,0,621,39,0,621,40,0,600,41,0,600,42,0,600,43,0,600,44,0,600,45,0,600,46,0,621,56,0,200,57,0,200,58,0,200,59,0,600,60,0,600,61,0,600*41
$PAIRDGP,9,5,10,12,15,18,23,24,25,32*5B
$GNGGA,113330.200,2500.8167332,N,12132.4669936,E,4,63,0.45,16.106,M,15.25,M,32,3335*79
$GNRMC,113330.200,A,2500.8167332,N,12132.4669936,E,0.01,294.89,260623,,,R,V*1B
$GPHDT,,T*1B
$GNACCURACY,2.8*1C
$GNGGA,113330.300,2500.8167387,N,12132.4669971,E,4,63,0.45,16.117,M,15.25,M,32,3335*75
$GNRMC,113330.300,A,2500.8167387,N,12132.4669971,E,0.01,294.89,260623,,,R,V*17
$GPHDT,,T*1B
$GNACCURACY,2.8*1C
$GNGGA,113330.400,2500.8167364,N,12132.4669965,E,4,63,0.45,16.111,M,15.25,M,32,3335*7C
$GNRMC,113330.400,A,2500.8167364,N,12132.4669965,E,0.01,294.89,260623,,,R,V*18
$GPHDT,,T*1B
$GNACCURACY,2.8*1C
$GNGGA,113330.500,2500.8167346,N,12132.4669925,E,4,63,0.45,16.120,M,15.25,M,32,3335*7B
$GNRMC,113330.500,A,2500.8167346,N,12132.4669925,E,0.01,294.89,260623,,,R,V*1D
$GPHDT,,T*1B
$GNACCURACY,2.8*1C
$GNGGA,113330.600,2500.8167351,N,12132.4669955,E,4,63,0.45,16.108,M,15.25,M,32,3335*73
$GNRMC,113330.600,A,2500.8167351,N,12132.4669955,E,0.01,294.89,260623,,,R,V*1F
$GPHDT,,T*1B
$GNACCURACY,2.8*1C
$GNGGA,113330.700,2500.8167385,N,12132.4669935,E,4,63,0.45,16.117,M,15.25,M,32,3335*73
$GNRMC,113330.700,A,2500.8167385,N,12132.4669935,E,0.01,294.89,260623,,,R,V*11
$GPHDT,,T*1B
$GNACCURACY,2.8*1C
$GNGGA,113330.800,2500.8167377,N,12132.4669990,E,4,63,0.45,16.109,M,15.25,M,32,3335*71
$GNRMC,113330.800,A,2500.8167377,N,12132.4669990,E,0.01,294.89,260623,,,R,V*1C
$GPHDT,,T*1B
$GNACCURACY,2.8*1C
$GNGGA,113330.900,2500.8167366,N,12132.4669974,E,4,63,0.45,16.099,M,15.25,M,32,3335*72
$GNRMC,113330.900,A,2500.8167366,N,12132.4669974,E,0.01,294.89,260623,,,R,V*17
$GPHDT,,T*1B
$GNACCURACY,2.8*1C
$GNGGA,113331.000,2500.8167368,N,12132.4669945,E,4,63,0.45,16.123,M,15.25,M,33,3335*77
$GNRMC,113331.000,A,2500.8167368,N,12132.4669945,E,0.01,294.89,260623,,,R,V*13
$GPHDT,,T*1B
$GNACCURACY,2.8*1C
$GNGGA,113331.100,2500.8167371,N,12132.4669955,E,4,63,0.45,16.110,M,15.25,M,33,3335*7F
$GNRMC,113331.100,A,2500.8167371,N,12132.4669955,E,0.00,294.89,260623,,,R,V*1A
$GPHDT,,T*1B
$GNGSA,A,3,196,24,199,18,23,15,195,194,12,10,05,32,0.71,0.45,0.55,1*04
$GNGSA,A,3,80,73,85,86,71,69,,,,,,,0.71,0.45,0.55,2*03
$GNGSA,A,3,13,08,07,26,30,02,15,,,,,,0.71,0.45,0.55,3*08
$GNGSA,A,3,38,08,39,13,16,06,46,09,19,20,36,35,0.71,0.45,0.55,4*0B
$GNGSA,A,3,29,22,,,,,,,,,,,0.71,0.45,0.55,4*08
$GPGSV,4,1,15,196,75,067,25,24,70,039,34,199,60,167,37,18,57,240,41,1*68
$GPGSV,4,2,15,23,53,340,39,41,38,242,35,15,35,050,32,195,33,180,34,1*55
$GPGSV,4,3,15,194,32,138,16,12,22,139,34,10,20,320,26,05,17,121,26,1*5B
$GPGSV,4,4,15,25,11,174,19,32,11,272,30,13,06,059,18,1*59
$GPGSV,3,1,09,196,75,067,32,24,70,039,38,199,60,167,48,18,57,240,47,8*6F
$GPGSV,3,2,09,23,53,340,42,195,33,180,25,194,32,138,33,10,20,320,32,8*64
$GPGSV,3,3,09,32,11,272,19,8*5A
$GLGSV,2,1,08,80,48,071,20,73,42,157,37,70,41,015,,85,33,242,20,1*7B
$GLGSV,2,2,08,86,27,298,42,71,23,317,29,69,12,077,18,79,09,030,28,1*7C
$GAGSV,3,1,09,13,54,228,43,08,45,028,27,07,44,307,43,26,33,304,41,7*70
$GAGSV,3,2,09,30,28,142,27,02,26,082,23,15,20,174,20,03,09,066,15,7*75
$GAGSV,3,3,09,27,03,187,,7*42
$GAGSV,2,1,06,13,54,228,43,08,45,028,30,07,44,307,45,26,33,304,44,1*7D
$GAGSV,2,2,06,30,28,142,25,15,20,174,18,1*77
$GBGSV,4,1,16,38,83,126,41,08,81,001,38,39,70,287,45,13,69,331,37,1*76
$GBGSV,4,2,16,16,66,262,41,06,65,257,37,46,61,105,41,09,50,241,41,1*78
$GBGSV,4,3,16,19,50,348,37,20,42,067,34,36,38,184,33,37,21,046,,1*74
$GBGSV,4,4,16,35,20,266,25,29,17,210,34,22,13,303,39,07,05,192,,1*79
$GBGSV,3,1,09,38,83,126,48,39,70,287,44,46,61,105,39,19,50,348,44,4*78
$GBGSV,3,2,09,20,42,067,26,36,38,184,31,35,20,266,17,29,17,210,30,4*76
$GBGSV,3,3,09,22,13,303,36,4*4D
$GNACCURACY,2.8*1C
$PAIRSAT,1,35,1,0,200,2,0,200,3,0,200,4,0,200,5,0,201,6,0,200,7,0,200,8,0,200,9,0,200,10,0,221,11,0,200,12,0,201,13,0,201,14,0,200,15,0,201,16,0,200,17,0,200,18,0,221,19,0,200,20,0,200,21,0,200,23,0,221,24,0,221,25,0,200,26,0,200,27,0,200,28,0,200,29,0,200,30,0,200,31,0,200,32,0,221,194,0,621,195,0,621,196,0,620,199,0,621*68
$PAIRSAT,2,23,65,0,200,67,0,200,68,0,200,69,0,201,70,0,201,71,0,201,72,0,200,73,0,201,74,0,200,75,0,200,76,0,200,77,0,200,78,0,200,79,0,201,80,0,201,81,0,200,82,0,200,83,0,200,84,0,200,85,0,201,86,0,201,87,0,200,88,0,200*53
$PAIRSAT,3,23,2,0,1221,3,0,1221,4,0,1200,5,0,200,7,0,1221,8,0,1221,9,0,1200,10,0,1200,11,0,1200,12,0,1200,13,0,1221,15,0,1221,19,0,1200,21,0,1200,24,0,1200,25,0,1200,26,0,1221,27,0,1200,30,0,1221,31,0,1200,33,0,1200,34,0,1200,36,0,1200*6A
$PAIRSAT,4,50,1,0,200,2,0,200,3,0,200,4,0,200,5,0,200,6,0,201,7,0,200,8,0,201,9,0,201,10,0,200,11,0,200,12,0,200,13,0,201,14,0,200,15,0,200,16,0,201,19,0,621,20,0,621,21,0,600,22,0,621,23,0,600,24,0,600,25,0,600,26,0,600,27,0,600,28,0,600,29,0,621,30,0,600,31,0,200,32,0,600,33,0,600,34,0,600,35,0,621,36,0,621,37,0,621,38,0,621,39,0,621,40,0,600,41,0,600,42,0,600,43,0,600,44,0,600,45,0,600,46,0,621,56,0,200,57,0,200,58,0,200,59,0,600,60,0,600,61,0,600*41
$PAIRDGP,9,5,10,12,15,18,23,24,25,32*5B
$GNGGA,113331.200,2500.8167375,N,12132.4669970,E,4,63,0.45,16.121,M,15.25,M,33,3335*7D
$GNRMC,113331.200,A,2500.8167375,N,12132.4669970,E,0.01,294.89,260623,,,R,V*1B
$GPHDT,,T*1B
$GNACCURACY,2.8*1C
$GNGGA,113331.300,2500.8167352,N,12132.4669925,E,4,63,0.45,16.121,M,15.25,M,33,3335*79
$GNRMC,113331.300,A,2500.8167352,N,12132.4669925,E,0.01,294.89,260623,,,R,V*1F
$GPHDT,,T*1B
$GNACCURACY,2.8*1C
$GNGGA,113331.400,2500.8167378,N,12132.4669975,E,4,63,0.45,16.118,M,15.25,M,33,3335*79
$GNRMC,113331.400,A,2500.8167378,N,12132.4669975,E,0.01,294.89,260623,,,R,V*15
$GPHDT,,T*1B
$GNACCURACY,2.8*1C
$GNGGA,113331.500,2500.8167373,N,12132.4669945,E,4,63,0.45,16.124,M,15.25,M,33,3335*7F
$GNRMC,113331.500,A,2500.8167373,N,12132.4669945,E,0.01,294.89,260623,,,R,V*1C
$GPHDT,,T*1B
$GNACCURACY,2.8*1C
$GNGGA,113331.600,2500.8167366,N,12132.4670001,E,4,63,0.45,16.114,M,15.25,M,33,3335*7A
$GNRMC,113331.600,A,2500.8167366,N,12132.4670001,E,0.02,294.89,260623,,,R,V*19
$GPHDT,,T*1B
$GNACCURACY,2.8*1C
$GNGGA,113331.700,2500.8167373,N,12132.4669995,E,4,63,0.45,16.108,M,15.25,M,33,3335*7E
$GNRMC,113331.700,A,2500.8167373,N,12132.4669995,E,0.03,294.89,260623,,,R,V*11
$GPHDT,,T*1B
$GNACCURACY,2.8*1C
$GNGGA,113331.800,2500.8167370,N,12132.4669959,E,4,63,0.45,16.112,M,15.25,M,33,3335*79
$GNRMC,113331.800,A,2500.8167370,N,12132.4669959,E,0.03,294.89,260623,,,R,V*1D
$GPHDT,,T*1B
$GNACCURACY,2.8*1C
$GNGGA,113331.900,2500.8167364,N,12132.4670000,E,4,63,0.45,16.101,M,15.25,M,33,3335*72
$GNRMC,113331.900,A,2500.8167364,N,12132.4670000,E,0.03,294.89,260623,,,R,V*14
$GPHDT,,T*1B
$GNACCURACY,2.8*1C
$GNGGA,113332.000,2500.8167366,N,12132.4669971,E,4,63,0.45,16.105,M,15.25,M,34,3335*7E
$GNRMC,113332.000,A,2500.8167366,N,12132.4669971,E,0.03,294.89,260623,,,R,V*1B
$GPHDT,,T*1B
$GNACCURACY,2.8*1C
$GNGGA,113332.100,2500.8167354,N,12132.4669965,E,4,63,0.45,16.114,M,15.25,M,34,3335*7B
$GNRMC,113332.100,A,2500.8167354,N,12132.4669965,E,0.03,294.89,260623,,,R,V*1E
$GPHDT,,T*1B
$GNGSA,A,3,196,24,199,18,23,15,195,194,12,10,05,32,0.71,0.45,0.55,1*04
$GNGSA,A,3,80,73,85,86,71,69,,,,,,,0.71,0.45,0.55,2*03
$GNGSA,A,3,13,08,07,26,30,02,15,,,,,,0.71,0.45,0.55,3*08
$GNGSA,A,3,38,08,39,13,16,06,46,09,19,20,36,35,0.71,0.45,0.55,4*0B
$GNGSA,A,3,29,22,,,,,,,,,,,0.71,0.45,0.55,4*08
$GPGSV,4,1,15,196,75,067,25,24,70,039,33,199,60,167,37,18,57,240,41,1*6F
$GPGSV,4,2,15,23,53,340,40,41,38,242,36,15,35,050,32,195,33,180,34,1*58
$GPGSV,4,3,15,194,32,138,16,12,22,139,34,10,20,320,25,05,17,121,26,1*58
$GPGSV,4,4,15,25,11,174,18,32,11,272,32,13,06,059,19,1*5B
$GPGSV,3,1,09,196,75,067,31,24,70,039,38,199,60,167,47,18,57,240,47,8*63
$GPGSV,3,2,09,23,53,340,42,195,33,180,24,194,32,138,32,10,20,320,31,8*67
$GPGSV,3,3,09,32,11,272,19,8*5A
$GLGSV,2,1,08,80,48,071,19,73,42,157,37,70,41,015,,85,33,242,21,1*70
$GLGSV,2,2,08,86,27,298,42,71,23,317,28,69,12,077,19,79,09,030,30,1*75
$GAGSV,3,1,09,13,54,228,43,08,45,028,26,07,44,307,43,26,33,304,41,7*71
$GAGSV,3,2,09,30,28,142,26,02,26,082,22,15,20,174,20,03,09,066,15,7*75
$GAGSV,3,3,09,27,03,187,,7*42
$GAGSV,2,1,06,13,54,228,43,08,45,028,30,07,44,307,45,26,33,304,44,1*7D
$GAGSV,2,2,06,30,28,142,24,15,20,174,18,1*76
$GBGSV,4,1,16,38,83,126,41,08,81,001,38,39,70,287,45,13,69,331,37,1*76
$GBGSV,4,2,16,16,66,262,41,06,65,257,37,46,61,105,41,09,50,241,41,1*78
$GBGSV,4,3,16,19,50,348,37,20,42,067,34,36,38,184,33,37,21,046,,1*74
$GBGSV,4,4,16,35,20,266,23,29,17,210,34,22,13,303,40,07,05,192,,1*71
$GBGSV,3,1,09,38,83,126,48,39,70,287,43,46,61,105,39,19,50,348,44,4*7F
$GBGSV,3,2,09,20,42,067,25,36,38,184,29,35,20,266,18,29,17,210,30,4*73
$GBGSV,3,3,09,22,13,303,36,4*4D
$GNACCURACY,2.9*1D
$PAIRSAT,1,35,1,0,200,2,0,200,3,0,200,4,0,200,5,0,201,6,0,200,7,0,200,8,0,200,9,0,200,10,0,221,11,0,200,12,0,201,13,0,201,14,0,200,15,0,201,16,0,200,17,0,200,18,0,221,19,0,200,20,0,200,21,0,200,23,0,221,24,0,221,25,0,200,26,0,200,27,0,200,28,0,200,29,0,200,30,0,200,31,0,200,32,0,221,194,0,621,195,0,621,196,0,620,199,0,621*68
$PAIRSAT,2,23,65,0,200,67,0,200,68,0,200,69,0,201,70,0,201,71,0,201,72,0,200,73,0,201,74,0,200,75,0,200,76,0,200,77,0,200,78,0,200,79,0,201,80,0,201,81,0,200,82,0,200,83,0,200,84,0,200,85,0,201,86,0,201,87,0,200,88,0,200*53
$PAIRSAT,3,23,2,0,1221,3,0,1221,4,0,1200,5,0,200,7,0,1221,8,0,1221,9,0,1200,10,0,1200,11,0,1200,12,0,1200,13,0,1221,15,0,1221,19,0,1200,21,0,1200,24,0,1200,25,0,1200,26,0,1221,27,0,1200,30,0,1221,31,0,1200,33,0,1200,34,0,1200,36,0,1200*6A
$PAIRSAT,4,50,1,0,200,2,0,200,3,0,200,4,0,200,5,0,200,6,0,201,7,0,200,8,0,201,9,0,201,10,0,200,11,0,200,12,0,200,13,0,201,14,0,200,15,0,200,16,0,201,19,0,621,20,0,621,21,0,600,22,0,621,23,0,600,24,0,600,25,0,600,26,0,600,27,0,600,28,0,600,29,0,621,30,0,600,31,0,200,32,0,600,33,0,600,34,0,600,35,0,621,36,0,621,37,0,621,38,0,621,39,0,621,40,0,600,41,0,600,42,0,600,43,0,600,44,0,600,45,0,600,46,0,621,56,0,200,57,0,200,58,0,200,59,0,600,60,0,600,61,0,600*41
$PAIRDGP,9,5,10,12,15,18,23,24,25,32*5B
$GNGGA,113332.200,2500.8167375,N,12132.4669947,E,4,63,0.45,16.117,M,15.25,M,34,3335*78
$GNRMC,113332.200,A,2500.8167375,N,12132.4669947,E,0.03,294.89,260623,,,R,V*1E
$GPHDT,,T*1B
$GNACCURACY,2.9*1D
$GNGGA,113332.300,2500.8167364,N,12132.4669948,E,4,63,0.45,16.110,M,15.25,M,34,3335*71
$GNRMC,113332.300,A,2500.8167364,N,12132.4669948,E,0.03,294.89,260623,,,R,V*10
$GPHDT,,T*1B
$GNACCURACY,2.9*1D
$GNGGA,113332.400,2500.8167367,N,12132.4669961,E,4,63,0.45,16.103,M,15.25,M,34,3335*7C
$GNRMC,113332.400,A,2500.8167367,N,12132.4669961,E,0.03,294.89,260623,,,R,V*1F
$GPHDT,,T*1B
$GNACCURACY,2.8*1C
$GNGGA,113332.500,2500.8167361,N,12132.4669962,E,4,63,0.45,16.108,M,15.25,M,34,3335*73
$GNRMC,113332.500,A,2500.8167361,N,12132.4669962,E,0.03,294.89,260623,,,R,V*1B
$GPHDT,,T*1B
$GNACCURACY,2.8*1C
$GNGGA,113332.600,2500.8167388,N,12132.4669953,E,4,63,0.45,16.116,M,15.25,M,34,3335*7A
$GNRMC,113332.600,A,2500.8167388,N,12132.4669953,E,0.03,294.89,260623,,,R,V*1D
$GPHDT,,T*1B
$GNACCURACY,2.8*1C
$GNGGA,113332.700,2500.8167384,N,12132.4669933,E,4,63,0.45,16.128,M,15.25,M,34,3335*7C
$GNRMC,113332.700,A,2500.8167384,N,12132.4669933,E,0.02,294.89,260623,,,R,V*17
$GPHDT,,T*1B
$GNACCURACY,2.8*1C
$GNGGA,113332.800,2500.8167372,N,12132.4669977,E,4,63,0.45,16.108,M,15.25,M,34,3335*78
$GNRMC,113332.800,A,2500.8167372,N,12132.4669977,E,0.01,294.89,260623,,,R,V*12
$GPHDT,,T*1B
$GNACCURACY,2.8*1C
$GNGGA,113332.900,2500.8167337,N,12132.4669963,E,4,63,0.45,16.096,M,15.25,M,34,3335*7B
$GNRMC,113332.900,A,2500.8167337,N,12132.4669963,E,0.04,294.89,260623,,,R,V*12
$GPHDT,,T*1B
$GNACCURACY,2.8*1C
$GNGGA,113333.000,2500.8167372,N,12132.4669955,E,4,62,0.45,16.117,M,15.25,M,35,3335*7F
$GNRMC,113333.000,A,2500.8167372,N,12132.4669955,E,0.03,294.89,260623,,,R,V*19
$GPHDT,,T*1B
$GNACCURACY,2.8*1C
$GNGGA,113333.100,2500.8167362,N,12132.4669977,E,4,62,0.45,16.104,M,15.25,M,35,3335*7D
$GNRMC,113333.100,A,2500.8167362,N,12132.4669977,E,0.03,294.89,260623,,,R,V*19
$GPHDT,,T*1B
$GNGSA,A,3,196,24,199,18,23,15,195,12,10,05,32,194,0.71,0.45,0.55,1*04
$GNGSA,A,3,80,73,85,86,71,69,,,,,,,0.71,0.45,0.55,2*03
$GNGSA,A,3,13,08,07,26,30,02,15,,,,,,0.71,0.45,0.55,3*08
$GNGSA,A,3,38,08,39,13,16,06,46,19,09,20,36,35,0.71,0.45,0.55,4*0B
$GNGSA,A,3,29,22,,,,,,,,,,,0.71,0.45,0.55,4*08
$GPGSV,4,1,15,196,75,067,25,24,70,039,33,199,60,167,37,18,57,240,41,1*6F
$GPGSV,4,2,15,23,53,340,40,41,38,242,36,15,35,050,32,195,33,180,34,1*58
$GPGSV,4,3,15,194,32,138,16,12,22,139,34,10,20,320,25,05,17,121,27,1*59
$GPGSV,4,4,15,25,11,174,18,32,11,272,34,13,06,059,20,1*57
$GPGSV,3,1,09,196,75,067,32,24,70,039,38,199,60,167,47,18,57,240,47,8*60
$GPGSV,3,2,09,23,53,340,42,195,33,180,25,194,32,138,32,10,20,320,31,8*66
$GPGSV,3,3,09,32,11,272,22,8*52
$GLGSV,3,1,10,80,48,071,18,73,42,157,37,70,41,015,,85,33,242,21,1*79
$GLGSV,3,2,10,86,27,298,42,71,23,317,28,69,12,077,19,79,09,030,31,1*7C
$GLGSV,3,3,10,74,06,186,,84,05,188,,1*7B
$GAGSV,3,1,09,13,54,228,43,08,45,028,25,07,44,307,43,26,33,304,41,7*72
$GAGSV,3,2,09,30,28,142,26,02,26,082,23,15,20,174,19,03,09,066,15,7*7E
$GAGSV,3,3,09,27,03,187,,7*42
$GAGSV,2,1,06,13,54,228,43,08,45,028,30,07,44,307,45,26,33,304,44,1*7D
$GAGSV,2,2,06,30,28,142,24,15,20,174,18,1*76
$GBGSV,4,1,15,38,83,126,41,08,81,001,38,39,70,287,45,13,69,331,37,1*75
$GBGSV,4,2,15,16,66,262,41,06,65,257,37,46,61,105,41,19,50,348,37,1*73
$GBGSV,4,3,15,09,50,241,41,20,42,067,34,36,38,184,32,37,21,046,,1*7E
$GBGSV,4,4,15,35,20,266,29,29,17,210,34,22,13,303,40,1*40
$GBGSV,3,1,09,38,83,126,48,39,70,287,43,46,61,105,39,19,50,348,44,4*7F
$GBGSV,3,2,09,20,42,067,26,36,38,184,31,35,20,266,19,29,17,210,31,4*79
$GBGSV,3,3,09,22,13,303,34,4*4F
$GNACCURACY,2.8*1C
$PAIRSAT,1,35,1,0,200,2,0,200,3,0,200,4,0,200,5,0,201,6,0,200,7,0,200,8,0,200,9,0,200,10,0,221,11,0,200,12,0,201,13,0,201,14,0,200,15,0,201,16,0,200,17,0,200,18,0,221,19,0,200,20,0,200,21,0,200,23,0,221,24,0,221,25,0,200,26,0,200,27,0,200,28,0,200,29,0,200,30,0,200,31,0,200,32,0,221,194,0,621,195,0,621,196,0,620,199,0,621*68
$PAIRSAT,2,23,65,0,200,67,0,200,68,0,200,69,0,201,70,0,201,71,0,201,72,0,200,73,0,201,74,0,200,75,0,200,76,0,200,77,0,200,78,0,200,79,0,201,80,0,201,81,0,200,82,0,200,83,0,200,84,0,200,85,0,201,86,0,201,87,0,200,88,0,200*53
$PAIRSAT,3,23,2,0,1221,3,0,1221,4,0,1200,5,0,200,7,0,1221,8,0,1221,9,0,1200,10,0,1200,11,0,1200,12,0,1200,13,0,1221,15,0,1221,19,0,1200,21,0,1200,24,0,1200,25,0,1200,26,0,1221,27,0,1200,30,0,1221,31,0,1200,33,0,1200,34,0,1200,36,0,1200*6A
$PAIRSAT,4,50,1,0,200,2,0,200,3,0,200,4,0,200,5,0,200,6,0,201,7,0,200,8,0,201,9,0,201,10,0,200,11,0,200,12,0,200,13,0,201,14,0,200,15,0,200,16,0,201,19,0,621,20,0,621,21,0,600,22,0,621,23,0,600,24,0,600,25,0,600,26,0,600,27,0,600,28,0,600,29,0,621,30,0,600,31,0,200,32,0,600,33,0,600,34,0,600,35,0,621,36,0,621,37,0,621,38,0,621,39,0,621,40,0,600,41,0,600,42,0,600,43,0,600,44,0,600,45,0,600,46,0,621,56,0,200,57,0,200,58,0,200,59,0,600,60,0,600,61,0,600*41
$PAIRDGP,9,5,10,12,15,18,23,24,25,32*5B
$GNGGA,113333.200,2500.8167334,N,12132.4669977,E,4,62,0.45,16.102,M,15.25,M,35,3335*7B
$GNRMC,113333.200,A,2500.8167334,N,12132.4669977,E,0.02,294.89,260623,,,R,V*18
$GPHDT,,T*1B
$GNACCURACY,2.8*1C
$GNGGA,113333.300,2500.8167347,N,12132.4669944,E,4,62,0.45,16.103,M,15.25,M,35,3335*7F
$GNRMC,113333.300,A,2500.8167347,N,12132.4669944,E,0.01,294.89,260623,,,R,V*1E
$GPHDT,,T*1B
$GNACCURACY,2.8*1C
$GNGGA,113333.400,2500.8167354,N,12132.4669952,E,4,62,0.45,16.109,M,15.25,M,35,3335*77
$GNRMC,113333.400,A,2500.8167354,N,12132.4669952,E,0.01,294.89,260623,,,R,V*1C
$GPHDT,,T*1B
$GNACCURACY,2.8*1C
$GNGGA,113333.500,2500.8167350,N,12132.4669960,E,4,62,0.45,16.101,M,15.25,M,35,3335*7B
$GNRMC,113333.500,A,2500.8167350,N,12132.4669960,E,0.02,294.89,260623,,,R,V*1B
