$FW : RTK35X,V1.1X0314AS,Lib20210517,1*54
$Tool : LOCOSYS , GNSS Firebird , v1.0.0.19*39
$---------------------------------------------------*2D
3,,,R,V*1E
$GPHDT,,T*1B
$GNGSA,A,3,196,24,199,18,23,15,195,194,12,10,05,32,0.77,0.43,0.64,1*06
$GNGSA,A,3,80,73,85,86,71,69,,,,,,,0.77,0.43,0.64,2*01
$GNGSA,A,3,13,07,08,26,30,02,15,,,,,,0.77,0.43,0.64,3*0A
$GNGSA,A,3,38,08,13,39,16,06,46,19,09,20,36,35,0.77,0.43,0.64,4*09
$GNGSA,A,3,37,29,22,,,,,,,,,,0.77,0.43,0.64,4*0E
$GPGSV,4,1,15,196,75,068,32,24,69,038,29,199,60,167,30,18,56,238,44,1*68
$GPGSV,4,2,15,23,55,341,40,41,38,242,37,15,35,051,16,195,32,180,37,1*5B
$GPGSV,4,3,15,194,32,137,35,12,23,138,18,10,21,320,33,05,16,122,24,1*5E
$GPGSV,4,4,15,25,12,174,21,32,11,273,20,13,06,060,,1*52
$GPGSV,3,1,09,196,75,068,34,24,69,038,22,199,60,167,38,18,56,238,47,8*6D
$GPGSV,3,2,09,23,55,341,40,194,32,137,20,195,32,180,34,10,21,320,34,8*6A
$GPGSV,3,3,09,32,11,273,30,8*50
$GLGSV,3,1,09,80,48,069,24,73,43,157,30,70,41,017,,85,32,241,17,1*74
$GLGSV,3,2,09,86,28,296,39,71,24,319,40,69,11,078,20,79,08,029,32,1*72
$GLGSV,3,3,09,84,04,188,,1*48
$GAGSV,3,1,09,13,53,227,40,07,45,308,41,08,45,029,24,26,34,303,40,7*74
$GAGSV,3,2,09,30,29,141,28,02,26,081,18,15,19,174,21,03,09,067,,7*7D
$GAGSV,3,3,09,25,02,040,,7*4B
$GAGSV,2,1,06,13,53,227,44,07,45,308,46,08,45,029,20,26,34,303,42,1*79
$GAGSV,2,2,06,30,29,141,24,15,19,174,26,1*73
$GBGSV,4,1,16,38,83,131,43,08,81,000,39,13,70,330,39,39,70,289,45,1*7B
$GBGSV,4,2,16,16,66,263,41,06,65,259,40,46,61,103,37,19,51,350,40,1*70
$GBGSV,4,3,16,09,50,242,41,20,42,068,25,36,39,183,23,35,20,265,34,1*70
$GBGSV,4,4,16,37,20,045,24,29,16,209,37,22,13,304,34,10,02,201,,1*71
$GBGSV,3,1,09,38,83,131,46,39,70,289,43,46,61,103,42,19,51,350,42,4*7D
$GBGSV,3,2,09,36,39,183,30,35,20,265,22,37,20,045,18,29,16,209,32,4*70
$GBGSV,3,3,09,22,13,304,26,4*4B
$GNACCURACY,2.8*1C
$PAIRSAT,1,35,1,0,200,2,0,200,3,0,200,4,0,200,5,0,201,6,0,200,7,0,200,8,0,200,9,0,200,10,0,221,11,0,200,12,0,201,13,0,201,14,0,200,15,0,201,16,0,200,17,0,200,18,0,221,19,0,200,20,0,200,21,0,200,23,0,221,24,0,221,25,0,200,26,0,200,27,0,200,28,0,200,29,0,200,30,0,200,31,0,200,32,0,221,194,0,621,195,0,621,196,0,620,199,0,621*68
$PAIRSAT,2,24,65,0,200,66,0,200,67,0,200,68,0,200,69,0,201,70,0,201,71,0,201,72,0,200,73,0,201,74,0,200,75,0,200,76,0,200,77,0,200,78,0,200,79,0,201,80,0,201,81,0,200,82,0,200,83,0,200,84,0,200,85,0,201,86,0,201,87,0,200,88,0,200*7A
$PAIRSAT,3,23,2,0,1221,3,0,1221,4,0,1200,5,0,200,7,0,1221,8,0,1221,9,0,1200,10,0,1200,11,0,1200,12,0,1200,13,0,1221,15,0,1221,19,0,1200,21,0,1200,24,0,1200,25,0,1200,26,0,1221,27,0,1200,30,0,1221,31,0,1200,33,0,1200,34,0,1200,36,0,1200*6A
$PAIRSAT,4,50,1,0,200,2,0,200,3,0,200,4,0,200,5,0,200,6,0,201,7,0,200,8,0,201,9,0,201,10,0,200,11,0,200,12,0,200,13,0,201,14,0,200,15,0,200,16,0,201,19,0,621,20,0,621,21,0,600,22,0,621,23,0,600,24,0,600,25,0,600,26,0,600,27,0,600,28,0,600,29,0,621,30,0,600,31,0,200,32,0,600,33,0,600,34,0,600,35,0,621,36,0,621,37,0,621,38,0,621,39,0,621,40,0,600,41,0,600,42,0,600,43,0,600,44,0,600,45,0,600,46,0,621,56,0,200,57,0,200,58,0,200,59,0,600,60,0,600,61,0,600*41
$PAIRDGP,9,5,10,12,15,18,23,24,25,32*5B
$GNGGA,113601.200,2500.8167274,N,12132.4670042,E,4,63,0.43,16.095,M,15.25,M,1,3335*42
$GNRMC,113601.200,A,2500.8167274,N,12132.4670042,E,0.01,294.89,260623,,,R,V*1D
$GPHDT,,T*1B
$GNACCURACY,2.8*1C
$GNGGA,113601.300,2500.8167284,N,12132.4670041,E,4,62,0.43,16.097,M,15.25,M,1,3335*4C
$GNRMC,113601.300,A,2500.8167284,N,12132.4670041,E,0.01,294.89,260623,,,R,V*10
$GPHDT,,T*1B
$GNACCURACY,2.8*1C
$GNGGA,113601.400,2500.8167289,N,12132.4670076,E,4,62,0.43,16.086,M,15.25,M,1,3335*42
$GNRMC,113601.400,A,2500.8167289,N,12132.4670076,E,0.01,294.89,260623,,,R,V*1E
$GPHDT,,T*1B
$GNACCURACY,2.8*1C
$GNGGA,113601.500,2500.8167300,N,12132.4670065,E,4,63,0.43,16.094,M,15.25,M,1,3335*43
$GNRMC,113601.500,A,2500.8167300,N,12132.4670065,E,0.01,294.89,260623,,,R,V*1D
$GPHDT,,T*1B
$GNACCURACY,2.8*1C
$GNGGA,113601.600,2500.8167326,N,12132.4669972,E,4,64,0.43,16.117,M,15.25,M,0,3335*4F
$GNRMC,113601.600,A,2500.8167326,N,12132.4669972,E,0.01,294.89,260623,,,R,V*1D
$GPHDT,,T*1B
$GNACCURACY,2.8*1C
$GNGGA,113601.700,2500.8167324,N,12132.4669971,E,4,63,0.43,16.112,M,15.25,M,0,3335*4D
$GNRMC,113601.700,A,2500.8167324,N,12132.4669971,E,0.01,294.89,260623,,,R,V*1D
$GPHDT,,T*1B
$GNACCURACY,2.8*1C
$GNGGA,113601.800,2500.8167326,N,12132.4669982,E,4,64,0.43,16.110,M,15.25,M,0,3335*49
$GNRMC,113601.800,A,2500.8167326,N,12132.4669982,E,0.01,294.89,260623,,,R,V*1C
$GPHDT,,T*1B
$GNACCURACY,2.8*1C
$GNGGA,113601.900,2500.8167310,N,12132.4669958,E,4,64,0.43,16.118,M,15.25,M,0,3335*42
$GNRMC,113601.900,A,2500.8167310,N,12132.4669958,E,0.01,294.89,260623,,,R,V*1F
$GPHDT,,T*1B
$GNACCURACY,2.8*1C
$GNGGA,113602.000,2500.8167330,N,12132.4669929,E,4,63,0.45,16.115,M,15.25,M,1,3335*41
$GNRMC,113602.000,A,2500.8167330,N,12132.4669929,E,0.01,294.89,260623,,,R,V*11
$GPHDT,,T*1B
$GNACCURACY,2.8*1C
$GNGGA,113602.100,2500.8167343,N,12132.4669969,E,4,63,0.45,16.102,M,15.25,M,1,3335*46
$GNRMC,113602.100,A,2500.8167343,N,12132.4669969,E,0.01,294.89,260623,,,R,V*10
$GPHDT,,T*1B
$GNGSA,A,3,196,24,199,18,23,195,194,12,10,32,,,0.80,0.45,0.66,1*0B
$GNGSA,A,3,80,73,85,86,71,69,,,,,,,0.80,0.45,0.66,2*0D
$GNGSA,A,3,13,07,08,26,30,02,15,,,,,,0.80,0.45,0.66,3*06
$GNGSA,A,3,38,08,39,13,16,06,46,19,09,20,36,35,0.80,0.45,0.66,4*05
$GNGSA,A,3,37,29,22,,,,,,,,,,0.80,0.45,0.66,4*02
$GPGSV,4,1,15,196,75,068,32,24,69,038,27,199,60,167,31,18,56,238,44,1*67
$GPGSV,4,2,15,23,55,341,40,41,38,242,36,15,35,051,13,195,32,180,35,1*5D
$GPGSV,4,3,15,194,32,137,35,12,23,138,21,10,21,320,34,05,16,122,24,1*53
$GPGSV,4,4,15,25,12,174,23,32,11,273,28,13,06,060,18,1*51
$GPGSV,3,1,09,196,75,068,35,24,69,038,24,199,60,167,41,18,56,238,48,8*6B
$GPGSV,3,2,09,23,55,341,41,194,32,137,23,195,32,180,35,10,21,320,33,8*6E
$GPGSV,3,3,09,32,11,273,31,8*51
$GLGSV,3,1,09,80,48,068,24,73,43,157,31,70,41,017,,85,32,241,19,1*7A
$GLGSV,3,2,09,86,28,296,40,71,24,319,40,69,11,078,22,79,08,029,32,1*7E
$GLGSV,3,3,09,84,04,188,,1*48
$GAGSV,3,1,09,13,53,227,42,07,45,308,41,08,45,029,24,26,34,303,40,7*76
$GAGSV,3,2,09,30,29,141,28,02,26,081,19,15,19,174,21,03,09,067,,7*7C
$GAGSV,3,3,09,25,02,040,,7*4B
$GAGSV,2,1,06,13,53,227,46,07,45,308,46,08,45,029,19,26,34,303,42,1*71
$GAGSV,2,2,06,30,29,141,23,15,19,174,26,1*74
$GBGSV,4,1,15,38,83,131,43,08,81,000,39,39,70,289,44,13,70,330,39,1*79
$GBGSV,4,2,15,16,66,263,42,06,65,259,40,46,61,103,38,19,51,350,40,1*7F
$GBGSV,4,3,15,09,50,242,41,20,42,068,23,36,39,183,21,35,20,265,33,1*70
$GBGSV,4,4,15,37,20,045,24,29,16,209,38,22,13,304,34,1*4D
$GBGSV,3,1,09,38,83,131,46,39,70,289,44,46,61,103,42,19,51,350,42,4*7A
$GBGSV,3,2,09,36,39,183,28,35,20,265,23,37,20,045,17,29,16,209,32,4*77
$GBGSV,3,3,09,22,13,304,27,4*4A
$GNACCURACY,2.8*1C
$PAIRSAT,1,35,1,0,200,2,0,200,3,0,200,4,0,200,5,0,201,6,0,200,7,0,200,8,0,200,9,0,200,10,0,221,11,0,200,12,0,201,13,0,201,14,0,200,15,0,201,16,0,200,17,0,200,18,0,221,19,0,200,20,0,200,21,0,200,23,0,221,24,0,221,25,0,200,26,0,200,27,0,200,28,0,200,29,0,200,30,0,200,31,0,200,32,0,221,194,0,621,195,0,621,196,0,620,199,0,621*68
$PAIRSAT,2,24,65,0,200,66,0,200,67,0,200,68,0,200,69,0,201,70,0,201,71,0,201,72,0,200,73,0,201,74,0,200,75,0,200,76,0,200,77,0,200,78,0,200,79,0,201,80,0,201,81,0,200,82,0,200,83,0,200,84,0,200,85,0,201,86,0,201,87,0,200,88,0,200*7A
$PAIRSAT,3,23,2,0,1221,3,0,1221,4,0,1200,5,0,200,7,0,1221,8,0,1221,9,0,1200,10,0,1200,11,0,1200,12,0,1200,13,0,1221,15,0,1221,19,0,1200,21,0,1200,24,0,1200,25,0,1200,26,0,1221,27,0,1200,30,0,1221,31,0,1200,33,0,1200,34,0,1200,36,0,1200*6A
$PAIRSAT,4,50,1,0,200,2,0,200,3,0,200,4,0,200,5,0,200,6,0,201,7,0,200,8,0,201,9,0,201,10,0,200,11,0,200,12,0,200,13,0,201,14,0,200,15,0,200,16,0,201,19,0,621,20,0,621,21,0,600,22,0,621,23,0,600,24,0,600,25,0,600,26,0,600,27,0,600,28,0,600,29,0,621,30,0,600,31,0,200,32,0,600,33,0,600,34,0,600,35,0,621,36,0,621,37,0,621,38,0,621,39,0,621,40,0,600,41,0,600,42,0,600,43,0,600,44,0,600,45,0,600,46,0,621,56,0,200,57,0,200,58,0,200,59,0,600,60,0,600,61,0,600*41
$PAIRDGP,9,5,10,12,15,18,23,24,25,32*5B
$GNGGA,113602.200,2500.8167344,N,12132.4669982,E,4,62,0.45,16.106,M,15.25,M,1,3335*42
$GNRMC,113602.200,A,2500.8167344,N,12132.4669982,E,0.01,294.89,260623,,,R,V*11
$GPHDT,,T*1B
$GNACCURACY,2.8*1C
$GNGGA,113602.300,2500.8167325,N,12132.4669982,E,4,62,0.45,16.115,M,15.25,M,1,3335*46
$GNRMC,113602.300,A,2500.8167325,N,12132.4669982,E,0.01,294.89,260623,,,R,V*17
$GPHDT,,T*1B
$GNACCURACY,2.8*1C
$GNGGA,113602.400,2500.8167333,N,12132.4669956,E,4,63,0.45,16.123,M,15.25,M,1,3335*4B
$GNRMC,113602.400,A,2500.8167333,N,12132.4669956,E,0.01,294.89,260623,,,R,V*1E
$GPHDT,,T*1B
$GNACCURACY,2.8*1C
$GNGGA,113602.500,2500.8167324,N,12132.4669992,E,4,63,0.45,16.123,M,15.25,M,1,3335*44
$GNRMC,113602.500,A,2500.8167324,N,12132.4669992,E,0.01,294.89,260623,,,R,V*11
$GPHDT,,T*1B
$GNACCURACY,2.8*1C
$GNGGA,113602.600,2500.8167361,N,12132.4669948,E,4,63,0.45,16.116,M,15.25,M,1,3335*47
$GNRMC,113602.600,A,2500.8167361,N,12132.4669948,E,0.01,294.89,260623,,,R,V*14
$GPHDT,,T*1B
$GNACCURACY,2.8*1C
$GNGGA,113602.700,2500.8167336,N,12132.4669936,E,4,63,0.45,16.117,M,15.25,M,0,3335*4D
$GNRMC,113602.700,A,2500.8167336,N,12132.4669936,E,0.01,294.89,260623,,,R,V*1E
$GPHDT,,T*1B
$GNACCURACY,2.8*1C
$GNGGA,113602.800,2500.8167339,N,12132.4669931,E,4,63,0.45,16.111,M,15.25,M,0,3335*4C
$GNRMC,113602.800,A,2500.8167339,N,12132.4669931,E,0.01,294.89,260623,,,R,V*19
$GPHDT,,T*1B
$GNACCURACY,2.8*1C
$GNGGA,113602.900,2500.8167316,N,12132.4669932,E,4,62,0.45,16.116,M,15.25,M,0,3335*45
$GNRMC,113602.900,A,2500.8167316,N,12132.4669932,E,0.01,294.89,260623,,,R,V*16
$GPHDT,,T*1B
$GNACCURACY,2.8*1C
$GNGGA,113603.000,2500.8167331,N,12132.4669960,E,4,62,0.45,16.108,M,15.25,M,1,3335*41
$GNRMC,113603.000,A,2500.8167331,N,12132.4669960,E,0.01,294.89,260623,,,R,V*1C
$GPHDT,,T*1B
$GNACCURACY,2.8*1C
$GNGGA,113603.100,2500.8167332,N,12132.4669944,E,4,62,0.45,16.117,M,15.25,M,1,3335*4B
$GNRMC,113603.100,A,2500.8167332,N,12132.4669944,E,0.01,294.89,260623,,,R,V*18
$GPHDT,,T*1B
$GNGSA,A,3,196,24,199,18,23,195,194,12,10,32,,,0.80,0.45,0.66,1*0B
$GNGSA,A,3,80,73,85,86,71,69,,,,,,,0.80,0.45,0.66,2*0D
$GNGSA,A,3,13,07,08,26,30,02,15,,,,,,0.80,0.45,0.66,3*06
$GNGSA,A,3,38,08,39,13,16,06,46,19,09,20,36,35,0.80,0.45,0.66,4*05
$GNGSA,A,3,37,29,22,,,,,,,,,,0.80,0.45,0.66,4*02
$GPGSV,4,1,15,196,75,068,33,24,69,038,26,199,60,167,34,18,56,238,45,1*63
$GPGSV,4,2,15,23,55,341,40,41,38,242,37,15,35,051,15,195,32,180,38,1*57
$GPGSV,4,3,15,194,32,137,35,12,23,138,21,10,21,320,31,05,16,122,23,1*51
$GPGSV,4,4,15,25,12,174,23,32,11,273,24,13,06,060,17,1*52
$GPGSV,3,1,10,196,75,068,35,24,69,038,24,199,60,167,44,18,56,238,48,8*66
$GPGSV,3,2,10,23,55,341,41,194,32,137,24,195,32,180,35,10,21,320,34,8*66
$GPGSV,3,3,10,25,12,174,17,32,11,273,30,8*68
$GLGSV,3,1,09,80,48,068,23,73,43,157,29,70,41,017,,85,32,241,23,1*7D
$GLGSV,3,2,09,86,28,296,40,71,24,319,39,69,11,078,21,79,08,029,29,1*79
$GLGSV,3,3,09,84,04,188,,1*48
$GAGSV,3,1,09,13,53,227,38,07,45,308,41,08,45,029,19,26,34,303,40,7*75
$GAGSV,3,2,09,30,29,141,26,02,26,081,19,15,19,174,19,03,09,067,,7*79
$GAGSV,3,3,09,25,02,040,,7*4B
$GAGSV,2,1,06,13,53,227,44,08,45,029,19,07,45,308,46,26,34,303,41,1*70
$GAGSV,2,2,06,30,29,141,21,15,19,174,25,1*75
$GBGSV,4,1,15,38,83,131,43,08,81,000,39,39,70,289,44,13,70,330,39,1*79
$GBGSV,4,2,15,16,66,263,42,06,65,259,39,46,61,103,36,19,51,350,40,1*7F
$GBGSV,4,3,15,09,50,242,41,20,42,068,24,36,39,183,23,35,20,265,31,1*77
$GBGSV,4,4,15,37,20,045,25,29,16,209,37,22,13,304,34,1*43
$GBGSV,3,1,09,38,83,131,46,39,70,289,44,46,61,103,42,19,51,350,42,4*7A
$GBGSV,3,2,09,36,39,183,32,35,20,265,23,37,20,045,17,29,16,209,33,4*7D
$GBGSV,3,3,09,22,13,304,25,4*48
$GNACCURACY,2.9*1D
$PAIRSAT,1,35,1,0,200,2,0,200,3,0,200,4,0,200,5,0,201,6,0,200,7,0,200,8,0,200,9,0,200,10,0,221,11,0,200,12,0,201,13,0,201,14,0,200,15,0,201,16,0,200,17,0,200,18,0,221,19,0,200,20,0,200,21,0,200,23,0,221,24,0,221,25,0,200,26,0,200,27,0,200,28,0,200,29,0,200,30,0,200,31,0,200,32,0,221,194,0,621,195,0,621,196,0,620,199,0,621*68
$PAIRSAT,2,24,65,0,200,66,0,200,67,0,200,68,0,200,69,0,201,70,0,201,71,0,201,72,0,200,73,0,201,74,0,200,75,0,200,76,0,200,77,0,200,78,0,200,79,0,201,80,0,201,81,0,200,82,0,200,83,0,200,84,0,200,85,0,201,86,0,201,87,0,200,88,0,200*7A
$PAIRSAT,3,23,2,0,1221,3,0,1221,4,0,1200,5,0,200,7,0,1221,8,0,1221,9,0,1200,10,0,1200,11,0,1200,12,0,1200,13,0,1221,15,0,1221,19,0,1200,21,0,1200,24,0,1200,25,0,1200,26,0,1221,27,0,1200,30,0,1221,31,0,1200,33,0,1200,34,0,1200,36,0,1200*6A
$PAIRSAT,4,50,1,0,200,2,0,200,3,0,200,4,0,200,5,0,200,6,0,201,7,0,200,8,0,201,9,0,201,10,0,200,11,0,200,12,0,200,13,0,201,14,0,200,15,0,200,16,0,201,19,0,621,20,0,621,21,0,600,22,0,621,23,0,600,24,0,600,25,0,600,26,0,600,27,0,600,28,0,600,29,0,621,30,0,600,31,0,200,32,0,600,33,0,600,34,0,600,35,0,621,36,0,621,37,0,621,38,0,621,39,0,621,40,0,600,41,0,600,42,0,600,43,0,600,44,0,600,45,0,600,46,0,621,56,0,200,57,0,200,58,0,200,59,0,600,60,0,600,61,0,600*41
$PAIRDGP,9,5,10,12,15,18,23,24,25,32*5B
$GNGGA,113603.200,2500.8167325,N,12132.4669948,E,4,62,0.45,16.113,M,15.25,M,1,3335*46
$GNRMC,113603.200,A,2500.8167325,N,12132.4669948,E,0.01,294.89,260623,,,R,V*11
$GPHDT,,T*1B
$GNACCURACY,2.8*1C
$GNGGA,113603.300,2500.8167308,N,12132.4669948,E,4,62,0.45,16.094,M,15.25,M,1,3335*46
$GNRMC,113603.300,A,2500.8167308,N,12132.4669948,E,0.01,294.89,260623,,,R,V*1F
$GPHDT,,T*1B
$GNACCURACY,2.8*1C
$GNGGA,113603.400,2500.8167311,N,12132.4669963,E,4,62,0.45,16.101,M,15.25,M,1,3335*4D
$GNRMC,113603.400,A,2500.8167311,N,12132.4669963,E,0.01,294.89,260623,,,R,V*19
$GPHDT,,T*1B
$GNACCURACY,2.8*1C
$GNGGA,113603.500,2500.8167315,N,12132.4669967,E,4,62,0.45,16.097,M,15.25,M,1,3335*42
$GNRMC,113603.500,A,2500.8167315,N,12132.4669967,E,0.01,294.89,260623,,,R,V*18
$GPHDT,,T*1B
$GNACCURACY,2.8*1C
$GNGGA,113603.600,2500.8167298,N,12132.4669952,E,4,61,0.45,16.102,M,15.25,M,1,3335*4D
$GNRMC,113603.600,A,2500.8167298,N,12132.4669952,E,0.01,294.89,260623,,,R,V*19
$GPHDT,,T*1B
$GNACCURACY,2.8*1C
$GNGGA,113603.700,2500.8167284,N,12132.4669971,E,4,61,0.45,16.079,M,15.25,M,1,3335*4D
$GNRMC,113603.700,A,2500.8167284,N,12132.4669971,E,0.01,294.89,260623,,,R,V*14
$GPHDT,,T*1B
$GNACCURACY,2.8*1C
$GNGGA,113603.800,2500.8167284,N,12132.4669981,E,4,61,0.45,16.099,M,15.25,M,1,3335*43
$GNRMC,113603.800,A,2500.8167284,N,12132.4669981,E,0.00,294.89,260623,,,R,V*15
$GPHDT,,T*1B
$GNACCURACY,2.8*1C
$GNGGA,113603.900,2500.8167261,N,12132.4669989,E,4,61,0.45,16.075,M,15.25,M,1,3335*43
$GNRMC,113603.900,A,2500.8167261,N,12132.4669989,E,0.00,294.89,260623,,,R,V*17
$GPHDT,,T*1B
$GNACCURACY,2.8*1C
$GNGGA,113604.000,2500.8167254,N,12132.4670092,E,4,62,0.45,16.013,M,15.25,M,2,3335*40
$GNRMC,113604.000,A,2500.8167254,N,12132.4670092,E,0.00,294.89,260623,,,R,V*14
$GPHDT,,T*1B
$GNACCURACY,2.8*1C
$GNGGA,113604.100,2500.8167275,N,12132.4670093,E,4,62,0.45,16.021,M,15.25,M,2,3335*42
$GNRMC,113604.100,A,2500.8167275,N,12132.4670093,E,0.00,294.89,260623,,,R,V*17
$GPHDT,,T*1B
$GNGSA,A,3,196,24,199,18,23,195,194,12,10,05,32,,0.78,0.45,0.64,1*0B
$GNGSA,A,3,80,73,85,86,71,69,,,,,,,0.78,0.45,0.64,2*08
$GNGSA,A,3,13,08,07,26,30,02,15,,,,,,0.78,0.45,0.64,3*03
$GNGSA,A,3,38,08,13,39,16,06,46,19,09,20,36,35,0.78,0.45,0.64,4*00
$GNGSA,A,3,37,29,22,,,,,,,,,,0.78,0.45,0.64,4*07
$GPGSV,4,1,15,196,75,068,33,24,69,038,27,199,60,167,35,18,56,238,45,1*63
$GPGSV,4,2,15,23,55,341,39,41,38,242,37,15,35,051,17,195,32,180,38,1*5B
$GPGSV,4,3,15,194,32,137,33,12,23,138,24,10,21,320,33,05,16,122,23,1*50
$GPGSV,4,4,15,25,12,174,23,32,11,273,19,13,06,060,18,1*53
$GPGSV,3,1,10,196,75,068,35,24,69,038,26,199,60,167,45,18,56,238,47,8*6A
$GPGSV,3,2,10,23,55,341,41,194,32,137,23,195,32,180,37,10,21,320,36,8*61
$GPGSV,3,3,10,25,12,174,18,32,11,273,32,8*65
$GLGSV,2,1,08,80,48,068,26,73,43,157,31,70,41,017,,85,32,241,25,1*77
$GLGSV,2,2,08,86,28,296,40,71,24,319,39,69,11,078,21,79,08,029,32,1*73
$GAGSV,3,1,09,13,53,227,41,08,45,029,19,07,45,308,42,26,34,303,41,7*79
$GAGSV,3,2,09,30,29,141,26,02,26,081,18,15,19,174,18,03,09,067,,7*79
$GAGSV,3,3,09,25,02,040,,7*4B
$GAGSV,2,1,06,13,53,227,45,08,45,029,21,07,45,308,46,26,34,303,41,1*7A
$GAGSV,2,2,06,30,29,141,20,15,19,174,23,1*72
$GBGSV,4,1,15,38,83,131,43,08,81,000,38,13,70,330,39,39,70,289,44,1*78
$GBGSV,4,2,15,16,66,264,42,06,65,259,40,46,61,103,36,19,51,350,40,1*76
$GBGSV,4,3,15,09,50,242,41,20,42,068,23,36,39,183,25,35,20,265,31,1*76
$GBGSV,4,4,15,37,20,045,21,29,16,209,31,22,13,304,33,1*46
$GBGSV,3,1,09,38,83,131,46,39,70,289,44,46,61,103,42,19,51,350,42,4*7A
$GBGSV,3,2,09,36,39,183,33,35,20,265,23,37,20,045,19,29,16,209,35,4*74
$GBGSV,3,3,09,22,13,304,25,4*48
$GNACCURACY,2.8*1C
$PAIRSAT,1,35,1,0,200,2,0,200,3,0,200,4,0,200,5,0,201,6,0,200,7,0,200,8,0,200,9,0,200,10,0,221,11,0,200,12,0,201,13,0,201,14,0,200,15,0,201,16,0,200,17,0,200,18,0,221,19,0,200,20,0,200,21,0,200,23,0,221,24,0,221,25,0,200,26,0,200,27,0,200,28,0,200,29,0,200,30,0,200,31,0,200,32,0,221,194,0,621,195,0,621,196,0,620,199,0,621*68
$PAIRSAT,2,24,65,0,200,66,0,200,67,0,200,68,0,200,69,0,201,70,0,201,71,0,201,72,0,200,73,0,201,74,0,200,75,0,200,76,0,200,77,0,200,78,0,200,79,0,201,80,0,201,81,0,200,82,0,200,83,0,200,84,0,200,85,0,201,86,0,201,87,0,200,88,0,200*7A
$PAIRSAT,3,23,2,0,1221,3,0,1221,4,0,1200,5,0,200,7,0,1221,8,0,1221,9,0,1200,10,0,1200,11,0,1200,12,0,1200,13,0,1221,15,0,1221,19,0,1200,21,0,1200,24,0,1200,25,0,1200,26,0,1221,27,0,1200,30,0,1221,31,0,1200,33,0,1200,34,0,1200,36,0,1200*6A
$PAIRSAT,4,50,1,0,200,2,0,200,3,0,200,4,0,200,5,0,200,6,0,201,7,0,200,8,0,201,9,0,201,10,0,200,11,0,200,12,0,200,13,0,201,14,0,200,15,0,200,16,0,201,19,0,621,20,0,621,21,0,600,22,0,621,23,0,600,24,0,600,25,0,600,26,0,600,27,0,600,28,0,600,29,0,621,30,0,600,31,0,200,32,0,600,33,0,600,34,0,600,35,0,621,36,0,621,37,0,621,38,0,621,39,0,621,40,0,600,41,0,600,42,0,600,43,0,600,44,0,600,45,0,600,46,0,621,56,0,200,57,0,200,58,0,200,59,0,600,60,0,600,61,0,600*41
$PAIRDGP,9,5,10,12,15,18,23,24,25,32*5B
$GNGGA,113604.200,2500.8167250,N,12132.4670078,E,4,62,0.45,16.032,M,15.25,M,2,3335*41
$GNRMC,113604.200,A,2500.8167250,N,12132.4670078,E,0.00,294.89,260623,,,R,V*16
$GPHDT,,T*1B
$GNACCURACY,2.8*1C
$GNGGA,113604.300,2500.8167284,N,12132.4670141,E,4,63,0.45,16.012,M,15.25,M,2,3335*41
$GNRMC,113604.300,A,2500.8167284,N,12132.4670141,E,0.00,294.89,260623,,,R,V*15
$GPHDT,,T*1B
$GNACCURACY,2.8*1C
$GNGGA,113604.400,2500.8167281,N,12132.4670091,E,4,63,0.45,16.027,M,15.25,M,2,3335*49
$GNRMC,113604.400,A,2500.8167281,N,12132.4670091,E,0.00,294.89,260623,,,R,V*1B
$GPHDT,,T*1B
$GNACCURACY,2.8*1C
$GNGGA,113604.500,2500.8167288,N,12132.4670147,E,4,63,0.45,16.034,M,15.25,M,2,3335*49
$GNRMC,113604.500,A,2500.8167288,N,12132.4670147,E,0.00,294.89,260623,,,R,V*19
$GPHDT,,T*1B
$GNACCURACY,2.8*1C
$GNGGA,113604.600,2500.8167305,N,12132.4670055,E,4,63,0.45,16.039,M,15.25,M,2,3335*41
$GNRMC,113604.600,A,2500.8167305,N,12132.4670055,E,0.00,294.89,260623,,,R,V*1C
$GPHDT,,T*1B
$GNACCURACY,2.8*1C
$GNGGA,113604.700,2500.8167278,N,12132.4670230,E,4,63,0.43,15.992,M,15.25,M,2,3335*47
$GNRMC,113604.700,A,2500.8167278,N,12132.4670230,E,0.00,294.89,260623,,,R,V*17
$GPHDT,,T*1B
$GNACCURACY,2.8*1C
$GNGGA,113604.800,2500.8167300,N,12132.4670176,E,4,64,0.43,16.006,M,15.25,M,2,3335*47
$GNRMC,113604.800,A,2500.8167300,N,12132.4670176,E,0.00,294.89,260623,,,R,V*17
$GPHDT,,T*1B
$GNACCURACY,2.8*1C
$GNGGA,113604.900,2500.8167295,N,12132.4670188,E,4,64,0.43,16.006,M,15.25,M,2,3335*4A
$GNRMC,113604.900,A,2500.8167295,N,12132.4670188,E,0.00,294.89,260623,,,R,V*1A
$GPHDT,,T*1B
$GNACCURACY,2.8*1C
$GNGGA,113605.000,2500.8167279,N,12132.4670137,E,4,64,0.43,16.010,M,15.25,M,3,3335*42
$GNRMC,113605.000,A,2500.8167279,N,12132.4670137,E,0.00,294.89,260623,,,R,V*14
$GPHDT,,T*1B
$GNACCURACY,2.8*1C
$GNGGA,113605.100,2500.8167302,N,12132.4670206,E,4,64,0.43,16.003,M,15.25,M,3,3335*4D
$GNRMC,113605.100,A,2500.8167302,N,12132.4670206,E,0.00,294.89,260623,,,R,V*19
$GPHDT,,T*1B
$GNGSA,A,3,196,24,199,18,23,15,195,194,12,10,05,32,0.77,0.43,0.64,1*06
$GNGSA,A,3,80,73,85,86,71,69,,,,,,,0.77,0.43,0.64,2*01
$GNGSA,A,3,13,08,07,26,30,02,15,,,,,,0.77,0.43,0.64,3*0A
$GNGSA,A,3,38,08,13,39,16,06,46,19,09,20,36,35,0.77,0.43,0.64,4*09
$GNGSA,A,3,37,29,22,,,,,,,,,,0.77,0.43,0.64,4*0E
$GPGSV,4,1,15,196,75,068,31,24,69,038,25,199,60,167,35,18,56,238,44,1*62
$GPGSV,4,2,15,23,55,341,40,41,38,242,37,15,35,051,18,195,32,180,38,1*5A
$GPGSV,4,3,15,194,32,137,36,12,23,138,26,10,21,320,33,05,16,122,23,1*57
$GPGSV,4,4,15,25,12,174,24,32,11,273,24,13,06,060,17,1*55
$GPGSV,3,1,10,196,75,068,34,24,69,038,25,199,60,167,45,18,56,238,47,8*68
$GPGSV,3,2,10,23,55,341,41,194,32,137,21,195,32,180,36,10,21,320,35,8*61
$GPGSV,3,3,10,25,12,174,19,32,11,273,31,8*67
$GLGSV,2,1,08,80,48,068,25,73,43,157,31,70,41,017,,85,32,241,25,1*74
$GLGSV,2,2,08,86,28,296,41,71,24,319,39,69,11,078,22,79,08,029,30,1*73
$GAGSV,3,1,09,13,53,227,42,08,45,029,20,07,45,308,42,26,34,303,40,7*71
$GAGSV,3,2,09,30,29,141,26,02,26,081,18,15,19,174,19,03,09,067,,7*78
$GAGSV,3,3,09,25,02,040,,7*4B
$GAGSV,2,1,06,13,53,227,47,08,45,029,20,07,45,308,46,26,34,303,42,1*7A
$GAGSV,2,2,06,30,29,141,23,15,19,174,27,1*75
$GBGSV,4,1,15,38,83,131,42,08,81,000,38,13,70,330,39,39,70,289,44,1*79
$GBGSV,4,2,15,16,66,264,42,06,65,259,40,46,61,103,33,19,51,350,40,1*73
$GBGSV,4,3,15,09,50,242,40,20,42,068,23,36,39,183,20,35,20,265,31,1*72
$GBGSV,4,4,15,37,20,045,23,29,16,209,33,22,13,304,29,1*4D
$GBGSV,3,1,09,38,83,131,46,39,70,289,44,46,61,103,42,19,51,350,42,4*7A
$GBGSV,3,2,09,20,42,068,22,36,39,183,33,35,20,265,26,29,16,209,34,4*75
$GBGSV,3,3,09,22,13,304,24,4*49
$GNACCURACY,2.8*1C
$PAIRSAT,1,35,1,0,200,2,0,200,3,0,200,4,0,200,5,0,201,6,0,200,7,0,200,8,0,200,9,0,200,10,0,221,11,0,200,12,0,201,13,0,201,14,0,200,15,0,201,16,0,200,17,0,200,18,0,221,19,0,200,20,0,200,21,0,200,23,0,221,24,0,221,25,0,200,26,0,200,27,0,200,28,0,200,29,0,200,30,0,200,31,0,200,32,0,221,194,0,621,195,0,621,196,0,620,199,0,621*68
$PAIRSAT,2,24,65,0,200,66,0,200,67,0,200,68,0,200,69,0,201,70,0,201,71,0,201,72,0,200,73,0,201,74,0,200,75,0,200,76,0,200,77,0,200,78,0,200,79,0,201,80,0,201,81,0,200,82,0,200,83,0,200,84,0,200,85,0,201,86,0,201,87,0,200,88,0,200*7A
$PAIRSAT,3,23,2,0,1221,3,0,1221,4,0,1200,5,0,200,7,0,1221,8,0,1221,9,0,1200,10,0,1200,11,0,1200,12,0,1200,13,0,1221,15,0,1221,19,0,1200,21,0,1200,24,0,1200,25,0,1200,26,0,1221,27,0,1200,30,0,1221,31,0,1200,33,0,1200,34,0,1200,36,0,1200*6A
$PAIRSAT,4,50,1,0,200,2,0,200,3,0,200,4,0,200,5,0,200,6,0,201,7,0,200,8,0,201,9,0,201,10,0,200,11,0,200,12,0,200,13,0,201,14,0,200,15,0,200,16,0,201,19,0,621,20,0,621,21,0,600,22,0,621,23,0,600,24,0,600,25,0,600,26,0,600,27,0,600,28,0,600,29,0,621,30,0,600,31,0,200,32,0,600,33,0,600,34,0,600,35,0,621,36,0,621,37,0,621,38,0,621,39,0,621,40,0,600,41,0,600,42,0,600,43,0,600,44,0,600,45,0,600,46,0,621,56,0,200,57,0,200,58,0,200,59,0,600,60,0,600,61,0,600*41
$PAIRDGP,9,5,10,12,15,18,23,24,25,32*5B
$GNGGA,113605.200,2500.8167306,N,12132.4670171,E,4,64,0.43,15.998,M,15.25,M,3,3335*41
$GNRMC,113605.200,A,2500.8167306,N,12132.4670171,E,0.00,294.89,260623,,,R,V*1D
$GPHDT,,T*1B
$GNACCURACY,2.7*13
$GNGGA,113605.300,2500.8167290,N,12132.4670158,E,4,64,0.43,15.998,M,15.25,M,3,3335*45
$GNRMC,113605.300,A,2500.8167290,N,12132.4670158,E,0.00,294.89,260623,,,R,V*19
$GPHDT,,T*1B
$GNACCURACY,2.7*13
$GNGGA,113605.400,2500.8167295,N,12132.4670179,E,4,63,0.43,15.999,M,15.25,M,3,3335*42
$GNRMC,113605.400,A,2500.8167295,N,12132.4670179,E,0.00,294.89,260623,,,R,V*18
$GPHDT,,T*1B
$GNACCURACY,2.7*13
$GNGGA,113605.500,2500.8167314,N,12132.4670204,E,4,63,0.43,15.998,M,15.25,M,3,3335*43
$GNRMC,113605.500,A,2500.8167314,N,12132.4670204,E,0.00,294.89,260623,,,R,V*18
$GPHDT,,T*1B
$GNACCURACY,2.7*13
$GNGGA,113605.600,2500.8167304,N,12132.4670146,E,4,63,0.43,15.996,M,15.25,M,3,3335*4A
$GNRMC,113605.600,A,2500.8167304,N,12132.4670146,E,0.00,294.89,260623,,,R,V*1F
$GPHDT,,T*1B
$GNACCURACY,2.7*13
$GNGGA,113605.700,2500.8167296,N,12132.4670215,E,4,63,0.43,16.013,M,15.25,M,3,3335*43
$GNRMC,113605.700,A,2500.8167296,N,12132.4670215,E,0.00,294.89,260623,,,R,V*11
$GPHDT,,T*1B
$GNACCURACY,2.7*13
$GNGGA,113605.800,2500.8167293,N,12132.4670163,E,4,63,0.43,16.017,M,15.25,M,3,3335*4F
$GNRMC,113605.800,A,2500.8167293,N,12132.4670163,E,0.00,294.89,260623,,,R,V*19
$GPHDT,,T*1B
$GNACCURACY,2.7*13
$GNGGA,113605.900,2500.8167291,N,12132.4670161,E,4,63,0.43,16.022,M,15.25,M,3,3335*48
$GNRMC,113605.900,A,2500.8167291,N,12132.4670161,E,0.00,294.89,260623,,,R,V*18
$GPHDT,,T*1B
$GNACCURACY,2.7*13
$GNGGA,113606.000,2500.8167287,N,12132.4670114,E,4,63,0.43,16.009,M,15.25,M,3,3335*4E
$GNRMC,113606.000,A,2500.8167287,N,12132.4670114,E,0.00,294.89,260623,,,R,V*17
$GPHDT,,T*1B
$GNACCURACY,2.7*13
$GNGGA,113606.100,2500.8167295,N,12132.4670191,E,4,63,0.43,16.027,M,15.25,M,3,3335*4D
$GNRMC,113606.100,A,2500.8167295,N,12132.4670191,E,0.00,294.89,260623,,,R,V*18
$GPHDT,,T*1B
$GNGSA,A,3,196,24,199,18,23,15,195,194,12,10,05,32,0.77,0.43,0.64,1*06
$GNGSA,A,3,80,73,85,86,71,69,,,,,,,0.77,0.43,0.64,2*01
$GNGSA,A,3,13,08,07,26,30,02,15,,,,,,0.77,0.43,0.64,3*0A
$GNGSA,A,3,38,08,13,39,16,06,46,19,09,20,36,35,0.77,0.43,0.64,4*09
$GNGSA,A,3,37,29,22,,,,,,,,,,0.77,0.43,0.64,4*0E
$GPGSV,4,1,15,196,75,068,32,24,69,038,24,199,60,167,35,18,56,238,44,1*60
$GPGSV,4,2,15,23,55,341,39,41,38,242,38,15,35,051,17,195,32,180,38,1*54
$GPGSV,4,3,15,194,32,137,36,12,23,138,28,10,21,320,32,05,16,122,23,1*58
$GPGSV,4,4,15,25,12,174,24,32,11,273,25,13,06,060,16,1*55
$GPGSV,3,1,09,196,75,068,32,24,69,038,23,199,60,167,44,18,56,238,47,8*61
$GPGSV,3,2,09,23,55,341,41,195,32,180,36,10,21,320,35,25,12,174,19,8*5C
$GPGSV,3,3,09,32,11,273,31,8*51
$GLGSV,2,1,08,80,48,068,23,73,43,157,31,70,41,017,,85,32,241,24,1*73
$GLGSV,2,2,08,86,28,296,40,71,24,319,39,69,11,078,21,79,08,029,29,1*79
$GAGSV,3,1,09,13,53,227,42,08,45,029,23,07,45,308,42,26,34,303,40,7*72
$GAGSV,3,2,09,30,29,141,26,02,26,081,18,15,19,174,20,03,09,067,,7*72
$GAGSV,3,3,09,25,02,040,,7*4B
$GAGSV,2,1,06,13,53,227,47,07,45,308,45,08,45,029,21,26,34,303,42,1*78
$GAGSV,2,2,06,30,29,141,22,15,19,174,27,1*74
$GBGSV,4,1,15,38,83,132,42,08,81,000,39,13,70,330,40,39,70,289,44,1*75
$GBGSV,4,2,15,16,66,264,42,06,65,259,40,46,61,103,33,19,51,350,40,1*73
$GBGSV,4,3,15,09,50,242,40,20,42,068,23,36,39,183,19,35,20,265,32,1*7B
$GBGSV,4,4,15,37,20,045,19,29,16,209,32,22,13,304,28,1*44
$GBGSV,3,1,09,38,83,132,46,39,70,289,44,46,61,103,41,19,51,350,42,4*7A
$GBGSV,3,2,09,20,42,068,22,36,39,183,32,35,20,265,25,29,16,209,33,4*70
$GBGSV,3,3,09,22,13,304,27,4*4A
$GNACCURACY,2.7*13
$PAIRSAT,1,35,1,0,200,2,0,200,3,0,200,4,0,200,5,0,201,6,0,200,7,0,200,8,0,200,9,0,200,10,0,221,11,0,200,12,0,201,13,0,201,14,0,200,15,0,201,16,0,200,17,0,200,18,0,221,19,0,200,20,0,200,21,0,200,23,0,221,24,0,221,25,0,200,26,0,200,27,0,200,28,0,200,29,0,200,30,0,200,31,0,200,32,0,221,194,0,621,195,0,621,196,0,620,199,0,621*68
$PAIRSAT,2,24,65,0,200,66,0,200,67,0,200,68,0,200,69,0,201,70,0,201,71,0,201,72,0,200,73,0,201,74,0,200,75,0,200,76,0,200,77,0,200,78,0,200,79,0,201,80,0,201,81,0,200,82,0,200,83,0,200,84,0,200,85,0,201,86,0,201,87,0,200,88,0,200*7A
$PAIRSAT,3,23,2,0,1221,3,0,1221,4,0,1200,5,0,200,7,0,1221,8,0,1221,9,0,1200,10,0,1200,11,0,1200,12,0,1200,13,0,1221,15,0,1221,19,0,1200,21,0,1200,24,0,1200,25,0,1200,26,0,1221,27,0,1200,30,0,1221,31,0,1200,33,0,1200,34,0,1200,36,0,1200*6A
$PAIRSAT,4,50,1,0,200,2,0,200,3,0,200,4,0,200,5,0,200,6,0,201,7,0,200,8,0,201,9,0,201,10,0,200,11,0,200,12,0,200,13,0,201,14,0,200,15,0,200,16,0,201,19,0,621,20,0,621,21,0,600,22,0,621,23,0,600,24,0,600,25,0,600,26,0,600,27,0,600,28,0,600,29,0,621,30,0,600,31,0,200,32,0,600,33,0,600,34,0,600,35,0,621,36,0,621,37,0,621,38,0,621,39,0,621,40,0,600,41,0,600,42,0,600,43,0,600,44,0,600,45,0,600,46,0,621,56,0,200,57,0,200,58,0,200,59,0,600,60,0,600,61,0,600*41
$PAIRDGP,9,5,10,12,15,18,23,24,25,32*5B
$GNGGA,113606.200,2500.8167296,N,12132.4670182,E,4,63,0.43,16.005,M,15.25,M,3,3335*4F
$GNRMC,113606.200,A,2500.8167296,N,12132.4670182,E,0.00,294.89,260623,,,R,V*1A
$GPHDT,,T*1B
$GNACCURACY,2.7*13
$GNGGA,113606.300,2500.8167292,N,12132.4670143,E,4,62,0.45,16.005,M,15.25,M,1,3335*42
$GNRMC,113606.300,A,2500.8167292,N,12132.4670143,E,0.00,294.89,260623,,,R,V*12
$GPHDT,,T*1B
$GNACCURACY,2.7*13
$GNGGA,113606.400,2500.8167278,N,12132.4670084,E,4,62,0.45,16.018,M,15.25,M,1,3335*47
$GNRMC,113606.400,A,2500.8167278,N,12132.4670084,E,0.00,294.89,260623,,,R,V*1B
$GPHDT,,T*1B
$GNACCURACY,2.7*13
$GNGGA,113606.500,2500.8167269,N,12132.4670094,E,4,62,0.45,16.013,M,15.25,M,1,3335*4C
$GNRMC,113606.500,A,2500.8167269,N,12132.4670094,E,0.00,294.89,260623,,,R,V*1B
$GPHDT,,T*1B
$GNACCURACY,2.7*13
$GNGGA,113606.600,2500.8167272,N,12132.4670010,E,4,62,0.45,16.060,M,15.25,M,0,3335*4C
$GNRMC,113606.600,A,2500.8167272,N,12132.4670010,E,0.00,294.89,260623,,,R,V*1E
$GPHDT,,T*1B
$GNACCURACY,2.7*13
$GNGGA,113606.700,2500.8167309,N,12132.4670033,E,4,62,0.45,16.070,M,15.25,M,0,3335*40
$GNRMC,113606.700,A,2500.8167309,N,12132.4670033,E,0.00,294.89,260623,,,R,V*13
$GPHDT,,T*1B
$GNACCURACY,2.7*13
$GNGGA,113606.800,2500.8167277,N,12132.4670023,E,4,62,0.45,16.060,M,15.25,M,0,3335*47
$GNRMC,113606.800,A,2500.8167277,N,12132.4670023,E,0.00,294.89,260623,,,R,V*15
$GPHDT,,T*1B
$GNACCURACY,2.7*13
$GNGGA,113606.900,2500.8167296,N,12132.4670031,E,4,62,0.45,16.068,M,15.25,M,0,3335*42
$GNRMC,113606.900,A,2500.8167296,N,12132.4670031,E,0.00,294.89,260623,,,R,V*18
$GPHDT,,T*1B
$GNACCURACY,2.7*13
$GNGGA,113607.000,2500.8167298,N,12132.4670048,E,4,62,0.45,16.066,M,15.25,M,1,3335*45
$GNRMC,113607.000,A,2500.8167298,N,12132.4670048,E,0.00,294.89,260623,,,R,V*10
$GPHDT,,T*1B
$GNACCURACY,2.7*13
$GNGGA,113607.100,2500.8167295,N,12132.4670051,E,4,61,0.45,16.078,M,15.25,M,1,3335*4D
$GNRMC,113607.100,A,2500.8167295,N,12132.4670051,E,0.00,294.89,260623,,,R,V*14
$GPHDT,,T*1B
$GNGSA,A,3,196,24,199,18,23,195,194,12,10,05,32,,0.78,0.45,0.64,1*0B
$GNGSA,A,3,80,73,85,86,71,69,,,,,,,0.78,0.45,0.64,2*08
$GNGSA,A,3,13,07,08,26,30,02,15,,,,,,0.78,0.45,0.64,3*03
$GNGSA,A,3,38,08,13,39,16,06,46,19,09,20,36,37,0.78,0.45,0.64,4*02
$GNGSA,A,3,35,29,22,,,,,,,,,,0.78,0.45,0.64,4*05
$GPGSV,4,1,15,196,75,068,33,24,69,038,24,199,60,167,33,18,56,238,44,1*67
$GPGSV,4,2,15,23,55,341,39,41,38,242,37,15,35,051,17,195,32,180,38,1*5B
$GPGSV,4,3,15,194,32,137,36,12,23,138,28,10,21,320,34,05,16,122,21,1*5C
$GPGSV,4,4,15,25,12,174,24,32,11,273,25,13,06,060,16,1*55
$GPGSV,3,1,09,196,75,068,34,24,69,038,21,199,60,167,44,18,56,238,47,8*65
$GPGSV,3,2,09,23,55,341,40,195,32,180,36,10,21,320,34,25,12,174,18,8*5D
$GPGSV,3,3,09,32,11,273,31,8*51
$GLGSV,3,1,09,80,48,068,23,73,43,157,29,70,41,017,,85,32,241,26,1*78
$GLGSV,3,2,09,86,28,296,41,71,24,319,39,69,11,078,23,79,08,029,32,1*70
$GLGSV,3,3,09,74,07,186,,1*4A
$GAGSV,3,1,10,13,53,227,42,07,45,308,42,08,45,029,20,26,34,303,40,7*79
$GAGSV,3,2,10,30,29,141,26,02,26,081,19,15,19,174,20,03,09,067,,7*7B
$GAGSV,3,3,10,27,03,187,,25,02,040,,7*7B
$GAGSV,2,1,06,13,53,227,47,07,45,308,46,08,45,029,20,26,34,303,41,1*79
$GAGSV,2,2,06,30,29,141,20,15,19,174,27,1*76
$GBGSV,4,1,16,38,83,132,43,08,81,000,39,13,70,330,39,39,70,289,44,1*79
$GBGSV,4,2,16,16,66,264,42,06,65,259,40,46,61,103,37,19,51,350,40,1*74
$GBGSV,4,3,16,09,50,242,41,20,42,068,24,36,39,183,21,31,38,212,,1*79
$GBGSV,4,4,16,37,20,045,18,35,20,265,30,29,16,209,32,22,13,304,31,1*78
$GBGSV,3,1,09,38,83,132,46,39,70,289,44,46,61,103,41,19,51,350,42,4*7A
$GBGSV,3,2,09,20,42,068,21,36,39,183,31,35,20,265,23,29,16,209,32,4*77
$GBGSV,3,3,09,22,13,304,21,4*4C
$GNACCURACY,2.7*13
$PAIRSAT,1,35,1,0,200,2,0,200,3,0,200,4,0,200,5,0,201,6,0,200,7,0,200,8,0,200,9,0,200,10,0,221,11,0,200,12,0,201,13,0,201,14,0,200,15,0,201,16,0,200,17,0,200,18,0,221,19,0,200,20,0,200,21,0,200,23,0,221,24,0,221,25,0,200,26,0,200,27,0,200,28,0,200,29,0,200,30,0,200,31,0,200,32,0,221,194,0,621,195,0,621,196,0,620,199,0,621*68
$PAIRSAT,2,24,65,0,200,66,0,200,67,0,200,68,0,200,69,0,201,70,0,201,71,0,201,72,0,200,73,0,201,74,0,200,75,0,200,76,0,200,77,0,200,78,0,200,79,0,201,80,0,201,81,0,200,82,0,200,83,0,200,84,0,200,85,0,201,86,0,201,87,0,200,88,0,200*7A
$PAIRSAT,3,23,2,0,1221,3,0,1221,4,0,1200,5,0,200,7,0,1221,8,0,1221,9,0,1200,10,0,1200,11,0,1200,12,0,1200,13,0,1221,15,0,1221,19,0,1200,21,0,1200,24,0,1200,25,0,1200,26,0,1221,27,0,1200,30,0,1221,31,0,1200,33,0,1200,34,0,1200,36,0,1200*6A
$PAIRSAT,4,50,1,0,200,2,0,200,3,0,200,4,0,200,5,0,200,6,0,201,7,0,200,8,0,201,9,0,201,10,0,200,11,0,200,12,0,200,13,0,201,14,0,200,15,0,200,16,0,201,19,0,621,20,0,621,21,0,600,22,0,621,23,0,600,24,0,600,25,0,600,26,0,600,27,0,600,28,0,600,29,0,621,30,0,600,31,0,200,32,0,600,33,0,600,34,0,600,35,0,621,36,0,621,37,0,621,38,0,621,39,0,621,40,0,600,41,0,600,42,0,600,43,0,600,44,0,600,45,0,600,46,0,621,56,0,200,57,0,200,58,0,200,59,0,600,60,0,600,61,0,600*41
$PAIRDGP,9,5,10,12,15,18,23,24,25,32*5B
$GNGGA,113607.200,2500.8167294,N,12132.4670025,E,4,62,0.45,16.081,M,15.25,M,1,3335*49
$GNRMC,113607.200,A,2500.8167294,N,12132.4670025,E,0.00,294.89,260623,,,R,V*15
$GPHDT,,T*1B
$GNACCURACY,2.7*13
$GNGGA,113607.300,2500.8167294,N,12132.4670174,E,4,62,0.45,16.040,M,15.25,M,1,3335*40
$GNRMC,113607.300,A,2500.8167294,N,12132.4670174,E,0.00,294.89,260623,,,R,V*11
$GPHDT,,T*1B
$GNACCURACY,2.7*13
$GNGGA,113607.400,2500.8167281,N,12132.4670181,E,4,62,0.45,16.049,M,15.25,M,1,3335*40
$GNRMC,113607.400,A,2500.8167281,N,12132.4670181,E,0.00,294.89,260623,,,R,V*18
$GPHDT,,T*1B
$GNACCURACY,2.7*13
$GNGGA,113607.500,2500.8167298,N,12132.4670178,E,4,62,0.45,16.046,M,15.25,M,1,3335*40
$GNRMC,113607.500,A,2500.8167298,N,12132.4670178,E,0.00,294.89,260623,,,R,V*17
$GPHDT,,T*1B
$GNACCURACY,2.8*1C
$GNGGA,113607.600,2500.8167288,N,12132.4670121,E,4,62,0.45,16.062,M,15.25,M,1,3335*48
$GNRMC,113607.600,A,2500.8167288,N,12132.4670121,E,0.00,294.89,260623,,,R,V*19
$GPHDT,,T*1B
$GNACCURACY,2.8*1C
$GNGGA,113607.700,2500.8167288,N,12132.4670157,E,4,63,0.45,16.046,M,15.25,M,1,3335*4F
$GNRMC,113607.700,A,2500.8167288,N,12132.4670157,E,0.00,294.89,260623,,,R,V*19
$GPHDT,,T*1B
$GNACCURACY,2.8*1C
$GNGGA,113607.800,2500.8167310,N,12132.4670112,E,4,63,0.45,16.062,M,15.25,M,1,3335*47
$GNRMC,113607.800,A,2500.8167310,N,12132.4670112,E,0.00,294.89,260623,,,R,V*17
$GPHDT,,T*1B
$GNACCURACY,2.8*1C
$GNGGA,113607.900,2500.8167321,N,12132.4670164,E,4,62,0.45,16.039,M,15.25,M,1,3335*4A
$GNRMC,113607.900,A,2500.8167321,N,12132.4670164,E,0.00,294.89,260623,,,R,V*15
$GPHDT,,T*1B
$GNACCURACY,2.8*1C
$GNGGA,113608.000,2500.8167337,N,12132.4670109,E,4,62,0.45,16.025,M,15.25,M,2,3335*4E
$GNRMC,113608.000,A,2500.8167337,N,12132.4670109,E,0.00,294.89,260623,,,R,V*1F
$GPHDT,,T*1B
$GNACCURACY,2.8*1C
$GNGGA,113608.100,2500.8167193,N,12132.4669974,E,4,62,0.45,16.099,M,15.25,M,2,3335*4E
$GNRMC,113608.100,A,2500.8167193,N,12132.4669974,E,0.00,294.89,260623,,,R,V*18
$GPHDT,,T*1B
$GNGSA,A,3,196,24,199,18,23,195,194,12,10,05,32,,0.78,0.45,0.64,1*0B
$GNGSA,A,3,80,73,85,86,71,69,,,,,,,0.78,0.45,0.64,2*08
$GNGSA,A,3,13,08,07,26,30,02,15,,,,,,0.78,0.45,0.64,3*03
$GNGSA,A,3,38,08,39,13,16,06,46,19,09,20,36,37,0.78,0.45,0.64,4*02
$GNGSA,A,3,35,29,22,,,,,,,,,,0.78,0.45,0.64,4*05
$GPGSV,4,1,15,196,75,068,33,24,69,038,28,199,60,167,33,18,56,238,42,1*6D
$GPGSV,4,2,15,23,55,341,39,41,38,242,37,15,35,051,17,195,32,180,39,1*5A
$GPGSV,4,3,15,194,32,137,35,12,23,138,29,10,21,320,34,05,16,122,22,1*5D
$GPGSV,4,4,15,25,12,174,24,32,11,273,22,13,06,060,16,1*52
$GPGSV,3,1,10,196,75,068,32,24,69,038,24,199,60,167,43,18,56,238,44,8*6A
$GPGSV,3,2,10,23,55,341,40,194,32,137,24,195,32,180,38,10,21,320,33,8*6D
$GPGSV,3,3,10,25,12,174,17,32,11,273,30,8*68
$GLGSV,2,1,08,80,48,068,23,73,43,157,28,70,41,017,,85,32,241,28,1*77
$GLGSV,2,2,08,86,28,296,41,71,24,319,40,69,11,078,22,79,08,029,32,1*7F
$GAGSV,3,1,10,13,53,227,34,08,45,029,19,07,45,308,42,26,34,303,41,7*73
$GAGSV,3,2,10,30,29,141,25,02,26,081,19,15,19,174,20,03,09,067,,7*78
$GAGSV,3,3,10,27,03,187,,25,02,040,,7*7B
$GAGSV,2,1,06,13,53,227,42,08,45,029,24,07,45,308,46,26,34,303,40,1*79
$GAGSV,2,2,06,30,29,141,22,15,19,174,26,1*75
$GBGSV,4,1,15,38,83,132,43,08,81,000,39,39,70,289,45,13,70,330,39,1*7B
$GBGSV,4,2,15,16,66,264,42,06,65,259,39,46,61,103,36,19,51,350,39,1*76
$GBGSV,4,3,15,09,50,242,41,20,42,068,23,36,39,183,26,37,20,045,18,1*7C
$GBGSV,4,4,15,35,20,265,30,29,16,209,35,22,13,304,32,1*41
$GBGSV,3,1,09,38,83,132,46,39,70,289,44,46,61,103,43,19,51,350,41,4*7B
$GBGSV,3,2,09,20,42,068,18,36,39,183,33,35,20,265,24,29,16,209,30,4*7A
$GBGSV,3,3,09,22,13,304,24,4*49
$GNACCURACY,2.8*1C
$PAIRSAT,1,35,1,0,200,2,0,200,3,0,200,4,0,200,5,0,201,6,0,200,7,0,200,8,0,200,9,0,200,10,0,221,11,0,200,12,0,201,13,0,201,14,0,200,15,0,201,16,0,200,17,0,200,18,0,221,19,0,200,20,0,200,21,0,200,23,0,221,24,0,221,25,0,200,26,0,200,27,0,200,28,0,200,29,0,200,30,0,200,31,0,200,32,0,221,194,0,621,195,0,621,196,0,620,199,0,621*68
$PAIRSAT,2,24,65,0,200,66,0,200,67,0,200,68,0,200,69,0,201,70,0,201,71,0,201,72,0,200,73,0,201,74,0,200,75,0,200,76,0,200,77,0,200,78,0,200,79,0,201,80,0,201,81,0,200,82,0,200,83,0,200,84,0,200,85,0,201,86,0,201,87,0,200,88,0,200*7A
$PAIRSAT,3,23,2,0,1221,3,0,1221,4,0,1200,5,0,200,7,0,1221,8,0,1221,9,0,1200,10,0,1200,11,0,1200,12,0,1200,13,0,1221,15,0,1221,19,0,1200,21,0,1200,24,0,1200,25,0,1200,26,0,1221,27,0,1200,30,0,1221,31,0,1200,33,0,1200,34,0,1200,36,0,1200*6A
$PAIRSAT,4,50,1,0,200,2,0,200,3,0,200,4,0,200,5,0,200,6,0,201,7,0,200,8,0,201,9,0,201,10,0,200,11,0,200,12,0,200,13,0,201,14,0,200,15,0,200,16,0,201,19,0,621,20,0,621,21,0,600,22,0,621,23,0,600,24,0,600,25,0,600,26,0,600,27,0,600,28,0,600,29,0,621,30,0,600,31,0,200,32,0,600,33,0,600,34,0,600,35,0,621,36,0,621,37,0,621,38,0,621,39,0,621,40,0,600,41,0,600,42,0,600,43,0,600,44,0,600,45,0,600,46,0,621,56,0,200,57,0,200,58,0,200,59,0,600,60,0,600,61,0,600*41
$PAIRDGP,9,5,10,12,15,18,23,24,25,32*5B
$GNGGA,113608.200,2500.8167190,N,12132.4669968,E,4,63,0.45,16.123,M,15.25,M,2,3335*42
$GNRMC,113608.200,A,2500.8167190,N,12132.4669968,E,0.00,294.89,260623,,,R,V*15
$GPHDT,,T*1B
$GNACCURACY,2.8*1C
$GNGGA,113608.300,2500.8167214,N,12132.4670062,E,4,63,0.45,16.127,M,15.25,M,2,3335*43
$GNRMC,113608.300,A,2500.8167214,N,12132.4670062,E,0.00,294.89,260623,,,R,V*10
$GPHDT,,T*1B
$GNACCURACY,2.8*1C
$GNGGA,113608.400,2500.8167301,N,12132.4670125,E,4,63,0.45,16.082,M,15.25,M,2,3335*4D
$GNRMC,113608.400,A,2500.8167301,N,12132.4670125,E,0.00,294.89,260623,,,R,V*10
$GPHDT,,T*1B
$GNACCURACY,2.8*1C
$GNGGA,113608.500,2500.8167267,N,12132.4670085,E,4,63,0.45,16.088,M,15.25,M,2,3335*4C
$GNRMC,113608.500,A,2500.8167267,N,12132.4670085,E,0.01,294.89,260623,,,R,V*1A
$GPHDT,,T*1B
$GNACCURACY,2.8*1C
$GNGGA,113608.600,2500.8167113,N,12132.4669933,E,4,63,0.45,16.146,M,15.25,M,2,3335*40
$GNRMC,113608.600,A,2500.8167113,N,12132.4669933,E,0.00,294.89,260623,,,R,V*14
$GPHDT,,T*1B
$GNACCURACY,2.8*1C
$GNGGA,113608.700,2500.8167143,N,12132.4669901,E,4,63,0.45,16.154,M,15.25,M,2,3335*46
$GNRMC,113608.700,A,2500.8167143,N,12132.4669901,E,0.00,294.89,260623,,,R,V*11
$GPHDT,,T*1B
