$FW : RTK35X,V1.1X0314AS,Lib20210517,1*54
$Tool : LOCOSYS , GNSS Firebird , v1.0.0.19*39
$---------------------------------------------------*2D
$GNACCURACY,3.2*17
$GNGGA,113407.800,2500.8169872,N,12132.4668151,E,2,62,0.45,15.326,M,15.25,M,69,3335*73
$GNRMC,113407.800,A,2500.8169872,N,12132.4668151,E,0.04,294.89,260623,,,D,V*08
$GPHDT,,T*1B
$GNACCURACY,3.2*17
$GNGGA,113407.900,2500.8169812,N,12132.4668211,E,2,62,0.45,15.320,M,15.25,M,69,3335*75
$GNRMC,113407.900,A,2500.8169812,N,12132.4668211,E,0.04,294.89,260623,,,D,V*08
$GPHDT,,T*1B
$GNACCURACY,3.2*17
$GNGGA,113408.000,2500.8169752,N,12132.4668211,E,2,62,0.45,15.315,M,15.25,M,70,3335*76
$GNRMC,113408.000,A,2500.8169752,N,12132.4668211,E,0.04,294.89,260623,,,D,V*05
$GPHDT,,T*1B
$GNACCURACY,3.2*17
$GNGGA,113408.100,2500.8169632,N,12132.4668211,E,2,62,0.45,15.314,M,15.25,M,70,3335*71
$GNRMC,113408.100,A,2500.8169632,N,12132.4668211,E,0.04,294.89,260623,,,D,V*03
$GPHDT,,T*1B
$GNGSA,A,3,196,24,199,18,23,15,195,194,12,10,05,32,0.71,0.45,0.55,1*04
$GNGSA,A,3,80,73,85,86,71,69,,,,,,,0.71,0.45,0.55,2*03
$GNGSA,A,3,13,08,07,26,30,02,15,,,,,,0.71,0.45,0.55,3*08
$GNGSA,A,3,38,08,39,13,16,06,46,19,09,20,36,35,0.71,0.45,0.55,4*0B
$GNGSA,A,3,29,22,,,,,,,,,,,0.71,0.45,0.55,4*08
$GPGSV,4,1,15,196,75,067,21,24,70,039,18,199,60,167,37,18,57,240,43,1*60
$GPGSV,4,2,15,23,54,341,33,41,38,242,36,15,35,050,29,195,33,180,32,1*56
$GPGSV,4,3,15,194,32,138,28,12,22,138,27,10,20,320,25,05,17,121,13,1*50
$GPGSV,4,4,15,25,11,174,18,32,11,272,37,13,06,059,13,1*54
$GPGSV,3,1,09,196,75,067,34,24,70,039,38,199,60,167,46,18,57,240,49,8*69
$GPGSV,3,2,09,23,54,341,41,195,33,180,25,194,32,138,27,10,20,320,22,8*65
$GPGSV,3,3,09,32,11,272,31,8*50
$GLGSV,3,1,09,80,48,070,25,73,42,157,39,70,41,015,,85,33,242,18,1*7A
$GLGSV,3,2,09,86,27,298,39,71,23,318,27,69,12,077,18,79,09,030,28,1*71
$GLGSV,3,3,09,84,05,188,,1*49
$GAGSV,3,1,09,13,54,228,40,08,45,028,22,07,44,307,41,26,33,304,36,7*74
$GAGSV,3,2,09,30,28,141,33,02,26,082,17,15,20,174,18,03,09,067,18,7*73
$GAGSV,3,3,09,27,03,187,,7*42
$GAGSV,2,1,06,13,54,228,44,08,45,028,24,07,44,307,42,26,33,304,37,1*7C
$GAGSV,2,2,06,30,28,141,28,15,20,174,25,1*77
$GBGSV,4,1,15,38,83,127,43,08,81,001,39,39,70,288,46,13,69,331,39,1*75
$GBGSV,4,2,15,16,66,262,41,06,65,258,38,46,61,105,40,19,50,349,34,1*70
$GBGSV,4,3,15,09,50,241,41,20,42,067,27,36,38,184,36,37,21,046,,1*78
$GBGSV,4,4,15,35,20,266,31,29,17,210,37,22,13,304,37,1*4D
$GBGSV,2,1,08,38,83,127,46,39,70,288,45,46,61,105,41,19,50,349,40,4*73
$GBGSV,2,2,08,20,42,067,26,36,38,184,25,29,17,210,25,22,13,304,30,4*71
$GNACCURACY,3.2*17
$PAIRSAT,1,35,1,0,200,2,0,200,3,0,200,4,0,200,5,0,201,6,0,200,7,0,200,8,0,200,9,0,200,10,0,221,11,0,200,12,0,201,13,0,201,14,0,200,15,0,201,16,0,200,17,0,200,18,0,221,19,0,200,20,0,200,21,0,200,23,0,221,24,0,221,25,0,200,26,0,200,27,0,200,28,0,200,29,0,200,30,0,200,31,0,200,32,0,221,194,0,621,195,0,621,196,0,620,199,0,621*68
$PAIRSAT,2,23,65,0,200,67,0,200,68,0,200,69,0,201,70,0,201,71,0,201,72,0,200,73,0,201,74,0,200,75,0,200,76,0,200,77,0,200,78,0,200,79,0,201,80,0,201,81,0,200,82,0,200,83,0,200,84,0,200,85,0,201,86,0,201,87,0,200,88,0,200*53
$PAIRSAT,3,23,2,0,1221,3,0,1221,4,0,1200,5,0,200,7,0,1221,8,0,1221,9,0,1200,10,0,1200,11,0,1200,12,0,1200,13,0,1221,15,0,1221,19,0,1200,21,0,1200,24,0,1200,25,0,1200,26,0,1221,27,0,1200,30,0,1221,31,0,1200,33,0,1200,34,0,1200,36,0,1200*6A
$PAIRSAT,4,50,1,0,200,2,0,200,3,0,200,4,0,200,5,0,200,6,0,201,7,0,200,8,0,201,9,0,201,10,0,200,11,0,200,12,0,200,13,0,201,14,0,200,15,0,200,16,0,201,19,0,621,20,0,621,21,0,600,22,0,621,23,0,600,24,0,600,25,0,600,26,0,600,27,0,600,28,0,600,29,0,621,30,0,600,31,0,200,32,0,600,33,0,600,34,0,600,35,0,621,36,0,621,37,0,621,38,0,621,39,0,621,40,0,600,41,0,600,42,0,600,43,0,600,44,0,600,45,0,600,46,0,621,56,0,200,57,0,200,58,0,200,59,0,600,60,0,600,61,0,600*41
$PAIRDGP,9,5,10,12,15,18,23,24,25,32*5B
$GNGGA,113408.200,2500.8169572,N,12132.4668271,E,2,62,0.45,15.317,M,15.25,M,70,3335*70
$GNRMC,113408.200,A,2500.8169572,N,12132.4668271,E,0.05,294.89,260623,,,D,V*00
$GPHDT,,T*1B
$GNACCURACY,3.2*17
$GNGGA,113408.300,2500.8169392,N,12132.4668271,E,2,62,0.45,15.317,M,15.25,M,70,3335*79
$GNRMC,113408.300,A,2500.8169392,N,12132.4668271,E,0.05,294.89,260623,,,D,V*09
$GPHDT,,T*1B
$GNACCURACY,3.2*17
$GNGGA,113408.400,2500.8169332,N,12132.4668271,E,2,62,0.45,15.319,M,15.25,M,70,3335*7A
$GNRMC,113408.400,A,2500.8169332,N,12132.4668271,E,0.05,294.89,260623,,,D,V*04
$GPHDT,,T*1B
$GNACCURACY,3.2*17
$GNGGA,113408.500,2500.8169212,N,12132.4668271,E,2,62,0.45,15.320,M,15.25,M,70,3335*72
$GNRMC,113408.500,A,2500.8169212,N,12132.4668271,E,0.06,294.89,260623,,,D,V*05
$GPHDT,,T*1B
$GNACCURACY,3.2*17
$GNGGA,113408.600,2500.8169152,N,12132.4668271,E,2,62,0.45,15.322,M,15.25,M,70,3335*74
$GNRMC,113408.600,A,2500.8169152,N,12132.4668271,E,0.08,294.89,260623,,,D,V*0F
$GPHDT,,T*1B
$GNACCURACY,3.2*17
$GNGGA,113408.700,2500.8169092,N,12132.4668271,E,2,62,0.45,15.320,M,15.25,M,70,3335*7A
$GNRMC,113408.700,A,2500.8169092,N,12132.4668271,E,0.06,294.89,260623,,,D,V*0D
$GPHDT,,T*1B
$GNACCURACY,3.2*17
$GNGGA,113408.800,2500.8169092,N,12132.4668271,E,2,62,0.45,15.319,M,15.25,M,70,3335*7F
$GNRMC,113408.800,A,2500.8169092,N,12132.4668271,E,0.08,294.89,260623,,,D,V*0C
$GPHDT,,T*1B
$GNACCURACY,3.2*17
$GNGGA,113408.900,2500.8169092,N,12132.4668271,E,2,62,0.45,15.316,M,15.25,M,70,3335*71
$GNRMC,113408.900,A,2500.8169092,N,12132.4668271,E,0.07,294.89,260623,,,D,V*02
$GPHDT,,T*1B
$GNACCURACY,3.2*17
$GNGGA,113409.000,2500.8169092,N,12132.4668211,E,2,62,0.45,15.314,M,15.25,M,71,3335*7C
$GNRMC,113409.000,A,2500.8169092,N,12132.4668211,E,0.06,294.89,260623,,,D,V*0D
$GPHDT,,T*1B
$GNACCURACY,3.2*17
$GNGGA,113409.100,2500.8169092,N,12132.4668211,E,2,62,0.45,15.312,M,15.25,M,71,3335*7B
$GNRMC,113409.100,A,2500.8169092,N,12132.4668211,E,0.06,294.89,260623,,,D,V*0C
$GPHDT,,T*1B
$GNGSA,A,3,196,24,199,18,23,15,195,194,12,10,05,32,0.71,0.45,0.55,1*04
$GNGSA,A,3,80,73,85,86,71,69,,,,,,,0.71,0.45,0.55,2*03
$GNGSA,A,3,13,08,07,26,30,02,15,,,,,,0.71,0.45,0.55,3*08
$GNGSA,A,3,38,08,39,13,16,06,46,09,19,20,36,35,0.71,0.45,0.55,4*0B
$GNGSA,A,3,29,22,,,,,,,,,,,0.71,0.45,0.55,4*08
$GPGSV,4,1,15,196,75,067,22,24,70,039,19,199,60,167,36,18,57,240,43,1*63
$GPGSV,4,2,15,23,54,341,35,41,38,242,36,15,35,050,29,195,33,180,32,1*50
$GPGSV,4,3,15,194,32,138,28,12,22,138,25,10,20,320,30,05,17,121,12,1*57
$GPGSV,4,4,15,25,11,174,17,32,11,272,37,13,06,059,13,1*5B
$GPGSV,3,1,09,196,75,067,34,24,70,039,38,199,60,167,46,18,57,240,49,8*69
$GPGSV,3,2,09,23,54,341,42,195,33,180,26,194,32,138,27,10,20,320,27,8*60
$GPGSV,3,3,09,32,11,272,31,8*50
$GLGSV,2,1,08,80,48,070,26,73,42,157,39,70,41,015,,85,33,242,18,1*79
$GLGSV,2,2,08,86,28,297,38,71,23,318,31,69,12,077,18,79,09,030,28,1*77
$GAGSV,3,1,09,13,54,228,40,08,45,028,23,07,44,307,40,26,33,304,37,7*75
$GAGSV,3,2,09,30,28,141,33,02,26,082,17,15,20,174,18,03,09,067,18,7*73
$GAGSV,3,3,09,27,03,187,,7*42
$GAGSV,2,1,06,13,54,228,44,08,45,028,23,07,44,307,44,26,33,304,41,1*7C
$GAGSV,2,2,06,30,28,141,28,15,20,174,26,1*74
$GBGSV,4,1,15,38,83,127,43,08,81,001,39,39,70,288,46,13,69,331,39,1*75
$GBGSV,4,2,15,16,66,262,41,06,65,258,38,46,61,105,40,09,50,241,41,1*7A
$GBGSV,4,3,15,19,50,349,33,20,42,067,27,36,38,184,36,37,21,046,,1*75
$GBGSV,4,4,15,35,20,266,31,29,17,210,37,22,13,304,37,1*4D
$GBGSV,2,1,08,38,83,127,47,39,70,288,45,46,61,105,41,19,50,349,41,4*73
$GBGSV,2,2,08,20,42,067,27,36,38,184,25,29,17,210,25,22,13,304,33,4*73
$GNACCURACY,3.2*17
$PAIRSAT,1,35,1,0,200,2,0,200,3,0,200,4,0,200,5,0,201,6,0,200,7,0,200,8,0,200,9,0,200,10,0,221,11,0,200,12,0,201,13,0,201,14,0,200,15,0,201,16,0,200,17,0,200,18,0,221,19,0,200,20,0,200,21,0,200,23,0,221,24,0,221,25,0,200,26,0,200,27,0,200,28,0,200,29,0,200,30,0,200,31,0,200,32,0,221,194,0,621,195,0,621,196,0,620,199,0,621*68
$PAIRSAT,2,23,65,0,200,67,0,200,68,0,200,69,0,201,70,0,201,71,0,201,72,0,200,73,0,201,74,0,200,75,0,200,76,0,200,77,0,200,78,0,200,79,0,201,80,0,201,81,0,200,82,0,200,83,0,200,84,0,200,85,0,201,86,0,201,87,0,200,88,0,200*53
$PAIRSAT,3,23,2,0,1221,3,0,1221,4,0,1200,5,0,200,7,0,1221,8,0,1221,9,0,1200,10,0,1200,11,0,1200,12,0,1200,13,0,1221,15,0,1221,19,0,1200,21,0,1200,24,0,1200,25,0,1200,26,0,1221,27,0,1200,30,0,1221,31,0,1200,33,0,1200,34,0,1200,36,0,1200*6A
$PAIRSAT,4,50,1,0,200,2,0,200,3,0,200,4,0,200,5,0,200,6,0,201,7,0,200,8,0,201,9,0,201,10,0,200,11,0,200,12,0,200,13,0,201,14,0,200,15,0,200,16,0,201,19,0,621,20,0,621,21,0,600,22,0,621,23,0,600,24,0,600,25,0,600,26,0,600,27,0,600,28,0,600,29,0,621,30,0,600,31,0,200,32,0,600,33,0,600,34,0,600,35,0,621,36,0,621,37,0,621,38,0,621,39,0,621,40,0,600,41,0,600,42,0,600,43,0,600,44,0,600,45,0,600,46,0,621,56,0,200,57,0,200,58,0,200,59,0,600,60,0,600,61,0,600*41
$PAIRDGP,9,5,10,12,15,18,23,24,25,32*5B
$GNGGA,113409.200,2500.8169092,N,12132.4668271,E,2,62,0.45,15.314,M,15.25,M,71,3335*78
$GNRMC,113409.200,A,2500.8169092,N,12132.4668271,E,0.07,294.89,260623,,,D,V*08
$GPHDT,,T*1B
$GNACCURACY,3.2*17
$GNGGA,113409.300,2500.8169032,N,12132.4668211,E,2,61,0.46,15.312,M,15.25,M,71,3335*73
$GNRMC,113409.300,A,2500.8169032,N,12132.4668211,E,0.06,294.89,260623,,,D,V*04
$GPHDT,,T*1B
$GNACCURACY,3.2*17
$GNGGA,113409.400,2500.8169032,N,12132.4668211,E,2,61,0.46,15.308,M,15.25,M,71,3335*7F
$GNRMC,113409.400,A,2500.8169032,N,12132.4668211,E,0.06,294.89,260623,,,D,V*03
$GPHDT,,T*1B
$GNACCURACY,3.2*17
$GNGGA,113409.500,2500.8169032,N,12132.4668211,E,2,61,0.46,15.306,M,15.25,M,71,3335*70
$GNRMC,113409.500,A,2500.8169032,N,12132.4668211,E,0.06,294.89,260623,,,D,V*02
$GPHDT,,T*1B
$GNACCURACY,3.2*17
$GNGGA,113409.600,2500.8168972,N,12132.4668151,E,2,62,0.46,15.300,M,15.25,M,71,3335*7D
$GNRMC,113409.600,A,2500.8168972,N,12132.4668151,E,0.06,294.89,260623,,,D,V*0A
$GPHDT,,T*1B
$GNACCURACY,3.2*17
$GNGGA,113409.700,2500.8169032,N,12132.4668151,E,2,62,0.46,15.299,M,15.25,M,71,3335*71
$GNRMC,113409.700,A,2500.8169032,N,12132.4668151,E,0.05,294.89,260623,,,D,V*04
$GPHDT,,T*1B
$GNACCURACY,3.2*17
$GNGGA,113409.800,2500.8168972,N,12132.4668151,E,2,62,0.46,15.295,M,15.25,M,71,3335*7E
$GNRMC,113409.800,A,2500.8168972,N,12132.4668151,E,0.05,294.89,260623,,,D,V*07
$GPHDT,,T*1B
$GNACCURACY,3.3*16
$GNGGA,113409.900,2500.8169032,N,12132.4668151,E,2,62,0.46,15.291,M,15.25,M,71,3335*77
$GNRMC,113409.900,A,2500.8169032,N,12132.4668151,E,0.05,294.89,260623,,,D,V*0A
$GPHDT,,T*1B
$GNACCURACY,3.3*16
$GNGGA,113410.000,2500.8168972,N,12132.4668151,E,2,62,0.46,15.290,M,15.25,M,72,3335*78
$GNRMC,113410.000,A,2500.8168972,N,12132.4668151,E,0.05,294.89,260623,,,D,V*07
$GPHDT,,T*1B
$GNACCURACY,3.3*16
$GNGGA,113410.100,2500.8168972,N,12132.4668091,E,2,62,0.46,15.293,M,15.25,M,72,3335*77
$GNRMC,113410.100,A,2500.8168972,N,12132.4668091,E,0.04,294.89,260623,,,D,V*0A
$GPHDT,,T*1B
$GNGSA,A,3,196,24,199,18,23,15,195,194,12,10,32,,0.72,0.46,0.56,1*02
$GNGSA,A,3,80,73,85,86,71,69,,,,,,,0.72,0.46,0.56,2*00
$GNGSA,A,3,13,08,07,26,30,02,15,,,,,,0.72,0.46,0.56,3*0B
$GNGSA,A,3,38,08,39,13,16,06,46,09,19,20,36,35,0.72,0.46,0.56,4*08
$GNGSA,A,3,29,22,,,,,,,,,,,0.72,0.46,0.56,4*0B
$GPGSV,4,1,15,196,75,067,23,24,70,039,22,199,60,167,36,18,57,240,43,1*6A
$GPGSV,4,2,15,23,54,341,35,41,38,242,36,15,35,050,29,195,33,180,32,1*50
$GPGSV,4,3,15,194,32,138,28,12,22,138,23,10,20,320,31,05,17,121,14,1*56
$GPGSV,4,4,15,25,11,174,17,32,11,272,37,13,06,059,16,1*5E
$GPGSV,3,1,09,196,75,067,34,24,70,039,38,199,60,167,46,18,57,240,49,8*69
$GPGSV,3,2,09,23,54,341,42,195,33,180,26,194,32,138,26,10,20,320,26,8*60
$GPGSV,3,3,09,32,11,272,29,8*59
$GLGSV,2,1,08,80,48,070,27,73,42,157,39,70,41,015,,85,33,242,17,1*77
$GLGSV,2,2,08,86,28,297,38,71,23,318,29,69,12,077,18,79,09,030,28,1*7E
$GAGSV,3,1,09,13,54,228,40,08,45,028,23,07,44,307,40,26,33,304,37,7*75
$GAGSV,3,2,09,30,28,141,33,02,26,082,15,15,20,174,18,03,09,067,17,7*7E
$GAGSV,3,3,09,27,03,187,,7*42
$GAGSV,2,1,06,13,54,228,44,08,45,028,23,07,44,307,43,26,33,304,40,1*7A
$GAGSV,2,2,06,30,28,141,29,15,20,174,25,1*76
$GBGSV,4,1,15,38,83,127,43,08,81,001,39,39,70,288,46,13,69,331,39,1*75
$GBGSV,4,2,15,16,66,262,41,06,65,258,37,46,61,105,40,09,50,241,41,1*75
$GBGSV,4,3,15,19,50,349,33,20,42,067,27,36,38,184,36,37,21,046,,1*75
$GBGSV,4,4,15,35,20,266,31,29,17,210,37,22,13,304,38,1*42
$GBGSV,3,1,09,38,83,127,47,39,70,288,45,46,61,105,41,19,50,349,41,4*73
$GBGSV,3,2,09,20,42,067,27,36,38,184,25,35,20,266,21,29,17,210,26,4*70
$GBGSV,3,3,09,22,13,304,33,4*4F
$GNACCURACY,3.3*16
$PAIRSAT,1,35,1,0,200,2,0,200,3,0,200,4,0,200,5,0,201,6,0,200,7,0,200,8,0,200,9,0,200,10,0,221,11,0,200,12,0,201,13,0,201,14,0,200,15,0,201,16,0,200,17,0,200,18,0,221,19,0,200,20,0,200,21,0,200,23,0,221,24,0,221,25,0,200,26,0,200,27,0,200,28,0,200,29,0,200,30,0,200,31,0,200,32,0,221,194,0,621,195,0,621,196,0,620,199,0,621*68
$PAIRSAT,2,23,65,0,200,67,0,200,68,0,200,69,0,201,70,0,201,71,0,201,72,0,200,73,0,201,74,0,200,75,0,200,76,0,200,77,0,200,78,0,200,79,0,201,80,0,201,81,0,200,82,0,200,83,0,200,84,0,200,85,0,201,86,0,201,87,0,200,88,0,200*53
$PAIRSAT,3,23,2,0,1221,3,0,1221,4,0,1200,5,0,200,7,0,1221,8,0,1221,9,0,1200,10,0,1200,11,0,1200,12,0,1200,13,0,1221,15,0,1221,19,0,1200,21,0,1200,24,0,1200,25,0,1200,26,0,1221,27,0,1200,30,0,1221,31,0,1200,33,0,1200,34,0,1200,36,0,1200*6A
$PAIRSAT,4,50,1,0,200,2,0,200,3,0,200,4,0,200,5,0,200,6,0,201,7,0,200,8,0,201,9,0,201,10,0,200,11,0,200,12,0,200,13,0,201,14,0,200,15,0,200,16,0,201,19,0,621,20,0,621,21,0,600,22,0,621,23,0,600,24,0,600,25,0,600,26,0,600,27,0,600,28,0,600,29,0,621,30,0,600,31,0,200,32,0,600,33,0,600,34,0,600,35,0,621,36,0,621,37,0,621,38,0,621,39,0,621,40,0,600,41,0,600,42,0,600,43,0,600,44,0,600,45,0,600,46,0,621,56,0,200,57,0,200,58,0,200,59,0,600,60,0,600,61,0,600*41
$PAIRDGP,9,5,10,12,15,18,23,24,25,32*5B
$GNGGA,113410.200,2500.8168972,N,12132.4668091,E,2,62,0.46,15.288,M,15.25,M,72,3335*7E
$GNRMC,113410.200,A,2500.8168972,N,12132.4668091,E,0.03,294.89,260623,,,D,V*0E
$GPHDT,,T*1B
$GNACCURACY,3.0*15
$GNGGA,113410.300,2500.8168972,N,12132.4668091,E,2,62,0.46,15.286,M,15.25,M,72,3335*71
$GNRMC,113410.300,A,2500.8168972,N,12132.4668091,E,0.04,294.89,260623,,,D,V*08
$GPHDT,,T*1B
$GNACCURACY,3.0*15
$GNGGA,113410.400,2500.8168912,N,12132.4668091,E,2,62,0.46,15.282,M,15.25,M,72,3335*74
$GNRMC,113410.400,A,2500.8168912,N,12132.4668091,E,0.04,294.89,260623,,,D,V*09
$GPHDT,,T*1B
$GNACCURACY,3.0*15
$GNGGA,113410.500,2500.8168912,N,12132.4668091,E,2,62,0.46,15.280,M,15.25,M,72,3335*77
$GNRMC,113410.500,A,2500.8168912,N,12132.4668091,E,0.04,294.89,260623,,,D,V*08
$GPHDT,,T*1B
$GNACCURACY,3.0*15
$GNGGA,113410.600,2500.8168912,N,12132.4668031,E,2,62,0.46,15.277,M,15.25,M,72,3335*76
$GNRMC,113410.600,A,2500.8168912,N,12132.4668031,E,0.03,294.89,260623,,,D,V*06
$GPHDT,,T*1B
$GNACCURACY,3.0*15
$GNGGA,113410.700,2500.8168912,N,12132.4667971,E,2,62,0.46,15.275,M,15.25,M,72,3335*77
$GNRMC,113410.700,A,2500.8168912,N,12132.4667971,E,0.03,294.89,260623,,,D,V*05
$GPHDT,,T*1B
$GNACCURACY,3.1*14
$GNGGA,113410.800,2500.8168852,N,12132.4667971,E,2,62,0.46,15.272,M,15.25,M,72,3335*7A
$GNRMC,113410.800,A,2500.8168852,N,12132.4667971,E,0.03,294.89,260623,,,D,V*0F
$GPHDT,,T*1B
$GNACCURACY,3.1*14
$GNGGA,113410.900,2500.8168912,N,12132.4667911,E,2,62,0.46,15.268,M,15.25,M,72,3335*73
$GNRMC,113410.900,A,2500.8168912,N,12132.4667911,E,0.03,294.89,260623,,,D,V*0D
$GPHDT,,T*1B
$GNACCURACY,3.1*14
$GNGGA,113411.000,2500.8168852,N,12132.4667911,E,2,62,0.46,15.264,M,15.25,M,73,3335*73
$GNRMC,113411.000,A,2500.8168852,N,12132.4667911,E,0.02,294.89,260623,,,D,V*01
$GPHDT,,T*1B
$GNACCURACY,3.1*14
$GNGGA,113411.100,2500.8168852,N,12132.4667851,E,2,62,0.46,15.262,M,15.25,M,73,3335*71
$GNRMC,113411.100,A,2500.8168852,N,12132.4667851,E,0.01,294.89,260623,,,D,V*06
$GPHDT,,T*1B
$GNGSA,A,3,196,24,199,18,23,15,195,194,12,10,32,,0.72,0.46,0.56,1*02
$GNGSA,A,3,80,73,85,86,71,69,,,,,,,0.72,0.46,0.56,2*00
$GNGSA,A,3,13,08,07,26,30,02,15,,,,,,0.72,0.46,0.56,3*0B
$GNGSA,A,3,38,08,39,13,16,06,46,09,19,20,36,35,0.72,0.46,0.56,4*08
$GNGSA,A,3,29,22,,,,,,,,,,,0.72,0.46,0.56,4*0B
$GPGSV,4,1,15,196,75,067,23,24,70,039,23,199,60,167,36,18,57,240,44,1*6C
$GPGSV,4,2,15,23,54,341,36,41,38,242,37,15,35,050,29,195,33,180,32,1*52
$GPGSV,4,3,15,194,32,138,28,12,22,138,22,10,20,320,32,05,17,121,15,1*55
$GPGSV,4,4,15,25,11,174,19,32,11,272,36,13,06,059,17,1*50
$GPGSV,3,1,09,196,75,067,34,24,70,039,38,199,60,167,46,18,57,240,49,8*69
$GPGSV,3,2,09,23,54,341,42,195,33,180,26,194,32,138,26,10,20,320,26,8*60
$GPGSV,3,3,09,32,11,272,29,8*59
$GLGSV,2,1,08,80,48,070,27,73,42,157,38,70,41,015,,85,33,242,20,1*72
$GLGSV,2,2,08,86,28,297,39,71,23,318,25,69,12,077,15,79,09,030,28,1*7E
$GAGSV,3,1,09,13,54,228,40,08,45,028,23,07,44,307,40,26,33,304,37,7*75
$GAGSV,3,2,09,30,28,141,32,02,26,082,15,15,20,174,17,03,09,067,17,7*70
$GAGSV,3,3,09,27,03,187,,7*42
$GAGSV,2,1,06,13,54,228,45,08,45,028,24,07,44,307,43,26,33,304,41,1*7D
$GAGSV,2,2,06,30,28,141,29,15,20,174,25,1*76
$GBGSV,4,1,16,38,83,127,43,08,81,001,39,39,70,288,46,13,69,331,39,1*76
$GBGSV,4,2,16,16,66,262,41,06,65,258,37,46,61,105,40,09,50,241,41,1*76
$GBGSV,4,3,16,19,50,349,36,20,42,067,27,36,38,184,37,31,38,212,,1*7F
$GBGSV,4,4,16,37,21,046,,35,20,266,31,29,17,210,37,22,13,304,38,1*74
$GBGSV,3,1,09,38,83,127,47,39,70,288,45,46,61,105,41,19,50,349,42,4*70
$GBGSV,3,2,09,20,42,067,26,36,38,184,29,35,20,266,21,29,17,210,29,4*72
$GBGSV,3,3,09,22,13,304,33,4*4F
$GNACCURACY,3.1*14
$PAIRSAT,1,35,1,0,200,2,0,200,3,0,200,4,0,200,5,0,201,6,0,200,7,0,200,8,0,200,9,0,200,10,0,221,11,0,200,12,0,201,13,0,201,14,0,200,15,0,201,16,0,200,17,0,200,18,0,221,19,0,200,20,0,200,21,0,200,23,0,221,24,0,221,25,0,200,26,0,200,27,0,200,28,0,200,29,0,200,30,0,200,31,0,200,32,0,221,194,0,621,195,0,621,196,0,620,199,0,621*68
$PAIRSAT,2,23,65,0,200,67,0,200,68,0,200,69,0,201,70,0,201,71,0,201,72,0,200,73,0,201,74,0,200,75,0,200,76,0,200,77,0,200,78,0,200,79,0,201,80,0,201,81,0,200,82,0,200,83,0,200,84,0,200,85,0,201,86,0,201,87,0,200,88,0,200*53
$PAIRSAT,3,23,2,0,1221,3,0,1221,4,0,1200,5,0,200,7,0,1221,8,0,1221,9,0,1200,10,0,1200,11,0,1200,12,0,1200,13,0,1221,15,0,1221,19,0,1200,21,0,1200,24,0,1200,25,0,1200,26,0,1221,27,0,1200,30,0,1221,31,0,1200,33,0,1200,34,0,1200,36,0,1200*6A
$PAIRSAT,4,50,1,0,200,2,0,200,3,0,200,4,0,200,5,0,200,6,0,201,7,0,200,8,0,201,9,0,201,10,0,200,11,0,200,12,0,200,13,0,201,14,0,200,15,0,200,16,0,201,19,0,621,20,0,621,21,0,600,22,0,621,23,0,600,24,0,600,25,0,600,26,0,600,27,0,600,28,0,600,29,0,621,30,0,600,31,0,200,32,0,600,33,0,600,34,0,600,35,0,621,36,0,621,37,0,621,38,0,621,39,0,621,40,0,600,41,0,600,42,0,600,43,0,600,44,0,600,45,0,600,46,0,621,56,0,200,57,0,200,58,0,200,59,0,600,60,0,600,61,0,600*41
$PAIRDGP,9,5,10,12,15,18,23,24,25,32*5B
$GNGGA,113411.200,2500.8168852,N,12132.4667851,E,2,62,0.46,15.260,M,15.25,M,73,3335*70
$GNRMC,113411.200,A,2500.8168852,N,12132.4667851,E,0.01,294.89,260623,,,D,V*05
$GPHDT,,T*1B
$GNACCURACY,3.0*15
$GNGGA,113411.300,2500.8168852,N,12132.4667791,E,2,62,0.46,15.257,M,15.25,M,73,3335*76
$GNRMC,113411.300,A,2500.8168852,N,12132.4667791,E,0.01,294.89,260623,,,D,V*07
$GPHDT,,T*1B
$GNACCURACY,3.0*15
$GNGGA,113411.400,2500.8168852,N,12132.4667791,E,2,62,0.46,15.253,M,15.25,M,73,3335*75
$GNRMC,113411.400,A,2500.8168852,N,12132.4667791,E,0.01,294.89,260623,,,D,V*00
$GPHDT,,T*1B
$GNACCURACY,3.0*15
$GNGGA,113411.500,2500.8168852,N,12132.4667731,E,2,62,0.46,15.248,M,15.25,M,73,3335*74
$GNRMC,113411.500,A,2500.8168852,N,12132.4667731,E,0.01,294.89,260623,,,D,V*0B
$GPHDT,,T*1B
$GNACCURACY,2.9*1D
$GNGGA,113411.600,2500.8168852,N,12132.4667731,E,2,62,0.46,15.245,M,15.25,M,73,3335*7A
$GNRMC,113411.600,A,2500.8168852,N,12132.4667731,E,0.00,294.89,260623,,,D,V*09
$GPHDT,,T*1B
$GNACCURACY,2.9*1D
$GNGGA,113411.700,2500.8168912,N,12132.4667731,E,2,62,0.46,15.246,M,15.25,M,73,3335*7D
$GNRMC,113411.700,A,2500.8168912,N,12132.4667731,E,0.01,294.89,260623,,,D,V*0C
$GPHDT,,T*1B
$GNACCURACY,2.9*1D
$GNGGA,113411.800,2500.8168972,N,12132.4667731,E,2,62,0.46,15.245,M,15.25,M,73,3335*77
$GNRMC,113411.800,A,2500.8168972,N,12132.4667731,E,0.01,294.89,260623,,,D,V*05
$GPHDT,,T*1B
$GNACCURACY,2.9*1D
$GNGGA,113411.900,2500.8168972,N,12132.4667671,E,2,62,0.46,15.243,M,15.25,M,73,3335*75
$GNRMC,113411.900,A,2500.8168972,N,12132.4667671,E,0.00,294.89,260623,,,D,V*00
$GPHDT,,T*1B
$GNACCURACY,2.9*1D
$GNGGA,113412.000,2500.8168972,N,12132.4667671,E,2,62,0.46,15.239,M,15.25,M,74,3335*75
$GNRMC,113412.000,A,2500.8168972,N,12132.4667671,E,0.01,294.89,260623,,,D,V*0B
$GPHDT,,T*1B
$GNACCURACY,3.0*15
$GNGGA,113412.100,2500.8168972,N,12132.4667611,E,2,62,0.46,15.234,M,15.25,M,74,3335*7F
$GNRMC,113412.100,A,2500.8168972,N,12132.4667611,E,0.01,294.89,260623,,,D,V*0C
$GPHDT,,T*1B
$GNGSA,A,3,196,24,199,18,23,15,195,194,12,10,32,,0.72,0.46,0.56,1*02
$GNGSA,A,3,80,73,85,86,71,69,,,,,,,0.72,0.46,0.56,2*00
$GNGSA,A,3,13,08,07,26,30,02,15,,,,,,0.72,0.46,0.56,3*0B
$GNGSA,A,3,38,08,39,13,16,06,46,09,19,20,36,35,0.72,0.46,0.56,4*08
$GNGSA,A,3,29,22,,,,,,,,,,,0.72,0.46,0.56,4*0B
$GPGSV,4,1,15,196,75,067,25,24,70,039,26,199,60,167,36,18,57,240,44,1*6F
$GPGSV,4,2,15,23,54,341,36,41,38,242,36,15,35,050,28,195,33,180,33,1*53
$GPGSV,4,3,15,194,32,138,28,12,22,138,23,10,20,320,32,05,17,121,14,1*55
$GPGSV,4,4,15,25,11,174,19,32,11,272,37,13,06,059,15,1*53
$GPGSV,3,1,09,196,75,067,34,24,70,039,38,199,60,167,46,18,57,240,48,8*68
$GPGSV,3,2,09,23,54,341,43,195,33,180,27,194,32,138,26,10,20,320,25,8*63
$GPGSV,3,3,09,32,11,272,29,8*59
$GLGSV,2,1,08,80,48,070,28,73,42,157,38,70,41,015,,85,33,242,20,1*7D
$GLGSV,2,2,08,86,28,297,40,71,23,318,28,69,12,077,15,79,09,030,30,1*74
$GAGSV,3,1,09,13,54,228,40,08,45,028,23,07,44,307,40,26,33,304,37,7*75
$GAGSV,3,2,09,30,28,141,32,02,26,082,14,15,20,174,18,03,09,067,16,7*7F
$GAGSV,3,3,09,27,03,187,,7*42
$GAGSV,2,1,06,13,54,228,45,08,45,028,24,07,44,307,43,26,33,304,41,1*7D
$GAGSV,2,2,06,30,28,141,29,15,20,174,23,1*70
$GBGSV,4,1,16,38,83,127,42,08,81,001,39,39,70,288,46,13,69,331,39,1*77
$GBGSV,4,2,16,16,66,262,41,06,65,258,37,46,61,105,40,09,50,241,41,1*76
$GBGSV,4,3,16,19,50,349,36,20,42,067,27,36,38,184,36,37,21,046,,1*73
$GBGSV,4,4,16,35,20,266,32,29,17,210,37,22,13,304,38,44,03,309,,1*7B
$GBGSV,3,1,09,38,83,127,47,39,70,288,45,46,61,105,41,19,50,349,42,4*70
$GBGSV,3,2,09,20,42,067,26,36,38,184,27,35,20,266,23,29,17,210,28,4*7F
$GBGSV,3,3,09,22,13,304,33,4*4F
$GNACCURACY,2.9*1D
$PAIRSAT,1,35,1,0,200,2,0,200,3,0,200,4,0,200,5,0,201,6,0,200,7,0,200,8,0,200,9,0,200,10,0,221,11,0,200,12,0,201,13,0,201,14,0,200,15,0,201,16,0,200,17,0,200,18,0,221,19,0,200,20,0,200,21,0,200,23,0,221,24,0,221,25,0,200,26,0,200,27,0,200,28,0,200,29,0,200,30,0,200,31,0,200,32,0,221,194,0,621,195,0,621,196,0,620,199,0,621*68
$PAIRSAT,2,23,65,0,200,67,0,200,68,0,200,69,0,201,70,0,201,71,0,201,72,0,200,73,0,201,74,0,200,75,0,200,76,0,200,77,0,200,78,0,200,79,0,201,80,0,201,81,0,200,82,0,200,83,0,200,84,0,200,85,0,201,86,0,201,87,0,200,88,0,200*53
$PAIRSAT,3,23,2,0,1221,3,0,1221,4,0,1200,5,0,200,7,0,1221,8,0,1221,9,0,1200,10,0,1200,11,0,1200,12,0,1200,13,0,1221,15,0,1221,19,0,1200,21,0,1200,24,0,1200,25,0,1200,26,0,1221,27,0,1200,30,0,1221,31,0,1200,33,0,1200,34,0,1200,36,0,1200*6A
$PAIRSAT,4,50,1,0,200,2,0,200,3,0,200,4,0,200,5,0,200,6,0,201,7,0,200,8,0,201,9,0,201,10,0,200,11,0,200,12,0,200,13,0,201,14,0,200,15,0,200,16,0,201,19,0,621,20,0,621,21,0,600,22,0,621,23,0,600,24,0,600,25,0,600,26,0,600,27,0,600,28,0,600,29,0,621,30,0,600,31,0,200,32,0,600,33,0,600,34,0,600,35,0,621,36,0,621,37,0,621,38,0,621,39,0,621,40,0,600,41,0,600,42,0,600,43,0,600,44,0,600,45,0,600,46,0,621,56,0,200,57,0,200,58,0,200,59,0,600,60,0,600,61,0,600*41
$PAIRDGP,9,5,10,12,15,18,23,24,25,32*5B
$GNGGA,113412.200,2500.8168972,N,12132.4667611,E,2,62,0.46,15.230,M,15.25,M,74,3335*78
$GNRMC,113412.200,A,2500.8168972,N,12132.4667611,E,0.01,294.89,260623,,,D,V*0F
$GPHDT,,T*1B
$GNACCURACY,3.0*15
$GNGGA,113412.300,2500.8168972,N,12132.4667611,E,2,62,0.46,15.225,M,15.25,M,74,3335*7D
$GNRMC,113412.300,A,2500.8168972,N,12132.4667611,E,0.01,294.89,260623,,,D,V*0E
$GPHDT,,T*1B
$GNACCURACY,3.0*15
$GNGGA,113412.400,2500.8168912,N,12132.4667611,E,2,62,0.46,15.221,M,15.25,M,74,3335*78
$GNRMC,113412.400,A,2500.8168912,N,12132.4667611,E,0.01,294.89,260623,,,D,V*0F
$GPHDT,,T*1B
$GNACCURACY,3.0*15
$GNGGA,113412.500,2500.8168912,N,12132.4667671,E,2,62,0.46,15.219,M,15.25,M,74,3335*74
$GNRMC,113412.500,A,2500.8168912,N,12132.4667671,E,0.01,294.89,260623,,,D,V*08
$GPHDT,,T*1B
$GNACCURACY,3.0*15
$GNGGA,113412.600,2500.8168912,N,12132.4667611,E,2,62,0.46,15.223,M,15.25,M,74,3335*78
$GNRMC,113412.600,A,2500.8168912,N,12132.4667611,E,0.00,294.89,260623,,,D,V*0C
$GPHDT,,T*1B
$GNACCURACY,3.0*15
$GNGGA,113412.700,2500.8168972,N,12132.4667671,E,2,62,0.46,15.225,M,15.25,M,74,3335*7F
$GNRMC,113412.700,A,2500.8168972,N,12132.4667671,E,0.01,294.89,260623,,,D,V*0C
$GPHDT,,T*1B
$GNACCURACY,3.0*15
$GNGGA,113412.800,2500.8168972,N,12132.4667671,E,2,62,0.46,15.223,M,15.25,M,74,3335*76
$GNRMC,113412.800,A,2500.8168972,N,12132.4667671,E,0.01,294.89,260623,,,D,V*03
$GPHDT,,T*1B
$GNACCURACY,3.0*15
$GNGGA,113412.900,2500.8168972,N,12132.4667731,E,2,62,0.46,15.220,M,15.25,M,74,3335*71
$GNRMC,113412.900,A,2500.8168972,N,12132.4667731,E,0.01,294.89,260623,,,D,V*07
$GPHDT,,T*1B
$GNACCURACY,3.0*15
$GNGGA,113413.000,2500.8168972,N,12132.4667731,E,2,62,0.46,15.217,M,15.25,M,75,3335*7C
$GNRMC,113413.000,A,2500.8168972,N,12132.4667731,E,0.01,294.89,260623,,,D,V*0F
$GPHDT,,T*1B
$GNACCURACY,3.0*15
$GNGGA,113413.100,2500.8168972,N,12132.4667671,E,2,62,0.46,15.218,M,15.25,M,75,3335*77
$GNRMC,113413.100,A,2500.8168972,N,12132.4667671,E,0.00,294.89,260623,,,D,V*0A
$GPHDT,,T*1B
$GNGSA,A,3,196,24,199,18,23,15,195,194,12,10,32,,0.72,0.46,0.56,1*02
$GNGSA,A,3,80,73,85,86,71,69,,,,,,,0.72,0.46,0.56,2*00
$GNGSA,A,3,13,08,07,26,30,02,15,,,,,,0.72,0.46,0.56,3*0B
$GNGSA,A,3,38,08,39,13,16,06,46,09,19,20,36,35,0.72,0.46,0.56,4*08
$GNGSA,A,3,29,22,,,,,,,,,,,0.72,0.46,0.56,4*0B
$GPGSV,4,1,15,196,75,067,24,24,70,039,27,199,60,167,37,18,57,240,44,1*6E
$GPGSV,4,2,15,23,54,341,36,41,38,242,38,15,35,050,26,195,33,180,31,1*51
$GPGSV,4,3,15,194,32,138,26,12,22,138,18,10,20,320,32,05,17,121,12,1*55
$GPGSV,4,4,15,25,11,174,19,32,11,272,37,13,06,059,17,1*51
$GPGSV,3,1,09,196,75,067,30,24,70,039,38,199,60,167,47,18,57,240,48,8*6D
$GPGSV,3,2,09,23,54,341,43,195,33,180,29,194,32,138,27,10,20,320,25,8*6C
$GPGSV,3,3,09,32,11,272,29,8*59
$GLGSV,3,1,09,80,48,070,25,73,42,157,39,70,41,015,,85,33,242,22,1*73
$GLGSV,3,2,09,86,28,297,40,71,23,318,28,69,12,077,14,79,09,030,30,1*75
$GLGSV,3,3,09,74,06,186,,1*4B
$GAGSV,3,1,09,13,54,228,40,08,45,028,23,07,44,307,40,26,33,304,36,7*74
$GAGSV,3,2,09,30,28,141,30,02,26,082,13,15,20,174,15,03,09,067,16,7*77
$GAGSV,3,3,09,27,03,187,,7*42
$GAGSV,2,1,06,13,54,228,45,08,45,028,21,07,44,307,43,26,33,304,40,1*79
$GAGSV,2,2,06,30,28,141,26,15,20,174,20,1*7C
$GBGSV,5,1,17,38,83,128,42,08,81,001,39,39,70,288,46,13,69,331,39,1*78
$GBGSV,5,2,17,16,66,262,41,06,65,258,38,46,61,105,35,09,50,241,41,1*7B
$GBGSV,5,3,17,19,50,349,35,20,42,067,28,36,38,184,35,35,20,265,29,1*77
$GBGSV,5,4,17,37,20,045,21,29,17,210,37,22,13,304,38,07,05,192,,1*79
$GBGSV,5,5,17,44,03,309,,1*49
$GBGSV,3,1,09,38,83,128,45,39,70,288,45,46,61,105,36,19,50,349,42,4*7D
$GBGSV,3,2,09,20,42,067,23,36,38,184,25,35,20,265,24,29,17,210,27,4*73
$GBGSV,3,3,09,22,13,304,32,4*4E
$GNACCURACY,3.0*15
$PAIRSAT,1,35,1,0,200,2,0,200,3,0,200,4,0,200,5,0,201,6,0,200,7,0,200,8,0,200,9,0,200,10,0,221,11,0,200,12,0,201,13,0,201,14,0,200,15,0,201,16,0,200,17,0,200,18,0,221,19,0,200,20,0,200,21,0,200,23,0,221,24,0,221,25,0,200,26,0,200,27,0,200,28,0,200,29,0,200,30,0,200,31,0,200,32,0,221,194,0,621,195,0,621,196,0,620,199,0,621*68
$PAIRSAT,2,23,65,0,200,67,0,200,68,0,200,69,0,201,70,0,201,71,0,201,72,0,200,73,0,201,74,0,200,75,0,200,76,0,200,77,0,200,78,0,200,79,0,201,80,0,201,81,0,200,82,0,200,83,0,200,84,0,200,85,0,201,86,0,201,87,0,200,88,0,200*53
$PAIRSAT,3,23,2,0,1221,3,0,1221,4,0,1200,5,0,200,7,0,1221,8,0,1221,9,0,1200,10,0,1200,11,0,1200,12,0,1200,13,0,1221,15,0,1221,19,0,1200,21,0,1200,24,0,1200,25,0,1200,26,0,1221,27,0,1200,30,0,1221,31,0,1200,33,0,1200,34,0,1200,36,0,1200*6A
$PAIRSAT,4,50,1,0,200,2,0,200,3,0,200,4,0,200,5,0,200,6,0,201,7,0,200,8,0,201,9,0,201,10,0,200,11,0,200,12,0,200,13,0,201,14,0,200,15,0,200,16,0,201,19,0,621,20,0,621,21,0,600,22,0,621,23,0,600,24,0,600,25,0,600,26,0,600,27,0,600,28,0,600,29,0,621,30,0,600,31,0,200,32,0,600,33,0,600,34,0,600,35,0,621,36,0,621,37,0,621,38,0,621,39,0,621,40,0,600,41,0,600,42,0,600,43,0,600,44,0,600,45,0,600,46,0,621,56,0,200,57,0,200,58,0,200,59,0,600,60,0,600,61,0,600*41
$PAIRDGP,9,5,10,12,15,18,23,24,25,32*5B
$GNGGA,113413.200,2500.8168972,N,12132.4667731,E,2,62,0.46,15.215,M,15.25,M,75,3335*7C
$GNRMC,113413.200,A,2500.8168972,N,12132.4667731,E,0.01,294.89,260623,,,D,V*0D
$GPHDT,,T*1B
$GNACCURACY,3.0*15
$GNGGA,113413.300,2500.8169032,N,12132.4667731,E,2,62,0.46,15.217,M,15.25,M,75,3335*73
$GNRMC,113413.300,A,2500.8169032,N,12132.4667731,E,0.02,294.89,260623,,,D,V*03
$GPHDT,,T*1B
$GNACCURACY,3.0*15
$GNGGA,113413.400,2500.8169032,N,12132.4667851,E,2,62,0.46,15.220,M,15.25,M,75,3335*79
$GNRMC,113413.400,A,2500.8169032,N,12132.4667851,E,0.01,294.89,260623,,,D,V*0E
$GPHDT,,T*1B
$GNACCURACY,3.0*15
$GNGGA,113413.500,2500.8169092,N,12132.4667911,E,2,63,0.45,15.222,M,15.25,M,75,3335*77
$GNRMC,113413.500,A,2500.8169092,N,12132.4667911,E,0.01,294.89,260623,,,D,V*00
$GPHDT,,T*1B
$GNACCURACY,3.0*15
$GNGGA,113413.600,2500.8169152,N,12132.4667971,E,2,63,0.45,15.223,M,15.25,M,75,3335*7E
$GNRMC,113413.600,A,2500.8169152,N,12132.4667971,E,0.02,294.89,260623,,,D,V*0B
$GPHDT,,T*1B
$GNACCURACY,3.0*15
$GNGGA,113413.700,2500.8169152,N,12132.4668031,E,2,63,0.45,15.221,M,15.25,M,75,3335*7F
$GNRMC,113413.700,A,2500.8169152,N,12132.4668031,E,0.02,294.89,260623,,,D,V*08
$GPHDT,,T*1B
$GNACCURACY,3.0*15
$GNGGA,113413.800,2500.8169212,N,12132.4668091,E,2,62,0.46,15.226,M,15.25,M,75,3335*78
$GNRMC,113413.800,A,2500.8169212,N,12132.4668091,E,0.02,294.89,260623,,,D,V*0A
$GPHDT,,T*1B
$GNACCURACY,3.0*15
$GNGGA,113413.900,2500.8169152,N,12132.4668211,E,2,62,0.46,15.226,M,15.25,M,75,3335*74
$GNRMC,113413.900,A,2500.8169152,N,12132.4668211,E,0.02,294.89,260623,,,D,V*06
$GPHDT,,T*1B
$GNACCURACY,3.0*15
$GNGGA,113414.000,2500.8169212,N,12132.4668331,E,2,62,0.46,15.220,M,15.25,M,76,3335*7B
$GNRMC,113414.000,A,2500.8169212,N,12132.4668331,E,0.02,294.89,260623,,,D,V*0C
$GPHDT,,T*1B
