$FW : RTK35X,V1.1X0314AS,Lib20210517,1*54
$Tool : LOCOSYS , GNSS Firebird , v1.0.0.19*39
$---------------------------------------------------*2D
$GNACCURACY,2.9*1D
$GNGGA,113455.100,2500.8179592,N,12132.4669891,E,2,61,0.45,12.353,M,15.25,M,117,3335*45
$GNRMC,113455.100,A,2500.8179592,N,12132.4669891,E,0.02,294.89,260623,,,D,V*06
$GPHDT,,T*1B
$GNGSA,A,3,196,24,199,18,23,15,195,194,12,10,05,32,0.77,0.43,0.64,1*06
$GNGSA,A,3,80,73,85,86,71,69,,,,,,,0.77,0.43,0.64,2*01
$GNGSA,A,3,13,07,08,26,30,15,02,,,,,,0.77,0.43,0.64,3*0A
$GNGSA,A,3,38,08,39,13,16,06,46,19,09,36,35,37,0.77,0.43,0.64,4*0F
$GNGSA,A,3,29,22,20,,,,,,,,,,0.77,0.43,0.64,4*08
$GPGSV,4,1,15,196,75,067,32,24,70,038,25,199,60,167,37,18,56,239,46,1*67
$GPGSV,4,2,15,23,54,341,40,41,38,242,37,15,35,051,27,195,32,180,34,1*5B
$GPGSV,4,3,15,194,32,138,34,12,23,138,23,10,21,320,19,05,16,121,25,1*52
$GPGSV,4,4,15,25,12,174,16,32,11,272,30,13,06,059,15,1*58
$GPGSV,3,1,09,196,75,067,33,24,70,038,34,199,60,167,47,18,56,239,48,8*6C
$GPGSV,3,2,09,23,54,341,44,194,32,138,33,195,32,180,26,10,21,320,27,8*63
$GPGSV,3,3,09,32,11,272,22,8*52
$GLGSV,3,1,09,80,48,069,26,73,42,157,34,70,41,016,,85,32,242,29,1*7C
$GLGSV,3,2,09,86,28,297,39,71,23,318,31,69,11,078,13,79,08,030,28,1*70
$GLGSV,3,3,09,84,05,188,,1*49
$GAGSV,3,1,09,13,53,227,41,07,45,307,37,08,45,029,25,26,33,303,38,7*72
$GAGSV,3,2,09,30,28,141,32,02,26,082,,15,20,174,18,03,09,067,13,7*7F
$GAGSV,3,3,09,25,02,041,,7*4A
$GAGSV,2,1,07,13,53,227,43,07,45,307,41,08,45,029,28,26,33,303,36,1*7B
$GAGSV,2,2,07,30,28,141,33,02,26,082,14,15,20,174,15,1*46
$GBGSV,4,1,15,38,83,129,43,08,81,001,39,39,70,288,46,13,70,331,41,1*7C
$GBGSV,4,2,15,16,66,263,42,06,65,258,40,46,61,104,37,19,50,349,40,1*7F
$GBGSV,4,3,15,09,50,241,44,20,42,067,,36,38,183,29,35,20,265,31,1*73
$GBGSV,4,4,15,37,20,045,31,29,17,209,32,22,13,304,38,1*4E
$GBGSV,3,1,10,38,83,129,47,39,70,288,46,46,61,104,41,19,50,349,45,4*73
$GBGSV,3,2,10,20,42,067,17,36,38,183,17,35,20,265,18,37,20,045,15,4*7D
$GBGSV,3,3,10,29,17,209,30,22,13,304,30,4*71
$GNACCURACY,2.8*1C
$PAIRSAT,1,35,1,0,200,2,0,200,3,0,200,4,0,200,5,0,201,6,0,200,7,0,200,8,0,200,9,0,200,10,0,221,11,0,200,12,0,201,13,0,201,14,0,200,15,0,201,16,0,200,17,0,200,18,0,221,19,0,200,20,0,200,21,0,200,23,0,221,24,0,221,25,0,200,26,0,200,27,0,200,28,0,200,29,0,200,30,0,200,31,0,200,32,0,221,194,0,621,195,0,621,196,0,620,199,0,621*68
$PAIRSAT,2,23,65,0,200,67,0,200,68,0,200,69,0,201,70,0,201,71,0,201,72,0,200,73,0,201,74,0,200,75,0,200,76,0,200,77,0,200,78,0,200,79,0,201,80,0,201,81,0,200,82,0,200,83,0,200,84,0,200,85,0,201,86,0,201,87,0,200,88,0,200*53
$PAIRSAT,3,23,2,0,1221,3,0,1221,4,0,1200,5,0,200,7,0,1221,8,0,1221,9,0,1200,10,0,1200,11,0,1200,12,0,1200,13,0,1221,15,0,1221,19,0,1200,21,0,1200,24,0,1200,25,0,1200,26,0,1221,27,0,1200,30,0,1221,31,0,1200,33,0,1200,34,0,1200,36,0,1200*6A
$PAIRSAT,4,50,1,0,200,2,0,200,3,0,200,4,0,200,5,0,200,6,0,201,7,0,200,8,0,201,9,0,201,10,0,200,11,0,200,12,0,200,13,0,201,14,0,200,15,0,200,16,0,201,19,0,621,20,0,621,21,0,600,22,0,621,23,0,600,24,0,600,25,0,600,26,0,600,27,0,600,28,0,600,29,0,621,30,0,600,31,0,200,32,0,600,33,0,600,34,0,600,35,0,621,36,0,621,37,0,621,38,0,621,39,0,621,40,0,600,41,0,600,42,0,600,43,0,600,44,0,600,45,0,600,46,0,621,56,0,200,57,0,200,58,0,200,59,0,600,60,0,600,61,0,600*41
$PAIRDGP,9,5,10,12,15,18,23,24,25,32*5B
$GNGGA,113455.200,2500.8179592,N,12132.4669891,E,2,64,0.43,12.339,M,15.25,M,117,3335*49
$GNRMC,113455.200,A,2500.8179592,N,12132.4669891,E,0.01,294.89,260623,,,D,V*06
$GPHDT,,T*1B
$GNACCURACY,2.9*1D
$GNGGA,113455.300,2500.8179592,N,12132.4669951,E,2,62,0.45,12.326,M,15.25,M,117,3335*4B
$GNRMC,113455.300,A,2500.8179592,N,12132.4669951,E,0.01,294.89,260623,,,D,V*0A
$GPHDT,,T*1B
$GNACCURACY,2.8*1C
$GNGGA,113455.400,2500.8179532,N,12132.4670011,E,2,62,0.43,12.310,M,15.25,M,117,3335*40
$GNRMC,113455.400,A,2500.8179532,N,12132.4670011,E,0.01,294.89,260623,,,D,V*02
$GPHDT,,T*1B
$GNACCURACY,2.8*1C
$GNGGA,113455.500,2500.8179472,N,12132.4670011,E,2,63,0.43,12.293,M,15.25,M,117,3335*4F
$GNRMC,113455.500,A,2500.8179472,N,12132.4670011,E,0.01,294.89,260623,,,D,V*06
$GPHDT,,T*1B
$GNACCURACY,2.8*1C
$GNGGA,113455.600,2500.8179472,N,12132.4670071,E,2,63,0.43,12.276,M,15.25,M,117,3335*41
$GNRMC,113455.600,A,2500.8179472,N,12132.4670071,E,0.01,294.89,260623,,,D,V*03
$GPHDT,,T*1B
$GNACCURACY,2.8*1C
$GNGGA,113455.700,2500.8179412,N,12132.4670131,E,2,62,0.45,12.258,M,15.25,M,117,3335*48
$GNRMC,113455.700,A,2500.8179412,N,12132.4670131,E,0.01,294.89,260623,,,D,V*01
$GPHDT,,T*1B
$GNACCURACY,2.9*1D
$GNGGA,113455.800,2500.8179352,N,12132.4670191,E,2,61,0.47,12.243,M,15.25,M,117,3335*45
$GNRMC,113455.800,A,2500.8179352,N,12132.4670191,E,0.01,294.89,260623,,,D,V*07
$GPHDT,,T*1B
$GNACCURACY,2.9*1D
$GNGGA,113455.900,2500.8179352,N,12132.4670191,E,2,61,0.47,12.225,M,15.25,M,117,3335*44
$GNRMC,113455.900,A,2500.8179352,N,12132.4670191,E,0.01,294.89,260623,,,D,V*06
$GPHDT,,T*1B
$GNACCURACY,2.8*1C
$GNGGA,113456.000,2500.8179292,N,12132.4670251,E,2,62,0.45,12.207,M,15.25,M,118,3335*42
$GNRMC,113456.000,A,2500.8179292,N,12132.4670251,E,0.01,294.89,260623,,,D,V*0E
$GPHDT,,T*1B
$GNACCURACY,2.8*1C
$GNGGA,113456.100,2500.8179232,N,12132.4670311,E,2,62,0.45,12.187,M,15.25,M,1,3335*4E
$GNRMC,113456.100,A,2500.8179232,N,12132.4670311,E,0.01,294.89,260623,,,D,V*00
$GPHDT,,T*1B
$GNGSA,A,3,196,24,199,18,23,15,195,194,12,10,05,32,0.80,0.45,0.67,1*0B
$GNGSA,A,3,80,73,85,86,71,,,,,,,,0.80,0.45,0.67,2*03
$GNGSA,A,3,13,07,08,26,30,15,02,,,,,,0.80,0.45,0.67,3*07
$GNGSA,A,3,38,08,39,13,16,06,46,19,09,36,35,37,0.80,0.45,0.67,4*02
$GNGSA,A,3,29,22,20,,,,,,,,,,0.80,0.45,0.67,4*05
$GPGSV,4,1,15,196,75,067,29,24,70,038,30,199,60,167,37,18,56,239,46,1*69
$GPGSV,4,2,15,23,54,341,40,41,38,242,38,15,35,051,29,195,32,180,34,1*5A
$GPGSV,4,3,15,194,32,138,34,12,23,138,23,10,21,320,24,05,16,121,26,1*5F
$GPGSV,4,4,15,25,12,174,16,32,11,272,28,13,06,059,15,1*51
$GPGSV,3,1,09,196,75,067,32,24,70,038,33,199,60,167,46,18,56,239,48,8*6B
$GPGSV,3,2,09,23,54,341,44,194,32,138,31,195,32,180,28,10,21,320,28,8*60
$GPGSV,3,3,09,32,11,272,20,8*50
$GLGSV,3,1,09,80,48,069,24,73,43,157,35,70,41,016,,85,32,242,31,1*77
$GLGSV,3,2,09,86,28,297,39,71,23,318,32,69,11,078,13,79,08,030,28,1*73
$GLGSV,3,3,09,84,05,188,,1*49
$GAGSV,3,1,09,13,53,227,41,07,45,307,36,08,45,029,24,26,33,303,38,7*72
$GAGSV,3,2,09,30,28,141,33,02,26,082,,15,20,174,19,03,09,067,14,7*78
$GAGSV,3,3,09,25,02,041,,7*4A
$GAGSV,2,1,07,13,53,227,43,07,45,307,41,08,45,029,24,26,33,303,37,1*76
$GAGSV,2,2,07,30,28,141,32,02,26,082,14,15,20,174,14,1*46
$GBGSV,4,1,15,38,83,129,43,08,81,001,39,39,70,288,45,13,70,331,41,1*7F
$GBGSV,4,2,15,16,66,263,42,06,65,258,40,46,61,104,37,19,50,349,40,1*7F
$GBGSV,4,3,15,09,50,241,44,20,42,067,,36,38,183,26,35,20,265,30,1*7D
$GBGSV,4,4,15,37,20,045,30,29,17,209,31,22,13,304,38,1*4C
$GBGSV,3,1,09,38,83,129,47,39,70,288,46,46,61,104,42,19,50,349,45,4*78
$GBGSV,3,2,09,20,42,067,21,36,38,183,19,35,20,265,16,29,17,209,29,4*7E
$GBGSV,3,3,09,22,13,304,26,4*4B
$GNACCURACY,2.8*1C
$PAIRSAT,1,35,1,0,200,2,0,200,3,0,200,4,0,200,5,0,201,6,0,200,7,0,200,8,0,200,9,0,200,10,0,221,11,0,200,12,0,201,13,0,201,14,0,200,15,0,201,16,0,200,17,0,200,18,0,221,19,0,200,20,0,200,21,0,200,23,0,221,24,0,221,25,0,200,26,0,200,27,0,200,28,0,200,29,0,200,30,0,200,31,0,200,32,0,221,194,0,621,195,0,621,196,0,620,199,0,621*68
$PAIRSAT,2,23,65,0,200,67,0,200,68,0,200,69,0,201,70,0,201,71,0,201,72,0,200,73,0,201,74,0,200,75,0,200,76,0,200,77,0,200,78,0,200,79,0,201,80,0,201,81,0,200,82,0,200,83,0,200,84,0,200,85,0,201,86,0,201,87,0,200,88,0,200*53
$PAIRSAT,3,23,2,0,1221,3,0,1221,4,0,1200,5,0,200,7,0,1221,8,0,1221,9,0,1200,10,0,1200,11,0,1200,12,0,1200,13,0,1221,15,0,1221,19,0,1200,21,0,1200,24,0,1200,25,0,1200,26,0,1221,27,0,1200,30,0,1221,31,0,1200,33,0,1200,34,0,1200,36,0,1200*6A
$PAIRSAT,4,50,1,0,200,2,0,200,3,0,200,4,0,200,5,0,200,6,0,201,7,0,200,8,0,201,9,0,201,10,0,200,11,0,200,12,0,200,13,0,201,14,0,200,15,0,200,16,0,201,19,0,621,20,0,621,21,0,600,22,0,621,23,0,600,24,0,600,25,0,600,26,0,600,27,0,600,28,0,600,29,0,621,30,0,600,31,0,200,32,0,600,33,0,600,34,0,600,35,0,621,36,0,621,37,0,621,38,0,621,39,0,621,40,0,600,41,0,600,42,0,600,43,0,600,44,0,600,45,0,600,46,0,621,56,0,200,57,0,200,58,0,200,59,0,600,60,0,600,61,0,600*41
$PAIRDGP,9,5,10,12,15,18,23,24,25,32*5B
$GNGGA,113456.200,2500.8179232,N,12132.4670371,E,2,62,0.45,12.171,M,15.25,M,1,3335*42
$GNRMC,113456.200,A,2500.8179232,N,12132.4670371,E,0.01,294.89,260623,,,D,V*05
$GPHDT,,T*1B
$GNACCURACY,2.8*1C
$GNGGA,113456.300,2500.8179172,N,12132.4670491,E,2,62,0.45,12.156,M,15.25,M,1,3335*48
$GNRMC,113456.300,A,2500.8179172,N,12132.4670491,E,0.01,294.89,260623,,,D,V*0A
$GPHDT,,T*1B
$GNACCURACY,2.8*1C
$GNGGA,113456.400,2500.8179172,N,12132.4670551,E,2,62,0.45,12.135,M,15.25,M,1,3335*47
$GNRMC,113456.400,A,2500.8179172,N,12132.4670551,E,0.01,294.89,260623,,,D,V*00
$GPHDT,,T*1B
$GNACCURACY,2.8*1C
$GNGGA,113456.500,2500.8179112,N,12132.4670671,E,2,62,0.45,12.119,M,15.25,M,1,3335*4F
$GNRMC,113456.500,A,2500.8179112,N,12132.4670671,E,0.01,294.89,260623,,,D,V*06
$GPHDT,,T*1B
$GNACCURACY,2.8*1C
$GNGGA,113456.600,2500.8179112,N,12132.4670851,E,2,62,0.45,12.099,M,15.25,M,1,3335*49
$GNRMC,113456.600,A,2500.8179112,N,12132.4670851,E,0.01,294.89,260623,,,D,V*09
$GPHDT,,T*1B
$GNACCURACY,2.8*1C
$GNGGA,113456.700,2500.8179112,N,12132.4670911,E,2,63,0.45,12.082,M,15.25,M,1,3335*46
$GNRMC,113456.700,A,2500.8179112,N,12132.4670911,E,0.01,294.89,260623,,,D,V*0D
$GPHDT,,T*1B
$GNACCURACY,2.8*1C
$GNGGA,113456.800,2500.8179112,N,12132.4671031,E,2,63,0.45,12.065,M,15.25,M,1,3335*4A
$GNRMC,113456.800,A,2500.8179112,N,12132.4671031,E,0.01,294.89,260623,,,D,V*08
$GPHDT,,T*1B
$GNACCURACY,2.8*1C
$GNGGA,113456.900,2500.8179112,N,12132.4671091,E,2,63,0.45,12.049,M,15.25,M,1,3335*4F
$GNRMC,113456.900,A,2500.8179112,N,12132.4671091,E,0.01,294.89,260623,,,D,V*03
$GPHDT,,T*1B
$GNACCURACY,2.8*1C
$GNGGA,113457.000,2500.8179112,N,12132.4671151,E,2,63,0.45,12.030,M,15.25,M,2,3335*47
$GNRMC,113457.000,A,2500.8179112,N,12132.4671151,E,0.01,294.89,260623,,,D,V*06
$GPHDT,,T*1B
$GNACCURACY,2.8*1C
$GNGGA,113457.100,2500.8179172,N,12132.4671211,E,2,63,0.45,12.014,M,15.25,M,2,3335*41
$GNRMC,113457.100,A,2500.8179172,N,12132.4671211,E,0.01,294.89,260623,,,D,V*06
$GPHDT,,T*1B
$GNGSA,A,3,196,24,199,18,23,15,195,194,12,10,05,32,0.80,0.45,0.67,1*0B
$GNGSA,A,3,80,73,85,86,71,,,,,,,,0.80,0.45,0.67,2*03
$GNGSA,A,3,13,07,08,26,30,15,02,,,,,,0.80,0.45,0.67,3*07
$GNGSA,A,3,38,08,39,13,16,06,46,19,09,36,35,37,0.80,0.45,0.67,4*02
$GNGSA,A,3,29,22,20,,,,,,,,,,0.80,0.45,0.67,4*05
$GPGSV,4,1,15,196,75,067,30,24,70,038,27,199,60,167,37,18,56,239,46,1*67
$GPGSV,4,2,15,23,54,341,35,41,38,242,38,15,35,051,29,195,32,180,35,1*59
$GPGSV,4,3,15,194,32,138,34,12,23,138,23,10,21,320,21,05,16,121,27,1*5B
$GPGSV,4,4,15,25,12,174,17,32,11,272,31,13,06,059,15,1*58
$GPGSV,3,1,09,196,75,067,35,24,70,038,34,199,60,167,47,18,56,239,48,8*6A
$GPGSV,3,2,09,23,54,341,42,194,32,138,32,195,32,180,32,10,21,320,30,8*67
$GPGSV,3,3,09,32,11,272,25,8*55
$GLGSV,3,1,09,80,48,069,25,73,43,157,36,70,41,016,,85,32,241,30,1*77
$GLGSV,3,2,09,86,28,297,37,71,23,318,31,69,11,078,16,79,08,030,26,1*75
$GLGSV,3,3,09,84,05,188,,1*49
$GAGSV,3,1,09,13,53,227,41,07,45,307,38,08,45,029,22,26,33,303,39,7*7B
$GAGSV,3,2,09,30,28,141,33,02,26,082,,15,20,174,19,03,09,067,14,7*78
$GAGSV,3,3,09,25,02,041,,7*4A
$GAGSV,2,1,07,13,53,227,44,07,45,307,43,08,45,029,20,26,33,303,41,1*76
$GAGSV,2,2,07,30,28,141,33,02,26,082,14,15,20,174,15,1*46
$GBGSV,4,1,15,38,83,129,44,08,81,001,39,39,70,288,45,13,70,331,40,1*79
$GBGSV,4,2,15,16,66,263,42,06,65,258,40,46,61,104,37,19,50,349,29,1*70
$GBGSV,4,3,15,09,50,241,44,20,42,067,,36,38,183,32,35,20,265,29,1*70
$GBGSV,4,4,15,37,20,045,30,29,17,209,30,22,13,304,38,1*4D
$GBGSV,3,1,10,38,83,129,47,39,70,288,47,46,61,104,42,19,50,349,41,4*75
$GBGSV,3,2,10,20,42,067,27,36,38,183,28,35,20,265,15,37,20,045,18,4*72
$GBGSV,3,3,10,29,17,209,27,22,13,304,29,4*7F
$GNACCURACY,2.8*1C
$PAIRSAT,1,35,1,0,200,2,0,200,3,0,200,4,0,200,5,0,201,6,0,200,7,0,200,8,0,200,9,0,200,10,0,221,11,0,200,12,0,201,13,0,201,14,0,200,15,0,201,16,0,200,17,0,200,18,0,221,19,0,200,20,0,200,21,0,200,23,0,221,24,0,221,25,0,200,26,0,200,27,0,200,28,0,200,29,0,200,30,0,200,31,0,200,32,0,221,194,0,621,195,0,621,196,0,620,199,0,621*68
$PAIRSAT,2,23,65,0,200,67,0,200,68,0,200,69,0,201,70,0,201,71,0,201,72,0,200,73,0,201,74,0,200,75,0,200,76,0,200,77,0,200,78,0,200,79,0,201,80,0,201,81,0,200,82,0,200,83,0,200,84,0,200,85,0,201,86,0,201,87,0,200,88,0,200*53
$PAIRSAT,3,23,2,0,1221,3,0,1221,4,0,1200,5,0,200,7,0,1221,8,0,1221,9,0,1200,10,0,1200,11,0,1200,12,0,1200,13,0,1221,15,0,1221,19,0,1200,21,0,1200,24,0,1200,25,0,1200,26,0,1221,27,0,1200,30,0,1221,31,0,1200,33,0,1200,34,0,1200,36,0,1200*6A
$PAIRSAT,4,50,1,0,200,2,0,200,3,0,200,4,0,200,5,0,200,6,0,201,7,0,200,8,0,201,9,0,201,10,0,200,11,0,200,12,0,200,13,0,201,14,0,200,15,0,200,16,0,201,19,0,621,20,0,621,21,0,600,22,0,621,23,0,600,24,0,600,25,0,600,26,0,600,27,0,600,28,0,600,29,0,621,30,0,600,31,0,200,32,0,600,33,0,600,34,0,600,35,0,621,36,0,621,37,0,621,38,0,621,39,0,621,40,0,600,41,0,600,42,0,600,43,0,600,44,0,600,45,0,600,46,0,621,56,0,200,57,0,200,58,0,200,59,0,600,60,0,600,61,0,600*41
$PAIRDGP,9,5,10,12,15,18,23,24,25,32*5B
$GNGGA,113457.200,2500.8179172,N,12132.4671271,E,2,63,0.45,12.000,M,15.25,M,2,3335*41
$GNRMC,113457.200,A,2500.8179172,N,12132.4671271,E,0.01,294.89,260623,,,D,V*03
$GPHDT,,T*1B
$GNACCURACY,2.8*1C
$GNGGA,113457.300,2500.8179232,N,12132.4671331,E,2,61,0.47,11.981,M,15.25,M,2,3335*41
$GNRMC,113457.300,A,2500.8179232,N,12132.4671331,E,0.01,294.89,260623,,,D,V*00
$GPHDT,,T*1B
$GNACCURACY,2.8*1C
$GNGGA,113457.400,2500.8179292,N,12132.4671331,E,2,61,0.47,11.964,M,15.25,M,2,3335*47
$GNRMC,113457.400,A,2500.8179292,N,12132.4671331,E,0.01,294.89,260623,,,D,V*0D
$GPHDT,,T*1B
$GNACCURACY,2.8*1C
$GNGGA,113457.500,2500.8179292,N,12132.4671391,E,2,60,0.47,11.945,M,15.25,M,2,3335*4E
$GNRMC,113457.500,A,2500.8179292,N,12132.4671391,E,0.01,294.89,260623,,,D,V*06
$GPHDT,,T*1B
$GNACCURACY,2.8*1C
$GNGGA,113457.600,2500.8179352,N,12132.4671391,E,2,62,0.45,11.933,M,15.25,M,2,3335*41
$GNRMC,113457.600,A,2500.8179352,N,12132.4671391,E,0.01,294.89,260623,,,D,V*08
$GPHDT,,T*1B
$GNACCURACY,2.8*1C
$GNGGA,113457.700,2500.8179412,N,12132.4671451,E,2,62,0.45,11.916,M,15.25,M,2,3335*4F
$GNRMC,113457.700,A,2500.8179412,N,12132.4671451,E,0.01,294.89,260623,,,D,V*01
$GPHDT,,T*1B
$GNACCURACY,2.8*1C
$GNGGA,113457.800,2500.8179412,N,12132.4671451,E,2,60,0.47,11.898,M,15.25,M,2,3335*47
$GNRMC,113457.800,A,2500.8179412,N,12132.4671451,E,0.01,294.89,260623,,,D,V*0E
$GPHDT,,T*1B
$GNACCURACY,2.8*1C
$GNGGA,113457.900,2500.8179472,N,12132.4671511,E,2,60,0.47,11.880,M,15.25,M,2,3335*4C
$GNRMC,113457.900,A,2500.8179472,N,12132.4671511,E,0.01,294.89,260623,,,D,V*0C
$GPHDT,,T*1B
$GNACCURACY,2.8*1C
$GNGGA,113458.000,2500.8179532,N,12132.4671511,E,2,62,0.45,11.861,M,15.25,M,3,3335*41
$GNRMC,113458.000,A,2500.8179532,N,12132.4671511,E,0.01,294.89,260623,,,D,V*0F
$GPHDT,,T*1B
$GNACCURACY,2.8*1C
$GNGGA,113458.100,2500.8179532,N,12132.4671511,E,2,62,0.45,11.845,M,15.25,M,3,3335*46
$GNRMC,113458.100,A,2500.8179532,N,12132.4671511,E,0.01,294.89,260623,,,D,V*0E
$GPHDT,,T*1B
$GNGSA,A,3,196,24,199,18,23,15,195,194,12,10,05,32,0.80,0.45,0.67,1*0B
$GNGSA,A,3,80,73,85,86,71,,,,,,,,0.80,0.45,0.67,2*03
$GNGSA,A,3,13,07,08,26,30,15,02,,,,,,0.80,0.45,0.67,3*07
$GNGSA,A,3,38,08,39,13,16,06,46,19,09,36,35,37,0.80,0.45,0.67,4*02
$GNGSA,A,3,29,22,20,,,,,,,,,,0.80,0.45,0.67,4*05
$GPGSV,4,1,15,196,75,067,29,24,70,038,21,199,60,167,37,18,56,239,46,1*69
$GPGSV,4,2,15,23,54,341,35,41,38,242,38,15,35,051,30,195,32,180,36,1*52
$GPGSV,4,3,15,194,32,138,33,12,23,138,22,10,21,320,20,05,16,121,26,1*5D
$GPGSV,4,4,15,25,12,174,17,32,11,272,31,13,06,059,11,1*5C
$GPGSV,3,1,09,196,75,067,33,24,70,038,35,199,60,167,48,18,56,239,49,8*63
$GPGSV,3,2,09,23,54,341,43,194,32,138,33,195,32,180,31,10,21,320,29,8*6C
$GPGSV,3,3,09,32,11,272,25,8*55
$GLGSV,3,1,09,80,48,069,20,73,43,157,35,70,41,016,,85,32,241,30,1*71
$GLGSV,3,2,09,86,28,297,37,71,23,318,31,69,11,078,15,79,08,030,31,1*70
$GLGSV,3,3,09,84,05,188,,1*49
$GAGSV,3,1,09,13,53,227,41,07,45,307,40,08,45,029,26,26,33,303,42,7*7C
$GAGSV,3,2,09,30,28,141,33,02,26,082,,15,20,174,20,03,09,067,13,7*75
$GAGSV,3,3,09,25,02,041,,7*4A
$GAGSV,2,1,06,13,53,227,44,07,45,307,43,08,45,029,24,26,33,303,42,1*70
$GAGSV,2,2,06,30,28,141,32,02,26,082,14,1*76
$GBGSV,4,1,15,38,83,129,43,08,81,001,39,39,70,288,46,13,70,331,38,1*72
$GBGSV,4,2,15,16,66,263,41,06,65,258,38,46,61,104,37,19,50,349,31,1*75
$GBGSV,4,3,15,09,50,241,44,20,42,067,,36,38,183,31,35,20,265,30,1*7B
$GBGSV,4,4,15,37,20,045,31,29,17,209,34,22,13,304,38,1*48
$GBGSV,3,1,09,38,83,129,47,39,70,288,46,46,61,104,42,19,50,349,38,4*72
$GBGSV,3,2,09,20,42,067,27,36,38,183,30,37,20,045,15,29,17,209,27,4*7C
$GBGSV,3,3,09,22,13,304,32,4*4E
$GNACCURACY,2.8*1C
$PAIRSAT,1,35,1,0,200,2,0,200,3,0,200,4,0,200,5,0,201,6,0,200,7,0,200,8,0,200,9,0,200,10,0,221,11,0,200,12,0,201,13,0,201,14,0,200,15,0,201,16,0,200,17,0,200,18,0,221,19,0,200,20,0,200,21,0,200,23,0,221,24,0,221,25,0,200,26,0,200,27,0,200,28,0,200,29,0,200,30,0,200,31,0,200,32,0,221,194,0,621,195,0,621,196,0,620,199,0,621*68
$PAIRSAT,2,23,65,0,200,67,0,200,68,0,200,69,0,201,70,0,201,71,0,201,72,0,200,73,0,201,74,0,200,75,0,200,76,0,200,77,0,200,78,0,200,79,0,201,80,0,201,81,0,200,82,0,200,83,0,200,84,0,200,85,0,201,86,0,201,87,0,200,88,0,200*53
$PAIRSAT,3,23,2,0,1221,3,0,1221,4,0,1200,5,0,200,7,0,1221,8,0,1221,9,0,1200,10,0,1200,11,0,1200,12,0,1200,13,0,1221,15,0,1221,19,0,1200,21,0,1200,24,0,1200,25,0,1200,26,0,1221,27,0,1200,30,0,1221,31,0,1200,33,0,1200,34,0,1200,36,0,1200*6A
$PAIRSAT,4,50,1,0,200,2,0,200,3,0,200,4,0,200,5,0,200,6,0,201,7,0,200,8,0,201,9,0,201,10,0,200,11,0,200,12,0,200,13,0,201,14,0,200,15,0,200,16,0,201,19,0,621,20,0,621,21,0,600,22,0,621,23,0,600,24,0,600,25,0,600,26,0,600,27,0,600,28,0,600,29,0,621,30,0,600,31,0,200,32,0,600,33,0,600,34,0,600,35,0,621,36,0,621,37,0,621,38,0,621,39,0,621,40,0,600,41,0,600,42,0,600,43,0,600,44,0,600,45,0,600,46,0,621,56,0,200,57,0,200,58,0,200,59,0,600,60,0,600,61,0,600*41
$PAIRDGP,9,5,10,12,15,18,23,24,25,32*5B
$GNGGA,113458.200,2500.8179592,N,12132.4671631,E,2,61,0.45,11.827,M,15.25,M,3,3335*49
$GNRMC,113458.200,A,2500.8179592,N,12132.4671631,E,0.01,294.89,260623,,,D,V*06
$GPHDT,,T*1B
$GNACCURACY,2.7*13
$GNGGA,113458.300,2500.8179592,N,12132.4671691,E,2,62,0.43,11.809,M,15.25,M,3,3335*4B
$GNRMC,113458.300,A,2500.8179592,N,12132.4671691,E,0.01,294.89,260623,,,D,V*0D
$GPHDT,,T*1B
$GNACCURACY,2.7*13
$GNGGA,113458.400,2500.8179652,N,12132.4671751,E,2,63,0.43,11.792,M,15.25,M,3,3335*42
$GNRMC,113458.400,A,2500.8179652,N,12132.4671751,E,0.01,294.89,260623,,,D,V*08
$GPHDT,,T*1B
$GNACCURACY,2.7*13
$GNGGA,113458.500,2500.8179652,N,12132.4671811,E,2,63,0.43,11.774,M,15.25,M,3,3335*40
$GNRMC,113458.500,A,2500.8179652,N,12132.4671811,E,0.00,294.89,260623,,,D,V*03
$GPHDT,,T*1B
$GNACCURACY,2.7*13
$GNGGA,113458.600,2500.8179712,N,12132.4671811,E,2,62,0.43,11.758,M,15.25,M,3,3335*49
$GNRMC,113458.600,A,2500.8179712,N,12132.4671811,E,0.01,294.89,260623,,,D,V*04
$GPHDT,,T*1B
$GNACCURACY,2.7*13
$GNGGA,113458.700,2500.8179772,N,12132.4671931,E,2,62,0.43,11.741,M,15.25,M,3,3335*45
$GNRMC,113458.700,A,2500.8179772,N,12132.4671931,E,0.00,294.89,260623,,,D,V*01
$GPHDT,,T*1B
$GNACCURACY,2.7*13
$GNGGA,113458.800,2500.8179772,N,12132.4671931,E,2,62,0.43,11.723,M,15.25,M,3,3335*4E
$GNRMC,113458.800,A,2500.8179772,N,12132.4671931,E,0.00,294.89,260623,,,D,V*0E
$GPHDT,,T*1B
$GNACCURACY,2.7*13
$GNGGA,113458.900,2500.8179832,N,12132.4671991,E,2,61,0.43,11.708,M,15.25,M,3,3335*44
$GNRMC,113458.900,A,2500.8179832,N,12132.4671991,E,0.00,294.89,260623,,,D,V*0E
$GPHDT,,T*1B
$GNACCURACY,2.7*13
$GNGGA,113459.000,2500.8179832,N,12132.4672051,E,2,61,0.43,11.685,M,15.25,M,4,3335*49
$GNRMC,113459.000,A,2500.8179832,N,12132.4672051,E,0.00,294.89,260623,,,D,V*00
$GPHDT,,T*1B
$GNACCURACY,2.7*13
$GNGGA,113459.100,2500.8179832,N,12132.4672111,E,2,61,0.43,11.662,M,15.25,M,4,3335*44
$GNRMC,113459.100,A,2500.8179832,N,12132.4672111,E,0.00,294.89,260623,,,D,V*04
$GPHDT,,T*1B
$GNGSA,A,3,196,24,199,18,23,15,195,194,12,05,32,10,0.77,0.43,0.64,1*06
$GNGSA,A,3,80,73,85,86,71,69,,,,,,,0.77,0.43,0.64,2*01
$GNGSA,A,3,13,07,08,26,30,15,02,,,,,,0.77,0.43,0.64,3*0A
$GNGSA,A,3,38,08,39,13,16,06,46,19,09,36,35,37,0.77,0.43,0.64,4*0F
$GNGSA,A,3,29,22,20,,,,,,,,,,0.77,0.43,0.64,4*08
$GPGSV,4,1,15,196,75,067,30,24,70,038,20,199,60,167,37,18,56,239,46,1*60
$GPGSV,4,2,15,23,54,341,35,41,38,242,38,15,35,051,30,195,32,180,35,1*51
$GPGSV,4,3,15,194,32,138,34,12,23,138,23,10,21,320,18,05,16,121,28,1*5E
$GPGSV,4,4,15,25,12,174,16,32,11,272,31,13,06,059,10,1*5C
$GPGSV,3,1,09,196,75,067,32,24,70,038,35,199,60,167,48,18,56,239,48,8*63
$GPGSV,3,2,09,23,54,341,43,194,32,138,30,195,32,180,31,10,21,320,31,8*66
$GPGSV,3,3,09,32,11,272,24,8*54
$GLGSV,3,1,09,80,48,069,18,73,43,157,33,70,41,016,,85,32,241,29,1*74
$GLGSV,3,2,09,86,28,297,32,71,23,318,30,69,11,078,17,79,08,030,31,1*76
$GLGSV,3,3,09,84,05,188,,1*49
$GAGSV,3,1,09,13,53,227,42,07,45,307,40,08,45,029,29,26,33,303,43,7*71
$GAGSV,3,2,09,30,28,141,32,02,26,082,,15,20,174,22,03,09,067,,7*74
$GAGSV,3,3,09,25,02,041,,7*4A
$GAGSV,2,1,07,13,53,227,44,07,45,307,42,08,45,029,25,26,33,303,42,1*71
$GAGSV,2,2,07,30,28,141,32,02,26,082,13,15,20,174,22,1*44
$GBGSV,4,1,15,38,83,129,43,08,81,001,39,39,70,288,46,13,70,331,39,1*73
$GBGSV,4,2,15,16,66,263,40,06,65,258,38,46,61,104,37,19,50,349,33,1*76
$GBGSV,4,3,15,09,50,242,44,20,42,067,,36,38,183,33,35,20,265,30,1*7A
$GBGSV,4,4,15,37,20,045,31,29,17,209,34,22,13,304,38,1*48
$GBGSV,2,1,08,38,83,129,47,39,70,288,46,46,61,104,42,19,50,349,38,4*72
$GBGSV,2,2,08,20,42,067,26,36,38,183,28,29,17,209,29,22,13,304,31,4*7E
$GNACCURACY,2.7*13
$PAIRSAT,1,35,1,0,200,2,0,200,3,0,200,4,0,200,5,0,201,6,0,200,7,0,200,8,0,200,9,0,200,10,0,221,11,0,200,12,0,201,13,0,201,14,0,200,15,0,201,16,0,200,17,0,200,18,0,221,19,0,200,20,0,200,21,0,200,23,0,221,24,0,221,25,0,200,26,0,200,27,0,200,28,0,200,29,0,200,30,0,200,31,0,200,32,0,221,194,0,621,195,0,621,196,0,620,199,0,621*68
$PAIRSAT,2,23,65,0,200,67,0,200,68,0,200,69,0,201,70,0,201,71,0,201,72,0,200,73,0,201,74,0,200,75,0,200,76,0,200,77,0,200,78,0,200,79,0,201,80,0,201,81,0,200,82,0,200,83,0,200,84,0,200,85,0,201,86,0,201,87,0,200,88,0,200*53
$PAIRSAT,3,23,2,0,1221,3,0,1221,4,0,1200,5,0,200,7,0,1221,8,0,1221,9,0,1200,10,0,1200,11,0,1200,12,0,1200,13,0,1221,15,0,1221,19,0,1200,21,0,1200,24,0,1200,25,0,1200,26,0,1221,27,0,1200,30,0,1221,31,0,1200,33,0,1200,34,0,1200,36,0,1200*6A
$PAIRSAT,4,50,1,0,200,2,0,200,3,0,200,4,0,200,5,0,200,6,0,201,7,0,200,8,0,201,9,0,201,10,0,200,11,0,200,12,0,200,13,0,201,14,0,200,15,0,200,16,0,201,19,0,621,20,0,621,21,0,600,22,0,621,23,0,600,24,0,600,25,0,600,26,0,600,27,0,600,28,0,600,29,0,621,30,0,600,31,0,200,32,0,600,33,0,600,34,0,600,35,0,621,36,0,621,37,0,621,38,0,621,39,0,621,40,0,600,41,0,600,42,0,600,43,0,600,44,0,600,45,0,600,46,0,621,56,0,200,57,0,200,58,0,200,59,0,600,60,0,600,61,0,600*41
$PAIRDGP,9,5,10,12,15,18,23,24,25,32*5B
$GNGGA,113459.200,2500.8179892,N,12132.4672231,E,2,61,0.43,11.637,M,15.25,M,4,3335*4C
$GNRMC,113459.200,A,2500.8179892,N,12132.4672231,E,0.00,294.89,260623,,,D,V*0C
$GPHDT,,T*1B
$GNACCURACY,2.7*13
$GNGGA,113459.300,2500.8179952,N,12132.4672291,E,2,61,0.43,11.612,M,15.25,M,4,3335*4D
$GNRMC,113459.300,A,2500.8179952,N,12132.4672291,E,0.00,294.89,260623,,,D,V*0A
$GPHDT,,T*1B
$GNACCURACY,2.7*13
$GNGGA,113459.400,2500.8179952,N,12132.4672351,E,2,61,0.43,11.586,M,15.25,M,4,3335*49
$GNRMC,113459.400,A,2500.8179952,N,12132.4672351,E,0.00,294.89,260623,,,D,V*00
$GPHDT,,T*1B
$GNACCURACY,2.7*13
$GNGGA,113459.500,2500.8179952,N,12132.4672351,E,2,62,0.43,11.564,M,15.25,M,1,3335*42
$GNRMC,113459.500,A,2500.8179952,N,12132.4672351,E,0.00,294.89,260623,,,D,V*01
$GPHDT,,T*1B
$GNACCURACY,2.7*13
$GNGGA,113459.600,2500.8179952,N,12132.4672411,E,2,62,0.43,11.544,M,15.25,M,1,3335*40
$GNRMC,113459.600,A,2500.8179952,N,12132.4672411,E,0.01,294.89,260623,,,D,V*00
$GPHDT,,T*1B
$GNACCURACY,2.7*13
$GNGGA,113459.700,2500.8179952,N,12132.4672471,E,2,62,0.43,11.523,M,15.25,M,0,3335*47
$GNRMC,113459.700,A,2500.8179952,N,12132.4672471,E,0.01,294.89,260623,,,D,V*07
$GPHDT,,T*1B
$GNACCURACY,2.8*1C
$GNGGA,113459.800,2500.8179952,N,12132.4672531,E,2,61,0.45,11.502,M,15.25,M,0,3335*4B
$GNRMC,113459.800,A,2500.8179952,N,12132.4672531,E,0.01,294.89,260623,,,D,V*0D
$GPHDT,,T*1B
$GNACCURACY,2.7*13
$GNGGA,113459.900,2500.8180012,N,12132.4672591,E,2,62,0.43,11.484,M,15.25,M,0,3335*41
$GNRMC,113459.900,A,2500.8180012,N,12132.4672591,E,0.00,294.89,260623,,,D,V*0C
$GPHDT,,T*1B
$GNACCURACY,2.8*1C
$GNGGA,113500.000,2500.8180012,N,12132.4672711,E,2,61,0.45,11.463,M,15.25,M,1,3335*42
$GNRMC,113500.000,A,2500.8180012,N,12132.4672711,E,0.01,294.89,260623,,,D,V*03
$GPHDT,,T*1B
$GNACCURACY,2.8*1C
$GNGGA,113500.100,2500.8180012,N,12132.4672771,E,2,61,0.45,11.448,M,15.25,M,1,3335*4C
$GNRMC,113500.100,A,2500.8180012,N,12132.4672771,E,0.01,294.89,260623,,,D,V*04
$GPHDT,,T*1B
$GNGSA,A,3,196,24,199,18,23,15,195,194,12,10,05,32,0.77,0.43,0.64,1*06
$GNGSA,A,3,80,73,85,86,71,69,,,,,,,0.77,0.43,0.64,2*01
$GNGSA,A,3,13,07,08,26,30,15,02,,,,,,0.77,0.43,0.64,3*0A
$GNGSA,A,3,38,08,39,13,16,06,46,19,09,36,35,37,0.77,0.43,0.64,4*0F
$GNGSA,A,3,29,22,20,,,,,,,,,,0.77,0.43,0.64,4*08
$GPGSV,4,1,15,196,75,067,31,24,70,038,17,199,60,167,37,18,56,239,47,1*64
$GPGSV,4,2,15,23,54,341,37,41,38,242,38,15,35,051,28,195,32,180,35,1*5A
$GPGSV,4,3,15,194,32,138,34,12,23,138,23,10,21,320,23,05,16,121,28,1*56
$GPGSV,4,4,15,25,12,174,16,32,11,272,31,13,06,059,13,1*5F
$GPGSV,3,1,09,196,75,067,32,24,70,038,34,199,60,167,48,18,56,239,47,8*6D
$GPGSV,3,2,09,23,54,341,43,194,32,138,31,195,32,180,31,10,21,320,33,8*65
$GPGSV,3,3,09,32,11,272,23,8*53
$GLGSV,3,1,09,80,48,069,19,73,43,157,34,70,41,016,,85,32,241,31,1*7B
$GLGSV,3,2,09,86,28,297,35,71,23,318,39,69,11,078,19,79,08,030,28,1*7E
$GLGSV,3,3,09,84,05,188,,1*49
$GAGSV,3,1,09,13,53,227,41,07,45,307,41,08,45,029,29,26,33,303,40,7*70
$GAGSV,3,2,09,30,28,141,32,02,26,082,,15,20,174,21,03,09,067,,7*77
$GAGSV,3,3,09,25,02,041,,7*4A
$GAGSV,2,1,07,13,53,227,45,07,45,307,43,08,45,029,25,26,33,303,41,1*72
$GAGSV,2,2,07,30,28,141,31,02,26,082,12,15,20,174,24,1*40
$GBGSV,4,1,15,38,83,129,43,08,81,001,39,39,70,288,46,13,70,331,41,1*7C
$GBGSV,4,2,15,16,66,263,42,06,65,258,40,46,61,104,36,19,50,349,32,1*7B
$GBGSV,4,3,15,09,50,242,44,20,42,068,,36,38,183,34,35,20,265,30,1*72
$GBGSV,4,4,15,37,20,045,31,29,17,209,33,22,13,304,38,1*4F
$GBGSV,2,1,08,38,83,129,47,39,70,288,46,46,61,104,41,19,50,349,41,4*7F
$GBGSV,2,2,08,20,42,068,26,36,38,183,29,29,17,209,29,22,13,304,30,4*71
$GNACCURACY,2.7*13
$PAIRSAT,1,35,1,0,200,2,0,200,3,0,200,4,0,200,5,0,201,6,0,200,7,0,200,8,0,200,9,0,200,10,0,221,11,0,200,12,0,201,13,0,201,14,0,200,15,0,201,16,0,200,17,0,200,18,0,221,19,0,200,20,0,200,21,0,200,23,0,221,24,0,221,25,0,200,26,0,200,27,0,200,28,0,200,29,0,200,30,0,200,31,0,200,32,0,221,194,0,621,195,0,621,196,0,620,199,0,621*68
$PAIRSAT,2,23,65,0,200,67,0,200,68,0,200,69,0,201,70,0,201,71,0,201,72,0,200,73,0,201,74,0,200,75,0,200,76,0,200,77,0,200,78,0,200,79,0,201,80,0,201,81,0,200,82,0,200,83,0,200,84,0,200,85,0,201,86,0,201,87,0,200,88,0,200*53
$PAIRSAT,3,23,2,0,1221,3,0,1221,4,0,1200,5,0,200,7,0,1221,8,0,1221,9,0,1200,10,0,1200,11,0,1200,12,0,1200,13,0,1221,15,0,1221,19,0,1200,21,0,1200,24,0,1200,25,0,1200,26,0,1221,27,0,1200,30,0,1221,31,0,1200,33,0,1200,34,0,1200,36,0,1200*6A
$PAIRSAT,4,50,1,0,200,2,0,200,3,0,200,4,0,200,5,0,200,6,0,201,7,0,200,8,0,201,9,0,201,10,0,200,11,0,200,12,0,200,13,0,201,14,0,200,15,0,200,16,0,201,19,0,621,20,0,621,21,0,600,22,0,621,23,0,600,24,0,600,25,0,600,26,0,600,27,0,600,28,0,600,29,0,621,30,0,600,31,0,200,32,0,600,33,0,600,34,0,600,35,0,621,36,0,621,37,0,621,38,0,621,39,0,621,40,0,600,41,0,600,42,0,600,43,0,600,44,0,600,45,0,600,46,0,621,56,0,200,57,0,200,58,0,200,59,0,600,60,0,600,61,0,600*41
$PAIRDGP,9,5,10,12,15,18,23,24,25,32*5B
$GNGGA,113500.200,2500.8180072,N,12132.4672831,E,2,62,0.43,11.427,M,15.25,M,1,3335*4E
$GNRMC,113500.200,A,2500.8180072,N,12132.4672831,E,0.01,294.89,260623,,,D,V*0A
$GPHDT,226.983,T*31
$GNACCURACY,2.7*13
$GNGGA,113500.300,2500.8180072,N,12132.4672951,E,2,62,0.43,11.414,M,15.25,M,1,3335*48
$GNRMC,113500.300,A,2500.8180072,N,12132.4672951,E,0.01,294.89,260623,,,D,V*0C
$GPHDT,,T*1B
$GNACCURACY,2.8*1C
$GNGGA,113500.400,2500.8180132,N,12132.4673011,E,2,61,0.45,11.397,M,15.25,M,1,3335*4F
$GNRMC,113500.400,A,2500.8180132,N,12132.4673011,E,0.01,294.89,260623,,,D,V*02
$GPHDT,228.103,T*3F
$GNACCURACY,2.7*13
$GNGGA,113500.500,2500.8180132,N,12132.4673071,E,2,62,0.43,11.380,M,15.25,M,1,3335*4B
$GNRMC,113500.500,A,2500.8180132,N,12132.4673071,E,0.01,294.89,260623,,,D,V*05
$GPHDT,,T*1B
$GNACCURACY,2.7*13
$GNGGA,113500.600,2500.8180132,N,12132.4673131,E,2,62,0.43,11.362,M,15.25,M,1,3335*41
$GNRMC,113500.600,A,2500.8180132,N,12132.4673131,E,0.01,294.89,260623,,,D,V*03
$GPHDT,228.240,T*3B
$GNACCURACY,2.7*13
$GNGGA,113500.700,2500.8180192,N,12132.4673191,E,2,63,0.43,11.341,M,15.25,M,1,3335*40
$GNRMC,113500.700,A,2500.8180192,N,12132.4673191,E,0.01,294.89,260623,,,D,V*02
$GPHDT,,T*1B
$GNACCURACY,2.7*13
$GNGGA,113500.800,2500.8180252,N,12132.4673191,E,2,63,0.43,11.322,M,15.25,M,1,3335*45
$GNRMC,113500.800,A,2500.8180252,N,12132.4673191,E,0.01,294.89,260623,,,D,V*02
$GPHDT,228.131,T*3E
$GNACCURACY,2.7*13
$GNGGA,113500.900,2500.8180252,N,12132.4673251,E,2,63,0.43,11.299,M,15.25,M,1,3335*4A
$GNRMC,113500.900,A,2500.8180252,N,12132.4673251,E,0.01,294.89,260623,,,D,V*0C
$GPHDT,,T*1B
$GNACCURACY,2.7*13
$GNGGA,113501.000,2500.8180252,N,12132.4673311,E,2,63,0.43,11.276,M,15.25,M,2,3335*45
$GNRMC,113501.000,A,2500.8180252,N,12132.4673311,E,0.01,294.89,260623,,,D,V*01
$GPHDT,225.840,T*3C
$GNACCURACY,2.7*13
$GNGGA,113501.100,2500.8180252,N,12132.4673431,E,2,63,0.43,11.256,M,15.25,M,2,3335*43
$GNRMC,113501.100,A,2500.8180252,N,12132.4673431,E,0.01,294.89,260623,,,D,V*05
$GPHDT,,T*1B
$GNGSA,A,3,196,24,199,18,23,15,195,194,12,10,05,32,0.77,0.43,0.64,1*06
$GNGSA,A,3,80,73,85,86,71,69,,,,,,,0.77,0.43,0.64,2*01
$GNGSA,A,3,13,07,08,26,30,02,15,,,,,,0.77,0.43,0.64,3*0A
$GNGSA,A,3,38,08,13,39,16,06,46,09,19,36,35,37,0.77,0.43,0.64,4*0F
$GNGSA,A,3,29,22,20,,,,,,,,,,0.77,0.43,0.64,4*08
$GPGSV,4,1,15,196,75,067,31,24,70,038,19,199,60,167,37,18,56,239,46,1*6B
$GPGSV,4,2,15,23,54,341,37,41,38,242,38,15,35,051,28,195,32,180,35,1*5A
$GPGSV,4,3,15,194,32,138,34,12,23,138,23,10,21,320,34,05,16,121,27,1*5F
$GPGSV,4,4,15,25,12,174,16,32,11,272,28,13,06,059,11,1*55
$GPGSV,3,1,09,196,75,067,31,24,70,038,32,199,60,167,47,18,56,239,47,8*67
$GPGSV,3,2,09,23,54,341,42,194,32,138,33,195,32,180,30,10,21,320,35,8*61
$GPGSV,3,3,09,32,11,272,18,8*5B
$GLGSV,2,1,08,80,48,069,18,73,43,157,34,70,41,016,,85,32,241,30,1*7B
$GLGSV,2,2,08,86,28,297,33,71,23,318,36,69,11,078,19,79,08,030,26,1*79
$GAGSV,3,1,09,13,53,227,41,07,45,307,41,08,45,029,27,26,33,303,38,7*71
$GAGSV,3,2,09,30,28,141,31,02,26,082,18,15,20,174,21,03,09,067,,7*7D
$GAGSV,3,3,09,25,02,041,,7*4A
$GAGSV,2,1,07,13,53,227,45,07,45,307,43,08,45,029,29,26,33,303,40,1*7F
$GAGSV,2,2,07,30,28,141,32,02,26,082,13,15,20,174,22,1*44
$GBGSV,4,1,16,38,83,129,43,08,81,001,39,13,70,331,41,39,70,288,46,1*7F
$GBGSV,4,2,16,16,66,263,42,06,65,258,40,46,61,104,36,09,50,242,44,1*72
$GBGSV,4,3,16,19,50,349,37,20,42,068,,36,39,183,34,35,20,265,29,1*77
$GBGSV,4,4,16,37,20,045,30,29,16,209,32,22,13,304,37,10,02,201,,1*72
$GBGSV,2,1,08,38,83,129,47,39,70,288,44,46,61,104,41,19,50,349,42,4*7E
$GBGSV,2,2,08,20,42,068,25,36,39,183,31,29,16,209,27,22,13,304,30,4*75
$GNACCURACY,2.7*13
$PAIRSAT,1,35,1,0,200,2,0,200,3,0,200,4,0,200,5,0,201,6,0,200,7,0,200,8,0,200,9,0,200,10,0,221,11,0,200,12,0,201,13,0,201,14,0,200,15,0,201,16,0,200,17,0,200,18,0,221,19,0,200,20,0,200,21,0,200,23,0,221,24,0,221,25,0,200,26,0,200,27,0,200,28,0,200,29,0,200,30,0,200,31,0,200,32,0,221,194,0,621,195,0,621,196,0,620,199,0,621*68
$PAIRSAT,2,23,65,0,200,67,0,200,68,0,200,69,0,201,70,0,201,71,0,201,72,0,200,73,0,201,74,0,200,75,0,200,76,0,200,77,0,200,78,0,200,79,0,201,80,0,201,81,0,200,82,0,200,83,0,200,84,0,200,85,0,201,86,0,201,87,0,200,88,0,200*53
$PAIRSAT,3,23,2,0,1221,3,0,1221,4,0,1200,5,0,200,7,0,1221,8,0,1221,9,0,1200,10,0,1200,11,0,1200,12,0,1200,13,0,1221,15,0,1221,19,0,1200,21,0,1200,24,0,1200,25,0,1200,26,0,1221,27,0,1200,30,0,1221,31,0,1200,33,0,1200,34,0,1200,36,0,1200*6A
$PAIRSAT,4,50,1,0,200,2,0,200,3,0,200,4,0,200,5,0,200,6,0,201,7,0,200,8,0,201,9,0,201,10,0,200,11,0,200,12,0,200,13,0,201,14,0,200,15,0,200,16,0,201,19,0,621,20,0,621,21,0,600,22,0,621,23,0,600,24,0,600,25,0,600,26,0,600,27,0,600,28,0,600,29,0,621,30,0,600,31,0,200,32,0,600,33,0,600,34,0,600,35,0,621,36,0,621,37,0,621,38,0,621,39,0,621,40,0,600,41,0,600,42,0,600,43,0,600,44,0,600,45,0,600,46,0,621,56,0,200,57,0,200,58,0,200,59,0,600,60,0,600,61,0,600*41
$PAIRDGP,9,5,10,12,15,18,23,24,25,32*5B
$GNGGA,113501.200,2500.8167338,N,12132.4669990,E,4,63,0.43,16.078,M,15.25,M,2,3335*46
$GNRMC,113501.200,A,2500.8167338,N,12132.4669990,E,0.01,294.89,260623,,,R,V*19
$GPHDT,225.387,T*3C
$GNACCURACY,2.7*13
$GNGGA,113501.300,2500.8167271,N,12132.4670035,E,4,63,0.43,16.039,M,15.25,M,2,3335*40
$GNRMC,113501.300,A,2500.8167271,N,12132.4670035,E,0.01,294.89,260623,,,R,V*1A
$GPHDT,,T*1B
$GNACCURACY,2.7*13
$GNGGA,113501.400,2500.8167331,N,12132.4670010,E,4,63,0.43,16.069,M,15.25,M,2,3335*40
$GNRMC,113501.400,A,2500.8167331,N,12132.4670010,E,0.01,294.89,260623,,,R,V*1F
$GPHDT,226.144,T*32
$GNACCURACY,2.7*13
$GNGGA,113501.500,2500.8167356,N,12132.4670021,E,4,63,0.43,16.067,M,15.25,M,2,3335*4C
$GNRMC,113501.500,A,2500.8167356,N,12132.4670021,E,0.01,294.89,260623,,,R,V*1D
$GPHDT,,T*1B
$GNACCURACY,2.8*1C
$GNGGA,113501.600,2500.8167285,N,12132.4670034,E,4,62,0.45,16.033,M,15.25,M,2,3335*42
$GNRMC,113501.600,A,2500.8167285,N,12132.4670034,E,0.01,294.89,260623,,,R,V*15
$GPHDT,225.916,T*3E
$GNACCURACY,2.7*13
$GNGGA,113501.700,2500.8167359,N,12132.4669970,E,4,63,0.43,16.068,M,15.25,M,2,3335*4B
$GNRMC,113501.700,A,2500.8167359,N,12132.4669970,E,0.01,294.89,260623,,,R,V*15
$GPHDT,,T*1B
$GNACCURACY,2.7*13
$GNGGA,113501.800,2500.8167325,N,12132.4670032,E,4,63,0.43,16.054,M,15.25,M,2,3335*47
$GNRMC,113501.800,A,2500.8167325,N,12132.4670032,E,0.01,294.89,260623,,,R,V*16
$GPHDT,226.406,T*31
$GNACCURACY,2.7*13
$GNGGA,113501.900,2500.8167280,N,12132.4670002,E,4,63,0.43,16.036,M,15.25,M,2,3335*4F
$GNRMC,113501.900,A,2500.8167280,N,12132.4670002,E,0.01,294.89,260623,,,R,V*1A
$GPHDT,,T*1B
$GNACCURACY,2.7*13
$GNGGA,113502.000,2500.8167286,N,12132.4669974,E,4,63,0.43,16.044,M,15.25,M,3,3335*47
$GNRMC,113502.000,A,2500.8167286,N,12132.4669974,E,0.01,294.89,260623,,,R,V*16
$GPHDT,225.641,T*33
$GNACCURACY,2.7*13
$GNGGA,113502.100,2500.8167291,N,12132.4669994,E,4,63,0.43,16.057,M,15.25,M,3,3335*4C
$GNRMC,113502.100,A,2500.8167291,N,12132.4669994,E,0.01,294.89,260623,,,R,V*1F
$GPHDT,,T*1B
$GNGSA,A,3,196,24,199,18,23,15,195,194,12,10,05,32,0.77,0.43,0.64,1*06
$GNGSA,A,3,80,73,85,86,71,69,,,,,,,0.77,0.43,0.64,2*01
$GNGSA,A,3,13,08,07,26,30,02,15,,,,,,0.77,0.43,0.64,3*0A
$GNGSA,A,3,38,08,13,39,16,06,46,09,19,36,35,37,0.77,0.43,0.64,4*0F
$GNGSA,A,3,29,22,20,,,,,,,,,,0.77,0.43,0.64,4*08
$GPGSV,4,1,15,196,75,067,31,24,70,038,19,199,60,167,37,18,56,239,46,1*6B
$GPGSV,4,2,15,23,54,341,38,41,38,242,39,15,35,051,29,195,32,180,34,1*54
$GPGSV,4,3,15,194,32,138,34,12,23,138,20,10,21,320,28,05,16,121,27,1*51
$GPGSV,4,4,15,25,12,174,16,32,11,272,31,13,06,059,10,1*5C
$GPGSV,3,1,09,196,75,067,31,24,70,038,32,199,60,167,46,18,56,239,47,8*66
$GPGSV,3,2,09,23,54,341,43,194,32,138,33,195,32,180,33,10,21,320,34,8*62
$GPGSV,3,3,09,32,11,272,18,8*5B
$GLGSV,2,1,08,80,48,069,18,73,43,157,36,70,41,016,,85,32,241,29,1*71
$GLGSV,2,2,08,86,28,297,37,71,23,318,35,69,11,078,23,79,08,030,25,1*74
$GAGSV,3,1,09,13,53,227,42,08,45,029,26,07,45,307,39,26,33,303,38,7*7C
$GAGSV,3,2,09,30,28,141,31,02,26,082,16,15,20,174,20,03,09,067,,7*72
$GAGSV,3,3,09,25,02,041,,7*4A
$GAGSV,2,1,07,13,53,227,45,07,45,307,42,08,45,029,28,26,33,303,40,1*7F
$GAGSV,2,2,07,30,28,141,33,02,26,082,14,15,20,174,19,1*4A
$GBGSV,4,1,15,38,83,129,43,08,81,001,39,13,70,331,41,39,70,288,46,1*7C
$GBGSV,4,2,15,16,66,263,41,06,65,258,40,46,61,104,36,09,50,242,44,1*72
$GBGSV,4,3,15,19,50,349,36,20,42,068,,36,39,183,33,35,20,265,26,1*7D
$GBGSV,4,4,15,37,20,045,30,29,16,209,31,22,13,304,37,1*42
$GBGSV,2,1,08,38,83,129,47,39,70,288,44,46,61,104,41,19,50,349,42,4*7E
$GBGSV,2,2,08,20,42,068,26,36,39,183,31,29,16,209,28,22,13,304,25,4*7D
$GNACCURACY,2.7*13
$PAIRSAT,1,35,1,0,200,2,0,200,3,0,200,4,0,200,5,0,201,6,0,200,7,0,200,8,0,200,9,0,200,10,0,221,11,0,200,12,0,201,13,0,201,14,0,200,15,0,201,16,0,200,17,0,200,18,0,221,19,0,200,20,0,200,21,0,200,23,0,221,24,0,221,25,0,200,26,0,200,27,0,200,28,0,200,29,0,200,30,0,200,31,0,200,32,0,221,194,0,621,195,0,621,196,0,620,199,0,621*68
$PAIRSAT,2,23,65,0,200,67,0,200,68,0,200,69,0,201,70,0,201,71,0,201,72,0,200,73,0,201,74,0,200,75,0,200,76,0,200,77,0,200,78,0,200,79,0,201,80,0,201,81,0,200,82,0,200,83,0,200,84,0,200,85,0,201,86,0,201,87,0,200,88,0,200*53
$PAIRSAT,3,23,2,0,1221,3,0,1221,4,0,1200,5,0,200,7,0,1221,8,0,1221,9,0,1200,10,0,1200,11,0,1200,12,0,1200,13,0,1221,15,0,1221,19,0,1200,21,0,1200,24,0,1200,25,0,1200,26,0,1221,27,0,1200,30,0,1221,31,0,1200,33,0,1200,34,0,1200,36,0,1200*6A
$PAIRSAT,4,50,1,0,200,2,0,200,3,0,200,4,0,200,5,0,200,6,0,201,7,0,200,8,0,201,9,0,201,10,0,200,11,0,200,12,0,200,13,0,201,14,0,200,15,0,200,16,0,201,19,0,621,20,0,621,21,0,600,22,0,621,23,0,600,24,0,600,25,0,600,26,0,600,27,0,600,28,0,600,29,0,621,30,0,600,31,0,200,32,0,600,33,0,600,34,0,600,35,0,621,36,0,621,37,0,621,38,0,621,39,0,621,40,0,600,41,0,600,42,0,600,43,0,600,44,0,600,45,0,600,46,0,621,56,0,200,57,0,200,58,0,200,59,0,600,60,0,600,61,0,600*41
$PAIRDGP,9,5,10,12,15,18,23,24,25,32*5B
$GNGGA,113502.200,2500.8167308,N,12132.4670048,E,4,63,0.43,16.033,M,15.25,M,3,3335*4C
$GNRMC,113502.200,A,2500.8167308,N,12132.4670048,E,0.01,294.89,260623,,,R,V*1D
$GPHDT,226.345,T*31
$GNACCURACY,2.7*13
$GNGGA,113502.300,2500.8167305,N,12132.4670050,E,4,63,0.43,16.021,M,15.25,M,3,3335*4A
$GNRMC,113502.300,A,2500.8167305,N,12132.4670050,E,0.01,294.89,260623,,,R,V*18
$GPHDT,,T*1B
$GNACCURACY,2.7*13
$GNGGA,113502.400,2500.8167296,N,12132.4670026,E,4,63,0.43,16.028,M,15.25,M,3,3335*4E
$GNRMC,113502.400,A,2500.8167296,N,12132.4670026,E,0.01,294.89,260623,,,R,V*15
$GPHDT,226.224,T*37
$GNACCURACY,2.7*13
$GNGGA,113502.500,2500.8167307,N,12132.4670030,E,4,63,0.43,16.027,M,15.25,M,3,3335*4E
$GNRMC,113502.500,A,2500.8167307,N,12132.4670030,E,0.01,294.89,260623,,,R,V*1A
$GPHDT,,T*1B
$GNACCURACY,2.7*13
$GNGGA,113502.600,2500.8167300,N,12132.4670040,E,4,63,0.43,16.028,M,15.25,M,3,3335*42
$GNRMC,113502.600,A,2500.8167300,N,12132.4670040,E,0.01,294.89,260623,,,R,V*19
$GPHDT,226.096,T*3C
$GNACCURACY,2.7*13
$GNGGA,113502.700,2500.8167361,N,12132.4669986,E,4,63,0.43,16.108,M,15.25,M,3,3335*4C
$GNRMC,113502.700,A,2500.8167361,N,12132.4669986,E,0.01,294.89,260623,,,R,V*14
$GPHDT,,T*1B
$GNACCURACY,2.7*13
$GNGGA,113502.800,2500.8167318,N,12132.4669957,E,4,63,0.43,16.138,M,15.25,M,3,3335*42
$GNRMC,113502.800,A,2500.8167318,N,12132.4669957,E,0.01,294.89,260623,,,R,V*19
$GPHDT,226.206,T*37
$GNACCURACY,2.7*13
$GNGGA,113502.900,2500.8167367,N,12132.4669910,E,4,63,0.43,16.191,M,15.25,M,3,3335*4B
$GNRMC,113502.900,A,2500.8167367,N,12132.4669910,E,0.01,294.89,260623,,,R,V*13
$GPHDT,,T*1B
$GNACCURACY,2.7*13
$GNGGA,113503.000,2500.8167344,N,12132.4669894,E,4,63,0.43,16.2