$FW : RTK35X,V1.1X0314AS,Lib20210517,1*54
$Tool : LOCOSYS , GNSS Firebird , v1.0.0.19*39
$---------------------------------------------------*2D
$GNACCURACY,3.5*10
$GNGGA,113428.100,2500.8178872,N,12132.4674511,E,2,63,0.45,14.872,M,15.25,M,90,3335*76
$GNRMC,113428.100,A,2500.8178872,N,12132.4674511,E,0.01,294.89,260623,,,D,V*04
$GPHDT,,T*1B
$GNGSA,A,3,196,24,199,18,23,15,195,194,12,10,05,32,0.71,0.45,0.55,1*04
$GNGSA,A,3,80,73,85,86,71,69,,,,,,,0.71,0.45,0.55,2*03
$GNGSA,A,3,13,08,07,26,30,02,15,,,,,,0.71,0.45,0.55,3*08
$GNGSA,A,3,38,08,39,13,16,06,46,09,19,20,36,35,0.71,0.45,0.55,4*0B
$GNGSA,A,3,29,22,,,,,,,,,,,0.71,0.45,0.55,4*08
$GPGSV,4,1,15,196,75,067,28,24,70,038,27,199,60,167,36,18,57,239,46,1*6E
$GPGSV,4,2,15,23,54,341,36,41,38,242,36,15,35,050,29,195,33,180,35,1*54
$GPGSV,4,3,15,194,32,138,33,12,23,138,21,10,21,320,24,05,17,121,24,1*59
$GPGSV,4,4,15,25,11,174,12,32,11,272,34,13,06,059,14,1*5A
$GPGSV,3,1,09,196,75,067,33,24,70,038,38,199,60,167,45,18,57,239,47,8*6C
$GPGSV,3,2,09,23,54,341,41,195,33,180,31,194,32,138,32,10,21,320,19,8*6D
$GPGSV,3,3,09,32,11,272,28,8*58
$GLGSV,2,1,08,80,48,070,26,73,42,157,37,70,41,016,,85,32,242,29,1*77
$GLGSV,2,2,08,86,28,297,43,71,23,318,29,69,11,078,18,79,08,030,29,1*7E
$GAGSV,2,1,08,13,54,228,38,08,45,029,30,07,44,307,41,26,33,304,40,7*78
$GAGSV,2,2,08,30,28,141,32,02,26,082,15,15,20,174,22,03,09,067,,7*70
$GAGSV,2,1,06,13,54,228,41,08,45,029,29,07,44,307,44,26,33,304,42,1*71
$GAGSV,2,2,06,30,28,141,30,15,20,174,24,1*7F
$GBGSV,4,1,15,38,83,128,42,08,81,001,39,39,70,288,46,13,69,331,41,1*74
$GBGSV,4,2,15,16,66,263,42,06,65,258,39,46,61,105,38,09,50,241,43,1*74
$GBGSV,4,3,15,19,50,349,32,20,42,067,24,36,38,184,32,35,20,265,32,1*72
$GBGSV,4,4,15,37,20,045,,29,17,209,29,22,13,304,39,1*47
$GBGSV,3,1,09,38,83,128,47,39,70,288,45,46,61,105,44,19,50,349,42,4*7A
$GBGSV,3,2,09,20,42,067,27,36,38,184,26,35,20,265,25,29,17,209,27,4*7D
$GBGSV,3,3,09,22,13,304,23,4*4E
$GNACCURACY,3.5*10
$PAIRSAT,1,35,1,0,200,2,0,200,3,0,200,4,0,200,5,0,201,6,0,200,7,0,200,8,0,200,9,0,200,10,0,221,11,0,200,12,0,201,13,0,201,14,0,200,15,0,201,16,0,200,17,0,200,18,0,221,19,0,200,20,0,200,21,0,200,23,0,221,24,0,221,25,0,200,26,0,200,27,0,200,28,0,200,29,0,200,30,0,200,31,0,200,32,0,221,194,0,621,195,0,621,196,0,620,199,0,621*68
$PAIRSAT,2,23,65,0,200,67,0,200,68,0,200,69,0,201,70,0,201,71,0,201,72,0,200,73,0,201,74,0,200,75,0,200,76,0,200,77,0,200,78,0,200,79,0,201,80,0,201,81,0,200,82,0,200,83,0,200,84,0,200,85,0,201,86,0,201,87,0,200,88,0,200*53
$PAIRSAT,3,23,2,0,1221,3,0,1221,4,0,1200,5,0,200,7,0,1221,8,0,1221,9,0,1200,10,0,1200,11,0,1200,12,0,1200,13,0,1221,15,0,1221,19,0,1200,21,0,1200,24,0,1200,25,0,1200,26,0,1221,27,0,1200,30,0,1221,31,0,1200,33,0,1200,34,0,1200,36,0,1200*6A
$PAIRSAT,4,50,1,0,200,2,0,200,3,0,200,4,0,200,5,0,200,6,0,201,7,0,200,8,0,201,9,0,201,10,0,200,11,0,200,12,0,200,13,0,201,14,0,200,15,0,200,16,0,201,19,0,621,20,0,621,21,0,600,22,0,621,23,0,600,24,0,600,25,0,600,26,0,600,27,0,600,28,0,600,29,0,621,30,0,600,31,0,200,32,0,600,33,0,600,34,0,600,35,0,621,36,0,621,37,0,621,38,0,621,39,0,621,40,0,600,41,0,600,42,0,600,43,0,600,44,0,600,45,0,600,46,0,621,56,0,200,57,0,200,58,0,200,59,0,600,60,0,600,61,0,600*41
$PAIRDGP,9,5,10,12,15,18,23,24,25,32*5B
$GNGGA,113428.200,2500.8178992,N,12132.4674571,E,2,63,0.45,14.863,M,15.25,M,90,3335*7C
$GNRMC,113428.200,A,2500.8178992,N,12132.4674571,E,0.01,294.89,260623,,,D,V*0E
$GPHDT,,T*1B
$GNACCURACY,3.1*14
$GNGGA,113428.300,2500.8179112,N,12132.4674631,E,2,63,0.45,14.852,M,15.25,M,90,3335*79
$GNRMC,113428.300,A,2500.8179112,N,12132.4674631,E,0.01,294.89,260623,,,D,V*09
$GPHDT,,T*1B
$GNACCURACY,3.1*14
$GNGGA,113428.400,2500.8179232,N,12132.4674631,E,2,63,0.45,14.841,M,15.25,M,90,3335*7D
$GNRMC,113428.400,A,2500.8179232,N,12132.4674631,E,0.02,294.89,260623,,,D,V*0C
$GPHDT,,T*1B
$GNACCURACY,3.1*14
$GNGGA,113428.500,2500.8179352,N,12132.4674631,E,2,63,0.45,14.829,M,15.25,M,90,3335*75
$GNRMC,113428.500,A,2500.8179352,N,12132.4674631,E,0.02,294.89,260623,,,D,V*0A
$GPHDT,,T*1B
$GNACCURACY,3.1*14
$GNGGA,113428.600,2500.8179532,N,12132.4674691,E,2,63,0.45,14.818,M,15.25,M,90,3335*7E
$GNRMC,113428.600,A,2500.8179532,N,12132.4674691,E,0.03,294.89,260623,,,D,V*02
$GPHDT,,T*1B
$GNACCURACY,3.1*14
$GNGGA,113428.700,2500.8179592,N,12132.4674751,E,2,63,0.45,14.808,M,15.25,M,90,3335*79
$GNRMC,113428.700,A,2500.8179592,N,12132.4674751,E,0.03,294.89,260623,,,D,V*04
$GPHDT,,T*1B
$GNACCURACY,3.1*14
$GNGGA,113428.800,2500.8179712,N,12132.4674751,E,2,63,0.45,14.796,M,15.25,M,90,3335*74
$GNRMC,113428.800,A,2500.8179712,N,12132.4674751,E,0.02,294.89,260623,,,D,V*00
$GPHDT,,T*1B
$GNACCURACY,3.1*14
$GNGGA,113428.900,2500.8179772,N,12132.4674751,E,2,63,0.45,14.782,M,15.25,M,90,3335*76
$GNRMC,113428.900,A,2500.8179772,N,12132.4674751,E,0.02,294.89,260623,,,D,V*07
$GPHDT,,T*1B
$GNACCURACY,3.1*14
$GNGGA,113429.000,2500.8179892,N,12132.4674691,E,2,63,0.45,14.768,M,15.25,M,91,3335*77
$GNRMC,113429.000,A,2500.8179892,N,12132.4674691,E,0.03,294.89,260623,,,D,V*02
$GPHDT,,T*1B
$GNACCURACY,3.1*14
$GNGGA,113429.100,2500.8179952,N,12132.4674631,E,2,62,0.45,14.752,M,15.25,M,91,3335*79
$GNRMC,113429.100,A,2500.8179952,N,12132.4674631,E,0.02,294.89,260623,,,D,V*05
$GPHDT,,T*1B
$GNGSA,A,3,196,24,199,18,23,15,195,194,12,10,05,32,0.71,0.45,0.55,1*04
$GNGSA,A,3,80,73,85,86,71,69,,,,,,,0.71,0.45,0.55,2*03
$GNGSA,A,3,13,08,07,26,30,02,15,,,,,,0.71,0.45,0.55,3*08
$GNGSA,A,3,38,08,39,13,16,06,46,09,19,20,36,35,0.71,0.45,0.55,4*0B
$GNGSA,A,3,29,22,,,,,,,,,,,0.71,0.45,0.55,4*08
$GPGSV,4,1,15,196,75,067,28,24,70,038,26,199,60,167,37,18,57,239,43,1*6B
$GPGSV,4,2,15,23,54,341,37,41,38,242,33,15,35,050,30,195,33,180,34,1*59
$GPGSV,4,3,15,194,32,138,33,12,23,138,18,10,21,320,23,05,17,121,24,1*54
$GPGSV,4,4,15,25,11,174,12,32,11,272,34,13,06,059,14,1*5A
$GPGSV,3,1,09,196,75,067,33,24,70,038,38,199,60,167,46,18,57,239,43,8*6B
$GPGSV,3,2,09,23,54,341,42,195,33,180,29,194,32,138,30,10,21,320,16,8*6A
$GPGSV,3,3,09,32,11,272,26,8*56
$GLGSV,3,1,09,80,48,070,26,73,42,157,36,70,41,016,,85,32,242,26,1*79
$GLGSV,3,2,09,86,28,297,42,71,23,318,29,69,11,078,18,79,08,030,27,1*71
$GLGSV,3,3,09,74,06,186,,1*4B
$GAGSV,2,1,08,13,54,228,35,08,45,029,31,07,44,307,42,26,33,304,39,7*79
$GAGSV,2,2,08,30,28,141,32,02,26,082,16,15,20,174,22,03,09,067,,7*73
$GAGSV,2,1,06,13,54,228,40,08,45,029,30,07,44,307,44,26,33,304,41,1*7B
$GAGSV,2,2,06,30,28,141,27,15,20,174,24,1*79
$GBGSV,4,1,16,38,83,128,42,08,81,001,39,39,70,288,46,13,69,331,42,1*74
$GBGSV,4,2,16,16,66,263,41,06,65,258,36,46,61,105,38,09,50,241,38,1*77
$GBGSV,4,3,16,19,50,349,33,20,42,067,25,36,38,184,35,35,20,265,30,1*74
$GBGSV,4,4,16,37,20,045,26,29,17,209,32,22,13,304,39,07,05,191,,1*71
$GBGSV,2,1,08,38,83,128,47,39,70,288,45,46,61,105,42,19,50,349,42,4*7C
$GBGSV,2,2,08,20,42,067,26,36,38,184,19,29,17,209,33,22,13,304,25,4*75
$GNACCURACY,3.1*14
$PAIRSAT,1,35,1,0,200,2,0,200,3,0,200,4,0,200,5,0,201,6,0,200,7,0,200,8,0,200,9,0,200,10,0,221,11,0,200,12,0,201,13,0,201,14,0,200,15,0,201,16,0,200,17,0,200,18,0,221,19,0,200,20,0,200,21,0,200,23,0,221,24,0,221,25,0,200,26,0,200,27,0,200,28,0,200,29,0,200,30,0,200,31,0,200,32,0,221,194,0,621,195,0,621,196,0,620,199,0,621*68
$PAIRSAT,2,23,65,0,200,67,0,200,68,0,200,69,0,201,70,0,201,71,0,201,72,0,200,73,0,201,74,0,200,75,0,200,76,0,200,77,0,200,78,0,200,79,0,201,80,0,201,81,0,200,82,0,200,83,0,200,84,0,200,85,0,201,86,0,201,87,0,200,88,0,200*53
$PAIRSAT,3,23,2,0,1221,3,0,1221,4,0,1200,5,0,200,7,0,1221,8,0,1221,9,0,1200,10,0,1200,11,0,1200,12,0,1200,13,0,1221,15,0,1221,19,0,1200,21,0,1200,24,0,1200,25,0,1200,26,0,1221,27,0,1200,30,0,1221,31,0,1200,33,0,1200,34,0,1200,36,0,1200*6A
$PAIRSAT,4,50,1,0,200,2,0,200,3,0,200,4,0,200,5,0,200,6,0,201,7,0,200,8,0,201,9,0,201,10,0,200,11,0,200,12,0,200,13,0,201,14,0,200,15,0,200,16,0,201,19,0,621,20,0,621,21,0,600,22,0,621,23,0,600,24,0,600,25,0,600,26,0,600,27,0,600,28,0,600,29,0,621,30,0,600,31,0,200,32,0,600,33,0,600,34,0,600,35,0,621,36,0,621,37,0,621,38,0,621,39,0,621,40,0,600,41,0,600,42,0,600,43,0,600,44,0,600,45,0,600,46,0,621,56,0,200,57,0,200,58,0,200,59,0,600,60,0,600,61,0,600*41
$PAIRDGP,9,5,10,12,15,18,23,24,25,32*5B
$GNGGA,113429.200,2500.8179952,N,12132.4674631,E,2,62,0.45,14.740,M,15.25,M,91,3335*79
$GNRMC,113429.200,A,2500.8179952,N,12132.4674631,E,0.02,294.89,260623,,,D,V*06
$GPHDT,,T*1B
$GNACCURACY,3.0*15
$GNGGA,113429.300,2500.8180012,N,12132.4674631,E,2,62,0.45,14.728,M,15.25,M,91,3335*7D
$GNRMC,113429.300,A,2500.8180012,N,12132.4674631,E,0.02,294.89,260623,,,D,V*0C
$GPHDT,,T*1B
$GNACCURACY,3.0*15
$GNGGA,113429.400,2500.8180072,N,12132.4674511,E,2,63,0.45,14.720,M,15.25,M,91,3335*74
$GNRMC,113429.400,A,2500.8180072,N,12132.4674511,E,0.02,294.89,260623,,,D,V*0C
$GPHDT,,T*1B
$GNACCURACY,3.0*15
$GNGGA,113429.500,2500.8180012,N,12132.4674451,E,2,63,0.45,14.713,M,15.25,M,91,3335*76
$GNRMC,113429.500,A,2500.8180012,N,12132.4674451,E,0.01,294.89,260623,,,D,V*0D
$GPHDT,,T*1B
$GNACCURACY,3.0*15
$GNGGA,113429.600,2500.8180072,N,12132.4674391,E,2,63,0.45,14.706,M,15.25,M,91,3335*7C
$GNRMC,113429.600,A,2500.8180072,N,12132.4674391,E,0.01,294.89,260623,,,D,V*03
$GPHDT,,T*1B
$GNACCURACY,3.0*15
$GNGGA,113429.700,2500.8180072,N,12132.4674451,E,2,63,0.45,14.702,M,15.25,M,91,3335*72
$GNRMC,113429.700,A,2500.8180072,N,12132.4674451,E,0.01,294.89,260623,,,D,V*09
$GPHDT,,T*1B
$GNACCURACY,3.0*15
$GNGGA,113429.800,2500.8180192,N,12132.4674451,E,2,63,0.45,14.695,M,15.25,M,91,3335*7D
$GNRMC,113429.800,A,2500.8180192,N,12132.4674451,E,0.02,294.89,260623,,,D,V*0A
$GPHDT,,T*1B
$GNACCURACY,3.0*15
$GNGGA,113429.900,2500.8180252,N,12132.4674451,E,2,63,0.45,14.689,M,15.25,M,91,3335*7E
$GNRMC,113429.900,A,2500.8180252,N,12132.4674451,E,0.01,294.89,260623,,,D,V*07
$GPHDT,,T*1B
$GNACCURACY,3.0*15
$GNGGA,113430.000,2500.8180312,N,12132.4674571,E,2,63,0.45,14.679,M,15.25,M,92,3335*75
$GNRMC,113430.000,A,2500.8180312,N,12132.4674571,E,0.01,294.89,260623,,,D,V*00
$GPHDT,,T*1B
$GNACCURACY,2.9*1D
$GNGGA,113430.100,2500.8180372,N,12132.4674571,E,2,63,0.45,14.671,M,15.25,M,92,3335*7A
$GNRMC,113430.100,A,2500.8180372,N,12132.4674571,E,0.02,294.89,260623,,,D,V*04
$GPHDT,,T*1B
$GNGSA,A,3,196,24,199,18,23,15,195,194,12,10,05,32,0.71,0.45,0.55,1*04
$GNGSA,A,3,80,73,85,86,71,69,,,,,,,0.71,0.45,0.55,2*03
$GNGSA,A,3,13,08,07,26,30,02,15,,,,,,0.71,0.45,0.55,3*08
$GNGSA,A,3,38,08,39,13,16,06,46,09,19,20,36,35,0.71,0.45,0.55,4*0B
$GNGSA,A,3,29,22,,,,,,,,,,,0.71,0.45,0.55,4*08
$GPGSV,4,1,15,196,75,067,26,24,70,038,25,199,60,167,37,18,57,239,44,1*61
$GPGSV,4,2,15,23,54,341,34,41,38,242,32,15,35,050,30,195,33,180,34,1*5B
$GPGSV,4,3,15,194,32,138,31,12,23,138,15,10,21,320,22,05,17,121,24,1*5A
$GPGSV,4,4,15,25,11,174,15,32,11,272,36,13,06,059,16,1*5D
$GPGSV,3,1,09,196,75,067,33,24,70,038,38,199,60,167,46,18,57,239,46,8*6E
$GPGSV,3,2,09,23,54,341,42,195,33,180,28,194,32,138,30,10,21,320,17,8*6A
$GPGSV,3,3,09,32,11,272,29,8*59
$GLGSV,2,1,08,80,48,070,24,73,42,157,37,70,41,016,,85,32,242,28,1*74
$GLGSV,2,2,08,86,28,297,42,71,23,318,23,69,11,078,18,79,08,030,25,1*79
$GAGSV,3,1,09,13,54,228,40,08,45,029,31,07,44,307,42,26,33,304,39,7*7B
$GAGSV,3,2,09,30,28,141,33,02,26,082,16,15,20,174,23,03,09,067,,7*73
$GAGSV,3,3,09,27,03,187,,7*42
$GAGSV,2,1,06,13,54,228,45,08,45,029,30,07,44,307,42,26,33,304,41,1*78
$GAGSV,2,2,06,30,28,141,28,15,20,174,24,1*76
$GBGSV,4,1,15,38,83,128,42,08,81,001,39,39,70,288,46,13,69,331,41,1*74
$GBGSV,4,2,15,16,66,263,42,06,65,258,39,46,61,104,38,09,50,241,39,1*78
$GBGSV,4,3,15,19,50,349,35,20,42,067,25,36,38,184,36,35,20,265,29,1*7A
$GBGSV,4,4,15,37,20,045,25,29,17,209,34,22,13,304,38,1*4D
$GBGSV,3,1,09,38,83,128,47,39,70,288,45,46,61,104,42,19,50,349,42,4*7D
$GBGSV,3,2,09,20,42,067,26,36,38,184,20,35,20,265,27,29,17,209,33,4*7D
$GBGSV,3,3,09,22,13,304,27,4*4A
$GNACCURACY,2.9*1D
$PAIRSAT,1,35,1,0,200,2,0,200,3,0,200,4,0,200,5,0,201,6,0,200,7,0,200,8,0,200,9,0,200,10,0,221,11,0,200,12,0,201,13,0,201,14,0,200,15,0,201,16,0,200,17,0,200,18,0,221,19,0,200,20,0,200,21,0,200,23,0,221,24,0,221,25,0,200,26,0,200,27,0,200,28,0,200,29,0,200,30,0,200,31,0,200,32,0,221,194,0,621,195,0,621,196,0,620,199,0,621*68
$PAIRSAT,2,23,65,0,200,67,0,200,68,0,200,69,0,201,70,0,201,71,0,201,72,0,200,73,0,201,74,0,200,75,0,200,76,0,200,77,0,200,78,0,200,79,0,201,80,0,201,81,0,200,82,0,200,83,0,200,84,0,200,85,0,201,86,0,201,87,0,200,88,0,200*53
$PAIRSAT,3,23,2,0,1221,3,0,1221,4,0,1200,5,0,200,7,0,1221,8,0,1221,9,0,1200,10,0,1200,11,0,1200,12,0,1200,13,0,1221,15,0,1221,19,0,1200,21,0,1200,24,0,1200,25,0,1200,26,0,1221,27,0,1200,30,0,1221,31,0,1200,33,0,1200,34,0,1200,36,0,1200*6A
$PAIRSAT,4,50,1,0,200,2,0,200,3,0,200,4,0,200,5,0,200,6,0,201,7,0,200,8,0,201,9,0,201,10,0,200,11,0,200,12,0,200,13,0,201,14,0,200,15,0,200,16,0,201,19,0,621,20,0,621,21,0,600,22,0,621,23,0,600,24,0,600,25,0,600,26,0,600,27,0,600,28,0,600,29,0,621,30,0,600,31,0,200,32,0,600,33,0,600,34,0,600,35,0,621,36,0,621,37,0,621,38,0,621,39,0,621,40,0,600,41,0,600,42,0,600,43,0,600,44,0,600,45,0,600,46,0,621,56,0,200,57,0,200,58,0,200,59,0,600,60,0,600,61,0,600*41
$PAIRDGP,9,5,10,12,15,18,23,24,25,32*5B
$GNGGA,113430.200,2500.8180492,N,12132.4674631,E,2,63,0.45,14.667,M,15.25,M,92,3335*70
$GNRMC,113430.200,A,2500.8180492,N,12132.4674631,E,0.03,294.89,260623,,,D,V*08
$GPHDT,,T*1B
$GNACCURACY,2.9*1D
$GNGGA,113430.300,2500.8180612,N,12132.4674631,E,2,63,0.45,14.661,M,15.25,M,92,3335*7D
$GNRMC,113430.300,A,2500.8180612,N,12132.4674631,E,0.03,294.89,260623,,,D,V*03
$GPHDT,,T*1B
$GNACCURACY,2.9*1D
$GNGGA,113430.400,2500.8180612,N,12132.4674631,E,2,64,0.43,14.655,M,15.25,M,92,3335*7C
$GNRMC,113430.400,A,2500.8180612,N,12132.4674631,E,0.04,294.89,260623,,,D,V*03
$GPHDT,,T*1B
$GNACCURACY,2.9*1D
$GNGGA,113430.500,2500.8180672,N,12132.4674571,E,2,64,0.43,14.651,M,15.25,M,92,3335*78
$GNRMC,113430.500,A,2500.8180672,N,12132.4674571,E,0.04,294.89,260623,,,D,V*03
$GPHDT,,T*1B
$GNACCURACY,2.9*1D
$GNGGA,113430.600,2500.8180732,N,12132.4674571,E,2,64,0.43,14.643,M,15.25,M,92,3335*7D
$GNRMC,113430.600,A,2500.8180732,N,12132.4674571,E,0.04,294.89,260623,,,D,V*05
$GPHDT,,T*1B
$GNACCURACY,2.9*1D
$GNGGA,113430.700,2500.8180792,N,12132.4674511,E,2,64,0.43,14.640,M,15.25,M,92,3335*73
$GNRMC,113430.700,A,2500.8180792,N,12132.4674511,E,0.05,294.89,260623,,,D,V*09
$GPHDT,,T*1B
$GNACCURACY,2.9*1D
$GNGGA,113430.800,2500.8180852,N,12132.4674451,E,2,64,0.43,14.633,M,15.25,M,92,3335*7E
$GNRMC,113430.800,A,2500.8180852,N,12132.4674451,E,0.06,294.89,260623,,,D,V*03
$GPHDT,,T*1B
$GNACCURACY,2.9*1D
$GNGGA,113430.900,2500.8180852,N,12132.4674391,E,2,64,0.43,14.623,M,15.25,M,92,3335*75
$GNRMC,113430.900,A,2500.8180852,N,12132.4674391,E,0.05,294.89,260623,,,D,V*0A
$GPHDT,,T*1B
$GNACCURACY,2.9*1D
$GNGGA,113431.000,2500.8180912,N,12132.4674451,E,2,64,0.43,14.609,M,15.25,M,93,3335*7A
$GNRMC,113431.000,A,2500.8180912,N,12132.4674451,E,0.05,294.89,260623,,,D,V*0C
$GPHDT,,T*1B
$GNACCURACY,2.9*1D
$GNGGA,113431.100,2500.8181032,N,12132.4674391,E,2,64,0.43,14.595,M,15.25,M,93,3335*7C
$GNRMC,113431.100,A,2500.8181032,N,12132.4674391,E,0.05,294.89,260623,,,D,V*0C
$GPHDT,,T*1B
$GNGSA,A,3,196,24,199,18,23,15,195,194,12,10,05,32,0.71,0.45,0.55,1*04
$GNGSA,A,3,80,73,85,86,71,69,,,,,,,0.71,0.45,0.55,2*03
$GNGSA,A,3,13,08,07,26,30,02,15,,,,,,0.71,0.45,0.55,3*08
$GNGSA,A,3,38,08,39,13,16,06,46,09,19,20,36,35,0.71,0.45,0.55,4*0B
$GNGSA,A,3,29,22,,,,,,,,,,,0.71,0.45,0.55,4*08
$GPGSV,4,1,15,196,75,067,27,24,70,038,29,199,60,167,37,18,57,239,45,1*6D
$GPGSV,4,2,15,23,54,341,33,41,38,242,37,15,35,050,29,195,33,180,33,1*56
$GPGSV,4,3,15,194,32,138,33,12,23,138,16,10,21,320,29,05,17,121,24,1*50
$GPGSV,4,4,15,25,11,174,17,32,11,272,32,13,06,059,16,1*5B
$GPGSV,3,1,09,196,75,067,32,24,70,038,38,199,60,167,46,18,57,239,47,8*6E
$GPGSV,3,2,09,23,54,341,42,195,33,180,29,194,32,138,30,10,21,320,16,8*6A
$GPGSV,3,3,09,32,11,272,23,8*53
$GLGSV,2,1,08,80,48,070,21,73,42,157,36,70,41,016,,85,32,242,31,1*78
$GLGSV,2,2,08,86,28,297,44,71,23,318,28,69,11,078,21,79,08,030,28,1*73
$GAGSV,3,1,09,13,54,228,40,08,45,029,31,07,44,307,42,26,33,304,39,7*7B
$GAGSV,3,2,09,30,28,141,34,02,26,082,15,15,20,174,21,03,09,067,,7*75
$GAGSV,3,3,09,27,03,187,,7*42
$GAGSV,2,1,06,13,54,228,44,08,45,029,30,07,44,307,41,26,33,304,41,1*7A
$GAGSV,2,2,06,30,28,141,28,15,20,174,22,1*70
$GBGSV,4,1,15,38,83,128,43,08,81,001,39,39,70,288,45,13,69,331,42,1*75
$GBGSV,4,2,15,16,66,263,42,06,65,258,40,46,61,104,37,09,50,241,41,1*76
$GBGSV,4,3,15,19,50,349,36,20,42,067,22,36,38,184,35,35,20,265,29,1*7D
$GBGSV,4,4,15,37,20,045,27,29,17,209,34,22,13,304,39,1*4E
$GBGSV,3,1,09,38,83,128,47,39,70,288,45,46,61,104,42,19,50,349,42,4*7D
$GBGSV,3,2,09,20,42,067,26,36,38,184,21,35,20,265,27,29,17,209,33,4*7C
$GBGSV,3,3,09,22,13,304,22,4*4F
$GNACCURACY,2.9*1D
$PAIRSAT,1,35,1,0,200,2,0,200,3,0,200,4,0,200,5,0,201,6,0,200,7,0,200,8,0,200,9,0,200,10,0,221,11,0,200,12,0,201,13,0,201,14,0,200,15,0,201,16,0,200,17,0,200,18,0,221,19,0,200,20,0,200,21,0,200,23,0,221,24,0,221,25,0,200,26,0,200,27,0,200,28,0,200,29,0,200,30,0,200,31,0,200,32,0,221,194,0,621,195,0,621,196,0,620,199,0,621*68
$PAIRSAT,2,23,65,0,200,67,0,200,68,0,200,69,0,201,70,0,201,71,0,201,72,0,200,73,0,201,74,0,200,75,0,200,76,0,200,77,0,200,78,0,200,79,0,201,80,0,201,81,0,200,82,0,200,83,0,200,84,0,200,85,0,201,86,0,201,87,0,200,88,0,200*53
$PAIRSAT,3,23,2,0,1221,3,0,1221,4,0,1200,5,0,200,7,0,1221,8,0,1221,9,0,1200,10,0,1200,11,0,1200,12,0,1200,13,0,1221,15,0,1221,19,0,1200,21,0,1200,24,0,1200,25,0,1200,26,0,1221,27,0,1200,30,0,1221,31,0,1200,33,0,1200,34,0,1200,36,0,1200*6A
$PAIRSAT,4,50,1,0,200,2,0,200,3,0,200,4,0,200,5,0,200,6,0,201,7,0,200,8,0,201,9,0,201,10,0,200,11,0,200,12,0,200,13,0,201,14,0,200,15,0,200,16,0,201,19,0,621,20,0,621,21,0,600,22,0,621,23,0,600,24,0,600,25,0,600,26,0,600,27,0,600,28,0,600,29,0,621,30,0,600,31,0,200,32,0,600,33,0,600,34,0,600,35,0,621,36,0,621,37,0,621,38,0,621,39,0,621,40,0,600,41,0,600,42,0,600,43,0,600,44,0,600,45,0,600,46,0,621,56,0,200,57,0,200,58,0,200,59,0,600,60,0,600,61,0,600*41
$PAIRDGP,9,5,10,12,15,18,23,24,25,32*5B
$GNGGA,113431.200,2500.8181092,N,12132.4674391,E,2,63,0.45,14.582,M,15.25,M,93,3335*72
$GNRMC,113431.200,A,2500.8181092,N,12132.4674391,E,0.05,294.89,260623,,,D,V*05
$GPHDT,,T*1B
$GNACCURACY,2.9*1D
$GNGGA,113431.300,2500.8181152,N,12132.4674391,E,2,63,0.45,14.568,M,15.25,M,93,3335*7A
$GNRMC,113431.300,A,2500.8181152,N,12132.4674391,E,0.04,294.89,260623,,,D,V*08
$GPHDT,,T*1B
$GNACCURACY,2.9*1D
$GNGGA,113431.400,2500.8181272,N,12132.4674451,E,2,63,0.45,14.555,M,15.25,M,93,3335*79
$GNRMC,113431.400,A,2500.8181272,N,12132.4674451,E,0.04,294.89,260623,,,D,V*05
$GPHDT,,T*1B
$GNACCURACY,2.9*1D
$GNGGA,113431.500,2500.8181332,N,12132.4674451,E,2,63,0.45,14.542,M,15.25,M,93,3335*7B
$GNRMC,113431.500,A,2500.8181332,N,12132.4674451,E,0.05,294.89,260623,,,D,V*00
$GPHDT,,T*1B
$GNACCURACY,2.9*1D
$GNGGA,113431.600,2500.8181392,N,12132.4674451,E,2,63,0.45,14.530,M,15.25,M,93,3335*77
$GNRMC,113431.600,A,2500.8181392,N,12132.4674451,E,0.04,294.89,260623,,,D,V*08
$GPHDT,,T*1B
$GNACCURACY,2.9*1D
$GNGGA,113431.700,2500.8181452,N,12132.4674451,E,2,63,0.45,14.518,M,15.25,M,93,3335*77
$GNRMC,113431.700,A,2500.8181452,N,12132.4674451,E,0.04,294.89,260623,,,D,V*02
$GPHDT,,T*1B
$GNACCURACY,2.9*1D
$GNGGA,113431.800,2500.8181512,N,12132.4674391,E,2,63,0.45,14.507,M,15.25,M,93,3335*78
$GNRMC,113431.800,A,2500.8181512,N,12132.4674391,E,0.05,294.89,260623,,,D,V*02
$GPHDT,,T*1B
$GNACCURACY,2.9*1D
$GNGGA,113431.900,2500.8181632,N,12132.4674451,E,2,63,0.45,14.503,M,15.25,M,93,3335*77
$GNRMC,113431.900,A,2500.8181632,N,12132.4674451,E,0.05,294.89,260623,,,D,V*09
$GPHDT,,T*1B
$GNACCURACY,2.9*1D
$GNGGA,113432.000,2500.8181692,N,12132.4674451,E,2,64,0.43,14.492,M,15.25,M,94,3335*78
$GNRMC,113432.000,A,2500.8181692,N,12132.4674451,E,0.04,294.89,260623,,,D,V*08
$GPHDT,,T*1B
$GNACCURACY,2.9*1D
$GNGGA,113432.100,2500.8181692,N,12132.4674451,E,2,64,0.43,14.486,M,15.25,M,94,3335*7C
$GNRMC,113432.100,A,2500.8181692,N,12132.4674451,E,0.03,294.89,260623,,,D,V*0E
$GPHDT,,T*1B
$GNGSA,A,3,196,24,199,18,23,15,195,194,12,10,05,32,0.69,0.43,0.54,1*0A
$GNGSA,A,3,80,73,85,86,71,69,,,,,,,0.69,0.43,0.54,2*0D
$GNGSA,A,3,13,08,07,26,30,02,15,,,,,,0.69,0.43,0.54,3*06
$GNGSA,A,3,38,08,39,13,16,06,46,09,19,20,36,35,0.69,0.43,0.54,4*05
$GNGSA,A,3,37,29,22,,,,,,,,,,0.69,0.43,0.54,4*02
$GPGSV,4,1,15,196,75,067,29,24,70,038,25,199,60,167,37,18,57,239,45,1*6F
$GPGSV,4,2,15,23,54,341,34,41,38,242,37,15,35,050,27,195,33,180,33,1*5F
$GPGSV,4,3,15,194,32,138,31,12,23,138,16,10,21,320,25,05,17,121,26,1*5C
$GPGSV,4,4,15,25,11,174,17,32,11,272,36,13,06,059,14,1*5D
$GPGSV,3,1,09,196,75,067,32,24,70,038,38,199,60,167,47,18,57,239,48,8*60
$GPGSV,3,2,09,23,54,341,42,195,33,180,29,194,32,138,30,10,21,320,17,8*6B
$GPGSV,3,3,09,32,11,272,29,8*59
$GLGSV,2,1,08,80,48,070,20,73,42,157,36,70,41,016,,85,32,242,31,1*79
$GLGSV,2,2,08,86,28,297,40,71,23,318,32,69,11,078,22,79,08,030,26,1*71
$GAGSV,3,1,09,13,54,228,40,08,45,029,31,07,44,307,42,26,33,304,38,7*7A
$GAGSV,3,2,09,30,28,141,34,02,26,082,17,15,20,174,21,03,09,067,,7*77
$GAGSV,3,3,09,27,03,187,,7*42
$GAGSV,2,1,06,13,54,228,44,08,45,029,30,07,44,307,43,26,33,304,38,1*76
$GAGSV,2,2,06,30,28,141,27,15,20,174,23,1*7E
$GBGSV,4,1,15,38,83,128,43,08,81,001,39,39,70,288,46,13,69,331,41,1*75
$GBGSV,4,2,15,16,66,263,42,06,65,258,39,46,61,104,37,09,50,241,42,1*7B
$GBGSV,4,3,15,19,50,349,26,20,42,067,22,36,38,184,34,35,20,265,30,1*75
$GBGSV,4,4,15,37,20,045,29,29,17,209,34,22,13,304,39,1*40
$GBGSV,3,1,09,38,83,128,47,39,70,288,46,46,61,104,42,19,50,349,39,4*72
$GBGSV,3,2,09,20,42,067,25,36,38,184,19,35,20,265,28,29,17,209,33,4*7B
$GBGSV,3,3,09,22,13,304,27,4*4A
$GNACCURACY,2.9*1D
$PAIRSAT,1,35,1,0,200,2,0,200,3,0,200,4,0,200,5,0,201,6,0,200,7,0,200,8,0,200,9,0,200,10,0,221,11,0,200,12,0,201,13,0,201,14,0,200,15,0,201,16,0,200,17,0,200,18,0,221,19,0,200,20,0,200,21,0,200,23,0,221,24,0,221,25,0,200,26,0,200,27,0,200,28,0,200,29,0,200,30,0,200,31,0,200,32,0,221,194,0,621,195,0,621,196,0,620,199,0,621*68
$PAIRSAT,2,23,65,0,200,67,0,200,68,0,200,69,0,201,70,0,201,71,0,201,72,0,200,73,0,201,74,0,200,75,0,200,76,0,200,77,0,200,78,0,200,79,0,201,80,0,201,81,0,200,82,0,200,83,0,200,84,0,200,85,0,201,86,0,201,87,0,200,88,0,200*53
$PAIRSAT,3,23,2,0,1221,3,0,1221,4,0,1200,5,0,200,7,0,1221,8,0,1221,9,0,1200,10,0,1200,11,0,1200,12,0,1200,13,0,1221,15,0,1221,19,0,1200,21,0,1200,24,0,1200,25,0,1200,26,0,1221,27,0,1200,30,0,1221,31,0,1200,33,0,1200,34,0,1200,36,0,1200*6A
$PAIRSAT,4,50,1,0,200,2,0,200,3,0,200,4,0,200,5,0,200,6,0,201,7,0,200,8,0,201,9,0,201,10,0,200,11,0,200,12,0,200,13,0,201,14,0,200,15,0,200,16,0,201,19,0,621,20,0,621,21,0,600,22,0,621,23,0,600,24,0,600,25,0,600,26,0,600,27,0,600,28,0,600,29,0,621,30,0,600,31,0,200,32,0,600,33,0,600,34,0,600,35,0,621,36,0,621,37,0,621,38,0,621,39,0,621,40,0,600,41,0,600,42,0,600,43,0,600,44,0,600,45,0,600,46,0,621,56,0,200,57,0,200,58,0,200,59,0,600,60,0,600,61,0,600*41
$PAIRDGP,9,5,10,12,15,18,23,24,25,32*5B
$GNGGA,113432.200,2500.8181752,N,12132.4674511,E,2,64,0.43,14.478,M,15.25,M,94,3335*76
$GNRMC,113432.200,A,2500.8181752,N,12132.4674511,E,0.03,294.89,260623,,,D,V*05
$GPHDT,,T*1B
$GNACCURACY,2.9*1D
$GNGGA,113432.300,2500.8181752,N,12132.4674571,E,2,64,0.43,14.469,M,15.25,M,94,3335*71
$GNRMC,113432.300,A,2500.8181752,N,12132.4674571,E,0.02,294.89,260623,,,D,V*03
$GPHDT,,T*1B
$GNACCURACY,2.9*1D
$GNGGA,113432.400,2500.8181812,N,12132.4674631,E,2,64,0.43,14.460,M,15.25,M,94,3335*73
$GNRMC,113432.400,A,2500.8181812,N,12132.4674631,E,0.02,294.89,260623,,,D,V*08
$GPHDT,,T*1B
$GNACCURACY,3.0*15
$GNGGA,113432.500,2500.8181812,N,12132.4674631,E,2,64,0.43,14.454,M,15.25,M,94,3335*75
$GNRMC,113432.500,A,2500.8181812,N,12132.4674631,E,0.02,294.89,260623,,,D,V*09
$GPHDT,,T*1B
$GNACCURACY,3.0*15
$GNGGA,113432.600,2500.8181872,N,12132.4674691,E,2,64,0.43,14.448,M,15.25,M,94,3335*77
$GNRMC,113432.600,A,2500.8181872,N,12132.4674691,E,0.03,294.89,260623,,,D,V*07
$GPHDT,,T*1B
$GNACCURACY,2.9*1D
$GNGGA,113432.700,2500.8181872,N,12132.4674751,E,2,64,0.43,14.442,M,15.25,M,94,3335*71
$GNRMC,113432.700,A,2500.8181872,N,12132.4674751,E,0.04,294.89,260623,,,D,V*0C
$GPHDT,,T*1B
$GNACCURACY,3.0*15
$GNGGA,113432.800,2500.8181932,N,12132.4674811,E,2,64,0.43,14.436,M,15.25,M,94,3335*73
$GNRMC,113432.800,A,2500.8181932,N,12132.4674811,E,0.03,294.89,260623,,,D,V*0A
$GPHDT,,T*1B
$GNACCURACY,3.0*15
$GNGGA,113432.900,2500.8181932,N,12132.4674871,E,2,63,0.43,14.431,M,15.25,M,94,3335*74
$GNRMC,113432.900,A,2500.8181932,N,12132.4674871,E,0.04,294.89,260623,,,D,V*0A
$GPHDT,,T*1B
$GNACCURACY,3.0*15
$GNGGA,113433.000,2500.8181992,N,12132.4674871,E,2,63,0.43,14.424,M,15.25,M,95,3335*73
$GNRMC,113433.000,A,2500.8181992,N,12132.4674871,E,0.03,294.89,260623,,,D,V*0F
$GPHDT,,T*1B
$GNACCURACY,3.0*15
$GNGGA,113433.100,2500.8182052,N,12132.4674871,E,2,63,0.43,14.415,M,15.25,M,95,3335*76
$GNRMC,113433.100,A,2500.8182052,N,12132.4674871,E,0.04,294.89,260623,,,D,V*0F
$GPHDT,,T*1B
$GNGSA,A,3,196,24,199,18,23,15,195,194,12,05,32,10,0.69,0.43,0.54,1*0A
$GNGSA,A,3,80,73,85,86,71,69,,,,,,,0.69,0.43,0.54,2*0D
$GNGSA,A,3,13,08,07,26,30,02,15,,,,,,0.69,0.43,0.54,3*06
$GNGSA,A,3,38,08,39,13,16,06,46,09,19,20,36,35,0.69,0.43,0.54,4*05
$GNGSA,A,3,37,29,22,,,,,,,,,,0.69,0.43,0.54,4*02
$GPGSV,4,1,15,196,75,067,25,24,70,038,24,199,60,167,38,18,57,239,45,1*6D
$GPGSV,4,2,15,23,54,341,32,41,38,242,36,15,35,051,28,195,33,180,33,1*56
$GPGSV,4,3,15,194,32,138,33,12,23,138,15,10,21,320,21,05,17,121,26,1*59
$GPGSV,4,4,15,25,11,174,16,32,11,272,34,13,06,059,16,1*5C
$GPGSV,3,1,09,196,75,067,32,24,70,038,38,199,60,167,46,18,57,239,48,8*61
$GPGSV,3,2,09,23,54,341,42,195,33,180,31,194,32,138,29,10,21,320,18,8*65
$GPGSV,3,3,09,32,11,272,28,8*58
$GLGSV,2,1,08,80,48,070,20,73,42,157,36,70,41,016,,85,32,242,30,1*78
$GLGSV,2,2,08,86,28,297,42,71,23,318,25,69,11,078,21,79,08,030,24,1*74
$GAGSV,3,1,09,13,54,228,41,08,45,029,29,07,44,307,39,26,33,304,36,7*70
$GAGSV,3,2,09,30,28,141,33,02,26,082,16,15,20,174,22,03,09,067,,7*72
$GAGSV,3,3,09,27,03,187,,7*42
$GAGSV,2,1,06,13,54,228,44,08,45,029,29,07,44,307,38,26,33,304,38,1*72
$GAGSV,2,2,06,30,28,141,27,15,20,174,24,1*79
$GBGSV,4,1,15,38,83,128,43,08,81,001,39,39,70,288,46,13,69,331,39,1*7A
$GBGSV,4,2,15,16,66,263,42,06,65,258,37,46,61,104,37,09,50,241,42,1*75
$GBGSV,4,3,15,19,50,349,27,20,42,067,23,36,38,184,34,35,20,265,33,1*76
$GBGSV,4,4,15,37,20,045,28,29,17,209,35,22,13,304,35,1*4C
$GBGSV,3,1,09,38,83,128,47,39,70,288,45,46,61,104,42,19,50,349,38,4*70
$GBGSV,3,2,09,20,42,067,26,36,38,184,19,35,20,265,27,29,17,209,34,4*70
$GBGSV,3,3,09,22,13,304,21,4*4C
$GNACCURACY,3.0*15
$PAIRSAT,1,35,1,0,200,2,0,200,3,0,200,4,0,200,5,0,201,6,0,200,7,0,200,8,0,200,9,0,200,10,0,221,11,0,200,12,0,201,13,0,201,14,0,200,15,0,201,16,0,200,17,0,200,18,0,221,19,0,200,20,0,200,21,0,200,23,0,221,24,0,221,25,0,200,26,0,200,27,0,200,28,0,200,29,0,200,30,0,200,31,0,200,32,0,221,194,0,621,195,0,621,196,0,620,199,0,621*68
$PAIRSAT,2,23,65,0,200,67,0,200,68,0,200,69,0,201,70,0,201,71,0,201,72,0,200,73,0,201,74,0,200,75,0,200,76,0,200,77,0,200,78,0,200,79,0,201,80,0,201,81,0,200,82,0,200,83,0,200,84,0,200,85,0,201,86,0,201,87,0,200,88,0,200*53
$PAIRSAT,3,23,2,0,1221,3,0,1221,4,0,1200,5,0,200,7,0,1221,8,0,1221,9,0,1200,10,0,1200,11,0,1200,12,0,1200,13,0,1221,15,0,1221,19,0,1200,21,0,1200,24,0,1200,25,0,1200,26,0,1221,27,0,1200,30,0,1221,31,0,1200,33,0,1200,34,0,1200,36,0,1200*6A
$PAIRSAT,4,50,1,0,200,2,0,200,3,0,200,4,0,200,5,0,200,6,0,201,7,0,200,8,0,201,9,0,201,10,0,200,11,0,200,12,0,200,13,0,201,14,0,200,15,0,200,16,0,201,19,0,621,20,0,621,21,0,600,22,0,621,23,0,600,24,0,600,25,0,600,26,0,600,27,0,600,28,0,600,29,0,621,30,0,600,31,0,200,32,0,600,33,0,600,34,0,600,35,0,621,36,0,621,37,0,621,38,0,621,39,0,621,40,0,600,41,0,600,42,0,600,43,0,600,44,0,600,45,0,600,46,0,621,56,0,200,57,0,200,58,0,200,59,0,600,60,0,600,61,0,600*41
$PAIRDGP,9,5,10,12,15,18,23,24,25,32*5B
$GNGGA,113433.200,2500.8182112,N,12132.4674871,E,2,63,0.43,14.407,M,15.25,M,95,3335*73
$GNRMC,113433.200,A,2500.8182112,N,12132.4674871,E,0.03,294.89,260623,,,D,V*0E
$GPHDT,,T*1B
$GNACCURACY,3.0*15
$GNGGA,113433.300,2500.8182172,N,12132.4674871,E,2,63,0.43,14.402,M,15.25,M,95,3335*71
$GNRMC,113433.300,A,2500.8182172,N,12132.4674871,E,0.03,294.89,260623,,,D,V*09
$GPHDT,,T*1B
$GNACCURACY,3.0*15
$GNGGA,113433.400,2500.8182172,N,12132.4674871,E,2,63,0.43,14.395,M,15.25,M,95,3335*7F
$GNRMC,113433.400,A,2500.8182172,N,12132.4674871,E,0.02,294.89,260623,,,D,V*0F
$GPHDT,,T*1B
$GNACCURACY,3.0*15
$GNGGA,113433.500,2500.8182232,N,12132.4674931,E,2,62,0.45,14.385,M,15.25,M,95,3335*7A
$GNRMC,113433.500,A,2500.8182232,N,12132.4674931,E,0.02,294.89,260623,,,D,V*0C
$GPHDT,,T*1B
$GNACCURACY,3.0*15
$GNGGA,113433.600,2500.8182232,N,12132.4674991,E,2,62,0.46,14.374,M,15.25,M,95,3335*7E
$GNRMC,113433.600,A,2500.8182232,N,12132.4674991,E,0.01,294.89,260623,,,D,V*06
$GPHDT,,T*1B
$GNACCURACY,3.0*15
$GNGGA,113433.700,2500.8182292,N,12132.4675051,E,2,62,0.46,14.363,M,15.25,M,95,3335*77
$GNRMC,113433.700,A,2500.8182292,N,12132.4675051,E,0.01,294.89,260623,,,D,V*09
$GPHDT,,T*1B
$GNACCURACY,3.0*15
$GNGGA,113433.800,2500.8182352,N,12132.4675111,E,2,63,0.45,14.353,M,15.25,M,95,3335*71
$GNRMC,113433.800,A,2500.8182352,N,12132.4675111,E,0.01,294.89,260623,,,D,V*0E
$GPHDT,,T*1B
$GNACCURACY,3.0*15
$GNGGA,113433.900,2500.8182352,N,12132.4675111,E,2,63,0.45,14.344,M,15.25,M,95,3335*76
$GNRMC,113433.900,A,2500.8182352,N,12132.4675111,E,0.01,294.89,260623,,,D,V*0F
$GPHDT,,T*1B
$GNACCURACY,3.0*15
$GNGGA,113434.000,2500.8182412,N,12132.4675171,E,2,63,0.45,14.336,M,15.25,M,96,3335*7B
$GNRMC,113434.000,A,2500.8182412,N,12132.4675171,E,0.01,294.89,260623,,,D,V*04
$GPHDT,,T*1B
$GNACCURACY,3.0*15
$GNGGA,113434.100,2500.8182412,N,12132.4675291,E,2,64,0.43,14.327,M,15.25,M,96,3335*76
$GNRMC,113434.100,A,2500.8182412,N,12132.4675291,E,0.01,294.89,260623,,,D,V*08
$GPHDT,,T*1B
$GNGSA,A,3,196,24,199,18,23,15,195,194,12,10,05,32,0.69,0.43,0.54,1*0A
$GNGSA,A,3,80,73,85,86,71,69,,,,,,,0.69,0.43,0.54,2*0D
$GNGSA,A,3,13,08,07,26,30,02,15,,,,,,0.69,0.43,0.54,3*06
$GNGSA,A,3,38,08,39,13,16,06,46,09,19,20,36,35,0.69,0.43,0.54,4*05
$GNGSA,A,3,37,29,22,,,,,,,,,,0.69,0.43,0.54,4*02
$GPGSV,4,1,15,196,75,067,27,24,70,038,24,199,60,167,37,18,57,239,45,1*60
$GPGSV,4,2,15,23,54,341,35,41,38,242,36,15,35,051,27,195,33,180,33,1*5E
$GPGSV,4,3,15,194,32,138,32,12,23,138,15,10,21,320,24,05,17,121,25,1*5E
$GPGSV,4,4,15,25,11,174,16,32,11,272,34,13,06,059,16,1*5C
$GPGSV,3,1,09,196,75,067,32,24,70,038,38,199,60,167,46,18,57,239,48,8*61
$GPGSV,3,2,09,23,54,341,41,195,33,180,30,194,32,138,29,10,21,320,16,8*69
$GPGSV,3,3,09,32,11,272,28,8*58
$GLGSV,3,1,09,80,48,070,20,73,42,157,36,70,41,016,,85,32,242,31,1*79
$GLGSV,3,2,09,86,28,297,43,71,23,318,25,69,11,078,21,79,08,030,25,1*74
$GLGSV,3,3,09,84,05,188,,1*49
$GAGSV,2,1,08,13,54,228,41,08,45,029,29,07,44,307,42,26,33,304,39,7*73
$GAGSV,2,2,08,30,28,141,34,02,26,082,15,15,20,174,23,03,09,067,,7*77
$GAGSV,2,1,06,13,54,228,44,08,45,029,29,07,44,307,41,26,33,304,40,1*73
$GAGSV,2,2,06,30,28,141,27,15,20,174,23,1*7E
$GBGSV,4,1,16,38,83,128,42,08,81,001,40,39,70,288,46,13,69,331,39,1*76
$GBGSV,4,2,16,16,66,263,41,06,65,258,38,46,61,104,36,09,50,241,42,1*7B
$GBGSV,4,3,16,19,50,349,27,20,42,067,21,36,38,184,34,35,20,265,32,1*76
$GBGSV,4,4,16,37,20,045,28,29,17,209,35,22,13,304,38,44,03,309,,1*7B
$GBGSV,3,1,09,38,83,128,46,39,70,288,45,46,61,104,42,19,50,349,39,4*70
$GBGSV,3,2,09,20,42,067,26,36,38,184,18,35,20,265,24,29,17,209,34,4*72
$GBGSV,3,3,09,22,13,304,23,4*4E
$GNACCURACY,3.0*15
$PAIRSAT,1,35,1,0,200,2,0,200,3,0,200,4,0,200,5,0,201,6,0,200,7,0,200,8,0,200,9,0,200,10,0,221,11,0,200,12,0,201,13,0,201,14,0,200,15,0,201,16,0,200,17,0,200,18,0,221,19,0,200,20,0,200,21,0,200,23,0,221,24,0,221,25,0,200,26,0,200,27,0,200,28,0,200,29,0,200,30,0,200,31,0,200,32,0,221,194,0,621,195,0,621,196,0,620,199,0,621*68
$PAIRSAT,2,23,65,0,200,67,0,200,68,0,200,69,0,201,70,0,201,71,0,201,72,0,200,73,0,201,74,0,200,75,0,200,76,0,200,77,0,200,78,0,200,79,0,201,80,0,201,81,0,200,82,0,200,83,0,200,84,0,200,85,0,201,86,0,201,87,0,200,88,0,200*53
$PAIRSAT,3,23,2,0,1221,3,0,1221,4,0,1200,5,0,200,7,0,1221,8,0,1221,9,0,1200,10,0,1200,11,0,1200,12,0,1200,13,0,1221,15,0,1221,19,0,1200,21,0,1200,24,0,1200,25,0,1200,26,0,1221,27,0,1200,30,0,1221,31,0,1200,33,0,1200,34,0,1200,36,0,1200*6A
$PAIRSAT,4,50,1,0,200,2,0,200,3,0,200,4,0,200,5,0,200,6,0,201,7,0,200,8,0,201,9,0,201,10,0,200,11,0,200,12,0,200,13,0,201,14,0,200,15,0,200,16,0,201,19,0,621,20,0,621,21,0,600,22,0,621,23,0,600,24,0,600,25,0,600,26,0,600,27,0,600,28,0,600,29,0,621,30,0,600,31,0,200,32,0,600,33,0,600,34,0,600,35,0,621,36,0,621,37,0,621,38,0,621,39,0,621,40,0,600,41,0,600,42,0,600,43,0,600,44,0,600,45,0,600,46,0,621,56,0,200,57,0,200,58,0,200,59,0,600,60,0,600,61,0,600*41
$PAIRDGP,9,5,10,12,15,18,23,24,25,32*5B
$GNGGA,113434.200,2500.8182412,N,12132.4675291,E,2,64,0.43,14.319,M,15.25,M,96,3335*78
$GNRMC,113434.200,A,2500.8182412,N,12132.4675291,E,0.01,294.89,260623,,,D,V*0B
$GPHDT,,T*1B
$GNACCURACY,2.8*1C
$GNGGA,113434.300,2500.8182472,N,12132.4675291,E,2,64,0.43,14.309,M,15.25,M,96,3335*7E
$GNRMC,113434.300,A,2500.8182472,N,12132.4675291,E,0.00,294.89,260623,,,D,V*0D
$GPHDT,,T*1B
$GNACCURACY,2.8*1C
$GNGGA,113434.400,2500.8182472,N,12132.4675351,E,2,64,0.43,14.300,M,15.25,M,96,3335*7D
$GNRMC,113434.400,A,2500.8182472,N,12132.4675351,E,0.00,294.89,260623,,,D,V*07
$GPHDT,,T*1B
$GNACCURACY,2.8*1C
$GNGGA,113434.500,2500.8182532,N,12132.4675411,E,2,64,0.43,14.291,M,15.25,M,96,3335*73
$GNRMC,113434.500,A,2500.8182532,N,12132.4675411,E,0.01,294.89,260623,,,D,V*01
$GPHDT,,T*1B
$GNACCURACY,2.8*1C
$GNGGA,113434.600,2500.8182532,N,12132.4675471,E,2,64,0.43,14.283,M,15.25,M,96,3335*75
$GNRMC,113434.600,A,2500.8182532,N,12132.4675471,E,0.02,294.89,260623,,,D,V*07
$GPHDT,,T*1B
$GNACCURACY,2.8*1C
$GNGGA,113434.700,2500.8182532,N,12132.4675471,E,2,64,0.43,14.274,M,15.25,M,96,3335*7C
$GNRMC,113434.700,A,2500.8182532,N,12132.4675471,E,0.02,294.89,260623,,,D,V*06
$GPHDT,,T*1B
$GNACCURACY,2.8*1C
$GNGGA,113434.800,2500.8182532,N,12132.4675531,E,2,64,0.43,14.269,M,15.25,M,96,3335*7A
$GNRMC,113434.800,A,2500.8182532,N,12132.4675531,E,0.02,294.89,260623,,,D,V*0C
$GPHDT,,T*1B
$GNACCURACY,2.8*1C
$GNGGA,113434.900,2500.8182592,N,12132.4675591,E,2,64,0.43,14.261,M,15.25,M,96,3335*73
$