$FW : RTK35X,V1.1X0314AS,Lib20210517,1*54
$Tool : LOCOSYS , GNSS Firebird , v1.0.0.19*39
$---------------------------------------------------*2D
$GNGGA,093950.200,2500.7753039,N,12132.4578686,E,2,41,0.55,15.921,M,15.25,M,1,3335*44
$GNRMC,093950.200,A,2500.7753039,N,12132.4578686,E,0.02,203.42,260623,,,D,V*03
$GPHDT,269.528,T*37
$GNGGA,093950.400,2500.7753039,N,12132.4578686,E,2,41,0.55,15.913,M,15.25,M,1,3335*43
$GNRMC,093950.400,A,2500.7753039,N,12132.4578686,E,0.02,203.42,260623,,,D,V*05
$GPHDT,269.682,T*34
$GNGGA,093950.600,2500.7753039,N,12132.4578746,E,2,42,0.55,15.895,M,15.25,M,1,3335*40
$GNRMC,093950.600,A,2500.7753039,N,12132.4578746,E,0.02,203.42,260623,,,D,V*0A
$GPHDT,269.491,T*34
$GNGGA,093950.800,2500.7753039,N,12132.4578746,E,2,41,0.55,15.892,M,15.25,M,1,3335*4A
$GNRMC,093950.800,A,2500.7753039,N,12132.4578746,E,0.02,203.42,260623,,,D,V*04
$GPHDT,269.378,T*34
$GNGSA,A,3,15,199,13,05,18,29,20,11,,,,,1.07,0.55,0.92,1*3E
$GNGSA,A,3,84,85,69,79,80,,,,,,,,1.07,0.55,0.92,2*07
$GNGSA,A,3,08,15,13,03,34,,,,,,,,1.07,0.55,0.92,3*04
$GNGSA,A,3,39,38,20,13,29,37,19,32,35,,,,1.07,0.55,0.92,4*08
$GPGSV,3,1,12,15,63,339,45,199,60,167,24,13,44,029,42,05,43,065,46,1*51
$GPGSV,3,2,12,41,38,242,34,18,36,320,44,29,29,234,44,20,27,093,36,1*6B
$GPGSV,3,3,12,11,19,144,21,194,16,150,25,196,,,41,24,,,16,1*6F
$GPGSV,2,1,06,199,60,167,34,18,36,320,43,11,19,144,27,194,16,150,25,8*66
$GPGSV,2,2,06,196,,,44,24,,,22,8*53
$GLGSV,2,1,05,84,64,220,31,85,34,321,41,69,33,019,26,79,23,086,39,1*75
$GLGSV,2,2,05,80,17,140,23,1*47
$GAGSV,2,1,07,08,66,324,41,15,66,162,36,13,55,316,41,03,34,037,42,7*7E
$GAGSV,2,2,07,34,15,149,15,02,07,123,,26,04,324,,7*4F
$GAGSV,2,1,05,08,66,324,46,15,66,162,28,13,55,316,45,03,34,037,41,1*75
$GAGSV,2,2,05,34,15,149,26,1*4B
$GBGSV,3,1,12,39,66,203,42,38,66,024,40,06,54,201,,20,51,359,39,1*74
$GBGSV,3,2,12,13,50,342,42,29,48,257,44,37,32,095,42,19,31,294,27,1*78
$GBGSV,3,3,12,30,30,186,27,46,24,159,,32,21,060,42,35,16,313,38,1*7F
$GBGSV,2,1,07,38,66,024,39,39,66,203,42,20,51,359,39,29,48,257,40,4*7D
$GBGSV,2,2,07,37,32,095,37,32,21,060,43,35,16,313,30,4*49
$GNGGA,093951.000,2500.7753039,N,12132.4578746,E,2,42,0.55,15.875,M,15.25,M,2,3335*4A
$GNRMC,093951.000,A,2500.7753039,N,12132.4578746,E,0.02,203.42,260623,,,D,V*0D
$GPHDT,269.024,T*3E
$GNGGA,093951.200,2500.7752979,N,12132.4578686,E,2,42,0.55,15.860,M,15.25,M,2,3335*4D
$GNRMC,093951.200,A,2500.7752979,N,12132.4578686,E,0.02,203.42,260623,,,D,V*0E
$GPHDT,269.246,T*38
$GNGGA,093951.400,2500.7752979,N,12132.4578626,E,2,41,0.55,15.853,M,15.25,M,2,3335*42
$GNRMC,093951.400,A,2500.7752979,N,12132.4578626,E,0.02,203.42,260623,,,D,V*02
$GPHDT,269.002,T*3A
$GNGGA,093951.600,2500.7752859,N,12132.4578626,E,2,41,0.55,15.841,M,15.25,M,2,3335*40
$GNRMC,093951.600,A,2500.7752859,N,12132.4578626,E,0.01,203.42,260623,,,D,V*00
$GPHDT,269.098,T*39
$GNGGA,093951.800,2500.7752859,N,12132.4578566,E,2,41,0.55,15.829,M,15.25,M,2,3335*47
$GNRMC,093951.800,A,2500.7752859,N,12132.4578566,E,0.01,203.42,260623,,,D,V*09
$GPHDT,269.074,T*3B
$GNGSA,A,3,15,199,13,05,18,29,20,11,,,,,1.07,0.55,0.92,1*3E
$GNGSA,A,3,84,85,69,79,80,,,,,,,,1.07,0.55,0.92,2*07
$GNGSA,A,3,08,15,13,03,34,,,,,,,,1.07,0.55,0.92,3*04
$GNGSA,A,3,39,38,20,13,29,37,19,32,35,,,,1.07,0.55,0.92,4*08
$GPGSV,3,1,12,15,63,339,43,199,60,167,24,13,44,029,44,05,43,065,46,1*51
$GPGSV,3,2,12,41,38,242,34,18,36,320,41,29,29,234,44,20,27,093,35,1*6D
$GPGSV,3,3,12,11,19,144,20,194,16,150,23,196,,,41,24,,,15,1*6B
$GPGSV,2,1,06,199,60,167,34,18,36,320,34,11,19,144,26,194,16,150,24,8*66
$GPGSV,2,2,06,196,,,46,24,,,23,8*50
$GLGSV,2,1,05,84,64,220,31,85,34,321,30,69,33,019,27,79,23,086,39,1*72
$GLGSV,2,2,05,80,17,140,24,1*40
$GAGSV,2,1,07,08,66,324,40,15,66,162,36,13,55,316,30,03,34,037,42,7*79
$GAGSV,2,2,07,34,15,149,15,02,07,123,,26,04,324,,7*4F
$GAGSV,2,1,05,08,66,324,44,15,66,162,26,13,55,316,42,03,34,037,40,1*7F
$GAGSV,2,2,05,34,15,149,25,1*48
$GBGSV,3,1,12,39,66,203,42,38,66,024,43,06,54,201,29,20,51,359,39,1*7C
$GBGSV,3,2,12,13,50,342,40,29,48,257,44,37,32,095,42,19,31,294,26,1*7B
$GBGSV,3,3,12,30,30,186,26,46,24,159,,32,21,060,43,35,16,313,39,1*7E
$GBGSV,2,1,07,38,66,024,43,39,66,203,42,20,51,359,37,29,48,257,41,4*7F
$GBGSV,2,2,07,37,32,095,37,32,21,060,42,35,16,313,30,4*48
$GNGGA,093952.000,2500.7752799,N,12132.4578566,E,2,42,0.55,15.806,M,15.25,M,3,3335*40
$GNRMC,093952.000,A,2500.7752799,N,12132.4578566,E,0.01,203.42,260623,,,D,V*01
$GPHDT,269.558,T*30
$GNGGA,093952.200,2500.7752679,N,12132.4578566,E,2,42,0.55,15.802,M,15.25,M,3,3335*49
$GNRMC,093952.200,A,2500.7752679,N,12132.4578566,E,0.01,203.42,260623,,,D,V*0C
$GPHDT,270.078,T*3F
$GNGGA,093952.400,2500.7752799,N,12132.4578566,E,2,41,0.55,15.802,M,15.25,M,3,3335*43
$GNRMC,093952.400,A,2500.7752799,N,12132.4578566,E,0.01,203.42,260623,,,D,V*05
$GPHDT,270.249,T*3F
$GNGGA,093952.600,2500.7752739,N,12132.4578566,E,2,42,0.55,15.798,M,15.25,M,3,3335*44
$GNRMC,093952.600,A,2500.7752739,N,12132.4578566,E,0.01,203.42,260623,,,D,V*0D
$GPHDT,269.856,T*33
$GNGGA,093952.800,2500.7752739,N,12132.4578566,E,2,42,0.55,15.797,M,15.25,M,2,3335*44
$GNRMC,093952.800,A,2500.7752739,N,12132.4578566,E,0.01,203.42,260623,,,D,V*03
$GPHDT,269.799,T*3F
$GNGSA,A,3,15,199,13,05,18,29,20,11,,,,,1.07,0.55,0.92,1*3E
$GNGSA,A,3,84,85,69,79,80,,,,,,,,1.07,0.55,0.92,2*07
$GNGSA,A,3,08,15,13,03,34,,,,,,,,1.07,0.55,0.92,3*04
$GNGSA,A,3,39,38,20,13,29,37,19,32,35,,,,1.07,0.55,0.92,4*08
$GPGSV,3,1,12,15,63,339,46,199,60,167,26,13,44,029,45,05,43,065,47,1*56
$GPGSV,3,2,12,41,38,242,34,18,36,320,33,29,29,234,44,20,27,093,36,1*6B
$GPGSV,3,3,12,11,19,144,29,194,16,150,23,196,,,41,24,,,14,1*63
$GPGSV,2,1,06,199,60,167,33,18,36,320,36,11,19,144,24,194,16,150,23,8*66
$GPGSV,2,2,06,196,,,46,24,,,23,8*50
$GLGSV,2,1,05,84,64,220,31,85,34,321,31,69,33,019,26,79,23,086,37,1*7C
$GLGSV,2,2,05,80,17,140,24,1*40
$GAGSV,2,1,07,08,66,324,40,15,66,162,36,13,55,316,34,03,34,037,42,7*7D
$GAGSV,2,2,07,34,15,149,17,02,07,123,,26,04,324,,7*4D
$GAGSV,2,1,05,08,66,324,44,15,66,162,26,13,55,316,41,03,34,037,40,1*7C
$GAGSV,2,2,05,34,15,149,25,1*48
$GBGSV,3,1,12,39,66,203,42,38,66,024,43,06,54,202,30,20,51,359,41,1*78
$GBGSV,3,2,12,13,50,342,42,29,48,257,44,37,32,095,42,19,31,294,27,1*78
$GBGSV,3,3,12,30,30,186,24,46,24,159,,32,21,060,43,35,16,313,36,1*73
$GBGSV,2,1,07,38,66,024,43,39,66,203,42,20,51,359,40,29,48,257,41,4*7F
$GBGSV,2,2,07,37,32,095,37,32,21,060,42,35,16,313,27,4*4E
$GNGGA,093953.000,2500.7752739,N,12132.4578566,E,2,42,0.55,15.794,M,15.25,M,3,3335*4F
$GNRMC,093953.000,A,2500.7752739,N,12132.4578566,E,0.01,203.42,260623,,,D,V*0A
$GPHDT,270.229,T*39
$GNGGA,093953.200,2500.7752739,N,12132.4578566,E,2,42,0.55,15.793,M,15.25,M,1,3335*48
$GNRMC,093953.200,A,2500.7752739,N,12132.4578566,E,0.02,203.42,260623,,,D,V*0B
$GPHDT,269.782,T*35
$GNGGA,093953.400,2500.7752739,N,12132.4578566,E,2,42,0.55,15.792,M,15.25,M,1,3335*4F
$GNRMC,093953.400,A,2500.7752739,N,12132.4578566,E,0.05,203.42,260623,,,D,V*0A
$GPHDT,269.942,T*37
$GNGGA,093953.600,2500.7752739,N,12132.4578566,E,2,42,0.55,15.797,M,15.25,M,1,3335*48
$GNRMC,093953.600,A,2500.7752739,N,12132.4578566,E,0.07,203.42,260623,,,D,V*0A
$GPHDT,269.830,T*33
$GNGGA,093953.800,2500.7752739,N,12132.4578566,E,2,42,0.55,15.805,M,15.25,M,1,3335*42
$GNRMC,093953.800,A,2500.7752739,N,12132.4578566,E,0.07,203.42,260623,,,D,V*04
$GPHDT,269.021,T*3B
$GNGSA,A,3,15,199,13,05,18,29,20,11,,,,,1.07,0.55,0.92,1*3E
$GNGSA,A,3,84,85,69,79,80,,,,,,,,1.07,0.55,0.92,2*07
$GNGSA,A,3,08,15,13,03,34,,,,,,,,1.07,0.55,0.92,3*04
$GNGSA,A,3,39,38,20,13,29,37,19,32,35,,,,1.07,0.55,0.92,4*08
$GPGSV,3,1,12,15,63,339,46,199,60,167,24,13,44,029,45,05,43,065,47,1*54
$GPGSV,3,2,12,41,38,242,34,18,36,320,43,29,29,234,44,20,27,093,37,1*6D
$GPGSV,3,3,12,11,19,144,28,194,16,150,23,196,,,41,24,,,14,1*62
$GPGSV,2,1,06,199,60,167,34,18,36,320,37,11,19,144,25,194,16,150,24,8*66
$GPGSV,2,2,06,196,,,46,24,,,22,8*51
$GLGSV,2,1,05,84,64,220,31,85,34,321,40,69,33,019,29,79,23,086,38,1*7A
$GLGSV,2,2,05,80,17,140,22,1*46
$GAGSV,2,1,07,08,66,324,42,15,66,162,35,13,55,316,38,03,34,037,42,7*70
$GAGSV,2,2,07,34,15,149,17,02,07,123,,26,04,324,,7*4D
$GAGSV,2,1,05,08,66,324,45,15,66,162,25,13,55,316,44,03,34,037,41,1*7A
$GAGSV,2,2,05,34,15,149,25,1*48
$GBGSV,3,1,12,39,66,203,42,38,66,024,43,06,54,202,28,20,51,359,41,1*71
$GBGSV,3,2,12,13,50,342,44,29,48,257,44,37,32,095,42,19,31,294,27,1*7E
$GBGSV,3,3,12,30,30,186,24,46,24,159,,32,21,060,41,35,16,313,38,1*7F
$GBGSV,2,1,07,38,66,024,43,39,66,203,42,20,51,359,41,29,48,257,41,4*7E
$GBGSV,2,2,07,37,32,095,37,32,21,060,40,35,16,313,26,4*4D
$GNGGA,093954.000,2500.7752739,N,12132.4578566,E,2,42,0.55,15.816,M,15.25,M,2,3335*4C
$GNRMC,093954.000,A,2500.7752739,N,12132.4578566,E,0.07,203.42,260623,,,D,V*0B
$GPHDT,269.025,T*3F
$GNGGA,093954.200,2500.7752799,N,12132.4578566,E,2,42,0.55,15.826,M,15.25,M,2,3335*47
$GNRMC,093954.200,A,2500.7752799,N,12132.4578566,E,0.03,203.42,260623,,,D,V*07
$GPHDT,268.445,T*3C
$GNGGA,093954.400,2500.7752739,N,12132.4578566,E,2,42,0.55,15.840,M,15.25,M,2,3335*4B
$GNRMC,093954.400,A,2500.7752739,N,12132.4578566,E,0.04,203.42,260623,,,D,V*0C
$GPHDT,268.490,T*34
$GNGGA,093954.600,2500.7752799,N,12132.4578566,E,2,42,0.55,15.851,M,15.25,M,2,3335*43
$GNRMC,093954.600,A,2500.7752799,N,12132.4578566,E,0.01,203.42,260623,,,D,V*01
$GPHDT,268.916,T*37
$GNGGA,093954.800,2500.7752799,N,12132.4578566,E,2,42,0.55,15.862,M,15.25,M,2,3335*4D
$GNRMC,093954.800,A,2500.7752799,N,12132.4578566,E,0.01,203.42,260623,,,D,V*0F
$GPHDT,269.672,T*3B
$GNGSA,A,3,15,199,13,05,18,29,20,11,,,,,1.07,0.55,0.92,1*3E
$GNGSA,A,3,84,85,69,79,80,,,,,,,,1.07,0.55,0.92,2*07
$GNGSA,A,3,08,15,13,03,34,,,,,,,,1.07,0.55,0.92,3*04
$GNGSA,A,3,38,39,20,13,29,37,19,32,35,,,,1.07,0.55,0.92,4*08
$GPGSV,3,1,12,15,63,339,46,199,60,167,24,13,44,029,45,05,43,065,47,1*54
$GPGSV,3,2,12,41,38,242,35,18,36,320,43,29,29,234,44,20,27,093,37,1*6C
$GPGSV,3,3,12,11,19,144,24,194,16,150,22,196,,,41,24,,,13,1*68
$GPGSV,2,1,06,199,60,167,34,18,36,320,41,11,19,144,27,194,16,150,24,8*65
$GPGSV,2,2,06,196,,,46,24,,,22,8*51
$GLGSV,2,1,07,84,64,220,31,85,34,321,40,69,33,019,29,79,23,086,38,1*78
$GLGSV,2,2,07,80,17,140,24,83,12,170,,71,03,262,,1*4F
$GAGSV,3,1,09,08,66,324,42,15,66,162,35,13,55,316,39,03,34,037,41,7*7D
$GAGSV,3,2,09,34,15,149,17,02,07,123,,26,04,324,,30,01,170,,7*76
$GAGSV,3,3,09,25,01,078,,7*43
$GAGSV,2,1,05,08,66,324,45,15,66,162,26,13,55,316,44,03,34,037,39,1*76
$GAGSV,2,2,05,34,15,149,25,1*48
$GBGSV,4,1,14,38,66,024,43,39,66,203,42,06,54,202,27,20,51,359,41,1*7F
$GBGSV,4,2,14,13,50,342,44,29,48,257,44,37,32,095,42,19,31,294,27,1*7F
$GBGSV,4,3,14,30,30,186,24,46,24,159,,32,21,060,43,35,16,313,41,1*72
$GBGSV,4,4,14,23,07,048,,40,06,195,,1*76
$GBGSV,2,1,07,38,66,024,43,39,66,203,42,20,51,359,41,29,48,257,41,4*7E
$GBGSV,2,2,07,37,32,095,37,32,21,060,41,35,16,313,31,4*4A
$GNGGA,093955.000,2500.7752799,N,12132.4578566,E,2,42,0.55,15.866,M,15.25,M,3,3335*41
$GNRMC,093955.000,A,2500.7752799,N,12132.4578566,E,0.02,203.42,260623,,,D,V*05
$GPHDT,269.981,T*38
$GNGGA,093955.200,2500.7752799,N,12132.4578506,E,2,42,0.55,15.864,M,15.25,M,3,3335*47
$GNRMC,093955.200,A,2500.7752799,N,12132.4578506,E,0.03,203.42,260623,,,D,V*00
$GPHDT,270.064,T*32
$GNGGA,093955.400,2500.7752799,N,12132.4578506,E,2,42,0.55,15.868,M,15.25,M,3,3335*4D
$GNRMC,093955.400,A,2500.7752799,N,12132.4578506,E,0.03,203.42,260623,,,D,V*06
$GPHDT,269.734,T*38
$GNGGA,093955.600,2500.7752799,N,12132.4578446,E,2,42,0.55,15.859,M,15.25,M,3,3335*48
$GNRMC,093955.600,A,2500.7752799,N,12132.4578446,E,0.03,203.42,260623,,,D,V*01
$GPHDT,269.726,T*3B
$GNGGA,093955.800,2500.7752799,N,12132.4578386,E,2,42,0.55,15.856,M,15.25,M,3,3335*42
$GNRMC,093955.800,A,2500.7752799,N,12132.4578386,E,0.03,203.42,260623,,,D,V*04
$GPHDT,269.544,T*3D
$GNGSA,A,3,15,199,13,05,18,29,20,11,,,,,1.07,0.55,0.92,1*3E
$GNGSA,A,3,84,85,69,79,80,,,,,,,,1.07,0.55,0.92,2*07
$GNGSA,A,3,08,15,13,03,34,,,,,,,,1.07,0.55,0.92,3*04
$GNGSA,A,3,39,38,20,13,29,37,19,32,35,,,,1.07,0.55,0.92,4*08
$GPGSV,3,1,12,15,63,339,46,199,60,167,24,13,44,029,45,05,43,065,47,1*54
$GPGSV,3,2,12,41,38,242,35,18,36,320,43,29,29,234,44,20,27,093,37,1*6C
$GPGSV,3,3,12,11,19,144,21,194,16,150,22,196,,,41,24,,,13,1*6D
$GPGSV,2,1,06,199,60,167,33,18,36,320,42,11,19,144,27,194,16,150,21,8*64
$GPGSV,2,2,06,196,,,46,24,,,22,8*51
$GLGSV,2,1,05,84,64,220,31,85,34,321,40,69,33,019,29,79,23,086,38,1*7A
$GLGSV,2,2,05,80,17,140,25,1*41
$GAGSV,3,1,09,08,66,324,42,15,66,162,35,13,55,316,39,03,34,037,41,7*7D
$GAGSV,3,2,09,34,15,149,16,02,07,123,,26,04,324,,30,01,170,,7*77
$GAGSV,3,3,09,25,01,078,,7*43
$GAGSV,2,1,05,08,66,324,45,15,66,162,27,13,55,316,44,03,34,037,40,1*79
$GAGSV,2,2,05,34,15,149,25,1*48
$GBGSV,3,1,12,39,66,203,42,38,66,024,43,06,54,202,27,20,51,000,41,1*71
$GBGSV,3,2,12,13,50,342,44,29,48,257,44,37,32,095,41,19,31,294,27,1*7D
$GBGSV,3,3,12,30,30,186,25,46,24,159,,32,21,060,43,35,16,313,41,1*72
$GBGSV,2,1,07,38,66,024,43,39,66,203,42,20,51,000,41,29,48,257,41,4*71
$GBGSV,2,2,07,37,32,095,37,32,21,060,41,35,16,313,30,4*4B
$GNGGA,093956.000,2500.7752799,N,12132.4578386,E,2,42,0.55,15.866,M,15.25,M,4,3335*4D
$GNRMC,093956.000,A,2500.7752799,N,12132.4578386,E,0.02,203.42,260623,,,D,V*0E
$GPHDT,269.257,T*38
$GNGGA,093956.200,2500.7752799,N,12132.4578386,E,2,42,0.55,15.866,M,15.25,M,4,3335*4F
$GNRMC,093956.200,A,2500.7752799,N,12132.4578386,E,0.02,203.42,260623,,,D,V*0C
$GPHDT,269.378,T*34
$GNGGA,093956.400,2500.7752859,N,12132.4578386,E,2,42,0.55,15.864,M,15.25,M,2,3335*4E
$GNRMC,093956.400,A,2500.7752859,N,12132.4578386,E,0.02,203.42,260623,,,D,V*09
$GPHDT,269.170,T*3E
$GNGGA,093956.600,2500.7752859,N,12132.4578326,E,2,42,0.55,15.857,M,15.25,M,1,3335*45
$GNRMC,093956.600,A,2500.7752859,N,12132.4578326,E,0.02,203.42,260623,,,D,V*01
$GPHDT,269.414,T*39
$GNGGA,093956.800,2500.7752859,N,12132.4578266,E,2,42,0.55,15.853,M,15.25,M,0,3335*4B
$GNRMC,093956.800,A,2500.7752859,N,12132.4578266,E,0.03,203.42,260623,,,D,V*0B
$GPHDT,269.820,T*32
$GNGSA,A,3,15,199,13,05,18,29,20,11,,,,,1.08,0.55,0.93,1*30
$GNGSA,A,3,84,85,69,79,80,,,,,,,,1.08,0.55,0.93,2*09
$GNGSA,A,3,08,15,13,03,34,,,,,,,,1.08,0.55,0.93,3*0A
$GNGSA,A,3,39,38,20,13,29,37,19,32,35,,,,1.08,0.55,0.93,4*06
$GPGSV,3,1,12,15,63,339,46,199,60,167,24,13,44,029,45,05,43,065,47,1*54
$GPGSV,3,2,12,41,38,242,35,18,36,320,43,29,29,234,45,20,27,093,37,1*6D
$GPGSV,3,3,12,11,19,144,23,194,16,150,26,196,,,41,24,,,12,1*6A
$GPGSV,2,1,06,199,60,167,33,18,36,320,41,11,19,144,25,194,16,150,23,8*67
$GPGSV,2,2,06,196,,,46,24,,,23,8*50
$GLGSV,2,1,05,84,64,220,31,85,34,321,40,69,33,019,29,79,23,086,38,1*7A
$GLGSV,2,2,05,80,17,140,26,1*42
$GAGSV,3,1,09,08,66,324,42,15,66,162,35,13,55,316,39,03,34,037,41,7*7D
$GAGSV,3,2,09,34,15,149,15,02,07,123,,26,04,324,,30,01,170,,7*74
$GAGSV,3,3,09,25,01,078,,7*43
$GAGSV,2,1,05,08,66,324,45,15,66,162,27,13,55,316,44,03,34,037,40,1*79
$GAGSV,2,2,05,34,15,149,24,1*49
$GBGSV,3,1,12,39,66,203,42,38,66,024,43,06,54,202,28,20,51,000,41,1*7E
$GBGSV,3,2,12,13,50,342,44,29,48,257,43,37,32,095,41,19,31,294,28,1*75
$GBGSV,3,3,12,30,30,186,25,46,24,159,,32,21,060,43,35,16,313,41,1*72
$GBGSV,2,1,07,38,66,024,43,39,66,203,42,20,51,000,40,29,48,257,40,4*71
$GBGSV,2,2,07,37,32,095,37,32,21,060,41,35,16,313,31,4*4A
$GNGGA,093957.000,2500.7752859,N,12132.4578266,E,2,42,0.55,15.849,M,15.25,M,1,3335*48
$GNRMC,093957.000,A,2500.7752859,N,12132.4578266,E,0.02,203.42,260623,,,D,V*03
$GPHDT,269.682,T*34
$GNGGA,093957.200,2500.7752859,N,12132.4578206,E,2,42,0.55,15.844,M,15.25,M,1,3335*41
$GNRMC,093957.200,A,2500.7752859,N,12132.4578206,E,0.02,203.42,260623,,,D,V*07
$GPHDT,269.180,T*31
$GNGGA,093957.400,2500.7752859,N,12132.4578146,E,2,42,0.55,15.833,M,15.25,M,1,3335*40
$GNRMC,093957.400,A,2500.7752859,N,12132.4578146,E,0.03,203.42,260623,,,D,V*07
$GPHDT,268.679,T*31
$GNGGA,093957.600,2500.7752859,N,12132.4578086,E,2,42,0.55,15.836,M,15.25,M,1,3335*4A
$GNRMC,093957.600,A,2500.7752859,N,12132.4578086,E,0.03,203.42,260623,,,D,V*08
$GPHDT,269.091,T*30
$GNGGA,093957.800,2500.7752859,N,12132.4578026,E,2,42,0.55,15.848,M,15.25,M,1,3335*47
$GNRMC,093957.800,A,2500.7752859,N,12132.4578026,E,0.02,203.42,260623,,,D,V*0D
$GPHDT,269.232,T*3B
$GNGSA,A,3,15,199,13,05,18,29,20,11,,,,,1.08,0.55,0.93,1*30
$GNGSA,A,3,84,85,69,79,80,,,,,,,,1.08,0.55,0.93,2*09
$GNGSA,A,3,08,15,13,03,34,,,,,,,,1.08,0.55,0.93,3*0A
$GNGSA,A,3,39,38,20,13,29,37,19,32,35,,,,1.08,0.55,0.93,4*06
$GPGSV,3,1,12,15,63,339,46,199,60,167,24,13,44,029,45,05,43,065,47,1*54
$GPGSV,3,2,12,41,38,242,34,18,36,320,43,29,29,234,39,20,27,093,38,1*68
$GPGSV,3,3,12,11,19,144,24,194,16,150,26,196,,,41,24,,,13,1*6C
$GPGSV,2,1,06,199,60,167,33,18,36,320,41,11,19,144,25,194,16,150,24,8*60
$GPGSV,2,2,06,196,,,45,24,,,23,8*53
$GLGSV,2,1,05,84,64,220,30,85,34,321,40,69,33,019,30,79,23,086,38,1*73
$GLGSV,2,2,05,80,17,140,24,1*40
$GAGSV,3,1,09,08,66,324,42,15,66,162,35,13,55,316,39,03,34,037,41,7*7D
$GAGSV,3,2,09,34,15,149,16,02,07,123,,26,04,324,,30,01,170,,7*77
$GAGSV,3,3,09,25,01,078,,7*43
$GAGSV,2,1,05,08,66,324,45,15,66,162,26,13,55,316,43,03,34,037,40,1*7F
$GAGSV,2,2,05,34,15,149,24,1*49
$GBGSV,3,1,12,39,66,203,42,38,66,024,43,06,54,202,28,20,51,000,41,1*7E
$GBGSV,3,2,12,13,50,342,44,29,48,257,43,37,32,095,41,19,31,294,29,1*74
$GBGSV,3,3,12,30,29,186,23,46,24,159,,32,21,060,43,35,16,313,41,1*7C
$GBGSV,2,1,07,38,66,024,43,39,66,203,42,20,51,000,40,29,48,257,40,4*71
$GBGSV,2,2,07,37,32,095,37,32,21,060,41,35,16,313,31,4*4A
$GNGGA,093958.000,2500.7752859,N,12132.4578026,E,2,42,0.55,15.840,M,15.25,M,2,3335*4B
$GNRMC,093958.000,A,2500.7752859,N,12132.4578026,E,0.02,203.42,260623,,,D,V*0A
$GPHDT,268.887,T*3E
$GNGGA,093958.200,2500.7752859,N,12132.4578026,E,2,42,0.55,15.846,M,15.25,M,2,3335*4F
$GNRMC,093958.200,A,2500.7752859,N,12132.4578026,E,0.02,203.42,260623,,,D,V*08
$GPHDT,268.289,T*3A
$GNGGA,093958.400,2500.7752919,N,12132.4578026,E,2,41,0.55,15.846,M,15.25,M,2,3335*4F
$GNRMC,093958.400,A,2500.7752919,N,12132.4578026,E,0.06,203.42,260623,,,D,V*0F
$GPHDT,268.803,T*32
$GNGGA,093958.600,2500.7752859,N,12132.4578026,E,2,42,0.55,15.850,M,15.25,M,2,3335*4C
$GNRMC,093958.600,A,2500.7752859,N,12132.4578026,E,0.01,203.42,260623,,,D,V*0F
$GPHDT,269.194,T*34
$GNGGA,093958.800,2500.7752859,N,12132.4577966,E,2,42,0.55,15.857,M,15.25,M,2,3335*47
$GNRMC,093958.800,A,2500.7752859,N,12132.4577966,E,0.06,203.42,260623,,,D,V*04
$GPHDT,269.792,T*34
$GNGSA,A,3,15,199,13,05,18,29,20,11,,,,,1.08,0.55,0.93,1*30
$GNGSA,A,3,84,85,69,79,80,,,,,,,,1.08,0.55,0.93,2*09
$GNGSA,A,3,08,15,13,03,34,,,,,,,,1.08,0.55,0.93,3*0A
$GNGSA,A,3,39,38,20,13,29,37,19,32,35,,,,1.08,0.55,0.93,4*06
$GPGSV,3,1,12,15,63,339,46,199,60,167,24,13,44,029,43,05,43,065,47,1*52
$GPGSV,3,2,12,41,38,242,33,18,36,320,43,29,29,234,41,20,27,093,36,1*6E
$GPGSV,3,3,12,11,19,144,24,194,16,150,25,196,,,41,24,,,16,1*6A
$GPGSV,2,1,06,199,60,167,32,18,36,320,41,11,19,144,24,194,16,150,24,8*60
$GPGSV,2,2,06,196,,,45,24,,,23,8*53
$GLGSV,2,1,05,84,64,220,29,85,34,321,40,69,33,019,30,79,23,086,35,1*76
$GLGSV,2,2,05,80,17,140,21,1*45
$GAGSV,2,1,07,08,66,324,42,15,66,162,35,13,55,316,39,03,34,037,42,7*71
$GAGSV,2,2,07,34,15,149,16,30,01,170,,25,01,078,,7*41
$GAGSV,2,1,05,08,66,324,45,15,66,162,25,13,55,316,43,03,34,037,40,1*7C
$GAGSV,2,2,05,34,15,149,24,1*49
$GBGSV,3,1,12,39,66,204,42,38,66,024,43,06,54,202,28,20,51,000,41,1*79
$GBGSV,3,2,12,13,50,342,44,29,48,257,43,37,32,095,32,19,31,294,29,1*70
$GBGSV,3,3,12,30,29,186,24,46,24,159,,32,21,060,42,35,16,313,41,1*7A
$GBGSV,2,1,07,38,66,024,43,39,66,204,42,20,51,000,40,29,48,257,40,4*76
$GBGSV,2,2,07,37,32,095,34,32,21,060,41,35,16,313,30,4*48
$GNGGA,093959.000,2500.7752859,N,12132.4577966,E,2,42,0.55,15.868,M,15.25,M,3,3335*43
$GNRMC,093959.000,A,2500.7752859,N,12132.4577966,E,0.05,203.42,260623,,,D,V*0E
$GPHDT,269.753,T*39
$GNGGA,093959.200,2500.7752859,N,12132.4578026,E,2,41,0.55,15.877,M,15.25,M,3,3335*4E
$GNRMC,093959.200,A,2500.7752859,N,12132.4578026,E,0.05,203.42,260623,,,D,V*0E
$GPHDT,269.200,T*3A
$GNGGA,093959.400,2500.7752859,N,12132.4577966,E,2,41,0.55,15.885,M,15.25,M,3,3335*47
$GNRMC,093959.400,A,2500.7752859,N,12132.4577966,E,0.20,203.42,260623,,,D,V*0D
$GPHDT,269.906,T*37
$GNGGA,093959.600,2500.7752739,N,12132.4578086,E,2,41,0.56,15.897,M,15.25,M,3,3335*44
$GNRMC,093959.600,A,2500.7752739,N,12132.4578086,E,0.00,203.42,260623,,,D,V*0C
$GPHDT,269.047,T*3B
$GNGGA,093959.800,2500.7752739,N,12132.4578086,E,2,41,0.56,15.902,M,15.25,M,3,3335*47
$GNRMC,093959.800,A,2500.7752739,N,12132.4578086,E,0.12,203.42,260623,,,D,V*01
$GPHDT,269.474,T*3F
$GNGSA,A,3,15,199,13,05,18,29,11,,,,,,1.08,0.56,0.93,1*31
$GNGSA,A,3,84,85,69,79,80,,,,,,,,1.08,0.56,0.93,2*0A
$GNGSA,A,3,08,15,13,03,34,,,,,,,,1.08,0.56,0.93,3*09
$GNGSA,A,3,38,39,20,13,29,37,19,32,35,,,,1.08,0.56,0.93,4*05
$GPGSV,3,1,12,15,63,339,46,199,60,167,25,13,44,029,43,05,43,065,38,1*5B
$GPGSV,3,2,12,41,38,242,33,18,36,320,43,29,29,234,43,20,27,093,35,1*6F
$GPGSV,3,3,12,11,19,144,26,194,16,150,24,196,,,40,24,,,16,1*68
$GPGSV,2,1,06,199,60,167,32,18,36,320,41,11,19,144,24,194,16,150,24,8*60
$GPGSV,2,2,06,196,,,45,24,,,22,8*52
$GLGSV,2,1,06,84,64,220,29,85,34,321,40,69,33,019,30,79,23,086,34,1*74
$GLGSV,2,2,06,80,17,140,23,68,01,056,,1*78
$GAGSV,2,1,08,08,66,324,42,15,66,162,36,13,55,316,39,03,34,037,41,7*7E
$GAGSV,2,2,08,07,30,253,,34,15,149,16,30,01,170,,25,01,078,,7*7E
$GAGSV,2,1,05,08,66,324,45,15,66,162,28,13,55,316,43,03,34,037,39,1*7F
$GAGSV,2,2,05,34,15,149,24,1*49
$GBGSV,4,1,13,38,66,024,42,39,66,204,42,06,54,202,29,20,51,000,41,1*7F
$GBGSV,4,2,13,13,50,342,44,29,48,257,43,37,32,095,36,19,31,294,29,1*72
$GBGSV,4,3,13,30,29,186,24,46,24,159,,32,21,060,38,35,16,313,41,1*71
$GBGSV,4,4,13,07,11,202,,1*43
$GBGSV,2,1,07,38,66,024,43,39,66,204,42,20,51,000,40,29,48,257,40,4*76
$GBGSV,2,2,07,37,32,095,36,32,21,060,38,35,16,313,31,4*45
$GNGGA,094000.000,2500.7752799,N,12132.4578026,E,2,40,0.56,15.904,M,15.25,M,4,3335*4D
$GNRMC,094000.000,A,2500.7752799,N,12132.4578026,E,0.05,203.42,260623,,,D,V*0D
$GPHDT,269.024,T*3E
$GNGGA,094000.200,2500.7752739,N,12132.4578086,E,2,42,0.55,15.905,M,15.25,M,4,3335*4F
$GNRMC,094000.200,A,2500.7752739,N,12132.4578086,E,0.05,203.42,260623,,,D,V*0F
$GPHDT,269.555,T*3D
$GNGGA,094000.400,2500.7752739,N,12132.4578086,E,2,41,0.55,15.904,M,15.25,M,4,3335*4B
$GNRMC,094000.400,A,2500.7752739,N,12132.4578086,E,0.05,203.42,260623,,,D,V*09
$GPHDT,269.426,T*38
$GNGGA,094000.600,2500.7752799,N,12132.4578026,E,2,41,0.55,15.904,M,15.25,M,4,3335*49
$GNRMC,094000.600,A,2500.7752799,N,12132.4578026,E,0.10,203.42,260623,,,D,V*0F
$GPHDT,269.136,T*3C
$GNGGA,094000.800,2500.7752739,N,12132.4578026,E,2,43,0.54,15.904,M,15.25,M,4,3335*4E
$GNRMC,094000.800,A,2500.7752739,N,12132.4578026,E,0.08,203.42,260623,,,D,V*02
$GPHDT,269.019,T*30
$GNGSA,A,3,196,15,199,13,05,18,29,20,11,,,,1.03,0.54,0.88,1*0E
$GNGSA,A,3,84,85,69,79,80,,,,,,,,1.03,0.54,0.88,2*09
$GNGSA,A,3,08,15,13,03,34,,,,,,,,1.03,0.54,0.88,3*0A
$GNGSA,A,3,39,38,20,13,29,37,19,32,35,,,,1.03,0.54,0.88,4*06
$GPGSV,3,1,12,196,72,046,40,15,63,339,44,199,60,167,24,13,44,029,40,1*6C
$GPGSV,3,2,12,05,43,065,40,41,38,242,35,18,36,320,40,29,29,234,44,1*63
$GPGSV,3,3,12,20,27,093,38,11,19,144,23,194,16,150,23,24,,,19,1*69
$GPGSV,2,1,06,196,72,046,44,199,60,167,33,18,36,320,33,11,19,144,23,8*63
$GPGSV,2,2,06,194,16,150,22,24,,,23,8*63
$GLGSV,2,1,05,84,64,220,28,85,34,321,31,69,33,019,29,79,23,086,36,1*7A
$GLGSV,2,2,05,80,17,140,22,1*46
$GAGSV,3,1,09,08,66,324,41,15,66,162,36,13,55,316,37,03,34,037,40,7*72
$GAGSV,3,2,09,07,30,253,,34,15,149,16,02,07,123,,30,01,170,,7*72
$GAGSV,3,3,09,25,01,078,,7*43
$GAGSV,2,1,05,08,66,324,45,15,66,162,26,13,55,316,42,03,34,037,37,1*7E
$GAGSV,2,2,05,34,15,149,24,1*49
$GBGSV,3,1,12,39,66,204,42,38,66,024,42,06,54,202,28,20,51,000,39,1*77
$GBGSV,3,2,12,13,50,342,37,29,48,257,43,37,32,095,43,19,31,294,29,1*72
$GBGSV,3,3,12,30,29,186,24,46,25,158,,32,21,060,38,35,16,313,41,1*77
$GBGSV,2,1,07,38,66,024,41,39,66,204,42,20,51,000,36,29,48,257,40,4*75
$GBGSV,2,2,07,37,32,095,38,32,21,060,38,35,16,313,28,4*43
$GNGGA,094001.000,2500.7752739,N,12132.4578026,E,2,43,0.54,15.903,M,15.25,M,5,3335*41
$GNRMC,094001.000,A,2500.7752739,N,12132.4578026,E,0.15,203.42,260623,,,D,V*07
$GPHDT,269.784,T*33
$GNGGA,094001.200,2500.7752739,N,12132.4578026,E,2,43,0.54,15.904,M,15.25,M,5,3335*44
$GNRMC,094001.200,A,2500.7752739,N,12132.4578026,E,0.14,203.42,260623,,,D,V*04
$GPHDT,269.669,T*31
$GNGGA,094001.400,2500.7752799,N,12132.4578026,E,2,43,0.54,15.907,M,15.25,M,5,3335*4B
$GNRMC,094001.400,A,2500.7752799,N,12132.4578026,E,0.06,203.42,260623,,,D,V*0B
$GPHDT,269.758,T*32
$GNGGA,094001.600,2500.7752739,N,12132.4578026,E,2,44,0.54,15.906,M,15.25,M,5,3335*45
$GNRMC,094001.600,A,2500.7752739,N,12132.4578026,E,0.11,203.42,260623,,,D,V*05
$GPHDT,269.692,T*35
$GNGGA,094001.800,2500.7752799,N,12132.4578026,E,2,44,0.54,15.903,M,15.25,M,5,3335*44
$GNRMC,094001.800,A,2500.7752799,N,12132.4578026,E,0.10,203.42,260623,,,D,V*00
$GPHDT,270.196,T*3E
$GNGSA,A,3,196,15,199,13,05,18,29,20,11,,,,1.03,0.54,0.88,1*0E
$GNGSA,A,3,84,85,69,79,80,,,,,,,,1.03,0.54,0.88,2*09
$GNGSA,A,3,08,15,13,03,34,,,,,,,,1.03,0.54,0.88,3*0A
$GNGSA,A,3,39,38,20,13,29,37,19,32,35,,,,1.03,0.54,0.88,4*06
$GPGSV,3,1,12,196,72,046,41,15,63,339,46,199,60,167,25,13,44,029,40,1*6E
$GPGSV,3,2,12,05,43,065,45,41,38,242,33,18,36,320,44,29,29,234,44,1*64
$GPGSV,3,3,12,20,27,093,37,11,19,144,27,194,16,150,23,24,,,20,1*68
$GPGSV,2,1,06,196,72,046,45,199,60,167,33,18,36,320,40,11,19,144,20,8*65
$GPGSV,2,2,06,194,16,150,24,24,,,25,8*63
$GLGSV,2,1,05,84,64,220,29,85,34,321,41,69,33,019,29,79,23,086,38,1*72
$GLGSV,2,2,05,80,17,140,18,1*4F
$GAGSV,3,1,09,08,66,324,42,15,66,162,35,13,55,316,37,03,34,037,40,7*72
$GAGSV,3,2,09,07,30,253,,34,15,149,17,02,07,123,,30,01,170,,7*73
$GAGSV,3,3,09,25,01,078,,7*43
$GAGSV,2,1,05,08,66,324,46,15,66,162,27,13,55,316,44,03,34,037,39,1*74
$GAGSV,2,2,05,34,15,149,24,1*49
$GBGSV,3,1,12,39,66,204,42,38,66,024,43,06,54,202,28,20,51,000,40,1*78
$GBGSV,3,2,12,13,50,342,45,29,48,257,43,37,32,095,41,19,31,294,29,1*75
$GBGSV,3,3,12,30,29,186,23,46,25,158,,32,21,060,42,35,16,313,38,1*73
$GBGSV,2,1,07,38,66,024,42,39,66,204,43,20,51,000,39,29,48,257,41,4*79
$GBGSV,2,2,07,37,32,095,37,32,21,060,40,35,16,313,24,4*4F
$GNGGA,094002.000,2500.7752799,N,12132.4578026,E,2,44,0.54,15.904,M,15.25,M,6,3335*4B
$GNRMC,094002.000,A,2500.7752799,N,12132.4578026,E,0.02,203.42,260623,,,D,V*08
$GPHDT,270.036,T*35
$GNGGA,094002.200,2500.7752799,N,12132.4578026,E,2,44,0.54,15.904,M,15.25,M,5,3335*4A
$GNRMC,094002.200,A,2500.7752799,N,12132.4578026,E,0.01,203.42,260623,,,D,V*09
$GPHDT,269.116,T*3E
$GNGGA,094002.400,2500.7752799,N,12132.4578026,E,2,44,0.54,15.904,M,15.25,M,3,3335*4A
$GNRMC,094002.400,A,2500.7752799,N,12132.4578026,E,0.01,203.42,260623,,,D,V*0F
$GPHDT,269.464,T*3E
$GNGGA,094002.600,2500.7752799,N,12132.4578026,E,2,44,0.54,15.902,M,15.25,M,1,3335*4C
$GNRMC,094002.600,A,2500.7752799,N,12132.4578026,E,0.01,203.42,260623,,,D,V*0D
$GPHDT,269.752,T*38
$GNGGA,094002.800,2500.7752739,N,12132.4578026,E,2,44,0.54,15.904,M,15.25,M,0,3335*4F
$GNRMC,094002.800,A,2500.7752739,N,12132.4578026,E,0.01,203.42,260623,,,D,V*09
$GPHDT,269.557,T*3F
$GNGSA,A,3,196,15,199,13,05,18,29,20,11,,,,1.03,0.54,0.88,1*0E
$GNGSA,A,3,84,85,69,79,80,,,,,,,,1.03,0.54,0.88,2*09
$GNGSA,A,3,08,15,13,03,34,,,,,,,,1.03,0.54,0.88,3*0A
$GNGSA,A,3,39,38,20,13,29,37,19,32,35,,,,1.03,0.54,0.88,4*06
$GPGSV,3,1,12,196,72,046,41,15,63,339,46,199,60,167,24,13,44,029,41,1*6E
$GPGSV,3,2,12,05,43,065,46,41,38,242,34,18,36,320,40,29,29,234,44,1*64
$GPGSV,3,3,12,20,27,093,37,11,19,144,22,194,16,150,22,24,,,18,1*67
$GPGSV,2,1,06,196,72,046,45,199,60,167,34,18,36,320,39,11,19,144,23,8*6F
$GPGSV,2,2,06,194,16,150,24,24,,,24,8*62
$GLGSV,2,1,05,84,64,220,28,85,34,321,34,69,33,019,30,79,23,086,38,1*79
$GLGSV,2,2,05,80,17,140,18,1*4F
$GAGSV,2,1,08,08,66,324,42,15,66,162,35,13,55,316,39,03,34,037,41,7*7D
$GAGSV,2,2,08,07,30,253,,34,15,149,17,02,07,123,,30,01,170,,7*73
$GAGSV,2,1,05,08,66,324,46,15,66,162,27,13,55,316,44,03,34,037,40,1*7A
$GAGSV,2,2,05,34,15,149,25,1*48
$GBGSV,3,1,12,39,66,204,42,38,66,024,43,06,54,202,28,20,51,000,41,1*79
$GBGSV,3,2,12,13,50,342,44,29,48,257,43,37,32,095,41,19,31,294,29,1*74
$GBGSV,3,3,12,30,29,186,21,46,25,158,,32,21,060,42,35,16,313,38,1*71
$GBGSV,2,1,07,38,66,024,43,39,66,204,43,20,51,000,40,29,48,257,41,4*76
$GBGSV,2,2,07,37,32,095,38,32,21,060,41,35,16,313,30,4*44
$GNGGA,094003.000,2500.7752739,N,12132.4578026,E,2,44,0.54,15.906,M,15.25,M,1,3335*45
$GNRMC,094003.000,A,2500.7752739,N,12132.4578026,E,0.01,203.42,260623,,,D,V*00
$GPHDT,269.193,T*33
$GNGGA,094003.200,2500.7752799,N,12132.4577966,E,2,43,0.54,15.909,M,15.25,M,1,3335*47
$GNRMC,094003.200,A,2500.7752799,N,12132.4577966,E,0.00,203.42,260623,,,D,V*0B
$GPHDT,269.083,T*33
$GNGGA,094003.400,2500.7752799,N,12132.4577966,E,2,44,0.54,15.907,M,15.25,M,1,3335*48
$GNRMC,094003.400,A,2500.7752799,N,12132.4577966,E,0.00,203.42,260623,,,D,V*0D
$GPHDT,269.620,T*3C
$GNGGA,094003.600,2500.7752799,N,12132.4577966,E,2,44,0.54,15.911,M,15.25,M,1,3335*4D
$GNRMC,094003.600,A,2500.7752799,N,12132.4577966,E,0.00,203.42,260623,,,D,V*0F
$GPHDT,269.357,T*39
$GNGGA,094003.800,2500.7752799,N,12132.4578026,E,2,44,0.54,15.909,M,15.25,M,0,3335*49
$GNRMC,094003.800,A,2500.7752799,N,12132.4578026,E,0.01,203.42,260623,,,D,V*02
$GPHDT,269.438,T*37
$GNGSA,A,3,196,15,199,13,05,18,29,20,11,,,,1.03,0.54,0.88,1*0E
$GNGSA,A,3,84,85,69,79,80,,,,,,,,1.03,0.54,0.88,2*09
$GNGSA,A,3,08,15,13,03,34,,,,,,,,1.03,0.54,0.88,3*0A
$GNGSA,A,3,39,38,20,13,29,37,19,32,35,,,,1.03,0.54,0.88,4*06
$GPGSV,3,1,12,196,72,046,41,15,63,339,46,199,60,167,22,13,44,029,41,1*68
$GPGSV,3,2,12,05,43,065,47,41,38,242,34,18,36,320,42,29,29,234,44,1*67
$GPGSV,3,3,12,20,27,093,39,11,19,144,28,194,16,150,24,24,,,18,1*65
$GPGSV,2,1,05,196,72,046,45,199,60,167,33,18,36,320,41,194,16,150,26,8*57
$GPGSV,2,2,05,24,,,24,8*68
$GLGSV,2,1,05,84,64,220,28,85,34,321,39,69,33,019,29,79,23,086,38,1*7C
$GLGSV,2,2,05,80,17,140,18,1*4F
$GAGSV,2,1,07,08,66,324,42,15,66,162,36,13,55,316,39,03,34,037,41,7*71
$GAGSV,2,2,07,07,30,253,,34,15,149,17,02,07,123,,7*48
$GAGSV,2,1,05,08,66,324,46,15,66,162,28,13,55,316,44,03,34,037,40,1*75
$GAGSV,2,2,05,34,15,149,25,1*48
$GBGSV,3,1,12,39,66,204,42,38,66,024,43,06,54,202,28,20,51,000,41,1*79
$GBGSV,3,2,12,13,50,342,44,29,48,257,43,37,32,095,41,19,31,294,29,1*74
$GBGSV,3,3,12,30,29,186,24,46,25,158,,32,21,060,42,35,16,313,37,1*7B
$GBGSV,2,1,07,38,66,024,43,39,66,204,43,20,51,000,40,29,48,257,41,4*76
$GBGSV,2,2,07,37,32,095,38,32,21,060,41,35,16,313,24,4*41
$GNGGA,094004.000,2500.7752859,N,12132.4577966,E,2,43,0.54,15.910,M,15.25,M,1,3335*49
$GNRMC,094004.000,A,2500.7752859,N,12132.4577966,E,0.01,203.42,260623,,,D,V*0C
$GPHDT,269.181,T*30
$GNGGA,094004.200,2500.7752859,N,12132.4578026,E,2,43,0.54,15.911,M,15.25,M,1,3335*48
$GNRMC,094004.200,A,2500.7752859,N,12132.4578026,E,0.00,203.42,260623,,,D,V*0D
$GPHDT,269.060,T*3E
$GNGGA,094004.400,2500.7752919,N,12132.4577966,E,2,43,0.54,15.910,M,15.25,M,1,3335*48
$GNRMC,094004.400,A,2500.7752919,N,12132.4577966,E,0.00,203.42,260623,,,D,V*0C
$GPHDT,269.431,T*3E
$GNGGA,094004.600,2500.7752979,N,12132.4577966,E,2,43,0.54,15.910,M,15.25,M,0,3335*4D
$GNRMC,094004.600,A,2500.7752979,N,12132.4577966,E,0.01,203.42,260623,,,D,V*09
$GPHDT,269.328,T*31
$GNGGA,094004.800,2500.7753039,N,12132.4577966,E,2,43,0.54,15.905,M,15.25,M,0,3335*4B
$GNRMC,094004.800,A,2500.7753039,N,12132.4577966,E,0.00,203.42,260623,,,D,V*0A
$GPHDT,269.837,T*34
$GNGSA,A,3,196,15,199,13,05,18,29,20,11,,,,1.03,0.54,0.88,1*0E
$GNGSA,A,3,84,85,69,79,80,,,,,,,,1.03,0.54,0.88,2*09
$GNGSA,A,3,08,15,13,03,34,,,,,,,,1.03,0.54,0.88,3*0A
$GNGSA,A,3,39,38,20,13,29,37,19,32,35,,,,1.03,0.54,0.88,4*06
$GPGSV,3,1,12,196,72,046,41,15,63,339,46,199,60,167,25,13,44,029,42,1*6C
$GPGSV,3,2,12,05,43,065,47,41,38,242,34,18,36,320,42,29,29,234,44,1*67
$GPGSV,3,3,12,20,27,093,33,11,19,144,23,194,16,150,24,24,,,19,1*65
$GPGSV,2,1,05,196,72,046,45,199,60,167,34,18,36,320,41,194,16,150,24,8*52
$GPGSV,2,2,05,24,,,24,8*68
$GLGSV,2,1,05,84,64,220,29,85,34,321,39,69,33,019,28,79,23,086,37,1*73
$GLGSV,2,2,05,80,17,140,18,1*4F
$GAGSV,2,1,07,08,66,324,42,15,66,162,36,13,55,316,39,03,34,037,41,7*71
$GAGSV,2,2,07,07,30,253,,34,15,149,16,02,07,123,,7*49
$GAGSV,2,1,05,08,66,324,46,15,66,162,27,13,55,316,44,03,34,037,40,1*7A
$GAGSV,2,2,05,34,15,149,26,1*4B
$GBGSV,3,1,12,39,66,204,42,38,66,024,42,06,54,202,28,20,51,000,41,1*78
$GBGSV,3,2,12,13,50,342,44,29,48,257,42,37,32,095,35,19,31,294,28,1*77
$GBGSV,3,3,12,30,29,186,24,46,25,158,,32,21,060,42,35,16,313,40,1*7B
$GBGSV,2,1,07,38,66,024,43,39,66,204,43,20,51,000,40,29,48,257,41,4*76
$GBGSV,2,2,07,37,32,095,34,32,21,060,41,35,16,313,30,4*48
$GNGGA,094005.000,2500.7753039,N,12132.4578026,E,2,43,0.54,15.901,M,15.25,M,1,3335*45
$GNRMC,094005.000,A,2500.7753039,N,12132.4578026,E,0.00,203.42,260623,,,D,V*01
$GPHDT,269.633,T*3E
$GNGGA,094005.200,2500.7753159,N,12132.4578026,E,2,43,0.54,15.899,M,15.25,M,1,3335*40
$GNRMC,094005.200,A,2500.7753159,N,12132.4578026,E,0.01,203.42,260623,,,D,V*05
$GPHDT,269.715,T*3B
$GNGGA,094005.400,2500.7753219,N,12132.4577966,E,2,43,0.54,15.904,M,15.25,M,1,3335*46
$GNRMC,094005.400,A,2500.7753219,N,12132.4577966,E,0.01,203.42,260623,,,D,V*06
$GPHDT,269.247,T*39
$GNGGA,094005.600,2500.7753279,N,12132.4577966,E,2,42,0.54,15.897,M,15.25,M,0,3335*49
$GNRMC,094005.600,A,2500.7753279,N,12132.4577966,E,0.01,203.42,260623,,,D,V*02
$GPHDT,269.289,T*3B
$GNGGA,094005.800,2500.7753339,N,12132.4577966,E,2,42,0.54,15.901,M,15.25,M,0,3335*4C
$GNRMC,094005.800,A,2500.7753339,N,12132.4577966,E,0.00,203.42,260623,,,D,V*08
$GPHDT,268.854,T*30
$GNGSA,A,3,196,15,199,13,05,18,29,20,,,,,1.06,0.56,0.90,1*00
$GNGSA,A,3,84,85,69,79,80,,,,,,,,1.06,0.56,0.90,2*07
$GNGSA,A,3,08,15,13,03,34,,,,,,,,1.06,0.56,0.90,3*04
$GNGSA,A,3,39,38,20,13,29,37,19,32,35,,,,1.06,0.56,0.90,4*08
$GPGSV,3,1,12,196,72,046,40,15,63,339,46,199,60,167,24,13,44,029,44,1*6A
$GPGSV,3,2,12,05,43,065,42,41,38,242,33,18,36,320,42,29,29,234,43,1*62
$GPGSV,3,3,12,20,27,093,35,11,19,144,24,194,16,150,24,24,,,21,1*6F
$GPGSV,2,1,05,196,72,046,44,199,60,167,34,18,36,320,42,194,16,150,24,8*50
$GPGSV,2,2,05,24,,,24,8*68
$GLGSV,2,1,05,84,64,220,29,85,34,321,39,69,33,019,27,79,23,086,37,1*7C
$GLGSV,2,2,05,80,17,140,18,1*4F
$GAGSV,2,1,07,08,66,324,42,15,66,162,36,13,55,316,39,03,34,037,41,7*71
$GAGSV,2,2,07,07,30,253,,34,15,149,16,02,07,123,,7*49
$GAGSV,2,1,05,08,66,324,46,15,66,162,28,13,55,316,44,03,34,037,38,1*7A
$GAGSV,2,2,05,34,15,149,26,1*4B
$GBGSV,3,1,12,39,66,204,42,38,66,024,42,06,54,202,29,20,51,000,41,1*79
$GBGSV,3,2,12,13,50,342,44,29,48,257,42,37,32,095,43,19,31,294,28,1*76
$GBGSV,3,3,12,30,29,186,25,46,25,158,23,32,21,060,38,35,16,313,40,1*76
$GBGSV,2,1,07,38,66,024,42,39,66,204,43,20,51,000,40,29,48,257,41,4*77
$GBGSV,2,2,07,37,32,095,41,32,21,060,38,35,16,313,30,4*44
$GNGGA,094006.000,2500.7753459,N,12132.4577906,E,2,42,0.56,15.898,M,15.25,M,1,3335*42
$GNRMC,094006.000,A,2500.7753459,N,12132.4577906,E,0.01,203.42,260623,,,D,V*05
$GPHDT,269.435,T*3A
$GNGGA,094006.200,2500.7753519,N,12132.4577906,E,2,42,0.56,15.895,M,15.25,M,1,3335*48
$GNRMC,094006.200,A,2500.7753519,N,12132.4577906,E,0.00,203.42,260623,,,D,V*03
$GPHDT,269.745,T*3E
$GNGGA,094006.400,2500.7753579,N,12132.4577846,E,2,42,0.56,15.900,M,15.25,M,1,3335*40
$GNRMC,094006.400,A,2500.7753579,N,12132.4577846,E,0.01,203.42,260623,,,D,V*07
$GPHDT,269.492,T*37
$GNGGA,094006.600,2500.7753579,N,12132.4577846,E,2,42,0.56,15.903,M,15.25,M,0,3335*40
$GNRMC,094006.600,A,2500.7753579,N,12132.4577846,E,0.00,203.42,260623,,,D,V*04
$GPHDT,270.256,T*31
$GNGGA,094006.800,2500.7753639,N,12132.4577786,E,2,44,0.54,15.892,M,15.25,M,0,3335*47
$GNRMC,094006.800,A,2500.7753639,N,12132.4577786,E,0.00,203.42,260623,,,D,V*0E
$GPHDT,270.495,T*38
$GNGSA,A,3,196,15,199,13,05,18,29,20,11,,,,1.03,0.54,0.88,1*0E
$GNGSA,A,3,84,85,69,79,80,,,,,,,,1.03,0.54,0.88,2*09
$GNGSA,A,3,08,15,13,03,34,,,,,,,,1.03,0.54,0.88,3*0A
$GNGSA,A,3,38,39,20,13,29,37,19,32,35,,,,1.03,0.54,0.88,4*06
$GPGSV,3,1,12,196,72,046,39,15,63,340,47,199,60,167,25,13,44,029,34,1*6D
$GPGSV,3,2,12,05,43,065,45,41,38,242,33,18,36,320,42,29,29,234,43,1*65
$GPGSV,3,3,12,20,27,093,36,11,19,144,23,194,16,150,25,24,,,22,1*69
$GPGSV,2,1,05,196,72,046,44,199,60,167,33,18,36,320,42,194,16,150,25,8*56
$GPGSV,2,2,05,24,,,24,8*68
$GLGSV,2,1,06,84,64,220,29,85,34,321,40,69,33,019,23,79,23,086,39,1*7B
$GLGSV,2,2,06,80,17,140,18,78,06,039,,1*7F
$GAGSV,2,1,07,08,66,324,42,15,66,162,36,13,55,316,38,03,34,037,38,7*7E
$GAGSV,2,2,07,07,30,253,,34,15,149,17,02,07,123,,7*48
$GAGSV,2,1,05,08,66,324,46,15,66,162,28,13,55,316,44,03,34,037,36,1*74
$GAGSV,2,2,05,34,15,149,27,1*4A
$GBGSV,3,1,12,38,66,024,41,39,66,204,42,06,54,202,28,20,51,000,40,1*7A
$GBGSV,3,2,12,13,50,342,45,29,48,257,42,37,32,095,41,19,31,294,28,1*75
$GBGSV,3,3,12,30,29,186,26,46,25,158,25,32,21,060,41,35,16,313,40,1*7D
$GBGSV,2,1,08,38,66,024,41,39,66,204,43,20,51,000,38,29,48,257,41,4*74
$GBGSV,2,2,08,37,32,095,36,19,31,294,20,32,21,060,41,35,16,313,31,4*73
$GNGGA,094007.000,2500.7753639,N,12132.4577786,E,2,44,0.54,15.896,M,15.25,M,1,3335*4B
$GNRMC,094007.000,A,2500.7753639,N,12132.4577786,E,0.00,203.42,260623,,,D,V*07
$GPHDT,269.466,T*3C
$GNGGA,094007.200,2500.7753759,N,12132.4577786,E,2,44,0.54,15.903,M,15.25,M,1,3335*43
$GNRMC,094007.200,A,2500.7753759,N,12132.4577786,E,0.01,203.42,260623,,,D,V*03
