$FW : RTK35X,V1.1X0314AS,Lib20210517,1*54
$Tool : LOCOSYS , GNSS Firebird , v1.0.0.19*39
$---------------------------------------------------*2D
AGSV,2,1,06,08,66,325,41,15,66,162,34,13,55,316,41,03,33,037,34,7*7A
$GAGSV,2,2,06,07,30,253,19,34,15,149,14,7*77
$GAGSV,2,1,06,08,66,325,46,15,66,162,28,13,55,316,44,03,33,037,32,1*75
$GAGSV,2,2,06,07,30,253,25,34,15,149,28,1*71
$GBGSV,3,1,11,38,66,024,40,39,66,204,43,06,54,202,27,20,51,000,37,1*76
$GBGSV,3,2,11,13,50,342,44,29,48,257,43,37,32,094,42,19,31,295,24,1*79
$GBGSV,3,3,11,46,25,158,27,32,21,060,36,35,16,312,37,1*4E
$GBGSV,2,1,08,38,66,024,40,39,66,204,42,20,51,000,39,29,48,257,41,4*75
$GBGSV,2,2,08,37,32,094,40,19,31,295,22,32,21,060,33,35,16,312,35,4*70
$GNGGA,094051.000,2500.7755619,N,12132.4581013,E,4,46,0.53,15.924,M,15.25,M,1,3335*45
$GNRMC,094051.000,A,2500.7755619,N,12132.4581013,E,0.02,203.42,260623,,,R,V*16
$GPHDT,,T*1B
$GNGGA,094051.200,2500.7755629,N,12132.4580982,E,4,46,0.53,15.926,M,15.25,M,1,3335*46
$GNRMC,094051.200,A,2500.7755629,N,12132.4580982,E,0.02,203.42,260623,,,R,V*17
$GPHDT,,T*1B
$GNGGA,094051.400,2500.7755639,N,12132.4580991,E,4,46,0.53,15.914,M,15.25,M,1,3335*42
$GNRMC,094051.400,A,2500.7755639,N,12132.4580991,E,0.02,203.42,260623,,,R,V*12
$GPHDT,,T*1B
$GNGGA,094051.600,2500.7755638,N,12132.4580948,E,4,46,0.53,15.935,M,15.25,M,0,3335*47
$GNRMC,094051.600,A,2500.7755638,N,12132.4580948,E,0.05,203.42,260623,,,R,V*12
$GPHDT,,T*1B
$GNGGA,094051.800,2500.7755627,N,12132.4580994,E,4,44,0.54,15.925,M,15.25,M,0,3335*42
$GNRMC,094051.800,A,2500.7755627,N,12132.4580994,E,0.05,203.42,260623,,,R,V*13
$GPHDT,,T*1B
$GNGSA,A,3,196,15,199,13,05,18,29,20,11,,,,0.87,0.56,0.67,1*00
$GNGSA,A,3,84,85,69,79,,,,,,,,,0.87,0.56,0.67,2*0F
$GNGSA,A,3,08,15,13,03,34,,,,,,,,0.87,0.56,0.67,3*04
$GNGSA,A,3,38,39,20,13,29,37,19,32,35,,,,0.87,0.56,0.67,4*08
$GPGSV,4,1,13,196,72,047,40,15,63,340,45,199,60,167,24,13,44,029,44,1*60
$GPGSV,4,2,13,05,43,066,26,41,38,242,38,18,37,320,41,29,28,234,41,1*6F
$GPGSV,4,3,13,20,26,093,25,11,19,144,26,194,16,150,23,24,,,18,1*66
$GPGSV,4,4,13,195,,,28,1*51
$GPGSV,2,1,06,196,72,047,44,199,60,167,34,18,37,320,44,11,19,144,31,8*67
$GPGSV,2,2,06,194,16,150,23,24,,,22,8*63
$GLGSV,2,1,05,84,64,220,33,85,34,321,40,69,33,020,21,79,23,086,35,1*77
$GLGSV,2,2,05,80,17,140,15,1*42
$GAGSV,2,1,06,08,66,325,42,15,66,162,34,13,55,316,41,03,33,037,34,7*79
$GAGSV,2,2,06,07,30,253,19,34,15,149,15,7*76
$GAGSV,2,1,06,08,66,325,46,15,66,162,28,13,55,316,44,03,33,037,33,1*74
$GAGSV,2,2,06,07,30,253,25,34,15,149,28,1*71
$GBGSV,3,1,11,38,66,024,41,39,66,204,43,06,54,202,28,20,51,000,37,1*78
$GBGSV,3,2,11,13,50,342,44,29,48,257,43,37,32,094,42,19,31,295,24,1*79
$GBGSV,3,3,11,46,25,158,19,32,21,060,33,35,16,312,37,1*46
$GBGSV,2,1,08,38,66,024,41,39,66,204,42,20,51,000,39,29,48,257,41,4*74
$GBGSV,2,2,08,37,32,094,40,19,31,295,22,32,21,060,35,35,16,312,34,4*77
$GNGGA,094052.000,2500.7755640,N,12132.4580959,E,4,44,0.56,15.918,M,15.25,M,1,3335*44
$GNRMC,094052.000,A,2500.7755640,N,12132.4580959,E,0.05,203.42,260623,,,R,V*18
$GPHDT,,T*1B
$GNGGA,094052.200,2500.7755632,N,12132.4580986,E,4,44,0.56,15.921,M,15.25,M,1,3335*4B
$GNRMC,094052.200,A,2500.7755632,N,12132.4580986,E,0.02,203.42,260623,,,R,V*1A
$GPHDT,,T*1B
$GNGGA,094052.400,2500.7755599,N,12132.4581036,E,4,45,0.54,15.924,M,15.25,M,1,3335*4A
$GNRMC,094052.400,A,2500.7755599,N,12132.4581036,E,0.04,203.42,260623,,,R,V*1B
$GPHDT,,T*1B
$GNGGA,094052.600,2500.7755654,N,12132.4580949,E,4,45,0.54,15.947,M,15.25,M,0,3335*4E
$GNRMC,094052.600,A,2500.7755654,N,12132.4580949,E,0.04,203.42,260623,,,R,V*1B
$GPHDT,,T*1B
$GNGGA,094052.800,2500.7755623,N,12132.4580962,E,4,45,0.54,15.941,M,15.25,M,0,3335*4F
$GNRMC,094052.800,A,2500.7755623,N,12132.4580962,E,0.03,203.42,260623,,,R,V*1B
$GPHDT,,T*1B
$GNGSA,A,3,196,15,199,13,05,18,29,11,,,,,0.86,0.54,0.67,1*01
$GNGSA,A,3,84,85,69,79,,,,,,,,,0.86,0.54,0.67,2*0C
$GNGSA,A,3,08,15,13,03,34,,,,,,,,0.86,0.54,0.67,3*07
$GNGSA,A,3,38,39,20,13,29,37,19,46,32,35,,,0.86,0.54,0.67,4*09
$GPGSV,4,1,13,196,72,047,41,15,63,340,45,199,60,167,26,13,44,029,42,1*65
$GPGSV,4,2,13,05,43,066,43,41,38,242,38,18,37,320,40,29,28,234,41,1*6D
$GPGSV,4,3,13,20,26,093,22,11,19,144,28,194,16,150,23,24,,,17,1*60
$GPGSV,4,4,13,195,,,28,1*51
$GPGSV,2,1,06,196,72,047,45,199,60,167,34,18,37,320,44,11,19,144,30,8*67
$GPGSV,2,2,06,194,16,150,22,24,,,21,8*61
$GLGSV,2,1,05,84,64,220,31,85,34,321,40,69,33,020,23,79,23,086,33,1*71
$GLGSV,2,2,05,80,17,140,17,1*40
$GAGSV,2,1,06,08,66,325,42,15,66,162,34,13,55,316,41,03,33,037,35,7*78
$GAGSV,2,2,06,07,30,253,19,34,15,149,15,7*76
$GAGSV,2,1,06,08,66,325,46,15,66,162,28,13,55,316,44,03,33,037,33,1*74
$GAGSV,2,2,06,07,30,253,25,34,15,149,28,1*71
$GBGSV,3,1,11,38,66,024,42,39,66,204,43,06,54,202,28,20,51,000,39,1*75
$GBGSV,3,2,11,13,50,342,44,29,48,257,43,37,32,094,43,19,31,295,24,1*78
$GBGSV,3,3,11,46,25,158,25,32,21,060,38,35,16,312,35,1*40
$GBGSV,3,1,09,38,66,024,41,39,66,204,42,20,51,000,39,29,48,257,41,4*74
$GBGSV,3,2,09,37,32,094,38,19,31,295,22,46,25,158,27,32,21,060,37,4*70
$GBGSV,3,3,09,35,16,312,36,4*4E
$GNGGA,094053.000,2500.7755622,N,12132.4580904,E,4,45,0.54,15.932,M,15.25,M,1,3335*42
$GNRMC,094053.000,A,2500.7755622,N,12132.4580904,E,0.04,203.42,260623,,,R,V*14
$GPHDT,,T*1B
$GNGGA,094053.200,2500.7755637,N,12132.4580930,E,4,45,0.54,15.930,M,15.25,M,1,3335*41
$GNRMC,094053.200,A,2500.7755637,N,12132.4580930,E,0.04,203.42,260623,,,R,V*15
$GPHDT,,T*1B
$GNGGA,094053.400,2500.7755642,N,12132.4580918,E,4,45,0.54,15.925,M,15.25,M,1,3335*4B
$GNRMC,094053.400,A,2500.7755642,N,12132.4580918,E,0.03,203.42,260623,,,R,V*1C
$GPHDT,,T*1B
$GNGGA,094053.600,2500.7755647,N,12132.4580959,E,4,45,0.54,15.937,M,15.25,M,0,3335*4B
$GNRMC,094053.600,A,2500.7755647,N,12132.4580959,E,0.03,203.42,260623,,,R,V*1E
$GPHDT,,T*1B
$GNGGA,094053.800,2500.7755645,N,12132.4580929,E,4,46,0.54,15.934,M,15.25,M,0,3335*40
$GNRMC,094053.800,A,2500.7755645,N,12132.4580929,E,0.04,203.42,260623,,,R,V*12
$GPHDT,,T*1B
$GNGSA,A,3,196,15,199,13,05,18,29,20,11,,,,0.86,0.54,0.67,1*03
$GNGSA,A,3,84,85,69,79,,,,,,,,,0.86,0.54,0.67,2*0C
$GNGSA,A,3,08,15,13,03,34,,,,,,,,0.86,0.54,0.67,3*07
$GNGSA,A,3,38,39,20,13,29,37,19,46,32,35,,,0.86,0.54,0.67,4*09
$GPGSV,4,1,13,196,72,047,41,15,63,340,45,199,60,167,25,13,44,029,41,1*65
$GPGSV,4,2,13,05,43,066,43,41,38,242,38,18,37,320,41,29,28,234,41,1*6C
$GPGSV,4,3,13,20,26,093,22,11,19,144,25,194,16,150,24,24,,,17,1*6A
$GPGSV,4,4,13,195,,,28,1*51
$GPGSV,2,1,06,196,72,047,46,199,60,167,34,18,37,320,44,11,19,144,31,8*65
$GPGSV,2,2,06,194,16,150,24,24,,,21,8*67
$GLGSV,2,1,05,84,64,220,31,85,34,321,40,69,33,020,25,79,23,086,34,1*70
$GLGSV,2,2,05,80,17,140,18,1*4F
$GAGSV,2,1,06,08,66,325,42,15,66,162,34,13,55,316,41,03,33,037,35,7*78
$GAGSV,2,2,06,07,30,253,19,34,15,149,16,7*75
$GAGSV,2,1,06,08,66,325,46,15,66,162,30,13,55,316,44,03,33,037,34,1*7A
$GAGSV,2,2,06,07,30,253,26,34,15,149,28,1*72
$GBGSV,3,1,11,38,66,024,42,39,66,204,43,06,54,202,28,20,51,000,39,1*75
$GBGSV,3,2,11,13,50,342,44,29,48,257,43,37,32,094,42,19,31,295,25,1*78
$GBGSV,3,3,11,46,25,158,25,32,21,060,41,35,16,312,36,1*4D
$GBGSV,3,1,09,38,66,024,42,39,66,204,42,20,51,000,39,29,48,257,41,4*77
$GBGSV,3,2,09,37,32,094,38,19,31,295,23,46,25,158,14,32,21,060,38,4*7E
$GBGSV,3,3,09,35,16,312,35,4*4D
$GNGGA,094054.000,2500.7755636,N,12132.4580926,E,4,46,0.54,15.937,M,15.25,M,1,3335*46
$GNRMC,094054.000,A,2500.7755636,N,12132.4580926,E,0.02,203.42,260623,,,R,V*10
$GPHDT,,T*1B
$GNGGA,094054.200,2500.7755644,N,12132.4580919,E,4,46,0.54,15.929,M,15.25,M,1,3335*42
$GNRMC,094054.200,A,2500.7755644,N,12132.4580919,E,0.02,203.42,260623,,,R,V*1B
$GPHDT,,T*1B
$GNGGA,094054.400,2500.7755656,N,12132.4580916,E,4,46,0.54,15.934,M,15.25,M,1,3335*44
$GNRMC,094054.400,A,2500.7755656,N,12132.4580916,E,0.03,203.42,260623,,,R,V*10
$GPHDT,,T*1B
$GNGGA,094054.600,2500.7755627,N,12132.4580954,E,4,47,0.53,15.933,M,15.25,M,1,3335*47
$GNRMC,094054.600,A,2500.7755627,N,12132.4580954,E,0.02,203.42,260623,,,R,V*13
$GPHDT,,T*1B
$GNGGA,094054.800,2500.7755608,N,12132.4580972,E,4,47,0.53,15.927,M,15.25,M,1,3335*45
$GNRMC,094054.800,A,2500.7755608,N,12132.4580972,E,0.01,203.42,260623,,,R,V*17
$GPHDT,,T*1B
$GNGSA,A,3,196,15,199,13,05,18,29,20,11,,,,0.85,0.53,0.66,1*06
$GNGSA,A,3,84,85,69,79,80,,,,,,,,0.85,0.53,0.66,2*01
$GNGSA,A,3,08,15,13,03,34,,,,,,,,0.85,0.53,0.66,3*02
$GNGSA,A,3,38,39,20,13,29,37,19,46,32,35,,,0.85,0.53,0.66,4*0C
$GPGSV,4,1,13,196,72,047,41,15,63,340,45,199,60,167,25,13,44,029,41,1*65
$GPGSV,4,2,13,05,43,066,43,41,38,242,38,18,37,320,41,29,28,234,41,1*6C
$GPGSV,4,3,13,20,26,093,22,11,19,144,26,194,16,150,23,24,,,17,1*6E
$GPGSV,4,4,13,195,,,29,1*50
$GPGSV,2,1,06,196,72,047,46,199,60,167,34,18,37,320,44,11,19,144,29,8*6C
$GPGSV,2,2,06,194,16,150,22,24,,,20,8*60
$GLGSV,2,1,05,84,64,220,31,85,34,321,40,69,33,020,25,79,23,086,33,1*77
$GLGSV,2,2,05,80,17,140,24,1*40
$GAGSV,2,1,06,08,66,325,42,15,66,162,34,13,55,316,42,03,33,037,35,7*7B
$GAGSV,2,2,06,07,30,253,19,34,15,149,16,7*75
$GAGSV,2,1,06,08,66,325,46,15,66,162,31,13,55,316,44,03,33,037,34,1*7B
$GAGSV,2,2,06,07,30,253,26,34,15,149,28,1*72
$GBGSV,3,1,11,38,66,024,42,39,66,204,43,06,54,202,28,20,51,000,39,1*75
$GBGSV,3,2,11,13,50,342,44,29,48,257,43,37,32,094,42,19,31,295,25,1*78
$GBGSV,3,3,11,46,25,158,24,32,21,060,41,35,16,312,35,1*4F
$GBGSV,3,1,09,38,66,024,42,39,66,204,42,20,51,000,39,29,48,257,41,4*77
$GBGSV,3,2,09,37,32,094,37,19,31,295,23,46,25,158,27,32,21,060,38,4*71
$GBGSV,3,3,09,35,16,312,34,4*4C
$GNGGA,094055.000,2500.7755574,N,12132.4581018,E,4,47,0.53,15.950,M,15.25,M,2,3335*43
$GNRMC,094055.000,A,2500.7755574,N,12132.4581018,E,0.01,203.42,260623,,,R,V*12
$GPHDT,,T*1B
$GNGGA,094055.200,2500.7755616,N,12132.4580998,E,4,47,0.53,15.945,M,15.25,M,2,3335*42
$GNRMC,094055.200,A,2500.7755616,N,12132.4580998,E,0.03,203.42,260623,,,R,V*15
$GPHDT,,T*1B
$GNGGA,094055.400,2500.7755620,N,12132.4580997,E,4,47,0.53,15.940,M,15.25,M,2,3335*4B
$GNRMC,094055.400,A,2500.7755620,N,12132.4580997,E,0.04,203.42,260623,,,R,V*1E
$GPHDT,,T*1B
$GNGGA,094055.600,2500.7755573,N,12132.4581083,E,4,47,0.53,15.905,M,15.25,M,2,3335*40
$GNRMC,094055.600,A,2500.7755573,N,12132.4581083,E,0.03,203.42,260623,,,R,V*13
$GPHDT,,T*1B
$GNGGA,094055.800,2500.7755623,N,12132.4580889,E,4,46,0.54,15.991,M,15.25,M,2,3335*40
$GNRMC,094055.800,A,2500.7755623,N,12132.4580889,E,0.03,203.42,260623,,,R,V*18
$GPHDT,,T*1B
$GNGSA,A,3,196,15,199,13,05,18,29,11,,,,,0.85,0.54,0.66,1*03
$GNGSA,A,3,84,85,69,79,80,,,,,,,,0.85,0.54,0.66,2*06
$GNGSA,A,3,08,15,13,03,34,,,,,,,,0.85,0.54,0.66,3*05
$GNGSA,A,3,38,39,20,13,29,37,19,46,32,35,,,0.85,0.54,0.66,4*0B
$GPGSV,4,1,13,196,72,047,41,15,63,340,45,199,60,167,25,13,44,029,44,1*60
$GPGSV,4,2,13,05,43,066,28,41,38,242,38,18,37,320,41,29,28,234,41,1*61
$GPGSV,4,3,13,20,26,093,23,11,19,144,25,194,16,150,24,24,,,17,1*6B
$GPGSV,4,4,13,195,,,28,1*51
$GPGSV,2,1,06,196,72,047,46,199,60,167,33,18,37,320,44,11,19,144,29,8*6B
$GPGSV,2,2,06,194,16,150,22,24,,,21,8*61
$GLGSV,2,1,05,84,64,219,31,85,34,320,40,69,33,020,26,79,23,086,32,1*7E
$GLGSV,2,2,05,80,17,140,19,1*4E
$GAGSV,2,1,06,08,66,325,41,15,66,162,34,13,55,316,41,03,33,037,34,7*7A
$GAGSV,2,2,06,07,30,253,20,34,15,149,16,7*7F
$GAGSV,2,1,06,08,66,325,46,15,66,162,31,13,55,316,44,03,33,037,34,1*7B
$GAGSV,2,2,06,07,30,253,26,34,15,149,28,1*72
$GBGSV,3,1,11,38,66,024,43,39,66,204,43,06,54,202,27,20,51,000,39,1*7B
$GBGSV,3,2,11,13,50,342,44,29,48,257,42,37,32,094,41,19,31,295,24,1*7B
$GBGSV,3,3,11,46,25,158,27,32,21,060,35,35,16,312,34,1*4E
$GBGSV,3,1,09,38,66,024,42,39,66,204,42,20,51,000,39,29,48,257,41,4*77
$GBGSV,3,2,09,37,32,094,38,19,31,295,21,46,25,158,31,32,21,060,36,4*75
$GBGSV,3,3,09,35,16,312,33,4*4B
$GNGGA,094056.000,2500.7755678,N,12132.4580805,E,4,46,0.54,16.022,M,15.25,M,3,3335*42
$GNRMC,094056.000,A,2500.7755678,N,12132.4580805,E,0.03,203.42,260623,,,R,V*19
$GPHDT,,T*1B
$GNGGA,094056.200,2500.7755645,N,12132.4580912,E,4,46,0.54,15.951,M,15.25,M,3,3335*47
$GNRMC,094056.200,A,2500.7755645,N,12132.4580912,E,0.03,203.42,260623,,,R,V*12
$GPHDT,,T*1B
$GNGGA,094056.400,2500.7755605,N,12132.4580939,E,4,46,0.54,15.945,M,15.25,M,3,3335*49
$GNRMC,094056.400,A,2500.7755605,N,12132.4580939,E,0.02,203.42,260623,,,R,V*18
$GPHDT,,T*1B
$GNGGA,094056.600,2500.7755679,N,12132.4580897,E,4,46,0.54,15.944,M,15.25,M,3,3335*44
$GNRMC,094056.600,A,2500.7755679,N,12132.4580897,E,0.02,203.42,260623,,,R,V*14
$GPHDT,,T*1B
$GNGGA,094056.800,2500.7755606,N,12132.4580929,E,4,46,0.54,15.938,M,15.25,M,3,3335*4D
$GNRMC,094056.800,A,2500.7755606,N,12132.4580929,E,0.03,203.42,260623,,,R,V*17
$GPHDT,,T*1B
$GNGSA,A,3,196,15,199,13,05,18,29,20,11,,,,0.85,0.53,0.66,1*06
$GNGSA,A,3,84,85,69,79,80,,,,,,,,0.85,0.53,0.66,2*01
$GNGSA,A,3,08,15,13,03,34,,,,,,,,0.85,0.53,0.66,3*02
$GNGSA,A,3,39,38,20,13,29,37,19,46,32,35,,,0.85,0.53,0.66,4*0C
$GPGSV,4,1,13,196,72,047,41,15,63,340,45,199,60,167,26,13,44,029,46,1*61
$GPGSV,4,2,13,05,43,066,29,41,38,242,38,18,37,320,41,29,28,234,41,1*60
$GPGSV,4,3,13,20,26,093,22,11,19,144,28,194,16,150,24,24,,,17,1*67
$GPGSV,4,4,13,195,,,27,1*5E
$GPGSV,2,1,06,196,72,047,46,199,60,167,33,18,37,320,44,11,19,144,31,8*62
$GPGSV,2,2,06,194,16,150,21,24,,,20,8*63
$GLGSV,2,1,05,84,64,219,32,85,34,320,39,69,33,020,27,79,23,086,34,1*74
$GLGSV,2,2,05,80,17,140,22,1*46
$GAGSV,2,1,06,08,66,325,41,15,66,162,34,13,55,316,41,03,33,037,35,7*7B
$GAGSV,2,2,06,07,30,253,21,34,15,149,14,7*7C
$GAGSV,2,1,06,08,66,325,46,15,66,162,31,13,55,316,44,03,33,037,34,1*7B
$GAGSV,2,2,06,07,30,253,26,34,15,149,29,1*73
$GBGSV,3,1,12,39,66,204,43,38,66,024,44,06,54,202,27,20,51,000,39,1*7F
$GBGSV,3,2,12,13,50,342,44,29,48,257,42,09,38,205,,37,32,094,41,1*7F
$GBGSV,3,3,12,19,31,295,22,46,25,158,26,32,21,060,35,35,16,312,35,1*79
$GBGSV,3,1,09,38,66,024,42,39,66,204,42,20,51,000,39,29,48,257,41,4*77
$GBGSV,3,2,09,37,32,094,39,19,31,295,21,46,25,158,30,32,21,060,36,4*75
$GBGSV,3,3,09,35,16,312,35,4*4D
$GNGGA,094057.000,2500.7755612,N,12132.4580982,E,4,47,0.53,15.927,M,15.25,M,3,3335*48
$GNRMC,094057.000,A,2500.7755612,N,12132.4580982,E,0.03,203.42,260623,,,R,V*1A
$GPHDT,,T*1B
$GNGGA,094057.200,2500.7755645,N,12132.4580928,E,4,47,0.53,15.940,M,15.25,M,1,3335*4B
$GNRMC,094057.200,A,2500.7755645,N,12132.4580928,E,0.04,203.42,260623,,,R,V*1D
$GPHDT,,T*1B
$GNGGA,094057.400,2500.7755606,N,12132.4580966,E,4,47,0.53,15.925,M,15.25,M,1,3335*43
$GNRMC,094057.400,A,2500.7755606,N,12132.4580966,E,0.03,203.42,260623,,,R,V*11
$GPHDT,,T*1B
$GNGGA,094057.600,2500.7755590,N,12132.4580942,E,4,47,0.53,15.931,M,15.25,M,1,3335*4E
$GNRMC,094057.600,A,2500.7755590,N,12132.4580942,E,0.03,203.42,260623,,,R,V*19
$GPHDT,,T*1B
$GNGGA,094057.800,2500.7755592,N,12132.4580946,E,4,46,0.54,15.939,M,15.25,M,0,3335*49
$GNRMC,094057.800,A,2500.7755592,N,12132.4580946,E,0.05,203.42,260623,,,R,V*17
$GPHDT,,T*1B
$GNGSA,A,3,196,15,199,13,05,18,29,11,,,,,0.85,0.54,0.66,1*03
$GNGSA,A,3,84,85,69,79,80,,,,,,,,0.85,0.54,0.66,2*06
$GNGSA,A,3,08,15,13,03,34,,,,,,,,0.85,0.54,0.66,3*05
$GNGSA,A,3,39,38,20,13,29,37,19,46,32,35,,,0.85,0.54,0.66,4*0B
$GPGSV,4,1,13,196,72,047,41,15,63,340,45,199,60,167,26,13,44,029,46,1*61
$GPGSV,4,2,13,05,43,066,33,41,38,242,38,18,37,320,41,29,28,234,41,1*6B
$GPGSV,4,3,13,20,26,093,22,11,19,144,29,194,16,150,24,24,,,17,1*66
$GPGSV,4,4,13,195,,,28,1*51
$GPGSV,2,1,06,196,72,047,46,199,60,167,33,18,37,320,44,11,19,144,31,8*62
$GPGSV,2,2,06,194,16,150,22,24,,,20,8*60
$GLGSV,2,1,07,84,64,219,32,70,34,301,,85,34,320,38,69,33,020,28,1*7C
$GLGSV,2,2,07,79,23,086,34,80,17,140,21,83,11,170,,1*4C
$GAGSV,2,1,06,08,66,325,41,15,66,162,34,13,55,316,41,03,33,037,35,7*7B
$GAGSV,2,2,06,07,30,253,21,34,15,149,12,7*7A
$GAGSV,2,1,06,08,66,325,46,15,66,162,31,13,55,316,44,03,33,037,37,1*78
$GAGSV,2,2,06,07,30,253,26,34,15,149,28,1*72
$GBGSV,3,1,11,39,66,204,43,38,66,024,44,06,54,202,27,20,51,000,39,1*7C
$GBGSV,3,2,11,13,50,342,44,29,48,257,42,37,32,094,41,19,31,295,21,1*7E
$GBGSV,3,3,11,46,25,158,27,32,21,060,35,35,16,312,36,1*4C
$GBGSV,3,1,09,38,66,024,42,39,66,204,42,20,51,000,39,29,48,257,41,4*77
$GBGSV,3,2,09,37,32,094,39,19,31,295,22,46,25,158,28,32,21,060,37,4*7E
$GBGSV,3,3,09,35,16,312,35,4*4D
$GNGGA,094058.000,2500.7755594,N,12132.4580941,E,4,46,0.54,15.937,M,15.25,M,1,3335*40
$GNRMC,094058.000,A,2500.7755594,N,12132.4580941,E,0.06,203.42,260623,,,R,V*12
$GPHDT,,T*1B
$GNGGA,094058.200,2500.7755613,N,12132.4580955,E,4,46,0.54,15.941,M,15.25,M,1,3335*4A
$GNRMC,094058.200,A,2500.7755613,N,12132.4580955,E,0.02,203.42,260623,,,R,V*1D
$GPHDT,,T*1B
$GNGGA,094058.400,2500.7755617,N,12132.4580932,E,4,46,0.54,15.939,M,15.25,M,1,3335*46
$GNRMC,094058.400,A,2500.7755617,N,12132.4580932,E,0.02,203.42,260623,,,R,V*1E
$GPHDT,,T*1B
$GNGGA,094058.600,2500.7755636,N,12132.4580912,E,4,46,0.54,15.943,M,15.25,M,1,3335*48
$GNRMC,094058.600,A,2500.7755636,N,12132.4580912,E,0.02,203.42,260623,,,R,V*1D
$GPHDT,,T*1B
$GNGGA,094058.800,2500.7755620,N,12132.4580918,E,4,46,0.54,15.935,M,15.25,M,1,3335*4A
$GNRMC,094058.800,A,2500.7755620,N,12132.4580918,E,0.05,203.42,260623,,,R,V*19
$GPHDT,,T*1B
$GNGSA,A,3,196,15,199,13,05,18,29,11,,,,,0.85,0.54,0.66,1*03
$GNGSA,A,3,84,85,69,79,80,,,,,,,,0.85,0.54,0.66,2*06
$GNGSA,A,3,08,15,13,03,34,,,,,,,,0.85,0.54,0.66,3*05
$GNGSA,A,3,39,38,20,13,29,37,19,46,32,35,,,0.85,0.54,0.66,4*0B
$GPGSV,4,1,13,196,72,047,41,15,63,340,45,199,60,167,26,13,44,029,46,1*61
$GPGSV,4,2,13,05,43,066,33,41,38,242,38,18,37,320,41,29,28,234,41,1*6B
$GPGSV,4,3,13,20,26,093,25,11,19,144,26,194,16,150,23,24,,,16,1*68
$GPGSV,4,4,13,195,,,28,1*51
$GPGSV,2,1,06,196,72,047,46,199,60,167,33,18,37,320,44,11,19,144,31,8*62
$GPGSV,2,2,06,194,16,150,22,24,,,21,8*61
$GLGSV,2,1,05,84,64,219,32,85,34,320,38,69,33,020,30,79,23,086,35,1*72
$GLGSV,2,2,05,80,17,140,21,1*45
$GAGSV,2,1,06,08,66,325,41,15,66,162,34,13,55,316,41,03,33,037,36,7*78
$GAGSV,2,2,06,07,30,253,21,34,15,149,12,7*7A
$GAGSV,2,1,06,08,66,325,46,15,66,162,31,13,55,316,44,03,33,037,37,1*78
$GAGSV,2,2,06,07,30,253,26,34,15,149,28,1*72
$GBGSV,3,1,12,39,66,204,43,38,66,024,44,06,54,202,27,20,51,000,39,1*7F
$GBGSV,3,2,12,13,51,342,44,29,48,257,42,37,32,094,41,19,31,295,21,1*7C
$GBGSV,3,3,12,46,25,158,27,32,21,060,35,35,16,312,36,10,11,213,,1*7E
$GBGSV,3,1,09,38,66,024,42,39,66,204,42,20,51,000,38,29,48,257,41,4*76
$GBGSV,3,2,09,37,32,094,39,19,31,295,22,46,25,158,28,32,21,060,37,4*7E
$GBGSV,3,3,09,35,16,312,35,4*4D
$GNGGA,094059.000,2500.7755625,N,12132.4580930,E,4,46,0.54,15.943,M,15.25,M,2,3335*4E
$GNRMC,094059.000,A,2500.7755625,N,12132.4580930,E,0.05,203.42,260623,,,R,V*1F
$GPHDT,,T*1B
$GNGGA,094059.200,2500.7755646,N,12132.4580934,E,4,46,0.54,15.939,M,15.25,M,1,3335*43
$GNRMC,094059.200,A,2500.7755646,N,12132.4580934,E,0.04,203.42,260623,,,R,V*1D
$GPHDT,,T*1B
$GNGGA,094059.400,2500.7755645,N,12132.4580927,E,4,46,0.54,15.943,M,15.25,M,1,3335*49
$GNRMC,094059.400,A,2500.7755645,N,12132.4580927,E,0.04,203.42,260623,,,R,V*1A
$GPHDT,,T*1B
$GNGGA,094059.600,2500.7755648,N,12132.4580922,E,4,46,0.54,15.941,M,15.25,M,1,3335*41
$GNRMC,094059.600,A,2500.7755648,N,12132.4580922,E,0.05,203.42,260623,,,R,V*11
$GPHDT,,T*1B
$GNGGA,094059.800,2500.7755640,N,12132.4580950,E,4,46,0.54,15.939,M,15.25,M,1,3335*4D
$GNRMC,094059.800,A,2500.7755640,N,12132.4580950,E,0.02,203.42,260623,,,R,V*15
$GPHDT,,T*1B
$GNGSA,A,3,196,15,199,13,05,18,29,11,,,,,0.85,0.54,0.66,1*03
$GNGSA,A,3,84,85,69,79,80,,,,,,,,0.85,0.54,0.66,2*06
$GNGSA,A,3,08,15,13,03,34,,,,,,,,0.85,0.54,0.66,3*05
$GNGSA,A,3,39,38,13,20,29,37,19,46,32,35,,,0.85,0.54,0.66,4*0B
$GPGSV,4,1,13,196,72,047,41,15,63,340,46,199,60,167,26,13,44,029,46,1*62
$GPGSV,4,2,13,05,43,066,33,41,38,242,38,18,37,320,41,29,28,234,41,1*6B
$GPGSV,4,3,13,20,26,093,25,11,19,144,27,194,16,150,23,24,,,16,1*69
$GPGSV,4,4,13,195,,,28,1*51
$GPGSV,2,1,06,196,72,047,46,199,60,167,33,18,37,320,44,11,19,144,31,8*62
$GPGSV,2,2,06,194,16,150,23,24,,,21,8*60
$GLGSV,2,1,05,84,64,219,32,85,34,320,38,69,33,020,30,79,23,086,36,1*71
$GLGSV,2,2,05,80,17,140,19,1*4E
$GAGSV,2,1,07,08,66,325,41,15,66,162,34,13,55,316,41,03,33,037,36,7*79
$GAGSV,2,2,07,07,30,253,21,34,15,149,12,02,07,123,,7*4E
$GAGSV,2,1,06,08,66,325,46,15,66,162,31,13,55,316,44,03,33,037,37,1*78
$GAGSV,2,2,06,07,30,253,25,34,15,149,28,1*71
$GBGSV,4,1,13,39,66,204,43,38,66,024,44,06,54,202,27,13,51,342,44,1*76
$GBGSV,4,2,13,20,51,000,39,29,48,257,42,37,32,094,41,19,31,295,21,1*75
$GBGSV,4,3,13,46,25,158,28,32,21,060,35,35,16,312,36,10,11,213,,1*77
$GBGSV,4,4,13,07,10,202,,1*42
$GBGSV,3,1,09,38,66,024,42,39,66,204,42,20,51,000,37,29,48,257,41,4*79
$GBGSV,3,2,09,37,32,094,39,19,31,295,22,46,25,158,29,32,21,060,37,4*7F
$GBGSV,3,3,09,35,16,312,35,4*4D
$GNGGA,094100.000,2500.7755635,N,12132.4580913,E,4,46,0.54,15.945,M,15.25,M,2,3335*45
$GNRMC,094100.000,A,2500.7755635,N,12132.4580913,E,0.03,203.42,260623,,,R,V*14
$GPHDT,,T*1B
$GNGGA,094100.200,2500.7755634,N,12132.4580928,E,4,46,0.54,15.931,M,15.25,M,2,3335*4D
$GNRMC,094100.200,A,2500.7755634,N,12132.4580928,E,0.03,203.42,260623,,,R,V*1F
$GPHDT,,T*1B
$GNGGA,094100.400,2500.7755628,N,12132.4580939,E,4,46,0.54,15.934,M,15.25,M,2,3335*43
$GNRMC,094100.400,A,2500.7755628,N,12132.4580939,E,0.02,203.42,260623,,,R,V*15
$GPHDT,,T*1B
$GNGGA,094100.600,2500.7755619,N,12132.4580924,E,4,46,0.54,15.931,M,15.25,M,2,3335*4A
$GNRMC,094100.600,A,2500.7755619,N,12132.4580924,E,0.02,203.42,260623,,,R,V*19
$GPHDT,,T*1B
$GNGGA,094100.800,2500.7755626,N,12132.4580967,E,4,46,0.54,15.912,M,15.25,M,2,3335*4E
$GNRMC,094100.800,A,2500.7755626,N,12132.4580967,E,0.04,203.42,260623,,,R,V*1A
$GPHDT,,T*1B
$GNGSA,A,3,196,15,199,13,05,18,29,11,,,,,0.85,0.54,0.66,1*03
$GNGSA,A,3,84,85,69,79,80,,,,,,,,0.85,0.54,0.66,2*06
$GNGSA,A,3,08,15,13,03,34,,,,,,,,0.85,0.54,0.66,3*05
$GNGSA,A,3,39,38,13,20,29,37,19,46,32,35,,,0.85,0.54,0.66,4*0B
$GPGSV,4,1,13,196,72,047,40,15,63,340,45,199,60,167,25,13,44,029,45,1*60
$GPGSV,4,2,13,05,43,066,22,41,38,242,38,18,37,320,41,29,28,234,41,1*6B
$GPGSV,4,3,13,20,26,093,,11,19,144,26,194,16,150,23,24,,,16,1*6F
$GPGSV,4,4,13,195,,,28,1*51
$GPGSV,2,1,06,196,72,047,46,199,60,167,34,18,37,320,44,11,19,144,32,8*66
$GPGSV,2,2,06,194,16,150,23,24,,,23,8*62
$GLGSV,2,1,05,84,64,219,32,85,34,320,39,69,33,020,30,79,23,086,36,1*70
$GLGSV,2,2,05,80,17,140,21,1*45
$GAGSV,2,1,07,08,66,325,41,15,66,162,34,13,55,316,42,03,33,037,36,7*7A
$GAGSV,2,2,07,07,30,253,20,34,15,149,12,02,07,123,,7*4F
$GAGSV,2,1,06,08,66,325,46,15,66,162,30,13,55,316,44,03,33,037,36,1*78
$GAGSV,2,2,06,07,30,253,25,34,15,149,28,1*71
$GBGSV,3,1,11,39,66,204,43,38,66,024,41,06,54,202,28,13,51,342,44,1*79
$GBGSV,3,2,11,20,51,000,39,29,48,257,42,37,32,094,42,19,31,295,21,1*73
$GBGSV,3,3,11,46,25,158,28,32,21,060,34,35,16,312,37,1*43
$GBGSV,3,1,09,38,66,024,41,39,66,204,42,20,51,000,38,29,48,257,41,4*75
$GBGSV,3,2,09,37,32,094,40,19,31,295,22,46,25,158,30,32,21,060,37,4*79
$GBGSV,3,3,09,35,16,312,35,4*4D
$GNGGA,094101.000,2500.7755609,N,12132.4580914,E,4,46,0.54,15.934,M,15.25,M,3,3335*4B
$GNRMC,094101.000,A,2500.7755609,N,12132.4580914,E,0.10,203.42,260623,,,R,V*1F
$GPHDT,,T*1B
$GNGGA,094101.200,2500.7755617,N,12132.4580911,E,4,45,0.54,15.938,M,15.25,M,3,3335*4C
$GNRMC,094101.200,A,2500.7755617,N,12132.4580911,E,0.05,203.42,260623,,,R,V*13
