$FW : RTK35X,V1.1X0314AS,Lib20210517,1*54
$Tool : LOCOSYS , GNSS Firebird , v1.0.0.19*39
$---------------------------------------------------*2D
$GPHDT,,T*1B
$GNGSA,A,3,15,199,13,05,18,29,20,11,,,,,0.87,0.54,0.68,1*33
$GNGSA,A,3,84,69,85,79,80,,,,,,,,0.87,0.54,0.68,2*0A
$GNGSA,A,3,08,15,13,03,34,,,,,,,,0.87,0.54,0.68,3*09
$GNGSA,A,3,39,38,20,13,29,37,19,32,35,,,,0.87,0.54,0.68,4*05
$GPGSV,3,1,11,15,63,339,44,199,60,167,25,13,45,029,31,05,43,065,42,1*53
$GPGSV,3,2,11,41,38,242,38,18,36,320,43,29,29,235,40,20,27,092,36,1*67
$GPGSV,3,3,11,11,19,144,22,194,16,150,26,24,,,21,1*53
$GPGSV,2,1,05,199,60,167,33,18,36,320,39,11,19,144,19,194,16,150,13,8*67
$GPGSV,2,2,05,24,,,20,8*6C
$GLGSV,2,1,05,84,64,221,30,69,33,019,25,85,33,321,39,79,23,086,37,1*70
$GLGSV,2,2,05,80,16,141,22,1*46
$GAGSV,2,1,07,08,66,323,36,15,66,162,36,13,55,316,41,03,34,037,34,7*78
$GAGSV,2,2,07,07,30,253,,34,15,149,24,30,01,170,,7*49
$GAGSV,2,1,05,08,66,323,42,15,66,162,27,13,55,316,43,03,34,037,31,1*78
$GAGSV,2,2,05,34,15,149,25,1*48
$GBGSV,3,1,11,39,66,203,41,38,66,024,38,20,51,359,36,13,50,342,43,1*75
$GBGSV,3,2,11,29,48,257,42,37,32,095,44,19,31,294,27,30,30,186,23,1*71
$GBGSV,3,3,11,46,24,159,,32,21,060,40,35,16,313,40,1*4B
$GBGSV,2,1,08,38,66,024,36,39,66,203,42,20,51,359,37,29,48,257,42,4*71
$GBGSV,2,2,08,37,32,095,39,19,31,294,19,32,21,060,36,35,16,313,29,4*7F
$GNGGA,093930.000,2500.7754659,N,12132.4580306,E,2,42,0.54,16.049,M,15.25,M,6,3335*4C
$GNRMC,093930.000,A,2500.7754659,N,12132.4580306,E,0.02,203.42,260623,,,D,V*0A
$PAIR010,0,1,2268,121188*37
$GPHDT,,T*1B
$GNGGA,093930.200,2500.7754599,N,12132.4580306,E,2,42,0.54,16.047,M,15.25,M,6,3335*4F
$GNRMC,093930.200,A,2500.7754599,N,12132.4580306,E,0.00,203.42,260623,,,D,V*05
$GPHDT,,T*1B
$GNGGA,093930.400,2500.7754599,N,12132.4580246,E,2,42,0.54,16.044,M,15.25,M,6,3335*4F
$GNRMC,093930.400,A,2500.7754599,N,12132.4580246,E,0.00,203.42,260623,,,D,V*06
$GPHDT,,T*1B
$GNGGA,093930.600,2500.7754539,N,12132.4580246,E,2,42,0.54,16.038,M,15.25,M,6,3335*4C
$GNRMC,093930.600,A,2500.7754539,N,12132.4580246,E,0.01,203.42,260623,,,D,V*0F
$GPHDT,,T*1B
$GNGGA,093930.800,2500.7754479,N,12132.4580306,E,2,42,0.54,16.029,M,15.25,M,4,3335*40
$GNRMC,093930.800,A,2500.7754479,N,12132.4580306,E,0.07,203.42,260623,,,D,V*07
$GPHDT,,T*1B
$GNGSA,A,3,15,199,13,05,18,29,20,11,,,,,0.87,0.54,0.68,1*33
$GNGSA,A,3,84,69,85,79,80,,,,,,,,0.87,0.54,0.68,2*0A
$GNGSA,A,3,08,15,13,03,34,,,,,,,,0.87,0.54,0.68,3*09
$GNGSA,A,3,39,38,20,13,29,37,19,32,35,,,,0.87,0.54,0.68,4*05
$GPGSV,3,1,11,15,63,339,46,199,60,167,25,13,45,029,40,05,43,065,40,1*55
$GPGSV,3,2,11,41,38,242,38,18,36,320,44,29,29,235,40,20,27,092,26,1*61
$GPGSV,3,3,11,11,19,144,20,194,16,150,28,24,,,20,1*5E
$GPGSV,2,1,05,199,60,167,33,18,36,320,40,11,19,144,16,194,16,150,13,8*66
$GPGSV,2,2,05,24,,,20,8*6C
$GLGSV,2,1,05,84,64,221,31,69,33,019,26,85,33,321,40,79,23,086,30,1*7B
$GLGSV,2,2,05,80,16,141,22,1*46
$GAGSV,2,1,06,08,66,323,37,15,66,162,36,13,55,316,41,03,34,037,39,7*75
$GAGSV,2,2,06,07,30,253,,34,15,149,22,7*7A
$GAGSV,2,1,05,08,66,323,44,15,66,162,29,13,55,316,43,03,34,037,39,1*78
$GAGSV,2,2,05,34,15,149,24,1*49
$GBGSV,3,1,11,39,66,203,41,38,66,024,41,20,51,359,41,13,50,342,44,1*7C
$GBGSV,3,2,11,29,48,257,42,37,32,095,41,19,31,294,26,30,30,186,23,1*75
$GBGSV,3,3,11,46,24,159,,32,21,060,39,35,16,313,40,1*45
$GBGSV,3,1,09,38,66,024,41,39,66,203,41,20,51,359,41,29,48,257,41,4*70
$GBGSV,3,2,09,37,32,095,37,19,31,294,19,30,30,186,18,32,21,060,37,4*7D
$GBGSV,3,3,09,35,16,313,30,4*49
$GNGGA,093931.000,2500.7754479,N,12132.4580306,E,2,42,0.54,16.028,M,15.25,M,4,3335*48
$GNRMC,093931.000,A,2500.7754479,N,12132.4580306,E,0.08,203.42,260623,,,D,V*01
$GPHDT,,T*1B
$GNGGA,093931.200,2500.7754479,N,12132.4580246,E,2,42,0.54,16.018,M,15.25,M,1,3335*49
$GNRMC,093931.200,A,2500.7754479,N,12132.4580246,E,0.07,203.42,260623,,,D,V*09
$GPHDT,,T*1B
$GNGGA,093931.400,2500.7754359,N,12132.4580126,E,2,42,0.54,16.014,M,15.25,M,1,3335*43
$GNRMC,093931.400,A,2500.7754359,N,12132.4580126,E,0.03,203.42,260623,,,D,V*0B
$GPHDT,,T*1B
$GNGGA,093931.600,2500.7754359,N,12132.4580126,E,2,41,0.55,16.012,M,15.25,M,1,3335*45
$GNRMC,093931.600,A,2500.7754359,N,12132.4580126,E,0.03,203.42,260623,,,D,V*09
$GPHDT,,T*1B
$GNGGA,093931.800,2500.7754359,N,12132.4580006,E,2,41,0.55,16.012,M,15.25,M,1,3335*48
$GNRMC,093931.800,A,2500.7754359,N,12132.4580006,E,0.04,203.42,260623,,,D,V*03
$GPHDT,,T*1B
$GNGSA,A,3,15,199,13,05,18,29,20,11,,,,,0.87,0.54,0.68,1*33
$GNGSA,A,3,84,69,85,79,80,,,,,,,,0.87,0.54,0.68,2*0A
$GNGSA,A,3,08,15,13,03,34,,,,,,,,0.87,0.54,0.68,3*09
$GNGSA,A,3,39,38,20,13,29,37,19,32,35,,,,0.87,0.54,0.68,4*05
$GPGSV,3,1,11,15,63,339,46,199,60,167,25,13,45,029,43,05,43,065,45,1*53
$GPGSV,3,2,11,41,38,242,38,18,36,320,44,29,29,235,39,20,27,092,36,1*6E
$GPGSV,3,3,11,11,19,144,,194,16,150,28,24,,,21,1*5D
$GPGSV,2,1,05,199,60,167,28,18,36,320,39,11,19,144,15,194,16,150,10,8*62
$GPGSV,2,2,05,24,,,18,8*67
$GLGSV,2,1,05,84,64,221,31,69,33,019,29,85,33,321,40,79,23,086,36,1*72
$GLGSV,2,2,05,80,16,141,22,1*46
$GAGSV,2,1,06,08,66,323,38,15,66,162,36,13,55,316,41,03,34,037,40,7*74
$GAGSV,2,2,06,07,30,253,,34,15,149,22,7*7A
$GAGSV,2,1,05,08,66,323,44,15,66,162,27,13,55,316,43,03,34,037,38,1*77
$GAGSV,2,2,05,34,15,149,22,1*4F
$GBGSV,3,1,11,39,66,203,41,38,66,024,42,20,51,359,41,13,50,342,44,1*7F
$GBGSV,3,2,11,29,48,257,42,37,32,095,41,19,31,294,25,30,30,186,23,1*76
$GBGSV,3,3,11,46,24,159,,32,21,060,42,35,16,313,40,1*49
$GBGSV,2,1,08,38,66,024,43,39,66,203,42,20,51,359,41,29,48,257,41,4*71
$GBGSV,2,2,08,37,32,095,40,19,31,294,18,32,21,060,41,35,16,313,32,4*7A
$GNGGA,093932.000,2500.7754299,N,12132.4580066,E,2,42,0.54,16.011,M,15.25,M,2,3335*4A
$GNRMC,093932.000,A,2500.7754299,N,12132.4580066,E,0.03,203.42,260623,,,D,V*04
$GPHDT,,T*1B
$GNGGA,093932.200,2500.7754299,N,12132.4580066,E,2,42,0.54,16.008,M,15.25,M,1,3335*43
$GNRMC,093932.200,A,2500.7754299,N,12132.4580066,E,0.02,203.42,260623,,,D,V*07
$GPHDT,,T*1B
$GNGGA,093932.400,2500.7754239,N,12132.4580006,E,2,42,0.54,16.005,M,15.25,M,1,3335*44
$GNRMC,093932.400,A,2500.7754239,N,12132.4580006,E,0.01,203.42,260623,,,D,V*0E
$GPHDT,,T*1B
$GNGGA,093932.600,2500.7754179,N,12132.4580006,E,2,42,0.54,16.001,M,15.25,M,1,3335*45
$GNRMC,093932.600,A,2500.7754179,N,12132.4580006,E,0.02,203.42,260623,,,D,V*08
$GPHDT,,T*1B
$GNGGA,093932.800,2500.7754119,N,12132.4579946,E,2,42,0.54,15.998,M,15.25,M,1,3335*4C
$GNRMC,093932.800,A,2500.7754119,N,12132.4579946,E,0.01,203.42,260623,,,D,V*08
$GPHDT,,T*1B
$GNGSA,A,3,15,199,13,05,18,29,20,11,,,,,0.87,0.54,0.68,1*33
$GNGSA,A,3,84,69,85,79,80,,,,,,,,0.87,0.54,0.68,2*0A
$GNGSA,A,3,08,15,13,03,34,,,,,,,,0.87,0.54,0.68,3*09
$GNGSA,A,3,39,38,20,13,29,37,19,32,35,,,,0.87,0.54,0.68,4*05
$GPGSV,3,1,11,15,63,339,46,199,60,167,25,13,45,029,43,05,43,065,45,1*53
$GPGSV,3,2,11,41,38,242,38,18,36,320,44,29,29,235,39,20,27,092,36,1*6E
$GPGSV,3,3,11,11,19,144,,194,16,150,29,24,,,19,1*57
$GPGSV,1,1,04,199,60,167,31,18,36,320,39,11,19,144,13,24,,,20,8*64
$GLGSV,2,1,05,84,64,221,31,69,33,019,30,85,33,321,40,79,23,086,37,1*7B
$GLGSV,2,2,05,80,16,141,22,1*46
$GAGSV,2,1,06,08,66,323,38,15,66,162,36,13,55,316,41,03,34,037,41,7*75
$GAGSV,2,2,06,07,30,253,,34,15,149,23,7*7B
$GAGSV,2,1,05,15,66,162,30,08,66,323,45,13,55,316,44,03,34,037,38,1*77
$GAGSV,2,2,05,34,15,149,24,1*49
$GBGSV,3,1,11,39,66,203,41,38,66,024,43,20,51,359,41,13,50,342,44,1*7E
$GBGSV,3,2,11,29,48,257,42,37,32,095,42,19,31,294,26,30,30,186,23,1*76
$GBGSV,3,3,11,46,24,159,,32,21,060,42,35,16,313,39,1*47
$GBGSV,2,1,08,38,66,024,43,39,66,203,42,20,51,359,41,29,48,257,41,4*71
$GBGSV,2,2,08,37,32,095,41,19,31,294,19,32,21,060,42,35,16,313,31,4*7A
$GNGGA,093933.000,2500.7754059,N,12132.4579886,E,2,42,0.54,15.995,M,15.25,M,2,3335*43
$GNRMC,093933.000,A,2500.7754059,N,12132.4579886,E,0.01,203.42,260623,,,D,V*09
$GPHDT,,T*1B
$GNGGA,093933.200,2500.7753999,N,12132.4579886,E,2,42,0.54,15.994,M,15.25,M,2,3335*42
$GNRMC,093933.200,A,2500.7753999,N,12132.4579886,E,0.01,203.42,260623,,,D,V*09
$GPHDT,,T*1B
$GNGGA,093933.400,2500.7753999,N,12132.4579886,E,2,42,0.54,15.993,M,15.25,M,2,3335*43
$GNRMC,093933.400,A,2500.7753999,N,12132.4579886,E,0.02,203.42,260623,,,D,V*0C
$GPHDT,,T*1B
$GNGGA,093933.600,2500.7753939,N,12132.4579826,E,2,42,0.54,15.990,M,15.25,M,2,3335*42
$GNRMC,093933.600,A,2500.7753939,N,12132.4579826,E,0.03,203.42,260623,,,D,V*0F
$GPHDT,,T*1B
$GNGGA,093933.800,2500.7753879,N,12132.4579826,E,2,42,0.54,15.987,M,15.25,M,2,3335*4F
$GNRMC,093933.800,A,2500.7753879,N,12132.4579826,E,0.02,203.42,260623,,,D,V*05
$GPHDT,,T*1B
$GNGSA,A,3,15,199,13,05,18,29,20,11,,,,,0.87,0.54,0.68,1*33
$GNGSA,A,3,84,69,85,79,80,,,,,,,,0.87,0.54,0.68,2*0A
$GNGSA,A,3,08,15,13,03,34,,,,,,,,0.87,0.54,0.68,3*09
$GNGSA,A,3,39,38,20,13,29,37,19,32,35,,,,0.87,0.54,0.68,4*05
$GPGSV,3,1,11,15,63,339,46,199,60,167,25,13,44,029,43,05,43,065,45,1*52
$GPGSV,3,2,11,41,38,242,38,18,36,320,44,29,29,235,39,20,27,092,36,1*6E
$GPGSV,3,3,11,11,19,144,,194,16,150,28,24,,,18,1*57
$GPGSV,1,1,04,199,60,167,32,18,36,320,39,11,19,144,12,24,,,21,8*67
$GLGSV,2,1,05,84,64,221,29,69,33,019,26,85,33,321,40,79,23,086,38,1*7A
$GLGSV,2,2,05,80,16,141,23,1*47
$GAGSV,2,1,06,08,66,323,38,15,66,162,37,13,55,316,41,03,34,037,41,7*74
$GAGSV,2,2,06,07,30,253,,34,15,149,21,7*79
$GAGSV,2,1,05,15,66,162,29,08,66,323,45,13,55,316,44,03,34,037,39,1*7E
$GAGSV,2,2,05,34,15,149,26,1*4B
$GBGSV,3,1,11,39,66,203,41,38,66,024,43,20,51,359,41,13,50,342,44,1*7E
$GBGSV,3,2,11,29,48,257,42,37,32,095,43,19,31,294,26,30,30,186,22,1*76
$GBGSV,3,3,11,46,24,159,,32,21,060,42,35,16,313,39,1*47
$GBGSV,2,1,08,38,66,024,43,39,66,203,42,20,51,359,41,29,48,257,41,4*71
$GBGSV,2,2,08,37,32,095,41,19,31,294,19,32,21,060,42,35,16,313,32,4*79
$GNGGA,093934.000,2500.7753819,N,12132.4579766,E,2,42,0.54,15.981,M,15.25,M,3,3335*4A
$GNRMC,093934.000,A,2500.7753819,N,12132.4579766,E,0.01,203.42,260623,,,D,V*04
$GPHDT,,T*1B
$GNGGA,093934.200,2500.7753819,N,12132.4579706,E,2,42,0.54,15.976,M,15.25,M,3,3335*46
$GNRMC,093934.200,A,2500.7753819,N,12132.4579706,E,0.03,203.42,260623,,,D,V*02
$GPHDT,,T*1B
$GNGGA,093934.400,2500.7753759,N,12132.4579646,E,2,41,0.56,15.971,M,15.25,M,3,3335*48
$GNRMC,093934.400,A,2500.7753759,N,12132.4579646,E,0.01,203.42,260623,,,D,V*08
$GPHDT,,T*1B
$GNGGA,093934.600,2500.7753639,N,12132.4579586,E,2,41,0.56,15.965,M,15.25,M,3,3335*47
$GNRMC,093934.600,A,2500.7753639,N,12132.4579586,E,0.02,203.42,260623,,,D,V*01
$GPHDT,,T*1B
$GNGGA,093934.800,2500.7753579,N,12132.4579526,E,2,41,0.56,15.961,M,15.25,M,3,3335*40
$GNRMC,093934.800,A,2500.7753579,N,12132.4579526,E,0.01,203.42,260623,,,D,V*01
$GPHDT,,T*1B
$GNGSA,A,3,15,199,13,05,18,29,20,,,,,,0.89,0.56,0.69,1*3E
$GNGSA,A,3,84,69,85,79,80,,,,,,,,0.89,0.56,0.69,2*07
$GNGSA,A,3,08,15,13,03,34,,,,,,,,0.89,0.56,0.69,3*04
$GNGSA,A,3,39,38,20,13,29,37,19,32,35,,,,0.89,0.56,0.69,4*08
$GPGSV,3,1,11,15,63,339,46,199,60,167,25,13,44,029,43,05,43,065,45,1*52
$GPGSV,3,2,11,41,38,242,35,18,36,320,44,29,29,235,25,20,27,092,36,1*6E
$GPGSV,3,3,11,11,19,144,,194,16,150,27,24,,,18,1*58
$GPGSV,1,1,03,199,60,167,32,18,36,320,39,24,,,21,8*5A
$GLGSV,2,1,05,84,64,221,30,69,33,019,29,85,33,321,40,79,23,086,38,1*7D
$GLGSV,2,2,05,80,16,141,25,1*41
$GAGSV,2,1,06,08,66,323,38,15,66,162,37,13,55,316,41,03,34,037,41,7*74
$GAGSV,2,2,06,07,30,253,,34,15,149,20,7*78
$GAGSV,2,1,05,15,66,162,27,08,66,323,45,13,55,316,44,03,34,037,39,1*70
$GAGSV,2,2,05,34,15,149,24,1*49
$GBGSV,3,1,11,39,66,203,41,38,66,024,43,20,51,359,41,13,50,342,44,1*7E
$GBGSV,3,2,11,29,48,257,42,37,32,095,43,19,31,294,26,30,30,186,22,1*76
$GBGSV,3,3,11,46,24,159,,32,21,060,42,35,16,313,39,1*47
$GBGSV,2,1,08,38,66,024,43,39,66,203,42,20,51,359,41,29,48,257,41,4*71
$GBGSV,2,2,08,37,32,095,41,19,31,294,19,32,21,060,42,35,16,313,32,4*79
$GNGGA,093935.000,2500.7753639,N,12132.4579586,E,2,41,0.56,15.965,M,15.25,M,3,3335*40
$GNRMC,093935.000,A,2500.7753639,N,12132.4579586,E,0.01,203.42,260623,,,D,V*05
$GPHDT,,T*1B
$GNGGA,093935.200,2500.7753579,N,12132.4579586,E,2,41,0.56,15.963,M,15.25,M,1,3335*41
$GNRMC,093935.200,A,2500.7753579,N,12132.4579586,E,0.02,203.42,260623,,,D,V*03
$GPHDT,,T*1B
$GNGGA,093935.400,2500.7753579,N,12132.4579586,E,2,41,0.56,15.963,M,15.25,M,1,3335*47
$GNRMC,093935.400,A,2500.7753579,N,12132.4579586,E,0.01,203.42,260623,,,D,V*06
$GPHDT,,T*1B
$GNGGA,093935.600,2500.7753579,N,12132.4579586,E,2,41,0.56,15.963,M,15.25,M,0,3335*44
$GNRMC,093935.600,A,2500.7753579,N,12132.4579586,E,0.01,203.42,260623,,,D,V*04
$GPHDT,,T*1B
$GNGGA,093935.800,2500.7753579,N,12132.4579526,E,2,41,0.56,15.963,M,15.25,M,0,3335*40
$GNRMC,093935.800,A,2500.7753579,N,12132.4579526,E,0.03,203.42,260623,,,D,V*02
$GPHDT,,T*1B
$GNGSA,A,3,15,199,13,05,18,29,20,,,,,,0.89,0.56,0.69,1*3E
$GNGSA,A,3,84,85,69,79,80,,,,,,,,0.89,0.56,0.69,2*07
$GNGSA,A,3,08,15,13,03,34,,,,,,,,0.89,0.56,0.69,3*04
$GNGSA,A,3,39,38,20,13,29,37,19,32,35,,,,0.89,0.56,0.69,4*08
$GPGSV,3,1,12,15,63,339,46,199,60,167,25,13,44,029,43,05,43,065,45,1*51
$GPGSV,3,2,12,41,38,242,37,18,36,320,44,29,29,235,34,20,27,093,36,1*6E
$GPGSV,3,3,12,11,19,144,,194,16,150,29,24,,,17,196,,,41,1*61
$GPGSV,1,1,03,199,60,167,32,18,36,320,39,24,,,20,8*5B
$GLGSV,2,1,05,84,64,221,30,85,33,321,40,69,33,019,30,79,23,086,38,1*75
$GLGSV,2,2,05,80,16,141,26,1*42
$GAGSV,2,1,05,08,66,323,38,15,66,162,37,13,55,316,41,03,34,037,41,7*77
$GAGSV,2,2,05,34,15,149,20,7*4B
$GAGSV,2,1,05,15,66,162,27,08,66,323,45,13,55,316,44,03,34,037,39,1*70
$GAGSV,2,2,05,34,15,149,24,1*49
$GBGSV,3,1,11,39,66,203,41,38,66,024,43,20,51,359,41,13,50,342,44,1*7E
$GBGSV,3,2,11,29,48,257,42,37,32,095,43,19,31,294,27,30,30,186,22,1*77
$GBGSV,3,3,11,46,24,159,,32,21,060,42,35,16,313,39,1*47
$GBGSV,2,1,08,38,66,024,43,39,66,203,42,20,51,359,41,29,48,257,41,4*71
$GBGSV,2,2,08,37,32,095,41,19,31,294,20,32,21,060,42,35,16,313,31,4*70
$GNGGA,093936.000,2500.7753579,N,12132.4579526,E,2,41,0.56,15.963,M,15.25,M,1,3335*4A
$GNRMC,093936.000,A,2500.7753579,N,12132.4579526,E,0.03,203.42,260623,,,D,V*09
$GPHDT,,T*1B
$GNGGA,093936.200,2500.7753639,N,12132.4579526,E,2,41,0.56,15.962,M,15.25,M,1,3335*4E
$GNRMC,093936.200,A,2500.7753639,N,12132.4579526,E,0.04,203.42,260623,,,D,V*0B
$GPHDT,,T*1B
$GNGGA,093936.400,2500.7753639,N,12132.4579526,E,2,41,0.56,15.962,M,15.25,M,1,3335*48
$GNRMC,093936.400,A,2500.7753639,N,12132.4579526,E,0.05,203.42,260623,,,D,V*0C
$GPHDT,,T*1B
$GNGGA,093936.600,2500.7753579,N,12132.4579466,E,2,41,0.56,15.961,M,15.25,M,1,3335*4B
$GNRMC,093936.600,A,2500.7753579,N,12132.4579466,E,0.05,203.42,260623,,,D,V*0C
$GPHDT,,T*1B
$GNGGA,093936.800,2500.7753579,N,12132.4579466,E,2,41,0.56,15.960,M,15.25,M,1,3335*44
$GNRMC,093936.800,A,2500.7753579,N,12132.4579466,E,0.04,203.42,260623,,,D,V*03
$GPHDT,,T*1B
$GNGSA,A,3,15,199,13,05,18,29,20,,,,,,0.89,0.56,0.69,1*3E
$GNGSA,A,3,84,85,69,79,80,,,,,,,,0.89,0.56,0.69,2*07
$GNGSA,A,3,08,15,13,03,34,,,,,,,,0.89,0.56,0.69,3*04
$GNGSA,A,3,39,38,20,13,29,37,19,32,35,,,,0.89,0.56,0.69,4*08
$GPGSV,3,1,12,15,63,339,46,199,60,167,25,13,44,029,43,05,43,065,45,1*51
$GPGSV,3,2,12,41,38,242,37,18,36,320,44,29,29,235,37,20,27,093,35,1*6E
$GPGSV,3,3,12,11,19,144,,194,16,150,28,196,,,42,24,,,18,1*6C
$GPGSV,1,1,04,199,60,167,32,18,36,320,40,196,,,45,24,,,21,8*6C
$GLGSV,2,1,05,84,64,221,30,85,33,321,40,69,33,019,31,79,23,086,38,1*74
$GLGSV,2,2,05,80,16,141,26,1*42
$GAGSV,2,1,05,08,66,323,38,15,66,162,37,13,55,316,41,03,34,037,41,7*77
$GAGSV,2,2,05,34,15,149,20,7*4B
$GAGSV,2,1,05,08,66,323,45,15,66,162,28,13,55,316,44,03,34,037,40,1*71
$GAGSV,2,2,05,34,15,149,24,1*49
$GBGSV,3,1,11,39,66,203,41,38,66,024,43,20,51,359,41,13,50,342,44,1*7E
$GBGSV,3,2,11,29,48,257,42,37,32,095,43,19,31,294,27,30,30,186,22,1*77
$GBGSV,3,3,11,46,24,159,,32,21,060,42,35,16,313,39,1*47
$GBGSV,2,1,08,38,66,024,43,39,66,203,42,20,51,359,41,29,48,257,41,4*71
$GBGSV,2,2,08,37,32,095,41,19,31,294,21,32,21,060,42,35,16,313,32,4*72
$GNGGA,093937.000,2500.7753579,N,12132.4579406,E,2,41,0.56,15.960,M,15.25,M,2,3335*48
$GNRMC,093937.000,A,2500.7753579,N,12132.4579406,E,0.04,203.42,260623,,,D,V*0C
$GPHDT,,T*1B
$GNGGA,093937.200,2500.7753519,N,12132.4579406,E,2,41,0.56,15.958,M,15.25,M,1,3335*44
$GNRMC,093937.200,A,2500.7753519,N,12132.4579406,E,0.04,203.42,260623,,,D,V*08
$GPHDT,,T*1B
$GNGGA,093937.400,2500.7753519,N,12132.4579406,E,2,41,0.56,15.956,M,15.25,M,1,3335*4C
$GNRMC,093937.400,A,2500.7753519,N,12132.4579406,E,0.02,203.42,260623,,,D,V*08
$GPHDT,,T*1B
$GNGGA,093937.600,2500.7753459,N,12132.4579346,E,2,41,0.56,15.955,M,15.25,M,1,3335*4B
$GNRMC,093937.600,A,2500.7753459,N,12132.4579346,E,0.01,203.42,260623,,,D,V*0F
$GPHDT,,T*1B
$GNGGA,093937.800,2500.7753399,N,12132.4579346,E,2,41,0.56,15.953,M,15.25,M,1,3335*48
$GNRMC,093937.800,A,2500.7753399,N,12132.4579346,E,0.02,203.42,260623,,,D,V*09
$GPHDT,,T*1B
$GNGSA,A,3,15,199,13,05,18,29,20,11,,,,,0.87,0.54,0.68,1*33
$GNGSA,A,3,84,85,69,79,80,,,,,,,,0.87,0.54,0.68,2*0A
$GNGSA,A,3,08,15,13,03,34,,,,,,,,0.87,0.54,0.68,3*09
$GNGSA,A,3,39,38,20,13,29,37,19,32,35,,,,0.87,0.54,0.68,4*05
$GPGSV,3,1,12,15,63,339,46,199,60,167,25,13,44,029,43,05,43,065,45,1*51
$GPGSV,3,2,12,41,38,242,37,18,36,320,44,29,29,234,37,20,27,093,35,1*6F
$GPGSV,3,3,12,11,19,144,24,194,16,150,27,196,,,41,24,,,18,1*66
$GPGSV,1,1,04,199,60,167,32,18,36,320,40,196,,,45,24,,,21,8*6C
$GLGSV,2,1,05,84,64,221,30,85,33,321,40,69,33,019,31,79,23,086,38,1*74
$GLGSV,2,2,05,80,16,141,26,1*42
$GAGSV,2,1,05,08,66,323,38,15,66,162,37,13,55,316,41,03,34,037,41,7*77
$GAGSV,2,2,05,34,15,149,19,7*41
$GAGSV,2,1,05,08,66,323,45,15,66,162,28,13,55,316,44,03,34,037,40,1*71
$GAGSV,2,2,05,34,15,149,22,1*4F
$GBGSV,3,1,11,39,66,203,41,38,66,024,43,20,51,359,41,13,50,342,44,1*7E
$GBGSV,3,2,11,29,48,257,42,37,32,095,43,19,31,294,27,30,30,186,22,1*77
$GBGSV,3,3,11,46,24,159,,32,21,060,42,35,16,313,38,1*46
$GBGSV,2,1,08,38,66,024,43,39,66,203,42,20,51,359,41,29,48,257,42,4*72
$GBGSV,2,2,08,37,32,095,41,19,31,294,21,32,21,060,42,35,16,313,32,4*72
$GNGGA,093938.000,2500.7753399,N,12132.4579346,E,2,42,0.54,15.951,M,15.25,M,2,3335*4F
$GNRMC,093938.000,A,2500.7753399,N,12132.4579346,E,0.01,203.42,260623,,,D,V*0D
$GPHDT,,T*1B
$GNGGA,093938.200,2500.7753339,N,12132.4579286,E,2,42,0.54,15.948,M,15.25,M,2,3335*42
$GNRMC,093938.200,A,2500.7753339,N,12132.4579286,E,0.01,203.42,260623,,,D,V*08
$GPHDT,,T*1B
$GNGGA,093938.400,2500.7753339,N,12132.4579286,E,2,42,0.54,15.945,M,15.25,M,2,3335*49
$GNRMC,093938.400,A,2500.7753339,N,12132.4579286,E,0.02,203.42,260623,,,D,V*0D
$GPHDT,,T*1B
$GNGGA,093938.600,2500.7753279,N,12132.4579286,E,2,42,0.54,15.943,M,15.25,M,2,3335*48
$GNRMC,093938.600,A,2500.7753279,N,12132.4579286,E,0.02,203.42,260623,,,D,V*0A
$GPHDT,,T*1B
$GNGGA,093938.800,2500.7753219,N,12132.4579226,E,2,41,0.56,15.940,M,15.25,M,2,3335*48
$GNRMC,093938.800,A,2500.7753219,N,12132.4579226,E,0.01,203.42,260623,,,D,V*0B
$GPHDT,,T*1B
$GNGSA,A,3,15,13,05,18,29,20,199,,,,,,0.89,0.56,0.69,1*3E
$GNGSA,A,3,84,85,69,79,80,,,,,,,,0.89,0.56,0.69,2*07
$GNGSA,A,3,08,15,13,03,34,,,,,,,,0.89,0.56,0.69,3*04
$GNGSA,A,3,39,38,20,13,29,37,19,32,35,,,,0.89,0.56,0.69,4*08
$GPGSV,3,1,12,15,63,339,46,199,60,167,25,13,44,029,43,05,43,065,45,1*51
$GPGSV,3,2,12,41,38,242,37,18,36,320,41,29,29,234,37,20,27,093,35,1*6A
$GPGSV,3,3,12,11,19,144,25,194,16,150,26,196,,,41,24,,,18,1*66
$GPGSV,1,1,04,199,60,167,32,18,36,320,38,196,,,46,24,,,20,8*61
$GLGSV,2,1,05,84,64,221,31,85,33,321,36,69,33,019,31,79,23,086,38,1*74
$GLGSV,2,2,05,80,16,141,25,1*41
$GAGSV,2,1,05,08,66,323,38,15,66,162,37,13,55,316,41,03,34,037,41,7*77
$GAGSV,2,2,05,34,15,149,19,7*41
$GAGSV,2,1,05,08,66,323,44,15,66,162,28,13,55,316,44,03,34,037,40,1*70
$GAGSV,2,2,05,34,15,149,23,1*4E
$GBGSV,3,1,11,39,66,203,41,38,66,024,43,20,51,359,41,13,50,342,44,1*7E
$GBGSV,3,2,11,29,48,257,42,37,32,095,43,19,31,294,28,30,30,186,23,1*79
$GBGSV,3,3,11,46,24,159,,32,21,060,42,35,16,313,37,1*49
$GBGSV,2,1,08,38,66,024,43,39,66,203,41,20,51,359,41,29,48,257,42,4*71
$GBGSV,2,2,08,37,32,095,41,19,31,294,20,32,21,060,42,35,16,313,28,4*78
$GNGGA,093939.000,2500.7753219,N,12132.4579226,E,2,40,0.56,15.938,M,15.25,M,3,3335*4E
$GNRMC,093939.000,A,2500.7753219,N,12132.4579226,E,0.02,203.42,260623,,,D,V*01
$GPHDT,,T*1B
$GNGGA,093939.200,2500.7753099,N,12132.4579226,E,2,41,0.56,15.935,M,15.25,M,3,3335*4A
$GNRMC,093939.200,A,2500.7753099,N,12132.4579226,E,0.03,203.42,260623,,,D,V*08
$GPHDT,,T*1B
$GNGGA,093939.400,2500.7753039,N,12132.4579226,E,2,41,0.56,15.933,M,15.25,M,3,3335*40
$GNRMC,093939.400,A,2500.7753039,N,12132.4579226,E,0.04,203.42,260623,,,D,V*03
$GPHDT,,T*1B
$GNGGA,093939.600,2500.7752919,N,12132.4579166,E,2,43,0.54,15.929,M,15.25,M,3,3335*44
$GNRMC,093939.600,A,2500.7752919,N,12132.4579166,E,0.03,203.42,260623,,,D,V*0B
$GPHDT,,T*1B
$GNGGA,093939.800,2500.7752859,N,12132.4579166,E,2,43,0.54,15.927,M,15.25,M,3,3335*41
$GNRMC,093939.800,A,2500.7752859,N,12132.4579166,E,0.04,203.42,260623,,,D,V*07
$GPHDT,,T*1B
$GNGSA,A,3,15,199,13,05,18,29,20,11,,,,,0.87,0.54,0.68,1*33
$GNGSA,A,3,84,85,69,79,80,,,,,,,,0.87,0.54,0.68,2*0A
$GNGSA,A,3,08,15,13,03,34,,,,,,,,0.87,0.54,0.68,3*09
$GNGSA,A,3,39,38,20,13,29,37,19,32,35,,,,0.87,0.54,0.68,4*05
$GPGSV,3,1,12,15,63,339,46,199,60,167,26,13,44,029,43,05,43,065,45,1*52
$GPGSV,3,2,12,41,38,242,37,18,36,320,41,29,29,234,37,20,27,093,34,1*6B
$GPGSV,3,3,12,11,19,144,25,194,16,150,25,196,,,42,24,,,17,1*69
$GPGSV,2,1,05,199,60,167,33,18,36,320,38,11,19,144,30,196,,,46,8*5C
$GPGSV,2,2,05,24,,,21,8*6D
$GLGSV,2,1,05,84,64,221,31,85,33,321,38,69,33,019,31,79,23,086,38,1*7A
$GLGSV,2,2,05,80,16,141,26,1*42
$GAGSV,2,1,05,08,66,323,40,15,66,162,37,13,55,316,41,03,34,037,41,7*78
$GAGSV,2,2,05,34,15,149,19,7*41
$GAGSV,2,1,05,08,66,323,44,15,66,162,28,13,55,316,44,03,34,037,40,1*70
$GAGSV,2,2,05,34,15,149,24,1*49
$GBGSV,3,1,11,39,66,203,41,38,66,024,43,20,51,359,41,13,50,342,43,1*79
$GBGSV,3,2,11,29,48,257,42,37,32,095,43,19,31,294,28,30,30,186,20,1*7A
$GBGSV,3,3,11,46,24,159,,32,21,060,42,35,16,313,38,1*46
$GBGSV,2,1,08,38,66,024,43,39,66,203,41,20,51,359,41,29,48,257,42,4*71
$GBGSV,2,2,08,37,32,095,41,19,31,294,20,32,21,060,42,35,16,313,31,4*70
$GNGGA,093940.000,2500.7752799,N,12132.4579106,E,2,43,0.54,15.925,M,15.25,M,4,3335*47
$GNRMC,093940.000,A,2500.7752799,N,12132.4579106,E,0.04,203.42,260623,,,D,V*04
$GPHDT,,T*1B
$GNGGA,093940.200,2500.7752739,N,12132.4579046,E,2,43,0.54,15.925,M,15.25,M,4,3335*4A
$GNRMC,093940.200,A,2500.7752739,N,12132.4579046,E,0.02,203.42,260623,,,D,V*0F
