$FW : RTK35X,V1.1X0314AS,Lib20210517,1*54
$Tool : LOCOSYS , GNSS Firebird , v1.0.0.19*39
$---------------------------------------------------*2D
$GPHDT,,T*1B
$GNGSA,A,3,196,15,199,13,05,18,29,20,11,,,,1.03,0.54,0.88,1*0E
$GNGSA,A,3,84,85,69,79,80,,,,,,,,1.03,0.54,0.88,2*09
$GNGSA,A,3,08,15,13,03,34,,,,,,,,1.03,0.54,0.88,3*0A
$GNGSA,A,3,39,38,20,13,29,37,19,32,35,,,,1.03,0.54,0.88,4*06
$GPGSV,3,1,12,196,72,046,41,15,63,340,46,199,60,167,24,13,44,029,44,1*65
$GPGSV,3,2,12,05,43,065,46,41,38,242,36,18,37,320,40,29,28,234,45,1*67
$GPGSV,3,3,12,20,27,093,37,11,19,144,19,194,16,150,30,24,,,21,1*66
$GPGSV,2,1,06,196,72,046,46,199,60,167,34,18,37,320,42,11,19,144,23,8*61
$GPGSV,2,2,06,194,16,150,19,24,,,23,8*6B
$GLGSV,2,1,05,84,64,220,30,85,34,321,36,69,33,020,33,79,23,086,38,1*7B
$GLGSV,2,2,05,80,17,140,16,1*41
$GAGSV,2,1,07,08,66,324,39,15,66,162,35,13,55,316,36,03,33,037,41,7*76
$GAGSV,2,2,07,07,30,253,,34,15,149,17,02,07,123,,7*48
$GAGSV,2,1,05,08,66,324,42,15,66,162,25,13,55,316,42,03,33,037,39,1*73
$GAGSV,2,2,05,34,15,149,20,1*4D
$GBGSV,3,1,10,39,66,204,43,38,66,024,42,06,54,202,29,20,51,000,40,1*7B
$GBGSV,3,2,10,13,50,342,45,29,48,257,40,37,32,095,42,19,31,294,16,1*7B
$GBGSV,3,3,10,32,21,060,42,35,16,313,37,1*71
$GBGSV,2,1,08,38,66,024,43,39,66,204,42,20,51,000,39,29,48,257,38,4*78
$GBGSV,2,2,08,37,32,095,38,19,31,294,16,32,21,060,35,35,16,313,33,4*79
$GNGGA,094025.000,2500.7753999,N,12132.4578026,E,2,45,0.54,15.892,M,15.25,M,1,3335*49
$GNRMC,094025.000,A,2500.7753999,N,12132.4578026,E,0.02,203.42,260623,,,D,V*02
$GPHDT,,T*1B
$GNGGA,094025.200,2500.7753999,N,12132.4578026,E,2,45,0.54,15.895,M,15.25,M,1,3335*4C
$GNRMC,094025.200,A,2500.7753999,N,12132.4578026,E,0.02,203.42,260623,,,D,V*00
$GPHDT,,T*1B
$GNGGA,094025.400,2500.7754059,N,12132.4578086,E,2,45,0.54,15.898,M,15.25,M,1,3335*4F
$GNRMC,094025.400,A,2500.7754059,N,12132.4578086,E,0.02,203.42,260623,,,D,V*0E
$GPHDT,,T*1B
$GNGGA,094025.600,2500.7754119,N,12132.4578086,E,2,45,0.54,15.896,M,15.25,M,0,3335*47
$GNRMC,094025.600,A,2500.7754119,N,12132.4578086,E,0.03,203.42,260623,,,D,V*08
$GPHDT,,T*1B
$GNGGA,094025.800,2500.7754179,N,12132.4578146,E,2,45,0.54,15.889,M,15.25,M,0,3335*4C
$GNRMC,094025.800,A,2500.7754179,N,12132.4578146,E,0.03,203.42,260623,,,D,V*0D
$GPHDT,,T*1B
$GNGSA,A,3,196,15,199,13,05,18,29,20,11,,,,1.03,0.54,0.88,1*0E
$GNGSA,A,3,84,85,69,79,80,,,,,,,,1.03,0.54,0.88,2*09
$GNGSA,A,3,08,15,13,03,34,,,,,,,,1.03,0.54,0.88,3*0A
$GNGSA,A,3,38,39,20,13,29,37,19,32,35,,,,1.03,0.54,0.88,4*06
$GPGSV,3,1,12,196,72,046,41,15,63,340,38,199,60,167,23,13,44,029,44,1*6B
$GPGSV,3,2,12,05,43,065,46,41,38,242,37,18,37,320,33,29,28,234,44,1*63
$GPGSV,3,3,12,20,27,093,36,11,19,144,17,194,16,150,28,24,,,23,1*62
$GPGSV,2,1,05,196,72,046,46,199,60,167,34,18,37,320,39,11,19,144,21,8*6C
$GPGSV,2,2,05,24,,,21,8*6D
$GLGSV,2,1,05,84,64,220,32,85,34,321,36,69,33,020,30,79,23,086,38,1*7A
$GLGSV,2,2,05,80,17,140,17,1*40
$GAGSV,2,1,07,08,66,324,36,15,66,162,34,13,55,316,33,03,33,037,41,7*7D
$GAGSV,2,2,07,07,30,253,,34,15,149,17,02,07,123,,7*48
$GAGSV,2,1,05,15,66,162,24,08,66,324,41,13,55,316,32,03,33,037,39,1*76
$GAGSV,2,2,05,34,15,149,20,1*4D
$GBGSV,3,1,11,38,66,024,44,39,66,204,44,06,54,202,29,20,51,000,40,1*7B
$GBGSV,3,2,11,13,50,342,43,29,48,257,41,37,32,095,42,19,31,294,15,1*7E
$GBGSV,3,3,11,46,25,158,,32,21,060,42,35,16,313,36,1*48
$GBGSV,2,1,08,38,66,024,44,39,66,204,43,20,51,000,38,29,48,257,39,4*7E
$GBGSV,2,2,08,37,32,095,37,19,31,294,15,32,21,060,33,35,16,313,31,4*71
$GNGGA,094026.000,2500.7754119,N,12132.4578206,E,2,45,0.54,15.882,M,15.25,M,1,3335*4C
$GNRMC,094026.000,A,2500.7754119,N,12132.4578206,E,0.02,203.42,260623,,,D,V*06
$GPHDT,,T*1B
$GNGGA,094026.200,2500.7754239,N,12132.4578266,E,2,45,0.54,15.896,M,15.25,M,1,3335*4C
$GNRMC,094026.200,A,2500.7754239,N,12132.4578266,E,0.04,203.42,260623,,,D,V*05
$GPHDT,,T*1B
$GNGGA,094026.400,2500.7754239,N,12132.4578326,E,2,45,0.54,15.892,M,15.25,M,1,3335*4B
$GNRMC,094026.400,A,2500.7754239,N,12132.4578326,E,0.03,203.42,260623,,,D,V*01
$GPHDT,,T*1B
$GNGGA,094026.600,2500.7754299,N,12132.4578386,E,2,45,0.54,15.896,M,15.25,M,0,3335*4C
$GNRMC,094026.600,A,2500.7754299,N,12132.4578386,E,0.03,203.42,260623,,,D,V*03
$GPHDT,,T*1B
$GNGGA,094026.800,2500.7754239,N,12132.4578506,E,2,45,0.54,15.890,M,15.25,M,0,3335*40
$GNRMC,094026.800,A,2500.7754239,N,12132.4578506,E,0.03,203.42,260623,,,D,V*09
$GPHDT,,T*1B
$GNGSA,A,3,196,15,199,13,05,18,29,20,11,,,,1.03,0.54,0.88,1*0E
$GNGSA,A,3,84,85,69,79,80,,,,,,,,1.03,0.54,0.88,2*09
$GNGSA,A,3,08,15,13,03,34,,,,,,,,1.03,0.54,0.88,3*0A
$GNGSA,A,3,38,39,20,13,29,37,19,32,35,,,,1.03,0.54,0.88,4*06
$GPGSV,3,1,12,196,72,046,38,15,63,340,46,199,60,167,23,13,44,029,35,1*6A
$GPGSV,3,2,12,05,43,065,47,41,38,242,37,18,37,320,39,29,28,234,43,1*6F
$GPGSV,3,3,12,20,27,093,34,11,19,144,19,194,16,150,28,24,,,24,1*69
$GPGSV,2,1,05,196,72,046,42,199,60,167,34,18,37,320,42,11,19,144,21,8*64
$GPGSV,2,2,05,194,16,150,22,8*67
$GLGSV,2,1,05,84,64,220,32,85,34,321,37,69,33,020,28,79,23,086,37,1*7D
$GLGSV,2,2,05,80,17,140,21,1*45
$GAGSV,2,1,07,08,66,324,42,15,66,162,34,13,55,316,40,03,33,037,38,7*74
$GAGSV,2,2,07,07,30,253,,34,15,149,18,02,07,123,,7*47
$GAGSV,2,1,05,15,66,162,27,08,66,324,42,13,55,316,43,03,33,037,36,1*7F
$GAGSV,2,2,05,34,15,149,24,1*49
$GBGSV,3,1,11,38,66,024,41,39,66,204,43,06,54,202,26,20,51,000,36,1*77
$GBGSV,3,2,11,13,50,342,46,29,48,257,43,37,32,095,42,19,31,294,20,1*7F
$GBGSV,3,3,11,46,25,158,,32,21,060,42,35,16,313,37,1*49
$GBGSV,2,1,08,38,66,024,39,39,66,204,41,20,51,000,34,29,48,257,41,4*75
$GBGSV,2,2,08,37,32,095,37,19,31,294,13,32,21,060,36,35,16,313,31,4*72
$GNGGA,094027.000,2500.7754299,N,12132.4578506,E,2,45,0.54,15.888,M,15.25,M,1,3335*4B
$GNRMC,094027.000,A,2500.7754299,N,12132.4578506,E,0.02,203.42,260623,,,D,V*0B
$GPHDT,,T*1B
$GNGGA,094027.200,2500.7754299,N,12132.4578506,E,2,45,0.54,15.886,M,15.25,M,1,3335*47
$GNRMC,094027.200,A,2500.7754299,N,12132.4578506,E,0.02,203.42,260623,,,D,V*09
$GPHDT,,T*1B
$GNGGA,094027.400,2500.7754239,N,12132.4578566,E,2,45,0.54,15.882,M,15.25,M,1,3335*49
$GNRMC,094027.400,A,2500.7754239,N,12132.4578566,E,0.02,203.42,260623,,,D,V*03
$GPHDT,,T*1B
$GNGGA,094027.600,2500.7754239,N,12132.4578626,E,2,45,0.54,15.880,M,15.25,M,1,3335*4E
$GNRMC,094027.600,A,2500.7754239,N,12132.4578626,E,0.02,203.42,260623,,,D,V*06
$GPHDT,,T*1B
$GNGGA,094027.800,2500.7754239,N,12132.4578686,E,2,45,0.54,15.877,M,15.25,M,1,3335*42
$GNRMC,094027.800,A,2500.7754239,N,12132.4578686,E,0.02,203.42,260623,,,D,V*02
$GPHDT,,T*1B
$GNGSA,A,3,196,15,199,13,05,18,29,20,11,,,,1.03,0.54,0.88,1*0E
$GNGSA,A,3,84,85,69,79,80,,,,,,,,1.03,0.54,0.88,2*09
$GNGSA,A,3,08,15,13,03,34,,,,,,,,1.03,0.54,0.88,3*0A
$GNGSA,A,3,38,39,20,13,29,37,19,32,35,,,,1.03,0.54,0.88,4*06
$GPGSV,3,1,12,196,72,046,38,15,63,340,46,199,60,167,23,13,44,029,46,1*6E
$GPGSV,3,2,12,05,43,065,41,41,38,242,37,18,37,320,43,29,28,234,42,1*65
$GPGSV,3,3,12,20,27,093,35,11,19,144,22,194,16,150,30,24,,,24,1*69
$GPGSV,2,1,06,196,72,046,42,199,60,167,34,18,37,320,44,11,19,144,22,8*62
$GPGSV,2,2,06,194,16,150,23,24,,,23,8*62
$GLGSV,2,1,05,84,64,220,31,85,34,321,39,69,33,020,27,79,23,086,35,1*7D
$GLGSV,2,2,05,80,17,140,22,1*46
$GAGSV,2,1,07,08,66,324,42,15,66,162,35,13,55,316,39,03,33,037,38,7*7B
$GAGSV,2,2,07,07,30,253,,34,15,149,18,02,07,123,,7*47
$GAGSV,2,1,05,08,66,324,45,15,66,162,28,13,55,316,44,03,33,037,33,1*75
$GAGSV,2,2,05,34,15,149,26,1*4B
$GBGSV,3,1,11,38,66,024,41,39,66,204,43,06,54,202,27,20,51,000,39,1*79
$GBGSV,3,2,11,13,50,342,45,29,48,257,43,37,32,095,43,19,31,295,22,1*7E
$GBGSV,3,3,11,46,25,158,,32,21,060,38,35,16,313,38,1*4B
$GBGSV,2,1,08,38,66,024,41,39,66,204,41,20,51,000,39,29,48,257,41,4*77
$GBGSV,2,2,08,37,32,095,38,19,31,295,14,32,21,060,35,35,16,313,36,4*7F
$GNGGA,094028.000,2500.7754239,N,12132.4578686,E,2,45,0.54,15.867,M,15.25,M,2,3335*47
$GNRMC,094028.000,A,2500.7754239,N,12132.4578686,E,0.02,203.42,260623,,,D,V*05
$GPHDT,,T*1B
$GNGGA,094028.200,2500.7754179,N,12132.4578746,E,2,45,0.54,15.852,M,15.25,M,2,3335*49
$GNRMC,094028.200,A,2500.7754179,N,12132.4578746,E,0.01,203.42,260623,,,D,V*0E
$GPHDT,,T*1B
$GNGGA,094028.400,2500.7754239,N,12132.4578746,E,2,43,0.56,15.840,M,15.25,M,2,3335*4F
$GNRMC,094028.400,A,2500.7754239,N,12132.4578746,E,0.01,203.42,260623,,,D,V*0F
$GPHDT,,T*1B
$GNGGA,094028.600,2500.7754239,N,12132.4578806,E,2,43,0.56,15.829,M,15.25,M,2,3335*49
$GNRMC,094028.600,A,2500.7754239,N,12132.4578806,E,0.01,203.42,260623,,,D,V*06
$GPHDT,,T*1B
$GNGGA,094028.800,2500.7754239,N,12132.4578806,E,2,43,0.56,15.814,M,15.25,M,2,3335*49
$GNRMC,094028.800,A,2500.7754239,N,12132.4578806,E,0.01,203.42,260623,,,D,V*08
$GPHDT,,T*1B
$GNGSA,A,3,196,15,13,05,18,29,20,199,,,,,1.06,0.56,0.90,1*00
$GNGSA,A,3,84,85,69,79,80,,,,,,,,1.06,0.56,0.90,2*07
$GNGSA,A,3,08,15,13,03,34,,,,,,,,1.06,0.56,0.90,3*04
$GNGSA,A,3,39,38,20,13,29,37,19,32,35,,,,1.06,0.56,0.90,4*08
$GPGSV,3,1,12,196,72,046,38,15,63,340,46,199,60,167,22,13,44,029,46,1*6F
$GPGSV,3,2,12,05,43,065,40,41,38,242,37,18,37,320,43,29,28,234,42,1*64
$GPGSV,3,3,12,20,27,093,30,11,19,144,21,194,16,150,31,24,,,22,1*68
$GPGSV,2,1,06,196,72,046,42,199,60,167,34,18,37,320,44,11,19,144,22,8*62
$GPGSV,2,2,06,194,16,150,23,24,,,20,8*61
$GLGSV,2,1,06,84,64,220,31,85,34,321,40,69,33,020,27,79,23,086,25,1*71
$GLGSV,2,2,06,80,17,140,25,71,03,262,,1*71
$GAGSV,2,1,08,08,66,324,42,15,66,162,35,13,55,316,39,03,33,037,42,7*79
$GAGSV,2,2,08,07,30,253,,34,15,149,19,02,07,123,,26,04,324,,7*7C
$GAGSV,2,1,05,08,66,324,45,15,66,162,28,13,55,316,44,03,33,037,38,1*7E
$GAGSV,2,2,05,34,15,149,27,1*4A
$GBGSV,3,1,11,39,66,204,43,38,66,024,43,06,54,202,28,20,51,000,39,1*74
$GBGSV,3,2,11,13,50,342,45,29,48,257,43,37,32,095,39,19,31,295,22,1*73
$GBGSV,3,3,11,46,25,158,,32,21,060,40,35,16,313,38,1*44
$GBGSV,2,1,08,38,66,024,43,39,66,204,41,20,51,000,39,29,48,257,41,4*75
$GBGSV,2,2,08,37,32,095,34,19,31,295,12,32,21,060,34,35,16,313,35,4*77
$GNGGA,094029.000,2500.7754239,N,12132.4578806,E,2,42,0.56,15.800,M,15.25,M,3,3335*45
$GNRMC,094029.000,A,2500.7754239,N,12132.4578806,E,0.01,203.42,260623,,,D,V*01
$GPHDT,,T*1B
$GNGGA,094029.200,2500.7754299,N,12132.4578806,E,2,44,0.54,15.789,M,15.25,M,3,3335*47
$GNRMC,094029.200,A,2500.7754299,N,12132.4578806,E,0.01,203.42,260623,,,D,V*09
$GPHDT,,T*1B
$GNGGA,094029.400,2500.7754299,N,12132.4578806,E,2,43,0.54,15.782,M,15.25,M,3,3335*4D
$GNRMC,094029.400,A,2500.7754299,N,12132.4578806,E,0.01,203.42,260623,,,D,V*0F
$GPHDT,,T*1B
$GNGGA,094029.600,2500.7754299,N,12132.4578866,E,2,43,0.54,15.772,M,15.25,M,3,3335*46
$GNRMC,094029.600,A,2500.7754299,N,12132.4578866,E,0.01,203.42,260623,,,D,V*0B
$GPHDT,,T*1B
$GNGGA,094029.800,2500.7754299,N,12132.4578866,E,2,43,0.54,15.748,M,15.25,M,3,3335*41
$GNRMC,094029.800,A,2500.7754299,N,12132.4578866,E,0.01,203.42,260623,,,D,V*05
$GPHDT,,T*1B
$GNGSA,A,3,196,15,199,13,05,18,29,20,11,,,,1.03,0.54,0.88,1*0E
$GNGSA,A,3,84,85,69,79,80,,,,,,,,1.03,0.54,0.88,2*09
$GNGSA,A,3,08,15,13,03,34,,,,,,,,1.03,0.54,0.88,3*0A
$GNGSA,A,3,38,39,20,13,29,37,19,32,35,,,,1.03,0.54,0.88,4*06
$GPGSV,3,1,12,196,72,046,41,15,63,340,45,199,60,167,23,13,44,029,45,1*60
$GPGSV,3,2,12,05,43,065,44,41,38,242,37,18,37,320,43,29,28,234,42,1*60
$GPGSV,3,3,12,20,27,093,31,11,19,144,25,194,16,150,30,24,,,22,1*6C
$GPGSV,2,1,05,196,72,046,45,199,60,167,34,18,37,320,44,194,16,150,19,8*58
$GPGSV,2,2,05,24,,,22,8*6E
$GLGSV,2,1,05,84,64,220,31,85,34,321,40,69,33,020,26,79,23,086,26,1*70
$GLGSV,2,2,05,80,17,140,21,1*45
$GAGSV,2,1,07,08,66,324,42,15,66,162,35,13,55,316,39,03,33,037,40,7*74
$GAGSV,2,2,07,34,15,149,19,02,07,123,,26,04,324,,7*43
$GAGSV,2,1,05,08,66,324,46,15,66,162,26,13,55,316,43,03,33,037,38,1*74
$GAGSV,2,2,05,34,15,149,26,1*4B
$GBGSV,3,1,11,38,66,024,43,39,66,204,43,06,54,202,28,20,51,000,39,1*74
$GBGSV,3,2,11,13,50,342,45,29,48,257,43,37,32,095,40,19,31,295,24,1*7B
$GBGSV,3,3,11,46,25,158,24,32,21,060,41,35,16,313,38,1*43
$GBGSV,2,1,07,38,66,024,43,39,66,204,41,20,51,000,39,29,48,257,41,4*7A
$GBGSV,2,2,07,37,32,095,34,32,21,060,37,35,16,313,35,4*4C
$GNGGA,094030.000,2500.7754299,N,12132.4578866,E,2,43,0.54,15.731,M,15.25,M,4,3335*48
$GNRMC,094030.000,A,2500.7754299,N,12132.4578866,E,0.01,203.42,260623,,,D,V*05
$PAIR010,0,1,2268,121248*38
$GPHDT,,T*1B
$GNGGA,094030.200,2500.7754299,N,12132.4578926,E,2,43,0.54,15.725,M,15.25,M,4,3335*4A
$GNRMC,094030.200,A,2500.7754299,N,12132.4578926,E,0.01,203.42,260623,,,D,V*02
$GPHDT,,T*1B
$GNGGA,094030.400,2500.7754299,N,12132.4578866,E,2,43,0.54,15.707,M,15.25,M,4,3335*49
$GNRMC,094030.400,A,2500.7754299,N,12132.4578866,E,0.01,203.42,260623,,,D,V*01
$GPHDT,,T*1B
$GNGGA,094030.600,2500.7754239,N,12132.4578866,E,2,43,0.54,15.693,M,15.25,M,4,3335*4D
$GNRMC,094030.600,A,2500.7754239,N,12132.4578866,E,0.01,203.42,260623,,,D,V*09
$GPHDT,,T*1B
$GNGGA,094030.800,2500.7754239,N,12132.4578926,E,2,43,0.54,15.682,M,15.25,M,4,3335*46
$GNRMC,094030.800,A,2500.7754239,N,12132.4578926,E,0.00,203.42,260623,,,D,V*03
$GPHDT,,T*1B
$GNGSA,A,3,196,15,199,13,05,18,29,20,11,,,,1.03,0.54,0.88,1*0E
$GNGSA,A,3,84,85,69,79,80,,,,,,,,1.03,0.54,0.88,2*09
$GNGSA,A,3,08,15,13,03,34,,,,,,,,1.03,0.54,0.88,3*0A
$GNGSA,A,3,38,39,20,13,29,37,19,32,35,,,,1.03,0.54,0.88,4*06
$GPGSV,3,1,12,196,72,046,42,15,63,340,45,199,60,167,24,13,44,029,46,1*67
$GPGSV,3,2,12,05,43,065,44,41,38,242,37,18,37,320,43,29,28,234,42,1*60
$GPGSV,3,3,12,20,27,093,31,11,19,144,26,194,16,150,30,24,,,21,1*6C
$GPGSV,2,1,05,196,72,046,45,199,60,167,34,18,37,320,44,194,16,150,18,8*59
$GPGSV,2,2,05,24,,,23,8*6F
$GLGSV,2,1,05,84,64,220,31,85,34,321,40,69,33,020,23,79,23,086,29,1*7A
$GLGSV,2,2,05,80,17,140,20,1*44
$GAGSV,2,1,07,08,66,324,42,15,66,162,35,13,55,316,39,03,33,037,40,7*74
$GAGSV,2,2,07,34,15,149,19,02,07,123,,26,04,324,,7*43
$GAGSV,2,1,05,08,66,324,46,15,66,162,26,13,55,316,43,03,33,037,38,1*74
$GAGSV,2,2,05,34,15,149,26,1*4B
$GBGSV,3,1,11,38,66,024,42,39,66,204,43,06,54,202,28,20,51,000,39,1*75
$GBGSV,3,2,11,13,50,342,45,29,48,257,43,37,32,094,40,19,31,295,25,1*7B
$GBGSV,3,3,11,46,25,158,23,32,21,060,41,35,16,312,38,1*45
$GBGSV,2,1,07,38,66,024,43,39,66,204,41,20,51,000,39,29,48,257,41,4*7A
$GBGSV,2,2,07,37,32,094,34,32,21,060,37,35,16,312,35,4*4C
$GNGGA,094031.000,2500.7754179,N,12132.4578926,E,2,43,0.54,15.686,M,15.25,M,5,3335*4D
$GNRMC,094031.000,A,2500.7754179,N,12132.4578926,E,0.00,203.42,260623,,,D,V*0D
$GPHDT,,T*1B
$GNGGA,094031.200,2500.7754179,N,12132.4578986,E,2,43,0.54,15.669,M,15.25,M,5,3335*44
$GNRMC,094031.200,A,2500.7754179,N,12132.4578986,E,0.00,203.42,260623,,,D,V*05
$GPHDT,,T*1B
$GNGGA,094031.400,2500.7754179,N,12132.4578986,E,2,43,0.54,15.661,M,15.25,M,5,3335*4A
$GNRMC,094031.400,A,2500.7754179,N,12132.4578986,E,0.00,203.42,260623,,,D,V*03
$GPHDT,,T*1B
$GNGGA,094031.600,2500.7754119,N,12132.4579046,E,2,43,0.54,15.642,M,15.25,M,5,3335*4B
$GNRMC,094031.600,A,2500.7754119,N,12132.4579046,E,0.00,203.42,260623,,,D,V*03
$GPHDT,,T*1B
$GNGGA,094031.800,2500.7754119,N,12132.4579046,E,2,43,0.54,15.633,M,15.25,M,5,3335*43
$GNRMC,094031.800,A,2500.7754119,N,12132.4579046,E,0.00,203.42,260623,,,D,V*0D
$GPHDT,,T*1B
$GNGSA,A,3,196,15,199,13,05,18,29,20,11,,,,1.03,0.54,0.88,1*0E
$GNGSA,A,3,84,85,69,79,80,,,,,,,,1.03,0.54,0.88,2*09
$GNGSA,A,3,08,15,13,03,34,,,,,,,,1.03,0.54,0.88,3*0A
$GNGSA,A,3,38,39,20,13,29,37,19,32,35,,,,1.03,0.54,0.88,4*06
$GPGSV,3,1,12,196,72,046,42,15,63,340,45,199,60,167,23,13,44,029,46,1*60
$GPGSV,3,2,12,05,43,065,44,41,38,242,37,18,37,320,43,29,28,234,42,1*60
$GPGSV,3,3,12,20,27,093,31,11,19,144,25,194,16,150,30,24,,,22,1*6C
$GPGSV,2,1,05,196,72,046,45,199,60,167,33,18,37,320,44,194,16,150,20,8*55
$GPGSV,2,2,05,24,,,21,8*6D
$GLGSV,2,1,05,84,64,220,31,85,34,321,40,69,33,020,21,79,23,086,29,1*78
$GLGSV,2,2,05,80,17,140,20,1*44
$GAGSV,2,1,07,08,66,324,42,15,66,162,35,13,55,316,39,03,33,037,40,7*74
$GAGSV,2,2,07,34,15,149,20,02,07,123,,26,04,324,,7*49
$GAGSV,2,1,05,08,66,324,46,15,66,162,26,13,55,316,43,03,33,037,38,1*74
$GAGSV,2,2,05,34,15,149,25,1*48
$GBGSV,3,1,11,38,66,024,42,39,66,204,43,06,54,202,28,20,51,000,39,1*75
$GBGSV,3,2,11,13,50,342,44,29,48,257,43,37,32,094,40,19,31,295,25,1*7A
$GBGSV,3,3,11,46,25,158,,32,21,060,41,35,16,312,38,1*44
$GBGSV,2,1,07,38,66,024,43,39,66,204,41,20,51,000,39,29,48,257,41,4*7A
$GBGSV,2,2,07,37,32,094,33,32,21,060,37,35,16,312,35,4*4B
$GNGGA,094032.000,2500.7754119,N,12132.4579106,E,2,43,0.54,15.617,M,15.25,M,6,3335*48
$GNRMC,094032.000,A,2500.7754119,N,12132.4579106,E,0.00,203.42,260623,,,D,V*03
$GPHDT,,T*1B
$GNGGA,094032.200,2500.7754059,N,12132.4579106,E,2,43,0.54,15.611,M,15.25,M,6,3335*49
$GNRMC,094032.200,A,2500.7754059,N,12132.4579106,E,0.00,203.42,260623,,,D,V*04
$GPHDT,,T*1B
$GNGGA,094032.400,2500.7753999,N,12132.4579166,E,2,44,0.54,15.593,M,15.25,M,5,3335*46
$GNRMC,094032.400,A,2500.7753999,N,12132.4579166,E,0.00,203.42,260623,,,D,V*06
$GPHDT,,T*1B
$GNGGA,094032.600,2500.7753939,N,12132.4579166,E,2,44,0.54,15.571,M,15.25,M,5,3335*42
$GNRMC,094032.600,A,2500.7753939,N,12132.4579166,E,0.01,203.42,260623,,,D,V*0F
$GPHDT,,T*1B
$GNGGA,094032.800,2500.7753939,N,12132.4579226,E,2,44,0.54,15.557,M,15.25,M,2,3335*48
$GNRMC,094032.800,A,2500.7753939,N,12132.4579226,E,0.01,203.42,260623,,,D,V*06
$GPHDT,,T*1B
$GNGSA,A,3,196,15,199,13,05,18,29,20,11,,,,1.03,0.54,0.88,1*0E
$GNGSA,A,3,84,85,69,79,80,,,,,,,,1.03,0.54,0.88,2*09
$GNGSA,A,3,08,15,13,03,34,,,,,,,,1.03,0.54,0.88,3*0A
$GNGSA,A,3,39,38,20,13,29,37,19,32,35,,,,1.03,0.54,0.88,4*06
$GPGSV,3,1,12,196,72,046,42,15,63,340,44,199,60,167,23,13,44,029,46,1*61
$GPGSV,3,2,12,05,43,065,44,41,38,242,37,18,37,320,43,29,28,234,42,1*60
$GPGSV,3,3,12,20,27,093,31,11,19,144,25,194,16,150,30,24,,,23,1*6D
$GPGSV,2,1,06,196,72,046,45,199,60,167,33,18,37,320,44,11,19,144,30,8*61
$GPGSV,2,2,06,194,16,150,19,24,,,22,8*6A
$GLGSV,2,1,05,84,64,220,31,85,34,321,40,69,33,020,22,79,23,086,29,1*7B
$GLGSV,2,2,05,80,17,140,21,1*45
$GAGSV,2,1,06,08,66,324,42,15,66,162,35,13,55,316,39,03,33,037,40,7*75
$GAGSV,2,2,06,34,15,149,20,26,04,324,,7*7D
$GAGSV,2,1,05,08,66,324,46,15,66,162,26,13,55,316,43,03,33,037,38,1*74
$GAGSV,2,2,05,34,15,149,25,1*48
$GBGSV,3,1,11,39,66,204,43,38,66,024,42,06,54,202,28,20,51,000,39,1*75
$GBGSV,3,2,11,13,50,342,44,29,48,257,43,37,32,094,40,19,31,295,25,1*7A
$GBGSV,3,3,11,46,25,158,,32,21,060,41,35,16,312,38,1*44
$GBGSV,2,1,07,38,66,024,43,39,66,204,41,20,51,000,39,29,48,257,41,4*7A
$GBGSV,2,2,07,37,32,094,33,32,21,060,37,35,16,312,35,4*4B
$GNGGA,094033.000,2500.7753939,N,12132.4579226,E,2,44,0.54,15.532,M,15.25,M,3,3335*43
$GNRMC,094033.000,A,2500.7753939,N,12132.4579226,E,0.01,203.42,260623,,,D,V*0F
$GPHDT,,T*1B
$GNGGA,094033.200,2500.7753879,N,12132.4579226,E,2,44,0.54,15.519,M,15.25,M,2,3335*4C
$GNRMC,094033.200,A,2500.7753879,N,12132.4579226,E,0.00,203.42,260623,,,D,V*09
$GPHDT,,T*1B
$GNGGA,094033.400,2500.7753879,N,12132.4579286,E,2,44,0.54,15.505,M,15.25,M,2,3335*4D
$GNRMC,094033.400,A,2500.7753879,N,12132.4579286,E,0.00,203.42,260623,,,D,V*05
$GPHDT,,T*1B
$GNGGA,094033.600,2500.7753819,N,12132.4579226,E,2,44,0.54,15.492,M,15.25,M,0,3335*4E
$GNRMC,094033.600,A,2500.7753819,N,12132.4579226,E,0.00,203.42,260623,,,D,V*0B
$GPHDT,,T*1B
$GNGGA,094033.800,2500.7753759,N,12132.4579286,E,2,44,0.54,15.483,M,15.25,M,0,3335*41
$GNRMC,094033.800,A,2500.7753759,N,12132.4579286,E,0.01,203.42,260623,,,D,V*05
$GPHDT,,T*1B
$GNGSA,A,3,196,15,199,13,05,18,29,20,11,,,,1.03,0.54,0.88,1*0E
$GNGSA,A,3,84,85,69,79,80,,,,,,,,1.03,0.54,0.88,2*09
$GNGSA,A,3,08,15,13,03,34,,,,,,,,1.03,0.54,0.88,3*0A
$GNGSA,A,3,39,38,20,13,29,37,19,32,35,,,,1.03,0.54,0.88,4*06
$GPGSV,3,1,12,196,72,046,42,15,63,340,44,199,60,167,25,13,44,029,47,1*66
$GPGSV,3,2,12,05,43,065,44,41,38,242,37,18,37,320,43,29,28,234,42,1*60
$GPGSV,3,3,12,20,27,093,31,11,19,144,25,194,16,150,30,24,,,23,1*6D
$GPGSV,2,1,06,196,72,046,45,199,60,167,33,18,37,320,44,11,19,144,29,8*69
$GPGSV,2,2,06,194,16,150,20,24,,,22,8*60
$GLGSV,2,1,05,84,64,220,31,85,34,321,40,69,33,020,21,79,23,086,30,1*70
$GLGSV,2,2,05,80,17,140,22,1*46
$GAGSV,2,1,07,08,66,324,42,15,66,162,35,13,55,316,39,03,33,037,40,7*74
$GAGSV,2,2,07,34,15,149,20,26,04,324,,25,01,078,,7*45
$GAGSV,2,1,05,08,66,324,46,15,66,162,26,13,55,316,43,03,33,037,38,1*74
$GAGSV,2,2,05,34,15,149,25,1*48
$GBGSV,3,1,12,39,66,204,43,38,66,024,42,06,54,202,28,20,51,000,39,1*76
$GBGSV,3,2,12,13,50,342,44,29,48,257,43,37,32,094,40,19,31,295,25,1*79
$GBGSV,3,3,12,46,25,158,,32,21,060,41,35,16,312,38,23,07,048,,1*7D
$GBGSV,2,1,07,38,66,024,43,39,66,204,41,20,51,000,39,29,48,257,41,4*7A
$GBGSV,2,2,07,37,32,094,33,32,21,060,37,35,16,312,35,4*4B
$GNGGA,094034.000,2500.7753639,N,12132.4579286,E,2,44,0.54,15.465,M,15.25,M,1,3335*40
$GNRMC,094034.000,A,2500.7753639,N,12132.4579286,E,0.00,203.42,260623,,,D,V*0C
$GPHDT,,T*1B
$GNGGA,094034.200,2500.7755641,N,12132.4580914,E,4,44,0.54,15.924,M,15.25,M,1,3335*43
$GNRMC,094034.200,A,2500.7755641,N,12132.4580914,E,0.01,203.42,260623,,,R,V*16
$GPHDT,,T*1B
$GNGGA,094034.400,2500.7755628,N,12132.4580915,E,4,44,0.54,15.920,M,15.25,M,1,3335*4F
$GNRMC,094034.400,A,2500.7755628,N,12132.4580915,E,0.00,203.42,260623,,,R,V*1F
$GPHDT,,T*1B
$GNGGA,094034.600,2500.7755638,N,12132.4580894,E,4,44,0.54,15.922,M,15.25,M,1,3335*46
$GNRMC,094034.600,A,2500.7755638,N,12132.4580894,E,0.00,203.42,260623,,,R,V*14
$GPHDT,,T*1B
$GNGGA,094034.800,2500.7755648,N,12132.4580910,E,4,44,0.54,15.923,M,15.25,M,1,3335*43
$GNRMC,094034.800,A,2500.7755648,N,12132.4580910,E,0.00,203.42,260623,,,R,V*10
