$FW : RTK35X,V1.1X0314AS,Lib20210517,1*54
$Tool : LOCOSYS , GNSS Firebird , v1.0.0.19*39
$---------------------------------------------------*2D
$GPHDT,,T*1B
$GNGGA,094114.800,2500.7755398,N,12132.4580069,E,2,44,0.53,16.298,M,15.25,M,16,3335*70
$GNRMC,094114.800,A,2500.7755398,N,12132.4580069,E,0.01,203.42,260623,,,D,V*0B
$GPHDT,,T*1B
$GNGSA,A,3,196,15,199,13,05,18,29,20,11,,,,1.03,0.53,0.88,1*09
$GNGSA,A,3,84,85,69,79,80,,,,,,,,1.03,0.53,0.88,2*0E
$GNGSA,A,3,08,15,13,03,34,,,,,,,,1.03,0.53,0.88,3*0D
$GNGSA,A,3,39,38,13,20,29,37,19,46,32,35,,,1.03,0.53,0.88,4*03
$GPGSV,4,1,13,196,72,047,40,15,63,341,45,199,60,167,26,13,44,030,40,1*6F
$GPGSV,4,2,13,05,43,066,45,41,38,242,38,18,37,320,41,29,28,234,43,1*68
$GPGSV,4,3,13,20,26,093,33,11,18,144,27,194,16,150,26,195,,,26,1*52
$GPGSV,4,4,13,24,,,18,1*69
$GPGSV,2,1,06,196,72,047,42,199,60,167,33,18,37,320,40,11,18,144,31,8*63
$GPGSV,2,2,06,194,16,150,22,24,,,16,8*65
$GLGSV,2,1,05,84,64,219,33,85,34,320,41,69,33,020,29,79,23,086,34,1*74
$GLGSV,2,2,05,80,17,140,22,1*46
$GAGSV,2,1,08,08,66,325,40,15,66,162,34,13,55,316,42,03,33,037,36,7*74
$GAGSV,2,2,08,07,30,253,19,34,15,149,,30,01,170,,25,01,077,,7*7E
$GAGSV,2,1,06,08,66,325,46,15,66,162,33,13,55,316,44,03,33,037,38,1*75
$GAGSV,2,2,06,07,30,253,23,34,15,149,29,1*76
$GBGSV,3,1,11,39,67,204,43,38,66,024,39,06,54,202,28,13,51,342,43,1*70
$GBGSV,3,2,11,20,51,000,37,29,48,256,42,37,32,094,39,19,31,295,17,1*75
$GBGSV,3,3,11,46,25,158,29,32,20,060,42,35,16,312,34,1*41
$GBGSV,2,1,08,39,67,204,42,38,66,024,41,20,51,000,34,29,48,256,40,4*78
$GBGSV,2,2,08,37,32,094,34,19,31,295,12,32,20,060,44,35,16,312,33,4*77
$GNGGA,094115.000,2500.7755338,N,12132.4580129,E,2,44,0.53,16.296,M,15.25,M,17,3335*79
$GNRMC,094115.000,A,2500.7755338,N,12132.4580129,E,0.01,203.42,260623,,,D,V*0D
$GPHDT,,T*1B
$GNGGA,094115.200,2500.7755278,N,12132.4580129,E,2,44,0.53,16.299,M,15.25,M,17,3335*71
$GNRMC,094115.200,A,2500.7755278,N,12132.4580129,E,0.01,203.42,260623,,,D,V*0A
$GPHDT,,T*1B
$GNGGA,094115.400,2500.7755278,N,12132.4580189,E,2,44,0.53,16.311,M,15.25,M,17,3335*7C
$GNRMC,094115.400,A,2500.7755278,N,12132.4580189,E,0.01,203.42,260623,,,D,V*06
$GPHDT,,T*1B
$GNGGA,094115.600,2500.7755218,N,12132.4580189,E,2,44,0.53,16.301,M,15.25,M,17,3335*79
$GNRMC,094115.600,A,2500.7755218,N,12132.4580189,E,0.01,203.42,260623,,,D,V*02
$GPHDT,,T*1B
$GNGGA,094115.800,2500.7755218,N,12132.4580189,E,2,45,0.53,16.296,M,15.25,M,17,3335*79
$GNRMC,094115.800,A,2500.7755218,N,12132.4580189,E,0.01,203.42,260623,,,D,V*0C
$GPHDT,,T*1B
$GNGSA,A,3,196,15,199,13,05,18,29,20,11,,,,1.03,0.53,0.88,1*09
$GNGSA,A,3,84,85,69,79,80,,,,,,,,1.03,0.53,0.88,2*0E
$GNGSA,A,3,08,15,13,03,34,,,,,,,,1.03,0.53,0.88,3*0D
$GNGSA,A,3,39,38,13,20,29,37,19,46,32,35,,,1.03,0.53,0.88,4*03
$GPGSV,4,1,13,196,72,047,40,15,63,341,45,199,60,167,26,13,44,030,40,1*6F
$GPGSV,4,2,13,05,43,066,45,41,38,242,38,18,37,320,41,29,28,234,43,1*68
$GPGSV,4,3,13,20,26,093,34,11,18,144,25,194,16,150,26,195,,,26,1*57
$GPGSV,4,4,13,24,,,17,1*66
$GPGSV,2,1,05,196,72,047,43,199,60,167,34,18,37,320,40,11,18,144,32,8*65
$GPGSV,2,2,05,194,16,150,22,8*67
$GLGSV,2,1,05,84,64,219,33,85,34,320,41,69,33,020,31,79,23,086,34,1*7D
$GLGSV,2,2,05,80,17,140,22,1*46
$GAGSV,2,1,08,08,66,325,40,15,66,162,34,13,55,316,42,03,33,037,36,7*74
$GAGSV,2,2,08,07,30,253,19,34,15,149,14,30,01,170,,25,01,077,,7*7B
$GAGSV,2,1,06,08,66,325,46,15,66,162,34,13,55,316,44,03,33,037,38,1*72
$GAGSV,2,2,06,07,30,253,23,34,15,149,29,1*76
$GBGSV,3,1,11,39,67,204,43,38,66,024,39,06,54,202,28,13,51,342,43,1*70
$GBGSV,3,2,11,20,51,000,37,29,48,256,42,37,32,094,39,19,31,295,17,1*75
$GBGSV,3,3,11,46,25,158,30,32,20,060,42,35,16,312,34,1*49
$GBGSV,2,1,08,39,67,204,42,38,66,024,41,20,51,000,34,29,48,256,40,4*78
$GBGSV,2,2,08,37,32,094,34,19,31,295,12,32,20,060,44,35,16,312,33,4*77
$GNGGA,094116.000,2500.7755158,N,12132.4580249,E,2,45,0.53,16.295,M,15.25,M,18,3335*76
$GNRMC,094116.000,A,2500.7755158,N,12132.4580249,E,0.01,203.42,260623,,,D,V*0F
$GPHDT,,T*1B
$GNGGA,094116.200,2500.7755098,N,12132.4580249,E,2,45,0.53,16.284,M,15.25,M,18,3335*79
$GNRMC,094116.200,A,2500.7755098,N,12132.4580249,E,0.01,203.42,260623,,,D,V*00
$GPHDT,,T*1B
$GNGGA,094116.400,2500.7755038,N,12132.4580249,E,2,45,0.53,16.280,M,15.25,M,18,3335*71
$GNRMC,094116.400,A,2500.7755038,N,12132.4580249,E,0.01,203.42,260623,,,D,V*0C
$GPHDT,,T*1B
$GNGGA,094116.600,2500.7754978,N,12132.4580249,E,2,44,0.53,16.278,M,15.25,M,18,3335*79
$GNRMC,094116.600,A,2500.7754978,N,12132.4580249,E,0.01,203.42,260623,,,D,V*02
$GPHDT,,T*1B
$GNGGA,094116.800,2500.7754978,N,12132.4580249,E,2,43,0.53,16.280,M,15.25,M,18,3335*77
$GNRMC,094116.800,A,2500.7754978,N,12132.4580249,E,0.01,203.42,260623,,,D,V*0C
$GPHDT,,T*1B
$GNGSA,A,3,196,15,199,13,05,18,29,20,11,,,,1.03,0.53,0.88,1*09
$GNGSA,A,3,84,85,69,79,80,,,,,,,,1.03,0.53,0.88,2*0E
$GNGSA,A,3,08,15,13,03,34,,,,,,,,1.03,0.53,0.88,3*0D
$GNGSA,A,3,39,38,13,20,29,37,19,46,32,35,,,1.03,0.53,0.88,4*03
$GPGSV,4,1,13,196,72,047,41,15,63,341,45,199,60,167,26,13,44,030,40,1*6E
$GPGSV,4,2,13,05,43,066,45,41,38,242,38,18,37,320,41,29,28,234,43,1*68
$GPGSV,4,3,13,20,26,093,34,11,18,144,26,194,16,150,26,195,,,26,1*54
$GPGSV,4,4,13,24,,,17,1*66
$GPGSV,2,1,05,196,72,047,43,199,60,167,34,18,37,320,40,11,18,144,32,8*65
$GPGSV,2,2,05,194,16,150,22,8*67
$GLGSV,2,1,05,84,64,219,32,85,34,320,41,69,33,020,31,79,23,086,33,1*7B
$GLGSV,2,2,05,80,17,140,23,1*47
$GAGSV,2,1,07,08,66,325,41,15,66,162,34,13,55,316,42,03,33,037,36,7*7A
$GAGSV,2,2,07,07,30,253,19,34,15,149,12,30,01,170,,7*44
$GAGSV,2,1,06,08,66,325,46,15,66,162,34,13,55,316,44,03,33,037,38,1*72
$GAGSV,2,2,06,07,30,253,23,34,15,149,29,1*76
$GBGSV,3,1,11,39,67,204,43,38,66,024,39,06,54,202,28,13,51,342,43,1*70
$GBGSV,3,2,11,20,51,000,37,29,48,256,42,37,32,094,39,19,31,295,16,1*74
$GBGSV,3,3,11,46,25,158,31,32,20,060,42,35,16,312,34,1*48
$GBGSV,2,1,07,39,67,204,42,38,66,024,41,20,51,000,34,29,48,256,40,4*77
$GBGSV,2,2,07,37,32,094,35,32,20,060,44,35,16,312,33,4*4E
$GNGGA,094117.000,2500.7754858,N,12132.4580249,E,2,44,0.53,16.277,M,15.25,M,19,3335*73
$GNRMC,094117.000,A,2500.7754858,N,12132.4580249,E,0.01,203.42,260623,,,D,V*06
$GPHDT,,T*1B
$GNGGA,094117.200,2500.7754858,N,12132.4580249,E,2,45,0.53,16.264,M,15.25,M,19,3335*72
$GNRMC,094117.200,A,2500.7754858,N,12132.4580249,E,0.01,203.42,260623,,,D,V*04
$GPHDT,,T*1B
$GNGGA,094117.400,2500.7754798,N,12132.4580249,E,2,45,0.53,16.256,M,15.25,M,19,3335*76
$GNRMC,094117.400,A,2500.7754798,N,12132.4580249,E,0.01,203.42,260623,,,D,V*01
$GPHDT,,T*1B
$GNGGA,094117.600,2500.7754738,N,12132.4580249,E,2,46,0.53,16.248,M,15.25,M,17,3335*7C
$GNRMC,094117.600,A,2500.7754738,N,12132.4580249,E,0.01,203.42,260623,,,D,V*09
$GPHDT,,T*1B
$GNGGA,094117.800,2500.7754678,N,12132.4580249,E,2,45,0.53,16.238,M,15.25,M,15,3335*71
$GNRMC,094117.800,A,2500.7754678,N,12132.4580249,E,0.02,203.42,260623,,,D,V*01
$GPHDT,,T*1B
$GNGSA,A,3,196,15,199,13,05,18,29,20,11,,,,1.03,0.53,0.88,1*09
$GNGSA,A,3,84,85,69,79,80,,,,,,,,1.03,0.53,0.88,2*0E
$GNGSA,A,3,08,15,13,03,34,,,,,,,,1.03,0.53,0.88,3*0D
$GNGSA,A,3,39,38,13,20,29,37,19,46,32,35,,,1.03,0.53,0.88,4*03
$GPGSV,4,1,13,196,72,047,41,15,63,341,45,199,60,167,26,13,44,030,40,1*6E
$GPGSV,4,2,13,05,43,066,45,41,38,242,38,18,37,320,41,29,28,234,43,1*68
$GPGSV,4,3,13,20,26,093,33,11,18,144,25,194,16,150,26,195,,,25,1*53
$GPGSV,4,4,13,24,,,17,1*66
$GPGSV,2,1,05,196,72,047,43,199,60,167,34,18,37,320,40,11,18,144,32,8*65
$GPGSV,2,2,05,194,16,150,22,8*67
$GLGSV,2,1,05,84,64,219,32,85,34,320,41,69,33,020,31,79,23,086,33,1*7B
$GLGSV,2,2,05,80,17,140,23,1*47
$GAGSV,2,1,07,08,66,325,41,15,66,162,34,13,55,316,42,03,33,037,36,7*7A
$GAGSV,2,2,07,07,31,254,19,34,15,149,,30,01,170,,7*41
$GAGSV,2,1,06,08,66,325,46,15,66,162,34,13,55,316,44,03,33,037,38,1*72
$GAGSV,2,2,06,07,31,254,23,34,15,149,29,1*70
$GBGSV,3,1,11,39,67,204,43,38,66,024,39,06,54,202,26,13,51,342,43,1*7E
$GBGSV,3,2,11,20,51,000,37,29,48,256,42,37,32,094,39,19,31,295,16,1*74
$GBGSV,3,3,11,46,25,158,31,32,20,060,42,35,16,312,34,1*48
$GBGSV,2,1,08,39,67,204,42,38,66,024,41,20,51,000,34,29,48,256,40,4*78
$GBGSV,2,2,08,37,32,094,34,46,25,158,30,32,20,060,44,35,16,312,33,4*7A
$GNGGA,094118.000,2500.7754678,N,12132.4580249,E,2,45,0.53,16.229,M,15.25,M,16,3335*75
$GNRMC,094118.000,A,2500.7754678,N,12132.4580249,E,0.01,203.42,260623,,,D,V*05
$GPHDT,,T*1B
$GNGGA,094118.200,2500.7754618,N,12132.4580249,E,2,45,0.53,16.216,M,15.25,M,14,3335*7F
$GNRMC,094118.200,A,2500.7754618,N,12132.4580249,E,0.01,203.42,260623,,,D,V*01
$GPHDT,,T*1B
$GNGGA,094118.400,2500.7754558,N,12132.4580249,E,2,45,0.53,16.210,M,15.25,M,12,3335*7E
$GNRMC,094118.400,A,2500.7754558,N,12132.4580249,E,0.01,203.42,260623,,,D,V*00
$GPHDT,,T*1B
$GNGGA,094118.600,2500.7754498,N,12132.4580249,E,2,45,0.53,16.208,M,15.25,M,11,3335*7B
$GNRMC,094118.600,A,2500.7754498,N,12132.4580249,E,0.01,203.42,260623,,,D,V*0F
$GPHDT,,T*1B
$GNGGA,094118.800,2500.7754378,N,12132.4580249,E,2,45,0.53,16.193,M,15.25,M,7,3335*4A
$GNRMC,094118.800,A,2500.7754378,N,12132.4580249,E,0.01,203.42,260623,,,D,V*08
$GPHDT,,T*1B
$GNGSA,A,3,196,15,199,13,05,18,29,20,11,,,,1.03,0.53,0.88,1*09
$GNGSA,A,3,84,85,69,79,80,,,,,,,,1.03,0.53,0.88,2*0E
$GNGSA,A,3,08,15,13,03,34,,,,,,,,1.03,0.53,0.88,3*0D
$GNGSA,A,3,39,38,13,20,29,37,19,46,32,35,,,1.03,0.53,0.88,4*03
$GPGSV,4,1,13,196,72,047,41,15,63,341,45,199,60,167,26,13,44,030,40,1*6E
$GPGSV,4,2,13,05,43,066,45,41,38,242,38,18,37,320,41,29,28,234,43,1*68
$GPGSV,4,3,13,20,26,093,33,11,18,144,25,194,16,150,27,195,,,24,1*53
$GPGSV,4,4,13,24,,,18,1*69
$GPGSV,2,1,05,196,72,047,43,199,60,167,34,18,37,320,40,11,18,144,32,8*65
$GPGSV,2,2,05,194,16,150,22,8*67
$GLGSV,2,1,05,84,64,219,32,85,34,320,41,69,33,020,31,79,23,086,32,1*7A
$GLGSV,2,2,05,80,17,140,22,1*46
$GAGSV,2,1,07,08,66,325,41,15,66,162,33,13,56,316,42,03,33,037,36,7*7E
$GAGSV,2,2,07,07,31,254,20,34,15,149,,30,01,170,,7*4B
$GAGSV,2,1,06,08,66,325,46,15,66,162,34,13,56,316,44,03,33,037,38,1*71
$GAGSV,2,2,06,07,31,254,22,34,15,149,29,1*71
$GBGSV,3,1,11,39,67,204,43,38,66,024,39,06,54,202,28,13,51,342,43,1*70
$GBGSV,3,2,11,20,51,000,37,29,48,256,42,37,32,094,39,19,31,295,15,1*77
$GBGSV,3,3,11,46,25,158,31,32,20,060,42,35,16,312,34,1*48
$GBGSV,2,1,08,39,67,204,41,38,66,024,41,20,51,000,34,29,48,256,40,4*7B
$GBGSV,2,2,08,37,32,094,34,46,25,158,30,32,20,060,44,35,16,312,33,4*7A
$GNGGA,094119.000,2500.7754318,N,12132.4580309,E,2,45,0.53,16.194,M,15.25,M,6,3335*46
$GNRMC,094119.000,A,2500.7754318,N,12132.4580309,E,0.01,203.42,260623,,,D,V*02
$GPHDT,,T*1B
$GNGGA,094119.200,2500.7754258,N,12132.4580369,E,2,45,0.53,16.178,M,15.25,M,5,3335*46
$GNRMC,094119.200,A,2500.7754258,N,12132.4580369,E,0.01,203.42,260623,,,D,V*03
$GPHDT,,T*1B
$GNGGA,094119.400,2500.7754198,N,12132.4580369,E,2,45,0.53,16.166,M,15.25,M,3,3335*46
$GNRMC,094119.400,A,2500.7754198,N,12132.4580369,E,0.01,203.42,260623,,,D,V*0A
$GPHDT,,T*1B
$GNGGA,094119.600,2500.7754138,N,12132.4580429,E,2,44,0.55,16.165,M,15.25,M,1,3335*4B
$GNRMC,094119.600,A,2500.7754138,N,12132.4580429,E,0.01,203.42,260623,,,D,V*01
$GPHDT,,T*1B
$GNGGA,094119.800,2500.7754138,N,12132.4580429,E,2,44,0.55,16.147,M,15.25,M,0,3335*44
$GNRMC,094119.800,A,2500.7754138,N,12132.4580429,E,0.01,203.42,260623,,,D,V*0F
$GPHDT,,T*1B
$GNGSA,A,3,196,15,199,13,05,18,29,20,11,,,,1.06,0.55,0.90,1*03
$GNGSA,A,3,84,85,69,79,80,,,,,,,,1.06,0.55,0.90,2*04
$GNGSA,A,3,08,15,13,03,34,,,,,,,,1.06,0.55,0.90,3*07
$GNGSA,A,3,39,38,13,20,29,37,46,32,35,,,,1.06,0.55,0.90,4*01
$GPGSV,4,1,13,196,72,047,41,15,63,341,45,199,60,167,26,13,44,030,40,1*6E
$GPGSV,4,2,13,05,43,066,45,41,38,242,38,18,37,320,41,29,28,234,43,1*68
$GPGSV,4,3,13,20,26,093,32,11,18,144,24,194,16,150,28,195,,,24,1*5C
$GPGSV,4,4,13,24,,,18,1*69
$GPGSV,2,1,05,196,72,047,43,199,60,167,34,18,37,320,40,11,18,144,31,8*66
$GPGSV,2,2,05,194,16,150,22,8*67
$GLGSV,2,1,05,84,64,219,32,85,34,320,41,69,33,020,32,79,23,086,32,1*79
$GLGSV,2,2,05,80,17,140,21,1*45
$GAGSV,2,1,07,08,66,325,41,15,66,162,33,13,56,316,41,03,33,037,36,7*7D
$GAGSV,2,2,07,07,31,254,22,34,15,149,,30,01,170,,7*49
$GAGSV,2,1,06,08,66,325,46,15,66,162,34,13,56,316,44,03,33,037,38,1*71
$GAGSV,2,2,06,07,31,254,21,34,15,149,29,1*72
$GBGSV,3,1,11,39,67,204,43,38,66,024,39,06,54,202,28,13,51,342,43,1*70
$GBGSV,3,2,11,20,51,000,37,29,48,256,42,37,32,094,39,19,31,295,16,1*74
$GBGSV,3,3,11,46,25,158,32,32,20,060,42,35,16,312,34,1*4B
$GBGSV,2,1,08,39,67,204,41,38,66,024,41,20,51,000,34,29,48,256,40,4*7B
$GBGSV,2,2,08,37,32,094,34,46,25,158,30,32,20,060,44,35,16,312,33,4*7A
$GNGGA,094120.000,2500.7754078,N,12132.4580489,E,2,44,0.55,16.140,M,15.25,M,1,3335*4F
$GNRMC,094120.000,A,2500.7754078,N,12132.4580489,E,0.01,203.42,260623,,,D,V*02
$GPHDT,,T*1B
$GNGGA,094120.200,2500.7754018,N,12132.4580549,E,2,43,0.55,16.142,M,15.25,M,1,3335*43
$GNRMC,094120.200,A,2500.7754018,N,12132.4580549,E,0.01,203.42,260623,,,D,V*0B
$GPHDT,,T*1B
$GNGGA,094120.400,2500.7753898,N,12132.4580669,E,2,43,0.55,16.131,M,15.25,M,1,3335*47
$GNRMC,094120.400,A,2500.7753898,N,12132.4580669,E,0.01,203.42,260623,,,D,V*0B
$GPHDT,,T*1B
$GNGGA,094120.600,2500.7753958,N,12132.4580609,E,2,43,0.55,16.140,M,15.25,M,0,3335*49
$GNRMC,094120.600,A,2500.7753958,N,12132.4580609,E,0.02,203.42,260623,,,D,V*01
$GPHDT,,T*1B
$GNGGA,094120.800,2500.7753898,N,12132.4580669,E,2,43,0.55,16.137,M,15.25,M,0,3335*4C
$GNRMC,094120.800,A,2500.7753898,N,12132.4580669,E,0.06,203.42,260623,,,D,V*00
$GPHDT,,T*1B
$GNGSA,A,3,196,15,199,13,05,18,29,20,11,,,,1.06,0.55,0.90,1*03
$GNGSA,A,3,84,85,69,79,80,,,,,,,,1.06,0.55,0.90,2*04
$GNGSA,A,3,08,15,13,03,34,,,,,,,,1.06,0.55,0.90,3*07
$GNGSA,A,3,39,38,13,20,29,37,46,32,35,,,,1.06,0.55,0.90,4*01
$GPGSV,4,1,13,196,72,047,41,15,63,341,45,199,60,167,27,13,44,030,39,1*61
$GPGSV,4,2,13,05,43,066,45,41,38,242,38,18,37,320,41,29,28,234,43,1*68
$GPGSV,4,3,13,20,26,093,31,11,18,144,24,194,16,150,28,195,,,24,1*5F
$GPGSV,4,4,13,24,,,18,1*69
$GPGSV,2,1,05,196,72,047,43,199,60,167,34,18,37,320,40,11,18,144,31,8*66
$GPGSV,2,2,05,194,16,150,22,8*67
$GLGSV,2,1,05,84,64,219,32,85,34,320,41,69,33,020,31,79,23,086,32,1*7A
$GLGSV,2,2,05,80,17,140,21,1*45
$GAGSV,2,1,06,08,66,325,41,15,66,162,33,13,56,316,41,03,33,037,36,7*7C
$GAGSV,2,2,06,07,31,254,22,34,15,149,,7*7C
$GAGSV,2,1,06,08,66,325,46,15,66,162,34,13,56,316,44,03,33,037,38,1*71
$GAGSV,2,2,06,07,31,254,20,34,15,149,29,1*73
$GBGSV,3,1,11,39,67,204,43,38,66,024,39,06,54,202,27,13,51,342,43,1*7F
$GBGSV,3,2,11,20,51,000,37,29,48,256,42,37,32,094,39,19,31,295,15,1*77
$GBGSV,3,3,11,46,25,158,32,32,20,060,42,35,16,312,34,1*4B
$GBGSV,2,1,08,39,67,204,41,38,66,024,41,20,51,000,34,29,48,256,40,4*7B
$GBGSV,2,2,08,37,32,094,34,46,25,158,29,32,20,060,44,35,16,312,33,4*72
$GNGGA,094121.000,2500.7753958,N,12132.4580609,E,2,43,0.55,16.144,M,15.25,M,1,3335*4B
$GNRMC,094121.000,A,2500.7753958,N,12132.4580609,E,0.03,203.42,260623,,,D,V*07
$GPHDT,,T*1B
$GNGGA,094121.200,2500.7753958,N,12132.4580609,E,2,43,0.55,16.146,M,15.25,M,1,3335*4B
$GNRMC,094121.200,A,2500.7753958,N,12132.4580609,E,0.01,203.42,260623,,,D,V*07
$GPHDT,,T*1B
$GNGGA,094121.400,2500.7753958,N,12132.4580609,E,2,43,0.55,16.150,M,15.25,M,1,3335*4A
$GNRMC,094121.400,A,2500.7753958,N,12132.4580609,E,0.04,203.42,260623,,,D,V*04
$GPHDT,,T*1B
$GNGGA,094121.600,2500.7753958,N,12132.4580609,E,2,43,0.55,16.154,M,15.25,M,1,3335*4C
$GNRMC,094121.600,A,2500.7753958,N,12132.4580609,E,0.05,203.42,260623,,,D,V*07
$GPHDT,,T*1B
$GNGGA,094121.800,2500.7753958,N,12132.4580609,E,2,43,0.55,16.157,M,15.25,M,0,3335*40
$GNRMC,094121.800,A,2500.7753958,N,12132.4580609,E,0.03,203.42,260623,,,D,V*0F
$GPHDT,,T*1B
$GNGSA,A,3,196,15,199,13,05,18,29,20,11,,,,1.06,0.55,0.90,1*03
$GNGSA,A,3,84,85,69,79,80,,,,,,,,1.06,0.55,0.90,2*04
$GNGSA,A,3,08,15,13,03,34,,,,,,,,1.06,0.55,0.90,3*07
$GNGSA,A,3,39,38,13,20,29,37,46,32,35,,,,1.06,0.55,0.90,4*01
$GPGSV,4,1,13,196,72,047,41,15,63,341,45,199,60,167,27,13,44,030,39,1*61
$GPGSV,4,2,13,05,43,066,45,41,38,242,38,18,37,320,41,29,28,234,43,1*68
$GPGSV,4,3,13,20,26,093,31,11,18,144,22,194,16,150,28,195,,,24,1*59
$GPGSV,4,4,13,24,,,18,1*69
$GPGSV,2,1,05,196,72,047,43,199,60,167,34,18,37,320,40,11,18,144,31,8*66
$GPGSV,2,2,05,194,16,150,23,8*66
$GLGSV,2,1,05,84,64,219,32,85,34,320,42,69,33,020,30,79,23,086,32,1*78
$GLGSV,2,2,05,80,17,140,21,1*45
$GAGSV,2,1,06,08,66,325,41,15,66,162,33,13,56,316,41,03,33,037,36,7*7C
$GAGSV,2,2,06,07,31,254,22,34,15,149,,7*7C
$GAGSV,2,1,06,08,66,325,46,15,66,162,34,13,56,316,44,03,33,037,38,1*71
$GAGSV,2,2,06,07,31,254,20,34,15,149,29,1*73
$GBGSV,3,1,11,39,67,204,43,38,66,024,39,06,54,202,27,13,51,342,43,1*7F
$GBGSV,3,2,11,20,51,000,37,29,48,256,42,37,32,094,39,19,31,295,16,1*74
$GBGSV,3,3,11,46,25,158,32,32,20,060,42,35,16,312,33,1*4C
$GBGSV,2,1,08,39,67,204,41,38,66,024,41,20,51,000,34,29,48,256,40,4*7B
$GBGSV,2,2,08,37,32,094,34,46,25,158,30,32,20,060,44,35,16,312,33,4*7A
$GNGGA,094122.000,2500.7753958,N,12132.4580609,E,2,43,0.55,16.160,M,15.25,M,1,3335*4E
$GNRMC,094122.000,A,2500.7753958,N,12132.4580609,E,0.00,203.42,260623,,,D,V*07
$GPHDT,,T*1B
$GNGGA,094122.200,2500.7753958,N,12132.4580609,E,2,44,0.53,16.159,M,15.25,M,1,3335*47
$GNRMC,094122.200,A,2500.7753958,N,12132.4580609,E,0.01,203.42,260623,,,D,V*04
$GPHDT,,T*1B
$GNGGA,094122.400,2500.7753958,N,12132.4580609,E,2,44,0.53,16.162,M,15.25,M,1,3335*49
$GNRMC,094122.400,A,2500.7753958,N,12132.4580609,E,0.01,203.42,260623,,,D,V*02
$GPHDT,,T*1B
$GNGGA,094122.600,2500.7753958,N,12132.4580609,E,2,44,0.53,16.164,M,15.25,M,1,3335*4D
$GNRMC,094122.600,A,2500.7753958,N,12132.4580609,E,0.01,203.42,260623,,,D,V*00
$GPHDT,,T*1B
$GNGGA,094122.800,2500.7753958,N,12132.4580609,E,2,44,0.53,16.166,M,15.25,M,1,3335*41
$GNRMC,094122.800,A,2500.7753958,N,12132.4580609,E,0.03,203.42,260623,,,D,V*0C
$GPHDT,,T*1B
$GNGSA,A,3,196,15,199,13,05,18,29,20,11,,,,1.03,0.53,0.88,1*09
$GNGSA,A,3,84,85,69,79,80,,,,,,,,1.03,0.53,0.88,2*0E
$GNGSA,A,3,08,15,13,03,34,,,,,,,,1.03,0.53,0.88,3*0D
$GNGSA,A,3,39,38,13,20,29,37,19,46,32,35,,,1.03,0.53,0.88,4*03
$GPGSV,4,1,13,196,72,047,41,15,63,341,45,199,60,167,27,13,44,030,37,1*6F
$GPGSV,4,2,13,05,43,066,45,41,38,242,38,18,37,320,41,29,28,234,43,1*68
$GPGSV,4,3,13,20,26,093,31,11,18,144,23,194,16,150,28,195,,,24,1*58
$GPGSV,4,4,13,24,,,19,1*68
$GPGSV,2,1,05,196,72,047,43,199,60,167,34,18,37,320,40,11,18,144,31,8*66
$GPGSV,2,2,05,194,16,150,23,8*66
$GLGSV,2,1,05,84,64,219,32,85,34,320,42,69,33,020,30,79,23,086,32,1*78
$GLGSV,2,2,05,80,17,140,21,1*45
$GAGSV,2,1,06,08,66,325,41,15,66,162,32,13,56,316,41,03,33,037,36,7*7D
$GAGSV,2,2,06,07,31,254,23,34,15,149,,7*7D
$GAGSV,2,1,06,08,66,325,46,15,66,162,34,13,56,316,44,03,33,037,38,1*71
$GAGSV,2,2,06,07,31,254,20,34,15,149,29,1*73
$GBGSV,3,1,11,39,67,204,43,38,66,024,39,06,54,202,27,13,51,342,43,1*7F
$GBGSV,3,2,11,20,51,000,38,29,48,256,42,37,32,094,39,19,31,295,17,1*7A
$GBGSV,3,3,11,46,25,158,32,32,20,060,42,35,16,312,33,1*4C
$GBGSV,2,1,08,39,67,204,41,38,66,024,41,20,51,000,34,29,48,256,40,4*7B
$GBGSV,2,2,08,37,32,094,34,46,25,158,30,32,20,060,44,35,16,312,33,4*7A
$GNGGA,094123.000,2500.7753958,N,12132.4580609,E,2,44,0.53,16.170,M,15.25,M,1,3335*4F
$GNRMC,094123.000,A,2500.7753958,N,12132.4580609,E,0.01,203.42,260623,,,D,V*07
$GPHDT,,T*1B
$GNGGA,094123.200,2500.7753958,N,12132.4580609,E,2,44,0.53,16.177,M,15.25,M,1,3335*4A
$GNRMC,094123.200,A,2500.7753958,N,12132.4580609,E,0.01,203.42,260623,,,D,V*05
$GPHDT,,T*1B
$GNGGA,094123.400,2500.7753958,N,12132.4580609,E,2,44,0.53,16.180,M,15.25,M,1,3335*44
$GNRMC,094123.400,A,2500.7753958,N,12132.4580609,E,0.01,203.42,260623,,,D,V*03
$GPHDT,,T*1B
$GNGGA,094123.600,2500.7753958,N,12132.4580609,E,2,44,0.53,16.184,M,15.25,M,0,3335*43
$GNRMC,094123.600,A,2500.7753958,N,12132.4580609,E,0.02,203.42,260623,,,D,V*02
$GPHDT,,T*1B
$GNGGA,094123.800,2500.7753958,N,12132.4580609,E,2,44,0.53,16.188,M,15.25,M,0,3335*41
$GNRMC,094123.800,A,2500.7753958,N,12132.4580609,E,0.05,203.42,260623,,,D,V*0B
$GPHDT,,T*1B
$GNGSA,A,3,196,15,199,13,05,18,29,20,11,,,,1.03,0.53,0.88,1*09
$GNGSA,A,3,84,85,69,79,80,,,,,,,,1.03,0.53,0.88,2*0E
$GNGSA,A,3,08,15,13,03,34,,,,,,,,1.03,0.53,0.88,3*0D
$GNGSA,A,3,39,38,13,20,29,37,19,46,32,35,,,1.03,0.53,0.88,4*03
$GPGSV,4,1,13,196,72,047,41,15,63,341,45,199,60,167,27,13,44,030,35,1*6D
$GPGSV,4,2,13,05,43,066,45,41,38,242,38,18,37,320,41,29,28,234,43,1*68
$GPGSV,4,3,13,20,26,093,31,11,18,144,24,194,16,150,28,195,,,24,1*5F
$GPGSV,4,4,13,24,,,19,1*68
$GPGSV,2,1,06,196,72,047,43,199,60,167,34,18,37,320,40,11,18,144,31,8*65
$GPGSV,2,2,06,194,16,150,22,24,,,19,8*6A
$GLGSV,2,1,05,84,64,219,32,85,34,320,42,69,33,020,30,79,23,086,32,1*78
$GLGSV,2,2,05,80,17,140,21,1*45
$GAGSV,2,1,06,08,66,325,41,15,66,162,32,13,56,316,41,03,33,037,36,7*7D
$GAGSV,2,2,06,07,31,254,23,34,15,149,,7*7D
$GAGSV,2,1,06,08,66,325,46,15,66,162,34,13,56,316,44,03,33,037,38,1*71
$GAGSV,2,2,06,07,31,254,19,34,15,149,29,1*79
$GBGSV,3,1,11,39,67,204,43,38,66,024,39,06,54,202,27,13,51,342,43,1*7F
$GBGSV,3,2,11,20,51,000,38,29,48,256,42,37,32,094,39,19,31,295,17,1*7A
$GBGSV,3,3,11,46,25,158,32,32,20,060,42,35,16,312,33,1*4C
$GBGSV,2,1,08,39,67,204,41,38,66,024,41,20,51,000,34,29,48,256,40,4*7B
$GBGSV,2,2,08,37,32,094,35,46,25,158,30,32,20,060,44,35,16,312,33,4*7B
$GNGGA,094124.000,2500.7753958,N,12132.4580609,E,2,44,0.53,16.191,M,15.25,M,1,3335*47
$GNRMC,094124.000,A,2500.7753958,N,12132.4580609,E,0.01,203.42,260623,,,D,V*00
$GPHDT,,T*1B
$GNGGA,094124.200,2500.7754018,N,12132.4580609,E,2,44,0.53,16.196,M,15.25,M,1,3335*48
$GNRMC,094124.200,A,2500.7754018,N,12132.4580609,E,0.01,203.42,260623,,,D,V*08
$GPHDT,,T*1B
$GNGGA,094124.400,2500.7753958,N,12132.4580609,E,2,44,0.53,16.199,M,15.25,M,1,3335*4B
$GNRMC,094124.400,A,2500.7753958,N,12132.4580609,E,0.01,203.42,260623,,,D,V*04
$GPHDT,,T*1B
$GNGGA,094124.600,2500.7753958,N,12132.4580609,E,2,44,0.53,16.203,M,15.25,M,1,3335*49
$GNRMC,094124.600,A,2500.7753958,N,12132.4580609,E,0.00,203.42,260623,,,D,V*07
$GPHDT,,T*1B
$GNGGA,094124.800,2500.7753958,N,12132.4580609,E,2,44,0.53,16.205,M,15.25,M,0,3335*40
$GNRMC,094124.800,A,2500.7753958,N,12132.4580609,E,0.03,203.42,260623,,,D,V*0A
$GPHDT,,T*1B
$GNGSA,A,3,196,15,199,13,05,18,29,20,11,,,,1.03,0.53,0.88,1*09
$GNGSA,A,3,84,85,69,79,80,,,,,,,,1.03,0.53,0.88,2*0E
$GNGSA,A,3,08,15,13,03,34,,,,,,,,1.03,0.53,0.88,3*0D
$GNGSA,A,3,39,38,13,20,29,37,19,46,32,35,,,1.03,0.53,0.88,4*03
$GPGSV,4,1,13,196,72,047,41,15,63,341,45,199,60,167,26,13,44,030,33,1*6A
$GPGSV,4,2,13,05,43,066,45,41,38,242,38,18,37,320,41,29,28,234,43,1*68
$GPGSV,4,3,13,20,26,093,31,11,18,144,24,194,16,150,28,195,,,24,1*5F
$GPGSV,4,4,13,24,,,19,1*68
$GPGSV,2,1,06,196,72,047,43,199,60,167,34,18,37,320,40,11,18,144,31,8*65
$GPGSV,2,2,06,194,16,150,22,24,,,20,8*60
$GLGSV,2,1,05,84,64,219,32,85,34,320,42,69,33,020,30,79,23,086,33,1*79
$GLGSV,2,2,05,80,17,140,21,1*45
$GAGSV,2,1,06,08,66,325,41,15,66,162,32,13,56,316,41,03,33,037,36,7*7D
$GAGSV,2,2,06,07,31,254,23,34,15,149,,7*7D
$GAGSV,2,1,06,08,66,325,46,15,66,162,34,13,56,316,44,03,33,037,38,1*71
$GAGSV,2,2,06,07,31,254,18,34,15,149,29,1*78
$GBGSV,3,1,