$FW : RTK35X,V1.1X0314AS,Lib20210517,1*54
$Tool : LOCOSYS , GNSS Firebird , v1.0.0.19*39
$---------------------------------------------------*2D
$GPHDT,,T*1B
$GNGSA,A,3,196,15,199,13,05,18,29,20,11,,,,0.84,0.52,0.66,1*06
$GNGSA,A,3,84,85,69,79,80,,,,,,,,0.84,0.52,0.66,2*01
$GNGSA,A,3,08,15,13,03,34,,,,,,,,0.84,0.52,0.66,3*02
$GNGSA,A,3,39,38,13,20,29,37,19,46,32,35,,,0.84,0.52,0.66,4*0C
$GPGSV,4,1,13,196,72,047,42,15,63,341,42,199,60,167,26,13,44,030,45,1*6F
$GPGSV,4,2,13,05,43,066,42,41,38,242,37,18,37,320,40,29,28,234,46,1*64
$GPGSV,4,3,13,20,26,093,37,11,18,144,27,194,16,150,32,195,,,20,1*55
$GPGSV,4,4,13,24,,,19,1*68
$GPGSV,2,1,05,196,72,047,45,199,60,167,34,18,37,320,40,11,18,144,33,8*62
$GPGSV,2,2,05,194,16,150,21,8*64
$GLGSV,2,1,05,84,63,219,32,85,34,320,41,69,33,020,35,79,23,085,38,1*70
$GLGSV,2,2,05,80,17,140,18,1*4F
$GAGSV,2,1,08,08,66,325,37,15,66,162,31,13,56,316,41,03,33,037,35,7*72
$GAGSV,2,2,08,07,31,254,22,34,15,149,,02,07,122,,26,04,324,,7*73
$GAGSV,2,1,06,08,66,325,40,15,66,162,36,13,56,316,44,03,33,037,37,1*7A
$GAGSV,2,2,06,07,31,254,11,34,15,149,27,1*7F
$GBGSV,3,1,11,39,67,204,43,38,67,024,43,06,54,202,19,13,51,342,35,1*7F
$GBGSV,3,2,11,20,51,001,32,29,48,256,42,37,32,094,41,19,31,295,24,1*7E
$GBGSV,3,3,11,46,25,158,34,32,20,061,39,35,17,312,33,1*46
$GBGSV,3,1,09,39,67,204,42,38,67,024,43,20,51,001,33,29,48,256,39,4*73
$GBGSV,3,2,09,37,32,094,38,19,31,295,18,46,25,158,31,32,20,061,42,4*7C
$GBGSV,3,3,09,35,17,312,29,4*41
$GNGGA,094136.000,2500.7753478,N,12132.4581689,E,2,45,0.52,16.388,M,15.25,M,3,3335*4A
$GNRMC,094136.000,A,2500.7753478,N,12132.4581689,E,0.03,136.49,260623,,,D,V*09
$GPHDT,,T*1B
$GNGGA,094136.200,2500.7753478,N,12132.4581689,E,2,45,0.52,16.388,M,15.25,M,1,3335*4A
$GNRMC,094136.200,A,2500.7753478,N,12132.4581689,E,0.02,136.49,260623,,,D,V*0A
$GPHDT,,T*1B
$GNGGA,094136.400,2500.7753478,N,12132.4581689,E,2,45,0.52,16.389,M,15.25,M,1,3335*4D
$GNRMC,094136.400,A,2500.7753478,N,12132.4581689,E,0.01,136.49,260623,,,D,V*0F
$GPHDT,,T*1B
$GNGGA,094136.600,2500.7753478,N,12132.4581689,E,2,45,0.52,16.390,M,15.25,M,1,3335*47
$GNRMC,094136.600,A,2500.7753478,N,12132.4581689,E,0.00,136.49,260623,,,D,V*0C
$GPHDT,,T*1B
$GNGGA,094136.800,2500.7753478,N,12132.4581689,E,2,45,0.52,16.390,M,15.25,M,0,3335*48
$GNRMC,094136.800,A,2500.7753478,N,12132.4581689,E,0.02,136.49,260623,,,D,V*00
$GPHDT,,T*1B
$GNGSA,A,3,196,15,199,13,05,18,29,20,11,,,,0.84,0.52,0.66,1*06
$GNGSA,A,3,84,85,69,79,80,,,,,,,,0.84,0.52,0.66,2*01
$GNGSA,A,3,08,15,13,03,34,,,,,,,,0.84,0.52,0.66,3*02
$GNGSA,A,3,39,38,13,20,29,37,19,46,32,35,,,0.84,0.52,0.66,4*0C
$GPGSV,4,1,13,196,72,047,42,15,63,341,42,199,60,167,26,13,44,030,45,1*6F
$GPGSV,4,2,13,05,43,066,42,41,38,242,36,18,37,320,39,29,28,234,46,1*6B
$GPGSV,4,3,13,20,26,093,36,11,18,144,28,194,16,150,32,195,,,19,1*51
$GPGSV,4,4,13,24,,,20,1*62
$GPGSV,2,1,05,196,72,047,46,199,60,167,34,18,37,320,40,11,18,144,34,8*66
$GPGSV,2,2,05,194,16,150,21,8*64
$GLGSV,2,1,05,84,63,219,33,85,34,320,41,69,33,020,35,79,23,085,38,1*71
$GLGSV,2,2,05,80,17,140,18,1*4F
$GAGSV,2,1,08,08,66,325,38,15,66,162,31,13,56,316,41,03,33,037,35,7*7D
$GAGSV,2,2,08,07,31,254,22,34,15,149,,02,07,122,,26,04,324,,7*73
$GAGSV,2,1,06,08,66,325,41,15,66,162,36,13,56,316,44,03,33,037,38,1*74
$GAGSV,2,2,06,07,31,254,12,34,15,149,28,1*73
$GBGSV,3,1,11,39,67,204,44,38,67,024,44,06,54,202,20,13,51,342,35,1*75
$GBGSV,3,2,11,20,51,001,32,29,48,256,42,37,32,094,41,19,31,295,24,1*7E
$GBGSV,3,3,11,46,25,158,34,32,20,061,39,35,17,312,33,1*46
$GBGSV,3,1,09,39,67,204,42,38,67,024,43,20,51,001,33,29,48,256,39,4*73
$GBGSV,3,2,09,37,32,094,38,19,31,295,18,46,25,158,31,32,20,061,42,4*7C
$GBGSV,3,3,09,35,17,312,29,4*41
$GNGGA,094137.000,2500.7753478,N,12132.4581689,E,2,45,0.52,16.392,M,15.25,M,1,3335*42
$GNRMC,094137.000,A,2500.7753478,N,12132.4581689,E,0.05,136.49,260623,,,D,V*0E
$GPHDT,,T*1B
$GNGGA,094137.200,2500.7753538,N,12132.4581689,E,2,45,0.52,16.395,M,15.25,M,1,3335*42
$GNRMC,094137.200,A,2500.7753538,N,12132.4581689,E,0.04,136.49,260623,,,D,V*08
$GPHDT,,T*1B
$GNGGA,094137.400,2500.7753538,N,12132.4581689,E,2,45,0.52,16.397,M,15.25,M,1,3335*46
$GNRMC,094137.400,A,2500.7753538,N,12132.4581689,E,0.03,136.49,260623,,,D,V*09
$GPHDT,,T*1B
$GNGGA,094137.600,2500.7753538,N,12132.4581689,E,2,45,0.52,16.399,M,15.25,M,1,3335*4A
$GNRMC,094137.600,A,2500.7753538,N,12132.4581689,E,0.02,136.49,260623,,,D,V*0A
$GPHDT,,T*1B
$GNGGA,094137.800,2500.7753538,N,12132.4581689,E,2,45,0.52,16.400,M,15.25,M,1,3335*43
$GNRMC,094137.800,A,2500.7753538,N,12132.4581689,E,0.04,136.49,260623,,,D,V*02
$GPHDT,,T*1B
$GNGSA,A,3,196,15,199,13,05,18,29,20,11,,,,0.84,0.52,0.66,1*06
$GNGSA,A,3,84,85,69,79,80,,,,,,,,0.84,0.52,0.66,2*01
$GNGSA,A,3,08,15,13,03,34,,,,,,,,0.84,0.52,0.66,3*02
$GNGSA,A,3,39,38,13,20,29,37,19,46,32,35,,,0.84,0.52,0.66,4*0C
$GPGSV,4,1,13,196,72,047,42,15,63,341,42,199,60,167,26,13,44,030,44,1*6E
$GPGSV,4,2,13,05,43,066,42,41,38,242,36,18,37,320,38,29,28,234,46,1*6A
$GPGSV,4,3,13,20,26,093,36,11,18,144,27,194,16,150,32,195,,,18,1*5F
$GPGSV,4,4,13,24,,,21,1*63
$GPGSV,2,1,05,196,72,047,46,199,60,167,34,18,37,320,40,11,18,144,34,8*66
$GPGSV,2,2,05,194,16,150,22,8*67
$GLGSV,2,1,05,84,63,219,33,85,34,320,41,69,33,020,35,79,23,085,38,1*71
$GLGSV,2,2,05,80,17,140,18,1*4F
$GAGSV,2,1,08,08,66,325,38,15,66,162,31,13,56,316,41,03,33,037,35,7*7D
$GAGSV,2,2,08,07,31,254,22,34,15,149,,02,07,122,,26,04,324,,7*73
$GAGSV,2,1,06,08,66,325,41,15,66,162,36,13,56,316,44,03,33,037,38,1*74
$GAGSV,2,2,06,07,31,254,12,34,15,149,28,1*73
$GBGSV,3,1,11,39,67,204,44,38,67,024,44,06,54,202,21,13,51,342,36,1*77
$GBGSV,3,2,11,20,51,001,33,29,48,256,42,37,32,094,41,19,31,295,25,1*7E
$GBGSV,3,3,11,46,25,158,34,32,20,061,39,35,17,312,33,1*46
$GBGSV,3,1,09,39,67,204,42,38,67,024,43,20,51,001,34,29,48,256,40,4*7A
$GBGSV,3,2,09,37,32,094,38,19,31,295,19,46,25,158,31,32,20,061,42,4*7D
$GBGSV,3,3,09,35,17,312,29,4*41
$GNGGA,094138.000,2500.7753538,N,12132.4581689,E,2,45,0.52,16.403,M,15.25,M,2,3335*44
$GNRMC,094138.000,A,2500.7753538,N,12132.4581689,E,0.02,136.49,260623,,,D,V*03
$GPHDT,,T*1B
$GNGGA,094138.200,2500.7753538,N,12132.4581689,E,2,45,0.52,16.406,M,15.25,M,2,3335*43
$GNRMC,094138.200,A,2500.7753538,N,12132.4581689,E,0.03,136.49,260623,,,D,V*00
$GPHDT,,T*1B
$GNGGA,094138.400,2500.7753538,N,12132.4581689,E,2,45,0.52,16.410,M,15.25,M,2,3335*42
$GNRMC,094138.400,A,2500.7753538,N,12132.4581689,E,0.02,136.49,260623,,,D,V*07
$GPHDT,,T*1B
$GNGGA,094138.600,2500.7753538,N,12132.4581689,E,2,45,0.52,16.412,M,15.25,M,2,3335*42
$GNRMC,094138.600,A,2500.7753538,N,12132.4581689,E,0.01,136.49,260623,,,D,V*06
$GPHDT,,T*1B
$GNGGA,094138.800,2500.7753538,N,12132.4581689,E,2,45,0.52,16.414,M,15.25,M,2,3335*4A
$GNRMC,094138.800,A,2500.7753538,N,12132.4581689,E,0.02,136.49,260623,,,D,V*0B
$GPHDT,,T*1B
$GNGSA,A,3,196,15,199,13,05,18,29,20,11,,,,0.84,0.52,0.66,1*06
$GNGSA,A,3,84,85,69,79,80,,,,,,,,0.84,0.52,0.66,2*01
$GNGSA,A,3,08,15,13,03,34,,,,,,,,0.84,0.52,0.66,3*02
$GNGSA,A,3,39,38,13,20,29,37,19,46,32,35,,,0.84,0.52,0.66,4*0C
$GPGSV,4,1,13,196,72,047,42,15,63,341,42,199,60,167,25,13,44,030,43,1*6A
$GPGSV,4,2,13,05,43,066,42,41,38,242,36,18,37,320,37,29,28,234,46,1*65
$GPGSV,4,3,13,20,26,093,36,11,18,144,26,194,16,150,31,195,,,18,1*5D
$GPGSV,4,4,13,24,,,21,1*63
$GPGSV,2,1,06,196,72,047,46,199,60,167,34,18,37,320,40,11,18,144,34,8*65
$GPGSV,2,2,06,194,16,150,22,24,,,19,8*6A
$GLGSV,2,1,08,84,63,219,33,85,34,320,39,69,33,020,35,79,23,085,38,1*73
$GLGSV,2,2,08,80,17,140,18,83,11,170,,78,05,038,,71,03,263,,1*7C
$GAGSV,3,1,10,08,66,325,38,15,66,162,32,13,56,316,41,03,33,037,35,7*76
$GAGSV,3,2,10,07,31,254,22,34,15,149,,02,07,122,,26,04,324,,7*7B
$GAGSV,3,3,10,25,01,077,,30,01,170,,7*70
$GAGSV,2,1,06,08,66,325,41,15,66,162,36,13,56,316,44,03,33,037,38,1*74
$GAGSV,2,2,06,07,31,254,14,34,15,149,28,1*75
$GBGSV,3,1,12,39,67,204,44,38,67,024,44,06,54,202,22,13,51,342,37,1*76
$GBGSV,3,2,12,20,51,001,31,29,48,256,42,37,32,094,41,19,31,295,25,1*7F
$GBGSV,3,3,12,46,25,158,34,32,20,061,39,31,19,194,,35,17,312,33,1*73
$GBGSV,3,1,09,38,67,024,44,39,67,204,41,20,51,001,34,29,48,256,40,4*7E
$GBGSV,3,2,09,37,32,094,38,19,31,295,20,46,25,158,31,32,20,061,42,4*77
$GBGSV,3,3,09,35,17,312,29,4*41
$GNGGA,094139.000,2500.7753598,N,12132.4581689,E,2,45,0.52,16.416,M,15.25,M,3,3335*4A
$GNRMC,094139.000,A,2500.7753598,N,12132.4581689,E,0.05,136.49,260623,,,D,V*0F
$GPHDT,,T*1B
$GNGGA,094139.200,2500.7753598,N,12132.4581689,E,2,45,0.52,16.416,M,15.25,M,3,3335*48
$GNRMC,094139.200,A,2500.7753598,N,12132.4581689,E,0.01,136.49,260623,,,D,V*09
$GPHDT,,T*1B
$GNGGA,094139.400,2500.7753598,N,12132.4581629,E,2,45,0.52,16.417,M,15.25,M,3,3335*45
$GNRMC,094139.400,A,2500.7753598,N,12132.4581629,E,0.04,136.49,260623,,,D,V*00
$GPHDT,,T*1B
$GNGGA,094139.600,2500.7753598,N,12132.4581629,E,2,45,0.52,16.417,M,15.25,M,3,3335*47
$GNRMC,094139.600,A,2500.7753598,N,12132.4581629,E,0.05,136.49,260623,,,D,V*03
$GPHDT,,T*1B
$GNGGA,094139.800,2500.7753598,N,12132.4581629,E,2,45,0.52,16.416,M,15.25,M,3,3335*48
$GNRMC,094139.800,A,2500.7753598,N,12132.4581629,E,0.06,136.49,260623,,,D,V*0E
$GPHDT,,T*1B
$GNGSA,A,3,196,15,199,13,05,18,29,20,11,,,,0.85,0.53,0.66,1*06
$GNGSA,A,3,84,85,69,79,80,,,,,,,,0.85,0.53,0.66,2*01
$GNGSA,A,3,15,08,13,03,34,,,,,,,,0.85,0.53,0.66,3*02
$GNGSA,A,3,39,38,13,20,29,37,19,46,32,35,,,0.85,0.53,0.66,4*0C
$GPGSV,4,1,13,196,72,047,42,15,63,341,43,199,60,167,26,13,44,030,41,1*6A
$GPGSV,4,2,13,05,43,066,42,41,38,242,37,18,37,320,32,29,28,234,46,1*61
$GPGSV,4,3,13,20,26,093,36,11,18,144,24,194,16,150,31,195,,,18,1*5F
$GPGSV,4,4,13,24,,,20,1*62
$GPGSV,2,1,05,196,72,047,46,199,60,167,34,18,37,320,35,11,18,144,34,8*64
$GPGSV,2,2,05,194,16,150,22,8*67
$GLGSV,2,1,05,84,63,219,32,85,34,320,34,69,33,020,34,79,23,085,38,1*73
$GLGSV,2,2,05,80,17,140,17,1*40
$GAGSV,3,1,10,15,66,162,32,08,66,325,39,13,56,316,37,03,33,037,35,7*76
$GAGSV,3,2,10,07,31,254,24,34,15,149,,02,07,122,,26,04,324,,7*7D
$GAGSV,3,3,10,30,01,170,,25,01,077,,7*70
$GAGSV,2,1,06,08,66,325,42,15,66,162,36,13,56,316,42,03,33,037,39,1*70
$GAGSV,2,2,06,07,31,254,15,34,15,149,28,1*74
$GBGSV,3,1,11,39,67,204,43,38,67,024,44,06,54,202,23,13,51,342,37,1*73
$GBGSV,3,2,11,20,51,001,32,29,48,256,42,37,32,094,41,19,31,295,26,1*7C
$GBGSV,3,3,11,46,25,158,32,32,20,061,39,35,17,312,32,1*41
$GBGSV,3,1,09,39,67,204,41,38,67,024,44,20,51,001,35,29,48,256,40,4*7F
$GBGSV,3,2,09,37,32,094,38,19,31,295,20,46,25,158,30,32,20,061,42,4*76
$GBGSV,3,3,09,35,17,312,27,4*4F
$GNGGA,094140.000,2500.7753598,N,12132.4581629,E,2,45,0.53,16.421,M,15.25,M,4,3335*4C
$GNRMC,094140.000,A,2500.7753598,N,12132.4581629,E,0.03,136.49,260623,,,D,V*0D
$GPHDT,,T*1B
$GNGGA,094140.200,2500.7753598,N,12132.4581689,E,2,46,0.52,16.426,M,15.25,M,4,3335*41
$GNRMC,094140.200,A,2500.7753598,N,12132.4581689,E,0.04,136.49,260623,,,D,V*02
$GPHDT,,T*1B
$GNGGA,094140.400,2500.7753598,N,12132.4581689,E,2,46,0.52,16.430,M,15.25,M,4,3335*40
$GNRMC,094140.400,A,2500.7753598,N,12132.4581689,E,0.03,136.49,260623,,,D,V*03
$GPHDT,,T*1B
$GNGGA,094140.600,2500.7753598,N,12132.4581689,E,2,46,0.52,16.432,M,15.25,M,4,3335*40
$GNRMC,094140.600,A,2500.7753598,N,12132.4581689,E,0.09,136.49,260623,,,D,V*0B
$GPHDT,,T*1B
$GNGGA,094140.800,2500.7753598,N,12132.4581689,E,2,46,0.52,16.435,M,15.25,M,4,3335*49
$GNRMC,094140.800,A,2500.7753598,N,12132.4581689,E,0.02,136.49,260623,,,D,V*0E
$GPHDT,,T*1B
$GNGSA,A,3,196,15,199,13,05,18,29,20,11,,,,0.84,0.52,0.66,1*06
$GNGSA,A,3,84,85,69,79,80,,,,,,,,0.84,0.52,0.66,2*01
$GNGSA,A,3,15,08,13,03,34,,,,,,,,0.84,0.52,0.66,3*02
$GNGSA,A,3,39,38,13,20,29,37,19,46,32,35,,,0.84,0.52,0.66,4*0C
$GPGSV,4,1,13,196,72,047,42,15,63,341,44,199,60,167,26,13,44,030,41,1*6D
$GPGSV,4,2,13,05,43,066,42,41,38,242,37,18,37,320,29,29,28,234,46,1*6B
$GPGSV,4,3,13,20,26,093,36,11,18,144,24,194,16,150,32,195,,,19,1*5D
$GPGSV,4,4,13,24,,,22,1*60
$GPGSV,2,1,06,196,72,047,46,199,60,167,35,18,37,320,35,11,18,144,32,8*60
$GPGSV,2,2,06,194,16,150,23,24,,,19,8*6B
$GLGSV,2,1,05,84,63,219,32,85,34,320,34,69,33,020,34,79,23,085,39,1*72
$GLGSV,2,2,05,80,17,140,17,1*40
$GAGSV,3,1,10,15,66,162,32,08,66,325,39,13,56,316,37,03,33,037,35,7*76
$GAGSV,3,2,10,07,31,254,24,34,15,149,18,02,07,122,,26,04,324,,7*74
$GAGSV,3,3,10,30,01,170,,25,01,077,,7*70
$GAGSV,2,1,06,08,66,325,43,15,66,162,36,13,56,316,42,03,33,037,39,1*71
$GAGSV,2,2,06,07,31,254,15,34,15,149,26,1*7A
$GBGSV,3,1,11,39,67,204,43,38,67,024,44,06,54,202,22,13,51,342,37,1*72
$GBGSV,3,2,11,20,51,001,35,29,48,256,43,37,32,094,40,19,31,295,27,1*7A
$GBGSV,3,3,11,46,25,158,31,32,20,061,39,35,17,312,32,1*42
$GBGSV,3,1,09,38,67,024,44,39,67,204,42,20,51,001,36,29,48,256,39,4*71
$GBGSV,3,2,09,37,32,094,38,19,31,295,19,46,25,158,27,32,20,061,42,4*7A
$GBGSV,3,3,09,35,17,312,27,4*4F
$GNGGA,094141.000,2500.7753598,N,12132.4581629,E,2,46,0.52,16.438,M,15.25,M,5,3335*46
$GNRMC,094141.000,A,2500.7753598,N,12132.4581629,E,0.03,136.49,260623,,,D,V*0C
$GPHDT,,T*1B
$GNGGA,094141.200,2500.7753598,N,12132.4581689,E,2,47,0.52,16.442,M,15.25,M,5,3335*42
$GNRMC,094141.200,A,2500.7753598,N,12132.4581689,E,0.02,136.49,260623,,,D,V*05
$GPHDT,,T*1B
$GNGGA,094141.400,2500.7753598,N,12132.4581629,E,2,47,0.52,16.443,M,15.25,M,5,3335*4F
$GNRMC,094141.400,A,2500.7753598,N,12132.4581629,E,0.02,136.49,260623,,,D,V*09
$GPHDT,,T*1B
$GNGGA,094141.600,2500.7753598,N,12132.4581629,E,2,47,0.52,16.445,M,15.25,M,5,3335*4B
$GNRMC,094141.600,A,2500.7753598,N,12132.4581629,E,0.01,136.49,260623,,,D,V*08
$GPHDT,,T*1B
$GNGGA,094141.800,2500.7753598,N,12132.4581629,E,2,47,0.52,16.446,M,15.25,M,5,3335*46
$GNRMC,094141.800,A,2500.7753598,N,12132.4581629,E,0.01,136.49,260623,,,D,V*06
$GPHDT,,T*1B
$GNGSA,A,3,196,15,199,13,05,18,29,20,11,,,,0.84,0.52,0.66,1*06
$GNGSA,A,3,84,85,69,79,80,,,,,,,,0.84,0.52,0.66,2*01
$GNGSA,A,3,15,08,13,03,34,,,,,,,,0.84,0.52,0.66,3*02
$GNGSA,A,3,39,38,13,20,29,37,19,46,32,35,,,0.84,0.52,0.66,4*0C
$GPGSV,4,1,13,196,72,047,42,15,63,341,44,199,60,167,26,13,44,030,41,1*6D
$GPGSV,4,2,13,05,43,066,42,41,38,242,38,18,37,320,29,29,28,234,46,1*64
$GPGSV,4,3,13,20,26,093,36,11,18,144,24,194,16,150,32,195,,,19,1*5D
$GPGSV,4,4,13,24,,,22,1*60
$GPGSV,2,1,06,196,72,047,46,199,60,167,35,18,37,320,34,11,18,144,32,8*61
$GPGSV,2,2,06,194,16,150,23,24,,,22,8*63
$GLGSV,2,1,05,84,63,219,32,85,34,320,32,69,33,020,31,79,23,085,39,1*71
$GLGSV,2,2,05,80,17,140,17,1*40
$GAGSV,3,1,10,15,66,162,32,08,66,325,40,13,56,316,37,03,33,037,34,7*79
$GAGSV,3,2,10,07,31,254,24,34,15,149,18,02,07,122,,26,04,324,,7*74
$GAGSV,3,3,10,30,01,170,,25,01,077,,7*70
$GAGSV,2,1,06,08,66,325,43,15,66,162,36,13,56,316,42,03,33,037,39,1*71
$GAGSV,2,2,06,07,31,254,15,34,15,149,28,1*74
$GBGSV,3,1,11,39,67,204,43,38,67,024,44,06,54,202,21,13,51,342,36,1*70
$GBGSV,3,2,11,20,51,001,35,29,48,256,43,37,32,094,40,19,31,295,27,1*7A
$GBGSV,3,3,11,46,25,158,32,32,20,061,39,35,17,312,31,1*42
$GBGSV,3,1,09,38,67,024,44,39,67,204,42,20,51,001,37,29,48,256,39,4*70
$GBGSV,3,2,09,37,32,094,38,19,31,295,19,46,25,158,30,32,20,061,42,4*7C
$GBGSV,3,3,09,35,17,312,26,4*4E
$GNGGA,094142.000,2500.7753598,N,12132.4581629,E,2,47,0.52,16.447,M,15.25,M,6,3335*4F
$GNRMC,094142.000,A,2500.7753598,N,12132.4581629,E,0.01,136.49,260623,,,D,V*0D
$GPHDT,,T*1B
$GNGGA,094142.200,2500.7753598,N,12132.4581689,E,2,47,0.52,16.449,M,15.25,M,6,3335*49
$GNRMC,094142.200,A,2500.7753598,N,12132.4581689,E,0.03,136.49,260623,,,D,V*07
$GPHDT,,T*1B
$GNGGA,094142.400,2500.7753598,N,12132.4581689,E,2,47,0.52,16.450,M,15.25,M,6,3335*47
$GNRMC,094142.400,A,2500.7753598,N,12132.4581689,E,0.02,136.49,260623,,,D,V*00
$GPHDT,,T*1B
$GNGGA,094142.600,2500.7753658,N,12132.4581689,E,2,47,0.52,16.451,M,15.25,M,6,3335*4B
$GNRMC,094142.600,A,2500.7753658,N,12132.4581689,E,0.02,136.49,260623,,,D,V*0D
$GPHDT,,T*1B
$GNGGA,094142.800,2500.7753658,N,12132.4581689,E,2,47,0.52,16.451,M,15.25,M,6,3335*45
$GNRMC,094142.800,A,2500.7753658,N,12132.4581689,E,0.08,136.49,260623,,,D,V*09
$GPHDT,,T*1B
$GNGSA,A,3,196,15,199,13,05,18,29,20,11,,,,0.84,0.52,0.66,1*06
$GNGSA,A,3,84,85,69,79,80,,,,,,,,0.84,0.52,0.66,2*01
$GNGSA,A,3,08,15,13,03,34,,,,,,,,0.84,0.52,0.66,3*02
$GNGSA,A,3,39,38,13,20,29,37,19,46,32,35,,,0.84,0.52,0.66,4*0C
$GPGSV,4,1,13,196,72,047,42,15,63,341,44,199,60,167,26,13,44,030,42,1*6E
$GPGSV,4,2,13,05,43,066,42,41,38,242,38,18,37,320,29,29,28,234,45,1*67
$GPGSV,4,3,13,20,26,093,36,11,18,144,24,194,16,150,32,195,,,20,1*57
$GPGSV,4,4,13,24,,,22,1*60
$GPGSV,2,1,06,196,72,047,46,199,60,167,35,18,37,320,35,11,18,144,34,8*66
$GPGSV,2,2,06,194,16,150,23,24,,,22,8*63
$GLGSV,2,1,05,84,63,219,31,85,34,320,33,69,33,020,31,79,23,085,39,1*73
$GLGSV,2,2,05,80,17,140,19,1*4E
$GAGSV,2,1,08,08,66,325,40,15,66,162,32,13,56,316,37,03,33,037,34,7*71
$GAGSV,2,2,08,07,31,254,23,34,15,149,18,30,01,170,,25,01,077,,7*78
$GAGSV,2,1,06,08,66,325,43,15,66,162,36,13,56,316,42,03,33,037,39,1*71
$GAGSV,2,2,06,07,31,254,15,34,15,149,28,1*74
$GBGSV,3,1,11,39,67,204,43,38,67,024,44,06,54,202,21,13,51,342,36,1*70
$GBGSV,3,2,11,20,51,001,35,29,48,256,43,37,32,094,40,19,31,295,28,1*75
$GBGSV,3,3,11,46,25,158,33,32,20,061,39,35,17,312,33,1*41
$GBGSV,3,1,09,38,67,024,44,39,67,204,42,20,51,001,37,29,48,256,39,4*70
$GBGSV,3,2,09,37,32,094,38,19,31,295,19,46,25,158,30,32,20,061,42,4*7C
$GBGSV,3,3,09,35,17,312,28,4*40
$GNGGA,094143.000,2500.7753598,N,12132.4581689,E,2,47,0.52,16.454,M,15.25,M,5,3335*45
$GNRMC,094143.000,A,2500.7753598,N,12132.4581689,E,0.09,136.49,260623,,,D,V*0E
$GPHDT,,T*1B
$GNGGA,094143.200,2500.7753598,N,12132.4581689,E,2,46,0.52,16.456,M,15.25,M,2,3335*43
$GNRMC,094143.200,A,2500.7753598,N,12132.4581689,E,0.06,136.49,260623,,,D,V*03
$GPHDT,,T*1B
$GNGGA,094143.400,2500.7753598,N,12132.4581749,E,2,47,0.52,16.456,M,15.25,M,1,3335*4A
$GNRMC,094143.400,A,2500.7753598,N,12132.4581749,E,0.04,136.49,260623,,,D,V*0A
$GPHDT,,T*1B
$GNGGA,094143.600,2500.7753598,N,12132.4581749,E,2,46,0.52,16.457,M,15.25,M,1,3335*48
$GNRMC,094143.600,A,2500.7753598,N,12132.4581749,E,0.03,136.49,260623,,,D,V*0F
$GPHDT,,T*1B
$GNGGA,094143.800,2500.7753598,N,12132.4581749,E,2,46,0.52,16.456,M,15.25,M,1,3335*47
$GNRMC,094143.800,A,2500.7753598,N,12132.4581749,E,0.05,136.49,260623,,,D,V*07
$GPHDT,,T*1B
$GNGSA,A,3,196,15,199,05,13,18,29,20,11,,,,0.84,0.52,0.66,1*06
$GNGSA,A,3,84,85,69,79,80,,,,,,,,0.84,0.52,0.66,2*01
$GNGSA,A,3,08,15,13,03,34,,,,,,,,0.84,0.52,0.66,3*02
$GNGSA,A,3,39,38,13,20,29,37,19,46,32,35,,,0.84,0.52,0.66,4*0C
$GPGSV,4,1,13,196,72,047,42,15,63,341,44,199,60,167,25,05,43,066,42,1*6E
$GPGSV,4,2,13,13,43,030,42,41,38,242,38,18,37,320,27,29,28,234,46,1*6E
$GPGSV,4,3,13,20,26,093,36,11,18,144,24,194,16,150,32,195,,,20,1*57
$GPGSV,4,4,13,24,,,21,1*63
$GPGSV,2,1,06,196,72,047,46,199,60,167,35,18,37,320,35,11,18,144,34,8*66
$GPGSV,2,2,06,194,16,150,22,24,,,23,8*63
$GLGSV,2,1,05,84,63,219,31,85,34,320,32,69,33,020,30,79,23,085,39,1*73
$GLGSV,2,2,05,80,17,140,19,1*4E
$GAGSV,2,1,08,08,66,325,40,15,66,162,32,13,56,316,37,03,33,037,34,7*71
$GAGSV,2,2,08,07,31,254,22,34,15,149,19,30,01,170,,25,01,077,,7*78
$GAGSV,2,1,06,08,66,325,43,15,66,162,36,13,56,316,42,03,33,037,39,1*71
$GAGSV,2,2,06,07,31,254,12,34,15,149,27,1*7C
$GBGSV,3,1,12,39,67,204,43,38,67,024,44,06,54,202,21,13,51,342,36,1*73
$GBGSV,3,2,12,20,51,001,35,29,48,256,44,37,32,094,39,19,31,295,28,1*7F
$GBGSV,3,3,12,46,25,158,33,32,20,061,40,35,17,312,32,07,10,202,,1*7B
$GBGSV,3,1,09,38,67,024,44,39,67,204,42,20,51,001,37,29,48,256,39,4*70
$GBGSV,3,2,09,37,32,094,38,19,31,295,19,46,25,158,30,32,20,061,42,4*7C
$GBGSV,3,3,09,35,17,312,29,4*41
$GNGGA,094144.000,2500.7753598,N,12132.4581749,E,2,47,0.52,16.457,M,15.25,M,2,3335*4B
$GNRMC,094144.000,A,2500.7753598,N,12132.4581749,E,0.02,136.49,260623,,,D,V*0F
$GPHDT,,T*1B
$GNGGA,094144.200,2500.7753598,N,12132.4581749,E,2,47,0.52,16.460,M,15.25,M,2,3335*4D
$GNRMC,094144.200,A,2500.7753598,N,12132.4581749,E,0.03,136.49,260623,,,D,V*0C
$GPHDT,,T*1B
$GNGGA,094144.400,2500.7753598,N,12132.4581809,E,2,47,0.52,16.463,M,15.25,M,2,3335*43
$GNRMC,094144.400,A,2500.7753598,N,12132.4581809,E,0.04,136.49,260623,,,D,V*06
$GPHDT,,T*1B
$GNGGA,094144.600,2500.7753598,N,12132.4581809,E,2,46,0.52,16.465,M,15.25,M,2,3335*46
$GNRMC,094144.600,A,2500.7753598,N,12132.4581809,E,0.04,136.49,260623,,,D,V*04
$GPHDT,,T*1B
$GNGGA,094144.800,2500.7753598,N,12132.4581809,E,2,47,0.52,16.471,M,15.25,M,2,3335*4C
$GNRMC,094144.800,A,2500.7753598,N,12132.4581809,E,0.01,136.49,260623,,,D,V*0F
$GPHDT,,T*1B
$GNGSA,A,3,196,15,199,05,13,18,29,20,11,,,,0.84,0.52,0.66,1*06
$GNGSA,A,3,84,85,69,79,80,,,,,,,,0.84,0.52,0.66,2*01
$GNGSA,A,3,15,08,13,03,34,,,,,,,,0.84,0.52,0.66,3*02
$GNGSA,A,3,39,38,20,13,29,37,19,46,32,35,,,0.84,0.52,0.66,4*0C
$GPGSV,4,1,13,196,72,047,42,15,63,341,44,199,60,167,27,05,43,066,42,1*6C
$GPGSV,4,2,13,13,43,030,42,41,38,242,38,18,37,319,26,29,28,234,46,1*65
$GPGSV,4,3,13,20,26,094,36,11,18,144,24,194,16,150,32,195,,,20,1*50
$GPGSV,4,4,13,24,,,21,1*63
$GPGSV,2,1,06,196,72,047,46,199,60,167,35,18,37,319,35,11,18,144,34,8*6C
$GPGSV,2,2,06,194,16,150,22,24,,,21,8*61
$GLGSV,2,1,05,84,63,219,31,85,34,320,32,69,33,020,29,79,23,085,39,1*7B
$GLGSV,2,2,05,80,17,140,19,1*4E
$GAGSV,3,1,09,15,66,162,32,08,66,325,40,13,56,316,37,03,33,037,34,7*71
$GAGSV,3,2,09,07,31,254,23,34,15,149,18,02,07,122,,30,01,170,,7*7A
$GAGSV,3,3,09,25,01,077,,7*4C
$GAGSV,2,1,06,08,66,325,43,15,66,162,36,13,56,316,42,03,33,037,39,1*71
$GAGSV,2,2,06,07,31,254,12,34,15,149,27,1*7C
$GBGSV,3,1,11,39,67,204,43,38,67,024,44,06,54,202,21,20,51,001,35,1*77
$GBGSV,3,2,11,13,51,342,36,29,48,256,44,37,32,094,39,19,31,295,28,1*7B
$GBGSV,3,3,11,46,25,158,33,32,20,061,40,35,17,312,32,1*4E
$GBGSV,3,1,09,38,67,024,44,39,67,204,42,20,51,001,37,29,48,256,39,4*70
$GBGSV,3,2,09,37,32,094,38,19,31,295,19,46,25,158,28,32,20,061,42,4*75
$GBGSV,3,3,09,35,17,312,28,4*40
$GNGGA,094145.000,2500.7753658,N,12132.4581809,E,2,47,0.52,16.477,M,15.25,M,3,3335*4D
$GNRMC,094145.000,A,2500.7753658,N,12132.4581809,E,0.01,136.49,260623,,,D,V*09
$GPHDT,,T*1B
$GNGGA,094145.200,2500.7753598,N,12132.4581809,E,2,47,0.52,16.483,M,15.25,M,3,3335*4B
$GNRMC,094145.200,A,2500.7753598,N,12132.4581809,E,0.02,136.49,260623,,,D,V*07
$GPHDT,,T*1B
$GNGGA,094145.400,2500.7753658,N,12132.4581809,E,2,47,0.52,16.487,M,15.25,M,3,3335*46
$GNRMC,094145.400,A,2500.7753658,N,12132.4581809,E,0.00,136.49,260623,,,D,V*0C
$GPHDT,,T*1B
$GNGGA,094145.600,2500.7753658,N,12132.4581809,E,2,47,0.52,16.492,M,15.25,M,3,3335*40
$GNRMC,094145.600,A,2500.7753658,N,12132.4581809,E,0.02,136.49,260623,,,D,V*0C
$GPHDT,,T*1B
$GNGGA,094145.800,2500.7753658,N,12132.4581809,E,2,47,0.52,16.494,M,15.25,M,3,3335*48
$GNRMC,094145.800,A,2500.7753658,N,12132.4581809,E,0.09,136.49,260623,,,D,V*09
$GPHDT,,T*1B
$GNGSA,A,3,196,15,199,05,13,18,29,20,11,,,,0.84,0.52,0.66,1*06
$GNGSA,A,3,84,85,69,79,80,,,,,,,,0.84,0.52,0.66,2*01
$GNGSA,A,3,15,08,13,03,34,,,,,,,,0.84,0.52,0.66,3*02
$GNGSA,A,3,39,38,13,20,29,37,19,46,32,35,,,0.84,0.52,0.66,4*0C
$GPGSV,4,1,13,196,72,047,42,15,63,341,44,199,60,167,25,05,43,066,42,1*6E
$GPGSV,4,2,13,13,43,030,42,41,38,242,38,18,37,319,29,29,28,234,46,1*6A
$GPGSV,4,3,13,20,26,094,36,11,18,144,25,194,16,150,32,195,,,20,1*51
$GPGSV,4,4,13,24,,,21,1*63
$GPGSV,2,1,06,196,72,047,46,199,60,167,35,18,37,319,35,11,18,144,34,8*6C
$GPGSV,2,2,06,194,16,150,23,24,,,21,8*60
$GLGSV,2,1,05,84,63,219,31,85,34,320,33,69,33,020,27,79,23,085,39,1*74
$GLGSV,2,2,05,80,17,140,21,1*45
$GAGSV,3,1,10,15,66,162,32,08,66,325,40,13,56,316,37,03,33,037,34,7*79
$GAGSV,3,2,10,07,31,254,23,34,15,149,17,02,07,122,,26,04,324,,7*7C
$GAGSV,3,3,10,30,01,170,,25,01,077,,7*70
$GAGSV,2,1,06,08,66,325,43,15,66,162,36,13,56,316,42,03,33,037,39,1*71
$GAGSV,2,2,06,07,31,254,11,34,15,149,27,1*7F
$GBGSV,3,1,11,39,67,204,43,38,67,024,44,06,54,202,21,13,51,342,36,1*70
$GBGSV,3,2,11,20,51,001,34,29,48,256,44,37,32,094,39,19,31,295,28,1*7D
$GBGSV,3,3,11,46,25,158,32,32,20,061,40,35,17,312,31,1*4C
$GBGSV,3,1,09,38,67,024,44,39,67,204,42,20,51,001,37,29,48,256,39,4*70
$GBGSV,3,2,09,37,32,094,38,19,31,295,20,46,25,158,29,32,20,061,42,4*7E
$GBGSV,3,3,09,35,17,312,27,4*4F
$GNGGA,094146.000,2500.7753658,N,12132.4581809,E,2,47,0.52,16.497,M,15.25,M,4,3335*47
$GNRMC,094146.000,A,2500.7753658,N,12132.4581809,E,0.07,136.49,260623,,,D,V*0C
$GPHDT,,T*1B
$GNGGA,094146.200,2500.7753658,N,12132.4581809,E,2,47,0.52,16.499,M,15.25,M,4,3335*4B
$GNRMC,094146.200,A,2500.7753658,N,12132.4581809,E,0.06,136.49,260623,,,D,V*0F
$GPHDT,,T*1B
$GNGGA,094146.400,2500.7753718,N,12132.4581809,E,2,47,0.52,16.501,M,15.25,M,4,3335*48
$GNRMC,094146.400,A,2500.7753718,N,12132.4581809,E,0.04,136.49,260623,,,D,V*0E
