$FW : RTK35X,V1.1X0314AS,Lib20210517,1*54
$Tool : LOCOSYS , GNSS Firebird , v1.0.0.19*39
$---------------------------------------------------*2D

$GNGGA,093828.800,2500.7755627,N,12132.4580953,E,4,43,0.55,15.922,M,15.25,M,0,3335*49
$GNRMC,093828.800,A,2500.7755627,N,12132.4580953,E,0.00,89.32,260623,,,R,V*2B
$GPHDT,,T*1B
$GNGSA,A,3,15,199,13,05,18,29,20,11,,,,,1.08,0.55,0.93,1*30
$GNGSA,A,3,84,85,69,79,80,,,,,,,,1.08,0.55,0.93,2*09
$GNGSA,A,3,15,08,13,03,,,,,,,,,1.08,0.55,0.93,3*0D
$GNGSA,A,3,39,38,08,20,13,29,37,19,32,35,46,,1.08,0.55,0.93,4*0C
$GPGSV,3,1,09,15,63,338,44,199,60,167,20,13,45,029,39,05,43,064,43,1*56
$GPGSV,3,2,09,41,38,242,33,18,36,320,45,29,29,235,43,20,27,092,39,1*6F
$GPGSV,3,3,09,11,20,144,31,1*5C
$GPGSV,1,1,03,199,60,167,31,18,36,320,42,11,20,144,26,8*67
$GLGSV,2,1,07,84,65,221,33,70,34,299,,85,33,322,39,69,33,019,35,1*75
$GLGSV,2,2,07,79,23,087,26,80,16,141,23,83,13,170,,1*4E
$GAGSV,2,1,07,15,67,161,32,08,66,322,41,13,55,317,43,03,34,036,41,7*7F
$GAGSV,2,2,07,07,30,252,15,34,16,149,24,30,01,171,,7*4E
$GAGSV,2,1,05,15,67,161,28,08,66,322,44,13,55,317,45,03,34,036,37,1*72
$GAGSV,2,2,05,34,16,149,25,1*4B
$GBGSV,4,1,13,39,66,203,43,38,66,023,42,08,56,001,37,20,51,359,38,1*7D
$GBGSV,4,2,13,13,50,342,44,29,48,258,39,37,32,095,41,19,31,294,23,1*7A
$GBGSV,4,3,13,30,30,186,22,46,24,159,,32,21,059,41,35,16,313,41,1*7B
$GBGSV,4,4,13,23,08,049,,1*40
$GBGSV,3,1,09,38,66,023,44,39,66,203,38,20,51,359,41,29,48,258,38,4*7D
$GBGSV,3,2,09,37,32,095,37,19,31,294,22,46,24,159,20,32,21,059,42,4*70
$GBGSV,3,3,09,35,16,313,32,4*4B
$GNGGA,093829.000,2500.7755622,N,12132.4580952,E,4,43,0.55,15.922,M,15.25,M,1,3335*45
$GNRMC,093829.000,A,2500.7755622,N,12132.4580952,E,0.00,89.32,260623,,,R,V*26
$GPHDT,,T*1B
$GNGGA,093829.200,2500.7755634,N,12132.4580952,E,4,43,0.55,15.928,M,15.25,M,1,3335*4A
$GNRMC,093829.200,A,2500.7755634,N,12132.4580952,E,0.00,89.32,260623,,,R,V*23
$GPHDT,,T*1B
$GNGGA,093829.400,2500.7755649,N,12132.4580946,E,4,43,0.55,15.923,M,15.25,M,1,3335*48
$GNRMC,093829.400,A,2500.7755649,N,12132.4580946,E,0.00,89.32,260623,,,R,V*2A
$GPHDT,,T*1B
$GNGGA,093829.600,2500.7755652,N,12132.4580970,E,4,43,0.55,15.923,M,15.25,M,0,3335*44
$GNRMC,093829.600,A,2500.7755652,N,12132.4580970,E,0.00,89.32,260623,,,R,V*27
$GPHDT,,T*1B
$GNGGA,093829.800,2500.7755618,N,12132.4580953,E,4,43,0.55,15.917,M,15.25,M,0,3335*42
$GNRMC,093829.800,A,2500.7755618,N,12132.4580953,E,0.00,89.32,260623,,,R,V*26
$GPHDT,,T*1B
$GNGSA,A,3,15,199,13,05,18,29,20,11,,,,,1.08,0.55,0.93,1*30
$GNGSA,A,3,84,85,69,79,80,,,,,,,,1.08,0.55,0.93,2*09
$GNGSA,A,3,15,08,13,03,,,,,,,,,1.08,0.55,0.93,3*0D
$GNGSA,A,3,39,38,08,20,13,29,37,19,32,35,46,,1.08,0.55,0.93,4*0C
$GPGSV,3,1,09,15,63,338,44,199,60,167,20,13,45,029,39,05,43,064,43,1*56
$GPGSV,3,2,09,41,38,242,33,18,36,320,45,29,29,235,43,20,27,092,38,1*6E
$GPGSV,3,3,09,11,20,144,27,1*5B
$GPGSV,1,1,03,199,60,167,31,18,36,320,42,11,20,144,25,8*64
$GLGSV,2,1,05,84,65,221,34,85,33,322,39,69,33,019,35,79,23,087,22,1*72
$GLGSV,2,2,05,80,16,141,24,1*40
$GAGSV,2,1,07,15,67,161,32,08,66,322,41,13,55,317,43,03,34,036,41,7*7F
$GAGSV,2,2,07,07,30,252,14,34,16,149,24,30,01,171,,7*4F
$GAGSV,2,1,05,15,67,161,25,08,66,322,44,13,55,317,45,03,34,036,37,1*7F
$GAGSV,2,2,05,34,16,149,24,1*4A
$GBGSV,3,1,12,39,66,203,43,38,66,023,42,08,56,001,37,20,51,359,38,1*7B
$GBGSV,3,2,12,13,50,342,44,29,48,258,39,37,32,095,41,19,31,294,23,1*7C
$GBGSV,3,3,12,30,30,186,23,46,24,159,,32,21,059,41,35,16,313,41,1*7C
$GBGSV,3,1,09,38,66,023,44,39,66,203,38,20,51,359,41,29,48,258,38,4*7D
$GBGSV,3,2,09,37,32,095,37,19,31,294,23,46,24,159,20,32,21,059,42,4*71
$GBGSV,3,3,09,35,16,313,32,4*4B
$GNGGA,093830.000,2500.7755650,N,12132.4580969,E,4,43,0.55,15.921,M,15.25,M,1,3335*43
$GNRMC,093830.000,A,2500.7755650,N,12132.4580969,E,0.00,89.32,260623,,,R,V*23
$PAIR010,0,1,2268,121128*3D
$GPHDT,,T*1B
$GNGGA,093830.200,2500.7755620,N,12132.4580964,E,4,42,0.55,15.921,M,15.25,M,1,3335*4A
$GNRMC,093830.200,A,2500.7755620,N,12132.4580964,E,0.00,89.32,260623,,,R,V*2B
$GPHDT,,T*1B
$GNGGA,093830.400,2500.7755627,N,12132.4580968,E,4,42,0.55,15.919,M,15.25,M,1,3335*4C
$GNRMC,093830.400,A,2500.7755627,N,12132.4580968,E,0.00,89.32,260623,,,R,V*26
$GPHDT,,T*1B
$GNGGA,093830.600,2500.7755609,N,12132.4580959,E,4,42,0.55,15.915,M,15.25,M,0,3335*4D
$GNRMC,093830.600,A,2500.7755609,N,12132.4580959,E,0.00,89.32,260623,,,R,V*2A
$GPHDT,,T*1B
$GNGGA,093830.800,2500.7755603,N,12132.4580950,E,4,42,0.55,15.919,M,15.25,M,0,3335*4C
$GNRMC,093830.800,A,2500.7755603,N,12132.4580950,E,0.00,89.32,260623,,,R,V*27
$GPHDT,,T*1B
$GNGSA,A,3,15,13,05,18,29,20,11,199,,,,,1.08,0.55,0.93,1*30
$GNGSA,A,3,84,85,69,79,80,,,,,,,,1.08,0.55,0.93,2*09
$GNGSA,A,3,15,08,13,03,,,,,,,,,1.08,0.55,0.93,3*0D
$GNGSA,A,3,39,38,08,20,13,29,37,19,32,35,46,,1.08,0.55,0.93,4*0C
$GPGSV,3,1,09,15,63,338,44,199,60,167,19,13,45,029,40,05,43,064,43,1*52
$GPGSV,3,2,09,41,38,242,33,18,36,320,45,29,29,235,43,20,27,092,38,1*6E
$GPGSV,3,3,09,11,20,144,25,1*59
$GPGSV,1,1,03,199,60,167,31,18,36,320,43,11,20,144,24,8*64
$GLGSV,2,1,05,84,65,221,34,85,33,322,39,69,33,019,35,79,23,087,24,1*74
$GLGSV,2,2,05,80,16,141,23,1*47
$GAGSV,2,1,06,15,67,161,31,08,66,322,41,13,55,317,43,03,34,036,41,7*7D
$GAGSV,2,2,06,07,30,252,14,34,16,149,24,7*7B
$GAGSV,2,1,05,15,67,161,21,08,66,322,44,13,55,317,45,03,34,036,38,1*74
$GAGSV,2,2,05,34,16,149,24,1*4A
$GBGSV,3,1,12,39,66,203,43,38,66,023,42,08,56,001,36,20,51,359,38,1*7A
$GBGSV,3,2,12,13,50,342,44,29,48,258,39,37,32,095,42,19,31,294,22,1*7E
$GBGSV,3,3,12,30,30,186,21,46,24,159,,32,21,059,41,35,16,313,41,1*7E
$GBGSV,3,1,09,38,66,023,44,39,66,203,38,20,51,359,41,29,48,258,39,4*7C
$GBGSV,3,2,09,37,32,095,37,19,31,294,23,46,24,159,21,32,21,059,43,4*71
$GBGSV,3,3,09,35,16,313,32,4*4B
$GNGGA,093831.000,2500.7755633,N,12132.4580948,E,4,42,0.55,15.916,M,15.25,M,1,3335*41
$GNRMC,093831.000,A,2500.7755633,N,12132.4580948,E,0.00,89.32,260623,,,R,V*24
$GPHDT,,T*1B
$GNGGA,093831.200,2500.7755622,N,12132.4580943,E,4,42,0.55,15.920,M,15.25,M,1,3335*4D
$GNRMC,093831.200,A,2500.7755622,N,12132.4580943,E,0.00,89.32,260623,,,R,V*2D
$GPHDT,,T*1B
$GNGGA,093831.400,2500.7755608,N,12132.4580947,E,4,43,0.55,15.921,M,15.25,M,1,3335*47
$GNRMC,093831.400,A,2500.7755608,N,12132.4580947,E,0.00,89.32,260623,,,R,V*27
$GPHDT,,T*1B
$GNGGA,093831.600,2500.7755603,N,12132.4580966,E,4,43,0.55,15.917,M,15.25,M,0,3335*49
$GNRMC,093831.600,A,2500.7755603,N,12132.4580966,E,0.00,89.32,260623,,,R,V*2D
$GPHDT,,T*1B
$GNGGA,093831.800,2500.7755658,N,12132.4580961,E,4,43,0.55,15.924,M,15.25,M,0,3335*4E
$GNRMC,093831.800,A,2500.7755658,N,12132.4580961,E,0.04,89.32,260623,,,R,V*2E
$GPHDT,,T*1B
$GNGSA,A,3,15,199,13,05,18,29,20,11,,,,,1.08,0.55,0.93,1*30
$GNGSA,A,3,84,85,69,79,80,,,,,,,,1.08,0.55,0.93,2*09
$GNGSA,A,3,15,08,13,03,,,,,,,,,1.08,0.55,0.93,3*0D
$GNGSA,A,3,38,39,08,20,13,29,37,19,32,35,46,,1.08,0.55,0.93,4*0C
$GPGSV,3,1,09,15,63,338,44,199,60,167,19,13,45,029,41,05,43,064,43,1*53
$GPGSV,3,2,09,41,38,242,33,18,36,320,45,29,29,235,43,20,27,092,38,1*6E
$GPGSV,3,3,09,11,20,144,24,1*58
$GPGSV,1,1,03,199,60,167,30,18,36,320,43,11,20,144,24,8*65
$GLGSV,2,1,05,84,65,221,34,85,33,322,39,69,33,019,35,79,23,087,25,1*75
$GLGSV,2,2,05,80,16,141,24,1*40
$GAGSV,2,1,05,15,67,161,30,08,66,322,41,13,55,317,43,03,34,036,41,7*7F
$GAGSV,2,2,05,07,30,252,13,7*45
$GAGSV,2,1,05,15,67,161,21,08,66,322,44,13,55,317,45,03,34,036,38,1*74
$GAGSV,2,2,05,34,16,149,23,1*4D
$GBGSV,3,1,12,38,66,023,42,39,66,203,43,08,56,001,36,20,51,359,38,1*7A
$GBGSV,3,2,12,13,50,342,44,29,48,258,39,37,32,095,42,19,31,294,23,1*7F
$GBGSV,3,3,12,30,30,186,21,46,24,159,,32,21,059,41,35,16,313,41,1*7E
$GBGSV,3,1,09,38,66,023,44,39,66,203,38,20,51,359,41,29,48,258,39,4*7C
$GBGSV,3,2,09,37,32,095,37,19,31,294,23,46,24,159,21,32,21,059,43,4*71
$GBGSV,3,3,09,35,16,313,32,4*4B
$GNGGA,093832.000,2500.7755638,N,12132.4580970,E,4,43,0.55,15.925,M,15.25,M,1,3335*43
$GNRMC,093832.000,A,2500.7755638,N,12132.4580970,E,0.01,89.32,260623,,,R,V*26
$GPHDT,,T*1B
$GNGGA,093832.200,2500.7755643,N,12132.4580973,E,4,42,0.55,15.915,M,15.25,M,1,3335*4C
$GNRMC,093832.200,A,2500.7755643,N,12132.4580973,E,0.01,89.32,260623,,,R,V*2B
$GPHDT,,T*1B
$GNGGA,093832.400,2500.7755639,N,12132.4580980,E,4,42,0.55,15.905,M,15.25,M,1,3335*4A
$GNRMC,093832.400,A,2500.7755639,N,12132.4580980,E,0.01,89.32,260623,,,R,V*2C
$GPHDT,,T*1B
$GNGGA,093832.600,2500.7755662,N,12132.4580990,E,4,42,0.55,15.908,M,15.25,M,1,3335*4A
$GNRMC,093832.600,A,2500.7755662,N,12132.4580990,E,0.02,89.32,260623,,,R,V*22
$GPHDT,,T*1B
$GNGGA,093832.800,2500.7755651,N,12132.4580982,E,4,42,0.55,15.919,M,15.25,M,0,3335*46
$GNRMC,093832.800,A,2500.7755651,N,12132.4580982,E,0.01,89.32,260623,,,R,V*2C
$GPHDT,,T*1B
$GNGSA,A,3,15,199,13,05,18,29,20,11,,,,,1.08,0.55,0.93,1*30
$GNGSA,A,3,84,69,85,79,80,,,,,,,,1.08,0.55,0.93,2*09
$GNGSA,A,3,15,08,13,03,,,,,,,,,1.08,0.55,0.93,3*0D
$GNGSA,A,3,39,38,08,20,13,29,37,19,32,35,46,,1.08,0.55,0.93,4*0C
$GPGSV,3,1,09,15,63,338,44,199,60,167,20,13,45,029,41,05,43,064,43,1*59
$GPGSV,3,2,09,41,38,242,36,18,36,320,45,29,29,235,41,20,27,092,39,1*68
$GPGSV,3,3,09,11,20,144,25,1*59
$GPGSV,1,1,03,199,60,167,29,18,36,320,43,11,20,144,22,8*6B
$GLGSV,2,1,07,84,65,221,33,69,33,019,35,85,33,322,40,79,23,087,32,1*78
$GLGSV,2,2,07,80,16,141,21,78,06,040,,71,03,261,,1*4A
$GAGSV,2,1,05,15,67,161,33,08,66,322,41,13,55,317,43,03,34,036,41,7*7C
$GAGSV,2,2,05,07,30,252,13,7*45
$GAGSV,2,1,05,15,67,161,22,08,66,322,44,13,55,317,45,03,34,036,37,1*78
$GAGSV,2,2,05,34,16,149,21,1*4F
$GBGSV,3,1,12,39,66,203,43,38,66,023,42,08,56,001,36,20,51,359,38,1*7A
$GBGSV,3,2,12,13,50,342,44,29,48,258,40,37,32,095,41,19,31,294,23,1*72
$GBGSV,3,3,12,30,30,186,21,46,24,159,,32,21,059,41,35,16,313,41,1*7E
$GBGSV,3,1,09,38,66,023,44,39,66,203,40,20,51,359,41,29,48,258,39,4*73
$GBGSV,3,2,09,37,32,095,37,19,31,294,22,46,24,159,21,32,21,059,43,4*70
$GBGSV,3,3,09,35,16,313,34,4*4D
$GNGGA,093833.000,2500.7755642,N,12132.4580964,E,4,42,0.55,15.920,M,15.25,M,1,3335*4E
$GNRMC,093833.000,A,2500.7755642,N,12132.4580964,E,0.00,89.32,260623,,,R,V*2E
$GPHDT,,T*1B
$GNGGA,093833.200,2500.7755647,N,12132.4580953,E,4,41,0.55,15.910,M,15.25,M,1,3335*4D
$GNRMC,093833.200,A,2500.7755647,N,12132.4580953,E,0.01,89.32,260623,,,R,V*2C
$GPHDT,,T*1B
$GNGGA,093833.400,2500.7755635,N,12132.4580958,E,4,41,0.55,15.912,M,15.25,M,1,3335*47
$GNRMC,093833.400,A,2500.7755635,N,12132.4580958,E,0.00,89.32,260623,,,R,V*25
$GPHDT,,T*1B
$GNGGA,093833.600,2500.7755639,N,12132.4580962,E,4,41,0.55,15.912,M,15.25,M,1,3335*40
$GNRMC,093833.600,A,2500.7755639,N,12132.4580962,E,0.00,89.32,260623,,,R,V*22
$GPHDT,,T*1B
$GNGGA,093833.800,2500.7755621,N,12132.4580960,E,4,41,0.55,15.918,M,15.25,M,0,3335*4E
$GNRMC,093833.800,A,2500.7755621,N,12132.4580960,E,0.00,89.32,260623,,,R,V*27
$GPHDT,,T*1B
$GNGSA,A,3,15,199,13,05,18,29,20,11,,,,,1.08,0.55,0.93,1*30
$GNGSA,A,3,84,85,69,79,80,,,,,,,,1.08,0.55,0.93,2*09
$GNGSA,A,3,15,08,13,03,,,,,,,,,1.08,0.55,0.93,3*0D
$GNGSA,A,3,39,38,08,20,13,29,37,19,32,35,46,,1.08,0.55,0.93,4*0C
$GPGSV,3,1,09,15,63,338,44,199,60,167,20,13,45,029,42,05,43,064,42,1*5B
$GPGSV,3,2,09,41,38,242,36,18,36,320,45,29,29,235,42,20,27,092,40,1*65
$GPGSV,3,3,09,11,20,144,20,1*5C
$GPGSV,1,1,03,199,60,167,29,18,36,320,43,11,20,144,21,8*68
$GLGSV,2,1,05,84,65,221,33,85,33,322,40,69,33,019,34,79,23,087,34,1*7D
$GLGSV,2,2,05,80,16,141,21,1*45
$GAGSV,2,1,06,15,67,161,34,08,66,322,41,13,55,317,43,03,34,036,41,7*78
$GAGSV,2,2,06,07,30,252,14,25,01,078,,7*78
$GAGSV,2,1,05,15,67,161,24,08,66,322,44,13,55,317,45,03,34,036,37,1*7E
$GAGSV,2,2,05,34,16,149,24,1*4A
$GBGSV,3,1,12,39,66,203,43,38,66,023,43,08,56,001,37,20,51,359,38,1*7A
$GBGSV,3,2,12,13,50,342,44,29,48,258,40,37,32,095,41,19,31,294,23,1*72
$GBGSV,3,3,12,30,30,186,21,46,24,159,,32,21,059,41,35,16,313,41,1*7E
$GBGSV,3,1,09,38,66,023,43,39,66,203,40,20,51,359,41,29,48,258,39,4*74
$GBGSV,3,2,09,37,32,095,37,19,31,294,21,46,24,159,21,32,21,059,43,4*73
$GBGSV,3,3,09,35,16,313,34,4*4D
$GNGGA,093834.000,2500.7755628,N,12132.4580976,E,4,41,0.55,15.913,M,15.25,M,1,3335*45
$GNRMC,093834.000,A,2500.7755628,N,12132.4580976,E,0.00,89.32,260623,,,R,V*26
$GPHDT,,T*1B
$GNGGA,093834.200,2500.7755661,N,12132.4580959,E,4,41,0.55,15.914,M,15.25,M,1,3335*40
$GNRMC,093834.200,A,2500.7755661,N,12132.4580959,E,0.01,89.32,260623,,,R,V*25
$GPHDT,,T*1B
$GNGGA,093834.400,2500.7755659,N,12132.4580965,E,4,41,0.55,15.911,M,15.25,M,1,3335*47
$GNRMC,093834.400,A,2500.7755659,N,12132.4580965,E,0.00,89.32,260623,,,R,V*26
$GPHDT,,T*1B
$GNGGA,093834.600,2500.7755676,N,12132.4580962,E,4,42,0.55,15.918,M,15.25,M,0,3335*44
$GNRMC,093834.600,A,2500.7755676,N,12132.4580962,E,0.00,89.32,260623,,,R,V*2E
$GPHDT,,T*1B
$GNGGA,093834.800,2500.7755697,N,12132.4580971,E,4,41,0.55,15.918,M,15.25,M,0,3335*44
$GNRMC,093834.800,A,2500.7755697,N,12132.4580971,E,0.01,89.32,260623,,,R,V*2C
$GPHDT,,T*1B
$GNGSA,A,3,15,199,13,05,18,29,20,11,,,,,1.08,0.55,0.93,1*30
$GNGSA,A,3,84,85,69,79,80,,,,,,,,1.08,0.55,0.93,2*09
$GNGSA,A,3,15,08,13,03,,,,,,,,,1.08,0.55,0.93,3*0D
$GNGSA,A,3,39,38,08,20,13,29,37,19,32,35,46,,1.08,0.55,0.93,4*0C
$GPGSV,3,1,09,15,63,338,44,199,60,167,20,13,45,029,42,05,43,064,43,1*5A
$GPGSV,3,2,09,41,38,242,35,18,36,320,45,29,29,235,42,20,27,092,40,1*66
$GPGSV,3,3,09,11,20,144,23,1*5F
$GPGSV,1,1,03,199,60,167,29,18,36,320,43,11,20,144,20,8*69
$GLGSV,2,1,05,84,65,221,33,85,33,322,40,69,33,019,33,79,23,087,32,1*7C
$GLGSV,2,2,05,80,16,141,21,1*45
$GAGSV,2,1,06,15,67,161,35,08,66,322,41,13,55,317,43,03,34,037,41,7*78
$GAGSV,2,2,06,07,30,252,14,25,01,078,,7*78
$GAGSV,2,1,05,15,67,161,24,08,66,322,44,13,55,317,45,03,34,037,37,1*7F
$GAGSV,2,2,05,34,16,149,22,1*4C
$GBGSV,3,1,12,39,66,203,43,38,66,023,43,08,56,001,38,20,51,359,39,1*74
$GBGSV,3,2,12,13,50,342,44,29,48,258,40,37,32,095,40,19,31,294,23,1*73
$GBGSV,3,3,12,30,30,186,21,46,24,159,,32,21,059,41,35,16,313,41,1*7E
$GBGSV,3,1,09,38,66,023,43,39,66,203,41,20,51,359,41,29,48,258,39,4*75
$GBGSV,3,2,09,37,32,095,38,19,31,294,20,46,24,159,22,32,21,059,43,4*7E
$GBGSV,3,3,09,35,16,313,34,4*4D
$GNGGA,093835.000,2500.7755679,N,12132.4580970,E,4,41,0.55,15.908,M,15.25,M,1,3335*4C
$GNRMC,093835.000,A,2500.7755679,N,12132.4580970,E,0.00,89.32,260623,,,R,V*25
$GPHDT,,T*1B
$GNGGA,093835.200,2500.7755663,N,12132.4580951,E,4,41,0.55,15.907,M,15.25,M,1,3335*49
$GNRMC,093835.200,A,2500.7755663,N,12132.4580951,E,0.00,89.32,260623,,,R,V*2F
$GPHDT,,T*1B
$GNGGA,093835.400,2500.7755654,N,12132.4580962,E,4,42,0.55,15.914,M,15.25,M,1,3335*4A
$GNRMC,093835.400,A,2500.7755654,N,12132.4580962,E,0.00,89.32,260623,,,R,V*2D
$GPHDT,,T*1B
$GNGGA,093835.600,2500.7755677,N,12132.4580963,E,4,42,0.55,15.917,M,15.25,M,1,3335*4B
$GNRMC,093835.600,A,2500.7755677,N,12132.4580963,E,0.00,89.32,260623,,,R,V*2F
$GPHDT,,T*1B
$GNGGA,093835.800,2500.7755659,N,12132.4580973,E,4,41,0.55,15.913,M,15.25,M,1,3335*4F
$GNRMC,093835.800,A,2500.7755659,N,12132.4580973,E,0.00,89.32,260623,,,R,V*2C
$GPHDT,,T*1B
$GNGSA,A,3,15,199,13,05,18,29,20,11,,,,,1.08,0.55,0.93,1*30
$GNGSA,A,3,84,85,69,79,80,,,,,,,,1.08,0.55,0.93,2*09
$GNGSA,A,3,15,08,13,03,,,,,,,,,1.08,0.55,0.93,3*0D
$GNGSA,A,3,39,38,08,20,13,29,37,19,32,35,46,,1.08,0.55,0.93,4*0C
$GPGSV,3,1,09,15,63,338,44,199,60,167,22,13,45,029,42,05,43,064,43,1*58
$GPGSV,3,2,09,41,38,242,35,18,36,320,45,29,29,235,42,20,27,092,36,1*67
$GPGSV,3,3,09,11,20,144,32,1*5F
$GPGSV,1,1,03,199,60,167,30,18,36,320,43,11,20,144,24,8*65
$GLGSV,2,1,05,84,65,221,32,85,33,322,40,69,33,019,33,79,23,087,32,1*7D
$GLGSV,2,2,05,80,16,141,20,1*44
$GAGSV,2,1,06,15,67,161,35,08,66,323,41,13,55,317,42,03,34,037,41,7*78
$GAGSV,2,2,06,07,30,253,16,25,01,078,,7*7B
$GAGSV,2,1,05,15,67,161,23,08,66,323,44,13,55,317,45,03,34,037,35,1*7B
$GAGSV,2,2,05,34,16,149,24,1*4A
$GBGSV,3,1,12,39,66,203,43,38,66,023,43,08,56,001,38,20,51,359,39,1*74
$GBGSV,3,2,12,13,50,342,44,29,48,258,39,37,32,095,40,19,31,294,22,1*7C
$GBGSV,3,3,12,30,30,186,22,46,24,159,,32,21,059,42,35,16,313,41,1*7E
$GBGSV,3,1,09,38,66,023,43,39,66,203,41,20,51,359,41,29,48,258,39,4*75
$GBGSV,3,2,09,37,32,095,38,19,31,294,21,46,24,159,21,32,21,059,40,4*7F
$GBGSV,3,3,09,35,16,313,33,4*4A
$GNGGA,093836.000,2500.7755654,N,12132.4580987,E,4,42,0.55,15.914,M,15.25,M,2,3335*45
$GNRMC,093836.000,A,2500.7755654,N,12132.4580987,E,0.00,89.32,260623,,,R,V*21
$GPHDT,,T*1B
$GNGGA,093836.200,2500.7755650,N,12132.4580985,E,4,42,0.55,15.910,M,15.25,M,2,3335*45
$GNRMC,093836.200,A,2500.7755650,N,12132.4580985,E,0.00,89.32,260623,,,R,V*25
$GPHDT,,T*1B
$GNGGA,093836.400,2500.7755664,N,12132.4580962,E,4,42,0.55,15.911,M,15.25,M,2,3335*4C
$GNRMC,093836.400,A,2500.7755664,N,12132.4580962,E,0.01,89.32,260623,,,R,V*2C
$GPHDT,,T*1B
$GNGGA,093836.600,2500.7755661,N,12132.4580970,E,4,41,0.55,15.905,M,15.25,M,2,3335*4E
$GNRMC,093836.600,A,2500.7755661,N,12132.4580970,E,0.00,89.32,260623,,,R,V*29
$GPHDT,,T*1B
$GNGGA,093836.800,2500.7755655,N,12132.4580985,E,4,42,0.55,15.899,M,15.25,M,2,3335*4A
$GNRMC,093836.800,A,2500.7755655,N,12132.4580985,E,0.00,89.32,260623,,,R,V*2A
$GPHDT,,T*1B
$GNGSA,A,3,15,199,13,05,18,29,20,11,,,,,1.08,0.55,0.93,1*30
$GNGSA,A,3,84,85,69,79,80,,,,,,,,1.08,0.55,0.93,2*09
$GNGSA,A,3,15,08,13,03,,,,,,,,,1.08,0.55,0.93,3*0D
$GNGSA,A,3,39,38,08,20,13,29,37,19,32,35,46,,1.08,0.55,0.93,4*0C
$GPGSV,3,1,09,15,63,338,44,199,60,167,22,13,45,029,42,05,43,064,43,1*58
$GPGSV,3,2,09,41,38,242,35,18,36,320,45,29,29,235,42,20,27,092,36,1*67
$GPGSV,3,3,09,11,20,144,32,1*5F
$GPGSV,1,1,03,199,60,167,30,18,36,320,43,11,20,144,24,8*65
$GLGSV,2,1,05,84,65,221,32,85,33,322,40,69,33,019,32,79,23,087,33,1*7D
$GLGSV,2,2,05,80,16,141,21,1*45
$GAGSV,2,1,06,15,67,161,35,08,66,323,41,13,55,317,42,03,34,037,41,7*78
$GAGSV,2,2,06,07,30,253,16,25,01,078,,7*7B
$GAGSV,2,1,05,15,67,161,24,08,66,323,44,13,55,317,45,03,34,037,35,1*7C
$GAGSV,2,2,05,34,16,149,25,1*4B
$GBGSV,3,1,12,39,66,203,43,38,66,023,42,08,56,001,38,20,51,359,39,1*75
$GBGSV,3,2,12,13,50,342,44,29,48,258,39,37,32,095,40,19,31,294,21,1*7F
$GBGSV,3,3,12,30,30,186,22,46,24,159,,32,21,059,42,35,16,313,41,1*7E
$GBGSV,3,1,09,38,66,023,43,39,66,203,41,20,51,359,41,29,48,258,39,4*75
$GBGSV,3,2,09,37,32,095,38,19,31,294,21,46,24,159,21,32,21,059,40,4*7F
$GBGSV,3,3,09,35,16,313,32,4*4B
$GNGGA,093837.000,2500.7755651,N,12132.4580968,E,4,42,0.55,15.906,M,15.25,M,3,3335*42
$GNRMC,093837.000,A,2500.7755651,N,12132.4580968,E,0.00,89.32,260623,,,R,V*24
$GPHDT,,T*1B
$GNGGA,093837.200,2500.7755645,N,12132.4580972,E,4,42,0.55,15.905,M,15.25,M,3,3335*4D
$GNRMC,093837.200,A,2500.7755645,N,12132.4580972,E,0.00,89.32,260623,,,R,V*28
$GPHDT,,T*1B
$GNGGA,093837.400,2500.7755670,N,12132.4580967,E,4,42,0.55,15.911,M,15.25,M,3,3335*4C
$GNRMC,093837.400,A,2500.7755670,N,12132.4580967,E,0.00,89.32,260623,,,R,V*2C
$GPHDT,,T*1B
$GNGGA,093837.600,2500.7755680,N,12132.4580947,E,4,42,0.55,15.914,M,15.25,M,3,3335*46
$GNRMC,093837.600,A,2500.7755680,N,12132.4580947,E,0.00,89.32,260623,,,R,V*23
$GPHDT,,T*1B
$GNGGA,093837.800,2500.7755600,N,12132.4581030,E,4,43,0.55,15.900,M,15.25,M,3,3335*4C
$GNRMC,093837.800,A,2500.7755600,N,12132.4581030,E,0.00,89.32,260623,,,R,V*2D
$GPHDT,,T*1B
$GNGSA,A,3,15,199,13,05,18,29,20,11,,,,,1.08,0.55,0.93,1*30
$GNGSA,A,3,84,85,69,79,80,,,,,,,,1.08,0.55,0.93,2*09
$GNGSA,A,3,15,08,13,03,,,,,,,,,1.08,0.55,0.93,3*0D
$GNGSA,A,3,39,38,08,20,13,29,37,19,46,32,35,,1.08,0.55,0.93,4*0C
$GPGSV,3,1,09,15,63,338,44,199,60,167,21,13,45,029,42,05,43,064,43,1*5B
$GPGSV,3,2,09,41,38,242,35,18,36,320,45,29,29,235,42,20,27,092,35,1*64
$GPGSV,3,3,09,11,20,144,30,1*5D
$GPGSV,1,1,03,199,60,167,31,18,36,320,43,11,20,144,25,8*65
$GLGSV,2,1,05,84,65,221,32,85,33,322,40,69,33,019,32,79,23,087,32,1*7C
$GLGSV,2,2,05,80,16,141,23,1*47
$GAGSV,2,1,06,15,67,161,35,08,66,323,41,13,55,317,42,03,34,037,41,7*78
$GAGSV,2,2,06,07,30,253,17,25,01,078,,7*7A
$GAGSV,2,1,05,15,67,161,24,08,66,323,44,13,55,317,45,03,34,037,34,1*7D
$GAGSV,2,2,05,34,16,149,26,1*48
$GBGSV,3,1,12,39,66,203,43,38,66,023,42,08,56,001,38,20,51,359,39,1*75
$GBGSV,3,2,12,13,50,342,44,29,48,258,39,37,32,095,40,19,31,294,21,1*7F
$GBGSV,3,3,12,30,30,186,22,46,24,159,27,32,21,059,28,35,16,313,41,1*77
$GBGSV,3,1,09,38,66,023,43,39,66,203,41,20,51,359,41,29,48,258,39,4*75
$GBGSV,3,2,09,37,32,095,37,19,31,294,21,46,24,159,19,32,21,059,29,4*74
$GBGSV,3,3,09,35,16,313,32,4*4B
$GNGGA,093838.000,2500.7755616,N,12132.4581005,E,4,43,0.55,15.908,M,15.25,M,4,3335*45
$GNRMC,093838.000,A,2500.7755616,N,12132.4581005,E,0.01,89.32,260623,,,R,V*2A
$GPHDT,,T*1B
$GNGGA,093838.200,2500.7755584,N,12132.4580979,E,4,43,0.55,15.912,M,15.25,M,4,3335*47
$GNRMC,093838.200,A,2500.7755584,N,12132.4580979,E,0.00,89.32,260623,,,R,V*22
$GPHDT,,T*1B
$GNGGA,093838.400,2500.7755615,N,12132.4580930,E,4,43,0.55,15.917,M,15.25,M,4,3335*42
$GNRMC,093838.400,A,2500.7755615,N,12132.4580930,E,0.00,89.32,260623,,,R,V*22
$GPHDT,,T*1B
$GNGGA,093838.600,2500.7755646,N,12132.4580939,E,4,43,0.55,15.915,M,15.25,M,4,3335*4D
$GNRMC,093838.600,A,2500.7755646,N,12132.4580939,E,0.00,89.32,260623,,,R,V*2F
$GPHDT,,T*1B
$GNGGA,093838.800,2500.7755635,N,12132.4580946,E,4,43,0.55,15.913,M,15.25,M,4,3335*49
$GNRMC,093838.800,A,2500.7755635,N,12132.4580946,E,0.00,89.32,260623,,,R,V*2D
