$FW : RTK35X,V1.1X0314AS,Lib20210517,1*54
$Tool : LOCOSYS , GNSS Firebird , v1.0.0.19*39
$---------------------------------------------------*2D
$GPHDT,,T*1B
$GNGGA,093859.200,2500.7755259,N,12132.4579480,E,2,43,0.55,16.024,M,15.25,M,3,3335*44
$GNRMC,093859.200,A,2500.7755259,N,12132.4579480,E,0.00,89.32,260623,,,D,V*39
$GPHDT,,T*1B
$GNGGA,093859.400,2500.7755199,N,12132.4579420,E,2,42,0.55,16.006,M,15.25,M,3,3335*46
$GNRMC,093859.400,A,2500.7755199,N,12132.4579420,E,0.01,89.32,260623,,,D,V*3B
$GPHDT,,T*1B
$GNGGA,093859.600,2500.7755139,N,12132.4579360,E,2,42,0.55,16.000,M,15.25,M,3,3335*4B
$GNRMC,093859.600,A,2500.7755139,N,12132.4579360,E,0.00,89.32,260623,,,D,V*31
$GPHDT,,T*1B
$GNGGA,093859.800,2500.7755079,N,12132.4579240,E,2,42,0.55,16.004,M,15.25,M,3,3335*47
$GNRMC,093859.800,A,2500.7755079,N,12132.4579240,E,0.00,89.32,260623,,,D,V*39
$GPHDT,,T*1B
$GNGSA,A,3,15,199,13,05,18,29,20,11,,,,,1.08,0.55,0.93,1*30
$GNGSA,A,3,84,85,69,79,80,,,,,,,,1.08,0.55,0.93,2*09
$GNGSA,A,3,15,08,13,03,,,,,,,,,1.08,0.55,0.93,3*0D
$GNGSA,A,3,39,38,08,20,13,29,37,19,32,35,46,,1.08,0.55,0.93,4*0C
$GPGSV,3,1,11,15,63,338,44,199,60,167,27,13,45,029,44,05,43,065,44,1*54
$GPGSV,3,2,11,41,38,242,37,18,36,320,45,29,29,235,36,20,27,092,33,1*6A
$GPGSV,3,3,11,11,20,144,23,194,16,150,25,24,,,25,1*5F
$GPGSV,1,1,03,199,60,167,28,18,36,320,42,11,20,144,21,8*68
$GLGSV,2,1,05,84,65,221,30,85,33,321,38,69,33,019,27,79,23,087,33,1*77
$GLGSV,2,2,05,80,16,141,28,1*4C
$GAGSV,2,1,06,15,67,161,35,08,66,323,38,13,55,317,42,03,34,037,41,7*76
$GAGSV,2,2,06,07,30,253,,34,15,149,24,7*7C
$GAGSV,2,1,05,15,67,161,23,08,66,323,44,13,55,317,43,03,34,037,36,1*7E
$GAGSV,2,2,05,34,15,149,22,1*4F
$GBGSV,3,1,12,39,66,203,40,38,66,024,43,08,57,001,37,20,51,359,39,1*7E
$GBGSV,3,2,12,13,50,342,45,29,48,258,39,37,32,095,32,19,31,294,25,1*7F
$GBGSV,3,3,12,30,30,186,16,46,24,159,19,32,21,060,44,35,16,313,40,1*7C
$GBGSV,3,1,09,38,66,024,43,39,66,203,42,20,51,359,40,29,48,258,41,4*7F
$GBGSV,3,2,09,37,32,095,36,19,31,294,20,46,24,159,27,32,21,060,41,4*7D
$GBGSV,3,3,09,35,16,313,36,4*4F
$GNGGA,093900.000,2500.7755019,N,12132.4579060,E,2,41,0.55,16.003,M,15.25,M,4,3335*47
$GNRMC,093900.000,A,2500.7755019,N,12132.4579060,E,0.01,89.32,260623,,,D,V*3B
$GPHDT,,T*1B
$GNGGA,093900.200,2500.7755079,N,12132.4578760,E,2,41,0.55,16.029,M,15.25,M,4,3335*4D
$GNRMC,093900.200,A,2500.7755079,N,12132.4578760,E,0.01,89.32,260623,,,D,V*39
$GPHDT,,T*1B
$GNGGA,093900.400,2500.7755019,N,12132.4578700,E,2,41,0.55,16.021,M,15.25,M,1,3335*46
$GNRMC,093900.400,A,2500.7755019,N,12132.4578700,E,0.00,89.32,260623,,,D,V*3E
$GPHDT,,T*1B
$GNGGA,093900.600,2500.7755019,N,12132.4578640,E,2,41,0.55,16.019,M,15.25,M,1,3335*4A
$GNRMC,093900.600,A,2500.7755019,N,12132.4578640,E,0.00,89.32,260623,,,D,V*39
$GPHDT,,T*1B
$GNGGA,093900.800,2500.7754959,N,12132.4578520,E,2,41,0.55,16.022,M,15.25,M,1,3335*45
$GNRMC,093900.800,A,2500.7754959,N,12132.4578520,E,0.00,89.32,260623,,,D,V*3E
$GPHDT,,T*1B
$GNGSA,A,3,15,199,13,05,18,29,20,11,,,,,1.08,0.55,0.93,1*30
$GNGSA,A,3,84,85,69,79,80,,,,,,,,1.08,0.55,0.93,2*09
$GNGSA,A,3,15,08,13,03,,,,,,,,,1.08,0.55,0.93,3*0D
$GNGSA,A,3,39,38,08,20,13,29,37,19,32,35,46,,1.08,0.55,0.93,4*0C
$GPGSV,3,1,11,15,63,338,44,199,60,167,23,13,45,029,43,05,43,065,42,1*51
$GPGSV,3,2,11,41,38,242,37,18,36,320,45,29,29,235,36,20,27,092,33,1*6A
$GPGSV,3,3,11,11,20,144,18,194,16,150,27,24,,,25,1*55
$GPGSV,1,1,03,199,60,167,28,18,36,320,42,11,20,144,22,8*6B
$GLGSV,2,1,05,84,65,221,30,85,33,321,38,69,33,019,24,79,23,087,35,1*72
$GLGSV,2,2,05,80,16,141,30,1*45
$GAGSV,2,1,05,15,67,161,34,08,66,323,38,13,55,317,42,03,34,037,41,7*74
$GAGSV,2,2,05,34,15,149,23,7*48
$GAGSV,2,1,05,15,67,161,25,08,66,323,44,13,55,317,43,03,34,037,38,1*76
$GAGSV,2,2,05,34,15,149,22,1*4F
$GBGSV,3,1,12,39,66,203,41,38,66,024,43,08,57,001,37,20,51,359,40,1*71
$GBGSV,3,2,12,13,50,342,45,29,48,258,38,37,32,095,39,19,31,294,23,1*73
$GBGSV,3,3,12,30,30,186,17,46,24,159,19,32,21,060,42,35,16,313,38,1*74
$GBGSV,3,1,09,38,66,024,43,39,66,203,42,20,51,359,40,29,48,258,41,4*7F
$GBGSV,3,2,09,37,32,095,40,19,31,294,22,46,24,159,20,32,21,060,42,4*7A
$GBGSV,3,3,09,35,16,313,35,4*4C
$GNGGA,093901.000,2500.7754899,N,12132.4578460,E,2,41,0.55,16.010,M,15.25,M,2,3335*46
$GNRMC,093901.000,A,2500.7754899,N,12132.4578460,E,0.00,89.32,260623,,,D,V*3F
$GPHDT,,T*1B
$GNGGA,093901.200,2500.7754839,N,12132.4578340,E,2,41,0.55,15.992,M,15.25,M,2,3335*4B
$GNRMC,093901.200,A,2500.7754839,N,12132.4578340,E,0.00,89.32,260623,,,D,V*32
$GPHDT,,T*1B
$GNGGA,093901.400,2500.7754839,N,12132.4578340,E,2,40,0.57,15.995,M,15.25,M,2,3335*49
$GNRMC,093901.400,A,2500.7754839,N,12132.4578340,E,0.00,89.32,260623,,,D,V*34
$GPHDT,,T*1B
$GNGGA,093901.600,2500.7754779,N,12132.4578280,E,2,40,0.57,15.988,M,15.25,M,2,3335*41
$GNRMC,093901.600,A,2500.7754779,N,12132.4578280,E,0.00,89.32,260623,,,D,V*30
$GPHDT,,T*1B
$GNGGA,093901.800,2500.7754719,N,12132.4578280,E,2,41,0.57,15.993,M,15.25,M,2,3335*42
$GNRMC,093901.800,A,2500.7754719,N,12132.4578280,E,0.00,89.32,260623,,,D,V*38
$GPHDT,,T*1B
$GNGSA,A,3,15,199,13,05,18,29,20,11,,,,,1.08,0.55,0.93,1*30
$GNGSA,A,3,84,85,69,79,80,,,,,,,,1.08,0.55,0.93,2*09
$GNGSA,A,3,15,08,13,03,,,,,,,,,1.08,0.55,0.93,3*0D
$GNGSA,A,3,39,38,08,20,13,29,37,19,32,35,46,,1.08,0.55,0.93,4*0C
$GPGSV,3,1,11,15,63,339,44,199,60,167,25,13,45,029,43,05,43,065,41,1*55
$GPGSV,3,2,11,41,38,242,35,18,36,320,45,29,29,235,38,20,27,092,34,1*61
$GPGSV,3,3,11,11,19,144,19,194,16,150,28,24,,,25,1*51
$GPGSV,1,1,03,199,60,167,32,18,36,320,42,11,19,144,25,8*6D
$GLGSV,2,1,05,84,65,221,31,85,33,321,38,69,33,019,23,79,23,087,35,1*74
$GLGSV,2,2,05,80,16,141,30,1*45
$GAGSV,2,1,05,15,67,161,33,08,66,323,38,13,55,317,42,03,34,037,42,7*70
$GAGSV,2,2,05,34,15,149,26,7*4D
$GAGSV,2,1,05,15,67,161,23,08,66,323,44,13,55,317,44,03,34,037,38,1*77
$GAGSV,2,2,05,34,15,149,23,1*4E
$GBGSV,3,1,12,39,66,203,41,38,66,024,43,08,57,001,37,20,51,359,40,1*71
$GBGSV,3,2,12,13,50,342,45,29,48,258,38,37,32,095,39,19,31,294,24,1*74
$GBGSV,3,3,12,30,30,186,17,46,24,159,15,32,21,060,43,35,16,313,38,1*79
$GBGSV,3,1,09,38,66,024,43,39,66,203,42,20,51,359,40,29,48,258,42,4*7C
$GBGSV,3,2,09,37,32,095,40,19,31,294,24,46,24,159,25,32,21,060,42,4*79
$GBGSV,3,3,09,35,16,313,35,4*4C
$GNGGA,093902.000,2500.7754659,N,12132.4578160,E,2,42,0.55,15.978,M,15.25,M,3,3335*44
$GNRMC,093902.000,A,2500.7754659,N,12132.4578160,E,0.00,89.32,260623,,,D,V*3B
$GPHDT,,T*1B
$GNGGA,093902.200,2500.7754659,N,12132.4578160,E,2,42,0.55,15.968,M,15.25,M,3,3335*47
$GNRMC,093902.200,A,2500.7754659,N,12132.4578160,E,0.00,89.32,260623,,,D,V*39
$GPHDT,,T*1B
$GNGGA,093902.400,2500.7754659,N,12132.4578160,E,2,42,0.55,15.962,M,15.25,M,3,3335*4B
$GNRMC,093902.400,A,2500.7754659,N,12132.4578160,E,0.00,89.32,260623,,,D,V*3F
$GPHDT,,T*1B
$GNGGA,093902.600,2500.7754599,N,12132.4578160,E,2,42,0.55,15.956,M,15.25,M,3,3335*41
$GNRMC,093902.600,A,2500.7754599,N,12132.4578160,E,0.00,89.32,260623,,,D,V*32
$GPHDT,,T*1B
$GNGGA,093902.800,2500.7754599,N,12132.4578160,E,2,42,0.55,15.944,M,15.25,M,3,3335*4C
$GNRMC,093902.800,A,2500.7754599,N,12132.4578160,E,0.00,89.32,260623,,,D,V*3C
$GPHDT,,T*1B
$GNGSA,A,3,15,199,13,05,18,29,20,11,,,,,1.08,0.55,0.93,1*30
$GNGSA,A,3,84,85,69,79,80,,,,,,,,1.08,0.55,0.93,2*09
$GNGSA,A,3,15,08,13,03,,,,,,,,,1.08,0.55,0.93,3*0D
$GNGSA,A,3,39,38,08,20,13,29,37,19,32,35,46,,1.08,0.55,0.93,4*0C
$GPGSV,3,1,11,15,63,339,44,199,60,167,25,13,45,029,43,05,43,065,41,1*55
$GPGSV,3,2,11,41,38,242,35,18,36,320,45,29,29,235,37,20,27,092,35,1*6F
$GPGSV,3,3,11,11,19,144,21,194,16,150,29,24,,,25,1*5B
$GPGSV,1,1,04,199,60,167,33,18,36,320,41,11,19,144,26,194,16,150,17,8*62
$GLGSV,2,1,05,84,65,221,31,85,33,321,37,69,33,019,21,79,23,087,36,1*7A
$GLGSV,2,2,05,80,16,141,29,1*4D
$GAGSV,2,1,05,15,67,161,34,08,66,323,37,13,55,317,42,03,34,037,42,7*78
$GAGSV,2,2,05,34,15,149,26,7*4D
$GAGSV,2,1,05,15,67,161,23,08,66,323,44,13,55,317,43,03,34,037,38,1*70
$GAGSV,2,2,05,34,15,149,20,1*4D
$GBGSV,3,1,12,39,66,203,41,38,66,024,43,08,57,001,37,20,51,359,40,1*71
$GBGSV,3,2,12,13,50,342,45,29,48,258,38,37,32,095,41,19,31,294,24,1*7B
$GBGSV,3,3,12,30,30,186,17,46,24,159,19,32,21,060,43,35,16,313,38,1*75
$GBGSV,3,1,09,39,66,203,42,38,66,024,43,20,51,359,40,29,48,258,42,4*7C
$GBGSV,3,2,09,37,32,095,40,19,31,294,24,46,24,159,27,32,21,060,42,4*7B
$GBGSV,3,3,09,35,16,313,35,4*4C
$GNGGA,093903.000,2500.7754539,N,12132.4578100,E,2,42,0.55,15.949,M,15.25,M,4,3335*43
$GNRMC,093903.000,A,2500.7754539,N,12132.4578100,E,0.00,89.32,260623,,,D,V*39
$GPHDT,,T*1B
$GNGGA,093903.200,2500.7754539,N,12132.4578100,E,2,42,0.55,15.936,M,15.25,M,4,3335*49
$GNRMC,093903.200,A,2500.7754539,N,12132.4578100,E,0.00,89.32,260623,,,D,V*3B
$GPHDT,,T*1B
$GNGGA,093903.400,2500.7754539,N,12132.4578100,E,2,41,0.55,15.935,M,15.25,M,4,3335*4F
$GNRMC,093903.400,A,2500.7754539,N,12132.4578100,E,0.00,89.32,260623,,,D,V*3D
$GPHDT,,T*1B
$GNGGA,093903.600,2500.7754539,N,12132.4578160,E,2,42,0.55,15.926,M,15.25,M,4,3335*4A
$GNRMC,093903.600,A,2500.7754539,N,12132.4578160,E,0.00,89.32,260623,,,D,V*39
$GPHDT,,T*1B
$GNGGA,093903.800,2500.7754479,N,12132.4578220,E,2,42,0.55,15.917,M,15.25,M,4,3335*44
$GNRMC,093903.800,A,2500.7754479,N,12132.4578220,E,0.00,89.32,260623,,,D,V*35
$GPHDT,,T*1B
$GNGSA,A,3,15,199,13,05,18,29,20,11,,,,,1.08,0.55,0.93,1*30
$GNGSA,A,3,84,85,69,79,80,,,,,,,,1.08,0.55,0.93,2*09
$GNGSA,A,3,15,08,13,03,,,,,,,,,1.08,0.55,0.93,3*0D
$GNGSA,A,3,39,38,08,20,13,29,37,19,46,32,35,,1.08,0.55,0.93,4*0C
$GPGSV,3,1,11,15,63,339,44,199,60,167,26,13,45,029,43,05,43,065,41,1*56
$GPGSV,3,2,11,41,38,242,35,18,36,320,45,29,29,235,37,20,27,092,34,1*6E
$GPGSV,3,3,11,11,19,144,26,194,16,150,28,24,,,24,1*5C
$GPGSV,1,1,04,199,60,167,33,18,36,320,41,11,19,144,25,194,16,150,13,8*65
$GLGSV,2,1,05,84,65,221,31,85,33,321,37,69,33,019,21,79,23,087,35,1*79
$GLGSV,2,2,05,80,16,141,29,1*4D
$GAGSV,2,1,05,15,67,161,35,08,66,323,37,13,55,317,42,03,34,037,42,7*79
$GAGSV,2,2,05,34,15,149,27,7*4C
$GAGSV,2,1,05,15,67,161,27,08,66,323,44,13,55,317,43,03,34,037,38,1*74
$GAGSV,2,2,05,34,15,149,20,1*4D
$GBGSV,3,1,12,39,66,203,41,38,66,024,42,08,57,001,36,20,51,359,40,1*71
$GBGSV,3,2,12,13,50,342,45,29,48,258,38,37,32,095,41,19,31,294,25,1*7A
$GBGSV,3,3,12,30,30,186,17,46,24,159,24,32,21,060,43,35,16,313,39,1*7A
$GBGSV,3,1,09,39,66,203,42,38,66,024,43,20,51,359,40,29,48,258,42,4*7C
$GBGSV,3,2,09,37,32,095,40,19,31,294,24,46,24,159,26,32,21,060,42,4*7A
$GBGSV,3,3,09,35,16,313,35,4*4C
$GNGGA,093904.000,2500.7754479,N,12132.4578280,E,2,43,0.55,15.918,M,15.25,M,5,3335*4E
$GNRMC,093904.000,A,2500.7754479,N,12132.4578280,E,0.00,89.32,260623,,,D,V*30
$GPHDT,,T*1B
$GNGGA,093904.200,2500.7755677,N,12132.4581014,E,4,43,0.55,15.935,M,15.25,M,5,3335*41
$GNRMC,093904.200,A,2500.7755677,N,12132.4581014,E,0.00,89.32,260623,,,R,V*20
$GPHDT,,T*1B
$GNGGA,093904.400,2500.7755690,N,12132.4580987,E,4,43,0.55,15.943,M,15.25,M,5,3335*4D
$GNRMC,093904.400,A,2500.7755690,N,12132.4580987,E,0.00,89.32,260623,,,R,V*2D
$GPHDT,,T*1B
$GNGGA,093904.600,2500.7755686,N,12132.4581014,E,4,43,0.55,15.941,M,15.25,M,5,3335*48
$GNRMC,093904.600,A,2500.7755686,N,12132.4581014,E,0.00,89.32,260623,,,R,V*2A
$GPHDT,,T*1B
$GNGGA,093904.800,2500.7755690,N,12132.4580993,E,4,43,0.55,15.935,M,15.25,M,5,3335*45
$GNRMC,093904.800,A,2500.7755690,N,12132.4580993,E,0.00,89.32,260623,,,R,V*24
$GPHDT,,T*1B
$GNGSA,A,3,15,199,13,05,18,29,20,11,,,,,1.08,0.55,0.93,1*30
$GNGSA,A,3,84,85,69,79,80,,,,,,,,1.08,0.55,0.93,2*09
$GNGSA,A,3,15,08,13,03,,,,,,,,,1.08,0.55,0.93,3*0D
$GNGSA,A,3,39,38,08,20,13,29,37,19,46,32,35,,1.08,0.55,0.93,4*0C
$GPGSV,3,1,11,15,63,339,44,199,60,167,26,13,45,029,42,05,43,065,42,1*54
$GPGSV,3,2,11,41,38,242,35,18,36,320,45,29,29,235,37,20,27,092,34,1*6E
$GPGSV,3,3,11,11,19,144,25,194,16,150,28,24,,,24,1*5F
$GPGSV,1,1,04,199,60,167,33,18,36,320,41,11,19,144,27,194,16,150,17,8*63
$GLGSV,2,1,05,84,65,221,31,85,33,321,37,69,33,019,26,79,23,087,35,1*7E
$GLGSV,2,2,05,80,16,141,29,1*4D
$GAGSV,2,1,05,15,67,161,35,08,66,323,37,13,55,317,42,03,34,037,42,7*79
$GAGSV,2,2,05,34,15,149,25,7*4E
$GAGSV,2,1,05,15,67,161,28,08,66,323,44,13,55,317,43,03,34,037,38,1*7B
$GAGSV,2,2,05,34,15,149,21,1*4C
$GBGSV,3,1,12,39,66,203,41,38,66,024,42,08,57,001,36,20,51,359,40,1*71
$GBGSV,3,2,12,13,50,342,45,29,48,258,38,37,32,095,41,19,31,294,26,1*79
$GBGSV,3,3,12,30,30,186,18,46,24,159,24,32,21,060,43,35,16,313,39,1*75
$GBGSV,3,1,09,39,66,203,43,38,66,024,43,20,51,359,40,29,48,258,42,4*7D
$GBGSV,3,2,09,37,32,095,40,19,31,294,24,46,24,159,26,32,21,060,42,4*7A
$GBGSV,3,3,09,35,16,313,35,4*4C
$GNGGA,093905.000,2500.7755695,N,12132.4580997,E,4,43,0.55,15.940,M,15.25,M,6,3335*4C
$GNRMC,093905.000,A,2500.7755695,N,12132.4580997,E,0.00,89.32,260623,,,R,V*2C
$GPHDT,,T*1B
$GNGGA,093905.200,2500.7755695,N,12132.4580984,E,4,43,0.55,15.934,M,15.25,M,6,3335*4F
$GNRMC,093905.200,A,2500.7755695,N,12132.4580984,E,0.00,89.32,260623,,,R,V*2C
$GPHDT,,T*1B
$GNGGA,093905.400,2500.7755682,N,12132.4581005,E,4,42,0.55,15.938,M,15.25,M,6,3335*43
$GNRMC,093905.400,A,2500.7755682,N,12132.4581005,E,0.00,89.32,260623,,,R,V*2D
$GPHDT,,T*1B
$GNGGA,093905.600,2500.7755703,N,12132.4580997,E,4,42,0.55,15.938,M,15.25,M,6,3335*4A
$GNRMC,093905.600,A,2500.7755703,N,12132.4580997,E,0.00,89.32,260623,,,R,V*24
$GPHDT,,T*1B
$GNGGA,093905.800,2500.7755683,N,12132.4581001,E,4,43,0.55,15.932,M,15.25,M,6,3335*41
$GNRMC,093905.800,A,2500.7755683,N,12132.4581001,E,0.00,89.32,260623,,,R,V*24
$GPHDT,,T*1B
$GNGSA,A,3,15,199,13,05,18,29,20,11,,,,,1.08,0.55,0.93,1*30
$GNGSA,A,3,84,85,69,79,80,,,,,,,,1.08,0.55,0.93,2*09
$GNGSA,A,3,15,08,13,03,,,,,,,,,1.08,0.55,0.93,3*0D
$GNGSA,A,3,39,38,08,20,13,29,37,19,46,32,35,,1.08,0.55,0.93,4*0C
$GPGSV,3,1,11,15,63,339,44,199,60,167,26,13,45,029,42,05,43,065,42,1*54
$GPGSV,3,2,11,41,38,242,35,18,36,320,45,29,29,235,37,20,27,092,34,1*6E
$GPGSV,3,3,11,11,19,144,28,194,16,150,28,24,,,24,1*52
$GPGSV,1,1,04,199,60,167,33,18,36,320,41,11,19,144,27,194,16,150,17,8*63
$GLGSV,2,1,05,84,65,221,31,85,33,321,37,69,33,019,29,79,23,087,35,1*71
$GLGSV,2,2,05,80,16,141,28,1*4C
$GAGSV,2,1,05,15,67,161,36,08,66,323,37,13,55,317,42,03,34,037,42,7*7A
$GAGSV,2,2,05,34,15,149,25,7*4E
$GAGSV,2,1,05,15,67,161,28,08,66,323,44,13,55,317,43,03,34,037,38,1*7B
$GAGSV,2,2,05,34,15,149,21,1*4C
$GBGSV,3,1,12,39,66,203,41,38,66,024,42,08,57,001,36,20,51,359,40,1*71
$GBGSV,3,2,12,13,50,342,45,29,48,258,39,37,32,095,41,19,31,294,26,1*78
$GBGSV,3,3,12,30,30,186,19,46,24,159,24,32,21,060,43,35,16,313,39,1*74
$GBGSV,3,1,09,39,66,203,43,38,66,024,43,20,51,359,40,29,48,258,42,4*7D
$GBGSV,3,2,09,37,32,095,40,19,31,294,23,46,24,159,27,32,21,060,42,4*7C
$GBGSV,3,3,09,35,16,313,34,4*4D
$GNGGA,093906.000,2500.7755683,N,12132.4581121,E,2,43,0.55,15.942,M,15.25,M,5,3335*4B
$GNRMC,093906.000,A,2500.7755683,N,12132.4581121,E,0.00,89.32,260623,,,D,V*3A
$GPHDT,,T*1B
$GNGGA,093906.200,2500.7755623,N,12132.4581181,E,2,43,0.55,15.923,M,15.25,M,2,3335*49
$GNRMC,093906.200,A,2500.7755623,N,12132.4581181,E,0.00,89.32,260623,,,D,V*38
$GPHDT,,T*1B
$GNGGA,093906.400,2500.7755623,N,12132.4581241,E,2,43,0.55,15.910,M,15.25,M,1,3335*43
$GNRMC,093906.400,A,2500.7755623,N,12132.4581241,E,0.00,89.32,260623,,,D,V*31
$GPHDT,,T*1B
$GNGGA,093906.600,2500.7755563,N,12132.4581361,E,2,43,0.55,15.896,M,15.25,M,1,3335*4A
$GNRMC,093906.600,A,2500.7755563,N,12132.4581361,E,0.00,89.32,260623,,,D,V*37
$GPHDT,,T*1B
$GNGGA,093906.800,2500.7755503,N,12132.4581421,E,2,43,0.55,15.877,M,15.25,M,1,3335*4E
$GNRMC,093906.800,A,2500.7755503,N,12132.4581421,E,0.00,89.32,260623,,,D,V*3C
$GPHDT,,T*1B
$GNGSA,A,3,15,199,13,05,18,29,20,11,,,,,1.08,0.55,0.93,1*30
$GNGSA,A,3,84,85,69,79,80,,,,,,,,1.08,0.55,0.93,2*09
$GNGSA,A,3,15,08,13,03,,,,,,,,,1.08,0.55,0.93,3*0D
$GNGSA,A,3,39,38,08,20,13,29,37,19,46,32,35,,1.08,0.55,0.93,4*0C
$GPGSV,3,1,11,15,63,339,44,199,60,167,26,13,45,029,42,05,43,065,42,1*54
$GPGSV,3,2,11,41,38,242,35,18,36,320,45,29,29,235,38,20,27,092,32,1*67
$GPGSV,3,3,11,11,19,144,27,194,16,150,28,24,,,24,1*5D
$GPGSV,1,1,03,199,60,167,32,18,36,320,41,11,19,144,26,8*6D
$GLGSV,2,1,05,84,65,221,31,85,33,321,37,69,33,019,30,79,23,087,35,1*79
$GLGSV,2,2,05,80,16,141,29,1*4D
$GAGSV,2,1,05,15,67,161,36,08,66,323,37,13,55,317,42,03,34,037,42,7*7A
$GAGSV,2,2,05,34,15,149,24,7*4F
$GAGSV,2,1,05,15,67,161,28,08,66,323,44,13,55,317,43,03,34,037,38,1*7B
$GAGSV,2,2,05,34,15,149,23,1*4E
$GBGSV,3,1,12,39,66,203,41,38,66,024,42,08,57,001,36,20,51,359,40,1*71
$GBGSV,3,2,12,13,50,342,45,29,48,258,39,37,32,095,41,19,31,294,25,1*7B
$GBGSV,3,3,12,30,30,186,20,46,24,159,23,32,21,060,43,35,16,313,39,1*79
$GBGSV,3,1,09,38,66,024,43,39,66,203,43,20,51,359,40,29,48,258,42,4*7D
$GBGSV,3,2,09,37,32,095,40,19,31,294,24,46,24,159,28,32,21,060,42,4*74
$GBGSV,3,3,09,35,16,313,34,4*4D
$GNGGA,093907.000,2500.7755563,N,12132.4581541,E,2,43,0.55,15.867,M,15.25,M,1,3335*47
$GNRMC,093907.000,A,2500.7755563,N,12132.4581541,E,0.00,89.32,260623,,,D,V*34
$GPHDT,,T*1B
$GNGGA,093907.200,2500.7755689,N,12132.4580971,E,4,45,0.54,15.953,M,15.25,M,1,3335*4B
$GNRMC,093907.200,A,2500.7755689,N,12132.4580971,E,0.00,89.32,260623,,,R,V*29
$GPHDT,,T*1B
$GNGGA,093907.400,2500.7755656,N,12132.4580988,E,4,44,0.54,15.949,M,15.25,M,1,3335*43
$GNRMC,093907.400,A,2500.7755656,N,12132.4580988,E,0.00,89.32,260623,,,R,V*2B
$GPHDT,,T*1B
$GNGGA,093907.600,2500.7755672,N,12132.4580978,E,4,44,0.54,15.953,M,15.25,M,1,3335*43
$GNRMC,093907.600,A,2500.7755672,N,12132.4580978,E,0.00,89.32,260623,,,R,V*20
$GPHDT,,T*1B
$GNGGA,093907.800,2500.7755687,N,12132.4580961,E,4,44,0.54,15.955,M,15.25,M,1,3335*49
$GNRMC,093907.800,A,2500.7755687,N,12132.4580961,E,0.00,89.32,260623,,,R,V*2C
$GPHDT,,T*1B
$GNGSA,A,3,15,199,13,05,18,29,20,11,,,,,1.06,0.54,0.91,1*3D
$GNGSA,A,3,84,69,85,79,80,,,,,,,,1.06,0.54,0.91,2*04
$GNGSA,A,3,15,08,13,03,34,,,,,,,,1.06,0.54,0.91,3*07
$GNGSA,A,3,39,38,08,20,13,29,37,19,32,35,46,,1.06,0.54,0.91,4*01
$GPGSV,3,1,11,15,63,339,44,199,60,167,26,13,45,029,41,05,43,065,42,1*57
$GPGSV,3,2,11,41,38,242,36,18,36,320,45,29,29,235,38,20,27,092,32,1*64
$GPGSV,3,3,11,11,19,144,23,194,16,150,29,24,,,23,1*5F
$GPGSV,1,1,03,199,60,167,33,18,36,320,41,11,19,144,25,8*6F
$GLGSV,2,1,05,84,65,221,31,69,33,019,31,85,33,321,37,79,23,087,37,1*7A
$GLGSV,2,2,05,80,16,141,27,1*43
$GAGSV,2,1,05,15,67,161,36,08,66,323,37,13,55,317,41,03,34,037,42,7*79
$GAGSV,2,2,05,34,15,149,24,7*4F
$GAGSV,2,1,05,15,67,161,27,08,66,323,44,13,55,317,44,03,34,037,38,1*73
$GAGSV,2,2,05,34,15,149,23,1*4E
$GBGSV,3,1,12,39,66,203,41,38,66,024,42,08,57,001,37,20,51,359,40,1*70
$GBGSV,3,2,12,13,50,342,45,29,48,258,40,37,32,095,41,19,31,294,24,1*74
$GBGSV,3,3,12,30,30,186,21,46,24,159,23,32,21,060,44,35,16,313,39,1*7F
$GBGSV,3,1,09,38,66,024,43,39,66,203,43,20,51,359,40,29,48,258,42,4*7D
$GBGSV,3,2,09,37,32,095,42,19,31,294,24,46,24,159,27,32,21,060,41,4*7A
$GBGSV,3,3,09,35,16,313,34,4*4D
$GNGGA,093908.000,2500.7755695,N,12132.4580973,E,4,43,0.54,15.946,M,15.25,M,2,3335*48
$GNRMC,093908.000,A,2500.7755695,N,12132.4580973,E,0.00,89.32,260623,,,R,V*2B
$GPHDT,,T*1B
$GNGGA,093908.200,2500.7755692,N,12132.4580970,E,4,45,0.54,15.952,M,15.25,M,2,3335*4D
$GNRMC,093908.200,A,2500.7755692,N,12132.4580970,E,0.00,89.32,260623,,,R,V*2D
$GPHDT,,T*1B
$GNGGA,093908.400,2500.7755678,N,12132.4580953,E,4,45,0.54,15.955,M,15.25,M,2,3335*49
$GNRMC,093908.400,A,2500.7755678,N,12132.4580953,E,0.00,89.32,260623,,,R,V*2E
$GPHDT,,T*1B
$GNGGA,093908.600,2500.7755680,N,12132.4580974,E,4,45,0.54,15.947,M,15.25,M,2,3335*4A
$GNRMC,093908.600,A,2500.7755680,N,12132.4580974,E,0.00,89.32,260623,,,R,V*2E
$GPHDT,,T*1B
$GNGGA,093908.800,2500.7755698,N,12132.4580966,E,4,45,0.54,15.953,M,15.25,M,2,3335*4B
$GNRMC,093908.800,A,2500.7755698,N,12132.4580966,E,0.00,89.32,260623,,,R,V*2A
$GPHDT,,T*1B
$GNGSA,A,3,15,199,13,05,18,29,20,11,,,,,1.06,0.54,0.91,1*3D
$GNGSA,A,3,84,69,85,79,80,,,,,,,,1.06,0.54,0.91,2*04
$GNGSA,A,3,15,08,13,03,34,,,,,,,,1.06,0.54,0.91,3*07
$GNGSA,A,3,39,38,08,20,13,29,37,19,32,35,46,,1.06,0.54,0.91,4*01
$GPGSV,3,1,11,15,63,339,44,199,60,167,25,13,45,029,41,05,43,065,42,1*54
$GPGSV,3,2,11,41,38,242,36,18,36,320,45,29,29,235,38,20,27,092,32,1*64
$GPGSV,3,3,11,11,19,144,21,194,16,150,29,24,,,23,1*5D
$GPGSV,1,1,03,199,60,167,33,18,36,320,41,11,19,144,24,8*6E
$GLGSV,2,1,05,84,65,221,32,69,33,019,34,85,33,321,37,79,23,087,38,1*73
$GLGSV,2,2,05,80,16,141,27,1*43
$GAGSV,2,1,05,15,67,161,36,08,66,323,38,13,55,317,41,03,34,037,42,7*76
$GAGSV,2,2,05,34,15,149,24,7*4F
$GAGSV,2,1,05,15,67,161,26,08,66,323,44,13,55,317,44,03,34,037,38,1*72
$GAGSV,2,2,05,34,15,149,23,1*4E
$GBGSV,3,1,12,39,66,203,41,38,66,024,42,08,57,001,37,20,51,359,40,1*70
$GBGSV,3,2,12,13,50,342,45,29,48,258,40,37,32,095,41,19,31,294,24,1*74
$GBGSV,3,3,12,30,30,186,21,46,24,159,22,32,21,060,44,35,16,313,39,1*7E
$GBGSV,3,1,09,38,66,024,43,39,66,203,43,20,51,359,40,29,48,258,42,4*7D
$GBGSV,3,2,09,37,32,095,42,19,31,294,24,46,24,159,28,32,21,060,41,4*75
$GBGSV,3,3,09,35,16,313,34,4*4D
$GNGGA,093909.000,2500.7755696,N,12132.4580960,E,4,45,0.54,15.953,M,15.25,M,1,3335*49
$GNRMC,093909.000,A,2500.7755696,N,12132.4580960,E,0.00,89.32,260623,,,R,V*2B
$GPHDT,,T*1B
$GNGGA,093909.200,2500.7755706,N,12132.4580983,E,4,45,0.54,15.950,M,15.25,M,1,3335*4D
$GNRMC,093909.200,A,2500.7755706,N,12132.4580983,E,0.00,89.32,260623,,,R,V*2C
$GPHDT,,T*1B
$GNGGA,093909.400,2500.7755684,N,12132.4580975,E,4,45,0.54,15.956,M,15.25,M,1,3335*4F
$GNRMC,093909.400,A,2500.7755684,N,12132.4580975,E,0.00,89.32,260623,,,R,V*28
