$FW : RTK35X,V1.1X0314AS,Lib20210517,1*54
$Tool : LOCOSYS , GNSS Firebird , v1.0.0.19*39
$---------------------------------------------------*2D
,47,39,67,205,44,20,51,002,26,29,48,255,44,4*7F
$GBGSV,3,2,09,37,32,093,43,19,32,296,19,46,26,158,25,32,20,061,42,4*70
$GBGSV,3,3,09,35,17,312,29,4*41
$GNGGA,094341.000,2500.7804700,N,12132.4611900,E,2,48,0.51,27.30,M,15.25,M,1,3335*73
$GNRMC,094341.000,A,2500.7804700,N,12132.4611900,E,0.03,359.20,260623,,,D,V*0A
$GPHDT,,T*1B
$GNGGA,094341.200,2500.7804600,N,12132.4611900,E,2,48,0.51,27.30,M,15.25,M,1,3335*70
$GNRMC,094341.200,A,2500.7804600,N,12132.4611900,E,0.02,359.20,260623,,,D,V*08
$GPHDT,,T*1B
$GNGGA,094341.400,2500.7804700,N,12132.4611900,E,2,48,0.51,27.30,M,15.25,M,1,3335*77
$GNRMC,094341.400,A,2500.7804700,N,12132.4611900,E,0.10,359.20,260623,,,D,V*0C
$GPHDT,,T*1B
$GNGGA,094341.600,2500.7804700,N,12132.4611900,E,2,48,0.51,27.31,M,15.25,M,1,3335*74
$GNRMC,094341.600,A,2500.7804700,N,12132.4611900,E,0.05,359.20,260623,,,D,V*0A
$GPHDT,,T*1B
$GNGGA,094341.800,2500.7804700,N,12132.4611900,E,2,48,0.51,27.31,M,15.25,M,0,3335*7B
$GNRMC,094341.800,A,2500.7804700,N,12132.4611900,E,0.09,359.20,260623,,,D,V*08
$GPHDT,,T*1B
$GNGSA,A,3,196,15,199,13,05,18,29,20,11,194,,,0.99,0.52,0.85,1*3B
$GNGSA,A,3,84,85,69,79,80,,,,,,,,0.99,0.52,0.85,2*00
$GNGSA,A,3,08,15,13,03,34,,,,,,,,0.99,0.52,0.85,3*03
$GNGSA,A,3,39,38,16,13,20,29,19,37,46,32,35,,0.99,0.52,0.85,4*0A
$GPGSV,4,1,13,196,72,047,40,15,62,343,35,199,60,167,31,195,53,173,25,1*51
$GPGSV,4,2,13,13,43,030,42,05,42,067,44,18,38,319,30,41,38,242,31,1*60
$GPGSV,4,3,13,29,27,233,39,20,26,094,42,11,18,145,21,194,17,149,28,1*5C
$GPGSV,4,4,13,24,,,17,1*66
$GPGSV,2,1,05,196,72,047,46,199,60,167,44,18,38,319,29,11,18,145,28,8*67
$GPGSV,2,2,05,24,,,21,8*6D
$GLGSV,2,1,05,84,62,217,28,85,35,319,19,69,32,021,18,79,24,084,42,1*76
$GLGSV,2,2,05,80,18,139,23,1*46
$GAGSV,2,1,06,08,65,327,34,15,65,163,37,13,56,315,31,03,32,038,34,7*71
$GAGSV,2,2,06,07,31,255,,34,14,150,17,7*72
$GAGSV,2,1,05,15,65,163,45,08,65,327,41,13,56,315,38,03,32,038,41,1*78
$GAGSV,2,2,05,07,31,255,18,1*4E
$GBGSV,3,1,12,39,67,205,42,38,67,025,45,16,57,202,29,06,55,203,24,1*7E
$GBGSV,3,2,12,13,51,342,26,20,51,002,40,29,48,255,46,19,32,296,28,1*7A
$GBGSV,3,3,12,37,32,093,45,46,26,158,23,32,20,061,41,35,17,312,18,1*78
$GBGSV,3,1,09,38,67,025,47,39,67,205,44,20,51,002,28,29,48,255,44,4*71
$GBGSV,3,2,09,37,32,093,43,19,32,296,19,46,26,158,24,32,20,061,42,4*71
$GBGSV,3,3,09,35,17,312,30,4*49
$GNGGA,094342.000,2500.7804700,N,12132.4611900,E,2,47,0.52,27.31,M,15.25,M,1,3335*7D
$GNRMC,094342.000,A,2500.7804700,N,12132.4611900,E,0.05,359.20,260623,,,D,V*0F
$GPHDT,,T*1B
$GNGGA,094342.200,2500.7804700,N,12132.4611900,E,2,47,0.52,27.31,M,15.25,M,1,3335*7F
$GNRMC,094342.200,A,2500.7804700,N,12132.4611900,E,0.02,359.20,260623,,,D,V*0A
$GPHDT,,T*1B
$GNGGA,094342.400,2500.7804700,N,12132.4611900,E,2,48,0.52,27.31,M,15.25,M,1,3335*76
$GNRMC,094342.400,A,2500.7804700,N,12132.4611900,E,0.20,359.20,260623,,,D,V*0C
$GPHDT,,T*1B
$GNGGA,094342.600,2500.7804700,N,12132.4611900,E,2,48,0.52,27.31,M,15.25,M,1,3335*74
$GNRMC,094342.600,A,2500.7804700,N,12132.4611900,E,0.03,359.20,260623,,,D,V*0F
$GPHDT,,T*1B
$GNGGA,094342.800,2500.7804700,N,12132.4611900,E,2,48,0.52,27.31,M,15.25,M,1,3335*7A
$GNRMC,094342.800,A,2500.7804700,N,12132.4611900,E,0.03,359.20,260623,,,D,V*01
$GPHDT,,T*1B
$GNGSA,A,3,196,15,199,13,05,18,29,20,11,194,,,0.99,0.52,0.85,1*3B
$GNGSA,A,3,84,85,69,79,80,,,,,,,,0.99,0.52,0.85,2*00
$GNGSA,A,3,08,15,13,03,34,,,,,,,,0.99,0.52,0.85,3*03
$GNGSA,A,3,39,38,16,13,20,29,19,37,46,32,35,,0.99,0.52,0.85,4*0A
$GPGSV,4,1,14,196,72,047,40,15,62,343,38,199,60,167,31,195,53,173,24,1*5A
$GPGSV,4,2,14,13,43,030,42,05,42,067,45,18,38,319,32,41,38,242,32,1*67
$GPGSV,4,3,14,29,27,233,39,20,26,094,42,11,18,145,22,23,17,307,,1*67
$GPGSV,4,4,14,194,17,149,31,24,,,18,1*6A
$GPGSV,2,1,05,196,72,047,46,199,60,167,44,18,38,319,29,11,18,145,28,8*67
$GPGSV,2,2,05,24,,,19,8*66
$GLGSV,2,1,05,84,62,217,28,85,35,319,20,69,32,021,19,79,24,084,41,1*7E
$GLGSV,2,2,05,80,18,139,25,1*40
$GAGSV,2,1,06,08,65,327,37,15,65,163,37,13,56,315,33,03,32,038,34,7*70
$GAGSV,2,2,06,07,31,255,,34,14,150,19,7*7C
$GAGSV,2,1,05,15,65,163,45,08,65,327,42,13,56,315,38,03,32,038,40,1*7A
$GAGSV,2,2,05,07,31,255,16,1*40
$GBGSV,3,1,12,39,67,205,42,38,67,025,45,16,57,202,29,06,55,203,24,1*7E
$GBGSV,3,2,12,13,51,342,24,20,51,002,40,29,48,255,46,19,32,296,29,1*79
$GBGSV,3,3,12,37,32,093,46,46,26,158,26,32,20,061,42,35,17,312,21,1*77
$GBGSV,3,1,09,38,67,025,47,39,67,205,44,20,51,002,24,29,48,255,44,4*7D
$GBGSV,3,2,09,37,32,093,43,19,32,296,19,46,26,158,24,32,20,061,43,4*70
$GBGSV,3,3,09,35,17,312,34,4*4D
$GNGGA,094343.000,2500.7804700,N,12132.4611900,E,2,48,0.52,27.31,M,15.25,M,2,3335*70
$GNRMC,094343.000,A,2500.7804700,N,12132.4611900,E,0.06,359.20,260623,,,D,V*0D
$GPHDT,,T*1B
$GNGGA,094343.200,2500.7804700,N,12132.4612000,E,2,48,0.52,27.32,M,15.25,M,2,3335*7B
$GNRMC,094343.200,A,2500.7804700,N,12132.4612000,E,0.05,359.20,260623,,,D,V*06
$GPHDT,,T*1B
$GNGGA,094343.400,2500.7804700,N,12132.4612000,E,2,48,0.52,27.31,M,15.25,M,2,3335*7E
$GNRMC,094343.400,A,2500.7804700,N,12132.4612000,E,0.00,359.20,260623,,,D,V*05
$GPHDT,,T*1B
$GNGGA,094343.600,2500.7804700,N,12132.4612000,E,2,49,0.52,27.31,M,15.25,M,2,3335*7D
$GNRMC,094343.600,A,2500.7804700,N,12132.4612000,E,0.01,359.20,260623,,,D,V*06
$GPHDT,,T*1B
$GNGGA,094343.800,2500.7804700,N,12132.4612000,E,2,48,0.52,27.31,M,15.25,M,2,3335*72
$GNRMC,094343.800,A,2500.7804700,N,12132.4612000,E,0.15,359.20,260623,,,D,V*0D
$GPHDT,,T*1B
$GNGSA,A,3,196,15,199,13,05,18,29,20,11,194,,,0.99,0.52,0.85,1*3B
$GNGSA,A,3,84,85,69,79,80,,,,,,,,0.99,0.52,0.85,2*00
$GNGSA,A,3,08,15,13,03,34,,,,,,,,0.99,0.52,0.85,3*03
$GNGSA,A,3,39,38,16,13,20,29,19,37,46,32,35,,0.99,0.52,0.85,4*0A
$GPGSV,4,1,14,196,72,047,40,15,62,343,40,199,60,167,31,195,53,173,24,1*55
$GPGSV,4,2,14,13,43,030,43,05,42,067,45,18,38,319,32,41,38,242,33,1*67
$GPGSV,4,3,14,29,27,233,39,20,26,094,42,11,18,145,22,23,17,307,27,1*62
$GPGSV,4,4,14,194,17,149,32,24,,,18,1*69
$GPGSV,2,1,06,196,72,047,46,199,60,167,44,18,38,319,28,11,18,145,28,8*65
$GPGSV,2,2,06,194,17,149,25,24,,,18,8*65
$GLGSV,2,1,05,84,62,217,28,85,35,319,18,69,32,021,20,79,24,084,41,1*7F
$GLGSV,2,2,05,80,18,139,27,1*42
$GAGSV,2,1,06,08,65,327,38,15,65,163,37,13,56,315,33,03,32,038,32,7*79
$GAGSV,2,2,06,07,31,255,,34,14,150,19,7*7C
$GAGSV,2,1,05,15,65,163,44,08,65,327,44,13,56,315,40,03,32,038,41,1*73
$GAGSV,2,2,05,07,31,255,16,1*40
$GBGSV,3,1,12,39,67,205,42,38,67,025,45,16,57,202,28,06,55,203,24,1*7F
$GBGSV,3,2,12,13,51,342,24,20,51,002,40,29,48,255,46,19,32,296,29,1*79
$GBGSV,3,3,12,37,32,093,46,46,26,158,28,32,20,061,42,35,17,312,27,1*7F
$GBGSV,3,1,09,38,67,025,47,39,67,205,44,20,51,002,28,29,48,255,44,4*71
$GBGSV,3,2,09,37,32,093,43,19,32,296,20,46,26,158,24,32,20,061,42,4*7B
$GBGSV,3,3,09,35,17,312,32,4*4B
$GNGGA,094344.000,2500.7804600,N,12132.4612000,E,2,49,0.52,27.32,M,15.25,M,3,3335*7F
$GNRMC,094344.000,A,2500.7804600,N,12132.4612000,E,0.01,359.20,260623,,,D,V*06
$GPHDT,,T*1B
$GNGGA,094344.200,2500.7804600,N,12132.4612000,E,2,49,0.52,27.32,M,15.25,M,3,3335*7D
$GNRMC,094344.200,A,2500.7804600,N,12132.4612000,E,0.00,359.20,260623,,,D,V*05
$GPHDT,,T*1B
$GNGGA,094344.400,2500.7804600,N,12132.4612000,E,2,49,0.52,27.32,M,15.25,M,3,3335*7B
$GNRMC,094344.400,A,2500.7804600,N,12132.4612000,E,0.01,359.20,260623,,,D,V*02
$GPHDT,,T*1B
$GNGGA,094344.600,2500.7804600,N,12132.4612000,E,2,50,0.52,27.32,M,15.25,M,3,3335*71
$GNRMC,094344.600,A,2500.7804600,N,12132.4612000,E,0.02,359.20,260623,,,D,V*03
$GPHDT,,T*1B
$GNGGA,094344.800,2500.7804600,N,12132.4612000,E,2,50,0.52,27.32,M,15.25,M,3,3335*7F
$GNRMC,094344.800,A,2500.7804600,N,12132.4612000,E,0.09,359.20,260623,,,D,V*06
$GPHDT,,T*1B
$GNGSA,A,3,196,15,199,13,05,18,29,20,11,194,,,0.99,0.52,0.85,1*3B
$GNGSA,A,3,84,85,69,79,80,,,,,,,,0.99,0.52,0.85,2*00
$GNGSA,A,3,08,15,13,03,34,,,,,,,,0.99,0.52,0.85,3*03
$GNGSA,A,3,39,38,16,13,20,29,19,37,46,32,35,,0.99,0.52,0.85,4*0A
$GPGSV,4,1,14,196,72,047,40,15,62,343,40,199,60,167,30,195,53,173,24,1*54
$GPGSV,4,2,14,13,43,030,44,05,42,067,45,18,38,319,30,41,38,242,33,1*62
$GPGSV,4,3,14,29,27,233,39,20,26,094,42,11,18,145,24,23,17,307,22,1*61
$GPGSV,4,4,14,194,17,149,27,24,,,18,1*6D
$GPGSV,2,1,06,196,72,047,46,199,60,167,44,18,38,319,25,11,18,145,28,8*68
$GPGSV,2,2,06,194,17,149,22,24,,,17,8*6D
$GLGSV,2,1,05,84,62,217,28,85,35,319,17,69,32,021,18,79,24,084,41,1*7B
$GLGSV,2,2,05,80,18,139,24,1*41
$GAGSV,2,1,06,08,65,327,39,15,65,163,37,13,56,315,36,03,32,038,33,7*7C
$GAGSV,2,2,06,07,31,255,,34,14,150,19,7*7C
$GAGSV,2,1,06,15,65,163,44,08,65,327,44,13,56,315,40,03,32,038,41,1*70
$GAGSV,2,2,06,07,31,255,16,34,14,150,19,1*7D
$GBGSV,3,1,12,39,67,205,42,38,67,025,45,16,57,202,29,06,55,203,24,1*7E
$GBGSV,3,2,12,13,51,342,26,20,51,002,40,29,48,255,46,19,32,296,29,1*7B
$GBGSV,3,3,12,37,32,093,46,46,26,158,25,32,20,061,42,35,17,311,24,1*72
$GBGSV,3,1,09,38,67,025,47,39,67,205,44,20,51,002,27,29,48,255,42,4*78
$GBGSV,3,2,09,37,32,093,43,19,32,296,18,46,26,158,23,32,20,061,42,4*77
$GBGSV,3,3,09,35,17,311,31,4*4B
$GNGGA,094345.000,2500.7804600,N,12132.4612000,E,2,50,0.52,27.32,M,15.25,M,4,3335*71
$GNRMC,094345.000,A,2500.7804600,N,12132.4612000,E,0.02,359.20,260623,,,D,V*04
$GPHDT,,T*1B
$GNGGA,094345.200,2500.7804600,N,12132.4612000,E,2,50,0.52,27.32,M,15.25,M,3,3335*74
$GNRMC,094345.200,A,2500.7804600,N,12132.4612000,E,0.00,359.20,260623,,,D,V*04
$GPHDT,,T*1B
$GNGGA,094345.400,2500.7804600,N,12132.4612000,E,2,50,0.52,27.32,M,15.25,M,1,3335*70
$GNRMC,094345.400,A,2500.7804600,N,12132.4612000,E,0.02,359.20,260623,,,D,V*00
$GPHDT,,T*1B
$GNGGA,094345.600,2500.7804600,N,12132.4612000,E,2,50,0.52,27.32,M,15.25,M,1,3335*72
$GNRMC,094345.600,A,2500.7804600,N,12132.4612000,E,0.07,359.20,260623,,,D,V*07
$GPHDT,,T*1B
$GNGGA,094345.800,2500.7804600,N,12132.4612000,E,2,50,0.52,27.32,M,15.25,M,1,3335*7C
$GNRMC,094345.800,A,2500.7804600,N,12132.4612000,E,0.09,359.20,260623,,,D,V*07
$GPHDT,,T*1B
$GNGSA,A,3,196,15,199,13,05,18,29,20,11,194,,,0.99,0.52,0.85,1*3B
$GNGSA,A,3,84,85,69,79,80,,,,,,,,0.99,0.52,0.85,2*00
$GNGSA,A,3,08,15,13,03,34,,,,,,,,0.99,0.52,0.85,3*03
$GNGSA,A,3,39,38,16,13,20,29,19,37,32,35,46,,0.99,0.52,0.85,4*0A
$GPGSV,4,1,14,196,72,047,40,15,62,343,40,199,60,167,29,195,53,173,26,1*5E
$GPGSV,4,2,14,13,43,030,44,05,42,067,45,18,38,319,31,41,38,242,33,1*63
$GPGSV,4,3,14,29,27,233,39,20,26,094,42,11,18,145,21,23,17,307,27,1*61
$GPGSV,4,4,14,194,17,149,28,24,,,18,1*62
$GPGSV,2,1,06,196,72,047,46,199,60,167,44,18,38,319,26,11,18,145,28,8*6B
$GPGSV,2,2,06,194,17,149,23,24,,,17,8*6C
$GLGSV,2,1,05,84,62,217,28,85,35,319,19,69,32,021,20,79,24,084,41,1*7E
$GLGSV,2,2,05,80,18,139,23,1*46
$GAGSV,2,1,06,08,65,327,39,15,65,163,37,13,56,315,36,03,32,038,33,7*7C
$GAGSV,2,2,06,07,31,255,,34,14,150,18,7*7D
$GAGSV,2,1,06,15,65,163,44,08,65,327,44,13,56,315,40,03,32,038,41,1*70
$GAGSV,2,2,06,07,31,255,15,34,14,150,20,1*74
$GBGSV,3,1,12,39,67,205,42,38,67,025,45,16,57,202,29,06,55,203,23,1*79
$GBGSV,3,2,12,13,51,342,25,20,51,002,40,29,48,255,46,19,32,296,29,1*78
$GBGSV,3,3,12,37,32,093,46,46,26,158,25,32,20,061,42,35,17,311,23,1*75
$GBGSV,3,1,09,38,67,025,47,39,67,205,44,20,51,002,27,29,48,255,42,4*78
$GBGSV,3,2,09,37,32,093,43,19,32,296,18,46,26,158,23,32,20,061,42,4*77
$GBGSV,3,3,09,35,17,311,32,4*48
$GNGGA,094346.000,2500.7804600,N,12132.4612000,E,2,49,0.52,27.32,M,15.25,M,2,3335*7C
$GNRMC,094346.000,A,2500.7804600,N,12132.4612000,E,0.05,359.20,260623,,,D,V*00
$GPHDT,,T*1B
$GNGGA,094346.200,2500.7804600,N,12132.4612000,E,2,50,0.52,27.32,M,15.25,M,2,3335*76
$GNRMC,094346.200,A,2500.7804600,N,12132.4612000,E,0.01,359.20,260623,,,D,V*06
$GPHDT,,T*1B
$GNGGA,094346.400,2500.7804600,N,12132.4612000,E,2,50,0.52,27.32,M,15.25,M,2,3335*70
$GNRMC,094346.400,A,2500.7804600,N,12132.4612000,E,0.06,359.20,260623,,,D,V*07
$GPHDT,,T*1B
$GNGGA,094346.600,2500.7804600,N,12132.4612000,E,2,49,0.52,27.32,M,15.25,M,2,3335*7A
$GNRMC,094346.600,A,2500.7804600,N,12132.4612000,E,0.05,359.20,260623,,,D,V*06
$GPHDT,,T*1B
$GNGGA,094346.800,2500.7804600,N,12132.4612000,E,2,49,0.52,27.32,M,15.25,M,2,3335*74
$GNRMC,094346.800,A,2500.7804600,N,12132.4612000,E,0.04,359.20,260623,,,D,V*09
$GPHDT,,T*1B
$GNGSA,A,3,196,15,199,13,05,18,29,20,11,194,,,0.99,0.52,0.85,1*3B
$GNGSA,A,3,84,85,69,79,80,,,,,,,,0.99,0.52,0.85,2*00
$GNGSA,A,3,08,15,13,03,34,,,,,,,,0.99,0.52,0.85,3*03
$GNGSA,A,3,38,39,16,13,20,29,19,37,46,32,35,,0.99,0.52,0.85,4*0A
$GPGSV,4,1,14,196,72,047,41,15,62,343,41,199,60,167,30,195,53,173,24,1*54
$GPGSV,4,2,14,13,43,030,44,05,42,067,45,18,38,319,32,41,38,242,33,1*60
$GPGSV,4,3,14,29,27,233,41,20,26,094,42,11,18,145,21,23,17,307,29,1*60
$GPGSV,4,4,14,194,17,149,30,24,,,18,1*6B
$GPGSV,2,1,06,196,72,047,46,199,60,167,44,18,38,319,23,11,18,145,28,8*6E
$GPGSV,2,2,06,194,17,149,28,24,,,17,8*67
$GLGSV,2,1,05,84,62,217,28,85,35,319,20,69,32,021,20,79,24,084,41,1*74
$GLGSV,2,2,05,80,18,139,23,1*46
$GAGSV,2,1,05,08,65,327,38,15,65,163,37,13,56,315,37,03,32,038,32,7*7E
$GAGSV,2,2,05,34,14,150,18,7*49
$GAGSV,2,1,06,15,65,163,44,08,65,327,44,13,56,315,41,03,32,038,41,1*71
$GAGSV,2,2,06,07,31,255,15,34,14,150,22,1*76
$GBGSV,3,1,12,38,67,025,44,39,67,205,42,16,57,202,29,06,55,203,23,1*78
$GBGSV,3,2,12,13,51,342,26,20,51,002,40,29,48,255,47,19,32,296,28,1*7B
$GBGSV,3,3,12,37,32,093,46,46,26,158,21,32,20,061,42,35,17,311,28,1*7A
$GBGSV,3,1,09,38,67,025,47,39,67,205,44,20,51,002,28,29,48,255,42,4*77
$GBGSV,3,2,09,37,32,093,43,19,32,296,18,46,26,158,24,32,20,061,42,4*70
$GBGSV,3,3,09,35,17,311,36,4*4C
$GNGGA,094347.000,2500.7804600,N,12132.4612000,E,2,50,0.52,27.32,M,15.25,M,2,3335*75
$GNRMC,094347.000,A,2500.7804600,N,12132.4612000,E,0.11,359.20,260623,,,D,V*04
$GPHDT,,T*1B
$GNGGA,094347.200,2500.7804600,N,12132.4612000,E,2,50,0.52,27.32,M,15.25,M,1,3335*74
$GNRMC,094347.200,A,2500.7804600,N,12132.4612000,E,0.07,359.20,260623,,,D,V*01
$GPHDT,,T*1B
$GNGGA,094347.400,2500.7804600,N,12132.4612000,E,2,50,0.52,27.32,M,15.25,M,1,3335*72
$GNRMC,094347.400,A,2500.7804600,N,12132.4612000,E,0.03,359.20,260623,,,D,V*03
$GPHDT,,T*1B
$GNGGA,094347.600,2500.7804600,N,12132.4612000,E,2,49,0.52,27.32,M,15.25,M,1,3335*78
$GNRMC,094347.600,A,2500.7804600,N,12132.4612000,E,0.04,359.20,260623,,,D,V*06
$GPHDT,,T*1B
$GNGGA,094347.800,2500.7804600,N,12132.4612000,E,2,50,0.52,27.32,M,15.25,M,1,3335*7E
$GNRMC,094347.800,A,2500.7804600,N,12132.4612000,E,0.06,359.20,260623,,,D,V*0A
$GPHDT,,T*1B
$GNGSA,A,3,196,15,199,13,05,18,29,20,11,194,,,0.99,0.52,0.85,1*3B
$GNGSA,A,3,84,85,69,79,80,,,,,,,,0.99,0.52,0.85,2*00
$GNGSA,A,3,08,15,13,03,34,,,,,,,,0.99,0.52,0.85,3*03
$GNGSA,A,3,38,39,16,13,20,29,19,37,46,32,35,,0.99,0.52,0.85,4*0A
$GPGSV,4,1,14,196,72,047,41,15,62,343,41,199,60,167,31,195,53,173,25,1*54
$GPGSV,4,2,14,13,43,030,44,05,42,067,45,18,38,319,33,41,38,242,33,1*61
$GPGSV,4,3,14,29,27,233,41,20,26,094,42,11,18,145,21,23,17,307,29,1*60
$GPGSV,4,4,14,194,17,149,30,24,,,16,1*65
$GPGSV,2,1,06,196,72,047,46,199,60,167,44,18,38,319,27,11,18,145,28,8*6A
$GPGSV,2,2,06,194,17,149,21,24,,,16,8*6F
$GLGSV,2,1,05,84,62,217,29,85,35,319,18,69,32,021,20,79,24,084,41,1*7E
$GLGSV,2,2,05,80,18,139,24,1*41
$GAGSV,2,1,05,08,65,327,38,15,65,163,37,13,56,315,38,03,32,038,32,7*71
$GAGSV,2,2,05,34,14,150,18,7*49
$GAGSV,2,1,06,15,65,163,44,08,65,327,44,13,56,315,41,03,32,038,41,1*71
$GAGSV,2,2,06,07,31,255,14,34,14,150,21,1*74
$GBGSV,3,1,12,38,67,025,44,39,67,205,42,16,57,202,28,06,55,203,23,1*79
$GBGSV,3,2,12,13,51,342,26,20,51,002,40,29,48,255,47,19,32,296,28,1*7B
$GBGSV,3,3,12,37,32,093,46,46,26,158,25,32,20,061,42,35,17,311,29,1*7F
$GBGSV,3,1,09,38,67,025,47,39,67,205,44,20,51,002,27,29,48,255,42,4*78
$GBGSV,3,2,09,37,32,093,43,19,32,296,17,46,26,158,24,32,20,061,42,4*7F
$GBGSV,3,3,09,35,17,311,34,4*4E
$GNGGA,094348.000,2500.7804600,N,12132.4612000,E,2,50,0.52,27.32,M,15.25,M,2,3335*7A
$GNRMC,094348.000,A,2500.7804600,N,12132.4612000,E,0.02,359.20,260623,,,D,V*09
$GPHDT,,T*1B
$GNGGA,094348.200,2500.7804600,N,12132.4612000,E,2,50,0.52,27.32,M,15.25,M,2,3335*78
$GNRMC,094348.200,A,2500.7804600,N,12132.4612000,E,0.00,359.20,260623,,,D,V*09
$GPHDT,,T*1B
$GNGGA,094348.400,2500.7804600,N,12132.4612000,E,2,49,0.52,27.32,M,15.25,M,2,3335*76
$GNRMC,094348.400,A,2500.7804600,N,12132.4612000,E,0.01,359.20,260623,,,D,V*0E
$GPHDT,,T*1B
$GNGGA,094348.600,2500.7804600,N,12132.4612000,E,2,49,0.52,27.32,M,15.25,M,2,3335*74
$GNRMC,094348.600,A,2500.7804600,N,12132.4612000,E,0.00,359.20,260623,,,D,V*0D
$GPHDT,,T*1B
$GNGGA,094348.800,2500.7804600,N,12132.4612000,E,2,48,0.52,27.32,M,15.25,M,2,3335*7B
$GNRMC,094348.800,A,2500.7804600,N,12132.4612000,E,0.04,359.20,260623,,,D,V*07
$GPHDT,,T*1B
$GNGSA,A,3,196,15,199,13,05,18,29,20,11,,,,1.02,0.52,0.87,1*06
$GNGSA,A,3,84,85,69,79,80,,,,,,,,1.02,0.52,0.87,2*01
$GNGSA,A,3,08,15,13,03,34,,,,,,,,1.02,0.52,0.87,3*02
$GNGSA,A,3,38,39,16,13,20,29,19,37,46,32,35,,1.02,0.52,0.87,4*0B
$GPGSV,4,1,14,196,72,047,41,15,62,343,42,199,60,167,31,195,53,173,27,1*55
$GPGSV,4,2,14,13,43,030,44,05,42,067,45,18,38,319,32,41,38,242,33,1*60
$GPGSV,4,3,14,29,27,233,40,20,26,094,42,11,18,145,22,23,17,307,26,1*6D
$GPGSV,4,4,14,194,17,149,25,24,,,17,1*60
$GPGSV,2,1,07,196,72,047,46,199,60,167,44,195,53,173,22,18,38,319,25,8*54
$GPGSV,2,2,07,11,18,145,29,194,17,149,15,24,,,15,8*58
$GLGSV,2,1,05,84,62,217,29,85,35,319,17,69,32,021,20,79,24,084,41,1*71
$GLGSV,2,2,05,80,18,139,22,1*47
$GAGSV,2,1,05,08,65,327,38,15,65,163,37,13,56,315,37,03,32,038,32,7*7E
$GAGSV,2,2,05,34,14,150,18,7*49
$GAGSV,2,1,06,15,65,163,44,08,65,327,44,13,56,315,41,03,32,038,41,1*71
$GAGSV,2,2,06,07,31,255,14,34,14,150,19,1*7F
$GBGSV,3,1,12,38,67,025,44,39,67,205,42,16,57,202,27,06,55,203,23,1*76
$GBGSV,3,2,12,13,51,342,25,20,51,002,39,29,48,255,47,19,32,296,28,1*76
$GBGSV,3,3,12,37,32,093,46,46,26,158,25,32,20,061,42,35,17,311,25,1*73
$GBGSV,3,1,09,38,67,025,47,39,67,205,44,20,51,002,26,29,48,255,42,4*79
$GBGSV,3,2,09,37,32,093,43,19,32,296,13,46,26,158,23,32,20,061,42,4*7C
$GBGSV,3,3,09,35,17,311,31,4*4B
$GNGGA,094349.000,2500.7804600,N,12132.4612000,E,2,48,0.52,27.32,M,15.25,M,3,3335*73
$GNRMC,094349.000,A,2500.7804600,N,12132.4612000,E,0.09,359.20,260623,,,D,V*03
$GPHDT,,T*1B
$GNGGA,094349.200,2500.7804600,N,12132.4612000,E,2,48,0.52,27.32,M,15.25,M,3,3335*71
$GNRMC,094349.200,A,2500.7804600,N,12132.4612000,E,0.03,359.20,260623,,,D,V*0B
$GPHDT,,T*1B
$GNGGA,094349.400,2500.7804600,N,12132.4612000,E,2,49,0.52,27.32,M,15.25,M,3,3335*76
$GNRMC,094349.400,A,2500.7804600,N,12132.4612000,E,0.01,359.20,260623,,,D,V*0F
$GPHDT,,T*1B
$GNGGA,094349.600,2500.7804600,N,12132.4612000,E,2,49,0.52,27.32,M,15.25,M,3,3335*74
$GNRMC,094349.600,A,2500.7804600,N,12132.4612000,E,0.02,359.20,260623,,,D,V*0E
$GPHDT,,T*1B
$GNGGA,094349.800,2500.7804600,N,12132.4612000,E,2,49,0.52,27.32,M,15.25,M,3,3335*7A
$GNRMC,094349.800,A,2500.7804600,N,12132.4612000,E,0.02,359.20,260623,,,D,V*00
$GPHDT,,T*1B
$GNGSA,A,3,196,15,199,13,05,18,29,20,11,194,,,0.99,0.52,0.85,1*3B
$GNGSA,A,3,84,85,69,79,80,,,,,,,,0.99,0.52,0.85,2*00
$GNGSA,A,3,08,15,13,03,34,,,,,,,,0.99,0.52,0.85,3*03
$GNGSA,A,3,39,38,16,13,20,29,37,19,46,32,35,,0.99,0.52,0.85,4*0A
$GPGSV,4,1,14,196,72,047,41,15,62,343,42,199,60,167,31,195,53,173,27,1*55
$GPGSV,4,2,14,13,43,030,44,05,42,067,45,18,38,319,32,41,38,242,33,1*60
$GPGSV,4,3,14,29,27,233,40,20,26,094,42,11,18,145,22,23,17,307,26,1*6D
$GPGSV,4,4,14,194,17,149,29,24,,,17,1*6C
$GPGSV,2,1,06,196,72,047,46,199,60,167,44,195,53,173,22,18,38,319,26,8*56
$GPGSV,2,2,06,11,18,145,29,24,,,15,8*5B
$GLGSV,2,1,06,84,62,217,28,85,35,319,17,70,34,303,,69,32,021,20,1*72
$GLGSV,2,2,06,79,24,084,41,80,18,139,20,1*77
$GAGSV,2,1,05,08,65,327,39,15,65,163,37,13,56,315,37,03,32,038,33,7*7E
$GAGSV,2,2,05,34,14,150,18,7*49
$GAGSV,2,1,06,15,65,163,44,08,65,327,44,13,56,315,41,03,32,038,41,1*71
$GAGSV,2,2,06,07,31,255,14,34,14,150,20,1*75
$GBGSV,4,1,15,39,67,205,41,38,67,025,44,16,57,202,27,06,55,203,23,1*75
$GBGSV,4,2,15,13,51,342,22,20,51,002,39,29,48,255,47,09,38,205,,1*7A
$GBGSV,4,3,15,37,32,093,46,19,32,296,29,30,28,186,,46,26,158,27,1*7E
$GBGSV,4,4,15,32,20,061,42,31,20,194,,35,17,311,26,1*4B
$GBGSV,3,1,09,38,67,025,47,39,67,205,44,20,51,002,27,29,48,255,43,4*79
$GBGSV,3,2,09,37,32,093,43,19,32,296,14,46,26,158,23,32,20,061,42,4*7B
$GBGSV,3,3,09,35,17,311,32,4*48
$GNGGA,094350.000,2500.7804600,N,12132.4612000,E,2,49,0.52,27.32,M,15.25,M,4,3335*7D
$GNRMC,094350.000,A,2500.7804600,N,12132.4612000,E,0.04,359.20,260623,,,D,V*06
$GPHDT,,T*1B
$GNGGA,094350.200,2500.7804600,N,12132.4612000,E,2,49,0.52,27.32,M,15.25,M,1,3335*7A
$GNRMC,094350.200,A,2500.7804600,N,12132.4612000,E,0.04,359.20,260623,,,D,V*04
$GPHDT,,T*1B
$GNGGA,094350.400,2500.7804600,N,12132.4612000,E,2,49,0.52,27.32,M,15.25,M,1,3335*7C
$GNRMC,094350.400,A,2500.7804600,N,12132.4612000,E,0.01,359.20,260623,,,D,V*07
$GPHDT,,T*1B
$GNGGA,094350.600,2500.7804600,N,12132.4612000,E,2,49,0.52,27.32,M,15.25,M,0,3335*7F
$GNRMC,094350.600,A,2500.7804600,N,12132.4612000,E,0.02,359.20,260623,,,D,V*06
$GPHDT,,T*1B
$GNGGA,094350.800,2500.7804600,N,12132.4612000,E,2,48,0.52,27.32,M,15.25,M,0,3335*70
$GNRMC,094350.800,A,2500.7804600,N,12132.4612000,E,0.15,359.20,260623,,,D,V*0E
$GPHDT,,T*1B
$GNGSA,A,3,196,15,199,13,05,18,29,20,11,194,,,0.99,0.52,0.85,1*3B
$GNGSA,A,3,84,85,69,79,80,,,,,,,,0.99,0.52,0.85,2*00
$GNGSA,A,3,15,08,13,03,34,,,,,,,,0.99,0.52,0.85,3*03
$GNGSA,A,3,39,38,16,13,20,29,37,19,46,32,35,,0.99,0.52,0.85,4*0A
$GPGSV,4,1,14,196,72,047,41,15,62,343,42,199,60,167,31,195,53,173,28,1*5A
$GPGSV,4,2,14,13,43,030,44,05,42,067,45,18,38,319,30,41,38,242,33,1*62
$GPGSV,4,3,14,29,27,233,42,20,26,094,43,11,18,145,21,23,17,307,24,1*6F
$GPGSV,4,4,14,194,17,149,28,24,,,18,1*62
$GPGSV,2,1,06,196,72,047,46,199,60,167,44,195,53,173,20,18,38,319,27,8*55
$GPGSV,2,2,06,11,18,145,29,24,,,14,8*5A
$GLGSV,2,1,06,84,62,217,28,85,35,319,22,70,34,303,,69,32,021,18,1*7F
$GLGSV,2,2,06,79,24,084,41,80,18,139,20,1*77
$GAGSV,2,1,05,15,65,163,37,08,65,327,39,13,56,315,35,03,32,038,33,7*7C
$GAGSV,2,2,05,34,14,150,18,7*49
$GAGSV,2,1,06,15,65,163,44,08,65,327,44,13,56,315,40,03,32,038,41,1*70
$GAGSV,2,2,06,07,31,255,14,34,14,150,22,1*77
$GBGSV,4,1,13,39,67,205,41,38,67,025,44,16,57,202,25,06,55,203,24,1*76
$GBGSV,4,2,13,13,51,342,24,20,51,002,39,29,48,255,47,37,32,093,46,1*72
$GBGSV,4,3,13,19,32,296,28,30,28,186,,46,26,158,28,32,20,061,42,1*79
$GBGSV,4,4,13,35,17,311,23,1*46
$GBGSV,3,1,09,38,67,025,47,39,67,205,44,20,51,002,26,29,48,255,43,4*78
$GBGSV,3,2,09,37,32,093,43,19,32,296,14,46,26,158,21,32,20,061,42,4*79
$GBGSV,3,3,09,35,17,311,31,4*4B
$GNGGA,094351.000,2500.7804600,N,12132.4612100,E,2,49,0.52,27.33,M,15.25,M,1,3335*79
$GNRMC,094351.000,A,2500.7804600,N,12132.4612100,E,0.10,359.20,260623,,,D,V*03
$GPHDT,,T*1B
$GNGGA,094351.200,2500.7804600,N,12132.4612100,E,2,49,0.52,27.33,M,15.25,M,1,3335*7B
$GNRMC,094351.200,A,2500.7804600,N,12132.4612100,E,0.01,359.20,260623,,,D,V*01
