$FW : RTK35X,V1.1X0314AS,Lib20210517,1*54
$Tool : LOCOSYS , GNSS Firebird , v1.0.0.19*39
$---------------------------------------------------*2D
6,15,199,05,13,18,29,20,11,194,,,1.00,0.52,0.86,1*39
$GNGSA,A,3,84,85,69,79,80,,,,,,,,1.00,0.52,0.86,2*02
$GNGSA,A,3,08,15,13,03,34,,,,,,,,1.00,0.52,0.86,3*01
$GNGSA,A,3,39,38,16,13,20,29,19,37,32,35,46,,1.00,0.52,0.86,4*08
$GPGSV,4,1,14,196,72,047,39,15,62,344,41,199,60,167,34,195,53,173,21,1*5D
$GPGSV,4,2,14,24,49,178,21,05,42,068,44,13,42,030,42,41,38,242,35,1*61
$GPGSV,4,3,14,18,38,319,28,29,27,232,46,20,26,095,40,23,17,307,27,1*62
$GPGSV,4,4,14,11,17,145,28,194,17,149,31,1*59
$GPGSV,2,1,06,196,72,047,47,199,60,167,43,195,53,173,19,18,38,319,29,8*57
$GPGSV,2,2,06,23,17,307,24,194,17,149,25,8*5F
$GLGSV,2,1,05,84,62,217,33,85,35,319,22,69,32,022,20,79,24,084,42,1*7C
$GLGSV,2,2,05,80,18,139,25,1*40
$GAGSV,2,1,07,08,65,328,39,15,64,163,40,13,56,314,35,03,32,038,34,7*76
$GAGSV,2,2,07,34,14,150,16,30,02,169,,25,02,076,,7*4E
$GAGSV,2,1,05,08,65,328,43,15,64,163,43,13,56,314,41,03,32,038,37,1*7C
$GAGSV,2,2,05,34,14,150,13,1*44
$GBGSV,3,1,12,39,67,206,43,38,67,025,41,16,57,202,26,06,55,203,24,1*77
$GBGSV,3,2,12,13,51,342,24,20,51,003,35,29,47,254,43,19,32,296,21,1*79
$GBGSV,3,3,12,37,32,092,46,46,26,157,23,32,20,062,43,35,17,311,34,1*79
$GBGSV,3,1,09,38,67,025,46,39,67,206,43,20,51,003,32,29,47,254,38,4*7B
$GBGSV,3,2,09,19,32,296,12,37,32,092,46,46,26,157,26,32,20,062,38,4*7D
$GBGSV,3,3,09,35,17,311,38,4*42
$GNGGA,094429.000,2500.7773689,N,12132.4603696,E,2,48,0.52,16.067,M,15.25,M,2,3335*46
$GNRMC,094429.000,A,2500.7773689,N,12132.4603696,E,0.02,131.79,260623,,,D,V*0E
$GPHDT,,T*1B
$GNGGA,094429.200,2500.7773689,N,12132.4603696,E,2,49,0.52,16.071,M,15.25,M,2,3335*42
$GNRMC,094429.200,A,2500.7773689,N,12132.4603696,E,0.01,131.79,260623,,,D,V*0F
$GPHDT,,T*1B
$GNGGA,094429.400,2500.7773689,N,12132.4603696,E,2,48,0.52,16.076,M,15.25,M,2,3335*42
$GNRMC,094429.400,A,2500.7773689,N,12132.4603696,E,0.01,131.79,260623,,,D,V*09
$GPHDT,,T*1B
$GNGGA,094429.600,2500.7773689,N,12132.4603696,E,2,48,0.52,16.080,M,15.25,M,2,3335*49
$GNRMC,094429.600,A,2500.7773689,N,12132.4603696,E,0.02,131.79,260623,,,D,V*08
$GPHDT,,T*1B
$GNGGA,094429.800,2500.7773629,N,12132.4603696,E,2,48,0.52,16.084,M,15.25,M,2,3335*49
$GNRMC,094429.800,A,2500.7773629,N,12132.4603696,E,0.06,131.79,260623,,,D,V*08
$GPHDT,,T*1B
$GNGSA,A,3,196,15,199,05,13,29,20,11,194,18,,,1.00,0.52,0.86,1*39
$GNGSA,A,3,84,85,69,79,80,,,,,,,,1.00,0.52,0.86,2*02
$GNGSA,A,3,08,15,13,03,34,,,,,,,,1.00,0.52,0.86,3*01
$GNGSA,A,3,39,38,16,13,20,29,19,37,32,35,46,,1.00,0.52,0.86,4*08
$GPGSV,4,1,14,196,72,047,40,15,62,344,41,199,60,167,34,195,53,173,22,1*50
$GPGSV,4,2,14,24,49,178,24,05,42,068,43,13,42,030,42,18,38,319,25,1*61
$GPGSV,4,3,14,41,38,242,36,29,27,232,45,20,26,095,41,23,17,307,30,1*6A
$GPGSV,4,4,14,11,17,145,27,194,17,149,31,1*56
$GPGSV,2,1,07,196,72,047,47,199,60,167,43,195,53,173,19,24,49,178,20,8*53
$GPGSV,2,2,07,18,38,319,30,23,17,307,24,194,17,149,24,8*65
$GLGSV,2,1,05,84,62,217,32,85,35,319,25,69,32,022,20,79,24,084,42,1*7A
$GLGSV,2,2,05,80,18,139,28,1*4D
$GAGSV,3,1,09,08,65,328,40,15,64,163,40,13,56,314,35,03,32,038,34,7*77
$GAGSV,3,2,09,07,31,255,,34,14,150,17,02,08,122,,30,02,169,,7*78
$GAGSV,3,3,09,25,02,076,,7*4E
$GAGSV,2,1,05,08,65,328,43,15,64,163,43,13,56,314,42,03,32,038,38,1*70
$GAGSV,2,2,05,34,14,150,13,1*44
$GBGSV,4,1,13,39,67,206,43,38,67,025,41,16,57,202,25,06,55,203,21,1*77
$GBGSV,4,2,13,13,51,342,24,20,51,003,34,29,47,254,40,19,32,296,22,1*7E
$GBGSV,4,3,13,37,32,092,46,46,26,157,,32,20,062,43,35,17,311,33,1*79
$GBGSV,4,4,13,40,05,194,,1*49
$GBGSV,3,1,09,38,67,025,46,39,67,206,43,20,51,003,32,29,47,254,39,4*7A
$GBGSV,3,2,09,19,32,296,14,37,32,092,46,46,26,157,26,32,20,062,39,4*7A
$GBGSV,3,3,09,35,17,311,38,4*42
$GNGGA,094430.000,2500.7773629,N,12132.4603696,E,2,47,0.52,16.091,M,15.25,M,3,3335*43
$GNRMC,094430.000,A,2500.7773629,N,12132.4603696,E,0.00,131.79,260623,,,D,V*0E
$PAIR010,0,1,2268,121488*32
$GPHDT,,T*1B
$GNGGA,094430.200,2500.7773689,N,12132.4603696,E,2,47,0.52,16.098,M,15.25,M,3,3335*42
$GNRMC,094430.200,A,2500.7773689,N,12132.4603696,E,0.01,131.79,260623,,,D,V*07
$GPHDT,,T*1B
$GNGGA,094430.400,2500.7773689,N,12132.4603696,E,2,48,0.52,16.105,M,15.25,M,3,3335*4E
$GNRMC,094430.400,A,2500.7773689,N,12132.4603696,E,0.09,131.79,260623,,,D,V*09
$GPHDT,,T*1B
$GNGGA,094430.600,2500.7773629,N,12132.4603696,E,2,47,0.52,16.111,M,15.25,M,3,3335*4C
$GNRMC,094430.600,A,2500.7773629,N,12132.4603696,E,0.06,131.79,260623,,,D,V*0E
$GPHDT,,T*1B
$GNGGA,094430.800,2500.7773629,N,12132.4603696,E,2,47,0.52,16.120,M,15.25,M,3,3335*40
$GNRMC,094430.800,A,2500.7773629,N,12132.4603696,E,0.14,131.79,260623,,,D,V*03
$GPHDT,,T*1B
$GNGSA,A,3,196,15,199,05,13,18,29,20,11,194,,,1.00,0.52,0.86,1*39
$GNGSA,A,3,84,85,69,79,80,,,,,,,,1.00,0.52,0.86,2*02
$GNGSA,A,3,08,15,13,03,34,,,,,,,,1.00,0.52,0.86,3*01
$GNGSA,A,3,38,39,16,13,20,29,37,19,32,35,46,,1.00,0.52,0.86,4*08
$GPGSV,4,1,14,196,72,047,40,15,62,344,41,199,60,167,35,195,53,173,24,1*57
$GPGSV,4,2,14,24,49,178,24,05,42,068,43,13,42,030,42,18,38,319,24,1*60
$GPGSV,4,3,14,41,38,242,35,29,27,232,42,20,26,095,40,23,17,307,29,1*67
$GPGSV,4,4,14,11,17,145,28,194,17,149,32,1*5A
$GPGSV,2,1,07,196,72,047,47,199,60,167,43,195,53,173,21,24,49,178,20,8*58
$GPGSV,2,2,07,18,38,319,29,23,17,307,26,194,17,149,22,8*69
$GLGSV,2,1,06,84,62,217,32,85,35,319,24,69,32,022,22,79,24,084,42,1*7A
$GLGSV,2,2,06,80,18,139,29,78,05,037,,1*71
$GAGSV,3,1,09,08,65,328,40,15,64,163,40,13,56,314,34,03,32,038,35,7*77
$GAGSV,3,2,09,07,31,255,,34,14,150,17,02,08,122,,25,02,076,,7*73
$GAGSV,3,3,09,30,02,169,,7*45
$GAGSV,1,1,04,08,65,328,43,15,64,163,43,13,56,314,43,03,32,038,39,1*72
$GBGSV,3,1,12,38,67,025,41,39,67,206,43,16,57,202,28,06,55,203,24,1*79
$GBGSV,3,2,12,13,51,342,23,20,51,003,34,29,47,254,39,37,32,092,46,1*79
$GBGSV,3,3,12,19,32,296,22,46,26,157,,32,20,062,43,35,17,311,30,1*74
$GBGSV,3,1,09,38,67,025,46,39,67,206,44,20,51,003,32,29,47,254,41,4*72
$GBGSV,3,2,09,19,32,296,13,37,32,092,46,46,26,157,26,32,20,062,40,4*73
$GBGSV,3,3,09,35,17,311,39,4*43
$GNGGA,094431.000,2500.7773629,N,12132.4603696,E,2,47,0.52,16.127,M,15.25,M,4,3335*49
$GNRMC,094431.000,A,2500.7773629,N,12132.4603696,E,0.06,131.79,260623,,,D,V*09
$GPHDT,,T*1B
$GNGGA,094431.200,2500.7773689,N,12132.4603696,E,2,47,0.52,16.134,M,15.25,M,4,3335*43
$GNRMC,094431.200,A,2500.7773689,N,12132.4603696,E,0.08,131.79,260623,,,D,V*0F
$GPHDT,,T*1B
$GNGGA,094431.400,2500.7773689,N,12132.4603696,E,2,47,0.52,16.139,M,15.25,M,4,3335*48
$GNRMC,094431.400,A,2500.7773689,N,12132.4603696,E,0.07,131.79,260623,,,D,V*06
$GPHDT,,T*1B
$GNGGA,094431.600,2500.7773689,N,12132.4603696,E,2,47,0.52,16.141,M,15.25,M,4,3335*45
$GNRMC,094431.600,A,2500.7773689,N,12132.4603696,E,0.10,131.79,260623,,,D,V*02
$GPHDT,,T*1B
$GNGGA,094431.800,2500.7773689,N,12132.4603756,E,2,47,0.52,16.147,M,15.25,M,4,3335*40
$GNRMC,094431.800,A,2500.7773689,N,12132.4603756,E,0.19,131.79,260623,,,D,V*08
$GPHDT,,T*1B
$GNGSA,A,3,196,15,199,05,13,18,29,20,11,194,,,1.00,0.52,0.86,1*39
$GNGSA,A,3,84,85,69,79,80,,,,,,,,1.00,0.52,0.86,2*02
$GNGSA,A,3,08,15,13,03,34,,,,,,,,1.00,0.52,0.86,3*01
$GNGSA,A,3,38,39,16,13,20,29,37,19,32,35,46,,1.00,0.52,0.86,4*08
$GPGSV,4,1,14,196,72,047,40,15,62,344,41,199,60,167,35,195,53,173,26,1*55
$GPGSV,4,2,14,24,49,178,26,05,42,068,43,13,42,030,41,18,38,319,25,1*60
$GPGSV,4,3,14,41,38,242,33,29,27,232,39,20,26,095,40,23,17,307,28,1*6C
$GPGSV,4,4,14,11,17,145,29,194,17,149,33,1*5A
$GPGSV,2,1,06,196,72,047,47,199,60,167,43,195,53,173,22,18,38,319,28,8*5E
$GPGSV,2,2,06,23,17,307,26,194,17,149,22,8*5A
$GLGSV,2,1,06,84,62,217,31,85,35,319,22,69,32,022,25,79,24,084,41,1*7B
$GLGSV,2,2,06,80,18,139,27,78,05,037,,1*7F
$GAGSV,3,1,09,08,65,328,40,15,64,163,40,13,56,314,33,03,32,038,35,7*70
$GAGSV,3,2,09,07,31,255,,34,14,150,17,02,08,121,,25,02,076,,7*70
$GAGSV,3,3,09,30,02,169,,7*45
$GAGSV,1,1,04,08,65,328,43,15,64,163,43,13,56,314,43,03,32,038,38,1*73
$GBGSV,3,1,12,38,67,025,41,39,67,206,42,16,57,202,25,06,55,203,22,1*73
$GBGSV,3,2,12,13,51,342,22,20,51,003,33,29,47,254,45,37,32,092,46,1*74
$GBGSV,3,3,12,19,32,296,25,46,26,157,,32,20,062,43,35,17,311,27,1*75
$GBGSV,3,1,09,38,67,025,46,39,67,206,43,20,51,003,33,29,47,254,43,4*76
$GBGSV,3,2,09,19,32,296,17,37,32,092,45,46,26,157,26,32,20,062,40,4*74
$GBGSV,3,3,09,35,17,311,39,4*43
$GNGGA,094432.000,2500.7773689,N,12132.4603816,E,2,47,0.52,16.155,M,15.25,M,5,3335*42
$GNRMC,094432.000,A,2500.7773689,N,12132.4603816,E,0.07,131.79,260623,,,D,V*07
$GPHDT,,T*1B
$GNGGA,094432.200,2500.7773749,N,12132.4603816,E,2,47,0.52,16.160,M,15.25,M,5,3335*4B
$GNRMC,094432.200,A,2500.7773749,N,12132.4603816,E,0.11,131.79,260623,,,D,V*0F
$GPHDT,,T*1B
$GNGGA,094432.400,2500.7773689,N,12132.4603816,E,2,46,0.52,16.174,M,15.25,M,5,3335*44
$GNRMC,094432.400,A,2500.7773689,N,12132.4603816,E,0.01,131.79,260623,,,D,V*05
$GPHDT,,T*1B
$GNGGA,094432.600,2500.7773689,N,12132.4603816,E,2,47,0.52,16.188,M,15.25,M,5,3335*44
$GNRMC,094432.600,A,2500.7773689,N,12132.4603816,E,0.08,131.79,260623,,,D,V*0E
$GPHDT,,T*1B
$GNGGA,094432.800,2500.7773689,N,12132.4603876,E,2,47,0.52,16.202,M,15.25,M,5,3335*4D
$GNRMC,094432.800,A,2500.7773689,N,12132.4603876,E,0.08,131.79,260623,,,D,V*06
$GPHDT,,T*1B
$GNGSA,A,3,196,15,199,05,13,18,29,20,11,194,,,1.00,0.52,0.86,1*39
$GNGSA,A,3,84,85,69,79,80,,,,,,,,1.00,0.52,0.86,2*02
$GNGSA,A,3,08,15,13,03,34,,,,,,,,1.00,0.52,0.86,3*01
$GNGSA,A,3,39,38,16,20,13,29,19,37,46,32,35,,1.00,0.52,0.86,4*08
$GPGSV,4,1,14,196,72,047,40,15,62,344,41,199,60,167,34,195,53,173,26,1*54
$GPGSV,4,2,14,24,49,178,25,05,42,068,43,13,42,030,42,41,38,242,34,1*63
$GPGSV,4,3,14,18,38,319,26,29,27,232,42,20,26,095,41,23,17,307,28,1*66
$GPGSV,4,4,14,11,17,145,28,194,17,149,33,1*5B
$GPGSV,2,1,06,196,72,047,47,199,60,167,43,195,53,173,22,18,38,319,28,8*5E
$GPGSV,2,2,06,23,17,307,26,194,17,149,22,8*5A
$GLGSV,2,1,05,84,62,217,32,85,35,319,23,69,32,022,27,79,24,084,43,1*7A
$GLGSV,2,2,05,80,18,139,26,1*43
$GAGSV,3,1,09,08,65,328,40,15,64,163,40,13,56,314,34,03,32,038,34,7*76
$GAGSV,3,2,09,07,31,255,,34,14,150,17,02,08,121,,30,02,169,,7*7B
$GAGSV,3,3,09,25,02,076,,7*4E
$GAGSV,1,1,04,08,65,328,43,15,64,163,43,13,56,314,43,03,32,038,38,1*73
$GBGSV,3,1,12,39,67,206,42,38,67,025,41,16,57,202,25,06,55,203,22,1*73
$GBGSV,3,2,12,20,51,003,33,13,51,342,23,29,47,254,46,19,32,296,24,1*78
$GBGSV,3,3,12,37,32,092,46,46,26,157,29,32,20,062,40,35,17,311,29,1*7C
$GBGSV,3,1,09,38,67,025,46,39,67,206,43,20,51,003,33,29,47,254,44,4*71
$GBGSV,3,2,09,19,32,296,15,37,32,092,45,46,26,157,26,32,20,062,38,4*79
$GBGSV,3,3,09,35,17,311,39,4*43
$GNGGA,094433.000,2500.7773629,N,12132.4603876,E,2,48,0.52,16.216,M,15.25,M,6,3335*47
$GNRMC,094433.000,A,2500.7773629,N,12132.4603876,E,0.06,131.79,260623,,,D,V*0B
$GPHDT,,T*1B
$GNGGA,094433.200,2500.7773629,N,12132.4603876,E,2,48,0.52,16.226,M,15.25,M,6,3335*46
$GNRMC,094433.200,A,2500.7773629,N,12132.4603876,E,0.05,131.79,260623,,,D,V*0A
$GPHDT,,T*1B
$GNGGA,094433.400,2500.7773629,N,12132.4603936,E,2,47,0.52,16.236,M,15.25,M,6,3335*4B
$GNRMC,094433.400,A,2500.7773629,N,12132.4603936,E,0.03,131.79,260623,,,D,V*0F
$GPHDT,,T*1B
$GNGGA,094433.600,2500.7773629,N,12132.4603936,E,2,47,0.52,16.242,M,15.25,M,6,3335*4A
$GNRMC,094433.600,A,2500.7773629,N,12132.4603936,E,0.04,131.79,260623,,,D,V*0A
$GPHDT,,T*1B
$GNGGA,094433.800,2500.7773629,N,12132.4603936,E,2,47,0.52,16.243,M,15.25,M,6,3335*45
$GNRMC,094433.800,A,2500.7773629,N,12132.4603936,E,0.05,131.79,260623,,,D,V*05
$GPHDT,,T*1B
$GNGSA,A,3,196,15,199,05,13,18,29,20,11,194,,,1.02,0.52,0.87,1*3A
$GNGSA,A,3,84,85,69,79,80,,,,,,,,1.02,0.52,0.87,2*01
$GNGSA,A,3,08,15,13,03,34,,,,,,,,1.02,0.52,0.87,3*02
$GNGSA,A,3,39,38,13,20,29,19,37,46,32,35,,,1.02,0.52,0.87,4*0C
$GPGSV,4,1,14,196,72,047,40,15,62,344,41,199,60,167,34,195,53,173,27,1*55
$GPGSV,4,2,14,24,49,178,25,05,42,068,43,13,42,030,42,41,38,242,35,1*62
$GPGSV,4,3,14,18,38,319,25,29,27,232,43,20,26,095,41,23,17,307,28,1*64
$GPGSV,4,4,14,11,17,145,28,194,17,149,33,1*5B
$GPGSV,2,1,06,196,72,047,47,199,60,167,43,195,53,173,22,18,38,319,27,8*51
$GPGSV,2,2,06,23,17,307,26,194,17,149,24,8*5C
$GLGSV,2,1,05,84,62,217,32,85,35,319,22,69,32,022,29,79,24,084,43,1*75
$GLGSV,2,2,05,80,18,139,26,1*43
$GAGSV,2,1,08,08,65,328,40,15,64,163,40,13,57,314,34,03,32,038,34,7*77
$GAGSV,2,2,08,07,31,255,,34,14,150,17,02,08,121,,25,02,076,,7*70
$GAGSV,1,1,04,08,65,328,43,15,64,163,43,13,57,314,43,03,32,038,38,1*72
$GBGSV,3,1,12,39,67,206,42,38,67,025,41,16,57,202,21,06,55,203,24,1*71
$GBGSV,3,2,12,13,51,342,21,20,51,003,34,29,47,254,46,19,32,296,25,1*7C
$GBGSV,3,3,12,37,32,092,46,46,26,157,28,32,20,062,40,35,17,311,29,1*7D
$GBGSV,3,1,09,38,67,025,46,39,67,206,43,20,51,003,33,29,47,254,44,4*71
$GBGSV,3,2,09,19,32,296,16,37,32,092,45,46,26,157,27,32,20,062,37,4*74
$GBGSV,3,3,09,35,17,311,39,4*43
$GNGGA,094434.000,2500.7773629,N,12132.4603936,E,2,47,0.52,16.244,M,15.25,M,7,3335*4C
$GNRMC,094434.000,A,2500.7773629,N,12132.4603936,E,0.01,131.79,260623,,,D,V*0E
$GPHDT,,T*1B
$GNGGA,094434.200,2500.7773629,N,12132.4603936,E,2,47,0.52,16.246,M,15.25,M,7,3335*4C
$GNRMC,094434.200,A,2500.7773629,N,12132.4603936,E,0.02,131.79,260623,,,D,V*0F
$GPHDT,,T*1B
$GNGGA,094434.400,2500.7773629,N,12132.4603936,E,2,47,0.52,16.250,M,15.25,M,7,3335*4D
$GNRMC,094434.400,A,2500.7773629,N,12132.4603936,E,0.01,131.79,260623,,,D,V*0A
$GPHDT,,T*1B
$GNGGA,094434.600,2500.7773629,N,12132.4603936,E,2,47,0.52,16.254,M,15.25,M,7,3335*4B
$GNRMC,094434.600,A,2500.7773629,N,12132.4603936,E,0.06,131.79,260623,,,D,V*0F
$GPHDT,,T*1B
$GNGGA,094434.800,2500.7773629,N,12132.4603936,E,2,48,0.52,16.260,M,15.25,M,4,3335*4E
$GNRMC,094434.800,A,2500.7773629,N,12132.4603936,E,0.11,131.79,260623,,,D,V*07
$GPHDT,,T*1B
$GNGSA,A,3,196,15,199,05,13,18,29,20,11,194,,,1.00,0.52,0.86,1*39
$GNGSA,A,3,84,85,69,79,80,,,,,,,,1.00,0.52,0.86,2*02
$GNGSA,A,3,08,15,13,03,34,,,,,,,,1.00,0.52,0.86,3*01
$GNGSA,A,3,39,38,16,13,20,29,19,37,46,32,35,,1.00,0.52,0.86,4*08
$GPGSV,4,1,14,196,72,047,40,15,62,344,41,199,60,167,34,195,53,173,26,1*54
$GPGSV,4,2,14,24,49,178,25,05,42,068,43,13,42,030,42,41,38,242,36,1*61
$GPGSV,4,3,14,18,38,319,25,29,27,232,43,20,26,095,41,23,17,307,28,1*64
$GPGSV,4,4,14,11,17,145,28,194,17,149,33,1*5B
$GPGSV,2,1,07,196,72,047,47,199,60,167,44,195,53,173,22,18,38,319,29,8*59
$GPGSV,2,2,07,23,17,307,27,11,17,145,23,194,17,149,26,8*69
$GLGSV,2,1,05,84,62,217,32,85,35,319,19,69,32,022,29,79,24,084,43,1*7D
$GLGSV,2,2,05,80,18,139,26,1*43
$GAGSV,2,1,08,08,65,328,40,15,64,163,40,13,57,314,34,03,32,038,35,7*76
$GAGSV,2,2,08,07,31,255,18,34,14,150,17,02,08,121,,25,02,076,,7*79
$GAGSV,1,1,04,08,65,328,44,15,64,163,43,13,57,314,43,03,32,038,38,1*75
$GBGSV,3,1,12,39,67,206,42,38,67,025,41,16,57,202,21,06,55,203,25,1*70
$GBGSV,3,2,12,13,51,342,21,20,51,003,34,29,47,254,46,19,32,296,26,1*7F
$GBGSV,3,3,12,37,32,092,46,46,26,157,30,32,20,062,42,35,17,311,30,1*7E
$GBGSV,3,1,09,38,67,025,46,39,67,206,43,20,51,003,33,29,47,254,45,4*70
$GBGSV,3,2,09,19,32,296,17,37,32,092,45,46,26,157,27,32,20,062,39,4*7B
$GBGSV,3,3,09,35,17,311,39,4*43
$GNGGA,094435.000,2500.7773569,N,12132.4603996,E,2,49,0.52,16.267,M,15.25,M,4,3335*4C
$GNRMC,094435.000,A,2500.7773569,N,12132.4603996,E,0.03,131.79,260623,,,D,V*00
$GPHDT,,T*1B
$GNGGA,094435.200,2500.7773569,N,12132.4603996,E,2,48,0.52,16.274,M,15.25,M,2,3335*4B
$GNRMC,094435.200,A,2500.7773569,N,12132.4603996,E,0.06,131.79,260623,,,D,V*07
$GPHDT,,T*1B
$GNGGA,094435.400,2500.7773569,N,12132.4603996,E,2,48,0.52,16.282,M,15.25,M,1,3335*47
$GNRMC,094435.400,A,2500.7773569,N,12132.4603996,E,0.05,131.79,260623,,,D,V*02
$GPHDT,,T*1B
$GNGGA,094435.600,2500.7773569,N,12132.4604056,E,2,48,0.52,16.293,M,15.25,M,1,3335*47
$GNRMC,094435.600,A,2500.7773569,N,12132.4604056,E,0.06,131.79,260623,,,D,V*01
$GPHDT,,T*1B
$GNGGA,094435.800,2500.7773569,N,12132.4604056,E,2,48,0.52,16.300,M,15.25,M,0,3335*43
$GNRMC,094435.800,A,2500.7773569,N,12132.4604056,E,0.11,131.79,260623,,,D,V*09
$GPHDT,,T*1B
$GNGSA,A,3,196,15,199,05,13,18,29,20,11,194,,,1.02,0.52,0.87,1*3A
$GNGSA,A,3,84,85,69,79,80,,,,,,,,1.02,0.52,0.87,2*01
$GNGSA,A,3,08,15,13,03,34,,,,,,,,1.02,0.52,0.87,3*02
$GNGSA,A,3,39,38,20,13,29,19,37,46,32,35,,,1.02,0.52,0.87,4*0C
$GPGSV,4,1,14,196,72,047,40,15,62,344,41,199,60,167,34,195,53,173,26,1*54
$GPGSV,4,2,14,24,49,178,25,05,42,068,43,13,42,030,42,41,38,242,36,1*61
$GPGSV,4,3,14,18,38,319,25,29,27,232,43,20,26,095,41,23,17,307,28,1*64
$GPGSV,4,4,14,11,17,145,29,194,17,149,33,1*5A
$GPGSV,2,1,07,196,72,047,47,199,60,167,44,195,53,173,21,18,38,319,28,8*5B
$GPGSV,2,2,07,23,17,307,26,11,17,145,19,194,17,149,25,8*62
$GLGSV,2,1,05,84,62,217,32,85,35,319,19,69,32,022,32,79,24,084,43,1*77
$GLGSV,2,2,05,80,18,139,26,1*43
$GAGSV,3,1,09,08,65,328,40,15,64,163,40,13,57,314,34,03,32,038,35,7*76
$GAGSV,3,2,09,07,31,255,18,34,14,150,16,02,08,121,,30,02,169,,7*73
$GAGSV,3,3,09,25,02,076,,7*4E
$GAGSV,1,1,04,08,65,328,44,15,64,163,43,13,57,314,43,03,32,038,38,1*75
$GBGSV,3,1,12,39,67,206,42,38,67,025,41,16,57,202,22,06,55,203,26,1*70
$GBGSV,3,2,12,20,51,003,34,13,51,342,22,29,47,254,46,19,32,296,26,1*7C
$GBGSV,3,3,12,37,32,092,46,46,26,157,30,32,20,062,42,35,17,311,31,1*7F
$GBGSV,3,1,09,38,67,025,46,39,67,206,43,20,51,003,32,29,47,254,45,4*71
$GBGSV,3,2,09,19,32,296,15,37,32,092,45,46,26,157,27,32,20,062,39,4*79
$GBGSV,3,3,09,35,17,311,39,4*43
$GNGGA,094436.000,2500.7773509,N,12132.4604056,E,2,48,0.52,16.312,M,15.25,M,1,3335*4C
$GNRMC,094436.000,A,2500.7773509,N,12132.4604056,E,0.11,131.79,260623,,,D,V*04
$GPHDT,,T*1B
$GNGGA,094436.200,2500.7773509,N,12132.4604056,E,2,48,0.52,16.324,M,15.25,M,1,3335*4B
$GNRMC,094436.200,A,2500.7773509,N,12132.4604056,E,0.05,131.79,260623,,,D,V*03
$GPHDT,,T*1B
$GNGGA,094436.400,2500.7773509,N,12132.4604116,E,2,49,0.52,16.333,M,15.25,M,1,3335*4F
$GNRMC,094436.400,A,2500.7773509,N,12132.4604116,E,0.04,131.79,260623,,,D,V*01
$GPHDT,,T*1B
$GNGGA,094436.600,2500.7773509,N,12132.4604116,E,2,49,0.52,16.342,M,15.25,M,1,3335*4B
$GNRMC,094436.600,A,2500.7773509,N,12132.4604116,E,0.03,131.79,260623,,,D,V*04
$GPHDT,,T*1B
$GNGGA,094436.800,2500.7773509,N,12132.4604116,E,2,49,0.52,16.350,M,15.25,M,1,3335*46
$GNRMC,094436.800,A,2500.7773509,N,12132.4604116,E,0.07,131.79,260623,,,D,V*0E
$GPHDT,,T*1B
$GNGSA,A,3,196,15,199,05,13,18,29,20,11,194,,,1.02,0.52,0.87,1*3A
$GNGSA,A,3,84,85,69,79,80,,,,,,,,1.02,0.52,0.87,2*01
$GNGSA,A,3,08,15,13,03,34,,,,,,,,1.02,0.52,0.87,3*02
$GNGSA,A,3,39,38,20,13,29,19,37,46,32,35,,,1.02,0.52,0.87,4*0C
$GPGSV,4,1,14,196,72,047,40,15,62,344,40,199,60,167,34,195,53,173,26,1*55
$GPGSV,4,2,14,24,49,178,25,05,42,068,43,13,42,030,42,41,38,242,36,1*61
$GPGSV,4,3,14,18,38,319,25,29,27,232,43,20,26,095,41,23,17,307,27,1*6B
$GPGSV,4,4,14,11,17,145,29,194,17,149,33,1*5A
$GPGSV,2,1,07,196,72,047,47,199,60,167,44,195,53,173,23,18,38,319,29,8*58
$GPGSV,2,2,07,23,17,307,28,11,17,145,18,194,17,149,26,8*6E
$GLGSV,2,1,05,84,62,217,32,85,35,319,18,69,32,022,32,79,24,084,43,1*76
$GLGSV,2,2,05,80,18,139,27,1*42
$GAGSV,3,1,09,08,65,328,40,15,64,163,40,13,57,314,34,03,32,038,35,7*76
$GAGSV,3,2,09,07,31,255,18,34,14,150,17,02,08,121,,30,02,169,,7*72
$GAGSV,3,3,09,25,02,076,,7*4E
$GAGSV,1,1,04,08,65,328,44,15,64,163,43,13,57,314,43,03,32,038,38,1*75
$GBGSV,3,1,12,39,67,206,42,38,67,025,41,16,57,202,22,06,55,203,26,1*70
$GBGSV,3,2,12,20,51,003,34,13,51,342,22,29,47,254,46,19,32,296,27,1*7D
$GBGSV,3,3,12,37,32,092,46,46,26,157,30,32,20,062,42,35,17,311,30,1*7E
$GBGSV,3,1,09,38,67,025,46,39,67,206,43,20,51,003,32,29,47,254,45,4*71
$GBGSV,3,2,09,19,32,296,14,37,32,092,45,46,26,157,27,32,20,062,39,4*78
$GBGSV,3,3,09,35,17,311,39,4*43
$GNGGA,094437.000,2500.7773449,N,12132.4604116,E,2,48,0.52,16.359,M,15.25,M,1,3335*42
$GNRMC,094437.000,A,2500.7773449,N,12132.4604116,E,0.06,131.79,260623,,,D,V*03
$GPHDT,,T*1B
$GNGGA,094437.200,2500.7773753,N,12132.4603140,E,4,48,0.52,15.857,M,15.25,M,1,3335*4C
$GNRMC,094437.200,A,2500.7773753,N,12132.4603140,E,0.05,131.79,260623,,,R,V*18
$GPHDT,,T*1B
$GNGGA,094437.400,2500.7773724,N,12132.4603151,E,4,48,0.52,15.873,M,15.25,M,1,3335*4C
$GNRMC,094437.400,A,2500.7773724,N,12132.4603151,E,0.05,131.79,260623,,,R,V*1E
$GPHDT,,T*1B
$GNGGA,094437.600,2500.7773768,N,12132.4603199,E,4,48,0.52,15.895,M,15.25,M,1,3335*4A
$GNRMC,094437.600,A,2500.7773768,N,12132.4603199,E,0.09,131.79,260623,,,R,V*1C
$GPHDT,,T*1B
$GNGGA,094437.800,2500.7773770,N,12132.4603180,E,4,50,0.52,15.883,M,15.25,M,1,3335*4B
$GNRMC,094437.800,A,2500.7773770,N,12132.4603180,E,0.03,131.79,260623,,,R,V*19
$GPHDT,,T*1B
$GNGSA,A,3,196,15,199,05,13,18,29,20,11,194,,,1.00,0.52,0.86,1*39
$GNGSA,A,3,84,85,69,79,80,,,,,,,,1.00,0.52,0.86,2*02
$GNGSA,A,3,08,15,13,03,34,,,,,,,,1.00,0.52,0.86,3*01
$GNGSA,A,3,39,38,16,13,20,29,19,37,46,32,35,,1.00,0.52,0.86,4*08
$GPGSV,4,1,14,196,72,047,40,15,62,344,40,199,60,167,34,195,53,173,25,1*56
$GPGSV,4,2,14,24,49,178,24,05,42,068,43,13,42,030,42,18,38,319,26,1*62
$GPGSV,4,3,14,41,38,242,37,29,27,232,43,20,26,095,40,23,17,307,26,1*6B
$GPGSV,4,4,14,11,17,145,29,194,17,149,33,1*5A
$GPGSV,2,1,08,196,72,047,46,199,60,167,43,195,53,173,23,24,49,178,23,8*57
$GPGSV,2,2,08,18,38,319,28,23,17,307,27,11,17,145,20,194,17,149,26,8*56
$GLGSV,2,1,05,84,62,217,32,85,35,319,16,69,32,022,32,79,24,084,43,1*78
$GLGSV,2,2,05,80,18,139,25,1*40
$GAGSV,3,1,09,08,65,328,40,15,64,163,40,13,57,314,34,03,32,038,35,7*76
$GAGSV,3,2,09,07,31,255,20,34,13,150,17,02,08,121,,30,02,169,,7*7E
$GAGSV,3,3,09,25,02,076,,7*4E
$GAGSV,2,1,05,08,65,328,44,15,64,163,43,13,57,314,42,03,32,038,38,1*76
$GAGSV,2,2,05,34,13,150,20,1*43
$GBGSV,4,1,13,39,67,206,42,38,67,025,41,16,57,202,22,06,55,203,26,1*76
$GBGSV,4,2,13,13,51,342,23,20,51,003,34,29,47,254,46,19,32,296,27,1*7A
$GBGSV,4,3,13,37,32,092,45,46,26,157,31,32,20,062,42,35,17,311,30,1*7A
$GBGSV,4,4,13,40,05,194,,1*49
$GBGSV,3,1,09,38,67,025,46,39,67,206,43,20,51,003,31,29,47,254,45,4*72
$GBGSV,3,2,09,19,32,296,15,37,32,092,44,46,26,157,27,32,20,062,39,4*78
$GBGSV,3,3,09,35,17,311,39,4*43
$GNGGA,094438.000,2500.7773697,N,12132.4603154,E,4,50,0.52,15.862,M,15.25,M,2,3335*41
$GNRMC,094438.000,A,2500.7773697,N,12132.4603154,E,0.03,131.79,260623,,,R,V*1F
$GPHDT,,T*1B
$GNGGA,094438.200,2500.7773767,N,12132.4603160,E,4,50,0.52,15.895,M,15.25,M,2,3335*42
$GNRMC,094438.200,A,2500.7773767,N,12132.4603160,E,0.02,131.79,260623,,,R,V*15
$GPHDT,,T*1B
$GNGGA,094438.400,2500.7773770,N,12132.4603147,E,4,50,0.52,15.903,M,15.25,M,2,3335*49
$GNRMC,094438.400,A,2500.7773770,N,12132.4603147,E,0.05,131.79,260623,,,R,V*17
$GPHDT,,T*1B
$GNGGA,094438.600,2500.7773780,N,12132.4603149,E,4,50,0.52,15.913,M,15.25,M,0,3335*49
$GNRMC,094438.600,A,2500.7773780,N,12132.4603149,E,0.03,131.79,260623,,,R,V*12
$GPHDT,,T*1B
$GNGGA,094438.800,2500.7773756,N,12132.4603170,E,4,50,0.52,15.914,M,15.25,M,0,3335*41
$GNRMC,094438.800,A,2500.7773756,N,12132.4603170,E,0.07,131.79,260623,,,R,V*19
$GPHDT,,T*1B
$GNGSA,A,3,196,15,199,05,13,18,29,20,11,194,,,1.00,0.52,0.86,1*39
$GNGSA,A,3,84,85,69,79,80,,,,,,,,1.00,0.52,0.86,2*02
$GNGSA,A,3,08,15,13,03,34,,,,,,,,1.00,0.52,0.86,3*01
$GNGSA,A,3,39,38,16,20,13,29,19,37,46,32,35,,1.00,0.52,0.86,4*08
$GPGSV,4,1,14,196,72,047,40,15,62,344,40,199,60,167,34,195,53,173,25,1*56
$GPGSV,4,2,14,24,49,178,22,05,42,068,44,13,42,030,42,41,38,242,37,1*60
$GPGSV,4,3,14,18,38,319,27,29,27,232,43,20,26,095,36,23,17,307,27,1*69
$GPGSV,4,4,14,11,17,145,29,194,17,149,34,1*5D
$GPGSV,2,1,08,196,72,047,46,199,60,167,43,195,53,173,22,24,49,178,22,8*57
$GPGSV,2,2,08,18,38,319,29,23,17,307,27,11,17,145,24,194,17,149,26,8*53
$GLGSV,2,1,05,84,62,217,32,85,35,319,17,69,32,022,32,79,24,084,40,1*7A
$GLGSV,2,2,05,80,18,139,26,1*43
$GAGSV,3,1,09,08,65,328,40,15,64,163,40,13,57,314,34,03,32,038,36,7*75
$GAGSV,3,2,09,07,31,255,19,34,13,150,17,02,08,121,,30,02,169,,7*74
$GAGSV,3,3,09,25,02,076,,7*4E
$GAGSV,2,1,05,08,65,328,44,15,64,163,43,13,57,314,42,03,32,038,39,1*77
$GAGSV,2,2,05,34,13,150,20,1*43
$GBGSV,3,1,12,39,67,206,42,38,67,025,41,16,57,202,22,06,55,203,26,1*70
$GBGSV,3,2,12,20,51,003,34,13,51,342,23,29,47,254,46,19,32,296,27,1*7C
$GBGSV,3,3,12,37,32,092,42,46,26,157,31,32,20,062,44,35,17,311,31,1*7C
$GBGSV,3,1,09,38,67,025,46,39,67,206,43,20,51,003,31,29,47,254,45,4*72
$GBGSV,3,2,09,19,32,296,16,37,32,092,42,46,26,157,27,32,20,062,41,4*72
$GBGSV,3,3,09,35,17,311,39,4*43
$GNGGA,094439.000,2500.7773768,N,12132.4603127,E,4,50,0.52,15.861,M,15.25,M,1,3335*45
$GNRMC,094439.000,A,2500.7773768,N,12132.4603127,E,0.05,131.79,260623,,,R,V*1D
$GPHDT,,T*1B
$GNGGA,094439.200,2500.7773739,N,12132.4603196,E,4,50,0.52,15.869,M,15.25,M,1,3335*41
$GNRMC,094439.200,A,2500.7773739,N,12132.4603196,E,0.02,131.79,260623,,,R,V*16
