$FW : RTK35X,V1.1X0314AS,Lib20210517,1*54
$Tool : LOCOSYS , GNSS Firebird , v1.0.0.19*39
$---------------------------------------------------*2D
$GNGSA,A,3,196,15,199,05,13,18,29,20,23,194,11,,0.94,0.50,0.80,1*30
$GNGSA,A,3,84,85,69,79,80,,,,,,,,0.94,0.50,0.80,2*0A
$GNGSA,A,3,08,15,13,03,34,,,,,,,,0.94,0.50,0.80,3*09
$GNGSA,A,3,39,38,16,06,13,20,29,37,46,32,35,,0.94,0.50,0.80,4*0E
$GPGSV,4,1,14,196,72,047,40,15,62,344,34,199,60,167,35,195,52,174,,1*55
$GPGSV,4,2,14,24,49,178,14,05,42,068,42,13,42,030,40,18,39,319,33,1*67
$GPGSV,4,3,14,41,38,242,37,29,27,232,40,20,25,095,39,23,17,307,25,1*66
$GPGSV,4,4,14,11,17,145,,194,17,149,23,1*50
$GPGSV,2,1,06,196,72,047,44,199,60,167,44,24,49,178,24,18,39,319,24,8*6A
$GPGSV,2,2,06,23,17,307,26,11,17,145,22,8*6A
$GLGSV,2,1,05,84,61,216,30,85,36,318,31,69,32,022,21,79,24,083,41,1*78
$GLGSV,2,2,05,80,19,138,30,1*44
$GAGSV,2,1,08,08,65,329,36,15,64,164,39,13,57,314,36,03,32,038,32,7*7A
$GAGSV,2,2,08,07,31,255,22,34,13,150,21,02,08,121,,30,02,169,,7*79
$GAGSV,2,1,05,08,65,329,40,15,64,164,44,13,57,314,44,03,32,038,34,1*79
$GAGSV,2,2,05,34,13,150,19,1*49
$GBGSV,4,1,13,39,67,206,43,38,67,025,38,16,57,203,24,06,55,203,31,1*78
$GBGSV,4,2,13,13,51,342,21,20,51,003,28,29,47,254,46,37,33,092,45,1*7A
$GBGSV,4,3,13,19,32,297,23,46,26,157,29,32,20,062,44,35,17,311,31,1*7F
$GBGSV,4,4,13,07,10,202,,1*42
$GBGSV,2,1,08,38,67,025,42,39,67,206,45,20,51,003,32,29,47,254,44,4*72
$GBGSV,2,2,08,37,33,092,43,46,26,157,22,32,20,062,43,35,17,311,35,4*73
$GNGGA,094523.000,2500.7770179,N,12132.4601092,E,2,49,0.50,17.007,M,15.25,M,3,3335*43
$GNRMC,094523.000,A,2500.7770179,N,12132.4601092,E,0.03,131.79,260623,,,D,V*0F
$GPHDT,,T*1B
$GNGGA,094523.200,2500.7770119,N,12132.4601152,E,2,50,0.50,17.002,M,15.25,M,3,3335*47
$GNRMC,094523.200,A,2500.7770119,N,12132.4601152,E,0.03,131.79,260623,,,D,V*06
$GPHDT,,T*1B
$GNGGA,094523.400,2500.7770119,N,12132.4601212,E,2,50,0.50,16.992,M,15.25,M,3,3335*47
$GNRMC,094523.400,A,2500.7770119,N,12132.4601212,E,0.03,131.79,260623,,,D,V*07
$GPHDT,,T*1B
$GNGGA,094523.600,2500.7770059,N,12132.4601212,E,2,49,0.51,16.980,M,15.25,M,3,3335*4A
$GNRMC,094523.600,A,2500.7770059,N,12132.4601212,E,0.03,131.79,260623,,,D,V*00
$GPHDT,,T*1B
$GNGGA,094523.800,2500.7769819,N,12132.4601212,E,2,50,0.50,16.966,M,15.25,M,3,3335*41
$GNRMC,094523.800,A,2500.7769819,N,12132.4601212,E,0.04,131.79,260623,,,D,V*0D
$GPHDT,,T*1B
$GNGSA,A,3,196,15,199,05,13,18,29,20,23,11,194,,0.94,0.50,0.80,1*30
$GNGSA,A,3,84,85,69,79,80,,,,,,,,0.94,0.50,0.80,2*0A
$GNGSA,A,3,08,15,13,03,34,,,,,,,,0.94,0.50,0.80,3*09
$GNGSA,A,3,38,39,16,06,20,13,29,37,46,32,35,,0.94,0.50,0.80,4*0E
$GPGSV,4,1,14,196,72,047,41,15,62,344,32,199,60,167,35,195,52,174,19,1*5A
$GPGSV,4,2,14,24,49,178,13,05,42,068,42,13,42,030,40,18,39,319,33,1*60
$GPGSV,4,3,14,41,38,242,37,29,27,232,40,20,25,095,38,23,17,307,25,1*67
$GPGSV,4,4,14,11,17,145,19,194,17,149,20,1*5B
$GPGSV,2,1,08,196,72,047,44,199,60,167,43,195,52,174,19,24,49,178,24,8*5D
$GPGSV,2,2,08,18,39,319,24,23,17,307,26,11,17,145,23,194,17,149,29,8*56
$GLGSV,2,1,07,84,61,216,30,85,36,318,31,70,34,304,,69,32,022,21,1*7B
$GLGSV,2,2,07,79,24,083,41,80,19,138,30,83,09,170,,1*44
$GAGSV,2,1,08,08,65,329,36,15,64,164,39,13,57,314,36,03,32,038,32,7*7A
$GAGSV,2,2,08,07,31,255,24,34,13,150,23,02,08,121,,26,05,324,,7*76
$GAGSV,1,1,04,08,65,329,40,15,64,164,44,13,57,314,44,03,32,038,34,1*7B
$GBGSV,4,1,16,38,67,025,38,39,67,206,43,16,57,203,24,06,55,203,31,1*7D
$GBGSV,4,2,16,20,51,003,29,13,51,342,22,29,47,254,46,09,38,206,,1*75
$GBGSV,4,3,16,37,33,092,45,19,32,297,22,30,27,186,,46,26,157,30,1*72
$GBGSV,4,4,16,32,20,062,44,35,17,311,31,07,10,202,,10,10,213,,1*71
$GBGSV,2,1,08,38,67,025,42,39,67,206,45,20,51,003,32,29,47,254,44,4*72
$GBGSV,2,2,08,37,33,092,43,46,26,157,23,32,20,062,44,35,17,311,35,4*75
$GNGGA,094524.000,2500.7769819,N,12132.4601272,E,2,49,0.50,16.967,M,15.25,M,4,3335*46
$GNRMC,094524.000,A,2500.7769819,N,12132.4601272,E,0.04,131.79,260623,,,D,V*04
$GPHDT,,T*1B
$GNGGA,094524.200,2500.7769579,N,12132.4601272,E,2,49,0.50,16.961,M,15.25,M,4,3335*49
$GNRMC,094524.200,A,2500.7769579,N,12132.4601272,E,0.04,131.79,260623,,,D,V*0D
$GPHDT,,T*1B
$GNGGA,094524.400,2500.7769339,N,12132.4601272,E,2,50,0.48,16.944,M,15.25,M,4,3335*4B
$GNRMC,094524.400,A,2500.7769339,N,12132.4601272,E,0.05,131.79,260623,,,D,V*08
$GPHDT,,T*1B
$GNGGA,094524.600,2500.7769159,N,12132.4601332,E,2,50,0.48,16.933,M,15.25,M,4,3335*48
$GNRMC,094524.600,A,2500.7769159,N,12132.4601332,E,0.05,131.79,260623,,,D,V*0B
$GPHDT,,T*1B
$GNGGA,094524.800,2500.7768919,N,12132.4601332,E,2,49,0.50,16.923,M,15.25,M,4,3335*4B
$GNRMC,094524.800,A,2500.7768919,N,12132.4601332,E,0.06,131.79,260623,,,D,V*0B
$GPHDT,,T*1B
$GNGSA,A,3,196,15,199,05,13,18,29,20,23,11,194,,0.92,0.48,0.79,1*39
$GNGSA,A,3,84,85,69,79,80,,,,,,,,0.92,0.48,0.79,2*03
$GNGSA,A,3,08,15,13,03,34,,,,,,,,0.92,0.48,0.79,3*00
$GNGSA,A,3,39,38,16,06,20,13,29,37,19,46,32,35,0.92,0.48,0.79,4*0F
$GPGSV,4,1,14,196,72,047,41,15,62,344,29,199,60,167,35,195,52,174,19,1*50
$GPGSV,4,2,14,24,49,178,13,05,42,068,43,13,42,030,40,18,39,319,33,1*61
$GPGSV,4,3,14,41,38,242,37,29,27,232,40,20,25,095,38,23,17,307,24,1*66
$GPGSV,4,4,14,11,17,145,17,194,17,149,23,1*56
$GPGSV,2,1,08,196,72,047,44,199,60,167,43,195,52,174,18,24,49,178,24,8*5C
$GPGSV,2,2,08,18,39,319,26,23,17,307,25,11,17,145,21,194,17,149,28,8*54
$GLGSV,2,1,06,84,61,216,28,85,36,318,30,69,32,022,21,79,24,083,40,1*72
$GLGSV,2,2,06,80,19,138,30,83,09,170,,1*73
$GAGSV,2,1,08,08,65,329,35,15,64,164,40,13,57,314,37,03,32,038,31,7*75
$GAGSV,2,2,08,07,31,255,24,34,13,150,20,02,08,121,,26,05,324,,7*75
$GAGSV,1,1,04,08,65,329,40,15,64,164,44,13,57,314,44,03,32,038,34,1*7B
$GBGSV,3,1,12,39,67,206,43,38,67,025,38,16,57,203,25,06,55,203,32,1*7C
$GBGSV,3,2,12,20,51,003,29,13,51,342,22,29,47,254,46,37,33,092,45,1*7E
$GBGSV,3,3,12,19,32,297,22,46,26,157,29,32,20,062,44,35,17,311,31,1*78
$GBGSV,2,1,08,38,67,025,42,39,67,206,45,20,51,003,31,29,47,254,44,4*71
$GBGSV,2,2,08,37,33,092,43,46,26,157,22,32,20,062,44,35,17,311,35,4*74
$GNGGA,094525.000,2500.7768679,N,12132.4601392,E,2,51,0.48,16.916,M,15.25,M,5,3335*46
$GNRMC,094525.000,A,2500.7768679,N,12132.4601392,E,0.07,131.79,260623,,,D,V*00
$GPHDT,,T*1B
$GNGGA,094525.200,2500.7768559,N,12132.4601392,E,2,51,0.48,16.916,M,15.25,M,5,3335*45
$GNRMC,094525.200,A,2500.7768559,N,12132.4601392,E,0.07,131.79,260623,,,D,V*03
$GPHDT,,T*1B
$GNGGA,094525.400,2500.7768439,N,12132.4601452,E,2,51,0.48,16.904,M,15.25,M,5,3335*4C
$GNRMC,094525.400,A,2500.7768439,N,12132.4601452,E,0.07,131.79,260623,,,D,V*09
$GPHDT,,T*1B
$GNGGA,094525.600,2500.7768439,N,12132.4601512,E,2,51,0.48,16.909,M,15.25,M,5,3335*46
$GNRMC,094525.600,A,2500.7768439,N,12132.4601512,E,0.07,131.79,260623,,,D,V*0E
$GPHDT,,T*1B
$GNGGA,094525.800,2500.7768319,N,12132.4601572,E,2,51,0.48,16.893,M,15.25,M,5,3335*49
$GNRMC,094525.800,A,2500.7768319,N,12132.4601572,E,0.07,131.79,260623,,,D,V*03
$GPHDT,,T*1B
$GNGSA,A,3,196,15,199,05,13,18,29,20,23,194,11,,0.92,0.48,0.79,1*39
$GNGSA,A,3,84,85,69,79,80,,,,,,,,0.92,0.48,0.79,2*03
$GNGSA,A,3,08,15,13,03,34,,,,,,,,0.92,0.48,0.79,3*00
$GNGSA,A,3,39,38,16,06,13,20,29,37,19,46,32,35,0.92,0.48,0.79,4*0F
$GPGSV,4,1,14,196,72,047,41,15,62,344,35,199,60,167,35,195,52,174,20,1*57
$GPGSV,4,2,14,24,49,178,14,05,42,068,44,13,42,030,37,18,39,319,33,1*61
$GPGSV,4,3,14,41,38,242,37,29,27,232,41,20,25,095,38,23,17,307,28,1*6B
$GPGSV,4,4,14,11,17,145,,194,17,149,28,1*5B
$GPGSV,2,1,08,196,72,047,44,199,60,167,43,195,52,174,17,24,49,178,27,8*50
$GPGSV,2,2,08,18,39,319,27,23,17,307,22,11,17,145,21,194,17,149,24,8*5E
$GLGSV,2,1,05,84,61,216,29,85,36,318,29,69,32,022,20,79,24,083,39,1*77
$GLGSV,2,2,05,80,19,138,31,1*45
$GAGSV,2,1,08,08,65,329,23,15,64,164,40,13,57,314,34,03,32,038,29,7*78
$GAGSV,2,2,08,07,31,255,22,34,13,150,21,02,08,121,,26,05,324,,7*72
$GAGSV,1,1,04,08,65,329,39,15,64,164,44,13,57,314,39,03,32,038,33,1*78
$GBGSV,3,1,12,39,67,206,43,38,67,025,40,16,57,203,25,06,55,203,30,1*71
$GBGSV,3,2,12,13,51,342,24,20,51,003,29,29,47,254,46,37,33,092,45,1*78
$GBGSV,3,3,12,19,32,297,25,46,26,157,31,32,20,062,44,35,17,311,34,1*73
$GBGSV,2,1,08,38,67,025,41,39,67,206,45,20,51,003,31,29,47,254,44,4*72
$GBGSV,2,2,08,37,33,092,43,46,26,157,19,32,20,062,44,35,17,311,33,4*7A
$GNGGA,094526.000,2500.7768259,N,12132.4601572,E,2,50,0.48,16.886,M,15.25,M,6,3335*41
$GNRMC,094526.000,A,2500.7768259,N,12132.4601572,E,0.07,131.79,260623,,,D,V*0D
$GPHDT,,T*1B
$GNGGA,094526.200,2500.7768199,N,12132.4601572,E,2,50,0.48,16.897,M,15.25,M,6,3335*4C
$GNRMC,094526.200,A,2500.7768199,N,12132.4601572,E,0.06,131.79,260623,,,D,V*01
$GPHDT,,T*1B
$GNGGA,094526.400,2500.7768079,N,12132.4601632,E,2,50,0.48,16.902,M,15.25,M,6,3335*4F
$GNRMC,094526.400,A,2500.7768079,N,12132.4601632,E,0.07,131.79,260623,,,D,V*0E
$GPHDT,,T*1B
$GNGGA,094526.600,2500.7767959,N,12132.4601692,E,2,51,0.48,16.897,M,15.25,M,4,3335*4D
$GNRMC,094526.600,A,2500.7767959,N,12132.4601692,E,0.06,131.79,260623,,,D,V*03
$GPHDT,,T*1B
$GNGGA,094526.800,2500.7767779,N,12132.4601752,E,2,51,0.48,16.896,M,15.25,M,1,3335*46
$GNRMC,094526.800,A,2500.7767779,N,12132.4601752,E,0.07,131.79,260623,,,D,V*0D
$GPHDT,,T*1B
$GNGSA,A,3,196,15,199,05,13,18,29,20,23,11,194,,0.94,0.50,0.80,1*30
$GNGSA,A,3,84,85,69,79,80,,,,,,,,0.94,0.50,0.80,2*0A
$GNGSA,A,3,08,15,13,03,34,,,,,,,,0.94,0.50,0.80,3*09
$GNGSA,A,3,39,38,16,06,13,20,29,37,46,32,35,,0.94,0.50,0.80,4*0E
$GPGSV,4,1,14,196,72,047,41,15,62,344,36,199,60,167,35,195,52,174,17,1*50
$GPGSV,4,2,14,24,49,178,14,05,42,068,43,13,42,030,39,18,39,319,31,1*6A
$GPGSV,4,3,14,41,38,242,37,29,27,232,41,20,25,095,38,23,17,307,27,1*64
$GPGSV,4,4,14,11,17,145,20,194,17,149,26,1*57
$GPGSV,2,1,08,196,72,047,44,199,60,167,43,195,52,174,15,24,49,178,27,8*52
$GPGSV,2,2,08,18,39,319,24,23,17,307,24,11,17,145,21,194,17,149,24,8*5B
$GLGSV,2,1,05,84,61,216,29,85,36,318,29,69,32,022,18,79,24,083,39,1*7C
$GLGSV,2,2,05,80,19,138,31,1*45
$GAGSV,2,1,08,08,65,329,27,15,64,164,40,13,57,314,33,03,32,038,27,7*75
$GAGSV,2,2,08,07,31,255,22,34,13,150,23,02,08,121,,26,05,324,,7*70
$GAGSV,1,1,04,08,65,329,39,15,64,164,44,13,57,314,33,03,32,038,33,1*72
$GBGSV,3,1,12,39,67,206,43,38,67,025,41,16,57,203,25,06,55,203,30,1*70
$GBGSV,3,2,12,13,51,342,24,20,51,003,31,29,47,254,46,37,33,092,45,1*71
$GBGSV,3,3,12,19,32,297,24,46,26,157,33,32,20,062,44,35,17,311,33,1*77
$GBGSV,2,1,08,38,67,025,42,39,67,206,45,20,51,003,29,29,47,254,44,4*78
$GBGSV,2,2,08,37,33,092,43,46,26,157,18,32,20,062,44,35,17,311,33,4*7B
$GNGGA,094527.000,2500.7767719,N,12132.4601752,E,2,50,0.50,16.900,M,15.25,M,1,3335*4F
$GNRMC,094527.000,A,2500.7767719,N,12132.4601752,E,0.07,131.79,260623,,,D,V*02
$GPHDT,,T*1B
$GNGGA,094527.200,2500.7767599,N,12132.4601812,E,2,50,0.50,16.897,M,15.25,M,1,3335*43
$GNRMC,094527.200,A,2500.7767599,N,12132.4601812,E,0.07,131.79,260623,,,D,V*01
$GPHDT,,T*1B
$GNGGA,094527.400,2500.7767479,N,12132.4601872,E,2,50,0.50,16.869,M,15.25,M,1,3335*4D
$GNRMC,094527.400,A,2500.7767479,N,12132.4601872,E,0.07,131.79,260623,,,D,V*0E
$GPHDT,,T*1B
$GNGGA,094527.600,2500.7767479,N,12132.4601932,E,2,52,0.48,16.869,M,15.25,M,1,3335*41
$GNRMC,094527.600,A,2500.7767479,N,12132.4601932,E,0.07,131.79,260623,,,D,V*09
$GPHDT,,T*1B
$GNGGA,094527.800,2500.7767419,N,12132.4602052,E,2,52,0.48,16.843,M,15.25,M,0,3335*4C
$GNRMC,094527.800,A,2500.7767419,N,12132.4602052,E,0.07,131.79,260623,,,D,V*0D
$GPHDT,,T*1B
$GNGSA,A,3,196,15,199,05,13,18,29,20,23,11,194,,0.92,0.48,0.79,1*39
$GNGSA,A,3,84,85,69,79,80,,,,,,,,0.92,0.48,0.79,2*03
$GNGSA,A,3,08,15,13,03,34,,,,,,,,0.92,0.48,0.79,3*00
$GNGSA,A,3,39,38,16,06,13,20,29,37,19,46,32,35,0.92,0.48,0.79,4*0F
$GPGSV,4,1,14,196,72,047,41,15,62,344,36,199,60,167,34,195,52,174,17,1*51
$GPGSV,4,2,14,24,49,178,16,05,42,068,43,13,42,030,37,18,39,319,32,1*65
$GPGSV,4,3,14,41,38,242,36,29,27,232,41,20,25,095,38,23,17,307,26,1*64
$GPGSV,4,4,14,11,17,145,20,194,17,149,30,1*50
$GPGSV,2,1,08,196,72,047,44,199,60,167,43,195,52,174,13,24,49,178,26,8*55
$GPGSV,2,2,08,18,39,319,25,23,17,307,24,11,17,145,21,194,17,149,30,8*5F
$GLGSV,2,1,05,84,61,216,29,85,36,318,30,69,32,022,18,79,24,083,39,1*74
$GLGSV,2,2,05,80,19,138,32,1*46
$GAGSV,2,1,07,08,65,329,28,15,64,164,40,13,57,314,35,03,32,038,22,7*76
$GAGSV,2,2,07,07,31,255,24,34,13,150,21,26,05,324,,7*43
$GAGSV,2,1,05,08,65,329,39,15,64,164,44,13,57,314,38,03,32,038,34,1*7C
$GAGSV,2,2,05,34,13,150,17,1*47
$GBGSV,3,1,12,39,67,206,43,38,67,025,41,16,57,203,24,06,55,203,30,1*71
$GBGSV,3,2,12,13,51,342,26,20,51,003,28,29,47,254,46,37,33,092,45,1*7B
$GBGSV,3,3,12,19,32,297,24,46,26,157,33,32,20,062,44,35,17,311,32,1*76
$GBGSV,2,1,08,38,67,025,43,39,67,206,44,20,51,003,29,29,47,254,44,4*78
$GBGSV,2,2,08,37,33,092,43,46,26,157,17,32,20,062,44,35,17,311,33,4*74
$GNGGA,094528.000,2500.7767359,N,12132.4602112,E,2,52,0.48,16.850,M,15.25,M,1,3335*4E
$GNRMC,094528.000,A,2500.7767359,N,12132.4602112,E,0.07,131.79,260623,,,D,V*0C
$GPHDT,,T*1B
$GNGGA,094528.200,2500.7767299,N,12132.4602232,E,2,51,0.50,16.833,M,15.25,M,1,3335*4F
$GNRMC,094528.200,A,2500.7767299,N,12132.4602232,E,0.06,131.79,260623,,,D,V*03
$GPHDT,,T*1B
$GNGGA,094528.400,2500.7767239,N,12132.4602292,E,2,52,0.48,16.832,M,15.25,M,1,3335*42
$GNRMC,094528.400,A,2500.7767239,N,12132.4602292,E,0.06,131.79,260623,,,D,V*05
$GPHDT,,T*1B
$GNGGA,094528.600,2500.7767299,N,12132.4602412,E,2,52,0.48,16.830,M,15.25,M,1,3335*46
$GNRMC,094528.600,A,2500.7767299,N,12132.4602412,E,0.06,131.79,260623,,,D,V*03
$GPHDT,,T*1B
$GNGGA,094528.800,2500.7767239,N,12132.4602532,E,2,52,0.48,16.832,M,15.25,M,1,3335*43
$GNRMC,094528.800,A,2500.7767239,N,12132.4602532,E,0.06,131.79,260623,,,D,V*04
$GPHDT,,T*1B
$GNGSA,A,3,196,15,199,05,13,18,29,20,23,11,194,,0.92,0.48,0.79,1*39
$GNGSA,A,3,84,85,69,79,80,,,,,,,,0.92,0.48,0.79,2*03
$GNGSA,A,3,08,15,13,03,34,,,,,,,,0.92,0.48,0.79,3*00
$GNGSA,A,3,38,39,16,06,13,20,29,37,19,46,32,35,0.92,0.48,0.79,4*0F
$GPGSV,4,1,14,196,72,047,41,15,62,344,37,199,60,167,34,195,52,174,17,1*50
$GPGSV,4,2,14,24,49,178,15,05,42,069,43,13,42,030,34,18,39,319,33,1*65
$GPGSV,4,3,14,41,38,242,36,29,27,232,42,20,25,095,39,23,17,307,24,1*64
$GPGSV,4,4,14,11,17,145,15,194,17,149,27,1*50
$GPGSV,2,1,07,196,72,047,44,199,60,167,44,24,49,178,25,18,39,319,29,8*67
$GPGSV,2,2,07,23,17,307,26,11,17,145,21,194,17,149,31,8*6C
$GLGSV,2,1,06,84,61,216,27,85,36,318,29,69,32,022,19,79,24,083,39,1*70
$GLGSV,2,2,06,80,19,138,29,71,04,264,,1*7D
$GAGSV,2,1,07,08,65,329,36,15,64,164,40,13,57,314,36,03,32,038,23,7*7B
$GAGSV,2,2,07,07,31,255,24,34,13,150,19,26,05,324,,7*48
$GAGSV,2,1,05,08,65,329,42,15,64,164,44,13,57,314,42,03,32,038,35,1*7C
$GAGSV,2,2,05,34,13,150,17,1*47
$GBGSV,3,1,12,38,67,025,41,39,67,206,44,16,57,203,24,06,55,203,31,1*77
$GBGSV,3,2,12,13,51,342,26,20,51,003,27,29,47,254,46,37,33,092,45,1*74
$GBGSV,3,3,12,19,32,297,22,46,26,157,27,32,20,062,44,35,17,311,31,1*76
$GBGSV,2,1,08,38,67,025,45,39,67,206,44,20,51,003,28,29,47,254,44,4*7F
$GBGSV,2,2,08,37,33,092,43,46,26,157,19,32,20,062,44,35,17,311,34,4*7D
$GNGGA,094529.000,2500.7767239,N,12132.4602652,E,2,52,0.48,16.829,M,15.25,M,2,3335*46
$GNRMC,094529.000,A,2500.7767239,N,12132.4602652,E,0.06,131.79,260623,,,D,V*08
$GPHDT,,T*1B
$GNGGA,094529.200,2500.7767299,N,12132.4602712,E,2,52,0.48,16.828,M,15.25,M,1,3335*49
$GNRMC,094529.200,A,2500.7767299,N,12132.4602712,E,0.06,131.79,260623,,,D,V*05
$GPHDT,,T*1B
$GNGGA,094529.400,2500.7767299,N,12132.4602832,E,2,51,0.48,16.837,M,15.25,M,1,3335*4F
$GNRMC,094529.400,A,2500.7767299,N,12132.4602832,E,0.05,131.79,260623,,,D,V*0D
$GPHDT,,T*1B
$GNGGA,094529.600,2500.7767299,N,12132.4602952,E,2,50,0.50,16.833,M,15.25,M,1,3335*46
$GNRMC,094529.600,A,2500.7767299,N,12132.4602952,E,0.05,131.79,260623,,,D,V*08
$GPHDT,,T*1B
$GNGGA,094529.800,2500.7767299,N,12132.4603072,E,2,50,0.50,16.835,M,15.25,M,1,3335*44
$GNRMC,094529.800,A,2500.7767299,N,12132.4603072,E,0.05,131.79,260623,,,D,V*0C
$GPHDT,,T*1B
$GNGSA,A,3,196,15,199,05,13,18,29,20,23,11,194,,0.94,0.50,0.80,1*30
$GNGSA,A,3,84,85,69,79,80,,,,,,,,0.94,0.50,0.80,2*0A
$GNGSA,A,3,08,15,13,03,34,,,,,,,,0.94,0.50,0.80,3*09
$GNGSA,A,3,38,39,16,06,20,13,29,37,32,35,46,,0.94,0.50,0.80,4*0E
$GPGSV,4,1,14,196,72,047,41,15,62,344,37,199,60,167,34,195,52,174,15,1*52
$GPGSV,4,2,14,24,49,178,16,05,42,069,43,13,42,030,32,18,39,319,33,1*60
$GPGSV,4,3,14,41,38,242,36,29,27,232,42,20,25,095,40,23,17,307,23,1*6D
$GPGSV,4,4,14,11,17,145,12,194,17,149,28,1*58
$GPGSV,2,1,07,196,72,047,44,199,60,167,44,24,49,178,25,18,39,319,28,8*66
$GPGSV,2,2,07,23,17,307,26,11,17,145,21,194,17,149,31,8*6C
$GLGSV,2,1,07,84,61,216,26,85,36,318,29,69,32,022,21,79,24,083,39,1*7B
$GLGSV,2,2,07,80,19,138,29,78,05,037,,71,04,264,,1*42
$GAGSV,3,1,09,08,65,329,36,15,64,164,40,13,57,314,37,03,32,038,23,7*75
$GAGSV,3,2,09,07,31,255,24,34,13,150,19,26,05,324,,30,02,169,,7*78
$GAGSV,3,3,09,25,02,076,,7*4E
$GAGSV,2,1,05,08,65,329,42,15,64,164,44,13,57,314,42,03,32,038,35,1*7C
$GAGSV,2,2,05,34,13,150,12,1*42
$GBGSV,4,1,13,38,67,025,41,39,67,206,44,16,57,203,25,06,55,203,31,1*70
$GBGSV,4,2,13,20,51,003,29,13,51,342,26,29,47,254,46,37,33,092,45,1*7C
$GBGSV,4,3,13,19,32,297,21,46,26,157,,32,20,062,44,35,17,311,31,1*76
$GBGSV,4,4,13,23,07,047,,1*41
$GBGSV,2,1,08,38,67,025,45,39,67,206,44,20,51,003,28,29,47,254,44,4*7F
$GBGSV,2,2,08,37,33,092,42,46,26,157,21,32,20,062,44,35,17,311,33,4*70
$GNGGA,094530.000,2500.7767359,N,12132.4603132,E,2,50,0.50,16.830,M,15.25,M,2,3335*4A
$GNRMC,094530.000,A,2500.7767359,N,12132.4603132,E,0.05,131.79,260623,,,D,V*04
$PAIR010,0,1,2268,121548*3F
$GPHDT,,T*1B
$GNGGA,094530.200,2500.7767419,N,12132.4603192,E,2,48,0.50,16.830,M,15.25,M,2,3335*48
$GNRMC,094530.200,A,2500.7767419,N,12132.4603192,E,0.05,131.79,260623,,,D,V*0F
$GPHDT,,T*1B
$GNGGA,094530.400,2500.7767419,N,12132.4603252,E,2,49,0.48,16.835,M,15.25,M,2,3335*4C
$GNRMC,094530.400,A,2500.7767419,N,12132.4603252,E,0.05,131.79,260623,,,D,V*06
$GPHDT,,T*1B
$GNGGA,094530.600,2500.7767419,N,12132.4603192,E,2,48,0.50,16.828,M,15.25,M,2,3335*45
$GNRMC,094530.600,A,2500.7767419,N,12132.4603192,E,0.04,131.79,260623,,,D,V*0A
$GPHDT,,T*1B
$GNGGA,094530.800,2500.7767419,N,12132.4603252,E,2,51,0.48,16.829,M,15.25,M,2,3335*44
$GNRMC,094530.800,A,2500.7767419,N,12132.4603252,E,0.09,131.79,260623,,,D,V*06
$GPHDT,,T*1B
$GNGSA,A,3,196,15,199,24,05,13,18,29,20,23,194,11,0.93,0.50,0.79,1*37
$GNGSA,A,3,84,85,69,79,80,,,,,,,,0.93,0.50,0.79,2*0B
$GNGSA,A,3,08,15,13,03,34,,,,,,,,0.93,0.50,0.79,3*08
$GNGSA,A,3,38,39,16,06,20,13,29,37,32,35,46,,0.93,0.50,0.79,4*0F
$GPGSV,4,1,14,196,72,047,41,15,62,345,36,199,60,167,34,195,52,174,17,1*50
$GPGSV,4,2,14,24,49,178,16,05,42,069,43,13,42,030,32,18,39,319,33,1*60
$GPGSV,4,3,14,41,38,242,36,29,27,232,42,20,25,095,40,23,17,307,22,1*6C
$GPGSV,4,4,14,11,17,145,16,194,17,149,30,1*55
$GPGSV,2,1,07,196,72,047,44,199,60,167,44,24,49,178,25,18,39,319,27,8*69
$GPGSV,2,2,07,23,17,307,26,11,17,145,20,194,17,149,31,8*6D
$GLGSV,2,1,05,84,61,216,26,85,36,318,29,69,32,022,23,79,24,083,40,1*75
$GLGSV,2,2,05,80,19,138,29,1*4C
$GAGSV,3,1,09,08,65,329,36,15,64,164,40,13,57,314,37,03,32,038,22,7*74
$GAGSV,3,2,09,07,31,255,25,34,13,150,17,26,05,324,,25,02,076,,7*7C
$GAGSV,3,3,09,30,02,169,,7*45
$GAGSV,1,1,04,08,65,329,42,15,64,164,43,13,57,314,42,03,32,038,35,1*79
$GBGSV,4,1,13,38,67,025,41,39,67,206,44,16,57,203,25,06,55,203,31,1*70
$GBGSV,4,2,13,20,51,003,29,13,51,342,26,29,47,254,46,37,33,092,45,1*7C
$GBGSV,4,3,13,19,32,297,21,46,26,157,,32,20,062,43,35,17,311,30,1*70
$GBGSV,4,4,13,23,07,047,,1*41
$GBGSV,2,1,08,38,67,025,45,39,67,206,44,20,51,003,29,29,47,254,44,4*7E
$GBGSV,2,2,08,37,33,092,42,46,26,157,21,32,20,062,44,35,17,311,33,4*70
$GNGGA,094531.000,2500.7767359,N,12132.4603252,E,2,50,0.50,16.831,M,15.25,M,3,3335*4E
$GNRMC,094531.000,A,2500.7767359,N,12132.4603252,E,0.05,131.79,260623,,,D,V*00
$GPHDT,,T*1B
$GNGGA,094531.200,2500.7767359,N,12132.4603252,E,2,51,0.48,16.835,M,15.25,M,3,3335*40
$GNRMC,094531.200,A,2500.7767359,N,12132.4603252,E,0.02,131.79,260623,,,D,V*05
$GPHDT,,T*1B
$GNGGA,094531.400,2500.7767359,N,12132.4603252,E,2,51,0.48,16.838,M,15.25,M,3,3335*4B
$GNRMC,094531.400,A,2500.7767359,N,12132.4603252,E,0.03,131.79,260623,,,D,V*02
$GPHDT,,T*1B
$GNGGA,094531.600,2500.7767359,N,12132.4603252,E,2,51,0.48,16.842,M,15.25,M,3,3335*44
$GNRMC,094531.600,A,2500.7767359,N,12132.4603252,E,0.05,131.79,260623,,,D,V*06
$GPHDT,,T*1B
$GNGGA,094531.800,2500.7767359,N,12132.4603252,E,2,51,0.48,16.846,M,15.25,M,3,3335*4E
$GNRMC,094531.800,A,2500.7767359,N,12132.4603252,E,0.14,131.79,260623,,,D,V*08
$GPHDT,,T*1B
$GNGSA,A,3,196,15,199,24,05,13,18,29,20,23,194,11,0.92,0.48,0.78,1*3E
$GNGSA,A,3,84,85,69,79,80,,,,,,,,0.92,0.48,0.78,2*02
$GNGSA,A,3,08,15,13,03,34,,,,,,,,0.92,0.48,0.78,3*01
$GNGSA,A,3,38,39,16,06,20,13,29,37,19,32,35,46,0.92,0.48,0.78,4*0E
$GPGSV,4,1,14,196,72,047,41,15,62,345,36,199,60,167,34,195,52,174,17,1*50
$GPGSV,4,2,14,24,49,178,18,05,42,069,43,13,42,030,33,18,39,319,33,1*6F
$GPGSV,4,3,14,41,38,242,36,29,27,232,42,20,25,095,40,23,17,307,21,1*6F
$GPGSV,4,4,14,11,17,145,18,194,17,149,29,1*53
$GPGSV,2,1,07,196,72,047,44,199,60,167,44,24,49,178,23,18,39,319,27,8*6F
$GPGSV,2,2,07,23,17,307,26,11,17,145,20,194,17,149,31,8*6D
$GLGSV,2,1,05,84,61,216,26,85,36,318,30,69,32,022,28,79,24,083,41,1*77
$GLGSV,2,2,05,80,19,138,31,1*45
$GAGSV,3,1,09,08,65,329,31,15,64,164,40,13,57,314,37,03,32,038,19,7*7B
$GAGSV,3,2,09,07,31,255,24,34,13,150,17,26,05,324,,25,02,076,,7*7D
$GAGSV,3,3,09,30,02,169,,7*45
$GAGSV,1,1,04,08,65,329,41,15,64,164,43,13,57,314,41,03,32,038,36,1*7A
$GBGSV,4,1,13,38,67,025,41,39,67,206,44,16,57,203,24,06,55,203,31,1*71
$GBGSV,4,2,13,20,51,003,30,13,51,342,28,29,47,254,46,37,33,092,44,1*7B
$GBGSV,4,3,13,19,32,297,21,46,26,157,,32,20,062,43,35,17,311,32,1*72
$GBGSV,4,4,13,23,07,047,,1*41
$GBGSV,2,1,08,38,67,025,45,39,67,206,44,20,51,003,30,29,47,254,44,4*76
$GBGSV,2,2,08,37,33,092,43,46,26,157,20,32,20,062,44,35,17,311,34,4*77
$GNGGA,094532.000,2500.7767359,N,12132.4603252,E,2,51,0.48,16.852,M,15.25,M,4,3335*47
$GNRMC,094532.000,A,2500.7767359,N,12132.4603252,E,0.09,131.79,260623,,,D,V*0F
$GPHDT,,T*1B
$GNGGA,094532.200,2500.7767419,N,12132.4603252,E,2,51,0.48,16.856,M,15.25,M,2,3335*44
$GNRMC,094532.200,A,2500.7767419,N,12132.4603252,E,0.08,131.79,260623,,,D,V*0F
$GPHDT,,T*1B
$GNGGA,094532.400,2500.7767479,N,12132.4603252,E,2,51,0.48,16.854,M,15.25,M,2,3335*46
$GNRMC,094532.400,A,2500.7767479,N,12132.4603252,E,0.07,131.79,260623,,,D,V*00
$GPHDT,,T*1B
$GNGGA,094532.600,2500.7767539,N,12132.4603252,E,2,51,0.48,16.858,M,15.25,M,0,3335*4F
$GNRMC,094532.600,A,2500.7767539,N,12132.4603252,E,0.07,131.79,260623,,,D,V*07
$GPHDT,,T*1B
$GNGGA,094532.800,2500.7767539,N,12132.4603252,E,2,52,0.48,16.858,M,15.25,M,0,3335*42
$GNRMC,094532.800,A,2500.7767539,N,12132.4603252,E,0.06,131.79,260623,,,D,V*08
