$FW : RTK35X,V1.1X0314AS,Lib20210517,1*54
$Tool : LOCOSYS , GNSS Firebird , v1.0.0.19*39
$---------------------------------------------------*2D
$GNGGA,094314.200,2500.7806300,N,12132.4609400,E,2,49,0.52,26.64,M,15.25,M,1,3335*71
$GNRMC,094314.200,A,2500.7806300,N,12132.4609400,E,0.22,111.32,260623,,,D,V*04
$GPHDT,,T*1B
$GNGGA,094314.400,2500.7806100,N,12132.4609400,E,2,49,0.52,26.66,M,15.25,M,1,3335*77
$GNRMC,094314.400,A,2500.7806100,N,12132.4609400,E,0.14,111.32,260623,,,D,V*05
$GPHDT,,T*1B
$GNGGA,094314.600,2500.7806100,N,12132.4609400,E,2,49,0.52,26.66,M,15.25,M,0,3335*74
$GNRMC,094314.600,A,2500.7806100,N,12132.4609400,E,0.02,111.32,260623,,,D,V*00
$GPHDT,,T*1B
$GNGGA,094314.800,2500.7806100,N,12132.4609400,E,2,49,0.52,26.68,M,15.25,M,0,3335*74
$GNRMC,094314.800,A,2500.7806100,N,12132.4609400,E,0.11,111.32,260623,,,D,V*0C
$GPHDT,,T*1B
$GNGSA,A,3,196,15,199,13,05,18,29,20,11,194,,,0.99,0.52,0.85,1*3B
$GNGSA,A,3,84,85,69,79,80,,,,,,,,0.99,0.52,0.85,2*00
$GNGSA,A,3,15,08,13,03,34,,,,,,,,0.99,0.52,0.85,3*03
$GNGSA,A,3,39,38,16,20,13,29,37,19,46,32,35,,0.99,0.52,0.85,4*0A
$GPGSV,4,1,13,196,72,047,37,15,62,342,40,199,60,167,32,195,53,173,16,1*51
$GPGSV,4,2,13,13,43,030,48,05,42,067,38,18,38,319,29,41,38,242,35,1*6D
$GPGSV,4,3,13,29,28,233,41,20,26,094,41,11,18,145,28,194,16,150,29,1*5E
$GPGSV,4,4,13,24,,,24,1*66
$GPGSV,2,1,06,196,72,047,44,199,60,167,43,195,53,173,16,18,38,319,28,8*5A
$GPGSV,2,2,06,11,18,145,29,194,16,150,21,8*55
$GLGSV,2,1,06,84,62,218,26,85,35,319,21,69,32,021,29,79,24,084,40,1*7F
$GLGSV,2,2,06,80,18,139,18,71,04,263,,1*78
$GAGSV,2,1,07,15,65,163,39,08,65,327,39,13,56,315,35,03,33,037,33,7*7E
$GAGSV,2,2,07,07,31,254,20,34,14,149,23,02,07,122,,7*4B
$GAGSV,2,1,06,08,65,327,43,15,65,163,43,13,56,315,42,03,33,037,39,1*73
$GAGSV,2,2,06,07,31,254,24,34,14,149,13,1*7F
$GBGSV,3,1,12,39,67,205,42,38,67,025,40,16,57,202,32,06,55,203,25,1*70
$GBGSV,3,2,12,20,51,002,40,13,51,342,21,29,48,255,47,37,32,093,44,1*7D
$GBGSV,3,3,12,19,32,296,25,46,26,158,31,32,20,061,34,35,17,312,27,1*78
$GBGSV,3,1,09,38,67,025,43,39,67,205,43,20,51,002,26,29,48,255,43,4*7B
$GBGSV,3,2,09,19,32,296,23,37,32,093,44,46,26,158,24,32,20,061,37,4*7D
$GBGSV,3,3,09,35,17,312,35,4*4C
$GNGGA,094315.000,2500.7806100,N,12132.4609400,E,2,50,0.52,26.69,M,15.25,M,1,3335*75
$GNRMC,094315.000,A,2500.7806100,N,12132.4609400,E,0.19,111.32,260623,,,D,V*0D
$GPHDT,,T*1B
$GNGGA,094315.200,2500.7806000,N,12132.4609500,E,2,50,0.52,26.71,M,15.25,M,1,3335*7E
$GNRMC,094315.200,A,2500.7806000,N,12132.4609500,E,0.10,111.32,260623,,,D,V*06
$GPHDT,,T*1B
$GNGGA,094315.400,2500.7806000,N,12132.4609500,E,2,49,0.52,26.73,M,15.25,M,1,3335*72
$GNRMC,094315.400,A,2500.7806000,N,12132.4609500,E,0.07,111.32,260623,,,D,V*06
$GPHDT,,T*1B
$GNGGA,094315.600,2500.7806000,N,12132.4609500,E,2,49,0.52,26.74,M,15.25,M,0,3335*76
$GNRMC,094315.600,A,2500.7806000,N,12132.4609500,E,0.08,111.32,260623,,,D,V*0B
$GPHDT,,T*1B
$GNGGA,094315.800,2500.7806000,N,12132.4609500,E,2,49,0.52,26.75,M,15.25,M,0,3335*79
$GNRMC,094315.800,A,2500.7806000,N,12132.4609500,E,0.09,111.32,260623,,,D,V*04
$GPHDT,,T*1B
$GNGSA,A,3,196,15,199,13,05,18,29,20,11,194,,,0.99,0.52,0.85,1*3B
$GNGSA,A,3,84,85,69,79,80,,,,,,,,0.99,0.52,0.85,2*00
$GNGSA,A,3,08,15,13,03,34,,,,,,,,0.99,0.52,0.85,3*03
$GNGSA,A,3,38,39,16,13,20,29,37,19,46,32,35,,0.99,0.52,0.85,4*0A
$GPGSV,4,1,13,196,72,047,41,15,62,342,40,199,60,167,33,195,53,173,16,1*51
$GPGSV,4,2,13,13,43,030,46,05,42,067,47,18,38,319,29,41,38,242,35,1*6B
$GPGSV,4,3,13,29,28,233,41,20,26,094,32,11,18,145,30,194,16,150,29,1*53
$GPGSV,4,4,13,24,,,24,1*66
$GPGSV,2,1,07,196,72,047,47,199,60,167,43,195,53,173,17,18,38,319,27,8*56
$GPGSV,2,2,07,11,18,145,27,194,16,150,21,24,,,25,8*5B
$GLGSV,2,1,07,84,62,218,25,85,35,319,18,69,32,021,28,79,24,084,38,1*79
$GLGSV,2,2,07,80,18,139,18,78,05,037,,71,04,263,,1*47
$GAGSV,2,1,07,08,65,327,38,15,65,163,40,13,56,315,35,03,33,037,34,7*76
$GAGSV,2,2,07,07,31,254,22,34,14,149,24,02,07,122,,7*4E
$GAGSV,2,1,05,15,65,163,43,08,65,327,43,13,56,315,41,03,33,037,41,1*7C
$GAGSV,2,2,05,07,31,254,23,1*47
$GBGSV,4,1,13,38,67,025,43,39,67,205,42,16,57,202,33,06,55,203,26,1*77
$GBGSV,4,2,13,13,51,342,22,20,51,002,40,29,48,255,47,37,32,093,38,1*73
$GBGSV,4,3,13,19,32,296,24,46,26,158,26,32,20,061,39,35,17,312,26,1*75
$GBGSV,4,4,13,23,07,047,,1*41
$GBGSV,3,1,09,38,67,025,46,39,67,205,43,20,51,002,25,29,48,255,43,4*7D
$GBGSV,3,2,09,37,32,093,40,19,32,296,21,46,26,158,26,32,20,061,42,4*7B
$GBGSV,3,3,09,35,17,312,35,4*4C
$GNGGA,094316.000,2500.7805900,N,12132.4609500,E,2,49,0.52,26.77,M,15.25,M,1,3335*7B
$GNRMC,094316.000,A,2500.7805900,N,12132.4609500,E,0.03,111.32,260623,,,D,V*0F
$GPHDT,,T*1B
$GNGGA,094316.200,2500.7805900,N,12132.4609500,E,2,49,0.52,26.79,M,15.25,M,1,3335*77
$GNRMC,094316.200,A,2500.7805900,N,12132.4609500,E,0.02,111.32,260623,,,D,V*0C
$GPHDT,,T*1B
$GNGGA,094316.400,2500.7805900,N,12132.4609500,E,2,49,0.52,26.81,M,15.25,M,1,3335*76
$GNRMC,094316.400,A,2500.7805900,N,12132.4609500,E,0.19,111.32,260623,,,D,V*00
$GPHDT,,T*1B
$GNGGA,094316.600,2500.7805900,N,12132.4609500,E,2,49,0.52,26.82,M,15.25,M,0,3335*76
$GNRMC,094316.600,A,2500.7805900,N,12132.4609500,E,0.06,111.32,260623,,,D,V*0C
$GPHDT,,T*1B
$GNGGA,094316.800,2500.7805900,N,12132.4609500,E,2,49,0.52,26.84,M,15.25,M,0,3335*7E
$GNRMC,094316.800,A,2500.7805900,N,12132.4609500,E,0.12,111.32,260623,,,D,V*07
$GPHDT,,T*1B
$GNGSA,A,3,196,15,199,13,05,18,29,20,11,194,,,0.99,0.52,0.85,1*3B
$GNGSA,A,3,84,85,69,79,80,,,,,,,,0.99,0.52,0.85,2*00
$GNGSA,A,3,08,15,13,03,34,,,,,,,,0.99,0.52,0.85,3*03
$GNGSA,A,3,39,38,16,20,13,29,19,37,46,32,35,,0.99,0.52,0.85,4*0A
$GPGSV,4,1,13,196,72,047,41,15,62,342,40,199,60,167,32,195,53,173,15,1*53
$GPGSV,4,2,13,13,43,030,45,05,42,067,46,18,38,319,27,41,38,242,35,1*67
$GPGSV,4,3,13,29,28,233,41,20,26,094,40,11,18,145,29,194,16,150,29,1*5E
$GPGSV,4,4,13,24,,,23,1*61
$GPGSV,2,1,07,196,72,047,47,199,60,167,43,195,53,173,16,18,38,319,27,8*57
$GPGSV,2,2,07,11,18,145,23,194,16,150,24,24,,,26,8*59
$GLGSV,2,1,05,84,62,218,26,85,35,319,18,69,32,021,27,79,24,084,42,1*7A
$GLGSV,2,2,05,80,18,139,18,1*4E
$GAGSV,2,1,08,08,65,327,38,15,65,163,39,13,56,315,35,03,33,037,32,7*71
$GAGSV,2,2,08,07,31,254,20,34,14,149,22,02,07,122,,25,02,077,,7*70
$GAGSV,2,1,05,15,65,163,44,08,65,327,43,13,56,315,41,03,33,037,41,1*7B
$GAGSV,2,2,05,07,31,254,24,1*40
$GBGSV,3,1,12,39,67,205,42,38,67,025,43,16,57,202,33,06,55,203,26,1*71
$GBGSV,3,2,12,20,51,002,40,13,51,342,23,29,48,255,47,19,32,296,23,1*75
$GBGSV,3,3,12,37,32,093,43,46,26,158,28,32,20,061,41,35,17,312,27,1*79
$GBGSV,3,1,09,38,67,025,46,39,67,205,43,20,51,002,27,29,48,255,43,4*7F
$GBGSV,3,2,09,37,32,093,44,19,32,296,20,46,26,158,25,32,20,061,43,4*7C
$GBGSV,3,3,09,35,17,312,36,4*4F
$GNGGA,094317.000,2500.7805900,N,12132.4609500,E,2,49,0.52,26.85,M,15.25,M,1,3335*77
$GNRMC,094317.000,A,2500.7805900,N,12132.4609500,E,0.07,111.32,260623,,,D,V*0A
$GPHDT,,T*1B
$GNGGA,094317.200,2500.7805800,N,12132.4609500,E,2,49,0.52,26.87,M,15.25,M,1,3335*76
$GNRMC,094317.200,A,2500.7805800,N,12132.4609500,E,0.05,111.32,260623,,,D,V*0B
$GPHDT,,T*1B
$GNGGA,094317.400,2500.7805800,N,12132.4609500,E,2,48,0.52,26.88,M,15.25,M,1,3335*7E
$GNRMC,094317.400,A,2500.7805800,N,12132.4609500,E,0.04,111.32,260623,,,D,V*0C
$GPHDT,,T*1B
$GNGGA,094317.600,2500.7805800,N,12132.4609600,E,2,48,0.52,26.89,M,15.25,M,0,3335*7F
$GNRMC,094317.600,A,2500.7805800,N,12132.4609600,E,0.04,111.32,260623,,,D,V*0D
$GPHDT,,T*1B
$GNGGA,094317.800,2500.7805800,N,12132.4609600,E,2,48,0.52,26.89,M,15.25,M,0,3335*71
$GNRMC,094317.800,A,2500.7805800,N,12132.4609600,E,0.05,111.32,260623,,,D,V*02
$GPHDT,,T*1B
$GNGSA,A,3,196,15,199,13,05,18,29,20,11,194,,,0.99,0.52,0.85,1*3B
$GNGSA,A,3,84,85,69,79,80,,,,,,,,0.99,0.52,0.85,2*00
$GNGSA,A,3,15,08,13,03,34,,,,,,,,0.99,0.52,0.85,3*03
$GNGSA,A,3,38,39,16,20,13,29,37,46,32,35,19,,0.99,0.52,0.85,4*0A
$GPGSV,4,1,13,196,72,047,41,15,62,342,40,199,60,167,32,195,53,173,15,1*53
$GPGSV,4,2,13,13,43,030,45,05,42,067,46,18,38,319,27,41,38,242,35,1*67
$GPGSV,4,3,13,29,28,233,41,20,26,094,41,11,18,145,29,194,16,150,30,1*57
$GPGSV,4,4,13,24,,,23,1*61
$GPGSV,2,1,07,196,72,047,47,199,60,167,43,195,53,173,16,18,38,319,25,8*55
$GPGSV,2,2,07,11,18,145,25,194,16,150,23,24,,,26,8*58
$GLGSV,2,1,06,84,62,218,25,85,35,319,17,70,34,302,,69,32,021,25,1*74
$GLGSV,2,2,06,79,24,084,42,80,18,139,19,1*7E
$GAGSV,3,1,09,15,65,163,38,08,65,327,38,13,56,315,35,03,33,037,34,7*76
$GAGSV,3,2,09,07,31,254,20,34,14,149,23,02,07,122,,30,02,169,,7*7B
$GAGSV,3,3,09,25,02,077,,7*4F
$GAGSV,2,1,05,15,65,163,44,08,65,327,43,13,56,315,41,03,33,037,40,1*7A
$GAGSV,2,2,05,07,31,254,24,1*40
$GBGSV,4,1,13,38,67,025,43,39,67,205,41,16,57,202,34,06,55,203,26,1*73
$GBGSV,4,2,13,20,51,002,40,13,51,342,23,29,48,255,47,09,38,205,,1*73
$GBGSV,4,3,13,37,32,093,46,19,32,296,21,46,26,158,31,32,20,061,40,1*71
$GBGSV,4,4,13,35,17,312,26,1*40
$GBGSV,3,1,09,38,67,025,46,39,67,205,43,20,51,002,24,29,48,255,43,4*7C
$GBGSV,3,2,09,37,32,093,47,19,32,296,22,46,26,158,24,32,20,061,43,4*7C
$GBGSV,3,3,09,35,17,312,36,4*4F
$GNGGA,094318.000,2500.7805800,N,12132.4609600,E,2,48,0.52,26.90,M,15.25,M,1,3335*7F
$GNRMC,094318.000,A,2500.7805800,N,12132.4609600,E,0.03,111.32,260623,,,D,V*03
$GPHDT,,T*1B
$GNGGA,094318.200,2500.7805800,N,12132.4609600,E,2,48,0.52,26.90,M,15.25,M,1,3335*7D
$GNRMC,094318.200,A,2500.7805800,N,12132.4609600,E,0.04,111.32,260623,,,D,V*06
$GPHDT,,T*1B
$GNGGA,094318.400,2500.7805800,N,12132.4609600,E,2,49,0.52,26.90,M,15.25,M,1,3335*7A
$GNRMC,094318.400,A,2500.7805800,N,12132.4609600,E,0.06,111.32,260623,,,D,V*02
$GPHDT,,T*1B
$GNGGA,094318.600,2500.7805800,N,12132.4609600,E,2,49,0.52,26.90,M,15.25,M,1,3335*78
$GNRMC,094318.600,A,2500.7805800,N,12132.4609600,E,0.02,111.32,260623,,,D,V*04
$GPHDT,,T*1B
$GNGGA,094318.800,2500.7805800,N,12132.4609600,E,2,48,0.52,26.90,M,15.25,M,1,3335*77
$GNRMC,094318.800,A,2500.7805800,N,12132.4609600,E,0.13,111.32,260623,,,D,V*0A
$GPHDT,,T*1B
$GNGSA,A,3,196,15,199,13,05,18,29,20,11,194,,,1.02,0.52,0.88,1*35
$GNGSA,A,3,84,85,69,79,80,,,,,,,,1.02,0.52,0.88,2*0E
$GNGSA,A,3,08,15,13,03,,,,,,,,,1.02,0.52,0.88,3*0A
$GNGSA,A,3,39,38,16,20,13,29,19,37,46,32,35,,1.02,0.52,0.88,4*04
$GPGSV,4,1,13,196,72,047,41,15,62,342,40,199,60,167,32,195,53,173,15,1*53
$GPGSV,4,2,13,13,43,030,45,05,42,067,45,18,38,319,28,41,38,242,35,1*6B
$GPGSV,4,3,13,29,28,233,41,20,26,094,39,11,18,145,27,194,16,150,28,1*5F
$GPGSV,4,4,13,24,,,21,1*63
$GPGSV,2,1,07,196,72,047,47,199,60,167,43,195,53,173,17,18,38,319,25,8*54
$GPGSV,2,2,07,11,18,145,24,194,16,150,23,24,,,24,8*5B
$GLGSV,2,1,05,84,62,218,25,85,35,319,17,69,32,021,21,79,24,084,42,1*70
$GLGSV,2,2,05,80,18,139,18,1*4E
$GAGSV,2,1,08,08,65,327,39,15,65,163,39,13,56,315,34,03,33,037,33,7*70
$GAGSV,2,2,08,07,31,254,20,34,14,149,23,25,02,077,,30,02,169,,7*7A
$GAGSV,2,1,05,15,65,163,44,08,65,327,43,13,56,315,41,03,33,037,40,1*7A
$GAGSV,2,2,05,07,31,254,24,1*40
$GBGSV,3,1,12,39,67,205,41,38,67,025,43,16,57,202,34,06,55,203,25,1*76
$GBGSV,3,2,12,20,51,002,40,13,51,342,24,29,48,255,47,19,32,296,23,1*72
$GBGSV,3,3,12,37,32,093,42,46,26,158,31,32,20,061,41,35,17,312,23,1*74
$GBGSV,3,1,09,38,67,025,46,39,67,205,43,20,51,002,26,29,48,255,43,4*7E
$GBGSV,3,2,09,37,32,093,45,19,32,296,21,46,26,158,25,32,20,061,43,4*7C
$GBGSV,3,3,09,35,17,312,36,4*4F
$GNGGA,094319.000,2500.7805800,N,12132.4609600,E,2,48,0.52,26.91,M,15.25,M,1,3335*7F
$GNRMC,094319.000,A,2500.7805800,N,12132.4609600,E,0.03,111.32,260623,,,D,V*02
$GPHDT,,T*1B
$GNGGA,094319.200,2500.7805700,N,12132.4609700,E,2,49,0.52,26.91,M,15.25,M,1,3335*72
$GNRMC,094319.200,A,2500.7805700,N,12132.4609700,E,0.05,111.32,260623,,,D,V*08
$GPHDT,,T*1B
$GNGGA,094319.400,2500.7805700,N,12132.4609700,E,2,49,0.52,26.91,M,15.25,M,1,3335*74
$GNRMC,094319.400,A,2500.7805700,N,12132.4609700,E,0.03,111.32,260623,,,D,V*08
$GPHDT,,T*1B
$GNGGA,094319.600,2500.7805700,N,12132.4609700,E,2,49,0.52,26.92,M,15.25,M,1,3335*75
$GNRMC,094319.600,A,2500.7805700,N,12132.4609700,E,0.04,111.32,260623,,,D,V*0D
$GPHDT,,T*1B
$GNGGA,094319.800,2500.7805700,N,12132.4609700,E,2,49,0.52,26.93,M,15.25,M,1,3335*7A
$GNRMC,094319.800,A,2500.7805700,N,12132.4609700,E,0.03,111.32,260623,,,D,V*04
$GPHDT,,T*1B
$GNGSA,A,3,196,15,199,13,05,18,29,20,11,194,,,0.99,0.52,0.85,1*3B
$GNGSA,A,3,84,85,69,79,80,,,,,,,,0.99,0.52,0.85,2*00
$GNGSA,A,3,08,15,13,03,34,,,,,,,,0.99,0.52,0.85,3*03
$GNGSA,A,3,39,38,16,20,13,29,19,37,46,32,35,,0.99,0.52,0.85,4*0A
$GPGSV,4,1,13,196,72,047,41,15,62,342,40,199,60,167,31,195,53,173,15,1*50
$GPGSV,4,2,13,13,43,030,45,05,42,067,46,18,38,319,29,41,38,242,35,1*69
$GPGSV,4,3,13,29,28,233,41,20,26,094,34,11,18,145,29,194,16,150,29,1*5D
$GPGSV,4,4,13,24,,,21,1*63
$GPGSV,2,1,07,196,72,047,47,199,60,167,43,195,53,173,16,18,38,319,25,8*55
$GPGSV,2,2,07,11,18,145,28,194,16,150,21,24,,,24,8*55
$GLGSV,2,1,05,84,62,218,25,85,35,319,17,69,32,021,19,79,24,084,37,1*79
$GLGSV,2,2,05,80,18,139,20,1*45
$GAGSV,2,1,08,08,65,327,39,15,65,163,39,13,56,315,34,03,33,037,34,7*77
$GAGSV,2,2,08,07,31,254,21,34,14,149,19,25,02,077,,30,02,169,,7*72
$GAGSV,2,1,05,15,65,163,44,08,65,327,43,13,56,315,41,03,33,037,40,1*7A
$GAGSV,2,2,05,07,31,254,24,1*40
$GBGSV,3,1,12,39,67,205,41,38,67,025,43,16,57,202,33,06,55,203,25,1*71
$GBGSV,3,2,12,20,51,002,40,13,51,342,25,29,48,255,47,19,32,296,23,1*73
$GBGSV,3,3,12,37,32,093,39,46,26,158,30,32,20,061,41,35,17,312,20,1*7A
$GBGSV,3,1,09,38,67,025,46,39,67,205,43,20,51,002,25,29,48,255,43,4*7D
$GBGSV,3,2,09,37,32,093,41,19,32,296,20,46,26,158,25,32,20,061,44,4*7E
$GBGSV,3,3,09,35,17,312,35,4*4C
$GNGGA,094320.000,2500.7805700,N,12132.4609700,E,2,49,0.52,26.93,M,15.25,M,2,3335*7B
$GNRMC,094320.000,A,2500.7805700,N,12132.4609700,E,0.05,111.32,260623,,,D,V*00
$GPHDT,,T*1B
$GNGGA,094320.200,2500.7805700,N,12132.4609700,E,2,48,0.52,26.94,M,15.25,M,2,3335*7F
$GNRMC,094320.200,A,2500.7805700,N,12132.4609700,E,0.03,111.32,260623,,,D,V*04
$GPHDT,,T*1B
$GNGGA,094320.400,2500.7805700,N,12132.4609700,E,2,48,0.52,26.94,M,15.25,M,2,3335*79
$GNRMC,094320.400,A,2500.7805700,N,12132.4609700,E,0.02,111.32,260623,,,D,V*03
$GPHDT,,T*1B
$GNGGA,094320.600,2500.7805700,N,12132.4609700,E,2,49,0.52,26.95,M,15.25,M,1,3335*78
$GNRMC,094320.600,A,2500.7805700,N,12132.4609700,E,0.02,111.32,260623,,,D,V*01
$GPHDT,,T*1B
$GNGGA,094320.800,2500.7805700,N,12132.4609700,E,2,49,0.52,26.95,M,15.25,M,1,3335*76
$GNRMC,094320.800,A,2500.7805700,N,12132.4609700,E,0.07,111.32,260623,,,D,V*0A
$GPHDT,,T*1B
$GNGSA,A,3,196,15,199,13,05,18,29,20,11,194,,,0.99,0.52,0.85,1*3B
$GNGSA,A,3,84,85,69,79,80,,,,,,,,0.99,0.52,0.85,2*00
$GNGSA,A,3,08,15,13,03,34,,,,,,,,0.99,0.52,0.85,3*03
$GNGSA,A,3,39,38,16,20,13,29,19,37,46,32,35,,0.99,0.52,0.85,4*0A
$GPGSV,4,1,13,196,72,047,41,15,62,342,40,199,60,167,31,195,53,173,16,1*53
$GPGSV,4,2,13,13,43,030,45,05,42,067,46,18,38,319,31,41,38,242,35,1*60
$GPGSV,4,3,13,29,28,233,40,20,26,094,33,11,18,145,29,194,16,150,29,1*5B
$GPGSV,4,4,13,24,,,22,1*60
$GPGSV,2,1,07,196,72,047,47,199,60,167,43,195,53,173,15,18,38,319,26,8*55
$GPGSV,2,2,07,11,18,145,29,194,16,150,23,24,,,25,8*57
$GLGSV,2,1,05,84,62,218,25,85,35,319,17,69,32,021,19,79,24,084,36,1*78
$GLGSV,2,2,05,80,18,139,22,1*47
$GAGSV,2,1,08,08,65,327,39,15,65,163,39,13,56,315,33,03,33,037,32,7*76
$GAGSV,2,2,08,07,31,254,20,34,14,149,,25,02,077,,30,02,169,,7*7B
$GAGSV,2,1,06,15,65,163,44,08,65,327,43,13,56,315,41,03,33,037,40,1*79
$GAGSV,2,2,06,07,31,254,25,34,14,149,21,1*7F
$GBGSV,3,1,12,39,67,205,41,38,67,025,43,16,57,202,33,06,55,203,24,1*70
$GBGSV,3,2,12,20,51,002,41,13,51,342,27,29,48,255,47,19,32,296,25,1*76
$GBGSV,3,3,12,37,32,093,39,46,26,158,30,32,20,061,41,35,17,312,19,1*70
$GBGSV,3,1,09,38,67,025,46,39,67,205,43,20,51,002,24,29,48,255,43,4*7C
$GBGSV,3,2,09,37,32,093,41,19,32,296,20,46,26,158,25,32,20,061,44,4*7E
$GBGSV,3,3,09,35,17,312,35,4*4C
$GNGGA,094321.000,2500.7805700,N,12132.4609700,E,2,49,0.52,26.96,M,15.25,M,2,3335*7F
$GNRMC,094321.000,A,2500.7805700,N,12132.4609700,E,0.03,111.32,260623,,,D,V*07
$GPHDT,,T*1B
$GNGGA,094321.200,2500.7805700,N,12132.4609700,E,2,49,0.52,26.96,M,15.25,M,2,3335*7D
$GNRMC,094321.200,A,2500.7805700,N,12132.4609700,E,0.04,111.32,260623,,,D,V*02
$GPHDT,,T*1B
$GNGGA,094321.400,2500.7805700,N,12132.4609700,E,2,49,0.52,26.97,M,15.25,M,2,3335*7A
$GNRMC,094321.400,A,2500.7805700,N,12132.4609700,E,0.04,111.32,260623,,,D,V*04
$GPHDT,,T*1B
$GNGGA,094321.600,2500.7805700,N,12132.4609700,E,2,49,0.52,26.98,M,15.25,M,2,3335*77
$GNRMC,094321.600,A,2500.7805700,N,12132.4609700,E,0.05,111.32,260623,,,D,V*07
$GPHDT,,T*1B
$GNGGA,094321.800,2500.7805700,N,12132.4609700,E,2,49,0.52,26.99,M,15.25,M,2,3335*78
$GNRMC,094321.800,A,2500.7805700,N,12132.4609700,E,0.04,111.32,260623,,,D,V*08
$GPHDT,,T*1B
$GNGSA,A,3,196,15,199,13,05,18,29,20,11,194,,,0.99,0.52,0.85,1*3B
$GNGSA,A,3,84,85,69,79,80,,,,,,,,0.99,0.52,0.85,2*00
$GNGSA,A,3,08,15,13,03,34,,,,,,,,0.99,0.52,0.85,3*03
$GNGSA,A,3,39,38,16,20,13,29,37,19,46,32,35,,0.99,0.52,0.85,4*0A
$GPGSV,4,1,13,196,72,047,41,15,62,343,40,199,60,167,33,195,53,173,15,1*53
$GPGSV,4,2,13,13,43,030,45,05,42,067,46,18,38,319,31,41,38,242,35,1*60
$GPGSV,4,3,13,29,28,233,40,20,26,094,33,11,18,145,29,194,16,150,30,1*53
$GPGSV,4,4,13,24,,,21,1*63
$GPGSV,2,1,06,196,72,047,47,199,60,167,43,18,38,319,26,11,18,145,30,8*64
$GPGSV,2,2,06,194,16,150,23,24,,,25,8*64
$GLGSV,2,1,06,84,62,218,25,85,35,319,15,69,32,021,23,79,24,084,37,1*71
$GLGSV,2,2,06,80,18,139,22,83,10,170,,1*78
$GAGSV,3,1,09,08,65,327,38,15,65,163,39,13,56,315,33,03,33,037,34,7*71
$GAGSV,3,2,09,07,31,254,19,34,14,149,,02,07,122,,30,02,169,,7*70
$GAGSV,3,3,09,25,02,077,,7*4F
$GAGSV,2,1,06,15,65,163,44,08,65,327,43,13,56,315,41,03,33,037,39,1*77
$GAGSV,2,2,06,07,31,254,24,34,14,149,20,1*7F
$GBGSV,4,1,16,39,67,205,41,38,67,025,44,16,57,202,33,06,55,203,24,1*74
$GBGSV,4,2,16,20,51,002,41,13,51,342,26,29,48,255,47,37,32,093,39,1*72
$GBGSV,4,3,16,19,32,296,25,46,26,158,30,32,20,061,41,31,20,194,,1*71
$GBGSV,4,4,16,35,17,312,18,10,10,213,,07,10,202,,40,05,195,,1*72
$GBGSV,3,1,09,38,67,025,46,39,67,205,43,20,51,002,23,29,48,255,43,4*7B
$GBGSV,3,2,09,37,32,093,41,19,32,296,20,46,26,158,25,32,20,061,44,4*7E
$GBGSV,3,3,09,35,17,312,35,4*4C
$GNGGA,094322.000,2500.7805700,N,12132.4609700,E,2,49,0.52,26.99,M,15.25,M,3,3335*72
$GNRMC,094322.000,A,2500.7805700,N,12132.4609700,E,0.01,111.32,260623,,,D,V*06
$GPHDT,,T*1B
$GNGGA,094322.200,2500.7805700,N,12132.4609700,E,2,49,0.52,27.00,M,15.25,M,3,3335*71
$GNRMC,094322.200,A,2500.7805700,N,12132.4609700,E,0.02,111.32,260623,,,D,V*07
$GPHDT,,T*1B
$GNGGA,094322.400,2500.7805700,N,12132.4609700,E,2,49,0.52,27.00,M,15.25,M,3,3335*77
$GNRMC,094322.400,A,2500.7805700,N,12132.4609700,E,0.02,111.32,260623,,,D,V*01
$GPHDT,,T*1B
$GNGGA,094322.600,2500.7805700,N,12132.4609700,E,2,48,0.52,27.01,M,15.25,M,3,3335*75
$GNRMC,094322.600,A,2500.7805700,N,12132.4609700,E,0.05,111.32,260623,,,D,V*04
$GPHDT,,T*1B
$GNGGA,094322.800,2500.7805700,N,12132.4609700,E,2,48,0.52,27.01,M,15.25,M,3,3335*7B
$GNRMC,094322.800,A,2500.7805700,N,12132.4609700,E,0.08,111.32,260623,,,D,V*07
$GPHDT,,T*1B
$GNGSA,A,3,196,15,199,13,05,18,29,20,11,194,,,0.99,0.52,0.85,1*3B
$GNGSA,A,3,84,85,69,79,80,,,,,,,,0.99,0.52,0.85,2*00
$GNGSA,A,3,08,15,13,03,34,,,,,,,,0.99,0.52,0.85,3*03
$GNGSA,A,3,38,39,16,13,20,29,37,19,46,32,35,,0.99,0.52,0.85,4*0A
$GPGSV,4,1,13,196,72,047,41,15,62,343,40,199,60,167,33,195,53,173,16,1*50
$GPGSV,4,2,13,13,43,030,44,05,42,067,42,18,38,319,31,41,38,242,35,1*65
$GPGSV,4,3,13,29,28,233,40,20,26,094,31,11,18,145,28,194,16,150,32,1*52
$GPGSV,4,4,13,24,,,18,1*69
$GPGSV,2,1,06,196,72,047,46,199,60,167,43,18,38,319,28,11,18,145,29,8*63
$GPGSV,2,2,06,194,16,150,20,24,,,25,8*67
$GLGSV,2,1,05,84,62,218,26,85,35,319,14,69,32,021,20,79,24,084,37,1*73
$GLGSV,2,2,05,80,18,139,20,1*45
$GAGSV,3,1,09,08,65,327,38,15,65,163,38,13,56,315,34,03,33,037,33,7*70
$GAGSV,3,2,09,07,31,254,18,34,14,149,18,02,07,122,,25,02,077,,7*72
$GAGSV,3,3,09,30,02,169,,7*45
$GAGSV,2,1,06,15,65,163,45,08,65,327,43,13,56,315,41,03,33,037,41,1*79
$GAGSV,2,2,06,07,31,254,24,34,14,149,20,1*7F
$GBGSV,3,1,12,38,67,025,44,39,67,205,41,16,57,202,34,06,55,203,24,1*70
$GBGSV,3,2,12,13,51,342,27,20,51,002,40,29,48,255,47,37,32,093,37,1*7F
$GBGSV,3,3,12,19,32,296,26,46,26,158,31,32,20,061,41,35,17,312,20,1*7E
$GBGSV,3,1,09,38,67,025,46,39,67,205,43,20,51,002,28,29,48,255,43,4*70
$GBGSV,3,2,09,37,32,093,42,19,32,296,20,46,26,158,24,32,20,061,43,4*7B
$GBGSV,3,3,09,35,17,312,36,4*4F
$GNGGA,094323.000,2500.7805700,N,12132.4609700,E,2,49,0.52,27.01,M,15.25,M,4,3335*74
$GNRMC,094323.000,A,2500.7805700,N,12132.4609700,E,0.05,111.32,260623,,,D,V*03
$GPHDT,,T*1B
$GNGGA,094323.200,2500.7805600,N,12132.4609700,E,2,50,0.52,27.01,M,15.25,M,4,3335*7F
$GNRMC,094323.200,A,2500.7805600,N,12132.4609700,E,0.04,111.32,260623,,,D,V*01
$GPHDT,,T*1B
$GNGGA,094323.400,2500.7805600,N,12132.4609700,E,2,50,0.52,27.02,M,15.25,M,1,3335*7F
$GNRMC,094323.400,A,2500.7805600,N,12132.4609700,E,0.02,111.32,260623,,,D,V*01
$GPHDT,,T*1B
$GNGGA,094323.600,2500.7805600,N,12132.4609700,E,2,50,0.52,27.02,M,15.25,M,0,3335*7C
$GNRMC,094323.600,A,2500.7805600,N,12132.4609700,E,0.07,111.32,260623,,,D,V*06
$GPHDT,,T*1B
$GNGGA,094323.800,2500.7805600,N,12132.4609700,E,2,49,0.52,27.02,M,15.25,M,0,3335*7A
$GNRMC,094323.800,A,2500.7805600,N,12132.4609700,E,0.04,111.32,260623,,,D,V*0B
$GPHDT,,T*1B
$GNGSA,A,3,196,15,199,13,05,18,29,20,11,194,,,0.99,0.52,0.85,1*3B
$GNGSA,A,3,84,85,69,79,80,,,,,,,,0.99,0.52,0.85,2*00
$GNGSA,A,3,08,15,13,03,34,,,,,,,,0.99,0.52,0.85,3*03
$GNGSA,A,3,38,39,16,13,20,29,37,19,46,32,35,,0.99,0.52,0.85,4*0A
$GPGSV,4,1,13,196,72,047,40,15,62,343,38,199,60,167,32,195,53,173,17,1*5E
$GPGSV,4,2,13,13,43,030,44,05,42,067,38,18,38,319,30,41,38,242,35,1*69
$GPGSV,4,3,13,29,27,233,40,20,26,094,44,11,18,145,29,194,16,150,33,1*5F
$GPGSV,4,4,13,24,,,17,1*66
$GPGSV,2,1,06,196,72,047,45,199,60,167,43,18,38,319,26,11,18,145,29,8*6E
$GPGSV,2,2,06,194,16,150,18,24,,,24,8*6D
$GLGSV,2,1,05,84,62,218,26,85,35,319,14,69,32,021,23,79,24,084,40,1*70
$GLGSV,2,2,05,80,18,139,21,1*44
$GAGSV,3,1,09,08,65,327,40,15,65,163,38,13,56,315,34,03,33,037,25,7*78
$GAGSV,3,2,09,07,31,254,16,34,14,149,18,02,07,122,,25,02,077,,7*7C
$GAGSV,3,3,09,30,02,169,,7*45
$GAGSV,2,1,06,15,65,163,44,08,65,327,42,13,56,315,41,03,33,037,39,1*76
$GAGSV,2,2,06,07,31,254,24,34,14,149,20,1*7F
$GBGSV,3,1,12,38,67,025,44,39,67,205,42,16,57,202,34,06,55,203,25,1*72
$GBGSV,3,2,12,13,51,342,23,20,51,002,40,29,48,255,47,37,32,093,47,1*7C
$GBGSV,3,3,12,19,32,296,26,46,26,158,31,32,20,061,31,35,17,312,19,1*73
$GBGSV,3,1,09,38,67,025,46,39,67,205,43,20,51,002,26,29,48,255,43,4*7E
$GBGSV,3,2,09,37,32,093,45,19,32,296,22,46,26,158,24,32,20,061,39,4*73
$GBGSV,3,3,09,35,17,312,36,4*4F
$GNGGA,094324.000,2500.7805600,N,12132.4609700,E,2,49,0.52,27.04,M,15.25,M,1,3335*72
$GNRMC,094324.000,A,2500.7805600,N,12132.4609700,E,0.08,111.32,260623,,,D,V*08
$GPHDT,,T*1B
$GNGGA,094324.200,2500.7805700,N,12132.4609700,E,2,50,0.52,27.05,M,15.25,M,1,3335*78
$GNRMC,094324.200,A,2500.7805700,N,12132.4609700,E,0.01,111.32,260623,,,D,V*02
$GPHDT,,T*1B
$GNGGA,094324.400,2500.7805700,N,12132.4609700,E,2,48,0.53,27.06,M,15.25,M,1,3335*75
$GNRMC,094324.400,A,2500.7805700,N,12132.4609700,E,0.07,111.32,260623,,,D,V*02
