$FW : RTK35X,V1.1X0314AS,Lib20210517,1*54
$Tool : LOCOSYS , GNSS Firebird , v1.0.0.19*39
$---------------------------------------------------*2D
$GNGSA,A,3,196,15,199,05,13,18,29,20,11,194,,,1.00,0.52,0.86,1*39
$GNGSA,A,3,84,85,69,79,80,,,,,,,,1.00,0.52,0.86,2*02
$GNGSA,A,3,08,15,13,03,34,,,,,,,,1.00,0.52,0.86,3*01
$GNGSA,A,3,39,38,16,13,20,29,37,46,32,35,19,,1.00,0.52,0.86,4*08
$GPGSV,4,1,14,196,72,047,41,15,62,344,42,199,60,167,34,195,53,173,23,1*53
$GPGSV,4,2,14,24,49,178,17,05,42,068,40,13,42,030,41,18,39,319,32,1*66
$GPGSV,4,3,14,41,38,242,38,29,27,232,41,20,25,095,36,23,17,307,27,1*65
$GPGSV,4,4,14,11,17,145,27,194,17,149,29,1*5F
$GPGSV,2,1,07,196,72,047,45,199,60,167,43,195,53,173,19,24,49,178,24,8*55
$GPGSV,2,2,07,23,17,307,28,11,17,145,24,194,17,149,29,8*6E
$GLGSV,2,1,05,84,62,217,31,85,36,319,31,69,32,022,28,79,24,083,39,1*7C
$GLGSV,2,2,05,80,18,139,17,1*41
$GAGSV,2,1,07,08,65,328,37,15,64,163,39,13,57,314,34,03,32,038,34,7*76
$GAGSV,2,2,07,07,31,255,,34,13,150,17,02,08,121,,7*4C
$GAGSV,2,1,05,08,65,328,45,15,64,163,43,13,57,314,42,03,32,038,37,1*78
$GAGSV,2,2,05,34,13,150,19,1*49
$GBGSV,3,1,12,39,67,206,44,38,67,025,42,16,57,203,24,06,55,203,28,1*7C
$GBGSV,3,2,12,13,51,342,25,20,51,003,21,29,47,254,46,19,32,296,21,1*78
$GBGSV,3,3,12,37,32,092,44,46,26,157,29,32,20,062,41,35,17,311,29,1*7F
$GBGSV,3,1,09,38,67,025,45,39,67,206,44,20,51,003,34,29,47,254,46,4*70
$GBGSV,3,2,09,19,32,296,10,37,32,092,44,46,26,157,25,32,20,062,40,4*71
$GBGSV,3,3,09,35,17,311,37,4*4D
$GNGGA,094500.000,2500.7773059,N,12132.4603312,E,2,48,0.52,16.697,M,15.25,M,5,3335*40
$GNRMC,094500.000,A,2500.7773059,N,12132.4603312,E,0.07,131.79,260623,,,D,V*03
$GPHDT,,T*1B
$GNGGA,094500.200,2500.7773059,N,12132.4603312,E,2,48,0.52,16.711,M,15.25,M,5,3335*4D
$GNRMC,094500.200,A,2500.7773059,N,12132.4603312,E,0.06,131.79,260623,,,D,V*00
$GPHDT,,T*1B
$GNGGA,094500.400,2500.7773059,N,12132.4603372,E,2,48,0.52,16.726,M,15.25,M,5,3335*49
$GNRMC,094500.400,A,2500.7773059,N,12132.4603372,E,0.07,131.79,260623,,,D,V*01
$GPHDT,,T*1B
$GNGGA,094500.600,2500.7773059,N,12132.4603372,E,2,48,0.52,16.739,M,15.25,M,5,3335*45
$GNRMC,094500.600,A,2500.7773059,N,12132.4603372,E,0.06,131.79,260623,,,D,V*02
$GPHDT,,T*1B
$GNGGA,094500.800,2500.7773059,N,12132.4603372,E,2,47,0.54,16.750,M,15.25,M,5,3335*4D
$GNRMC,094500.800,A,2500.7773059,N,12132.4603372,E,0.13,131.79,260623,,,D,V*08
$GPHDT,,T*1B
$GNGSA,A,3,196,15,199,05,13,18,29,20,11,194,,,1.03,0.54,0.88,1*32
$GNGSA,A,3,84,85,69,79,80,,,,,,,,1.03,0.54,0.88,2*09
$GNGSA,A,3,08,15,13,03,34,,,,,,,,1.03,0.54,0.88,3*0A
$GNGSA,A,3,39,38,16,13,20,29,37,46,32,35,,,1.03,0.54,0.88,4*0B
$GPGSV,4,1,14,196,72,047,41,15,62,344,42,199,60,167,34,195,53,173,23,1*53
$GPGSV,4,2,14,24,49,178,17,05,42,068,40,13,42,030,43,18,39,319,32,1*64
$GPGSV,4,3,14,41,38,242,37,29,27,232,41,20,25,095,36,23,17,307,27,1*6A
$GPGSV,4,4,14,11,17,145,28,194,17,149,30,1*58
$GPGSV,2,1,07,196,72,047,45,199,60,167,43,195,53,173,21,24,49,178,24,8*5E
$GPGSV,2,2,07,23,17,307,28,11,17,145,24,194,17,149,26,8*61
$GLGSV,2,1,05,84,62,217,31,85,36,319,31,69,32,022,27,79,24,083,39,1*73
$GLGSV,2,2,05,80,18,139,21,1*44
$GAGSV,2,1,07,08,65,328,37,15,64,163,38,13,57,314,34,03,32,038,35,7*76
$GAGSV,2,2,07,07,31,255,,34,13,150,17,02,08,121,,7*4C
$GAGSV,2,1,05,08,65,328,45,15,64,163,43,13,57,314,42,03,32,038,38,1*77
$GAGSV,2,2,05,34,13,150,19,1*49
$GBGSV,3,1,12,39,67,206,44,38,67,025,42,16,57,203,24,06,55,203,28,1*7C
$GBGSV,3,2,12,13,51,342,25,20,51,003,20,29,47,254,46,19,32,296,21,1*79
$GBGSV,3,3,12,37,32,092,44,46,26,157,30,32,20,062,41,35,17,311,31,1*7E
$GBGSV,2,1,08,38,67,025,46,39,67,206,44,20,51,003,34,29,47,254,46,4*73
$GBGSV,2,2,08,37,32,092,44,46,26,157,27,32,20,062,40,35,17,311,37,4*71
$GNGGA,094501.000,2500.7772999,N,12132.4603432,E,2,47,0.54,16.765,M,15.25,M,6,3335*46
$GNRMC,094501.000,A,2500.7772999,N,12132.4603432,E,0.06,131.79,260623,,,D,V*02
$GPHDT,,T*1B
$GNGGA,094501.200,2500.7772999,N,12132.4603432,E,2,47,0.54,16.781,M,15.25,M,6,3335*4E
$GNRMC,094501.200,A,2500.7772999,N,12132.4603432,E,0.07,131.79,260623,,,D,V*01
$GPHDT,,T*1B
$GNGGA,094501.400,2500.7772939,N,12132.4603432,E,2,47,0.54,16.801,M,15.25,M,5,3335*46
$GNRMC,094501.400,A,2500.7772939,N,12132.4603432,E,0.07,131.79,260623,,,D,V*0D
$GPHDT,,T*1B
$GNGGA,094501.600,2500.7772879,N,12132.4603432,E,2,47,0.54,16.820,M,15.25,M,5,3335*42
$GNRMC,094501.600,A,2500.7772879,N,12132.4603432,E,0.06,131.79,260623,,,D,V*0B
$GPHDT,,T*1B
$GNGGA,094501.800,2500.7772879,N,12132.4603432,E,2,47,0.54,16.838,M,15.25,M,3,3335*43
$GNRMC,094501.800,A,2500.7772879,N,12132.4603432,E,0.05,131.79,260623,,,D,V*06
$GPHDT,,T*1B
$GNGSA,A,3,196,15,199,05,13,18,29,20,11,194,,,1.03,0.54,0.88,1*32
$GNGSA,A,3,84,85,69,79,80,,,,,,,,1.03,0.54,0.88,2*09
$GNGSA,A,3,08,15,13,03,34,,,,,,,,1.03,0.54,0.88,3*0A
$GNGSA,A,3,39,38,16,13,20,29,37,46,32,35,,,1.03,0.54,0.88,4*0B
$GPGSV,4,1,14,196,72,047,41,15,62,344,42,199,60,167,34,195,53,173,21,1*51
$GPGSV,4,2,14,24,49,178,19,05,42,068,41,13,42,030,43,18,39,319,32,1*6B
$GPGSV,4,3,14,41,38,242,37,29,27,232,41,20,25,095,38,23,17,307,28,1*6B
$GPGSV,4,4,14,11,17,145,27,194,17,149,29,1*5F
$GPGSV,2,1,07,196,72,047,45,199,60,167,43,195,53,173,18,24,49,178,24,8*54
$GPGSV,2,2,07,23,17,307,26,11,17,145,24,194,17,149,28,8*61
$GLGSV,2,1,05,84,62,217,31,85,36,319,29,69,32,022,25,79,24,083,35,1*74
$GLGSV,2,2,05,80,18,139,21,1*44
$GAGSV,2,1,07,08,65,328,37,15,64,163,38,13,57,314,34,03,32,038,38,7*7B
$GAGSV,2,2,07,07,31,255,17,34,13,150,17,02,08,121,,7*4A
$GAGSV,2,1,05,08,65,328,45,15,64,163,43,13,57,314,42,03,32,038,39,1*76
$GAGSV,2,2,05,34,13,150,19,1*49
$GBGSV,3,1,12,39,67,206,44,38,67,025,42,16,57,203,27,06,55,203,28,1*7F
$GBGSV,3,2,12,13,51,342,26,20,51,003,19,29,47,254,46,19,32,296,21,1*70
$GBGSV,3,3,12,37,32,092,44,46,26,157,30,32,20,062,41,35,17,311,30,1*7F
$GBGSV,2,1,08,38,67,025,46,39,67,206,44,20,51,003,34,29,47,254,46,4*73
$GBGSV,2,2,08,37,32,092,44,46,26,157,27,32,20,062,40,35,17,311,37,4*71
$GNGGA,094502.000,2500.7772879,N,12132.4603432,E,2,47,0.54,16.851,M,15.25,M,2,3335*46
$GNRMC,094502.000,A,2500.7772879,N,12132.4603432,E,0.04,131.79,260623,,,D,V*0C
$GPHDT,,T*1B
$GNGGA,094502.200,2500.7772879,N,12132.4603432,E,2,47,0.54,16.859,M,15.25,M,2,3335*4C
$GNRMC,094502.200,A,2500.7772879,N,12132.4603432,E,0.04,131.79,260623,,,D,V*0E
$GPHDT,,T*1B
$GNGGA,094502.400,2500.7772819,N,12132.4603432,E,2,47,0.54,16.868,M,15.25,M,2,3335*4E
$GNRMC,094502.400,A,2500.7772819,N,12132.4603432,E,0.03,131.79,260623,,,D,V*09
$GPHDT,,T*1B
$GNGGA,094502.600,2500.7772819,N,12132.4603372,E,2,48,0.52,16.874,M,15.25,M,0,3335*49
$GNRMC,094502.600,A,2500.7772819,N,12132.4603372,E,0.02,131.79,260623,,,D,V*09
$GPHDT,,T*1B
$GNGGA,094502.800,2500.7772819,N,12132.4603372,E,2,48,0.52,16.888,M,15.25,M,0,3335*44
$GNRMC,094502.800,A,2500.7772819,N,12132.4603372,E,0.02,131.79,260623,,,D,V*07
$GPHDT,,T*1B
$GNGSA,A,3,196,15,199,05,13,18,29,20,11,194,,,1.00,0.52,0.86,1*39
$GNGSA,A,3,84,85,69,79,80,,,,,,,,1.00,0.52,0.86,2*02
$GNGSA,A,3,08,15,13,03,34,,,,,,,,1.00,0.52,0.86,3*01
$GNGSA,A,3,39,38,16,13,20,29,19,37,46,32,35,,1.00,0.52,0.86,4*08
$GPGSV,4,1,14,196,72,047,41,15,62,344,42,199,60,167,34,195,52,174,21,1*57
$GPGSV,4,2,14,24,49,178,19,05,42,068,42,13,42,030,43,18,39,319,32,1*68
$GPGSV,4,3,14,41,38,242,37,29,27,232,41,20,25,095,37,23,17,307,27,1*6B
$GPGSV,4,4,14,11,17,145,27,194,17,149,30,1*57
$GPGSV,2,1,07,196,72,047,46,199,60,167,43,195,52,174,17,24,49,178,24,8*5E
$GPGSV,2,2,07,23,17,307,27,11,17,145,25,194,17,149,29,8*60
$GLGSV,2,1,05,84,62,217,31,85,36,319,30,69,32,022,21,79,24,083,37,1*7A
$GLGSV,2,2,05,80,18,139,20,1*45
$GAGSV,2,1,07,08,65,328,37,15,64,163,38,13,57,314,34,03,32,038,38,7*7B
$GAGSV,2,2,07,07,31,255,17,34,13,150,18,02,08,121,,7*45
$GAGSV,2,1,05,08,65,328,44,15,64,163,43,13,57,314,42,03,32,038,41,1*78
$GAGSV,2,2,05,34,13,150,20,1*43
$GBGSV,3,1,12,39,67,206,44,38,67,025,41,16,57,203,26,06,55,203,28,1*7D
$GBGSV,3,2,12,13,51,342,27,20,51,003,24,29,47,254,46,19,32,296,23,1*7D
$GBGSV,3,3,12,37,32,092,44,46,26,157,33,32,20,062,41,35,17,311,30,1*7C
$GBGSV,2,1,08,38,67,025,46,39,67,206,44,20,51,003,33,29,47,254,46,4*74
$GBGSV,2,2,08,37,32,092,44,46,26,157,26,32,20,062,40,35,17,311,37,4*70
$GNGGA,094503.000,2500.7772759,N,12132.4603312,E,2,48,0.52,16.894,M,15.25,M,1,3335*4C
$GNRMC,094503.000,A,2500.7772759,N,12132.4603312,E,0.02,131.79,260623,,,D,V*03
$GPHDT,,T*1B
$GNGGA,094503.200,2500.7772759,N,12132.4603312,E,2,48,0.52,16.898,M,15.25,M,1,3335*42
$GNRMC,094503.200,A,2500.7772759,N,12132.4603312,E,0.02,131.79,260623,,,D,V*01
$GPHDT,,T*1B
$GNGGA,094503.400,2500.7772699,N,12132.4603252,E,2,48,0.52,16.898,M,15.25,M,1,3335*4C
$GNRMC,094503.400,A,2500.7772699,N,12132.4603252,E,0.01,131.79,260623,,,D,V*0C
$GPHDT,,T*1B
$GNGGA,094503.600,2500.7772639,N,12132.4603252,E,2,48,0.52,16.904,M,15.25,M,1,3335*40
$GNRMC,094503.600,A,2500.7772639,N,12132.4603252,E,0.02,131.79,260623,,,D,V*07
$GPHDT,,T*1B
$GNGGA,094503.800,2500.7772579,N,12132.4603192,E,2,48,0.52,16.909,M,15.25,M,1,3335*4B
$GNRMC,094503.800,A,2500.7772579,N,12132.4603192,E,0.02,131.79,260623,,,D,V*01
$GPHDT,,T*1B
$GNGSA,A,3,196,15,199,05,13,18,29,20,194,11,,,1.00,0.52,0.86,1*39
$GNGSA,A,3,84,85,69,79,80,,,,,,,,1.00,0.52,0.86,2*02
$GNGSA,A,3,08,15,13,03,34,,,,,,,,1.00,0.52,0.86,3*01
$GNGSA,A,3,38,39,16,13,20,29,19,37,46,32,35,,1.00,0.52,0.86,4*08
$GPGSV,4,1,14,196,72,047,41,15,62,344,42,199,60,167,34,195,52,174,19,1*5C
$GPGSV,4,2,14,24,49,178,18,05,42,068,43,13,42,030,43,18,39,319,32,1*68
$GPGSV,4,3,14,41,38,242,37,29,27,232,41,20,25,095,37,23,17,307,27,1*6B
$GPGSV,4,4,14,11,17,145,24,194,17,149,30,1*54
$GPGSV,2,1,07,196,72,047,46,199,60,167,43,24,49,178,24,18,39,319,28,8*62
$GPGSV,2,2,07,23,17,307,28,11,17,145,25,194,17,149,29,8*6F
$GLGSV,2,1,05,84,62,217,31,85,36,319,30,69,32,022,20,79,24,083,38,1*74
$GLGSV,2,2,05,80,18,139,21,1*44
$GAGSV,2,1,06,08,65,328,37,15,64,163,38,13,57,314,34,03,32,038,38,7*7A
$GAGSV,2,2,06,07,31,255,16,34,13,150,18,7*7D
$GAGSV,2,1,05,08,65,328,44,15,64,163,43,13,57,314,42,03,32,038,43,1*7A
$GAGSV,2,2,05,34,13,150,20,1*43
$GBGSV,3,1,12,38,67,025,41,39,67,206,44,16,57,203,27,06,55,203,29,1*7D
$GBGSV,3,2,12,13,51,342,27,20,51,003,23,29,47,254,46,19,32,296,23,1*7A
$GBGSV,3,3,12,37,32,092,44,46,26,157,33,32,20,062,41,35,17,311,30,1*7C
$GBGSV,2,1,08,38,67,025,46,39,67,206,44,20,51,003,34,29,47,254,46,4*73
$GBGSV,2,2,08,37,32,092,45,46,26,157,26,32,20,062,39,35,17,311,37,4*7F
$GNGGA,094504.000,2500.7772579,N,12132.4603132,E,2,48,0.52,16.919,M,15.25,M,2,3335*4C
$GNRMC,094504.000,A,2500.7772579,N,12132.4603132,E,0.02,131.79,260623,,,D,V*04
$GPHDT,,T*1B
$GNGGA,094504.200,2500.7772459,N,12132.4603132,E,2,48,0.52,16.920,M,15.25,M,2,3335*47
$GNRMC,094504.200,A,2500.7772459,N,12132.4603132,E,0.02,131.79,260623,,,D,V*05
$GPHDT,,T*1B
$GNGGA,094504.400,2500.7772459,N,12132.4603072,E,2,49,0.52,16.913,M,15.25,M,2,3335*45
$GNRMC,094504.400,A,2500.7772459,N,12132.4603072,E,0.01,131.79,260623,,,D,V*05
$GPHDT,,T*1B
$GNGGA,094504.600,2500.7772459,N,12132.4603012,E,2,49,0.52,16.906,M,15.25,M,2,3335*45
$GNRMC,094504.600,A,2500.7772459,N,12132.4603012,E,0.01,131.79,260623,,,D,V*01
$GPHDT,,T*1B
$GNGGA,094504.800,2500.7772339,N,12132.4602952,E,2,48,0.52,16.902,M,15.25,M,2,3335*43
$GNRMC,094504.800,A,2500.7772339,N,12132.4602952,E,0.01,131.79,260623,,,D,V*02
$GPHDT,,T*1B
$GNGSA,A,3,196,15,199,05,13,18,29,20,11,194,,,1.00,0.52,0.86,1*39
$GNGSA,A,3,84,85,69,79,80,,,,,,,,1.00,0.52,0.86,2*02
$GNGSA,A,3,08,15,13,03,34,,,,,,,,1.00,0.52,0.86,3*01
$GNGSA,A,3,38,39,16,13,20,29,19,37,46,32,35,,1.00,0.52,0.86,4*08
$GPGSV,4,1,14,196,72,047,41,15,62,344,42,199,60,167,34,195,52,174,19,1*5C
$GPGSV,4,2,14,24,49,178,17,05,42,068,45,13,42,030,43,18,39,319,32,1*61
$GPGSV,4,3,14,41,38,242,37,29,27,232,41,20,25,095,35,23,17,307,26,1*68
$GPGSV,4,4,14,11,17,145,23,194,17,149,28,1*5A
$GPGSV,2,1,07,196,72,047,46,199,60,167,43,24,49,178,23,18,39,319,25,8*68
$GPGSV,2,2,07,23,17,307,28,11,17,145,23,194,17,149,28,8*68
$GLGSV,2,1,05,84,62,217,31,85,36,319,29,69,32,022,22,79,24,083,37,1*71
$GLGSV,2,2,05,80,18,139,22,1*47
$GAGSV,2,1,06,08,65,329,37,15,64,163,38,13,57,314,34,03,32,038,38,7*7B
$GAGSV,2,2,06,07,31,255,16,34,13,150,16,7*73
$GAGSV,2,1,05,08,65,329,44,15,64,163,43,13,57,314,42,03,32,038,40,1*78
$GAGSV,2,2,05,34,13,150,20,1*43
$GBGSV,3,1,12,38,67,025,41,39,67,206,44,16,57,203,27,06,55,203,29,1*7D
$GBGSV,3,2,12,13,51,342,27,20,51,003,20,29,47,254,46,19,32,296,23,1*79
$GBGSV,3,3,12,37,32,092,44,46,26,157,33,32,20,062,41,35,17,311,30,1*7C
$GBGSV,2,1,08,38,67,025,46,39,67,206,44,20,51,003,33,29,47,254,46,4*74
$GBGSV,2,2,08,37,32,092,42,46,26,157,25,32,20,062,39,35,17,311,37,4*7B
$GNGGA,094505.000,2500.7772279,N,12132.4602892,E,2,49,0.52,16.901,M,15.25,M,3,3335*41
$GNRMC,094505.000,A,2500.7772279,N,12132.4602892,E,0.01,131.79,260623,,,D,V*03
$GPHDT,,T*1B
$GNGGA,094505.200,2500.7772219,N,12132.4602892,E,2,49,0.52,16.914,M,15.25,M,3,3335*41
$GNRMC,094505.200,A,2500.7772219,N,12132.4602892,E,0.01,131.79,260623,,,D,V*07
$GPHDT,,T*1B
$GNGGA,094505.400,2500.7772099,N,12132.4602832,E,2,48,0.52,16.911,M,15.25,M,3,3335*43
$GNRMC,094505.400,A,2500.7772099,N,12132.4602832,E,0.02,131.79,260623,,,D,V*02
$GPHDT,,T*1B
$GNGGA,094505.600,2500.7772039,N,12132.4602772,E,2,49,0.52,16.901,M,15.25,M,3,3335*40
$GNRMC,094505.600,A,2500.7772039,N,12132.4602772,E,0.01,131.79,260623,,,D,V*02
$GPHDT,,T*1B
$GNGGA,094505.800,2500.7771919,N,12132.4602652,E,2,49,0.52,16.897,M,15.25,M,3,3335*4B
$GNRMC,094505.800,A,2500.7771919,N,12132.4602652,E,0.02,131.79,260623,,,D,V*04
$GPHDT,,T*1B
$GNGSA,A,3,196,15,199,05,13,18,29,20,11,194,,,1.00,0.52,0.86,1*39
$GNGSA,A,3,84,85,69,79,80,,,,,,,,1.00,0.52,0.86,2*02
$GNGSA,A,3,08,15,13,03,34,,,,,,,,1.00,0.52,0.86,3*01
$GNGSA,A,3,38,39,16,13,20,29,19,37,46,32,35,,1.00,0.52,0.86,4*08
$GPGSV,4,1,14,196,72,047,41,15,62,344,42,199,60,167,34,195,52,174,19,1*5C
$GPGSV,4,2,14,24,49,178,15,05,42,068,46,13,42,030,43,18,39,319,32,1*60
$GPGSV,4,3,14,41,38,242,37,29,27,232,41,20,25,095,35,23,17,307,26,1*68
$GPGSV,4,4,14,11,17,145,23,194,17,149,26,1*54
$GPGSV,2,1,07,196,72,047,46,199,60,167,43,24,49,178,23,18,39,319,25,8*68
$GPGSV,2,2,07,23,17,307,28,11,17,145,24,194,17,149,28,8*6F
$GLGSV,2,1,05,84,62,217,31,85,36,319,29,69,32,022,22,79,24,083,37,1*71
$GLGSV,2,2,05,80,18,139,24,1*41
$GAGSV,2,1,06,08,65,329,37,15,64,163,38,13,57,314,34,03,32,038,36,7*75
$GAGSV,2,2,06,07,31,255,15,34,13,150,14,7*72
$GAGSV,2,1,05,08,65,329,44,15,64,163,43,13,57,314,42,03,32,038,39,1*76
$GAGSV,2,2,05,34,13,150,20,1*43
$GBGSV,3,1,12,38,67,025,41,39,67,206,44,16,57,203,28,06,55,203,29,1*72
$GBGSV,3,2,12,13,51,342,27,20,51,003,20,29,47,254,46,19,32,296,24,1*7E
$GBGSV,3,3,12,37,32,092,44,46,26,157,33,32,20,062,41,35,17,311,30,1*7C
$GBGSV,2,1,08,38,67,025,46,39,67,206,44,20,51,003,33,29,47,254,46,4*74
$GBGSV,2,2,08,37,32,092,42,46,26,157,25,32,20,062,39,35,17,311,37,4*7B
$GNGGA,094506.000,2500.7771859,N,12132.4602592,E,2,49,0.52,16.890,M,15.25,M,4,3335*4A
$GNRMC,094506.000,A,2500.7771859,N,12132.4602592,E,0.02,131.79,260623,,,D,V*05
$GPHDT,,T*1B
$GNGGA,094506.200,2500.7771739,N,12132.4602532,E,2,49,0.52,16.884,M,15.25,M,4,3335*4E
$GNRMC,094506.200,A,2500.7771739,N,12132.4602532,E,0.02,131.79,260623,,,D,V*04
$GPHDT,,T*1B
$GNGGA,094506.400,2500.7771679,N,12132.4602472,E,2,49,0.52,16.883,M,15.25,M,4,3335*4F
$GNRMC,094506.400,A,2500.7771679,N,12132.4602472,E,0.02,131.79,260623,,,D,V*02
$GPHDT,,T*1B
$GNGGA,094506.600,2500.7771499,N,12132.4602472,E,2,49,0.52,16.881,M,15.25,M,4,3335*43
$GNRMC,094506.600,A,2500.7771499,N,12132.4602472,E,0.01,131.79,260623,,,D,V*0F
$GPHDT,,T*1B
$GNGGA,094506.800,2500.7771439,N,12132.4602412,E,2,49,0.52,16.879,M,15.25,M,4,3335*46
$GNRMC,094506.800,A,2500.7771439,N,12132.4602412,E,0.00,131.79,260623,,,D,V*0C
$GPHDT,,T*1B
$GNGSA,A,3,196,15,199,05,13,18,29,20,11,194,,,1.00,0.52,0.86,1*39
$GNGSA,A,3,84,85,69,79,80,,,,,,,,1.00,0.52,0.86,2*02
$GNGSA,A,3,08,15,13,03,34,,,,,,,,1.00,0.52,0.86,3*01
$GNGSA,A,3,39,38,16,13,20,29,37,19,46,32,35,,1.00,0.52,0.86,4*08
$GPGSV,4,1,14,196,72,047,41,15,62,344,42,199,60,167,34,195,52,174,18,1*5D
$GPGSV,4,2,14,24,49,178,15,05,42,068,46,13,42,030,43,18,39,319,32,1*60
$GPGSV,4,3,14,41,38,242,37,29,27,232,41,20,25,095,36,23,17,307,26,1*6B
$GPGSV,4,4,14,11,17,145,24,194,17,149,27,1*52
$GPGSV,2,1,07,196,72,047,46,199,60,167,43,24,49,178,24,18,39,319,26,8*6C
$GPGSV,2,2,07,23,17,307,29,11,17,145,24,194,17,149,29,8*6F
$GLGSV,2,1,06,84,62,217,31,85,36,319,29,70,34,303,,69,32,022,21,1*76
$GLGSV,2,2,06,79,24,083,37,80,18,139,25,1*74
$GAGSV,2,1,06,08,65,329,37,15,64,164,39,13,57,314,34,03,32,038,34,7*71
$GAGSV,2,2,06,07,31,255,15,34,13,150,14,7*72
$GAGSV,2,1,05,08,65,329,44,15,64,164,43,13,57,314,42,03,32,038,36,1*7E
$GAGSV,2,2,05,34,13,150,20,1*43
$GBGSV,4,1,13,39,67,206,44,38,67,025,41,16,57,203,28,06,55,203,29,1*74
$GBGSV,4,2,13,13,51,342,27,20,51,003,19,29,47,254,46,09,38,206,,1*76
$GBGSV,4,3,13,37,32,092,44,19,32,296,24,46,26,157,33,32,20,062,41,1*78
$GBGSV,4,4,13,35,17,311,30,1*44
$GBGSV,2,1,08,38,67,025,46,39,67,206,44,20,51,003,33,29,47,254,46,4*74
$GBGSV,2,2,08,37,32,092,42,46,26,157,26,32,20,062,39,35,17,311,37,4*78
$GNGGA,094507.000,2500.7771379,N,12132.4602352,E,2,49,0.52,16.878,M,15.25,M,5,3335*4F
$GNRMC,094507.000,A,2500.7771379,N,12132.4602352,E,0.00,131.79,260623,,,D,V*05
$GPHDT,,T*1B
$GNGGA,094507.200,2500.7771319,N,12132.4602292,E,2,49,0.52,16.875,M,15.25,M,5,3335*4B
$GNRMC,094507.200,A,2500.7771319,N,12132.4602292,E,0.00,131.79,260623,,,D,V*0C
$GPHDT,,T*1B
$GNGGA,094507.400,2500.7771199,N,12132.4602292,E,2,49,0.52,16.869,M,15.25,M,5,3335*4A
$GNRMC,094507.400,A,2500.7771199,N,12132.4602292,E,0.00,131.79,260623,,,D,V*00
$GPHDT,,T*1B
$GNGGA,094507.600,2500.7771079,N,12132.4602292,E,2,49,0.52,16.862,M,15.25,M,5,3335*4C
$GNRMC,094507.600,A,2500.7771079,N,12132.4602292,E,0.00,131.79,260623,,,D,V*0D
$GPHDT,,T*1B
$GNGGA,094507.800,2500.7771019,N,12132.4602292,E,2,49,0.52,16.861,M,15.25,M,5,3335*47
$GNRMC,094507.800,A,2500.7771019,N,12132.4602292,E,0.00,131.79,260623,,,D,V*05
$GPHDT,,T*1B
$GNGSA,A,3,196,15,199,05,13,18,29,20,11,194,,,1.00,0.52,0.86,1*39
$GNGSA,A,3,84,85,69,79,80,,,,,,,,1.00,0.52,0.86,2*02
$GNGSA,A,3,08,15,13,03,34,,,,,,,,1.00,0.52,0.86,3*01
$GNGSA,A,3,39,38,16,13,20,29,37,19,46,32,35,,1.00,0.52,0.86,4*08
$GPGSV,4,1,14,196,72,047,41,15,62,344,42,199,60,167,34,195,52,174,17,1*52
$GPGSV,4,2,14,24,49,178,15,05,42,068,46,13,42,030,40,18,39,319,32,1*63
$GPGSV,4,3,14,41,38,242,37,29,27,232,41,20,25,095,36,23,17,307,26,1*6B
$GPGSV,4,4,14,11,17,145,27,194,17,149,26,1*50
$GPGSV,2,1,07,196,72,047,46,199,60,167,43,24,49,178,24,18,39,319,28,8*62
$GPGSV,2,2,07,23,17,307,29,11,17,145,23,194,17,149,29,8*68
$GLGSV,2,1,06,84,62,217,31,85,36,319,29,69,32,022,19,79,24,083,37,1*7A
$GLGSV,2,2,06,80,18,139,25,83,10,170,,1*7F
$GAGSV,2,1,06,08,65,329,37,15,64,164,39,13,57,314,34,03,32,038,26,7*72
$GAGSV,2,2,06,07,31,255,15,34,13,150,15,7*73
$GAGSV,2,1,05,08,65,329,44,15,64,164,43,13,57,314,42,03,32,038,34,1*7C
$GAGSV,2,2,05,34,13,150,20,1*43
$GBGSV,3,1,12,39,67,206,44,38,67,025,41,16,57,203,28,06,55,203,29,1*72
$GBGSV,3,2,12,13,51,342,28,20,51,003,20,29,47,254,46,37,32,092,43,1*7A
$GBGSV,3,3,12,19,32,296,26,46,26,157,33,32,20,062,41,35,17,311,30,1*72
$GBGSV,2,1,08,38,67,025,46,39,67,206,44,20,51,003,33,29,47,254,46,4*74
$GBGSV,2,2,08,37,32,092,42,46,26,157,26,32,20,062,40,35,17,311,37,4*76
$GNGGA,094508.000,2500.7770899,N,12132.4602232,E,2,49,0.52,16.860,M,15.25,M,6,3335*49
$GNRMC,094508.000,A,2500.7770899,N,12132.4602232,E,0.00,131.79,260623,,,D,V*09
$GPHDT,,T*1B
$GNGGA,094508.200,2500.7770779,N,12132.4602232,E,2,49,0.52,16.848,M,15.25,M,6,3335*40
$GNRMC,094508.200,A,2500.7770779,N,12132.4602232,E,0.00,131.79,260623,,,D,V*0A
$GPHDT,,T*1B
$GNGGA,094508.400,2500.7770719,N,12132.4602172,E,2,49,0.52,16.839,M,15.25,M,6,3335*41
$GNRMC,094508.400,A,2500.7770719,N,12132.4602172,E,0.00,131.79,260623,,,D,V*0D
$GPHDT,,T*1B
$GNGGA,094508.600,2500.7770779,N,12132.4602232,E,2,49,0.52,16.847,M,15.25,M,4,3335*49
$GNRMC,094508.600,A,2500.7770779,N,12132.4602232,E,0.03,131.79,260623,,,D,V*0D
$GPHDT,,T*1B
$GNGGA,094508.800,2500.7770719,N,12132.4602172,E,2,49,0.52,16.843,M,15.25,M,2,3335*44
$GNRMC,094508.800,A,2500.7770719,N,12132.4602172,E,0.13,131.79,260623,,,D,V*03
$GPHDT,,T*1B
$GNGSA,A,3,196,15,199,05,13,18,29,20,11,194,,,1.00,0.52,0.86,1*39
$GNGSA,A,3,84,85,69,79,80,,,,,,,,1.00,0.52,0.86,2*02
$GNGSA,A,3,08,15,13,03,34,,,,,,,,1.00,0.52,0.86,3*01
$GNGSA,A,3,38,39,16,13,20,29,19,37,46,32,35,,1.00,0.52,0.86,4*08
$GPGSV,4,1,14,196,72,047,41,15,62,344,42,199,60,167,34,195,52,174,15,1*50
$GPGSV,4,2,14,24,49,178,14,05,42,068,41,13,42,030,41,18,39,319,33,1*65
$GPGSV,4,3,14,41,38,242,37,29,27,232,41,20,25,095,32,23,17,307,26,1*6F
$GPGSV,4,4,14,11,17,145,28,194,17,149,28,1*51
$GPGSV,2,1,07,196,72,047,46,199,60,167,43,24,49,178,25,18,39,319,27,8*6C
$GPGSV,2,2,07,23,17,307,29,11,17,145,24,194,17,149,28,8*6E
$GLGSV,2,1,05,84,62,217,31,85,36,319,29,69,32,022,20,79,24,083,39,1*7D
$GLGSV,2,2,05,80,18,139,26,1*43
$GAGSV,2,1,06,08,65,329,35,15,64,164,39,13,57,314,35,03,32,038,33,7*75
$GAGSV,2,2,06,07,31,255,15,34,13,150,15,7*73
$GAGSV,2,1,05,08,65,329,44,15,64,164,43,13,57,314,42,03,32,038,35,1*7D
$GAGSV,2,2,05,34,13,150,20,1*43
$GBGSV,4,1,13,38,67,025,42,39,67,206,44,16,57,203,28,06,55,203,29,1*77
$GBGSV,4,2,13,13,51,342,27,20,51,003,21,29,47,254,46,19,32,296,26,1*7B
$GBGSV,4,3,13,37,32,092,43,46,26,157,32,32,20,062,41,35,17,311,30,1*7C
$GBGSV,4,4,13,10,10,213,,1*44
$GBGSV,2,1,08,38,67,025,46,39,67,206,44,20,51,003,34,29,47,254,46,4*73
$GBGSV,2,2,08,37,32,092,43,46,26,157,25,32,20,062,40,35,17,311,37,4*74
$GNGGA,094509.000,2500.7770719,N,12132.4602172,E,2,49,0.52,16.849,M,15.25,M,2,3335*47
$GNRMC,094509.000,A,2500.7770719,N,12132.4602172,E,0.01,131.79,260623,,,D,V*09
$GPHDT,,T*1B
$GNGGA,094509.200,2500.7770719,N,12132.4602172,E,2,49,0.52,16.855,M,15.25,M,1,3335*4B
$GNRMC,094509.200,A,2500.7770719,N,12132.4602172,E,0.02,131.79,260623,,,D,V*08
$GPHDT,,T*1B
$GNGGA,094509.400,2500.7770659,N,12132.4602232,E,2,49,0.52,16.858,M,15.25,M,1,3335*42
$GNRMC,094509.400,A,2500.7770659,N,12132.4602232,E,0.02,131.79,260623,,,D,V*0C
$GPHDT,,T*1B
$GNGGA,094509.600,2500.7770659,N,12132.4602232,E,2,48,0.52,16.859,M,15.25,M,1,3335*40
$GNRMC,094509.600,A,2500.7770659,N,12132.4602232,E,0.00,131.79,260623,,,D,V*0C
$GPHDT,,T*1B
$GNGGA,094509.800,2500.7770659,N,12132.4602232,E,2,48,0.52,16.863,M,15.25,M,1,3335*47
$GNRMC,094509.800,A,2500.7770659,N,12132.4602232,E,0.01,131.79,260623,,,D,V*03
$GPHDT,,T*1B
$GNGSA,A,3,196,15,199,05,13,18,29,20,11,194,,,1.00,0.52,0.86,1*39
$GNGSA,A,3,84,85,69,79,80,,,,,,,,1.00,0.52,0.86,2*02
$GNGSA,A,3,08,15,13,03,34,,,,,,,,1.00,0.52,0.86,3*01
$GNGSA,A,3,39,38,16,13,20,29,37,19,46,32,35,,1.00,0.52,0.86,4*08
$GPGSV,4,1,14,196,72,047,39,15,62,344,42,199,60,167,34,195,52,174,15,1*5F
$GPGSV,4,2,14,24,49,178,14,05,42,068,38,13,42,030,41,18,39,319,32,1*6A
$GPGSV,4,3,14,41,38,242,37,29,27,232,41,20,25,095,32,23,17,307,26,1*6F
$GPGSV,4,4,14,11,17,145,25,194,17,149,28,1*5C
$GPGSV,2,1,07,196,72,047,44,199,60,167,43,24,49,178,24,18,39,319,26,8*6E
$GPGSV,2,2,07,23,17,307,29,11,17,145,24,194,17,149,25,8*63
$GLGSV,2,1,05,84,62,217,31,85,36,319,29,69,32,022,20,79,24,083,35,1*71
$GLGSV,2,2,05,80,18,139,26,1*43
$GAGSV,2,1,07,08,65,329,36,15,64,164,39,13,57,314,35,03,32,038,37,7*73
$GAGSV,2,2,07,07,31,255,15,34,13,150,17,26,05,324,,7*44
$GAGSV,2,1,05,08,65,329,44,15,64,164,43,13,57,314,42,03,32,038,38,1*70
$GAGSV,2,2,05,34,13,150,20,1*43
$GBGSV,4,1,13,39,67,206,44,38,67,025,41,16,57,203,27,06,55,203,29,1*7B
$GBGSV,4,2,13,13,51,342,27,20,51,003,22,29,47,254,46,37,32,092,43,1*71
$GBGSV,4,3,13,19,32,296,26,46,26,157,29,32,20,062,41,35,17,311,30,1*7F
$GBGSV,4,4,13,10,10,213,,1*44
$GBGSV,2,1,08,38,67,025,45,39,67,206,44,20,51,003,35,29,47,254,46,4*71
$GBGSV,2,2,08,37,32,092,43,46,26,157,24,32,20,062,37,35,17,311,37,4*75
$GNGGA,094510.000,2500.7770599,N,12132.4602232,E,2,49,0.52,16.863,M,15.25,M,1,3335*49
$GNRMC,094510.000,A,2500.7770599,N,12132.4602232,E,0.02,131.79,260623,,,D,V*0F
$GPHDT,,T*1B
$GNGGA,094510.200,2500.7770539,N,12132.4602232,E,2,49,0.52,16.862,M,15.25,M,1,3335*40
$GNRMC,094510.200,A,2500.7770539,N,12132.4602232,E,0.01,131.79,260623,,,D,V*04
$GPHDT,,T*1B
