$FW : RTK35X,V1.1X0314AS,Lib20210517,1*54
$Tool : LOCOSYS , GNSS Firebird , v1.0.0.19*39
$---------------------------------------------------*2D
$GNGSA,A,3,196,15,199,13,05,18,29,20,194,,,,1.04,0.55,0.89,1*35
$GNGSA,A,3,84,85,69,79,80,,,,,,,,1.04,0.55,0.89,2*0E
$GNGSA,A,3,08,15,13,03,34,,,,,,,,1.04,0.55,0.89,3*0D
$GNGSA,A,3,39,38,16,20,13,29,37,46,32,35,,,1.04,0.55,0.89,4*0C
$GPGSV,4,1,14,196,72,047,40,15,62,343,30,199,60,167,33,195,53,173,25,1*51
$GPGSV,4,2,14,13,43,030,44,05,42,068,45,18,38,319,31,41,38,242,35,1*6A
$GPGSV,4,3,14,29,27,233,43,20,26,095,41,23,17,307,22,11,17,145,25,1*60
$GPGSV,4,4,14,194,17,149,25,24,,,16,1*61
$GPGSV,2,1,05,196,72,047,45,199,60,167,44,195,53,173,18,18,38,319,25,8*5C
$GPGSV,2,2,05,11,17,145,24,8*58
$GLGSV,2,1,05,84,62,217,30,85,35,319,26,69,32,021,18,79,24,084,39,1*7F
$GLGSV,2,2,05,80,18,139,24,1*41
$GAGSV,2,1,08,08,65,328,34,15,64,163,37,13,56,314,29,03,32,038,33,7*7E
$GAGSV,2,2,08,34,14,150,16,26,05,324,,25,02,076,,30,02,169,,7*75
$GAGSV,1,1,04,08,65,328,38,15,64,163,45,13,56,314,35,03,32,038,39,1*79
$GBGSV,3,1,12,39,67,205,44,38,67,025,43,16,57,202,23,06,55,203,26,1*76
$GBGSV,3,2,12,20,51,002,37,13,51,342,28,29,48,255,46,19,32,296,19,1*76
$GBGSV,3,3,12,37,32,093,45,46,26,158,28,32,20,061,41,35,17,311,18,1*70
$GBGSV,2,1,08,38,67,025,44,39,67,205,45,20,51,002,29,29,48,255,40,4*76
$GBGSV,2,2,08,37,32,093,43,46,26,158,18,32,20,061,38,35,17,311,32,4*7D
$GNGGA,094404.000,2500.7804400,N,12132.4612200,E,2,43,0.55,27.38,M,15.25,M,1,3335*79
$GNRMC,094404.000,A,2500.7804400,N,12132.4612200,E,0.03,357.48,260623,,,D,V*07
$GPHDT,,T*1B
$GNGGA,094404.200,2500.7804400,N,12132.4612200,E,2,45,0.54,27.38,M,15.25,M,1,3335*7C
$GNRMC,094404.200,A,2500.7804400,N,12132.4612200,E,0.01,357.48,260623,,,D,V*07
$GPHDT,,T*1B
$GNGGA,094404.400,2500.7804400,N,12132.4612200,E,2,45,0.54,27.38,M,15.25,M,1,3335*7A
$GNRMC,094404.400,A,2500.7804400,N,12132.4612200,E,0.01,357.48,260623,,,D,V*01
$GPHDT,,T*1B
$GNGGA,094404.600,2500.7804400,N,12132.4612200,E,2,46,0.52,27.38,M,15.25,M,0,3335*7C
$GNRMC,094404.600,A,2500.7804400,N,12132.4612200,E,0.03,357.48,260623,,,D,V*01
$GPHDT,,T*1B
$GNGGA,094404.800,2500.7804400,N,12132.4612200,E,2,46,0.54,27.38,M,15.25,M,0,3335*74
$GNRMC,094404.800,A,2500.7804400,N,12132.4612200,E,0.04,357.48,260623,,,D,V*08
$GPHDT,,T*1B
$GNGSA,A,3,196,15,199,13,05,18,29,20,11,194,,,0.99,0.52,0.85,1*3B
$GNGSA,A,3,84,85,69,79,80,,,,,,,,0.99,0.52,0.85,2*00
$GNGSA,A,3,08,15,13,03,34,,,,,,,,0.99,0.52,0.85,3*03
$GNGSA,A,3,39,38,16,13,20,29,19,37,46,32,35,,0.99,0.52,0.85,4*0A
$GPGSV,4,1,14,196,72,047,39,15,62,343,36,199,60,167,33,195,53,173,25,1*59
$GPGSV,4,2,14,13,43,030,45,05,42,068,45,18,38,319,31,41,38,242,36,1*68
$GPGSV,4,3,14,29,27,233,43,20,26,095,41,23,17,307,23,11,17,145,24,1*60
$GPGSV,4,4,14,194,17,149,29,24,,,16,1*6D
$GPGSV,2,1,06,196,72,047,46,199,60,167,44,195,53,173,18,18,38,319,22,8*5B
$GPGSV,2,2,06,11,17,145,24,194,17,149,20,8*5F
$GLGSV,2,1,05,84,62,217,30,85,35,319,24,69,32,021,19,79,24,084,38,1*7D
$GLGSV,2,2,05,80,18,139,24,1*41
$GAGSV,2,1,07,08,65,328,34,15,64,163,38,13,56,314,32,03,32,038,33,7*74
$GAGSV,2,2,07,34,14,150,17,25,02,076,,30,02,169,,7*4F
$GAGSV,1,1,04,08,65,328,40,15,64,163,44,13,56,314,38,03,32,038,39,1*7A
$GBGSV,3,1,12,39,67,205,42,38,67,025,43,16,57,202,26,06,55,203,26,1*75
$GBGSV,3,2,12,13,51,342,27,20,51,002,37,29,48,255,47,19,32,296,23,1*71
$GBGSV,3,3,12,37,32,093,45,46,26,158,29,32,20,061,42,35,17,311,24,1*7D
$GBGSV,2,1,08,38,67,025,46,39,67,205,44,20,51,002,30,29,48,255,44,4*79
$GBGSV,2,2,08,37,32,093,43,46,26,158,17,32,20,061,38,35,17,311,33,4*73
$GNGGA,094405.000,2500.7804400,N,12132.4612200,E,2,48,0.52,27.38,M,15.25,M,1,3335*74
$GNRMC,094405.000,A,2500.7804400,N,12132.4612200,E,0.02,357.48,260623,,,D,V*07
$GPHDT,,T*1B
$GNGGA,094405.200,2500.7804400,N,12132.4612200,E,2,47,0.54,27.38,M,15.25,M,1,3335*7F
$GNRMC,094405.200,A,2500.7804400,N,12132.4612200,E,0.00,357.48,260623,,,D,V*07
$GPHDT,,T*1B
$GNGGA,094405.400,2500.7804400,N,12132.4612200,E,2,47,0.54,27.38,M,15.25,M,1,3335*79
$GNRMC,094405.400,A,2500.7804400,N,12132.4612200,E,0.01,357.48,260623,,,D,V*00
$GPHDT,,T*1B
$GNGGA,094405.600,2500.7804400,N,12132.4612200,E,2,48,0.52,27.38,M,15.25,M,0,3335*73
$GNRMC,094405.600,A,2500.7804400,N,12132.4612200,E,0.01,357.48,260623,,,D,V*02
$GPHDT,,T*1B
$GNGGA,094405.800,2500.7804400,N,12132.4612200,E,2,48,0.52,27.38,M,15.25,M,0,3335*7D
$GNRMC,094405.800,A,2500.7804400,N,12132.4612200,E,0.00,357.48,260623,,,D,V*0D
$GPHDT,,T*1B
$GNGSA,A,3,196,15,199,13,05,18,29,20,11,194,,,0.99,0.52,0.85,1*3B
$GNGSA,A,3,84,85,69,79,80,,,,,,,,0.99,0.52,0.85,2*00
$GNGSA,A,3,08,15,13,03,34,,,,,,,,0.99,0.52,0.85,3*03
$GNGSA,A,3,39,38,16,13,20,29,19,37,46,32,35,,0.99,0.52,0.85,4*0A
$GPGSV,4,1,14,196,72,047,40,15,62,343,38,199,60,167,33,195,53,173,26,1*5A
$GPGSV,4,2,14,13,43,030,45,05,42,068,45,18,38,319,31,41,38,242,38,1*66
$GPGSV,4,3,14,29,27,233,43,20,26,095,41,23,17,307,25,11,17,145,26,1*64
$GPGSV,4,4,14,194,17,149,27,24,,,17,1*62
$GPGSV,2,1,06,196,72,047,46,199,60,167,44,195,53,173,17,18,38,319,19,8*5C
$GPGSV,2,2,06,11,17,145,25,194,17,149,20,8*5E
$GLGSV,2,1,05,84,62,217,28,85,35,319,25,69,32,021,17,79,24,084,38,1*7B
$GLGSV,2,2,05,80,18,139,25,1*40
$GAGSV,2,1,07,08,65,328,36,15,64,163,37,13,56,314,33,03,32,038,33,7*78
$GAGSV,2,2,07,34,14,150,17,25,02,076,,30,02,169,,7*4F
$GAGSV,1,1,04,08,65,328,41,15,64,163,44,13,56,314,38,03,32,038,39,1*7B
$GBGSV,3,1,12,39,67,205,42,38,67,025,43,16,57,202,31,06,55,203,27,1*72
$GBGSV,3,2,12,13,51,342,27,20,51,002,37,29,48,255,46,19,32,296,23,1*70
$GBGSV,3,3,12,37,32,093,45,46,26,158,27,32,20,061,42,35,17,311,22,1*75
$GBGSV,2,1,08,38,67,025,45,39,67,205,44,20,51,002,30,29,48,255,44,4*7A
$GBGSV,2,2,08,37,32,093,43,46,26,158,14,32,20,061,37,35,17,311,34,4*78
$GNGGA,094406.000,2500.7804400,N,12132.4612200,E,2,48,0.52,27.38,M,15.25,M,1,3335*77
$GNRMC,094406.000,A,2500.7804400,N,12132.4612200,E,0.00,357.48,260623,,,D,V*06
$GPHDT,,T*1B
$GNGGA,094406.200,2500.7804400,N,12132.4612200,E,2,48,0.52,27.38,M,15.25,M,1,3335*75
$GNRMC,094406.200,A,2500.7804400,N,12132.4612200,E,0.00,357.48,260623,,,D,V*04
$GPHDT,,T*1B
$GNGGA,094406.400,2500.7804400,N,12132.4612200,E,2,47,0.52,27.38,M,15.25,M,1,3335*7C
$GNRMC,094406.400,A,2500.7804400,N,12132.4612200,E,0.00,357.48,260623,,,D,V*02
$GPHDT,,T*1B
$GNGGA,094406.600,2500.7804400,N,12132.4612200,E,2,46,0.52,27.38,M,15.25,M,1,3335*7F
$GNRMC,094406.600,A,2500.7804400,N,12132.4612200,E,0.06,357.48,260623,,,D,V*06
$GPHDT,,T*1B
$GNGGA,094406.800,2500.7804400,N,12132.4612200,E,2,46,0.52,27.38,M,15.25,M,0,3335*70
$GNRMC,094406.800,A,2500.7804400,N,12132.4612200,E,0.07,357.48,260623,,,D,V*09
$GPHDT,,T*1B
$GNGSA,A,3,196,15,199,13,05,18,29,20,11,194,,,0.99,0.52,0.85,1*3B
$GNGSA,A,3,84,85,69,79,80,,,,,,,,0.99,0.52,0.85,2*00
$GNGSA,A,3,08,15,13,03,34,,,,,,,,0.99,0.52,0.85,3*03
$GNGSA,A,3,39,38,16,20,13,29,19,37,46,32,35,,0.99,0.52,0.85,4*0A
$GPGSV,4,1,14,196,72,047,40,15,62,343,39,199,60,167,33,195,53,173,26,1*5B
$GPGSV,4,2,14,13,43,030,45,05,42,068,45,18,38,319,32,41,38,242,37,1*6A
$GPGSV,4,3,14,29,27,233,43,20,26,095,41,23,17,307,24,11,17,145,25,1*66
$GPGSV,4,4,14,194,17,149,27,24,,,20,1*66
$GPGSV,2,1,05,196,72,047,46,199,60,167,44,195,53,173,17,18,38,319,22,8*57
$GPGSV,2,2,05,11,17,145,26,8*5A
$GLGSV,2,1,05,84,62,217,28,85,35,319,25,69,32,022,16,79,24,084,38,1*79
$GLGSV,2,2,05,80,18,139,26,1*43
$GAGSV,2,1,08,08,65,328,36,15,64,163,37,13,56,314,33,03,32,038,33,7*77
$GAGSV,2,2,08,34,14,150,17,02,08,122,,25,02,076,,30,02,169,,7*7B
$GAGSV,1,1,04,08,65,328,41,15,64,163,44,13,56,314,39,03,32,038,39,1*7A
$GBGSV,4,1,13,39,67,205,42,38,67,025,43,16,57,202,32,06,55,203,28,1*78
$GBGSV,4,2,13,20,51,002,37,13,51,342,27,29,48,255,46,19,32,296,24,1*71
$GBGSV,4,3,13,37,32,093,45,46,26,158,27,32,20,061,42,35,17,311,22,1*73
$GBGSV,4,4,13,40,05,195,,1*48
$GBGSV,2,1,07,38,67,025,45,39,67,205,44,20,51,002,30,29,48,255,44,4*75
$GBGSV,2,2,07,37,32,093,43,32,20,061,37,35,17,311,34,4*48
$GNGGA,094407.000,2500.7804400,N,12132.4612200,E,2,46,0.52,27.38,M,15.25,M,1,3335*78
$GNRMC,094407.000,A,2500.7804400,N,12132.4612200,E,0.03,357.48,260623,,,D,V*04
$GPHDT,,T*1B
$GNGGA,094407.200,2500.7804400,N,12132.4612200,E,2,46,0.52,27.38,M,15.25,M,1,3335*7A
$GNRMC,094407.200,A,2500.7804400,N,12132.4612200,E,0.10,357.48,260623,,,D,V*04
$GPHDT,,T*1B
$GNGGA,094407.400,2500.7773725,N,12132.4603110,E,4,47,0.52,15.890,M,15.25,M,1,3335*49
$GNRMC,094407.400,A,2500.7773725,N,12132.4603110,E,0.08,357.48,260623,,,R,V*14
$GPHDT,,T*1B
$GNGGA,094407.600,2500.7773721,N,12132.4603095,E,4,47,0.52,15.886,M,15.25,M,0,3335*45
$GNRMC,094407.600,A,2500.7773721,N,12132.4603095,E,0.05,357.48,260623,,,R,V*13
$GPHDT,,T*1B
$GNGGA,094407.800,2500.7773740,N,12132.4603086,E,4,47,0.52,15.877,M,15.25,M,0,3335*40
$GNRMC,094407.800,A,2500.7773740,N,12132.4603086,E,0.09,357.48,260623,,,R,V*14
$GPHDT,,T*1B
$GNGSA,A,3,196,15,199,13,05,18,29,20,194,,,,1.02,0.52,0.87,1*3A
$GNGSA,A,3,84,85,69,79,80,,,,,,,,1.02,0.52,0.87,2*01
$GNGSA,A,3,08,15,13,03,34,,,,,,,,1.02,0.52,0.87,3*02
$GNGSA,A,3,39,38,16,20,13,29,19,37,46,32,35,,1.02,0.52,0.87,4*0B
$GPGSV,4,1,14,196,72,047,40,15,62,343,40,199,60,167,33,195,53,173,26,1*55
$GPGSV,4,2,14,13,43,030,45,05,42,068,45,18,38,319,31,41,38,242,37,1*69
$GPGSV,4,3,14,29,27,233,43,20,26,095,41,23,17,307,24,11,17,145,25,1*66
$GPGSV,4,4,14,194,17,149,29,24,,,20,1*68
$GPGSV,2,1,05,196,72,047,46,199,60,167,44,195,53,173,18,18,38,319,21,8*5B
$GPGSV,2,2,05,194,17,149,21,8*6D
$GLGSV,2,1,05,84,62,217,28,85,35,319,20,69,32,022,17,79,24,084,38,1*7D
$GLGSV,2,2,05,80,18,139,26,1*43
$GAGSV,2,1,08,08,65,328,35,15,64,163,37,13,56,314,34,03,32,038,33,7*73
$GAGSV,2,2,08,34,14,150,17,02,08,122,,25,02,076,,30,02,169,,7*7B
$GAGSV,1,1,04,08,65,328,41,15,64,163,44,13,56,314,39,03,32,038,39,1*7A
$GBGSV,3,1,12,39,67,205,42,38,67,025,43,16,57,202,32,06,55,203,28,1*7E
$GBGSV,3,2,12,20,51,002,37,13,51,342,26,29,48,255,46,19,32,296,24,1*76
$GBGSV,3,3,12,37,32,093,45,46,26,158,29,32,20,061,42,35,17,311,23,1*7A
$GBGSV,2,1,08,38,67,025,45,39,67,205,44,20,51,002,30,29,48,255,44,4*7A
$GBGSV,2,2,08,19,32,296,17,37,32,093,43,32,20,061,37,35,17,311,34,4*75
$GNGGA,094408.000,2500.7773727,N,12132.4603109,E,4,46,0.52,15.885,M,15.25,M,1,3335*4D
$GNRMC,094408.000,A,2500.7773727,N,12132.4603109,E,0.02,357.48,260623,,,R,V*1F
$GPHDT,,T*1B
$GNGGA,094408.200,2500.7773744,N,12132.4603100,E,4,45,0.52,15.877,M,15.25,M,1,3335*4D
$GNRMC,094408.200,A,2500.7773744,N,12132.4603100,E,0.03,357.48,260623,,,R,V*10
$GPHDT,,T*1B
$GNGGA,094408.400,2500.7773710,N,12132.4603105,E,4,47,0.52,15.883,M,15.25,M,1,3335*46
$GNRMC,094408.400,A,2500.7773710,N,12132.4603105,E,0.04,357.48,260623,,,R,V*15
$GPHDT,,T*1B
$GNGGA,094408.600,2500.7773699,N,12132.4603106,E,4,47,0.52,15.891,M,15.25,M,1,3335*44
$GNRMC,094408.600,A,2500.7773699,N,12132.4603106,E,0.00,357.48,260623,,,R,V*10
$GPHDT,,T*1B
$GNGGA,094408.800,2500.7773717,N,12132.4603099,E,4,47,0.52,15.884,M,15.25,M,0,3335*4F
$GNRMC,094408.800,A,2500.7773717,N,12132.4603099,E,0.14,357.48,260623,,,R,V*1B
$GPHDT,,T*1B
$GNGSA,A,3,196,15,199,13,05,18,29,20,11,194,,,0.99,0.52,0.85,1*3B
$GNGSA,A,3,84,85,69,79,80,,,,,,,,0.99,0.52,0.85,2*00
$GNGSA,A,3,08,15,13,03,34,,,,,,,,0.99,0.52,0.85,3*03
$GNGSA,A,3,38,39,16,13,20,29,37,19,46,32,35,,0.99,0.52,0.85,4*0A
$GPGSV,4,1,14,196,72,047,40,15,62,343,40,199,60,167,33,195,53,173,25,1*56
$GPGSV,4,2,14,13,43,030,45,05,42,068,45,18,38,319,30,41,38,242,37,1*68
$GPGSV,4,3,14,29,27,233,43,20,26,095,41,23,17,307,24,11,17,145,26,1*65
$GPGSV,4,4,14,194,17,149,29,24,,,19,1*62
$GPGSV,2,1,06,196,72,047,46,199,60,167,44,195,53,173,18,18,38,319,19,8*53
$GPGSV,2,2,06,11,17,145,25,194,17,149,21,8*5F
$GLGSV,2,1,05,84,62,217,28,85,35,319,21,69,32,022,18,79,24,084,38,1*73
$GLGSV,2,2,05,80,18,139,26,1*43
$GAGSV,3,1,09,08,65,328,35,15,64,163,37,13,56,314,34,03,32,038,33,7*73
$GAGSV,3,2,09,07,31,255,,34,14,150,19,02,08,122,,25,02,076,,7*7D
$GAGSV,3,3,09,30,02,169,,7*45
$GAGSV,1,1,04,08,65,328,41,15,64,163,44,13,56,314,39,03,32,038,39,1*7A
$GBGSV,3,1,12,38,67,025,43,39,67,205,42,16,57,202,32,06,55,203,29,1*7F
$GBGSV,3,2,12,13,51,342,26,20,51,002,37,29,48,255,46,37,32,093,45,1*7A
$GBGSV,3,3,12,19,32,296,23,46,26,158,29,32,20,061,42,35,17,311,25,1*77
$GBGSV,2,1,08,38,67,025,44,39,67,205,44,20,51,002,30,29,48,255,44,4*7B
$GBGSV,2,2,08,19,32,296,18,37,32,093,43,32,20,061,37,35,17,311,33,4*7D
$GNGGA,094409.000,2500.7773718,N,12132.4603099,E,4,48,0.52,15.889,M,15.25,M,1,3335*4A
$GNRMC,094409.000,A,2500.7773718,N,12132.4603099,E,0.01,357.48,260623,,,R,V*19
$GPHDT,,T*1B
$GNGGA,094409.200,2500.7773709,N,12132.4603108,E,4,48,0.52,15.890,M,15.25,M,1,3335*49
$GNRMC,094409.200,A,2500.7773709,N,12132.4603108,E,0.01,357.48,260623,,,R,V*12
$GPHDT,,T*1B
$GNGGA,094409.400,2500.7773712,N,12132.4603101,E,4,47,0.52,15.893,M,15.25,M,1,3335*40
$GNRMC,094409.400,A,2500.7773712,N,12132.4603101,E,0.00,357.48,260623,,,R,V*16
$GPHDT,,T*1B
$GNGGA,094409.600,2500.7773724,N,12132.4603107,E,4,46,0.52,15.892,M,15.25,M,0,3335*40
$GNRMC,094409.600,A,2500.7773724,N,12132.4603107,E,0.04,357.48,260623,,,R,V*13
$GPHDT,,T*1B
$GNGGA,094409.800,2500.7773728,N,12132.4603106,E,4,46,0.52,15.887,M,15.25,M,0,3335*47
$GNRMC,094409.800,A,2500.7773728,N,12132.4603106,E,0.03,357.48,260623,,,R,V*17
$GPHDT,,T*1B
$GNGSA,A,3,196,15,199,13,05,18,29,20,11,194,,,0.99,0.52,0.85,1*3B
$GNGSA,A,3,84,85,69,79,80,,,,,,,,0.99,0.52,0.85,2*00
$GNGSA,A,3,08,15,13,03,34,,,,,,,,0.99,0.52,0.85,3*03
$GNGSA,A,3,39,38,16,20,13,29,37,46,32,35,19,,0.99,0.52,0.85,4*0A
$GPGSV,4,1,14,196,72,047,40,15,62,343,40,199,60,167,33,195,53,173,26,1*55
$GPGSV,4,2,14,13,43,030,45,05,42,068,45,18,38,319,30,41,38,242,37,1*68
$GPGSV,4,3,14,29,27,233,43,20,26,095,41,23,17,307,22,11,17,145,24,1*61
$GPGSV,4,4,14,194,17,149,29,24,,,18,1*63
$GPGSV,2,1,06,196,72,047,46,199,60,167,44,195,53,173,18,18,38,319,19,8*53
$GPGSV,2,2,06,11,17,145,25,194,17,149,21,8*5F
$GLGSV,2,1,05,84,62,217,28,85,35,319,22,69,32,022,22,79,24,084,38,1*79
$GLGSV,2,2,05,80,18,139,26,1*43
$GAGSV,2,1,08,08,65,328,35,15,64,163,37,13,56,314,34,03,32,038,32,7*72
$GAGSV,2,2,08,07,31,255,,34,14,150,20,02,08,122,,30,02,169,,7*7C
$GAGSV,1,1,04,08,65,328,41,15,64,163,44,13,56,314,39,03,32,038,39,1*7A
$GBGSV,3,1,12,39,67,205,42,38,67,025,43,16,57,202,32,06,55,203,29,1*7F
$GBGSV,3,2,12,20,51,002,37,13,51,342,27,29,48,255,46,19,32,296,22,1*71
$GBGSV,3,3,12,37,32,093,45,46,26,158,28,32,20,061,42,35,17,311,23,1*7B
$GBGSV,2,1,08,38,67,025,44,39,67,205,44,20,51,002,30,29,48,255,44,4*7B
$GBGSV,2,2,08,19,32,296,18,37,32,093,43,32,20,061,37,35,17,311,34,4*7A
$GNGGA,094410.000,2500.7773708,N,12132.4603123,E,4,47,0.52,15.895,M,15.25,M,1,3335*41
$GNRMC,094410.000,A,2500.7773708,N,12132.4603123,E,0.02,357.48,260623,,,R,V*13
$GPHDT,,T*1B
$GNGGA,094410.200,2500.7773694,N,12132.4603113,E,4,47,0.52,15.888,M,15.25,M,1,3335*48
$GNRMC,094410.200,A,2500.7773694,N,12132.4603113,E,0.01,357.48,260623,,,R,V*15
$GPHDT,,T*1B
$GNGGA,094410.400,2500.7773707,N,12132.4603124,E,4,45,0.52,15.877,M,15.25,M,1,3335*43
$GNRMC,094410.400,A,2500.7773707,N,12132.4603124,E,0.01,357.48,260623,,,R,V*1C
$GPHDT,,T*1B
$GNGGA,094410.600,2500.7773723,N,12132.4603110,E,4,46,0.52,15.899,M,15.25,M,0,3335*42
$GNRMC,094410.600,A,2500.7773723,N,12132.4603110,E,0.01,357.48,260623,,,R,V*1F
$GPHDT,,T*1B
$GNGGA,094410.800,2500.7773694,N,12132.4603117,E,4,48,0.52,15.889,M,15.25,M,0,3335*49
$GNRMC,094410.800,A,2500.7773694,N,12132.4603117,E,0.02,357.48,260623,,,R,V*18
$GPHDT,,T*1B
$GNGSA,A,3,196,15,199,13,05,18,29,20,11,194,,,0.99,0.52,0.85,1*3B
$GNGSA,A,3,84,85,69,79,80,,,,,,,,0.99,0.52,0.85,2*00
$GNGSA,A,3,08,15,13,03,34,,,,,,,,0.99,0.52,0.85,3*03
$GNGSA,A,3,39,38,16,13,20,29,37,46,32,35,19,,0.99,0.52,0.85,4*0A
$GPGSV,4,1,14,196,72,047,40,15,62,343,40,199,60,167,33,195,53,173,26,1*55
$GPGSV,4,2,14,13,43,030,45,05,42,068,45,18,38,319,30,41,38,242,37,1*68
$GPGSV,4,3,14,29,27,233,43,20,26,095,40,23,17,307,22,11,17,145,25,1*61
$GPGSV,4,4,14,194,17,149,29,24,,,20,1*68
$GPGSV,2,1,05,196,72,047,46,199,60,167,44,195,53,173,18,18,38,319,22,8*58
$GPGSV,2,2,05,11,17,145,27,8*5B
$GLGSV,2,1,05,84,62,217,28,85,35,319,22,69,32,022,27,79,24,084,38,1*7C
$GLGSV,2,2,05,80,18,139,26,1*43
$GAGSV,2,1,07,08,65,328,35,15,64,163,37,13,56,314,34,03,32,038,32,7*7D
$GAGSV,2,2,07,07,31,255,,34,14,150,20,02,08,122,,7*4C
$GAGSV,1,1,04,08,65,328,41,15,64,163,44,13,56,314,39,03,32,038,39,1*7A
$GBGSV,3,1,12,39,67,205,42,38,67,025,43,16,57,202,32,06,55,203,29,1*7F
$GBGSV,3,2,12,13,51,342,29,20,51,002,37,29,48,255,46,19,32,296,22,1*7F
$GBGSV,3,3,12,37,32,093,45,46,26,158,28,32,20,061,42,35,17,311,24,1*7C
$GBGSV,2,1,08,38,67,025,44,39,67,205,44,20,51,002,31,29,48,255,43,4*7D
$GBGSV,2,2,08,19,32,296,19,37,32,093,43,32,20,061,37,35,17,311,34,4*7B
$GNGGA,094411.000,2500.7773719,N,12132.4603128,E,4,46,0.52,15.893,M,15.25,M,1,3335*4C
$GNRMC,094411.000,A,2500.7773719,N,12132.4603128,E,0.01,357.48,260623,,,R,V*1A
$GPHDT,,T*1B
$GNGGA,094411.200,2500.7773713,N,12132.4603110,E,4,45,0.52,15.890,M,15.25,M,1,3335*4F
$GNRMC,094411.200,A,2500.7773713,N,12132.4603110,E,0.02,357.48,260623,,,R,V*1A
$GPHDT,,T*1B
$GNGGA,094411.400,2500.7773723,N,12132.4603095,E,4,47,0.52,15.876,M,15.25,M,1,3335*4C
$GNRMC,094411.400,A,2500.7773723,N,12132.4603095,E,0.01,357.48,260623,,,R,V*10
$GPHDT,,T*1B
$GNGGA,094411.600,2500.7773754,N,12132.4603093,E,4,48,0.52,15.891,M,15.25,M,0,3335*4F
$GNRMC,094411.600,A,2500.7773754,N,12132.4603093,E,0.03,357.48,260623,,,R,V*16
$GPHDT,,T*1B
$GNGGA,094411.800,2500.7773753,N,12132.4603092,E,4,48,0.52,15.881,M,15.25,M,0,3335*46
$GNRMC,094411.800,A,2500.7773753,N,12132.4603092,E,0.06,357.48,260623,,,R,V*1B
$GPHDT,,T*1B
$GNGSA,A,3,196,15,199,13,05,18,29,20,11,194,,,0.99,0.52,0.85,1*3B
$GNGSA,A,3,84,85,69,79,80,,,,,,,,0.99,0.52,0.85,2*00
$GNGSA,A,3,08,15,13,03,34,,,,,,,,0.99,0.52,0.85,3*03
$GNGSA,A,3,39,38,16,13,20,29,37,46,32,19,35,,0.99,0.52,0.85,4*0A
$GPGSV,4,1,14,196,72,047,40,15,62,343,40,199,60,167,32,195,53,173,25,1*57
$GPGSV,4,2,14,13,43,030,44,05,42,068,45,18,38,319,29,41,38,242,37,1*61
$GPGSV,4,3,14,29,27,233,43,20,26,095,40,23,17,307,21,11,17,145,25,1*62
$GPGSV,4,4,14,194,17,149,29,24,,,21,1*69
$GPGSV,2,1,05,196,72,047,46,199,60,167,44,195,53,173,17,18,38,319,21,8*54
$GPGSV,2,2,05,11,17,145,26,8*5A
$GLGSV,2,1,05,84,62,217,28,85,35,319,22,69,32,022,24,79,24,084,38,1*7F
$GLGSV,2,2,05,80,18,139,26,1*43
$GAGSV,2,1,07,08,65,328,35,15,64,163,37,13,56,314,33,03,32,038,33,7*7B
$GAGSV,2,2,07,07,31,255,,34,14,150,20,02,08,122,,7*4C
$GAGSV,2,1,05,08,65,328,41,15,64,163,44,13,56,314,39,03,32,038,39,1*78
$GAGSV,2,2,05,34,14,150,22,1*46
$GBGSV,3,1,12,39,67,205,42,38,67,025,43,16,57,202,31,06,55,203,28,1*7D
$GBGSV,3,2,12,13,51,342,29,20,51,002,37,29,48,255,46,19,32,296,21,1*7C
$GBGSV,3,3,12,37,32,093,46,46,26,158,28,32,20,061,42,35,17,311,20,1*7B
$GBGSV,3,1,09,38,67,025,44,39,67,205,44,20,51,002,30,29,48,255,43,4*7C
$GBGSV,3,2,09,19,32,296,19,37,32,093,43,46,26,158,20,32,20,061,38,4*78
$GBGSV,3,3,09,35,17,311,34,4*4E
$GNGGA,094412.000,2500.7773739,N,12132.4603106,E,4,47,0.52,15.886,M,15.25,M,1,3335*44
$GNRMC,094412.000,A,2500.7773739,N,12132.4603106,E,0.04,357.48,260623,,,R,V*12
$GPHDT,,T*1B
$GNGGA,094412.200,2500.7773736,N,12132.4603131,E,4,47,0.52,15.888,M,15.25,M,1,3335*43
$GNRMC,094412.200,A,2500.7773736,N,12132.4603131,E,0.01,357.48,260623,,,R,V*1E
$GPHDT,,T*1B
$GNGGA,094412.400,2500.7773744,N,12132.4603121,E,4,48,0.52,15.885,M,15.25,M,1,3335*43
$GNRMC,094412.400,A,2500.7773744,N,12132.4603121,E,0.01,357.48,260623,,,R,V*1C
$GPHDT,,T*1B
$GNGGA,094412.600,2500.7773772,N,12132.4603092,E,4,46,0.52,15.876,M,15.25,M,0,3335*4E
$GNRMC,094412.600,A,2500.7773772,N,12132.4603092,E,0.04,357.48,260623,,,R,V*17
$GPHDT,,T*1B
$GNGGA,094412.800,2500.7773731,N,12132.4603090,E,4,47,0.52,15.881,M,15.25,M,0,3335*4C
$GNRMC,094412.800,A,2500.7773731,N,12132.4603090,E,0.04,357.48,260623,,,R,V*1C
$GPHDT,,T*1B
$GNGSA,A,3,196,15,199,13,05,18,29,20,11,194,,,0.99,0.52,0.85,1*3B
$GNGSA,A,3,84,85,69,79,80,,,,,,,,0.99,0.52,0.85,2*00
$GNGSA,A,3,08,15,13,03,34,,,,,,,,0.99,0.52,0.85,3*03
$GNGSA,A,3,39,38,16,13,20,29,37,46,32,19,35,,0.99,0.52,0.85,4*0A
$GPGSV,4,1,14,196,72,047,39,15,62,343,39,199,60,167,33,195,53,173,25,1*56
$GPGSV,4,2,14,24,49,178,20,13,43,030,43,05,42,068,45,41,38,242,36,1*62
$GPGSV,4,3,14,18,38,319,29,29,27,233,42,20,26,095,39,23,17,307,20,1*6F
$GPGSV,4,4,14,11,17,145,25,194,17,149,29,1*5D
$GPGSV,2,1,05,196,72,047,47,199,60,167,44,195,53,173,16,18,38,319,21,8*54
$GPGSV,2,2,05,11,17,145,25,8*59
$GLGSV,2,1,05,84,62,217,29,85,35,319,22,69,32,022,21,79,24,084,38,1*7B
$GLGSV,2,2,05,80,18,139,26,1*43
$GAGSV,2,1,07,08,65,328,35,15,64,163,37,13,56,314,32,03,32,038,33,7*7A
$GAGSV,2,2,07,07,31,255,,34,14,150,20,02,08,122,,7*4C
$GAGSV,2,1,05,08,65,328,41,15,64,163,44,13,56,314,39,03,32,038,39,1*78
$GAGSV,2,2,05,34,14,150,21,1*45
$GBGSV,3,1,12,39,67,205,42,38,67,025,43,16,57,202,31,06,55,203,27,1*72
$GBGSV,3,2,12,13,51,342,28,20,51,002,37,29,48,255,47,19,32,296,21,1*7C
$GBGSV,3,3,12,37,32,093,46,46,26,158,29,32,20,061,42,35,17,311,20,1*7A
$GBGSV,3,1,09,38,67,025,45,39,67,205,44,20,51,002,30,29,48,255,44,4*7A
$GBGSV,3,2,09,19,32,296,18,37,32,093,43,46,26,158,20,32,20,061,37,4*76
$GBGSV,3,3,09,35,17,311,34,4*4E
$GNGGA,094413.000,2500.7773757,N,12132.4603082,E,4,47,0.52,15.875,M,15.25,M,1,3335*4C
$GNRMC,094413.000,A,2500.7773757,N,12132.4603082,E,0.06,357.48,260623,,,R,V*14
$GPHDT,,T*1B
$GNGGA,094413.200,2500.7773796,N,12132.4603048,E,4,47,0.52,15.874,M,15.25,M,1,3335*44
$GNRMC,094413.200,A,2500.7773796,N,12132.4603048,E,0.01,357.48,260623,,,R,V*1A
$GPHDT,,T*1B
$GNGGA,094413.400,2500.7773829,N,12132.4603048,E,4,48,0.52,15.872,M,15.25,M,0,3335*41
$GNRMC,094413.400,A,2500.7773829,N,12132.4603048,E,0.05,357.48,260623,,,R,V*13
$GPHDT,,T*1B
$GNGGA,094413.600,2500.7773833,N,12132.4603050,E,4,48,0.52,15.875,M,15.25,M,0,3335*46
$GNRMC,094413.600,A,2500.7773833,N,12132.4603050,E,0.04,357.48,260623,,,R,V*12
$GPHDT,,T*1B
$GNGGA,094413.800,2500.7773726,N,12132.4603133,E,4,48,0.52,15.882,M,15.25,M,0,3335*4F
$GNRMC,094413.800,A,2500.7773726,N,12132.4603133,E,0.03,357.48,260623,,,R,V*14
$GPHDT,,T*1B
$GNGSA,A,3,196,15,199,13,05,18,29,20,11,194,,,0.99,0.52,0.85,1*3B
$GNGSA,A,3,84,85,69,79,80,,,,,,,,0.99,0.52,0.85,2*00
$GNGSA,A,3,08,15,13,03,34,,,,,,,,0.99,0.52,0.85,3*03
$GNGSA,A,3,39,38,16,13,20,29,19,37,46,32,35,,0.99,0.52,0.85,4*0A
$GPGSV,4,1,14,196,72,047,40,15,62,343,31,199,60,167,32,195,53,173,28,1*5C
$GPGSV,4,2,14,24,49,178,18,13,43,030,43,05,42,068,45,41,38,242,36,1*69
$GPGSV,4,3,14,18,38,319,26,29,27,233,43,20,26,095,38,23,17,307,21,1*61
$GPGSV,4,4,14,11,17,145,25,194,17,149,28,1*5C
$GPGSV,2,1,06,196,72,047,47,199,60,167,44,195,53,173,18,18,38,319,21,8*59
$GPGSV,2,2,06,23,17,307,21,11,17,145,24,8*6B
$GLGSV,2,1,05,84,62,217,30,85,35,319,19,69,32,022,25,79,24,084,38,1*7F
$GLGSV,2,2,05,80,18,139,27,1*42
$GAGSV,2,1,07,08,65,328,34,15,64,163,38,13,56,314,28,03,32,038,34,7*78
$GAGSV,2,2,07,07,31,255,,34,14,150,20,02,08,122,,7*4C
$GAGSV,2,1,05,08,65,328,40,15,64,163,44,13,56,314,39,03,32,038,39,1*79
$GAGSV,2,2,05,34,14,150,21,1*45
$GBGSV,3,1,12,39,67,205,42,38,67,025,44,16,57,202,30,06,55,203,28,1*7B
$GBGSV,3,2,12,13,51,342,27,20,51,002,37,29,48,255,47,19,32,296,23,1*71
$GBGSV,3,3,12,37,32,093,46,46,26,158,29,32,20,061,42,35,17,311,18,1*71
$GBGSV,3,1,09,38,67,025,45,39,67,205,44,20,51,002,30,29,48,255,44,4*7A
$GBGSV,3,2,09,19,32,296,18,37,32,093,43,46,26,158,21,32,20,061,38,4*78
$GBGSV,3,3,09,35,17,311,34,4*4E
$GNGGA,094414.000,2500.7773828,N,12132.4603055,E,4,49,0.52,15.879,M,15.25,M,1,3335*44
$GNRMC,094414.000,A,2500.7773828,N,12132.4603055,E,0.03,357.48,260623,,,R,V*1B
$GPHDT,,T*1B
$GNGGA,094414.200,2500.7773819,N,12132.4603072,E,4,48,0.52,15.886,M,15.25,M,1,3335*40
$GNRMC,094414.200,A,2500.7773819,N,12132.4603072,E,0.03,357.48,260623,,,R,V*1E
