$FW : RTK35X,V1.1X0314AS,Lib20210517,1*54
$Tool : LOCOSYS , GNSS Firebird , v1.0.0.19*39
$---------------------------------------------------*2D
$GNGGA,094251.200,2500.7766918,N,12132.4617389,E,2,48,0.52,18.293,M,15.25,M,4,3335*41
$GNRMC,094251.200,A,2500.7766918,N,12132.4617389,E,0.06,131.10,260623,,,D,V*03
$GPHDT,,T*1B
$GNGGA,094251.400,2500.7766918,N,12132.4617389,E,2,47,0.52,18.300,M,15.25,M,2,3335*45
$GNRMC,094251.400,A,2500.7766918,N,12132.4617389,E,0.03,131.10,260623,,,D,V*00
$GPHDT,,T*1B
$GNGGA,094251.600,2500.7766858,N,12132.4617389,E,2,47,0.52,18.309,M,15.25,M,0,3335*49
$GNRMC,094251.600,A,2500.7766858,N,12132.4617389,E,0.04,131.10,260623,,,D,V*00
$GPHDT,,T*1B
$GNGGA,094251.800,2500.7766858,N,12132.4617389,E,2,47,0.52,18.316,M,15.25,M,0,3335*49
$GNRMC,094251.800,A,2500.7766858,N,12132.4617389,E,0.06,131.10,260623,,,D,V*0C
$GPHDT,,T*1B
$GNGSA,A,3,196,15,199,13,05,18,29,20,11,194,,,0.99,0.52,0.85,1*3B
$GNGSA,A,3,84,85,69,79,80,,,,,,,,0.99,0.52,0.85,2*00
$GNGSA,A,3,08,15,13,03,34,,,,,,,,0.99,0.52,0.85,3*03
$GNGSA,A,3,39,38,16,20,13,29,19,37,46,32,35,,0.99,0.52,0.85,4*0A
$GPGSV,4,1,13,196,72,047,34,15,62,342,43,199,60,167,32,13,43,030,46,1*6C
$GPGSV,4,2,13,05,42,067,38,18,38,319,28,41,38,242,36,29,28,233,38,1*6D
$GPGSV,4,3,13,20,26,094,41,11,18,145,23,194,16,150,21,195,,,21,1*55
$GPGSV,4,4,13,24,,,26,1*64
$GPGSV,2,1,07,196,72,047,40,199,60,167,44,18,38,319,26,11,18,145,32,8*67
$GPGSV,2,2,07,194,16,150,12,195,,,26,24,,,24,8*5F
$GLGSV,2,1,05,84,63,218,23,85,35,320,24,69,32,021,26,79,24,085,34,1*7A
$GLGSV,2,2,05,80,18,139,20,1*45
$GAGSV,2,1,07,08,65,326,37,15,65,163,40,13,56,315,37,03,33,037,32,7*7C
$GAGSV,2,2,07,07,31,254,21,34,14,149,15,25,01,077,,7*4D
$GAGSV,2,1,05,08,65,326,43,15,65,163,43,13,56,315,40,03,33,037,37,1*7D
$GAGSV,2,2,05,34,14,149,18,1*47
$GBGSV,3,1,12,39,67,205,41,38,67,025,40,16,57,202,35,06,55,202,23,1*73
$GBGSV,3,2,12,20,51,002,41,13,51,342,26,29,48,255,43,19,32,295,24,1*71
$GBGSV,3,3,12,37,32,093,42,46,25,158,26,32,20,061,36,35,17,312,21,1*73
$GBGSV,3,1,09,38,67,025,42,39,67,205,44,20,51,002,28,29,48,255,43,4*73
$GBGSV,3,2,09,37,32,093,41,19,32,295,21,46,25,158,18,32,20,061,30,4*72
$GBGSV,3,3,09,35,17,312,28,4*40
$GNGGA,094252.000,2500.7766858,N,12132.4617389,E,2,48,0.52,18.327,M,15.25,M,1,3335*4E
$GNRMC,094252.000,A,2500.7766858,N,12132.4617389,E,0.09,131.10,260623,,,D,V*08
$GPHDT,,T*1B
$GNGGA,094252.200,2500.7766858,N,12132.4617389,E,2,48,0.52,18.336,M,15.25,M,1,3335*4C
$GNRMC,094252.200,A,2500.7766858,N,12132.4617389,E,0.05,131.10,260623,,,D,V*06
$GPHDT,,T*1B
$GNGGA,094252.400,2500.7766858,N,12132.4617449,E,2,48,0.52,18.346,M,15.25,M,1,3335*46
$GNRMC,094252.400,A,2500.7766858,N,12132.4617449,E,0.05,131.10,260623,,,D,V*0B
$GPHDT,,T*1B
$GNGGA,094252.600,2500.7766858,N,12132.4617449,E,2,48,0.52,18.355,M,15.25,M,1,3335*46
$GNRMC,094252.600,A,2500.7766858,N,12132.4617449,E,0.05,131.10,260623,,,D,V*09
$GPHDT,,T*1B
$GNGGA,094252.800,2500.7766858,N,12132.4617449,E,2,48,0.52,18.363,M,15.25,M,1,3335*4D
$GNRMC,094252.800,A,2500.7766858,N,12132.4617449,E,0.10,131.10,260623,,,D,V*03
$GPHDT,,T*1B
$GNGSA,A,3,196,15,199,13,05,18,29,20,11,,,,1.02,0.52,0.87,1*06
$GNGSA,A,3,84,85,69,79,80,,,,,,,,1.02,0.52,0.87,2*01
$GNGSA,A,3,08,15,13,03,34,,,,,,,,1.02,0.52,0.87,3*02
$GNGSA,A,3,39,38,16,20,13,29,19,37,46,32,35,,1.02,0.52,0.87,4*0B
$GPGSV,4,1,13,196,72,047,39,15,62,342,40,199,60,167,32,13,43,030,46,1*62
$GPGSV,4,2,13,05,42,067,40,18,38,319,28,41,38,242,36,29,28,233,39,1*63
$GPGSV,4,3,13,20,26,094,42,11,18,145,18,194,16,150,,195,,,21,1*5D
$GPGSV,4,4,13,24,,,25,1*67
$GPGSV,2,1,06,196,72,047,43,199,60,167,44,18,38,319,26,11,18,145,31,8*66
$GPGSV,2,2,06,195,,,26,24,,,23,8*55
$GLGSV,2,1,05,84,63,218,24,85,35,320,23,69,32,021,29,79,24,085,36,1*77
$GLGSV,2,2,05,80,18,139,19,1*4F
$GAGSV,2,1,07,08,65,326,37,15,65,163,39,13,56,315,37,03,33,037,34,7*74
$GAGSV,2,2,07,07,31,254,21,34,14,149,18,25,01,077,,7*40
$GAGSV,2,1,05,08,65,326,42,15,65,163,43,13,56,315,40,03,33,037,36,1*7D
$GAGSV,2,2,05,34,14,149,18,1*47
$GBGSV,3,1,12,39,67,205,41,38,67,025,43,16,57,202,34,06,55,202,26,1*74
$GBGSV,3,2,12,20,51,002,41,13,51,342,25,29,48,255,43,19,32,295,24,1*72
$GBGSV,3,3,12,37,32,093,46,46,25,158,24,32,20,061,37,35,17,312,24,1*71
$GBGSV,3,1,09,38,67,025,44,39,67,205,43,20,51,002,25,29,48,255,43,4*7F
$GBGSV,3,2,09,37,32,093,44,19,32,295,22,46,25,158,19,32,20,061,31,4*74
$GBGSV,3,3,09,35,17,312,30,4*49
$GNGGA,094253.000,2500.7766858,N,12132.4617509,E,2,48,0.52,18.372,M,15.25,M,2,3335*42
$GNRMC,094253.000,A,2500.7766858,N,12132.4617509,E,0.04,131.10,260623,,,D,V*0A
$GPHDT,,T*1B
$GNGGA,094253.200,2500.7766798,N,12132.4617509,E,2,48,0.52,18.381,M,15.25,M,2,3335*4F
$GNRMC,094253.200,A,2500.7766798,N,12132.4617509,E,0.06,131.10,260623,,,D,V*09
$GPHDT,,T*1B
$GNGGA,094253.400,2500.7766798,N,12132.4617509,E,2,48,0.52,18.389,M,15.25,M,2,3335*41
$GNRMC,094253.400,A,2500.7766798,N,12132.4617509,E,0.06,131.10,260623,,,D,V*0F
$GPHDT,,T*1B
$GNGGA,094253.600,2500.7766798,N,12132.4617509,E,2,48,0.52,18.397,M,15.25,M,2,3335*4C
$GNRMC,094253.600,A,2500.7766798,N,12132.4617509,E,0.05,131.10,260623,,,D,V*0E
$GPHDT,,T*1B
$GNGGA,094253.800,2500.7766738,N,12132.4617509,E,2,47,0.52,18.404,M,15.25,M,2,3335*4A
$GNRMC,094253.800,A,2500.7766738,N,12132.4617509,E,0.04,131.10,260623,,,D,V*0B
$GPHDT,,T*1B
$GNGSA,A,3,196,15,199,13,05,18,29,20,194,11,,,0.99,0.52,0.85,1*3B
$GNGSA,A,3,84,85,69,79,80,,,,,,,,0.99,0.52,0.85,2*00
$GNGSA,A,3,08,15,13,03,34,,,,,,,,0.99,0.52,0.85,3*03
$GNGSA,A,3,39,38,16,20,13,29,19,37,46,32,35,,0.99,0.52,0.85,4*0A
$GPGSV,4,1,13,196,72,047,40,15,62,342,40,199,60,167,32,13,43,030,46,1*6C
$GPGSV,4,2,13,05,42,067,40,18,38,319,27,41,38,242,36,29,28,233,39,1*6C
$GPGSV,4,3,13,20,26,094,42,11,18,145,21,194,16,150,28,195,,,24,1*58
$GPGSV,4,4,13,24,,,25,1*67
$GPGSV,2,1,06,196,72,047,43,199,60,167,44,18,38,319,26,11,18,145,31,8*66
$GPGSV,2,2,06,195,,,25,24,,,23,8*56
$GLGSV,2,1,05,84,63,218,26,85,35,320,23,69,32,021,31,79,24,085,36,1*7C
$GLGSV,2,2,05,80,18,139,20,1*45
$GAGSV,2,1,07,08,65,326,38,15,65,163,39,13,56,315,37,03,33,037,34,7*7B
$GAGSV,2,2,07,07,31,254,19,34,14,149,19,25,01,077,,7*4A
$GAGSV,2,1,05,08,65,326,42,15,65,163,43,13,56,315,40,03,33,037,36,1*7D
$GAGSV,2,2,05,34,14,149,18,1*47
$GBGSV,3,1,12,39,67,205,40,38,67,025,43,16,57,202,34,06,55,202,25,1*76
$GBGSV,3,2,12,20,51,002,40,13,51,342,25,29,48,255,44,19,32,295,26,1*76
$GBGSV,3,3,12,37,32,093,46,46,25,158,19,32,20,061,37,35,17,312,23,1*78
$GBGSV,2,1,08,38,67,025,44,39,67,205,43,29,48,255,43,37,32,093,44,4*73
$GBGSV,2,2,08,19,32,295,23,46,25,158,19,32,20,061,31,35,17,312,30,4*79
$GNGGA,094254.000,2500.7766738,N,12132.4617569,E,2,47,0.52,18.415,M,15.25,M,3,3335*42
$GNRMC,094254.000,A,2500.7766738,N,12132.4617569,E,0.04,131.10,260623,,,D,V*02
$GPHDT,,T*1B
$GNGGA,094254.200,2500.7766738,N,12132.4617569,E,2,48,0.52,18.428,M,15.25,M,3,3335*41
$GNRMC,094254.200,A,2500.7766738,N,12132.4617569,E,0.13,131.10,260623,,,D,V*06
$GPHDT,,T*1B
$GNGGA,094254.400,2500.7766738,N,12132.4617569,E,2,48,0.52,18.438,M,15.25,M,3,3335*46
$GNRMC,094254.400,A,2500.7766738,N,12132.4617569,E,0.02,131.10,260623,,,D,V*00
$GPHDT,,T*1B
$GNGGA,094254.600,2500.7766678,N,12132.4617629,E,2,49,0.52,18.446,M,15.25,M,3,3335*4E
$GNRMC,094254.600,A,2500.7766678,N,12132.4617629,E,0.06,131.10,260623,,,D,V*04
$GPHDT,,T*1B
$GNGGA,094254.800,2500.7766678,N,12132.4617629,E,2,49,0.52,18.456,M,15.25,M,3,3335*41
$GNRMC,094254.800,A,2500.7766678,N,12132.4617629,E,0.05,131.10,260623,,,D,V*09
$GPHDT,,T*1B
$GNGSA,A,3,196,15,199,13,05,18,29,20,11,194,,,0.99,0.52,0.85,1*3B
$GNGSA,A,3,84,85,69,79,80,,,,,,,,0.99,0.52,0.85,2*00
$GNGSA,A,3,08,15,13,03,34,,,,,,,,0.99,0.52,0.85,3*03
$GNGSA,A,3,39,38,16,20,13,29,19,37,46,32,35,,0.99,0.52,0.85,4*0A
$GPGSV,4,1,13,196,72,047,40,15,62,342,40,199,60,167,32,13,43,030,46,1*6C
$GPGSV,4,2,13,05,42,067,40,18,38,319,27,41,38,242,36,29,28,233,39,1*6C
$GPGSV,4,3,13,20,26,094,42,11,18,145,19,194,16,150,24,195,,,23,1*58
$GPGSV,4,4,13,24,,,25,1*67
$GPGSV,2,1,06,196,72,047,43,199,60,167,44,18,38,319,26,11,18,145,31,8*66
$GPGSV,2,2,06,195,,,25,24,,,22,8*57
$GLGSV,2,1,05,84,63,218,24,85,35,320,22,69,32,021,32,79,24,085,36,1*7C
$GLGSV,2,2,05,80,18,139,20,1*45
$GAGSV,2,1,07,08,65,326,38,15,65,163,39,13,56,315,37,03,33,037,32,7*7D
$GAGSV,2,2,07,07,31,254,19,34,14,149,19,25,01,077,,7*4A
$GAGSV,2,1,05,08,65,326,42,15,65,163,43,13,56,315,40,03,33,037,36,1*7D
$GAGSV,2,2,05,34,14,149,18,1*47
$GBGSV,3,1,12,39,67,205,40,38,67,025,44,16,57,202,34,06,55,202,26,1*72
$GBGSV,3,2,12,20,51,002,40,13,51,342,25,29,48,255,44,19,32,295,26,1*76
$GBGSV,3,3,12,37,32,093,46,46,25,158,18,32,20,061,37,35,17,312,22,1*78
$GBGSV,3,1,09,38,67,025,44,39,67,205,43,20,51,002,23,29,48,255,43,4*79
$GBGSV,3,2,09,37,32,093,44,19,32,295,23,46,25,158,20,32,20,061,30,4*7E
$GBGSV,3,3,09,35,17,312,30,4*49
$GNGGA,094255.000,2500.7766678,N,12132.4617629,E,2,49,0.52,18.464,M,15.25,M,4,3335*4E
$GNRMC,094255.000,A,2500.7766678,N,12132.4617629,E,0.01,131.10,260623,,,D,V*04
$GPHDT,,T*1B
$GNGGA,094255.200,2500.7766738,N,12132.4617629,E,2,49,0.52,18.467,M,15.25,M,4,3335*4A
$GNRMC,094255.200,A,2500.7766738,N,12132.4617629,E,0.03,131.10,260623,,,D,V*01
$GPHDT,,T*1B
$GNGGA,094255.400,2500.7766678,N,12132.4617629,E,2,49,0.52,18.479,M,15.25,M,4,3335*46
$GNRMC,094255.400,A,2500.7766678,N,12132.4617629,E,0.02,131.10,260623,,,D,V*03
$GPHDT,,T*1B
$GNGGA,094255.600,2500.7766678,N,12132.4617629,E,2,48,0.52,18.488,M,15.25,M,4,3335*4B
$GNRMC,094255.600,A,2500.7766678,N,12132.4617629,E,0.10,131.10,260623,,,D,V*02
$GPHDT,,T*1B
$GNGGA,094255.800,2500.7766678,N,12132.4617689,E,2,48,0.52,18.499,M,15.25,M,4,3335*4F
$GNRMC,094255.800,A,2500.7766678,N,12132.4617689,E,0.06,131.10,260623,,,D,V*01
$GPHDT,,T*1B
$GNGSA,A,3,196,15,199,13,05,18,29,20,11,194,,,0.99,0.52,0.85,1*3B
$GNGSA,A,3,84,85,69,79,80,,,,,,,,0.99,0.52,0.85,2*00
$GNGSA,A,3,08,15,13,03,34,,,,,,,,0.99,0.52,0.85,3*03
$GNGSA,A,3,38,39,16,20,13,29,19,37,32,35,46,,0.99,0.52,0.85,4*0A
$GPGSV,4,1,13,196,72,047,41,15,62,342,40,199,60,167,31,13,43,030,46,1*6E
$GPGSV,4,2,13,05,42,067,39,18,38,319,27,41,38,242,36,29,28,233,39,1*62
$GPGSV,4,3,13,20,26,094,42,11,18,145,17,194,16,150,24,195,,,22,1*57
$GPGSV,4,4,13,24,,,24,1*66
$GPGSV,2,1,06,196,72,047,43,199,60,167,44,18,38,319,27,11,18,145,31,8*67
$GPGSV,2,2,06,195,,,25,24,,,21,8*54
$GLGSV,2,1,05,84,63,218,24,85,35,320,21,69,32,021,32,79,24,085,36,1*7F
$GLGSV,2,2,05,80,18,139,20,1*45
$GAGSV,2,1,06,08,65,327,38,15,65,163,39,13,56,315,37,03,33,037,31,7*7E
$GAGSV,2,2,06,07,31,254,19,34,14,149,19,7*7D
$GAGSV,2,1,05,08,65,327,42,15,65,163,43,13,56,315,40,03,33,037,36,1*7C
$GAGSV,2,2,05,34,14,149,18,1*47
$GBGSV,4,1,13,38,67,025,44,39,67,205,40,16,57,202,34,06,55,202,26,1*74
$GBGSV,4,2,13,20,51,002,40,13,51,342,24,29,48,255,44,09,38,205,,1*77
$GBGSV,4,3,13,19,32,295,27,37,32,093,46,46,25,158,19,32,20,061,37,1*7D
$GBGSV,4,4,13,35,17,312,22,1*44
$GBGSV,3,1,09,38,67,025,45,39,67,205,43,20,51,002,23,29,48,255,43,4*78
$GBGSV,3,2,09,37,32,093,44,19,32,295,23,46,25,158,21,32,20,061,30,4*7F
$GBGSV,3,3,09,35,17,312,30,4*49
$GNGGA,094256.000,2500.7766678,N,12132.4617689,E,2,48,0.52,18.508,M,15.25,M,5,3335*4C
$GNRMC,094256.000,A,2500.7766678,N,12132.4617689,E,0.05,131.10,260623,,,D,V*09
$GPHDT,,T*1B
$GNGGA,094256.200,2500.7766678,N,12132.4617689,E,2,48,0.52,18.517,M,15.25,M,5,3335*40
$GNRMC,094256.200,A,2500.7766678,N,12132.4617689,E,0.01,131.10,260623,,,D,V*0F
$GPHDT,,T*1B
$GNGGA,094256.400,2500.7766678,N,12132.4617749,E,2,48,0.52,18.523,M,15.25,M,5,3335*4C
$GNRMC,094256.400,A,2500.7766678,N,12132.4617749,E,0.01,131.10,260623,,,D,V*04
$GPHDT,,T*1B
$GNGGA,094256.600,2500.7766678,N,12132.4617749,E,2,48,0.52,18.526,M,15.25,M,5,3335*4B
$GNRMC,094256.600,A,2500.7766678,N,12132.4617749,E,0.02,131.10,260623,,,D,V*05
$GPHDT,,T*1B
$GNGGA,094256.800,2500.7766678,N,12132.4617749,E,2,49,0.52,18.534,M,15.25,M,5,3335*47
$GNRMC,094256.800,A,2500.7766678,N,12132.4617749,E,0.03,131.10,260623,,,D,V*0A
$GPHDT,,T*1B
$GNGSA,A,3,196,15,199,13,05,18,29,20,11,194,,,0.99,0.52,0.85,1*3B
$GNGSA,A,3,84,85,69,79,80,,,,,,,,0.99,0.52,0.85,2*00
$GNGSA,A,3,08,15,13,03,34,,,,,,,,0.99,0.52,0.85,3*03
$GNGSA,A,3,39,38,16,20,13,29,37,19,46,32,35,,0.99,0.52,0.85,4*0A
$GPGSV,4,1,13,196,72,047,41,15,62,342,40,199,60,167,31,13,43,030,46,1*6E
$GPGSV,4,2,13,05,42,067,37,18,38,319,28,41,38,242,36,29,28,233,38,1*62
$GPGSV,4,3,13,20,26,094,42,11,18,145,17,194,16,150,25,195,,,20,1*54
$GPGSV,4,4,13,24,,,24,1*66
$GPGSV,2,1,06,196,72,047,43,199,60,167,44,18,38,319,26,11,18,145,31,8*66
$GPGSV,2,2,06,195,,,25,24,,,21,8*54
$GLGSV,2,1,06,84,63,218,24,85,35,320,22,70,34,302,,69,32,021,32,1*7E
$GLGSV,2,2,06,79,24,085,34,80,18,139,20,1*74
$GAGSV,2,1,06,08,65,327,38,15,65,163,39,13,56,315,37,03,33,037,31,7*7E
$GAGSV,2,2,06,07,31,254,19,34,14,149,21,7*76
$GAGSV,2,1,05,08,65,327,42,15,65,163,43,13,56,315,40,03,33,037,36,1*7C
$GAGSV,2,2,05,34,14,149,18,1*47
$GBGSV,3,1,12,39,67,205,40,38,67,025,44,16,57,202,33,06,55,202,25,1*76
$GBGSV,3,2,12,20,51,002,40,13,51,342,24,29,48,255,44,37,32,093,46,1*79
$GBGSV,3,3,12,19,32,295,27,46,25,158,19,32,20,061,37,35,17,312,22,1*76
$GBGSV,3,1,09,38,67,025,45,39,67,205,43,20,51,002,22,29,48,255,43,4*79
$GBGSV,3,2,09,37,32,093,44,19,32,295,24,46,25,158,20,32,20,061,29,4*71
$GBGSV,3,3,09,35,17,312,30,4*49
$GNGGA,094257.000,2500.7766678,N,12132.4617749,E,2,49,0.52,18.540,M,15.25,M,6,3335*4E
$GNRMC,094257.000,A,2500.7766678,N,12132.4617749,E,0.03,131.10,260623,,,D,V*03
$GPHDT,,T*1B
$GNGGA,094257.200,2500.7766618,N,12132.4617749,E,2,49,0.52,18.543,M,15.25,M,6,3335*49
$GNRMC,094257.200,A,2500.7766618,N,12132.4617749,E,0.03,131.10,260623,,,D,V*07
$GPHDT,,T*1B
$GNGGA,094257.400,2500.7766618,N,12132.4617749,E,2,48,0.52,18.544,M,15.25,M,6,3335*49
$GNRMC,094257.400,A,2500.7766618,N,12132.4617749,E,0.04,131.10,260623,,,D,V*06
$GPHDT,,T*1B
$GNGGA,094257.600,2500.7766678,N,12132.4617749,E,2,48,0.52,18.544,M,15.25,M,5,3335*4E
$GNRMC,094257.600,A,2500.7766678,N,12132.4617749,E,0.03,131.10,260623,,,D,V*05
$GPHDT,,T*1B
$GNGGA,094257.800,2500.7766678,N,12132.4617749,E,2,49,0.52,18.544,M,15.25,M,5,3335*41
$GNRMC,094257.800,A,2500.7766678,N,12132.4617749,E,0.05,131.10,260623,,,D,V*0D
$GPHDT,,T*1B
$GNGSA,A,3,196,15,199,13,05,18,29,20,11,194,,,0.99,0.52,0.85,1*3B
$GNGSA,A,3,84,85,69,79,80,,,,,,,,0.99,0.52,0.85,2*00
$GNGSA,A,3,15,08,13,03,34,,,,,,,,0.99,0.52,0.85,3*03
$GNGSA,A,3,39,38,16,20,13,29,19,37,46,32,35,,0.99,0.52,0.85,4*0A
$GPGSV,4,1,13,196,72,047,41,15,62,342,39,199,60,167,32,13,43,030,46,1*63
$GPGSV,4,2,13,05,42,067,37,41,38,242,36,18,38,319,28,29,28,233,38,1*62
$GPGSV,4,3,13,20,26,094,42,11,18,145,17,194,16,150,23,24,,,24,1*6D
$GPGSV,4,4,13,195,,,19,1*53
$GPGSV,2,1,06,196,72,047,43,199,60,167,44,18,38,319,26,11,18,145,31,8*66
$GPGSV,2,2,06,195,,,25,24,,,22,8*57
$GLGSV,2,1,08,84,63,218,24,85,35,320,23,70,34,302,,69,32,021,32,1*71
$GLGSV,2,2,08,79,24,085,34,80,18,139,21,83,11,170,,71,04,263,,1*73
$GAGSV,2,1,08,15,65,163,39,08,65,327,38,13,56,315,37,03,33,037,31,7*70
$GAGSV,2,2,08,07,31,254,18,34,14,149,21,02,07,122,,26,04,324,,7*78
$GAGSV,2,1,05,08,65,327,42,15,65,163,43,13,56,315,40,03,33,037,36,1*7C
$GAGSV,2,2,05,34,14,149,18,1*47
$GBGSV,4,1,16,39,67,205,40,38,67,025,44,16,57,202,33,06,55,202,25,1*75
$GBGSV,4,2,16,20,51,002,40,13,51,342,24,29,48,255,44,19,32,295,27,1*75
$GBGSV,4,3,16,37,32,093,46,30,28,186,,46,25,158,21,31,20,194,,1*7B
$GBGSV,4,4,16,32,20,061,37,35,17,312,21,10,10,213,,07,10,202,,1*74
$GBGSV,3,1,09,38,67,025,45,39,67,205,43,20,51,002,23,29,48,255,43,4*78
$GBGSV,3,2,09,37,32,093,44,19,32,295,22,46,25,158,19,32,20,061,29,4*7D
$GBGSV,3,3,09,35,17,312,30,4*49
$GNGGA,094258.000,2500.7766678,N,12132.4617749,E,2,49,0.52,18.547,M,15.25,M,6,3335*46
$GNRMC,094258.000,A,2500.7766678,N,12132.4617749,E,0.02,131.10,260623,,,D,V*0D
$GPHDT,,T*1B
$GNGGA,094258.200,2500.7766678,N,12132.4617809,E,2,49,0.52,18.547,M,15.25,M,6,3335*4F
$GNRMC,094258.200,A,2500.7766678,N,12132.4617809,E,0.01,131.10,260623,,,D,V*07
$GPHDT,,T*1B
$GNGGA,094258.400,2500.7766618,N,12132.4617809,E,2,49,0.52,18.549,M,15.25,M,6,3335*41
$GNRMC,094258.400,A,2500.7766618,N,12132.4617809,E,0.03,131.10,260623,,,D,V*05
$GPHDT,,T*1B
$GNGGA,094258.600,2500.7766618,N,12132.4617809,E,2,49,0.52,18.553,M,15.25,M,6,3335*48
$GNRMC,094258.600,A,2500.7766618,N,12132.4617809,E,0.04,131.10,260623,,,D,V*00
$GPHDT,,T*1B
$GNGGA,094258.800,2500.7766618,N,12132.4617809,E,2,49,0.52,18.556,M,15.25,M,6,3335*43
$GNRMC,094258.800,A,2500.7766618,N,12132.4617809,E,0.04,131.10,260623,,,D,V*0E
$GPHDT,,T*1B
$GNGSA,A,3,196,15,199,13,05,18,29,20,11,194,,,0.99,0.52,0.85,1*3B
$GNGSA,A,3,84,85,69,79,80,,,,,,,,0.99,0.52,0.85,2*00
$GNGSA,A,3,08,15,13,03,34,,,,,,,,0.99,0.52,0.85,3*03
$GNGSA,A,3,39,38,16,20,13,29,19,37,46,32,35,,0.99,0.52,0.85,4*0A
$GPGSV,4,1,13,196,72,047,41,15,62,342,39,199,60,167,31,13,43,030,46,1*60
$GPGSV,4,2,13,05,42,067,37,18,38,319,28,41,38,242,36,29,28,233,38,1*62
$GPGSV,4,3,13,20,26,094,42,11,18,145,13,194,16,150,25,195,,,19,1*5A
$GPGSV,4,4,13,24,,,24,1*66
$GPGSV,2,1,06,196,72,047,43,199,60,167,44,18,38,319,26,11,18,145,31,8*66
$GPGSV,2,2,06,195,,,25,24,,,23,8*56
$GLGSV,2,1,06,84,63,218,24,85,35,320,23,69,32,021,30,79,24,085,34,1*7E
$GLGSV,2,2,06,80,18,139,21,71,04,263,,1*72
$GAGSV,2,1,08,08,65,327,37,15,65,163,39,13,56,315,37,03,33,037,31,7*7F
$GAGSV,2,2,08,07,31,254,17,34,14,149,21,02,07,122,,26,05,324,,7*76
$GAGSV,2,1,05,08,65,327,42,15,65,163,43,13,56,315,40,03,33,037,36,1*7C
$GAGSV,2,2,05,34,14,149,18,1*47
$GBGSV,3,1,12,39,67,205,40,38,67,025,44,16,57,202,32,06,55,202,24,1*76
$GBGSV,3,2,12,20,51,002,40,13,51,342,24,29,48,255,44,19,32,295,27,1*76
$GBGSV,3,3,12,37,32,093,46,46,25,158,21,32,20,061,37,35,17,312,21,1*71
$GBGSV,3,1,09,38,67,025,45,39,67,205,43,20,51,002,24,29,48,255,43,4*7F
$GBGSV,3,2,09,37,32,093,44,19,32,295,22,46,25,158,19,32,20,061,30,4*75
$GBGSV,3,3,09,35,17,312,31,4*48
$GNGGA,094259.000,2500.7766618,N,12132.4617809,E,2,49,0.52,18.562,M,15.25,M,7,3335*4C
$GNRMC,094259.000,A,2500.7766618,N,12132.4617809,E,0.03,131.10,260623,,,D,V*00
$GPHDT,,T*1B
$GNGGA,094259.200,2500.7766618,N,12132.4617809,E,2,49,0.52,18.570,M,15.25,M,7,3335*4D
$GNRMC,094259.200,A,2500.7766618,N,12132.4617809,E,0.02,131.10,260623,,,D,V*03
$GPHDT,,T*1B
$GNGGA,094259.400,2500.7766618,N,12132.4617809,E,2,49,0.52,18.574,M,15.25,M,7,3335*4F
$GNRMC,094259.400,A,2500.7766618,N,12132.4617809,E,0.02,131.10,260623,,,D,V*05
$GPHDT,,T*1B
$GNGGA,094259.600,2500.7766618,N,12132.4617869,E,2,49,0.52,18.579,M,15.25,M,7,3335*46
$GNRMC,094259.600,A,2500.7766618,N,12132.4617869,E,0.09,131.10,260623,,,D,V*0A
$GPHDT,,T*1B
$GNGGA,094259.800,2500.7766618,N,12132.4617869,E,2,49,0.52,18.580,M,15.25,M,7,3335*4E
$GNRMC,094259.800,A,2500.7766618,N,12132.4617869,E,0.09,131.10,260623,,,D,V*04
$GPHDT,,T*1B
$GNGSA,A,3,196,15,199,13,05,18,29,20,11,194,,,0.99,0.52,0.85,1*3B
$GNGSA,A,3,84,85,69,79,80,,,,,,,,0.99,0.52,0.85,2*00
$GNGSA,A,3,08,15,13,03,34,,,,,,,,0.99,0.52,0.85,3*03
$GNGSA,A,3,38,39,16,13,20,29,37,19,46,32,35,,0.99,0.52,0.85,4*0A
$GPGSV,4,1,13,196,72,047,41,15,62,342,39,199,60,167,31,13,43,030,46,1*60
$GPGSV,4,2,13,05,42,067,37,18,38,319,28,41,38,242,36,29,28,233,38,1*62
$GPGSV,4,3,13,20,26,094,42,11,18,145,13,194,16,150,26,195,,,19,1*59
$GPGSV,4,4,13,24,,,24,1*66
$GPGSV,2,1,06,196,72,047,43,199,60,167,44,18,38,319,26,11,18,145,31,8*66
$GPGSV,2,2,06,195,,,25,24,,,23,8*56
$GLGSV,2,1,05,84,63,218,24,85,35,320,22,69,32,021,29,79,24,085,35,1*75
$GLGSV,2,2,05,80,18,139,20,1*45
$GAGSV,2,1,08,08,65,327,37,15,65,163,39,13,56,315,37,03,33,037,31,7*7F
$GAGSV,2,2,08,07,31,254,17,34,14,149,20,02,07,122,,26,05,324,,7*77
$GAGSV,2,1,05,08,65,327,42,15,65,163,43,13,56,315,40,03,33,037,36,1*7C
$GAGSV,2,2,05,34,14,149,18,1*47
$GBGSV,3,1,12,38,67,025,44,39,67,205,40,16,57,202,32,06,55,202,24,1*76
$GBGSV,3,2,12,13,51,342,24,20,51,002,40,29,48,255,44,37,32,093,46,1*79
$GBGSV,3,3,12,19,32,295,27,46,25,158,23,32,20,061,37,35,17,312,22,1*7F
$GBGSV,3,1,09,38,67,025,45,39,67,205,43,20,51,002,24,29,48,255,43,4*7F
$GBGSV,3,2,09,37,32,093,44,19,32,295,23,46,25,158,19,32,20,061,30,4*74
$GBGSV,3,3,09,35,17,312,31,4*48
$GNGGA,094300.000,2500.7766558,N,12132.4617869,E,2,49,0.52,18.584,M,15.25,M,8,3335*47
$GNRMC,094300.000,A,2500.7766558,N,12132.4617869,E,0.04,131.10,260623,,,D,V*0B
$GPHDT,,T*1B
$GNGGA,094300.200,2500.7766558,N,12132.4617869,E,2,49,0.52,18.591,M,15.25,M,8,3335*41
$GNRMC,094300.200,A,2500.7766558,N,12132.4617869,E,0.05,131.10,260623,,,D,V*08
$GPHDT,,T*1B
$GNGGA,094300.400,2500.7766558,N,12132.4617869,E,2,49,0.52,18.593,M,15.25,M,8,3335*45
$GNRMC,094300.400,A,2500.7766558,N,12132.4617869,E,0.05,131.10,260623,,,D,V*0E
$GPHDT,,T*1B
$GNGGA,094300.600,2500.7766498,N,12132.4617869,E,2,49,0.52,18.597,M,15.25,M,8,3335*4E
$GNRMC,094300.600,A,2500.7766498,N,12132.4617869,E,0.06,131.10,260623,,,D,V*02
$GPHDT,,T*1B
