$FW : RTK35X,V1.1X0314AS,Lib20210517,1*54
$Tool : LOCOSYS , GNSS Firebird , v1.0.0.19*39
$---------------------------------------------------*2D
$GNGGA,094226.600,2500.7766738,N,12132.4616069,E,2,48,0.52,17.853,M,15.25,M,0,3335*48
$GNRMC,094226.600,A,2500.7766738,N,12132.4616069,E,0.02,131.10,260623,,,D,V*03
$GPHDT,,T*1B
$GNGGA,094226.800,2500.7766738,N,12132.4616069,E,2,46,0.52,17.853,M,15.25,M,0,3335*48
$GNRMC,094226.800,A,2500.7766738,N,12132.4616069,E,0.03,131.10,260623,,,D,V*0C
$GPHDT,,T*1B
$GNGSA,A,3,196,15,199,13,05,18,29,20,194,11,,,0.84,0.52,0.66,1*3A
$GNGSA,A,3,84,85,69,79,80,,,,,,,,0.84,0.52,0.66,2*01
$GNGSA,A,3,15,08,13,03,34,,,,,,,,0.84,0.52,0.66,3*02
$GNGSA,A,3,38,39,13,20,29,37,19,46,32,35,,,0.84,0.52,0.66,4*0C
$GPGSV,4,1,13,196,72,047,42,15,62,342,39,199,60,167,35,13,43,030,46,1*67
$GPGSV,4,2,13,05,42,067,46,41,38,242,36,18,37,319,26,29,28,233,41,1*6B
$GPGSV,4,3,13,20,26,094,39,11,18,145,22,194,16,150,31,195,,,28,1*53
$GPGSV,4,4,13,24,,,21,1*63
$GPGSV,2,1,05,196,72,047,46,199,60,167,44,18,37,319,31,11,18,145,28,8*61
$GPGSV,2,2,05,194,16,150,24,8*61
$GLGSV,2,1,05,84,63,218,29,85,35,320,24,69,33,021,31,79,23,085,36,1*72
$GLGSV,2,2,05,80,17,140,18,1*4F
$GAGSV,2,1,06,15,65,163,42,08,65,326,35,13,56,315,37,03,33,037,35,7*7A
$GAGSV,2,2,06,07,31,254,23,34,14,149,27,7*79
$GAGSV,2,1,06,08,65,326,42,15,65,163,45,13,56,315,40,03,33,037,36,1*78
$GAGSV,2,2,06,07,31,254,10,34,14,149,21,1*79
$GBGSV,3,1,12,38,67,024,43,39,67,205,40,06,54,202,20,13,51,342,24,1*74
$GBGSV,3,2,12,20,51,001,41,29,48,256,44,37,32,093,39,19,31,295,28,1*7B
$GBGSV,3,3,12,46,25,158,31,32,20,061,45,35,17,312,16,16,,,30,1*48
$GBGSV,2,1,08,38,67,024,45,39,67,205,42,20,51,001,30,29,48,256,42,4*7B
$GBGSV,2,2,08,37,32,093,37,46,25,158,34,32,20,061,39,35,17,312,34,4*77
$GNGGA,094227.000,2500.7766738,N,12132.4616069,E,2,46,0.52,17.853,M,15.25,M,1,3335*40
$GNRMC,094227.000,A,2500.7766738,N,12132.4616069,E,0.02,131.10,260623,,,D,V*04
$GPHDT,,T*1B
$GNGGA,094227.200,2500.7766738,N,12132.4616129,E,2,46,0.52,17.854,M,15.25,M,1,3335*40
$GNRMC,094227.200,A,2500.7766738,N,12132.4616129,E,0.02,131.10,260623,,,D,V*03
$GPHDT,,T*1B
$GNGGA,094227.400,2500.7766738,N,12132.4616129,E,2,46,0.52,17.854,M,15.25,M,1,3335*46
$GNRMC,094227.400,A,2500.7766738,N,12132.4616129,E,0.02,131.10,260623,,,D,V*05
$GPHDT,,T*1B
$GNGGA,094227.600,2500.7766738,N,12132.4616129,E,2,46,0.52,17.854,M,15.25,M,0,3335*45
$GNRMC,094227.600,A,2500.7766738,N,12132.4616129,E,0.02,131.10,260623,,,D,V*07
$GPHDT,,T*1B
$GNGGA,094227.800,2500.7766738,N,12132.4616189,E,2,46,0.52,17.853,M,15.25,M,0,3335*46
$GNRMC,094227.800,A,2500.7766738,N,12132.4616189,E,0.02,131.10,260623,,,D,V*03
$GPHDT,,T*1B
$GNGSA,A,3,196,15,199,13,05,18,29,20,194,11,,,0.84,0.52,0.66,1*3A
$GNGSA,A,3,84,85,69,79,80,,,,,,,,0.84,0.52,0.66,2*01
$GNGSA,A,3,15,08,13,03,34,,,,,,,,0.84,0.52,0.66,3*02
$GNGSA,A,3,38,39,13,20,29,37,19,46,32,35,,,0.84,0.52,0.66,4*0C
$GPGSV,4,1,13,196,72,047,42,15,62,342,39,199,60,167,35,13,43,030,46,1*67
$GPGSV,4,2,13,05,42,067,47,41,38,242,36,18,37,319,26,29,28,233,41,1*6A
$GPGSV,4,3,13,20,26,094,39,11,18,145,23,194,16,150,31,195,,,28,1*52
$GPGSV,4,4,13,24,,,22,1*60
$GPGSV,1,1,04,196,72,047,46,199,60,167,44,18,37,319,31,11,18,145,28,8*63
$GLGSV,2,1,06,84,63,218,29,85,35,320,22,70,34,302,,69,33,021,31,1*71
$GLGSV,2,2,06,79,23,085,36,80,17,140,17,1*74
$GAGSV,2,1,06,15,65,163,42,08,65,326,35,13,56,315,39,03,33,037,36,7*77
$GAGSV,2,2,06,07,31,254,21,34,14,149,25,7*79
$GAGSV,2,1,05,08,65,326,42,15,65,163,44,13,56,315,40,03,33,037,36,1*7A
$GAGSV,2,2,05,34,14,149,22,1*4E
$GBGSV,4,1,14,38,67,024,43,39,67,205,39,06,54,202,19,13,51,342,24,1*71
$GBGSV,4,2,14,20,51,001,41,29,48,256,44,09,38,205,,37,32,093,39,1*71
$GBGSV,4,3,14,19,31,295,28,30,29,186,,46,25,158,31,32,20,061,45,1*73
$GBGSV,4,4,14,35,17,312,16,16,,,30,1*40
$GBGSV,2,1,08,38,67,024,45,39,67,205,42,20,51,001,30,29,48,256,42,4*7B
$GBGSV,2,2,08,37,32,093,37,46,25,158,34,32,20,061,39,35,17,312,34,4*77
$GNGGA,094228.000,2500.7766738,N,12132.4616189,E,2,45,0.52,17.853,M,15.25,M,1,3335*43
$GNRMC,094228.000,A,2500.7766738,N,12132.4616189,E,0.02,131.10,260623,,,D,V*04
$GPHDT,,T*1B
$GNGGA,094228.200,2500.7766798,N,12132.4616249,E,2,45,0.52,17.854,M,15.25,M,1,3335*43
$GNRMC,094228.200,A,2500.7766798,N,12132.4616249,E,0.00,131.10,260623,,,D,V*01
$GPHDT,,T*1B
$GNGGA,094228.400,2500.7766798,N,12132.4616249,E,2,45,0.52,17.853,M,15.25,M,0,3335*43
$GNRMC,094228.400,A,2500.7766798,N,12132.4616249,E,0.01,131.10,260623,,,D,V*06
$GPHDT,,T*1B
$GNGGA,094228.600,2500.7766858,N,12132.4616309,E,2,45,0.52,17.853,M,15.25,M,0,3335*47
$GNRMC,094228.600,A,2500.7766858,N,12132.4616309,E,0.01,131.10,260623,,,D,V*02
$GPHDT,,T*1B
$GNGGA,094228.800,2500.7766858,N,12132.4616309,E,2,45,0.52,17.855,M,15.25,M,0,3335*4F
$GNRMC,094228.800,A,2500.7766858,N,12132.4616309,E,0.01,131.10,260623,,,D,V*0C
$GPHDT,,T*1B
$GNGSA,A,3,196,15,199,13,05,18,29,20,194,11,,,1.02,0.52,0.87,1*3A
$GNGSA,A,3,84,85,69,79,80,,,,,,,,1.02,0.52,0.87,2*01
$GNGSA,A,3,08,15,13,03,34,,,,,,,,1.02,0.52,0.87,3*02
$GNGSA,A,3,38,39,20,13,29,37,19,46,32,35,,,1.02,0.52,0.87,4*0C
$GPGSV,4,1,13,196,72,047,42,15,62,342,40,199,60,167,35,13,43,030,46,1*69
$GPGSV,4,2,13,05,42,067,47,41,38,242,36,18,37,319,24,29,28,233,41,1*68
$GPGSV,4,3,13,20,26,094,39,11,18,145,21,194,16,150,31,195,,,29,1*51
$GPGSV,4,4,13,24,,,22,1*60
$GPGSV,2,1,05,196,72,047,46,199,60,167,44,18,37,319,32,11,18,145,28,8*62
$GPGSV,2,2,05,195,,,20,8*57
$GLGSV,2,1,05,84,63,218,29,85,35,320,22,69,33,021,31,79,23,085,36,1*74
$GLGSV,2,2,05,80,17,140,17,1*40
$GAGSV,2,1,06,08,65,326,36,15,65,163,42,13,56,315,39,03,33,037,36,7*74
$GAGSV,2,2,06,07,31,254,21,34,14,149,25,7*79
$GAGSV,2,1,05,15,65,163,44,08,65,326,42,13,56,315,40,03,33,037,37,1*7B
$GAGSV,2,2,05,34,14,149,21,1*4D
$GBGSV,4,1,13,38,67,024,43,39,67,205,39,06,54,202,19,20,51,001,41,1*71
$GBGSV,4,2,13,13,51,342,24,29,48,256,44,09,38,205,,37,32,093,38,1*70
$GBGSV,4,3,13,19,31,295,28,46,25,158,31,32,20,061,45,35,17,312,14,1*76
$GBGSV,4,4,13,16,,,30,1*70
$GBGSV,2,1,08,38,67,024,45,39,67,205,42,20,51,001,29,29,48,256,42,4*73
$GBGSV,2,2,08,37,32,093,36,46,25,158,34,32,20,061,40,35,17,312,34,4*78
$GNGGA,094229.000,2500.7766858,N,12132.4616369,E,2,45,0.52,17.855,M,15.25,M,1,3335*41
$GNRMC,094229.000,A,2500.7766858,N,12132.4616369,E,0.01,131.10,260623,,,D,V*03
$GPHDT,,T*1B
$GNGGA,094229.200,2500.7766918,N,12132.4616429,E,2,45,0.52,17.856,M,15.25,M,1,3335*46
$GNRMC,094229.200,A,2500.7766918,N,12132.4616429,E,0.00,131.10,260623,,,D,V*06
$GPHDT,,T*1B
$GNGGA,094229.400,2500.7766918,N,12132.4616549,E,2,46,0.52,17.858,M,15.25,M,1,3335*4A
$GNRMC,094229.400,A,2500.7766918,N,12132.4616549,E,0.01,131.10,260623,,,D,V*06
$GPHDT,,T*1B
$GNGGA,094229.600,2500.7766918,N,12132.4616549,E,2,46,0.52,17.859,M,15.25,M,0,3335*48
$GNRMC,094229.600,A,2500.7766918,N,12132.4616549,E,0.01,131.10,260623,,,D,V*04
$GPHDT,,T*1B
$GNGGA,094229.800,2500.7766978,N,12132.4616609,E,2,46,0.52,17.859,M,15.25,M,0,3335*47
$GNRMC,094229.800,A,2500.7766978,N,12132.4616609,E,0.00,131.10,260623,,,D,V*0A
$GPHDT,,T*1B
$GNGSA,A,3,196,15,199,13,05,18,29,20,194,11,,,1.02,0.52,0.87,1*3A
$GNGSA,A,3,84,85,69,79,80,,,,,,,,1.02,0.52,0.87,2*01
$GNGSA,A,3,15,08,13,03,34,,,,,,,,1.02,0.52,0.87,3*02
$GNGSA,A,3,39,38,20,13,29,37,19,46,32,35,,,1.02,0.52,0.87,4*0C
$GPGSV,4,1,13,196,72,047,42,15,62,342,40,199,60,167,35,13,43,030,46,1*69
$GPGSV,4,2,13,05,42,067,47,41,38,242,36,18,37,319,23,29,28,233,41,1*6F
$GPGSV,4,3,13,20,26,094,39,11,18,145,21,194,16,150,31,195,,,28,1*50
$GPGSV,4,4,13,24,,,23,1*61
$GPGSV,2,1,06,196,72,047,46,199,60,167,44,18,37,319,32,11,18,145,28,8*61
$GPGSV,2,2,06,194,16,150,23,195,,,23,8*59
$GLGSV,2,1,06,84,63,218,29,85,35,320,23,69,32,021,31,79,23,085,36,1*77
$GLGSV,2,2,06,80,17,140,17,83,11,170,,1*7E
$GAGSV,2,1,06,15,65,163,42,08,65,326,36,13,56,315,39,03,33,037,36,7*74
$GAGSV,2,2,06,07,31,254,22,34,14,149,24,7*7B
$GAGSV,2,1,05,15,65,163,44,08,65,326,42,13,56,315,40,03,33,037,37,1*7B
$GAGSV,2,2,05,34,14,149,21,1*4D
$GBGSV,4,1,13,39,67,205,39,38,67,024,43,06,54,202,19,20,51,001,41,1*71
$GBGSV,4,2,13,13,51,342,22,29,48,256,44,37,32,093,39,19,31,295,29,1*7D
$GBGSV,4,3,13,46,25,158,31,31,20,194,,32,20,061,44,35,17,312,16,1*77
$GBGSV,4,4,13,16,,,30,1*70
$GBGSV,2,1,08,38,67,024,45,39,67,205,42,20,51,001,29,29,48,256,42,4*73
$GBGSV,2,2,08,37,32,093,37,46,25,158,35,32,20,061,40,35,17,312,34,4*78
$GNGGA,094230.000,2500.7766918,N,12132.4616609,E,2,46,0.52,17.859,M,15.25,M,1,3335*40
$GNRMC,094230.000,A,2500.7766918,N,12132.4616609,E,0.00,131.10,260623,,,D,V*0C
$PAIR010,0,1,2268,121368*3B
$GPHDT,,T*1B
$GNGGA,094230.200,2500.7766978,N,12132.4616609,E,2,47,0.52,17.859,M,15.25,M,1,3335*45
$GNRMC,094230.200,A,2500.7766978,N,12132.4616609,E,0.00,131.10,260623,,,D,V*08
$GPHDT,,T*1B
$GNGGA,094230.400,2500.7766978,N,12132.4616609,E,2,47,0.52,17.859,M,15.25,M,1,3335*43
$GNRMC,094230.400,A,2500.7766978,N,12132.4616609,E,0.01,131.10,260623,,,D,V*0F
$GPHDT,,T*1B
$GNGGA,094230.600,2500.7766978,N,12132.4616609,E,2,47,0.52,17.859,M,15.25,M,1,3335*41
$GNRMC,094230.600,A,2500.7766978,N,12132.4616609,E,0.00,131.10,260623,,,D,V*0C
$GPHDT,,T*1B
$GNGGA,094230.800,2500.7766978,N,12132.4616669,E,2,47,0.52,17.858,M,15.25,M,0,3335*49
$GNRMC,094230.800,A,2500.7766978,N,12132.4616669,E,0.01,131.10,260623,,,D,V*05
$GPHDT,,T*1B
$GNGSA,A,3,196,15,199,13,05,18,29,20,11,194,,,1.02,0.52,0.87,1*3A
$GNGSA,A,3,84,85,69,79,80,,,,,,,,1.02,0.52,0.87,2*01
$GNGSA,A,3,15,08,13,03,34,,,,,,,,1.02,0.52,0.87,3*02
$GNGSA,A,3,38,39,20,13,29,37,19,46,32,35,,,1.02,0.52,0.87,4*0C
$GPGSV,4,1,13,196,72,047,41,15,62,342,41,199,60,167,35,13,43,030,44,1*69
$GPGSV,4,2,13,05,42,067,47,41,38,242,36,18,37,319,24,29,28,233,41,1*68
$GPGSV,4,3,13,20,26,094,40,11,18,145,27,194,16,150,33,195,,,26,1*54
$GPGSV,4,4,13,24,,,21,1*63
$GPGSV,2,1,06,196,72,047,46,199,60,167,44,18,37,319,30,11,18,145,28,8*63
$GPGSV,2,2,06,194,16,150,20,195,,,19,8*53
$GLGSV,2,1,06,84,63,218,29,85,35,320,26,69,32,021,31,79,23,085,37,1*73
$GLGSV,2,2,06,80,17,140,21,83,11,170,,1*7B
$GAGSV,2,1,07,15,65,163,42,08,65,326,36,13,56,315,39,03,33,037,35,7*76
$GAGSV,2,2,07,07,31,254,23,34,14,149,32,02,07,122,,7*48
$GAGSV,2,1,05,15,65,163,44,08,65,326,41,13,56,315,41,03,33,037,37,1*79
$GAGSV,2,2,05,34,14,149,20,1*4C
$GBGSV,4,1,14,38,67,024,43,39,67,205,40,06,54,202,21,20,51,001,41,1*73
$GBGSV,4,2,14,13,51,342,21,29,48,256,44,37,32,093,39,19,31,295,29,1*79
$GBGSV,4,3,14,46,25,158,31,32,20,061,42,31,20,194,,35,17,312,18,1*78
$GBGSV,4,4,14,10,10,213,,16,,,31,1*46
$GBGSV,2,1,08,38,67,024,44,39,67,205,42,20,51,001,30,29,48,256,42,4*7A
$GBGSV,2,2,08,37,32,093,37,46,25,158,33,32,20,061,39,35,17,312,34,4*70
$GNGGA,094231.000,2500.7766978,N,12132.4616669,E,2,47,0.52,17.858,M,15.25,M,1,3335*41
$GNRMC,094231.000,A,2500.7766978,N,12132.4616669,E,0.00,131.10,260623,,,D,V*0D
$GPHDT,,T*1B
$GNGGA,094231.200,2500.7766978,N,12132.4616729,E,2,47,0.52,17.858,M,15.25,M,1,3335*46
$GNRMC,094231.200,A,2500.7766978,N,12132.4616729,E,0.00,131.10,260623,,,D,V*0A
$GPHDT,,T*1B
$GNGGA,094231.400,2500.7766978,N,12132.4616729,E,2,45,0.52,17.858,M,15.25,M,1,3335*42
$GNRMC,094231.400,A,2500.7766978,N,12132.4616729,E,0.00,131.10,260623,,,D,V*0C
$GPHDT,,T*1B
$GNGGA,094231.600,2500.7766978,N,12132.4616789,E,2,46,0.52,17.858,M,15.25,M,0,3335*48
$GNRMC,094231.600,A,2500.7766978,N,12132.4616789,E,0.00,131.10,260623,,,D,V*04
$GPHDT,,T*1B
$GNGGA,094231.800,2500.7766978,N,12132.4616849,E,2,47,0.52,17.858,M,15.25,M,0,3335*44
$GNRMC,094231.800,A,2500.7766978,N,12132.4616849,E,0.01,131.10,260623,,,D,V*08
$GPHDT,,T*1B
$GNGSA,A,3,196,15,199,13,05,18,29,20,11,194,,,1.02,0.52,0.87,1*3A
$GNGSA,A,3,84,85,69,79,80,,,,,,,,1.02,0.52,0.87,2*01
$GNGSA,A,3,08,15,13,03,34,,,,,,,,1.02,0.52,0.87,3*02
$GNGSA,A,3,38,39,13,20,29,37,19,46,32,35,,,1.02,0.52,0.87,4*0C
$GPGSV,4,1,13,196,72,047,41,15,62,342,41,199,60,167,35,13,43,030,44,1*69
$GPGSV,4,2,13,05,42,067,47,41,38,242,36,18,37,319,26,29,28,233,41,1*6A
$GPGSV,4,3,13,20,26,094,40,11,18,145,26,194,16,150,29,195,,,26,1*5E
$GPGSV,4,4,13,24,,,20,1*62
$GPGSV,2,1,07,196,72,047,46,199,60,167,44,18,37,319,29,11,18,145,28,8*6A
$GPGSV,2,2,07,194,16,150,20,195,,,19,24,,,18,8*5D
$GLGSV,2,1,05,84,63,218,29,85,35,320,26,69,32,021,31,79,24,085,37,1*77
$GLGSV,2,2,05,80,18,139,20,1*45
$GAGSV,2,1,07,08,65,326,36,15,65,163,42,13,56,315,38,03,33,037,34,7*76
$GAGSV,2,2,07,07,31,254,23,34,14,149,26,02,07,122,,7*4D
$GAGSV,2,1,05,08,65,326,41,15,65,163,45,13,56,315,41,03,33,037,37,1*78
$GAGSV,2,2,05,34,14,149,20,1*4C
$GBGSV,3,1,12,38,67,024,44,39,67,205,40,06,54,202,21,13,51,342,19,1*7C
$GBGSV,3,2,12,20,51,001,41,29,48,256,44,37,32,093,41,19,31,295,29,1*75
$GBGSV,3,3,12,46,25,158,27,32,20,061,42,35,17,312,21,16,,,31,1*4D
$GBGSV,2,1,08,38,67,024,44,39,67,205,42,20,51,001,31,29,48,256,42,4*7B
$GBGSV,2,2,08,37,32,093,36,46,25,158,26,32,20,061,39,35,17,312,33,4*72
$GNGGA,094232.000,2500.7767038,N,12132.4616849,E,2,48,0.52,17.858,M,15.25,M,1,3335*4D
$GNRMC,094232.000,A,2500.7767038,N,12132.4616849,E,0.00,131.10,260623,,,D,V*0E
$GPHDT,,T*1B
$GNGGA,094232.200,2500.7767038,N,12132.4616909,E,2,48,0.52,17.858,M,15.25,M,1,3335*4A
$GNRMC,094232.200,A,2500.7767038,N,12132.4616909,E,0.00,131.10,260623,,,D,V*09
$GPHDT,,T*1B
$GNGGA,094232.400,2500.7767038,N,12132.4616909,E,2,48,0.52,17.858,M,15.25,M,1,3335*4C
$GNRMC,094232.400,A,2500.7767038,N,12132.4616909,E,0.00,131.10,260623,,,D,V*0F
$GPHDT,,T*1B
$GNGGA,094232.600,2500.7767038,N,12132.4616969,E,2,48,0.52,17.858,M,15.25,M,1,3335*48
$GNRMC,094232.600,A,2500.7767038,N,12132.4616969,E,0.00,131.10,260623,,,D,V*0B
$GPHDT,,T*1B
$GNGGA,094232.800,2500.7767098,N,12132.4617029,E,2,47,0.52,17.859,M,15.25,M,1,3335*4E
$GNRMC,094232.800,A,2500.7767098,N,12132.4617029,E,0.00,131.10,260623,,,D,V*03
$GPHDT,,T*1B
$GNGSA,A,3,196,15,199,13,05,18,29,20,194,11,,,1.02,0.52,0.87,1*3A
$GNGSA,A,3,84,85,69,79,80,,,,,,,,1.02,0.52,0.87,2*01
$GNGSA,A,3,15,08,13,03,34,,,,,,,,1.02,0.52,0.87,3*02
$GNGSA,A,3,38,39,13,20,29,37,19,46,32,35,,,1.02,0.52,0.87,4*0C
$GPGSV,4,1,13,196,72,047,41,15,62,342,41,199,60,167,34,13,43,030,44,1*68
$GPGSV,4,2,13,05,42,067,47,41,38,242,36,18,37,319,27,29,28,233,41,1*6B
$GPGSV,4,3,13,20,26,094,40,11,18,145,22,194,16,150,29,24,,,21,1*66
$GPGSV,4,4,13,195,,,26,1*5F
$GPGSV,2,1,06,196,72,047,46,199,60,167,44,18,37,319,31,11,18,145,28,8*62
$GPGSV,2,2,06,194,16,150,20,195,,,19,8*53
$GLGSV,2,1,06,84,63,218,29,85,35,320,26,69,32,021,30,79,24,085,38,1*7A
$GLGSV,2,2,06,80,18,139,20,71,04,263,,1*73
$GAGSV,2,1,07,15,65,163,41,08,65,326,35,13,56,315,38,03,33,037,31,7*73
$GAGSV,2,2,07,07,31,254,22,34,14,149,27,02,07,122,,7*4D
$GAGSV,2,1,05,15,65,163,46,08,65,326,42,13,56,315,41,03,33,037,39,1*76
$GAGSV,2,2,05,34,14,149,20,1*4C
$GBGSV,3,1,12,38,67,024,44,39,67,205,40,06,54,202,22,13,51,342,22,1*77
$GBGSV,3,2,12,20,51,001,41,29,48,256,44,37,32,093,42,19,31,295,28,1*77
$GBGSV,3,3,12,46,25,158,29,32,20,061,41,35,17,312,22,16,,,32,1*40
$GBGSV,2,1,08,38,67,024,45,39,67,205,43,20,51,001,31,29,48,256,42,4*7B
$GBGSV,2,2,08,37,32,093,36,46,25,158,26,32,20,061,39,35,17,312,35,4*74
$GNGGA,094233.000,2500.7767158,N,12132.4617089,E,2,47,0.52,17.859,M,15.25,M,2,3335*43
$GNRMC,094233.000,A,2500.7767158,N,12132.4617089,E,0.00,131.10,260623,,,D,V*0D
$GPHDT,,T*1B
$GNGGA,094233.200,2500.7767158,N,12132.4617149,E,2,47,0.52,17.858,M,15.25,M,2,3335*4D
$GNRMC,094233.200,A,2500.7767158,N,12132.4617149,E,0.00,131.10,260623,,,D,V*02
$GPHDT,,T*1B
$GNGGA,094233.400,2500.7767158,N,12132.4617209,E,2,46,0.52,17.858,M,15.25,M,2,3335*4D
$GNRMC,094233.400,A,2500.7767158,N,12132.4617209,E,0.00,131.10,260623,,,D,V*03
$GPHDT,,T*1B
$GNGGA,094233.600,2500.7767218,N,12132.4617269,E,2,47,0.52,17.857,M,15.25,M,2,3335*40
$GNRMC,094233.600,A,2500.7767218,N,12132.4617269,E,0.00,131.10,260623,,,D,V*00
$GPHDT,,T*1B
$GNGGA,094233.800,2500.7767218,N,12132.4617389,E,2,48,0.52,17.856,M,15.25,M,2,3335*4F
$GNRMC,094233.800,A,2500.7767218,N,12132.4617389,E,0.00,131.10,260623,,,D,V*01
$GPHDT,,T*1B
$GNGSA,A,3,196,15,199,13,05,18,29,20,194,11,,,1.02,0.52,0.87,1*3A
$GNGSA,A,3,84,85,69,79,80,,,,,,,,1.02,0.52,0.87,2*01
$GNGSA,A,3,15,08,13,03,34,,,,,,,,1.02,0.52,0.87,3*02
$GNGSA,A,3,38,39,13,20,29,37,19,46,32,35,,,1.02,0.52,0.87,4*0C
$GPGSV,4,1,13,196,72,047,41,15,62,342,41,199,60,167,34,13,43,030,44,1*68
$GPGSV,4,2,13,05,42,067,47,41,38,242,36,18,37,319,27,29,28,233,41,1*6B
$GPGSV,4,3,13,20,26,094,40,11,18,145,21,194,16,150,29,24,,,22,1*66
$GPGSV,4,4,13,195,,,27,1*5E
$GPGSV,2,1,06,196,72,047,46,199,60,167,44,18,37,319,30,11,18,145,28,8*63
$GPGSV,2,2,06,194,16,150,20,195,,,19,8*53
$GLGSV,2,1,06,84,63,218,29,85,35,320,27,69,32,021,29,79,24,085,38,1*73
$GLGSV,2,2,06,80,18,139,18,71,04,263,,1*78
$GAGSV,2,1,07,15,65,163,41,08,65,326,35,13,56,315,38,03,33,037,32,7*70
$GAGSV,2,2,07,07,31,254,21,34,14,149,28,02,07,122,,7*41
$GAGSV,2,1,05,15,65,163,46,08,65,326,42,13,56,315,40,03,33,037,39,1*77
$GAGSV,2,2,05,34,14,149,20,1*4C
$GBGSV,3,1,12,38,67,024,44,39,67,205,40,06,54,202,21,13,51,342,21,1*77
$GBGSV,3,2,12,20,51,001,41,29,48,256,44,37,32,093,42,19,31,295,28,1*77
$GBGSV,3,3,12,46,25,158,30,32,20,061,41,35,17,312,20,16,,,32,1*4A
$GBGSV,3,1,09,38,67,024,45,39,67,205,43,20,51,001,31,29,48,256,42,4*7B
$GBGSV,3,2,09,37,32,093,36,19,31,295,21,46,25,158,25,32,20,061,37,4*78
$GBGSV,3,3,09,35,17,312,35,4*4C
$GNGGA,094234.000,2500.7767218,N,12132.4617389,E,2,48,0.52,17.855,M,15.25,M,3,3335*42
$GNRMC,094234.000,A,2500.7767218,N,12132.4617389,E,0.00,131.10,260623,,,D,V*0E
$GPHDT,,T*1B
$GNGGA,094234.200,2500.7767218,N,12132.4617509,E,2,48,0.52,17.854,M,15.25,M,3,3335*4F
$GNRMC,094234.200,A,2500.7767218,N,12132.4617509,E,0.00,131.10,260623,,,D,V*02
$GPHDT,,T*1B
$GNGGA,094234.400,2500.7767278,N,12132.4617569,E,2,48,0.52,17.853,M,15.25,M,3,3335*4E
$GNRMC,094234.400,A,2500.7767278,N,12132.4617569,E,0.00,131.10,260623,,,D,V*04
$GPHDT,,T*1B
$GNGGA,094234.600,2500.7767278,N,12132.4617629,E,2,48,0.52,17.852,M,15.25,M,3,3335*4A
$GNRMC,094234.600,A,2500.7767278,N,12132.4617629,E,0.00,131.10,260623,,,D,V*01
$GPHDT,,T*1B
$GNGGA,094234.800,2500.7767278,N,12132.4617569,E,2,48,0.52,17.852,M,15.25,M,3,3335*43
$GNRMC,094234.800,A,2500.7767278,N,12132.4617569,E,0.01,131.10,260623,,,D,V*09
$GPHDT,,T*1B
$GNGSA,A,3,196,15,199,13,05,18,29,20,194,11,,,1.02,0.52,0.87,1*3A
$GNGSA,A,3,84,85,69,79,80,,,,,,,,1.02,0.52,0.87,2*01
$GNGSA,A,3,08,15,13,03,34,,,,,,,,1.02,0.52,0.87,3*02
$GNGSA,A,3,38,39,13,20,29,37,19,46,32,35,,,1.02,0.52,0.87,4*0C
$GPGSV,4,1,13,196,72,047,41,15,62,342,41,199,60,167,34,13,43,030,44,1*68
$GPGSV,4,2,13,05,42,067,47,41,38,242,36,18,37,319,27,29,28,233,40,1*6A
$GPGSV,4,3,13,20,26,094,40,11,18,145,22,194,16,150,29,195,,,25,1*59
$GPGSV,4,4,13,24,,,23,1*61
$GPGSV,2,1,06,196,72,047,46,199,60,167,44,18,37,319,30,11,18,145,29,8*62
$GPGSV,2,2,06,194,16,150,20,195,,,19,8*53
$GLGSV,2,1,05,84,63,218,28,85,35,320,27,69,32,021,29,79,24,085,38,1*71
$GLGSV,2,2,05,80,18,139,18,1*4E
$GAGSV,2,1,07,08,65,326,35,15,65,163,41,13,56,315,38,03,33,037,31,7*73
$GAGSV,2,2,07,07,31,254,21,34,14,149,28,02,07,122,,7*41
$GAGSV,2,1,05,15,65,163,46,08,65,326,42,13,56,315,40,03,33,037,39,1*77
$GAGSV,2,2,05,34,14,149,20,1*4C
$GBGSV,3,1,12,38,67,024,44,39,67,205,40,06,55,202,21,13,51,342,21,1*76
$GBGSV,3,2,12,20,51,001,41,29,48,256,44,37,32,093,42,19,31,295,28,1*77
$GBGSV,3,3,12,46,25,158,30,32,20,061,41,35,17,312,20,16,,,32,1*4A
$GBGSV,3,1,09,38,67,024,45,39,67,205,43,20,51,001,31,29,48,256,42,4*7B
$GBGSV,3,2,09,37,32,093,36,19,31,295,20,46,25,158,25,32,20,061,37,4*79
$GBGSV,3,3,09,35,17,312,35,4*4C
$GNGGA,094235.000,2500.7767278,N,12132.4617629,E,2,47,0.52,17.852,M,15.25,M,4,3335*45
$GNRMC,094235.000,A,2500.7767278,N,12132.4617629,E,0.02,131.10,260623,,,D,V*04
$GPHDT,,T*1B
$GNGGA,094235.200,2500.7767278,N,12132.4617629,E,2,47,0.52,17.853,M,15.25,M,4,3335*46
$GNRMC,094235.200,A,2500.7767278,N,12132.4617629,E,0.02,131.10,260623,,,D,V*06
$GPHDT,,T*1B
$GNGGA,094235.400,2500.7767278,N,12132.4617629,E,2,47,0.52,17.853,M,15.25,M,4,3335*40
$GNRMC,094235.400,A,2500.7767278,N,12132.4617629,E,0.01,131.10,260623,,,D,V*03
$GPHDT,,T*1B
$GNGGA,094235.600,2500.7767278,N,12132.4617629,E,2,48,0.52,17.853,M,15.25,M,4,3335*4D
$GNRMC,094235.600,A,2500.7767278,N,12132.4617629,E,0.10,131.10,260623,,,D,V*01
$GPHDT,,T*1B
$GNGGA,094235.800,2500.7767278,N,12132.4617629,E,2,48,0.52,17.853,M,15.25,M,4,3335*43
$GNRMC,094235.800,A,2500.7767278,N,12132.4617629,E,0.06,131.10,260623,,,D,V*08
$GPHDT,,T*1B
$GNGSA,A,3,196,15,199,13,05,18,29,20,194,11,,,1.02,0.52,0.87,1*3A
$GNGSA,A,3,84,85,69,79,80,,,,,,,,1.02,0.52,0.87,2*01
$GNGSA,A,3,15,08,13,03,34,,,,,,,,1.02,0.52,0.87,3*02
$GNGSA,A,3,38,39,20,13,29,37,19,46,32,35,,,1.02,0.52,0.87,4*0C
$GPGSV,4,1,13,196,72,047,41,15,62,342,41,199,60,167,34,13,43,030,44,1*68
$GPGSV,4,2,13,05,42,067,47,41,38,242,36,18,37,319,27,29,28,233,40,1*6A
$GPGSV,4,3,13,20,26,094,40,11,18,145,20,194,16,150,32,24,,,23,1*6C
$GPGSV,4,4,13,195,,,25,1*5C
$GPGSV,2,1,06,196,72,047,46,199,60,167,44,18,37,319,30,11,18,145,29,8*62
$GPGSV,2,2,06,194,16,150,20,195,,,18,8*52
$GLGSV,2,1,05,84,63,218,28,85,35,320,26,69,32,021,30,79,24,085,38,1*78
$GLGSV,2,2,05,80,18,139,21,1*44
$GAGSV,2,1,08,15,65,163,41,08,65,326,35,13,56,315,38,03,33,037,32,7*7F
$GAGSV,2,2,08,07,31,254,21,34,14,149,29,02,07,122,,26,04,324,,7*7A
$GAGSV,2,1,05,15,65,163,46,08,65,326,42,13,56,315,40,03,33,037,39,1*77
$GAGSV,2,2,05,34,14,149,20,1*4C
$GBGSV,4,1,14,38,67,024,44,39,67,205,40,06,55,202,21,20,51,001,41,1*75
$GBGSV,4,2,14,13,51,342,21,29,48,256,44,37,32,093,42,19,31,295,28,1*74
$GBGSV,4,3,14,46,25,158,29,32,20,061,41,35,17,312,19,23,07,048,,1*75
$GBGSV,4,4,14,40,06,195,,16,,,32,1*4A
$GBGSV,3,1,09,38,67,024,45,39,67,205,43,20,51,001,30,29,48,256,42,4*7A
$GBGSV,3,2,09,37,32,093,37,19,31,295,19,46,25,158,24,32,20,061,37,4*73
$GBGSV,3,3,09,35,17,312,35,4*4C
$GNGGA,094236.000,2500.7767278,N,12132.4617629,E,2,48,0.52,17.859,M,15.25,M,5,3335*43
$GNRMC,094236.000,A,2500.7767278,N,12132.4617629,E,0.04,131.10,260623,,,D,V*01
$GPHDT,,T*1B
$GNGGA,094236.200,2500.7767278,N,12132.4617629,E,2,48,0.52,17.857,M,15.25,M,5,3335*4F
$GNRMC,094236.200,A,2500.7767278,N,12132.4617629,E,0.02,131.10,260623,,,D,V*05
$GPHDT,,T*1B
$GNGGA,094236.400,2500.7767278,N,12132.4617629,E,2,48,0.52,17.859,M,15.25,M,5,3335*47
$GNRMC,094236.400,A,2500.7767278,N,12132.4617629,E,0.01,131.10,260623,,,D,V*00
$GPHDT,,T*1B
$GNGGA,094236.600,2500.7767278,N,12132.4617629,E,2,48,0.52,17.858,M,15.25,M,5,3335*44
$GNRMC,094236.600,A,2500.7767278,N,12132.4617629,E,0.10,131.10,260623,,,D,V*02
$GPHDT,,T*1B
$GNGGA,094236.800,2500.7767278,N,12132.4617629,E,2,48,0.52,17.858,M,15.25,M,5,3335*4A
$GNRMC,094236.800,A,2500.7767278,N,12132.4617629,E,0.06,131.10,260623,,,D,V*0B
$GPHDT,,T*1B
$GNGSA,A,3,196,15,199,13,05,18,29,20,194,11,,,1.02,0.52,0.87,1*3A
$GNGSA,A,3,84,85,69,79,80,,,,,,,,1.02,0.52,0.87,2*01
$GNGSA,A,3,08,15,13,03,34,,,,,,,,1.02,0.52,0.87,3*02
$GNGSA,A,3,39,38,13,20,29,37,19,46,32,35,,,1.02,0.52,0.87,4*0C
$GPGSV,4,1,13,196,72,047,41,15,62,342,41,199,60,167,35,13,43,030,46,1*6B
$GPGSV,4,2,13,05,42,067,47,41,38,242,36,18,37,319,27,29,28,233,40,1*6A
$GPGSV,4,3,13,20,26,094,40,11,18,145,,194,16,150,32,195,,,26,1*50
$GPGSV,4,4,13,24,,,24,1*66
$GPGSV,2,1,07,196,72,047,46,199,60,167,44,18,37,319,31,11,18,145,27,8*6C
$GPGSV,2,2,07,194,16,150,21,195,,,21,24,,,17,8*58
$GLGSV,2,1,05,84,63,218,28,85,35,320,27,69,32,021,29,79,24,085,38,1*71
$GLGSV,2,2,05,80,18,139,18,1*4E
$GAGSV,2,1,08,08,65,326,34,15,65,163,41,13,56,315,38,03,33,037,32,7*7E
$GAGSV,2,2,08,07,31,254,20,34,14,149,28,02,07,122,,26,04,324,,7*7A
$GAGSV,2,1,05,08,65,326,42,15,65,163,44,13,56,315,40,03,33,037,39,1*75
$GA