$FW : RTK35X,V1.1X0314AS,Lib20210517,1*54
$Tool : LOCOSYS , GNSS Firebird , v1.0.0.19*39
$---------------------------------------------------*2D
$GNGSA,A,3,08,194,195,27,21,16,04,02,09,07,196,26,0.75,0.47,0.58,1*37
$GNGSA,A,3,31,,,,,,,,,,,,0.75,0.47,0.58,1*0F
$GNGSA,A,3,88,78,81,77,87,79,,,,,,,0.75,0.47,0.58,2*09
$GNGSA,A,3,21,13,19,27,26,15,,,,,,,0.75,0.47,0.58,3*03
$GNGSA,A,3,06,16,09,43,39,40,23,07,10,11,25,28,0.75,0.47,0.58,4*03
$GNGSA,A,3,34,,,,,,,,,,,,0.75,0.47,0.58,4*0F
$GPGSV,4,1,15,08,72,311,41,199,64,167,,194,63,047,42,195,58,122,43,1*57
$GPGSV,4,2,15,27,48,027,42,45,47,231,32,21,41,169,36,16,34,057,17,1*66
$GPGSV,4,3,15,04,31,215,33,02,30,181,35,09,30,265,19,07,26,320,39,1*63
$GPGSV,4,4,15,196,21,173,34,26,16,085,21,31,14,138,43,1*68
$GPGSV,2,1,07,08,72,311,46,194,63,047,44,195,58,122,44,27,48,027,45,8*63
$GPGSV,2,2,07,04,31,215,40,09,30,265,27,196,21,173,38,8*63
$GLGSV,2,1,07,88,71,069,39,78,47,007,41,81,42,189,28,77,32,088,15,1*71
$GLGSV,2,2,07,87,20,029,16,79,13,321,24,67,01,208,,1*4E
$GAGSV,2,1,07,21,51,350,39,13,50,107,36,19,36,256,25,27,33,063,18,7*7A
$GAGSV,2,2,07,26,29,175,19,15,22,048,22,04,10,312,,7*4D
$GAGSV,2,1,06,21,51,350,44,13,50,107,40,19,36,256,25,27,33,063,35,1*79
$GAGSV,2,2,06,26,29,175,37,15,22,048,26,1*77
$GBGSV,4,1,13,06,81,224,43,16,78,191,41,09,75,298,41,43,73,058,42,1*7C
$GBGSV,4,2,13,39,67,177,42,40,65,317,41,23,62,358,36,07,62,295,40,1*7E
$GBGSV,4,3,13,10,52,278,26,11,48,044,39,25,47,098,41,28,40,208,28,1*74
$GBGSV,4,4,13,34,25,040,36,1*45
$GBGSV,2,1,07,43,73,058,41,39,67,177,43,40,65,317,42,23,62,358,35,4*78
$GBGSV,2,2,07,25,47,098,30,28,40,208,33,34,25,040,36,4*47
$GNACCURACY,4.7*15
$PAIRSAT,1,35,2,0,201,3,0,200,4,0,221,5,0,200,6,0,200,7,0,201,8,0,221,9,0,221,10,0,200,11,0,200,12,0,200,13,0,200,14,0,200,15,0,200,16,0,201,17,0,200,18,0,200,19,0,200,20,0,200,21,0,201,22,0,200,23,0,200,24,0,200,25,0,200,26,0,221,27,0,221,28,0,200,29,0,200,30,0,200,31,0,201,32,0,200,194,0,621,195,0,621,196,0,620,199,0,600*5B
$PAIRSAT,2,23,65,0,200,66,0,200,67,0,200,68,0,200,70,0,200,71,0,200,72,0,200,73,0,200,74,0,200,75,0,200,76,0,200,77,0,201,78,0,201,79,0,201,80,0,200,81,0,201,82,0,200,83,0,200,84,0,200,85,0,200,86,0,200,87,0,201,88,0,201*5C
$PAIRSAT,3,23,2,0,1200,3,0,1200,4,0,1200,5,0,200,7,0,1200,8,0,1200,9,0,1200,10,0,1200,11,0,1200,12,0,1200,13,0,1221,15,0,1221,19,0,1221,21,0,1221,24,0,1200,25,0,1200,26,0,1221,27,0,1221,30,0,1200,31,0,1200,33,0,1200,34,0,1200,36,0,1200*6A
$PAIRSAT,4,46,1,0,200,2,0,200,3,0,600,4,0,200,5,0,200,6,0,201,7,0,201,8,0,200,9,0,201,10,0,201,11,0,201,12,0,200,13,0,200,14,0,200,16,0,201,19,0,600,20,0,600,21,0,600,22,0,600,23,0,621,24,0,600,25,0,621,26,0,600,27,0,600,28,0,621,29,0,600,30,0,600,32,0,600,33,0,600,34,0,621,35,0,600,36,0,600,37,0,600,38,0,600,39,0,621,40,0,421,41,0,600,42,0,600,43,0,621,44,0,600,45,0,600,46,0,600,59,0,400,60,0,400,61,0,400,62,0,400*48
$PAIRDGP,8,2,4,7,8,9,16,21,27*7C
$GNGGA,033056.100,2500.7990043,N,12132.4853683,E,4,58,0.47,16.701,M,15.25,M,1,3335*4D
$GNRMC,033056.100,A,2500.7990043,N,12132.4853683,E,0.22,332.71,090324,,,R,V*10
$GPHDT,,T*1B
$GNACCURACY,4.7*15
$GNGGA,033056.200,2500.7990078,N,12132.4853705,E,4,58,0.47,16.701,M,15.25,M,1,3335*49
$GNRMC,033056.200,A,2500.7990078,N,12132.4853705,E,0.03,332.71,090324,,,R,V*17
$GPHDT,45.941,T*08
$GNACCURACY,4.7*15
$GNGGA,033056.300,2500.7990050,N,12132.4853696,E,4,58,0.47,16.695,M,15.25,M,1,3335*45
$GNRMC,033056.300,A,2500.7990050,N,12132.4853696,E,0.14,332.71,090324,,,R,V*11
$GPHDT,,T*1B
$GNACCURACY,4.7*15
$GNGGA,033056.400,2500.7990069,N,12132.4853700,E,4,58,0.47,16.698,M,15.25,M,1,3335*4B
$GNRMC,033056.400,A,2500.7990069,N,12132.4853700,E,0.17,332.71,090324,,,R,V*11
$GPHDT,46.105,T*03
$GNACCURACY,4.7*15
$GNGGA,033056.500,2500.7990071,N,12132.4853708,E,4,58,0.47,16.695,M,15.25,M,1,3335*46
$GNRMC,033056.500,A,2500.7990071,N,12132.4853708,E,0.10,332.71,090324,,,R,V*16
$GPHDT,,T*1B
$GNACCURACY,4.7*15
$GNGGA,033056.600,2500.7990060,N,12132.4853737,E,4,58,0.47,16.699,M,15.25,M,1,3335*45
$GNRMC,033056.600,A,2500.7990060,N,12132.4853737,E,0.07,332.71,090324,,,R,V*1F
$GPHDT,45.328,T*0D
$GNACCURACY,4.7*15
$GNGGA,033056.700,2500.7990046,N,12132.4853705,E,4,58,0.47,16.705,M,15.25,M,0,3335*44
$GNRMC,033056.700,A,2500.7990046,N,12132.4853705,E,0.07,332.71,090324,,,R,V*1B
$GPHDT,,T*1B
$GNACCURACY,4.7*15
$GNGGA,033056.800,2500.7990046,N,12132.4853701,E,4,58,0.47,16.710,M,15.25,M,0,3335*4B
$GNRMC,033056.800,A,2500.7990046,N,12132.4853701,E,0.01,332.71,090324,,,R,V*16
$GPHDT,45.178,T*0A
$GNACCURACY,4.7*15
$GNGGA,033056.900,2500.7990074,N,12132.4853742,E,4,58,0.47,16.704,M,15.25,M,0,3335*49
$GNRMC,033056.900,A,2500.7990074,N,12132.4853742,E,0.07,332.71,090324,,,R,V*17
$GPHDT,,T*1B
$GNACCURACY,4.7*15
$GNGGA,033057.000,2500.7990065,N,12132.4853760,E,4,58,0.47,16.701,M,15.25,M,1,3335*45
$GNRMC,033057.000,A,2500.7990065,N,12132.4853760,E,0.05,332.71,090324,,,R,V*1D
$GPHDT,44.802,T*0F
$GNGSA,A,3,08,194,195,27,21,16,04,02,09,07,196,26,0.86,0.47,0.72,1*33
$GNGSA,A,3,31,,,,,,,,,,,,0.86,0.47,0.72,1*0B
$GNGSA,A,3,88,78,81,77,87,79,,,,,,,0.86,0.47,0.72,2*0D
$GNGSA,A,3,21,13,19,27,26,15,,,,,,,0.86,0.47,0.72,3*07
$GNGSA,A,3,06,16,09,43,39,40,07,23,10,11,25,28,0.86,0.47,0.72,4*07
$GNGSA,A,3,34,,,,,,,,,,,,0.86,0.47,0.72,4*0B
$GPGSV,4,1,15,08,72,311,39,199,64,167,,194,63,047,42,195,58,122,42,1*59
$GPGSV,4,2,15,27,48,027,43,45,47,231,32,21,41,168,37,16,34,057,16,1*66
$GPGSV,4,3,15,04,31,215,30,02,30,181,30,09,30,265,21,07,26,320,39,1*6E
$GPGSV,4,4,15,196,21,173,32,26,16,085,19,31,14,138,43,1*65
$GPGSV,2,1,07,08,72,311,45,194,63,047,44,195,58,122,40,27,48,027,45,8*64
$GPGSV,2,2,07,04,31,215,35,09,30,265,23,196,21,173,35,8*68
$GLGSV,2,1,06,88,71,069,39,78,47,007,40,81,42,189,26,77,32,088,17,1*7D
$GLGSV,2,2,06,87,20,029,17,79,13,321,23,1*73
$GAGSV,2,1,07,21,51,350,39,13,50,107,33,19,36,256,24,27,33,063,21,7*74
$GAGSV,2,2,07,26,29,175,19,15,22,048,18,04,10,312,,7*44
$GAGSV,2,1,06,21,51,350,44,13,50,107,38,19,36,256,24,27,33,063,34,1*76
$GAGSV,2,2,06,26,29,175,33,15,22,048,26,1*73
$GBGSV,4,1,13,06,81,224,43,16,78,191,41,09,75,298,41,43,73,058,42,1*7C
$GBGSV,4,2,13,39,67,177,43,40,65,317,40,07,62,295,39,23,62,358,38,1*7E
$GBGSV,4,3,13,10,52,278,28,11,48,044,41,25,47,098,36,28,40,208,22,1*7F
$GBGSV,4,4,13,34,25,040,33,1*40
$GBGSV,2,1,07,43,73,058,41,39,67,177,43,40,65,317,42,23,62,358,34,4*79
$GBGSV,2,2,07,25,47,098,35,28,40,208,31,34,25,040,36,4*40
$GNACCURACY,4.7*15
$PAIRSAT,1,35,2,0,201,3,0,200,4,0,221,5,0,200,6,0,200,7,0,201,8,0,221,9,0,221,10,0,200,11,0,200,12,0,200,13,0,200,14,0,200,15,0,200,16,0,201,17,0,200,18,0,200,19,0,200,20,0,200,21,0,201,22,0,200,23,0,200,24,0,200,25,0,200,26,0,221,27,0,221,28,0,200,29,0,200,30,0,200,31,0,201,32,0,200,194,0,621,195,0,621,196,0,620,199,0,600*5B
$PAIRSAT,2,23,65,0,200,66,0,200,67,0,200,68,0,200,70,0,200,71,0,200,72,0,200,73,0,200,74,0,200,75,0,200,76,0,200,77,0,201,78,0,201,79,0,201,80,0,200,81,0,201,82,0,200,83,0,200,84,0,200,85,0,200,86,0,200,87,0,201,88,0,201*5C
$PAIRSAT,3,23,2,0,1200,3,0,1200,4,0,1200,5,0,200,7,0,1200,8,0,1200,9,0,1200,10,0,1200,11,0,1200,12,0,1200,13,0,1221,15,0,1221,19,0,1221,21,0,1221,24,0,1200,25,0,1200,26,0,1221,27,0,1221,30,0,1200,31,0,1200,33,0,1200,34,0,1200,36,0,1200*6A
$PAIRSAT,4,46,1,0,200,2,0,200,3,0,600,4,0,200,5,0,200,6,0,201,7,0,201,8,0,200,9,0,201,10,0,201,11,0,201,12,0,200,13,0,200,14,0,200,16,0,201,19,0,600,20,0,600,21,0,600,22,0,600,23,0,621,24,0,600,25,0,621,26,0,600,27,0,600,28,0,621,29,0,600,30,0,600,32,0,600,33,0,600,34,0,621,35,0,600,36,0,600,37,0,600,38,0,600,39,0,621,40,0,421,41,0,600,42,0,600,43,0,621,44,0,600,45,0,600,46,0,600,59,0,400,60,0,400,61,0,400,62,0,400*48
$PAIRDGP,8,2,4,7,8,9,16,21,27*7C
$GNGGA,033057.100,2500.7990064,N,12132.4853708,E,4,58,0.47,16.695,M,15.25,M,1,3335*47
$GNRMC,033057.100,A,2500.7990064,N,12132.4853708,E,0.06,332.71,090324,,,R,V*10
$GPHDT,,T*1B
$GNACCURACY,4.7*15
$GNGGA,033057.200,2500.7990078,N,12132.4853731,E,4,59,0.47,16.679,M,15.25,M,1,3335*40
$GNRMC,033057.200,A,2500.7990078,N,12132.4853731,E,0.08,332.71,090324,,,R,V*1A
$GPHDT,45.059,T*08
$GNACCURACY,4.7*15
$GNGGA,033057.300,2500.7990068,N,12132.4853730,E,4,59,0.47,16.679,M,15.25,M,1,3335*41
$GNRMC,033057.300,A,2500.7990068,N,12132.4853730,E,0.03,332.71,090324,,,R,V*10
$GPHDT,,T*1B
$GNACCURACY,4.7*15
$GNGGA,033057.400,2500.7990054,N,12132.4853725,E,4,59,0.47,16.678,M,15.25,M,1,3335*4C
$GNRMC,033057.400,A,2500.7990054,N,12132.4853725,E,0.07,332.71,090324,,,R,V*18
$GPHDT,45.028,T*0E
$GNACCURACY,4.7*15
$GNGGA,033057.500,2500.7990025,N,12132.4853694,E,4,59,0.47,16.689,M,15.25,M,0,3335*4F
$GNRMC,033057.500,A,2500.7990025,N,12132.4853694,E,0.02,332.71,090324,,,R,V*11
$GPHDT,,T*1B
$GNACCURACY,4.7*15
$GNGGA,033057.600,2500.7990069,N,12132.4853678,E,4,59,0.47,16.671,M,15.25,M,0,3335*41
$GNRMC,033057.600,A,2500.7990069,N,12132.4853678,E,0.03,332.71,090324,,,R,V*19
$GPHDT,46.025,T*00
$GNACCURACY,4.7*15
$GNGGA,033057.700,2500.7990066,N,12132.4853658,E,4,59,0.47,16.669,M,15.25,M,0,3335*44
$GNRMC,033057.700,A,2500.7990066,N,12132.4853658,E,0.01,332.71,090324,,,R,V*17
$GPHDT,,T*1B
$GNACCURACY,4.7*15
$GNGGA,033057.800,2500.7990086,N,12132.4853672,E,4,59,0.47,16.666,M,15.25,M,0,3335*42
$GNRMC,033057.800,A,2500.7990086,N,12132.4853672,E,0.06,332.71,090324,,,R,V*19
$GPHDT,46.009,T*0E
$GNACCURACY,4.6*14
$GNGGA,033057.900,2500.7990099,N,12132.4853639,E,4,59,0.47,16.672,M,15.25,M,0,3335*47
$GNRMC,033057.900,A,2500.7990099,N,12132.4853639,E,0.04,332.71,090324,,,R,V*1B
$GPHDT,,T*1B
$GNACCURACY,4.6*14
$GNGGA,033058.000,2500.7990122,N,12132.4853753,E,4,58,0.47,16.697,M,15.25,M,1,3335*46
$GNRMC,033058.000,A,2500.7990122,N,12132.4853753,E,0.10,332.71,090324,,,R,V*14
$GPHDT,46.150,T*03
$GNGSA,A,3,08,194,195,27,21,16,04,02,09,07,196,26,0.86,0.47,0.72,1*33
$GNGSA,A,3,31,,,,,,,,,,,,0.86,0.47,0.72,1*0B
$GNGSA,A,3,88,78,81,77,87,79,,,,,,,0.86,0.47,0.72,2*0D
$GNGSA,A,3,21,13,19,27,26,15,,,,,,,0.86,0.47,0.72,3*07
$GNGSA,A,3,06,16,09,43,39,40,07,23,10,11,25,28,0.86,0.47,0.72,4*07
$GNGSA,A,3,34,,,,,,,,,,,,0.86,0.47,0.72,4*0B
$GPGSV,4,1,15,08,72,311,40,199,64,167,,194,63,047,42,195,58,122,44,1*51
$GPGSV,4,2,15,27,48,027,43,45,47,231,33,21,41,168,37,16,34,057,18,1*69
$GPGSV,4,3,15,04,31,215,26,02,30,181,31,09,30,265,24,07,26,320,38,1*6C
$GPGSV,4,4,15,196,21,173,29,26,16,085,18,31,14,138,44,1*69
$GPGSV,2,1,08,08,72,311,46,194,63,047,43,195,58,122,40,27,48,027,45,8*6F
$GPGSV,2,2,08,04,31,215,32,09,30,265,25,196,21,173,36,26,16,085,28,8*51
$GLGSV,2,1,06,88,71,069,40,78,47,007,40,81,42,189,24,77,32,088,17,1*71
$GLGSV,2,2,06,87,20,029,17,79,13,321,22,1*72
$GAGSV,2,1,07,21,51,350,40,13,50,107,34,19,36,256,23,27,33,063,23,7*78
$GAGSV,2,2,07,26,29,175,25,15,22,048,18,04,10,312,18,7*42
$GAGSV,2,1,06,21,51,350,44,13,50,107,41,19,36,256,26,27,33,063,35,1*7B
$GAGSV,2,2,06,26,29,175,33,15,22,048,24,1*71
$GBGSV,4,1,13,06,81,224,43,16,78,191,41,09,75,298,41,43,73,058,41,1*7F
$GBGSV,4,2,13,39,67,177,42,40,65,317,41,07,62,295,39,23,62,358,38,1*7E
$GBGSV,4,3,13,10,52,278,32,11,48,044,42,25,47,098,41,28,40,208,31,1*75
$GBGSV,4,4,13,34,25,040,34,1*47
$GBGSV,2,1,07,43,73,058,43,39,67,177,44,40,65,317,42,23,62,358,32,4*7A
$GBGSV,2,2,07,25,47,098,37,28,40,208,28,34,25,040,37,4*4B
$GNACCURACY,4.6*14
$PAIRSAT,1,35,2,0,201,3,0,200,4,0,221,5,0,200,6,0,200,7,0,201,8,0,221,9,0,221,10,0,200,11,0,200,12,0,200,13,0,200,14,0,200,15,0,200,16,0,201,17,0,200,18,0,200,19,0,200,20,0,200,21,0,201,22,0,200,23,0,200,24,0,200,25,0,200,26,0,221,27,0,221,28,0,200,29,0,200,30,0,200,31,0,201,32,0,200,194,0,621,195,0,621,196,0,620,199,0,600*5B
$PAIRSAT,2,23,65,0,200,66,0,200,67,0,200,68,0,200,70,0,200,71,0,200,72,0,200,73,0,200,74,0,200,75,0,200,76,0,200,77,0,201,78,0,201,79,0,201,80,0,200,81,0,201,82,0,200,83,0,200,84,0,200,85,0,200,86,0,200,87,0,201,88,0,201*5C
$PAIRSAT,3,23,2,0,1200,3,0,1200,4,0,1200,5,0,200,7,0,1200,8,0,1200,9,0,1200,10,0,1200,11,0,1200,12,0,1200,13,0,1221,15,0,1221,19,0,1221,21,0,1221,24,0,1200,25,0,1200,26,0,1221,27,0,1221,30,0,1200,31,0,1200,33,0,1200,34,0,1200,36,0,1200*6A
$PAIRSAT,4,46,1,0,200,2,0,200,3,0,600,4,0,200,5,0,200,6,0,201,7,0,201,8,0,200,9,0,201,10,0,201,11,0,201,12,0,200,13,0,200,14,0,200,16,0,201,19,0,600,20,0,600,21,0,600,22,0,600,23,0,621,24,0,600,25,0,621,26,0,600,27,0,600,28,0,621,29,0,600,30,0,600,32,0,600,33,0,600,34,0,621,35,0,600,36,0,600,37,0,600,38,0,600,39,0,621,40,0,421,41,0,600,42,0,600,43,0,621,44,0,600,45,0,600,46,0,600,59,0,400,60,0,400,61,0,400,62,0,400*48
$PAIRDGP,8,2,4,7,8,9,16,21,27*7C
$GNGGA,033058.100,2500.7990067,N,12132.4853730,E,4,59,0.47,16.714,M,15.25,M,1,3335*49
$GNRMC,033058.100,A,2500.7990067,N,12132.4853730,E,0.07,332.71,090324,,,R,V*16
$GPHDT,,T*1B
$GNACCURACY,4.5*17
$GNGGA,033058.200,2500.7990105,N,12132.4853726,E,4,59,0.47,16.695,M,15.25,M,1,3335*40
$GNRMC,033058.200,A,2500.7990105,N,12132.4853726,E,0.24,332.71,090324,,,R,V*16
$GPHDT,46.572,T*07
$GNACCURACY,4.5*17
$GNGGA,033058.300,2500.7990100,N,12132.4853691,E,4,59,0.47,16.690,M,15.25,M,1,3335*4C
$GNRMC,033058.300,A,2500.7990100,N,12132.4853691,E,0.18,332.71,090324,,,R,V*10
$GPHDT,,T*1B
$GNACCURACY,4.5*17
$GNGGA,033058.400,2500.7990120,N,12132.4853676,E,4,59,0.47,16.694,M,15.25,M,1,3335*44
$GNRMC,033058.400,A,2500.7990120,N,12132.4853676,E,0.11,332.71,090324,,,R,V*15
$GPHDT,47.090,T*0F
$GNACCURACY,4.5*17
$GNGGA,033058.500,2500.7990089,N,12132.4853677,E,4,59,0.47,16.691,M,15.25,M,1,3335*43
$GNRMC,033058.500,A,2500.7990089,N,12132.4853677,E,0.24,332.71,090324,,,R,V*11
$GPHDT,,T*1B
$GNACCURACY,4.5*17
$GNGGA,033058.600,2500.7990066,N,12132.4853656,E,4,59,0.47,16.689,M,15.25,M,0,3335*4A
$GNRMC,033058.600,A,2500.7990066,N,12132.4853656,E,0.20,332.71,090324,,,R,V*14
$GPHDT,46.465,T*00
$GNACCURACY,4.5*17
$GNGGA,033058.700,2500.7990101,N,12132.4853681,E,4,59,0.47,16.696,M,15.25,M,0,3335*4F
$GNRMC,033058.700,A,2500.7990101,N,12132.4853681,E,0.19,332.71,090324,,,R,V*15
$GPHDT,,T*1B
$GNACCURACY,4.4*16
$GNGGA,033058.800,2500.7990084,N,12132.4853706,E,4,59,0.47,16.715,M,15.25,M,0,3335*48
$GNRMC,033058.800,A,2500.7990084,N,12132.4853706,E,0.13,332.71,090324,,,R,V*12
$GPHDT,45.993,T*07
$GNACCURACY,4.5*17
$GNGGA,033058.900,2500.7990086,N,12132.4853738,E,4,59,0.47,16.713,M,15.25,M,0,3335*40
$GNRMC,033058.900,A,2500.7990086,N,12132.4853738,E,0.11,332.71,090324,,,R,V*1E
$GPHDT,,T*1B
$GNACCURACY,4.5*17
$GNGGA,033059.000,2500.7990088,N,12132.4853743,E,4,59,0.47,16.688,M,15.25,M,1,3335*48
$GNRMC,033059.000,A,2500.7990088,N,12132.4853743,E,0.07,332.71,090324,,,R,V*13
$GPHDT,46.223,T*04
$GNGSA,A,3,08,194,195,27,21,16,04,02,09,07,196,26,0.86,0.47,0.72,1*33
$GNGSA,A,3,31,,,,,,,,,,,,0.86,0.47,0.72,1*0B
$GNGSA,A,3,88,78,81,77,87,79,,,,,,,0.86,0.47,0.72,2*0D
$GNGSA,A,3,21,13,19,27,26,15,,,,,,,0.86,0.47,0.72,3*07
$GNGSA,A,3,06,16,09,43,39,40,07,23,10,11,25,28,0.86,0.47,0.72,4*07
$GNGSA,A,3,34,,,,,,,,,,,,0.86,0.47,0.72,4*0B
$GPGSV,4,1,15,08,72,311,40,194,63,047,41,199,63,167,,195,58,122,44,1*55
$GPGSV,4,2,15,27,48,027,44,45,47,231,36,21,41,168,37,16,34,057,27,1*67
$GPGSV,4,3,15,04,31,215,36,02,30,181,36,09,30,265,26,07,26,320,38,1*68
$GPGSV,4,4,15,196,21,173,32,26,16,085,17,31,14,138,44,1*6C
$GPGSV,2,1,08,08,72,311,46,194,63,047,44,195,58,122,43,27,48,027,45,8*6B
$GPGSV,2,2,08,04,31,215,38,09,30,265,30,196,21,173,40,26,16,085,25,8*53
$GLGSV,2,1,06,88,71,069,39,78,47,007,40,81,42,189,26,77,32,088,17,1*7D
$GLGSV,2,2,06,87,20,029,17,79,13,321,22,1*72
$GAGSV,2,1,07,21,51,350,40,13,50,107,34,19,36,256,25,27,33,063,19,7*77
$GAGSV,2,2,07,26,29,175,22,15,22,048,18,04,10,312,17,7*4A
$GAGSV,2,1,06,21,51,350,44,13,50,107,38,19,36,256,26,27,33,063,36,1*76
$GAGSV,2,2,06,26,29,175,38,15,22,048,23,1*7D
$GBGSV,4,1,13,06,81,224,41,16,78,191,39,09,75,298,41,43,73,058,43,1*70
$GBGSV,4,2,13,39,67,177,42,40,65,317,42,07,62,295,39,23,62,358,39,1*7C
$GBGSV,4,3,13,10,52,278,32,11,48,044,42,25,47,098,41,28,40,208,33,1*77
$GBGSV,4,4,13,34,25,040,34,1*47
$GBGSV,2,1,07,43,73,058,43,39,67,177,44,40,65,317,42,23,62,358,33,4*7B
$GBGSV,2,2,07,25,47,098,33,28,40,208,29,34,25,040,38,4*41
$GNACCURACY,4.5*17
$PAIRSAT,1,35,2,0,201,3,0,200,4,0,221,5,0,200,6,0,200,7,0,201,8,0,221,9,0,221,10,0,200,11,0,200,12,0,200,13,0,200,14,0,200,15,0,200,16,0,201,17,0,200,18,0,200,19,0,200,20,0,200,21,0,201,22,0,200,23,0,200,24,0,200,25,0,200,26,0,221,27,0,221,28,0,200,29,0,200,30,0,200,31,0,201,32,0,200,194,0,621,195,0,621,196,0,620,199,0,600*5B
$PAIRSAT,2,23,65,0,200,66,0,200,67,0,200,68,0,200,70,0,200,71,0,200,72,0,200,73,0,200,74,0,200,75,0,200,76,0,200,77,0,201,78,0,201,79,0,201,80,0,200,81,0,201,82,0,200,83,0,200,84,0,200,85,0,200,86,0,200,87,0,201,88,0,201*5C
$PAIRSAT,3,23,2,0,1200,3,0,1200,4,0,1200,5,0,200,7,0,1200,8,0,1200,9,0,1200,10,0,1200,11,0,1200,12,0,1200,13,0,1221,15,0,1221,19,0,1221,21,0,1221,24,0,1200,25,0,1200,26,0,1221,27,0,1221,30,0,1200,31,0,1200,33,0,1200,34,0,1200,36,0,1200*6A
$PAIRSAT,4,46,1,0,200,2,0,200,3,0,600,4,0,200,5,0,200,6,0,201,7,0,201,8,0,200,9,0,201,10,0,201,11,0,201,12,0,200,13,0,200,14,0,200,16,0,201,19,0,600,20,0,600,21,0,600,22,0,600,23,0,621,24,0,600,25,0,621,26,0,600,27,0,600,28,0,621,29,0,600,30,0,600,32,0,600,33,0,600,34,0,621,35,0,600,36,0,600,37,0,600,38,0,600,39,0,621,40,0,421,41,0,600,42,0,600,43,0,621,44,0,600,45,0,600,46,0,600,59,0,400,60,0,400,61,0,400,62,0,400*48
$PAIRDGP,7,2,4,7,8,9,16,21*5A
$GNGGA,033059.100,2500.7990080,N,12132.4853750,E,4,59,0.47,16.705,M,15.25,M,1,3335*47
$GNRMC,033059.100,A,2500.7990080,N,12132.4853750,E,0.04,332.71,090324,,,R,V*1B
$GPHDT,,T*1B
$GNACCURACY,4.5*17
$GNGGA,033059.200,2500.7990038,N,12132.4853700,E,4,59,0.47,16.699,M,15.25,M,1,3335*46
$GNRMC,033059.200,A,2500.7990038,N,12132.4853700,E,0.01,332.71,090324,,,R,V*1B
$GPHDT,45.667,T*03
$GNACCURACY,4.5*17
$GNGGA,033059.300,2500.7990029,N,12132.4853736,E,4,59,0.47,16.709,M,15.25,M,1,3335*4A
$GNRMC,033059.300,A,2500.7990029,N,12132.4853736,E,0.12,332.71,090324,,,R,V*1D
$GPHDT,,T*1B
$GNACCURACY,4.5*17
$GNGGA,033059.400,2500.7990038,N,12132.4853701,E,4,59,0.47,16.708,M,15.25,M,1,3335*48
$GNRMC,033059.400,A,2500.7990038,N,12132.4853701,E,0.01,332.71,090324,,,R,V*1C
$GPHDT,46.044,T*07
$GNACCURACY,4.5*17
$GNGGA,033059.500,2500.7990038,N,12132.4853717,E,4,59,0.47,16.696,M,15.25,M,1,3335*48
$GNRMC,033059.500,A,2500.7990038,N,12132.4853717,E,0.03,332.71,090324,,,R,V*18
$GPHDT,,T*1B
$GNACCURACY,4.4*16
$GNGGA,033059.600,2500.7990022,N,12132.4853676,E,4,59,0.47,16.687,M,15.25,M,0,3335*47
$GNRMC,033059.600,A,2500.7990022,N,12132.4853676,E,0.04,332.71,090324,,,R,V*11
$GPHDT,45.653,T*04
$GNACCURACY,4.4*16
$GNGGA,033059.700,2500.7990022,N,12132.4853688,E,4,59,0.47,16.692,M,15.25,M,0,3335*43
$GNRMC,033059.700,A,2500.7990022,N,12132.4853688,E,0.03,332.71,090324,,,R,V*16
$GPHDT,,T*1B
$GNACCURACY,4.4*16
$GNGGA,033059.800,2500.7990099,N,12132.4853726,E,4,59,0.47,16.701,M,15.25,M,0,3335*42
$GNRMC,033059.800,A,2500.7990099,N,12132.4853726,E,0.02,332.71,090324,,,R,V*1D
$GPHDT,45.879,T*02
$GNACCURACY,4.5*17
$GNGGA,033059.900,2500.7990019,N,12132.4853673,E,4,59,0.47,16.685,M,15.25,M,0,3335*47
$GNRMC,033059.900,A,2500.7990019,N,12132.4853673,E,0.08,332.71,090324,,,R,V*1F
$GPHDT,,T*1B
$GNACCURACY,4.5*17
$GNGGA,033100.000,2500.7989991,N,12132.4853720,E,4,59,0.47,16.694,M,15.25,M,1,3335*44
$GNRMC,033100.000,A,2500.7989991,N,12132.4853720,E,0.03,332.71,090324,,,R,V*16
$GPHDT,45.963,T*08
$GNGSA,A,3,08,194,195,27,21,16,04,02,09,07,196,26,0.86,0.47,0.72,1*33
$GNGSA,A,3,31,,,,,,,,,,,,0.86,0.47,0.72,1*0B
$GNGSA,A,3,88,78,81,77,87,79,,,,,,,0.86,0.47,0.72,2*0D
$GNGSA,A,3,21,13,19,27,26,15,,,,,,,0.86,0.47,0.72,3*07
$GNGSA,A,3,06,16,09,43,39,40,07,23,10,11,25,28,0.86,0.47,0.72,4*07
$GNGSA,A,3,34,,,,,,,,,,,,0.86,0.47,0.72,4*0B
$GPGSV,4,1,15,08,72,311,39,194,63,047,41,199,63,167,,195,58,122,44,1*5B
$GPGSV,4,2,15,27,48,027,44,45,47,231,39,21,41,168,39,16,34,057,25,1*64
$GPGSV,4,3,15,04,31,215,40,02,30,181,35,09,30,265,29,07,26,320,36,1*6B
$GPGSV,4,4,15,196,21,173,30,26,16,085,18,31,14,138,44,1*61
$GPGSV,2,1,08,08,72,311,46,194,63,047,44,195,58,122,44,27,48,027,45,8*6C
$GPGSV,2,2,08,04,31,215,43,09,30,265,27,196,21,173,40,26,16,085,25,8*59
$GLGSV,2,1,06,88,71,069,40,78,47,007,40,81,42,189,28,77,32,088,15,1*7F
$GLGSV,2,2,06,87,20,029,17,79,13,321,24,1*74
$GAGSV,2,1,07,21,51,350,40,13,51,107,34,19,36,256,26,27,33,063,19,7*75
$GAGSV,2,2,07,26,29,175,21,15,22,048,22,04,10,312,16,7*41
$GAGSV,2,1,06,13,51,107,40,21,51,350,44,19,36,256,28,27,33,063,37,1*77
$GAGSV,2,2,06,26,29,175,38,15,22,048,23,1*7D
$GBGSV,4,1,13,06,81,224,40,16,78,191,38,09,75,298,40,43,73,058,43,1*71
$GBGSV,4,2,13,39,67,177,42,40,65,317,42,07,62,295,40,23,62,358,38,1*73
$GBGSV,4,3,13,10,52,278,30,11,48,044,42,25,47,098,40,28,40,208,35,1*72
$GBGSV,4,4,13,34,25,040,36,1*45
$GBGSV,2,1,07,43,73,058,44,39,67,177,44,40,65,317,43,23,62,358,33,4*7D
$GBGSV,2,2,07,25,47,098,35,28,40,208,33,34,25,040,38,4*4C
$GNACCURACY,4.5*17
$PAIRSAT,1,35,2,0,201,3,0,200,4,0,221,5,0,200,6,0,200,7,0,201,8,0,221,9,0,221,10,0,200,11,0,200,12,0,200,13,0,200,14,0,200,15,0,200,16,0,201,17,0,200,18,0,200,19,0,200,20,0,200,21,0,201,22,0,200,23,0,200,24,0,200,25,0,200,26,0,221,27,0,221,28,0,200,29,0,200,30,0,200,31,0,201,32,0,200,194,0,621,195,0,621,196,0,620,199,0,600*5B
$PAIRSAT,2,23,65,0,200,66,0,200,67,0,200,68,0,200,70,0,200,71,0,200,72,0,200,73,0,200,74,0,200,75,0,200,76,0,200,77,0,201,78,0,201,79,0,201,80,0,200,81,0,201,82,0,200,83,0,200,84,0,200,85,0,200,86,0,200,87,0,201,88,0,201*5C
$PAIRSAT,3,23,2,0,1200,3,0,1200,4,0,1200,5,0,200,7,0,1200,8,0,1200,9,0,1200,10,0,1200,11,0,1200,12,0,1200,13,0,1221,15,0,1221,19,0,1221,21,0,1221,24,0,1200,25,0,1200,26,0,1221,27,0,1221,30,0,1200,31,0,1200,33,0,1200,34,0,1200,36,0,1200*6A
$PAIRSAT,4,46,1,0,200,2,0,200,3,0,600,4,0,200,5,0,200,6,0,201,7,0,201,8,0,200,9,0,201,10,0,201,11,0,201,12,0,200,13,0,200,14,0,200,16,0,201,19,0,600,20,0,600,21,0,600,22,0,600,23,0,621,24,0,600,25,0,621,26,0,600,27,0,600,28,0,621,29,0,600,30,0,600,32,0,600,33,0,600,34,0,621,35,0,600,36,0,600,37,0,600,38,0,600,39,0,621,40,0,421,41,0,600,42,0,600,43,0,621,44,0,600,45,0,600,46,0,600,59,0,400,60,0,400,61,0,400,62,0,400*48
$PAIRDGP,7,2,4,7,8,9,16,21*5A
$GNGGA,033100.100,2500.7989995,N,12132.4853719,E,4,59,0.47,16.711,M,15.25,M,1,3335*47
$GNRMC,033100.100,A,2500.7989995,N,12132.4853719,E,0.03,332.71,090324,,,R,V*19
$GPHDT,,T*1B
$GNACCURACY,4.5*17
$GNGGA,033100.200,2500.7989970,N,12132.4853741,E,4,59,0.47,16.698,M,15.25,M,1,3335*42
$GNRMC,033100.200,A,2500.7989970,N,12132.4853741,E,0.11,332.71,090324,,,R,V*1F
$GPHDT,45.653,T*04
$GNACCURACY,4.5*17
$GNGGA,033100.300,2500.7990041,N,12132.4853738,E,4,59,0.47,16.717,M,15.25,M,1,3335*48
$GNRMC,033100.300,A,2500.7990041,N,12132.4853738,E,0.06,332.71,090324,,,R,V*15
$GPHDT,,T*1B
$GNACCURACY,4.5*17
$GNGGA,033100.400,2500.7990026,N,12132.4853767,E,4,59,0.47,16.719,M,15.25,M,1,3335*4A
$GNRMC,033100.400,A,2500.7990026,N,12132.4853767,E,0.03,332.71,090324,,,R,V*1C
$GPHDT,45.420,T*02
$GNACCURACY,4.5*17
$GNGGA,033100.500,2500.7989996,N,12132.4853765,E,4,59,0.47,16.716,M,15.25,M,0,3335*4D
$GNRMC,033100.500,A,2500.7989996,N,12132.4853765,E,0.01,332.71,090324,,,R,V*17
$GPHDT,,T*1B
$GNACCURACY,4.6*14
$GNGGA,033100.600,2500.7989983,N,12132.4853737,E,4,59,0.47,16.718,M,15.25,M,0,3335*43
$GNRMC,033100.600,A,2500.7989983,N,12132.4853737,E,0.01,332.71,090324,,,R,V*17
$GPHDT,45.568,T*0F
$GNACCURACY,4.6*14
$GNGGA,033100.700,2500.7990007,N,12132.4853782,E,4,59,0.47,16.724,M,15.25,M,0,3335*4E
$GNRMC,033100.700,A,2500.7990007,N,12132.4853782,E,0.03,332.71,090324,,,R,V*17
$GPHDT,,T*1B
$GNACCURACY,4.6*14
$GNGGA,033100.800,2500.7990022,N,12132.4853741,E,4,59,0.47,16.731,M,15.25,M,0,3335*4D
$GNRMC,033100.800,A,2500.7990022,N,12132.4853741,E,0.08,332.71,090324,,,R,V*1B
$GPHDT,45.708,T*0B
$GNACCURACY,4.6*14
$GNGGA,033100.900,2500.7990003,N,12132.4853769,E,4,59,0.47,16.735,M,15.25,M,0,3335*41
$GNRMC,033100.900,A,2500.7990003,N,12132.4853769,E,0.03,332.71,090324,,,R,V*18
$GPHDT,,T*1B
$GNACCURACY,4.7*15
$GNGGA,033101.000,2500.7990015,N,12132.4853737,E,4,59,0.47,16.730,M,15.25,M,1,3335*41
$GNRMC,033101.000,A,2500.7990015,N,12132.4853737,E,0.07,332.71,090324,,,R,V*18
$GPHDT,45.764,T*01
$GNGSA,A,3,08,194,195,27,21,16,04,02,09,07,196,26,0.87,0.48,0.72,1*3D
$GNGSA,A,3,31,,,,,,,,,,,,0.87,0.48,0.72,1*05
$GNGSA,A,3,88,78,81,87,79,,,,,,,,0.87,0.48,0.72,2*03
$GNGSA,A,3,21,13,19,27,26,15,,,,,,,0.87,0.48,0.72,3*09
$GNGSA,A,3,06,16,09,43,39,40,07,23,10,11,25,28,0.87,0.48,0.72,4*09
$GNGSA,A,3,34,,,,,,,,,,,,0.87,0.48,0.72,4*05
$GPGSV,4,1,15,08,72,311,39,194,63,047,41,199,63,167,,195,58,122,44,1*5B
$GPGSV,4,2,15,27,48,027,44,45,47,231,39,21,41,168,39,16,34,057,25,1*64
$GPGSV,4,3,15,04,31,215,38,02,30,181,35,09,30,265,29,07,26,320,31,1*63
$GPGSV,4,4,15,196,21,173,30,26,16,085,18,31,14,138,44,1*61
$GPGSV,2,1,08,08,72,311,46,194,63,047,44,195,58,122,44,27,48,027,45,8*6C
$GPGSV,2,2,08,04,31,215,43,09,30,265,28,196,21,173,40,26,16,085,26,8*55
$GLGSV,2,1,06,88,71,069,40,78,47,007,40,81,42,189,28,77,32,088,16,1*7C
$GLGSV,2,2,06,87,20,029,17,79,13,321,24,1*74
$GAGSV,2,1,07,21,51,350,39,13,51,107,34,19,36,256,26,27,33,064,15,7*70
$GAGSV,2,2,07,26,29,175,21,15,22,048,24,04,10,312,16,7*47
$GAGSV,2,1,06,13,51,107,40,21,51,350,44,19,36,256,28,27,33,064,38,1*7F
$GAGSV,2,2,06,26,29,175,38,15,22,048,26,1*78
$GBGSV,4,1,13,06,81,224,40,16,78,191,38,09,75,298,40,43,73,058,43,1*71
$GBGSV,4,2,13,39,67,177,42,40,65,317,42,07,62,295,40,23,62,358,38,1*73
$GBGSV,4,3,13,10,52,278,26,11,48,044,42,25,47,098,40,28,40,208,35,1*75
$GBGSV,4,4,13,34,25,040,36,1*45
$GBGSV,2,1,07,43,73,058,44,39,67,177,44,40,65,317,43,23,62,358,34,4*7A
$GBGSV,2,2,07,25,47,098,35,28,40,208,31,34,25,040,37,4*41
$GNACCURACY,4.7*15
$PAIRSAT,1,35,2,0,201,3,0,200,4,0,221,5,0,200,6,0,200,7,0,201,8,0,221,9,0,221,10,0,200,11,0,200,12,0,200,13,0,200,14,0,200,15,0,200,16,0,201,17,0,200,18,0,200,19,0,200,20,0,200,21,0,201,22,0,200,23,0,200,24,0,200,25,0,200,26,0,221,27,0,221,28,0,200,29,0,200,30,0,200,31,0,201,32,0,200,194,0,621,195,0,621,196,0,620,199,0,600*5B
$PAIRSAT,2,23,65,0,200,66,0,200,67,0,200,68,0,200,70,0,200,71,0,200,72,0,200,73,0,200,74,0,200,75,0,200,76,0,200,77,0,201,78,0,201,79,0,201,80,0,200,81,0,201,82,0,200,83,0,200,84,0,200,85,0,200,86,0,200,87,0,201,88,0,201*5C
$PAIRSAT,3,23,2,0,1200,3,0,1200,4,0,1200,5,0,200,7,0,1200,8,0,1200,9,0,1200,10,0,1200,11,0,1200,12,0,1200,13,0,1221,15,0,1221,19,0,1221,21,0,1221,24,0,1200,25,0,1200,26,0,1221,27,0,1221,30,0,1200,31,0,1200,33,0,1200,34,0,1200,36,0,1200*6A
$PAIRSAT,4,46,1,0,200,2,0,200,3,0,600,4,0,200,5,0,200,6,0,201,7,0,201,8,0,200,9,0,201,10,0,201,11,0,201,12,0,200,13,0,200,14,0,200,16,0,201,19,0,600,20,0,600,21,0,600,22,0,600,23,0,621,24,0,600,25,0,621,26,0,600,27,0,600,28,0,621,29,0,600,30,0,600,32,0,600,33,0,600,34,0,621,35,0,600,36,0,600,37,0,600,38,0,600,39,0,621,40,0,421,41,0,600,42,0,600,43,0,621,44,0,600,45,0,600,46,0,600,59,0,400,60,0,400,61,0,400,62,0,400*48
$PAIRDGP,7,2,4,7,8,9,16,21*5A
$GNGGA,033101.100,2500.7990004,N,12132.4853771,E,4,58,0.48,16.734,M,15.25,M,1,3335*48
$GNRMC,033101.100,A,2500.7990004,N,12132.4853771,E,0.04,332.71,090324,,,R,V*18
$GPHDT,,T*1B
$GNACCURACY,4.7*15
$GNGGA,033101.200,2500.7990025,N,12132.4853723,E,4,58,0.48,16.724,M,15.25,M,1,3335*4E
$GNRMC,033101.200,A,2500.7990025,N,12132.4853723,E,0.06,332.71,090324,,,R,V*1D
$GPHDT,45.872,T*09
$GNACCURACY,4.8*1A
$GNGGA,033101.300,2500.7990003,N,12132.4853768,E,4,58,0.48,16.734,M,15.25,M,1,3335*45
$GNRMC,033101.300,A,2500.7990003,N,12132.4853768,E,0.03,332.71,090324,,,R,V*12
$GPHDT,,T*1B
$GNACCURACY,4.7*15
$GNGGA,033101.400,2500.7990055,N,12132.4853697,E,4,58,0.48,16.714,M,15.25,M,1,3335*42
$GNRMC,033101.400,A,2500.7990055,N,12132.4853697,E,0.09,332.71,090324,,,R,V*1D
$GPHDT,45.786,T*0D
$GNACCURACY,4.7*15
$GNGGA,033101.500,2500.7990027,N,12132.4853740,E,4,58,0.48,16.716,M,15.25,M,0,3335*4E
$GNRMC,033101.500,A,2500.7990027,N,12132.4853740,E,0.04,332.71,090324,,,R,V*1F
$GPHDT,,T*1B
$GNACCURACY,4.6*14
$GNGGA,033101.600,2500.7990030,N,12132.4853709,E,4,58,0.48,16.720,M,15.25,M,0,3335*43
$GNRMC,033101.600,A,2500.7990030,N,12132.4853709,E,0.05,332.71,090324,,,R,V*16
$GPHDT,45.346,T*05
$GNACCURACY,4.6*14
$GNGGA,033101.700,2500.7989985,N,12132.4853734,E,4,58,0.48,16.716,M,15.25,M,0,3335*46
$GNRMC,033101.700,A,2500.7989985,N,12132.4853734,E,0.04,332.71,090324,,,R,V*17
$GPHDT,,T*1B
$GNACCURACY,4.6*14
$GNGGA,033101.800,2500.7989966,N,12132.4853713,E,4,58,0.48,16.711,M,15.25,M,0,3335*46
$GNRMC,033101.800,A,2500.7989966,N,12132.4853713,E,0.07,332.71,090324,,,R,V*13
$GPHDT,45.817,T*0A
$GNACCURACY,4.6*14
$GNGGA,033101.900,2500.7989978,N,12132.4853728,E,4,58,0.48,16.713,M,15.25,M,0,3335*42
$GNRMC,033101.900,A,2500.7989978,N,12132.4853728,E,0.01,332.71,090324,,,R,V*13
$GPHDT,,T*1B
$GNACCURACY,4.6*14
$GNGGA,033102.000,2500.7989991,N,12132.4853712,E,4,58,0.48,16.720,M,15.25,M,1,3335*47
$GNRMC,033102.000,A,2500.7989991,N,12132.4853712,E,0.06,332.71,090324,,,R,V*10
$GPHDT,45.951,T*09
$GNGSA,A,3,08,194,195,27,21,16,04,02,09,07,196,26,0.87,0.48,0.72,1*3D
$GNGSA,A,3,31,,,,,,,,,,,,0.87,0.48,0.72,1*05
$GNGSA,A,3,88,78,81,87,79,,,,,,,,0.87,0.48,0.72,2*03
$GNGSA,A,3,21,13,19,27,26,15,,,,,,,0.87,0.48,0.72,3*09
$GNGSA,A,3,06,16,09,43,39,40,07,23,10,11,25,28,0.87,0.48,0.72,4*09
$GNGSA,A,3,34,,,,,,,,,,,,0.87,0.48,0.72,4*05
$GPGSV,4,1,15,08,72,311,39,194,63,047,41,199,63,167,,195,58,122,44,1*5B
$GPGSV,4,2,15,27,48,027,44,45,47,231,39,21,41,168,38,16,34,057,25,1*65
$GPGSV,4,3,15,04,31,215,38,02,30,181,33,09,30,265,29,07,26,320,35,1*61
$GPGSV,4,4,15,196,21,173,29,26,16,085,18,31,14,138,44,1*69
$GPGSV,2,1,08,08,72,311,46,194,63,047,44,195,58,122,44,27,48,027,45,8*6C
$GPGSV,2,2,08,04,31,215,43,09,30,265,27,196,21,173,40,26,16,085,27,8*5B
$GLGSV,2,1,06,88,71,069,40,78,47,007,40,81,42,189,25,77,32,088,18,1*7F
$GLGSV,2,2,06,87,20,029,17,79,13,321,24,1*74
$GAGSV,2,1,07,21,51,350,39,13,51,107,36,19,36,256,25,27,33,064,15,7*71
$GAGSV,2,2,07,26,29,175,21,15,22,048,26,04,10,312,16,7*45
$GAGSV,2,1,06,13,51,107,40,21,51,350,44,19,36,256,28,27,33,064,38,1*7F
$GAGSV,2,2,06,26,29,175,37,15,22,048,25,1*74
$GBGSV,4,1,13,06,81,224,40,16,78,191,38,09,75,298,40,43,73,058,42,1*70
$GBGSV,4,2,13,39,67,177,42,40,65,317,42,07,62,295,40,23,62,358,38,1*73
$GBGSV,4,3,13,10,52,278,29,11,48,044,42,25,47,098,40,28,40,208,35,1*7A
$GBGSV,4,4,13,34,25,040,36,1*45
$GBGSV,2,1,07,43,73,058,44,39,67,177,43,40,65,317,43,23,62,358,34,4*7D
$GBGSV,2,2,07,25,47,098,35,28,40,208,31,34,25,040,38,4*4E
$GNACCURACY,4.6*14
$PAIRSAT,1,35,2,0,201,3,0,200,4,0,221,5,0,200,6,0,200,7,0,201,8,0,221,9,0,221,10,0,200,11,0,200,12,0,200,13,0,200,14,0,200,15,0,200,16,0,201,17,0,200,18,0,200,19,0,200,20,0,200,21,0,201,22,0,200,23,0,200,24,0,200,25,0,200,26,0,221,27,0,221,28,0,200,29,0,200,30,0,200,31,0,201,32,0,200,194,0,621,195,0,621,196,0,620,199,0,600*5B
$PAIRSAT,2,23,65,0,200,66,0,200,67,0,200,68,0,200,70,0,200,71,0,200,72,0,200,73,0,200,74,0,200,75,0,200,76,0,200,77,0,201,78,0,201,79,0,201,80,0,200,81,0,201,82,0,200,83,0,200,84,0,200,85,0,200,86,0,200,87,0,201,88,0,201*5C
$PAIRSAT,3,23,2,0,1200,3,0,1200,4,0,1200,5,0,200,7,0,1200,8,0,1200,9,0,1200,10,0,1200,11,0,1200,12,0,1200,13,0,1221,15,0,1221,19,0,1221,21,0,1221,24,0,1200,25,0,1200,26,0,1221,27,0,1221,30,0,1200,31,0,1200,33,0,1200,34,0,1200,36,0,1200*6A
$PAIRSAT,4,46,1,0,200,2,0,200,3,0,600,4,0,200,5,0,200,6,0,201,7,0,201,8,0,200,9,0,201,10,0,201,11,0,201,12,0,200,13,0,200,14,0,200,16,0,201,19,0,600,20,0,600,21,0,600,22,0,600,23,0,621,24,0,600,25,0,621,26,0,600,27,0,600,28,0,621,29,0,600,30,0,600,32,0,600,33,0,600,34,0,621,35,0,600,36,0,600,37,0,600,38,0,600,39,0,621,40,0,421,41,0,600,42,0,600,43,0,621,44,0,600,45,0,600,46,0,600,59,0,400,60,0,400,61,0,400,62,0,400*48
$PAIRDGP,7,2,4,7,8,9,16,21*5A
$GNGGA,033102.100,2500.7990005,N,12132.4853728,E,4,58,0.48,16.703,M,15.25,M,1,3335*42
$GNRMC,033102.100,A,2500.7990005,N,12132.4853728,E,0.05,332.71,090324,,,R,V*17
$GPHDT,,T*1B
$GNACCURACY,4.6*14
$GNGGA,033102.200,2500.7990009,N,12132.4853694,E,4,58,0.48,16.713,M,15.25,M,1,3335*4A
$GNRMC,033102.200,A,2500.7990009,N,12132.4853694,E,0.01,332.71,090324,,,R,V*1A
$GPHDT,45.612,T*01
$GNACCURACY,4.6*14
$GNGGA,033102.300,2500.7990002,N,12132.4853728,E,4,58,0.48,16.699,M,15.25,M,1,3335*45
$GNRMC,033102.300,A,2500.7990002,N,12132.4853728,E,0.04,332.71,090324,,,R,V*13
$GPHDT,,T*1B
$GNACCURACY,4.6*14
$GNGGA,033102.400,2500.7989994,N,12132.4853736,E,4,59,0.47,16.708,M,15.25,M,1,3335*44
$GNRMC,033102.400,A,2500.7989994,N,12132.4853736,E,0.04,332.71,090324,,,R,V*15
$GPHDT,45.497,T*0E
$GNACCURACY,4.6*14
$GNGGA,033102.500,2500.7990014,N,12132.4853742,E,4,59,0.47,16.699,M,15.25,M,1,3335*46
$GNRMC,033102.500,A,2500.7990014,N,12132.4853742,E,0.05,332.71,090324,,,R,V*1F
$GPHDT,,T*1B
$GNACCURACY,4.6*14
$GNGGA,033102.600,2500.7989976,N,12132.4853705,E,4,59,0.47,16.687,M,15.25,M,1,3335*4C
$GNRMC,033102.600,A,2500.7989976,N,12132.4853705,E,0.03,332.71,090324,,,R,V*1C
$GPHDT,45.959,T*01
$GNACCURACY,4.6*14
$GNGGA,033102.700,2500.7989982,N,12132.4853706,E,4,59,0.47,16.685,M,15.25,M,1,3335*47
$GNRMC,033102.700,A,2500.7989982,N,12132.4853706,E,0.03,332.71,090324,,,R,V*15
$GPHDT,,T*1B
$GNACCURACY,4.6*14
$GNGGA,033102.800,2500.7989993,N,12132.4853691,E,4,59,0.47,16.696,M,15.25,M,0,3335*44
$GNRMC,033102.800,A,2500.7989993,N,12132.4853691,E,0.02,332.71,090324,,,R,V*14
$GPHDT,45.981,T*04
$GNACCURACY,4.6*14
$GNGGA,033102.900,2500.7989987,N,12132.4853727,E,4,59,0.47,16.698,M,15.25,M,0,3335*42
$GNRMC,033102.900,A,2500.7989987,N,12132.4853727,E,0.04,332.71,090324,,,R,V*1A
$GPHDT,,T*1B
$GNACCURACY,4.6*14
$GNGGA,033103.000,2500.7990005,N,12132.4853710,E,4,59,0.47,16.701,M,15.25,M,1,3335*45
$GNRMC,033103.000,A,2500.7990005,N,12132.4853710,E,0.07,332.71,090324,,,R,V*1E
$GPHDT,45.996,T*02
$GNGSA,A,3,08,194,195,27,21,16,04,02,09,07,196,26,0.75,0.47,0.58,1*37
$GNGSA,A,3,31,,,,,,,,,,,,0.75,0.47,0.58,1*0F
$GNGSA,A,3,88,78,81,77,87,79,,,,,,,0.75,0.47,0.58,2*09
$GNGSA,A,3,21,13,19,27,26,15,,,,,,,0.75,0.47,0.58,3*03
$GNGSA,A,3,06,16,09,43,39,40,07,23,10,11,25,28,0.75,0.47,0.58,4*03
$GNGSA,A,3,34,,,,,,,,,,,,0.75,0.47,0.58,4*0F
$GPGSV,4,1,15,08,72,311,39,194,63,047,41,199,63,167,,195,58,122,44,1*5B
$GPGSV,4,2,15,27,48,027,44,45,47,231,39,21,41,168,37,16,34,057,24,1*6B
$GPGSV,4,3,15,04,31,215,38,02,30,181,34,09,30,265,30,07,26,320,36,1*6D
$GPGSV,4,4,15,196,21,173,29,26,16,085,18,31,14,138,44,1*69
$GPGSV,2,1,08,08,72,311,46,194,63,047,44,195,58,122,44,27,48,027,45,8*6C
$GPGSV,2,2,08,04,31,215,43,09,30,265,25,196,21,173,40,26,16,085,26,8*58
$GLGSV,2,1,06,88,71,069,40,78,47,007,40,81,42,189,24,77,32,088,18,1*7E
$GLGSV,2,2,06,87,20,029,15,79,13,321,24,1*76
$GAGSV,2,1,07,21,51,350,39,13,51,107,36,19,36,256,26,27,33,064,19,7*7E
$GAGSV,2,2,07,26,29,175,19,15,22,048,25,04,10,312,17,7*4C
$GAGSV,2,1,06,13,51,107,40,21,51,350,43,19,36,256,28,27,33,064,38,1*78
$GAGSV,2,2,06,26,29,175,37,15,22,048,24,1*75
$GBGSV,4,1,13,06,81,224,40,16,78,191,38,09,75,298,40,43,73,058,41,1*73
$GBGSV,4,2,13,39,67,177,42,40,65,317,42,07,62,295,40,23,62,358,38,1*73
$GBGSV,4,3,13,10,52,278,30,11,48,044,42,25,47,098,40,28,40,208,35,1*72
$GBGSV,4,4,13,34,25,040,36,1*45
$GBGSV,2,1,07,43,73,058,44,39,67,177,42,40,65,317,43,23,62,358,34,4*7C
$GBGSV,2,2,07,25,47,098,35,28,40,208,31,34,25,040,38,4*4E
$GNACCURACY,4.6*14
$PAIRSAT,1,35,2,0,201,3,0,200,4,0,221,5,0,200,6,0,200,7,0,201,8,0,221,9,0,221,10,0,200,11,0,200,12,0,200,13,0,200,14,0,200,15,0,200,16,0,201,17,0,200,18,0,200,19,0,200,20,0,200,21,0,201,22,0,200,23,0,200,24,0,200,25,0,200,26,0,221,27,0,221,28,0,200,29,0,200,30,0,200,31,0,201,32,0,200,194,0,621,195,0,621,196,0,620,199,0,600*5B
$PAIRSAT,2,23,65,0,200,66,0,200,67,0,200,68,0,200,70,0,200,71,0,200,72,0,200,73,0,200,74,0,200,75,0,200,76,0,200,77,0,201,78,0,201,79,0,201,80,0,200,81,0,201,82,0,200,83,0,200,84,0,200,85,0,200,86,0,200,87,0,201,88,0,201*5C
$PAIRSAT,3,23,2,0,1200,3,0,1200,4,0,1200,5,0,200,7,0,1200,8,0,1200,9,0,1200,10,0,1200,11,0,1200,12,0,1200,13,0,1221,15,0,1221,19,0,1221,21,0,1221,24,0,1200,25,0,1200,26,0,1221,27,0,1221,30,0,1200,31,0,1200,33,0,1200,34,0,1200,36,0,1200*6A
$PAIRSAT,4,46,1,0,200,2,0,200,3,0,600,4,0,200,5,0,200,6,0,201,7,0,201,8,0,200,9,0,201,10,0,201,11,0,201,12,0,200,13,0,200,14,0,200,16,0,201,19,0,600,20,0,600,21,0,600,22,0,600,23,0,621,24,0,600,25,0,621,26,0,600,27,0,600,28,0,621,29,0,600,30,0,600,32,0,600,33,0,600,34,0,621,35,0,600,36,0,600,37,0,600,38,0,600,39,0,621,40,0,421,41,0,600,42,0,600,43,0,621,44,0,600,45,0,600,46,0,600,59,0,400,60,0,400,61,0,400,62,0,400*48
$PAIRDGP,7,2,4,7,8,9,16,21*5A
$GNGGA,033103.100,2500.7990014,N,12132.4853696,E,4,59,0.47,16.689,M,15.25,M,1,3335*4A
$GNRMC,033103.100,A,2500.7990014,N,12132.4853696,E,0.04,332.71,090324,,,R,V*13
$GPHDT,,T*1B
$GNACCURACY,4.6*14
$GNGGA,033103.200,2500.7990004,N,12132.4853697,E,4,59,0.47,16.690,M,15.25,M,1,3335*41
$GNRMC,033103.200,A,2500.7990004,N,12132.4853697,E,0.04,332.71,090324,,,R,V*10
$GPHDT,46.078,T*08
$GNACCURACY,4.6*14
$GNGGA,033103.300,2500.7990007,N,12132.4853714,E,4,59,0.47,16.704,M,15.25,M,1,3335*45
$GNRMC,033103.300,A,2500.7990007,N,12132.4853714,E,0.03,332.71,090324,,,R,V*1F
$GPHDT,,T*1B
$GNACCURACY,4.6*14
$GNGGA,033103.400,2500.7989981,N,12132.4853670,E,4,59,0.47,16.683,M,15.25,M,1,3335*40
$GNRMC,033103.400,A,2500.7989981,N,12132.4853670,E,0.08,332.71,090324,,,R,V*1F
$GPHDT,45.940,T*09
$GNACCURACY,4.6*14
$GNGGA,033103.500,2500.7990001,N,12132.4853708,E,4,59,0.47,16.695,M,15.25,M,0,3335*40
$GNRMC,033103.500,A,2500.7990001,N,12132.4853708,E,0.07,332.71,090324,,,R,V*16
$GPHDT,,T*1B
$GNACCURACY,4.6*14
$GNGGA,033103.600,2500.7990002,N,12132.4853699,E,4,59,0.47,16.693,M,15.25,M,0,3335*4F
$GNRMC,033103.600,A,2500.7990002,N,12132.4853699,E,0.02,332.71,090324,,,R,V*1A
$GPHDT,45.802,T*0E
$GNACCURACY,4.6*14
$GNGGA,033103.700,2500.7990039,N,12132.4853716,E,4,59,0.47,16.705,M,15.25,M,0,3335*4E
$GNRMC,033103.700,A,2500.7990039,N,12132.4853716,E,0.03,332.71,090324,,,R,V*14
$GPHDT,,T*1B
$GNACCURACY,4.6*14
$GNGGA,033103.800,2500.7990036,N,12132.4853688,E,4,59,0.47,16.698,M,15.25,M,0,3335*4D
$GNRMC,033103.800,A,2500.7990036,N,12132.4853688,E,0.11,332.71,090324,,,R,V*11
$GPHDT,46.470,T*04
$GNACCURACY,4.6*14
$GNGGA,033103.900,2500.7990045,N,12132.4853694,E,4,59,0.47,16.696,M,15.25,M,0,3335*4B
$GNRMC,033103.900,A,2500.7990045,N,12132.4853694,E,0.06,332.71,090324,,,R,V*1F
$GPHDT,,T*1B
$GNACCURACY,4.6*14
$GNGGA,033104.000,2500.7990044,N,12132.4853730,E,4,59,0.47,16.702,M,15.25,M,1,3335*46
$GNRMC,033104.000,A,2500.7990044,N,12132.4853730,E,0.01,332.71,090324,,,R,V*18
$GPHDT,45.927,T*08
$GNGSA,A,3,08,194,195,27,21,16,04,02,09,07,196,26,0.75,0.47,0.58,1*37
$GNGSA,A,3,31,,,,,,,,,,,,0.75,0.47,0.58,1*0F
$GNGSA,A,3,88,78,81,77,87,79,,,,,,,0.75,0.47,0.58,2*09
$GNGSA,A,3,21,13,19,27,26,15,,,,,,,0.75,0.47,0.58,3*03
$GNGSA,A,3,06,16,09,43,39,40,07,23,10,11,25,28,0.75,0.47,0.58,4*03
$GNGSA,A,3,34,,,,,,,,,,,,0.75,0.47,0.58,4*0F
$GPGSV,4,1,15,08,72,311,39,194,63,047,41,199,63,167,,195,58,122,44,1*5B
$GPGSV,4,2,15,27,48,027,44,45,47,231,39,21,41,168,36,16,34,057,26,1*68
$GPGSV,4,3,15,04,31,215,39,02,30,181,34,09,30,265,30,07,26,320,36,1*6C
$GPGSV,4,4,15,196,21,173,28,26,16,085,16,31,14,138,44,1*66
$GPGSV,2,1,07,08,72,311,45,194,63,047,44,195,58,122,44,27,48,027,45,8*60
$GPGSV,2,2,07,04,31,215,43,196,21,173,40,26,16,085,26,8*6B
$GLGSV,2,1,06,88,71,069,40,78,47,007,39,81,43,189,24,77,32,088,19,1*70
$GLGSV,2,2,06,87,20,029,14,79,13,321,23,1*70
$GAGSV,2,1,07,21,51,350,39,13,51,107,36,19,36,256,25,27,33,064,19,7*7D
$GAGSV,2,2,07,26,29,175,19,15,22,048,25,04,10,312,17,7*4C
$GAGSV,2,1,06,13,51,107,40,21,51,350,43,19,36,256,28,27,33,064,38,1*78
$GAGSV,2,2,06,26,29,175,37,15,22,048,24,1*75
$GBGSV,4,1,13,06,81,224,39,16,78,191,38,09,75,298,41,43,73,058,41,1*7C
$GBGSV,4,2,13,39,67,177,42,40,65,317,42,07,62,295,40,23,62,358,38,1*73
$GBGSV,4,3,13,10,52,278,30,11,48,044,42,25,47,098,40,28,40,208,34,1*73
$GBGSV,4,4,13,34,25,040,36,1*45
$GBGSV,2,1,07,43,73,058,44,39,67,177,42,40,65,317,43,23,62,358,35,4*7D
$GBGSV,2,2,07,25,47,098,36,28,40,208,32,34,25,040,38,4*4E
$GNACCURACY,4.6*14
$PAIRSAT,1,35,2,0,201,3,0,200,4,0,221,5,0,200,6,0,200,7,0,201,8,0,221,9,0,221,10,0,200,11,0,200,12,0,200,13,0,200,14,0,200,15,0,200,16,0,201,17,0,200,18,0,200,19,0,200,20,0,200,21,0,201,22,0,200,23,0,200,24,0,200,25,0,200,26,0,221,27,0,221,28,0,200,29,0,200,30,0,200,31,0,201,32,0,200,194,0,621,195,0,621,196,0,620,199,0,600*5B
$PAIRSAT,2,23,65,0,200,66,0,200,67,0,200,68,0,200,70,0,200,71,0,200,72,0,200,73,0,200,74,0,200,75,0,200,76,0,200,77,0,201,78,0,201,79,0,201,80,0,200,81,0,201,82,0,200,83,0,200,84,0,200,85,0,200,86,0,200,87,0,201,88,0,201*5C
$PAIRSAT,3,23,2,0,1200,3,0,1200,4,0,1200,5,0,200,7,0,1200,8,0,1200,9,0,1200,10,0,1200,11,0,1200,12,0,1200,13,0,1221,15,0,1221,19,0,1221,21,0,1221,24,0,1200,25,0,1200,26,0,1221,27,0,1221,30,0,1200,31,0,1200,33,0,1200,34,0,1200,36,0,1200*6A
$PAIRSAT,4,46,1,0,200,2,0,200,3,0,600,4,0,200,5,0,200,6,0,201,7,0,201,8,0,200,9,0,201,10,0,201,11,0,201,12,0,200,13,0,200,14,0,200,16,0,201,19,0,600,20,0,600,21,0,600,22,0,600,23,0,621,24,0,600,25,0,621,26,0,600,27,0,600,28,0,621,29,0,600,30,0,600,32,0,600,33,0,600,34,0,621,35,0,600,36,0,600,37,0,600,38,0,600,39,0,621,40,0,421,41,0,600,42,0,600,43,0,621,44,0,600,45,0,600,46,0,600,59,0,400,60,0,400,61,0,400,62,0,400*48
$PAIRDGP,7,2,4,7,8,9,16,21*5A
$GNGGA,033104.100,2500.7990049,N,12132.4853714,E,4,58,0.47,16.698,M,15.25,M,1,3335*4F
$GNRMC,033104.100,A,2500.7990049,N,12132.4853714,E,0.02,332.71,090324,,,R,V*11
$GPHDT,,T*1B
$GNACCURACY,4.6*14
$GNGGA,033104.200,2500.7990056,N,12132.4853687,E,4,58,0.47,16.707,M,15.25,M,1,3335*4E
$GNRMC,033104.200,A,2500.7990056,N,12132.4853687,E,0.01,332.71,090324,,,R,V*14
$GPHDT,45.877,T*0C
$GNACCURACY,4.6*14
$GNGGA,033104.300,2500.7990058,N,12132.4853705,E,4,58,0.47,16.708,M,15.25,M,1,3335*45
$GNRMC,033104.300,A,2500.7990058,N,12132.4853705,E,0.05,332.71,090324,,,R,V*14
$GPHDT,,T*1B
$GNACCURACY,4.5*17
$GNGGA,033104.400,2500.7990004,N,12132.4853701,E,4,58,0.47,16.692,M,15.25,M,1,3335*4D
$GNRMC,033104.400,A,2500.7990004,N,12132.4853701,E,0.05,332.71,090324,,,R,V*1E
$GPHDT,46.223,T*04
$GNACCURACY,4.5*17
$GNGGA,033104.500,2500.7990021,N,12132.4853723,E,4,58,0.47,16.693,M,15.25,M,0,3335*4B
$GNRMC,033104.500,A,2500.7990021,N,12132.4853723,E,0.07,332.71,090324,,,R,V*1A
$GPHDT,,T*1B
$GNACCURACY,4.5*17
$GNGGA,033104.600,2500.7989998,N,12132.4853731,E,4,58,0.47,16.698,M,15.25,M,0,3335*43
$GNRMC,033104.600,A,2500.7989998,N,12132.4853731,E,0.07,332.71,090324,,,R,V*19
$GPHDT,45.829,T*07
$GNACCURACY,4.5*17
$GNGGA,033104.700,2500.7990025,N,12132.4853723,E,4,58,0.47,16.701,M,15.25,M,0,3335*47
$GNRMC,033104.700,A,2500.7990025,N,12132.4853723,E,0.10,332.71,090324,,,R,V*1A
$GPHDT,,T*1B
$GNACCURACY,4.5*17
$GNGGA,033104.800,2500.7990004,N,12132.4853707,E,4,57,0.47,16.683,M,15.25,M,0,3335*49
$GNRMC,033104.800,A,2500.7990004,N,12132.4853707,E,0.06,332.71,090324,,,R,V*17
$GPHDT,45.911,T*0D
$GNACCURACY,4.5*17
$GNGGA,033104.900,2500.7989991,N,12132.4853730,E,4,57,0.47,16.689,M,15.25,M,0,3335*4B
$GNRMC,033104.900,A,2500.7989991,N,12132.4853730,E,0.06,332.71,090324,,,R,V*1F
$GPHDT,,T*1B
$GNACCURACY,4.5*17
$GNGGA,033105.000,2500.7989992,N,12132.4853723,E,4,57,0.47,16.692,M,15.25,M,1,3335*49
$GNRMC,033105.000,A,2500.7989992,N,12132.4853723,E,0.02,332.71,090324,,,R,V*12
$GPHDT,45.639,T*08
$GNGSA,A,3,08,194,195,27,21,16,04,02,09,07,196,31,0.86,0.47,0.72,1*35
$GNGSA,A,3,26,,,,,,,,,,,,0.86,0.47,0.72,1*0D
$GNGSA,A,3,88,78,81,77,87,79,,,,,,,0.86,0.47,0.72,2*0D
$GNGSA,A,3,21,13,19,27,26,15,,,,,,,0.86,0.47,0.72,3*07
$GNGSA,A,3,06,16,09,43,39,40,07,23,10,11,25,28,0.86,0.47,0.72,4*07
$GNGSA,A,3,34,,,,,,,,,,,,0.86,0.47,0.72,4*0B
$GPGSV,4,1,15,08,72,311,40,194,63,047,41,199,63,167,,195,58,122,44,1*55
$GPGSV,4,2,15,27,48,027,44,45,47,231,39,21,41,168,36,16,34,057,24,1*6A
$GPGSV,4,3,15,04,31,215,38,02,30,181,34,09,30,265,31,07,26,320,36,1*6C
$GPGSV,4,4,15,196,21,173,29,26,16,085,13,31,14,138,44,1*62
$GPGSV,2,1,07,08,72,311,45,194,63,047,44,195,58,122,44,27,48,027,45,8*60
$GPGSV,2,2,07,04,31,215,44,196,21,173,40,26,16,085,27,8*6D
$GLGSV,2,1,07,88,71,068,40,78,47,007,38,81,43,189,29,77,32,088,20,1*76
$GLGSV,2,2,07,87,20,029,15,79,13,321,24,68,12,252,,1*4F
$GAGSV,2,1,07,21,51,350,39,13,51,107,36,19,36,256,24,27,33,064,19,7*7C
$GAGSV,2,2,07,26,29,175,20,15,22,048,25,04,10,312,16,7*47
$GAGSV,2,1,06,13,51,107,40,21,51,350,43,19,36,256,28,27,33,064,37,1*77
$GAGSV,2,2,06,26,29,175,37,15,22,048,24,1*75
$GBGSV,4,1,14,06,81,223,38,16,78,191,39,09,75,298,41,43,73,058,41,1*7C
$GBGSV,4,2,14,39,67,177,41,40,65,317,42,07,62,295,40,23,62,358,38,1*77
$GBGSV,4,3,14,10,52,278,31,11,48,044,42,25,47,098,41,28,40,208,34,1*74
$GBGSV,4,4,14,34,25,040,36,38,05,171,,1*7B
$GBGSV,2,1,07,43,73,058,43,39,67,177,43,40,65,317,42,23,62,358,35,4*7A
$GBGSV,2,2,07,25,47,098,34,28,40,208,32,34,25,040,38,4*4C
$GNACCURACY,4.4*16
$PAIRSAT,1,35,2,0,201,3,0,200,4,0,221,5,0,200,6,0,200,7,0,201,8,0,221,9,0,221,10,0,200,11,0,200,12,0,200,13,0,200,14,0,200,15,0,200,16,0,201,17,0,200,18,0,200,19,0,200,20,0,200,21,0,201,22,0,200,23,0,200,24,0,200,25,0,200,26,0,221,27,0,221,28,0,200,29,0,200,30,0,200,31,0,201,32,0,200,194,0,621,195,0,621,196,0,620,199,0,600*5B
$PAIRSAT,2,23,65,0,200,66,0,200,67,0,200,68,0,200,70,0,200,71,0,200,72,0,200,73,0,200,74,0,200,75,0,200,76,0,200,77,0,201,78,0,201,79,0,201,80,0,200,81,0,201,82,0,200,83,0,200,84,0,200,85,0,200,86,0,200,87,0,201,88,0,201*5C
$PAIRSAT,3,23,2,0,1200,3,0,1200,4,0,1200,5,0,200,7,0,1200,8,0,1200,9,0,1200,10,0,1200,11,0,1200,12,0,1200,13,0,1221,15,0,1221,19,0,1221,21,0,1221,24,0,1200,25,0,1200,26,0,1221,27,0,1221,30,0,1200,31,0,1200,33,0,1200,34,0,1200,36,0,1200*6A
$PAIRSAT,4,46,1,0,200,2,0,200,3,0,600,4,0,200,5,0,200,6,0,201,7,0,201,8,0,200,9,0,201,10,0,201,11,0,201,12,0,200,13,0,200,14,0,200,16,0,201,19,0,600,20,0,600,21,0,600,22,0,600,23,0,621,24,0,600,25,0,621,26,0,600,27,0,600,28,0,621,29,0,600,30,0,600,32,0,600,33,0,600,34,0,621,35,0,600,36,0,600,37,0,600,38,0,600,39,0,621,40,0,421,41,0,600,42,0,600,43,0,621,44,0,600,45,0,600,46,0,600,59,0,400,60,0,400,61,0,400,62,0,400*48
$PAIRDGP,8,2,4,7,8,9,16,21,27*7C
$GNGGA,033105.100,2500.7990009,N,12132.4853747,E,4,57,0.47,16.701,M,15.25,M,1,3335*42
$GNRMC,033105.100,A,2500.7990009,N,12132.4853747,E,0.02,332.71,090324,,,R,V*12
$GPHDT,,T*1B
$GNACCURACY,4.4*16
$GNGGA,033105.200,2500.7990002,N,12132.4853727,E,4,57,0.47,16.690,M,15.25,M,1,3335*45
$GNRMC,033105.200,A,2500.7990002,N,12132.4853727,E,0.02,332.71,090324,,,R,V*1C
$GPHDT,45.440,T*04
$GNACCURACY,4.4*16
$GNGGA,033105.300,2500.7989990,N,12132.4853710,E,4,57,0.47,16.688,M,15.25,M,1,3335*43
$GNRMC,033105.300,A,2500.7989990,N,12132.4853710,E,0.07,332.71,090324,,,R,V*16
$GPHDT,,T*1B
$GNACCURACY,4.4*16
$GNGGA,033105.400,2500.7989992,N,12132.4853701,E,4,57,0.47,16.687,M,15.25,M,1,3335*49
$GNRMC,033105.400,A,2500.7989992,N,12132.4853701,E,0.05,332.71,090324,,,R,V*11
$GPHDT,45.576,T*00
$GNACCURACY,4.4*16
$GNGGA,033105.500,2500.7990011,N,12132.4853688,E,4,57,0.47,16.692,M,15.25,M,1,3335*46
$GNRMC,033105.500,A,2500.7990011,N,12132.4853688,E,0.05,332.71,090324,,,R,V*1A
$GPHDT,,T*1B
$GNACCURACY,4.4*16
$GNGGA,033105.600,2500.7990030,N,12132.4853724,E,4,57,0.47,16.691,M,15.25,M,1,3335*42
$GNRMC,033105.600,A,2500.7990030,N,12132.4853724,E,0.02,332.71,090324,,,R,V*1A
$GPHDT,45.462,T*04
$GNACCURACY,4.4*16
$GNGGA,033105.700,2500.7990034,N,12132.4853703,E,4,57,0.47,16.694,M,15.25,M,1,3335*47
$GNRMC,033105.700,A,2500.7990034,N,12132.4853703,E,0.05,332.71,090324,,,R,V*1D
$GPHDT,,T*1B
$GNACCURACY,4.4*16
$GNGGA,033105.800,2500.7990029,N,12132.4853691,E,4,57,0.47,16.707,M,15.25,M,0,3335*44
$GNRMC,033105.800,A,2500.7990029,N,12132.4853691,E,0.07,332.71,090324,,,R,V*16
$GPHDT,45.820,T*0E
