$FW : RTK35X,V1.1X0314AS,Lib20210517,1*54
$Tool : LOCOSYS , GNSS Firebird , v1.0.0.19*39
$---------------------------------------------------*2D
$GPHDT,,T*1B
$GNACCURACY,4.6*14
$GNGGA,033116.000,2500.7990059,N,12132.4853560,E,4,58,0.47,16.698,M,15.25,M,1,3335*4D
$GNRMC,033116.000,A,2500.7990059,N,12132.4853560,E,0.04,332.71,090324,,,R,V*15
$GPHDT,315.079,T*3C
$GNGSA,A,3,08,194,195,27,21,16,04,02,09,07,196,26,0.86,0.47,0.72,1*33
$GNGSA,A,3,31,,,,,,,,,,,,0.86,0.47,0.72,1*0B
$GNGSA,A,3,88,78,81,77,87,79,,,,,,,0.86,0.47,0.72,2*0D
$GNGSA,A,3,21,13,19,27,26,15,,,,,,,0.86,0.47,0.72,3*07
$GNGSA,A,3,06,16,09,43,39,40,07,23,10,11,25,28,0.86,0.47,0.72,4*07
$GNGSA,A,3,34,,,,,,,,,,,,0.86,0.47,0.72,4*0B
$GPGSV,4,1,15,08,72,311,44,194,63,047,44,199,63,167,,195,58,122,37,1*50
$GPGSV,4,2,15,27,48,028,44,45,47,231,40,21,41,168,23,16,34,057,27,1*6C
$GPGSV,4,3,15,04,31,215,40,02,30,181,31,09,30,265,31,07,27,320,37,1*66
$GPGSV,4,4,15,196,21,173,33,26,16,085,16,31,14,138,29,1*67
$GPGSV,2,1,08,08,72,311,46,194,63,047,46,195,58,122,39,27,48,028,43,8*6D
$GPGSV,2,2,08,04,31,215,43,09,30,265,28,196,21,173,25,26,16,085,30,8*51
$GLGSV,2,1,06,88,71,068,42,78,47,007,38,81,43,189,27,77,32,088,17,1*7F
$GLGSV,2,2,06,87,20,029,20,79,13,321,26,1*72
$GAGSV,2,1,07,21,51,350,39,13,51,106,34,19,36,256,25,27,33,064,19,7*7E
$GAGSV,2,2,07,26,29,175,22,15,22,048,24,04,10,312,25,7*44
$GAGSV,2,1,06,13,51,106,42,21,51,350,39,19,36,256,28,27,33,064,33,1*7D
$GAGSV,2,2,06,26,29,175,34,15,22,048,32,1*71
$GBGSV,4,1,13,06,81,223,41,16,78,191,40,09,75,298,41,43,73,057,43,1*76
$GBGSV,4,2,13,39,67,178,41,40,65,317,38,07,62,295,38,23,62,358,39,1*7C
$GBGSV,4,3,13,10,52,278,34,11,48,044,45,25,47,098,44,28,40,209,36,1*77
$GBGSV,4,4,13,34,24,040,41,1*44
$GBGSV,2,1,06,43,73,057,45,39,67,178,42,40,65,317,43,25,47,098,42,4*73
$GBGSV,2,2,06,28,40,209,26,34,24,040,36,4*74
$GNACCURACY,4.6*14
$PAIRSAT,1,35,2,0,201,3,0,200,4,0,221,5,0,200,6,0,200,7,0,201,8,0,221,9,0,221,10,0,200,11,0,200,12,0,200,13,0,200,14,0,200,15,0,200,16,0,201,17,0,200,18,0,200,19,0,200,20,0,200,21,0,201,22,0,200,23,0,200,24,0,200,25,0,200,26,0,221,27,0,221,28,0,200,29,0,200,30,0,200,31,0,201,32,0,200,194,0,621,195,0,621,196,0,620,199,0,600*5B
$PAIRSAT,2,23,65,0,200,66,0,200,67,0,200,68,0,200,70,0,200,71,0,200,72,0,200,73,0,200,74,0,200,75,0,200,76,0,200,77,0,201,78,0,201,79,0,201,80,0,200,81,0,201,82,0,200,83,0,200,84,0,200,85,0,200,86,0,200,87,0,201,88,0,201*5C
$PAIRSAT,3,23,2,0,1200,3,0,1200,4,0,1200,5,0,200,7,0,1200,8,0,1200,9,0,1200,10,0,1200,11,0,1200,12,0,1200,13,0,1221,15,0,1221,19,0,1221,21,0,1221,24,0,1200,25,0,1200,26,0,1221,27,0,1221,30,0,1200,31,0,1200,33,0,1200,34,0,1200,36,0,1200*6A
$PAIRSAT,4,46,1,0,200,2,0,200,3,0,600,4,0,200,5,0,200,6,0,201,7,0,201,8,0,200,9,0,201,10,0,201,11,0,201,12,0,200,13,0,200,14,0,200,16,0,201,19,0,600,20,0,600,21,0,600,22,0,600,23,0,621,24,0,600,25,0,621,26,0,600,27,0,600,28,0,621,29,0,600,30,0,600,32,0,600,33,0,600,34,0,621,35,0,600,36,0,600,37,0,600,38,0,600,39,0,621,40,0,421,41,0,600,42,0,600,43,0,621,44,0,600,45,0,600,46,0,600,59,0,400,60,0,400,61,0,400,62,0,400*48
$PAIRDGP,8,2,4,7,8,9,16,21,27*7C
$GNGGA,033116.100,2500.7990072,N,12132.4853574,E,4,58,0.47,16.705,M,15.25,M,1,3335*45
$GNRMC,033116.100,A,2500.7990072,N,12132.4853574,E,0.07,332.71,090324,,,R,V*1B
$GPHDT,,T*1B
$GNACCURACY,4.6*14
$GNGGA,033116.200,2500.7990089,N,12132.4853514,E,4,58,0.47,16.679,M,15.25,M,1,3335*4E
$GNRMC,033116.200,A,2500.7990089,N,12132.4853514,E,0.10,332.71,090324,,,R,V*1C
$GPHDT,315.393,T*3B
$GNACCURACY,4.6*14
$GNGGA,033116.300,2500.7990061,N,12132.4853535,E,4,58,0.47,16.680,M,15.25,M,1,3335*4C
$GNRMC,033116.300,A,2500.7990061,N,12132.4853535,E,0.18,332.71,090324,,,R,V*10
$GPHDT,,T*1B
$GNACCURACY,4.6*14
$GNGGA,033116.400,2500.7990004,N,12132.4853510,E,4,58,0.47,16.678,M,15.25,M,1,3335*48
$GNRMC,033116.400,A,2500.7990004,N,12132.4853510,E,0.10,332.71,090324,,,R,V*1B
$GPHDT,316.607,T*30
$GNACCURACY,4.5*17
$GNGGA,033116.500,2500.7990030,N,12132.4853520,E,4,59,0.47,16.659,M,15.25,M,0,3335*4E
$GNRMC,033116.500,A,2500.7990030,N,12132.4853520,E,0.26,332.71,090324,,,R,V*1B
$GPHDT,,T*1B
$GNACCURACY,4.5*17
$GNGGA,033116.600,2500.7990039,N,12132.4853616,E,4,59,0.47,16.687,M,15.25,M,0,3335*41
$GNRMC,033116.600,A,2500.7990039,N,12132.4853616,E,0.11,332.71,090324,,,R,V*13
$GPHDT,315.251,T*34
$GNACCURACY,4.5*17
$GNGGA,033116.700,2500.7990109,N,12132.4853521,E,4,59,0.47,16.691,M,15.25,M,0,3335*42
$GNRMC,033116.700,A,2500.7990109,N,12132.4853521,E,0.07,332.71,090324,,,R,V*10
$GPHDT,,T*1B
$GNACCURACY,4.5*17
$GNGGA,033116.800,2500.7990061,N,12132.4853577,E,4,59,0.47,16.688,M,15.25,M,0,3335*49
$GNRMC,033116.800,A,2500.7990061,N,12132.4853577,E,0.05,332.71,090324,,,R,V*11
$GPHDT,315.567,T*36
$GNACCURACY,4.5*17
$GNGGA,033116.900,2500.7990041,N,12132.4853579,E,4,58,0.47,16.682,M,15.25,M,0,3335*4F
$GNRMC,033116.900,A,2500.7990041,N,12132.4853579,E,0.03,332.71,090324,,,R,V*1A
$GPHDT,,T*1B
$GNACCURACY,4.5*17
$GNGGA,033117.000,2500.7990045,N,12132.4853588,E,4,58,0.47,16.687,M,15.25,M,1,3335*49
$GNRMC,033117.000,A,2500.7990045,N,12132.4853588,E,0.04,332.71,090324,,,R,V*1F
$GPHDT,315.647,T*37
$GNGSA,A,3,08,194,195,27,21,16,04,02,09,07,196,26,0.86,0.47,0.72,1*33
$GNGSA,A,3,31,,,,,,,,,,,,0.86,0.47,0.72,1*0B
$GNGSA,A,3,88,78,81,77,87,79,,,,,,,0.86,0.47,0.72,2*0D
$GNGSA,A,3,21,13,19,27,26,15,,,,,,,0.86,0.47,0.72,3*07
$GNGSA,A,3,06,16,09,43,39,40,23,07,10,11,25,28,0.86,0.47,0.72,4*07
$GNGSA,A,3,34,,,,,,,,,,,,0.86,0.47,0.72,4*0B
$GPGSV,4,1,15,08,72,311,44,194,63,047,44,199,63,167,,195,58,122,40,1*50
$GPGSV,4,2,15,27,48,028,43,45,47,231,40,21,41,168,28,16,34,057,25,1*62
$GPGSV,4,3,15,04,31,215,40,02,30,181,33,09,30,265,32,07,27,320,36,1*66
$GPGSV,4,4,15,196,21,173,34,26,16,085,21,31,14,138,29,1*64
$GPGSV,2,1,08,08,72,311,45,194,63,047,45,195,58,122,41,27,48,028,43,8*62
$GPGSV,2,2,08,04,31,215,44,09,30,265,28,196,21,173,28,26,16,085,28,8*52
$GLGSV,2,1,07,88,71,068,42,78,47,007,38,81,43,189,22,77,32,088,17,1*7B
$GLGSV,2,2,07,87,20,029,22,79,13,321,22,68,12,252,,1*4D
$GAGSV,2,1,07,21,51,350,40,13,51,106,37,19,36,256,23,27,33,064,23,7*7C
$GAGSV,2,2,07,26,29,175,21,15,22,048,23,04,10,312,23,7*46
$GAGSV,2,1,06,13,51,106,42,21,51,350,39,19,36,256,28,27,33,064,33,1*7D
$GAGSV,2,2,06,26,29,175,33,15,22,048,30,1*74
$GBGSV,4,1,13,06,81,223,41,16,78,191,41,09,75,298,41,43,73,057,43,1*77
$GBGSV,4,2,13,39,67,178,42,40,65,317,39,23,62,358,39,07,62,295,39,1*7F
$GBGSV,4,3,13,10,52,278,32,11,48,044,46,25,47,098,46,28,40,209,37,1*71
$GBGSV,4,4,13,34,24,040,40,1*45
$GBGSV,2,1,06,43,73,057,46,39,67,178,43,40,65,317,43,25,47,098,43,4*70
$GBGSV,2,2,06,28,40,209,27,34,24,040,37,4*74
$GNACCURACY,4.5*17
$PAIRSAT,1,35,2,0,201,3,0,200,4,0,221,5,0,200,6,0,200,7,0,201,8,0,221,9,0,221,10,0,200,11,0,200,12,0,200,13,0,200,14,0,200,15,0,200,16,0,201,17,0,200,18,0,200,19,0,200,20,0,200,21,0,201,22,0,200,23,0,200,24,0,200,25,0,200,26,0,221,27,0,221,28,0,200,29,0,200,30,0,200,31,0,201,32,0,200,194,0,621,195,0,621,196,0,620,199,0,600*5B
$PAIRSAT,2,23,65,0,200,66,0,200,67,0,200,68,0,200,70,0,200,71,0,200,72,0,200,73,0,200,74,0,200,75,0,200,76,0,200,77,0,201,78,0,201,79,0,201,80,0,200,81,0,201,82,0,200,83,0,200,84,0,200,85,0,200,86,0,200,87,0,201,88,0,201*5C
$PAIRSAT,3,23,2,0,1200,3,0,1200,4,0,1200,5,0,200,7,0,1200,8,0,1200,9,0,1200,10,0,1200,11,0,1200,12,0,1200,13,0,1221,15,0,1221,19,0,1221,21,0,1221,24,0,1200,25,0,1200,26,0,1221,27,0,1221,30,0,1200,31,0,1200,33,0,1200,34,0,1200,36,0,1200*6A
$PAIRSAT,4,46,1,0,200,2,0,200,3,0,600,4,0,200,5,0,200,6,0,201,7,0,201,8,0,200,9,0,201,10,0,201,11,0,201,12,0,200,13,0,200,14,0,200,16,0,201,19,0,600,20,0,600,21,0,600,22,0,600,23,0,621,24,0,600,25,0,621,26,0,600,27,0,600,28,0,621,29,0,600,30,0,600,32,0,600,33,0,600,34,0,621,35,0,600,36,0,600,37,0,600,38,0,600,39,0,621,40,0,421,41,0,600,42,0,600,43,0,621,44,0,600,45,0,600,46,0,600,59,0,400,60,0,400,61,0,400,62,0,400*48
$PAIRDGP,8,2,4,7,8,9,16,21,27*7C
$GNGGA,033117.100,2500.7990049,N,12132.4853622,E,4,58,0.47,16.690,M,15.25,M,1,3335*41
$GNRMC,033117.100,A,2500.7990049,N,12132.4853622,E,0.02,332.71,090324,,,R,V*17
$GPHDT,,T*1B
$GNACCURACY,4.5*17
$GNGGA,033117.200,2500.7990042,N,12132.4853622,E,4,58,0.47,16.671,M,15.25,M,1,3335*46
$GNRMC,033117.200,A,2500.7990042,N,12132.4853622,E,0.02,332.71,090324,,,R,V*1F
$GPHDT,315.813,T*38
$GNACCURACY,4.5*17
$GNGGA,033117.300,2500.7990056,N,12132.4853655,E,4,58,0.47,16.687,M,15.25,M,1,3335*4B
$GNRMC,033117.300,A,2500.7990056,N,12132.4853655,E,0.03,332.71,090324,,,R,V*1A
$GPHDT,,T*1B
$GNACCURACY,4.5*17
$GNGGA,033117.400,2500.7990067,N,12132.4853649,E,4,58,0.47,16.693,M,15.25,M,1,3335*46
$GNRMC,033117.400,A,2500.7990067,N,12132.4853649,E,0.02,332.71,090324,,,R,V*13
$GPHDT,315.374,T*32
$GNACCURACY,4.5*17
$GNGGA,033117.500,2500.7990032,N,12132.4853668,E,4,58,0.47,16.694,M,15.25,M,1,3335*43
$GNRMC,033117.500,A,2500.7990032,N,12132.4853668,E,0.01,332.71,090324,,,R,V*12
$GPHDT,,T*1B
$GNACCURACY,4.5*17
$GNGGA,033117.600,2500.7990050,N,12132.4853654,E,4,57,0.47,16.696,M,15.25,M,1,3335*46
$GNRMC,033117.600,A,2500.7990050,N,12132.4853654,E,0.07,332.71,090324,,,R,V*1C
$GPHDT,315.297,T*3E
$GNACCURACY,4.4*16
$GNGGA,033117.700,2500.7990049,N,12132.4853639,E,4,58,0.47,16.689,M,15.25,M,0,3335*44
$GNRMC,033117.700,A,2500.7990049,N,12132.4853639,E,0.04,332.71,090324,,,R,V*1D
$GPHDT,,T*1B
$GNACCURACY,4.4*16
$GNGGA,033117.800,2500.7990069,N,12132.4853640,E,4,57,0.47,16.697,M,15.25,M,0,3335*47
$GNRMC,033117.800,A,2500.7990069,N,12132.4853640,E,0.05,332.71,090324,,,R,V*1F
$GPHDT,315.007,T*35
$GNACCURACY,4.4*16
$GNGGA,033117.900,2500.7990064,N,12132.4853623,E,4,58,0.47,16.692,M,15.25,M,0,3335*44
$GNRMC,033117.900,A,2500.7990064,N,12132.4853623,E,0.00,332.71,090324,,,R,V*13
$GPHDT,,T*1B
$GNACCURACY,4.4*16
$GNGGA,033118.000,2500.7990064,N,12132.4853617,E,4,58,0.47,16.696,M,15.25,M,1,3335*40
$GNRMC,033118.000,A,2500.7990064,N,12132.4853617,E,0.03,332.71,090324,,,R,V*11
$GPHDT,315.015,T*36
$GNGSA,A,3,08,194,195,27,21,16,04,02,09,07,196,26,0.86,0.47,0.72,1*33
$GNGSA,A,3,31,,,,,,,,,,,,0.86,0.47,0.72,1*0B
$GNGSA,A,3,88,78,81,77,87,79,,,,,,,0.86,0.47,0.72,2*0D
$GNGSA,A,3,13,21,19,27,26,15,,,,,,,0.86,0.47,0.72,3*07
$GNGSA,A,3,06,16,09,43,39,40,07,23,10,11,25,28,0.86,0.47,0.72,4*07
$GNGSA,A,3,34,,,,,,,,,,,,0.86,0.47,0.72,4*0B
$GPGSV,4,1,15,08,72,311,42,194,63,047,44,199,63,167,,195,58,122,40,1*56
$GPGSV,4,2,15,27,48,028,44,45,47,231,40,21,41,168,33,16,34,057,25,1*6F
$GPGSV,4,3,15,04,31,215,41,02,30,181,30,09,30,265,33,07,27,320,37,1*64
$GPGSV,4,4,15,196,21,173,30,26,16,085,20,31,14,138,32,1*6B
$GPGSV,2,1,08,08,72,311,45,194,63,047,44,195,58,122,42,27,48,028,43,8*60
$GPGSV,2,2,08,04,31,215,43,09,30,265,26,196,21,173,27,26,16,085,25,8*59
$GLGSV,2,1,07,88,71,068,42,78,47,007,36,81,43,189,25,77,32,088,17,1*72
$GLGSV,2,2,07,87,20,029,23,79,13,321,19,67,01,207,,1*49
$GAGSV,2,1,07,13,51,106,38,21,51,350,39,19,36,256,26,27,33,064,23,7*78
$GAGSV,2,2,07,26,29,175,21,15,22,048,26,04,10,312,21,7*41
$GAGSV,2,1,06,13,51,106,42,21,51,350,39,19,36,256,26,27,33,064,30,1*70
$GAGSV,2,2,06,26,29,175,35,15,22,048,30,1*72
$GBGSV,4,1,16,06,81,223,41,16,78,191,40,09,75,298,41,43,73,057,43,1*73
$GBGSV,4,2,16,39,67,178,42,40,65,317,39,07,62,295,40,23,62,358,40,1*7A
$GBGSV,4,3,16,10,52,278,33,11,48,044,46,25,47,098,46,28,40,209,37,1*75
$GBGSV,4,4,16,34,24,040,40,38,05,171,,32,04,255,,41,03,206,,1*7C
$GBGSV,2,1,06,43,73,057,45,39,67,178,43,40,65,317,42,25,47,098,43,4*72
$GBGSV,2,2,06,28,40,209,20,34,24,040,37,4*73
$GNACCURACY,4.4*16
$PAIRSAT,1,35,2,0,201,3,0,200,4,0,221,5,0,200,6,0,200,7,0,201,8,0,221,9,0,221,10,0,200,11,0,200,12,0,200,13,0,200,14,0,200,15,0,200,16,0,201,17,0,200,18,0,200,19,0,200,20,0,200,21,0,201,22,0,200,23,0,200,24,0,200,25,0,200,26,0,221,27,0,221,28,0,200,29,0,200,30,0,200,31,0,201,32,0,200,194,0,621,195,0,621,196,0,620,199,0,600*5B
$PAIRSAT,2,23,65,0,200,66,0,200,67,0,200,68,0,200,70,0,200,71,0,200,72,0,200,73,0,200,74,0,200,75,0,200,76,0,200,77,0,201,78,0,201,79,0,201,80,0,200,81,0,201,82,0,200,83,0,200,84,0,200,85,0,200,86,0,200,87,0,201,88,0,201*5C
$PAIRSAT,3,23,2,0,1200,3,0,1200,4,0,1200,5,0,200,7,0,1200,8,0,1200,9,0,1200,10,0,1200,11,0,1200,12,0,1200,13,0,1221,15,0,1221,19,0,1221,21,0,1221,24,0,1200,25,0,1200,26,0,1221,27,0,1221,30,0,1200,31,0,1200,33,0,1200,34,0,1200,36,0,1200*6A
$PAIRSAT,4,46,1,0,200,2,0,200,3,0,600,4,0,200,5,0,200,6,0,201,7,0,201,8,0,200,9,0,201,10,0,201,11,0,201,12,0,200,13,0,200,14,0,200,16,0,201,19,0,600,20,0,600,21,0,600,22,0,600,23,0,621,24,0,600,25,0,621,26,0,600,27,0,600,28,0,621,29,0,600,30,0,600,32,0,600,33,0,600,34,0,621,35,0,600,36,0,600,37,0,600,38,0,600,39,0,621,40,0,421,41,0,600,42,0,600,43,0,621,44,0,600,45,0,600,46,0,600,59,0,400,60,0,400,61,0,400,62,0,400*48
$PAIRDGP,8,2,4,7,8,9,16,21,27*7C
$GNGGA,033118.100,2500.7990052,N,12132.4853626,E,4,58,0.47,16.692,M,15.25,M,1,3335*42
$GNRMC,033118.100,A,2500.7990052,N,12132.4853626,E,0.02,332.71,090324,,,R,V*16
$GPHDT,,T*1B
$GNACCURACY,4.5*17
$GNGGA,033118.200,2500.7990056,N,12132.4853636,E,4,58,0.47,16.686,M,15.25,M,1,3335*41
$GNRMC,033118.200,A,2500.7990056,N,12132.4853636,E,0.02,332.71,090324,,,R,V*10
$GPHDT,315.010,T*33
$GNACCURACY,4.5*17
$GNGGA,033118.300,2500.7990039,N,12132.4853620,E,4,58,0.47,16.687,M,15.25,M,1,3335*4F
$GNRMC,033118.300,A,2500.7990039,N,12132.4853620,E,0.01,332.71,090324,,,R,V*1C
$GPHDT,,T*1B
$GNACCURACY,4.5*17
$GNGGA,033118.400,2500.7990046,N,12132.4853609,E,4,57,0.47,16.683,M,15.25,M,1,3335*40
$GNRMC,033118.400,A,2500.7990046,N,12132.4853609,E,0.01,332.71,090324,,,R,V*18
$GPHDT,315.861,T*3D
$GNACCURACY,4.5*17
$GNGGA,033118.500,2500.7990057,N,12132.4853575,E,4,57,0.47,16.694,M,15.25,M,0,3335*4E
$GNRMC,033118.500,A,2500.7990057,N,12132.4853575,E,0.06,332.71,090324,,,R,V*16
$GPHDT,,T*1B
$GNACCURACY,4.4*16
$GNGGA,033118.600,2500.7990053,N,12132.4853608,E,4,57,0.47,16.701,M,15.25,M,0,3335*4D
$GNRMC,033118.600,A,2500.7990053,N,12132.4853608,E,0.05,332.71,090324,,,R,V*1B
$GPHDT,315.488,T*36
$GNACCURACY,4.4*16
$GNGGA,033118.700,2500.7990054,N,12132.4853556,E,4,57,0.47,16.702,M,15.25,M,0,3335*40
$GNRMC,033118.700,A,2500.7990054,N,12132.4853556,E,0.05,332.71,090324,,,R,V*15
$GPHDT,,T*1B
$GNACCURACY,4.4*16
$GNGGA,033118.800,2500.7990037,N,12132.4853570,E,4,57,0.47,16.716,M,15.25,M,0,3335*4B
$GNRMC,033118.800,A,2500.7990037,N,12132.4853570,E,0.01,332.71,090324,,,R,V*1F
$GPHDT,315.771,T*33
$GNACCURACY,4.5*17
$GNGGA,033118.900,2500.7990043,N,12132.4853569,E,4,57,0.47,16.721,M,15.25,M,0,3335*45
$GNRMC,033118.900,A,2500.7990043,N,12132.4853569,E,0.05,332.71,090324,,,R,V*11
$GPHDT,,T*1B
$GNACCURACY,4.5*17
$GNGGA,033119.000,2500.7990056,N,12132.4853526,E,4,57,0.47,16.700,M,15.25,M,1,3335*40
$GNRMC,033119.000,A,2500.7990056,N,12132.4853526,E,0.05,332.71,090324,,,R,V*16
$GPHDT,316.140,T*34
$GNGSA,A,3,08,194,195,27,21,16,04,02,09,07,196,26,0.75,0.47,0.58,1*37
$GNGSA,A,3,31,,,,,,,,,,,,0.75,0.47,0.58,1*0F
$GNGSA,A,3,88,78,81,77,87,79,,,,,,,0.75,0.47,0.58,2*09
$GNGSA,A,3,13,21,19,27,26,15,,,,,,,0.75,0.47,0.58,3*03
$GNGSA,A,3,06,16,09,43,39,40,07,23,10,11,25,28,0.75,0.47,0.58,4*03
$GNGSA,A,3,34,,,,,,,,,,,,0.75,0.47,0.58,4*0F
$GPGSV,4,1,15,08,72,311,42,194,63,047,44,199,63,167,,195,58,122,42,1*54
$GPGSV,4,2,15,27,48,028,43,45,47,231,39,21,41,168,28,16,34,057,24,1*6D
$GPGSV,4,3,15,04,31,215,41,02,30,181,32,09,30,265,30,07,27,320,35,1*67
$GPGSV,4,4,15,196,21,173,32,26,16,085,17,31,14,138,35,1*6A
$GPGSV,2,1,07,08,72,311,45,194,63,047,47,195,58,122,44,27,48,028,43,8*6A
$GPGSV,2,2,07,04,31,215,43,09,30,265,27,196,21,173,25,8*6C
$GLGSV,2,1,08,88,71,068,42,78,47,007,37,81,43,189,23,77,32,088,14,1*79
$GLGSV,2,2,08,87,20,029,23,79,13,321,18,68,12,252,,67,01,207,,1*7F
$GAGSV,2,1,07,13,51,106,41,21,51,350,39,19,36,256,24,27,33,064,27,7*70
$GAGSV,2,2,07,26,29,175,24,15,22,048,26,04,10,312,20,7*45
$GAGSV,2,1,06,13,51,106,45,21,51,350,40,19,36,256,27,27,33,064,30,1*78
$GAGSV,2,2,06,26,29,175,35,15,22,048,31,1*73
$GBGSV,4,1,13,06,81,223,41,16,78,191,40,09,75,298,41,43,73,057,43,1*76
$GBGSV,4,2,13,39,67,178,42,40,65,317,38,07,62,295,40,23,62,358,40,1*7E
$GBGSV,4,3,13,10,52,278,32,11,48,044,46,25,47,098,47,28,40,209,37,1*70
$GBGSV,4,4,13,34,24,040,40,1*45
$GBGSV,2,1,06,43,73,057,45,39,67,178,44,40,65,317,43,25,47,098,45,4*72
$GBGSV,2,2,06,28,40,209,19,34,24,040,38,4*76
$GNACCURACY,4.5*17
$PAIRSAT,1,35,2,0,201,3,0,200,4,0,221,5,0,200,6,0,200,7,0,201,8,0,221,9,0,221,10,0,200,11,0,200,12,0,200,13,0,200,14,0,200,15,0,200,16,0,201,17,0,200,18,0,200,19,0,200,20,0,200,21,0,201,22,0,200,23,0,200,24,0,200,25,0,200,26,0,221,27,0,221,28,0,200,29,0,200,30,0,200,31,0,201,32,0,200,194,0,621,195,0,621,196,0,620,199,0,600*5B
$PAIRSAT,2,23,65,0,200,66,0,200,67,0,200,68,0,200,70,0,200,71,0,200,72,0,200,73,0,200,74,0,200,75,0,200,76,0,200,77,0,201,78,0,201,79,0,201,80,0,200,81,0,201,82,0,200,83,0,200,84,0,200,85,0,200,86,0,200,87,0,201,88,0,201*5C
$PAIRSAT,3,23,2,0,1200,3,0,1200,4,0,1200,5,0,200,7,0,1200,8,0,1200,9,0,1200,10,0,1200,11,0,1200,12,0,1200,13,0,1221,15,0,1221,19,0,1221,21,0,1221,24,0,1200,25,0,1200,26,0,1221,27,0,1221,30,0,1200,31,0,1200,33,0,1200,34,0,1200,36,0,1200*6A
$PAIRSAT,4,46,1,0,200,2,0,200,3,0,600,4,0,200,5,0,200,6,0,201,7,0,201,8,0,200,9,0,201,10,0,201,11,0,201,12,0,200,13,0,200,14,0,200,16,0,201,19,0,600,20,0,600,21,0,600,22,0,600,23,0,621,24,0,600,25,0,621,26,0,600,27,0,600,28,0,621,29,0,600,30,0,600,32,0,600,33,0,600,34,0,621,35,0,600,36,0,600,37,0,600,38,0,600,39,0,621,40,0,421,41,0,600,42,0,600,43,0,621,44,0,600,45,0,600,46,0,600,59,0,400,60,0,400,61,0,400,62,0,400*48
$PAIRDGP,8,2,4,7,8,9,16,21,27*7C
$GNGGA,033119.100,2500.7990058,N,12132.4853549,E,4,57,0.47,16.707,M,15.25,M,1,3335*41
$GNRMC,033119.100,A,2500.7990058,N,12132.4853549,E,0.06,332.71,090324,,,R,V*13
$GPHDT,,T*1B
$GNACCURACY,4.5*17
$GNGGA,033119.200,2500.7990057,N,12132.4853567,E,4,57,0.47,16.708,M,15.25,M,1,3335*4E
$GNRMC,033119.200,A,2500.7990057,N,12132.4853567,E,0.00,332.71,090324,,,R,V*15
$GPHDT,316.246,T*31
$GNACCURACY,4.5*17
$GNGGA,033119.300,2500.7990046,N,12132.4853558,E,4,57,0.47,16.704,M,15.25,M,1,3335*4F
$GNRMC,033119.300,A,2500.7990046,N,12132.4853558,E,0.04,332.71,090324,,,R,V*1C
$GPHDT,,T*1B
$GNACCURACY,4.5*17
$GNGGA,033119.400,2500.7990072,N,12132.4853582,E,4,57,0.47,16.709,M,15.25,M,1,3335*45
$GNRMC,033119.400,A,2500.7990072,N,12132.4853582,E,0.01,332.71,090324,,,R,V*1E
$GPHDT,316.236,T*36
$GNACCURACY,4.5*17
$GNGGA,033119.500,2500.7990069,N,12132.4853615,E,4,57,0.47,16.706,M,15.25,M,1,3335*4C
$GNRMC,033119.500,A,2500.7990069,N,12132.4853615,E,0.07,332.71,090324,,,R,V*1E
$GPHDT,,T*1B
$GNACCURACY,4.5*17
$GNGGA,033119.600,2500.7990056,N,12132.4853606,E,4,57,0.47,16.709,M,15.25,M,0,3335*4F
$GNRMC,033119.600,A,2500.7990056,N,12132.4853606,E,0.08,332.71,090324,,,R,V*1C
$GPHDT,315.704,T*31
$GNACCURACY,4.5*17
$GNGGA,033119.700,2500.7990041,N,12132.4853625,E,4,57,0.47,16.704,M,15.25,M,0,3335*44
$GNRMC,033119.700,A,2500.7990041,N,12132.4853625,E,0.06,332.71,090324,,,R,V*14
$GPHDT,,T*1B
$GNACCURACY,4.5*17
$GNGGA,033119.800,2500.7990046,N,12132.4853616,E,4,56,0.47,16.703,M,15.25,M,0,3335*4A
$GNRMC,033119.800,A,2500.7990046,N,12132.4853616,E,0.06,332.71,090324,,,R,V*1C
$GPHDT,315.722,T*35
$GNACCURACY,4.5*17
$GNGGA,033119.900,2500.7990047,N,12132.4853604,E,4,56,0.47,16.698,M,15.25,M,0,3335*4A
$GNRMC,033119.900,A,2500.7990047,N,12132.4853604,E,0.02,332.71,090324,,,R,V*1B
$GPHDT,,T*1B
$GNACCURACY,4.5*17
$GNGGA,033120.000,2500.7990050,N,12132.4853618,E,4,56,0.47,16.705,M,15.25,M,1,3335*46
$GNRMC,033120.000,A,2500.7990050,N,12132.4853618,E,0.03,332.71,090324,,,R,V*12
$GPHDT,315.464,T*34
$GNGSA,A,3,08,194,195,27,21,16,04,02,09,07,196,26,0.75,0.47,0.58,1*37
$GNGSA,A,3,31,,,,,,,,,,,,0.75,0.47,0.58,1*0F
$GNGSA,A,3,88,78,81,77,87,79,,,,,,,0.75,0.47,0.58,2*09
$GNGSA,A,3,21,13,19,27,26,15,,,,,,,0.75,0.47,0.58,3*03
$GNGSA,A,3,06,16,09,43,39,40,07,23,10,11,25,28,0.75,0.47,0.58,4*03
$GNGSA,A,3,34,,,,,,,,,,,,0.75,0.47,0.58,4*0F
$GPGSV,4,1,15,08,72,311,42,194,63,047,44,199,63,167,,195,58,122,42,1*54
$GPGSV,4,2,15,27,48,028,43,45,47,231,39,21,41,168,32,16,34,057,23,1*61
$GPGSV,4,3,15,04,31,215,41,02,30,181,27,09,30,265,29,07,27,320,38,1*66
$GPGSV,4,4,15,196,21,173,29,26,16,085,17,31,14,138,33,1*66
$GPGSV,2,1,07,08,72,311,45,194,63,047,45,195,58,122,44,27,48,028,43,8*68
$GPGSV,2,2,07,04,31,215,43,09,30,265,29,196,21,173,28,8*6F
$GLGSV,2,1,06,88,71,068,42,78,47,007,37,81,43,189,20,77,32,089,14,1*75
$GLGSV,2,2,06,87,20,029,24,79,13,321,17,1*74
$GAGSV,2,1,07,21,51,350,39,13,51,106,40,19,36,256,23,27,33,064,26,7*77
$GAGSV,2,2,07,26,29,175,21,15,22,048,26,04,10,312,20,7*40
$GAGSV,2,1,06,13,51,106,44,21,51,350,40,19,36,256,25,27,33,064,32,1*79
$GAGSV,2,2,06,26,29,175,35,15,22,048,34,1*76
$GBGSV,4,1,13,06,81,223,41,16,78,191,40,09,75,298,40,43,73,057,44,1*70
$GBGSV,4,2,13,39,67,178,42,40,65,317,38,07,62,295,40,23,62,358,40,1*7E
$GBGSV,4,3,13,10,52,278,33,11,48,044,46,25,47,098,48,28,40,209,36,1*7F
$GBGSV,4,4,13,34,24,040,41,1*44
$GBGSV,2,1,05,43,73,057,45,39,67,178,43,40,65,317,42,25,47,098,45,4*77
$GBGSV,2,2,05,34,24,040,37,4*47
$GNACCURACY,4.5*17
$PAIRSAT,1,35,2,0,201,3,0,200,4,0,221,5,0,200,6,0,200,7,0,201,8,0,221,9,0,221,10,0,200,11,0,200,12,0,200,13,0,200,14,0,200,15,0,200,16,0,201,17,0,200,18,0,200,19,0,200,20,0,200,21,0,201,22,0,200,23,0,200,24,0,200,25,0,200,26,0,221,27,0,221,28,0,200,29,0,200,30,0,200,31,0,201,32,0,200,194,0,621,195,0,621,196,0,620,199,0,600*5B
$PAIRSAT,2,23,65,0,200,66,0,200,67,0,200,68,0,200,70,0,200,71,0,200,72,0,200,73,0,200,74,0,200,75,0,200,76,0,200,77,0,201,78,0,201,79,0,201,80,0,200,81,0,201,82,0,200,83,0,200,84,0,200,85,0,200,86,0,200,87,0,201,88,0,201*5C
$PAIRSAT,3,23,2,0,1200,3,0,1200,4,0,1200,5,0,200,7,0,1200,8,0,1200,9,0,1200,10,0,1200,11,0,1200,12,0,1200,13,0,1221,15,0,1221,19,0,1221,21,0,1221,24,0,1200,25,0,1200,26,0,1221,27,0,1221,30,0,1200,31,0,1200,33,0,1200,34,0,1200,36,0,1200*6A
$PAIRSAT,4,46,1,0,200,2,0,200,3,0,600,4,0,200,5,0,200,6,0,201,7,0,201,8,0,200,9,0,201,10,0,201,11,0,201,12,0,200,13,0,200,14,0,200,16,0,201,19,0,600,20,0,600,21,0,600,22,0,600,23,0,621,24,0,600,25,0,621,26,0,600,27,0,600,28,0,621,29,0,600,30,0,600,32,0,600,33,0,600,34,0,621,35,0,600,36,0,600,37,0,600,38,0,600,39,0,621,40,0,421,41,0,600,42,0,600,43,0,621,44,0,600,45,0,600,46,0,600,59,0,400,60,0,400,61,0,400,62,0,400*48
$PAIRDGP,8,2,4,7,8,9,16,21,27*7C
$GNGGA,033120.100,2500.7990049,N,12132.4853598,E,4,56,0.47,16.704,M,15.25,M,1,3335*45
$GNRMC,033120.100,A,2500.7990049,N,12132.4853598,E,0.04,332.71,090324,,,R,V*17
$GPHDT,,T*1B
$GNACCURACY,4.5*17
$GNGGA,033120.200,2500.7990037,N,12132.4853593,E,4,57,0.47,16.701,M,15.25,M,1,3335*40
$GNRMC,033120.200,A,2500.7990037,N,12132.4853593,E,0.01,332.71,090324,,,R,V*13
$GPHDT,315.569,T*38
$GNACCURACY,4.5*17
$GNGGA,033120.300,2500.7990055,N,12132.4853604,E,4,57,0.47,16.696,M,15.25,M,1,3335*47
$GNRMC,033120.300,A,2500.7990055,N,12132.4853604,E,0.01,332.71,090324,,,R,V*1B
$GPHDT,,T*1B
$GNACCURACY,4.5*17
$GNGGA,033120.400,2500.7990047,N,12132.4853589,E,4,57,0.47,16.687,M,15.25,M,1,3335*45
$GNRMC,033120.400,A,2500.7990047,N,12132.4853589,E,0.07,332.71,090324,,,R,V*1F
$GPHDT,315.877,T*3A
$GNACCURACY,4.5*17
$GNGGA,033120.500,2500.7990072,N,12132.4853547,E,4,57,0.47,16.695,M,15.25,M,1,3335*43
$GNRMC,033120.500,A,2500.7990072,N,12132.4853547,E,0.03,332.71,090324,,,R,V*1E
$GPHDT,,T*1B
$GNACCURACY,4.5*17
$GNGGA,033120.600,2500.7990075,N,12132.4853576,E,4,57,0.47,16.702,M,15.25,M,1,3335*4A
$GNRMC,033120.600,A,2500.7990075,N,12132.4853576,E,0.09,332.71,090324,,,R,V*12
$GPHDT,316.039,T*3B
$GNACCURACY,4.5*17
$GNGGA,033120.700,2500.7990094,N,12132.4853642,E,4,58,0.47,16.707,M,15.25,M,0,3335*4B
$GNRMC,033120.700,A,2500.7990094,N,12132.4853642,E,0.06,332.71,090324,,,R,V*17
$GPHDT,,T*1B
$GNACCURACY,4.5*17
$GNGGA,033120.800,2500.7990080,N,12132.4853602,E,4,57,0.48,16.691,M,15.25,M,0,3335*4B
$GNRMC,033120.800,A,2500.7990080,N,12132.4853602,E,0.04,332.71,090324,,,R,V*1B
$GPHDT,315.972,T*3E
$GNACCURACY,4.5*17
$GNGGA,033120.900,2500.7990061,N,12132.4853656,E,4,57,0.48,16.696,M,15.25,M,0,3335*43
$GNRMC,033120.900,A,2500.7990061,N,12132.4853656,E,0.02,332.71,090324,,,R,V*12
$GPHDT,,T*1B
$GNACCURACY,4.5*17
$GNGGA,033121.000,2500.7990061,N,12132.4853588,E,4,57,0.48,16.688,M,15.25,M,1,3335*45
$GNRMC,033121.000,A,2500.7990061,N,12132.4853588,E,0.01,332.71,090324,,,R,V*19
$GPHDT,315.857,T*38
$GNGSA,A,3,08,194,195,27,21,16,04,02,09,07,196,26,0.76,0.48,0.59,1*3A
$GNGSA,A,3,31,,,,,,,,,,,,0.76,0.48,0.59,1*02
$GNGSA,A,3,88,78,81,87,79,,,,,,,,0.76,0.48,0.59,2*04
$GNGSA,A,3,21,13,19,27,26,15,,,,,,,0.76,0.48,0.59,3*0E
$GNGSA,A,3,06,16,09,43,39,40,07,23,10,11,25,28,0.76,0.48,0.59,4*0E
$GNGSA,A,3,34,,,,,,,,,,,,0.76,0.48,0.59,4*02
$GPGSV,4,1,15,08,72,311,43,194,63,047,44,199,63,167,,195,58,122,43,1*54
$GPGSV,4,2,15,27,48,028,43,45,47,231,40,21,41,168,27,16,34,057,25,1*6D
$GPGSV,4,3,15,04,31,215,41,02,30,181,31,09,30,265,28,07,27,320,36,1*6E
$GPGSV,4,4,15,196,21,173,31,26,16,085,17,31,14,138,35,1*69
$GPGSV,2,1,07,08,72,311,45,194,63,047,46,195,58,122,44,27,48,028,43,8*6B
$GPGSV,2,2,07,04,31,215,43,09,30,265,26,196,21,173,27,8*6F
$GLGSV,2,1,07,88,71,068,42,78,47,007,36,81,43,189,25,77,32,089,16,1*72
$GLGSV,2,2,07,87,20,029,25,79,13,321,17,67,01,207,,1*41
$GAGSV,2,1,07,21,51,350,39,13,51,106,39,19,36,256,24,27,33,064,27,7*7F
$GAGSV,2,2,07,26,29,175,26,15,22,048,25,04,10,312,20,7*44
$GAGSV,2,1,06,13,51,106,46,21,51,350,40,19,36,256,27,27,33,064,31,1*7A
$GAGSV,2,2,06,26,29,175,36,15,22,048,32,1*73
$GBGSV,4,1,14,06,81,223,41,16,78,191,39,09,75,298,41,43,73,057,41,1*7D
$GBGSV,4,2,14,39,67,178,42,40,65,317,38,07,62,295,40,23,62,358,40,1*79
$GBGSV,4,3,14,10,52,278,34,11,48,044,45,25,47,098,46,28,40,209,36,1*72
$GBGSV,4,4,14,34,24,040,40,41,03,206,,1*70
$GBGSV,2,1,07,43,73,057,45,39,67,178,43,40,65,317,43,23,62,358,28,4*71
$GBGSV,2,2,07,25,47,098,45,28,40,209,23,34,24,040,36,4*44
$GNACCURACY,4.5*17
$PAIRSAT,1,35,2,0,201,3,0,200,4,0,221,5,0,200,6,0,200,7,0,201,8,0,221,9,0,221,10,0,200,11,0,200,12,0,200,13,0,200,14,0,200,15,0,200,16,0,201,17,0,200,18,0,200,19,0,200,20,0,200,21,0,201,22,0,200,23,0,200,24,0,200,25,0,200,26,0,221,27,0,221,28,0,200,29,0,200,30,0,200,31,0,201,32,0,200,194,0,621,195,0,621,196,0,620,199,0,600*5B
$PAIRSAT,2,23,65,0,200,66,0,200,67,0,200,68,0,200,70,0,200,71,0,200,72,0,200,73,0,200,74,0,200,75,0,200,76,0,200,77,0,201,78,0,201,79,0,201,80,0,200,81,0,201,82,0,200,83,0,200,84,0,200,85,0,200,86,0,200,87,0,201,88,0,201*5C
$PAIRSAT,3,23,2,0,1200,3,0,1200,4,0,1200,5,0,200,7,0,1200,8,0,1200,9,0,1200,10,0,1200,11,0,1200,12,0,1200,13,0,1221,15,0,1221,19,0,1221,21,0,1221,24,0,1200,25,0,1200,26,0,1221,27,0,1221,30,0,1200,31,0,1200,33,0,1200,34,0,1200,36,0,1200*6A
$PAIRSAT,4,46,1,0,200,2,0,200,3,0,600,4,0,200,5,0,200,6,0,201,7,0,201,8,0,200,9,0,201,10,0,201,11,0,201,12,0,200,13,0,200,14,0,200,16,0,201,19,0,600,20,0,600,21,0,600,22,0,600,23,0,621,24,0,600,25,0,621,26,0,600,27,0,600,28,0,621,29,0,600,30,0,600,32,0,600,33,0,600,34,0,621,35,0,600,36,0,600,37,0,600,38,0,600,39,0,621,40,0,421,41,0,600,42,0,600,43,0,621,44,0,600,45,0,600,46,0,600,59,0,400,60,0,400,61,0,400,62,0,400*48
$PAIRDGP,8,2,4,7,8,9,16,21,27*7C
$GNGGA,033121.100,2500.7990059,N,12132.4853578,E,4,57,0.48,16.688,M,15.25,M,1,3335*40
$GNRMC,033121.100,A,2500.7990059,N,12132.4853578,E,0.03,332.71,090324,,,R,V*1E
$GPHDT,,T*1B
$GNACCURACY,4.5*17
$GNGGA,033121.200,2500.7990087,N,12132.4853642,E,4,57,0.48,16.697,M,15.25,M,1,3335*44
$GNRMC,033121.200,A,2500.7990087,N,12132.4853642,E,0.03,332.71,090324,,,R,V*14
$GPHDT,315.138,T*38
$GNACCURACY,4.5*17
$GNGGA,033121.300,2500.7990116,N,12132.4853604,E,4,57,0.48,16.700,M,15.25,M,1,3335*41
$GNRMC,033121.300,A,2500.7990116,N,12132.4853604,E,0.03,332.71,090324,,,R,V*1E
$GPHDT,,T*1B
$GNACCURACY,4.5*17
$GNGGA,033121.400,2500.7990108,N,12132.4853613,E,4,58,0.48,16.700,M,15.25,M,1,3335*40
$GNRMC,033121.400,A,2500.7990108,N,12132.4853613,E,0.02,332.71,090324,,,R,V*11
$GPHDT,314.799,T*34
$GNACCURACY,4.5*17
$GNGGA,033121.500,2500.7990093,N,12132.4853618,E,4,58,0.48,16.698,M,15.25,M,1,3335*49
$GNRMC,033121.500,A,2500.7990093,N,12132.4853618,E,0.02,332.71,090324,,,R,V*18
$GPHDT,,T*1B
$GNACCURACY,4.5*17
$GNGGA,033121.600,2500.7990073,N,12132.4853610,E,4,58,0.48,16.694,M,15.25,M,0,3335*41
$GNRMC,033121.600,A,2500.7990073,N,12132.4853610,E,0.08,332.71,090324,,,R,V*17
$GPHDT,315.253,T*36
$GNACCURACY,4.5*17
$GNGGA,033121.700,2500.7990072,N,12132.4853646,E,4,58,0.48,16.693,M,15.25,M,0,3335*45
$GNRMC,033121.700,A,2500.7990072,N,12132.4853646,E,0.05,332.71,090324,,,R,V*19
$GPHDT,,T*1B
$GNACCURACY,4.5*17
$GNGGA,033121.800,2500.7990065,N,12132.4853662,E,4,58,0.48,16.697,M,15.25,M,0,3335*4E
$GNRMC,033121.800,A,2500.7990065,N,12132.4853662,E,0.05,332.71,090324,,,R,V*16
$GPHDT,315.044,T*32
$GNACCURACY,4.5*17
$GNGGA,033121.900,2500.7990084,N,12132.4853670,E,4,58,0.48,16.696,M,15.25,M,0,3335*42
$GNRMC,033121.900,A,2500.7990084,N,12132.4853670,E,0.03,332.71,090324,,,R,V*1D
$GPHDT,,T*1B
$GNACCURACY,4.5*17
$GNGGA,033122.000,2500.7990045,N,12132.4853654,E,4,58,0.48,16.684,M,15.25,M,1,3335*41
$GNRMC,033122.000,A,2500.7990045,N,12132.4853654,E,0.02,332.71,090324,,,R,V*1D
$GPHDT,315.384,T*3D
$GNGSA,A,3,08,194,195,27,21,16,04,02,09,07,196,26,0.87,0.48,0.72,1*3D
$GNGSA,A,3,31,,,,,,,,,,,,0.87,0.48,0.72,1*05
$GNGSA,A,3,88,78,81,87,79,,,,,,,,0.87,0.48,0.72,2*03
$GNGSA,A,3,13,21,19,27,26,15,,,,,,,0.87,0.48,0.72,3*09
$GNGSA,A,3,06,16,09,43,39,40,07,23,10,11,25,28,0.87,0.48,0.72,4*09
$GNGSA,A,3,34,,,,,,,,,,,,0.87,0.48,0.72,4*05
$GPGSV,4,1,15,08,72,311,43,194,63,047,44,199,63,167,,195,58,122,43,1*54
$GPGSV,4,2,15,27,48,028,43,45,47,231,39,21,41,168,31,16,34,057,26,1*67
$GPGSV,4,3,15,04,31,215,40,02,30,181,29,09,30,265,27,07,27,320,36,1*69
$GPGSV,4,4,15,196,21,173,31,26,16,085,16,31,14,138,32,1*6F
$GPGSV,2,1,08,08,72,311,44,194,63,047,47,195,58,122,44,27,48,028,43,8*64
$GPGSV,2,2,08,04,31,215,42,09,30,265,26,196,21,173,28,26,16,085,27,8*55
$GLGSV,2,1,08,88,71,068,42,78,47,007,36,81,43,189,28,77,32,089,15,1*73
$GLGSV,2,2,08,87,20,029,26,79,13,321,18,68,12,252,,67,01,207,,1*7A
$GAGSV,2,1,07,13,51,106,40,21,51,350,39,19,36,256,23,27,33,064,25,7*74
$GAGSV,2,2,07,26,29,175,26,15,22,048,27,04,10,312,21,7*47
$GAGSV,2,1,06,13,51,106,46,21,51,350,40,19,36,256,25,27,33,064,30,1*79
$GAGSV,2,2,06,26,29,175,35,15,22,048,32,1*70
$GBGSV,4,1,13,06,81,223,41,16,78,191,38,09,75,298,41,43,73,057,41,1*7B
$GBGSV,4,2,13,39,67,178,42,40,65,317,38,07,62,295,39,23,62,358,39,1*7E
$GBGSV,4,3,13,10,52,278,34,11,48,044,45,25,47,098,47,28,40,209,32,1*70
$GBGSV,4,4,13,34,24,040,39,1*4B
$GBGSV,2,1,07,43,73,057,45,39,67,178,43,40,65,317,43,23,62,358,29,4*70
$GBGSV,2,2,07,25,47,098,45,28,40,209,26,34,24,040,37,4*40
$GNACCURACY,4.6*14
$PAIRSAT,1,35,2,0,201,3,0,200,4,0,221,5,0,200,6,0,200,7,0,201,8,0,221,9,0,221,10,0,200,11,0,200,12,0,200,13,0,200,14,0,200,15,0,200,16,0,201,17,0,200,18,0,200,19,0,200,20,0,200,21,0,201,22,0,200,23,0,200,24,0,200,25,0,200,26,0,221,27,0,221,28,0,200,29,0,200,30,0,200,31,0,201,32,0,200,194,0,621,195,0,621,196,0,620,199,0,600*5B
$PAIRSAT,2,23,65,0,200,66,0,200,67,0,200,68,0,200,70,0,200,71,0,200,72,0,200,73,0,200,74,0,200,75,0,200,76,0,200,77,0,201,78,0,201,79,0,201,80,0,200,81,0,201,82,0,200,83,0,200,84,0,200,85,0,200,86,0,200,87,0,201,88,0,201*5C
$PAIRSAT,3,23,2,0,1200,3,0,1200,4,0,1200,5,0,200,7,0,1200,8,0,1200,9,0,1200,10,0,1200,11,0,1200,12,0,1200,13,0,1221,15,0,1221,19,0,1221,21,0,1221,24,0,1200,25,0,1200,26,0,1221,27,0,1221,30,0,1200,31,0,1200,33,0,1200,34,0,1200,36,0,1200*6A
$PAIRSAT,4,46,1,0,200,2,0,200,3,0,600,4,0,200,5,0,200,6,0,201,7,0,201,8,0,200,9,0,201,10,0,201,11,0,201,12,0,200,13,0,200,14,0,200,16,0,201,19,0,600,20,0,600,21,0,600,22,0,600,23,0,621,24,0,600,25,0,621,26,0,600,27,0,600,28,0,621,29,0,600,30,0,600,32,0,600,33,0,600,34,0,621,35,0,600,36,0,600,37,0,600,38,0,600,39,0,621,40,0,421,41,0,600,42,0,600,43,0,621,44,0,600,45,0,600,46,0,600,59,0,400,60,0,400,61,0,400,62,0,400*48
$PAIRDGP,8,2,4,7,8,9,16,21,27*7C
$GNGGA,033122.100,2500.7990066,N,12132.4853678,E,4,58,0.48,16.697,M,15.25,M,1,3335*4D
$GNRMC,033122.100,A,2500.7990066,N,12132.4853678,E,0.02,332.71,090324,,,R,V*13
$GPHDT,,T*1B
$GNACCURACY,4.5*17
$GNGGA,033122.200,2500.7990067,N,12132.4853664,E,4,58,0.48,16.695,M,15.25,M,1,3335*40
$GNRMC,033122.200,A,2500.7990067,N,12132.4853664,E,0.01,332.71,090324,,,R,V*1F
$GPHDT,315.021,T*31
$GNACCURACY,4.5*17
$GNGGA,033122.300,2500.7990075,N,12132.4853650,E,4,58,0.48,16.691,M,15.25,M,1,3335*41
$GNRMC,033122.300,A,2500.7990075,N,12132.4853650,E,0.01,332.71,090324,,,R,V*1A
$GPHDT,,T*1B
$GNACCURACY,4.5*17
$GNGGA,033122.400,2500.7990076,N,12132.4853643,E,4,58,0.48,16.684,M,15.25,M,1,3335*43
$GNRMC,033122.400,A,2500.7990076,N,12132.4853643,E,0.01,332.71,090324,,,R,V*1C
$GPHDT,314.900,T*3A
$GNACCURACY,4.5*17
$GNGGA,033122.500,2500.7990093,N,12132.4853664,E,4,58,0.48,16.690,M,15.25,M,1,3335*49
$GNRMC,033122.500,A,2500.7990093,N,12132.4853664,E,0.01,332.71,090324,,,R,V*13
$GPHDT,,T*1B
$GNACCURACY,4.5*17
$GNGGA,033122.600,2500.7990072,N,12132.4853630,E,4,58,0.48,16.696,M,15.25,M,0,3335*43
$GNRMC,033122.600,A,2500.7990072,N,12132.4853630,E,0.11,332.71,090324,,,R,V*1F
$GPHDT,314.734,T*33
$GNACCURACY,4.5*17
$GNGGA,033122.700,2500.7990117,N,12132.4853638,E,4,58,0.48,16.712,M,15.25,M,0,3335*45
$GNRMC,033122.700,A,2500.7990117,N,12132.4853638,E,0.03,332.71,090324,,,R,V*17
$GPHDT,,T*1B
$GNACCURACY,4.5*17
$GNGGA,033122.800,2500.7990095,N,12132.4853653,E,4,58,0.48,16.713,M,15.25,M,0,3335*4D
$GNRMC,033122.800,A,2500.7990095,N,12132.4853653,E,0.07,332.71,090324,,,R,V*1A
$GPHDT,314.571,T*30
$GNACCURACY,4.5*17
$GNGGA,033122.900,2500.7990076,N,12132.4853627,E,4,58,0.48,16.705,M,15.25,M,0,3335*45
$GNRMC,033122.900,A,2500.7990076,N,12132.4853627,E,0.03,332.71,090324,,,R,V*11
$GPHDT,,T*1B
$GNACCURACY,4.5*17
$GNGGA,033123.000,2500.7990080,N,12132.4853639,E,4,58,0.48,16.703,M,15.25,M,1,3335*4C
$GNRMC,033123.000,A,2500.7990080,N,12132.4853639,E,0.03,332.71,090324,,,R,V*1F
$GPHDT,314.599,T*36
$GNGSA,A,3,08,194,195,27,21,16,04,02,09,07,196,26,0.76,0.48,0.59,1*3A
$GNGSA,A,3,31,,,,,,,,,,,,0.76,0.48,0.59,1*02
$GNGSA,A,3,88,78,81,87,79,,,,,,,,0.76,0.48,0.59,2*04
$GNGSA,A,3,21,13,19,27,26,15,,,,,,,0.76,0.48,0.59,3*0E
$GNGSA,A,3,06,16,09,43,39,40,07,23,10,11,25,28,0.76,0.48,0.59,4*0E
$GNGSA,A,3,34,,,,,,,,,,,,0.76,0.48,0.59,4*02
$GPGSV,4,1,15,08,72,311,43,194,63,047,44,199,63,167,,195,58,122,43,1*54
$GPGSV,4,2,15,27,48,028,43,45,47,231,40,21,41,168,26,16,34,057,31,1*69
$GPGSV,4,3,15,04,31,215,40,02,30,181,31,09,30,265,28,07,27,320,36,1*6F
$GPGSV,4,4,15,196,21,173,30,26,16,085,16,31,14,138,33,1*6F
$GPGSV,2,1,08,08,72,311,44,194,63,047,47,195,58,122,45,27,48,028,43,8*65
$GPGSV,2,2,08,04,31,215,43,09,30,265,28,196,21,173,28,26,16,085,26,8*5B
$GLGSV,2,1,06,88,71,068,42,78,47,007,36,81,43,189,28,77,32,089,14,1*7C
$GLGSV,2,2,06,87,20,029,27,79,13,321,19,1*79
$GAGSV,2,1,07,21,51,350,39,13,51,106,37,19,36,256,24,27,33,064,25,7*73
$GAGSV,2,2,07,26,29,175,25,15,22,048,25,04,10,312,20,7*47
$GAGSV,2,1,06,13,51,106,46,21,51,350,40,19,36,256,26,27,33,064,33,1*79
$GAGSV,2,2,06,26,29,175,35,15,22,048,33,1*71
$GBGSV,4,1,13,06,81,223,41,16,78,191,38,09,75,298,41,43,73,057,41,1*7B
$GBGSV,4,2,13,39,67,178,42,40,65,317,38,07,62,295,39,23,62,358,39,1*7E
$GBGSV,4,3,13,10,52,278,34,11,48,044,44,25,46,098,46,28,40,209,34,1*77
$GBGSV,4,4,13,34,24,040,39,1*4B
$GBGSV,2,1,07,43,73,057,46,39,67,178,43,40,65,317,43,23,62,358,30,4*7B
$GBGSV,2,2,07,25,46,098,45,28,40,209,24,34,24,040,37,4*43
$GNACCURACY,4.5*17
$PAIRSAT,1,35,2,0,201,3,0,200,4,0,221,5,0,200,6,0,200,7,0,201,8,0,221,9,0,221,10,0,200,11,0,200,12,0,200,13,0,200,14,0,200,15,0,200,16,0,201,17,0,200,18,0,200,19,0,200,20,0,200,21,0,201,22,0,200,23,0,200,24,0,200,25,0,200,26,0,221,27,0,221,28,0,200,29,0,200,30,0,200,31,0,201,32,0,200,194,0,621,195,0,621,196,0,620,199,0,600*5B
$PAIRSAT,2,23,65,0,200,66,0,200,67,0,200,68,0,200,70,0,200,71,0,200,72,0,200,73,0,200,74,0,200,75,0,200,76,0,200,77,0,201,78,0,201,79,0,201,80,0,200,81,0,201,82,0,200,83,0,200,84,0,200,85,0,200,86,0,200,87,0,201,88,0,201*5C
$PAIRSAT,3,23,2,0,1200,3,0,1200,4,0,1200,5,0,200,7,0,1200,8,0,1200,9,0,1200,10,0,1200,11,0,1200,12,0,1200,13,0,1221,15,0,1221,19,0,1221,21,0,1221,24,0,1200,25,0,1200,26,0,1221,27,0,1221,30,0,1200,31,0,1200,33,0,1200,34,0,1200,36,0,1200*6A
$PAIRSAT,4,46,1,0,200,2,0,200,3,0,600,4,0,200,5,0,200,6,0,201,7,0,201,8,0,200,9,0,201,10,0,201,11,0,201,12,0,200,13,0,200,14,0,200,16,0,201,19,0,600,20,0,600,21,0,600,22,0,600,23,0,621,24,0,600,25,0,621,26,0,600,27,0,600,28,0,621,29,0,600,30,0,600,32,0,600,33,0,600,34,0,621,35,0,600,36,0,600,37,0,600,38,0,600,39,0,621,40,0,421,41,0,600,42,0,600,43,0,621,44,0,600,45,0,600,46,0,600,59,0,400,60,0,400,61,0,400,62,0,400*48
$PAIRDGP,8,2,4,7,8,9,16,21,27*7C
$GNGGA,033123.100,2500.7990098,N,12132.4853635,E,4,58,0.48,16.700,M,15.25,M,1,3335*4B
$GNRMC,033123.100,A,2500.7990098,N,12132.4853635,E,0.03,332.71,090324,,,R,V*1B
$GPHDT,,T*1B
$GNACCURACY,4.5*17
$GNGGA,033123.200,2500.7990094,N,12132.4853638,E,4,58,0.48,16.705,M,15.25,M,1,3335*4C
$GNRMC,033123.200,A,2500.7990094,N,12132.4853638,E,0.02,332.71,090324,,,R,V*18
$GPHDT,314.650,T*30
$GNACCURACY,4.5*17
$GNGGA,033123.300,2500.7990089,N,12132.4853664,E,4,58,0.48,16.707,M,15.25,M,1,3335*4A
$GNRMC,033123.300,A,2500.7990089,N,12132.4853664,E,0.02,332.71,090324,,,R,V*1C
$GPHDT,,T*1B
$GNACCURACY,4.5*17
$GNGGA,033123.400,2500.7990095,N,12132.4853646,E,4,58,0.48,16.712,M,15.25,M,1,3335*44
$GNRMC,033123.400,A,2500.7990095,N,12132.4853646,E,0.02,332.71,090324,,,R,V*16
$GPHDT,314.517,T*30
$GNACCURACY,4.5*17
$GNGGA,033123.500,2500.7990073,N,12132.4853641,E,4,58,0.48,16.701,M,15.25,M,1,3335*48
$GNRMC,033123.500,A,2500.7990073,N,12132.4853641,E,0.02,332.71,090324,,,R,V*18
$GPHDT,,T*1B
$GNACCURACY,4.5*17
$GNGGA,033123.600,2500.7990059,N,12132.4853637,E,4,58,0.48,16.689,M,15.25,M,0,3335*42
$GNRMC,033123.600,A,2500.7990059,N,12132.4853637,E,0.01,332.71,090324,,,R,V*11
$GPHDT,314.693,T*3F
$GNACCURACY,4.5*17
$GNGGA,033123.700,2500.7990085,N,12132.4853622,E,4,58,0.48,16.687,M,15.25,M,0,3335*48
$GNRMC,033123.700,A,2500.7990085,N,12132.4853622,E,0.06,332.71,090324,,,R,V*12
$GPHDT,,T*1B
$GNACCURACY,4.5*17
$GNGGA,033123.800,2500.7990082,N,12132.4853652,E,4,58,0.48,16.698,M,15.25,M,0,3335*49
$GNRMC,033123.800,A,2500.7990082,N,12132.4853652,E,0.05,332.71,090324,,,R,V*1E
$GPHDT,314.393,T*3A
$GNACCURACY,4.5*17
$GNGGA,033123.900,2500.7990066,N,12132.4853646,E,4,58,0.48,16.697,M,15.25,M,0,3335*48
$GNRMC,033123.900,A,2500.7990066,N,12132.4853646,E,0.09,332.71,090324,,,R,V*1C
$GPHDT,,T*1B
$GNACCURACY,4.4*16
$GNGGA,033124.000,2500.7990076,N,12132.4853666,E,4,58,0.48,16.693,M,15.25,M,1,3335*40
$GNRMC,033124.000,A,2500.7990076,N,12132.4853666,E,0.08,332.71,090324,,,R,V*10
$GPHDT,314.447,T*34
$GNGSA,A,3,08,194,195,27,21,16,04,02,09,07,196,26,0.87,0.48,0.72,1*3D
$GNGSA,A,3,31,,,,,,,,,,,,0.87,0.48,0.72,1*05
$GNGSA,A,3,88,78,81,87,79,,,,,,,,0.87,0.48,0.72,2*03
$GNGSA,A,3,21,13,19,27,26,15,,,,,,,0.87,0.48,0.72,3*09
$GNGSA,A,3,06,16,09,43,39,40,07,23,10,11,25,28,0.87,0.48,0.72,4*09
$GNGSA,A,3,34,,,,,,,,,,,,0.87,0.48,0.72,4*05
$GPGSV,4,1,15,08,72,311,43,194,63,047,44,199,63,167,,195,58,122,43,1*54
$GPGSV,4,2,15,27,48,028,43,45,47,231,40,21,41,168,31,16,34,057,27,1*68
$GPGSV,4,3,15,04,31,215,40,02,30,181,30,09,30,265,25,07,27,320,36,1*63
$GPGSV,4,4,15,196,21,173,32,26,16,085,18,31,14,138,33,1*63
$GPGSV,2,1,08,08,72,311,44,194,63,047,47,195,58,122,45,27,48,028,43,8*65
$GPGSV,2,2,08,04,31,215,43,09,30,265,28,196,21,173,28,26,16,085,27,8*5A
$GLGSV,2,1,06,88,71,068,42,78,47,007,36,81,43,189,28,77,32,089,14,1*7C
$GLGSV,2,2,06,87,20,029,26,79,13,321,21,1*73
$GAGSV,2,1,07,21,51,350,39,13,51,106,38,19,36,256,24,27,33,064,27,7*7E
$GAGSV,2,2,07,26,29,175,27,15,22,048,26,04,10,312,20,7*46
$GAGSV,2,1,06,13,51,106,46,21,51,350,40,19,36,256,26,27,33,064,31,1*7B
$GAGSV,2,2,06,26,29,175,35,15,22,048,33,1*71
$GBGSV,4,1,13,06,81,223,41,16,78,191,38,09,75,298,41,43,73,057,41,1*7B
$GBGSV,4,2,13,39,67,178,42,40,65,317,38,07,62,295,40,23,62,358,39,1*70
$GBGSV,4,3,13,10,52,278,34,11,48,044,45,25,46,098,45,28,40,209,33,1*72
$GBGSV,4,4,13,34,24,040,39,1*4B
$GBGSV,2,1,07,43,73,057,46,39,67,178,43,40,65,317,43,23,62,358,29,4*73
$GBGSV,2,2,07,25,46,098,45,28,40,209,23,34,24,040,37,4*44
$GNACCURACY,4.4*16
$PAIRSAT,1,35,2,0,201,3,0,200,4,0,221,5,0,200,6,0,200,7,0,201,8,0,221,9,0,221,10,0,200,11,0,200,12,0,200,13,0,200,14,0,200,15,0,200,16,0,201,17,0,200,18,0,200,19,0,200,20,0,200,21,0,201,22,0,200,23,0,200,24,0,200,25,0,200,26,0,221,27,0,221,28,0,200,29,0,200,30,0,200,31,0,201,32,0,200,194,0,621,195,0,621,196,0,620,199,0,600*5B
$PAIRSAT,2,23,65,0,200,66,0,200,67,0,200,68,0,200,70,0,200,71,0,200,72,0,200,73,0,200,74,0,200,75,0,200,76,0,200,77,0,201,78,0,201,79,0,201,80,0,200,81,0,201,82,0,200,83,0,200,84,0,200,85,0,200,86,0,200,87,0,201,88,0,201*5C
$PAIRSAT,3,23,2,0,1200,3,0,1200,4,0,1200,5,0,200,7,0,1200,8,0,1200,9,0,1200,10,0,1200,11,0,1200,12,0,1200,13,0,1221,15,0,1221,19,0,1221,21,0,1221,24,0,1200,25,0,1200,26,0,1221,27,0,1221,30,0,1200,31,0,1200,33,0,1200,34,0,1200,36,0,1200*6A
$PAIRSAT,4,46,1,0,200,2,0,200,3,0,600,4,0,200,5,0,200,6,0,201,7,0,201,8,0,200,9,0,201,10,0,201,11,0,201,12,0,200,13,0,200,14,0,200,16,0,201,19,0,600,20,0,600,21,0,600,22,0,600,23,0,621,24,0,600,25,0,621,26,0,600,27,0,600,28,0,621,29,0,600,30,0,600,32,0,600,33,0,600,34,0,621,35,0,600,36,0,600,37,0,600,38,0,600,39,0,621,40,0,421,41,0,600,42,0,600,43,0,621,44,0,600,45,0,600,46,0,600,59,0,400,60,0,400,61,0,400,62,0,400*48
$PAIRDGP,8,2,4,7,8,9,16,21,27*7C
$GNGGA,033124.100,2500.7990094,N,12132.4853652,E,4,58,0.48,16.701,M,15.25,M,1,3335*40
$GNRMC,033124.100,A,2500.7990094,N,12132.4853652,E,0.05,332.71,090324,,,R,V*17
$GPHDT,,T*1B
$GNACCURACY,4.4*16
$GNGGA,033124.200,2500.7990093,N,12132.4853673,E,4,58,0.48,16.694,M,15.25,M,1,3335*4A
$GNRMC,033124.200,A,2500.7990093,N,12132.4853673,E,0.03,332.71,090324,,,R,V*16
$GPHDT,314.377,T*30
$GNACCURACY,4.4*16
$GNGGA,033124.300,2500.7990070,N,12132.4853660,E,4,58,0.48,16.699,M,15.25,M,1,3335*49
$GNRMC,033124.300,A,2500.7990070,N,12132.4853660,E,0.03,332.71,090324,,,R,V*18
$GPHDT,,T*1B
$GNACCURACY,4.4*16
$GNGGA,033124.400,2500.7990094,N,12132.4853669,E,4,58,0.48,16.700,M,15.25,M,1,3335*4C
$GNRMC,033124.400,A,2500.7990094,N,12132.4853669,E,0.03,332.71,090324,,,R,V*1C
$GPHDT,314.368,T*3E
$GNACCURACY,4.4*16
$GNGGA,033124.500,2500.7990082,N,12132.4853677,E,4,58,0.48,16.705,M,15.25,M,1,3335*40
$GNRMC,033124.500,A,2500.7990082,N,12132.4853677,E,0.04,332.71,090324,,,R,V*12
$GPHDT,,T*1B
$GNACCURACY,4.4*16
$GNGGA,033124.600,2500.7990079,N,12132.4853643,E,4,58,0.48,16.696,M,15.25,M,1,3335*4B
$GNRMC,033124.600,A,2500.7990079,N,12132.4853643,E,0.14,332.71,090324,,,R,V*13
$GPHDT,314.636,T*30
$GNACCURACY,4.4*16
$GNGGA,033124.700,2500.7990059,N,12132.4853677,E,4,58,0.48,16.697,M,15.25,M,1,3335*4E
$GNRMC,033124.700,A,2500.7990059,N,12132.4853677,E,0.10,332.71,090324,,,R,V*13
$GPHDT,,T*1B
$GNACCURACY,4.4*16
$GNGGA,033124.800,2500.7990063,N,12132.4853674,E,4,58,0.48,16.699,M,15.25,M,0,3335*44
$GNRMC,033124.800,A,2500.7990063,N,12132.4853674,E,0.09,332.71,090324,,,R,V*1E
$GPHDT,314.499,T*37
$GNACCURACY,4.4*16
$GNGGA,033124.900,2500.7990071,N,12132.4853680,E,4,58,0.48,16.709,M,15.25,M,0,3335*45
$GNRMC,033124.900,A,2500.7990071,N,12132.4853680,E,0.07,332.71,090324,,,R,V*19
$GPHDT,,T*1B
$GNACCURACY,4.4*16
$GNGGA,033125.000,2500.7990075,N,12132.4853683,E,4,58,0.48,16.714,M,15.25,M,1,3335*47
$GNRMC,033125.000,A,2500.7990075,N,12132.4853683,E,0.05,332.71,090324,,,R,V*14
$GPHDT,314.311,T*30
$GNGSA,A,3,08,194,195,27,21,16,04,02,09,07,196,26,0.87,0.48,0.72,1*3D
$GNGSA,A,3,31,,,,,,,,,,,,0.87,0.48,0.72,1*05
$GNGSA,A,3,88,78,81,87,79,,,,,,,,0.87,0.48,0.72,2*03
$GNGSA,A,3,21,13,19,27,26,15,,,,,,,0.87,0.48,0.72,3*09
$GNGSA,A,3,06,16,09,43,39,40,07,23,10,11,25,28,0.87,0.48,0.72,4*09
$GNGSA,A,3,34,,,,,,,,,,,,0.87,0.48,0.72,4*05
$GPGSV,4,1,15,08,72,311,43,194,63,047,44,199,63,167,,195,58,122,43,1*54
$GPGSV,4,2,15,27,48,028,43,45,47,231,40,21,41,168,28,16,34,057,28,1*6F
$GPGSV,4,3,15,04,31,215,41,02,30,181,28,09,30,265,26,07,27,320,36,1*68
$GPGSV,4,4,15,196,21,173,28,26,16,085,18,31,14,138,33,1*68
$GPGSV,2,1,08,08,72,311,44,194,63,047,46,195,58,122,45,27,48,028,42,8*65
$GPGSV,2,2,08,04,31,215,43,09,30,265,28,196,21,173,30,26,16,085,29,8*5D
$GLGSV,2,1,06,88,71,068,42,78,47,007,37,81,43,189,30,77,32,089,13,1*73
$GLGSV,2,2,06,87,20,029,27,79,13,321,24,1*77
$GAGSV,2,1,07,21,51,350,39,13,51,106,37,19,36,256,24,27,33,064,29,7*7F
$GAGSV,2,2,07,26,29,175,24,15,22,048,24,04,10,312,21,7*46
$GAGSV,2,1,06,13,51,106,46,21,51,350,40,19,36,256,26,27,33,064,33,1*79
$GAGSV,2,2,06,26,29,175,34,15,22,048,34,1*77
$GBGSV,4,1,13,06,81,223,41,16,78,191,38,09,75,298,41,43,73,057,41,1*7B
$GBGSV,4,2,13,39,67,178,42,40,65,317,38,07,62,295,40,23,62,358,40,1*7E
$GBGSV,4,3,13,10,52,278,34,11,48,044,45,25,46,098,45,28,40,209,32,1*73
$GBGSV,4,4,13,34,24,040,39,1*4B
$GBGSV,2,1,07,43,73,057,46,39,67,178,44,40,65,317,43,23,62,358,32,4*7E
$GBGSV,2,2,07,25,46,098,44,28,40,209,28,34,24,040,37,4*4E
$GNACCURACY,4.4*16
$PAIRSAT,1,35,2,0,201,3,0,200,4,0,221,5,0,200,6,0,200,7,0,201,8,0,221,9,0,221,10,0,200,11,0,200,12,0,200,13,0,200,14,0,200,15,0,200,16,0,201,17,0,200,18,0,200,19,0,200,20,0,200,21,0,201,22,0,200,23,0,200,24,0,200,25,0,200,26,0,221,27,0,221,28,0,200,29,0,200,30,0,200,31,0,201,32,0,200,194,0,621,195,0,621,196,0,620,199,0,600*5B
$PAIRSAT,2,23,65,0,200,66,0,200,67,0,200,68,0,200,70,0,200,71,0,200,72,0,200,73,0,200,74,0,200,75,0,200,76,0,200,77,0,201,78,0,201,79,0,201,80,0,200,81,0,201,82,0,200,83,0,200,84,0,200,85,0,200,86,0,200,87,0,201,88,0,201*5C
$PAIRSAT,3,23,2,0,1200,3,0,1200,4,0,1200,5,0,200,7,0,1200,8,0,1200,9,0,1200,10,0,1200,11,0,1200,12,0,1200,13,0,1221,15,0,1221,19,0,1221,21,0,1221,24,0,1200,25,0,1200,26,0,1221,27,0,1221,30,0,1200,31,0,1200,33,0,1200,34,0,1200,36,0,1200*6A
$PAIRSAT,4,46,1,0,200,2,0,200,3,0,600,4,0,200,5,0,200,6,0,201,7,0,201,8,0,200,9,0,201,10,0,201,11,0,201,12,0,200,13,0,200,14,0,200,16,0,201,19,0,600,20,0,600,21,0,600,22,0,600,23,0,621,24,0,600,25,0,621,26,0,600,27,0,600,28,0,621,29,0,600,30,0,600,32,0,600,33,0,600,34,0,621,35,0,600,36,0,600,37,0,600,38,0,600,39,0,621,40,0,421,41,0,600,42,0,600,43,0,621,44,0,600,45,0,600,46,0,600,59,0,400,60,0,400,61,0,400,62,0,400*48
$PAIRDGP,8,2,4,7,8,9,16,21,27*7C
$GNGGA,033125.100,2500.7990074,N,12132.4853700,E,4,58,0.48,16.696,M,15.25,M,1,3335*46
$GNRMC,033125.100,A,2500.7990074,N,12132.4853700,E,0.06,332.71,090324,,,R,V*1D
$GPHDT,,T*1B
$GNACCURACY,4.4*16
$GNGGA,033125.200,2500.7990099,N,12132.4853685,E,4,58,0.48,16.707,M,15.25,M,1,3335*43
$GNRMC,033125.200,A,2500.7990099,N,12132.4853685,E,0.04,332.71,090324,,,R,V*13
$GPHDT,314.644,T*35
$GNACCURACY,4.4*16
$GNGGA,033125.300,2500.7990089,N,12132.4853675,E,4,58,0.48,16.706,M,15.25,M,1,3335*4D
$GNRMC,033125.300,A,2500.7990089,N,12132.4853675,E,0.04,332.71,090324,,,R,V*1C
$GPHDT,,T*1B
$GNACCURACY,4.4*16
$GNGGA,033125.400,2500.7990073,N,12132.4853652,E,4,58,0.48,16.708,M,15.25,M,1,3335*44
$GNRMC,033125.400,A,2500.7990073,N,12132.4853652,E,0.04,332.71,090324,,,R,V*1B
$GPHDT,314.805,T*3E
$GNACCURACY,4.4*16
$GNGGA,033125.500,2500.7990082,N,12132.4853713,E,4,58,0.48,16.709,M,15.25,M,1,3335*4E
$GNRMC,033125.500,A,2500.7990082,N,12132.4853713,E,0.03,332.71,090324,,,R,V*17
$GPHDT,,T*1B
$GNACCURACY,4.4*16
$GNGGA,033125.600,2500.7990043,N,12132.4853660,E,4,58,0.48,16.697,M,15.25,M,0,3335*42
$GNRMC,033125.600,A,2500.7990043,N,12132.4853660,E,0.04,332.71,090324,,,R,V*1B
$GPHDT,314.791,T*3C
$GNACCURACY,4.4*16
$GNGGA,033125.700,2500.7990091,N,12132.4853667,E,4,58,0.48,16.707,M,15.25,M,0,3335*43
$GNRMC,033125.700,A,2500.7990091,N,12132.4853667,E,0.01,332.71,090324,,,R,V*17
$GPHDT,,T*1B
$GNACCURACY,4.4*16
$GNGGA,033125.800,2500.7990073,N,12132.4853672,E,4,58,0.48,16.703,M,15.25,M,0,3335*40
$GNRMC,033125.800,A,2500.7990073,N,12132.4853672,E,0.06,332.71,090324,,,R,V*17
$GPHDT,314.665,T*36
$GNACCURACY,4.4*16
$GNGGA,033125.900,2500.7990083,N,12132.4853670,E,4,58,0.48,16.714,M,15.25,M,0,3335*4A
$GNRMC,033125.900,A,2500.7990083,N,12132.4853670,E,0.04,332.71,090324,,,R,V*19
$GPHDT,,T*1B
$GNACCURACY,4.4*16
$GNGGA,033126.000,2500.7990086,N,12132.4853643,E,4,58,0.48,16.694,M,15.25,M,1,3335*4D
$GNRMC,033126.000,A,2500.7990086,N,12132.4853643,E,0.06,332.71,090324,,,R,V*14
$GPHDT,314.491,T*3F
$GNGSA,A,3,08,194,195,27,21,16,04,02,09,07,196,26,0.87,0.48,0.72,1*3D
$GNGSA,A,3,31,,,,,,,,,,,,0.87,0.48,0.72,1*05
$GNGSA,A,3,88,78,81,87,79,,,,,,,,0.87,0.48,0.72,2*03
$GNGSA,A,3,21,13,19,27,26,15,,,,,,,0.87,0.48,0.72,3*09
$GNGSA,A,3,06,16,09,43,39,40,07,23,10,11,25,28,0.87,0.48,0.72,4*09
$GNGSA,A,3,34,,,,,,,,,,,,0.87,0.48,0.72,4*05
$GPGSV,4,1,15,08,72,311,43,194,63,047,44,199,63,167,,195,58,122,42,1*55
$GPGSV,4,2,15,27,48,028,43,45,47,231,40,21,41,168,23,16,34,057,28,1*64
$GPGSV,4,3,15,04,31,215,41,02,30,181,31,09,30,265,24,07,27,320,37,1*63
$GPGSV,4,4,15,196,21,173,26,26,16,085,20,31,14,138,34,1*6A
$GPGSV,2,1,08,08,72,311,44,194,63,047,46,195,58,122,44,27,48,028,43,8*65
$GPGSV,2,2,08,04,31,215,44,09,30,265,27,196,21,173,23,26,16,085,28,8*56
$GLGSV,2,1,06,88,71,068,42,78,47,007,37,81,43,189,31,77,32,089,14,1*75
$GLGSV,2,2,06,87,20,029,27,79,13,321,25,1*76
$GAGSV,2,1,07,21,51,350,39,13,51,106,38,19,36,256,27,27,33,064,29,7*73
$GAGSV,2,2,07,26,29,175,21,15,22,048,22,04,10,312,21,7*45
$GAGSV,2,1,06,13,51,106,46,21,51,350,39,19,36,256,25,27,33,064,33,1*74
$GAGSV,2,2,06,26,29,175,34,15,22,048,34,1*77
$GBGSV,4,1,13,06,81,223,41,16,78,191,38,09,75,298,41,43,73,057,42,1*78
$GBGSV,4,2,13,39,67,178,42,40,65,317,38,07,62,295,40,23,62,358,40,1*7E
$GBGSV,4,3,13,10,52,278,35,11,48,044,44,25,46,098,46,28,40,209,32,1*70
$GBGSV,4,4,13,34,24,040,39,1*4B
$GBGSV,2,1,07,43,73,057,45,39,67,178,44,40,65,317,43,23,62,358,31,4*7E
$GBGSV,2,2,07,25,46,098,44,28,40,209,28,34,24,040,37,4*4E
$GNACCURACY,4.4*16
$PAIRSAT,1,35,2,0,201,3,0,200,4,0,221,5,0,200,6,0,200,7,0,201,8,0,221,9,0,221,10,0,200,11,0,200,12,0,200,13,0,200,14,0,200,15,0,200,16,0,201,17,0,200,18,0,200,19,0,200,20,0,200,21,0,201,22,0,200,23,0,200,24,0,200,25,0,200,26,0,221,27,0,221,28,0,200,29,0,200,30,0,200,31,0,201,32,0,200,194,0,621,195,0,621,196,0,620,199,0,600*5B
$PAIRSAT,2,23,65,0,200,66,0,200,67,0,200,68,0,200,70,0,200,71,0,200,72,0,200,73,0,200,74,0,200,75,0,200,76,0,200,77,0,201,78,0,201,79,0,201,80,0,200,81,0,201,82,0,200,83,0,200,84,0,200,85,0,200,86,0,200,87,0,201,88,0,201*5C
$PAIRSAT,3,23,2,0,1200,3,0,1200,4,0,1200,5,0,200,7,0,1200,8,0,1200,9,0,1200,10,0,1200,11,0,1200,12,0,1200,13,0,1221,15,0,1221,19,0,1221,21,0,1221,24,0,1200,25,0,1200,26,0,1221,27,0,1221,30,0,1200,31,0,1200,33,0,1200,34,0,1200,36,0,1200*6A
$PAIRSAT,4,46,1,0,200,2,0,200,3,0,600,4,0,200,5,0,200,6,0,201,7,0,201,8,0,200,9,0,201,10,0,201,11,0,201,12,0,200,13,0,200,14,0,200,16,0,201,19,0,600,20,0,600,21,0,600,22,0,600,23,0,621,24,0,600,25,0,621,26,0,600,27,0,600,28,0,621,29,0,600,30,0,600,32,0,600,33,0,600,34,0,621,35,0,600,36,0,600,37,0,600,38,0,600,39,0,621,40,0,421,41,0,600,42,0,600,43,0,621,44,0,600,45,0,600,46,0,600,59,0,400,60,0,400,61,0,400,62,0,400*48
$PAIRDGP,8,2,4,7,8,9,16,21,27*7C
$GNGGA,033126.100,2500.7990076,N,12132.4853629,E,4,58,0.48,16.708,M,15.25,M,1,3335*4B
$GNRMC,033126.100,A,2500.7990076,N,12132.4853629,E,0.03,332.71,090324,,,R,V*13
$GPHDT,,T*1B
$GNACCURACY,4.4*16
$GNGGA,033126.200,2500.7990090,N,12132.4853612,E,4,58,0.48,16.709,M,15.25,M,1,3335*49
$GNRMC,033126.200,A,2500.7990090,N,12132.4853612,E,0.03,332.71,090324,,,R,V*10
$GPHDT,314.569,T*39
$GNACCURACY,4.4*16
$GNGGA,033126.300,2500.7990078,N,12132.4853636,E,4,58,0.48,16.704,M,15.25,M,1,3335*45
$GNRMC,033126.300,A,2500.7990078,N,12132.4853636,E,0.02,332.71,090324,,,R,V*10
$GPHDT,,T*1B
$GNACCURACY,4.4*16
$GNGGA,033126.400,2500.7990085,N,12132.4853617,E,4,58,0.48,16.702,M,15.25,M,1,3335*45
$GNRMC,033126.400,A,2500.7990085,N,12132.4853617,E,0.03,332.71,090324,,,R,V*17
$GPHDT,314.283,T*3A
$GNACCURACY,4.4*16
$GNGGA,033126.500,2500.7990068,N,12132.4853648,E,4,58,0.48,16.705,M,15.25,M,1,3335*4A
$GNRMC,033126.500,A,2500.7990068,N,12132.4853648,E,0.01,332.71,090324,,,R,V*1D
$GPHDT,,T*1B
$GNACCURACY,4.4*16
$GNGGA,033126.600,2500.7990099,N,12132.4853640,E,4,58,0.48,16.705,M,15.25,M,1,3335*4F
$GNRMC,033126.600,A,2500.7990099,N,12132.4853640,E,0.03,332.71,090324,,,R,V*1A
$GPHDT,314.263,T*34
