$FW : RTK35X,V1.1X0314AS,Lib20210517,1*54
$Tool : LOCOSYS , GNSS Firebird , v1.0.0.19*39
$---------------------------------------------------*2D
4,63,047,40,199,63,167,,195,58,122,41,1*50
$GPGSV,4,2,15,27,48,028,38,45,47,231,32,21,41,168,31,16,34,057,25,1*63
$GPGSV,4,3,15,04,31,215,29,02,30,181,35,09,30,265,22,07,27,320,40,1*6F
$GPGSV,4,4,15,196,21,173,32,26,16,085,17,31,14,138,43,1*6B
$GPGSV,2,1,08,08,72,311,45,194,63,047,41,195,58,122,43,27,48,028,42,8*65
$GPGSV,2,2,08,04,31,215,33,09,30,265,22,196,21,173,37,26,16,085,27,8*59
$GLGSV,2,1,06,88,71,068,42,78,47,008,38,81,43,189,34,77,32,089,16,1*72
$GLGSV,2,2,06,87,20,029,18,79,13,321,29,1*76
$GAGSV,2,1,07,21,51,351,37,13,51,106,36,19,36,256,21,27,33,064,26,7*7B
$GAGSV,2,2,07,26,29,174,18,15,22,048,23,04,10,311,24,7*49
$GAGSV,2,1,05,13,51,106,38,21,51,351,41,27,33,064,26,26,29,174,36,1*77
$GAGSV,2,2,05,15,22,048,20,1*4A
$GBGSV,4,1,13,06,81,223,41,16,78,191,38,09,75,298,41,43,73,057,42,1*78
$GBGSV,4,2,13,39,67,178,41,40,65,317,40,07,62,295,42,23,62,358,40,1*70
$GBGSV,4,3,13,10,52,278,31,11,48,044,41,25,46,098,35,28,40,209,25,1*73
$GBGSV,4,4,13,34,24,040,35,1*47
$GBGSV,2,1,07,43,73,057,42,39,67,178,45,40,65,317,42,23,62,358,24,4*7D
$GBGSV,2,2,07,25,46,098,26,28,40,209,28,34,24,040,31,4*4C
$GNACCURACY,4.3*11
$PAIRSAT,1,35,2,0,201,3,0,200,4,0,221,5,0,200,6,0,200,7,0,201,8,0,221,9,0,221,10,0,200,11,0,200,12,0,200,13,0,200,14,0,200,15,0,200,16,0,201,17,0,200,18,0,200,19,0,200,20,0,200,21,0,201,22,0,200,23,0,200,24,0,200,25,0,200,26,0,221,27,0,221,28,0,200,29,0,200,30,0,200,31,0,201,32,0,200,194,0,621,195,0,621,196,0,620,199,0,600*5B
$PAIRSAT,2,23,65,0,200,66,0,200,67,0,200,68,0,200,70,0,200,71,0,200,72,0,200,73,0,200,74,0,200,75,0,200,76,0,200,77,0,201,78,0,201,79,0,201,80,0,200,81,0,201,82,0,200,83,0,200,84,0,200,85,0,200,86,0,200,87,0,201,88,0,201*5C
$PAIRSAT,3,23,2,0,1200,3,0,1200,4,0,1200,5,0,200,7,0,1200,8,0,1200,9,0,1200,10,0,1200,11,0,1200,12,0,1200,13,0,1221,15,0,1221,19,0,1221,21,0,1221,24,0,1200,25,0,1200,26,0,1221,27,0,1221,30,0,1200,31,0,1200,33,0,1200,34,0,1200,36,0,1200*6A
$PAIRSAT,4,46,1,0,200,2,0,200,3,0,600,4,0,200,5,0,200,6,0,201,7,0,201,8,0,200,9,0,201,10,0,201,11,0,201,12,0,200,13,0,200,14,0,200,16,0,201,19,0,600,20,0,600,21,0,600,22,0,600,23,0,621,24,0,600,25,0,621,26,0,600,27,0,600,28,0,621,29,0,600,30,0,600,32,0,600,33,0,600,34,0,621,35,0,600,36,0,600,37,0,600,38,0,600,39,0,621,40,0,421,41,0,600,42,0,600,43,0,621,44,0,600,45,0,600,46,0,600,59,0,400,60,0,400,61,0,400,62,0,400*48
$PAIRDGP,8,2,4,7,8,9,16,21,27*7C
$GNGGA,033136.100,2500.7990125,N,12132.4853963,E,4,56,0.49,16.678,M,15.25,M,1,3335*45
$GNRMC,033136.100,A,2500.7990125,N,12132.4853963,E,0.10,332.71,090324,,,R,V*16
$GPHDT,,T*1B
$GNACCURACY,4.3*11
$GNGGA,033136.200,2500.7990132,N,12132.4853942,E,4,57,0.48,16.677,M,15.25,M,1,3335*4C
$GNRMC,033136.200,A,2500.7990132,N,12132.4853942,E,0.07,332.71,090324,,,R,V*16
$GPHDT,198.689,T*32
$GNACCURACY,4.3*11
$GNGGA,033136.300,2500.7990161,N,12132.4853973,E,4,57,0.48,16.690,M,15.25,M,1,3335*40
$GNRMC,033136.300,A,2500.7990161,N,12132.4853973,E,0.05,332.71,090324,,,R,V*11
$GPHDT,,T*1B
$GNACCURACY,4.3*11
$GNGGA,033136.400,2500.7990140,N,12132.4853949,E,4,57,0.48,16.685,M,15.25,M,1,3335*49
$GNRMC,033136.400,A,2500.7990140,N,12132.4853949,E,0.05,332.71,090324,,,R,V*1C
$GPHDT,198.593,T*3A
$GNACCURACY,4.3*11
$GNGGA,033136.500,2500.7990190,N,12132.4853942,E,4,57,0.48,16.686,M,15.25,M,1,3335*4D
$GNRMC,033136.500,A,2500.7990190,N,12132.4853942,E,0.04,332.71,090324,,,R,V*1A
$GPHDT,,T*1B
$GNACCURACY,4.3*11
$GNGGA,033136.600,2500.7990121,N,12132.4853883,E,4,57,0.48,16.666,M,15.25,M,1,3335*46
$GNRMC,033136.600,A,2500.7990121,N,12132.4853883,E,0.02,332.71,090324,,,R,V*19
$GPHDT,199.302,T*35
$GNACCURACY,4.2*10
$GNGGA,033136.700,2500.7990014,N,12132.4853821,E,4,57,0.48,16.700,M,15.25,M,0,3335*48
$GNRMC,033136.700,A,2500.7990014,N,12132.4853821,E,0.05,332.71,090324,,,R,V*10
$GPHDT,,T*1B
$GNACCURACY,4.2*10
$GNGGA,033136.800,2500.7989968,N,12132.4853876,E,4,57,0.48,16.683,M,15.25,M,0,3335*45
$GNRMC,033136.800,A,2500.7989968,N,12132.4853876,E,0.06,332.71,090324,,,R,V*14
$GPHDT,199.166,T*35
$GNACCURACY,4.2*10
$GNGGA,033136.900,2500.7989877,N,12132.4853707,E,4,57,0.48,16.636,M,15.25,M,0,3335*4C
$GNRMC,033136.900,A,2500.7989877,N,12132.4853707,E,0.04,332.71,090324,,,R,V*11
$GPHDT,,T*1B
$GNACCURACY,4.2*10
$GNGGA,033137.000,2500.7990006,N,12132.4853879,E,4,57,0.48,16.671,M,15.25,M,1,3335*46
$GNRMC,033137.000,A,2500.7990006,N,12132.4853879,E,0.09,332.71,090324,,,R,V*14
$GPHDT,199.589,T*30
$GNGSA,A,3,08,194,195,27,21,16,04,02,09,07,196,26,0.75,0.48,0.58,1*38
$GNGSA,A,3,31,,,,,,,,,,,,0.75,0.48,0.58,1*00
$GNGSA,A,3,88,78,81,87,79,,,,,,,,0.75,0.48,0.58,2*06
$GNGSA,A,3,21,13,19,27,26,15,,,,,,,0.75,0.48,0.58,3*0C
$GNGSA,A,3,06,16,09,43,39,40,07,23,10,11,25,28,0.75,0.48,0.58,4*0C
$GNGSA,A,3,34,,,,,,,,,,,,0.75,0.48,0.58,4*00
$GPGSV,4,1,15,08,72,311,41,194,63,047,41,199,63,167,,195,58,122,42,1*52
$GPGSV,4,2,15,27,48,028,38,45,47,231,35,21,41,168,33,16,34,057,21,1*62
$GPGSV,4,3,15,04,31,215,28,02,30,181,34,09,30,265,23,07,27,320,38,1*61
$GPGSV,4,4,15,196,21,173,32,26,16,085,20,31,14,138,43,1*6F
$GPGSV,2,1,08,08,72,311,47,194,63,047,42,195,58,122,45,27,48,028,43,8*63
$GPGSV,2,2,08,04,31,215,32,09,30,265,24,196,21,173,37,26,16,085,28,8*51
$GLGSV,2,1,06,88,71,067,42,78,47,008,40,81,43,189,36,77,32,089,18,1*7E
$GLGSV,2,2,06,87,19,029,17,79,13,321,29,1*73
$GAGSV,2,1,07,21,51,351,36,13,51,106,36,19,36,256,19,27,33,064,25,7*72
$GAGSV,2,2,07,26,29,174,19,15,22,048,22,04,10,311,24,7*49
$GAGSV,2,1,05,13,51,106,41,21,51,351,42,27,33,064,25,26,29,174,36,1*79
$GAGSV,2,2,05,15,22,048,18,1*41
$GBGSV,4,1,13,06,81,223,41,16,78,191,39,09,75,298,40,43,73,057,42,1*78
$GBGSV,4,2,13,39,67,178,41,40,65,317,41,07,62,295,42,23,62,358,41,1*70
$GBGSV,4,3,13,10,52,278,30,11,48,044,41,25,46,098,39,28,40,209,31,1*7B
$GBGSV,4,4,13,34,24,040,37,1*45
$GBGSV,2,1,07,43,73,057,43,39,67,178,45,40,65,317,43,23,62,358,24,4*7D
$GBGSV,2,2,07,25,46,098,25,28,40,209,28,34,24,040,33,4*4D
$GNACCURACY,4.2*10
$PAIRSAT,1,35,2,0,201,3,0,200,4,0,221,5,0,200,6,0,200,7,0,201,8,0,221,9,0,221,10,0,200,11,0,200,12,0,200,13,0,200,14,0,200,15,0,200,16,0,201,17,0,200,18,0,200,19,0,200,20,0,200,21,0,201,22,0,200,23,0,200,24,0,200,25,0,200,26,0,221,27,0,221,28,0,200,29,0,200,30,0,200,31,0,201,32,0,200,194,0,621,195,0,621,196,0,620,199,0,600*5B
$PAIRSAT,2,23,65,0,200,66,0,200,67,0,200,68,0,200,70,0,200,71,0,200,72,0,200,73,0,200,74,0,200,75,0,200,76,0,200,77,0,201,78,0,201,79,0,201,80,0,200,81,0,201,82,0,200,83,0,200,84,0,200,85,0,200,86,0,200,87,0,201,88,0,201*5C
$PAIRSAT,3,23,2,0,1200,3,0,1200,4,0,1200,5,0,200,7,0,1200,8,0,1200,9,0,1200,10,0,1200,11,0,1200,12,0,1200,13,0,1221,15,0,1221,19,0,1221,21,0,1221,24,0,1200,25,0,1200,26,0,1221,27,0,1221,30,0,1200,31,0,1200,33,0,1200,34,0,1200,36,0,1200*6A
$PAIRSAT,4,46,1,0,200,2,0,200,3,0,600,4,0,200,5,0,200,6,0,201,7,0,201,8,0,200,9,0,201,10,0,201,11,0,201,12,0,200,13,0,200,14,0,200,16,0,201,19,0,600,20,0,600,21,0,600,22,0,600,23,0,621,24,0,600,25,0,621,26,0,600,27,0,600,28,0,621,29,0,600,30,0,600,32,0,600,33,0,600,34,0,621,35,0,600,36,0,600,37,0,600,38,0,600,39,0,621,40,0,421,41,0,600,42,0,600,43,0,621,44,0,600,45,0,600,46,0,600,59,0,400,60,0,400,61,0,400,62,0,400*48
$PAIRDGP,8,2,4,7,8,9,16,21,27*7C
$GNGGA,033137.100,2500.7989965,N,12132.4853855,E,4,57,0.48,16.671,M,15.25,M,1,3335*4D
$GNRMC,033137.100,A,2500.7989965,N,12132.4853855,E,0.06,332.71,090324,,,R,V*10
$GPHDT,,T*1B
$GNACCURACY,4.2*10
$GNGGA,033137.200,2500.7989967,N,12132.4853812,E,4,56,0.48,16.669,M,15.25,M,1,3335*47
$GNRMC,033137.200,A,2500.7989967,N,12132.4853812,E,0.01,332.71,090324,,,R,V*15
$GPHDT,199.113,T*37
$GNACCURACY,4.2*10
$GNGGA,033137.300,2500.7989951,N,12132.4853827,E,4,56,0.48,16.664,M,15.25,M,1,3335*48
$GNRMC,033137.300,A,2500.7989951,N,12132.4853827,E,0.08,332.71,090324,,,R,V*1E
$GPHDT,,T*1B
$GNACCURACY,4.2*10
$GNGGA,033137.400,2500.7989975,N,12132.4853837,E,4,56,0.48,16.670,M,15.25,M,1,3335*4D
$GNRMC,033137.400,A,2500.7989975,N,12132.4853837,E,0.03,332.71,090324,,,R,V*15
$GPHDT,199.315,T*33
$GNACCURACY,4.3*11
$GNGGA,033137.500,2500.7990004,N,12132.4853895,E,4,57,0.47,16.667,M,15.25,M,1,3335*4B
$GNRMC,033137.500,A,2500.7990004,N,12132.4853895,E,0.01,332.71,090324,,,R,V*19
$GPHDT,,T*1B
$GNACCURACY,4.2*10
$GNGGA,033137.600,2500.7989967,N,12132.4853823,E,4,57,0.47,16.664,M,15.25,M,0,3335*43
$GNRMC,033137.600,A,2500.7989967,N,12132.4853823,E,0.02,332.71,090324,,,R,V*10
$GPHDT,199.403,T*33
$GNACCURACY,4.2*10
$GNGGA,033137.700,2500.7989963,N,12132.4853806,E,4,57,0.47,16.668,M,15.25,M,0,3335*4D
$GNRMC,033137.700,A,2500.7989963,N,12132.4853806,E,0.03,332.71,090324,,,R,V*13
$GPHDT,,T*1B
$GNACCURACY,4.2*10
$GNGGA,033137.800,2500.7989958,N,12132.4853796,E,4,57,0.47,16.666,M,15.25,M,0,3335*42
$GNRMC,033137.800,A,2500.7989958,N,12132.4853796,E,0.08,332.71,090324,,,R,V*19
$GPHDT,199.008,T*3C
$GNACCURACY,4.2*10
$GNGGA,033137.900,2500.7989973,N,12132.4853793,E,4,57,0.47,16.661,M,15.25,M,0,3335*48
$GNRMC,033137.900,A,2500.7989973,N,12132.4853793,E,0.05,332.71,090324,,,R,V*19
$GPHDT,,T*1B
$GNACCURACY,4.2*10
$GNGGA,033138.000,2500.7989983,N,12132.4853794,E,4,57,0.47,16.664,M,15.25,M,1,3335*42
$GNRMC,033138.000,A,2500.7989983,N,12132.4853794,E,0.02,332.71,090324,,,R,V*10
$GPHDT,199.129,T*3E
$GNGSA,A,3,08,194,195,27,21,16,04,02,09,07,196,26,0.75,0.47,0.58,1*37
$GNGSA,A,3,31,,,,,,,,,,,,0.75,0.47,0.58,1*0F
$GNGSA,A,3,88,78,81,77,87,79,,,,,,,0.75,0.47,0.58,2*09
$GNGSA,A,3,13,21,19,27,26,15,,,,,,,0.75,0.47,0.58,3*03
$GNGSA,A,3,06,16,09,43,39,40,07,23,10,11,25,28,0.75,0.47,0.58,4*03
$GNGSA,A,3,34,,,,,,,,,,,,0.75,0.47,0.58,4*0F
$GPGSV,4,1,15,08,72,311,41,194,63,047,41,199,63,167,,195,58,122,43,1*53
$GPGSV,4,2,15,27,48,028,39,45,47,231,34,21,41,168,30,16,34,057,24,1*64
$GPGSV,4,3,15,04,31,215,26,02,30,181,36,09,30,265,23,07,27,320,39,1*6C
$GPGSV,4,4,15,196,21,173,31,26,16,085,20,31,14,138,44,1*6B
$GPGSV,2,1,08,08,72,311,47,194,63,047,43,195,58,122,45,27,48,028,42,8*63
$GPGSV,2,2,08,04,31,215,31,09,30,265,23,196,21,173,37,26,16,085,25,8*58
$GLGSV,2,1,06,88,71,067,41,78,47,008,37,81,43,189,36,77,32,089,17,1*72
$GLGSV,2,2,06,87,19,029,16,79,13,321,29,1*72
$GAGSV,2,1,07,13,51,106,38,21,51,351,38,19,36,256,19,27,33,064,27,7*70
$GAGSV,2,2,07,26,29,174,22,15,22,048,21,04,10,311,24,7*42
$GAGSV,1,1,04,21,51,351,42,13,51,106,42,27,33,064,28,26,29,174,37,1*74
$GBGSV,4,1,13,06,81,223,41,16,78,191,38,09,75,297,41,43,73,057,41,1*74
$GBGSV,4,2,13,39,67,178,41,40,65,317,41,07,62,295,42,23,62,358,41,1*70
$GBGSV,4,3,13,10,52,278,30,11,47,044,41,25,46,098,41,28,40,209,33,1*79
$GBGSV,4,4,13,34,24,040,37,1*45
$GBGSV,2,1,07,43,73,057,44,39,67,178,45,40,65,317,42,23,62,358,26,4*79
$GBGSV,2,2,07,25,46,098,31,28,40,209,29,34,24,040,31,4*4B
$GNACCURACY,4.2*10
$PAIRSAT,1,35,2,0,201,3,0,200,4,0,221,5,0,200,6,0,200,7,0,201,8,0,221,9,0,221,10,0,200,11,0,200,12,0,200,13,0,200,14,0,200,15,0,200,16,0,201,17,0,200,18,0,200,19,0,200,20,0,200,21,0,201,22,0,200,23,0,200,24,0,200,25,0,200,26,0,221,27,0,221,28,0,200,29,0,200,30,0,200,31,0,201,32,0,200,194,0,621,195,0,621,196,0,620,199,0,600*5B
$PAIRSAT,2,23,65,0,200,66,0,200,67,0,200,68,0,200,70,0,200,71,0,200,72,0,200,73,0,200,74,0,200,75,0,200,76,0,200,77,0,201,78,0,201,79,0,201,80,0,200,81,0,201,82,0,200,83,0,200,84,0,200,85,0,200,86,0,200,87,0,201,88,0,201*5C
$PAIRSAT,3,23,2,0,1200,3,0,1200,4,0,1200,5,0,200,7,0,1200,8,0,1200,9,0,1200,10,0,1200,11,0,1200,12,0,1200,13,0,1221,15,0,1221,19,0,1221,21,0,1221,24,0,1200,25,0,1200,26,0,1221,27,0,1221,30,0,1200,31,0,1200,33,0,1200,34,0,1200,36,0,1200*6A
$PAIRSAT,4,46,1,0,200,2,0,200,3,0,600,4,0,200,5,0,200,6,0,201,7,0,201,8,0,200,9,0,201,10,0,201,11,0,201,12,0,200,13,0,200,14,0,200,16,0,201,19,0,600,20,0,600,21,0,600,22,0,600,23,0,621,24,0,600,25,0,621,26,0,600,27,0,600,28,0,621,29,0,600,30,0,600,32,0,600,33,0,600,34,0,621,35,0,600,36,0,600,37,0,600,38,0,600,39,0,621,40,0,421,41,0,600,42,0,600,43,0,621,44,0,600,45,0,600,46,0,600,59,0,400,60,0,400,61,0,400,62,0,400*48
$PAIRDGP,8,2,4,7,8,9,16,21,27*7C
$GNGGA,033138.100,2500.7990066,N,12132.4853839,E,4,57,0.47,16.674,M,15.25,M,1,3335*40
$GNRMC,033138.100,A,2500.7990066,N,12132.4853839,E,0.03,332.71,090324,,,R,V*12
$GPHDT,,T*1B
$GNACCURACY,4.2*10
$GNGGA,033138.200,2500.7990084,N,12132.4853868,E,4,57,0.47,16.678,M,15.25,M,1,3335*47
$GNRMC,033138.200,A,2500.7990084,N,12132.4853868,E,0.03,332.71,090324,,,R,V*19
$GPHDT,200.054,T*36
$GNACCURACY,4.3*11
$GNGGA,033138.300,2500.7990071,N,12132.4853873,E,4,57,0.47,16.681,M,15.25,M,1,3335*40
$GNRMC,033138.300,A,2500.7990071,N,12132.4853873,E,0.03,332.71,090324,,,R,V*18
$GPHDT,,T*1B
$GNACCURACY,4.2*10
$GNGGA,033138.400,2500.7990104,N,12132.4853920,E,4,57,0.47,16.689,M,15.25,M,1,3335*4B
$GNRMC,033138.400,A,2500.7990104,N,12132.4853920,E,0.01,332.71,090324,,,R,V*19
$GPHDT,199.801,T*3D
$GNACCURACY,4.2*10
$GNGGA,033138.500,2500.7990049,N,12132.4853870,E,4,57,0.47,16.698,M,15.25,M,0,3335*47
$GNRMC,033138.500,A,2500.7990049,N,12132.4853870,E,0.03,332.71,090324,,,R,V*16
$GPHDT,,T*1B
$GNACCURACY,4.2*10
$GNGGA,033138.600,2500.7989992,N,12132.4853855,E,4,57,0.47,16.727,M,15.25,M,0,3335*41
$GNRMC,033138.600,A,2500.7989992,N,12132.4853855,E,0.11,332.71,090324,,,R,V*16
$GPHDT,199.807,T*3B
$GNACCURACY,4.2*10
$GNGGA,033138.700,2500.7989993,N,12132.4853853,E,4,57,0.47,16.719,M,15.25,M,0,3335*4A
$GNRMC,033138.700,A,2500.7989993,N,12132.4853853,E,0.06,332.71,090324,,,R,V*16
$GPHDT,,T*1B
$GNACCURACY,4.2*10
$GNGGA,033138.800,2500.7989992,N,12132.4853835,E,4,56,0.47,16.731,M,15.25,M,0,3335*4F
$GNRMC,033138.800,A,2500.7989992,N,12132.4853835,E,0.04,332.71,090324,,,R,V*1A
$GPHDT,199.455,T*30
$GNACCURACY,4.2*10
$GNGGA,033138.900,2500.7989983,N,12132.4853870,E,4,56,0.47,16.730,M,15.25,M,0,3335*4E
$GNRMC,033138.900,A,2500.7989983,N,12132.4853870,E,0.07,332.71,090324,,,R,V*19
$GPHDT,,T*1B
$GNACCURACY,4.2*10
$GNGGA,033139.000,2500.7989979,N,12132.4853827,E,4,56,0.47,16.725,M,15.25,M,1,3335*44
$GNRMC,033139.000,A,2500.7989979,N,12132.4853827,E,0.02,332.71,090324,,,R,V*13
$GPHDT,199.293,T*3C
$GNGSA,A,3,08,194,195,27,21,04,02,09,07,196,26,31,0.75,0.47,0.58,1*32
$GNGSA,A,3,88,78,81,77,87,79,,,,,,,0.75,0.47,0.58,2*09
$GNGSA,A,3,13,21,19,27,26,15,,,,,,,0.75,0.47,0.58,3*03
$GNGSA,A,3,06,16,09,43,39,40,07,23,10,11,25,28,0.75,0.47,0.58,4*03
$GNGSA,A,3,34,,,,,,,,,,,,0.75,0.47,0.58,4*0F
$GPGSV,4,1,15,08,72,311,41,194,63,047,42,199,63,167,,195,58,122,43,1*50
$GPGSV,4,2,15,27,48,028,41,45,47,231,32,21,41,168,29,16,34,057,24,1*65
$GPGSV,4,3,15,04,31,215,29,02,30,181,37,09,30,265,19,07,27,320,39,1*6B
$GPGSV,4,4,15,196,21,173,31,26,16,085,20,31,14,138,43,1*6C
$GPGSV,2,1,08,08,72,311,47,194,63,047,43,195,58,122,45,27,48,028,43,8*62
$GPGSV,2,2,08,04,31,215,33,09,30,265,25,196,21,173,36,26,16,085,29,8*51
$GLGSV,2,1,06,88,71,067,41,78,47,008,38,81,43,189,36,77,32,089,19,1*73
$GLGSV,2,2,06,87,19,029,16,79,13,321,30,1*7A
$GAGSV,2,1,07,13,51,106,39,21,51,351,38,19,36,256,19,27,33,064,27,7*71
$GAGSV,2,2,07,26,29,174,24,15,22,048,24,04,10,311,24,7*41
$GAGSV,1,1,04,21,51,351,41,13,51,106,42,27,33,064,29,26,29,174,36,1*77
$GBGSV,4,1,13,06,81,223,41,16,78,191,38,09,75,297,41,43,73,057,42,1*77
$GBGSV,4,2,13,39,67,178,42,40,65,317,42,07,62,295,42,23,62,358,42,1*73
$GBGSV,4,3,13,10,52,278,30,11,47,044,43,25,46,098,42,28,40,209,30,1*7B
$GBGSV,4,4,13,34,24,040,38,1*4A
$GBGSV,2,1,07,43,73,057,44,39,67,178,45,40,65,317,41,23,62,358,26,4*7A
$GBGSV,2,2,07,25,46,098,35,28,40,209,29,34,24,040,33,4*4D
$GNACCURACY,4.3*11
$PAIRSAT,1,35,2,0,201,3,0,200,4,0,221,5,0,200,6,0,200,7,0,201,8,0,221,9,0,221,10,0,200,11,0,200,12,0,200,13,0,200,14,0,200,15,0,200,16,0,201,17,0,200,18,0,200,19,0,200,20,0,200,21,0,201,22,0,200,23,0,200,24,0,200,25,0,200,26,0,221,27,0,221,28,0,200,29,0,200,30,0,200,31,0,201,32,0,200,194,0,621,195,0,621,196,0,620,199,0,600*5B
$PAIRSAT,2,23,65,0,200,66,0,200,67,0,200,68,0,200,70,0,200,71,0,200,72,0,200,73,0,200,74,0,200,75,0,200,76,0,200,77,0,201,78,0,201,79,0,201,80,0,200,81,0,201,82,0,200,83,0,200,84,0,200,85,0,200,86,0,200,87,0,201,88,0,201*5C
$PAIRSAT,3,23,2,0,1200,3,0,1200,4,0,1200,5,0,200,7,0,1200,8,0,1200,9,0,1200,10,0,1200,11,0,1200,12,0,1200,13,0,1221,15,0,1221,19,0,1221,21,0,1221,24,0,1200,25,0,1200,26,0,1221,27,0,1221,30,0,1200,31,0,1200,33,0,1200,34,0,1200,36,0,1200*6A
$PAIRSAT,4,46,1,0,200,2,0,200,3,0,600,4,0,200,5,0,200,6,0,201,7,0,201,8,0,200,9,0,201,10,0,201,11,0,201,12,0,200,13,0,200,14,0,200,16,0,201,19,0,600,20,0,600,21,0,600,22,0,600,23,0,621,24,0,600,25,0,621,26,0,600,27,0,600,28,0,621,29,0,600,30,0,600,32,0,600,33,0,600,34,0,621,35,0,600,36,0,600,37,0,600,38,0,600,39,0,621,40,0,421,41,0,600,42,0,600,43,0,621,44,0,600,45,0,600,46,0,600,59,0,400,60,0,400,61,0,400,62,0,400*48
$PAIRDGP,8,2,4,7,8,9,16,21,27*7C
$GNGGA,033139.100,2500.7989973,N,12132.4853789,E,4,56,0.47,16.721,M,15.25,M,1,3335*40
$GNRMC,033139.100,A,2500.7989973,N,12132.4853789,E,0.08,332.71,090324,,,R,V*19
$GPHDT,,T*1B
$GNACCURACY,4.3*11
$GNGGA,033139.200,2500.7989970,N,12132.4853776,E,4,57,0.47,16.715,M,15.25,M,1,3335*46
$GNRMC,033139.200,A,2500.7989970,N,12132.4853776,E,0.09,332.71,090324,,,R,V*18
$GPHDT,197.866,T*32
$GNACCURACY,4.3*11
$GNGGA,033139.300,2500.7989993,N,12132.4853817,E,4,57,0.47,16.709,M,15.25,M,1,3335*4F
$GNRMC,033139.300,A,2500.7989993,N,12132.4853817,E,0.04,332.71,090324,,,R,V*11
$GPHDT,,T*1B
$GNACCURACY,4.3*11
$GNGGA,033139.400,2500.7989967,N,12132.4853768,E,4,57,0.47,16.711,M,15.25,M,1,3335*4D
$GNRMC,033139.400,A,2500.7989967,N,12132.4853768,E,0.04,332.71,090324,,,R,V*1A
$GPHDT,197.726,T*39
$GNACCURACY,4.3*11
$GNGGA,033139.500,2500.7989987,N,12132.4853820,E,4,57,0.47,16.720,M,15.25,M,0,3335*42
$GNRMC,033139.500,A,2500.7989987,N,12132.4853820,E,0.02,332.71,090324,,,R,V*10
$GPHDT,,T*1B
$GNACCURACY,4.3*11
$GNGGA,033139.600,2500.7989984,N,12132.4853843,E,4,57,0.47,16.729,M,15.25,M,0,3335*4E
$GNRMC,033139.600,A,2500.7989984,N,12132.4853843,E,0.07,332.71,090324,,,R,V*10
$GPHDT,198.267,T*36
$GNACCURACY,4.3*11
$GNGGA,033139.700,2500.7989971,N,12132.4853806,E,4,57,0.47,16.726,M,15.25,M,0,3335*4B
$GNRMC,033139.700,A,2500.7989971,N,12132.4853806,E,0.08,332.71,090324,,,R,V*15
$GPHDT,,T*1B
$GNACCURACY,4.3*11
$GNGGA,033139.800,2500.7989992,N,12132.4853846,E,4,57,0.47,16.736,M,15.25,M,0,3335*4C
$GNRMC,033139.800,A,2500.7989992,N,12132.4853846,E,0.04,332.71,090324,,,R,V*1F
$GPHDT,198.504,T*34
$GNACCURACY,4.3*11
$GNGGA,033139.900,2500.7990000,N,12132.4853852,E,4,57,0.47,16.732,M,15.25,M,0,3335*46
$GNRMC,033139.900,A,2500.7990000,N,12132.4853852,E,0.00,332.71,090324,,,R,V*15
$GPHDT,,T*1B
$GNACCURACY,4.3*11
$GNGGA,033140.000,2500.7990007,N,12132.4853865,E,4,57,0.47,16.734,M,15.25,M,1,3335*45
$GNRMC,033140.000,A,2500.7990007,N,12132.4853865,E,0.06,332.71,090324,,,R,V*17
$GPHDT,198.711,T*32
$GNGSA,A,3,08,194,195,27,21,16,04,02,09,07,196,26,0.75,0.47,0.58,1*37
$GNGSA,A,3,31,,,,,,,,,,,,0.75,0.47,0.58,1*0F
$GNGSA,A,3,88,78,81,77,87,79,,,,,,,0.75,0.47,0.58,2*09
$GNGSA,A,3,13,21,19,27,26,15,,,,,,,0.75,0.47,0.58,3*03
$GNGSA,A,3,06,16,09,43,39,40,07,23,10,11,25,28,0.75,0.47,0.58,4*03
$GNGSA,A,3,34,,,,,,,,,,,,0.75,0.47,0.58,4*0F
$GPGSV,4,1,15,08,72,311,42,194,63,047,42,199,63,167,,195,58,122,43,1*53
$GPGSV,4,2,15,27,48,028,41,45,47,231,33,21,41,168,29,16,34,057,23,1*63
$GPGSV,4,3,15,04,31,215,29,02,30,181,37,09,30,265,18,07,27,320,39,1*6A
$GPGSV,4,4,15,196,21,173,30,26,16,085,20,31,14,138,43,1*6D
$GPGSV,2,1,08,08,72,311,47,194,63,047,45,195,58,122,46,27,48,028,43,8*67
$GPGSV,2,2,08,04,31,215,34,09,30,265,27,196,21,173,37,26,16,085,28,8*54
$GLGSV,2,1,06,88,71,067,41,78,47,008,39,81,43,189,35,77,32,089,20,1*7B
$GLGSV,2,2,06,87,19,029,16,79,13,321,29,1*72
$GAGSV,2,1,07,13,51,106,40,21,51,351,38,19,36,256,19,27,33,064,27,7*7F
$GAGSV,2,2,07,26,29,174,21,15,22,048,24,04,10,311,25,7*45
$GAGSV,1,1,04,21,51,351,41,13,51,106,43,27,33,064,30,26,29,174,37,1*7F
$GBGSV,4,1,13,06,81,223,41,16,78,191,38,09,75,297,41,43,73,057,41,1*74
$GBGSV,4,2,13,39,67,178,42,40,65,317,42,07,62,295,42,23,62,358,42,1*73
$GBGSV,4,3,13,10,52,278,31,11,47,044,42,25,46,098,42,28,41,209,28,1*73
$GBGSV,4,4,13,34,24,040,38,1*4A
$GBGSV,2,1,07,43,73,057,44,39,67,178,45,40,65,317,41,23,62,358,23,4*7F
$GBGSV,2,2,07,25,46,098,36,28,41,209,29,34,24,040,34,4*48
$GNACCURACY,4.3*11
$PAIRSAT,1,35,2,0,201,3,0,200,4,0,221,5,0,200,6,0,200,7,0,201,8,0,221,9,0,221,10,0,200,11,0,200,12,0,200,13,0,200,14,0,200,15,0,200,16,0,201,17,0,200,18,0,200,19,0,200,20,0,200,21,0,201,22,0,200,23,0,200,24,0,200,25,0,200,26,0,221,27,0,221,28,0,200,29,0,200,30,0,200,31,0,201,32,0,200,194,0,621,195,0,621,196,0,620,199,0,600*5B
$PAIRSAT,2,23,65,0,200,66,0,200,67,0,200,68,0,200,70,0,200,71,0,200,72,0,200,73,0,200,74,0,200,75,0,200,76,0,200,77,0,201,78,0,201,79,0,201,80,0,200,81,0,201,82,0,200,83,0,200,84,0,200,85,0,200,86,0,200,87,0,201,88,0,201*5C
$PAIRSAT,3,23,2,0,1200,3,0,1200,4,0,1200,5,0,200,7,0,1200,8,0,1200,9,0,1200,10,0,1200,11,0,1200,12,0,1200,13,0,1221,15,0,1221,19,0,1221,21,0,1221,24,0,1200,25,0,1200,26,0,1221,27,0,1221,30,0,1200,31,0,1200,33,0,1200,34,0,1200,36,0,1200*6A
$PAIRSAT,4,46,1,0,200,2,0,200,3,0,600,4,0,200,5,0,200,6,0,201,7,0,201,8,0,200,9,0,201,10,0,201,11,0,201,12,0,200,13,0,200,14,0,200,16,0,201,19,0,600,20,0,600,21,0,600,22,0,600,23,0,621,24,0,600,25,0,621,26,0,600,27,0,600,28,0,621,29,0,600,30,0,600,32,0,600,33,0,600,34,0,621,35,0,600,36,0,600,37,0,600,38,0,600,39,0,621,40,0,421,41,0,600,42,0,600,43,0,621,44,0,600,45,0,600,46,0,600,59,0,400,60,0,400,61,0,400,62,0,400*48
$PAIRDGP,8,2,4,7,8,9,16,21,27*7C
$GNGGA,033140.100,2500.7989993,N,12132.4853862,E,4,57,0.47,16.729,M,15.25,M,1,3335*43
$GNRMC,033140.100,A,2500.7989993,N,12132.4853862,E,0.02,332.71,090324,,,R,V*19
$GPHDT,,T*1B
$GNACCURACY,4.3*11
$GNGGA,033140.200,2500.7990018,N,12132.4853881,E,4,57,0.47,16.726,M,15.25,M,1,3335*40
$GNRMC,033140.200,A,2500.7990018,N,12132.4853881,E,0.03,332.71,090324,,,R,V*14
$GPHDT,199.442,T*36
$GNACCURACY,4.3*11
$GNGGA,033140.300,2500.7989986,N,12132.4853883,E,4,57,0.47,16.728,M,15.25,M,1,3335*4B
$GNRMC,033140.300,A,2500.7989986,N,12132.4853883,E,0.00,332.71,090324,,,R,V*12
$GPHDT,,T*1B
$GNACCURACY,4.3*11
$GNGGA,033140.400,2500.7990000,N,12132.4853832,E,4,57,0.47,16.721,M,15.25,M,0,3335*41
$GNRMC,033140.400,A,2500.7990000,N,12132.4853832,E,0.06,332.71,090324,,,R,V*16
$GPHDT,199.123,T*34
$GNACCURACY,4.3*11
$GNGGA,033140.500,2500.7989980,N,12132.4853853,E,4,57,0.47,16.729,M,15.25,M,0,3335*46
$GNRMC,033140.500,A,2500.7989980,N,12132.4853853,E,0.05,332.71,090324,,,R,V*1A
$GPHDT,,T*1B
$GNACCURACY,4.3*11
$GNGGA,033140.600,2500.7989992,N,12132.4853844,E,4,57,0.47,16.724,M,15.25,M,0,3335*4D
$GNRMC,033140.600,A,2500.7989992,N,12132.4853844,E,0.03,332.71,090324,,,R,V*1A
$GPHDT,199.399,T*37
$GNACCURACY,4.3*11
$GNGGA,033140.700,2500.7989976,N,12132.4853805,E,4,57,0.47,16.726,M,15.25,M,0,3335*41
$GNRMC,033140.700,A,2500.7989976,N,12132.4853805,E,0.05,332.71,090324,,,R,V*12
$GPHDT,,T*1B
$GNACCURACY,4.3*11
$GNGGA,033140.800,2500.7989964,N,12132.4853820,E,4,57,0.47,16.724,M,15.25,M,0,3335*48
$GNRMC,033140.800,A,2500.7989964,N,12132.4853820,E,0.09,332.71,090324,,,R,V*15
$GPHDT,198.945,T*3D
$GNACCURACY,4.3*11
$GNGGA,033140.900,2500.7989959,N,12132.4853836,E,4,57,0.47,16.718,M,15.25,M,0,3335*4F
$GNRMC,033140.900,A,2500.7989959,N,12132.4853836,E,0.01,332.71,090324,,,R,V*15
$GPHDT,,T*1B
$GNACCURACY,4.3*11
$GNGGA,033141.000,2500.7989976,N,12132.4853823,E,4,57,0.47,16.717,M,15.25,M,1,3335*40
$GNRMC,033141.000,A,2500.7989976,N,12132.4853823,E,0.02,332.71,090324,,,R,V*17
$GPHDT,198.135,T*32
$GNGSA,A,3,08,194,195,27,21,16,04,02,09,07,196,26,0.75,0.47,0.58,1*37
$GNGSA,A,3,31,,,,,,,,,,,,0.75,0.47,0.58,1*0F
$GNGSA,A,3,88,78,81,77,87,79,,,,,,,0.75,0.47,0.58,2*09
$GNGSA,A,3,13,21,19,27,26,15,,,,,,,0.75,0.47,0.58,3*03
$GNGSA,A,3,06,16,09,43,39,40,07,23,10,11,25,28,0.75,0.47,0.58,4*03
$GNGSA,A,3,34,,,,,,,,,,,,0.75,0.47,0.58,4*0F
$GPGSV,4,1,15,08,72,311,42,194,63,047,42,199,63,167,,195,58,122,43,1*53
$GPGSV,4,2,15,27,48,028,41,45,47,231,33,21,41,168,29,16,34,057,22,1*62
$GPGSV,4,3,15,04,31,215,29,02,30,181,38,09,30,265,19,07,27,320,39,1*64
$GPGSV,4,4,15,196,21,173,30,26,16,085,21,31,14,138,43,1*6C
$GPGSV,2,1,08,08,72,311,46,194,63,047,45,195,58,122,46,27,48,028,43,8*66
$GPGSV,2,2,08,04,31,215,33,09,30,265,28,196,21,173,37,26,16,085,26,8*52
$GLGSV,2,1,06,88,71,067,41,78,47,008,40,81,43,189,35,77,32,089,21,1*74
$GLGSV,2,2,06,87,19,029,17,79,13,321,29,1*73
$GAGSV,2,1,07,13,51,106,40,21,51,351,37,19,36,256,21,27,33,064,25,7*79
$GAGSV,2,2,07,26,29,174,21,15,22,048,25,04,10,311,24,7*45
$GAGSV,1,1,04,21,51,351,41,13,51,106,43,27,33,064,29,26,29,174,37,1*77
$GBGSV,4,1,13,06,81,223,41,16,78,191,38,09,75,297,41,43,73,057,42,1*77
$GBGSV,4,2,13,39,67,178,42,40,65,317,42,07,62,295,42,23,62,358,42,1*73
$GBGSV,4,3,13,10,52,278,32,11,47,044,44,25,46,098,42,28,41,209,28,1*76
$GBGSV,4,4,13,34,24,040,38,1*4A
$GBGSV,2,1,07,43,73,057,44,39,67,178,45,40,65,317,41,23,62,358,26,4*7A
$GBGSV,2,2,07,25,46,098,36,28,41,209,27,34,24,040,33,4*41
$GNACCURACY,4.3*11
$PAIRSAT,1,35,2,0,201,3,0,200,4,0,221,5,0,200,6,0,200,7,0,201,8,0,221,9,0,221,10,0,200,11,0,200,12,0,200,13,0,200,14,0,200,15,0,200,16,0,201,17,0,200,18,0,200,19,0,200,20,0,200,21,0,201,22,0,200,23,0,200,24,0,200,25,0,200,26,0,221,27,0,221,28,0,200,29,0,200,30,0,200,31,0,201,32,0,200,194,0,621,195,0,621,196,0,620,199,0,600*5B
$PAIRSAT,2,23,65,0,200,66,0,200,67,0,200,68,0,200,70,0,200,71,0,200,72,0,200,73,0,200,74,0,200,75,0,200,76,0,200,77,0,201,78,0,201,79,0,201,80,0,200,81,0,201,82,0,200,83,0,200,84,0,200,85,0,200,86,0,200,87,0,201,88,0,201*5C
$PAIRSAT,3,23,2,0,1200,3,0,1200,4,0,1200,5,0,200,7,0,1200,8,0,1200,9,0,1200,10,0,1200,11,0,1200,12,0,1200,13,0,1221,15,0,1221,19,0,1221,21,0,1221,24,0,1200,25,0,1200,26,0,1221,27,0,1221,30,0,1200,31,0,1200,33,0,1200,34,0,1200,36,0,1200*6A
$PAIRSAT,4,46,1,0,200,2,0,200,3,0,600,4,0,200,5,0,200,6,0,201,7,0,201,8,0,200,9,0,201,10,0,201,11,0,201,12,0,200,13,0,200,14,0,200,16,0,201,19,0,600,20,0,600,21,0,600,22,0,600,23,0,621,24,0,600,25,0,621,26,0,600,27,0,600,28,0,621,29,0,600,30,0,600,32,0,600,33,0,600,34,0,621,35,0,600,36,0,600,37,0,600,38,0,600,39,0,621,40,0,421,41,0,600,42,0,600,43,0,621,44,0,600,45,0,600,46,0,600,59,0,400,60,0,400,61,0,400,62,0,400*48
$PAIRDGP,8,2,4,7,8,9,16,21,27*7C
$GNGGA,033141.100,2500.7989950,N,12132.4853788,E,4,57,0.47,16.704,M,15.25,M,1,3335*49
$GNRMC,033141.100,A,2500.7989950,N,12132.4853788,E,0.03,332.71,090324,,,R,V*1D
$GPHDT,,T*1B
$GNACCURACY,4.3*11
$GNGGA,033141.200,2500.7989974,N,12132.4853820,E,4,57,0.47,16.713,M,15.25,M,1,3335*47
$GNRMC,033141.200,A,2500.7989974,N,12132.4853820,E,0.02,332.71,090324,,,R,V*14
$GPHDT,197.933,T*33
$GNACCURACY,4.3*11
$GNGGA,033141.300,2500.7989962,N,12132.4853808,E,4,57,0.47,16.709,M,15.25,M,1,3335*40
$GNRMC,033141.300,A,2500.7989962,N,12132.4853808,E,0.01,332.71,090324,,,R,V*1B
$GPHDT,,T*1B
$GNACCURACY,4.3*11
$GNGGA,033141.400,2500.7989952,N,12132.4853829,E,4,57,0.47,16.709,M,15.25,M,1,3335*47
$GNRMC,033141.400,A,2500.7989952,N,12132.4853829,E,0.01,332.71,090324,,,R,V*1C
$GPHDT,198.013,T*37
$GNACCURACY,4.3*11
$GNGGA,033141.500,2500.7989953,N,12132.4853836,E,4,57,0.47,16.715,M,15.25,M,1,3335*44
$GNRMC,033141.500,A,2500.7989953,N,12132.4853836,E,0.02,332.71,090324,,,R,V*11
$GPHDT,,T*1B
$GNACCURACY,4.2*10
$GNGGA,033141.600,2500.7989947,N,12132.4853840,E,4,57,0.47,16.711,M,15.25,M,1,3335*47
$GNRMC,033141.600,A,2500.7989947,N,12132.4853840,E,0.04,332.71,090324,,,R,V*10
$GPHDT,198.128,T*3E
$GNACCURACY,4.2*10
$GNGGA,033141.700,2500.7989946,N,12132.4853843,E,4,57,0.47,16.712,M,15.25,M,0,3335*46
$GNRMC,033141.700,A,2500.7989946,N,12132.4853843,E,0.02,332.71,090324,,,R,V*15
$GPHDT,,T*1B
$GNACCURACY,4.2*10
$GNGGA,033141.800,2500.7989983,N,12132.4853868,E,4,57,0.47,16.717,M,15.25,M,0,3335*4C
$GNRMC,033141.800,A,2500.7989983,N,12132.4853868,E,0.13,332.71,090324,,,R,V*1A
$GPHDT,198.000,T*35
$GNACCURACY,4.3*11
$GNGGA,033141.900,2500.7989980,N,12132.4853851,E,4,58,0.47,16.704,M,15.25,M,0,3335*49
$GNRMC,033141.900,A,2500.7989980,N,12132.4853851,E,0.05,332.71,090324,,,R,V*15
$GPHDT,,T*1B
$GNACCURACY,4.3*11
$GNGGA,033142.000,2500.7989973,N,12132.4853848,E,4,58,0.47,16.709,M,15.25,M,1,3335*4B
$GNRMC,033142.000,A,2500.7989973,N,12132.4853848,E,0.05,332.71,090324,,,R,V*1B
$GPHDT,197.847,T*31
$GNGSA,A,3,08,194,195,27,21,16,04,02,09,07,196,26,0.75,0.47,0.58,1*37
$GNGSA,A,3,31,,,,,,,,,,,,0.75,0.47,0.58,1*0F
$GNGSA,A,3,88,78,81,77,87,79,,,,,,,0.75,0.47,0.58,2*09
$GNGSA,A,3,13,21,19,27,26,15,,,,,,,0.75,0.47,0.58,3*03
$GNGSA,A,3,06,16,09,43,39,40,23,07,10,11,25,28,0.75,0.47,0.58,4*03
$GNGSA,A,3,34,,,,,,,,,,,,0.75,0.47,0.58,4*0F
$GPGSV,4,1,15,08,72,311,42,194,63,047,42,199,63,167,,195,58,122,43,1*53
$GPGSV,4,2,15,27,48,028,41,45,47,231,34,21,41,168,31,16,34,057,21,1*6F
$GPGSV,4,3,15,04,31,215,30,02,30,181,38,09,30,265,21,07,27,320,39,1*67
$GPGSV,4,4,15,196,21,173,30,26,16,085,24,31,14,138,43,1*69
$GPGSV,2,1,08,08,72,311,47,194,63,047,45,195,58,122,46,27,48,028,43,8*67
$GPGSV,2,2,08,04,31,215,32,09,30,265,27,196,21,173,37,26,16,085,28,8*52
$GLGSV,2,1,07,88,71,067,41,78,47,008,38,81,43,189,35,77,32,089,22,1*79
$GLGSV,2,2,07,87,19,029,18,79,13,321,28,68,12,252,,1*44
$GAGSV,2,1,07,13,51,106,40,21,51,351,38,19,36,256,20,27,33,064,26,7*74
$GAGSV,2,2,07,26,29,174,20,15,22,048,24,04,10,311,25,7*44
$GAGSV,2,1,05,13,51,106,43,21,51,351,41,27,33,064,31,26,29,174,37,1*7C
$GAGSV,2,2,05,15,22,048,20,1*4A
$GBGSV,4,1,13,06,81,223,41,16,78,191,38,09,75,297,41,43,73,057,41,1*74
$GBGSV,4,2,13,39,67,178,42,40,65,317,42,23,62,358,42,07,62,295,42,1*73
$GBGSV,4,3,13,10,52,278,32,11,47,044,41,25,46,098,41,28,41,209,29,1*71
$GBGSV,4,4,13,34,24,040,39,1*4B
$GBGSV,2,1,07,43,73,057,45,39,67,178,45,40,65,317,42,23,62,358,23,4*7D
$GBGSV,2,2,07,25,46,098,34,28,41,209,29,34,24,040,35,4*4B
$GNACCURACY,4.3*11
$PAIRSAT,1,35,2,0,201,3,0,200,4,0,221,5,0,200,6,0,200,7,0,201,8,0,221,9,0,221,10,0,200,11,0,200,12,0,200,13,0,200,14,0,200,15,0,200,16,0,201,17,0,200,18,0,200,19,0,200,20,0,200,21,0,201,22,0,200,23,0,200,24,0,200,25,0,200,26,0,221,27,0,221,28,0,200,29,0,200,30,0,200,31,0,201,32,0,200,194,0,621,195,0,621,196,0,620,199,0,600*5B
$PAIRSAT,2,23,65,0,200,66,0,200,67,0,200,68,0,200,70,0,200,71,0,200,72,0,200,73,0,200,74,0,200,75,0,200,76,0,200,77,0,201,78,0,201,79,0,201,80,0,200,81,0,201,82,0,200,83,0,200,84,0,200,85,0,200,86,0,200,87,0,201,88,0,201*5C
$PAIRSAT,3,23,2,0,1200,3,0,1200,4,0,1200,5,0,200,7,0,1200,8,0,1200,9,0,1200,10,0,1200,11,0,1200,12,0,1200,13,0,1221,15,0,1221,19,0,1221,21,0,1221,24,0,1200,25,0,1200,26,0,1221,27,0,1221,30,0,1200,31,0,1200,33,0,1200,34,0,1200,36,0,1200*6A
$PAIRSAT,4,46,1,0,200,2,0,200,3,0,600,4,0,200,5,0,200,6,0,201,7,0,201,8,0,200,9,0,201,10,0,201,11,0,201,12,0,200,13,0,200,14,0,200,16,0,201,19,0,600,20,0,600,21,0,600,22,0,600,23,0,621,24,0,600,25,0,621,26,0,600,27,0,600,28,0,621,29,0,600,30,0,600,32,0,600,33,0,600,34,0,621,35,0,600,36,0,600,37,0,600,38,0,600,39,0,621,40,0,421,41,0,600,42,0,600,43,0,621,44,0,600,45,0,600,46,0,600,59,0,400,60,0,400,61,0,400,62,0,400*48
$PAIRDGP,8,2,4,7,8,9,16,21,27*7C
$GNGGA,033142.100,2500.7989973,N,12132.4853842,E,4,58,0.47,16.695,M,15.25,M,1,3335*44
$GNRMC,033142.100,A,2500.7989973,N,12132.4853842,E,0.05,332.71,090324,,,R,V*10
$GPHDT,,T*1B
$GNACCURACY,4.3*11
$GNGGA,033142.200,2500.7989984,N,12132.4853859,E,4,58,0.47,16.711,M,15.25,M,1,3335*48
$GNRMC,033142.200,A,2500.7989984,N,12132.4853859,E,0.04,332.71,090324,,,R,V*10
$GPHDT,198.023,T*34
$GNACCURACY,4.3*11
$GNGGA,033142.300,2500.7989972,N,12132.4853862,E,4,58,0.47,16.706,M,15.25,M,1,3335*4E
$GNRMC,033142.300,A,2500.7989972,N,12132.4853862,E,0.02,332.71,090324,,,R,V*16
$GPHDT,,T*1B
$GNACCURACY,4.3*11
$GNGGA,033142.400,2500.7989974,N,12132.4853858,E,4,58,0.47,16.711,M,15.25,M,1,3335*40
$GNRMC,033142.400,A,2500.7989974,N,12132.4853858,E,0.02,332.71,090324,,,R,V*1E
$GPHDT,197.747,T*3E
$GNACCURACY,4.3*11
$GNGGA,033142.500,2500.7989965,N,12132.4853840,E,4,58,0.47,16.708,M,15.25,M,1,3335*40
$GNRMC,033142.500,A,2500.7989965,N,12132.4853840,E,0.01,332.71,090324,,,R,V*15
$GPHDT,,T*1B
$GNACCURACY,4.3*11
$GNGGA,033142.600,2500.7989964,N,12132.4853849,E,4,58,0.47,16.712,M,15.25,M,1,3335*40
$GNRMC,033142.600,A,2500.7989964,N,12132.4853849,E,0.07,332.71,090324,,,R,V*18
$GPHDT,197.895,T*3E
$GNACCURACY,4.3*11
$GNGGA,033142.700,2500.7989965,N,12132.4853846,E,4,58,0.47,16.709,M,15.25,M,1,3335*45
$GNRMC,033142.700,A,2500.7989965,N,12132.4853846,E,0.07,332.71,090324,,,R,V*17
$GPHDT,,T*1B
$GNACCURACY,4.3*11
$GNGGA,033142.800,2500.7989969,N,12132.4853846,E,4,58,0.47,16.717,M,15.25,M,0,3335*48
$GNRMC,033142.800,A,2500.7989969,N,12132.4853846,E,0.05,332.71,090324,,,R,V*16
$GPHDT,197.422,T*3E
$GNACCURACY,4.3*11
$GNGGA,033142.900,2500.7989973,N,12132.4853817,E,4,58,0.47,16.707,M,15.25,M,0,3335*47
$GNRMC,033142.900,A,2500.7989973,N,12132.4853817,E,0.02,332.71,090324,,,R,V*1F
$GPHDT,,T*1B
$GNACCURACY,4.3*11
$GNGGA,033143.000,2500.7989965,N,12132.4853821,E,4,58,0.47,16.711,M,15.25,M,1,3335*4B
$GNRMC,033143.000,A,2500.7989965,N,12132.4853821,E,0.01,332.71,090324,,,R,V*16
$GPHDT,197.575,T*3D
$GNGSA,A,3,08,194,195,27,21,16,04,02,09,07,196,26,0.75,0.47,0.58,1*37
$GNGSA,A,3,31,,,,,,,,,,,,0.75,0.47,0.58,1*0F
$GNGSA,A,3,88,78,81,77,87,79,,,,,,,0.75,0.47,0.58,2*09
$GNGSA,A,3,13,21,19,27,26,15,,,,,,,0.75,0.47,0.58,3*03
$GNGSA,A,3,06,16,09,43,39,40,07,23,10,11,25,28,0.75,0.47,0.58,4*03
$GNGSA,A,3,34,,,,,,,,,,,,0.75,0.47,0.58,4*0F
$GPGSV,4,1,15,08,72,311,42,194,63,047,42,199,63,167,,195,58,122,44,1*54
$GPGSV,4,2,15,27,48,028,41,45,47,231,33,21,41,168,31,16,34,057,20,1*69
$GPGSV,4,3,15,04,31,215,32,02,30,181,38,09,30,265,22,07,27,320,38,1*67
$GPGSV,4,4,15,196,21,173,29,26,16,085,26,31,14,138,42,1*62
$GPGSV,2,1,08,08,72,311,46,194,63,047,45,195,58,122,46,27,48,028,43,8*66
$GPGSV,2,2,08,04,31,215,32,09,30,265,25,196,21,173,37,26,16,085,27,8*5F
$GLGSV,2,1,07,88,71,067,41,78,47,008,39,81,43,189,35,77,32,089,23,1*79
$GLGSV,2,2,07,87,19,029,17,79,13,321,29,67,01,207,,1*47
$GAGSV,2,1,07,13,51,106,40,21,51,351,38,19,36,256,19,27,33,064,27,7*7F
$GAGSV,2,2,07,26,29,174,23,15,22,048,24,04,10,311,26,7*44
$GAGSV,2,1,05,13,51,106,43,21,51,351,41,27,33,064,30,26,29,174,36,1*7C
$GAGSV,2,2,05,15,22,048,23,1*49
$GBGSV,4,1,16,06,81,223,41,16,78,191,38,09,75,297,41,43,73,057,41,1*71
$GBGSV,4,2,16,39,67,178,42,40,65,317,42,07,62,295,42,23,62,358,42,1*76
$GBGSV,4,3,16,10,52,278,32,11,47,044,44,25,46,098,42,28,41,209,26,1*7D
$GBGSV,4,4,16,34,24,040,39,38,05,171,,32,04,255,,41,03,206,,1*72
$GBGSV,2,1,07,43,73,057,45,39,67,178,45,40,65,317,42,23,62,358,25,4*7B
$GBGSV,2,2,07,25,46,098,37,28,41,209,29,34,24,040,34,4*49
$GNACCURACY,4.3*11
$PAIRSAT,1,35,2,0,201,3,0,200,4,0,221,5,0,200,6,0,200,7,0,201,8,0,221,9,0,221,10,0,200,11,0,200,12,0,200,13,0,200,14,0,200,15,0,200,16,0,201,17,0,200,18,0,200,19,0,200,20,0,200,21,0,201,22,0,200,23,0,200,24,0,200,25,0,200,26,0,221,27,0,221,28,0,200,29,0,200,30,0,200,31,0,201,32,0,200,194,0,621,195,0,621,196,0,620,199,0,600*5B
$PAIRSAT,2,23,65,0,200,66,0,200,67,0,200,68,0,200,70,0,200,71,0,200,72,0,200,73,0,200,74,0,200,75,0,200,76,0,200,77,0,201,78,0,201,79,0,201,80,0,200,81,0,201,82,0,200,83,0,200,84,0,200,85,0,200,86,0,200,87,0,201,88,0,201*5C
$PAIRSAT,3,23,2,0,1200,3,0,1200,4,0,1200,5,0,200,7,0,1200,8,0,1200,9,0,1200,10,0,1200,11,0,1200,12,0,1200,13,0,1221,15,0,1221,19,0,1221,21,0,1221,24,0,1200,25,0,1200,26,0,1221,27,0,1221,30,0,1200,31,0,1200,33,0,1200,34,0,1200,36,0,1200*6A
$PAIRSAT,4,46,1,0,200,2,0,200,3,0,600,4,0,200,5,0,200,6,0,201,7,0,201,8,0,200,9,0,201,10,0,201,11,0,201,12,0,200,13,0,200,14,0,200,16,0,201,19,0,600,20,0,600,21,0,600,22,0,600,23,0,621,24,0,600,25,0,621,26,0,600,27,0,600,28,0,621,29,0,600,30,0,600,32,0,600,33,0,600,34,0,621,35,0,600,36,0,600,37,0,600,38,0,600,39,0,621,40,0,421,41,0,600,42,0,600,43,0,621,44,0,600,45,0,600,46,0,600,59,0,400,60,0,400,61,0,400,62,0,400*48
$PAIRDGP,8,2,4,7,8,9,16,21,27*7C
$GNGGA,033143.100,2500.7989962,N,12132.4853814,E,4,58,0.47,16.715,M,15.25,M,1,3335*4F
$GNRMC,033143.100,A,2500.7989962,N,12132.4853814,E,0.07,332.71,090324,,,R,V*10
$GPHDT,,T*1B
$GNACCURACY,4.3*11
$GNGGA,033143.200,2500.7989978,N,12132.4853806,E,4,58,0.47,16.708,M,15.25,M,1,3335*48
$GNRMC,033143.200,A,2500.7989978,N,12132.4853806,E,0.01,332.71,090324,,,R,V*1D
$GPHDT,197.329,T*32
$GNACCURACY,4.3*11
$GNGGA,033143.300,2500.7989954,N,12132.4853825,E,4,59,0.47,16.705,M,15.25,M,1,3335*4A
$GNRMC,033143.300,A,2500.7989954,N,12132.4853825,E,0.03,332.71,090324,,,R,V*11
$GPHDT,,T*1B
$GNACCURACY,4.3*11
$GNGGA,033143.400,2500.7989976,N,12132.4853855,E,4,59,0.47,16.717,M,15.25,M,1,3335*49
$GNRMC,033143.400,A,2500.7989976,N,12132.4853855,E,0.05,332.71,090324,,,R,V*17
$GPHDT,197.428,T*34
$GNACCURACY,4.3*11
$GNGGA,033143.500,2500.7989978,N,12132.4853854,E,4,59,0.47,16.721,M,15.25,M,0,3335*43
$GNRMC,033143.500,A,2500.7989978,N,12132.4853854,E,0.05,332.71,090324,,,R,V*19
$GPHDT,,T*1B
$GNACCURACY,4.3*11
$GNGGA,033143.600,2500.7989955,N,12132.4853841,E,4,59,0.47,16.710,M,15.25,M,0,3335*49
$GNRMC,033143.600,A,2500.7989955,N,12132.4853841,E,0.05,332.71,090324,,,R,V*11
$GPHDT,197.650,T*39
$GNACCURACY,4.3*11
$GNGGA,033143.700,2500.7989942,N,12132.4853812,E,4,59,0.47,16.711,M,15.25,M,0,3335*49
$GNRMC,033143.700,A,2500.7989942,N,12132.4853812,E,0.03,332.71,090324,,,R,V*16
$GPHDT,,T*1B
$GNACCURACY,4.3*11
$GNGGA,033143.800,2500.7989921,N,12132.4853838,E,4,59,0.47,16.711,M,15.25,M,0,3335*4B
$GNRMC,033143.800,A,2500.7989921,N,12132.4853838,E,0.14,332.71,090324,,,R,V*12
$GPHDT,197.929,T*38
$GNACCURACY,4.3*11
$GNGGA,033143.900,2500.7989941,N,12132.4853851,E,4,59,0.47,16.716,M,15.25,M,0,3335*44
$GNRMC,033143.900,A,2500.7989941,N,12132.4853851,E,0.05,332.71,090324,,,R,V*1A
$GPHDT,,T*1B
$GNACCURACY,4.3*11
$GNGGA,033144.000,2500.7989935,N,12132.4853852,E,4,59,0.47,16.722,M,15.25,M,1,3335*4C
$GNRMC,033144.000,A,2500.7989935,N,12132.4853852,E,0.06,332.71,090324,,,R,V*17
$GPHDT,197.990,T*3A
$GNGSA,A,3,08,194,195,27,21,16,04,02,09,07,196,26,0.75,0.47,0.58,1*37
$GNGSA,A,3,31,,,,,,,,,,,,0.75,0.47,0.58,1*0F
$GNGSA,A,3,88,78,81,77,87,79,,,,,,,0.75,0.47,0.58,2*09
$GNGSA,A,3,21,13,19,27,26,15,,,,,,,0.75,0.47,0.58,3*03
$GNGSA,A,3,06,16,09,43,39,40,23,07,10,11,25,28,0.75,0.47,0.58,4*03
$GNGSA,A,3,34,,,,,,,,,,,,0.75,0.47,0.58,4*0F
$GPGSV,4,1,15,08,72,312,42,194,63,047,42,199,63,167,,195,58,122,44,1*57
$GPGSV,4,2,15,27,48,028,40,45,47,231,33,21,41,168,32,16,34,057,20,1*6B
$GPGSV,4,3,15,04,30,215,28,02,30,181,37,09,30,265,23,07,27,320,38,1*63
$GPGSV,4,4,15,196,21,173,27,26,16,085,26,31,14,138,43,1*6D
$GPGSV,2,1,08,08,72,312,46,194,63,047,45,195,58,122,46,27,48,028,43,8*65
$GPGSV,2,2,08,09,30,265,25,04,30,215,32,196,21,173,37,26,16,085,26,8*5F
$GLGSV,2,1,08,88,71,067,41,78,47,008,41,81,43,189,34,77,32,089,22,1*79
$GLGSV,2,2,08,87,19,029,17,79,13,321,29,68,12,252,,67,01,207,,1*70
$GAGSV,2,1,07,21,51,351,38,13,51,106,39,19,36,256,19,27,33,064,26,7*70
$GAGSV,2,2,07,26,29,174,27,15,22,048,21,04,10,311,26,7*45
$GAGSV,2,1,06,13,51,106,42,21,51,351,41,19,36,256,23,27,33,064,32,1*79
$GAGSV,2,2,06,26,29,174,36,15,22,048,21,1*70
$GBGSV,4,1,14,06,81,223,41,16,78,191,39,09,75,297,41,43,73,057,41,1*72
$GBGSV,4,2,14,39,67,178,42,40,65,317,42,23,62,358,42,07,62,295,42,1*74
$GBGSV,4,3,14,10,52,278,30,11,47,044,43,25,46,098,36,28,41,209,33,1*7D
$GBGSV,4,4,14,34,24,040,39,41,03,206,,1*7E
$GBGSV,2,1,07,43,73,057,45,39,67,178,45,40,65,317,42,23,62,358,24,4*7A
$GBGSV,2,2,07,25,46,098,33,28,41,209,27,34,24,040,34,4*43
$GNACCURACY,4.3*11
$PAIRSAT,1,35,2,0,201,3,0,200,4,0,221,5,0,200,6,0,200,7,0,201,8,0,221,9,0,221,10,0,200,11,0,200,12,0,200,13,0,200,14,0,200,15,0,200,16,0,201,17,0,200,18,0,200,19,0,200,20,0,200,21,0,201,22,0,200,23,0,200,24,0,200,25,0,200,26,0,221,27,0,221,28,0,200,29,0,200,30,0,200,31,0,201,32,0,200,194,0,621,195,0,621,196,0,620,199,0,600*5B
$PAIRSAT,2,23,65,0,200,66,0,200,67,0,200,68,0,200,70,0,200,71,0,200,72,0,200,73,0,200,74,0,200,75,0,200,76,0,200,77,0,201,78,0,201,79,0,201,80,0,200,81,0,201,82,0,200,83,0,200,84,0,200,85,0,200,86,0,200,87,0,201,88,0,201*5C
$PAIRSAT,3,23,2,0,1200,3,0,1200,4,0,1200,5,0,200,7,0,1200,8,0,1200,9,0,1200,10,0,1200,11,0,1200,12,0,1200,13,0,1221,15,0,1221,19,0,1221,21,0,1221,24,0,1200,25,0,1200,26,0,1221,27,0,1221,30,0,1200,31,0,1200,33,0,1200,34,0,1200,36,0,1200*6A
$PAIRSAT,4,46,1,0,200,2,0,200,3,0,600,4,0,200,5,0,200,6,0,201,7,0,201,8,0,200,9,0,201,10,0,201,11,0,201,12,0,200,13,0,200,14,0,200,16,0,201,19,0,600,20,0,600,21,0,600,22,0,600,23,0,621,24,0,600,25,0,621,26,0,600,27,0,600,28,0,621,29,0,600,30,0,600,32,0,600,33,0,600,34,0,621,35,0,600,36,0,600,37,0,600,38,0,600,39,0,621,40,0,421,41,0,600,42,0,600,43,0,621,44,0,600,45,0,600,46,0,600,59,0,400,60,0,400,61,0,400,62,0,400*48
$PAIRDGP,8,2,4,7,8,9,16,21,27*7C
$GNGGA,033144.100,2500.7989938,N,12132.4853880,E,4,59,0.47,16.719,M,15.25,M,1,3335*47
$GNRMC,033144.100,A,2500.7989938,N,12132.4853880,E,0.06,332.71,090324,,,R,V*14
$GPHDT,,T*1B
$GNACCURACY,4.3*11
$GNGGA,033144.200,2500.7989936,N,12132.4853835,E,4,59,0.47,16.718,M,15.25,M,1,3335*45
$GNRMC,033144.200,A,2500.7989936,N,12132.4853835,E,0.06,332.71,090324,,,R,V*17
$GPHDT,198.296,T*38
$GNACCURACY,4.3*11
$GNGGA,033144.300,2500.7989924,N,12132.4853884,E,4,59,0.47,16.714,M,15.25,M,1,3335*41
$GNRMC,033144.300,A,2500.7989924,N,12132.4853884,E,0.05,332.71,090324,,,R,V*1C
$GPHDT,,T*1B
$GNACCURACY,4.3*11
$GNGGA,033144.400,2500.7989950,N,12132.4853866,E,4,58,0.47,16.724,M,15.25,M,1,3335*4B
$GNRMC,033144.400,A,2500.7989950,N,12132.4853866,E,0.06,332.71,090324,,,R,V*17
$GPHDT,198.448,T*3D
$GNACCURACY,4.3*11
$GNGGA,033144.500,2500.7989961,N,12132.4853870,E,4,58,0.47,16.719,M,15.25,M,1,3335*41
$GNRMC,033144.500,A,2500.7989961,N,12132.4853870,E,0.03,332.71,090324,,,R,V*16
$GPHDT,,T*1B
$GNACCURACY,4.3*11
$GNGGA,033144.600,2500.7989962,N,12132.4853830,E,4,58,0.47,16.735,M,15.25,M,0,3335*4A
$GNRMC,033144.600,A,2500.7989962,N,12132.4853830,E,0.05,332.71,090324,,,R,V*14
$GPHDT,198.365,T*35
$GNACCURACY,4.3*11
$GNGGA,033144.700,2500.7989961,N,12132.4853826,E,4,58,0.47,16.729,M,15.25,M,0,3335*42
$GNRMC,033144.700,A,2500.7989961,N,12132.4853826,E,0.04,332.71,090324,,,R,V*10
$GPHDT,,T*1B
$GNACCURACY,4.3*11
$GNGGA,033144.800,2500.7989960,N,12132.4853770,E,4,58,0.47,16.711,M,15.25,M,0,3335*4B
$GNRMC,033144.800,A,2500.7989960,N,12132.4853770,E,0.06,332.71,090324,,,R,V*10
$GPHDT,197.698,T*3D
$GNACCURACY,4.3*11
$GNGGA,033144.900,2500.7989973,N,12132.4853824,E,4,58,0.47,16.715,M,15.25,M,0,3335*42
$GNRMC,033144.900,A,2500.7989973,N,12132.4853824,E,0.04,332.71,090324,,,R,V*1F
$GPHDT,,T*1B
$GNACCURACY,4.3*11
$GNGGA,033145.000,2500.7989983,N,12132.4853811,E,4,59,0.47,16.720,M,15.25,M,1,3335*45
$GNRMC,033145.000,A,2500.7989983,N,12132.4853811,E,0.03,332.71,090324,,,R,V*19
$GPHDT,197.237,T*3C
$GNGSA,A,3,08,194,195,27,21,16,04,02,09,07,196,26,0.75,0.47,0.58,1*37
$GNGSA,A,3,31,,,,,,,,,,,,0.75,0.47,0.58,1*0F
$GNGSA,A,3,88,78,81,77,87,79,,,,,,,0.75,0.47,0.58,2*09
$GNGSA,A,3,13,21,19,27,26,15,,,,,,,0.75,0.47,0.58,3*03
$GNGSA,A,3,06,16,09,43,39,40,07,23,10,11,25,28,0.75,0.47,0.58,4*03
$GNGSA,A,3,34,,,,,,,,,,,,0.75,0.47,0.58,4*0F
$GPGSV,4,1,15,08,72,312,42,194,63,047,42,199,63,167,,195,58,122,44,1*57
$GPGSV,4,2,15,27,48,028,39,45,47,231,33,21,41,168,32,16,34,057,20,1*65
$GPGSV,4,3,15,04,30,215,31,02,30,181,38,09,30,265,21,07,27,320,38,1*66
$GPGSV,4,4,15,196,21,173,31,26,16,085,25,31,14,138,42,1*68
$GPGSV,2,1,08,08,72,312,46,194,63,047,45,195,58,122,46,27,48,028,43,8*65
$GPGSV,2,2,08,09,30,265,25,04,30,215,32,196,21,173,37,26,16,085,25,8*5C
$GLGSV,2,1,06,88,71,067,42,78,47,008,41,81,43,189,34,77,32,089,21,1*77
$GLGSV,2,2,06,87,19,029,16,79,13,321,28,1*73
$GAGSV,2,1,07,13,51,106,38,21,51,351,38,19,36,256,20,27,33,064,28,7*75
$GAGSV,2,2,07,26,29,174,23,15,22,048,22,04,10,311,25,7*41
$GAGSV,2,1,06,13,51,106,41,21,51,351,41,19,36,256,22,27,33,064,31,1*78
$GAGSV,2,2,06,26,29,174,37,15,22,048,23,1*73
$GBGSV,4,1,13,06,81,223,41,16,78,191,39,09,75,297,41,43,73,057,43,1*77
$GBGSV,4,2,13,39,67,178,42,40,65,317,42,07,62,295,42,23,62,358,42,1*73
$GBGSV,4,3,13,10,52,278,30,11,47,044,44,25,46,098,42,28,41,209,31,1*7C
$GBGSV,4,4,13,34,24,040,39,1*4B
$GBGSV,2,1,07,43,73,057,45,39,67,178,44,40,65,317,41,23,62,358,26,4*7A
$GBGSV,2,2,07,25,46,098,36,28,41,209,27,34,24,040,34,4*46
$GNACCURACY,4.3*11
$PAIRSAT,1,35,2,0,201,3,0,200,4,0,221,5,0,200,6,0,200,7,0,201,8,0,221,9,0,221,10,0,200,11,0,200,12,0,200,13,0,200,14,0,200,15,0,200,16,0,201,17,0,200,18,0,200,19,0,200,20,0,200,21,0,201,22,0,200,23,0,200,24,0,200,25,0,200,26,0,221,27,0,221,28,0,200,29,0,200,30,0,200,31,0,201,32,0,200,194,0,621,195,0,621,196,0,620,199,0,600*5B
$PAIRSAT,2,23,65,0,200,66,0,200,67,0,200,68,0,200,70,0,200,71,0,200,72,0,200,73,0,200,74,0,200,75,0,200,76,0,200,77,0,201,78,0,201,79,0,201,80,0,200,81,0,201,82,0,200,83,0,200,84,0,200,85,0,200,86,0,200,87,0,201,88,0,201*5C
$PAIRSAT,3,23,2,0,1200,3,0,1200,4,0,1200,5,0,200,7,0,1200,8,0,1200,9,0,1200,10,0,1200,11,0,1200,12,0,1200,13,0,1221,15,0,1221,19,0,1221,21,0,1221,24,0,1200,25,0,1200,26,0,1221,27,0,1221,30,0,1200,31,0,1200,33,0,1200,34,0,1200,36,0,1200*6A
$PAIRSAT,4,46,1,0,200,2,0,200,3,0,600,4,0,200,5,0,200,6,0,201,7,0,201,8,0,200,9,0,201,10,0,201,11,0,201,12,0,200,13,0,200,14,0,200,16,0,201,19,0,600,20,0,600,21,0,600,22,0,600,23,0,621,24,0,600,25,0,621,26,0,600,27,0,600,28,0,621,29,0,600,30,0,600,32,0,600,33,0,600,34,0,621,35,0,600,36,0,600,37,0,600,38,0,600,39,0,621,40,0,421,41,0,600,42,0,600,43,0,621,44,0,600,45,0,600,46,0,600,59,0,400,60,0,400,61,0,400,62,0,400*48
$PAIRDGP,8,2,4,7,8,9,16,21,27*7C
$GNGGA,033145.100,2500.7989952,N,12132.4853801,E,4,59,0.47,16.715,M,15.25,M,1,3335*4F
$GNRMC,033145.100,A,2500.7989952,N,12132.4853801,E,0.03,332.71,090324,,,R,V*15
$GPHDT,,T*1B
$GNACCURACY,4.3*11
$GNGGA,033145.200,2500.7989975,N,12132.4853818,E,4,59,0.47,16.717,M,15.25,M,1,3335*43
$GNRMC,033145.200,A,2500.7989975,N,12132.4853818,E,0.04,332.71,090324,,,R,V*1C
$GPHDT,197.496,T*31
$GNACCURACY,4.3*11
$GNGGA,033145.300,2500.7989978,N,12132.4853823,E,4,59,0.47,16.724,M,15.25,M,1,3335*47
$GNRMC,033145.300,A,2500.7989978,N,12132.4853823,E,0.04,332.71,090324,,,R,V*18
$GPHDT,,T*1B
$GNACCURACY,4.3*11
$GNGGA,033145.400,2500.7989971,N,12132.4853846,E,4,59,0.47,16.733,M,15.25,M,1,3335*4C
$GNRMC,033145.400,A,2500.7989971,N,12132.4853846,E,0.04,332.71,090324,,,R,V*15
$GPHDT,197.708,T*35
$GNACCURACY,4.3*11
$GNGGA,033145.500,2500.7989983,N,12132.4853851,E,4,59,0.47,16.722,M,15.25,M,1,3335*46
$GNRMC,033145.500,A,2500.7989983,N,12132.4853851,E,0.12,332.71,090324,,,R,V*18
$GPHDT,,T*1B
$GNACCURACY,4.3*11
$GNGGA,033145.600,2500.7989951,N,12132.4853849,E,4,59,0.47,16.712,M,15.25,M,0,3335*41
$GNRMC,033145.600,A,2500.7989951,N,12132.4853849,E,0.11,332.71,090324,,,R,V*1E
$GPHDT,198.789,T*33
$GNACCURACY,4.3*11
$GNGGA,033145.700,2500.7989922,N,12132.4853934,E,4,59,0.47,16.756,M,15.25,M,0,3335*4F
$GNRMC,033145.700,A,2500.7989922,N,12132.4853934,E,0.12,332.71,090324,,,R,V*13
$GPHDT,,T*1B
$GNACCURACY,4.3*11
$GNGGA,033145.800,2500.7989934,N,12132.4853966,E,4,59,0.47,16.748,M,15.25,M,0,3335*4F
$GNRMC,033145.800,A,2500.7989934,N,12132.4853966,E,0.10,332.71,090324,,,R,V*1E
$GPHDT,198.995,T*30
$GNACCURACY,4.3*11
$GNGGA,033145.900,2500.7989903,N,12132.4853911,E,4,59,0.47,16.749,M,15.25,M,0,3335*4B
$GNRMC,033145.900,A,2500.7989903,N,12132.4853911,E,0.03,332.71,090324,,,R,V*19
$GPHDT,,T*1B
$GNACCURACY,4.3*11
$GNGGA,033146.000,2500.7989906,N,12132.4853977,E,4,59,0.47,16.768,M,15.25,M,1,3335*46
$GNRMC,033146.000,A,2500.7989906,N,12132.4853977,E,0.03,332.71,090324,,,R,V*16
$GPHDT,199.172,T*30
$GNGSA,A,3,08,194,195,27,21,16,04,02,09,07,196,26,0.75,0.47,0.58,1*37
$GNGSA,A,3,31,,,,,,,,,,,,0.75,0.47,0.58,1*0F
$GNGSA,A,3,88,78,81,77,87,79,,,,,,,0.75,0.47,0.58,2*09
$GNGSA,A,3,21,13,19,27,26,15,,,,,,,0.75,0.47,0.58,3*03
$GNGSA,A,3,06,16,09,43,39,40,07,23,10,11,25,28,0.75,0.47,0.58,4*03
$GNGSA,A,3,34,,,,,,,,,,,,0.75,0.47,0.58,4*0F
$GPGSV,4,1,15,08,72,312,42,194,63,047,41,199,63,167,,195,58,122,42,1*52
$GPGSV,4,2,15,27,48,028,39,45,47,231,34,21,41,168,32,16,34,057,20,1*62
$GPGSV,4,3,15,04,30,215,34,02,30,181,38,09,30,265,22,07,27,320,38,1*60
$GPGSV,4,4,15,196,21,173,31,26,16,085,24,31,14,138,42,1*69
$GPGSV,2,1,08,08,72,312,46,194,63,047,43,195,58,122,44,27,48,028,42,8*60
$GPGSV,2,2,08,09,30,265,24,04,30,215,32,196,21,173,37,26,16,085,25,8*5D
$GLGSV,2,1,08,88,71,067,42,78,47,008,40,81,43,189,34,77,32,089,21,1*78
$GLGSV,2,2,08,87,19,029,16,79,13,321,28,68,12,252,,67,01,207,,1*70
$GAGSV,2,1,07,21,51,351,37,13,51,106,32,19,36,256,22,27,33,064,29,7*73
$GAGSV,2,2,07,26,29,174,24,15,22,048,24,04,10,311,26,7*43
$GAGSV,2,1,06,13,51,106,38,21,51,351,41,19,36,256,21,27,33,064,30,1*74
$GAGSV,2,2,06,26,29,174,37,15,22,048,20,1*70
$GBGSV,4,1,13,06,81,223,41,16,78,191,38,09,75,297,41,43,73,057,43,1*76
$GBGSV,4,2,13,39,67,178,42,40,65,317,43,07,62,295,42,23,62,358,40,1*70
$GBGSV,4,3,13,10,52,278,31,11,47,044,41,25,46,098,30,28,41,209,31,1*7D
$GBGSV,4,4,13,34,24,040,37,1*45
$GBGSV,2,1,07,43,73,057,45,39,67,178,44,40,65,317,41,23,62,358,25,4*79
$GBGSV,2,2,07,25,46,098,30,28,41,209,28,34,24,040,34,4*4F
$GNACCURACY,4.3*11
$PAIRSAT,1,35,2,0,201,3,0,200,4,0,221,5,0,200,6,0,200,7,0,201,8,0,221,9,0,221,10,0,200,11,0,200,12,0,200,13,0,200,14,0,200,15,0,200,16,0,201,17,0,200,18,0,200,19,0,200,20,0,200,21,0,201,22,0,200,23,0,200,24,0,200,25,0,200,26,0,221,27,0,221,28,0,200,29,0,200,30,0,200,31,0,201,32,0,200,194,0,621,195,0,621,196,0,620,199,0,600*5B
$PAIRSAT,2,23,65,0,200,66,0,200,67,0,200,68,0,200,70,0,200,71,0,200,72,0,200,73,0,200,74,0,200,75,0,200,76,0,200,77,0,201,78,0,201,79,0,201,80,0,200,81,0,201,82,0,200,83,0,200,84,0,200,85,0,200,86,0,200,87,0,201,88,0,201*5C
$PAIRSAT,3,23,2,0,1200,3,0,1200,4,0,1200,5,0,200,7,0,1200,8,0,1200,9,0,1200,10,0,1200,11,0,1200,12,0,1200,13,0,1221,15,0,1221,19,0,1221,21,0,1221,24,0,1200,25,0,1200,26,0,1221,27,0,1221,30,0,1200,31,0,1200,33,0,1200,34,0,1200,36,0,1200*6A
$PAIRSAT,4,46,1,0,200,2,0,200,3,0,600,4,0,200,5,0,200,6,0,201,7,0,201,8,0,200,9,0,201,10,0,201,11,0,201,12,0,200,13,0,200,14,0,200,16,0,201,19,0,600,20,0,600,21,0,600,22,0,600,23,0,621,24,0,600,25,0,621,26,0,600,27,0,600,28,0,621,29,0,600,30,0,600,32,0,600,33,0,600,34,0,621,35,0,600,36,0,600,37,0,600,38,0,600,39,0,621,40,0,421,41,0,600,42,0,600,43,0,621,44,0,600,45,0,600,46,0,600,59,0,400,60,0,400,61,0,400,62,0,400*48
$PAIRDGP,8,2,4,7,8,9,16,21,27*7C
$GNGGA,033146.100,2500.7989872,N,12132.4854070,E,4,59,0.47,16.803,M,15.25,M,1,3335*4E
$GNRMC,033146.100,A,2500.7989872,N,12132.4854070,E,0.04,332.71,090324,,,R,V*1B
$GPHDT,,T*1B
$GNACCURACY,4.3*11
$GNGGA,033146.200,2500.7989900,N,12132.4853865,E,4,59,0.47,16.740,M,15.25,M,1,3335*4A
$GNRMC,033146.200,A,2500.7989900,N,12132.4853865,E,0.04,332.71,090324,,,R,V*17
$GPHDT,197.213,T*3A
$GNACCURACY,4.3*11
$GNGGA,033146.300,2500.7989925,N,12132.4853951,E,4,59,0.47,16.759,M,15.25,M,1,3335*42
$GNRMC,033146.300,A,2500.7989925,N,12132.4853951,E,0.08,332.71,090324,,,R,V*1B
$GPHDT,,T*1B
$GNACCURACY,4.3*11
$GNGGA,033146.400,2500.7989887,N,12132.4854001,E,4,59,0.47,16.761,M,15.25,M,1,3335*4C
$GNRMC,033146.400,A,2500.7989887,N,12132.4854001,E,0.04,332.71,090324,,,R,V*12
$GPHDT,198.923,T*3D
$GNACCURACY,4.3*11
$GNGGA,033146.500,2500.7989891,N,12132.4854071,E,4,58,0.48,16.790,M,15.25,M,1,3335*4D
$GNRMC,033146.500,A,2500.7989891,N,12132.4854071,E,0.05,332.71,090324,,,R,V*12
$GPHDT,,T*1B
$GNACCURACY,4.3*11
$GNGGA,033146.600,2500.7989936,N,12132.4853983,E,4,58,0.48,16.787,M,15.25,M,0,3335*46
$GNRMC,033146.600,A,2500.7989936,N,12132.4853983,E,0.04,332.71,090324,,,R,V*1F
$GPHDT,198.358,T*3B
$GNACCURACY,4.3*11
$GNGGA,033146.700,2500.7989907,N,12132.4853906,E,4,58,0.48,16.762,M,15.25,M,0,3335*43
$GNRMC,033146.700,A,2500.7989907,N,12132.4853906,E,0.05,332.71,090324,,,R,V*10
$GPHDT,,T*1B
$GNACCURACY,4.3*11
$GNGGA,033146.800,2500.7989935,N,12132.4853931,E,4,58,0.48,16.768,M,15.25,M,0,3335*43
$GNRMC,033146.800,A,2500.7989935,N,12132.4853931,E,0.03,332.71,090324,,,R,V*1C
$GPHDT,198.225,T*30
$GNACCURACY,4.3*11
$GNGGA,033146.900,2500.7989921,N,12132.4853949,E,4,58,0.48,16.768,M,15.25,M,0,3335*48
$GNRMC,033146.900,A,2500.7989921,N,12132.4853949,E,0.05,332.71,090324,,,R,V*11
$GPHDT,,T*1B
$GNACCURACY,4.3*11
$GNGGA,033147.000,2500.7989925,N,12132.4853968,E,4,58,0.48,16.777,M,15.25,M,1,3335*48
$GNRMC,033147.000,A,2500.7989925,N,12132.4853968,E,0.06,332.71,090324,,,R,V*1D
$GPHDT,198.492,T*3A
$GNGSA,A,3,08,194,195,27,21,16,04,02,09,07,196,26,0.77,0.48,0.60,1*31
$GNGSA,A,3,31,,,,,,,,,,,,0.77,0.48,0.60,1*09
$GNGSA,A,3,88,78,81,77,79,,,,,,,,0.77,0.48,0.60,2*00
$GNGSA,A,3,21,13,19,27,26,15,,,,,,,0.77,0.48,0.60,3*05
$GNGSA,A,3,06,16,09,43,39,40,23,07,10,11,25,28,0.77,0.48,0.60,4*05
$GNGSA,A,3,34,,,,,,,,,,,,0.77,0.48,0.60,4*09
$GPGSV,4,1,15,08,72,312,41,194,63,047,42,199,63,167,,195,58,122,41,1*51
$GPGSV,4,2,15,27,48,028,39,45,47,231,34,21,41,168,35,16,34,057,20,1*65
$GPGSV,4,3,15,04,30,215,34,02,30,181,39,09,30,265,25,07,27,320,38,1*66
$GPGSV,4,4,15,196,21,173,31,26,16,085,23,31,14,138,43,1*6F
$GPGSV,2,1,08,08,72,312,46,194,63,047,43,195,58,122,43,27,48,028,42,8*67
$GPGSV,2,2,08,09,30,265,26,04,30,215,31,196,21,173,37,26,16,085,25,8*5C
$GLGSV,2,1,08,88,71,067,43,78,47,008,39,81,43,189,36,77,32,089,22,1*76
$GLGSV,2,2,08,87,19,029,15,79,13,321,25,68,12,252,,67,01,207,,1*7E
$GAGSV,2,1,07,21,51,351,37,13,51,106,32,19,36,256,22,27,33,064,29,7*73
$GAGSV,2,2,07,26,29,174,24,15,22,048,22,04,10,311,24,7*47
$GAGSV,2,1,06,13,51,106,38,21,51,351,41,19,36,256,25,27,33,064,32,1*72
$GAGSV,2,2,06,26,29,174,37,15,22,048,21,1*71
$GBGSV,4,1,14,06,81,223,42,16,78,191,41,09,75,297,42,43,73,057,43,1*7F
$GBGSV,4,2,14,39,67,178,43,40,65,317,43,23,62,358,41,07,62,295,42,1*77
$GBGSV,4,3,14,10,52,278,31,11,47,044,43,25,46,098,33,28,41,209,31,1*7B
$GBGSV,4,4,14,34,24,040,40,41,03,206,,1*70
$GBGSV,2,1,07,43,73,057,43,39,67,178,45,40,65,317,43,23,62,358,22,4*7B
$GBGSV,2,2,07,25,46,098,30,28,41,209,30,34,24,040,35,4*47
$GNACCURACY,4.3*11
$PAIRSAT,1,35,2,0,201,3,0,200,4,0,221,5,0,200,6,0,200,7,0,201,8,0,221,9,0,221,10,0,200,11,0,200,12,0,200,13,0,200,14,0,200,15,0,200,16,0,201,17,0,200,18,0,200,19,0,200,20,0,200,21,0,201,22,0,200,23,0,200,24,0,200,25,0,200,26,0,221,27,0,221,28,0,200,29,0,200,30,0,200,31,0,201,32,0,200,194,0,621,195,0,621,196,0,620,199,0,600*5B
$PAIRSAT,2,23,65,0,200,66,0,200,67,0,200,68,0,200,70,0,200,71,0,200,72,0,200,73,0,200,74,0,200,75,0,200,76,0,200,77,0,201,78,0,201,79,0,201,80,0,200,81,0,201,82,0,200,83,0,200,84,0,200,85,0,200,86,0,200,87,0,201,88,0,201*5C
$PAIRSAT,3,23,2,0,1200,3,0,1200,4,0,1200,5,0,200,7,0,1200,8,0,1200,9,0,1200,10,0,1200,11,0,1200,12,0,1200,13,0,1221,15,0,1221,19,0,1221,21,0,1221,24,0,1200,25,0,1200,26,0,1221,27,0,1221,30,0,1200,31,0,1200,33,0,1200,34,0,1200,36,0,1200*6A
$PAIRSAT,4,46,1,0,200,2,0,200,3,0,600,4,0,200,5,0,200,6,0,201,7,0,201,8,0,200,9,0,201,10,0,201,11,0,201,12,0,200,13,0,200,14,0,200,16,0,201,19,0,600,20,0,600,21,0,600,22,0,600,23,0,621,24,0,600,25,0,621,26,0,600,27,0,600,28,0,621,29,0,600,30,0,600,32,0,600,33,0,600,34,0,621,35,0,600,36,0,600,37,0,600,38,0,600,39,0,621,40,0,421,41,0,600,42,0,600,43,0,621,44,0,600,45,0,600,46,0,600,59,0,400,60,0,400,61,0,400,62,0,400*48
$PAIRDGP,8,2,4,7,8,9,16,21,27*7C
$GNGGA,033147.100,2500.7989932,N,12132.4853945,E,4,58,0.48,16.773,M,15.25,M,1,3335*44
$GNRMC,033147.100,A,2500.7989932,N,12132.4853945,E,0.05,332.71,090324,,,R,V*16
$GPHDT,,T*1B
$GNACCURACY,4.3*11
$GNGGA,033147.200,2500.7989925,N,12132.4853950,E,4,58,0.48,16.772,M,15.