$FW : RTK35X,V1.1X0314AS,Lib20210517,1*54
$Tool : LOCOSYS , GNSS Firebird , v1.0.0.19*39
$---------------------------------------------------*2D
100,2500.8265378,N,12132.4567504,E,4,60,0.43,16.034,M,15.25,M,2,3335*45
$GNRMC,115321.100,A,2500.8265378,N,12132.4567504,E,0.01,266.26,260623,,,R,V*19
$GPHDT,,T*1B
$GNGSA,A,3,196,23,24,199,18,194,15,195,12,10,25,32,0.69,0.43,0.54,1*08
$GNGSA,A,3,05,,,,,,,,,,,,0.69,0.43,0.54,1*0D
$GNGSA,A,3,73,80,71,86,85,,,,,,,,0.69,0.43,0.54,2*02
$GNGSA,A,3,13,07,08,26,30,15,02,,,,,,0.69,0.43,0.54,3*06
$GNGSA,A,3,08,38,13,39,16,06,46,19,09,36,35,22,0.69,0.43,0.54,4*07
$GNGSA,A,3,37,20,29,,,,,,,,,,0.69,0.43,0.54,4*00
$GPGSV,4,1,16,196,76,074,34,23,62,347,34,24,61,034,36,199,60,167,35,1*6D
$GPGSV,4,2,16,18,50,226,44,41,38,242,42,194,35,136,41,15,31,059,22,1*52
$GPGSV,4,3,16,195,29,179,37,12,28,131,41,10,27,323,37,25,18,170,29,1*57
$GPGSV,4,4,16,32,15,280,33,05,11,127,20,28,04,222,15,13,02,065,,1*64
$GPGSV,2,1,08,196,76,074,37,24,61,034,24,199,60,167,47,18,50,226,45,8*61
$GPGSV,2,2,08,194,35,136,42,195,29,179,42,10,27,323,35,32,15,280,31,8*6F
$GLGSV,2,1,08,73,53,151,44,80,45,055,29,70,42,029,,71,27,327,35,1*7F
$GLGSV,2,2,08,86,27,286,37,85,25,233,20,69,08,087,15,79,01,026,,1*7E
$GAGSV,3,1,09,13,47,220,42,07,46,316,38,08,43,037,21,26,36,296,33,7*71
$GAGSV,3,2,09,30,34,136,38,02,27,074,,15,13,173,25,27,08,184,,7*70
$GAGSV,3,3,09,03,06,073,18,7*42
$GAGSV,2,1,06,13,47,220,45,07,46,316,42,08,43,037,27,26,36,296,30,1*76
$GAGSV,2,2,06,30,34,136,40,02,27,074,15,1*77
$GBGSV,4,1,15,08,85,341,41,38,81,158,44,13,72,321,36,39,68,298,44,1*7A
$GBGSV,4,2,15,16,65,274,44,06,64,269,42,46,62,086,27,19,54,000,30,1*79
$GBGSV,4,3,15,09,50,249,40,36,47,183,44,20,39,078,,35,17,258,39,1*7C
$GBGSV,4,4,15,22,17,309,27,37,15,042,35,29,12,204,16,1*42
$GBGSV,3,1,10,38,81,158,42,39,68,298,40,46,62,086,24,19,54,000,35,4*7A
$GBGSV,3,2,10,36,47,183,47,20,39,078,29,22,17,309,17,35,17,258,37,4*71
$GBGSV,3,3,10,37,15,042,29,29,12,204,19,4*79
$GNACCURACY,2.4*10
$PAIRSAT,1,35,1,0,200,2,0,200,3,0,200,4,0,200,5,0,201,6,0,200,7,0,200,8,0,200,9,0,200,10,0,221,11,0,200,12,0,201,13,0,201,14,0,200,15,0,201,16,0,200,17,0,200,18,0,221,19,0,200,20,0,200,21,0,200,23,0,221,24,0,221,25,0,220,26,0,200,27,0,200,28,0,200,29,0,200,30,0,200,31,0,200,32,0,221,194,0,621,195,0,621,196,0,620,199,0,621*6A
$PAIRSAT,2,24,65,0,200,66,0,200,67,0,200,68,0,200,69,0,200,70,0,200,71,0,201,72,0,200,73,0,201,74,0,200,75,0,200,76,0,200,77,0,200,78,0,200,79,0,201,80,0,201,81,0,200,82,0,200,83,0,200,84,0,200,85,0,201,86,0,201,87,0,200,88,0,200*7A
$PAIRSAT,3,23,2,0,1221,3,0,1221,4,0,1200,5,0,200,7,0,1221,8,0,1221,9,0,1200,10,0,1200,11,0,1200,12,0,1200,13,0,1221,15,0,1221,19,0,1200,21,0,1200,24,0,1200,25,0,1200,26,0,1221,27,0,1200,30,0,1221,31,0,1200,33,0,1200,34,0,1200,36,0,1200*6A
$PAIRSAT,4,50,1,0,200,2,0,200,3,0,200,4,0,200,5,0,200,6,0,201,7,0,200,8,0,201,9,0,201,10,0,200,11,0,200,12,0,200,13,0,201,14,0,200,15,0,200,16,0,201,19,0,621,20,0,621,21,0,600,22,0,621,23,0,600,24,0,600,25,0,600,26,0,600,27,0,600,28,0,600,29,0,621,30,0,600,31,0,200,32,0,600,33,0,600,34,0,600,35,0,621,36,0,621,37,0,621,38,0,621,39,0,621,40,0,600,41,0,600,42,0,600,43,0,600,44,0,600,45,0,600,46,0,621,56,0,200,57,0,200,58,0,200,59,0,600,60,0,600,61,0,600*41
$PAIRDGP,10,5,10,12,15,18,23,24,25,28,32*45
$GNGGA,115321.200,2500.8265382,N,12132.4567467,E,4,60,0.43,16.033,M,15.25,M,2,3335*40
$GNRMC,115321.200,A,2500.8265382,N,12132.4567467,E,0.01,266.26,260623,,,R,V*1B
$GPHDT,269.167,T*38
$GNACCURACY,2.4*10
$GNGGA,115321.300,2500.8265378,N,12132.4567494,E,4,60,0.43,16.043,M,15.25,M,2,3335*4F
$GNRMC,115321.300,A,2500.8265378,N,12132.4567494,E,0.01,266.26,260623,,,R,V*13
$GPHDT,,T*1B
$GNACCURACY,2.4*10
$GNGGA,115321.400,2500.8265383,N,12132.4567481,E,4,60,0.43,16.039,M,15.25,M,2,3335*45
$GNRMC,115321.400,A,2500.8265383,N,12132.4567481,E,0.01,266.26,260623,,,R,V*14
$GPHDT,269.256,T*39
$GNACCURACY,2.4*10
$GNGGA,115321.500,2500.8265435,N,12132.4567497,E,4,60,0.43,16.011,M,15.25,M,2,3335*43
$GNRMC,115321.500,A,2500.8265435,N,12132.4567497,E,0.01,266.26,260623,,,R,V*18
$GPHDT,,T*1B
$GNACCURACY,2.4*10
$GNGGA,115321.600,2500.8265444,N,12132.4567526,E,4,59,0.45,16.005,M,15.25,M,2,3335*44
$GNRMC,115321.600,A,2500.8265444,N,12132.4567526,E,0.01,266.26,260623,,,R,V*16
$GPHDT,269.510,T*3C
$GNACCURACY,2.4*10
$GNGGA,115321.700,2500.8265389,N,12132.4567474,E,4,59,0.45,16.000,M,15.25,M,2,3335*40
$GNRMC,115321.700,A,2500.8265389,N,12132.4567474,E,0.01,266.26,260623,,,R,V*17
$GPHDT,,T*1B
$GNACCURACY,2.4*10
$GNGGA,115321.800,2500.8265452,N,12132.4567509,E,4,59,0.45,16.012,M,15.25,M,2,3335*46
$GNRMC,115321.800,A,2500.8265452,N,12132.4567509,E,0.01,266.26,260623,,,R,V*12
$GPHDT,269.681,T*37
$GNACCURACY,2.4*10
$GNGGA,115321.900,2500.8265404,N,12132.4567507,E,4,59,0.45,16.018,M,15.25,M,0,3335*42
$GNRMC,115321.900,A,2500.8265404,N,12132.4567507,E,0.00,266.26,260623,,,R,V*1F
$GPHDT,,T*1B
$GNACCURACY,2.4*10
$GNGGA,115322.000,2500.8265347,N,12132.4567524,E,4,59,0.45,16.041,M,15.25,M,1,3335*44
$GNRMC,115322.000,A,2500.8265347,N,12132.4567524,E,0.00,266.26,260623,,,R,V*14
$GPHDT,269.971,T*37
$GNACCURACY,2.4*10
$GNGGA,115322.100,2500.8265376,N,12132.4567514,E,4,58,0.46,16.031,M,15.25,M,1,3335*41
$GNRMC,115322.100,A,2500.8265376,N,12132.4567514,E,0.01,266.26,260623,,,R,V*15
$GPHDT,,T*1B
$GNGSA,A,3,196,23,24,199,18,194,195,12,10,25,32,05,0.71,0.45,0.55,1*07
$GNGSA,A,3,73,80,71,86,85,,,,,,,,0.71,0.45,0.55,2*0C
$GNGSA,A,3,13,07,08,26,30,15,02,,,,,,0.71,0.45,0.55,3*08
$GNGSA,A,3,08,38,13,39,16,06,46,19,09,36,22,35,0.71,0.45,0.55,4*09
$GNGSA,A,3,37,20,29,,,,,,,,,,0.71,0.45,0.55,4*0E
$GPGSV,4,1,16,196,76,074,34,23,62,347,34,24,61,034,36,199,60,167,36,1*6E
$GPGSV,4,2,16,18,50,226,44,41,38,242,42,194,35,136,40,15,31,059,23,1*52
$GPGSV,4,3,16,195,29,179,37,12,28,131,41,10,27,323,36,25,18,170,31,1*5F
$GPGSV,4,4,16,32,15,280,33,05,11,127,20,28,04,222,16,13,02,065,,1*67
$GPGSV,2,1,08,196,76,074,37,24,61,034,23,199,60,167,47,18,50,226,45,8*66
$GPGSV,2,2,08,194,35,136,42,195,29,179,42,10,27,323,35,32,15,280,31,8*6F
$GLGSV,3,1,09,73,53,151,44,80,45,055,28,70,42,029,,71,27,327,35,1*7E
$GLGSV,3,2,09,86,27,286,38,85,25,233,21,74,15,185,,69,08,087,16,1*73
$GLGSV,3,3,09,79,01,026,,1*4A
$GAGSV,3,1,09,13,47,220,42,07,46,316,38,08,43,037,24,26,36,296,33,7*74
$GAGSV,3,2,09,30,34,136,38,02,27,074,,15,13,173,24,27,08,184,,7*71
$GAGSV,3,3,09,03,06,073,18,7*42
$GAGSV,2,1,06,13,47,220,45,07,46,316,43,08,43,037,29,26,36,296,32,1*7B
$GAGSV,2,2,06,30,34,136,41,02,27,074,24,1*74
$GBGSV,4,1,16,08,85,341,41,38,81,158,45,13,72,321,36,39,68,298,44,1*78
$GBGSV,4,2,16,16,65,274,44,06,64,269,42,46,62,086,23,19,54,000,30,1*7E
$GBGSV,4,3,16,09,50,249,40,36,47,183,44,31,40,217,,20,39,078,,1*78
$GBGSV,4,4,16,22,17,309,28,35,17,258,39,37,15,042,36,29,12,204,16,1*78
$GBGSV,3,1,10,38,81,158,42,39,68,298,41,46,62,086,31,19,54,000,35,4*7F
$GBGSV,3,2,10,36,47,183,47,20,39,078,30,22,17,309,19,35,17,258,37,4*77
$GBGSV,3,3,10,37,15,042,34,29,12,204,19,4*75
$GNACCURACY,2.4*10
$PAIRSAT,1,35,1,0,200,2,0,200,3,0,200,4,0,200,5,0,201,6,0,200,7,0,200,8,0,200,9,0,200,10,0,221,11,0,200,12,0,201,13,0,201,14,0,200,15,0,201,16,0,200,17,0,200,18,0,221,19,0,200,20,0,200,21,0,200,23,0,221,24,0,221,25,0,220,26,0,200,27,0,200,28,0,200,29,0,200,30,0,200,31,0,200,32,0,221,194,0,621,195,0,621,196,0,620,199,0,621*6A
$PAIRSAT,2,24,65,0,200,66,0,200,67,0,200,68,0,200,69,0,200,70,0,200,71,0,201,72,0,200,73,0,201,74,0,200,75,0,200,76,0,200,77,0,200,78,0,200,79,0,201,80,0,201,81,0,200,82,0,200,83,0,200,84,0,200,85,0,201,86,0,201,87,0,200,88,0,200*7A
$PAIRSAT,3,23,2,0,1221,3,0,1221,4,0,1200,5,0,200,7,0,1221,8,0,1221,9,0,1200,10,0,1200,11,0,1200,12,0,1200,13,0,1221,15,0,1221,19,0,1200,21,0,1200,24,0,1200,25,0,1200,26,0,1221,27,0,1200,30,0,1221,31,0,1200,33,0,1200,34,0,1200,36,0,1200*6A
$PAIRSAT,4,50,1,0,200,2,0,200,3,0,200,4,0,200,5,0,200,6,0,201,7,0,200,8,0,201,9,0,201,10,0,200,11,0,200,12,0,200,13,0,201,14,0,200,15,0,200,16,0,201,19,0,621,20,0,621,21,0,600,22,0,621,23,0,600,24,0,600,25,0,600,26,0,600,27,0,600,28,0,600,29,0,621,30,0,600,31,0,200,32,0,600,33,0,600,34,0,600,35,0,621,36,0,621,37,0,621,38,0,621,39,0,621,40,0,600,41,0,600,42,0,600,43,0,600,44,0,600,45,0,600,46,0,621,56,0,200,57,0,200,58,0,200,59,0,600,60,0,600,61,0,600*41
$PAIRDGP,10,5,10,12,15,18,23,24,25,28,32*45
$GNGGA,115322.200,2500.8265327,N,12132.4567502,E,4,59,0.45,16.039,M,15.25,M,1,3335*4B
$GNRMC,115322.200,A,2500.8265327,N,12132.4567502,E,0.01,266.26,260623,,,R,V*15
$GPHDT,269.921,T*32
$GNACCURACY,2.4*10
$GNGGA,115322.300,2500.8265355,N,12132.4567519,E,4,59,0.45,16.036,M,15.25,M,1,3335*4A
$GNRMC,115322.300,A,2500.8265355,N,12132.4567519,E,0.02,266.26,260623,,,R,V*18
$GPHDT,,T*1B
$GNACCURACY,2.4*10
$GNGGA,115322.400,2500.8265365,N,12132.4567511,E,4,59,0.45,16.038,M,15.25,M,1,3335*48
$GNRMC,115322.400,A,2500.8265365,N,12132.4567511,E,0.01,266.26,260623,,,R,V*17
$GPHDT,269.713,T*3D
$GNACCURACY,2.4*10
$GNGGA,115322.500,2500.8265363,N,12132.4567512,E,4,59,0.45,16.037,M,15.25,M,1,3335*43
$GNRMC,115322.500,A,2500.8265363,N,12132.4567512,E,0.00,266.26,260623,,,R,V*12
$GPHDT,,T*1B
$GNACCURACY,2.4*10
$GNGGA,115322.600,2500.8265369,N,12132.4567503,E,4,57,0.47,16.033,M,15.25,M,1,3335*42
$GNRMC,115322.600,A,2500.8265369,N,12132.4567503,E,0.01,266.26,260623,,,R,V*1A
$GPHDT,269.784,T*33
$GNACCURACY,2.4*10
$GNGGA,115322.700,2500.8265356,N,12132.4567509,E,4,60,0.43,16.039,M,15.25,M,1,3335*4F
$GNRMC,115322.700,A,2500.8265356,N,12132.4567509,E,0.01,266.26,260623,,,R,V*1D
$GPHDT,,T*1B
$GNACCURACY,2.4*10
$GNGGA,115322.800,2500.8265366,N,12132.4567498,E,4,60,0.43,16.037,M,15.25,M,1,3335*44
$GNRMC,115322.800,A,2500.8265366,N,12132.4567498,E,0.01,266.26,260623,,,R,V*18
$GPHDT,269.958,T*3C
$GNACCURACY,2.4*10
$GNGGA,115322.900,2500.8265358,N,12132.4567509,E,4,60,0.43,16.036,M,15.25,M,1,3335*40
$GNRMC,115322.900,A,2500.8265358,N,12132.4567509,E,0.02,266.26,260623,,,R,V*1E
$GPHDT,,T*1B
$GNACCURACY,2.4*10
$GNGGA,115323.000,2500.8265363,N,12132.4567470,E,4,60,0.43,16.036,M,15.25,M,2,3335*4C
$GNRMC,115323.000,A,2500.8265363,N,12132.4567470,E,0.02,266.26,260623,,,R,V*11
$GPHDT,269.866,T*30
$GNACCURACY,2.4*10
$GNGGA,115323.100,2500.8265362,N,12132.4567483,E,4,60,0.43,16.040,M,15.25,M,2,3335*41
$GNRMC,115323.100,A,2500.8265362,N,12132.4567483,E,0.02,266.26,260623,,,R,V*1D
$GPHDT,,T*1B
$GNGSA,A,3,196,23,24,199,18,194,15,195,12,10,25,32,0.69,0.43,0.54,1*08
$GNGSA,A,3,05,,,,,,,,,,,,0.69,0.43,0.54,1*0D
$GNGSA,A,3,73,80,71,86,85,,,,,,,,0.69,0.43,0.54,2*02
$GNGSA,A,3,13,07,08,26,30,15,02,,,,,,0.69,0.43,0.54,3*06
$GNGSA,A,3,08,38,13,39,16,06,46,19,09,36,35,22,0.69,0.43,0.54,4*07
$GNGSA,A,3,37,20,29,,,,,,,,,,0.69,0.43,0.54,4*00
$GPGSV,4,1,16,196,76,074,34,23,62,347,34,24,61,034,36,199,60,167,35,1*6D
$GPGSV,4,2,16,18,50,226,44,41,38,242,42,194,35,136,40,15,31,059,24,1*55
$GPGSV,4,3,16,195,29,179,37,12,28,131,41,10,27,323,36,25,18,170,31,1*5F
$GPGSV,4,4,16,32,15,280,33,05,11,127,18,28,04,222,14,13,02,065,,1*6E
$GPGSV,2,1,08,196,76,074,37,24,61,034,25,199,60,167,47,18,50,226,45,8*60
$GPGSV,2,2,08,194,35,136,42,195,29,179,42,10,27,323,34,32,15,280,30,8*6F
$GLGSV,2,1,08,73,53,151,44,80,45,055,29,70,42,029,,71,27,327,36,1*7C
$GLGSV,2,2,08,86,27,286,38,85,25,233,18,69,08,087,16,79,01,026,,1*79
$GAGSV,3,1,09,13,47,220,42,07,46,316,38,08,43,037,22,26,36,296,32,7*73
$GAGSV,3,2,09,30,34,136,38,02,27,074,,15,13,173,23,27,08,184,,7*76
$GAGSV,3,3,09,03,06,073,18,7*42
$GAGSV,2,1,06,13,47,220,45,07,46,316,43,08,43,037,29,26,36,296,31,1*78
$GAGSV,2,2,06,30,34,136,41,02,27,074,25,1*75
$GBGSV,4,1,16,08,85,341,41,38,80,159,45,13,72,321,37,39,68,298,44,1*79
$GBGSV,4,2,16,16,65,274,44,06,64,269,42,46,62,086,19,19,54,000,30,1*77
$GBGSV,4,3,16,09,50,249,40,36,47,183,44,31,40,217,,20,39,078,,1*78
$GBGSV,4,4,16,35,17,258,39,22,17,309,28,37,15,042,36,29,12,204,16,1*78
$GBGSV,3,1,10,38,80,159,42,39,68,298,41,46,62,086,31,19,54,000,35,4*7F
$GBGSV,3,2,10,36,47,183,47,20,39,078,29,22,17,309,19,35,17,258,37,4*7F
$GBGSV,3,3,10,37,15,042,31,29,12,204,19,4*70
$GNACCURACY,2.4*10
$PAIRSAT,1,35,1,0,200,2,0,200,3,0,200,4,0,200,5,0,201,6,0,200,7,0,200,8,0,200,9,0,200,10,0,221,11,0,200,12,0,201,13,0,201,14,0,200,15,0,201,16,0,200,17,0,200,18,0,221,19,0,200,20,0,200,21,0,200,23,0,221,24,0,221,25,0,220,26,0,200,27,0,200,28,0,200,29,0,200,30,0,200,31,0,200,32,0,221,194,0,621,195,0,621,196,0,620,199,0,621*6A
$PAIRSAT,2,24,65,0,200,66,0,200,67,0,200,68,0,200,69,0,200,70,0,200,71,0,201,72,0,200,73,0,201,74,0,200,75,0,200,76,0,200,77,0,200,78,0,200,79,0,201,80,0,201,81,0,200,82,0,200,83,0,200,84,0,200,85,0,201,86,0,201,87,0,200,88,0,200*7A
$PAIRSAT,3,23,2,0,1221,3,0,1221,4,0,1200,5,0,200,7,0,1221,8,0,1221,9,0,1200,10,0,1200,11,0,1200,12,0,1200,13,0,1221,15,0,1221,19,0,1200,21,0,1200,24,0,1200,25,0,1200,26,0,1221,27,0,1200,30,0,1221,31,0,1200,33,0,1200,34,0,1200,36,0,1200*6A
$PAIRSAT,4,50,1,0,200,2,0,200,3,0,200,4,0,200,5,0,200,6,0,201,7,0,200,8,0,201,9,0,201,10,0,200,11,0,200,12,0,200,13,0,201,14,0,200,15,0,200,16,0,201,19,0,621,20,0,621,21,0,600,22,0,621,23,0,600,24,0,600,25,0,600,26,0,600,27,0,600,28,0,600,29,0,621,30,0,600,31,0,200,32,0,600,33,0,600,34,0,600,35,0,621,36,0,621,37,0,621,38,0,621,39,0,621,40,0,600,41,0,600,42,0,600,43,0,600,44,0,600,45,0,600,46,0,621,56,0,200,57,0,200,58,0,200,59,0,600,60,0,600,61,0,600*41
$PAIRDGP,10,5,10,12,15,18,23,24,25,28,32*45
$GNGGA,115323.200,2500.8265356,N,12132.4567487,E,4,60,0.43,16.049,M,15.25,M,2,3335*48
$GNRMC,115323.200,A,2500.8265356,N,12132.4567487,E,0.01,266.26,260623,,,R,V*1E
$GPHDT,269.798,T*3E
$GNACCURACY,2.4*10
$GNGGA,115323.300,2500.8265371,N,12132.4567474,E,4,60,0.43,16.035,M,15.25,M,2,3335*4B
$GNRMC,115323.300,A,2500.8265371,N,12132.4567474,E,0.01,266.26,260623,,,R,V*16
$GPHDT,,T*1B
$GNACCURACY,2.4*10
$GNGGA,115323.400,2500.8265364,N,12132.4567497,E,4,60,0.43,16.045,M,15.25,M,2,3335*42
$GNRMC,115323.400,A,2500.8265364,N,12132.4567497,E,0.01,266.26,260623,,,R,V*18
$GPHDT,269.928,T*3B
$GNACCURACY,2.4*10
$GNGGA,115323.500,2500.8265363,N,12132.4567473,E,4,60,0.43,16.041,M,15.25,M,2,3335*4A
$GNRMC,115323.500,A,2500.8265363,N,12132.4567473,E,0.00,266.26,260623,,,R,V*15
$GPHDT,,T*1B
$GNACCURACY,2.4*10
$GNGGA,115323.600,2500.8265350,N,12132.4567472,E,4,60,0.43,16.041,M,15.25,M,2,3335*48
$GNRMC,115323.600,A,2500.8265350,N,12132.4567472,E,0.01,266.26,260623,,,R,V*16
$GPHDT,269.957,T*33
$GNACCURACY,2.4*10
$GNGGA,115323.700,2500.8265372,N,12132.4567481,E,4,60,0.43,16.042,M,15.25,M,2,3335*46
$GNRMC,115323.700,A,2500.8265372,N,12132.4567481,E,0.00,266.26,260623,,,R,V*1A
$GPHDT,,T*1B
$GNACCURACY,2.4*10
$GNGGA,115323.800,2500.8265338,N,12132.4567445,E,4,60,0.43,16.045,M,15.25,M,2,3335*48
$GNRMC,115323.800,A,2500.8265338,N,12132.4567445,E,0.01,266.26,260623,,,R,V*12
$GPHDT,269.936,T*34
$GNACCURACY,2.4*10
$GNGGA,115323.900,2500.8265354,N,12132.4567471,E,4,60,0.43,16.048,M,15.25,M,2,3335*49
$GNRMC,115323.900,A,2500.8265354,N,12132.4567471,E,0.01,266.26,260623,,,R,V*1E
$GPHDT,,T*1B
$GNACCURACY,2.4*10
$GNGGA,115324.000,2500.8265372,N,12132.4567463,E,4,60,0.43,16.040,M,15.25,M,3,3335*49
$GNRMC,115324.000,A,2500.8265372,N,12132.4567463,E,0.01,266.26,260623,,,R,V*17
$GPHDT,269.705,T*3A
$GNACCURACY,2.4*10
$GNGGA,115324.100,2500.8265357,N,12132.4567466,E,4,59,0.45,16.044,M,15.25,M,3,3335*42
$GNRMC,115324.100,A,2500.8265357,N,12132.4567466,E,0.01,266.26,260623,,,R,V*14
$GPHDT,,T*1B
$GNGSA,A,3,196,23,24,199,18,194,195,12,10,25,32,05,0.71,0.45,0.55,1*07
$GNGSA,A,3,73,80,71,86,85,,,,,,,,0.71,0.45,0.55,2*0C
$GNGSA,A,3,13,07,08,26,30,15,02,,,,,,0.71,0.45,0.55,3*08
$GNGSA,A,3,08,38,13,39,16,06,46,19,09,36,35,22,0.71,0.45,0.55,4*09
$GNGSA,A,3,37,20,29,,,,,,,,,,0.71,0.45,0.55,4*0E
$GPGSV,4,1,16,196,76,074,34,23,62,347,34,24,61,034,36,199,60,167,36,1*6E
$GPGSV,4,2,16,18,50,226,44,41,38,242,42,194,35,136,40,15,31,059,24,1*55
$GPGSV,4,3,16,195,29,179,37,12,28,131,41,10,27,323,36,25,18,170,31,1*5F
$GPGSV,4,4,16,32,15,280,34,05,11,127,19,28,04,222,15,13,02,065,,1*69
$GPGSV,2,1,08,196,76,074,37,24,61,034,25,199,60,167,46,18,50,226,45,8*61
$GPGSV,2,2,08,194,35,136,42,195,29,179,42,10,27,323,34,32,15,280,30,8*6F
$GLGSV,2,1,08,73,53,151,44,80,45,055,29,70,42,029,20,71,27,327,36,1*7E
$GLGSV,2,2,08,86,27,286,38,85,25,233,18,69,08,087,16,79,01,026,,1*79
$GAGSV,3,1,09,13,47,220,42,07,46,316,38,08,43,037,22,26,36,296,33,7*72
$GAGSV,3,2,09,30,34,136,38,02,27,074,,15,13,173,23,27,08,184,,7*76
$GAGSV,3,3,09,03,06,073,18,7*42
$GAGSV,2,1,06,13,47,220,45,07,46,316,42,08,43,037,29,26,36,296,30,1*78
$GAGSV,2,2,06,30,34,136,41,02,27,074,25,1*75
$GBGSV,4,1,15,08,85,341,41,38,80,159,45,13,72,321,37,39,68,298,44,1*7A
$GBGSV,4,2,15,16,65,274,44,06,64,269,42,46,62,086,20,19,54,000,30,1*7E
$GBGSV,4,3,15,09,50,249,40,36,47,183,44,20,39,078,,35,17,258,39,1*7C
$GBGSV,4,4,15,22,17,309,28,37,15,042,36,29,12,204,16,1*4E
$GBGSV,3,1,10,38,80,159,42,39,68,298,41,46,62,086,31,19,54,000,35,4*7F
$GBGSV,3,2,10,36,47,183,47,20,39,078,29,22,17,309,20,35,17,258,37,4*75
$GBGSV,3,3,10,37,15,042,33,29,12,204,19,4*72
$GNACCURACY,2.4*10
$PAIRSAT,1,35,1,0,200,2,0,200,3,0,200,4,0,200,5,0,201,6,0,200,7,0,200,8,0,200,9,0,200,10,0,221,11,0,200,12,0,201,13,0,201,14,0,200,15,0,201,16,0,200,17,0,200,18,0,221,19,0,200,20,0,200,21,0,200,23,0,221,24,0,221,25,0,220,26,0,200,27,0,200,28,0,200,29,0,200,30,0,200,31,0,200,32,0,221,194,0,621,195,0,621,196,0,620,199,0,621*6A
$PAIRSAT,2,24,65,0,200,66,0,200,67,0,200,68,0,200,69,0,200,70,0,200,71,0,201,72,0,200,73,0,201,74,0,200,75,0,200,76,0,200,77,0,200,78,0,200,79,0,201,80,0,201,81,0,200,82,0,200,83,0,200,84,0,200,85,0,201,86,0,201,87,0,200,88,0,200*7A
$PAIRSAT,3,23,2,0,1221,3,0,1221,4,0,1200,5,0,200,7,0,1221,8,0,1221,9,0,1200,10,0,1200,11,0,1200,12,0,1200,13,0,1221,15,0,1221,19,0,1200,21,0,1200,24,0,1200,25,0,1200,26,0,1221,27,0,1200,30,0,1221,31,0,1200,33,0,1200,34,0,1200,36,0,1200*6A
$PAIRSAT,4,50,1,0,200,2,0,200,3,0,200,4,0,200,5,0,200,6,0,201,7,0,200,8,0,201,9,0,201,10,0,200,11,0,200,12,0,200,13,0,201,14,0,200,15,0,200,16,0,201,19,0,621,20,0,621,21,0,600,22,0,621,23,0,600,24,0,600,25,0,600,26,0,600,27,0,600,28,0,600,29,0,621,30,0,600,31,0,200,32,0,600,33,0,600,34,0,600,35,0,621,36,0,621,37,0,621,38,0,621,39,0,621,40,0,600,41,0,600,42,0,600,43,0,600,44,0,600,45,0,600,46,0,621,56,0,200,57,0,200,58,0,200,59,0,600,60,0,600,61,0,600*41
$PAIRDGP,10,5,10,12,15,18,23,24,25,28,32*45
$GNGGA,115324.200,2500.8265350,N,12132.4567463,E,4,59,0.45,16.043,M,15.25,M,3,3335*44
$GNRMC,115324.200,A,2500.8265350,N,12132.4567463,E,0.01,266.26,260623,,,R,V*15
$GPHDT,269.756,T*3C
$GNACCURACY,2.4*10
$GNGGA,115324.300,2500.8265363,N,12132.4567453,E,4,59,0.45,16.041,M,15.25,M,3,3335*44
$GNRMC,115324.300,A,2500.8265363,N,12132.4567453,E,0.01,266.26,260623,,,R,V*17
$GPHDT,,T*1B
$GNACCURACY,2.4*10
$GNGGA,115324.400,2500.8265349,N,12132.4567426,E,4,59,0.45,16.034,M,15.25,M,3,3335*4B
$GNRMC,115324.400,A,2500.8265349,N,12132.4567426,E,0.00,266.26,260623,,,R,V*1B
$GPHDT,269.889,T*31
$GNACCURACY,2.4*10
$GNGGA,115324.500,2500.8265364,N,12132.4567425,E,4,57,0.45,16.039,M,15.25,M,3,3335*45
$GNRMC,115324.500,A,2500.8265364,N,12132.4567425,E,0.00,266.26,260623,,,R,V*16
$GPHDT,,T*1B
$GNACCURACY,2.4*10
$GNGGA,115324.600,2500.8265342,N,12132.4567427,E,4,57,0.45,16.044,M,15.25,M,3,3335*4A
$GNRMC,115324.600,A,2500.8265342,N,12132.4567427,E,0.01,266.26,260623,,,R,V*12
$GPHDT,269.927,T*34
$GNACCURACY,2.4*10
$GNGGA,115324.700,2500.8265347,N,12132.4567427,E,4,57,0.45,16.041,M,15.25,M,3,3335*4B
$GNRMC,115324.700,A,2500.8265347,N,12132.4567427,E,0.01,266.26,260623,,,R,V*16
$GPHDT,,T*1B
$GNACCURACY,2.4*10
$GNGGA,115324.800,2500.8265358,N,12132.4567419,E,4,57,0.45,16.027,M,15.25,M,3,3335*47
$GNRMC,115324.800,A,2500.8265358,N,12132.4567419,E,0.01,266.26,260623,,,R,V*1A
$GPHDT,269.915,T*35
$GNACCURACY,2.4*10
$GNGGA,115324.900,2500.8265328,N,12132.4567445,E,4,57,0.45,16.050,M,15.25,M,3,3335*48
$GNRMC,115324.900,A,2500.8265328,N,12132.4567445,E,0.01,266.26,260623,,,R,V*15
$GPHDT,,T*1B
$GNACCURACY,2.4*10
$GNGGA,115325.000,2500.8265315,N,12132.4567448,E,4,58,0.45,16.045,M,15.25,M,4,3335*4F
$GNRMC,115325.000,A,2500.8265315,N,12132.4567448,E,0.01,266.26,260623,,,R,V*1E
$GPHDT,269.927,T*34
$GNACCURACY,2.4*10
$GNGGA,115325.100,2500.8265302,N,12132.4567438,E,4,58,0.45,16.041,M,15.25,M,4,3335*4B
$GNRMC,115325.100,A,2500.8265302,N,12132.4567438,E,0.00,266.26,260623,,,R,V*1F
$GPHDT,,T*1B
$GNGSA,A,3,196,23,24,199,18,194,15,195,12,10,25,32,0.72,0.45,0.56,1*06
$GNGSA,A,3,73,80,71,86,85,,,,,,,,0.72,0.45,0.56,2*0C
$GNGSA,A,3,13,07,08,26,30,15,02,,,,,,0.72,0.45,0.56,3*08
$GNGSA,A,3,08,38,13,39,16,06,19,09,36,35,22,37,0.72,0.45,0.56,4*0F
$GNGSA,A,3,46,20,29,,,,,,,,,,0.72,0.45,0.56,4*08
$GPGSV,4,1,16,196,76,074,33,23,62,347,33,24,61,034,36,199,60,167,35,1*6D
$GPGSV,4,2,16,18,50,226,44,41,38,242,42,194,35,136,40,15,31,059,23,1*52
$GPGSV,4,3,16,195,29,179,37,12,28,131,41,10,27,323,33,25,18,170,30,1*5B
$GPGSV,4,4,16,32,15,280,34,05,11,127,20,28,04,222,15,13,02,065,,1*63
$GPGSV,2,1,08,196,76,074,37,24,61,034,26,199,60,167,46,18,50,226,45,8*62
$GPGSV,2,2,08,194,35,136,42,195,29,179,42,10,27,323,34,32,15,280,29,8*67
$GLGSV,2,1,08,73,53,151,44,80,45,055,30,70,42,029,18,71,27,327,35,1*7E
$GLGSV,2,2,08,86,27,286,38,85,25,233,19,69,08,087,16,79,01,026,,1*78
$GAGSV,3,1,09,13,47,220,42,07,46,316,38,08,43,037,23,26,36,296,33,7*73
$GAGSV,3,2,09,30,34,136,38,02,27,074,,15,13,173,24,27,08,184,,7*71
$GAGSV,3,3,09,03,06,073,18,7*42
$GAGSV,2,1,06,13,47,220,45,07,46,316,42,08,43,037,28,26,36,296,29,1*71
$GAGSV,2,2,06,30,34,136,41,02,27,074,25,1*75
$GBGSV,4,1,15,08,85,341,41,38,80,159,45,13,72,321,37,39,68,298,44,1*7A
$GBGSV,4,2,15,16,65,274,44,06,64,269,42,46,62,086,19,19,54,000,30,1*74
$GBGSV,4,3,15,09,50,249,40,36,47,183,44,20,39,078,,35,17,258,39,1*7C
$GBGSV,4,4,15,22,17,309,30,37,15,042,36,29,12,204,17,1*46
$GBGSV,3,1,10,38,80,159,42,39,68,298,41,46,62,086,31,19,54,000,35,4*7F
$GBGSV,3,2,10,36,47,183,47,20,39,078,28,22,17,309,17,35,17,258,37,4*70
$GBGSV,3,3,10,37,15,042,32,29,12,204,19,4*73
$GNACCURACY,2.4*10
$PAIRSAT,1,35,1,0,200,2,0,200,3,0,200,4,0,200,5,0,201,6,0,200,7,0,200,8,0,200,9,0,200,10,0,221,11,0,200,12,0,201,13,0,201,14,0,200,15,0,201,16,0,200,17,0,200,18,0,221,19,0,200,20,0,200,21,0,200,23,0,221,24,0,221,25,0,220,26,0,200,27,0,200,28,0,200,29,0,200,30,0,200,31,0,200,32,0,221,194,0,621,195,0,621,196,0,620,199,0,621*6A
$PAIRSAT,2,24,65,0,200,66,0,200,67,0,200,68,0,200,69,0,200,70,0,200,71,0,201,72,0,200,73,0,201,74,0,200,75,0,200,76,0,200,77,0,200,78,0,200,79,0,201,80,0,201,81,0,200,82,0,200,83,0,200,84,0,200,85,0,201,86,0,201,87,0,200,88,0,200*7A
$PAIRSAT,3,23,2,0,1221,3,0,1221,4,0,1200,5,0,200,7,0,1221,8,0,1221,9,0,1200,10,0,1200,11,0,1200,12,0,1200,13,0,1221,15,0,1221,19,0,1200,21,0,1200,24,0,1200,25,0,1200,26,0,1221,27,0,1200,30,0,1221,31,0,1200,33,0,1200,34,0,1200,36,0,1200*6A
$PAIRSAT,4,50,1,0,200,2,0,200,3,0,200,4,0,200,5,0,200,6,0,201,7,0,200,8,0,201,9,0,201,10,0,200,11,0,200,12,0,200,13,0,201,14,0,200,15,0,200,16,0,201,19,0,621,20,0,621,21,0,600,22,0,621,23,0,600,24,0,600,25,0,600,26,0,600,27,0,600,28,0,600,29,0,621,30,0,600,31,0,200,32,0,600,33,0,600,34,0,600,35,0,621,36,0,621,37,0,621,38,0,621,39,0,621,40,0,600,41,0,600,42,0,600,43,0,600,44,0,600,45,0,600,46,0,621,56,0,200,57,0,200,58,0,200,59,0,600,60,0,600,61,0,600*41
$PAIRDGP,10,5,10,12,15,18,23,24,25,28,32*45
$GNGGA,115325.200,2500.8265289,N,12132.4567449,E,4,58,0.45,16.026,M,15.25,M,1,3335*48
$GNRMC,115325.200,A,2500.8265289,N,12132.4567449,E,0.01,266.26,260623,,,R,V*19
$GPHDT,269.898,T*31
$GNACCURACY,2.4*10
$GNGGA,115325.300,2500.8265282,N,12132.4567467,E,4,59,0.45,16.036,M,15.25,M,1,3335*4E
$GNRMC,115325.300,A,2500.8265282,N,12132.4567467,E,0.01,266.26,260623,,,R,V*1F
$GPHDT,,T*1B
$GNACCURACY,2.4*10
$GNGGA,115325.400,2500.8265302,N,12132.4567459,E,4,60,0.45,16.031,M,15.25,M,1,3335*40
$GNRMC,115325.400,A,2500.8265302,N,12132.4567459,E,0.01,266.26,260623,,,R,V*1C
$GPHDT,269.664,T*3C
$GNACCURACY,2.4*10
$GNGGA,115325.500,2500.8265302,N,12132.4567479,E,4,60,0.45,16.030,M,15.25,M,1,3335*42
$GNRMC,115325.500,A,2500.8265302,N,12132.4567479,E,0.01,266.26,260623,,,R,V*1F
$GPHDT,,T*1B
$GNACCURACY,2.4*10
$GNGGA,115325.600,2500.8265292,N,12132.4567505,E,4,60,0.45,16.037,M,15.25,M,1,3335*44
$GNRMC,115325.600,A,2500.8265292,N,12132.4567505,E,0.01,266.26,260623,,,R,V*1E
$GPHDT,269.813,T*32
$GNACCURACY,2.4*10
$GNGGA,115325.700,2500.8265330,N,12132.4567435,E,4,60,0.45,16.031,M,15.25,M,0,3335*49
$GNRMC,115325.700,A,2500.8265330,N,12132.4567435,E,0.01,266.26,260623,,,R,V*14
$GPHDT,,T*1B
$GNACCURACY,2.4*10
$GNGGA,115325.800,2500.8265325,N,12132.4567446,E,4,60,0.45,16.030,M,15.25,M,0,3335*47
$GNRMC,115325.800,A,2500.8265325,N,12132.4567446,E,0.01,266.26,260623,,,R,V*1B
$GPHDT,270.089,T*31
$GNACCURACY,2.4*10
$GNGGA,115325.900,2500.8265385,N,12132.4567487,E,4,60,0.45,16.018,M,15.25,M,0,3335*4B
$GNRMC,115325.900,A,2500.8265385,N,12132.4567487,E,0.01,266.26,260623,,,R,V*1D
$GPHDT,,T*1B
$GNACCURACY,2.4*10
$GNGGA,115326.000,2500.8265388,N,12132.4567495,E,4,60,0.45,16.003,M,15.25,M,1,3335*44
$GNRMC,115326.000,A,2500.8265388,N,12132.4567495,E,0.01,266.26,260623,,,R,V*19
$GPHDT,271.098,T*30
$GNACCURACY,2.4*10
$GNGGA,115326.100,2500.8265373,N,12132.4567445,E,4,62,0.45,16.014,M,15.25,M,1,3335*48
$GNRMC,115326.100,A,2500.8265373,N,12132.4567445,E,0.01,266.26,260623,,,R,V*11
$GPHDT,,T*1B
$GNGSA,A,3,196,23,24,199,18,194,195,12,10,25,32,05,0.71,0.45,0.55,1*07
$GNGSA,A,3,73,80,71,86,85,,,,,,,,0.71,0.45,0.55,2*0C
$GNGSA,A,3,13,07,08,26,30,02,15,,,,,,0.71,0.45,0.55,3*08
$GNGSA,A,3,08,38,13,39,16,06,19,09,36,35,22,37,0.71,0.45,0.55,4*0F
$GNGSA,A,3,46,20,29,,,,,,,,,,0.71,0.45,0.55,4*08
$GPGSV,4,1,16,196,76,074,34,23,62,347,33,24,61,034,36,199,60,167,35,1*6A
$GPGSV,4,2,16,18,50,226,44,41,38,242,42,194,35,136,40,15,31,059,20,1*51
$GPGSV,4,3,16,195,29,179,36,12,28,131,41,10,27,323,36,25,18,170,30,1*5F
$GPGSV,4,4,16,32,15,280,34,05,11,127,20,28,04,222,14,13,02,065,,1*62
$GPGSV,3,1,09,196,76,074,38,24,61,034,26,199,60,167,46,18,50,226,45,8*6D
$GPGSV,3,2,09,194,35,136,42,195,29,179,42,10,27,323,34,25,18,170,26,8*6F
$GPGSV,3,3,09,32,15,280,29,8*50
$GLGSV,2,1,08,73,53,151,44,80,45,055,30,70,42,029,18,71,27,327,36,1*7D
$GLGSV,2,2,08,86,27,286,38,85,25,233,20,69,08,087,16,79,01,026,,1*72
$GAGSV,3,1,09,13,47,220,42,07,46,316,38,08,43,037,23,26,36,296,32,7*72
$GAGSV,3,2,09,30,34,136,38,02,27,074,19,15,13,173,25,27,08,184,,7*78
$GAGSV,3,3,09,03,06,073,17,7*4D
$GAGSV,2,1,07,13,47,220,45,07,46,316,42,08,43,037,28,26,36,296,31,1*79
$GAGSV,2,2,07,30,34,136,41,02,27,074,25,15,13,173,21,1*44
$GBGSV,4,1,15,08,85,341,41,38,80,159,45,13,72,321,35,39,68,298,44,1*78
$GBGSV,4,2,15,16,65,274,44,06,64,269,42,46,62,086,18,19,54,000,30,1*75
$GBGSV,4,3,15,09,50,249,40,36,47,183,44,20,39,078,,35,17,258,39,1*7C
$GBGSV,4,4,15,22,17,309,31,37,15,042,35,29,12,204,16,1*45
$GBGSV,3,1,10,38,80,159,42,39,68,298,41,46,62,086,31,19,54,000,35,4*7F
$GBGSV,3,2,10,36,47,183,47,20,39,078,28,22,17,309,16,35,17,258,37,4*71
$GBGSV,3,3,10,37,15,042,34,29,12,204,19,4*75
$GNACCURACY,2.4*10
$PAIRSAT,1,35,1,0,200,2,0,200,3,0,200,4,0,200,5,0,201,6,0,200,7,0,200,8,0,200,9,0,200,10,0,221,11,0,200,12,0,201,13,0,201,14,0,200,15,0,201,16,0,200,17,0,200,18,0,221,19,0,200,20,0,200,21,0,200,23,0,221,24,0,221,25,0,220,26,0,200,27,0,200,28,0,200,29,0,200,30,0,200,31,0,200,32,0,221,194,0,621,195,0,621,196,0,620,199,0,621*6A
$PAIRSAT,2,24,65,0,200,66,0,200,67,0,200,68,0,200,69,0,200,70,0,200,71,0,201,72,0,200,73,0,201,74,0,200,75,0,200,76,0,200,77,0,200,78,0,200,79,0,201,80,0,201,81,0,200,82,0,200,83,0,200,84,0,200,85,0,201,86,0,201,87,0,200,88,0,200*7A
$PAIRSAT,3,23,2,0,1221,3,0,1221,4,0,1200,5,0,200,7,0,1221,8,0,1221,9,0,1200,10,0,1200,11,0,1200,12,0,1200,13,0,1221,15,0,1221,19,0,1200,21,0,1200,24,0,1200,25,0,1200,26,0,1221,27,0,1200,30,0,1221,31,0,1200,33,0,1200,34,0,1200,36,0,1200*6A
$PAIRSAT,4,50,1,0,200,2,0,200,3,0,200,4,0,200,5,0,200,6,0,201,7,0,200,8,0,201,9,0,201,10,0,200,11,0,200,12,0,200,13,0,201,14,0,200,15,0,200,16,0,201,19,0,621,20,0,621,21,0,600,22,0,621,23,0,600,24,0,600,25,0,600,26,0,600,27,0,600,28,0,600,29,0,621,30,0,600,31,0,200,32,0,600,33,0,600,34,0,600,35,0,621,36,0,621,37,0,621,38,0,621,39,0,621,40,0,600,41,0,600,42,0,600,43,0,600,44,0,600,45,0,600,46,0,621,56,0,200,57,0,200,58,0,200,59,0,600,60,0,600,61,0,600*41
$PAIRDGP,10,5,10,12,15,18,23,24,25,28,32*45
$GNGGA,115326.200,2500.8265344,N,12132.4567415,E,4,62,0.45,16.034,M,15.25,M,1,3335*48
$GNRMC,115326.200,A,2500.8265344,N,12132.4567415,E,0.01,266.26,260623,,,R,V*13
$GPHDT,270.711,T*37
$GNACCURACY,2.4*10
$GNGGA,115326.300,2500.8265345,N,12132.4567415,E,4,62,0.45,16.038,M,15.25,M,1,3335*44
$GNRMC,115326.300,A,2500.8265345,N,12132.4567415,E,0.02,266.26,260623,,,R,V*10
$GPHDT,,T*1B
$GNACCURACY,2.4*10
$GNGGA,115326.400,2500.8265392,N,12132.4567478,E,4,62,0.45,16.028,M,15.25,M,1,3335*43
$GNRMC,115326.400,A,2500.8265392,N,12132.4567478,E,0.02,266.26,260623,,,R,V*16
$GPHDT,269.566,T*3D
$GNACCURACY,2.4*10
$GNGGA,115326.500,2500.8265380,N,12132.4567464,E,4,63,0.43,16.038,M,15.25,M,1,3335*4A
$GNRMC,115326.500,A,2500.8265380,N,12132.4567464,E,0.02,266.26,260623,,,R,V*19
$GPHDT,,T*1B
$GNACCURACY,2.4*10
$GNGGA,115326.600,2500.8265416,N,12132.4567495,E,4,63,0.43,16.012,M,15.25,M,1,3335*47
$GNRMC,115326.600,A,2500.8265416,N,12132.4567495,E,0.02,266.26,260623,,,R,V*1C
$GPHDT,269.667,T*3F
$GNACCURACY,2.4*10
$GNGGA,115326.700,2500.8265424,N,12132.4567527,E,4,63,0.43,15.995,M,15.25,M,1,3335*4A
$GNRMC,115326.700,A,2500.8265424,N,12132.4567527,E,0.02,266.26,260623,,,R,V*14
$GPHDT,,T*1B
$GNACCURACY,2.4*10
$GNGGA,115326.800,2500.8265340,N,12132.4567524,E,4,63,0.43,16.011,M,15.25,M,1,3335*45
$GNRMC,115326.800,A,2500.8265340,N,12132.4567524,E,0.02,266.26,260623,,,R,V*1D
$GPHDT,270.119,T*39
$GNACCURACY,2.4*10
$GNGGA,115326.900,2500.8265340,N,12132.4567503,E,4,63,0.43,16.013,M,15.25,M,1,3335*43
$GNRMC,115326.900,A,2500.8265340,N,12132.4567503,E,0.02,266.26,260623,,,R,V*19
$GPHDT,,T*1B
$GNACCURACY,2.4*10
$GNGGA,115327.000,2500.8265369,N,12132.4567487,E,4,63,0.43,16.024,M,15.25,M,2,3335*4A
$GNRMC,115327.000,A,2500.8265369,N,12132.4567487,E,0.03,266.26,260623,,,R,V*16
$GPHDT,269.469,T*33
$GNACCURACY,2.4*10
$GNGGA,115327.100,2500.8265298,N,12132.4567482,E,4,63,0.43,16.026,M,15.25,M,2,3335*43
$GNRMC,115327.100,A,2500.8265298,N,12132.4567482,E,0.03,266.26,260623,,,R,V*1D
$GPHDT,,T*1B
