$FW : RTK35X,V1.1X0314AS,Lib20210517,1*54
$Tool : LOCOSYS , GNSS Firebird , v1.0.0.19*39
$---------------------------------------------------*2D
,36,195,30,179,43,10,27,323,42,8*68
$GPGSV,3,3,10,25,17,170,30,32,14,279,29,8*6B
$GLGSV,2,1,08,73,52,151,36,80,45,055,17,70,42,028,,71,27,327,34,1*76
$GLGSV,2,2,08,86,27,286,35,85,26,233,28,69,08,087,18,79,02,026,,1*79
$GAGSV,3,1,09,13,47,220,43,07,46,316,43,08,43,036,28,26,36,296,26,7*70
$GAGSV,3,2,09,30,34,136,25,02,27,074,16,15,14,173,27,27,08,184,,7*7E
$GAGSV,3,3,09,03,06,072,,7*4A
$GAGSV,2,1,06,13,47,220,44,07,46,316,46,08,43,036,31,26,36,296,37,1*72
$GAGSV,2,2,06,30,34,136,40,02,27,074,20,1*71
$GBGSV,4,1,15,08,85,344,41,38,81,157,44,13,72,322,38,39,68,298,42,1*7B
$GBGSV,4,2,15,16,65,273,41,06,64,268,41,46,62,087,17,19,54,359,34,1*70
$GBGSV,4,3,15,09,50,248,39,36,46,183,45,20,40,077,16,35,17,258,38,1*74
$GBGSV,4,4,15,22,17,309,32,37,15,042,35,29,12,204,16,1*46
$GBGSV,3,1,10,38,81,157,43,39,68,298,42,46,62,087,35,19,54,359,35,4*78
$GBGSV,3,2,10,36,46,183,46,20,40,077,22,22,17,309,20,35,17,258,37,4*7F
$GBGSV,3,3,10,37,15,042,29,29,12,204,17,4*77
$GNACCURACY,2.3*17
$PAIRSAT,1,35,1,0,200,2,0,200,3,0,200,4,0,200,5,0,201,6,0,200,7,0,200,8,0,200,9,0,200,10,0,221,11,0,200,12,0,201,13,0,201,14,0,200,15,0,201,16,0,200,17,0,200,18,0,221,19,0,200,20,0,200,21,0,200,23,0,221,24,0,221,25,0,220,26,0,200,27,0,200,28,0,200,29,0,200,30,0,200,31,0,200,32,0,221,194,0,621,195,0,621,196,0,620,199,0,621*6A
$PAIRSAT,2,24,65,0,200,66,0,200,67,0,200,68,0,200,69,0,200,70,0,200,71,0,201,72,0,200,73,0,201,74,0,200,75,0,200,76,0,200,77,0,200,78,0,200,79,0,201,80,0,201,81,0,200,82,0,200,83,0,200,84,0,200,85,0,201,86,0,201,87,0,200,88,0,200*7A
$PAIRSAT,3,23,2,0,1221,3,0,1221,4,0,1200,5,0,200,7,0,1221,8,0,1221,9,0,1200,10,0,1200,11,0,1200,12,0,1200,13,0,1221,15,0,1221,19,0,1200,21,0,1200,24,0,1200,25,0,1200,26,0,1221,27,0,1200,30,0,1221,31,0,1200,33,0,1200,34,0,1200,36,0,1200*6A
$PAIRSAT,4,50,1,0,200,2,0,200,3,0,200,4,0,200,5,0,200,6,0,201,7,0,200,8,0,201,9,0,201,10,0,200,11,0,200,12,0,200,13,0,201,14,0,200,15,0,200,16,0,201,19,0,621,20,0,621,21,0,600,22,0,621,23,0,600,24,0,600,25,0,600,26,0,600,27,0,600,28,0,600,29,0,621,30,0,600,31,0,200,32,0,600,33,0,600,34,0,600,35,0,621,36,0,621,37,0,621,38,0,621,39,0,621,40,0,600,41,0,600,42,0,600,43,0,600,44,0,600,45,0,600,46,0,621,56,0,200,57,0,200,58,0,200,59,0,600,60,0,600,61,0,600*41
$PAIRDGP,10,5,10,12,15,18,23,24,25,28,32*45
$GNGGA,115231.200,2500.8265413,N,12132.4567370,E,4,63,0.45,16.021,M,15.25,M,3,3335*49
$GNRMC,115231.200,A,2500.8265413,N,12132.4567370,E,0.01,266.26,260623,,,R,V*15
$GPHDT,,T*1B
$GNACCURACY,2.3*17
$GNGGA,115231.300,2500.8265436,N,12132.4567439,E,4,61,0.47,15.991,M,15.25,M,3,3335*44
$GNRMC,115231.300,A,2500.8265436,N,12132.4567439,E,0.01,266.26,260623,,,R,V*19
$GPHDT,,T*1B
$GNACCURACY,2.4*10
$GNGGA,115231.400,2500.8265446,N,12132.4567415,E,4,63,0.45,15.996,M,15.25,M,3,3335*4D
$GNRMC,115231.400,A,2500.8265446,N,12132.4567415,E,0.01,266.26,260623,,,R,V*17
$GPHDT,,T*1B
$GNACCURACY,2.3*17
$GNGGA,115231.500,2500.8265426,N,12132.4567489,E,4,63,0.45,16.004,M,15.25,M,3,3335*4E
$GNRMC,115231.500,A,2500.8265426,N,12132.4567489,E,0.01,266.26,260623,,,R,V*15
$GPHDT,,T*1B
$GNACCURACY,2.3*17
$GNGGA,115231.600,2500.8265406,N,12132.4567524,E,4,63,0.45,15.993,M,15.25,M,3,3335*4D
$GNRMC,115231.600,A,2500.8265406,N,12132.4567524,E,0.01,266.26,260623,,,R,V*12
$GPHDT,,T*1B
$GNACCURACY,2.3*17
$GNGGA,115231.700,2500.8265406,N,12132.4567472,E,4,63,0.45,15.994,M,15.25,M,3,3335*49
$GNRMC,115231.700,A,2500.8265406,N,12132.4567472,E,0.01,266.26,260623,,,R,V*11
$GPHDT,,T*1B
$GNACCURACY,2.3*17
$GNGGA,115231.800,2500.8265415,N,12132.4567492,E,4,63,0.45,15.991,M,15.25,M,3,3335*4F
$GNRMC,115231.800,A,2500.8265415,N,12132.4567492,E,0.01,266.26,260623,,,R,V*12
$GPHDT,,T*1B
$GNACCURACY,2.3*17
$GNGGA,115231.900,2500.8265393,N,12132.4567516,E,4,63,0.45,15.996,M,15.25,M,3,3335*4D
$GNRMC,115231.900,A,2500.8265393,N,12132.4567516,E,0.01,266.26,260623,,,R,V*17
$GPHDT,,T*1B
$GNACCURACY,2.3*17
$GNGGA,115232.000,2500.8265431,N,12132.4567507,E,4,64,0.45,15.986,M,15.25,M,4,3335*49
$GNRMC,115232.000,A,2500.8265431,N,12132.4567507,E,0.01,266.26,260623,,,R,V*12
$GPHDT,,T*1B
$GNACCURACY,2.3*17
$GNGGA,115232.100,2500.8265460,N,12132.4567459,E,4,64,0.45,15.980,M,15.25,M,4,3335*40
$GNRMC,115232.100,A,2500.8265460,N,12132.4567459,E,0.02,266.26,260623,,,R,V*1E
$GPHDT,,T*1B
$GNGSA,A,3,196,23,24,199,18,194,15,195,12,10,25,32,0.81,0.45,0.68,1*07
$GNGSA,A,3,73,80,86,71,85,,,,,,,,0.81,0.45,0.68,2*0D
$GNGSA,A,3,13,07,08,26,30,02,15,,,,,,0.81,0.45,0.68,3*09
$GNGSA,A,3,08,38,13,39,16,06,46,19,09,36,22,35,0.81,0.45,0.68,4*08
$GNGSA,A,3,37,29,20,,,,,,,,,,0.81,0.45,0.68,4*0F
$GPGSV,4,1,16,196,76,073,32,23,62,347,32,24,61,034,35,199,60,167,33,1*6F
$GPGSV,4,2,16,18,51,227,45,41,38,242,41,194,35,136,33,15,31,059,35,1*53
$GPGSV,4,3,16,195,30,179,39,12,28,131,32,10,27,323,41,25,17,170,25,1*57
$GPGSV,4,4,16,32,14,279,32,05,11,127,15,28,03,222,,13,02,065,,1*67
$GPGSV,3,1,10,196,76,073,38,23,62,347,31,24,61,034,22,199,60,167,45,8*69
$GPGSV,3,2,10,18,51,227,46,194,35,136,37,195,30,179,43,10,27,323,42,8*69
$GPGSV,3,3,10,25,17,170,31,32,14,279,31,8*63
$GLGSV,2,1,07,73,52,151,35,80,45,055,18,86,27,286,36,71,27,327,37,1*7F
$GLGSV,2,2,07,85,26,233,28,69,08,087,18,79,02,026,,1*47
$GAGSV,3,1,09,13,47,220,43,07,46,316,43,08,43,036,29,26,36,296,28,7*7F
$GAGSV,3,2,09,30,34,136,29,02,27,074,15,15,14,173,28,27,08,184,,7*7E
$GAGSV,3,3,09,03,06,072,,7*4A
$GAGSV,2,1,06,13,47,220,44,07,46,316,46,08,43,036,32,26,36,296,37,1*71
$GAGSV,2,2,06,30,34,136,40,02,27,074,19,1*7B
$GBGSV,4,1,16,08,85,343,41,38,81,157,44,13,72,321,38,39,68,298,42,1*7C
$GBGSV,4,2,16,16,65,273,41,06,64,268,41,46,62,087,17,19,54,359,34,1*73
$GBGSV,4,3,16,09,50,248,39,36,46,183,45,20,40,077,17,22,17,309,31,1*7C
$GBGSV,4,4,16,35,17,258,38,37,15,042,35,29,12,204,16,07,06,190,,1*75
$GBGSV,3,1,10,38,81,157,43,39,68,298,42,46,62,087,36,19,54,359,36,4*78
$GBGSV,3,2,10,36,46,183,46,20,40,077,23,22,17,309,18,35,17,258,38,4*7A
$GBGSV,3,3,10,37,15,042,26,29,12,204,17,4*78
$GNACCURACY,2.3*17
$PAIRSAT,1,35,1,0,200,2,0,200,3,0,200,4,0,200,5,0,201,6,0,200,7,0,200,8,0,200,9,0,200,10,0,221,11,0,200,12,0,201,13,0,201,14,0,200,15,0,201,16,0,200,17,0,200,18,0,221,19,0,200,20,0,200,21,0,200,23,0,221,24,0,221,25,0,220,26,0,200,27,0,200,28,0,200,29,0,200,30,0,200,31,0,200,32,0,221,194,0,621,195,0,621,196,0,620,199,0,621*6A
$PAIRSAT,2,24,65,0,200,66,0,200,67,0,200,68,0,200,69,0,200,70,0,200,71,0,201,72,0,200,73,0,201,74,0,200,75,0,200,76,0,200,77,0,200,78,0,200,79,0,201,80,0,201,81,0,200,82,0,200,83,0,200,84,0,200,85,0,201,86,0,201,87,0,200,88,0,200*7A
$PAIRSAT,3,23,2,0,1221,3,0,1221,4,0,1200,5,0,200,7,0,1221,8,0,1221,9,0,1200,10,0,1200,11,0,1200,12,0,1200,13,0,1221,15,0,1221,19,0,1200,21,0,1200,24,0,1200,25,0,1200,26,0,1221,27,0,1200,30,0,1221,31,0,1200,33,0,1200,34,0,1200,36,0,1200*6A
$PAIRSAT,4,50,1,0,200,2,0,200,3,0,200,4,0,200,5,0,200,6,0,201,7,0,200,8,0,201,9,0,201,10,0,200,11,0,200,12,0,200,13,0,201,14,0,200,15,0,200,16,0,201,19,0,621,20,0,621,21,0,600,22,0,621,23,0,600,24,0,600,25,0,600,26,0,600,27,0,600,28,0,600,29,0,621,30,0,600,31,0,200,32,0,600,33,0,600,34,0,600,35,0,621,36,0,621,37,0,621,38,0,621,39,0,621,40,0,600,41,0,600,42,0,600,43,0,600,44,0,600,45,0,600,46,0,621,56,0,200,57,0,200,58,0,200,59,0,600,60,0,600,61,0,600*41
$PAIRDGP,10,5,10,12,15,18,23,24,25,28,32*45
$GNGGA,115232.200,2500.8265467,N,12132.4567475,E,4,64,0.45,15.986,M,15.25,M,4,3335*4C
$GNRMC,115232.200,A,2500.8265467,N,12132.4567475,E,0.02,266.26,260623,,,R,V*14
$GPHDT,,T*1B
$GNACCURACY,2.4*10
$GNGGA,115232.300,2500.8265470,N,12132.4567458,E,4,64,0.45,15.990,M,15.25,M,4,3335*43
$GNRMC,115232.300,A,2500.8265470,N,12132.4567458,E,0.02,266.26,260623,,,R,V*1C
$GPHDT,,T*1B
$GNACCURACY,2.3*17
$GNGGA,115232.400,2500.8265482,N,12132.4567477,E,4,64,0.45,15.991,M,15.25,M,4,3335*45
$GNRMC,115232.400,A,2500.8265482,N,12132.4567477,E,0.02,266.26,260623,,,R,V*1B
$GPHDT,,T*1B
$GNACCURACY,2.4*10
$GNGGA,115232.500,2500.8265510,N,12132.4567485,E,4,64,0.45,15.998,M,15.25,M,4,3335*4A
$GNRMC,115232.500,A,2500.8265510,N,12132.4567485,E,0.02,266.26,260623,,,R,V*1D
$GPHDT,,T*1B
$GNACCURACY,2.4*10
$GNGGA,115232.600,2500.8265511,N,12132.4567480,E,4,64,0.45,16.008,M,15.25,M,4,3335*4E
$GNRMC,115232.600,A,2500.8265511,N,12132.4567480,E,0.02,266.26,260623,,,R,V*1A
$GPHDT,,T*1B
$GNACCURACY,2.4*10
$GNGGA,115232.700,2500.8265510,N,12132.4567476,E,4,64,0.45,16.007,M,15.25,M,4,3335*48
$GNRMC,115232.700,A,2500.8265510,N,12132.4567476,E,0.02,266.26,260623,,,R,V*13
$GPHDT,,T*1B
$GNACCURACY,2.4*10
$GNGGA,115232.800,2500.8265514,N,12132.4567465,E,4,62,0.47,16.006,M,15.25,M,4,3335*44
$GNRMC,115232.800,A,2500.8265514,N,12132.4567465,E,0.02,266.26,260623,,,R,V*1A
$GPHDT,,T*1B
$GNACCURACY,2.4*10
$GNGGA,115232.900,2500.8265528,N,12132.4567460,E,4,63,0.45,16.012,M,15.25,M,4,3335*49
$GNRMC,115232.900,A,2500.8265528,N,12132.4567460,E,0.02,266.26,260623,,,R,V*11
$GPHDT,,T*1B
$GNACCURACY,2.4*10
$GNGGA,115233.000,2500.8265468,N,12132.4567460,E,4,62,0.47,16.010,M,15.25,M,5,3335*44
$GNRMC,115233.000,A,2500.8265468,N,12132.4567460,E,0.02,266.26,260623,,,R,V*1C
$GPHDT,,T*1B
$GNACCURACY,2.4*10
$GNGGA,115233.100,2500.8265490,N,12132.4567404,E,4,64,0.45,16.014,M,15.25,M,5,3335*40
$GNRMC,115233.100,A,2500.8265490,N,12132.4567404,E,0.02,266.26,260623,,,R,V*18
$GPHDT,,T*1B
$GNGSA,A,3,196,23,24,199,18,194,15,195,12,10,25,32,0.81,0.45,0.68,1*07
$GNGSA,A,3,73,80,86,71,85,,,,,,,,0.81,0.45,0.68,2*0D
$GNGSA,A,3,13,07,08,26,30,02,15,,,,,,0.81,0.45,0.68,3*09
$GNGSA,A,3,08,38,13,39,16,06,46,19,09,36,22,35,0.81,0.45,0.68,4*08
$GNGSA,A,3,37,29,20,,,,,,,,,,0.81,0.45,0.68,4*0F
$GPGSV,4,1,16,196,76,073,34,23,62,347,33,24,61,034,35,199,60,167,35,1*6E
$GPGSV,4,2,16,18,51,227,45,41,38,242,41,194,35,136,35,15,31,059,35,1*55
$GPGSV,4,3,16,195,30,179,38,12,28,131,36,10,27,323,41,25,17,170,25,1*52
$GPGSV,4,4,16,32,14,279,32,05,11,127,16,28,03,222,,13,02,065,,1*64
$GPGSV,3,1,10,196,76,073,39,23,62,347,25,24,61,034,25,199,60,167,46,8*69
$GPGSV,3,2,10,18,51,227,46,194,35,136,39,195,30,179,43,10,27,323,42,8*67
$GPGSV,3,3,10,25,17,170,31,32,14,279,31,8*63
$GLGSV,2,1,07,73,52,151,37,80,45,055,17,86,27,286,36,71,27,327,38,1*7D
$GLGSV,2,2,07,85,26,233,28,69,08,087,17,79,02,026,,1*48
$GAGSV,3,1,09,13,47,220,43,07,46,316,43,08,43,036,28,26,36,296,28,7*7E
$GAGSV,3,2,09,30,34,136,30,02,27,074,15,15,14,173,27,27,08,184,,7*79
$GAGSV,3,3,09,03,06,072,,7*4A
$GAGSV,2,1,06,13,47,220,44,07,46,316,46,08,43,036,32,26,36,296,37,1*71
$GAGSV,2,2,06,30,34,136,41,02,27,074,19,1*7A
$GBGSV,4,1,15,08,85,343,40,38,81,157,44,13,72,321,36,39,68,298,42,1*70
$GBGSV,4,2,15,16,65,273,41,06,64,268,40,46,62,087,19,19,54,359,34,1*7F
$GBGSV,4,3,15,09,50,248,39,36,46,183,45,20,40,077,16,22,17,309,31,1*7E
$GBGSV,4,4,15,35,17,258,39,37,15,042,34,29,12,204,16,1*4F
$GBGSV,3,1,10,38,81,157,43,39,68,298,42,46,62,087,34,19,54,359,36,4*7A
$GBGSV,3,2,10,36,46,183,46,20,40,077,21,22,17,309,16,35,17,258,37,4*79
$GBGSV,3,3,10,37,15,042,25,29,12,204,17,4*7B
$GNACCURACY,2.4*10
$PAIRSAT,1,35,1,0,200,2,0,200,3,0,200,4,0,200,5,0,201,6,0,200,7,0,200,8,0,200,9,0,200,10,0,221,11,0,200,12,0,201,13,0,201,14,0,200,15,0,201,16,0,200,17,0,200,18,0,221,19,0,200,20,0,200,21,0,200,23,0,221,24,0,221,25,0,220,26,0,200,27,0,200,28,0,200,29,0,200,30,0,200,31,0,200,32,0,221,194,0,621,195,0,621,196,0,620,199,0,621*6A
$PAIRSAT,2,24,65,0,200,66,0,200,67,0,200,68,0,200,69,0,200,70,0,200,71,0,201,72,0,200,73,0,201,74,0,200,75,0,200,76,0,200,77,0,200,78,0,200,79,0,201,80,0,201,81,0,200,82,0,200,83,0,200,84,0,200,85,0,201,86,0,201,87,0,200,88,0,200*7A
$PAIRSAT,3,23,2,0,1221,3,0,1221,4,0,1200,5,0,200,7,0,1221,8,0,1221,9,0,1200,10,0,1200,11,0,1200,12,0,1200,13,0,1221,15,0,1221,19,0,1200,21,0,1200,24,0,1200,25,0,1200,26,0,1221,27,0,1200,30,0,1221,31,0,1200,33,0,1200,34,0,1200,36,0,1200*6A
$PAIRSAT,4,50,1,0,200,2,0,200,3,0,200,4,0,200,5,0,200,6,0,201,7,0,200,8,0,201,9,0,201,10,0,200,11,0,200,12,0,200,13,0,201,14,0,200,15,0,200,16,0,201,19,0,621,20,0,621,21,0,600,22,0,621,23,0,600,24,0,600,25,0,600,26,0,600,27,0,600,28,0,600,29,0,621,30,0,600,31,0,200,32,0,600,33,0,600,34,0,600,35,0,621,36,0,621,37,0,621,38,0,621,39,0,621,40,0,600,41,0,600,42,0,600,43,0,600,44,0,600,45,0,600,46,0,621,56,0,200,57,0,200,58,0,200,59,0,600,60,0,600,61,0,600*41
$PAIRDGP,10,5,10,12,15,18,23,24,25,28,32*45
$GNGGA,115233.200,2500.8265477,N,12132.4567400,E,4,64,0.45,16.017,M,15.25,M,5,3335*4D
$GNRMC,115233.200,A,2500.8265477,N,12132.4567400,E,0.02,266.26,260623,,,R,V*16
$GPHDT,,T*1B
$GNACCURACY,2.4*10
$GNGGA,115233.300,2500.8265462,N,12132.4567382,E,4,62,0.47,16.018,M,15.25,M,5,3335*4E
$GNRMC,115233.300,A,2500.8265462,N,12132.4567382,E,0.02,266.26,260623,,,R,V*1E
$GPHDT,,T*1B
$GNACCURACY,2.4*10
$GNGGA,115233.400,2500.8265510,N,12132.4567412,E,4,64,0.45,16.003,M,15.25,M,5,3335*4D
$GNRMC,115233.400,A,2500.8265510,N,12132.4567412,E,0.02,266.26,260623,,,R,V*13
$GPHDT,,T*1B
$GNACCURACY,2.4*10
$GNGGA,115233.500,2500.8265507,N,12132.4567412,E,4,64,0.45,15.992,M,15.25,M,5,3335*48
$GNRMC,115233.500,A,2500.8265507,N,12132.4567412,E,0.02,266.26,260623,,,R,V*14
$GPHDT,,T*1B
$GNACCURACY,2.4*10
$GNGGA,115233.600,2500.8265537,N,12132.4567462,E,4,64,0.45,15.980,M,15.25,M,5,3335*4C
$GNRMC,115233.600,A,2500.8265537,N,12132.4567462,E,0.02,266.26,260623,,,R,V*13
$GPHDT,,T*1B
$GNACCURACY,2.4*10
$GNGGA,115233.700,2500.8265540,N,12132.4567474,E,4,64,0.45,15.983,M,15.25,M,5,3335*49
$GNRMC,115233.700,A,2500.8265540,N,12132.4567474,E,0.02,266.26,260623,,,R,V*15
$GPHDT,,T*1B
$GNACCURACY,2.4*10
$GNGGA,115233.800,2500.8265537,N,12132.4567492,E,4,64,0.45,15.988,M,15.25,M,5,3335*45
$GNRMC,115233.800,A,2500.8265537,N,12132.4567492,E,0.02,266.26,260623,,,R,V*12
$GPHDT,,T*1B
$GNACCURACY,2.4*10
$GNGGA,115233.900,2500.8265537,N,12132.4567472,E,4,64,0.45,15.980,M,15.25,M,5,3335*42
$GNRMC,115233.900,A,2500.8265537,N,12132.4567472,E,0.02,266.26,260623,,,R,V*1D
$GPHDT,,T*1B
$GNACCURACY,2.4*10
$GNGGA,115234.000,2500.8265610,N,12132.4567526,E,4,62,0.47,15.969,M,15.25,M,6,3335*4A
$GNRMC,115234.000,A,2500.8265610,N,12132.4567526,E,0.02,266.26,260623,,,R,V*15
$GPHDT,,T*1B
$GNACCURACY,2.4*10
$GNGGA,115234.100,2500.8265594,N,12132.4567510,E,4,64,0.45,15.986,M,15.25,M,6,3335*44
$GNRMC,115234.100,A,2500.8265594,N,12132.4567510,E,0.02,266.26,260623,,,R,V*1E
$GPHDT,,T*1B
$GNGSA,A,3,196,23,24,199,18,194,15,195,12,10,25,32,0.81,0.45,0.68,1*07
$GNGSA,A,3,73,80,86,71,85,,,,,,,,0.81,0.45,0.68,2*0D
$GNGSA,A,3,13,07,08,26,30,02,15,,,,,,0.81,0.45,0.68,3*09
$GNGSA,A,3,08,38,13,39,16,06,46,19,09,36,22,35,0.81,0.45,0.68,4*08
$GNGSA,A,3,37,29,20,,,,,,,,,,0.81,0.45,0.68,4*0F
$GPGSV,4,1,16,196,76,073,34,23,62,347,34,24,61,034,35,199,60,167,35,1*69
$GPGSV,4,2,16,18,51,227,45,41,38,242,41,194,35,136,38,15,31,059,35,1*58
$GPGSV,4,3,16,195,30,179,37,12,28,131,36,10,27,323,42,25,17,170,24,1*5F
$GPGSV,4,4,16,32,14,279,36,05,11,127,17,28,03,222,,13,02,065,,1*61
$GPGSV,3,1,10,196,76,073,39,23,62,347,29,24,61,034,30,199,60,167,46,8*61
$GPGSV,3,2,10,18,51,227,47,194,35,136,38,195,30,179,43,10,27,323,42,8*67
$GPGSV,3,3,10,25,17,170,28,32,14,279,29,8*62
$GLGSV,2,1,07,73,52,151,37,80,45,055,17,86,27,286,36,71,27,327,38,1*7D
$GLGSV,2,2,07,85,26,233,28,69,08,087,17,79,02,026,,1*48
$GAGSV,3,1,09,13,47,220,43,07,46,316,43,08,43,036,28,26,36,296,27,7*71
$GAGSV,3,2,09,30,34,136,34,02,27,074,16,15,14,173,26,27,08,184,,7*7F
$GAGSV,3,3,09,03,06,072,,7*4A
$GAGSV,2,1,06,13,47,220,44,07,46,316,47,08,43,036,32,26,36,296,37,1*70
$GAGSV,2,2,06,30,34,136,41,02,27,074,19,1*7A
$GBGSV,4,1,15,08,85,343,40,38,81,157,44,13,72,321,36,39,68,298,43,1*71
$GBGSV,4,2,15,16,65,273,41,06,64,268,40,46,62,087,21,19,54,359,34,1*74
$GBGSV,4,3,15,09,50,248,40,36,46,183,45,20,40,077,16,22,17,309,31,1*70
$GBGSV,4,4,15,35,17,258,39,37,15,042,36,29,12,204,16,1*4D
$GBGSV,3,1,10,38,81,157,44,39,68,298,41,46,62,087,33,19,54,359,37,4*78
$GBGSV,3,2,10,36,46,183,46,20,40,077,19,22,17,309,16,35,17,258,37,4*72
$GBGSV,3,3,10,37,15,042,26,29,12,204,19,4*76
$GNACCURACY,2.4*10
$PAIRSAT,1,35,1,0,200,2,0,200,3,0,200,4,0,200,5,0,201,6,0,200,7,0,200,8,0,200,9,0,200,10,0,221,11,0,200,12,0,201,13,0,201,14,0,200,15,0,201,16,0,200,17,0,200,18,0,221,19,0,200,20,0,200,21,0,200,23,0,221,24,0,221,25,0,220,26,0,200,27,0,200,28,0,200,29,0,200,30,0,200,31,0,200,32,0,221,194,0,621,195,0,621,196,0,620,199,0,621*6A
$PAIRSAT,2,24,65,0,200,66,0,200,67,0,200,68,0,200,69,0,200,70,0,200,71,0,201,72,0,200,73,0,201,74,0,200,75,0,200,76,0,200,77,0,200,78,0,200,79,0,201,80,0,201,81,0,200,82,0,200,83,0,200,84,0,200,85,0,201,86,0,201,87,0,200,88,0,200*7A
$PAIRSAT,3,23,2,0,1221,3,0,1221,4,0,1200,5,0,200,7,0,1221,8,0,1221,9,0,1200,10,0,1200,11,0,1200,12,0,1200,13,0,1221,15,0,1221,19,0,1200,21,0,1200,24,0,1200,25,0,1200,26,0,1221,27,0,1200,30,0,1221,31,0,1200,33,0,1200,34,0,1200,36,0,1200*6A
$PAIRSAT,4,50,1,0,200,2,0,200,3,0,200,4,0,200,5,0,200,6,0,201,7,0,200,8,0,201,9,0,201,10,0,200,11,0,200,12,0,200,13,0,201,14,0,200,15,0,200,16,0,201,19,0,621,20,0,621,21,0,600,22,0,621,23,0,600,24,0,600,25,0,600,26,0,600,27,0,600,28,0,600,29,0,621,30,0,600,31,0,200,32,0,600,33,0,600,34,0,600,35,0,621,36,0,621,37,0,621,38,0,621,39,0,621,40,0,600,41,0,600,42,0,600,43,0,600,44,0,600,45,0,600,46,0,621,56,0,200,57,0,200,58,0,200,59,0,600,60,0,600,61,0,600*41
$PAIRDGP,10,5,10,12,15,18,23,24,25,28,32*45
$GNGGA,115234.200,2500.8265562,N,12132.4567479,E,4,64,0.45,15.979,M,15.25,M,6,3335*40
$GNRMC,115234.200,A,2500.8265562,N,12132.4567479,E,0.02,266.26,260623,,,R,V*1A
$GPHDT,,T*1B
$GNACCURACY,2.3*17
$GNGGA,115234.300,2500.8265503,N,12132.4567435,E,4,64,0.45,16.007,M,15.25,M,6,3335*4D
$GNRMC,115234.300,A,2500.8265503,N,12132.4567435,E,0.02,266.26,260623,,,R,V*14
$GPHDT,,T*1B
$GNACCURACY,2.3*17
$GNGGA,115234.400,2500.8265482,N,12132.4567377,E,4,63,0.45,16.026,M,15.25,M,6,3335*47
$GNRMC,115234.400,A,2500.8265482,N,12132.4567377,E,0.02,266.26,260623,,,R,V*1A
$GPHDT,,T*1B
$GNACCURACY,2.3*17
$GNGGA,115234.500,2500.8265471,N,12132.4567341,E,4,61,0.49,16.033,M,15.25,M,6,3335*45
$GNRMC,115234.500,A,2500.8265471,N,12132.4567341,E,0.02,266.26,260623,,,R,V*12
$GPHDT,,T*1B
$GNACCURACY,2.3*17
$GNGGA,115234.600,2500.8265484,N,12132.4567396,E,4,63,0.45,16.006,M,15.25,M,6,3335*4E
$GNRMC,115234.600,A,2500.8265484,N,12132.4567396,E,0.02,266.26,260623,,,R,V*11
$GPHDT,,T*1B
$GNACCURACY,2.4*10
$GNGGA,115234.700,2500.8265478,N,12132.4567359,E,4,62,0.47,16.011,M,15.25,M,6,3335*4A
$GNRMC,115234.700,A,2500.8265478,N,12132.4567359,E,0.02,266.26,260623,,,R,V*10
$GPHDT,,T*1B
$GNACCURACY,2.3*17
$GNGGA,115234.800,2500.8265485,N,12132.4567348,E,4,64,0.45,16.028,M,15.25,M,6,3335*49
$GNRMC,115234.800,A,2500.8265485,N,12132.4567348,E,0.02,266.26,260623,,,R,V*1D
$GPHDT,,T*1B
$GNACCURACY,2.3*17
$GNGGA,115234.900,2500.8265517,N,12132.4567407,E,4,64,0.45,16.013,M,15.25,M,6,3335*46
$GNRMC,115234.900,A,2500.8265517,N,12132.4567407,E,0.02,266.26,260623,,,R,V*1A
$GPHDT,,T*1B
$GNACCURACY,2.4*10
$GNGGA,115235.000,2500.8265493,N,12132.4567385,E,4,64,0.45,16.015,M,15.25,M,7,3335*49
$GNRMC,115235.000,A,2500.8265493,N,12132.4567385,E,0.02,266.26,260623,,,R,V*12
$GPHDT,,T*1B
$GNACCURACY,2.4*10
$GNGGA,115235.100,2500.8265483,N,12132.4567360,E,4,64,0.45,16.017,M,15.25,M,7,3335*40
$GNRMC,115235.100,A,2500.8265483,N,12132.4567360,E,0.02,266.26,260623,,,R,V*19
$GPHDT,,T*1B
$GNGSA,A,3,196,23,24,199,18,194,15,195,12,10,25,32,0.81,0.45,0.68,1*07
$GNGSA,A,3,73,80,86,71,85,,,,,,,,0.81,0.45,0.68,2*0D
$GNGSA,A,3,13,07,08,26,30,02,15,,,,,,0.81,0.45,0.68,3*09
$GNGSA,A,3,08,38,13,39,16,06,19,09,36,22,35,37,0.81,0.45,0.68,4*0E
$GNGSA,A,3,29,46,20,,,,,,,,,,0.81,0.45,0.68,4*09
$GPGSV,4,1,16,196,76,073,34,23,62,347,34,24,61,034,36,199,60,167,35,1*6A
$GPGSV,4,2,16,18,51,227,45,41,38,242,41,194,35,136,38,15,31,059,34,1*59
$GPGSV,4,3,16,195,30,179,38,12,28,131,34,10,27,323,42,25,17,170,25,1*53
$GPGSV,4,4,16,32,14,279,36,05,11,127,18,28,03,222,,13,02,065,,1*6E
$GPGSV,3,1,09,196,76,073,39,23,62,347,28,24,61,034,28,199,60,167,46,8*61
$GPGSV,3,2,09,18,51,227,47,194,35,136,38,195,30,179,43,10,27,323,42,8*6F
$GPGSV,3,3,09,32,14,279,27,8*59
$GLGSV,2,1,07,73,52,151,39,80,45,055,16,86,27,286,37,71,27,327,38,1*73
$GLGSV,2,2,07,85,26,233,29,69,08,087,17,79,02,026,,1*49
$GAGSV,3,1,09,13,47,220,43,07,46,316,43,08,43,036,28,26,36,296,28,7*7E
$GAGSV,3,2,09,30,34,136,33,02,27,074,16,15,14,173,24,27,08,184,,7*7A
$GAGSV,3,3,09,03,06,072,,7*4A
$GAGSV,2,1,07,13,47,220,44,07,46,316,46,08,43,036,32,26,36,296,35,1*72
$GAGSV,2,2,07,30,34,136,41,02,27,074,19,15,14,173,24,1*49
$GBGSV,4,1,15,08,85,343,41,38,81,158,44,13,72,321,36,39,68,298,43,1*7F
$GBGSV,4,2,15,16,65,273,41,06,64,268,40,46,62,087,18,19,54,359,33,1*79
$GBGSV,4,3,15,09,50,248,40,36,46,183,45,20,40,077,16,22,17,309,31,1*70
$GBGSV,4,4,15,35,17,258,40,37,15,042,32,29,12,204,15,1*44
$GBGSV,3,1,10,38,81,158,44,39,68,298,40,46,62,087,32,19,54,359,37,4*77
$GBGSV,3,2,10,36,46,183,46,20,40,077,20,22,17,309,15,35,17,258,37,4*7B
$GBGSV,3,3,10,37,15,042,22,29,12,204,19,4*72
$GNACCURACY,2.4*10
$PAIRSAT,1,35,1,0,200,2,0,200,3,0,200,4,0,200,5,0,201,6,0,200,7,0,200,8,0,200,9,0,200,10,0,221,11,0,200,12,0,201,13,0,201,14,0,200,15,0,201,16,0,200,17,0,200,18,0,221,19,0,200,20,0,200,21,0,200,23,0,221,24,0,221,25,0,220,26,0,200,27,0,200,28,0,200,29,0,200,30,0,200,31,0,200,32,0,221,194,0,621,195,0,621,196,0,620,199,0,621*6A
$PAIRSAT,2,24,65,0,200,66,0,200,67,0,200,68,0,200,69,0,200,70,0,200,71,0,201,72,0,200,73,0,201,74,0,200,75,0,200,76,0,200,77,0,200,78,0,200,79,0,201,80,0,201,81,0,200,82,0,200,83,0,200,84,0,200,85,0,201,86,0,201,87,0,200,88,0,200*7A
$PAIRSAT,3,23,2,0,1221,3,0,1221,4,0,1200,5,0,200,7,0,1221,8,0,1221,9,0,1200,10,0,1200,11,0,1200,12,0,1200,13,0,1221,15,0,1221,19,0,1200,21,0,1200,24,0,1200,25,0,1200,26,0,1221,27,0,1200,30,0,1221,31,0,1200,33,0,1200,34,0,1200,36,0,1200*6A
$PAIRSAT,4,50,1,0,200,2,0,200,3,0,200,4,0,200,5,0,200,6,0,201,7,0,200,8,0,201,9,0,201,10,0,200,11,0,200,12,0,200,13,0,201,14,0,200,15,0,200,16,0,201,19,0,621,20,0,621,21,0,600,22,0,621,23,0,600,24,0,600,25,0,600,26,0,600,27,0,600,28,0,600,29,0,621,30,0,600,31,0,200,32,0,600,33,0,600,34,0,600,35,0,621,36,0,621,37,0,621,38,0,621,39,0,621,40,0,600,41,0,600,42,0,600,43,0,600,44,0,600,45,0,600,46,0,621,56,0,200,57,0,200,58,0,200,59,0,600,60,0,600,61,0,600*41
$PAIRDGP,10,5,10,12,15,18,23,24,25,28,32*45
$GNGGA,115235.200,2500.8265491,N,12132.4567334,E,4,63,0.45,16.019,M,15.25,M,7,3335*48
$GNRMC,115235.200,A,2500.8265491,N,12132.4567334,E,0.02,266.26,260623,,,R,V*18
$GPHDT,,T*1B
$GNACCURACY,2.4*10
$GNGGA,115235.300,2500.8265492,N,12132.4567356,E,4,64,0.45,16.014,M,15.25,M,7,3335*44
$GNRMC,115235.300,A,2500.8265492,N,12132.4567356,E,0.02,266.26,260623,,,R,V*1E
$GPHDT,,T*1B
$GNACCURACY,2.4*10
$GNGGA,115235.400,2500.8265482,N,12132.4567341,E,4,63,0.45,16.028,M,15.25,M,7,3335*4C
$GNRMC,115235.400,A,2500.8265482,N,12132.4567341,E,0.02,266.26,260623,,,R,V*1E
$GPHDT,,T*1B
$GNACCURACY,2.4*10
$GNGGA,115235.500,2500.8265464,N,12132.4567332,E,4,63,0.45,16.026,M,15.25,M,7,3335*4F
$GNRMC,115235.500,A,2500.8265464,N,12132.4567332,E,0.02,266.26,260623,,,R,V*13
$GPHDT,,T*1B
$GNACCURACY,2.4*10
$GNGGA,115235.600,2500.8265511,N,12132.4567365,E,4,63,0.45,16.016,M,15.25,M,7,3335*4E
$GNRMC,115235.600,A,2500.8265511,N,12132.4567365,E,0.02,266.26,260623,,,R,V*11
$GPHDT,,T*1B
$GNACCURACY,2.4*10
$GNGGA,115235.700,2500.8265503,N,12132.4567355,E,4,63,0.45,16.014,M,15.25,M,7,3335*4D
$GNRMC,115235.700,A,2500.8265503,N,12132.4567355,E,0.02,266.26,260623,,,R,V*10
$GPHDT,,T*1B
$GNACCURACY,2.4*10
$GNGGA,115235.800,2500.8265508,N,12132.4567398,E,4,63,0.45,16.005,M,15.25,M,7,3335*48
$GNRMC,115235.800,A,2500.8265508,N,12132.4567398,E,0.02,266.26,260623,,,R,V*15
$GPHDT,,T*1B
$GNACCURACY,2.4*10
$GNGGA,115235.900,2500.8265464,N,12132.4567284,E,4,63,0.45,16.051,M,15.25,M,7,3335*4F
$GNRMC,115235.900,A,2500.8265464,N,12132.4567284,E,0.02,266.26,260623,,,R,V*13
$GPHDT,,T*1B
$GNACCURACY,2.4*10
$GNGGA,115236.000,2500.8265480,N,12132.4567307,E,4,63,0.45,16.030,M,15.25,M,8,3335*4D
$GNRMC,115236.000,A,2500.8265480,N,12132.4567307,E,0.02,266.26,260623,,,R,V*19
$GPHDT,,T*1B
$GNACCURACY,2.4*10
$GNGGA,115236.100,2500.8265476,N,12132.4567305,E,4,63,0.45,16.032,M,15.25,M,8,3335*45
$GNRMC,115236.100,A,2500.8265476,N,12132.4567305,E,0.02,266.26,260623,,,R,V*13
$GPHDT,,T*1B
$GNGSA,A,3,196,23,24,199,18,194,15,195,12,10,25,32,0.81,0.45,0.68,1*07
$GNGSA,A,3,73,80,86,71,85,,,,,,,,0.81,0.45,0.68,2*0D
$GNGSA,A,3,13,07,08,26,30,02,15,,,,,,0.81,0.45,0.68,3*09
$GNGSA,A,3,08,38,13,39,16,06,19,09,36,22,35,37,0.81,0.45,0.68,4*0E
$GNGSA,A,3,29,46,20,,,,,,,,,,0.81,0.45,0.68,4*09
$GPGSV,4,1,16,196,76,073,34,23,62,347,33,24,61,034,36,199,60,167,36,1*6E
$GPGSV,4,2,16,18,51,227,45,41,38,242,42,194,35,136,38,15,31,059,35,1*5B
$GPGSV,4,3,16,195,30,179,38,12,28,131,36,10,27,323,42,25,17,170,27,1*53
$GPGSV,4,4,16,32,14,279,36,05,11,127,20,28,03,222,,13,02,065,,1*65
$GPGSV,3,1,09,196,76,073,39,23,62,347,27,24,61,034,29,199,60,167,46,8*6F
$GPGSV,3,2,09,18,51,227,47,194,35,136,38,195,30,179,43,10,27,323,42,8*6F
$GPGSV,3,3,09,32,14,279,31,8*5E
$GLGSV,2,1,07,73,52,151,39,80,45,055,16,86,27,286,37,71,27,327,38,1*73
$GLGSV,2,2,07,85,26,233,29,69,08,087,14,79,02,026,,1*4A
$GAGSV,3,1,09,13,47,220,43,07,46,316,43,08,43,036,28,26,36,296,28,7*7E
$GAGSV,3,2,09,30,34,136,33,02,27,074,15,15,14,173,23,27,08,184,,7*7E
$GAGSV,3,3,09,03,06,072,,7*4A
$GAGSV,2,1,07,13,47,220,44,07,46,316,46,08,43,036,32,26,36,296,35,1*72
$GAGSV,2,2,07,30,34,136,41,02,27,074,19,15,14,173,26,1*4B
$GBGSV,4,1,15,08,85,343,41,38,81,158,44,13,72,321,37,39,68,298,43,1*7E
$GBGSV,4,2,15,16,65,273,41,06,64,268,40,46,62,087,17,19,54,359,33,1*76
$GBGSV,4,3,15,09,50,248,40,36,46,183,45,20,40,077,,22,17,309,31,1*77
$GBGSV,4,4,15,35,17,258,40,37,15,042,32,29,12,204,16,1*47
$GBGSV,3,1,10,38,81,158,44,39,68,298,40,46,62,087,32,19,54,359,37,4*77
$GBGSV,3,2,10,36,46,183,46,20,40,077,20,22,17,309,14,35,17,258,37,4*7A
$GBGSV,3,3,10,37,15,042,27,29,12,204,19,4*77
$GNACCURACY,2.4*10
$PAIRSAT,1,35,1,0,200,2,0,200,3,0,200,4,0,200,5,0,201,6,0,200,7,0,200,8,0,200,9,0,200,10,0,221,11,0,200,12,0,201,13,0,201,14,0,200,15,0,201,16,0,200,17,0,200,18,0,221,19,0,200,20,0,200,21,0,200,23,0,221,24,0,221,25,0,220,26,0,200,27,0,200,28,0,200,29,0,200,30,0,200,31,0,200,32,0,221,194,0,621,195,0,621,196,0,620,199,0,621*6A
$PAIRSAT,2,24,65,0,200,66,0,200,67,0,200,68,0,200,69,0,200,70,0,200,71,0,201,72,0,200,73,0,201,74,0,200,75,0,200,76,0,200,77,0,200,78,0,200,79,0,201,80,0,201,81,0,200,82,0,200,83,0,200,84,0,200,85,0,201,86,0,201,87,0,200,88,0,200*7A
$PAIRSAT,3,23,2,0,1221,3,0,1221,4,0,1200,5,0,200,7,0,1221,8,0,1221,9,0,1200,10,0,1200,11,0,1200,12,0,1200,13,0,1221,15,0,1221,19,0,1200,21,0,1200,24,0,1200,25,0,1200,26,0,1221,27,0,1200,30,0,1221,31,0,1200,33,0,1200,34,0,1200,36,0,1200*6A
$PAIRSAT,4,50,1,0,200,2,0,200,3,0,200,4,0,200,5,0,200,6,0,201,7,0,200,8,0,201,9,0,201,10,0,200,11,0,200,12,0,200,13,0,201,14,0,200,15,0,200,16,0,201,19,0,621,20,0,621,21,0,600,22,0,621,23,0,600,24,0,600,25,0,600,26,0,600,27,0,600,28,0,600,29,0,621,30,0,600,31,0,200,32,0,600,33,0,600,34,0,600,35,0,621,36,0,621,37,0,621,38,0,621,39,0,621,40,0,600,41,0,600,42,0,600,43,0,600,44,0,600,45,0,600,46,0,621,56,0,200,57,0,200,58,0,200,59,0,600,60,0,600,61,0,600*41
$PAIRDGP,10,5,10,12,15,18,23,24,25,28,32*45
$GNGGA,115236.200,2500.8265496,N,12132.4567335,E,4,63,0.45,16.023,M,15.25,M,8,3335*4B
$GNRMC,115236.200,A,2500.8265496,N,12132.4567335,E,0.02,266.26,260623,,,R,V*1D
$GPHDT,,T*1B
$GNACCURACY,2.4*10
$GNGGA,115236.300,2500.8265473,N,12132.4567319,E,4,63,0.45,16.032,M,15.25,M,8,3335*4F
$GNRMC,115236.300,A,2500.8265473,N,12132.4567319,E,0.02,266.26,260623,,,R,V*19
$GPHDT,,T*1B
$GNACCURACY,2.4*10
$GNGGA,115236.400,2500.8265489,N,12132.4567347,E,4,63,0.45,16.031,M,15.25,M,8,3335*45
$GNRMC,115236.400,A,2500.8265489,N,12132.4567347,E,0.02,266.26,260623,,,R,V*10
$GPHDT,,T*1B
$GNACCURACY,2.4*10
$GNGGA,115236.500,2500.8265484,N,12132.4567318,E,4,63,0.45,16.028,M,15.25,M,8,3335*4B
$GNRMC,115236.500,A,2500.8265484,N,12132.4567318,E,0.02,266.26,260623,,,R,V*16
$GPHDT,,T*1B
$GNACCURACY,2.4*10
$GNGGA,115236.600,2500.8265481,N,12132.4567356,E,4,63,0.45,16.025,M,15.25,M,5,3335*47
$GNRMC,115236.600,A,2500.8265481,N,12132.4567356,E,0.02,266.26,260623,,,R,V*1A
$GPHDT,,T*1B
$GNACCURACY,2.4*10
$GNGGA,115236.700,2500.8265509,N,12132.4567425,E,4,63,0.45,16.007,M,15.25,M,5,3335*44
$GNRMC,115236.700,A,2500.8265509,N,12132.4567425,E,0.02,266.26,260623,,,R,V*19
$GPHDT,,T*1B
$GNACCURACY,2.4*10
$GNGGA,115236.800,2500.8265505,N,12132.4567405,E,4,63,0.45,16.006,M,15.25,M,5,3335*44
$GNRMC,115236.800,A,2500.8265505,N,12132.4567405,E,0.02,266.26,260623,,,R,V*18
$GPHDT,,T*1B
$GNACCURACY,2.4*10
$GNGGA,115236.900,2500.8265471,N,12132.4567331,E,4,64,0.44,16.028,M,15.25,M,5,3335*4D
$GNRMC,115236.900,A,2500.8265471,N,12132.4567331,E,0.02,266.26,260623,,,R,V*1B
$GPHDT,,T*1B
$GNACCURACY,2.4*10
$GNGGA,115237.000,2500.8265486,N,12132.4567388,E,4,64,0.44,16.023,M,15.25,M,6,3335*47
$GNRMC,115237.000,A,2500.8265486,N,12132.4567388,E,0.02,266.26,260623,,,R,V*19
$GPHDT,,T*1B
$GNACCURACY,2.4*10
$GNGGA,115237.100,2500.8265488,N,12132.4567412,E,4,63,0.45,16.009,M,15.25,M,6,3335*42
$GNRMC,115237.100,A,2500.8265488,N,12132.4567412,E,0.02,266.26,260623,,,R,V*12
$GPHDT,,T*1B
$GNGSA,A,3,196,23,24,199,18,194,15,195,12,10,25,32,0.81,0.45,0.68,1*07
$GNGSA,A,3,73,80,71,86,85,,,,,,,,0.81,0.45,0.68,2*0D
$GNGSA,A,3,13,07,08,26,30,02,15,,,,,,0.81,0.45,0.68,3*09
$GNGSA,A,3,08,38,13,39,16,06,19,09,36,22,35,37,0.81,0.45,0.68,4*0E
$GNGSA,A,3,29,46,20,,,,,,,,,,0.81,0.45,0.68,4*09
$GPGSV,4,1,16,196,76,073,34,23,62,347,33,24,61,034,36,199,60,167,36,1*6E
$GPGSV,4,2,16,18,51,227,45,41,38,242,42,194,35,136,38,15,31,059,35,1*5B
$GPGSV,4,3,16,195,30,179,39,12,28,131,37,10,27,323,42,25,17,170,27,1*53
$GPGSV,4,4,16,32,14,279,33,05,11,127,20,28,03,222,,13,02,065,,1*60
$GPGSV,3,1,09,196,76,073,39,23,62,347,23,24,61,034,29,199,60,167,45,8*68
$GPGSV,3,2,09,18,51,227,47,194,35,136,38,195,30,179,43,10,27,323,42,8*6F
$GPGSV,3,3,09,32,14,279,29,8*57
$GLGSV,2,1,07,73,52,151,39,80,45,055,17,71,27,327,37,86,27,286,37,1*7D
$GLGSV,2,2,07,85,26,233,29,69,08,087,16,79,02,026,,1*48
$GAGSV,2,1,08,13,47,220,43,07,46,316,43,08,43,036,29,26,36,296,26,7*71
$GAGSV,2,2,08,30,34,136,34,02,27,074,15,15,14,173,23,03,06,072,,7*79
$GAGSV,2,1,07,13,47,220,44,07,46,316,46,08,43,036,32,26,36,296,35,1*72
$GAGSV,2,2,07,30,34,136,41,02,27,074,22,15,14,173,25,1*40
$GBGSV,4,1,15,08,85,343,41,38,81,158,44,13,72,321,36,39,68,298,43,1*7F
$GBGSV,4,2,15,16,65,273,41,06,64,268,40,46,62,087,17,19,54,359,33,1*76
$GBGSV,4,3,15,09,50,248,40,36,46,183,45,20,40,077,,22,17,309,33,1*75
$GBGSV,4,4,15,35,17,258,40,37,15,042,33,29,12,204,17,1*47
$GBGSV,3,1,10,38,81,158,44,39,68,298,40,46,62,087,32,19,54,359,36,4*76
$GBGSV,3,2,10,36,46,183,46,20,40,077,21,22,17,309,15,35,17,258,36,4*7B
$GBGSV,3,3,10,37,15,042,27,29,12,204,18,4*76
$GNACCURACY,2.4*10
$PAIRSAT,1,35,1,0,200,2,0,200,3,0,200,4,0,200,5,0,201,6,0,200,7,0,200,8,0,200,9,0,200,10,0,221,11,0,200,12,0,201,13,0,201,14,0,200,15,0,201,16,0,200,17,0,200,18,0,221,19,0,200,20,0,200,21,0,200,23,0,221,24,0,221,25,0,220,26,0,200,27,0,200,28,0,200,29,0,200,30,0,200,31,0,200,32,0,221,194,0,621,195,0,621,196,0,620,199,0,621*6A
$PAIRSAT,2,24,65,0,200,66,0,200,67,0,200,68,0,200,69,0,200,70,0,200,71,0,201,72,0,200,73,0,201,74,0,200,75,0,200,76,0,200,77,0,200,78,0,200,79,0,201,80,0,201,81,0,200,82,0,200,83,0,200,84,0,200,85,0,201,86,0,201,87,0,200,88,0,200*7A
$PAIRSAT,3,23,2,0,1221,3,0,1221,4,0,1200,5,0,200,7,0,1221,8,0,1221,9,0,1200,10,0,1200,11,0,1200,12,0,1200,13,0,1221,15,0,1221,19,0,1200,21,0,1200,24,0,1200,25,0,1200,26,0,1221,27,0,1200,30,0,1221,31,0,1200,33,0,1200,34,0,1200,36,0,1200*6A
$PAIRSAT,4,50,1,0,200,2,0,200,3,0,200,4,0,200,5,0,200,6,0,201,7,0,200,8,0,201,9,0,201,10,0,200,11,0,200,12,0,200,13,0,201,14,0,200,15,0,200,16,0,201,19,0,621,20,0,621,21,0,600,22,0,621,23,0,600,24,0,600,25,0,600,26,0,600,27,0,600,28,0,600,29,0,621,30,0,600,31,0,200,32,0,600,33,0,600,34,0,600,35,0,621,36,0,621,37,0,621,38,0,621,39,0,621,40,0,600,41,0,600,42,0,600,43,0,600,44,0,600,45,0,600,46,0,621,56,0,200,57,0,200,58,0,200,59,0,600,60,0,600,61,0,600*41
$PAIRDGP,10,5,10,12,15,18,23,24,25,28,32*45
$GNGGA,115237.200,2500.8265495,N,12132.4567412,E,4,63,0.45,16.006,M,15.25,M,6,3335*42
$GNRMC,115237.200,A,2500.8265495,N,12132.4567412,E,0.02,266.26,260623,,,R,V*1D
$GPHDT,,T*1B
$GNACCURACY,2.4*10
$GNGGA,115237.300,2500.8265451,N,12132.4567378,E,4,64,0.45,16.026,M,15.25,M,6,3335*45
$GNRMC,115237.300,A,2500.8265451,N,12132.4567378,E,0.02,266.26,260623,,,R,V*1F
$GPHDT,,T*1B
$GNACCURACY,2.4*10
$GNGGA,115237.400,2500.8265480,N,12132.4567389,E,4,63,0.45,16.007,M,15.25,M,6,3335*44
$GNRMC,115237.400,A,2500.8265480,N,12132.4567389,E,0.02,266.26,260623,,,R,V*1A
$GPHDT,,T*1B
$GNACCURACY,2.4*10
$GNGGA,115237.500,2500.8265489,N,12132.4567412,E,4,64,0.44,16.021,M,15.25,M,6,3335*4B
$GNRMC,115237.500,A,2500.8265489,N,12132.4567412,E,0.02,266.26,260623,,,R,V*17
$GPHDT,,T*1B
$GNACCURACY,2.4*10
$GNGGA,115237.600,2500.8265490,N,12132.4567421,E,4,63,0.45,16.023,M,15.25,M,6,3335*44
$GNRMC,115237.600,A,2500.8265490,N,12132.4567421,E,0.02,266.26,260623,,,R,V*1C
$GPHDT,,T*1B
$GNACCURACY,2.4*10
$GNGGA,115237.700,2500.8265479,N,12132.4567451,E,4,63,0.45,16.003,M,15.25,M,0,3335*41
$GNRMC,115237.700,A,2500.8265479,N,12132.4567451,E,0.02,266.26,260623,,,R,V*1D
$GPHDT,,T*1B
$GNACCURACY,2.4*10
$GNGGA,115237.800,2500.8265516,N,12132.4567444,E,4,63,0.45,15.995,M,15.25,M,0,3335*47
$GNRMC,115237.800,A,2500.8265516,N,12132.4567444,E,0.02,266.26,260623,,,R,V*1E
$GPHDT,,T*1B
$GNACCURACY,2.4*10
$GNGGA,115237.900,2500.8265518,N,12132.4567460,E,4,62,0.45,16.004,M,15.25,M,0,3335*4D
$GNRMC,115237.900,A,2500.8265518,N,12132.4567460,E,0.02,266.26,260623,,,R,V*17
$GPHDT,,T*1B
$GNACCURACY,2.4*10
$GNGGA,115238.000,2500.8265518,N,12132.4567413,E,4,63,0.45,15.992,M,15.25,M,1,3335*4A
$GNRMC,115238.000,A,2500.8265518,N,12132.4567413,E,0.02,266.26,260623,,,R,V*15
$GPHDT,,T*1B
$GNACCURACY,2.4*10
$GNGGA,115238.100,2500.8265512,N,12132.4567420,E,4,63,0.45,15.998,M,15.25,M,1,3335*4B
$GNRMC,115238.100,A,2500.8265512,N,12132.4567420,E,0.02,266.26,260623,,,R,V*1E
$GPHDT,,T*1B
$GNGSA,A,3,196,23,24,199,18,194,15,195,12,10,25,32,0.81,0.45,0.68,1*07
$GNGSA,A,3,73,80,71,86,85,,,,,,,,0.81,0.45,0.68,2*0D
$GNGSA,A,3,13,07,08,26,30,02,15,,,,,,0.81,0.45,0.68,3*09
$GNGSA,A,3,08,38,13,39,16,06,19,09,36,22,35,37,0.81,0.45,0.68,4*0E
$GNGSA,A,3,29,46,20,,,,,,,,,,0.81,0.45,0.68,4*09
$GPGSV,4,1,16,196,76,073,34,23,62,347,33,24,61,034,36,199,60,167,31,1*69
$GPGSV,4,2,16,18,51,227,45,41,38,242,42,194,35,136,37,15,31,059,35,1*54
$GPGSV,4,3,16,195,30,179,38,12,28,131,37,10,27,323,42,25,17,170,27,1*52
$GPGSV,4,4,16,32,14,279,34,05,11,127,24,28,03,222,,13,02,065,,1*63
$GPGSV,3,1,10,196,76,073,38,23,62,347,24,24,61,034,27,199,60,167,41,8*6C
$GPGSV,3,2,10,18,51,227,47,194,35,136,39,195,30,179,43,10,27,323,42,8*66
$GPGSV,3,3,10,25,17,170,32,32,14,279,28,8*68
$GLGSV,2,1,07,73,52,151,39,80,45,055,21,71,27,327,38,86,27,286,37,1*77
$GLGSV,2,2,07,85,26,233,29,69,08,087,16,79,02,026,,1*48
$GAGSV,2,1,08,13,47,220,43,07,46,316,43,08,43,036,28,26,36,296,28,7*7E
$GAGSV,2,2,08,30,34,136,30,02,27,074,17,15,14,173,26,03,06,072,,7*7A
$GAGSV,2,1,07,13,47,220,44,07,46,316,46,08,43,036,32,26,36,296,35,1*72
$GAGSV,2,2,07,30,34,136,41,02,27,074,21,15,14,173,28,1*4E
$GBGSV,4,1,15,08,85,343,41,38,81,158,41,13,72,321,36,39,68,298,43,1*7A
$GBGSV,4,2,15,16,65,273,42,06,64,268,41,46,62,087,17,19,54,359,34,1*73
$GBGSV,4,3,15,09,50,248,40,36,46,183,45,20,40,077,,22,17,309,33,1*75
$GBGSV,4,4,15,35,17,258,38,37,15,042,32,29,12,204,17,1*49
$GBGSV,3,1,10,38,81,158,39,39,68,298,40,46,62,087,32,19,54,359,36,4*7C
$GBGSV,3,2,10,36,46,183,45,20,40,077,23,22,17,309,16,35,17,258,34,4*7B
$GBGSV,3,3,10,37,15,042,31,29,12,204,18,4*71
$GNACCURACY,2.4*10
$PAIRSAT,1,35,1,0,200,2,0,200,3,0,200,4,0,200,5,0,201,6,0,200,7,0,200,8,0,200,9,0,200,10,0,221,11,0,200,12,0,201,13,0,201,14,0,200,15,0,201,16,0,200,17,0,200,18,0,221,19,0,200,20,0,200,21,0,200,23,0,221,24,0,221,25,0,220,26,0,200,27,0,200,28,0,200,29,0,200,30,0,200,31,0,200,32,0,221,194,0,621,195,0,621,196,0,620,199,0,621*6A
$PAIRSAT,2,24,65,0,200,66,0,200,67,0,200,68,0,200,69,0,200,70,0,200,71,0,201,72,0,200,73,0,201,74,0,200,75,0,200,76,0,200,77,0,200,78,0,200,79,0,201,80,0,201,81,0,200,82,0,200,83,0,200,84,0,200,85,0,201,86,0,201,87,0,200,88,0,200*7A
$PAIRSAT,3,23,2,0,1221,3,0,1221,4,0,1200,5,0,200,7,0,1221,8,0,1221,9,0,1200,10,0,1200,11,0,1200,12,0,1200,13,0,1221,15,0,1221,19,0,1200,21,0,1200,24,0,1200,25,0,1200,26,0,1221,27,0,1200,30,0,1221,31,0,1200,33,0,1200,34,0,1200,36,0,1200*6A
$PAIRSAT,4,50,1,0,200,2,0,20