$FW : RTK35X,V1.1X0314AS,Lib20210517,1*54
$Tool : LOCOSYS , GNSS Firebird , v1.0.0.19*39
$---------------------------------------------------*2D
,0,600,24,0,600,25,0,600,26,0,600,27,0,600,28,0,600,29,0,621,30,0,600,31,0,200,32,0,600,33,0,600,34,0,600,35,0,621,36,0,621,37,0,621,38,0,621,39,0,621,40,0,600,41,0,600,42,0,600,43,0,600,44,0,600,45,0,600,46,0,621,56,0,200,57,0,200,58,0,200,59,0,600,60,0,600,61,0,600*41
$PAIRDGP,10,5,10,12,15,18,23,24,25,28,32*45
$GNGGA,115414.200,2500.8265605,N,12132.4567376,E,4,62,0.46,16.004,M,15.25,M,8,3335*45
$GNRMC,115414.200,A,2500.8265605,N,12132.4567376,E,0.02,266.26,260623,,,R,V*14
$GPHDT,,T*1B
$GNACCURACY,2.3*17
$GNGGA,115414.300,2500.8265546,N,12132.4567321,E,4,62,0.46,16.015,M,15.25,M,8,3335*42
$GNRMC,115414.300,A,2500.8265546,N,12132.4567321,E,0.02,266.26,260623,,,R,V*13
$GPHDT,,T*1B
$GNACCURACY,2.3*17
$GNGGA,115414.400,2500.8265574,N,12132.4567331,E,4,62,0.46,16.006,M,15.25,M,8,3335*47
$GNRMC,115414.400,A,2500.8265574,N,12132.4567331,E,0.01,266.26,260623,,,R,V*17
$GPHDT,,T*1B
$GNACCURACY,2.3*17
$GNGGA,115414.500,2500.8265565,N,12132.4567327,E,4,62,0.46,16.001,M,15.25,M,8,3335*46
$GNRMC,115414.500,A,2500.8265565,N,12132.4567327,E,0.00,266.26,260623,,,R,V*10
$GPHDT,,T*1B
$GNACCURACY,2.3*17
$GNGGA,115414.600,2500.8265579,N,12132.4567365,E,4,62,0.45,15.994,M,15.25,M,8,3335*4B
$GNRMC,115414.600,A,2500.8265579,N,12132.4567365,E,0.02,266.26,260623,,,R,V*1A
$GPHDT,,T*1B
$GNACCURACY,2.3*17
$GNGGA,115414.700,2500.8265529,N,12132.4567285,E,4,61,0.46,16.010,M,15.25,M,8,3335*46
$GNRMC,115414.700,A,2500.8265529,N,12132.4567285,E,0.01,266.26,260623,,,R,V*12
$GPHDT,,T*1B
$GNACCURACY,2.3*17
$GNGGA,115414.800,2500.8265572,N,12132.4567341,E,4,61,0.46,16.005,M,15.25,M,8,3335*4A
$GNRMC,115414.800,A,2500.8265572,N,12132.4567341,E,0.02,266.26,260623,,,R,V*19
$GPHDT,,T*1B
$GNACCURACY,2.3*17
$GNGGA,115414.900,2500.8265522,N,12132.4567308,E,4,61,0.46,16.019,M,15.25,M,8,3335*4E
$GNRMC,115414.900,A,2500.8265522,N,12132.4567308,E,0.03,266.26,260623,,,R,V*11
$GPHDT,,T*1B
$GNACCURACY,2.4*10
$GNGGA,115415.000,2500.8265574,N,12132.4567320,E,4,60,0.49,16.016,M,15.25,M,9,3335*4F
$GNRMC,115415.000,A,2500.8265574,N,12132.4567320,E,0.02,266.26,260623,,,R,V*11
$GPHDT,,T*1B
$GNACCURACY,2.4*10
$GNGGA,115415.100,2500.8265564,N,12132.4567299,E,4,63,0.45,16.017,M,15.25,M,9,3335*42
$GNRMC,115415.100,A,2500.8265564,N,12132.4567299,E,0.03,266.26,260623,,,R,V*13
$GPHDT,,T*1B
$GNGSA,A,3,196,23,24,199,18,194,12,195,10,25,32,05,0.72,0.45,0.56,1*07
$GNGSA,A,3,73,80,71,86,85,,,,,,,,0.72,0.45,0.56,2*0C
$GNGSA,A,3,13,07,08,26,30,02,15,,,,,,0.72,0.45,0.56,3*08
$GNGSA,A,3,08,38,13,39,16,06,46,19,09,36,20,22,0.72,0.45,0.56,4*0D
$GNGSA,A,3,35,37,,,,,,,,,,,0.72,0.45,0.56,4*01
$GPGSV,4,1,16,196,76,074,32,23,62,347,37,24,60,034,29,199,60,167,37,1*65
$GPGSV,4,2,16,18,50,226,45,41,38,242,39,194,35,136,40,15,31,059,18,1*57
$GPGSV,4,3,16,12,29,131,38,195,29,179,26,10,28,324,43,25,18,170,22,1*58
$GPGSV,4,4,16,32,15,280,27,05,10,128,22,28,04,222,,13,02,066,,1*6A
$GPGSV,3,1,10,196,76,074,39,23,62,347,32,24,60,034,33,199,60,167,47,8*6F
$GPGSV,3,2,10,18,50,226,45,194,35,136,43,195,29,179,34,10,28,324,37,8*6B
$GPGSV,3,3,10,25,18,170,30,32,15,280,29,8*63
$GLGSV,3,1,09,73,53,150,45,80,44,054,21,70,42,029,,71,27,328,44,1*7E
$GLGSV,3,2,09,86,27,285,38,85,25,232,28,74,16,185,22,69,08,087,,1*7C
$GLGSV,3,3,09,79,01,025,,1*49
$GAGSV,3,1,09,13,47,220,41,07,46,317,43,08,42,037,28,26,36,295,33,7*74
$GAGSV,3,2,09,30,34,136,41,02,27,074,12,15,13,173,26,27,08,184,,7*7E
$GAGSV,3,3,09,03,06,073,15,7*4F
$GAGSV,2,1,06,13,47,220,44,07,46,317,44,08,42,037,27,26,36,295,30,1*72
$GAGSV,2,2,06,30,34,136,40,02,27,074,27,1*76
$GBGSV,4,1,15,08,85,340,37,38,80,160,43,13,72,320,37,39,68,299,44,1*76
$GBGSV,4,2,15,16,65,274,41,06,64,269,38,46,62,085,26,19,54,000,37,1*74
$GBGSV,4,3,15,09,50,249,36,36,47,183,40,20,39,078,28,22,18,310,34,1*7A
$GBGSV,4,4,15,35,17,257,36,37,15,041,28,29,11,204,18,1*4C
$GBGSV,3,1,09,38,80,160,45,39,68,299,40,46,62,085,26,19,54,000,31,4*7B
$GBGSV,3,2,09,36,47,183,42,20,39,078,14,22,18,310,30,35,17,257,33,4*7B
$GBGSV,3,3,09,37,15,041,31,4*4D
$GNACCURACY,2.4*10
$PAIRSAT,1,35,1,0,200,2,0,200,3,0,200,4,0,200,5,0,201,6,0,200,7,0,200,8,0,200,9,0,200,10,0,221,11,0,200,12,0,201,13,0,201,14,0,200,15,0,201,16,0,200,17,0,200,18,0,221,19,0,200,20,0,200,21,0,200,23,0,221,24,0,221,25,0,220,26,0,200,27,0,200,28,0,200,29,0,200,30,0,200,31,0,200,32,0,221,194,0,621,195,0,621,196,0,620,199,0,621*6A
$PAIRSAT,2,24,65,0,200,66,0,200,67,0,200,68,0,200,69,0,200,70,0,200,71,0,201,72,0,200,73,0,201,74,0,200,75,0,200,76,0,200,77,0,200,78,0,200,79,0,201,80,0,201,81,0,200,82,0,200,83,0,200,84,0,200,85,0,201,86,0,201,87,0,200,88,0,200*7A
$PAIRSAT,3,23,2,0,1221,3,0,1221,4,0,1200,5,0,200,7,0,1221,8,0,1221,9,0,1200,10,0,1200,11,0,1200,12,0,1200,13,0,1221,15,0,1221,19,0,1200,21,0,1200,24,0,1200,25,0,1200,26,0,1221,27,0,1200,30,0,1221,31,0,1200,33,0,1200,34,0,1200,36,0,1200*6A
$PAIRSAT,4,50,1,0,200,2,0,200,3,0,200,4,0,200,5,0,200,6,0,201,7,0,200,8,0,201,9,0,201,10,0,200,11,0,200,12,0,200,13,0,201,14,0,200,15,0,200,16,0,201,19,0,621,20,0,621,21,0,600,22,0,621,23,0,600,24,0,600,25,0,600,26,0,600,27,0,600,28,0,600,29,0,621,30,0,600,31,0,200,32,0,600,33,0,600,34,0,600,35,0,621,36,0,621,37,0,621,38,0,621,39,0,621,40,0,600,41,0,600,42,0,600,43,0,600,44,0,600,45,0,600,46,0,621,56,0,200,57,0,200,58,0,200,59,0,600,60,0,600,61,0,600*41
$PAIRDGP,10,5,10,12,15,18,23,24,25,28,32*45
$GNGGA,115415.200,2500.8265528,N,12132.4567285,E,4,63,0.45,16.006,M,15.25,M,9,3335*44
$GNRMC,115415.200,A,2500.8265528,N,12132.4567285,E,0.03,266.26,260623,,,R,V*15
$GPHDT,,T*1B
$GNACCURACY,2.4*10
$GNGGA,115415.300,2500.8265503,N,12132.4567267,E,4,63,0.45,16.003,M,15.25,M,9,3335*45
$GNRMC,115415.300,A,2500.8265503,N,12132.4567267,E,0.03,266.26,260623,,,R,V*11
$GPHDT,,T*1B
$GNACCURACY,2.4*10
$GNGGA,115415.400,2500.8265501,N,12132.4567251,E,4,63,0.45,16.011,M,15.25,M,9,3335*46
$GNRMC,115415.400,A,2500.8265501,N,12132.4567251,E,0.02,266.26,260623,,,R,V*10
$GPHDT,,T*1B
$GNACCURACY,2.4*10
$GNGGA,115415.500,2500.8265533,N,12132.4567270,E,4,64,0.45,16.015,M,15.25,M,9,3335*46
$GNRMC,115415.500,A,2500.8265533,N,12132.4567270,E,0.02,266.26,260623,,,R,V*13
$GPHDT,,T*1B
$GNACCURACY,2.4*10
$GNGGA,115415.600,2500.8265494,N,12132.4567274,E,4,63,0.45,16.018,M,15.25,M,9,3335*47
$GNRMC,115415.600,A,2500.8265494,N,12132.4567274,E,0.02,266.26,260623,,,R,V*18
$GPHDT,,T*1B
$GNACCURACY,2.4*10
$GNGGA,115415.700,2500.8265518,N,12132.4567280,E,4,62,0.45,16.008,M,15.25,M,9,3335*48
$GNRMC,115415.700,A,2500.8265518,N,12132.4567280,E,0.03,266.26,260623,,,R,V*16
$GPHDT,,T*1B
$GNACCURACY,2.4*10
$GNGGA,115415.800,2500.8265546,N,12132.4567281,E,4,62,0.45,16.017,M,15.25,M,9,3335*43
$GNRMC,115415.800,A,2500.8265546,N,12132.4567281,E,0.03,266.26,260623,,,R,V*13
$GPHDT,,T*1B
$GNACCURACY,2.4*10
$GNGGA,115415.900,2500.8265505,N,12132.4567289,E,4,62,0.45,16.013,M,15.25,M,9,3335*49
$GNRMC,115415.900,A,2500.8265505,N,12132.4567289,E,0.01,266.26,260623,,,R,V*1F
$GPHDT,,T*1B
$GNACCURACY,2.4*10
$GNGGA,115416.000,2500.8265550,N,12132.4567333,E,4,61,0.46,16.016,M,15.25,M,10,3335*7E
$GNRMC,115416.000,A,2500.8265550,N,12132.4567333,E,0.01,266.26,260623,,,R,V*15
$GPHDT,,T*1B
$GNACCURACY,2.4*10
$GNGGA,115416.100,2500.8265543,N,12132.4567312,E,4,61,0.46,16.020,M,15.25,M,10,3335*7B
$GNRMC,115416.100,A,2500.8265543,N,12132.4567312,E,0.01,266.26,260623,,,R,V*15
$GPHDT,,T*1B
$GNGSA,A,3,196,23,24,199,18,194,12,195,10,25,32,,0.74,0.46,0.58,1*09
$GNGSA,A,3,73,80,71,86,85,,,,,,,,0.74,0.46,0.58,2*07
$GNGSA,A,3,13,07,08,26,30,02,15,,,,,,0.74,0.46,0.58,3*03
$GNGSA,A,3,08,38,13,39,16,06,46,19,09,36,20,22,0.74,0.46,0.58,4*06
$GNGSA,A,3,35,37,,,,,,,,,,,0.74,0.46,0.58,4*0A
$GPGSV,4,1,16,196,76,074,33,23,62,347,37,24,60,034,30,199,60,167,37,1*6C
$GPGSV,4,2,16,18,50,226,40,41,38,242,36,194,35,136,41,15,31,060,17,1*59
$GPGSV,4,3,16,12,29,131,38,195,29,179,30,10,28,324,43,25,18,170,20,1*5D
$GPGSV,4,4,16,32,15,280,32,05,10,128,21,28,04,222,,13,01,066,,1*6E
$GPGSV,3,1,10,196,76,074,39,23,62,347,33,24,60,034,34,199,60,167,48,8*66
$GPGSV,3,2,10,18,50,226,42,194,35,136,43,195,29,179,34,10,28,324,38,8*63
$GPGSV,3,3,10,25,18,170,30,32,15,280,31,8*6A
$GLGSV,3,1,09,73,53,150,45,80,44,054,22,70,42,029,,71,27,328,44,1*7D
$GLGSV,3,2,09,86,27,285,40,85,25,232,25,74,16,185,22,69,08,087,,1*7E
$GLGSV,3,3,09,79,01,025,,1*49
$GAGSV,3,1,09,13,47,220,33,07,46,317,44,08,42,037,28,26,36,295,34,7*71
$GAGSV,3,2,09,30,34,136,41,02,27,074,13,15,13,173,28,27,08,184,,7*71
$GAGSV,3,3,09,03,06,073,15,7*4F
$GAGSV,2,1,06,13,47,220,38,07,46,317,44,08,42,037,28,26,36,295,31,1*77
$GAGSV,2,2,06,30,34,136,40,02,27,074,29,1*78
$GBGSV,4,1,16,08,85,340,37,38,80,160,43,13,72,320,37,39,68,299,44,1*75
$GBGSV,4,2,16,16,65,274,42,06,64,269,41,46,62,085,24,19,54,000,37,1*78
$GBGSV,4,3,16,09,50,249,39,36,47,183,41,31,40,217,,20,39,078,29,1*78
$GBGSV,4,4,16,22,18,310,34,35,17,257,41,37,15,041,32,29,11,204,19,1*79
$GBGSV,3,1,09,38,80,160,45,39,68,299,40,46,62,085,26,19,54,000,31,4*7B
$GBGSV,3,2,09,36,47,183,41,20,39,078,13,22,18,310,31,35,17,257,41,4*7B
$GBGSV,3,3,09,37,15,041,30,4*4C
$GNACCURACY,2.4*10
$PAIRSAT,1,35,1,0,200,2,0,200,3,0,200,4,0,200,5,0,201,6,0,200,7,0,200,8,0,200,9,0,200,10,0,221,11,0,200,12,0,201,13,0,201,14,0,200,15,0,201,16,0,200,17,0,200,18,0,221,19,0,200,20,0,200,21,0,200,23,0,221,24,0,221,25,0,220,26,0,200,27,0,200,28,0,200,29,0,200,30,0,200,31,0,200,32,0,221,194,0,621,195,0,621,196,0,620,199,0,621*6A
$PAIRSAT,2,24,65,0,200,66,0,200,67,0,200,68,0,200,69,0,200,70,0,200,71,0,201,72,0,200,73,0,201,74,0,200,75,0,200,76,0,200,77,0,200,78,0,200,79,0,201,80,0,201,81,0,200,82,0,200,83,0,200,84,0,200,85,0,201,86,0,201,87,0,200,88,0,200*7A
$PAIRSAT,3,23,2,0,1221,3,0,1221,4,0,1200,5,0,200,7,0,1221,8,0,1221,9,0,1200,10,0,1200,11,0,1200,12,0,1200,13,0,1221,15,0,1221,19,0,1200,21,0,1200,24,0,1200,25,0,1200,26,0,1221,27,0,1200,30,0,1221,31,0,1200,33,0,1200,34,0,1200,36,0,1200*6A
$PAIRSAT,4,50,1,0,200,2,0,200,3,0,200,4,0,200,5,0,200,6,0,201,7,0,200,8,0,201,9,0,201,10,0,200,11,0,200,12,0,200,13,0,201,14,0,200,15,0,200,16,0,201,19,0,621,20,0,621,21,0,600,22,0,621,23,0,600,24,0,600,25,0,600,26,0,600,27,0,600,28,0,600,29,0,621,30,0,600,31,0,200,32,0,600,33,0,600,34,0,600,35,0,621,36,0,621,37,0,621,38,0,621,39,0,621,40,0,600,41,0,600,42,0,600,43,0,600,44,0,600,45,0,600,46,0,621,56,0,200,57,0,200,58,0,200,59,0,600,60,0,600,61,0,600*41
$PAIRDGP,10,5,10,12,15,18,23,24,25,28,32*45
$GNGGA,115416.200,2500.8265492,N,12132.4567252,E,4,62,0.46,16.030,M,15.25,M,10,3335*72
$GNRMC,115416.200,A,2500.8265492,N,12132.4567252,E,0.01,266.26,260623,,,R,V*1E
$GPHDT,,T*1B
$GNACCURACY,2.4*10
$GNGGA,115416.300,2500.8265541,N,12132.4567293,E,4,63,0.45,16.024,M,15.25,M,10,3335*76
$GNRMC,115416.300,A,2500.8265541,N,12132.4567293,E,0.00,266.26,260623,,,R,V*1C
$GPHDT,,T*1B
$GNACCURACY,2.4*10
$GNGGA,115416.400,2500.8265526,N,12132.4567280,E,4,63,0.45,16.020,M,15.25,M,10,3335*76
$GNRMC,115416.400,A,2500.8265526,N,12132.4567280,E,0.00,266.26,260623,,,R,V*18
$GPHDT,,T*1B
$GNACCURACY,2.4*10
$GNGGA,115416.500,2500.8265533,N,12132.4567278,E,4,63,0.45,16.018,M,15.25,M,10,3335*7F
$GNRMC,115416.500,A,2500.8265533,N,12132.4567278,E,0.01,266.26,260623,,,R,V*1B
$GPHDT,,T*1B
$GNACCURACY,2.4*10
$GNGGA,115416.600,2500.8265529,N,12132.4567285,E,4,61,0.48,16.018,M,15.25,M,10,3335*7A
$GNRMC,115416.600,A,2500.8265529,N,12132.4567285,E,0.00,266.26,260623,,,R,V*10
$GPHDT,,T*1B
$GNACCURACY,2.4*10
$GNGGA,115416.700,2500.8265535,N,12132.4567284,E,4,62,0.46,16.009,M,15.25,M,10,3335*7A
$GNRMC,115416.700,A,2500.8265535,N,12132.4567284,E,0.01,266.26,260623,,,R,V*1C
$GPHDT,,T*1B
$GNACCURACY,2.4*10
$GNGGA,115416.800,2500.8265513,N,12132.4567255,E,4,62,0.46,16.032,M,15.25,M,10,3335*75
$GNRMC,115416.800,A,2500.8265513,N,12132.4567255,E,0.01,266.26,260623,,,R,V*1B
$GPHDT,,T*1B
$GNACCURACY,2.4*10
$GNGGA,115416.900,2500.8265503,N,12132.4567218,E,4,62,0.46,16.029,M,15.25,M,10,3335*76
$GNRMC,115416.900,A,2500.8265503,N,12132.4567218,E,0.00,266.26,260623,,,R,V*13
$GPHDT,,T*1B
$GNACCURACY,2.4*10
$GNGGA,115417.000,2500.8265513,N,12132.4567231,E,4,62,0.46,16.018,M,15.25,M,11,3335*77
$GNRMC,115417.000,A,2500.8265513,N,12132.4567231,E,0.01,266.26,260623,,,R,V*10
$GPHDT,,T*1B
$GNACCURACY,2.4*10
$GNGGA,115417.100,2500.8265504,N,12132.4567239,E,4,62,0.46,16.025,M,15.25,M,11,3335*76
$GNRMC,115417.100,A,2500.8265504,N,12132.4567239,E,0.00,266.26,260623,,,R,V*1E
$GPHDT,,T*1B
$GNGSA,A,3,196,23,24,199,18,194,12,195,10,25,32,05,0.72,0.45,0.56,1*07
$GNGSA,A,3,73,80,71,86,85,,,,,,,,0.72,0.45,0.56,2*0C
$GNGSA,A,3,13,07,08,26,30,02,15,,,,,,0.72,0.45,0.56,3*08
$GNGSA,A,3,08,38,13,39,16,06,46,19,09,36,20,22,0.72,0.45,0.56,4*0D
$GNGSA,A,3,35,37,,,,,,,,,,,0.72,0.45,0.56,4*01
$GPGSV,4,1,16,196,76,074,32,23,63,347,37,24,60,034,31,199,60,167,37,1*6D
$GPGSV,4,2,16,18,50,226,44,41,38,242,42,194,35,136,41,15,31,060,20,1*5A
$GPGSV,4,3,16,12,29,131,38,195,29,179,29,10,28,324,43,25,18,170,18,1*5E
$GPGSV,4,4,16,32,15,280,29,05,10,128,21,28,04,222,,13,01,066,,1*64
$GPGSV,3,1,10,196,76,074,39,23,63,347,33,24,60,034,34,199,60,167,48,8*67
$GPGSV,3,2,10,18,50,226,44,194,35,136,43,195,29,179,38,10,28,324,38,8*69
$GPGSV,3,3,10,25,18,170,31,32,15,280,32,8*68
$GLGSV,3,1,09,73,53,150,45,80,44,054,22,70,42,029,,71,27,328,44,1*7D
$GLGSV,3,2,09,86,27,285,40,85,25,232,28,74,16,185,22,69,08,087,,1*73
$GLGSV,3,3,09,79,01,025,,1*49
$GAGSV,3,1,09,13,47,220,37,07,46,317,44,08,42,037,28,26,36,295,33,7*72
$GAGSV,3,2,09,30,34,136,41,02,27,074,13,15,13,173,28,27,08,184,,7*71
$GAGSV,3,3,09,03,06,073,13,7*49
$GAGSV,2,1,06,13,47,220,41,07,46,317,44,08,42,037,26,26,36,295,32,1*74
$GAGSV,2,2,06,30,34,136,40,02,27,074,29,1*78
$GBGSV,4,1,15,08,85,340,38,38,80,160,43,13,72,320,37,39,68,299,44,1*79
$GBGSV,4,2,15,16,65,274,42,06,64,269,41,46,62,085,25,19,54,000,37,1*7A
$GBGSV,4,3,15,09,50,249,41,36,47,183,41,20,39,078,29,22,18,310,34,1*7A
$GBGSV,4,4,15,35,17,257,40,37,15,041,35,29,11,204,18,1*41
$GBGSV,3,1,09,38,80,160,45,39,68,299,40,46,62,085,26,19,54,000,31,4*7B
$GBGSV,3,2,09,36,47,183,41,20,39,078,13,22,18,310,30,35,17,257,41,4*7A
$GBGSV,3,3,09,37,15,041,34,4*48
$GNACCURACY,2.4*10
$PAIRSAT,1,35,1,0,200,2,0,200,3,0,200,4,0,200,5,0,201,6,0,200,7,0,200,8,0,200,9,0,200,10,0,221,11,0,200,12,0,201,13,0,201,14,0,200,15,0,201,16,0,200,17,0,200,18,0,221,19,0,200,20,0,200,21,0,200,23,0,221,24,0,221,25,0,220,26,0,200,27,0,200,28,0,200,29,0,200,30,0,200,31,0,200,32,0,221,194,0,621,195,0,621,196,0,620,199,0,621*6A
$PAIRSAT,2,24,65,0,200,66,0,200,67,0,200,68,0,200,69,0,200,70,0,200,71,0,201,72,0,200,73,0,201,74,0,200,75,0,200,76,0,200,77,0,200,78,0,200,79,0,201,80,0,201,81,0,200,82,0,200,83,0,200,84,0,200,85,0,201,86,0,201,87,0,200,88,0,200*7A
$PAIRSAT,3,23,2,0,1221,3,0,1221,4,0,1200,5,0,200,7,0,1221,8,0,1221,9,0,1200,10,0,1200,11,0,1200,12,0,1200,13,0,1221,15,0,1221,19,0,1200,21,0,1200,24,0,1200,25,0,1200,26,0,1221,27,0,1200,30,0,1221,31,0,1200,33,0,1200,34,0,1200,36,0,1200*6A
$PAIRSAT,4,50,1,0,200,2,0,200,3,0,200,4,0,200,5,0,200,6,0,201,7,0,200,8,0,201,9,0,201,10,0,200,11,0,200,12,0,200,13,0,201,14,0,200,15,0,200,16,0,201,19,0,621,20,0,621,21,0,600,22,0,621,23,0,600,24,0,600,25,0,600,26,0,600,27,0,600,28,0,600,29,0,621,30,0,600,31,0,200,32,0,600,33,0,600,34,0,600,35,0,621,36,0,621,37,0,621,38,0,621,39,0,621,40,0,600,41,0,600,42,0,600,43,0,600,44,0,600,45,0,600,46,0,621,56,0,200,57,0,200,58,0,200,59,0,600,60,0,600,61,0,600*41
$PAIRDGP,10,5,10,12,15,18,23,24,25,28,32*45
$GNGGA,115417.200,2500.8265485,N,12132.4567220,E,4,63,0.45,16.033,M,15.25,M,11,3335*70
$GNRMC,115417.200,A,2500.8265485,N,12132.4567220,E,0.00,266.26,260623,,,R,V*1D
$GPHDT,,T*1B
$GNACCURACY,2.3*17
$GNGGA,115417.300,2500.8265552,N,12132.4567284,E,4,63,0.45,16.013,M,15.25,M,11,3335*76
$GNRMC,115417.300,A,2500.8265552,N,12132.4567284,E,0.00,266.26,260623,,,R,V*19
$GPHDT,,T*1B
$GNACCURACY,2.3*17
$GNGGA,115417.400,2500.8265494,N,12132.4567227,E,4,62,0.46,16.032,M,15.25,M,11,3335*72
$GNRMC,115417.400,A,2500.8265494,N,12132.4567227,E,0.01,266.26,260623,,,R,V*1D
$GPHDT,,T*1B
$GNACCURACY,2.3*17
$GNGGA,115417.500,2500.8265504,N,12132.4567235,E,4,62,0.45,16.038,M,15.25,M,11,3335*71
$GNRMC,115417.500,A,2500.8265504,N,12132.4567235,E,0.00,266.26,260623,,,R,V*16
$GPHDT,,T*1B
$GNACCURACY,2.3*17
$GNGGA,115417.600,2500.8265514,N,12132.4567238,E,4,62,0.46,16.025,M,15.25,M,11,3335*71
$GNRMC,115417.600,A,2500.8265514,N,12132.4567238,E,0.01,266.26,260623,,,R,V*18
$GPHDT,,T*1B
$GNACCURACY,2.3*17
$GNGGA,115417.700,2500.8265495,N,12132.4567211,E,4,62,0.46,16.039,M,15.25,M,11,3335*7E
$GNRMC,115417.700,A,2500.8265495,N,12132.4567211,E,0.01,266.26,260623,,,R,V*1A
$GPHDT,,T*1B
$GNACCURACY,2.3*17
$GNGGA,115417.800,2500.8265532,N,12132.4567245,E,4,62,0.46,16.018,M,15.25,M,11,3335*7F
$GNRMC,115417.800,A,2500.8265532,N,12132.4567245,E,0.00,266.26,260623,,,R,V*19
$GPHDT,,T*1B
$GNACCURACY,2.3*17
$GNGGA,115417.900,2500.8265527,N,12132.4567251,E,4,62,0.46,16.031,M,15.25,M,11,3335*74
$GNRMC,115417.900,A,2500.8265527,N,12132.4567251,E,0.00,266.26,260623,,,R,V*19
$GPHDT,,T*1B
$GNACCURACY,2.4*10
$GNGGA,115418.000,2500.8265463,N,12132.4567183,E,4,61,0.48,16.055,M,15.25,M,12,3335*73
$GNRMC,115418.000,A,2500.8265463,N,12132.4567183,E,0.01,266.26,260623,,,R,V*13
$GPHDT,,T*1B
$GNACCURACY,2.4*10
$GNGGA,115418.100,2500.8265480,N,12132.4567188,E,4,63,0.45,16.034,M,15.25,M,12,3335*7C
$GNRMC,115418.100,A,2500.8265480,N,12132.4567188,E,0.02,266.26,260623,,,R,V*17
$GPHDT,,T*1B
$GNGSA,A,3,196,23,24,199,18,194,12,195,10,25,32,,0.72,0.45,0.56,1*02
$GNGSA,A,3,73,80,71,86,85,,,,,,,,0.72,0.45,0.56,2*0C
$GNGSA,A,3,13,07,08,26,30,02,15,,,,,,0.72,0.45,0.56,3*08
$GNGSA,A,3,08,38,13,39,16,06,46,19,09,36,20,22,0.72,0.45,0.56,4*0D
$GNGSA,A,3,35,37,29,,,,,,,,,,0.72,0.45,0.56,4*0A
$GPGSV,4,1,16,196,76,074,32,23,63,347,37,24,60,034,31,199,60,167,37,1*6D
$GPGSV,4,2,16,18,50,226,44,41,38,242,42,194,35,136,41,15,31,060,17,1*5E
$GPGSV,4,3,16,12,29,131,38,195,29,179,34,10,28,324,43,25,18,170,18,1*52
$GPGSV,4,4,16,32,15,280,30,05,10,128,21,28,04,222,,13,01,066,,1*6C
$GPGSV,3,1,10,196,76,074,38,23,63,347,33,24,60,034,33,199,60,167,48,8*61
$GPGSV,3,2,10,18,50,226,45,194,35,136,43,195,29,179,32,10,28,324,38,8*62
$GPGSV,3,3,10,25,18,170,29,32,15,280,31,8*62
$GLGSV,3,1,09,73,53,150,45,80,44,054,24,70,42,029,,71,27,328,44,1*7B
$GLGSV,3,2,09,86,27,285,40,85,25,232,28,74,16,185,21,69,08,087,,1*70
$GLGSV,3,3,09,79,01,025,,1*49
$GAGSV,3,1,09,13,47,220,39,07,46,317,44,08,42,037,28,26,36,295,33,7*7C
$GAGSV,3,2,09,30,34,136,41,02,27,074,13,15,13,173,28,27,08,184,,7*71
$GAGSV,3,3,09,03,06,073,14,7*4E
$GAGSV,2,1,06,13,47,220,42,07,46,317,44,08,42,037,27,26,36,295,31,1*75
$GAGSV,2,2,06,30,34,136,39,02,27,074,27,1*78
$GBGSV,4,1,15,08,85,340,38,38,80,160,43,13,72,320,37,39,68,299,44,1*79
$GBGSV,4,2,15,16,65,274,42,06,64,269,41,46,62,085,26,19,54,000,37,1*79
$GBGSV,4,3,15,09,50,249,41,36,47,183,41,20,39,078,29,22,18,310,34,1*7A
$GBGSV,4,4,15,35,17,257,41,37,15,041,35,29,11,204,18,1*40
$GBGSV,3,1,10,38,80,160,45,39,68,299,40,46,62,085,26,19,54,000,31,4*73
$GBGSV,3,2,10,36,47,183,41,20,39,078,12,22,18,310,30,35,17,257,40,4*72
$GBGSV,3,3,10,37,15,041,33,29,11,204,19,4*72
$GNACCURACY,2.4*10
$PAIRSAT,1,35,1,0,200,2,0,200,3,0,200,4,0,200,5,0,201,6,0,200,7,0,200,8,0,200,9,0,200,10,0,221,11,0,200,12,0,201,13,0,201,14,0,200,15,0,201,16,0,200,17,0,200,18,0,221,19,0,200,20,0,200,21,0,200,23,0,221,24,0,221,25,0,220,26,0,200,27,0,200,28,0,200,29,0,200,30,0,200,31,0,200,32,0,221,194,0,621,195,0,621,196,0,620,199,0,621*6A
$PAIRSAT,2,24,65,0,200,66,0,200,67,0,200,68,0,200,69,0,200,70,0,200,71,0,201,72,0,200,73,0,201,74,0,200,75,0,200,76,0,200,77,0,200,78,0,200,79,0,201,80,0,201,81,0,200,82,0,200,83,0,200,84,0,200,85,0,201,86,0,201,87,0,200,88,0,200*7A
$PAIRSAT,3,23,2,0,1221,3,0,1221,4,0,1200,5,0,200,7,0,1221,8,0,1221,9,0,1200,10,0,1200,11,0,1200,12,0,1200,13,0,1221,15,0,1221,19,0,1200,21,0,1200,24,0,1200,25,0,1200,26,0,1221,27,0,1200,30,0,1221,31,0,1200,33,0,1200,34,0,1200,36,0,1200*6A
$PAIRSAT,4,50,1,0,200,2,0,200,3,0,200,4,0,200,5,0,200,6,0,201,7,0,200,8,0,201,9,0,201,10,0,200,11,0,200,12,0,200,13,0,201,14,0,200,15,0,200,16,0,201,19,0,621,20,0,621,21,0,600,22,0,621,23,0,600,24,0,600,25,0,600,26,0,600,27,0,600,28,0,600,29,0,621,30,0,600,31,0,200,32,0,600,33,0,600,34,0,600,35,0,621,36,0,621,37,0,621,38,0,621,39,0,621,40,0,600,41,0,600,42,0,600,43,0,600,44,0,600,45,0,600,46,0,621,56,0,200,57,0,200,58,0,200,59,0,600,60,0,600,61,0,600*41
$PAIRDGP,10,5,10,12,15,18,23,24,25,28,32*45
$GNGGA,115418.200,2500.8265479,N,12132.4567179,E,4,63,0.45,16.026,M,15.25,M,12,3335*74
$GNRMC,115418.200,A,2500.8265479,N,12132.4567179,E,0.01,266.26,260623,,,R,V*1F
$GPHDT,,T*1B
$GNACCURACY,2.4*10
$GNGGA,115418.300,2500.8265498,N,12132.4567222,E,4,63,0.45,16.030,M,15.25,M,12,3335*70
$GNRMC,115418.300,A,2500.8265498,N,12132.4567222,E,0.01,266.26,260623,,,R,V*1C
$GPHDT,,T*1B
$GNACCURACY,2.4*10
$GNGGA,115418.400,2500.8265559,N,12132.4567323,E,4,63,0.45,16.000,M,15.25,M,9,3335*42
$GNRMC,115418.400,A,2500.8265559,N,12132.4567323,E,0.01,266.26,260623,,,R,V*17
$GPHDT,,T*1B
$GNACCURACY,2.4*10
$GNGGA,115418.500,2500.8265518,N,12132.4567273,E,4,63,0.45,16.010,M,15.25,M,9,3335*43
$GNRMC,115418.500,A,2500.8265518,N,12132.4567273,E,0.01,266.26,260623,,,R,V*17
$GPHDT,,T*1B
$GNACCURACY,2.4*10
$GNGGA,115418.600,2500.8265559,N,12132.4567316,E,4,62,0.45,16.007,M,15.25,M,9,3335*40
$GNRMC,115418.600,A,2500.8265559,N,12132.4567316,E,0.01,266.26,260623,,,R,V*13
$GPHDT,,T*1B
$GNACCURACY,2.4*10
$GNGGA,115418.700,2500.8265619,N,12132.4567316,E,2,63,0.45,16.007,M,15.25,M,8,3335*40
$GNRMC,115418.700,A,2500.8265619,N,12132.4567316,E,0.01,266.26,260623,,,D,V*03
$GPHDT,,T*1B
$GNACCURACY,2.4*10
$GNGGA,115418.800,2500.8265619,N,12132.4567256,E,2,60,0.48,16.007,M,15.25,M,8,3335*44
$GNRMC,115418.800,A,2500.8265619,N,12132.4567256,E,0.01,266.26,260623,,,D,V*09
$GPHDT,,T*1B
$GNACCURACY,2.4*10
$GNGGA,115418.900,2500.8265679,N,12132.4567256,E,2,63,0.45,16.008,M,15.25,M,8,3335*42
$GNRMC,115418.900,A,2500.8265679,N,12132.4567256,E,0.01,266.26,260623,,,D,V*0E
$GPHDT,,T*1B
$GNACCURACY,2.4*10
$GNGGA,115419.000,2500.8265739,N,12132.4567256,E,2,63,0.45,16.009,M,15.25,M,9,3335*4F
$GNRMC,115419.000,A,2500.8265739,N,12132.4567256,E,0.01,266.26,260623,,,D,V*03
$GPHDT,,T*1B
$GNACCURACY,2.4*10
$GNGGA,115419.100,2500.8265859,N,12132.4567256,E,2,62,0.45,16.013,M,15.25,M,9,3335*4D
$GNRMC,115419.100,A,2500.8265859,N,12132.4567256,E,0.01,266.26,260623,,,D,V*0B
$GPHDT,,T*1B
$GNGSA,A,3,196,23,24,199,18,194,12,195,10,25,32,,0.72,0.45,0.56,1*02
$GNGSA,A,3,73,80,71,86,85,,,,,,,,0.72,0.45,0.56,2*0C
$GNGSA,A,3,13,07,08,26,30,02,15,,,,,,0.72,0.45,0.56,3*08
$GNGSA,A,3,08,38,13,39,16,06,46,19,09,36,20,22,0.72,0.45,0.56,4*0D
$GNGSA,A,3,35,37,29,,,,,,,,,,0.72,0.45,0.56,4*0A
$GPGSV,4,1,16,196,76,074,32,23,63,347,37,24,60,034,31,199,60,167,37,1*6D
$GPGSV,4,2,16,18,50,226,44,41,38,242,42,194,35,136,41,15,31,060,15,1*5C
$GPGSV,4,3,16,12,29,131,38,195,29,179,26,10,28,324,43,25,18,170,18,1*51
$GPGSV,4,4,16,32,15,280,30,05,10,128,23,28,04,222,,13,01,066,,1*6E
$GPGSV,3,1,10,196,76,074,38,23,63,347,32,24,60,034,33,199,60,167,47,8*6F
$GPGSV,3,2,10,18,50,226,45,194,35,136,43,195,29,179,36,10,28,324,38,8*66
$GPGSV,3,3,10,25,18,170,28,32,15,280,31,8*63
$GLGSV,3,1,09,73,53,150,45,80,44,054,24,70,42,029,,71,27,328,44,1*7B
$GLGSV,3,2,09,86,27,285,40,85,25,232,28,74,16,185,21,69,08,087,,1*70
$GLGSV,3,3,09,79,01,025,,1*49
$GAGSV,3,1,09,13,47,220,39,07,46,317,44,08,42,037,28,26,36,295,33,7*7C
$GAGSV,3,2,09,30,34,136,41,02,27,074,13,15,13,173,27,27,08,184,,7*7E
$GAGSV,3,3,09,03,06,073,14,7*4E
$GAGSV,2,1,06,13,47,220,42,07,46,317,44,08,42,037,26,26,36,295,31,1*74
$GAGSV,2,2,06,30,34,136,39,02,27,074,28,1*77
$GBGSV,4,1,15,08,85,340,38,38,80,160,43,13,72,320,37,39,68,299,44,1*79
$GBGSV,4,2,15,16,65,274,42,06,64,269,41,46,62,085,27,19,54,000,37,1*78
$GBGSV,4,3,15,09,50,249,41,36,47,183,41,20,39,078,29,22,18,310,34,1*7A
$GBGSV,4,4,15,35,17,257,41,37,15,041,35,29,11,204,19,1*41
$GBGSV,3,1,09,38,80,160,45,39,68,299,39,46,62,085,26,19,54,000,31,4*75
$GBGSV,3,2,09,36,47,183,40,22,18,310,30,35,17,257,40,37,15,041,33,4*7A
$GBGSV,3,3,09,29,11,204,21,4*44
$GNACCURACY,2.4*10
$PAIRSAT,1,35,1,0,200,2,0,200,3,0,200,4,0,200,5,0,201,6,0,200,7,0,200,8,0,200,9,0,200,10,0,221,11,0,200,12,0,201,13,0,201,14,0,200,15,0,201,16,0,200,17,0,200,18,0,221,19,0,200,20,0,200,21,0,200,23,0,221,24,0,221,25,0,220,26,0,200,27,0,200,28,0,200,29,0,200,30,0,200,31,0,200,32,0,221,194,0,621,195,0,621,196,0,620,199,0,621*6A
$PAIRSAT,2,24,65,0,200,66,0,200,67,0,200,68,0,200,69,0,200,70,0,200,71,0,201,72,0,200,73,0,201,74,0,200,75,0,200,76,0,200,77,0,200,78,0,200,79,0,201,80,0,201,81,0,200,82,0,200,83,0,200,84,0,200,85,0,201,86,0,201,87,0,200,88,0,200*7A
$PAIRSAT,3,23,2,0,1221,3,0,1221,4,0,1200,5,0,200,7,0,1221,8,0,1221,9,0,1200,10,0,1200,11,0,1200,12,0,1200,13,0,1221,15,0,1221,19,0,1200,21,0,1200,24,0,1200,25,0,1200,26,0,1221,27,0,1200,30,0,1221,31,0,1200,33,0,1200,34,0,1200,36,0,1200*6A
$PAIRSAT,4,50,1,0,200,2,0,200,3,0,200,4,0,200,5,0,200,6,0,201,7,0,200,8,0,201,9,0,201,10,0,200,11,0,200,12,0,200,13,0,201,14,0,200,15,0,200,16,0,201,19,0,621,20,0,621,21,0,600,22,0,621,23,0,600,24,0,600,25,0,600,26,0,600,27,0,600,28,0,600,29,0,621,30,0,600,31,0,200,32,0,600,33,0,600,34,0,600,35,0,621,36,0,621,37,0,621,38,0,621,39,0,621,40,0,600,41,0,600,42,0,600,43,0,600,44,0,600,45,0,600,46,0,621,56,0,200,57,0,200,58,0,200,59,0,600,60,0,600,61,0,600*41
$PAIRDGP,10,5,10,12,15,18,23,24,25,28,32*45
$GNGGA,115419.200,2500.8265919,N,12132.4567256,E,2,62,0.45,16.019,M,15.25,M,9,3335*41
$GNRMC,115419.200,A,2500.8265919,N,12132.4567256,E,0.02,266.26,260623,,,D,V*0E
$GPHDT,136.564,T*36
$GNACCURACY,2.4*10
$GNGGA,115419.300,2500.8265979,N,12132.4567196,E,2,62,0.45,16.022,M,15.25,M,9,3335*41
$GNRMC,115419.300,A,2500.8265979,N,12132.4567196,E,0.01,266.26,260623,,,D,V*05
$GPHDT,,T*1B
$GNACCURACY,2.4*10
$GNGGA,115419.400,2500.8266099,N,12132.4567196,E,2,63,0.45,16.030,M,15.25,M,9,3335*40
$GNRMC,115419.400,A,2500.8266099,N,12132.4567196,E,0.02,266.26,260623,,,D,V*05
$GPHDT,137.064,T*32
$GNACCURACY,2.4*10
$GNGGA,115419.500,2500.8266159,N,12132.4567196,E,2,63,0.45,16.036,M,15.25,M,9,3335*4A
$GNRMC,115419.500,A,2500.8266159,N,12132.4567196,E,0.01,266.26,260623,,,D,V*0A
$GPHDT,,T*1B
$GNACCURACY,2.4*10
$GNGGA,115419.600,2500.8266159,N,12132.4567196,E,2,63,0.45,16.039,M,15.25,M,0,3335*4F
$GNRMC,115419.600,A,2500.8266159,N,12132.4567196,E,0.00,266.26,260623,,,D,V*08
$GPHDT,135.659,T*38
$GNACCURACY,2.4*10
$GNGGA,115419.700,2500.8266159,N,12132.4567196,E,2,63,0.45,16.041,M,15.25,M,0,3335*41
$GNRMC,115419.700,A,2500.8266159,N,12132.4567196,E,0.02,266.26,260623,,,D,V*0B
$GPHDT,,T*1B
$GNACCURACY,2.3*17
$GNGGA,115419.800,2500.8266159,N,12132.4567196,E,2,63,0.45,16.044,M,15.25,M,0,3335*4B
$GNRMC,115419.800,A,2500.8266159,N,12132.4567196,E,0.03,266.26,260623,,,D,V*05
$GPHDT,136.719,T*3E
$GNACCURACY,2.3*17
$GNGGA,115419.900,2500.8266159,N,12132.4567196,E,2,63,0.45,16.049,M,15.25,M,0,3335*47
$GNRMC,115419.900,A,2500.8266159,N,12132.4567196,E,0.04,266.26,260623,,,D,V*03
$GPHDT,,T*1B
$GNACCURACY,2.4*10
$GNGGA,115420.000,2500.8266159,N,12132.4567136,E,2,63,0.45,16.052,M,15.25,M,1,3335*45
$GNRMC,115420.000,A,2500.8266159,N,12132.4567136,E,0.05,266.26,260623,,,D,V*0B
$GPHDT,136.349,T*3F
$GNACCURACY,2.4*10
$GNGGA,115420.100,2500.8266219,N,12132.4567136,E,2,62,0.45,16.059,M,15.25,M,1,3335*49
$GNRMC,115420.100,A,2500.8266219,N,12132.4567136,E,0.05,266.26,260623,,,D,V*0D
$GPHDT,,T*1B
$GNGSA,A,3,196,23,24,199,18,194,12,195,10,25,32,05,0.71,0.45,0.55,1*07
$GNGSA,A,3,73,80,71,86,85,,,,,,,,0.71,0.45,0.55,2*0C
$GNGSA,A,3,13,07,08,26,30,02,15,,,,,,0.71,0.45,0.55,3*08
$GNGSA,A,3,08,38,13,39,16,06,46,19,09,36,20,22,0.71,0.45,0.55,4*0D
$GNGSA,A,3,35,37,29,,,,,,,,,,0.71,0.45,0.55,4*0A
$GPGSV,4,1,16,196,76,074,33,23,63,347,37,24,60,034,31,199,60,167,38,1*63
$GPGSV,4,2,16,18,50,226,44,41,38,242,42,194,35,136,34,15,31,060,16,1*5D
$GPGSV,4,3,16,12,29,131,39,195,29,179,30,10,28,324,43,25,18,170,18,1*57
$GPGSV,4,4,16,32,15,280,30,05,10,128,20,28,04,222,,13,01,066,,1*6D
$GPGSV,3,1,10,196,76,074,38,23,63,347,32,24,60,034,33,199,60,167,47,8*6F
$GPGSV,3,2,10,18,50,226,45,194,35,136,40,195,29,179,35,10,28,324,36,8*68
$GPGSV,3,3,10,25,18,170,31,32,15,280,31,8*6B
$GLGSV,3,1,09,73,53,150,45,80,44,054,24,70,42,029,,71,27,328,44,1*7B
$GLGSV,3,2,09,86,27,285,39,85,25,232,27,74,16,185,21,69,08,087,,1*71
$GLGSV,3,3,09,79,01,025,,1*49
$GAGSV,3,1,09,13,47,220,39,07,46,317,44,08,42,037,28,26,36,295,34,7*7B
$GAGSV,3,2,09,30,34,136,38,02,27,074,15,15,13,173,28,27,08,184,,7*79
$GAGSV,3,3,09,03,06,073,15,7*4F
$GAGSV,2,1,06,13,47,220,43,07,46,317,44,08,42,037,26,26,36,295,30,1*74
$GAGSV,2,2,06,30,34,136,35,02,27,074,29,1*7A
$GBGSV,4,1,15,08,85,340,37,38,80,160,43,13,72,320,37,39,68,299,44,1*76
$GBGSV,4,2,15,16,65,274,42,06,64,269,41,46,62,085,27,19,54,000,37,1*78
$GBGSV,4,3,15,09,50,249,41,36,47,183,42,20,39,078,28,22,18,310,34,1*78
$GBGSV,4,4,15,35,17,257,42,37,15,041,35,29,11,204,19,1*42
$GBGSV,3,1,09,38,80,160,45,39,68,299,39,46,62,085,26,19,54,000,30,4*74
$GBGSV,3,2,09,36,47,183,41,22,18,310,31,35,17,257,40,37,15,041,33,4*7A
$GBGSV,3,3,09,29,11,204,21,4*44
$GNACCURACY,2.4*10
$PAIRSAT,1,35,1,0,200,2,0,200,3,0,200,4,0,200,5,0,201,6,0,200,7,0,200,8,0,200,9,0,200,10,0,221,11,0,200,12,0,201,13,0,201,14,0,200,15,0,201,16,0,200,17,0,200,18,0,221,19,0,200,20,0,200,21,0,200,23,0,221,24,0,221,25,0,220,26,0,200,27,0,200,28,0,200,29,0,200,30,0,200,31,0,200,32,0,221,194,0,621,195,0,621,196,0,620,199,0,621*6A
$PAIRSAT,2,24,65,0,200,66,0,200,67,0,200,68,0,200,69,0,200,70,0,200,71,0,201,72,0,200,73,0,201,74,0,200,75,0,200,76,0,200,77,0,200,78,0,200,79,0,201,80,0,201,81,0,200,82,0,200,83,0,200,84,0,200,85,0,201,86,0,201,87,0,200,88,0,200*7A
$PAIRSAT,3,23,2,0,1221,3,0,1221,4,0,1200,5,0,200,7,0,1221,8,0,1221,9,0,1200,10,0,1200,11,0,1200,12,0,1200,13,0,1221,15,0,1221,19,0,1200,21,0,1200,24,0,1200,25,0,1200,26,0,1221,27,0,1200,30,0,1221,31,0,1200,33,0,1200,34,0,1200,36,0,1200*6A
$PAIRSAT,4,50,1,0,200,2,0,200,3,0,200,4,0,200,5,0,200,6,0,201,7,0,200,8,0,201,9,0,201,10,0,200,11,0,200,12,0,200,13,0,201,14,0,200,15,0,200,16,0,201,19,0,621,20,0,621,21,0,600,22,0,621,23,0,600,24,0,600,25,0,600,26,0,600,27,0,600,28,0,600,29,0,621,30,0,600,31,0,200,32,0,600,33,0,600,34,0,600,35,0,621,36,0,621,37,0,621,38,0,621,39,0,621,40,0,600,41,0,600,42,0,600,43,0,600,44,0,600,45,0,600,46,0,621,56,0,200,57,0,200,58,0,200,59,0,600,60,0,600,61,0,600*41
$PAIRDGP,10,5,10,12,15,18,23,24,25,28,32*45
$GNGGA,115420.200,2500.8266279,N,12132.4567076,E,2,63,0.45,16.067,M,15.25,M,1,3335*45
$GNRMC,115420.200,A,2500.8266279,N,12132.4567076,E,0.04,266.26,260623,,,D,V*0C
$GPHDT,136.380,T*3A
$GNACCURACY,2.4*10
$GNGGA,115420.300,2500.8266339,N,12132.4567136,E,2,63,0.45,16.075,M,15.25,M,1,3335*47
$GNRMC,115420.300,A,2500.8266339,N,12132.4567136,E,0.03,266.26,260623,,,D,V*0A
$GPHDT,,T*1B
$GNACCURACY,2.4*10
$GNGGA,115420.400,2500.8266339,N,12132.4567136,E,2,64,0.45,16.081,M,15.25,M,1,3335*4C
$GNRMC,115420.4