$FW : RTK35X,V1.1X0314AS,Lib20210517,1*54
$Tool : LOCOSYS , GNSS Firebird , v1.0.0.19*39
$---------------------------------------------------*2D
,10,196,76,074,37,23,62,347,29,24,61,034,35,199,60,167,47,8*6C
$GPGSV,3,2,10,18,50,226,42,194,35,136,44,195,29,179,41,10,28,323,37,8*6E
$GPGSV,3,3,10,25,18,170,30,32,15,280,29,8*63
$GLGSV,2,1,07,73,53,150,45,80,44,055,28,86,27,285,39,71,27,328,41,1*78
$GLGSV,2,2,07,85,25,233,20,69,08,087,23,79,01,026,,1*47
$GAGSV,3,1,09,13,47,220,34,07,46,317,33,08,42,037,25,26,36,295,32,7*7D
$GAGSV,3,2,09,30,34,136,41,02,27,074,13,15,13,173,29,27,08,184,,7*70
$GAGSV,3,3,09,03,06,073,18,7*42
$GAGSV,2,1,07,13,47,220,34,07,46,317,41,08,42,037,28,26,36,295,32,1*7C
$GAGSV,2,2,07,30,34,136,42,02,27,074,30,15,13,173,24,1*46
$GBGSV,4,1,15,08,85,340,39,38,80,159,45,13,72,321,36,39,68,299,44,1*74
$GBGSV,4,2,15,16,65,274,43,06,64,269,40,46,62,086,17,19,54,000,31,1*7E
$GBGSV,4,3,15,09,50,249,35,36,47,183,45,20,39,078,,22,18,310,29,1*7A
$GBGSV,4,4,15,35,17,257,39,37,15,041,34,29,11,204,17,1*41
$GBGSV,3,1,10,38,80,159,45,39,68,299,41,46,62,086,27,19,54,000,31,4*7A
$GBGSV,3,2,10,36,47,183,46,20,39,078,24,22,18,310,29,35,17,257,40,4*78
$GBGSV,3,3,10,37,15,041,35,29,11,204,19,4*74
$GNACCURACY,2.5*11
$PAIRSAT,1,35,1,0,200,2,0,200,3,0,200,4,0,200,5,0,201,6,0,200,7,0,200,8,0,200,9,0,200,10,0,221,11,0,200,12,0,201,13,0,201,14,0,200,15,0,201,16,0,200,17,0,200,18,0,221,19,0,200,20,0,200,21,0,200,23,0,221,24,0,221,25,0,220,26,0,200,27,0,200,28,0,200,29,0,200,30,0,200,31,0,200,32,0,221,194,0,621,195,0,621,196,0,620,199,0,621*6A
$PAIRSAT,2,24,65,0,200,66,0,200,67,0,200,68,0,200,69,0,200,70,0,200,71,0,201,72,0,200,73,0,201,74,0,200,75,0,200,76,0,200,77,0,200,78,0,200,79,0,201,80,0,201,81,0,200,82,0,200,83,0,200,84,0,200,85,0,201,86,0,201,87,0,200,88,0,200*7A
$PAIRSAT,3,23,2,0,1221,3,0,1221,4,0,1200,5,0,200,7,0,1221,8,0,1221,9,0,1200,10,0,1200,11,0,1200,12,0,1200,13,0,1221,15,0,1221,19,0,1200,21,0,1200,24,0,1200,25,0,1200,26,0,1221,27,0,1200,30,0,1221,31,0,1200,33,0,1200,34,0,1200,36,0,1200*6A
$PAIRSAT,4,50,1,0,200,2,0,200,3,0,200,4,0,200,5,0,200,6,0,201,7,0,200,8,0,201,9,0,201,10,0,200,11,0,200,12,0,200,13,0,201,14,0,200,15,0,200,16,0,201,19,0,621,20,0,621,21,0,600,22,0,621,23,0,600,24,0,600,25,0,600,26,0,600,27,0,600,28,0,600,29,0,621,30,0,600,31,0,200,32,0,600,33,0,600,34,0,600,35,0,621,36,0,621,37,0,621,38,0,621,39,0,621,40,0,600,41,0,600,42,0,600,43,0,600,44,0,600,45,0,600,46,0,621,56,0,200,57,0,200,58,0,200,59,0,600,60,0,600,61,0,600*41
$PAIRDGP,10,5,10,12,15,18,23,24,25,28,32*45
$GNGGA,115357.200,2500.8265380,N,12132.4569376,E,2,65,0.44,15.823,M,15.25,M,1,3335*47
$GNRMC,115357.200,A,2500.8265380,N,12132.4569376,E,0.01,266.26,260623,,,D,V*07
$GPHDT,,T*1B
$GNACCURACY,2.5*11
$GNGGA,115357.300,2500.8265380,N,12132.4569376,E,2,65,0.44,15.810,M,15.25,M,1,3335*46
$GNRMC,115357.300,A,2500.8265380,N,12132.4569376,E,0.01,266.26,260623,,,D,V*06
$GPHDT,,T*1B
$GNACCURACY,2.5*11
$GNGGA,115357.400,2500.8265380,N,12132.4569436,E,2,65,0.44,15.799,M,15.25,M,1,3335*4C
$GNRMC,115357.400,A,2500.8265380,N,12132.4569436,E,0.01,266.26,260623,,,D,V*02
$GPHDT,,T*1B
$GNACCURACY,2.5*11
$GNGGA,115357.500,2500.8265380,N,12132.4569436,E,2,65,0.44,15.791,M,15.25,M,1,3335*45
$GNRMC,115357.500,A,2500.8265380,N,12132.4569436,E,0.01,266.26,260623,,,D,V*03
$GPHDT,,T*1B
$GNACCURACY,2.5*11
$GNGGA,115357.600,2500.8265380,N,12132.4569436,E,2,63,0.45,15.776,M,15.25,M,1,3335*48
$GNRMC,115357.600,A,2500.8265380,N,12132.4569436,E,0.01,266.26,260623,,,D,V*00
$GPHDT,,T*1B
$GNACCURACY,2.5*11
$GNGGA,115357.700,2500.8265380,N,12132.4569496,E,2,63,0.45,15.765,M,15.25,M,1,3335*41
$GNRMC,115357.700,A,2500.8265380,N,12132.4569496,E,0.01,266.26,260623,,,D,V*0B
$GPHDT,,T*1B
$GNACCURACY,2.5*11
$GNGGA,115357.800,2500.8265380,N,12132.4569496,E,2,63,0.45,15.756,M,15.25,M,1,3335*4E
$GNRMC,115357.800,A,2500.8265380,N,12132.4569496,E,0.01,266.26,260623,,,D,V*04
$GPHDT,,T*1B
$GNACCURACY,2.5*11
$GNGGA,115357.900,2500.8265320,N,12132.4569496,E,2,65,0.44,15.740,M,15.25,M,1,3335*45
$GNRMC,115357.900,A,2500.8265320,N,12132.4569496,E,0.01,266.26,260623,,,D,V*0F
$GPHDT,,T*1B
$GNACCURACY,2.5*11
$GNGGA,115358.000,2500.8265380,N,12132.4569496,E,2,66,0.44,15.729,M,15.25,M,2,3335*46
$GNRMC,115358.000,A,2500.8265380,N,12132.4569496,E,0.01,266.26,260623,,,D,V*03
$GPHDT,,T*1B
$GNACCURACY,2.5*11
$GNGGA,115358.100,2500.8265380,N,12132.4569496,E,2,65,0.44,15.718,M,15.25,M,2,3335*46
$GNRMC,115358.100,A,2500.8265380,N,12132.4569496,E,0.01,266.26,260623,,,D,V*02
$GPHDT,,T*1B
$GNGSA,A,3,196,23,24,199,18,194,15,195,10,12,25,32,0.78,0.44,0.65,1*0D
$GNGSA,A,3,05,,,,,,,,,,,,0.78,0.44,0.65,1*08
$GNGSA,A,3,73,80,86,71,85,,,,,,,,0.78,0.44,0.65,2*07
$GNGSA,A,3,13,07,08,26,30,02,15,,,,,,0.78,0.44,0.65,3*03
$GNGSA,A,3,08,38,13,39,16,06,46,19,09,36,22,35,0.78,0.44,0.65,4*02
$GNGSA,A,3,37,20,29,,,,,,,,,,0.78,0.44,0.65,4*05
$GPGSV,4,1,16,196,76,074,36,23,62,347,34,24,61,034,34,199,60,167,36,1*6E
$GPGSV,4,2,16,18,50,226,37,41,38,242,33,194,35,136,41,15,31,059,28,1*5A
$GPGSV,4,3,16,195,29,179,38,10,28,323,36,12,28,131,38,25,18,170,27,1*56
$GPGSV,4,4,16,32,15,280,30,05,11,127,16,28,04,222,,13,02,066,,1*65
$GPGSV,3,1,10,196,76,074,37,23,62,347,30,24,61,034,33,199,60,167,47,8*62
$GPGSV,3,2,10,18,50,226,42,194,35,136,44,195,29,179,40,10,28,323,37,8*6F
$GPGSV,3,3,10,25,18,170,28,32,15,280,28,8*6B
$GLGSV,2,1,06,73,53,150,45,80,44,055,28,86,27,285,40,71,27,328,39,1*78
$GLGSV,2,2,06,85,25,233,23,79,01,026,,1*7C
$GAGSV,3,1,09,13,47,220,35,07,46,317,36,08,42,037,25,26,36,295,33,7*78
$GAGSV,3,2,09,30,34,136,41,02,27,074,17,15,13,173,27,27,08,184,,7*7A
$GAGSV,3,3,09,03,06,073,16,7*4C
$GAGSV,2,1,07,13,47,220,35,07,46,317,40,08,42,037,27,26,36,295,33,1*72
$GAGSV,2,2,07,30,34,136,42,02,27,074,28,15,13,173,24,1*4F
$GBGSV,4,1,15,08,85,340,39,38,80,159,45,13,72,321,35,39,68,299,45,1*76
$GBGSV,4,2,15,16,65,274,43,06,64,269,41,46,62,086,19,19,54,000,31,1*71
$GBGSV,4,3,15,09,50,249,36,36,47,183,46,20,39,078,,22,18,310,28,1*7B
$GBGSV,4,4,15,35,17,257,39,37,15,041,37,29,11,204,17,1*42
$GBGSV,3,1,10,38,80,159,45,39,68,299,42,46,62,086,27,19,54,000,31,4*79
$GBGSV,3,2,10,36,47,183,45,20,39,078,24,22,18,310,28,35,17,257,39,4*74
$GBGSV,3,3,10,37,15,041,30,29,11,204,18,4*70
$GNACCURACY,2.5*11
$PAIRSAT,1,35,1,0,200,2,0,200,3,0,200,4,0,200,5,0,201,6,0,200,7,0,200,8,0,200,9,0,200,10,0,221,11,0,200,12,0,201,13,0,201,14,0,200,15,0,201,16,0,200,17,0,200,18,0,221,19,0,200,20,0,200,21,0,200,23,0,221,24,0,221,25,0,220,26,0,200,27,0,200,28,0,200,29,0,200,30,0,200,31,0,200,32,0,221,194,0,621,195,0,621,196,0,620,199,0,621*6A
$PAIRSAT,2,24,65,0,200,66,0,200,67,0,200,68,0,200,69,0,200,70,0,200,71,0,201,72,0,200,73,0,201,74,0,200,75,0,200,76,0,200,77,0,200,78,0,200,79,0,201,80,0,201,81,0,200,82,0,200,83,0,200,84,0,200,85,0,201,86,0,201,87,0,200,88,0,200*7A
$PAIRSAT,3,23,2,0,1221,3,0,1221,4,0,1200,5,0,200,7,0,1221,8,0,1221,9,0,1200,10,0,1200,11,0,1200,12,0,1200,13,0,1221,15,0,1221,19,0,1200,21,0,1200,24,0,1200,25,0,1200,26,0,1221,27,0,1200,30,0,1221,31,0,1200,33,0,1200,34,0,1200,36,0,1200*6A
$PAIRSAT,4,50,1,0,200,2,0,200,3,0,200,4,0,200,5,0,200,6,0,201,7,0,200,8,0,201,9,0,201,10,0,200,11,0,200,12,0,200,13,0,201,14,0,200,15,0,200,16,0,201,19,0,621,20,0,621,21,0,600,22,0,621,23,0,600,24,0,600,25,0,600,26,0,600,27,0,600,28,0,600,29,0,621,30,0,600,31,0,200,32,0,600,33,0,600,34,0,600,35,0,621,36,0,621,37,0,621,38,0,621,39,0,621,40,0,600,41,0,600,42,0,600,43,0,600,44,0,600,45,0,600,46,0,621,56,0,200,57,0,200,58,0,200,59,0,600,60,0,600,61,0,600*41
$PAIRDGP,10,5,10,12,15,18,23,24,25,28,32*45
$GNGGA,115358.200,2500.8265380,N,12132.4569556,E,2,65,0.44,15.705,M,15.25,M,2,3335*44
$GNRMC,115358.200,A,2500.8265380,N,12132.4569556,E,0.01,266.26,260623,,,D,V*0C
$GPHDT,,T*1B
$GNACCURACY,2.5*11
$GNGGA,115358.300,2500.8265380,N,12132.4569556,E,2,63,0.45,15.694,M,15.25,M,2,3335*4B
$GNRMC,115358.300,A,2500.8265380,N,12132.4569556,E,0.00,266.26,260623,,,D,V*0C
$GPHDT,,T*1B
$GNACCURACY,2.5*11
$GNGGA,115358.400,2500.8265380,N,12132.4569556,E,2,65,0.44,15.687,M,15.25,M,2,3335*49
$GNRMC,115358.400,A,2500.8265380,N,12132.4569556,E,0.01,266.26,260623,,,D,V*0A
$GPHDT,,T*1B
$GNACCURACY,2.5*11
$GNGGA,115358.500,2500.8265532,N,12132.4567451,E,4,64,0.45,16.020,M,15.25,M,2,3335*41
$GNRMC,115358.500,A,2500.8265532,N,12132.4567451,E,0.01,266.26,260623,,,R,V*1A
$GPHDT,,T*1B
$GNACCURACY,2.5*11
$GNGGA,115358.600,2500.8265540,N,12132.4567508,E,4,65,0.44,16.004,M,15.25,M,2,3335*4C
$GNRMC,115358.600,A,2500.8265540,N,12132.4567508,E,0.01,266.26,260623,,,R,V*11
$GPHDT,,T*1B
$GNACCURACY,2.5*11
$GNGGA,115358.700,2500.8265507,N,12132.4567453,E,4,64,0.45,16.020,M,15.25,M,2,3335*47
$GNRMC,115358.700,A,2500.8265507,N,12132.4567453,E,0.01,266.26,260623,,,R,V*1C
$GPHDT,,T*1B
$GNACCURACY,2.5*11
$GNGGA,115358.800,2500.8265495,N,12132.4567446,E,4,65,0.45,16.011,M,15.25,M,2,3335*45
$GNRMC,115358.800,A,2500.8265495,N,12132.4567446,E,0.01,266.26,260623,,,R,V*1D
$GPHDT,,T*1B
$GNACCURACY,2.5*11
$GNGGA,115358.900,2500.8265486,N,12132.4567428,E,4,65,0.45,16.017,M,15.25,M,2,3335*48
$GNRMC,115358.900,A,2500.8265486,N,12132.4567428,E,0.01,266.26,260623,,,R,V*16
$GPHDT,,T*1B
$GNACCURACY,2.5*11
$GNGGA,115359.000,2500.8265485,N,12132.4567427,E,4,65,0.45,16.006,M,15.25,M,3,3335*4D
$GNRMC,115359.000,A,2500.8265485,N,12132.4567427,E,0.01,266.26,260623,,,R,V*12
$GPHDT,,T*1B
$GNACCURACY,2.5*11
$GNGGA,115359.100,2500.8265445,N,12132.4567381,E,4,63,0.48,16.013,M,15.25,M,3,3335*44
$GNRMC,115359.100,A,2500.8265445,N,12132.4567381,E,0.01,266.26,260623,,,R,V*14
$GPHDT,,T*1B
$GNGSA,A,3,196,23,24,199,18,194,195,10,12,25,32,05,0.79,0.45,0.65,1*0C
$GNGSA,A,3,73,80,86,71,85,,,,,,,,0.79,0.45,0.65,2*07
$GNGSA,A,3,13,07,08,26,30,02,15,,,,,,0.79,0.45,0.65,3*03
$GNGSA,A,3,08,38,13,39,16,06,46,19,09,36,20,22,0.79,0.45,0.65,4*06
$GNGSA,A,3,35,37,29,,,,,,,,,,0.79,0.45,0.65,4*01
$GPGSV,4,1,16,196,76,074,35,23,62,347,33,24,61,034,33,199,60,167,36,1*6D
$GPGSV,4,2,16,18,50,226,40,41,38,242,34,194,35,136,40,15,31,059,28,1*5C
$GPGSV,4,3,16,195,29,179,39,10,28,323,36,12,28,131,37,25,18,170,28,1*57
$GPGSV,4,4,16,32,15,280,30,05,10,127,17,28,04,222,,13,02,066,,1*65
$GPGSV,3,1,10,196,76,074,38,23,62,347,32,24,61,034,35,199,60,167,47,8*69
$GPGSV,3,2,10,18,50,226,42,194,35,136,44,195,29,179,40,10,28,323,38,8*60
$GPGSV,3,3,10,25,18,170,30,32,15,280,31,8*6A
$GLGSV,2,1,06,73,53,150,45,80,44,055,28,86,27,285,41,71,27,328,39,1*79
$GLGSV,2,2,06,85,25,233,24,79,01,026,,1*7B
$GAGSV,3,1,09,13,47,220,38,07,46,317,37,08,42,037,25,26,36,295,33,7*74
$GAGSV,3,2,09,30,34,136,41,02,27,074,17,15,13,173,27,27,08,184,,7*7A
$GAGSV,3,3,09,03,06,073,16,7*4C
$GAGSV,2,1,07,13,47,220,39,07,46,317,41,08,42,037,26,26,36,295,31,1*7C
$GAGSV,2,2,07,30,34,136,42,02,27,074,29,15,13,173,23,1*49
$GBGSV,4,1,15,08,85,340,39,38,80,159,44,13,72,321,38,39,68,299,44,1*7B
$GBGSV,4,2,15,16,65,274,45,06,64,269,42,46,62,086,21,19,54,000,31,1*7F
$GBGSV,4,3,15,09,50,249,38,36,47,183,43,20,39,078,30,22,18,310,28,1*73
$GBGSV,4,4,15,35,17,257,36,37,15,041,34,29,11,204,17,1*4E
$GBGSV,3,1,10,38,80,159,44,39,68,299,42,46,62,086,28,19,54,000,31,4*77
$GBGSV,3,2,10,36,47,183,44,20,39,078,23,22,18,310,28,35,17,257,36,4*7D
$GBGSV,3,3,10,37,15,041,27,29,11,204,19,4*77
$GNACCURACY,2.5*11
$PAIRSAT,1,35,1,0,200,2,0,200,3,0,200,4,0,200,5,0,201,6,0,200,7,0,200,8,0,200,9,0,200,10,0,221,11,0,200,12,0,201,13,0,201,14,0,200,15,0,201,16,0,200,17,0,200,18,0,221,19,0,200,20,0,200,21,0,200,23,0,221,24,0,221,25,0,220,26,0,200,27,0,200,28,0,200,29,0,200,30,0,200,31,0,200,32,0,221,194,0,621,195,0,621,196,0,620,199,0,621*6A
$PAIRSAT,2,24,65,0,200,66,0,200,67,0,200,68,0,200,69,0,200,70,0,200,71,0,201,72,0,200,73,0,201,74,0,200,75,0,200,76,0,200,77,0,200,78,0,200,79,0,201,80,0,201,81,0,200,82,0,200,83,0,200,84,0,200,85,0,201,86,0,201,87,0,200,88,0,200*7A
$PAIRSAT,3,23,2,0,1221,3,0,1221,4,0,1200,5,0,200,7,0,1221,8,0,1221,9,0,1200,10,0,1200,11,0,1200,12,0,1200,13,0,1221,15,0,1221,19,0,1200,21,0,1200,24,0,1200,25,0,1200,26,0,1221,27,0,1200,30,0,1221,31,0,1200,33,0,1200,34,0,1200,36,0,1200*6A
$PAIRSAT,4,50,1,0,200,2,0,200,3,0,200,4,0,200,5,0,200,6,0,201,7,0,200,8,0,201,9,0,201,10,0,200,11,0,200,12,0,200,13,0,201,14,0,200,15,0,200,16,0,201,19,0,621,20,0,621,21,0,600,22,0,621,23,0,600,24,0,600,25,0,600,26,0,600,27,0,600,28,0,600,29,0,621,30,0,600,31,0,200,32,0,600,33,0,600,34,0,600,35,0,621,36,0,621,37,0,621,38,0,621,39,0,621,40,0,600,41,0,600,42,0,600,43,0,600,44,0,600,45,0,600,46,0,621,56,0,200,57,0,200,58,0,200,59,0,600,60,0,600,61,0,600*41
$PAIRDGP,10,5,10,12,15,18,23,24,25,28,32*45
$GNGGA,115359.200,2500.8265469,N,12132.4567419,E,4,64,0.45,16.007,M,15.25,M,3,3335*40
$GNRMC,115359.200,A,2500.8265469,N,12132.4567419,E,0.01,266.26,260623,,,R,V*1F
$GPHDT,,T*1B
$GNACCURACY,2.5*11
$GNGGA,115359.300,2500.8265470,N,12132.4567411,E,4,66,0.44,16.030,M,15.25,M,3,3335*46
$GNRMC,115359.300,A,2500.8265470,N,12132.4567411,E,0.01,266.26,260623,,,R,V*1E
$GPHDT,,T*1B
$GNACCURACY,2.5*11
$GNGGA,115359.400,2500.8265479,N,12132.4567440,E,4,66,0.44,15.993,M,15.25,M,2,3335*4E
$GNRMC,115359.400,A,2500.8265479,N,12132.4567440,E,0.01,266.26,260623,,,R,V*14
$GPHDT,,T*1B
$GNACCURACY,2.5*11
$GNGGA,115359.500,2500.8265494,N,12132.4567428,E,4,66,0.44,15.979,M,15.25,M,2,3335*46
$GNRMC,115359.500,A,2500.8265494,N,12132.4567428,E,0.01,266.26,260623,,,R,V*18
$GPHDT,,T*1B
$GNACCURACY,2.5*11
$GNGGA,115359.600,2500.8265473,N,12132.4567430,E,4,66,0.44,16.000,M,15.25,M,2,3335*41
$GNRMC,115359.600,A,2500.8265473,N,12132.4567430,E,0.01,266.26,260623,,,R,V*1B
$GPHDT,,T*1B
$GNACCURACY,2.5*11
$GNGGA,115359.700,2500.8265445,N,12132.4567464,E,4,66,0.44,15.998,M,15.25,M,0,3335*4D
$GNRMC,115359.700,A,2500.8265445,N,12132.4567464,E,0.01,266.26,260623,,,R,V*1E
$GPHDT,,T*1B
$GNACCURACY,2.5*11
$GNGGA,115359.800,2500.8265481,N,12132.4567461,E,4,66,0.44,16.002,M,15.25,M,0,3335*46
$GNRMC,115359.800,A,2500.8265481,N,12132.4567461,E,0.01,266.26,260623,,,R,V*1C
$GPHDT,,T*1B
$GNACCURACY,2.5*11
$GNGGA,115359.900,2500.8265476,N,12132.4567430,E,4,66,0.44,15.974,M,15.25,M,0,3335*40
$GNRMC,115359.900,A,2500.8265476,N,12132.4567430,E,0.01,266.26,260623,,,R,V*11
$GPHDT,,T*1B
$GNACCURACY,2.5*11
$GNGGA,115400.000,2500.8265494,N,12132.4567473,E,4,66,0.44,15.987,M,15.25,M,1,3335*44
$GNRMC,115400.000,A,2500.8265494,N,12132.4567473,E,0.01,266.26,260623,,,R,V*18
$GPHDT,,T*1B
$GNACCURACY,2.5*11
$GNGGA,115400.100,2500.8265499,N,12132.4567464,E,4,66,0.44,15.987,M,15.25,M,1,3335*4E
$GNRMC,115400.100,A,2500.8265499,N,12132.4567464,E,0.01,266.26,260623,,,R,V*12
$GPHDT,,T*1B
$GNGSA,A,3,196,23,24,199,18,194,15,195,10,12,25,32,0.78,0.44,0.65,1*0D
$GNGSA,A,3,05,,,,,,,,,,,,0.78,0.44,0.65,1*08
$GNGSA,A,3,73,80,86,71,85,,,,,,,,0.78,0.44,0.65,2*07
$GNGSA,A,3,13,07,08,26,30,02,15,,,,,,0.78,0.44,0.65,3*03
$GNGSA,A,3,08,38,13,39,16,06,46,19,09,36,20,22,0.78,0.44,0.65,4*06
$GNGSA,A,3,35,37,29,,,,,,,,,,0.78,0.44,0.65,4*01
$GPGSV,4,1,16,196,76,074,35,23,62,347,33,24,60,034,33,199,60,167,36,1*6C
$GPGSV,4,2,16,18,50,226,41,41,38,242,37,194,35,136,40,15,31,059,29,1*5F
$GPGSV,4,3,16,195,29,179,37,10,28,323,37,12,28,131,37,25,18,170,26,1*56
$GPGSV,4,4,16,32,15,280,30,05,10,127,19,28,04,222,,13,02,066,,1*6B
$GPGSV,3,1,10,196,76,074,38,23,62,347,34,24,60,034,35,199,60,167,47,8*6E
$GPGSV,3,2,10,18,50,226,43,194,35,136,44,195,29,179,40,10,28,323,39,8*60
$GPGSV,3,3,10,25,18,170,30,32,15,280,34,8*6F
$GLGSV,2,1,06,73,53,150,45,80,44,055,27,86,27,285,41,71,27,328,39,1*76
$GLGSV,2,2,06,85,25,233,24,79,01,026,,1*7B
$GAGSV,3,1,09,13,47,220,40,07,46,317,38,08,42,037,24,26,36,295,34,7*72
$GAGSV,3,2,09,30,34,136,41,02,27,074,18,15,13,173,26,27,08,184,,7*74
$GAGSV,3,3,09,03,06,073,15,7*4F
$GAGSV,2,1,07,13,47,220,41,07,46,317,40,08,42,037,25,26,36,295,32,1*72
$GAGSV,2,2,07,30,34,136,42,02,27,074,30,15,13,173,24,1*46
$GBGSV,4,1,15,08,85,340,39,38,80,159,44,13,72,321,37,39,68,299,44,1*74
$GBGSV,4,2,15,16,65,274,45,06,64,269,42,46,62,086,21,19,54,000,31,1*7F
$GBGSV,4,3,15,09,50,249,38,36,47,183,44,20,39,078,32,22,18,310,33,1*7C
$GBGSV,4,4,15,35,17,257,28,37,15,041,33,29,11,204,18,1*49
$GBGSV,3,1,10,38,80,159,44,39,68,299,42,46,62,086,26,19,54,000,31,4*79
$GBGSV,3,2,10,36,47,183,43,20,39,078,24,22,18,310,29,35,17,257,34,4*7E
$GBGSV,3,3,10,37,15,041,28,29,11,204,19,4*78
$GNACCURACY,2.5*11
$PAIRSAT,1,35,1,0,200,2,0,200,3,0,200,4,0,200,5,0,201,6,0,200,7,0,200,8,0,200,9,0,200,10,0,221,11,0,200,12,0,201,13,0,201,14,0,200,15,0,201,16,0,200,17,0,200,18,0,221,19,0,200,20,0,200,21,0,200,23,0,221,24,0,221,25,0,220,26,0,200,27,0,200,28,0,200,29,0,200,30,0,200,31,0,200,32,0,221,194,0,621,195,0,621,196,0,620,199,0,621*6A
$PAIRSAT,2,24,65,0,200,66,0,200,67,0,200,68,0,200,69,0,200,70,0,200,71,0,201,72,0,200,73,0,201,74,0,200,75,0,200,76,0,200,77,0,200,78,0,200,79,0,201,80,0,201,81,0,200,82,0,200,83,0,200,84,0,200,85,0,201,86,0,201,87,0,200,88,0,200*7A
$PAIRSAT,3,23,2,0,1221,3,0,1221,4,0,1200,5,0,200,7,0,1221,8,0,1221,9,0,1200,10,0,1200,11,0,1200,12,0,1200,13,0,1221,15,0,1221,19,0,1200,21,0,1200,24,0,1200,25,0,1200,26,0,1221,27,0,1200,30,0,1221,31,0,1200,33,0,1200,34,0,1200,36,0,1200*6A
$PAIRSAT,4,50,1,0,200,2,0,200,3,0,200,4,0,200,5,0,200,6,0,201,7,0,200,8,0,201,9,0,201,10,0,200,11,0,200,12,0,200,13,0,201,14,0,200,15,0,200,16,0,201,19,0,621,20,0,621,21,0,600,22,0,621,23,0,600,24,0,600,25,0,600,26,0,600,27,0,600,28,0,600,29,0,621,30,0,600,31,0,200,32,0,600,33,0,600,34,0,600,35,0,621,36,0,621,37,0,621,38,0,621,39,0,621,40,0,600,41,0,600,42,0,600,43,0,600,44,0,600,45,0,600,46,0,621,56,0,200,57,0,200,58,0,200,59,0,600,60,0,600,61,0,600*41
$PAIRDGP,10,5,10,12,15,18,23,24,25,28,32*45
$GNGGA,115400.200,2500.8265462,N,12132.4567414,E,4,66,0.44,16.009,M,15.25,M,1,3335*42
$GNRMC,115400.200,A,2500.8265462,N,12132.4567414,E,0.01,266.26,260623,,,R,V*12
$GPHDT,182.676,T*39
$GNACCURACY,2.5*11
$GNGGA,115400.300,2500.8265469,N,12132.4567458,E,4,66,0.44,15.994,M,15.25,M,1,3335*4E
$GNRMC,115400.300,A,2500.8265469,N,12132.4567458,E,0.01,266.26,260623,,,R,V*10
$GPHDT,,T*1B
$GNACCURACY,2.5*11
$GNGGA,115400.400,2500.8265456,N,12132.4567435,E,4,66,0.44,15.989,M,15.25,M,1,3335*42
$GNRMC,115400.400,A,2500.8265456,N,12132.4567435,E,0.01,266.26,260623,,,R,V*10
$GPHDT,183.058,T*32
$GNACCURACY,2.5*11
$GNGGA,115400.500,2500.8265481,N,12132.4567443,E,4,64,0.45,15.993,M,15.25,M,1,3335*40
$GNRMC,115400.500,A,2500.8265481,N,12132.4567443,E,0.01,266.26,260623,,,R,V*1A
$GPHDT,,T*1B
$GNACCURACY,2.5*11
$GNGGA,115400.600,2500.8265468,N,12132.4567415,E,4,66,0.44,15.991,M,15.25,M,1,3335*46
$GNRMC,115400.600,A,2500.8265468,N,12132.4567415,E,0.01,266.26,260623,,,R,V*1D
$GPHDT,182.635,T*3E
$GNACCURACY,2.5*11
$GNGGA,115400.700,2500.8265473,N,12132.4567443,E,4,66,0.44,15.993,M,15.25,M,1,3335*4C
$GNRMC,115400.700,A,2500.8265473,N,12132.4567443,E,0.01,266.26,260623,,,R,V*15
$GPHDT,,T*1B
$GNACCURACY,2.5*11
$GNGGA,115400.800,2500.8265485,N,12132.4567454,E,4,66,0.44,16.020,M,15.25,M,1,3335*4E
$GNRMC,115400.800,A,2500.8265485,N,12132.4567454,E,0.01,266.26,260623,,,R,V*15
$GPHDT,183.283,T*36
$GNACCURACY,2.5*11
$GNGGA,115400.900,2500.8265484,N,12132.4567421,E,4,64,0.45,15.977,M,15.25,M,1,3335*47
$GNRMC,115400.900,A,2500.8265484,N,12132.4567421,E,0.01,266.26,260623,,,R,V*17
$GPHDT,,T*1B
$GNACCURACY,2.5*11
$GNGGA,115401.000,2500.8265492,N,12132.4567427,E,4,64,0.45,15.986,M,15.25,M,2,3335*43
$GNRMC,115401.000,A,2500.8265492,N,12132.4567427,E,0.01,266.26,260623,,,R,V*1E
$GPHDT,182.767,T*38
$GNACCURACY,2.5*11
$GNGGA,115401.100,2500.8265493,N,12132.4567448,E,4,66,0.44,16.002,M,15.25,M,2,3335*4F
$GNRMC,115401.100,A,2500.8265493,N,12132.4567448,E,0.01,266.26,260623,,,R,V*17
$GPHDT,,T*1B
$GNGSA,A,3,196,23,24,199,18,194,15,195,10,12,25,32,0.83,0.45,0.69,1*04
$GNGSA,A,3,05,,,,,,,,,,,,0.83,0.45,0.69,1*01
$GNGSA,A,3,73,80,86,71,85,,,,,,,,0.83,0.45,0.69,2*0E
$GNGSA,A,3,13,07,08,26,30,02,15,,,,,,0.83,0.45,0.69,3*0A
$GNGSA,A,3,08,38,13,39,16,06,46,19,09,36,20,22,0.83,0.45,0.69,4*0F
$GNGSA,A,3,35,29,,,,,,,,,,,0.83,0.45,0.69,4*0C
$GPGSV,4,1,16,196,76,074,35,23,62,347,33,24,60,034,33,199,60,167,36,1*6C
$GPGSV,4,2,16,18,50,226,41,41,38,242,37,194,35,136,40,15,31,059,28,1*5E
$GPGSV,4,3,16,195,29,179,37,10,28,323,37,12,28,131,37,25,18,170,26,1*56
$GPGSV,4,4,16,32,15,280,30,05,10,127,21,28,04,222,,13,02,066,,1*60
$GPGSV,3,1,10,196,76,074,38,23,62,347,33,24,60,034,34,199,60,167,47,8*68
$GPGSV,3,2,10,18,50,226,43,194,35,136,44,195,29,179,40,10,28,323,40,8*6E
$GPGSV,3,3,10,25,18,170,30,32,15,280,34,8*6F
$GLGSV,2,1,06,73,53,150,45,80,44,055,26,86,27,285,41,71,27,328,39,1*77
$GLGSV,2,2,06,85,25,233,26,79,01,026,,1*79
$GAGSV,3,1,09,13,47,220,41,07,46,317,38,08,42,037,24,26,36,295,34,7*73
$GAGSV,3,2,09,30,34,136,41,02,27,074,18,15,13,173,26,27,08,184,,7*74
$GAGSV,3,3,09,03,06,073,14,7*4E
$GAGSV,2,1,07,13,47,220,41,07,46,317,39,08,42,037,25,26,36,295,32,1*7C
$GAGSV,2,2,07,30,34,136,41,02,27,074,29,15,13,173,24,1*4D
$GBGSV,4,1,15,08,85,340,39,38,80,159,44,13,72,321,37,39,68,299,44,1*74
$GBGSV,4,2,15,16,65,274,45,06,64,269,42,46,62,086,21,19,54,000,31,1*7F
$GBGSV,4,3,15,09,50,249,38,36,47,183,44,20,39,078,31,22,18,310,32,1*7E
$GBGSV,4,4,15,35,17,257,28,37,15,041,33,29,11,204,19,1*48
$GBGSV,3,1,10,38,80,159,44,39,68,299,42,46,62,086,26,19,54,000,31,4*79
$GBGSV,3,2,10,36,47,183,43,20,39,078,25,22,18,310,29,35,17,257,34,4*7F
$GBGSV,3,3,10,37,15,041,28,29,11,204,20,4*72
$GNACCURACY,2.5*11
$PAIRSAT,1,35,1,0,200,2,0,200,3,0,200,4,0,200,5,0,201,6,0,200,7,0,200,8,0,200,9,0,200,10,0,221,11,0,200,12,0,201,13,0,201,14,0,200,15,0,201,16,0,200,17,0,200,18,0,221,19,0,200,20,0,200,21,0,200,23,0,221,24,0,221,25,0,220,26,0,200,27,0,200,28,0,200,29,0,200,30,0,200,31,0,200,32,0,221,194,0,621,195,0,621,196,0,620,199,0,621*6A
$PAIRSAT,2,24,65,0,200,66,0,200,67,0,200,68,0,200,69,0,200,70,0,200,71,0,201,72,0,200,73,0,201,74,0,200,75,0,200,76,0,200,77,0,200,78,0,200,79,0,201,80,0,201,81,0,200,82,0,200,83,0,200,84,0,200,85,0,201,86,0,201,87,0,200,88,0,200*7A
$PAIRSAT,3,23,2,0,1221,3,0,1221,4,0,1200,5,0,200,7,0,1221,8,0,1221,9,0,1200,10,0,1200,11,0,1200,12,0,1200,13,0,1221,15,0,1221,19,0,1200,21,0,1200,24,0,1200,25,0,1200,26,0,1221,27,0,1200,30,0,1221,31,0,1200,33,0,1200,34,0,1200,36,0,1200*6A
$PAIRSAT,4,50,1,0,200,2,0,200,3,0,200,4,0,200,5,0,200,6,0,201,7,0,200,8,0,201,9,0,201,10,0,200,11,0,200,12,0,200,13,0,201,14,0,200,15,0,200,16,0,201,19,0,621,20,0,621,21,0,600,22,0,621,23,0,600,24,0,600,25,0,600,26,0,600,27,0,600,28,0,600,29,0,621,30,0,600,31,0,200,32,0,600,33,0,600,34,0,600,35,0,621,36,0,621,37,0,621,38,0,621,39,0,621,40,0,600,41,0,600,42,0,600,43,0,600,44,0,600,45,0,600,46,0,621,56,0,200,57,0,200,58,0,200,59,0,600,60,0,600,61,0,600*41
$PAIRDGP,10,5,10,12,15,18,23,24,25,28,32*45
$GNGGA,115401.200,2500.8265498,N,12132.4567441,E,4,64,0.45,16.001,M,15.25,M,2,3335*4E
$GNRMC,115401.200,A,2500.8265498,N,12132.4567441,E,0.01,266.26,260623,,,R,V*16
$GPHDT,183.179,T*30
$GNACCURACY,2.5*11
$GNGGA,115401.300,2500.8265484,N,12132.4567417,E,4,64,0.45,16.001,M,15.25,M,2,3335*41
$GNRMC,115401.300,A,2500.8265484,N,12132.4567417,E,0.01,266.26,260623,,,R,V*19
$GPHDT,,T*1B
$GNACCURACY,2.5*11
$GNGGA,115401.400,2500.8265496,N,12132.4567425,E,4,66,0.44,16.016,M,15.25,M,2,3335*41
$GNRMC,115401.400,A,2500.8265496,N,12132.4567425,E,0.01,266.26,260623,,,R,V*1C
$GPHDT,182.782,T*33
$GNACCURACY,2.5*11
$GNGGA,115401.500,2500.8265487,N,12132.4567435,E,4,64,0.45,16.005,M,15.25,M,2,3335*40
$GNRMC,115401.500,A,2500.8265487,N,12132.4567435,E,0.01,266.26,260623,,,R,V*1C
$GPHDT,,T*1B
$GNACCURACY,2.5*11
$GNGGA,115401.600,2500.8265502,N,12132.4567436,E,4,64,0.45,16.007,M,15.25,M,2,3335*4E
$GNRMC,115401.600,A,2500.8265502,N,12132.4567436,E,0.01,266.26,260623,,,R,V*10
$GPHDT,182.823,T*37
$GNACCURACY,2.5*11
$GNGGA,115401.700,2500.8265522,N,12132.4567423,E,4,66,0.44,15.990,M,15.25,M,2,3335*4E
$GNRMC,115401.700,A,2500.8265522,N,12132.4567423,E,0.01,266.26,260623,,,R,V*17
$GPHDT,,T*1B
$GNACCURACY,2.5*11
$GNGGA,115401.800,2500.8265527,N,12132.4567473,E,4,66,0.44,16.020,M,15.25,M,2,3335*40
$GNRMC,115401.800,A,2500.8265527,N,12132.4567473,E,0.01,266.26,260623,,,R,V*18
$GPHDT,183.429,T*30
$GNACCURACY,2.5*11
$GNGGA,115401.900,2500.8265534,N,12132.4567461,E,4,66,0.44,16.008,M,15.25,M,2,3335*4A
$GNRMC,115401.900,A,2500.8265534,N,12132.4567461,E,0.01,266.26,260623,,,R,V*18
$GPHDT,,T*1B
$GNACCURACY,2.5*11
$GNGGA,115402.000,2500.8265564,N,12132.4567456,E,4,66,0.44,15.980,M,15.25,M,3,3335*4A
$GNRMC,115402.000,A,2500.8265564,N,12132.4567456,E,0.01,266.26,260623,,,R,V*13
$GPHDT,183.376,T*3D
$GNACCURACY,2.5*11
$GNGGA,115402.100,2500.8265562,N,12132.4567456,E,4,64,0.45,16.007,M,15.25,M,3,3335*4B
$GNRMC,115402.100,A,2500.8265562,N,12132.4567456,E,0.01,266.26,260623,,,R,V*14
$GPHDT,,T*1B
$GNGSA,A,3,196,23,24,199,18,194,195,10,12,25,32,,0.82,0.45,0.68,1*00
$GNGSA,A,3,73,80,86,71,85,,,,,,,,0.82,0.45,0.68,2*0E
$GNGSA,A,3,13,07,08,26,30,02,15,,,,,,0.82,0.45,0.68,3*0A
$GNGSA,A,3,08,38,13,39,16,06,46,19,09,36,20,22,0.82,0.45,0.68,4*0F
$GNGSA,A,3,35,37,29,,,,,,,,,,0.82,0.45,0.68,4*08
$GPGSV,4,1,16,196,76,074,34,23,62,347,32,24,60,034,33,199,60,167,36,1*6C
$GPGSV,4,2,16,18,50,226,42,41,38,242,37,194,35,136,41,15,31,059,29,1*5D
$GPGSV,4,3,16,195,29,179,38,10,28,323,39,12,28,131,38,25,18,170,27,1*59
$GPGSV,4,4,16,32,15,280,33,05,10,127,17,28,04,222,,13,02,066,,1*66
$GPGSV,3,1,10,196,76,074,37,23,62,347,34,24,60,034,33,199,60,167,47,8*67
$GPGSV,3,2,10,18,50,226,43,194,35,136,44,195,29,179,39,10,28,323,38,8*6F
$GPGSV,3,3,10,25,18,170,29,32,15,280,32,8*61
$GLGSV,2,1,06,73,53,150,45,80,44,055,25,86,27,285,40,71,27,328,39,1*75
$GLGSV,2,2,06,85,25,233,25,79,01,026,,1*7A
$GAGSV,3,1,09,13,47,220,41,07,46,317,39,08,42,037,25,26,36,295,33,7*74
$GAGSV,3,2,09,30,34,136,41,02,27,074,18,15,13,173,28,27,08,184,,7*7A
$GAGSV,3,3,09,03,06,073,15,7*4F
$GAGSV,2,1,07,13,47,220,41,07,46,317,41,08,42,037,24,26,36,295,34,1*74
$GAGSV,2,2,07,30,34,136,41,02,27,074,29,15,13,173,22,1*4B
$GBGSV,4,1,15,08,85,340,39,38,80,159,44,13,72,321,37,39,68,299,44,1*74
$GBGSV,4,2,15,16,65,274,45,06,64,269,42,46,62,086,20,19,54,000,29,1*77
$GBGSV,4,3,15,09,50,249,38,36,47,183,45,20,39,078,32,22,18,310,32,1*7C
$GBGSV,4,4,15,35,17,257,31,37,15,041,33,29,11,204,18,1*41
$GBGSV,3,1,10,38,80,159,44,39,68,299,41,46,62,086,27,19,54,000,29,4*72
$GBGSV,3,2,10,36,47,183,43,20,39,078,23,22,18,310,32,35,17,257,32,4*75
$GBGSV,3,3,10,37,15,041,29,29,11,204,20,4*73
$GNACCURACY,2.4*10
$PAIRSAT,1,35,1,0,200,2,0,200,3,0,200,4,0,200,5,0,201,6,0,200,7,0,200,8,0,200,9,0,200,10,0,221,11,0,200,12,0,201,13,0,201,14,0,200,15,0,201,16,0,200,17,0,200,18,0,221,19,0,200,20,0,200,21,0,200,23,0,221,24,0,221,25,0,220,26,0,200,27,0,200,28,0,200,29,0,200,30,0,200,31,0,200,32,0,221,194,0,621,195,0,621,196,0,620,199,0,621*6A
$PAIRSAT,2,24,65,0,200,66,0,200,67,0,200,68,0,200,69,0,200,70,0,200,71,0,201,72,0,200,73,0,201,74,0,200,75,0,200,76,0,200,77,0,200,78,0,200,79,0,201,80,0,201,81,0,200,82,0,200,83,0,200,84,0,200,85,0,201,86,0,201,87,0,200,88,0,200*7A
$PAIRSAT,3,23,2,0,1221,3,0,1221,4,0,1200,5,0,200,7,0,1221,8,0,1221,9,0,1200,10,0,1200,11,0,1200,12,0,1200,13,0,1221,15,0,1221,19,0,1200,21,0,1200,24,0,1200,25,0,1200,26,0,1221,27,0,1200,30,0,1221,31,0,1200,33,0,1200,34,0,1200,36,0,1200*6A
$PAIRSAT,4,50,1,0,200,2,0,200,3,0,200,4,0,200,5,0,200,6,0,201,7,0,200,8,0,201,9,0,201,10,0,200,11,0,200,12,0,200,13,0,201,14,0,200,15,0,200,16,0,201,19,0,621,20,0,621,21,0,600,22,0,621,23,0,600,24,0,600,25,0,600,26,0,600,27,0,600,28,0,600,29,0,621,30,0,600,31,0,200,32,0,600,33,0,600,34,0,600,35,0,621,36,0,621,37,0,621,38,0,621,39,0,621,40,0,600,41,0,600,42,0,600,43,0,600,44,0,600,45,0,600,46,0,621,56,0,200,57,0,200,58,0,200,59,0,600,60,0,600,61,0,600*41
$PAIRDGP,10,5,10,12,15,18,23,24,25,28,32*45
$GNGGA,115402.200,2500.8265563,N,12132.4567463,E,4,64,0.45,16.009,M,15.25,M,3,3335*41
$GNRMC,115402.200,A,2500.8265563,N,12132.4567463,E,0.01,266.26,260623,,,R,V*10
$GPHDT,183.245,T*3C
$GNACCURACY,2.4*10
$GNGGA,115402.300,2500.8265543,N,12132.4567462,E,4,64,0.45,16.029,M,15.25,M,3,3335*41
$GNRMC,115402.300,A,2500.8265543,N,12132.4567462,E,0.01,266.26,260623,,,R,V*12
$GPHDT,,T*1B
$GNACCURACY,2.5*11
$GNGGA,115402.400,2500.8265566,N,12132.4567458,E,4,64,0.45,16.009,M,15.25,M,3,3335*4A
$GNRMC,115402.400,A,2500.8265566,N,12132.4567458,E,0.01,266.26,260623,,,R,V*1B
$GPHDT,183.427,T*3E
$GNACCURACY,2.5*11
$GNGGA,115402.500,2500.8265575,N,12132.4567484,E,4,65,0.45,16.006,M,15.25,M,3,3335*46
$GNRMC,115402.500,A,2500.8265575,N,12132.4567484,E,0.01,266.26,260623,,,R,V*19
$GPHDT,,T*1B
$GNACCURACY,2.5*11
$GNGGA,115402.600,2500.8265590,N,12132.4567481,E,4,65,0.45,15.981,M,15.25,M,3,3335*4E
$GNRMC,115402.600,A,2500.8265590,N,12132.4567481,E,0.01,266.26,260623,,,R,V*14
$GPHDT,183.568,T*34
$GNACCURACY,2.5*11
$GNGGA,115402.700,2500.8265569,N,12132.4567494,E,4,65,0.45,16.034,M,15.25,M,3,3335*49
$GNRMC,115402.700,A,2500.8265569,N,12132.4567494,E,0.01,266.26,260623,,,R,V*17
$GPHDT,,T*1B
$GNACCURACY,2.5*11
$GNGGA,115402.800,2500.8265578,N,12132.4567506,E,4,65,0.45,16.019,M,15.25,M,3,3335*43
$GNRMC,115402.800,A,2500.8265578,N,12132.4567506,E,0.01,266.26,260623,,,R,V*12
$GPHDT,183.659,T*35
$GNACCURACY,2.4*10
$GNGGA,115402.900,2500.8265569,N,12132.4567497,E,4,65,0.45,16.016,M,15.25,M,3,3335*44
$GNRMC,115402.900,A,2500.8265569,N,12132.4567497,E,0.01,266.26,260623,,,R,V*1A
$GPHDT,,T*1B
$GNACCURACY,2.4*10
$GNGGA,115403.000,2500.8265541,N,12132.4567450,E,4,65,0.45,16.012,M,15.25,M,4,3335*4E
$GNRMC,115403.000,A,2500.8265541,N,12132.4567450,E,0.01,266.26,260623,,,R,V*13
$GPHDT,183.207,T*3A
$GNACCURACY,2.4*10
$GNGGA,115403.100,2500.8265554,N,12132.4567454,E,4,65,0.45,16.012,M,15.25,M,4,3335*4F
$GNRMC,115403.100,A,2500.8265554,N,12132.4567454,E,0.01,266.26,260623,,,R,V*12
$GPHDT,,T*1B
$GNGSA,A,3,196,23,24,199,18,194,15,195,12,10,25,32,0.81,0.45,0.68,1*07
$GNGSA,A,3,73,80,86,71,85,,,,,,,,0.81,0.45,0.68,2*0D
$GNGSA,A,3,13,07,08,26,30,02,15,,,,,,0.81,0.45,0.68,3*09
$GNGSA,A,3,08,38,13,39,16,06,46,19,09,36,20,22,0.81,0.45,0.68,4*0C
$GNGSA,A,3,35,37,29,,,,,,,,,,0.81,0.45,0.68,4*0B
$GPGSV,4,1,16,196,76,074,35,23,62,347,32,24,60,034,25,199,60,167,37,1*6B
$GPGSV,4,2,16,18,50,226,42,41,38,242,37,194,35,136,41,15,31,059,29,1*5D
$GPGSV,4,3,16,195,29,179,39,12,28,131,38,10,28,323,45,25,18,170,30,1*55
$GPGSV,4,4,16,32,15,280,33,05,10,127,17,28,04,222,,13,02,066,,1*66
$GPGSV,3,1,10,196,76,074,38,23,62,347,32,24,60,034,33,199,60,167,47,8*6E
$GPGSV,3,2,10,18,50,226,45,194,35,136,44,195,29,179,40,10,28,323,42,8*6A
$GPGSV,3,3,10,25,18,170,29,32,15,280,33,8*60
$GLGSV,2,1,07,73,53,150,45,80,44,055,25,86,27,285,40,71,27,328,45,1*7F
$GLGSV,2,2,07,85,25,233,21,87,01,333,,79,01,026,,1*42
$GAGSV,3,1,09,13,47,220,41,07,46,317,44,08,42,037,25,26,36,295,34,7*79
$GAGSV,3,2,09,30,34,136,41,02,27,074,18,15,13,173,28,27,08,184,,7*7A
$GAGSV,3,3,09,03,06,073,13,7*49
$GAGSV,2,1,07,13,47,220,42,07,46,317,46,08,42,037,30,26,36,295,30,1*71
$GAGSV,2,2,07,30,34,136,42,02,27,074,29,15,13,173,20,1*4A
$GBGSV,5,1,17,08,85,340,38,38,80,159,44,13,72,321,33,39,68,299,44,1*72
$GBGSV,5,2,17,16,65,274,45,06,64,269,42,46,62,086,19,19,54,000,24,1*73
$GBGSV,5,3,17,09,50,249,40,36,47,183,45,20,39,078,30,22,18,310,31,1*71
$GBGSV,5,4,17,35,17,257,33,37,15,041,30,29,11,204,18,07,06,190,,1*7A
$GBGSV,5,5,17,10,02,199,,1*42
$GBGSV,3,1,10,38,80,159,44,39,68,299,43,46,62,086,27,19,54,000,28,4*71
$GBGSV,3,2,10,36,47,183,43,20,39,078,23,22,18,310,33,35,17,257,37,4*71
$GBGSV,3,3,10,37,15,041,31,29,11,204,20,4*7A
$GNACCURACY,2.4*10
$PAIRSAT,1,35,1,0,200,2,0,200,3,0,200,4,0,200,5,0,201,6,0,200,7,0,200,8,0,200,9,0,200,10,0,221,11,0,200,12,0,201,13,0,201,14,0,200,15,0,201,16,0,200,17,0,200,18,0,221,19,0,200,20,0,200,21,0,200,23,0,221,24,0,221,25,0,220,26,0,200,27,0,200,28,0,200,29,0,200,30,0,200,31,0,200,32,0,221,194,0,621,195,0,621,196,0,620,199,0,621*6A
$PAIRSAT,2,24,65,0,200,66,0,200,67,0,200,68,0,200,69,0,200,70,0,200,71,0,201,72,0,200,73,0,201,74,0,200,75,0,200,76,0,200,77,0,200,78,0,200,79,0,201,80,0,201,81,0,200,82,0,200,83,0,200,84,0,200,85,0,201,86,0,201,87,0,200,88,0,200*7A
$PAIRSAT,3,23,2,0,1221,3,0,1221,4,0,1200,5,0,200,7,0,1221,8,0,1221,9,0,1200,10,0,1200,11,0,1200,12,0,1200,13,0,1221,15,0,1221,19,0,1200,21,0,1200,24,0,1200,25,0,1200,26,0,1221,27,0,1200,30,0,1221,31,0,1200,33,0,1200,34,0,1200,36,0,1200*6A
$PAIRSAT,4,50,1,0,200,2,0,200,3,0,200,4,0,200,5,0,200,6,0,201,7,0,200,8,0,201,9,0,201,10,0,200,11,0,200,12,0,200,13,0,201,14,0,200,15,0,200,16,0,201,19,0,621,20,0,621,21,0,600,22,0,621,23,0,600,24,0,600,25,0,600,26,0,600,27,0,600,28,0,600,29,0,621,30,0,600,31,0,200,32,0,600,33,0,600,34,0,600,35,0,621,36,0,621,37,0,621,38,0,621,39,0,621,40,0,600,41,0,600,42,0,600,43,0,600,44,0,600,45,0,600,46,0,621,56,0,200,57,0,200,58,0,200,59,0,600,60,0,600,61,0,600*41
$PAIRDGP,10,5,10,12,15,18,23,24,25,28,32*45
$GNGGA,115403.200,2500.8265540,N,12132.4567432,E,4,65,0.45,16.032,M,15.25,M,4,3335*4B
$GNRMC,115403.200,A,2500.8265540,N,12132.4567432,E,0.01,266.26,260623,,,R,V*14
$GPHDT,183.103,T*3D
$GNACCURACY,2.5*11
$GNGGA,115403.300,2500.8265546,N,12132.4567466,E,4,65,0.45,15.991,M,15.25,M,1,3335*4B
$GNRMC,115403.300,A,2500.8265546,N,12132.4567466,E,0.01,266.26,260623,,,R,V*12
$GPHDT,,T*1B
$GNACCURACY,2.5*11
$GNGGA,115403.400,2500.8265565,N,12132.4567501,E,4,63,0.47,16.005,M,15.25,M,1,3335*4E
$GNRMC,115403.400,A,2500.8265565,N,12132.4567501,E,0.01,266.26,260623,,,R,V*14
$GPHDT,183.453,T*3D
$GNACCURACY,2.5*11
$GNGGA,115403.500,2500.8265544,N,12132.4567498,E,4,65,0.45,16.012,M,15.25,M,1,3335*4F
$GNRMC,115403.500,A,2500.8265544,N,12132.4567498,E,0.01,266.26,260623,,,R,V*17
$GPHDT,,T*1B
$GNACCURACY,2.5*11
$GNGGA,115403.600,2500.8265542,N,12132.4567464,E,4,65,0.45,16.020,M,15.25,M,1,3335*48
$GNRMC,115403.600,A,2500.8265542,N,12132.4567464,E,0.01,266.26,260623,,,R,V*11
$GPHDT,183.149,T*33
