$FW : RTK35X,V1.1X0314AS,Lib20210517,1*54
$Tool : LOCOSYS , GNSS Firebird , v1.0.0.19*39
$---------------------------------------------------*2D
41,E,0.02,266.26,260623,,,R,V*1D
$GPHDT,,T*1B
$GNGSA,A,3,196,23,24,199,18,194,15,195,12,10,25,32,0.82,0.45,0.69,1*05
$GNGSA,A,3,73,80,86,71,85,,,,,,,,0.82,0.45,0.69,2*0F
$GNGSA,A,3,13,07,08,26,30,02,15,,,,,,0.82,0.45,0.69,3*0B
$GNGSA,A,3,08,38,13,39,16,06,19,09,36,35,22,37,0.82,0.45,0.69,4*0C
$GNGSA,A,3,29,20,,,,,,,,,,,0.82,0.45,0.69,4*09
$GPGSV,4,1,16,196,76,074,32,23,62,347,35,24,61,034,35,199,60,167,36,1*6A
$GPGSV,4,2,16,18,51,227,46,41,38,242,41,194,35,136,41,15,31,059,32,1*52
$GPGSV,4,3,16,195,29,179,37,12,28,131,42,10,27,323,44,25,18,170,29,1*50
$GPGSV,4,4,16,32,15,279,31,05,11,127,18,28,03,222,,13,02,065,,1*68
$GPGSV,3,1,10,196,76,074,38,23,62,347,22,24,61,034,23,199,60,167,47,8*6F
$GPGSV,3,2,10,18,51,227,46,194,35,136,44,195,29,179,38,10,27,323,41,8*6A
$GPGSV,3,3,10,25,18,170,31,32,15,279,35,8*69
$GLGSV,2,1,08,73,52,151,42,80,45,055,24,86,27,286,33,71,27,327,40,1*7A
$GLGSV,2,2,08,85,25,233,24,69,08,087,18,79,02,026,,87,01,333,,1*7A
$GAGSV,3,1,09,13,47,220,40,07,46,316,44,08,43,036,30,26,36,296,26,7*7D
$GAGSV,3,2,09,30,34,136,40,02,27,074,23,15,14,173,23,27,08,184,,7*7F
$GAGSV,3,3,09,03,06,072,14,7*4F
$GAGSV,2,1,07,13,47,220,44,07,46,316,46,08,43,036,31,26,36,296,36,1*72
$GAGSV,2,2,07,30,34,136,44,02,27,074,18,15,14,173,17,1*4D
$GBGSV,5,1,17,08,85,343,40,38,81,158,43,13,72,321,38,39,68,298,42,1*75
$GBGSV,5,2,17,16,65,273,42,06,64,268,42,46,62,087,16,19,54,359,33,1*75
$GBGSV,5,3,17,09,50,249,41,36,46,183,45,20,40,077,,35,17,258,42,1*73
$GBGSV,5,4,17,22,17,309,31,37,15,042,30,29,12,204,23,44,03,302,,1*77
$GBGSV,5,5,17,10,02,200,,1*41
$GBGSV,2,1,08,38,81,158,43,39,68,298,41,46,62,087,34,19,54,359,38,4*70
$GBGSV,2,2,08,36,46,183,45,20,40,077,18,35,17,258,38,37,15,042,28,4*70
$GNACCURACY,2.3*17
$PAIRSAT,1,35,1,0,200,2,0,200,3,0,200,4,0,200,5,0,201,6,0,200,7,0,200,8,0,200,9,0,200,10,0,221,11,0,200,12,0,201,13,0,201,14,0,200,15,0,201,16,0,200,17,0,200,18,0,221,19,0,200,20,0,200,21,0,200,23,0,221,24,0,221,25,0,220,26,0,200,27,0,200,28,0,200,29,0,200,30,0,200,31,0,200,32,0,221,194,0,621,195,0,621,196,0,620,199,0,621*6A
$PAIRSAT,2,24,65,0,200,66,0,200,67,0,200,68,0,200,69,0,200,70,0,200,71,0,201,72,0,200,73,0,201,74,0,200,75,0,200,76,0,200,77,0,200,78,0,200,79,0,201,80,0,201,81,0,200,82,0,200,83,0,200,84,0,200,85,0,201,86,0,201,87,0,200,88,0,200*7A
$PAIRSAT,3,23,2,0,1221,3,0,1221,4,0,1200,5,0,200,7,0,1221,8,0,1221,9,0,1200,10,0,1200,11,0,1200,12,0,1200,13,0,1221,15,0,1221,19,0,1200,21,0,1200,24,0,1200,25,0,1200,26,0,1221,27,0,1200,30,0,1221,31,0,1200,33,0,1200,34,0,1200,36,0,1200*6A
$PAIRSAT,4,50,1,0,200,2,0,200,3,0,200,4,0,200,5,0,200,6,0,201,7,0,200,8,0,201,9,0,201,10,0,200,11,0,200,12,0,200,13,0,201,14,0,200,15,0,200,16,0,201,19,0,621,20,0,621,21,0,600,22,0,621,23,0,600,24,0,600,25,0,600,26,0,600,27,0,600,28,0,600,29,0,621,30,0,600,31,0,200,32,0,600,33,0,600,34,0,600,35,0,621,36,0,621,37,0,621,38,0,621,39,0,621,40,0,600,41,0,600,42,0,600,43,0,600,44,0,600,45,0,600,46,0,621,56,0,200,57,0,200,58,0,200,59,0,600,60,0,600,61,0,600*41
$PAIRDGP,10,5,10,12,15,18,23,24,25,28,32*45
$GNGGA,115248.200,2500.8265472,N,12132.4567558,E,4,61,0.45,15.980,M,15.25,M,1,3335*4D
$GNRMC,115248.200,A,2500.8265472,N,12132.4567558,E,0.02,266.26,260623,,,R,V*13
$GPHDT,,T*1B
$GNACCURACY,2.3*17
$GNGGA,115248.300,2500.8265455,N,12132.4567536,E,4,61,0.45,15.978,M,15.25,M,1,3335*46
$GNRMC,115248.300,A,2500.8265455,N,12132.4567536,E,0.03,266.26,260623,,,R,V*1E
$GPHDT,,T*1B
$GNACCURACY,2.3*17
$GNGGA,115248.400,2500.8265446,N,12132.4567538,E,4,60,0.45,15.980,M,15.25,M,1,3335*4B
$GNRMC,115248.400,A,2500.8265446,N,12132.4567538,E,0.03,266.26,260623,,,R,V*15
$GPHDT,,T*1B
$GNACCURACY,2.3*17
$GNGGA,115248.500,2500.8265414,N,12132.4567472,E,4,60,0.45,16.003,M,15.25,M,1,3335*43
$GNRMC,115248.500,A,2500.8265414,N,12132.4567472,E,0.03,266.26,260623,,,R,V*1C
$GPHDT,,T*1B
$GNACCURACY,2.3*17
$GNGGA,115248.600,2500.8265437,N,12132.4567536,E,4,60,0.45,15.979,M,15.25,M,0,3335*46
$GNRMC,115248.600,A,2500.8265437,N,12132.4567536,E,0.03,266.26,260623,,,R,V*1F
$GPHDT,,T*1B
$GNACCURACY,2.3*17
$GNGGA,115248.700,2500.8265441,N,12132.4567511,E,4,59,0.45,15.988,M,15.25,M,0,3335*47
$GNRMC,115248.700,A,2500.8265441,N,12132.4567511,E,0.03,266.26,260623,,,R,V*1A
$GPHDT,,T*1B
$GNACCURACY,2.3*17
$GNGGA,115248.800,2500.8265484,N,12132.4567540,E,4,59,0.45,15.959,M,15.25,M,0,3335*49
$GNRMC,115248.800,A,2500.8265484,N,12132.4567540,E,0.03,266.26,260623,,,R,V*18
$GPHDT,,T*1B
$GNACCURACY,2.3*17
$GNGGA,115248.900,2500.8265435,N,12132.4567534,E,4,59,0.45,15.993,M,15.25,M,0,3335*47
$GNRMC,115248.900,A,2500.8265435,N,12132.4567534,E,0.03,266.26,260623,,,R,V*10
$GPHDT,,T*1B
$GNACCURACY,2.3*17
$GNGGA,115249.000,2500.8265474,N,12132.4567529,E,4,59,0.45,15.971,M,15.25,M,1,3335*4B
$GNRMC,115249.000,A,2500.8265474,N,12132.4567529,E,0.03,266.26,260623,,,R,V*11
$GPHDT,,T*1B
$GNACCURACY,2.3*17
$GNGGA,115249.100,2500.8265447,N,12132.4567516,E,4,59,0.45,15.981,M,15.25,M,1,3335*49
$GNRMC,115249.100,A,2500.8265447,N,12132.4567516,E,0.02,266.26,260623,,,R,V*1D
$GPHDT,,T*1B
$GNGSA,A,3,196,23,24,199,18,194,15,195,12,10,25,32,0.83,0.46,0.69,1*07
$GNGSA,A,3,73,80,86,71,85,,,,,,,,0.83,0.46,0.69,2*0D
$GNGSA,A,3,13,07,08,26,30,15,02,,,,,,0.83,0.46,0.69,3*09
$GNGSA,A,3,08,38,13,39,16,06,19,09,36,35,22,37,0.83,0.46,0.69,4*0E
$GNGSA,A,3,29,,,,,,,,,,,,0.83,0.46,0.69,4*09
$GPGSV,4,1,16,196,76,074,31,23,62,347,35,24,61,034,35,199,60,167,36,1*69
$GPGSV,4,2,16,18,51,227,46,41,38,242,41,194,35,136,41,15,31,059,31,1*51
$GPGSV,4,3,16,195,29,179,37,12,28,131,43,10,27,323,44,25,18,170,27,1*5F
$GPGSV,4,4,16,32,15,279,32,05,11,127,19,28,03,222,,13,02,065,,1*6A
$GPGSV,3,1,10,196,76,074,38,23,62,347,22,24,61,034,20,199,60,167,47,8*6C
$GPGSV,3,2,10,18,51,227,46,194,35,136,44,195,29,179,40,10,27,323,41,8*65
$GPGSV,3,3,10,25,18,170,28,32,15,279,34,8*60
$GLGSV,2,1,08,73,52,151,42,80,45,055,27,86,27,286,34,71,27,327,40,1*7E
$GLGSV,2,2,08,85,25,233,23,69,08,087,18,79,02,026,,87,01,333,,1*7D
$GAGSV,3,1,09,13,47,220,40,07,46,316,44,08,43,036,30,26,36,296,26,7*7D
$GAGSV,3,2,09,30,34,136,39,02,27,074,,15,14,173,23,27,08,184,,7*70
$GAGSV,3,3,09,03,06,072,13,7*48
$GAGSV,2,1,06,13,47,220,45,07,46,316,46,08,43,036,32,26,36,296,37,1*70
$GAGSV,2,2,06,30,34,136,44,02,27,074,18,1*7E
$GBGSV,4,1,15,08,85,343,40,38,81,158,43,13,72,321,38,39,68,298,42,1*76
$GBGSV,4,2,15,16,65,273,42,06,64,268,42,46,62,087,16,19,54,000,34,1*7E
$GBGSV,4,3,15,09,50,249,40,36,46,183,45,20,40,077,,35,17,258,42,1*71
$GBGSV,4,4,15,22,17,309,31,37,15,042,31,29,12,204,23,1*47
$GBGSV,2,1,07,38,81,158,43,39,68,298,41,46,62,087,33,19,54,000,38,4*77
$GBGSV,2,2,07,36,46,183,45,35,17,258,38,37,15,042,28,4*40
$GNACCURACY,2.3*17
$PAIRSAT,1,35,1,0,200,2,0,200,3,0,200,4,0,200,5,0,201,6,0,200,7,0,200,8,0,200,9,0,200,10,0,221,11,0,200,12,0,201,13,0,201,14,0,200,15,0,201,16,0,200,17,0,200,18,0,221,19,0,200,20,0,200,21,0,200,23,0,221,24,0,221,25,0,220,26,0,200,27,0,200,28,0,200,29,0,200,30,0,200,31,0,200,32,0,221,194,0,621,195,0,621,196,0,620,199,0,621*6A
$PAIRSAT,2,24,65,0,200,66,0,200,67,0,200,68,0,200,69,0,200,70,0,200,71,0,201,72,0,200,73,0,201,74,0,200,75,0,200,76,0,200,77,0,200,78,0,200,79,0,201,80,0,201,81,0,200,82,0,200,83,0,200,84,0,200,85,0,201,86,0,201,87,0,200,88,0,200*7A
$PAIRSAT,3,23,2,0,1221,3,0,1221,4,0,1200,5,0,200,7,0,1221,8,0,1221,9,0,1200,10,0,1200,11,0,1200,12,0,1200,13,0,1221,15,0,1221,19,0,1200,21,0,1200,24,0,1200,25,0,1200,26,0,1221,27,0,1200,30,0,1221,31,0,1200,33,0,1200,34,0,1200,36,0,1200*6A
$PAIRSAT,4,50,1,0,200,2,0,200,3,0,200,4,0,200,5,0,200,6,0,201,7,0,200,8,0,201,9,0,201,10,0,200,11,0,200,12,0,200,13,0,201,14,0,200,15,0,200,16,0,201,19,0,621,20,0,621,21,0,600,22,0,621,23,0,600,24,0,600,25,0,600,26,0,600,27,0,600,28,0,600,29,0,621,30,0,600,31,0,200,32,0,600,33,0,600,34,0,600,35,0,621,36,0,621,37,0,621,38,0,621,39,0,621,40,0,600,41,0,600,42,0,600,43,0,600,44,0,600,45,0,600,46,0,621,56,0,200,57,0,200,58,0,200,59,0,600,60,0,600,61,0,600*41
$PAIRDGP,10,5,10,12,15,18,23,24,25,28,32*45
$GNGGA,115249.200,2500.8265452,N,12132.4567523,E,4,58,0.46,15.979,M,15.25,M,1,3335*4D
$GNRMC,115249.200,A,2500.8265452,N,12132.4567523,E,0.02,266.26,260623,,,R,V*1C
$GPHDT,,T*1B
$GNACCURACY,2.3*17
$GNGGA,115249.300,2500.8265460,N,12132.4567519,E,4,57,0.47,15.975,M,15.25,M,1,3335*46
$GNRMC,115249.300,A,2500.8265460,N,12132.4567519,E,0.02,266.26,260623,,,R,V*15
$GPHDT,,T*1B
$GNACCURACY,2.3*17
$GNGGA,115249.400,2500.8265421,N,12132.4567497,E,4,57,0.47,15.994,M,15.25,M,1,3335*4C
$GNRMC,115249.400,A,2500.8265421,N,12132.4567497,E,0.02,266.26,260623,,,R,V*10
$GPHDT,,T*1B
$GNACCURACY,2.3*17
$GNGGA,115249.500,2500.8265492,N,12132.4567556,E,4,57,0.47,15.971,M,15.25,M,0,3335*43
$GNRMC,115249.500,A,2500.8265492,N,12132.4567556,E,0.02,266.26,260623,,,R,V*15
$GPHDT,,T*1B
$GNACCURACY,2.3*17
$GNGGA,115249.600,2500.8265448,N,12132.4567539,E,4,57,0.47,15.990,M,15.25,M,0,3335*41
$GNRMC,115249.600,A,2500.8265448,N,12132.4567539,E,0.02,266.26,260623,,,R,V*18
$GPHDT,,T*1B
$GNACCURACY,2.3*17
$GNGGA,115249.700,2500.8265474,N,12132.4567528,E,4,58,0.46,15.977,M,15.25,M,0,3335*48
$GNRMC,115249.700,A,2500.8265474,N,12132.4567528,E,0.02,266.26,260623,,,R,V*16
$GPHDT,,T*1B
$GNACCURACY,2.3*17
$GNGGA,115249.800,2500.8265483,N,12132.4567542,E,4,58,0.46,15.976,M,15.25,M,0,3335*42
$GNRMC,115249.800,A,2500.8265483,N,12132.4567542,E,0.02,266.26,260623,,,R,V*1D
$GPHDT,,T*1B
$GNACCURACY,2.3*17
$GNGGA,115249.900,2500.8265420,N,12132.4567504,E,4,58,0.46,16.008,M,15.25,M,0,3335*4B
$GNRMC,115249.900,A,2500.8265420,N,12132.4567504,E,0.02,266.26,260623,,,R,V*17
$GPHDT,,T*1B
$GNACCURACY,2.3*17
$GNGGA,115250.000,2500.8265418,N,12132.4567523,E,4,59,0.45,15.999,M,15.25,M,1,3335*45
$GNRMC,115250.000,A,2500.8265418,N,12132.4567523,E,0.02,266.26,260623,,,R,V*18
$GPHDT,,T*1B
$GNACCURACY,2.3*17
$GNGGA,115250.100,2500.8265465,N,12132.4567527,E,4,59,0.45,15.980,M,15.25,M,1,3335*42
$GNRMC,115250.100,A,2500.8265465,N,12132.4567527,E,0.02,266.26,260623,,,R,V*17
$GPHDT,,T*1B
$GNGSA,A,3,196,23,24,199,18,194,195,12,10,25,32,,0.83,0.46,0.69,1*03
$GNGSA,A,3,73,80,71,86,85,,,,,,,,0.83,0.46,0.69,2*0D
$GNGSA,A,3,13,07,08,26,30,15,02,,,,,,0.83,0.46,0.69,3*09
$GNGSA,A,3,08,38,13,39,16,06,19,09,36,22,35,37,0.83,0.46,0.69,4*0E
$GNGSA,A,3,29,20,,,,,,,,,,,0.83,0.46,0.69,4*0B
$GPGSV,4,1,16,196,76,074,31,23,62,347,35,24,61,034,35,199,60,167,36,1*69
$GPGSV,4,2,16,18,51,227,46,41,38,242,39,194,35,136,41,15,31,059,30,1*5F
$GPGSV,4,3,16,195,29,179,37,12,28,131,43,10,27,323,44,25,18,170,27,1*5F
$GPGSV,4,4,16,32,15,279,33,05,11,127,17,28,03,222,,13,02,065,,1*65
$GPGSV,3,1,10,196,76,074,38,23,62,347,21,24,61,034,21,199,60,167,47,8*6E
$GPGSV,3,2,10,18,51,227,46,194,35,136,43,195,29,179,40,10,27,323,41,8*62
$GPGSV,3,3,10,25,18,170,29,32,15,279,34,8*61
$GLGSV,2,1,07,73,52,151,42,80,45,055,28,71,27,327,40,86,27,286,34,1*7E
$GLGSV,2,2,07,85,25,233,23,69,08,087,19,79,02,026,,1*4E
$GAGSV,2,1,08,13,47,220,40,07,46,316,44,08,43,036,30,26,36,296,27,7*7C
$GAGSV,2,2,08,30,34,136,39,02,27,074,,15,14,173,23,03,06,072,12,7*73
$GAGSV,2,1,06,13,47,220,45,07,46,316,46,08,43,036,31,26,36,296,37,1*73
$GAGSV,2,2,06,30,34,136,44,02,27,074,19,1*7F
$GBGSV,4,1,15,08,85,343,40,38,81,158,43,13,72,321,38,39,68,298,42,1*76
$GBGSV,4,2,15,16,65,273,42,06,64,268,42,46,62,087,17,19,54,000,34,1*7F
$GBGSV,4,3,15,09,50,249,40,36,46,183,45,20,40,077,,22,17,309,32,1*75
$GBGSV,4,4,15,35,17,258,42,37,15,042,31,29,12,204,23,1*40
$GBGSV,2,1,08,38,81,158,43,39,68,298,41,46,62,087,33,19,54,000,38,4*78
$GBGSV,2,2,08,36,46,183,45,20,40,077,26,35,17,258,38,37,15,042,27,4*72
$GNACCURACY,2.3*17
$PAIRSAT,1,35,1,0,200,2,0,200,3,0,200,4,0,200,5,0,201,6,0,200,7,0,200,8,0,200,9,0,200,10,0,221,11,0,200,12,0,201,13,0,201,14,0,200,15,0,201,16,0,200,17,0,200,18,0,221,19,0,200,20,0,200,21,0,200,23,0,221,24,0,221,25,0,220,26,0,200,27,0,200,28,0,200,29,0,200,30,0,200,31,0,200,32,0,221,194,0,621,195,0,621,196,0,620,199,0,621*6A
$PAIRSAT,2,24,65,0,200,66,0,200,67,0,200,68,0,200,69,0,200,70,0,200,71,0,201,72,0,200,73,0,201,74,0,200,75,0,200,76,0,200,77,0,200,78,0,200,79,0,201,80,0,201,81,0,200,82,0,200,83,0,200,84,0,200,85,0,201,86,0,201,87,0,200,88,0,200*7A
$PAIRSAT,3,23,2,0,1221,3,0,1221,4,0,1200,5,0,200,7,0,1221,8,0,1221,9,0,1200,10,0,1200,11,0,1200,12,0,1200,13,0,1221,15,0,1221,19,0,1200,21,0,1200,24,0,1200,25,0,1200,26,0,1221,27,0,1200,30,0,1221,31,0,1200,33,0,1200,34,0,1200,36,0,1200*6A
$PAIRSAT,4,50,1,0,200,2,0,200,3,0,200,4,0,200,5,0,200,6,0,201,7,0,200,8,0,201,9,0,201,10,0,200,11,0,200,12,0,200,13,0,201,14,0,200,15,0,200,16,0,201,19,0,621,20,0,621,21,0,600,22,0,621,23,0,600,24,0,600,25,0,600,26,0,600,27,0,600,28,0,600,29,0,621,30,0,600,31,0,200,32,0,600,33,0,600,34,0,600,35,0,621,36,0,621,37,0,621,38,0,621,39,0,621,40,0,600,41,0,600,42,0,600,43,0,600,44,0,600,45,0,600,46,0,621,56,0,200,57,0,200,58,0,200,59,0,600,60,0,600,61,0,600*41
$PAIRDGP,10,5,10,12,15,18,23,24,25,28,32*45
$GNGGA,115250.200,2500.8265431,N,12132.4567528,E,4,58,0.46,15.993,M,15.25,M,1,3335*4F
$GNRMC,115250.200,A,2500.8265431,N,12132.4567528,E,0.02,266.26,260623,,,R,V*1A
$GPHDT,,T*1B
$GNACCURACY,2.3*17
$GNGGA,115250.300,2500.8265447,N,12132.4567520,E,4,59,0.45,15.988,M,15.25,M,1,3335*4F
$GNRMC,115250.300,A,2500.8265447,N,12132.4567520,E,0.02,266.26,260623,,,R,V*12
$GPHDT,,T*1B
$GNACCURACY,2.3*17
$GNGGA,115250.400,2500.8265461,N,12132.4567518,E,4,58,0.46,15.981,M,15.25,M,1,3335*4C
$GNRMC,115250.400,A,2500.8265461,N,12132.4567518,E,0.02,266.26,260623,,,R,V*1A
$GPHDT,,T*1B
$GNACCURACY,2.3*17
$GNGGA,115250.500,2500.8265449,N,12132.4567519,E,4,59,0.45,15.973,M,15.25,M,0,3335*48
$GNRMC,115250.500,A,2500.8265449,N,12132.4567519,E,0.02,266.26,260623,,,R,V*10
$GPHDT,,T*1B
$GNACCURACY,2.3*17
$GNGGA,115250.600,2500.8265461,N,12132.4567543,E,4,59,0.45,15.970,M,15.25,M,0,3335*4D
$GNRMC,115250.600,A,2500.8265461,N,12132.4567543,E,0.02,266.26,260623,,,R,V*16
$GPHDT,,T*1B
$GNACCURACY,2.3*17
$GNGGA,115250.700,2500.8265466,N,12132.4567533,E,4,59,0.45,15.964,M,15.25,M,0,3335*49
$GNRMC,115250.700,A,2500.8265466,N,12132.4567533,E,0.02,266.26,260623,,,R,V*17
$GPHDT,,T*1B
$GNACCURACY,2.3*17
$GNGGA,115250.800,2500.8265461,N,12132.4567537,E,4,60,0.45,15.975,M,15.25,M,0,3335*4F
$GNRMC,115250.800,A,2500.8265461,N,12132.4567537,E,0.02,266.26,260623,,,R,V*1B
$GPHDT,,T*1B
$GNACCURACY,2.3*17
$GNGGA,115250.900,2500.8265474,N,12132.4567534,E,4,60,0.45,15.982,M,15.25,M,0,3335*41
$GNRMC,115250.900,A,2500.8265474,N,12132.4567534,E,0.02,266.26,260623,,,R,V*1D
$GPHDT,,T*1B
$GNACCURACY,2.3*17
$GNGGA,115251.000,2500.8265477,N,12132.4567528,E,4,60,0.45,15.968,M,15.25,M,1,3335*42
$GNRMC,115251.000,A,2500.8265477,N,12132.4567528,E,0.02,266.26,260623,,,R,V*1B
$GPHDT,,T*1B
$GNACCURACY,2.3*17
$GNGGA,115251.100,2500.8265471,N,12132.4567534,E,4,60,0.45,15.968,M,15.25,M,1,3335*48
$GNRMC,115251.100,A,2500.8265471,N,12132.4567534,E,0.02,266.26,260623,,,R,V*11
$GPHDT,,T*1B
$GNGSA,A,3,196,23,24,199,18,194,195,12,10,25,32,,0.83,0.46,0.69,1*03
$GNGSA,A,3,73,80,71,86,85,,,,,,,,0.83,0.46,0.69,2*0D
$GNGSA,A,3,13,07,08,26,30,02,15,,,,,,0.83,0.46,0.69,3*09
$GNGSA,A,3,08,38,13,39,16,06,19,09,36,35,22,37,0.83,0.46,0.69,4*0E
$GNGSA,A,3,29,20,,,,,,,,,,,0.83,0.46,0.69,4*0B
$GPGSV,4,1,16,196,76,074,31,23,62,347,35,24,61,034,35,199,60,167,36,1*69
$GPGSV,4,2,16,18,51,227,46,41,38,242,39,194,35,136,41,15,31,059,31,1*5E
$GPGSV,4,3,16,195,29,179,37,12,28,131,43,10,27,323,44,25,18,170,27,1*5F
$GPGSV,4,4,16,32,15,279,33,05,11,127,17,28,03,222,,13,02,065,,1*65
$GPGSV,3,1,10,196,76,074,38,23,62,347,19,24,61,034,20,199,60,167,47,8*64
$GPGSV,3,2,10,18,51,227,46,194,35,136,43,195,29,179,40,10,27,323,41,8*62
$GPGSV,3,3,10,25,18,170,28,32,15,279,34,8*60
$GLGSV,3,1,09,73,52,151,42,80,45,055,28,71,27,327,40,86,27,286,34,1*71
$GLGSV,3,2,09,85,25,233,23,74,15,185,,69,08,087,18,79,02,026,,1*7B
$GLGSV,3,3,09,87,01,333,,1*4C
$GAGSV,3,1,09,13,47,220,40,07,46,316,44,08,43,036,30,26,36,296,28,7*73
$GAGSV,3,2,09,30,34,136,39,02,27,074,26,15,14,173,23,27,08,184,,7*74
$GAGSV,3,3,09,03,06,072,13,7*48
$GAGSV,2,1,06,13,47,220,45,07,46,316,46,08,43,036,31,26,36,296,37,1*73
$GAGSV,2,2,06,30,34,136,44,02,27,074,21,1*74
$GBGSV,4,1,15,08,85,343,40,38,81,158,43,13,72,321,38,39,68,298,42,1*76
$GBGSV,4,2,15,16,65,273,42,06,64,268,42,46,62,087,18,19,54,000,34,1*70
$GBGSV,4,3,15,09,50,249,40,36,46,183,45,20,40,077,,35,17,258,42,1*71
$GBGSV,4,4,15,22,17,309,31,37,15,042,31,29,12,204,23,1*47
$GBGSV,2,1,08,38,81,158,43,39,68,298,41,46,62,087,34,19,54,000,38,4*7F
$GBGSV,2,2,08,36,46,183,45,20,40,077,26,35,17,258,38,37,15,042,29,4*7C
$GNACCURACY,2.3*17
$PAIRSAT,1,35,1,0,200,2,0,200,3,0,200,4,0,200,5,0,201,6,0,200,7,0,200,8,0,200,9,0,200,10,0,221,11,0,200,12,0,201,13,0,201,14,0,200,15,0,201,16,0,200,17,0,200,18,0,221,19,0,200,20,0,200,21,0,200,23,0,221,24,0,221,25,0,220,26,0,200,27,0,200,28,0,200,29,0,200,30,0,200,31,0,200,32,0,221,194,0,621,195,0,621,196,0,620,199,0,621*6A
$PAIRSAT,2,24,65,0,200,66,0,200,67,0,200,68,0,200,69,0,200,70,0,200,71,0,201,72,0,200,73,0,201,74,0,200,75,0,200,76,0,200,77,0,200,78,0,200,79,0,201,80,0,201,81,0,200,82,0,200,83,0,200,84,0,200,85,0,201,86,0,201,87,0,200,88,0,200*7A
$PAIRSAT,3,23,2,0,1221,3,0,1221,4,0,1200,5,0,200,7,0,1221,8,0,1221,9,0,1200,10,0,1200,11,0,1200,12,0,1200,13,0,1221,15,0,1221,19,0,1200,21,0,1200,24,0,1200,25,0,1200,26,0,1221,27,0,1200,30,0,1221,31,0,1200,33,0,1200,34,0,1200,36,0,1200*6A
$PAIRSAT,4,50,1,0,200,2,0,200,3,0,200,4,0,200,5,0,200,6,0,201,7,0,200,8,0,201,9,0,201,10,0,200,11,0,200,12,0,200,13,0,201,14,0,200,15,0,200,16,0,201,19,0,621,20,0,621,21,0,600,22,0,621,23,0,600,24,0,600,25,0,600,26,0,600,27,0,600,28,0,600,29,0,621,30,0,600,31,0,200,32,0,600,33,0,600,34,0,600,35,0,621,36,0,621,37,0,621,38,0,621,39,0,621,40,0,600,41,0,600,42,0,600,43,0,600,44,0,600,45,0,600,46,0,621,56,0,200,57,0,200,58,0,200,59,0,600,60,0,600,61,0,600*41
$PAIRDGP,10,5,10,12,15,18,23,24,25,28,32*45
$GNGGA,115251.200,2500.8265469,N,12132.4567540,E,4,59,0.46,15.980,M,15.25,M,1,3335*4E
$GNRMC,115251.200,A,2500.8265469,N,12132.4567540,E,0.02,266.26,260623,,,R,V*18
$GPHDT,3.376,T*34
$GNACCURACY,2.3*17
$GNGGA,115251.300,2500.8265458,N,12132.4567521,E,4,58,0.46,15.971,M,15.25,M,1,3335*45
$GNRMC,115251.300,A,2500.8265458,N,12132.4567521,E,0.02,266.26,260623,,,R,V*1C
$GPHDT,,T*1B
$GNACCURACY,2.3*17
$GNGGA,115251.400,2500.8265447,N,12132.4567523,E,4,58,0.46,15.983,M,15.25,M,1,3335*43
$GNRMC,115251.400,A,2500.8265447,N,12132.4567523,E,0.02,266.26,260623,,,R,V*17
$GPHDT,3.810,T*3F
$GNACCURACY,2.3*17
$GNGGA,115251.500,2500.8265468,N,12132.4567543,E,4,58,0.46,15.980,M,15.25,M,1,3335*4A
$GNRMC,115251.500,A,2500.8265468,N,12132.4567543,E,0.02,266.26,260623,,,R,V*1D
$GPHDT,,T*1B
$GNACCURACY,2.3*17
$GNGGA,115251.600,2500.8265450,N,12132.4567498,E,4,59,0.45,15.979,M,15.25,M,1,3335*41
$GNRMC,115251.600,A,2500.8265450,N,12132.4567498,E,0.02,266.26,260623,,,R,V*12
$GPHDT,4.632,T*36
$GNACCURACY,2.3*17
$GNGGA,115251.700,2500.8265426,N,12132.4567512,E,4,60,0.45,16.007,M,15.25,M,0,3335*4A
$GNRMC,115251.700,A,2500.8265426,N,12132.4567512,E,0.02,266.26,260623,,,R,V*11
$GPHDT,,T*1B
$GNACCURACY,2.3*17
$GNGGA,115251.800,2500.8265426,N,12132.4567526,E,4,60,0.45,15.993,M,15.25,M,0,3335*45
$GNRMC,115251.800,A,2500.8265426,N,12132.4567526,E,0.02,266.26,260623,,,R,V*19
$GPHDT,3.387,T*3A
$GNACCURACY,2.3*17
$GNGGA,115251.900,2500.8265452,N,12132.4567498,E,4,60,0.45,15.978,M,15.25,M,0,3335*46
$GNRMC,115251.900,A,2500.8265452,N,12132.4567498,E,0.01,266.26,260623,,,R,V*1C
$GPHDT,,T*1B
$GNACCURACY,2.3*17
$GNGGA,115252.000,2500.8265405,N,12132.4567495,E,4,60,0.45,15.994,M,15.25,M,1,3335*40
$GNRMC,115252.000,A,2500.8265405,N,12132.4567495,E,0.02,266.26,260623,,,R,V*1A
$GPHDT,4.320,T*30
$GNACCURACY,2.3*17
$GNGGA,115252.100,2500.8265468,N,12132.4567544,E,4,60,0.45,15.975,M,15.25,M,1,3335*48
$GNRMC,115252.100,A,2500.8265468,N,12132.4567544,E,0.01,266.26,260623,,,R,V*1E
$GPHDT,,T*1B
$GNGSA,A,3,196,23,24,199,18,194,15,195,12,10,25,32,0.82,0.45,0.69,1*05
$GNGSA,A,3,73,80,71,86,85,,,,,,,,0.82,0.45,0.69,2*0F
$GNGSA,A,3,13,07,08,26,30,02,15,,,,,,0.82,0.45,0.69,3*0B
$GNGSA,A,3,08,38,13,39,16,06,19,09,36,35,22,37,0.82,0.45,0.69,4*0C
$GNGSA,A,3,29,20,,,,,,,,,,,0.82,0.45,0.69,4*09
$GPGSV,4,1,16,196,76,074,31,23,62,347,35,24,61,034,36,199,60,167,36,1*6A
$GPGSV,4,2,16,18,51,227,46,41,38,242,39,194,35,136,41,15,31,059,31,1*5E
$GPGSV,4,3,16,195,29,179,38,12,28,131,43,10,27,323,44,25,18,170,28,1*5F
$GPGSV,4,4,16,32,15,279,33,05,11,127,17,28,03,222,,13,02,065,,1*65
$GPGSV,3,1,10,196,76,074,39,23,62,347,18,24,61,034,20,199,60,167,47,8*64
$GPGSV,3,2,10,18,51,227,46,194,35,136,43,195,29,179,40,10,27,323,42,8*61
$GPGSV,3,3,10,25,18,170,29,32,15,279,35,8*60
$GLGSV,3,1,09,73,52,151,42,80,45,055,27,71,27,327,40,86,27,286,33,1*79
$GLGSV,3,2,09,85,25,233,23,74,15,185,,69,08,087,18,79,02,026,,1*7B
$GLGSV,3,3,09,87,01,333,,1*4C
$GAGSV,3,1,09,13,47,220,40,07,46,316,44,08,43,036,30,26,36,296,26,7*7D
$GAGSV,3,2,09,30,34,136,39,02,27,074,25,15,14,173,24,27,08,184,,7*70
$GAGSV,3,3,09,03,06,072,13,7*48
$GAGSV,2,1,06,13,47,220,45,07,46,316,46,08,43,036,31,26,36,296,36,1*72
$GAGSV,2,2,06,30,34,136,44,02,27,074,20,1*75
$GBGSV,4,1,15,08,85,343,40,38,81,158,43,13,72,321,38,39,68,298,42,1*76
$GBGSV,4,2,15,16,65,273,42,06,64,268,42,46,62,087,17,19,54,000,33,1*78
$GBGSV,4,3,15,09,50,249,40,36,46,183,45,20,40,077,,35,17,258,42,1*71
$GBGSV,4,4,15,22,17,309,31,37,15,042,31,29,12,204,23,1*47
$GBGSV,2,1,08,38,81,158,42,39,68,298,41,46,62,087,32,19,54,000,38,4*78
$GBGSV,2,2,08,36,46,183,45,20,40,077,28,35,17,258,39,37,15,042,29,4*73
$GNACCURACY,2.3*17
$PAIRSAT,1,35,1,0,200,2,0,200,3,0,200,4,0,200,5,0,201,6,0,200,7,0,200,8,0,200,9,0,200,10,0,221,11,0,200,12,0,201,13,0,201,14,0,200,15,0,201,16,0,200,17,0,200,18,0,221,19,0,200,20,0,200,21,0,200,23,0,221,24,0,221,25,0,220,26,0,200,27,0,200,28,0,200,29,0,200,30,0,200,31,0,200,32,0,221,194,0,621,195,0,621,196,0,620,199,0,621*6A
$PAIRSAT,2,24,65,0,200,66,0,200,67,0,200,68,0,200,69,0,200,70,0,200,71,0,201,72,0,200,73,0,201,74,0,200,75,0,200,76,0,200,77,0,200,78,0,200,79,0,201,80,0,201,81,0,200,82,0,200,83,0,200,84,0,200,85,0,201,86,0,201,87,0,200,88,0,200*7A
$PAIRSAT,3,23,2,0,1221,3,0,1221,4,0,1200,5,0,200,7,0,1221,8,0,1221,9,0,1200,10,0,1200,11,0,1200,12,0,1200,13,0,1221,15,0,1221,19,0,1200,21,0,1200,24,0,1200,25,0,1200,26,0,1221,27,0,1200,30,0,1221,31,0,1200,33,0,1200,34,0,1200,36,0,1200*6A
$PAIRSAT,4,50,1,0,200,2,0,200,3,0,200,4,0,200,5,0,200,6,0,201,7,0,200,8,0,201,9,0,201,10,0,200,11,0,200,12,0,200,13,0,201,14,0,200,15,0,200,16,0,201,19,0,621,20,0,621,21,0,600,22,0,621,23,0,600,24,0,600,25,0,600,26,0,600,27,0,600,28,0,600,29,0,621,30,0,600,31,0,200,32,0,600,33,0,600,34,0,600,35,0,621,36,0,621,37,0,621,38,0,621,39,0,621,40,0,600,41,0,600,42,0,600,43,0,600,44,0,600,45,0,600,46,0,621,56,0,200,57,0,200,58,0,200,59,0,600,60,0,600,61,0,600*41
$PAIRDGP,10,5,10,12,15,18,23,24,25,28,32*45
$GNGGA,115252.200,2500.8265431,N,12132.4567529,E,4,60,0.45,15.995,M,15.25,M,1,3335*42
$GNRMC,115252.200,A,2500.8265431,N,12132.4567529,E,0.01,266.26,260623,,,R,V*1A
$GPHDT,3.596,T*3C
$GNACCURACY,2.3*17
$GNGGA,115252.300,2500.8265444,N,12132.4567520,E,4,60,0.45,15.982,M,15.25,M,1,3335*4E
$GNRMC,115252.300,A,2500.8265444,N,12132.4567520,E,0.01,266.26,260623,,,R,V*10
$GPHDT,,T*1B
$GNACCURACY,2.3*17
$GNGGA,115252.400,2500.8265420,N,12132.4567484,E,4,60,0.45,15.991,M,15.25,M,1,3335*46
$GNRMC,115252.400,A,2500.8265420,N,12132.4567484,E,0.01,266.26,260623,,,R,V*1A
$GPHDT,4.064,T*33
$GNACCURACY,2.3*17
$GNGGA,115252.500,2500.8265463,N,12132.4567530,E,4,60,0.45,15.968,M,15.25,M,0,3335*49
$GNRMC,115252.500,A,2500.8265463,N,12132.4567530,E,0.01,266.26,260623,,,R,V*12
$GPHDT,,T*1B
$GNACCURACY,2.3*17
$GNGGA,115252.600,2500.8265451,N,12132.4567526,E,4,61,0.45,15.974,M,15.25,M,0,3335*40
$GNRMC,115252.600,A,2500.8265451,N,12132.4567526,E,0.01,266.26,260623,,,R,V*17
$GPHDT,3.982,T*35
$GNACCURACY,2.3*17
$GNGGA,115252.700,2500.8265463,N,12132.4567545,E,4,60,0.45,15.968,M,15.25,M,0,3335*49
$GNRMC,115252.700,A,2500.8265463,N,12132.4567545,E,0.01,266.26,260623,,,R,V*12
$GPHDT,,T*1B
$GNACCURACY,2.3*17
$GNGGA,115252.800,2500.8265435,N,12132.4567536,E,4,59,0.46,15.980,M,15.25,M,0,3335*4E
$GNRMC,115252.800,A,2500.8265435,N,12132.4567536,E,0.01,266.26,260623,,,R,V*1A
$GPHDT,6.378,T*3F
$GNACCURACY,2.3*17
$GNGGA,115252.900,2500.8265450,N,12132.4567540,E,4,59,0.46,15.978,M,15.25,M,0,3335*4A
$GNRMC,115252.900,A,2500.8265450,N,12132.4567540,E,0.01,266.26,260623,,,R,V*19
$GPHDT,,T*1B
$GNACCURACY,2.3*17
$GNGGA,115253.000,2500.8265456,N,12132.4567539,E,4,59,0.46,15.969,M,15.25,M,1,3335*4B
$GNRMC,115253.000,A,2500.8265456,N,12132.4567539,E,0.01,266.26,260623,,,R,V*19
$GPHDT,6.354,T*31
$GNACCURACY,2.3*17
$GNGGA,115253.100,2500.8265505,N,12132.4567590,E,4,60,0.45,15.952,M,15.25,M,1,3335*4F
$GNRMC,115253.100,A,2500.8265505,N,12132.4567590,E,0.01,266.26,260623,,,R,V*1C
$GPHDT,,T*1B
$GNGSA,A,3,196,23,24,199,18,194,15,195,12,10,25,32,0.82,0.45,0.69,1*05
$GNGSA,A,3,73,80,86,71,85,,,,,,,,0.82,0.45,0.69,2*0F
$GNGSA,A,3,13,07,08,26,30,02,15,,,,,,0.82,0.45,0.69,3*0B
$GNGSA,A,3,08,38,13,39,16,06,19,09,36,22,35,37,0.82,0.45,0.69,4*0C
$GNGSA,A,3,29,20,,,,,,,,,,,0.82,0.45,0.69,4*09
$GPGSV,4,1,16,196,76,074,32,23,62,347,35,24,61,034,36,199,60,167,36,1*69
$GPGSV,4,2,16,18,51,227,46,41,38,242,40,194,35,136,41,15,31,059,31,1*50
$GPGSV,4,3,16,195,29,179,39,12,28,131,43,10,27,323,43,25,18,170,28,1*59
$GPGSV,4,4,16,32,15,279,34,05,11,127,16,28,03,222,,13,02,065,,1*63
$GPGSV,3,1,10,196,76,074,39,23,62,347,17,24,61,034,24,199,60,167,48,8*60
$GPGSV,3,2,10,18,51,227,46,194,35,136,43,195,29,179,40,10,27,323,42,8*61
$GPGSV,3,3,10,25,18,170,26,32,15,279,36,8*6C
$GLGSV,2,1,07,73,52,151,44,80,45,055,28,86,27,286,32,71,27,327,40,1*7E
$GLGSV,2,2,07,85,25,233,27,69,08,087,17,79,02,026,,1*44
$GAGSV,3,1,09,13,47,220,40,07,46,316,44,08,43,036,30,26,36,296,28,7*73
$GAGSV,3,2,09,30,34,136,39,02,27,074,23,15,14,173,23,27,08,184,,7*71
$GAGSV,3,3,09,03,06,072,13,7*48
$GAGSV,2,1,06,13,47,220,44,07,46,316,46,08,43,036,30,26,36,296,36,1*72
$GAGSV,2,2,06,30,34,136,44,02,27,074,20,1*75
$GBGSV,4,1,15,08,85,343,41,38,81,158,44,13,72,321,38,39,68,298,42,1*70
$GBGSV,4,2,15,16,65,273,42,06,64,268,42,46,62,087,17,19,54,000,33,1*78
$GBGSV,4,3,15,09,50,249,40,36,46,183,45,20,40,077,,22,17,309,31,1*76
$GBGSV,4,4,15,35,17,258,42,37,15,042,30,29,12,204,23,1*41
$GBGSV,2,1,08,38,81,158,43,39,68,298,41,46,62,087,33,19,54,000,38,4*78
$GBGSV,2,2,08,36,46,183,46,20,40,077,20,35,17,258,39,37,15,042,30,4*70
$GNACCURACY,2.3*17
$PAIRSAT,1,35,1,0,200,2,0,200,3,0,200,4,0,200,5,0,201,6,0,200,7,0,200,8,0,200,9,0,200,10,0,221,11,0,200,12,0,201,13,0,201,14,0,200,15,0,201,16,0,200,17,0,200,18,0,221,19,0,200,20,0,200,21,0,200,23,0,221,24,0,221,25,0,220,26,0,200,27,0,200,28,0,200,29,0,200,30,0,200,31,0,200,32,0,221,194,0,621,195,0,621,196,0,620,199,0,621*6A
$PAIRSAT,2,24,65,0,200,66,0,200,67,0,200,68,0,200,69,0,200,70,0,200,71,0,201,72,0,200,73,0,201,74,0,200,75,0,200,76,0,200,77,0,200,78,0,200,79,0,201,80,0,201,81,0,200,82,0,200,83,0,200,84,0,200,85,0,201,86,0,201,87,0,200,88,0,200*7A
$PAIRSAT,3,23,2,0,1221,3,0,1221,4,0,1200,5,0,200,7,0,1221,8,0,1221,9,0,1200,10,0,1200,11,0,1200,12,0,1200,13,0,1221,15,0,1221,19,0,1200,21,0,1200,24,0,1200,25,0,1200,26,0,1221,27,0,1200,30,0,1221,31,0,1200,33,0,1200,34,0,1200,36,0,1200*6A
$PAIRSAT,4,50,1,0,200,2,0,200,3,0,200,4,0,200,5,0,200,6,0,201,7,0,200,8,0,201,9,0,201,10,0,200,11,0,200,12,0,200,13,0,201,14,0,200,15,0,200,16,0,201,19,0,621,20,0,621,21,0,600,22,0,621,23,0,600,24,0,600,25,0,600,26,0,600,27,0,600,28,0,600,29,0,621,30,0,600,31,0,200,32,0,600,33,0,600,34,0,600,35,0,621,36,0,621,37,0,621,38,0,621,39,0,621,40,0,600,41,0,600,42,0,600,43,0,600,44,0,600,45,0,600,46,0,621,56,0,200,57,0,200,58,0,200,59,0,600,60,0,600,61,0,600*41
$PAIRDGP,10,5,10,12,15,18,23,24,25,28,32*45
$GNGGA,115253.200,2500.8265522,N,12132.4567587,E,4,60,0.45,15.959,M,15.25,M,1,3335*44
$GNRMC,115253.200,A,2500.8265522,N,12132.4567587,E,0.01,266.26,260623,,,R,V*1C
$GPHDT,5.971,T*3F
$GNACCURACY,2.3*17
$GNGGA,115253.300,2500.8265453,N,12132.4567581,E,4,60,0.45,15.974,M,15.25,M,1,3335*4B
$GNRMC,115253.300,A,2500.8265453,N,12132.4567581,E,0.02,266.26,260623,,,R,V*1F
$GPHDT,,T*1B
$GNACCURACY,2.3*17
$GNGGA,115253.400,2500.8265477,N,12132.4567570,E,4,60,0.45,15.971,M,15.25,M,1,3335*41
$GNRMC,115253.400,A,2500.8265477,N,12132.4567570,E,0.01,266.26,260623,,,R,V*13
$GPHDT,5.682,T*3C
$GNACCURACY,2.3*17
$GNGGA,115253.500,2500.8265489,N,12132.4567591,E,4,60,0.45,15.962,M,15.25,M,0,3335*4D
$GNRMC,115253.500,A,2500.8265489,N,12132.4567591,E,0.01,266.26,260623,,,R,V*1C
$GPHDT,,T*1B
$GNACCURACY,2.3*17
$GNGGA,115253.600,2500.8265496,N,12132.4567580,E,4,60,0.45,15.958,M,15.25,M,0,3335*49
$GNRMC,115253.600,A,2500.8265496,N,12132.4567580,E,0.01,266.26,260623,,,R,V*11
$GPHDT,6.019,T*3B
$GNACCURACY,2.3*17
$GNGGA,115253.700,2500.8265468,N,12132.4567546,E,4,61,0.45,15.985,M,15.25,M,0,3335*42
$GNRMC,115253.700,A,2500.8265468,N,12132.4567546,E,0.01,266.26,260623,,,R,V*1B
$GPHDT,,T*1B
$GNACCURACY,2.3*17
$GNGGA,115253.800,2500.8265478,N,12132.4567561,E,4,61,0.45,15.980,M,15.25,M,0,3335*4C
$GNRMC,115253.800,A,2500.8265478,N,12132.4567561,E,0.01,266.26,260623,,,R,V*10
$GPHDT,4.514,T*31
$GNACCURACY,2.3*17
$GNGGA,115253.900,2500.8265467,N,12132.4567565,E,4,62,0.45,15.993,M,15.25,M,0,3335*46
$GNRMC,115253.900,A,2500.8265467,N,12132.4567565,E,0.01,266.26,260623,,,R,V*1B