$FW : RTK35X,V1.1X0314AS,Lib20210517,1*54
$Tool : LOCOSYS , GNSS Firebird , v1.0.0.19*39
$---------------------------------------------------*2D
$GPHDT,,T*1B
$GNGSA,A,3,196,23,24,199,18,194,15,195,12,10,25,32,0.83,0.45,0.70,1*0C
$GNGSA,A,3,73,80,71,86,85,,,,,,,,0.83,0.45,0.70,2*06
$GNGSA,A,3,13,07,26,30,15,08,02,,,,,,0.83,0.45,0.70,3*02
$GNGSA,A,3,08,38,13,39,16,06,46,19,09,36,22,35,0.83,0.45,0.70,4*03
$GNGSA,A,3,37,20,,,,,,,,,,,0.83,0.45,0.70,4*0F
$GPGSV,4,1,16,196,76,074,34,23,62,347,33,24,61,034,35,199,60,167,36,1*6A
$GPGSV,4,2,16,18,50,226,45,41,38,242,42,194,35,136,39,15,31,059,24,1*5A
$GPGSV,4,3,16,195,29,179,38,12,28,131,40,10,28,323,45,25,18,170,23,1*59
$GPGSV,4,4,16,32,15,280,33,05,11,127,17,28,04,222,,13,02,066,,1*67
$GPGSV,3,1,10,196,76,074,38,23,62,347,31,24,61,034,31,199,60,167,47,8*6E
$GPGSV,3,2,10,18,50,226,47,194,35,136,45,195,29,179,42,10,28,323,39,8*67
$GPGSV,3,3,10,25,18,170,23,32,15,280,27,8*6F
$GLGSV,2,1,07,73,53,151,43,80,44,055,30,71,27,327,41,86,27,286,32,1*71
$GLGSV,2,2,07,85,25,233,21,69,08,087,21,79,01,026,,1*44
$GAGSV,2,1,07,13,47,220,40,07,46,317,45,26,36,295,32,30,34,136,37,7*79
$GAGSV,2,2,07,02,27,074,,15,13,173,26,03,06,073,19,7*4E
$GAGSV,2,1,08,13,47,220,43,07,46,317,46,08,43,037,28,26,36,295,29,1*7F
$GAGSV,2,2,08,30,34,136,44,02,27,074,28,15,13,173,20,03,06,073,13,1*71
$GBGSV,4,1,15,08,85,341,39,38,80,159,44,13,72,321,38,39,68,299,44,1*7A
$GBGSV,4,2,15,16,65,274,43,06,64,269,42,46,62,086,26,19,54,000,20,1*7E
$GBGSV,4,3,15,09,50,249,38,36,47,183,44,20,39,078,,22,18,310,36,1*78
$GBGSV,4,4,15,35,17,257,36,37,15,041,35,29,12,204,15,1*4E
$GBGSV,3,1,09,38,80,159,42,39,68,299,42,46,62,086,26,19,54,000,34,4*72
$GBGSV,3,2,09,36,47,183,45,20,39,078,26,22,18,310,29,35,17,257,28,4*7F
$GBGSV,3,3,09,37,15,041,29,4*44
$GNACCURACY,2.4*10
$PAIRSAT,1,35,1,0,200,2,0,200,3,0,200,4,0,200,5,0,201,6,0,200,7,0,200,8,0,200,9,0,200,10,0,221,11,0,200,12,0,201,13,0,201,14,0,200,15,0,201,16,0,200,17,0,200,18,0,221,19,0,200,20,0,200,21,0,200,23,0,221,24,0,221,25,0,220,26,0,200,27,0,200,28,0,200,29,0,200,30,0,200,31,0,200,32,0,221,194,0,621,195,0,621,196,0,620,199,0,621*6A
$PAIRSAT,2,24,65,0,200,66,0,200,67,0,200,68,0,200,69,0,200,70,0,200,71,0,201,72,0,200,73,0,201,74,0,200,75,0,200,76,0,200,77,0,200,78,0,200,79,0,201,80,0,201,81,0,200,82,0,200,83,0,200,84,0,200,85,0,201,86,0,201,87,0,200,88,0,200*7A
$PAIRSAT,3,23,2,0,1221,3,0,1221,4,0,1200,5,0,200,7,0,1221,8,0,1221,9,0,1200,10,0,1200,11,0,1200,12,0,1200,13,0,1221,15,0,1221,19,0,1200,21,0,1200,24,0,1200,25,0,1200,26,0,1221,27,0,1200,30,0,1221,31,0,1200,33,0,1200,34,0,1200,36,0,1200*6A
$PAIRSAT,4,50,1,0,200,2,0,200,3,0,200,4,0,200,5,0,200,6,0,201,7,0,200,8,0,201,9,0,201,10,0,200,11,0,200,12,0,200,13,0,201,14,0,200,15,0,200,16,0,201,19,0,621,20,0,621,21,0,600,22,0,621,23,0,600,24,0,600,25,0,600,26,0,600,27,0,600,28,0,600,29,0,621,30,0,600,31,0,200,32,0,600,33,0,600,34,0,600,35,0,621,36,0,621,37,0,621,38,0,621,39,0,621,40,0,600,41,0,600,42,0,600,43,0,600,44,0,600,45,0,600,46,0,621,56,0,200,57,0,200,58,0,200,59,0,600,60,0,600,61,0,600*41
$PAIRDGP,10,5,10,12,15,18,23,24,25,28,32*45
$GNGGA,115340.200,2500.8265450,N,12132.4567405,E,4,60,0.45,16.130,M,15.25,M,15,3335*79
$GNRMC,115340.200,A,2500.8265450,N,12132.4567405,E,0.01,266.26,260623,,,R,V*10
$GPHDT,226.299,T*31
$GNACCURACY,2.4*10
$GNGGA,115340.300,2500.8265464,N,12132.4567383,E,4,60,0.45,16.120,M,15.25,M,15,3335*77
$GNRMC,115340.300,A,2500.8265464,N,12132.4567383,E,0.00,266.26,260623,,,R,V*1E
$GPHDT,,T*1B
$GNACCURACY,2.4*10
$GNGGA,115340.400,2500.8265439,N,12132.4567405,E,4,60,0.45,16.142,M,15.25,M,15,3335*75
$GNRMC,115340.400,A,2500.8265439,N,12132.4567405,E,0.00,266.26,260623,,,R,V*18
$GPHDT,227.497,T*38
$GNACCURACY,2.4*10
$GNGGA,115340.500,2500.8265454,N,12132.4567401,E,4,60,0.45,16.151,M,15.25,M,15,3335*79
$GNRMC,115340.500,A,2500.8265454,N,12132.4567401,E,0.00,266.26,260623,,,R,V*16
$GPHDT,,T*1B
$GNACCURACY,2.4*10
$GNGGA,115340.600,2500.8265434,N,12132.4567372,E,4,60,0.45,16.132,M,15.25,M,15,3335*7A
$GNRMC,115340.600,A,2500.8265434,N,12132.4567372,E,0.00,266.26,260623,,,R,V*10
$GPHDT,227.267,T*31
$GNACCURACY,2.4*10
$GNGGA,115340.700,2500.8265442,N,12132.4567415,E,4,60,0.45,16.134,M,15.25,M,15,3335*7A
$GNRMC,115340.700,A,2500.8265442,N,12132.4567415,E,0.00,266.26,260623,,,R,V*16
$GPHDT,,T*1B
$GNACCURACY,2.4*10
$GNGGA,115340.800,2500.8265452,N,12132.4567403,E,4,59,0.47,16.146,M,15.25,M,15,3335*7E
$GNRMC,115340.800,A,2500.8265452,N,12132.4567403,E,0.00,266.26,260623,,,R,V*1F
$GPHDT,227.296,T*3F
$GNACCURACY,2.4*10
$GNGGA,115340.900,2500.8265444,N,12132.4567380,E,4,59,0.47,16.134,M,15.25,M,15,3335*71
$GNRMC,115340.900,A,2500.8265444,N,12132.4567380,E,0.00,266.26,260623,,,R,V*15
$GPHDT,,T*1B
$GNACCURACY,2.4*10
$GNGGA,115341.000,2500.8265456,N,12132.4567367,E,4,58,0.47,16.148,M,15.25,M,16,3335*7A
$GNRMC,115341.000,A,2500.8265456,N,12132.4567367,E,0.00,266.26,260623,,,R,V*17
$GPHDT,227.202,T*32
$GNACCURACY,2.4*10
$GNGGA,115341.100,2500.8265423,N,12132.4567378,E,4,57,0.47,16.150,M,15.25,M,16,3335*71
$GNRMC,115341.100,A,2500.8265423,N,12132.4567378,E,0.00,266.26,260623,,,R,V*1A
$GPHDT,,T*1B
$GNGSA,A,3,196,23,24,199,18,194,15,195,10,12,25,32,0.88,0.47,0.74,1*01
$GNGSA,A,3,73,80,71,86,85,,,,,,,,0.88,0.47,0.74,2*0B
$GNGSA,A,3,13,07,26,30,15,08,02,,,,,,0.88,0.47,0.74,3*0F
$GNGSA,A,3,08,38,13,39,16,06,46,19,09,36,22,35,0.88,0.47,0.74,4*0E
$GNGSA,A,3,20,,,,,,,,,,,,0.88,0.47,0.74,4*06
$GPGSV,4,1,15,196,76,074,35,23,62,347,35,24,61,034,35,199,60,167,37,1*6F
$GPGSV,4,2,15,18,50,226,44,41,38,242,42,194,35,136,39,15,31,059,25,1*59
$GPGSV,4,3,15,195,29,179,37,10,28,323,45,12,28,131,40,25,18,170,24,1*52
$GPGSV,4,4,15,32,15,280,34,05,11,127,17,28,04,222,,1*53
$GPGSV,3,1,10,196,76,074,38,23,62,347,32,24,61,034,32,199,60,167,47,8*6E
$GPGSV,3,2,10,18,50,226,47,194,35,136,45,195,29,179,42,10,28,323,40,8*69
$GPGSV,3,3,10,25,18,170,21,32,15,280,25,8*6F
$GLGSV,2,1,07,73,53,151,43,80,44,055,29,71,27,327,43,86,27,286,30,1*79
$GLGSV,2,2,07,85,25,233,21,69,08,087,22,79,01,026,,1*47
$GAGSV,2,1,08,13,47,220,40,07,46,317,46,08,43,037,,26,36,295,34,7*7C
$GAGSV,2,2,08,30,34,136,38,02,27,074,,15,13,173,27,03,06,073,19,7*7B
$GAGSV,2,1,07,13,47,220,43,07,46,317,47,08,43,037,31,26,36,295,30,1*71
$GAGSV,2,2,07,30,34,136,43,02,27,074,29,03,06,073,14,1*4E
$GBGSV,4,1,15,08,85,341,40,38,80,159,44,13,72,321,38,39,68,299,44,1*74
$GBGSV,4,2,15,16,65,274,43,06,64,269,42,46,62,086,25,19,54,000,17,1*79
$GBGSV,4,3,15,09,50,249,38,36,47,183,44,20,39,078,,22,18,310,36,1*78
$GBGSV,4,4,15,35,17,257,36,37,15,041,36,29,12,204,14,1*4C
$GBGSV,3,1,09,38,80,159,42,39,68,299,43,46,62,086,25,19,54,000,35,4*71
$GBGSV,3,2,09,36,47,183,45,20,39,078,25,22,18,310,31,35,17,257,27,4*7A
$GBGSV,3,3,09,37,15,041,27,4*4A
$GNACCURACY,2.4*10
$PAIRSAT,1,35,1,0,200,2,0,200,3,0,200,4,0,200,5,0,201,6,0,200,7,0,200,8,0,200,9,0,200,10,0,221,11,0,200,12,0,201,13,0,201,14,0,200,15,0,201,16,0,200,17,0,200,18,0,221,19,0,200,20,0,200,21,0,200,23,0,221,24,0,221,25,0,220,26,0,200,27,0,200,28,0,200,29,0,200,30,0,200,31,0,200,32,0,221,194,0,621,195,0,621,196,0,620,199,0,621*6A
$PAIRSAT,2,24,65,0,200,66,0,200,67,0,200,68,0,200,69,0,200,70,0,200,71,0,201,72,0,200,73,0,201,74,0,200,75,0,200,76,0,200,77,0,200,78,0,200,79,0,201,80,0,201,81,0,200,82,0,200,83,0,200,84,0,200,85,0,201,86,0,201,87,0,200,88,0,200*7A
$PAIRSAT,3,23,2,0,1221,3,0,1221,4,0,1200,5,0,200,7,0,1221,8,0,1221,9,0,1200,10,0,1200,11,0,1200,12,0,1200,13,0,1221,15,0,1221,19,0,1200,21,0,1200,24,0,1200,25,0,1200,26,0,1221,27,0,1200,30,0,1221,31,0,1200,33,0,1200,34,0,1200,36,0,1200*6A
$PAIRSAT,4,50,1,0,200,2,0,200,3,0,200,4,0,200,5,0,200,6,0,201,7,0,200,8,0,201,9,0,201,10,0,200,11,0,200,12,0,200,13,0,201,14,0,200,15,0,200,16,0,201,19,0,621,20,0,621,21,0,600,22,0,621,23,0,600,24,0,600,25,0,600,26,0,600,27,0,600,28,0,600,29,0,621,30,0,600,31,0,200,32,0,600,33,0,600,34,0,600,35,0,621,36,0,621,37,0,621,38,0,621,39,0,621,40,0,600,41,0,600,42,0,600,43,0,600,44,0,600,45,0,600,46,0,621,56,0,200,57,0,200,58,0,200,59,0,600,60,0,600,61,0,600*41
$PAIRDGP,10,5,10,12,15,18,23,24,25,28,32*45
$GNGGA,115341.200,2500.8265439,N,12132.4567402,E,4,57,0.47,16.141,M,15.25,M,16,3335*73
$GNRMC,115341.200,A,2500.8265439,N,12132.4567402,E,0.00,266.26,260623,,,R,V*18
$GPHDT,226.821,T*38
$GNACCURACY,2.3*17
$GNGGA,115341.300,2500.8265457,N,12132.4567458,E,4,59,0.45,16.164,M,15.25,M,16,3335*7E
$GNRMC,115341.300,A,2500.8265457,N,12132.4567458,E,0.00,266.26,260623,,,R,V*1E
$GPHDT,,T*1B
$GNACCURACY,2.3*17
$GNGGA,115341.400,2500.8265489,N,12132.4567372,E,4,60,0.45,16.143,M,15.25,M,16,3335*7A
$GNRMC,115341.400,A,2500.8265489,N,12132.4567372,E,0.00,266.26,260623,,,R,V*15
$GPHDT,226.793,T*3E
$GNACCURACY,2.3*17
$GNGGA,115341.500,2500.8265454,N,12132.4567430,E,4,60,0.45,16.185,M,15.25,M,16,3335*70
$GNRMC,115341.500,A,2500.8265454,N,12132.4567430,E,0.00,266.26,260623,,,R,V*15
$GPHDT,,T*1B
$GNACCURACY,2.4*10
$GNGGA,115341.600,2500.8265493,N,12132.4567373,E,4,59,0.45,16.135,M,15.25,M,16,3335*79
$GNRMC,115341.600,A,2500.8265493,N,12132.4567373,E,0.00,266.26,260623,,,R,V*1D
$GPHDT,225.986,T*37
$GNACCURACY,2.4*10
$GNGGA,115341.700,2500.8265512,N,12132.4567394,E,4,59,0.45,16.160,M,15.25,M,16,3335*79
$GNRMC,115341.700,A,2500.8265512,N,12132.4567394,E,0.00,266.26,260623,,,R,V*1D
$GPHDT,,T*1B
$GNACCURACY,2.4*10
$GNGGA,115341.800,2500.8265490,N,12132.4567346,E,4,60,0.45,16.136,M,15.25,M,16,3335*7B
$GNRMC,115341.800,A,2500.8265490,N,12132.4567346,E,0.00,266.26,260623,,,R,V*16
$GPHDT,226.028,T*39
$GNACCURACY,2.4*10
$GNGGA,115341.900,2500.8265485,N,12132.4567376,E,4,60,0.45,16.164,M,15.25,M,16,3335*7A
$GNRMC,115341.900,A,2500.8265485,N,12132.4567376,E,0.00,266.26,260623,,,R,V*10
$GPHDT,,T*1B
$GNACCURACY,2.4*10
$GNGGA,115342.000,2500.8265478,N,12132.4567393,E,4,60,0.45,16.178,M,15.25,M,17,3335*75
$GNRMC,115342.000,A,2500.8265478,N,12132.4567393,E,0.00,266.26,260623,,,R,V*13
$GPHDT,226.438,T*3C
$GNACCURACY,2.4*10
$GNGGA,115342.100,2500.8265493,N,12132.4567357,E,4,60,0.45,16.156,M,15.25,M,17,3335*75
$GNRMC,115342.100,A,2500.8265493,N,12132.4567357,E,0.00,266.26,260623,,,R,V*1F
$GPHDT,,T*1B
$GNGSA,A,3,196,23,24,199,18,194,15,195,12,10,25,32,0.88,0.47,0.74,1*01
$GNGSA,A,3,73,80,71,86,85,,,,,,,,0.88,0.47,0.74,2*0B
$GNGSA,A,3,13,07,08,26,30,15,02,,,,,,0.88,0.47,0.74,3*0F
$GNGSA,A,3,08,38,13,39,16,06,46,19,09,36,22,35,0.88,0.47,0.74,4*0E
$GNGSA,A,3,20,,,,,,,,,,,,0.88,0.47,0.74,4*06
$GPGSV,4,1,16,196,76,074,32,23,62,347,34,24,61,034,34,199,60,167,36,1*6A
$GPGSV,4,2,16,18,50,226,44,41,38,242,42,194,35,136,40,15,31,059,25,1*54
$GPGSV,4,3,16,195,29,179,37,12,28,131,40,10,28,323,43,25,18,170,23,1*50
$GPGSV,4,4,16,32,15,280,29,05,11,127,17,28,04,222,,13,02,066,,1*6C
$GPGSV,3,1,10,196,76,074,38,23,62,347,31,24,61,034,32,199,60,167,47,8*6D
$GPGSV,3,2,10,18,50,226,47,194,35,136,44,195,29,179,42,10,28,323,38,8*67
$GPGSV,3,3,10,25,18,170,23,32,15,280,26,8*6E
$GLGSV,2,1,07,73,53,151,43,80,44,055,29,71,27,327,38,86,27,286,31,1*74
$GLGSV,2,2,07,85,25,233,21,69,08,087,21,79,01,026,,1*44
$GAGSV,2,1,08,13,47,220,42,07,46,317,45,08,43,037,25,26,36,295,29,7*76
$GAGSV,2,2,08,30,34,136,38,02,27,074,,15,13,173,27,03,06,073,19,7*7B
$GAGSV,2,1,07,13,47,220,42,07,46,317,43,08,43,037,28,26,36,295,30,1*7C
$GAGSV,2,2,07,30,34,136,42,02,27,074,27,03,06,073,15,1*40
$GBGSV,4,1,15,08,85,341,40,38,80,159,44,13,72,321,38,39,68,299,44,1*74
$GBGSV,4,2,15,16,65,274,43,06,64,269,42,46,62,086,23,19,54,000,23,1*78
$GBGSV,4,3,15,09,50,249,40,36,47,183,44,20,39,078,,22,18,310,36,1*77
$GBGSV,4,4,15,35,17,257,38,37,15,041,33,29,12,204,14,1*47
$GBGSV,3,1,09,38,80,159,43,39,68,299,43,46,62,086,26,19,54,000,35,4*73
$GBGSV,3,2,09,36,47,183,45,20,39,078,25,22,18,310,30,35,17,257,32,4*7F
$GBGSV,3,3,09,37,15,041,28,4*45
$GNACCURACY,2.4*10
$PAIRSAT,1,35,1,0,200,2,0,200,3,0,200,4,0,200,5,0,201,6,0,200,7,0,200,8,0,200,9,0,200,10,0,221,11,0,200,12,0,201,13,0,201,14,0,200,15,0,201,16,0,200,17,0,200,18,0,221,19,0,200,20,0,200,21,0,200,23,0,221,24,0,221,25,0,220,26,0,200,27,0,200,28,0,200,29,0,200,30,0,200,31,0,200,32,0,221,194,0,621,195,0,621,196,0,620,199,0,621*6A
$PAIRSAT,2,24,65,0,200,66,0,200,67,0,200,68,0,200,69,0,200,70,0,200,71,0,201,72,0,200,73,0,201,74,0,200,75,0,200,76,0,200,77,0,200,78,0,200,79,0,201,80,0,201,81,0,200,82,0,200,83,0,200,84,0,200,85,0,201,86,0,201,87,0,200,88,0,200*7A
$PAIRSAT,3,23,2,0,1221,3,0,1221,4,0,1200,5,0,200,7,0,1221,8,0,1221,9,0,1200,10,0,1200,11,0,1200,12,0,1200,13,0,1221,15,0,1221,19,0,1200,21,0,1200,24,0,1200,25,0,1200,26,0,1221,27,0,1200,30,0,1221,31,0,1200,33,0,1200,34,0,1200,36,0,1200*6A
$PAIRSAT,4,50,1,0,200,2,0,200,3,0,200,4,0,200,5,0,200,6,0,201,7,0,200,8,0,201,9,0,201,10,0,200,11,0,200,12,0,200,13,0,201,14,0,200,15,0,200,16,0,201,19,0,621,20,0,621,21,0,600,22,0,621,23,0,600,24,0,600,25,0,600,26,0,600,27,0,600,28,0,600,29,0,621,30,0,600,31,0,200,32,0,600,33,0,600,34,0,600,35,0,621,36,0,621,37,0,621,38,0,621,39,0,621,40,0,600,41,0,600,42,0,600,43,0,600,44,0,600,45,0,600,46,0,621,56,0,200,57,0,200,58,0,200,59,0,600,60,0,600,61,0,600*41
$PAIRDGP,10,5,10,12,15,18,23,24,25,28,32*45
$GNGGA,115342.200,2500.8265507,N,12132.4567366,E,4,58,0.47,16.149,M,15.25,M,17,3335*7F
$GNRMC,115342.200,A,2500.8265507,N,12132.4567366,E,0.00,266.26,260623,,,R,V*12
$GPHDT,225.909,T*30
$GNACCURACY,2.4*10
$GNGGA,115342.300,2500.8265473,N,12132.4567396,E,4,60,0.45,16.182,M,15.25,M,17,3335*7D
$GNRMC,115342.300,A,2500.8265473,N,12132.4567396,E,0.00,266.26,260623,,,R,V*1E
$GPHDT,,T*1B
$GNACCURACY,2.4*10
$GNGGA,115342.400,2500.8265491,N,12132.4567392,E,4,60,0.45,16.157,M,15.25,M,17,3335*7A
$GNRMC,115342.400,A,2500.8265491,N,12132.4567392,E,0.00,266.26,260623,,,R,V*11
$GPHDT,226.066,T*33
$GNACCURACY,2.4*10
$GNGGA,115342.500,2500.8265494,N,12132.4567371,E,4,60,0.45,16.178,M,15.25,M,17,3335*7E
$GNRMC,115342.500,A,2500.8265494,N,12132.4567371,E,0.00,266.26,260623,,,R,V*18
$GPHDT,,T*1B
$GNACCURACY,2.4*10
$GNGGA,115342.600,2500.8265472,N,12132.4567370,E,4,60,0.45,16.164,M,15.25,M,17,3335*79
$GNRMC,115342.600,A,2500.8265472,N,12132.4567370,E,0.00,266.26,260623,,,R,V*12
$GPHDT,226.219,T*39
$GNACCURACY,2.4*10
$GNGGA,115342.700,2500.8265469,N,12132.4567369,E,4,60,0.45,16.156,M,15.25,M,17,3335*7B
$GNRMC,115342.700,A,2500.8265469,N,12132.4567369,E,0.00,266.26,260623,,,R,V*11
$GPHDT,,T*1B
$GNACCURACY,2.4*10
$GNGGA,115342.800,2500.8265470,N,12132.4567379,E,4,60,0.45,16.190,M,15.25,M,17,3335*77
$GNRMC,115342.800,A,2500.8265470,N,12132.4567379,E,0.00,266.26,260623,,,R,V*17
$GPHDT,226.572,T*33
$GNACCURACY,2.4*10
$GNGGA,115342.900,2500.8265464,N,12132.4567360,E,4,60,0.45,16.151,M,15.25,M,17,3335*76
$GNRMC,115342.900,A,2500.8265464,N,12132.4567360,E,0.00,266.26,260623,,,R,V*1B
$GPHDT,,T*1B
$GNACCURACY,2.4*10
$GNGGA,115343.000,2500.8265459,N,12132.4567344,E,4,60,0.45,16.167,M,15.25,M,18,3335*7C
$GNRMC,115343.000,A,2500.8265459,N,12132.4567344,E,0.00,266.26,260623,,,R,V*1B
$GPHDT,226.006,T*35
$GNACCURACY,2.4*10
$GNGGA,115343.100,2500.8265485,N,12132.4567403,E,4,60,0.45,16.191,M,15.25,M,18,3335*71
$GNRMC,115343.100,A,2500.8265485,N,12132.4567403,E,0.00,266.26,260623,,,R,V*1F
$GPHDT,,T*1B
$GNGSA,A,3,196,23,24,199,18,194,15,195,12,10,25,32,0.83,0.45,0.70,1*0C
$GNGSA,A,3,73,80,71,86,85,,,,,,,,0.83,0.45,0.70,2*06
$GNGSA,A,3,13,07,08,26,30,15,02,,,,,,0.83,0.45,0.70,3*02
$GNGSA,A,3,08,38,13,39,16,06,46,19,09,36,22,35,0.83,0.45,0.70,4*03
$GNGSA,A,3,37,20,,,,,,,,,,,0.83,0.45,0.70,4*0F
$GPGSV,4,1,16,196,76,074,31,23,62,347,33,24,61,034,34,199,60,167,36,1*6E
$GPGSV,4,2,16,18,50,226,44,41,38,242,43,194,35,136,40,15,31,059,24,1*54
$GPGSV,4,3,16,195,29,179,37,12,28,131,40,10,28,323,43,25,18,170,24,1*57
$GPGSV,4,4,16,32,15,280,28,05,11,127,15,28,04,222,,13,02,066,,1*6F
$GPGSV,3,1,10,196,76,074,38,23,62,347,31,24,61,034,32,199,60,167,47,8*6D
$GPGSV,3,2,10,18,50,226,47,194,35,136,44,195,29,179,42,10,28,323,37,8*68
$GPGSV,3,3,10,25,18,170,24,32,15,280,26,8*69
$GLGSV,2,1,07,73,53,151,43,80,44,055,29,71,27,327,38,86,27,286,31,1*74
$GLGSV,2,2,07,85,25,233,22,69,08,087,21,79,01,026,,1*47
$GAGSV,2,1,08,13,47,220,42,07,46,317,45,08,43,037,26,26,36,295,29,7*75
$GAGSV,2,2,08,30,34,136,38,02,27,074,,15,13,173,26,03,06,073,19,7*7A
$GAGSV,2,1,07,13,47,220,42,07,46,317,43,08,43,037,28,26,36,295,29,1*74
$GAGSV,2,2,07,30,34,136,42,02,27,074,27,03,06,073,14,1*41
$GBGSV,4,1,15,08,85,341,40,38,80,159,44,13,72,321,38,39,68,299,44,1*74
$GBGSV,4,2,15,16,65,274,43,06,64,269,42,46,62,086,23,19,54,000,25,1*7E
$GBGSV,4,3,15,09,50,249,40,36,47,183,44,20,39,078,,22,18,310,36,1*77
$GBGSV,4,4,15,35,17,257,38,37,15,041,33,29,12,204,15,1*46
$GBGSV,3,1,09,38,80,159,43,39,68,299,43,46,62,086,26,19,54,000,35,4*73
$GBGSV,3,2,09,36,47,183,45,20,39,078,25,22,18,310,30,35,17,257,33,4*7E
$GBGSV,3,3,09,37,15,041,29,4*44
$GNACCURACY,2.4*10
$PAIRSAT,1,35,1,0,200,2,0,200,3,0,200,4,0,200,5,0,201,6,0,200,7,0,200,8,0,200,9,0,200,10,0,221,11,0,200,12,0,201,13,0,201,14,0,200,15,0,201,16,0,200,17,0,200,18,0,221,19,0,200,20,0,200,21,0,200,23,0,221,24,0,221,25,0,220,26,0,200,27,0,200,28,0,200,29,0,200,30,0,200,31,0,200,32,0,221,194,0,621,195,0,621,196,0,620,199,0,621*6A
$PAIRSAT,2,24,65,0,200,66,0,200,67,0,200,68,0,200,69,0,200,70,0,200,71,0,201,72,0,200,73,0,201,74,0,200,75,0,200,76,0,200,77,0,200,78,0,200,79,0,201,80,0,201,81,0,200,82,0,200,83,0,200,84,0,200,85,0,201,86,0,201,87,0,200,88,0,200*7A
$PAIRSAT,3,23,2,0,1221,3,0,1221,4,0,1200,5,0,200,7,0,1221,8,0,1221,9,0,1200,10,0,1200,11,0,1200,12,0,1200,13,0,1221,15,0,1221,19,0,1200,21,0,1200,24,0,1200,25,0,1200,26,0,1221,27,0,1200,30,0,1221,31,0,1200,33,0,1200,34,0,1200,36,0,1200*6A
$PAIRSAT,4,50,1,0,200,2,0,200,3,0,200,4,0,200,5,0,200,6,0,201,7,0,200,8,0,201,9,0,201,10,0,200,11,0,200,12,0,200,13,0,201,14,0,200,15,0,200,16,0,201,19,0,621,20,0,621,21,0,600,22,0,621,23,0,600,24,0,600,25,0,600,26,0,600,27,0,600,28,0,600,29,0,621,30,0,600,31,0,200,32,0,600,33,0,600,34,0,600,35,0,621,36,0,621,37,0,621,38,0,621,39,0,621,40,0,600,41,0,600,42,0,600,43,0,600,44,0,600,45,0,600,46,0,621,56,0,200,57,0,200,58,0,200,59,0,600,60,0,600,61,0,600*41
$PAIRDGP,10,5,10,12,15,18,23,24,25,28,32*45
$GNGGA,115343.200,2500.8265454,N,12132.4567367,E,4,60,0.45,16.181,M,15.25,M,18,3335*7A
$GNRMC,115343.200,A,2500.8265454,N,12132.4567367,E,0.00,266.26,260623,,,R,V*15
$GPHDT,226.197,T*3C
$GNACCURACY,2.4*10
$GNGGA,115343.300,2500.8265478,N,12132.4567358,E,4,60,0.45,16.182,M,15.25,M,18,3335*7A
$GNRMC,115343.300,A,2500.8265478,N,12132.4567358,E,0.00,266.26,260623,,,R,V*16
$GPHDT,,T*1B
$GNACCURACY,2.4*10
$GNGGA,115343.400,2500.8265485,N,12132.4567344,E,4,59,0.45,16.172,M,15.25,M,18,3335*77
$GNRMC,115343.400,A,2500.8265485,N,12132.4567344,E,0.00,266.26,260623,,,R,V*1E
$GPHDT,225.964,T*3B
$GNACCURACY,2.4*10
$GNGGA,115343.500,2500.8265480,N,12132.4567343,E,4,59,0.45,16.174,M,15.25,M,18,3335*72
$GNRMC,115343.500,A,2500.8265480,N,12132.4567343,E,0.00,266.26,260623,,,R,V*1D
$GPHDT,,T*1B
$GNACCURACY,2.4*10
$GNGGA,115343.600,2500.8265472,N,12132.4567339,E,4,60,0.45,16.185,M,15.25,M,18,3335*75
$GNRMC,115343.600,A,2500.8265472,N,12132.4567339,E,0.00,266.26,260623,,,R,V*1E
$GPHDT,226.309,T*39
$GNACCURACY,2.4*10
$GNGGA,115343.700,2500.8265471,N,12132.4567365,E,4,60,0.45,16.177,M,15.25,M,18,3335*73
$GNRMC,115343.700,A,2500.8265471,N,12132.4567365,E,0.00,266.26,260623,,,R,V*15
$GPHDT,,T*1B
$GNACCURACY,2.4*10
$GNGGA,115343.800,2500.8265480,N,12132.4567329,E,4,60,0.45,16.178,M,15.25,M,18,3335*75
$GNRMC,115343.800,A,2500.8265480,N,12132.4567329,E,0.00,266.26,260623,,,R,V*1C
$GPHDT,226.296,T*3E
$GNACCURACY,2.4*10
$GNGGA,115343.900,2500.8265491,N,12132.4567323,E,4,60,0.45,16.158,M,15.25,M,18,3335*7C
$GNRMC,115343.900,A,2500.8265491,N,12132.4567323,E,0.00,266.26,260623,,,R,V*17
$GPHDT,,T*1B
$GNACCURACY,2.4*10
$GNGGA,115344.000,2500.8265494,N,12132.4567346,E,4,60,0.45,16.180,M,15.25,M,19,3335*70
$GNRMC,115344.000,A,2500.8265494,N,12132.4567346,E,0.00,266.26,260623,,,R,V*1F
$GPHDT,226.252,T*36
$GNACCURACY,2.4*10
$GNGGA,115344.100,2500.8265449,N,12132.4567357,E,4,61,0.45,16.187,M,15.25,M,19,3335*77
$GNRMC,115344.100,A,2500.8265449,N,12132.4567357,E,0.00,266.26,260623,,,R,V*1E
$GPHDT,,T*1B
$GNGSA,A,3,196,23,24,199,18,194,15,195,12,10,25,32,0.83,0.45,0.70,1*0C
$GNGSA,A,3,73,80,71,86,85,,,,,,,,0.83,0.45,0.70,2*06
$GNGSA,A,3,13,07,08,26,30,15,02,,,,,,0.83,0.45,0.70,3*02
$GNGSA,A,3,08,38,13,39,16,06,46,19,09,36,22,35,0.83,0.45,0.70,4*03
$GNGSA,A,3,37,20,,,,,,,,,,,0.83,0.45,0.70,4*0F
$GPGSV,4,1,16,196,76,074,31,23,62,347,33,24,61,034,34,199,60,167,36,1*6E
$GPGSV,4,2,16,18,50,226,44,41,38,242,43,194,35,136,40,15,31,059,25,1*55
$GPGSV,4,3,16,195,29,179,37,12,28,131,40,10,28,323,43,25,18,170,24,1*57
$GPGSV,4,4,16,32,15,280,28,05,11,127,17,28,04,222,,13,02,066,,1*6D
$GPGSV,3,1,10,196,76,074,37,23,62,347,30,24,61,034,32,199,60,167,47,8*63
$GPGSV,3,2,10,18,50,226,46,194,35,136,44,195,29,179,42,10,28,323,37,8*69
$GPGSV,3,3,10,25,18,170,25,32,15,280,26,8*68
$GLGSV,2,1,07,73,53,151,43,80,44,055,31,71,27,327,38,86,27,286,31,1*7D
$GLGSV,2,2,07,85,25,233,21,69,08,087,21,79,01,026,,1*44
$GAGSV,2,1,08,13,47,220,42,07,46,317,44,08,43,037,26,26,36,295,29,7*74
$GAGSV,2,2,08,30,34,136,38,02,27,074,,15,13,173,26,03,06,073,19,7*7A
$GAGSV,2,1,07,13,47,220,42,07,46,317,43,08,43,037,28,26,36,295,28,1*75
$GAGSV,2,2,07,30,34,136,42,02,27,074,27,03,06,073,12,1*47
$GBGSV,4,1,15,08,85,341,40,38,80,159,44,13,72,321,38,39,68,299,44,1*74
$GBGSV,4,2,15,16,65,274,43,06,64,269,42,46,62,086,24,19,54,000,24,1*78
$GBGSV,4,3,15,09,50,249,40,36,47,183,44,20,39,078,,22,18,310,35,1*74
$GBGSV,4,4,15,35,17,257,38,37,15,041,34,29,12,204,15,1*41
$GBGSV,3,1,09,38,80,159,43,39,68,299,43,46,62,086,26,19,54,000,34,4*72
$GBGSV,3,2,09,36,47,183,45,20,39,078,25,22,18,310,29,35,17,257,32,4*77
$GBGSV,3,3,09,37,15,041,31,4*4D
$GNACCURACY,2.4*10
$PAIRSAT,1,35,1,0,200,2,0,200,3,0,200,4,0,200,5,0,201,6,0,200,7,0,200,8,0,200,9,0,200,10,0,221,11,0,200,12,0,201,13,0,201,14,0,200,15,0,201,16,0,200,17,0,200,18,0,221,19,0,200,20,0,200,21,0,200,23,0,221,24,0,221,25,0,220,26,0,200,27,0,200,28,0,200,29,0,200,30,0,200,31,0,200,32,0,221,194,0,621,195,0,621,196,0,620,199,0,621*6A
$PAIRSAT,2,24,65,0,200,66,0,200,67,0,200,68,0,200,69,0,200,70,0,200,71,0,201,72,0,200,73,0,201,74,0,200,75,0,200,76,0,200,77,0,200,78,0,200,79,0,201,80,0,201,81,0,200,82,0,200,83,0,200,84,0,200,85,0,201,86,0,201,87,0,200,88,0,200*7A
$PAIRSAT,3,23,2,0,1221,3,0,1221,4,0,1200,5,0,200,7,0,1221,8,0,1221,9,0,1200,10,0,1200,11,0,1200,12,0,1200,13,0,1221,15,0,1221,19,0,1200,21,0,1200,24,0,1200,25,0,1200,26,0,1221,27,0,1200,30,0,1221,31,0,1200,33,0,1200,34,0,1200,36,0,1200*6A
$PAIRSAT,4,50,1,0,200,2,0,200,3,0,200,4,0,200,5,0,200,6,0,201,7,0,200,8,0,201,9,0,201,10,0,200,11,0,200,12,0,200,13,0,201,14,0,200,15,0,200,16,0,201,19,0,621,20,0,621,21,0,600,22,0,621,23,0,600,24,0,600,25,0,600,26,0,600,27,0,600,28,0,600,29,0,621,30,0,600,31,0,200,32,0,600,33,0,600,34,0,600,35,0,621,36,0,621,37,0,621,38,0,621,39,0,621,40,0,600,41,0,600,42,0,600,43,0,600,44,0,600,45,0,600,46,0,621,56,0,200,57,0,200,58,0,200,59,0,600,60,0,600,61,0,600*41
$PAIRDGP,10,5,10,12,15,18,23,24,25,28,32*45
$GNGGA,115344.200,2500.8265463,N,12132.4567340,E,4,61,0.45,16.175,M,15.25,M,19,3335*77
$GNRMC,115344.200,A,2500.8265463,N,12132.4567340,E,0.00,266.26,260623,,,R,V*13
$GPHDT,226.619,T*3D
$GNACCURACY,2.4*10
$GNGGA,115344.300,2500.8265473,N,12132.4567342,E,4,61,0.45,16.174,M,15.25,M,19,3335*74
$GNRMC,115344.300,A,2500.8265473,N,12132.4567342,E,0.00,266.26,260623,,,R,V*11
$GPHDT,,T*1B
$GNACCURACY,2.4*10
$GNGGA,115344.400,2500.8265475,N,12132.4567335,E,4,61,0.45,16.178,M,15.25,M,19,3335*79
$GNRMC,115344.400,A,2500.8265475,N,12132.4567335,E,0.00,266.26,260623,,,R,V*10
$GPHDT,226.112,T*31
$GNACCURACY,2.4*10
$GNGGA,115344.500,2500.8265448,N,12132.4567346,E,4,61,0.45,16.193,M,15.25,M,19,3335*77
$GNRMC,115344.500,A,2500.8265448,N,12132.4567346,E,0.00,266.26,260623,,,R,V*1B
$GPHDT,,T*1B
$GNACCURACY,2.4*10
$GNGGA,115344.600,2500.8265468,N,12132.4567377,E,4,61,0.45,16.210,M,15.25,M,19,3335*7C
$GNRMC,115344.600,A,2500.8265468,N,12132.4567377,E,0.00,266.26,260623,,,R,V*18
$GPHDT,226.096,T*3C
$GNACCURACY,2.4*10
$GNGGA,115344.700,2500.8265429,N,12132.4567275,E,4,61,0.45,16.185,M,15.25,M,19,3335*74
$GNRMC,115344.700,A,2500.8265429,N,12132.4567275,E,0.00,266.26,260623,,,R,V*1F
$GPHDT,,T*1B
$GNACCURACY,2.4*10
$GNGGA,115344.800,2500.8265439,N,12132.4567308,E,4,61,0.45,16.197,M,15.25,M,19,3335*72
$GNRMC,115344.800,A,2500.8265439,N,12132.4567308,E,0.01,266.26,260623,,,R,V*1B
$GPHDT,225.923,T*38
$GNACCURACY,2.4*10
$GNGGA,115344.900,2500.8265449,N,12132.4567311,E,4,61,0.45,16.195,M,15.25,M,19,3335*7E
$GNRMC,115344.900,A,2500.8265449,N,12132.4567311,E,0.01,266.26,260623,,,R,V*15
$GPHDT,,T*1B
$GNACCURACY,2.4*10
$GNGGA,115345.000,2500.8265451,N,12132.4567291,E,4,61,0.45,16.173,M,15.25,M,20,3335*74
$GNRMC,115345.000,A,2500.8265451,N,12132.4567291,E,0.00,266.26,260623,,,R,V*1C
$GPHDT,225.646,T*34
$GNACCURACY,2.4*10
$GNGGA,115345.100,2500.8265444,N,12132.4567323,E,4,61,0.45,16.200,M,15.25,M,20,3335*7E
$GNRMC,115345.100,A,2500.8265444,N,12132.4567323,E,0.00,266.26,260623,,,R,V*11
$GPHDT,,T*1B
$GNGSA,A,3,196,23,24,199,18,194,15,195,12,10,25,32,0.83,0.45,0.70,1*0C
$GNGSA,A,3,73,80,71,86,85,,,,,,,,0.83,0.45,0.70,2*06
$GNGSA,A,3,13,07,08,26,30,15,02,,,,,,0.83,0.45,0.70,3*02
$GNGSA,A,3,08,38,13,39,16,06,46,19,09,36,22,35,0.83,0.45,0.70,4*03
$GNGSA,A,3,37,20,,,,,,,,,,,0.83,0.45,0.70,4*0F
$GPGSV,4,1,16,196,76,074,34,23,62,347,34,24,61,034,30,199,60,167,35,1*6B
$GPGSV,4,2,16,18,50,226,44,41,38,242,43,194,35,136,40,15,31,059,27,1*57
$GPGSV,4,3,16,195,29,179,37,12,28,131,40,10,28,323,45,25,18,170,27,1*52
$GPGSV,4,4,16,32,15,280,32,05,11,127,18,28,04,222,,13,02,066,,1*69
$GPGSV,3,1,10,196,76,074,38,23,62,347,29,24,61,034,33,199,60,167,47,8*65
$GPGSV,3,2,10,18,50,226,46,194,35,136,44,195,29,179,42,10,28,323,42,8*6B
$GPGSV,3,3,10,25,18,170,21,32,15,280,23,8*69
$GLGSV,2,1,08,73,53,151,43,80,44,055,30,71,27,327,43,86,27,286,30,1*7E
$GLGSV,2,2,08,85,25,233,20,74,15,185,,69,08,087,20,79,01,026,,1*70
$GAGSV,3,1,09,13,47,220,42,07,46,317,46,08,43,037,25,26,36,295,33,7*7E
$GAGSV,3,2,09,30,34,136,39,02,27,074,,15,13,173,26,27,08,184,,7*72
$GAGSV,3,3,09,03,06,073,18,7*42
$GAGSV,2,1,07,13,47,220,42,07,46,317,46,08,43,037,30,26,36,295,31,1*71
$GAGSV,2,2,07,30,34,136,42,02,27,074,27,03,06,073,14,1*41
$GBGSV,4,1,15,08,85,341,40,38,80,159,43,13,72,321,38,39,68,299,45,1*72
$GBGSV,4,2,15,16,65,274,43,06,64,269,42,46,62,086,24,19,54,000,20,1*7C
$GBGSV,4,3,15,09,50,249,41,36,47,183,44,20,39,078,,22,18,310,34,1*74
$GBGSV,4,4,15,35,17,257,38,37,15,041,34,29,12,204,17,1*43
$GBGSV,3,1,09,38,80,159,44,39,68,299,44,46,62,086,25,19,54,000,34,4*71
$GBGSV,3,2,09,36,47,183,45,20,39,078,25,22,18,310,29,35,17,257,32,4*77
$GBGSV,3,3,09,37,15,041,32,4*4E
$GNACCURACY,2.4*10
$PAIRSAT,1,35,1,0,200,2,0,200,3,0,200,4,0,200,5,0,201,6,0,200,7,0,200,8,0,200,9,0,200,10,0,221,11,0,200,12,0,201,13,0,201,14,0,200,15,0,201,16,0,200,17,0,200,18,0,221,19,0,200,20,0,200,21,0,200,23,0,221,24,0,221,25,0,220,26,0,200,27,0,200,28,0,200,29,0,200,30,0,200,31,0,200,32,0,221,194,0,621,195,0,621,196,0,620,199,0,621*6A
$PAIRSAT,2,24,65,0,200,66,0,200,67,0,200,68,0,200,69,0,200,70,0,200,71,0,201,72,0,200,73,0,201,74,0,200,75,0,200,76,0,200,77,0,200,78,0,200,79,0,201,80,0,201,81,0,200,82,0,200,83,0,200,84,0,200,85,0,201,86,0,201,87,0,200,88,0,200*7A
$PAIRSAT,3,23,2,0,1221,3,0,1221,4,0,1200,5,0,200,7,0,1221,8,0,1221,9,0,1200,10,0,1200,11,0,1200,12,0,1200,13,0,1221,15,0,1221,19,0,1200,21,0,1200,24,0,1200,25,0,1200,26,0,1221,27,0,1200,30,0,1221,31,0,1200,33,0,1200,34,0,1200,36,0,1200*6A
$PAIRSAT,4,50,1,0,200,2,0,200,3,0,200,4,0,200,5,0,200,6,0,201,7,0,200,8,0,201,9,0,201,10,0,200,11,0,200,12,0,200,13,0,201,14,0,200,15,0,200,16,0,201,19,0,621,20,0,621,21,0,600,22,0,621,23,0,600,24,0,600,25,0,600,26,0,600,27,0,600,28,0,600,29,0,621,30,0,600,31,0,200,32,0,600,33,0,600,34,0,600,35,0,621,36,0,621,37,0,621,38,0,621,39,0,621,40,0,600,41,0,600,42,0,600,43,0,600,44,0,600,45,0,600,46,0,621,56,0,200,57,0,200,58,0,200,59,0,600,60,0,600,61,0,600*41
$PAIRDGP,10,5,10,12,15,18,23,24,25,28,32*45
$GNGGA,115345.200,2500.8265414,N,12132.4567326,E,4,61,0.45,16.200,M,15.25,M,20,3335*7D
$GNRMC,115345.200,A,2500.8265414,N,12132.4567326,E,0.01,266.26,260623,,,R,V*13
$GPHDT,226.549,T*3B
$GNACCURACY,2.4*10
$GNGGA,115345.300,2500.8265416,N,12132.4567365,E,4,61,0.45,16.214,M,15.25,M,20,3335*7C
$GNRMC,115345.300,A,2500.8265416,N,12132.4567365,E,0.01,266.26,260623,,,R,V*17
$GPHDT,,T*1B
$GNACCURACY,2.4*10
$GNGGA,115345.400,2500.8265395,N,12132.4567352,E,4,61,0.45,16.230,M,15.25,M,20,3335*75
$GNRMC,115345.400,A,2500.8265395,N,12132.4567352,E,0.01,266.26,260623,,,R,V*18
$GPHDT,226.908,T*32
$GNACCURACY,2.4*10
$GNGGA,115345.500,2500.8265411,N,12132.4567343,E,4,61,0.45,16.200,M,15.25,M,20,3335*7C
$GNRMC,115345.500,A,2500.8265411,N,12132.4567343,E,0.01,266.26,260623,,,R,V*12
$GPHDT,,T*1B
$GNACCURACY,2.4*10
$GNGGA,115345.600,2500.8265434,N,12132.4567340,E,4,61,0.45,16.211,M,15.25,M,20,3335*7B
$GNRMC,115345.600,A,2500.8265434,N,12132.4567340,E,0.01,266.26,260623,,,R,V*15
$GPHDT,226.181,T*3B
$GNACCURACY,2.4*10
$GNGGA,115345.700,2500.8265427,N,12132.4567347,E,4,61,0.45,16.214,M,15.25,M,20,3335*7A
$GNRMC,115345.700,A,2500.8265427,N,12132.4567347,E,0.01,266.26,260623,,,R,V*11
$GPHDT,,T*1B
$GNACCURACY,2.4*10
$GNGGA,115345.800,2500.8265453,N,12132.4567337,E,4,61,0.45,16.204,M,15.25,M,20,3335*70
$GNRMC,115345.800,A,2500.8265453,N,12132.4567337,E,0.01,266.26,260623,,,R,V*1A
$GPHDT,226.904,T*3E
$GNACCURACY,2.4*10
$GNGGA,115345.900,2500.8265431,N,12132.4567281,E,4,61,0.45,16.205,M,15.25,M,20,3335*78
$GNRMC,115345.900,A,2500.8265431,N,12132.4567281,E,0.01,266.26,260623,,,R,V*13
$GPHDT,,T*1B
$GNACCURACY,2.4*10
$GNGGA,115346.000,2500.8265428,N,12132.4567387,E,4,59,0.47,16.253,M,15.25,M,21,3335*76
$GNRMC,115346.000,A,2500.8265428,N,12132.4567387,E,0.01,266.26,260623,,,R,V*16
$GPHDT,226.121,T*31
$GNACCURACY,2.4*10
$GNGGA,115346.100,2500.8265417,N,12132.4567320,E,4,60,0.47,16.219,M,15.25,M,21,3335*72
$GNRMC,115346.100,A,2500.8265417,N,12132.4567320,E,0.01,266.26,260623,,,R,V*16
$GPHDT,,T*1B
$GNGSA,A,3,196,23,24,199,18,194,195,12,10,25,32,,0.85,0.47,0.71,1*0D
$GNGSA,A,3,73,80,86,71,85,,,,,,,,0.85,0.47,0.71,2*03
$GNGSA,A,3,13,07,08,26,30,15,02,,,,,,0.85,0.47,0.71,3*07
$GNGSA,A,3,08,38,13,39,16,06,46,19,09,36,22,35,0.85,0.47,0.71,4*06
$GNGSA,A,3,37,20,,,,,,,,,,,0.85,0.47,0.71,4*0A
$GPGSV,4,1,16,196,76,074,35,23,62,347,34,24,61,034,25,199,60,167,35,1*6E
$GPGSV,4,2,16,18,50,226,43,41,38,242,44,194,35,136,39,15,31,059,,1*5C
$GPGSV,4,3,16,195,29,179,35,12,28,131,39,10,28,323,46,25,18,170,28,1*52
$GPGSV,4,4,16,32,15,280,34,05,11,127,17,28,04,222,,13,02,066,,1*60
$GPGSV,3,1,10,196,76,074,37,23,62,347,25,24,61,034,29,199,60,167,47,8*6D
$GPGSV,3,2,10,18,50,226,47,194,35,136,43,195,29,179,42,10,28,323,43,8*6C
$GPGSV,3,3,10,25,18,170,19,32,15,280,23,8*62
$GLGSV,2,1,07,73,53,151,43,80,44,055,27,86,27,286,25,71,27,327,45,1*75
$GLGSV,2,2,07,85,25,233,19,69,08,087,19,79,01,026,,1*44
$GAGSV,2,1,08,13,47,220,42,07,46,317,46,08,43,037,24,26,36,295,33,7*7F
$GAGSV,2,2,08,30,34,136,38,15,13,173,27,27,08,184,,03,06,073,18,7*7E
$GAGSV,2,1,07,13,47,220,42,07,46,317,46,08,43,037,31,26,36,295,28,1*78
$GAGSV,2,2,07,30,34,136,40,02,27,074,28,03,06,073,13,1*4B
$GBGSV,4,1,16,08,85,341,39,38,80,159,43,13,72,321,33,39,68,299,45,1*74
$GBGSV,4,2,16,16,65,274,44,06,64,269,41,46,62,086,18,19,54,000,21,1*75
$GBGSV,4,3,16,09,50,249,40,36,47,183,43,20,39,078,,22,18,310,31,1*74
$GBGSV,4,4,16,35,17,257,38,37,15,041,39,29,12,204,16,07,06,190,,1*75
$GBGSV,3,1,09,38,80,159,44,39,68,299,44,46,62,086,27,19,54,000,32,4*75
$GBGSV,3,2,09,36,47,183,45,20,39,078,24,22,18,310,25,35,17,257,32,4*7A
$GBGSV,3,3,09,37,15,041,35,4*49
$GNACCURACY,2.4*10
$PAIRSAT,1,35,1,0,200,2,0,200,3,0,200,4,0,200,5,0,201,6,0,200,7,0,200,8,0,200,9,0,200,10,0,221,11,0,200,12,0,201,13,0,201,14,0,200,15,0,201,16,0,200,17,0,200,18,0,221,19,0,200,20,0,200,21,0,200,23,0,221,24,0,221,25,0,220,26,0,200,27,0,200,28,0,200,29,0,200,30,0,200,31,0,200,32,0,221,194,0,621,195,0,621,196,0,620,199,0,621*6A
$PAIRSAT,2,24,65,0,200,66,0,200,67,0,200,68,0,200,69,0,200,70,0,200,71,0,201,72,0,200,73,0,201,74,0,200,75,0,200,76,0,200,77,0,200,78,0,200,79,0,201,80,0,201,81,0,200,82,0,200,83,0,200,84,0,200,85,0,201,86,0,201,87,0,200,88,0,200*7A
$PAIRSAT,3,23,2,0,1221,3,0,1221,4,0,1200,5,0,200,7,0,1221,8,0,1221,9,0,1200,10,0,1200,11,0,1200,12,0,1200,13,0,1221,15,0,1221,19,0,1200,21,0,1200,24,0,1200,25,0,1200,26,0,1221,27,0,1200,30,0,1221,31,0,1200,33,0,1200,34,0,1200,36,0,1200*6A
$PAIRSAT,4,50,1,0,200,2,0,200,3,0,200,4,0,200,5,0,200,6,0,201,7,0,200,8,0,201,9,0,201,10,0,200,11,0,200,12,0,200,13,0,201,14,0,200,15,0,200,16,0,201,19,0,621,20,0,621,21,0,600,22,0,621,23,0,600,24,0,600,25,0,600,26,0,600,27,0,600,28,0,600,29,0,621,30,0,600,31,0,200,32,0,600,33,0,600,34,0,600,35,0,621,36,0,621,37,0,621,38,0,621,39,0,621,40,0,600,41,0,600,42,0,600,43,0,600,44,0,600,45,0,600,46,0,621,56,0,200,57,0,200,58,0,200,59,0,600,60,0,600,61,0,600*41
$PAIRDGP,10,5,10,12,15,18,23,24,25,28,32*45
$GNGGA,115346.200,2500.8265413,N,12132.4567323,E,4,60,0.47,16.224,M,15.25,M,21,3335*78
$GNRMC,115346.200,A,2500.8265413,N,12132.4567323,E,0.01,266.26,260623,,,R,V*12
$GPHDT,226.387,T*3F
$GNACCURACY,2.4*10
$GNGGA,115346.300,2500.8265397,N,12132.4567333,E,4,59,0.47,16.215,M,15.25,M,21,3335*7B
$GNRMC,115346.300,A,2500.8265397,N,12132.4567333,E,0.01,266.26,260623,,,R,V*19
$GPHDT,,T*1B
$GNACCURACY,2.6*12
$GNGGA,115346.400,2500.8265402,N,12132.4567322,E,4,57,0.47,16.233,M,15.25,M,21,3335*7D
$GNRMC,115346.400,A,2500.8265402,N,12132.4567322,E,0.01,266.26,260623,,,R,V*15
$GPHDT,226.649,T*38
$GNACCURACY,2.6*12
$GNGGA,115346.500,2500.8265397,N,12132.4567363,E,4,57,0.47,16.252,M,15.25,M,21,3335*75
$GNRMC,115346.500,A,2500.8265397,N,12132.4567363,E,0.01,266.26,260623,,,R,V*1A
$GPHDT,,T*1B
$GNACCURACY,2.7*13
$GNGGA,115346.600,2500.8265382,N,12132.4567310,E,4,57,0.47,16.236,M,15.25,M,21,3335*74
$GNRMC,115346.600,A,2500.8265382,N,12132.4567310,E,0.01,266.26,260623,,,R,V*19
$GPHDT,226.515,T*32
