$FW : RTK35X,V1.1X0314AS,Lib20210517,1*54
$Tool : LOCOSYS , GNSS Firebird , v1.0.0.19*39
$---------------------------------------------------*2D
$GPHDT,317.045,T*31
$GNACCURACY,2.4*10
$GNGGA,115304.700,2500.8265452,N,12132.4567452,E,4,61,0.45,15.977,M,15.25,M,3,3335*42
$GNRMC,115304.700,A,2500.8265452,N,12132.4567452,E,0.02,266.26,260623,,,R,V*16
$GPHDT,,T*1B
$GNACCURACY,2.4*10
$GNGGA,115304.800,2500.8265461,N,12132.4567445,E,4,61,0.45,15.983,M,15.25,M,3,3335*40
$GNRMC,115304.800,A,2500.8265461,N,12132.4567445,E,0.01,266.26,260623,,,R,V*1C
$GPHDT,316.439,T*3F
$GNACCURACY,2.4*10
$GNGGA,115304.900,2500.8265467,N,12132.4567440,E,4,62,0.45,15.982,M,15.25,M,3,3335*40
$GNRMC,115304.900,A,2500.8265467,N,12132.4567440,E,0.01,266.26,260623,,,R,V*1E
$GPHDT,,T*1B
$GNACCURACY,2.4*10
$GNGGA,115305.000,2500.8265466,N,12132.4567433,E,4,61,0.45,15.985,M,15.25,M,4,3335*4E
$GNRMC,115305.000,A,2500.8265466,N,12132.4567433,E,0.01,266.26,260623,,,R,V*13
$GPHDT,316.388,T*32
$GNACCURACY,2.4*10
$GNGGA,115305.100,2500.8265456,N,12132.4567456,E,4,62,0.45,15.986,M,15.25,M,4,3335*4F
$GNRMC,115305.100,A,2500.8265456,N,12132.4567456,E,0.01,266.26,260623,,,R,V*12
$GPHDT,,T*1B
$GNGSA,A,3,196,23,24,199,18,194,15,195,12,10,25,32,0.72,0.45,0.56,1*06
$GNGSA,A,3,73,80,86,71,85,,,,,,,,0.72,0.45,0.56,2*0C
$GNGSA,A,3,13,07,08,26,30,02,15,,,,,,0.72,0.45,0.56,3*08
$GNGSA,A,3,08,38,13,39,16,06,46,19,09,36,22,35,0.72,0.45,0.56,4*09
$GNGSA,A,3,37,29,20,,,,,,,,,,0.72,0.45,0.56,4*0E
$GPGSV,4,1,16,196,76,074,35,23,62,347,37,24,61,034,35,199,60,167,35,1*6C
$GPGSV,4,2,16,18,51,227,43,41,38,242,39,194,35,136,41,15,31,059,31,1*5B
$GPGSV,4,3,16,195,29,179,36,12,28,131,42,10,27,323,45,25,18,170,25,1*5C
$GPGSV,4,4,16,32,15,279,34,05,11,127,17,28,04,222,,13,02,065,,1*65
$GPGSV,3,1,10,196,76,074,39,23,62,347,25,24,61,034,18,199,60,167,46,8*60
$GPGSV,3,2,10,18,51,227,47,194,35,136,41,195,29,179,38,10,27,323,39,8*61
$GPGSV,3,3,10,25,18,170,28,32,15,279,35,8*61
$GLGSV,3,1,09,73,52,151,44,80,45,055,31,86,27,286,33,71,27,327,41,1*79
$GLGSV,3,2,09,85,25,233,29,74,15,185,,69,08,087,16,87,01,333,,1*7A
$GLGSV,3,3,09,79,01,026,,1*4A
$GAGSV,3,1,09,13,47,220,40,07,46,316,44,08,43,037,29,26,36,296,33,7*70
$GAGSV,3,2,09,30,34,136,38,02,27,074,26,15,13,173,21,27,08,184,,7*70
$GAGSV,3,3,09,03,06,072,15,7*4E
$GAGSV,2,1,07,13,47,220,45,07,46,316,45,08,43,037,29,26,36,296,36,1*78
$GAGSV,2,2,07,30,34,136,41,02,27,074,18,15,13,173,20,1*4B
$GBGSV,5,1,19,08,85,342,41,38,81,158,44,13,72,321,35,39,68,298,43,1*70
$GBGSV,5,2,19,16,65,273,42,06,64,269,42,46,62,087,23,19,54,000,27,1*76
$GBGSV,5,3,19,09,50,249,40,36,46,183,45,31,40,217,,20,39,077,,1*79
$GBGSV,5,4,19,22,17,309,32,35,17,258,35,37,15,042,37,29,12,204,20,1*75
$GBGSV,5,5,19,07,06,190,,44,03,302,,10,02,200,,1*44
$GBGSV,2,1,08,38,81,158,43,39,68,298,40,46,62,087,28,19,54,000,36,4*7D
$GBGSV,2,2,08,36,46,183,45,20,39,077,15,35,17,258,39,37,15,042,30,4*7B
$GNACCURACY,2.4*10
$PAIRSAT,1,35,1,0,200,2,0,200,3,0,200,4,0,200,5,0,201,6,0,200,7,0,200,8,0,200,9,0,200,10,0,221,11,0,200,12,0,201,13,0,201,14,0,200,15,0,201,16,0,200,17,0,200,18,0,221,19,0,200,20,0,200,21,0,200,23,0,221,24,0,221,25,0,220,26,0,200,27,0,200,28,0,200,29,0,200,30,0,200,31,0,200,32,0,221,194,0,621,195,0,621,196,0,620,199,0,621*6A
$PAIRSAT,2,24,65,0,200,66,0,200,67,0,200,68,0,200,69,0,200,70,0,200,71,0,201,72,0,200,73,0,201,74,0,200,75,0,200,76,0,200,77,0,200,78,0,200,79,0,201,80,0,201,81,0,200,82,0,200,83,0,200,84,0,200,85,0,201,86,0,201,87,0,200,88,0,200*7A
$PAIRSAT,3,23,2,0,1221,3,0,1221,4,0,1200,5,0,200,7,0,1221,8,0,1221,9,0,1200,10,0,1200,11,0,1200,12,0,1200,13,0,1221,15,0,1221,19,0,1200,21,0,1200,24,0,1200,25,0,1200,26,0,1221,27,0,1200,30,0,1221,31,0,1200,33,0,1200,34,0,1200,36,0,1200*6A
$PAIRSAT,4,50,1,0,200,2,0,200,3,0,200,4,0,200,5,0,200,6,0,201,7,0,200,8,0,201,9,0,201,10,0,200,11,0,200,12,0,200,13,0,201,14,0,200,15,0,200,16,0,201,19,0,621,20,0,621,21,0,600,22,0,621,23,0,600,24,0,600,25,0,600,26,0,600,27,0,600,28,0,600,29,0,621,30,0,600,31,0,200,32,0,600,33,0,600,34,0,600,35,0,621,36,0,621,37,0,621,38,0,621,39,0,621,40,0,600,41,0,600,42,0,600,43,0,600,44,0,600,45,0,600,46,0,621,56,0,200,57,0,200,58,0,200,59,0,600,60,0,600,61,0,600*41
$PAIRDGP,10,5,10,12,15,18,23,24,25,28,32*45
$GNGGA,115305.200,2500.8265480,N,12132.4567456,E,4,62,0.45,15.996,M,15.25,M,4,3335*46
$GNRMC,115305.200,A,2500.8265480,N,12132.4567456,E,0.00,266.26,260623,,,R,V*1B
$GPHDT,316.659,T*3B
$GNACCURACY,2.3*17
$GNGGA,115305.300,2500.8265465,N,12132.4567438,E,4,63,0.45,15.984,M,15.25,M,4,3335*46
$GNRMC,115305.300,A,2500.8265465,N,12132.4567438,E,0.01,266.26,260623,,,R,V*18
$GPHDT,,T*1B
$GNACCURACY,2.4*10
$GNGGA,115305.400,2500.8265449,N,12132.4567468,E,4,61,0.46,15.990,M,15.25,M,1,3335*4B
$GNRMC,115305.400,A,2500.8265449,N,12132.4567468,E,0.00,266.26,260623,,,R,V*15
$GPHDT,316.360,T*34
$GNACCURACY,2.4*10
$GNGGA,115305.500,2500.8265453,N,12132.4567476,E,4,60,0.47,15.978,M,15.25,M,1,3335*48
$GNRMC,115305.500,A,2500.8265453,N,12132.4567476,E,0.01,266.26,260623,,,R,V*11
$GPHDT,,T*1B
$GNACCURACY,2.4*10
$GNGGA,115305.600,2500.8265464,N,12132.4567451,E,4,60,0.47,15.992,M,15.25,M,1,3335*4E
$GNRMC,115305.600,A,2500.8265464,N,12132.4567451,E,0.01,266.26,260623,,,R,V*13
$GPHDT,316.502,T*36
$GNACCURACY,2.3*17
$GNGGA,115305.700,2500.8265447,N,12132.4567440,E,4,61,0.45,16.002,M,15.25,M,1,3335*4E
$GNRMC,115305.700,A,2500.8265447,N,12132.4567440,E,0.02,266.26,260623,,,R,V*10
$GPHDT,,T*1B
$GNACCURACY,2.3*17
$GNGGA,115305.800,2500.8265448,N,12132.4567505,E,4,61,0.45,15.976,M,15.25,M,1,3335*47
$GNRMC,115305.800,A,2500.8265448,N,12132.4567505,E,0.01,266.26,260623,,,R,V*13
$GPHDT,316.770,T*31
$GNACCURACY,2.3*17
$GNGGA,115305.900,2500.8265451,N,12132.4567472,E,4,61,0.45,15.983,M,15.25,M,0,3335*44
$GNRMC,115305.900,A,2500.8265451,N,12132.4567472,E,0.01,266.26,260623,,,R,V*1B
$GPHDT,,T*1B
$GNACCURACY,2.3*17
$GNGGA,115306.000,2500.8265466,N,12132.4567465,E,4,62,0.45,15.979,M,15.25,M,1,3335*4B
$GNRMC,115306.000,A,2500.8265466,N,12132.4567465,E,0.02,266.26,260623,,,R,V*10
$GPHDT,316.763,T*33
$GNACCURACY,2.3*17
$GNGGA,115306.100,2500.8265453,N,12132.4567435,E,4,63,0.45,16.002,M,15.25,M,1,3335*4E
$GNRMC,115306.100,A,2500.8265453,N,12132.4567435,E,0.01,266.26,260623,,,R,V*11
$GPHDT,,T*1B
$GNGSA,A,3,196,23,24,199,18,194,15,195,12,10,25,32,0.72,0.45,0.56,1*06
$GNGSA,A,3,73,80,86,71,85,,,,,,,,0.72,0.45,0.56,2*0C
$GNGSA,A,3,13,07,08,26,30,02,15,,,,,,0.72,0.45,0.56,3*08
$GNGSA,A,3,08,38,13,39,16,06,46,19,09,36,35,22,0.72,0.45,0.56,4*09
$GNGSA,A,3,37,29,20,,,,,,,,,,0.72,0.45,0.56,4*0E
$GPGSV,4,1,16,196,76,074,35,23,62,347,37,24,61,034,35,199,60,167,35,1*6C
$GPGSV,4,2,16,18,51,227,43,41,38,242,39,194,35,136,41,15,31,059,30,1*5A
$GPGSV,4,3,16,195,29,179,35,12,28,131,42,10,27,323,45,25,18,170,26,1*5C
$GPGSV,4,4,16,32,15,279,32,05,11,127,18,28,04,222,,13,02,065,,1*6C
$GPGSV,3,1,10,196,76,074,39,23,62,347,27,24,61,034,19,199,60,167,46,8*63
$GPGSV,3,2,10,18,51,227,47,194,35,136,42,195,29,179,40,10,27,323,39,8*6D
$GPGSV,3,3,10,25,18,170,26,32,15,279,35,8*6F
$GLGSV,3,1,09,73,52,151,44,80,45,055,31,86,27,286,32,71,27,327,41,1*78
$GLGSV,3,2,09,85,25,233,29,74,15,185,,69,08,087,17,87,01,333,,1*7B
$GLGSV,3,3,09,79,01,026,,1*4A
$GAGSV,3,1,09,13,47,220,41,07,46,316,44,08,43,037,29,26,36,296,32,7*70
$GAGSV,3,2,09,30,34,136,38,02,27,074,23,15,13,173,22,27,08,184,,7*76
$GAGSV,3,3,09,03,06,072,14,7*4F
$GAGSV,2,1,07,13,47,220,44,07,46,316,45,08,43,037,30,26,36,296,35,1*72
$GAGSV,2,2,07,30,34,136,41,02,27,074,19,15,13,173,18,1*41
$GBGSV,4,1,16,08,85,342,41,38,81,158,45,13,72,321,35,39,68,298,44,1*78
$GBGSV,4,2,16,16,65,273,42,06,64,269,42,46,62,087,23,19,54,000,27,1*78
$GBGSV,4,3,16,09,50,249,40,36,46,183,44,20,39,077,,35,17,258,39,1*71
$GBGSV,4,4,16,22,17,309,32,37,15,042,36,29,12,204,20,44,03,302,,1*71
$GBGSV,3,1,09,38,81,158,41,39,68,298,39,46,62,087,27,19,54,000,36,4*7E
$GBGSV,3,2,09,36,46,183,45,20,39,077,23,22,17,309,24,35,17,258,39,4*71
$GBGSV,3,3,09,37,15,042,32,4*4D
$GNACCURACY,2.3*17
$PAIRSAT,1,35,1,0,200,2,0,200,3,0,200,4,0,200,5,0,201,6,0,200,7,0,200,8,0,200,9,0,200,10,0,221,11,0,200,12,0,201,13,0,201,14,0,200,15,0,201,16,0,200,17,0,200,18,0,221,19,0,200,20,0,200,21,0,200,23,0,221,24,0,221,25,0,220,26,0,200,27,0,200,28,0,200,29,0,200,30,0,200,31,0,200,32,0,221,194,0,621,195,0,621,196,0,620,199,0,621*6A
$PAIRSAT,2,24,65,0,200,66,0,200,67,0,200,68,0,200,69,0,200,70,0,200,71,0,201,72,0,200,73,0,201,74,0,200,75,0,200,76,0,200,77,0,200,78,0,200,79,0,201,80,0,201,81,0,200,82,0,200,83,0,200,84,0,200,85,0,201,86,0,201,87,0,200,88,0,200*7A
$PAIRSAT,3,23,2,0,1221,3,0,1221,4,0,1200,5,0,200,7,0,1221,8,0,1221,9,0,1200,10,0,1200,11,0,1200,12,0,1200,13,0,1221,15,0,1221,19,0,1200,21,0,1200,24,0,1200,25,0,1200,26,0,1221,27,0,1200,30,0,1221,31,0,1200,33,0,1200,34,0,1200,36,0,1200*6A
$PAIRSAT,4,50,1,0,200,2,0,200,3,0,200,4,0,200,5,0,200,6,0,201,7,0,200,8,0,201,9,0,201,10,0,200,11,0,200,12,0,200,13,0,201,14,0,200,15,0,200,16,0,201,19,0,621,20,0,621,21,0,600,22,0,621,23,0,600,24,0,600,25,0,600,26,0,600,27,0,600,28,0,600,29,0,621,30,0,600,31,0,200,32,0,600,33,0,600,34,0,600,35,0,621,36,0,621,37,0,621,38,0,621,39,0,621,40,0,600,41,0,600,42,0,600,43,0,600,44,0,600,45,0,600,46,0,621,56,0,200,57,0,200,58,0,200,59,0,600,60,0,600,61,0,600*41
$PAIRDGP,10,5,10,12,15,18,23,24,25,28,32*45
$GNGGA,115306.200,2500.8265455,N,12132.4567442,E,4,63,0.45,16.003,M,15.25,M,1,3335*4A
$GNRMC,115306.200,A,2500.8265455,N,12132.4567442,E,0.01,266.26,260623,,,R,V*14
$GPHDT,316.631,T*35
$GNACCURACY,2.3*17
$GNGGA,115306.300,2500.8265450,N,12132.4567421,E,4,62,0.45,16.001,M,15.25,M,1,3335*48
$GNRMC,115306.300,A,2500.8265450,N,12132.4567421,E,0.01,266.26,260623,,,R,V*15
$GPHDT,,T*1B
$GNACCURACY,2.3*17
$GNGGA,115306.400,2500.8265451,N,12132.4567423,E,4,62,0.45,15.990,M,15.25,M,1,3335*4E
$GNRMC,115306.400,A,2500.8265451,N,12132.4567423,E,0.01,266.26,260623,,,R,V*11
$GPHDT,316.756,T*35
$GNACCURACY,2.3*17
$GNGGA,115306.500,2500.8265460,N,12132.4567427,E,4,62,0.45,15.992,M,15.25,M,1,3335*4B
$GNRMC,115306.500,A,2500.8265460,N,12132.4567427,E,0.01,266.26,260623,,,R,V*16
$GPHDT,,T*1B
$GNACCURACY,2.3*17
$GNGGA,115306.600,2500.8265456,N,12132.4567430,E,4,63,0.45,16.002,M,15.25,M,1,3335*49
$GNRMC,115306.600,A,2500.8265456,N,12132.4567430,E,0.01,266.26,260623,,,R,V*16
$GPHDT,316.621,T*34
$GNACCURACY,2.3*17
$GNGGA,115306.700,2500.8265454,N,12132.4567420,E,4,63,0.45,16.003,M,15.25,M,1,3335*4A
$GNRMC,115306.700,A,2500.8265454,N,12132.4567420,E,0.01,266.26,260623,,,R,V*14
$GPHDT,,T*1B
$GNACCURACY,2.3*17
$GNGGA,115306.800,2500.8265486,N,12132.4567433,E,4,62,0.45,15.993,M,15.25,M,1,3335*4A
$GNRMC,115306.800,A,2500.8265486,N,12132.4567433,E,0.01,266.26,260623,,,R,V*16
$GPHDT,316.399,T*32
$GNACCURACY,2.3*17
$GNGGA,115306.900,2500.8265465,N,12132.4567444,E,4,62,0.45,15.996,M,15.25,M,1,3335*43
$GNRMC,115306.900,A,2500.8265465,N,12132.4567444,E,0.02,266.26,260623,,,R,V*19
$GPHDT,,T*1B
$GNACCURACY,2.3*17
$GNGGA,115307.000,2500.8265466,N,12132.4567424,E,4,62,0.45,16.000,M,15.25,M,2,3335*48
$GNRMC,115307.000,A,2500.8265466,N,12132.4567424,E,0.02,266.26,260623,,,R,V*14
$GPHDT,316.828,T*33
$GNACCURACY,2.3*17
$GNGGA,115307.100,2500.8265449,N,12132.4567424,E,4,62,0.45,16.007,M,15.25,M,2,3335*43
$GNRMC,115307.100,A,2500.8265449,N,12132.4567424,E,0.01,266.26,260623,,,R,V*1B
$GPHDT,,T*1B
$GNGSA,A,3,196,23,24,199,18,194,195,12,10,25,32,,0.73,0.45,0.57,1*02
$GNGSA,A,3,73,80,86,71,85,,,,,,,,0.73,0.45,0.57,2*0C
$GNGSA,A,3,13,07,08,26,30,02,15,,,,,,0.73,0.45,0.57,3*08
$GNGSA,A,3,08,38,13,39,16,06,46,19,09,36,22,35,0.73,0.45,0.57,4*09
$GNGSA,A,3,37,29,20,,,,,,,,,,0.73,0.45,0.57,4*0E
$GPGSV,4,1,16,196,76,074,34,23,62,347,37,24,61,034,34,199,60,167,35,1*6C
$GPGSV,4,2,16,18,51,227,43,41,38,242,40,194,35,136,41,15,31,059,32,1*56
$GPGSV,4,3,16,195,29,179,33,12,28,131,42,10,27,323,45,25,18,170,25,1*59
$GPGSV,4,4,16,32,15,279,34,05,11,127,18,28,04,222,,13,02,065,,1*6A
$GPGSV,3,1,10,196,76,074,39,23,62,347,31,24,61,034,23,199,60,167,46,8*6D
$GPGSV,3,2,10,18,51,227,47,194,35,136,42,195,29,179,41,10,27,323,38,8*6D
$GPGSV,3,3,10,25,18,170,29,32,15,279,35,8*60
$GLGSV,2,1,07,73,52,151,44,80,45,055,30,86,27,286,32,71,27,327,41,1*76
$GLGSV,2,2,07,85,25,233,28,69,08,087,17,79,01,026,,1*48
$GAGSV,3,1,09,13,47,220,41,07,46,316,44,08,43,037,30,26,36,296,33,7*79
$GAGSV,3,2,09,30,34,136,38,02,27,074,23,15,13,173,24,27,08,184,,7*70
$GAGSV,3,3,09,03,06,072,14,7*4F
$GAGSV,2,1,06,13,47,220,44,07,46,316,45,08,43,037,30,26,36,296,36,1*70
$GAGSV,2,2,06,30,34,136,40,02,27,074,23,1*72
$GBGSV,4,1,15,08,85,342,41,38,81,158,45,13,72,321,33,39,68,298,44,1*7D
$GBGSV,4,2,15,16,65,273,43,06,64,269,42,46,62,087,22,19,54,000,26,1*7A
$GBGSV,4,3,15,09,50,249,40,36,47,183,44,20,39,077,,22,17,309,31,1*78
$GBGSV,4,4,15,35,17,258,39,37,15,042,36,29,12,204,20,1*48
$GBGSV,3,1,09,38,81,158,42,39,68,298,39,46,62,087,27,19,54,000,36,4*7D
$GBGSV,3,2,09,36,47,183,46,20,39,077,25,22,17,309,24,35,17,258,40,4*7B
$GBGSV,3,3,09,37,15,042,28,4*46
$GNACCURACY,2.3*17
$PAIRSAT,1,35,1,0,200,2,0,200,3,0,200,4,0,200,5,0,201,6,0,200,7,0,200,8,0,200,9,0,200,10,0,221,11,0,200,12,0,201,13,0,201,14,0,200,15,0,201,16,0,200,17,0,200,18,0,221,19,0,200,20,0,200,21,0,200,23,0,221,24,0,221,25,0,220,26,0,200,27,0,200,28,0,200,29,0,200,30,0,200,31,0,200,32,0,221,194,0,621,195,0,621,196,0,620,199,0,621*6A
$PAIRSAT,2,24,65,0,200,66,0,200,67,0,200,68,0,200,69,0,200,70,0,200,71,0,201,72,0,200,73,0,201,74,0,200,75,0,200,76,0,200,77,0,200,78,0,200,79,0,201,80,0,201,81,0,200,82,0,200,83,0,200,84,0,200,85,0,201,86,0,201,87,0,200,88,0,200*7A
$PAIRSAT,3,23,2,0,1221,3,0,1221,4,0,1200,5,0,200,7,0,1221,8,0,1221,9,0,1200,10,0,1200,11,0,1200,12,0,1200,13,0,1221,15,0,1221,19,0,1200,21,0,1200,24,0,1200,25,0,1200,26,0,1221,27,0,1200,30,0,1221,31,0,1200,33,0,1200,34,0,1200,36,0,1200*6A
$PAIRSAT,4,50,1,0,200,2,0,200,3,0,200,4,0,200,5,0,200,6,0,201,7,0,200,8,0,201,9,0,201,10,0,200,11,0,200,12,0,200,13,0,201,14,0,200,15,0,200,16,0,201,19,0,621,20,0,621,21,0,600,22,0,621,23,0,600,24,0,600,25,0,600,26,0,600,27,0,600,28,0,600,29,0,621,30,0,600,31,0,200,32,0,600,33,0,600,34,0,600,35,0,621,36,0,621,37,0,621,38,0,621,39,0,621,40,0,600,41,0,600,42,0,600,43,0,600,44,0,600,45,0,600,46,0,621,56,0,200,57,0,200,58,0,200,59,0,600,60,0,600,61,0,600*41
$PAIRDGP,10,5,10,12,15,18,23,24,25,28,32*45
$GNGGA,115307.200,2500.8265477,N,12132.4567438,E,4,61,0.45,16.001,M,15.25,M,2,3335*45
$GNRMC,115307.200,A,2500.8265477,N,12132.4567438,E,0.01,266.26,260623,,,R,V*18
$GPHDT,316.725,T*31
$GNACCURACY,2.3*17
$GNGGA,115307.300,2500.8265482,N,12132.4567450,E,4,61,0.45,16.010,M,15.25,M,2,3335*40
$GNRMC,115307.300,A,2500.8265482,N,12132.4567450,E,0.01,266.26,260623,,,R,V*1D
$GPHDT,,T*1B
$GNACCURACY,2.3*17
$GNGGA,115307.400,2500.8265457,N,12132.4567447,E,4,61,0.45,16.011,M,15.25,M,2,3335*48
$GNRMC,115307.400,A,2500.8265457,N,12132.4567447,E,0.01,266.26,260623,,,R,V*14
$GPHDT,316.559,T*38
$GNACCURACY,2.3*17
$GNGGA,115307.500,2500.8265473,N,12132.4567431,E,4,61,0.45,16.000,M,15.25,M,2,3335*4E
$GNRMC,115307.500,A,2500.8265473,N,12132.4567431,E,0.02,266.26,260623,,,R,V*11
$GPHDT,,T*1B
$GNACCURACY,2.3*17
$GNGGA,115307.600,2500.8265451,N,12132.4567427,E,4,61,0.45,16.009,M,15.25,M,2,3335*43
$GNRMC,115307.600,A,2500.8265451,N,12132.4567427,E,0.01,266.26,260623,,,R,V*16
$GPHDT,316.641,T*32
$GNACCURACY,2.3*17
$GNGGA,115307.700,2500.8265495,N,12132.4567470,E,4,60,0.45,16.008,M,15.25,M,2,3335*48
$GNRMC,115307.700,A,2500.8265495,N,12132.4567470,E,0.01,266.26,260623,,,R,V*1D
$GPHDT,,T*1B
$GNACCURACY,2.3*17
$GNGGA,115307.800,2500.8265527,N,12132.4567480,E,4,60,0.45,15.977,M,15.25,M,2,3335*42
$GNRMC,115307.800,A,2500.8265527,N,12132.4567480,E,0.01,266.26,260623,,,R,V*15
$GPHDT,316.654,T*36
$GNACCURACY,2.3*17
$GNGGA,115307.900,2500.8265461,N,12132.4567456,E,4,60,0.45,16.006,M,15.25,M,2,3335*47
$GNRMC,115307.900,A,2500.8265461,N,12132.4567456,E,0.01,266.26,260623,,,R,V*1C
$GPHDT,,T*1B
$GNACCURACY,2.3*17
$GNGGA,115308.000,2500.8265481,N,12132.4567473,E,4,61,0.45,16.000,M,15.25,M,3,3335*4E
$GNRMC,115308.000,A,2500.8265481,N,12132.4567473,E,0.01,266.26,260623,,,R,V*13
$GPHDT,317.032,T*31
$GNACCURACY,2.4*10
$GNGGA,115308.100,2500.8265464,N,12132.4567443,E,4,61,0.45,16.006,M,15.25,M,3,3335*41
$GNRMC,115308.100,A,2500.8265464,N,12132.4567443,E,0.01,266.26,260623,,,R,V*1A
$GPHDT,,T*1B
$GNGSA,A,3,196,23,24,199,18,194,15,195,12,10,25,32,0.72,0.45,0.56,1*06
$GNGSA,A,3,73,80,71,86,85,,,,,,,,0.72,0.45,0.56,2*0C
$GNGSA,A,3,13,07,08,26,30,15,02,,,,,,0.72,0.45,0.56,3*08
$GNGSA,A,3,08,38,13,39,16,06,46,19,09,36,22,35,0.72,0.45,0.56,4*09
$GNGSA,A,3,37,29,20,,,,,,,,,,0.72,0.45,0.56,4*0E
$GPGSV,4,1,14,196,76,074,34,23,62,347,38,24,61,034,34,199,60,167,36,1*62
$GPGSV,4,2,14,18,51,227,43,41,38,242,41,194,35,136,41,15,31,059,32,1*55
$GPGSV,4,3,14,195,29,179,33,12,28,131,42,10,27,323,45,25,18,170,25,1*5B
$GPGSV,4,4,14,32,15,279,33,05,11,127,,1*69
$GPGSV,3,1,10,196,76,074,39,23,62,347,31,24,61,034,24,199,60,167,46,8*6A
$GPGSV,3,2,10,18,51,227,47,194,35,136,40,195,29,179,40,10,27,323,39,8*6F
$GPGSV,3,3,10,25,18,170,28,32,15,279,35,8*61
$GLGSV,2,1,07,73,52,151,43,80,45,055,30,71,27,327,41,86,27,286,32,1*71
$GLGSV,2,2,07,85,25,233,26,69,08,087,17,79,01,026,,1*46
$GAGSV,3,1,09,13,47,220,41,07,46,316,44,08,43,037,30,26,36,296,32,7*78
$GAGSV,3,2,09,30,34,136,38,02,27,074,,15,13,173,24,27,08,184,,7*71
$GAGSV,3,3,09,03,06,072,12,7*49
$GAGSV,2,1,06,13,47,220,44,07,46,316,46,08,43,037,31,26,36,296,36,1*72
$GAGSV,2,2,06,30,34,136,39,02,27,074,24,1*7B
$GBGSV,4,1,15,08,85,342,41,38,81,158,45,13,72,321,34,39,68,298,44,1*7A
$GBGSV,4,2,15,16,65,273,43,06,64,269,42,46,62,086,21,19,54,000,24,1*7A
$GBGSV,4,3,15,09,50,249,40,36,47,183,45,20,39,077,,22,17,309,31,1*79
$GBGSV,4,4,15,35,17,258,39,37,15,042,33,29,12,204,20,1*4D
$GBGSV,3,1,09,38,81,158,42,39,68,298,39,46,62,086,27,19,54,000,37,4*7D
$GBGSV,3,2,09,36,47,183,46,20,39,077,27,22,17,309,23,35,17,258,40,4*7E
$GBGSV,3,3,09,37,15,042,22,4*4C
$GNACCURACY,2.3*17
$PAIRSAT,1,35,1,0,200,2,0,200,3,0,200,4,0,200,5,0,201,6,0,200,7,0,200,8,0,200,9,0,200,10,0,221,11,0,200,12,0,201,13,0,201,14,0,200,15,0,201,16,0,200,17,0,200,18,0,221,19,0,200,20,0,200,21,0,200,23,0,221,24,0,221,25,0,220,26,0,200,27,0,200,28,0,200,29,0,200,30,0,200,31,0,200,32,0,221,194,0,621,195,0,621,196,0,620,199,0,621*6A
$PAIRSAT,2,24,65,0,200,66,0,200,67,0,200,68,0,200,69,0,200,70,0,200,71,0,201,72,0,200,73,0,201,74,0,200,75,0,200,76,0,200,77,0,200,78,0,200,79,0,201,80,0,201,81,0,200,82,0,200,83,0,200,84,0,200,85,0,201,86,0,201,87,0,200,88,0,200*7A
$PAIRSAT,3,23,2,0,1221,3,0,1221,4,0,1200,5,0,200,7,0,1221,8,0,1221,9,0,1200,10,0,1200,11,0,1200,12,0,1200,13,0,1221,15,0,1221,19,0,1200,21,0,1200,24,0,1200,25,0,1200,26,0,1221,27,0,1200,30,0,1221,31,0,1200,33,0,1200,34,0,1200,36,0,1200*6A
$PAIRSAT,4,50,1,0,200,2,0,200,3,0,200,4,0,200,5,0,200,6,0,201,7,0,200,8,0,201,9,0,201,10,0,200,11,0,200,12,0,200,13,0,201,14,0,200,15,0,200,16,0,201,19,0,621,20,0,621,21,0,600,22,0,621,23,0,600,24,0,600,25,0,600,26,0,600,27,0,600,28,0,600,29,0,621,30,0,600,31,0,200,32,0,600,33,0,600,34,0,600,35,0,621,36,0,621,37,0,621,38,0,621,39,0,621,40,0,600,41,0,600,42,0,600,43,0,600,44,0,600,45,0,600,46,0,621,56,0,200,57,0,200,58,0,200,59,0,600,60,0,600,61,0,600*41
$PAIRDGP,9,5,10,12,15,18,23,24,25,32*5B
$GNGGA,115308.200,2500.8265504,N,12132.4567465,E,4,60,0.45,15.993,M,15.25,M,3,3335*46
$GNRMC,115308.200,A,2500.8265504,N,12132.4567465,E,0.01,266.26,260623,,,R,V*1A
$GPHDT,316.829,T*32
$GNACCURACY,2.3*17
$GNGGA,115308.300,2500.8265487,N,12132.4567467,E,4,59,0.45,15.995,M,15.25,M,3,3335*43
$GNRMC,115308.300,A,2500.8265487,N,12132.4567467,E,0.01,266.26,260623,,,R,V*13
$GPHDT,,T*1B
$GNACCURACY,2.3*17
$GNGGA,115308.400,2500.8265493,N,12132.4567465,E,4,59,0.45,16.021,M,15.25,M,3,3335*46
$GNRMC,115308.400,A,2500.8265493,N,12132.4567465,E,0.01,266.26,260623,,,R,V*13
$GPHDT,316.894,T*34
$GNACCURACY,2.3*17
$GNGGA,115308.500,2500.8265482,N,12132.4567455,E,4,59,0.45,16.016,M,15.25,M,3,3335*40
$GNRMC,115308.500,A,2500.8265482,N,12132.4567455,E,0.01,266.26,260623,,,R,V*11
$GPHDT,,T*1B
$GNACCURACY,2.3*17
$GNGGA,115308.600,2500.8265486,N,12132.4567447,E,4,59,0.45,16.014,M,15.25,M,3,3335*46
$GNRMC,115308.600,A,2500.8265486,N,12132.4567447,E,0.02,266.26,260623,,,R,V*16
$GPHDT,316.567,T*35
$GNACCURACY,2.3*17
$GNGGA,115308.700,2500.8265460,N,12132.4567431,E,4,59,0.45,16.009,M,15.25,M,3,3335*42
$GNRMC,115308.700,A,2500.8265460,N,12132.4567431,E,0.01,266.26,260623,,,R,V*1D
$GPHDT,,T*1B
$GNACCURACY,2.3*17
$GNGGA,115308.800,2500.8265472,N,12132.4567413,E,4,59,0.45,16.007,M,15.25,M,3,3335*40
$GNRMC,115308.800,A,2500.8265472,N,12132.4567413,E,0.01,266.26,260623,,,R,V*11
$GPHDT,316.915,T*3C
$GNACCURACY,2.3*17
$GNGGA,115308.900,2500.8265445,N,12132.4567399,E,4,60,0.45,16.006,M,15.25,M,3,3335*4B
$GNRMC,115308.900,A,2500.8265445,N,12132.4567399,E,0.01,266.26,260623,,,R,V*11
$GPHDT,,T*1B
$GNACCURACY,2.3*17
$GNGGA,115309.000,2500.8265441,N,12132.4567387,E,4,60,0.45,16.009,M,15.25,M,4,3335*40
$GNRMC,115309.000,A,2500.8265441,N,12132.4567387,E,0.01,266.26,260623,,,R,V*12
$PAIR010,0,1,2268,129207*3B
$GPHDT,317.338,T*38
$GNACCURACY,2.3*17
$GNGGA,115309.100,2500.8265435,N,12132.4567451,E,4,60,0.45,16.011,M,15.25,M,1,3335*42
$GNRMC,115309.100,A,2500.8265435,N,12132.4567451,E,0.02,266.26,260623,,,R,V*1F
$GPHDT,,T*1B
$GNGSA,A,3,196,23,24,199,18,194,195,12,10,25,32,,0.73,0.45,0.57,1*02
$GNGSA,A,3,73,80,71,86,85,,,,,,,,0.73,0.45,0.57,2*0C
$GNGSA,A,3,13,07,08,26,30,02,15,,,,,,0.73,0.45,0.57,3*08
$GNGSA,A,3,08,38,13,39,16,06,46,19,09,36,35,22,0.73,0.45,0.57,4*09
$GNGSA,A,3,37,29,20,,,,,,,,,,0.73,0.45,0.57,4*0E
$GPGSV,4,1,16,196,76,074,32,23,62,347,38,24,61,034,32,199,60,167,36,1*60
$GPGSV,4,2,16,18,51,227,44,41,38,242,41,194,35,136,41,15,31,059,30,1*52
$GPGSV,4,3,16,195,29,179,35,12,28,131,42,10,27,323,45,25,18,170,27,1*5D
$GPGSV,4,4,16,32,15,279,33,05,11,127,,28,04,222,,13,02,065,,1*64
$GPGSV,3,1,10,196,76,074,39,23,62,347,31,24,61,034,25,199,60,167,47,8*6A
$GPGSV,3,2,10,18,51,227,47,194,35,136,40,195,29,179,40,10,27,323,39,8*6F
$GPGSV,3,3,10,25,18,170,30,32,15,279,36,8*6B
$GLGSV,3,1,09,73,52,151,43,80,45,055,31,70,42,029,,71,27,327,41,1*73
$GLGSV,3,2,09,86,27,286,33,85,25,233,27,74,15,185,,69,08,087,17,1*7F
$GLGSV,3,3,09,79,01,026,,1*4A
$GAGSV,3,1,09,13,47,220,41,07,46,316,44,08,43,037,29,26,36,296,31,7*73
$GAGSV,3,2,09,30,34,136,38,02,27,074,21,15,13,173,21,27,08,184,,7*77
$GAGSV,3,3,09,03,06,072,14,7*4F
$GAGSV,2,1,06,13,47,220,44,07,46,316,46,08,43,037,31,26,36,296,34,1*70
$GAGSV,2,2,06,30,34,136,40,02,27,074,22,1*73
$GBGSV,4,1,15,08,85,342,41,38,81,158,45,13,72,321,34,39,68,298,43,1*7D
$GBGSV,4,2,15,16,65,273,43,06,64,269,42,46,62,086,21,19,54,000,24,1*7A
$GBGSV,4,3,15,09,50,249,40,36,47,183,45,20,39,077,,35,17,258,36,1*7D
$GBGSV,4,4,15,22,17,309,27,37,15,042,36,29,12,204,20,1*44
$GBGSV,3,1,09,38,81,158,42,39,68,298,40,46,62,086,26,19,54,000,37,4*72
$GBGSV,3,2,09,36,47,183,46,20,39,077,27,22,17,309,20,35,17,258,40,4*7D
$GBGSV,3,3,09,37,15,042,34,4*4B
$GNACCURACY,2.3*17
$PAIRSAT,1,35,1,0,200,2,0,200,3,0,200,4,0,200,5,0,201,6,0,200,7,0,200,8,0,200,9,0,200,10,0,221,11,0,200,12,0,201,13,0,201,14,0,200,15,0,201,16,0,200,17,0,200,18,0,221,19,0,200,20,0,200,21,0,200,23,0,221,24,0,221,25,0,220,26,0,200,27,0,200,28,0,200,29,0,200,30,0,200,31,0,200,32,0,221,194,0,621,195,0,621,196,0,620,199,0,621*6A
$PAIRSAT,2,24,65,0,200,66,0,200,67,0,200,68,0,200,69,0,200,70,0,200,71,0,201,72,0,200,73,0,201,74,0,200,75,0,200,76,0,200,77,0,200,78,0,200,79,0,201,80,0,201,81,0,200,82,0,200,83,0,200,84,0,200,85,0,201,86,0,201,87,0,200,88,0,200*7A
$PAIRSAT,3,23,2,0,1221,3,0,1221,4,0,1200,5,0,200,7,0,1221,8,0,1221,9,0,1200,10,0,1200,11,0,1200,12,0,1200,13,0,1221,15,0,1221,19,0,1200,21,0,1200,24,0,1200,25,0,1200,26,0,1221,27,0,1200,30,0,1221,31,0,1200,33,0,1200,34,0,1200,36,0,1200*6A
$PAIRSAT,4,50,1,0,200,2,0,200,3,0,200,4,0,200,5,0,200,6,0,201,7,0,200,8,0,201,9,0,201,10,0,200,11,0,200,12,0,200,13,0,201,14,0,200,15,0,200,16,0,201,19,0,621,20,0,621,21,0,600,22,0,621,23,0,600,24,0,600,25,0,600,26,0,600,27,0,600,28,0,600,29,0,621,30,0,600,31,0,200,32,0,600,33,0,600,34,0,600,35,0,621,36,0,621,37,0,621,38,0,621,39,0,621,40,0,600,41,0,600,42,0,600,43,0,600,44,0,600,45,0,600,46,0,621,56,0,200,57,0,200,58,0,200,59,0,600,60,0,600,61,0,600*41
$PAIRDGP,10,5,10,12,15,18,23,24,25,28,32*45
$GNGGA,115309.200,2500.8265453,N,12132.4567434,E,4,60,0.45,15.996,M,15.25,M,1,3335*47
$GNRMC,115309.200,A,2500.8265453,N,12132.4567434,E,0.02,266.26,260623,,,R,V*1F
$GPHDT,316.633,T*37
$GNACCURACY,2.3*17
$GNGGA,115309.300,2500.8265435,N,12132.4567450,E,4,60,0.45,16.003,M,15.25,M,1,3335*42
$GNRMC,115309.300,A,2500.8265435,N,12132.4567450,E,0.02,266.26,260623,,,R,V*1C
$GPHDT,,T*1B
$GNACCURACY,2.3*17
$GNGGA,115309.400,2500.8265446,N,12132.4567473,E,4,61,0.45,15.996,M,15.25,M,1,3335*47
$GNRMC,115309.400,A,2500.8265446,N,12132.4567473,E,0.02,266.26,260623,,,R,V*1E
$GPHDT,316.768,T*38
$GNACCURACY,2.4*10
$GNGGA,115309.500,2500.8265476,N,12132.4567486,E,4,61,0.45,15.969,M,15.25,M,1,3335*4F
$GNRMC,115309.500,A,2500.8265476,N,12132.4567486,E,0.02,266.26,260623,,,R,V*16
$GPHDT,,T*1B
$GNACCURACY,2.3*17
$GNGGA,115309.600,2500.8265447,N,12132.4567454,E,4,61,0.45,15.991,M,15.25,M,1,3335*46
$GNRMC,115309.600,A,2500.8265447,N,12132.4567454,E,0.02,266.26,260623,,,R,V*18
$GPHDT,316.758,T*3B
$GNACCURACY,2.4*10
$GNGGA,115309.700,2500.8265480,N,12132.4567486,E,4,60,0.45,15.983,M,15.25,M,0,3335*40
$GNRMC,115309.700,A,2500.8265480,N,12132.4567486,E,0.01,266.26,260623,,,R,V*1E
$GPHDT,,T*1B
$GNACCURACY,2.4*10
$GNGGA,115309.800,2500.8265444,N,12132.4567470,E,4,60,0.45,15.991,M,15.25,M,0,3335*4D
$GNRMC,115309.800,A,2500.8265444,N,12132.4567470,E,0.01,266.26,260623,,,R,V*10
$GPHDT,317.040,T*34
$GNACCURACY,2.4*10
$GNGGA,115309.900,2500.8265452,N,12132.4567469,E,4,60,0.45,15.995,M,15.25,M,0,3335*47
$GNRMC,115309.900,A,2500.8265452,N,12132.4567469,E,0.00,266.26,260623,,,R,V*1F
$GPHDT,,T*1B
$GNACCURACY,2.4*10
$GNGGA,115310.000,2500.8265449,N,12132.4567479,E,4,60,0.45,15.998,M,15.25,M,1,3335*41
$GNRMC,115310.000,A,2500.8265449,N,12132.4567479,E,0.01,266.26,260623,,,R,V*14
$GPHDT,317.086,T*3E
$GNACCURACY,2.3*17
$GNGGA,115310.100,2500.8265442,N,12132.4567465,E,4,60,0.45,15.988,M,15.25,M,1,3335*47
$GNRMC,115310.100,A,2500.8265442,N,12132.4567465,E,0.01,266.26,260623,,,R,V*13
$GPHDT,,T*1B
$GNGSA,A,3,196,23,24,199,18,194,15,195,12,10,25,32,0.72,0.45,0.56,1*06
$GNGSA,A,3,73,80,71,86,85,,,,,,,,0.72,0.45,0.56,2*0C
$GNGSA,A,3,13,07,08,26,30,15,02,,,,,,0.72,0.45,0.56,3*08
$GNGSA,A,3,08,38,13,39,16,06,46,19,09,36,35,22,0.72,0.45,0.56,4*09
$GNGSA,A,3,37,29,20,,,,,,,,,,0.72,0.45,0.56,4*0E
$GPGSV,4,1,15,196,76,074,33,23,62,347,38,24,61,034,33,199,60,167,36,1*63
$GPGSV,4,2,15,18,51,227,44,41,38,242,41,194,35,136,41,15,31,059,30,1*51
$GPGSV,4,3,15,195,29,179,34,12,28,131,42,10,27,323,45,25,18,170,26,1*5E
$GPGSV,4,4,15,32,15,279,33,05,11,127,,28,04,222,,1*54
$GPGSV,3,1,10,196,76,074,39,23,62,347,29,24,61,034,25,199,60,167,47,8*63
$GPGSV,3,2,10,18,51,227,48,194,35,136,40,195,29,179,39,10,27,323,39,8*6E
$GPGSV,3,3,10,25,18,170,27,32,15,279,35,8*6E
$GLGSV,3,1,10,73,52,151,43,80,45,055,30,70,42,029,,71,27,327,42,1*79
$GLGSV,3,2,10,86,27,286,35,85,25,233,28,74,15,185,,69,08,087,18,1*71
$GLGSV,3,3,10,87,01,333,,79,01,026,,1*7F
$GAGSV,2,1,08,13,47,220,42,07,46,316,44,08,43,037,28,26,36,296,32,7*72
$GAGSV,2,2,08,30,34,136,38,02,27,074,,15,13,173,24,03,06,072,15,7*75
$GAGSV,2,1,06,13,47,220,44,07,46,316,46,08,43,037,32,26,36,296,34,1*73
$GAGSV,2,2,06,30,34,136,40,02,27,074,22,1*73
$GBGSV,4,1,15,08,85,342,41,38,81,158,45,13,72,321,35,39,68,298,43,1*7C
$GBGSV,4,2,15,16,65,273,43,06,64,269,42,46,62,086,19,19,54,000,21,1*74
$GBGSV,4,3,15,09,50,249,40,36,47,183,45,20,39,077,,35,17,258,37,1*7C
$GBGSV,4,4,15,22,17,309,29,37,15,042,32,29,12,204,20,1*4E
$GBGSV,3,1,09,38,81,158,42,39,68,298,40,46,62,086,25,19,54,000,37,4*71
$GBGSV,3,2,09,36,47,183,46,20,39,077,26,22,17,309,17,35,17,258,40,4*78
$GBGSV,3,3,09,37,15,042,32,4*4D
$GNACCURACY,2.3*17
$PAIRSAT,1,35,1,0,200,2,0,200,3,0,200,4,0,200,5,0,201,6,0,200,7,0,200,8,0,200,9,0,200,10,0,221,11,0,200,12,0,201,13,0,201,14,0,200,15,0,201,16,0,200,17,0,200,18,0,221,19,0,200,20,0,200,21,0,200,23,0,221,24,0,221,25,0,220,26,0,200,27,0,200,28,0,200,29,0,200,30,0,200,31,0,200,32,0,221,194,0,621,195,0,621,196,0,620,199,0,621*6A
$PAIRSAT,2,24,65,0,200,66,0,200,67,0,200,68,0,200,69,0,200,70,0,200,71,0,201,72,0,200,73,0,201,74,0,200,75,0,200,76,0,200,77,0,200,78,0,200,79,0,201,80,0,201,81,0,200,82,0,200,83,0,200,84,0,200,85,0,201,86,0,201,87,0,200,88,0,200*7A
$PAIRSAT,3,23,2,0,1221,3,0,1221,4,0,1200,5,0,200,7,0,1221,8,0,1221,9,0,1200,10,0,1200,11,0,1200,12,0,1200,13,0,1221,15,0,1221,19,0,1200,21,0,1200,24,0,1200,25,0,1200,26,0,1221,27,0,1200,30,0,1221,31,0,1200,33,0,1200,34,0,1200,36,0,1200*6A
$PAIRSAT,4,50,1,0,200,2,0,200,3,0,200,4,0,200,5,0,200,6,0,201,7,0,200,8,0,201,9,0,201,10,0,200,11,0,200,12,0,200,13,0,201,14,0,200,15,0,200,16,0,201,19,0,621,20,0,621,21,0,600,22,0,621,23,0,600,24,0,600,25,0,600,26,0,600,27,0,600,28,0,600,29,0,621,30,0,600,31,0,200,32,0,600,33,0,600,34,0,600,35,0,621,36,0,621,37,0,621,38,0,621,39,0,621,40,0,600,41,0,600,42,0,600,43,0,600,44,0,600,45,0,600,46,0,621,56,0,200,57,0,200,58,0,200,59,0,600,60,0,600,61,0,600*41
$PAIRDGP,10,5,10,12,15,18,23,24,25,28,32*45
$GNGGA,115310.200,2500.8265469,N,12132.4567491,E,4,60,0.45,15.975,M,15.25,M,1,3335*44
$GNRMC,115310.200,A,2500.8265469,N,12132.4567491,E,0.01,266.26,260623,,,R,V*12
$GPHDT,316.791,T*3E
$GNACCURACY,2.3*17
$GNGGA,115310.300,2500.8265486,N,12132.4567520,E,4,60,0.45,15.974,M,15.25,M,1,3335*4E
$GNRMC,115310.300,A,2500.8265486,N,12132.4567520,E,0.00,266.26,260623,,,R,V*18
$GPHDT,,T*1B
$GNACCURACY,2.3*17
$GNGGA,115310.400,2500.8265474,N,12132.4567501,E,4,60,0.45,15.981,M,15.25,M,1,3335*4D
$GNRMC,115310.400,A,2500.8265474,N,12132.4567501,E,0.01,266.26,260623,,,R,V*10
$GPHDT,316.565,T*37
$GNACCURACY,2.3*17
$GNGGA,115310.500,2500.8265472,N,12132.4567493,E,4,60,0.45,16.003,M,15.25,M,1,3335*40
$GNRMC,115310.500,A,2500.8265472,N,12132.4567493,E,0.00,266.26,260623,,,R,V*1C
$GPHDT,,T*1B
