$FW : RTK35X,V1.1X0314AS,Lib20210517,1*54
$Tool : LOCOSYS , GNSS Firebird , v1.0.0.19*39
$---------------------------------------------------*2D

$GPHDT,,T*1B
$GNACCURACY,2.3*17
$GNGGA,115431.600,2500.8269819,N,12132.4565336,E,2,66,0.45,17.420,M,15.25,M,1,3335*44
$GNRMC,115431.600,A,2500.8269819,N,12132.4565336,E,0.00,266.26,260623,,,D,V*0A
$GPHDT,,T*1B
$GNACCURACY,2.3*17
$GNGGA,115431.700,2500.8269819,N,12132.4565336,E,2,66,0.45,17.422,M,15.25,M,1,3335*47
$GNRMC,115431.700,A,2500.8269819,N,12132.4565336,E,0.00,266.26,260623,,,D,V*0B
$GPHDT,,T*1B
$GNACCURACY,2.3*17
$GNGGA,115431.800,2500.8269819,N,12132.4565336,E,2,66,0.45,17.425,M,15.25,M,1,3335*4F
$GNRMC,115431.800,A,2500.8269819,N,12132.4565336,E,0.01,266.26,260623,,,D,V*05
$GPHDT,,T*1B
$GNACCURACY,2.3*17
$GNGGA,115431.900,2500.8269879,N,12132.4565276,E,2,65,0.45,17.428,M,15.25,M,1,3335*43
$GNRMC,115431.900,A,2500.8269879,N,12132.4565276,E,0.01,266.26,260623,,,D,V*07
$GPHDT,,T*1B
$GNACCURACY,2.3*17
$GNGGA,115432.000,2500.8269939,N,12132.4565276,E,2,66,0.45,17.429,M,15.25,M,2,3335*4D
$GNRMC,115432.000,A,2500.8269939,N,12132.4565276,E,0.02,266.26,260623,,,D,V*0B
$GPHDT,,T*1B
$GNACCURACY,2.3*17
$GNGGA,115432.100,2500.8269939,N,12132.4565276,E,2,65,0.45,17.427,M,15.25,M,2,3335*41
$GNRMC,115432.100,A,2500.8269939,N,12132.4565276,E,0.02,266.26,260623,,,D,V*0A
$GPHDT,,T*1B
$GNGSA,A,3,196,23,24,199,18,194,15,12,195,10,25,32,0.72,0.45,0.56,1*06
$GNGSA,A,3,73,80,86,71,85,,,,,,,,0.72,0.45,0.56,2*0C
$GNGSA,A,3,13,07,08,26,30,02,15,,,,,,0.72,0.45,0.56,3*08
$GNGSA,A,3,08,38,13,39,16,06,46,19,09,36,20,22,0.72,0.45,0.56,4*0D
$GNGSA,A,3,35,37,29,,,,,,,,,,0.72,0.45,0.56,4*0A
$GPGSV,4,1,16,196,76,074,33,23,63,347,36,24,60,034,29,199,60,167,36,1*65
$GPGSV,4,2,16,18,50,226,44,41,38,242,41,194,35,136,37,15,31,060,27,1*5F
$GPGSV,4,3,16,12,29,130,37,195,29,179,39,10,28,324,43,25,18,170,25,1*5F
$GPGSV,4,4,16,32,15,280,30,05,10,128,17,28,04,222,,13,01,066,,1*69
$GPGSV,3,1,10,196,76,074,39,23,63,347,31,24,60,034,34,199,60,167,45,8*68
$GPGSV,3,2,10,18,50,226,48,194,35,136,36,195,29,179,37,10,28,324,41,8*66
$GPGSV,3,3,10,25,18,170,32,32,15,280,30,8*69
$GLGSV,2,1,07,73,53,150,42,80,44,054,19,86,27,285,41,71,27,328,45,1*77
$GLGSV,2,2,07,85,25,232,18,74,16,185,22,79,01,025,,1*4F
$GAGSV,3,1,09,13,47,220,42,07,46,317,44,08,42,037,23,26,36,295,31,7*79
$GAGSV,3,2,09,30,34,135,38,02,27,074,20,15,13,173,22,27,08,184,,7*76
$GAGSV,3,3,09,03,06,073,19,7*43
$GAGSV,2,1,08,13,47,220,46,07,46,317,45,08,42,037,29,26,36,295,26,1*76
$GAGSV,2,2,08,30,34,135,29,02,27,074,28,15,13,173,26,03,06,073,16,1*7A
$GBGSV,4,1,15,08,86,339,39,38,80,160,44,13,72,320,37,39,68,299,43,1*75
$GBGSV,4,2,15,16,65,274,43,06,64,269,41,46,62,085,30,19,54,001,36,1*7F
$GBGSV,4,3,15,09,50,249,40,36,47,183,44,20,39,078,25,22,18,310,33,1*75
$GBGSV,4,4,15,35,17,257,39,37,15,041,37,29,11,204,20,1*46
$GBGSV,3,1,10,38,80,160,45,39,68,299,44,46,62,085,26,19,54,001,27,4*71
$GBGSV,3,2,10,36,47,183,44,20,39,078,21,22,18,310,28,35,17,257,41,4*7F
$GBGSV,3,3,10,37,15,041,39,29,11,204,21,4*73
$GNACCURACY,2.3*17
$PAIRSAT,1,35,1,0,200,2,0,200,3,0,200,4,0,200,5,0,201,6,0,200,7,0,200,8,0,200,9,0,200,10,0,221,11,0,200,12,0,201,13,0,201,14,0,200,15,0,201,16,0,200,17,0,200,18,0,221,19,0,200,20,0,200,21,0,200,23,0,221,24,0,221,25,0,221,26,0,200,27,0,200,28,0,200,29,0,200,30,0,200,31,0,200,32,0,221,194,0,621,195,0,621,196,0,620,199,0,621*6B
$PAIRSAT,2,24,65,0,200,66,0,200,67,0,200,68,0,200,69,0,200,70,0,200,71,0,201,72,0,200,73,0,201,74,0,200,75,0,200,76,0,200,77,0,200,78,0,200,79,0,201,80,0,201,81,0,200,82,0,200,83,0,200,84,0,200,85,0,201,86,0,201,87,0,200,88,0,200*7A
$PAIRSAT,3,23,2,0,1221,3,0,1221,4,0,1200,5,0,200,7,0,1221,8,0,1221,9,0,1200,10,0,1200,11,0,1200,12,0,1200,13,0,1221,15,0,1221,19,0,1200,21,0,1200,24,0,1200,25,0,1200,26,0,1221,27,0,1200,30,0,1221,31,0,1200,33,0,1200,34,0,1200,36,0,1200*6A
$PAIRSAT,4,50,1,0,200,2,0,200,3,0,200,4,0,200,5,0,200,6,0,201,7,0,200,8,0,201,9,0,201,10,0,200,11,0,200,12,0,200,13,0,201,14,0,200,15,0,200,16,0,201,19,0,621,20,0,621,21,0,600,22,0,621,23,0,600,24,0,600,25,0,600,26,0,600,27,0,600,28,0,600,29,0,621,30,0,600,31,0,200,32,0,600,33,0,600,34,0,600,35,0,621,36,0,621,37,0,621,38,0,621,39,0,621,40,0,600,41,0,600,42,0,600,43,0,600,44,0,600,45,0,600,46,0,621,56,0,200,57,0,200,58,0,200,59,0,600,60,0,600,61,0,600*41
$PAIRDGP,10,5,10,12,15,18,23,24,25,28,32*45
$GNGGA,115432.200,2500.8269939,N,12132.4565276,E,2,66,0.45,17.427,M,15.25,M,2,3335*41
$GNRMC,115432.200,A,2500.8269939,N,12132.4565276,E,0.01,266.26,260623,,,D,V*0A
$GPHDT,,T*1B
$GNACCURACY,2.3*17
$GNGGA,115432.300,2500.8269939,N,12132.4565276,E,2,65,0.45,17.427,M,15.25,M,2,3335*43
$GNRMC,115432.300,A,2500.8269939,N,12132.4565276,E,0.01,266.26,260623,,,D,V*0B
$GPHDT,,T*1B
$GNACCURACY,2.3*17
$GNGGA,115432.400,2500.8269999,N,12132.4565276,E,2,65,0.45,17.431,M,15.25,M,2,3335*49
$GNRMC,115432.400,A,2500.8269999,N,12132.4565276,E,0.00,266.26,260623,,,D,V*07
$GPHDT,,T*1B
$GNACCURACY,2.3*17
$GNGGA,115432.500,2500.8269999,N,12132.4565216,E,2,65,0.45,17.436,M,15.25,M,2,3335*49
$GNRMC,115432.500,A,2500.8269999,N,12132.4565216,E,0.01,266.26,260623,,,D,V*01
$GPHDT,,T*1B
$GNACCURACY,2.3*17
$GNGGA,115432.600,2500.8270059,N,12132.4565216,E,2,65,0.45,17.442,M,15.25,M,2,3335*44
$GNRMC,115432.600,A,2500.8270059,N,12132.4565216,E,0.01,266.26,260623,,,D,V*0F
$GPHDT,,T*1B
$GNACCURACY,2.3*17
$GNGGA,115432.700,2500.8270119,N,12132.4565216,E,2,65,0.45,17.449,M,15.25,M,2,3335*4B
$GNRMC,115432.700,A,2500.8270119,N,12132.4565216,E,0.01,266.26,260623,,,D,V*0B
$GPHDT,,T*1B
$GNACCURACY,2.3*17
$GNGGA,115432.800,2500.8270179,N,12132.4565216,E,2,65,0.45,17.455,M,15.25,M,2,3335*4F
$GNRMC,115432.800,A,2500.8270179,N,12132.4565216,E,0.01,266.26,260623,,,D,V*02
$GPHDT,,T*1B
$GNACCURACY,2.3*17
$GNGGA,115432.900,2500.8270239,N,12132.4565156,E,2,65,0.45,17.464,M,15.25,M,2,3335*4C
$GNRMC,115432.900,A,2500.8270239,N,12132.4565156,E,0.01,266.26,260623,,,D,V*03
$GPHDT,,T*1B
$GNACCURACY,2.3*17
$GNGGA,115433.000,2500.8270299,N,12132.4565156,E,2,65,0.45,17.473,M,15.25,M,3,3335*49
$GNRMC,115433.000,A,2500.8270299,N,12132.4565156,E,0.02,266.26,260623,,,D,V*02
$GPHDT,,T*1B
$GNACCURACY,2.3*17
$GNGGA,115433.100,2500.8270419,N,12132.4565096,E,2,65,0.45,17.484,M,15.25,M,3,3335*43
$GNRMC,115433.100,A,2500.8270419,N,12132.4565096,E,0.03,266.26,260623,,,D,V*01
$GPHDT,,T*1B
$GNGSA,A,3,196,23,24,199,18,194,15,12,195,10,25,32,0.72,0.45,0.56,1*06
$GNGSA,A,3,73,80,71,86,85,,,,,,,,0.72,0.45,0.56,2*0C
$GNGSA,A,3,13,07,08,26,30,02,15,,,,,,0.72,0.45,0.56,3*08
$GNGSA,A,3,08,38,13,39,16,06,46,19,09,36,20,22,0.72,0.45,0.56,4*0D
$GNGSA,A,3,35,37,29,,,,,,,,,,0.72,0.45,0.56,4*0A
$GPGSV,4,1,16,196,76,074,33,23,63,347,37,24,60,034,30,199,60,167,36,1*6C
$GPGSV,4,2,16,18,50,226,43,41,38,242,41,194,35,136,37,15,31,060,26,1*59
$GPGSV,4,3,16,12,29,130,36,195,29,179,39,10,28,324,41,25,18,169,26,1*57
$GPGSV,4,4,16,32,15,280,32,05,10,128,18,28,04,222,,13,01,066,,1*64
$GPGSV,3,1,10,196,76,074,38,23,63,347,36,24,60,034,33,199,60,167,45,8*69
$GPGSV,3,2,10,18,50,226,47,194,35,136,34,195,29,179,37,10,28,324,41,8*6B
$GPGSV,3,3,10,25,18,169,31,32,15,280,30,8*62
$GLGSV,2,1,07,73,53,150,42,80,44,054,19,71,27,328,44,86,27,285,41,1*76
$GLGSV,2,2,07,85,25,232,21,74,16,185,22,79,01,025,,1*45
$GAGSV,2,1,08,13,47,220,41,07,46,317,43,08,42,037,24,26,36,295,32,7*79
$GAGSV,2,2,08,30,34,135,38,02,27,074,20,15,13,173,21,03,06,073,19,7*7C
$GAGSV,2,1,08,13,47,220,46,07,46,317,45,08,42,037,23,26,36,295,34,1*7F
$GAGSV,2,2,08,30,34,135,29,02,27,074,26,15,13,173,27,03,06,073,13,1*70
$GBGSV,4,1,15,08,86,339,39,38,80,160,44,13,72,320,38,39,68,299,43,1*7A
$GBGSV,4,2,15,16,65,274,43,06,64,269,40,46,62,085,29,19,54,001,36,1*76
$GBGSV,4,3,15,09,50,249,40,36,47,183,44,20,39,078,25,22,18,310,34,1*72
$GBGSV,4,4,15,35,17,257,38,37,15,041,37,29,11,204,19,1*4D
$GBGSV,3,1,10,38,80,160,45,39,68,299,44,46,62,085,29,19,54,001,26,4*7F
$GBGSV,3,2,10,36,47,183,44,20,39,078,20,22,18,310,29,35,17,257,40,4*7E
$GBGSV,3,3,10,37,15,041,36,29,11,204,21,4*7C
$GNACCURACY,2.3*17
$PAIRSAT,1,35,1,0,200,2,0,200,3,0,200,4,0,200,5,0,201,6,0,200,7,0,200,8,0,200,9,0,200,10,0,221,11,0,200,12,0,201,13,0,201,14,0,200,15,0,201,16,0,200,17,0,200,18,0,221,19,0,200,20,0,200,21,0,200,23,0,221,24,0,221,25,0,221,26,0,200,27,0,200,28,0,200,29,0,200,30,0,200,31,0,200,32,0,221,194,0,621,195,0,621,196,0,620,199,0,621*6B
$PAIRSAT,2,24,65,0,200,66,0,200,67,0,200,68,0,200,69,0,200,70,0,200,71,0,201,72,0,200,73,0,201,74,0,200,75,0,200,76,0,200,77,0,200,78,0,200,79,0,201,80,0,201,81,0,200,82,0,200,83,0,200,84,0,200,85,0,201,86,0,201,87,0,200,88,0,200*7A
$PAIRSAT,3,23,2,0,1221,3,0,1221,4,0,1200,5,0,200,7,0,1221,8,0,1221,9,0,1200,10,0,1200,11,0,1200,12,0,1200,13,0,1221,15,0,1221,19,0,1200,21,0,1200,24,0,1200,25,0,1200,26,0,1221,27,0,1200,30,0,1221,31,0,1200,33,0,1200,34,0,1200,36,0,1200*6A
$PAIRSAT,4,50,1,0,200,2,0,200,3,0,200,4,0,200,5,0,200,6,0,201,7,0,200,8,0,201,9,0,201,10,0,200,11,0,200,12,0,200,13,0,201,14,0,200,15,0,200,16,0,201,19,0,621,20,0,621,21,0,600,22,0,621,23,0,600,24,0,600,25,0,600,26,0,600,27,0,600,28,0,600,29,0,621,30,0,600,31,0,200,32,0,600,33,0,600,34,0,600,35,0,621,36,0,621,37,0,621,38,0,621,39,0,621,40,0,600,41,0,600,42,0,600,43,0,600,44,0,600,45,0,600,46,0,621,56,0,200,57,0,200,58,0,200,59,0,600,60,0,600,61,0,600*41
$PAIRDGP,10,5,10,12,15,18,23,24,25,28,32*45
$GNGGA,115433.200,2500.8270479,N,12132.4565096,E,2,65,0.45,17.495,M,15.25,M,3,3335*46
$GNRMC,115433.200,A,2500.8270479,N,12132.4565096,E,0.02,266.26,260623,,,D,V*05
$GPHDT,,T*1B
$GNACCURACY,2.3*17
$GNGGA,115433.300,2500.8270539,N,12132.4565096,E,2,65,0.45,17.505,M,15.25,M,3,3335*4A
$GNRMC,115433.300,A,2500.8270539,N,12132.4565096,E,0.01,266.26,260623,,,D,V*02
$GPHDT,,T*1B
$GNACCURACY,2.3*17
$GNGGA,115433.400,2500.8270659,N,12132.4565036,E,2,65,0.45,17.514,M,15.25,M,3,3335*42
$GNRMC,115433.400,A,2500.8270659,N,12132.4565036,E,0.01,266.26,260623,,,D,V*0A
$GPHDT,,T*1B
$GNACCURACY,2.3*17
$GNGGA,115433.500,2500.8270719,N,12132.4565036,E,2,65,0.45,17.526,M,15.25,M,3,3335*47
$GNRMC,115433.500,A,2500.8270719,N,12132.4565036,E,0.00,266.26,260623,,,D,V*0F
$GPHDT,,T*1B
$GNACCURACY,2.3*17
$GNGGA,115433.600,2500.8270839,N,12132.4565036,E,2,65,0.45,17.536,M,15.25,M,3,3335*48
$GNRMC,115433.600,A,2500.8270839,N,12132.4565036,E,0.01,266.26,260623,,,D,V*00
$GPHDT,,T*1B
$GNACCURACY,2.3*17
$GNGGA,115433.700,2500.8270899,N,12132.4564976,E,2,65,0.45,17.549,M,15.25,M,3,3335*47
$GNRMC,115433.700,A,2500.8270899,N,12132.4564976,E,0.01,266.26,260623,,,D,V*07
$GPHDT,,T*1B
$GNACCURACY,2.3*17
$GNGGA,115433.800,2500.8270959,N,12132.4564976,E,2,65,0.45,17.561,M,15.25,M,3,3335*4F
$GNRMC,115433.800,A,2500.8270959,N,12132.4564976,E,0.01,266.26,260623,,,D,V*05
$GPHDT,,T*1B
$GNACCURACY,2.3*17
$GNGGA,115433.900,2500.8271019,N,12132.4564976,E,2,65,0.45,17.570,M,15.25,M,3,3335*42
$GNRMC,115433.900,A,2500.8271019,N,12132.4564976,E,0.01,266.26,260623,,,D,V*08
$GPHDT,,T*1B
$GNACCURACY,2.3*17
$GNGGA,115434.000,2500.8271139,N,12132.4564976,E,2,66,0.43,17.579,M,15.25,M,4,3335*44
$GNRMC,115434.000,A,2500.8271139,N,12132.4564976,E,0.01,266.26,260623,,,D,V*05
$GPHDT,,T*1B
$GNACCURACY,2.3*17
$GNGGA,115434.100,2500.8271199,N,12132.4564976,E,2,66,0.43,17.592,M,15.25,M,4,3335*4A
$GNRMC,115434.100,A,2500.8271199,N,12132.4564976,E,0.01,266.26,260623,,,D,V*0E
$GPHDT,,T*1B
$GNGSA,A,3,196,23,24,199,18,194,15,12,195,10,25,32,0.69,0.43,0.54,1*08
$GNGSA,A,3,05,,,,,,,,,,,,0.69,0.43,0.54,1*0D
$GNGSA,A,3,73,80,86,71,85,,,,,,,,0.69,0.43,0.54,2*02
$GNGSA,A,3,13,07,08,26,30,02,15,,,,,,0.69,0.43,0.54,3*06
$GNGSA,A,3,08,38,13,39,16,06,46,19,09,36,20,22,0.69,0.43,0.54,4*03
$GNGSA,A,3,35,37,29,,,,,,,,,,0.69,0.43,0.54,4*04
$GPGSV,4,1,16,196,76,074,33,23,63,347,37,24,60,034,32,199,60,167,36,1*6E
$GPGSV,4,2,16,18,50,226,43,41,38,242,41,194,35,136,37,15,31,060,29,1*56
$GPGSV,4,3,16,12,29,130,36,195,29,179,39,10,28,324,41,25,18,169,28,1*59
$GPGSV,4,4,16,32,15,280,32,05,10,128,17,28,04,222,,13,01,066,,1*6B
$GPGSV,3,1,10,196,76,074,39,23,63,347,36,24,60,034,33,199,60,167,45,8*68
$GPGSV,3,2,10,18,50,226,47,194,35,136,34,195,29,179,36,10,28,324,41,8*6A
$GPGSV,3,3,10,25,18,169,30,32,15,280,29,8*6B
$GLGSV,2,1,08,73,53,150,42,80,44,054,23,70,42,029,,86,27,285,41,1*70
$GLGSV,2,2,08,71,27,328,43,85,25,232,23,74,16,185,23,79,01,025,,1*74
$GAGSV,2,1,08,13,47,220,41,07,46,317,42,08,42,037,24,26,36,295,34,7*7E
$GAGSV,2,2,08,30,34,135,38,02,27,074,20,15,13,173,20,03,06,073,19,7*7D
$GAGSV,2,1,08,13,47,220,46,07,46,317,45,08,42,037,21,26,36,295,35,1*7C
$GAGSV,2,2,08,30,34,135,29,02,27,074,26,15,13,173,26,03,06,073,13,1*71
$GBGSV,4,1,16,08,86,339,39,38,80,160,44,13,72,320,38,39,68,299,43,1*79
$GBGSV,4,2,16,16,65,274,43,06,64,269,40,46,62,085,31,19,54,001,36,1*7C
$GBGSV,4,3,16,09,50,249,40,56,47,318,,36,47,183,44,20,39,078,26,1*74
$GBGSV,4,4,16,22,18,310,34,35,17,257,38,37,15,041,37,29,11,204,18,1*73
$GBGSV,3,1,10,38,80,160,45,39,68,299,43,46,62,085,30,19,54,001,27,4*71
$GBGSV,3,2,10,36,47,183,44,20,39,078,20,22,18,310,30,35,17,257,40,4*76
$GBGSV,3,3,10,37,15,041,37,29,11,204,21,4*7D
$GNACCURACY,2.3*17
$PAIRSAT,1,35,1,0,200,2,0,200,3,0,200,4,0,200,5,0,201,6,0,200,7,0,200,8,0,200,9,0,200,10,0,221,11,0,200,12,0,201,13,0,201,14,0,200,15,0,201,16,0,200,17,0,200,18,0,221,19,0,200,20,0,200,21,0,200,23,0,221,24,0,221,25,0,221,26,0,200,27,0,200,28,0,200,29,0,200,30,0,200,31,0,200,32,0,221,194,0,621,195,0,621,196,0,620,199,0,621*6B
$PAIRSAT,2,24,65,0,200,66,0,200,67,0,200,68,0,200,69,0,200,70,0,200,71,0,201,72,0,200,73,0,201,74,0,200,75,0,200,76,0,200,77,0,200,78,0,200,79,0,201,80,0,201,81,0,200,82,0,200,83,0,200,84,0,200,85,0,201,86,0,201,87,0,200,88,0,200*7A
$PAIRSAT,3,23,2,0,1221,3,0,1221,4,0,1200,5,0,200,7,0,1221,8,0,1221,9,0,1200,10,0,1200,11,0,1200,12,0,1200,13,0,1221,15,0,1221,19,0,1200,21,0,1200,24,0,1200,25,0,1200,26,0,1221,27,0,1200,30,0,1221,31,0,1200,33,0,1200,34,0,1200,36,0,1200*6A
$PAIRSAT,4,50,1,0,200,2,0,200,3,0,200,4,0,200,5,0,200,6,0,201,7,0,200,8,0,201,9,0,201,10,0,200,11,0,200,12,0,200,13,0,201,14,0,200,15,0,200,16,0,201,19,0,621,20,0,621,21,0,600,22,0,621,23,0,600,24,0,600,25,0,600,26,0,600,27,0,600,28,0,600,29,0,621,30,0,600,31,0,200,32,0,600,33,0,600,34,0,600,35,0,621,36,0,621,37,0,621,38,0,621,39,0,621,40,0,600,41,0,600,42,0,600,43,0,600,44,0,600,45,0,600,46,0,621,56,0,200,57,0,200,58,0,200,59,0,600,60,0,600,61,0,600*41
$PAIRDGP,10,5,10,12,15,18,23,24,25,28,32*45
$GNGGA,115434.200,2500.8271259,N,12132.4564916,E,2,66,0.43,17.601,M,15.25,M,4,3335*49
$GNRMC,115434.200,A,2500.8271259,N,12132.4564916,E,0.01,266.26,260623,,,D,V*04
$GPHDT,,T*1B
$GNACCURACY,2.3*17
$GNGGA,115434.300,2500.8271379,N,12132.4564916,E,2,66,0.43,17.610,M,15.25,M,4,3335*4B
$GNRMC,115434.300,A,2500.8271379,N,12132.4564916,E,0.02,266.26,260623,,,D,V*05
$GPHDT,,T*1B
$GNACCURACY,2.3*17
$GNGGA,115434.400,2500.8271439,N,12132.4564916,E,2,66,0.43,17.618,M,15.25,M,4,3335*47
$GNRMC,115434.400,A,2500.8271439,N,12132.4564916,E,0.02,266.26,260623,,,D,V*01
$GPHDT,,T*1B
$GNACCURACY,2.3*17
$GNGGA,115434.500,2500.8271559,N,12132.4564856,E,2,65,0.45,17.627,M,15.25,M,1,3335*48
$GNRMC,115434.500,A,2500.8271559,N,12132.4564856,E,0.02,266.26,260623,,,D,V*02
$GPHDT,,T*1B
$GNACCURACY,2.3*17
$GNGGA,115434.600,2500.8271619,N,12132.4564856,E,2,66,0.44,17.637,M,15.25,M,1,3335*4F
$GNRMC,115434.600,A,2500.8271619,N,12132.4564856,E,0.00,266.26,260623,,,D,V*04
$GPHDT,,T*1B
$GNACCURACY,2.3*17
$GNGGA,115434.700,2500.8271679,N,12132.4564856,E,2,66,0.44,17.648,M,15.25,M,0,3335*41
$GNRMC,115434.700,A,2500.8271679,N,12132.4564856,E,0.01,266.26,260623,,,D,V*02
$GPHDT,,T*1B
$GNACCURACY,2.3*17
$GNGGA,115434.800,2500.8271739,N,12132.4564796,E,2,66,0.44,17.659,M,15.25,M,0,3335*48
$GNRMC,115434.800,A,2500.8271739,N,12132.4564796,E,0.01,266.26,260623,,,D,V*0B
$GPHDT,,T*1B
$GNACCURACY,2.3*17
$GNGGA,115434.900,2500.8271739,N,12132.4564796,E,2,65,0.45,17.668,M,15.25,M,0,3335*49
$GNRMC,115434.900,A,2500.8271739,N,12132.4564796,E,0.00,266.26,260623,,,D,V*0B
$GPHDT,,T*1B
$GNACCURACY,2.3*17
$GNGGA,115435.000,2500.8271859,N,12132.4564796,E,2,66,0.44,17.678,M,15.25,M,1,3335*4A
$GNRMC,115435.000,A,2500.8271859,N,12132.4564796,E,0.01,266.26,260623,,,D,V*0B
$GPHDT,,T*1B
$GNACCURACY,2.3*17
$GNGGA,115435.100,2500.8271859,N,12132.4564796,E,2,66,0.44,17.687,M,15.25,M,1,3335*4B
$GNRMC,115435.100,A,2500.8271859,N,12132.4564796,E,0.00,266.26,260623,,,D,V*0B
$GPHDT,,T*1B
$GNGSA,A,3,196,23,24,199,18,194,15,12,195,10,25,32,0.78,0.44,0.65,1*0D
$GNGSA,A,3,05,,,,,,,,,,,,0.78,0.44,0.65,1*08
$GNGSA,A,3,73,80,71,86,85,,,,,,,,0.78,0.44,0.65,2*07
$GNGSA,A,3,13,07,08,26,30,02,15,,,,,,0.78,0.44,0.65,3*03
$GNGSA,A,3,08,38,13,39,16,06,46,19,09,36,20,22,0.78,0.44,0.65,4*06
$GNGSA,A,3,35,37,29,,,,,,,,,,0.78,0.44,0.65,4*01
$GPGSV,4,1,16,196,76,074,33,23,63,347,37,24,60,034,32,199,60,167,36,1*6E
$GPGSV,4,2,16,18,50,226,43,41,38,242,41,194,35,136,37,15,31,060,27,1*58
$GPGSV,4,3,16,12,29,130,36,195,29,179,39,10,28,324,41,25,18,169,29,1*58
$GPGSV,4,4,16,32,15,280,31,05,10,128,18,28,04,222,,13,01,066,,1*67
$GPGSV,3,1,10,196,76,074,39,23,63,347,36,24,60,034,33,199,60,167,45,8*68
$GPGSV,3,2,10,18,50,226,47,194,35,136,34,195,29,179,36,10,28,324,41,8*6A
$GPGSV,3,3,10,25,18,169,31,32,15,280,29,8*6A
$GLGSV,3,1,09,73,53,150,42,80,44,054,22,70,42,029,,71,27,328,43,1*7D
$GLGSV,3,2,09,86,27,285,40,85,25,232,22,74,16,185,23,69,08,087,,1*78
$GLGSV,3,3,09,79,01,025,,1*49
$GAGSV,3,1,09,13,47,220,41,07,46,317,42,08,42,037,24,26,36,295,34,7*7E
$GAGSV,3,2,09,30,34,135,38,02,27,074,21,15,13,173,20,27,08,184,,7*75
$GAGSV,3,3,09,03,06,073,19,7*43
$GAGSV,2,1,08,13,47,220,46,07,46,317,45,08,42,037,23,26,36,295,35,1*7E
$GAGSV,2,2,08,30,34,135,29,02,27,074,26,15,13,173,25,03,06,073,11,1*70
$GBGSV,4,1,16,08,86,339,39,38,80,160,44,13,72,320,38,39,68,299,43,1*79
$GBGSV,4,2,16,16,65,274,43,06,64,269,40,46,62,085,31,19,54,001,37,1*7D
$GBGSV,4,3,16,09,50,249,40,36,47,183,44,56,47,318,,20,39,078,26,1*74
$GBGSV,4,4,16,22,18,310,34,35,17,257,38,37,15,041,37,29,11,204,18,1*73
$GBGSV,3,1,10,38,80,160,45,39,68,299,43,46,62,085,30,19,54,001,26,4*70
$GBGSV,3,2,10,36,47,183,44,20,39,078,20,22,18,310,31,35,17,257,40,4*77
$GBGSV,3,3,10,37,15,041,37,29,11,204,21,4*7D
$GNACCURACY,2.3*17
$PAIRSAT,1,35,1,0,200,2,0,200,3,0,200,4,0,200,5,0,201,6,0,200,7,0,200,8,0,200,9,0,200,10,0,221,11,0,200,12,0,201,13,0,201,14,0,200,15,0,201,16,0,200,17,0,200,18,0,221,19,0,200,20,0,200,21,0,200,23,0,221,24,0,221,25,0,221,26,0,200,27,0,200,28,0,200,29,0,200,30,0,200,31,0,200,32,0,221,194,0,621,195,0,621,196,0,620,199,0,621*6B
$PAIRSAT,2,24,65,0,200,66,0,200,67,0,200,68,0,200,69,0,200,70,0,200,71,0,201,72,0,200,73,0,201,74,0,200,75,0,200,76,0,200,77,0,200,78,0,200,79,0,201,80,0,201,81,0,200,82,0,200,83,0,200,84,0,200,85,0,201,86,0,201,87,0,200,88,0,200*7A
$PAIRSAT,3,23,2,0,1221,3,0,1221,4,0,1200,5,0,200,7,0,1221,8,0,1221,9,0,1200,10,0,1200,11,0,1200,12,0,1200,13,0,1221,15,0,1221,19,0,1200,21,0,1200,24,0,1200,25,0,1200,26,0,1221,27,0,1200,30,0,1221,31,0,1200,33,0,1200,34,0,1200,36,0,1200*6A
$PAIRSAT,4,50,1,0,200,2,0,200,3,0,200,4,0,200,5,0,200,6,0,201,7,0,200,8,0,201,9,0,201,10,0,200,11,0,200,12,0,200,13,0,201,14,0,200,15,0,200,16,0,201,19,0,621,20,0,621,21,0,600,22,0,621,23,0,600,24,0,600,25,0,600,26,0,600,27,0,600,28,0,600,29,0,621,30,0,600,31,0,200,32,0,600,33,0,600,34,0,600,35,0,621,36,0,621,37,0,621,38,0,621,39,0,621,40,0,600,41,0,600,42,0,600,43,0,600,44,0,600,45,0,600,46,0,621,56,0,200,57,0,200,58,0,200,59,0,600,60,0,600,61,0,600*41
$PAIRDGP,10,5,10,12,15,18,23,24,25,28,32*45
$GNGGA,115435.200,2500.8271919,N,12132.4564736,E,2,66,0.44,17.696,M,15.25,M,1,3335*47
$GNRMC,115435.200,A,2500.8271919,N,12132.4564736,E,0.00,266.26,260623,,,D,V*07
$GPHDT,,T*1B
$GNACCURACY,2.3*17
$GNGGA,115435.300,2500.8271979,N,12132.4564736,E,2,65,0.45,17.700,M,15.25,M,1,3335*4C
$GNRMC,115435.300,A,2500.8271979,N,12132.4564736,E,0.00,266.26,260623,,,D,V*00
$GPHDT,,T*1B
$GNACCURACY,2.3*17
$GNGGA,115435.400,2500.8272039,N,12132.4564736,E,2,65,0.45,17.709,M,15.25,M,1,3335*4C
$GNRMC,115435.400,A,2500.8272039,N,12132.4564736,E,0.00,266.26,260623,,,D,V*09
$GPHDT,,T*1B
$GNACCURACY,2.3*17
$GNGGA,115435.500,2500.8272159,N,12132.4564736,E,2,65,0.45,17.716,M,15.25,M,1,3335*44
$GNRMC,115435.500,A,2500.8272159,N,12132.4564736,E,0.00,266.26,260623,,,D,V*0F
$GPHDT,,T*1B
$GNACCURACY,2.3*17
$GNGGA,115435.600,2500.8272159,N,12132.4564676,E,2,65,0.45,17.720,M,15.25,M,1,3335*47
$GNRMC,115435.600,A,2500.8272159,N,12132.4564676,E,0.00,266.26,260623,,,D,V*09
$GPHDT,,T*1B
$GNACCURACY,2.3*17
$GNGGA,115435.700,2500.8272219,N,12132.4564676,E,2,65,0.45,17.728,M,15.25,M,1,3335*49
$GNRMC,115435.700,A,2500.8272219,N,12132.4564676,E,0.00,266.26,260623,,,D,V*0F
$GPHDT,,T*1B
$GNACCURACY,2.3*17
$GNGGA,115435.800,2500.8272279,N,12132.4564676,E,2,65,0.45,17.734,M,15.25,M,1,3335*4D
$GNRMC,115435.800,A,2500.8272279,N,12132.4564676,E,0.00,266.26,260623,,,D,V*06
$GPHDT,,T*1B
$GNACCURACY,2.3*17
$GNGGA,115435.900,2500.8272339,N,12132.4564676,E,2,65,0.45,17.744,M,15.25,M,1,3335*4E
$GNRMC,115435.900,A,2500.8272339,N,12132.4564676,E,0.00,266.26,260623,,,D,V*02
$GPHDT,,T*1B
$GNACCURACY,2.3*17
$GNGGA,115436.000,2500.8272399,N,12132.4564676,E,2,65,0.45,17.753,M,15.25,M,2,3335*4B
$GNRMC,115436.000,A,2500.8272399,N,12132.4564676,E,0.00,266.26,260623,,,D,V*02
$GPHDT,,T*1B
$GNACCURACY,2.3*17
$GNGGA,115436.100,2500.8272459,N,12132.4564676,E,2,65,0.45,17.758,M,15.25,M,2,3335*4A
$GNRMC,115436.100,A,2500.8272459,N,12132.4564676,E,0.00,266.26,260623,,,D,V*08
$GPHDT,,T*1B
$GNGSA,A,3,196,23,24,199,18,194,15,12,195,10,25,32,0.81,0.45,0.68,1*07
$GNGSA,A,3,73,80,71,86,85,,,,,,,,0.81,0.45,0.68,2*0D
$GNGSA,A,3,13,07,08,26,30,02,15,,,,,,0.81,0.45,0.68,3*09
$GNGSA,A,3,08,38,13,39,16,06,46,19,09,36,20,22,0.81,0.45,0.68,4*0C
$GNGSA,A,3,35,37,29,,,,,,,,,,0.81,0.45,0.68,4*0B
$GPGSV,4,1,16,196,76,074,34,23,63,347,37,24,60,034,32,199,60,167,36,1*69
$GPGSV,4,2,16,18,50,226,43,41,38,242,41,194,35,136,38,15,31,060,27,1*57
$GPGSV,4,3,16,12,29,130,36,195,29,179,39,10,28,324,42,25,18,169,28,1*5A
$GPGSV,4,4,16,32,15,280,33,05,10,128,17,28,04,222,,13,01,066,,1*6A
$GPGSV,3,1,10,196,76,074,39,23,63,347,36,24,60,034,33,199,60,167,45,8*68
$GPGSV,3,2,10,18,50,226,47,194,35,136,34,195,29,179,36,10,28,324,41,8*6A
$GPGSV,3,3,10,25,18,169,32,32,15,280,30,8*61
$GLGSV,3,1,09,73,53,150,42,80,44,054,23,70,42,029,,71,27,328,43,1*7C
$GLGSV,3,2,09,86,27,285,40,85,25,232,20,74,16,185,22,69,08,087,,1*7B
$GLGSV,3,3,09,79,01,025,,1*49
$GAGSV,3,1,09,13,47,220,41,07,46,317,42,08,42,037,25,26,36,295,32,7*79
$GAGSV,3,2,09,30,34,135,38,02,27,074,20,15,13,173,19,27,08,184,,7*7E
$GAGSV,3,3,09,03,06,073,20,7*49
$GAGSV,2,1,08,13,47,220,46,07,46,317,45,08,42,037,23,26,36,295,33,1*78
$GAGSV,2,2,08,30,34,135,28,02,27,074,26,15,13,173,25,03,06,073,13,1*73
$GBGSV,4,1,16,08,86,339,39,38,80,160,44,13,72,320,38,39,68,299,43,1*79
$GBGSV,4,2,16,16,65,274,43,06,64,269,40,46,62,085,31,19,54,001,37,1*7D
$GBGSV,4,3,16,09,50,249,40,36,47,183,44,56,47,318,,20,39,078,26,1*74
$GBGSV,4,4,16,22,18,310,34,35,17,257,39,37,15,041,38,29,11,204,18,1*7D
$GBGSV,3,1,10,38,80,160,45,39,68,299,43,46,62,085,29,19,54,001,26,4*78
$GBGSV,3,2,10,36,47,183,44,20,39,078,20,22,18,310,30,35,17,257,40,4*76
$GBGSV,3,3,10,37,15,041,37,29,11,204,21,4*7D
$GNACCURACY,2.3*17
$PAIRSAT,1,35,1,0,200,2,0,200,3,0,200,4,0,200,5,0,201,6,0,200,7,0,200,8,0,200,9,0,200,10,0,221,11,0,200,12,0,201,13,0,201,14,0,200,15,0,201,16,0,200,17,0,200,18,0,221,19,0,200,20,0,200,21,0,200,23,0,221,24,0,221,25,0,221,26,0,200,27,0,200,28,0,200,29,0,200,30,0,200,31,0,200,32,0,221,194,0,621,195,0,621,196,0,620,199,0,621*6B
$PAIRSAT,2,24,65,0,200,66,0,200,67,0,200,68,0,200,69,0,200,70,0,200,71,0,201,72,0,200,73,0,201,74,0,200,75,0,200,76,0,200,77,0,200,78,0,200,79,0,201,80,0,201,81,0,200,82,0,200,83,0,200,84,0,200,85,0,201,86,0,201,87,0,200,88,0,200*7A
$PAIRSAT,3,23,2,0,1221,3,0,1221,4,0,1200,5,0,200,7,0,1221,8,0,1221,9,0,1200,10,0,1200,11,0,1200,12,0,1200,13,0,1221,15,0,1221,19,0,1200,21,0,1200,24,0,1200,25,0,1200,26,0,1221,27,0,1200,30,0,1221,31,0,1200,33,0,1200,34,0,1200,36,0,1200*6A
$PAIRSAT,4,50,1,0,200,2,0,200,3,0,200,4,0,200,5,0,200,6,0,201,7,0,200,8,0,201,9,0,201,10,0,200,11,0,200,12,0,200,13,0,201,14,0,200,15,0,200,16,0,201,19,0,621,20,0,621,21,0,600,22,0,621,23,0,600,24,0,600,25,0,600,26,0,600,27,0,600,28,0,600,29,0,621,30,0,600,31,0,200,32,0,600,33,0,600,34,0,600,35,0,621,36,0,621,37,0,621,38,0,621,39,0,621,40,0,600,41,0,600,42,0,600,43,0,600,44,0,600,45,0,600,46,0,621,56,0,200,57,0,200,58,0,200,59,0,600,60,0,600,61,0,600*41
$PAIRDGP,10,5,10,12,15,18,23,24,25,28,32*45
$GNGGA,115436.200,2500.8272519,N,12132.4564676,E,2,65,0.45,17.764,M,15.25,M,1,3335*40
$GNRMC,115436.200,A,2500.8272519,N,12132.4564676,E,0.00,266.26,260623,,,D,V*0E
$GPHDT,,T*1B
$GNACCURACY,2.3*17
$GNGGA,115436.300,2500.8272519,N,12132.4564676,E,2,65,0.45,17.769,M,15.25,M,1,3335*4C
$GNRMC,115436.300,A,2500.8272519,N,12132.4564676,E,0.00,266.26,260623,,,D,V*0F
$GPHDT,,T*1B
$GNACCURACY,2.3*17
$GNGGA,115436.400,2500.8272579,N,12132.4564676,E,2,65,0.45,17.777,M,15.25,M,1,3335*42
$GNRMC,115436.400,A,2500.8272579,N,12132.4564676,E,0.00,266.26,260623,,,D,V*0E
$GPHDT,,T*1B
$GNACCURACY,2.3*17
$GNGGA,115436.500,2500.8272579,N,12132.4564676,E,2,65,0.45,17.785,M,15.25,M,1,3335*4E
$GNRMC,115436.500,A,2500.8272579,N,12132.4564676,E,0.00,266.26,260623,,,D,V*0F
$GPHDT,,T*1B
$GNACCURACY,2.2*16
$GNGGA,115436.600,2500.8272639,N,12132.4564676,E,2,65,0.45,17.790,M,15.25,M,1,3335*4E
$GNRMC,115436.600,A,2500.8272639,N,12132.4564676,E,0.00,266.26,260623,,,D,V*0B
$GPHDT,,T*1B
$GNACCURACY,2.2*16
$GNGGA,115436.700,2500.8272639,N,12132.4564736,E,2,65,0.45,17.798,M,15.25,M,1,3335*42
$GNRMC,115436.700,A,2500.8272639,N,12132.4564736,E,0.00,266.26,260623,,,D,V*0F
$GPHDT,,T*1B
$GNACCURACY,2.2*16
$GNGGA,115436.800,2500.8272639,N,12132.4564736,E,2,65,0.45,17.803,M,15.25,M,1,3335*40
$GNRMC,115436.800,A,2500.8272639,N,12132.4564736,E,0.00,266.26,260623,,,D,V*00
$GPHDT,,T*1B
$GNACCURACY,2.2*16
$GNGGA,115436.900,2500.8272639,N,12132.4564736,E,2,65,0.45,17.810,M,15.25,M,1,3335*43
$GNRMC,115436.900,A,2500.8272639,N,12132.4564736,E,0.00,266.26,260623,,,D,V*01
$GPHDT,,T*1B
$GNACCURACY,2.2*16
$GNGGA,115437.000,2500.8272699,N,12132.4564676,E,2,65,0.45,17.816,M,15.25,M,2,3335*41
$GNRMC,115437.000,A,2500.8272699,N,12132.4564676,E,0.00,266.26,260623,,,D,V*06
$GPHDT,,T*1B
$GNACCURACY,2.2*16
$GNGGA,115437.100,2500.8272699,N,12132.4564676,E,2,65,0.45,17.827,M,15.25,M,2,3335*42
$GNRMC,115437.100,A,2500.8272699,N,12132.4564676,E,0.00,266.26,260623,,,D,V*07
$GPHDT,,T*1B
$GNGSA,A,3,196,23,24,199,18,194,15,12,195,10,25,32,0.81,0.45,0.68,1*07
$GNGSA,A,3,73,80,71,86,85,,,,,,,,0.81,0.45,0.68,2*0D
$GNGSA,A,3,13,07,08,26,30,02,15,,,,,,0.81,0.45,0.68,3*09
$GNGSA,A,3,08,38,13,39,16,06,46,19,09,36,20,22,0.81,0.45,0.68,4*0C
$GNGSA,A,3,35,37,29,,,,,,,,,,0.81,0.45,0.68,4*0B
$GPGSV,4,1,16,196,76,074,33,23,63,347,35,24,60,034,33,199,60,167,36,1*6D
$GPGSV,4,2,16,18,50,226,43,41,38,242,42,194,35,136,38,15,31,060,26,1*55
$GPGSV,4,3,16,12,29,130,35,195,29,179,39,10,28,324,42,25,18,169,27,1*56
$GPGSV,4,4,16,32,15,280,32,05,10,128,20,28,04,222,,13,01,066,,1*6F
$GPGSV,3,1,10,196,76,074,39,23,63,347,29,24,60,034,34,199,60,167,45,8*61
$GPGSV,3,2,10,18,50,226,47,194,35,136,36,195,29,179,37,10,28,324,40,8*68
$GPGSV,3,3,10,25,18,169,33,32,15,280,29,8*68
$GLGSV,2,1,08,73,53,150,42,80,44,054,20,70,42,029,,71,27,328,43,1*7F
$GLGSV,2,2,08,86,27,285,40,85,25,232,18,74,16,185,20,79,01,025,,1*72
$GAGSV,3,1,09,13,47,220,41,07,46,317,43,08,42,037,26,26,36,295,29,7*71
$GAGSV,3,2,09,30,34,135,38,02,27,074,19,15,13,173,19,27,08,184,,7*74
$GAGSV,3,3,09,03,06,073,21,7*48
$GAGSV,2,1,08,13,47,220,46,07,46,317,45,08,42,037,30,26,36,295,31,1*78
$GAGSV,2,2,08,30,34,135,29,02,27,074,27,15,13,173,25,03,06,073,12,1*72
$GBGSV,4,1,16,08,86,339,39,38,80,160,44,13,72,320,38,39,68,299,44,1*7E
$GBGSV,4,2,16,16,65,274,43,06,64,269,40,46,62,085,31,19,54,001,37,1*7D
$GBGSV,4,3,16,09,50,249,40,36,47,183,44,56,47,318,,20,39,078,26,1*74
$GBGSV,4,4,16,22,18,310,35,35,17,257,39,37,15,041,36,29,11,204,18,1*72
$GBGSV,3,1,10,38,80,160,45,39,68,299,43,46,62,085,28,19,54,001,24,4*7B
$GBGSV,3,2,10,36,47,183,44,20,39,078,22,22,18,310,32,35,17,257,39,4*78
$GBGSV,3,3,10,37,15,041,35,29,11,204,21,4*7F
$GNACCURACY,2.3*17
$PAIRSAT,1,35,1,0,200,2,0,200,3,0,200,4,0,200,5,0,201,6,0,200,7,0,200,8,0,200,9,0,200,10,0,221,11,0,200,12,0,201,13,0,201,14,0,200,15,0,201,16,0,200,17,0,200,18,0,221,19,0,200,20,0,200,21,0,200,23,0,221,24,0,221,25,0,221,26,0,200,27,0,200,28,0,200,29,0,200,30,0,200,31,0,200,32,0,221,194,0,621,195,0,621,196,0,620,199,0,621*6B
$PAIRSAT,2,24,65,0,200,66,0,200,67,0,200,68,0,200,69,0,200,70,0,200,71,0,201,72,0,200,73,0,201,74,0,200,75,0,200,76,0,200,77,0,200,78,0,200,79,0,201,80,0,201,81,0,200,82,0,200,83,0,200,84,0,200,85,0,201,86,0,201,87,0,200,88,0,200*7A
$PAIRSAT,3,23,2,0,1221,3,0,1221,4,0,1200,5,0,200,7,0,1221,8,0,1221,9,0,1200,10,0,1200,11,0,1200,12,0,1200,13,0,1221,15,0,1221,19,0,1200,21,0,1200,24,0,1200,25,0,1200,26,0,1221,27,0,1200,30,0,1221,31,0,1200,33,0,1200,34,0,1200,36,0,1200*6A
$PAIRSAT,4,50,1,0,200,2,0,200,3,0,200,4,0,200,5,0,200,6,0,201,7,0,200,8,0,201,9,0,201,10,0,200,11,0,200,12,0,200,13,0,201,14,0,200,15,0,200,16,0,201,19,0,621,20,0,621,21,0,600,22,0,621,23,0,600,24,0,600,25,0,600,26,0,600,27,0,600,28,0,600,29,0,621,30,0,600,31,0,200,32,0,600,33,0,600,34,0,600,35,0,621,36,0,621,37,0,621,38,0,621,39,0,621,40,0,600,41,0,600,42,0,600,43,0,600,44,0,600,45,0,600,46,0,621,56,0,200,57,0,200,58,0,200,59,0,600,60,0,600,61,0,600*41
$PAIRDGP,10,5,10,12,15,18,23,24,25,28,32*45
$GNGGA,115437.200,2500.8272759,N,12132.4564676,E,2,65,0.45,17.832,M,15.25,M,2,3335*48
$GNRMC,115437.200,A,2500.8272759,N,12132.4564676,E,0.00,266.26,260623,,,D,V*09
$GPHDT,,T*1B
$GNACCURACY,2.3*17
$GNGGA,115437.300,2500.8272819,N,12132.4564616,E,2,65,0.45,17.835,M,15.25,M,2,3335*43
$GNRMC,115437.300,A,2500.8272819,N,12132.4564616,E,0.00,266.26,260623,,,D,V*05
$GPHDT,,T*1B
$GNACCURACY,2.3*17
$GNGGA,115437.400,2500.8272879,N,12132.4564616,E,2,65,0.45,17.842,M,15.25,M,2,3335*42
$GNRMC,115437.400,A,2500.8272879,N,12132.4564616,E,0.01,266.26,260623,,,D,V*05
$GPHDT,,T*1B
$GNACCURACY,2.2*16
$GNGGA,115437.500,2500.8272879,N,12132.4564556,E,2,65,0.45,17.854,M,15.25,M,2,3335*43
$GNRMC,115437.500,A,2500.8272879,N,12132.4564556,E,0.00,266.26,260623,,,D,V*02
$GPHDT,,T*1B
$GNACCURACY,2.2*16
$GNGGA,115437.600,2500.8272939,N,12132.4564496,E,2,65,0.45,17.864,M,15.25,M,2,3335*4B
$GNRMC,115437.600,A,2500.8272939,N,12132.4564496,E,0.00,266.26,260623,,,D,V*09
$GPHDT,,T*1B
