$FW : RTK35X,V1.1X0314AS,Lib20210517,1*54
$Tool : LOCOSYS , GNSS Firebird , v1.0.0.19*39
$---------------------------------------------------*2D
$GNGGA,104543.800,2500.7994416,N,12132.4807823,E,2,54,0.52,18.010,M,15.25,M,51,3335*77
$GNRMC,104543.800,A,2500.7994416,N,12132.4807823,E,0.00,54.55,260623,,,D,V*34
$GPHDT,,T*1B
$GNGSA,A,3,24,196,199,18,15,195,23,05,194,13,,,1.01,0.52,0.86,1*0B
$GNGSA,A,3,85,80,70,84,79,69,73,,,,,,1.01,0.52,0.86,2*00
$GNGSA,A,3,13,08,07,15,03,,,,,,,,1.01,0.52,0.86,3*00
$GNGSA,A,3,38,39,08,16,06,13,46,20,09,37,29,36,1.01,0.52,0.86,4*04
$GNGSA,A,3,19,,,,,,,,,,,,1.01,0.52,0.86,4*05
$GPGSV,4,1,15,24,79,147,42,196,73,055,39,199,60,167,29,18,59,288,38,1*69
$GPGSV,4,2,15,15,47,026,44,45,47,231,30,195,41,179,41,23,35,326,32,1*57
$GPGSV,4,3,15,05,30,102,21,194,24,143,28,13,20,045,39,29,10,210,16,1*52
$GPGSV,4,4,15,20,09,119,,12,09,155,,10,05,309,14,1*52
$GPGSV,2,1,07,24,79,147,46,196,73,055,44,199,60,167,40,18,59,288,43,8*68
$GPGSV,2,2,07,195,41,179,42,23,35,326,32,194,24,143,31,8*54
$GLGSV,2,1,08,85,45,275,25,80,41,110,41,70,38,343,31,84,28,198,23,1*7D
$GLGSV,2,2,08,79,23,049,23,69,20,053,18,73,18,168,19,71,14,294,15,1*73
$GAGSV,2,1,08,13,65,264,41,08,54,006,33,07,40,283,19,15,38,173,38,7*70
$GAGSV,2,2,08,26,23,318,21,02,20,101,24,03,18,052,29,30,14,154,14,7*74
$GAGSV,2,1,06,13,65,264,46,08,54,006,40,07,40,283,29,15,38,173,39,1*79
$GAGSV,2,2,06,02,20,101,18,03,18,052,25,1*70
$GBGSV,4,1,15,38,78,050,42,39,73,251,44,08,69,007,41,16,65,232,41,1*7F
$GBGSV,4,2,15,06,63,230,37,13,61,342,44,46,48,138,43,20,46,039,49,1*76
$GBGSV,4,3,15,09,46,223,37,19,41,325,20,37,31,062,33,29,31,225,38,1*77
$GBGSV,4,4,15,36,18,186,29,30,07,176,,22,03,288,,1*4F
$GBGSV,2,1,08,38,78,050,41,39,73,251,45,46,48,138,31,20,46,039,45,4*78
$GBGSV,2,2,08,19,41,325,34,29,31,225,36,37,31,062,36,36,18,186,32,4*79
$GNGGA,104544.000,2500.7994356,N,12132.4807763,E,2,54,0.52,18.002,M,15.25,M,52,3335*70
$GNRMC,104544.000,A,2500.7994356,N,12132.4807763,E,0.00,54.55,260623,,,D,V*33
$GPHDT,,T*1B
$GNGGA,104544.200,2500.7994296,N,12132.4807703,E,2,54,0.52,17.996,M,15.25,M,52,3335*72
$GNRMC,104544.200,A,2500.7994296,N,12132.4807703,E,0.00,54.55,260623,,,D,V*3A
$GPHDT,,T*1B
$GNGGA,104544.400,2500.7994236,N,12132.4807643,E,2,54,0.52,17.994,M,15.25,M,52,3335*79
$GNRMC,104544.400,A,2500.7994236,N,12132.4807643,E,0.00,54.55,260623,,,D,V*33
$GPHDT,,T*1B
$GNGGA,104544.600,2500.7994236,N,12132.4807523,E,2,54,0.52,17.988,M,15.25,M,52,3335*73
$GNRMC,104544.600,A,2500.7994236,N,12132.4807523,E,0.00,54.55,260623,,,D,V*34
$GPHDT,,T*1B
$GNGGA,104544.800,2500.7994176,N,12132.4807463,E,2,54,0.52,17.988,M,15.25,M,52,3335*7F
$GNRMC,104544.800,A,2500.7994176,N,12132.4807463,E,0.00,54.55,260623,,,D,V*38
$GPHDT,,T*1B
$GNGSA,A,3,24,196,199,18,15,195,23,05,194,13,,,1.01,0.52,0.86,1*0B
$GNGSA,A,3,85,80,70,84,79,69,73,,,,,,1.01,0.52,0.86,2*00
$GNGSA,A,3,13,08,07,15,03,,,,,,,,1.01,0.52,0.86,3*00
$GNGSA,A,3,38,39,08,16,06,13,46,09,20,19,37,29,1.01,0.52,0.86,4*09
$GNGSA,A,3,36,,,,,,,,,,,,1.01,0.52,0.86,4*08
$GPGSV,4,1,15,24,79,147,42,196,73,055,39,199,60,167,28,18,59,288,38,1*68
$GPGSV,4,2,15,15,47,026,44,45,47,231,30,195,41,179,40,23,35,326,31,1*55
$GPGSV,4,3,15,05,30,102,21,194,24,143,29,13,20,045,39,29,10,210,16,1*53
$GPGSV,4,4,15,20,09,119,,12,09,155,,10,05,309,15,1*53
$GPGSV,2,1,07,24,79,147,46,196,73,055,44,199,60,167,40,18,59,288,43,8*68
$GPGSV,2,2,07,195,41,179,41,23,35,326,32,194,24,143,31,8*57
$GLGSV,2,1,08,85,45,275,25,80,41,110,41,70,38,343,32,84,28,198,24,1*79
$GLGSV,2,2,08,79,23,049,21,69,20,053,16,73,18,168,17,71,14,294,13,1*77
$GAGSV,2,1,08,13,65,264,41,08,54,006,32,07,40,283,19,15,38,173,39,7*70
$GAGSV,2,2,08,26,23,318,22,02,20,101,25,03,18,052,29,30,14,154,13,7*71
$GAGSV,2,1,06,13,65,264,46,08,54,006,40,07,40,283,29,15,38,173,39,1*79
$GAGSV,2,2,06,02,20,101,19,03,18,052,25,1*71
$GBGSV,4,1,13,38,78,050,42,39,73,251,44,08,69,007,41,16,65,232,41,1*79
$GBGSV,4,2,13,06,63,230,36,13,61,342,44,46,48,138,43,09,46,223,36,1*7B
$GBGSV,4,3,13,20,46,039,49,19,41,325,21,37,31,062,32,29,31,225,36,1*74
$GBGSV,4,4,13,36,18,186,29,1*4C
$GBGSV,2,1,08,38,78,050,41,39,73,251,45,46,48,138,33,20,46,039,45,4*7A
$GBGSV,2,2,08,19,41,325,34,29,31,225,36,37,31,062,35,36,18,186,30,4*78
$GNGGA,104545.000,2500.7994176,N,12132.4807343,E,2,55,0.52,17.984,M,15.25,M,53,3335*7F
$GNRMC,104545.000,A,2500.7994176,N,12132.4807343,E,0.00,54.55,260623,,,D,V*34
$GPHDT,,T*1B
$GNGGA,104545.200,2500.7994116,N,12132.4807223,E,2,55,0.52,17.984,M,15.25,M,53,3335*7C
$GNRMC,104545.200,A,2500.7994116,N,12132.4807223,E,0.00,54.55,260623,,,D,V*37
$GPHDT,,T*1B
$GNGGA,104545.400,2500.7994056,N,12132.4807103,E,2,55,0.52,17.977,M,15.25,M,53,3335*72
$GNRMC,104545.400,A,2500.7994056,N,12132.4807103,E,0.00,54.55,260623,,,D,V*35
$GPHDT,,T*1B
$GNGGA,104545.600,2500.7993996,N,12132.4806983,E,2,55,0.52,17.975,M,15.25,M,53,3335*71
$GNRMC,104545.600,A,2500.7993996,N,12132.4806983,E,0.00,54.55,260623,,,D,V*34
$GPHDT,,T*1B
$GNGGA,104545.800,2500.7993936,N,12132.4806863,E,2,55,0.52,17.971,M,15.25,M,53,3335*7E
$GNRMC,104545.800,A,2500.7993936,N,12132.4806863,E,0.00,54.55,260623,,,D,V*3F
$GPHDT,,T*1B
$GNGSA,A,3,24,196,199,18,15,195,23,05,194,13,,,1.01,0.52,0.86,1*0B
$GNGSA,A,3,85,80,70,84,79,69,73,,,,,,1.01,0.52,0.86,2*00
$GNGSA,A,3,13,08,07,15,03,,,,,,,,1.01,0.52,0.86,3*00
$GNGSA,A,3,38,39,08,16,06,13,46,09,20,37,29,36,1.01,0.52,0.86,4*04
$GNGSA,A,3,19,,,,,,,,,,,,1.01,0.52,0.86,4*05
$GPGSV,4,1,15,24,79,147,42,196,73,055,40,199,60,167,29,18,59,288,38,1*67
$GPGSV,4,2,15,15,47,026,44,45,47,231,36,195,41,179,40,23,35,326,32,1*50
$GPGSV,4,3,15,05,30,102,18,194,24,143,26,13,20,045,39,29,10,210,16,1*56
$GPGSV,4,4,15,20,09,119,,12,09,155,,10,05,309,17,1*51
$GPGSV,2,1,07,24,79,147,46,196,73,055,44,199,60,167,38,18,59,288,43,8*67
$GPGSV,2,2,07,195,41,179,41,23,35,326,31,194,24,143,33,8*56
$GLGSV,2,1,08,85,45,275,24,80,41,110,41,70,38,343,31,84,28,198,22,1*7D
$GLGSV,2,2,08,79,23,049,19,69,20,053,16,73,18,168,18,71,14,294,13,1*73
$GAGSV,2,1,08,13,65,264,41,08,54,006,31,07,40,283,22,15,38,173,39,7*7B
$GAGSV,2,2,08,26,23,318,22,02,20,101,25,03,18,052,29,30,14,154,13,7*71
$GAGSV,2,1,06,13,65,264,45,08,54,006,40,07,40,283,29,15,38,173,37,1*74
$GAGSV,2,2,06,02,20,101,18,03,18,052,25,1*70
$GBGSV,4,1,13,38,78,050,42,39,73,251,44,08,69,007,41,16,65,232,43,1*7B
$GBGSV,4,2,13,06,63,230,39,13,61,342,44,46,48,138,43,09,46,223,35,1*77
$GBGSV,4,3,13,20,46,039,49,19,41,325,22,37,31,062,32,29,31,225,33,1*72
$GBGSV,4,4,13,36,18,186,29,1*4C
$GBGSV,2,1,08,38,78,050,41,39,73,251,45,46,48,138,33,20,46,039,45,4*7A
$GBGSV,2,2,08,19,41,325,34,29,31,225,36,37,31,062,36,36,18,186,30,4*7B
$GNGGA,104546.000,2500.7993876,N,12132.4806743,E,2,54,0.52,17.973,M,15.25,M,54,3335*79
$GNRMC,104546.000,A,2500.7993876,N,12132.4806743,E,0.00,54.55,260623,,,D,V*3C
$GPHDT,,T*1B
$GNGGA,104546.200,2500.7993816,N,12132.4806623,E,2,55,0.52,17.967,M,15.25,M,54,3335*7E
$GNRMC,104546.200,A,2500.7993816,N,12132.4806623,E,0.00,54.55,260623,,,D,V*3F
$GPHDT,,T*1B
$GNGGA,104546.400,2500.7993696,N,12132.4806563,E,2,55,0.52,17.958,M,15.25,M,54,3335*75
$GNRMC,104546.400,A,2500.7993696,N,12132.4806563,E,0.00,54.55,260623,,,D,V*38
$GPHDT,,T*1B
$GNGGA,104546.600,2500.7993636,N,12132.4806443,E,2,54,0.52,17.952,M,15.25,M,54,3335*75
$GNRMC,104546.600,A,2500.7993636,N,12132.4806443,E,0.00,54.55,260623,,,D,V*33
$GPHDT,,T*1B
$GNGGA,104546.800,2500.7993516,N,12132.4806383,E,2,54,0.52,17.947,M,15.25,M,54,3335*75
$GNRMC,104546.800,A,2500.7993516,N,12132.4806383,E,0.00,54.55,260623,,,D,V*37
$GPHDT,,T*1B
$GNGSA,A,3,24,196,199,18,15,195,23,05,194,13,,,1.01,0.52,0.86,1*0B
$GNGSA,A,3,85,80,70,84,79,69,73,,,,,,1.01,0.52,0.86,2*00
$GNGSA,A,3,13,08,07,15,03,,,,,,,,1.01,0.52,0.86,3*00
$GNGSA,A,3,38,39,08,16,06,13,46,09,20,37,29,36,1.01,0.52,0.86,4*04
$GNGSA,A,3,19,,,,,,,,,,,,1.01,0.52,0.86,4*05
$GPGSV,4,1,15,24,79,147,42,196,73,055,40,199,60,167,29,18,59,288,38,1*67
$GPGSV,4,2,15,15,47,026,44,45,47,231,39,195,41,179,41,23,35,326,32,1*5E
$GPGSV,4,3,15,05,30,102,17,194,24,143,28,13,20,045,39,29,10,210,16,1*57
$GPGSV,4,4,15,20,09,119,,12,09,155,,10,05,309,17,1*51
$GPGSV,2,1,07,24,79,147,46,196,73,055,45,199,60,167,38,18,59,288,43,8*66
$GPGSV,2,2,07,195,41,179,41,23,35,326,31,194,24,143,32,8*57
$GLGSV,2,1,08,85,45,275,24,80,41,110,41,70,38,343,31,84,28,198,19,1*75
$GLGSV,2,2,08,79,23,049,18,69,20,053,14,73,18,168,20,71,14,294,13,1*7B
$GAGSV,2,1,08,13,65,264,41,08,54,006,31,07,40,283,21,15,38,173,39,7*78
$GAGSV,2,2,08,26,23,318,22,02,20,101,24,03,18,052,30,30,14,154,15,7*7E
$GAGSV,2,1,06,13,65,264,45,08,54,006,40,07,40,283,28,15,38,173,39,1*7B
$GAGSV,2,2,06,02,20,101,17,03,18,052,26,1*7C
$GBGSV,4,1,13,38,78,050,42,39,73,251,44,08,69,007,41,16,65,232,43,1*7B
$GBGSV,4,2,13,06,63,230,39,13,61,342,44,46,48,138,43,09,46,223,38,1*7A
$GBGSV,4,3,13,20,46,039,49,19,41,325,20,37,31,062,30,29,31,225,38,1*79
$GBGSV,4,4,13,36,18,186,27,1*42
$GBGSV,2,1,08,38,78,050,41,39,73,251,45,46,48,138,35,20,46,039,45,4*7C
$GBGSV,2,2,08,19,41,325,34,29,31,225,36,37,31,062,36,36,18,186,29,4*73
$GNGGA,104547.000,2500.7993396,N,12132.4806323,E,2,54,0.52,17.937,M,15.25,M,55,3335*7E
$GNRMC,104547.000,A,2500.7993396,N,12132.4806323,E,0.00,54.55,260623,,,D,V*3A
$GPHDT,,T*1B
$GNGGA,104547.200,2500.7993336,N,12132.4806263,E,2,54,0.52,17.933,M,15.25,M,55,3335*77
$GNRMC,104547.200,A,2500.7993336,N,12132.4806263,E,0.00,54.55,260623,,,D,V*37
$GPHDT,,T*1B
$GNGGA,104547.400,2500.7993276,N,12132.4806143,E,2,55,0.52,17.928,M,15.25,M,55,3335*7E
$GNRMC,104547.400,A,2500.7993276,N,12132.4806143,E,0.00,54.55,260623,,,D,V*35
$GPHDT,,T*1B
$GNGGA,104547.600,2500.7993276,N,12132.4806023,E,2,54,0.52,17.917,M,15.25,M,55,3335*76
$GNRMC,104547.600,A,2500.7993276,N,12132.4806023,E,0.00,54.55,260623,,,D,V*30
$GPHDT,,T*1B
$GNGGA,104547.800,2500.7993156,N,12132.4805963,E,2,53,0.53,17.911,M,15.25,M,55,3335*77
$GNRMC,104547.800,A,2500.7993156,N,12132.4805963,E,0.00,54.55,260623,,,D,V*31
$GPHDT,,T*1B
$GNGSA,A,3,24,196,199,18,15,195,23,05,194,13,,,1.03,0.53,0.88,1*06
$GNGSA,A,3,85,80,70,84,79,73,,,,,,,1.03,0.53,0.88,2*02
$GNGSA,A,3,13,08,07,15,03,,,,,,,,1.03,0.53,0.88,3*0D
$GNGSA,A,3,38,39,08,16,06,13,46,09,20,37,29,36,1.03,0.53,0.88,4*09
$GNGSA,A,3,19,,,,,,,,,,,,1.03,0.53,0.88,4*08
$GPGSV,4,1,15,24,79,147,42,196,73,055,40,199,60,167,30,18,59,288,38,1*6F
$GPGSV,4,2,15,15,47,026,44,45,47,231,40,195,41,179,38,23,35,326,32,1*5E
$GPGSV,4,3,15,05,30,102,15,194,24,143,28,13,20,045,39,29,10,210,17,1*54
$GPGSV,4,4,15,20,09,119,,12,09,155,,10,05,309,17,1*51
$GPGSV,2,1,07,24,79,147,46,196,73,055,45,199,60,167,39,18,59,288,43,8*67
$GPGSV,2,2,07,195,41,179,37,23,35,326,31,194,24,143,32,8*56
$GLGSV,2,1,08,85,45,275,26,80,41,110,41,70,38,343,31,84,28,198,17,1*79
$GLGSV,2,2,08,79,23,049,17,69,20,053,13,73,18,168,21,71,14,294,14,1*75
$GAGSV,2,1,08,13,65,264,41,08,54,006,31,07,40,283,21,15,38,173,40,7*76
$GAGSV,2,2,08,26,23,318,23,02,20,101,24,03,18,052,31,30,14,154,16,7*7D
$GAGSV,2,1,06,13,65,264,45,08,54,006,40,07,40,283,28,15,38,173,40,1*75
$GAGSV,2,2,06,02,20,101,18,03,18,052,26,1*73
$GBGSV,4,1,13,38,78,050,42,39,73,251,44,08,69,007,41,16,65,232,42,1*7A
$GBGSV,4,2,13,06,63,230,39,13,61,342,44,46,48,138,43,09,46,223,38,1*7A
$GBGSV,4,3,13,20,46,039,49,19,41,325,20,37,31,062,30,29,31,225,41,1*77
$GBGSV,4,4,13,36,18,186,26,1*43
$GBGSV,2,1,08,38,78,050,41,39,73,251,45,46,48,138,35,20,46,039,45,4*7C
$GBGSV,2,2,08,19,41,325,34,29,31,225,38,37,31,062,36,36,18,186,29,4*7D
$GNGGA,104548.000,2500.7993096,N,12132.4805843,E,2,53,0.53,17.899,M,15.25,M,56,3335*7C
$GNRMC,104548.000,A,2500.7993096,N,12132.4805843,E,0.00,54.55,260623,,,D,V*38
$PAIR010,0,0,2268,125166*32
$GPHDT,,T*1B
$GNGGA,104548.200,2500.7992976,N,12132.4805783,E,2,53,0.53,17.889,M,15.25,M,56,3335*7A
$GNRMC,104548.200,A,2500.7992976,N,12132.4805783,E,0.00,54.55,260623,,,D,V*3F
$GPHDT,,T*1B
$GNGGA,104548.400,2500.7992916,N,12132.4805723,E,2,53,0.53,17.884,M,15.25,M,56,3335*7D
$GNRMC,104548.400,A,2500.7992916,N,12132.4805723,E,0.00,54.55,260623,,,D,V*35
$GPHDT,,T*1B
$GNGGA,104548.600,2500.7992796,N,12132.4805663,E,2,53,0.53,17.883,M,15.25,M,56,3335*7B
$GNRMC,104548.600,A,2500.7992796,N,12132.4805663,E,0.00,54.55,260623,,,D,V*34
$GPHDT,,T*1B
$GNGGA,104548.800,2500.7992676,N,12132.4805603,E,2,53,0.53,17.876,M,15.25,M,56,3335*76
$GNRMC,104548.800,A,2500.7992676,N,12132.4805603,E,0.00,54.55,260623,,,D,V*33
$GPHDT,,T*1B
$GNGSA,A,3,24,196,199,18,15,195,23,05,194,13,,,1.03,0.53,0.88,1*06
$GNGSA,A,3,85,80,70,84,79,73,,,,,,,1.03,0.53,0.88,2*02
$GNGSA,A,3,13,08,07,15,03,,,,,,,,1.03,0.53,0.88,3*0D
$GNGSA,A,3,38,39,08,16,06,13,46,09,20,37,29,36,1.03,0.53,0.88,4*09
$GNGSA,A,3,19,,,,,,,,,,,,1.03,0.53,0.88,4*08
$GPGSV,4,1,15,24,79,147,42,196,73,055,40,199,60,167,30,18,59,288,39,1*6E
$GPGSV,4,2,15,15,47,026,44,45,47,231,40,195,41,179,39,23,35,326,32,1*5F
$GPGSV,4,3,15,05,30,102,14,194,24,143,27,13,20,045,39,29,10,210,17,1*5A
$GPGSV,4,4,15,20,09,119,,12,09,155,,10,05,309,17,1*51
$GPGSV,2,1,07,24,79,147,45,196,73,055,45,199,60,167,39,18,59,288,43,8*64
$GPGSV,2,2,07,195,41,179,40,23,35,326,31,194,24,143,33,8*57
$GLGSV,2,1,08,85,45,275,26,80,41,110,41,70,38,343,31,84,28,198,18,1*76
$GLGSV,2,2,08,79,23,049,17,69,20,053,13,73,18,168,21,71,14,294,16,1*77
$GAGSV,2,1,08,13,65,264,41,08,54,006,31,07,40,283,21,15,38,173,40,7*76
$GAGSV,2,2,08,26,23,318,23,02,20,101,25,03,18,052,31,30,14,154,17,7*7D
$GAGSV,2,1,06,13,65,264,45,08,54,006,40,07,40,283,27,15,38,173,37,1*7A
$GAGSV,2,2,06,02,20,101,18,03,18,052,26,1*73
$GBGSV,4,1,13,38,78,050,42,39,73,251,44,08,69,007,42,16,65,232,42,1*79
$GBGSV,4,2,13,06,63,230,39,13,61,342,44,46,48,138,43,09,46,223,37,1*75
$GBGSV,4,3,13,20,46,039,49,19,41,325,18,37,31,062,29,29,31,225,38,1*7A
$GBGSV,4,4,13,36,18,186,29,1*4C
$GBGSV,2,1,08,38,78,050,40,39,73,251,45,46,48,138,35,20,46,039,45,4*7D
$GBGSV,2,2,08,19,41,325,34,29,31,225,35,37,31,062,36,36,18,186,30,4*78
$GNGGA,104549.000,2500.7992616,N,12132.4805543,E,2,53,0.53,17.871,M,15.25,M,57,3335*78
$GNRMC,104549.000,A,2500.7992616,N,12132.4805543,E,0.00,54.55,260623,,,D,V*3B
$GPHDT,,T*1B
$GNGGA,104549.200,2500.7992496,N,12132.4805483,E,2,53,0.53,17.862,M,15.25,M,57,3335*7F
$GNRMC,104549.200,A,2500.7992496,N,12132.4805483,E,0.00,54.55,260623,,,D,V*3E
$GPHDT,,T*1B
$GNGGA,104549.400,2500.7992436,N,12132.4805363,E,2,53,0.53,17.850,M,15.25,M,57,3335*7B
$GNRMC,104549.400,A,2500.7992436,N,12132.4805363,E,0.00,54.55,260623,,,D,V*3B
$GPHDT,,T*1B
$GNGGA,104549.600,2500.7992376,N,12132.4805363,E,2,53,0.53,17.841,M,15.25,M,57,3335*7A
$GNRMC,104549.600,A,2500.7992376,N,12132.4805363,E,0.00,54.55,260623,,,D,V*3A
$GPHDT,,T*1B
$GNGGA,104549.800,2500.7992256,N,12132.4805243,E,2,53,0.53,17.827,M,15.25,M,57,3335*74
$GNRMC,104549.800,A,2500.7992256,N,12132.4805243,E,0.00,54.55,260623,,,D,V*34
$GPHDT,,T*1B
$GNGSA,A,3,24,196,199,18,15,195,23,05,194,13,,,1.03,0.53,0.88,1*06
$GNGSA,A,3,85,80,70,84,79,73,,,,,,,1.03,0.53,0.88,2*02
$GNGSA,A,3,13,08,07,15,03,,,,,,,,1.03,0.53,0.88,3*0D
$GNGSA,A,3,38,39,08,16,06,13,46,09,20,37,29,36,1.03,0.53,0.88,4*09
$GNGSA,A,3,19,,,,,,,,,,,,1.03,0.53,0.88,4*08
$GPGSV,4,1,15,24,79,147,42,196,73,055,40,199,60,167,31,18,59,288,39,1*6F
$GPGSV,4,2,15,15,47,026,44,45,47,231,38,195,41,179,39,23,35,326,32,1*50
$GPGSV,4,3,15,05,30,102,15,194,24,143,26,13,20,045,39,29,10,210,19,1*54
$GPGSV,4,4,15,20,09,119,,12,09,155,,10,05,309,17,1*51
$GPGSV,2,1,07,24,79,147,45,196,73,055,45,199,60,167,39,18,59,288,43,8*64
$GPGSV,2,2,07,195,41,179,40,23,35,326,31,194,24,143,33,8*57
$GLGSV,2,1,08,85,45,275,28,80,41,110,41,70,38,343,31,84,28,198,23,1*70
$GLGSV,2,2,08,79,23,049,18,69,20,053,15,73,18,167,19,71,15,294,16,1*7B
$GAGSV,2,1,08,13,65,264,41,08,54,006,30,07,40,283,21,15,38,173,40,7*77
$GAGSV,2,2,08,26,23,318,22,02,20,101,25,03,18,052,31,30,14,154,18,7*73
$GAGSV,2,1,06,13,65,264,45,08,54,006,40,07,40,283,28,15,38,173,37,1*75
$GAGSV,2,2,06,02,20,101,18,03,18,052,26,1*73
$GBGSV,4,1,13,38,78,050,42,39,73,251,44,08,69,007,42,16,65,232,42,1*79
$GBGSV,4,2,13,06,63,230,39,13,61,342,44,46,48,138,43,09,46,223,36,1*74
$GBGSV,4,3,13,20,46,039,49,19,41,325,18,37,31,062,29,29,31,225,37,1*75
$GBGSV,4,4,13,36,18,186,29,1*4C
$GBGSV,2,1,08,38,78,050,40,39,73,251,45,46,48,138,35,20,46,039,45,4*7D
$GBGSV,2,2,08,19,41,325,34,29,31,225,35,37,31,062,36,36,18,186,30,4*78
$GNGGA,104550.000,2500.7992136,N,12132.4805123,E,2,53,0.53,17.816,M,15.25,M,58,3335*79
$GNRMC,104550.000,A,2500.7992136,N,12132.4805123,E,0.00,54.55,260623,,,D,V*34
$GPHDT,,T*1B
$GNGGA,104550.200,2500.7992076,N,12132.4805063,E,2,52,0.54,17.803,M,15.25,M,58,3335*79
$GNRMC,104550.200,A,2500.7992076,N,12132.4805063,E,0.00,54.55,260623,,,D,V*36
$GPHDT,,T*1B
$GNGGA,104550.400,2500.7992016,N,12132.4804943,E,2,52,0.54,17.792,M,15.25,M,58,3335*74
$GNRMC,104550.400,A,2500.7992016,N,12132.4804943,E,0.00,54.55,260623,,,D,V*3C
$GPHDT,,T*1B
$GNGGA,104550.600,2500.7991956,N,12132.4804823,E,2,52,0.54,17.775,M,15.25,M,58,3335*76
$GNRMC,104550.600,A,2500.7991956,N,12132.4804823,E,0.00,54.55,260623,,,D,V*37
$GPHDT,,T*1B
$GNGGA,104550.800,2500.7991896,N,12132.4804763,E,2,52,0.54,17.760,M,15.25,M,58,3335*7A
$GNRMC,104550.800,A,2500.7991896,N,12132.4804763,E,0.00,54.55,260623,,,D,V*3F
$GPHDT,,T*1B
$GNGSA,A,3,24,196,199,18,15,195,23,194,13,,,,1.01,0.53,0.86,1*0F
$GNGSA,A,3,85,80,70,84,79,69,73,,,,,,1.01,0.53,0.86,2*01
$GNGSA,A,3,13,08,07,15,03,,,,,,,,1.01,0.53,0.86,3*01
$GNGSA,A,3,38,39,08,16,06,13,46,09,20,37,29,36,1.01,0.53,0.86,4*05
$GNGSA,A,3,19,,,,,,,,,,,,1.01,0.53,0.86,4*04
$GPGSV,4,1,15,24,79,147,42,196,73,055,39,199,60,167,31,18,59,288,39,1*61
$GPGSV,4,2,15,15,47,026,44,45,47,231,37,195,41,179,40,23,35,326,32,1*51
$GPGSV,4,3,15,05,30,102,17,194,24,143,26,13,20,045,39,29,10,210,21,1*5D
$GPGSV,4,4,15,20,09,119,,12,09,155,,10,05,309,17,1*51
$GPGSV,2,1,07,24,79,147,45,196,73,055,45,199,60,167,39,18,59,288,43,8*64
$GPGSV,2,2,07,195,41,179,41,23,35,326,30,194,24,143,33,8*57
$GLGSV,2,1,08,85,45,275,28,80,42,109,41,70,38,343,32,84,28,198,24,1*7F
$GLGSV,2,2,08,79,23,048,23,69,20,053,17,73,18,167,17,71,15,294,17,1*7F
$GAGSV,2,1,08,13,65,264,41,08,54,006,30,07,40,283,19,15,38,173,40,7*7C
$GAGSV,2,2,08,26,23,318,22,02,20,101,23,03,18,052,30,30,14,154,18,7*74
$GAGSV,2,1,06,13,65,264,45,08,54,006,40,07,40,283,28,15,38,173,37,1*75
$GAGSV,2,2,06,02,20,101,18,03,18,052,25,1*70
$GBGSV,4,1,13,38,78,050,42,39,73,251,44,08,69,007,42,16,65,232,43,1*78
$GBGSV,4,2,13,06,63,230,39,13,61,342,43,46,48,138,43,09,46,223,37,1*72
$GBGSV,4,3,13,20,46,039,49,19,41,325,18,37,31,062,32,29,31,225,37,1*7F
$GBGSV,4,4,13,36,18,186,29,1*4C
$GBGSV,2,1,08,38,78,050,40,39,73,251,45,46,48,138,35,20,46,039,45,4*7D
$GBGSV,2,2,08,19,41,325,34,29,31,225,35,37,31,062,36,36,18,186,29,4*70
$GNGGA,104551.000,2500.7991896,N,12132.4804583,E,2,53,0.53,17.737,M,15.25,M,59,3335*7A
$GNRMC,104551.000,A,2500.7991896,N,12132.4804583,E,0.00,54.55,260623,,,D,V*3A
$GPHDT,,T*1B
$GNGGA,104551.200,2500.7991836,N,12132.4804523,E,2,53,0.53,17.720,M,15.25,M,59,3335*7E
$GNRMC,104551.200,A,2500.7991836,N,12132.4804523,E,0.00,54.55,260623,,,D,V*38
$GPHDT,,T*1B
$GNGGA,104551.400,2500.7991776,N,12132.4804403,E,2,54,0.52,17.702,M,15.25,M,59,3335*76
$GNRMC,104551.400,A,2500.7991776,N,12132.4804403,E,0.00,54.55,260623,,,D,V*36
$GPHDT,,T*1B
$GNGGA,104551.600,2500.7991776,N,12132.4804343,E,2,54,0.52,17.686,M,15.25,M,59,3335*7A
$GNRMC,104551.600,A,2500.7991776,N,12132.4804343,E,0.00,54.55,260623,,,D,V*37
$GPHDT,,T*1B
$GNGGA,104551.800,2500.7991716,N,12132.4804223,E,2,54,0.52,17.669,M,15.25,M,59,3335*74
$GNRMC,104551.800,A,2500.7991716,N,12132.4804223,E,0.00,54.55,260623,,,D,V*38
$GPHDT,,T*1B
$GNGSA,A,3,24,196,199,18,15,195,23,05,194,13,,,1.01,0.52,0.86,1*0B
$GNGSA,A,3,85,80,70,84,79,69,73,,,,,,1.01,0.52,0.86,2*00
$GNGSA,A,3,13,08,07,15,03,,,,,,,,1.01,0.52,0.86,3*00
$GNGSA,A,3,38,39,08,16,06,13,46,09,20,37,29,36,1.01,0.52,0.86,4*04
$GNGSA,A,3,19,,,,,,,,,,,,1.01,0.52,0.86,4*05
$GPGSV,4,1,15,24,79,147,42,196,73,055,39,199,60,167,30,18,59,288,39,1*60
$GPGSV,4,2,15,15,47,026,44,45,47,231,37,195,41,179,40,23,35,326,32,1*51
$GPGSV,4,3,15,05,30,102,18,194,24,143,26,13,20,045,39,29,10,210,22,1*51
$GPGSV,4,4,15,20,09,119,,12,09,155,,10,05,309,17,1*51
$GPGSV,2,1,07,24,79,147,45,196,73,055,45,199,60,167,39,18,59,288,43,8*64
$GPGSV,2,2,07,195,41,179,41,23,35,326,30,194,24,143,34,8*50
$GLGSV,2,1,08,85,45,275,27,80,42,109,41,70,38,343,31,84,28,198,23,1*74
$GLGSV,2,2,08,79,23,048,23,69,20,053,15,73,18,167,17,71,15,294,18,1*72
$GAGSV,2,1,08,13,65,264,41,08,54,006,30,07,40,283,19,15,38,173,40,7*7C
$GAGSV,2,2,08,26,23,318,23,02,20,101,22,03,18,052,30,30,14,154,17,7*7B
$GAGSV,2,1,06,13,65,264,45,08,54,006,40,07,40,283,29,15,38,173,37,1*74
$GAGSV,2,2,06,02,20,101,18,03,18,052,27,1*72
$GBGSV,4,1,13,38,78,050,42,39,73,251,44,08,69,007,42,16,65,232,43,1*78
$GBGSV,4,2,13,06,63,230,39,13,61,342,43,46,48,138,43,09,46,223,37,1*72
$GBGSV,4,3,13,20,46,039,49,19,41,325,18,37,31,062,32,29,31,225,37,1*7F
$GBGSV,4,4,13,36,18,186,29,1*4C
$GBGSV,2,1,08,38,78,050,41,39,73,251,45,46,48,138,35,20,46,039,46,4*7F
$GBGSV,2,2,08,19,41,325,35,29,31,225,35,37,31,062,36,36,18,186,29,4*71
$GNGGA,104552.000,2500.7991656,N,12132.4804163,E,2,54,0.52,17.650,M,15.25,M,60,3335*7D
$GNRMC,104552.000,A,2500.7991656,N,12132.4804163,E,0.00,54.55,260623,,,D,V*31
$GPHDT,,T*1B
$GNGGA,104552.200,2500.7991656,N,12132.4804103,E,2,54,0.52,17.628,M,15.25,M,60,3335*76
$GNRMC,104552.200,A,2500.7991656,N,12132.4804103,E,0.00,54.55,260623,,,D,V*35
$GPHDT,,T*1B
$GNGGA,104552.400,2500.7991596,N,12132.4803983,E,2,54,0.52,17.607,M,15.25,M,60,3335*75
$GNRMC,104552.400,A,2500.7991596,N,12132.4803983,E,0.00,54.55,260623,,,D,V*3B
$GPHDT,,T*1B
$GNGGA,104552.600,2500.7991536,N,12132.4803923,E,2,54,0.52,17.586,M,15.25,M,60,3335*7D
$GNRMC,104552.600,A,2500.7991536,N,12132.4803923,E,0.00,54.55,260623,,,D,V*39
$GPHDT,,T*1B
$GNGGA,104552.800,2500.7991596,N,12132.4803803,E,2,54,0.52,17.567,M,15.25,M,60,3335*75
$GNRMC,104552.800,A,2500.7991596,N,12132.4803803,E,0.00,54.55,260623,,,D,V*3E
$GPHDT,,T*1B
$GNGSA,A,3,24,196,199,18,15,195,23,05,194,13,,,1.01,0.52,0.86,1*0B
$GNGSA,A,3,85,80,70,84,79,69,73,,,,,,1.01,0.52,0.86,2*00
$GNGSA,A,3,13,08,07,15,03,,,,,,,,1.01,0.52,0.86,3*00
$GNGSA,A,3,38,39,08,16,06,13,46,09,20,37,29,36,1.01,0.52,0.86,4*04
$GNGSA,A,3,19,,,,,,,,,,,,1.01,0.52,0.86,4*05
$GPGSV,4,1,15,24,79,147,42,196,73,055,39,199,60,167,31,18,59,288,39,1*61
$GPGSV,4,2,15,15,47,026,44,45,47,231,36,195,41,179,40,23,35,326,33,1*51
$GPGSV,4,3,15,05,30,102,22,194,24,143,26,13,20,045,39,29,10,210,21,1*5B
$GPGSV,4,4,15,20,09,119,,12,09,155,,10,05,309,16,1*50
$GPGSV,2,1,07,24,79,147,45,196,73,055,45,199,60,167,39,18,59,288,43,8*64
$GPGSV,2,2,07,195,41,179,41,23,35,326,30,194,24,143,34,8*50
$GLGSV,2,1,08,85,45,275,25,80,42,109,41,70,38,343,31,84,28,198,23,1*76
$GLGSV,2,2,08,79,23,048,23,69,20,053,17,73,18,167,17,71,15,294,20,1*7B
$GAGSV,2,1,08,13,65,264,41,08,54,006,30,07,40,283,18,15,38,173,40,7*7D
$GAGSV,2,2,08,26,23,318,22,02,20,101,23,03,18,052,30,30,14,154,17,7*7B
$GAGSV,2,1,06,13,65,264,45,08,54,006,40,07,40,283,29,15,38,173,37,1*74
$GAGSV,2,2,06,02,20,101,18,03,18,052,26,1*73
$GBGSV,4,1,13,38,78,050,42,39,73,251,44,08,69,007,42,16,65,232,43,1*78
$GBGSV,4,2,13,06,63,230,39,13,61,342,43,46,48,138,43,09,46,223,37,1*72
$GBGSV,4,3,13,20,46,039,49,19,41,325,18,37,31,062,31,29,31,225,37,1*7C
$GBGSV,4,4,13,36,18,186,29,1*4C
$GBGSV,2,1,08,38,78,050,41,39,73,251,45,46,48,138,35,20,46,039,46,4*7F
$GBGSV,2,2,08,19,41,325,35,29,31,225,34,37,31,062,36,36,18,186,28,4*71
$GNGGA,104553.000,2500.7991536,N,12132.4803743,E,2,54,0.52,17.548,M,15.25,M,61,3335*71
$GNRMC,104553.000,A,2500.7991536,N,12132.4803743,E,0.00,54.55,260623,,,D,V*36
$GPHDT,,T*1B
$GNGGA,104553.200,2500.7991536,N,12132.4803623,E,2,54,0.52,17.526,M,15.25,M,61,3335*7C
$GNRMC,104553.200,A,2500.7991536,N,12132.4803623,E,0.00,54.55,260623,,,D,V*33
$GPHDT,,T*1B
$GNGGA,104553.400,2500.7991476,N,12132.4803563,E,2,54,0.52,17.510,M,15.25,M,61,3335*7D
$GNRMC,104553.400,A,2500.7991476,N,12132.4803563,E,0.00,54.55,260623,,,D,V*37
$GPHDT,,T*1B
$GNGGA,104553.600,2500.7991476,N,12132.4803443,E,2,54,0.52,17.492,M,15.25,M,61,3335*77
$GNRMC,104553.600,A,2500.7991476,N,12132.4803443,E,0.00,54.55,260623,,,D,V*36
$GPHDT,,T*1B
$GNGGA,104553.800,2500.7991416,N,12132.4803323,E,2,54,0.52,17.468,M,15.25,M,61,3335*7B
$GNRMC,104553.800,A,2500.7991416,N,12132.4803323,E,0.00,54.55,260623,,,D,V*3F
$GPHDT,,T*1B
$GNGSA,A,3,24,196,199,18,15,195,23,05,194,13,,,1.01,0.52,0.86,1*0B
$GNGSA,A,3,85,80,70,84,79,69,73,,,,,,1.01,0.52,0.86,2*00
$GNGSA,A,3,13,08,07,15,03,,,,,,,,1.01,0.52,0.86,3*00
$GNGSA,A,3,38,39,08,16,06,13,46,20,09,37,29,36,1.01,0.52,0.86,4*04
$GNGSA,A,3,19,,,,,,,,,,,,1.01,0.52,0.86,4*05
$GPGSV,4,1,15,24,79,147,42,196,73,055,39,199,60,167,31,18,59,288,39,1*61
$GPGSV,4,2,15,15,47,026,44,45,47,231,35,195,41,179,40,23,35,326,33,1*52
$GPGSV,4,3,15,05,30,102,27,194,24,143,26,13,20,045,39,29,10,210,22,1*5D
$GPGSV,4,4,15,20,09,119,,12,09,155,,10,05,309,16,1*50
$GPGSV,2,1,07,24,79,147,45,196,73,055,45,199,60,167,39,18,59,288,43,8*64
$GPGSV,2,2,07,195,41,179,41,23,35,326,31,194,24,143,34,8*51
$GLGSV,3,1,09,85,45,275,27,80,42,109,41,70,38,343,31,84,28,198,24,1*73
$GLGSV,3,2,09,79,23,048,21,69,20,053,17,86,18,322,,73,18,167,17,1*72
$GLGSV,3,3,09,71,15,294,20,1*4E
$GAGSV,3,1,09,13,65,264,41,08,54,006,31,07,40,283,18,15,38,173,39,7*72
$GAGSV,3,2,09,26,23,318,22,02,20,101,23,03,18,052,28,30,14,154,17,7*72
$GAGSV,3,3,09,25,05,056,,7*4B
$GAGSV,2,1,07,13,65,264,45,08,54,006,40,07,40,283,29,15,38,173,37,1*75
$GAGSV,2,2,07,26,23,318,22,02,20,101,19,03,18,052,26,1*4C
$GBGSV,4,1,16,38,78,050,42,39,73,251,44,08,69,007,42,16,65,232,43,1*7D
$GBGSV,4,2,16,06,63,230,39,13,61,342,43,46,48,138,43,20,46,039,49,1*7C
$GBGSV,4,3,16,09,46,223,37,19,41,325,19,37,31,062,31,29,31,225,37,1*73
$GBGSV,4,4,16,35,24,287,,36,18,186,28,07,06,196,,10,04,206,,1*7B
$GBGSV,2,1,08,38,78,050,41,39,73,251,45,46,48,138,34,20,46,039,46,4*7E
$GBGSV,2,2,08,19,41,325,35,37,31,062,36,29,31,225,34,36,18,186,28,4*71
$GNGGA,104554.000,2500.7991416,N,12132.4803263,E,2,54,0.52,17.450,M,15.25,M,62,3335*79
$GNRMC,104554.000,A,2500.7991416,N,12132.4803263,E,0.00,54.55,260623,,,D,V*35
$GPHDT,,T*1B
$GNGGA,104554.200,2500.7991416,N,12132.4803203,E,2,54,0.52,17.433,M,15.25,M,62,3335*78
$GNRMC,104554.200,A,2500.7991416,N,12132.4803203,E,0.00,54.55,260623,,,D,V*31
$GPHDT,,T*1B
$GNGGA,104554.400,2500.7991356,N,12132.4803143,E,2,54,0.52,17.420,M,15.25,M,62,3335*78
$GNRMC,104554.400,A,2500.7991356,N,12132.4803143,E,0.00,54.55,260623,,,D,V*33
$GPHDT,,T*1B
$GNGGA,104554.600,2500.7991356,N,12132.4803083,E,2,54,0.52,17.405,M,15.25,M,62,3335*70
$GNRMC,104554.600,A,2500.7991356,N,12132.4803083,E,0.00,54.55,260623,,,D,V*3C
$GPHDT,,T*1B
$GNGGA,104554.800,2500.7991356,N,12132.4803023,E,2,54,0.52,17.391,M,15.25,M,62,3335*7E
$GNRMC,104554.800,A,2500.7991356,N,12132.4803023,E,0.00,54.55,260623,,,D,V*38
$GPHDT,,T*1B
$GNGSA,A,3,24,196,199,18,15,195,23,05,194,13,,,1.01,0.52,0.86,1*0B
$GNGSA,A,3,85,80,70,84,79,69,73,,,,,,1.01,0.52,0.86,2*00
$GNGSA,A,3,13,08,07,15,03,,,,,,,,1.01,0.52,0.86,3*00
$GNGSA,A,3,38,39,08,16,06,13,46,09,20,37,29,36,1.01,0.52,0.86,4*04
$GNGSA,A,3,19,,,,,,,,,,,,1.01,0.52,0.86,4*05
$GPGSV,4,1,15,24,79,147,42,196,73,055,39,199,60,167,31,18,59,288,39,1*61
$GPGSV,4,2,15,15,47,026,44,45,47,231,32,195,41,179,40,23,35,326,33,1*55
$GPGSV,4,3,15,05,30,102,26,194,24,143,25,13,20,045,39,29,10,210,23,1*5E
$GPGSV,4,4,15,20,09,119,,12,09,155,,10,05,309,16,1*50
$GPGSV,2,1,07,24,79,147,45,196,73,055,45,199,60,167,39,18,59,288,43,8*64
$GPGSV,2,2,07,195,41,179,41,23,35,326,31,194,24,143,34,8*51
$GLGSV,3,1,09,85,45,275,29,80,42,109,41,70,38,343,31,84,28,198,25,1*7C
$GLGSV,3,2,09,79,23,048,18,69,20,053,21,86,18,322,,73,18,167,17,1*7D
$GLGSV,3,3,09,71,15,294,18,1*45
$GAGSV,3,1,09,13,65,264,41,08,54,006,31,07,40,283,17,15,38,173,40,7*73
$GAGSV,3,2,09,26,23,318,22,02,20,101,23,03,18,052,28,30,14,154,17,7*72
$GAGSV,3,3,09,25,05,056,,7*4B
$GAGSV,2,1,07,13,65,264,45,08,54,006,40,07,40,283,28,15,38,173,38,1*7B
$GAGSV,2,2,07,26,23,318,22,02,20,101,22,03,18,052,26,1*44
$GBGSV,4,1,14,38,78,050,42,39,73,251,44,08,70,007,42,16,65,232,43,1*77
$GBGSV,4,2,14,06,63,230,39,13,61,342,43,46,48,138,43,09,46,223,36,1*74
$GBGSV,4,3,14,20,46,039,49,19,41,325,19,37,31,062,30,29,31,225,37,1*7B
$GBGSV,4,4,14,36,18,186,28,10,04,206,,1*7B
$GBGSV,2,1,08,38,78,050,41,39,73,251,45,46,48,138,34,20,46,039,46,4*7E
$GBGSV,2,2,08,19,41,325,35,37,31,062,35,29,31,225,34,36,18,186,29,4*73
$GNGGA,104555.000,2500.7991356,N,12132.4802903,E,2,54,0.52,17.374,M,15.25,M,63,3335*77
$GNRMC,104555.000,A,2500.7991356,N,12132.4802903,E,0.00,54.55,260623,,,D,V*3B
$GPHDT,,T*1B
$GNGGA,104555.200,2500.7991356,N,12132.4802843,E,2,54,0.52,17.357,M,15.25,M,63,3335*71
$GNRMC,104555.200,A,2500.7991356,N,12132.4802843,E,0.00,54.55,260623,,,D,V*3C
$GPHDT,,T*1B
$GNGGA,104555.400,2500.7991356,N,12132.4802783,E,2,54,0.52,17.339,M,15.25,M,63,3335*7C
$GNRMC,104555.400,A,2500.7991356,N,12132.4802783,E,0.00,54.55,260623,,,D,V*39
$GPHDT,,T*1B
