$FW : RTK35X,V1.1X0314AS,Lib20210517,1*54
$Tool : LOCOSYS , GNSS Firebird , v1.0.0.19*39
$---------------------------------------------------*2D
,A,2500.7988416,N,12132.4815623,E,0.00,54.55,260623,,,D,V*34
$GPHDT,,T*1B
$GNGGA,104448.400,2500.7988476,N,12132.4815623,E,2,53,0.53,17.181,M,15.25,M,1,3335*42
$GNRMC,104448.400,A,2500.7988476,N,12132.4815623,E,0.00,54.55,260623,,,D,V*34
$GPHDT,,T*1B
$GNGGA,104448.600,2500.7988596,N,12132.4815623,E,2,53,0.53,17.187,M,15.25,M,1,3335*49
$GNRMC,104448.600,A,2500.7988596,N,12132.4815623,E,0.00,54.55,260623,,,D,V*39
$GPHDT,,T*1B
$GNGGA,104448.800,2500.7988596,N,12132.4815563,E,2,53,0.53,17.196,M,15.25,M,0,3335*41
$GNRMC,104448.800,A,2500.7988596,N,12132.4815563,E,0.00,54.55,260623,,,D,V*30
$GPHDT,,T*1B
$GNGSA,A,3,24,196,199,18,15,195,23,05,194,13,,,1.02,0.53,0.87,1*08
$GNGSA,A,3,85,80,84,79,69,73,,,,,,,1.02,0.53,0.87,2*04
$GNGSA,A,3,13,08,07,15,03,,,,,,,,1.02,0.53,0.87,3*03
$GNGSA,A,3,38,39,08,16,06,13,46,20,09,19,29,37,1.02,0.53,0.87,4*0A
$GNGSA,A,3,36,,,,,,,,,,,,1.02,0.53,0.87,4*0B
$GPGSV,4,1,15,24,79,149,35,196,73,055,39,199,60,167,29,18,59,289,34,1*6A
$GPGSV,4,2,15,15,47,026,43,45,47,231,39,195,41,179,33,23,35,326,18,1*54
$GPGSV,4,3,15,05,30,101,21,194,24,143,31,13,20,044,34,29,10,210,15,1*56
$GPGSV,4,4,15,20,10,118,,12,09,155,,10,05,308,18,1*56
$GPGSV,2,1,07,24,79,149,45,196,73,055,45,199,60,167,41,18,59,289,39,8*69
$GPGSV,2,2,07,195,41,179,45,23,35,326,27,194,24,143,29,8*5E
$GLGSV,2,1,08,85,45,276,17,80,41,110,36,70,38,342,26,84,28,198,21,1*7A
$GLGSV,2,2,08,79,23,049,30,69,20,053,24,73,17,168,23,71,14,293,21,1*78
$GAGSV,2,1,07,13,66,265,40,08,54,006,32,07,40,282,22,15,39,173,38,7*75
$GAGSV,2,2,07,26,22,319,,02,19,102,25,03,18,052,29,7*43
$GAGSV,2,1,05,13,66,265,45,08,54,006,40,15,39,173,41,02,19,102,20,1*7F
$GAGSV,2,2,05,03,18,052,29,1*46
$GBGSV,4,1,13,38,78,049,40,39,73,250,43,08,69,007,42,16,65,231,43,1*77
$GBGSV,4,2,13,06,63,230,39,13,61,342,43,46,48,138,40,20,47,039,47,1*75
$GBGSV,4,3,13,09,46,223,40,19,41,324,25,29,32,225,40,37,31,063,37,1*7C
$GBGSV,4,4,13,36,18,187,32,1*47
$GBGSV,2,1,08,38,78,049,41,39,73,250,43,46,48,138,36,20,47,039,43,4*77
$GBGSV,2,2,08,19,41,324,24,29,32,225,40,37,31,063,32,36,18,187,33,4*7E
$GNGGA,104449.000,2500.7988716,N,12132.4815503,E,2,53,0.53,17.202,M,15.25,M,1,3335*4B
$GNRMC,104449.000,A,2500.7988716,N,12132.4815503,E,0.00,54.55,260623,,,D,V*35
$GPHDT,,T*1B
$GNGGA,104449.200,2500.7988776,N,12132.4815503,E,2,53,0.53,17.209,M,15.25,M,1,3335*44
$GNRMC,104449.200,A,2500.7988776,N,12132.4815503,E,0.00,54.55,260623,,,D,V*31
$GPHDT,,T*1B
$GNGGA,104449.400,2500.7988896,N,12132.4815443,E,2,53,0.53,17.215,M,15.25,M,1,3335*4B
$GNRMC,104449.400,A,2500.7988896,N,12132.4815443,E,0.00,54.55,260623,,,D,V*33
$GPHDT,,T*1B
$GNGGA,104449.600,2500.7988956,N,12132.4815323,E,2,53,0.53,17.219,M,15.25,M,1,3335*49
$GNRMC,104449.600,A,2500.7988956,N,12132.4815323,E,0.00,54.55,260623,,,D,V*3D
$GPHDT,,T*1B
$GNGGA,104449.800,2500.7989076,N,12132.4815263,E,2,53,0.53,17.224,M,15.25,M,1,3335*46
$GNRMC,104449.800,A,2500.7989076,N,12132.4815263,E,0.00,54.55,260623,,,D,V*3C
$GPHDT,,T*1B
$GNGSA,A,3,24,196,199,18,15,195,23,05,194,13,,,1.02,0.53,0.87,1*08
$GNGSA,A,3,85,80,84,79,69,73,,,,,,,1.02,0.53,0.87,2*04
$GNGSA,A,3,13,08,07,15,03,,,,,,,,1.02,0.53,0.87,3*03
$GNGSA,A,3,38,39,08,16,06,13,46,20,09,19,29,37,1.02,0.53,0.87,4*0A
$GNGSA,A,3,36,,,,,,,,,,,,1.02,0.53,0.87,4*0B
$GPGSV,4,1,15,24,79,149,35,196,73,055,39,199,60,167,30,18,59,289,34,1*62
$GPGSV,4,2,15,15,47,026,43,45,47,231,39,195,41,179,33,23,35,326,17,1*5B
$GPGSV,4,3,15,05,30,101,22,194,24,143,31,13,20,044,34,29,10,210,16,1*56
$GPGSV,4,4,15,20,10,118,,12,09,155,,10,05,308,17,1*59
$GPGSV,2,1,07,24,79,149,45,196,73,055,45,199,60,167,41,18,59,289,39,8*69
$GPGSV,2,2,07,195,41,179,45,23,35,326,27,194,24,143,29,8*5E
$GLGSV,3,1,09,85,45,276,18,80,41,110,36,70,38,342,29,84,28,198,20,1*7B
$GLGSV,3,2,09,79,23,049,30,69,20,053,23,86,18,322,,73,17,168,23,1*73
$GLGSV,3,3,09,71,14,293,22,1*4A
$GAGSV,2,1,08,13,66,265,40,08,54,006,32,07,40,282,22,15,39,173,38,7*7A
$GAGSV,2,2,08,26,22,319,,02,19,102,24,03,18,052,29,30,14,154,,7*7B
$GAGSV,2,1,05,13,66,265,45,08,54,006,40,15,39,173,41,02,19,102,20,1*7F
$GAGSV,2,2,05,03,18,052,29,1*46
$GBGSV,4,1,13,38,78,049,40,39,73,250,43,08,69,007,42,16,65,231,43,1*77
$GBGSV,4,2,13,06,63,230,39,13,61,342,43,46,48,138,40,20,47,039,47,1*75
$GBGSV,4,3,13,09,46,223,40,19,41,324,25,29,32,225,40,37,31,063,37,1*7C
$GBGSV,4,4,13,36,18,187,32,1*47
$GBGSV,2,1,08,38,78,049,41,39,73,250,43,46,48,138,36,20,47,039,44,4*70
$GBGSV,2,2,08,19,41,324,25,29,32,225,40,37,31,063,32,36,18,187,33,4*7F
$GNGGA,104450.000,2500.7989136,N,12132.4815143,E,2,53,0.53,17.228,M,15.25,M,2,3335*4D
$GNRMC,104450.000,A,2500.7989136,N,12132.4815143,E,0.00,54.55,260623,,,D,V*38
$GPHDT,,T*1B
$GNGGA,104450.200,2500.7989196,N,12132.4815083,E,2,53,0.53,17.237,M,15.25,M,2,3335*46
$GNRMC,104450.200,A,2500.7989196,N,12132.4815083,E,0.00,54.55,260623,,,D,V*3D
$GPHDT,,T*1B
$GNGGA,104450.400,2500.7989256,N,12132.4814903,E,2,53,0.53,17.246,M,15.25,M,2,3335*49
$GNRMC,104450.400,A,2500.7989256,N,12132.4814903,E,0.00,54.55,260623,,,D,V*34
$GPHDT,,T*1B
$GNGGA,104450.600,2500.7989316,N,12132.4814783,E,2,53,0.53,17.253,M,15.25,M,2,3335*4C
$GNRMC,104450.600,A,2500.7989316,N,12132.4814783,E,0.00,54.55,260623,,,D,V*35
$GPHDT,,T*1B
$GNGGA,104450.800,2500.7989376,N,12132.4814663,E,2,53,0.53,17.263,M,15.25,M,2,3335*48
$GNRMC,104450.800,A,2500.7989376,N,12132.4814663,E,0.00,54.55,260623,,,D,V*32
$GPHDT,,T*1B
$GNGSA,A,3,24,196,199,18,15,195,23,05,194,13,,,1.02,0.53,0.87,1*08
$GNGSA,A,3,85,80,84,79,69,73,,,,,,,1.02,0.53,0.87,2*04
$GNGSA,A,3,13,08,07,15,03,,,,,,,,1.02,0.53,0.87,3*03
$GNGSA,A,3,38,39,08,16,06,13,46,20,09,19,29,37,1.02,0.53,0.87,4*0A
$GNGSA,A,3,36,,,,,,,,,,,,1.02,0.53,0.87,4*0B
$GPGSV,4,1,15,24,79,149,35,196,73,055,39,199,60,167,30,18,59,289,34,1*62
$GPGSV,4,2,15,15,47,026,43,45,47,231,39,195,41,179,33,23,35,326,16,1*5A
$GPGSV,4,3,15,05,30,101,24,194,24,143,31,13,20,044,34,29,10,210,16,1*50
$GPGSV,4,4,15,20,10,118,,12,09,155,,10,05,308,16,1*58
$GPGSV,2,1,07,24,79,149,45,196,73,055,45,199,60,167,41,18,59,289,39,8*69
$GPGSV,2,2,07,195,41,179,45,23,35,326,27,194,24,143,29,8*5E
$GLGSV,3,1,09,85,45,276,18,80,41,110,35,70,38,342,29,84,28,198,21,1*79
$GLGSV,3,2,09,79,23,049,30,69,20,053,23,86,18,322,,73,17,168,24,1*74
$GLGSV,3,3,09,71,14,293,21,1*49
$GAGSV,2,1,08,13,66,265,40,08,54,006,32,07,40,282,24,15,39,173,38,7*7C
$GAGSV,2,2,08,26,22,319,,02,19,102,24,03,18,052,29,30,14,154,,7*7B
$GAGSV,2,1,05,13,66,265,45,08,54,006,40,15,39,173,41,02,19,102,20,1*7F
$GAGSV,2,2,05,03,18,052,29,1*46
$GBGSV,4,1,13,38,78,049,40,39,73,250,43,08,69,007,42,16,65,232,43,1*74
$GBGSV,4,2,13,06,63,230,39,13,61,342,43,46,48,138,40,20,47,039,47,1*75
$GBGSV,4,3,13,09,46,223,40,19,41,324,25,29,32,225,40,37,31,063,37,1*7C
$GBGSV,4,4,13,36,18,187,32,1*47
$GBGSV,2,1,08,38,78,049,41,39,73,250,43,46,48,138,36,20,47,039,44,4*70
$GBGSV,2,2,08,19,41,324,26,29,32,225,40,37,31,063,31,36,18,187,33,4*7F
$GNGGA,104451.000,2500.7989436,N,12132.4814543,E,2,53,0.53,17.273,M,15.25,M,3,3335*43
$GNRMC,104451.000,A,2500.7989436,N,12132.4814543,E,0.00,54.55,260623,,,D,V*39
$GPHDT,,T*1B
$GNGGA,104451.200,2500.7989496,N,12132.4814363,E,2,53,0.53,17.284,M,15.25,M,3,3335*47
$GNRMC,104451.200,A,2500.7989496,N,12132.4814363,E,0.00,54.55,260623,,,D,V*35
$GPHDT,,T*1B
$GNGGA,104451.400,2500.7989616,N,12132.4814183,E,2,53,0.53,17.295,M,15.25,M,3,3335*47
$GNRMC,104451.400,A,2500.7989616,N,12132.4814183,E,0.01,54.55,260623,,,D,V*34
$GPHDT,,T*1B
$GNGGA,104451.600,2500.7989736,N,12132.4814063,E,2,53,0.53,17.305,M,15.25,M,3,3335*41
$GNRMC,104451.600,A,2500.7989736,N,12132.4814063,E,0.00,54.55,260623,,,D,V*3B
$GPHDT,,T*1B
$GNGGA,104451.800,2500.7989796,N,12132.4813943,E,2,53,0.53,17.316,M,15.25,M,3,3335*4B
$GNRMC,104451.800,A,2500.7989796,N,12132.4813943,E,0.00,54.55,260623,,,D,V*33
$GPHDT,,T*1B
$GNGSA,A,3,24,196,199,18,15,195,05,194,13,23,,,1.02,0.53,0.87,1*08
$GNGSA,A,3,85,80,84,79,69,73,,,,,,,1.02,0.53,0.87,2*04
$GNGSA,A,3,13,08,07,15,03,,,,,,,,1.02,0.53,0.87,3*03
$GNGSA,A,3,38,39,08,16,06,13,46,20,09,19,29,37,1.02,0.53,0.87,4*0A
$GNGSA,A,3,36,,,,,,,,,,,,1.02,0.53,0.87,4*0B
$GPGSV,4,1,15,24,79,149,34,196,73,055,39,199,60,167,30,18,59,289,34,1*63
$GPGSV,4,2,15,15,47,026,43,45,47,231,39,195,41,179,32,23,35,326,15,1*58
$GPGSV,4,3,15,05,30,101,25,194,24,143,31,13,20,044,34,29,10,210,17,1*50
$GPGSV,4,4,15,20,10,118,,12,09,155,,10,05,308,15,1*5B
$GPGSV,2,1,07,24,79,149,45,196,73,055,45,199,60,167,41,18,59,289,39,8*69
$GPGSV,2,2,07,195,41,179,45,23,35,326,27,194,24,143,30,8*56
$GLGSV,2,1,08,85,45,276,18,80,41,110,35,70,38,342,29,84,28,198,22,1*7A
$GLGSV,2,2,08,79,23,049,30,69,20,053,24,73,17,168,24,71,14,293,21,1*7F
$GAGSV,2,1,08,13,66,265,40,08,54,006,30,07,40,282,23,15,39,173,38,7*79
$GAGSV,2,2,08,26,22,319,,02,19,102,23,03,18,052,29,30,14,154,,7*7C
$GAGSV,2,1,05,13,66,265,45,08,54,006,40,15,39,173,40,02,19,102,20,1*7E
$GAGSV,2,2,05,03,18,052,29,1*46
$GBGSV,4,1,13,38,78,049,40,39,73,250,43,08,69,007,42,16,65,232,43,1*74
$GBGSV,4,2,13,06,63,230,39,13,61,342,43,46,48,138,40,20,47,039,47,1*75
$GBGSV,4,3,13,09,46,223,40,19,41,324,25,29,32,225,40,37,31,063,37,1*7C
$GBGSV,4,4,13,36,18,187,32,1*47
$GBGSV,2,1,08,38,78,049,41,39,73,250,43,46,48,138,36,20,47,039,44,4*70
$GBGSV,2,2,08,19,41,324,26,29,32,225,40,37,31,063,31,36,18,187,33,4*7F
$GNGGA,104452.000,2500.7989856,N,12132.4813823,E,2,52,0.53,17.321,M,15.25,M,4,3335*46
$GNRMC,104452.000,A,2500.7989856,N,12132.4813823,E,0.00,54.55,260623,,,D,V*3C
$GPHDT,,T*1B
$GNGGA,104452.200,2500.7989916,N,12132.4813703,E,2,52,0.53,17.332,M,15.25,M,4,3335*4E
$GNRMC,104452.200,A,2500.7989916,N,12132.4813703,E,0.00,54.55,260623,,,D,V*36
$GPHDT,,T*1B
$GNGGA,104452.400,2500.7989976,N,12132.4813583,E,2,52,0.53,17.341,M,15.25,M,4,3335*40
$GNRMC,104452.400,A,2500.7989976,N,12132.4813583,E,0.00,54.55,260623,,,D,V*3C
$GPHDT,,T*1B
$GNGGA,104452.600,2500.7990036,N,12132.4813523,E,2,52,0.53,17.351,M,15.25,M,1,3335*49
$GNRMC,104452.600,A,2500.7990036,N,12132.4813523,E,0.00,54.55,260623,,,D,V*31
$GPHDT,,T*1B
$GNGGA,104452.800,2500.7990096,N,12132.4813403,E,2,52,0.53,17.357,M,15.25,M,0,3335*49
$GNRMC,104452.800,A,2500.7990096,N,12132.4813403,E,0.00,54.55,260623,,,D,V*36
$GPHDT,,T*1B
$GNGSA,A,3,24,196,199,18,15,195,05,194,13,23,,,1.02,0.53,0.87,1*08
$GNGSA,A,3,85,80,84,79,69,73,,,,,,,1.02,0.53,0.87,2*04
$GNGSA,A,3,13,08,07,15,03,,,,,,,,1.02,0.53,0.87,3*03
$GNGSA,A,3,38,39,08,16,06,13,46,20,09,19,29,37,1.02,0.53,0.87,4*0A
$GNGSA,A,3,36,,,,,,,,,,,,1.02,0.53,0.87,4*0B
$GPGSV,4,1,15,24,79,149,34,196,73,055,39,199,60,167,30,18,59,289,35,1*62
$GPGSV,4,2,15,15,47,026,43,45,47,231,39,195,41,179,31,23,35,326,16,1*58
$GPGSV,4,3,15,05,30,101,26,194,24,143,31,13,20,044,34,29,10,210,19,1*5D
$GPGSV,4,4,15,20,10,118,,12,09,155,,10,05,308,14,1*5A
$GPGSV,2,1,07,24,79,149,45,196,73,055,45,199,60,167,41,18,59,289,39,8*69
$GPGSV,2,2,07,195,41,179,45,23,35,326,28,194,24,143,30,8*59
$GLGSV,2,1,08,85,45,276,18,80,41,110,35,70,38,342,29,84,28,198,21,1*79
$GLGSV,2,2,08,79,23,049,31,69,20,053,25,73,17,168,24,71,14,293,21,1*7F
$GAGSV,2,1,08,13,66,265,40,08,54,006,30,07,40,282,21,15,39,173,38,7*7B
$GAGSV,2,2,08,26,22,319,,02,19,102,23,03,18,052,29,30,14,154,,7*7C
$GAGSV,2,1,05,13,66,265,45,08,54,006,40,15,39,173,40,02,19,102,21,1*7F
$GAGSV,2,2,05,03,18,052,29,1*46
$GBGSV,4,1,13,38,78,049,41,39,73,250,44,08,69,007,42,16,65,232,43,1*72
$GBGSV,4,2,13,06,63,230,39,13,61,342,43,46,48,138,40,20,47,039,47,1*75
$GBGSV,4,3,13,09,46,223,40,19,41,324,25,29,32,225,40,37,31,063,37,1*7C
$GBGSV,4,4,13,36,18,187,32,1*47
$GBGSV,2,1,08,38,78,049,40,39,73,250,43,46,48,138,36,20,47,039,44,4*71
$GBGSV,2,2,08,19,41,324,28,29,32,225,40,37,31,063,31,36,18,187,33,4*71
$GNGGA,104453.000,2500.7990156,N,12132.4813283,E,2,52,0.53,17.362,M,15.25,M,1,3335*44
$GNRMC,104453.000,A,2500.7990156,N,12132.4813283,E,0.00,54.55,260623,,,D,V*3C
$GPHDT,,T*1B
$GNGGA,104453.200,2500.7990276,N,12132.4813163,E,2,52,0.53,17.368,M,15.25,M,1,3335*40
$GNRMC,104453.200,A,2500.7990276,N,12132.4813163,E,0.01,54.55,260623,,,D,V*33
$GPHDT,,T*1B
$GNGGA,104453.400,2500.7990336,N,12132.4813163,E,2,52,0.53,17.370,M,15.25,M,1,3335*4A
$GNRMC,104453.400,A,2500.7990336,N,12132.4813163,E,0.00,54.55,260623,,,D,V*31
$GPHDT,,T*1B
$GNGGA,104453.600,2500.7990396,N,12132.4813043,E,2,52,0.53,17.373,M,15.25,M,1,3335*42
$GNRMC,104453.600,A,2500.7990396,N,12132.4813043,E,0.01,54.55,260623,,,D,V*3B
$GPHDT,,T*1B
$GNGGA,104453.800,2500.7990456,N,12132.4812983,E,2,52,0.53,17.373,M,15.25,M,1,3335*43
$GNRMC,104453.800,A,2500.7990456,N,12132.4812983,E,0.00,54.55,260623,,,D,V*3B
$GPHDT,,T*1B
$GNGSA,A,3,24,196,199,18,15,195,05,194,13,23,,,1.02,0.53,0.87,1*08
$GNGSA,A,3,85,80,84,79,69,73,,,,,,,1.02,0.53,0.87,2*04
$GNGSA,A,3,13,08,07,15,03,,,,,,,,1.02,0.53,0.87,3*03
$GNGSA,A,3,38,39,08,16,06,13,46,20,09,19,37,29,1.02,0.53,0.87,4*0A
$GNGSA,A,3,36,,,,,,,,,,,,1.02,0.53,0.87,4*0B
$GPGSV,4,1,15,24,79,149,34,196,73,055,40,199,60,167,31,18,59,289,36,1*6E
$GPGSV,4,2,15,15,47,026,43,45,47,231,39,195,41,179,34,23,35,326,13,1*58
$GPGSV,4,3,15,05,30,101,28,194,24,143,31,13,20,044,34,29,10,210,19,1*53
$GPGSV,4,4,15,20,10,118,,12,09,155,,10,05,308,15,1*5B
$GPGSV,2,1,07,24,79,149,45,196,73,055,45,199,60,167,41,18,59,289,40,8*67
$GPGSV,2,2,07,195,41,179,45,23,35,326,29,194,24,143,30,8*58
$GLGSV,2,1,08,85,45,276,18,80,41,110,35,70,38,342,29,84,28,198,20,1*78
$GLGSV,2,2,08,79,23,049,31,69,20,053,25,73,17,168,22,71,14,293,21,1*79
$GAGSV,2,1,08,13,66,265,40,08,54,006,31,07,40,282,19,15,39,173,38,7*71
$GAGSV,2,2,08,26,22,319,,02,19,102,22,03,18,052,29,30,14,154,,7*7D
$GAGSV,2,1,05,13,66,265,45,08,54,006,40,15,39,173,41,02,19,102,21,1*7E
$GAGSV,2,2,05,03,18,052,30,1*4E
$GBGSV,4,1,13,38,78,049,41,39,73,250,44,08,69,007,42,16,65,232,43,1*72
$GBGSV,4,2,13,06,63,230,38,13,61,342,43,46,48,138,40,20,47,039,47,1*74
$GBGSV,4,3,13,09,46,223,40,19,41,324,26,37,31,063,38,29,31,225,40,1*73
$GBGSV,4,4,13,36,18,187,32,1*47
$GBGSV,2,1,08,38,78,049,40,39,73,250,44,46,48,138,36,20,47,039,44,4*76
$GBGSV,2,2,08,19,41,324,28,29,31,225,40,37,31,063,33,36,18,187,33,4*70
$GNGGA,104454.000,2500.7990456,N,12132.4812983,E,2,52,0.53,17.375,M,15.25,M,2,3335*49
$GNRMC,104454.000,A,2500.7990456,N,12132.4812983,E,0.00,54.55,260623,,,D,V*34
$GPHDT,,T*1B
$GNGGA,104454.200,2500.7990456,N,12132.4812923,E,2,52,0.53,17.380,M,15.25,M,2,3335*4B
$GNRMC,104454.200,A,2500.7990456,N,12132.4812923,E,0.00,54.55,260623,,,D,V*3C
$GPHDT,,T*1B
$GNGGA,104454.400,2500.7990516,N,12132.4812923,E,2,52,0.53,17.382,M,15.25,M,2,3335*4A
$GNRMC,104454.400,A,2500.7990516,N,12132.4812923,E,0.00,54.55,260623,,,D,V*3F
$GPHDT,,T*1B
$GNGGA,104454.600,2500.7990576,N,12132.4812923,E,2,53,0.53,17.387,M,15.25,M,2,3335*4A
$GNRMC,104454.600,A,2500.7990576,N,12132.4812923,E,0.00,54.55,260623,,,D,V*3B
$GPHDT,,T*1B
$GNGGA,104454.800,2500.7990636,N,12132.4812923,E,2,53,0.53,17.390,M,15.25,M,2,3335*45
$GNRMC,104454.800,A,2500.7990636,N,12132.4812923,E,0.00,54.55,260623,,,D,V*32
$GPHDT,,T*1B
$GNGSA,A,3,24,196,199,18,15,195,05,194,13,23,,,1.02,0.53,0.87,1*08
$GNGSA,A,3,85,80,84,79,69,73,,,,,,,1.02,0.53,0.87,2*04
$GNGSA,A,3,13,08,07,15,03,,,,,,,,1.02,0.53,0.87,3*03
$GNGSA,A,3,38,39,08,16,06,13,46,20,09,19,37,29,1.02,0.53,0.87,4*0A
$GNGSA,A,3,36,,,,,,,,,,,,1.02,0.53,0.87,4*0B
$GPGSV,4,1,15,24,79,149,35,196,73,055,40,199,60,167,31,18,59,289,36,1*6F
$GPGSV,4,2,15,15,47,026,43,45,47,231,39,195,41,179,33,23,35,326,14,1*58
$GPGSV,4,3,15,05,30,101,30,194,24,143,31,13,20,044,34,29,10,210,19,1*5A
$GPGSV,4,4,15,20,10,118,,12,09,155,,10,05,308,16,1*58
$GPGSV,2,1,07,24,79,149,45,196,73,055,45,199,60,167,40,18,59,289,41,8*67
$GPGSV,2,2,07,195,41,179,45,23,35,326,29,194,24,143,30,8*58
$GLGSV,2,1,08,85,45,276,22,80,41,110,35,70,38,342,28,84,28,198,20,1*70
$GLGSV,2,2,08,79,23,049,31,69,20,053,24,73,17,168,22,71,14,293,23,1*7A
$GAGSV,2,1,08,13,66,265,40,08,54,006,30,07,40,282,19,15,39,173,38,7*70
$GAGSV,2,2,08,26,22,319,,02,19,102,22,03,18,052,30,30,14,154,,7*75
$GAGSV,2,1,05,13,66,265,45,08,54,006,40,15,39,173,41,02,19,102,22,1*7D
$GAGSV,2,2,05,03,18,052,30,1*4E
$GBGSV,4,1,14,38,78,049,41,39,73,250,44,08,69,007,42,16,65,232,43,1*75
$GBGSV,4,2,14,06,63,230,39,13,61,342,43,46,48,138,39,20,47,039,47,1*7C
$GBGSV,4,3,14,09,46,223,40,19,41,324,28,37,31,063,38,29,31,225,40,1*7A
$GBGSV,4,4,14,36,18,186,32,32,09,084,,1*75
$GBGSV,2,1,08,38,78,049,40,39,73,250,44,46,48,138,36,20,47,039,44,4*76
$GBGSV,2,2,08,19,41,324,28,29,31,225,40,37,31,063,33,36,18,186,34,4*76
$GNGGA,104455.000,2500.7990696,N,12132.4812863,E,2,52,0.53,17.395,M,15.25,M,3,3335*46
$GNRMC,104455.000,A,2500.7990696,N,12132.4812863,E,0.00,54.55,260623,,,D,V*34
$GPHDT,,T*1B
$GNGGA,104455.200,2500.7990816,N,12132.4812743,E,2,52,0.53,17.400,M,15.25,M,3,3335*44
$GNRMC,104455.200,A,2500.7990816,N,12132.4812743,E,0.00,54.55,260623,,,D,V*3D
$GPHDT,,T*1B
$GNGGA,104455.400,2500.7990876,N,12132.4812803,E,2,52,0.53,17.406,M,15.25,M,3,3335*49
$GNRMC,104455.400,A,2500.7990876,N,12132.4812803,E,0.00,54.55,260623,,,D,V*36
$GPHDT,,T*1B
$GNGGA,104455.600,2500.7990936,N,12132.4812803,E,2,52,0.53,17.408,M,15.25,M,3,3335*40
$GNRMC,104455.600,A,2500.7990936,N,12132.4812803,E,0.00,54.55,260623,,,D,V*31
$GPHDT,,T*1B
$GNGGA,104455.800,2500.7990996,N,12132.4812803,E,2,52,0.53,17.413,M,15.25,M,3,3335*4E
$GNRMC,104455.800,A,2500.7990996,N,12132.4812803,E,0.00,54.55,260623,,,D,V*35
$GPHDT,,T*1B
$GNGSA,A,3,24,196,199,18,15,195,05,194,13,23,,,1.02,0.53,0.87,1*08
$GNGSA,A,3,85,80,84,79,69,73,,,,,,,1.02,0.53,0.87,2*04
$GNGSA,A,3,13,08,07,15,03,,,,,,,,1.02,0.53,0.87,3*03
$GNGSA,A,3,38,39,08,16,06,13,46,20,09,19,29,37,1.02,0.53,0.87,4*0A
$GNGSA,A,3,36,,,,,,,,,,,,1.02,0.53,0.87,4*0B
$GPGSV,4,1,15,24,79,149,33,196,73,055,40,199,60,167,31,18,59,289,36,1*69
$GPGSV,4,2,15,15,47,026,43,45,47,231,39,195,41,179,35,23,35,326,13,1*59
$GPGSV,4,3,15,05,30,101,29,194,24,143,30,13,20,044,34,29,10,210,17,1*5D
$GPGSV,4,4,15,20,10,118,,12,09,155,,10,05,308,16,1*58
$GPGSV,2,1,07,24,79,149,45,196,73,055,45,199,60,167,40,18,59,289,41,8*67
$GPGSV,2,2,07,195,41,179,45,23,35,326,29,194,24,143,30,8*58
$GLGSV,2,1,08,85,45,276,22,80,41,110,34,70,38,342,28,84,28,198,20,1*71
$GLGSV,2,2,08,79,23,049,29,69,20,053,24,73,17,168,24,71,14,293,21,1*77
$GAGSV,3,1,09,13,66,265,40,08,54,006,30,07,40,282,21,15,39,173,38,7*7B
$GAGSV,3,2,09,26,22,319,,02,19,102,23,03,18,052,30,30,14,154,,7*74
$GAGSV,3,3,09,25,05,056,,7*4B
$GAGSV,2,1,05,13,66,265,45,08,54,006,40,15,39,173,41,02,19,102,23,1*7C
$GAGSV,2,2,05,03,18,052,30,1*4E
$GBGSV,4,1,14,38,78,050,41,39,73,250,44,08,69,007,42,16,65,232,43,1*7D
$GBGSV,4,2,14,06,63,230,39,13,61,342,43,46,48,138,39,20,47,039,47,1*7C
$GBGSV,4,3,14,09,46,223,40,19,41,324,28,29,31,225,40,37,31,062,38,1*7B
$GBGSV,4,4,14,36,18,186,32,32,09,084,,1*75
$GBGSV,2,1,08,38,78,050,40,39,73,250,44,46,48,138,35,20,47,039,44,4*7D
$GBGSV,2,2,08,19,41,324,28,29,31,225,40,37,31,062,32,36,18,186,34,4*76
$GNGGA,104456.000,2500.7991116,N,12132.4812743,E,2,52,0.53,17.416,M,15.25,M,4,3335*4D
$GNRMC,104456.000,A,2500.7991116,N,12132.4812743,E,0.00,54.55,260623,,,D,V*34
$GPHDT,,T*1B
$GNGGA,104456.200,2500.7991176,N,12132.4812743,E,2,52,0.53,17.420,M,15.25,M,4,3335*4C
$GNRMC,104456.200,A,2500.7991176,N,12132.4812743,E,0.00,54.55,260623,,,D,V*30
$GPHDT,,T*1B
$GNGGA,104456.400,2500.7991236,N,12132.4812743,E,2,52,0.53,17.420,M,15.25,M,4,3335*4D
$GNRMC,104456.400,A,2500.7991236,N,12132.4812743,E,0.00,54.55,260623,,,D,V*31
$GPHDT,,T*1B
$GNGGA,104456.600,2500.7991356,N,12132.4812803,E,2,53,0.53,17.422,M,15.25,M,4,3335*40
$GNRMC,104456.600,A,2500.7991356,N,12132.4812803,E,0.00,54.55,260623,,,D,V*3F
$GPHDT,,T*1B
$GNGGA,104456.800,2500.7991476,N,12132.4812803,E,2,53,0.53,17.423,M,15.25,M,4,3335*4A
$GNRMC,104456.800,A,2500.7991476,N,12132.4812803,E,0.00,54.55,260623,,,D,V*34
$GPHDT,,T*1B
$GNGSA,A,3,24,196,199,18,15,195,05,194,13,23,,,1.02,0.53,0.87,1*08
$GNGSA,A,3,85,80,84,79,69,73,,,,,,,1.02,0.53,0.87,2*04
$GNGSA,A,3,13,08,07,15,03,,,,,,,,1.02,0.53,0.87,3*03
$GNGSA,A,3,38,39,08,16,06,13,46,20,09,19,37,29,1.02,0.53,0.87,4*0A
$GNGSA,A,3,36,,,,,,,,,,,,1.02,0.53,0.87,4*0B
$GPGSV,4,1,15,24,79,149,32,196,73,055,40,199,60,167,31,18,59,289,36,1*68
$GPGSV,4,2,15,15,47,026,44,45,47,231,39,195,41,179,35,23,35,326,15,1*58
$GPGSV,4,3,15,05,30,101,29,194,24,143,29,13,20,044,34,29,10,210,16,1*54
$GPGSV,4,4,15,20,10,118,,12,09,155,,10,05,308,17,1*59
$GPGSV,2,1,07,24,79,149,45,196,73,055,45,199,60,167,40,18,59,289,41,8*67
$GPGSV,2,2,07,195,41,179,45,23,35,326,29,194,24,143,30,8*58
$GLGSV,2,1,08,85,45,276,23,80,41,110,34,70,38,342,28,84,28,198,20,1*70
$GLGSV,2,2,08,79,23,049,29,69,20,053,24,73,17,168,25,71,14,293,21,1*76
$GAGSV,3,1,09,13,66,265,40,08,54,006,31,07,40,282,21,15,39,173,38,7*7A
$GAGSV,3,2,09,26,22,319,,02,19,102,23,03,18,052,30,30,14,154,,7*74
$GAGSV,3,3,09,25,05,056,,7*4B
$GAGSV,2,1,06,13,66,265,45,08,54,006,40,07,40,282,22,15,39,173,42,1*7F
$GAGSV,2,2,06,02,19,102,23,03,18,052,30,1*75
$GBGSV,4,1,13,38,78,050,41,39,73,250,44,08,69,007,42,16,65,232,43,1*7A
$GBGSV,4,2,13,06,63,230,39,13,61,342,43,46,48,138,39,20,47,039,47,1*7B
$GBGSV,4,3,13,09,46,223,40,19,41,324,30,37,31,062,37,29,31,225,40,1*7A
$GBGSV,4,4,13,36,18,186,31,1*45
$GBGSV,2,1,08,38,78,050,40,39,73,250,44,46,48,138,35,20,47,039,44,4*7D
$GBGSV,2,2,08,19,41,324,28,29,31,225,40,37,31,062,31,36,18,186,34,4*75
$GNGGA,104457.000,2500.7991536,N,12132.4812863,E,2,53,0.53,17.424,M,15.25,M,5,3335*46
$GNRMC,104457.000,A,2500.7991536,N,12132.4812863,E,0.00,54.55,260623,,,D,V*3E
$GPHDT,,T*1B
$GNGGA,104457.200,2500.7991656,N,12132.4812863,E,2,53,0.53,17.423,M,15.25,M,5,3335*46
$GNRMC,104457.200,A,2500.7991656,N,12132.4812863,E,0.00,54.55,260623,,,D,V*39
$GPHDT,,T*1B
$GNGGA,104457.400,2500.7991776,N,12132.4812923,E,2,53,0.53,17.421,M,15.25,M,5,3335*44
$GNRMC,104457.400,A,2500.7991776,N,12132.4812923,E,0.00,54.55,260623,,,D,V*39
$GPHDT,,T*1B
$GNGGA,104457.600,2500.7991896,N,12132.4812863,E,2,53,0.53,17.421,M,15.25,M,5,3335*42
$GNRMC,104457.600,A,2500.7991896,N,12132.4812863,E,0.00,54.55,260623,,,D,V*3F
$GPHDT,,T*1B
$GNGGA,104457.800,2500.7992016,N,12132.4812923,E,2,53,0.53,17.420,M,15.25,M,5,3335*4B
$GNRMC,104457.800,A,2500.7992016,N,12132.4812923,E,0.00,54.55,260623,,,D,V*37
$GPHDT,,T*1B
$GNGSA,A,3,24,196,199,18,15,195,05,194,13,23,,,1.02,0.53,0.87,1*08
$GNGSA,A,3,85,80,84,79,69,73,,,,,,,1.02,0.53,0.87,2*04
$GNGSA,A,3,13,08,07,15,03,,,,,,,,1.02,0.53,0.87,3*03
$GNGSA,A,3,38,39,08,16,06,13,46,20,09,19,37,29,1.02,0.53,0.87,4*0A
$GNGSA,A,3,36,,,,,,,,,,,,1.02,0.53,0.87,4*0B
$GPGSV,4,1,15,24,79,149,33,196,73,055,40,199,60,167,32,18,59,289,36,1*6A
$GPGSV,4,2,15,15,47,026,44,45,47,231,39,195,41,179,35,23,35,326,14,1*59
$GPGSV,4,3,15,05,30,101,30,194,24,143,29,13,20,044,34,29,10,210,16,1*5C
$GPGSV,4,4,15,20,10,118,,12,09,155,,10,05,308,17,1*59
$GPGSV,2,1,07,24,79,149,45,196,73,055,45,199,60,167,40,18,59,289,41,8*67
$GPGSV,2,2,07,195,41,179,45,23,35,326,29,194,24,143,30,8*58
$GLGSV,2,1,08,85,45,276,24,80,41,110,34,70,38,342,28,84,28,198,20,1*77
$GLGSV,2,2,08,79,23,049,29,69,20,053,25,73,17,168,25,71,14,293,21,1*77
$GAGSV,2,1,08,13,66,265,40,08,54,006,32,07,40,282,20,15,39,173,38,7*78
$GAGSV,2,2,08,02,19,102,23,03,18,052,30,30,14,154,,25,05,056,,7*7A
$GAGSV,2,1,06,13,66,265,45,08,54,006,41,07,40,282,23,15,39,173,42,1*7F
$GAGSV,2,2,06,02,19,102,23,03,18,052,30,1*75
$GBGSV,4,1,13,38,78,050,41,39,73,250,44,08,69,007,42,16,65,232,43,1*7A
$GBGSV,4,2,13,06,63,230,39,13,61,342,43,46,48,138,39,20,47,039,47,1*7B
$GBGSV,4,3,13,09,46,223,40,19,41,324,30,37,31,062,37,29,31,225,40,1*7A
$GBGSV,4,4,13,36,18,186,31,1*45
$GBGSV,2,1,08,38,78,050,41,39,73,250,44,46,48,138,35,20,47,039,44,4*7C
$GBGSV,2,2,08,19,41,324,28,29,31,225,40,37,31,062,32,36,18,186,34,4*76
$GNGGA,104458.000,2500.7992076,N,12132.4812983,E,2,53,0.53,17.416,M,15.25,M,6,3335*46
$GNRMC,104458.000,A,2500.7992076,N,12132.4812983,E,0.00,54.55,260623,,,D,V*3C
$GPHDT,,T*1B
$GNGGA,104458.200,2500.7992196,N,12132.4812923,E,2,53,0.53,17.416,M,15.25,M,6,3335*41
$GNRMC,104458.200,A,2500.7992196,N,12132.4812923,E,0.00,54.55,260623,,,D,V*3B
$GPHDT,,T*1B
$GNGGA,104458.400,2500.7992376,N,12132.4812863,E,2,53,0.53,17.419,M,15.25,M,6,3335*41
$GNRMC,104458.400,A,2500.7992376,N,12132.4812863,E,0.00,54.55,260623,,,D,V*34
$GPHDT,,T*1B
$GNGGA,104458.600,2500.7992496,N,12132.4812863,E,2,53,0.53,17.424,M,15.25,M,6,3335*44
$GNRMC,104458.600,A,2500.7992496,N,12132.4812863,E,0.00,54.55,260623,,,D,V*3F
$GPHDT,,T*1B
$GNGGA,104458.800,2500.7992676,N,12132.4812683,E,2,53,0.53,17.420,M,15.25,M,6,3335*42
$GNRMC,104458.800,A,2500.7992676,N,12132.4812683,E,0.00,54.55,260623,,,D,V*3D
$GPHDT,,T*1B
$GNGSA,A,3,24,196,199,18,15,195,05,194,13,23,,,1.02,0.53,0.87,1*08
$GNGSA,A,3,85,80,84,79,69,73,,,,,,,1.02,0.53,0.87,2*04
$GNGSA,A,3,13,08,07,15,03,,,,,,,,1.02,0.53,0.87,3*03
$GNGSA,A,3,38,39,08,16,06,13,46,20,09,19,29,37,1.02,0.53,0.87,4*0A
$GNGSA,A,3,36,,,,,,,,,,,,1.02,0.53,0.87,4*0B
$GPGSV,4,1,15,24,79,149,34,196,73,055,40,199,60,167,32,18,59,289,37,1*6C
$GPGSV,4,2,15,45,47,231,39,15,47,026,44,195,41,179,35,23,35,326,17,1*5A
$GPGSV,4,3,15,05,30,101,31,194,24,143,30,13,20,044,34,20,10,118,,1*50
$GPGSV,4,4,15,29,10,210,16,12,09,155,,10,05,308,17,1*5C
$GPGSV,2,1,07,24,79,149,45,196,73,055,45,199,60,167,39,18,59,289,41,8*69
$GPGSV,2,2,07,195,41,179,45,23,35,326,29,194,24,143,31,8*59
$GLGSV,2,1,08,85,45,276,26,80,41,110,34,70,38,342,29,84,28,198,19,1*7E
$GLGSV,2,2,08,79,23,049,30,69,20,053,26,73,17,168,25,71,14,293,21,1*7C
$GAGSV,2,1,08,13,66,265,40,08,54,006,32,07,40,282,17,15,39,173,38,7*7C
$GAGSV,2,2,08,02,19,102,23,03,18,052,30,30,14,154,,25,05,056,,7*7A
$GAGSV,2,1,06,13,66,265,45,08,54,006,40,07,40,282,21,15,39,173,42,1*7C
$GAGSV,2,2,06,02,19,102,22,03,18,052,29,1*7C
$GBGSV,4,1,16,38,78,050,41,39,73,250,44,08,69,007,42,16,65,232,43,1*7F
$GBGSV,4,2,16,06,63,230,39,13,61,342,43,46,48,138,39,20,47,039,47,1*7E
$GBGSV,4,3,16,09,46,223,40,19,41,324,27,29,31,225,40,37,31,062,37,1*79
$GBGSV,4,4,16,36,18,186,31,30,07,176,,10,04,207,,22,03,287,,1*7A
$GBGSV,2,1,08,38,78,050,40,39,73,250,44,46,48,138,35,20,47,039,44,4*7D
$GBGSV,2,2,08,19,41,324,28,29,31,225,40,37,31,062,33,36,18,186,33,4*70
$GNGGA,104459.000,2500.7992856,N,12132.4812503,E,2,53,0.53,17.420,M,15.25,M,7,3335*4D
$GNRMC,104459.000,A,2500.7992856,N,12132.4812503,E,0.00,54.55,260623,,,D,V*33
$GPHDT,,T*1B
$GNGGA,104459.200,2500.7992976,N,12132.4812383,E,2,53,0.53,17.418,M,15.25,M,7,3335*49
$GNRMC,104459.200,A,2500.7992976,N,12132.4812383,E,0.00,54.55,260623,,,D,V*3C
$GPHDT,,T*1B
$GNGGA,104459.400,2500.7993096,N,12132.4812383,E,2,53,0.53,17.415,M,15.25,M,7,3335*44
$GNRMC,104459.400,A,2500.7993096,N,12132.4812383,E,0.00,54.55,260623,,,D,V*3C
$GPHDT,,T*1B
$GNGGA,104459.600,2500.7993156,N,12132.4812443,E,2,53,0.53,17.412,M,15.25,M,7,3335*47
$GNRMC,104459.600,A,2500.7993156,N,12132.4812443,E,0.00,54.55,260623,,,D,V*38
$GPHDT,,T*1B
$GNGGA,104459.800,2500.7993336,N,12132.4812323,E,2,54,0.53,17.411,M,15.25,M,7,3335*48
$GNRMC,104459.800,A,2500.7993336,N,12132.4812323,E,0.00,54.55,260623,,,D,V*33
$GPHDT,,T*1B
$GNGSA,A,3,24,196,199,18,15,195,23,05,194,13,,,1.02,0.53,0.87,1*08
$GNGSA,A,3,85,80,84,79,69,73,,,,,,,1.02,0.53,0.87,2*04
$GNGSA,A,3,13,08,07,15,03,,,,,,,,1.02,0.53,0.87,3*03
$GNGSA,A,3,38,39,08,16,06,13,46,20,09,19,37