$FW : RTK35X,V1.1X0314AS,Lib20210517,1*54
$Tool : LOCOSYS , GNSS Firebird , v1.0.0.19*39
$---------------------------------------------------*2D
$GPHDT,,T*1B
$GNGGA,104639.600,2500.7984400,N,12132.4812900,E,2,54,0.52,18.30,M,15.25,M,12,3335*40
$GNRMC,104639.600,A,2500.7984400,N,12132.4812900,E,0.03,54.55,260623,,,D,V*35
$GPHDT,,T*1B
$GNGGA,104639.800,2500.7984400,N,12132.4812900,E,2,54,0.52,18.30,M,15.25,M,12,3335*4E
$GNRMC,104639.800,A,2500.7984400,N,12132.4812900,E,0.03,54.55,260623,,,D,V*3B
$GPHDT,,T*1B
$GNGSA,A,3,24,196,199,18,15,195,23,05,194,13,,,1.01,0.52,0.86,1*0B
$GNGSA,A,3,85,80,70,84,79,69,73,,,,,,1.01,0.52,0.86,2*00
$GNGSA,A,3,13,08,07,15,03,,,,,,,,1.01,0.52,0.86,3*00
$GNGSA,A,3,38,39,08,16,06,13,46,20,09,29,37,36,1.01,0.52,0.86,4*04
$GNGSA,A,3,19,,,,,,,,,,,,1.01,0.52,0.86,4*05
$GPGSV,4,1,15,24,79,146,41,196,73,055,38,199,60,167,29,18,59,288,38,1*6A
$GPGSV,4,2,15,15,47,027,42,45,47,231,40,195,41,179,34,23,35,326,33,1*54
$GPGSV,4,3,15,05,30,102,19,194,24,143,28,13,20,045,35,29,10,210,16,1*55
$GPGSV,4,4,15,20,09,119,,12,09,155,,10,06,309,13,1*56
$GPGSV,2,1,07,24,79,146,44,196,73,055,45,199,60,167,37,18,59,288,43,8*6A
$GPGSV,2,2,07,195,41,179,40,23,35,326,27,194,24,143,33,8*50
$GLGSV,2,1,08,85,45,274,32,80,42,109,34,70,38,343,34,84,27,197,27,1*72
$GLGSV,2,2,08,79,22,048,32,86,19,322,23,69,19,053,31,73,18,167,17,1*7F
$GAGSV,3,1,09,13,65,263,42,08,53,007,36,07,40,283,16,15,38,173,30,7*70
$GAGSV,3,2,09,26,23,318,16,02,20,101,14,03,18,053,14,30,15,153,,7*7F
$GAGSV,3,3,09,25,05,055,,7*48
$GAGSV,2,1,06,13,65,263,42,08,53,007,40,07,40,283,19,15,38,173,36,1*70
$GAGSV,2,2,06,26,23,318,27,03,18,053,26,1*71
$GBGSV,4,1,14,38,79,051,41,39,73,252,43,08,70,007,39,16,65,233,43,1*7D
$GBGSV,4,2,14,06,63,230,39,13,61,342,44,46,48,137,32,20,46,040,49,1*7E
$GBGSV,4,3,14,09,46,223,39,19,42,325,18,29,31,225,35,37,31,062,39,1*77
$GBGSV,4,4,14,36,19,186,20,07,06,196,,1*7C
$GBGSV,2,1,08,38,79,051,43,39,73,252,44,46,48,137,25,20,46,040,46,4*7F
$GBGSV,2,2,08,19,42,325,35,29,31,225,38,37,31,062,38,36,19,186,33,4*7B
$GNGGA,104640.000,2500.7984400,N,12132.4812800,E,2,54,0.52,18.30,M,15.25,M,13,3335*48
$GNRMC,104640.000,A,2500.7984400,N,12132.4812800,E,0.03,54.55,260623,,,D,V*3C
$GPHDT,,T*1B
$GNGGA,104640.200,2500.7984400,N,12132.4812800,E,2,54,0.52,18.30,M,15.25,M,13,3335*4A
$GNRMC,104640.200,A,2500.7984400,N,12132.4812800,E,0.03,54.55,260623,,,D,V*3E
$GPHDT,,T*1B
$GNGGA,104640.400,2500.7984400,N,12132.4812800,E,2,54,0.52,18.30,M,15.25,M,13,3335*4C
$GNRMC,104640.400,A,2500.7984400,N,12132.4812800,E,0.03,54.55,260623,,,D,V*38
$GPHDT,,T*1B
$GNGGA,104640.600,2500.7984400,N,12132.4812600,E,2,54,0.52,18.29,M,15.25,M,13,3335*48
$GNRMC,104640.600,A,2500.7984400,N,12132.4812600,E,0.03,54.55,260623,,,D,V*34
$GPHDT,,T*1B
$GNGGA,104640.800,2500.7984400,N,12132.4812600,E,2,54,0.52,18.29,M,15.25,M,13,3335*46
$GNRMC,104640.800,A,2500.7984400,N,12132.4812600,E,0.03,54.55,260623,,,D,V*3A
$GPHDT,,T*1B
$GNGSA,A,3,24,196,199,18,15,195,23,05,194,13,,,1.01,0.52,0.86,1*0B
$GNGSA,A,3,85,80,70,84,79,69,73,,,,,,1.01,0.52,0.86,2*00
$GNGSA,A,3,13,08,07,15,03,,,,,,,,1.01,0.52,0.86,3*00
$GNGSA,A,3,38,39,08,16,06,13,46,09,20,37,29,36,1.01,0.52,0.86,4*04
$GNGSA,A,3,19,,,,,,,,,,,,1.01,0.52,0.86,4*05
$GPGSV,4,1,15,24,79,146,42,196,73,055,38,199,60,167,29,18,59,288,39,1*68
$GPGSV,4,2,15,15,47,027,42,45,47,231,39,195,41,179,32,23,35,326,33,1*5C
$GPGSV,4,3,15,05,30,102,18,194,24,143,28,13,20,045,35,29,10,210,16,1*54
$GPGSV,4,4,15,20,09,119,,12,09,155,,10,06,309,12,1*57
$GPGSV,2,1,07,24,79,146,45,196,73,055,45,199,60,167,39,18,59,288,43,8*65
$GPGSV,2,2,07,195,41,179,39,23,35,326,27,194,24,143,32,8*5F
$GLGSV,2,1,08,85,45,274,32,80,42,109,38,70,38,343,34,84,27,197,27,1*7E
$GLGSV,2,2,08,79,22,048,33,69,19,053,31,86,19,322,22,73,18,167,16,1*7E
$GAGSV,3,1,09,13,65,263,41,08,53,007,36,07,40,283,15,15,38,173,26,7*77
$GAGSV,3,2,09,26,23,318,14,02,20,101,15,03,18,053,13,30,15,153,,7*7B
$GAGSV,3,3,09,25,05,055,18,7*41
$GAGSV,2,1,06,13,65,263,43,08,53,007,39,07,40,283,19,15,38,173,35,1*7C
$GAGSV,2,2,06,26,23,318,27,03,18,053,26,1*71
$GBGSV,4,1,13,38,79,051,41,39,73,252,44,08,70,007,39,16,65,233,43,1*7D
$GBGSV,4,2,13,06,63,230,37,13,61,342,44,46,48,137,28,09,46,223,39,1*77
$GBGSV,4,3,13,20,46,040,49,19,42,325,16,37,31,062,39,29,31,225,33,1*73
$GBGSV,4,4,13,36,19,186,25,1*41
$GBGSV,2,1,08,38,79,051,43,39,73,252,44,46,48,137,34,20,46,040,46,4*7F
$GBGSV,2,2,08,19,42,325,35,29,31,225,35,37,31,062,38,36,19,186,31,4*74
$GNGGA,104641.000,2500.7984400,N,12132.4812500,E,2,54,0.52,18.27,M,15.25,M,14,3335*45
$GNRMC,104641.000,A,2500.7984400,N,12132.4812500,E,0.03,54.55,260623,,,D,V*30
$GPHDT,,T*1B
$GNGGA,104641.200,2500.7984400,N,12132.4812400,E,2,54,0.52,18.27,M,15.25,M,14,3335*46
$GNRMC,104641.200,A,2500.7984400,N,12132.4812400,E,0.03,54.55,260623,,,D,V*33
$GPHDT,,T*1B
$GNGGA,104641.400,2500.7984600,N,12132.4812200,E,2,54,0.52,18.25,M,15.25,M,14,3335*46
$GNRMC,104641.400,A,2500.7984600,N,12132.4812200,E,0.04,54.55,260623,,,D,V*36
$GPHDT,,T*1B
$GNGGA,104641.600,2500.7984700,N,12132.4812100,E,2,54,0.52,18.25,M,15.25,M,14,3335*46
$GNRMC,104641.600,A,2500.7984700,N,12132.4812100,E,0.04,54.55,260623,,,D,V*36
$GPHDT,,T*1B
$GNGGA,104641.800,2500.7984700,N,12132.4812000,E,2,54,0.52,18.24,M,15.25,M,14,3335*48
$GNRMC,104641.800,A,2500.7984700,N,12132.4812000,E,0.04,54.55,260623,,,D,V*39
$GPHDT,,T*1B
$GNGSA,A,3,24,196,18,199,15,195,23,05,194,13,,,1.01,0.52,0.86,1*0B
$GNGSA,A,3,85,80,70,84,79,69,73,,,,,,1.01,0.52,0.86,2*00
$GNGSA,A,3,13,08,07,15,03,,,,,,,,1.01,0.52,0.86,3*00
$GNGSA,A,3,38,39,08,16,06,13,46,09,20,37,29,36,1.01,0.52,0.86,4*04
$GNGSA,A,3,19,,,,,,,,,,,,1.01,0.52,0.86,4*05
$GPGSV,4,1,15,24,79,146,42,196,73,055,38,18,60,287,39,199,60,167,27,1*63
$GPGSV,4,2,15,15,47,027,42,45,47,231,39,195,41,179,30,23,35,326,33,1*5E
$GPGSV,4,3,15,05,30,102,22,194,24,143,28,13,20,045,35,29,10,210,15,1*5E
$GPGSV,4,4,15,20,09,119,,12,09,155,,10,06,309,13,1*56
$GPGSV,2,1,07,24,79,146,45,196,73,055,44,199,60,167,41,18,60,287,43,8*6E
$GPGSV,2,2,07,195,41,179,36,23,35,326,27,194,24,143,34,8*56
$GLGSV,3,1,09,85,45,274,31,80,42,109,38,70,38,343,33,84,27,197,26,1*7B
$GLGSV,3,2,09,79,22,048,33,86,19,322,21,69,19,053,31,73,18,167,20,1*78
$GLGSV,3,3,09,71,15,294,25,1*4B
$GAGSV,3,1,09,13,65,263,41,08,53,007,36,07,40,283,14,15,38,173,27,7*77
$GAGSV,3,2,09,26,23,318,12,02,20,101,14,03,18,053,12,30,15,153,,7*7D
$GAGSV,3,3,09,25,05,055,17,7*4E
$GAGSV,2,1,06,13,65,263,43,08,53,007,39,07,40,283,21,15,38,173,38,1*7A
$GAGSV,2,2,06,26,23,318,27,03,18,053,26,1*71
$GBGSV,4,1,14,38,79,051,42,39,73,252,44,08,70,007,39,16,65,233,43,1*79
$GBGSV,4,2,14,06,63,230,37,13,61,342,44,46,48,137,35,09,46,223,39,1*7C
$GBGSV,4,3,14,20,46,040,49,19,42,325,13,37,31,062,39,29,31,225,32,1*70
$GBGSV,4,4,14,36,19,186,26,30,06,176,,1*70
$GBGSV,2,1,08,38,79,051,43,39,73,252,44,46,48,137,35,20,46,040,46,4*7E
$GBGSV,2,2,08,19,42,325,35,29,31,225,36,37,31,062,37,36,19,186,31,4*78
$GNGGA,104642.000,2500.7984800,N,12132.4811900,E,2,54,0.52,18.22,M,15.25,M,15,3335*41
$GNRMC,104642.000,A,2500.7984800,N,12132.4811900,E,0.05,54.55,260623,,,D,V*36
$GPHDT,,T*1B
$GNGGA,104642.200,2500.7985000,N,12132.4811700,E,2,54,0.52,18.21,M,15.25,M,15,3335*47
$GNRMC,104642.200,A,2500.7985000,N,12132.4811700,E,0.05,54.55,260623,,,D,V*33
$GPHDT,,T*1B
$GNGGA,104642.400,2500.7985000,N,12132.4811600,E,2,54,0.52,18.20,M,15.25,M,15,3335*41
$GNRMC,104642.400,A,2500.7985000,N,12132.4811600,E,0.05,54.55,260623,,,D,V*34
$GPHDT,,T*1B
$GNGGA,104642.600,2500.7985200,N,12132.4811400,E,2,54,0.52,18.19,M,15.25,M,15,3335*49
$GNRMC,104642.600,A,2500.7985200,N,12132.4811400,E,0.06,54.55,260623,,,D,V*35
$GPHDT,,T*1B
$GNGGA,104642.800,2500.7985300,N,12132.4811300,E,2,54,0.52,18.18,M,15.25,M,15,3335*40
$GNRMC,104642.800,A,2500.7985300,N,12132.4811300,E,0.06,54.55,260623,,,D,V*3D
$GPHDT,,T*1B
$GNGSA,A,3,24,196,18,199,15,195,23,05,194,13,,,1.01,0.52,0.86,1*0B
$GNGSA,A,3,85,80,70,84,79,69,73,,,,,,1.01,0.52,0.86,2*00
$GNGSA,A,3,13,08,07,15,03,,,,,,,,1.01,0.52,0.86,3*00
$GNGSA,A,3,38,39,08,16,06,13,46,09,20,37,29,36,1.01,0.52,0.86,4*04
$GNGSA,A,3,19,,,,,,,,,,,,1.01,0.52,0.86,4*05
$GPGSV,4,1,15,24,80,145,42,196,73,055,38,18,60,287,39,199,60,167,28,1*69
$GPGSV,4,2,15,15,47,027,42,45,47,231,39,195,41,179,28,23,36,327,33,1*55
$GPGSV,4,3,15,05,30,102,24,194,24,143,28,13,20,045,35,29,10,210,14,1*59
$GPGSV,4,4,15,20,09,119,,12,09,155,,10,06,309,12,1*57
$GPGSV,2,1,07,24,80,145,46,196,73,055,44,199,60,167,41,18,60,287,43,8*68
$GPGSV,2,2,07,195,41,179,39,23,36,327,28,194,24,143,35,8*55
$GLGSV,3,1,09,85,45,274,31,80,42,109,37,70,38,343,34,84,27,197,28,1*7D
$GLGSV,3,2,09,79,22,048,33,86,19,322,21,69,19,053,31,73,18,167,20,1*78
$GLGSV,3,3,09,71,15,294,25,1*4B
$GAGSV,3,1,09,13,65,263,41,08,53,007,36,07,40,283,13,15,38,173,22,7*75
$GAGSV,3,2,09,26,23,318,13,02,20,101,14,03,18,053,11,30,15,153,,7*7F
$GAGSV,3,3,09,25,05,055,18,7*41
$GAGSV,2,1,06,13,65,263,43,08,53,007,39,07,40,283,22,15,38,173,38,1*79
$GAGSV,2,2,06,26,23,318,27,03,18,053,26,1*71
$GBGSV,4,1,14,38,79,051,42,39,73,252,44,08,70,007,39,16,65,233,44,1*7E
$GBGSV,4,2,14,06,63,230,37,13,61,342,44,46,48,137,36,09,46,223,39,1*7F
$GBGSV,4,3,14,20,46,040,49,19,42,325,15,37,31,062,39,29,31,225,34,1*70
$GBGSV,4,4,14,36,19,186,24,30,06,176,,1*72
$GBGSV,2,1,08,38,79,051,43,39,73,252,44,46,48,137,36,20,46,040,46,4*7D
$GBGSV,2,2,08,19,42,325,35,29,31,225,36,37,31,062,37,36,19,186,34,4*7D
$GNGGA,104643.000,2500.7985400,N,12132.4811100,E,2,54,0.52,18.18,M,15.25,M,16,3335*4F
$GNRMC,104643.000,A,2500.7985400,N,12132.4811100,E,0.06,54.55,260623,,,D,V*31
$GPHDT,,T*1B
$GNGGA,104643.200,2500.7985500,N,12132.4810900,E,2,54,0.52,18.17,M,15.25,M,16,3335*4A
$GNRMC,104643.200,A,2500.7985500,N,12132.4810900,E,0.06,54.55,260623,,,D,V*3B
$GPHDT,,T*1B
$GNGGA,104643.400,2500.7985600,N,12132.4810700,E,2,54,0.52,18.16,M,15.25,M,16,3335*40
$GNRMC,104643.400,A,2500.7985600,N,12132.4810700,E,0.07,54.55,260623,,,D,V*31
$GPHDT,,T*1B
$GNGGA,104643.600,2500.7985800,N,12132.4810500,E,2,54,0.52,18.15,M,15.25,M,16,3335*4D
$GNRMC,104643.600,A,2500.7985800,N,12132.4810500,E,0.07,54.55,260623,,,D,V*3F
$GPHDT,,T*1B
$GNGGA,104643.800,2500.7985800,N,12132.4810400,E,2,54,0.52,18.14,M,15.25,M,16,3335*43
$GNRMC,104643.800,A,2500.7985800,N,12132.4810400,E,0.07,54.55,260623,,,D,V*30
$GPHDT,,T*1B
$GNGSA,A,3,24,196,18,199,15,195,23,05,194,13,,,1.01,0.52,0.86,1*0B
$GNGSA,A,3,85,80,70,84,79,69,73,,,,,,1.01,0.52,0.86,2*00
$GNGSA,A,3,13,08,07,15,03,,,,,,,,1.01,0.52,0.86,3*00
$GNGSA,A,3,38,39,08,16,06,13,46,09,20,37,29,36,1.01,0.52,0.86,4*04
$GNGSA,A,3,19,,,,,,,,,,,,1.01,0.52,0.86,4*05
$GPGSV,4,1,15,24,80,145,42,196,73,055,38,18,60,287,39,199,60,167,28,1*69
$GPGSV,4,2,15,15,47,027,42,45,47,231,39,195,41,179,31,23,36,327,33,1*5D
$GPGSV,4,3,15,05,30,102,23,194,24,143,28,13,20,045,36,29,10,210,15,1*5C
$GPGSV,4,4,15,20,09,119,,12,09,155,,10,06,309,12,1*57
$GPGSV,2,1,07,24,80,145,46,196,73,055,44,199,60,167,41,18,60,287,43,8*68
$GPGSV,2,2,07,195,41,179,39,23,36,327,29,194,24,143,35,8*54
$GLGSV,3,1,09,85,45,274,32,80,42,109,37,70,38,343,34,84,27,197,28,1*7E
$GLGSV,3,2,09,79,22,048,33,86,19,322,21,69,19,053,31,73,18,167,22,1*7A
$GLGSV,3,3,09,71,15,294,27,1*49
$GAGSV,3,1,09,13,65,263,41,08,53,007,36,07,40,283,14,15,38,173,26,7*76
$GAGSV,3,2,09,26,23,318,13,02,20,101,15,03,18,053,11,30,15,153,,7*7E
$GAGSV,3,3,09,25,05,055,17,7*4E
$GAGSV,2,1,06,13,65,263,43,08,53,007,39,07,40,283,22,15,38,173,38,1*79
$GAGSV,2,2,06,26,23,318,27,03,18,053,27,1*70
$GBGSV,4,1,14,38,79,051,42,39,73,252,44,08,70,007,39,16,65,233,44,1*7E
$GBGSV,4,2,14,06,63,230,37,13,61,342,44,46,48,137,35,09,46,223,39,1*7C
$GBGSV,4,3,14,20,46,040,49,19,42,325,14,37,31,062,39,29,31,225,35,1*70
$GBGSV,4,4,14,36,19,186,24,30,06,176,,1*72
$GBGSV,2,1,08,38,79,051,43,39,73,252,44,46,48,137,37,20,46,040,46,4*7C
$GBGSV,2,2,08,19,42,325,35,29,31,225,36,37,31,062,37,36,19,186,34,4*7D
$GNGGA,104644.000,2500.7985900,N,12132.4810200,E,2,54,0.52,18.14,M,15.25,M,17,3335*4A
$GNRMC,104644.000,A,2500.7985900,N,12132.4810200,E,0.08,54.55,260623,,,D,V*37
$GPHDT,,T*1B
$GNGGA,104644.200,2500.7985900,N,12132.4810100,E,2,54,0.52,18.14,M,15.25,M,17,3335*4B
$GNRMC,104644.200,A,2500.7985900,N,12132.4810100,E,0.01,54.55,260623,,,D,V*3F
$GPHDT,,T*1B
$GNGGA,104644.400,2500.7986000,N,12132.4809800,E,2,54,0.52,18.14,M,15.25,M,17,3335*46
$GNRMC,104644.400,A,2500.7986000,N,12132.4809800,E,0.00,54.55,260623,,,D,V*33
$GPHDT,,T*1B
$GNGGA,104644.600,2500.7986100,N,12132.4809700,E,2,54,0.52,18.14,M,15.25,M,17,3335*4A
$GNRMC,104644.600,A,2500.7986100,N,12132.4809700,E,0.00,54.55,260623,,,D,V*3F
$GPHDT,,T*1B
$GNGGA,104644.800,2500.7986100,N,12132.4809600,E,2,54,0.52,18.15,M,15.25,M,17,3335*44
$GNRMC,104644.800,A,2500.7986100,N,12132.4809600,E,0.00,54.55,260623,,,D,V*30
$GPHDT,,T*1B
$GNGSA,A,3,24,196,18,199,15,195,23,05,194,13,,,1.01,0.52,0.86,1*0B
$GNGSA,A,3,85,80,70,84,79,69,73,,,,,,1.01,0.52,0.86,2*00
$GNGSA,A,3,13,08,07,15,03,,,,,,,,1.01,0.52,0.86,3*00
$GNGSA,A,3,38,39,08,16,06,13,46,09,20,37,29,36,1.01,0.52,0.86,4*04
$GNGSA,A,3,19,,,,,,,,,,,,1.01,0.52,0.86,4*05
$GPGSV,4,1,16,24,80,145,42,196,73,055,38,18,60,287,39,199,60,167,27,1*65
$GPGSV,4,2,16,15,47,027,42,45,47,231,39,195,41,179,34,23,36,327,33,1*5B
$GPGSV,4,3,16,05,30,102,21,194,24,143,29,13,20,045,36,29,10,210,15,1*5C
$GPGSV,4,4,16,20,09,119,,12,09,155,,10,06,309,13,32,01,254,,1*66
$GPGSV,2,1,07,24,80,145,46,196,73,055,44,199,60,167,41,18,60,287,43,8*68
$GPGSV,2,2,07,195,41,179,39,23,36,327,29,194,24,143,35,8*54
$GLGSV,3,1,09,85,45,274,32,80,42,109,37,70,38,343,34,84,27,197,27,1*71
$GLGSV,3,2,09,79,22,048,33,86,19,322,21,69,19,053,29,73,18,167,22,1*73
$GLGSV,3,3,09,71,15,294,26,1*48
$GAGSV,3,1,09,13,65,263,41,08,53,007,37,07,40,283,16,15,38,173,28,7*7B
$GAGSV,3,2,09,26,23,318,11,02,20,101,18,03,18,053,14,30,15,153,,7*74
$GAGSV,3,3,09,25,05,055,18,7*41
$GAGSV,2,1,07,13,65,263,42,08,53,007,39,07,40,283,22,15,38,173,38,1*79
$GAGSV,2,2,07,26,23,318,27,02,20,101,19,03,18,053,27,1*49
$GBGSV,4,1,14,38,79,051,42,39,73,252,44,08,70,007,39,16,65,233,44,1*7E
$GBGSV,4,2,14,06,63,230,38,13,61,342,44,46,48,137,35,09,46,223,39,1*73
$GBGSV,4,3,14,20,46,040,49,19,42,325,,37,31,062,39,29,31,225,35,1*75
$GBGSV,4,4,14,36,19,186,24,30,06,176,,1*72
$GBGSV,2,1,08,38,79,051,43,39,73,252,45,46,48,137,37,20,46,040,46,4*7D
$GBGSV,2,2,08,19,42,325,35,37,31,062,37,29,31,225,36,36,19,186,34,4*7D
$GNGGA,104645.000,2500.7986200,N,12132.4809300,E,2,54,0.52,18.15,M,15.25,M,18,3335*44
$GNRMC,104645.000,A,2500.7986200,N,12132.4809300,E,0.00,54.55,260623,,,D,V*3F
$GPHDT,,T*1B
$GNGGA,104645.200,2500.7986300,N,12132.4809200,E,2,54,0.52,18.16,M,15.25,M,18,3335*45
$GNRMC,104645.200,A,2500.7986300,N,12132.4809200,E,0.00,54.55,260623,,,D,V*3D
$GPHDT,,T*1B
$GNGGA,104645.400,2500.7986400,N,12132.4809000,E,2,54,0.52,18.17,M,15.25,M,18,3335*47
$GNRMC,104645.400,A,2500.7986400,N,12132.4809000,E,0.00,54.55,260623,,,D,V*3E
$GPHDT,,T*1B
$GNGGA,104645.600,2500.7986400,N,12132.4808900,E,2,54,0.52,18.17,M,15.25,M,18,3335*4D
$GNRMC,104645.600,A,2500.7986400,N,12132.4808900,E,0.00,54.55,260623,,,D,V*34
$GPHDT,,T*1B
$GNGGA,104645.800,2500.7986400,N,12132.4808800,E,2,54,0.52,18.18,M,15.25,M,18,3335*4D
$GNRMC,104645.800,A,2500.7986400,N,12132.4808800,E,0.00,54.55,260623,,,D,V*3B
$GPHDT,,T*1B
$GNGSA,A,3,24,196,18,199,15,195,23,05,194,13,,,1.01,0.52,0.86,1*0B
$GNGSA,A,3,85,80,70,84,79,69,73,,,,,,1.01,0.52,0.86,2*00
$GNGSA,A,3,13,08,07,15,03,,,,,,,,1.01,0.52,0.86,3*00
$GNGSA,A,3,38,39,08,16,06,13,46,09,20,37,29,36,1.01,0.52,0.86,4*04
$GNGSA,A,3,19,,,,,,,,,,,,1.01,0.52,0.86,4*05
$GPGSV,4,1,16,24,80,145,42,196,73,055,38,18,60,287,39,199,60,167,29,1*6B
$GPGSV,4,2,16,15,47,027,42,45,47,231,39,195,41,179,35,23,36,327,33,1*5A
$GPGSV,4,3,16,05,30,102,22,194,24,143,30,13,20,045,36,29,10,210,15,1*57
$GPGSV,4,4,16,20,09,119,,12,09,155,,10,06,309,11,32,01,254,,1*64
$GPGSV,2,1,07,24,80,145,46,196,73,055,44,199,60,167,41,18,60,287,43,8*68
$GPGSV,2,2,07,195,41,179,39,23,36,327,29,194,24,143,35,8*54
$GLGSV,3,1,09,85,45,274,30,80,42,109,37,70,38,343,34,84,27,197,28,1*7C
$GLGSV,3,2,09,79,22,048,33,86,19,322,21,69,19,053,29,73,18,167,23,1*72
$GLGSV,3,3,09,71,15,294,24,1*4A
$GAGSV,3,1,09,13,65,263,41,08,53,007,37,07,40,283,16,15,38,173,28,7*7B
$GAGSV,3,2,09,26,23,318,12,02,20,101,19,03,18,053,15,30,15,153,,7*77
$GAGSV,3,3,09,25,05,055,18,7*41
$GAGSV,2,1,07,13,65,263,42,08,53,007,39,07,40,283,21,15,38,173,38,1*7A
$GAGSV,2,2,07,26,23,318,27,02,20,101,19,03,18,053,25,1*4B
$GBGSV,4,1,14,38,79,051,42,39,73,252,44,08,70,007,39,16,65,233,44,1*7E
$GBGSV,4,2,14,06,63,230,38,13,61,342,44,46,48,137,35,09,46,223,39,1*73
$GBGSV,4,3,14,20,46,040,49,19,42,325,,37,31,062,39,29,31,225,35,1*75
$GBGSV,4,4,14,36,19,186,24,30,06,176,,1*72
$GBGSV,2,1,08,38,79,051,43,39,73,252,45,46,48,137,37,20,46,040,46,4*7D
$GBGSV,2,2,08,19,42,325,35,37,31,062,37,29,31,225,37,36,19,186,34,4*7C
$GNGGA,104646.000,2500.7986400,N,12132.4808700,E,2,54,0.52,18.19,M,15.25,M,19,3335*49
$GNRMC,104646.000,A,2500.7986400,N,12132.4808700,E,0.00,54.55,260623,,,D,V*3F
$GPHDT,,T*1B
$GNGGA,104646.200,2500.7986400,N,12132.4808600,E,2,54,0.52,18.20,M,15.25,M,19,3335*40
$GNRMC,104646.200,A,2500.7986400,N,12132.4808600,E,0.00,54.55,260623,,,D,V*3C
$GPHDT,,T*1B
$GNGGA,104646.400,2500.7986500,N,12132.4808500,E,2,54,0.52,18.20,M,15.25,M,19,3335*44
$GNRMC,104646.400,A,2500.7986500,N,12132.4808500,E,0.00,54.55,260623,,,D,V*38
$GPHDT,,T*1B
$GNGGA,104646.600,2500.7986500,N,12132.4808400,E,2,54,0.52,18.21,M,15.25,M,19,3335*46
$GNRMC,104646.600,A,2500.7986500,N,12132.4808400,E,0.00,54.55,260623,,,D,V*3B
$GPHDT,,T*1B
$GNGGA,104646.800,2500.7986400,N,12132.4808300,E,2,54,0.52,18.22,M,15.25,M,19,3335*4D
$GNRMC,104646.800,A,2500.7986400,N,12132.4808300,E,0.00,54.55,260623,,,D,V*33
$GPHDT,,T*1B
$GNGSA,A,3,24,196,18,199,15,195,23,05,194,13,,,1.01,0.52,0.86,1*0B
$GNGSA,A,3,85,80,70,84,79,69,73,,,,,,1.01,0.52,0.86,2*00
$GNGSA,A,3,13,08,07,15,03,,,,,,,,1.01,0.52,0.86,3*00
$GNGSA,A,3,38,39,08,16,06,13,46,09,20,37,29,36,1.01,0.52,0.86,4*04
$GNGSA,A,3,19,,,,,,,,,,,,1.01,0.52,0.86,4*05
$GPGSV,4,1,16,24,80,145,42,196,73,055,38,18,60,287,39,199,60,167,29,1*6B
$GPGSV,4,2,16,15,47,027,43,45,47,231,39,195,41,179,35,23,36,327,33,1*5B
$GPGSV,4,3,16,05,30,102,22,194,24,143,30,13,20,045,36,29,10,210,15,1*57
$GPGSV,4,4,16,20,09,119,,12,09,155,,10,06,309,,32,01,254,,1*64
$GPGSV,2,1,07,24,80,145,46,196,73,055,44,199,60,167,41,18,60,287,43,8*68
$GPGSV,2,2,07,195,41,179,39,23,36,327,29,194,24,143,35,8*54
$GLGSV,3,1,09,85,45,274,29,80,42,109,37,70,38,343,34,84,27,197,27,1*7B
$GLGSV,3,2,09,79,22,048,32,86,19,322,21,69,19,053,28,73,18,167,26,1*77
$GLGSV,3,3,09,71,15,294,22,1*4C
$GAGSV,3,1,09,13,65,263,41,08,53,007,37,07,40,283,17,15,38,173,28,7*7A
$GAGSV,3,2,09,26,23,318,,02,20,101,19,03,18,053,17,30,15,153,,7*76
$GAGSV,3,3,09,25,05,055,18,7*41
$GAGSV,2,1,07,13,65,263,42,08,53,007,39,07,40,283,21,15,38,173,38,1*7A
$GAGSV,2,2,07,26,23,318,27,02,20,101,20,03,18,053,26,1*42
$GBGSV,4,1,13,38,79,051,42,39,73,252,44,08,70,007,39,16,65,233,44,1*79
$GBGSV,4,2,13,06,63,230,38,13,61,342,44,46,48,137,35,09,46,223,39,1*74
$GBGSV,4,3,13,20,46,040,49,19,42,325,,37,31,062,39,29,31,225,35,1*72
$GBGSV,4,4,13,36,19,186,24,1*40
$GBGSV,2,1,08,38,79,051,43,39,73,252,45,46,48,137,37,20,46,040,46,4*7D
$GBGSV,2,2,08,19,42,325,35,37,31,062,37,29,31,225,37,36,19,186,34,4*7C
$GNGGA,104647.000,2500.7986500,N,12132.4808100,E,2,54,0.52,18.23,M,15.25,M,20,3335*4C
$GNRMC,104647.000,A,2500.7986500,N,12132.4808100,E,0.00,54.55,260623,,,D,V*39
$GPHDT,,T*1B
$GNGGA,104647.200,2500.7986400,N,12132.4808100,E,2,54,0.52,18.24,M,15.25,M,20,3335*48
$GNRMC,104647.200,A,2500.7986400,N,12132.4808100,E,0.00,54.55,260623,,,D,V*3A
$GPHDT,,T*1B
$GNGGA,104647.400,2500.7986500,N,12132.4808000,E,2,54,0.52,18.25,M,15.25,M,20,3335*4F
$GNRMC,104647.400,A,2500.7986500,N,12132.4808000,E,0.00,54.55,260623,,,D,V*3C
$GPHDT,,T*1B
$GNGGA,104647.600,2500.7986500,N,12132.4807900,E,2,54,0.52,18.26,M,15.25,M,20,3335*48
$GNRMC,104647.600,A,2500.7986500,N,12132.4807900,E,0.00,54.55,260623,,,D,V*38
$GPHDT,,T*1B
$GNGGA,104647.800,2500.7986600,N,12132.4807700,E,2,54,0.52,18.28,M,15.25,M,20,3335*45
$GNRMC,104647.800,A,2500.7986600,N,12132.4807700,E,0.00,54.55,260623,,,D,V*3B
$GPHDT,,T*1B
$GNGSA,A,3,24,196,18,199,15,195,23,05,194,13,,,1.01,0.52,0.86,1*0B
$GNGSA,A,3,85,80,70,84,79,69,73,,,,,,1.01,0.52,0.86,2*00
$GNGSA,A,3,13,08,07,15,03,,,,,,,,1.01,0.52,0.86,3*00
$GNGSA,A,3,38,39,08,16,06,13,46,09,20,37,29,36,1.01,0.52,0.86,4*04
$GNGSA,A,3,19,,,,,,,,,,,,1.01,0.52,0.86,4*05
$GPGSV,4,1,16,24,80,145,42,196,73,055,38,18,60,287,39,199,60,167,30,1*63
$GPGSV,4,2,16,15,47,027,43,45,47,231,39,195,41,179,36,23,36,327,33,1*58
$GPGSV,4,3,16,05,30,102,21,194,24,143,30,13,20,045,36,29,10,210,14,1*55
$GPGSV,4,4,16,20,09,119,,12,09,155,,10,06,309,,32,01,254,,1*64
$GPGSV,2,1,07,24,80,145,46,196,73,055,44,199,60,167,41,18,60,287,43,8*68
$GPGSV,2,2,07,195,41,179,38,23,36,327,30,194,24,143,35,8*5D
$GLGSV,3,1,09,85,45,274,28,80,42,109,37,70,38,343,34,84,27,197,27,1*7A
$GLGSV,3,2,09,79,22,048,32,86,19,322,21,69,19,053,28,73,18,167,26,1*77
$GLGSV,3,3,09,71,15,294,22,1*4C
$GAGSV,3,1,09,13,65,263,41,08,53,007,37,07,40,283,17,15,38,173,29,7*7B
$GAGSV,3,2,09,26,23,318,,02,20,101,20,03,18,053,17,30,15,153,,7*7C
$GAGSV,3,3,09,25,05,055,18,7*41
$GAGSV,2,1,07,13,65,263,42,08,53,007,39,07,40,283,21,15,38,173,38,1*7A
$GAGSV,2,2,07,26,23,318,27,02,20,101,18,03,18,053,26,1*49
$GBGSV,4,1,13,38,79,051,42,39,73,252,44,08,70,007,39,16,65,233,44,1*79
$GBGSV,4,2,13,06,63,230,38,13,61,342,44,46,48,137,35,09,46,223,39,1*74
$GBGSV,4,3,13,20,46,040,49,19,42,325,,37,31,062,39,29,31,225,36,1*71
$GBGSV,4,4,13,36,19,186,24,1*40
$GBGSV,2,1,08,38,79,051,43,39,73,252,45,46,48,137,37,20,46,040,46,4*7D
$GBGSV,2,2,08,19,42,325,35,37,31,062,37,29,31,225,37,36,19,186,34,4*7C
$GNGGA,104648.000,2500.7986600,N,12132.4807600,E,2,54,0.52,18.30,M,15.25,M,21,3335*4B
$GNRMC,104648.000,A,2500.7986600,N,12132.4807600,E,0.00,54.55,260623,,,D,V*3D
$PAIR010,0,0,2268,125226*35
$GPHDT,,T*1B
$GNGGA,104648.200,2500.7986700,N,12132.4807500,E,2,54,0.52,18.30,M,15.25,M,21,3335*4B
$GNRMC,104648.200,A,2500.7986700,N,12132.4807500,E,0.00,54.55,260623,,,D,V*3D
$GPHDT,,T*1B
$GNGGA,104648.400,2500.7986700,N,12132.4807400,E,2,54,0.52,18.33,M,15.25,M,21,3335*4F
$GNRMC,104648.400,A,2500.7986700,N,12132.4807400,E,0.00,54.55,260623,,,D,V*3A
$GPHDT,,T*1B
$GNGGA,104648.600,2500.7986800,N,12132.4807400,E,2,54,0.52,18.35,M,15.25,M,21,3335*44
$GNRMC,104648.600,A,2500.7986800,N,12132.4807400,E,0.00,54.55,260623,,,D,V*37
$GPHDT,,T*1B
$GNGGA,104648.800,2500.7986800,N,12132.4807300,E,2,54,0.52,18.37,M,15.25,M,21,3335*4F
$GNRMC,104648.800,A,2500.7986800,N,12132.4807300,E,0.00,54.55,260623,,,D,V*3E
$GPHDT,,T*1B
$GNGSA,A,3,24,196,18,199,15,195,23,05,194,13,,,1.01,0.52,0.86,1*0B
$GNGSA,A,3,85,80,70,84,79,69,73,,,,,,1.01,0.52,0.86,2*00
$GNGSA,A,3,13,08,07,15,03,,,,,,,,1.01,0.52,0.86,3*00
$GNGSA,A,3,38,39,08,16,06,13,46,09,20,37,29,36,1.01,0.52,0.86,4*04
$GNGSA,A,3,19,,,,,,,,,,,,1.01,0.52,0.86,4*05
$GPGSV,4,1,16,24,80,145,42,196,73,055,37,18,60,287,39,199,60,167,29,1*64
$GPGSV,4,2,16,15,47,027,43,45,47,231,39,195,41,179,36,23,36,327,33,1*58
$GPGSV,4,3,16,05,30,102,19,194,24,143,27,13,20,045,36,29,10,210,15,1*59
$GPGSV,4,4,16,20,09,119,,12,09,155,,10,06,309,,32,01,254,,1*64
$GPGSV,2,1,07,24,80,145,46,196,73,055,44,199,60,167,41,18,60,287,43,8*68
$GPGSV,2,2,07,195,41,179,38,23,36,327,30,194,24,143,35,8*5D
$GLGSV,3,1,09,85,45,274,27,80,42,109,37,70,38,343,34,84,27,197,27,1*75
$GLGSV,3,2,09,79,22,048,32,86,19,322,21,69,19,053,28,73,18,167,26,1*77
$GLGSV,3,3,09,71,15,294,22,1*4C
$GAGSV,3,1,09,13,65,263,41,08,53,007,37,07,40,283,18,15,38,173,28,7*75
$GAGSV,3,2,09,26,23,318,15,02,20,101,20,03,18,053,17,30,15,153,,7*78
$GAGSV,3,3,09,25,05,055,18,7*41
$GAGSV,2,1,07,13,65,263,42,08,53,007,39,07,40,283,23,15,38,173,38,1*78
$GAGSV,2,2,07,26,23,318,27,02,20,101,20,03,18,053,26,1*42
$GBGSV,4,1,13,38,79,051,42,39,73,252,44,08,70,007,39,16,65,233,44,1*79
$GBGSV,4,2,13,06,63,230,37,13,61,342,44,46,48,137,35,09,46,223,39,1*7B
$GBGSV,4,3,13,20,46,040,49,19,42,325,,37,31,062,39,29,31,225,35,1*72
$GBGSV,4,4,13,36,19,186,24,1*40
$GBGSV,2,1,08,38,79,051,43,39,73,252,45,46,48,137,37,20,46,040,46,4*7D
$GBGSV,2,2,08,19,42,325,34,37,31,062,37,29,31,225,37,36,19,186,34,4*7D
$GNGGA,104649.000,2500.7986800,N,12132.4807200,E,2,54,0.52,18.37,M,15.25,M,22,3335*44
$GNRMC,104649.000,A,2500.7986800,N,12132.4807200,E,0.00,54.55,260623,,,D,V*36
$GPHDT,,T*1B
$GNGGA,104649.200,2500.7986800,N,12132.4807200,E,2,54,0.52,18.38,M,15.25,M,22,3335*49
$GNRMC,104649.200,A,2500.7986800,N,12132.4807200,E,0.00,54.55,260623,,,D,V*34
$GPHDT,,T*1B
$GNGGA,104649.400,2500.7986900,N,12132.4807100,E,2,54,0.52,18.40,M,15.25,M,22,3335*42
$GNRMC,104649.400,A,2500.7986900,N,12132.4807100,E,0.00,54.55,260623,,,D,V*30
$GPHDT,,T*1B
$GNGGA,104649.600,2500.7987000,N,12132.4806900,E,2,54,0.52,18.42,M,15.25,M,22,3335*43
$GNRMC,104649.600,A,2500.7987000,N,12132.4806900,E,0.00,54.55,260623,,,D,V*33
$GPHDT,,T*1B
$GNGGA,104649.800,2500.7987000,N,12132.4806800,E,2,54,0.52,18.44,M,15.25,M,22,3335*4A
$GNRMC,104649.800,A,2500.7987000,N,12132.4806800,E,0.00,54.55,260623,,,D,V*3C
$GPHDT,,T*1B
$GNGSA,A,3,24,196,18,199,15,195,23,05,194,13,,,1.01,0.52,0.86,1*0B
$GNGSA,A,3,85,80,70,84,79,69,73,,,,,,1.01,0.52,0.86,2*00
$GNGSA,A,3,13,08,07,15,03,,,,,,,,1.01,0.52,0.86,3*00
$GNGSA,A,3,38,39,08,16,06,13,46,09,20,37,29,36,1.01,0.52,0.86,4*04
$GNGSA,A,3,19,,,,,,,,,,,,1.01,0.52,0.86,4*05
$GPGSV,4,1,16,24,80,145,42,196,73,055,37,18,60,287,39,199,60,167,30,1*6C
$GPGSV,4,2,16,15,47,027,43,45,47,231,39,195,41,179,35,23,36,327,33,1*5B
$GPGSV,4,3,16,05,30,102,18,194,24,143,27,13,20,045,36,29,10,210,15,1*58
$GPGSV,4,4,16,20,09,119,,12,09,155,,10,06,309,,32,01,254,,1*64
$GPGSV,2,1,07,24,80,145,46,196,73,055,44,199,60,167,41,18,60,287,43,8*68
$GPGSV,2,2,07,195,41,179,39,23,36,327,31,194,24,143,36,8*5E
$GLGSV,3,1,09,85,45,274,24,80,42,109,37,70,38,343,34,84,27,197,27,1*76
$GLGSV,3,2,09,79,22,048,32,86,19,322,21,69,19,053,28,73,18,167,27,1*76
$GLGSV,3,3,09,71,15,294,20,1*4E
$GAGSV,3,1,09,13,65,263,40,08,53,007,37,07,40,283,21,15,38,173,27,7*71
$GAGSV,3,2,09,26,23,318,17,02,20,101,19,03,18,053,17,30,15,153,,7*70
$GAGSV,3,3,09,25,05,055,18,7*41
$GAGSV,2,1,07,13,65,263,42,08,53,007,39,07,40,283,22,15,38,173,39,1*78
$GAGSV,2,2,07,26,23,318,26,02,20,101,20,03,18,053,26,1*43
$GBGSV,4,1,13,38,79,051,42,39,73,252,44,08,70,007,39,16,65,233,44,1*79
$GBGSV,4,2,13,06,63,230,37,13,61,342,44,46,48,137,36,09,46,223,39,1*78
$GBGSV,4,3,13,20,46,040,49,19,42,325,,37,31,062,39,29,31,225,33,1*74
$GBGSV,4,4,13,36,19,186,24,1*40
$GBGSV,2,1,08,38,79,051,43,39,73,252,45,46,48,137,36,20,46,040,46,4*7C
$GBGSV,2,2,08,19,42,325,34,37,31,062,37,29,31,225,37,36,19,186,34,4*7D
$GNGGA,104650.000,2500.7987000,N,12132.4806800,E,2,54,0.52,18.46,M,15.25,M,23,3335*49
$GNRMC,104650.000,A,2500.7987000,N,12132.4806800,E,0.00,54.55,260623,,,D,V*3C
$GPHDT,,T*1B
$GNGGA,104650.200,2500.7987000,N,12132.4806600,E,2,54,0.52,18.48,M,15.25,M,23,3335*4B
$GNRMC,104650.200,A,2500.7987000,N,12132.4806600,E,0.00,54.55,260623,,,D,V*30
$GPHDT,,T*1B
$GNGGA,104650.400,2500.7987000,N,12132.4806500,E,2,54,0.52,18.49,M,15.25,M,23,3335*4F
$GNRMC,104650.400,A,2500.7987000,N,12132.4806500,E,0.00,54.55,260623,,,D,V*35
$GPHDT,,T*1B
$GNGGA,104650.600,2500.7987100,N,12132.4806400,E,2,54,0.52,18.50,M,15.25,M,23,3335*45
$GNRMC,104650.600,A,2500.7987100,N,12132.4806400,E,0.00,54.55,260623,,,D,V*37
$GPHDT,,T*1B
$GNGGA,104650.800,2500.7987100,N,12132.4806300,E,2,53,0.52,18.52,M,15.25,M,22,3335*48
$GNRMC,104650.800,A,2500.7987100,N,12132.4806300,E,0.00,54.55,260623,,,D,V*3E
$GPHDT,,T*1B
$GNGSA,A,3,24,196,18,199,15,195,23,05,194,13,,,1.01,0.52,0.86,1*0B
$GNGSA,A,3,85,80,70,84,79,69,73,,,,,,1.01,0.52,0.86,2*00
$GNGSA,A,3,13,08,07,15,03,,,,,,,,1.01,0.52,0.86,3*00
$GNGSA,A,3,38,39,08,16,06,13,46,09,20,37,29,36,1.01,0.52,0.86,4*04
$GNGSA,A,3,19,,,,,,,,,,,,1.01,0.52,0.86,4*05
$GPGSV,4,1,16,24,80,145,42,196,73,055,37,18,60,287,39,199,60,167,30,1*6C
$GPGSV,4,2,16,15,47,027,43,45,47,231,39,195,41,179,36,23,36,327,33,1*58
$GPGSV,4,3,16,05,30,102,16,194,24,143,26,13,20,045,36,29,10,210,16,1*54
$GPGSV,4,4,16,20,09,119,,12,09,155,,10,06,309,,32,01,254,,1*64
$GPGSV,2,1,07,24,80,145,46,196,73,055,44,199,60,167,41,18,60,287,43,8*68
$GPGSV,2,2,07,195,41,179,38,23,36,327,31,194,24,143,36,8*5F
$GLGSV,3,1,09,85,45,274,24,80,42,109,33,70,38,343,34,84,27,197,27,1*72
$GLGSV,3,2,09,79,22,048,31,86,19,322,18,69,19,053,28,73,18,167,27,1*7F
$GLGSV,3,3,09,71,15,294,19,1*44
$GAGSV,3,1,09,13,65,263,40,08,53,007,37,07,40,283,23,15,38,173,26,7*72
$GAGSV,3,2,09,26,23,318,16,02,20,101,19,03,18,053,19,30,15,153,,7*7F
$GAGSV,3,3,09,25,05,055,18,7*41
$GAGSV,2,1,07,13,65,263,42,08,53,007,39,07,40,283,21,15,38,173,38,1*7A
$GAGSV,2,2,07,26,23,318,27,02,20,101,20,03,18,053,26,1*42
$GBGSV,4,1,13,38,79,051,42,39,73,252,44,08,70,007,39,16,65,233,44,1*79
$GBGSV,4,2,13,06,63,230,37,13,61,342,44,46,48,137,32,09,46,223,39,1*7C
$GBGSV,4,3,13,20,46,040,48,19,42,325,,37,31,062,39,29,31,225,31,1*77
$GBGSV,4,4,13,36,19,186,26,1*42
$GBGSV,2,1,08,38,79,051,42,39,73,252,45,46,48,137,35,20,46,040,45,4*7D
$GBGSV,2,2,08,19,42,325,34,37,31,062,37,29,31,225,37,36,19,186,34,4*7D
$GNGGA,104651.000,2500.7987200,N,12132.4806200,E,2,54,0.52,18.53,M,15.25,M,23,3335*44
$GNRMC,104651.000,A,2500.7987200,N,12132.4806200,E,0.00,54.55,260623,,,D,V*35
$GPHDT,,T*1B
$GNGGA,104651.200,2500.7987300,N,12132.4806100,E,2,54,0.52,18.54,M,15.25,M,23,3335*43
$GNRMC,104651.200,A,2500.7987300,N,12132.4806100,E,0.00,54.55,260623,,,D,V*35
$GPHDT,,T*1B
$GNGGA,104651.400,2500.7987400,N,12132.4805900,E,2,54,0.52,18.55,M,15.25,M,23,3335*48
$GNRMC,104651.400,A,2500.7987400,N,12132.4805900,E,0.00,54.55,260623,,,D,V*3F
$GPHDT,,T*1B
$GNGGA,104651.600,2500.7987400,N,12132.4805800,E,2,54,0.52,18.57,M,15.25,M,23,3335*49
$GNRMC,104651.600,A,2500.7987400,N,12132.4805800,E,0.00,54.55,260623,,,D,V*3C
$GPHDT,,T*1B
$GNGGA,104651.800,2500.7987600,N,12132.4805600,E,2,52,0.53,18.61,M,15.25,M,23,3335*49
$GNRMC,104651.800,A,2500.7987600,N,12132.4805600,E,0.01,54.55,260623,,,D,V*3F
$GPHDT,,T*1B
$GNGSA,A,3,24,196,18,199,15,195,23,194,13,,,,1.01,0.53,0.86,1*0F
$GNGSA,A,3,85,80,70,84,79,69,73,,,,,,1.01,0.53,0.86,2*01
$GNGSA,A,3,13,08,07,15,03,,,,,,,,1.01,0.53,0.86,3*01
$GNGSA,A,3,38,39,08,16,06,13,46,09,20,37,29,19,1.01,0.53,0.86,4*08
$GNGSA,A,3,36,,,,,,,,,,,,1.01,0.53,0.86,4*09
$GPGSV,4,1,16,24,80,145,42,196,73,055,37,18,60,287,39,199,60,167,30,1*6C
$GPGSV,4,2,16,15,47,027,43,45,47,231,39,195,41,179,35,23,36,327,33,1*5B
$GPGSV,4,3,16,05,30,102,17,194,24,143,32,13,20,045,36,29,10,210,16,1*50
$GPGSV,4,4,16,20,09,119,,12,09,155,,10,06,309,,32,01,254,,1*64
$GPGSV,2,1,07,24,80,145,46,196,73,055,44,199,60,167,41,18,60,287,43,8*68
$GPGSV,2,2,07,195,41,179,39,23,36,327,32,194,24,143,37,8*5C
$GLGSV,3,1,09,85,45,274,25,80,42,109,30,70,38,343,34,84,27,197,27,1*70
$GLGSV,3,2,09,79,22,048,31,86,19,322,17,69,19,053,29,73,18,167,26,1*70
$GLGSV,3,3,09,71,15,294,19,1*44
$GAGSV,3,1,09,13,65,263,40,08,53,007,37,07,40,283,24,15,38,173,28,7*7B
$GAGSV,3,2,09,26,23,318,16,02,20,101,19,03,18,053,19,30,15,153,,7*7F
$GAGSV,3,3,09,25,05,055,18,7*41
$GAGSV,2,1,07,13,65,263,42,08,53,007,40,07,40,283,22,15,38,173,39,1*76
$GAGSV,2,2,07,26,23,318,26,02,20,101,21,03,18,053,28,1*4C
$GBGSV,4,1,14,38,79,051,42,39,73,252,44,08,70,007,38,16,65,233,44,1*7F
$GBGSV,4,2,14,06,63,230,38,13,61,342,44,46,48,137,37,09,46,223,39,1*71
$GBGSV,4,3,14,20,46,040,48,19,42,325,,37,31,062,39,29,31,225,29,1*79
$GBGSV,4,4,14,35,24,287,,36,19,186,21,1*7F
$GBGSV,2,1,08,38,79,051,42,39,73,252,45,46,48,137,38,20,46,040,46,4*73
$GBGSV,2,2,08,19,42,325,35,37,31,062,38,29,31,225,38,36,19,186,35,4*7D
$GNGGA,104652.000,2500.7987700,N,12132.4805500,E,2,52,0.53,18.63,M,15.25,M,24,3335*45
$GNRMC,104652.000,A,2500.7987700,N,12132.4805500,E,0.00,54.55,260623,,,D,V*37
$GPHDT,,T*1B
$GNGGA,104652.200,2500.7987700,N,12132.4805400,E,2,52,0.53,18.64,M,15.25,M,24,3335*41
$GNRMC,104652.200,A,2500.7987700,N,12132.4805400,E,0.00,54.55,260623,,,D,V*34
$GPHDT,,T*1B
$GNGGA,104652.400,2500.7987900,N,12132.4805300,E,2,52,0.53,18.65,M,15.25,M,24,3335*4F
$GNRMC,104652.400,A,2500.7987900,N,12132.4805300,E,0.00,54.55,260623,,,D,V*3B
$GPHDT,,T*1B
$GNGGA,104652.600,2500.7987900,N,12132.4805100,E,2,53,0.53,18.67,M,15.25,M,24,3335*4C
$GNRMC,104652.600,A,2500.7987900,N,12132.4805100,E,0.00,54.55,260623,,,D,V*3B
