$FW : RTK35X,V1.1X0314AS,Lib20210517,1*54
$Tool : LOCOSYS , GNSS Firebird , v1.0.0.19*39
$---------------------------------------------------*2D
7,40,283,14,15,38,173,31,7*77
$GAGSV,2,2,08,26,23,318,21,02,20,101,20,03,18,053,25,30,14,154,,7*78
$GAGSV,2,1,07,13,65,264,45,08,54,006,41,07,40,283,26,15,38,173,34,1*78
$GAGSV,2,2,07,26,23,318,23,02,20,101,21,03,18,053,25,1*44
$GBGSV,4,1,14,38,78,050,42,39,73,251,44,08,70,007,39,16,65,232,43,1*7B
$GBGSV,4,2,14,06,63,230,38,13,61,342,43,46,48,138,38,20,46,039,49,1*73
$GBGSV,4,3,14,09,46,223,39,19,41,325,20,37,31,062,35,29,31,225,36,1*70
$GBGSV,4,4,14,36,19,186,26,32,09,085,,1*70
$GBGSV,2,1,08,38,78,050,42,39,73,251,46,46,48,138,37,20,46,039,47,4*7C
$GBGSV,2,2,08,19,41,325,36,37,31,062,34,29,31,225,34,36,19,186,28,4*71
$GNGGA,104614.000,2500.7986300,N,12132.4813600,E,2,54,0.52,20.15,M,15.25,M,82,3335*47
$GNRMC,104614.000,A,2500.7986300,N,12132.4813600,E,0.00,54.55,260623,,,D,V*34
$GPHDT,,T*1B
$GNGGA,104614.200,2500.7986200,N,12132.4813700,E,2,54,0.52,20.12,M,15.25,M,82,3335*42
$GNRMC,104614.200,A,2500.7986200,N,12132.4813700,E,0.00,54.55,260623,,,D,V*36
$GPHDT,,T*1B
$GNGGA,104614.400,2500.7986200,N,12132.4813800,E,2,54,0.52,20.09,M,15.25,M,82,3335*41
$GNRMC,104614.400,A,2500.7986200,N,12132.4813800,E,0.00,54.55,260623,,,D,V*3F
$GPHDT,,T*1B
$GNGGA,104614.600,2500.7986100,N,12132.4813800,E,2,54,0.52,20.07,M,15.25,M,82,3335*4E
$GNRMC,104614.600,A,2500.7986100,N,12132.4813800,E,0.00,54.55,260623,,,D,V*3E
$GPHDT,,T*1B
$GNGGA,104614.800,2500.7986100,N,12132.4814000,E,2,54,0.52,20.04,M,15.25,M,82,3335*4C
$GNRMC,104614.800,A,2500.7986100,N,12132.4814000,E,0.00,54.55,260623,,,D,V*3F
$GPHDT,,T*1B
$GNGSA,A,3,24,196,199,18,15,195,23,05,194,13,,,1.01,0.52,0.86,1*0B
$GNGSA,A,3,85,80,70,84,79,69,73,,,,,,1.01,0.52,0.86,2*00
$GNGSA,A,3,13,08,07,15,03,,,,,,,,1.01,0.52,0.86,3*00
$GNGSA,A,3,38,39,08,16,06,13,46,20,09,37,29,36,1.01,0.52,0.86,4*04
$GNGSA,A,3,19,,,,,,,,,,,,1.01,0.52,0.86,4*05
$GPGSV,4,1,15,24,79,146,42,196,73,055,38,199,60,167,29,18,59,288,41,1*67
$GPGSV,4,2,15,15,47,027,43,45,47,231,39,195,41,179,34,23,35,326,30,1*58
$GPGSV,4,3,15,05,30,102,18,194,24,143,24,13,20,045,36,29,10,210,15,1*58
$GPGSV,4,4,15,20,09,119,,12,09,155,,10,05,309,13,1*55
$GPGSV,2,1,07,24,79,146,44,196,73,055,45,199,60,167,34,18,59,288,43,8*69
$GPGSV,2,2,07,195,41,179,36,23,35,326,31,194,24,143,32,8*57
$GLGSV,2,1,08,85,45,275,25,80,42,109,40,70,38,343,33,84,28,198,16,1*73
$GLGSV,2,2,08,79,23,048,17,69,20,053,27,73,18,167,21,71,15,294,19,1*70
$GAGSV,2,1,08,13,65,264,42,08,53,007,33,07,40,283,13,15,38,173,32,7*75
$GAGSV,2,2,08,26,23,318,19,02,20,101,19,03,18,053,26,30,14,154,,7*7A
$GAGSV,2,1,07,13,65,264,45,08,53,007,41,07,40,283,26,15,38,173,35,1*7F
$GAGSV,2,2,07,26,23,318,23,02,20,101,20,03,18,053,24,1*44
$GBGSV,4,1,14,38,78,050,42,39,73,251,44,08,70,007,39,16,65,232,43,1*7B
$GBGSV,4,2,14,06,63,230,38,13,61,342,43,46,48,138,38,20,46,039,49,1*73
$GBGSV,4,3,14,09,46,223,39,19,41,325,19,37,31,062,35,29,31,225,37,1*7B
$GBGSV,4,4,14,36,19,186,26,32,09,085,,1*70
$GBGSV,2,1,08,38,78,050,42,39,73,251,46,46,48,138,37,20,46,039,47,4*7C
$GBGSV,2,2,08,19,41,325,36,37,31,062,34,29,31,225,34,36,19,186,28,4*71
$GNGGA,104615.000,2500.7986000,N,12132.4814100,E,2,54,0.52,20.01,M,15.25,M,83,3335*41
$GNRMC,104615.000,A,2500.7986000,N,12132.4814100,E,0.00,54.55,260623,,,D,V*36
$GPHDT,,T*1B
$GNGGA,104615.200,2500.7986000,N,12132.4814100,E,2,55,0.52,19.96,M,15.25,M,83,3335*46
$GNRMC,104615.200,A,2500.7986000,N,12132.4814100,E,0.00,54.55,260623,,,D,V*34
$GPHDT,,T*1B
$GNGGA,104615.400,2500.7985900,N,12132.4814300,E,2,55,0.52,19.91,M,15.25,M,83,3335*4F
$GNRMC,104615.400,A,2500.7985900,N,12132.4814300,E,0.00,54.55,260623,,,D,V*3A
$GPHDT,,T*1B
$GNGGA,104615.600,2500.7985800,N,12132.4814300,E,2,55,0.52,19.87,M,15.25,M,83,3335*4B
$GNRMC,104615.600,A,2500.7985800,N,12132.4814300,E,0.00,54.55,260623,,,D,V*39
$GPHDT,,T*1B
$GNGGA,104615.800,2500.7985700,N,12132.4814400,E,2,55,0.52,19.82,M,15.25,M,83,3335*48
$GNRMC,104615.800,A,2500.7985700,N,12132.4814400,E,0.00,54.55,260623,,,D,V*3F
$GPHDT,,T*1B
$GNGSA,A,3,24,196,199,18,15,195,23,05,194,13,,,1.01,0.52,0.86,1*0B
$GNGSA,A,3,85,80,70,84,79,69,73,,,,,,1.01,0.52,0.86,2*00
$GNGSA,A,3,13,08,07,15,03,,,,,,,,1.01,0.52,0.86,3*00
$GNGSA,A,3,38,39,08,16,06,13,46,09,20,19,37,29,1.01,0.52,0.86,4*09
$GNGSA,A,3,36,,,,,,,,,,,,1.01,0.52,0.86,4*08
$GPGSV,4,1,15,24,79,146,42,196,73,055,38,199,60,167,31,18,59,288,41,1*6E
$GPGSV,4,2,15,15,47,027,43,45,47,231,39,195,41,179,38,23,35,326,30,1*54
$GPGSV,4,3,15,05,30,102,23,194,24,143,23,13,20,045,35,29,10,210,15,1*54
$GPGSV,4,4,15,20,09,119,,12,09,155,,10,05,309,13,1*55
$GPGSV,2,1,07,24,79,146,46,196,73,055,45,199,60,167,37,18,59,288,43,8*68
$GPGSV,2,2,07,195,41,179,41,23,35,326,32,194,24,143,33,8*55
$GLGSV,2,1,08,85,45,275,26,80,42,109,40,70,38,343,33,84,28,198,14,1*72
$GLGSV,2,2,08,79,23,048,17,69,20,053,27,73,18,167,21,71,15,294,19,1*70
$GAGSV,2,1,08,13,65,263,42,08,53,007,32,07,40,283,13,15,38,173,28,7*78
$GAGSV,2,2,08,26,23,318,19,02,20,101,19,03,18,053,26,30,14,154,,7*7A
$GAGSV,2,1,07,13,65,263,44,08,53,007,41,07,40,283,26,15,38,173,36,1*7A
$GAGSV,2,2,07,26,23,318,23,02,20,101,22,03,18,053,26,1*44
$GBGSV,4,1,13,38,78,050,42,39,73,251,44,08,70,007,39,16,65,232,43,1*7C
$GBGSV,4,2,13,06,63,230,38,13,61,342,43,46,48,138,38,09,46,223,39,1*71
$GBGSV,4,3,13,20,46,039,49,19,41,325,23,37,31,062,35,29,31,225,33,1*74
$GBGSV,4,4,13,36,19,186,22,1*46
$GBGSV,2,1,08,38,78,050,42,39,73,251,46,46,48,138,37,20,46,039,47,4*7C
$GBGSV,2,2,08,19,41,325,36,37,31,062,35,29,31,225,35,36,19,186,28,4*71
$GNGGA,104616.000,2500.7985600,N,12132.4814500,E,2,55,0.52,19.78,M,15.25,M,84,3335*41
$GNRMC,104616.000,A,2500.7985600,N,12132.4814500,E,0.00,54.55,260623,,,D,V*34
$GPHDT,,T*1B
$GNGGA,104616.200,2500.7985600,N,12132.4814600,E,2,55,0.52,19.74,M,15.25,M,84,3335*4C
$GNRMC,104616.200,A,2500.7985600,N,12132.4814600,E,0.00,54.55,260623,,,D,V*35
$GPHDT,,T*1B
$GNGGA,104616.400,2500.7985500,N,12132.4814700,E,2,55,0.52,19.69,M,15.25,M,84,3335*44
$GNRMC,104616.400,A,2500.7985500,N,12132.4814700,E,0.00,54.55,260623,,,D,V*31
$GPHDT,,T*1B
$GNGGA,104616.600,2500.7985500,N,12132.4814700,E,2,55,0.52,19.65,M,15.25,M,84,3335*4A
$GNRMC,104616.600,A,2500.7985500,N,12132.4814700,E,0.00,54.55,260623,,,D,V*33
$GPHDT,,T*1B
$GNGGA,104616.800,2500.7985400,N,12132.4814800,E,2,55,0.52,19.61,M,15.25,M,84,3335*4E
$GNRMC,104616.800,A,2500.7985400,N,12132.4814800,E,0.00,54.55,260623,,,D,V*33
$GPHDT,,T*1B
$GNGSA,A,3,24,196,199,18,15,195,23,05,194,13,,,1.01,0.52,0.86,1*0B
$GNGSA,A,3,85,80,70,84,79,69,73,,,,,,1.01,0.52,0.86,2*00
$GNGSA,A,3,13,08,07,15,03,,,,,,,,1.01,0.52,0.86,3*00
$GNGSA,A,3,38,39,08,16,06,13,46,20,09,19,29,37,1.01,0.52,0.86,4*09
$GNGSA,A,3,36,,,,,,,,,,,,1.01,0.52,0.86,4*08
$GPGSV,4,1,15,24,79,146,42,196,73,055,38,199,60,167,30,18,59,288,41,1*6F
$GPGSV,4,2,15,15,47,027,43,45,47,231,39,195,41,179,36,23,35,326,30,1*5A
$GPGSV,4,3,15,05,30,102,24,194,24,143,23,13,20,045,36,29,10,210,14,1*51
$GPGSV,4,4,15,20,09,119,,12,09,155,,10,05,309,14,1*52
$GPGSV,2,1,07,24,79,146,46,196,73,055,45,199,60,167,37,18,59,288,43,8*68
$GPGSV,2,2,07,195,41,179,41,23,35,326,32,194,24,143,33,8*55
$GLGSV,2,1,08,85,45,275,28,80,42,109,40,70,38,343,33,84,28,198,13,1*7B
$GLGSV,2,2,08,79,23,048,15,69,20,053,28,73,18,167,21,71,15,294,22,1*75
$GAGSV,3,1,09,13,65,263,42,08,53,007,31,07,40,283,13,15,38,173,29,7*7A
$GAGSV,3,2,09,26,23,318,19,02,20,101,20,03,18,053,27,30,14,154,,7*71
$GAGSV,3,3,09,25,05,056,,7*4B
$GAGSV,2,1,07,13,65,263,44,08,53,007,40,07,40,283,26,15,38,173,34,1*79
$GAGSV,2,2,07,26,23,318,21,02,20,101,21,03,18,053,26,1*45
$GBGSV,4,1,14,38,78,050,42,39,73,251,44,08,70,007,39,16,65,232,43,1*7B
$GBGSV,4,2,14,06,63,230,37,13,61,342,43,46,48,138,38,20,46,039,49,1*7C
$GBGSV,4,3,14,09,46,223,39,19,41,325,24,29,31,225,33,37,31,062,34,1*70
$GBGSV,4,4,14,36,19,186,22,07,06,196,,1*7E
$GBGSV,2,1,08,38,78,050,42,39,73,251,45,46,48,138,37,20,46,039,47,4*7F
$GBGSV,2,2,08,19,41,325,36,37,31,062,35,29,31,225,35,36,19,186,28,4*71
$GNGGA,104617.000,2500.7985400,N,12132.4814800,E,2,55,0.52,19.58,M,15.25,M,85,3335*4C
$GNRMC,104617.000,A,2500.7985400,N,12132.4814800,E,0.00,54.55,260623,,,D,V*3A
$GPHDT,,T*1B
$GNGGA,104617.200,2500.7985300,N,12132.4814900,E,2,55,0.52,19.53,M,15.25,M,85,3335*43
$GNRMC,104617.200,A,2500.7985300,N,12132.4814900,E,0.00,54.55,260623,,,D,V*3E
$GPHDT,,T*1B
$GNGGA,104617.400,2500.7985300,N,12132.4814900,E,2,55,0.52,19.50,M,15.25,M,85,3335*46
$GNRMC,104617.400,A,2500.7985300,N,12132.4814900,E,0.00,54.55,260623,,,D,V*38
$GPHDT,,T*1B
$GNGGA,104617.600,2500.7985200,N,12132.4815000,E,2,55,0.52,19.46,M,15.25,M,85,3335*4A
$GNRMC,104617.600,A,2500.7985200,N,12132.4815000,E,0.00,54.55,260623,,,D,V*33
$GPHDT,,T*1B
$GNGGA,104617.800,2500.7985200,N,12132.4815000,E,2,55,0.52,19.42,M,15.25,M,85,3335*40
$GNRMC,104617.800,A,2500.7985200,N,12132.4815000,E,0.00,54.55,260623,,,D,V*3D
$GPHDT,,T*1B
$GNGSA,A,3,24,196,199,18,15,195,23,05,194,13,,,1.01,0.52,0.86,1*0B
$GNGSA,A,3,85,80,70,84,79,69,73,,,,,,1.01,0.52,0.86,2*00
$GNGSA,A,3,13,08,07,15,03,,,,,,,,1.01,0.52,0.86,3*00
$GNGSA,A,3,38,39,08,16,06,13,46,09,20,19,37,29,1.01,0.52,0.86,4*09
$GNGSA,A,3,36,,,,,,,,,,,,1.01,0.52,0.86,4*08
$GPGSV,4,1,15,24,79,146,42,196,73,055,38,199,60,167,30,18,59,288,41,1*6F
$GPGSV,4,2,15,15,47,027,43,45,47,231,39,195,41,179,36,23,35,326,29,1*52
$GPGSV,4,3,15,05,30,102,23,194,24,143,23,13,20,045,36,29,10,210,13,1*51
$GPGSV,4,4,15,20,09,119,,12,09,155,,10,05,309,15,1*53
$GPGSV,2,1,07,24,79,146,46,196,73,055,45,199,60,167,38,18,59,288,43,8*67
$GPGSV,2,2,07,195,41,179,41,23,35,326,32,194,24,143,33,8*55
$GLGSV,2,1,08,85,45,275,28,80,42,109,39,70,38,343,33,84,28,198,19,1*7F
$GLGSV,2,2,08,79,23,048,15,69,20,053,29,73,18,167,20,71,15,294,23,1*74
$GAGSV,3,1,09,13,65,263,42,08,53,007,31,07,40,283,14,15,38,173,33,7*76
$GAGSV,3,2,09,26,23,318,19,02,20,101,21,03,18,053,26,30,14,154,,7*71
$GAGSV,3,3,09,25,05,055,,7*48
$GAGSV,2,1,07,13,65,263,44,08,53,007,40,07,40,283,27,15,38,173,39,1*75
$GAGSV,2,2,07,26,23,318,21,02,20,101,21,03,18,053,26,1*45
$GBGSV,4,1,13,38,78,050,42,39,73,251,44,08,70,007,39,16,65,232,43,1*7C
$GBGSV,4,2,13,06,63,230,37,13,61,342,43,46,48,138,38,09,46,223,39,1*7E
$GBGSV,4,3,13,20,46,039,49,19,41,325,25,37,31,062,34,29,31,225,31,1*71
$GBGSV,4,4,13,36,19,186,23,1*47
$GBGSV,2,1,08,38,78,050,42,39,73,251,45,46,48,138,36,20,46,039,47,4*7E
$GBGSV,2,2,08,19,41,325,36,37,31,062,36,29,31,225,34,36,19,186,33,4*79
$GNGGA,104618.000,2500.7985200,N,12132.4815100,E,2,55,0.52,19.38,M,15.25,M,86,3335*48
$GNRMC,104618.000,A,2500.7985200,N,12132.4815100,E,0.00,54.55,260623,,,D,V*3B
$GPHDT,,T*1B
$GNGGA,104618.200,2500.7985200,N,12132.4815200,E,2,55,0.52,19.35,M,15.25,M,86,3335*44
$GNRMC,104618.200,A,2500.7985200,N,12132.4815200,E,0.00,54.55,260623,,,D,V*3A
$GPHDT,,T*1B
$GNGGA,104618.400,2500.7985200,N,12132.4815200,E,2,55,0.52,19.31,M,15.25,M,86,3335*46
$GNRMC,104618.400,A,2500.7985200,N,12132.4815200,E,0.00,54.55,260623,,,D,V*3C
$GPHDT,,T*1B
$GNGGA,104618.600,2500.7985200,N,12132.4815300,E,2,55,0.52,19.27,M,15.25,M,86,3335*42
$GNRMC,104618.600,A,2500.7985200,N,12132.4815300,E,0.00,54.55,260623,,,D,V*3F
$GPHDT,,T*1B
$GNGGA,104618.800,2500.7985100,N,12132.4815300,E,2,55,0.52,19.22,M,15.25,M,86,3335*4A
$GNRMC,104618.800,A,2500.7985100,N,12132.4815300,E,0.00,54.55,260623,,,D,V*32
$GPHDT,,T*1B
$GNGSA,A,3,24,196,199,18,15,195,23,05,194,13,,,1.01,0.52,0.86,1*0B
$GNGSA,A,3,85,80,70,84,79,69,73,,,,,,1.01,0.52,0.86,2*00
$GNGSA,A,3,13,08,07,15,03,,,,,,,,1.01,0.52,0.86,3*00
$GNGSA,A,3,38,39,08,16,06,13,46,09,20,19,37,29,1.01,0.52,0.86,4*09
$GNGSA,A,3,36,,,,,,,,,,,,1.01,0.52,0.86,4*08
$GPGSV,4,1,15,24,79,146,42,196,73,055,38,199,60,167,30,18,59,288,41,1*6F
$GPGSV,4,2,15,15,47,027,43,45,47,231,39,195,41,179,37,23,35,326,29,1*53
$GPGSV,4,3,15,05,30,102,22,194,24,143,25,13,20,045,36,29,10,210,14,1*51
$GPGSV,4,4,15,20,09,119,,12,09,155,,10,05,309,15,1*53
$GPGSV,2,1,07,24,79,146,46,196,73,055,45,199,60,167,38,18,59,288,43,8*67
$GPGSV,2,2,07,195,41,179,41,23,35,326,31,194,24,143,33,8*56
$GLGSV,2,1,08,85,45,275,29,80,42,109,39,70,38,343,33,84,28,198,19,1*7E
$GLGSV,2,2,08,79,23,048,18,69,20,053,30,73,18,167,20,71,15,294,24,1*76
$GAGSV,3,1,09,13,65,263,42,08,53,007,32,07,40,283,14,15,38,173,35,7*73
$GAGSV,3,2,09,26,23,318,19,02,20,101,21,03,18,053,24,30,15,153,,7*75
$GAGSV,3,3,09,25,05,055,,7*48
$GAGSV,2,1,07,13,65,263,44,08,53,007,40,07,40,283,28,15,38,173,39,1*7A
$GAGSV,2,2,07,26,23,318,21,02,20,101,21,03,18,053,27,1*44
$GBGSV,4,1,13,38,78,050,42,39,73,251,44,08,70,007,39,16,65,232,43,1*7C
$GBGSV,4,2,13,06,63,230,37,13,61,342,43,46,48,138,38,09,46,223,39,1*7E
$GBGSV,4,3,13,20,46,039,49,19,41,325,22,37,31,062,35,29,31,225,32,1*74
$GBGSV,4,4,13,36,19,186,26,1*42
$GBGSV,2,1,08,38,78,050,42,39,73,251,45,46,48,138,37,20,46,039,47,4*7F
$GBGSV,2,2,08,19,41,325,36,37,31,062,36,29,31,225,32,36,19,186,32,4*7E
$GNGGA,104619.000,2500.7985000,N,12132.4815300,E,2,55,0.52,19.18,M,15.25,M,87,3335*4A
$GNRMC,104619.000,A,2500.7985000,N,12132.4815300,E,0.00,54.55,260623,,,D,V*3A
$GPHDT,,T*1B
$GNGGA,104619.200,2500.7985000,N,12132.4815400,E,2,55,0.52,19.15,M,15.25,M,87,3335*42
$GNRMC,104619.200,A,2500.7985000,N,12132.4815400,E,0.00,54.55,260623,,,D,V*3F
$GPHDT,,T*1B
$GNGGA,104619.400,2500.7985000,N,12132.4815400,E,2,55,0.52,19.11,M,15.25,M,87,3335*40
$GNRMC,104619.400,A,2500.7985000,N,12132.4815400,E,0.00,54.55,260623,,,D,V*39
$GPHDT,,T*1B
$GNGGA,104619.600,2500.7984900,N,12132.4815400,E,2,55,0.52,19.07,M,15.25,M,87,3335*4D
$GNRMC,104619.600,A,2500.7984900,N,12132.4815400,E,0.00,54.55,260623,,,D,V*33
$GPHDT,,T*1B
$GNGGA,104619.800,2500.7984900,N,12132.4815500,E,2,55,0.52,19.04,M,15.25,M,87,3335*41
$GNRMC,104619.800,A,2500.7984900,N,12132.4815500,E,0.00,54.55,260623,,,D,V*3C
$GPHDT,,T*1B
$GNGSA,A,3,24,196,199,18,15,195,23,05,194,13,,,1.01,0.52,0.86,1*0B
$GNGSA,A,3,85,80,70,84,79,69,73,,,,,,1.01,0.52,0.86,2*00
$GNGSA,A,3,13,08,07,15,03,,,,,,,,1.01,0.52,0.86,3*00
$GNGSA,A,3,38,39,08,16,06,13,46,09,20,19,37,29,1.01,0.52,0.86,4*09
$GNGSA,A,3,36,,,,,,,,,,,,1.01,0.52,0.86,4*08
$GPGSV,4,1,15,24,79,146,42,196,73,055,38,199,60,167,30,18,59,288,41,1*6F
$GPGSV,4,2,15,15,47,027,43,45,47,231,39,195,41,179,38,23,35,326,29,1*5C
$GPGSV,4,3,15,05,30,102,18,194,24,143,22,13,20,045,36,29,10,210,13,1*58
$GPGSV,4,4,15,20,09,119,,12,09,155,,10,05,309,15,1*53
$GPGSV,2,1,07,24,79,146,45,196,73,055,45,199,60,167,38,18,59,288,43,8*64
$GPGSV,2,2,07,195,41,179,42,23,35,326,30,194,24,143,32,8*55
$GLGSV,2,1,08,85,45,275,31,80,42,109,40,70,38,343,33,84,28,198,20,1*73
$GLGSV,2,2,08,79,23,048,19,69,20,053,30,73,18,167,23,71,15,294,24,1*74
$GAGSV,3,1,09,13,65,263,43,08,53,007,33,07,40,283,17,15,38,173,39,7*7C
$GAGSV,3,2,09,26,23,318,21,02,20,101,20,03,18,053,24,30,15,153,,7*7F
$GAGSV,3,3,09,25,05,055,,7*48
$GAGSV,2,1,07,13,65,263,44,08,53,007,40,07,40,283,28,15,38,173,40,1*74
$GAGSV,2,2,07,26,23,318,20,02,20,101,19,03,18,053,26,1*4F
$GBGSV,4,1,13,38,78,050,42,39,73,251,44,08,70,007,39,16,65,232,43,1*7C
$GBGSV,4,2,13,06,63,230,37,13,61,342,43,46,48,138,38,09,46,223,39,1*7E
$GBGSV,4,3,13,20,46,039,49,19,41,325,22,37,31,062,35,29,31,225,32,1*74
$GBGSV,4,4,13,36,19,186,23,1*47
$GBGSV,2,1,08,38,78,050,42,39,73,251,45,46,48,138,38,20,46,039,47,4*70
$GBGSV,2,2,08,19,41,325,36,37,31,062,37,29,31,225,33,36,19,186,32,4*7E
$GNGGA,104620.000,2500.7984900,N,12132.4815500,E,2,55,0.52,19.00,M,15.25,M,88,3335*48
$GNRMC,104620.000,A,2500.7984900,N,12132.4815500,E,0.00,54.55,260623,,,D,V*3E
$GPHDT,,T*1B
$GNGGA,104620.200,2500.7984900,N,12132.4815600,E,2,55,0.52,18.96,M,15.25,M,88,3335*47
$GNRMC,104620.200,A,2500.7984900,N,12132.4815600,E,0.00,54.55,260623,,,D,V*3F
$GPHDT,,T*1B
$GNGGA,104620.400,2500.7984900,N,12132.4815600,E,2,55,0.52,18.93,M,15.25,M,88,3335*44
$GNRMC,104620.400,A,2500.7984900,N,12132.4815600,E,0.00,54.55,260623,,,D,V*39
$GPHDT,,T*1B
$GNGGA,104620.600,2500.7984800,N,12132.4815600,E,2,54,0.52,18.90,M,15.25,M,88,3335*45
$GNRMC,104620.600,A,2500.7984800,N,12132.4815600,E,0.00,54.55,260623,,,D,V*3A
$GPHDT,,T*1B
$GNGGA,104620.800,2500.7984700,N,12132.4815600,E,2,54,0.52,18.87,M,15.25,M,88,3335*42
$GNRMC,104620.800,A,2500.7984700,N,12132.4815600,E,0.00,54.55,260623,,,D,V*3B
$GPHDT,,T*1B
$GNGSA,A,3,24,196,199,18,15,195,23,05,13,194,,,1.01,0.52,0.86,1*0B
$GNGSA,A,3,85,80,70,84,79,69,73,,,,,,1.01,0.52,0.86,2*00
$GNGSA,A,3,13,08,07,15,03,,,,,,,,1.01,0.52,0.86,3*00
$GNGSA,A,3,38,39,08,16,06,13,46,20,09,19,29,37,1.01,0.52,0.86,4*09
$GNGSA,A,3,36,,,,,,,,,,,,1.01,0.52,0.86,4*08
$GPGSV,4,1,15,24,79,146,42,196,73,055,38,199,60,167,30,18,59,288,41,1*6F
$GPGSV,4,2,15,15,47,027,43,45,47,231,39,195,41,179,38,23,35,326,30,1*54
$GPGSV,4,3,15,05,30,102,22,194,24,143,17,13,20,045,36,29,10,210,14,1*50
$GPGSV,4,4,15,20,09,119,,12,09,155,,10,05,309,15,1*53
$GPGSV,2,1,07,24,79,146,45,196,73,055,45,199,60,167,38,18,59,288,43,8*64
$GPGSV,2,2,07,195,41,179,43,23,35,326,30,194,24,143,32,8*54
$GLGSV,2,1,08,85,45,275,31,80,42,109,40,70,38,343,33,84,28,198,20,1*73
$GLGSV,2,2,08,79,23,048,20,69,20,053,30,73,18,167,25,71,15,294,24,1*78
$GAGSV,3,1,09,13,65,263,43,08,53,007,33,07,40,283,18,15,38,173,39,7*73
$GAGSV,3,2,09,26,23,318,22,02,20,101,20,03,18,053,22,30,15,153,,7*7A
$GAGSV,3,3,09,25,05,055,,7*48
$GAGSV,2,1,07,13,65,263,43,08,53,007,40,07,40,283,28,15,38,173,40,1*73
$GAGSV,2,2,07,26,23,318,22,02,20,101,19,03,18,053,26,1*4D
$GBGSV,4,1,15,38,78,050,42,39,73,251,44,08,70,007,39,16,65,232,43,1*7A
$GBGSV,4,2,15,06,63,230,37,13,61,342,43,46,48,138,36,20,46,039,49,1*73
$GBGSV,4,3,15,09,46,223,38,19,41,325,22,29,31,225,31,37,31,062,35,1*75
$GBGSV,4,4,15,36,19,186,23,30,06,176,,10,04,206,,1*45
$GBGSV,2,1,08,38,78,050,42,39,73,251,45,46,48,138,36,20,46,039,47,4*7E
$GBGSV,2,2,08,19,41,325,36,37,31,062,37,29,31,225,33,36,19,186,33,4*7F
$GNGGA,104621.000,2500.7984700,N,12132.4815700,E,2,54,0.52,18.83,M,15.25,M,89,3335*4F
$GNRMC,104621.000,A,2500.7984700,N,12132.4815700,E,0.00,54.55,260623,,,D,V*33
$GPHDT,,T*1B
$GNGGA,104621.200,2500.7984600,N,12132.4815700,E,2,53,0.52,18.79,M,15.25,M,89,3335*4E
$GNRMC,104621.200,A,2500.7984600,N,12132.4815700,E,0.00,54.55,260623,,,D,V*30
$GPHDT,,T*1B
$GNGGA,104621.400,2500.7984600,N,12132.4815700,E,2,54,0.52,18.76,M,15.25,M,89,3335*40
$GNRMC,104621.400,A,2500.7984600,N,12132.4815700,E,0.00,54.55,260623,,,D,V*36
$GPHDT,,T*1B
$GNGGA,104621.600,2500.7984600,N,12132.4815700,E,2,54,0.52,18.73,M,15.25,M,89,3335*47
$GNRMC,104621.600,A,2500.7984600,N,12132.4815700,E,0.00,54.55,260623,,,D,V*34
$GPHDT,,T*1B
$GNGGA,104621.800,2500.7984600,N,12132.4815800,E,2,54,0.52,18.71,M,15.25,M,89,3335*44
$GNRMC,104621.800,A,2500.7984600,N,12132.4815800,E,0.00,54.55,260623,,,D,V*35
$GPHDT,,T*1B
$GNGSA,A,3,24,196,199,18,15,195,23,05,194,13,,,1.01,0.52,0.86,1*0B
$GNGSA,A,3,85,80,70,84,79,69,73,,,,,,1.01,0.52,0.86,2*00
$GNGSA,A,3,13,08,07,15,03,,,,,,,,1.01,0.52,0.86,3*00
$GNGSA,A,3,38,39,08,16,06,13,46,20,09,37,29,36,1.01,0.52,0.86,4*04
$GNGSA,A,3,19,,,,,,,,,,,,1.01,0.52,0.86,4*05
$GPGSV,4,1,15,24,79,146,42,196,73,055,38,199,60,167,30,18,59,288,41,1*6F
$GPGSV,4,2,15,15,47,027,43,45,47,231,39,195,41,179,38,23,35,326,30,1*54
$GPGSV,4,3,15,05,30,102,24,194,24,143,29,13,20,045,36,29,10,210,16,1*59
$GPGSV,4,4,15,20,09,119,,12,09,155,,10,05,309,16,1*50
$GPGSV,2,1,07,24,79,146,45,196,73,055,45,199,60,167,38,18,59,288,43,8*64
$GPGSV,2,2,07,195,41,179,43,23,35,326,31,194,24,143,33,8*54
$GLGSV,2,1,08,85,45,275,31,80,42,109,36,70,38,343,33,84,28,198,20,1*72
$GLGSV,2,2,08,79,23,048,23,69,19,053,30,73,18,167,24,71,15,294,24,1*70
$GAGSV,2,1,08,13,65,263,43,08,53,007,35,07,40,283,16,15,38,173,39,7*7B
$GAGSV,2,2,08,26,23,318,21,02,20,101,21,03,18,053,22,30,15,153,,7*78
$GAGSV,2,1,07,13,65,263,43,08,53,007,40,07,40,283,28,15,38,173,40,1*73
$GAGSV,2,2,07,26,23,318,22,02,20,101,19,03,18,053,26,1*4D
$GBGSV,4,1,15,38,78,050,42,39,73,251,44,08,70,007,39,16,65,232,43,1*7A
$GBGSV,4,2,15,06,63,230,37,13,61,342,43,46,48,138,36,20,46,039,49,1*73
$GBGSV,4,3,15,09,46,223,38,19,41,325,21,37,31,062,36,29,31,225,35,1*71
$GBGSV,4,4,15,36,19,186,25,30,06,176,,10,04,206,,1*43
$GBGSV,2,1,08,38,78,050,42,39,73,251,45,46,48,138,37,20,46,039,47,4*7F
$GBGSV,2,2,08,19,41,325,36,37,31,062,37,29,31,225,35,36,19,186,33,4*79
$GNGGA,104622.000,2500.7984600,N,12132.4815700,E,2,54,0.52,18.68,M,15.25,M,90,3335*40
$GNRMC,104622.000,A,2500.7984600,N,12132.4815700,E,0.00,54.55,260623,,,D,V*31
$GPHDT,,T*1B
$GNGGA,104622.200,2500.7984500,N,12132.4815600,E,2,54,0.52,18.65,M,15.25,M,90,3335*4D
$GNRMC,104622.200,A,2500.7984500,N,12132.4815600,E,0.00,54.55,260623,,,D,V*31
$GPHDT,,T*1B
$GNGGA,104622.400,2500.7984500,N,12132.4815600,E,2,54,0.52,18.62,M,15.25,M,90,3335*4C
$GNRMC,104622.400,A,2500.7984500,N,12132.4815600,E,0.00,54.55,260623,,,D,V*37
$GPHDT,,T*1B
$GNGGA,104622.600,2500.7984400,N,12132.4815600,E,2,54,0.52,18.59,M,15.25,M,90,3335*47
$GNRMC,104622.600,A,2500.7984400,N,12132.4815600,E,0.00,54.55,260623,,,D,V*34
$GPHDT,,T*1B
$GNGGA,104622.800,2500.7984400,N,12132.4815600,E,2,54,0.52,18.58,M,15.25,M,90,3335*48
$GNRMC,104622.800,A,2500.7984400,N,12132.4815600,E,0.00,54.55,260623,,,D,V*3A
$GPHDT,,T*1B
$GNGSA,A,3,24,196,199,18,15,195,23,05,194,13,,,1.01,0.52,0.86,1*0B
$GNGSA,A,3,85,80,70,84,79,69,73,,,,,,1.01,0.52,0.86,2*00
$GNGSA,A,3,13,08,07,15,03,,,,,,,,1.01,0.52,0.86,3*00
$GNGSA,A,3,38,39,08,16,06,13,46,09,20,37,29,36,1.01,0.52,0.86,4*04
$GNGSA,A,3,19,,,,,,,,,,,,1.01,0.52,0.86,4*05
$GPGSV,4,1,15,24,79,146,42,196,73,055,38,199,60,167,31,18,59,288,41,1*6E
$GPGSV,4,2,15,15,47,027,43,45,47,231,39,195,41,179,38,23,35,326,30,1*54
$GPGSV,4,3,15,05,30,102,21,194,24,143,28,13,20,045,35,29,10,210,16,1*5E
$GPGSV,4,4,15,20,09,119,,12,09,155,,10,05,309,16,1*50
$GPGSV,2,1,07,24,79,146,45,196,73,055,45,199,60,167,36,18,59,288,43,8*6A
$GPGSV,2,2,07,195,41,179,43,23,35,326,30,194,24,143,34,8*52
$GLGSV,2,1,08,85,45,275,32,80,42,109,33,70,38,343,33,84,28,198,20,1*74
$GLGSV,2,2,08,79,23,048,24,69,19,053,30,73,18,167,24,71,15,294,24,1*77
$GAGSV,2,1,07,13,65,263,43,08,53,007,35,07,40,283,17,15,38,173,39,7*75
$GAGSV,2,2,07,26,23,318,21,02,20,101,21,03,18,053,20,7*45
$GAGSV,2,1,07,13,65,263,43,08,53,007,40,07,40,283,28,15,38,173,40,1*73
$GAGSV,2,2,07,26,23,318,22,02,20,101,20,03,18,053,27,1*46
$GBGSV,4,1,13,38,78,050,42,39,73,251,44,08,70,007,39,16,65,232,43,1*7C
$GBGSV,4,2,13,06,63,230,37,13,61,342,43,46,48,138,36,09,46,223,38,1*71
$GBGSV,4,3,13,20,46,039,49,19,41,325,20,37,31,062,37,29,31,225,35,1*73
$GBGSV,4,4,13,36,19,186,21,1*45
$GBGSV,2,1,08,38,78,050,42,39,73,251,45,46,48,138,37,20,46,039,47,4*7F
$GBGSV,2,2,08,19,41,325,36,37,31,062,37,29,31,225,34,36,19,186,32,4*79
$GNGGA,104623.000,2500.7984400,N,12132.4815500,E,2,54,0.52,18.55,M,15.25,M,91,3335*4E
$GNRMC,104623.000,A,2500.7984400,N,12132.4815500,E,0.00,54.55,260623,,,D,V*30
$GPHDT,,T*1B
$GNGGA,104623.200,2500.7984300,N,12132.4815500,E,2,54,0.52,18.52,M,15.25,M,91,3335*4C
$GNRMC,104623.200,A,2500.7984300,N,12132.4815500,E,0.00,54.55,260623,,,D,V*35
$GPHDT,,T*1B
$GNGGA,104623.400,2500.7984300,N,12132.4815500,E,2,54,0.52,18.49,M,15.25,M,91,3335*40
$GNRMC,104623.400,A,2500.7984300,N,12132.4815500,E,0.00,54.55,260623,,,D,V*33
$GPHDT,,T*1B
$GNGGA,104623.600,2500.7984300,N,12132.4815500,E,2,54,0.52,18.47,M,15.25,M,91,3335*4C
$GNRMC,104623.600,A,2500.7984300,N,12132.4815500,E,0.00,54.55,260623,,,D,V*31
$GPHDT,,T*1B
$GNGGA,104623.800,2500.7984300,N,12132.4815400,E,2,54,0.52,18.44,M,15.25,M,91,3335*40
$GNRMC,104623.800,A,2500.7984300,N,12132.4815400,E,0.00,54.55,260623,,,D,V*3E
$GPHDT,,T*1B
$GNGSA,A,3,24,196,199,18,15,195,23,05,194,13,,,1.01,0.52,0.86,1*0B
$GNGSA,A,3,85,80,70,84,79,69,73,,,,,,1.01,0.52,0.86,2*00
$GNGSA,A,3,13,08,07,15,03,,,,,,,,1.01,0.52,0.86,3*00
$GNGSA,A,3,38,39,08,16,06,13,46,09,20,37,29,36,1.01,0.52,0.86,4*04
$GNGSA,A,3,19,,,,,,,,,,,,1.01,0.52,0.86,4*05
$GPGSV,4,1,15,24,79,146,42,196,73,055,38,199,60,167,31,18,59,288,41,1*6E
$GPGSV,4,2,15,15,47,027,43,45,47,231,39,195,41,179,38,23,35,326,31,1*55
$GPGSV,4,3,15,05,30,102,22,194,24,143,27,13,20,045,34,29,10,210,16,1*53
$GPGSV,4,4,15,20,09,119,,12,09,155,,10,05,309,16,1*50
$GPGSV,2,1,07,24,79,146,45,196,73,055,45,199,60,167,36,18,59,288,43,8*6A
$GPGSV,2,2,07,195,41,179,43,23,35,326,30,194,24,143,35,8*53
$GLGSV,2,1,08,85,45,275,33,80,42,109,32,70,38,343,33,84,28,198,20,1*74
$GLGSV,2,2,08,79,22,048,27,69,19,053,30,73,18,167,25,71,15,294,25,1*75
$GAGSV,2,1,07,13,65,263,43,08,53,007,36,07,40,283,17,15,38,173,39,7*76
$GAGSV,2,2,07,26,23,318,21,02,20,101,21,03,18,053,22,7*47
$GAGSV,2,1,07,13,65,263,43,08,53,007,41,07,40,283,28,15,38,173,41,1*73
$GAGSV,2,2,07,26,23,318,22,02,20,101,22,03,18,053,27,1*44
$GBGSV,4,1,13,38,78,050,42,39,73,251,44,08,70,007,40,16,65,232,43,1*72
$GBGSV,4,2,13,06,63,230,37,13,61,342,43,46,48,138,37,09,46,223,39,1*71
$GBGSV,4,3,13,20,46,039,49,19,41,325,20,37,31,062,38,29,31,225,34,1*7D
$GBGSV,4,4,13,36,19,186,20,1*44
$GBGSV,2,1,08,38,78,050,42,39,73,251,45,46,48,138,37,20,46,039,47,4*7F
$GBGSV,2,2,08,19,41,325,36,37,31,062,37,29,31,225,34,36,19,186,32,4*79
$GNGGA,104624.000,2500.7984200,N,12132.4815400,E,2,54,0.52,18.42,M,15.25,M,92,3335*4B
$GNRMC,104624.000,A,2500.7984200,N,12132.4815400,E,0.00,54.55,260623,,,D,V*30
$GPHDT,,T*1B
$GNGGA,104624.200,2500.7984200,N,12132.4815300,E,2,54,0.52,18.39,M,15.25,M,92,3335*42
$GNRMC,104624.200,A,2500.7984200,N,12132.4815300,E,0.00,54.55,260623,,,D,V*35
$GPHDT,,T*1B
$GNGGA,104624.400,2500.7984100,N,12132.4815300,E,2,54,0.52,18.36,M,15.25,M,92,3335*48
$GNRMC,104624.400,A,2500.7984100,N,12132.4815300,E,0.00,54.55,260623,,,D,V*30
$GPHDT,,T*1B
$GNGGA,104624.600,2500.7984100,N,12132.4815300,E,2,54,0.52,18.34,M,15.25,M,92,3335*48
$GNRMC,104624.600,A,2500.7984100,N,12132.4815300,E,0.00,54.55,260623,,,D,V*32
$GPHDT,,T*1B
$GNGGA,104624.800,2500.7984100,N,12132.4815300,E,2,54,0.52,18.31,M,15.25,M,92,3335*43
$GNRMC,104624.800,A,2500.7984100,N,12132.4815300,E,0.00,54.55,260623,,,D,V*3C
$GPHDT,,T*1B
$GNGSA,A,3,24,196,199,18,15,195,23,05,194,13,,,1.01,0.52,0.86,1*0B
$GNGSA,A,3,85,80,70,84,79,69,73,,,,,,1.01,0.52,0.86,2*00
$GNGSA,A,3,13,08,07,15,03,,,,,,,,1.01,0.52,0.86,3*00
$GNGSA,A,3,38,39,08,16,06,13,46,20,09,29,37,36,1.01,0.52,0.86,4*04
$GNGSA,A,3,19,,,,,,,,,,,,1.01,0.52,0.86,4*05
$GPGSV,4,1,15,24,79,146,42,196,73,055,38,199,60,167,30,18,59,288,41,1*6F
$GPGSV,4,2,15,15,47,027,43,45,47,231,39,195,41,179,38,23,35,326,32,1*56
$GPGSV,4,3,15,05,30,102,25,194,24,143,22,13,20,045,35,29,10,210,15,1*53
$GPGSV,4,4,15,20,09,119,,12,09,155,,10,05,309,16,1*50
$GPGSV,2,1,07,24,79,146,45,196,73,055,45,199,60,167,37,18,59,288,43,8*6B
$GPGSV,2,2,07,195,41,179,43,23,35,326,31,194,24,143,33,8*54
$GLGSV,2,1,07,85,45,274,33,80,42,109,30,70,38,343,33,84,27,197,19,1*72
$GLGSV,2,2,07,79,22,048,27,69,19,053,30,73,18,167,25,1*40
$GAGSV,2,1,07,13,65,263,43,08,53,007,35,07,40,283,16,15,38,173,40,7*7A
$GAGSV,2,2,07,26,23,318,22,02,20,101,21,03,18,053,21,7*47
$GAGSV,2,1,07,13,65,263,43,08,53,007,41,07,40,283,27,15,38,173,41,1*7C
$GAGSV,2,2,07,26,23,318,22,02,20,101,22,03,18,053,26,1*45
$GBGSV,4,1,13,38,78,050,42,39,73,251,44,08,70,007,40,16,65,232,43,1*72
$GBGSV,4,2,13,06,63,230,37,13,61,342,43,46,48,138,27,20,46,039,49,1*75
$GBGSV,4,3,13,09,46,223,39,19,41,325,19,29,31,225,33,37,31,062,37,1*7A
$GBGSV,4,4,13,36,19,186,22,1*46
$GBGSV,2,1,08,38,78,050,42,39,73,251,45,46,48,138,34,20,46,039,47,4*7C
$GBGSV,2,2,08,19,41,325,36,37,31,062,37,29,31,225,35,36,19,186,33,4*79
$GNGGA,104625.000,2500.7984100,N,12132.4815300,E,2,54,0.52,18.29,M,15.25,M,93,3335*42
$GNRMC,104625.000,A,2500.7984100,N,12132.4815300,E,0.00,54.55,260623,,,D,V*35
$GPHDT,,T*1B
$GNGGA,104625.200,2500.7984100,N,12132.4815300,E,2,55,0.52,18.26,M,15.25,M,93,3335*4E
$GNRMC,104625.200,A,2500.7984100,N,12132.4815300,E,0.00,54.55,260623,,,D,V*37
$GPHDT,,T*1B
