$FW : RTK35X,V1.1X0314AS,Lib20210517,1*54
$Tool : LOCOSYS , GNSS Firebird , v1.0.0.19*39
$---------------------------------------------------*2D
$GPHDT,,T*1B
$GNGGA,104519.400,2500.7994416,N,12132.4812443,E,2,54,0.52,17.529,M,15.25,M,27,3335*7B
$GNRMC,104519.400,A,2500.7994416,N,12132.4812443,E,0.01,54.55,260623,,,D,V*38
$GPHDT,,T*1B
$GNGGA,104519.600,2500.7994356,N,12132.4812443,E,2,54,0.52,17.532,M,15.25,M,27,3335*70
$GNRMC,104519.600,A,2500.7994356,N,12132.4812443,E,0.01,54.55,260623,,,D,V*39
$GPHDT,,T*1B
$GNGGA,104519.800,2500.7994296,N,12132.4812323,E,2,54,0.52,17.533,M,15.25,M,27,3335*73
$GNRMC,104519.800,A,2500.7994296,N,12132.4812323,E,0.02,54.55,260623,,,D,V*38
$GPHDT,,T*1B
$GNGSA,A,3,24,196,199,18,15,195,23,05,194,13,,,0.84,0.52,0.66,1*09
$GNGSA,A,3,85,80,84,79,69,73,,,,,,,0.84,0.52,0.66,2*05
$GNGSA,A,3,13,08,07,15,03,,,,,,,,0.84,0.52,0.66,3*02
$GNGSA,A,3,38,39,08,16,06,13,46,20,09,19,29,37,0.84,0.52,0.66,4*0B
$GNGSA,A,3,36,,,,,,,,,,,,0.84,0.52,0.66,4*0A
$GPGSV,4,1,15,24,79,148,36,196,73,055,40,199,60,167,30,18,59,289,37,1*6D
$GPGSV,4,2,15,15,47,026,44,45,47,231,37,195,41,179,38,23,35,326,28,1*55
$GPGSV,4,3,15,05,30,101,32,194,24,143,25,13,20,044,38,29,10,210,13,1*5B
$GPGSV,4,4,15,20,10,118,,12,09,155,,10,05,309,15,1*5A
$GPGSV,2,1,07,24,79,148,46,196,73,055,45,199,60,167,38,18,59,289,41,8*6A
$GPGSV,2,2,07,195,41,179,43,23,35,326,30,194,24,143,31,8*57
$GLGSV,2,1,08,85,45,275,28,80,41,110,37,70,38,343,31,84,28,198,24,1*76
$GLGSV,2,2,08,79,23,049,31,69,20,053,27,73,18,168,22,71,14,294,15,1*74
$GAGSV,2,1,08,13,65,264,38,08,54,006,34,07,40,283,24,15,39,173,39,7*77
$GAGSV,2,2,08,02,20,101,17,03,18,052,31,30,14,154,,25,05,056,,7*75
$GAGSV,2,1,05,13,65,264,44,08,54,006,38,07,40,283,21,15,39,173,40,1*70
$GAGSV,2,2,05,03,18,052,27,1*48
$GBGSV,5,1,17,38,78,050,43,39,73,250,44,08,69,007,41,16,65,232,43,1*7E
$GBGSV,5,2,17,06,63,230,38,13,61,342,44,46,48,138,40,20,47,039,48,1*79
$GBGSV,5,3,17,09,46,223,40,19,41,324,27,29,31,225,39,37,31,062,40,1*77
$GBGSV,5,4,17,35,24,287,,36,18,186,27,32,09,084,,30,07,176,,1*7A
$GBGSV,5,5,17,10,04,207,,1*40
$GBGSV,2,1,08,38,78,050,40,39,73,250,45,46,48,138,34,20,47,039,44,4*7D
$GBGSV,2,2,08,19,41,324,32,29,31,225,39,37,31,062,35,36,18,186,31,4*71
$GNGGA,104520.000,2500.7994296,N,12132.4812143,E,2,54,0.52,17.535,M,15.25,M,28,3335*7C
$GNRMC,104520.000,A,2500.7994296,N,12132.4812143,E,0.02,54.55,260623,,,D,V*3E
$GPHDT,,T*1B
$GNGGA,104520.200,2500.7994236,N,12132.4812083,E,2,54,0.52,17.538,M,15.25,M,28,3335*74
$GNRMC,104520.200,A,2500.7994236,N,12132.4812083,E,0.01,54.55,260623,,,D,V*38
$GPHDT,,T*1B
$GNGGA,104520.400,2500.7994236,N,12132.4811963,E,2,54,0.52,17.540,M,15.25,M,28,3335*79
$GNRMC,104520.400,A,2500.7994236,N,12132.4811963,E,0.01,54.55,260623,,,D,V*3A
$GPHDT,,T*1B
$GNGGA,104520.600,2500.7994116,N,12132.4811963,E,2,54,0.52,17.543,M,15.25,M,28,3335*79
$GNRMC,104520.600,A,2500.7994116,N,12132.4811963,E,0.02,54.55,260623,,,D,V*3A
$GPHDT,,T*1B
$GNGGA,104520.800,2500.7993996,N,12132.4812023,E,2,54,0.52,17.544,M,15.25,M,28,3335*79
$GNRMC,104520.800,A,2500.7993996,N,12132.4812023,E,0.01,54.55,260623,,,D,V*3E
$GPHDT,,T*1B
$GNGSA,A,3,24,196,199,18,15,195,23,05,194,13,,,0.84,0.52,0.66,1*09
$GNGSA,A,3,85,80,84,79,69,73,,,,,,,0.84,0.52,0.66,2*05
$GNGSA,A,3,13,08,07,15,03,,,,,,,,0.84,0.52,0.66,3*02
$GNGSA,A,3,38,39,08,16,06,13,46,20,09,19,37,29,0.84,0.52,0.66,4*0B
$GNGSA,A,3,36,,,,,,,,,,,,0.84,0.52,0.66,4*0A
$GPGSV,4,1,15,24,79,148,36,196,73,055,39,199,60,167,31,18,59,289,37,1*62
$GPGSV,4,2,15,15,47,026,44,45,47,231,38,195,41,179,38,23,35,326,28,1*5A
$GPGSV,4,3,15,05,30,101,31,194,24,143,24,13,20,044,38,29,10,210,15,1*5F
$GPGSV,4,4,15,20,10,118,,12,09,155,,10,05,309,15,1*5A
$GPGSV,2,1,07,24,79,148,46,196,73,055,45,199,60,167,39,18,59,289,42,8*68
$GPGSV,2,2,07,195,41,179,43,23,35,326,31,194,24,143,33,8*54
$GLGSV,2,1,08,85,45,275,29,80,41,110,37,70,38,343,31,84,28,198,24,1*77
$GLGSV,2,2,08,79,23,049,30,69,20,053,26,73,18,168,19,71,14,294,15,1*7C
$GAGSV,2,1,08,13,65,264,40,08,54,006,31,07,40,283,24,15,39,173,39,7*7D
$GAGSV,2,2,08,02,20,101,17,03,18,052,30,30,14,154,,25,05,056,,7*74
$GAGSV,2,1,06,13,65,264,44,08,54,006,38,07,40,283,23,15,39,173,40,1*71
$GAGSV,2,2,06,02,20,101,20,03,18,052,28,1*76
$GBGSV,4,1,13,38,78,050,43,39,73,250,43,08,69,007,41,16,65,232,43,1*7C
$GBGSV,4,2,13,06,63,230,38,13,61,342,44,46,48,138,40,20,47,039,47,1*73
$GBGSV,4,3,13,09,46,223,40,19,41,324,27,37,31,062,40,29,31,225,39,1*72
$GBGSV,4,4,13,36,18,186,27,1*42
$GBGSV,2,1,08,38,78,050,40,39,73,250,45,46,48,138,33,20,47,039,44,4*7A
$GBGSV,2,2,08,19,41,324,33,29,31,225,39,37,31,062,36,36,18,186,33,4*71
$GNGGA,104521.000,2500.7993876,N,12132.4812083,E,2,54,0.52,17.546,M,15.25,M,29,3335*76
$GNRMC,104521.000,A,2500.7993876,N,12132.4812083,E,0.01,54.55,260623,,,D,V*32
$GPHDT,,T*1B
$GNGGA,104521.200,2500.7993756,N,12132.4812143,E,2,54,0.52,17.547,M,15.25,M,29,3335*75
$GNRMC,104521.200,A,2500.7993756,N,12132.4812143,E,0.00,54.55,260623,,,D,V*31
$GPHDT,,T*1B
$GNGGA,104521.400,2500.7993696,N,12132.4812143,E,2,54,0.53,17.547,M,15.25,M,29,3335*7F
$GNRMC,104521.400,A,2500.7993696,N,12132.4812143,E,0.00,54.55,260623,,,D,V*3A
$GPHDT,,T*1B
$GNGGA,104521.600,2500.7993636,N,12132.4812083,E,2,54,0.53,17.547,M,15.25,M,29,3335*7A
$GNRMC,104521.600,A,2500.7993636,N,12132.4812083,E,0.01,54.55,260623,,,D,V*3E
$GPHDT,,T*1B
$GNGGA,104521.800,2500.7993576,N,12132.4812083,E,2,54,0.53,17.547,M,15.25,M,29,3335*73
$GNRMC,104521.800,A,2500.7993576,N,12132.4812083,E,0.00,54.55,260623,,,D,V*36
$GPHDT,,T*1B
$GNGSA,A,3,24,196,199,18,15,195,23,05,194,13,,,1.02,0.53,0.87,1*08
$GNGSA,A,3,85,80,84,79,69,73,,,,,,,1.02,0.53,0.87,2*04
$GNGSA,A,3,13,08,07,15,03,,,,,,,,1.02,0.53,0.87,3*03
$GNGSA,A,3,38,39,08,16,06,13,46,20,09,19,37,29,1.02,0.53,0.87,4*0A
$GNGSA,A,3,36,,,,,,,,,,,,1.02,0.53,0.87,4*0B
$GPGSV,4,1,15,24,79,148,37,196,73,055,39,199,60,167,32,18,59,289,37,1*60
$GPGSV,4,2,15,15,47,026,44,45,47,231,39,195,41,179,38,23,35,326,28,1*5B
$GPGSV,4,3,15,05,30,101,32,194,24,143,25,13,20,044,38,29,10,210,14,1*5C
$GPGSV,4,4,15,20,10,118,,12,09,155,,10,05,309,15,1*5A
$GPGSV,2,1,07,24,79,148,46,196,73,055,45,199,60,167,39,18,59,289,42,8*68
$GPGSV,2,2,07,195,41,179,43,23,35,326,31,194,24,143,33,8*54
$GLGSV,2,1,08,85,45,275,29,80,41,110,37,70,38,343,31,84,28,198,24,1*77
$GLGSV,2,2,08,79,23,049,30,69,20,053,27,73,18,168,19,71,14,294,14,1*7C
$GAGSV,2,1,08,13,65,264,40,08,54,006,31,07,40,283,24,15,39,173,39,7*7D
$GAGSV,2,2,08,02,20,101,19,03,18,052,30,30,14,154,,25,05,056,,7*7A
$GAGSV,2,1,06,13,65,264,44,08,54,006,38,07,40,283,25,15,39,173,40,1*77
$GAGSV,2,2,06,02,20,101,20,03,18,052,28,1*76
$GBGSV,4,1,13,38,78,050,43,39,73,250,42,08,69,007,41,16,65,232,43,1*7D
$GBGSV,4,2,13,06,63,230,38,13,61,342,44,46,48,138,41,20,47,039,47,1*72
$GBGSV,4,3,13,09,46,223,40,19,41,324,28,37,31,062,39,29,31,225,39,1*73
$GBGSV,4,4,13,36,18,186,28,1*4D
$GBGSV,2,1,08,38,78,050,41,39,73,250,45,46,48,138,32,20,47,039,44,4*7A
$GBGSV,2,2,08,19,41,324,33,29,31,225,39,37,31,062,36,36,18,186,33,4*71
$GNGGA,104522.000,2500.7993516,N,12132.4812023,E,2,54,0.53,17.548,M,15.25,M,30,3335*73
$GNRMC,104522.000,A,2500.7993516,N,12132.4812023,E,0.00,54.55,260623,,,D,V*31
$GPHDT,,T*1B
$GNGGA,104522.200,2500.7993396,N,12132.4812143,E,2,54,0.53,17.549,M,15.25,M,30,3335*79
$GNRMC,104522.200,A,2500.7993396,N,12132.4812143,E,0.00,54.55,260623,,,D,V*3A
$GPHDT,,T*1B
$GNGGA,104522.400,2500.7993336,N,12132.4812083,E,2,54,0.53,17.549,M,15.25,M,30,3335*78
$GNRMC,104522.400,A,2500.7993336,N,12132.4812083,E,0.00,54.55,260623,,,D,V*3B
$GPHDT,,T*1B
$GNGGA,104522.600,2500.7993336,N,12132.4812023,E,2,54,0.53,17.549,M,15.25,M,30,3335*70
$GNRMC,104522.600,A,2500.7993336,N,12132.4812023,E,0.00,54.55,260623,,,D,V*33
$GPHDT,,T*1B
$GNGGA,104522.800,2500.7993216,N,12132.4812083,E,2,54,0.53,17.549,M,15.25,M,30,3335*77
$GNRMC,104522.800,A,2500.7993216,N,12132.4812083,E,0.00,54.55,260623,,,D,V*34
$GPHDT,,T*1B
$GNGSA,A,3,24,196,199,18,15,195,23,05,194,13,,,1.02,0.53,0.87,1*08
$GNGSA,A,3,85,80,84,79,69,73,,,,,,,1.02,0.53,0.87,2*04
$GNGSA,A,3,13,08,07,15,03,,,,,,,,1.02,0.53,0.87,3*03
$GNGSA,A,3,38,39,08,16,06,13,46,20,09,19,37,29,1.02,0.53,0.87,4*0A
$GNGSA,A,3,36,,,,,,,,,,,,1.02,0.53,0.87,4*0B
$GPGSV,4,1,15,24,79,148,37,196,73,055,39,199,60,167,30,18,59,289,37,1*62
$GPGSV,4,2,15,15,47,026,44,45,47,231,39,195,41,179,38,23,35,326,28,1*5B
$GPGSV,4,3,15,05,30,101,32,194,24,143,26,13,20,044,38,29,10,210,16,1*5D
$GPGSV,4,4,15,20,10,118,,12,09,155,,10,05,309,14,1*5B
$GPGSV,2,1,07,24,79,148,46,196,73,055,45,199,60,167,39,18,59,289,42,8*68
$GPGSV,2,2,07,195,41,179,43,23,35,326,31,194,24,143,33,8*54
$GLGSV,2,1,08,85,45,275,27,80,41,110,37,70,38,343,31,84,28,198,25,1*78
$GLGSV,2,2,08,79,23,049,30,69,20,053,24,73,18,168,18,71,14,294,14,1*7E
$GAGSV,2,1,08,13,65,264,40,08,54,006,31,07,40,283,24,15,39,173,39,7*7D
$GAGSV,2,2,08,02,20,101,21,03,18,052,30,30,14,154,,25,05,056,,7*71
$GAGSV,2,1,05,13,65,264,44,08,54,006,39,07,40,283,25,15,39,173,40,1*75
$GAGSV,2,2,05,03,18,052,29,1*46
$GBGSV,4,1,13,38,78,050,42,39,73,250,42,08,69,007,41,16,65,232,43,1*7C
$GBGSV,4,2,13,06,63,230,38,13,61,342,44,46,48,138,41,20,47,039,47,1*72
$GBGSV,4,3,13,09,46,223,40,19,41,324,28,37,31,062,39,29,31,225,40,1*7D
$GBGSV,4,4,13,36,18,186,28,1*4D
$GBGSV,2,1,08,38,78,050,41,39,73,250,45,46,48,138,33,20,47,039,44,4*7B
$GBGSV,2,2,08,19,41,324,33,29,31,225,39,37,31,062,36,36,18,186,33,4*71
$GNGGA,104523.000,2500.7993156,N,12132.4812143,E,2,54,0.53,17.550,M,15.25,M,31,3335*7D
$GNRMC,104523.000,A,2500.7993156,N,12132.4812143,E,0.00,54.55,260623,,,D,V*37
$GPHDT,,T*1B
$GNGGA,104523.200,2500.7993156,N,12132.4812083,E,2,54,0.53,17.553,M,15.25,M,31,3335*71
$GNRMC,104523.200,A,2500.7993156,N,12132.4812083,E,0.00,54.55,260623,,,D,V*38
$GPHDT,,T*1B
$GNGGA,104523.400,2500.7993036,N,12132.4812203,E,2,54,0.53,17.553,M,15.25,M,31,3335*7A
$GNRMC,104523.400,A,2500.7993036,N,12132.4812203,E,0.01,54.55,260623,,,D,V*32
$GPHDT,,T*1B
$GNGGA,104523.600,2500.7992976,N,12132.4812143,E,2,54,0.53,17.552,M,15.25,M,31,3335*72
$GNRMC,104523.600,A,2500.7992976,N,12132.4812143,E,0.00,54.55,260623,,,D,V*3A
$GPHDT,,T*1B
$GNGGA,104523.800,2500.7992916,N,12132.4812263,E,2,54,0.53,17.554,M,15.25,M,31,3335*7D
$GNRMC,104523.800,A,2500.7992916,N,12132.4812263,E,0.00,54.55,260623,,,D,V*33
$GPHDT,,T*1B
$GNGSA,A,3,24,196,199,18,15,195,23,05,194,13,,,1.02,0.53,0.87,1*08
$GNGSA,A,3,85,80,84,79,69,73,,,,,,,1.02,0.53,0.87,2*04
$GNGSA,A,3,13,08,07,15,03,,,,,,,,1.02,0.53,0.87,3*03
$GNGSA,A,3,38,39,08,16,06,13,46,20,09,19,37,29,1.02,0.53,0.87,4*0A
$GNGSA,A,3,36,,,,,,,,,,,,1.02,0.53,0.87,4*0B
$GPGSV,4,1,15,24,79,148,37,196,73,055,39,199,60,167,29,18,59,289,37,1*6A
$GPGSV,4,2,15,15,47,026,44,45,47,231,39,195,41,179,38,23,35,326,29,1*5A
$GPGSV,4,3,15,05,30,101,32,194,24,143,27,13,20,044,38,29,10,210,16,1*5C
$GPGSV,4,4,15,20,10,118,,12,09,155,,10,05,309,13,1*5C
$GPGSV,2,1,07,24,79,148,46,196,73,055,45,199,60,167,39,18,59,289,42,8*68
$GPGSV,2,2,07,195,41,179,43,23,35,326,31,194,24,143,32,8*55
$GLGSV,2,1,08,85,45,275,25,80,41,110,37,70,38,343,31,84,28,198,25,1*7A
$GLGSV,2,2,08,79,23,049,30,69,20,053,24,73,18,168,18,71,14,294,12,1*78
$GAGSV,2,1,08,13,65,264,40,08,54,006,30,07,40,283,24,15,39,173,39,7*7C
$GAGSV,2,2,08,02,20,101,21,03,18,052,30,30,14,154,,25,05,056,,7*71
$GAGSV,2,1,06,13,65,264,44,08,54,006,39,07,40,283,25,15,39,173,40,1*76
$GAGSV,2,2,06,02,20,101,19,03,18,052,29,1*7D
$GBGSV,4,1,14,38,78,050,42,39,73,250,42,08,69,007,41,16,65,232,43,1*7B
$GBGSV,4,2,14,06,63,230,38,13,61,342,44,46,48,138,41,20,47,039,47,1*75
$GBGSV,4,3,14,09,46,223,39,19,41,325,28,37,31,062,39,29,31,225,40,1*75
$GBGSV,4,4,14,36,18,186,28,22,03,287,,1*74
$GBGSV,2,1,08,38,78,050,41,39,73,250,45,46,48,138,33,20,47,039,44,4*7B
$GBGSV,2,2,08,19,41,325,33,29,31,225,39,37,31,062,35,36,18,186,32,4*72
$GNGGA,104524.000,2500.7992856,N,12132.4812263,E,2,54,0.53,17.555,M,15.25,M,32,3335*75
$GNRMC,104524.000,A,2500.7992856,N,12132.4812263,E,0.00,54.55,260623,,,D,V*39
$GPHDT,,T*1B
$GNGGA,104524.200,2500.7992796,N,12132.4812203,E,2,54,0.53,17.556,M,15.25,M,32,3335*71
$GNRMC,104524.200,A,2500.7992796,N,12132.4812203,E,0.00,54.55,260623,,,D,V*3E
$GPHDT,,T*1B
$GNGGA,104524.400,2500.7992736,N,12132.4812203,E,2,54,0.53,17.558,M,15.25,M,32,3335*73
$GNRMC,104524.400,A,2500.7992736,N,12132.4812203,E,0.00,54.55,260623,,,D,V*32
$GPHDT,,T*1B
$GNGGA,104524.600,2500.7992676,N,12132.4812143,E,2,54,0.53,17.558,M,15.25,M,32,3335*73
$GNRMC,104524.600,A,2500.7992676,N,12132.4812143,E,0.00,54.55,260623,,,D,V*32
$GPHDT,,T*1B
$GNGGA,104524.800,2500.7992616,N,12132.4812143,E,2,54,0.53,17.559,M,15.25,M,32,3335*7A
$GNRMC,104524.800,A,2500.7992616,N,12132.4812143,E,0.00,54.55,260623,,,D,V*3A
$GPHDT,,T*1B
$GNGSA,A,3,24,196,199,18,15,195,23,05,194,13,,,1.02,0.53,0.87,1*08
$GNGSA,A,3,85,80,84,79,69,73,,,,,,,1.02,0.53,0.87,2*04
$GNGSA,A,3,13,08,07,15,03,,,,,,,,1.02,0.53,0.87,3*03
$GNGSA,A,3,38,39,08,16,06,13,46,20,09,19,29,37,1.02,0.53,0.87,4*0A
$GNGSA,A,3,36,,,,,,,,,,,,1.02,0.53,0.87,4*0B
$GPGSV,4,1,15,24,79,148,38,196,73,055,39,199,60,167,30,18,59,289,36,1*6C
$GPGSV,4,2,15,15,47,026,44,45,47,231,38,195,41,179,38,23,35,326,29,1*5B
$GPGSV,4,3,15,05,30,101,32,194,24,143,27,13,20,044,38,29,10,210,16,1*5C
$GPGSV,4,4,15,20,10,118,,12,09,155,,10,05,309,14,1*5B
$GPGSV,2,1,07,24,79,148,46,196,73,055,45,199,60,167,39,18,59,289,42,8*68
$GPGSV,2,2,07,195,41,179,43,23,35,326,31,194,24,143,32,8*55
$GLGSV,2,1,08,85,45,275,25,80,41,110,37,70,38,343,30,84,28,198,23,1*7D
$GLGSV,2,2,08,79,23,049,29,69,20,053,25,73,18,168,17,71,14,294,10,1*7C
$GAGSV,3,1,09,13,65,264,40,08,54,006,30,07,40,283,23,15,39,173,39,7*7B
$GAGSV,3,2,09,26,23,318,,02,20,101,21,03,18,052,30,30,14,154,,7*7F
$GAGSV,3,3,09,25,05,056,,7*4B
$GAGSV,2,1,06,13,65,264,44,08,54,006,39,07,40,283,26,15,39,173,39,1*7B
$GAGSV,2,2,06,02,20,101,20,03,18,052,29,1*77
$GBGSV,4,1,14,38,78,050,42,39,73,250,42,08,69,007,41,16,65,232,43,1*7B
$GBGSV,4,2,14,06,63,230,38,13,61,342,44,46,48,138,41,20,46,039,47,1*74
$GBGSV,4,3,14,09,46,223,39,19,41,325,28,29,31,225,40,37,31,062,39,1*75
$GBGSV,4,4,14,36,18,186,26,30,07,176,,1*70
$GBGSV,2,1,08,38,78,050,41,39,73,250,45,46,48,138,34,20,46,039,44,4*7D
$GBGSV,2,2,08,19,41,325,33,29,31,225,38,37,31,062,35,36,18,186,32,4*73
$GNGGA,104525.000,2500.7992556,N,12132.4812083,E,2,54,0.53,17.560,M,15.25,M,33,3335*72
$GNRMC,104525.000,A,2500.7992556,N,12132.4812083,E,0.00,54.55,260623,,,D,V*39
$GPHDT,,T*1B
$GNGGA,104525.200,2500.7992496,N,12132.4812143,E,2,54,0.53,17.560,M,15.25,M,33,3335*70
$GNRMC,104525.200,A,2500.7992496,N,12132.4812143,E,0.00,54.55,260623,,,D,V*3B
$GPHDT,,T*1B
$GNGGA,104525.400,2500.7992376,N,12132.4812143,E,2,54,0.53,17.565,M,15.25,M,33,3335*7A
$GNRMC,104525.400,A,2500.7992376,N,12132.4812143,E,0.00,54.55,260623,,,D,V*34
$GPHDT,,T*1B
$GNGGA,104525.600,2500.7992376,N,12132.4812023,E,2,54,0.53,17.567,M,15.25,M,33,3335*7D
$GNRMC,104525.600,A,2500.7992376,N,12132.4812023,E,0.00,54.55,260623,,,D,V*31
$GPHDT,,T*1B
$GNGGA,104525.800,2500.7992256,N,12132.4812143,E,2,54,0.53,17.572,M,15.25,M,33,3335*73
$GNRMC,104525.800,A,2500.7992256,N,12132.4812143,E,0.00,54.55,260623,,,D,V*3B
$GPHDT,,T*1B
$GNGSA,A,3,24,196,199,18,15,195,23,05,194,13,,,1.02,0.53,0.87,1*08
$GNGSA,A,3,85,80,84,79,69,73,,,,,,,1.02,0.53,0.87,2*04
$GNGSA,A,3,13,08,07,15,03,,,,,,,,1.02,0.53,0.87,3*03
$GNGSA,A,3,38,39,08,16,06,13,46,20,09,19,29,37,1.02,0.53,0.87,4*0A
$GNGSA,A,3,36,,,,,,,,,,,,1.02,0.53,0.87,4*0B
$GPGSV,4,1,15,24,79,148,38,196,73,055,39,199,60,167,30,18,59,289,36,1*6C
$GPGSV,4,2,15,15,47,026,44,45,47,231,38,195,41,179,39,23,35,326,29,1*5A
$GPGSV,4,3,15,05,30,101,32,194,24,143,27,13,20,044,38,29,10,210,16,1*5C
$GPGSV,4,4,15,20,10,118,,12,09,155,,10,05,309,12,1*5D
$GPGSV,2,1,07,24,79,148,46,196,73,055,45,199,60,167,39,18,59,289,42,8*68
$GPGSV,2,2,07,195,41,179,43,23,35,326,31,194,24,143,32,8*55
$GLGSV,3,1,09,85,45,275,21,80,41,110,37,70,38,343,30,84,28,198,23,1*79
$GLGSV,3,2,09,79,23,049,29,69,20,053,25,86,18,322,,73,18,168,17,1*75
$GLGSV,3,3,09,71,14,294,11,1*4D
$GAGSV,3,1,09,13,65,264,39,08,54,006,30,07,40,283,23,15,39,173,39,7*75
$GAGSV,3,2,09,26,23,318,,02,20,101,21,03,18,052,30,30,14,154,,7*7F
$GAGSV,3,3,09,25,05,056,,7*4B
$GAGSV,2,1,06,13,65,264,44,08,54,006,39,07,40,283,27,15,39,173,39,1*7A
$GAGSV,2,2,06,02,20,101,20,03,18,052,29,1*77
$GBGSV,4,1,13,38,78,050,42,39,73,250,42,08,69,007,41,16,65,232,43,1*7C
$GBGSV,4,2,13,06,63,230,38,13,61,342,44,46,48,138,41,20,46,039,47,1*73
$GBGSV,4,3,13,09,46,223,40,19,41,325,28,29,31,225,40,37,31,062,39,1*7C
$GBGSV,4,4,13,36,18,186,27,1*42
$GBGSV,2,1,08,38,78,050,41,39,73,250,45,46,48,138,34,20,46,039,44,4*7D
$GBGSV,2,2,08,19,41,325,33,29,31,225,39,37,31,062,35,36,18,186,32,4*72
$GNGGA,104526.000,2500.7992256,N,12132.4812023,E,2,54,0.53,17.574,M,15.25,M,34,3335*7E
$GNRMC,104526.000,A,2500.7992256,N,12132.4812023,E,0.00,54.55,260623,,,D,V*37
$GPHDT,,T*1B
$GNGGA,104526.200,2500.7992256,N,12132.4811903,E,2,54,0.53,17.577,M,15.25,M,34,3335*77
$GNRMC,104526.200,A,2500.7992256,N,12132.4811903,E,0.00,54.55,260623,,,D,V*3D
$GPHDT,,T*1B
$GNGGA,104526.400,2500.7992136,N,12132.4812023,E,2,54,0.53,17.580,M,15.25,M,34,3335*74
$GNRMC,104526.400,A,2500.7992136,N,12132.4812023,E,0.00,54.55,260623,,,D,V*36
$GPHDT,,T*1B
$GNGGA,104526.600,2500.7992136,N,12132.4811903,E,2,54,0.53,17.581,M,15.25,M,34,3335*7F
$GNRMC,104526.600,A,2500.7992136,N,12132.4811903,E,0.00,54.55,260623,,,D,V*3C
$GPHDT,,T*1B
$GNGGA,104526.800,2500.7992076,N,12132.4811783,E,2,54,0.53,17.586,M,15.25,M,34,3335*75
$GNRMC,104526.800,A,2500.7992076,N,12132.4811783,E,0.00,54.55,260623,,,D,V*31
$GPHDT,,T*1B
$GNGSA,A,3,24,196,199,18,15,195,23,05,194,13,,,1.02,0.53,0.87,1*08
$GNGSA,A,3,85,80,84,79,69,73,,,,,,,1.02,0.53,0.87,2*04
$GNGSA,A,3,13,08,07,15,03,,,,,,,,1.02,0.53,0.87,3*03
$GNGSA,A,3,38,39,08,16,06,13,46,20,09,19,29,37,1.02,0.53,0.87,4*0A
$GNGSA,A,3,36,,,,,,,,,,,,1.02,0.53,0.87,4*0B
$GPGSV,4,1,15,24,79,148,38,196,73,055,39,199,60,167,30,18,59,289,36,1*6C
$GPGSV,4,2,15,15,47,026,44,45,47,231,38,195,41,179,39,23,35,326,30,1*52
$GPGSV,4,3,15,05,30,101,33,194,24,143,26,13,20,044,38,29,10,210,17,1*5D
$GPGSV,4,4,15,20,10,118,,12,09,155,,10,05,309,13,1*5C
$GPGSV,2,1,07,24,79,148,46,196,73,055,45,199,60,167,38,18,59,289,42,8*69
$GPGSV,2,2,07,195,41,179,43,23,35,326,31,194,24,143,32,8*55
$GLGSV,2,1,08,85,45,275,19,80,41,110,37,70,38,343,31,84,28,198,23,1*73
$GLGSV,2,2,08,79,23,049,29,69,20,053,25,73,18,168,17,71,14,294,11,1*7D
$GAGSV,3,1,09,13,65,264,39,08,54,006,31,07,40,283,21,15,39,173,39,7*76
$GAGSV,3,2,09,26,23,318,,02,20,101,21,03,18,052,30,30,14,154,17,7*79
$GAGSV,3,3,09,25,05,056,,7*4B
$GAGSV,2,1,06,13,65,264,44,08,54,006,39,07,40,283,27,15,39,173,39,1*7A
$GAGSV,2,2,06,02,20,101,22,03,18,052,29,1*75
$GBGSV,4,1,15,38,78,050,42,39,73,250,42,08,69,007,41,16,65,232,43,1*7A
$GBGSV,4,2,15,06,63,230,38,13,61,342,44,46,48,138,42,20,46,039,47,1*76
$GBGSV,4,3,15,09,46,223,40,19,41,325,26,29,31,225,40,37,31,062,38,1*75
$GBGSV,4,4,15,36,18,186,27,32,09,084,,07,06,196,,1*4F
$GBGSV,2,1,08,38,78,050,41,39,73,250,45,46,48,138,34,20,46,039,44,4*7D
$GBGSV,2,2,08,19,41,325,33,29,31,225,40,37,31,062,35,36,18,186,32,4*7C
$GNGGA,104527.000,2500.7992076,N,12132.4811663,E,2,54,0.53,17.590,M,15.25,M,35,3335*75
$GNRMC,104527.000,A,2500.7992076,N,12132.4811663,E,0.00,54.55,260623,,,D,V*37
$GPHDT,,T*1B
$GNGGA,104527.200,2500.7992076,N,12132.4811543,E,2,54,0.53,17.593,M,15.25,M,35,3335*75
$GNRMC,104527.200,A,2500.7992076,N,12132.4811543,E,0.00,54.55,260623,,,D,V*34
$GPHDT,,T*1B
$GNGGA,104527.400,2500.7992076,N,12132.4811483,E,2,54,0.53,17.597,M,15.25,M,35,3335*7A
$GNRMC,104527.400,A,2500.7992076,N,12132.4811483,E,0.00,54.55,260623,,,D,V*3F
$GPHDT,,T*1B
$GNGGA,104527.600,2500.7992016,N,12132.4811363,E,2,54,0.53,17.596,M,15.25,M,35,3335*76
$GNRMC,104527.600,A,2500.7992016,N,12132.4811363,E,0.00,54.55,260623,,,D,V*32
$GPHDT,,T*1B
$GNGGA,104527.800,2500.7991956,N,12132.4811303,E,2,54,0.53,17.600,M,15.25,M,35,3335*7C
$GNRMC,104527.800,A,2500.7991956,N,12132.4811303,E,0.00,54.55,260623,,,D,V*34
$GPHDT,,T*1B
$GNGSA,A,3,24,196,199,18,15,195,23,05,194,13,,,1.02,0.53,0.87,1*08
$GNGSA,A,3,85,80,84,79,69,73,,,,,,,1.02,0.53,0.87,2*04
$GNGSA,A,3,13,08,07,15,03,,,,,,,,1.02,0.53,0.87,3*03
$GNGSA,A,3,38,39,08,16,06,13,46,09,20,19,37,29,1.02,0.53,0.87,4*0A
$GNGSA,A,3,36,,,,,,,,,,,,1.02,0.53,0.87,4*0B
$GPGSV,4,1,15,24,79,148,38,196,73,055,39,199,60,167,30,18,59,289,35,1*6F
$GPGSV,4,2,15,15,47,026,44,45,47,231,38,195,41,179,39,23,35,326,30,1*52
$GPGSV,4,3,15,05,30,101,33,194,24,143,26,13,20,044,38,29,10,210,17,1*5D
$GPGSV,4,4,15,20,10,118,,12,09,155,,10,05,309,14,1*5B
$GPGSV,2,1,07,24,79,148,46,196,73,055,45,199,60,167,38,18,59,289,42,8*69
$GPGSV,2,2,07,195,41,179,43,23,35,326,32,194,24,143,32,8*56
$GLGSV,2,1,08,85,45,275,16,80,41,110,37,70,38,343,31,84,28,198,23,1*7C
$GLGSV,2,2,08,79,23,049,29,69,20,053,26,73,18,168,17,71,14,294,13,1*7C
$GAGSV,3,1,09,13,65,264,39,08,54,006,31,07,40,283,20,15,39,173,39,7*77
$GAGSV,3,2,09,26,23,318,,02,20,101,20,03,18,052,30,30,14,154,17,7*78
$GAGSV,3,3,09,25,05,056,,7*4B
$GAGSV,2,1,06,13,65,264,44,08,54,006,39,07,40,283,28,15,39,173,40,1*7B
$GAGSV,2,2,06,02,20,101,21,03,18,052,29,1*76
$GBGSV,4,1,13,38,78,050,42,39,73,251,42,08,69,007,41,16,65,232,43,1*7D
$GBGSV,4,2,13,06,63,230,38,13,61,342,44,46,48,138,42,09,46,223,40,1*75
$GBGSV,4,3,13,20,46,039,47,19,41,325,26,37,31,062,38,29,31,225,40,1*76
$GBGSV,4,4,13,36,18,186,28,1*4D
$GBGSV,2,1,08,38,78,050,41,39,73,251,45,46,48,138,34,20,46,039,44,4*7C
$GBGSV,2,2,08,19,41,325,34,29,31,225,40,37,31,062,35,36,18,186,32,4*7B
$GNGGA,104528.000,2500.7991956,N,12132.4811123,E,2,54,0.53,17.602,M,15.25,M,36,3335*7A
$GNRMC,104528.000,A,2500.7991956,N,12132.4811123,E,0.00,54.55,260623,,,D,V*33
$GPHDT,,T*1B
$GNGGA,104528.200,2500.7991956,N,12132.4810943,E,2,54,0.53,17.605,M,15.25,M,36,3335*70
$GNRMC,104528.200,A,2500.7991956,N,12132.4810943,E,0.00,54.55,260623,,,D,V*3E
$GPHDT,,T*1B
$GNGGA,104528.400,2500.7991896,N,12132.4810823,E,2,54,0.53,17.610,M,15.25,M,36,3335*78
$GNRMC,104528.400,A,2500.7991896,N,12132.4810823,E,0.00,54.55,260623,,,D,V*32
$GPHDT,,T*1B
$GNGGA,104528.600,2500.7991896,N,12132.4810703,E,2,54,0.53,17.616,M,15.25,M,36,3335*71
$GNRMC,104528.600,A,2500.7991896,N,12132.4810703,E,0.00,54.55,260623,,,D,V*3D
$GPHDT,,T*1B
$GNGGA,104528.800,2500.7991896,N,12132.4810583,E,2,54,0.53,17.619,M,15.25,M,36,3335*7A
$GNRMC,104528.800,A,2500.7991896,N,12132.4810583,E,0.00,54.55,260623,,,D,V*39
$GPHDT,,T*1B
$GNGSA,A,3,24,196,199,18,15,195,23,05,194,13,,,1.02,0.53,0.87,1*08
$GNGSA,A,3,85,80,84,79,69,73,,,,,,,1.02,0.53,0.87,2*04
$GNGSA,A,3,13,08,07,15,03,,,,,,,,1.02,0.53,0.87,3*03
$GNGSA,A,3,38,39,08,16,06,13,46,09,20,19,37,29,1.02,0.53,0.87,4*0A
$GNGSA,A,3,36,,,,,,,,,,,,1.02,0.53,0.87,4*0B
$GPGSV,4,1,15,24,79,148,38,196,73,055,39,199,60,167,31,18,59,289,35,1*6E
$GPGSV,4,2,15,15,47,026,44,45,47,231,37,195,41,179,39,23,35,326,30,1*5D
$GPGSV,4,3,15,05,30,101,33,194,24,143,26,13,20,044,38,29,10,210,17,1*5D
$GPGSV,4,4,15,20,10,118,,12,09,155,,10,05,309,13,1*5C
$GPGSV,2,1,07,24,79,148,46,196,73,055,44,199,60,167,38,18,59,289,42,8*68
$GPGSV,2,2,07,195,41,179,43,23,35,326,31,194,24,143,33,8*54
$GLGSV,2,1,08,85,45,275,15,80,41,110,38,70,38,343,31,84,28,198,23,1*70
$GLGSV,2,2,08,79,23,049,28,69,20,053,26,73,18,168,17,71,14,294,14,1*7A
$GAGSV,3,1,09,13,65,264,39,08,54,006,32,07,40,283,21,15,39,173,39,7*75
$GAGSV,3,2,09,26,23,318,21,02,20,101,21,03,18,052,30,30,14,154,18,7*75
$GAGSV,3,3,09,25,05,056,,7*4B
$GAGSV,2,1,06,13,65,264,44,08,54,006,39,07,40,283,27,15,39,173,39,1*7A
$GAGSV,2,2,06,02,20,101,21,03,18,052,29,1*76
$GBGSV,4,1,13,38,78,050,42,39,73,251,42,08,69,007,41,16,65,232,43,1*7D
$GBGSV,4,2,13,06,63,230,38,13,61,342,44,46,48,138,42,09,46,223,40,1*75
$GBGSV,4,3,13,20,46,039,47,19,41,325,26,37,31,062,38,29,31,225,40,1*76
$GBGSV,4,4,13,36,18,186,27,1*42
$GBGSV,2,1,08,38,78,050,41,39,73,251,45,46,48,138,33,20,46,039,44,4*7B
$GBGSV,2,2,08,19,41,325,34,29,31,225,38,37,31,062,34,36,18,186,32,4*75
$GNGGA,104529.000,2500.7991836,N,12132.4810403,E,2,54,0.53,17.623,M,15.25,M,37,3335*78
$GNRMC,104529.000,A,2500.7991836,N,12132.4810403,E,0.00,54.55,260623,,,D,V*33
$GPHDT,,T*1B
$GNGGA,104529.200,2500.7991716,N,12132.4810463,E,2,54,0.53,17.627,M,15.25,M,37,3335*75
$GNRMC,104529.200,A,2500.7991716,N,12132.4810463,E,0.00,54.55,260623,,,D,V*3A
$GPHDT,,T*1B
$GNGGA,104529.400,2500.7991716,N,12132.4810343,E,2,54,0.53,17.629,M,15.25,M,37,3335*78
$GNRMC,104529.400,A,2500.7991716,N,12132.4810343,E,0.00,54.55,260623,,,D,V*39
$GPHDT,,T*1B
$GNGGA,104529.600,2500.7991656,N,12132.4810163,E,2,54,0.53,17.632,M,15.25,M,37,3335*75
$GNRMC,104529.600,A,2500.7991656,N,12132.4810163,E,0.00,54.55,260623,,,D,V*3E
$GPHDT,,T*1B
$GNGGA,104529.800,2500.7991596,N,12132.4810043,E,2,54,0.53,17.642,M,15.25,M,37,3335*70
$GNRMC,104529.800,A,2500.7991596,N,12132.4810043,E,0.00,54.55,260623,,,D,V*3C
$GPHDT,,T*1B
$GNGSA,A,3,24,196,199,18,15,195,23,05,194,13,,,1.02,0.53,0.87,1*08
$GNGSA,A,3,85,80,84,79,69,73,,,,,,,1.02,0.53,0.87,2*04
$GNGSA,A,3,13,08,07,15,03,,,,,,,,1.02,0.53,0.87,3*03
$GNGSA,A,3,38,39,08,16,06,13,46,09,20,19,37,29,1.02,0.53,0.87,4*0A
$GNGSA,A,3,36,,,,,,,,,,,,1.02,0.53,0.87,4*0B
$GPGSV,4,1,15,24,79,148,38,196,73,055,39,199,60,167,30,18,59,289,35,1*6F
$GPGSV,4,2,15,15,47,026,44,45,47,231,38,195,41,179,39,23,35,326,30,1*52
$GPGSV,4,3,15,05,30,101,33,194,24,143,24,13,20,044,38,29,10,210,17,1*5F
$GPGSV,4,4,15,20,10,118,,12,09,155,,10,05,309,13,1*5C
$GPGSV,2,1,07,24,79,148,46,196,73,055,44,199,60,167,38,18,59,289,42,8*68
$GPGSV,2,2,07,195,41,179,43,23,35,326,31,194,24,143,33,8*54
$GLGSV,2,1,08,85,45,275,15,80,41,110,38,70,38,343,31,84,28,198,24,1*77
$GLGSV,2,2,08,79,23,049,27,69,20,053,27,73,18,168,17,71,14,294,15,1*75
$GAGSV,3,1,09,13,65,264,39,08,54,006,31,07,40,283,21,15,39,173,39,7*76
$GAGSV,3,2,09,26,23,318,21,02,20,101,21,03,18,052,30,30,14,154,18,7*75
$GAGSV,3,3,09,25,05,056,,7*4B
$GAGSV,2,1,06,13,65,264,44,08,54,006,39,07,40,283,27,15,39,173,39,1*7A
$GAGSV,2,2,06,02,20,101,22,03,18,052,29,1*75
$GBGSV,4,1,13,38,78,050,42,39,73,251,42,08,69,007,41,16,65,232,43,1*7D
$GBGSV,4,2,13,06,63,230,38,13,61,342,44,46,48,138,42,09,46,223,40,1*75
$GBGSV,4,3,13,20,46,039,47,19,41,325,26,37,31,062,38,29,31,225,40,1*76
$GBGSV,4,4,13,36,18,186,27,1*42
$GBGSV,2,1,08,38,78,050,41,39,73,251,45,46,48,138,33,20,46,039,44,4*7B
$GBGSV,2,2,08,19,41,325,34,29,31,225,39,37,31,062,34,36,18,186,31,4*77
$GNGGA,104530.000,2500.7991476,N,12132.4810103,E,2,54,0.53,17.647,M,15.25,M,38,3335*70
$GNRMC,104530.000,A,2500.7991476,N,12132.4810103,E,0.00,54.55,260623,,,D,V*36
$GPHDT,,T*1B
$GNGGA,104530.200,2500.7991356,N,12132.4809983,E,2,54,0.53,17.653,M,15.25,M,38,3335*7A
$GNRMC,104530.200,A,2500.7991356,N,12132.4809983,E,0.00,54.55,260623,,,D,V*39
$GPHDT,,T*1B
$GNGGA,104530.400,2500.7991356,N,12132.4809863,E,2,54,0.53,17.659,M,15.25,M,38,3335*79
$GNRMC,104530.400,A,2500.7991356,N,12132.4809863,E,0.00,54.55,260623,,,D,V*30
$GPHDT,,T*1B
$GNGGA,104530.600,2500.7991296,N,12132.4809743,E,2,54,0.53,17.668,M,15.25,M,38,3335*79
$GNRMC,104530.600,A,2500.7991296,N,12132.4809743,E,0.00,54.55,260623,,,D,V*32
$GPHDT,,T*1B
$GNGGA,104530.800,2500.7991236,N,12132.4809563,E,2,54,0.53,17.672,M,15.25,M,38,3335*76
$GNRMC,104530.800,A,2500.7991236,N,12132.4809563,E,0.00,54.55,260623,,,D,V*36
$GPHDT,,T*1B
$GNGSA,A,3,24,196,199,18,15,195,23,05,194,13,,,1.02,0.53,0.87,1*08
$GNGSA,A,3,85,80,84,79,69,73,,,,,,,1.02,0.53,0.87,2*04
$GNGSA,A,3,13,08,07,15,03,,,,,,,,1.02,0.53,0.87,3*03
$GNGSA,A,3,38,39,08,16,06,13,46,09,20,19,37,29,1.02,0.53,0.87,4*0A
$GNGSA,A,3,36,,,,,,,,,,,,1.02,0.53,0.87,4*0B
$GPGSV,4,1,15,24,79,148,38,196,73,055,39,199,60,167,30,18,59,289,35,1*6F
$GPGSV,4,2,15,15,47,026,44,45,47,231,38,195,41,179,40,23,35,326,30,1*5C
$GPGSV,4,3,15,05,30,101,33,194,24,143,22,13,20,044,38,29,10,210,17,1*59
$GPGSV,4,4,15,20,10,118,,12,09,155,,10,05,309,14,1*5B
$GPGSV,2,1,07,24,79,148,46,196,73,055,44,199,60,167,38,18,59,289,42,8*68
$GPGSV,2,2,07,195,41,179,43,23,35,326,31,194,24,143,33,8*54
$GLGSV,2,1,08,85,45,275,15,80,41,110,38,70,38,343,31,84,28,198,23,1*70
$GLGSV,2,2,08,79,23,049,27,69,20,053,26,73,18,168,19,71,14,294,16,1*79
$GAGSV,3,1,09,13,65,264,39,08,54,006,32,07,40,283,21,15,39,173,39,7*75
$GAGSV,3,2,09,26,23,318,21,02,20,101,19,03,18,052,30,30,14,154,18,7*7E
$GAGSV,3,3,09,25,05,056,,7*4B
$GAGSV,2,1,06,13,65,264,44,08,54,0