$FW : RTK35X,V1.1X0314AS,Lib20210517,1*54
$Tool : LOCOSYS , GNSS Firebird , v1.0.0.19*39
$---------------------------------------------------*2D
$GNGGA,104706.800,2500.7989700,N,12132.4805500,E,2,51,0.52,19.32,M,15.25,M,35,3335*44
$GNRMC,104706.800,A,2500.7989700,N,12132.4805500,E,0.01,54.55,260623,,,D,V*30
$GPHDT,,T*1B
$GNGSA,A,3,24,196,18,199,15,195,23,05,194,13,,,1.01,0.52,0.86,1*0B
$GNGSA,A,3,85,80,70,84,79,69,73,,,,,,1.01,0.52,0.86,2*00
$GNGSA,A,3,13,08,07,15,03,,,,,,,,1.01,0.52,0.86,3*00
$GNGSA,A,3,38,39,08,16,06,13,46,09,20,37,29,36,1.01,0.52,0.86,4*04
$GNGSA,A,3,19,,,,,,,,,,,,1.01,0.52,0.86,4*05
$GPGSV,4,1,15,24,80,145,43,196,73,055,35,18,60,287,40,199,60,167,32,1*60
$GPGSV,4,2,15,15,47,027,40,45,47,231,39,195,41,179,40,23,36,327,29,1*52
$GPGSV,4,3,15,05,30,102,16,194,24,143,29,13,20,045,32,29,10,210,16,1*5C
$GPGSV,4,4,15,20,09,119,,10,06,309,,32,01,254,,1*5C
$GPGSV,2,1,07,24,80,145,46,196,73,055,41,199,60,167,37,18,60,287,45,8*6A
$GPGSV,2,2,07,195,41,179,42,23,36,327,31,194,24,143,36,8*52
$GLGSV,3,1,09,85,45,274,27,80,42,108,33,70,38,344,34,84,27,197,27,1*77
$GLGSV,3,2,09,79,22,048,30,86,19,322,16,69,19,054,25,73,18,167,27,1*7A
$GLGSV,3,3,09,71,15,294,16,1*4B
$GAGSV,3,1,09,13,65,263,40,08,53,007,37,07,40,283,27,15,38,173,41,7*77
$GAGSV,3,2,09,26,23,318,20,02,20,101,18,03,18,053,19,30,15,153,,7*7B
$GAGSV,3,3,09,25,05,055,19,7*40
$GAGSV,1,1,04,13,65,263,42,08,53,007,41,15,38,173,39,02,20,101,25,1*7A
$GBGSV,4,1,13,38,79,051,39,39,73,252,44,08,70,007,38,16,65,233,44,1*74
$GBGSV,4,2,13,06,63,231,39,13,61,342,42,46,49,137,40,09,47,224,39,1*77
$GBGSV,4,3,13,20,46,040,42,19,42,325,,37,31,061,24,29,31,224,36,1*74
$GBGSV,4,4,13,36,19,186,26,1*42
$GBGSV,2,1,07,38,79,051,39,39,73,252,45,46,49,137,35,20,46,040,37,4*7A
$GBGSV,2,2,07,19,42,325,35,29,31,224,34,36,19,186,30,4*43
$GNGGA,104707.000,2500.7989800,N,12132.4805700,E,2,51,0.52,19.30,M,15.25,M,36,3335*41
$GNRMC,104707.000,A,2500.7989800,N,12132.4805700,E,0.00,54.55,260623,,,D,V*35
$GPHDT,,T*1B
$GNGGA,104707.200,2500.7990000,N,12132.4806000,E,2,51,0.52,19.27,M,15.25,M,36,3335*41
$GNRMC,104707.200,A,2500.7990000,N,12132.4806000,E,0.00,54.55,260623,,,D,V*33
$GPHDT,,T*1B
$GNGGA,104707.400,2500.7990300,N,12132.4806200,E,2,51,0.52,19.20,M,15.25,M,36,3335*41
$GNRMC,104707.400,A,2500.7990300,N,12132.4806200,E,0.00,54.55,260623,,,D,V*34
$GPHDT,,T*1B
$GNGGA,104707.600,2500.7990400,N,12132.4806400,E,2,51,0.52,19.14,M,15.25,M,36,3335*45
$GNRMC,104707.600,A,2500.7990400,N,12132.4806400,E,0.00,54.55,260623,,,D,V*37
$GPHDT,,T*1B
$GNGGA,104707.800,2500.7990700,N,12132.4806500,E,2,52,0.52,19.07,M,15.25,M,36,3335*48
$GNRMC,104707.800,A,2500.7990700,N,12132.4806500,E,0.00,54.55,260623,,,D,V*3B
$GPHDT,,T*1B
$GNGSA,A,3,24,196,18,199,15,195,23,05,194,13,,,1.01,0.52,0.86,1*0B
$GNGSA,A,3,85,80,70,84,79,69,73,,,,,,1.01,0.52,0.86,2*00
$GNGSA,A,3,13,08,07,15,03,,,,,,,,1.01,0.52,0.86,3*00
$GNGSA,A,3,38,39,08,16,06,13,46,09,20,37,29,36,1.01,0.52,0.86,4*04
$GNGSA,A,3,19,,,,,,,,,,,,1.01,0.52,0.86,4*05
$GPGSV,4,1,16,24,80,145,43,196,73,055,38,18,60,287,40,199,60,167,32,1*6E
$GPGSV,4,2,16,15,47,027,44,45,47,231,39,195,41,179,40,23,36,327,29,1*55
$GPGSV,4,3,16,05,30,102,19,194,24,143,29,13,20,045,38,29,10,210,16,1*5A
$GPGSV,4,4,16,20,09,119,,12,09,155,,10,06,309,,32,01,254,,1*64
$GPGSV,2,1,07,24,80,145,46,196,73,055,42,199,60,167,38,18,60,287,44,8*67
$GPGSV,2,2,07,195,41,179,41,23,36,327,33,194,24,143,36,8*53
$GLGSV,3,1,09,85,45,274,24,80,42,108,32,70,38,344,33,84,27,197,27,1*72
$GLGSV,3,2,09,79,22,048,32,86,19,322,16,69,19,054,24,73,18,167,25,1*7B
$GLGSV,3,3,09,71,15,294,17,1*4A
$GAGSV,3,1,09,13,65,263,40,08,53,007,36,07,40,283,29,15,38,173,40,7*79
$GAGSV,3,2,09,26,23,318,20,02,20,101,18,03,18,053,21,30,15,153,,7*70
$GAGSV,3,3,09,25,05,055,19,7*40
$GAGSV,2,1,05,13,65,263,42,08,53,007,40,15,38,173,40,02,20,101,24,1*76
$GAGSV,2,2,05,03,18,053,22,1*4C
$GBGSV,4,1,13,38,79,051,39,39,73,252,44,08,70,007,39,16,65,233,44,1*75
$GBGSV,4,2,13,06,63,231,39,13,61,342,42,46,49,137,40,09,47,224,39,1*77
$GBGSV,4,3,13,20,46,040,47,19,42,325,,37,31,061,35,29,31,224,36,1*71
$GBGSV,4,4,13,36,19,186,20,1*44
$GBGSV,2,1,08,38,79,051,41,39,73,252,45,46,49,137,39,20,46,040,44,4*72
$GBGSV,2,2,08,19,42,325,33,29,31,224,35,37,31,061,29,36,19,186,28,4*78
$GNGGA,104708.000,2500.7990800,N,12132.4806500,E,2,53,0.52,19.02,M,15.25,M,37,3335*45
$GNRMC,104708.000,A,2500.7990800,N,12132.4806500,E,0.00,54.55,260623,,,D,V*33
$GPHDT,,T*1B
$GNGGA,104708.200,2500.7990900,N,12132.4806600,E,2,53,0.52,19.00,M,15.25,M,37,3335*47
$GNRMC,104708.200,A,2500.7990900,N,12132.4806600,E,0.00,54.55,260623,,,D,V*33
$GPHDT,,T*1B
$GNGGA,104708.400,2500.7990900,N,12132.4806800,E,2,53,0.52,18.97,M,15.25,M,37,3335*40
$GNRMC,104708.400,A,2500.7990900,N,12132.4806800,E,0.00,54.55,260623,,,D,V*3B
$GPHDT,,T*1B
$GNGGA,104708.600,2500.7991000,N,12132.4807100,E,2,53,0.52,18.95,M,15.25,M,37,3335*40
$GNRMC,104708.600,A,2500.7991000,N,12132.4807100,E,0.00,54.55,260623,,,D,V*39
$GPHDT,,T*1B
$GNGGA,104708.800,2500.7991100,N,12132.4807300,E,2,53,0.52,18.91,M,15.25,M,37,3335*49
$GNRMC,104708.800,A,2500.7991100,N,12132.4807300,E,0.00,54.55,260623,,,D,V*34
$GPHDT,,T*1B
$GNGSA,A,3,24,196,18,199,15,195,23,05,194,13,,,1.01,0.52,0.86,1*0B
$GNGSA,A,3,85,80,70,84,79,69,73,,,,,,1.01,0.52,0.86,2*00
$GNGSA,A,3,13,08,07,15,03,,,,,,,,1.01,0.52,0.86,3*00
$GNGSA,A,3,38,39,08,16,06,13,46,09,20,37,29,36,1.01,0.52,0.86,4*04
$GNGSA,A,3,19,,,,,,,,,,,,1.01,0.52,0.86,4*05
$GPGSV,4,1,16,24,80,145,43,196,73,055,39,18,60,287,40,199,60,167,32,1*6F
$GPGSV,4,2,16,15,47,027,44,45,47,231,39,195,41,179,40,23,36,327,30,1*5D
$GPGSV,4,3,16,05,30,102,19,194,24,143,27,13,20,045,37,29,10,210,15,1*58
$GPGSV,4,4,16,20,09,119,,12,09,155,,10,06,309,,32,01,254,,1*64
$GPGSV,2,1,07,24,80,145,46,196,73,055,44,199,60,167,37,18,60,287,43,8*69
$GPGSV,2,2,07,195,41,179,40,23,36,327,33,194,24,143,35,8*51
$GLGSV,3,1,09,85,45,274,24,80,42,108,30,70,38,344,33,84,27,197,27,1*70
$GLGSV,3,2,09,79,22,048,31,86,19,322,15,69,19,054,21,73,18,167,25,1*7E
$GLGSV,3,3,09,71,15,294,17,1*4A
$GAGSV,3,1,09,13,65,263,40,08,53,007,37,07,40,283,30,15,38,173,40,7*70
$GAGSV,3,2,09,26,23,318,22,02,20,101,18,03,18,053,21,30,15,153,,7*72
$GAGSV,3,3,09,25,05,055,19,7*40
$GAGSV,2,1,05,13,65,263,42,08,53,007,39,15,38,173,40,02,20,101,23,1*7F
$GAGSV,2,2,05,03,18,053,27,1*49
$GBGSV,4,1,13,38,79,051,41,39,73,252,44,08,70,007,38,16,65,233,44,1*7B
$GBGSV,4,2,13,06,63,231,39,13,61,342,42,46,49,137,40,09,47,224,39,1*77
$GBGSV,4,3,13,20,46,040,47,19,42,325,,37,31,061,34,29,31,224,34,1*72
$GBGSV,4,4,13,36,19,186,22,1*46
$GBGSV,2,1,08,38,79,051,43,39,73,252,45,46,49,137,39,20,46,040,45,4*71
$GBGSV,2,2,08,19,42,325,33,29,31,224,35,37,31,061,30,36,19,186,29,4*71
$GNGGA,104709.000,2500.7991200,N,12132.4807500,E,2,53,0.52,18.88,M,15.25,M,38,3335*42
$GNRMC,104709.000,A,2500.7991200,N,12132.4807500,E,0.00,54.55,260623,,,D,V*38
$GPHDT,,T*1B
$GNGGA,104709.200,2500.7991300,N,12132.4807700,E,2,53,0.52,18.84,M,15.25,M,38,3335*4F
$GNRMC,104709.200,A,2500.7991300,N,12132.4807700,E,0.01,54.55,260623,,,D,V*38
$GPHDT,,T*1B
$GNGGA,104709.400,2500.7991400,N,12132.4807800,E,2,53,0.52,18.82,M,15.25,M,38,3335*47
$GNRMC,104709.400,A,2500.7991400,N,12132.4807800,E,0.00,54.55,260623,,,D,V*37
$GPHDT,,T*1B
$GNGGA,104709.600,2500.7991400,N,12132.4807800,E,2,52,0.52,18.80,M,15.25,M,38,3335*46
$GNRMC,104709.600,A,2500.7991400,N,12132.4807800,E,0.00,54.55,260623,,,D,V*35
$GPHDT,,T*1B
$GNGGA,104709.800,2500.7991400,N,12132.4807900,E,2,53,0.52,18.80,M,15.25,M,38,3335*48
$GNRMC,104709.800,A,2500.7991400,N,12132.4807900,E,0.00,54.55,260623,,,D,V*3A
$GPHDT,,T*1B
$GNGSA,A,3,24,196,18,199,15,195,23,05,194,13,,,1.01,0.52,0.86,1*0B
$GNGSA,A,3,85,80,70,84,79,69,73,,,,,,1.01,0.52,0.86,2*00
$GNGSA,A,3,13,08,07,15,03,,,,,,,,1.01,0.52,0.86,3*00
$GNGSA,A,3,38,39,08,16,06,13,46,09,20,37,29,36,1.01,0.52,0.86,4*04
$GNGSA,A,3,19,,,,,,,,,,,,1.01,0.52,0.86,4*05
$GPGSV,4,1,16,24,80,145,43,196,73,055,38,18,60,287,41,199,60,167,32,1*6F
$GPGSV,4,2,16,15,47,027,44,45,47,231,39,195,41,179,40,23,36,327,30,1*5D
$GPGSV,4,3,16,05,30,102,19,194,24,143,27,13,20,045,38,29,10,210,14,1*56
$GPGSV,4,4,16,20,09,119,,12,09,155,,10,06,309,,32,01,254,,1*64
$GPGSV,2,1,07,24,80,145,46,196,73,055,44,199,60,167,37,18,60,287,43,8*69
$GPGSV,2,2,07,195,41,179,40,23,36,327,34,194,24,143,35,8*56
$GLGSV,3,1,09,85,45,274,24,80,42,108,30,70,38,344,33,84,27,197,27,1*70
$GLGSV,3,2,09,79,22,048,31,86,19,322,14,69,19,054,21,73,18,167,26,1*7C
$GLGSV,3,3,09,71,15,294,18,1*45
$GAGSV,3,1,09,13,65,263,40,08,53,007,37,07,40,283,30,15,38,173,40,7*70
$GAGSV,3,2,09,26,23,318,22,02,20,101,18,03,18,053,21,30,15,153,,7*72
$GAGSV,3,3,09,25,05,055,19,7*40
$GAGSV,2,1,05,13,65,263,42,08,53,007,40,15,38,173,40,02,20,101,22,1*70
$GAGSV,2,2,05,03,18,053,25,1*4B
$GBGSV,4,1,13,38,79,051,41,39,73,252,44,08,70,007,38,16,65,233,44,1*7B
$GBGSV,4,2,13,06,63,231,39,13,61,342,42,46,49,137,40,09,47,224,39,1*77
$GBGSV,4,3,13,20,46,040,45,19,42,325,,37,31,061,34,29,31,224,34,1*70
$GBGSV,4,4,13,36,19,186,23,1*47
$GBGSV,2,1,08,38,79,051,43,39,73,252,45,46,49,137,39,20,46,040,45,4*71
$GBGSV,2,2,08,19,42,325,33,29,31,224,34,37,31,061,29,36,19,186,30,4*70
$GNGGA,104710.000,2500.7991400,N,12132.4807900,E,2,53,0.52,18.80,M,15.25,M,39,3335*49
$GNRMC,104710.000,A,2500.7991400,N,12132.4807900,E,0.00,54.55,260623,,,D,V*3A
$GPHDT,,T*1B
$GNGGA,104710.200,2500.7991500,N,12132.4808000,E,2,53,0.52,18.78,M,15.25,M,39,3335*4B
$GNRMC,104710.200,A,2500.7991500,N,12132.4808000,E,0.00,54.55,260623,,,D,V*3F
$GPHDT,,T*1B
$GNGGA,104710.400,2500.7991500,N,12132.4808100,E,2,53,0.52,18.76,M,15.25,M,39,3335*42
$GNRMC,104710.400,A,2500.7991500,N,12132.4808100,E,0.00,54.55,260623,,,D,V*38
$GPHDT,,T*1B
$GNGGA,104710.600,2500.7991500,N,12132.4808100,E,2,53,0.52,18.74,M,15.25,M,39,3335*42
$GNRMC,104710.600,A,2500.7991500,N,12132.4808100,E,0.00,54.55,260623,,,D,V*3A
$GPHDT,,T*1B
$GNGGA,104710.800,2500.7991600,N,12132.4808200,E,2,53,0.52,18.71,M,15.25,M,39,3335*49
$GNRMC,104710.800,A,2500.7991600,N,12132.4808200,E,0.00,54.55,260623,,,D,V*34
$GPHDT,,T*1B
$GNGSA,A,3,24,196,18,199,15,195,23,05,194,13,,,1.01,0.52,0.86,1*0B
$GNGSA,A,3,85,80,70,84,79,69,73,,,,,,1.01,0.52,0.86,2*00
$GNGSA,A,3,13,08,07,15,03,,,,,,,,1.01,0.52,0.86,3*00
$GNGSA,A,3,38,39,08,16,06,13,46,09,20,29,37,36,1.01,0.52,0.86,4*04
$GNGSA,A,3,19,,,,,,,,,,,,1.01,0.52,0.86,4*05
$GPGSV,4,1,16,24,80,145,43,196,73,055,38,18,60,287,41,199,60,167,32,1*6F
$GPGSV,4,2,16,15,47,027,44,45,47,231,39,195,41,179,40,23,36,327,31,1*5C
$GPGSV,4,3,16,05,30,102,21,194,24,143,28,13,20,045,38,29,10,210,16,1*50
$GPGSV,4,4,16,20,09,119,,12,09,155,,10,06,309,,32,01,254,,1*64
$GPGSV,2,1,07,24,80,145,46,196,73,055,44,199,60,167,37,18,60,287,43,8*69
$GPGSV,2,2,07,195,41,179,40,23,36,327,33,194,24,143,35,8*51
$GLGSV,3,1,09,85,45,274,24,80,42,108,29,70,38,344,33,84,27,197,27,1*78
$GLGSV,3,2,09,79,22,048,32,86,19,322,16,69,19,054,20,73,18,167,26,1*7C
$GLGSV,3,3,09,71,15,294,20,1*4E
$GAGSV,3,1,09,13,65,263,41,08,53,007,37,07,40,283,30,15,38,173,40,7*71
$GAGSV,3,2,09,26,23,318,22,02,20,101,18,03,18,053,21,30,15,153,,7*72
$GAGSV,3,3,09,25,05,055,19,7*40
$GAGSV,2,1,06,13,65,263,42,08,53,007,40,15,38,173,40,26,23,318,25,1*7B
$GAGSV,2,2,06,02,20,101,23,03,18,053,24,1*78
$GBGSV,4,1,14,38,79,051,41,39,73,252,44,08,70,007,38,16,65,233,44,1*7C
$GBGSV,4,2,14,06,63,231,39,13,61,342,42,46,49,137,40,09,47,224,39,1*70
$GBGSV,4,3,14,20,46,040,45,19,42,325,,29,31,224,34,37,31,061,21,1*73
$GBGSV,4,4,14,36,19,186,23,32,09,085,,1*75
$GBGSV,2,1,08,38,79,051,42,39,73,252,45,46,49,137,39,20,46,040,45,4*70
$GBGSV,2,2,08,19,42,325,33,37,31,061,32,29,31,224,34,36,19,186,30,4*7A
$GNGGA,104711.000,2500.7991600,N,12132.4808400,E,2,53,0.52,18.69,M,15.25,M,40,3335*41
$GNRMC,104711.000,A,2500.7991600,N,12132.4808400,E,0.00,54.55,260623,,,D,V*3B
$GPHDT,,T*1B
$GNGGA,104711.200,2500.7991600,N,12132.4808500,E,2,53,0.52,18.67,M,15.25,M,40,3335*4C
$GNRMC,104711.200,A,2500.7991600,N,12132.4808500,E,0.00,54.55,260623,,,D,V*38
$GPHDT,,T*1B
$GNGGA,104711.400,2500.7991600,N,12132.4808700,E,2,53,0.52,18.64,M,15.25,M,40,3335*4B
$GNRMC,104711.400,A,2500.7991600,N,12132.4808700,E,0.00,54.55,260623,,,D,V*3C
$GPHDT,,T*1B
$GNGGA,104711.600,2500.7991600,N,12132.4808900,E,2,53,0.52,18.61,M,15.25,M,40,3335*42
$GNRMC,104711.600,A,2500.7991600,N,12132.4808900,E,0.00,54.55,260623,,,D,V*30
$GPHDT,,T*1B
$GNGGA,104711.800,2500.7991700,N,12132.4809000,E,2,53,0.52,18.58,M,15.25,M,40,3335*4F
$GNRMC,104711.800,A,2500.7991700,N,12132.4809000,E,0.00,54.55,260623,,,D,V*37
$GPHDT,,T*1B
$GNGSA,A,3,24,196,18,199,15,195,23,05,194,13,,,1.01,0.52,0.86,1*0B
$GNGSA,A,3,85,80,70,84,79,69,73,,,,,,1.01,0.52,0.86,2*00
$GNGSA,A,3,13,08,07,15,03,,,,,,,,1.01,0.52,0.86,3*00
$GNGSA,A,3,38,39,08,16,06,13,46,09,20,29,36,19,1.01,0.52,0.86,4*08
$GNGSA,A,3,37,,,,,,,,,,,,1.01,0.52,0.86,4*09
$GPGSV,4,1,16,24,80,145,43,196,73,055,38,18,60,287,41,199,60,167,31,1*6C
$GPGSV,4,2,16,15,47,027,43,45,47,231,39,195,41,179,40,23,36,327,31,1*5B
$GPGSV,4,3,16,05,30,102,21,194,24,143,28,13,20,045,39,29,10,210,16,1*51
$GPGSV,4,4,16,20,09,119,,12,09,155,,10,06,309,,32,01,254,,1*64
$GPGSV,2,1,07,24,80,145,46,196,73,055,44,199,60,167,37,18,60,287,43,8*69
$GPGSV,2,2,07,195,41,179,40,23,36,327,33,194,24,143,34,8*50
$GLGSV,3,1,09,85,45,274,24,80,42,108,29,70,38,344,33,84,27,197,27,1*78
$GLGSV,3,2,09,79,22,048,33,86,19,322,17,69,19,054,24,73,18,167,26,1*78
$GLGSV,3,3,09,71,15,294,20,1*4E
$GAGSV,3,1,09,13,65,263,41,08,53,007,37,07,40,283,29,15,38,173,40,7*79
$GAGSV,3,2,09,26,23,318,21,02,20,101,18,03,18,053,21,30,15,153,,7*71
$GAGSV,3,3,09,25,05,055,19,7*40
$GAGSV,2,1,06,13,65,263,42,08,53,007,40,15,38,173,40,26,23,318,26,1*78
$GAGSV,2,2,06,02,20,101,23,03,18,053,24,1*78
$GBGSV,4,1,13,38,79,051,41,39,73,252,44,08,70,007,38,16,65,233,44,1*7B
$GBGSV,4,2,13,06,63,231,39,13,61,342,42,46,49,137,40,09,47,224,39,1*77
$GBGSV,4,3,13,20,46,040,46,19,42,325,,37,31,061,23,29,31,224,34,1*75
$GBGSV,4,4,13,36,19,186,20,1*44
$GBGSV,2,1,08,38,79,051,42,39,73,252,45,46,49,137,39,20,46,040,45,4*70
$GBGSV,2,2,08,19,42,325,33,37,31,061,32,29,31,224,34,36,19,186,29,4*72
$GNGGA,104712.000,2500.7991800,N,12132.4809100,E,2,52,0.52,18.55,M,15.25,M,41,3335*47
$GNRMC,104712.000,A,2500.7991800,N,12132.4809100,E,0.00,54.55,260623,,,D,V*32
$GPHDT,,T*1B
$GNGGA,104712.200,2500.7991800,N,12132.4809200,E,2,53,0.52,18.52,M,15.25,M,41,3335*40
$GNRMC,104712.200,A,2500.7991800,N,12132.4809200,E,0.00,54.55,260623,,,D,V*33
$GPHDT,,T*1B
$GNGGA,104712.400,2500.7991800,N,12132.4809300,E,2,53,0.52,18.51,M,15.25,M,41,3335*44
$GNRMC,104712.400,A,2500.7991800,N,12132.4809300,E,0.00,54.55,260623,,,D,V*34
$GPHDT,,T*1B
$GNGGA,104712.600,2500.7991900,N,12132.4809400,E,2,53,0.52,18.49,M,15.25,M,41,3335*49
$GNRMC,104712.600,A,2500.7991900,N,12132.4809400,E,0.00,54.55,260623,,,D,V*30
$GPHDT,,T*1B
$GNGGA,104712.800,2500.7991900,N,12132.4809500,E,2,53,0.52,18.48,M,15.25,M,41,3335*47
$GNRMC,104712.800,A,2500.7991900,N,12132.4809500,E,0.00,54.55,260623,,,D,V*3F
$GPHDT,,T*1B
$GNGSA,A,3,24,196,18,199,15,195,23,05,194,13,,,1.01,0.52,0.86,1*0B
$GNGSA,A,3,85,80,70,84,79,69,73,,,,,,1.01,0.52,0.86,2*00
$GNGSA,A,3,13,08,07,15,03,,,,,,,,1.01,0.52,0.86,3*00
$GNGSA,A,3,38,39,08,16,06,13,46,09,20,37,29,36,1.01,0.52,0.86,4*04
$GNGSA,A,3,19,,,,,,,,,,,,1.01,0.52,0.86,4*05
$GPGSV,4,1,16,24,80,145,43,196,73,055,38,18,60,287,42,199,60,167,32,1*6C
$GPGSV,4,2,16,45,47,231,39,15,46,027,43,195,41,179,40,23,36,327,29,1*53
$GPGSV,4,3,16,05,30,102,20,194,24,143,27,13,19,045,36,29,10,210,16,1*5A
$GPGSV,4,4,16,20,09,119,,12,09,154,,10,06,309,,32,01,254,,1*65
$GPGSV,2,1,07,24,80,145,46,196,73,055,44,199,60,167,37,18,60,287,43,8*69
$GPGSV,2,2,07,195,41,179,40,23,36,327,33,194,24,143,34,8*50
$GLGSV,3,1,09,85,45,274,23,80,42,108,30,70,38,344,33,84,27,197,26,1*76
$GLGSV,3,2,09,79,22,048,32,86,19,322,17,69,19,054,24,73,18,167,25,1*7A
$GLGSV,3,3,09,71,15,294,18,1*45
$GAGSV,3,1,09,13,65,263,41,08,53,007,37,07,40,283,27,15,38,173,40,7*77
$GAGSV,3,2,09,26,23,318,21,02,20,101,18,03,18,053,21,30,15,153,,7*71
$GAGSV,3,3,09,25,05,055,19,7*40
$GAGSV,2,1,06,13,65,263,42,08,53,007,40,15,38,173,40,26,23,318,25,1*7B
$GAGSV,2,2,06,02,20,101,23,03,18,053,21,1*7D
$GBGSV,4,1,13,38,79,051,41,39,73,252,44,08,70,007,38,16,65,233,44,1*7B
$GBGSV,4,2,13,06,63,231,39,13,61,342,42,46,49,137,40,09,47,224,39,1*77
$GBGSV,4,3,13,20,46,040,45,19,42,325,,37,31,061,25,29,31,224,35,1*71
$GBGSV,4,4,13,36,19,186,22,1*46
$GBGSV,2,1,07,38,79,051,42,39,73,252,45,46,49,137,38,20,46,040,43,4*78
$GBGSV,2,2,07,19,42,325,33,29,31,224,34,36,19,186,28,4*4C
$GNGGA,104713.000,2500.7991900,N,12132.4809500,E,2,52,0.52,18.47,M,15.25,M,42,3335*43
$GNRMC,104713.000,A,2500.7991900,N,12132.4809500,E,0.00,54.55,260623,,,D,V*36
$GPHDT,,T*1B
$GNGGA,104713.200,2500.7991900,N,12132.4809500,E,2,53,0.52,18.47,M,15.25,M,42,3335*40
$GNRMC,104713.200,A,2500.7991900,N,12132.4809500,E,0.00,54.55,260623,,,D,V*34
$GPHDT,,T*1B
$GNGGA,104713.400,2500.7991800,N,12132.4809600,E,2,53,0.52,18.47,M,15.25,M,42,3335*44
$GNRMC,104713.400,A,2500.7991800,N,12132.4809600,E,0.00,54.55,260623,,,D,V*30
$GPHDT,,T*1B
$GNGGA,104713.600,2500.7991800,N,12132.4809600,E,2,53,0.52,18.46,M,15.25,M,42,3335*47
$GNRMC,104713.600,A,2500.7991800,N,12132.4809600,E,0.00,54.55,260623,,,D,V*32
$GPHDT,,T*1B
$GNGGA,104713.800,2500.7991600,N,12132.4809700,E,2,54,0.52,18.47,M,15.25,M,42,3335*40
$GNRMC,104713.800,A,2500.7991600,N,12132.4809700,E,0.00,54.55,260623,,,D,V*33
$GPHDT,,T*1B
$GNGSA,A,3,24,196,18,199,15,195,23,05,194,13,,,1.01,0.52,0.86,1*0B
$GNGSA,A,3,85,80,70,84,79,69,73,,,,,,1.01,0.52,0.86,2*00
$GNGSA,A,3,13,08,07,15,03,,,,,,,,1.01,0.52,0.86,3*00
$GNGSA,A,3,38,39,08,16,06,13,46,09,20,19,37,29,1.01,0.52,0.86,4*09
$GNGSA,A,3,36,,,,,,,,,,,,1.01,0.52,0.86,4*08
$GPGSV,4,1,16,24,80,145,43,196,73,055,38,18,60,287,42,199,60,167,33,1*6D
$GPGSV,4,2,16,45,47,231,39,15,46,027,35,195,41,179,40,23,36,327,28,1*53
$GPGSV,4,3,16,05,30,102,24,194,24,143,26,13,19,045,35,29,10,210,16,1*5C
$GPGSV,4,4,16,20,09,119,,12,09,154,,10,06,309,,32,01,254,,1*65
$GPGSV,2,1,07,24,80,145,46,196,73,055,44,199,60,167,37,18,60,287,44,8*6E
$GPGSV,2,2,07,195,41,179,40,23,36,327,34,194,24,143,35,8*56
$GLGSV,3,1,09,85,45,274,23,80,42,108,30,70,38,344,33,84,27,197,26,1*76
$GLGSV,3,2,09,79,22,048,30,86,19,322,20,69,19,054,23,73,18,167,24,1*7A
$GLGSV,3,3,09,71,15,294,17,1*4A
$GAGSV,3,1,09,13,65,263,41,08,53,007,39,07,40,283,27,15,38,173,40,7*79
$GAGSV,3,2,09,26,23,318,23,02,20,101,18,03,18,053,22,30,15,153,,7*70
$GAGSV,3,3,09,25,05,055,19,7*40
$GAGSV,2,1,07,13,65,263,43,08,53,007,41,07,40,283,22,15,38,173,41,1*79
$GAGSV,2,2,07,26,23,318,25,02,20,101,23,03,18,053,22,1*47
$GBGSV,4,1,13,38,79,051,41,39,73,252,44,08,70,007,37,16,65,233,44,1*74
$GBGSV,4,2,13,06,63,231,39,13,61,342,42,46,49,137,39,09,47,224,39,1*79
$GBGSV,4,3,13,20,46,040,38,19,42,325,27,37,31,061,20,29,31,224,34,1*7A
$GBGSV,4,4,13,36,19,186,23,1*47
$GBGSV,2,1,07,38,79,051,42,39,73,252,45,46,49,137,38,20,46,040,43,4*78
$GBGSV,2,2,07,19,42,325,34,29,31,224,34,36,19,186,29,4*4A
$GNGGA,104714.000,2500.7991600,N,12132.4809800,E,2,54,0.52,18.48,M,15.25,M,43,3335*4E
$GNRMC,104714.000,A,2500.7991600,N,12132.4809800,E,0.00,54.55,260623,,,D,V*33
$GPHDT,,T*1B
$GNGGA,104714.200,2500.7991600,N,12132.4809800,E,2,53,0.52,18.48,M,15.25,M,43,3335*4B
$GNRMC,104714.200,A,2500.7991600,N,12132.4809800,E,0.00,54.55,260623,,,D,V*31
$GPHDT,,T*1B
$GNGGA,104714.400,2500.7991500,N,12132.4809800,E,2,53,0.53,18.48,M,15.25,M,43,3335*4F
$GNRMC,104714.400,A,2500.7991500,N,12132.4809800,E,0.00,54.55,260623,,,D,V*34
$GPHDT,,T*1B
$GNGGA,104714.600,2500.7991500,N,12132.4809900,E,2,52,0.53,18.46,M,15.25,M,43,3335*43
$GNRMC,104714.600,A,2500.7991500,N,12132.4809900,E,0.00,54.55,260623,,,D,V*37
$GPHDT,,T*1B
$GNGGA,104714.800,2500.7991500,N,12132.4809900,E,2,54,0.52,18.46,M,15.25,M,43,3335*4A
$GNRMC,104714.800,A,2500.7991500,N,12132.4809900,E,0.00,54.55,260623,,,D,V*39
$GPHDT,,T*1B
$GNGSA,A,3,24,196,18,199,15,195,23,05,194,13,,,1.01,0.52,0.86,1*0B
$GNGSA,A,3,85,80,70,84,79,69,73,,,,,,1.01,0.52,0.86,2*00
$GNGSA,A,3,13,08,07,15,03,,,,,,,,1.01,0.52,0.86,3*00
$GNGSA,A,3,38,39,08,16,06,13,46,09,20,19,37,29,1.01,0.52,0.86,4*09
$GNGSA,A,3,36,,,,,,,,,,,,1.01,0.52,0.86,4*08
$GPGSV,4,1,16,24,80,144,43,196,73,055,38,18,60,287,42,199,60,167,34,1*6B
$GPGSV,4,2,16,45,47,231,39,15,46,027,34,195,41,179,40,23,36,327,29,1*53
$GPGSV,4,3,16,05,30,102,23,194,24,143,26,13,19,045,32,29,10,210,15,1*5F
$GPGSV,4,4,16,20,09,119,,12,09,154,,10,06,309,18,32,01,254,,1*6C
$GPGSV,2,1,07,24,80,144,46,196,73,055,42,199,60,167,37,18,60,287,43,8*6E
$GPGSV,2,2,07,195,41,179,40,23,36,327,32,194,24,143,35,8*50
$GLGSV,3,1,09,85,45,274,24,80,42,108,30,70,38,344,33,84,27,197,26,1*71
$GLGSV,3,2,09,79,22,048,29,86,19,322,22,69,19,054,22,73,18,167,26,1*73
$GLGSV,3,3,09,71,15,294,17,1*4A
$GAGSV,3,1,09,13,65,263,41,08,53,007,38,07,40,283,27,15,38,173,40,7*78
$GAGSV,3,2,09,26,23,318,23,02,20,101,18,03,18,053,22,30,15,153,,7*70
$GAGSV,3,3,09,25,05,055,19,7*40
$GAGSV,2,1,07,13,65,263,42,08,53,007,41,07,40,283,21,15,38,173,40,1*7A
$GAGSV,2,2,07,26,23,318,23,02,20,101,23,03,18,053,21,1*42
$GBGSV,4,1,13,38,79,051,41,39,73,252,44,08,70,007,37,16,65,233,44,1*74
$GBGSV,4,2,13,06,63,231,39,13,61,342,42,46,49,137,39,09,47,224,39,1*79
$GBGSV,4,3,13,20,46,040,36,19,42,325,27,37,31,061,30,29,31,224,34,1*75
$GBGSV,4,4,13,36,19,186,23,1*47
$GBGSV,2,1,08,38,79,051,42,39,73,252,45,46,49,137,38,20,46,040,42,4*76
$GBGSV,2,2,08,19,42,325,34,37,31,061,33,29,31,224,34,36,19,186,29,4*74
$GNGGA,104715.000,2500.7991500,N,12132.4810000,E,2,55,0.52,18.45,M,15.25,M,44,3335*47
$GNRMC,104715.000,A,2500.7991500,N,12132.4810000,E,0.00,54.55,260623,,,D,V*31
$GPHDT,,T*1B
$GNGGA,104715.200,2500.7991400,N,12132.4810100,E,2,54,0.52,18.45,M,15.25,M,44,3335*44
$GNRMC,104715.200,A,2500.7991400,N,12132.4810100,E,0.00,54.55,260623,,,D,V*33
$GPHDT,,T*1B
$GNGGA,104715.400,2500.7991300,N,12132.4810100,E,2,53,0.52,18.46,M,15.25,M,44,3335*41
$GNRMC,104715.400,A,2500.7991300,N,12132.4810100,E,0.00,54.55,260623,,,D,V*32
$GPHDT,,T*1B
$GNGGA,104715.600,2500.7991300,N,12132.4810200,E,2,53,0.52,18.44,M,15.25,M,44,3335*42
$GNRMC,104715.600,A,2500.7991300,N,12132.4810200,E,0.00,54.55,260623,,,D,V*33
$GPHDT,,T*1B
$GNGGA,104715.800,2500.7991300,N,12132.4810300,E,2,53,0.52,18.44,M,15.25,M,44,3335*4D
$GNRMC,104715.800,A,2500.7991300,N,12132.4810300,E,0.00,54.55,260623,,,D,V*3C
$GPHDT,,T*1B
$GNGSA,A,3,24,196,18,199,15,195,23,05,194,13,,,1.01,0.52,0.86,1*0B
$GNGSA,A,3,85,80,70,84,79,69,73,,,,,,1.01,0.52,0.86,2*00
$GNGSA,A,3,13,08,07,15,03,,,,,,,,1.01,0.52,0.86,3*00
$GNGSA,A,3,38,39,08,16,06,13,46,09,20,19,37,29,1.01,0.52,0.86,4*09
$GNGSA,A,3,36,,,,,,,,,,,,1.01,0.52,0.86,4*08
$GPGSV,4,1,16,24,80,144,43,196,73,055,38,18,60,287,42,199,60,167,33,1*6C
$GPGSV,4,2,16,45,47,231,39,15,46,027,39,195,41,179,40,23,36,327,28,1*5F
$GPGSV,4,3,16,05,30,102,23,194,24,143,27,13,19,045,35,29,09,209,13,1*5F
$GPGSV,4,4,16,20,09,119,,12,09,154,,10,06,309,18,32,01,254,,1*6C
$GPGSV,2,1,07,24,80,144,46,196,73,055,43,199,60,167,37,18,60,287,44,8*68
$GPGSV,2,2,07,195,41,179,40,23,36,327,33,194,24,143,35,8*51
$GLGSV,3,1,09,85,45,274,24,80,42,108,31,70,38,344,33,84,27,197,26,1*70
$GLGSV,3,2,09,79,22,048,32,86,19,322,21,69,19,054,24,73,18,167,24,1*7E
$GLGSV,3,3,09,71,15,294,18,1*45
$GAGSV,3,1,09,13,65,263,41,08,53,007,37,07,40,283,28,15,38,173,40,7*78
$GAGSV,3,2,09,26,23,318,23,02,20,101,17,03,18,053,23,30,15,153,,7*7E
$GAGSV,3,3,09,25,05,055,19,7*40
$GAGSV,2,1,07,13,65,263,43,08,53,007,42,07,40,283,25,15,38,173,40,1*7C
$GAGSV,2,2,07,26,23,318,25,02,20,101,23,03,18,053,21,1*44
$GBGSV,4,1,13,38,79,051,41,39,73,252,44,08,70,007,37,16,65,233,44,1*74
$GBGSV,4,2,13,06,63,231,39,13,61,342,42,46,49,137,40,09,47,224,39,1*77
$GBGSV,4,3,13,20,46,040,39,19,42,325,26,37,31,061,20,29,31,224,37,1*79
$GBGSV,4,4,13,36,19,186,22,1*46
$GBGSV,2,1,07,38,79,051,42,39,73,252,45,46,49,137,38,20,46,040,43,4*78
$GBGSV,2,2,07,19,42,325,34,29,31,224,34,36,19,186,29,4*4A
$GNGGA,104716.000,2500.7991200,N,12132.4810400,E,2,53,0.52,18.44,M,15.25,M,45,3335*41
$GNRMC,104716.000,A,2500.7991200,N,12132.4810400,E,0.00,54.55,260623,,,D,V*31
$GPHDT,,T*1B
$GNGGA,104716.200,2500.7991200,N,12132.4810500,E,2,53,0.52,18.44,M,15.25,M,45,3335*42
$GNRMC,104716.200,A,2500.7991200,N,12132.4810500,E,0.00,54.55,260623,,,D,V*32
$GPHDT,,T*1B
$GNGGA,104716.400,2500.7991200,N,12132.4810600,E,2,54,0.52,18.45,M,15.25,M,45,3335*41
$GNRMC,104716.400,A,2500.7991200,N,12132.4810600,E,0.00,54.55,260623,,,D,V*37
$GPHDT,,T*1B
$GNGGA,104716.600,2500.7991100,N,12132.4810700,E,2,54,0.52,18.44,M,15.25,M,45,3335*40
$GNRMC,104716.600,A,2500.7991100,N,12132.4810700,E,0.00,54.55,260623,,,D,V*37
$GPHDT,,T*1B
$GNGGA,104716.800,2500.7991100,N,12132.4810800,E,2,54,0.52,18.42,M,15.25,M,45,3335*47
$GNRMC,104716.800,A,2500.7991100,N,12132.4810800,E,0.00,54.55,260623,,,D,V*36
$GPHDT,,T*1B
$GNGSA,A,3,24,196,18,199,15,195,23,05,194,13,,,1.01,0.52,0.86,1*0B
$GNGSA,A,3,85,80,70,84,79,69,73,,,,,,1.01,0.52,0.86,2*00
$GNGSA,A,3,13,08,07,15,03,,,,,,,,1.01,0.52,0.86,3*00
$GNGSA,A,3,38,39,08,16,06,13,46,09,20,19,29,37,1.01,0.52,0.86,4*09
$GNGSA,A,3,36,,,,,,,,,,,,1.01,0.52,0.86,4*08
$GPGSV,4,1,16,24,80,144,43,196,73,055,38,18,60,287,42,199,60,167,33,1*6C
$GPGSV,4,2,16,45,47,231,39,15,46,027,41,195,41,179,40,23,36,327,26,1*5E
$GPGSV,4,3,16,05,30,102,21,194,24,142,27,13,19,045,35,29,09,209,13,1*5C
$GPGSV,4,4,16,20,09,119,,12,09,154,,10,06,309,,32,01,255,,1*64
$GPGSV,2,1,07,24,80,144,46,196,73,055,43,199,60,167,37,18,60,287,44,8*68
$GPGSV,2,2,07,195,41,179,40,23,36,327,33,194,24,142,35,8*50
$GLGSV,3,1,09,85,45,274,21,80,42,108,31,70,38,344,33,84,27,197,26,1*75
$GLGSV,3,2,09,79,22,048,33,86,19,322,21,69,19,054,23,73,18,167,24,1*78
$GLGSV,3,3,09,71,15,294,20,1*4E
$GAGSV,3,1,09,13,65,263,41,08,53,007,36,07,40,283,29,15,38,173,40,7*78
$GAGSV,3,2,09,26,23,318,24,02,20,101,17,03,18,053,23,30,15,153,,7*79
$GAGSV,3,3,09,25,05,055,19,7*40
$GAGSV,2,1,07,13,65,263,43,08,53,007,42,07,40,283,25,15,38,173,40,1*7C
$GAGSV,2,2,07,26,23,318,25,02,20,101,23,03,18,053,22,1*47
$GBGSV,4,1,14,38,79,051,41,39,73,252,44,08,70,007,37,16,65,233,44,1*73
$GBGSV,4,2,14,06,63,231,39,13,61,342,42,46,49,137,41,09,47,224,39,1*71
$GBGSV,4,3,14,20,46,040,39,19,42,325,27,29,31,224,37,37,31,061,17,1*7B
$GBGSV,4,4,14,36,19,186,19,32,09,085,,1*7C
$GBGSV,2,1,08,38,79,051,42,39,73,252,45,46,49,137,38,20,46,040,43,4*77
$GBGSV,2,2,08,19,42,325,33,37,31,061,27,29,31,224,34,36,19,186,29,4*76
$GNGGA,104717.000,2500.7991100,N,12132.4811000,E,2,55,0.52,18.42,M,15.25,M,46,3335*45
$GNRMC,104717.000,A,2500.7991100,N,12132.4811000,E,0.00,54.55,260623,,,D,V*36
$GPHDT,,T*1B
$GNGGA,104717.200,2500.7991000,N,12132.4811100,E,2,55,0.52,18.42,M,15.25,M,46,3335*47
$GNRMC,104717.200,A,2500.7991000,N,12132.4811100,E,0.00,54.55,260623,,,D,V*34
$GPHDT,,T*1B
$GNGGA,104717.400,2500.7991000,N,12132.4811200,E,2,55,0.52,18.42,M,15.25,M,46,3335*42
$GNRMC,104717.400,A,2500.7991000,N,12132.4811200,E,0.00,54.55,260623,,,D,V*31
$GPHDT,,T*1B
