$FW : RTK35X,V1.1X0314AS,Lib20210517,1*54
$Tool : LOCOSYS , GNSS Firebird , v1.0.0.19*39
$---------------------------------------------------*2D
$GPHDT,,T*1B
$GNGGA,104800.400,2500.7986700,N,12132.4820200,E,2,57,0.51,20.41,M,15.25,M,41,3335*46
$GNRMC,104800.400,A,2500.7986700,N,12132.4820200,E,0.02,54.55,260623,,,D,V*39
$GPHDT,,T*1B
$GNGGA,104800.600,2500.7986500,N,12132.4820400,E,2,57,0.51,20.41,M,15.25,M,41,3335*40
$GNRMC,104800.600,A,2500.7986500,N,12132.4820400,E,0.04,54.55,260623,,,D,V*39
$GPHDT,,T*1B
$GNGGA,104800.800,2500.7986500,N,12132.4820400,E,2,57,0.51,20.40,M,15.25,M,41,3335*4F
$GNRMC,104800.800,A,2500.7986500,N,12132.4820400,E,0.03,54.55,260623,,,D,V*30
$GPHDT,,T*1B
$GNGSA,A,3,24,196,18,199,15,195,23,05,194,13,,,1.00,0.51,0.86,1*09
$GNGSA,A,3,85,80,70,84,79,69,73,,,,,,1.00,0.51,0.86,2*02
$GNGSA,A,3,13,08,07,15,02,03,,,,,,,1.00,0.51,0.86,3*00
$GNGSA,A,3,38,39,08,16,06,13,46,09,20,19,29,37,1.00,0.51,0.86,4*0B
$GNGSA,A,3,36,,,,,,,,,,,,1.00,0.51,0.86,4*0A
$GPGSV,4,1,16,24,80,143,43,196,73,056,38,18,60,286,34,199,60,167,32,1*69
$GPGSV,4,2,16,45,47,231,39,15,46,028,40,195,41,179,41,23,36,327,24,1*53
$GPGSV,4,3,16,05,30,103,26,194,25,142,35,13,19,045,36,12,10,154,,1*52
$GPGSV,4,4,16,29,09,209,18,20,09,119,,10,06,309,,32,01,255,,1*6E
$GPGSV,2,1,07,24,80,143,43,196,73,056,42,199,60,167,40,18,60,286,38,8*62
$GPGSV,2,2,07,195,41,179,39,23,36,327,34,194,25,142,34,8*59
$GLGSV,3,1,09,85,45,273,21,80,42,108,31,70,38,345,32,84,27,197,28,1*7C
$GLGSV,3,2,09,79,22,047,30,86,19,321,18,69,19,054,21,73,19,167,23,1*79
$GLGSV,3,3,09,71,15,295,15,1*49
$GAGSV,3,1,09,13,65,262,40,08,53,007,35,07,40,284,18,15,38,173,41,7*7F
$GAGSV,3,2,09,26,23,318,19,02,20,100,19,03,17,053,24,30,15,153,,7*70
$GAGSV,3,3,09,25,05,055,,7*48
$GAGSV,2,1,07,13,65,262,40,08,53,007,37,07,40,284,18,15,38,173,41,1*74
$GAGSV,2,2,07,26,23,318,19,02,20,100,23,03,17,053,33,1*46
$GBGSV,4,1,13,38,79,052,42,39,73,253,44,08,70,007,39,16,65,233,44,1*7B
$GBGSV,4,2,13,06,63,231,40,13,61,342,42,46,49,137,33,09,47,224,41,1*72
$GBGSV,4,3,13,20,46,040,47,19,42,326,30,29,31,224,41,37,31,061,36,1*72
$GBGSV,4,4,13,36,19,186,21,1*45
$GBGSV,2,1,08,38,79,052,41,39,73,253,45,46,49,137,34,20,46,040,42,4*7B
$GBGSV,2,2,08,19,42,326,30,29,31,224,39,37,31,061,34,36,19,186,25,4*75
$GNGGA,104801.000,2500.7986400,N,12132.4820400,E,2,57,0.51,20.41,M,15.25,M,42,3335*45
$GNRMC,104801.000,A,2500.7986400,N,12132.4820400,E,0.03,54.55,260623,,,D,V*38
$GPHDT,,T*1B
$GNGGA,104801.200,2500.7986400,N,12132.4820400,E,2,57,0.51,20.40,M,15.25,M,42,3335*46
$GNRMC,104801.200,A,2500.7986400,N,12132.4820400,E,0.03,54.55,260623,,,D,V*3A
$GPHDT,,T*1B
$GNGGA,104801.400,2500.7986400,N,12132.4820400,E,2,57,0.51,20.38,M,15.25,M,42,3335*4F
$GNRMC,104801.400,A,2500.7986400,N,12132.4820400,E,0.03,54.55,260623,,,D,V*3C
$GPHDT,,T*1B
$GNGGA,104801.600,2500.7986400,N,12132.4820500,E,2,57,0.51,20.36,M,15.25,M,42,3335*42
$GNRMC,104801.600,A,2500.7986400,N,12132.4820500,E,0.03,54.55,260623,,,D,V*3F
$GPHDT,,T*1B
$GNGGA,104801.800,2500.7986400,N,12132.4820500,E,2,57,0.51,20.35,M,15.25,M,42,3335*4F
$GNRMC,104801.800,A,2500.7986400,N,12132.4820500,E,0.03,54.55,260623,,,D,V*31
$GPHDT,,T*1B
$GNGSA,A,3,24,196,18,199,15,195,23,05,194,13,,,1.00,0.51,0.86,1*09
$GNGSA,A,3,85,80,70,84,79,69,73,,,,,,1.00,0.51,0.86,2*02
$GNGSA,A,3,13,08,07,15,02,03,,,,,,,1.00,0.51,0.86,3*00
$GNGSA,A,3,38,39,08,16,06,13,46,09,20,19,29,37,1.00,0.51,0.86,4*0B
$GNGSA,A,3,36,,,,,,,,,,,,1.00,0.51,0.86,4*0A
$GPGSV,4,1,16,24,80,143,43,196,73,056,37,18,60,286,38,199,60,167,32,1*6A
$GPGSV,4,2,16,45,47,231,39,15,46,028,39,195,41,179,41,23,36,327,23,1*5A
$GPGSV,4,3,16,05,30,103,29,194,25,142,35,13,19,045,37,12,10,154,,1*5C
$GPGSV,4,4,16,29,09,209,19,20,09,119,,10,06,309,,32,01,255,,1*6F
$GPGSV,2,1,07,24,80,143,43,196,73,056,43,199,60,167,39,18,60,286,42,8*60
$GPGSV,2,2,07,195,41,179,38,23,36,327,33,194,25,142,34,8*5F
$GLGSV,3,1,09,85,45,273,21,80,42,108,31,70,38,345,31,84,27,197,28,1*7F
$GLGSV,3,2,09,79,22,047,29,86,19,321,18,69,19,054,21,73,19,167,22,1*70
$GLGSV,3,3,09,71,15,295,14,1*48
$GAGSV,3,1,09,13,65,262,40,08,53,007,36,07,40,284,17,15,38,173,41,7*73
$GAGSV,3,2,09,26,23,318,19,02,20,100,18,03,17,053,26,30,15,153,,7*73
$GAGSV,3,3,09,25,05,055,,7*48
$GAGSV,2,1,07,13,65,262,41,08,53,007,38,07,40,284,21,15,38,173,41,1*70
$GAGSV,2,2,07,26,23,318,18,02,20,100,24,03,17,053,33,1*40
$GBGSV,4,1,13,38,79,052,42,39,73,253,45,08,70,007,39,16,65,233,44,1*7A
$GBGSV,4,2,13,06,63,231,40,13,61,342,42,46,49,137,36,09,47,224,41,1*77
$GBGSV,4,3,13,20,46,040,46,19,42,326,29,29,31,224,41,37,31,061,35,1*78
$GBGSV,4,4,13,36,19,186,21,1*45
$GBGSV,2,1,08,38,79,052,41,39,73,253,45,46,49,137,36,20,46,040,42,4*79
$GBGSV,2,2,08,19,42,326,27,29,31,224,39,37,31,061,36,36,19,186,26,4*72
$GNGGA,104802.000,2500.7986300,N,12132.4820600,E,2,57,0.51,20.32,M,15.25,M,43,3335*46
$GNRMC,104802.000,A,2500.7986300,N,12132.4820600,E,0.03,54.55,260623,,,D,V*3E
$GPHDT,,T*1B
$GNGGA,104802.200,2500.7986400,N,12132.4820500,E,2,57,0.51,20.32,M,15.25,M,43,3335*40
$GNRMC,104802.200,A,2500.7986400,N,12132.4820500,E,0.02,54.55,260623,,,D,V*39
$GPHDT,,T*1B
$GNGGA,104802.400,2500.7986400,N,12132.4820400,E,2,57,0.51,20.31,M,15.25,M,43,3335*44
$GNRMC,104802.400,A,2500.7986400,N,12132.4820400,E,0.01,54.55,260623,,,D,V*3D
$GPHDT,,T*1B
$GNGGA,104802.600,2500.7986500,N,12132.4820300,E,2,57,0.51,20.30,M,15.25,M,43,3335*41
$GNRMC,104802.600,A,2500.7986500,N,12132.4820300,E,0.01,54.55,260623,,,D,V*39
$GPHDT,,T*1B
$GNGGA,104802.800,2500.7986500,N,12132.4820300,E,2,56,0.51,20.29,M,15.25,M,43,3335*46
$GNRMC,104802.800,A,2500.7986500,N,12132.4820300,E,0.01,54.55,260623,,,D,V*37
$GPHDT,,T*1B
$GNGSA,A,3,24,196,18,199,15,195,23,05,194,13,,,1.00,0.51,0.86,1*09
$GNGSA,A,3,85,80,70,84,79,69,73,,,,,,1.00,0.51,0.86,2*02
$GNGSA,A,3,13,08,07,15,02,03,,,,,,,1.00,0.51,0.86,3*00
$GNGSA,A,3,38,39,08,16,06,13,46,09,20,19,29,37,1.00,0.51,0.86,4*0B
$GNGSA,A,3,36,,,,,,,,,,,,1.00,0.51,0.86,4*0A
$GPGSV,4,1,15,24,80,143,43,196,73,056,37,18,60,286,38,199,60,167,33,1*68
$GPGSV,4,2,15,45,47,231,39,15,46,028,39,195,41,179,41,23,36,327,27,1*5D
$GPGSV,4,3,15,05,30,103,29,194,25,142,35,13,19,045,37,12,10,154,,1*5F
$GPGSV,4,4,15,29,09,209,19,20,09,119,,32,01,255,,1*51
$GPGSV,2,1,07,24,80,143,43,196,73,056,43,199,60,167,39,18,60,286,42,8*60
$GPGSV,2,2,07,195,41,179,38,23,36,327,34,194,25,142,36,8*5A
$GLGSV,3,1,09,85,45,273,24,80,42,108,31,70,38,345,28,84,27,197,29,1*73
$GLGSV,3,2,09,79,22,047,28,86,19,321,16,69,19,054,25,73,19,167,23,1*7A
$GLGSV,3,3,09,71,15,295,16,1*4A
$GAGSV,3,1,09,13,65,262,40,08,53,007,36,07,40,284,14,15,38,173,41,7*70
$GAGSV,3,2,09,26,23,318,19,02,20,100,20,03,17,053,28,30,15,153,,7*76
$GAGSV,3,3,09,25,05,055,,7*48
$GAGSV,2,1,07,13,65,262,41,08,53,007,39,07,40,284,20,15,38,173,41,1*70
$GAGSV,2,2,07,26,23,318,18,02,20,100,25,03,17,053,33,1*41
$GBGSV,4,1,15,38,79,052,42,39,73,253,45,08,70,007,38,16,65,233,44,1*7D
$GBGSV,4,2,15,06,63,231,40,13,61,342,42,46,49,137,36,09,47,224,41,1*71
$GBGSV,4,3,15,20,46,040,46,19,42,326,30,29,31,224,41,37,31,061,35,1*76
$GBGSV,4,4,15,36,19,186,18,30,06,176,,22,04,288,,1*4A
$GBGSV,2,1,08,38,79,052,41,39,73,253,45,46,49,137,35,20,46,040,42,4*7A
$GBGSV,2,2,08,19,42,326,28,29,31,224,39,37,31,061,35,36,19,186,26,4*7E
$GNGGA,104803.000,2500.7986600,N,12132.4820300,E,2,56,0.51,20.27,M,15.25,M,44,3335*45
$GNRMC,104803.000,A,2500.7986600,N,12132.4820300,E,0.01,54.55,260623,,,D,V*3D
$GPHDT,,T*1B
$GNGGA,104803.200,2500.7986700,N,12132.4820200,E,2,56,0.51,20.25,M,15.25,M,44,3335*45
$GNRMC,104803.200,A,2500.7986700,N,12132.4820200,E,0.00,54.55,260623,,,D,V*3E
$GPHDT,,T*1B
$GNGGA,104803.400,2500.7986800,N,12132.4820100,E,2,57,0.51,20.25,M,15.25,M,44,3335*4E
$GNRMC,104803.400,A,2500.7986800,N,12132.4820100,E,0.01,54.55,260623,,,D,V*35
$GPHDT,,T*1B
$GNGGA,104803.600,2500.7986800,N,12132.4820100,E,2,57,0.51,20.24,M,15.25,M,44,3335*4D
$GNRMC,104803.600,A,2500.7986800,N,12132.4820100,E,0.01,54.55,260623,,,D,V*37
$GPHDT,,T*1B
$GNGGA,104803.800,2500.7986900,N,12132.4820100,E,2,57,0.51,20.25,M,15.25,M,44,3335*43
$GNRMC,104803.800,A,2500.7986900,N,12132.4820100,E,0.01,54.55,260623,,,D,V*38
$GPHDT,,T*1B
$GNGSA,A,3,24,196,18,199,15,195,23,05,194,13,,,1.00,0.51,0.86,1*09
$GNGSA,A,3,85,80,70,84,79,69,73,,,,,,1.00,0.51,0.86,2*02
$GNGSA,A,3,13,08,07,15,02,03,,,,,,,1.00,0.51,0.86,3*00
$GNGSA,A,3,38,39,08,16,06,13,46,09,20,19,37,29,1.00,0.51,0.86,4*0B
$GNGSA,A,3,36,,,,,,,,,,,,1.00,0.51,0.86,4*0A
$GPGSV,4,1,16,24,80,143,44,196,73,056,37,18,60,286,38,199,60,167,32,1*6D
$GPGSV,4,2,16,45,47,231,39,15,46,028,38,195,41,179,41,23,36,327,27,1*5F
$GPGSV,4,3,16,05,30,103,29,194,25,142,35,13,19,045,37,12,10,154,,1*5C
$GPGSV,4,4,16,29,09,209,19,20,09,119,,10,06,309,,32,01,255,,1*6F
$GPGSV,2,1,07,24,80,143,43,196,73,056,43,199,60,167,39,18,60,286,42,8*60
$GPGSV,2,2,07,195,41,179,38,23,36,327,34,194,25,142,36,8*5A
$GLGSV,3,1,09,85,45,273,24,80,42,108,31,70,38,345,29,84,27,197,29,1*72
$GLGSV,3,2,09,79,22,047,29,86,19,321,17,69,19,054,27,73,19,167,21,1*7A
$GLGSV,3,3,09,71,15,295,16,1*4A
$GAGSV,3,1,09,13,65,262,40,08,53,007,36,07,40,284,14,15,38,173,41,7*70
$GAGSV,3,2,09,26,23,318,17,02,20,100,19,03,17,053,26,30,15,153,,7*7C
$GAGSV,3,3,09,25,05,055,,7*48
$GAGSV,2,1,07,13,65,262,41,08,53,007,40,07,40,284,20,15,38,173,41,1*7E
$GAGSV,2,2,07,26,23,318,17,02,20,100,26,03,17,053,33,1*4D
$GBGSV,4,1,14,38,79,052,42,39,73,253,44,08,70,007,38,16,65,233,44,1*7D
$GBGSV,4,2,14,06,63,231,40,13,61,342,42,46,49,137,36,09,47,224,41,1*70
$GBGSV,4,3,14,20,46,040,46,19,42,326,30,37,31,061,35,29,31,224,41,1*77
$GBGSV,4,4,14,36,19,186,18,30,06,176,,1*7D
$GBGSV,2,1,08,38,79,052,41,39,73,253,45,46,49,137,35,20,46,040,42,4*7A
$GBGSV,2,2,08,19,42,326,30,29,31,224,40,37,31,061,36,36,19,186,26,4*7A
$GNGGA,104804.000,2500.7987000,N,12132.4820100,E,2,57,0.51,20.24,M,15.25,M,45,3335*44
$GNRMC,104804.000,A,2500.7987000,N,12132.4820100,E,0.01,54.55,260623,,,D,V*3F
$GPHDT,,T*1B
$GNGGA,104804.200,2500.7987000,N,12132.4820000,E,2,57,0.51,20.24,M,15.25,M,45,3335*47
$GNRMC,104804.200,A,2500.7987000,N,12132.4820000,E,0.01,54.55,260623,,,D,V*3C
$GPHDT,,T*1B
$GNGGA,104804.400,2500.7987100,N,12132.4820000,E,2,57,0.51,20.23,M,15.25,M,45,3335*47
$GNRMC,104804.400,A,2500.7987100,N,12132.4820000,E,0.01,54.55,260623,,,D,V*3B
$GPHDT,,T*1B
$GNGGA,104804.600,2500.7987100,N,12132.4820000,E,2,57,0.51,20.20,M,15.25,M,45,3335*46
$GNRMC,104804.600,A,2500.7987100,N,12132.4820000,E,0.01,54.55,260623,,,D,V*39
$GPHDT,,T*1B
$GNGGA,104804.800,2500.7987100,N,12132.4820000,E,2,57,0.51,20.20,M,15.25,M,45,3335*48
$GNRMC,104804.800,A,2500.7987100,N,12132.4820000,E,0.02,54.55,260623,,,D,V*34
$GPHDT,,T*1B
$GNGSA,A,3,24,196,18,199,15,195,23,05,194,13,,,1.00,0.51,0.86,1*09
$GNGSA,A,3,85,80,70,84,79,69,73,,,,,,1.00,0.51,0.86,2*02
$GNGSA,A,3,13,08,07,15,02,03,,,,,,,1.00,0.51,0.86,3*00
$GNGSA,A,3,38,39,08,16,06,13,46,09,20,19,37,29,1.00,0.51,0.86,4*0B
$GNGSA,A,3,36,,,,,,,,,,,,1.00,0.51,0.86,4*0A
$GPGSV,4,1,15,24,80,143,44,196,73,056,37,18,60,286,38,199,60,167,32,1*6E
$GPGSV,4,2,15,45,47,231,40,15,46,028,38,195,41,179,41,23,36,327,24,1*51
$GPGSV,4,3,15,05,30,103,27,194,25,142,35,13,19,045,37,12,10,154,,1*51
$GPGSV,4,4,15,29,09,209,19,20,09,119,,10,06,309,,1*5E
$GPGSV,2,1,07,24,80,143,43,196,73,056,43,199,60,167,39,18,60,286,42,8*60
$GPGSV,2,2,07,195,41,179,38,23,36,327,34,194,25,142,36,8*5A
$GLGSV,3,1,09,85,45,273,24,80,42,108,31,70,38,345,31,84,27,197,31,1*72
$GLGSV,3,2,09,79,22,047,30,86,19,321,20,69,19,054,26,73,19,167,18,1*7D
$GLGSV,3,3,09,71,15,295,15,1*49
$GAGSV,3,1,09,13,65,262,40,08,53,007,36,07,40,284,16,15,38,173,41,7*72
$GAGSV,3,2,09,26,23,318,18,02,20,100,18,03,17,053,26,30,15,153,,7*72
$GAGSV,3,3,09,25,05,055,,7*48
$GAGSV,2,1,07,13,65,262,42,08,53,007,40,07,40,284,19,15,38,173,41,1*77
$GAGSV,2,2,07,26,23,318,17,02,20,100,26,03,17,053,33,1*4D
$GBGSV,4,1,13,38,79,052,42,39,73,253,44,08,70,007,38,16,65,233,44,1*7A
$GBGSV,4,2,13,06,63,231,40,13,61,342,42,46,49,137,36,09,47,224,41,1*77
$GBGSV,4,3,13,20,46,040,46,19,42,326,32,37,31,061,35,29,31,224,41,1*72
$GBGSV,4,4,13,36,19,186,21,1*45
$GBGSV,2,1,08,38,79,052,40,39,73,253,45,46,49,137,35,20,46,040,42,4*7B
$GBGSV,2,2,08,19,42,326,31,29,31,224,40,37,31,061,36,36,19,186,26,4*7B
$GNGGA,104805.000,2500.7987200,N,12132.4820000,E,2,57,0.51,20.18,M,15.25,M,46,3335*4A
$GNRMC,104805.000,A,2500.7987200,N,12132.4820000,E,0.02,54.55,260623,,,D,V*3E
$GPHDT,,T*1B
$GNGGA,104805.200,2500.7987300,N,12132.4820000,E,2,57,0.51,20.18,M,15.25,M,46,3335*49
$GNRMC,104805.200,A,2500.7987300,N,12132.4820000,E,0.02,54.55,260623,,,D,V*3D
$GPHDT,,T*1B
$GNGGA,104805.400,2500.7987300,N,12132.4820000,E,2,57,0.51,20.16,M,15.25,M,46,3335*41
$GNRMC,104805.400,A,2500.7987300,N,12132.4820000,E,0.02,54.55,260623,,,D,V*3B
$GPHDT,,T*1B
$GNGGA,104805.600,2500.7987300,N,12132.4820000,E,2,57,0.51,20.15,M,15.25,M,46,3335*40
$GNRMC,104805.600,A,2500.7987300,N,12132.4820000,E,0.02,54.55,260623,,,D,V*39
$GPHDT,,T*1B
$GNGGA,104805.800,2500.7987300,N,12132.4820000,E,2,57,0.51,20.14,M,15.25,M,46,3335*4F
$GNRMC,104805.800,A,2500.7987300,N,12132.4820000,E,0.02,54.55,260623,,,D,V*37
$GPHDT,,T*1B
$GNGSA,A,3,24,196,18,199,15,195,23,05,194,13,,,1.00,0.51,0.86,1*09
$GNGSA,A,3,85,80,70,84,79,69,73,,,,,,1.00,0.51,0.86,2*02
$GNGSA,A,3,13,08,07,15,02,03,,,,,,,1.00,0.51,0.86,3*00
$GNGSA,A,3,38,39,08,16,06,13,46,09,20,19,29,37,1.00,0.51,0.86,4*0B
$GNGSA,A,3,36,,,,,,,,,,,,1.00,0.51,0.86,4*0A
$GPGSV,4,1,16,24,80,143,44,196,73,056,37,18,60,286,38,199,60,167,33,1*6C
$GPGSV,4,2,16,45,47,231,40,15,46,028,38,195,41,179,41,23,36,327,24,1*52
$GPGSV,4,3,16,05,30,103,28,194,25,142,35,13,19,045,37,12,10,154,,1*5D
$GPGSV,4,4,16,29,09,209,19,20,09,119,,10,06,309,,32,01,255,,1*6F
$GPGSV,2,1,07,24,80,143,43,196,73,056,43,199,60,167,39,18,60,286,42,8*60
$GPGSV,2,2,07,195,41,179,38,23,36,327,34,194,25,142,36,8*5A
$GLGSV,3,1,09,85,45,273,27,80,42,108,31,70,38,345,32,84,27,197,31,1*72
$GLGSV,3,2,09,79,22,047,31,86,19,321,22,69,19,054,24,73,19,167,17,1*73
$GLGSV,3,3,09,71,15,295,16,1*4A
$GAGSV,3,1,09,13,65,262,40,08,53,007,36,07,40,284,15,15,38,173,41,7*71
$GAGSV,3,2,09,26,23,318,18,02,20,100,18,03,17,053,26,30,15,153,,7*72
$GAGSV,3,3,09,25,05,055,,7*48
$GAGSV,2,1,07,13,65,262,42,08,53,007,40,07,40,284,19,15,38,173,41,1*77
$GAGSV,2,2,07,26,23,318,18,02,20,100,26,03,17,053,33,1*42
$GBGSV,4,1,13,38,79,052,42,39,73,253,44,08,70,007,38,16,65,234,44,1*7D
$GBGSV,4,2,13,06,63,231,40,13,61,342,42,46,49,137,36,09,47,224,41,1*77
$GBGSV,4,3,13,20,46,040,46,19,42,326,32,29,31,224,41,37,31,061,36,1*71
$GBGSV,4,4,13,36,19,186,23,1*47
$GBGSV,2,1,08,38,79,052,40,39,73,253,46,46,49,137,35,20,46,040,42,4*78
$GBGSV,2,2,08,19,42,326,30,29,31,224,40,37,31,061,36,36,19,186,26,4*7A
$GNGGA,104806.000,2500.7987400,N,12132.4820000,E,2,57,0.51,20.13,M,15.25,M,47,3335*45
$GNRMC,104806.000,A,2500.7987400,N,12132.4820000,E,0.02,54.55,260623,,,D,V*3B
$GPHDT,,T*1B
$GNGGA,104806.200,2500.7987400,N,12132.4820000,E,2,57,0.51,20.13,M,15.25,M,47,3335*47
$GNRMC,104806.200,A,2500.7987400,N,12132.4820000,E,0.02,54.55,260623,,,D,V*39
$GPHDT,,T*1B
$GNGGA,104806.400,2500.7987400,N,12132.4820000,E,2,57,0.51,20.12,M,15.25,M,47,3335*40
$GNRMC,104806.400,A,2500.7987400,N,12132.4820000,E,0.02,54.55,260623,,,D,V*3F
$GPHDT,,T*1B
$GNGGA,104806.600,2500.7987400,N,12132.4820100,E,2,57,0.51,20.13,M,15.25,M,47,3335*42
$GNRMC,104806.600,A,2500.7987400,N,12132.4820100,E,0.01,54.55,260623,,,D,V*3F
$GPHDT,,T*1B
$GNGGA,104806.800,2500.7987400,N,12132.4820100,E,2,57,0.51,20.12,M,15.25,M,47,3335*4D
$GNRMC,104806.800,A,2500.7987400,N,12132.4820100,E,0.01,54.55,260623,,,D,V*31
$GPHDT,,T*1B
$GNGSA,A,3,24,196,18,199,15,195,23,05,194,13,,,1.00,0.51,0.86,1*09
$GNGSA,A,3,85,80,70,84,79,69,73,,,,,,1.00,0.51,0.86,2*02
$GNGSA,A,3,13,08,07,15,02,03,,,,,,,1.00,0.51,0.86,3*00
$GNGSA,A,3,38,39,08,16,06,13,46,09,20,19,37,29,1.00,0.51,0.86,4*0B
$GNGSA,A,3,36,,,,,,,,,,,,1.00,0.51,0.86,4*0A
$GPGSV,4,1,15,24,80,143,44,196,73,056,37,18,60,286,38,199,60,167,33,1*6F
$GPGSV,4,2,15,45,47,231,40,15,46,028,38,195,41,179,41,23,36,327,22,1*57
$GPGSV,4,3,15,05,30,103,27,194,25,142,35,13,19,045,37,12,10,154,,1*51
$GPGSV,4,4,15,29,09,209,19,20,09,119,,32,01,255,,1*51
$GPGSV,2,1,07,24,80,143,43,196,73,056,43,199,60,167,39,18,60,286,42,8*60
$GPGSV,2,2,07,195,41,179,38,23,36,327,34,194,25,142,35,8*59
$GLGSV,3,1,09,85,45,273,27,80,42,108,31,70,38,345,32,84,27,197,31,1*72
$GLGSV,3,2,09,79,22,047,31,69,19,054,22,73,19,167,15,86,19,321,23,1*76
$GLGSV,3,3,09,71,15,295,17,1*4B
$GAGSV,2,1,08,13,65,262,40,08,53,007,36,07,40,284,14,15,38,173,41,7*70
$GAGSV,2,2,08,26,23,318,20,02,20,100,18,03,17,053,26,30,15,153,,7*79
$GAGSV,2,1,07,13,65,262,41,08,53,007,40,07,40,284,19,15,38,173,41,1*74
$GAGSV,2,2,07,26,23,318,19,02,20,100,26,03,17,053,33,1*43
$GBGSV,4,1,13,38,79,052,42,39,73,253,44,08,70,007,38,16,65,234,44,1*7D
$GBGSV,4,2,13,06,63,231,40,13,61,342,42,46,49,137,35,09,47,224,41,1*74
$GBGSV,4,3,13,20,46,041,46,19,42,326,32,37,31,061,36,29,31,224,41,1*70
$GBGSV,4,4,13,36,19,186,23,1*47
$GBGSV,2,1,08,38,79,052,40,39,73,253,46,46,49,137,34,20,46,041,42,4*78
$GBGSV,2,2,08,19,42,326,30,29,31,224,40,37,31,061,36,36,19,186,26,4*7A
$GNGGA,104807.000,2500.7987500,N,12132.4820100,E,2,57,0.51,20.11,M,15.25,M,48,3335*49
$GNRMC,104807.000,A,2500.7987500,N,12132.4820100,E,0.01,54.55,260623,,,D,V*39
$GPHDT,,T*1B
$GNGGA,104807.200,2500.7987400,N,12132.4820100,E,2,57,0.51,20.11,M,15.25,M,48,3335*4A
$GNRMC,104807.200,A,2500.7987400,N,12132.4820100,E,0.01,54.55,260623,,,D,V*3A
$GPHDT,,T*1B
$GNGGA,104807.400,2500.7987500,N,12132.4820100,E,2,57,0.51,20.10,M,15.25,M,48,3335*4C
$GNRMC,104807.400,A,2500.7987500,N,12132.4820100,E,0.02,54.55,260623,,,D,V*3E
$GPHDT,,T*1B
$GNGGA,104807.600,2500.7987600,N,12132.4820000,E,2,57,0.51,20.09,M,15.25,M,48,3335*44
$GNRMC,104807.600,A,2500.7987600,N,12132.4820000,E,0.02,54.55,260623,,,D,V*3E
$GPHDT,,T*1B
$GNGGA,104807.800,2500.7987600,N,12132.4820000,E,2,57,0.51,20.08,M,15.25,M,48,3335*4B
$GNRMC,104807.800,A,2500.7987600,N,12132.4820000,E,0.02,54.55,260623,,,D,V*30
$GPHDT,,T*1B
$GNGSA,A,3,24,196,18,199,15,195,23,05,194,13,,,1.00,0.51,0.86,1*09
$GNGSA,A,3,85,80,70,84,79,69,73,,,,,,1.00,0.51,0.86,2*02
$GNGSA,A,3,13,08,07,15,02,03,,,,,,,1.00,0.51,0.86,3*00
$GNGSA,A,3,38,39,08,16,06,13,46,09,20,19,37,29,1.00,0.51,0.86,4*0B
$GNGSA,A,3,36,,,,,,,,,,,,1.00,0.51,0.86,4*0A
$GPGSV,4,1,16,24,80,143,44,196,73,056,37,18,60,286,38,199,60,167,32,1*6D
$GPGSV,4,2,16,45,47,231,40,15,46,028,38,195,41,179,41,23,36,327,21,1*57
$GPGSV,4,3,16,05,30,103,27,194,25,142,35,13,19,045,38,12,10,154,,1*5D
$GPGSV,4,4,16,29,09,209,19,20,09,119,,10,06,309,,32,01,255,,1*6F
$GPGSV,2,1,07,24,80,143,43,196,73,056,43,199,60,167,39,18,60,286,42,8*60
$GPGSV,2,2,07,195,41,179,38,23,36,327,34,194,25,142,35,8*59
$GLGSV,3,1,09,85,45,273,27,80,42,108,31,70,38,345,32,84,27,197,31,1*72
$GLGSV,3,2,09,79,22,047,31,86,19,321,22,69,19,054,25,73,19,167,17,1*72
$GLGSV,3,3,09,71,15,295,17,1*4B
$GAGSV,3,1,09,13,65,262,40,08,53,007,36,07,40,284,13,15,38,173,41,7*77
$GAGSV,3,2,09,26,23,318,20,02,20,100,18,03,17,053,26,30,15,153,,7*79
$GAGSV,3,3,09,25,05,055,,7*48
$GAGSV,2,1,07,13,65,262,41,08,53,007,40,07,40,284,18,15,38,173,41,1*75
$GAGSV,2,2,07,26,23,318,18,02,20,100,26,03,17,053,33,1*42
$GBGSV,4,1,13,38,79,052,42,39,73,253,44,08,70,007,38,16,65,234,44,1*7D
$GBGSV,4,2,13,06,63,231,40,13,61,342,42,46,49,137,35,09,47,224,41,1*74
$GBGSV,4,3,13,20,46,041,46,19,42,326,32,37,31,061,36,29,30,224,41,1*71
$GBGSV,4,4,13,36,19,186,24,1*40
$GBGSV,2,1,08,38,79,052,40,39,73,253,46,46,49,137,34,20,46,041,42,4*78
$GBGSV,2,2,08,19,42,326,31,37,31,061,36,29,30,224,40,36,19,186,26,4*7A
$GNGGA,104808.000,2500.7987600,N,12132.4820100,E,2,57,0.51,20.06,M,15.25,M,49,3335*42
$GNRMC,104808.000,A,2500.7987600,N,12132.4820100,E,0.02,54.55,260623,,,D,V*36
$GPHDT,,T*1B
$GNGGA,104808.200,2500.7987600,N,12132.4820000,E,2,57,0.51,20.04,M,15.25,M,49,3335*43
$GNRMC,104808.200,A,2500.7987600,N,12132.4820000,E,0.02,54.55,260623,,,D,V*35
$GPHDT,,T*1B
$GNGGA,104808.400,2500.7987600,N,12132.4820000,E,2,57,0.51,20.03,M,15.25,M,49,3335*42
$GNRMC,104808.400,A,2500.7987600,N,12132.4820000,E,0.01,54.55,260623,,,D,V*30
$GPHDT,,T*1B
$GNGGA,104808.600,2500.7987600,N,12132.4820000,E,2,57,0.51,20.02,M,15.25,M,49,3335*41
$GNRMC,104808.600,A,2500.7987600,N,12132.4820000,E,0.01,54.55,260623,,,D,V*32
$GPHDT,,T*1B
$GNGGA,104808.800,2500.7987600,N,12132.4820000,E,2,57,0.51,20.02,M,15.25,M,49,3335*4F
$GNRMC,104808.800,A,2500.7987600,N,12132.4820000,E,0.02,54.55,260623,,,D,V*3F
$GPHDT,,T*1B
$GNGSA,A,3,24,196,18,199,15,195,23,05,194,13,,,1.00,0.51,0.86,1*09
$GNGSA,A,3,85,80,70,84,79,69,73,,,,,,1.00,0.51,0.86,2*02
$GNGSA,A,3,13,08,07,15,02,03,,,,,,,1.00,0.51,0.86,3*00
$GNGSA,A,3,38,39,08,16,06,13,46,09,20,19,37,29,1.00,0.51,0.86,4*0B
$GNGSA,A,3,36,,,,,,,,,,,,1.00,0.51,0.86,4*0A
$GPGSV,4,1,16,24,80,143,44,196,73,056,37,18,60,286,38,199,60,167,32,1*6D
$GPGSV,4,2,16,45,47,231,40,15,46,028,38,195,41,179,41,23,36,327,22,1*54
$GPGSV,4,3,16,05,30,103,27,194,25,142,35,13,19,045,34,12,10,154,,1*51
$GPGSV,4,4,16,29,09,209,20,20,09,119,,10,06,309,,32,01,255,,1*65
$GPGSV,2,1,07,24,80,143,43,196,73,056,43,199,60,167,39,18,60,286,42,8*60
$GPGSV,2,2,07,195,41,179,38,23,36,327,34,194,25,142,35,8*59
$GLGSV,3,1,09,85,45,273,26,80,42,108,31,70,38,345,32,84,27,197,32,1*70
$GLGSV,3,2,09,79,22,047,33,69,19,054,26,73,19,167,17,86,19,321,21,1*70
$GLGSV,3,3,09,71,15,295,17,1*4B
$GAGSV,3,1,09,13,65,262,40,08,53,007,36,07,40,284,14,15,38,173,41,7*70
$GAGSV,3,2,09,26,23,318,20,02,20,100,18,03,17,053,26,30,15,153,,7*79
$GAGSV,3,3,09,25,05,055,,7*48
$GAGSV,2,1,07,13,65,262,41,08,53,007,40,07,40,284,18,15,38,173,41,1*75
$GAGSV,2,2,07,26,23,318,18,02,20,100,26,03,17,053,30,1*41
$GBGSV,4,1,15,38,79,052,42,39,73,253,44,08,70,007,38,16,65,234,44,1*7B
$GBGSV,4,2,15,06,63,231,40,13,61,342,42,46,49,137,35,09,47,224,41,1*72
$GBGSV,4,3,15,20,46,041,46,19,42,326,32,37,31,061,36,29,30,224,41,1*77
$GBGSV,4,4,15,36,19,186,24,32,09,085,,07,06,196,,1*4C
$GBGSV,2,1,08,38,79,052,40,39,73,253,46,46,49,137,35,20,46,041,42,4*79
$GBGSV,2,2,08,19,42,326,32,37,31,061,36,29,30,224,40,36,19,186,26,4*79
$GNGGA,104809.000,2500.7987600,N,12132.4819900,E,2,57,0.51,20.02,M,15.25,M,50,3335*4D
$GNRMC,104809.000,A,2500.7987600,N,12132.4819900,E,0.02,54.55,260623,,,D,V*35
$GPHDT,,T*1B
$GNGGA,104809.200,2500.7987600,N,12132.4819800,E,2,57,0.51,20.01,M,15.25,M,50,3335*4D
$GNRMC,104809.200,A,2500.7987600,N,12132.4819800,E,0.02,54.55,260623,,,D,V*36
$GPHDT,,T*1B
$GNGGA,104809.400,2500.7987600,N,12132.4819900,E,2,57,0.51,20.05,M,15.25,M,50,3335*4E
$GNRMC,104809.400,A,2500.7987600,N,12132.4819900,E,0.02,54.55,260623,,,D,V*31
$GPHDT,,T*1B
$GNGGA,104809.600,2500.7987600,N,12132.4819900,E,2,57,0.51,20.04,M,15.25,M,50,3335*4D
$GNRMC,104809.600,A,2500.7987600,N,12132.4819900,E,0.02,54.55,260623,,,D,V*33
$GPHDT,,T*1B
$GNGGA,104809.800,2500.7987600,N,12132.4819900,E,2,57,0.51,20.04,M,15.25,M,50,3335*43
$GNRMC,104809.800,A,2500.7987600,N,12132.4819900,E,0.01,54.55,260623,,,D,V*3E
$GPHDT,,T*1B
$GNGSA,A,3,24,196,18,199,15,195,23,05,194,13,,,1.00,0.51,0.86,1*09
$GNGSA,A,3,85,80,70,84,79,69,73,,,,,,1.00,0.51,0.86,2*02
$GNGSA,A,3,13,08,07,15,02,03,,,,,,,1.00,0.51,0.86,3*00
$GNGSA,A,3,38,39,08,16,06,13,46,09,20,19,37,29,1.00,0.51,0.86,4*0B
$GNGSA,A,3,36,,,,,,,,,,,,1.00,0.51,0.86,4*0A
$GPGSV,4,1,16,24,80,143,44,196,73,056,37,18,60,286,38,199,60,167,32,1*6D
$GPGSV,4,2,16,45,47,231,40,15,46,028,38,195,41,179,41,23,36,327,21,1*57
$GPGSV,4,3,16,05,30,103,27,194,25,142,35,13,19,045,34,12,10,154,,1*51
$GPGSV,4,4,16,29,09,209,21,20,09,119,,10,06,309,17,32,01,255,,1*62
$GPGSV,2,1,07,24,80,143,43,196,73,056,43,199,60,167,39,18,60,286,42,8*60
$GPGSV,2,2,07,195,41,179,38,23,36,327,34,194,25,142,35,8*59
$GLGSV,3,1,09,85,45,273,26,80,42,108,31,70,38,345,32,84,27,197,32,1*70
$GLGSV,3,2,09,79,22,047,33,86,19,321,20,69,19,054,25,73,19,167,17,1*72
$GLGSV,3,3,09,71,15,295,15,1*49
$GAGSV,3,1,09,13,65,262,40,08,53,007,36,07,40,284,16,15,38,173,41,7*72
$GAGSV,3,2,09,26,23,318,20,02,20,100,17,03,17,053,26,30,15,153,,7*76
$GAGSV,3,3,09,25,05,055,,7*48
$GAGSV,2,1,07,13,65,262,41,08,53,007,40,07,40,284,18,15,38,173,40,1*74
$GAGSV,2,2,07,26,23,318,18,02,20,100,25,03,17,053,30,1*42
$GBGSV,4,1,13,38,79,052,42,39,73,253,44,08,70,007,39,16,65,234,44,1*7C
$GBGSV,4,2,13,06,63,231,40,13,61,342,42,46,49,137,34,09,47,224,41,1*75
$GBGSV,4,3,13,20,46,041,46,19,42,326,31,37,31,061,36,29,30,224,41,1*72
$GBGSV,4,4,13,36,20,186,24,1*4A
$GBGSV,2,1,08,38,79,052,40,39,73,253,46,46,49,137,35,20,46,041,42,4*79
$GBGSV,2,2,08,19,42,326,32,37,31,061,36,29,30,224,39,36,20,186,25,4*7E
$GNGGA,104810.000,2500.7987600,N,12132.4819800,E,2,57,0.51,20.01,M,15.25,M,51,3335*46
$GNRMC,104810.000,A,2500.7987600,N,12132.4819800,E,0.02,54.55,260623,,,D,V*3C
$GPHDT,,T*1B
$GNGGA,104810.200,2500.7987600,N,12132.4819800,E,2,57,0.51,20.00,M,15.25,M,51,3335*45
$GNRMC,104810.200,A,2500.7987600,N,12132.4819800,E,0.02,54.55,260623,,,D,V*3E
$GPHDT,,T*1B
$GNGGA,104810.400,2500.7987600,N,12132.4819800,E,2,57,0.51,20.00,M,15.25,M,51,3335*43
$GNRMC,104810.400,A,2500.7987600,N,12132.4819800,E,0.02,54.55,260623,,,D,V*38
$GPHDT,,T*1B
$GNGGA,104810.600,2500.7987600,N,12132.4819800,E,2,57,0.51,20.00,M,15.25,M,51,3335*41
$GNRMC,104810.600,A,2500.7987600,N,12132.4819800,E,0.01,54.55,260623,,,D,V*39
$GPHDT,,T*1B
$GNGGA,104810.800,2500.7987600,N,12132.4819800,E,2,57,0.51,19.99,M,15.25,M,51,3335*45
$GNRMC,104810.800,A,2500.7987600,N,12132.4819800,E,0.02,54.55,260623,,,D,V*34
$GPHDT,,T*1B
$GNGSA,A,3,24,196,18,199,15,195,23,05,194,13,,,1.00,0.51,0.86,1*09
$GNGSA,A,3,85,80,70,84,79,69,73,,,,,,1.00,0.51,0.86,2*02
$GNGSA,A,3,13,08,07,15,02,03,,,,,,,1.00,0.51,0.86,3*00
$GNGSA,A,3,38,39,08,16,06,13,46,09,20,19,37,29,1.00,0.51,0.86,4*0B
$GNGSA,A,3,36,,,,,,,,,,,,1.00,0.51,0.86,4*0A
$GPGSV,4,1,16,24,80,143,44,196,73,056,37,18,60,286,38,199,60,167,32,1*6D
$GPGSV,4,2,16,45,47,231,40,15,46,028,38,195,41,179,41,23,36,327,20,1*56
$GPGSV,4,3,16,05,30,103,28,194,25,142,35,13,19,045,38,12,10,154,,1*52
$GPGSV,4,4,16,29,09,209,21,20,09,119,,10,06,309,16,32,01,255,,1*63
$GPGSV,2,1,07,24,80,143,44,196,73,056,43,199,60,167,39,18,60,286,42,8*67
$GPGSV,2,2,07,195,41,179,38,23,36,327,33,194,25,142,35,8*5E
$GLGSV,3,1,09,85,45,273,27,80,42,108,32,70,38,345,32,84,27,197,32,1*72
$GLGSV,3,2,09,79,22,047,33,86,19,321,20,69,19,054,24,73,19,167,17,1*73
$GLGSV,3,3,09,71,15,295,14,1*48
$GAGSV,3,1,09,13,65,262,40,08,53,007,36,07,40,284,16,15,38,173,41,7*72
$GAGSV,3,2,09,26,23,318,20,02,20,100,17,03,17,053,26,30,15,153,,7*76
$GAGSV,3,3,09,25,05,055,,7*48
$GAGSV,2,1,07,13,65,262,41,08,53,007,40,07,40,284,18,15,38,173,41,1*75
$GAGSV,2,2,07,26,23,318,18,02,20,100,27,03,17,053,31,1*41
$GBGSV,4,1,13,38,79,052,42,39,73,253,44,08,70,007,39,16,65,234,44,1*7C
$GBGSV,4,2,13,06,63,231,40,13,61,342,42,46,49,137,34,09,47,224,41,1*75
$GBGSV,4,3,13,20,46,041,46,19,42,326,31,37,31,061,36,29,30,224,41,1*72
$GBGSV,4,4,13,36,20,186,24,1*4A
$GBGSV,2,1,08,38,79,052,40,39,73,253,46,46,49,137,36,20,46,041,42,4*7A
$GBGSV,2,2,08,19,42,326,32,37,31,061,36,29,30,224,39,36,20,186,25,4*7E
$GNGGA,104811.000,2500.7987700,N,12132.4819800,E,2,57,0.51,19.98,M,15.25,M,52,3335*4F
$GNRMC,104811.000,A,2500.7987700,N,12132.4819800,E,0.00,54.55,260623,,,D,V*3E
$GPHDT,,T*1B
$GNGGA,104811.200,2500.7987700,N,12132.4819800,E,2,57,0.51,19.96,M,15.25,M,52,3335*43
$GNRMC,104811.200,A,2500.7987700,N,12132.4819800,E,0.00,54.55,260623,,,D,V*3C
$GPHDT,90.262,T*0A
$GNGGA,104811.400,2500.7987700,N,12132.4819800,E,2,57,0.51,19.97,M,15.25,M,52,3335*44
$GNRMC,104811.400,A,2500.7987700,N,12132.4819800,E,0.00,54.55,260623,,,D,V*3A
$GPHDT,90.242,T*08
$GNGGA,104811.600,2500.7987600,N,12132.4819800,E,2,57,0.51,19.97,M,15.25,M,52,3335*47
$GNRMC,104811.600,A,2500.7987600,N,12132.4819800,E,0.00,54.55,260623,,,D,V*39
$GPHDT,90.612,T*09
