$FW : RTK35X,V1.1X0314AS,Lib20210517,1*54
$Tool : LOCOSYS , GNSS Firebird , v1.0.0.19*39
$---------------------------------------------------*2D
8,173,41,7*77
$GAGSV,3,2,09,26,23,318,19,02,20,101,18,03,17,053,24,30,15,153,18,7*79
$GAGSV,3,3,09,25,05,055,19,7*40
$GAGSV,2,1,07,13,65,262,44,08,53,007,40,07,40,284,21,15,38,173,38,1*74
$GAGSV,2,2,07,26,23,318,16,02,20,101,25,03,17,053,20,1*4C
$GBGSV,4,1,13,38,79,051,42,39,73,252,43,08,70,007,34,16,65,233,43,1*74
$GBGSV,4,2,13,06,63,231,38,13,61,342,40,46,49,137,37,09,47,224,41,1*7B
$GBGSV,4,3,13,20,46,040,45,19,42,325,26,37,31,061,28,29,31,224,39,1*74
$GBGSV,4,4,13,36,19,186,19,1*4E
$GBGSV,2,1,08,38,79,051,42,39,73,252,46,46,49,137,37,20,46,040,36,4*79
$GBGSV,2,2,08,19,42,325,30,37,31,061,29,29,31,224,34,36,19,186,27,4*75
$GNGGA,104732.000,2500.7982500,N,12132.4807800,E,2,55,0.52,20.29,M,15.25,M,13,3335*4D
$GNRMC,104732.000,A,2500.7982500,N,12132.4807800,E,0.00,54.55,260623,,,D,V*38
$GPHDT,,T*1B
$GNGGA,104732.200,2500.7982500,N,12132.4807800,E,2,54,0.52,20.34,M,15.25,M,13,3335*42
$GNRMC,104732.200,A,2500.7982500,N,12132.4807800,E,0.00,54.55,260623,,,D,V*3A
$GPHDT,,T*1B
$GNGGA,104732.400,2500.7982500,N,12132.4807900,E,2,54,0.52,20.40,M,15.25,M,13,3335*46
$GNRMC,104732.400,A,2500.7982500,N,12132.4807900,E,0.00,54.55,260623,,,D,V*3D
$GPHDT,,T*1B
$GNGGA,104732.600,2500.7982400,N,12132.4808000,E,2,54,0.52,20.46,M,15.25,M,13,3335*45
$GNRMC,104732.600,A,2500.7982400,N,12132.4808000,E,0.00,54.55,260623,,,D,V*38
$GPHDT,,T*1B
$GNGGA,104732.800,2500.7982300,N,12132.4808000,E,2,54,0.52,20.51,M,15.25,M,13,3335*4A
$GNRMC,104732.800,A,2500.7982300,N,12132.4808000,E,0.00,54.55,260623,,,D,V*31
$GPHDT,,T*1B
$GNGSA,A,3,24,196,18,199,15,195,23,05,194,13,,,1.01,0.52,0.86,1*0B
$GNGSA,A,3,85,80,70,84,79,69,73,,,,,,1.01,0.52,0.86,2*00
$GNGSA,A,3,13,08,07,15,03,,,,,,,,1.01,0.52,0.86,3*00
$GNGSA,A,3,38,39,08,16,06,13,46,09,20,19,37,29,1.01,0.52,0.86,4*09
$GNGSA,A,3,36,,,,,,,,,,,,1.01,0.52,0.86,4*08
$GPGSV,4,1,16,24,80,144,44,196,73,055,38,18,60,287,40,199,60,167,31,1*6B
$GPGSV,4,2,16,45,47,231,40,15,46,027,41,195,41,179,41,23,36,327,28,1*5F
$GPGSV,4,3,16,05,30,102,22,194,24,142,31,13,19,045,40,29,09,209,19,1*50
$GPGSV,4,4,16,20,09,119,,12,09,154,,10,06,309,,32,01,255,,1*64
$GPGSV,2,1,07,24,80,144,44,196,73,055,44,199,60,167,39,18,60,287,41,8*66
$GPGSV,2,2,07,195,41,179,36,23,36,327,35,194,24,142,36,8*54
$GLGSV,3,1,09,85,45,273,19,80,42,108,37,70,38,344,34,84,27,197,29,1*77
$GLGSV,3,2,09,79,22,048,29,86,19,321,14,69,19,054,26,73,19,167,24,1*72
$GLGSV,3,3,09,71,15,295,15,1*49
$GAGSV,3,1,09,13,65,262,42,08,53,007,29,07,40,284,18,15,38,173,41,7*70
$GAGSV,3,2,09,26,23,318,22,02,20,101,16,03,17,053,24,30,15,153,16,7*71
$GAGSV,3,3,09,25,05,055,19,7*40
$GAGSV,2,1,06,13,65,262,43,08,53,007,39,07,40,284,20,15,38,173,38,1*7D
$GAGSV,2,2,06,26,23,318,19,02,20,101,24,1*72
$GBGSV,4,1,13,38,79,051,42,39,73,252,43,08,70,007,34,16,65,233,43,1*74
$GBGSV,4,2,13,06,63,231,38,13,61,342,41,46,49,137,37,09,47,224,41,1*7A
$GBGSV,4,3,13,20,46,040,46,19,42,325,29,37,31,061,25,29,31,224,37,1*7B
$GBGSV,4,4,13,36,19,186,19,1*4E
$GBGSV,2,1,07,38,79,051,42,39,73,252,46,46,49,137,37,20,46,040,33,4*73
$GBGSV,2,2,07,19,42,325,32,29,31,224,34,36,19,186,26,4*43
$GNGGA,104733.000,2500.7982300,N,12132.4808100,E,2,53,0.52,20.55,M,15.25,M,14,3335*46
$GNRMC,104733.000,A,2500.7982300,N,12132.4808100,E,0.00,54.55,260623,,,D,V*39
$GPHDT,,T*1B
$GNGGA,104733.200,2500.7982300,N,12132.4808100,E,2,54,0.52,20.60,M,15.25,M,14,3335*45
$GNRMC,104733.200,A,2500.7982300,N,12132.4808100,E,0.00,54.55,260623,,,D,V*3B
$GPHDT,,T*1B
$GNGGA,104733.400,2500.7982300,N,12132.4808300,E,2,54,0.52,20.64,M,15.25,M,14,3335*45
$GNRMC,104733.400,A,2500.7982300,N,12132.4808300,E,0.00,54.55,260623,,,D,V*3F
$GPHDT,,T*1B
$GNGGA,104733.600,2500.7982300,N,12132.4808300,E,2,55,0.52,20.68,M,15.25,M,14,3335*4A
$GNRMC,104733.600,A,2500.7982300,N,12132.4808300,E,0.00,54.55,260623,,,D,V*3D
$GPHDT,,T*1B
$GNGGA,104733.800,2500.7982300,N,12132.4808400,E,2,55,0.52,20.72,M,15.25,M,14,3335*48
$GNRMC,104733.800,A,2500.7982300,N,12132.4808400,E,0.00,54.55,260623,,,D,V*34
$GPHDT,,T*1B
$GNGSA,A,3,24,196,18,199,15,195,23,05,194,13,,,1.01,0.53,0.86,1*0A
$GNGSA,A,3,85,80,70,84,79,69,73,,,,,,1.01,0.53,0.86,2*01
$GNGSA,A,3,13,08,07,15,03,,,,,,,,1.01,0.53,0.86,3*01
$GNGSA,A,3,38,39,08,16,06,13,46,09,20,19,29,36,1.01,0.53,0.86,4*09
$GPGSV,4,1,15,24,80,144,44,196,73,055,38,18,60,287,40,199,60,167,32,1*6B
$GPGSV,4,2,15,45,47,231,40,15,46,027,39,195,41,179,41,23,36,327,28,1*53
$GPGSV,4,3,15,05,30,102,20,194,24,142,32,13,19,045,40,29,09,209,22,1*5A
$GPGSV,4,4,15,20,09,119,,12,09,154,,32,01,255,,1*5A
$GPGSV,2,1,07,24,80,144,44,196,73,055,44,199,60,167,39,18,60,287,42,8*65
$GPGSV,2,2,07,195,41,179,36,23,36,327,35,194,24,142,35,8*57
$GLGSV,3,1,09,85,45,273,20,80,42,108,37,70,38,344,34,84,27,197,29,1*7D
$GLGSV,3,2,09,79,22,048,33,86,19,321,15,69,19,054,25,73,19,167,24,1*7B
$GLGSV,3,3,09,71,15,295,14,1*48
$GAGSV,3,1,09,13,65,262,42,08,53,007,27,07,40,284,18,15,38,173,41,7*7E
$GAGSV,3,2,09,26,23,318,23,02,20,101,16,03,17,053,24,30,15,153,13,7*75
$GAGSV,3,3,09,25,05,055,19,7*40
$GAGSV,2,1,07,13,65,262,43,08,53,007,35,07,40,284,19,15,38,173,38,1*7A
$GAGSV,2,2,07,26,23,318,18,02,20,101,24,03,17,053,25,1*46
$GBGSV,4,1,13,38,79,051,41,39,73,252,44,08,70,007,35,16,65,233,43,1*71
$GBGSV,4,2,13,06,63,231,39,13,61,342,43,46,49,137,37,09,47,224,41,1*79
$GBGSV,4,3,13,20,46,040,44,19,42,326,27,29,31,224,37,37,31,061,,1*73
$GBGSV,4,4,13,36,19,186,22,1*46
$GBGSV,2,1,07,38,79,051,41,39,73,252,46,46,49,137,36,20,46,040,37,4*75
$GBGSV,2,2,07,19,42,326,33,29,31,224,34,36,19,186,26,4*41
$GNGGA,104734.000,2500.7982300,N,12132.4808400,E,2,53,0.53,20.76,M,15.25,M,15,3335*45
$GNRMC,104734.000,A,2500.7982300,N,12132.4808400,E,0.00,54.55,260623,,,D,V*3B
$GPHDT,,T*1B
$GNGGA,104734.200,2500.7982300,N,12132.4808600,E,2,54,0.52,20.79,M,15.25,M,15,3335*4C
$GNRMC,104734.200,A,2500.7982300,N,12132.4808600,E,0.00,54.55,260623,,,D,V*3B
$GPHDT,,T*1B
$GNGGA,104734.400,2500.7982400,N,12132.4808700,E,2,54,0.52,20.84,M,15.25,M,15,3335*4E
$GNRMC,104734.400,A,2500.7982400,N,12132.4808700,E,0.00,54.55,260623,,,D,V*3B
$GPHDT,,T*1B
$GNGGA,104734.600,2500.7982500,N,12132.4808700,E,2,54,0.52,20.88,M,15.25,M,15,3335*41
$GNRMC,104734.600,A,2500.7982500,N,12132.4808700,E,0.00,54.55,260623,,,D,V*38
$GPHDT,,T*1B
$GNGGA,104734.800,2500.7982500,N,12132.4808900,E,2,54,0.52,20.93,M,15.25,M,15,3335*4B
$GNRMC,104734.800,A,2500.7982500,N,12132.4808900,E,0.00,54.55,260623,,,D,V*38
$GPHDT,,T*1B
$GNGSA,A,3,24,196,18,199,15,195,23,05,194,13,,,1.01,0.53,0.86,1*0A
$GNGSA,A,3,85,80,70,84,79,69,73,,,,,,1.01,0.53,0.86,2*01
$GNGSA,A,3,13,08,07,15,03,,,,,,,,1.01,0.53,0.86,3*01
$GNGSA,A,3,38,39,08,16,06,13,46,09,20,19,29,36,1.01,0.53,0.86,4*09
$GPGSV,4,1,16,24,80,144,44,196,73,055,38,18,60,287,40,199,60,167,32,1*68
$GPGSV,4,2,16,45,47,231,40,15,46,027,41,195,41,179,40,23,36,327,28,1*5E
$GPGSV,4,3,16,05,30,102,20,194,24,142,31,13,19,045,36,29,09,209,22,1*5B
$GPGSV,4,4,16,20,09,119,,12,09,154,,10,06,309,,32,01,255,,1*64
$GPGSV,2,1,07,24,80,144,44,196,73,055,44,199,60,167,39,18,60,287,42,8*65
$GPGSV,2,2,07,195,41,179,36,23,36,327,34,194,24,142,36,8*55
$GLGSV,3,1,09,85,45,273,20,80,42,108,37,70,38,344,31,84,27,197,29,1*78
$GLGSV,3,2,09,79,22,048,32,86,19,321,18,69,19,054,22,73,19,167,22,1*76
$GLGSV,3,3,09,71,15,295,16,1*4A
$GAGSV,3,1,09,13,65,262,42,08,53,007,34,07,40,284,15,15,38,173,41,7*71
$GAGSV,3,2,09,26,23,318,24,02,20,101,17,03,17,053,24,30,15,153,12,7*72
$GAGSV,3,3,09,25,05,055,19,7*40
$GAGSV,2,1,07,13,65,262,43,08,53,007,39,07,40,284,19,15,38,173,38,1*76
$GAGSV,2,2,07,26,23,318,19,02,20,101,27,03,17,053,27,1*46
$GBGSV,4,1,13,38,79,051,40,39,73,252,44,08,70,007,37,16,65,233,43,1*72
$GBGSV,4,2,13,06,63,231,39,13,61,342,43,46,49,137,37,09,47,224,41,1*79
$GBGSV,4,3,13,20,46,040,40,19,42,326,28,37,31,061,22,29,31,224,38,1*77
$GBGSV,4,4,13,36,19,186,21,1*45
$GBGSV,2,1,07,38,79,051,42,39,73,252,46,46,49,137,36,20,46,040,41,4*77
$GBGSV,2,2,07,19,42,326,34,29,31,224,35,36,19,186,27,4*46
$GNGGA,104735.000,2500.7982400,N,12132.4809000,E,2,53,0.53,20.98,M,15.25,M,16,3335*45
$GNRMC,104735.000,A,2500.7982400,N,12132.4809000,E,0.00,54.55,260623,,,D,V*38
$GPHDT,,T*1B
$GNGGA,104735.200,2500.7982400,N,12132.4809000,E,2,53,0.53,21.02,M,15.25,M,16,3335*45
$GNRMC,104735.200,A,2500.7982400,N,12132.4809000,E,0.00,54.55,260623,,,D,V*3A
$GPHDT,136.672,T*32
$GNGGA,104735.400,2500.7982400,N,12132.4809100,E,2,53,0.53,21.06,M,15.25,M,16,3335*46
$GNRMC,104735.400,A,2500.7982400,N,12132.4809100,E,0.00,54.55,260623,,,D,V*3D
$GPHDT,136.848,T*35
$GNGGA,104735.600,2500.7982300,N,12132.4809200,E,2,53,0.53,21.10,M,15.25,M,16,3335*47
$GNRMC,104735.600,A,2500.7982300,N,12132.4809200,E,0.00,54.55,260623,,,D,V*3B
$GPHDT,136.786,T*38
$GNGGA,104735.800,2500.7982300,N,12132.4809300,E,2,53,0.52,21.14,M,15.25,M,16,3335*4D
$GNRMC,104735.800,A,2500.7982300,N,12132.4809300,E,0.00,54.55,260623,,,D,V*34
$GPHDT,136.827,T*3C
$GNGSA,A,3,24,196,18,199,15,195,23,05,194,13,,,1.01,0.52,0.86,1*0B
$GNGSA,A,3,85,80,70,84,79,69,73,,,,,,1.01,0.52,0.86,2*00
$GNGSA,A,3,13,08,07,15,03,,,,,,,,1.01,0.52,0.86,3*00
$GNGSA,A,3,38,39,08,16,06,13,46,09,20,19,37,29,1.01,0.52,0.86,4*09
$GNGSA,A,3,36,,,,,,,,,,,,1.01,0.52,0.86,4*08
$GPGSV,4,1,16,24,80,144,44,196,73,055,38,18,60,287,40,199,60,167,31,1*6B
$GPGSV,4,2,16,45,47,231,40,15,46,027,43,195,41,179,40,23,36,327,28,1*5C
$GPGSV,4,3,16,05,30,102,19,194,24,142,30,13,19,045,36,29,09,209,22,1*50
$GPGSV,4,4,16,20,09,119,,12,09,154,,10,06,309,,32,01,255,,1*64
$GPGSV,2,1,07,24,80,144,44,196,73,055,44,199,60,167,39,18,60,287,42,8*65
$GPGSV,2,2,07,195,41,179,36,23,36,327,34,194,24,142,36,8*55
$GLGSV,3,1,09,85,45,273,18,80,42,108,37,70,38,344,32,84,27,197,28,1*71
$GLGSV,3,2,09,79,22,048,26,86,19,321,19,69,19,054,26,73,19,167,23,1*77
$GLGSV,3,3,09,71,15,295,16,1*4A
$GAGSV,3,1,09,13,65,262,42,08,53,007,36,07,40,284,13,15,38,173,41,7*75
$GAGSV,3,2,09,26,23,318,25,02,20,101,19,03,17,053,23,30,15,153,13,7*7B
$GAGSV,3,3,09,25,05,055,19,7*40
$GAGSV,2,1,06,13,65,262,43,08,53,007,40,07,40,284,21,15,38,173,38,1*72
$GAGSV,2,2,06,26,23,318,19,02,20,101,27,1*71
$GBGSV,4,1,13,38,79,051,40,39,73,252,44,08,70,007,37,16,65,233,43,1*72
$GBGSV,4,2,13,06,63,231,39,13,61,342,43,46,49,137,37,09,47,224,41,1*79
$GBGSV,4,3,13,20,46,040,45,19,42,326,27,37,31,061,32,29,31,224,38,1*7C
$GBGSV,4,4,13,36,19,186,22,1*46
$GBGSV,2,1,07,38,79,051,42,39,73,252,46,46,49,137,35,20,46,040,43,4*76
$GBGSV,2,2,07,19,42,326,33,29,31,224,35,36,19,186,27,4*41
$GNGGA,104736.000,2500.7982300,N,12132.4809500,E,2,53,0.52,21.19,M,15.25,M,17,3335*4C
$GNRMC,104736.000,A,2500.7982300,N,12132.4809500,E,0.00,54.55,260623,,,D,V*39
$GPHDT,136.886,T*37
$GNGGA,104736.200,2500.7982300,N,12132.4809700,E,2,54,0.52,21.22,M,15.25,M,17,3335*43
$GNRMC,104736.200,A,2500.7982300,N,12132.4809700,E,0.00,54.55,260623,,,D,V*39
$GPHDT,137.131,T*33
$GNGGA,104736.400,2500.7982400,N,12132.4809800,E,2,54,0.52,21.25,M,15.25,M,17,3335*4A
$GNRMC,104736.400,A,2500.7982400,N,12132.4809800,E,0.00,54.55,260623,,,D,V*37
$GPHDT,137.119,T*39
$GNGGA,104736.600,2500.7982400,N,12132.4809900,E,2,54,0.52,21.27,M,15.25,M,17,3335*4B
$GNRMC,104736.600,A,2500.7982400,N,12132.4809900,E,0.00,54.55,260623,,,D,V*34
$GPHDT,136.756,T*35
$GNGGA,104736.800,2500.7982500,N,12132.4809900,E,2,54,0.52,21.29,M,15.25,M,17,3335*4A
$GNRMC,104736.800,A,2500.7982500,N,12132.4809900,E,0.00,54.55,260623,,,D,V*3B
$GPHDT,136.689,T*36
$GNGSA,A,3,24,196,18,199,15,195,23,05,194,13,,,1.01,0.52,0.86,1*0B
$GNGSA,A,3,85,80,70,84,79,69,73,,,,,,1.01,0.52,0.86,2*00
$GNGSA,A,3,13,08,07,15,03,,,,,,,,1.01,0.52,0.86,3*00
$GNGSA,A,3,38,39,08,16,06,13,46,09,20,19,37,29,1.01,0.52,0.86,4*09
$GNGSA,A,3,36,,,,,,,,,,,,1.01,0.52,0.86,4*08
$GPGSV,4,1,16,24,80,144,44,196,73,055,38,18,60,287,40,199,60,167,31,1*6B
$GPGSV,4,2,16,45,47,231,40,15,46,027,43,195,41,179,40,23,36,327,29,1*5D
$GPGSV,4,3,16,05,30,102,19,194,24,142,31,13,19,045,38,29,09,209,22,1*5F
$GPGSV,4,4,16,20,09,119,,12,09,154,,10,06,309,,32,01,255,,1*64
$GPGSV,2,1,07,24,80,144,44,196,73,055,44,199,60,167,39,18,60,287,42,8*65
$GPGSV,2,2,07,195,41,179,36,23,36,327,34,194,24,142,36,8*55
$GLGSV,3,1,09,85,45,273,18,80,42,108,37,70,38,344,32,84,27,197,28,1*71
$GLGSV,3,2,09,79,22,048,29,86,19,321,19,69,19,054,28,73,19,167,24,1*71
$GLGSV,3,3,09,71,15,295,16,1*4A
$GAGSV,3,1,09,13,65,262,42,08,53,007,36,07,40,284,13,15,38,173,40,7*74
$GAGSV,3,2,09,26,23,318,23,02,20,101,20,03,17,053,23,30,15,153,,7*75
$GAGSV,3,3,09,25,05,055,18,7*41
$GAGSV,2,1,07,13,65,262,43,08,53,007,40,07,40,284,21,15,38,173,38,1*73
$GAGSV,2,2,07,26,23,318,21,02,20,101,27,03,17,053,26,1*4C
$GBGSV,4,1,13,38,79,051,40,39,73,252,44,08,70,007,37,16,65,233,43,1*72
$GBGSV,4,2,13,06,63,231,39,13,61,342,43,46,49,137,37,09,47,224,41,1*79
$GBGSV,4,3,13,20,46,040,46,19,42,326,27,37,31,061,26,29,31,224,39,1*7B
$GBGSV,4,4,13,36,19,186,20,1*44
$GBGSV,2,1,07,38,79,051,42,39,73,252,46,46,49,137,35,20,46,040,44,4*71
$GBGSV,2,2,07,19,42,326,32,29,31,224,35,36,19,186,28,4*4F
$GNGGA,104737.000,2500.7982500,N,12132.4810100,E,2,54,0.52,21.31,M,15.25,M,18,3335*45
$GNRMC,104737.000,A,2500.7982500,N,12132.4810100,E,0.00,54.55,260623,,,D,V*32
$GPHDT,136.850,T*3C
$GNGGA,104737.200,2500.7982500,N,12132.4810200,E,2,54,0.52,21.33,M,15.25,M,18,3335*46
$GNRMC,104737.200,A,2500.7982500,N,12132.4810200,E,0.00,54.55,260623,,,D,V*33
$GPHDT,136.570,T*33
$GNGGA,104737.400,2500.7982500,N,12132.4810300,E,2,54,0.52,21.35,M,15.25,M,18,3335*47
$GNRMC,104737.400,A,2500.7982500,N,12132.4810300,E,0.00,54.55,260623,,,D,V*34
$GPHDT,136.545,T*35
$GNGGA,104737.600,2500.7982600,N,12132.4810400,E,2,54,0.52,21.37,M,15.25,M,18,3335*43
$GNRMC,104737.600,A,2500.7982600,N,12132.4810400,E,0.00,54.55,260623,,,D,V*32
$GPHDT,136.991,T*30
$GNGGA,104737.800,2500.7982600,N,12132.4810500,E,2,54,0.52,21.39,M,15.25,M,18,3335*42
$GNRMC,104737.800,A,2500.7982600,N,12132.4810500,E,0.00,54.55,260623,,,D,V*3D
$GPHDT,136.818,T*30
$GNGSA,A,3,24,196,18,199,15,195,23,05,194,13,,,1.01,0.52,0.86,1*0B
$GNGSA,A,3,85,80,70,84,79,69,73,,,,,,1.01,0.52,0.86,2*00
$GNGSA,A,3,13,08,07,15,03,,,,,,,,1.01,0.52,0.86,3*00
$GNGSA,A,3,38,39,08,16,06,13,46,09,20,19,37,29,1.01,0.52,0.86,4*09
$GNGSA,A,3,36,,,,,,,,,,,,1.01,0.52,0.86,4*08
$GPGSV,4,1,16,24,80,144,44,196,73,055,38,18,60,287,40,199,60,167,31,1*6B
$GPGSV,4,2,16,45,47,231,40,15,46,027,43,195,41,179,40,23,36,327,31,1*54
$GPGSV,4,3,16,05,30,102,20,194,24,142,31,13,19,045,38,29,09,209,22,1*55
$GPGSV,4,4,16,20,09,119,,12,09,154,,10,06,309,,32,01,255,,1*64
$GPGSV,2,1,07,24,80,144,44,196,73,055,44,199,60,167,39,18,60,287,42,8*65
$GPGSV,2,2,07,195,41,179,36,23,36,327,34,194,24,142,36,8*55
$GLGSV,3,1,09,85,45,273,19,80,42,108,37,70,38,344,32,84,27,197,28,1*70
$GLGSV,3,2,09,79,22,048,29,86,19,321,19,69,19,054,29,73,19,167,24,1*70
$GLGSV,3,3,09,71,15,295,16,1*4A
$GAGSV,3,1,09,13,65,262,42,08,53,007,35,07,40,284,12,15,38,173,40,7*76
$GAGSV,3,2,09,26,23,318,24,02,20,101,20,03,17,053,22,30,15,153,,7*73
$GAGSV,3,3,09,25,05,055,17,7*4E
$GAGSV,2,1,07,13,65,262,43,08,53,007,40,07,40,284,21,15,38,173,38,1*73
$GAGSV,2,2,07,26,23,318,21,02,20,101,28,03,17,053,26,1*43
$GBGSV,4,1,13,38,79,052,41,39,73,253,44,08,70,007,37,16,65,233,43,1*71
$GBGSV,4,2,13,06,63,231,39,13,61,342,43,46,49,137,37,09,47,224,41,1*79
$GBGSV,4,3,13,20,46,040,46,19,42,326,27,37,31,061,24,29,31,224,39,1*79
$GBGSV,4,4,13,36,19,186,18,1*4F
$GBGSV,2,1,07,38,79,052,43,39,73,253,46,46,49,137,35,20,46,040,43,4*75
$GBGSV,2,2,07,19,42,326,32,29,31,224,36,36,19,186,28,4*4C
$GNGGA,104738.000,2500.7982600,N,12132.4810700,E,2,54,0.52,21.41,M,15.25,M,19,3335*49
$GNRMC,104738.000,A,2500.7982600,N,12132.4810700,E,0.00,54.55,260623,,,D,V*38
$GPHDT,136.681,T*3E
$GNGGA,104738.200,2500.7982600,N,12132.4810800,E,2,52,0.53,21.43,M,15.25,M,19,3335*41
$GNRMC,104738.200,A,2500.7982600,N,12132.4810800,E,0.00,54.55,260623,,,D,V*35
$GPHDT,136.587,T*3B
$GNGGA,104738.400,2500.7982500,N,12132.4810900,E,2,52,0.53,21.43,M,15.25,M,19,3335*45
$GNRMC,104738.400,A,2500.7982500,N,12132.4810900,E,0.00,54.55,260623,,,D,V*31
$GPHDT,136.572,T*31
$GNGGA,104738.600,2500.7982500,N,12132.4811100,E,2,54,0.52,21.44,M,15.25,M,19,3335*4E
$GNRMC,104738.600,A,2500.7982500,N,12132.4811100,E,0.00,54.55,260623,,,D,V*3A
$GPHDT,136.672,T*32
$GNGGA,104738.800,2500.7982600,N,12132.4811200,E,2,54,0.52,21.45,M,15.25,M,19,3335*41
$GNRMC,104738.800,A,2500.7982600,N,12132.4811200,E,0.00,54.55,260623,,,D,V*34
$GPHDT,136.862,T*3D
$GNGSA,A,3,24,196,18,199,15,195,23,05,194,13,,,1.01,0.52,0.86,1*0B
$GNGSA,A,3,85,80,70,84,79,69,73,,,,,,1.01,0.52,0.86,2*00
$GNGSA,A,3,13,08,07,15,03,,,,,,,,1.01,0.52,0.86,3*00
$GNGSA,A,3,38,39,08,16,06,13,46,09,20,19,29,37,1.01,0.52,0.86,4*09
$GNGSA,A,3,36,,,,,,,,,,,,1.01,0.52,0.86,4*08
$GPGSV,4,1,16,24,80,144,44,196,73,055,38,18,60,287,40,199,60,167,30,1*6A
$GPGSV,4,2,16,45,47,231,40,15,46,027,43,195,41,179,41,23,36,327,31,1*55
$GPGSV,4,3,16,05,30,102,18,194,24,142,31,13,19,045,39,29,09,209,22,1*5F
$GPGSV,4,4,16,20,09,119,,12,09,154,,10,06,309,,32,01,255,,1*64
$GPGSV,2,1,07,24,80,144,45,196,73,055,44,199,60,167,40,18,60,287,42,8*6A
$GPGSV,2,2,07,195,41,179,36,23,36,327,34,194,24,142,36,8*55
$GLGSV,3,1,09,85,45,273,19,80,42,108,37,70,38,344,32,84,27,197,28,1*70
$GLGSV,3,2,09,79,22,048,30,86,19,321,19,69,19,054,28,73,19,167,23,1*7E
$GLGSV,3,3,09,71,15,295,15,1*49
$GAGSV,3,1,09,13,65,262,42,08,53,007,35,07,40,284,12,15,38,173,40,7*76
$GAGSV,3,2,09,26,23,318,24,02,20,101,20,03,17,053,22,30,15,153,17,7*75
$GAGSV,3,3,09,25,05,055,18,7*41
$GAGSV,2,1,07,13,65,262,43,08,53,007,40,07,40,284,23,15,38,173,38,1*71
$GAGSV,2,2,07,26,23,318,21,02,20,101,28,03,17,053,27,1*42
$GBGSV,4,1,14,38,79,052,41,39,73,253,44,08,70,007,37,16,65,233,43,1*76
$GBGSV,4,2,14,06,63,231,39,13,61,342,43,46,49,137,36,09,47,224,41,1*7F
$GBGSV,4,3,14,20,46,040,47,19,42,326,28,29,31,224,39,37,31,061,22,1*76
$GBGSV,4,4,14,35,24,286,,36,19,186,17,1*7B
$GBGSV,2,1,07,38,79,052,43,39,73,253,46,46,49,137,35,20,46,040,44,4*72
$GBGSV,2,2,07,19,42,326,32,29,31,224,36,36,19,186,28,4*4C
$GNGGA,104739.000,2500.7982600,N,12132.4811400,E,2,54,0.52,21.45,M,15.25,M,20,3335*44
$GNRMC,104739.000,A,2500.7982600,N,12132.4811400,E,0.00,54.55,260623,,,D,V*3B
$GPHDT,136.865,T*3A
$GNGGA,104739.200,2500.7982600,N,12132.4811500,E,2,53,0.53,21.46,M,15.25,M,20,3335*42
$GNRMC,104739.200,A,2500.7982600,N,12132.4811500,E,0.00,54.55,260623,,,D,V*38
$GPHDT,136.652,T*30
$GNGGA,104739.400,2500.7982700,N,12132.4811600,E,2,53,0.53,21.47,M,15.25,M,20,3335*47
$GNRMC,104739.400,A,2500.7982700,N,12132.4811600,E,0.00,54.55,260623,,,D,V*3C
$GPHDT,136.818,T*30
$GNGGA,104739.600,2500.7982700,N,12132.4811700,E,2,53,0.53,21.46,M,15.25,M,20,3335*45
$GNRMC,104739.600,A,2500.7982700,N,12132.4811700,E,0.00,54.55,260623,,,D,V*3F
$GPHDT,136.706,T*30
$GNGGA,104739.800,2500.7982700,N,12132.4811700,E,2,53,0.53,21.45,M,15.25,M,20,3335*48
$GNRMC,104739.800,A,2500.7982700,N,12132.4811700,E,0.00,54.55,260623,,,D,V*31
$GPHDT,136.412,T*36
$GNGSA,A,3,24,196,18,199,15,195,23,05,194,13,,,1.01,0.53,0.86,1*0A
$GNGSA,A,3,85,80,70,84,79,69,73,,,,,,1.01,0.53,0.86,2*01
$GNGSA,A,3,13,08,07,15,03,,,,,,,,1.01,0.53,0.86,3*01
$GNGSA,A,3,38,39,08,16,06,13,46,09,20,19,29,36,1.01,0.53,0.86,4*09
$GPGSV,4,1,16,24,80,144,44,196,73,055,38,18,60,287,40,199,60,167,31,1*6B
$GPGSV,4,2,16,45,47,231,40,15,46,027,43,195,41,179,41,23,36,327,31,1*55
$GPGSV,4,3,16,05,30,102,17,194,24,142,31,13,19,045,39,29,09,209,22,1*50
$GPGSV,4,4,16,20,09,119,,12,09,154,,10,06,309,,32,01,255,,1*64
$GPGSV,2,1,07,24,80,144,45,196,73,055,44,199,60,167,40,18,60,287,41,8*69
$GPGSV,2,2,07,195,41,179,37,23,36,327,34,194,24,142,36,8*54
$GLGSV,3,1,09,85,45,273,18,80,42,108,37,70,38,344,32,84,27,197,28,1*71
$GLGSV,3,2,09,79,22,048,31,86,19,321,21,69,19,054,27,73,19,167,23,1*7B
$GLGSV,3,3,09,71,15,295,16,1*4A
$GAGSV,3,1,09,13,65,262,42,08,53,007,35,07,40,284,14,15,38,173,40,7*70
$GAGSV,3,2,09,26,23,318,21,02,20,101,20,03,17,053,22,30,15,153,15,7*72
$GAGSV,3,3,09,25,05,055,18,7*41
$GAGSV,2,1,07,13,65,262,44,08,53,007,40,07,40,284,22,15,38,173,38,1*77
$GAGSV,2,2,07,26,23,318,22,02,20,101,28,03,17,053,27,1*41
$GBGSV,4,1,13,38,79,052,41,39,73,253,44,08,70,007,37,16,65,233,43,1*71
$GBGSV,4,2,13,06,63,231,39,13,61,342,42,46,49,137,36,09,47,224,41,1*79
$GBGSV,4,3,13,20,46,040,47,19,42,326,29,37,31,061,21,29,31,224,39,1*73
$GBGSV,4,4,13,36,19,186,19,1*4E
$GBGSV,2,1,07,38,79,052,43,39,73,253,46,46,49,137,35,20,46,040,44,4*72
$GBGSV,2,2,07,19,42,326,31,29,31,224,36,36,19,186,28,4*4F
$GNGGA,104740.000,2500.7982700,N,12132.4811800,E,2,53,0.53,21.45,M,15.25,M,21,3335*40
$GNRMC,104740.000,A,2500.7982700,N,12132.4811800,E,0.00,54.55,260623,,,D,V*38
$GPHDT,136.425,T*32
$GNGGA,104740.200,2500.7982800,N,12132.4812000,E,2,53,0.53,21.46,M,15.25,M,21,3335*45
$GNRMC,104740.200,A,2500.7982800,N,12132.4812000,E,0.00,54.55,260623,,,D,V*3E
$GPHDT,136.932,T*39
$GNGGA,104740.400,2500.7982800,N,12132.4812100,E,2,53,0.53,21.45,M,15.25,M,21,3335*41
$GNRMC,104740.400,A,2500.7982800,N,12132.4812100,E,0.00,54.55,260623,,,D,V*39
$GPHDT,136.697,T*39
$GNGGA,104740.600,2500.7982800,N,12132.4812200,E,2,53,0.53,21.46,M,15.25,M,21,3335*43
$GNRMC,104740.600,A,2500.7982800,N,12132.4812200,E,0.00,54.55,260623,,,D,V*38
$GPHDT,136.814,T*3C
$GNGGA,104740.800,2500.7982800,N,12132.4812300,E,2,53,0.53,21.47,M,15.25,M,21,3335*4D
$GNRMC,104740.800,A,2500.7982800,N,12132.4812300,E,0.00,54.55,260623,,,D,V*37
$GPHDT,136.755,T*36
$GNGSA,A,3,24,196,18,199,15,195,23,05,194,13,,,1.01,0.53,0.86,1*0A
$GNGSA,A,3,85,80,70,84,79,69,73,,,,,,1.01,0.53,0.86,2*01
$GNGSA,A,3,13,08,07,15,03,,,,,,,,1.01,0.53,0.86,3*01
$GNGSA,A,3,38,39,08,16,06,13,46,09,20,19,29,36,1.01,0.53,0.86,4*09
$GPGSV,4,1,16,24,80,144,44,196,73,055,38,18,60,287,39,199,60,167,31,1*65
$GPGSV,4,2,16,45,47,231,40,15,46,027,43,195,41,179,41,23,36,327,30,1*54
$GPGSV,4,3,16,05,30,102,16,194,24,142,31,13,19,045,37,29,09,209,22,1*5F
$GPGSV,4,4,16,20,09,119,,12,09,154,,10,06,309,,32,01,255,,1*64
$GPGSV,2,1,07,24,80,144,45,196,73,055,44,199,60,167,40,18,60,287,42,8*6A
$GPGSV,2,2,07,195,41,179,37,23,36,327,34,194,24,142,36,8*54
$GLGSV,3,1,09,85,45,273,17,80,42,108,37,70,38,344,32,84,27,197,29,1*7F
$GLGSV,3,2,09,79,22,048,28,86,19,321,22,69,19,054,26,73,19,167,24,1*76
$GLGSV,3,3,09,71,15,295,15,1*49
$GAGSV,3,1,09,13,65,262,43,08,53,007,35,07,40,284,14,15,38,173,40,7*71
$GAGSV,3,2,09,26,23,318,21,02,20,101,19,03,17,053,22,30,15,153,15,7*78
$GAGSV,3,3,09,25,05,055,19,7*40
$GAGSV,2,1,07,13,65,262,44,08,53,007,40,07,40,284,20,15,38,173,38,1*75
$GAGSV,2,2,07,26,23,318,21,02,20,101,28,03,17,053,24,1*41
$GBGSV,4,1,13,38,79,052,41,39,73,253,44,08,70,007,37,16,65,233,43,1*71
$GBGSV,4,2,13,06,63,231,39,13,61,342,42,46,49,137,36,09,47,224,41,1*79
$GBGSV,4,3,13,20,46,040,47,19,42,326,29,37,31,061,,29,31,224,39,1*70
$GBGSV,4,4,13,36,19,186,20,1*44
$GBGSV,2,1,07,38,79,052,43,39,73,253,46,46,49,137,35,20,46,040,44,4*72
$GBGSV,2,2,07,19,42,326,33,29,31,224,36,36,19,186,26,4*43
$GNGGA,104741.000,2500.7982800,N,12132.4812500,E,2,53,0.53,21.47,M,15.25,M,22,3335*41
$GNRMC,104741.000,A,2500.7982800,N,12132.4812500,E,0.00,54.55,260623,,,D,V*38
$GPHDT,136.570,T*33
$GNGGA,104741.200,2500.7982700,N,12132.4812600,E,2,53,0.53,21.46,M,15.25,M,22,3335*4E
$GNRMC,104741.200,A,2500.7982700,N,12132.4812600,E,0.00,54.55,260623,,,D,V*36
$GPHDT,136.459,T*39
$GNGGA,104741.400,2500.7982600,N,12132.4812800,E,2,52,0.53,21.45,M,15.25,M,22,3335*45
$GNRMC,104741.400,A,2500.7982600,N,12132.4812800,E,0.00,54.55,260623,,,D,V*3F
$GPHDT,136.555,T*34
$GNGGA,104741.600,2500.7982600,N,12132.4812900,E,2,52,0.53,21.44,M,15.25,M,22,3335*47
$GNRMC,104741.600,A,2500.7982600,N,12132.4812900,E,0.00,54.55,260623,,,D,V*3C
$GPHDT,136.660,T*31
$GNGGA,104741.800,2500.7982600,N,12132.4813000,E,2,52,0.53,21.44,M,15.25,M,22,3335*41
$GNRMC,104741.800,A,2500.7982600,N,12132.4813000,E,0.00,54.55,260623,,,D,V*3A
$GPHDT,137.167,T*30
$GNGSA,A,3,24,196,18,199,15,195,23,05,194,13,,,1.01,0.53,0.86,1*0A
$GNGSA,A,3,85,80,70,84,79,69,73,,,,,,1.01,0.53,0.86,2*01
$GNGSA,A,3,13,08,07,15,03,,,,,,,,1.01,0.53,0.86,3*01
$GNGSA,A,3,38,39,08,16,06,13,46,09,20,19,29,36,1.01,0.53,0.86,4*09
$GPGSV,4,1,16,24,80,144,44,196,73,055,38,18,60,287,39,199,60,167,31,1*65
$GPGSV,4,2,16,45,47,231,40,15,46,027,43,195,41,179,41,23,36,327,29,1*5C
$GPGSV,4,3,16,05,30,102,16,194,24,142,29,13,19,045,35,29,09,209,22,1*54
$GPGSV,4,4,16,20,09,119,,12,09,154,,10,06,309,,32,01,255,,1*64
$GPGSV,2,1,07,24,80,144,45,196,73,055,44,199,60,167,40,18,60,287,42,8*6A
$GPGSV,2,2,07,195,41,179,37,23,36,327,33,194,24,142,35,8*50
$GLGSV,3,1,09,85,45,273,15,80,42,108,37,70,38,344,32,84,27,197,29,1*7D
$GLGSV,3,2,09,79,22,048,29,86,19,321,22,69,19,054,25,73,19,167,24,1*74
$GLGSV,3,3,09,71,15,295,14,1*48
$GAGSV,3,1,09,13,65,262,43,08,53,007,35,07,40,284,13,15,38,173,40,7*76
$GAGSV,3,2,09,26,23,318,21,02,20,101,19,03,17,053,23,30,15,153,16,7*7A
$GAGSV,3,3,09,25,05,055,19,7*40
$GAGSV,2,1,06,13,65,262,44,08,53,007,41,07,40,284,19,15,38,173,38,1*7F
$GAGSV,2,2,06,26,23,318,20,02,20,101,29,1*75
$GBGSV,4,1,14,38,79,052,41,39,73,253,44,08,70,007,38,16,65,233,43,1*79
$GBGSV,4,2,14,06,63,231,39,13,61,342,41,46,49,137,38,09,47,224,41,1*73
$GBGSV,4,3,14,20,46,040,47,19,42,326,29,29,31,224,39,37,31,061,,1*77
$GBGSV,4,4,14,36,19,186,22,30,06,176,,1*74
$GBGSV,2,1,07,38,79,052,43,39,73,253,46,46,49,137,35,20,46,040,45,4*73
$GBGSV,2,2,07,19,42,326,33,29,31,224,36,36,19,186,28,4*4D
$GNGGA,104742.000,2500.7982600,N,12132.4813100,E,2,52,0.53,21.45,M,15.25,M,23,3335*4B
$GNRMC,104742.000,A,2500.7982600,N,12132.4813100,E,0.00,54.55,260623,,,D,V*30
$GPHDT,136.510,T*35
$GNGGA,104742.200,2500.7982500,N,12132.4813200,E,2,54,0.52,21.44,M,15.25,M,23,3335*4F
$GNRMC,104742.200,A,2500.7982500,N,12132.4813200,E,0.00,54.55,260623,,,D,V*32
$GPHDT,137.024,T*36
$GNGGA,104742.400,2500.7982500,N,12132.4813300,E,2,53,0.53,21.44,M,15.25,M,23,3335*4E
$GNRMC,104742.400,A,2500.7982500,N,12132.4813300,E,0.00,54.55,260623,,,D,V*35
$GPHDT,137.020,T*32
$GNGGA,104742.600,2500.7982500,N,12132.4813400,E,2,54,0.53,21.43,M,15.25,M,23,3335*4B
$GNRMC,104742.600,A,2500.7982500,N,12132.4813400,E,0.00,54.55,260623,,,D,V*30
$GPHDT,136.786,T*38
$GNGGA,104742.800,2500.7982400,N,12132.4813500,E,2,54,0.53,21.40,M,15.25,M,23,3335*46
$GNRMC,104742.800,A,2500.7982400,N,12132.4813500,E,0.00,54.55,260623,,,D,V*3E
$GPHDT,136.746,T*34
$GNGSA,A,3,24,196,18,199,15,195,23,194,13,,,,1.01,0.53,0.86,1*0F
$GNGSA,A,3,85,80,70,84,79,69,73,,,,,,1.01,0.53,0.86,2*01
$GNGSA,A,3,13,08,07,15,02,03,,,,,,,1.01,0.53,0.86,3*03
$GNGSA,A,3,38,39,08,16,06,13,46,09,20,19,29,36,1.01,0.53,0.86,4*09
$GPGSV,4,1,16,24,80,144,44,196,73,055,38,18,60,287,39,199,60,167,31,1*65
$GPGSV,4,2,16,45,47,231,40,15,46,027,43,195,41,179,42,23,36,327,29,1*5F
$GPGSV,4,3,16,05,30,102,,194,24,142,26,13,19,045,37,29,09,209,,1*5E
$GPGSV,4,4,16,20,09,119,,12,09,154,,10,06,309,,32,01,255,,1*64
$GPGSV,2,1,07,24,80,144,45,196,73,055,44,199,60,167,40,18,60,287,42,8*6A
$GPGSV,2,2,07,195,41,179,36,23,36,327,32,194,24,142,33,8*56
$GLGSV,3,1,09,85,45,273,17,80,42,108,35,70,38,344,31,84,27,197,29,1*7E
$GLGSV,3,2,09,79,22,048,29,86,19,321,22,69,19,054,23,73,19,167,23,1*75
$GLGSV,3,3,09,71,15,295,15,1*49
$GAGSV,3,1,09,13,65,262,43,08,53,007,36,07,40,284,14,15,38,173,39,7*7C
$GAGSV,3,2,09,26,23,318,19,02,20,101,19,03,17,053,23,30,15,153,16,7*71
$GAGSV,3,3,09,25,05,055,19,7*40
$GAGSV,2,1,07,13,65,262,44,08,53,007,40,07,40,284,18,15,38,173,36,1*70
$GAGSV,2,2,07,26,23,318,17,02,20,101,29,03,17,053,27,1*46
$GBGSV,4,1,13,38,79,052,41,39,73,253,44,08,70,007,38,16,65,233,43,1*7E
$GBGSV,4,2,13,06,63,231,39,13,61,342,41,46,49,137,37,09,47,224,41,1*7B
$GBGSV,4,3,13,20,46,040,47,19,42,326,26,29,31,224,39,37,31,061,,1*7F
$GBGSV,4,4,13,36,19,186,20,1*44
$GBGSV,2,1,08,38,79,052,43,39,73,253,46,46,49,137,35,20,46,040,45,4*7C
$GBGSV,2,2,08,19,42,326,31,29,31,224,36,37,31,061,11,36,19,186,26,4*7F
$GNGGA,104743.000,2500.7982500,N,12132.4813600,E,2,54,0.53,21.36,M,15.25,M,24,3335*4B
$GNRMC,104743.000,A,2500.7982500,N,12132.4813600,E,0.00,54.55,260623,,,D,V*35
$GPHDT,136.219,T*3B
$GNGGA,104743.200,2500.7982500,N,12132.4813700,E,2,54,0.53,21.34,M,15.25,M,24,3335*4A
$GNRMC,104743.200,A,2500.7982500,N,12132.4813700,E,0.00,54.55,260623,,,D,V*36
$GPHDT,136.896,T*36
$GNGGA,104743.400,2500.7982600,N,12132.4813800,E,2,54,0.53,21.31,M,15.25,M,24,3335*45
$GNRMC,104743.400,A,2500.7982600,N,12132.4813800,E,0.00,54.55,260623,,,D,V*3C
$GPHDT,136.465,T*36
$GNGGA,104743.600,2500.7982800,N,12132.4813800,E,2,54,0.53,21.30,M,15.25,M,24,3335*48
$GNRMC,104743.600,A,2500.7982800,N,12132.4813800,E,0.00,54.55,260623,,,D,V*30
$GPHDT,136.468,T*3B
$GNGGA,104743.800,2500.7982800,N,12132.4813900,E,2,55,0.52,21.29,M,15.25,M,24,3335*4F
$GNRMC,104743.800,A,2500.7982800,N,12132.4813900,E,0.00,54.55,260623,,,D,V*3F
$GPHDT,136.117,T*36
$GNGSA,A,3,24,196,18,199,15,195,23,05,194,13,,,1.00,0.52,0.86,1*0A
$GNGSA,A,3,85,80,70,84,79,69,73,,,,,,1.00,0.52,0.86,2*01
$GNGSA,A,3,13,08,07,15,02,03,,,,,,,1.00,0.52,0.86,3*03
$GNGSA,A,3,38,39,08,16,06,13,46,09,20,19,29,36,1.00,0.52,0.86,4*09
$GPGSV,4,1,16,24,80,144,44,196,73,055,38,18,60,287,39,199,60,167,30,1*64
$GPGSV,4,2,16,45,47,231,40,15,46,027,44,195,41,179,40,23,36,327,27,1*54
$GPGSV,4,3,16,05,30,103,16,194,24,142,31,13,19,045,38,29,09,209,,1*51
$GPGSV,4,4,16,20,09,119,,12,09,154,,10,06,309,,32,01,255,,1*64
$GPGSV,2,1,07,24,80,144,45,196,73,055,44,199,60,167,39,18,60,287,42,8*64
$GPGSV,2,2,07,195,41,179,34,23,36,327,32,194,24,142,35,8*52
$GLGSV,3,1,09,85,45,273,18,80,42,108,36,70,38,344,28,84,27,197,29,1*7A
$GLGSV,3,2,09,79,22,048,30,86,19,321,20,69,19,054,25,73,19,167,21,1*7B
$GLGSV,3,3,09,71,15,295,13,1*4F
$GAGSV,3,1,09,13,65,262,43,08,53,007,33,07,40,284,16,15,38,173,28,7*7B
$GAGSV,3,2,09,26,23,318,20,02,20,101,20,03,17,053,23,30,15,153,15,7*72
$GAGSV,3,3,09,25,05,055,19,7*40
$GAGSV,2,1,07,13,65,262,44,08,53,007,40,07,40,284,17,15,38,173,35,1*7C
$GAGSV,2,2,07,26,23,318,18,02,20,101,28,03,17,053,25,1*4A
$GBGSV,4,1,13,38,79,052,40,39,73,253,43,08,70,007,37,16,65,233,43,1*77
$GBGSV,4,2,13,06,63,231,40,13,61,342,40,46,49,137,38,09,47,224,41,1*7B
$GBGSV,4,3,13,20,46,040,48,19,42,326,28,29,31,224,39,37,31,061,,1*7E
$GBGSV,4,4,13,36,19,186,20,1*44
$GBGSV,2,1,07,38,79,052,43,39,73,253,46,46,49,137,36,20,46,040,45,4*70
$GBGSV,2,2,07,19,42,326,30,29,31,224,36,36,19,186,27,4*41
$GNGGA,104744.000,2500.7982900,N,12132.4814000,E,2,55,0.52,21.27,M,15.25,M,25,3335*40
$GNRMC,104744.000,A,2500.7982900,N,12132.4814000,E,0.00,54.55,260623,,,D,V*3F
$GPHDT,135.838,T*31
$GNGGA,104744.200,2500.7982900,N,12132.4814100,E,2,55,0.52,21.26,M,15.25,M,25,3335*42
$GNRMC,104744.200,A,2500.7982900,N,12132.4814100,E,0.00,54.55,260623,,,D,V*3C
$GPHDT,136.402,T*37
$GNGGA,104744.400,2500.7983000,N,12132.4814000,E,2,55,0.52,21.25,M,15.25,M,25,3335*4E
$GNRMC,104744.400,A,2500.7983000,N,12132.4814000,E,0.00,54.55,260623,,,D,V*33
$GPHDT,136.499,T*35
$GNGGA,104744.600,2500.7983000,N,12132.4814000,E,2,55,0.52,21.25,M,15.25,M,25,3335*4C
$GNRMC,104744.600,A,2500.7983000,N,12132.4814000,E,0.00,54.55,260623,,,D,V*31
$GPHDT,136.915,T*3C
$GNGGA,104744.800,2500.7983000,N,12132.4814000,E,2,55,0.52,21.23,M,15.25,M,25,3335*44
$GNRMC,104744.800,A,2500.7983000,N,12132.4814000,E,0.00,54.55,260623,,,D,V*3F
$GPHDT,137.206,T*34
$GNGSA,A,3,24,196,18,199,15,195,23,05,194,13,,,1.00,0.51,0.86,1*09
$GNGSA,A,3,85,80,70,84,79,69,73,,,,,,1.00,0.51,0.86,2*02
$GNGSA,A,3,13,08,07,15,02,03,,,,,,,1.00,0.51,0.86,3*00
$GNGSA,A,3,38,39,08,16,06,13,46,09,20,19,29,37,1.00,0.51,0.86,4*0B
$GNGSA,A,3,36,,,,,,,,,,,,1.00,0.51,0.86,4*0A
$GPGSV,4,1,16,24,80,144,44,196,73,055,38,18,60,287,37,199,60,167,30,1*6A
$GPGSV,4,2,16,45,47,231,38,15,46,027,44,195,41,179,40,23,36,327,28,1*54
$GPGSV,4,3,16,05,30,103,17,194,24,142,34,13,19,045,35,12,10,154,,1*53
$GPGSV,4,4,16,29,09,209,24,20,09,119,,10,06,309,,32,01,255,,1*61
$GPGSV,2,1,07,24,80,144,45,196,73,055,44,199,60,167,38,18,60,287,40,8*67
$GPGSV,2,2,07,195,41,179,39,23,36,327,33,194,24,142,36,8*5D
$GLGSV,3,1,09,85,45,273,19,80,42,108,35,70,38,344,30,84,27,197,26,1*7E
$GLGSV,3,2,09,79,22,048,30,86,19,321,21,69,19,054,26,73,19,167,21,1*79
$GLGSV,3,3,09,71,15,295,13,1*4F
$GAGSV,3,1,09,13,65,262,43,08,53,007,36,07,40,284,16,15,38,173,26,7*70
$GAGSV,3,2,09,26,23,318,21,02,20,101,22,03,17,053,22,30,15,153,15,7*70
$GAGSV,3,3,09,25,05,055,18,7*41
$GAGSV,2,1,07,13,65,262,43,08,53,007,40,07,40,284,17,15,38,173,32,1*7C
$GAGSV,2,2,07,26,23,318,19,02,20,101,27,03,17,053,29,1*48
$GBGSV,4,1,13,38,79,052,40,39,73,253,44,08,70,007,38,16,65,233,44,1*78
$GBGSV,4,2,13,06,63,231,41,13,61,342,40,46,49,137,38,09,47,224,42,1*79
$GBGSV,4,3,13,20,46,040,48,19,42,326,29,29,31,224,40,37,31,061,35,1*77
$GBGSV,4,4,13,36,19,186,22,1*46
$GBGSV,2,1,07,38,79,052,43,39,73,253,46,46,49,137,35,20,46,040,45,4*73
$GBGSV,2,2,07,19,42,326,30,29,31,224,35,36,19,186,28,4*4D
$GNGGA,104745.000,2500.7983100,N,12132.4813900,E,2,56,0.51,21.24,M,15.25,M,26,3335*46
$GNRMC,104745.000,A,2500.7983100,N,12132.4813900,E,0.00,54.55,260623,,,D,V*39
$GPHDT,136.945,T*39
$GNGGA,104745.200,2500.7983100,N,12132.4813900,E,2,56,0.51,21.23,M,15.25,M,26,3335*43
$GNRMC,104745.200,A,2500.7983100,N,12132.4813900,E,0.00,54.55,260623,,,D,V*3B
$GPHDT,136.664,T*35
$GNGGA,104745.400,2500.7983200,N,12132.4813900,E,2,56,0.51,21.20,M,15.25,M,26,3335*45
$GNRMC,104745.400,A,2500.7983200,N,12132.4813900,E,0.00,54.55,260623,,,D,V*3E
$GPHDT,137.105,T*34
$GNGGA,104745.600,2500.7983300,N,12132.4814000,E,2,56,0.51,21.16,M,15.25,M,26,3335*4D
$GNRMC,104745.600,A,2500.7983300,N,12132.4814000,E,0.00,54.55,260623,,,D,V*33
$GPHDT,136.670,T*30
$GNGGA,104745.800,2500.7983400,N,12132.4814100,E,2,55,0.52,21.15,M,15.25,M,26,3335*46
$GNRMC,104745.800,A,2500.7983400,N,12132.4814100,E,0.00,54.55,260623,,,D,V*3B
$GPHDT,136.414,T*30
$GNGSA,A,3,24,196,18,199,15,195,23,05,194,13,,,1.00,0.52,0.86,1*0A
$GNGSA,A,3,85,80,70,84,79,69,73,,,,,,1.00,0.52,0.86,2*01
$GNGSA,A,3,13,08,07,15,02,03,,,,,,,1.00,0.52,0.86,3*03
$GNGSA,A,3,38,39,08,16,06,13,46,09,20,19,29,36,1.00,0.52,0.86,4*09
$GPGSV,4,1,16,24,80,144,44,196,73,055,38,18,60,286,38,199,60,167,25,1*60
$GPGSV,4,2,16,45,47,231,41,15,46,028,45,195,41,179,38,23,36,327,30,1*52
$GPGSV,4,3,16,05,30,103,19,194,24,142,34,13,19,045,39,12,10,154,,1*51
$GPGSV,4,4,16,29,09,209,23,20,09,119,,10,06,309,,32,01,255,,1*66
$GPGSV,2,1,07,24,80,144,44,196,73,055,44,199,60,167,29,18,60,286,43,8*64
$GPGSV,2,2,07,195,41,179,34,23,36,327,34,194,24,142,35,8*54
$GLGSV,3,1,09,85,45,273,19,80,42,108,36,70,38,344,32,84,27,197,24,1*7D
$GLGSV,3,2,09,79,22,048,31,86,19,321,23,69,19,054,24,73,19,167,22,1*7B
$GLGSV,3,3,09,71,15,295,17,1*4B
$GAGSV,3,1,09,13,65,262,43,08,53,007,36,07,40,284,17,15,38,173,24,7*73
$GAGSV,3,2,09,26,23,318,21,02,20,101,21,03,17,053,23,30,15,153,17,7*70
$GAGSV,3,3,09,25,05,055,18,7*41
$GAGSV,2,1,07,13,65,262,44,08,53,007,41,07,40,284,17,15,38,173,32,1*7A
$GAGSV,2,2,07,26,23,318,19,02,20,101,24,03,17,053,28,1*4A
$GBGSV,4,1,13,38,79,052,40,39,73,253,44,08,70,007,38,16,65,233,44,1*78
$GBGSV,4,2,13,06,63,231,40,13,61,342,40,46,49,137,38,09,47,224,41,1*7B
$GBGSV,4,3,13,20,46,040,48,19,42,326,31,29,31,224,38,37,31,061,27,1*72
$GBGSV,4,4,13,36,19,186,22,1*46
$GBGSV,2,1,07,38,79,052,43,39,73,253,46,46,49,137,33,20,46,040,45,4*75
$GBGSV,2,2,07,19,42,326,32,29,31,224,38,36,19,186,23,4*49
$GNGGA,104746.000,2500.7983400,N,12132.4814200,E,2,55,0.52,21.12,M,15.25,M,27,3335*48
$GNRMC,104746.000,A,2500.7983400,N,12132.4814200,E,0.00,54.55,260623,,,D,V*33
$GPHDT,136.347,T*31
$GNGGA,104746.200,2500.7983500,N,12132.4814300,E,2,55,0.52,21.10,M,15.25,M,27,3335*48
$GNRMC,104746.200,A,2500.7983500,N,12132.4814300,E,0.00,54.55,260623,,,D,V*31
$GPHDT,136.761,T*31
$GNGGA,104746.400,2500.7983600,N,12132.4814400,E,2,56,0.51,21.07,M,15.25,M,27,3335*4C
$GNRMC,104746.400,A,2500.7983600,N,12132.4814400,E,0.00,54.55,260623,,,D,V*33
$GPHDT,136.907,T*3F
$GNGGA,104746.600,2500.7983700,N,12132.4814400,E,2,56,0.51,21.04,M,15.25,M,27,3335*4C
$GNRMC,104746.600,A,2500.7983700,N,12132.4814400,E,0.00,54.55,260623,,,D,V*30
$GPHDT,136.021,T*32
$GNGGA,104746.800,2500.7983700,N,12132.4814600,E,2,55,0.52,21.01,M,15.25,M,27,3335*45
$GNRMC,104746.800,A,2500.7983700,N,12132.4814600,E,0.00,54.55,260623,,,D,V*3C
$GPHDT,135.768,T*3B
$GNGSA,A,3,24,196,18,199,15,195,23,05,194,13,,,1.00,0.52,0.86,1*0A
$GNGSA,A,3,85,80,70,84,79,69,73,,,,,,1.00,0.52,0.86,2*01
$GNGSA,A,3,13,08,07,15,02,03,,,,,,,1.00,0.52,0.86,3*03
$GNGSA,A,3,38,39,08,16,06,13,46,09,20,19,29,36,1.00,0.52,0.86,4*09
$GPGSV,4,1,16,24,80,144,39,196,73,055,39,18,60,286,37,199,60,167,21,1*60
$GPGSV,4,2,16,45,47,231,30,15,46,028,45,195,41,179,30,23,36,327,30,1*5C
$GPGSV,4,3,16,05,30,103,19,194,24,142,29,13,19,045,40,12,10,154,,1*53
$GPGSV,4,4,16,29,09,209,19,20,09,119,,10,06,309,17,32,01,255,,1*69
$GPGSV,2,1,07,24,80,144,40,196,73,055,43,199,60,167,23,18,60,286,39,8*60
$GPGSV,2,2,07,195,41,179,32,23,36,327,35,194,24,142,29,8*5E
$GLGSV,3,1,09,85,45,273,23,80,42,108,36,70,38,344,23,84,27,197,20,1*70
$GLGSV,3,2,09,79,22,048,33,86,19,321,20,69,19,054,25,73,19,167,21,1*78
$GLGSV,3,3,09,71,15,295,18,1*44
$GAGSV,3,1,09,13,65,262,32,08,53,007,34,07,40,284,18,15,38,173,26,7*7A
$GAGSV,3,2,09,26,23,318,19,02,20,101,22,03,17,053,20,30,15,153,15,7*79
$GAGSV,3,3,09,25,05,055,16,7*4F
$GAGSV,2,1,07,13,65,262,41,08,53,007,39,07,40,284,15,15,38,173,30,1*70
$GAGSV,2,2,07,26,23,318,19,02,20,101,24,03,17,053,28,1*4A
$GBGSV,4,1,13,38,79,052,39,39,73,253,33,08,70,007,37,16,65,233,29,1*72
$GBGSV,4,2,13,06,63,231,28,13,61,342,38,46,49,137,22,09,47,224,32,1*75
$GBGSV,4,3,13,20,46,040,48,19,42,326,35,29,31,224,32,37,31,061,24,1*7F
$GBGSV,4,4,13,36,19,186,22,1*46
$GBGSV,2,1,07,38,79,052,40,39,73,253,39,46,49,137,23,20,46,040,47,4*7D
$GBGSV,2,2,07,19,42,326,33,29,31,224,24,36,19,186,21,4*47
$GNGGA,104747.000,2500.7983800,N,12132.4814900,E,2,55,0.52,20.99,M,15.25,M,28,3335*43
$GNRMC,104747.000,A,2500.7983800,N,12132.4814900,E,0.00,54.55,260623,,,D,V*35
$GPHDT,134.805,T*3E
$GNGGA,104747.200,2500.7984000,N,12132.4815000,E,2,55,0.52,20.92,M,15.25,M,28,3335*4D
$GNRMC,104747.200,A,2500.7984000,N,12132.4815000,E,0.01,54.55,260623,,,D,V*31
$GPHDT,130.454,T*32
$GNGGA,104747.400,2500.7984100,N,12132.4815300,E,2,56,0.51,20.86,M,15.25,M,28,3335*4C
$GNRMC,104747.400,A,2500.7984100,N,12132.4815300,E,0.00,54.55,260623,,,D,V*34
$GPHDT,,T*1B
$GNGGA,104747.600,2500.7984100,N,12132.4815600,E,2,56,0.51,20.80,M,15.25,M,28,3335*4D
$GNRMC,104747.600,A,2500.7984100,N,12132.4815600,E,0.00,54.55,260623,,,D,V*33
$GPHDT,,T*1B
$GNGGA,104747.800,2500.7984300,N,12132.4815800,E,2,56,0.51,20.76,M,15.25,M,28,3335*46
$GNRMC,104747.800,A,2500.7984300,N,12132.4815800,E,0.00,54.55,260623,,,D,V*31
$GPHDT,,T*1B
$GNGSA,A,3,24,196,18,199,15,195,23,05,194,13,,,1.00,0.51,0.86,1*09
$GNGSA,A,3,85,80,70,84,79,69,73,,,,,,1.00,0.51,0.86,2*02
$GNGSA,A,3,13,08,07,15,02,03,,,,,,,1.00,0.51,0.86,3*00
$GNGSA,A,3,38,39,08,16,06,13,46,09,20,19,37,36,1.00,0.51,0.86,4*05
$GNGSA,A,3,29,,,,,,,,,,,,1.00,0.51,0.86,4*04
$GPGSV,4,1,16,24,80,143,36,196,73,055,39,18,60,286,35,199,60,167,19,1*61
$GPGSV,4,2,16,45,47,231,29,15,46,028,44,195,41,179,28,23,36,327,26,1*5B
$GPGSV,4,3,16,05,30,103,17,194,24,142,30,13,19,045,41,12,10,154,,1*54
$GPGSV,4,4,16,29,09,209,21,20,09,119,,10,06,309,,32,01,255,,1*64
$GPGSV,2,1,07,24,80,143,38,196,73,055,43,199,60,167,21,18,60,286,37,8*64
$GPGSV,2,2,07,195,41,179,29,23,36,327,34,194,24,142,23,8*5F
$GLGSV,3,1,09,85,45,273,23,80,42,108,27,70,38,344,32,84,27,197,18,1*7B
$GLGSV,3,2,09,79,22,048,30,86,19,321,18,69,19,054,29,73,19,167,18,1*76
$GLGSV,3,3,09,71,15,295,16,1*4A
$GAGSV,3,1,09,13,65,262,32,08,53,007,35,07,40,284,18,15,38,173,22,7*7F
$GAGSV,3,2,09,26,23,318,17,02,20,101,19,03,17,053,16,30,15,153,14,7*7B
$GAGSV,3,3,09,25,05,055,14,7*4D
$GAGSV,2,1,07,13,65,262,40,08,53,007,38,07,40,284,13,15,38,173,30,1*76
$GAGSV,2,2,07,26,23,318,24,02,20,101,26,03,17,053,34,1*4B
$GBGSV,4,1,13,38,79,052,38,39,73,253,37,08,70,007,32,16,65,233,31,1*7B
$GBGSV,4,2,13,06,63,231,24,13,61,342,40,46,49,137,26,09,47,224,28,1*79
$GBGSV,4,3,13,20,46,040,48,19,42,326,34,29,31,224,20,37,31,061,34,1*7C
$GBGSV,4,4,13,36,19,186,20,1*44
$GBGSV,2,1,07,38,79,052,38,39,73,253,40,46,49,137,28,20,46,040,47,4*77
$GBGSV,2,2,07,19,42,326,33,29,31,224,31,36,19,186,18,4*49
$GNGGA,104748.000,2500.7984400,N,12132.4815800,E,2,55,0.51,20.71,M,15.25,M,29,3335*43
$GNRMC,104748.000,A,2500.7984400,N,12132.4815800,E,0.00,54.55,260623,,,D,V*31
$PAIR010,0,0,2268,125286*3F
$GPHDT,,T*1B
$GNGGA,104748.200,2500.7984600,N,12132.4815800,E,2,56,0.51,20.67,M,15.25,M,29,3335*47
$GNRMC,104748.200,A,2500.7984600,N,12132.4815800,E,0.00,54.55,260623,,,D,V*31
$GPHDT,,T*1B
$GNGGA,104748.400,2500.7984700,N,12132.4815600,E,2,55,0.51,20.66,M,15.25,M,29,3335*4C
$GNRMC,104748.400,A,25