$FW : RTK35X,V1.1X0314AS,Lib20210517,1*54
$Tool : LOCOSYS , GNSS Firebird , v1.0.0.19*39
$---------------------------------------------------*2D
500,E,1,29,0.86,5.84,M,15.25,M,1,3335*4E
$GNRMC,035328.400,A,2500.8056600,N,12132.4236500,E,0.10,0.00,090324,,,A,V*03
$GPHDT,,T*1B
$GNACCURACY,7.3*12
$GNGGA,035328.500,2500.8056600,N,12132.4236500,E,1,29,0.86,5.85,M,15.25,M,1,3335*4E
$GNRMC,035328.500,A,2500.8056600,N,12132.4236500,E,0.11,0.00,090324,,,A,V*03
$GPHDT,,T*1B
$GNACCURACY,7.3*12
$GNGGA,035328.600,2500.8056700,N,12132.4236500,E,1,29,0.86,5.86,M,15.25,M,0,3335*4E
$GNRMC,035328.600,A,2500.8056700,N,12132.4236500,E,0.11,0.00,090324,,,A,V*01
$GPHDT,,T*1B
$GNACCURACY,7.3*12
$GNGGA,035328.700,2500.8056700,N,12132.4236600,E,1,31,0.86,5.88,M,15.25,M,0,3335*4B
$GNRMC,035328.700,A,2500.8056700,N,12132.4236600,E,0.13,0.00,090324,,,A,V*01
$GPHDT,,T*1B
$GNACCURACY,7.3*12
$GNGGA,035328.800,2500.8056800,N,12132.4236500,E,1,31,0.86,5.89,M,15.25,M,0,3335*49
$GNRMC,035328.800,A,2500.8056800,N,12132.4236500,E,0.13,0.00,090324,,,A,V*02
$GPHDT,,T*1B
$GNACCURACY,7.3*12
$GNGGA,035328.900,2500.8056900,N,12132.4236500,E,1,30,0.86,5.91,M,15.25,M,0,3335*41
$GNRMC,035328.900,A,2500.8056900,N,12132.4236500,E,0.15,0.00,090324,,,A,V*04
$GPHDT,,T*1B
$GNACCURACY,7.3*12
$GNGGA,035329.000,2500.8056900,N,12132.4236500,E,1,31,0.86,5.92,M,15.25,M,1,3335*4A
$GNRMC,035329.000,A,2500.8056900,N,12132.4236500,E,0.15,0.00,090324,,,A,V*0C
$GPHDT,,T*1B
$GNACCURACY,7.2*13
$GNGGA,035329.100,2500.8057000,N,12132.4236500,E,1,31,0.86,5.94,M,15.25,M,1,3335*45
$GNRMC,035329.100,A,2500.8057000,N,12132.4236500,E,0.14,0.00,090324,,,A,V*04
$GPHDT,,T*1B
$GNGSA,A,3,08,194,195,199,21,27,07,26,,,,,1.48,0.86,1.21,1*3D
$GNGSA,A,3,88,78,,,,,,,,,,,1.48,0.86,1.21,2*0C
$GNGSA,A,3,,,,,,,,,,,,,1.48,0.86,1.21,3*02
$GNGSA,A,3,09,16,23,40,07,39,10,25,37,34,,,1.48,0.86,1.21,4*06
$GPGSV,3,1,09,08,67,341,43,194,64,050,40,195,62,118,42,199,60,167,37,1*5C
$GPGSV,3,2,09,21,52,162,30,27,39,032,23,07,35,319,33,26,11,094,22,1*62
$GPGSV,3,3,09,16,,,40,1*6E
$GPGSV,2,1,05,08,67,341,43,194,64,050,43,195,62,118,46,199,60,167,43,8*5C
$GPGSV,2,2,05,27,39,032,32,8*57
$GLGSV,1,1,04,88,63,040,38,78,53,023,43,87,10,027,24,79,,,25,1*4D
$GAGSV,1,1,02,27,,,40,13,,,38,7*79
$GAGSV,1,1,02,27,,,39,13,,,41,1*7F
$GBGSV,3,1,11,09,74,278,42,16,72,196,36,23,69,014,43,40,62,324,41,1*70
$GBGSV,3,2,11,07,61,303,40,39,61,184,29,10,51,285,29,25,41,110,47,1*78
$GBGSV,3,3,11,37,25,319,34,34,17,039,31,56,,,41,1*76
$GBGSV,2,1,06,23,69,014,45,40,62,324,41,39,61,184,30,25,41,110,44,4*7D
$GBGSV,2,2,06,37,25,319,37,34,17,039,33,4*72
$GNACCURACY,7.1*10
$PAIRSAT,1,10,7,0,1,8,0,21,20,0,200,21,0,201,22,0,200,26,0,20,27,0,21,194,0,21,195,0,221,199,0,621*44
$PAIRSAT,2,5,78,0,1,85,0,200,86,0,200,87,0,200,88,0,201*64
$PAIRSAT,3,2,33,0,200,36,0,200*48
$PAIRSAT,4,30,3,0,400,7,0,1,9,0,201,10,0,201,11,0,200,16,0,1,19,0,400,20,0,400,21,0,400,22,0,400,23,0,21,24,0,400,25,0,421,26,0,400,30,0,400,32,0,400,33,0,400,34,0,420,35,0,400,36,0,400,37,0,421,38,0,400,39,0,421,40,0,421,41,0,400,42,0,400,43,0,400,44,0,400,45,0,400,46,0,400*7E
$PAIRDGP,0*45
$GNGGA,035329.200,2500.8057000,N,12132.4236600,E,1,30,0.86,5.95,M,15.25,M,1,3335*45
$GNRMC,035329.200,A,2500.8057000,N,12132.4236600,E,0.14,0.00,090324,,,A,V*04
$GPHDT,,T*1B
$GNACCURACY,7.1*10
$GNGGA,035329.300,2500.8057000,N,12132.4236600,E,1,31,0.86,5.96,M,15.25,M,1,3335*46
$GNRMC,035329.300,A,2500.8057000,N,12132.4236600,E,0.13,0.00,090324,,,A,V*02
$GPHDT,,T*1B
$GNACCURACY,7.1*10
$GNGGA,035329.400,2500.8057300,N,12132.4236800,E,1,30,0.86,6.00,M,15.25,M,1,3335*41
$GNRMC,035329.400,A,2500.8057300,N,12132.4236800,E,0.17,0.00,090324,,,A,V*0C
$GPHDT,,T*1B
$GNACCURACY,7.1*10
$GNGGA,035329.500,2500.8057300,N,12132.4236600,E,1,30,0.86,5.99,M,15.25,M,1,3335*4D
$GNRMC,035329.500,A,2500.8057300,N,12132.4236600,E,0.14,0.00,090324,,,A,V*00
$GPHDT,,T*1B
$GNACCURACY,7.1*10
$GNGGA,035329.600,2500.8057400,N,12132.4236800,E,1,30,0.86,6.02,M,15.25,M,1,3335*46
$GNRMC,035329.600,A,2500.8057400,N,12132.4236800,E,0.17,0.00,090324,,,A,V*09
$GPHDT,,T*1B
$GNACCURACY,7.1*10
$GNGGA,035329.700,2500.8057500,N,12132.4236900,E,1,31,0.86,6.03,M,15.25,M,0,3335*46
$GNRMC,035329.700,A,2500.8057500,N,12132.4236900,E,0.17,0.00,090324,,,A,V*08
$GPHDT,,T*1B
$GNACCURACY,7.0*11
$GNGGA,035329.800,2500.8057600,N,12132.4237000,E,1,31,0.86,6.06,M,15.25,M,0,3335*47
$GNRMC,035329.800,A,2500.8057600,N,12132.4237000,E,0.19,0.00,090324,,,A,V*02
$GPHDT,,T*1B
$GNACCURACY,7.1*10
$GNGGA,035329.900,2500.8057800,N,12132.4237100,E,1,31,0.86,6.09,M,15.25,M,0,3335*46
$GNRMC,035329.900,A,2500.8057800,N,12132.4237100,E,0.20,0.00,090324,,,A,V*06
$GPHDT,,T*1B
$GNACCURACY,7.0*11
$GNGGA,035330.000,2500.8057800,N,12132.4237100,E,1,31,0.86,6.10,M,15.25,M,1,3335*4E
$GNRMC,035330.000,A,2500.8057800,N,12132.4237100,E,0.19,0.00,090324,,,A,V*0D
$GPHDT,,T*1B
$GNACCURACY,7.0*11
$GNGGA,035330.100,2500.8057900,N,12132.4237100,E,1,31,0.86,6.12,M,15.25,M,1,3335*4C
$GNRMC,035330.100,A,2500.8057900,N,12132.4237100,E,0.19,0.00,090324,,,A,V*0D
$GPHDT,,T*1B
$GNGSA,A,3,08,194,195,199,21,27,07,26,,,,,1.48,0.86,1.21,1*3D
$GNGSA,A,3,88,78,,,,,,,,,,,1.48,0.86,1.21,2*0C
$GNGSA,A,3,,,,,,,,,,,,,1.48,0.86,1.21,3*02
$GNGSA,A,3,09,16,23,40,07,39,10,25,37,34,,,1.48,0.86,1.21,4*06
$GPGSV,3,1,09,08,67,341,46,194,64,050,42,195,62,118,42,199,60,167,37,1*5B
$GPGSV,3,2,09,21,52,162,31,27,39,032,35,07,35,319,32,26,11,094,20,1*67
$GPGSV,3,3,09,16,,,42,1*6C
$GPGSV,2,1,05,08,67,341,48,194,64,050,45,195,62,118,46,199,60,167,44,8*56
$GPGSV,2,2,05,27,39,032,35,8*50
$GLGSV,1,1,04,88,63,040,39,78,53,023,46,87,10,027,23,79,,,24,1*4F
$GAGSV,1,1,02,27,,,41,13,,,40,7*77
$GAGSV,1,1,02,27,,,41,13,,,42,1*73
$GBGSV,3,1,11,09,74,278,43,16,72,196,36,23,69,014,46,40,62,324,43,1*76
$GBGSV,3,2,11,07,61,303,41,39,61,184,30,10,51,285,29,25,41,110,47,1*71
$GBGSV,3,3,11,37,25,319,34,34,17,039,37,56,,,38,1*7E
$GBGSV,2,1,06,23,69,014,47,40,62,324,44,39,61,184,31,25,41,110,46,4*79
$GBGSV,2,2,06,37,25,319,33,34,17,039,34,4*71
$GNACCURACY,7.0*11
$PAIRSAT,1,10,7,0,1,8,0,21,20,0,200,21,0,201,22,0,200,26,0,20,27,0,21,194,0,21,195,0,221,199,0,621*44
$PAIRSAT,2,5,78,0,1,85,0,200,86,0,200,87,0,200,88,0,201*64
$PAIRSAT,3,2,33,0,200,36,0,200*48
$PAIRSAT,4,30,3,0,400,7,0,1,9,0,201,10,0,201,11,0,200,16,0,1,19,0,400,20,0,400,21,0,400,22,0,400,23,0,21,24,0,400,25,0,421,26,0,400,30,0,400,32,0,400,33,0,400,34,0,420,35,0,400,36,0,400,37,0,421,38,0,400,39,0,421,40,0,421,41,0,400,42,0,400,43,0,400,44,0,400,45,0,400,46,0,400*7E
$PAIRDGP,0*45
$GNGGA,035330.200,2500.8057800,N,12132.4237100,E,1,31,0.86,6.12,M,15.25,M,1,3335*4E
$GNRMC,035330.200,A,2500.8057800,N,12132.4237100,E,0.18,0.00,090324,,,A,V*0E
$GPHDT,,T*1B
$GNACCURACY,7.0*11
$GNGGA,035330.300,2500.8057800,N,12132.4237200,E,1,31,0.86,6.14,M,15.25,M,1,3335*4A
$GNRMC,035330.300,A,2500.8057800,N,12132.4237200,E,0.17,0.00,090324,,,A,V*03
$GPHDT,,T*1B
$GNACCURACY,7.0*11
$GNGGA,035330.400,2500.8057800,N,12132.4237200,E,1,31,0.86,6.16,M,15.25,M,1,3335*4F
$GNRMC,035330.400,A,2500.8057800,N,12132.4237200,E,0.17,0.00,090324,,,A,V*04
$GPHDT,,T*1B
$GNACCURACY,7.0*11
$GNGGA,035330.500,2500.8057800,N,12132.4237300,E,1,31,0.86,6.18,M,15.25,M,1,3335*41
$GNRMC,035330.500,A,2500.8057800,N,12132.4237300,E,0.18,0.00,090324,,,A,V*0B
$GPHDT,,T*1B
$GNACCURACY,7.0*11
$GNGGA,035330.600,2500.8057800,N,12132.4237400,E,1,31,0.86,6.21,M,15.25,M,0,3335*4E
$GNRMC,035330.600,A,2500.8057800,N,12132.4237400,E,0.19,0.00,090324,,,A,V*0E
$GPHDT,,T*1B
$GNACCURACY,7.0*11
$GNGGA,035330.700,2500.8057900,N,12132.4237500,E,1,31,0.86,6.24,M,15.25,M,0,3335*4A
$GNRMC,035330.700,A,2500.8057900,N,12132.4237500,E,0.19,0.00,090324,,,A,V*0F
$GPHDT,,T*1B
$GNACCURACY,7.0*11
$GNGGA,035330.800,2500.8057900,N,12132.4237500,E,1,31,0.86,6.28,M,15.25,M,0,3335*49
$GNRMC,035330.800,A,2500.8057900,N,12132.4237500,E,0.20,0.00,090324,,,A,V*0A
$GPHDT,,T*1B
$GNACCURACY,7.0*11
$GNGGA,035330.900,2500.8057900,N,12132.4237700,E,1,31,0.86,6.31,M,15.25,M,0,3335*42
$GNRMC,035330.900,A,2500.8057900,N,12132.4237700,E,0.21,0.00,090324,,,A,V*08
$GPHDT,,T*1B
$GNACCURACY,7.0*11
$GNGGA,035331.000,2500.8057900,N,12132.4237700,E,1,31,0.86,6.32,M,15.25,M,1,3335*48
$GNRMC,035331.000,A,2500.8057900,N,12132.4237700,E,0.20,0.00,090324,,,A,V*01
$GPHDT,,T*1B
$GNACCURACY,7.0*11
$GNGGA,035331.100,2500.8057900,N,12132.4237700,E,1,31,0.86,6.35,M,15.25,M,1,3335*4E
$GNRMC,035331.100,A,2500.8057900,N,12132.4237700,E,0.19,0.00,090324,,,A,V*0A
$GPHDT,,T*1B
$GNGSA,A,3,08,194,195,199,21,27,07,26,,,,,1.48,0.86,1.21,1*3D
$GNGSA,A,3,88,78,,,,,,,,,,,1.48,0.86,1.21,2*0C
$GNGSA,A,3,,,,,,,,,,,,,1.48,0.86,1.21,3*02
$GNGSA,A,3,09,16,23,40,07,39,10,25,37,34,,,1.48,0.86,1.21,4*06
$GPGSV,3,1,09,08,67,341,46,194,64,050,42,195,62,118,42,199,60,167,37,1*5B
$GPGSV,3,2,09,21,52,162,30,27,39,032,32,07,35,319,30,26,11,094,20,1*63
$GPGSV,3,3,09,16,,,41,1*6F
$GPGSV,2,1,05,08,67,341,48,194,64,050,46,195,62,118,46,199,60,167,44,8*55
$GPGSV,2,2,05,27,39,032,39,8*5C
$GLGSV,1,1,04,88,63,040,40,78,53,023,46,87,10,027,25,79,,,26,1*45
$GAGSV,1,1,02,27,,,43,13,,,40,7*75
$GAGSV,1,1,02,27,,,41,13,,,43,1*72
$GBGSV,3,1,11,09,74,278,43,16,72,196,36,23,69,014,46,40,62,324,41,1*74
$GBGSV,3,2,11,07,61,303,42,39,61,184,30,10,51,285,31,25,41,110,47,1*7B
$GBGSV,3,3,11,37,25,319,33,34,17,039,37,56,,,41,1*77
$GBGSV,2,1,06,23,69,014,48,40,62,324,44,39,61,184,31,25,41,110,46,4*76
$GBGSV,2,2,06,37,25,319,35,34,17,039,34,4*77
$GNACCURACY,7.1*10
$PAIRSAT,1,10,7,0,1,8,0,21,20,0,200,21,0,201,22,0,200,26,0,20,27,0,21,194,0,21,195,0,221,199,0,621*44
$PAIRSAT,2,5,78,0,1,85,0,200,86,0,200,87,0,200,88,0,201*64
$PAIRSAT,3,2,33,0,200,36,0,200*48
$PAIRSAT,4,30,3,0,400,7,0,1,9,0,201,10,0,201,11,0,200,16,0,1,19,0,400,20,0,400,21,0,400,22,0,400,23,0,21,24,0,400,25,0,421,26,0,400,30,0,400,32,0,400,33,0,400,34,0,420,35,0,400,36,0,400,37,0,421,38,0,400,39,0,421,40,0,421,41,0,400,42,0,400,43,0,400,44,0,400,45,0,400,46,0,400*7E
$PAIRDGP,0*45
$GNGGA,035331.200,2500.8057800,N,12132.4237700,E,1,31,0.86,6.35,M,15.25,M,1,3335*4C
$GNRMC,035331.200,A,2500.8057800,N,12132.4237700,E,0.18,0.00,090324,,,A,V*09
$GPHDT,,T*1B
$GNACCURACY,7.1*10
$GNGGA,035331.300,2500.8057700,N,12132.4237700,E,1,30,0.86,6.37,M,15.25,M,1,3335*41
$GNRMC,035331.300,A,2500.8057700,N,12132.4237700,E,0.17,0.00,090324,,,A,V*08
$GPHDT,,T*1B
$GNACCURACY,7.1*10
$GNGGA,035331.400,2500.8057600,N,12132.4237600,E,1,30,0.86,6.39,M,15.25,M,1,3335*48
$GNRMC,035331.400,A,2500.8057600,N,12132.4237600,E,0.16,0.00,090324,,,A,V*0E
$GPHDT,,T*1B
$GNACCURACY,7.1*10
$GNGGA,035331.500,2500.8057600,N,12132.4237700,E,1,30,0.86,6.42,M,15.25,M,1,3335*44
$GNRMC,035331.500,A,2500.8057600,N,12132.4237700,E,0.17,0.00,090324,,,A,V*0F
$GPHDT,,T*1B
$GNACCURACY,7.1*10
$GNGGA,035331.600,2500.8057600,N,12132.4237700,E,1,30,0.86,6.46,M,15.25,M,0,3335*42
$GNRMC,035331.600,A,2500.8057600,N,12132.4237700,E,0.17,0.00,090324,,,A,V*0C
$GPHDT,,T*1B
$GNACCURACY,7.1*10
$GNGGA,035331.700,2500.8057600,N,12132.4237800,E,1,30,0.86,6.49,M,15.25,M,0,3335*43
$GNRMC,035331.700,A,2500.8057600,N,12132.4237800,E,0.18,0.00,090324,,,A,V*0D
$GPHDT,,T*1B
$GNACCURACY,7.1*10
$GNGGA,035331.800,2500.8057600,N,12132.4237800,E,1,31,0.86,6.53,M,15.25,M,0,3335*46
$GNRMC,035331.800,A,2500.8057600,N,12132.4237800,E,0.20,0.00,090324,,,A,V*09
$GPHDT,,T*1B
$GNACCURACY,7.1*10
$GNGGA,035331.900,2500.8057600,N,12132.4238000,E,1,31,0.86,6.56,M,15.25,M,0,3335*45
$GNRMC,035331.900,A,2500.8057600,N,12132.4238000,E,0.21,0.00,090324,,,A,V*0E
$GPHDT,,T*1B
$GNACCURACY,7.1*10
$GNGGA,035332.000,2500.8057600,N,12132.4237900,E,1,31,0.86,6.57,M,15.25,M,1,3335*49
$GNRMC,035332.000,A,2500.8057600,N,12132.4237900,E,0.20,0.00,090324,,,A,V*03
$GPHDT,,T*1B
$GNACCURACY,7.1*10
$GNGGA,035332.100,2500.8057500,N,12132.4237900,E,1,31,0.86,6.59,M,15.25,M,1,3335*45
$GNRMC,035332.100,A,2500.8057500,N,12132.4237900,E,0.19,0.00,090324,,,A,V*0B
$GPHDT,,T*1B
$GNGSA,A,3,08,194,195,199,21,27,07,26,,,,,1.48,0.86,1.21,1*3D
$GNGSA,A,3,88,78,,,,,,,,,,,1.48,0.86,1.21,2*0C
$GNGSA,A,3,,,,,,,,,,,,,1.48,0.86,1.21,3*02
$GNGSA,A,3,09,16,23,40,07,39,10,25,37,34,,,1.48,0.86,1.21,4*06
$GPGSV,3,1,09,08,67,341,46,194,64,050,42,195,62,118,42,199,60,167,36,1*5A
$GPGSV,3,2,09,21,52,162,29,27,39,032,35,07,35,319,29,26,11,094,23,1*67
$GPGSV,3,3,09,16,,,41,1*6F
$GPGSV,2,1,05,08,67,341,49,194,64,050,46,195,62,118,46,199,60,167,44,8*54
$GPGSV,2,2,05,27,39,032,37,8*52
$GLGSV,1,1,04,88,63,040,40,78,53,024,47,87,10,027,25,79,,,26,1*43
$GAGSV,1,1,02,27,,,43,13,,,40,7*75
$GAGSV,1,1,02,27,,,42,13,,,43,1*71
$GBGSV,3,1,11,09,74,278,43,16,72,196,36,23,69,014,46,40,62,324,41,1*74
$GBGSV,3,2,11,07,61,303,41,39,61,184,29,10,51,285,31,25,41,110,47,1*70
$GBGSV,3,3,11,37,25,319,33,34,17,039,29,56,,,42,1*7B
$GBGSV,2,1,06,23,69,014,49,40,62,324,44,39,61,184,32,25,41,110,46,4*74
$GBGSV,2,2,06,37,25,319,36,34,17,039,23,4*72
$GNACCURACY,7.1*10
$PAIRSAT,1,10,7,0,1,8,0,21,20,0,200,21,0,201,22,0,200,26,0,20,27,0,21,194,0,21,195,0,221,199,0,621*44
$PAIRSAT,2,5,78,0,1,85,0,200,86,0,200,87,0,200,88,0,201*64
$PAIRSAT,3,2,33,0,200,36,0,200*48
$PAIRSAT,4,31,3,0,400,7,0,1,9,0,201,10,0,201,11,0,200,16,0,1,19,0,400,20,0,400,21,0,400,22,0,400,23,0,421,24,0,400,25,0,421,26,0,400,27,0,400,30,0,400,32,0,400,33,0,400,34,0,420,35,0,400,36,0,400,37,0,421,38,0,400,39,0,421,40,0,421,41,0,400,42,0,400,43,0,400,44,0,400,45,0,400,46,0,400*66
$PAIRDGP,0*45
$GNGGA,035332.200,2500.8057500,N,12132.4237800,E,1,31,0.86,6.60,M,15.25,M,1,3335*4D
$GNRMC,035332.200,A,2500.8057500,N,12132.4237800,E,0.18,0.00,090324,,,A,V*08
$GPHDT,,T*1B
$GNACCURACY,7.1*10
$GNGGA,035332.300,2500.8057400,N,12132.4237900,E,1,31,0.86,6.62,M,15.25,M,1,3335*4E
$GNRMC,035332.300,A,2500.8057400,N,12132.4237900,E,0.18,0.00,090324,,,A,V*09
$GPHDT,,T*1B
$GNACCURACY,7.1*10
$GNGGA,035332.400,2500.8057300,N,12132.4237900,E,1,31,0.86,6.65,M,15.25,M,1,3335*49
$GNRMC,035332.400,A,2500.8057300,N,12132.4237900,E,0.18,0.00,090324,,,A,V*09
$GPHDT,,T*1B
$GNACCURACY,7.1*10
$GNGGA,035332.500,2500.8057300,N,12132.4237900,E,1,31,0.86,6.67,M,15.25,M,1,3335*4A
$GNRMC,035332.500,A,2500.8057300,N,12132.4237900,E,0.19,0.00,090324,,,A,V*09
$GPHDT,,T*1B
$GNACCURACY,7.1*10
$GNGGA,035332.600,2500.8057400,N,12132.4237900,E,1,31,0.86,6.69,M,15.25,M,0,3335*41
$GNRMC,035332.600,A,2500.8057400,N,12132.4237900,E,0.20,0.00,090324,,,A,V*07
$GPHDT,,T*1B
$GNACCURACY,7.2*13
$GNGGA,035332.700,2500.8057400,N,12132.4238000,E,1,30,0.86,6.72,M,15.25,M,0,3335*4D
$GNRMC,035332.700,A,2500.8057400,N,12132.4238000,E,0.21,0.00,090324,,,A,V*01
$GPHDT,,T*1B
$GNACCURACY,7.2*13
$GNGGA,035332.800,2500.8057400,N,12132.4238000,E,1,30,0.86,6.75,M,15.25,M,0,3335*45
$GNRMC,035332.800,A,2500.8057400,N,12132.4238000,E,0.22,0.00,090324,,,A,V*0D
$GPHDT,,T*1B
$GNACCURACY,7.2*13
$GNGGA,035332.900,2500.8057500,N,12132.4238100,E,1,30,0.86,6.79,M,15.25,M,0,3335*48
$GNRMC,035332.900,A,2500.8057500,N,12132.4238100,E,0.23,0.00,090324,,,A,V*0D
$GPHDT,,T*1B
$GNACCURACY,7.2*13
$GNGGA,035333.000,2500.8057400,N,12132.4238100,E,1,30,0.86,6.80,M,15.25,M,1,3335*46
$GNRMC,035333.000,A,2500.8057400,N,12132.4238100,E,0.22,0.00,090324,,,A,V*05
$GPHDT,,T*1B
$GNACCURACY,7.2*13
$GNGGA,035333.100,2500.8057300,N,12132.4238000,E,1,30,0.86,6.82,M,15.25,M,1,3335*43
$GNRMC,035333.100,A,2500.8057300,N,12132.4238000,E,0.20,0.00,090324,,,A,V*00
$GPHDT,,T*1B
$GNGSA,A,3,08,194,195,199,21,27,07,26,,,,,1.48,0.86,1.21,1*3D
$GNGSA,A,3,88,78,,,,,,,,,,,1.48,0.86,1.21,2*0C
$GNGSA,A,3,,,,,,,,,,,,,1.48,0.86,1.21,3*02
$GNGSA,A,3,09,16,23,40,07,39,10,25,37,34,,,1.48,0.86,1.21,4*06
$GPGSV,3,1,09,08,67,341,46,194,64,050,42,195,62,118,42,199,60,167,36,1*5A
$GPGSV,3,2,09,21,52,162,31,27,39,032,36,07,35,319,28,26,11,094,18,1*64
$GPGSV,3,3,09,16,,,41,1*6F
$GPGSV,2,1,05,08,67,341,49,194,64,050,46,195,62,118,46,199,60,167,44,8*54
$GPGSV,2,2,05,27,39,032,37,8*52
$GLGSV,1,1,04,88,63,040,40,78,53,024,47,87,10,027,24,79,,,24,1*40
$GAGSV,1,1,02,27,,,43,13,,,40,7*75
$GAGSV,1,1,02,27,,,42,13,,,43,1*71
$GBGSV,3,1,10,09,74,278,43,16,72,196,36,23,69,014,46,40,62,324,42,1*76
$GBGSV,3,2,10,07,61,303,40,39,61,184,29,10,51,285,31,25,41,110,47,1*70
$GBGSV,3,3,10,37,25,319,34,34,17,039,24,1*75
$GBGSV,2,1,05,23,69,014,49,40,62,324,43,39,61,184,32,25,41,110,46,4*70
$GBGSV,2,2,05,37,25,319,36,4*4B
$GNACCURACY,7.2*13
$PAIRSAT,1,10,7,0,1,8,0,21,20,0,200,21,0,201,22,0,200,26,0,20,27,0,21,194,0,21,195,0,221,199,0,621*44
$PAIRSAT,2,5,78,0,1,85,0,200,86,0,200,87,0,200,88,0,201*64
$PAIRSAT,3,2,33,0,200,36,0,200*48
$PAIRSAT,4,31,3,0,400,7,0,1,9,0,201,10,0,201,11,0,200,16,0,1,19,0,400,20,0,400,21,0,400,22,0,400,23,0,421,24,0,400,25,0,421,26,0,400,27,0,400,30,0,400,32,0,400,33,0,400,34,0,421,35,0,400,36,0,400,37,0,421,38,0,400,39,0,421,40,0,421,41,0,400,42,0,400,43,0,400,44,0,400,45,0,400,46,0,400*67
$PAIRDGP,0*45
$GNGGA,035333.200,2500.8057300,N,12132.4238000,E,1,30,0.86,6.83,M,15.25,M,1,3335*41
$GNRMC,035333.200,A,2500.8057300,N,12132.4238000,E,0.20,0.00,090324,,,A,V*03
$GPHDT,,T*1B
$GNACCURACY,7.2*13
$GNGGA,035333.300,2500.8057200,N,12132.4238000,E,1,30,0.86,6.85,M,15.25,M,1,3335*47
$GNRMC,035333.300,A,2500.8057200,N,12132.4238000,E,0.19,0.00,090324,,,A,V*09
$GPHDT,,T*1B
$GNACCURACY,7.2*13
$GNGGA,035333.400,2500.8057200,N,12132.4238000,E,1,30,0.86,6.87,M,15.25,M,1,3335*42
$GNRMC,035333.400,A,2500.8057200,N,12132.4238000,E,0.19,0.00,090324,,,A,V*0E
$GPHDT,,T*1B
$GNACCURACY,7.2*13
$GNGGA,035333.500,2500.8057200,N,12132.4238000,E,1,30,0.86,6.89,M,15.25,M,0,3335*4C
$GNRMC,035333.500,A,2500.8057200,N,12132.4238000,E,0.19,0.00,090324,,,A,V*0F
$GPHDT,,T*1B
$GNACCURACY,7.2*13
$GNGGA,035333.600,2500.8057200,N,12132.4238100,E,1,30,0.86,6.92,M,15.25,M,0,3335*44
$GNRMC,035333.600,A,2500.8057200,N,12132.4238100,E,0.20,0.00,090324,,,A,V*07
$GPHDT,,T*1B
$GNACCURACY,7.2*13
$GNGGA,035333.700,2500.8057200,N,12132.4238200,E,1,30,0.86,6.94,M,15.25,M,0,3335*40
$GNRMC,035333.700,A,2500.8057200,N,12132.4238200,E,0.22,0.00,090324,,,A,V*07
$GPHDT,,T*1B
$GNACCURACY,7.2*13
$GNGGA,035333.800,2500.8057200,N,12132.4238300,E,1,30,0.86,6.97,M,15.25,M,0,3335*4D
$GNRMC,035333.800,A,2500.8057200,N,12132.4238300,E,0.23,0.00,090324,,,A,V*08
$GPHDT,,T*1B
$GNACCURACY,7.1*10
$GNGGA,035333.900,2500.8057200,N,12132.4238300,E,1,30,0.86,7.00,M,15.25,M,0,3335*43
$GNRMC,035333.900,A,2500.8057200,N,12132.4238300,E,0.24,0.00,090324,,,A,V*0E
$GPHDT,,T*1B
$GNACCURACY,7.1*10
$GNGGA,035334.000,2500.8057200,N,12132.4238300,E,1,30,0.86,7.01,M,15.25,M,1,3335*4D
$GNRMC,035334.000,A,2500.8057200,N,12132.4238300,E,0.23,0.00,090324,,,A,V*07
$GPHDT,,T*1B
$GNACCURACY,7.1*10
$GNGGA,035334.100,2500.8057100,N,12132.4238300,E,1,30,0.86,7.02,M,15.25,M,1,3335*4C
$GNRMC,035334.100,A,2500.8057100,N,12132.4238300,E,0.21,0.00,090324,,,A,V*07
$GPHDT,,T*1B
$GNGSA,A,3,08,194,195,199,21,27,07,26,,,,,1.48,0.86,1.21,1*3D
$GNGSA,A,3,88,78,,,,,,,,,,,1.48,0.86,1.21,2*0C
$GNGSA,A,3,,,,,,,,,,,,,1.48,0.86,1.21,3*02
$GNGSA,A,3,09,16,23,40,07,39,10,25,37,34,,,1.48,0.86,1.21,4*06
$GPGSV,3,1,09,08,67,341,46,194,64,050,42,195,62,118,42,199,60,167,36,1*5A
$GPGSV,3,2,09,21,52,162,32,27,39,032,35,07,35,319,31,26,11,094,16,1*62
$GPGSV,3,3,09,16,,,41,1*6F
$GPGSV,2,1,05,08,67,341,49,194,64,050,46,195,62,118,46,199,60,167,44,8*54
$GPGSV,2,2,05,27,39,032,37,8*52
$GLGSV,1,1,04,88,63,040,40,78,53,024,47,87,10,027,23,79,,,24,1*47
$GAGSV,1,1,02,27,,,42,13,,,39,7*7A
$GAGSV,1,1,02,27,,,42,13,,,43,1*71
$GBGSV,3,1,10,09,74,278,42,16,72,196,36,23,69,014,46,40,62,324,42,1*77
$GBGSV,3,2,10,07,61,303,40,39,61,184,27,10,51,285,31,25,41,110,47,1*7E
$GBGSV,3,3,10,37,25,319,35,34,17,039,23,1*73
$GBGSV,2,1,05,23,69,014,49,40,62,324,43,39,61,184,32,25,41,110,46,4*70
$GBGSV,2,2,05,37,25,319,36,4*4B
$GNACCURACY,7.1*10
$PAIRSAT,1,10,7,0,1,8,0,21,20,0,200,21,0,201,22,0,200,26,0,20,27,0,21,194,0,21,195,0,221,199,0,621*44
$PAIRSAT,2,5,78,0,1,85,0,200,86,0,200,87,0,200,88,0,201*64
$PAIRSAT,3,2,33,0,200,36,0,200*48
$PAIRSAT,4,31,3,0,400,7,0,1,9,0,201,10,0,201,11,0,200,16,0,1,19,0,400,20,0,400,21,0,400,22,0,400,23,0,421,24,0,400,25,0,421,26,0,400,27,0,400,30,0,400,32,0,400,33,0,400,34,0,421,35,0,400,36,0,400,37,0,421,38,0,400,39,0,421,40,0,421,41,0,400,42,0,400,43,0,400,44,0,400,45,0,400,46,0,400*67
$PAIRDGP,0*45
$GNGGA,035334.200,2500.8057000,N,12132.4238300,E,1,30,0.86,7.04,M,15.25,M,1,3335*48
$GNRMC,035334.200,A,2500.8057000,N,12132.4238300,E,0.21,0.00,090324,,,A,V*05
$GPHDT,,T*1B
$GNACCURACY,7.1*10
$GNGGA,035334.300,2500.8057000,N,12132.4238300,E,1,30,0.86,7.06,M,15.25,M,1,3335*4B
$GNRMC,035334.300,A,2500.8057000,N,12132.4238300,E,0.20,0.00,090324,,,A,V*05
$GPHDT,,T*1B
$GNACCURACY,7.1*10
$GNGGA,035334.400,2500.8057000,N,12132.4238300,E,1,30,0.86,7.09,M,15.25,M,1,3335*43
$GNRMC,035334.400,A,2500.8057000,N,12132.4238300,E,0.20,0.00,090324,,,A,V*02
$GPHDT,,T*1B
$GNACCURACY,7.1*10
$GNGGA,035334.500,2500.8057000,N,12132.4238400,E,1,30,0.86,7.10,M,15.25,M,1,3335*4D
$GNRMC,035334.500,A,2500.8057000,N,12132.4238400,E,0.21,0.00,090324,,,A,V*05
$GPHDT,,T*1B
$GNACCURACY,7.1*10
$GNGGA,035334.600,2500.8057000,N,12132.4238400,E,1,30,0.86,7.13,M,15.25,M,0,3335*4C
$GNRMC,035334.600,A,2500.8057000,N,12132.4238400,E,0.20,0.00,090324,,,A,V*07
$GPHDT,,T*1B
$GNACCURACY,7.1*10
$GNGGA,035334.700,2500.8057000,N,12132.4238500,E,1,30,0.86,7.17,M,15.25,M,0,3335*48
$GNRMC,035334.700,A,2500.8057000,N,12132.4238500,E,0.22,0.00,090324,,,A,V*05
$GPHDT,,T*1B
$GNACCURACY,7.1*10
$GNGGA,035334.800,2500.8057000,N,12132.4238600,E,1,30,0.86,7.21,M,15.25,M,0,3335*41
$GNRMC,035334.800,A,2500.8057000,N,12132.4238600,E,0.24,0.00,090324,,,A,V*0F
$GPHDT,,T*1B
$GNACCURACY,7.1*10
$GNGGA,035334.900,2500.8057100,N,12132.4238700,E,1,30,0.86,7.23,M,15.25,M,0,3335*42
$GNRMC,035334.900,A,2500.8057100,N,12132.4238700,E,0.24,0.00,090324,,,A,V*0E
$GPHDT,,T*1B
$GNACCURACY,7.1*10
$GNGGA,035335.000,2500.8057000,N,12132.4238600,E,1,30,0.86,7.25,M,15.25,M,1,3335*4D
$GNRMC,035335.000,A,2500.8057000,N,12132.4238600,E,0.22,0.00,090324,,,A,V*00
$GPHDT,,T*1B
$GNACCURACY,6.9*19
$GNGGA,035335.100,2500.8057000,N,12132.4238700,E,1,32,0.84,7.26,M,15.25,M,1,3335*4E
$GNRMC,035335.100,A,2500.8057000,N,12132.4238700,E,0.22,0.00,090324,,,A,V*00
$GPHDT,,T*1B
$GNGSA,A,3,08,194,195,199,21,27,07,26,,,,,1.47,0.84,1.20,1*31
$GNGSA,A,3,88,78,,,,,,,,,,,1.47,0.84,1.20,2*00
$GNGSA,A,3,13,,,,,,,,,,,,1.47,0.84,1.20,3*0C
$GNGSA,A,3,09,16,23,40,39,07,10,25,37,34,,,1.47,0.84,1.20,4*0A
$GPGSV,3,1,09,08,67,341,46,194,64,050,42,195,62,118,43,199,60,167,36,1*5B
$GPGSV,3,2,09,21,52,162,32,27,39,032,36,07,35,319,31,26,11,094,16,1*61
$GPGSV,3,3,09,16,,,41,1*6F
$GPGSV,2,1,05,08,67,341,49,194,64,050,46,195,62,118,46,199,60,167,44,8*54
$GPGSV,2,2,05,27,39,032,36,8*53
$GLGSV,1,1,04,88,63,040,40,78,53,024,47,87,10,027,26,79,,,24,1*42
$GAGSV,1,1,02,13,54,092,40,27,,,42,7*4E
$GAGSV,1,1,02,13,54,092,43,27,,,42,1*4B
$GBGSV,3,1,10,09,74,278,42,16,72,196,36,23,69,014,46,40,62,324,42,1*77
$GBGSV,3,2,10,39,61,184,26,07,61,303,40,10,51,285,33,25,41,110,47,1*7D
$GBGSV,3,3,10,37,25,319,35,34,17,039,28,1*78
$GBGSV,2,1,05,23,69,014,49,40,62,324,43,39,61,184,32,25,41,110,46,4*70
$GBGSV,2,2,05,37,25,319,36,4*4B
$GNACCURACY,6.9*19
$PAIRSAT,1,10,7,0,1,8,0,21,20,0,200,21,0,201,22,0,200,26,0,20,27,0,21,194,0,21,195,0,221,199,0,621*44
$PAIRSAT,2,5,78,0,1,85,0,200,86,0,200,87,0,200,88,0,201*64
$PAIRSAT,3,3,13,0,1,33,0,200,36,0,200*66
$PAIRSAT,4,31,3,0,400,7,0,1,9,0,201,10,0,201,11,0,200,16,0,1,19,0,400,20,0,400,21,0,400,22,0,400,23,0,421,24,0,400,25,0,421,26,0,400,27,0,400,30,0,400,32,0,400,33,0,400,34,0,421,35,0,400,36,0,400,37,0,421,38,0,400,39,0,421,40,0,421,41,0,400,42,0,400,43,0,400,44,0,400,45,0,400,46,0,400*67
$PAIRDGP,0*45
$GNGGA,035335.200,2500.8057000,N,12132.4238700,E,1,32,0.84,7.28,M,15.25,M,1,3335*43
$GNRMC,035335.200,A,2500.8057000,N,12132.4238700,E,0.20,0.00,090324,,,A,V*01
$GPHDT,,T*1B
$GNACCURACY,6.9*19
$GNGGA,035335.300,2500.8056900,N,12132.4238700,E,1,32,0.84,7.30,M,15.25,M,1,3335*43
$GNRMC,035335.300,A,2500.8056900,N,12132.4238700,E,0.20,0.00,090324,,,A,V*08
$GPHDT,,T*1B
$GNACCURACY,6.9*19
$GNGGA,035335.400,2500.8056900,N,12132.4238700,E,1,32,0.84,7.32,M,15.25,M,1,3335*46
$GNRMC,035335.400,A,2500.8056900,N,12132.4238700,E,0.20,0.00,090324,,,A,V*0F
$GPHDT,,T*1B
$GNACCURACY,6.9*19
$GNGGA,035335.500,2500.8056900,N,12132.4238700,E,1,32,0.84,7.33,M,15.25,M,1,3335*46
$GNRMC,035335.500,A,2500.8056900,N,12132.4238700,E,0.20,0.00,090324,,,A,V*0E
$GPHDT,,T*1B
$GNACCURACY,6.9*19
$GNGGA,035335.600,2500.8057000,N,12132.4238800,E,1,32,0.84,7.37,M,15.25,M,1,3335*46
$GNRMC,035335.600,A,2500.8057000,N,12132.4238800,E,0.22,0.00,090324,,,A,V*08
$GPHDT,,T*1B
$GNACCURACY,6.9*19
$GNGGA,035335.700,2500.8057000,N,12132.4238800,E,1,32,0.84,7.39,M,15.25,M,0,3335*48
$GNRMC,035335.700,A,2500.8057000,N,12132.4238800,E,0.22,0.00,090324,,,A,V*09
$GPHDT,,T*1B
$GNACCURACY,6.9*19
$GNGGA,035335.800,2500.8057000,N,12132.4238900,E,1,33,0.83,7.42,M,15.25,M,0,3335*4C
$GNRMC,035335.800,A,2500.8057000,N,12132.4238900,E,0.23,0.00,090324,,,A,V*06
$GPHDT,,T*1B
$GNACCURACY,6.9*19
$GNGGA,035335.900,2500.8057100,N,12132.4238900,E,1,33,0.83,7.46,M,15.25,M,0,3335*48
$GNRMC,035335.900,A,2500.8057100,N,12132.4238900,E,0.25,0.00,090324,,,A,V*00
$GPHDT,,T*1B
$GNACCURACY,6.8*18
$GNGGA,035336.000,2500.8057100,N,12132.4238900,E,1,33,0.83,7.47,M,15.25,M,1,3335*42
$GNRMC,035336.000,A,2500.8057100,N,12132.4238900,E,0.23,0.00,090324,,,A,V*0C
$GPHDT,,T*1B
$GNACCURACY,6.8*18
$GNGGA,035336.100,2500.8057000,N,12132.4238900,E,1,33,0.83,7.48,M,15.25,M,1,3335*4D
$GNRMC,035336.100,A,2500.8057000,N,12132.4238900,E,0.23,0.00,090324,,,A,V*0C
$GPHDT,,T*1B
$GNGSA,A,3,08,194,195,199,21,27,07,26,,,,,1.40,0.83,1.12,1*30
$GNGSA,A,3,88,78,87,,,,,,,,,,1.40,0.83,1.12,2*0E
$GNGSA,A,3,13,,,,,,,,,,,,1.40,0.83,1.12,3*0D
$GNGSA,A,3,09,16,23,40,39,07,10,25,37,34,,,1.40,0.83,1.12,4*0B
$GPGSV,3,1,09,08,67,341,46,194,64,050,42,195,62,118,43,199,60,167,36,1*5B
$GPGSV,3,2,09,21,52,162,30,27,39,032,36,07,35,319,32,26,11,094,16,1*60
$GPGSV,3,3,09,16,,,40,1*6E
$GPGSV,2,1,05,08,67,341,49,194,64,050,46,195,62,118,46,199,60,167,44,8*54
$GPGSV,2,2,05,27,39,032,36,8*53
$GLGSV,1,1,04,88,63,040,40,78,53,024,47,87,10,027,26,79,,,26,1*40
$GAGSV,1,1,02,13,54,092,40,27,,,42,7*4E
$GAGSV,1,1,02,13,54,092,43,27,,,42,1*4B
$GBGSV,3,1,10,09,74,278,42,16,72,196,36,23,69,014,46,40,62,324,42,1*77
$GBGSV,3,2,10,39,61,184,27,07,61,303,40,10,51,285,32,25,41,110,47,1*7D
$GBGSV,3,3,10,37,25,319,34,34,17,039,25,1*74
$GBGSV,2,1,05,23,69,014,49,40,62,324,43,39,61,184,31,25,41,110,46,4*73
$GBGSV,2,2,05,37,25,319,35,4*48
$GNACCURACY,6.8*18
$PAIRSAT,1,10,7,0,1,8,0,21,20,0,200,21,0,201,22,0,200,26,0,20,27,0,21,194,0,21,195,0,221,199,0,621*44
$PAIRSAT,2,5,78,0,1,85,0,200,86,0,200,87,0,201,88,0,201*65
$PAIRSAT,3,3,13,0,1,33,0,200,36,0,200*66
$PAIRSAT,4,31,3,0,400,7,0,1,9,0,201,10,0,201,11,0,200,16,0,1,19,0,400,20,0,400,21,0,400,22,0,400,23,0,421,24,0,400,25,0,421,26,0,400,27,0,400,30,0,400,32,0,400,33,0,400,34,0,421,35,0,400,36,0,400,37,0,421,38,0,400,39,0,421,40,0,421,41,0,400,42,0,400,43,0,400,44,0,400,45,0,400,46,0,400*67
$PAIRDGP,0*45
$GNGGA,035336.200,2500.8057000,N,12132.4238900,E,1,33,0.83,7.51,M,15.25,M,1,3335*46
$GNRMC,035336.200,A,2500.8057000,N,12132.4238900,E,0.21,0.00,090324,,,A,V*0D
$GPHDT,,T*1B
$GNACCURACY,6.8*18
$GNGGA,035336.300,2500.8057000,N,12132.4238900,E,1,33,0.83,7.53,M,15.25,M,1,3335*45
$GNRMC,035336.300,A,2500.8057000,N,12132.4238900,E,0.21,0.00,090324,,,A,V*0C
$GPHDT,,T*1B
$GNACCURACY,6.8*18
$GNGGA,035336.400,2500.8056900,N,12132.4238900,E,1,33,0.83,7.55,M,15.25,M,1,3335*4C
$GNRMC,035336.400,A,2500.8056900,N,12132.4238900,E,0.20,0.00,090324,,,A,V*02
$GPHDT,,T*1B
$GNACCURACY,6.8*18
$GNGGA,035336.500,2500.8056900,N,12132.4239000,E,1,33,0.83,7.58,M,15.25,M,0,3335*49
$GNRMC,035336.500,A,2500.8056900,N,12132.4239000,E,0.20,0.00,090324,,,A,V*0B
$GPHDT,,T*1B
$GNACCURACY,6.8*18
$GNGGA,035336.600,2500.8056900,N,12132.4239000,E,1,33,0.83,7.61,M,15.25,M,0,3335*40
$GNRMC,035336.600,A,2500.8056900,N,12132.4239000,E,0.21,0.00,090324,,,A,V*09
$GPHDT,,T*1B
$GNACCURACY,6.8*18
$GNGGA,035336.700,2500.8056900,N,12132.4239000,E,1,33,0.83,7.64,M,15.25,M,0,3335*44
$GNRMC,035336.700,A,2500.8056900,N,12132.4239000,E,0.22,0.00,090324,,,A,V*0B
$GPHDT,,T*1B
$GNACCURACY,6.8*18
$GNGGA,035336.800,2500.8056900,N,12132.4239200,E,1,33,0.83,7.67,M,15.25,M,0,3335*4A
$GNRMC,035336.800,A,2500.8056900,N,12132.4239200,E,0.22,0.00,090324,,,A,V*06
$GPHDT,,T*1B
$GNACCURACY,6.8*18
$GNGGA,035336.900,2500.8056900,N,12132.4239200,E,1,33,0.83,7.71,M,15.25,M,0,3335*4C
$GNRMC,035336.900,A,2500.8056900,N,12132.4239200,E,0.23,0.00,090324,,,A,V*06
$GPHDT,,T*1B
$GNACCURACY,6.8*18
$GNGGA,035337.000,2500.8056900,N,12132.4239200,E,1,33,0.83,7.73,M,15.25,M,1,3335*47
$GNRMC,035337.000,A,2500.8056900,N,12132.4239200,E,0.23,0.00,090324,,,A,V*0E
$GPHDT,,T*1B
$GNACCURACY,6.7*17
$GNGGA,035337.100,2500.8056800,N,12132.4239200,E,1,35,0.82,7.77,M,15.25,M,1,3335*44
$GNRMC,035337.100,A,2500.8056800,N,12132.4239200,E,0.21,0.00,090324,,,A,V*0C
$GPHDT,,T*1B
$GNGSA,A,3,08,194,195,199,21,27,07,26,,,,,1.39,0.82,1.12,1*3F
$GNGSA,A,3,88,78,87,,,,,,,,,,1.39,0.82,1.12,2*01
$GNGSA,A,3,13,27,,,,,,,,,,,1.39,0.82,1.12,3*07
$GNGSA,A,3,09,16,23,40,07,39,10,25,37,34,,,1.39,0.82,1.12,4*04
$GPGSV,3,1,09,08,67,341,46,194,64,050,42,195,62,118,43,199,60,167,36,1*5B
$GPGSV,3,2,09,21,52,162,32,27,39,032,36,07,35,319,34,26,11,094,16,1*64
$GPGSV,3,3,09,16,,,40,1*6E
$GPGSV,2,1,06,08,67,341,49,194,64,050,46,195,62,118,46,199,60,167,44,8*57
$GPGSV,2,2,06,27,39,032,37,26,11,094,17,8*6E
$GLGSV,1,1,04,88,63,040,41,78,53,024,47,87,10,027,25,79,,,27,1*43
$GAGSV,1,1,02,13,54,092,40,27,31,073,42,7*78
$GAGSV,1,1,02,13,54,092,43,27,31,073,42,1*7D
$GBGSV,3,1,11,09,74,278,42,16,72,196,35,23,69,014,46,43,65,041,45,1*76
$GBGSV,3,2,11,40,62,324,42,07,61,303,40,39,61,184,28,10,51,285,32,1*71
$GBGSV,3,3,11,25,41,110,46,37,25,319,31,34,17,039,25,1*40
$GBGSV,2,1,05,23,69,014,49,40,62,324,43,39,61,184,31,25,41,110,46,4*73
$GBGSV,2,2,05,37,25,319,35,4*48
$GNACCURACY,6.7*17
$PAIRSAT,1,10,7,0,1,8,0,21,20,0,200,21,0,201,22,0,200,26,0,20,27,0,21,194,0,21,195,0,221,199,0,621*44
$PAIRSAT,2,5,78,0,1,85,0,200,86,0,200,87,0,201,88,0,201*65
$PAIRSAT,3,4,13,0,1,27,0,1,33,0,200,36,0,200*49
$PAIRSAT,4,31,3,0,400,7,0,1,9,0,201,10,0,201,11,0,200,16,0,1,19,0,400,20,0,400,21,0,400,22,0,400,23,0,421,24,0,400,25,0,421,26,0,400,27,0,400,30,0,400,32,0,400,33,0,400,34,0,421,35,0,400,36,0,400,37,0,421,38,0,400,39,0,421,40,0,421,41,0,400,42,0,400,43,0,400,44,0,400,45,0,400,46,0,400*67
$PAIRDGP,0*45
$GNGGA,035337.200,2500.8056700,N,12132.4239200,E,1,36,0.82,7.80,M,15.25,M,1,3335*43
$GNRMC,035337.200,A,2500.8056700,N,12132.4239200,E,0.19,0.00,090324,,,A,V*0B
$GPHDT,,T*1B
$GNACCURACY,6.6*16
$GNGGA,035337.300,2500.8056600,N,12132.4239100,E,1,36,0.82,7.83,M,15.25,M,1,3335*43
$GNRMC,035337.300,A,2500.8056600,N,12132.4239100,E,0.19,0.00,090324,,,A,V*08
$GPHDT,,T*1B
$GNACCURACY,6.6*16
$GNGGA,035337.400,2500.8056500,N,12132.4239100,E,1,36,0.82,7.87,M,15.25,M,1,3335*43
$GNRMC,035337.400,A,2500.8056500,N,12132.4239100,E,0.18,0.00,090324,,,A,V*0D
$GPHDT,,T*1B
$GNACCURACY,6.7*17
$GNGGA,035337.500,2500.8056500,N,12132.4239000,E,1,36,0.82,7.91,M,15.25,M,1,3335*44
$GNRMC,035337.500,A,2500.8056500,N,12132.4239000,E,0.19,0.00,090324,,,A,V*0C
$GPHDT,,T*1B
$GNACCURACY,6.7*17
$GNGGA,035337.600,2500.8056400,N,12132.4239000,E,1,37,0.82,7.94,M,15.25,M,0,3335*43
$GNRMC,035337.600,A,2500.8056400,N,12132.4239000,E,0.19,0.00,090324,,,A,V*0E
$GPHDT,,T*1B
$GNACCURACY,6.7*17
$GNGGA,035337.700,2500.8056400,N,12132.4239100,E,1,37,0.82,7.99,M,15.25,M,0,3335*4E
$GNRMC,035337.700,A,2500.8056400,N,12132.4239100,E,0.20,0.00,090324,,,A,V*04
$GPHDT,,T*1B
$GNACCURACY,6.7*17
$GNGGA,035337.800,2500.8056500,N,12132.4239100,E,1,38,0.80,8.04,M,15.25,M,0,3335*46
$GNRMC,035337.800,A,2500.8056500,N,12132.4239100,E,0.22,0.00,090324,,,A,V*08
$GPHDT,,T*1B
$GNACCURACY,6.7*17
$GNGGA,035337.900,2500.8056400,N,12132.4239100,E,1,38,0.80,8.10,M,15.25,M,0,3335*43
$GNRMC,035337.900,A,2500.8056400,N,12132.4239100,E,0.21,0.00,090324,,,A,V*0B
$GPHDT,,T*1B
$GNACCURACY,6.6*16
$GNGGA,035338.000,2500.8056400,N,12132.4239100,E,1,38,0.80,8.12,M,15.25,M,1,3335*46
$GNRMC,035338.000,A,2500.8056400,N,12132.4239100,E,0.21,0.00,090324,,,A,V*0D
$GPHDT,,T*1B
$GNACCURACY,6.6*16
$GNGGA,035338.100,2500.8056300,N,12132.4239000,E,1,38,0.80,8.14,M,15.25,M,1,3335*47
$GNRMC,035338.100,A,2500.8056300,N,12132.4239000,E,0.19,0.00,090324,,,A,V*01
$GPHDT,,T*1B
$GNGSA,A,3,08,194,195,199,21,27,07,26,,,,,1.36,0.80,1.10,1*30
$GNGSA,A,3,88,78,77,87,,,,,,,,,1.36,0.80,1.10,2*0E
$GNGSA,A,3,13,27,,,,,,,,,,,1.36,0.80,1.10,3*08
$GNGSA,A,3,09,16,23,40,07,39,10,25,37,34,,,1.36,0.80,1.10,4*0B
$GPGSV,3,1,09,08,67,341,46,194,64,050,42,195,62,118,43,199,60,167,36,1*5B
$GPGSV,3,2,09,21,52,162,33,27,39,032,36,07,35,319,34,26,11,094,18,1*6B
$GPGSV,3,3,09,16,,,40,1*6E
$GPGSV,2,1,06,08,67,341,49,194,64,050,46,195,62,118,46,199,60,167,44,8*57
$GPGSV,2,2,06,27,39,032,37,26,11,094,26,8*6C
$GLGSV,2,1,05,88,63,040,41,78,53,024,47,77,27,102,31,87,10,027,25,1*7E
$GLGSV,2,2,05,79,,,26,1*77
$GAGSV,1,1,02,13,54,092,40,27,31,073,42,7*78
$GAGSV,1,1,02,13,54,092,43,27,31,073,42,1*7D
$GBGSV,3,1,11,09,74,278,42,16,72,196,35,23,69,014,46,43,65,041,45,1*76
$GBGSV,3,2,11,40,62,324,42,07,61,303,40,39,61,184,26,10,51,285,32,1*7F
$GBGSV,3,3,11,25,41,110,46,37,25,319,33,34,17,039,28,1*4F
$GBGSV,2,1,07,23,69,014,49,43,65,041,38,40,62,324,43,39,61,184,31,4*7B
$GBGSV,2,2,07,25,41,110,46,37,25,319,36,34,17,039,23,4*43
$GNACCURACY,6.6*16
$PAIRSAT,1,10,7,0,1,8,0,21,20,0,200,21,0,201,22,0,200,26,0,20,27,0,21,194,0,21,195,0,221,199,0,621*44
$PAIRSAT,2,6,77,0,1,78,0,1,85,0,200,86,0,200,87,0,201,88,0,201*4B
$PAIRSAT,3,4,13,0,1,27,0,1,33,0,200,36,0,200*49
$PAIRSAT,4,31,3,0,400,7,0,1,9,0,201,10,0,201,11,0,200,16,0,1,19,0,400,20,0,400,21,0,400,22,0,400,23,0,421,24,0,400,25,0,421,26,0,400,27,0,400,30,0,400,32,0,400,33,0,400,34,0,421,35,0,400,36,0,400,37,0,421,38,0,400,39,0,421,40,0,421,41,0,400,42,0,400,43,0,400,44,0,400,45,0,400,46,0,400*67
$PAIRDGP,0*45
$GNGGA,035338.200,2500.8056100,N,12132.4239100,E,1,38,0.80,8.18,M,15.25,M,1,3335*4B
$GNRMC,035338.200,A,2500.8056100,N,12132.4239100,E,0.17,0.00,090324,,,A,V*0F
$GPHDT,,T*1B
$GNACCURACY,6.6*16
$GNGGA,035338.300,2500.8056100,N,12132.4239000,E,1,38,0.80,8.20,M,15.25,M,1,3335*40
$GNRMC,035338.300,A,2500.8056100,N,12132.4239000,E,0.17,0.00,090324,,,A,V*0F
$GPHDT,,T*1B
$GNACCURACY,6.6*16
$GNGGA,035338.400,2500.8056000,N,12132.4239000,E,1,38,0.80,8.24,M,15.25,M,1,3335*42
$GNRMC,035338.400,A,2500.8056000,N,12132.4239000,E,0.17,0.00,090324,,,A,V*09
$GPHDT,,T*1B
$GNACCURACY,6.6*16
$GNGGA,035338.500,2500.8056000,N,12132.4239000,E,1,38,0.80,8.27,M,15.25,M,1,3335*40
$GNRMC,035338.500,A,2500.8056000,N,12132.4239000,E,0.18,0.00,090324,,,A,V*07
$GPHDT,,T*1B
$GNACCURACY,6.6*16
$GNGGA,035338.600,2500.8056000,N,12132.4239000,E,1,38,0.80,8.31,M,15.25,M,1,3335*44
$GNRMC,035338.600,A,2500.8056000,N,12132.4239000,E,0.17,0.00,090324,,,A,V*0B
$GPHDT,,T*1B
$GNACCURACY,6.6*16
$GNGGA,035338.700,2500.8055900,N,12132.4239000,E,1,38,0.80,8.36,M,15.25,M,0,3335*49
$GNRMC,035338.700,A,2500.8055900,N,12132.4239000,E,0.18,0.00,090324,,,A,V*0F
$GPHDT,,T*1B
$GNACCURACY,6.6*16
$GNGGA,035338.800,2500.8055900,N,12132.4239100,E,1,38,0.80,8.40,M,15.25,M,0,3335*46
$GNRMC,035338.800,A,2500.8055900,N,12132.4239100,E,0.18,0.00,090324,,,A,V*01
$GPHDT,,T*1B
$GNACCURACY,6.5*15
$GNGGA,035338.900,2500.8055900,N,12132.4239200,E,1,38,0.80,8.46,M,15.25,M,0,3335*42
$GNRMC,035338.900,A,2500.8055900,N,12132.4239200,E,0.20,0.00,090324,,,A,V*08
$GPHDT,,T*1B
$GNACCURACY,6.6*16
$GNGGA,035339.000,2500.8055900,N,12132.4239200,E,1,38,0.80,8.47,M,15.25,M,1,3335*4A
$GNRMC,035339.000,A,2500.8055900,N,12132.4239200,E,0.19,0.00,090324,,,A,V*0A
$GPHDT,,T*1B
$GNACCURACY,6.5*15
$GNGGA,035339.100,2500.8055800,N,12132.4239000,E,1,38,0.80,8.50,M,15.25,M,1,3335*4E
$GNRMC,035339.100,A,2500.8055800,N,12132.4239000,E,0.17,0.00,090324,,,A,V*06
$GPHDT,,T*1B
$GNGSA,A,3,08,194,195,199,21,27,07,26,,,,,1.36,0.80,1.10,1*30
$GNGSA,A,3,88,78,77,87,,,,,,,,,1.36,0.80,1.10,2*0E
$GNGSA,A,3,13,27,,,,,,,,,,,1.36,0.80,1.10,3*08
$GNGSA,A,3,09,16,23,40,07,39,10,25,37,34,,,1.36,0.80,1.10,4*0B
$GPGSV,3,1,09,08,67,341,46,194,64,050,42,195,62,118,43,199,60,167,36,1*5B
$GPGSV,3,2,09,21,52,162,34,27,39,032,36,07,35,319,34,26,11,094,18,1*6C
$GPGSV,3,3,09,16,,,40,1*6E
$GPGSV,2,1,06,08,67,341,49,194,64,050,46,195,62,118,46,199,60,167,44,8*57
$GPGSV,2,2,06,27,39,032,39,26,11,094,28,8*6C
$GLGSV,2,1,05,88,63,040,41,78,53,024,46,77,27,102,30,87,10,027,26,1*7D
$GLGSV,2,2,05,79,,,24,1*75
$GAGSV,1,1,02,13,54,092,40,27,31,073,42,7*78
$GAGSV,1,1,02,13,54,092,43,27,31,073,42,1*7D
$GBGSV,3,1,11,09,74,278,42,16,72,196,36,23,69,014,45,43,65,041,45,1*76
$GBGSV,3,2,11,40,62,324,42,07,61,303,40,39,61,184,25,10,51,285,32,1*7C
$GBGSV,3,3,11,25,41,110,46,37,25,319,33,34,17,039,30,1*46
$GBGSV,2,1,07,23,69,014,49,43,65,041,45,40,62,324,43,39,61,184,31,4*71
$GBGSV,2,2,07,25,41,110,46,37,25,319,37,34,17,039,27,4*46
$GNACCURACY,6.5*15
$PAIRSAT,1,10,7,0,1,8,0,21,20,0,200,21,0,201,22,0,200,26,0,20,27,0,21,194,0,21,195,0,221,199,0,621*44
$PAIRSAT,2,6,77,0,1,78,0,1,85,0,200,86,0,200,87,0,201,88,0,201*4B
$PAIRSAT,3,4,13,0,1,27,0,1,33,0,200,36,0,200*49
$PAIRSAT,4,31,3,0,400,7,0,1,9,0,201,10,0,201,11,0,200,16,0,1,19,0,400,20,0,400,21,0,400,22,0,400,23,0,421,24,0,400,25,0,421,26,0,400,27,0,400,30,0,400,32,0,400,33,0,400,34,0,421,35,0,400,36,0,400,37,0,421,38,0,400,39,0,421,40,0,421,41,0,400,42,0,400,43,0,400,44,0,400,45,0,400,46,0,400*67
$PAIRDGP,0*45
$GNGGA,035339.200,2500.8055700,N,12132.4239000,E,1,38,0.80,8.52,M,15.25,M,1,3335*40
$GNRMC,035339.200,A,2500.8055700,N,12132.4239000,E,0.15,0.00,090324,,,A,V*08
$GPHDT,,T*1B
$GNACCURACY,6.5*15
$GNGGA,035339.300,2500.8055700,N,12132.4238900,E,1,38,0.80,8.55,M,15.25,M,1,3335*4E
$GNRMC,035339.300,A,2500.8055700,N,12132.4238900,E,0.16,0.00,090324,,,A,V*02
$GPHDT,,T*1B
$GNACCURACY,6.5*15
$GNGGA,035339.400,2500.8055600,N,12132.4238900,E,1,38,0.80,8.57,M,15.25,M,1,3335*4A
$GNRMC,035339.400,A,2500.8055600,N,12132.4238900,E,0.15,0.00,090324,,,A,V*07
$GPHDT,,T*1B
$GNACCURACY,6.5*15
$GNGGA,035339.500,2500.8055600,N,12132.4238900,E,1,38,0.80,8.61,M,15.25,M,1,3335*4E
$GNRMC,035339.500,A,2500.8055600,N,12132.4238900,E,0.16,0.00,090324,,,A,V*05
$GPHDT,,T*1B
$GNACCURACY,6.5*15
$GNGGA,035339.600,2500.8055500,N,12132.4238800,E,1,38,0.80,8.64,M,15.25,M,0,3335*4B
$GNRMC,035339.600,A,2500.8055500,N,12132.4238800,E,0.16,0.00,090324,,,A,V*04
$GPHDT,,T*1B
$GNACCURACY,6.5*15
$GNGGA,035339.700,2500.8055600,N,12132.4238700,E,1,38,0.80,8.68,M,15.25,M,0,3335*4A
$GNRMC,035339.700,A,2500.8055600,N,12132.4238700,E,0.18,0.00,090324,,,A,V*07
$GPHDT,,T*1B
$GNACCURACY,6.5*15
$GNGGA,035339.800,2500.8055500,N,12132.4238700,E,1,38,0.80,8.72,M,15.25,M,0,3335*4D
$GNRMC,035339.800,A,2500.8055500,N,12132.4238700,E,0.17,0.00,090324,,,A,V*04
$GPHDT,,T*1B
$GNACCURACY,6.5*15
$GNGGA,035339.900,2500.8055500,N,12132.4238700,E,1,38,0.80,8.77,M,15.25,M,0,3335*49
$GNRMC,035339.900,A,2500.8055500,N,12132.4238700,E,0.19,0.00,090324,,,A,V*0B
$GPHDT,,T*1B
$GNACCURACY,6.5*15
$GNGGA,035340.000,2500.8055500,N,12132.4238600,E,1,38,0.80,8.80,M,15.25,M,1,3335*46
$GNRMC,035340.000,A,2500.8055500,N,12132.4238600,E,0.18,0.00,090324,,,A,V*0C
$GPHDT,,T*1B
$GNACCURACY,6.5*15
$GNGGA,035340.100,2500.8055400,N,12132.4238500,E,1,38,0.80,8.81,M,15.25,M,1,3335*44
$GNRMC,035340.100,A,2500.8055400,N,12132.4238500,E,0.16,0.00,090324,,,A,V*01
$GPHDT,,T*1B
$GNGSA,A,3,08,194,195,199,21,27,07,26,,,,,1.36,0.80,1.10,1*30
$GNGSA,A,3,88,78,77,87,