$FW : RTK35X,V1.1X0314AS,Lib20210517,1*54
$Tool : LOCOSYS , GNSS Firebird , v1.0.0.19*39
$---------------------------------------------------*2D
$GPHDT,,T*1B
$GNACCURACY,6.1*11
$GNGGA,035417.700,2500.8051045,N,12132.4275488,E,4,40,0.79,16.816,M,15.25,M,0,3335*4A
$GNRMC,035417.700,A,2500.8051045,N,12132.4275488,E,0.17,0.00,090324,,,R,V*19
$GPHDT,,T*1B
$GNACCURACY,6.1*11
$GNGGA,035417.800,2500.8050987,N,12132.4275444,E,4,40,0.79,16.804,M,15.25,M,0,3335*40
$GNRMC,035417.800,A,2500.8050987,N,12132.4275444,E,0.17,0.00,090324,,,R,V*10
$GPHDT,,T*1B
$GNACCURACY,6.1*11
$GNGGA,035417.900,2500.8050945,N,12132.4275413,E,4,40,0.79,16.782,M,15.25,M,0,3335*4C
$GNRMC,035417.900,A,2500.8050945,N,12132.4275413,E,0.19,0.00,090324,,,R,V*13
$GPHDT,,T*1B
$GNACCURACY,6.1*11
$GNGGA,035418.000,2500.8051038,N,12132.4275437,E,4,40,0.79,16.799,M,15.25,M,1,3335*45
$GNRMC,035418.000,A,2500.8051038,N,12132.4275437,E,0.19,0.00,090324,,,R,V*11
$GPHDT,,T*1B
$GNACCURACY,6.1*11
$GNGGA,035418.100,2500.8051002,N,12132.4275514,E,4,40,0.79,16.812,M,15.25,M,1,3335*41
$GNRMC,035418.100,A,2500.8051002,N,12132.4275514,E,0.17,0.00,090324,,,R,V*17
$GPHDT,,T*1B
$GNGSA,A,3,08,194,195,199,21,27,07,16,26,,,,1.37,0.79,1.12,1*32
$GNGSA,A,3,88,78,77,,,,,,,,,,1.37,0.79,1.12,2*04
$GNGSA,A,3,13,27,,,,,,,,,,,1.37,0.79,1.12,3*0D
$GNGSA,A,3,09,16,23,43,40,39,07,10,25,37,34,,1.37,0.79,1.12,4*09
$GPGSV,3,1,11,08,67,341,47,194,64,050,41,195,62,118,41,50,60,167,40,1*67
$GPGSV,3,2,11,199,60,167,37,21,53,162,38,27,39,032,41,07,35,319,30,1*5F
$GPGSV,3,3,11,16,30,068,37,196,20,171,,26,11,094,24,1*6E
$GPGSV,2,1,06,08,67,341,46,194,64,050,44,195,62,118,45,199,60,167,47,8*5A
$GPGSV,2,2,06,27,39,032,43,26,11,094,19,8*63
$GLGSV,1,1,04,88,63,040,44,78,53,024,42,77,27,102,29,87,09,027,20,1*78
$GAGSV,1,1,02,13,54,091,45,27,30,073,38,7*72
$GAGSV,1,1,02,13,54,091,43,27,30,073,39,1*73
$GBGSV,3,1,11,09,74,278,43,16,72,196,33,23,69,015,46,43,64,041,46,1*72
$GBGSV,3,2,11,40,62,324,43,39,61,184,23,07,61,303,41,10,51,285,30,1*78
$GBGSV,3,3,11,25,41,111,46,37,25,319,38,34,16,039,31,1*4C
$GBGSV,2,1,07,23,69,015,46,43,64,041,42,40,62,324,45,39,61,184,32,4*7C
$GBGSV,2,2,07,25,41,111,44,37,25,319,37,34,16,039,30,4*42
$GNACCURACY,6.1*11
$PAIRSAT,1,14,7,0,1,8,0,21,16,0,1,20,0,200,21,0,201,22,0,200,23,0,200,24,0,200,26,0,20,27,0,21,194,0,21,195,0,221,196,0,200,199,0,621*7D
$PAIRSAT,2,10,75,0,200,76,0,200,77,0,1,78,0,201,79,0,200,80,0,200,85,0,200,86,0,200,87,0,201,88,0,201*7B
$PAIRSAT,3,5,13,0,21,25,0,1000,27,0,21,33,0,200,36,0,200*52
$PAIRSAT,4,34,3,0,400,7,0,1,9,0,201,10,0,201,11,0,200,12,0,200,16,0,1,19,0,400,20,0,400,21,0,400,22,0,400,23,0,421,24,0,400,25,0,421,26,0,400,27,0,400,28,0,400,29,0,400,30,0,400,32,0,400,33,0,400,34,0,421,35,0,400,36,0,400,37,0,421,38,0,400,39,0,421,40,0,421,41,0,400,42,0,400,43,0,421,44,0,400,45,0,400,46,0,400*4D
$PAIRDGP,0*45
$GNGGA,035418.200,2500.8051045,N,12132.4275515,E,4,40,0.79,16.805,M,15.25,M,1,3335*46
$GNRMC,035418.200,A,2500.8051045,N,12132.4275515,E,0.17,0.00,090324,,,R,V*16
$GPHDT,,T*1B
$GNACCURACY,6.1*11
$GNGGA,035418.300,2500.8050995,N,12132.4275451,E,4,40,0.79,16.792,M,15.25,M,1,3335*42
$GNRMC,035418.300,A,2500.8050995,N,12132.4275451,E,0.17,0.00,090324,,,R,V*13
$GPHDT,,T*1B
$GNACCURACY,6.1*11
$GNGGA,035418.400,2500.8051114,N,12132.4275533,E,4,40,0.79,16.809,M,15.25,M,1,3335*4D
$GNRMC,035418.400,A,2500.8051114,N,12132.4275533,E,0.16,0.00,090324,,,R,V*10
$GPHDT,,T*1B
$GNACCURACY,6.1*11
$GNGGA,035418.500,2500.8051149,N,12132.4275534,E,4,40,0.79,16.807,M,15.25,M,1,3335*4D
$GNRMC,035418.500,A,2500.8051149,N,12132.4275534,E,0.18,0.00,090324,,,R,V*10
$GPHDT,,T*1B
$GNACCURACY,6.1*11
$GNGGA,035418.600,2500.8051099,N,12132.4275465,E,4,40,0.79,16.795,M,15.25,M,0,3335*42
$GNRMC,035418.600,A,2500.8051099,N,12132.4275465,E,0.17,0.00,090324,,,R,V*15
$GPHDT,,T*1B
$GNACCURACY,6.1*11
$GNGGA,035418.700,2500.8051084,N,12132.4275473,E,4,40,0.79,16.796,M,15.25,M,0,3335*4B
$GNRMC,035418.700,A,2500.8051084,N,12132.4275473,E,0.17,0.00,090324,,,R,V*1F
$GPHDT,,T*1B
$GNACCURACY,6.2*12
$GNGGA,035418.800,2500.8051097,N,12132.4275481,E,4,40,0.79,16.796,M,15.25,M,0,3335*4B
$GNRMC,035418.800,A,2500.8051097,N,12132.4275481,E,0.18,0.00,090324,,,R,V*10
$GPHDT,,T*1B
$GNACCURACY,6.2*12
$GNGGA,035418.900,2500.8051116,N,12132.4275466,E,4,40,0.79,16.797,M,15.25,M,0,3335*4A
$GNRMC,035418.900,A,2500.8051116,N,12132.4275466,E,0.20,0.00,090324,,,R,V*1B
$GPHDT,,T*1B
$GNACCURACY,6.2*12
$GNGGA,035419.000,2500.8051097,N,12132.4275454,E,4,40,0.79,16.795,M,15.25,M,1,3335*48
$GNRMC,035419.000,A,2500.8051097,N,12132.4275454,E,0.18,0.00,090324,,,R,V*11
$GPHDT,,T*1B
$GNACCURACY,6.2*12
$GNGGA,035419.100,2500.8051094,N,12132.4275470,E,4,40,0.79,16.797,M,15.25,M,1,3335*4E
$GNRMC,035419.100,A,2500.8051094,N,12132.4275470,E,0.16,0.00,090324,,,R,V*1B
$GPHDT,,T*1B
$GNGSA,A,3,08,194,195,199,21,27,07,16,26,,,,1.37,0.79,1.12,1*32
$GNGSA,A,3,88,78,77,,,,,,,,,,1.37,0.79,1.12,2*04
$GNGSA,A,3,13,27,,,,,,,,,,,1.37,0.79,1.12,3*0D
$GNGSA,A,3,09,16,23,43,40,39,07,10,25,37,34,,1.37,0.79,1.12,4*09
$GPGSV,3,1,11,08,67,341,47,194,64,050,41,195,62,118,42,50,60,167,41,1*65
$GPGSV,3,2,11,199,60,167,38,21,53,162,38,27,39,032,41,07,35,319,34,1*54
$GPGSV,3,3,11,16,30,068,38,196,20,171,,26,11,094,25,1*60
$GPGSV,2,1,06,08,67,341,46,194,64,050,44,195,62,118,43,199,60,167,48,8*53
$GPGSV,2,2,06,27,39,032,42,26,11,094,15,8*6E
$GLGSV,1,1,04,88,63,040,44,78,53,024,42,77,27,102,28,87,09,027,21,1*78
$GAGSV,1,1,02,13,54,091,44,27,30,073,38,7*73
$GAGSV,1,1,02,13,54,091,44,27,30,073,39,1*74
$GBGSV,3,1,11,09,74,278,43,16,72,196,34,23,69,015,46,43,64,041,46,1*75
$GBGSV,3,2,11,40,62,324,43,39,61,184,28,07,61,303,41,10,51,285,32,1*71
$GBGSV,3,3,11,25,41,111,46,37,25,319,38,34,16,039,31,1*4C
$GBGSV,2,1,07,23,69,015,46,43,64,041,41,40,62,324,45,39,61,184,33,4*7E
$GBGSV,2,2,07,25,41,111,44,37,25,319,36,34,16,039,29,4*4B
$GNACCURACY,6.2*12
$PAIRSAT,1,14,7,0,1,8,0,21,16,0,1,20,0,200,21,0,201,22,0,200,23,0,200,24,0,200,26,0,20,27,0,21,194,0,21,195,0,221,196,0,200,199,0,621*7D
$PAIRSAT,2,10,75,0,200,76,0,200,77,0,1,78,0,201,79,0,200,80,0,200,85,0,200,86,0,200,87,0,201,88,0,201*7B
$PAIRSAT,3,5,13,0,21,25,0,1000,27,0,21,33,0,200,36,0,200*52
$PAIRSAT,4,34,3,0,400,7,0,1,9,0,201,10,0,201,11,0,200,12,0,200,16,0,1,19,0,400,20,0,400,21,0,400,22,0,400,23,0,421,24,0,400,25,0,421,26,0,400,27,0,400,28,0,400,29,0,400,30,0,400,32,0,400,33,0,400,34,0,421,35,0,400,36,0,400,37,0,421,38,0,400,39,0,421,40,0,421,41,0,400,42,0,400,43,0,421,44,0,400,45,0,400,46,0,400*4D
$PAIRDGP,0*45
$GNGGA,035419.200,2500.8051115,N,12132.4275483,E,4,40,0.79,16.804,M,15.25,M,1,3335*4C
$GNRMC,035419.200,A,2500.8051115,N,12132.4275483,E,0.16,0.00,090324,,,R,V*1C
$GPHDT,,T*1B
$GNACCURACY,6.2*12
$GNGGA,035419.300,2500.8051077,N,12132.4275462,E,4,40,0.79,16.802,M,15.25,M,1,3335*41
$GNRMC,035419.300,A,2500.8051077,N,12132.4275462,E,0.15,0.00,090324,,,R,V*14
$GPHDT,,T*1B
$GNACCURACY,6.1*11
$GNGGA,035419.400,2500.8051123,N,12132.4275499,E,4,40,0.79,16.796,M,15.25,M,1,3335*40
$GNRMC,035419.400,A,2500.8051123,N,12132.4275499,E,0.16,0.00,090324,,,R,V*14
$GPHDT,,T*1B
$GNACCURACY,6.1*11
$GNGGA,035419.500,2500.8051164,N,12132.4275546,E,4,40,0.79,16.823,M,15.25,M,0,3335*41
$GNRMC,035419.500,A,2500.8051164,N,12132.4275546,E,0.15,0.00,090324,,,R,V*16
$GPHDT,,T*1B
$GNACCURACY,6.1*11
$GNGGA,035419.600,2500.8051138,N,12132.4275534,E,4,39,0.79,16.823,M,15.25,M,0,3335*40
$GNRMC,035419.600,A,2500.8051138,N,12132.4275534,E,0.15,0.00,090324,,,R,V*19
$GPHDT,,T*1B
$GNACCURACY,6.1*11
$GNGGA,035419.700,2500.8051155,N,12132.4275517,E,4,39,0.79,16.809,M,15.25,M,0,3335*43
$GNRMC,035419.700,A,2500.8051155,N,12132.4275517,E,0.16,0.00,090324,,,R,V*11
$GPHDT,,T*1B
$GNACCURACY,6.1*11
$GNGGA,035419.800,2500.8051168,N,12132.4275559,E,4,39,0.79,16.815,M,15.25,M,0,3335*45
$GNRMC,035419.800,A,2500.8051168,N,12132.4275559,E,0.17,0.00,090324,,,R,V*1B
$GPHDT,,T*1B
$GNACCURACY,6.0*10
$GNGGA,035419.900,2500.8051164,N,12132.4275557,E,4,39,0.79,16.805,M,15.25,M,0,3335*47
$GNRMC,035419.900,A,2500.8051164,N,12132.4275557,E,0.18,0.00,090324,,,R,V*17
$GPHDT,,T*1B
$GNACCURACY,6.0*10
$GNGGA,035420.000,2500.8051175,N,12132.4275561,E,4,39,0.79,16.814,M,15.25,M,1,3335*40
$GNRMC,035420.000,A,2500.8051175,N,12132.4275561,E,0.19,0.00,090324,,,R,V*10
$GPHDT,,T*1B
$GNACCURACY,6.1*11
$GNGGA,035420.100,2500.8051160,N,12132.4275549,E,4,39,0.79,16.818,M,15.25,M,1,3335*43
$GNRMC,035420.100,A,2500.8051160,N,12132.4275549,E,0.16,0.00,090324,,,R,V*10
$GPHDT,,T*1B
$GNGSA,A,3,08,194,195,199,21,27,07,16,26,,,,1.37,0.79,1.12,1*32
$GNGSA,A,3,88,78,77,,,,,,,,,,1.37,0.79,1.12,2*04
$GNGSA,A,3,13,27,,,,,,,,,,,1.37,0.79,1.12,3*0D
$GNGSA,A,3,09,16,23,43,40,39,07,10,25,37,34,,1.37,0.79,1.12,4*09
$GPGSV,3,1,11,08,67,341,47,194,64,050,41,195,62,118,42,50,60,167,41,1*65
$GPGSV,3,2,11,199,60,167,38,21,53,162,38,27,39,032,41,07,35,319,35,1*55
$GPGSV,3,3,11,16,30,068,38,196,20,171,,26,11,094,27,1*62
$GPGSV,2,1,05,08,67,341,46,194,64,050,44,195,62,118,43,199,60,167,48,8*50
$GPGSV,2,2,05,27,39,032,42,8*50
$GLGSV,1,1,04,88,63,040,44,78,53,024,42,77,27,102,28,87,09,027,21,1*78
$GAGSV,1,1,02,13,54,091,44,27,30,073,38,7*73
$GAGSV,1,1,02,13,54,091,44,27,30,073,39,1*74
$GBGSV,3,1,11,09,74,278,44,16,72,196,36,23,69,015,46,43,64,041,46,1*70
$GBGSV,3,2,11,40,62,324,43,39,61,184,28,07,61,303,41,10,51,285,31,1*72
$GBGSV,3,3,11,25,41,111,46,37,25,319,38,34,16,039,30,1*4D
$GBGSV,2,1,07,23,69,015,46,43,64,041,41,40,62,324,45,39,61,184,34,4*79
$GBGSV,2,2,07,25,41,111,45,37,25,319,36,34,16,039,31,4*43
$GNACCURACY,6.1*11
$PAIRSAT,1,14,7,0,1,8,0,21,16,0,1,20,0,200,21,0,201,22,0,200,23,0,200,24,0,200,26,0,20,27,0,21,194,0,21,195,0,221,196,0,200,199,0,621*7D
$PAIRSAT,2,10,75,0,200,76,0,200,77,0,1,78,0,201,79,0,200,80,0,200,85,0,200,86,0,200,87,0,201,88,0,201*7B
$PAIRSAT,3,5,13,0,21,25,0,1000,27,0,21,33,0,200,36,0,200*52
$PAIRSAT,4,34,3,0,400,7,0,1,9,0,201,10,0,201,11,0,200,12,0,200,16,0,1,19,0,400,20,0,400,21,0,400,22,0,400,23,0,421,24,0,400,25,0,421,26,0,400,27,0,400,28,0,400,29,0,400,30,0,400,32,0,400,33,0,400,34,0,421,35,0,400,36,0,400,37,0,421,38,0,400,39,0,421,40,0,421,41,0,400,42,0,400,43,0,421,44,0,400,45,0,400,46,0,400*4D
$PAIRDGP,0*45
$GNGGA,035420.200,2500.8051187,N,12132.4275540,E,4,39,0.79,16.806,M,15.25,M,1,3335*4F
$GNRMC,035420.200,A,2500.8051187,N,12132.4275540,E,0.16,0.00,090324,,,R,V*13
$GPHDT,,T*1B
$GNACCURACY,6.1*11
$GNGGA,035420.300,2500.8051163,N,12132.4275545,E,4,39,0.79,16.804,M,15.25,M,1,3335*43
$GNRMC,035420.300,A,2500.8051163,N,12132.4275545,E,0.14,0.00,090324,,,R,V*1F
$GPHDT,,T*1B
$GNACCURACY,6.1*11
$GNGGA,035420.400,2500.8051166,N,12132.4275555,E,4,39,0.79,16.818,M,15.25,M,1,3335*4D
$GNRMC,035420.400,A,2500.8051166,N,12132.4275555,E,0.14,0.00,090324,,,R,V*1C
$GPHDT,,T*1B
$GNACCURACY,6.1*11
$GNGGA,035420.500,2500.8051182,N,12132.4275553,E,4,39,0.79,16.823,M,15.25,M,1,3335*48
$GNRMC,035420.500,A,2500.8051182,N,12132.4275553,E,0.14,0.00,090324,,,R,V*11
$GPHDT,,T*1B
$GNACCURACY,6.1*11
$GNGGA,035420.600,2500.8051174,N,12132.4275578,E,4,39,0.79,16.820,M,15.25,M,1,3335*48
$GNRMC,035420.600,A,2500.8051174,N,12132.4275578,E,0.14,0.00,090324,,,R,V*12
$GPHDT,,T*1B
$GNACCURACY,6.1*11
$GNGGA,035420.700,2500.8051154,N,12132.4275501,E,4,39,0.79,16.812,M,15.25,M,0,3335*45
$GNRMC,035420.700,A,2500.8051154,N,12132.4275501,E,0.15,0.00,090324,,,R,V*1E
$GPHDT,,T*1B
$GNACCURACY,6.1*11
$GNGGA,035420.800,2500.8051143,N,12132.4275505,E,4,39,0.79,16.812,M,15.25,M,0,3335*48
$GNRMC,035420.800,A,2500.8051143,N,12132.4275505,E,0.16,0.00,090324,,,R,V*10
$GPHDT,,T*1B
$GNACCURACY,6.1*11
$GNGGA,035420.900,2500.8051156,N,12132.4275528,E,4,40,0.79,16.817,M,15.25,M,0,3335*49
$GNRMC,035420.900,A,2500.8051156,N,12132.4275528,E,0.16,0.00,090324,,,R,V*1A
$GPHDT,,T*1B
$GNACCURACY,6.1*11
$GNGGA,035421.000,2500.8051168,N,12132.4275503,E,4,40,0.79,16.810,M,15.25,M,1,3335*43
$GNRMC,035421.000,A,2500.8051168,N,12132.4275503,E,0.16,0.00,090324,,,R,V*16
$GPHDT,,T*1B
$GNACCURACY,6.1*11
$GNGGA,035421.100,2500.8051164,N,12132.4275524,E,4,40,0.79,16.811,M,15.25,M,1,3335*4A
$GNRMC,035421.100,A,2500.8051164,N,12132.4275524,E,0.14,0.00,090324,,,R,V*1C
$GPHDT,,T*1B
$GNGSA,A,3,08,194,195,199,21,27,07,16,26,,,,1.37,0.79,1.12,1*32
$GNGSA,A,3,88,78,77,,,,,,,,,,1.37,0.79,1.12,2*04
$GNGSA,A,3,13,27,,,,,,,,,,,1.37,0.79,1.12,3*0D
$GNGSA,A,3,09,16,23,43,40,39,07,10,25,37,34,,1.37,0.79,1.12,4*09
$GPGSV,3,1,11,08,67,341,47,194,64,050,41,195,62,118,42,50,60,167,41,1*65
$GPGSV,3,2,11,199,60,167,38,21,53,162,38,27,39,032,40,07,35,319,35,1*54
$GPGSV,3,3,11,16,30,068,37,196,20,171,,26,11,094,28,1*62
$GPGSV,2,1,06,08,67,341,46,194,64,050,44,195,62,118,43,199,60,167,48,8*53
$GPGSV,2,2,06,27,39,032,41,26,11,094,22,8*69
$GLGSV,1,1,04,88,63,040,44,78,53,024,42,77,27,102,29,87,09,027,22,1*7A
$GAGSV,1,1,02,13,54,091,44,27,30,073,37,7*7C
$GAGSV,1,1,02,13,54,091,44,27,30,073,39,1*74
$GBGSV,3,1,11,09,74,278,44,16,72,196,36,23,69,015,46,43,64,041,46,1*70
$GBGSV,3,2,11,40,62,324,43,39,61,184,27,07,61,303,41,10,51,285,31,1*7D
$GBGSV,3,3,11,25,41,111,46,37,25,319,38,34,16,039,32,1*4F
$GBGSV,2,1,07,23,69,015,46,43,64,041,41,40,62,324,46,39,61,184,34,4*7A
$GBGSV,2,2,07,25,41,111,45,37,25,319,35,34,16,039,32,4*43
$GNACCURACY,6.1*11
$PAIRSAT,1,14,7,0,1,8,0,21,16,0,1,20,0,200,21,0,201,22,0,200,23,0,200,24,0,200,26,0,20,27,0,21,194,0,21,195,0,221,196,0,200,199,0,621*7D
$PAIRSAT,2,10,75,0,200,76,0,200,77,0,1,78,0,201,79,0,200,80,0,200,85,0,200,86,0,200,87,0,201,88,0,201*7B
$PAIRSAT,3,6,2,0,200,13,0,21,25,0,1000,27,0,21,33,0,200,36,0,200*4D
$PAIRSAT,4,35,3,0,400,7,0,1,9,0,201,10,0,201,11,0,200,12,0,200,13,0,200,16,0,1,19,0,400,20,0,400,21,0,400,22,0,400,23,0,421,24,0,400,25,0,421,26,0,400,27,0,400,28,0,400,29,0,400,30,0,400,32,0,400,33,0,400,34,0,421,35,0,400,36,0,400,37,0,421,38,0,400,39,0,421,40,0,421,41,0,400,42,0,400,43,0,421,44,0,400,45,0,400,46,0,400*60
$PAIRDGP,0*45
$GNGGA,035421.200,2500.8051149,N,12132.4275513,E,4,40,0.79,16.815,M,15.25,M,1,3335*46
$GNRMC,035421.200,A,2500.8051149,N,12132.4275513,E,0.14,0.00,090324,,,R,V*14
$GPHDT,,T*1B
$GNACCURACY,6.0*10
$GNGGA,035421.300,2500.8051163,N,12132.4275505,E,4,40,0.79,16.805,M,15.25,M,1,3335*49
$GNRMC,035421.300,A,2500.8051163,N,12132.4275505,E,0.13,0.00,090324,,,R,V*1D
$GPHDT,,T*1B
$GNACCURACY,6.0*10
$GNGGA,035421.400,2500.8051160,N,12132.4275529,E,4,40,0.79,16.808,M,15.25,M,1,3335*4E
$GNRMC,035421.400,A,2500.8051160,N,12132.4275529,E,0.13,0.00,090324,,,R,V*17
$GPHDT,,T*1B
$GNACCURACY,6.0*10
$GNGGA,035421.500,2500.8051129,N,12132.4275508,E,4,40,0.79,16.793,M,15.25,M,0,3335*4D
$GNRMC,035421.500,A,2500.8051129,N,12132.4275508,E,0.13,0.00,090324,,,R,V*18
$GPHDT,,T*1B
$GNACCURACY,6.0*10
$GNGGA,035421.600,2500.8051148,N,12132.4275528,E,4,40,0.79,16.801,M,15.25,M,0,3335*4F
$GNRMC,035421.600,A,2500.8051148,N,12132.4275528,E,0.14,0.00,090324,,,R,V*19
$GPHDT,,T*1B
$GNACCURACY,6.0*10
$GNGGA,035421.700,2500.8051138,N,12132.4275517,E,4,39,0.79,16.800,M,15.25,M,0,3335*4A
$GNRMC,035421.700,A,2500.8051138,N,12132.4275517,E,0.15,0.00,090324,,,R,V*12
$GPHDT,,T*1B
$GNACCURACY,6.0*10
$GNGGA,035421.800,2500.8051159,N,12132.4275490,E,4,39,0.79,16.798,M,15.25,M,0,3335*42
$GNRMC,035421.800,A,2500.8051159,N,12132.4275490,E,0.17,0.00,090324,,,R,V*16
$GPHDT,,T*1B
$GNACCURACY,6.0*10
$GNGGA,035421.900,2500.8051141,N,12132.4275506,E,4,39,0.79,16.800,M,15.25,M,0,3335*4A
$GNRMC,035421.900,A,2500.8051141,N,12132.4275506,E,0.16,0.00,090324,,,R,V*11
$GPHDT,,T*1B
$GNACCURACY,6.1*11
$GNGGA,035422.000,2500.8051126,N,12132.4275509,E,4,39,0.79,16.797,M,15.25,M,1,3335*4E
$GNRMC,035422.000,A,2500.8051126,N,12132.4275509,E,0.15,0.00,090324,,,R,V*16
$GPHDT,,T*1B
$GNACCURACY,6.0*10
$GNGGA,035422.100,2500.8051146,N,12132.4275521,E,4,39,0.79,16.812,M,15.25,M,1,3335*41
$GNRMC,035422.100,A,2500.8051146,N,12132.4275521,E,0.14,0.00,090324,,,R,V*1A
$GPHDT,,T*1B
$GNGSA,A,3,08,194,195,199,21,27,07,16,26,,,,1.37,0.79,1.12,1*32
$GNGSA,A,3,88,78,77,,,,,,,,,,1.37,0.79,1.12,2*04
$GNGSA,A,3,13,27,,,,,,,,,,,1.37,0.79,1.12,3*0D
$GNGSA,A,3,09,16,23,43,40,39,07,10,25,37,34,,1.37,0.79,1.12,4*09
$GPGSV,3,1,11,08,67,341,47,194,64,050,41,195,62,118,42,50,60,167,41,1*65
$GPGSV,3,2,11,199,60,167,38,21,53,162,38,27,39,032,40,07,35,319,35,1*54
$GPGSV,3,3,11,16,30,068,37,196,20,171,,26,11,094,28,1*62
$GPGSV,2,1,05,08,67,341,46,194,64,050,44,195,62,118,43,199,60,167,49,8*51
$GPGSV,2,2,05,27,39,032,41,8*53
$GLGSV,1,1,04,88,63,040,44,78,53,024,42,77,27,102,29,87,09,026,23,1*7A
$GAGSV,1,1,02,13,54,091,44,27,30,073,37,7*7C
$GAGSV,1,1,02,13,54,091,44,27,30,073,39,1*74
$GBGSV,3,1,11,09,74,278,44,16,72,196,36,23,69,015,46,43,64,041,46,1*70
$GBGSV,3,2,11,40,62,324,43,39,61,184,29,07,61,303,41,10,51,285,31,1*73
$GBGSV,3,3,11,25,41,111,46,37,25,319,37,34,16,039,32,1*40
$GBGSV,2,1,07,23,69,015,46,43,64,041,41,40,62,324,46,39,61,184,34,4*7A
$GBGSV,2,2,07,25,41,111,45,37,25,319,35,34,16,039,32,4*43
$GNACCURACY,6.0*10
$PAIRSAT,1,14,7,0,1,8,0,21,16,0,1,20,0,200,21,0,201,22,0,200,23,0,200,24,0,200,26,0,20,27,0,21,194,0,21,195,0,221,196,0,200,199,0,621*7D
$PAIRSAT,2,10,75,0,200,76,0,200,77,0,1,78,0,201,79,0,200,80,0,200,85,0,200,86,0,200,87,0,201,88,0,201*7B
$PAIRSAT,3,6,2,0,200,13,0,21,25,0,1000,27,0,21,33,0,200,36,0,200*4D
$PAIRSAT,4,35,3,0,400,7,0,1,9,0,201,10,0,201,11,0,200,12,0,200,13,0,200,16,0,1,19,0,400,20,0,400,21,0,400,22,0,400,23,0,421,24,0,400,25,0,421,26,0,400,27,0,400,28,0,400,29,0,400,30,0,400,32,0,400,33,0,400,34,0,421,35,0,400,36,0,400,37,0,421,38,0,400,39,0,421,40,0,421,41,0,400,42,0,400,43,0,421,44,0,400,45,0,400,46,0,400*60
$PAIRDGP,0*45
$GNGGA,035422.200,2500.8051135,N,12132.4275479,E,4,39,0.79,16.797,M,15.25,M,1,3335*48
$GNRMC,035422.200,A,2500.8051135,N,12132.4275479,E,0.13,0.00,090324,,,R,V*16
$GPHDT,11.643,T*04
$GNACCURACY,6.1*11
$GNGGA,035422.300,2500.8051144,N,12132.4275506,E,4,39,0.79,16.804,M,15.25,M,1,3335*43
$GNRMC,035422.300,A,2500.8051144,N,12132.4275506,E,0.13,0.00,090324,,,R,V*18
$GPHDT,,T*1B
$GNACCURACY,6.1*11
$GNGGA,035422.400,2500.8051170,N,12132.4275548,E,4,39,0.79,16.806,M,15.25,M,1,3335*4B
$GNRMC,035422.400,A,2500.8051170,N,12132.4275548,E,0.14,0.00,090324,,,R,V*15
$GPHDT,11.388,T*06
$GNACCURACY,6.1*11
$GNGGA,035422.500,2500.8051147,N,12132.4275539,E,4,39,0.79,16.813,M,15.25,M,0,3335*4D
$GNRMC,035422.500,A,2500.8051147,N,12132.4275539,E,0.13,0.00,090324,,,R,V*11
$GPHDT,,T*1B
$GNACCURACY,6.0*10
$GNGGA,035422.600,2500.8051164,N,12132.4275496,E,4,39,0.79,16.807,M,15.25,M,0,3335*4E
$GNRMC,035422.600,A,2500.8051164,N,12132.4275496,E,0.14,0.00,090324,,,R,V*10
$GPHDT,12.106,T*01
$GNACCURACY,6.1*11
$GNGGA,035422.700,2500.8051133,N,12132.4275510,E,4,39,0.79,16.810,M,15.25,M,0,3335*44
$GNRMC,035422.700,A,2500.8051133,N,12132.4275510,E,0.14,0.00,090324,,,R,V*1C
$GPHDT,,T*1B
$GNACCURACY,6.0*10
$GNGGA,035422.800,2500.8051166,N,12132.4275542,E,4,39,0.79,16.817,M,15.25,M,0,3335*4B
$GNRMC,035422.800,A,2500.8051166,N,12132.4275542,E,0.16,0.00,090324,,,R,V*16
$GPHDT,11.851,T*09
$GNACCURACY,6.0*10
$GNGGA,035422.900,2500.8051142,N,12132.4275531,E,4,39,0.79,16.810,M,15.25,M,0,3335*4F
$GNRMC,035422.900,A,2500.8051142,N,12132.4275531,E,0.16,0.00,090324,,,R,V*15
$GPHDT,,T*1B
$GNACCURACY,6.0*10
$GNGGA,035423.000,2500.8051163,N,12132.4275515,E,4,39,0.79,16.808,M,15.25,M,1,3335*4A
$GNRMC,035423.000,A,2500.8051163,N,12132.4275515,E,0.16,0.00,090324,,,R,V*18
$GPHDT,11.946,T*0E
$GNACCURACY,6.1*11
$GNGGA,035423.100,2500.8051132,N,12132.4275517,E,4,39,0.79,16.807,M,15.25,M,1,3335*42
$GNRMC,035423.100,A,2500.8051132,N,12132.4275517,E,0.14,0.00,090324,,,R,V*1D
$GPHDT,,T*1B
$GNGSA,A,3,08,194,195,199,21,27,07,16,26,,,,1.37,0.79,1.12,1*32
$GNGSA,A,3,88,78,77,,,,,,,,,,1.37,0.79,1.12,2*04
$GNGSA,A,3,13,27,,,,,,,,,,,1.37,0.79,1.12,3*0D
$GNGSA,A,3,09,16,23,43,40,07,39,10,25,37,34,,1.37,0.79,1.12,4*09
$GPGSV,3,1,11,08,67,341,47,194,64,050,41,195,62,118,42,199,60,167,38,1*5F
$GPGSV,3,2,11,50,60,167,41,21,53,162,38,27,39,032,40,07,35,319,35,1*6E
$GPGSV,3,3,11,16,30,068,37,196,20,171,18,26,11,094,28,1*6B
$GPGSV,2,1,05,08,67,341,46,194,64,050,44,195,62,118,43,199,60,167,49,8*51
$GPGSV,2,2,05,27,39,032,41,8*53
$GLGSV,1,1,04,88,63,040,44,78,53,024,43,77,27,102,29,87,09,026,23,1*7B
$GAGSV,1,1,03,13,54,091,44,27,30,073,36,21,,,41,7*7A
$GAGSV,1,1,02,13,54,091,44,27,30,073,39,1*74
$GBGSV,3,1,11,09,74,277,44,16,72,196,36,23,69,015,46,43,64,041,46,1*7F
$GBGSV,3,2,11,40,62,324,44,07,61,303,41,39,61,184,29,10,51,285,31,1*74
$GBGSV,3,3,11,25,41,111,46,37,25,319,37,34,16,039,32,1*40
$GBGSV,2,1,07,23,69,015,46,43,64,041,41,40,62,324,46,39,61,184,34,4*7A
$GBGSV,2,2,07,25,41,111,45,37,25,319,35,34,16,039,31,4*40
$GNACCURACY,6.1*11
$PAIRSAT,1,14,7,0,1,8,0,21,16,0,1,20,0,200,21,0,201,22,0,200,23,0,200,24,0,200,26,0,20,27,0,21,194,0,21,195,0,221,196,0,200,199,0,621*7D
$PAIRSAT,2,10,75,0,200,76,0,200,77,0,1,78,0,201,79,0,200,80,0,200,85,0,200,86,0,200,87,0,201,88,0,201*7B
$PAIRSAT,3,7,2,0,200,3,0,200,13,0,21,25,0,1000,27,0,21,33,0,200,36,0,200*51
$PAIRSAT,4,35,3,0,400,7,0,1,9,0,201,10,0,201,11,0,200,12,0,200,13,0,200,16,0,1,19,0,400,20,0,400,21,0,400,22,0,400,23,0,421,24,0,400,25,0,421,26,0,400,27,0,400,28,0,400,29,0,400,30,0,400,32,0,400,33,0,400,34,0,421,35,0,400,36,0,400,37,0,421,38,0,400,39,0,421,40,0,421,41,0,400,42,0,400,43,0,421,44,0,400,45,0,400,46,0,400*60
$PAIRDGP,0*45
$GNGGA,035423.200,2500.8051163,N,12132.4275523,E,4,39,0.79,16.810,M,15.25,M,1,3335*44
$GNRMC,035423.200,A,2500.8051163,N,12132.4275523,E,0.14,0.00,090324,,,R,V*1D
$GPHDT,11.635,T*05
$GNACCURACY,6.0*10
$GNGGA,035423.300,2500.8051154,N,12132.4275557,E,4,39,0.79,16.810,M,15.25,M,1,3335*42
$GNRMC,035423.300,A,2500.8051154,N,12132.4275557,E,0.14,0.00,090324,,,R,V*1B
$GPHDT,,T*1B
$GNACCURACY,6.0*10
$GNGGA,035423.400,2500.8051155,N,12132.4275551,E,4,39,0.79,16.809,M,15.25,M,1,3335*4A
$GNRMC,035423.400,A,2500.8051155,N,12132.4275551,E,0.13,0.00,090324,,,R,V*1C
$GPHDT,11.246,T*05
$GNACCURACY,6.0*10
$GNGGA,035423.500,2500.8051174,N,12132.4275555,E,4,39,0.79,16.807,M,15.25,M,1,3335*42
$GNRMC,035423.500,A,2500.8051174,N,12132.4275555,E,0.14,0.00,090324,,,R,V*1D
$GPHDT,,T*1B
$GNACCURACY,6.0*10
$GNGGA,035423.600,2500.8051148,N,12132.4275513,E,4,39,0.79,16.806,M,15.25,M,1,3335*4D
$GNRMC,035423.600,A,2500.8051148,N,12132.4275513,E,0.14,0.00,090324,,,R,V*13
$GPHDT,11.608,T*0B
$GNACCURACY,6.0*10
$GNGGA,035423.700,2500.8051143,N,12132.4275512,E,4,39,0.79,16.809,M,15.25,M,0,3335*48
$GNRMC,035423.700,A,2500.8051143,N,12132.4275512,E,0.15,0.00,090324,,,R,V*19
$GPHDT,,T*1B
$GNACCURACY,6.1*11
$GNGGA,035423.800,2500.8051130,N,12132.4275510,E,4,39,0.79,16.800,M,15.25,M,0,3335*48
$GNRMC,035423.800,A,2500.8051130,N,12132.4275510,E,0.16,0.00,090324,,,R,V*13
$GPHDT,11.102,T*06
$GNACCURACY,6.1*11
$GNGGA,035423.900,2500.8051156,N,12132.4275498,E,4,39,0.79,16.799,M,15.25,M,0,3335*47
$GNRMC,035423.900,A,2500.8051156,N,12132.4275498,E,0.17,0.00,090324,,,R,V*12
$GPHDT,,T*1B
$GNACCURACY,6.1*11
$GNGGA,035424.000,2500.8051145,N,12132.4275499,E,4,39,0.79,16.803,M,15.25,M,1,3335*47
$GNRMC,035424.000,A,2500.8051145,N,12132.4275499,E,0.15,0.00,090324,,,R,V*1D
$GPHDT,11.424,T*07
$GNACCURACY,6.0*10
$GNGGA,035424.100,2500.8051150,N,12132.4275544,E,4,39,0.79,16.809,M,15.25,M,1,3335*49
$GNRMC,035424.100,A,2500.8051150,N,12132.4275544,E,0.15,0.00,090324,,,R,V*19
$GPHDT,,T*1B
$GNGSA,A,3,08,194,195,199,21,27,07,16,26,,,,1.37,0.79,1.12,1*32
$GNGSA,A,3,88,78,77,,,,,,,,,,1.37,0.79,1.12,2*04
$GNGSA,A,3,13,27,,,,,,,,,,,1.37,0.79,1.12,3*0D
$GNGSA,A,3,09,16,23,43,40,07,39,10,25,37,34,,1.37,0.79,1.12,4*09
$GPGSV,3,1,11,08,67,341,47,194,64,050,41,195,62,118,42,199,60,167,38,1*5F
$GPGSV,3,2,11,50,60,167,41,21,53,162,38,27,39,032,39,07,35,319,35,1*60
$GPGSV,3,3,11,16,30,068,37,196,20,171,17,26,11,094,29,1*65
$GPGSV,2,1,05,08,67,341,46,194,64,050,44,195,62,118,42,199,60,167,49,8*50
$GPGSV,2,2,05,27,39,032,41,8*53
$GLGSV,1,1,04,88,63,040,44,78,53,024,43,77,27,102,29,87,09,026,24,1*7C
$GAGSV,1,1,03,13,54,091,44,27,30,073,37,21,,,42,7*78
$GAGSV,1,1,02,13,54,091,44,27,30,073,39,1*74
$GBGSV,3,1,11,09,74,277,44,16,72,196,36,23,69,015,46,43,64,041,46,1*7F
$GBGSV,3,2,11,40,62,324,44,07,61,303,41,39,61,184,29,10,51,285,31,1*74
$GBGSV,3,3,11,25,41,111,46,37,25,319,37,34,16,039,32,1*40
$GBGSV,2,1,07,23,69,015,46,43,64,041,41,40,62,324,46,39,61,184,34,4*7A
$GBGSV,2,2,07,25,41,111,45,37,25,319,35,34,16,039,31,4*40
$GNACCURACY,6.0*10
$PAIRSAT,1,14,7,0,1,8,0,21,16,0,1,20,0,200,21,0,201,22,0,200,23,0,200,24,0,200,26,0,20,27,0,21,194,0,21,195,0,221,196,0,200,199,0,621*7D
$PAIRSAT,2,10,75,0,200,76,0,200,77,0,1,78,0,201,79,0,200,80,0,200,85,0,200,86,0,200,87,0,201,88,0,201*7B
$PAIRSAT,3,7,2,0,200,3,0,200,13,0,21,25,0,1000,27,0,21,33,0,200,36,0,200*51
$PAIRSAT,4,35,3,0,400,7,0,1,9,0,201,10,0,201,11,0,200,12,0,200,13,0,200,16,0,1,19,0,400,20,0,400,21,0,400,22,0,400,23,0,421,24,0,400,25,0,421,26,0,400,27,0,400,28,0,400,29,0,400,30,0,400,32,0,400,33,0,400,34,0,421,35,0,400,36,0,400,37,0,421,38,0,400,39,0,421,40,0,421,41,0,400,42,0,400,43,0,421,44,0,400,45,0,400,46,0,400*60
$PAIRDGP,0*45
$GNGGA,035424.200,2500.8051148,N,12132.4275496,E,4,39,0.79,16.794,M,15.25,M,1,3335*46
$GNRMC,035424.200,A,2500.8051148,N,12132.4275496,E,0.15,0.00,090324,,,R,V*1D
$GPHDT,11.377,T*06
$GNACCURACY,6.0*10
$GNGGA,035424.300,2500.8051166,N,12132.4275528,E,4,39,0.79,16.809,M,15.25,M,1,3335*44
$GNRMC,035424.300,A,2500.8051166,N,12132.4275528,E,0.15,0.00,090324,,,R,V*14
$GPHDT,,T*1B
$GNACCURACY,6.1*11
$GNGGA,035424.400,2500.8051156,N,12132.4275528,E,4,39,0.79,16.790,M,15.25,M,1,3335*4F
$GNRMC,035424.400,A,2500.8051156,N,12132.4275528,E,0.14,0.00,090324,,,R,V*11
$GPHDT,10.960,T*0B
$GNACCURACY,6.1*11
$GNGGA,035424.500,2500.8051161,N,12132.4275503,E,4,39,0.79,16.792,M,15.25,M,1,3335*41
$GNRMC,035424.500,A,2500.8051161,N,12132.4275503,E,0.14,0.00,090324,,,R,V*1D
$GPHDT,,T*1B
$GNACCURACY,6.1*11
$GNGGA,035424.600,2500.8051151,N,12132.4275502,E,4,39,0.79,16.792,M,15.25,M,1,3335*40
$GNRMC,035424.600,A,2500.8051151,N,12132.4275502,E,0.15,0.00,090324,,,R,V*1D
$GPHDT,11.453,T*07
$GNACCURACY,6.1*11
$GNGGA,035424.700,2500.8051180,N,12132.4275512,E,4,39,0.79,16.792,M,15.25,M,0,3335*4D
$GNRMC,035424.700,A,2500.8051180,N,12132.4275512,E,0.15,0.00,090324,,,R,V*11
$GPHDT,,T*1B
$GNACCURACY,6.1*11
$GNGGA,035424.800,2500.8051181,N,12132.4275551,E,4,39,0.79,16.809,M,15.25,M,0,3335*49
$GNRMC,035424.800,A,2500.8051181,N,12132.4275551,E,0.16,0.00,090324,,,R,V*1B
$GPHDT,11.061,T*02
$GNACCURACY,6.1*11
$GNGGA,035424.900,2500.8051181,N,12132.4275519,E,4,39,0.79,16.802,M,15.25,M,0,3335*4F
$GNRMC,035424.900,A,2500.8051181,N,12132.4275519,E,0.17,0.00,090324,,,R,V*17
$GPHDT,,T*1B
$GNACCURACY,6.1*11
$GNGGA,035425.000,2500.8051199,N,12132.4275557,E,4,39,0.79,16.816,M,15.25,M,1,3335*40
$GNRMC,035425.000,A,2500.8051199,N,12132.4275557,E,0.17,0.00,090324,,,R,V*1C
$GPHDT,11.270,T*00
$GNACCURACY,6.1*11
$GNGGA,035425.100,2500.8051193,N,12132.4275559,E,4,39,0.79,16.820,M,15.25,M,1,3335*40
$GNRMC,035425.100,A,2500.8051193,N,12132.4275559,E,0.15,0.00,090324,,,R,V*1B
$GPHDT,,T*1B
$GNGSA,A,3,08,194,195,199,21,27,07,16,26,,,,1.37,0.79,1.12,1*32
$GNGSA,A,3,88,78,77,,,,,,,,,,1.37,0.79,1.12,2*04
$GNGSA,A,3,13,27,,,,,,,,,,,1.37,0.79,1.12,3*0D
$GNGSA,A,3,09,16,23,43,40,07,39,10,25,37,34,,1.37,0.79,1.12,4*09
$GPGSV,3,1,11,08,67,341,47,194,64,050,41,195,62,118,42,199,60,167,38,1*5F
$GPGSV,3,2,11,50,60,167,41,21,53,162,38,27,39,032,39,07,35,319,34,1*61
$GPGSV,3,3,11,16,30,068,37,196,20,171,18,26,11,094,29,1*6A
$GPGSV,2,1,05,08,67,341,46,194,64,050,44,195,62,118,42,199,60,167,49,8*50
$GPGSV,2,2,05,27,39,032,41,8*53
$GLGSV,1,1,04,88,63,040,44,78,53,024,43,77,27,102,30,87,09,026,24,1*74
$GAGSV,1,1,03,13,54,091,44,27,30,073,36,21,,,42,7*79
$GAGSV,1,1,03,13,54,091,44,27,30,073,39,21,,,44,1*76
$GBGSV,3,1,11,09,74,277,44,16,72,196,36,23,69,015,46,43,64,041,46,1*7F
$GBGSV,3,2,11,40,62,324,44,07,61,303,41,39,61,184,29,10,51,285,31,1*74
$GBGSV,3,3,11,25,41,111,46,37,25,319,38,34,16,039,31,1*4C
$GBGSV,2,1,07,23,69,015,46,43,64,041,41,40,62,324,46,39,61,184,34,4*7A
$GBGSV,2,2,07,25,41,111,45,37,25,319,35,34,16,039,31,4*40
$GNACCURACY,6.1*11
$PAIRSAT,1,14,7,0,1,8,0,21,16,0,1,20,0,200,21,0,201,22,0,200,23,0,200,24,0,200,26,0,20,27,0,21,194,0,21,195,0,221,196,0,200,199,0,621*7D
$PAIRSAT,2,10,75,0,200,76,0,200,77,0,1,78,0,201,79,0,200,80,0,200,85,0,200,86,0,200,87,0,201,88,0,201*7B
$PAIRSAT,3,7,2,0,200,3,0,200,13,0,21,25,0,1000,27,0,21,33,0,200,36,0,200*51
$PAIRSAT,4,35,3,0,400,7,0,1,9,0,201,10,0,201,11,0,200,12,0,200,13,0,200,16,0,1,19,0,400,20,0,400,21,0,400,22,0,400,23,0,421,24,0,400,25,0,421,26,0,400,27,0,400,28,0,400,29,0,400,30,0,400,32,0,400,33,0,400,34,0,421,35,0,400,36,0,400,37,0,421,38,0,400,39,0,421,40,0,421,41,0,400,42,0,400,43,0,421,44,0,400,45,0,400,46,0,400*60
$PAIRDGP,0*45
$GNGGA,035425.200,2500.8051186,N,12132.4275551,E,4,39,0.79,16.816,M,15.25,M,1,3335*4A
$GNRMC,035425.200,A,2500.8051186,N,12132.4275551,E,0.14,0.00,090324,,,R,V*15
$GPHDT,11.216,T*00
$GNACCURACY,6.1*11
$GNGGA,035425.300,2500.8051162,N,12132.4275532,E,4,39,0.79,16.811,M,15.25,M,1,3335*43
$GNRMC,035425.300,A,2500.8051162,N,12132.4275532,E,0.13,0.00,090324,,,R,V*1C
$GPHDT,,T*1B
$GNACCURACY,6.1*11
$GNGGA,035425.400,2500.8051224,N,12132.4275578,E,4,39,0.79,16.812,M,15.25,M,1,3335*48
$GNRMC,035425.400,A,2500.8051224,N,12132.4275578,E,0.14,0.00,090324,,,R,V*13
$GPHDT,11.197,T*0A
$GNACCURACY,6.1*11
$GNGGA,035425.500,2500.8051178,N,12132.4275519,E,4,39,0.79,16.816,M,15.25,M,0,3335*41
$GNRMC,035425.500,A,2500.8051178,N,12132.4275519,E,0.13,0.00,090324,,,R,V*18
$GPHDT,,T*1B
$GNACCURACY,6.2*12
$GNGGA,035425.600,2500.8051177,N,12132.4275517,E,4,39,0.79,16.806,M,15.25,M,0,3335*42
$GNRMC,035425.600,A,2500.8051177,N,12132.4275517,E,0.14,0.00,090324,,,R,V*1D
$GPHDT,11.435,T*07
$GNACCURACY,6.1*11
$GNGGA,035425.700,2500.8051164,N,12132.4275535,E,4,39,0.79,16.811,M,15.25,M,0,3335*47
$GNRMC,035425.700,A,2500.8051164,N,12132.4275535,E,0.15,0.00,090324,,,R,V*1F
$GPHDT,,T*1B
$GNACCURACY,6.1*11
$GNGGA,035425.800,2500.8051178,N,12132.4275527,E,4,39,0.79,16.818,M,15.25,M,0,3335*4F
$GNRMC,035425.800,A,2500.8051178,N,12132.4275527,E,0.15,0.00,090324,,,R,V*1E
$GPHDT,11.107,T*03
$GNACCURACY,6.1*11
$GNGGA,035425.900,2500.8051186,N,12132.4275539,E,4,39,0.79,16.816,M,15.25,M,0,3335*4E
$GNRMC,035425.900,A,2500.8051186,N,12132.4275539,E,0.15,0.00,090324,,,R,V*11
$GPHDT,,T*1B
$GNACCURACY,6.1*11
$GNGGA,035426.000,2500.8051144,N,12132.4275575,E,4,39,0.79,16.809,M,15.25,M,1,3335*4D
$GNRMC,035426.000,A,2500.8051144,N,12132.4275575,E,0.16,0.00,090324,,,R,V*1E
$GPHDT,10.937,T*09
$GNACCURACY,6.1*11
$GNGGA,035426.100,2500.8051198,N,12132.4275561,E,4,39,0.79,16.818,M,15.25,M,1,3335*48
$GNRMC,035426.100,A,2500.8051198,N,12132.4275561,E,0.13,0.00,090324,,,R,V*1E
$GPHDT,,T*1B
$GNGSA,A,3,08,194,195,199,21,27,07,16,26,,,,1.37,0.79,1.12,1*32
$GNGSA,A,3,88,78,77,,,,,,,,,,1.37,0.79,1.12,2*04
$GNGSA,A,3,13,27,,,,,,,,,,,1.37,0.79,1.12,3*0D
$GNGSA,A,3,09,16,23,43,40,07,39,10,25,37,34,,1.37,0.79,1.12,4*09
$GPGSV,3,1,11,08,67,341,47,194,64,050,41,195,62,118,43,199,60,167,38,1*5E
$GPGSV,3,2,11,50,60,167,41,21,53,162,37,27,39,032,39,07,35,319,32,1*68
$GPGSV,3,3,11,16,30,068,37,196,20,171,19,26,11,094,30,1*63
$GPGSV,2,1,05,08,67,341,46,194,64,050,44,195,62,118,43,199,60,167,47,8*5F
$GPGSV,2,2,05,27,39,032,40,8*52
$GLGSV,1,1,04,88,63,040,44,78,53,024,43,77,27,102,30,87,09,026,24,1*74
$GAGSV,1,1,03,13,54,091,44,27,30,073,36,21,,,42,7*79
$GAGSV,1,1,03,13,54,091,44,27,30,073,39,21,,,44,1*76
$GBGSV,3,1,11,09,74,277,44,16,72,196,36,23,69,015,46,43,64,041,47,1*7E
$GBGSV,3,2,11,40,62,324,44,07,61,303,41,39,61,184,29,10,51,285,31,1*74
$GBGSV,3,3,11,25,41,111,45,37,25,319,38,34,16,039,33,1*4D
$GBGSV,2,1,07,23,69,015,46,43,64,041,41,40,62,324,46,39,61,184,33,4*7D
$GBGSV,2,2,07,25,41,111,45,37,25,319,35,34,16,039,31,4*40
$GNACCURACY,6.1*11
$PAIRSAT,1,14,7,0,1,8,0,21,16,0,1,20,0,200,21,0,201,22,0,200,23,0,200,24,0,200,26,0,20,27,0,21,194,0,21,195,0,221,196,0,200,199,0,621*7D
$PAIRSAT,2,10,75,0,200,76,0,200,77,0,1,78,0,201,79,0,200,80,0,200,85,0,200,86,0,200,87,0,201,88,0,201*7B
$PAIRSAT,3,7,2,0,200,3,0,200,13,0,21,25,0,1000,27,0,21,33,0,200,36,0,200*51
$PAIRSAT,4,35,3,0,400,7,0,1,9,0,201,10,0,201,11,0,200,12,0,200,13,0,200,16,0,1,19,0,400,20,0,400,21,0,400,22,0,400,23,0,421,24,0,400,25,0,421,26,0,400,27,0,400,28,0,400,29,0,400,30,0,400,32,0,400,33,0,400,34,0,421,35,0,400,36,0,400,37,0,421,38,0,400,39,0,421,40,0,421,41,0,400,42,0,400,43,0,421,44,0,400,45,0,400,46,0,400*60
$PAIRDGP,0*45
$GNGGA,035426.200,2500.8051146,N,12132.4275486,E,4,39,0.79,16.819,M,15.25,M,1,3335*41
$GNRMC,035426.200,A,2500.8051146,N,12132.4275486,E,0.12,0.00,090324,,,R,V*17
$GPHDT,11.808,T*05
$GNACCURACY,6.2*12
$GNGGA,035426.300,2500.8051119,N,12132.4275461,E,4,39,0.79,16.811,M,15.25,M,1,3335*4B
$GNRMC,035426.300,A,2500.8051119,N,12132.4275461,E,0.12,0.00,090324,,,R,V*15
$GPHDT,,T*1B
$GNACCURACY,6.2*12
$GNGGA,035426.400,2500.8051128,N,12132.4275521,E,4,39,0.79,16.817,M,15.25,M,1,3335*4D
$GNRMC,035426.400,A,2500.8051128,N,12132.4275521,E,0.12,0.00,090324,,,R,V*15
$GPHDT,11.814,T*08
$GNACCURACY,6.2*12
$GNGGA,035426.500,2500.8051154,N,12132.4275530,E,4,40,0.79,16.815,M,15.25,M,1,3335*4B
$GNRMC,035426.500,A,2500.8051154,N,12132.4275530,E,0.13,0.00,090324,,,R,V*1E
$GPHDT,,T*1B
$GNACCURACY,6.2*12
$GNGGA,035426.600,2500.8051157,N,12132.4275555,E,4,40,0.79,16.831,M,15.25,M,1,3335*4E
$GNRMC,035426.600,A,2500.8051157,N,12132.4275555,E,0.13,0.00,090324,,,R,V*1D
$GPHDT,11.234,T*00
$GNACCURACY,6.3*13
$GNGGA,035426.700,2500.8051148,N,12132.4275472,E,4,40,0.79,16.829,M,15.25,M,0,3335*4D
$GNRMC,035426.700,A,2500.8051148,N,12132.4275472,E,0.13,0.00,090324,,,R,V*16
$GPHDT,,T*1B
$GNACCURACY,6.2*12
$GNGGA,035426.800,2500.8051144,N,12132.4275516,E,4,40,0.79,16.837,M,15.25,M,0,3335*42
$GNRMC,035426.800,A,2500.8051144,N,12132.4275516,E,0.16,0.00,090324,,,R,V*13
$GPHDT,11.384,T*0A
$GNACCURACY,6.2*12
$GNGGA,035426.900,2500.8051137,N,12132.4275423,E,4,40,0.79,16.804,M,15.25,M,0,3335*40
$GNRMC,035426.900,A,2500.8051137,N,12132.4275423,E,0.16,0.00,090324,,,R,V*11
$GPHDT,,T*1B
$GNACCURACY,6.2*12
$GNGGA,035427.000,2500.8051145,N,12132.4275487,E,4,40,0.78,16.821,M,15.25,M,1,3335*44
$GNRMC,035427.000,A,2500.8051145,N,12132.4275487,E,0.16,0.00,090324,,,R,V*12
$GPHDT,11.353,T*00
$GNACCURACY,6.3*13
$GNGGA,035427.100,2500.8051124,N,12132.4275481,E,4,40,0.79,16.823,M,15.25,M,1,3335*47
$GNRMC,035427.100,A,2500.8051124,N,12132.4275481,E,0.15,0.00,090324,,,R,V*11
$GPHDT,,T*1B
$GNGSA,A,3,08,194,195,199,21,27,07,16,26,,,,1.37,0.79,1.12,1*32
$GNGSA,A,3,88,78,77,,,,,,,,,,1.37,0.79,1.12,2*04
$GNGSA,A,3,13,27,,,,,,,,,,,1.37,0.79,1.12,3*0D
$GNGSA,A,3,09,16,23,43,40,07,39,10,25,37,34,,1.37,0.79,1.12,4*09
$GPGSV,3,1,11,08,67,341,47,194,64,050,42,195,62,118,42,199,60,167,38,1*5C
$GPGSV,3,2,11,50,60,167,41,21,53,162,37,27,39,032,40,07,35,319,32,1*66
$GPGSV,3,3,11,16,30,068,36,196,20,171,20,26,11,094,29,1*60
$GPGSV,2,1,06,08,67,341,46,194,64,050,43,195,62,118,44,199,60,167,47,8*5C
$GPGSV,2,2,06,27,39,032,40,26,11,094,25,8*6F
$GLGSV,1,1,04,88,63,040,45,78,53,024,43,77,27,102,28,87,09,026,20,1*78
$GAGSV,1,1,03,13,54,091,44,27,30,073,38,21,,,43,7*76
$GAGSV,1,1,03,13,54,091,42,27,30,073,39,21,,,44,1*70
$GBGSV,3,1,11,09,74,277,43,16,72,196,35,23,69,015,45,43,64,041,47,1*79
$GBGSV,3,2,11,40,62,324,44,07,61,303,41,39,61,184,28,10,51,285,31,1*75
$GBGSV,3,3,11,25,41,111,45,37,25,319,35,34,16,039,32,1*41
$GBGSV,2,1,07,23,69,015,44,43,64,041,40,40,62,324,46,39,61,184,32,4*7F
$GBGSV,2,2,07,25,41,111,45,37,25,319,36,34,16,039,31,4*43
$GNACCURACY,6.3*13
$PAIRSAT,1,14,7,0,1,8,0,21,16,0,1,20,0,200,21,0,201,22,0,200,23,0,200,24,0,200,26,0,20,27,0,21,194,0,21,195,0,221,196,0,200,199,0,621*7D
$PAIRSAT,2,10,75,0,200,76,0,200,77,0,1,78,0,201,79,0,200,80,0,200,85,0,200,86,0,200,87,0,201,88,0,201*7B
$PAIRSAT,3,7,2,0,200,3,0,200,13,0,21,25,0,1000,27,0,21,33,0,200,36,0,200*51
$PAIRSAT,4,35,3,0,400,7,0,1,9,0,201,10,0,201,11,0,200,12,0,200,13,0,200,16,0,1,19,0,400,20,0,400,21,0,400,22,0,400,23,0,421,24,0,400,25,0,421,26,0,400,27,0,400,28,0,400,29,0,400,30,0,400,32,0,400,33,0,400,34,0,421,35,0,400,36,0,400,37,0,421,38,0,400,39,0,421,40,0,421,41,0,400,42,0,400,43,0,421,44,0,400,45,0,400,46,0,400*60
$PAIRDGP,0*45
$GNGGA,035427.200,2500.8051140,N,12132.4275476,E,4,40,0.79,16.837,M,15.25,M,1,3335*4B
$GNRMC,035427.200,A,2500.8051140,N,12132.4275476,E,0.13,0.00,090324,,,R,V*1E
$GPHDT,11.828,T*07
$GNACCURACY,6.3*13
$GNGGA,035427.300,2500.8051120,N,12132.4275463,E,4,40,0.79,16.815,M,15.25,M,1,3335*48
$GNRMC,035427.300,A,2500.8051120,N,12132.4275463,E,0.13,0.00,090324,,,R,V*1D
$GPHDT,,T*1B
$GNACCURACY,6.3*13
$GNGGA,035427.400,2500.8051134,N,12132.4275463,E,4,40,0.79,16.826,M,15.25,M,1,3335*4A
$GNRMC,035427.400,A,2500.8051134,N,12132.4275463,E,0.13,0.00,090324,,,R,V*1F
$GPHDT,11.662,T*07
$GNACCURACY,6.3*13
$GNGGA,035427.500,2500.8051084,N,12132.4275456,E,4,40,0.79,16.822,M,15.25,M,0,3335*42
$GNRMC,035427.500,A,2500.8051084,N,12132.4275456,E,0.12,0.00,090324,,,R,V*13
$GPHDT,,T*1B
$GNACCURACY,6.2*12
$GNGGA,035427.600,2500.8051107,N,12132.4275482,E,4,40,0.79,16.819,M,15.25,M,0,3335*4A
$GNRMC,035427.600,A,2500.8051107,N,12132.4275482,E,0.14,0.00,090324,,,R,V*15
$GPHDT,11.538,T*0B
$GNACCURACY,6.2*12
$GNGGA,035427.700,2500.8051123,N,12132.4275499,E,4,40,0.79,16.827,M,15.25,M,0,3335*4A
$GNRMC,035427.700,A,2500.8051123,N,12132.4275499,E,0.15,0.00,090324,,,R,V*19
$GPHDT,,T*1B
$GNACCURACY,6.3*13
$GNGGA,035427.800,2500.8051102,N,12132.4275489,E,4,40,0.79,16.823,M,15.25,M,0,3335*43
$GNRMC,035427.800,A,2500.8051102,N,12132.4275489,E,0.16,0.00,090324,,,R,V*17
$GPHDT,11.247,T*04
$GNACCURACY,6.3*13
$GNGGA,035427.900,2500.8051121,N,12132.4275488,E,4,40,0.79,16.826,M,15.25,M,0,3335*47
$GNRMC,035427.900,A,2500.8051121,N,12132.4275488,E,0.17,0.00,090324,,,R,V*17
$GPHDT,,T*1B
$GNACCURACY,6.3*13
$GNGGA,035428.000,2500.8051116,N,12132.4275498,E,4,40,0.79,16.829,M,15.25,M,1,3335*4A
$GNRMC,035428.000,A,2500.8051116,N,12132.4275498,E,0.16,0.00,090324,,,R,V*15
$GPHDT,11.388,T*06
$GNACCURACY,6.2*12
$GNGGA,035428.100,2500.8051135,N,12132.4275488,E,4,40,0.79,16.821,M,15.25,M,1,3335*43
$GNRMC,035428.100,A,2500.8051135,N,12132.4275488,E,0.15,0.00,090324,,,R,V*17
$GPHDT,,T*1B
$GNGSA,A,3,08,194,195,199,21,27,07,16,26,,,,1.37,0.79,1.12,1*32
$GNGSA,A,3,88,78,77,,,,,,,,,,1.37,0.79,1.12,2*04
$GNGSA,A,3,13,27,,,,,,,,,,,1.37,0.79,1.12,3*0D
$GNGSA,A,3,09,16,23,43,40,07,39,10,25,37,34,,1.37,0.79,1.12,4*09
$GPGSV,3,1,11,08,67,341,47,194,64,050,42,195,62,118,42,199,60,167,38,1*5C
$GPGSV,3,2,11,50,60,167,41,21,53,162,37,27,39,032,40,07,35,319,31,1*65
$GPGSV,3,3,11,16,30,068,37,196,20,171,19,26,11,094,29,1*6B
$GPGSV,2,1,06,08,67,341,46,194,64,050,43,195,62,118,44,199,60,167,47,8*5C
$GPGSV,2,2,06,27,39,032,40,26,11,094,24,8*6E
$GLGSV,1,1,04,88,63,040,45,78,53,024,43,77,27,102,27,87,09,026,20,1*77
$GAGSV,1,1,03,13,54,091,44,27,30,073,39,21,,,43,7*77
$GAGSV,1,1,03,13,54,091,42,27,30,073,39,21,,,43,1*77
$GBGSV,3,1,11,09,74,277,43,16,72,196,35,23,69,015,44,43,64,041,47,1*78
$GBGSV,3,2,11,40,62,324,44,07,61,303,41,39,61,184,28,10,51,285,31,1*75
$GBGSV,3,3,11,25,41,111,45,37,25,319,35,34,16,039,32,1*41
$GBGSV,2,1,07,23,69,015,44,43,64,041,40,40,62,324,46,39,61,184,32,4*7F
$GBGSV,2,2,07,25,41,111,45,37,25,319,36,34,16,039,31,4*43
$GNACCURACY,6.2*12
$PAIRSAT,1,14,7,0,1,8,0,21,16,0,1,20,0,200,21,0,201,22,0,200,23,0,200,24,0,200,26,0,20,27,0,21,194,0,21,195,0,221,196,0,200,199,0,621*7D
$PAIRSAT,2,10,75,0,200,76,0,200,77,0,1,78,0,201,79,0,200,80,0,200,85,0,200,86,0,200,87,0,201,88,0,201*7B
$PAIRSAT,3,7,2,0,200,3,0,200,13,0,21,25,0,1000,27,0,21,33,0,200,36,0,200*51
$PAIRSAT,4,35,3,0,400,7,0,1,9,0,201,10,0,201,11,0,200,12,0,200,13,0,200,16,0,1,19,0,400,20,0,400,21,0,400,22,0,400,23,0,421,24,0,400,25,0,421,26,0,400,27,0,400,28,0,400,29,0,400,30,0,400,32,0,400,33,0,400,34,0,421,35,0,400,36,0,400,37,0,421,38,0,400,39,0,421,40,0,421,41,0,400,42,0,400,43,0,421,44,0,400,45,0,400,46,0,400*60
$PAIRDGP,0*45
$GNGGA,035428.200,2500.8051116,N,12132.4275477,E,4,40,0.79,16.814,M,15.25,M,1,3335*47
$GNRMC,035428.200,A,2500.8051116,N,12132.4275477,E,0.13,0.00,090324,,,R,V*13
$GPHDT,11.272,T*02
$GNACCURACY,6.2*12
$GNGGA,035428.300,2500.8051112,N,12132.4275498,E,4,40,0.79,16.813,M,15.25,M,1,3335*44
$GNRMC,035428.300,A,2500.8051112,N,12132.4275498,E,0.13,0.00,090324,,,R,V*17
$GPHDT,,T*1B
$GNACCURACY,6.2*12
$GNGGA,035428.400,2500.8051131,N,12132.4275500,E,4,40,0.79,16.830,M,15.25,M,1,3335*43
$GNRMC,035428.400,A,2500.8051131,N,12132.4275500,E,0.14,0.00,090324,,,R,V*16
$GPHDT,11.077,T*05
