$FW : RTK35X,V1.1X0314AS,Lib20210517,1*54
$Tool : LOCOSYS , GNSS Firebird , v1.0.0.19*39
$---------------------------------------------------*2D
$GNGSA,A,3,08,194,195,199,21,27,07,16,26,,,,1.37,0.79,1.12,1*32
$GNGSA,A,3,88,78,77,,,,,,,,,,1.37,0.79,1.12,2*04
$GNGSA,A,3,13,27,,,,,,,,,,,1.37,0.79,1.12,3*0D
$GNGSA,A,3,09,16,23,43,40,07,39,10,25,37,34,,1.37,0.79,1.12,4*09
$GPGSV,3,1,10,08,67,341,37,194,64,050,36,195,62,118,41,199,60,167,41,1*54
$GPGSV,3,2,10,21,52,162,41,50,50,134,42,27,39,032,43,07,35,319,33,1*63
$GPGSV,3,3,10,16,30,068,44,26,11,094,21,1*65
$GPGSV,2,1,06,08,67,341,43,194,64,050,39,195,62,118,43,199,60,167,46,8*52
$GPGSV,2,2,06,27,39,032,39,26,11,094,26,8*62
$GLGSV,1,1,04,88,63,040,42,78,53,024,42,77,27,102,20,87,09,027,21,1*76
$GAGSV,1,1,02,13,54,092,43,27,31,073,44,7*7D
$GAGSV,1,1,02,13,54,092,39,27,31,073,43,1*71
$GBGSV,3,1,12,09,74,278,39,16,72,196,32,23,69,014,46,43,65,041,43,1*78
$GBGSV,3,2,12,40,62,324,37,07,61,303,37,39,61,184,30,10,51,285,28,1*72
$GBGSV,3,3,12,25,41,110,27,37,25,319,25,34,16,039,36,38,08,169,,1*7F
$GBGSV,2,1,07,23,69,014,43,43,65,041,36,40,62,324,38,39,61,184,34,4*76
$GBGSV,2,2,07,25,41,110,41,37,25,319,26,34,16,039,31,4*47
$GNACCURACY,6.2*12
$PAIRSAT,1,12,7,0,1,8,0,21,16,0,1,20,0,200,21,0,201,22,0,200,23,0,200,26,0,20,27,0,21,194,0,21,195,0,221,199,0,621*43
$PAIRSAT,2,8,75,0,200,76,0,200,77,0,1,78,0,201,85,0,200,86,0,200,87,0,201,88,0,201*44
$PAIRSAT,3,5,13,0,1,25,0,1000,27,0,1,33,0,200,36,0,200*52
$PAIRSAT,4,34,3,0,400,7,0,1,9,0,201,10,0,201,11,0,200,12,0,200,16,0,1,19,0,400,20,0,400,21,0,400,22,0,400,23,0,421,24,0,400,25,0,421,26,0,400,27,0,400,28,0,400,29,0,400,30,0,400,32,0,400,33,0,400,34,0,421,35,0,400,36,0,400,37,0,421,38,0,400,39,0,421,40,0,421,41,0,400,42,0,400,43,0,420,44,0,400,45,0,400,46,0,400*4C
$PAIRDGP,0*45
$GNGGA,035357.200,2500.8056700,N,12132.4248000,E,1,39,0.79,13.47,M,15.25,M,1,3335*74
$GNRMC,035357.200,A,2500.8056700,N,12132.4248000,E,0.16,0.00,090324,,,A,V*06
$GPHDT,,T*1B
$GNACCURACY,6.3*13
$GNGGA,035357.300,2500.8056700,N,12132.4248100,E,1,39,0.79,13.48,M,15.25,M,1,3335*7B
$GNRMC,035357.300,A,2500.8056700,N,12132.4248100,E,0.16,0.00,090324,,,A,V*06
$GPHDT,,T*1B
$GNACCURACY,6.3*13
$GNGGA,035357.400,2500.8056800,N,12132.4248100,E,1,40,0.79,13.49,M,15.25,M,1,3335*7C
$GNRMC,035357.400,A,2500.8056800,N,12132.4248100,E,0.17,0.00,090324,,,A,V*0F
$GPHDT,,T*1B
$GNACCURACY,6.3*13
$GNGGA,035357.500,2500.8056900,N,12132.4248200,E,1,39,0.79,13.52,M,15.25,M,0,3335*7A
$GNRMC,035357.500,A,2500.8056900,N,12132.4248200,E,0.17,0.00,090324,,,A,V*0C
$GPHDT,,T*1B
$GNACCURACY,6.3*13
$GNGGA,035357.600,2500.8056900,N,12132.4248200,E,1,39,0.79,13.53,M,15.25,M,0,3335*78
$GNRMC,035357.600,A,2500.8056900,N,12132.4248200,E,0.16,0.00,090324,,,A,V*0E
$GPHDT,,T*1B
$GNACCURACY,6.3*13
$GNGGA,035357.700,2500.8057000,N,12132.4248300,E,1,40,0.79,13.56,M,15.25,M,0,3335*7B
$GNRMC,035357.700,A,2500.8057000,N,12132.4248300,E,0.18,0.00,090324,,,A,V*08
$GPHDT,,T*1B
$GNACCURACY,6.3*13
$GNGGA,035357.800,2500.8057000,N,12132.4248300,E,1,39,0.79,13.57,M,15.25,M,0,3335*7B
$GNRMC,035357.800,A,2500.8057000,N,12132.4248300,E,0.17,0.00,090324,,,A,V*08
$GPHDT,,T*1B
$GNACCURACY,6.2*12
$GNGGA,035357.900,2500.8057100,N,12132.4248300,E,1,39,0.79,13.59,M,15.25,M,0,3335*75
$GNRMC,035357.900,A,2500.8057100,N,12132.4248300,E,0.18,0.00,090324,,,A,V*07
$GPHDT,,T*1B
$GNACCURACY,6.2*12
$GNGGA,035358.000,2500.8057200,N,12132.4248500,E,1,40,0.79,13.61,M,15.25,M,1,3335*72
$GNRMC,035358.000,A,2500.8057200,N,12132.4248500,E,0.20,0.00,090324,,,A,V*0F
$GPHDT,,T*1B
$GNACCURACY,6.2*12
$GNGGA,035358.100,2500.8057300,N,12132.4248600,E,1,39,0.79,13.65,M,15.25,M,1,3335*7B
$GNRMC,035358.100,A,2500.8057300,N,12132.4248600,E,0.19,0.00,090324,,,A,V*06
$GPHDT,,T*1B
$GNGSA,A,3,08,194,195,199,21,27,07,16,26,,,,1.40,0.81,1.14,1*33
$GNGSA,A,3,88,78,77,,,,,,,,,,1.40,0.81,1.14,2*05
$GNGSA,A,3,13,27,,,,,,,,,,,1.40,0.81,1.14,3*0C
$GNGSA,A,3,09,16,23,43,40,07,39,25,37,34,,,1.40,0.81,1.14,4*09
$GPGSV,3,1,10,08,67,341,39,194,64,050,39,195,62,118,40,199,60,167,40,1*55
$GPGSV,3,2,10,21,53,162,40,50,50,134,42,27,39,032,44,07,35,319,36,1*61
$GPGSV,3,3,10,16,30,068,44,26,11,094,20,1*64
$GPGSV,2,1,06,08,67,341,42,194,64,050,40,195,62,118,41,199,60,167,44,8*5D
$GPGSV,2,2,06,27,39,032,41,26,11,094,27,8*6C
$GLGSV,1,1,04,88,63,040,44,78,53,024,42,77,27,102,20,87,09,027,20,1*71
$GAGSV,1,1,02,13,54,092,43,27,31,073,44,7*7D
$GAGSV,1,1,02,13,54,092,39,27,31,073,43,1*71
$GBGSV,3,1,11,09,74,278,36,16,72,196,32,23,69,014,47,43,65,041,44,1*72
$GBGSV,3,2,11,40,62,324,37,07,61,303,33,39,61,184,30,10,51,285,25,1*78
$GBGSV,3,3,11,25,41,110,34,37,25,319,27,34,16,039,37,1*40
$GBGSV,2,1,07,23,69,014,43,43,65,041,37,40,62,324,36,39,61,184,32,4*7F
$GBGSV,2,2,07,25,41,110,40,37,25,319,27,34,16,039,33,4*45
$GNACCURACY,6.2*12
$PAIRSAT,1,12,7,0,1,8,0,21,16,0,1,20,0,200,21,0,201,22,0,200,23,0,200,26,0,20,27,0,21,194,0,21,195,0,221,199,0,621*43
$PAIRSAT,2,8,75,0,200,76,0,200,77,0,1,78,0,201,85,0,200,86,0,200,87,0,201,88,0,201*44
$PAIRSAT,3,5,13,0,1,25,0,1000,27,0,1,33,0,200,36,0,200*52
$PAIRSAT,4,34,3,0,400,7,0,1,9,0,201,10,0,201,11,0,200,12,0,200,16,0,1,19,0,400,20,0,400,21,0,400,22,0,400,23,0,421,24,0,400,25,0,421,26,0,400,27,0,400,28,0,400,29,0,400,30,0,400,32,0,400,33,0,400,34,0,421,35,0,400,36,0,400,37,0,421,38,0,400,39,0,421,40,0,421,41,0,400,42,0,400,43,0,420,44,0,400,45,0,400,46,0,400*4C
$PAIRDGP,0*45
$GNGGA,035358.200,2500.8057200,N,12132.4248600,E,1,39,0.81,13.59,M,15.25,M,1,3335*71
$GNRMC,035358.200,A,2500.8057200,N,12132.4248600,E,0.18,0.00,090324,,,A,V*05
$GPHDT,,T*1B
$GNACCURACY,6.2*12
$GNGGA,035358.300,2500.8057300,N,12132.4248700,E,1,40,0.79,13.66,M,15.25,M,1,3335*75
$GNRMC,035358.300,A,2500.8057300,N,12132.4248700,E,0.18,0.00,090324,,,A,V*04
$GPHDT,,T*1B
$GNACCURACY,6.1*11
$GNGGA,035358.400,2500.8057300,N,12132.4248800,E,1,38,0.81,13.65,M,15.25,M,1,3335*76
$GNRMC,035358.400,A,2500.8057300,N,12132.4248800,E,0.19,0.00,090324,,,A,V*0D
$GPHDT,,T*1B
$GNACCURACY,6.1*11
$GNGGA,035358.500,2500.8057300,N,12132.4248800,E,1,38,0.81,13.68,M,15.25,M,1,3335*7A
$GNRMC,035358.500,A,2500.8057300,N,12132.4248800,E,0.17,0.00,090324,,,A,V*02
$GPHDT,,T*1B
$GNACCURACY,6.1*11
$GNGGA,035358.600,2500.8057300,N,12132.4248800,E,1,38,0.81,13.70,M,15.25,M,0,3335*71
$GNRMC,035358.600,A,2500.8057300,N,12132.4248800,E,0.16,0.00,090324,,,A,V*00
$GPHDT,,T*1B
$GNACCURACY,6.1*11
$GNGGA,035358.700,2500.8057500,N,12132.4248900,E,1,39,0.81,13.73,M,15.25,M,0,3335*75
$GNRMC,035358.700,A,2500.8057500,N,12132.4248900,E,0.17,0.00,090324,,,A,V*07
$GPHDT,,T*1B
$GNACCURACY,6.1*11
$GNGGA,035358.800,2500.8057600,N,12132.4248900,E,1,39,0.81,13.75,M,15.25,M,0,3335*7F
$GNRMC,035358.800,A,2500.8057600,N,12132.4248900,E,0.17,0.00,090324,,,A,V*0B
$GPHDT,,T*1B
$GNACCURACY,6.1*11
$GNGGA,035358.900,2500.8057700,N,12132.4249000,E,1,39,0.81,13.78,M,15.25,M,0,3335*7A
$GNRMC,035358.900,A,2500.8057700,N,12132.4249000,E,0.17,0.00,090324,,,A,V*03
$GPHDT,,T*1B
$GNACCURACY,6.0*10
$GNGGA,035359.000,2500.8057800,N,12132.4249000,E,1,39,0.81,13.78,M,15.25,M,1,3335*7C
$GNRMC,035359.000,A,2500.8057800,N,12132.4249000,E,0.17,0.00,090324,,,A,V*04
$GPHDT,,T*1B
$GNACCURACY,6.0*10
$GNGGA,035359.100,2500.8057800,N,12132.4249000,E,1,39,0.81,13.77,M,15.25,M,1,3335*72
$GNRMC,035359.100,A,2500.8057800,N,12132.4249000,E,0.16,0.00,090324,,,A,V*04
$GPHDT,,T*1B
$GNGSA,A,3,08,194,195,199,21,27,07,16,26,,,,1.37,0.79,1.12,1*32
$GNGSA,A,3,88,78,77,,,,,,,,,,1.37,0.79,1.12,2*04
$GNGSA,A,3,13,27,,,,,,,,,,,1.37,0.79,1.12,3*0D
$GNGSA,A,3,09,16,23,43,40,07,39,10,25,37,34,,1.37,0.79,1.12,4*09
$GPGSV,3,1,10,08,67,341,32,194,64,050,38,195,62,118,41,199,60,167,40,1*5E
$GPGSV,3,2,10,21,53,162,42,50,50,134,44,27,39,032,42,07,35,319,39,1*6C
$GPGSV,3,3,10,16,30,068,43,26,11,094,20,1*63
$GPGSV,2,1,06,08,67,341,39,194,64,050,40,195,62,118,44,199,60,167,47,8*57
$GPGSV,2,2,06,27,39,032,37,26,11,094,33,8*68
$GLGSV,1,1,04,88,63,040,43,78,53,024,44,77,27,102,20,87,09,027,31,1*70
$GAGSV,1,1,02,13,54,092,42,27,31,073,44,7*7C
$GAGSV,1,1,02,13,54,092,36,27,31,073,43,1*7E
$GBGSV,3,1,11,09,74,278,40,16,72,196,36,23,69,014,47,43,65,041,44,1*77
$GBGSV,3,2,11,40,62,324,39,07,61,303,39,39,61,184,30,10,51,285,22,1*7B
$GBGSV,3,3,11,25,41,110,39,37,25,319,29,34,16,039,39,1*4D
$GBGSV,2,1,07,23,69,014,44,43,65,041,38,40,62,324,30,39,61,184,37,4*74
$GBGSV,2,2,07,25,41,110,42,37,25,319,32,34,16,039,36,4*46
$GNACCURACY,6.0*10
$PAIRSAT,1,12,7,0,1,8,0,21,16,0,1,20,0,200,21,0,201,22,0,200,23,0,200,26,0,20,27,0,21,194,0,21,195,0,221,199,0,621*43
$PAIRSAT,2,8,75,0,200,76,0,200,77,0,1,78,0,201,85,0,200,86,0,200,87,0,201,88,0,201*44
$PAIRSAT,3,5,13,0,1,25,0,1000,27,0,1,33,0,200,36,0,200*52
$PAIRSAT,4,34,3,0,400,7,0,1,9,0,201,10,0,201,11,0,200,12,0,200,16,0,1,19,0,400,20,0,400,21,0,400,22,0,400,23,0,421,24,0,400,25,0,421,26,0,400,27,0,400,28,0,400,29,0,400,30,0,400,32,0,400,33,0,400,34,0,421,35,0,400,36,0,400,37,0,421,38,0,400,39,0,421,40,0,421,41,0,400,42,0,400,43,0,420,44,0,400,45,0,400,46,0,400*4C
$PAIRDGP,0*45
$GNGGA,035359.200,2500.8057900,N,12132.4249100,E,1,40,0.79,13.79,M,15.25,M,1,3335*76
$GNRMC,035359.200,A,2500.8057900,N,12132.4249100,E,0.16,0.00,090324,,,A,V*07
$GPHDT,,T*1B
$GNACCURACY,6.0*10
$GNGGA,035359.300,2500.8057900,N,12132.4249100,E,1,40,0.79,13.78,M,15.25,M,1,3335*76
$GNRMC,035359.300,A,2500.8057900,N,12132.4249100,E,0.16,0.00,090324,,,A,V*06
$GPHDT,,T*1B
$GNACCURACY,6.0*10
$GNGGA,035359.400,2500.8057900,N,12132.4249100,E,1,40,0.79,13.79,M,15.25,M,1,3335*70
$GNRMC,035359.400,A,2500.8057900,N,12132.4249100,E,0.15,0.00,090324,,,A,V*02
$GPHDT,,T*1B
$GNACCURACY,6.0*10
$GNGGA,035359.500,2500.8057900,N,12132.4249200,E,1,40,0.79,13.80,M,15.25,M,1,3335*74
$GNRMC,035359.500,A,2500.8057900,N,12132.4249200,E,0.16,0.00,090324,,,A,V*03
$GPHDT,,T*1B
$GNACCURACY,6.0*10
$GNGGA,035359.600,2500.8058000,N,12132.4249200,E,1,40,0.79,13.81,M,15.25,M,0,3335*71
$GNRMC,035359.600,A,2500.8058000,N,12132.4249200,E,0.15,0.00,090324,,,A,V*05
$GPHDT,,T*1B
$GNACCURACY,6.0*10
$GNGGA,035359.700,2500.8058100,N,12132.4249300,E,1,39,0.81,13.82,M,15.25,M,0,3335*7A
$GNRMC,035359.700,A,2500.8058100,N,12132.4249300,E,0.16,0.00,090324,,,A,V*07
$GPHDT,,T*1B
$GNACCURACY,6.0*10
$GNGGA,035359.800,2500.8058200,N,12132.4249300,E,1,40,0.79,13.85,M,15.25,M,0,3335*78
$GNRMC,035359.800,A,2500.8058200,N,12132.4249300,E,0.16,0.00,090324,,,A,V*0B
$GPHDT,,T*1B
$GNACCURACY,6.0*10
$GNGGA,035359.900,2500.8058200,N,12132.4249400,E,1,40,0.79,13.88,M,15.25,M,0,3335*73
$GNRMC,035359.900,A,2500.8058200,N,12132.4249400,E,0.17,0.00,090324,,,A,V*0C
$GPHDT,,T*1B
$GNACCURACY,6.0*10
$GNGGA,035400.000,2500.8058200,N,12132.4249400,E,1,40,0.79,13.88,M,15.25,M,1,3335*70
$GNRMC,035400.000,A,2500.8058200,N,12132.4249400,E,0.16,0.00,090324,,,A,V*0F
$GPHDT,,T*1B
$GNACCURACY,6.0*10
$GNGGA,035400.100,2500.8058200,N,12132.4249400,E,1,40,0.79,13.87,M,15.25,M,1,3335*7E
$GNRMC,035400.100,A,2500.8058200,N,12132.4249400,E,0.16,0.00,090324,,,A,V*0E
$GPHDT,,T*1B
$GNGSA,A,3,08,194,195,199,21,27,07,16,26,,,,1.37,0.79,1.12,1*32
$GNGSA,A,3,88,78,77,,,,,,,,,,1.37,0.79,1.12,2*04
$GNGSA,A,3,13,27,,,,,,,,,,,1.37,0.79,1.12,3*0D
$GNGSA,A,3,09,16,23,43,40,07,39,10,25,37,34,,1.37,0.79,1.12,4*09
$GPGSV,3,1,10,08,67,341,41,194,64,050,39,195,62,118,41,199,60,167,40,1*5B
$GPGSV,3,2,10,21,53,162,41,50,50,134,43,27,39,032,45,07,35,319,29,1*6E
$GPGSV,3,3,10,16,30,068,43,26,11,094,18,1*68
$GPGSV,2,1,06,08,67,341,46,194,64,050,44,195,62,118,45,199,60,167,48,8*55
$GPGSV,2,2,06,27,39,032,45,26,11,094,33,8*6D
$GLGSV,1,1,04,88,63,040,44,78,53,024,45,77,27,102,23,87,09,027,26,1*73
$GAGSV,1,1,02,13,54,092,40,27,31,073,44,7*7E
$GAGSV,1,1,02,13,54,092,40,27,31,073,44,1*78
$GBGSV,3,1,11,09,74,278,43,16,72,196,34,23,69,014,48,43,65,041,44,1*79
$GBGSV,3,2,11,40,62,324,43,07,61,303,41,39,61,184,33,10,51,285,30,1*79
$GBGSV,3,3,11,25,41,110,37,37,25,319,27,34,16,039,40,1*43
$GBGSV,2,1,07,23,69,014,46,43,65,041,43,40,62,324,43,39,61,184,37,4*7E
$GBGSV,2,2,07,25,41,110,42,37,25,319,31,34,16,039,38,4*4B
$GNACCURACY,6.1*11
$PAIRSAT,1,12,7,0,1,8,0,21,16,0,1,20,0,200,21,0,201,22,0,200,23,0,200,26,0,20,27,0,21,194,0,21,195,0,221,199,0,621*43
$PAIRSAT,2,9,75,0,200,76,0,200,77,0,1,78,0,201,79,0,200,85,0,200,86,0,200,87,0,201,88,0,201*65
$PAIRSAT,3,5,13,0,1,25,0,1000,27,0,1,33,0,200,36,0,200*52
$PAIRSAT,4,34,3,0,400,7,0,1,9,0,201,10,0,201,11,0,200,12,0,200,16,0,1,19,0,400,20,0,400,21,0,400,22,0,400,23,0,421,24,0,400,25,0,421,26,0,400,27,0,400,28,0,400,29,0,400,30,0,400,32,0,400,33,0,400,34,0,421,35,0,400,36,0,400,37,0,421,38,0,400,39,0,421,40,0,421,41,0,400,42,0,400,43,0,420,44,0,400,45,0,400,46,0,400*4C
$PAIRDGP,0*45
$GNGGA,035400.200,2500.8058200,N,12132.4249400,E,1,40,0.79,13.87,M,15.25,M,1,3335*7D
$GNRMC,035400.200,A,2500.8058200,N,12132.4249400,E,0.16,0.00,090324,,,A,V*0D
$GPHDT,,T*1B
$GNACCURACY,6.1*11
$GNGGA,035400.300,2500.8058200,N,12132.4249500,E,1,40,0.79,13.89,M,15.25,M,1,3335*73
$GNRMC,035400.300,A,2500.8058200,N,12132.4249500,E,0.16,0.00,090324,,,A,V*0D
$GPHDT,,T*1B
$GNACCURACY,6.2*12
$GNGGA,035400.400,2500.8058200,N,12132.4249500,E,1,40,0.79,13.89,M,15.25,M,0,3335*75
$GNRMC,035400.400,A,2500.8058200,N,12132.4249500,E,0.16,0.00,090324,,,A,V*0A
$GPHDT,,T*1B
$GNACCURACY,6.2*12
$GNGGA,035400.500,2500.8058200,N,12132.4249400,E,1,40,0.79,13.90,M,15.25,M,0,3335*7D
$GNRMC,035400.500,A,2500.8058200,N,12132.4249400,E,0.15,0.00,090324,,,A,V*09
$GPHDT,,T*1B
$GNACCURACY,6.1*11
$GNGGA,035400.600,2500.8058200,N,12132.4249500,E,1,40,0.79,13.94,M,15.25,M,0,3335*7B
$GNRMC,035400.600,A,2500.8058200,N,12132.4249500,E,0.16,0.00,090324,,,A,V*08
$GPHDT,,T*1B
$GNACCURACY,6.1*11
$GNGGA,035400.700,2500.8058200,N,12132.4249500,E,1,40,0.79,13.96,M,15.25,M,0,3335*78
$GNRMC,035400.700,A,2500.8058200,N,12132.4249500,E,0.15,0.00,090324,,,A,V*0A
$GPHDT,,T*1B
$GNACCURACY,6.1*11
$GNGGA,035400.800,2500.8058300,N,12132.4249500,E,1,40,0.79,13.99,M,15.25,M,0,3335*79
$GNRMC,035400.800,A,2500.8058300,N,12132.4249500,E,0.16,0.00,090324,,,A,V*07
$GPHDT,,T*1B
$GNACCURACY,6.1*11
$GNGGA,035400.900,2500.8058400,N,12132.4249700,E,1,40,0.79,14.04,M,15.25,M,0,3335*7E
$GNRMC,035400.900,A,2500.8058400,N,12132.4249700,E,0.16,0.00,090324,,,A,V*03
$GPHDT,,T*1B
$GNACCURACY,6.1*11
$GNGGA,035401.000,2500.8058400,N,12132.4249500,E,1,40,0.79,14.02,M,15.25,M,1,3335*73
$GNRMC,035401.000,A,2500.8058400,N,12132.4249500,E,0.15,0.00,090324,,,A,V*0A
$GPHDT,,T*1B
$GNACCURACY,6.1*11
$GNGGA,035401.100,2500.8058300,N,12132.4249500,E,1,40,0.79,14.03,M,15.25,M,1,3335*74
$GNRMC,035401.100,A,2500.8058300,N,12132.4249500,E,0.14,0.00,090324,,,A,V*0D
$GPHDT,,T*1B
$GNGSA,A,3,08,194,195,199,21,27,07,16,26,,,,1.37,0.79,1.12,1*32
$GNGSA,A,3,88,78,77,,,,,,,,,,1.37,0.79,1.12,2*04
$GNGSA,A,3,13,27,,,,,,,,,,,1.37,0.79,1.12,3*0D
$GNGSA,A,3,09,16,23,43,40,07,39,10,25,37,34,,1.37,0.79,1.12,4*09
$GPGSV,3,1,10,08,67,341,40,194,64,050,39,195,62,118,41,199,60,167,40,1*5A
$GPGSV,3,2,10,21,53,162,41,50,50,134,43,27,39,032,46,07,35,319,33,1*66
$GPGSV,3,3,10,16,30,068,43,26,11,094,18,1*68
$GPGSV,2,1,06,08,67,341,47,194,64,050,44,195,62,118,45,199,60,167,48,8*54
$GPGSV,2,2,06,27,39,032,45,26,11,094,28,8*67
$GLGSV,1,1,04,88,63,040,45,78,53,024,47,77,27,102,21,87,09,027,29,1*7D
$GAGSV,1,1,02,13,54,091,40,27,31,073,44,7*7D
$GAGSV,1,1,02,13,54,091,40,27,31,073,43,1*7C
$GBGSV,3,1,11,09,74,278,43,16,72,196,33,23,69,014,48,43,65,041,44,1*7E
$GBGSV,3,2,11,40,62,324,43,07,61,303,43,39,61,184,33,10,51,285,33,1*78
$GBGSV,3,3,11,25,41,110,39,37,25,319,29,34,16,039,40,1*43
$GBGSV,2,1,07,23,69,014,46,43,65,041,43,40,62,324,42,39,61,184,37,4*7F
$GBGSV,2,2,07,25,41,110,42,37,25,319,34,34,16,039,37,4*41
$GNACCURACY,6.1*11
$PAIRSAT,1,12,7,0,1,8,0,21,16,0,1,20,0,200,21,0,201,22,0,200,23,0,200,26,0,20,27,0,21,194,0,21,195,0,221,199,0,621*43
$PAIRSAT,2,9,75,0,200,76,0,200,77,0,1,78,0,201,79,0,200,85,0,200,86,0,200,87,0,201,88,0,201*65
$PAIRSAT,3,5,13,0,1,25,0,1000,27,0,1,33,0,200,36,0,200*52
$PAIRSAT,4,34,3,0,400,7,0,1,9,0,201,10,0,201,11,0,200,12,0,200,16,0,1,19,0,400,20,0,400,21,0,400,22,0,400,23,0,421,24,0,400,25,0,421,26,0,400,27,0,400,28,0,400,29,0,400,30,0,400,32,0,400,33,0,400,34,0,421,35,0,400,36,0,400,37,0,421,38,0,400,39,0,421,40,0,421,41,0,400,42,0,400,43,0,420,44,0,400,45,0,400,46,0,400*4C
$PAIRDGP,0*45
$GNGGA,035401.200,2500.8058300,N,12132.4249500,E,1,40,0.79,14.04,M,15.25,M,1,3335*70
$GNRMC,035401.200,A,2500.8058300,N,12132.4249500,E,0.14,0.00,090324,,,A,V*0E
$GPHDT,,T*1B
$GNACCURACY,6.1*11
$GNGGA,035401.300,2500.8058300,N,12132.4249500,E,1,40,0.79,14.05,M,15.25,M,1,3335*70
$GNRMC,035401.300,A,2500.8058300,N,12132.4249500,E,0.14,0.00,090324,,,A,V*0F
$GPHDT,,T*1B
$GNACCURACY,6.1*11
$GNGGA,035401.400,2500.8058400,N,12132.4249400,E,1,40,0.79,14.05,M,15.25,M,1,3335*71
$GNRMC,035401.400,A,2500.8058400,N,12132.4249400,E,0.14,0.00,090324,,,A,V*0E
$GPHDT,,T*1B
$GNACCURACY,6.1*11
$GNGGA,035401.500,2500.8058400,N,12132.4249400,E,1,40,0.79,14.07,M,15.25,M,1,3335*72
$GNRMC,035401.500,A,2500.8058400,N,12132.4249400,E,0.15,0.00,090324,,,A,V*0E
$GPHDT,,T*1B
$GNACCURACY,6.1*11
$GNGGA,035401.600,2500.8058400,N,12132.4249400,E,1,40,0.79,14.10,M,15.25,M,0,3335*76
$GNRMC,035401.600,A,2500.8058400,N,12132.4249400,E,0.15,0.00,090324,,,A,V*0D
$GPHDT,,T*1B
$GNACCURACY,6.1*11
$GNGGA,035401.700,2500.8058400,N,12132.4249400,E,1,40,0.79,14.11,M,15.25,M,0,3335*76
$GNRMC,035401.700,A,2500.8058400,N,12132.4249400,E,0.15,0.00,090324,,,A,V*0C
$GPHDT,,T*1B
$GNACCURACY,6.1*11
$GNGGA,035401.800,2500.8058400,N,12132.4249400,E,1,40,0.79,14.15,M,15.25,M,0,3335*7D
$GNRMC,035401.800,A,2500.8058400,N,12132.4249400,E,0.16,0.00,090324,,,A,V*00
$GPHDT,,T*1B
$GNACCURACY,6.1*11
$GNGGA,035401.900,2500.8058500,N,12132.4249400,E,1,39,0.81,14.18,M,15.25,M,0,3335*79
$GNRMC,035401.900,A,2500.8058500,N,12132.4249400,E,0.16,0.00,090324,,,A,V*00
$GPHDT,,T*1B
$GNACCURACY,6.1*11
$GNGGA,035402.000,2500.8058500,N,12132.4249400,E,1,39,0.81,14.19,M,15.25,M,1,3335*73
$GNRMC,035402.000,A,2500.8058500,N,12132.4249400,E,0.16,0.00,090324,,,A,V*0A
$GPHDT,,T*1B
$GNACCURACY,6.1*11
$GNGGA,035402.100,2500.8058400,N,12132.4249300,E,1,39,0.81,14.19,M,15.25,M,1,3335*74
$GNRMC,035402.100,A,2500.8058400,N,12132.4249300,E,0.15,0.00,090324,,,A,V*0E
$GPHDT,,T*1B
$GNGSA,A,3,08,194,195,199,21,27,16,26,,,,,1.42,0.81,1.17,1*35
$GNGSA,A,3,88,78,77,,,,,,,,,,1.42,0.81,1.17,2*04
$GNGSA,A,3,13,27,,,,,,,,,,,1.42,0.81,1.17,3*0D
$GNGSA,A,3,09,16,23,43,40,07,39,10,25,37,34,,1.42,0.81,1.17,4*09
$GPGSV,3,1,10,08,67,341,42,194,64,050,39,195,62,118,41,199,60,167,40,1*58
$GPGSV,3,2,10,21,53,162,40,50,50,134,43,27,39,032,46,07,35,319,19,1*6F
$GPGSV,3,3,10,16,30,068,43,26,11,094,23,1*60
$GPGSV,2,1,06,08,67,341,47,194,64,050,45,195,62,118,45,199,60,167,48,8*55
$GPGSV,2,2,06,27,39,032,43,26,11,094,25,8*6C
$GLGSV,1,1,04,88,63,040,45,78,53,024,47,77,27,102,18,87,09,027,28,1*76
$GAGSV,1,1,02,13,54,091,40,27,30,073,43,7*7B
$GAGSV,1,1,02,13,54,091,40,27,30,073,44,1*7A
$GBGSV,3,1,11,09,74,278,43,16,72,196,33,23,69,014,48,43,65,041,44,1*7E
$GBGSV,3,2,11,40,62,324,44,07,61,303,43,39,61,184,33,10,51,285,33,1*7F
$GBGSV,3,3,11,25,41,110,39,37,25,319,31,34,16,039,38,1*45
$GBGSV,2,1,07,23,69,014,47,43,65,041,42,40,62,324,44,39,61,184,37,4*79
$GBGSV,2,2,07,25,41,110,42,37,25,319,37,34,16,039,35,4*40
$GNACCURACY,6.1*11
$PAIRSAT,1,12,7,0,1,8,0,21,16,0,1,20,0,200,21,0,201,22,0,200,23,0,200,26,0,20,27,0,21,194,0,21,195,0,221,199,0,621*43
$PAIRSAT,2,9,75,0,200,76,0,200,77,0,1,78,0,201,79,0,200,85,0,200,86,0,200,87,0,201,88,0,201*65
$PAIRSAT,3,5,13,0,21,25,0,1000,27,0,21,33,0,200,36,0,200*52
$PAIRSAT,4,34,3,0,400,7,0,1,9,0,201,10,0,201,11,0,200,12,0,200,16,0,1,19,0,400,20,0,400,21,0,400,22,0,400,23,0,421,24,0,400,25,0,421,26,0,400,27,0,400,28,0,400,29,0,400,30,0,400,32,0,400,33,0,400,34,0,421,35,0,400,36,0,400,37,0,421,38,0,400,39,0,421,40,0,421,41,0,400,42,0,400,43,0,420,44,0,400,45,0,400,46,0,400*4C
$PAIRDGP,0*45
$GNGGA,035402.200,2500.8058400,N,12132.4249400,E,1,39,0.81,14.21,M,15.25,M,1,3335*7B
$GNRMC,035402.200,A,2500.8058400,N,12132.4249400,E,0.15,0.00,090324,,,A,V*0A
$GPHDT,,T*1B
$GNACCURACY,6.1*11
$GNGGA,035402.300,2500.8058300,N,12132.4249400,E,1,39,0.81,14.22,M,15.25,M,1,3335*7E
$GNRMC,035402.300,A,2500.8058300,N,12132.4249400,E,0.14,0.00,090324,,,A,V*0D
$GPHDT,,T*1B
$GNACCURACY,6.1*11
$GNGGA,035402.400,2500.8058300,N,12132.4249400,E,1,39,0.81,14.24,M,15.25,M,1,3335*7F
$GNRMC,035402.400,A,2500.8058300,N,12132.4249400,E,0.14,0.00,090324,,,A,V*0A
$GPHDT,,T*1B
$GNACCURACY,6.1*11
$GNGGA,035402.500,2500.8058200,N,12132.4249400,E,1,39,0.81,14.26,M,15.25,M,1,3335*7D
$GNRMC,035402.500,A,2500.8058200,N,12132.4249400,E,0.14,0.00,090324,,,A,V*0A
$GPHDT,,T*1B
$GNACCURACY,6.1*11
$GNGGA,035402.600,2500.8058200,N,12132.4249500,E,1,39,0.81,14.29,M,15.25,M,0,3335*71
$GNRMC,035402.600,A,2500.8058200,N,12132.4249500,E,0.14,0.00,090324,,,A,V*08
$GPHDT,,T*1B
$GNACCURACY,6.1*11
$GNGGA,035402.700,2500.8058200,N,12132.4249500,E,1,39,0.81,14.31,M,15.25,M,0,3335*79
$GNRMC,035402.700,A,2500.8058200,N,12132.4249500,E,0.15,0.00,090324,,,A,V*08
$GPHDT,,T*1B
$GNACCURACY,6.1*11
$GNGGA,035402.800,2500.8058200,N,12132.4249600,E,1,39,0.81,14.35,M,15.25,M,0,3335*71
$GNRMC,035402.800,A,2500.8058200,N,12132.4249600,E,0.15,0.00,090324,,,A,V*04
$GPHDT,,T*1B
$GNACCURACY,6.0*10
$GNGGA,035402.900,2500.8058300,N,12132.4249700,E,1,39,0.81,14.38,M,15.25,M,0,3335*7D
$GNRMC,035402.900,A,2500.8058300,N,12132.4249700,E,0.16,0.00,090324,,,A,V*06
$GPHDT,,T*1B
$GNACCURACY,6.0*10
$GNGGA,035403.000,2500.8058300,N,12132.4249700,E,1,39,0.81,14.40,M,15.25,M,1,3335*7B
$GNRMC,035403.000,A,2500.8058300,N,12132.4249700,E,0.15,0.00,090324,,,A,V*0D
$GPHDT,,T*1B
$GNACCURACY,6.0*10
$GNGGA,035403.100,2500.8058300,N,12132.4249700,E,1,39,0.81,14.41,M,15.25,M,1,3335*7B
$GNRMC,035403.100,A,2500.8058300,N,12132.4249700,E,0.15,0.00,090324,,,A,V*0C
$GPHDT,,T*1B
$GNGSA,A,3,08,194,195,199,21,27,16,26,,,,,1.42,0.81,1.17,1*35
$GNGSA,A,3,88,78,77,,,,,,,,,,1.42,0.81,1.17,2*04
$GNGSA,A,3,13,27,,,,,,,,,,,1.42,0.81,1.17,3*0D
$GNGSA,A,3,09,16,23,43,40,07,39,10,25,37,34,,1.42,0.81,1.17,4*09
$GPGSV,3,1,10,08,67,341,42,194,64,050,40,195,62,118,41,199,60,167,40,1*56
$GPGSV,3,2,10,21,53,162,41,50,50,134,43,27,39,032,46,07,35,319,16,1*61
$GPGSV,3,3,10,16,30,068,43,26,11,094,24,1*67
$GPGSV,2,1,06,08,67,341,48,194,64,050,44,195,62,118,44,199,60,167,48,8*5A
$GPGSV,2,2,06,27,39,032,42,26,11,094,28,8*60
$GLGSV,2,1,05,88,63,040,45,78,53,024,47,77,27,102,19,79,20,329,,1*78
$GLGSV,2,2,05,87,09,027,26,1*4A
$GAGSV,1,1,02,13,54,091,40,27,30,073,43,7*7B
$GAGSV,1,1,02,13,54,091,40,27,30,073,44,1*7A
$GBGSV,4,1,13,09,74,278,43,16,72,196,33,23,69,014,48,43,65,041,44,1*7B
$GBGSV,4,2,13,40,62,324,44,07,61,303,42,39,61,184,33,10,51,285,32,1*7A
$GBGSV,4,3,13,25,41,110,39,37,25,319,37,34,16,039,38,38,08,169,,1*7B
$GBGSV,4,4,13,27,05,217,,1*40
$GBGSV,2,1,07,23,69,014,47,43,65,041,42,40,62,324,45,39,61,184,37,4*78
$GBGSV,2,2,07,25,41,110,42,37,25,319,38,34,16,039,36,4*4C
$GNACCURACY,6.0*10
$PAIRSAT,1,12,7,0,1,8,0,21,16,0,1,20,0,200,21,0,201,22,0,200,23,0,200,26,0,20,27,0,21,194,0,21,195,0,221,199,0,621*43
$PAIRSAT,2,9,75,0,200,76,0,200,77,0,1,78,0,201,79,0,200,85,0,200,86,0,200,87,0,201,88,0,201*65
$PAIRSAT,3,5,13,0,21,25,0,1000,27,0,21,33,0,200,36,0,200*52
$PAIRSAT,4,34,3,0,400,7,0,1,9,0,201,10,0,201,11,0,200,12,0,200,16,0,1,19,0,400,20,0,400,21,0,400,22,0,400,23,0,421,24,0,400,25,0,421,26,0,400,27,0,400,28,0,400,29,0,400,30,0,400,32,0,400,33,0,400,34,0,421,35,0,400,36,0,400,37,0,421,38,0,400,39,0,421,40,0,421,41,0,400,42,0,400,43,0,420,44,0,400,45,0,400,46,0,400*4C
$PAIRDGP,0*45
$GNGGA,035403.200,2500.8058300,N,12132.4249700,E,1,39,0.81,14.42,M,15.25,M,1,3335*7B
$GNRMC,035403.200,A,2500.8058300,N,12132.4249700,E,0.14,0.00,090324,,,A,V*0E
$GPHDT,,T*1B
$GNACCURACY,6.0*10
$GNGGA,035403.300,2500.8058300,N,12132.4249600,E,1,39,0.81,14.43,M,15.25,M,1,3335*7A
$GNRMC,035403.300,A,2500.8058300,N,12132.4249600,E,0.14,0.00,090324,,,A,V*0E
$GPHDT,,T*1B
$GNACCURACY,6.0*10
$GNGGA,035403.400,2500.8058300,N,12132.4249700,E,1,39,0.81,14.45,M,15.25,M,1,3335*7A
$GNRMC,035403.400,A,2500.8058300,N,12132.4249700,E,0.13,0.00,090324,,,A,V*0F
$GPHDT,,T*1B
$GNACCURACY,6.0*10
$GNGGA,035403.500,2500.8058300,N,12132.4249700,E,1,39,0.81,14.47,M,15.25,M,0,3335*78
$GNRMC,035403.500,A,2500.8058300,N,12132.4249700,E,0.13,0.00,090324,,,A,V*0E
$GPHDT,,T*1B
$GNACCURACY,6.0*10
$GNGGA,035403.600,2500.8058400,N,12132.4249700,E,1,39,0.81,14.49,M,15.25,M,0,3335*72
$GNRMC,035403.600,A,2500.8058400,N,12132.4249700,E,0.14,0.00,090324,,,A,V*0D
$GPHDT,,T*1B
$GNACCURACY,6.0*10
$GNGGA,035403.700,2500.8058400,N,12132.4249800,E,1,39,0.81,14.53,M,15.25,M,0,3335*77
$GNRMC,035403.700,A,2500.8058400,N,12132.4249800,E,0.15,0.00,090324,,,A,V*02
$GPHDT,,T*1B
$GNACCURACY,6.0*10
$GNGGA,035403.800,2500.8058400,N,12132.4249800,E,1,39,0.81,14.55,M,15.25,M,0,3335*7E
$GNRMC,035403.800,A,2500.8058400,N,12132.4249800,E,0.15,0.00,090324,,,A,V*0D
$GPHDT,,T*1B
$GNACCURACY,6.0*10
$GNGGA,035403.900,2500.8058500,N,12132.4249900,E,1,39,0.81,14.61,M,15.25,M,0,3335*78
$GNRMC,035403.900,A,2500.8058500,N,12132.4249900,E,0.16,0.00,090324,,,A,V*0F
$GPHDT,,T*1B
$GNACCURACY,6.0*10
$GNGGA,035404.000,2500.8058500,N,12132.4249900,E,1,39,0.81,14.61,M,15.25,M,1,3335*77
$GNRMC,035404.000,A,2500.8058500,N,12132.4249900,E,0.15,0.00,090324,,,A,V*02
$GPHDT,,T*1B
$GNACCURACY,6.0*10
$GNGGA,035404.100,2500.8058500,N,12132.4249900,E,1,39,0.81,14.62,M,15.25,M,1,3335*75
$GNRMC,035404.100,A,2500.8058500,N,12132.4249900,E,0.15,0.00,090324,,,A,V*03
$GPHDT,,T*1B
$GNGSA,A,3,08,194,195,199,21,27,16,26,,,,,1.42,0.81,1.17,1*35
$GNGSA,A,3,88,78,77,,,,,,,,,,1.42,0.81,1.17,2*04
$GNGSA,A,3,13,27,,,,,,,,,,,1.42,0.81,1.17,3*0D
$GNGSA,A,3,09,16,23,43,40,07,39,10,25,37,34,,1.42,0.81,1.17,4*09
$GPGSV,3,1,10,08,67,341,42,194,64,050,40,195,62,118,41,50,60,167,43,1*61
$GPGSV,3,2,10,199,60,167,40,21,53,162,41,27,39,032,46,07,35,319,17,1*52
$GPGSV,3,3,10,16,30,068,43,26,11,094,24,1*67
$GPGSV,2,1,06,08,67,341,48,194,64,050,44,195,62,118,44,199,60,167,48,8*5A
$GPGSV,2,2,06,27,39,032,41,26,11,094,30,8*6A
$GLGSV,1,1,04,88,63,040,45,78,53,024,47,77,27,102,19,87,09,027,27,1*78
$GAGSV,1,1,02,13,54,091,39,27,30,073,43,7*75
$GAGSV,1,1,02,13,54,091,40,27,30,073,44,1*7A
$GBGSV,3,1,11,09,74,278,43,16,72,196,34,23,69,014,48,43,65,041,44,1*79
$GBGSV,3,2,11,40,62,324,44,07,61,303,42,39,61,184,33,10,51,285,33,1*7E
$GBGSV,3,3,11,25,41,110,39,37,25,319,37,34,16,039,38,1*43
$GBGSV,2,1,07,23,69,014,47,43,65,041,42,40,62,324,45,39,61,184,37,4*78
$GBGSV,2,2,07,25,41,110,42,37,25,319,38,34,16,039,37,4*4D
$GNACCURACY,6.0*10
$PAIRSAT,1,12,7,0,1,8,0,21,16,0,1,20,0,200,21,0,201,22,0,200,23,0,200,26,0,20,27,0,21,194,0,21,195,0,221,199,0,621*43
$PAIRSAT,2,9,75,0,200,76,0,200,77,0,1,78,0,201,79,0,200,85,0,200,86,0,200,87,0,201,88,0,201*65
$PAIRSAT,3,5,13,0,21,25,0,1000,27,0,21,33,0,200,36,0,200*52
$PAIRSAT,4,34,3,0,400,7,0,1,9,0,201,10,0,201,11,0,200,12,0,200,16,0,1,19,0,400,20,0,400,21,0,400,22,0,400,23,0,421,24,0,400,25,0,421,26,0,400,27,0,400,28,0,400,29,0,400,30,0,400,32,0,400,33,0,400,34,0,421,35,0,400,36,0,400,37,0,421,38,0,400,39,0,421,40,0,421,41,0,400,42,0,400,43,0,420,44,0,400,45,0,400,46,0,400*4C
$PAIRDGP,0*45
$GNGGA,035404.200,2500.8058400,N,12132.4249800,E,1,39,0.81,14.62,M,15.25,M,1,3335*76
$GNRMC,035404.200,A,2500.8058400,N,12132.4249800,E,0.13,0.00,090324,,,A,V*06
$GPHDT,,T*1B
$GNACCURACY,6.0*10
$GNGGA,035404.300,2500.8058400,N,12132.4249800,E,1,39,0.81,14.63,M,15.25,M,1,3335*76
$GNRMC,035404.300,A,2500.8058400,N,12132.4249800,E,0.14,0.00,090324,,,A,V*00
$GPHDT,,T*1B
$GNACCURACY,6.0*10
$GNGGA,035404.400,2500.8058400,N,12132.4249800,E,1,39,0.81,14.65,M,15.25,M,1,3335*77
$GNRMC,035404.400,A,2500.8058400,N,12132.4249800,E,0.13,0.00,090324,,,A,V*00
$GPHDT,,T*1B
$GNACCURACY,6.3*13
$GNGGA,035404.500,2500.8058400,N,12132.4249800,E,1,40,0.79,14.67,M,15.25,M,0,3335*7C
$GNRMC,035404.500,A,2500.8058400,N,12132.4249800,E,0.13,0.00,090324,,,A,V*01
$GPHDT,,T*1B
$GNACCURACY,6.3*13
$GNGGA,035404.600,2500.8058500,N,12132.4249800,E,1,40,0.79,14.69,M,15.25,M,0,3335*70
$GNRMC,035404.600,A,2500.8058500,N,12132.4249800,E,0.14,0.00,090324,,,A,V*04
$GPHDT,,T*1B
$GNACCURACY,6.3*13
$GNGGA,035404.700,2500.8058500,N,12132.4249900,E,1,40,0.79,14.72,M,15.25,M,0,3335*7A
$GNRMC,035404.700,A,2500.8058500,N,12132.4249900,E,0.14,0.00,090324,,,A,V*04
$GPHDT,,T*1B
$GNACCURACY,6.3*13
$GNGGA,035404.800,2500.8058500,N,12132.4249900,E,1,40,0.79,14.75,M,15.25,M,0,3335*72
$GNRMC,035404.800,A,2500.8058500,N,12132.4249900,E,0.15,0.00,090324,,,A,V*0A
$GPHDT,,T*1B
$GNACCURACY,6.3*13
$GNGGA,035404.900,2500.8058600,N,12132.4250000,E,1,40,0.79,14.80,M,15.25,M,0,3335*7B
$GNRMC,035404.900,A,2500.8058600,N,12132.4250000,E,0.15,0.00,090324,,,A,V*09
$GPHDT,,T*1B
$GNACCURACY,6.3*13
$GNGGA,035405.000,2500.8058700,N,12132.4250000,E,1,40,0.79,14.80,M,15.25,M,1,3335*73
$GNRMC,035405.000,A,2500.8058700,N,12132.4250000,E,0.15,0.00,090324,,,A,V*00
$GPHDT,,T*1B
$GNACCURACY,6.3*13
$GNGGA,035405.100,2500.8058600,N,12132.4250000,E,1,39,0.81,14.81,M,15.25,M,1,3335*7B
$GNRMC,035405.100,A,2500.8058600,N,12132.4250000,E,0.14,0.00,090324,,,A,V*01
$GPHDT,,T*1B
$GNGSA,A,3,08,194,195,199,21,27,16,26,,,,,1.42,0.81,1.17,1*35
$GNGSA,A,3,88,78,77,,,,,,,,,,1.42,0.81,1.17,2*04
$GNGSA,A,3,13,27,,,,,,,,,,,1.42,0.81,1.17,3*0D
$GNGSA,A,3,09,16,23,43,40,07,39,10,25,37,34,,1.42,0.81,1.17,4*09
$GPGSV,3,1,10,08,67,341,42,194,64,050,40,195,62,118,41,50,60,167,43,1*61
$GPGSV,3,2,10,199,60,167,40,21,53,162,42,27,39,032,46,07,35,319,19,1*5F
$GPGSV,3,3,10,16,30,068,44,26,11,094,25,1*61
$GPGSV,2,1,06,08,67,341,48,194,64,050,44,195,62,118,44,199,60,167,48,8*5A
$GPGSV,2,2,06,27,39,032,40,26,11,094,30,8*6B
$GLGSV,1,1,04,88,63,040,45,78,53,024,47,77,27,102,19,87,09,027,28,1*77
$GAGSV,1,1,02,13,54,091,39,27,30,073,43,7*75
$GAGSV,1,1,02,13,54,091,40,27,30,073,44,1*7A
$GBGSV,3,1,11,09,74,278,43,16,72,196,34,23,69,014,48,43,65,041,44,1*79
$GBGSV,3,2,11,40,62,324,44,07,61,303,42,39,61,184,33,10,51,285,33,1*7E
$GBGSV,3,3,11,25,41,110,39,37,25,319,37,34,16,039,38,1*43
$GBGSV,2,1,07,23,69,014,47,43,65,041,42,40,62,324,45,39,61,184,37,4*78
$GBGSV,2,2,07,25,41,110,42,37,25,319,38,34,16,039,37,4*4D
$GNACCURACY,6.3*13
$PAIRSAT,1,12,7,0,1,8,0,21,16,0,1,20,0,200,21,0,201,22,0,200,23,0,200,26,0,20,27,0,21,194,0,21,195,0,221,199,0,621*43
$PAIRSAT,2,9,75,0,200,76,0,200,77,0,1,78,0,201,79,0,200,85,0,200,86,0,200,87,0,201,88,0,201*65
$PAIRSAT,3,5,13,0,21,25,0,1000,27,0,21,33,0,200,36,0,200*52
$PAIRSAT,4,34,3,0,400,7,0,1,9,0,201,10,0,201,11,0,200,12,0,200,16,0,1,19,0,400,20,0,400,21,0,400,22,0,400,23,0,421,24,0,400,25,0,421,26,0,400,27,0,400,28,0,400,29,0,400,30,0,400,32,0,400,33,0,400,34,0,421,35,0,400,36,0,400,37,0,421,38,0,400,39,0,421,40,0,421,41,0,400,42,0,400,43,0,420,44,0,400,45,0,400,46,0,400*4C
$PAIRDGP,0*45
$GNGGA,035405.200,2500.8058600,N,12132.4250000,E,1,39,0.81,14.82,M,15.25,M,1,3335*7B
$GNRMC,035405.200,A,2500.8058600,N,12132.4250000,E,0.14,0.00,090324,,,A,V*02
$GPHDT,,T*1B
$GNACCURACY,6.3*13
$GNGGA,035405.300,2500.8058600,N,12132.4250000,E,1,39,0.81,14.83,M,15.25,M,1,3335*7B
$GNRMC,035405.300,A,2500.8058600,N,12132.4250000,E,0.13,0.00,090324,,,A,V*04
$GPHDT,,T*1B
$GNACCURACY,6.4*14
$GNGGA,035405.400,2500.8058600,N,12132.4249900,E,1,39,0.81,14.85,M,15.25,M,1,3335*7B
$GNRMC,035405.400,A,2500.8058600,N,12132.4249900,E,0.13,0.00,090324,,,A,V*02
$GPHDT,,T*1B
$GNACCURACY,6.4*14
$GNGGA,035405.500,2500.8058600,N,12132.4250000,E,1,39,0.81,14.88,M,15.25,M,0,3335*77
$GNRMC,035405.500,A,2500.8058600,N,12132.4250000,E,0.14,0.00,090324,,,A,V*05
$GPHDT,,T*1B
$GNACCURACY,6.4*14
$GNGGA,035405.600,2500.8058600,N,12132.4250000,E,1,39,0.81,14.90,M,15.25,M,0,3335*7D
$GNRMC,035405.600,A,2500.8058600,N,12132.4250000,E,0.14,0.00,090324,,,A,V*06
$GPHDT,,T*1B
$GNACCURACY,6.4*14
$GNGGA,035405.700,2500.8058600,N,12132.4250000,E,1,39,0.81,14.94,M,15.25,M,0,3335*78
$GNRMC,035405.700,A,2500.8058600,N,12132.4250000,E,0.15,0.00,090324,,,A,V*06
$GPHDT,,T*1B
$GNACCURACY,6.4*14
$GNGGA,035405.800,2500.8058700,N,12132.4250000,E,1,39,0.81,14.97,M,15.25,M,0,3335*75
$GNRMC,035405.800,A,2500.8058700,N,12132.4250000,E,0.16,0.00,090324,,,A,V*0B
$GPHDT,,T*1B
$GNACCURACY,6.4*14
$GNGGA,035405.900,2500.8058600,N,12132.4250000,E,1,39,0.81,15.00,M,15.25,M,0,3335*7A
$GNRMC,035405.900,A,2500.8058600,N,12132.4250000,E,0.16,0.00,090324,,,A,V*0B
$GPHDT,,T*1B
$GNACCURACY,6.4*14
$GNGGA,035406.000,2500.8058600,N,12132.4250100,E,1,39,0.81,15.02,M,15.25,M,1,3335*72
$GNRMC,035406.000,A,2500.8058600,N,12132.4250100,E,0.16,0.00,090324,,,A,V*00
$GPHDT,,T*1B
$GNACCURACY,6.4*14
$GNGGA,035406.100,2500.8058500,N,12132.4250000,E,1,39,0.81,15.02,M,15.25,M,1,3335*71
$GNRMC,035406.100,A,2500.8058500,N,12132.4250000,E,0.14,0.00,090324,,,A,V*01
$GPHDT,,T*1B
$GNGSA,A,3,08,194,195,199,21,27,16,26,,,,,1.42,0.81,1.17,1*35
$GNGSA,A,3,88,78,77,,,,,,,,,,1.42,0.81,1.17,2*04
$GNGSA,A,3,13,27,,,,,,,,,,,1.42,0.81,1.17,3*0D
$GNGSA,A,3,09,16,23,43,40,07,39,10,25,37,34,,1.42,0.81,1.17,4*09
$GPGSV,3,1,10,08,67,341,43,194,64,050,40,195,62,118,41,50,60,167,43,1*60
$GPGSV,3,2,10,199,60,167,40,21,53,162,42,27,39,032,46,07,35,319,20,1*55
$GPGSV,3,3,10,16,30,068,44,26,11,094,27,1*63
$GPGSV,2,1,06,08,67,341,48,194,64,050,44,195,62,118,44,199,60,167,48,8*5A
$GPGSV,2,2,06,27,39,032,37,26,11,094,29,8*63
$GLGSV,1,1,04,88,63,040,45,78,53,024,46,77,27,102,18,87,09,027,28,1*77
$GAGSV,1,1,02,13,54,091,40,27,30,073,43,7*7B
$GAGSV,1,1,02,13,54,091,40,27,30,073,44,1*7A
$GBGSV,3,1,11,09,74,278,43,16,72,196,34,23,69,014,48,43,65,041,44,1*79
$GBGSV,3,2,11,40,62,324,44,07,61,303,42,39,61,184,33,10,51,285,31,1*7C
$GBGSV,3,3,11,25,41,110,39,37,25,319,37,34,16,039,38,1*43
$GBGSV,2,1,07,23,69,014,47,43,65,041,41,40,62,324,45,39,61,184,36,4*7A
$GBGSV,2,2,07,25,41,110,42,37,25,319,38,34,16,039,34,4*4E
$GNACCURACY,6.4*14
$PAIRSAT,1,12,7,0,1,8,0,21,16,0,1,20,0,200,21,0,201,22,0,200,23,0,200,26,0,20,27,0,21,194,0,21,195,0,221,199,0,621*43
$PAIRSAT,2,9,75,0,200,76,0,200,77,0,1,78,0,201,79,0,200,85,0,200,86,0,200,87,0,201,88,0,201*65
$PAIRSAT,3,5,13,0,21,25,0,1000,27,0,21,33,0,200,36,0,200*52
$PAIRSAT,4,34,3,0,400,7,0,1,9,0,201,10,0,201,11,0,200,12,0,200,16,0,1,19,0,400,20,0,400,21,0,400,22,0,400,23,0,421,24,0,400,25,0,421,26,0,400,27,0,400,28,0,400,29,0,400,30,0,400,32,0,400,33,0,400,34,0,421,35,0,400,36,0,400,37,0,421,38,0,400,39,0,421,40,0,421,41,0,400,42,0,400,43,0,420,44,0,400,45,0,400,46,0,400*4C
$PAIRDGP,0*45
$GNGGA,035406.200,2500.8058500,N,12132.4250000,E,1,39,0.81,15.04,M,15.25,M,1,3335*74
$GNRMC,035406.200,A,2500.8058500,N,12132.4250000,E,0.14,0.00,090324,,,A,V*02
$GPHDT,,T*1B
$GNACCURACY,6.3*13
$GNGGA,035406.300,2500.8058500,N,12132.4250000,E,1,40,0.79,15.06,M,15.25,M,1,3335*7E
$GNRMC,035406.300,A,2500.8058500,N,12132.4250000,E,0.14,0.00,090324,,,A,V*03
$GPHDT,,T*1B
$GNACCURACY,6.3*13
$GNGGA,035406.400,2500.8058500,N,12132.4250000,E,1,40,0.79,15.07,M,15.25,M,1,3335*78
$GNRMC,035406.400,A,2500.8058500,N,12132.4250000,E,0.14,0.00,090324,,,A,V*04
$GPHDT,,T*1B
$GNACCURACY,6.3*13
$GNGGA,035406.500,2500.8058500,N,12132.4250000,E,1,40,0.79,15.10,M,15.25,M,1,3335*7F
$GNRMC,035406.500,A,2500.8058500,N,12132.4250000,E,0.13,0.00,090324,,,A,V*02
$GPHDT,,T*1B
$GNACCURACY,6.3*13
$GNGGA,035406.600,2500.8058500,N,12132.4250000,E,1,40,0.79,15.12,M,15.25,M,0,3335*7F
$GNRMC,035406.600,A,2500.8058500,N,12132.4250000,E,0.14,0.00,090324,,,A,V*06
$GPHDT,,T*1B
$GNACCURACY,6.3*13
$GNGGA,035406.700,2500.8058500,N,12132.4250000,E,1,40,0.79,15.15,M,15.25,M,0,3335*79
$GNRMC,035406.700,A,2500.8058500,N,12132.4250000,E,0.15,0.00,090324,,,A,V*06
$GPHDT,,T*1B
$GNACCURACY,6.2*12
$GNGGA,035406.800,2500.8058500,N,12132.4250000,E,1,40,0.79,15.19,M,15.25,M,0,3335*7A
$GNRMC,035406.800,A,2500.8058500,N,12132.4250000,E,0.15,0.00,090324,,,A,V*09
$GPHDT,,T*1B
$GNACCURACY,6.2*12
$GNGGA,035406.900,2500.8058600,N,12132.4250100,E,1,40,0.79,15.23,M,15.25,M,0,3335*70
$GNRMC,035406.900,A,2500.8058600,N,12132.4250100,E,0.16,0.00,090324,,,A,V*09
$GPHDT,,T*1B
$GNACCURACY,6.2*12
$GNGGA,035407.000,2500.8058500,N,12132.4250100,E,1,40,0.79,15.25,M,15.25,M,1,3335*7C
$GNRMC,035407.000,A,2500.8058500,N,12132.4250100,E,0.15,0.00,090324,,,A,V*01
$GPHDT,,T*1B
$GNACCURACY,6.2*12
$GNGGA,035407.100,2500.8058500,N,12132.4250100,E,1,40,0.79,15.27,M,15.25,M,1,3335*7F
$GNRMC,035407.100,A,2500.8058500,N,12132.4250100,E,0.14,0.00,090324,,,A,V*01
$GPHDT,,T*1B
$GNGSA,A,3,08,194,195,199,21,27,07,16,26,,,,1.37,0.79,1.12,1*32
$GNGSA,A,3,88,78,77,,,,,,,,,,1.37,0.79,1.12,2*04
$GNGSA,A,3,13,27,,,,,,,,,,,1.37,0.79,1.12,3*0D
$GNGSA,A,3,09,16,23,43,40,07,39,10,25,37,34,,1.37,0.79,1.12,4*09
$GPGSV,3,1,10,08,67,3