$FW : RTK35X,V1.1X0314AS,Lib20210517,1*54
$Tool : LOCOSYS , GNSS Firebird , v1.0.0.19*39
$---------------------------------------------------*2D
.37,1*38
$GNGSA,A,3,79,69,,,,,,,,,,,1.66,0.93,1.37,2*0D
$GNGSA,A,3,08,15,03,,,,,,,,,,1.66,0.93,1.37,3*02
$GNGSA,A,3,38,39,16,06,20,09,46,29,37,,,,1.66,0.93,1.37,4*0C
$GPGSV,3,1,10,24,73,164,45,196,73,053,39,199,60,167,38,18,56,300,28,1*6E
$GPGSV,3,2,10,15,50,018,36,45,47,231,36,195,44,178,44,05,33,095,36,1*51
$GPGSV,3,3,10,13,25,041,22,194,22,144,19,1*50
$GPGSV,2,1,05,196,73,053,43,24,73,164,47,199,60,167,46,18,56,300,22,8*6E
$GPGSV,2,2,05,195,44,178,46,8*69
$GLGSV,1,1,03,85,46,287,,79,25,056,31,69,22,046,33,1*4C
$GAGSV,2,1,05,13,66,278,25,08,56,359,28,15,44,172,41,07,38,276,,7*79
$GAGSV,2,2,05,03,21,049,33,7*4B
$GAGSV,1,1,04,13,66,278,26,08,56,359,29,15,44,172,41,03,21,049,31,1*7F
$GBGSV,3,1,11,38,76,041,33,39,73,239,38,16,64,224,43,06,62,223,40,1*75
$GBGSV,3,2,11,13,59,343,,20,48,031,36,09,45,219,39,46,43,143,36,1*7A
$GBGSV,3,3,11,19,39,318,16,29,36,230,28,37,33,069,28,1*4D
$GBGSV,2,1,06,38,76,041,41,39,73,239,42,20,48,031,32,46,43,143,42,4*74
$GBGSV,2,2,06,29,36,230,26,37,33,069,35,4*73
$GNGGA,103154.000,2500.7905012,N,12132.4765837,E,2,34,0.93,14.595,M,15.25,M,2,3335*45
$GNRMC,103154.000,A,2500.7905012,N,12132.4765837,E,0.00,333.36,260623,,,D,V*08
$GPHDT,,T*1B
$GNGGA,103154.200,2500.7905012,N,12132.4765837,E,2,34,0.93,14.594,M,15.25,M,2,3335*46
$GNRMC,103154.200,A,2500.7905012,N,12132.4765837,E,0.00,333.36,260623,,,D,V*0A
$GPHDT,,T*1B
$GNGGA,103154.400,2500.7905072,N,12132.4765777,E,2,34,0.93,14.596,M,15.25,M,2,3335*4F
$GNRMC,103154.400,A,2500.7905072,N,12132.4765777,E,0.02,333.36,260623,,,D,V*03
$GPHDT,,T*1B
$GNGGA,103154.600,2500.7905072,N,12132.4765777,E,2,34,0.93,14.593,M,15.25,M,2,3335*48
$GNRMC,103154.600,A,2500.7905072,N,12132.4765777,E,0.01,333.36,260623,,,D,V*02
$GPHDT,,T*1B
$GNGGA,103154.800,2500.7905072,N,12132.4765837,E,2,34,0.93,14.583,M,15.25,M,2,3335*4C
$GNRMC,103154.800,A,2500.7905072,N,12132.4765837,E,0.03,333.36,260623,,,D,V*05
$GPHDT,,T*1B
$GNGSA,A,3,24,196,199,15,195,05,13,,,,,,1.66,0.93,1.37,1*38
$GNGSA,A,3,79,69,,,,,,,,,,,1.66,0.93,1.37,2*0D
$GNGSA,A,3,08,15,03,,,,,,,,,,1.66,0.93,1.37,3*02
$GNGSA,A,3,38,39,16,06,20,09,46,29,37,,,,1.66,0.93,1.37,4*0C
$GPGSV,3,1,10,24,73,164,45,196,73,053,40,199,60,167,37,18,56,300,26,1*61
$GPGSV,3,2,10,15,50,018,38,45,47,231,36,195,44,178,44,05,33,095,37,1*5E
$GPGSV,3,3,10,13,25,041,35,194,22,144,18,1*57
$GPGSV,2,1,05,196,73,053,44,24,73,164,48,199,60,167,46,18,56,300,23,8*67
$GPGSV,2,2,05,195,44,178,46,8*69
$GLGSV,1,1,03,85,46,287,,79,25,056,32,69,22,046,34,1*48
$GAGSV,2,1,05,13,66,278,24,08,56,359,28,15,44,172,42,07,38,276,,7*7B
$GAGSV,2,2,05,03,21,049,30,7*48
$GAGSV,1,1,04,13,66,278,15,08,56,359,34,15,44,172,42,03,21,049,33,1*72
$GBGSV,3,1,11,38,76,041,38,39,73,239,37,16,64,224,43,06,62,223,40,1*71
$GBGSV,3,2,11,13,59,343,,20,48,031,39,09,45,219,39,46,43,143,37,1*74
$GBGSV,3,3,11,19,39,318,15,29,36,230,30,37,33,069,29,1*46
$GBGSV,2,1,06,38,76,041,42,39,73,239,42,20,48,031,37,46,43,143,42,4*72
$GBGSV,2,2,06,29,36,230,29,37,33,069,35,4*7C
$GNGGA,103155.000,2500.7905072,N,12132.4765837,E,2,34,0.93,14.582,M,15.25,M,3,3335*45
$GNRMC,103155.000,A,2500.7905072,N,12132.4765837,E,0.01,333.36,260623,,,D,V*0E
$GPHDT,,T*1B
$GNGGA,103155.200,2500.7905072,N,12132.4765837,E,2,34,0.93,14.581,M,15.25,M,3,3335*44
$GNRMC,103155.200,A,2500.7905072,N,12132.4765837,E,0.01,333.36,260623,,,D,V*0C
$GPHDT,,T*1B
$GNGGA,103155.400,2500.7905132,N,12132.4765837,E,2,34,0.93,14.576,M,15.25,M,3,3335*4F
$GNRMC,103155.400,A,2500.7905132,N,12132.4765837,E,0.01,333.36,260623,,,D,V*0F
$GPHDT,,T*1B
$GNGGA,103155.600,2500.7905132,N,12132.4765897,E,2,34,0.93,14.568,M,15.25,M,3,3335*48
$GNRMC,103155.600,A,2500.7905132,N,12132.4765897,E,0.03,333.36,260623,,,D,V*05
$GPHDT,,T*1B
$GNGGA,103155.800,2500.7905192,N,12132.4765957,E,2,34,0.93,14.560,M,15.25,M,3,3335*49
$GNRMC,103155.800,A,2500.7905192,N,12132.4765957,E,0.03,333.36,260623,,,D,V*0C
$GPHDT,,T*1B
$GNGSA,A,3,24,196,199,15,195,05,13,,,,,,1.66,0.93,1.37,1*38
$GNGSA,A,3,79,69,,,,,,,,,,,1.66,0.93,1.37,2*0D
$GNGSA,A,3,08,15,03,,,,,,,,,,1.66,0.93,1.37,3*02
$GNGSA,A,3,38,39,16,06,20,09,46,29,37,,,,1.66,0.93,1.37,4*0C
$GPGSV,3,1,10,24,73,164,45,196,73,053,41,199,60,167,37,18,56,300,25,1*63
$GPGSV,3,2,10,15,50,018,40,45,47,231,37,195,44,178,44,05,33,095,33,1*54
$GPGSV,3,3,10,13,25,041,38,194,22,144,20,1*51
$GPGSV,2,1,05,196,73,053,44,24,73,164,48,199,60,167,46,18,56,300,25,8*61
$GPGSV,2,2,05,195,44,178,46,8*69
$GLGSV,1,1,02,79,25,056,31,69,22,046,35,1*79
$GAGSV,2,1,06,13,66,278,23,08,56,359,30,15,44,172,42,07,38,276,,7*76
$GAGSV,2,2,06,03,21,049,29,02,17,106,,7*70
$GAGSV,1,1,04,13,66,278,13,08,56,359,34,15,44,172,42,03,21,049,31,1*76
$GBGSV,3,1,10,38,76,041,38,39,73,239,37,16,64,224,43,06,62,223,40,1*70
$GBGSV,3,2,10,20,48,031,39,09,45,219,39,46,43,143,35,19,39,318,15,1*71
$GBGSV,3,3,10,29,35,230,27,37,33,069,26,1*71
$GBGSV,2,1,06,38,76,041,43,39,73,239,41,20,48,031,38,46,43,143,43,4*7E
$GBGSV,2,2,06,29,35,230,28,37,33,069,33,4*78
$GNGGA,103156.000,2500.7905192,N,12132.4765897,E,2,34,0.93,14.559,M,15.25,M,3,3335*45
$GNRMC,103156.000,A,2500.7905192,N,12132.4765897,E,0.01,333.36,260623,,,D,V*08
$GPHDT,,T*1B
$GNGGA,103156.200,2500.7905192,N,12132.4765957,E,2,34,0.93,14.558,M,15.25,M,1,3335*49
$GNRMC,103156.200,A,2500.7905192,N,12132.4765957,E,0.00,333.36,260623,,,D,V*06
$GPHDT,,T*1B
$GNGGA,103156.400,2500.7905192,N,12132.4765957,E,2,33,0.93,14.553,M,15.25,M,1,3335*43
$GNRMC,103156.400,A,2500.7905192,N,12132.4765957,E,0.02,333.36,260623,,,D,V*02
$GPHDT,,T*1B
$GNGGA,103156.600,2500.7905252,N,12132.4766017,E,2,33,0.93,14.546,M,15.25,M,1,3335*44
$GNRMC,103156.600,A,2500.7905252,N,12132.4766017,E,0.03,333.36,260623,,,D,V*00
$GPHDT,,T*1B
$GNGGA,103156.800,2500.7905312,N,12132.4766017,E,2,33,0.93,14.536,M,15.25,M,1,3335*48
$GNRMC,103156.800,A,2500.7905312,N,12132.4766017,E,0.03,333.36,260623,,,D,V*0B
$GPHDT,,T*1B
$GNGSA,A,3,24,196,199,15,195,05,13,,,,,,1.66,0.93,1.37,1*38
$GNGSA,A,3,79,69,,,,,,,,,,,1.66,0.93,1.37,2*0D
$GNGSA,A,3,08,15,03,,,,,,,,,,1.66,0.93,1.37,3*02
$GNGSA,A,3,38,39,16,06,20,09,46,29,37,,,,1.66,0.93,1.37,4*0C
$GPGSV,3,1,10,24,73,164,45,196,73,053,41,199,60,167,37,18,56,300,25,1*63
$GPGSV,3,2,10,15,50,018,40,45,47,231,37,195,44,178,44,05,33,095,33,1*54
$GPGSV,3,3,10,13,25,041,38,194,22,144,21,1*50
$GPGSV,2,1,05,196,73,053,44,24,73,164,48,199,60,167,46,18,56,300,26,8*62
$GPGSV,2,2,05,195,44,178,46,8*69
$GLGSV,1,1,03,79,25,056,31,69,22,046,36,86,14,327,,1*46
$GAGSV,2,1,06,13,66,278,23,08,56,359,30,15,44,172,42,07,38,276,,7*76
$GAGSV,2,2,06,03,21,049,28,02,17,106,,7*71
$GAGSV,1,1,04,13,66,278,10,08,56,359,34,15,44,172,42,03,21,049,31,1*75
$GBGSV,3,1,10,38,76,041,39,39,73,239,37,16,64,224,43,06,62,223,41,1*70
$GBGSV,3,2,10,20,48,031,36,09,45,219,39,46,43,143,34,19,39,318,15,1*7F
$GBGSV,3,3,10,29,35,230,30,37,33,069,21,1*70
$GBGSV,2,1,06,38,76,041,43,39,73,239,41,20,48,031,38,46,43,143,43,4*7E
$GBGSV,2,2,06,29,35,230,27,37,33,069,33,4*77
$GNGGA,103157.000,2500.7905312,N,12132.4766017,E,2,34,0.93,14.536,M,15.25,M,1,3335*46
$GNRMC,103157.000,A,2500.7905312,N,12132.4766017,E,0.01,333.36,260623,,,D,V*00
$GPHDT,,T*1B
$GNGGA,103157.200,2500.7905312,N,12132.4766077,E,2,34,0.93,14.532,M,15.25,M,1,3335*46
$GNRMC,103157.200,A,2500.7905312,N,12132.4766077,E,0.02,333.36,260623,,,D,V*07
$GPHDT,,T*1B
$GNGGA,103157.400,2500.7905372,N,12132.4766077,E,2,34,0.93,14.530,M,15.25,M,1,3335*44
$GNRMC,103157.400,A,2500.7905372,N,12132.4766077,E,0.02,333.36,260623,,,D,V*07
$GPHDT,,T*1B
$GNGGA,103157.600,2500.7905372,N,12132.4766077,E,2,34,0.93,14.523,M,15.25,M,0,3335*45
$GNRMC,103157.600,A,2500.7905372,N,12132.4766077,E,0.02,333.36,260623,,,D,V*05
$GPHDT,,T*1B
$GNGGA,103157.800,2500.7905432,N,12132.4766137,E,2,34,0.93,14.515,M,15.25,M,0,3335*48
$GNRMC,103157.800,A,2500.7905432,N,12132.4766137,E,0.03,333.36,260623,,,D,V*0C
$GPHDT,,T*1B
$GNGSA,A,3,24,196,199,15,195,05,13,,,,,,1.66,0.93,1.37,1*38
$GNGSA,A,3,79,69,,,,,,,,,,,1.66,0.93,1.37,2*0D
$GNGSA,A,3,08,15,03,,,,,,,,,,1.66,0.93,1.37,3*02
$GNGSA,A,3,38,39,16,06,20,09,46,29,37,,,,1.66,0.93,1.37,4*0C
$GPGSV,3,1,10,24,73,164,45,196,73,053,41,199,60,167,37,18,56,300,25,1*63
$GPGSV,3,2,10,15,50,018,42,45,47,231,37,195,44,178,44,05,33,095,34,1*51
$GPGSV,3,3,10,13,25,041,37,194,22,144,21,1*5F
$GPGSV,2,1,05,196,73,053,44,24,73,164,48,199,60,167,46,18,56,300,26,8*62
$GPGSV,2,2,05,195,44,178,46,8*69
$GLGSV,1,1,03,79,25,056,31,69,22,046,36,86,14,327,,1*46
$GAGSV,2,1,06,13,66,278,23,08,56,359,31,15,44,172,41,07,38,276,,7*74
$GAGSV,2,2,06,03,21,049,27,02,17,106,,7*7E
$GAGSV,1,1,04,13,66,278,09,08,56,359,35,15,44,172,41,03,21,049,30,1*7E
$GBGSV,3,1,11,38,76,042,39,39,73,239,37,16,64,224,43,06,62,223,41,1*72
$GBGSV,3,2,11,20,48,031,34,09,45,219,39,46,43,143,35,19,39,318,13,1*7B
$GBGSV,3,3,11,29,35,230,30,37,33,068,29,10,05,208,,1*46
$GBGSV,2,1,06,38,76,042,43,39,73,239,41,20,48,031,38,46,43,143,43,4*7D
$GBGSV,2,2,06,29,35,230,26,37,33,068,31,4*75
$GNGGA,103158.000,2500.7905432,N,12132.4766137,E,2,34,0.93,14.517,M,15.25,M,1,3335*4C
$GNRMC,103158.000,A,2500.7905432,N,12132.4766137,E,0.01,333.36,260623,,,D,V*09
$GPHDT,,T*1B
$GNGGA,103158.200,2500.7905432,N,12132.4766137,E,2,34,0.93,14.515,M,15.25,M,1,3335*4C
$GNRMC,103158.200,A,2500.7905432,N,12132.4766137,E,0.01,333.36,260623,,,D,V*0B
$GPHDT,,T*1B
$GNGGA,103158.400,2500.7905492,N,12132.4766197,E,2,34,0.93,14.511,M,15.25,M,1,3335*4E
$GNRMC,103158.400,A,2500.7905492,N,12132.4766197,E,0.01,333.36,260623,,,D,V*0D
$GPHDT,,T*1B
$GNGGA,103158.600,2500.7905552,N,12132.4766257,E,2,34,0.93,14.505,M,15.25,M,1,3335*4B
$GNRMC,103158.600,A,2500.7905552,N,12132.4766257,E,0.03,333.36,260623,,,D,V*0F
$GPHDT,,T*1B
$GNGGA,103158.800,2500.7905612,N,12132.4766257,E,2,34,0.93,14.494,M,15.25,M,0,3335*4A
$GNRMC,103158.800,A,2500.7905612,N,12132.4766257,E,0.04,333.36,260623,,,D,V*01
$GPHDT,,T*1B
$GNGSA,A,3,196,24,199,15,195,05,13,,,,,,1.66,0.93,1.37,1*38
$GNGSA,A,3,79,69,,,,,,,,,,,1.66,0.93,1.37,2*0D
$GNGSA,A,3,08,15,03,,,,,,,,,,1.66,0.93,1.37,3*02
$GNGSA,A,3,38,39,16,06,20,09,46,29,37,,,,1.66,0.93,1.37,4*0C
$GPGSV,3,1,11,196,73,053,41,24,73,164,45,199,60,167,37,18,56,300,25,1*62
$GPGSV,3,2,11,15,50,018,43,45,47,231,37,195,44,178,44,05,33,095,35,1*50
$GPGSV,3,3,11,13,25,041,36,194,22,144,22,27,,,19,1*51
$GPGSV,2,1,05,196,73,053,43,24,73,164,48,199,60,167,45,18,56,300,26,8*66
$GPGSV,2,2,05,195,44,178,46,8*69
$GLGSV,1,1,03,79,25,056,31,69,22,046,36,86,14,327,,1*46
$GAGSV,2,1,06,13,66,278,24,08,56,359,32,15,44,172,41,07,38,276,,7*70
$GAGSV,2,2,06,03,21,049,28,02,17,106,,7*71
$GAGSV,1,1,04,13,66,278,09,08,56,359,35,15,44,172,40,03,21,049,30,1*7F
$GBGSV,3,1,10,38,76,042,40,39,73,239,37,16,64,224,43,06,62,223,41,1*7D
$GBGSV,3,2,10,20,48,031,34,09,45,219,39,46,43,143,35,19,39,318,14,1*7D
$GBGSV,3,3,10,29,35,230,29,37,33,068,29,1*71
$GBGSV,2,1,06,38,76,042,42,39,73,239,41,20,48,031,38,46,43,143,43,4*7C
$GBGSV,2,2,06,29,35,230,26,37,33,068,31,4*75
$GNGGA,103159.000,2500.7905612,N,12132.4766257,E,2,34,0.93,14.494,M,15.25,M,1,3335*42
$GNRMC,103159.000,A,2500.7905612,N,12132.4766257,E,0.01,333.36,260623,,,D,V*0D
$GPHDT,,T*1B
$GNGGA,103159.200,2500.7905672,N,12132.4766257,E,2,34,0.93,14.493,M,15.25,M,1,3335*41
$GNRMC,103159.200,A,2500.7905672,N,12132.4766257,E,0.01,333.36,260623,,,D,V*09
$GPHDT,,T*1B
$GNGGA,103159.400,2500.7905672,N,12132.4766317,E,2,34,0.93,14.489,M,15.25,M,1,3335*49
$GNRMC,103159.400,A,2500.7905672,N,12132.4766317,E,0.01,333.36,260623,,,D,V*0A
$GPHDT,,T*1B
$GNGGA,103159.600,2500.7905672,N,12132.4766317,E,2,34,0.93,14.485,M,15.25,M,1,3335*47
$GNRMC,103159.600,A,2500.7905672,N,12132.4766317,E,0.02,333.36,260623,,,D,V*0B
$GPHDT,,T*1B
$GNGGA,103159.800,2500.7905792,N,12132.4766377,E,2,34,0.93,14.476,M,15.25,M,0,3335*4D
$GNRMC,103159.800,A,2500.7905792,N,12132.4766377,E,0.04,333.36,260623,,,D,V*0A
$GPHDT,,T*1B
$GNGSA,A,3,24,196,199,15,195,05,13,,,,,,1.66,0.93,1.37,1*38
$GNGSA,A,3,79,69,,,,,,,,,,,1.66,0.93,1.37,2*0D
$GNGSA,A,3,08,15,03,,,,,,,,,,1.66,0.93,1.37,3*02
$GNGSA,A,3,38,39,16,06,20,09,46,29,37,,,,1.66,0.93,1.37,4*0C
$GPGSV,3,1,10,24,73,164,45,196,73,053,41,199,60,167,37,18,56,300,24,1*62
$GPGSV,3,2,10,15,50,018,43,45,47,231,37,195,44,178,44,05,33,095,35,1*51
$GPGSV,3,3,10,13,25,041,34,194,22,144,21,1*5C
$GPGSV,2,1,06,196,73,053,43,24,73,164,48,199,60,167,45,18,56,300,26,8*65
$GPGSV,2,2,06,195,44,178,46,194,22,144,19,8*6F
$GLGSV,1,1,03,79,25,056,30,69,22,046,36,86,14,327,20,1*45
$GAGSV,2,1,05,13,66,278,24,08,56,359,32,15,44,172,41,07,38,276,,7*73
$GAGSV,2,2,05,03,21,049,28,7*41
$GAGSV,1,1,03,08,56,359,36,15,44,172,41,03,21,049,29,1*44
$GBGSV,3,1,12,38,76,042,40,39,73,239,37,16,64,224,43,06,62,223,41,1*7F
$GBGSV,3,2,12,20,48,031,34,09,45,219,39,46,43,143,35,19,39,318,14,1*7F
$GBGSV,3,3,12,29,35,230,29,37,33,068,29,35,23,293,,32,11,079,,1*73
$GBGSV,2,1,07,38,76,042,42,39,73,239,41,20,48,031,38,46,43,143,43,4*7D
$GBGSV,2,2,07,19,39,318,17,29,35,230,26,37,33,068,30,4*4B
$GNGGA,103200.000,2500.7905792,N,12132.4766377,E,2,34,0.93,14.475,M,15.25,M,1,3335*48
$GNRMC,103200.000,A,2500.7905792,N,12132.4766377,E,0.01,333.36,260623,,,D,V*08
$GPHDT,,T*1B
$GNGGA,103200.200,2500.7905792,N,12132.4766377,E,2,34,0.93,14.474,M,15.25,M,1,3335*4B
$GNRMC,103200.200,A,2500.7905792,N,12132.4766377,E,0.01,333.36,260623,,,D,V*0A
$GPHDT,,T*1B
$GNGGA,103200.400,2500.7905852,N,12132.4766437,E,2,34,0.93,14.470,M,15.25,M,1,3335*49
$GNRMC,103200.400,A,2500.7905852,N,12132.4766437,E,0.00,333.36,260623,,,D,V*0D
$GPHDT,,T*1B
$GNGGA,103200.600,2500.7905912,N,12132.4766437,E,2,34,0.93,14.463,M,15.25,M,0,3335*4D
$GNRMC,103200.600,A,2500.7905912,N,12132.4766437,E,0.03,333.36,260623,,,D,V*09
$GPHDT,,T*1B
$GNGGA,103200.800,2500.7905912,N,12132.4766497,E,2,34,0.93,14.454,M,15.25,M,0,3335*4D
$GNRMC,103200.800,A,2500.7905912,N,12132.4766497,E,0.03,333.36,260623,,,D,V*0D
$GPHDT,,T*1B
$GNGSA,A,3,24,196,199,15,195,05,13,,,,,,1.66,0.93,1.37,1*38
$GNGSA,A,3,79,69,,,,,,,,,,,1.66,0.93,1.37,2*0D
$GNGSA,A,3,08,15,03,,,,,,,,,,1.66,0.93,1.37,3*02
$GNGSA,A,3,38,39,16,06,20,09,46,29,37,,,,1.66,0.93,1.37,4*0C
$GPGSV,3,1,10,24,73,164,45,196,73,053,41,199,60,167,37,18,56,300,24,1*62
$GPGSV,3,2,10,15,50,018,43,45,47,231,37,195,44,178,44,05,33,095,35,1*51
$GPGSV,3,3,10,13,25,041,34,194,22,144,21,1*5C
$GPGSV,2,1,06,196,73,053,43,24,73,164,48,199,60,167,45,18,56,300,26,8*65
$GPGSV,2,2,06,195,44,178,46,194,22,144,20,8*65
$GLGSV,1,1,03,79,25,056,30,69,22,046,36,86,14,327,21,1*44
$GAGSV,2,1,05,13,66,278,24,08,56,359,33,15,44,172,41,07,38,276,,7*72
$GAGSV,2,2,05,03,21,049,28,7*41
$GAGSV,1,1,03,08,56,359,36,15,44,172,41,03,21,049,29,1*44
$GBGSV,3,1,11,38,76,042,40,39,73,239,37,16,64,224,43,06,62,223,41,1*7C
$GBGSV,3,2,11,20,48,031,34,09,45,219,39,46,43,143,35,19,39,318,14,1*7C
$GBGSV,3,3,11,29,35,230,29,37,33,068,29,36,14,188,,1*41
$GBGSV,2,1,07,38,76,042,42,39,73,239,41,20,48,031,39,46,43,143,43,4*7C
$GBGSV,2,2,07,19,39,318,17,29,35,230,26,37,33,068,30,4*4B
$GNGGA,103201.000,2500.7905972,N,12132.4766497,E,2,34,0.93,14.453,M,15.25,M,1,3335*44
$GNRMC,103201.000,A,2500.7905972,N,12132.4766497,E,0.01,333.36,260623,,,D,V*00
$GPHDT,,T*1B
$GNGGA,103201.200,2500.7905972,N,12132.4766497,E,2,34,0.93,14.451,M,15.25,M,1,3335*44
$GNRMC,103201.200,A,2500.7905972,N,12132.4766497,E,0.01,333.36,260623,,,D,V*02
$GPHDT,,T*1B
$GNGGA,103201.400,2500.7906032,N,12132.4766497,E,2,34,0.93,14.447,M,15.25,M,1,3335*4B
$GNRMC,103201.400,A,2500.7906032,N,12132.4766497,E,0.01,333.36,260623,,,D,V*0A
$GPHDT,,T*1B
$GNGGA,103201.600,2500.7906032,N,12132.4766557,E,2,34,0.93,14.443,M,15.25,M,0,3335*41
$GNRMC,103201.600,A,2500.7906032,N,12132.4766557,E,0.02,333.36,260623,,,D,V*06
$GPHDT,,T*1B
$GNGGA,103201.800,2500.7906152,N,12132.4766617,E,2,34,0.93,14.430,M,15.25,M,0,3335*4B
$GNRMC,103201.800,A,2500.7906152,N,12132.4766617,E,0.04,333.36,260623,,,D,V*0E
$GPHDT,,T*1B
$GNGSA,A,3,24,196,199,15,195,05,13,,,,,,1.66,0.93,1.37,1*38
$GNGSA,A,3,79,69,,,,,,,,,,,1.66,0.93,1.37,2*0D
$GNGSA,A,3,08,15,03,,,,,,,,,,1.66,0.93,1.37,3*02
$GNGSA,A,3,38,39,16,06,20,09,46,29,37,,,,1.66,0.93,1.37,4*0C
$GPGSV,3,1,10,24,73,164,45,196,73,053,41,199,60,167,37,18,56,300,24,1*62
$GPGSV,3,2,10,15,50,018,43,45,47,231,37,195,44,178,44,05,33,095,33,1*57
$GPGSV,3,3,10,13,25,041,33,194,22,144,21,1*5B
$GPGSV,2,1,06,196,73,053,43,24,73,164,48,199,60,167,45,18,56,300,26,8*65
$GPGSV,2,2,06,195,44,178,46,194,22,144,18,8*6E
$GLGSV,1,1,03,79,25,056,31,69,22,046,36,86,14,327,21,1*45
$GAGSV,2,1,05,13,66,278,24,08,56,359,33,15,44,172,41,07,38,276,,7*72
$GAGSV,2,2,05,03,21,049,28,7*41
$GAGSV,1,1,03,08,56,359,36,15,44,172,41,03,21,049,29,1*44
$GBGSV,3,1,10,38,76,042,40,39,73,239,37,16,64,224,43,06,62,223,41,1*7D
$GBGSV,3,2,10,20,48,031,36,09,45,219,39,46,43,143,35,19,39,318,14,1*7F
$GBGSV,3,3,10,29,35,230,30,37,33,068,28,1*78
$GBGSV,2,1,07,38,76,042,42,39,73,239,41,20,48,031,39,46,43,143,43,4*7C
$GBGSV,2,2,07,19,39,318,15,29,35,230,27,37,33,068,32,4*4A
$GNGGA,103202.000,2500.7906152,N,12132.4766617,E,2,34,0.93,14.430,M,15.25,M,1,3335*41
$GNRMC,103202.000,A,2500.7906152,N,12132.4766617,E,0.02,333.36,260623,,,D,V*03
$GPHDT,,T*1B
$GNGGA,103202.200,2500.7906152,N,12132.4766617,E,2,34,0.93,14.430,M,15.25,M,1,3335*43
$GNRMC,103202.200,A,2500.7906152,N,12132.4766617,E,0.00,333.36,260623,,,D,V*03
$GPHDT,,T*1B
$GNGGA,103202.400,2500.7906212,N,12132.4766617,E,2,34,0.93,14.428,M,15.25,M,1,3335*4B
$GNRMC,103202.400,A,2500.7906212,N,12132.4766617,E,0.01,333.36,260623,,,D,V*03
$GPHDT,,T*1B
$GNGGA,103202.600,2500.7906272,N,12132.4766677,E,2,34,0.93,14.421,M,15.25,M,0,3335*41
$GNRMC,103202.600,A,2500.7906272,N,12132.4766677,E,0.02,333.36,260623,,,D,V*02
$GPHDT,,T*1B
$GNGGA,103202.800,2500.7906332,N,12132.4766737,E,2,34,0.93,14.408,M,15.25,M,0,3335*44
$GNRMC,103202.800,A,2500.7906332,N,12132.4766737,E,0.05,333.36,260623,,,D,V*0B
$GPHDT,,T*1B
$GNGSA,A,3,24,196,199,15,195,05,13,,,,,,1.66,0.93,1.37,1*38
$GNGSA,A,3,79,69,,,,,,,,,,,1.66,0.93,1.37,2*0D
$GNGSA,A,3,08,15,03,,,,,,,,,,1.66,0.93,1.37,3*02
$GNGSA,A,3,38,39,16,06,20,09,46,29,37,,,,1.66,0.93,1.37,4*0C
$GPGSV,3,1,10,24,73,164,45,196,73,053,41,199,60,167,37,18,56,300,24,1*62
$GPGSV,3,2,10,15,50,018,43,45,47,231,37,195,44,178,44,05,33,095,29,1*5C
$GPGSV,3,3,10,13,25,041,34,194,22,144,19,1*57
$GPGSV,2,1,06,196,73,053,44,24,73,164,48,199,60,167,45,18,56,300,27,8*63
$GPGSV,2,2,06,195,44,178,46,194,22,144,18,8*6E
$GLGSV,1,1,03,79,25,056,33,69,22,046,36,86,14,327,22,1*44
$GAGSV,2,1,05,13,66,278,25,08,56,359,33,15,44,172,41,07,38,276,17,7*75
$GAGSV,2,2,05,03,21,049,27,7*4E
$GAGSV,1,1,03,08,56,359,36,15,44,172,41,03,21,049,29,1*44
$GBGSV,3,1,10,38,76,042,40,39,73,239,37,16,64,224,43,06,62,223,41,1*7D
$GBGSV,3,2,10,20,48,031,38,09,45,219,39,46,43,143,35,19,39,318,14,1*71
$GBGSV,3,3,10,29,35,230,31,37,33,068,30,1*70
$GBGSV,2,1,07,38,76,042,42,39,73,239,41,20,48,031,39,46,43,143,43,4*7C
$GBGSV,2,2,07,19,39,318,15,29,35,230,24,37,33,068,34,4*4F
$GNGGA,103203.000,2500.7906332,N,12132.4766737,E,2,34,0.93,14.409,M,15.25,M,1,3335*4D
$GNRMC,103203.000,A,2500.7906332,N,12132.4766737,E,0.01,333.36,260623,,,D,V*06
$GPHDT,,T*1B
$GNGGA,103203.200,2500.7906332,N,12132.4766737,E,2,34,0.93,14.405,M,15.25,M,1,3335*43
$GNRMC,103203.200,A,2500.7906332,N,12132.4766737,E,0.01,333.36,260623,,,D,V*04
$GPHDT,,T*1B
$GNGGA,103203.400,2500.7906392,N,12132.4766797,E,2,34,0.93,14.400,M,15.25,M,1,3335*40
$GNRMC,103203.400,A,2500.7906392,N,12132.4766797,E,0.02,333.36,260623,,,D,V*01
$GPHDT,,T*1B
$GNGGA,103203.600,2500.7906452,N,12132.4766797,E,2,34,0.93,14.392,M,15.25,M,0,3335*44
$GNRMC,103203.600,A,2500.7906452,N,12132.4766797,E,0.02,333.36,260623,,,D,V*08
$GPHDT,,T*1B
$GNGGA,103203.800,2500.7906512,N,12132.4766857,E,2,34,0.93,14.383,M,15.25,M,0,3335*4C
$GNRMC,103203.800,A,2500.7906512,N,12132.4766857,E,0.04,333.36,260623,,,D,V*06
$GPHDT,,T*1B
$GNGSA,A,3,24,196,199,15,195,05,13,,,,,,1.66,0.93,1.37,1*38
$GNGSA,A,3,79,69,,,,,,,,,,,1.66,0.93,1.37,2*0D
$GNGSA,A,3,08,15,03,,,,,,,,,,1.66,0.93,1.37,3*02
$GNGSA,A,3,38,39,16,06,20,09,46,29,37,,,,1.66,0.93,1.37,4*0C
$GPGSV,3,1,10,24,73,164,45,196,73,053,41,199,60,167,37,18,56,300,24,1*62
$GPGSV,3,2,10,15,50,018,43,45,47,231,36,195,44,178,44,05,33,095,27,1*53
$GPGSV,3,3,10,13,25,041,34,194,22,144,18,1*56
$GPGSV,2,1,05,24,73,164,48,196,73,053,44,199,60,167,45,18,56,300,26,8*61
$GPGSV,2,2,05,195,44,178,46,8*69
$GLGSV,1,1,03,79,25,056,33,69,22,046,37,86,14,327,23,1*44
$GAGSV,2,1,05,13,66,278,25,08,56,359,33,15,44,172,41,07,38,276,17,7*75
$GAGSV,2,2,05,03,21,049,26,7*4F
$GAGSV,1,1,04,13,66,278,26,08,56,359,36,15,44,172,41,03,21,049,28,1*79
$GBGSV,3,1,10,38,76,042,41,39,73,239,37,16,64,224,43,06,62,223,41,1*7C
$GBGSV,3,2,10,20,48,031,38,09,45,219,38,46,43,143,35,19,39,318,13,1*77
$GBGSV,3,3,10,29,35,230,31,37,33,068,31,1*71
$GBGSV,2,1,07,38,76,042,42,39,73,239,41,20,48,031,40,46,43,143,43,4*72
$GBGSV,2,2,07,19,39,318,16,29,35,230,25,37,33,068,35,4*4C
$GNGGA,103204.000,2500.7906512,N,12132.4766857,E,2,34,0.93,14.383,M,15.25,M,1,3335*42
$GNRMC,103204.000,A,2500.7906512,N,12132.4766857,E,0.00,333.36,260623,,,D,V*0D
$GPHDT,,T*1B
$GNGGA,103204.200,2500.7906572,N,12132.4766857,E,2,34,0.93,14.380,M,15.25,M,1,3335*45
$GNRMC,103204.200,A,2500.7906572,N,12132.4766857,E,0.00,333.36,260623,,,D,V*09
