$FW : RTK35X,V1.1X0314AS,Lib20210517,1*54
$Tool : LOCOSYS , GNSS Firebird , v1.0.0.19*39
$---------------------------------------------------*2D
$GNGSA,A,3,196,24,199,18,15,195,05,13,194,,,,1.38,0.65,1.21,1*08
$GNGSA,A,3,84,80,79,69,,,,,,,,,1.38,0.65,1.21,2*0C
$GNGSA,A,3,13,08,15,07,03,,,,,,,,1.38,0.65,1.21,3*02
$GNGSA,A,3,38,39,06,20,09,46,29,37,,,,,1.38,0.65,1.21,4*0E
$GPGSV,3,1,12,196,73,052,42,24,70,168,44,50,60,167,41,199,60,167,38,1*6A
$GPGSV,3,2,12,18,54,303,26,15,52,015,43,195,45,177,45,05,35,092,30,1*5D
$GPGSV,3,3,12,23,29,320,25,13,26,039,36,194,21,145,18,29,15,217,22,1*5F
$GPGSV,2,1,07,196,73,052,45,24,70,168,46,199,60,167,46,18,54,303,25,8*63
$GPGSV,2,2,07,195,45,177,47,23,29,320,21,194,21,145,23,8*52
$GLGSV,1,1,04,84,38,202,29,80,35,121,38,79,25,059,20,69,23,043,43,1*7E
$GAGSV,2,1,06,13,66,284,29,08,57,356,35,15,47,171,43,07,38,273,21,7*73
$GAGSV,2,2,06,03,22,047,35,25,05,062,,7*75
$GAGSV,2,1,05,13,66,284,31,08,57,356,37,15,47,171,43,07,38,273,24,1*78
$GAGSV,2,2,05,03,22,047,38,1*4B
$GBGSV,3,1,09,38,75,039,37,39,72,234,40,06,61,220,42,20,48,028,46,1*75
$GBGSV,3,2,09,09,44,217,38,46,41,145,42,29,37,233,32,37,33,071,43,1*70
$GBGSV,3,3,09,16,,,36,1*7D
$GBGSV,2,1,06,38,75,039,41,39,72,234,41,20,48,028,40,46,41,145,40,4*7C
$GBGSV,2,2,06,29,37,233,34,37,33,071,41,4*78
$GNGGA,102616.000,2500.7938200,N,12132.4779400,E,2,43,0.65,22.73,M,15.25,M,16,3335*4B
$GNRMC,102616.000,A,2500.7938200,N,12132.4779400,E,0.02,154.17,260623,,,D,V*00
$GPHDT,,T*1B
$GNGGA,102616.200,2500.7938200,N,12132.4779400,E,2,43,0.65,22.73,M,15.25,M,16,3335*49
$GNRMC,102616.200,A,2500.7938200,N,12132.4779400,E,0.03,154.17,260623,,,D,V*03
$GPHDT,,T*1B
$GNGGA,102616.400,2500.7938200,N,12132.4779400,E,2,43,0.65,22.73,M,15.25,M,16,3335*4F
$GNRMC,102616.400,A,2500.7938200,N,12132.4779400,E,0.01,154.17,260623,,,D,V*07
$GPHDT,,T*1B
$GNGGA,102616.600,2500.7938200,N,12132.4779400,E,2,43,0.65,22.73,M,15.25,M,16,3335*4D
$GNRMC,102616.600,A,2500.7938200,N,12132.4779400,E,0.06,154.17,260623,,,D,V*02
$GPHDT,,T*1B
$GNGGA,102616.800,2500.7938200,N,12132.4779400,E,2,43,0.65,22.73,M,15.25,M,16,3335*43
$GNRMC,102616.800,A,2500.7938200,N,12132.4779400,E,0.07,154.17,260623,,,D,V*0D
$GPHDT,,T*1B
$GNGSA,A,3,196,24,199,18,15,195,05,13,194,,,,1.38,0.65,1.21,1*08
$GNGSA,A,3,84,80,79,69,,,,,,,,,1.38,0.65,1.21,2*0C
$GNGSA,A,3,13,08,15,07,03,,,,,,,,1.38,0.65,1.21,3*02
$GNGSA,A,3,38,39,06,20,09,46,29,37,,,,,1.38,0.65,1.21,4*0E
$GPGSV,3,1,12,196,73,052,42,24,70,168,43,50,60,167,41,199,60,167,38,1*6D
$GPGSV,3,2,12,18,54,303,26,15,52,015,43,195,45,177,45,05,35,092,33,1*5E
$GPGSV,3,3,12,23,29,320,25,13,26,039,36,194,21,145,18,29,15,217,22,1*5F
$GPGSV,2,1,07,196,73,052,45,24,70,168,46,199,60,167,46,18,54,303,26,8*60
$GPGSV,2,2,07,195,45,177,47,23,29,320,20,194,21,145,23,8*53
$GLGSV,1,1,04,84,38,202,29,80,35,121,38,79,25,059,20,69,23,043,43,1*7E
$GAGSV,2,1,06,13,66,284,29,08,57,356,36,15,47,171,42,07,38,273,21,7*71
$GAGSV,2,2,06,03,22,047,35,25,05,062,,7*75
$GAGSV,2,1,05,13,66,284,31,08,57,356,37,15,47,171,43,07,38,273,24,1*78
$GAGSV,2,2,05,03,22,047,38,1*4B
$GBGSV,3,1,09,38,75,039,37,39,72,234,40,06,61,220,42,20,48,028,46,1*75
$GBGSV,3,2,09,09,44,217,38,46,41,145,42,29,37,233,31,37,33,071,43,1*73
$GBGSV,3,3,09,16,,,37,1*7C
$GBGSV,2,1,06,38,75,039,41,39,72,234,41,20,48,028,40,46,41,145,39,4*72
$GBGSV,2,2,06,29,37,233,34,37,33,071,41,4*78
$GNGGA,102617.000,2500.7938200,N,12132.4779400,E,2,43,0.65,22.73,M,15.25,M,17,3335*4B
$GNRMC,102617.000,A,2500.7938200,N,12132.4779400,E,0.01,154.17,260623,,,D,V*02
$GPHDT,,T*1B
$GNGGA,102617.200,2500.7938200,N,12132.4779400,E,2,43,0.65,22.73,M,15.25,M,17,3335*49
$GNRMC,102617.200,A,2500.7938200,N,12132.4779400,E,0.00,154.17,260623,,,D,V*01
$GPHDT,,T*1B
$GNGGA,102617.400,2500.7938200,N,12132.4779400,E,2,43,0.65,22.73,M,15.25,M,17,3335*4F
$GNRMC,102617.400,A,2500.7938200,N,12132.4779400,E,0.00,154.17,260623,,,D,V*07
$GPHDT,,T*1B
$GNGGA,102617.600,2500.7938200,N,12132.4779400,E,2,42,0.65,22.73,M,15.25,M,17,3335*4C
$GNRMC,102617.600,A,2500.7938200,N,12132.4779400,E,0.11,154.17,260623,,,D,V*05
$GPHDT,,T*1B
$GNGGA,102617.800,2500.7938200,N,12132.4779400,E,2,42,0.65,22.73,M,15.25,M,17,3335*42
$GNRMC,102617.800,A,2500.7938200,N,12132.4779400,E,0.04,154.17,260623,,,D,V*0F
$GPHDT,,T*1B
$GNGSA,A,3,196,24,199,18,15,195,05,13,194,,,,1.38,0.65,1.21,1*08
$GNGSA,A,3,84,80,79,69,,,,,,,,,1.38,0.65,1.21,2*0C
$GNGSA,A,3,13,08,15,07,03,,,,,,,,1.38,0.65,1.21,3*02
$GNGSA,A,3,38,39,06,20,09,46,29,37,,,,,1.38,0.65,1.21,4*0E
$GPGSV,3,1,12,196,73,052,42,24,70,168,42,50,60,167,41,199,60,167,38,1*6C
$GPGSV,3,2,12,18,54,303,26,15,52,015,43,195,45,177,45,05,35,092,37,1*5A
$GPGSV,3,3,12,23,29,320,24,13,26,039,38,194,21,145,18,29,15,217,22,1*50
$GPGSV,2,1,07,196,73,052,45,24,70,168,46,199,60,167,46,18,54,303,26,8*60
$GPGSV,2,2,07,195,45,177,47,23,29,320,19,194,21,145,22,8*58
$GLGSV,1,1,04,84,38,202,28,80,35,121,38,79,25,059,23,69,23,043,43,1*7C
$GAGSV,2,1,06,13,66,284,29,08,57,356,36,15,47,171,42,07,38,273,21,7*71
$GAGSV,2,2,06,03,22,047,36,25,05,062,,7*76
$GAGSV,2,1,05,13,66,284,31,08,57,356,38,15,47,171,42,07,38,273,23,1*71
$GAGSV,2,2,05,03,22,047,37,1*44
$GBGSV,3,1,09,38,75,039,37,39,72,234,39,06,61,220,42,20,48,028,45,1*78
$GBGSV,3,2,09,09,44,217,37,46,41,145,41,29,37,232,29,37,33,071,43,1*77
$GBGSV,3,3,09,16,,,38,1*73
$GBGSV,2,1,06,38,75,039,41,39,72,234,40,20,48,028,41,46,41,145,39,4*72
$GBGSV,2,2,06,29,37,232,35,37,33,071,41,4*78
$GNGGA,102618.000,2500.7938200,N,12132.4779400,E,2,42,0.65,22.73,M,15.25,M,18,3335*4A
$GNRMC,102618.000,A,2500.7938200,N,12132.4779400,E,0.00,154.17,260623,,,D,V*0C
$GPHDT,,T*1B
$GNGGA,102618.200,2500.7938200,N,12132.4779400,E,2,42,0.65,22.73,M,15.25,M,18,3335*48
$GNRMC,102618.200,A,2500.7938200,N,12132.4779400,E,0.01,154.17,260623,,,D,V*0F
$GPHDT,,T*1B
$GNGGA,102618.400,2500.7938200,N,12132.4779400,E,2,42,0.65,22.73,M,15.25,M,18,3335*4E
$GNRMC,102618.400,A,2500.7938200,N,12132.4779400,E,0.01,154.17,260623,,,D,V*09
$GPHDT,,T*1B
$GNGGA,102618.600,2500.7938200,N,12132.4779400,E,2,43,0.65,22.73,M,15.25,M,18,3335*4D
$GNRMC,102618.600,A,2500.7938200,N,12132.4779400,E,0.02,154.17,260623,,,D,V*08
$GPHDT,,T*1B
$GNGGA,102618.800,2500.7938200,N,12132.4779400,E,2,43,0.65,22.73,M,15.25,M,18,3335*43
$GNRMC,102618.800,A,2500.7938200,N,12132.4779400,E,0.12,154.17,260623,,,D,V*07
$GPHDT,,T*1B
$GNGSA,A,3,196,24,199,18,15,195,05,13,194,,,,1.38,0.65,1.21,1*08
$GNGSA,A,3,84,80,79,69,,,,,,,,,1.38,0.65,1.21,2*0C
$GNGSA,A,3,13,08,15,07,03,,,,,,,,1.38,0.65,1.21,3*02
$GNGSA,A,3,38,39,06,20,09,46,29,37,,,,,1.38,0.65,1.21,4*0E
$GPGSV,3,1,12,196,73,052,42,24,70,168,42,50,60,167,41,199,60,167,38,1*6C
$GPGSV,3,2,12,18,54,303,26,15,52,015,43,195,45,177,45,05,35,092,36,1*5B
$GPGSV,3,3,12,23,29,320,24,13,26,039,38,194,21,145,18,29,15,217,22,1*50
$GPGSV,2,1,07,196,73,052,45,24,70,168,46,199,60,167,46,18,54,303,27,8*61
$GPGSV,2,2,07,195,45,177,47,23,29,320,19,194,21,145,20,8*5A
$GLGSV,1,1,04,84,38,202,28,80,35,121,39,79,25,059,21,69,23,043,43,1*7F
$GAGSV,2,1,06,13,66,284,31,08,57,356,36,15,47,171,42,07,38,273,20,7*79
$GAGSV,2,2,06,03,22,047,35,25,05,062,,7*75
$GAGSV,2,1,05,13,66,284,30,08,57,356,38,15,47,171,42,07,38,273,23,1*70
$GAGSV,2,2,05,03,22,047,39,1*4A
$GBGSV,3,1,10,38,75,039,37,39,72,234,39,06,61,220,42,20,48,028,45,1*70
$GBGSV,3,2,10,09,44,217,37,46,41,145,41,29,37,232,29,37,33,071,42,1*7E
$GBGSV,3,3,10,32,12,077,,16,,,37,1*46
$GBGSV,2,1,06,38,75,039,40,39,72,234,40,20,48,028,41,46,41,145,38,4*72
$GBGSV,2,2,06,29,37,232,34,37,33,071,41,4*79
$GNGGA,102619.000,2500.7938200,N,12132.4779400,E,2,43,0.65,22.73,M,15.25,M,19,3335*4B
$GNRMC,102619.000,A,2500.7938200,N,12132.4779400,E,0.04,154.17,260623,,,D,V*09
$GPHDT,,T*1B
$GNGGA,102619.200,2500.7938200,N,12132.4779400,E,2,43,0.65,22.73,M,15.25,M,19,3335*49
$GNRMC,102619.200,A,2500.7938200,N,12132.4779400,E,0.02,154.17,260623,,,D,V*0D
$GPHDT,,T*1B
$GNGGA,102619.400,2500.7938200,N,12132.4779400,E,2,43,0.65,22.73,M,15.25,M,19,3335*4F
$GNRMC,102619.400,A,2500.7938200,N,12132.4779400,E,0.10,154.17,260623,,,D,V*08
$GPHDT,,T*1B
$GNGGA,102619.600,2500.7938200,N,12132.4779400,E,2,43,0.65,22.73,M,15.25,M,19,3335*4D
$GNRMC,102619.600,A,2500.7938200,N,12132.4779400,E,0.04,154.17,260623,,,D,V*0F
$GPHDT,,T*1B
$GNGGA,102619.800,2500.7938200,N,12132.4779400,E,2,43,0.65,22.73,M,15.25,M,19,3335*43
$GNRMC,102619.800,A,2500.7938200,N,12132.4779400,E,0.06,154.17,260623,,,D,V*03
$GPHDT,,T*1B
$GNGSA,A,3,196,24,199,18,15,195,05,13,194,,,,1.38,0.65,1.21,1*08
$GNGSA,A,3,84,80,79,69,,,,,,,,,1.38,0.65,1.21,2*0C
$GNGSA,A,3,13,08,15,07,03,,,,,,,,1.38,0.65,1.21,3*02
$GNGSA,A,3,38,39,06,20,09,46,29,37,,,,,1.38,0.65,1.21,4*0E
$GPGSV,3,1,12,196,73,052,42,24,70,168,42,50,60,167,40,199,60,167,38,1*6D
$GPGSV,3,2,12,18,54,303,26,15,52,015,43,195,45,177,45,05,35,092,36,1*5B
$GPGSV,3,3,12,23,29,320,23,13,26,039,38,194,21,145,21,29,15,217,22,1*5D
$GPGSV,2,1,07,196,73,052,45,24,70,168,46,199,60,167,46,18,54,303,27,8*61
$GPGSV,2,2,07,195,45,177,47,23,29,320,19,194,21,145,20,8*5A
$GLGSV,1,1,04,84,38,202,27,80,35,121,39,79,25,059,21,69,23,043,43,1*70
$GAGSV,2,1,06,13,66,284,31,08,57,356,36,15,47,171,42,07,38,273,20,7*79
$GAGSV,2,2,06,03,22,047,36,25,05,062,,7*76
$GAGSV,2,1,05,13,66,284,32,08,57,356,38,15,47,171,40,07,38,273,23,1*70
$GAGSV,2,2,05,03,22,047,40,1*44
$GBGSV,3,1,10,38,75,039,37,39,72,234,39,06,61,220,42,20,48,028,45,1*70
$GBGSV,3,2,10,09,44,217,38,46,41,145,42,29,37,232,31,37,33,071,42,1*7B
$GBGSV,3,3,10,32,12,077,,16,,,37,1*46
$GBGSV,2,1,06,38,75,039,40,39,72,234,40,20,48,028,41,46,41,145,39,4*73
$GBGSV,2,2,06,29,37,232,34,37,33,071,41,4*79
$GNGGA,102620.000,2500.7938200,N,12132.4779400,E,2,43,0.65,22.73,M,15.25,M,20,3335*4B
$GNRMC,102620.000,A,2500.7938200,N,12132.4779400,E,0.03,154.17,260623,,,D,V*04
$GPHDT,,T*1B
$GNGGA,102620.200,2500.7938200,N,12132.4779400,E,2,43,0.65,22.73,M,15.25,M,20,3335*49
$GNRMC,102620.200,A,2500.7938200,N,12132.4779400,E,0.00,154.17,260623,,,D,V*05
$GPHDT,,T*1B
$GNGGA,102620.400,2500.7938200,N,12132.4779400,E,2,43,0.65,22.73,M,15.25,M,20,3335*4F
$GNRMC,102620.400,A,2500.7938200,N,12132.4779400,E,0.01,154.17,260623,,,D,V*02
$GPHDT,,T*1B
$GNGGA,102620.600,2500.7938200,N,12132.4779400,E,2,43,0.65,22.73,M,15.25,M,20,3335*4D
$GNRMC,102620.600,A,2500.7938200,N,12132.4779400,E,0.01,154.17,260623,,,D,V*00
$GPHDT,,T*1B
$GNGGA,102620.800,2500.7938200,N,12132.4779400,E,2,43,0.65,22.73,M,15.25,M,20,3335*43
$GNRMC,102620.800,A,2500.7938200,N,12132.4779400,E,0.01,154.17,260623,,,D,V*0E
$GPHDT,,T*1B
$GNGSA,A,3,196,24,199,18,15,195,05,13,194,,,,1.38,0.65,1.21,1*08
$GNGSA,A,3,84,80,79,69,,,,,,,,,1.38,0.65,1.21,2*0C
$GNGSA,A,3,13,08,15,07,03,,,,,,,,1.38,0.65,1.21,3*02
$GNGSA,A,3,38,39,06,20,09,46,29,37,,,,,1.38,0.65,1.21,4*0E
$GPGSV,3,1,12,196,73,052,42,24,70,168,42,50,60,167,40,199,60,167,38,1*6D
$GPGSV,3,2,12,18,54,303,26,15,52,015,42,195,45,177,45,05,35,092,38,1*54
$GPGSV,3,3,12,23,29,320,22,13,26,039,38,194,21,145,23,29,15,217,22,1*5E
$GPGSV,2,1,07,196,73,052,45,24,70,168,46,199,60,167,46,18,54,303,27,8*61
$GPGSV,2,2,07,195,45,177,47,23,29,320,20,194,21,145,22,8*52
$GLGSV,1,1,04,84,38,202,27,80,35,121,39,79,25,059,20,69,23,043,43,1*71
$GAGSV,2,1,06,13,66,284,31,08,57,356,36,15,47,171,42,07,38,273,20,7*79
$GAGSV,2,2,06,03,22,047,36,25,05,062,,7*76
$GAGSV,2,1,05,13,66,284,32,08,57,356,38,15,47,171,40,07,38,273,23,1*70
$GAGSV,2,2,05,03,22,047,40,1*44
$GBGSV,3,1,09,38,75,039,37,39,72,234,39,06,61,220,42,20,48,028,45,1*78
$GBGSV,3,2,09,09,44,217,38,46,41,145,42,29,37,232,30,37,33,071,42,1*72
$GBGSV,3,3,09,16,,,23,1*79
$GBGSV,2,1,06,38,75,039,41,39,72,234,40,20,48,028,42,46,41,145,40,4*7F
$GBGSV,2,2,06,29,37,232,34,37,33,071,41,4*79
$GNGGA,102621.000,2500.7938200,N,12132.4779400,E,2,43,0.65,22.73,M,15.25,M,21,3335*4B
$GNRMC,102621.000,A,2500.7938200,N,12132.4779400,E,0.01,154.17,260623,,,D,V*07
$GPHDT,,T*1B
$GNGGA,102621.200,2500.7938200,N,12132.4779400,E,2,43,0.65,22.73,M,15.25,M,21,3335*49
$GNRMC,102621.200,A,2500.7938200,N,12132.4779400,E,0.01,154.17,260623,,,D,V*05
$GPHDT,,T*1B
$GNGGA,102621.400,2500.7938200,N,12132.4779400,E,2,43,0.65,22.73,M,15.25,M,21,3335*4F
$GNRMC,102621.400,A,2500.7938200,N,12132.4779400,E,0.01,154.17,260623,,,D,V*03
$GPHDT,,T*1B
$GNGGA,102621.600,2500.7938100,N,12132.4779400,E,2,43,0.65,22.73,M,15.25,M,21,3335*4E
$GNRMC,102621.600,A,2500.7938100,N,12132.4779400,E,0.01,154.17,260623,,,D,V*02
$GPHDT,,T*1B
$GNGGA,102621.800,2500.7938100,N,12132.4779400,E,2,43,0.65,22.73,M,15.25,M,21,3335*40
$GNRMC,102621.800,A,2500.7938100,N,12132.4779400,E,0.06,154.17,260623,,,D,V*0B
$GPHDT,,T*1B
$GNGSA,A,3,196,24,199,18,15,195,05,13,194,,,,1.38,0.65,1.21,1*08
$GNGSA,A,3,84,80,79,69,,,,,,,,,1.38,0.65,1.21,2*0C
$GNGSA,A,3,13,08,15,07,03,,,,,,,,1.38,0.65,1.21,3*02
$GNGSA,A,3,38,39,06,20,09,46,29,37,,,,,1.38,0.65,1.21,4*0E
$GPGSV,3,1,12,196,73,052,42,24,70,168,42,50,60,167,40,199,60,167,37,1*62
$GPGSV,3,2,12,18,54,303,26,15,52,015,42,195,45,177,45,05,35,092,40,1*5B
$GPGSV,3,3,12,23,29,320,22,13,26,039,38,194,21,145,24,29,15,217,22,1*59
$GPGSV,2,1,07,196,73,052,45,24,70,168,46,199,60,167,45,18,54,303,27,8*62
$GPGSV,2,2,07,195,45,177,47,23,29,320,20,194,21,145,23,8*53
$GLGSV,1,1,04,84,38,202,27,80,35,121,39,79,25,059,19,69,23,043,43,1*7B
$GAGSV,2,1,06,13,66,284,31,08,57,356,36,15,47,171,42,07,38,273,20,7*79
$GAGSV,2,2,06,03,22,047,35,25,05,062,,7*75
$GAGSV,2,1,05,13,66,284,32,08,57,356,38,15,47,171,40,07,38,273,23,1*70
$GAGSV,2,2,05,03,22,047,40,1*44
$GBGSV,3,1,09,38,75,039,37,39,72,234,39,06,61,220,42,20,48,028,45,1*78
$GBGSV,3,2,09,09,44,217,38,46,41,145,42,29,37,232,32,37,33,071,42,1*70
$GBGSV,3,3,09,16,,,19,1*70
$GBGSV,2,1,06,38,75,039,41,39,72,234,40,20,48,028,42,46,41,145,40,4*7F
$GBGSV,2,2,06,29,37,232,35,37,33,071,41,4*78
$GNGGA,102622.000,2500.7938100,N,12132.4779400,E,2,43,0.65,22.73,M,15.25,M,22,3335*48
$GNRMC,102622.000,A,2500.7938100,N,12132.4779400,E,0.03,154.17,260623,,,D,V*05
$GPHDT,,T*1B
$GNGGA,102622.200,2500.7938100,N,12132.4779400,E,2,43,0.65,22.73,M,15.25,M,22,3335*4A
$GNRMC,102622.200,A,2500.7938100,N,12132.4779400,E,0.01,154.17,260623,,,D,V*05
$GPHDT,,T*1B
$GNGGA,102622.400,2500.7938100,N,12132.4779400,E,2,43,0.65,22.73,M,15.25,M,22,3335*4C
$GNRMC,102622.400,A,2500.7938100,N,12132.4779400,E,0.01,154.17,260623,,,D,V*03
$GPHDT,,T*1B
$GNGGA,102622.600,2500.7938100,N,12132.4779400,E,2,43,0.65,22.73,M,15.25,M,22,3335*4E
$GNRMC,102622.600,A,2500.7938100,N,12132.4779400,E,0.01,154.17,260623,,,D,V*01
$GPHDT,,T*1B
$GNGGA,102622.800,2500.7938100,N,12132.4779400,E,2,43,0.65,22.73,M,15.25,M,22,3335*40
$GNRMC,102622.800,A,2500.7938100,N,12132.4779400,E,0.01,154.17,260623,,,D,V*0F
$GPHDT,,T*1B
$GNGSA,A,3,196,24,199,18,15,195,05,13,194,,,,1.38,0.65,1.21,1*08
$GNGSA,A,3,84,80,79,69,,,,,,,,,1.38,0.65,1.21,2*0C
$GNGSA,A,3,13,08,15,07,03,,,,,,,,1.38,0.65,1.21,3*02
$GNGSA,A,3,38,39,06,20,09,46,29,37,,,,,1.38,0.65,1.21,4*0E
$GPGSV,3,1,12,196,73,052,42,24,70,168,42,50,60,167,40,199,60,167,37,1*62
$GPGSV,3,2,12,18,54,303,26,15,52,015,42,195,45,177,45,05,35,092,40,1*5B
$GPGSV,3,3,12,23,29,320,22,13,26,039,39,194,21,145,26,29,15,217,21,1*59
$GPGSV,2,1,07,196,73,052,45,24,70,168,46,199,60,167,45,18,54,303,27,8*62
$GPGSV,2,2,07,195,45,177,47,23,29,320,20,194,21,145,24,8*54
$GLGSV,1,1,04,84,38,202,28,80,35,121,39,79,25,059,20,69,23,043,43,1*7E
$GAGSV,2,1,05,13,66,284,31,08,57,356,36,15,47,171,42,07,38,273,20,7*7A
$GAGSV,2,2,05,03,22,047,35,7*40
$GAGSV,2,1,05,13,66,284,32,08,57,356,38,15,47,171,40,07,38,273,23,1*70
$GAGSV,2,2,05,03,22,047,40,1*44
$GBGSV,3,1,09,38,75,039,37,39,72,234,39,06,61,220,42,20,48,028,45,1*78
$GBGSV,3,2,09,09,44,217,38,46,41,145,42,29,37,232,32,37,33,071,42,1*70
$GBGSV,3,3,09,16,,,18,1*71
$GBGSV,2,1,06,38,75,039,41,39,72,234,40,20,48,028,42,46,41,145,40,4*7F
$GBGSV,2,2,06,29,37,232,35,37,33,071,41,4*78
$GNGGA,102623.000,2500.7938100,N,12132.4779400,E,2,43,0.65,22.73,M,15.25,M,23,3335*48
$GNRMC,102623.000,A,2500.7938100,N,12132.4779400,E,0.02,154.17,260623,,,D,V*05
$GPHDT,,T*1B
$GNGGA,102623.200,2500.7938100,N,12132.4779400,E,2,43,0.65,22.73,M,15.25,M,23,3335*4A
$GNRMC,102623.200,A,2500.7938100,N,12132.4779400,E,0.02,154.17,260623,,,D,V*07
$GPHDT,,T*1B
$GNGGA,102623.400,2500.7938100,N,12132.4779400,E,2,43,0.65,22.73,M,15.25,M,23,3335*4C
$GNRMC,102623.400,A,2500.7938100,N,12132.4779400,E,0.01,154.17,260623,,,D,V*02
$GPHDT,,T*1B
$GNGGA,102623.600,2500.7938100,N,12132.4779400,E,2,43,0.65,22.73,M,15.25,M,23,3335*4E
$GNRMC,102623.600,A,2500.7938100,N,12132.4779400,E,0.00,154.17,260623,,,D,V*01
$GPHDT,,T*1B
$GNGGA,102623.800,2500.7938100,N,12132.4779400,E,2,43,0.65,22.73,M,15.25,M,23,3335*40
$GNRMC,102623.800,A,2500.7938100,N,12132.4779400,E,0.02,154.17,260623,,,D,V*0D
$GPHDT,,T*1B
$GNGSA,A,3,196,24,199,18,15,195,05,13,194,,,,1.38,0.65,1.21,1*08
$GNGSA,A,3,84,80,79,69,,,,,,,,,1.38,0.65,1.21,2*0C
$GNGSA,A,3,13,08,15,07,03,,,,,,,,1.38,0.65,1.21,3*02
$GNGSA,A,3,38,39,06,20,09,46,29,37,,,,,1.38,0.65,1.21,4*0E
$GPGSV,3,1,12,196,73,052,41,24,70,168,41,50,60,167,40,199,60,167,37,1*62
$GPGSV,3,2,12,18,54,303,26,15,52,015,42,195,45,177,45,05,35,092,40,1*5B
$GPGSV,3,3,12,23,29,320,21,13,26,039,39,194,21,145,25,29,15,217,23,1*5B
$GPGSV,2,1,07,196,73,052,45,24,70,168,46,199,60,167,45,18,54,303,27,8*62
$GPGSV,2,2,07,195,45,177,47,23,29,320,20,194,21,145,25,8*55
$GLGSV,1,1,04,84,38,202,28,80,35,121,40,79,25,059,22,69,23,043,43,1*72
$GAGSV,2,1,05,13,66,284,31,08,57,356,36,15,47,171,42,07,38,273,20,7*7A
$GAGSV,2,2,05,03,22,047,35,7*40
$GAGSV,2,1,05,13,66,284,32,08,57,356,38,15,47,171,40,07,38,273,22,1*71
$GAGSV,2,2,05,03,22,047,40,1*44
$GBGSV,2,1,08,38,75,039,37,39,72,234,38,06,61,220,42,20,48,028,45,1*79
$GBGSV,2,2,08,09,44,217,38,46,41,145,42,29,37,232,30,37,33,071,42,1*72
$GBGSV,2,1,06,38,75,039,41,39,72,234,40,20,48,028,42,46,41,145,40,4*7F
$GBGSV,2,2,06,29,37,232,35,37,33,071,41,4*78
$GNGGA,102624.000,2500.7938100,N,12132.4779400,E,2,43,0.65,22.73,M,15.25,M,24,3335*48
$GNRMC,102624.000,A,2500.7938100,N,12132.4779400,E,0.00,154.17,260623,,,D,V*00
$GPHDT,,T*1B
$GNGGA,102624.200,2500.7938100,N,12132.4779400,E,2,43,0.65,22.73,M,15.25,M,24,3335*4A
$GNRMC,102624.200,A,2500.7938100,N,12132.4779400,E,0.01,154.17,260623,,,D,V*03
$GPHDT,,T*1B
$GNGGA,102624.400,2500.7938100,N,12132.4779400,E,2,43,0.65,22.73,M,15.25,M,24,3335*4C
$GNRMC,102624.400,A,2500.7938100,N,12132.4779400,E,0.02,154.17,260623,,,D,V*06
$GPHDT,,T*1B
$GNGGA,102624.600,2500.7938100,N,12132.4779400,E,2,43,0.65,22.73,M,15.25,M,24,3335*4E
$GNRMC,102624.600,A,2500.7938100,N,12132.4779400,E,0.01,154.17,260623,,,D,V*07
$GPHDT,,T*1B
$GNGGA,102624.800,2500.7938100,N,12132.4779400,E,2,43,0.65,22.73,M,15.25,M,24,3335*40
$GNRMC,102624.800,A,2500.7938100,N,12132.4779400,E,0.08,154.17,260623,,,D,V*00
$GPHDT,,T*1B
$GNGSA,A,3,196,24,199,18,15,195,05,13,194,,,,1.38,0.65,1.21,1*08
$GNGSA,A,3,84,80,79,69,,,,,,,,,1.38,0.65,1.21,2*0C
$GNGSA,A,3,13,08,15,07,03,,,,,,,,1.38,0.65,1.21,3*02
$GNGSA,A,3,38,39,06,20,09,46,29,37,,,,,1.38,0.65,1.21,4*0E
$GPGSV,3,1,12,196,73,052,41,24,70,168,41,50,60,167,40,199,60,167,37,1*62
$GPGSV,3,2,12,18,54,303,25,15,52,015,42,195,45,177,45,05,35,092,40,1*58
$GPGSV,3,3,12,23,29,320,21,13,26,039,39,194,21,145,23,29,15,217,23,1*5D
$GPGSV,2,1,07,196,73,052,45,24,70,168,46,199,60,167,45,18,54,303,27,8*62
$GPGSV,2,2,07,195,45,177,47,23,29,320,19,194,21,145,24,8*5E
$GLGSV,1,1,04,84,38,202,28,80,35,121,40,79,25,059,28,69,23,043,43,1*78
$GAGSV,2,1,05,13,66,284,31,08,57,356,36,15,47,171,42,07,38,273,19,7*70
$GAGSV,2,2,05,03,22,047,35,7*40
$GAGSV,2,1,05,13,66,284,32,08,57,356,38,15,47,171,40,07,38,273,21,1*72
$GAGSV,2,2,05,03,22,047,40,1*44
$GBGSV,2,1,08,38,75,039,37,39,72,234,38,06,61,220,42,20,48,028,45,1*79
$GBGSV,2,2,08,09,44,217,37,46,41,145,42,29,37,232,29,37,33,071,41,1*76
$GBGSV,2,1,06,38,75,039,41,39,72,234,40,20,48,028,42,46,41,145,39,4*71
$GBGSV,2,2,06,29,37,232,35,37,33,071,41,4*78
$GNGGA,102625.000,2500.7938100,N,12132.4779400,E,2,43,0.65,22.73,M,15.25,M,25,3335*48
$GNRMC,102625.000,A,2500.7938100,N,12132.4779400,E,0.02,154.17,260623,,,D,V*03
$GPHDT,,T*1B
$GNGGA,102625.200,2500.7938100,N,12132.4779400,E,2,43,0.65,22.73,M,15.25,M,25,3335*4A
$GNRMC,102625.200,A,2500.7938100,N,12132.4779400,E,0.01,154.17,260623,,,D,V*02
$GPHDT,,T*1B
$GNGGA,102625.400,2500.7938100,N,12132.4779400,E,2,43,0.65,22.73,M,15.25,M,25,3335*4C
$GNRMC,102625.400,A,2500.7938100,N,12132.4779400,E,0.01,154.17,260623,,,D,V*04
$GPHDT,,T*1B
$GNGGA,102625.600,2500.7938100,N,12132.4779400,E,2,43,0.65,22.73,M,15.25,M,25,3335*4E
$GNRMC,102625.600,A,2500.7938100,N,12132.4779400,E,0.05,154.17,260623,,,D,V*02
$GPHDT,,T*1B
$GNGGA,102625.800,2500.7938100,N,12132.4779300,E,2,43,0.65,22.73,M,15.25,M,25,3335*47
$GNRMC,102625.800,A,2500.7938100,N,12132.4779300,E,0.05,154.17,260623,,,D,V*0B
$GPHDT,,T*1B
$GNGSA,A,3,196,24,199,18,15,195,05,13,194,,,,1.38,0.65,1.21,1*08
$GNGSA,A,3,84,80,79,69,,,,,,,,,1.38,0.65,1.21,2*0C
$GNGSA,A,3,13,08,15,07,03,,,,,,,,1.38,0.65,1.21,3*02
$GNGSA,A,3,38,39,06,20,09,46,29,37,,,,,1.38,0.65,1.21,4*0E
$GPGSV,3,1,12,196,73,052,41,24,70,168,41,50,60,167,40,199,60,167,38,1*6D
$GPGSV,3,2,12,18,54,303,25,15,52,015,42,195,45,177,45,05,35,092,40,1*58
$GPGSV,3,3,12,23,29,320,20,13,26,039,39,194,21,145,21,29,15,217,22,1*5F
$GPGSV,2,1,06,196,73,052,45,24,70,168,46,199,60,167,45,18,54,303,27,8*63
$GPGSV,2,2,06,195,45,177,47,194,21,145,22,8*6A
$GLGSV,1,1,04,84,38,202,28,80,35,121,39,79,25,059,30,69,23,043,43,1*7F
$GAGSV,2,1,05,13,66,284,31,08,57,356,36,15,47,171,42,07,38,273,19,7*70
$GAGSV,2,2,05,03,22,047,36,7*43
$GAGSV,2,1,05,13,66,284,31,08,57,356,38,15,47,171,40,07,38,273,21,1*71
$GAGSV,2,2,05,03,22,047,40,1*44
$GBGSV,2,1,08,38,75,039,37,39,72,234,38,06,61,220,43,20,48,028,45,1*78
$GBGSV,2,2,08,09,44,217,36,46,41,145,42,29,37,232,28,37,33,071,41,1*76
$GBGSV,2,1,06,38,75,039,41,39,72,234,40,20,48,028,42,46,41,145,38,4*70
$GBGSV,2,2,06,29,37,232,35,37,33,071,41,4*78
$GNGGA,102626.000,2500.7938100,N,12132.4779300,E,2,43,0.65,22.73,M,15.25,M,26,3335*4F
$GNRMC,102626.000,A,2500.7938100,N,12132.4779300,E,0.01,154.17,260623,,,D,V*04
$GPHDT,,T*1B
$GNGGA,102626.200,2500.7938100,N,12132.4779400,E,2,43,0.65,22.73,M,15.25,M,26,3335*4A
$GNRMC,102626.200,A,2500.7938100,N,12132.4779400,E,0.02,154.17,260623,,,D,V*02
$GPHDT,,T*1B
$GNGGA,102626.400,2500.7938100,N,12132.4779400,E,2,43,0.65,22.73,M,15.25,M,26,3335*4C
$GNRMC,102626.400,A,2500.7938100,N,12132.4779400,E,0.01,154.17,260623,,,D,V*07
$GPHDT,,T*1B
$GNGGA,102626.600,2500.7938100,N,12132.4779300,E,2,43,0.65,22.73,M,15.25,M,26,3335*49
$GNRMC,102626.600,A,2500.7938100,N,12132.4779300,E,0.02,154.17,260623,,,D,V*01
$GPHDT,,T*1B
$GNGGA,102626.800,2500.7938100,N,12132.4779300,E,2,43,0.65,22.73,M,15.25,M,26,3335*47
$GNRMC,102626.800,A,2500.7938100,N,12132.4779300,E,0.06,154.17,260623,,,D,V*0B
$GPHDT,,T*1B
$GNGSA,A,3,196,24,199,18,15,195,05,13,194,,,,1.38,0.65,1.21,1*08
$GNGSA,A,3,84,80,79,69,,,,,,,,,1.38,0.65,1.21,2*0C
$GNGSA,A,3,13,08,15,07,03,,,,,,,,1.38,0.65,1.21,3*02
$GNGSA,A,3,38,39,06,20,09,46,29,37,,,,,1.38,0.65,1.21,4*0E
$GPGSV,3,1,12,196,73,052,41,24,70,168,42,50,60,167,40,199,60,167,37,1*61
$GPGSV,3,2,12,18,54,303,25,15,52,015,42,195,45,177,45,05,35,092,41,1*59
$GPGSV,3,3,12,23,29,320,20,13,26,040,39,194,21,145,23,29,15,217,24,1*55
$GPGSV,2,1,06,196,73,052,45,24,70,168,47,199,60,167,45,18,54,303,26,8*63
$GPGSV,2,2,06,195,45,177,47,194,21,145,24,8*6C
$GLGSV,1,1,04,84,38,202,28,80,35,121,39,79,25,059,31,69,23,043,42,1*7F
$GAGSV,2,1,05,13,66,284,31,08,57,356,36,15,47,171,42,07,38,273,21,7*7B
$GAGSV,2,2,05,03,22,047,36,7*43
$GAGSV,2,1,05,13,66,284,31,08,57,356,38,15,47,171,43,07,38,273,22,1*71
$GAGSV,2,2,05,03,22,047,40,1*44
$GBGSV,2,1,08,38,75,039,37,39,72,234,38,06,61,220,43,20,48,028,45,1*78
$GBGSV,2,2,08,09,44,217,38,46,41,145,42,29,37,232,29,37,33,071,41,1*79
$GBGSV,2,1,06,38,75,039,41,39,72,234,40,20,48,028,43,46,41,145,38,4*71
$GBGSV,2,2,06,29,37,232,33,37,33,071,41,4*7E
$GNGGA,102627.000,2500.7938100,N,12132.4779300,E,2,43,0.65,22.73,M,15.25,M,27,3335*4F
$GNRMC,102627.000,A,2500.7938100,N,12132.4779300,E,0.03,154.17,260623,,,D,V*07
$GPHDT,,T*1B
$GNGGA,102627.200,2500.7938100,N,12132.4779300,E,2,43,0.65,22.73,M,15.25,M,27,3335*4D
$GNRMC,102627.200,A,2500.7938100,N,12132.4779300,E,0.01,154.17,260623,,,D,V*07
$GPHDT,,T*1B
$GNGGA,102627.400,2500.7938100,N,12132.4779300,E,2,43,0.65,22.73,M,15.25,M,27,3335*4B
$GNRMC,102627.400,A,2500.7938100,N,12132.4779300,E,0.03,154.17,260623,,,D,V*03
$GPHDT,,T*1B
$GNGGA,102627.600,2500.7938100,N,12132.4779300,E,2,43,0.65,22.73,M,15.25,M,27,3335*49
$GNRMC,102627.600,A,2500.7938100,N,12132.4779300,E,0.01,154.17,260623,,,D,V*03
$GPHDT,,T*1B
$GNGGA,102627.800,2500.7938100,N,12132.4779300,E,2,43,0.65,22.73,M,15.25,M,27,3335*47
$GNRMC,102627.800,A,2500.7938100,N,12132.4779300,E,0.06,154.17,260623,,,D,V*0A
$GPHDT,,T*1B
$GNGSA,A,3,196,24,199,18,15,195,05,13,194,,,,1.38,0.65,1.21,1*08
$GNGSA,A,3,84,80,79,69,,,,,,,,,1.38,0.65,1.21,2*0C
$GNGSA,A,3,13,08,15,07,03,,,,,,,,1.38,0.65,1.21,3*02
$GNGSA,A,3,38,39,06,20,09,46,29,37,,,,,1.38,0.65,1.21,4*0E
$GPGSV,3,1,12,196,73,052,41,24,70,168,43,50,60,167,39,199,60,167,36,1*6F
$GPGSV,3,2,12,18,54,303,23,15,52,015,43,195,45,177,45,05,35,092,41,1*5E
$GPGSV,3,3,12,23,29,320,23,13,26,040,39,194,21,145,24,29,15,217,25,1*50
$GPGSV,2,1,07,196,73,052,45,24,70,168,48,199,60,167,46,18,54,303,26,8*6E
$GPGSV,2,2,07,195,45,177,46,23,29,320,17,194,21,145,19,8*5F
$GLGSV,1,1,04,84,38,202,28,80,35,121,39,79,25,059,32,69,23,043,42,1*7C
$GAGSV,2,1,05,13,66,284,31,08,57,356,36,15,47,171,42,07,38,273,19,7*70
$GAGSV,2,2,05,03,22,047,36,7*43
$GAGSV,2,1,05,13,66,284,29,08,57,356,36,15,47,171,42,07,38,273,21,1*74
$GAGSV,2,2,05,03,22,047,40,1*44
$GBGSV,2,1,08,38,75,039,36,39,72,234,36,06,61,220,41,20,48,028,45,1*75
$GBGSV,2,2,08,09,44,217,37,46,41,145,42,29,37,232,22,37,33,071,41,1*7D
$GBGSV,2,1,06,38,75,039,40,39,72,234,36,20,48,028,43,46,41,145,39,4*70
$GBGSV,2,2,06,29,37,232,32,37,33,071,41,4*7F
$GNGGA,102628.000,2500.7938100,N,12132.4779300,E,2,43,0.65,22.73,M,15.25,M,28,3335*4F
$GNRMC,102628.000,A,2500.7938100,N,12132.4779300,E,0.02,154.17,260623,,,D,V*09
$GPHDT,,T*1B
$GNGGA,102628.200,2500.7938100,N,12132.4779400,E,2,43,0.65,22.73,M,15.25,M,28,3335*4A
$GNRMC,102628.200,A,2500.7938100,N,12132.4779400,E,0.05,154.17,260623,,,D,V*0B
