$FW : RTK35X,V1.1X0314AS,Lib20210517,1*54
$Tool : LOCOSYS , GNSS Firebird , v1.0.0.19*39
$---------------------------------------------------*2D
$GPHDT,,T*1B
$GNGGA,103046.800,2500.7904292,N,12132.4753597,E,2,33,0.87,16.023,M,15.25,M,1,3335*4D
$GNRMC,103046.800,A,2500.7904292,N,12132.4753597,E,0.17,333.36,260623,,,D,V*0D
$GPHDT,,T*1B
$GNGSA,A,3,196,24,199,15,195,05,13,,,,,,1.19,0.87,0.81,1*39
$GNGSA,A,3,79,69,,,,,,,,,,,1.19,0.87,0.81,2*0C
$GNGSA,A,3,08,15,03,,,,,,,,,,1.19,0.87,0.81,3*03
$GNGSA,A,3,38,39,16,06,20,09,46,29,37,,,,1.19,0.87,0.81,4*0D
$GPGSV,2,1,08,196,73,052,41,24,72,165,44,199,60,167,30,15,51,018,46,1*69
$GPGSV,2,2,08,45,47,231,33,195,44,178,36,05,34,094,41,13,25,041,41,1*57
$GPGSV,1,1,04,196,73,052,43,24,72,165,47,199,60,167,38,195,44,178,40,8*5A
$GLGSV,1,1,03,79,25,057,29,69,22,046,39,86,13,327,20,1*44
$GAGSV,1,1,03,08,56,359,34,15,45,172,33,03,21,048,31,7*4C
$GAGSV,1,1,03,08,56,359,33,15,45,172,41,03,21,048,38,1*41
$GBGSV,3,1,10,38,75,041,39,39,73,238,38,16,64,223,42,06,62,222,41,1*7A
$GBGSV,3,2,10,20,48,030,43,09,45,218,35,46,43,144,36,19,39,317,28,1*75
$GBGSV,3,3,10,29,36,231,35,37,33,069,30,1*77
$GBGSV,2,1,05,38,75,041,41,39,73,238,41,20,48,030,45,46,43,144,37,4*72
$GBGSV,2,2,05,29,36,231,35,4*4E
$GNGGA,103047.000,2500.7904352,N,12132.4753657,E,2,33,0.87,16.016,M,15.25,M,2,3335*43
$GNRMC,103047.000,A,2500.7904352,N,12132.4753657,E,0.09,333.36,260623,,,D,V*09
$GPHDT,,T*1B
$GNGGA,103047.200,2500.7904472,N,12132.4753717,E,2,33,0.87,16.003,M,15.25,M,2,3335*45
$GNRMC,103047.200,A,2500.7904472,N,12132.4753717,E,0.01,333.36,260623,,,D,V*03
$GPHDT,,T*1B
$GNGGA,103047.400,2500.7904532,N,12132.4753777,E,2,33,0.87,16.006,M,15.25,M,1,3335*46
$GNRMC,103047.400,A,2500.7904532,N,12132.4753777,E,0.06,333.36,260623,,,D,V*01
$GPHDT,,T*1B
$GNGGA,103047.600,2500.7904652,N,12132.4753837,E,2,32,0.89,15.980,M,15.25,M,1,3335*41
$GNRMC,103047.600,A,2500.7904652,N,12132.4753837,E,0.11,333.36,260623,,,D,V*0B
$GPHDT,,T*1B
$GNGGA,103047.800,2500.7904712,N,12132.4754017,E,2,32,0.89,15.957,M,15.25,M,1,3335*4D
$GNRMC,103047.800,A,2500.7904712,N,12132.4754017,E,0.16,333.36,260623,,,D,V*0A
$GPHDT,,T*1B
$GNGSA,A,3,196,24,199,15,195,05,13,,,,,,1.19,0.87,0.81,1*39
$GNGSA,A,3,79,69,,,,,,,,,,,1.19,0.87,0.81,2*0C
$GNGSA,A,3,08,15,03,,,,,,,,,,1.19,0.87,0.81,3*03
$GNGSA,A,3,38,39,16,06,20,09,46,29,37,,,,1.19,0.87,0.81,4*0D
$GPGSV,2,1,08,196,73,052,41,24,72,165,45,199,60,167,31,15,51,018,46,1*69
$GPGSV,2,2,08,45,47,231,35,195,44,178,35,05,34,094,45,13,25,041,42,1*55
$GPGSV,1,1,04,196,73,052,43,24,72,165,47,199,60,167,38,195,44,178,42,8*58
$GLGSV,1,1,03,79,25,057,25,69,22,046,40,86,13,327,19,1*4C
$GAGSV,1,1,03,08,56,359,34,15,45,172,32,03,21,048,31,7*4D
$GAGSV,1,1,03,08,56,359,36,15,45,172,41,03,21,048,38,1*44
$GBGSV,3,1,10,38,75,041,38,39,73,238,38,16,64,223,42,06,62,222,41,1*7B
$GBGSV,3,2,10,20,48,030,43,09,45,218,35,46,43,144,37,19,39,317,26,1*7A
$GBGSV,3,3,10,29,36,231,35,37,33,069,30,1*77
$GBGSV,2,1,06,38,75,041,41,39,73,238,41,20,48,030,45,46,43,144,31,4*77
$GBGSV,2,2,06,29,36,231,35,37,33,069,29,4*7D
$GNGGA,103048.000,2500.7904712,N,12132.4754137,E,2,34,0.87,15.940,M,15.25,M,2,3335*44
$GNRMC,103048.000,A,2500.7904712,N,12132.4754137,E,0.14,333.36,260623,,,D,V*0C
$GPHDT,,T*1B
$GNGGA,103048.200,2500.7904832,N,12132.4754197,E,2,33,0.87,15.966,M,15.25,M,2,3335*42
$GNRMC,103048.200,A,2500.7904832,N,12132.4754197,E,0.03,333.36,260623,,,D,V*0F
$GPHDT,,T*1B
$GNGGA,103048.400,2500.7904892,N,12132.4754197,E,2,33,0.87,15.953,M,15.25,M,2,3335*48
$GNRMC,103048.400,A,2500.7904892,N,12132.4754197,E,0.03,333.36,260623,,,D,V*03
$GPHDT,,T*1B
$GNGGA,103048.600,2500.7905012,N,12132.4754257,E,2,33,0.87,15.921,M,15.25,M,2,3335*41
$GNRMC,103048.600,A,2500.7905012,N,12132.4754257,E,0.09,333.36,260623,,,D,V*05
$GPHDT,,T*1B
$GNGGA,103048.800,2500.7905012,N,12132.4754377,E,2,33,0.87,15.907,M,15.25,M,2,3335*48
$GNRMC,103048.800,A,2500.7905012,N,12132.4754377,E,0.13,333.36,260623,,,D,V*03
$GPHDT,,T*1B
$GNGSA,A,3,196,24,199,15,195,05,13,,,,,,1.19,0.87,0.81,1*39
$GNGSA,A,3,79,69,,,,,,,,,,,1.19,0.87,0.81,2*0C
$GNGSA,A,3,08,15,03,,,,,,,,,,1.19,0.87,0.81,3*03
$GNGSA,A,3,38,39,16,06,20,09,46,29,37,,,,1.19,0.87,0.81,4*0D
$GPGSV,2,1,08,196,73,052,41,24,72,165,45,199,60,167,30,15,51,018,46,1*68
$GPGSV,2,2,08,45,47,231,35,195,44,178,36,05,34,094,44,13,25,041,42,1*57
$GPGSV,1,1,04,196,73,052,43,24,72,165,47,199,60,167,38,195,44,178,42,8*58
$GLGSV,1,1,03,79,25,057,21,69,22,046,38,86,13,327,19,1*47
$GAGSV,1,1,03,08,56,359,34,15,45,172,35,03,21,048,30,7*4B
$GAGSV,1,1,03,08,56,359,37,15,45,172,41,03,21,048,37,1*4A
$GBGSV,3,1,10,38,75,041,38,39,73,238,38,16,64,224,42,06,62,222,41,1*7C
$GBGSV,3,2,10,20,48,030,42,09,45,218,35,46,43,144,37,19,39,317,26,1*7B
$GBGSV,3,3,10,29,36,231,33,37,33,069,29,1*79
$GBGSV,2,1,06,38,75,041,41,39,73,238,41,20,48,030,44,46,43,144,34,4*73
$GBGSV,2,2,06,29,36,231,35,37,33,069,28,4*7C
$GNGGA,103049.000,2500.7905132,N,12132.4754497,E,2,34,0.87,15.916,M,15.25,M,3,3335*4D
$GNRMC,103049.000,A,2500.7905132,N,12132.4754497,E,0.01,333.36,260623,,,D,V*03
$GPHDT,,T*1B
$GNGGA,103049.200,2500.7905252,N,12132.4754497,E,2,33,0.87,15.905,M,15.25,M,3,3335*4F
$GNRMC,103049.200,A,2500.7905252,N,12132.4754497,E,0.11,333.36,260623,,,D,V*05
$GPHDT,,T*1B
$GNGGA,103049.400,2500.7905312,N,12132.4754557,E,2,33,0.87,15.897,M,15.25,M,3,3335*4B
$GNRMC,103049.400,A,2500.7905312,N,12132.4754557,E,0.00,333.36,260623,,,D,V*0B
$GPHDT,,T*1B
$GNGGA,103049.600,2500.7905372,N,12132.4754617,E,2,33,0.87,15.876,M,15.25,M,3,3335*47
$GNRMC,103049.600,A,2500.7905372,N,12132.4754617,E,0.08,333.36,260623,,,D,V*00
$GPHDT,,T*1B
$GNGGA,103049.800,2500.7905492,N,12132.4754677,E,2,33,0.87,15.862,M,15.25,M,3,3335*43
$GNRMC,103049.800,A,2500.7905492,N,12132.4754677,E,0.12,333.36,260623,,,D,V*0A
$GPHDT,,T*1B
$GNGSA,A,3,196,24,199,15,195,05,13,,,,,,1.19,0.87,0.81,1*39
$GNGSA,A,3,79,69,,,,,,,,,,,1.19,0.87,0.81,2*0C
$GNGSA,A,3,08,15,03,,,,,,,,,,1.19,0.87,0.81,3*03
$GNGSA,A,3,38,39,16,06,20,09,46,29,37,,,,1.19,0.87,0.81,4*0D
$GPGSV,2,1,08,196,73,052,41,24,72,165,46,199,60,167,32,15,51,018,46,1*69
$GPGSV,2,2,08,45,47,231,33,195,44,178,36,05,34,094,43,13,25,041,42,1*56
$GPGSV,1,1,04,196,73,052,43,24,72,165,47,199,60,167,38,195,44,178,42,8*58
$GLGSV,1,1,03,79,25,057,20,69,22,046,38,86,13,327,19,1*46
$GAGSV,1,1,03,08,56,359,34,15,45,172,34,03,21,048,29,7*42
$GAGSV,1,1,03,08,56,359,37,15,45,172,41,03,21,048,37,1*4A
$GBGSV,3,1,10,38,75,041,39,39,73,238,38,16,64,224,42,06,62,222,41,1*7D
$GBGSV,3,2,10,20,48,031,41,09,45,218,36,46,43,144,37,19,39,318,26,1*75
$GBGSV,3,3,10,29,36,231,33,37,33,069,,1*72
$GBGSV,2,1,06,38,75,041,41,39,73,238,41,20,48,031,43,46,43,144,34,4*75
$GBGSV,2,2,06,29,36,231,35,37,33,069,28,4*7C
$GNGGA,103050.000,2500.7905552,N,12132.4754737,E,2,33,0.87,15.859,M,15.25,M,4,3335*44
$GNRMC,103050.000,A,2500.7905552,N,12132.4754737,E,0.04,333.36,260623,,,D,V*05
$GPHDT,,T*1B
$GNGGA,103050.200,2500.7905612,N,12132.4754797,E,2,33,0.87,15.845,M,15.25,M,2,3335*40
$GNRMC,103050.200,A,2500.7905612,N,12132.4754797,E,0.03,333.36,260623,,,D,V*0D
$GPHDT,,T*1B
$GNGGA,103050.400,2500.7905672,N,12132.4754797,E,2,33,0.87,15.832,M,15.25,M,1,3335*43
$GNRMC,103050.400,A,2500.7905672,N,12132.4754797,E,0.07,333.36,260623,,,D,V*09
$GPHDT,,T*1B
$GNGGA,103050.600,2500.7905732,N,12132.4754857,E,2,33,0.87,15.825,M,15.25,M,0,3335*40
$GNRMC,103050.600,A,2500.7905732,N,12132.4754857,E,0.07,333.36,260623,,,D,V*0D
$GPHDT,,T*1B
$GNGGA,103050.800,2500.7905852,N,12132.4754857,E,2,33,0.88,15.799,M,15.25,M,0,3335*40
$GNRMC,103050.800,A,2500.7905852,N,12132.4754857,E,0.10,333.36,260623,,,D,V*0C
$GPHDT,,T*1B
$GNGSA,A,3,196,24,199,15,195,05,13,,,,,,1.19,0.87,0.81,1*39
$GNGSA,A,3,79,69,,,,,,,,,,,1.19,0.87,0.81,2*0C
$GNGSA,A,3,08,15,03,,,,,,,,,,1.19,0.87,0.81,3*03
$GNGSA,A,3,38,39,16,06,20,09,46,29,37,,,,1.19,0.87,0.81,4*0D
$GPGSV,2,1,08,196,73,052,41,24,72,165,45,199,60,167,33,15,51,018,46,1*6B
$GPGSV,2,2,08,45,47,231,34,195,44,178,36,05,34,094,45,13,25,041,42,1*57
$GPGSV,1,1,04,196,73,052,43,24,72,165,48,199,60,167,39,195,44,178,42,8*56
$GLGSV,1,1,03,79,25,057,24,69,22,046,40,86,13,327,18,1*4C
$GAGSV,1,1,03,08,56,359,34,15,45,172,35,03,21,048,29,7*43
$GAGSV,1,1,03,08,56,359,37,15,45,172,41,03,21,048,36,1*4B
$GBGSV,3,1,10,38,75,041,40,39,73,238,38,16,64,224,42,06,62,222,41,1*73
$GBGSV,3,2,10,20,48,031,40,09,45,218,38,46,43,144,35,19,39,318,26,1*78
$GBGSV,3,3,10,29,36,231,33,37,33,069,30,1*71
$GBGSV,2,1,06,38,75,041,41,39,73,238,41,20,48,031,43,46,43,144,32,4*73
$GBGSV,2,2,06,29,36,231,36,37,33,069,31,4*77
$GNGGA,103051.000,2500.7905912,N,12132.4754977,E,2,33,0.87,15.792,M,15.25,M,1,3335*4A
$GNRMC,103051.000,A,2500.7905912,N,12132.4754977,E,0.02,333.36,260623,,,D,V*00
$GPHDT,,T*1B
$GNGGA,103051.200,2500.7906032,N,12132.4755097,E,2,34,0.87,15.798,M,15.25,M,1,3335*4B
$GNRMC,103051.200,A,2500.7906032,N,12132.4755097,E,0.05,333.36,260623,,,D,V*0B
$GPHDT,,T*1B
$GNGGA,103051.400,2500.7906152,N,12132.4755217,E,2,34,0.87,15.797,M,15.25,M,1,3335*4F
$GNRMC,103051.400,A,2500.7906152,N,12132.4755217,E,0.04,333.36,260623,,,D,V*01
$GPHDT,,T*1B
$GNGGA,103051.600,2500.7906272,N,12132.4755457,E,2,34,0.92,15.782,M,15.25,M,1,3335*4E
$GNRMC,103051.600,A,2500.7906272,N,12132.4755457,E,0.06,333.36,260623,,,D,V*02
$GPHDT,,T*1B
$GNGGA,103051.800,2500.7906452,N,12132.4755457,E,2,34,0.92,15.755,M,15.25,M,1,3335*4E
$GNRMC,103051.800,A,2500.7906452,N,12132.4755457,E,0.06,333.36,260623,,,D,V*08
$GPHDT,,T*1B
$GNGSA,A,3,196,24,199,15,195,05,13,,,,,,1.66,0.92,1.38,1*36
$GNGSA,A,3,79,69,,,,,,,,,,,1.66,0.92,1.38,2*03
$GNGSA,A,3,08,15,03,,,,,,,,,,1.66,0.92,1.38,3*0C
$GNGSA,A,3,38,39,16,06,20,09,46,29,37,,,,1.66,0.92,1.38,4*02
$GPGSV,2,1,08,196,73,052,41,24,72,165,45,199,60,167,33,15,51,018,46,1*6B
$GPGSV,2,2,08,45,47,231,32,195,44,178,36,05,34,094,43,13,25,041,42,1*57
$GPGSV,1,1,04,196,73,052,43,24,72,165,48,199,60,167,39,195,44,178,42,8*56
$GLGSV,1,1,04,85,46,287,,79,25,057,24,69,22,046,39,86,13,327,19,1*76
$GAGSV,1,1,03,08,56,359,33,15,45,172,35,03,21,048,28,7*45
$GAGSV,1,1,03,08,56,359,38,15,45,172,41,03,21,048,35,1*47
$GBGSV,3,1,11,38,75,041,40,39,73,238,37,16,64,224,42,06,62,222,41,1*7D
$GBGSV,3,2,11,13,58,343,,20,48,031,40,09,45,218,38,46,43,144,37,1*7C
$GBGSV,3,3,11,19,39,318,25,29,36,230,33,37,33,069,32,1*4C
$GBGSV,2,1,06,38,75,041,41,39,73,238,41,20,48,031,43,46,43,144,38,4*79
$GBGSV,2,2,06,29,36,230,35,37,33,069,34,4*70
$GNGGA,103052.000,2500.7906512,N,12132.4755577,E,2,34,0.92,15.747,M,15.25,M,2,3335*43
$GNRMC,103052.000,A,2500.7906512,N,12132.4755577,E,0.00,333.36,260623,,,D,V*03
$GPHDT,,T*1B
$GNGGA,103052.200,2500.7906572,N,12132.4755697,E,2,34,0.92,15.757,M,15.25,M,2,3335*4B
$GNRMC,103052.200,A,2500.7906572,N,12132.4755697,E,0.01,333.36,260623,,,D,V*0B
$GPHDT,,T*1B
$GNGGA,103052.400,2500.7906692,N,12132.4755757,E,2,34,0.92,15.744,M,15.25,M,2,3335*4F
$GNRMC,103052.400,A,2500.7906692,N,12132.4755757,E,0.01,333.36,260623,,,D,V*0D
$GPHDT,,T*1B
$GNGGA,103052.600,2500.7906752,N,12132.4755877,E,2,34,0.92,15.733,M,15.25,M,2,3335*4D
$GNRMC,103052.600,A,2500.7906752,N,12132.4755877,E,0.03,333.36,260623,,,D,V*0D
$GPHDT,,T*1B
$GNGGA,103052.800,2500.7906812,N,12132.4755877,E,2,34,0.92,15.695,M,15.25,M,2,3335*45
$GNRMC,103052.800,A,2500.7906812,N,12132.4755877,E,0.01,333.36,260623,,,D,V*0A
$GPHDT,,T*1B
$GNGSA,A,3,196,24,199,15,195,05,13,,,,,,1.66,0.92,1.38,1*36
$GNGSA,A,3,79,69,,,,,,,,,,,1.66,0.92,1.38,2*03
$GNGSA,A,3,08,15,03,,,,,,,,,,1.66,0.92,1.38,3*0C
$GNGSA,A,3,38,39,16,06,20,09,46,29,37,,,,1.66,0.92,1.38,4*02
$GPGSV,2,1,08,196,73,052,41,24,72,165,45,199,60,167,33,15,51,018,46,1*6B
$GPGSV,2,2,08,45,47,231,31,195,44,178,36,05,34,094,45,13,25,041,42,1*52
$GPGSV,1,1,04,196,73,052,43,24,72,165,48,199,60,167,39,195,44,178,42,8*56
$GLGSV,1,1,03,79,25,057,23,69,22,046,38,86,13,327,20,1*4F
$GAGSV,1,1,04,08,56,359,34,15,45,172,34,03,21,048,28,02,17,107,,7*76
$GAGSV,1,1,03,08,56,359,38,15,45,172,41,03,21,048,35,1*47
$GBGSV,3,1,10,38,76,041,40,39,73,238,37,16,64,224,42,06,62,222,41,1*7F
$GBGSV,3,2,10,20,48,031,40,09,45,218,38,46,43,144,35,19,39,318,24,1*7A
$GBGSV,3,3,10,29,36,230,34,37,33,069,31,1*76
$GBGSV,2,1,07,38,76,041,41,39,73,238,41,20,48,031,43,46,43,144,38,4*7B
$GBGSV,2,2,07,19,39,318,21,29,36,230,35,37,33,069,27,4*48
$GNGGA,103053.000,2500.7906872,N,12132.4755877,E,2,34,0.92,15.700,M,15.25,M,3,3335*46
$GNRMC,103053.000,A,2500.7906872,N,12132.4755877,E,0.01,333.36,260623,,,D,V*05
$GPHDT,,T*1B
$GNGGA,103053.200,2500.7906932,N,12132.4755937,E,2,34,0.92,15.712,M,15.25,M,3,3335*47
$GNRMC,103053.200,A,2500.7906932,N,12132.4755937,E,0.01,333.36,260623,,,D,V*07
$GPHDT,,T*1B
$GNGGA,103053.400,2500.7906932,N,12132.4755937,E,2,34,0.92,15.690,M,15.25,M,3,3335*4A
$GNRMC,103053.400,A,2500.7906932,N,12132.4755937,E,0.00,333.36,260623,,,D,V*00
$GPHDT,,T*1B
$GNGGA,103053.600,2500.7906992,N,12132.4755937,E,2,34,0.92,15.660,M,15.25,M,3,3335*4D
$GNRMC,103053.600,A,2500.7906992,N,12132.4755937,E,0.01,333.36,260623,,,D,V*09
$GPHDT,,T*1B
$GNGGA,103053.800,2500.7907112,N,12132.4755997,E,2,34,0.92,15.638,M,15.25,M,3,3335*45
$GNRMC,103053.800,A,2500.7907112,N,12132.4755997,E,0.03,333.36,260623,,,D,V*0E
$GPHDT,,T*1B
$GNGSA,A,3,196,24,199,15,195,05,13,,,,,,1.66,0.92,1.38,1*36
$GNGSA,A,3,79,69,,,,,,,,,,,1.66,0.92,1.38,2*03
$GNGSA,A,3,08,15,03,,,,,,,,,,1.66,0.92,1.38,3*0C
$GNGSA,A,3,38,39,16,06,20,09,46,29,37,,,,1.66,0.92,1.38,4*02
$GPGSV,2,1,08,196,73,052,41,24,72,165,45,199,60,167,33,15,51,018,46,1*6B
$GPGSV,2,2,08,45,47,231,31,195,44,178,37,05,34,094,45,13,25,041,42,1*53
$GPGSV,1,1,04,196,73,052,43,24,72,165,48,199,60,167,39,195,44,178,42,8*56
$GLGSV,1,1,03,79,25,057,23,69,22,046,38,86,13,327,20,1*4F
$GAGSV,1,1,04,08,56,359,35,15,45,172,34,03,21,048,28,02,17,107,,7*77
$GAGSV,1,1,03,08,56,359,38,15,45,172,41,03,21,048,35,1*47
$GBGSV,3,1,11,38,76,041,40,39,73,238,37,16,64,224,41,06,62,222,41,1*7D
$GBGSV,3,2,11,20,48,031,41,09,45,218,38,46,43,144,35,19,39,318,23,1*7D
$GBGSV,3,3,11,29,36,230,36,37,33,069,34,10,05,208,,1*4E
$GBGSV,2,1,07,38,76,041,41,39,73,238,41,20,48,031,43,46,43,144,38,4*7B
$GBGSV,2,2,07,19,39,318,19,29,36,230,35,37,33,069,28,4*4C
$GNGGA,103054.000,2500.7907112,N,12132.4756057,E,2,34,0.92,15.638,M,15.25,M,4,3335*4B
$GNRMC,103054.000,A,2500.7907112,N,12132.4756057,E,0.00,333.36,260623,,,D,V*04
$GPHDT,,T*1B
$GNGGA,103054.200,2500.7907232,N,12132.4756117,E,2,34,0.92,15.626,M,15.25,M,4,3335*42
$GNRMC,103054.200,A,2500.7907232,N,12132.4756117,E,0.01,333.36,260623,,,D,V*03
$GPHDT,,T*1B
$GNGGA,103054.400,2500.7907292,N,12132.4756117,E,2,34,0.92,15.629,M,15.25,M,4,3335*41
$GNRMC,103054.400,A,2500.7907292,N,12132.4756117,E,0.01,333.36,260623,,,D,V*0F
$GPHDT,,T*1B
$GNGGA,103054.600,2500.7907352,N,12132.4756177,E,2,34,0.92,15.602,M,15.25,M,4,3335*41
$GNRMC,103054.600,A,2500.7907352,N,12132.4756177,E,0.02,333.36,260623,,,D,V*05
$GPHDT,,T*1B
$GNGGA,103054.800,2500.7907412,N,12132.4756237,E,2,34,0.92,15.600,M,15.25,M,4,3335*49
$GNRMC,103054.800,A,2500.7907412,N,12132.4756237,E,0.00,333.36,260623,,,D,V*0D
$GPHDT,,T*1B
$GNGSA,A,3,196,24,199,15,195,05,13,,,,,,1.66,0.92,1.38,1*36
$GNGSA,A,3,79,69,,,,,,,,,,,1.66,0.92,1.38,2*03
$GNGSA,A,3,08,15,03,,,,,,,,,,1.66,0.92,1.38,3*0C
$GNGSA,A,3,38,39,16,06,20,09,46,29,37,,,,1.66,0.92,1.38,4*02
$GPGSV,2,1,08,196,73,052,41,24,72,165,45,199,60,167,33,15,51,018,46,1*6B
$GPGSV,2,2,08,45,47,231,31,195,44,178,37,05,34,094,45,13,25,041,42,1*53
$GPGSV,1,1,04,196,73,052,43,24,72,165,48,199,60,167,39,195,44,178,42,8*56
$GLGSV,1,1,03,79,25,057,23,69,22,046,38,86,13,327,20,1*4F
$GAGSV,1,1,04,08,56,359,35,15,45,172,34,03,21,048,29,02,17,107,,7*76
$GAGSV,1,1,03,08,56,359,38,15,45,172,41,03,21,048,35,1*47
$GBGSV,4,1,13,38,76,041,40,39,73,238,37,16,64,224,41,06,62,222,41,1*78
$GBGSV,4,2,13,20,48,031,41,09,45,218,38,46,43,144,36,19,39,318,22,1*7A
$GBGSV,4,3,13,29,36,230,35,37,33,069,30,30,11,179,,40,01,190,,1*73
$GBGSV,4,4,13,22,01,283,,1*4C
$GBGSV,2,1,07,38,76,041,41,39,73,238,41,20,48,031,43,46,43,144,37,4*74
$GBGSV,2,2,07,19,39,318,20,29,36,230,35,37,33,069,29,4*47
$GNGGA,103055.000,2500.7907472,N,12132.4756297,E,2,34,0.92,15.611,M,15.25,M,5,3335*4D
$GNRMC,103055.000,A,2500.7907472,N,12132.4756297,E,0.00,333.36,260623,,,D,V*08
$GPHDT,,T*1B
$GNGGA,103055.200,2500.7907532,N,12132.4756297,E,2,34,0.92,15.611,M,15.25,M,5,3335*4A
$GNRMC,103055.200,A,2500.7907532,N,12132.4756297,E,0.00,333.36,260623,,,D,V*0F
$GPHDT,,T*1B
$GNGGA,103055.400,2500.7907532,N,12132.4756357,E,2,34,0.92,15.612,M,15.25,M,5,3335*42
$GNRMC,103055.400,A,2500.7907532,N,12132.4756357,E,0.00,333.36,260623,,,D,V*04
$GPHDT,,T*1B
$GNGGA,103055.600,2500.7907592,N,12132.4756417,E,2,34,0.92,15.611,M,15.25,M,5,3335*4A
$GNRMC,103055.600,A,2500.7907592,N,12132.4756417,E,0.00,333.36,260623,,,D,V*0F
$GPHDT,,T*1B
$GNGGA,103055.800,2500.7907592,N,12132.4756417,E,2,34,0.92,15.605,M,15.25,M,5,3335*41
$GNRMC,103055.800,A,2500.7907592,N,12132.4756417,E,0.02,333.36,260623,,,D,V*03
$GPHDT,,T*1B
$GNGSA,A,3,196,24,199,15,195,05,13,,,,,,1.66,0.92,1.38,1*36
$GNGSA,A,3,79,69,,,,,,,,,,,1.66,0.92,1.38,2*03
$GNGSA,A,3,08,15,03,,,,,,,,,,1.66,0.92,1.38,3*0C
$GNGSA,A,3,38,39,16,06,20,09,46,29,37,,,,1.66,0.92,1.38,4*02
$GPGSV,2,1,08,196,73,052,41,24,72,165,45,199,60,167,33,15,51,018,46,1*6B
$GPGSV,2,2,08,45,47,231,30,195,44,178,36,05,34,094,45,13,25,041,42,1*53
$GPGSV,1,1,04,196,73,052,43,24,72,165,48,199,60,167,39,195,44,178,43,8*57
$GLGSV,1,1,03,79,25,057,23,69,22,046,39,86,13,327,19,1*44
$GAGSV,1,1,04,08,56,359,35,15,45,172,34,03,21,048,28,02,17,107,,7*77
$GAGSV,1,1,03,08,56,359,38,15,45,172,41,03,21,048,36,1*44
$GBGSV,3,1,12,38,76,041,39,39,73,238,37,16,64,224,41,06,62,222,41,1*70
$GBGSV,3,2,12,20,48,031,42,09,45,218,38,46,43,144,36,19,39,318,21,1*7C
$GBGSV,3,3,12,29,36,230,35,37,33,069,28,35,23,293,,32,12,079,,1*7E
$GBGSV,2,1,07,38,76,041,41,39,73,238,41,20,48,031,43,46,43,144,37,4*74
$GBGSV,2,2,07,19,39,318,20,29,36,230,35,37,33,069,30,4*4F
$GNGGA,103056.000,2500.7907652,N,12132.4756417,E,2,34,0.92,15.604,M,15.25,M,6,3335*47
$GNRMC,103056.000,A,2500.7907652,N,12132.4756417,E,0.00,333.36,260623,,,D,V*05
$GPHDT,,T*1B
$GNGGA,103056.200,2500.7907712,N,12132.4756537,E,2,34,0.92,15.600,M,15.25,M,6,3335*47
$GNRMC,103056.200,A,2500.7907712,N,12132.4756537,E,0.01,333.36,260623,,,D,V*00
$GPHDT,,T*1B
$GNGGA,103056.400,2500.7907772,N,12132.4756537,E,2,34,0.92,15.595,M,15.25,M,5,3335*4B
$GNRMC,103056.400,A,2500.7907772,N,12132.4756537,E,0.00,333.36,260623,,,D,V*01
$GPHDT,,T*1B
$GNGGA,103056.600,2500.7907832,N,12132.4756597,E,2,34,0.92,15.571,M,15.25,M,5,3335*42
$GNRMC,103056.600,A,2500.7907832,N,12132.4756597,E,0.02,333.36,260623,,,D,V*00
$GPHDT,,T*1B
$GNGGA,103056.800,2500.7907952,N,12132.4756657,E,2,34,0.92,15.539,M,15.25,M,1,3335*4C
$GNRMC,103056.800,A,2500.7907952,N,12132.4756657,E,0.03,333.36,260623,,,D,V*07
$GPHDT,,T*1B
$GNGSA,A,3,196,24,199,15,195,05,13,,,,,,1.66,0.92,1.38,1*36
$GNGSA,A,3,79,69,,,,,,,,,,,1.66,0.92,1.38,2*03
$GNGSA,A,3,08,15,03,,,,,,,,,,1.66,0.92,1.38,3*0C
$GNGSA,A,3,38,39,16,06,20,09,46,29,37,,,,1.66,0.92,1.38,4*02
$GPGSV,2,1,08,196,73,052,42,24,72,165,45,199,60,167,34,15,51,018,46,1*6F
$GPGSV,2,2,08,45,47,231,32,195,44,178,36,05,34,094,46,13,25,041,40,1*50
$GPGSV,1,1,04,196,73,052,43,24,72,165,48,199,60,167,39,195,44,178,43,8*57
$GLGSV,1,1,03,79,25,057,26,69,22,046,40,86,13,327,18,1*4E
$GAGSV,1,1,04,08,56,359,35,15,45,172,34,03,21,048,28,02,17,107,,7*77
$GAGSV,1,1,03,08,56,359,38,15,45,172,41,03,21,048,37,1*45
$GBGSV,3,1,10,38,76,041,40,39,73,238,39,16,64,224,41,06,62,222,41,1*72
$GBGSV,3,2,10,20,48,031,43,09,45,218,38,46,43,144,35,19,39,318,24,1*79
$GBGSV,3,3,10,29,36,230,35,37,33,069,31,1*77
$GBGSV,2,1,07,38,76,041,42,39,73,238,40,20,48,031,44,46,43,144,38,4*7E
$GBGSV,2,2,07,19,39,318,17,29,36,230,35,37,33,069,31,4*4A
$GNGGA,103057.000,2500.7907952,N,12132.4756717,E,2,34,0.92,15.532,M,15.25,M,1,3335*4B
$GNRMC,103057.000,A,2500.7907952,N,12132.4756717,E,0.00,333.36,260623,,,D,V*08
$GPHDT,,T*1B
$GNGGA,103057.200,2500.7908012,N,12132.4756777,E,2,34,0.92,15.529,M,15.25,M,1,3335*47
$GNRMC,103057.200,A,2500.7908012,N,12132.4756777,E,0.01,333.36,260623,,,D,V*0F
$GPHDT,,T*1B
$GNGGA,103057.400,2500.7908072,N,12132.4756837,E,2,34,0.92,15.525,M,15.25,M,1,3335*40
$GNRMC,103057.400,A,2500.7908072,N,12132.4756837,E,0.00,333.36,260623,,,D,V*05
$GPHDT,,T*1B
$GNGGA,103057.600,2500.7908132,N,12132.4756897,E,2,34,0.92,15.521,M,15.25,M,0,3335*48
$GNRMC,103057.600,A,2500.7908132,N,12132.4756897,E,0.00,333.36,260623,,,D,V*08
$GPHDT,,T*1B
$GNGGA,103057.800,2500.7908252,N,12132.4757017,E,2,34,0.92,15.519,M,15.25,M,0,3335*49
$GNRMC,103057.800,A,2500.7908252,N,12132.4757017,E,0.00,333.36,260623,,,D,V*02
$GPHDT,,T*1B
$GNGSA,A,3,196,24,199,15,195,05,13,,,,,,1.66,0.92,1.38,1*36
$GNGSA,A,3,79,69,,,,,,,,,,,1.66,0.92,1.38,2*03
$GNGSA,A,3,08,15,03,,,,,,,,,,1.66,0.92,1.38,3*0C
$GNGSA,A,3,38,39,16,06,20,09,46,29,37,,,,1.66,0.92,1.38,4*02
$GPGSV,2,1,08,196,73,052,43,24,72,165,45,199,60,167,34,15,51,018,46,1*6E
$GPGSV,2,2,08,45,47,231,33,195,44,178,38,05,34,094,44,13,25,041,41,1*5C
$GPGSV,1,1,04,196,73,052,44,24,72,165,48,1