$FW : RTK35X,V1.1X0314AS,Lib20210517,1*54
$Tool : LOCOSYS , GNSS Firebird , v1.0.0.19*39
$---------------------------------------------------*2D
$GPHDT,,T*1B
$GNGGA,102649.800,2500.7937500,N,12132.4781700,E,2,42,0.62,22.85,M,15.25,M,2,3335*7F
$GNRMC,102649.800,A,2500.7937500,N,12132.4781700,E,0.15,346.88,260623,,,D,V*0F
$GPHDT,,T*1B
$GNGSA,A,3,196,24,199,18,15,195,05,13,194,,,,0.99,0.62,0.77,1*07
$GNGSA,A,3,84,80,79,69,,,,,,,,,0.99,0.62,0.77,2*03
$GNGSA,A,3,13,08,15,07,03,,,,,,,,0.99,0.62,0.77,3*0D
$GNGSA,A,3,38,39,06,20,09,46,29,37,,,,,0.99,0.62,0.77,4*01
$GPGSV,3,1,12,196,73,052,41,24,70,168,40,50,60,167,39,199,60,167,36,1*6C
$GPGSV,3,2,12,18,54,303,31,15,52,015,38,195,45,178,43,05,35,092,42,1*5B
$GPGSV,3,3,12,23,29,320,18,13,26,040,40,194,22,145,21,29,15,216,23,1*57
$GPGSV,2,1,06,196,73,052,45,24,70,168,47,199,60,167,44,18,54,303,27,8*63
$GPGSV,2,2,06,195,45,178,46,194,22,145,25,8*60
$GLGSV,2,1,05,84,38,201,27,80,35,121,41,79,25,059,17,69,23,043,41,1*79
$GLGSV,2,2,05,71,11,284,,1*45
$GAGSV,2,1,07,13,66,284,26,08,57,356,35,15,46,171,43,07,38,274,18,7*71
$GAGSV,2,2,07,03,22,047,37,26,17,322,,25,05,062,,7*47
$GAGSV,2,1,05,13,66,284,33,08,57,356,34,15,46,171,39,07,38,274,18,1*7D
$GAGSV,2,2,05,03,22,047,35,1*46
$GBGSV,2,1,08,38,75,039,38,39,72,234,32,06,61,220,38,20,48,028,44,1*70
$GBGSV,2,2,08,09,44,217,33,46,41,145,44,29,37,232,29,37,33,071,38,1*7A
$GBGSV,2,1,05,38,75,039,41,39,72,234,38,20,48,028,43,46,41,145,34,4*71
$GBGSV,2,2,05,37,33,071,42,4*42
$GNGGA,102650.000,2500.7937500,N,12132.4781600,E,2,42,0.62,22.84,M,15.25,M,1,3335*7C
$GNRMC,102650.000,A,2500.7937500,N,12132.4781600,E,0.16,346.88,260623,,,D,V*0D
$GPHDT,,T*1B
$GNGGA,102650.200,2500.7937500,N,12132.4781600,E,2,42,0.62,22.84,M,15.25,M,1,3335*7E
$GNRMC,102650.200,A,2500.7937500,N,12132.4781600,E,0.14,346.88,260623,,,D,V*0D
$GPHDT,,T*1B
$GNGGA,102650.400,2500.7937500,N,12132.4781500,E,2,42,0.62,22.84,M,15.25,M,1,3335*7B
$GNRMC,102650.400,A,2500.7937500,N,12132.4781500,E,0.09,346.88,260623,,,D,V*04
$GPHDT,,T*1B
$GNGGA,102650.600,2500.7937500,N,12132.4781400,E,2,42,0.62,22.83,M,15.25,M,1,3335*7F
$GNRMC,102650.600,A,2500.7937500,N,12132.4781400,E,0.10,346.88,260623,,,D,V*0F
$GPHDT,,T*1B
$GNGGA,102650.800,2500.7937500,N,12132.4781500,E,2,42,0.62,22.84,M,15.25,M,0,3335*76
$GNRMC,102650.800,A,2500.7937500,N,12132.4781500,E,0.18,346.88,260623,,,D,V*08
$GPHDT,,T*1B
$GNGSA,A,3,196,24,199,18,15,195,05,13,194,,,,0.99,0.62,0.77,1*07
$GNGSA,A,3,84,80,79,69,,,,,,,,,0.99,0.62,0.77,2*03
$GNGSA,A,3,13,08,15,07,03,,,,,,,,0.99,0.62,0.77,3*0D
$GNGSA,A,3,38,39,06,20,09,46,29,37,,,,,0.99,0.62,0.77,4*01
$GPGSV,3,1,12,196,73,052,41,24,70,168,41,50,60,167,39,199,60,167,37,1*6C
$GPGSV,3,2,12,18,54,303,31,15,52,015,40,195,45,178,43,05,35,092,42,1*54
$GPGSV,3,3,12,23,29,320,18,13,26,040,39,194,22,145,21,29,15,216,23,1*59
$GPGSV,2,1,06,196,73,052,45,24,70,168,47,199,60,167,44,18,54,303,25,8*61
$GPGSV,2,2,06,195,45,178,45,194,22,145,24,8*62
$GLGSV,1,1,04,84,38,201,27,80,35,121,41,79,25,059,19,69,23,043,41,1*75
$GAGSV,2,1,07,13,66,284,26,08,57,356,35,15,46,171,43,07,38,274,18,7*71
$GAGSV,2,2,07,03,22,047,37,26,17,322,,25,05,062,,7*47
$GAGSV,2,1,05,13,66,284,32,08,57,356,34,15,46,171,37,07,38,274,18,1*72
$GAGSV,2,2,05,03,22,047,35,1*46
$GBGSV,2,1,08,38,75,039,38,39,72,234,32,06,61,220,38,20,48,028,44,1*70
$GBGSV,2,2,08,09,44,217,33,46,41,145,44,29,37,232,29,37,33,071,39,1*7B
$GBGSV,2,1,05,38,75,039,41,39,72,234,39,20,48,028,43,46,41,145,33,4*77
$GBGSV,2,2,05,37,33,071,42,4*42
$GNGGA,102651.000,2500.7937500,N,12132.4781600,E,2,42,0.62,22.84,M,15.25,M,1,3335*7D
$GNRMC,102651.000,A,2500.7937500,N,12132.4781600,E,0.15,346.88,260623,,,D,V*0F
$GPHDT,,T*1B
$GNGGA,102651.200,2500.7937500,N,12132.4781600,E,2,41,0.62,22.85,M,15.25,M,1,3335*7D
$GNRMC,102651.200,A,2500.7937500,N,12132.4781600,E,0.12,346.88,260623,,,D,V*0A
$GPHDT,,T*1B
$GNGGA,102651.400,2500.7937500,N,12132.4781600,E,2,43,0.62,22.85,M,15.25,M,1,3335*79
$GNRMC,102651.400,A,2500.7937500,N,12132.4781600,E,0.02,346.88,260623,,,D,V*0D
$GPHDT,,T*1B
$GNGGA,102651.600,2500.7937500,N,12132.4781600,E,2,43,0.62,22.85,M,15.25,M,1,3335*7B
$GNRMC,102651.600,A,2500.7937500,N,12132.4781600,E,0.01,346.88,260623,,,D,V*0C
$GPHDT,,T*1B
$GNGGA,102651.800,2500.7937500,N,12132.4781600,E,2,43,0.62,22.85,M,15.25,M,1,3335*75
$GNRMC,102651.800,A,2500.7937500,N,12132.4781600,E,0.10,346.88,260623,,,D,V*02
$GPHDT,,T*1B
$GNGSA,A,3,196,24,199,18,15,195,05,13,194,,,,0.99,0.62,0.77,1*07
$GNGSA,A,3,84,80,79,69,,,,,,,,,0.99,0.62,0.77,2*03
$GNGSA,A,3,13,08,15,07,03,,,,,,,,0.99,0.62,0.77,3*0D
$GNGSA,A,3,38,39,06,20,09,46,29,37,,,,,0.99,0.62,0.77,4*01
$GPGSV,3,1,12,196,73,052,41,24,70,168,41,50,60,167,39,199,60,167,37,1*6C
$GPGSV,3,2,12,18,54,303,31,15,52,015,39,195,45,178,44,05,35,092,42,1*5D
$GPGSV,3,3,12,23,29,320,18,13,26,040,39,194,22,145,21,29,15,216,23,1*59
$GPGSV,2,1,06,196,73,052,45,24,70,168,47,199,60,167,43,18,54,303,26,8*65
$GPGSV,2,2,06,195,45,178,44,194,22,145,24,8*63
$GLGSV,1,1,04,84,38,201,28,80,35,121,41,79,25,059,18,69,23,043,41,1*7B
$GAGSV,2,1,06,13,66,284,26,08,57,356,35,15,46,171,43,07,38,274,19,7*71
$GAGSV,2,2,06,03,22,047,38,26,17,322,,7*7F
$GAGSV,2,1,05,13,66,284,33,08,57,356,34,15,46,171,38,07,38,274,19,1*7D
$GAGSV,2,2,05,03,22,047,36,1*45
$GBGSV,3,1,09,38,75,039,38,39,72,235,34,06,61,220,39,20,48,028,44,1*76
$GBGSV,3,2,09,09,44,217,32,46,41,145,44,29,37,232,27,37,33,071,40,1*7A
$GBGSV,3,3,09,30,12,179,,1*40
$GBGSV,2,1,06,38,75,039,41,39,72,235,39,20,48,028,43,46,41,145,34,4*72
$GBGSV,2,2,06,29,37,232,23,37,33,071,41,4*7F
$GNGGA,102652.000,2500.7937500,N,12132.4781700,E,2,43,0.62,22.86,M,15.25,M,2,3335*7F
$GNRMC,102652.000,A,2500.7937500,N,12132.4781700,E,0.07,346.88,260623,,,D,V*0E
$GPHDT,,T*1B
$GNGGA,102652.200,2500.7937500,N,12132.4781700,E,2,43,0.62,22.86,M,15.25,M,2,3335*7D
$GNRMC,102652.200,A,2500.7937500,N,12132.4781700,E,0.03,346.88,260623,,,D,V*08
$GPHDT,,T*1B
$GNGGA,102652.400,2500.7937500,N,12132.4781700,E,2,43,0.62,22.86,M,15.25,M,2,3335*7B
$GNRMC,102652.400,A,2500.7937500,N,12132.4781700,E,0.04,346.88,260623,,,D,V*09
$GPHDT,,T*1B
$GNGGA,102652.600,2500.7937500,N,12132.4781700,E,2,43,0.62,22.86,M,15.25,M,2,3335*79
$GNRMC,102652.600,A,2500.7937500,N,12132.4781700,E,0.04,346.88,260623,,,D,V*0B
$GPHDT,,T*1B
$GNGGA,102652.800,2500.7937500,N,12132.4781700,E,2,43,0.62,22.86,M,15.25,M,2,3335*77
$GNRMC,102652.800,A,2500.7937500,N,12132.4781700,E,0.02,346.88,260623,,,D,V*03
$GPHDT,,T*1B
$GNGSA,A,3,196,24,199,18,15,195,05,13,194,,,,0.99,0.62,0.77,1*07
$GNGSA,A,3,84,80,79,69,,,,,,,,,0.99,0.62,0.77,2*03
$GNGSA,A,3,13,08,15,07,03,,,,,,,,0.99,0.62,0.77,3*0D
$GNGSA,A,3,38,39,06,20,09,46,29,37,,,,,0.99,0.62,0.77,4*01
$GPGSV,3,1,12,196,73,052,41,24,70,168,41,50,60,167,39,199,60,167,36,1*6D
$GPGSV,3,2,12,18,54,303,31,15,52,015,39,195,45,178,44,05,35,092,43,1*5C
$GPGSV,3,3,12,23,29,320,19,13,26,040,39,194,22,145,22,29,15,216,23,1*5B
$GPGSV,2,1,06,196,73,052,45,24,70,168,47,199,60,167,43,18,54,303,25,8*66
$GPGSV,2,2,06,195,45,178,43,194,22,145,24,8*64
$GLGSV,1,1,04,84,38,201,28,80,35,121,41,79,25,059,19,69,23,043,41,1*7A
$GAGSV,2,1,06,13,66,284,25,08,57,356,35,15,46,171,43,07,38,274,18,7*73
$GAGSV,2,2,06,03,22,047,38,26,17,322,,7*7F
$GAGSV,2,1,05,13,66,284,33,08,57,356,34,15,46,171,39,07,38,274,18,1*7D
$GAGSV,2,2,05,03,22,047,34,1*47
$GBGSV,3,1,09,38,75,039,37,39,72,235,35,06,61,220,39,20,48,028,44,1*78
$GBGSV,3,2,09,09,44,217,33,46,41,145,44,29,37,232,29,37,33,071,38,1*7A
$GBGSV,3,3,09,35,23,295,,1*46
$GBGSV,2,1,06,38,75,039,41,39,72,235,39,20,48,028,43,46,41,145,37,4*71
$GBGSV,2,2,06,29,37,232,23,37,33,071,41,4*7F
$GNGGA,102653.000,2500.7937500,N,12132.4781700,E,2,43,0.62,22.86,M,15.25,M,3,3335*7F
$GNRMC,102653.000,A,2500.7937500,N,12132.4781700,E,0.01,346.88,260623,,,D,V*09
$GPHDT,,T*1B
$GNGGA,102653.200,2500.7937500,N,12132.4781700,E,2,43,0.62,22.86,M,15.25,M,3,3335*7D
$GNRMC,102653.200,A,2500.7937500,N,12132.4781700,E,0.03,346.88,260623,,,D,V*09
$GPHDT,,T*1B
$GNGGA,102653.400,2500.7937500,N,12132.4781700,E,2,43,0.62,22.86,M,15.25,M,3,3335*7B
$GNRMC,102653.400,A,2500.7937500,N,12132.4781700,E,0.02,346.88,260623,,,D,V*0E
$GPHDT,,T*1B
$GNGGA,102653.600,2500.7937500,N,12132.4781700,E,2,43,0.62,22.86,M,15.25,M,3,3335*79
$GNRMC,102653.600,A,2500.7937500,N,12132.4781700,E,0.02,346.88,260623,,,D,V*0C
$GPHDT,,T*1B
$GNGGA,102653.800,2500.7937500,N,12132.4781700,E,2,43,0.62,22.86,M,15.25,M,3,3335*77
$GNRMC,102653.800,A,2500.7937500,N,12132.4781700,E,0.12,346.88,260623,,,D,V*03
$GPHDT,,T*1B
$GNGSA,A,3,196,24,199,18,15,195,05,13,194,,,,0.99,0.62,0.77,1*07
$GNGSA,A,3,84,80,79,69,,,,,,,,,0.99,0.62,0.77,2*03
$GNGSA,A,3,13,08,15,07,03,,,,,,,,0.99,0.62,0.77,3*0D
$GNGSA,A,3,38,39,06,20,09,46,29,37,,,,,0.99,0.62,0.77,4*01
$GPGSV,3,1,12,196,73,052,41,24,70,168,41,50,60,167,39,199,60,167,36,1*6D
$GPGSV,3,2,12,18,54,303,31,15,52,015,40,195,45,178,45,05,35,092,43,1*53
$GPGSV,3,3,12,23,29,320,20,13,26,040,39,194,22,145,22,29,15,216,22,1*50
$GPGSV,2,1,06,196,73,052,45,24,70,168,47,199,60,167,43,18,54,303,26,8*65
$GPGSV,2,2,06,195,45,178,43,194,22,145,25,8*65
$GLGSV,2,1,05,85,46,291,,84,38,201,28,80,35,121,41,79,25,059,20,1*7B
$GLGSV,2,2,05,69,23,043,41,1*41
$GAGSV,2,1,06,13,66,284,25,08,57,356,35,15,46,171,43,07,38,274,18,7*73
$GAGSV,2,2,06,03,22,047,38,26,17,322,,7*7F
$GAGSV,2,1,05,13,66,284,33,08,57,356,34,15,46,171,39,07,38,274,18,1*7D
$GAGSV,2,2,05,03,22,047,34,1*47
$GBGSV,3,1,09,38,75,039,37,39,72,235,35,06,61,220,39,20,48,028,43,1*7F
$GBGSV,3,2,09,09,44,217,33,46,41,145,43,29,37,232,27,37,33,071,38,1*73
$GBGSV,3,3,09,36,12,188,,1*48
$GBGSV,2,1,06,38,75,039,41,39,72,235,39,20,48,028,43,46,41,145,37,4*71
$GBGSV,2,2,06,29,37,232,23,37,33,071,41,4*7F
$GNGGA,102654.000,2500.7937500,N,12132.4781700,E,2,43,0.62,22.86,M,15.25,M,4,3335*7F
$GNRMC,102654.000,A,2500.7937500,N,12132.4781700,E,0.08,346.88,260623,,,D,V*07
$GPHDT,,T*1B
$GNGGA,102654.200,2500.7937500,N,12132.4781700,E,2,43,0.62,22.86,M,15.25,M,4,3335*7D
$GNRMC,102654.200,A,2500.7937500,N,12132.4781700,E,0.08,346.88,260623,,,D,V*05
$GPHDT,,T*1B
$GNGGA,102654.400,2500.7937500,N,12132.4781800,E,2,43,0.62,22.86,M,15.25,M,4,3335*74
$GNRMC,102654.400,A,2500.7937500,N,12132.4781800,E,0.07,346.88,260623,,,D,V*03
$GPHDT,,T*1B
$GNGGA,102654.600,2500.7937500,N,12132.4781800,E,2,43,0.62,22.86,M,15.25,M,4,3335*76
$GNRMC,102654.600,A,2500.7937500,N,12132.4781800,E,0.07,346.88,260623,,,D,V*01
$GPHDT,,T*1B
$GNGGA,102654.800,2500.7937500,N,12132.4781800,E,2,43,0.62,22.86,M,15.25,M,4,3335*78
$GNRMC,102654.800,A,2500.7937500,N,12132.4781800,E,0.11,346.88,260623,,,D,V*08
$GPHDT,,T*1B
$GNGSA,A,3,196,24,199,18,15,195,05,13,194,,,,0.99,0.62,0.77,1*07
$GNGSA,A,3,84,80,79,69,,,,,,,,,0.99,0.62,0.77,2*03
$GNGSA,A,3,13,08,15,07,03,,,,,,,,0.99,0.62,0.77,3*0D
$GNGSA,A,3,38,39,06,20,09,46,29,37,,,,,0.99,0.62,0.77,4*01
$GPGSV,3,1,12,196,73,052,41,24,70,168,41,50,60,167,39,199,60,167,36,1*6D
$GPGSV,3,2,12,18,54,303,31,15,52,015,40,195,45,178,45,05,35,092,43,1*53
$GPGSV,3,3,12,23,29,320,20,13,26,040,40,194,22,145,22,29,15,216,22,1*5E
$GPGSV,2,1,06,196,73,052,45,24,70,168,47,199,60,167,43,18,54,303,26,8*65
$GPGSV,2,2,06,195,45,178,43,194,22,145,25,8*65
$GLGSV,2,1,05,84,38,201,28,70,37,331,,80,35,121,41,79,25,059,22,1*7E
$GLGSV,2,2,05,69,23,043,41,1*41
$GAGSV,2,1,06,13,66,284,25,08,57,356,35,15,46,171,43,07,38,274,18,7*73
$GAGSV,2,2,06,03,22,047,38,26,17,322,,7*7F
$GAGSV,2,1,05,13,66,284,33,08,57,356,34,15,46,171,39,07,38,274,16,1*73
$GAGSV,2,2,05,03,22,047,33,1*40
$GBGSV,3,1,09,38,75,039,37,39,72,235,36,06,61,220,39,20,48,028,43,1*7C
$GBGSV,3,2,09,09,44,217,33,46,41,145,43,19,38,316,,29,37,232,28,1*72
$GBGSV,3,3,09,37,33,071,38,1*46
$GBGSV,2,1,06,38,75,039,41,39,72,235,39,20,48,028,43,46,41,145,37,4*71
$GBGSV,2,2,06,29,37,232,23,37,33,071,41,4*7F
$GNGGA,102655.000,2500.7937500,N,12132.4781900,E,2,43,0.62,22.86,M,15.25,M,5,3335*71
$GNRMC,102655.000,A,2500.7937500,N,12132.4781900,E,0.10,346.88,260623,,,D,V*01
$GPHDT,,T*1B
$GNGGA,102655.200,2500.7937500,N,12132.4781900,E,2,43,0.65,22.87,M,15.25,M,5,3335*75
$GNRMC,102655.200,A,2500.7937500,N,12132.4781900,E,0.03,346.88,260623,,,D,V*01
$GPHDT,,T*1B
$GNGGA,102655.400,2500.7937500,N,12132.4781900,E,2,43,0.65,22.86,M,15.25,M,5,3335*72
$GNRMC,102655.400,A,2500.7937500,N,12132.4781900,E,0.01,346.88,260623,,,D,V*05
$GPHDT,,T*1B
$GNGGA,102655.600,2500.7937500,N,12132.4781900,E,2,43,0.65,22.87,M,15.25,M,5,3335*71
$GNRMC,102655.600,A,2500.7937500,N,12132.4781900,E,0.01,346.88,260623,,,D,V*07
$GPHDT,,T*1B
$GNGGA,102655.800,2500.7937500,N,12132.4781900,E,2,43,0.65,22.87,M,15.25,M,5,3335*7F
$GNRMC,102655.800,A,2500.7937500,N,12132.4781900,E,0.08,346.88,260623,,,D,V*00
$GPHDT,,T*1B
$GNGSA,A,3,196,24,199,18,15,195,05,13,194,,,,1.38,0.65,1.21,1*08
$GNGSA,A,3,84,80,79,69,,,,,,,,,1.38,0.65,1.21,2*0C
$GNGSA,A,3,13,08,15,07,03,,,,,,,,1.38,0.65,1.21,3*02
$GNGSA,A,3,38,39,06,20,09,46,29,37,,,,,1.38,0.65,1.21,4*0E
$GPGSV,3,1,12,196,73,052,41,24,70,168,41,50,60,167,39,199,60,167,37,1*6C
$GPGSV,3,2,12,18,54,303,31,15,52,015,40,195,45,178,45,05,35,092,43,1*53
$GPGSV,3,3,12,23,29,320,20,13,26,040,40,194,22,145,22,29,15,216,22,1*5E
$GPGSV,2,1,06,196,73,052,45,24,70,168,46,199,60,167,43,18,54,303,26,8*64
$GPGSV,2,2,06,195,45,178,43,194,22,145,25,8*65
$GLGSV,1,1,04,84,38,201,28,80,35,121,41,79,25,059,23,69,23,043,41,1*73
$GAGSV,2,1,06,13,66,284,25,08,57,356,35,15,46,171,43,07,38,274,16,7*7D
$GAGSV,2,2,06,03,22,047,38,26,17,322,,7*7F
$GAGSV,2,1,05,13,66,284,33,08,57,356,34,15,46,171,39,07,38,274,13,1*76
$GAGSV,2,2,05,03,22,047,34,1*47
$GBGSV,2,1,08,38,75,039,37,39,72,235,36,06,61,220,39,20,48,028,42,1*7D
$GBGSV,2,2,08,09,44,217,33,46,41,145,43,29,37,232,28,37,33,071,38,1*7C
$GBGSV,2,1,06,38,75,039,41,39,72,235,39,20,48,028,43,46,41,145,37,4*71
$GBGSV,2,2,06,29,37,232,24,37,33,071,41,4*78
$GNGGA,102656.000,2500.7937400,N,12132.4781900,E,2,43,0.65,22.87,M,15.25,M,6,3335*76
$GNRMC,102656.000,A,2500.7937400,N,12132.4781900,E,0.01,346.88,260623,,,D,V*03
$GPHDT,,T*1B
$GNGGA,102656.200,2500.7937400,N,12132.4781900,E,2,43,0.65,22.87,M,15.25,M,6,3335*74
$GNRMC,102656.200,A,2500.7937400,N,12132.4781900,E,0.03,346.88,260623,,,D,V*03
$GPHDT,,T*1B
$GNGGA,102656.400,2500.7937400,N,12132.4781900,E,2,43,0.65,22.87,M,15.25,M,6,3335*72
$GNRMC,102656.400,A,2500.7937400,N,12132.4781900,E,0.03,346.88,260623,,,D,V*05
$GPHDT,,T*1B
$GNGGA,102656.600,2500.7937400,N,12132.4781900,E,2,42,0.65,22.87,M,15.25,M,6,3335*71
$GNRMC,102656.600,A,2500.7937400,N,12132.4781900,E,0.13,346.88,260623,,,D,V*06
$GPHDT,,T*1B
$GNGGA,102656.800,2500.7937400,N,12132.4781900,E,2,43,0.65,22.87,M,15.25,M,3,3335*7B
$GNRMC,102656.800,A,2500.7937400,N,12132.4781900,E,0.08,346.88,260623,,,D,V*02
$GPHDT,,T*1B
$GNGSA,A,3,196,24,199,18,15,195,05,13,194,,,,1.38,0.65,1.21,1*08
$GNGSA,A,3,84,80,79,69,,,,,,,,,1.38,0.65,1.21,2*0C
$GNGSA,A,3,13,08,15,07,03,,,,,,,,1.38,0.65,1.21,3*02
$GNGSA,A,3,38,39,06,20,09,46,29,37,,,,,1.38,0.65,1.21,4*0E
$GPGSV,3,1,12,196,73,052,41,24,70,168,41,50,60,167,39,199,60,167,37,1*6C
$GPGSV,3,2,12,18,54,303,31,15,52,015,40,195,45,178,45,05,35,092,43,1*53
$GPGSV,3,3,12,23,29,320,20,13,26,040,40,194,22,145,21,29,15,216,22,1*5D
$GPGSV,2,1,06,196,73,052,45,24,70,168,46,199,60,167,43,18,54,303,25,8*67
$GPGSV,2,2,06,195,45,178,43,194,22,145,25,8*65
$GLGSV,2,1,05,84,38,201,28,80,35,121,41,79,25,059,24,69,23,043,40,1*77
$GLGSV,2,2,05,86,12,329,,1*48
$GAGSV,2,1,06,13,66,284,25,08,57,356,35,15,46,171,43,07,38,274,14,7*7F
$GAGSV,2,2,06,03,22,047,38,26,17,322,,7*7F
$GAGSV,2,1,05,13,66,284,33,08,57,356,35,15,46,171,39,07,38,274,12,1*76
$GAGSV,2,2,05,03,22,047,34,1*47
$GBGSV,3,1,09,38,75,039,37,39,72,235,36,06,61,220,39,20,48,028,42,1*7D
$GBGSV,3,2,09,09,44,217,32,46,41,145,43,29,37,232,28,37,33,071,38,1*7D
$GBGSV,3,3,09,08,,,31,1*75
$GBGSV,2,1,06,38,75,039,41,39,72,235,39,20,48,028,43,46,41,145,37,4*71
$GBGSV,2,2,06,29,37,232,25,37,33,071,41,4*79
$GNGGA,102657.000,2500.7937400,N,12132.4781900,E,2,43,0.65,22.88,M,15.25,M,3,3335*7D
$GNRMC,102657.000,A,2500.7937400,N,12132.4781900,E,0.00,346.88,260623,,,D,V*03
$GPHDT,,T*1B
$GNGGA,102657.200,2500.7937400,N,12132.4781900,E,2,42,0.65,22.88,M,15.25,M,1,3335*7C
$GNRMC,102657.200,A,2500.7937400,N,12132.4781900,E,0.02,346.88,260623,,,D,V*03
$GPHDT,,T*1B
$GNGGA,102657.400,2500.7937400,N,12132.4781900,E,2,43,0.65,22.88,M,15.25,M,1,3335*7B
$GNRMC,102657.400,A,2500.7937400,N,12132.4781900,E,0.02,346.88,260623,,,D,V*05
$GPHDT,,T*1B
$GNGGA,102657.600,2500.7937400,N,12132.4781900,E,2,42,0.65,22.88,M,15.25,M,0,3335*79
$GNRMC,102657.600,A,2500.7937400,N,12132.4781900,E,0.01,346.88,260623,,,D,V*04
$GPHDT,,T*1B
$GNGGA,102657.800,2500.7937400,N,12132.4781900,E,2,43,0.65,22.88,M,15.25,M,0,3335*76
$GNRMC,102657.800,A,2500.7937400,N,12132.4781900,E,0.05,346.88,260623,,,D,V*0E
$GPHDT,,T*1B
$GNGSA,A,3,196,24,199,18,15,195,05,13,194,,,,1.38,0.65,1.21,1*08
$GNGSA,A,3,84,80,79,69,,,,,,,,,1.38,0.65,1.21,2*0C
$GNGSA,A,3,13,08,15,07,03,,,,,,,,1.38,0.65,1.21,3*02
$GNGSA,A,3,38,39,06,20,09,46,29,37,,,,,1.38,0.65,1.21,4*0E
$GPGSV,3,1,12,196,73,052,41,24,70,168,41,50,60,167,39,199,60,167,37,1*6C
$GPGSV,3,2,12,18,54,303,31,15,52,015,39,195,45,178,45,05,34,092,43,1*5C
$GPGSV,3,3,12,23,29,320,20,13,26,040,40,194,22,145,20,29,15,216,22,1*5C
$GPGSV,2,1,06,196,73,052,45,24,70,168,46,199,60,167,43,18,54,303,25,8*67
$GPGSV,2,2,06,195,45,178,43,194,22,145,25,8*65
$GLGSV,2,1,05,84,38,201,28,80,35,121,41,79,25,059,22,69,23,043,39,1*7F
$GLGSV,2,2,05,71,11,284,,1*45
$GAGSV,2,1,06,13,66,284,24,08,57,356,34,15,46,171,44,07,38,274,14,7*78
$GAGSV,2,2,06,03,22,047,38,26,17,322,,7*7F
$GAGSV,2,1,05,13,66,284,33,08,57,356,35,15,46,171,37,07,38,274,11,1*7B
$GAGSV,2,2,05,03,22,047,34,1*47
$GBGSV,3,1,09,38,75,039,37,39,72,235,33,06,61,220,39,20,48,028,42,1*78
$GBGSV,3,2,09,09,44,217,31,46,41,145,43,29,37,232,26,37,33,071,38,1*70
$GBGSV,3,3,09,08,,,33,1*77
$GBGSV,2,1,06,38,75,039,41,39,72,235,39,20,48,028,43,46,41,145,34,4*72
$GBGSV,2,2,06,29,37,232,25,37,33,071,41,4*79
$GNGGA,102658.000,2500.7937400,N,12132.4781900,E,2,43,0.65,22.88,M,15.25,M,1,3335*70
$GNRMC,102658.000,A,2500.7937400,N,12132.4781900,E,0.08,346.88,260623,,,D,V*04
$GPHDT,,T*1B
$GNGGA,102658.200,2500.7937400,N,12132.4781900,E,2,42,0.65,22.87,M,15.25,M,1,3335*7C
$GNRMC,102658.200,A,2500.7937400,N,12132.4781900,E,0.03,346.88,260623,,,D,V*0D
$GPHDT,,T*1B
$GNGGA,102658.400,2500.7937400,N,12132.4781900,E,2,42,0.65,22.87,M,15.25,M,1,3335*7A
$GNRMC,102658.400,A,2500.7937400,N,12132.4781900,E,0.01,346.88,260623,,,D,V*09
$GPHDT,,T*1B
$GNGGA,102658.600,2500.7937400,N,12132.4781900,E,2,42,0.65,22.87,M,15.25,M,1,3335*78
$GNRMC,102658.600,A,2500.7937400,N,12132.4781900,E,0.01,346.88,260623,,,D,V*0B
$GPHDT,,T*1B
$GNGGA,102658.800,2500.7937400,N,12132.4781900,E,2,42,0.65,22.87,M,15.25,M,1,3335*76
$GNRMC,102658.800,A,2500.7937400,N,12132.4781900,E,0.04,346.88,260623,,,D,V*00
$GPHDT,,T*1B
$GNGSA,A,3,196,24,199,18,15,195,05,13,194,,,,1.37,0.65,1.20,1*06
$GNGSA,A,3,84,80,79,69,,,,,,,,,1.37,0.65,1.20,2*02
$GNGSA,A,3,13,08,15,07,03,,,,,,,,1.37,0.65,1.20,3*0C
$GNGSA,A,3,38,39,06,20,09,46,29,37,,,,,1.37,0.65,1.20,4*00
$GPGSV,3,1,12,196,73,052,41,24,70,168,43,50,60,167,39,199,60,167,36,1*6F
$GPGSV,3,2,12,18,54,303,31,15,52,015,39,195,45,178,43,05,34,092,43,1*5A
$GPGSV,3,3,12,23,29,320,21,13,26,040,40,194,22,145,18,29,15,216,20,1*54
$GPGSV,2,1,06,196,73,052,45,24,70,168,46,199,60,167,43,18,54,303,25,8*67
$GPGSV,2,2,06,195,45,178,44,194,22,145,25,8*62
$GLGSV,2,1,05,84,38,201,28,80,35,121,42,79,25,059,20,69,23,043,39,1*7E
$GLGSV,2,2,05,73,09,171,,1*47
$GAGSV,2,1,06,13,66,284,24,08,57,356,33,15,46,171,44,07,38,274,14,7*7F
$GAGSV,2,2,06,03,22,047,37,26,17,322,,7*70
$GAGSV,2,1,05,13,66,284,31,08,57,356,35,15,46,171,36,07,38,274,12,1*7B
$GAGSV,2,2,05,03,22,047,35,1*46
$GBGSV,3,1,09,38,75,039,38,39,72,235,31,06,61,220,39,20,48,028,42,1*75
$GBGSV,3,2,09,09,44,217,31,46,41,145,43,29,37,232,28,37,33,071,39,1*7F
$GBGSV,3,3,09,08,,,32,1*76
$GBGSV,2,1,06,38,75,039,40,39,72,235,39,20,48,028,43,46,41,145,34,4*73
$GBGSV,2,2,06,29,37,232,25,37,33,071,41,4*79
$GNGGA,102659.000,2500.7937400,N,12132.4781900,E,2,42,0.65,22.87,M,15.25,M,2,3335*7C
$GNRMC,102659.000,A,2500.7937400,N,12132.4781900,E,0.03,346.88,260623,,,D,V*0E
$GPHDT,,T*1B
$GNGGA,102659.200,2500.7937400,N,12132.4781900,E,2,42,0.65,22.87,M,15.25,M,2,3335*7E
$GNRMC,102659.200,A,2500.7937400,N,12132.4781900,E,0.00,346.88,260623,,,D,V*0F
$GPHDT,,T*1B
$GNGGA,102659.400,2500.7937400,N,12132.4781900,E,2,42,0.65,22.87,M,15.25,M,2,3335*78
$GNRMC,102659.400,A,2500.7937400,N,12132.4781900,E,0.02,346.88,260623,,,D,V*0B
$GPHDT,,T*1B
$GNGGA,102659.600,2500.7937400,N,12132.4781900,E,2,42,0.65,22.87,M,15.25,M,2,3335*7A
$GNRMC,102659.600,A,2500.7937400,N,12132.4781900,E,0.08,346.88,260623,,,D,V*03
$GPHDT,,T*1B
$GNGGA,102659.800,2500.7937400,N,12132.4781900,E,2,41,0.65,22.87,M,15.25,M,2,3335*77
$GNRMC,102659.800,A,2500.7937400,N,12132.4781900,E,0.11,346.88,260623,,,D,V*05
$GPHDT,,T*1B
$GNGSA,A,3,196,24,199,18,15,195,05,13,194,,,,1.38,0.65,1.21,1*08
$GNGSA,A,3,84,80,79,69,,,,,,,,,1.38,0.65,1.21,2*0C
$GNGSA,A,3,13,08,15,07,03,,,,,,,,1.38,0.65,1.21,3*02
$GNGSA,A,3,38,39,06,20,09,46,29,37,,,,,1.38,0.65,1.21,4*0E
$GPGSV,3,1,12,196,73,052,41,24,70,168,43,50,60,167,39,199,60,167,37,1*6E
$GPGSV,3,2,12,18,54,303,31,15,52,016,39,195,45,178,43,05,34,092,43,1*59
$GPGSV,3,3,12,23,29,320,21,13,26,040,40,194,22,145,18,29,15,216,18,1*5F
$GPGSV,2,1,06,196,73,052,45,24,70,168,46,199,60,167,43,18,54,303,25,8*67
$GPGSV,2,2,06,195,45,178,44,194,22,145,25,8*62
$GLGSV,1,1,04,84,38,201,28,80,35,121,42,79,25,059,20,69,23,043,39,1*7C
$GAGSV,2,1,07,13,66,284,24,08,57,356,33,15,46,171,44,07,38,274,15,7*7F
$GAGSV,2,2,07,03,22,047,37,26,17,322,,25,05,062,,7*47
$GAGSV,1,1,04,13,66,284,31,08,57,356,35,15,46,171,36,03,22,047,35,1*71
$GBGSV,3,1,09,38,75,039,38,39,72,235,32,06,61,220,39,20,48,028,42,1*76
$GBGSV,3,2,09,09,44,217,31,46,41,145,43,29,37,232,28,37,33,071,39,1*7F
$GBGSV,3,3,09,08,,,32,1*76
$GBGSV,2,1,06,38,75,039,40,39,72,235,39,20,48,028,43,46,41,145,34,4*73
$GBGSV,2,2,06,29,37,232,26,37,33,071,41,4*7A
$GNGGA,102700.000,2500.7937300,N,12132.4781900,E,2,41,0.65,22.87,M,15.25,M,3,3335*74
$GNRMC,102700.000,A,2500.7937300,N,12132.4781900,E,0.02,346.88,260623,,,D,V*05
$PAIR010,0,1,2268,124038*38
$GPHDT,,T*1B
$GNGGA,102700.200,2500.7937300,N,12132.4781900,E,2,41,0.65,22.87,M,15.25,M,3,3335*76
$GNRMC,102700.200,A,2500.7937300,N,12132.4781900,E,0.02,346.88,260623,,,D,V*07
