$FW : RTK35X,V1.1X0314AS,Lib20210517,1*54
$Tool : LOCOSYS , GNSS Firebird , v1.0.0.19*39
$---------------------------------------------------*2D
$GNGSA,A,3,24,196,199,15,195,05,13,,,,,,1.66,0.93,1.37,1*38
$GNGSA,A,3,79,69,,,,,,,,,,,1.66,0.93,1.37,2*0D
$GNGSA,A,3,08,15,03,,,,,,,,,,1.66,0.93,1.37,3*02
$GNGSA,A,3,38,39,16,06,20,09,46,29,37,,,,1.66,0.93,1.37,4*0C
$GPGSV,3,1,11,24,73,164,44,196,73,053,41,199,60,167,38,18,56,299,16,1*6D
$GPGSV,3,2,11,15,50,019,35,45,47,231,36,195,44,178,46,05,33,095,43,1*52
$GPGSV,3,3,11,13,24,041,35,194,22,144,22,20,13,114,,1*6A
$GPGSV,2,1,06,196,73,053,46,24,73,164,48,199,60,167,45,18,56,299,28,8*6F
$GPGSV,2,2,06,195,44,178,45,194,22,144,22,8*64
$GLGSV,1,1,03,79,25,056,31,69,22,046,31,86,14,327,16,1*46
$GAGSV,2,1,05,13,66,278,21,08,56,359,27,15,44,172,42,07,38,276,17,7*77
$GAGSV,2,2,05,03,21,049,28,7*41
$GAGSV,1,1,04,13,66,278,22,08,56,359,31,15,44,172,40,03,21,049,32,1*70
$GBGSV,3,1,09,38,76,042,39,39,73,239,38,16,64,224,43,06,62,223,41,1*74
$GBGSV,3,2,09,20,48,031,37,09,45,219,39,46,43,143,41,29,35,230,30,1*77
$GBGSV,3,3,09,37,33,068,32,1*44
$GBGSV,2,1,06,38,76,042,43,39,73,239,40,20,48,031,43,46,43,143,43,4*70
$GBGSV,2,2,06,29,35,230,21,37,33,068,43,4*77
$GNGGA,103225.000,2500.7910772,N,12132.4767937,E,2,34,0.93,13.581,M,15.25,M,3,3335*45
$GNRMC,103225.000,A,2500.7910772,N,12132.4767937,E,0.00,216.19,260623,,,D,V*00
$GPHDT,,T*1B
$GNGGA,103225.200,2500.7910832,N,12132.4767937,E,2,34,0.93,13.580,M,15.25,M,1,3335*4F
$GNRMC,103225.200,A,2500.7910832,N,12132.4767937,E,0.00,216.19,260623,,,D,V*09
$GPHDT,,T*1B
$GNGGA,103225.400,2500.7910832,N,12132.4767997,E,2,34,0.93,13.580,M,15.25,M,1,3335*43
$GNRMC,103225.400,A,2500.7910832,N,12132.4767997,E,0.00,216.19,260623,,,D,V*05
$GPHDT,,T*1B
$GNGGA,103225.600,2500.7910892,N,12132.4767997,E,2,34,0.93,13.580,M,15.25,M,1,3335*4B
$GNRMC,103225.600,A,2500.7910892,N,12132.4767997,E,0.00,216.19,260623,,,D,V*0D
$GPHDT,,T*1B
$GNGGA,103225.800,2500.7910892,N,12132.4767997,E,2,34,0.93,13.579,M,15.25,M,1,3335*43
$GNRMC,103225.800,A,2500.7910892,N,12132.4767997,E,0.00,216.19,260623,,,D,V*03
$GPHDT,,T*1B
$GNGSA,A,3,24,196,199,15,195,05,13,,,,,,1.66,0.93,1.37,1*38
$GNGSA,A,3,79,69,,,,,,,,,,,1.66,0.93,1.37,2*0D
$GNGSA,A,3,08,15,03,,,,,,,,,,1.66,0.93,1.37,3*02
$GNGSA,A,3,38,39,16,06,20,09,46,29,37,,,,1.66,0.93,1.37,4*0C
$GPGSV,3,1,11,24,73,164,44,196,73,053,41,199,60,167,38,18,56,299,14,1*6F
$GPGSV,3,2,11,15,50,019,36,45,47,231,36,195,44,178,46,05,33,095,43,1*51
$GPGSV,3,3,11,13,24,041,35,194,22,144,24,20,13,114,,1*6C
$GPGSV,2,1,06,196,73,053,46,24,73,164,48,199,60,167,45,18,56,299,27,8*60
$GPGSV,2,2,06,195,44,178,46,194,22,144,20,8*65
$GLGSV,1,1,03,79,25,056,32,69,22,046,30,86,14,327,16,1*44
$GAGSV,2,1,05,13,66,278,21,08,56,359,27,15,44,172,42,07,38,276,17,7*77
$GAGSV,2,2,05,03,21,049,28,7*41
$GAGSV,1,1,04,13,66,278,23,08,56,359,32,15,44,172,40,03,21,049,30,1*70
$GBGSV,3,1,09,38,76,042,38,39,73,239,37,16,64,225,43,06,62,223,41,1*7B
$GBGSV,3,2,09,20,48,031,37,09,45,219,39,46,43,143,41,29,35,230,30,1*77
$GBGSV,3,3,09,37,33,068,32,1*44
$GBGSV,2,1,06,38,76,042,43,39,73,239,40,20,48,031,44,46,43,143,43,4*77
$GBGSV,2,2,06,29,35,230,23,37,33,068,43,4*75
$GNGGA,103226.000,2500.7910892,N,12132.4767997,E,2,34,0.93,13.580,M,15.25,M,2,3335*4D
$GNRMC,103226.000,A,2500.7910892,N,12132.4767997,E,0.00,216.19,260623,,,D,V*08
$GPHDT,,T*1B
$GNGGA,103226.200,2500.7910892,N,12132.4767997,E,2,34,0.93,13.580,M,15.25,M,2,3335*4F
$GNRMC,103226.200,A,2500.7910892,N,12132.4767997,E,0.00,216.19,260623,,,D,V*0A
$GPHDT,,T*1B
$GNGGA,103226.400,2500.7910952,N,12132.4767997,E,2,34,0.93,13.580,M,15.25,M,2,3335*44
$GNRMC,103226.400,A,2500.7910952,N,12132.4767997,E,0.00,216.19,260623,,,D,V*01
$GPHDT,,T*1B
$GNGGA,103226.600,2500.7910952,N,12132.4767997,E,2,34,0.93,13.580,M,15.25,M,2,3335*46
$GNRMC,103226.600,A,2500.7910952,N,12132.4767997,E,0.00,216.19,260623,,,D,V*03
$GPHDT,,T*1B
$GNGGA,103226.800,2500.7911012,N,12132.4767997,E,2,34,0.93,13.580,M,15.25,M,2,3335*44
$GNRMC,103226.800,A,2500.7911012,N,12132.4767997,E,0.00,216.19,260623,,,D,V*01
$GPHDT,,T*1B
$GNGSA,A,3,24,196,199,15,195,05,13,,,,,,1.66,0.93,1.37,1*38
$GNGSA,A,3,79,69,,,,,,,,,,,1.66,0.93,1.37,2*0D
$GNGSA,A,3,08,15,03,,,,,,,,,,1.66,0.93,1.37,3*02
$GNGSA,A,3,38,39,16,06,20,09,46,29,37,,,,1.66,0.93,1.37,4*0C
$GPGSV,3,1,11,24,73,164,44,196,73,053,41,199,60,167,38,18,56,299,13,1*68
$GPGSV,3,2,11,15,50,019,35,45,47,231,36,195,44,178,46,05,33,095,43,1*52
$GPGSV,3,3,11,13,24,041,33,194,22,144,25,20,13,114,,1*6B
$GPGSV,2,1,06,196,73,053,46,24,73,164,48,199,60,167,45,18,56,299,26,8*61
$GPGSV,2,2,06,195,44,178,46,194,22,144,22,8*67
$GLGSV,1,1,03,79,25,056,32,69,22,046,33,86,14,327,16,1*47
$GAGSV,2,1,05,13,66,278,20,08,56,359,26,15,44,172,42,07,38,276,16,7*76
$GAGSV,2,2,05,03,21,049,29,7*40
$GAGSV,1,1,04,13,66,278,25,08,56,359,31,15,44,172,40,03,21,049,32,1*77
$GBGSV,3,1,09,38,76,042,38,39,73,239,37,16,64,225,43,06,62,223,41,1*7B
$GBGSV,3,2,09,20,47,032,37,09,45,219,39,46,43,143,41,29,35,230,31,1*7A
$GBGSV,3,3,09,37,33,068,33,1*45
$GBGSV,2,1,06,38,76,042,43,39,73,239,40,20,47,032,44,46,43,143,43,4*7B
$GBGSV,2,2,06,29,35,230,24,37,33,068,43,4*72
$GNGGA,103227.000,2500.7911012,N,12132.4767997,E,2,34,0.93,13.580,M,15.25,M,3,3335*4C
$GNRMC,103227.000,A,2500.7911012,N,12132.4767997,E,0.00,216.19,260623,,,D,V*08
$GPHDT,,T*1B
$GNGGA,103227.200,2500.7911012,N,12132.4767997,E,2,34,0.93,13.579,M,15.25,M,3,3335*48
$GNRMC,103227.200,A,2500.7911012,N,12132.4767997,E,0.00,216.19,260623,,,D,V*0A
$GPHDT,,T*1B
$GNGGA,103227.400,2500.7911072,N,12132.4767997,E,2,34,0.93,13.578,M,15.25,M,3,3335*49
$GNRMC,103227.400,A,2500.7911072,N,12132.4767997,E,0.00,216.19,260623,,,D,V*0A
$GPHDT,,T*1B
$GNGGA,103227.600,2500.7911072,N,12132.4767997,E,2,34,0.93,13.578,M,15.25,M,3,3335*4B
$GNRMC,103227.600,A,2500.7911072,N,12132.4767997,E,0.00,216.19,260623,,,D,V*08
$GPHDT,,T*1B
$GNGGA,103227.800,2500.7911132,N,12132.4767997,E,2,34,0.93,13.577,M,15.25,M,3,3335*4F
$GNRMC,103227.800,A,2500.7911132,N,12132.4767997,E,0.00,216.19,260623,,,D,V*03
$GPHDT,,T*1B
$GNGSA,A,3,24,196,199,15,195,05,13,,,,,,1.66,0.93,1.37,1*38
$GNGSA,A,3,79,69,,,,,,,,,,,1.66,0.93,1.37,2*0D
$GNGSA,A,3,08,15,03,,,,,,,,,,1.66,0.93,1.37,3*02
$GNGSA,A,3,38,39,16,06,20,09,46,29,37,,,,1.66,0.93,1.37,4*0C
$GPGSV,3,1,11,24,73,164,44,196,73,053,41,199,60,167,38,18,56,299,16,1*6D
$GPGSV,3,2,11,15,50,019,36,45,47,231,35,195,44,178,46,05,33,095,43,1*52
$GPGSV,3,3,11,13,24,041,31,194,22,144,25,20,13,114,,1*69
$GPGSV,2,1,06,196,73,053,46,24,73,164,49,199,60,167,45,18,56,299,26,8*60
$GPGSV,2,2,06,195,44,178,46,194,22,144,20,8*65
$GLGSV,1,1,03,79,25,056,30,69,22,046,34,86,14,327,18,1*4C
$GAGSV,2,1,05,13,66,278,20,08,56,359,24,15,44,172,42,07,38,276,16,7*74
$GAGSV,2,2,05,03,21,049,30,7*48
$GAGSV,1,1,04,13,66,278,22,08,56,359,31,15,44,172,40,03,21,049,31,1*73
$GBGSV,3,1,09,38,76,042,38,39,73,239,37,16,64,225,43,06,62,223,41,1*7B
$GBGSV,3,2,09,20,47,032,37,09,45,219,39,46,43,143,42,29,35,230,31,1*79
$GBGSV,3,3,09,37,33,068,35,1*43
$GBGSV,2,1,06,38,76,042,43,39,73,239,40,20,47,032,43,46,43,143,43,4*7C
$GBGSV,2,2,06,29,35,230,22,37,33,068,43,4*74
$GNGGA,103228.000,2500.7911132,N,12132.4767997,E,2,34,0.93,13.576,M,15.25,M,4,3335*4E
$GNRMC,103228.000,A,2500.7911132,N,12132.4767997,E,0.00,216.19,260623,,,D,V*04
$GPHDT,,T*1B
$GNGGA,103228.200,2500.7911132,N,12132.4767997,E,2,34,0.93,13.576,M,15.25,M,4,3335*4C
$GNRMC,103228.200,A,2500.7911132,N,12132.4767997,E,0.00,216.19,260623,,,D,V*06
$GPHDT,,T*1B
$GNGGA,103228.400,2500.7911192,N,12132.4767997,E,2,34,0.93,13.575,M,15.25,M,4,3335*43
$GNRMC,103228.400,A,2500.7911192,N,12132.4767997,E,0.00,216.19,260623,,,D,V*0A
$GPHDT,,T*1B
$GNGGA,103228.600,2500.7911192,N,12132.4767997,E,2,34,0.93,13.574,M,15.25,M,4,3335*40
$GNRMC,103228.600,A,2500.7911192,N,12132.4767997,E,0.00,216.19,260623,,,D,V*08
$GPHDT,,T*1B
$GNGGA,103228.800,2500.7911252,N,12132.4767997,E,2,34,0.93,13.574,M,15.25,M,4,3335*41
$GNRMC,103228.800,A,2500.7911252,N,12132.4767997,E,0.00,216.19,260623,,,D,V*09
$GPHDT,,T*1B
$GNGSA,A,3,24,196,199,15,195,05,13,,,,,,1.65,0.93,1.36,1*3A
$GNGSA,A,3,79,69,,,,,,,,,,,1.65,0.93,1.36,2*0F
$GNGSA,A,3,08,15,03,,,,,,,,,,1.65,0.93,1.36,3*00
$GNGSA,A,3,38,39,16,06,20,09,46,29,37,,,,1.65,0.93,1.36,4*0E
$GPGSV,3,1,11,24,73,164,44,196,73,053,41,199,60,167,38,18,56,299,16,1*6D
$GPGSV,3,2,11,15,50,019,36,45,47,231,35,195,44,178,46,05,33,095,43,1*52
$GPGSV,3,3,11,13,24,041,31,194,22,144,25,20,13,114,,1*69
$GPGSV,2,1,06,196,73,053,46,24,73,164,49,199,60,167,45,18,56,299,26,8*60
$GPGSV,2,2,06,195,44,178,46,194,22,144,20,8*65
$GLGSV,1,1,03,79,25,056,29,69,22,046,34,86,14,327,18,1*44
$GAGSV,2,1,06,13,66,278,20,08,56,359,24,15,44,172,42,07,38,276,16,7*77
$GAGSV,2,2,06,03,21,049,30,02,17,106,,7*78
$GAGSV,2,1,05,13,66,278,23,08,56,359,31,15,44,172,40,07,38,276,26,1*74
$GAGSV,2,2,05,03,21,049,30,1*4E
$GBGSV,3,1,09,38,76,042,38,39,73,239,37,16,64,225,43,06,62,223,41,1*7B
$GBGSV,3,2,09,20,47,032,37,09,45,219,39,46,43,143,42,29,35,230,31,1*79
$GBGSV,3,3,09,37,33,068,35,1*43
$GBGSV,2,1,06,38,76,042,43,39,73,239,40,20,47,032,43,46,43,143,43,4*7C
$GBGSV,2,2,06,29,35,230,21,37,33,068,43,4*77
$GNGGA,103229.000,2500.7911252,N,12132.4767997,E,2,34,0.93,13.573,M,15.25,M,5,3335*4E
$GNRMC,103229.000,A,2500.7911252,N,12132.4767997,E,0.00,216.19,260623,,,D,V*00
$GPHDT,,T*1B
$GNGGA,103229.200,2500.7911312,N,12132.4768057,E,2,34,0.93,13.572,M,15.25,M,5,3335*42
$GNRMC,103229.200,A,2500.7911312,N,12132.4768057,E,0.00,216.19,260623,,,D,V*0D
$GPHDT,,T*1B
$GNGGA,103229.400,2500.7911312,N,12132.4768057,E,2,34,0.93,13.571,M,15.25,M,5,3335*47
$GNRMC,103229.400,A,2500.7911312,N,12132.4768057,E,0.00,216.19,260623,,,D,V*0B
$GPHDT,,T*1B
$GNGGA,103229.600,2500.7911312,N,12132.4768057,E,2,34,0.93,13.571,M,15.25,M,5,3335*45
$GNRMC,103229.600,A,2500.7911312,N,12132.4768057,E,0.00,216.19,260623,,,D,V*09
$GPHDT,,T*1B
$GNGGA,103229.800,2500.7911372,N,12132.4768057,E,2,34,0.93,13.571,M,15.25,M,5,3335*4D
$GNRMC,103229.800,A,2500.7911372,N,12132.4768057,E,0.00,216.19,260623,,,D,V*01
$GPHDT,,T*1B
$GNGSA,A,3,24,196,199,15,195,05,13,,,,,,1.65,0.93,1.36,1*3A
$GNGSA,A,3,79,69,,,,,,,,,,,1.65,0.93,1.36,2*0F
$GNGSA,A,3,08,15,03,,,,,,,,,,1.65,0.93,1.36,3*00
$GNGSA,A,3,38,39,16,06,20,09,46,29,37,,,,1.65,0.93,1.36,4*0E
$GPGSV,3,1,11,24,73,164,44,196,73,053,41,199,60,167,38,18,56,299,17,1*6C
$GPGSV,3,2,11,15,50,019,36,45,47,231,35,195,44,178,46,05,33,095,43,1*52
$GPGSV,3,3,11,13,24,041,31,194,22,144,25,20,13,114,,1*69
$GPGSV,2,1,06,196,73,053,46,24,73,164,49,199,60,167,45,18,56,299,26,8*60
$GPGSV,2,2,06,195,44,178,46,194,22,144,21,8*64
$GLGSV,1,1,03,79,25,056,29,69,22,046,35,86,14,327,18,1*45
$GAGSV,2,1,06,13,66,278,20,08,56,359,24,15,44,172,42,07,38,276,16,7*77
$GAGSV,2,2,06,03,21,049,30,25,05,060,,7*7F
$GAGSV,2,1,05,13,66,278,22,08,56,359,31,15,44,172,40,07,38,276,26,1*75
$GAGSV,2,2,05,03,21,049,30,1*4E
$GBGSV,3,1,09,38,76,042,38,39,73,239,37,16,64,225,43,06,62,223,41,1*7B
$GBGSV,3,2,09,20,47,032,37,09,45,219,39,46,43,143,42,29,35,230,31,1*79
$GBGSV,3,3,09,37,33,068,35,1*43
$GBGSV,2,1,06,38,76,042,43,39,73,239,40,20,47,032,43,46,43,143,43,4*7C
$GBGSV,2,2,06,29,35,230,21,37,33,068,43,4*77
$GNGGA,103230.000,2500.7911432,N,12132.4768057,E,2,34,0.93,13.571,M,15.25,M,6,3335*4D
$GNRMC,103230.000,A,2500.7911432,N,12132.4768057,E,0.00,216.19,260623,,,D,V*02
$GPHDT,,T*1B
$GNGGA,103230.200,2500.7911432,N,12132.4768057,E,2,34,0.93,13.571,M,15.25,M,6,3335*4F
$GNRMC,103230.200,A,2500.7911432,N,12132.4768057,E,0.00,216.19,260623,,,D,V*00
$GPHDT,,T*1B
$GNGGA,103230.400,2500.7911492,N,12132.4768057,E,2,34,0.93,13.571,M,15.25,M,6,3335*43
$GNRMC,103230.400,A,2500.7911492,N,12132.4768057,E,0.00,216.19,260623,,,D,V*0C
$GPHDT,,T*1B
$GNGGA,103230.600,2500.7911492,N,12132.4768057,E,2,34,0.93,13.571,M,15.25,M,6,3335*41
$GNRMC,103230.600,A,2500.7911492,N,12132.4768057,E,0.00,216.19,260623,,,D,V*0E
$GPHDT,,T*1B
$GNGGA,103230.800,2500.7911552,N,12132.4768057,E,2,34,0.93,13.571,M,15.25,M,6,3335*42
$GNRMC,103230.800,A,2500.7911552,N,12132.4768057,E,0.00,216.19,260623,,,D,V*0D
$GPHDT,,T*1B
$GNGSA,A,3,24,196,199,15,195,05,13,,,,,,1.65,0.93,1.36,1*3A
$GNGSA,A,3,79,69,,,,,,,,,,,1.65,0.93,1.36,2*0F
$GNGSA,A,3,08,15,03,,,,,,,,,,1.65,0.93,1.36,3*00
$GNGSA,A,3,38,39,16,06,20,09,46,29,37,,,,1.65,0.93,1.36,4*0E
$GPGSV,3,1,11,24,73,164,45,196,73,053,41,199,60,167,38,18,56,299,17,1*6D
$GPGSV,3,2,11,15,50,019,36,45,47,231,35,195,44,178,46,05,33,095,44,1*55
$GPGSV,3,3,11,13,24,041,31,194,22,144,25,20,13,114,,1*69
$GPGSV,2,1,06,196,73,053,46,24,73,164,49,199,60,167,45,18,56,299,25,8*63
$GPGSV,2,2,06,195,44,178,46,194,22,144,21,8*64
$GLGSV,1,1,03,79,25,056,29,69,22,046,33,86,14,327,18,1*43
$GAGSV,2,1,06,13,66,278,19,08,56,359,23,15,44,172,42,07,38,276,17,7*7B
$GAGSV,2,2,06,03,21,049,30,25,05,060,,7*7F
$GAGSV,2,1,05,13,66,278,22,08,56,359,31,15,44,172,40,07,38,276,10,1*70
$GAGSV,2,2,05,03,21,049,30,1*4E
$GBGSV,3,1,09,38,76,042,38,39,73,240,37,16,64,225,43,06,62,223,41,1*75
$GBGSV,3,2,09,20,47,032,36,09,45,219,39,46,43,143,42,29,35,230,31,1*78
$GBGSV,3,3,09,37,33,068,34,1*42
$GBGSV,2,1,06,38,76,042,43,39,73,240,40,20,47,032,43,46,43,143,43,4*72
$GBGSV,2,2,06,29,35,230,23,37,33,068,43,4*75
$GNGGA,103231.000,2500.7911552,N,12132.4768057,E,2,34,0.93,13.570,M,15.25,M,4,3335*48
$GNRMC,103231.000,A,2500.7911552,N,12132.4768057,E,0.00,216.19,260623,,,D,V*04
$GPHDT,,T*1B
$GNGGA,103231.200,2500.7911612,N,12132.4768057,E,2,34,0.93,13.570,M,15.25,M,2,3335*4B
$GNRMC,103231.200,A,2500.7911612,N,12132.4768057,E,0.00,216.19,260623,,,D,V*01
$GPHDT,,T*1B
$GNGGA,103231.400,2500.7911612,N,12132.4768057,E,2,34,0.93,13.569,M,15.25,M,1,3335*46
$GNRMC,103231.400,A,2500.7911612,N,12132.4768057,E,0.00,216.19,260623,,,D,V*07
$GPHDT,,T*1B
$GNGGA,103231.600,2500.7911612,N,12132.4768057,E,2,34,0.93,13.568,M,15.25,M,1,3335*45
$GNRMC,103231.600,A,2500.7911612,N,12132.4768057,E,0.00,216.19,260623,,,D,V*05
$GPHDT,,T*1B
$GNGGA,103231.800,2500.7911672,N,12132.4768057,E,2,33,0.94,13.568,M,15.25,M,0,3335*4C
$GNRMC,103231.800,A,2500.7911672,N,12132.4768057,E,0.00,216.19,260623,,,D,V*0D
$GPHDT,,T*1B
$GNGSA,A,3,24,196,199,15,195,05,,,,,,,1.69,0.94,1.41,1*33
$GNGSA,A,3,79,69,,,,,,,,,,,1.69,0.94,1.41,2*04
$GNGSA,A,3,08,15,03,,,,,,,,,,1.69,0.94,1.41,3*0B
$GNGSA,A,3,38,39,16,06,20,09,46,29,37,,,,1.69,0.94,1.41,4*05
$GPGSV,3,1,11,24,73,164,45,196,73,053,41,199,60,167,37,18,56,299,17,1*62
$GPGSV,3,2,11,15,50,019,33,45,47,231,34,195,44,178,46,05,33,095,44,1*51
$GPGSV,3,3,11,13,24,041,24,194,22,144,26,20,13,114,,1*6E
$GPGSV,2,1,06,196,73,053,46,24,73,164,49,199,60,167,46,18,56,299,26,8*63
$GPGSV,2,2,06,195,44,178,46,194,22,144,20,8*65
$GLGSV,1,1,03,79,25,056,29,69,22,046,34,86,14,327,19,1*45
$GAGSV,2,1,06,13,66,278,18,08,56,359,24,15,44,172,43,07,38,276,17,7*7C
$GAGSV,2,2,06,03,21,049,29,25,05,060,,7*77
$GAGSV,2,1,05,13,66,278,21,08,56,359,33,15,44,172,40,07,38,276,12,1*73
$GAGSV,2,2,05,03,21,049,32,1*4C
$GBGSV,3,1,10,38,76,042,38,39,73,240,37,16,64,225,43,06,62,223,41,1*7D
$GBGSV,3,2,10,20,47,032,37,09,45,219,38,46,43,143,41,29,35,230,30,1*72
$GBGSV,3,3,10,37,33,068,33,22,01,283,,1*75
$GBGSV,2,1,06,38,76,042,43,39,73,240,40,20,47,032,43,46,43,143,43,4*72
$GBGSV,2,2,06,29,35,230,21,37,33,068,42,4*76
$GNGGA,103232.000,2500.7911672,N,12132.4768057,E,2,33,0.94,13.568,M,15.25,M,1,3335*46
$GNRMC,103232.000,A,2500.7911672,N,12132.4768057,E,0.00,216.19,260623,,,D,V*06
$GPHDT,,T*1B
$GNGGA,103232.200,2500.7911672,N,12132.4768057,E,2,33,0.94,13.568,M,15.25,M,1,3335*44
$GNRMC,103232.200,A,2500.7911672,N,12132.4768057,E,0.00,216.19,260623,,,D,V*04
$GPHDT,,T*1B
$GNGGA,103232.400,2500.7911732,N,12132.4768057,E,2,33,0.94,13.568,M,15.25,M,1,3335*47
$GNRMC,103232.400,A,2500.7911732,N,12132.4768057,E,0.00,216.19,260623,,,D,V*07
$GPHDT,,T*1B
$GNGGA,103232.600,2500.7911732,N,12132.4768057,E,2,33,0.94,13.569,M,15.25,M,1,3335*44
$GNRMC,103232.600,A,2500.7911732,N,12132.4768057,E,0.00,216.19,260623,,,D,V*05
$GPHDT,,T*1B
$GNGGA,103232.800,2500.7911792,N,12132.4768057,E,2,33,0.94,13.569,M,15.25,M,1,3335*40
$GNRMC,103232.800,A,2500.7911792,N,12132.4768057,E,0.00,216.19,260623,,,D,V*01
$GPHDT,,T*1B
$GNGSA,A,3,24,196,199,15,195,05,,,,,,,1.69,0.94,1.41,1*33
$GNGSA,A,3,79,69,,,,,,,,,,,1.69,0.94,1.41,2*04
$GNGSA,A,3,08,15,03,,,,,,,,,,1.69,0.94,1.41,3*0B
$GNGSA,A,3,38,39,16,06,20,09,46,29,37,,,,1.69,0.94,1.41,4*05
$GPGSV,3,1,11,24,73,164,45,196,73,053,41,199,60,167,37,18,56,299,18,1*6D
$GPGSV,3,2,11,15,50,019,36,45,47,231,34,195,44,178,46,05,33,095,44,1*54
$GPGSV,3,3,11,13,24,041,19,194,22,144,26,20,13,114,,1*60
$GPGSV,2,1,06,196,73,053,46,24,73,164,49,199,60,167,46,18,56,299,25,8*60
$GPGSV,2,2,06,195,44,178,46,194,22,144,20,8*65
$GLGSV,1,1,03,79,25,056,26,69,22,046,37,86,14,327,20,1*43
$GAGSV,2,1,06,13,66,278,19,08,56,359,25,15,44,172,42,07,38,276,17,7*7D
$GAGSV,2,2,06,03,21,049,29,25,05,060,,7*77
$GAGSV,2,1,05,13,66,278,20,08,56,359,34,15,44,172,40,07,38,276,09,1*7F
$GAGSV,2,2,05,03,21,049,33,1*4D
$GBGSV,3,1,10,38,76,042,38,39,73,240,37,16,64,225,43,06,62,223,41,1*7D
$GBGSV,3,2,10,20,47,032,38,09,45,219,38,46,43,143,41,29,35,230,30,1*7D
$GBGSV,3,3,10,37,33,068,29,30,10,178,,1*7A
$GBGSV,2,1,06,38,76,042,43,39,73,240,40,20,47,032,43,46,43,143,43,4*72
$GBGSV,2,2,06,29,35,230,22,37,33,068,42,4*75
$GNGGA,103233.000,2500.7911792,N,12132.4768057,E,2,33,0.94,13.569,M,15.25,M,2,3335*4A
$GNRMC,103233.000,A,2500.7911792,N,12132.4768057,E,0.00,216.19,260623,,,D,V*08
$GPHDT,,T*1B
$GNGGA,103233.200,2500.7911852,N,12132.4768057,E,2,33,0.94,13.569,M,15.25,M,2,3335*4B
$GNRMC,103233.200,A,2500.7911852,N,12132.4768057,E,0.00,216.19,260623,,,D,V*09
$GPHDT,,T*1B
$GNGGA,103233.400,2500.7911852,N,12132.4768057,E,2,33,0.94,13.569,M,15.25,M,2,3335*4D
$GNRMC,103233.400,A,2500.7911852,N,12132.4768057,E,0.00,216.19,260623,,,D,V*0F
$GPHDT,,T*1B
$GNGGA,103233.600,2500.7911912,N,12132.4768057,E,2,33,0.94,13.569,M,15.25,M,2,3335*4A
$GNRMC,103233.600,A,2500.7911912,N,12132.4768057,E,0.00,216.19,260623,,,D,V*08
$GPHDT,,T*1B
$GNGGA,103233.800,2500.7911912,N,12132.4768057,E,2,33,0.94,13.569,M,15.25,M,2,3335*44
$GNRMC,103233.800,A,2500.7911912,N,12132.4768057,E,0.00,216.19,260623,,,D,V*06
$GPHDT,,T*1B
$GNGSA,A,3,24,196,199,15,195,05,,,,,,,1.69,0.94,1.41,1*33
$GNGSA,A,3,79,69,,,,,,,,,,,1.69,0.94,1.41,2*04
$GNGSA,A,3,08,15,03,,,,,,,,,,1.69,0.94,1.41,3*0B
$GNGSA,A,3,38,39,16,06,20,09,46,29,37,,,,1.69,0.94,1.41,4*05
$GPGSV,3,1,11,24,73,164,45,196,73,053,41,199,60,167,37,18,56,299,19,1*6C
$GPGSV,3,2,11,15,50,019,36,45,47,231,33,195,44,178,46,05,33,095,44,1*53
$GPGSV,3,3,11,13,24,041,21,194,22,144,27,20,13,114,,1*6A
$GPGSV,2,1,06,196,73,053,46,24,73,164,49,199,60,167,46,18,56,299,23,8*66
$GPGSV,2,2,06,195,44,178,46,194,22,144,20,8*65
$GLGSV,1,1,03,79,25,056,25,69,22,046,37,86,14,327,20,1*40
$GAGSV,2,1,06,13,66,278,19,08,56,359,26,15,44,172,42,07,38,276,17,7*7E
$GAGSV,2,2,06,03,21,049,30,25,05,060,,7*7F
$GAGSV,2,1,05,13,66,278,20,08,56,359,35,15,44,172,40,07,38,276,14,1*72
$GAGSV,2,2,05,03,21,049,33,1*4D
$GBGSV,3,1,09,38,76,042,38,39,73,240,37,16,64,225,43,06,62,223,41,1*75
$GBGSV,3,2,09,20,47,032,38,09,45,219,38,46,43,143,41,29,35,230,31,1*74
$GBGSV,3,3,09,37,33,068,25,1*42
$GBGSV,2,1,06,38,76,042,43,39,73,240,40,20,47,032,43,46,43,143,43,4*72
$GBGSV,2,2,06,29,35,230,23,37,33,068,42,4*74
$GNGGA,103234.000,2500.7911972,N,12132.4768057,E,2,33,0.94,13.569,M,15.25,M,3,3335*4C
$GNRMC,103234.000,A,2500.7911972,N,12132.4768057,E,0.00,216.19,260623,,,D,V*0F
$GPHDT,,T*1B
$GNGGA,103234.200,2500.7917900,N,12132.4753100,E,2,33,0.94,16.01,M,15.25,M,3,3335*78
$GNRMC,103234.200,A,2500.7917900,N,12132.4753100,E,0.00,216.19,260623,,,D,V*05
$GPHDT,,T*1B
$GNGGA,103234.400,2500.7918000,N,12132.4753100,E,2,33,0.94,16.01,M,15.25,M,3,3335*78
$GNRMC,103234.400,A,2500.7918000,N,12132.4753100,E,0.00,216.19,260623,,,D,V*05
$GPHDT,,T*1B
$GNGGA,103234.600,2500.7918000,N,12132.4753100,E,2,33,0.94,16.01,M,15.25,M,3,3335*7A
$GNRMC,103234.600,A,2500.7918000,N,12132.4753100,E,0.00,216.19,260623,,,D,V*07
$GPHDT,,T*1B
$GNGGA,103234.800,2500.7918000,N,12132.4753100,E,2,33,0.94,16.01,M,15.25,M,3,3335*74
$GNRMC,103234.800,A,2500.7918000,N,12132.4753100,E,0.00,216.19,260623,,,D,V*09
$GPHDT,,T*1B
$GNGSA,A,3,24,196,199,15,195,05,,,,,,,1.69,0.94,1.41,1*33
$GNGSA,A,3,79,69,,,,,,,,,,,1.69,0.94,1.41,2*04
$GNGSA,A,3,08,15,03,,,,,,,,,,1.69,0.94,1.41,3*0B
$GNGSA,A,3,38,39,16,06,20,09,46,29,37,,,,1.69,0.94,1.41,4*05
$GPGSV,3,1,11,24,73,164,45,196,73,053,41,199,60,167,37,18,56,299,21,1*67
$GPGSV,3,2,11,15,50,019,35,45,47,231,33,195,44,178,46,05,33,095,44,1*50
$GPGSV,3,3,11,13,24,041,19,194,22,144,27,20,13,114,,1*61
$GPGSV,2,1,06,196,73,053,46,24,73,164,49,199,60,167,46,18,56,299,23,8*66
$GPGSV,2,2,06,195,44,178,46,194,22,144,21,8*64
$GLGSV,1,1,03,79,25,056,25,69,22,046,38,86,14,327,20,1*4F
$GAGSV,2,1,06,13,66,278,19,08,56,359,26,15,44,172,42,07,38,276,17,7*7E
$GAGSV,2,2,06,03,21,049,31,25,05,060,,7*7E
$GAGSV,1,1,04,13,66,278,20,08,56,359,36,15,44,172,40,03,21,049,33,1*74
$GBGSV,3,1,11,38,76,042,38,39,73,240,37,16,64,225,43,06,62,223,41,1*7C
$GBGSV,3,2,11,20,47,032,37,09,45,219,38,46,43,143,41,29,35,230,31,1*72
$GBGSV,3,3,11,37,33,068,27,35,23,293,,36,14,188,,1*47
$GBGSV,2,1,05,38,76,042,43,39,73,240,40,20,47,032,43,46,43,143,43,4*71
$GBGSV,2,2,05,37,33,068,42,4*4A
$GNGGA,103235.000,2500.7918000,N,12132.4753100,E,2,32,0.94,16.01,M,15.25,M,4,3335*7B
$GNRMC,103235.000,A,2500.7918000,N,12132.4753100,E,0.00,216.19,260623,,,D,V*00
$GPHDT,,T*1B
$GNGGA,103235.200,2500.7918000,N,12132.4753100,E,2,32,0.94,16.01,M,15.25,M,4,3335*79
$GNRMC,103235.200,A,2500.7918000,N,12132.4753100,E,0.00,216.19,260623,,,D,V*02
$GPHDT,,T*1B
$GNGGA,103235.400,2500.7918100,N,12132.4753100,E,2,32,0.94,16.01,M,15.25,M,4,3335*7E
$GNRMC,103235.400,A,2500.7918100,N,12132.4753100,E,0.00,216.19,260623,,,D,V*05
$GPHDT,,T*1B
$GNGGA,103235.600,2500.7918100,N,12132.4753100,E,2,32,0.94,16.01,M,15.25,M,4,3335*7C
$GNRMC,103235.600,A,2500.7918100,N,12132.4753100,E,0.00,216.19,260623,,,D,V*07
$GPHDT,,T*1B
$GNGGA,103235.800,2500.7918100,N,12132