$FW : RTK35X,V1.1X0314AS,Lib20210517,1*54
$Tool : LOCOSYS , GNSS Firebird , v1.0.0.19*39
$---------------------------------------------------*2D
$GNGGA,103125.800,2500.7905372,N,12132.4766617,E,2,34,0.92,14.640,M,15.25,M,1,3335*48
$GNRMC,103125.800,A,2500.7905372,N,12132.4766617,E,0.04,333.36,260623,,,D,V*08
$GPHDT,,T*1B
$GNGSA,A,3,196,24,199,15,195,05,13,,,,,,1.66,0.92,1.38,1*36
$GNGSA,A,3,79,69,,,,,,,,,,,1.66,0.92,1.38,2*03
$GNGSA,A,3,08,15,03,,,,,,,,,,1.66,0.92,1.38,3*0C
$GNGSA,A,3,38,39,16,06,20,09,46,29,37,,,,1.66,0.92,1.38,4*02
$GPGSV,3,1,10,196,73,053,41,24,72,165,45,199,60,167,38,18,56,300,18,1*62
$GPGSV,3,2,10,15,51,018,46,45,47,231,35,195,44,178,45,05,34,094,39,1*5C
$GPGSV,3,3,10,13,25,041,42,194,22,144,25,1*59
$GPGSV,2,1,06,196,73,053,43,24,72,165,49,199,60,167,44,18,56,300,24,8*67
$GPGSV,2,2,06,195,44,178,46,194,22,144,21,8*64
$GLGSV,1,1,03,79,25,056,34,69,22,046,39,86,14,327,18,1*45
$GAGSV,1,1,04,08,56,359,25,15,44,172,43,03,21,049,28,02,17,106,,7*77
$GAGSV,1,1,03,08,56,359,33,15,44,172,41,03,21,049,32,1*4B
$GBGSV,3,1,12,38,76,041,40,39,73,239,37,16,64,224,42,06,62,223,41,1*7D
$GBGSV,3,2,12,13,58,343,,20,48,031,44,09,45,218,39,46,43,144,39,1*74
$GBGSV,3,3,12,19,39,318,20,29,36,230,30,37,33,069,34,10,05,208,,1*71
$GBGSV,2,1,06,38,76,041,40,39,73,239,39,20,48,031,44,46,43,144,35,4*7F
$GBGSV,2,2,06,29,36,230,34,37,33,069,36,4*73
$GNGGA,103126.000,2500.7905372,N,12132.4766617,E,2,34,0.92,14.641,M,15.25,M,2,3335*41
$GNRMC,103126.000,A,2500.7905372,N,12132.4766617,E,0.00,333.36,260623,,,D,V*07
$GPHDT,,T*1B
$GNGGA,103126.200,2500.7905372,N,12132.4766677,E,2,34,0.92,14.641,M,15.25,M,2,3335*45
$GNRMC,103126.200,A,2500.7905372,N,12132.4766677,E,0.01,333.36,260623,,,D,V*02
$GPHDT,,T*1B
$GNGGA,103126.400,2500.7905432,N,12132.4766677,E,2,34,0.92,14.641,M,15.25,M,2,3335*40
$GNRMC,103126.400,A,2500.7905432,N,12132.4766677,E,0.00,333.36,260623,,,D,V*06
$GPHDT,,T*1B
$GNGGA,103126.600,2500.7905432,N,12132.4766677,E,2,34,0.92,14.637,M,15.25,M,2,3335*43
$GNRMC,103126.600,A,2500.7905432,N,12132.4766677,E,0.02,333.36,260623,,,D,V*06
$GPHDT,,T*1B
$GNGGA,103126.800,2500.7905492,N,12132.4766737,E,2,34,0.92,14.632,M,15.25,M,2,3335*47
$GNRMC,103126.800,A,2500.7905492,N,12132.4766737,E,0.04,333.36,260623,,,D,V*01
$GPHDT,,T*1B
$GNGSA,A,3,196,24,199,15,195,05,13,,,,,,1.66,0.92,1.38,1*36
$GNGSA,A,3,79,69,,,,,,,,,,,1.66,0.92,1.38,2*03
$GNGSA,A,3,08,15,03,,,,,,,,,,1.66,0.92,1.38,3*0C
$GNGSA,A,3,38,39,16,06,20,09,46,29,37,,,,1.66,0.92,1.38,4*02
$GPGSV,3,1,10,196,73,053,41,24,72,165,45,199,60,167,37,18,56,300,19,1*6C
$GPGSV,3,2,10,15,51,018,46,45,47,231,36,195,44,178,45,05,34,094,42,1*53
$GPGSV,3,3,10,13,25,041,42,194,22,144,26,1*5A
$GPGSV,2,1,06,196,73,053,43,24,72,165,48,199,60,167,44,18,56,300,21,8*63
$GPGSV,2,2,06,195,44,178,46,194,22,144,20,8*65
$GLGSV,1,1,04,85,46,287,,79,25,056,31,69,22,046,39,86,14,327,17,1*7A
$GAGSV,2,1,05,13,66,279,,08,56,359,29,15,44,172,43,03,21,049,25,7*79
$GAGSV,2,2,05,02,17,106,,7*45
$GAGSV,1,1,03,08,56,359,31,15,44,172,41,03,21,049,31,1*4A
$GBGSV,3,1,11,38,76,041,40,39,73,239,36,16,64,224,42,06,62,223,41,1*7F
$GBGSV,3,2,11,20,48,031,44,09,45,218,39,46,43,143,39,19,39,318,18,1*7A
$GBGSV,3,3,11,29,36,230,30,37,33,069,31,40,01,190,,1*4E
$GBGSV,2,1,06,38,76,041,41,39,73,239,40,20,48,031,44,46,43,143,37,4*75
$GBGSV,2,2,06,29,36,230,32,37,33,069,35,4*76
$GNGGA,103127.000,2500.7905492,N,12132.4766737,E,2,34,0.92,14.632,M,15.25,M,3,3335*4F
$GNRMC,103127.000,A,2500.7905492,N,12132.4766737,E,0.00,333.36,260623,,,D,V*0C
$GPHDT,,T*1B
$GNGGA,103127.200,2500.7905492,N,12132.4766677,E,2,34,0.92,14.632,M,15.25,M,3,3335*48
$GNRMC,103127.200,A,2500.7905492,N,12132.4766677,E,0.00,333.36,260623,,,D,V*0B
$GPHDT,,T*1B
$GNGGA,103127.400,2500.7905492,N,12132.4766677,E,2,34,0.92,14.631,M,15.25,M,3,3335*4D
$GNRMC,103127.400,A,2500.7905492,N,12132.4766677,E,0.00,333.36,260623,,,D,V*0D
$GPHDT,,T*1B
$GNGGA,103127.600,2500.7905492,N,12132.4766677,E,2,34,0.92,14.630,M,15.25,M,3,3335*4E
$GNRMC,103127.600,A,2500.7905492,N,12132.4766677,E,0.00,333.36,260623,,,D,V*0F
$GPHDT,,T*1B
$GNGGA,103127.800,2500.7905552,N,12132.4766677,E,2,34,0.92,14.630,M,15.25,M,3,3335*4D
$GNRMC,103127.800,A,2500.7905552,N,12132.4766677,E,0.00,333.36,260623,,,D,V*0C
$GPHDT,,T*1B
$GNGSA,A,3,196,24,199,15,195,05,13,,,,,,1.66,0.92,1.38,1*36
$GNGSA,A,3,79,69,,,,,,,,,,,1.66,0.92,1.38,2*03
$GNGSA,A,3,08,15,03,,,,,,,,,,1.66,0.92,1.38,3*0C
$GNGSA,A,3,38,39,16,06,20,09,46,29,37,,,,1.66,0.92,1.38,4*02
$GPGSV,3,1,10,196,73,053,42,24,72,165,45,199,60,167,37,18,56,300,21,1*64
$GPGSV,3,2,10,15,51,018,46,45,47,231,35,195,44,178,45,05,34,094,44,1*56
$GPGSV,3,3,10,13,25,041,42,194,22,144,26,1*5A
$GPGSV,2,1,06,196,73,053,43,24,72,165,48,199,60,167,44,18,56,300,24,8*66
$GPGSV,2,2,06,195,44,178,46,194,22,144,21,8*64
$GLGSV,1,1,03,79,25,056,29,69,22,046,38,86,14,327,17,1*47
$GAGSV,2,1,05,13,66,279,,08,56,359,31,15,44,172,43,03,21,049,21,7*74
$GAGSV,2,2,05,02,17,106,,7*45
$GAGSV,1,1,03,08,56,359,34,15,44,172,41,03,21,049,29,1*46
$GBGSV,4,1,13,38,76,041,40,39,73,239,36,16,64,224,43,06,62,223,41,1*7B
$GBGSV,4,2,13,20,48,031,43,09,45,218,39,46,43,143,39,19,39,318,18,1*78
$GBGSV,4,3,13,29,36,230,31,37,33,069,32,35,23,293,,36,13,188,,1*7D
$GBGSV,4,4,13,32,11,079,,1*4B
$GBGSV,2,1,06,38,76,041,42,39,73,239,40,20,48,031,44,46,43,143,37,4*76
$GBGSV,2,2,06,29,36,230,32,37,33,069,34,4*77
$GNGGA,103128.000,2500.7905552,N,12132.4766677,E,2,34,0.92,14.629,M,15.25,M,4,3335*45
$GNRMC,103128.000,A,2500.7905552,N,12132.4766677,E,0.00,333.36,260623,,,D,V*0B
$GPHDT,,T*1B
$GNGGA,103128.200,2500.7905552,N,12132.4766677,E,2,34,0.93,14.629,M,15.25,M,4,3335*46
$GNRMC,103128.200,A,2500.7905552,N,12132.4766677,E,0.00,333.36,260623,,,D,V*09
$GPHDT,,T*1B
$GNGGA,103128.400,2500.7905552,N,12132.4766677,E,2,34,0.92,14.628,M,15.25,M,4,3335*40
$GNRMC,103128.400,A,2500.7905552,N,12132.4766677,E,0.00,333.36,260623,,,D,V*0F
$GPHDT,,T*1B
$GNGGA,103128.600,2500.7905552,N,12132.4766677,E,2,34,0.93,14.628,M,15.25,M,4,3335*43
$GNRMC,103128.600,A,2500.7905552,N,12132.4766677,E,0.00,333.36,260623,,,D,V*0D
$GPHDT,,T*1B
$GNGGA,103128.800,2500.7905552,N,12132.4766677,E,2,34,0.92,14.627,M,15.25,M,4,3335*43
$GNRMC,103128.800,A,2500.7905552,N,12132.4766677,E,0.00,333.36,260623,,,D,V*03
$GPHDT,,T*1B
$GNGSA,A,3,196,24,199,15,195,05,13,,,,,,1.66,0.92,1.38,1*36
$GNGSA,A,3,79,69,,,,,,,,,,,1.66,0.92,1.38,2*03
$GNGSA,A,3,08,15,03,,,,,,,,,,1.66,0.92,1.38,3*0C
$GNGSA,A,3,38,39,16,06,20,09,46,29,37,,,,1.66,0.92,1.38,4*02
$GPGSV,3,1,10,196,73,053,42,24,72,165,45,199,60,167,37,18,56,300,23,1*66
$GPGSV,3,2,10,15,51,018,46,45,47,231,34,195,44,178,45,05,34,094,44,1*57
$GPGSV,3,3,10,13,25,041,43,194,22,144,25,1*58
$GPGSV,2,1,06,196,73,053,44,24,72,165,48,199,60,167,44,18,56,300,25,8*60
$GPGSV,2,2,06,195,44,178,46,194,22,144,23,8*66
$GLGSV,1,1,03,79,25,056,31,69,22,046,38,86,14,327,16,1*4F
$GAGSV,2,1,05,13,66,279,22,08,56,359,31,15,44,172,43,03,21,049,22,7*77
$GAGSV,2,2,05,02,17,106,,7*45
$GAGSV,1,1,03,08,56,359,35,15,44,172,41,03,21,049,30,1*4F
$GBGSV,3,1,11,38,76,041,40,39,73,239,36,16,64,224,43,06,62,223,41,1*7E
$GBGSV,3,2,11,20,48,031,43,09,45,218,39,46,43,143,40,19,39,318,18,1*73
$GBGSV,3,3,11,29,36,230,32,37,33,069,32,36,13,188,,1*44
$GBGSV,2,1,06,38,76,041,42,39,73,239,40,20,48,031,44,46,43,143,37,4*76
$GBGSV,2,2,06,29,36,230,32,37,33,069,35,4*76
$GNGGA,103129.000,2500.7905552,N,12132.4766677,E,2,34,0.92,14.626,M,15.25,M,5,3335*4A
$GNRMC,103129.000,A,2500.7905552,N,12132.4766677,E,0.00,333.36,260623,,,D,V*0A
$GPHDT,,T*1B
$GNGGA,103129.200,2500.7905552,N,12132.4766677,E,2,34,0.93,14.625,M,15.25,M,5,3335*4A
$GNRMC,103129.200,A,2500.7905552,N,12132.4766677,E,0.00,333.36,260623,,,D,V*08
$GPHDT,,T*1B
$GNGGA,103129.400,2500.7905612,N,12132.4766677,E,2,34,0.92,14.625,M,15.25,M,5,3335*4A
$GNRMC,103129.400,A,2500.7905612,N,12132.4766677,E,0.00,333.36,260623,,,D,V*09
$GPHDT,,T*1B
$GNGGA,103129.600,2500.7905612,N,12132.4766677,E,2,34,0.93,14.624,M,15.25,M,5,3335*48
$GNRMC,103129.600,A,2500.7905612,N,12132.4766677,E,0.00,333.36,260623,,,D,V*0B
$GPHDT,,T*1B
$GNGGA,103129.800,2500.7905612,N,12132.4766677,E,2,34,0.92,14.623,M,15.25,M,5,3335*40
$GNRMC,103129.800,A,2500.7905612,N,12132.4766677,E,0.00,333.36,260623,,,D,V*05
$GPHDT,,T*1B
$GNGSA,A,3,196,24,199,15,195,05,13,,,,,,1.66,0.93,1.38,1*37
$GNGSA,A,3,79,69,,,,,,,,,,,1.66,0.93,1.38,2*02
$GNGSA,A,3,08,15,03,,,,,,,,,,1.66,0.93,1.38,3*0D
$GNGSA,A,3,38,39,16,06,20,09,46,29,37,,,,1.66,0.93,1.38,4*03
$GPGSV,3,1,10,196,73,053,42,24,72,165,45,199,60,167,37,18,56,300,22,1*67
$GPGSV,3,2,10,15,51,018,46,45,47,231,34,195,44,178,44,05,34,094,44,1*56
$GPGSV,3,3,10,13,25,041,43,194,22,144,24,1*59
$GPGSV,2,1,06,196,73,053,44,24,72,165,48,199,60,167,44,18,56,300,26,8*63
$GPGSV,2,2,06,195,44,178,47,194,22,144,23,8*67
$GLGSV,1,1,03,79,25,056,31,69,22,046,38,86,14,327,16,1*4F
$GAGSV,2,1,05,13,66,279,22,08,56,359,31,15,44,172,43,03,21,049,21,7*74
$GAGSV,2,2,05,02,17,106,,7*45
$GAGSV,1,1,03,08,56,359,35,15,44,172,41,03,21,049,29,1*47
$GBGSV,3,1,10,38,76,041,41,39,73,239,36,16,64,224,43,06,62,223,41,1*7E
$GBGSV,3,2,10,20,48,031,42,09,45,218,39,46,43,143,40,19,39,318,13,1*78
$GBGSV,3,3,10,29,36,230,32,37,33,069,32,1*73
$GBGSV,2,1,06,38,76,041,42,39,73,239,40,20,48,031,44,46,43,143,37,4*76
$GBGSV,2,2,06,29,36,230,33,37,33,069,34,4*76
$GNGGA,103130.000,2500.7905612,N,12132.4766677,E,2,34,0.93,14.622,M,15.25,M,6,3335*43
$GNRMC,103130.000,A,2500.7905612,N,12132.4766677,E,0.00,333.36,260623,,,D,V*05
$GPHDT,,T*1B
$GNGGA,103130.200,2500.7905612,N,12132.4766677,E,2,34,0.93,14.622,M,15.25,M,6,3335*41
$GNRMC,103130.200,A,2500.7905612,N,12132.4766677,E,0.00,333.36,260623,,,D,V*07
$GPHDT,,T*1B
$GNGGA,103130.400,2500.7905612,N,12132.4766677,E,2,34,0.92,14.621,M,15.25,M,6,3335*45
$GNRMC,103130.400,A,2500.7905612,N,12132.4766677,E,0.00,333.36,260623,,,D,V*01
$GPHDT,,T*1B
$GNGGA,103130.600,2500.7905612,N,12132.4766677,E,2,34,0.93,14.620,M,15.25,M,6,3335*47
$GNRMC,103130.600,A,2500.7905612,N,12132.4766677,E,0.00,333.36,260623,,,D,V*03
$GPHDT,,T*1B
$GNGGA,103130.800,2500.7905612,N,12132.4766677,E,2,34,0.93,14.620,M,15.25,M,6,3335*49
$GNRMC,103130.800,A,2500.7905612,N,12132.4766677,E,0.00,333.36,260623,,,D,V*0D
$GPHDT,,T*1B
$GNGSA,A,3,196,24,199,15,195,05,13,,,,,,1.66,0.93,1.38,1*37
$GNGSA,A,3,79,69,,,,,,,,,,,1.66,0.93,1.38,2*02
$GNGSA,A,3,08,15,03,,,,,,,,,,1.66,0.93,1.38,3*0D
$GNGSA,A,3,38,39,16,06,20,09,46,29,37,,,,1.66,0.93,1.38,4*03
$GPGSV,3,1,10,196,73,053,42,24,72,165,45,199,60,167,37,18,56,300,22,1*67
$GPGSV,3,2,10,15,51,018,46,45,47,231,34,195,44,178,44,05,34,094,44,1*56
$GPGSV,3,3,10,13,25,041,42,194,22,144,24,1*58
$GPGSV,2,1,06,196,73,053,44,24,72,165,48,199,60,167,44,18,56,300,25,8*60
$GPGSV,2,2,06,195,44,178,47,194,22,144,21,8*65
$GLGSV,1,1,03,79,25,056,30,69,22,046,38,86,14,327,16,1*4E
$GAGSV,2,1,05,13,66,279,21,08,56,359,31,15,44,172,42,03,21,049,19,7*7D
$GAGSV,2,2,05,02,17,106,,7*45
$GAGSV,1,1,03,08,56,359,35,15,44,172,41,03,21,049,27,1*49
$GBGSV,3,1,10,38,76,041,41,39,73,239,36,16,64,224,43,06,62,223,41,1*7E
$GBGSV,3,2,10,20,48,031,42,09,45,218,39,46,43,143,40,19,39,318,14,1*7F
$GBGSV,3,3,10,29,36,230,31,37,33,069,31,1*73
$GBGSV,2,1,06,38,76,041,42,39,73,239,40,20,48,031,44,46,43,143,37,4*76
$GBGSV,2,2,06,29,36,230,33,37,33,069,34,4*76
$GNGGA,103131.000,2500.7905612,N,12132.4766677,E,2,34,0.93,14.620,M,15.25,M,7,3335*41
$GNRMC,103131.000,A,2500.7905612,N,12132.4766677,E,0.00,333.36,260623,,,D,V*04
$GPHDT,,T*1B
$GNGGA,103131.200,2500.7905672,N,12132.4766677,E,2,34,0.93,14.620,M,15.25,M,7,3335*45
$GNRMC,103131.200,A,2500.7905672,N,12132.4766677,E,0.00,333.36,260623,,,D,V*00
$GPHDT,,T*1B
$GNGGA,103131.400,2500.7905672,N,12132.4766677,E,2,34,0.93,14.620,M,15.25,M,7,3335*43
$GNRMC,103131.400,A,2500.7905672,N,12132.4766677,E,0.00,333.36,260623,,,D,V*06
$GPHDT,,T*1B
$GNGGA,103131.600,2500.7905672,N,12132.4766737,E,2,34,0.93,14.619,M,15.25,M,7,3335*4E
$GNRMC,103131.600,A,2500.7905672,N,12132.4766737,E,0.00,333.36,260623,,,D,V*01
$GPHDT,,T*1B
$GNGGA,103131.800,2500.7905672,N,12132.4766737,E,2,34,0.93,14.619,M,15.25,M,7,3335*40
$GNRMC,103131.800,A,2500.7905672,N,12132.4766737,E,0.00,333.36,260623,,,D,V*0F
$GPHDT,,T*1B
$GNGSA,A,3,196,24,199,15,195,05,13,,,,,,1.66,0.93,1.38,1*37
$GNGSA,A,3,79,69,,,,,,,,,,,1.66,0.93,1.38,2*02
$GNGSA,A,3,08,15,03,,,,,,,,,,1.66,0.93,1.38,3*0D
$GNGSA,A,3,38,39,16,06,20,09,46,29,37,,,,1.66,0.93,1.38,4*03
$GPGSV,3,1,10,196,73,053,42,24,72,165,45,199,60,167,37,18,56,300,22,1*67
$GPGSV,3,2,10,15,51,018,46,45,47,231,34,195,44,178,44,05,33,095,42,1*56
$GPGSV,3,3,10,13,25,041,41,194,22,144,22,1*5D
$GPGSV,2,1,06,196,73,053,44,24,72,165,48,199,60,167,44,18,56,300,23,8*66
$GPGSV,2,2,06,195,44,178,47,194,22,144,21,8*65
$GLGSV,1,1,03,79,25,056,32,69,22,046,39,86,14,327,16,1*4D
$GAGSV,2,1,05,13,66,279,22,08,56,359,31,15,44,172,42,03,21,049,26,7*72
$GAGSV,2,2,05,02,17,106,,7*45
$GAGSV,1,1,03,08,56,359,35,15,44,172,41,03,21,049,30,1*4F
$GBGSV,3,1,11,38,76,041,41,39,73,239,37,16,64,224,43,06,62,223,41,1*7E
$GBGSV,3,2,11,20,48,031,43,09,45,218,39,46,43,143,40,19,39,318,16,1*7D
$GBGSV,3,3,11,29,36,230,30,37,33,069,31,32,11,079,,1*4C
$GBGSV,2,1,06,38,76,041,42,39,73,239,40,20,48,031,44,46,43,143,37,4*76
$GBGSV,2,2,06,29,36,230,33,37,33,069,35,4*77
$GNGGA,103132.000,2500.7905672,N,12132.4766737,E,2,34,0.93,14.619,M,15.25,M,8,3335*44
$GNRMC,103132.000,A,2500.7905672,N,12132.4766737,E,0.00,333.36,260623,,,D,V*04
$GPHDT,,T*1B
$GNGGA,103132.200,2500.7905672,N,12132.4766737,E,2,34,0.93,14.619,M,15.25,M,8,3335*46
$GNRMC,103132.200,A,2500.7905672,N,12132.4766737,E,0.00,333.36,260623,,,D,V*06
$GPHDT,,T*1B
$GNGGA,103132.400,2500.7905672,N,12132.4766737,E,2,34,0.93,14.619,M,15.25,M,8,3335*40
$GNRMC,103132.400,A,2500.7905672,N,12132.4766737,E,0.00,333.36,260623,,,D,V*00
$GPHDT,,T*1B
$GNGGA,103132.600,2500.7905672,N,12132.4766737,E,2,34,0.93,14.618,M,15.25,M,8,3335*43
$GNRMC,103132.600,A,2500.7905672,N,12132.4766737,E,0.00,333.36,260623,,,D,V*02
$GPHDT,,T*1B
$GNGGA,103132.800,2500.7905732,N,12132.4766737,E,2,34,0.93,14.618,M,15.25,M,8,3335*48
$GNRMC,103132.800,A,2500.7905732,N,12132.4766737,E,0.00,333.36,260623,,,D,V*09
$GPHDT,,T*1B
$GNGSA,A,3,196,24,199,15,195,05,13,,,,,,1.66,0.93,1.38,1*37
$GNGSA,A,3,79,69,,,,,,,,,,,1.66,0.93,1.38,2*02
$GNGSA,A,3,08,15,03,,,,,,,,,,1.66,0.93,1.38,3*0D
$GNGSA,A,3,38,39,16,06,20,09,46,29,37,,,,1.66,0.93,1.38,4*03
$GPGSV,3,1,10,196,73,053,42,24,72,165,45,199,60,167,37,18,56,300,23,1*66
$GPGSV,3,2,10,15,51,018,46,45,47,231,34,195,44,178,44,05,33,095,42,1*56
$GPGSV,3,3,10,13,25,041,41,194,22,144,20,1*5F
$GPGSV,2,1,06,196,73,053,44,24,72,165,48,199,60,167,44,18,56,300,24,8*61
$GPGSV,2,2,06,195,44,178,47,194,22,144,20,8*64
$GLGSV,1,1,03,79,25,056,32,69,22,046,39,86,14,327,15,1*4E
$GAGSV,2,1,05,13,66,279,20,08,56,359,31,15,44,172,42,03,21,049,27,7*71
$GAGSV,2,2,05,02,17,106,,7*45
$GAGSV,1,1,03,08,56,359,35,15,44,172,41,03,21,049,30,1*4F
$GBGSV,3,1,11,38,76,041,41,39,73,239,37,16,64,224,43,06,62,223,41,1*7E
$GBGSV,3,2,11,20,48,031,43,09,45,218,39,46,43,143,39,19,39,318,17,1*72
$GBGSV,3,3,11,29,36,230,28,37,33,069,30,36,13,188,,1*4D
$GBGSV,2,1,06,38,76,041,42,39,73,239,40,20,48,031,44,46,43,143,37,4*76
$GBGSV,2,2,06,29,36,230,33,37,33,069,35,4*77
$GNGGA,103133.000,2500.7905732,N,12132.4766797,E,2,34,0.93,14.618,M,15.25,M,9,3335*4A
$GNRMC,103133.000,A,2500.7905732,N,12132.4766797,E,0.01,333.36,260623,,,D,V*0B
$GPHDT,,T*1B
$GNGGA,103133.200,2500.7905732,N,12132.4766797,E,2,34,0.93,14.617,M,15.25,M,9,3335*47
$GNRMC,103133.200,A,2500.7905732,N,12132.4766797,E,0.00,333.36,260623,,,D,V*08
$GPHDT,,T*1B
$GNGGA,103133.400,2500.7905732,N,12132.4766797,E,2,34,0.93,14.617,M,15.25,M,9,3335*41
$GNRMC,103133.400,A,2500.7905732,N,12132.4766797,E,0.00,333.36,260623,,,D,V*0E
$GPHDT,,T*1B
$GNGGA,103133.600,2500.7905732,N,12132.4766797,E,2,34,0.93,14.616,M,15.25,M,9,3335*42
$GNRMC,103133.600,A,2500.7905732,N,12132.4766797,E,0.00,333.36,260623,,,D,V*0C
$GPHDT,,T*1B
$GNGGA,103133.800,2500.7905732,N,12132.4766797,E,2,34,0.93,14.615,M,15.25,M,9,3335*4F
$GNRMC,103133.800,A,2500.7905732,N,12132.4766797,E,0.00,333.36,260623,,,D,V*02
$GPHDT,,T*1B
$GNGSA,A,3,196,24,199,15,195,05,13,,,,,,1.66,0.93,1.38,1*37
$GNGSA,A,3,79,69,,,,,,,,,,,1.66,0.93,1.38,2*02
$GNGSA,A,3,08,15,03,,,,,,,,,,1.66,0.93,1.38,3*0D
$GNGSA,A,3,38,39,16,06,20,09,46,29,37,,,,1.66,0.93,1.38,4*03
$GPGSV,3,1,10,196,73,053,42,24,72,165,45,199,60,167,37,18,56,300,23,1*66
$GPGSV,3,2,10,15,50,018,46,45,47,231,34,195,44,178,44,05,33,095,41,1*54
$GPGSV,3,3,10,13,25,041,40,194,22,144,24,1*5A
$GPGSV,2,1,06,196,73,053,44,24,72,165,48,199,60,167,44,18,56,300,25,8*60
$GPGSV,2,2,06,195,44,178,47,194,22,144,20,8*64
$GLGSV,1,1,03,79,25,056,31,69,22,046,39,86,14,327,14,1*4C
$GAGSV,2,1,05,13,66,279,20,08,56,359,30,15,44,172,42,03,21,049,27,7*70
$GAGSV,2,2,05,02,17,106,,7*45
$GAGSV,1,1,03,08,56,359,35,15,44,172,41,03,21,049,31,1*4E
$GBGSV,3,1,11,38,76,041,41,39,73,239,37,16,64,224,43,06,62,223,41,1*7E
$GBGSV,3,2,11,20,48,031,43,09,45,218,39,46,43,143,39,19,39,318,22,1*74
$GBGSV,3,3,11,29,36,230,28,37,33,069,29,36,13,188,,1*45
$GBGSV,2,1,06,38,76,041,43,39,73,239,40,20,48,031,44,46,43,143,37,4*77
$GBGSV,2,2,06,29,36,230,33,37,33,069,36,4*74
$GNGGA,103134.000,2500.7905732,N,12132.4766857,E,2,34,0.93,14.614,M,15.25,M,10,3335*7A
$GNRMC,103134.000,A,2500.7905732,N,12132.4766857,E,0.00,333.36,260623,,,D,V*0E
$GPHDT,,T*1B
$GNGGA,103134.200,2500.7905732,N,12132.4766857,E,2,34,0.93,14.613,M,15.25,M,10,3335*7F
$GNRMC,103134.200,A,2500.7905732,N,12132.4766857,E,0.00,333.36,260623,,,D,V*0C
$GPHDT,,T*1B
$GNGGA,103134.400,2500.7905732,N,12132.4766857,E,2,34,0.93,14.612,M,15.25,M,10,3335*78
$GNRMC,103134.400,A,2500.7905732,N,12132.4766857,E,0.00,333.36,260623,,,D,V*0A
$GPHDT,,T*1B
$GNGGA,103134.600,2500.7905732,N,12132.4766857,E,2,34,0.93,14.611,M,15.25,M,10,3335*79
$GNRMC,103134.600,A,2500.7905732,N,12132.4766857,E,0.00,333.36,260623,,,D,V*08
$GPHDT,,T*1B
$GNGGA,103134.800,2500.7905732,N,12132.4766857,E,2,34,0.93,14.610,M,15.25,M,10,3335*76
$GNRMC,103134.800,A,2500.7905732,N,12132.4766857,E,0.00,333.36,260623,,,D,V*06
$GPHDT,,T*1B
$GNGSA,A,3,196,24,199,15,195,05,13,,,,,,1.66,0.93,1.38,1*37
$GNGSA,A,3,79,69,,,,,,,,,,,1.66,0.93,1.38,2*02
$GNGSA,A,3,08,15,03,,,,,,,,,,1.66,0.93,1.38,3*0D
$GNGSA,A,3,38,39,16,06,20,09,46,29,37,,,,1.66,0.93,1.38,4*03
$GPGSV,3,1,10,196,73,053,42,24,72,165,45,199,60,167,37,18,56,300,24,1*61
$GPGSV,3,2,10,15,50,018,46,45,47,231,34,195,44,178,44,05,33,095,40,1*55
$GPGSV,3,3,10,13,25,041,40,194,22,144,23,1*5D
$GPGSV,2,1,06,196,73,053,44,24,72,165,48,199,60,167,44,18,56,300,23,8*66
$GPGSV,2,2,06,195,44,178,47,194,22,144,19,8*6E
$GLGSV,1,1,03,79,25,056,31,69,22,046,39,86,14,327,12,1*4A
$GAGSV,2,1,05,13,66,279,20,08,56,359,29,15,44,172,42,03,21,049,28,7*77
$GAGSV,2,2,05,02,17,106,,7*45
$GAGSV,1,1,03,08,56,359,34,15,44,172,41,03,21,049,31,1*4F
$GBGSV,3,1,10,38,76,041,41,39,73,239,37,16,64,224,43,06,62,223,41,1*7F
$GBGSV,3,2,10,20,48,031,44,09,45,218,39,46,43,143,39,19,39,318,24,1*74
$GBGSV,3,3,10,29,36,230,30,37,33,069,27,1*75
$GBGSV,2,1,06,38,76,041,43,39,73,239,40,20,48,031,44,46,43,143,38,4*78
$GBGSV,2,2,06,29,36,230,32,37,33,069,36,4*75
$GNGGA,103135.000,2500.7905792,N,12132.4766857,E,2,34,0.93,14.610,M,15.25,M,11,3335*74
$GNRMC,103135.000,A,2500.7905792,N,12132.4766857,E,0.00,333.36,260623,,,D,V*05
$GPHDT,,T*1B
$GNGGA,103135.200,2500.7905792,N,12132.4766857,E,2,34,0.93,14.609,M,15.25,M,11,3335*7E
$GNRMC,103135.200,A,2500.7905792,N,12132.4766857,E,0.00,333.36,260623,,,D,V*07
$GPHDT,,T*1B
$GNGGA,103135.400,2500.7905792,N,12132.4766857,E,2,34,0.93,14.608,M,15.25,M,9,3335*40
$GNRMC,103135.400,A,2500.7905792,N,12132.4766857,E,0.00,333.36,260623,,,D,V*01
$GPHDT,,T*1B
$GNGGA,103135.600,2500.7905792,N,12132.4766857,E,2,34,0.93,14.608,M,15.25,M,7,3335*4C
$GNRMC,103135.600,A,2500.7905792,N,12132.4766857,E,0.00,333.36,260623,,,D,V*03
$GPHDT,,T*1B
$GNGGA,103135.800,2500.7905792,N,12132.4766857,E,2,34,0.93,14.608,M,15.25,M,6,3335*43
$GNRMC,103135.800,A,2500.7905792,N,12132.4766857,E,0.00,333.36,260623,,,D,V*0D
$GPHDT,,T*1B
$GNGSA,A,3,24,196,199,15,195,05,13,,,,,,1.66,0.93,1.38,1*37
$GNGSA,A,3,79,69,,,,,,,,,,,1.66,0.93,1.38,2*02
$GNGSA,A,3,08,15,03,,,,,,,,,,1.66,0.93,1.38,3*0D
$GNGSA,A,3,38,39,16,06,20,09,46,29,37,,,,1.66,0.93,1.38,4*03
$GPGSV,3,1,10,24,73,164,45,196,73,053,42,199,60,167,37,18,56,300,23,1*66
$GPGSV,3,2,10,15,50,018,46,45,47,231,34,195,44,178,44,05,33,095,40,1*55
$GPGSV,3,3,10,13,25,041,40,194,22,144,22,1*5C
$GPGSV,2,1,06,196,73,053,44,24,73,164,48,199,60,167,44,18,56,300,23,8*66
$GPGSV,2,2,06,195,44,178,47,194,22,144,18,8*6F
$GLGSV,1,1,03,79,25,056,32,69,22,046,39,86,14,327,15,1*4E
$GAGSV,2,1,05,13,66,279,20,08,56,359,29,15,44,172,42,03,21,049,28,7*77
$GAGSV,2,2,05,02,17,106,,7*45
$GAGSV,1,1,03,08,56,359,33,15,44,172,41,03,21,049,31,1*48
$GBGSV,3,1,10,38,76,041,41,39,73,239,37,16,64,224,43,06,62,223,41,1*7F
$GBGSV,3,2,10,20,48,031,44,09,45,218,39,46,43,143,39,19,39,318,25,1*75
$GBGSV,3,3,10,29,36,230,30,37,33,069,24,1*76
$GBGSV,2,1,06,38,76,041,43,39,73,239,40,20,48,031,44,46,43,143,38,4*78
$GBGSV,2,2,06,29,36,230,32,37,33,069,36,4*75
$GNGGA,103136.000,2500.7905792,N,12132.4766857,E,2,34,0.93,14.608,M,15.25,M,5,3335*4B
$GNRMC,103136.000,A,2500.7905792,N,12132.4766857,E,0.00,333.36,260623,,,D,V*06
$GPHDT,,T*1B
$GNGGA,103136.200,2500.7905852,N,12132.4766917,E,2,34,0.93,14.609,M,15.25,M,3,3335*48
$GNRMC,103136.200,A,2500.7905852,N,12132.4766917,E,0.02,333.36,260623,,,D,V*00
$GPHDT,,T*1B
$GNGGA,103136.400,2500.7905912,N,12132.4766917,E,2,34,0.93,14.608,M,15.25,M,1,3335*48
$GNRMC,103136.400,A,2500.7905912,N,12132.4766917,E,0.02,333.36,260623,,,D,V*03
$GPHDT,,T*1B
$GNGGA,103136.600,2500.7905912,N,12132.4766917,E,2,34,0.93,14.608,M,15.25,M,1,3335*4A
$GNRMC,103136.600,A,2500.7905912,N,12132.4766917,E,0.00,333.36,260623,,,D,V*03
