$FW : RTK35X,V1.1X0314AS,Lib20210517,1*54
$Tool : LOCOSYS , GNSS Firebird , v1.0.0.19*39
$---------------------------------------------------*2D
$GPHDT,,T*1B
$GNGGA,102750.600,2500.7936600,N,12132.4789800,E,2,43,0.58,24.18,M,15.25,M,1,3335*74
$GNRMC,102750.600,A,2500.7936600,N,12132.4789800,E,0.06,84.21,260623,,,D,V*31
$GPHDT,,T*1B
$GNGGA,102750.800,2500.7936600,N,12132.4789800,E,2,42,0.58,24.18,M,15.25,M,1,3335*7B
$GNRMC,102750.800,A,2500.7936600,N,12132.4789800,E,0.08,84.21,260623,,,D,V*31
$GPHDT,,T*1B
$GNGSA,A,3,196,24,199,18,15,195,05,23,13,194,,,0.95,0.58,0.75,1*01
$GNGSA,A,3,84,80,79,69,,,,,,,,,0.95,0.58,0.75,2*04
$GNGSA,A,3,13,08,15,07,03,,,,,,,,0.95,0.58,0.75,3*0A
$GNGSA,A,3,38,39,06,20,09,46,29,37,,,,,0.95,0.58,0.75,4*06
$GPGSV,4,1,13,196,73,052,41,24,71,167,39,50,60,167,35,199,60,167,33,1*63
$GPGSV,4,2,13,18,55,302,21,15,51,016,45,195,45,178,47,05,34,093,40,1*50
$GPGSV,4,3,13,23,29,321,29,13,26,040,40,194,22,145,15,29,15,216,21,1*57
$GPGSV,4,4,13,10,01,304,,1*51
$GPGSV,2,1,07,196,73,052,44,24,71,167,45,199,60,167,41,18,55,302,23,8*6E
$GPGSV,2,2,07,195,45,178,45,23,29,321,23,194,22,145,27,8*5B
$GLGSV,1,1,04,84,37,201,21,80,35,120,42,79,25,058,31,69,23,044,41,1*72
$GAGSV,2,1,08,13,66,283,26,08,57,357,35,15,46,172,41,07,38,274,22,7*70
$GAGSV,2,2,08,03,22,048,37,26,18,321,,30,10,158,,25,05,062,,7*75
$GAGSV,1,1,04,13,66,283,26,08,57,357,39,15,46,172,44,03,22,048,40,1*76
$GBGSV,2,1,08,38,75,040,39,39,72,235,37,06,61,221,42,20,48,029,43,1*71
$GBGSV,2,2,08,09,44,217,25,46,41,145,29,29,37,232,27,37,33,071,37,1*77
$GBGSV,2,1,06,38,75,040,41,39,72,235,42,20,48,029,46,46,41,145,32,4*72
$GBGSV,2,2,06,29,37,232,20,37,33,071,41,4*7C
$GNGGA,102751.000,2500.7936600,N,12132.4789900,E,2,43,0.58,24.18,M,15.25,M,2,3335*71
$GNRMC,102751.000,A,2500.7936600,N,12132.4789900,E,0.02,84.21,260623,,,D,V*33
$GPHDT,,T*1B
$GNGGA,102751.200,2500.7936600,N,12132.4789900,E,2,43,0.58,24.18,M,15.25,M,2,3335*73
$GNRMC,102751.200,A,2500.7936600,N,12132.4789900,E,0.01,84.21,260623,,,D,V*32
$GPHDT,,T*1B
$GNGGA,102751.400,2500.7936600,N,12132.4789900,E,2,43,0.58,24.18,M,15.25,M,2,3335*75
$GNRMC,102751.400,A,2500.7936600,N,12132.4789900,E,0.01,84.21,260623,,,D,V*34
$GPHDT,,T*1B
$GNGGA,102751.600,2500.7936600,N,12132.4789900,E,2,43,0.58,24.19,M,15.25,M,2,3335*76
$GNRMC,102751.600,A,2500.7936600,N,12132.4789900,E,0.01,84.21,260623,,,D,V*36
$GPHDT,,T*1B
$GNGGA,102751.800,2500.7936600,N,12132.4789900,E,2,43,0.58,24.19,M,15.25,M,2,3335*78
$GNRMC,102751.800,A,2500.7936600,N,12132.4789900,E,0.09,84.21,260623,,,D,V*30
$GPHDT,,T*1B
$GNGSA,A,3,196,24,199,18,15,195,05,23,13,194,,,0.95,0.58,0.75,1*01
$GNGSA,A,3,84,80,79,69,,,,,,,,,0.95,0.58,0.75,2*04
$GNGSA,A,3,13,08,15,07,03,,,,,,,,0.95,0.58,0.75,3*0A
$GNGSA,A,3,38,39,06,20,09,46,29,37,,,,,0.95,0.58,0.75,4*06
$GPGSV,4,1,13,196,73,052,41,24,71,167,38,50,60,167,32,199,60,167,30,1*66
$GPGSV,4,2,13,18,55,302,21,15,51,016,45,195,45,178,47,05,34,093,41,1*51
$GPGSV,4,3,13,23,29,321,29,13,26,040,40,194,22,145,13,29,15,216,20,1*50
$GPGSV,4,4,13,10,01,304,,1*51
$GPGSV,2,1,07,196,73,052,44,24,71,167,45,199,60,167,40,18,55,302,22,8*6E
$GPGSV,2,2,07,195,45,178,44,23,29,321,22,194,22,145,27,8*5B
$GLGSV,1,1,04,84,37,201,20,80,35,120,42,79,25,058,32,69,23,044,41,1*70
$GAGSV,2,1,08,13,66,283,26,08,57,357,35,15,46,172,40,07,38,274,21,7*72
$GAGSV,2,2,08,03,22,048,37,26,18,321,,30,10,158,,25,05,062,,7*75
$GAGSV,1,1,04,13,66,283,27,08,57,357,38,15,46,172,43,03,22,048,40,1*71
$GBGSV,2,1,08,38,75,040,40,39,72,235,38,06,61,221,42,20,48,029,43,1*70
$GBGSV,2,2,08,09,44,217,25,46,41,145,32,29,37,232,29,37,33,071,37,1*73
$GBGSV,2,1,06,38,75,040,41,39,72,235,42,20,48,029,46,46,41,145,33,4*73
$GBGSV,2,2,06,29,37,232,19,37,33,071,41,4*76
$GNGGA,102752.000,2500.7936600,N,12132.4789900,E,2,43,0.58,24.19,M,15.25,M,3,3335*72
$GNRMC,102752.000,A,2500.7936600,N,12132.4789900,E,0.05,84.21,260623,,,D,V*37
$GPHDT,,T*1B
$GNGGA,102752.200,2500.7936600,N,12132.4789900,E,2,43,0.58,24.18,M,15.25,M,3,3335*71
$GNRMC,102752.200,A,2500.7936600,N,12132.4789900,E,0.05,84.21,260623,,,D,V*35
$GPHDT,,T*1B
$GNGGA,102752.400,2500.7936600,N,12132.4789900,E,2,43,0.58,24.18,M,15.25,M,3,3335*77
$GNRMC,102752.400,A,2500.7936600,N,12132.4789900,E,0.03,84.21,260623,,,D,V*35
$GPHDT,,T*1B
$GNGGA,102752.600,2500.7936600,N,12132.4790000,E,2,43,0.58,24.18,M,15.25,M,3,3335*74
$GNRMC,102752.600,A,2500.7936600,N,12132.4790000,E,0.02,84.21,260623,,,D,V*37
$GPHDT,,T*1B
$GNGGA,102752.800,2500.7936600,N,12132.4790000,E,2,43,0.58,24.18,M,15.25,M,3,3335*7A
$GNRMC,102752.800,A,2500.7936600,N,12132.4790000,E,0.14,84.21,260623,,,D,V*3E
$GPHDT,,T*1B
$GNGSA,A,3,196,24,199,18,15,195,05,23,13,194,,,0.95,0.58,0.75,1*01
$GNGSA,A,3,84,80,79,69,,,,,,,,,0.95,0.58,0.75,2*04
$GNGSA,A,3,13,08,15,07,03,,,,,,,,0.95,0.58,0.75,3*0A
$GNGSA,A,3,38,39,06,20,09,46,29,37,,,,,0.95,0.58,0.75,4*06
$GPGSV,4,1,13,196,73,052,41,24,71,167,41,50,60,167,35,199,60,167,32,1*6D
$GPGSV,4,2,13,18,55,302,18,15,51,016,45,195,45,178,46,05,34,093,41,1*5A
$GPGSV,4,3,13,23,29,321,28,13,26,040,40,194,22,145,15,29,15,216,18,1*5C
$GPGSV,4,4,13,10,01,304,,1*51
$GPGSV,2,1,07,196,73,052,44,24,71,167,47,199,60,167,43,18,55,302,22,8*6F
$GPGSV,2,2,07,195,45,178,42,23,29,321,22,194,22,145,27,8*5D
$GLGSV,1,1,04,84,37,201,19,80,35,120,42,79,25,058,29,69,23,044,41,1*70
$GAGSV,2,1,08,13,66,283,27,08,57,357,35,15,46,172,39,07,38,274,21,7*7D
$GAGSV,2,2,08,03,22,048,37,26,18,321,,30,10,158,,25,05,062,,7*75
$GAGSV,1,1,04,13,66,283,27,08,57,357,38,15,46,172,42,03,22,048,40,1*70
$GBGSV,2,1,08,38,75,040,40,39,72,235,37,06,61,221,42,20,48,029,43,1*7F
$GBGSV,2,2,08,09,44,217,26,46,41,145,33,29,37,232,31,37,33,071,38,1*77
$GBGSV,2,1,06,38,75,040,41,39,72,235,41,20,48,029,46,46,41,145,35,4*76
$GBGSV,2,2,06,29,37,232,20,37,33,071,40,4*7D
$GNGGA,102753.000,2500.7936600,N,12132.4790000,E,2,43,0.58,24.18,M,15.25,M,4,3335*74
$GNRMC,102753.000,A,2500.7936600,N,12132.4790000,E,0.12,84.21,260623,,,D,V*31
$GPHDT,,T*1B
$GNGGA,102753.200,2500.7936600,N,12132.4790000,E,2,43,0.58,24.18,M,15.25,M,4,3335*76
$GNRMC,102753.200,A,2500.7936600,N,12132.4790000,E,0.08,84.21,260623,,,D,V*38
$GPHDT,,T*1B
$GNGGA,102753.400,2500.7936600,N,12132.4790000,E,2,43,0.58,24.18,M,15.25,M,4,3335*70
$GNRMC,102753.400,A,2500.7936600,N,12132.4790000,E,0.08,84.21,260623,,,D,V*3E
$GPHDT,,T*1B
$GNGGA,102753.600,2500.7936600,N,12132.4790100,E,2,43,0.58,24.19,M,15.25,M,4,3335*72
$GNRMC,102753.600,A,2500.7936600,N,12132.4790100,E,0.07,84.21,260623,,,D,V*32
$GPHDT,,T*1B
$GNGGA,102753.800,2500.7936500,N,12132.4790100,E,2,43,0.58,24.19,M,15.25,M,4,3335*7F
$GNRMC,102753.800,A,2500.7936500,N,12132.4790100,E,0.07,84.21,260623,,,D,V*3F
$GPHDT,,T*1B
$GNGSA,A,3,196,24,199,18,15,195,05,23,13,194,,,0.95,0.58,0.75,1*01
$GNGSA,A,3,84,80,79,69,,,,,,,,,0.95,0.58,0.75,2*04
$GNGSA,A,3,13,08,15,07,03,,,,,,,,0.95,0.58,0.75,3*0A
$GNGSA,A,3,38,39,06,20,09,46,29,37,,,,,0.95,0.58,0.75,4*06
$GPGSV,4,1,13,196,73,052,41,24,71,167,42,50,60,167,38,199,60,167,35,1*64
$GPGSV,4,2,13,18,55,302,18,15,51,016,45,195,45,178,46,05,34,093,40,1*5B
$GPGSV,4,3,13,23,29,321,27,13,26,040,40,194,22,145,13,29,15,216,17,1*5A
$GPGSV,4,4,13,10,01,304,,1*51
$GPGSV,2,1,06,196,73,052,44,24,71,167,48,199,60,167,43,195,45,178,43,8*5C
$GPGSV,2,2,06,23,29,321,22,194,22,145,27,8*58
$GLGSV,1,1,04,84,37,201,19,80,35,120,42,79,25,058,26,69,23,044,41,1*7F
$GAGSV,2,1,07,13,66,283,26,08,57,357,34,15,46,172,39,07,38,274,21,7*72
$GAGSV,2,2,07,03,22,048,37,30,10,158,,25,05,062,,7*47
$GAGSV,1,1,04,13,66,283,28,08,57,357,38,15,46,172,43,03,22,048,40,1*7E
$GBGSV,2,1,08,38,75,040,40,39,72,235,37,06,61,221,42,20,48,029,43,1*7F
$GBGSV,2,2,08,09,44,217,28,46,41,145,35,29,37,232,32,37,33,071,38,1*7C
$GBGSV,2,1,06,38,75,040,41,39,72,235,41,20,48,029,46,46,41,145,35,4*76
$GBGSV,2,2,06,29,37,232,20,37,33,071,40,4*7D
$GNGGA,102754.000,2500.7936500,N,12132.4790100,E,2,42,0.58,24.19,M,15.25,M,5,3335*70
$GNRMC,102754.000,A,2500.7936500,N,12132.4790100,E,0.06,84.21,260623,,,D,V*31
$GPHDT,,T*1B
$GNGGA,102754.200,2500.7936500,N,12132.4790100,E,2,42,0.58,24.19,M,15.25,M,5,3335*72
$GNRMC,102754.200,A,2500.7936500,N,12132.4790100,E,0.06,84.21,260623,,,D,V*33
$GPHDT,,T*1B
$GNGGA,102754.400,2500.7936500,N,12132.4790100,E,2,43,0.58,24.19,M,15.25,M,5,3335*75
$GNRMC,102754.400,A,2500.7936500,N,12132.4790100,E,0.06,84.21,260623,,,D,V*35
$GPHDT,,T*1B
$GNGGA,102754.600,2500.7936500,N,12132.4790100,E,2,43,0.58,24.19,M,15.25,M,5,3335*77
$GNRMC,102754.600,A,2500.7936500,N,12132.4790100,E,0.04,84.21,260623,,,D,V*35
$GPHDT,,T*1B
$GNGGA,102754.800,2500.7936500,N,12132.4790200,E,2,43,0.58,24.19,M,15.25,M,5,3335*7A
$GNRMC,102754.800,A,2500.7936500,N,12132.4790200,E,0.04,84.21,260623,,,D,V*38
$GPHDT,,T*1B
$GNGSA,A,3,196,24,199,18,15,195,05,23,13,194,,,0.95,0.58,0.75,1*01
$GNGSA,A,3,84,80,79,69,,,,,,,,,0.95,0.58,0.75,2*04
$GNGSA,A,3,13,08,15,07,03,,,,,,,,0.95,0.58,0.75,3*0A
$GNGSA,A,3,38,39,06,20,09,46,29,37,,,,,0.95,0.58,0.75,4*06
$GPGSV,4,1,13,196,73,052,41,24,71,167,43,50,60,167,39,199,60,167,37,1*66
$GPGSV,4,2,13,18,55,302,19,15,51,016,45,195,45,178,47,05,34,093,41,1*5A
$GPGSV,4,3,13,23,29,321,26,13,26,040,41,194,22,145,16,29,15,216,16,1*5E
$GPGSV,4,4,13,10,01,304,,1*51
$GPGSV,2,1,07,196,73,052,44,24,71,167,48,199,60,167,43,18,55,302,20,8*62
$GPGSV,2,2,07,195,45,178,44,23,29,321,22,194,22,145,28,8*54
$GLGSV,1,1,04,84,37,201,18,80,35,120,38,79,25,058,28,69,23,044,41,1*7D
$GAGSV,2,1,07,13,66,283,23,08,57,357,34,15,46,172,42,07,38,274,22,7*78
$GAGSV,2,2,07,03,22,048,37,30,10,158,,25,05,062,,7*47
$GAGSV,1,1,04,13,66,283,28,08,57,357,38,15,46,172,45,03,22,048,40,1*78
$GBGSV,3,1,09,38,75,040,40,39,72,235,37,06,61,221,42,20,48,029,43,1*7F
$GBGSV,3,2,09,09,44,217,22,46,41,145,32,29,37,232,30,37,33,071,40,1*7C
$GBGSV,3,3,09,30,12,179,,1*40
$GBGSV,2,1,06,38,75,040,41,39,72,235,41,20,48,029,46,46,41,145,36,4*75
$GBGSV,2,2,06,29,37,232,19,37,33,071,41,4*76
$GNGGA,102755.000,2500.7936500,N,12132.4790200,E,2,43,0.58,24.19,M,15.25,M,6,3335*70
$GNRMC,102755.000,A,2500.7936500,N,12132.4790200,E,0.03,84.21,260623,,,D,V*36
$GPHDT,,T*1B
$GNGGA,102755.200,2500.7936500,N,12132.4790200,E,2,43,0.58,24.19,M,15.25,M,6,3335*72
$GNRMC,102755.200,A,2500.7936500,N,12132.4790200,E,0.03,84.21,260623,,,D,V*34
$GPHDT,,T*1B
$GNGGA,102755.400,2500.7936500,N,12132.4790200,E,2,43,0.58,24.20,M,15.25,M,6,3335*7E
$GNRMC,102755.400,A,2500.7936500,N,12132.4790200,E,0.02,84.21,260623,,,D,V*33
$GPHDT,,T*1B
$GNGGA,102755.600,2500.7936400,N,12132.4790200,E,2,43,0.58,24.20,M,15.25,M,6,3335*7D
$GNRMC,102755.600,A,2500.7936400,N,12132.4790200,E,0.03,84.21,260623,,,D,V*31
$GPHDT,,T*1B
$GNGGA,102755.800,2500.7936400,N,12132.4790200,E,2,43,0.58,24.20,M,15.25,M,4,3335*71
$GNRMC,102755.800,A,2500.7936400,N,12132.4790200,E,0.11,84.21,260623,,,D,V*3C
$GPHDT,,T*1B
$GNGSA,A,3,196,24,199,18,15,195,05,23,13,194,,,0.95,0.58,0.75,1*01
$GNGSA,A,3,84,80,79,69,,,,,,,,,0.95,0.58,0.75,2*04
$GNGSA,A,3,13,08,15,07,03,,,,,,,,0.95,0.58,0.75,3*0A
$GNGSA,A,3,38,39,06,20,09,46,29,37,,,,,0.95,0.58,0.75,4*06
$GPGSV,4,1,13,196,73,052,41,24,71,167,42,50,60,167,39,199,60,167,35,1*65
$GPGSV,4,2,13,18,55,302,21,15,51,016,45,195,45,178,47,05,34,093,39,1*5E
$GPGSV,4,3,13,23,29,321,26,13,26,040,41,194,22,145,17,29,15,216,17,1*5E
$GPGSV,4,4,13,10,01,304,,1*51
$GPGSV,2,1,07,196,73,052,44,24,71,167,48,199,60,167,44,18,55,302,19,8*6F
$GPGSV,2,2,07,195,45,178,45,23,29,321,22,194,22,145,28,8*55
$GLGSV,1,1,04,84,37,201,18,80,35,120,39,79,25,058,26,69,23,044,41,1*72
$GAGSV,2,1,07,13,66,283,23,08,57,357,33,15,46,172,42,07,38,274,21,7*7C
$GAGSV,2,2,07,03,22,048,37,30,10,158,,25,05,062,,7*47
$GAGSV,1,1,04,13,66,283,27,08,57,357,38,15,46,172,45,03,22,048,40,1*77
$GBGSV,3,1,09,38,75,040,40,39,72,235,37,06,61,221,42,20,48,029,43,1*7F
$GBGSV,3,2,09,09,44,217,23,46,41,145,31,29,37,232,31,37,33,071,39,1*71
$GBGSV,3,3,09,30,12,179,,1*40
$GBGSV,2,1,06,38,75,040,41,39,72,235,41,20,48,029,46,46,41,145,36,4*75
$GBGSV,2,2,06,29,37,232,17,37,33,071,40,4*79
$GNGGA,102756.000,2500.7936400,N,12132.4790200,E,2,43,0.58,24.20,M,15.25,M,4,3335*7A
$GNRMC,102756.000,A,2500.7936400,N,12132.4790200,E,0.04,84.21,260623,,,D,V*33
$GPHDT,,T*1B
$GNGGA,102756.200,2500.7936400,N,12132.4790300,E,2,43,0.58,24.20,M,15.25,M,1,3335*7C
$GNRMC,102756.200,A,2500.7936400,N,12132.4790300,E,0.06,84.21,260623,,,D,V*32
$GPHDT,,T*1B
$GNGGA,102756.400,2500.7936400,N,12132.4790300,E,2,43,0.58,24.20,M,15.25,M,1,3335*7A
$GNRMC,102756.400,A,2500.7936400,N,12132.4790300,E,0.08,84.21,260623,,,D,V*3A
$GPHDT,,T*1B
$GNGGA,102756.600,2500.7936400,N,12132.4790300,E,2,43,0.58,24.20,M,15.25,M,1,3335*78
$GNRMC,102756.600,A,2500.7936400,N,12132.4790300,E,0.09,84.21,260623,,,D,V*39
$GPHDT,,T*1B
$GNGGA,102756.800,2500.7936400,N,12132.4790300,E,2,43,0.58,24.20,M,15.25,M,0,3335*77
$GNRMC,102756.800,A,2500.7936400,N,12132.4790300,E,0.15,84.21,260623,,,D,V*3A
$GPHDT,,T*1B
$GNGSA,A,3,196,24,199,18,15,195,05,23,13,194,,,0.95,0.58,0.75,1*01
$GNGSA,A,3,84,80,79,69,,,,,,,,,0.95,0.58,0.75,2*04
$GNGSA,A,3,13,08,15,07,03,,,,,,,,0.95,0.58,0.75,3*0A
$GNGSA,A,3,38,39,06,20,09,46,29,37,,,,,0.95,0.58,0.75,4*06
$GPGSV,4,1,13,196,73,052,41,24,71,167,42,50,60,167,37,199,60,167,34,1*6A
$GPGSV,4,2,13,18,55,302,20,15,51,016,45,195,45,178,47,05,34,093,40,1*51
$GPGSV,4,3,13,23,29,321,27,13,26,040,41,194,22,145,16,29,15,216,17,1*5E
$GPGSV,4,4,13,10,01,304,,1*51
$GPGSV,2,1,07,196,73,052,44,24,71,167,48,199,60,167,44,18,55,302,18,8*6E
$GPGSV,2,2,07,195,45,178,44,23,29,321,22,194,22,145,27,8*5B
$GLGSV,1,1,04,84,37,201,18,80,35,120,42,79,25,058,26,69,23,044,41,1*7E
$GAGSV,2,1,07,13,66,283,25,08,57,357,33,15,46,172,40,07,38,274,21,7*78
$GAGSV,2,2,07,03,22,048,37,30,10,158,,25,05,062,,7*47
$GAGSV,1,1,04,13,66,283,27,08,57,357,38,15,46,172,43,03,22,048,40,1*71
$GBGSV,2,1,08,38,75,040,40,39,72,236,37,06,61,221,42,20,48,029,43,1*7C
$GBGSV,2,2,08,09,44,217,25,46,41,145,34,29,37,232,30,37,33,070,38,1*73
$GBGSV,2,1,06,38,75,040,41,39,72,236,41,20,48,029,46,46,41,145,34,4*74
$GBGSV,2,2,06,29,37,232,18,37,33,070,39,4*79
$GNGGA,102757.000,2500.7936400,N,12132.4790400,E,2,43,0.58,24.20,M,15.25,M,1,3335*78
$GNRMC,102757.000,A,2500.7936400,N,12132.4790400,E,0.13,84.21,260623,,,D,V*32
$GPHDT,,T*1B
$GNGGA,102757.200,2500.7936300,N,12132.4790400,E,2,43,0.58,24.21,M,15.25,M,1,3335*7C
$GNRMC,102757.200,A,2500.7936300,N,12132.4790400,E,0.13,84.21,260623,,,D,V*37
$GPHDT,,T*1B
$GNGGA,102757.400,2500.7936300,N,12132.4790400,E,2,43,0.58,24.21,M,15.25,M,1,3335*7A
$GNRMC,102757.400,A,2500.7936300,N,12132.4790400,E,0.11,84.21,260623,,,D,V*33
$GPHDT,,T*1B
$GNGGA,102757.600,2500.7936300,N,12132.4790500,E,2,43,0.58,24.21,M,15.25,M,0,3335*78
$GNRMC,102757.600,A,2500.7936300,N,12132.4790500,E,0.10,84.21,260623,,,D,V*31
$GPHDT,,T*1B
$GNGGA,102757.800,2500.7936300,N,12132.4790500,E,2,43,0.58,24.21,M,15.25,M,0,3335*76
$GNRMC,102757.800,A,2500.7936300,N,12132.4790500,E,0.19,84.21,260623,,,D,V*36
$GPHDT,,T*1B
$GNGSA,A,3,196,24,199,18,15,195,05,23,13,194,,,0.95,0.58,0.75,1*01
$GNGSA,A,3,84,80,79,69,,,,,,,,,0.95,0.58,0.75,2*04
$GNGSA,A,3,13,08,15,07,03,,,,,,,,0.95,0.58,0.75,3*0A
$GNGSA,A,3,38,39,06,20,09,46,29,37,,,,,0.95,0.58,0.75,4*06
$GPGSV,4,1,13,196,73,052,41,24,71,167,42,50,60,167,37,199,60,167,34,1*6A
$GPGSV,4,2,13,18,55,302,19,15,51,016,45,195,45,178,47,05,34,093,39,1*55
$GPGSV,4,3,13,23,29,321,27,13,26,040,41,194,22,145,14,29,15,216,17,1*5C
$GPGSV,4,4,13,10,01,304,,1*51
$GPGSV,2,1,07,196,73,052,44,24,71,167,48,199,60,167,44,18,55,302,20,8*65
$GPGSV,2,2,07,195,45,178,44,23,29,321,22,194,22,145,27,8*5B
$GLGSV,1,1,04,84,37,201,18,80,35,120,42,79,25,058,22,69,23,044,41,1*7A
$GAGSV,2,1,06,13,66,283,25,08,57,357,33,15,46,172,38,07,38,274,22,7*75
$GAGSV,2,2,06,03,22,048,37,25,05,062,,7*78
$GAGSV,1,1,04,13,66,283,27,08,57,357,38,15,46,172,42,03,22,048,40,1*70
$GBGSV,3,1,09,38,75,040,40,39,72,236,37,06,61,221,42,20,48,029,43,1*7C
$GBGSV,3,2,09,09,44,217,27,46,41,145,34,29,37,232,30,37,33,070,38,1*71
$GBGSV,3,3,09,35,23,295,,1*46
$GBGSV,2,1,06,38,75,040,41,39,72,236,41,20,48,029,46,46,41,145,35,4*75
$GBGSV,2,2,06,29,37,232,18,37,33,070,40,4*77
$GNGGA,102758.000,2500.7936300,N,12132.4790600,E,2,43,0.58,24.21,M,15.25,M,1,3335*73
$GNRMC,102758.000,A,2500.7936300,N,12132.4790600,E,0.14,84.21,260623,,,D,V*3F
$GPHDT,,T*1B
$GNGGA,102758.200,2500.7936300,N,12132.4790600,E,2,43,0.58,24.21,M,15.25,M,1,3335*71
$GNRMC,102758.200,A,2500.7936300,N,12132.4790600,E,0.11,84.21,260623,,,D,V*38
$GPHDT,,T*1B
$GNGGA,102758.400,2500.7936200,N,12132.4790700,E,2,43,0.58,24.21,M,15.25,M,1,3335*77
$GNRMC,102758.400,A,2500.7936200,N,12132.4790700,E,0.07,84.21,260623,,,D,V*39
$GPHDT,,T*1B
$GNGGA,102758.600,2500.7936200,N,12132.4790700,E,2,43,0.58,24.21,M,15.25,M,0,3335*74
$GNRMC,102758.600,A,2500.7936200,N,12132.4790700,E,0.04,84.21,260623,,,D,V*38
$GPHDT,,T*1B
$GNGGA,102758.800,2500.7936200,N,12132.4790700,E,2,43,0.58,24.21,M,15.25,M,0,3335*7A
$GNRMC,102758.800,A,2500.7936200,N,12132.4790700,E,0.13,84.21,260623,,,D,V*30
$GPHDT,,T*1B
$GNGSA,A,3,196,24,199,18,15,195,05,23,13,194,,,1.27,0.60,1.12,1*02
$GNGSA,A,3,84,80,79,69,,,,,,,,,1.27,0.60,1.12,2*07
$GNGSA,A,3,13,08,15,07,03,,,,,,,,1.27,0.60,1.12,3*09
$GNGSA,A,3,38,39,06,20,09,46,29,37,,,,,1.27,0.60,1.12,4*05
$GPGSV,4,1,13,196,73,052,41,24,71,167,40,50,60,167,37,199,60,167,34,1*68
$GPGSV,4,2,13,18,55,302,18,15,51,016,45,195,45,178,45,05,34,093,39,1*56
$GPGSV,4,3,13,23,29,321,27,13,26,040,41,194,22,145,15,29,15,216,17,1*5D
$GPGSV,4,4,13,10,01,304,,1*51
$GPGSV,2,1,07,196,73,052,44,24,71,167,48,199,60,167,43,18,55,302,19,8*68
$GPGSV,2,2,07,195,45,178,42,23,29,321,22,194,22,145,28,8*52
$GLGSV,1,1,04,84,37,201,18,80,35,120,42,79,25,058,19,69,23,044,41,1*72
$GAGSV,2,1,06,13,66,283,25,08,57,357,35,15,46,172,36,07,38,274,22,7*7D
$GAGSV,2,2,06,03,22,048,37,25,05,062,,7*78
$GAGSV,1,1,04,13,66,283,27,08,57,357,38,15,46,172,41,03,22,048,40,1*73
$GBGSV,2,1,08,38,75,040,40,39,72,236,36,06,61,221,42,20,48,029,43,1*7D
$GBGSV,2,2,08,09,44,217,28,46,42,145,34,29,37,232,33,37,33,070,38,1*7E
$GBGSV,2,1,06,38,75,040,41,39,72,236,41,20,48,029,46,46,42,145,34,4*77
$GBGSV,2,2,06,29,37,232,17,37,33,070,40,4*78
$GNGGA,102759.000,2500.7936200,N,12132.4790700,E,2,43,0.60,24.21,M,15.25,M,1,3335*79
$GNRMC,102759.000,A,2500.7936200,N,12132.4790700,E,0.02,84.21,260623,,,D,V*39
$GPHDT,,T*1B
$GNGGA,102759.200,2500.7936200,N,12132.4790700,E,2,43,0.60,24.21,M,15.25,M,1,3335*7B
$GNRMC,102759.200,A,2500.7936200,N,12132.4790700,E,0.02,84.21,260623,,,D,V*3B
$GPHDT,,T*1B
$GNGGA,102759.400,2500.7936200,N,12132.4790700,E,2,42,0.60,24.21,M,15.25,M,1,3335*7C
$GNRMC,102759.400,A,2500.7936200,N,12132.4790700,E,0.13,84.21,260623,,,D,V*3D
$GPHDT,,T*1B
$GNGGA,102759.600,2500.7936200,N,12132.4790700,E,2,42,0.60,24.21,M,15.25,M,0,3335*7F
$GNRMC,102759.600,A,2500.7936200,N,12132.4790700,E,0.09,84.21,260623,,,D,V*34
$GPHDT,,T*1B
$GNGGA,102759.800,2500.7936200,N,12132.4790700,E,2,42,0.60,24.21,M,15.25,M,0,3335*71
$GNRMC,102759.800,A,2500.7936200,N,12132.4790700,E,0.20,84.21,260623,,,D,V*31
$GPHDT,,T*1B
$GNGSA,A,3,196,24,199,18,15,195,05,23,13,194,,,1.27,0.60,1.12,1*02
$GNGSA,A,3,84,80,79,69,,,,,,,,,1.27,0.60,1.12,2*07
$GNGSA,A,3,13,08,15,07,03,,,,,,,,1.27,0.60,1.12,3*09
$GNGSA,A,3,38,39,06,20,09,46,29,37,,,,,1.27,0.60,1.12,4*05
$GPGSV,4,1,13,196,73,052,41,24,71,167,37,50,60,167,36,199,60,167,34,1*69
$GPGSV,4,2,13,18,55,302,19,15,51,016,45,195,45,178,41,05,34,093,39,1*53
$GPGSV,4,3,13,23,29,321,26,13,26,040,40,194,22,145,14,29,15,216,15,1*5E
$GPGSV,4,4,13,10,01,304,,1*51
$GPGSV,2,1,07,196,73,052,44,24,71,167,47,199,60,167,42,18,55,302,19,8*66
$GPGSV,2,2,07,195,45,178,37,23,29,321,21,194,22,145,27,8*5C
$GLGSV,1,1,04,84,37,201,17,80,35,120,42,79,25,058,18,69,23,044,41,1*7C
$GAGSV,2,1,06,13,66,283,23,08,57,357,35,15,46,172,34,07,38,274,23,7*78
$GAGSV,2,2,06,03,22,048,37,25,05,062,,7*78
$GAGSV,1,1,04,13,66,283,28,08,57,357,38,15,46,172,38,03,22,048,40,1*72
$GBGSV,2,1,08,38,75,040,40,39,72,236,36,06,61,221,42,20,48,029,44,1*7A
$GBGSV,2,2,08,09,44,217,29,46,42,145,37,29,37,232,33,37,33,070,38,1*7C
$GBGSV,1,1,04,38,75,040,40,39,72,236,42,20,48,029,46,37,33,070,39,4*7E
$GNGGA,102800.000,2500.7936200,N,12132.4790700,E,2,41,0.60,24.21,M,15.25,M,1,3335*78
$GNRMC,102800.000,A,2500.7936200,N,12132.4790700,E,0.12,84.21,260623,,,D,V*3B
$PAIR010,0,0,2268,124098*33
$PAIR010,0,1,2268,124098*32
$GPHDT,,T*1B
$GNGGA,102800.200,2500.7936200,N,12132.4790700,E,2,41,0.60,24.22,M,15.25,M,1,3335*79
$GNRMC,102800.200,A,2500.7936200,N,12132.4790700,E,0.05,84.21,260623,,,D,V*3F
$GPHDT,,T*1B
$GNGGA,102800.400,2500.7936200,N,12132.4790700,E,2,42,0.60,24.22,M,15.25,M,1,3335*7C
$GNRMC,102800.400,A,2500.7936200,N,12132.4790700,E,0.02,84.21,260623,,,D,V*3E
$GPHDT,,T*1B
$GNGGA,102800.600,2500.7936200,N,12132.4790700,E,2,42,0.60,24.22,M,15.25,M,1,3335*7E
$GNRMC,102800.600,A,2500.7936200,N,12132.4790700,E,0.04,84.21,260623,,,D,V*3A
$GPHDT,,T*1B
$GNGGA,102800.800,2500.7936200,N,12132.4790700,E,2,42,0.60,24.22,M,15.25,M,0,3335*71
$GNRMC,102800.800,A,2500.7936200,N,12132.4790700,E,0.06,84.21,260623,,,D,V*36
$GPHDT,,T*1B
$GNGSA,A,3,196,24,199,18,15,195,05,23,13,194,,,1.27,0.60,1.12,1*02
$GNGSA,A,3,84,80,79,69,,,,,,,,,1.27,0.60,1.12,2*07
$GNGSA,A,3,13,08,15,07,03,,,,,,,,1.27,0.60,1.12,3*09
$GNGSA,A,3,38,39,06,20,09,46,29,37,,,,,1.27,0.60,1.12,4*05
$GPGSV,4,1,13,196,73,052,41,24,71,167,35,50,60,167,36,199,60,167,33,1*6C
$GPGSV,4,2,13,18,55,302,22,15,51,016,45,195,45,178,41,05,34,093,38,1*5A
$GPGSV,4,3,13,23,29,321,26,13,26,040,40,194,22,145,12,29,15,216,15,1*58
$GPGSV,4,4,13,10,01,304,,1*51
$GPGSV,2,1,07,196,73,052,44,24,71,167,46,199,60,167,42,18,55,302,18,8*66
$GPGSV,2,2,07,195,45,178,38,23,29,321,21,194,22,145,26,8*52
$GLGSV,1,1,04,84,37,201,17,80,35,120,41,79,25,058,18,69,23,044,41,1*7F
$GAGSV,2,1,06,13,66,283,23,08,57,357,34,15,46,172,36,07,38,274,23,7*7B
$GAGSV,2,2,06,03,22,048,37,25,05,062,,7*78
$GAGSV,1,1,04,13,66,283,28,08,57,357,38,15,46,172,39,03,22,048,40,1*73
$GBGSV,2,1,08,38,75,040,40,39,72,236,36,06,61,221,42,20,48,029,45,1*7B
$GBGSV,2,2,08,09,44,217,31,46,42,145,41,29,37,232,33,37,33,070,38,1*74
$GBGSV,2,1,05,38,75,040,40,39,72,236,42,20,48,029,46,46,42,145,29,4*7A
$GBGSV,2,2,05,37,33,070,40,4*41
$GNGGA,102801.000,2500.7936100,N,12132.4790700,E,2,42,0.60,24.22,M,15.25,M,1,3335*7A
$GNRMC,102801.000,A,2500.7936100,N,12132.4790700,E,0.05,84.21,260623,,,D,V*3F
$GPHDT,,T*1B
$GNGGA,102801.200,2500.7936100,N,12132.4790700,E,2,41,0.60,24.22,M,15.25,M,1,3335*7B
$GNRMC,102801.200,A,2500.7936100,N,12132.4790700,E,0.02,84.21,260623,,,D,V*3A
$GPHDT,,T*1B
