$FW : RTK35X,V1.1X0314AS,Lib20210517,1*54
$Tool : LOCOSYS , GNSS Firebird , v1.0.0.19*39
$---------------------------------------------------*2D
$GPHDT,,T*1B
$GNGGA,102725.800,2500.7937600,N,12132.4785700,E,2,41,0.67,23.70,M,15.25,M,5,3335*79
$GNRMC,102725.800,A,2500.7937600,N,12132.4785700,E,0.15,84.21,260623,,,D,V*3D
$GPHDT,,T*1B
$GNGSA,A,3,196,24,199,18,15,195,05,13,194,,,,1.40,0.67,1.23,1*07
$GNGSA,A,3,80,79,69,,,,,,,,,,1.40,0.67,1.23,2*0F
$GNGSA,A,3,13,08,15,07,03,,,,,,,,1.40,0.67,1.23,3*0D
$GNGSA,A,3,38,39,06,20,09,46,29,37,,,,,1.40,0.67,1.23,4*01
$GPGSV,3,1,12,196,73,052,41,24,70,167,40,50,60,167,40,199,60,167,37,1*6C
$GPGSV,3,2,12,18,55,303,30,15,52,016,42,195,45,178,41,05,34,092,42,1*56
$GPGSV,3,3,12,23,29,321,30,13,26,040,39,194,22,145,20,29,15,216,16,1*55
$GPGSV,2,1,07,196,73,052,45,24,70,167,47,199,60,167,43,18,55,303,18,8*67
$GPGSV,2,2,07,195,45,178,36,23,29,321,23,194,22,145,25,8*5D
$GLGSV,1,1,04,84,38,201,16,80,35,120,41,79,25,058,19,69,23,044,39,1*7F
$GAGSV,2,1,05,13,66,283,19,08,57,357,32,15,46,172,42,07,38,274,21,7*76
$GAGSV,2,2,05,03,22,048,38,7*42
$GAGSV,1,1,04,13,66,283,31,08,57,357,37,15,46,172,40,03,22,048,38,1*75
$GBGSV,3,1,09,38,75,040,39,39,72,235,37,06,61,221,42,20,48,029,42,1*70
$GBGSV,3,2,09,09,44,217,23,46,41,145,42,29,37,232,19,37,33,071,35,1*73
$GBGSV,3,3,09,08,,,32,1*76
$GBGSV,2,1,06,38,75,040,42,39,72,235,40,20,48,029,45,46,41,145,33,4*71
$GBGSV,2,2,06,29,37,232,22,37,33,071,42,4*7D
$GNGGA,102726.000,2500.7937600,N,12132.4785800,E,2,41,0.67,23.71,M,15.25,M,6,3335*7F
$GNRMC,102726.000,A,2500.7937600,N,12132.4785800,E,0.09,84.21,260623,,,D,V*34
$GPHDT,,T*1B
$GNGGA,102726.200,2500.7937600,N,12132.4785800,E,2,41,0.67,23.72,M,15.25,M,6,3335*7E
$GNRMC,102726.200,A,2500.7937600,N,12132.4785800,E,0.06,84.21,260623,,,D,V*39
$GPHDT,,T*1B
$GNGGA,102726.400,2500.7937600,N,12132.4785800,E,2,40,0.67,23.73,M,15.25,M,5,3335*7B
$GNRMC,102726.400,A,2500.7937600,N,12132.4785800,E,0.06,84.21,260623,,,D,V*3F
$GPHDT,,T*1B
$GNGGA,102726.600,2500.7937600,N,12132.4785800,E,2,39,0.67,23.74,M,15.25,M,3,3335*76
$GNRMC,102726.600,A,2500.7937600,N,12132.4785800,E,0.15,84.21,260623,,,D,V*3F
$GPHDT,,T*1B
$GNGGA,102726.800,2500.7937600,N,12132.4785800,E,2,39,0.67,23.74,M,15.25,M,1,3335*7A
$GNRMC,102726.800,A,2500.7937600,N,12132.4785800,E,0.07,84.21,260623,,,D,V*32
$GPHDT,,T*1B
$GNGSA,A,3,196,24,199,18,15,195,05,13,194,,,,1.40,0.67,1.23,1*07
$GNGSA,A,3,80,79,69,,,,,,,,,,1.40,0.67,1.23,2*0F
$GNGSA,A,3,13,08,15,07,03,,,,,,,,1.40,0.67,1.23,3*0D
$GNGSA,A,3,38,39,06,20,09,46,29,37,,,,,1.40,0.67,1.23,4*01
$GPGSV,3,1,12,196,73,052,41,24,70,167,41,50,60,167,40,199,60,167,37,1*6D
$GPGSV,3,2,12,18,55,303,31,15,52,016,42,195,45,178,42,05,34,092,42,1*54
$GPGSV,3,3,12,23,29,321,30,13,26,040,40,194,22,145,19,29,15,216,16,1*51
$GPGSV,2,1,06,196,73,052,45,24,70,167,47,199,60,167,43,195,45,178,34,8*53
$GPGSV,2,2,06,23,29,321,23,194,22,145,25,8*5B
$GLGSV,1,1,04,84,38,201,16,80,35,120,41,79,25,058,16,69,23,044,38,1*71
$GAGSV,2,1,05,13,66,283,18,08,57,357,32,15,46,172,42,07,38,274,21,7*77
$GAGSV,2,2,05,03,22,048,38,7*42
$GAGSV,1,1,04,13,66,283,31,08,57,357,37,15,46,172,40,03,22,048,38,1*75
$GBGSV,3,1,09,38,75,040,39,39,72,235,36,06,61,221,42,20,48,029,42,1*71
$GBGSV,3,2,09,09,44,217,20,46,41,145,41,29,37,232,18,37,33,071,35,1*72
$GBGSV,3,3,09,08,,,17,1*71
$GBGSV,2,1,06,38,75,040,42,39,72,235,40,20,48,029,45,46,41,145,32,4*70
$GBGSV,2,2,06,29,37,232,22,37,33,071,42,4*7D
$GNGGA,102727.000,2500.7937600,N,12132.4785900,E,2,39,0.67,23.75,M,15.25,M,1,3335*73
$GNRMC,102727.000,A,2500.7937600,N,12132.4785900,E,0.04,84.21,260623,,,D,V*39
$GPHDT,,T*1B
$GNGGA,102727.200,2500.7937600,N,12132.4785900,E,2,39,0.67,23.76,M,15.25,M,1,3335*72
$GNRMC,102727.200,A,2500.7937600,N,12132.4785900,E,0.18,84.21,260623,,,D,V*36
$GPHDT,,T*1B
$GNGGA,102727.400,2500.7937600,N,12132.4785900,E,2,40,0.65,23.77,M,15.25,M,1,3335*79
$GNRMC,102727.400,A,2500.7937600,N,12132.4785900,E,0.10,84.21,260623,,,D,V*38
$GPHDT,,T*1B
$GNGGA,102727.600,2500.7937600,N,12132.4786000,E,2,40,0.65,23.79,M,15.25,M,1,3335*7F
$GNRMC,102727.600,A,2500.7937600,N,12132.4786000,E,0.17,84.21,260623,,,D,V*37
$GPHDT,,T*1B
$GNGGA,102727.800,2500.7937600,N,12132.4786000,E,2,40,0.65,23.81,M,15.25,M,1,3335*76
$GNRMC,102727.800,A,2500.7937600,N,12132.4786000,E,0.19,84.21,260623,,,D,V*37
$GPHDT,,T*1B
$GNGSA,A,3,196,24,199,18,15,195,05,13,194,,,,1.39,0.68,1.21,1*04
$GNGSA,A,3,84,80,79,69,,,,,,,,,1.39,0.68,1.21,2*00
$GNGSA,A,3,13,08,15,07,03,,,,,,,,1.39,0.68,1.21,3*0E
$GNGSA,A,3,38,39,06,20,46,29,37,,,,,,1.39,0.68,1.21,4*0B
$GPGSV,3,1,12,196,73,052,41,24,70,167,41,50,60,167,40,199,60,167,37,1*6D
$GPGSV,3,2,12,18,55,303,31,15,52,016,42,195,45,178,42,05,34,092,42,1*54
$GPGSV,3,3,12,23,29,321,29,13,26,040,40,194,22,145,18,29,15,216,16,1*58
$GPGSV,2,1,06,196,73,052,45,24,70,167,47,199,60,167,43,195,45,178,35,8*52
$GPGSV,2,2,06,23,29,321,23,194,22,145,24,8*5A
$GLGSV,1,1,04,84,38,201,14,80,35,120,41,79,25,058,15,69,23,044,37,1*7F
$GAGSV,2,1,05,13,66,283,18,08,57,357,32,15,46,172,42,07,38,274,20,7*76
$GAGSV,2,2,05,03,22,048,38,7*42
$GAGSV,1,1,04,13,66,283,31,08,57,357,37,15,46,172,40,03,22,048,38,1*75
$GBGSV,3,1,09,38,75,040,39,39,72,235,36,06,61,221,42,20,48,029,42,1*71
$GBGSV,3,2,09,09,44,217,19,46,41,145,41,29,37,232,17,37,33,071,34,1*76
$GBGSV,3,3,09,08,,,16,1*70
$GBGSV,2,1,06,38,75,040,42,39,72,235,40,20,48,029,45,46,41,145,31,4*73
$GBGSV,2,2,06,29,37,232,22,37,33,071,42,4*7D
$GNGGA,102728.000,2500.7937600,N,12132.4786100,E,2,39,0.68,23.82,M,15.25,M,2,3335*73
$GNRMC,102728.000,A,2500.7937600,N,12132.4786100,E,0.07,84.21,260623,,,D,V*3E
$GPHDT,,T*1B
$GNGGA,102728.200,2500.7937600,N,12132.4786100,E,2,39,0.68,23.83,M,15.25,M,1,3335*73
$GNRMC,102728.200,A,2500.7937600,N,12132.4786100,E,0.08,84.21,260623,,,D,V*33
$GPHDT,,T*1B
$GNGGA,102728.400,2500.7937600,N,12132.4786100,E,2,40,0.65,23.84,M,15.25,M,1,3335*71
$GNRMC,102728.400,A,2500.7937600,N,12132.4786100,E,0.05,84.21,260623,,,D,V*38
$GPHDT,,T*1B
$GNGGA,102728.600,2500.7937600,N,12132.4786200,E,2,39,0.65,23.84,M,15.25,M,1,3335*7E
$GNRMC,102728.600,A,2500.7937600,N,12132.4786200,E,0.12,84.21,260623,,,D,V*3F
$GPHDT,,T*1B
$GNGGA,102728.800,2500.7937500,N,12132.4786200,E,2,38,0.68,23.85,M,15.25,M,1,3335*7E
$GNRMC,102728.800,A,2500.7937500,N,12132.4786200,E,0.18,84.21,260623,,,D,V*38
$GPHDT,,T*1B
$GNGSA,A,3,196,24,199,18,15,195,05,13,194,,,,1.37,0.65,1.20,1*06
$GNGSA,A,3,84,80,79,69,,,,,,,,,1.37,0.65,1.20,2*02
$GNGSA,A,3,13,08,15,07,03,,,,,,,,1.37,0.65,1.20,3*0C
$GNGSA,A,3,38,39,06,20,09,46,37,29,,,,,1.37,0.65,1.20,4*00
$GPGSV,3,1,12,196,73,052,41,24,70,167,41,50,60,167,40,199,60,167,37,1*6D
$GPGSV,3,2,12,18,55,303,31,15,52,016,42,195,45,178,42,05,34,092,41,1*57
$GPGSV,3,3,12,23,29,321,29,13,26,040,40,194,22,145,18,29,15,216,16,1*58
$GPGSV,2,1,06,196,73,052,45,24,70,167,47,199,60,167,43,195,45,178,34,8*53
$GPGSV,2,2,06,23,29,321,21,194,22,145,23,8*5F
$GLGSV,1,1,04,84,38,201,15,80,35,120,41,79,25,058,19,69,23,044,37,1*72
$GAGSV,2,1,05,13,66,283,18,08,57,357,32,15,46,172,42,07,38,274,20,7*76
$GAGSV,2,2,05,03,22,048,38,7*42
$GAGSV,1,1,04,13,66,283,31,08,57,357,37,15,46,172,40,03,22,048,38,1*75
$GBGSV,3,1,09,38,75,040,39,39,72,235,36,06,61,221,42,20,48,029,42,1*71
$GBGSV,3,2,09,09,44,217,19,46,41,145,41,29,37,232,17,37,33,071,33,1*71
$GBGSV,3,3,09,08,,,14,1*72
$GBGSV,2,1,06,38,75,040,42,39,72,235,40,20,48,029,45,46,41,145,31,4*73
$GBGSV,2,2,06,29,37,232,23,37,33,071,42,4*7C
$GNGGA,102729.000,2500.7937500,N,12132.4786200,E,2,39,0.65,23.86,M,15.25,M,2,3335*7B
$GNRMC,102729.000,A,2500.7937500,N,12132.4786200,E,0.06,84.21,260623,,,D,V*3E
$GPHDT,,T*1B
$GNGGA,102729.200,2500.7937500,N,12132.4786200,E,2,40,0.65,23.87,M,15.25,M,2,3335*76
$GNRMC,102729.200,A,2500.7937500,N,12132.4786200,E,0.13,84.21,260623,,,D,V*38
$GPHDT,,T*1B
$GNGGA,102729.400,2500.7937500,N,12132.4786300,E,2,40,0.65,23.88,M,15.25,M,2,3335*7E
$GNRMC,102729.400,A,2500.7937500,N,12132.4786300,E,0.16,84.21,260623,,,D,V*3A
$GPHDT,,T*1B
$GNGGA,102729.600,2500.7937500,N,12132.4786400,E,2,40,0.65,23.88,M,15.25,M,2,3335*7B
$GNRMC,102729.600,A,2500.7937500,N,12132.4786400,E,0.17,84.21,260623,,,D,V*3E
$GPHDT,,T*1B
$GNGGA,102729.800,2500.7937500,N,12132.4786400,E,2,39,0.65,23.89,M,15.25,M,2,3335*7A
$GNRMC,102729.800,A,2500.7937500,N,12132.4786400,E,0.11,84.21,260623,,,D,V*36
$GPHDT,,T*1B
$GNGSA,A,3,196,24,199,18,15,195,05,13,194,,,,1.39,0.68,1.21,1*04
$GNGSA,A,3,84,80,79,69,,,,,,,,,1.39,0.68,1.21,2*00
$GNGSA,A,3,13,08,15,07,03,,,,,,,,1.39,0.68,1.21,3*0E
$GNGSA,A,3,38,39,06,20,46,37,29,,,,,,1.39,0.68,1.21,4*0B
$GPGSV,3,1,12,196,73,052,41,24,70,167,41,50,60,167,40,199,60,167,37,1*6D
$GPGSV,3,2,12,18,55,303,31,15,52,016,41,195,45,178,42,05,34,092,41,1*54
$GPGSV,3,3,12,23,29,321,29,13,26,040,40,194,22,145,18,29,15,216,18,1*56
$GPGSV,2,1,06,196,73,052,45,24,70,167,47,199,60,167,43,195,45,178,36,8*51
$GPGSV,2,2,06,23,29,321,21,194,22,145,23,8*5F
$GLGSV,1,1,04,84,38,201,16,80,35,120,41,79,25,058,24,69,23,044,37,1*7F
$GAGSV,2,1,05,13,66,283,20,08,57,357,32,15,46,172,43,07,38,274,22,7*7E
$GAGSV,2,2,05,03,22,048,38,7*42
$GAGSV,1,1,04,13,66,283,31,08,57,357,37,15,46,172,40,03,22,048,38,1*75
$GBGSV,3,1,09,38,75,040,39,39,72,235,36,06,61,221,42,20,48,029,42,1*71
$GBGSV,3,2,09,09,44,217,19,46,41,145,41,29,37,232,16,37,33,071,34,1*77
$GBGSV,3,3,09,08,,,14,1*72
$GBGSV,2,1,06,38,75,040,42,39,72,235,40,20,48,029,45,46,41,145,31,4*73
$GBGSV,2,2,06,29,37,232,21,37,33,071,42,4*7E
$GNGGA,102730.000,2500.7937500,N,12132.4786500,E,2,39,0.68,23.89,M,15.25,M,3,3335*77
$GNRMC,102730.000,A,2500.7937500,N,12132.4786500,E,0.09,84.21,260623,,,D,V*3E
$GPHDT,,T*1B
$GNGGA,102730.200,2500.7937500,N,12132.4786500,E,2,43,0.60,23.90,M,15.25,M,3,3335*78
$GNRMC,102730.200,A,2500.7937500,N,12132.4786500,E,0.08,84.21,260623,,,D,V*3D
$GPHDT,,T*1B
$GNGGA,102730.400,2500.7937500,N,12132.4786500,E,2,42,0.60,23.91,M,15.25,M,3,3335*7E
$GNRMC,102730.400,A,2500.7937500,N,12132.4786500,E,0.07,84.21,260623,,,D,V*34
$GPHDT,,T*1B
$GNGGA,102730.600,2500.7937500,N,12132.4786500,E,2,41,0.60,23.92,M,15.25,M,3,3335*7C
$GNRMC,102730.600,A,2500.7937500,N,12132.4786500,E,0.06,84.21,260623,,,D,V*37
$GPHDT,,T*1B
$GNGGA,102730.800,2500.7937500,N,12132.4786500,E,2,41,0.60,23.92,M,15.25,M,3,3335*72
$GNRMC,102730.800,A,2500.7937500,N,12132.4786500,E,0.14,84.21,260623,,,D,V*3A
$GPHDT,,T*1B
$GNGSA,A,3,196,24,199,18,15,195,05,23,13,194,,,1.28,0.61,1.13,1*0D
$GNGSA,A,3,84,80,79,69,,,,,,,,,1.28,0.61,1.13,2*08
$GNGSA,A,3,13,08,15,07,03,,,,,,,,1.28,0.61,1.13,3*06
$GNGSA,A,3,38,39,06,20,46,37,29,,,,,,1.28,0.61,1.13,4*03
$GPGSV,3,1,12,196,73,052,41,24,70,167,41,50,60,167,40,199,60,167,37,1*6D
$GPGSV,3,2,12,18,55,303,30,15,52,016,41,195,45,178,42,05,34,093,41,1*54
$GPGSV,3,3,12,23,29,321,29,13,26,040,40,194,22,145,18,29,15,216,18,1*56
$GPGSV,2,1,06,196,73,052,45,24,70,167,47,199,60,167,43,195,45,178,36,8*51
$GPGSV,2,2,06,23,29,321,22,194,22,145,23,8*5C
$GLGSV,1,1,04,84,38,201,16,80,35,120,41,79,25,058,27,69,23,044,38,1*73
$GAGSV,2,1,05,13,66,283,20,08,57,357,32,15,46,172,43,07,38,274,23,7*7F
$GAGSV,2,2,05,03,22,048,38,7*42
$GAGSV,1,1,04,13,66,283,31,08,57,357,37,15,46,172,40,03,22,048,38,1*75
$GBGSV,3,1,09,38,75,040,39,39,72,235,36,06,61,221,42,20,48,029,42,1*71
$GBGSV,3,2,09,09,44,217,19,46,41,145,41,29,37,232,14,37,33,071,34,1*75
$GBGSV,3,3,09,08,,,12,1*74
$GBGSV,2,1,06,38,75,040,41,39,72,235,40,20,48,029,45,46,41,145,31,4*70
$GBGSV,2,2,06,29,37,232,21,37,33,071,42,4*7E
$GNGGA,102731.000,2500.7937500,N,12132.4786600,E,2,40,0.61,23.93,M,15.25,M,4,3335*7E
$GNRMC,102731.000,A,2500.7937500,N,12132.4786600,E,0.11,84.21,260623,,,D,V*35
$GPHDT,,T*1B
$GNGGA,102731.200,2500.7937500,N,12132.4786700,E,2,40,0.61,23.94,M,15.25,M,2,3335*7C
$GNRMC,102731.200,A,2500.7937500,N,12132.4786700,E,0.08,84.21,260623,,,D,V*3E
$GPHDT,,T*1B
$GNGGA,102731.400,2500.7937500,N,12132.4786700,E,2,40,0.61,23.95,M,15.25,M,1,3335*78
$GNRMC,102731.400,A,2500.7937500,N,12132.4786700,E,0.07,84.21,260623,,,D,V*37
$GPHDT,,T*1B
$GNGGA,102731.600,2500.7937500,N,12132.4786700,E,2,40,0.61,23.96,M,15.25,M,1,3335*79
$GNRMC,102731.600,A,2500.7937500,N,12132.4786700,E,0.08,84.21,260623,,,D,V*3A
$GPHDT,,T*1B
$GNGGA,102731.800,2500.7937500,N,12132.4786700,E,2,40,0.61,23.96,M,15.25,M,1,3335*77
$GNRMC,102731.800,A,2500.7937500,N,12132.4786700,E,0.06,84.21,260623,,,D,V*3A
$GPHDT,,T*1B
$GNGSA,A,3,196,24,199,18,15,195,05,23,13,194,,,1.28,0.61,1.13,1*0D
$GNGSA,A,3,84,80,79,69,,,,,,,,,1.28,0.61,1.13,2*08
$GNGSA,A,3,13,08,15,07,03,,,,,,,,1.28,0.61,1.13,3*06
$GNGSA,A,3,38,39,06,20,46,37,29,,,,,,1.28,0.61,1.13,4*03
$GPGSV,4,1,13,196,73,052,41,24,70,167,41,50,60,167,40,199,60,167,37,1*6B
$GPGSV,4,2,13,18,55,303,30,15,52,016,41,195,45,178,42,05,34,093,41,1*52
$GPGSV,4,3,13,23,29,321,29,13,26,040,40,194,22,145,18,29,15,216,19,1*51
$GPGSV,4,4,13,10,01,304,,1*51
$GPGSV,2,1,06,196,73,052,45,24,70,167,47,199,60,167,43,195,45,178,36,8*51
$GPGSV,2,2,06,23,29,321,23,194,22,145,23,8*5D
$GLGSV,1,1,04,84,38,201,15,80,35,120,41,79,25,058,27,69,23,044,38,1*70
$GAGSV,2,1,05,13,66,283,20,08,57,357,32,15,46,172,43,07,38,274,23,7*7F
$GAGSV,2,2,05,03,22,048,38,7*42
$GAGSV,1,1,04,13,66,283,31,08,57,357,37,15,46,172,40,03,22,048,38,1*75
$GBGSV,3,1,09,38,75,040,39,39,72,235,36,06,61,221,42,20,48,029,42,1*71
$GBGSV,3,2,09,09,44,217,18,46,41,145,41,29,37,232,15,37,33,071,34,1*75
$GBGSV,3,3,09,08,,,12,1*74
$GBGSV,2,1,06,38,75,040,41,39,72,235,40,20,48,029,45,46,41,145,28,4*78
$GBGSV,2,2,06,29,37,232,20,37,33,071,42,4*7F
$GNGGA,102732.000,2500.7937500,N,12132.4786700,E,2,40,0.61,23.97,M,15.25,M,2,3335*7E
$GNRMC,102732.000,A,2500.7937500,N,12132.4786700,E,0.06,84.21,260623,,,D,V*31
$GPHDT,,T*1B
$GNGGA,102732.200,2500.7937500,N,12132.4786800,E,2,40,0.61,23.98,M,15.25,M,2,3335*7C
$GNRMC,102732.200,A,2500.7937500,N,12132.4786800,E,0.05,84.21,260623,,,D,V*3F
$GPHDT,,T*1B
$GNGGA,102732.400,2500.7937400,N,12132.4786800,E,2,40,0.61,23.98,M,15.25,M,2,3335*7B
$GNRMC,102732.400,A,2500.7937400,N,12132.4786800,E,0.10,84.21,260623,,,D,V*3C
$GPHDT,,T*1B
$GNGGA,102732.600,2500.7937400,N,12132.4786800,E,2,39,0.63,23.98,M,15.25,M,2,3335*75
$GNRMC,102732.600,A,2500.7937400,N,12132.4786800,E,0.11,84.21,260623,,,D,V*3F
$GPHDT,,T*1B
$GNGGA,102732.800,2500.7937400,N,12132.4786800,E,2,39,0.63,23.99,M,15.25,M,2,3335*7A
$GNRMC,102732.800,A,2500.7937400,N,12132.4786800,E,0.11,84.21,260623,,,D,V*31
$GPHDT,,T*1B
$GNGSA,A,3,196,24,199,18,15,195,05,23,13,194,,,1.31,0.63,1.15,1*01
$GNGSA,A,3,80,79,69,,,,,,,,,,1.31,0.63,1.15,2*08
$GNGSA,A,3,13,08,15,07,03,,,,,,,,1.31,0.63,1.15,3*0A
$GNGSA,A,3,38,39,06,20,46,37,29,,,,,,1.31,0.63,1.15,4*0F
$GPGSV,4,1,13,196,73,052,41,24,70,167,41,50,60,167,39,199,60,167,36,1*64
$GPGSV,4,2,13,18,55,302,29,15,51,016,41,195,45,178,42,05,34,093,41,1*58
$GPGSV,4,3,13,23,29,321,29,13,26,040,40,194,22,145,18,29,15,216,20,1*5B
$GPGSV,4,4,13,10,01,304,,1*51
$GPGSV,2,1,06,196,73,052,45,24,70,167,47,199,60,167,43,195,45,178,36,8*51
$GPGSV,2,2,06,23,29,321,23,194,22,145,23,8*5D
$GLGSV,1,1,04,84,38,201,15,80,35,120,42,79,25,058,28,69,23,044,38,1*7C
$GAGSV,2,1,05,13,66,283,19,08,57,357,32,15,46,172,43,07,38,274,22,7*74
$GAGSV,2,2,05,03,22,048,38,7*42
$GAGSV,1,1,04,13,66,283,31,08,57,357,37,15,46,172,41,03,22,048,38,1*74
$GBGSV,3,1,10,38,75,040,39,39,72,235,36,06,61,221,42,20,48,029,42,1*79
$GBGSV,3,2,10,09,44,217,18,46,41,145,41,29,37,232,17,37,33,071,34,1*7F
$GBGSV,3,3,10,08,,,13,16,,,23,1*7B
$GBGSV,2,1,06,38,75,040,41,39,72,235,40,20,48,029,45,46,41,145,28,4*78
$GBGSV,2,2,06,29,37,232,20,37,33,071,42,4*7F
$GNGGA,102733.000,2500.7937400,N,12132.4786800,E,2,39,0.63,24.00,M,15.25,M,3,3335*75
$GNRMC,102733.000,A,2500.7937400,N,12132.4786800,E,0.07,84.21,260623,,,D,V*3F
$GPHDT,,T*1B
$GNGGA,102733.200,2500.7937400,N,12132.4786900,E,2,40,0.63,24.01,M,15.25,M,3,3335*79
$GNRMC,102733.200,A,2500.7937400,N,12132.4786900,E,0.06,84.21,260623,,,D,V*3D
$GPHDT,,T*1B
$GNGGA,102733.400,2500.7937400,N,12132.4786900,E,2,39,0.63,24.01,M,15.25,M,3,3335*71
$GNRMC,102733.400,A,2500.7937400,N,12132.4786900,E,0.06,84.21,260623,,,D,V*3B
$GPHDT,,T*1B
$GNGGA,102733.600,2500.7937300,N,12132.4787000,E,2,39,0.63,24.02,M,15.25,M,3,3335*7F
$GNRMC,102733.600,A,2500.7937300,N,12132.4787000,E,0.07,84.21,260623,,,D,V*37
$GPHDT,,T*1B
$GNGGA,102733.800,2500.7937300,N,12132.4787000,E,2,40,0.62,24.03,M,15.25,M,3,3335*7F
$GNRMC,102733.800,A,2500.7937300,N,12132.4787000,E,0.13,84.21,260623,,,D,V*3C
$GPHDT,,T*1B
$GNGSA,A,3,196,24,199,18,15,195,05,23,13,194,,,1.30,0.62,1.14,1*00
$GNGSA,A,3,80,79,69,,,,,,,,,,1.30,0.62,1.14,2*09
$GNGSA,A,3,13,08,15,07,03,,,,,,,,1.30,0.62,1.14,3*0B
$GNGSA,A,3,38,39,06,20,09,46,37,29,,,,,1.30,0.62,1.14,4*07
$GPGSV,4,1,13,196,73,052,41,24,71,167,41,50,60,167,39,199,60,167,36,1*65
$GPGSV,4,2,13,18,55,302,28,15,51,016,41,195,45,178,42,05,34,093,41,1*59
$GPGSV,4,3,13,23,29,321,30,13,26,040,40,194,22,145,18,29,15,216,21,1*52
$GPGSV,4,4,13,10,01,304,,1*51
$GPGSV,2,1,06,196,73,052,45,24,71,167,47,199,60,167,43,195,45,178,36,8*50
$GPGSV,2,2,06,23,29,321,22,194,22,145,22,8*5D
$GLGSV,1,1,04,84,38,201,13,80,35,120,42,79,25,058,29,69,23,044,38,1*7B
$GAGSV,2,1,05,13,66,283,19,08,57,357,33,15,46,172,43,07,38,274,22,7*75
$GAGSV,2,2,05,03,22,048,38,7*42
$GAGSV,1,1,04,13,66,283,30,08,57,357,37,15,46,172,41,03,22,048,38,1*75
$GBGSV,3,1,10,38,75,040,39,39,72,235,36,06,61,221,42,20,48,029,42,1*79
$GBGSV,3,2,10,09,44,217,19,46,41,145,40,29,37,232,20,37,33,071,33,1*7C
$GBGSV,3,3,10,08,,,12,16,,,17,1*7D
$GBGSV,2,1,06,38,75,040,41,39,72,235,39,20,48,029,45,46,41,145,30,4*7F
$GBGSV,2,2,06,29,37,232,22,37,33,071,42,4*7D
$GNGGA,102734.000,2500.7937300,N,12132.4787000,E,2,40,0.62,24.03,M,15.25,M,4,3335*77
$GNRMC,102734.000,A,2500.7937300,N,12132.4787000,E,0.05,84.21,260623,,,D,V*34
$GPHDT,,T*1B
$GNGGA,102734.200,2500.7937300,N,12132.4787000,E,2,39,0.63,24.04,M,15.25,M,4,3335*7D
$GNRMC,102734.200,A,2500.7937300,N,12132.4787000,E,0.06,84.21,260623,,,D,V*35
$GPHDT,,T*1B
$GNGGA,102734.400,2500.7937300,N,12132.4787000,E,2,40,0.62,24.04,M,15.25,M,1,3335*71
$GNRMC,102734.400,A,2500.7937300,N,12132.4787000,E,0.07,84.21,260623,,,D,V*32
$GPHDT,,T*1B
$GNGGA,102734.600,2500.7937300,N,12132.4787100,E,2,41,0.62,24.05,M,15.25,M,0,3335*73
$GNRMC,102734.600,A,2500.7937300,N,12132.4787100,E,0.06,84.21,260623,,,D,V*30
$GPHDT,,T*1B
$GNGGA,102734.800,2500.7937300,N,12132.4787100,E,2,41,0.62,24.05,M,15.25,M,0,3335*7D
$GNRMC,102734.800,A,2500.7937300,N,12132.4787100,E,0.13,84.21,260623,,,D,V*3A
$GPHDT,,T*1B
$GNGSA,A,3,196,24,199,18,15,195,05,23,13,194,,,1.30,0.62,1.14,1*00
$GNGSA,A,3,80,79,69,,,,,,,,,,1.30,0.62,1.14,2*09
$GNGSA,A,3,13,08,15,07,03,,,,,,,,1.30,0.62,1.14,3*0B
$GNGSA,A,3,38,39,06,20,09,46,37,29,,,,,1.30,0.62,1.14,4*07
$GPGSV,4,1,13,196,73,052,41,24,71,167,41,50,60,167,38,199,60,167,36,1*64
$GPGSV,4,2,13,18,55,302,27,15,51,016,41,195,45,178,38,05,34,093,42,1*58
$GPGSV,4,3,13,23,29,321,30,13,26,040,40,194,22,145,20,29,15,216,23,1*5B
$GPGSV,4,4,13,10,01,304,,1*51
$GPGSV,2,1,06,196,73,052,45,24,71,167,47,199,60,167,42,195,45,178,38,8*5F
$GPGSV,2,2,06,23,29,321,21,194,22,145,22,8*5E
$GLGSV,1,1,04,84,38,201,14,80,35,120,42,79,25,058,30,69,23,044,40,1*7B
$GAGSV,2,1,05,13,66,283,21,08,57,357,33,15,46,172,40,07,38,274,23,7*7C
$GAGSV,2,2,05,03,22,048,38,7*42
$GAGSV,2,1,05,13,66,283,30,08,57,357,37,15,46,172,38,07,38,274,21,1*73
$GAGSV,2,2,05,03,22,048,38,1*44
$GBGSV,3,1,10,38,75,040,40,39,72,235,37,06,61,221,42,20,48,029,42,1*76
$GBGSV,3,2,10,09,44,217,29,46,41,145,41,29,37,232,,37,33,071,32,1*7D
$GBGSV,3,3,10,08,,,13,16,,,20,1*78
$GBGSV,2,1,06,38,75,040,41,39,72,235,39,20,48,029,45,46,41,145,33,4*7C
$GBGSV,2,2,06,29,37,232,25,37,33,071,42,4*7A
$GNGGA,102735.000,2500.7937300,N,12132.4787100,E,2,41,0.62,24.05,M,15.25,M,1,3335*75
$GNRMC,102735.000,A,2500.7937300,N,12132.4787100,E,0.09,84.21,260623,,,D,V*38
$GPHDT,,T*1B
$GNGGA,102735.200,2500.7937300,N,12132.4787100,E,2,41,0.62,24.06,M,15.25,M,1,3335*74
$GNRMC,102735.200,A,2500.7937300,N,12132.4787100,E,0.07,84.21,260623,,,D,V*34
$GPHDT,,T*1B
$GNGGA,102735.400,2500.7937300,N,12132.4787100,E,2,41,0.62,24.06,M,15.25,M,0,3335*73
$GNRMC,102735.400,A,2500.7937300,N,12132.4787100,E,0.01,84.21,260623,,,D,V*34
$GPHDT,,T*1B
$GNGGA,102735.600,2500.7937300,N,12132.4787100,E,2,41,0.62,24.06,M,15.25,M,0,3335*71
$GNRMC,102735.600,A,2500.7937300,N,12132.4787100,E,0.02,84.21,260623,,,D,V*35
$GPHDT,,T*1B
$GNGGA,102735.800,2500.7937300,N,12132.4787100,E,2,41,0.62,24.06,M,15.25,M,0,3335*7F
$GNRMC,102735.800,A,2500.7937300,N,12132.4787100,E,0.04,84.21,260623,,,D,V*3D
$GPHDT,,T*1B
$GNGSA,A,3,196,24,199,18,15,195,05,23,13,194,,,1.30,0.62,1.14,1*00
$GNGSA,A,3,80,79,69,,,,,,,,,,1.30,0.62,1.14,2*09
$GNGSA,A,3,13,08,15,07,03,,,,,,,,1.30,0.62,1.14,3*0B
$GNGSA,A,3,38,39,06,20,09,46,37,29,,,,,1.30,0.62,1.14,4*07
$GPGSV,4,1,13,196,73,052,41,24,71,167,40,50,60,167,37,199,60,167,35,1*69
$GPGSV,4,2,13,18,55,302,27,15,51,016,42,195,45,178,38,05,34,093,42,1*5B
$GPGSV,4,3,13,23,29,321,30,13,26,040,40,194,22,145,16,29,15,216,24,1*59
$GPGSV,4,4,13,10,01,304,,1*51
$GPGSV,2,1,06,196,73,052,45,24,71,167,46,199,60,167,41,195,45,178,42,8*50
$GPGSV,2,2,06,23,29,321,20,194,22,145,22,8*5F
$GLGSV,1,1,04,84,38,201,16,80,35,120,42,79,25,058,31,69,23,044,40,1*78
$GAGSV,2,1,05,13,66,283,21,08,57,357,33,15,46,172,37,07,38,274,23,7*7C
$GAGSV,2,2,05,03,22,048,38,7*42
$GAGSV,2,1,05,13,66,283,30,08,57,357,37,15,46,172,25,07,38,274,22,1*7C
$GAGSV,2,2,05,03,22,048,38,1*44
$GBGSV,3,1,10,38,75,040,40,39,72,235,38,06,61,221,42,20,48,029,43,1*78
$GBGSV,3,2,10,09,44,217,31,46,41,145,42,29,37,232,,37,33,071,31,1*74
$GBGSV,3,3,10,08,,,13,16,,,23,1*7B
$GBGSV,2,1,06,38,75,040,41,39,72,235,39,20,48,029,45,46,41,145,32,4*7D
$GBGSV,2,2,06,29,37,232,21,37,33,071,42,4*7E
$GNGGA,102736.000,2500.7937300,N,12132.4787100,E,2,41,0.62,24.06,M,15.25,M,1,3335*75
$GNRMC,102736.000,A,2500.7937300,N,12132.4787100,E,0.06,84.21,260623,,,D,V*34
$GPHDT,,T*1B
$GNGGA,102736.200,2500.7937300,N,12132.4787100,E,2,41,0.62,24.06,M,15.25,M,1,3335*77
$GNRMC,102736.200,A,2500.7937300,N,12132.4787100,E,0.01,84.21,260623,,,D,V*31
$GPHDT,,T*1B
