$FW : RTK35X,V1.1X0314AS,Lib20210517,1*54
$Tool : LOCOSYS , GNSS Firebird , v1.0.0.19*39
$---------------------------------------------------*2D
$GNGGA,105512.600,2500.8002203,N,12132.4844586,E,2,60,0.44,16.715,M,15.25,M,5,3335*4F
$GNRMC,105512.600,A,2500.8002203,N,12132.4844586,E,0.01,242.85,260623,,,D,V*08
$GPHDT,44.748,T*0E
$GNGGA,105512.800,2500.8002143,N,12132.4844586,E,2,60,0.44,16.744,M,15.25,M,5,3335*42
$GNRMC,105512.800,A,2500.8002143,N,12132.4844586,E,0.05,242.85,260623,,,D,V*05
$GPHDT,44.858,T*00
$GNGSA,A,3,24,196,18,199,15,195,23,05,194,,,,0.73,0.44,0.58,1*09
$GNGSA,A,3,80,85,70,84,73,79,86,69,71,,,,0.73,0.44,0.58,2*08
$GNGSA,A,3,13,08,07,15,26,02,03,,,,,,0.73,0.44,0.58,3*06
$GNGSA,A,3,38,39,08,16,06,13,46,09,20,19,37,29,0.73,0.44,0.58,4*09
$GNGSA,A,3,35,36,,,,,,,,,,,0.73,0.44,0.58,4*0E
$GPGSV,4,1,16,24,82,122,44,196,74,057,42,18,61,279,43,199,60,167,32,1*61
$GPGSV,4,2,16,45,47,231,32,15,44,031,41,195,39,179,36,23,38,329,40,1*5E
$GPGSV,4,3,16,05,28,106,38,194,26,142,36,13,17,047,22,12,11,152,,1*5F
$GPGSV,4,4,16,29,08,207,,10,08,311,16,20,07,121,,32,02,257,,1*6C
$GPGSV,2,1,08,24,82,122,49,196,74,057,45,18,61,279,43,199,60,167,45,8*6B
$GPGSV,2,2,08,195,39,179,43,23,38,329,40,194,26,142,31,10,08,311,19,8*63
$GLGSV,3,1,09,80,44,103,44,85,44,267,22,70,39,349,18,84,23,196,19,1*76
$GLGSV,3,2,09,73,22,166,23,79,21,044,21,86,21,318,26,69,18,058,25,1*75
$GLGSV,3,3,09,71,16,298,22,1*43
$GAGSV,3,1,09,13,64,255,38,08,52,011,37,07,41,287,28,15,35,174,30,7*7C
$GAGSV,3,2,09,26,25,316,23,02,21,098,27,30,17,151,,03,16,055,25,7*7B
$GAGSV,3,3,09,25,05,053,,7*4E
$GAGSV,2,1,05,13,64,255,38,08,52,011,37,15,35,174,30,26,25,316,28,1*7F
$GAGSV,2,2,05,03,16,055,23,1*45
$GBGSV,4,1,14,38,80,058,44,39,73,259,41,08,72,007,36,16,66,238,39,1*76
$GBGSV,4,2,14,06,64,235,36,13,63,341,36,46,51,133,46,09,47,226,31,1*7F
$GBGSV,4,3,14,20,46,045,46,19,43,329,41,37,30,058,33,29,28,222,44,1*7C
$GBGSV,4,4,14,35,24,283,19,36,22,186,34,1*7F
$GBGSV,3,1,09,38,80,058,45,39,73,259,40,46,51,133,46,20,46,045,43,4*70
$GBGSV,3,2,09,19,43,329,39,37,30,058,17,29,28,222,38,35,24,283,21,4*78
$GBGSV,3,3,09,36,22,186,31,4*42
$GNGGA,105513.000,2500.8001963,N,12132.4844406,E,2,60,0.44,16.764,M,15.25,M,6,3335*4A
$GNRMC,105513.000,A,2500.8001963,N,12132.4844406,E,0.02,242.85,260623,,,D,V*0B
$GPHDT,44.566,T*00
$GNGGA,105513.200,2500.8001903,N,12132.4844346,E,2,59,0.44,16.786,M,15.25,M,6,3335*4B
$GNRMC,105513.200,A,2500.8001903,N,12132.4844346,E,0.04,242.85,260623,,,D,V*0A
$GPHDT,44.435,T*07
$GNGGA,105513.400,2500.8001723,N,12132.4844286,E,2,59,0.44,16.806,M,15.25,M,6,3335*4B
$GNRMC,105513.400,A,2500.8001723,N,12132.4844286,E,0.04,242.85,260623,,,D,V*0D
$GPHDT,44.717,T*04
$GNGGA,105513.600,2500.8001663,N,12132.4844226,E,2,59,0.44,16.830,M,15.25,M,6,3335*43
$GNRMC,105513.600,A,2500.8001663,N,12132.4844226,E,0.04,242.85,260623,,,D,V*00
$GPHDT,44.361,T*01
$GNGGA,105513.800,2500.8001543,N,12132.4844106,E,2,59,0.44,16.853,M,15.25,M,6,3335*48
$GNRMC,105513.800,A,2500.8001543,N,12132.4844106,E,0.03,242.85,260623,,,D,V*09
$GPHDT,44.659,T*0F
$GNGSA,A,3,24,196,18,199,15,195,23,05,194,,,,0.73,0.44,0.58,1*09
$GNGSA,A,3,80,85,70,84,73,79,86,69,71,,,,0.73,0.44,0.58,2*08
$GNGSA,A,3,13,08,07,15,26,02,03,,,,,,0.73,0.44,0.58,3*06
$GNGSA,A,3,38,39,08,16,06,13,46,09,20,19,37,29,0.73,0.44,0.58,4*09
$GNGSA,A,3,35,36,,,,,,,,,,,0.73,0.44,0.58,4*0E
$GPGSV,4,1,16,24,82,122,44,196,74,057,42,18,61,279,43,199,60,167,33,1*60
$GPGSV,4,2,16,45,47,231,37,15,44,031,42,195,39,179,36,23,38,329,40,1*58
$GPGSV,4,3,16,05,28,106,38,194,26,142,36,13,17,047,19,12,11,152,,1*57
$GPGSV,4,4,16,29,08,207,,10,08,311,16,20,07,121,,32,02,257,,1*6C
$GPGSV,2,1,08,24,82,122,49,196,74,057,45,18,61,279,43,199,60,167,45,8*6B
$GPGSV,2,2,08,195,39,179,41,23,38,329,40,194,26,142,29,10,08,311,20,8*62
$GLGSV,3,1,09,80,44,103,45,85,44,267,26,70,39,349,17,84,23,196,18,1*7D
$GLGSV,3,2,09,73,22,166,23,79,21,044,21,86,21,318,27,69,18,058,26,1*77
$GLGSV,3,3,09,71,16,298,20,1*41
$GAGSV,3,1,09,13,64,255,41,08,52,011,37,07,41,287,25,15,35,174,31,7*7E
$GAGSV,3,2,09,26,25,316,26,02,21,098,27,30,17,151,,03,16,055,26,7*7D
$GAGSV,3,3,09,25,05,053,,7*4E
$GAGSV,1,1,04,13,64,255,40,08,52,011,37,26,25,316,28,03,16,055,24,1*73
$GBGSV,4,1,15,38,80,058,44,39,73,259,43,08,72,007,36,16,66,238,43,1*78
$GBGSV,4,2,15,06,64,235,40,13,63,341,36,46,51,133,45,09,47,226,36,1*7B
$GBGSV,4,3,15,20,46,045,46,19,43,329,40,37,30,058,33,29,28,222,45,1*7D
$GBGSV,4,4,15,35,24,283,23,36,22,186,34,07,05,195,,1*48
$GBGSV,3,1,09,38,80,058,45,39,73,259,42,46,51,133,46,20,46,045,43,4*72
$GBGSV,3,2,09,19,43,329,41,37,30,058,17,29,28,222,39,35,24,283,23,4*74
$GBGSV,3,3,09,36,22,186,31,4*42
$GNGGA,105514.000,2500.8001303,N,12132.4844106,E,2,59,0.44,16.874,M,15.25,M,7,3335*41
$GNRMC,105514.000,A,2500.8001303,N,12132.4844106,E,0.02,242.85,260623,,,D,V*05
$GPHDT,44.454,T*00
$GNGGA,105514.200,2500.8001243,N,12132.4844106,E,2,59,0.44,16.891,M,15.25,M,7,3335*4D
$GNRMC,105514.200,A,2500.8001243,N,12132.4844106,E,0.02,242.85,260623,,,D,V*02
$GPHDT,44.380,T*0E
$GNGGA,105514.400,2500.8001123,N,12132.4844106,E,2,59,0.44,16.907,M,15.25,M,7,3335*40
$GNRMC,105514.400,A,2500.8001123,N,12132.4844106,E,0.02,242.85,260623,,,D,V*01
$GPHDT,44.821,T*0E
$GNGGA,105514.600,2500.8000943,N,12132.4844226,E,2,59,0.44,16.925,M,15.25,M,7,3335*4C
$GNRMC,105514.600,A,2500.8000943,N,12132.4844226,E,0.00,242.85,260623,,,D,V*0F
$GPHDT,44.988,T*0C
$GNGGA,105514.800,2500.8000763,N,12132.4844286,E,2,60,0.44,16.936,M,15.25,M,7,3335*4C
$GNRMC,105514.800,A,2500.8000763,N,12132.4844286,E,0.02,242.85,260623,,,D,V*05
$GPHDT,44.997,T*02
$GNGSA,A,3,24,196,18,199,15,195,23,05,194,,,,0.73,0.44,0.58,1*09
$GNGSA,A,3,80,85,70,84,73,79,86,69,71,,,,0.73,0.44,0.58,2*08
$GNGSA,A,3,13,08,07,15,26,02,03,,,,,,0.73,0.44,0.58,3*06
$GNGSA,A,3,38,39,08,16,06,13,46,09,20,19,37,29,0.73,0.44,0.58,4*09
$GNGSA,A,3,35,36,,,,,,,,,,,0.73,0.44,0.58,4*0E
$GPGSV,4,1,16,24,82,122,44,196,74,057,42,18,61,279,45,199,60,167,34,1*61
$GPGSV,4,2,16,45,47,231,37,15,44,031,42,195,39,179,36,23,38,329,40,1*58
$GPGSV,4,3,16,05,28,106,38,194,26,142,36,13,17,047,19,12,11,152,,1*57
$GPGSV,4,4,16,29,08,207,,10,08,311,17,20,07,121,,32,02,257,,1*6D
$GPGSV,2,1,08,24,82,122,49,196,74,057,45,18,61,279,47,199,60,167,44,8*6E
$GPGSV,2,2,08,195,39,179,41,23,38,329,41,194,26,142,29,10,08,311,18,8*68
$GLGSV,3,1,09,80,44,103,45,85,44,267,29,70,39,349,18,84,23,196,18,1*7D
$GLGSV,3,2,09,73,22,166,23,79,21,044,23,86,21,318,26,69,18,058,26,1*74
$GLGSV,3,3,09,71,16,298,18,1*4A
$GAGSV,3,1,09,13,64,255,43,08,52,011,37,07,41,287,23,15,35,174,30,7*7B
$GAGSV,3,2,09,26,25,316,21,02,21,098,26,30,17,151,,03,16,055,26,7*7B
$GAGSV,3,3,09,25,05,053,,7*4E
$GAGSV,2,1,05,13,64,255,43,08,52,011,37,07,41,287,23,26,25,316,24,1*72
$GAGSV,2,2,05,03,16,055,24,1*42
$GBGSV,4,1,14,38,80,058,44,39,73,259,43,08,72,007,36,16,66,238,43,1*79
$GBGSV,4,2,14,06,64,235,41,13,63,341,36,46,51,133,45,09,47,226,36,1*7B
$GBGSV,4,3,14,20,46,045,46,19,43,329,41,37,30,058,33,29,28,222,44,1*7C
$GBGSV,4,4,14,35,24,283,23,36,22,186,34,1*76
$GBGSV,3,1,09,38,80,058,45,39,73,259,43,46,51,133,46,20,46,045,43,4*73
$GBGSV,3,2,09,19,43,329,41,37,30,058,17,29,28,222,39,35,24,283,21,4*76
$GBGSV,3,3,09,36,22,186,32,4*41
$GNGGA,105515.000,2500.8000583,N,12132.4844346,E,2,60,0.44,16.950,M,15.25,M,8,3335*4B
$GNRMC,105515.000,A,2500.8000583,N,12132.4844346,E,0.00,242.85,260623,,,D,V*0F
$GPHDT,44.841,T*08
$GNGGA,105515.200,2500.8000463,N,12132.4844466,E,2,60,0.44,16.961,M,15.25,M,8,3335*41
$GNRMC,105515.200,A,2500.8000463,N,12132.4844466,E,0.01,242.85,260623,,,D,V*06
$GPHDT,44.689,T*02
$GNGGA,105515.400,2500.8000283,N,12132.4844586,E,2,61,0.44,16.971,M,15.25,M,8,3335*40
$GNRMC,105515.400,A,2500.8000283,N,12132.4844586,E,0.02,242.85,260623,,,D,V*04
$GPHDT,44.853,T*0B
$GNGGA,105515.600,2500.8000223,N,12132.4844646,E,2,60,0.44,16.981,M,15.25,M,8,3335*49
$GNRMC,105515.600,A,2500.8000223,N,12132.4844646,E,0.00,242.85,260623,,,D,V*01
$GPHDT,44.861,T*0A
$GNGGA,105515.800,2500.8000103,N,12132.4844706,E,2,60,0.44,17.001,M,15.25,M,8,3335*43
$GNRMC,105515.800,A,2500.8000103,N,12132.4844706,E,0.02,242.85,260623,,,D,V*09
$GPHDT,44.817,T*0B
$GNGSA,A,3,24,196,18,199,15,195,23,05,194,,,,0.73,0.44,0.58,1*09
$GNGSA,A,3,80,85,70,84,73,79,86,69,71,,,,0.73,0.44,0.58,2*08
$GNGSA,A,3,13,08,07,15,26,02,03,,,,,,0.73,0.44,0.58,3*06
$GNGSA,A,3,38,39,08,16,06,13,46,09,20,19,37,29,0.73,0.44,0.58,4*09
$GNGSA,A,3,35,36,,,,,,,,,,,0.73,0.44,0.58,4*0E
$GPGSV,4,1,16,24,82,122,44,196,74,057,42,18,61,279,45,199,60,167,34,1*61
$GPGSV,4,2,16,45,47,231,37,15,44,031,42,195,39,179,36,23,38,329,39,1*56
$GPGSV,4,3,16,05,28,106,39,194,26,142,36,13,17,047,18,12,11,152,,1*57
$GPGSV,4,4,16,29,08,207,,10,08,311,17,20,07,121,,32,02,257,,1*6D
$GPGSV,2,1,08,24,82,122,49,196,74,057,45,18,61,279,47,199,60,167,44,8*6E
$GPGSV,2,2,08,195,39,179,41,23,38,329,41,194,26,142,29,10,08,311,19,8*69
$GLGSV,3,1,09,80,44,103,45,85,44,267,28,70,39,349,18,84,23,196,19,1*7D
$GLGSV,3,2,09,73,22,166,23,79,21,044,22,86,21,318,25,69,18,058,26,1*76
$GLGSV,3,3,09,71,16,298,19,1*4B
$GAGSV,3,1,09,13,64,255,43,08,52,011,37,07,41,287,23,15,35,174,29,7*73
$GAGSV,3,2,09,26,25,316,19,02,21,098,27,30,17,151,,03,16,055,25,7*72
$GAGSV,3,3,09,25,05,053,,7*4E
$GAGSV,2,1,05,13,64,255,43,08,52,011,37,07,41,287,25,26,25,316,23,1*73
$GAGSV,2,2,05,03,16,055,24,1*42
$GBGSV,4,1,14,38,80,058,44,39,73,259,43,08,72,007,36,16,66,238,43,1*79
$GBGSV,4,2,14,06,64,235,41,13,63,341,36,46,51,133,45,09,47,226,36,1*7B
$GBGSV,4,3,14,20,46,045,46,19,43,329,40,37,30,058,32,29,28,222,44,1*7C
$GBGSV,4,4,14,35,24,283,23,36,22,186,34,1*76
$GBGSV,3,1,09,38,80,058,45,39,73,259,43,46,51,133,46,20,46,045,43,4*73
$GBGSV,3,2,09,19,43,329,40,37,30,058,17,29,28,222,39,35,24,283,22,4*74
$GBGSV,3,3,09,36,22,186,32,4*41
$GNGGA,105516.000,2500.8000043,N,12132.4844706,E,2,60,0.44,17.015,M,15.25,M,9,3335*49
$GNRMC,105516.000,A,2500.8000043,N,12132.4844706,E,0.02,242.85,260623,,,D,V*07
$GPHDT,44.801,T*0C
$GNGGA,105516.200,2500.7989679,N,12132.4853507,E,4,60,0.44,15.902,M,15.25,M,9,3335*4D
$GNRMC,105516.200,A,2500.7989679,N,12132.4853507,E,0.00,242.85,260623,,,R,V*1C
$GPHDT,45.596,T*0E
$GNGGA,105516.400,2500.7989670,N,12132.4853510,E,4,61,0.44,15.897,M,15.25,M,9,3335*48
$GNRMC,105516.400,A,2500.7989670,N,12132.4853510,E,0.02,242.85,260623,,,R,V*17
$GPHDT,44.822,T*0D
$GNGGA,105516.600,2500.7989654,N,12132.4853495,E,4,61,0.44,15.913,M,15.25,M,9,3335*4D
$GNRMC,105516.600,A,2500.7989654,N,12132.4853495,E,0.02,242.85,260623,,,R,V*1F
$GPHDT,44.986,T*02
$GNGGA,105516.800,2500.7989664,N,12132.4853508,E,4,60,0.44,15.898,M,15.25,M,9,3335*46
$GNRMC,105516.800,A,2500.7989664,N,12132.4853508,E,0.02,242.85,260623,,,R,V*17
$GPHDT,44.615,T*07
$GNGSA,A,3,24,196,18,199,15,195,23,05,194,,,,0.73,0.44,0.58,1*09
$GNGSA,A,3,80,85,70,84,73,79,86,69,71,,,,0.73,0.44,0.58,2*08
$GNGSA,A,3,13,08,07,15,26,02,03,,,,,,0.73,0.44,0.58,3*06
$GNGSA,A,3,38,39,08,16,06,13,46,09,20,19,37,29,0.73,0.44,0.58,4*09
$GNGSA,A,3,35,36,,,,,,,,,,,0.73,0.44,0.58,4*0E
$GPGSV,4,1,15,24,82,122,44,196,74,057,42,18,61,279,45,199,60,167,33,1*65
$GPGSV,4,2,15,45,47,231,37,15,44,031,42,195,39,179,36,23,38,329,39,1*55
$GPGSV,4,3,15,05,28,106,39,194,26,142,36,13,17,047,18,12,11,152,,1*54
$GPGSV,4,4,15,10,08,311,,20,07,121,,32,02,257,,1*5E
$GPGSV,2,1,08,24,82,122,49,196,74,057,45,18,61,279,47,199,60,167,44,8*6E
$GPGSV,2,2,08,195,39,179,41,23,38,329,39,194,26,142,30,10,08,311,18,8*6F
$GLGSV,3,1,09,80,44,103,45,85,44,267,30,70,39,349,19,84,23,196,19,1*75
$GLGSV,3,2,09,73,22,166,20,79,21,044,21,86,21,318,24,69,18,058,24,1*75
$GLGSV,3,3,09,71,16,298,24,1*45
$GAGSV,3,1,09,13,64,255,43,08,52,011,37,07,41,287,26,15,35,174,30,7*7E
$GAGSV,3,2,09,26,25,316,27,02,21,098,28,30,17,151,,03,16,055,26,7*73
$GAGSV,3,3,09,25,05,053,,7*4E
$GAGSV,2,1,05,13,64,255,43,08,52,011,37,07,41,287,25,26,25,316,27,1*77
$GAGSV,2,2,05,03,16,055,22,1*44
$GBGSV,4,1,14,38,80,058,44,39,73,259,43,08,72,007,36,16,66,238,43,1*79
$GBGSV,4,2,14,06,64,235,41,13,63,341,36,46,51,133,45,09,47,226,36,1*7B
$GBGSV,4,3,14,20,46,045,46,19,43,329,40,37,30,058,32,29,28,222,44,1*7C
$GBGSV,4,4,14,35,24,283,21,36,22,186,35,1*75
$GBGSV,3,1,09,38,80,058,45,39,73,259,44,46,51,133,46,20,46,045,43,4*74
$GBGSV,3,2,09,19,43,329,38,37,30,058,18,29,28,222,39,35,24,283,23,4*75
$GBGSV,3,3,09,36,22,186,32,4*41
$GNGGA,105517.000,2500.7989671,N,12132.4853509,E,4,60,0.44,15.899,M,15.25,M,10,3335*73
$GNRMC,105517.000,A,2500.7989671,N,12132.4853509,E,0.02,242.85,260623,,,R,V*1B
$GPHDT,44.944,T*0C
$GNGGA,105517.200,2500.7989679,N,12132.4853516,E,4,60,0.44,15.904,M,15.25,M,10,3335*72
$GNRMC,105517.200,A,2500.7989679,N,12132.4853516,E,0.01,242.85,260623,,,R,V*1C
$GPHDT,44.698,T*02
$GNGGA,105517.400,2500.7989669,N,12132.4853478,E,4,60,0.44,15.898,M,15.25,M,10,3335*78
$GNRMC,105517.400,A,2500.7989669,N,12132.4853478,E,0.02,242.85,260623,,,R,V*11
$GPHDT,45.032,T*05
$GNGGA,105517.600,2500.7989655,N,12132.4853533,E,4,60,0.44,15.889,M,15.25,M,10,3335*7B
$GNRMC,105517.600,A,2500.7989655,N,12132.4853533,E,0.01,242.85,260623,,,R,V*11
$GPHDT,45.070,T*03
$GNGGA,105517.800,2500.7989657,N,12132.4853541,E,4,60,0.44,15.897,M,15.25,M,10,3335*7D
$GNRMC,105517.800,A,2500.7989657,N,12132.4853541,E,0.01,242.85,260623,,,R,V*18
$GPHDT,44.917,T*0A
$GNGSA,A,3,24,196,18,199,15,195,23,05,194,,,,0.73,0.44,0.58,1*09
$GNGSA,A,3,80,85,70,84,73,79,86,69,71,,,,0.73,0.44,0.58,2*08
$GNGSA,A,3,13,08,07,15,26,02,03,,,,,,0.73,0.44,0.58,3*06
$GNGSA,A,3,38,39,08,16,06,13,46,09,20,19,37,29,0.73,0.44,0.58,4*09
$GNGSA,A,3,35,36,,,,,,,,,,,0.73,0.44,0.58,4*0E
$GPGSV,4,1,16,24,82,122,44,196,74,057,42,18,61,279,45,199,60,167,33,1*66
$GPGSV,4,2,16,45,47,231,37,15,44,031,42,195,39,179,36,23,38,329,39,1*56
$GPGSV,4,3,16,05,28,106,39,194,26,142,35,13,17,047,17,12,11,152,,1*5B
$GPGSV,4,4,16,29,08,207,,10,08,311,,20,07,121,,32,02,257,,1*6B
$GPGSV,2,1,08,24,82,122,49,196,74,057,45,18,61,279,47,199,60,167,44,8*6E
$GPGSV,2,2,08,195,39,179,41,23,38,329,39,194,26,142,30,10,08,311,18,8*6F
$GLGSV,3,1,09,80,44,103,45,85,44,267,31,70,39,349,19,84,23,196,19,1*74
$GLGSV,3,2,09,73,22,166,22,79,21,044,21,86,21,318,22,69,18,058,22,1*77
$GLGSV,3,3,09,71,16,298,26,1*47
$GAGSV,3,1,09,13,64,255,43,08,52,011,37,07,41,287,26,15,35,174,30,7*7E
$GAGSV,3,2,09,26,25,316,23,02,21,098,28,30,17,151,,03,16,055,26,7*77
$GAGSV,3,3,09,25,05,053,,7*4E
$GAGSV,2,1,05,13,64,255,43,08,52,011,37,07,41,287,25,26,25,316,27,1*77
$GAGSV,2,2,05,03,16,055,23,1*45
$GBGSV,4,1,14,38,80,058,44,39,73,259,43,08,72,007,36,16,66,238,43,1*79
$GBGSV,4,2,14,06,64,235,41,13,63,341,36,46,51,133,45,09,47,226,36,1*7B
$GBGSV,4,3,14,20,46,045,46,19,43,329,40,37,30,058,33,29,28,222,43,1*7A
$GBGSV,4,4,14,35,24,283,20,36,22,186,35,1*74
$GBGSV,3,1,09,38,80,058,45,39,73,259,44,46,51,133,46,20,46,045,43,4*74
$GBGSV,3,2,09,19,43,329,38,37,30,058,18,29,28,222,39,35,24,283,23,4*75
$GBGSV,3,3,09,36,22,186,32,4*41
$GNGGA,105518.000,2500.7989641,N,12132.4853532,E,4,60,0.44,15.888,M,15.25,M,11,3335*76
$GNRMC,105518.000,A,2500.7989641,N,12132.4853532,E,0.01,242.85,260623,,,R,V*1C
$GPHDT,45.059,T*08
$GNGGA,105518.200,2500.7989663,N,12132.4853536,E,4,60,0.44,15.886,M,15.25,M,11,3335*7E
$GNRMC,105518.200,A,2500.7989663,N,12132.4853536,E,0.01,242.85,260623,,,R,V*1A
$GPHDT,45.124,T*03
$GNGGA,105518.400,2500.7989642,N,12132.4853542,E,4,60,0.44,15.892,M,15.25,M,11,3335*7D
$GNRMC,105518.400,A,2500.7989642,N,12132.4853542,E,0.01,242.85,260623,,,R,V*1C
$GPHDT,44.352,T*01
$GNGGA,105518.600,2500.7989632,N,12132.4853522,E,4,60,0.44,15.891,M,15.25,M,11,3335*7D
$GNRMC,105518.600,A,2500.7989632,N,12132.4853522,E,0.02,242.85,260623,,,R,V*1C
$GPHDT,44.641,T*06
$GNGGA,105518.800,2500.7989633,N,12132.4853552,E,4,60,0.44,15.910,M,15.25,M,8,3335*45
$GNRMC,105518.800,A,2500.7989633,N,12132.4853552,E,0.01,242.85,260623,,,R,V*17
$GPHDT,44.457,T*03
$GNGSA,A,3,24,196,18,199,15,195,23,05,194,,,,0.73,0.44,0.58,1*09
$GNGSA,A,3,80,85,70,84,73,79,86,69,71,,,,0.73,0.44,0.58,2*08
$GNGSA,A,3,13,08,07,15,26,02,03,,,,,,0.73,0.44,0.58,3*06
$GNGSA,A,3,38,39,08,16,06,13,46,09,20,19,37,29,0.73,0.44,0.58,4*09
$GNGSA,A,3,35,36,,,,,,,,,,,0.73,0.44,0.58,4*0E
$GPGSV,4,1,16,24,82,122,44,196,74,057,42,18,61,279,45,199,60,167,33,1*66
$GPGSV,4,2,16,45,47,231,36,15,44,031,42,195,39,179,36,23,38,329,39,1*57
$GPGSV,4,3,16,05,28,106,39,194,26,142,35,13,17,047,16,12,11,152,16,1*5D
$GPGSV,4,4,16,29,08,207,,10,08,311,,20,07,121,,32,02,257,,1*6B
$GPGSV,2,1,08,24,82,122,49,196,74,057,45,18,61,279,47,199,60,167,44,8*6E
$GPGSV,2,2,08,195,39,179,42,23,38,329,40,194,26,142,29,10,08,311,17,8*65
$GLGSV,3,1,09,80,44,103,45,85,44,267,31,70,39,349,19,84,23,196,19,1*74
$GLGSV,3,2,09,73,22,166,25,79,21,044,21,86,21,318,21,69,18,058,22,1*73
$GLGSV,3,3,09,71,16,298,26,1*47
$GAGSV,3,1,09,13,64,255,43,08,52,011,37,07,41,287,26,15,35,174,30,7*7E
$GAGSV,3,2,09,26,25,316,23,02,21,098,28,30,17,151,,03,16,055,26,7*77
$GAGSV,3,3,09,25,05,053,,7*4E
$GAGSV,2,1,05,13,64,255,43,08,52,011,37,07,41,287,24,26,25,316,26,1*77
$GAGSV,2,2,05,03,16,055,24,1*42
$GBGSV,4,1,14,38,80,058,44,39,73,259,43,08,72,007,36,16,66,238,43,1*79
$GBGSV,4,2,14,06,64,235,41,13,63,341,36,46,51,133,45,09,47,226,36,1*7B
$GBGSV,4,3,14,20,46,045,45,19,43,329,40,37,30,058,33,29,28,222,44,1*7E
$GBGSV,4,4,14,35,24,283,20,36,22,186,35,1*74
$GBGSV,3,1,09,38,80,058,45,39,73,259,43,46,51,133,46,20,46,045,43,4*73
$GBGSV,3,2,09,19,43,329,39,37,30,058,18,29,28,222,39,35,24,283,23,4*74
$GBGSV,3,3,09,36,22,186,31,4*42
$GNGGA,105519.000,2500.7989644,N,12132.4853562,E,4,60,0.44,15.903,M,15.25,M,9,3335*4C
$GNRMC,105519.000,A,2500.7989644,N,12132.4853562,E,0.02,242.85,260623,,,R,V*1E
$GPHDT,44.902,T*0E
$GNGGA,105519.200,2500.7989629,N,12132.4853528,E,4,60,0.44,15.894,M,15.25,M,9,3335*44
$GNRMC,105519.200,A,2500.7989629,N,12132.4853528,E,0.01,242.85,260623,,,R,V*1A
$GPHDT,44.821,T*0E
$GNGGA,105519.400,2500.7989657,N,12132.4853520,E,4,60,0.44,15.904,M,15.25,M,9,3335*4B
$GNRMC,105519.400,A,2500.7989657,N,12132.4853520,E,0.00,242.85,260623,,,R,V*1C
$GPHDT,45.015,T*00
$GNGGA,105519.600,2500.7989643,N,12132.4853559,E,4,60,0.44,15.925,M,15.25,M,0,3335*48
$GNRMC,105519.600,A,2500.7989643,N,12132.4853559,E,0.01,242.85,260623,,,R,V*14
$GPHDT,44.823,T*0C
$GNGGA,105519.800,2500.7989656,N,12132.4853546,E,4,61,0.44,15.936,M,15.25,M,0,3335*4F
$GNRMC,105519.800,A,2500.7989656,N,12132.4853546,E,0.00,242.85,260623,,,R,V*11
$GPHDT,44.907,T*0B
$GNGSA,A,3,24,196,18,199,15,195,23,05,194,,,,0.73,0.44,0.58,1*09
$GNGSA,A,3,80,85,70,84,73,79,86,69,71,,,,0.73,0.44,0.58,2*08
$GNGSA,A,3,13,08,07,15,26,02,03,,,,,,0.73,0.44,0.58,3*06
$GNGSA,A,3,38,39,08,16,06,13,46,09,20,19,37,29,0.73,0.44,0.58,4*09
$GNGSA,A,3,35,36,,,,,,,,,,,0.73,0.44,0.58,4*0E
$GPGSV,4,1,16,24,82,122,44,196,74,057,42,18,61,278,45,199,60,167,33,1*67
$GPGSV,4,2,16,45,47,231,36,15,44,031,42,195,39,179,37,23,38,329,39,1*56
$GPGSV,4,3,16,05,28,106,39,194,26,142,35,13,17,047,16,12,11,152,17,1*5C
$GPGSV,4,4,16,29,08,207,,10,08,311,,20,06,122,,32,02,257,,1*69
$GPGSV,2,1,08,24,82,122,49,196,74,057,45,18,61,278,45,199,60,167,43,8*6A
$GPGSV,2,2,08,195,39,179,42,23,38,329,38,194,26,142,29,10,08,311,16,8*6B
$GLGSV,3,1,09,80,44,103,45,85,44,267,32,70,39,349,19,84,23,196,18,1*76
$GLGSV,3,2,09,73,22,166,25,79,21,044,18,86,21,318,21,69,18,058,23,1*78
$GLGSV,3,3,09,71,16,298,28,1*49
$GAGSV,3,1,09,13,64,255,43,08,52,011,37,07,41,287,26,15,35,174,30,7*7E
$GAGSV,3,2,09,26,25,316,24,02,21,098,28,30,17,151,,03,16,055,27,7*71
$GAGSV,3,3,09,25,05,053,,7*4E
$GAGSV,2,1,06,13,64,255,43,08,52,011,37,07,41,287,24,15,35,174,26,1*73
$GAGSV,2,2,06,26,25,316,27,03,16,055,24,1*73
$GBGSV,4,1,15,38,80,058,44,39,73,259,44,08,72,007,36,16,66,238,43,1*7F
$GBGSV,4,2,15,06,64,235,41,13,63,341,36,46,51,133,45,09,47,226,36,1*7A
$GBGSV,4,3,15,20,46,045,45,19,43,329,39,37,30,058,33,29,28,222,43,1*76
$GBGSV,4,4,15,35,24,283,19,36,22,186,35,22,05,291,,1*40
$GBGSV,3,1,09,38,80,058,44,39,73,259,44,46,51,133,46,20,46,045,42,4*74
$GBGSV,3,2,09,19,43,329,39,37,30,058,18,29,28,222,40,35,24,283,23,4*7A
$GBGSV,3,3,09,36,22,186,32,4*41
$GNGGA,105520.000,2500.7989643,N,12132.4853548,E,4,61,0.44,15.941,M,15.25,M,1,3335*46
$GNRMC,105520.000,A,2500.7989643,N,12132.4853548,E,0.02,242.85,260623,,,R,V*1B
$GPHDT,44.642,T*05
$GNGGA,105520.200,2500.7989623,N,12132.4853563,E,4,61,0.44,15.925,M,15.25,M,1,3335*49
$GNRMC,105520.200,A,2500.7989623,N,12132.4853563,E,0.02,242.85,260623,,,R,V*16
$GPHDT,44.683,T*08
$GNGGA,105520.400,2500.7989638,N,12132.4853575,E,4,60,0.44,15.934,M,15.25,M,1,3335*43
$GNRMC,105520.400,A,2500.7989638,N,12132.4853575,E,0.01,242.85,260623,,,R,V*1E
$GPHDT,44.607,T*04
$GNGGA,105520.600,2500.7989643,N,12132.4853548,E,4,60,0.44,15.927,M,15.25,M,1,3335*41
$GNRMC,105520.600,A,2500.7989643,N,12132.4853548,E,0.02,242.85,260623,,,R,V*1D
$GPHDT,44.829,T*06
$GNGGA,105520.800,2500.7989652,N,12132.4853559,E,4,60,0.44,15.929,M,15.25,M,1,3335*41
$GNRMC,105520.800,A,2500.7989652,N,12132.4853559,E,0.02,242.85,260623,,,R,V*13
$GPHDT,44.675,T*01
$GNGSA,A,3,24,196,18,199,15,23,195,05,194,,,,0.73,0.44,0.58,1*09
$GNGSA,A,3,80,85,70,84,73,79,86,69,71,,,,0.73,0.44,0.58,2*08
$GNGSA,A,3,13,08,07,15,26,02,03,,,,,,0.73,0.44,0.58,3*06
$GNGSA,A,3,38,39,08,16,06,13,46,09,20,19,37,29,0.73,0.44,0.58,4*09
$GNGSA,A,3,35,36,,,,,,,,,,,0.73,0.44,0.58,4*0E
$GPGSV,4,1,16,24,82,120,44,196,74,057,41,18,61,278,45,199,60,167,33,1*66
$GPGSV,4,2,16,45,47,231,36,15,44,031,42,23,39,329,39,195,39,179,37,1*57
$GPGSV,4,3,16,05,28,106,39,194,26,142,35,13,17,047,17,12,11,152,17,1*5D
$GPGSV,4,4,16,29,08,207,,10,08,311,,20,06,122,,32,02,257,,1*69
$GPGSV,2,1,08,24,82,120,49,196,74,057,45,18,61,278,45,199,60,167,43,8*68
$GPGSV,2,2,08,23,39,329,38,195,39,179,42,194,26,142,31,10,08,311,17,8*62
$GLGSV,3,1,09,80,44,103,45,85,44,267,32,70,39,349,21,84,23,196,18,1*7D
$GLGSV,3,2,09,73,22,166,23,79,21,044,18,86,21,318,21,69,18,058,24,1*79
$GLGSV,3,3,09,71,16,298,29,1*48
$GAGSV,3,1,09,13,64,255,43,08,52,011,37,07,41,287,24,15,35,174,29,7*74
$GAGSV,3,2,09,26,25,316,25,02,21,098,28,30,17,151,,03,16,055,27,7*70
$GAGSV,3,3,09,25,05,053,,7*4E
$GAGSV,2,1,05,13,64,255,43,08,52,011,37,07,41,287,24,26,25,316,27,1*76
$GAGSV,2,2,05,03,16,055,24,1*42
$GBGSV,4,1,14,38,80,058,44,39,73,259,44,08,72,007,36,16,66,238,43,1*7E
$GBGSV,4,2,14,06,64,235,41,13,63,341,36,46,51,133,45,09,47,226,36,1*7B
$GBGSV,4,3,14,20,46,045,45,19,43,329,39,37,30,058,33,29,28,222,43,1*77
$GBGSV,4,4,14,35,24,283,17,36,22,186,35,1*70
$GBGSV,3,1,09,38,80,058,44,39,73,259,44,46,51,133,46,20,46,045,42,4*74
$GBGSV,3,2,09,19,43,329,39,37,30,058,19,29,28,222,40,35,24,283,23,4*7B
$GBGSV,3,3,09,36,22,186,32,4*41
$GNGGA,105521.000,2500.7989615,N,12132.4853565,E,4,60,0.44,15.933,M,15.25,M,1,3335*4F
$GNRMC,105521.000,A,2500.7989615,N,12132.4853565,E,0.03,242.85,260623,,,R,V*17
$GPHDT,44.664,T*01
$GNGGA,105521.200,2500.7989612,N,12132.4853553,E,4,60,0.44,15.931,M,15.25,M,1,3335*4D
$GNRMC,105521.200,A,2500.7989612,N,12132.4853553,E,0.04,242.85,260623,,,R,V*10
$GPHDT,44.651,T*07
$GNGGA,105521.400,2500.7989619,N,12132.4853550,E,4,60,0.44,15.929,M,15.25,M,1,3335*4A
$GNRMC,105521.400,A,2500.7989619,N,12132.4853550,E,0.04,242.85,260623,,,R,V*1E
$GPHDT,44.825,T*0A
$GNGGA,105521.600,2500.7989620,N,12132.4853552,E,4,60,0.44,15.921,M,15.25,M,0,3335*49
$GNRMC,105521.600,A,2500.7989620,N,12132.4853552,E,0.04,242.85,260623,,,R,V*14
$GPHDT,44.756,T*01
$GNGGA,105521.800,2500.7989618,N,12132.4853568,E,4,60,0.44,15.921,M,15.25,M,0,3335*45
$GNRMC,105521.800,A,2500.7989618,N,12132.4853568,E,0.03,242.85,260623,,,R,V*1F
$GPHDT,44.454,T*00
$GNGSA,A,3,24,196,18,199,15,23,195,05,194,,,,0.73,0.44,0.58,1*09
$GNGSA,A,3,80,85,70,84,73,79,86,69,71,,,,0.73,0.44,0.58,2*08
$GNGSA,A,3,13,08,07,15,26,02,03,,,,,,0.73,0.44,0.58,3*06
$GNGSA,A,3,38,39,08,16,06,13,46,09,20,19,37,29,0.73,0.44,0.58,4*09
$GNGSA,A,3,35,36,,,,,,,,,,,0.73,0.44,0.58,4*0E
$GPGSV,5,1,17,24,82,120,44,196,74,057,41,18,61,278,45,199,60,167,33,1*66
$GPGSV,5,2,17,45,47,231,36,15,44,031,42,23,39,329,39,195,39,179,37,1*57
$GPGSV,5,3,17,05,28,106,39,194,26,142,35,13,17,047,17,12,11,152,17,1*5D
$GPGSV,5,4,17,10,08,311,,29,07,207,,20,06,122,,32,02,257,,1*66
$GPGSV,5,5,17,25,01,184,,1*59
$GPGSV,2,1,08,24,82,120,49,196,74,057,45,18,61,278,45,199,60,167,43,8*68
$GPGSV,2,2,08,23,39,329,37,195,39,179,42,194,26,142,31,10,08,311,18,8*62
$GLGSV,3,1,09,80,44,103,45,85,44,267,32,70,39,349,21,84,23,196,19,1*7C
$GLGSV,3,2,09,73,22,166,25,79,21,044,18,86,21,318,22,69,18,058,24,1*7C
$GLGSV,3,3,09,71,16,298,29,1*48
$GAGSV,3,1,09,13,64,255,43,08,52,011,37,07,41,287,23,15,35,174,29,7*73
$GAGSV,3,2,09,26,25,316,25,02,21,098,28,30,17,151,,03,16,055,27,7*70
$GAGSV,3,3,09,25,05,053,,7*4E
$GAGSV,2,1,05,13,64,255,43,08,52,011,37,07,41,287,22,26,25,316,28,1*7F
$GAGSV,2,2,05,03,16,055,24,1*42
$GBGSV,4,1,14,38,80,058,44,39,73,259,44,08,72,007,36,16,66,238,43,1*7E
$GBGSV,4,2,14,06,64,235,41,13,63,341,36,46,51,133,45,09,47,226,36,1*7B
$GBGSV,4,3,14,20,46,045,45,19,43,329,39,37,30,058,33,29,28,222,43,1*77
$GBGSV,4,4,14,35,24,283,17,36,22,186,35,1*70
$GBGSV,3,1,09,38,80,058,44,39,73,259,44,46,51,133,46,20,46,045,43,4*75
$GBGSV,3,2,09,19,43,329,39,37,30,058,18,29,28,222,40,35,24,283,23,4*7A
$GBGSV,3,3,09,36,22,186,31,4*42
$GNGGA,105522.000,2500.7989628,N,12132.4853553,E,4,60,0.44,15.931,M,15.25,M,1,3335*45
$GNRMC,105522.000,A,2500.7989628,N,12132.4853553,E,0.02,242.85,260623,,,R,V*1E
$GPHDT,44.550,T*05
$GNGGA,105522.200,2500.7989639,N,12132.4853576,E,4,60,0.44,15.933,M,15.25,M,1,3335*42
$GNRMC,105522.200,A,2500.7989639,N,12132.4853576,E,0.02,242.85,260623,,,R,V*1B
$GPHDT,45.381,T*0E
$GNGGA,105522.400,2500.7989629,N,12132.4853551,E,4,60,0.44,15.930,M,15.25,M,1,3335*43
$GNRMC,105522.400,A,2500.7989629,N,12132.4853551,E,0.03,242.85,260623,,,R,V*18
$GPHDT,45.075,T*06
$GNGGA,105522.600,2500.7989636,N,12132.4853556,E,4,60,0.44,15.931,M,15.25,M,0,3335*48
$GNRMC,105522.600,A,2500.7989636,N,12132.4853556,E,0.03,242.85,260623,,,R,V*13
$GPHDT,44.673,T*07
$GNGGA,105522.800,2500.7989643,N,12132.4853570,E,4,60,0.44,15.932,M,15.25,M,0,3335*43
$GNRMC,105522.800,A,2500.7989643,N,12132.4853570,E,0.03,242.85,260623,,,R,V*1B
$GPHDT,44.673,T*07
$GNGSA,A,3,24,196,18,199,15,23,195,05,194,,,,0.73,0.44,0.58,1*09
$GNGSA,A,3,80,85,70,84,73,79,86,69,71,,,,0.73,0.44,0.58,2*08
$GNGSA,A,3,13,08,07,15,26,02,03,,,,,,0.73,0.44,0.58,3*06
$GNGSA,A,3,38,39,08,16,06,13,46,09,20,19,37,29,0.73,0.44,0.58,4*09
$GNGSA,A,3,35,36,,,,,,,,,,,0.73,0.44,0.58,4*0E
$GPGSV,5,1,17,24,82,120,44,196,74,057,41,18,61,278,45,199,60,167,33,1*66
$GPGSV,5,2,17,45,47,231,36,15,44,031,42,23,39,329,40,195,39,179,37,1*59
$GPGSV,5,3,17,05,28,106,39,194,26,142,35,13,17,047,17,12,11,152,17,1*5D
$GPGSV,5,4,17,10,08,311,,29,07,207,,20,06,122,,32,03,257,,1*67
$GPGSV,5,5,17,25,01,184,,1*59
$GPGSV,2,1,08,24,82,120,49,196,74,057,45,18,61,278,45,199,60,167,43,8*68
$GPGSV,2,2,08,23,39,329,38,195,39,179,42,194,26,142,30,10,08,311,18,8*6C
$GLGSV,3,1,09,80,44,103,45,85,44,267,33,70,39,349,21,84,23,196,19,1*7D
$GLGSV,3,2,09,73,22,166,26,79,21,044,19,86,21,318,23,69,18,058,24,1*7F
$GLGSV,3,3,09,71,16,298,29,1*48
$GAGSV,3,1,09,13,64,255,43,08,52,011,37,07,41,287,22,15,35,174,29,7*72
$GAGSV,3,2,09,26,25,316,26,02,21,098,28,30,17,151,,03,16,055,27,7*73
$GAGSV,3,3,09,25,05,053,,7*4E
$GAGSV,2,1,05,13,64,255,43,08,52,011,37,07,41,287,22,26,25,316,29,1*7E
$GAGSV,2,2,05,03,16,055,24,1*42
$GBGSV,4,1,14,38,80,058,44,39,73,259,44,08,72,007,36,16,66,238,42,1*7F
$GBGSV,4,2,14,06,64,235,41,13,63,341,37,46,51,133,45,09,47,226,36,1*7A
$GBGSV,4,3,14,20,46,045,45,19,43,329,39,37,30,058,33,29,28,222,43,1*77
$GBGSV,4,4,14,35,24,283,17,36,22,186,35,1*70
$GBGSV,3,1,09,38,80,058,44,39,73,259,44,46,51,133,46,20,46,045,43,4*75
$GBGSV,3,2,09,19,43,329,39,37,30,058,19,29,28,222,40,35,24,283,21,4*79
$GBGSV,3,3,09,36,22,186,32,4*41
$GNGGA,105523.000,2500.7989631,N,12132.4853556,E,4,60,0.44,15.933,M,15.25,M,1,3335*4B
$GNRMC,105523.000,A,2500.7989631,N,12132.4853556,E,0.02,242.85,260623,,,R,V*12
$GPHDT,44.536,T*05
$GNGGA,105523.200,2500.7989634,N,12132.4853561,E,4,60,0.44,15.930,M,15.25,M,1,3335*4B
$GNRMC,105523.200,A,2500.7989634,N,12132.4853561,E,0.02,242.85,260623,,,R,V*11
$GPHDT,44.475,T*03
$GNGGA,105523.400,2500.7989648,N,12132.4853554,E,4,60,0.44,15.933,M,15.25,M,1,3335*43
$GNRMC,105523.400,A,2500.7989648,N,12132.4853554,E,0.03,242.85,260623,,