$FW : RTK35X,V1.1X0314AS,Lib20210517,1*54
$Tool : LOCOSYS , GNSS Firebird , v1.0.0.19*39
$---------------------------------------------------*2D
$GPHDT,,T*1B
$GNGGA,105821.600,2500.7990536,N,12132.4853495,E,4,59,0.44,15.609,M,15.25,M,16,3335*7A
$GNRMC,105821.600,A,2500.7990536,N,12132.4853495,E,0.08,0.95,260623,,,R,V*16
$GPHDT,,T*1B
$GNGGA,105821.800,2500.7990448,N,12132.4853458,E,4,59,0.44,15.644,M,15.25,M,16,3335*74
$GNRMC,105821.800,A,2500.7990448,N,12132.4853458,E,0.08,0.95,260623,,,R,V*11
$GPHDT,,T*1B
$GNGSA,A,3,24,196,18,199,15,23,195,05,194,13,,,0.73,0.44,0.58,1*0B
$GNGSA,A,3,80,85,70,73,86,84,79,69,71,,,,0.73,0.44,0.58,2*08
$GNGSA,A,3,13,08,07,15,26,02,03,,,,,,0.73,0.44,0.58,3*06
$GNGSA,A,3,38,39,08,16,06,13,46,09,20,19,37,29,0.73,0.44,0.58,4*09
$GNGSA,A,3,36,,,,,,,,,,,,0.73,0.44,0.58,4*08
$GPGSV,5,1,17,24,82,110,45,196,74,058,41,18,61,276,41,199,60,167,34,1*66
$GPGSV,5,2,17,45,47,231,38,15,44,033,37,23,40,330,31,195,39,179,35,1*55
$GPGSV,5,3,17,05,27,107,35,194,26,141,32,13,16,048,25,12,12,151,,1*52
$GPGSV,5,4,17,10,09,312,27,29,07,206,,20,06,122,,32,03,258,,1*6E
$GPGSV,5,5,17,25,01,184,,1*59
$GPGSV,2,1,08,24,82,110,48,196,74,058,45,18,61,276,48,199,60,167,43,8*66
$GPGSV,2,2,08,23,40,330,38,195,39,179,40,194,26,141,30,10,09,312,19,8*68
$GLGSV,3,1,09,80,45,100,45,85,43,265,23,70,39,351,24,73,24,165,36,1*79
$GLGSV,3,2,09,86,22,317,28,84,21,195,19,79,20,043,25,69,17,059,33,1*72
$GLGSV,3,3,09,71,17,300,15,1*46
$GAGSV,3,1,09,13,64,252,43,08,51,012,30,07,41,289,17,15,34,174,27,7*75
$GAGSV,3,2,09,26,26,316,16,02,22,097,25,30,18,151,20,03,15,056,20,7*78
$GAGSV,3,3,09,25,05,052,,7*4F
$GAGSV,2,1,06,13,64,252,44,08,51,012,34,07,41,289,34,15,34,174,34,1*7D
$GAGSV,2,2,06,26,26,316,27,03,15,056,26,1*72
$GBGSV,4,1,14,38,81,061,43,39,73,261,44,08,72,007,31,16,66,240,43,1*71
$GBGSV,4,2,14,06,64,237,40,13,63,340,36,46,52,132,45,09,48,228,36,1*7A
$GBGSV,4,3,14,20,45,047,47,19,44,331,37,37,29,057,29,29,27,221,44,1*73
$GBGSV,4,4,14,35,24,281,,36,23,185,31,1*72
$GBGSV,2,1,07,38,81,061,44,39,73,261,45,46,52,132,46,20,45,047,45,4*7E
$GBGSV,2,2,07,19,44,331,36,29,27,221,43,36,23,185,33,4*48
$GNGGA,105822.000,2500.7990475,N,12132.4853470,E,4,59,0.44,15.631,M,15.25,M,17,3335*78
$GNRMC,105822.000,A,2500.7990475,N,12132.4853470,E,0.06,0.95,260623,,,R,V*10
$GPHDT,,T*1B
$GNGGA,105822.200,2500.7990566,N,12132.4853480,E,4,59,0.44,15.605,M,15.25,M,17,3335*71
$GNRMC,105822.200,A,2500.7990566,N,12132.4853480,E,0.05,0.95,260623,,,R,V*1D
$GPHDT,,T*1B
$GNGGA,105822.400,2500.7990460,N,12132.4853459,E,4,59,0.44,15.627,M,15.25,M,17,3335*74
$GNRMC,105822.400,A,2500.7990460,N,12132.4853459,E,0.06,0.95,260623,,,R,V*1B
$GPHDT,,T*1B
$GNGGA,105822.600,2500.7990348,N,12132.4853460,E,4,59,0.44,15.660,M,15.25,M,17,3335*72
$GNRMC,105822.600,A,2500.7990348,N,12132.4853460,E,0.06,0.95,260623,,,R,V*1E
$GPHDT,,T*1B
$GNGGA,105822.800,2500.7990426,N,12132.4853426,E,4,59,0.44,15.647,M,15.25,M,17,3335*74
$GNRMC,105822.800,A,2500.7990426,N,12132.4853426,E,0.06,0.95,260623,,,R,V*1D
$GPHDT,,T*1B
$GNGSA,A,3,24,196,18,199,15,23,195,05,194,,,,0.74,0.45,0.59,1*0E
$GNGSA,A,3,80,85,70,73,86,84,79,69,71,,,,0.74,0.45,0.59,2*0F
$GNGSA,A,3,13,08,07,15,26,02,03,,,,,,0.74,0.45,0.59,3*01
$GNGSA,A,3,38,39,08,16,06,13,46,09,20,19,37,29,0.74,0.45,0.59,4*0E
$GNGSA,A,3,36,,,,,,,,,,,,0.74,0.45,0.59,4*0F
$GPGSV,5,1,17,24,82,110,45,196,74,058,41,18,61,276,41,199,60,167,34,1*66
$GPGSV,5,2,17,45,47,231,37,15,44,033,40,23,40,330,40,195,39,179,34,1*5D
$GPGSV,5,3,17,05,27,107,34,194,26,141,33,13,16,048,24,12,12,151,,1*53
$GPGSV,5,4,17,10,09,312,27,29,07,206,,20,06,122,,32,03,258,,1*6E
$GPGSV,5,5,17,25,01,184,,1*59
$GPGSV,2,1,08,24,82,110,48,196,74,058,45,18,61,276,48,199,60,167,43,8*66
$GPGSV,2,2,08,23,40,330,40,195,39,179,40,194,26,141,31,10,09,312,22,8*6E
$GLGSV,3,1,09,80,45,100,45,85,43,265,22,70,39,351,24,73,24,165,35,1*7B
$GLGSV,3,2,09,86,22,317,28,84,21,195,19,79,20,043,24,69,17,059,32,1*72
$GLGSV,3,3,09,71,17,300,16,1*45
$GAGSV,3,1,09,13,64,252,43,08,51,012,27,07,41,289,17,15,34,174,30,7*75
$GAGSV,3,2,09,26,26,316,18,02,22,097,25,30,18,151,19,03,15,056,21,7*7D
$GAGSV,3,3,09,25,05,052,,7*4F
$GAGSV,2,1,06,13,64,252,44,08,51,012,28,07,41,289,34,15,34,174,35,1*71
$GAGSV,2,2,06,26,26,316,26,03,15,056,24,1*71
$GBGSV,4,1,15,38,81,061,43,39,73,261,44,08,72,007,31,16,66,240,43,1*70
$GBGSV,4,2,15,06,64,237,40,13,63,340,36,46,52,132,45,09,48,228,37,1*7A
$GBGSV,4,3,15,20,45,047,47,19,44,331,30,37,29,057,29,29,27,221,44,1*75
$GBGSV,4,4,15,35,24,281,,36,23,185,30,32,07,089,,1*45
$GBGSV,2,1,07,38,81,061,44,39,73,261,45,46,52,132,46,20,45,047,45,4*7E
$GBGSV,2,2,07,19,44,331,37,29,27,221,43,36,23,185,31,4*4B
$GNGGA,105823.000,2500.7990582,N,12132.4853450,E,4,58,0.45,15.604,M,15.25,M,18,3335*7B
$GNRMC,105823.000,A,2500.7990582,N,12132.4853450,E,0.04,0.95,260623,,,R,V*18
$GPHDT,,T*1B
$GNGGA,105823.200,2500.7990583,N,12132.4853459,E,4,58,0.45,15.595,M,15.25,M,18,3335*7A
$GNRMC,105823.200,A,2500.7990583,N,12132.4853459,E,0.03,0.95,260623,,,R,V*15
$GPHDT,,T*1B
$GNGGA,105823.400,2500.7990725,N,12132.4853493,E,4,59,0.44,15.567,M,15.25,M,18,3335*79
$GNRMC,105823.400,A,2500.7990725,N,12132.4853493,E,0.04,0.95,260623,,,R,V*1C
$GPHDT,,T*1B
$GNGGA,105823.600,2500.7990501,N,12132.4853466,E,4,59,0.44,15.616,M,15.25,M,18,3335*70
$GNRMC,105823.600,A,2500.7990501,N,12132.4853466,E,0.04,0.95,260623,,,R,V*10
$GPHDT,,T*1B
$GNGGA,105823.800,2500.7990499,N,12132.4853445,E,4,59,0.44,15.611,M,15.25,M,18,3335*78
$GNRMC,105823.800,A,2500.7990499,N,12132.4853445,E,0.04,0.95,260623,,,R,V*1F
$GPHDT,,T*1B
$GNGSA,A,3,24,196,18,199,15,23,195,05,194,13,,,0.73,0.44,0.58,1*0B
$GNGSA,A,3,80,85,70,73,86,84,79,69,71,,,,0.73,0.44,0.58,2*08
$GNGSA,A,3,13,08,07,15,26,02,03,,,,,,0.73,0.44,0.58,3*06
$GNGSA,A,3,38,39,08,16,06,13,46,09,20,19,37,29,0.73,0.44,0.58,4*09
$GNGSA,A,3,36,,,,,,,,,,,,0.73,0.44,0.58,4*08
$GPGSV,5,1,17,24,82,110,45,196,74,058,41,18,61,276,41,199,60,167,35,1*67
$GPGSV,5,2,17,45,47,231,37,15,44,033,40,23,40,330,42,195,39,179,34,1*5F
$GPGSV,5,3,17,05,27,107,34,194,26,141,32,13,16,048,27,12,12,151,,1*51
$GPGSV,5,4,17,10,09,312,28,29,07,206,,20,06,122,,32,03,258,,1*61
$GPGSV,5,5,17,25,01,184,,1*59
$GPGSV,2,1,08,24,82,110,48,196,74,058,45,18,61,276,48,199,60,167,43,8*66
$GPGSV,2,2,08,23,40,330,40,195,39,179,40,194,26,141,29,10,09,312,22,8*67
$GLGSV,3,1,09,80,45,100,45,85,43,265,26,70,39,351,25,73,24,165,35,1*7E
$GLGSV,3,2,09,86,22,317,29,84,21,195,19,79,20,043,26,69,17,059,32,1*71
$GLGSV,3,3,09,71,17,300,14,1*47
$GAGSV,3,1,09,13,64,252,43,08,51,012,26,07,41,289,17,15,34,174,29,7*7C
$GAGSV,3,2,09,26,26,316,22,02,22,097,25,30,18,151,19,03,15,056,23,7*76
$GAGSV,3,3,09,25,05,052,,7*4F
$GAGSV,2,1,06,13,64,252,44,08,51,012,32,07,41,289,35,15,34,174,34,1*7A
$GAGSV,2,2,06,26,26,316,26,03,15,056,22,1*77
$GBGSV,4,1,14,38,81,061,43,39,73,261,44,08,72,007,31,16,66,240,43,1*71
$GBGSV,4,2,14,06,64,237,40,13,63,340,38,46,52,132,45,09,48,228,37,1*75
$GBGSV,4,3,14,20,45,047,47,19,44,331,33,37,29,057,30,29,27,220,44,1*7E
$GBGSV,4,4,14,35,24,281,,36,23,185,29,1*7B
$GBGSV,2,1,08,38,81,061,44,39,73,261,45,46,52,132,46,20,45,047,45,4*71
$GBGSV,2,2,08,19,44,331,37,37,29,057,15,29,27,220,43,36,23,185,31,4*7C
$GNGGA,105824.000,2500.7990551,N,12132.4853454,E,4,59,0.44,15.591,M,15.25,M,19,3335*78
$GNRMC,105824.000,A,2500.7990551,N,12132.4853454,E,0.04,0.95,260623,,,R,V*15
$GPHDT,,T*1B
$GNGGA,105824.200,2500.7990593,N,12132.4853468,E,4,59,0.44,15.583,M,15.25,M,19,3335*78
$GNRMC,105824.200,A,2500.7990593,N,12132.4853468,E,0.04,0.95,260623,,,R,V*16
$GPHDT,,T*1B
$GNGGA,105824.400,2500.7990632,N,12132.4853423,E,4,59,0.44,15.580,M,15.25,M,19,3335*7A
$GNRMC,105824.400,A,2500.7990632,N,12132.4853423,E,0.03,0.95,260623,,,R,V*10
$GPHDT,,T*1B
$GNGGA,105824.600,2500.7990655,N,12132.4853451,E,4,59,0.44,15.570,M,15.25,M,19,3335*73
$GNRMC,105824.600,A,2500.7990655,N,12132.4853451,E,0.04,0.95,260623,,,R,V*11
$GPHDT,,T*1B
$GNGGA,105824.800,2500.7990713,N,12132.4853448,E,4,59,0.44,15.552,M,15.25,M,19,3335*76
$GNRMC,105824.800,A,2500.7990713,N,12132.4853448,E,0.05,0.95,260623,,,R,V*15
$GPHDT,,T*1B
$GNGSA,A,3,24,196,18,199,15,23,195,05,194,13,,,0.73,0.44,0.58,1*0B
$GNGSA,A,3,80,85,70,73,86,84,79,69,71,,,,0.73,0.44,0.58,2*08
$GNGSA,A,3,13,08,07,15,26,02,03,,,,,,0.73,0.44,0.58,3*06
$GNGSA,A,3,38,39,08,16,06,13,46,09,20,19,37,29,0.73,0.44,0.58,4*09
$GNGSA,A,3,36,,,,,,,,,,,,0.73,0.44,0.58,4*08
$GPGSV,5,1,17,24,82,110,45,196,74,058,41,18,61,276,41,199,60,167,34,1*66
$GPGSV,5,2,17,45,47,231,37,15,44,033,39,23,40,330,42,195,39,179,36,1*53
$GPGSV,5,3,17,05,27,107,33,194,26,141,32,13,16,048,28,12,12,151,,1*59
$GPGSV,5,4,17,10,09,312,27,29,07,206,,20,06,122,,32,03,258,,1*6E
$GPGSV,5,5,17,25,01,184,,1*59
$GPGSV,2,1,08,24,82,110,48,196,74,058,45,18,61,276,48,199,60,167,43,8*66
$GPGSV,2,2,08,23,40,330,40,195,39,179,40,194,26,141,29,10,09,312,23,8*66
$GLGSV,3,1,09,80,45,100,45,85,43,265,27,70,39,351,26,73,24,165,35,1*7C
$GLGSV,3,2,09,86,22,317,29,84,21,195,19,79,20,043,26,69,17,059,31,1*72
$GLGSV,3,3,09,71,17,300,13,1*40
$GAGSV,3,1,09,13,64,252,43,08,51,012,26,07,41,289,17,15,34,174,29,7*7C
$GAGSV,3,2,09,26,26,316,25,02,22,097,25,30,18,151,19,03,15,056,19,7*78
$GAGSV,3,3,09,25,05,052,,7*4F
$GAGSV,2,1,06,13,64,252,44,08,51,012,31,07,41,289,36,15,34,174,34,1*7A
$GAGSV,2,2,06,26,26,316,26,03,15,056,22,1*77
$GBGSV,4,1,14,38,81,061,43,39,73,261,44,08,72,007,31,16,66,240,43,1*71
$GBGSV,4,2,14,06,64,237,40,13,63,340,38,46,52,132,45,09,48,228,37,1*75
$GBGSV,4,3,14,20,45,047,47,19,44,331,33,37,29,057,30,29,27,220,44,1*7E
$GBGSV,4,4,14,36,23,185,30,32,07,089,,1*7F
$GBGSV,2,1,07,38,81,061,44,39,73,261,45,46,52,132,46,20,45,047,45,4*7E
$GBGSV,2,2,07,19,44,331,37,29,27,220,43,36,23,185,32,4*49
$GNGGA,105825.000,2500.7990568,N,12132.4853440,E,4,59,0.44,15.601,M,15.25,M,20,3335*76
$GNRMC,105825.000,A,2500.7990568,N,12132.4853440,E,0.04,0.95,260623,,,R,V*1B
$GPHDT,,T*1B
$GNGGA,105825.200,2500.7990648,N,12132.4853475,E,4,59,0.45,15.574,M,15.25,M,20,3335*73
$GNRMC,105825.200,A,2500.7990648,N,12132.4853475,E,0.02,0.95,260623,,,R,V*18
$GPHDT,,T*1B
$GNGGA,105825.400,2500.7990643,N,12132.4853511,E,4,59,0.45,15.566,M,15.25,M,17,3335*7A
$GNRMC,105825.400,A,2500.7990643,N,12132.4853511,E,0.01,0.95,260623,,,R,V*15
$GPHDT,,T*1B
$GNGGA,105825.600,2500.7990583,N,12132.4853571,E,2,59,0.45,15.550,M,15.25,M,16,3335*73
$GNRMC,105825.600,A,2500.7990583,N,12132.4853571,E,0.01,0.95,260623,,,D,V*08
$GPHDT,,T*1B
$GNGGA,105825.800,2500.7990583,N,12132.4853631,E,2,59,0.45,15.539,M,15.25,M,16,3335*75
$GNRMC,105825.800,A,2500.7990583,N,12132.4853631,E,0.01,0.95,260623,,,D,V*01
$GPHDT,,T*1B
$GNGSA,A,3,24,196,18,199,15,23,195,05,194,13,,,0.84,0.45,0.71,1*09
$GNGSA,A,3,80,85,70,73,86,84,79,69,71,,,,0.84,0.45,0.71,2*0A
$GNGSA,A,3,13,08,07,15,26,02,03,,,,,,0.84,0.45,0.71,3*04
$GNGSA,A,3,38,39,08,16,06,13,46,09,20,19,37,29,0.84,0.45,0.71,4*0B
$GNGSA,A,3,36,,,,,,,,,,,,0.84,0.45,0.71,4*0A
$GPGSV,5,1,17,24,82,110,45,196,74,058,41,18,61,276,41,199,60,167,34,1*66
$GPGSV,5,2,17,45,47,231,37,15,44,033,39,23,40,330,43,195,39,179,36,1*52
$GPGSV,5,3,17,05,27,107,32,194,26,141,32,13,16,048,28,12,12,151,,1*58
$GPGSV,5,4,17,10,09,312,29,29,07,206,,20,06,122,,32,03,258,,1*60
$GPGSV,5,5,17,25,01,184,,1*59
$GPGSV,2,1,08,24,82,110,48,196,74,058,45,18,61,276,48,199,60,167,43,8*66
$GPGSV,2,2,08,23,40,330,41,195,39,179,40,194,26,141,30,10,09,312,20,8*6C
$GLGSV,3,1,09,80,45,100,45,85,43,265,22,70,39,351,25,73,24,165,35,1*7A
$GLGSV,3,2,09,86,22,317,28,84,21,195,20,79,20,043,28,69,17,059,31,1*77
$GLGSV,3,3,09,71,17,300,14,1*47
$GAGSV,3,1,09,13,64,252,43,08,51,012,25,07,41,289,17,15,34,174,28,7*7E
$GAGSV,3,2,09,26,26,316,23,02,22,097,24,30,18,151,19,03,15,056,19,7*7F
$GAGSV,3,3,09,25,05,052,,7*4F
$GAGSV,2,1,06,13,64,252,44,08,51,012,30,07,41,289,36,15,34,174,35,1*7A
$GAGSV,2,2,06,26,26,316,28,03,15,056,20,1*7B
$GBGSV,4,1,14,38,81,062,43,39,73,262,44,08,72,007,32,16,66,240,43,1*72
$GBGSV,4,2,14,06,64,237,40,13,63,340,38,46,52,132,45,09,48,228,37,1*75
$GBGSV,4,3,14,20,45,047,47,19,44,331,36,37,29,057,30,29,27,220,44,1*7B
$GBGSV,4,4,14,35,24,281,,36,23,185,30,1*73
$GBGSV,2,1,08,38,81,062,43,39,73,262,45,46,52,132,46,20,45,047,45,4*76
$GBGSV,2,2,08,19,44,331,38,37,29,057,26,29,27,220,43,36,23,185,32,4*70
$GNGGA,105826.000,2500.7990643,N,12132.4853631,E,2,59,0.45,15.525,M,15.25,M,17,3335*7D
$GNRMC,105826.000,A,2500.7990643,N,12132.4853631,E,0.01,0.95,260623,,,D,V*05
$GPHDT,,T*1B
$GNGGA,105826.200,2500.7990643,N,12132.4853691,E,2,58,0.47,15.513,M,15.25,M,17,3335*73
$GNRMC,105826.200,A,2500.7990643,N,12132.4853691,E,0.00,0.95,260623,,,D,V*0C
$GPHDT,,T*1B
$GNGGA,105826.400,2500.7990703,N,12132.4853751,E,2,58,0.47,15.491,M,15.25,M,17,3335*76
$GNRMC,105826.400,A,2500.7990703,N,12132.4853751,E,0.00,0.95,260623,,,D,V*02
$GPHDT,,T*1B
$GNGGA,105826.600,2500.7990703,N,12132.4853871,E,2,58,0.47,15.464,M,15.25,M,17,3335*73
$GNRMC,105826.600,A,2500.7990703,N,12132.4853871,E,0.00,0.95,260623,,,D,V*0D
$GPHDT,,T*1B
$GNGGA,105826.800,2500.7990763,N,12132.4853991,E,2,58,0.47,15.434,M,15.25,M,17,3335*71
$GNRMC,105826.800,A,2500.7990763,N,12132.4853991,E,0.01,0.95,260623,,,D,V*0B
$GPHDT,,T*1B
$GNGSA,A,3,24,196,18,199,15,23,195,05,194,13,,,0.89,0.47,0.76,1*01
$GNGSA,A,3,80,85,70,73,86,84,79,69,,,,,0.89,0.47,0.76,2*04
$GNGSA,A,3,13,08,07,15,26,02,03,,,,,,0.89,0.47,0.76,3*0C
$GNGSA,A,3,38,39,08,16,06,13,46,09,20,19,37,29,0.89,0.47,0.76,4*03
$GNGSA,A,3,36,,,,,,,,,,,,0.89,0.47,0.76,4*02
$GPGSV,5,1,17,24,82,110,45,196,74,058,41,18,61,276,41,199,60,167,34,1*66
$GPGSV,5,2,17,45,47,231,37,15,44,033,39,23,40,330,42,195,39,179,35,1*50
$GPGSV,5,3,17,05,27,107,32,194,26,141,32,13,16,048,28,12,12,151,,1*58
$GPGSV,5,4,17,10,09,312,29,29,07,206,,20,06,122,,32,03,258,,1*60
$GPGSV,5,5,17,25,01,184,,1*59
$GPGSV,2,1,08,24,82,110,48,196,74,058,45,18,61,276,48,199,60,167,43,8*66
$GPGSV,2,2,08,23,40,330,41,195,39,179,40,194,26,141,30,10,09,312,22,8*6E
$GLGSV,3,1,09,80,45,100,45,85,43,265,23,70,39,351,25,73,24,165,35,1*7B
$GLGSV,3,2,09,86,22,317,29,84,21,195,21,79,20,043,30,69,17,059,31,1*7E
$GLGSV,3,3,09,71,17,300,13,1*40
$GAGSV,3,1,09,13,64,252,43,08,51,012,26,07,41,289,17,15,34,174,28,7*7D
$GAGSV,3,2,09,26,26,316,22,02,22,097,23,30,18,151,17,03,15,056,18,7*76
$GAGSV,3,3,09,25,05,052,,7*4F
$GAGSV,2,1,06,13,64,252,44,08,51,012,30,07,41,289,36,15,34,174,35,1*7A
$GAGSV,2,2,06,26,26,316,29,03,15,056,23,1*79
$GBGSV,4,1,15,38,81,062,43,39,73,262,44,08,72,007,30,16,66,240,43,1*71
$GBGSV,4,2,15,06,64,237,40,13,63,340,38,46,52,131,45,09,48,228,37,1*77
$GBGSV,4,3,15,20,45,047,47,19,44,331,35,37,29,057,28,29,27,220,44,1*70
$GBGSV,4,4,15,35,24,281,,36,23,185,30,22,06,292,,1*4D
$GBGSV,2,1,08,38,81,062,43,39,73,262,45,46,52,131,46,20,45,047,45,4*75
$GBGSV,2,2,08,19,44,331,38,37,29,057,27,29,27,220,43,36,23,185,32,4*71
$GNGGA,105827.000,2500.7990823,N,12132.4853991,E,2,58,0.47,15.407,M,15.25,M,18,3335*7C
$GNRMC,105827.000,A,2500.7990823,N,12132.4853991,E,0.00,0.95,260623,,,D,V*08
$GPHDT,,T*1B
$GNGGA,105827.200,2500.7990943,N,12132.4853991,E,2,59,0.47,15.373,M,15.25,M,18,3335*7C
$GNRMC,105827.200,A,2500.7990943,N,12132.4853991,E,0.00,0.95,260623,,,D,V*0D
$GPHDT,,T*1B
$GNGGA,105827.400,2500.7990943,N,12132.4854051,E,2,59,0.47,15.342,M,15.25,M,18,3335*7A
$GNRMC,105827.400,A,2500.7990943,N,12132.4854051,E,0.00,0.95,260623,,,D,V*09
$GPHDT,,T*1B
$GNGGA,105827.600,2500.7990943,N,12132.4854051,E,2,59,0.47,15.321,M,15.25,M,0,3335*44
$GNRMC,105827.600,A,2500.7990943,N,12132.4854051,E,0.00,0.95,260623,,,D,V*0B
$GPHDT,,T*1B
$GNGGA,105827.800,2500.7990943,N,12132.4853991,E,2,59,0.47,15.305,M,15.25,M,0,3335*4E
$GNRMC,105827.800,A,2500.7990943,N,12132.4853991,E,0.00,0.95,260623,,,D,V*07
$GPHDT,,T*1B
$GNGSA,A,3,24,196,18,199,15,23,195,05,194,13,,,0.89,0.47,0.76,1*01
$GNGSA,A,3,80,85,70,73,86,84,79,69,,,,,0.89,0.47,0.76,2*04
$GNGSA,A,3,13,08,07,15,26,02,03,,,,,,0.89,0.47,0.76,3*0C
$GNGSA,A,3,38,39,08,16,06,13,46,09,20,19,37,29,0.89,0.47,0.76,4*03
$GNGSA,A,3,36,,,,,,,,,,,,0.89,0.47,0.76,4*02
$GPGSV,5,1,17,24,82,110,45,196,74,058,41,18,61,276,41,199,60,167,34,1*66
$GPGSV,5,2,17,45,47,231,37,15,44,033,39,23,40,330,40,195,39,179,34,1*53
$GPGSV,5,3,17,05,27,107,33,194,26,141,33,13,16,048,28,12,12,151,,1*58
$GPGSV,5,4,17,10,09,312,29,29,07,206,,20,06,122,,32,03,258,,1*60
$GPGSV,5,5,17,25,01,184,,1*59
$GPGSV,2,1,08,24,82,110,48,196,74,058,45,18,61,276,48,199,60,167,44,8*61
$GPGSV,2,2,08,23,40,330,40,195,39,179,39,194,26,141,30,10,09,312,22,8*61
$GLGSV,3,1,09,80,45,100,45,85,43,265,23,70,39,351,25,73,24,165,35,1*7B
$GLGSV,3,2,09,86,22,317,29,84,21,195,21,79,20,043,30,69,17,059,31,1*7E
$GLGSV,3,3,09,71,17,300,17,1*44
$GAGSV,3,1,09,13,64,252,43,08,51,012,29,07,41,289,18,15,34,174,27,7*72
$GAGSV,3,2,09,26,26,316,24,02,22,097,23,30,18,151,17,03,15,056,19,7*71
$GAGSV,3,3,09,25,05,052,,7*4F
$GAGSV,2,1,07,13,64,252,44,08,51,012,32,07,41,289,36,15,34,174,34,1*78
$GAGSV,2,2,07,26,26,316,29,02,22,097,20,03,15,056,23,1*46
$GBGSV,4,1,16,38,81,062,43,39,73,262,44,08,72,007,31,16,66,240,43,1*73
$GBGSV,4,2,16,06,64,237,40,13,63,340,38,46,52,131,45,09,48,228,36,1*75
$GBGSV,4,3,16,20,45,047,47,19,44,331,33,31,32,204,,37,29,057,29,1*7F
$GBGSV,4,4,16,29,27,220,44,35,24,281,,36,23,185,29,10,03,205,,1*72
$GBGSV,2,1,08,38,81,062,43,39,73,262,45,46,52,131,46,20,45,047,45,4*75
$GBGSV,2,2,08,19,44,331,38,37,29,057,25,29,27,220,43,36,23,185,32,4*73
$GNGGA,105828.000,2500.7991063,N,12132.4853991,E,2,59,0.47,15.284,M,15.25,M,1,3335*4A
$GNRMC,105828.000,A,2500.7991063,N,12132.4853991,E,0.00,0.95,260623,,,D,V*0A
$GPHDT,,T*1B
$GNGGA,105828.200,2500.7989645,N,12132.4853666,E,4,59,0.47,15.881,M,15.25,M,1,3335*4D
$GNRMC,105828.200,A,2500.7989645,N,12132.4853666,E,0.00,0.95,260623,,,R,V*12
$GPHDT,,T*1B
$GNGGA,105828.400,2500.7989635,N,12132.4853662,E,4,59,0.47,15.878,M,15.25,M,1,3335*4E
$GNRMC,105828.400,A,2500.7989635,N,12132.4853662,E,0.00,0.95,260623,,,R,V*17
$GPHDT,,T*1B
$GNGGA,105828.600,2500.7989650,N,12132.4853686,E,4,59,0.47,15.881,M,15.25,M,0,3335*42
$GNRMC,105828.600,A,2500.7989650,N,12132.4853686,E,0.00,0.95,260623,,,R,V*1C
$GPHDT,,T*1B
$GNGGA,105828.800,2500.7989678,N,12132.4853691,E,4,59,0.47,15.883,M,15.25,M,0,3335*42
$GNRMC,105828.800,A,2500.7989678,N,12132.4853691,E,0.00,0.95,260623,,,R,V*1E
$GPHDT,,T*1B
$GNGSA,A,3,24,196,18,199,15,23,195,05,194,13,,,0.89,0.47,0.76,1*01
$GNGSA,A,3,80,85,70,73,86,84,79,69,,,,,0.89,0.47,0.76,2*04
$GNGSA,A,3,13,08,07,15,26,02,03,,,,,,0.89,0.47,0.76,3*0C
$GNGSA,A,3,38,39,08,16,06,13,46,09,20,19,37,29,0.89,0.47,0.76,4*03
$GNGSA,A,3,36,,,,,,,,,,,,0.89,0.47,0.76,4*02
$GPGSV,5,1,17,24,82,110,45,196,74,058,41,18,61,276,41,199,60,167,34,1*66
$GPGSV,5,2,17,45,47,231,37,15,44,033,39,23,40,330,40,195,39,179,34,1*53
$GPGSV,5,3,17,05,27,107,32,194,26,141,33,13,16,048,30,12,12,151,,1*50
$GPGSV,5,4,17,10,09,312,28,29,07,206,,20,06,122,,32,03,258,,1*61
$GPGSV,5,5,17,25,01,184,,1*59
$GPGSV,2,1,08,24,82,110,48,196,74,058,45,18,61,276,48,199,60,167,44,8*61
$GPGSV,2,2,08,23,40,330,40,195,39,179,39,194,26,141,31,10,09,312,19,8*68
$GLGSV,3,1,09,80,45,100,45,85,43,265,23,70,39,351,27,73,24,165,36,1*7A
$GLGSV,3,2,09,86,22,317,30,84,21,195,20,79,20,043,30,69,17,059,30,1*76
$GLGSV,3,3,09,71,17,300,18,1*4B
$GAGSV,3,1,09,13,64,252,43,08,51,012,29,07,41,289,20,15,34,174,27,7*79
$GAGSV,3,2,09,26,26,316,25,02,22,097,23,30,18,151,17,03,15,056,21,7*7B
$GAGSV,3,3,09,25,05,052,,7*4F
$GAGSV,2,1,07,13,64,252,44,08,51,012,32,07,41,289,36,15,34,174,35,1*79
$GAGSV,2,2,07,26,26,316,30,02,22,097,23,03,15,056,21,1*4F
$GBGSV,4,1,15,38,81,062,43,39,73,262,44,08,72,007,31,16,66,240,43,1*70
$GBGSV,4,2,15,06,64,237,40,13,63,340,38,46,52,131,45,09,48,228,36,1*76
$GBGSV,4,3,15,20,45,047,47,19,44,331,34,31,32,204,,37,29,057,30,1*73
$GBGSV,4,4,15,29,27,220,44,35,24,281,,36,23,185,28,1*45
$GBGSV,2,1,08,38,81,062,43,39,73,262,45,46,52,131,46,20,45,047,45,4*75
$GBGSV,2,2,08,19,44,331,39,37,29,057,27,29,27,220,43,36,23,185,32,4*70
$GNGGA,105829.000,2500.7989656,N,12132.4853663,E,4,59,0.47,15.886,M,15.25,M,1,3335*4E
$GNRMC,105829.000,A,2500.7989656,N,12132.4853663,E,0.00,0.95,260623,,,R,V*16
$GPHDT,,T*1B
$GNGGA,105829.200,2500.7989664,N,12132.4853675,E,4,60,0.47,15.883,M,15.25,M,1,3335*45
$GNRMC,105829.200,A,2500.7989664,N,12132.4853675,E,0.00,0.95,260623,,,R,V*12
$GPHDT,,T*1B
$GNGGA,105829.400,2500.7989642,N,12132.4853682,E,4,60,0.47,15.895,M,15.25,M,1,3335*48
$GNRMC,105829.400,A,2500.7989642,N,12132.4853682,E,0.00,0.95,260623,,,R,V*18
$GPHDT,,T*1B
$GNGGA,105829.600,2500.7989665,N,12132.4853703,E,4,60,0.47,15.887,M,15.25,M,1,3335*44
$GNRMC,105829.600,A,2500.7989665,N,12132.4853703,E,0.00,0.95,260623,,,R,V*17
$GPHDT,,T*1B
$GNGGA,105829.800,2500.7989670,N,12132.4853671,E,4,60,0.47,15.887,M,15.25,M,0,3335*4B
$GNRMC,105829.800,A,2500.7989670,N,12132.4853671,E,0.00,0.95,260623,,,R,V*19
$GPHDT,,T*1B
$GNGSA,A,3,24,196,18,199,15,23,195,05,194,13,,,0.84,0.45,0.71,1*09
$GNGSA,A,3,80,85,70,73,86,84,79,69,71,,,,0.84,0.45,0.71,2*0A
$GNGSA,A,3,13,08,07,15,26,02,03,,,,,,0.84,0.45,0.71,3*04
$GNGSA,A,3,38,39,08,16,06,13,46,09,20,19,37,29,0.84,0.45,0.71,4*0B
$GNGSA,A,3,36,,,,,,,,,,,,0.84,0.45,0.71,4*0A
$GPGSV,5,1,17,24,82,110,45,196,74,058,41,18,61,276,41,199,60,167,34,1*66
$GPGSV,5,2,17,45,47,231,37,15,44,033,38,23,40,330,41,195,39,179,34,1*53
$GPGSV,5,3,17,05,27,107,32,194,26,141,30,13,16,048,30,12,12,151,,1*53
$GPGSV,5,4,17,10,09,312,27,29,07,206,17,20,06,122,,32,03,258,,1*68
$GPGSV,5,5,17,25,01,184,,1*59
$GPGSV,2,1,08,24,82,110,48,196,74,058,45,18,61,276,48,199,60,167,44,8*61
$GPGSV,2,2,08,23,40,330,40,195,39,179,39,194,26,141,31,10,09,312,18,8*69
$GLGSV,3,1,09,80,45,100,45,85,43,265,23,70,39,351,27,73,24,165,36,1*7A
$GLGSV,3,2,09,86,22,317,30,84,21,195,20,79,20,043,29,69,17,059,28,1*77
$GLGSV,3,3,09,71,17,300,18,1*4B
$GAGSV,3,1,09,13,64,252,43,08,51,012,30,07,41,289,20,15,34,174,28,7*7E
$GAGSV,3,2,09,26,26,316,26,02,22,097,20,30,18,151,18,03,15,056,22,7*77
$GAGSV,3,3,09,25,05,052,,7*4F
$GAGSV,2,1,07,13,64,252,44,08,51,012,31,07,41,289,36,15,34,174,35,1*7A
$GAGSV,2,2,07,26,26,316,31,02,22,097,22,03,15,056,24,1*4A
$GBGSV,4,1,15,38,81,062,43,39,73,262,44,08,72,007,33,16,66,240,43,1*72
$GBGSV,4,2,15,06,64,237,40,13,63,340,39,46,52,131,45,09,48,228,35,1*74
$GBGSV,4,3,15,20,45,047,47,19,44,331,36,37,29,057,31,29,27,220,44,1*7B
$GBGSV,4,4,15,35,24,281,,36,23,185,28,22,06,292,,1*44
$GBGSV,2,1,08,38,81,062,43,39,73,262,45,46,52,131,46,20,45,047,45,4*75
$GBGSV,2,2,08,19,44,331,39,37,29,057,27,29,27,220,43,36,23,185,32,4*70
$GNGGA,105830.000,2500.7989697,N,12132.4853680,E,4,61,0.45,15.894,M,15.25,M,1,3335*4C
$GNRMC,105830.000,A,2500.7989697,N,12132.4853680,E,0.00,0.95,260623,,,R,V*1E
$GPHDT,,T*1B
$GNGGA,105830.200,2500.7989733,N,12132.4853648,E,4,61,0.45,15.910,M,15.25,M,1,3335*48
$GNRMC,105830.200,A,2500.7989733,N,12132.4853648,E,0.00,0.95,260623,,,R,V*17
$GPHDT,,T*1B
$GNGGA,105830.400,2500.7989715,N,12132.4853624,E,4,61,0.45,15.902,M,15.25,M,1,3335*43
$GNRMC,105830.400,A,2500.7989715,N,12132.4853624,E,0.00,0.95,260623,,,R,V*1F
$GPHDT,,T*1B
$GNGGA,105830.600,2500.7989740,N,12132.4853605,E,4,61,0.45,15.900,M,15.25,M,1,3335*40
$GNRMC,105830.600,A,2500.7989740,N,12132.4853605,E,0.00,0.95,260623,,,R,V*1E
$GPHDT,,T*1B
$GNGGA,105830.800,2500.7989727,N,12132.4853628,E,4,61,0.45,15.901,M,15.25,M,0,3335*40
$GNRMC,105830.800,A,2500.7989727,N,12132.4853628,E,0.00,0.95,260623,,,R,V*1E
$GPHDT,,T*1B
$GNGSA,A,3,24,196,18,199,15,23,195,05,194,13,,,0.84,0.45,0.71,1*09
$GNGSA,A,3,80,85,70,73,86,84,79,69,71,,,,0.84,0.45,0.71,2*0A
$GNGSA,A,3,13,08,07,15,26,02,03,,,,,,0.84,0.45,0.71,3*04
$GNGSA,A,3,38,39,08,16,06,13,46,09,20,19,37,29,0.84,0.45,0.71,4*0B
$GNGSA,A,3,36,,,,,,,,,,,,0.84,0.45,0.71,4*0A
$GPGSV,5,1,17,24,82,110,45,196,74,058,40,18,61,276,42,199,60,167,35,1*65
$GPGSV,5,2,17,45,47,231,37,15,44,033,39,23,40,330,44,195,39,179,35,1*56
$GPGSV,5,3,17,05,27,107,31,194,26,141,31,13,16,048,30,12,12,151,,1*51
$GPGSV,5,4,17,10,09,312,27,29,07,206,17,20,06,122,,32,03,258,,1*68
$GPGSV,5,5,17,25,01,184,,1*59
$GPGSV,2,1,08,24,82,110,48,196,74,058,45,18,61,276,48,199,60,167,44,8*61
$GPGSV,2,2,08,23,40,330,41,195,39,179,39,194,26,141,30,10,09,312,18,8*69
$GLGSV,3,1,09,80,45,100,45,85,43,265,23,70,39,351,27,73,24,165,36,1*7A
$GLGSV,3,2,09,86,22,317,28,84,21,195,21,79,20,043,31,69,17,059,28,1*76
$GLGSV,3,3,09,71,17,300,18,1*4B
$GAGSV,3,1,09,13,64,252,43,08,51,012,27,07,41,289,20,15,34,174,28,7*78
$GAGSV,3,2,09,26,26,316,24,02,22,097,20,30,18,151,19,03,15,056,20,7*76
$GAGSV,3,3,09,25,05,052,,7*4F
$GAGSV,2,1,07,13,64,252,44,08,51,012,29,07,41,289,36,15,34,174,35,1*73
$GAGSV,2,2,07,26,26,316,29,02,22,097,23,03,15,056,22,1*44
$GBGSV,4,1,15,38,81,062,43,39,73,262,44,08,72,007,31,16,66,240,43,1*70
$GBGSV,4,2,15,06,64,237,40,13,63,340,39,46,52,131,45,09,48,228,36,1*77
$GBGSV,4,3,15,20,45,047,47,19,44,331,40,37,29,057,31,29,27,220,44,1*7A
$GBGSV,4,4,15,35,24,281,,36,23,185,27,22,06,292,,1*4B
$GBGSV,2,1,08,38,81,062,43,39,73,262,45,46,52,131,46,20,45,047,45,4*75
$GBGSV,2,2,08,19,44,331,39,37,29,057,27,29,27,220,43,36,23,185,33,4*71
$GNGGA,105831.000,2500.7989688,N,12132.4853665,E,4,61,0.45,15.884,M,15.25,M,1,3335*49
$GNRMC,105831.000,A,2500.7989688,N,12132.4853665,E,0.00,0.95,260623,,,R,V*1A
$GPHDT,,T*1B
$GNGGA,105831.200,2500.7989688,N,12132.4853679,E,4,61,0.45,15.882,M,15.25,M,1,3335*40
$GNRMC,105831.200,A,2500.7989688,N,12132.4853679,E,0.00,0.95,260623,,,R,V*15
$GPHDT,86.195,T*06
$GNGGA,105831.400,2500.7989699,N,12132.4853628,E,4,61,0.45,15.900,M,15.25,M,1,3335*49
$GNRMC,105831.400,A,2500.7989699,N,12132.4853628,E,0.00,0.95,260623,,,R,V*17
$GPHDT,85.647,T*0D
$GNGGA,105831.600,2500.7989712,N,12132.4853637,E,4,61,0.45,15.900,M,15.25,M,1,3335*47
$GNRMC,105831.600,A,2500.7989712,N,12132.4853637,E,0.00,0.95,260623,,,R,V*19
$GPHDT,85.992,T*0A
$GNGGA,105831.800,2500.7989703,N,12132.4853640,E,4,61,0.45,15.905,M,15.25,M,0,3335*4D
$GNRMC,105831.800,A,2500.7989703,N,12132.4853640,E,0.00,0.95,260623,,,R,V*17
$GPHDT,85.913,T*03
$GNGSA,A,3,24,196,18,199,15,23,195,05,194,13,,,0.84,0.45,0.71,1*09
$GNGSA,A,3,80,85,70,73,86,84,79,69,71,,,,0.84,0.45,0.71,2*0A
$GNGSA,A,3,13,08,07,15,26,02,03,,,,,,0.84,0.45,0.71,3*04
$GNGSA,A,3,38,39,08,16,06,13,46,09,20,19,37,29,0.84,0.45,0.71,4*0B
$GNGSA,A,3,36,,,,,,,,,,,,0.84,0.45,0.71,4*0A
$GPGSV,5,1,17,24,82,110,45,196,74,058,40,18,61,276,42,199,60,167,35,1*65
$GPGSV,5,2,17,45,47,231,37,15,44,033,39,23,40,330,45,195,39,179,36,1*54
$GPGSV,5,3,17,05,27,107,31,194,26,141,29,13,16,048,30,12,12,151,17,1*5E
$GPGSV,5,4,17,10,09,312,27,29,07,206,17,20,06,122,,32,03,258,,1*68
$GPGSV,5,5,17,25,01,184,,1*59
$GPGSV,2,1,08,24,82,110,48,196,74,058,45,18,61,276,48,199,60,167,44,8*61
$GPGSV,2,2,08,23,40,330,43,195,39,179,40,194,26,141,30,10,09,312,15,8*68
$GLGSV,3,1,09,80,45,100,45,85,43,265,25,70,39,351,28,73,24,165,36,1*73
$GLGSV,3,2,09,86,22,317,28,84,21,195,21,79,20,043,31,69,17,059,28,1*76
$GLGSV,3,3,09,71,17,300,23,1*43
$GAGSV,3,1,09,13,64,252,43,08,51,012,27,07,41,289,20,15,34,174,29,7*79
$GAGSV,3,2,09,26,26,316,24,02,22,097,20,30,18,151,19,03,15,056,20,7*76
$GAGSV,3,3,09,25,05,052,,7*4F
$GAGSV,2,1,07,13,64,252,44,08,51,012,29,07,41,289,36,15,34,174,35,1*73
$GAGSV,2,2,07,26,26,316,28,02,22,097,22,03,15,056,23,1*45
$GBGSV,4,1,15,38,81,062,43,39,73,262,44,08,72,007,31,16,66,240,43,1*70
$GBGSV,4,2,15,06,64,237,40,13,63,340,39,46,52,131,45,09,48,228,36,1*77
$GBGSV,4,3,15,20,45,047,47,19,44,331,41,37,29,057,30,29,27,220,44,1*7A
$GBGSV,4,4,15,35,24,281,,36,23,185,24,22,06,292,,1*48
$GBGSV,2,1,08,38,81,062,43,39,73,262,45,46,52,131,46,20,45,047,45,4*75
$GBGSV,2,2,08,19,44,331,41,37,29,057,28,29,27,220,43,36,23,185,32,4*70
$GNGGA,105832.000,2500.7989704,N,12132.4853622,E,4,61,0.45,15.903,M,15.25,M,1,3335*42
$GNRMC,105832.000,A,2500.7989704,N,12132.4853622,E,0.00,0.95,260623,,,R,V*1F
$GPHDT,85.541,T*08
$GNGGA,105832.200,2500.7989722,N,12132.4853634,E,4,61,0.45,15.908,M,15.25,M,1,3335*48
$GNRMC,105832.200,A,2500.7989722,N,12132.4853634,E,0.00,0.95,260623,,,R,V*1E
$GPHDT,85.951,T*05
$GNGGA,105832.400,2500.7989711,N,12132.4853622,E,4,61,0.45,15.897,M,15.25,M,1,3335*4E
$GNRMC,105832.400,A,2500.7989711,N,12132.4853622,E,0.00,0.95,260623,,,R,V*1F
$GPHDT,86.314,T*0D
$GNGGA,105832.600,2500.7989711,N,12132.4853581,E,4,61,0.45,15.894,M,15.25,M,1,3335*45
$GNRMC,105832.600,A,2500.7989711,N,12132.4853581,E,0.00,0.95,260623,,,R,V*17
$GPHDT,86.513,T*0C
$GNGGA,105832.800,2500.7989702,N,12132.4853636,E,4,61,0.45,15.903,M,15.25,M,0,3335*48
$GNRMC,105832.800,A,2500.7989702,N,12132.4853636,E,0.00,0.95,260623,,,R,V*14
$GPHDT,86.365,T*0B
$GNGSA,A,3,24,196,18,199,15,23,195,05,194,13,,,0.84,0.45,0.71,1*09
$GNGSA,A,3,80,85,70,73,86,84,79,69,71,,,,0.84,0.45,0.71,2*0A
$GNGSA,A,3,13,08,07,15,26,02,03,,,,,,0.84,0.45,0.71,3*04
$GNGSA,A,3,38,39,08,16,06,13,46,09,20,19,37,29,0.84,0.45,0.71,4*0B
$GNGSA,A,3,36,,,,,,,,,,,,0.84,0.45,0.71,4*0A
$GPGSV,5,1,17,24,82,110,45,196,74,058,40,18,61,276,42,199,60,167,34,1*64
$GPGSV,5,2,17,45,47,231,37,15,44,033,39,23,40,330,41,195,39,179,36,1*50
$GPGSV,5,3,17,05,27,107,32,194,26,141,30,13,16,048,31,12,12,151,16,1*55
$GPGSV,5,4,17,10,09,312,25,29,07,206,17,20,06,122,,32,03,258,,1*6A
$GPGSV,5,5,17,25,01,184,,1*59
$GPGSV,2,1,08,24,82,110,48,196,74,058,45,18,61,276,48,199,60,167,44,8*61
$GPGSV,2,2,08,23,40,330,40,195,39,179,40,194,26,141,29,10,09,312,13,8*65
$GLGSV,3,1,09,80,45,100,44,85,43,265,24,70,39,351,27,73,24,165,36,1*7C
$GLGSV,3,2,09,86,22,317,29,84,21,195,21,79,20,043,32,69,17,059,29,1*75
$GLGSV,3,3,09,71,17,300,22,1*42
$GAGSV,3,1,09,13,64,252,43,08,51,012,29,07,41,289,21,15,34,174,29,7*76
$GAGSV,3,2,09,26,26,316,24,02,22,097,20,30,18,151,19,03,15,056,20,7*76
$GAGSV,3,3,09,25,05,052,,7*4F
$GAGSV,2,1,07,13,64,252,44,08,51,012,29,07,41,289,34,15,34,174,35,1*71
$GAGSV,2,2,07,26,26,316,32,02,22,097,23,03,15,056,24,1*48
$GBGSV,4,1,15,38,81,062,43,39,73,262,44,08,72,007,32,16,66,240,43,1*73
$GBGSV,4,2,15,06,64,237,40,13,63,340,38,46,52,131,45,09,48,228,36,1*76
$GBGSV,4,3,15,20,45,047,47,19,44,331,36,37,29,057,31,29,27,220,44,1*7B
$GBGSV,4,4,15,35,24,281,,36,23,185,26,22,06,292,,1*4A
$GBGSV,2,1,08,38,81,062,43,39,73,262,45,46,52,131,46,20,45,047,45,4*75
$GBGSV,2,2,08,19,44,331,39,37,29,057,28,29,27,220,43,36,23,185,33,4*7E
$GNGGA,105833.000,2500.7989692,N,12132.4853618,E,4,61,0.45,15.899,M,15.25,M,1,3335*46
$GNRMC,105833.000,A,2500.7989692,N,12132.4853618,E,0.00,0.95,260623,,,R,V*19
$GPHDT,86.253,T*0F
$GNGGA,105833.200,2500.7989725,N,12132.4853618,E,4,61,0.45,15.905,M,15.25,M,1,3335*4D
$GNRMC,105833.200,A,2500.7989725,N,12132.4853618,E,0.00,0.95,260623,,,R,V*16
