$FW : RTK35X,V1.1X0314AS,Lib20210517,1*54
$Tool : LOCOSYS , GNSS Firebird , v1.0.0.19*39
$---------------------------------------------------*2D
,1*75
$GBGSV,4,4,14,35,24,282,25,36,22,186,32,1*77
$GBGSV,2,1,08,38,80,059,44,39,73,259,45,46,51,133,46,20,46,045,46,4*70
$GBGSV,2,2,08,19,43,329,41,37,30,058,28,29,28,221,37,36,22,186,25,4*70
$GNGGA,105602.000,2500.7989914,N,12132.4853343,E,4,60,0.45,16.040,M,15.25,M,21,3335*7C
$GNRMC,105602.000,A,2500.7989914,N,12132.4853343,E,0.04,242.85,260623,,,R,V*1E
$GPHDT,313.028,T*3E
$GNGGA,105602.200,2500.7989899,N,12132.4853348,E,4,59,0.45,16.032,M,15.25,M,21,3335*7E
$GNRMC,105602.200,A,2500.7989899,N,12132.4853348,E,0.02,242.85,260623,,,R,V*15
$GPHDT,313.222,T*36
$GNGGA,105602.400,2500.7989896,N,12132.4853342,E,4,59,0.45,16.026,M,15.25,M,21,3335*78
$GNRMC,105602.400,A,2500.7989896,N,12132.4853342,E,0.03,242.85,260623,,,R,V*17
$GPHDT,313.295,T*3A
$GNGGA,105602.600,2500.7989880,N,12132.4853351,E,4,60,0.45,16.032,M,15.25,M,21,3335*70
$GNRMC,105602.600,A,2500.7989880,N,12132.4853351,E,0.04,242.85,260623,,,R,V*17
$GPHDT,313.383,T*3C
$GNGGA,105602.800,2500.7989900,N,12132.4853335,E,4,61,0.45,16.029,M,15.25,M,21,3335*7E
$GNRMC,105602.800,A,2500.7989900,N,12132.4853335,E,0.04,242.85,260623,,,R,V*12
$GPHDT,313.686,T*3C
$GNGSA,A,3,24,196,18,199,15,23,195,05,194,,,,0.74,0.45,0.59,1*0E
$GNGSA,A,3,80,85,70,73,86,79,69,71,,,,,0.74,0.45,0.59,2*03
$GNGSA,A,3,13,08,07,15,26,02,03,,,,,,0.74,0.45,0.59,3*01
$GNGSA,A,3,38,39,08,16,06,13,46,09,20,19,37,29,0.74,0.45,0.59,4*0E
$GNGSA,A,3,35,36,,,,,,,,,,,0.74,0.45,0.59,4*09
$GPGSV,5,1,17,24,82,118,43,196,74,057,41,18,61,278,40,199,60,167,32,1*6E
$GPGSV,5,2,17,45,47,231,31,15,44,032,44,23,39,329,42,195,39,179,37,1*59
$GPGSV,5,3,17,05,28,106,35,194,26,142,35,13,17,047,23,12,12,152,16,1*54
$GPGSV,5,4,17,10,08,311,16,29,07,206,21,20,06,122,,32,03,258,,1*6D
$GPGSV,5,5,17,25,01,184,,1*59
$GPGSV,2,1,08,24,82,118,49,196,74,057,45,18,61,278,48,199,60,167,44,8*69
$GPGSV,2,2,08,23,39,329,43,195,39,179,40,194,26,142,29,10,08,311,21,8*60
$GLGSV,3,1,09,80,44,102,45,85,44,267,28,70,39,350,26,84,23,196,17,1*77
$GLGSV,3,2,09,73,22,166,34,86,21,318,32,79,20,044,25,69,18,058,23,1*75
$GLGSV,3,3,09,71,16,299,27,1*47
$GAGSV,3,1,09,13,64,254,42,08,52,011,37,07,41,288,19,15,34,174,27,7*7A
$GAGSV,3,2,09,26,25,316,27,02,21,097,14,30,17,151,,03,16,055,15,7*73
$GAGSV,3,3,09,25,05,052,,7*4F
$GAGSV,2,1,07,13,64,254,43,08,52,011,35,07,41,288,26,15,34,174,28,1*73
$GAGSV,2,2,07,26,25,316,33,02,21,097,24,03,16,055,18,1*41
$GBGSV,4,1,14,38,80,059,43,39,73,259,42,08,72,007,35,16,66,238,40,1*7E
$GBGSV,4,2,14,06,64,236,39,13,63,341,39,46,51,133,44,09,47,227,31,1*7F
$GBGSV,4,3,14,20,46,045,42,19,43,329,48,37,30,058,30,29,28,221,37,1*75
$GBGSV,4,4,14,35,24,282,24,36,22,186,33,1*77
$GBGSV,2,1,08,38,80,059,44,39,73,259,46,46,51,133,46,20,46,045,46,4*73
$GBGSV,2,2,08,19,43,329,41,37,30,058,28,29,28,221,39,36,22,186,24,4*7F
$GNGGA,105603.000,2500.7989904,N,12132.4853337,E,4,60,0.45,16.040,M,15.25,M,22,3335*7C
$GNRMC,105603.000,A,2500.7989904,N,12132.4853337,E,0.03,242.85,260623,,,R,V*1A
$GPHDT,313.155,T*35
$GNGGA,105603.200,2500.7989911,N,12132.4853332,E,4,61,0.45,16.034,M,15.25,M,22,3335*7D
$GNRMC,105603.200,A,2500.7989911,N,12132.4853332,E,0.02,242.85,260623,,,R,V*18
$GPHDT,313.150,T*30
$GNGGA,105603.400,2500.7989909,N,12132.4853342,E,4,61,0.45,16.032,M,15.25,M,22,3335*73
$GNRMC,105603.400,A,2500.7989909,N,12132.4853342,E,0.02,242.85,260623,,,R,V*10
$GPHDT,313.077,T*34
$GNGGA,105603.600,2500.7989899,N,12132.4853327,E,4,61,0.45,16.026,M,15.25,M,22,3335*7F
$GNRMC,105603.600,A,2500.7989899,N,12132.4853327,E,0.03,242.85,260623,,,R,V*18
$GPHDT,313.582,T*3B
$GNGGA,105603.800,2500.7989895,N,12132.4853306,E,4,60,0.45,16.024,M,15.25,M,22,3335*7D
$GNRMC,105603.800,A,2500.7989895,N,12132.4853306,E,0.04,242.85,260623,,,R,V*1E
$GPHDT,313.762,T*37
$GNGSA,A,3,24,196,18,199,15,23,195,05,194,13,,,0.71,0.43,0.57,1*01
$GNGSA,A,3,80,85,70,84,73,86,79,69,71,,,,0.71,0.43,0.57,2*02
$GNGSA,A,3,13,08,07,15,26,02,03,,,,,,0.71,0.43,0.57,3*0C
$GNGSA,A,3,38,39,08,16,06,13,46,09,20,19,37,29,0.71,0.43,0.57,4*03
$GNGSA,A,3,35,36,,,,,,,,,,,0.71,0.43,0.57,4*04
$GPGSV,5,1,17,24,82,118,43,196,74,057,41,18,61,278,41,199,60,167,32,1*6F
$GPGSV,5,2,17,45,47,231,33,15,44,032,44,23,39,329,42,195,39,179,37,1*5B
$GPGSV,5,3,17,05,28,106,35,194,26,142,34,13,17,047,28,12,12,152,15,1*5D
$GPGSV,5,4,17,10,08,311,16,29,07,206,20,20,06,122,,32,03,258,,1*6C
$GPGSV,5,5,17,25,01,184,,1*59
$GPGSV,2,1,08,24,82,118,48,196,74,057,45,18,61,278,48,199,60,167,44,8*68
$GPGSV,2,2,08,23,39,329,42,195,39,179,40,194,26,142,29,10,08,311,21,8*61
$GLGSV,3,1,09,80,44,102,45,85,44,267,29,70,39,350,27,84,23,196,17,1*77
$GLGSV,3,2,09,73,22,166,33,86,21,318,33,79,20,044,24,69,18,058,24,1*75
$GLGSV,3,3,09,71,16,299,29,1*49
$GAGSV,3,1,09,13,64,254,42,08,52,011,37,07,41,288,22,15,34,174,27,7*72
$GAGSV,3,2,09,26,25,316,27,02,21,097,15,30,17,151,,03,16,055,15,7*72
$GAGSV,3,3,09,25,05,052,,7*4F
$GAGSV,2,1,06,13,64,254,43,08,52,011,35,07,41,288,26,15,34,174,28,1*72
$GAGSV,2,2,06,26,25,316,34,02,21,097,22,1*7C
$GBGSV,4,1,14,38,80,059,43,39,73,259,42,08,72,007,35,16,66,238,40,1*7E
$GBGSV,4,2,14,06,64,236,39,13,63,341,39,46,51,133,44,09,47,227,34,1*7A
$GBGSV,4,3,14,20,46,045,41,19,43,329,48,37,30,058,30,29,28,221,37,1*76
$GBGSV,4,4,14,35,24,282,23,36,22,186,33,1*70
$GBGSV,2,1,08,38,80,059,45,39,73,259,46,46,51,133,46,20,46,045,46,4*72
$GBGSV,2,2,08,19,43,329,41,37,30,058,28,29,28,221,39,36,22,186,27,4*7C
$GNGGA,105604.000,2500.7989789,N,12132.4853423,E,4,61,0.43,15.954,M,15.25,M,23,3335*7B
$GNRMC,105604.000,A,2500.7989789,N,12132.4853423,E,0.04,242.85,260623,,,R,V*13
$GPHDT,313.948,T*31
$GNGGA,105604.200,2500.7989802,N,12132.4853402,E,4,61,0.43,15.956,M,15.25,M,23,3335*74
$GNRMC,105604.200,A,2500.7989802,N,12132.4853402,E,0.03,242.85,260623,,,R,V*19
$GPHDT,313.729,T*38
$GNGGA,105604.400,2500.7989799,N,12132.4853415,E,4,61,0.43,15.964,M,15.25,M,23,3335*78
$GNRMC,105604.400,A,2500.7989799,N,12132.4853415,E,0.03,242.85,260623,,,R,V*14
$GPHDT,313.639,T*38
$GNGGA,105604.600,2500.7989832,N,12132.4853419,E,4,61,0.43,15.976,M,15.25,M,23,3335*7B
$GNRMC,105604.600,A,2500.7989832,N,12132.4853419,E,0.03,242.85,260623,,,R,V*14
$GPHDT,313.729,T*38
$GNGGA,105604.800,2500.7989812,N,12132.4853419,E,4,61,0.43,15.960,M,15.25,M,23,3335*70
$GNRMC,105604.800,A,2500.7989812,N,12132.4853419,E,0.04,242.85,260623,,,R,V*1F
$GPHDT,313.677,T*32
$GNGSA,A,3,24,196,18,199,15,23,195,05,194,13,,,0.71,0.43,0.57,1*01
$GNGSA,A,3,80,85,70,84,73,86,79,69,71,,,,0.71,0.43,0.57,2*02
$GNGSA,A,3,13,08,07,15,26,02,03,,,,,,0.71,0.43,0.57,3*0C
$GNGSA,A,3,38,39,08,16,06,13,46,09,20,19,37,29,0.71,0.43,0.57,4*03
$GNGSA,A,3,35,36,,,,,,,,,,,0.71,0.43,0.57,4*04
$GPGSV,5,1,17,24,82,118,43,196,74,057,41,18,61,278,41,199,60,167,32,1*6F
$GPGSV,5,2,17,45,47,231,33,15,44,032,44,23,39,329,42,195,39,179,37,1*5B
$GPGSV,5,3,17,05,28,106,35,194,26,142,34,13,17,047,28,12,12,152,15,1*5D
$GPGSV,5,4,17,10,08,311,15,29,07,206,18,20,06,122,,32,03,258,,1*64
$GPGSV,5,5,17,25,01,184,,1*59
$GPGSV,2,1,08,24,82,118,48,196,74,057,45,18,61,278,48,199,60,167,44,8*68
$GPGSV,2,2,08,23,39,329,42,195,39,179,40,194,26,142,29,10,08,311,21,8*61
$GLGSV,3,1,09,80,44,102,45,85,44,267,29,70,39,350,27,84,23,196,15,1*75
$GLGSV,3,2,09,73,22,166,33,86,21,318,33,79,20,044,24,69,18,058,24,1*75
$GLGSV,3,3,09,71,16,299,29,1*49
$GAGSV,3,1,09,13,64,254,42,08,52,011,37,07,41,288,21,15,34,174,27,7*71
$GAGSV,3,2,09,26,25,316,27,02,21,097,16,30,17,151,,03,16,055,17,7*73
$GAGSV,3,3,09,25,05,052,,7*4F
$GAGSV,2,1,06,13,64,254,43,08,52,011,35,07,41,288,26,15,34,174,28,1*72
$GAGSV,2,2,06,26,25,316,34,02,21,097,22,1*7C
$GBGSV,4,1,14,38,80,059,43,39,73,259,42,08,72,007,35,16,66,238,40,1*7E
$GBGSV,4,2,14,06,64,236,39,13,63,341,39,46,51,133,44,09,47,227,34,1*7A
$GBGSV,4,3,14,20,46,045,42,19,43,329,48,37,30,058,31,29,28,221,37,1*74
$GBGSV,4,4,14,35,24,282,23,36,22,186,33,1*70
$GBGSV,2,1,08,38,80,059,45,39,73,259,46,46,51,133,46,20,46,045,46,4*72
$GBGSV,2,2,08,19,43,329,40,37,30,058,28,29,28,221,39,36,22,186,24,4*7E
$GNGGA,105605.000,2500.7989779,N,12132.4853425,E,4,61,0.43,15.953,M,15.25,M,24,3335*73
$GNRMC,105605.000,A,2500.7989779,N,12132.4853425,E,0.04,242.85,260623,,,R,V*1B
$GPHDT,313.865,T*3F
$GNGGA,105605.200,2500.7989799,N,12132.4853428,E,4,61,0.43,15.963,M,15.25,M,24,3335*71
$GNRMC,105605.200,A,2500.7989799,N,12132.4853428,E,0.04,242.85,260623,,,R,V*1A
$GPHDT,313.624,T*34
$GNGGA,105605.400,2500.7989813,N,12132.4853421,E,4,61,0.43,15.977,M,15.25,M,24,3335*76
$GNRMC,105605.400,A,2500.7989813,N,12132.4853421,E,0.03,242.85,260623,,,R,V*1F
$GPHDT,313.605,T*37
$GNGGA,105605.600,2500.7989799,N,12132.4853400,E,4,61,0.43,15.962,M,15.25,M,24,3335*7E
$GNRMC,105605.600,A,2500.7989799,N,12132.4853400,E,0.03,242.85,260623,,,R,V*13
$GPHDT,313.785,T*3E
$GNGGA,105605.800,2500.7989786,N,12132.4853414,E,4,61,0.43,15.965,M,15.25,M,24,3335*7C
$GNRMC,105605.800,A,2500.7989786,N,12132.4853414,E,0.03,242.85,260623,,,R,V*16
$GPHDT,313.697,T*3C
$GNGSA,A,3,24,196,18,199,15,23,195,05,194,13,,,0.71,0.43,0.57,1*01
$GNGSA,A,3,80,85,70,73,84,86,79,69,71,,,,0.71,0.43,0.57,2*02
$GNGSA,A,3,13,08,07,15,26,02,03,,,,,,0.71,0.43,0.57,3*0C
$GNGSA,A,3,38,39,08,16,06,13,46,09,20,19,37,29,0.71,0.43,0.57,4*03
$GNGSA,A,3,35,36,,,,,,,,,,,0.71,0.43,0.57,4*04
$GPGSV,5,1,17,24,82,118,43,196,74,057,41,18,61,278,42,199,60,167,32,1*6C
$GPGSV,5,2,17,45,47,231,33,15,44,032,44,23,39,329,42,195,39,179,37,1*5B
$GPGSV,5,3,17,05,28,106,35,194,26,142,34,13,17,047,28,12,12,152,15,1*5D
$GPGSV,5,4,17,10,08,311,15,29,07,206,20,20,06,122,,32,03,258,,1*6F
$GPGSV,5,5,17,25,01,184,,1*59
$GPGSV,2,1,08,24,82,118,48,196,74,057,45,18,61,278,48,199,60,167,44,8*68
$GPGSV,2,2,08,23,39,329,42,195,39,179,40,194,26,142,30,10,08,311,23,8*6B
$GLGSV,3,1,09,80,44,102,45,85,44,267,30,70,39,350,27,73,23,165,33,1*7D
$GLGSV,3,2,09,84,23,196,15,86,21,318,33,79,20,044,24,69,18,058,23,1*70
$GLGSV,3,3,09,71,16,299,28,1*48
$GAGSV,3,1,09,13,64,254,42,08,52,011,37,07,41,288,21,15,34,174,27,7*71
$GAGSV,3,2,09,26,25,316,28,02,21,097,14,30,17,151,,03,16,055,17,7*7E
$GAGSV,3,3,09,25,05,052,,7*4F
$GAGSV,2,1,06,13,64,254,43,08,52,011,35,07,41,288,28,15,34,174,28,1*7C
$GAGSV,2,2,06,26,25,316,34,02,21,097,21,1*7F
$GBGSV,4,1,14,38,80,059,43,39,73,259,42,08,72,007,35,16,66,238,40,1*7E
$GBGSV,4,2,14,06,64,236,39,13,63,341,39,46,51,133,45,09,47,227,34,1*7B
$GBGSV,4,3,14,20,46,045,42,19,43,329,48,37,30,058,31,29,28,221,37,1*74
$GBGSV,4,4,14,35,24,282,21,36,22,186,33,1*72
$GBGSV,2,1,08,38,80,059,45,39,73,259,46,46,51,133,46,20,46,045,46,4*72
$GBGSV,2,2,08,19,43,329,40,37,30,058,28,29,28,221,39,36,22,186,21,4*7B
$GNGGA,105606.000,2500.7989806,N,12132.4853408,E,4,61,0.43,15.974,M,15.25,M,25,3335*7C
$GNRMC,105606.000,A,2500.7989806,N,12132.4853408,E,0.03,242.85,260623,,,R,V*17
$GPHDT,313.657,T*30
$GNGGA,105606.200,2500.7989818,N,12132.4853414,E,4,61,0.43,15.974,M,15.25,M,25,3335*7C
$GNRMC,105606.200,A,2500.7989818,N,12132.4853414,E,0.02,242.85,260623,,,R,V*16
$GPHDT,313.872,T*39
$GNGGA,105606.400,2500.7989812,N,12132.4853414,E,4,61,0.43,15.974,M,15.25,M,25,3335*70
$GNRMC,105606.400,A,2500.7989812,N,12132.4853414,E,0.01,242.85,260623,,,R,V*19
$GPHDT,313.729,T*38
$GNGGA,105606.600,2500.7989792,N,12132.4853388,E,4,61,0.43,15.963,M,15.25,M,25,3335*71
$GNRMC,105606.600,A,2500.7989792,N,12132.4853388,E,0.02,242.85,260623,,,R,V*1D
$GPHDT,314.013,T*31
$GNGGA,105606.800,2500.7989821,N,12132.4853406,E,4,61,0.43,15.971,M,15.25,M,25,3335*7A
$GNRMC,105606.800,A,2500.7989821,N,12132.4853406,E,0.01,242.85,260623,,,R,V*16
$GPHDT,313.862,T*38
$GNGSA,A,3,24,196,18,199,15,195,23,05,194,13,,,0.71,0.43,0.57,1*01
$GNGSA,A,3,85,80,70,84,73,86,79,69,71,,,,0.71,0.43,0.57,2*02
$GNGSA,A,3,13,08,07,15,26,02,03,,,,,,0.71,0.43,0.57,3*0C
$GNGSA,A,3,38,39,08,16,06,13,46,09,20,19,37,29,0.71,0.43,0.57,4*03
$GNGSA,A,3,35,36,,,,,,,,,,,0.71,0.43,0.57,4*04
$GPGSV,5,1,17,24,82,118,43,196,74,057,41,18,61,278,42,199,60,167,32,1*6C
$GPGSV,5,2,17,45,47,231,33,15,44,032,44,195,39,179,37,23,39,329,42,1*5B
$GPGSV,5,3,17,05,28,106,36,194,26,142,33,13,17,047,28,12,12,152,15,1*59
$GPGSV,5,4,17,10,08,311,13,29,07,206,20,20,06,122,,32,03,258,,1*69
$GPGSV,5,5,17,25,01,184,,1*59
$GPGSV,2,1,08,24,82,118,48,196,74,057,45,18,61,278,48,199,60,167,44,8*68
$GPGSV,2,2,08,23,39,329,42,195,39,179,40,194,26,142,30,10,08,311,22,8*6A
$GLGSV,3,1,09,85,44,267,30,80,44,102,45,70,39,350,27,84,23,196,16,1*7E
$GLGSV,3,2,09,73,23,165,33,86,21,318,33,79,20,044,26,69,18,058,23,1*72
$GLGSV,3,3,09,71,16,299,26,1*46
$GAGSV,3,1,09,13,64,254,42,08,52,011,37,07,41,288,19,15,34,174,28,7*75
$GAGSV,3,2,09,26,25,316,28,02,21,097,13,30,17,151,,03,16,055,17,7*79
$GAGSV,3,3,09,25,05,052,,7*4F
$GAGSV,2,1,06,13,64,254,44,08,52,011,35,07,41,288,28,15,34,174,29,1*7A
$GAGSV,2,2,06,26,25,316,34,02,21,097,22,1*7C
$GBGSV,6,1,21,38,80,059,43,39,73,259,42,08,72,007,35,16,66,238,40,1*7A
$GBGSV,6,2,21,06,64,236,39,13,63,341,39,46,51,133,45,56,48,305,,1*7C
$GBGSV,6,3,21,09,47,227,34,20,46,045,42,19,43,329,48,31,32,203,,1*74
$GBGSV,6,4,21,37,30,058,31,29,28,221,37,35,24,282,22,36,22,186,33,1*79
$GBGSV,6,5,21,32,07,088,,07,05,195,,22,05,291,,10,04,205,,1*72
$GBGSV,6,6,21,30,04,174,,1*40
$GBGSV,2,1,08,38,80,059,46,39,73,259,46,46,51,133,46,20,46,045,46,4*71
$GBGSV,2,2,08,19,43,329,40,37,30,058,30,29,28,221,39,36,22,186,25,4*76
$GNGGA,105607.000,2500.7989830,N,12132.4853414,E,4,61,0.43,15.973,M,15.25,M,26,3335*71
$GNRMC,105607.000,A,2500.7989830,N,12132.4853414,E,0.01,242.85,260623,,,R,V*1C
$GPHDT,313.524,T*37
$GNGGA,105607.200,2500.7989819,N,12132.4853411,E,4,61,0.43,15.968,M,15.25,M,26,3335*77
$GNRMC,105607.200,A,2500.7989819,N,12132.4853411,E,0.01,242.85,260623,,,R,V*10
$GPHDT,313.552,T*36
$GNGGA,105607.400,2500.7989802,N,12132.4853382,E,4,61,0.43,15.967,M,15.25,M,26,3335*79
$GNRMC,105607.400,A,2500.7989802,N,12132.4853382,E,0.01,242.85,260623,,,R,V*11
$GPHDT,314.128,T*38
$GNGGA,105607.600,2500.7989824,N,12132.4853389,E,4,61,0.43,15.970,M,15.25,M,26,3335*72
$GNRMC,105607.600,A,2500.7989824,N,12132.4853389,E,0.00,242.85,260623,,,R,V*1D
$GPHDT,313.555,T*31
$GNGGA,105607.800,2500.7989792,N,12132.4853373,E,4,61,0.43,15.946,M,15.25,M,26,3335*7E
$GNRMC,105607.800,A,2500.7989792,N,12132.4853373,E,0.01,242.85,260623,,,R,V*15
$GPHDT,313.712,T*30
$GNGSA,A,3,24,196,18,199,15,23,195,05,194,13,,,0.71,0.43,0.57,1*01
$GNGSA,A,3,80,85,70,84,73,86,79,69,71,,,,0.71,0.43,0.57,2*02
$GNGSA,A,3,13,08,07,15,26,02,03,,,,,,0.71,0.43,0.57,3*0C
$GNGSA,A,3,38,39,08,16,06,13,46,09,20,19,37,29,0.71,0.43,0.57,4*03
$GNGSA,A,3,35,36,,,,,,,,,,,0.71,0.43,0.57,4*04
$GPGSV,5,1,17,24,82,118,43,196,74,057,41,18,61,278,42,199,60,167,32,1*6C
$GPGSV,5,2,17,45,47,231,33,15,44,032,44,23,39,329,42,195,39,179,37,1*5B
$GPGSV,5,3,17,05,28,106,36,194,26,142,34,13,17,047,27,12,12,152,15,1*51
$GPGSV,5,4,17,10,08,311,12,29,07,206,19,20,06,122,,32,03,258,,1*62
$GPGSV,5,5,17,25,01,184,,1*59
$GPGSV,2,1,08,24,82,118,48,196,74,057,45,18,61,278,48,199,60,167,44,8*68
$GPGSV,2,2,08,23,39,329,42,195,39,179,40,194,26,142,30,10,08,311,22,8*6A
$GLGSV,3,1,09,80,44,102,45,85,44,266,31,70,39,350,27,84,23,196,17,1*7F
$GLGSV,3,2,09,73,23,165,33,86,21,318,34,79,20,044,26,69,18,058,23,1*75
$GLGSV,3,3,09,71,16,299,26,1*46
$GAGSV,3,1,09,13,64,254,42,08,52,011,37,07,41,288,20,15,34,174,25,7*72
$GAGSV,3,2,09,26,25,316,30,02,21,097,14,30,17,151,,03,16,055,17,7*77
$GAGSV,3,3,09,25,05,052,,7*4F
$GAGSV,2,1,06,13,64,254,44,08,52,011,35,07,41,288,28,15,34,174,29,1*7A
$GAGSV,2,2,06,26,25,316,33,02,21,097,22,1*7B
$GBGSV,4,1,15,38,80,059,43,39,73,259,42,08,72,007,35,16,66,238,40,1*7F
$GBGSV,4,2,15,06,64,236,39,13,63,341,39,46,51,133,45,09,47,227,33,1*7D
$GBGSV,4,3,15,20,46,045,42,19,43,329,48,37,30,058,30,29,28,221,37,1*74
$GBGSV,4,4,15,35,24,282,24,36,22,186,34,32,07,088,,1*47
$GBGSV,2,1,08,38,80,059,46,39,73,259,46,46,51,133,46,20,46,045,46,4*71
$GBGSV,2,2,08,19,43,329,40,37,30,058,30,29,28,221,39,36,22,186,25,4*76
$GNGGA,105608.000,2500.7989817,N,12132.4853423,E,4,61,0.43,15.955,M,15.25,M,27,3335*7A
$GNRMC,105608.000,A,2500.7989817,N,12132.4853423,E,0.01,242.85,260623,,,R,V*12
$GPHDT,313.350,T*32
$GNGGA,105608.200,2500.7989811,N,12132.4853395,E,4,60,0.43,15.954,M,15.25,M,27,3335*74
$GNRMC,105608.200,A,2500.7989811,N,12132.4853395,E,0.02,242.85,260623,,,R,V*1F
$GPHDT,313.659,T*3E
$GNGGA,105608.400,2500.7989797,N,12132.4853400,E,4,60,0.43,15.944,M,15.25,M,27,3335*79
$GNRMC,105608.400,A,2500.7989797,N,12132.4853400,E,0.01,242.85,260623,,,R,V*10
$GPHDT,313.843,T*3B
$GNGGA,105608.600,2500.7989819,N,12132.4853400,E,4,60,0.43,15.958,M,15.25,M,27,3335*7F
$GNRMC,105608.600,A,2500.7989819,N,12132.4853400,E,0.02,242.85,260623,,,R,V*18
$GPHDT,313.895,T*30
$GNGGA,105608.800,2500.7989810,N,12132.4853387,E,4,60,0.43,15.947,M,15.25,M,27,3335*7E
$GNRMC,105608.800,A,2500.7989810,N,12132.4853387,E,0.03,242.85,260623,,,R,V*16
$GPHDT,313.839,T*36
$GNGSA,A,3,24,196,18,199,15,23,195,05,194,13,,,0.71,0.43,0.57,1*01
$GNGSA,A,3,80,85,70,73,84,86,79,69,71,,,,0.71,0.43,0.57,2*02
$GNGSA,A,3,13,08,07,15,26,02,03,,,,,,0.71,0.43,0.57,3*0C
$GNGSA,A,3,38,39,08,16,06,13,46,09,20,19,37,29,0.71,0.43,0.57,4*03
$GNGSA,A,3,35,36,,,,,,,,,,,0.71,0.43,0.57,4*04
$GPGSV,5,1,17,24,82,118,43,196,74,057,41,18,61,278,42,199,60,167,31,1*6F
$GPGSV,5,2,17,45,47,231,31,15,44,032,44,23,39,329,42,195,39,179,37,1*59
$GPGSV,5,3,17,05,28,106,36,194,26,142,34,13,17,047,28,12,12,152,15,1*5E
$GPGSV,5,4,17,10,08,311,13,29,07,206,18,20,06,122,,32,03,258,,1*62
$GPGSV,5,5,17,25,01,184,,1*59
$GPGSV,2,1,08,24,82,118,48,196,74,057,45,18,61,278,47,199,60,167,44,8*67
$GPGSV,2,2,08,23,39,329,42,195,39,179,40,194,26,142,29,10,08,311,21,8*61
$GLGSV,3,1,09,80,44,102,45,85,44,266,31,70,39,350,27,73,23,165,33,1*7D
$GLGSV,3,2,09,84,23,196,17,86,21,318,34,79,20,044,26,69,18,058,23,1*77
$GLGSV,3,3,09,71,16,299,26,1*46
$GAGSV,3,1,09,13,64,254,43,08,52,011,37,07,41,288,21,15,34,174,25,7*72
$GAGSV,3,2,09,26,25,316,29,02,21,097,13,30,17,151,,03,16,055,18,7*77
$GAGSV,3,3,09,25,05,052,,7*4F
$GAGSV,2,1,06,13,64,254,44,08,52,011,35,07,41,288,28,15,34,174,29,1*7A
$GAGSV,2,2,06,26,25,316,33,02,21,097,22,1*7B
$GBGSV,4,1,14,38,80,059,43,39,73,259,42,08,72,007,34,16,66,238,40,1*7F
$GBGSV,4,2,14,06,64,236,39,13,63,341,39,46,51,133,45,09,47,227,31,1*7E
$GBGSV,4,3,14,20,46,045,42,19,43,329,48,37,30,058,30,29,28,221,37,1*75
$GBGSV,4,4,14,35,24,282,24,36,22,186,34,1*70
$GBGSV,2,1,08,38,80,059,45,39,73,259,45,46,51,133,46,20,46,045,45,4*72
$GBGSV,2,2,08,19,43,329,40,37,30,058,29,29,28,221,39,36,22,186,23,4*78
$GNGGA,105609.000,2500.7989820,N,12132.4853410,E,4,60,0.43,15.959,M,15.25,M,28,3335*7D
$GNRMC,105609.000,A,2500.7989820,N,12132.4853410,E,0.03,242.85,260623,,,R,V*15
$GPHDT,313.865,T*3F
$GNGGA,105609.200,2500.7989797,N,12132.4853395,E,4,60,0.43,15.954,M,15.25,M,28,3335*7B
$GNRMC,105609.200,A,2500.7989797,N,12132.4853395,E,0.03,242.85,260623,,,R,V*1E
$GPHDT,313.704,T*37
$GNGGA,105609.400,2500.7989838,N,12132.4853391,E,4,59,0.43,15.959,M,15.25,M,28,3335*74
$GNRMC,105609.400,A,2500.7989838,N,12132.4853391,E,0.03,242.85,260623,,,R,V*16
$GPHDT,313.531,T*33
$GNGGA,105609.600,2500.7989859,N,12132.4853410,E,4,59,0.43,15.962,M,15.25,M,28,3335*77
$GNRMC,105609.600,A,2500.7989859,N,12132.4853410,E,0.01,242.85,260623,,,R,V*1F
$GPHDT,313.496,T*3F
$GNGGA,105609.800,2500.7989843,N,12132.4853423,E,4,59,0.43,15.967,M,15.25,M,28,3335*77
$GNRMC,105609.800,A,2500.7989843,N,12132.4853423,E,0.01,242.85,260623,,,R,V*1A
$GPHDT,313.287,T*39
$GNGSA,A,3,24,196,18,199,15,23,195,05,194,13,,,0.82,0.43,0.70,1*08
$GNGSA,A,3,80,85,70,73,84,86,79,69,71,,,,0.82,0.43,0.70,2*0B
$GNGSA,A,3,13,08,07,15,26,02,03,,,,,,0.82,0.43,0.70,3*05
$GNGSA,A,3,38,39,08,16,06,13,46,09,20,19,37,29,0.82,0.43,0.70,4*0A
$GNGSA,A,3,35,36,,,,,,,,,,,0.82,0.43,0.70,4*0D
$GPGSV,5,1,17,24,82,118,43,196,74,057,41,18,61,278,42,199,60,167,31,1*6F
$GPGSV,5,2,17,45,47,231,33,15,44,032,44,23,39,329,42,195,39,179,37,1*5B
$GPGSV,5,3,17,05,28,106,35,194,26,142,34,13,17,047,28,12,12,152,14,1*5C
$GPGSV,5,4,17,10,08,311,13,29,07,206,17,20,06,122,,32,03,258,,1*6D
$GPGSV,5,5,17,25,01,184,,1*59
$GPGSV,2,1,08,24,82,118,48,196,74,057,45,18,61,278,47,199,60,167,44,8*67
$GPGSV,2,2,08,23,39,329,42,195,39,179,41,194,26,142,30,10,08,311,22,8*6B
$GLGSV,3,1,09,80,44,102,45,85,44,266,30,70,39,350,27,73,23,165,33,1*7C
$GLGSV,3,2,09,84,23,196,17,86,21,318,34,79,20,044,25,69,18,058,23,1*74
$GLGSV,3,3,09,71,16,299,26,1*46
$GAGSV,3,1,09,13,64,254,43,08,52,011,37,07,41,288,20,15,34,174,26,7*70
$GAGSV,3,2,09,26,25,316,29,02,21,097,14,30,17,151,,03,16,055,18,7*70
$GAGSV,3,3,09,25,05,052,,7*4F
$GAGSV,2,1,06,13,64,254,44,08,52,011,35,07,41,288,28,15,34,174,29,1*7A
$GAGSV,2,2,06,26,25,316,33,02,21,097,23,1*7A
$GBGSV,4,1,14,38,80,059,43,39,73,259,42,08,72,007,34,16,66,238,40,1*7F
$GBGSV,4,2,14,06,64,236,39,13,63,341,39,46,51,133,45,09,47,227,31,1*7E
$GBGSV,4,3,14,20,46,045,42,19,43,329,48,37,30,058,30,29,28,221,38,1*7A
$GBGSV,4,4,14,35,24,282,26,36,22,186,34,1*72
$GBGSV,2,1,07,38,80,059,45,39,73,259,45,46,51,133,46,20,46,045,45,4*7D
$GBGSV,2,2,07,19,43,329,40,37,30,058,30,29,28,221,39,4*44
$GNGGA,105610.000,2500.7989812,N,12132.4853404,E,4,59,0.43,15.968,M,15.25,M,25,3335*74
$GNRMC,105610.000,A,2500.7989812,N,12132.4853404,E,0.00,242.85,260623,,,R,V*1A
$GPHDT,313.665,T*31
$GNGGA,105610.200,2500.7989865,N,12132.4853408,E,4,59,0.43,15.993,M,15.25,M,25,3335*7E
$GNRMC,105610.200,A,2500.7989865,N,12132.4853408,E,0.00,242.85,260623,,,R,V*14
$GPHDT,313.289,T*37
$GNGGA,105610.400,2500.7989817,N,12132.4853386,E,4,59,0.43,15.955,M,15.25,M,25,3335*76
$GNRMC,105610.400,A,2500.7989817,N,12132.4853386,E,0.01,242.85,260623,,,R,V*17
$GPHDT,313.536,T*34
$GNGGA,105610.600,2500.7989802,N,12132.4853413,E,4,59,0.43,15.968,M,15.25,M,25,3335*75
$GNRMC,105610.600,A,2500.7989802,N,12132.4853413,E,0.01,242.85,260623,,,R,V*1A
$GPHDT,313.664,T*30
$GNGGA,105610.800,2500.7989843,N,12132.4853409,E,4,59,0.43,15.982,M,15.25,M,25,3335*71
$GNRMC,105610.800,A,2500.7989843,N,12132.4853409,E,0.00,242.85,260623,,,R,V*1B
$GPHDT,313.605,T*37
$GNGSA,A,3,24,196,18,199,15,23,195,05,194,13,,,0.82,0.43,0.70,1*08
$GNGSA,A,3,80,85,70,84,73,86,79,69,71,,,,0.82,0.43,0.70,2*0B
$GNGSA,A,3,13,08,07,15,26,02,03,,,,,,0.82,0.43,0.70,3*05
$GNGSA,A,3,38,39,08,16,06,13,46,09,20,19,37,29,0.82,0.43,0.70,4*0A
$GNGSA,A,3,35,36,,,,,,,,,,,0.82,0.43,0.70,4*0D
$GPGSV,5,1,17,24,82,118,43,196,74,057,41,18,61,278,42,199,60,167,31,1*6F
$GPGSV,5,2,17,45,47,231,33,15,44,032,44,23,39,329,42,195,39,179,37,1*5B
$GPGSV,5,3,17,05,28,106,34,194,26,142,34,13,17,047,29,12,12,152,14,1*5C
$GPGSV,5,4,17,10,08,311,13,29,07,206,15,20,06,122,,32,03,258,,1*6F
$GPGSV,5,5,17,25,01,184,,1*59
$GPGSV,2,1,08,24,82,118,47,196,74,057,45,18,61,278,47,199,60,167,44,8*68
$GPGSV,2,2,08,23,39,329,42,195,39,179,41,194,26,142,30,10,08,311,21,8*68
$GLGSV,3,1,09,80,44,102,45,85,44,266,31,70,39,350,27,84,23,196,17,1*7F
$GLGSV,3,2,09,73,23,165,33,86,21,318,34,79,20,044,25,69,18,058,23,1*76
$GLGSV,3,3,09,71,16,299,26,1*46
$GAGSV,3,1,09,13,64,254,43,08,52,011,37,07,41,288,23,15,34,174,26,7*73
$GAGSV,3,2,09,26,25,316,29,02,21,097,14,30,17,151,,03,16,055,19,7*71
$GAGSV,3,3,09,25,05,052,,7*4F
$GAGSV,2,1,07,13,64,254,44,08,52,011,35,07,41,288,28,15,34,174,29,1*7B
$GAGSV,2,2,07,26,25,316,33,02,21,097,23,03,16,055,19,1*47
$GBGSV,4,1,15,38,80,059,42,39,73,259,42,08,72,007,34,16,66,238,40,1*7F
$GBGSV,4,2,15,06,64,236,39,13,63,341,38,46,51,133,45,09,47,227,31,1*7E
$GBGSV,4,3,15,20,46,045,43,19,43,329,48,37,30,058,30,29,28,221,38,1*7A
$GBGSV,4,4,15,35,24,282,25,36,22,186,32,22,05,291,,1*49
$GBGSV,2,1,07,38,80,059,45,39,73,259,45,46,51,133,46,20,46,045,45,4*7D
$GBGSV,2,2,07,19,43,329,40,37,30,058,30,29,28,221,39,4*44
$GNGGA,105611.000,2500.7989842,N,12132.4853414,E,4,60,0.43,15.970,M,15.25,M,26,3335*71
$GNRMC,105611.000,A,2500.7989842,N,12132.4853414,E,0.00,242.85,260623,,,R,V*1F
$GPHDT,313.239,T*3C
$GNGGA,105611.200,2500.7989818,N,12132.4853385,E,4,60,0.43,15.963,M,15.25,M,26,3335*71
$GNRMC,105611.200,A,2500.7989818,N,12132.4853385,E,0.00,242.85,260623,,,R,V*1D
$GPHDT,313.638,T*39
$GNGGA,105611.400,2500.7989800,N,12132.4853401,E,4,61,0.43,15.959,M,15.25,M,26,3335*7D
$GNRMC,105611.400,A,2500.7989800,N,12132.4853401,E,0.01,242.85,260623,,,R,V*18
$GPHDT,313.618,T*3B
$GNGGA,105611.600,2500.7989827,N,12132.4853396,E,4,61,0.43,15.961,M,15.25,M,26,3335*78
$GNRMC,105611.600,A,2500.7989827,N,12132.4853396,E,0.00,242.85,260623,,,R,V*17
$GPHDT,313.557,T*33
$GNGGA,105611.800,2500.7989791,N,12132.4853399,E,4,61,0.43,15.946,M,15.25,M,26,3335*7E
$GNRMC,105611.800,A,2500.7989791,N,12132.4853399,E,0.00,242.85,260623,,,R,V*14
$GPHDT,313.594,T*3C
$GNGSA,A,3,24,196,18,199,15,23,195,05,194,13,,,0.82,0.43,0.70,1*08
$GNGSA,A,3,80,85,70,84,73,86,79,69,71,,,,0.82,0.43,0.70,2*0B
$GNGSA,A,3,13,08,07,15,26,02,03,,,,,,0.82,0.43,0.70,3*05
$GNGSA,A,3,38,39,08,16,06,13,46,09,20,19,37,29,0.82,0.43,0.70,4*0A
$GNGSA,A,3,35,36,,,,,,,,,,,0.82,0.43,0.70,4*0D
$GPGSV,5,1,17,24,82,118,43,196,74,057,41,18,61,278,42,199,60,167,31,1*6F
$GPGSV,5,2,17,45,47,231,33,15,44,032,44,23,39,329,41,195,39,179,37,1*58
$GPGSV,5,3,17,05,28,106,35,194,26,142,34,13,17,047,31,12,12,152,14,1*54
$GPGSV,5,4,17,10,08,311,14,29,07,206,16,20,06,122,,32,03,258,,1*6B
$GPGSV,5,5,17,25,01,184,,1*59
$GPGSV,2,1,08,24,82,118,47,196,74,057,45,18,61,278,47,199,60,167,44,8*68
$GPGSV,2,2,08,23,39,329,42,195,39,179,41,194,26,142,29,10,08,311,20,8*61
$GLGSV,3,1,09,80,44,102,45,85,44,266,32,70,39,350,28,84,23,196,17,1*73
$GLGSV,3,2,09,73,23,165,33,86,21,318,33,79,20,044,27,69,18,058,21,1*71
$GLGSV,3,3,09,71,16,299,25,1*45
$GAGSV,2,1,08,13,64,254,43,08,52,011,38,07,41,288,23,15,34,174,27,7*7D
$GAGSV,2,2,08,26,25,316,29,02,21,097,14,30,17,151,,03,16,055,19,7*71
$GAGSV,2,1,07,13,64,254,44,08,52,011,35,07,41,288,28,15,34,174,29,1*7B
$GAGSV,2,2,07,26,25,316,33,02,21,097,23,03,16,055,19,1*47
$GBGSV,4,1,16,38,80,059,42,39,73,259,42,08,72,007,35,16,66,239,40,1*7C
$GBGSV,4,2,16,06,64,236,39,13,63,341,38,46,51,133,45,09,47,227,31,1*7D
$GBGSV,4,3,16,20,46,045,43,19,43,330,48,37,30,058,30,29,28,221,38,1*71
$GBGSV,4,4,16,35,24,282,24,36,22,186,32,22,05,291,,30,04,174,,1*7E
$GBGSV,2,1,08,38,80,059,45,39,73,259,45,46,51,133,46,20,46,045,45,4*72
$GBGSV,2,2,08,19,43,330,40,37,30,058,30,29,28,221,39,36,22,186,24,4*7F
$GNGGA,105612.000,2500.7989825,N,12132.4853391,E,4,61,0.43,15.963,M,15.25,M,27,3335*7B
$GNRMC,105612.000,A,2500.7989825,N,12132.4853391,E,0.00,242.85,260623,,,R,V*17
$GPHDT,313.530,T*32
$GNGGA,105612.200,2500.7989799,N,12132.4853397,E,4,61,0.43,15.964,M,15.25,M,27,3335*70
$GNRMC,105612.200,A,2500.7989799,N,12132.4853397,E,0.00,242.85,260623,,,R,V*1B
$GPHDT,313.755,T*33
$GNGGA,105612.400,2500.7989792,N,12132.4853376,E,4,61,0.43,15.953,M,15.25,M,27,3335*76
$GNRMC,105612.400,A,2500.7989792,N,12132.4853376,E,0.00,242.85,260623,,,R,V*19
$GPHDT,314.066,T*33
$GNGGA,105612.600,2500.7989805,N,12132.4853404,E,4,61,0.43,15.976,M,15.25,M,27,3335*70
$GNRMC,105612.600,A,2500.7989805,N,12132.4853404,E,0.00,242.85,260623,,,R,V*18
$GPHDT,314.161,T*35
$GNGGA,105612.800,2500.7989845,N,12132.4853394,E,4,61,0.43,15.985,M,15.25,M,27,3335*78
$GNRMC,105612.800,A,2500.7989845,N,12132.4853394,E,0.01,242.85,260623,,,R,V*1D
$GPHDT,314.096,T*3C
$GNGSA,A,3,24,196,18,199,15,23,195,05,194,13,,,0.82,0.43,0.70,1*08
$GNGSA,A,3,80,85,70,73,84,86,79,69,71,,,,0.82,0.43,0.70,2*0B
$GNGSA,A,3,13,08,07,15,26,02,03,,,,,,0.82,0.43,0.70,3*05
$GNGSA,A,3,38,39,08,16,06,13,46,09,20,19,37,29,0.82,0.43,0.70,4*0A
$GNGSA,A,3,35,36,,,,,,,,,,,0.82,0.43,0.70,4*0D
$GPGSV,5,1,17,24,82,118,42,196,74,057,41,18,61,278,42,199,60,167,33,1*6C
$GPGSV,5,2,17,45,47,231,31,15,44,032,44,23,39,329,41,195,39,179,38,1*55
$GPGSV,5,3,17,05,28,106,35,194,26,142,36,13,17,047,31,12,12,152,14,1*56
$GPGSV,5,4,17,10,08,311,15,29,07,206,16,20,06,122,,32,03,258,,1*6A
$GPGSV,5,5,17,25,01,184,,1*59
$GPGSV,2,1,08,24,82,118,48,196,74,057,45,18,61,278,47,199,60,167,44,8*67
$GPGSV,2,2,08,23,39,329,42,195,39,179,40,194,26,142,30,10,08,311,20,8*68
$GLGSV,3,1,09,80,44,102,45,85,44,266,32,70,39,350,28,73,23,165,35,1*77
$GLGSV,3,2,09,84,23,196,18,86,21,318,33,79,20,044,25,69,18,058,21,1*7E
$GLGSV,3,3,09,71,16,299,25,1*45
$GAGSV,2,1,08,13,64,254,43,08,52,011,38,07,41,288,24,15,34,174,27,7*7A
$GAGSV,2,2,08,26,25,316,29,02,21,097,15,30,17,151,,03,16,055,17,7*7E
$GAGSV,2,1,07,13,64,254,44,08,52,011,36,07,41,288,28,15,34,174,31,1*71
$GAGSV,2,2,07,26,25,316,33,02,21,097,23,03,16,055,19,1*47
$GBGSV,4,1,15,38,80,059,43,39,73,259,42,08,72,007,35,16,66,239,40,1*7E
$GBGSV,4,2,15,06,64,236,39,13,63,341,38,46,51,133,45,09,47,227,29,1*77
$GBGSV,4,3,15,20,46,045,43,19,43,330,48,31,32,203,,37,30,058,30,1*7B
$GBGSV,4,4,15,29,28,221,38,35,24,282,25,36,22,186,31,1*4E
$GBGSV,2,1,08,38,80,059,45,39,73,259,45,46,51,133,46,20,46,045,46,4*71
$GBGSV,2,2,08,19,43,330,41,37,30,058,30,29,28,221,38,36,22,186,29,4*72
$GNGGA,105613.000,2500.7989819,N,12132.4853407,E,4,61,0.43,15.954,M,15.25,M,28,3335*76
$GNRMC,105613.000,A,2500.7989819,N,12132.4853407,E,0.00,242.85,260623,,,R,V*11
$GPHDT,314.153,T*34
$GNGGA,105613.200,2500.7989800,N,12132.4853368,E,4,61,0.43,15.949,M,15.25,M,28,3335*7E
$GNRMC,105613.200,A,2500.7989800,N,12132.4853368,E,0.00,242.85,260623,,,R,V*15
$GPHDT,314.476,T*36
$GNGGA,105613.400,2500.7989793,N,12132.4853377,E,4,61,0.43,15.959,M,15.25,M,28,3335*72
$GNRMC,105613.400,A,2500.7989793,N,12132.4853377,E,0.00,242.85,260623,,,R,V*18
$GPHDT,314.759,T*38
$GNGGA,105613.600,2500.7989823,N,12132.4853383,E,4,61,0.43,15.956,M,15.25,M,28,3335*70
$GNRMC,105613.600,A,2500.7989823,N,12132.4853383,E,0.00,242.85,260623,,,R,V*15
$GPHDT,314.322,T*30
$GNGGA,105613.800,2500.7989825,N,12132.4853360,E,4,60,0.43,15.971,M,15.25,M,28,3335*71
$GNRMC,105613.800,A,2500.7989825,N,12132.4853360,E,0.00,242.85,260623,,,R,V*10
$GPHDT,314.114,T*37
$GNGSA,A,3,24,196,18,199,15,23,195,05,194,13,,,0.82,0.43,0.70,1*08
$GNGSA,A,3,80,85,70,73,84,86,79,69,71,,,,0.82,0.43,0.70,2*0B
$GNGSA,A,3,13,08,07,15,26,02,03,,,,,,0.82,0.43,0.70,3*05
$GNGSA,A,3,38,39,08,16,06,13,46,09,20,19,37,29,0.82,0.43,0.70,4*0A
$GNGSA,A,3,35,36,,,,,,,,,,,0.82,0.43,0.70,4*0D
$GPGSV,5,1,17,24,82,118,43,196,74,057,40,18,61,278,42,199,60,167,30,1*6F
$GPGSV,5,2,17,45,47,231,33,15,44,032,44,23,39,329,41,195,39,179,33,1*5C
$GPGSV,5,3,17,05,28,106,35,194,26,142,36,13,17,047,32,12,12,152,15,1*54
$GPGSV,5,4,17,10,08,311,15,29,07,206,14,20,06,122,,32,03,258,,1*68
$GPGSV,5,5,17,25,01,184,,1*59
$GPGSV,2,1,08,24,82,118,48,196,74,057,45,18,61,278,47,199,60,167,40,8*63
$GPGSV,2,2,08,23,39,329,42,195,39,179,37,194,26,142,31,10,08,311,20,8*69
$GLGSV,3,1,09,80,44,102,44,85,44,266,32,70,39,350,28,73,23,165,34,1*77
$GLGSV,3,2,09,84,23,196,18,86,21,318,33,79,20,044,26,69,18,058,23,1*7F
$GLGSV,3,3,09,71,16,299,23,1*43
$GAGSV,3,1,09,13,64,254,42,08,52,011,38,07,41,288,25,15,34,174,22,7*7F
$GAGSV,3,2,09,26,25,316,28,02,21,097,16,30,17,151,,03,16,055,17,7*7C
$GAGSV,3,3,09,25,05,052,,7*4F
$GAGSV,2,1,06,13,64,254,44,08,52,011,36,07,41,288,29,26,25,316,33,1*75
$GAGSV,2,2,06,02,21,097,24,03,16,055,20,1*7C
$GBGSV,4,1,14,38,80,059,43,39,73,259,41,08,72,007,34,16,66,239,39,1*73
$GBGSV,4,2,14,06,64,236,37,13,63,341,38,46,51,133,45,09,47,227,35,1*75
$GBGSV,4,3,14,20,46,045,43,19,43,330,48,37,30,058,31,29,28,221,41,1*7C
$GBGSV,4,4,14,35,24,282,25,36,22,186,30,1*75
$GBGSV,2,1,08,38,80,059,45,39,73,259,44,46,51,133,47,20,46,045,45,4*72
$GBGSV,2,2,08,19,43,330,41,37,30,058,30,29,28,221,38,36,22,186,29,4*72
$GNGGA,105614.000,2500.7989818,N,12132.4853377,E,4,60,0.43,15.953,M,15.25,M,29,3335*77
$GNRMC,105614.000,A,2500.7989818,N,12132.4853377,E,0.00,242.85,260623,,,R,V*17
$GPHDT,313.853,T*3A
$GNGGA,105614.200,2500.7989796,N,12132.4853382,E,4,61,0.43,15.946,M,15.25,M,29,3335*73
$GNRMC,105614.200,A,2500.7989796,N,12132.4853382,E,0.00,242.85,260623,,,R,V*16
$GPHDT,314.122,T*32
$GNGGA,105614.400,2500.7989784,N,12132.4853395,E,4,61,0.43,15.967,M,15.25,M,29,3335*73
$GNRMC,105614.400,A,2500.7989784,N,12132.4853395,E,0.00,242.85,260623,,,R,V*15
$GPHDT,313.957,T*3F
$GNGGA,105614.600,2500.7989806,N,12132.4853367,E,4,61,0.43,15.992,M,15.25,M,29,3335*73
$GNRMC,105614.600,A,2500.7989806,N,12132.4853367,E,0.00,242.85,260623,,,R,V*1F
$GPHDT,314.091,T*3B
$GNGGA,105614.800,2500.7989831,N,12132.4853332,E,4,62,0.43,15.970,M,15.25,M,29,3335*76
$GNRMC,105614.800,A,2500.7989831,N,12132.4853332,E,0.00,242.85,260623,,,R,V*15
$GPHDT,313.767,T*32
$GNGSA,A,3,24,196,18,199,15,23,195,05,194,13,,,0.82,0.43,0.70,1*08
$GNGSA,A,3,80,85,70,73,84,86,79,69,71,,,,0.82,0.43,0.70,2*0B
$GNGSA,A,3,13,08,07,15,26,02,03,,,,,,0.82,0.43,0.70,3*05
$GNGSA,A,3,38,39,08,16,06,13,46,09,20,19,37,29,0.82,0.43,0.70,4*0A
$GNGSA,A,3,35,36,,,,,,,,,,,0.82,0.43,0.70,4*0D
$GPGSV,5,1,17,24,82,118,39,196,74,057,41,18,61,278,42,199,60,167,26,1*64
$GPGSV,5,2,17,45,47,231,36,15,44,032,44,23,39,329,40,195,39,179,36,1*5D
$GPGSV,5,3,17,05,28,106,35,194,26,142,34,13,17,047,31,12,12,152,15,1*55
$GPGSV,5,4,17,10,08,311,16,29,07,206,14,20,06,122,,32,03,258,,1*6B
$GPGSV,5,5,17,25,01,184,,1*59
$GPGSV,2,1,08,24,82,118,45,196,74,057,46,18,61,278,47,199,60,167,38,8*62
$GPGSV,2,2,08,23,39,329,44,195,39,179,37,194,26,142,30,10,08,311,21,8*6F
$GLGSV,3,1,09,80,44,102,43,85,44,266,29,70,39,350,28,73,23,165,30,1*7E
$GLGSV,3,2,09,84,23,196,18,86,21,318,32,79,20,044,25,69,18,058,25,1*7B
$GLGSV,3,3,09,71,16,299,20,1*40
$GAGSV,3,1,09,13,64,254,41,08,52,011,39,07,41,288,25,15,34,174,19,7*75
$GAGSV,3,2,09,26,25,316,27,02,21,097,15,30,17,151,,03,16,055,17,7*70
$GAGSV,3,3,09,25,05,052,,7*4F
$GAGSV,2,1,07,13,64,254,43,08,52,011,35,07,41,288,31,15,34,174,31,1*7D
$GAGSV,2,2,07,26,25,316,33,02,21,097,24,03,16,055,20,1*4A
$GBGSV,4,1,14,38,80,059,42,39,73,259,43,08,72,007,35,16,66,239,42,1*7D
$GBGSV,4,2,14,06,64,236,41,13,63,341,37,46,51,133,42,09,47,227,36,1*7F
$GBGSV,4,3,14,20,46,045,43,19,43,330,48,37,30,058,28,29,28,221,46,1*73
$GBGSV,4,4,14,35,24,282,23,36,22,186,28,1*7A
$GBGSV,2,1,08,38,80,059,44,39,73,259,44,46,51,133,36,20,46,045,46,4*76
$GBGSV,2,2,08,19,43,330,42,37,30,058,32,29,28,221,41,36,22,186,19,4*7E
$GNGGA,105615.000,2500.7989897,N,12132.4853305,E,4,62,0.43,15.971,M,15.25,M,30,3335*7E
$GNRMC,105615.000,A,2500.7989897,N,12132.4853305,E,0.00,242.85,260623,,,R,V*14
$GPHDT,313.637,T*36
$GNGGA,105615.200,2500.7989924,N,12132.4853258,E,4,62,0.43,15.951,M,15.25,M,30,3335*7E
$GNRMC,105615.200,A,2500.7989924,N,12132.4853258,E,0.01,242.85,260623,,,R,V*17
$GPHDT,313.610,T*33
$GNGGA,105615.400,2500.7989921,N,12132.4853301,E,4,62,0.43,16.052,M,15.25,M,30,3335*79
$GNRMC,105615.400,A,2500.7989921,N,12132.4853301,E,0.01,242.85,260623,,,R,V*19
$GPHDT,313.775,T*31
$GNGGA,105615.600,2500.7989602,N,12132.4853551,E,4,62,0.43,15.957,M,15.25,M,30,3335*79
$GNRMC,105615.600,A,2500.7989602,N,12132.4853551,E,0.00,242.85,260623,,,R,V*17
$GPHDT,313.574,T*32
$GNGGA,105615.800,2500.7989572,N,12132.4853554,E,4,62,0.43,15.953,M,15.25,M,30,3335*72
$GNRMC,105615.800,A,2500.7989572,N,12132.4853554,E,0.00,242.85,260623,,,R,V*18
$GPHDT,313.423,T*31
$GNGSA,A,3,24,196,18,199,15,23,195,05,194,13,,,0.82,0.43,0.70,1*08
$GNGSA,A,3,80,85,70,73,84,86,79,69,71,,,,0.82,0.43,0.70,2*0B
$GNGSA,A,3,13,08,07,15,26,02,03,,,,,,0.82,0.43,0.70,3*05
$GNGSA,A,3,38,39,08,16,06,13,46,09,20,19,37,29,0.82,0.43,0.70,4*0A
$GNGSA,A,3,35,36,,,,,,,,,,,0.82,0.43,0.70,4*0D
$GPGSV,5,1,17,24,82,118,34,196,74,057,36,18,61,278,41,199,60,167,23,1*6F
$GPGSV,5,2,17,45,47,231,36,15,44,032,43,23,39,329,40,195,39,179,31,1*5D
$GPGSV,5,3,17,05,28,106,24,194,26,142,30,13,17,047,29,12,12,152,14,1*59
$GPGSV,5,4,17,10,08,311,,29,07,206,14,20,06,122,,32,03,258,,1*6C
$GPGSV,5,5,17,25,01,184,,1*59
$GPGSV,2,1,08,24,82,118,42,196,74,057,41,18,61,278,45,199,60,167,37,8*6F
$GPGSV,2,2,08,23,39,329,44,195,39,179,31,194,26,142,20,10,08,311,20,8*69
$GLGSV,3,1,09,80,44,102,29,85,44,266,28,70,39,350,28,73,23,165,27,1*75
$GLGSV,3,2,09,84,23,196,17,86,21,318,31,79,20,044,24,69,18,058,23,1*70
$GLGSV,3,3,09,71,16,299,22,1*42
$GAGSV,3,1,09,13,64,254,40,08,52,011,39,07,41,288,25,15,34,174,20,7*7E
$GAGSV,3,2,09,26,25,316,23,02,21,097,14,30,17,151,,03,16,055,18,7*7A
$GAGSV,3,3,09,25,05,052,,7*4F
$GAGSV,2,1,07,13,64,254,42,08,52,011,34,07,41,288,29,15,34,174,28,1*7C
$GAGSV,2,2,07,26,25,316,34,02,21,097,19,03,16,055,17,1*47
$GBGSV,4,1,14,38,80,059,38,39,73,260,43,08,72,007,35,16,66,239,41,1*79
$GBGSV,4,2,14,06,64,236,40,13,63,341,37,46,51,133,31,09,47,227,35,1*79
$GBGSV,4,3,14,20,46,045,39,19,43,330,48,37,29,058,26,29,28,221,44,1*7A
$GBGSV,4,4,14,35,24,282,24,36,23,186,27,1*73
$GBGSV,2,1,08,38,80,059,39,39,73,260,43,46,51,133,26,20,46,045,44,4*72
$GBGSV,2,2,08,19,43,330,42,37,29,058,31,29,28,221,33,36,23,186,23,4*78
$GNGGA,105616.000,2500.7989597,N,12132.4853557,E,4,62,0.43,15.950,M,15.25,M,31,3335*73
$GNRMC,105616.000,A,2500.7989597,N,12132.4853557,E,0.00,242.85,260623,,,R,V*1B
$GPHDT,313.465,T*33
$GNGGA,105616.200,2500.7989490,N,12132.4853565,E,4,62,0.43,15.872,M,15.25,M,31,3335*77
$GNRMC,105616.200,A,2500.7989490,N,12132.4853565,E,0.00