$FW : RTK35X,V1.1X0314AS,Lib20210517,1*54
$Tool : LOCOSYS , GNSS Firebird , v1.0.0.19*39
$---------------------------------------------------*2D
$GPHDT,,T*1B
$GNGGA,105535.400,2500.7989717,N,12132.4853634,E,4,61,0.44,15.904,M,15.25,M,12,3335*7D
$GNRMC,105535.400,A,2500.7989717,N,12132.4853634,E,0.00,242.85,260623,,,R,V*11
$GPHDT,,T*1B
$GNGGA,105535.600,2500.7989738,N,12132.4853640,E,4,61,0.44,15.907,M,15.25,M,12,3335*72
$GNRMC,105535.600,A,2500.7989738,N,12132.4853640,E,0.00,242.85,260623,,,R,V*1D
$GPHDT,,T*1B
$GNGGA,105535.800,2500.7989723,N,12132.4853615,E,4,61,0.44,15.895,M,15.25,M,12,3335*7C
$GNRMC,105535.800,A,2500.7989723,N,12132.4853615,E,0.00,242.85,260623,,,R,V*19
$GPHDT,,T*1B
$GNGSA,A,3,24,196,18,199,15,23,195,05,194,,,,0.83,0.44,0.71,1*0D
$GNGSA,A,3,80,85,70,84,73,86,79,69,71,,,,0.83,0.44,0.71,2*0C
$GNGSA,A,3,13,08,07,15,26,02,03,,,,,,0.83,0.44,0.71,3*02
$GNGSA,A,3,38,39,08,16,06,13,46,09,20,19,37,29,0.83,0.44,0.71,4*0D
$GNGSA,A,3,35,36,,,,,,,,,,,0.83,0.44,0.71,4*0A
$GPGSV,5,1,17,24,82,120,45,196,74,057,40,18,61,278,42,199,60,167,32,1*60
$GPGSV,5,2,17,45,47,231,37,15,44,031,42,23,39,329,43,195,39,179,37,1*5B
$GPGSV,5,3,17,05,28,106,39,194,26,142,33,13,17,047,18,12,11,152,19,1*5A
$GPGSV,5,4,17,10,08,311,,29,07,207,,20,06,122,,32,03,257,,1*67
$GPGSV,5,5,17,25,01,184,,1*59
$GPGSV,2,1,08,24,82,120,48,196,74,057,46,18,61,278,47,199,60,167,43,8*68
$GPGSV,2,2,08,23,39,329,46,195,39,179,40,194,26,142,33,10,08,311,21,8*6E
$GLGSV,3,1,09,80,44,102,46,85,44,267,29,70,39,350,22,84,23,196,20,1*75
$GLGSV,3,2,09,73,22,166,31,86,21,318,34,79,20,044,23,69,18,058,20,1*73
$GLGSV,3,3,09,71,16,299,23,1*43
$GAGSV,3,1,09,13,64,254,39,08,52,011,38,07,41,288,19,15,35,174,29,7*76
$GAGSV,3,2,09,26,25,316,18,02,21,098,21,30,17,151,,03,16,055,23,7*73
$GAGSV,3,3,09,25,05,052,,7*4F
$GAGSV,2,1,06,13,64,254,38,08,52,011,36,07,41,288,18,26,25,316,25,1*7B
$GAGSV,2,2,06,02,21,098,20,03,16,055,23,1*74
$GBGSV,4,1,14,38,80,058,43,39,73,259,42,08,72,007,36,16,66,238,40,1*7C
$GBGSV,4,2,14,06,64,235,41,13,63,341,37,46,51,133,44,09,47,226,36,1*7B
$GBGSV,4,3,14,20,46,045,43,19,43,329,46,37,30,058,27,29,28,222,43,1*7C
$GBGSV,4,4,14,35,24,283,29,36,22,186,35,1*7D
$GBGSV,3,1,09,38,80,058,45,39,73,259,41,46,51,133,47,20,46,045,45,4*76
$GBGSV,3,2,09,19,43,329,43,37,30,058,26,29,28,222,39,35,24,283,19,4*7D
$GBGSV,3,3,09,36,22,186,30,4*43
$GNGGA,105536.000,2500.7989744,N,12132.4853642,E,4,61,0.44,15.898,M,15.25,M,13,3335*78
$GNRMC,105536.000,A,2500.7989744,N,12132.4853642,E,0.00,242.85,260623,,,R,V*11
$GPHDT,,T*1B
$GNGGA,105536.200,2500.7989731,N,12132.4853617,E,4,61,0.44,15.899,M,15.25,M,13,3335*79
$GNRMC,105536.200,A,2500.7989731,N,12132.4853617,E,0.00,242.85,260623,,,R,V*11
$GPHDT,,T*1B
$GNGGA,105536.400,2500.7989715,N,12132.4853599,E,4,61,0.44,15.892,M,15.25,M,13,3335*77
$GNRMC,105536.400,A,2500.7989715,N,12132.4853599,E,0.00,242.85,260623,,,R,V*14
$GPHDT,,T*1B
$GNGGA,105536.600,2500.7989718,N,12132.4853610,E,4,61,0.44,15.892,M,15.25,M,13,3335*7A
$GNRMC,105536.600,A,2500.7989718,N,12132.4853610,E,0.00,242.85,260623,,,R,V*19
$GPHDT,,T*1B
$GNGGA,105536.800,2500.7989736,N,12132.4853649,E,4,61,0.44,15.884,M,15.25,M,13,3335*73
$GNRMC,105536.800,A,2500.7989736,N,12132.4853649,E,0.00,242.85,260623,,,R,V*17
$GPHDT,,T*1B
$GNGSA,A,3,24,196,18,199,15,23,195,05,194,,,,0.83,0.44,0.71,1*0D
$GNGSA,A,3,80,85,70,84,73,86,79,69,71,,,,0.83,0.44,0.71,2*0C
$GNGSA,A,3,13,08,07,15,26,02,03,,,,,,0.83,0.44,0.71,3*02
$GNGSA,A,3,38,39,08,16,06,13,46,09,20,19,37,29,0.83,0.44,0.71,4*0D
$GNGSA,A,3,35,36,,,,,,,,,,,0.83,0.44,0.71,4*0A
$GPGSV,5,1,17,24,82,120,45,196,74,057,41,18,61,278,42,199,60,167,32,1*61
$GPGSV,5,2,17,45,47,231,37,15,44,031,42,23,39,329,43,195,39,179,36,1*5A
$GPGSV,5,3,17,05,28,106,38,194,26,142,34,13,17,047,16,12,11,152,19,1*52
$GPGSV,5,4,17,10,08,311,,29,07,207,17,20,06,122,,32,03,257,,1*61
$GPGSV,5,5,17,25,01,184,,1*59
$GPGSV,2,1,08,24,82,120,48,196,74,057,46,18,61,278,47,199,60,167,43,8*68
$GPGSV,2,2,08,23,39,329,46,195,39,179,41,194,26,142,33,10,08,311,22,8*6C
$GLGSV,3,1,09,80,44,102,46,85,44,267,29,70,39,350,23,84,23,196,20,1*74
$GLGSV,3,2,09,73,22,166,32,86,21,318,34,79,20,044,23,69,18,058,20,1*70
$GLGSV,3,3,09,71,16,299,22,1*42
$GAGSV,3,1,09,13,64,254,40,08,52,011,38,07,41,288,19,15,35,174,30,7*70
$GAGSV,3,2,09,26,25,316,19,02,21,098,21,30,17,151,,03,16,055,22,7*73
$GAGSV,3,3,09,25,05,052,,7*4F
$GAGSV,2,1,06,13,64,254,39,08,52,011,36,07,41,288,19,26,25,316,26,1*78
$GAGSV,2,2,06,02,21,098,21,03,16,055,23,1*75
$GBGSV,4,1,14,38,80,058,43,39,73,259,42,08,72,007,36,16,66,238,40,1*7C
$GBGSV,4,2,14,06,64,236,41,13,63,341,37,46,51,133,44,09,47,226,36,1*78
$GBGSV,4,3,14,20,46,045,43,19,43,329,46,37,30,058,27,29,28,222,43,1*7C
$GBGSV,4,4,14,35,24,283,28,36,22,186,35,1*7C
$GBGSV,3,1,09,38,80,058,45,39,73,259,42,46,51,133,47,20,46,045,45,4*75
$GBGSV,3,2,09,19,43,329,43,37,30,058,26,29,28,222,40,35,24,283,20,4*79
$GBGSV,3,3,09,36,22,186,30,4*43
$GNGGA,105537.000,2500.7989708,N,12132.4853598,E,4,61,0.44,15.877,M,15.25,M,14,3335*73
$GNRMC,105537.000,A,2500.7989708,N,12132.4853598,E,0.00,242.85,260623,,,R,V*1C
$GPHDT,,T*1B
$GNGGA,105537.200,2500.7989719,N,12132.4853634,E,4,61,0.44,15.895,M,15.25,M,14,3335*78
$GNRMC,105537.200,A,2500.7989719,N,12132.4853634,E,0.00,242.85,260623,,,R,V*1B
$GPHDT,,T*1B
$GNGGA,105537.400,2500.7989702,N,12132.4853615,E,4,61,0.44,15.883,M,15.25,M,14,3335*70
$GNRMC,105537.400,A,2500.7989702,N,12132.4853615,E,0.00,242.85,260623,,,R,V*14
$GPHDT,,T*1B
$GNGGA,105537.600,2500.7989726,N,12132.4853638,E,4,62,0.44,15.886,M,15.25,M,14,3335*7D
$GNRMC,105537.600,A,2500.7989726,N,12132.4853638,E,0.00,242.85,260623,,,R,V*1F
$GPHDT,,T*1B
$GNGGA,105537.800,2500.7989753,N,12132.4853628,E,4,62,0.44,15.888,M,15.25,M,14,3335*7E
$GNRMC,105537.800,A,2500.7989753,N,12132.4853628,E,0.00,242.85,260623,,,R,V*12
$GPHDT,,T*1B
$GNGSA,A,3,24,196,18,199,15,23,195,05,194,,,,0.83,0.44,0.71,1*0D
$GNGSA,A,3,80,85,70,84,73,86,79,69,71,,,,0.83,0.44,0.71,2*0C
$GNGSA,A,3,13,08,07,15,26,02,03,,,,,,0.83,0.44,0.71,3*02
$GNGSA,A,3,38,39,08,16,06,13,46,09,20,19,37,29,0.83,0.44,0.71,4*0D
$GNGSA,A,3,35,36,,,,,,,,,,,0.83,0.44,0.71,4*0A
$GPGSV,5,1,17,24,82,120,45,196,74,057,41,18,61,278,41,199,60,167,32,1*62
$GPGSV,5,2,17,45,47,231,38,15,44,031,42,23,39,329,43,195,39,179,36,1*55
$GPGSV,5,3,17,05,28,106,38,194,26,142,34,13,17,047,17,12,11,152,19,1*53
$GPGSV,5,4,17,10,08,311,,29,07,207,,20,06,122,,32,03,257,,1*67
$GPGSV,5,5,17,25,01,184,,1*59
$GPGSV,2,1,08,24,82,120,48,196,74,057,46,18,61,278,47,199,60,167,43,8*68
$GPGSV,2,2,08,23,39,329,46,195,39,179,41,194,26,142,32,10,08,311,22,8*6D
$GLGSV,3,1,09,80,44,102,46,85,44,267,28,70,39,350,23,84,23,196,19,1*7F
$GLGSV,3,2,09,73,22,166,31,86,21,318,34,79,20,044,24,69,18,058,18,1*7F
$GLGSV,3,3,09,71,16,299,20,1*40
$GAGSV,3,1,09,13,64,254,40,08,52,011,38,07,41,288,19,15,35,174,31,7*71
$GAGSV,3,2,09,26,25,316,21,02,21,098,22,30,17,151,,03,16,055,22,7*7B
$GAGSV,3,3,09,25,05,052,,7*4F
$GAGSV,2,1,07,13,64,254,39,08,52,011,36,07,41,288,19,15,35,174,24,1*7C
$GAGSV,2,2,07,26,25,316,27,02,21,098,21,03,16,055,23,1*46
$GBGSV,4,1,14,38,80,058,43,39,73,259,42,08,72,007,36,16,66,238,40,1*7C
$GBGSV,4,2,14,06,64,236,41,13,63,341,37,46,51,133,44,09,47,227,37,1*78
$GBGSV,4,3,14,20,46,045,43,19,43,329,46,37,30,058,25,29,28,222,43,1*7E
$GBGSV,4,4,14,35,24,283,28,36,22,186,35,1*7C
$GBGSV,3,1,09,38,80,058,45,39,73,259,42,46,51,133,47,20,46,045,45,4*75
$GBGSV,3,2,09,19,43,329,43,37,30,058,24,29,28,222,39,35,24,283,20,4*75
$GBGSV,3,3,09,36,22,186,30,4*43
$GNGGA,105538.000,2500.7989727,N,12132.4853648,E,4,62,0.44,15.889,M,15.25,M,15,3335*7C
$GNRMC,105538.000,A,2500.7989727,N,12132.4853648,E,0.00,242.85,260623,,,R,V*10
$GPHDT,,T*1B
$GNGGA,105538.200,2500.7989729,N,12132.4853649,E,4,62,0.44,15.887,M,15.25,M,15,3335*7F
$GNRMC,105538.200,A,2500.7989729,N,12132.4853649,E,0.00,242.85,260623,,,R,V*1D
$GPHDT,,T*1B
$GNGGA,105538.400,2500.7989734,N,12132.4853618,E,4,62,0.44,15.886,M,15.25,M,15,3335*70
$GNRMC,105538.400,A,2500.7989734,N,12132.4853618,E,0.00,242.85,260623,,,R,V*13
$GPHDT,,T*1B
$GNGGA,105538.600,2500.7989745,N,12132.4853643,E,4,62,0.44,15.893,M,15.25,M,15,3335*7E
$GNRMC,105538.600,A,2500.7989745,N,12132.4853643,E,0.00,242.85,260623,,,R,V*19
$GPHDT,,T*1B
$GNGGA,105538.800,2500.7989726,N,12132.4853635,E,4,62,0.44,15.881,M,15.25,M,15,3335*77
$GNRMC,105538.800,A,2500.7989726,N,12132.4853635,E,0.00,242.85,260623,,,R,V*13
$GPHDT,,T*1B
$GNGSA,A,3,24,196,18,199,15,23,195,05,194,,,,0.83,0.44,0.71,1*0D
$GNGSA,A,3,80,85,70,84,73,86,79,69,71,,,,0.83,0.44,0.71,2*0C
$GNGSA,A,3,13,08,07,15,26,02,03,,,,,,0.83,0.44,0.71,3*02
$GNGSA,A,3,38,39,08,16,06,13,46,09,20,19,37,29,0.83,0.44,0.71,4*0D
$GNGSA,A,3,35,36,,,,,,,,,,,0.83,0.44,0.71,4*0A
$GPGSV,5,1,17,24,82,120,45,196,74,057,41,18,61,278,41,199,60,167,33,1*63
$GPGSV,5,2,17,45,47,231,38,15,44,031,42,23,39,329,43,195,39,179,34,1*57
$GPGSV,5,3,17,05,28,106,38,194,26,142,34,13,17,047,20,12,11,152,19,1*57
$GPGSV,5,4,17,10,08,311,17,29,07,207,,20,06,122,,32,03,257,,1*61
$GPGSV,5,5,17,25,01,184,,1*59
$GPGSV,2,1,08,24,82,120,49,196,74,057,46,18,61,278,47,199,60,167,43,8*69
$GPGSV,2,2,08,23,39,329,46,195,39,179,41,194,26,142,32,10,08,311,22,8*6D
$GLGSV,3,1,09,80,44,102,46,85,44,267,27,70,39,350,23,84,23,196,19,1*70
$GLGSV,3,2,09,73,22,166,31,86,21,318,34,79,20,044,24,69,18,058,18,1*7F
$GLGSV,3,3,09,71,16,299,20,1*40
$GAGSV,3,1,09,13,64,254,40,08,52,011,38,07,41,288,15,15,35,174,31,7*7D
$GAGSV,3,2,09,26,25,316,20,02,21,098,21,30,17,151,,03,16,055,21,7*7A
$GAGSV,3,3,09,25,05,052,,7*4F
$GAGSV,2,1,07,13,64,254,39,08,52,011,36,07,41,288,18,15,35,174,25,1*7C
$GAGSV,2,2,07,26,25,316,26,02,21,098,21,03,16,055,23,1*47
$GBGSV,4,1,14,38,80,058,43,39,73,259,42,08,72,007,36,16,66,238,40,1*7C
$GBGSV,4,2,14,06,64,236,41,13,63,341,36,46,51,133,44,09,47,227,37,1*79
$GBGSV,4,3,14,20,46,045,42,19,43,329,46,37,30,058,26,29,28,222,42,1*7D
$GBGSV,4,4,14,35,24,283,28,36,22,186,35,1*7C
$GBGSV,3,1,09,38,80,058,45,39,73,259,42,46,51,133,47,20,46,045,45,4*75
$GBGSV,3,2,09,19,43,329,43,37,30,058,26,29,28,222,41,35,24,283,20,4*78
$GBGSV,3,3,09,36,22,186,30,4*43
$GNGGA,105539.000,2500.7989756,N,12132.4853649,E,4,62,0.44,15.893,M,15.25,M,16,3335*72
$GNRMC,105539.000,A,2500.7989756,N,12132.4853649,E,0.00,242.85,260623,,,R,V*16
$GPHDT,,T*1B
$GNGGA,105539.200,2500.7989768,N,12132.4853672,E,4,62,0.44,15.899,M,15.25,M,16,3335*7F
$GNRMC,105539.200,A,2500.7989768,N,12132.4853672,E,0.00,242.85,260623,,,R,V*11
$GPHDT,,T*1B
$GNGGA,105539.400,2500.7989764,N,12132.4853657,E,4,62,0.44,15.901,M,15.25,M,16,3335*72
$GNRMC,105539.400,A,2500.7989764,N,12132.4853657,E,0.00,242.85,260623,,,R,V*1C
$GPHDT,,T*1B
$GNGGA,105539.600,2500.7989751,N,12132.4853633,E,4,62,0.44,15.893,M,15.25,M,16,3335*7E
$GNRMC,105539.600,A,2500.7989751,N,12132.4853633,E,0.00,242.85,260623,,,R,V*1A
$GPHDT,,T*1B
$GNGGA,105539.800,2500.7989762,N,12132.4853611,E,4,62,0.44,15.894,M,15.25,M,16,3335*77
$GNRMC,105539.800,A,2500.7989762,N,12132.4853611,E,0.00,242.85,260623,,,R,V*14
$GPHDT,,T*1B
$GNGSA,A,3,24,196,18,199,15,23,195,05,194,,,,0.83,0.44,0.71,1*0D
$GNGSA,A,3,80,85,70,84,73,86,79,69,71,,,,0.83,0.44,0.71,2*0C
$GNGSA,A,3,13,08,07,15,26,02,03,,,,,,0.83,0.44,0.71,3*02
$GNGSA,A,3,38,39,08,16,06,13,46,09,20,19,37,29,0.83,0.44,0.71,4*0D
$GNGSA,A,3,35,36,,,,,,,,,,,0.83,0.44,0.71,4*0A
$GPGSV,5,1,17,24,82,120,45,196,74,057,41,18,61,278,43,199,60,167,33,1*61
$GPGSV,5,2,17,45,47,231,35,15,44,031,42,23,39,329,42,195,39,179,35,1*5A
$GPGSV,5,3,17,05,28,106,37,194,26,142,34,13,17,047,22,12,11,152,19,1*5A
$GPGSV,5,4,17,10,08,311,16,29,07,207,,20,06,122,,32,03,257,,1*60
$GPGSV,5,5,17,25,01,184,,1*59
$GPGSV,2,1,08,24,82,120,49,196,74,057,46,18,61,278,48,199,60,167,44,8*61
$GPGSV,2,2,08,23,39,329,46,195,39,179,41,194,26,142,33,10,08,311,22,8*6C
$GLGSV,3,1,09,80,44,102,46,85,44,267,26,70,39,350,24,84,23,196,20,1*7C
$GLGSV,3,2,09,73,22,166,31,86,21,318,34,79,20,044,26,69,18,058,17,1*72
$GLGSV,3,3,09,71,16,299,18,1*4B
$GAGSV,3,1,09,13,64,254,40,08,52,011,38,07,41,288,16,15,35,174,31,7*7E
$GAGSV,3,2,09,26,25,316,20,02,21,098,22,30,17,151,,03,16,055,21,7*79
$GAGSV,3,3,09,25,05,052,,7*4F
$GAGSV,2,1,07,13,64,254,40,08,52,011,36,07,41,288,18,15,35,174,26,1*71
$GAGSV,2,2,07,26,25,316,27,02,21,098,22,03,16,055,24,1*42
$GBGSV,4,1,14,38,80,058,43,39,73,259,42,08,72,007,36,16,66,238,40,1*7C
$GBGSV,4,2,14,06,64,236,41,13,63,341,37,46,51,133,44,09,47,227,36,1*79
$GBGSV,4,3,14,20,46,045,42,19,43,329,46,37,30,058,29,29,28,222,44,1*74
$GBGSV,4,4,14,35,24,283,27,36,22,186,36,1*70
$GBGSV,3,1,09,38,80,058,45,39,73,259,44,46,51,133,47,20,46,045,45,4*73
$GBGSV,3,2,09,19,43,329,43,37,30,058,27,29,28,222,39,35,24,283,20,4*76
$GBGSV,3,3,09,36,22,186,33,4*40
$GNGGA,105540.000,2500.7989759,N,12132.4853652,E,4,62,0.44,15.902,M,15.25,M,17,3335*71
$GNRMC,105540.000,A,2500.7989759,N,12132.4853652,E,0.00,242.85,260623,,,R,V*1D
$GPHDT,,T*1B
$GNGGA,105540.200,2500.7989730,N,12132.4853623,E,4,62,0.44,15.896,M,15.25,M,17,3335*76
$GNRMC,105540.200,A,2500.7989730,N,12132.4853623,E,0.00,242.85,260623,,,R,V*16
$GPHDT,,T*1B
$GNGGA,105540.400,2500.7989707,N,12132.4853641,E,4,62,0.44,15.902,M,15.25,M,14,3335*7F
$GNRMC,105540.400,A,2500.7989707,N,12132.4853641,E,0.00,242.85,260623,,,R,V*10
$GPHDT,,T*1B
$GNGGA,105540.600,2500.7989767,N,12132.4853881,E,2,61,0.44,15.917,M,15.25,M,13,3335*7F
$GNRMC,105540.600,A,2500.7989767,N,12132.4853881,E,0.00,242.85,260623,,,D,V*00
$GPHDT,,T*1B
$GNGGA,105540.800,2500.7989827,N,12132.4854121,E,2,61,0.44,15.931,M,15.25,M,13,3335*7A
$GNRMC,105540.800,A,2500.7989827,N,12132.4854121,E,0.00,242.85,260623,,,D,V*01
$GPHDT,,T*1B
$GNGSA,A,3,24,196,18,199,15,23,195,05,194,,,,0.83,0.44,0.71,1*0D
$GNGSA,A,3,80,85,70,84,73,86,79,69,71,,,,0.83,0.44,0.71,2*0C
$GNGSA,A,3,13,08,07,15,26,02,03,,,,,,0.83,0.44,0.71,3*02
$GNGSA,A,3,38,39,08,16,06,13,46,09,20,19,37,29,0.83,0.44,0.71,4*0D
$GNGSA,A,3,35,36,,,,,,,,,,,0.83,0.44,0.71,4*0A
$GPGSV,5,1,17,24,82,120,45,196,74,057,41,18,61,278,43,199,60,167,32,1*60
$GPGSV,5,2,17,45,47,231,31,15,44,031,42,23,39,329,42,195,39,179,35,1*5E
$GPGSV,5,3,17,05,28,106,37,194,26,142,34,13,17,047,23,12,11,152,19,1*5B
$GPGSV,5,4,17,10,08,311,15,29,07,207,16,20,06,122,,32,03,257,,1*64
$GPGSV,5,5,17,25,01,184,,1*59
$GPGSV,2,1,08,24,82,120,49,196,74,057,46,18,61,278,49,199,60,167,44,8*60
$GPGSV,2,2,08,23,39,329,46,195,39,179,41,194,26,142,34,10,08,311,22,8*6B
$GLGSV,3,1,09,80,44,102,46,85,44,267,28,70,39,350,24,84,23,196,21,1*73
$GLGSV,3,2,09,73,22,166,31,86,21,318,33,79,20,044,27,69,18,058,17,1*74
$GLGSV,3,3,09,71,16,299,18,1*4B
$GAGSV,3,1,09,13,64,254,41,08,52,011,38,07,41,288,16,15,35,174,31,7*7F
$GAGSV,3,2,09,26,25,316,20,02,21,098,23,30,17,151,,03,16,055,20,7*79
$GAGSV,3,3,09,25,05,052,,7*4F
$GAGSV,2,1,06,13,64,254,41,08,52,011,36,15,35,174,25,26,25,316,26,1*78
$GAGSV,2,2,06,02,21,098,22,03,16,055,24,1*71
$GBGSV,4,1,14,38,80,058,43,39,73,259,42,08,72,007,36,16,66,238,41,1*7D
$GBGSV,4,2,14,06,64,236,41,13,63,341,37,46,51,133,44,09,47,227,33,1*7C
$GBGSV,4,3,14,20,46,045,42,19,43,329,46,37,30,058,30,29,28,222,44,1*7C
$GBGSV,4,4,14,35,24,283,27,36,22,186,36,1*70
$GBGSV,3,1,09,38,80,058,45,39,73,259,44,46,51,133,47,20,46,045,45,4*73
$GBGSV,3,2,09,19,43,329,43,37,30,058,27,29,28,222,37,35,24,283,19,4*72
$GBGSV,3,3,09,36,22,186,33,4*40
$GNGGA,105541.000,2500.7989827,N,12132.4854301,E,2,61,0.44,15.944,M,15.25,M,14,3335*76
$GNRMC,105541.000,A,2500.7989827,N,12132.4854301,E,0.00,242.85,260623,,,D,V*08
$GPHDT,,T*1B
$GNGGA,105541.200,2500.7989887,N,12132.4854421,E,2,62,0.44,15.954,M,15.25,M,14,3335*79
$GNRMC,105541.200,A,2500.7989887,N,12132.4854421,E,0.00,242.85,260623,,,D,V*05
$GPHDT,,T*1B
$GNGGA,105541.400,2500.7989887,N,12132.4854661,E,2,61,0.44,15.974,M,15.25,M,14,3335*78
$GNRMC,105541.400,A,2500.7989887,N,12132.4854661,E,0.00,242.85,260623,,,D,V*05
$GPHDT,,T*1B
$GNGGA,105541.600,2500.7989887,N,12132.4854841,E,2,61,0.44,15.999,M,15.25,M,14,3335*75
$GNRMC,105541.600,A,2500.7989887,N,12132.4854841,E,0.00,242.85,260623,,,D,V*0B
$GPHDT,,T*1B
$GNGGA,105541.800,2500.7989887,N,12132.4855021,E,2,61,0.44,16.013,M,15.25,M,14,3335*7C
$GNRMC,105541.800,A,2500.7989887,N,12132.4855021,E,0.00,242.85,260623,,,D,V*0A
$GPHDT,,T*1B
$GNGSA,A,3,24,196,18,199,15,23,195,05,194,,,,0.83,0.44,0.71,1*0D
$GNGSA,A,3,80,85,70,84,73,86,79,69,71,,,,0.83,0.44,0.71,2*0C
$GNGSA,A,3,13,08,07,15,26,02,03,,,,,,0.83,0.44,0.71,3*02
$GNGSA,A,3,38,39,08,16,06,13,46,09,20,19,37,29,0.83,0.44,0.71,4*0D
$GNGSA,A,3,35,36,,,,,,,,,,,0.83,0.44,0.71,4*0A
$GPGSV,5,1,17,24,82,120,45,196,74,057,41,18,61,278,43,199,60,167,31,1*63
$GPGSV,5,2,17,45,47,231,29,15,44,031,42,23,39,329,42,195,39,179,35,1*57
$GPGSV,5,3,17,05,28,106,37,194,26,142,34,13,17,047,21,12,11,152,19,1*59
$GPGSV,5,4,17,10,08,311,13,29,07,207,16,20,06,122,,32,03,257,,1*62
$GPGSV,5,5,17,25,01,184,,1*59
$GPGSV,2,1,08,24,82,120,49,196,74,057,46,18,61,278,49,199,60,167,44,8*60
$GPGSV,2,2,08,23,39,329,46,195,39,179,41,194,26,142,34,10,08,311,22,8*6B
$GLGSV,3,1,09,80,44,102,46,85,44,267,28,70,39,350,25,84,23,196,21,1*72
$GLGSV,3,2,09,73,22,166,32,86,21,318,33,79,20,044,27,69,18,058,19,1*79
$GLGSV,3,3,09,71,16,299,19,1*4A
$GAGSV,3,1,09,13,64,254,41,08,52,011,38,07,41,288,15,15,35,174,30,7*7D
$GAGSV,3,2,09,26,25,316,21,02,21,098,21,30,17,151,,03,16,055,21,7*7B
$GAGSV,3,3,09,25,05,052,,7*4F
$GAGSV,2,1,06,13,64,254,41,08,52,011,36,07,41,288,21,26,25,316,27,1*7D
$GAGSV,2,2,06,02,21,098,23,03,16,055,24,1*70
$GBGSV,4,1,14,38,80,058,43,39,73,259,42,08,72,007,36,16,66,238,41,1*7D
$GBGSV,4,2,14,06,64,236,42,13,63,341,37,46,51,133,44,09,47,227,32,1*7E
$GBGSV,4,3,14,20,46,045,42,19,43,329,46,37,30,058,30,29,28,221,45,1*7E
$GBGSV,4,4,14,35,24,283,28,36,22,186,36,1*7F
$GBGSV,3,1,09,38,80,058,45,39,73,259,44,46,51,133,47,20,46,045,45,4*73
$GBGSV,3,2,09,19,43,329,43,37,30,058,27,29,28,221,36,35,24,283,19,4*70
$GBGSV,3,3,09,36,22,186,32,4*41
$GNGGA,105542.000,2500.7989887,N,12132.4855201,E,2,61,0.44,16.031,M,15.25,M,15,3335*76
$GNRMC,105542.000,A,2500.7989887,N,12132.4855201,E,0.00,242.85,260623,,,D,V*01
$GPHDT,,T*1B
$GNGGA,105542.200,2500.7989887,N,12132.4855441,E,2,61,0.44,16.039,M,15.25,M,15,3335*7E
$GNRMC,105542.200,A,2500.7989887,N,12132.4855441,E,0.00,242.85,260623,,,D,V*01
$GPHDT,358.997,T*3C
$GNGGA,105542.400,2500.7989947,N,12132.4855681,E,2,61,0.44,16.048,M,15.25,M,15,3335*7D
$GNRMC,105542.400,A,2500.7989947,N,12132.4855681,E,0.00,242.85,260623,,,D,V*04
$GPHDT,358.698,T*3C
$GNGGA,105542.600,2500.7989947,N,12132.4855921,E,2,61,0.44,16.067,M,15.25,M,15,3335*77
$GNRMC,105542.600,A,2500.7989947,N,12132.4855921,E,0.00,242.85,260623,,,D,V*03
$GPHDT,358.545,T*3F
$GNGGA,105542.800,2500.7989947,N,12132.4856161,E,2,61,0.44,16.083,M,15.25,M,15,3335*7C
$GNRMC,105542.800,A,2500.7989947,N,12132.4856161,E,0.00,242.85,260623,,,D,V*02
$GPHDT,358.665,T*3E
$GNGSA,A,3,24,196,18,199,15,23,195,05,194,,,,0.83,0.44,0.71,1*0D
$GNGSA,A,3,80,85,70,84,73,86,79,69,71,,,,0.83,0.44,0.71,2*0C
$GNGSA,A,3,13,08,07,15,26,02,03,,,,,,0.83,0.44,0.71,3*02
$GNGSA,A,3,38,39,08,16,06,13,46,09,20,19,37,29,0.83,0.44,0.71,4*0D
$GNGSA,A,3,35,36,,,,,,,,,,,0.83,0.44,0.71,4*0A
$GPGSV,5,1,17,24,82,120,45,196,74,057,41,18,61,278,43,199,60,167,31,1*63
$GPGSV,5,2,17,45,47,231,30,15,44,031,42,23,39,329,42,195,39,179,35,1*5F
$GPGSV,5,3,17,05,28,106,37,194,26,142,34,13,17,047,20,12,11,152,18,1*59
$GPGSV,5,4,17,10,08,311,13,29,07,207,15,20,06,122,,32,03,257,,1*61
$GPGSV,5,5,17,25,01,184,,1*59
$GPGSV,2,1,08,24,82,120,49,196,74,057,45,18,61,278,49,199,60,167,44,8*63
$GPGSV,2,2,08,23,39,329,46,195,39,179,41,194,26,142,34,10,08,311,21,8*68
$GLGSV,3,1,09,80,44,102,46,85,44,267,28,70,39,350,25,84,23,196,21,1*72
$GLGSV,3,2,09,73,22,166,32,86,21,318,33,79,20,044,27,69,18,058,19,1*79
$GLGSV,3,3,09,71,16,299,19,1*4A
$GAGSV,2,1,08,13,64,254,41,08,52,011,38,07,41,288,16,15,35,174,30,7*7E
$GAGSV,2,2,08,26,25,316,21,02,21,098,21,30,17,151,,03,16,055,20,7*7A
$GAGSV,2,1,06,13,64,254,41,08,52,011,36,07,41,288,19,26,25,316,27,1*76
$GAGSV,2,2,06,02,21,098,23,03,16,055,23,1*77
$GBGSV,4,1,15,38,80,058,43,39,73,259,42,08,72,007,36,16,66,238,41,1*7C
$GBGSV,4,2,15,06,64,236,42,13,63,341,37,46,51,133,44,09,47,227,31,1*7C
$GBGSV,4,3,15,20,46,045,42,19,43,329,46,37,30,058,29,29,28,221,45,1*77
$GBGSV,4,4,15,35,24,282,29,36,22,186,35,22,05,291,,1*42
$GBGSV,3,1,09,38,80,058,45,39,73,259,44,46,51,133,47,20,46,045,45,4*73
$GBGSV,3,2,09,19,43,329,43,37,30,058,28,29,28,221,36,35,24,282,18,4*7F
$GBGSV,3,3,09,36,22,186,32,4*41
$GNGGA,105543.000,2500.7989947,N,12132.4856341,E,2,61,0.44,16.099,M,15.25,M,16,3335*7D
$GNRMC,105543.000,A,2500.7989947,N,12132.4856341,E,0.00,242.85,260623,,,D,V*0B
$GPHDT,358.877,T*33
$GNGGA,105543.200,2500.7989947,N,12132.4856581,E,2,61,0.44,16.112,M,15.25,M,16,3335*77
$GNRMC,105543.200,A,2500.7989947,N,12132.4856581,E,0.00,242.85,260623,,,D,V*03
$GPHDT,358.644,T*3D
$GNGGA,105543.400,2500.7989947,N,12132.4856761,E,2,61,0.44,16.127,M,15.25,M,16,3335*7B
$GNRMC,105543.400,A,2500.7989947,N,12132.4856761,E,0.00,242.85,260623,,,D,V*09
$GPHDT,358.421,T*3C
$GNGGA,105543.600,2500.7989947,N,12132.4857001,E,2,61,0.44,16.140,M,15.25,M,16,3335*78
$GNRMC,105543.600,A,2500.7989947,N,12132.4857001,E,0.00,242.85,260623,,,D,V*0B
$GPHDT,358.378,T*37
$GNGGA,105543.800,2500.7989947,N,12132.4857181,E,2,61,0.44,16.152,M,15.25,M,16,3335*7C
$GNRMC,105543.800,A,2500.7989947,N,12132.4857181,E,0.00,242.85,260623,,,D,V*0C
$GPHDT,359.063,T*3F
$GNGSA,A,3,24,196,18,199,15,23,195,05,194,,,,0.83,0.44,0.71,1*0D
$GNGSA,A,3,80,85,70,84,73,86,79,69,71,,,,0.83,0.44,0.71,2*0C
$GNGSA,A,3,13,08,07,15,26,02,03,,,,,,0.83,0.44,0.71,3*02
$GNGSA,A,3,38,39,08,16,06,13,46,09,20,19,37,29,0.83,0.44,0.71,4*0D
$GNGSA,A,3,35,36,,,,,,,,,,,0.83,0.44,0.71,4*0A
$GPGSV,5,1,17,24,82,120,45,196,74,057,41,18,61,278,43,199,60,167,31,1*63
$GPGSV,5,2,17,45,47,231,30,15,44,031,42,23,39,329,42,195,39,179,35,1*5F
$GPGSV,5,3,17,05,28,106,37,194,26,142,34,13,17,047,20,12,11,152,18,1*59
$GPGSV,5,4,17,10,08,311,12,29,07,207,16,20,06,122,,32,03,257,,1*63
$GPGSV,5,5,17,25,01,184,,1*59
$GPGSV,2,1,08,24,82,120,49,196,74,057,45,18,61,278,49,199,60,167,44,8*63
$GPGSV,2,2,08,23,39,329,46,195,39,179,41,194,26,142,35,10,08,311,21,8*69
$GLGSV,3,1,09,80,44,102,46,85,44,267,28,70,39,350,26,84,23,196,21,1*71
$GLGSV,3,2,09,73,22,166,32,86,21,318,34,79,20,044,25,69,18,058,22,1*74
$GLGSV,3,3,09,71,16,299,18,1*4B
$GAGSV,2,1,08,13,64,254,41,08,52,011,38,07,41,288,17,15,35,174,31,7*7E
$GAGSV,2,2,08,26,25,316,21,02,21,098,21,30,17,151,,03,16,055,20,7*7A
$GAGSV,2,1,06,13,64,254,41,08,52,011,36,07,41,288,18,26,25,316,27,1*77
$GAGSV,2,2,06,02,21,098,22,03,16,055,23,1*76
$GBGSV,4,1,15,38,80,059,43,39,73,259,42,08,72,007,36,16,66,238,41,1*7D
$GBGSV,4,2,15,06,64,236,42,13,63,341,37,46,51,133,44,09,47,227,31,1*7C
$GBGSV,4,3,15,20,46,045,42,19,43,329,46,37,30,058,29,29,28,221,45,1*77
$GBGSV,4,4,15,35,24,282,29,36,22,186,35,32,07,088,,1*4B
$GBGSV,3,1,09,38,80,059,45,39,73,259,45,46,51,133,47,20,46,045,45,4*73
$GBGSV,3,2,09,19,43,329,43,37,30,058,28,29,28,221,36,35,24,282,17,4*70
$GBGSV,3,3,09,36,22,186,32,4*41
$GNGGA,105544.000,2500.7989947,N,12132.4857361,E,2,61,0.44,16.172,M,15.25,M,17,3335*7C
$GNRMC,105544.000,A,2500.7989947,N,12132.4857361,E,0.00,242.85,260623,,,D,V*0F
$GPHDT,358.893,T*39
$GNGGA,105544.200,2500.7989947,N,12132.4857601,E,2,61,0.44,16.190,M,15.25,M,17,3335*71
$GNRMC,105544.200,A,2500.7989947,N,12132.4857601,E,0.00,242.85,260623,,,D,V*0E
$GPHDT,358.943,T*35
$GNGGA,105544.400,2500.7989947,N,12132.4857841,E,2,61,0.44,16.207,M,15.25,M,17,3335*70
$GNRMC,105544.400,A,2500.7989947,N,12132.4857841,E,0.00,242.85,260623,,,D,V*02
$GPHDT,358.219,T*31
$GNGGA,105544.600,2500.7989947,N,12132.4858021,E,2,61,0.44,16.228,M,15.25,M,17,3335*7E
$GNRMC,105544.600,A,2500.7989947,N,12132.4858021,E,0.00,242.85,260623,,,D,V*01
$GPHDT,358.434,T*38
$GNGGA,105544.800,2500.7989947,N,12132.4858201,E,2,61,0.44,16.245,M,15.25,M,17,3335*7B
$GNRMC,105544.800,A,2500.7989947,N,12132.4858201,E,0.00,242.85,260623,,,D,V*0F
$GPHDT,358.475,T*3D
$GNGSA,A,3,24,196,18,199,15,195,23,05,194,,,,0.83,0.44,0.71,1*0D
$GNGSA,A,3,85,80,70,84,73,86,79,69,71,,,,0.83,0.44,0.71,2*0C
$GNGSA,A,3,13,08,07,15,26,02,03,,,,,,0.83,0.44,0.71,3*02
$GNGSA,A,3,38,39,08,16,06,13,46,09,20,19,37,29,0.83,0.44,0.71,4*0D
$GNGSA,A,3,35,36,,,,,,,,,,,0.83,0.44,0.71,4*0A
$GPGSV,5,1,17,24,82,120,45,196,74,057,41,18,61,278,43,199,60,167,30,1*62
$GPGSV,5,2,17,45,47,231,30,15,44,031,42,195,39,179,35,23,39,329,42,1*5F
$GPGSV,5,3,17,05,28,106,37,194,26,142,34,13,17,047,20,12,11,152,19,1*58
$GPGSV,5,4,17,10,08,311,12,29,07,207,15,20,06,122,,32,03,257,,1*60
$GPGSV,5,5,17,25,01,184,,1*59
$GPGSV,2,1,08,24,82,120,49,196,74,057,45,18,61,278,49,199,60,167,44,8*63
$GPGSV,2,2,08,23,39,329,46,195,39,179,41,194,26,142,35,10,08,311,21,8*69
$GLGSV,3,1,09,85,44,267,28,80,44,102,46,70,39,350,25,84,23,196,21,1*72
$GLGSV,3,2,09,73,22,166,33,86,21,318,34,79,20,044,25,69,18,058,23,1*74
$GLGSV,3,3,09,71,16,299,18,1*4B
$GAGSV,2,1,08,13,64,254,41,08,52,011,38,07,41,288,16,15,35,174,31,7*7F
$GAGSV,2,2,08,26,25,316,21,02,21,098,20,30,17,151,,03,16,055,20,7*7B
$GAGSV,2,1,06,13,64,254,41,08,52,011,36,07,41,288,22,26,25,316,26,1*7F
$GAGSV,2,2,06,02,21,098,21,03,16,055,23,1*75
$GBGSV,4,1,16,38,80,059,43,39,73,259,42,08,72,007,36,16,66,238,41,1*7E
$GBGSV,4,2,16,06,64,236,42,13,63,341,37,46,51,133,44,09,47,227,31,1*7F
$GBGSV,4,3,16,20,46,045,42,19,43,329,46,37,30,058,28,29,28,221,46,1*76
$GBGSV,4,4,16,35,24,282,29,36,22,186,35,07,05,195,,10,04,205,,1*73
$GBGSV,3,1,09,38,80,059,45,39,73,259,45,46,51,133,47,20,46,045,45,4*73
$GBGSV,3,2,09,19,43,329,43,37,30,058,28,29,28,221,36,35,24,282,15,4*72
$GBGSV,3,3,09,36,22,186,32,4*41
$GNGGA,105545.000,2500.7990007,N,12132.4858381,E,2,61,0.44,16.255,M,15.25,M,18,3335*70
$GNRMC,105545.000,A,2500.7990007,N,12132.4858381,E,0.00,242.85,260623,,,D,V*0A
$GPHDT,358.445,T*3E
$GNGGA,105545.200,2500.7990007,N,12132.4858561,E,2,61,0.44,16.267,M,15.25,M,18,3335*7B
$GNRMC,105545.200,A,2500.7990007,N,12132.4858561,E,0.00,242.85,260623,,,D,V*00
$GPHDT,358.285,T*34
$GNGGA,105545.400,2500.7990007,N,12132.4858741,E,2,61,0.44,16.271,M,15.25,M,18,3335*7A
$GNRMC,105545.400,A,2500.7990007,N,12132.4858741,E,0.00,242.85,260623,,,D,V*06
$GPHDT,358.371,T*3E
$GNGGA,105545.600,2500.7990007,N,12132.4858921,E,2,61,0.44,16.275,M,15.25,M,18,3335*74
$GNRMC,105545.600,A,2500.7990007,N,12132.4858921,E,0.00,242.85,260623,,,D,V*0C
$GPHDT,358.165,T*39
$GNGGA,105545.800,2500.7990007,N,12132.4859101,E,2,61,0.44,16.283,M,15.25,M,18,3335*78
$GNRMC,105545.800,A,2500.7990007,N,12132.4859101,E,0.01,242.85,260623,,,D,V*08
$GPHDT,358.290,T*30
$GNGSA,A,3,24,196,18,199,15,195,23,05,194,,,,0.83,0.44,0.71,1*0D
$GNGSA,A,3,85,80,70,84,73,86,79,69,71,,,,0.83,0.44,0.71,2*0C
$GNGSA,A,3,13,08,07,15,26,02,03,,,,,,0.83,0.44,0.71,3*02
$GNGSA,A,3,38,39,08,16,06,13,46,09,20,19,37,29,0.83,0.44,0.71,4*0D
$GNGSA,A,3,35,36,,,,,,,,,,,0.83,0.44,0.71,4*0A
$GPGSV,5,1,17,24,82,120,45,196,74,057,41,18,61,278,43,199,60,167,30,1*62
$GPGSV,5,2,17,45,47,231,29,15,44,031,43,195,39,179,35,23,39,329,42,1*56
$GPGSV,5,3,17,05,28,106,37,194,26,142,34,13,17,047,22,12,11,152,18,1*5B
$GPGSV,5,4,17,10,08,311,12,29,07,207,16,20,06,122,,32,03,257,,1*63
$GPGSV,5,5,17,25,01,184,,1*59
$GPGSV,2,1,08,24,82,120,49,196,74,057,45,18,61,278,49,199,60,167,44,8*63
$GPGSV,2,2,08,23,39,329,46,195,39,179,41,194,26,142,34,10,08,311,22,8*6B
$GLGSV,3,1,09,85,44,267,29,80,44,102,46,70,39,350,25,84,23,196,21,1*73
$GLGSV,3,2,09,73,22,166,33,86,21,318,34,79,20,044,25,69,18,058,23,1*74
$GLGSV,3,3,09,71,16,299,17,1*44
$GAGSV,2,1,08,13,64,254,41,08,52,011,38,07,41,288,15,15,35,174,31,7*7C
$GAGSV,2,2,08,26,25,316,21,02,21,098,20,30,17,151,,03,16,055,20,7*7B
$GAGSV,2,1,06,13,64,254,41,08,52,011,36,07,41,288,22,26,25,316,28,1*71
$GAGSV,2,2,06,02,21,098,22,03,16,055,23,1*76
$GBGSV,5,1,18,38,80,059,43,39,73,259,42,08,72,007,36,16,66,238,41,1*71
$GBGSV,5,2,18,06,64,236,42,13,63,341,37,46,51,133,44,56,48,304,,1*77
$GBGSV,5,3,18,09,47,227,31,20,46,045,42,19,43,329,46,31,32,203,,1*76
$GBGSV,5,4,18,37,30,058,28,29,28,221,46,35,24,282,28,36,22,186,35,1*72
$GBGSV,5,5,18,30,04,174,,10,04,205,,1*78
$GBGSV,3,1,09,38,80,059,45,39,73,259,45,46,51,133,47,20,46,045,45,4*73
$GBGSV,3,2,09,19,43,329,43,37,30,058,28,29,28,221,36,35,24,282,16,4*71
$GBGSV,3,3,09,36,22,186,32,4*41
$GNGGA,105546.000,2500.7990067,N,12132.4859221,E,2,61,0.44,16.290,M,15.25,M,19,3335*77
$GNRMC,105546.000,A,2500.7990067,N,12132.4859221,E,0.00,242.85,260623,,,D,V*05
$GPHDT,358.184,T*36
$GNGGA,105546.200,2500.7990007,N,12132.4859401,E,2,61,0.44,16.304,M,15.25,M,19,3335*7B
$GNRMC,105546.200,A,2500.7990007,N,12132.4859401,E,0.00,242.85,260623,,,D,V*05
$GPHDT,358.299,T*39
$GNGGA,105546.400,2500.7990007,N,12132.4859521,E,2,61,0.44,16.317,M,15.25,M,5,3335*41
$GNRMC,105546.400,A,2500.7990007,N,12132.4859521,E,0.00,242.85,260623,,,D,V*00
