$FW : RTK35X,V1.1X0314AS,Lib20210517,1*54
$Tool : LOCOSYS , GNSS Firebird , v1.0.0.19*39
$---------------------------------------------------*2D
,221,45,1*7B
$GBGSV,4,4,14,35,24,282,19,36,23,185,29,1*70
$GBGSV,3,1,09,38,80,060,46,39,73,260,46,46,52,132,42,20,46,046,46,4*74
$GBGSV,3,2,09,19,43,330,43,37,29,057,31,29,28,221,42,35,24,282,21,4*71
$GBGSV,3,3,09,36,23,185,29,4*49
$GNGGA,105704.000,2500.7989555,N,12132.4853527,E,4,63,0.43,15.893,M,15.25,M,6,3335*43
$GNRMC,105704.000,A,2500.7989555,N,12132.4853527,E,0.05,0.95,260623,,,R,V*10
$GPHDT,223.688,T*30
$GNGGA,105704.200,2500.7989550,N,12132.4853543,E,4,63,0.43,15.906,M,15.25,M,6,3335*4B
$GNRMC,105704.200,A,2500.7989550,N,12132.4853543,E,0.01,0.95,260623,,,R,V*11
$GPHDT,223.942,T*39
$GNGGA,105704.400,2500.7989562,N,12132.4853517,E,4,62,0.43,15.912,M,15.25,M,6,3335*49
$GNRMC,105704.400,A,2500.7989562,N,12132.4853517,E,0.01,0.95,260623,,,R,V*17
$GPHDT,223.947,T*3C
$GNGGA,105704.600,2500.7989579,N,12132.4853514,E,4,62,0.43,15.909,M,15.25,M,6,3335*48
$GNRMC,105704.600,A,2500.7989579,N,12132.4853514,E,0.00,0.95,260623,,,R,V*1D
$GPHDT,223.436,T*37
$GNGGA,105704.800,2500.7989577,N,12132.4853522,E,4,63,0.43,15.908,M,15.25,M,6,3335*4D
$GNRMC,105704.800,A,2500.7989577,N,12132.4853522,E,0.01,0.95,260623,,,R,V*19
$GPHDT,223.763,T*34
$GNGSA,A,3,24,196,18,199,15,23,195,05,194,13,,,0.82,0.43,0.70,1*08
$GNGSA,A,3,80,85,70,73,84,86,79,69,71,,,,0.82,0.43,0.70,2*0B
$GNGSA,A,3,13,08,07,15,26,02,03,,,,,,0.82,0.43,0.70,3*05
$GNGSA,A,3,38,39,08,16,06,13,46,09,20,19,37,29,0.82,0.43,0.70,4*0A
$GNGSA,A,3,35,36,,,,,,,,,,,0.82,0.43,0.70,4*0D
$GPGSV,4,1,16,24,82,114,45,196,74,057,40,18,61,277,47,199,60,167,31,1*6E
$GPGSV,4,2,16,45,47,231,38,15,44,032,43,23,39,330,43,195,39,179,27,1*5F
$GPGSV,4,3,16,05,27,107,35,194,26,141,31,13,16,048,31,12,12,151,,1*54
$GPGSV,4,4,16,10,09,312,19,20,06,122,,32,03,258,,25,01,184,,1*60
$GPGSV,2,1,07,24,82,114,48,196,74,057,45,18,61,277,45,199,60,167,40,8*6D
$GPGSV,2,2,07,23,39,330,43,195,39,179,38,194,26,141,27,8*5C
$GLGSV,3,1,09,80,45,102,45,85,44,266,32,70,39,350,26,73,23,165,33,1*7E
$GLGSV,3,2,09,84,22,196,16,86,21,317,31,79,20,043,26,69,18,059,20,1*78
$GLGSV,3,3,09,71,16,299,15,1*46
$GAGSV,3,1,09,13,64,253,43,08,51,012,35,07,41,288,27,15,34,174,26,7*72
$GAGSV,3,2,09,26,26,316,31,02,22,097,19,30,17,151,,03,16,056,21,7*7D
$GAGSV,3,3,09,25,05,052,,7*4F
$GAGSV,2,1,07,13,64,253,44,08,51,012,38,07,41,288,29,15,34,174,36,1*7E
$GAGSV,2,2,07,26,26,316,34,02,22,097,18,03,16,056,23,1*42
$GBGSV,4,1,16,38,80,060,42,39,73,260,44,08,72,007,33,16,66,239,43,1*7F
$GBGSV,4,2,16,06,64,236,43,13,63,341,37,46,52,132,39,09,47,227,36,1*71
$GBGSV,4,3,16,20,46,046,44,19,43,330,48,37,29,057,31,29,28,221,45,1*79
$GBGSV,4,4,16,35,24,282,19,36,23,185,30,32,07,088,,22,05,291,,1*73
$GBGSV,3,1,09,38,80,060,46,39,73,260,45,46,52,132,42,20,46,046,46,4*77
$GBGSV,3,2,09,19,43,330,43,37,29,057,32,29,28,221,42,35,24,282,21,4*72
$GBGSV,3,3,09,36,23,185,28,4*48
$GNGGA,105705.000,2500.7989578,N,12132.4853523,E,4,63,0.43,15.901,M,15.25,M,7,3335*42
$GNRMC,105705.000,A,2500.7989578,N,12132.4853523,E,0.01,0.95,260623,,,R,V*1E
$GPHDT,223.996,T*30
$GNGGA,105705.200,2500.7989589,N,12132.4853551,E,4,63,0.43,15.902,M,15.25,M,7,3335*48
$GNRMC,105705.200,A,2500.7989589,N,12132.4853551,E,0.01,0.95,260623,,,R,V*17
$GPHDT,223.745,T*30
$GNGGA,105705.400,2500.7989560,N,12132.4853555,E,4,63,0.43,15.911,M,15.25,M,7,3335*4F
$GNRMC,105705.400,A,2500.7989560,N,12132.4853555,E,0.00,0.95,260623,,,R,V*13
$GPHDT,224.107,T*37
$GNGGA,105705.600,2500.7989562,N,12132.4853556,E,4,63,0.43,15.901,M,15.25,M,7,3335*4D
$GNRMC,105705.600,A,2500.7989562,N,12132.4853556,E,0.01,0.95,260623,,,R,V*11
$GPHDT,224.365,T*31
$GNGGA,105705.800,2500.7989563,N,12132.4853539,E,4,63,0.43,15.907,M,15.25,M,7,3335*4D
$GNRMC,105705.800,A,2500.7989563,N,12132.4853539,E,0.01,0.95,260623,,,R,V*17
$GPHDT,224.404,T*31
$GNGSA,A,3,24,196,18,199,15,23,195,05,194,13,,,0.82,0.43,0.70,1*08
$GNGSA,A,3,80,85,70,73,84,86,79,69,71,,,,0.82,0.43,0.70,2*0B
$GNGSA,A,3,13,08,07,15,26,02,03,,,,,,0.82,0.43,0.70,3*05
$GNGSA,A,3,38,39,08,16,06,13,46,09,20,19,37,29,0.82,0.43,0.70,4*0A
$GNGSA,A,3,35,36,,,,,,,,,,,0.82,0.43,0.70,4*0D
$GPGSV,4,1,16,24,82,114,45,196,74,057,40,18,61,277,47,199,60,167,33,1*6C
$GPGSV,4,2,16,45,47,231,38,15,44,032,43,23,39,330,43,195,39,179,28,1*50
$GPGSV,4,3,16,05,27,107,36,194,26,141,31,13,16,048,32,12,12,151,,1*54
$GPGSV,4,4,16,10,09,312,19,29,07,206,,20,06,122,,25,01,184,,1*65
$GPGSV,2,1,07,24,82,114,48,196,74,057,45,18,61,277,45,199,60,167,43,8*6E
$GPGSV,2,2,07,23,39,330,43,195,39,179,38,194,26,141,26,8*5D
$GLGSV,3,1,09,80,45,102,46,85,44,266,32,70,39,350,25,73,23,165,31,1*7C
$GLGSV,3,2,09,84,22,196,16,86,21,317,29,79,20,043,25,69,18,059,20,1*72
$GLGSV,3,3,09,71,16,299,15,1*46
$GAGSV,3,1,09,13,64,253,43,08,51,012,35,07,41,288,27,15,34,174,24,7*70
$GAGSV,3,2,09,26,26,316,31,02,22,097,19,30,17,151,,03,16,056,21,7*7D
$GAGSV,3,3,09,25,05,052,,7*4F
$GAGSV,2,1,07,13,64,253,44,08,51,012,37,07,41,288,30,15,34,174,36,1*79
$GAGSV,2,2,07,26,26,316,33,02,22,097,18,03,16,056,23,1*45
$GBGSV,4,1,15,38,80,060,42,39,73,260,44,08,72,007,33,16,66,239,43,1*7C
$GBGSV,4,2,15,06,64,236,42,13,63,341,37,46,52,132,40,09,47,227,35,1*7E
$GBGSV,4,3,15,20,46,046,44,19,43,330,48,37,29,057,31,29,28,221,45,1*7A
$GBGSV,4,4,15,35,24,282,22,36,23,185,31,32,07,088,,1*46
$GBGSV,3,1,09,38,80,060,46,39,73,260,45,46,52,132,42,20,46,046,46,4*77
$GBGSV,3,2,09,19,43,330,43,37,29,057,31,29,28,221,42,35,24,282,21,4*71
$GBGSV,3,3,09,36,23,185,27,4*47
$GNGGA,105706.000,2500.7989544,N,12132.4853534,E,4,63,0.43,15.903,M,15.25,M,8,3335*45
$GNRMC,105706.000,A,2500.7989544,N,12132.4853534,E,0.00,0.95,260623,,,R,V*15
$GPHDT,224.523,T*35
$GNGGA,105706.200,2500.7989540,N,12132.4853502,E,4,63,0.43,15.886,M,15.25,M,8,3335*4A
$GNRMC,105706.200,A,2500.7989540,N,12132.4853502,E,0.00,0.95,260623,,,R,V*16
$GPHDT,224.534,T*33
$GNGGA,105706.400,2500.7989535,N,12132.4853535,E,4,63,0.43,15.895,M,15.25,M,8,3335*48
$GNRMC,105706.400,A,2500.7989535,N,12132.4853535,E,0.00,0.95,260623,,,R,V*16
$GPHDT,224.672,T*32
$GNGGA,105706.600,2500.7989534,N,12132.4853539,E,4,62,0.45,15.889,M,15.25,M,8,3335*4D
$GNRMC,105706.600,A,2500.7989534,N,12132.4853539,E,0.00,0.95,260623,,,R,V*19
$GPHDT,224.203,T*30
$GNGGA,105706.800,2500.7989552,N,12132.4853525,E,4,62,0.45,15.900,M,15.25,M,8,3335*4E
$GNRMC,105706.800,A,2500.7989552,N,12132.4853525,E,0.00,0.95,260623,,,R,V*1A
$GPHDT,224.402,T*37
$GNGSA,A,3,24,196,18,199,15,23,195,05,194,13,,,0.86,0.45,0.73,1*09
$GNGSA,A,3,80,85,70,73,84,86,79,69,,,,,0.86,0.45,0.73,2*0C
$GNGSA,A,3,13,08,07,15,26,02,03,,,,,,0.86,0.45,0.73,3*04
$GNGSA,A,3,38,39,08,16,06,13,46,09,20,19,37,29,0.86,0.45,0.73,4*0B
$GNGSA,A,3,35,36,,,,,,,,,,,0.86,0.45,0.73,4*0C
$GPGSV,5,1,17,24,82,114,45,196,74,057,40,18,61,277,47,199,60,167,33,1*6C
$GPGSV,5,2,17,45,47,231,38,15,44,032,43,23,39,330,43,195,39,179,27,1*5F
$GPGSV,5,3,17,05,27,107,36,194,26,141,28,13,16,048,31,12,12,151,,1*5F
$GPGSV,5,4,17,10,09,312,19,29,07,206,,20,06,122,,32,03,258,,1*63
$GPGSV,5,5,17,25,01,184,,1*59
$GPGSV,2,1,07,24,82,114,48,196,74,057,45,18,61,277,45,199,60,167,44,8*69
$GPGSV,2,2,07,23,39,330,43,195,39,179,38,194,26,141,21,8*5A
$GLGSV,3,1,09,80,45,102,45,85,44,266,32,70,39,350,24,73,23,165,31,1*7E
$GLGSV,3,2,09,84,22,196,17,86,21,317,27,79,20,043,26,69,18,059,20,1*7E
$GLGSV,3,3,09,71,16,299,18,1*4B
$GAGSV,3,1,09,13,64,253,43,08,51,012,35,07,41,288,28,15,34,174,24,7*7F
$GAGSV,3,2,09,26,26,316,31,02,22,097,20,30,17,151,,03,16,056,21,7*77
$GAGSV,3,3,09,25,05,052,,7*4F
$GAGSV,2,1,07,13,64,253,43,08,51,012,37,07,41,288,30,15,34,174,35,1*7D
$GAGSV,2,2,07,26,26,316,33,02,22,097,18,03,16,056,24,1*42
$GBGSV,4,1,14,38,80,060,43,39,73,260,44,08,72,007,34,16,66,239,43,1*7B
$GBGSV,4,2,14,06,64,236,42,13,63,341,38,46,52,132,43,09,47,227,35,1*73
$GBGSV,4,3,14,20,46,046,44,19,43,330,48,37,29,057,31,29,28,221,44,1*7A
$GBGSV,4,4,14,35,24,282,23,36,23,185,32,1*73
$GBGSV,3,1,09,38,80,060,45,39,73,260,45,46,52,132,45,20,46,046,46,4*73
$GBGSV,3,2,09,19,43,330,43,37,29,057,30,29,28,221,42,35,24,282,21,4*70
$GBGSV,3,3,09,36,23,185,28,4*48
$GNGGA,105707.000,2500.7989526,N,12132.4853551,E,4,62,0.45,15.891,M,15.25,M,9,3335*4F
$GNRMC,105707.000,A,2500.7989526,N,12132.4853551,E,0.00,0.95,260623,,,R,V*13
$GPHDT,224.264,T*31
$GNGGA,105707.200,2500.7989563,N,12132.4853546,E,4,62,0.45,15.890,M,15.25,M,9,3335*4B
$GNRMC,105707.200,A,2500.7989563,N,12132.4853546,E,0.00,0.95,260623,,,R,V*16
$GPHDT,224.043,T*36
$GNGGA,105707.400,2500.7989541,N,12132.4853538,E,4,62,0.45,15.887,M,15.25,M,9,3335*42
$GNRMC,105707.400,A,2500.7989541,N,12132.4853538,E,0.00,0.95,260623,,,R,V*19
$GPHDT,224.177,T*30
$GNGGA,105707.600,2500.7989554,N,12132.4853544,E,4,62,0.45,15.891,M,15.25,M,9,3335*48
$GNRMC,105707.600,A,2500.7989554,N,12132.4853544,E,0.00,0.95,260623,,,R,V*14
$GPHDT,223.965,T*3C
$GNGGA,105707.800,2500.7989574,N,12132.4853530,E,4,61,0.45,15.896,M,15.25,M,9,3335*43
$GNRMC,105707.800,A,2500.7989574,N,12132.4853530,E,0.00,0.95,260623,,,R,V*1B
$GPHDT,224.493,T*3F
$GNGSA,A,3,24,196,18,199,15,23,195,05,194,13,,,0.86,0.45,0.73,1*09
$GNGSA,A,3,80,85,70,73,84,86,79,69,,,,,0.86,0.45,0.73,2*0C
$GNGSA,A,3,13,08,07,15,26,02,03,,,,,,0.86,0.45,0.73,3*04
$GNGSA,A,3,38,39,08,16,06,13,46,09,20,19,37,29,0.86,0.45,0.73,4*0B
$GNGSA,A,3,35,36,,,,,,,,,,,0.86,0.45,0.73,4*0C
$GPGSV,5,1,17,24,82,114,45,196,74,057,40,18,61,277,47,199,60,167,33,1*6C
$GPGSV,5,2,17,45,47,231,38,15,44,032,43,23,39,330,43,195,39,179,26,1*5E
$GPGSV,5,3,17,05,27,107,36,194,26,141,34,13,16,048,31,12,12,151,,1*52
$GPGSV,5,4,17,10,09,312,19,29,07,206,,20,06,122,,32,03,258,,1*63
$GPGSV,5,5,17,25,01,184,,1*59
$GPGSV,2,1,07,24,82,114,48,196,74,057,45,18,61,277,45,199,60,167,43,8*6E
$GPGSV,2,2,07,23,39,330,43,195,39,179,38,194,26,141,30,8*5A
$GLGSV,3,1,09,80,45,102,45,85,44,266,32,70,39,350,25,73,23,165,31,1*7F
$GLGSV,3,2,09,84,22,196,18,86,21,317,30,79,20,043,25,69,18,059,21,1*75
$GLGSV,3,3,09,71,16,299,17,1*44
$GAGSV,3,1,09,13,64,253,43,08,51,012,34,07,41,288,26,15,34,174,25,7*71
$GAGSV,3,2,09,26,26,316,31,02,22,097,21,30,17,151,,03,16,056,21,7*76
$GAGSV,3,3,09,25,05,052,,7*4F
$GAGSV,2,1,06,13,64,253,43,08,51,012,37,07,41,288,30,15,34,174,35,1*7C
$GAGSV,2,2,06,26,26,316,34,03,16,056,23,1*76
$GBGSV,4,1,14,38,80,060,43,39,73,260,43,08,72,007,35,16,66,239,43,1*7D
$GBGSV,4,2,14,06,64,236,42,13,63,341,38,46,52,132,43,09,47,227,36,1*70
$GBGSV,4,3,14,20,46,046,44,19,43,330,48,37,29,057,30,29,28,221,44,1*7B
$GBGSV,4,4,14,35,24,282,23,36,23,185,28,1*78
$GBGSV,3,1,09,38,80,060,45,39,73,260,45,46,52,132,45,20,46,046,46,4*73
$GBGSV,3,2,09,19,43,330,43,37,29,057,31,29,28,221,42,35,24,282,23,4*73
$GBGSV,3,3,09,36,23,185,30,4*41
$GNGGA,105708.000,2500.7989567,N,12132.4853554,E,4,61,0.45,15.888,M,15.25,M,10,3335*73
$GNRMC,105708.000,A,2500.7989567,N,12132.4853554,E,0.01,0.95,260623,,,R,V*1D
$GPHDT,224.463,T*30
$GNGGA,105708.200,2500.7989541,N,12132.4853556,E,4,61,0.45,15.888,M,15.25,M,10,3335*77
$GNRMC,105708.200,A,2500.7989541,N,12132.4853556,E,0.00,0.95,260623,,,R,V*18
$GPHDT,224.310,T*33
$GNGGA,105708.400,2500.7989549,N,12132.4853519,E,4,61,0.45,15.900,M,15.25,M,10,3335*73
$GNRMC,105708.400,A,2500.7989549,N,12132.4853519,E,0.00,0.95,260623,,,R,V*1D
$GPHDT,224.134,T*37
$GNGGA,105708.600,2500.7989579,N,12132.4853548,E,4,61,0.45,15.899,M,15.25,M,10,3335*77
$GNRMC,105708.600,A,2500.7989579,N,12132.4853548,E,0.00,0.95,260623,,,R,V*18
$GPHDT,224.076,T*30
$GNGGA,105708.800,2500.7989557,N,12132.4853519,E,4,61,0.45,15.907,M,15.25,M,10,3335*77
$GNRMC,105708.800,A,2500.7989557,N,12132.4853519,E,0.00,0.95,260623,,,R,V*1E
$GPHDT,224.295,T*3F
$GNGSA,A,3,24,196,18,199,15,23,195,05,194,13,,,0.86,0.45,0.73,1*09
$GNGSA,A,3,80,85,70,73,84,86,79,69,,,,,0.86,0.45,0.73,2*0C
$GNGSA,A,3,13,08,07,15,26,02,03,,,,,,0.86,0.45,0.73,3*04
$GNGSA,A,3,38,39,08,16,06,13,46,09,20,19,37,29,0.86,0.45,0.73,4*0B
$GNGSA,A,3,35,36,,,,,,,,,,,0.86,0.45,0.73,4*0C
$GPGSV,5,1,17,24,82,114,45,196,74,057,40,18,61,277,47,199,60,167,33,1*6C
$GPGSV,5,2,17,45,47,231,38,15,44,032,43,23,39,330,43,195,39,179,27,1*5F
$GPGSV,5,3,17,05,27,107,31,194,26,141,35,13,16,048,32,12,12,151,,1*57
$GPGSV,5,4,17,10,09,312,18,29,07,206,,20,06,122,,32,03,258,,1*62
$GPGSV,5,5,17,25,01,184,,1*59
$GPGSV,2,1,07,24,82,114,48,196,74,057,45,18,61,277,45,199,60,167,43,8*6E
$GPGSV,2,2,07,23,39,330,43,195,39,179,38,194,26,141,29,8*52
$GLGSV,3,1,09,80,45,102,44,85,44,266,31,70,39,350,25,73,23,165,30,1*7C
$GLGSV,3,2,09,84,22,196,18,86,21,317,28,79,20,043,24,69,18,059,21,1*7D
$GLGSV,3,3,09,71,16,299,18,1*4B
$GAGSV,3,1,09,13,64,253,43,08,51,012,34,07,41,288,26,15,34,174,25,7*71
$GAGSV,3,2,09,26,26,316,31,02,22,097,21,30,17,151,,03,16,056,21,7*76
$GAGSV,3,3,09,25,05,052,,7*4F
$GAGSV,2,1,06,13,64,253,43,08,51,012,38,07,41,288,31,15,34,174,35,1*72
$GAGSV,2,2,06,26,26,316,35,03,16,056,24,1*70
$GBGSV,4,1,14,38,80,060,43,39,73,260,43,08,72,007,35,16,66,239,43,1*7D
$GBGSV,4,2,14,06,64,236,42,13,63,341,38,46,52,132,44,09,47,227,36,1*77
$GBGSV,4,3,14,20,46,046,44,19,43,330,48,37,29,057,30,29,28,221,45,1*7A
$GBGSV,4,4,14,35,24,282,22,36,23,185,24,1*75
$GBGSV,3,1,09,38,80,060,45,39,73,260,45,46,52,132,47,20,46,046,46,4*71
$GBGSV,3,2,09,19,43,330,44,37,29,057,31,29,28,221,42,35,24,282,23,4*74
$GBGSV,3,3,09,36,23,185,32,4*43
$GNGGA,105709.000,2500.7989581,N,12132.4853535,E,4,61,0.45,15.901,M,15.25,M,11,3335*7C
$GNRMC,105709.000,A,2500.7989581,N,12132.4853535,E,0.00,0.95,260623,,,R,V*12
$GPHDT,224.461,T*32
$GNGGA,105709.200,2500.7989568,N,12132.4853509,E,4,62,0.43,15.898,M,15.25,M,11,3335*72
$GNRMC,105709.200,A,2500.7989568,N,12132.4853509,E,0.00,0.95,260623,,,R,V*18
$GPHDT,224.155,T*30
$GNGGA,105709.400,2500.7989573,N,12132.4853540,E,4,62,0.43,15.902,M,15.25,M,11,3335*71
$GNRMC,105709.400,A,2500.7989573,N,12132.4853540,E,0.00,0.95,260623,,,R,V*19
$GPHDT,224.678,T*38
$GNGGA,105709.600,2500.7989565,N,12132.4853522,E,4,62,0.43,15.903,M,15.25,M,11,3335*71
$GNRMC,105709.600,A,2500.7989565,N,12132.4853522,E,0.00,0.95,260623,,,R,V*18
$GPHDT,224.296,T*3C
$GNGGA,105709.800,2500.7989577,N,12132.4853530,E,4,62,0.43,15.902,M,15.25,M,11,3335*7E
$GNRMC,105709.800,A,2500.7989577,N,12132.4853530,E,0.00,0.95,260623,,,R,V*16
$GPHDT,224.297,T*3D
$GNGSA,A,3,24,196,18,199,15,23,195,05,194,13,,,0.82,0.43,0.70,1*08
$GNGSA,A,3,80,85,70,73,84,86,79,69,71,,,,0.82,0.43,0.70,2*0B
$GNGSA,A,3,13,08,07,15,26,02,03,,,,,,0.82,0.43,0.70,3*05
$GNGSA,A,3,38,39,08,16,06,13,46,09,20,19,37,29,0.82,0.43,0.70,4*0A
$GNGSA,A,3,35,36,,,,,,,,,,,0.82,0.43,0.70,4*0D
$GPGSV,5,1,17,24,82,114,45,196,74,057,40,18,61,277,47,199,60,167,33,1*6C
$GPGSV,5,2,17,45,47,231,38,15,44,032,43,23,39,330,43,195,39,179,27,1*5F
$GPGSV,5,3,17,05,27,107,33,194,26,141,35,13,16,048,32,12,12,151,,1*55
$GPGSV,5,4,17,10,09,312,18,29,07,206,,20,06,122,,32,03,258,,1*62
$GPGSV,5,5,17,25,01,184,,1*59
$GPGSV,2,1,07,24,82,114,48,196,74,057,45,18,61,277,45,199,60,167,43,8*6E
$GPGSV,2,2,07,23,39,330,43,195,39,179,38,194,26,141,31,8*5B
$GLGSV,3,1,09,80,45,102,42,85,44,266,32,70,39,351,24,73,23,165,29,1*71
$GLGSV,3,2,09,84,22,196,18,86,21,317,28,79,20,043,24,69,18,059,21,1*7D
$GLGSV,3,3,09,71,16,299,20,1*40
$GAGSV,3,1,09,13,64,253,43,08,51,012,34,07,41,288,27,15,34,174,25,7*70
$GAGSV,3,2,09,26,26,316,32,02,22,097,21,30,17,151,,03,16,056,22,7*76
$GAGSV,3,3,09,25,05,052,,7*4F
$GAGSV,2,1,06,13,64,253,43,08,51,012,38,07,41,288,31,15,34,174,35,1*72
$GAGSV,2,2,06,26,26,316,35,03,16,056,24,1*70
$GBGSV,4,1,14,38,80,060,43,39,73,260,43,08,72,007,34,16,66,239,43,1*7C
$GBGSV,4,2,14,06,64,236,42,13,63,341,38,46,52,132,44,09,47,227,36,1*77
$GBGSV,4,3,14,20,46,046,44,19,43,330,48,37,29,057,30,29,28,221,45,1*7A
$GBGSV,4,4,14,35,24,282,22,36,23,185,27,1*76
$GBGSV,3,1,09,38,80,060,45,39,73,260,45,46,52,132,47,20,46,046,46,4*71
$GBGSV,3,2,09,19,43,330,44,37,29,057,31,29,28,221,42,35,24,282,21,4*76
$GBGSV,3,3,09,36,23,185,32,4*43
$GNGGA,105710.000,2500.7989575,N,12132.4853519,E,4,62,0.43,15.916,M,15.25,M,12,3335*71
$GNRMC,105710.000,A,2500.7989575,N,12132.4853519,E,0.00,0.95,260623,,,R,V*1F
$GPHDT,224.313,T*30
$GNGGA,105710.200,2500.7989560,N,12132.4853530,E,4,63,0.43,15.894,M,15.25,M,12,3335*76
$GNRMC,105710.200,A,2500.7989560,N,12132.4853530,E,0.00,0.95,260623,,,R,V*12
$GPHDT,224.557,T*36
$GNGGA,105710.400,2500.7989585,N,12132.4853527,E,4,63,0.43,15.895,M,15.25,M,12,3335*7C
$GNRMC,105710.400,A,2500.7989585,N,12132.4853527,E,0.00,0.95,260623,,,R,V*19
$GPHDT,224.191,T*38
$GNGGA,105710.600,2500.7989573,N,12132.4853510,E,4,63,0.43,15.900,M,15.25,M,12,3335*7E
$GNRMC,105710.600,A,2500.7989573,N,12132.4853510,E,0.00,0.95,260623,,,R,V*16
$GPHDT,224.179,T*3E
$GNGGA,105710.800,2500.7989589,N,12132.4853507,E,4,63,0.43,15.906,M,15.25,M,12,3335*75
$GNRMC,105710.800,A,2500.7989589,N,12132.4853507,E,0.00,0.95,260623,,,R,V*1B
$GPHDT,224.015,T*35
$GNGSA,A,3,24,196,18,199,15,23,195,05,194,13,,,0.82,0.43,0.70,1*08
$GNGSA,A,3,80,85,70,73,84,86,79,69,71,,,,0.82,0.43,0.70,2*0B
$GNGSA,A,3,13,08,07,15,26,02,03,,,,,,0.82,0.43,0.70,3*05
$GNGSA,A,3,38,39,08,16,06,13,46,09,20,19,37,29,0.82,0.43,0.70,4*0A
$GNGSA,A,3,35,36,,,,,,,,,,,0.82,0.43,0.70,4*0D
$GPGSV,5,1,17,24,82,114,45,196,74,057,40,18,61,277,47,199,60,167,32,1*6D
$GPGSV,5,2,17,45,47,231,38,15,44,032,43,23,39,330,43,195,39,179,28,1*50
$GPGSV,5,3,17,05,27,107,35,194,26,141,36,13,16,048,33,12,12,151,,1*51
$GPGSV,5,4,17,10,09,312,18,29,07,206,,20,06,122,,32,03,258,,1*62
$GPGSV,5,5,17,25,01,184,,1*59
$GPGSV,2,1,07,24,82,114,48,196,74,057,45,18,61,277,45,199,60,167,43,8*6E
$GPGSV,2,2,07,23,39,330,43,195,39,179,38,194,26,141,28,8*53
$GLGSV,3,1,09,80,45,102,45,85,44,266,32,70,39,351,24,73,23,165,29,1*76
$GLGSV,3,2,09,84,22,196,17,86,21,317,29,79,20,043,24,69,18,059,21,1*73
$GLGSV,3,3,09,71,16,299,24,1*44
$GAGSV,3,1,09,13,64,253,43,08,51,012,34,07,41,288,24,15,34,174,25,7*73
$GAGSV,3,2,09,26,26,316,30,02,22,097,21,30,17,151,,03,16,056,21,7*77
$GAGSV,3,3,09,25,05,052,,7*4F
$GAGSV,2,1,07,13,64,253,43,08,51,012,37,07,41,288,31,15,34,174,34,1*7D
$GAGSV,2,2,07,26,26,316,35,02,22,097,22,03,16,056,24,1*4D
$GBGSV,4,1,15,38,80,060,43,39,73,260,43,08,72,007,35,16,66,239,43,1*7C
$GBGSV,4,2,15,06,64,236,42,13,63,341,38,46,52,132,44,09,47,227,36,1*76
$GBGSV,4,3,15,20,46,046,44,19,43,330,48,37,29,057,29,29,28,221,45,1*73
$GBGSV,4,4,15,35,24,282,21,36,23,185,26,30,03,174,,1*47
$GBGSV,3,1,09,38,80,060,45,39,73,260,45,46,52,132,46,20,46,046,45,4*73
$GBGSV,3,2,09,19,43,330,44,37,29,057,30,29,28,221,42,35,24,282,22,4*74
$GBGSV,3,3,09,36,23,185,32,4*43
$GNGGA,105711.000,2500.7989612,N,12132.4853536,E,4,63,0.43,15.898,M,15.25,M,13,3335*78
$GNRMC,105711.000,A,2500.7989612,N,12132.4853536,E,0.00,0.95,260623,,,R,V*11
$GPHDT,224.394,T*3F
$GNGGA,105711.200,2500.7989594,N,12132.4853521,E,4,63,0.43,15.902,M,15.25,M,13,3335*73
$GNRMC,105711.200,A,2500.7989594,N,12132.4853521,E,0.00,0.95,260623,,,R,V*18
$GPHDT,224.132,T*31
$GNGGA,105711.400,2500.7989585,N,12132.4853505,E,4,63,0.43,15.897,M,15.25,M,13,3335*7E
$GNRMC,105711.400,A,2500.7989585,N,12132.4853505,E,0.00,0.95,260623,,,R,V*18
$GPHDT,224.497,T*3B
$GNGGA,105711.600,2500.7989566,N,12132.4853496,E,4,63,0.43,15.894,M,15.25,M,13,3335*79
$GNRMC,105711.600,A,2500.7989566,N,12132.4853496,E,0.00,0.95,260623,,,R,V*1C
$GPHDT,224.718,T*3F
$GNGGA,105711.800,2500.7989553,N,12132.4853445,E,4,63,0.43,15.930,M,15.25,M,13,3335*70
$GNRMC,105711.800,A,2500.7989553,N,12132.4853445,E,0.00,0.95,260623,,,R,V*1A
$GPHDT,224.819,T*31
$GNGSA,A,3,24,196,18,199,15,23,195,05,194,13,,,0.82,0.43,0.70,1*08
$GNGSA,A,3,80,85,70,73,84,86,79,69,71,,,,0.82,0.43,0.70,2*0B
$GNGSA,A,3,13,08,07,15,26,02,03,,,,,,0.82,0.43,0.70,3*05
$GNGSA,A,3,38,39,08,16,06,13,46,09,20,19,37,29,0.82,0.43,0.70,4*0A
$GNGSA,A,3,35,36,,,,,,,,,,,0.82,0.43,0.70,4*0D
$GPGSV,5,1,17,24,82,114,45,196,74,057,40,18,61,277,47,199,60,167,32,1*6D
$GPGSV,5,2,17,45,47,231,38,15,44,032,40,23,39,330,43,195,39,179,27,1*5C
$GPGSV,5,3,17,05,27,107,35,194,26,141,36,13,16,048,31,12,12,151,,1*53
$GPGSV,5,4,17,10,09,312,19,29,07,206,,20,06,122,,32,03,258,,1*63
$GPGSV,5,5,17,25,01,184,,1*59
$GPGSV,2,1,07,24,82,114,48,196,74,057,45,18,61,277,45,199,60,167,43,8*6E
$GPGSV,2,2,07,23,39,330,44,195,39,179,38,194,26,141,29,8*55
$GLGSV,3,1,09,80,45,101,45,85,44,266,31,70,39,351,24,73,23,165,28,1*77
$GLGSV,3,2,09,84,22,196,17,86,21,317,28,79,20,043,22,69,18,059,25,1*70
$GLGSV,3,3,09,71,16,299,24,1*44
$GAGSV,3,1,09,13,64,253,43,08,51,012,35,07,41,288,26,15,34,174,26,7*73
$GAGSV,3,2,09,26,26,316,30,02,22,097,21,30,17,151,,03,16,056,20,7*76
$GAGSV,3,3,09,25,05,052,,7*4F
$GAGSV,2,1,07,13,64,253,43,08,51,012,37,07,41,288,31,15,34,174,35,1*7C
$GAGSV,2,2,07,26,26,316,35,02,22,097,20,03,16,056,24,1*4F
$GBGSV,4,1,14,38,80,060,42,39,73,260,43,08,72,007,35,16,66,239,43,1*7C
$GBGSV,4,2,14,06,64,236,42,13,63,341,38,46,52,132,44,09,47,227,36,1*77
$GBGSV,4,3,14,20,46,046,42,19,43,330,48,37,29,057,28,29,28,221,45,1*75
$GBGSV,4,4,14,35,24,282,21,36,23,185,27,1*75
$GBGSV,3,1,09,38,80,060,45,39,73,260,45,46,52,132,46,20,46,046,44,4*72
$GBGSV,3,2,09,19,43,330,44,37,29,057,27,29,28,221,41,35,24,282,25,4*76
$GBGSV,3,3,09,36,23,185,32,4*43
$GNGGA,105712.000,2500.7989546,N,12132.4853443,E,4,63,0.43,15.915,M,15.25,M,14,3335*79
$GNRMC,105712.000,A,2500.7989546,N,12132.4853443,E,0.00,0.95,260623,,,R,V*13
$GPHDT,224.691,T*3F
$GNGGA,105712.200,2500.7989575,N,12132.4853460,E,4,63,0.43,15.922,M,15.25,M,14,3335*7E
$GNRMC,105712.200,A,2500.7989575,N,12132.4853460,E,0.00,0.95,260623,,,R,V*10
$GPHDT,224.750,T*33
$GNGGA,105712.400,2500.7989556,N,12132.4853466,E,4,63,0.43,15.918,M,15.25,M,14,3335*76
$GNRMC,105712.400,A,2500.7989556,N,12132.4853466,E,0.00,0.95,260623,,,R,V*11
$GPHDT,224.997,T*36
$GNGGA,105712.600,2500.7989553,N,12132.4853433,E,4,63,0.43,15.884,M,15.25,M,14,3335*75
$GNRMC,105712.600,A,2500.7989553,N,12132.4853433,E,0.00,0.95,260623,,,R,V*16
$GPHDT,224.116,T*37
$GNGGA,105712.800,2500.7989555,N,12132.4853505,E,4,63,0.43,15.891,M,15.25,M,14,3335*7D
$GNRMC,105712.800,A,2500.7989555,N,12132.4853505,E,0.00,0.95,260623,,,R,V*1A
$GPHDT,224.491,T*3D
$GNGSA,A,3,24,196,18,199,15,23,195,05,194,13,,,0.82,0.43,0.70,1*08
$GNGSA,A,3,80,85,70,73,84,86,79,69,71,,,,0.82,0.43,0.70,2*0B
$GNGSA,A,3,13,08,07,15,26,02,03,,,,,,0.82,0.43,0.70,3*05
$GNGSA,A,3,38,39,08,16,06,13,46,09,20,19,29,35,0.82,0.43,0.70,4*08
$GNGSA,A,3,36,37,,,,,,,,,,,0.82,0.43,0.70,4*0F
$GPGSV,5,1,17,24,82,114,45,196,74,057,41,18,61,277,47,199,60,167,33,1*6D
$GPGSV,5,2,17,45,47,231,38,15,44,032,40,23,39,330,44,195,39,179,28,1*54
$GPGSV,5,3,17,05,27,107,35,194,26,141,36,13,16,048,33,12,12,151,,1*51
$GPGSV,5,4,17,10,09,312,19,29,07,206,,20,06,122,,32,03,258,,1*63
$GPGSV,5,5,17,25,01,184,,1*59
$GPGSV,2,1,07,24,82,114,48,196,74,057,45,18,61,277,45,199,60,167,43,8*6E
$GPGSV,2,2,07,23,39,330,45,195,39,179,38,194,26,141,30,8*5C
$GLGSV,3,1,09,80,45,101,45,85,44,266,33,70,39,351,25,73,23,165,28,1*74
$GLGSV,3,2,09,84,22,195,17,86,22,317,28,79,20,043,21,69,18,059,24,1*72
$GLGSV,3,3,09,71,16,299,24,1*44
$GAGSV,3,1,09,13,64,253,43,08,51,012,33,07,41,288,27,15,34,174,26,7*74
$GAGSV,3,2,09,26,26,316,30,02,22,097,18,30,17,151,,03,16,056,19,7*76
$GAGSV,3,3,09,25,05,052,,7*4F
$GAGSV,2,1,07,13,64,253,43,08,51,012,37,07,41,288,32,15,34,174,35,1*7F
$GAGSV,2,2,07,26,26,316,35,02,22,097,21,03,16,056,22,1*48
$GBGSV,4,1,14,38,80,060,42,39,73,260,43,08,72,007,36,16,66,239,43,1*7F
$GBGSV,4,2,14,06,64,236,42,13,63,341,38,46,52,132,44,09,47,227,36,1*77
$GBGSV,4,3,14,20,46,046,44,19,43,330,47,37,29,057,23,29,28,221,45,1*77
$GBGSV,4,4,14,35,24,282,22,36,23,185,26,1*77
$GBGSV,3,1,09,38,80,060,45,39,73,260,45,46,52,132,46,20,46,046,44,4*72
$GBGSV,3,2,09,19,43,330,45,37,29,057,31,29,28,221,41,35,24,282,24,4*71
$GBGSV,3,3,09,36,23,185,32,4*43
$GNGGA,105713.000,2500.7989554,N,12132.4853498,E,4,62,0.43,15.876,M,15.25,M,15,3335*79
$GNRMC,105713.000,A,2500.7989554,N,12132.4853498,E,0.00,0.95,260623,,,R,V*17
$GPHDT,224.353,T*34
$GNGGA,105713.200,2500.7989552,N,12132.4853519,E,4,63,0.43,15.869,M,15.25,M,15,3335*7A
$GNRMC,105713.200,A,2500.7989552,N,12132.4853519,E,0.00,0.95,260623,,,R,V*1B
$GPHDT,224.763,T*33
$GNGGA,105713.400,2500.7989577,N,12132.4853469,E,4,63,0.43,15.882,M,15.25,M,15,3335*78
$GNRMC,105713.400,A,2500.7989577,N,12132.4853469,E,0.00,0.95,260623,,,R,V*1C
$GPHDT,224.078,T*3E
$GNGGA,105713.600,2500.7989600,N,12132.4853498,E,4,63,0.43,15.888,M,15.25,M,15,3335*7D
$GNRMC,105713.600,A,2500.7989600,N,12132.4853498,E,0.00,0.95,260623,,,R,V*13
$GPHDT,224.140,T*34
$GNGGA,105713.800,2500.7989570,N,12132.4853459,E,4,63,0.43,15.881,M,15.25,M,15,3335*73
$GNRMC,105713.800,A,2500.7989570,N,12132.4853459,E,0.00,0.95,260623,,,R,V*14
$GPHDT,224.067,T*30
$GNGSA,A,3,24,196,18,199,15,23,195,05,194,13,,,0.82,0.43,0.70,1*08
$GNGSA,A,3,80,85,70,73,84,86,79,69,71,,,,0.82,0.43,0.70,2*0B
$GNGSA,A,3,13,08,07,15,26,02,03,,,,,,0.82,0.43,0.70,3*05
$GNGSA,A,3,38,39,08,16,06,13,46,09,20,19,37,29,0.82,0.43,0.70,4*0A
$GNGSA,A,3,35,36,,,,,,,,,,,0.82,0.43,0.70,4*0D
$GPGSV,4,1,16,24,82,114,45,196,74,057,41,18,61,277,46,199,60,167,34,1*6B
$GPGSV,4,2,16,45,47,231,38,15,44,032,42,23,39,330,36,195,39,179,28,1*53
$GPGSV,4,3,16,05,27,107,36,194,26,141,36,13,16,048,33,12,12,151,,1*52
$GPGSV,4,4,16,10,09,312,19,29,07,206,,20,06,122,,25,01,184,,1*65
$GPGSV,2,1,07,24,82,114,47,196,74,057,45,18,61,277,45,199,60,167,44,8*66
$GPGSV,2,2,07,23,39,330,35,195,39,179,39,194,26,141,30,8*5A
$GLGSV,3,1,09,80,45,101,45,85,44,266,31,70,39,351,19,73,23,165,28,1*79
$GLGSV,3,2,09,84,22,195,17,86,22,317,29,79,20,043,22,69,18,059,23,1*77
$GLGSV,3,3,09,71,16,299,24,1*44
$GAGSV,3,1,09,13,64,253,43,08,51,012,29,07,41,288,24,15,34,174,27,7*7D
$GAGSV,3,2,09,26,26,316,31,02,22,097,17,30,17,151,,03,16,056,19,7*78
$GAGSV,3,3,09,25,05,052,,7*4F
$GAGSV,2,1,07,13,64,253,43,08,51,012,33,07,41,288,32,15,34,174,35,1*7B
$GAGSV,2,2,07,26,26,316,35,02,22,097,19,03,16,056,22,1*43
$GBGSV,4,1,14,38,80,060,42,39,73,260,43,08,72,007,34,16,66,239,43,1*7D
$GBGSV,4,2,14,06,64,236,42,13,63,341,35,46,52,132,44,09,47,227,36,1*7A
$GBGSV,4,3,14,20,46,046,45,19,43,330,45,37,29,057,24,29,28,221,45,1*73
$GBGSV,4,4,14,35,24,282,20,36,23,185,26,1*75
$GBGSV,3,1,09,38,80,060,46,39,73,260,45,46,52,132,46,20,46,046,46,4*73
$GBGSV,3,2,09,19,43,330,33,37,29,057,32,29,28,221,41,35,24,282,24,4*73
$GBGSV,3,3,09,36,23,185,32,4*43
$GNGGA,105714.000,2500.7989561,N,12132.4853465,E,4,63,0.43,15.883,M,15.25,M,16,3335*72
$GNRMC,105714.000,A,2500.7989561,N,12132.4853465,E,0.00,0.95,260623,,,R,V*14
$GPHDT,223.939,T*35
$GNGGA,105714.200,2500.7989497,N,12132.4853491,E,4,63,0.43,15.886,M,15.25,M,16,3335*76
$GNRMC,105714.200,A,2500.7989497,N,12132.4853491,E,0.00,0.95,260623,,,R,V*15
$GPHDT,224.933,T*38
$GNGGA,105714.400,2500.7989504,N,12132.4853475,E,4,63,0.43,15.891,M,15.25,M,16,3335*77
$GNRMC,105714.400,A,2500.7989504,N,12132.4853475,E,0.00,0.95,260623,,,R,V*12
$GPHDT,224.995,T*34
$GNGGA,105714.600,2500.7989504,N,12132.4853484,E,4,63,0.43,15.896,M,15.25,M,16,3335*7C
$GNRMC,105714.600,A,2500.7989504,N,12132.4853484,E,0.00,0.95,260623,,,R,V*1E
$GPHDT,225.228,T*38
$GNGGA,105714.800,2500.7989537,N,12132.4853483,E,4,63,0.43,15.890,M,15.25,M,16,3335*73
$GNRMC,105714.800,A,2500.7989537,N,12132.4853483,E,0.00,0.95,260623,,,R,V*17
$GPHDT,225.145,T*30
$GNGSA,A,3,24,196,18,199,15,23,195,05,194,13,,,0.82,0.43,0.70,1*08
$GNGSA,A,3,80,85,70,73,84,86,79,69,71,,,,0.82,0.43,0.70,2*0B
$GNGSA,A,3,13,08,07,15,26,02,03,,,,,,0.82,0.43,0.70,3*05
$GNGSA,A,3,38,39,08,16,06,13,46,09,20,19,37,29,0.82,0.43,0.70,4*0A
$GNGSA,A,3,35,36,,,,,,,,,,,0.82,0.43,0.70,4*0D
$GPGSV,5,1,17,24,82,114,44,196,74,057,41,18,61,277,46,199,60,167,33,1*6D
$GPGSV,5,2,17,45,47,231,36,15,44,032,43,23,39,330,36,195,39,179,29,1*5D
$GPGSV,5,3,17,05,27,107,36,194,26,141,36,13,16,048,33,12,12,151,,1*52
$GPGSV,5,4,17,10,09,312,19,29,07,206,,20,06,122,,32,03,258,,1*63
$GPGSV,5,5,17,25,01,184,,1*59
$GPGSV,2,1,07,24,82,114,47,196,74,057,45,18,61,277,45,199,60,167,44,8*66
$GPGSV,2,2,07,23,39,330,38,195,39,179,39,194,26,141,30,8*57
$GLGSV,3,1,09,80,45,101,44,85,44,266,31,70,39,351,17,73,23,165,29,1*77
$GLGSV,3,2,09,84,22,195,17,86,22,317,24,79,20,043,22,69,18,059,25,1*7C
$GLGSV,3,3,09,71,16,299,24,1*44
$GAGSV,3,1,09,13,64,253,43,08,51,012,32,07,41,288,23,15,34,174,27,7*70
$GAGSV,3,2,09,26,26,316,26,02,22,097,21,30,17,151,,03,16,056,18,7*7A
$GAGSV,3,3,09,25,05,052,,7*4F
$GAGSV,2,1,07,13,64,253,43,08,51,012,37,07,41,288,30,15,34,174,35,1*7D
$GAGSV,2,2,07,26,26,316,32,02,22,097,20,03,16,056,22,1*4E
$GBGSV,4,1,14,38,80,060,43,39,73,260,43,08,72,007,35,16,66,239,43,1*7D
$GBGSV,4,2,14,06,64,236,42,13,63,341,35,46,52,132,44,09,47,227,35,1*79
$GBGSV,4,3,14,20,46,046,45,19,43,330,40,37,29,057,27,29,28,221,45,1*75
$GBGSV,4,4,14,35,24,282,22,36,23,185,27,1*76
$GBGSV,3,1,09,38,80,060,46,39,73,260,45,46,52,132,46,20,46,046,46,4*73
$GBGSV,3,2,09,19,43,330,35,37,29,057,30,29,28,221,41,35,24,282,24,4*77
$GBGSV,3,3,09,36,23,185,32,4*43
$GNGGA,105715.000,2500.7989507,N,12132.4853478,E,4,63,0.43,15.904,M,15.25,M,17,3335*70
$GNRMC,105715.000,A,2500.7989507,N,12132.4853478,E,0.00,0.95,260623,,,R,V*19
$GPHDT,225.320,T*31
$GNGGA,105715.200,2500.7989678,N,12132.4853365,E,4,63,0.43,15.879,M,15.25,M,17,3335*79
$GNRMC,105715.200,A,2500.7989678,N,12132.4853365,E,0.00,0.95,260623,,,R,V*1B
$GPHDT,224.444,T*35
$GNGGA,105715.400,2500.7989671,N,12132.4853341,E,4,63,0.43,15.881,M,15.25,M,17,3335*77
$GNRMC,105715.400,A,2500.7989671,N,12132.4853341,E,0.00,0.95,260623,,,R,V*12
$GPHDT,223.754,T*30
$GNGGA,105715.600,2500.7989592,N,12132.4853380,E,4,63,0.43,15.883,M,15.25,M,17,3335*74
$GNRMC,105715.600,A,2500.7989592,N,12132.4853380,E,0.00,0.95,260623,,,R,V*13
$GPHDT,224.134,T*37
$GNGGA,105715.800,2500.7989590,N,12132.4853406,E,4,63,0.43,15.897,M,15.25,M,17,3335*74
$GNRMC,105715.800,A,2500.7989590,N,12132.4853406,E,0.00,0.95,260623,,,R,V*16
$GPHDT,224.412,T*36
$GNGSA,A,3,24,196,18,199,15,23,195,05,194,13,,,0.82,0.43,0.70,1*08
$GNGSA,A,3,80,85,70,73,84,86,79,69,71,,,,0.82,0.43,0.70,2*0B
$GNGSA,A,3,13,08,07,15,26,02,03,,,,,,0.82,0.43,0.70,3*05
$GNGSA,A,3,38,39,08,16,06,13,46,09,20,19,37,29,0.82,0.43,0.70,4*0A
$GNGSA,A,3,35,36,,,,,,,,,,,0.82,0.43,0.70,4*0D
$GPGSV,5,1,17,24,82,114,45,196,74,057,40,18,61,277,41,199,60,167,33,1*6A
$GPGSV,5,2,17,45,47,231,38,15,44,032,43,23,39,330,41,195,39,179,29,1*53
$GPGSV,5,3,17,05,27,107,34,194,26,141,36,13,16,048,33,12,12,151,,1*50
$GPGSV,5,4,17,10,09,312,16,29,07,206,17,20,06,122,,32,03,258,,1*6A
$GPGSV,5,5,17,25,01,184,,1*59
$GPGSV,2,1,07,24,82,114,48,196,74,057,45,18,61,277,41,199,60,167,44,8*6D
$GPGSV,2,2,07,23,39,330,39,195,39,179,38,194,26,141,29,8*5F
$GLGSV,3,1,09,80,45,101,44,85,44,266,31,70,39,351,24,73,23,165,29,1*77
$GLGSV,3,2,09,84,22,195,17,86,22,317,25,79,20,043,19,69,18,059,23,1*73
$GLGSV,3,3,09,71,16,299,24,1*44
$GAGSV,3,1,09,13,64,253,41,08,51,012,34,07,41,288,24,15,34,174,28,7*7C
$GAGSV,3,2,09,26,26,316,25,02,22,097,21,30,17,151,,03,16,056,18,7*79
$GAGSV,3,3,09,25,05,052,,7*4F
$GAGSV,2,1,07,13,64,253,41,08,51,012,38,07,41,288,25,15,34,174,35,1*74
$GAGSV,2,2,07,26,26,316,32,02,22,097,20,03,16,056,22,1*4E
$GBGSV,4,1,14,38,80,060,43,39,73,260,42,08,72,007,36,16,66,239,43,1*7F
$GBGSV,4,2,14,06,64,236,42,13,63,341,37,46,52,132,44,09,47,227,36,1*78
$GBGSV,4,3,14,20,46,046,45,19,43,330,41,37,29,057,27,29,28,221,45,1*74
$GBGSV,4,4,14,35,24,282,21,36,23,185,27,1*75
$GBGSV,3,1,09,38,80,060,46,39,73,260,44,46,52,132,46,20,46,046,46,4*72
$GBGSV,3,2,09,19,43,330,39,37,29,057,29,29,28,221,41,35,24,282,24,4*73
$GBGSV,3,3,09,36,23,185,32,4*43
$GNGGA,105716.000,2500.7989570,N,12132.4853426,E,4,63,0.43,15.886,M,15.25,M,18,3335*7C
$GNRMC,105716.000,A,2500.7989570,N,12132.4853426,E,0.00,0.95,260623,,,R,V*11
$GPHDT,224.543,T*33
$GNGGA,105716.200,2500.7989570,N,12132.4853393,E,4,63,0.43,15.889,M,15.25,M,18,3335*78
$GNRMC,105716.200,A,2500.7989570,N,12132.4853393,E,0.00,0.95,260623,,,R,V*1A
$GPHDT,224.310,T*33
$GNGGA,105716.400,2500.7989548,N,12132.4853426,E,4,63,0.43,15.893,M,15.25,M,18,3335*77
$GNRMC,105716.400,A,2500.7989548,N,12132.4853426,E,0.00,0.95,260623,,,R,V*1E
$GPHDT,224.329,T*39
$GNGGA,105716.600,2500.7989554,N,12132.4853432,E,4,63,0.43,15.899,M,15.25,M,18,3335*77
$GNRMC,105716.600,A,2500.7989554,N,12132.4853432,E,0.00,0.95,260623,,,R,V*14
