$FW : RTK35X,V1.1X0314AS,Lib20210517,1*54
$Tool : LOCOSYS , GNSS Firebird , v1.0.0.19*39
$---------------------------------------------------*2D
$GPHDT,,T*1B
$GNGGA,105756.800,2500.7989539,N,12132.4853651,E,4,60,0.44,15.924,M,15.25,M,0,3335*4B
$GNRMC,105756.800,A,2500.7989539,N,12132.4853651,E,0.04,0.95,260623,,,R,V*16
$GPHDT,,T*1B
$GNGSA,A,3,24,196,18,199,15,23,195,05,194,13,,,0.71,0.43,0.57,1*01
$GNGSA,A,3,80,85,70,73,84,86,79,69,71,,,,0.71,0.43,0.57,2*02
$GNGSA,A,3,13,08,07,15,26,02,03,,,,,,0.71,0.43,0.57,3*0C
$GNGSA,A,3,38,39,08,16,06,13,46,09,20,19,29,36,0.71,0.43,0.57,4*02
$GNGSA,A,3,37,35,,,,,,,,,,,0.71,0.43,0.57,4*05
$GPGSV,5,1,17,24,82,112,44,196,74,058,40,18,61,276,42,199,60,167,36,1*65
$GPGSV,5,2,17,45,47,231,38,15,44,033,37,23,39,330,45,195,39,179,33,1*5E
$GPGSV,5,3,17,05,27,107,36,194,26,141,35,13,16,048,22,12,12,151,,1*51
$GPGSV,5,4,17,10,09,312,27,29,07,206,,20,06,122,,32,03,258,,1*6E
$GPGSV,5,5,17,25,01,184,,1*59
$GPGSV,2,1,08,24,82,112,46,196,74,058,45,18,61,276,48,199,60,167,41,8*68
$GPGSV,2,2,08,23,39,330,44,195,39,179,40,194,26,141,35,10,09,312,21,8*63
$GLGSV,3,1,09,80,45,101,45,85,43,265,20,70,39,351,25,73,23,165,36,1*7D
$GLGSV,3,2,09,84,22,195,18,86,22,317,30,79,20,043,23,69,18,059,25,1*77
$GLGSV,3,3,09,71,16,300,23,1*42
$GAGSV,3,1,09,13,64,252,42,08,51,012,30,07,41,289,17,15,34,174,28,7*7B
$GAGSV,3,2,09,26,26,316,21,02,22,097,18,30,18,151,17,03,15,056,19,7*7C
$GAGSV,3,3,09,25,05,052,,7*4F
$GAGSV,2,1,07,13,64,252,44,08,51,012,33,07,41,289,36,15,34,174,32,1*7F
$GAGSV,2,2,07,26,26,316,32,02,22,097,29,03,15,056,25,1*43
$GBGSV,4,1,14,38,81,061,44,39,73,261,44,08,72,007,35,16,66,240,42,1*73
$GBGSV,4,2,14,06,64,237,41,13,63,341,38,46,52,132,45,09,48,227,37,1*7A
$GBGSV,4,3,14,20,45,046,34,19,44,330,44,37,29,057,17,29,27,221,45,1*7F
$GBGSV,4,4,14,35,24,281,,36,23,185,36,1*75
$GBGSV,3,1,09,38,81,061,44,39,73,261,46,46,52,132,46,20,45,046,39,4*78
$GBGSV,3,2,09,19,44,330,43,37,29,057,18,29,27,221,40,35,24,281,23,4*71
$GBGSV,3,3,09,36,23,185,29,4*49
$GNGGA,105757.000,2500.7989533,N,12132.4853625,E,4,61,0.43,15.922,M,15.25,M,1,3335*4A
$GNRMC,105757.000,A,2500.7989533,N,12132.4853625,E,0.03,0.95,260623,,,R,V*11
$GPHDT,,T*1B
$GNGGA,105757.200,2500.7989527,N,12132.4853617,E,4,61,0.43,15.926,M,15.25,M,1,3335*48
$GNRMC,105757.200,A,2500.7989527,N,12132.4853617,E,0.02,0.95,260623,,,R,V*16
$GPHDT,,T*1B
$GNGGA,105757.400,2500.7989547,N,12132.4853662,E,4,61,0.43,15.931,M,15.25,M,1,3335*4C
$GNRMC,105757.400,A,2500.7989547,N,12132.4853662,E,0.03,0.95,260623,,,R,V*15
$GPHDT,,T*1B
$GNGGA,105757.600,2500.7989563,N,12132.4853637,E,4,60,0.43,15.917,M,15.25,M,1,3335*4D
$GNRMC,105757.600,A,2500.7989563,N,12132.4853637,E,0.03,0.95,260623,,,R,V*11
$GPHDT,,T*1B
$GNGGA,105757.800,2500.7989571,N,12132.4853631,E,4,60,0.43,15.915,M,15.25,M,1,3335*44
$GNRMC,105757.800,A,2500.7989571,N,12132.4853631,E,0.03,0.95,260623,,,R,V*1A
$GPHDT,,T*1B
$GNGSA,A,3,24,196,18,199,15,23,195,05,194,13,,,0.71,0.43,0.57,1*01
$GNGSA,A,3,80,85,70,73,84,86,79,69,71,,,,0.71,0.43,0.57,2*02
$GNGSA,A,3,13,08,07,15,26,02,03,,,,,,0.71,0.43,0.57,3*0C
$GNGSA,A,3,38,39,08,16,06,13,46,09,20,19,29,36,0.71,0.43,0.57,4*02
$GNGSA,A,3,35,,,,,,,,,,,,0.71,0.43,0.57,4*01
$GPGSV,5,1,17,24,82,112,44,196,74,058,40,18,61,276,42,199,60,167,35,1*66
$GPGSV,5,2,17,45,47,231,38,15,44,033,37,23,39,330,45,195,39,179,32,1*5F
$GPGSV,5,3,17,05,27,107,36,194,26,141,35,13,16,048,26,12,12,151,,1*55
$GPGSV,5,4,17,10,09,312,27,29,07,206,,20,06,122,,32,03,258,,1*6E
$GPGSV,5,5,17,25,01,184,,1*59
$GPGSV,2,1,08,24,82,112,46,196,74,058,45,18,61,276,48,199,60,167,43,8*6A
$GPGSV,2,2,08,23,39,330,45,195,39,179,40,194,26,141,35,10,09,312,23,8*60
$GLGSV,3,1,09,80,45,101,45,85,43,265,21,70,39,351,26,73,23,165,35,1*7C
$GLGSV,3,2,09,84,22,195,17,86,22,317,31,79,20,043,25,69,18,059,26,1*7C
$GLGSV,3,3,09,71,16,300,21,1*40
$GAGSV,3,1,09,13,64,252,42,08,51,012,28,07,41,289,18,15,34,174,26,7*73
$GAGSV,3,2,09,26,26,316,22,02,22,097,16,30,18,151,17,03,15,056,16,7*7E
$GAGSV,3,3,09,25,05,052,,7*4F
$GAGSV,2,1,07,13,64,252,44,08,51,012,35,07,41,289,36,15,34,174,33,1*78
$GAGSV,2,2,07,26,26,316,31,02,22,097,28,03,15,056,21,1*45
$GBGSV,4,1,14,38,81,061,44,39,73,261,44,08,72,007,36,16,66,240,42,1*70
$GBGSV,4,2,14,06,64,237,41,13,63,341,38,46,52,132,45,09,48,227,37,1*7A
$GBGSV,4,3,14,20,45,046,38,19,44,330,44,37,29,057,20,29,27,221,45,1*77
$GBGSV,4,4,14,35,24,281,,36,23,185,34,1*77
$GBGSV,2,1,08,38,81,061,44,39,73,261,46,46,52,132,46,20,45,046,41,4*77
$GBGSV,2,2,08,19,44,330,43,29,27,221,41,35,24,281,23,36,23,185,31,4*7E
$GNGGA,105758.000,2500.7989571,N,12132.4853651,E,4,60,0.43,15.931,M,15.25,M,1,3335*43
$GNRMC,105758.000,A,2500.7989571,N,12132.4853651,E,0.03,0.95,260623,,,R,V*1B
$GPHDT,,T*1B
$GNGGA,105758.200,2500.7989555,N,12132.4853604,E,4,59,0.43,15.923,M,15.25,M,1,3335*4E
$GNRMC,105758.200,A,2500.7989555,N,12132.4853604,E,0.02,0.95,260623,,,R,V*1E
$GPHDT,,T*1B
$GNGGA,105758.400,2500.7989572,N,12132.4853640,E,4,59,0.43,15.925,M,15.25,M,1,3335*4B
$GNRMC,105758.400,A,2500.7989572,N,12132.4853640,E,0.02,0.95,260623,,,R,V*1D
$GPHDT,,T*1B
$GNGGA,105758.600,2500.7989531,N,12132.4853611,E,4,60,0.43,15.922,M,15.25,M,0,3335*46
$GNRMC,105758.600,A,2500.7989531,N,12132.4853611,E,0.01,0.95,260623,,,R,V*1F
$GPHDT,,T*1B
$GNGGA,105758.800,2500.7989525,N,12132.4853635,E,4,60,0.43,15.938,M,15.25,M,0,3335*40
$GNRMC,105758.800,A,2500.7989525,N,12132.4853635,E,0.02,0.95,260623,,,R,V*11
$GPHDT,,T*1B
$GNGSA,A,3,24,196,18,199,15,23,195,05,194,13,,,0.73,0.44,0.58,1*0B
$GNGSA,A,3,80,85,70,73,84,86,79,69,71,,,,0.73,0.44,0.58,2*08
$GNGSA,A,3,13,08,07,15,26,02,,,,,,,0.73,0.44,0.58,3*05
$GNGSA,A,3,38,39,08,16,06,13,46,09,20,19,29,36,0.73,0.44,0.58,4*08
$GNGSA,A,3,37,35,,,,,,,,,,,0.73,0.44,0.58,4*0F
$GPGSV,5,1,17,24,82,112,44,196,74,058,40,18,61,276,42,199,60,167,35,1*66
$GPGSV,5,2,17,45,47,231,38,15,44,033,42,23,39,330,45,195,39,179,32,1*5D
$GPGSV,5,3,17,05,27,107,36,194,26,141,35,13,16,048,26,12,12,151,,1*55
$GPGSV,5,4,17,10,09,312,27,29,07,206,,20,06,122,,32,03,258,,1*6E
$GPGSV,5,5,17,25,01,184,,1*59
$GPGSV,2,1,08,24,82,112,46,196,74,058,45,18,61,276,48,199,60,167,43,8*6A
$GPGSV,2,2,08,23,39,330,45,195,39,179,40,194,26,141,35,10,09,312,23,8*60
$GLGSV,3,1,09,80,45,101,45,85,43,265,19,70,39,351,25,73,23,165,35,1*74
$GLGSV,3,2,09,84,22,195,17,86,22,317,29,79,20,043,25,69,18,059,24,1*77
$GLGSV,3,3,09,71,16,300,21,1*40
$GAGSV,3,1,09,13,64,252,42,08,51,012,27,07,41,289,19,15,34,174,26,7*7D
$GAGSV,3,2,09,26,26,316,22,02,22,097,14,30,18,151,20,03,15,056,,7*7F
$GAGSV,3,3,09,25,05,052,,7*4F
$GAGSV,2,1,06,13,64,252,45,08,51,012,36,07,41,289,36,15,34,174,33,1*7B
$GAGSV,2,2,06,26,26,316,33,02,22,097,28,1*71
$GBGSV,4,1,14,38,81,061,43,39,73,261,44,08,72,007,36,16,66,240,42,1*77
$GBGSV,4,2,14,06,64,237,41,13,63,341,38,46,52,132,45,09,48,227,37,1*7A
$GBGSV,4,3,14,20,45,046,41,19,44,330,44,37,29,057,17,29,27,221,45,1*7D
$GBGSV,4,4,14,35,24,281,,36,23,185,34,1*77
$GBGSV,3,1,09,38,81,061,44,39,73,261,46,46,52,132,46,20,45,046,44,4*72
$GBGSV,3,2,09,19,44,330,43,37,29,057,24,29,27,221,41,35,24,281,23,4*7F
$GBGSV,3,3,09,36,23,185,30,4*41
$GNGGA,105759.000,2500.7989557,N,12132.4853651,E,4,59,0.44,15.934,M,15.25,M,1,3335*4E
$GNRMC,105759.000,A,2500.7989557,N,12132.4853651,E,0.01,0.95,260623,,,R,V*1C
$GPHDT,,T*1B
$GNGGA,105759.200,2500.7989544,N,12132.4853599,E,4,59,0.44,15.940,M,15.25,M,1,3335*4A
$GNRMC,105759.200,A,2500.7989544,N,12132.4853599,E,0.04,0.95,260623,,,R,V*1E
$GPHDT,,T*1B
$GNGGA,105759.400,2500.7989559,N,12132.4853608,E,4,59,0.44,15.938,M,15.25,M,1,3335*44
$GNRMC,105759.400,A,2500.7989559,N,12132.4853608,E,0.03,0.95,260623,,,R,V*18
$GPHDT,,T*1B
$GNGGA,105759.600,2500.7989565,N,12132.4853604,E,4,60,0.43,15.941,M,15.25,M,1,3335*46
$GNRMC,105759.600,A,2500.7989565,N,12132.4853604,E,0.04,0.95,260623,,,R,V*1E
$GPHDT,,T*1B
$GNGGA,105759.800,2500.7989529,N,12132.4853626,E,4,59,0.45,15.942,M,15.25,M,0,3335*4E
$GNRMC,105759.800,A,2500.7989529,N,12132.4853626,E,0.05,0.95,260623,,,R,V*19
$GPHDT,,T*1B
$GNGSA,A,3,24,196,18,199,15,23,195,05,194,13,,,0.74,0.45,0.59,1*0C
$GNGSA,A,3,80,85,70,73,84,86,79,69,,,,,0.74,0.45,0.59,2*09
$GNGSA,A,3,13,08,07,15,26,02,03,,,,,,0.74,0.45,0.59,3*01
$GNGSA,A,3,38,39,08,16,06,13,46,09,20,19,29,36,0.74,0.45,0.59,4*0F
$GNGSA,A,3,37,35,,,,,,,,,,,0.74,0.45,0.59,4*08
$GPGSV,5,1,17,24,82,112,44,196,74,058,40,18,61,276,42,199,60,167,35,1*66
$GPGSV,5,2,17,45,47,231,38,15,44,033,42,23,39,330,45,195,39,179,31,1*5E
$GPGSV,5,3,17,05,27,107,36,194,26,141,35,13,16,048,27,12,12,151,,1*54
$GPGSV,5,4,17,10,09,312,27,29,07,206,,20,06,122,,32,03,258,,1*6E
$GPGSV,5,5,17,25,01,184,,1*59
$GPGSV,2,1,08,24,82,112,46,196,74,058,45,18,61,276,48,199,60,167,43,8*6A
$GPGSV,2,2,08,23,39,330,45,195,39,179,39,194,26,141,35,10,09,312,21,8*6C
$GLGSV,3,1,09,80,45,101,45,85,43,265,19,70,39,351,26,73,23,165,35,1*77
$GLGSV,3,2,09,84,22,195,17,86,22,317,30,79,20,043,27,69,18,059,24,1*7D
$GLGSV,3,3,09,71,16,300,23,1*42
$GAGSV,3,1,09,13,64,252,42,08,51,012,29,07,41,289,20,15,34,174,26,7*79
$GAGSV,3,2,09,26,26,316,21,02,22,097,14,30,18,151,20,03,15,056,,7*7C
$GAGSV,3,3,09,25,05,052,,7*4F
$GAGSV,2,1,07,13,64,252,45,08,51,012,35,07,41,289,35,15,34,174,32,1*7B
$GAGSV,2,2,07,26,26,316,31,02,22,097,27,03,15,056,19,1*41
$GBGSV,4,1,15,38,81,061,43,39,73,261,44,08,72,007,36,16,66,240,42,1*76
$GBGSV,4,2,15,06,64,237,41,13,63,341,38,46,52,132,46,09,48,227,37,1*78
$GBGSV,4,3,15,56,48,305,,20,45,046,42,19,44,330,44,37,29,057,18,1*77
$GBGSV,4,4,15,29,27,221,45,35,24,281,,36,23,185,34,1*48
$GBGSV,3,1,09,38,81,061,44,39,73,261,46,46,52,132,45,20,45,046,44,4*71
$GBGSV,3,2,09,19,44,330,43,37,29,057,24,29,27,221,41,35,24,281,21,4*7D
$GBGSV,3,3,09,36,23,185,30,4*41
$GNGGA,105800.000,2500.7989543,N,12132.4853593,E,4,59,0.45,15.953,M,15.25,M,1,3335*45
$GNRMC,105800.000,A,2500.7989543,N,12132.4853593,E,0.02,0.95,260623,,,R,V*14
$GPHDT,,T*1B
$GNGGA,105800.200,2500.7989557,N,12132.4853643,E,4,60,0.43,15.935,M,15.25,M,1,3335*40
$GNRMC,105800.200,A,2500.7989557,N,12132.4853643,E,0.04,0.95,260623,,,R,V*1B
$GPHDT,,T*1B
$GNGGA,105800.400,2500.7989557,N,12132.4853621,E,4,60,0.43,15.945,M,15.25,M,1,3335*45
$GNRMC,105800.400,A,2500.7989557,N,12132.4853621,E,0.03,0.95,260623,,,R,V*1E
$GPHDT,,T*1B
$GNGGA,105800.600,2500.7989584,N,12132.4853625,E,4,60,0.43,15.925,M,15.25,M,1,3335*4B
$GNRMC,105800.600,A,2500.7989584,N,12132.4853625,E,0.02,0.95,260623,,,R,V*17
$GPHDT,,T*1B
$GNGGA,105800.800,2500.7989568,N,12132.4853649,E,4,60,0.43,15.939,M,15.25,M,0,3335*41
$GNRMC,105800.800,A,2500.7989568,N,12132.4853649,E,0.02,0.95,260623,,,R,V*11
$GPHDT,,T*1B
$GNGSA,A,3,24,196,18,199,15,23,195,05,194,13,,,0.71,0.43,0.57,1*01
$GNGSA,A,3,80,85,70,73,84,86,79,69,71,,,,0.71,0.43,0.57,2*02
$GNGSA,A,3,13,08,07,15,26,02,03,,,,,,0.71,0.43,0.57,3*0C
$GNGSA,A,3,38,39,08,16,06,13,46,09,20,19,29,36,0.71,0.43,0.57,4*02
$GNGSA,A,3,37,35,,,,,,,,,,,0.71,0.43,0.57,4*05
$GPGSV,5,1,17,24,82,112,44,196,74,058,40,18,61,276,42,199,60,167,35,1*66
$GPGSV,5,2,17,45,47,231,38,15,44,033,42,23,39,330,45,195,39,179,31,1*5E
$GPGSV,5,3,17,05,27,107,36,194,26,141,34,13,16,048,28,12,12,151,,1*5A
$GPGSV,5,4,17,10,09,312,27,29,07,206,,20,06,122,,32,03,258,,1*6E
$GPGSV,5,5,17,25,01,184,,1*59
$GPGSV,2,1,08,24,82,112,46,196,74,058,44,18,61,276,48,199,60,167,43,8*6B
$GPGSV,2,2,08,23,39,330,45,195,39,179,39,194,26,141,35,10,09,312,21,8*6C
$GLGSV,3,1,09,80,45,101,45,85,43,265,21,70,39,351,26,73,23,165,33,1*7A
$GLGSV,3,2,09,84,22,195,18,86,22,317,29,79,20,043,28,69,18,059,23,1*72
$GLGSV,3,3,09,71,16,300,26,1*47
$GAGSV,3,1,09,13,64,252,42,08,51,012,28,07,41,289,20,15,34,174,25,7*7B
$GAGSV,3,2,09,26,26,316,21,02,22,097,17,30,18,151,19,03,15,056,,7*75
$GAGSV,3,3,09,25,05,052,,7*4F
$GAGSV,2,1,07,13,64,252,45,08,51,012,35,07,41,289,35,15,34,174,32,1*7B
$GAGSV,2,2,07,26,26,316,31,02,22,097,27,03,15,056,20,1*4B
$GBGSV,4,1,14,38,81,061,43,39,73,261,44,08,72,007,36,16,66,240,42,1*77
$GBGSV,4,2,14,06,64,237,41,13,63,341,38,46,52,132,46,09,48,227,37,1*79
$GBGSV,4,3,14,20,45,046,42,19,44,330,44,37,29,057,,29,27,221,45,1*78
$GBGSV,4,4,14,35,24,281,,36,23,185,35,1*76
$GBGSV,3,1,09,38,81,061,44,39,73,261,46,46,52,132,45,20,45,046,44,4*71
$GBGSV,3,2,09,19,44,330,43,37,29,057,27,29,27,221,41,35,24,281,21,4*7E
$GBGSV,3,3,09,36,23,185,31,4*40
$GNGGA,105801.000,2500.7989577,N,12132.4853675,E,4,60,0.43,15.938,M,15.25,M,1,3335*49
$GNRMC,105801.000,A,2500.7989577,N,12132.4853675,E,0.02,0.95,260623,,,R,V*19
$GPHDT,,T*1B
$GNGGA,105801.200,2500.7989612,N,12132.4853654,E,4,60,0.43,15.932,M,15.25,M,1,3335*42
$GNRMC,105801.200,A,2500.7989612,N,12132.4853654,E,0.03,0.95,260623,,,R,V*19
$GPHDT,130.291,T*3D
$GNGGA,105801.400,2500.7989617,N,12132.4853636,E,4,60,0.43,15.930,M,15.25,M,1,3335*47
$GNRMC,105801.400,A,2500.7989617,N,12132.4853636,E,0.01,0.95,260623,,,R,V*1C
$GPHDT,130.329,T*3F
$GNGGA,105801.600,2500.7989604,N,12132.4853617,E,4,60,0.43,15.928,M,15.25,M,1,3335*4D
$GNRMC,105801.600,A,2500.7989604,N,12132.4853617,E,0.00,0.95,260623,,,R,V*1E
$GPHDT,130.430,T*30
$GNGGA,105801.800,2500.7989598,N,12132.4853590,E,4,59,0.44,15.934,M,15.25,M,0,3335*48
$GNRMC,105801.800,A,2500.7989598,N,12132.4853590,E,0.00,0.95,260623,,,R,V*1A
$GPHDT,130.206,T*33
$GNGSA,A,3,24,196,18,199,15,23,195,05,194,,,,0.83,0.44,0.71,1*0D
$GNGSA,A,3,80,85,70,73,84,86,79,69,71,,,,0.83,0.44,0.71,2*0C
$GNGSA,A,3,13,08,07,15,26,02,03,,,,,,0.83,0.44,0.71,3*02
$GNGSA,A,3,38,39,08,16,06,13,46,09,20,19,29,36,0.83,0.44,0.71,4*0C
$GNGSA,A,3,37,35,,,,,,,,,,,0.83,0.44,0.71,4*0B
$GPGSV,5,1,17,24,82,112,44,196,74,058,40,18,61,276,42,199,60,167,35,1*66
$GPGSV,5,2,17,45,47,231,38,15,44,033,40,23,39,330,45,195,39,179,30,1*5D
$GPGSV,5,3,17,05,27,107,36,194,26,141,34,13,16,048,24,12,12,151,,1*56
$GPGSV,5,4,17,10,09,312,26,29,07,206,,20,06,122,,32,03,258,,1*6F
$GPGSV,5,5,17,25,01,184,,1*59
$GPGSV,2,1,08,24,82,112,46,196,74,058,44,18,61,276,48,199,60,167,43,8*6B
$GPGSV,2,2,08,23,39,330,45,195,39,179,39,194,26,141,35,10,09,312,22,8*6F
$GLGSV,3,1,09,80,45,101,45,85,43,265,22,70,39,351,26,73,23,165,33,1*79
$GLGSV,3,2,09,84,22,195,18,86,22,317,28,79,20,043,27,69,18,059,23,1*7C
$GLGSV,3,3,09,71,16,300,23,1*42
$GAGSV,3,1,09,13,64,252,43,08,51,012,26,07,41,289,22,15,34,174,26,7*75
$GAGSV,3,2,09,26,26,316,25,02,22,097,17,30,18,151,19,03,15,056,,7*71
$GAGSV,3,3,09,25,05,052,,7*4F
$GAGSV,2,1,07,13,64,252,45,08,51,012,36,07,41,289,35,15,34,174,32,1*78
$GAGSV,2,2,07,26,26,316,31,02,22,097,27,03,15,056,20,1*4B
$GBGSV,4,1,14,38,81,061,43,39,73,261,44,08,72,007,34,16,66,240,42,1*75
$GBGSV,4,2,14,06,64,237,41,13,63,341,38,46,52,132,46,09,48,227,37,1*79
$GBGSV,4,3,14,20,45,046,42,19,44,330,44,37,29,057,,29,27,221,45,1*78
$GBGSV,4,4,14,35,24,281,,36,23,185,35,1*76
$GBGSV,3,1,09,38,81,061,44,39,73,261,46,46,52,132,45,20,45,046,44,4*71
$GBGSV,3,2,09,19,44,330,43,37,29,057,27,29,27,221,41,35,24,281,24,4*7B
$GBGSV,3,3,09,36,23,185,30,4*41
$GNGGA,105802.000,2500.7989599,N,12132.4853620,E,4,59,0.44,15.932,M,15.25,M,1,3335*4D
$GNRMC,105802.000,A,2500.7989599,N,12132.4853620,E,0.00,0.95,260623,,,R,V*18
$GPHDT,130.547,T*31
$GNGGA,105802.200,2500.7989589,N,12132.4853597,E,4,59,0.44,15.932,M,15.25,M,1,3335*41
$GNRMC,105802.200,A,2500.7989589,N,12132.4853597,E,0.00,0.95,260623,,,R,V*14
$GPHDT,130.410,T*32
$GNGGA,105802.400,2500.7989589,N,12132.4853629,E,4,60,0.43,15.926,M,15.25,M,1,3335*49
$GNRMC,105802.400,A,2500.7989589,N,12132.4853629,E,0.00,0.95,260623,,,R,V*14
$GPHDT,130.580,T*3A
$GNGGA,105802.600,2500.7989594,N,12132.4853620,E,4,60,0.43,15.930,M,15.25,M,1,3335*49
$GNRMC,105802.600,A,2500.7989594,N,12132.4853620,E,0.00,0.95,260623,,,R,V*13
$GPHDT,130.729,T*3B
$GNGGA,105802.800,2500.7989581,N,12132.4853629,E,4,60,0.43,15.926,M,15.25,M,0,3335*4C
$GNRMC,105802.800,A,2500.7989581,N,12132.4853629,E,0.01,0.95,260623,,,R,V*11
$GPHDT,130.327,T*31
$GNGSA,A,3,24,196,18,199,15,23,195,05,194,13,,,0.81,0.43,0.69,1*03
$GNGSA,A,3,80,85,70,73,84,86,79,69,71,,,,0.81,0.43,0.69,2*00
$GNGSA,A,3,13,08,07,15,26,02,03,,,,,,0.81,0.43,0.69,3*0E
$GNGSA,A,3,38,39,08,16,06,13,46,09,20,19,29,36,0.81,0.43,0.69,4*00
$GNGSA,A,3,37,35,,,,,,,,,,,0.81,0.43,0.69,4*07
$GPGSV,5,1,17,24,82,110,44,196,74,058,40,18,61,276,42,199,60,167,35,1*64
$GPGSV,5,2,17,45,47,231,38,15,44,033,38,23,40,330,45,195,39,179,30,1*5C
$GPGSV,5,3,17,05,27,107,36,194,26,141,34,13,16,048,27,12,12,151,,1*55
$GPGSV,5,4,17,10,09,312,26,29,07,206,,20,06,122,,32,03,258,,1*6F
$GPGSV,5,5,17,25,01,184,,1*59
$GPGSV,2,1,08,24,82,110,46,196,74,058,44,18,61,276,48,199,60,167,43,8*69
$GPGSV,2,2,08,23,40,330,45,195,39,179,39,194,26,141,35,10,09,312,23,8*60
$GLGSV,3,1,09,80,45,101,45,85,43,265,21,70,39,351,26,73,23,165,33,1*7A
$GLGSV,3,2,09,84,22,195,18,86,22,317,29,79,20,043,26,69,18,059,24,1*7B
$GLGSV,3,3,09,71,16,300,22,1*43
$GAGSV,3,1,09,13,64,252,43,08,51,012,26,07,41,289,21,15,34,174,27,7*77
$GAGSV,3,2,09,26,26,316,24,02,22,097,21,30,18,151,19,03,15,056,,7*75
$GAGSV,3,3,09,25,05,052,,7*4F
$GAGSV,2,1,07,13,64,252,45,08,51,012,36,07,41,289,35,15,34,174,32,1*78
$GAGSV,2,2,07,26,26,316,31,02,22,097,26,03,15,056,20,1*4A
$GBGSV,4,1,14,38,81,061,43,39,73,261,44,08,72,007,33,16,66,240,42,1*72
$GBGSV,4,2,14,06,64,237,41,13,63,341,38,46,52,132,46,09,48,227,37,1*79
$GBGSV,4,3,14,20,45,046,42,19,44,330,44,37,29,057,,29,27,221,45,1*78
$GBGSV,4,4,14,35,24,281,,36,23,185,35,1*76
$GBGSV,3,1,09,38,81,061,44,39,73,261,46,46,52,132,45,20,45,046,44,4*71
$GBGSV,3,2,09,19,44,330,43,37,29,057,30,29,27,221,41,35,24,281,21,4*78
$GBGSV,3,3,09,36,23,185,30,4*41
$GNGGA,105803.000,2500.7989595,N,12132.4853640,E,4,60,0.43,15.916,M,15.25,M,1,3335*4D
$GNRMC,105803.000,A,2500.7989595,N,12132.4853640,E,0.00,0.95,260623,,,R,V*13
$GPHDT,130.767,T*31
$GNGGA,105803.200,2500.7989595,N,12132.4853644,E,4,60,0.43,15.921,M,15.25,M,1,3335*4F
$GNRMC,105803.200,A,2500.7989595,N,12132.4853644,E,0.00,0.95,260623,,,R,V*15
$GPHDT,130.667,T*30
$GNGGA,105803.400,2500.7989587,N,12132.4853629,E,4,61,0.43,15.918,M,15.25,M,1,3335*4A
$GNRMC,105803.400,A,2500.7989587,N,12132.4853629,E,0.01,0.95,260623,,,R,V*1A
$GPHDT,130.468,T*3D
$GNGGA,105803.600,2500.7989595,N,12132.4853645,E,4,61,0.43,15.920,M,15.25,M,0,3335*4B
$GNRMC,105803.600,A,2500.7989595,N,12132.4853645,E,0.00,0.95,260623,,,R,V*10
$GPHDT,130.700,T*30
$GNGGA,105803.800,2500.7989585,N,12132.4853644,E,4,61,0.43,15.919,M,15.25,M,0,3335*4F
$GNRMC,105803.800,A,2500.7989585,N,12132.4853644,E,0.00,0.95,260623,,,R,V*1E
$GPHDT,130.404,T*37
$GNGSA,A,3,24,196,18,199,15,23,195,05,194,13,,,0.81,0.43,0.69,1*03
$GNGSA,A,3,80,85,70,73,84,86,79,69,71,,,,0.81,0.43,0.69,2*00
$GNGSA,A,3,13,08,07,15,26,02,03,,,,,,0.81,0.43,0.69,3*0E
$GNGSA,A,3,38,39,08,16,06,13,46,09,20,19,29,36,0.81,0.43,0.69,4*00
$GNGSA,A,3,37,35,,,,,,,,,,,0.81,0.43,0.69,4*07
$GPGSV,5,1,17,24,82,110,44,196,74,058,40,18,61,276,42,199,60,167,35,1*64
$GPGSV,5,2,17,45,47,231,36,15,44,033,38,23,40,330,45,195,39,179,32,1*50
$GPGSV,5,3,17,05,27,107,36,194,26,141,35,13,16,048,24,12,12,151,,1*57
$GPGSV,5,4,17,10,09,312,27,29,07,206,,20,06,122,,32,03,258,,1*6E
$GPGSV,5,5,17,25,01,184,,1*59
$GPGSV,2,1,08,24,82,110,46,196,74,058,44,18,61,276,48,199,60,167,43,8*69
$GPGSV,2,2,08,23,40,330,45,195,39,179,39,194,26,141,35,10,09,312,22,8*61
$GLGSV,3,1,09,80,45,101,45,85,43,265,20,70,39,351,26,73,23,165,32,1*7A
$GLGSV,3,2,09,84,22,195,18,86,22,317,29,79,20,043,26,69,18,059,24,1*7B
$GLGSV,3,3,09,71,16,300,20,1*41
$GAGSV,3,1,09,13,64,252,43,08,51,012,25,07,41,289,20,15,34,174,28,7*7A
$GAGSV,3,2,09,26,26,316,24,02,22,097,23,30,18,151,19,03,15,056,20,7*75
$GAGSV,3,3,09,25,05,052,,7*4F
$GAGSV,2,1,07,13,64,252,45,08,51,012,35,07,41,289,36,15,34,174,33,1*79
$GAGSV,2,2,07,26,26,316,30,02,22,097,26,03,15,056,19,1*41
$GBGSV,4,1,14,38,81,061,43,39,73,261,44,08,72,007,34,16,66,240,42,1*75
$GBGSV,4,2,14,06,64,237,41,13,63,341,38,46,52,132,46,09,48,227,37,1*79
$GBGSV,4,3,14,20,45,046,42,19,44,330,44,37,29,057,,29,27,221,45,1*78
$GBGSV,4,4,14,35,24,281,,36,23,185,35,1*76
$GBGSV,3,1,09,38,81,061,44,39,73,261,46,46,52,132,45,20,45,046,44,4*71
$GBGSV,3,2,09,19,44,330,43,37,29,057,28,29,27,221,41,35,24,281,19,4*7A
$GBGSV,3,3,09,36,23,185,31,4*40
$GNGGA,105804.000,2500.7989591,N,12132.4853636,E,4,61,0.43,15.920,M,15.25,M,1,3335*4B
$GNRMC,105804.000,A,2500.7989591,N,12132.4853636,E,0.00,0.95,260623,,,R,V*11
$GPHDT,130.427,T*36
$GNGGA,105804.200,2500.7989577,N,12132.4853626,E,4,61,0.43,15.922,M,15.25,M,1,3335*42
$GNRMC,105804.200,A,2500.7989577,N,12132.4853626,E,0.00,0.95,260623,,,R,V*1A
$GPHDT,130.364,T*36
$GNGGA,105804.400,2500.7989606,N,12132.4853640,E,4,61,0.43,15.925,M,15.25,M,1,3335*46
$GNRMC,105804.400,A,2500.7989606,N,12132.4853640,E,0.00,0.95,260623,,,R,V*19
$GPHDT,130.482,T*39
$GNGGA,105804.600,2500.7989596,N,12132.4853589,E,4,61,0.43,15.932,M,15.25,M,0,3335*4F
$GNRMC,105804.600,A,2500.7989596,N,12132.4853589,E,0.00,0.95,260623,,,R,V*17
$GPHDT,130.430,T*30
$GNGGA,105804.800,2500.7989597,N,12132.4853583,E,4,61,0.43,15.923,M,15.25,M,0,3335*4A
$GNRMC,105804.800,A,2500.7989597,N,12132.4853583,E,0.00,0.95,260623,,,R,V*12
$GPHDT,130.188,T*36
$GNGSA,A,3,24,196,18,199,15,23,195,05,194,13,,,0.81,0.43,0.69,1*03
$GNGSA,A,3,80,85,70,73,84,86,79,69,71,,,,0.81,0.43,0.69,2*00
$GNGSA,A,3,13,08,07,15,26,02,03,,,,,,0.81,0.43,0.69,3*0E
$GNGSA,A,3,38,39,08,16,06,13,46,09,20,19,29,36,0.81,0.43,0.69,4*00
$GNGSA,A,3,37,35,,,,,,,,,,,0.81,0.43,0.69,4*07
$GPGSV,4,1,16,24,82,110,44,196,74,058,40,18,61,276,42,199,60,167,35,1*64
$GPGSV,4,2,16,45,47,231,36,15,44,033,38,23,40,330,45,195,39,179,32,1*50
$GPGSV,4,3,16,05,27,107,36,194,26,141,35,13,16,048,23,12,12,151,,1*50
$GPGSV,4,4,16,10,09,312,27,29,07,206,,32,03,258,,25,01,184,,1*60
$GPGSV,2,1,08,24,82,110,46,196,74,058,44,18,61,276,47,199,60,167,43,8*66
$GPGSV,2,2,08,23,40,330,44,195,39,179,39,194,26,141,34,10,09,312,21,8*62
$GLGSV,3,1,09,80,45,101,45,85,43,265,20,70,39,351,25,73,23,165,31,1*7A
$GLGSV,3,2,09,84,22,195,19,86,22,317,30,79,20,043,26,69,18,059,25,1*73
$GLGSV,3,3,09,71,16,300,23,1*42
$GAGSV,3,1,09,13,64,252,43,08,51,012,26,07,41,289,20,15,34,174,28,7*79
$GAGSV,3,2,09,26,26,316,23,02,22,097,23,30,18,151,19,03,15,056,19,7*78
$GAGSV,3,3,09,25,05,052,,7*4F
$GAGSV,2,1,07,13,64,252,45,08,51,012,35,07,41,289,36,15,34,174,33,1*79
$GAGSV,2,2,07,26,26,316,31,02,22,097,27,03,15,056,21,1*4A
$GBGSV,4,1,15,38,81,061,43,39,73,261,44,08,72,007,33,16,66,240,42,1*73
$GBGSV,4,2,15,06,64,237,41,13,63,341,38,46,52,132,46,09,48,227,37,1*78
$GBGSV,4,3,15,20,45,046,43,19,44,330,42,37,29,057,,29,27,221,45,1*7E
$GBGSV,4,4,15,35,24,281,,36,23,185,35,30,03,174,,1*45
$GBGSV,3,1,09,38,81,061,44,39,73,261,46,46,52,132,45,20,45,046,44,4*71
$GBGSV,3,2,09,19,44,330,42,37,29,057,28,29,27,221,41,35,24,281,18,4*7A
$GBGSV,3,3,09,36,23,185,31,4*40
$GNGGA,105805.000,2500.7989596,N,12132.4853612,E,4,61,0.43,15.930,M,15.25,M,1,3335*4A
$GNRMC,105805.000,A,2500.7989596,N,12132.4853612,E,0.00,0.95,260623,,,R,V*11
$GPHDT,130.466,T*33
$GNGGA,105805.200,2500.7989607,N,12132.4853594,E,4,61,0.43,15.928,M,15.25,M,1,3335*47
$GNRMC,105805.200,A,2500.7989607,N,12132.4853594,E,0.00,0.95,260623,,,R,V*15
$GPHDT,130.570,T*35
$GNGGA,105805.400,2500.7989610,N,12132.4853618,E,4,61,0.43,15.924,M,15.25,M,1,3335*4C
$GNRMC,105805.400,A,2500.7989610,N,12132.4853618,E,0.00,0.95,260623,,,R,V*12
$GPHDT,130.571,T*34
$GNGGA,105805.600,2500.7989627,N,12132.4853591,E,4,60,0.44,15.928,M,15.25,M,1,3335*42
$GNRMC,105805.600,A,2500.7989627,N,12132.4853591,E,0.00,0.95,260623,,,R,V*16
$GPHDT,130.505,T*37
$GNGGA,105805.800,2500.7989621,N,12132.4853567,E,4,60,0.44,15.935,M,15.25,M,1,3335*4F
$GNRMC,105805.800,A,2500.7989621,N,12132.4853567,E,0.00,0.95,260623,,,R,V*17
$GPHDT,130.053,T*31
$GNGSA,A,3,24,196,18,199,15,23,195,05,194,,,,0.83,0.44,0.71,1*0D
$GNGSA,A,3,80,85,70,73,84,86,79,69,71,,,,0.83,0.44,0.71,2*0C
$GNGSA,A,3,13,08,07,15,26,02,03,,,,,,0.83,0.44,0.71,3*02
$GNGSA,A,3,38,39,08,16,06,13,46,09,20,19,29,36,0.83,0.44,0.71,4*0C
$GNGSA,A,3,37,35,,,,,,,,,,,0.83,0.44,0.71,4*0B
$GPGSV,4,1,16,24,82,110,45,196,74,058,40,18,61,276,42,199,60,167,35,1*65
$GPGSV,4,2,16,45,47,231,37,15,44,033,37,23,40,330,45,195,39,179,32,1*5E
$GPGSV,4,3,16,05,27,107,36,194,26,141,35,13,16,048,23,12,12,151,,1*50
$GPGSV,4,4,16,10,09,312,28,29,07,206,,20,06,122,,32,03,258,,1*61
$GPGSV,2,1,08,24,82,110,46,196,74,058,44,18,61,276,47,199,60,167,44,8*61
$GPGSV,2,2,08,23,40,330,43,195,39,179,39,194,26,141,34,10,09,312,21,8*65
$GLGSV,3,1,09,80,45,101,45,85,43,265,18,70,39,351,25,73,23,165,31,1*71
$GLGSV,3,2,09,84,22,195,19,86,22,317,30,79,20,043,27,69,18,059,26,1*71
$GLGSV,3,3,09,71,16,300,24,1*45
$GAGSV,3,1,09,13,64,252,43,08,51,012,25,07,41,289,20,15,34,174,29,7*7B
$GAGSV,3,2,09,26,26,316,24,02,22,097,22,30,18,151,19,03,15,056,20,7*74
$GAGSV,3,3,09,25,05,052,,7*4F
$GAGSV,2,1,07,13,64,252,45,08,51,012,35,07,41,289,37,15,34,174,33,1*78
$GAGSV,2,2,07,26,26,316,31,02,22,097,27,03,15,056,19,1*41
$GBGSV,4,1,14,38,81,061,43,39,73,261,44,08,72,007,33,16,66,240,42,1*72
$GBGSV,4,2,14,06,64,237,41,13,63,341,38,46,52,132,46,09,48,227,37,1*79
$GBGSV,4,3,14,20,45,046,43,19,44,330,41,37,29,057,,29,27,221,45,1*7C
$GBGSV,4,4,14,35,24,281,,36,23,185,35,1*76
$GBGSV,3,1,09,38,81,061,44,39,73,261,46,46,52,132,45,20,45,046,45,4*70
$GBGSV,3,2,09,19,44,330,42,37,29,057,29,29,27,221,41,35,24,281,18,4*7B
$GBGSV,3,3,09,36,23,185,31,4*40
$GNGGA,105806.000,2500.7989605,N,12132.4853593,E,4,60,0.44,15.923,M,15.25,M,2,3335*4D
$GNRMC,105806.000,A,2500.7989605,N,12132.4853593,E,0.00,0.95,260623,,,R,V*11
$GPHDT,130.134,T*31
$GNGGA,105806.200,2500.7989633,N,12132.4853603,E,4,61,0.43,15.933,M,15.25,M,2,3335*47
$GNRMC,105806.200,A,2500.7989633,N,12132.4853603,E,0.00,0.95,260623,,,R,V*1C
$GPHDT,130.354,T*35
$GNGGA,105806.400,2500.7989626,N,12132.4853615,E,4,60,0.44,15.927,M,15.25,M,2,3335*41
$GNRMC,105806.400,A,2500.7989626,N,12132.4853615,E,0.00,0.95,260623,,,R,V*19
$GPHDT,130.320,T*36
$GNGGA,105806.600,2500.7989615,N,12132.4853647,E,4,61,0.44,15.901,M,15.25,M,1,3335*42
$GNRMC,105806.600,A,2500.7989615,N,12132.4853647,E,0.00,0.95,260623,,,R,V*1C
$GPHDT,130.268,T*3B
$GNGGA,105806.800,2500.7989607,N,12132.4853657,E,4,61,0.44,15.902,M,15.25,M,1,3335*4D
$GNRMC,105806.800,A,2500.7989607,N,12132.4853657,E,0.00,0.95,260623,,,R,V*10
$GPHDT,130.294,T*38
$GNGSA,A,3,24,196,18,199,15,23,195,05,194,,,,0.83,0.44,0.71,1*0D
$GNGSA,A,3,80,85,70,73,84,86,79,69,71,,,,0.83,0.44,0.71,2*0C
$GNGSA,A,3,13,08,07,15,26,02,03,,,,,,0.83,0.44,0.71,3*02
$GNGSA,A,3,38,39,08,16,06,13,46,09,20,19,37,29,0.83,0.44,0.71,4*0D
$GNGSA,A,3,36,35,,,,,,,,,,,0.83,0.44,0.71,4*0A
$GPGSV,4,1,16,24,82,110,45,196,74,058,40,18,61,276,42,199,60,167,35,1*65
$GPGSV,4,2,16,45,47,231,37,15,44,033,42,23,40,330,46,195,39,179,31,1*5C
$GPGSV,4,3,16,05,27,107,35,194,26,141,35,13,16,048,17,12,12,151,,1*54
$GPGSV,4,4,16,10,09,312,29,29,07,206,,20,06,122,,32,03,258,,1*60
$GPGSV,2,1,08,24,82,110,46,196,74,058,44,18,61,276,47,199,60,167,44,8*61
$GPGSV,2,2,08,23,40,330,44,195,39,179,38,194,26,141,33,10,09,312,20,8*65
$GLGSV,3,1,09,80,45,101,45,85,43,265,16,70,39,351,24,73,23,165,32,1*7D
$GLGSV,3,2,09,84,22,195,19,86,22,317,27,79,20,043,25,69,18,059,24,1*77
$GLGSV,3,3,09,71,16,300,21,1*40
$GAGSV,3,1,09,13,64,252,43,08,51,012,20,07,41,289,20,15,34,174,30,7*76
$GAGSV,3,2,09,26,26,316,25,02,22,097,23,30,18,151,19,03,15,056,19,7*7E
$GAGSV,3,3,09,25,05,052,,7*4F
$GAGSV,2,1,07,13,64,252,45,08,51,012,31,07,41,289,37,15,34,174,33,1*7C
$GAGSV,2,2,07,26,26,316,30,02,22,097,27,03,15,056,18,1*41
$GBGSV,4,1,14,38,81,061,43,39,73,261,44,08,72,007,33,16,66,240,42,1*72
$GBGSV,4,2,14,06,64,237,41,13,63,341,38,46,52,132,46,09,48,227,37,1*79
$GBGSV,4,3,14,20,45,046,41,19,44,330,43,37,29,057,29,29,27,221,45,1*77
$GBGSV,4,4,14,35,24,281,,36,23,185,35,1*76
$GBGSV,3,1,09,38,81,061,43,39,73,261,46,46,52,132,45,20,45,046,45,4*77
$GBGSV,3,2,09,19,44,330,43,37,29,057,30,29,27,221,41,35,24,281,16,4*7C
$GBGSV,3,3,09,36,23,185,31,4*40
$GNGGA,105807.000,2500.7989584,N,12132.4853646,E,4,61,0.44,15.899,M,15.25,M,2,3335*4C
$GNRMC,105807.000,A,2500.7989584,N,12132.4853646,E,0.00,0.95,260623,,,R,V*11
$GPHDT,130.158,T*3B
$GNGGA,105807.200,2500.7989594,N,12132.4853677,E,4,61,0.44,15.899,M,15.25,M,2,3335*4D
$GNRMC,105807.200,A,2500.7989594,N,12132.4853677,E,0.00,0.95,260623,,,R,V*10
$GPHDT,130.034,T*30
$GNGGA,105807.400,2500.7989622,N,12132.4853648,E,4,61,0.44,15.893,M,15.25,M,2,3335*43
$GNRMC,105807.400,A,2500.7989622,N,12132.4853648,E,0.00,0.95,260623,,,R,V*14
$GPHDT,130.229,T*3E
$GNGGA,105807.600,2500.7989626,N,12132.4853643,E,4,61,0.44,15.899,M,15.25,M,2,3335*44
$GNRMC,105807.600,A,2500.7989626,N,12132.4853643,E,0.00,0.95,260623,,,R,V*19
