$FW : RTK35X,V1.1X0314AS,Lib20210517,1*54
$Tool : LOCOSYS , GNSS Firebird , v1.0.0.19*39
$---------------------------------------------------*2D
$GNGGA,105632.800,2500.7989564,N,12132.4853518,E,4,61,0.43,15.911,M,15.25,M,0,3335*4E
$GNRMC,105632.800,A,2500.7989564,N,12132.4853518,E,0.04,0.95,260623,,,R,V*13
$GPHDT,268.277,T*3B
$GNGSA,A,3,24,196,18,199,15,23,195,05,194,13,,,0.71,0.43,0.57,1*01
$GNGSA,A,3,80,85,70,73,84,86,79,69,71,,,,0.71,0.43,0.57,2*02
$GNGSA,A,3,13,08,07,15,26,02,03,,,,,,0.71,0.43,0.57,3*0C
$GNGSA,A,3,38,39,08,16,06,13,46,09,20,19,37,29,0.71,0.43,0.57,4*03
$GNGSA,A,3,35,36,,,,,,,,,,,0.71,0.43,0.57,4*04
$GPGSV,5,1,17,24,82,116,43,196,74,057,40,18,61,277,46,199,60,167,27,1*6C
$GPGSV,5,2,17,45,47,231,38,15,44,032,44,23,39,330,41,195,39,179,28,1*55
$GPGSV,5,3,17,05,27,106,34,194,26,141,35,13,17,048,24,12,12,151,17,1*53
$GPGSV,5,4,17,10,08,312,,29,07,206,,20,06,122,,32,03,258,,1*6A
$GPGSV,5,5,17,25,01,184,,1*59
$GPGSV,2,1,07,24,82,116,49,196,74,057,45,18,61,277,46,199,60,167,38,8*62
$GPGSV,2,2,07,23,39,330,43,195,39,179,38,194,26,141,25,8*5E
$GLGSV,3,1,09,80,44,102,43,85,44,266,32,70,39,350,29,73,23,165,31,1*74
$GLGSV,3,2,09,84,23,196,16,86,21,318,33,79,20,044,21,69,18,058,20,1*75
$GLGSV,3,3,09,71,16,299,27,1*47
$GAGSV,3,1,09,13,64,253,41,08,52,012,40,07,41,288,25,15,34,174,19,7*7F
$GAGSV,3,2,09,26,25,316,34,02,22,097,20,30,17,151,,03,16,055,12,7*72
$GAGSV,3,3,09,25,05,052,,7*4F
$GAGSV,2,1,07,13,64,253,44,08,52,012,37,07,41,288,31,15,34,174,36,1*7B
$GAGSV,2,2,07,26,25,316,33,02,22,097,21,03,16,055,20,1*4C
$GBGSV,4,1,14,38,80,059,43,39,73,260,45,08,72,007,33,16,66,239,43,1*77
$GBGSV,4,2,14,06,64,236,42,13,63,341,39,46,52,132,46,09,47,227,38,1*7A
$GBGSV,4,3,14,20,46,045,43,19,43,330,49,37,29,058,34,29,28,221,42,1*73
$GBGSV,4,4,14,35,24,282,21,36,23,186,27,1*76
$GBGSV,2,1,08,38,80,059,44,39,73,260,45,46,52,132,47,20,46,045,46,4*79
$GBGSV,2,2,08,19,43,330,43,37,29,058,33,29,28,221,39,35,24,282,17,4*75
$GNGGA,105633.000,2500.7989564,N,12132.4853527,E,4,61,0.43,15.914,M,15.25,M,1,3335*4F
$GNRMC,105633.000,A,2500.7989564,N,12132.4853527,E,0.03,0.95,260623,,,R,V*11
$GPHDT,268.255,T*3B
$GNGGA,105633.200,2500.7989564,N,12132.4853528,E,4,61,0.43,15.921,M,15.25,M,1,3335*44
$GNRMC,105633.200,A,2500.7989564,N,12132.4853528,E,0.03,0.95,260623,,,R,V*1C
$GPHDT,268.178,T*37
$GNGGA,105633.400,2500.7989559,N,12132.4853512,E,4,61,0.43,15.919,M,15.25,M,1,3335*4E
$GNRMC,105633.400,A,2500.7989559,N,12132.4853512,E,0.02,0.95,260623,,,R,V*1C
$GPHDT,268.078,T*36
$GNGGA,105633.600,2500.7989560,N,12132.4853526,E,4,61,0.43,15.908,M,15.25,M,1,3335*41
$GNRMC,105633.600,A,2500.7989560,N,12132.4853526,E,0.02,0.95,260623,,,R,V*13
$GPHDT,268.347,T*39
$GNGGA,105633.800,2500.7989556,N,12132.4853537,E,4,61,0.43,15.910,M,15.25,M,1,3335*43
$GNRMC,105633.800,A,2500.7989556,N,12132.4853537,E,0.01,0.95,260623,,,R,V*1B
$GPHDT,268.181,T*31
$GNGSA,A,3,24,196,18,199,15,23,195,05,194,13,,,0.71,0.43,0.57,1*01
$GNGSA,A,3,80,85,70,73,84,86,79,69,71,,,,0.71,0.43,0.57,2*02
$GNGSA,A,3,13,08,07,15,26,02,03,,,,,,0.71,0.43,0.57,3*0C
$GNGSA,A,3,38,39,08,16,06,13,46,09,20,19,37,29,0.71,0.43,0.57,4*03
$GNGSA,A,3,35,36,,,,,,,,,,,0.71,0.43,0.57,4*04
$GPGSV,5,1,17,24,82,116,43,196,74,057,40,18,61,277,46,199,60,167,27,1*6C
$GPGSV,5,2,17,45,47,231,38,15,44,032,44,23,39,330,41,195,39,179,28,1*55
$GPGSV,5,3,17,05,27,106,35,194,26,141,35,13,17,048,25,12,12,151,17,1*53
$GPGSV,5,4,17,10,08,312,,29,07,206,,20,06,122,,32,03,258,,1*6A
$GPGSV,5,5,17,25,01,184,,1*59
$GPGSV,2,1,07,24,82,116,49,196,74,057,45,18,61,277,46,199,60,167,38,8*62
$GPGSV,2,2,07,23,39,330,43,195,39,179,38,194,26,141,25,8*5E
$GLGSV,3,1,09,80,44,102,43,85,44,266,32,70,39,350,29,73,23,165,31,1*74
$GLGSV,3,2,09,84,23,196,16,86,21,318,33,79,20,044,21,69,18,058,18,1*7E
$GLGSV,3,3,09,71,16,299,27,1*47
$GAGSV,2,1,08,13,64,253,41,08,52,012,40,07,41,288,24,15,34,174,19,7*7E
$GAGSV,2,2,08,26,26,316,34,02,22,097,21,03,16,055,13,25,05,052,,7*74
$GAGSV,2,1,06,13,64,253,44,08,52,012,37,07,41,288,31,15,34,174,36,1*7A
$GAGSV,2,2,06,26,26,316,33,03,16,055,20,1*71
$GBGSV,4,1,14,38,80,059,43,39,73,260,45,08,72,007,34,16,66,239,43,1*70
$GBGSV,4,2,14,06,64,236,42,13,63,341,39,46,52,132,46,09,47,227,38,1*7A
$GBGSV,4,3,14,20,46,045,43,19,43,330,49,37,29,058,34,29,28,221,42,1*73
$GBGSV,4,4,14,35,24,282,22,36,23,186,27,1*75
$GBGSV,2,1,08,38,80,059,44,39,73,260,45,46,52,132,47,20,46,045,46,4*79
$GBGSV,2,2,08,19,43,330,42,37,29,058,33,29,28,221,39,35,24,282,17,4*74
$GNGGA,105634.000,2500.7989563,N,12132.4853561,E,4,60,0.43,15.913,M,15.25,M,1,3335*4B
$GNRMC,105634.000,A,2500.7989563,N,12132.4853561,E,0.01,0.95,260623,,,R,V*11
$GPHDT,268.478,T*32
$GNGGA,105634.200,2500.7989573,N,12132.4853544,E,4,61,0.43,15.907,M,15.25,M,1,3335*4B
$GNRMC,105634.200,A,2500.7989573,N,12132.4853544,E,0.01,0.95,260623,,,R,V*15
$GPHDT,268.516,T*3B
$GNGGA,105634.400,2500.7989580,N,12132.4853562,E,4,61,0.43,15.907,M,15.25,M,1,3335*45
$GNRMC,105634.400,A,2500.7989580,N,12132.4853562,E,0.02,0.95,260623,,,R,V*18
$GPHDT,268.399,T*3A
$GNGGA,105634.600,2500.7989563,N,12132.4853510,E,4,60,0.43,15.917,M,15.25,M,1,3335*4F
$GNRMC,105634.600,A,2500.7989563,N,12132.4853510,E,0.02,0.95,260623,,,R,V*12
$GPHDT,268.414,T*38
$GNGGA,105634.800,2500.7989581,N,12132.4853552,E,4,60,0.43,15.914,M,15.25,M,1,3335*48
$GNRMC,105634.800,A,2500.7989581,N,12132.4853552,E,0.01,0.95,260623,,,R,V*15
$GPHDT,268.434,T*3A
$GNGSA,A,3,24,196,18,199,15,23,195,05,194,13,,,0.71,0.43,0.57,1*01
$GNGSA,A,3,80,85,70,73,84,86,79,69,71,,,,0.71,0.43,0.57,2*02
$GNGSA,A,3,13,08,07,15,26,02,03,,,,,,0.71,0.43,0.57,3*0C
$GNGSA,A,3,38,39,08,16,06,13,46,09,20,19,37,29,0.71,0.43,0.57,4*03
$GNGSA,A,3,35,36,,,,,,,,,,,0.71,0.43,0.57,4*04
$GPGSV,5,1,17,24,82,116,43,196,74,057,40,18,61,277,46,199,60,167,27,1*6C
$GPGSV,5,2,17,45,47,231,38,15,44,032,44,23,39,330,41,195,39,179,26,1*5B
$GPGSV,5,3,17,05,27,106,34,194,26,141,36,13,17,048,24,12,12,151,16,1*51
$GPGSV,5,4,17,10,08,312,,29,07,206,,20,06,122,,32,03,258,,1*6A
$GPGSV,5,5,17,25,01,184,,1*59
$GPGSV,2,1,07,24,82,116,49,196,74,057,45,18,61,277,46,199,60,167,39,8*63
$GPGSV,2,2,07,23,39,330,43,195,39,179,38,194,26,141,25,8*5E
$GLGSV,3,1,09,80,44,102,43,85,44,266,32,70,39,350,29,73,23,165,31,1*74
$GLGSV,3,2,09,84,23,196,16,86,21,318,32,79,20,044,22,69,18,058,18,1*7C
$GLGSV,3,3,09,71,16,299,26,1*46
$GAGSV,2,1,08,13,64,253,41,08,52,012,41,07,41,288,24,15,34,174,17,7*71
$GAGSV,2,2,08,26,26,316,34,02,22,097,20,03,16,055,13,25,05,052,,7*75
$GAGSV,2,1,07,13,64,253,44,08,52,012,37,07,41,288,30,15,34,174,36,1*7A
$GAGSV,2,2,07,26,26,316,32,02,22,097,22,03,16,055,20,1*4D
$GBGSV,4,1,15,38,80,059,43,39,73,260,45,08,72,007,34,16,66,239,43,1*71
$GBGSV,4,2,15,06,64,236,43,13,63,341,39,46,52,132,47,09,47,227,38,1*7B
$GBGSV,4,3,15,20,46,045,43,19,43,330,49,37,29,058,34,29,28,221,42,1*72
$GBGSV,4,4,15,35,24,282,22,36,23,186,26,07,05,195,,1*4A
$GBGSV,2,1,07,38,80,059,44,39,73,260,45,46,52,132,47,20,46,045,46,4*76
$GBGSV,2,2,07,19,43,330,42,37,29,058,32,29,28,221,39,4*44
$GNGGA,105635.000,2500.7989591,N,12132.4853532,E,4,60,0.43,15.903,M,15.25,M,2,3335*43
$GNRMC,105635.000,A,2500.7989591,N,12132.4853532,E,0.01,0.95,260623,,,R,V*1B
$GPHDT,267.985,T*32
$GNGGA,105635.200,2500.7989590,N,12132.4853531,E,4,60,0.43,15.912,M,15.25,M,2,3335*43
$GNRMC,105635.200,A,2500.7989590,N,12132.4853531,E,0.01,0.95,260623,,,R,V*1B
$GPHDT,268.236,T*3E
$GNGGA,105635.400,2500.7989637,N,12132.4853516,E,4,60,0.43,15.916,M,15.25,M,2,3335*4A
$GNRMC,105635.400,A,2500.7989637,N,12132.4853516,E,0.01,0.95,260623,,,R,V*16
$GPHDT,267.867,T*3F
$GNGGA,105635.600,2500.7989614,N,12132.4853532,E,4,60,0.43,15.911,M,15.25,M,2,3335*48
$GNRMC,105635.600,A,2500.7989614,N,12132.4853532,E,0.01,0.95,260623,,,R,V*13
$GPHDT,267.881,T*37
$GNGGA,105635.800,2500.7989590,N,12132.4853580,E,4,60,0.43,15.889,M,15.25,M,2,3335*40
$GNRMC,105635.800,A,2500.7989590,N,12132.4853580,E,0.02,0.95,260623,,,R,V*18
$GPHDT,268.131,T*3A
$GNGSA,A,3,24,196,18,199,15,23,195,05,194,13,,,0.71,0.43,0.57,1*01
$GNGSA,A,3,80,85,70,84,73,86,79,69,71,,,,0.71,0.43,0.57,2*02
$GNGSA,A,3,13,08,07,15,26,02,03,,,,,,0.71,0.43,0.57,3*0C
$GNGSA,A,3,38,39,08,16,06,13,46,09,20,19,37,29,0.71,0.43,0.57,4*03
$GNGSA,A,3,35,36,,,,,,,,,,,0.71,0.43,0.57,4*04
$GPGSV,5,1,17,24,82,116,43,196,74,057,40,18,61,277,46,199,60,167,29,1*62
$GPGSV,5,2,17,45,47,231,38,15,44,032,44,23,39,330,41,195,39,179,24,1*59
$GPGSV,5,3,17,05,27,106,33,194,26,141,35,13,17,048,24,12,12,151,16,1*55
$GPGSV,5,4,17,10,08,312,,29,07,206,,20,06,122,,32,03,258,,1*6A
$GPGSV,5,5,17,25,01,184,,1*59
$GPGSV,2,1,07,24,82,116,49,196,74,057,45,18,61,277,45,199,60,167,39,8*60
$GPGSV,2,2,07,23,39,330,43,195,39,179,36,194,26,141,25,8*50
$GLGSV,3,1,09,80,44,102,43,85,44,266,33,70,39,350,29,84,23,196,15,1*77
$GLGSV,3,2,09,73,23,165,29,86,21,318,31,79,20,044,22,69,18,058,18,1*77
$GLGSV,3,3,09,71,16,299,26,1*46
$GAGSV,3,1,09,13,64,253,41,08,52,012,41,07,41,288,24,15,34,174,17,7*71
$GAGSV,3,2,09,26,26,316,34,02,22,097,20,30,17,151,,03,16,055,13,7*70
$GAGSV,3,3,09,25,05,052,,7*4F
$GAGSV,2,1,07,13,64,253,44,08,52,012,37,07,41,288,29,15,34,174,36,1*72
$GAGSV,2,2,07,26,26,316,33,02,22,097,24,03,16,055,19,1*40
$GBGSV,4,1,15,38,80,059,43,39,73,260,44,08,72,007,34,16,66,239,43,1*70
$GBGSV,4,2,15,06,64,236,43,13,63,341,38,46,52,132,46,09,47,227,38,1*7B
$GBGSV,4,3,15,20,46,045,43,19,43,330,49,37,29,058,34,29,28,221,39,1*7E
$GBGSV,4,4,15,35,24,282,19,36,23,186,27,07,05,195,,1*43
$GBGSV,2,1,07,38,80,059,44,39,73,260,45,46,52,132,47,20,46,045,46,4*76
$GBGSV,2,2,07,19,43,330,42,37,29,058,33,29,28,221,37,4*4B
$GNGGA,105636.000,2500.7989622,N,12132.4853526,E,4,60,0.43,15.913,M,15.25,M,3,3335*4E
$GNRMC,105636.000,A,2500.7989622,N,12132.4853526,E,0.02,0.95,260623,,,R,V*15
$GPHDT,267.805,T*3B
$GNGGA,105636.200,2500.7989621,N,12132.4853544,E,4,59,0.44,15.917,M,15.25,M,3,3335*42
$GNRMC,105636.200,A,2500.7989621,N,12132.4853544,E,0.01,0.95,260623,,,R,V*13
$GPHDT,267.723,T*30
$GNGGA,105636.400,2500.7989631,N,12132.4853526,E,4,58,0.44,15.919,M,15.25,M,3,3335*4E
$GNRMC,105636.400,A,2500.7989631,N,12132.4853526,E,0.00,0.95,260623,,,R,V*11
$GPHDT,268.004,T*3D
$GNGGA,105636.600,2500.7989626,N,12132.4853517,E,4,59,0.43,15.913,M,15.25,M,3,3335*44
$GNRMC,105636.600,A,2500.7989626,N,12132.4853517,E,0.01,0.95,260623,,,R,V*16
$GPHDT,268.051,T*3D
$GNGGA,105636.800,2500.7989631,N,12132.4853534,E,4,59,0.43,15.912,M,15.25,M,3,3335*4C
$GNRMC,105636.800,A,2500.7989631,N,12132.4853534,E,0.01,0.95,260623,,,R,V*1F
$GPHDT,268.030,T*3A
$GNGSA,A,3,24,196,18,199,15,23,195,05,194,13,,,0.82,0.43,0.70,1*08
$GNGSA,A,3,80,85,70,84,73,86,79,69,71,,,,0.82,0.43,0.70,2*0B
$GNGSA,A,3,13,08,07,15,26,02,03,,,,,,0.82,0.43,0.70,3*05
$GNGSA,A,3,38,39,08,16,06,13,46,09,20,19,37,29,0.82,0.43,0.70,4*0A
$GNGSA,A,3,35,36,,,,,,,,,,,0.82,0.43,0.70,4*0D
$GPGSV,5,1,17,24,82,116,43,196,74,057,40,18,61,277,46,199,60,167,29,1*62
$GPGSV,5,2,17,45,47,231,38,15,44,032,44,23,39,330,41,195,39,179,24,1*59
$GPGSV,5,3,17,05,27,106,33,194,26,141,34,13,17,048,26,12,12,151,14,1*54
$GPGSV,5,4,17,10,08,312,,29,07,206,,20,06,122,,32,03,258,,1*6A
$GPGSV,5,5,17,25,01,184,,1*59
$GPGSV,2,1,07,24,82,116,49,196,74,057,45,18,61,277,46,199,60,167,39,8*63
$GPGSV,2,2,07,23,39,330,42,195,39,179,36,194,26,141,25,8*51
$GLGSV,3,1,09,80,44,102,43,85,44,266,33,70,39,350,29,84,23,196,15,1*77
$GLGSV,3,2,09,73,23,165,28,86,21,318,31,79,20,044,24,69,18,059,19,1*70
$GLGSV,3,3,09,71,16,299,21,1*41
$GAGSV,3,1,09,13,64,253,41,08,52,012,41,07,41,288,24,15,34,174,19,7*7F
$GAGSV,3,2,09,26,26,316,34,02,22,097,21,30,17,151,,03,16,055,,7*73
$GAGSV,3,3,09,25,05,052,,7*4F
$GAGSV,2,1,07,13,64,253,44,08,52,012,37,07,41,288,29,15,34,174,35,1*71
$GAGSV,2,2,07,26,26,316,33,02,22,097,25,03,16,055,20,1*4B
$GBGSV,4,1,15,38,80,059,43,39,73,260,44,08,72,007,34,16,66,239,43,1*70
$GBGSV,4,2,15,06,64,236,43,13,63,341,38,46,52,132,46,09,47,227,38,1*7B
$GBGSV,4,3,15,20,46,045,43,19,43,330,49,37,29,058,34,29,28,221,39,1*7E
$GBGSV,4,4,15,35,24,282,18,36,23,186,26,07,05,195,,1*43
$GBGSV,2,1,07,38,80,059,44,39,73,260,45,46,52,132,47,20,46,045,46,4*76
$GBGSV,2,2,07,19,43,330,42,37,29,058,33,29,28,221,36,4*4A
$GNGGA,105637.000,2500.7989638,N,12132.4853521,E,4,59,0.43,15.911,M,15.25,M,4,3335*4C
$GNRMC,105637.000,A,2500.7989638,N,12132.4853521,E,0.00,0.95,260623,,,R,V*1A
$GPHDT,268.053,T*3F
$GNGGA,105637.200,2500.7989615,N,12132.4853543,E,4,59,0.43,15.912,M,15.25,M,4,3335*46
$GNRMC,105637.200,A,2500.7989615,N,12132.4853543,E,0.00,0.95,260623,,,R,V*13
$GPHDT,267.954,T*3E
$GNGGA,105637.400,2500.7989610,N,12132.4853527,E,4,58,0.45,15.912,M,15.25,M,2,3335*46
$GNRMC,105637.400,A,2500.7989610,N,12132.4853527,E,0.00,0.95,260623,,,R,V*12
$GPHDT,267.983,T*34
$GNGGA,105637.600,2500.7989593,N,12132.4853539,E,4,58,0.45,15.907,M,15.25,M,1,3335*44
$GNRMC,105637.600,A,2500.7989593,N,12132.4853539,E,0.00,0.95,260623,,,R,V*17
$GPHDT,268.196,T*37
$GNGGA,105637.800,2500.7989575,N,12132.4853566,E,4,58,0.45,15.910,M,15.25,M,0,3335*4F
$GNRMC,105637.800,A,2500.7989575,N,12132.4853566,E,0.00,0.95,260623,,,R,V*1B
$GPHDT,268.363,T*3F
$GNGSA,A,3,24,196,18,199,15,23,195,05,194,13,,,0.84,0.45,0.71,1*09
$GNGSA,A,3,80,85,70,73,86,79,69,71,,,,,0.84,0.45,0.71,2*06
$GNGSA,A,3,13,08,07,15,26,02,03,,,,,,0.84,0.45,0.71,3*04
$GNGSA,A,3,38,39,08,16,06,13,46,09,20,19,37,29,0.84,0.45,0.71,4*0B
$GNGSA,A,3,35,36,,,,,,,,,,,0.84,0.45,0.71,4*0C
$GPGSV,5,1,17,24,82,116,43,196,74,057,40,18,61,277,46,199,60,167,29,1*62
$GPGSV,5,2,17,45,47,231,38,15,44,032,44,23,39,330,41,195,39,179,24,1*59
$GPGSV,5,3,17,05,27,106,33,194,26,141,34,13,17,048,27,12,12,151,14,1*55
$GPGSV,5,4,17,10,08,312,,29,07,206,,20,06,122,,32,03,258,,1*6A
$GPGSV,5,5,17,25,01,184,,1*59
$GPGSV,2,1,07,24,82,116,49,196,74,057,45,18,61,277,46,199,60,167,40,8*6D
$GPGSV,2,2,07,23,39,330,42,195,39,179,36,194,26,141,24,8*50
$GLGSV,3,1,09,80,44,102,43,85,44,266,34,70,39,350,29,84,23,196,15,1*70
$GLGSV,3,2,09,73,23,165,30,86,21,318,31,79,20,044,24,69,18,059,20,1*73
$GLGSV,3,3,09,71,16,299,18,1*4B
$GAGSV,3,1,09,13,64,253,41,08,52,012,41,07,41,288,24,15,34,174,20,7*75
$GAGSV,3,2,09,26,26,316,34,02,22,097,21,30,17,151,,03,16,055,,7*73
$GAGSV,3,3,09,25,05,052,,7*4F
$GAGSV,2,1,07,13,64,253,44,08,52,012,37,07,41,288,29,15,34,174,34,1*70
$GAGSV,2,2,07,26,26,316,32,02,22,097,24,03,16,055,21,1*4A
$GBGSV,4,1,15,38,80,059,43,39,73,260,44,08,72,007,35,16,66,239,43,1*71
$GBGSV,4,2,15,06,64,236,43,13,63,341,38,46,52,132,46,09,47,227,38,1*7B
$GBGSV,4,3,15,20,46,045,43,19,43,330,49,37,29,058,34,29,28,221,39,1*7E
$GBGSV,4,4,15,35,24,282,16,36,23,186,26,07,05,195,,1*4D
$GBGSV,2,1,07,38,80,059,44,39,73,260,45,46,52,132,47,20,46,045,46,4*76
$GBGSV,2,2,07,19,43,330,42,37,29,058,33,29,28,221,36,4*4A
$GNGGA,105638.000,2500.7989567,N,12132.4853597,E,4,58,0.45,15.908,M,15.25,M,1,3335*4D
$GNRMC,105638.000,A,2500.7989567,N,12132.4853597,E,0.00,0.95,260623,,,R,V*11
$GPHDT,268.196,T*37
$GNGGA,105638.200,2500.7989565,N,12132.4853593,E,4,59,0.45,15.898,M,15.25,M,1,3335*40
$GNRMC,105638.200,A,2500.7989565,N,12132.4853593,E,0.00,0.95,260623,,,R,V*15
$GPHDT,268.203,T*38
$GNGGA,105638.400,2500.7989571,N,12132.4853611,E,4,59,0.45,15.879,M,15.25,M,1,3335*45
$GNRMC,105638.400,A,2500.7989571,N,12132.4853611,E,0.00,0.95,260623,,,R,V*1F
$GPHDT,268.424,T*3B
$GNGGA,105638.600,2500.7989583,N,12132.4853604,E,4,59,0.45,15.885,M,15.25,M,1,3335*4D
$GNRMC,105638.600,A,2500.7989583,N,12132.4853604,E,0.00,0.95,260623,,,R,V*14
$GPHDT,268.238,T*30
$GNGGA,105638.800,2500.7989569,N,12132.4853638,E,4,59,0.45,15.899,M,15.25,M,0,3335*44
$GNRMC,105638.800,A,2500.7989569,N,12132.4853638,E,0.00,0.95,260623,,,R,V*11
$GPHDT,268.179,T*36
$GNGSA,A,3,24,196,18,199,15,23,195,05,194,13,,,0.84,0.45,0.71,1*09
$GNGSA,A,3,80,85,70,73,86,79,69,71,,,,,0.84,0.45,0.71,2*06
$GNGSA,A,3,13,08,07,15,26,02,03,,,,,,0.84,0.45,0.71,3*04
$GNGSA,A,3,38,39,08,16,06,13,46,09,20,19,37,29,0.84,0.45,0.71,4*0B
$GNGSA,A,3,35,36,,,,,,,,,,,0.84,0.45,0.71,4*0C
$GPGSV,5,1,17,24,82,116,43,196,74,057,41,18,61,277,46,199,60,167,29,1*63
$GPGSV,5,2,17,45,47,231,38,15,44,032,44,23,39,330,41,195,39,179,26,1*5B
$GPGSV,5,3,17,05,27,106,33,194,26,141,34,13,17,048,29,12,12,151,12,1*5D
$GPGSV,5,4,17,10,08,312,,29,07,206,,20,06,122,,32,03,258,,1*6A
$GPGSV,5,5,17,25,01,184,,1*59
$GPGSV,2,1,07,24,82,116,49,196,74,057,45,18,61,277,46,199,60,167,40,8*6D
$GPGSV,2,2,07,23,39,330,42,195,39,179,36,194,26,141,22,8*56
$GLGSV,3,1,09,80,45,102,43,85,44,266,34,70,39,350,28,84,23,196,13,1*76
$GLGSV,3,2,09,73,23,165,30,86,21,318,31,79,20,043,24,69,18,059,21,1*75
$GLGSV,3,3,09,71,16,299,16,1*45
$GAGSV,3,1,09,13,64,253,41,08,52,012,41,07,41,288,23,15,34,174,20,7*72
$GAGSV,3,2,09,26,26,316,34,02,22,097,21,30,17,151,,03,16,055,,7*73
$GAGSV,3,3,09,25,05,052,,7*4F
$GAGSV,2,1,07,13,64,253,44,08,52,012,37,07,41,288,29,15,34,174,34,1*70
$GAGSV,2,2,07,26,26,316,32,02,22,097,24,03,16,055,21,1*4A
$GBGSV,4,1,15,38,80,059,43,39,73,260,44,08,72,007,33,16,66,239,42,1*76
$GBGSV,4,2,15,06,64,236,43,13,63,341,38,46,52,132,46,09,47,227,38,1*7B
$GBGSV,4,3,15,20,46,045,43,19,43,330,49,37,29,058,34,29,28,221,39,1*7E
$GBGSV,4,4,15,35,24,282,16,36,23,186,25,07,05,195,,1*4E
$GBGSV,2,1,08,38,80,059,44,39,73,260,45,46,52,132,47,20,46,045,46,4*79
$GBGSV,2,2,08,19,43,330,42,37,29,058,32,29,28,221,36,35,24,282,16,4*7B
$GNGGA,105639.000,2500.7989600,N,12132.4853608,E,4,59,0.45,15.909,M,15.25,M,1,3335*4B
$GNRMC,105639.000,A,2500.7989600,N,12132.4853608,E,0.00,0.95,260623,,,R,V*17
$GPHDT,268.048,T*35
$GNGGA,105639.200,2500.7989589,N,12132.4853604,E,4,59,0.45,15.902,M,15.25,M,1,3335*4C
$GNRMC,105639.200,A,2500.7989589,N,12132.4853604,E,0.00,0.95,260623,,,R,V*1B
$GPHDT,268.254,T*3A
$GNGGA,105639.400,2500.7989600,N,12132.4853553,E,4,59,0.45,15.922,M,15.25,M,1,3335*4B
$GNRMC,105639.400,A,2500.7989600,N,12132.4853553,E,0.00,0.95,260623,,,R,V*1E
$GPHDT,268.346,T*38
$GNGGA,105639.600,2500.7989571,N,12132.4853571,E,4,59,0.45,15.909,M,15.25,M,1,3335*45
$GNRMC,105639.600,A,2500.7989571,N,12132.4853571,E,0.00,0.95,260623,,,R,V*19
$GPHDT,268.354,T*3B
$GNGGA,105639.800,2500.7989577,N,12132.4853599,E,4,59,0.45,15.903,M,15.25,M,1,3335*41
$GNRMC,105639.800,A,2500.7989577,N,12132.4853599,E,0.00,0.95,260623,,,R,V*17
$GPHDT,268.062,T*3D
$GNGSA,A,3,24,196,18,199,15,23,195,05,194,13,,,0.84,0.45,0.71,1*09
$GNGSA,A,3,80,85,70,73,86,79,69,71,,,,,0.84,0.45,0.71,2*06
$GNGSA,A,3,13,08,07,15,26,02,03,,,,,,0.84,0.45,0.71,3*04
$GNGSA,A,3,38,39,08,16,06,13,46,09,20,19,37,29,0.84,0.45,0.71,4*0B
$GNGSA,A,3,35,36,,,,,,,,,,,0.84,0.45,0.71,4*0C
$GPGSV,5,1,17,24,82,116,43,196,74,057,41,18,61,277,46,199,60,167,30,1*6B
$GPGSV,5,2,17,45,47,231,38,15,44,032,44,23,39,330,41,195,39,179,27,1*5A
$GPGSV,5,3,17,05,27,106,34,194,26,141,35,13,17,048,26,12,12,151,15,1*53
$GPGSV,5,4,17,10,08,312,,29,07,206,,20,06,122,,32,03,258,,1*6A
$GPGSV,5,5,17,25,01,184,,1*59
$GPGSV,2,1,07,24,82,116,49,196,74,057,45,18,61,277,46,199,60,167,40,8*6D
$GPGSV,2,2,07,23,39,330,42,195,39,179,36,194,26,141,25,8*51
$GLGSV,3,1,09,80,45,102,43,85,44,266,34,70,39,350,28,73,23,165,31,1*72
$GLGSV,3,2,09,84,22,196,13,86,21,318,31,79,20,043,22,69,18,059,21,1*77
$GLGSV,3,3,09,71,16,299,16,1*45
$GAGSV,3,1,09,13,64,253,41,08,52,012,40,07,41,288,23,15,34,174,19,7*79
$GAGSV,3,2,09,26,26,316,34,02,22,097,21,30,17,151,,03,16,055,,7*73
$GAGSV,3,3,09,25,05,052,,7*4F
$GAGSV,2,1,07,13,64,253,44,08,52,012,37,07,41,288,28,15,34,174,34,1*71
$GAGSV,2,2,07,26,26,316,32,02,22,097,25,03,16,055,21,1*4B
$GBGSV,4,1,14,38,80,059,43,39,73,260,44,08,72,007,33,16,66,239,42,1*77
$GBGSV,4,2,14,06,64,236,43,13,63,341,38,46,52,132,46,09,47,227,38,1*7A
$GBGSV,4,3,14,20,46,045,43,19,43,330,49,37,29,058,34,29,28,221,39,1*7F
$GBGSV,4,4,14,35,24,282,16,36,23,186,25,1*70
$GBGSV,2,1,08,38,80,059,44,39,73,260,45,46,52,132,47,20,46,045,46,4*79
$GBGSV,2,2,08,19,43,330,42,37,29,058,31,29,28,221,36,35,24,282,17,4*79
$GNGGA,105640.000,2500.7989596,N,12132.4853612,E,4,59,0.45,15.894,M,15.25,M,2,3335*44
$GNRMC,105640.000,A,2500.7989596,N,12132.4853612,E,0.00,0.95,260623,,,R,V*1E
$GPHDT,268.131,T*3A
$GNGGA,105640.200,2500.7989627,N,12132.4853538,E,4,59,0.45,15.931,M,15.25,M,2,3335*4A
$GNRMC,105640.200,A,2500.7989627,N,12132.4853538,E,0.00,0.95,260623,,,R,V*1E
$GPHDT,267.788,T*31
$GNGGA,105640.400,2500.7989602,N,12132.4853549,E,4,62,0.45,15.925,M,15.25,M,2,3335*40
$GNRMC,105640.400,A,2500.7989602,N,12132.4853549,E,0.00,0.95,260623,,,R,V*19
$GPHDT,268.222,T*3B
$GNGGA,105640.600,2500.7989592,N,12132.4853606,E,4,62,0.45,15.898,M,15.25,M,2,3335*47
$GNRMC,105640.600,A,2500.7989592,N,12132.4853606,E,0.00,0.95,260623,,,R,V*19
$GPHDT,268.135,T*3E
$GNGGA,105640.800,2500.7989615,N,12132.4853571,E,4,62,0.45,15.900,M,15.25,M,2,3335*46
$GNRMC,105640.800,A,2500.7989615,N,12132.4853571,E,0.00,0.95,260623,,,R,V*18
$GPHDT,267.978,T*30
$GNGSA,A,3,24,196,18,199,15,23,195,05,194,13,,,0.84,0.45,0.71,1*09
$GNGSA,A,3,80,85,70,73,86,79,69,71,,,,,0.84,0.45,0.71,2*06
$GNGSA,A,3,13,08,07,15,26,02,03,,,,,,0.84,0.45,0.71,3*04
$GNGSA,A,3,38,39,08,16,06,13,46,09,20,19,37,29,0.84,0.45,0.71,4*0B
$GNGSA,A,3,35,36,,,,,,,,,,,0.84,0.45,0.71,4*0C
$GPGSV,4,1,16,24,82,116,43,196,74,057,41,18,61,277,46,199,60,167,31,1*6A
$GPGSV,4,2,16,45,47,231,38,15,44,032,44,23,39,330,41,195,39,179,27,1*5A
$GPGSV,4,3,16,05,27,106,34,194,26,141,35,13,17,048,27,12,12,151,15,1*52
$GPGSV,4,4,16,10,08,312,,29,07,206,,32,03,258,,25,01,184,,1*64
$GPGSV,2,1,07,24,82,116,49,196,74,057,45,18,61,277,46,199,60,167,40,8*6D
$GPGSV,2,2,07,23,39,330,42,195,39,179,36,194,26,141,25,8*51
$GLGSV,3,1,09,80,45,102,43,85,44,266,34,70,39,350,28,73,23,165,31,1*72
$GLGSV,3,2,09,84,22,196,11,86,21,317,31,79,20,043,21,69,18,059,19,1*72
$GLGSV,3,3,09,71,16,299,15,1*46
$GAGSV,3,1,09,13,64,253,41,08,52,012,40,07,41,288,22,15,34,174,17,7*76
$GAGSV,3,2,09,26,26,316,33,02,22,097,21,30,17,151,,03,16,055,17,7*72
$GAGSV,3,3,09,25,05,052,,7*4F
$GAGSV,2,1,07,13,64,253,44,08,52,012,37,07,41,288,27,15,34,174,35,1*7F
$GAGSV,2,2,07,26,26,316,32,02,22,097,24,03,16,055,21,1*4A
$GBGSV,4,1,16,38,80,059,43,39,73,260,44,08,72,007,34,16,66,239,42,1*72
$GBGSV,4,2,16,06,64,236,43,13,63,341,38,46,52,132,46,09,47,227,38,1*78
$GBGSV,4,3,16,20,46,045,43,19,43,330,49,37,29,058,34,29,28,221,40,1*73
$GBGSV,4,4,16,35,24,282,16,36,23,186,24,07,05,195,,30,03,174,,1*7E
$GBGSV,3,1,09,38,80,059,44,39,73,260,45,46,52,132,47,20,46,045,46,4*79
$GBGSV,3,2,09,19,43,330,42,37,29,058,31,29,28,221,36,35,24,282,17,4*79
$GBGSV,3,3,09,36,23,186,23,4*40
$GNGGA,105641.000,2500.7989615,N,12132.4853582,E,4,62,0.45,15.894,M,15.25,M,3,3335*4E
$GNRMC,105641.000,A,2500.7989615,N,12132.4853582,E,0.00,0.95,260623,,,R,V*1D
$GPHDT,267.841,T*3B
$GNGGA,105641.200,2500.7989608,N,12132.4853591,E,4,62,0.45,15.902,M,15.25,M,3,3335*4C
$GNRMC,105641.200,A,2500.7989608,N,12132.4853591,E,0.00,0.95,260623,,,R,V*11
$GPHDT,268.098,T*38
$GNGGA,105641.400,2500.7989614,N,12132.4853592,E,4,62,0.45,15.900,M,15.25,M,3,3335*46
$GNRMC,105641.400,A,2500.7989614,N,12132.4853592,E,0.00,0.95,260623,,,R,V*19
$GPHDT,268.074,T*3A
$GNGGA,105641.600,2500.7989584,N,12132.4853584,E,4,62,0.45,15.887,M,15.25,M,3,3335*47
$GNRMC,105641.600,A,2500.7989584,N,12132.4853584,E,0.00,0.95,260623,,,R,V*16
$GPHDT,268.408,T*35
$GNGGA,105641.800,2500.7989608,N,12132.4853576,E,4,62,0.45,15.898,M,15.25,M,3,3335*4D
$GNRMC,105641.800,A,2500.7989608,N,12132.4853576,E,0.00,0.95,260623,,,R,V*12
$GPHDT,268.310,T*3B
$GNGSA,A,3,24,196,18,199,15,23,195,05,194,13,,,0.84,0.45,0.71,1*09
$GNGSA,A,3,80,85,70,73,86,79,69,71,,,,,0.84,0.45,0.71,2*06
$GNGSA,A,3,13,08,07,15,26,02,03,,,,,,0.84,0.45,0.71,3*04
$GNGSA,A,3,38,39,08,16,06,13,46,09,20,19,37,29,0.84,0.45,0.71,4*0B
$GNGSA,A,3,35,36,,,,,,,,,,,0.84,0.45,0.71,4*0C
$GPGSV,4,1,16,24,82,116,43,196,74,057,41,18,61,277,46,199,60,167,31,1*6A
$GPGSV,4,2,16,45,47,231,38,15,44,032,44,23,39,330,41,195,39,179,27,1*5A
$GPGSV,4,3,16,05,27,106,34,194,26,141,35,13,17,048,27,12,12,151,15,1*52
$GPGSV,4,4,16,10,08,312,16,29,07,206,,20,06,122,,32,03,258,,1*6D
$GPGSV,2,1,07,24,82,116,49,196,74,057,45,18,61,277,46,199,60,167,40,8*6D
$GPGSV,2,2,07,23,39,330,42,195,39,179,36,194,26,141,27,8*53
$GLGSV,3,1,09,80,45,102,43,85,44,266,34,70,39,350,28,73,23,165,30,1*73
$GLGSV,3,2,09,84,22,196,11,86,21,317,31,79,20,043,22,69,18,059,19,1*71
$GLGSV,3,3,09,71,16,299,15,1*46
$GAGSV,3,1,09,13,64,253,41,08,52,012,40,07,41,288,23,15,34,174,15,7*75
$GAGSV,3,2,09,26,26,316,33,02,22,097,21,30,17,151,,03,16,055,16,7*73
$GAGSV,3,3,09,25,05,052,,7*4F
$GAGSV,2,1,07,13,64,253,44,08,52,012,37,07,41,288,28,15,34,174,35,1*70
$GAGSV,2,2,07,26,26,316,32,02,22,097,23,03,16,055,20,1*4C
$GBGSV,4,1,15,38,80,059,43,39,73,260,44,08,72,007,34,16,66,239,42,1*71
$GBGSV,4,2,15,06,64,236,43,13,63,341,38,46,52,132,46,09,47,227,38,1*7B
$GBGSV,4,3,15,20,46,045,43,19,43,330,49,37,29,058,34,29,28,221,40,1*70
$GBGSV,4,4,15,35,24,282,16,36,23,186,24,07,05,195,,1*4F
$GBGSV,3,1,09,38,80,059,44,39,73,260,45,46,52,132,47,20,46,045,46,4*79
$GBGSV,3,2,09,19,43,330,42,37,29,058,32,29,28,221,36,35,24,282,17,4*7A
$GBGSV,3,3,09,36,23,186,22,4*41
$GNGGA,105642.000,2500.7989592,N,12132.4853601,E,4,62,0.45,15.893,M,15.25,M,4,3335*49
$GNRMC,105642.000,A,2500.7989592,N,12132.4853601,E,0.00,0.95,260623,,,R,V*1A
$GPHDT,268.252,T*3C
$GNGGA,105642.200,2500.7989600,N,12132.4853528,E,4,62,0.45,15.917,M,15.25,M,4,3335*46
$GNRMC,105642.200,A,2500.7989600,N,12132.4853528,E,0.00,0.95,260623,,,R,V*18
$GPHDT,268.288,T*3B
$GNGGA,105642.400,2500.7989613,N,12132.4853506,E,4,62,0.45,15.917,M,15.25,M,4,3335*4E
$GNRMC,105642.400,A,2500.7989613,N,12132.4853506,E,0.00,0.95,260623,,,R,V*10
$GPHDT,268.261,T*3C
$GNGGA,105642.600,2500.7989602,N,12132.4853523,E,4,62,0.45,15.931,M,15.25,M,1,3335*4A
$GNRMC,105642.600,A,2500.7989602,N,12132.4853523,E,0.00,0.95,260623,,,R,V*15
$GPHDT,268.324,T*3C
$GNGGA,105642.800,2500.7989605,N,12132.4853513,E,4,62,0.45,15.921,M,15.25,M,0,3335*40
$GNRMC,105642.800,A,2500.7989605,N,12132.4853513,E,0.00,0.95,260623,,,R,V*1F
$GPHDT,268.138,T*33
$GNGSA,A,3,24,196,18,199,15,23,195,05,194,13,,,0.84,0.45,0.71,1*09
$GNGSA,A,3,80,85,70,73,86,79,69,71,,,,,0.84,0.45,0.71,2*06
$GNGSA,A,3,13,08,07,15,26,02,03,,,,,,0.84,0.45,0.71,3*04
$GNGSA,A,3,38,39,08,16,06,13,46,09,20,19,37,29,0.84,0.45,0.71,4*0B
$GNGSA,A,3,35,36,,,,,,,,,,,0.84,0.45,0.71,4*0C
$GPGSV,5,1,17,24,82,116,43,196,74,057,41,18,61,277,46,199,60,167,29,1*63
$GPGSV,5,2,17,45,47,231,38,15,44,032,44,23,39,330,41,195,39,179,26,1*5B
$GPGSV,5,3,17,05,27,106,34,194,26,141,35,13,17,048,27,12,12,151,13,1*54
$GPGSV,5,4,17,10,08,312,17,29,07,206,,20,06,122,,32,03,258,,1*6C
$GPGSV,5,5,17,25,01,184,,1*59
$GPGSV,2,1,07,24,82,116,49,196,74,057,45,18,61,277,46,199,60,167,40,8*6D
$GPGSV,2,2,07,23,39,330,42,195,39,179,35,194,26,141,26,8*51
$GLGSV,3,1,09,80,45,102,43,85,44,266,34,70,39,350,28,73,23,165,28,1*7A
$GLGSV,3,2,09,84,22,196,12,86,21,317,31,79,20,043,22,69,18,059,21,1*79
$GLGSV,3,3,09,71,16,299,18,1*4B
$GAGSV,3,1,09,13,64,253,41,08,52,012,40,07,41,288,23,15,34,174,16,7*76
$GAGSV,3,2,09,26,26,316,33,02,22,097,21,30,17,151,,03,16,055,20,7*76
$GAGSV,3,3,09,25,05,052,,7*4F
$GAGSV,2,1,07,13,64,253,44,08,52,012,37,07,41,288,28,15,34,174,35,1*70
$GAGSV,2,2,07,26,26,316,33,02,22,097,23,03,16,055,20,1*4D
$GBGSV,4,1,14,38,80,059,43,39,73,260,44,08,72,007,34,16,66,239,42,1*70
$GBGSV,4,2,14,06,64,236,43,13,63,341,38,46,52,132,46,09,47,227,38,1*7A
$GBGSV,4,3,14,20,46,045,43,19,43,330,49,37,29,058,34,29,28,221,39,1*7F
$GBGSV,4,4,14,35,24,282,18,36,23,186,25,1*7E
$GBGSV,3,1,09,38,80,059,44,39,73,260,45,46,52,132,47,20,46,045,46,4*79
$GBGSV,3,2,09,19,43,330,42,37,29,058,32,29,28,221,36,35,24,282,17,4*7A
$GBGSV,3,3,09,36,23,186,20,4*43
$GNGGA,105643.000,2500.7989578,N,12132.4853549,E,4,62,0.45,15.912,M,15.25,M,1,3335*4E
$GNRMC,105643.000,A,2500.7989578,N,12132.4853549,E,0.00,0.95,260623,,,R,V*10
$GPHDT,268.413,T*3F
$GNGGA,105643.200,2500.7989577,N,12132.4853553,E,4,62,0.45,15.911,M,15.25,M,1,3335*4B
$GNRMC,105643.200,A,2500.7989577,N,12132.4853553,E,0.00,0.95,260623,,,R,V*16
$GPHDT,268.149,T*35
$GNGGA,105643.400,2500.7989606,N,12132.4853563,E,4,62,0.45,15.914,M,15.25,M,1,3335*4E
$GNRMC,105643.400,A,2500.7989606,N,12132.4853563,E,0.00,0.95,260623,,,R,V*16
$GPHDT,267.804,T*3A
$GNGGA,105643.600,2500.7989617,N,12132.4853556,E,4,62,0.45,15.929,M,15.25,M,1,3335*44
$GNRMC,105643.600,A,2500.7989617,N,12132.4853556,E,0.00,0.95,260623,,,R,V*12
$GPHDT,267.760,T*37
$GNGGA,105643.800,2500.7989598,N,12132.4853554,E,4,62,0.45,15.917,M,15.25,M,0,3335*40
$GNRMC,105643.800,A,2500.7989598,N,12132.4853554,E,0.00,0.95,260623,,,R,V*1A
