$FW : RTK35X,V1.1X0314AS,Lib20210517,1*54
$Tool : LOCOSYS , GNSS Firebird , v1.0.0.19*39
$---------------------------------------------------*2D
$GNGSA,A,3,24,196,18,199,15,23,195,05,194,13,,,0.82,0.43,0.70,1*08
$GNGSA,A,3,80,85,70,73,84,86,79,69,71,,,,0.82,0.43,0.70,2*0B
$GNGSA,A,3,13,08,07,15,26,02,03,,,,,,0.82,0.43,0.70,3*05
$GNGSA,A,3,38,39,08,16,06,13,46,09,20,19,37,29,0.82,0.43,0.70,4*0A
$GNGSA,A,3,36,35,,,,,,,,,,,0.82,0.43,0.70,4*0D
$GPGSV,5,1,17,24,82,112,45,196,74,058,39,18,61,276,45,199,60,167,32,1*69
$GPGSV,5,2,17,45,47,231,38,15,44,033,35,23,39,330,44,195,39,179,33,1*5D
$GPGSV,5,3,17,05,27,107,31,194,26,141,34,13,16,048,22,12,12,151,16,1*50
$GPGSV,5,4,17,10,09,312,16,29,07,206,,20,06,122,,32,03,258,,1*6C
$GPGSV,5,5,17,25,01,184,,1*59
$GPGSV,2,1,07,24,82,112,47,196,74,058,44,18,61,276,47,199,60,167,43,8*6A
$GPGSV,2,2,07,23,39,330,44,195,39,179,41,194,26,141,35,8*56
$GLGSV,3,1,09,80,45,101,40,85,44,266,35,70,39,351,25,73,23,165,33,1*7D
$GLGSV,3,2,09,84,22,195,19,86,22,317,28,79,20,043,15,69,18,059,17,1*7B
$GLGSV,3,3,09,71,16,299,27,1*47
$GAGSV,3,1,09,13,64,253,41,08,51,012,31,07,41,288,19,15,34,174,26,7*79
$GAGSV,3,2,09,26,26,316,25,02,22,097,20,30,17,151,19,03,16,056,23,7*78
$GAGSV,3,3,09,25,05,052,,7*4F
$GAGSV,2,1,06,13,64,253,45,08,51,012,34,07,41,288,36,15,34,174,36,1*7C
$GAGSV,2,2,06,26,26,316,33,03,16,056,21,1*73
$GBGSV,4,1,14,38,80,060,43,39,73,261,44,08,72,007,32,16,66,239,43,1*7C
$GBGSV,4,2,14,06,64,236,42,13,63,341,36,46,52,132,46,09,47,227,35,1*78
$GBGSV,4,3,14,20,46,046,44,19,43,330,45,37,29,057,30,29,28,221,45,1*77
$GBGSV,4,4,14,35,24,282,18,36,23,185,35,1*7C
$GBGSV,3,1,09,38,80,060,44,39,73,261,45,46,52,132,47,20,46,046,43,4*74
$GBGSV,3,2,09,19,43,330,43,37,29,057,17,29,28,221,39,35,24,282,24,4*7C
$GBGSV,3,3,09,36,23,185,34,4*45
$GNGGA,105733.000,2500.7990121,N,12132.4849765,E,2,61,0.43,15.708,M,15.25,M,14,3335*7D
$GNRMC,105733.000,A,2500.7990121,N,12132.4849765,E,0.00,0.95,260623,,,D,V*07
$GPHDT,,T*1B
$GNGGA,105733.200,2500.7990121,N,12132.4849585,E,2,61,0.43,15.692,M,15.25,M,14,3335*71
$GNRMC,105733.200,A,2500.7990121,N,12132.4849585,E,0.00,0.95,260623,,,D,V*09
$GPHDT,,T*1B
$GNGGA,105733.400,2500.7990241,N,12132.4849465,E,2,61,0.43,15.676,M,15.25,M,14,3335*77
$GNRMC,105733.400,A,2500.7990241,N,12132.4849465,E,0.00,0.95,260623,,,D,V*05
$GPHDT,,T*1B
$GNGGA,105733.600,2500.7990301,N,12132.4849225,E,2,61,0.43,15.664,M,15.25,M,14,3335*71
$GNRMC,105733.600,A,2500.7990301,N,12132.4849225,E,0.00,0.95,260623,,,D,V*00
$GPHDT,,T*1B
$GNGGA,105733.800,2500.7990301,N,12132.4849105,E,2,61,0.43,15.643,M,15.25,M,14,3335*7B
$GNRMC,105733.800,A,2500.7990301,N,12132.4849105,E,0.00,0.95,260623,,,D,V*0F
$GPHDT,,T*1B
$GNGSA,A,3,24,196,18,199,15,23,195,05,194,13,,,0.82,0.43,0.70,1*08
$GNGSA,A,3,80,85,70,73,84,86,79,69,71,,,,0.82,0.43,0.70,2*0B
$GNGSA,A,3,13,08,07,15,26,02,03,,,,,,0.82,0.43,0.70,3*05
$GNGSA,A,3,38,39,08,16,06,13,46,09,20,19,37,29,0.82,0.43,0.70,4*0A
$GNGSA,A,3,36,35,,,,,,,,,,,0.82,0.43,0.70,4*0D
$GPGSV,5,1,17,24,82,112,45,196,74,058,39,18,61,276,45,199,60,167,32,1*69
$GPGSV,5,2,17,45,47,231,38,15,44,033,36,23,39,330,44,195,39,179,33,1*5E
$GPGSV,5,3,17,05,27,107,31,194,26,141,34,13,16,048,24,12,12,151,15,1*55
$GPGSV,5,4,17,10,09,312,17,29,07,206,,20,06,122,,32,03,258,,1*6D
$GPGSV,5,5,17,25,01,184,,1*59
$GPGSV,2,1,07,24,82,112,47,196,74,058,44,18,61,276,47,199,60,167,43,8*6A
$GPGSV,2,2,07,23,39,330,44,195,39,179,41,194,26,141,34,8*57
$GLGSV,3,1,09,80,45,101,41,85,44,266,34,70,39,351,25,73,23,165,33,1*7D
$GLGSV,3,2,09,84,22,195,19,86,22,317,28,79,20,043,15,69,18,059,18,1*74
$GLGSV,3,3,09,71,16,299,27,1*47
$GAGSV,3,1,09,13,64,253,41,08,51,012,32,07,41,288,17,15,34,174,26,7*74
$GAGSV,3,2,09,26,26,316,22,02,22,097,20,30,17,151,19,03,15,056,22,7*7D
$GAGSV,3,3,09,25,05,052,,7*4F
$GAGSV,2,1,06,13,64,253,44,08,51,012,34,07,41,288,36,15,34,174,36,1*7D
$GAGSV,2,2,06,26,26,316,33,03,15,056,22,1*73
$GBGSV,4,1,15,38,80,060,43,39,73,261,44,08,72,007,31,16,66,239,43,1*7E
$GBGSV,4,2,15,06,64,236,42,13,63,341,36,46,52,132,46,09,47,227,35,1*79
$GBGSV,4,3,15,20,46,046,42,19,43,330,45,37,29,057,28,29,28,221,45,1*79
$GBGSV,4,4,15,35,24,282,17,36,23,185,35,10,04,205,,1*40
$GBGSV,3,1,09,38,80,060,44,39,73,261,45,46,52,132,47,20,46,046,42,4*75
$GBGSV,3,2,09,19,43,330,43,37,29,057,17,29,28,221,39,35,24,282,23,4*7B
$GBGSV,3,3,09,36,23,185,34,4*45
$GNGGA,105734.000,2500.7990301,N,12132.4848985,E,2,61,0.43,15.624,M,15.25,M,15,3335*75
$GNRMC,105734.000,A,2500.7990301,N,12132.4848985,E,0.00,0.95,260623,,,D,V*01
$GPHDT,,T*1B
$GNGGA,105734.200,2500.7990301,N,12132.4848805,E,2,61,0.43,15.618,M,15.25,M,15,3335*71
$GNRMC,105734.200,A,2500.7990301,N,12132.4848805,E,0.00,0.95,260623,,,D,V*0A
$GPHDT,,T*1B
$GNGGA,105734.400,2500.7990361,N,12132.4848565,E,2,61,0.43,15.599,M,15.25,M,15,3335*70
$GNRMC,105734.400,A,2500.7990361,N,12132.4848565,E,0.00,0.95,260623,,,D,V*01
$GPHDT,,T*1B
$GNGGA,105734.600,2500.7990361,N,12132.4848445,E,2,61,0.43,15.562,M,15.25,M,15,3335*75
$GNRMC,105734.600,A,2500.7990361,N,12132.4848445,E,0.00,0.95,260623,,,D,V*00
$GPHDT,,T*1B
$GNGGA,105734.800,2500.7990361,N,12132.4848385,E,2,61,0.43,15.527,M,15.25,M,15,3335*71
$GNRMC,105734.800,A,2500.7990361,N,12132.4848385,E,0.00,0.95,260623,,,D,V*05
$GPHDT,,T*1B
$GNGSA,A,3,24,196,18,199,15,195,23,05,194,13,,,0.82,0.43,0.70,1*08
$GNGSA,A,3,80,85,70,73,86,84,79,69,71,,,,0.82,0.43,0.70,2*0B
$GNGSA,A,3,13,08,07,15,26,02,03,,,,,,0.82,0.43,0.70,3*05
$GNGSA,A,3,38,39,08,16,06,13,46,09,20,19,37,29,0.82,0.43,0.70,4*0A
$GNGSA,A,3,36,35,,,,,,,,,,,0.82,0.43,0.70,4*0D
$GPGSV,5,1,17,24,82,112,44,196,74,058,39,18,61,276,45,199,60,167,33,1*69
$GPGSV,5,2,17,45,47,231,38,15,44,033,36,195,39,179,31,23,39,330,44,1*5C
$GPGSV,5,3,17,05,27,107,29,194,26,141,34,13,16,048,27,12,12,151,14,1*5E
$GPGSV,5,4,17,10,09,312,19,29,07,206,,20,06,122,,32,03,258,,1*63
$GPGSV,5,5,17,25,01,184,,1*59
$GPGSV,2,1,07,24,82,112,47,196,74,058,44,18,61,276,47,199,60,167,43,8*6A
$GPGSV,2,2,07,23,39,330,44,195,39,179,41,194,26,141,32,8*51
$GLGSV,3,1,09,80,45,101,44,85,44,266,33,70,39,351,25,73,23,165,33,1*7F
$GLGSV,3,2,09,86,22,317,27,84,22,195,19,79,20,043,16,69,18,059,18,1*78
$GLGSV,3,3,09,71,16,299,29,1*49
$GAGSV,3,1,09,13,64,253,42,08,51,012,32,07,41,289,16,15,34,174,25,7*74
$GAGSV,3,2,09,26,26,316,21,02,22,097,20,30,17,151,19,03,15,056,23,7*7F
$GAGSV,3,3,09,25,05,052,,7*4F
$GAGSV,2,1,06,13,64,253,44,08,51,012,36,07,41,289,36,15,34,174,36,1*7E
$GAGSV,2,2,06,26,26,316,33,03,15,056,23,1*72
$GBGSV,5,1,17,38,80,060,43,39,73,261,44,08,72,007,34,16,66,239,43,1*78
$GBGSV,5,2,17,06,64,236,42,13,63,341,37,46,52,132,46,09,47,227,35,1*7B
$GBGSV,5,3,17,20,46,046,41,19,43,330,45,31,32,204,,37,29,057,25,1*70
$GBGSV,5,4,17,29,28,221,45,35,24,282,15,36,23,185,34,07,05,195,,1*7C
$GBGSV,5,5,17,30,03,174,,1*42
$GBGSV,3,1,09,38,80,060,44,39,73,261,45,46,52,132,47,20,46,046,44,4*73
$GBGSV,3,2,09,19,43,330,43,37,29,057,22,29,28,221,39,35,24,282,22,4*7C
$GBGSV,3,3,09,36,23,185,34,4*45
$GNGGA,105735.000,2500.7990361,N,12132.4848265,E,2,61,0.43,15.506,M,15.25,M,16,3335*77
$GNRMC,105735.000,A,2500.7990361,N,12132.4848265,E,0.00,0.95,260623,,,D,V*03
$GPHDT,,T*1B
$GNGGA,105735.200,2500.7990361,N,12132.4848205,E,2,61,0.43,15.479,M,15.25,M,16,3335*7A
$GNRMC,105735.200,A,2500.7990361,N,12132.4848205,E,0.00,0.95,260623,,,D,V*07
$GPHDT,,T*1B
$GNGGA,105735.400,2500.7990421,N,12132.4848025,E,2,61,0.43,15.464,M,15.25,M,16,3335*73
$GNRMC,105735.400,A,2500.7990421,N,12132.4848025,E,0.00,0.95,260623,,,D,V*02
$GPHDT,,T*1B
$GNGGA,105735.600,2500.7990481,N,12132.4847965,E,2,61,0.43,15.437,M,15.25,M,16,3335*7F
$GNRMC,105735.600,A,2500.7990481,N,12132.4847965,E,0.00,0.95,260623,,,D,V*08
$GPHDT,,T*1B
$GNGGA,105735.800,2500.7990481,N,12132.4847845,E,2,61,0.43,15.409,M,15.25,M,16,3335*7F
$GNRMC,105735.800,A,2500.7990481,N,12132.4847845,E,0.00,0.95,260623,,,D,V*05
$GPHDT,,T*1B
$GNGSA,A,3,24,196,18,199,15,23,195,05,194,13,,,0.81,0.43,0.69,1*03
$GNGSA,A,3,80,85,70,73,84,86,79,69,71,,,,0.81,0.43,0.69,2*00
$GNGSA,A,3,13,08,07,15,26,02,03,,,,,,0.81,0.43,0.69,3*0E
$GNGSA,A,3,38,39,08,16,06,13,46,09,20,19,37,29,0.81,0.43,0.69,4*01
$GNGSA,A,3,36,35,,,,,,,,,,,0.81,0.43,0.69,4*06
$GPGSV,5,1,17,24,82,112,44,196,74,058,39,18,61,276,45,199,60,167,33,1*69
$GPGSV,5,2,17,45,47,231,37,15,44,033,40,23,39,330,44,195,39,179,31,1*52
$GPGSV,5,3,17,05,27,107,30,194,26,141,34,13,16,048,25,12,12,151,13,1*53
$GPGSV,5,4,17,10,09,312,19,29,07,206,,20,06,122,,32,03,258,,1*63
$GPGSV,5,5,17,25,01,184,,1*59
$GPGSV,2,1,07,24,82,112,47,196,74,058,44,18,61,276,47,199,60,167,43,8*6A
$GPGSV,2,2,07,23,39,330,44,195,39,179,41,194,26,141,33,8*50
$GLGSV,3,1,09,80,45,101,44,85,44,266,32,70,39,351,25,73,23,165,33,1*7E
$GLGSV,3,2,09,84,22,195,19,86,22,317,28,79,20,043,17,69,18,059,18,1*76
$GLGSV,3,3,09,71,16,299,30,1*41
$GAGSV,3,1,09,13,64,252,42,08,51,012,31,07,41,289,16,15,34,174,25,7*76
$GAGSV,3,2,09,26,26,316,21,02,22,097,20,30,17,151,19,03,15,056,25,7*79
$GAGSV,3,3,09,25,05,052,,7*4F
$GAGSV,2,1,06,13,64,252,44,08,51,012,36,07,41,289,36,15,34,174,36,1*7F
$GAGSV,2,2,06,26,26,316,34,03,15,056,25,1*73
$GBGSV,4,1,14,38,80,060,43,39,73,261,44,08,72,007,34,16,66,239,43,1*7A
$GBGSV,4,2,14,06,64,236,42,13,63,341,37,46,52,132,45,09,47,227,35,1*7A
$GBGSV,4,3,14,20,46,046,43,19,43,330,45,37,29,057,24,29,28,221,45,1*75
$GBGSV,4,4,14,35,24,282,13,36,23,185,34,1*76
$GBGSV,3,1,09,38,80,060,44,39,73,261,45,46,52,132,47,20,46,046,44,4*73
$GBGSV,3,2,09,19,43,330,43,37,29,057,20,29,28,221,39,35,24,282,22,4*7E
$GBGSV,3,3,09,36,23,185,34,4*45
$GNGGA,105736.000,2500.7990481,N,12132.4847725,E,2,61,0.43,15.387,M,15.25,M,17,3335*7D
$GNRMC,105736.000,A,2500.7990481,N,12132.4847725,E,0.00,0.95,260623,,,D,V*07
$GPHDT,,T*1B
$GNGGA,105736.200,2500.7990541,N,12132.4847545,E,2,60,0.43,15.370,M,15.25,M,14,3335*7C
$GNRMC,105736.200,A,2500.7990541,N,12132.4847545,E,0.00,0.95,260623,,,D,V*0C
$GPHDT,,T*1B
$GNGGA,105736.400,2500.7990601,N,12132.4847365,E,2,60,0.43,15.346,M,15.25,M,14,3335*7C
$GNRMC,105736.400,A,2500.7990601,N,12132.4847365,E,0.00,0.95,260623,,,D,V*09
$GPHDT,,T*1B
$GNGGA,105736.600,2500.7990661,N,12132.4847185,E,2,61,0.43,15.330,M,15.25,M,0,3335*41
$GNRMC,105736.600,A,2500.7990661,N,12132.4847185,E,0.00,0.95,260623,,,D,V*01
$GPHDT,,T*1B
$GNGGA,105736.800,2500.7990721,N,12132.4847065,E,2,61,0.43,15.307,M,15.25,M,0,3335*41
$GNRMC,105736.800,A,2500.7990721,N,12132.4847065,E,0.00,0.95,260623,,,D,V*05
$GPHDT,,T*1B
$GNGSA,A,3,24,196,18,199,15,23,195,05,194,13,,,0.81,0.43,0.69,1*03
$GNGSA,A,3,80,85,70,73,84,86,79,69,71,,,,0.81,0.43,0.69,2*00
$GNGSA,A,3,13,08,07,15,26,02,03,,,,,,0.81,0.43,0.69,3*0E
$GNGSA,A,3,38,39,08,16,06,13,46,09,20,19,37,29,0.81,0.43,0.69,4*01
$GNGSA,A,3,36,35,,,,,,,,,,,0.81,0.43,0.69,4*06
$GPGSV,5,1,17,24,82,112,44,196,74,058,39,18,61,276,45,199,60,167,34,1*6E
$GPGSV,5,2,17,45,47,231,37,15,44,033,41,23,39,330,44,195,39,179,31,1*53
$GPGSV,5,3,17,05,27,107,31,194,26,141,34,13,16,048,29,12,12,151,14,1*59
$GPGSV,5,4,17,10,09,312,20,29,07,206,,20,06,122,,32,03,258,,1*69
$GPGSV,5,5,17,25,01,184,,1*59
$GPGSV,2,1,07,24,82,112,47,196,74,058,44,18,61,276,47,199,60,167,43,8*6A
$GPGSV,2,2,07,23,39,330,44,195,39,179,41,194,26,141,33,8*50
$GLGSV,3,1,09,80,45,101,44,85,44,266,32,70,39,351,25,73,23,165,34,1*79
$GLGSV,3,2,09,84,22,195,19,86,22,317,28,79,20,043,22,69,18,059,19,1*71
$GLGSV,3,3,09,71,16,299,30,1*41
$GAGSV,3,1,09,13,64,252,42,08,51,012,32,07,41,289,16,15,34,174,25,7*75
$GAGSV,3,2,09,26,26,316,21,02,22,097,20,30,17,151,17,03,15,056,25,7*77
$GAGSV,3,3,09,25,05,052,,7*4F
$GAGSV,2,1,06,13,64,252,44,08,51,012,36,07,41,289,36,15,34,174,36,1*7F
$GAGSV,2,2,06,26,26,316,33,03,15,056,23,1*72
$GBGSV,4,1,14,38,80,060,43,39,73,261,44,08,72,007,34,16,66,239,43,1*7A
$GBGSV,4,2,14,06,64,236,42,13,63,341,37,46,52,132,45,09,47,227,35,1*7A
$GBGSV,4,3,14,20,46,046,44,19,43,330,45,37,29,057,28,29,28,221,45,1*7E
$GBGSV,4,4,14,35,24,282,14,36,23,185,34,1*71
$GBGSV,3,1,09,38,80,060,44,39,73,261,45,46,52,132,47,20,46,046,45,4*72
$GBGSV,3,2,09,19,43,330,43,37,29,057,20,29,28,221,39,35,24,282,23,4*7F
$GBGSV,3,3,09,36,23,185,34,4*45
$GNGGA,105737.000,2500.7990781,N,12132.4846885,E,2,61,0.43,15.296,M,15.25,M,1,3335*4D
$GNRMC,105737.000,A,2500.7990781,N,12132.4846885,E,0.00,0.95,260623,,,D,V*01
$GPHDT,,T*1B
$GNGGA,105737.200,2500.7989581,N,12132.4853643,E,4,61,0.43,15.916,M,15.25,M,1,3335*40
$GNRMC,105737.200,A,2500.7989581,N,12132.4853643,E,0.00,0.95,260623,,,R,V*1F
$GPHDT,,T*1B
$GNGGA,105737.400,2500.7989582,N,12132.4853633,E,4,62,0.43,15.914,M,15.25,M,1,3335*43
$GNRMC,105737.400,A,2500.7989582,N,12132.4853633,E,0.00,0.95,260623,,,R,V*1D
$GPHDT,,T*1B
$GNGGA,105737.600,2500.7989614,N,12132.4853637,E,4,62,0.43,15.922,M,15.25,M,1,3335*4C
$GNRMC,105737.600,A,2500.7989614,N,12132.4853637,E,0.00,0.95,260623,,,R,V*17
$GPHDT,,T*1B
$GNGGA,105737.800,2500.7989622,N,12132.4853625,E,4,62,0.43,15.917,M,15.25,M,1,3335*42
$GNRMC,105737.800,A,2500.7989622,N,12132.4853625,E,0.00,0.95,260623,,,R,V*1F
$GPHDT,,T*1B
$GNGSA,A,3,24,196,18,199,15,23,195,05,194,13,,,0.81,0.43,0.69,1*03
$GNGSA,A,3,80,85,70,73,84,86,79,69,71,,,,0.81,0.43,0.69,2*00
$GNGSA,A,3,13,08,07,15,26,02,03,,,,,,0.81,0.43,0.69,3*0E
$GNGSA,A,3,38,39,08,16,06,13,46,09,20,19,37,29,0.81,0.43,0.69,4*01
$GNGSA,A,3,36,35,,,,,,,,,,,0.81,0.43,0.69,4*06
$GPGSV,5,1,17,24,82,112,44,196,74,058,39,18,61,276,45,199,60,167,33,1*69
$GPGSV,5,2,17,45,47,231,38,15,44,033,41,23,39,330,44,195,39,179,31,1*5C
$GPGSV,5,3,17,05,27,107,32,194,26,141,34,13,16,048,29,12,12,151,13,1*5D
$GPGSV,5,4,17,10,09,312,21,29,07,206,,20,06,122,,32,03,258,,1*68
$GPGSV,5,5,17,25,01,184,,1*59
$GPGSV,2,1,07,24,82,112,47,196,74,058,44,18,61,276,47,199,60,167,43,8*6A
$GPGSV,2,2,07,23,39,330,44,195,39,179,41,194,26,141,33,8*50
$GLGSV,3,1,09,80,45,101,44,85,44,266,32,70,39,351,25,73,23,165,34,1*79
$GLGSV,3,2,09,84,22,195,19,86,22,317,27,79,20,043,24,69,18,059,19,1*78
$GLGSV,3,3,09,71,16,299,30,1*41
$GAGSV,3,1,09,13,64,252,42,08,51,012,31,07,41,289,16,15,34,174,25,7*76
$GAGSV,3,2,09,26,26,316,20,02,22,097,20,30,17,151,17,03,15,056,25,7*76
$GAGSV,3,3,09,25,05,052,,7*4F
$GAGSV,2,1,07,13,64,252,44,08,51,012,36,07,41,289,36,15,34,174,36,1*7E
$GAGSV,2,2,07,26,26,316,34,02,22,097,21,03,15,056,23,1*4B
$GBGSV,4,1,14,38,80,060,43,39,73,261,44,08,72,007,34,16,66,239,43,1*7A
$GBGSV,4,2,14,06,64,236,42,13,63,341,37,46,52,132,45,09,47,227,35,1*7A
$GBGSV,4,3,14,20,46,046,44,19,43,330,45,37,29,057,28,29,28,221,45,1*7E
$GBGSV,4,4,14,35,24,282,14,36,23,185,34,1*71
$GBGSV,3,1,09,38,80,060,44,39,73,261,45,46,52,132,47,20,46,046,45,4*72
$GBGSV,3,2,09,19,43,330,43,37,29,057,22,29,28,221,38,35,24,282,23,4*7C
$GBGSV,3,3,09,36,23,185,35,4*44
$GNGGA,105738.000,2500.7989595,N,12132.4853638,E,4,62,0.43,15.917,M,15.25,M,2,3335*45
$GNRMC,105738.000,A,2500.7989595,N,12132.4853638,E,0.00,0.95,260623,,,R,V*1B
$GPHDT,,T*1B
$GNGGA,105738.200,2500.7989599,N,12132.4853635,E,4,62,0.43,15.915,M,15.25,M,2,3335*44
$GNRMC,105738.200,A,2500.7989599,N,12132.4853635,E,0.00,0.95,260623,,,R,V*18
$GPHDT,,T*1B
$GNGGA,105738.400,2500.7989602,N,12132.4853627,E,4,62,0.43,15.915,M,15.25,M,2,3335*40
$GNRMC,105738.400,A,2500.7989602,N,12132.4853627,E,0.00,0.95,260623,,,R,V*1C
$GPHDT,,T*1B
$GNGGA,105738.600,2500.7989593,N,12132.4853637,E,4,62,0.43,15.907,M,15.25,M,2,3335*4B
$GNRMC,105738.600,A,2500.7989593,N,12132.4853637,E,0.00,0.95,260623,,,R,V*14
$GPHDT,,T*1B
$GNGGA,105738.800,2500.7989593,N,12132.4853646,E,4,62,0.43,15.916,M,15.25,M,2,3335*43
$GNRMC,105738.800,A,2500.7989593,N,12132.4853646,E,0.00,0.95,260623,,,R,V*1C
$GPHDT,,T*1B
$GNGSA,A,3,24,196,18,199,15,23,195,05,194,13,,,0.81,0.43,0.69,1*03
$GNGSA,A,3,80,85,70,73,84,86,79,69,71,,,,0.81,0.43,0.69,2*00
$GNGSA,A,3,13,08,07,15,26,02,03,,,,,,0.81,0.43,0.69,3*0E
$GNGSA,A,3,38,39,08,16,06,13,46,09,20,19,37,29,0.81,0.43,0.69,4*01
$GNGSA,A,3,36,35,,,,,,,,,,,0.81,0.43,0.69,4*06
$GPGSV,5,1,17,24,82,112,44,196,74,058,39,18,61,276,45,199,60,167,33,1*69
$GPGSV,5,2,17,45,47,231,38,15,44,033,41,23,39,330,44,195,39,179,31,1*5C
$GPGSV,5,3,17,05,27,107,32,194,26,141,34,13,16,048,29,12,12,151,13,1*5D
$GPGSV,5,4,17,10,09,312,21,29,07,206,,20,06,122,,32,03,258,,1*68
$GPGSV,5,5,17,25,01,184,,1*59
$GPGSV,2,1,07,24,82,112,47,196,74,058,44,18,61,276,47,199,60,167,43,8*6A
$GPGSV,2,2,07,23,39,330,44,195,39,179,41,194,26,141,34,8*57
$GLGSV,3,1,09,80,45,101,44,85,44,266,32,70,39,351,26,73,23,165,34,1*7A
$GLGSV,3,2,09,84,22,195,19,86,22,317,27,79,20,043,25,69,18,059,19,1*79
$GLGSV,3,3,09,71,16,299,30,1*41
$GAGSV,3,1,09,13,64,252,42,08,51,012,32,07,41,289,17,15,34,174,25,7*74
$GAGSV,3,2,09,26,26,316,19,02,22,097,20,30,17,151,17,03,15,056,25,7*7C
$GAGSV,3,3,09,25,05,052,,7*4F
$GAGSV,2,1,07,13,64,252,44,08,51,012,36,07,41,289,36,15,34,174,36,1*7E
$GAGSV,2,2,07,26,26,316,34,02,22,097,23,03,15,056,23,1*49
$GBGSV,4,1,15,38,80,060,43,39,73,261,44,08,72,007,34,16,66,239,43,1*7B
$GBGSV,4,2,15,06,64,236,42,13,63,341,37,46,52,132,45,09,47,227,35,1*7B
$GBGSV,4,3,15,20,46,046,44,19,43,330,45,37,29,057,25,29,28,221,45,1*72
$GBGSV,4,4,15,35,24,282,14,36,23,185,33,32,07,089,,1*40
$GBGSV,3,1,09,38,80,060,44,39,73,261,45,46,52,132,47,20,46,046,45,4*72
$GBGSV,3,2,09,19,43,330,43,37,29,057,22,29,28,221,38,35,24,282,23,4*7C
$GBGSV,3,3,09,36,23,185,35,4*44
$GNGGA,105739.000,2500.7989601,N,12132.4853648,E,4,62,0.43,15.916,M,15.25,M,3,3335*4D
$GNRMC,105739.000,A,2500.7989601,N,12132.4853648,E,0.00,0.95,260623,,,R,V*13
$GPHDT,,T*1B
$GNGGA,105739.200,2500.7989592,N,12132.4853645,E,4,62,0.43,15.913,M,15.25,M,3,3335*4E
$GNRMC,105739.200,A,2500.7989592,N,12132.4853645,E,0.00,0.95,260623,,,R,V*15
$GPHDT,,T*1B
$GNGGA,105739.400,2500.7989605,N,12132.4853632,E,4,62,0.43,15.922,M,15.25,M,3,3335*47
$GNRMC,105739.400,A,2500.7989605,N,12132.4853632,E,0.00,0.95,260623,,,R,V*1E
$GPHDT,,T*1B
$GNGGA,105739.600,2500.7989589,N,12132.4853619,E,4,62,0.43,15.914,M,15.25,M,3,3335*4E
$GNRMC,105739.600,A,2500.7989589,N,12132.4853619,E,0.00,0.95,260623,,,R,V*12
$GPHDT,,T*1B
$GNGGA,105739.800,2500.7989581,N,12132.4853639,E,4,62,0.43,15.911,M,15.25,M,3,3335*4F
$GNRMC,105739.800,A,2500.7989581,N,12132.4853639,E,0.00,0.95,260623,,,R,V*16
$GPHDT,,T*1B
$GNGSA,A,3,24,196,18,199,15,195,23,05,194,13,,,0.81,0.43,0.69,1*03
$GNGSA,A,3,80,85,70,73,86,84,79,69,71,,,,0.81,0.43,0.69,2*00
$GNGSA,A,3,13,08,07,15,26,02,03,,,,,,0.81,0.43,0.69,3*0E
$GNGSA,A,3,38,39,08,16,06,13,46,09,20,19,37,29,0.81,0.43,0.69,4*01
$GNGSA,A,3,36,35,,,,,,,,,,,0.81,0.43,0.69,4*06
$GPGSV,5,1,17,24,82,112,44,196,74,058,39,18,61,276,45,199,60,167,33,1*69
$GPGSV,5,2,17,45,47,231,38,15,44,033,41,195,39,179,32,23,39,330,44,1*5F
$GPGSV,5,3,17,05,27,107,32,194,26,141,34,13,16,048,27,12,12,151,13,1*53
$GPGSV,5,4,17,10,09,312,23,29,07,206,,20,06,122,,32,03,258,,1*6A
$GPGSV,5,5,17,25,01,184,,1*59
$GPGSV,2,1,07,24,82,112,47,196,74,058,44,18,61,276,47,199,60,167,43,8*6A
$GPGSV,2,2,07,23,39,330,44,195,39,179,41,194,26,141,34,8*57
$GLGSV,3,1,09,80,45,101,44,85,44,266,31,70,39,351,26,73,23,165,34,1*79
$GLGSV,3,2,09,86,22,317,27,84,22,195,19,79,20,043,25,69,18,059,20,1*73
$GLGSV,3,3,09,71,16,299,30,1*41
$GAGSV,3,1,09,13,64,252,42,08,51,012,32,07,41,289,17,15,34,174,25,7*74
$GAGSV,3,2,09,26,26,316,18,02,22,097,20,30,18,151,16,03,15,056,25,7*73
$GAGSV,3,3,09,25,05,052,,7*4F
$GAGSV,2,1,07,13,64,252,44,08,51,012,37,07,41,289,36,15,34,174,36,1*7F
$GAGSV,2,2,07,26,26,316,34,02,22,097,20,03,15,056,23,1*4A
$GBGSV,5,1,18,38,80,060,43,39,73,261,44,08,72,007,34,16,66,239,43,1*77
$GBGSV,5,2,18,06,64,236,42,13,63,341,37,46,52,132,45,09,47,227,35,1*77
$GBGSV,5,3,18,20,46,046,44,19,43,330,45,31,32,204,,37,29,057,25,1*7A
$GBGSV,5,4,18,29,28,221,45,35,24,282,13,36,23,185,33,32,07,089,,1*7A
$GBGSV,5,5,18,07,05,195,,10,04,205,,1*72
$GBGSV,3,1,09,38,80,060,44,39,73,261,45,46,52,132,47,20,46,046,45,4*72
$GBGSV,3,2,09,19,43,330,43,37,29,057,23,29,28,221,38,35,24,282,24,4*7A
$GBGSV,3,3,09,36,23,185,35,4*44
$GNGGA,105740.000,2500.7989594,N,12132.4853628,E,4,62,0.43,15.904,M,15.25,M,4,3335*4E
$GNRMC,105740.000,A,2500.7989594,N,12132.4853628,E,0.00,0.95,260623,,,R,V*14
$GPHDT,,T*1B
$GNGGA,105740.200,2500.7989597,N,12132.4853638,E,4,62,0.43,15.917,M,15.25,M,4,3335*4C
$GNRMC,105740.200,A,2500.7989597,N,12132.4853638,E,0.00,0.95,260623,,,R,V*14
$GPHDT,,T*1B
$GNGGA,105740.400,2500.7989593,N,12132.4853634,E,4,62,0.43,15.911,M,15.25,M,4,3335*44
$GNRMC,105740.400,A,2500.7989593,N,12132.4853634,E,0.00,0.95,260623,,,R,V*1A
$GPHDT,,T*1B
$GNGGA,105740.600,2500.7989604,N,12132.4853631,E,4,62,0.43,15.920,M,15.25,M,4,3335*4C
$GNRMC,105740.600,A,2500.7989604,N,12132.4853631,E,0.00,0.95,260623,,,R,V*10
$GPHDT,,T*1B
$GNGGA,105740.800,2500.7989604,N,12132.4853660,E,4,62,0.43,15.908,M,15.25,M,4,3335*4C
$GNRMC,105740.800,A,2500.7989604,N,12132.4853660,E,0.00,0.95,260623,,,R,V*1A
$GPHDT,,T*1B
$GNGSA,A,3,24,196,18,199,15,23,195,05,194,13,,,0.81,0.43,0.69,1*03
$GNGSA,A,3,80,85,70,73,84,86,79,69,71,,,,0.81,0.43,0.69,2*00
$GNGSA,A,3,13,08,07,15,26,02,03,,,,,,0.81,0.43,0.69,3*0E
$GNGSA,A,3,38,39,08,16,06,13,46,09,20,19,37,29,0.81,0.43,0.69,4*01
$GNGSA,A,3,36,35,,,,,,,,,,,0.81,0.43,0.69,4*06
$GPGSV,5,1,17,24,82,112,44,196,74,058,39,18,61,276,45,199,60,167,33,1*69
$GPGSV,5,2,17,45,47,231,38,15,44,033,41,23,39,330,44,195,39,179,31,1*5C
$GPGSV,5,3,17,05,27,107,32,194,26,141,34,13,16,048,28,12,12,151,,1*5E
$GPGSV,5,4,17,10,09,312,24,29,07,206,,20,06,122,,32,03,258,,1*6D
$GPGSV,5,5,17,25,01,184,,1*59
$GPGSV,2,1,07,24,82,112,47,196,74,058,44,18,61,276,47,199,60,167,43,8*6A
$GPGSV,2,2,07,23,39,330,44,195,39,179,41,194,26,141,34,8*57
$GLGSV,3,1,09,80,45,101,45,85,44,266,31,70,39,351,26,73,23,165,34,1*78
$GLGSV,3,2,09,84,22,195,19,86,22,317,27,79,20,043,25,69,18,059,23,1*70
$GLGSV,3,3,09,71,16,299,30,1*41
$GAGSV,3,1,09,13,64,252,42,08,51,012,32,07,41,289,14,15,34,174,23,7*71
$GAGSV,3,2,09,26,26,316,17,02,22,097,20,30,18,151,16,03,15,056,24,7*7D
$GAGSV,3,3,09,25,05,052,,7*4F
$GAGSV,2,1,07,13,64,252,44,08,51,012,37,07,41,289,36,15,34,174,36,1*7F
$GAGSV,2,2,07,26,26,316,34,02,22,097,22,03,15,056,23,1*48
$GBGSV,4,1,15,38,80,060,43,39,73,261,44,08,72,007,34,16,66,239,43,1*7B
$GBGSV,4,2,15,06,64,236,42,13,63,341,37,46,52,132,45,09,47,227,35,1*7B
$GBGSV,4,3,15,20,46,046,44,19,43,330,45,37,29,057,29,29,28,221,45,1*7E
$GBGSV,4,4,15,35,24,282,17,36,23,185,33,07,05,195,,1*4B
$GBGSV,3,1,09,38,80,060,44,39,73,261,45,46,52,132,47,20,46,046,45,4*72
$GBGSV,3,2,09,19,43,330,43,37,29,057,23,29,28,221,38,35,24,282,24,4*7A
$GBGSV,3,3,09,36,23,185,35,4*44
$GNGGA,105741.000,2500.7989607,N,12132.4853621,E,4,62,0.43,15.916,M,15.25,M,5,3335*4D
$GNRMC,105741.000,A,2500.7989607,N,12132.4853621,E,0.00,0.95,260623,,,R,V*15
$GPHDT,,T*1B
$GNGGA,105741.200,2500.7989618,N,12132.4853659,E,4,62,0.43,15.905,M,15.25,M,5,3335*4C
$GNRMC,105741.200,A,2500.7989618,N,12132.4853659,E,0.00,0.95,260623,,,R,V*16
$GPHDT,,T*1B
$GNGGA,105741.400,2500.7989616,N,12132.4853632,E,4,62,0.43,15.908,M,15.25,M,5,3335*44
$GNRMC,105741.400,A,2500.7989616,N,12132.4853632,E,0.00,0.95,260623,,,R,V*13
$GPHDT,,T*1B
$GNGGA,105741.600,2500.7989630,N,12132.4853611,E,4,62,0.43,15.904,M,15.25,M,5,3335*4F
$GNRMC,105741.600,A,2500.7989630,N,12132.4853611,E,0.00,0.95,260623,,,R,V*14
$GPHDT,,T*1B
$GNGGA,105741.800,2500.7989611,N,12132.4853624,E,4,62,0.43,15.907,M,15.25,M,5,3335*47
$GNRMC,105741.800,A,2500.7989611,N,12132.4853624,E,0.00,0.95,260623,,,R,V*1F
$GPHDT,,T*1B
$GNGSA,A,3,24,196,18,199,15,23,195,05,194,13,,,0.81,0.43,0.69,1*03
$GNGSA,A,3,80,85,70,73,84,86,79,69,71,,,,0.81,0.43,0.69,2*00
$GNGSA,A,3,13,08,07,15,26,02,03,,,,,,0.81,0.43,0.69,3*0E
$GNGSA,A,3,38,39,08,16,06,13,46,09,20,19,37,29,0.81,0.43,0.69,4*01
$GNGSA,A,3,36,35,,,,,,,,,,,0.81,0.43,0.69,4*06
$GPGSV,5,1,17,24,82,112,44,196,74,058,39,18,61,276,45,199,60,167,33,1*69
$GPGSV,5,2,17,45,47,231,37,15,44,033,38,23,39,330,44,195,39,179,31,1*5D
$GPGSV,5,3,17,05,27,107,32,194,26,141,34,13,16,048,28,12,12,151,,1*5E
$GPGSV,5,4,17,10,09,312,24,29,07,206,,20,06,122,,32,03,258,,1*6D
$GPGSV,5,5,17,25,01,184,,1*59
$GPGSV,2,1,07,24,82,112,47,196,74,058,44,18,61,276,47,199,60,167,42,8*6B
$GPGSV,2,2,07,23,39,330,44,195,39,179,41,194,26,141,34,8*57
$GLGSV,3,1,09,80,45,101,45,85,44,266,31,70,39,351,26,73,23,165,34,1*78
$GLGSV,3,2,09,84,22,195,19,86,22,317,28,79,20,043,23,69,18,059,24,1*7E
$GLGSV,3,3,09,71,16,300,31,1*41
$GAGSV,3,1,09,13,64,252,42,08,51,012,32,07,41,289,14,15,34,174,23,7*71
$GAGSV,3,2,09,26,26,316,17,02,22,097,20,30,18,151,14,03,15,056,23,7*78
$GAGSV,3,3,09,25,05,052,,7*4F
$GAGSV,2,1,07,13,64,252,44,08,51,012,37,07,41,289,36,15,34,174,36,1*7F
$GAGSV,2,2,07,26,26,316,34,02,22,097,21,03,15,056,23,1*4B
$GBGSV,4,1,14,38,80,060,43,39,73,261,44,08,72,007,33,16,66,239,43,1*7D
$GBGSV,4,2,14,06,64,236,42,13,63,341,37,46,52,132,45,09,47,227,35,1*7A
$GBGSV,4,3,14,20,46,046,44,19,43,330,45,37,29,057,30,29,28,221,45,1*77
$GBGSV,4,4,14,35,24,282,15,36,23,185,33,1*77
$GBGSV,3,1,09,38,80,060,44,39,73,261,45,46,52,132,47,20,46,046,44,4*73
$GBGSV,3,2,09,19,43,330,43,37,29,057,23,29,28,221,37,35,24,282,24,4*75
$GBGSV,3,3,09,36,23,185,35,4*44
$GNGGA,105742.000,2500.7989623,N,12132.4853639,E,4,62,0.43,15.906,M,15.25,M,6,3335*43
$GNRMC,105742.000,A,2500.7989623,N,12132.4853639,E,0.00,0.95,260623,,,R,V*19
$GPHDT,,T*1B
$GNGGA,105742.200,2500.7989601,N,12132.4853618,E,4,62,0.43,15.911,M,15.25,M,6,3335*44
$GNRMC,105742.200,A,2500.7989601,N,12132.4853618,E,0.00,0.95,260623,,,R,V*18
$GPHDT,,T*1B
$GNGGA,105742.400,2500.7989623,N,12132.4853607,E,4,62,0.43,15.902,M,15.25,M,5,3335*4D
$GNRMC,105742.400,A,2500.7989623,N,12132.4853607,E,0.00,0.95,260623,,,R,V*10
$GPHDT,,T*1B
$GNGGA,105742.600,2500.7989588,N,12132.4853604,E,4,62,0.43,15.923,M,15.25,M,5,3335*4D
$GNRMC,105742.600,A,2500.7989588,N,12132.4853604,E,0.00,0.95,260623,,,R,V*13
$GPHDT,,T*1B
$GNGGA,105742.800,2500.7989612,N,12132.4853615,E,4,62,0.43,15.923,M,15.25,M,5,3335*43
$GNRMC,105742.800,A,2500.7989612,N,12132.4853615,E,0.00,0.95,260623,,,R,V*1D
$GPHDT,,T*1B
$GNGSA,A,3,24,196,18,199,15,23,195,05,194,13,,,0.82,0.43,0.70,1*08
$GNGSA,A,3,80,85,70,73,84,86,79,69,71,,,,0.82,0.43,0.70,2*0B
$GNGSA,A,3,13,08,07,15,26,02,03,,,,,,0.82,0.43,0.70,3*05
$GNGSA,A,3,38,39,08,16,06,13,46,09,20,19,37,29,0.82,0.43,0.70,4*0A
$GNGSA,A,3,36,35,,,,,,,,,,,0.82,0.43,0.70,4*0D
$GPGSV,5,1,17,24,82,112,44,196,74,058,39,18,61,276,45,199,60,167,34,1*6E
$GPGSV,5,2,17,45,47,231,37,15,44,033,36,23,39,330,44,195,39,179,33,1*51
$GPGSV,5,3,17,05,27,107,32,194,26,141,35,13,16,048,27,12,12,151,,1*50
$GPGSV,5,4,17,10,09,312,24,29,07,206,,20,06,122,,32,03,258,,1*6D
$GPGSV,5,5,17,25,01,184,,1*59
$GPGSV,2,1,07,24,82,112,47,196,74,058,44,18,61,276,47,199,60,167,42,8*6B
$GPGSV,2,2,07,23,39,330,44,195,39,179,41,194,26,141,34,8*57
$GLGSV,3,1,09,80,45,101,45,85,44,266,29,70,39,351,25,73,23,165,34,1*72
$GLGSV,3,2,09,84,22,195,19,86,22,317,28,79,20,043,22,69,18,059,24,1*7F
$GLGSV,3,3,09,71,16,300,31,1*41
$GAGSV,3,1,09,13,64,252,42,08,51,012,32,07,41,289,15,15,34,174,24,7*77
$GAGSV,3,2,09,26,26,316,17,02,22,097,20,30,18,151,14,03,15,056,21,7*7A
$GAGSV,3,3,09,25,05,052,,7*4F
$GAGSV,2,1,06,13,64,252,44,08,51,012,36,07,41,289,36,15,34,174,36,1*7F
$GAGSV,2,2,06,26,26,316,34,03,15,056,23,1*75
$GBGSV,4,1,14,38,80,060,43,39,73,261,44,08,72,007,33,16,66,239,43,1*7D
$GBGSV,4,2,14,06,64,236,42,13,63,341,37,46,52,132,45,09,47,227,35,1*7A
$GBGSV,4,3,14,20,46,046,40,19,43,330,45,37,29,057,31,29,28,221,45,1*72
$GBGSV,4,4,14,35,24,282,15,36,23,185,33,1*77
$GBGSV,3,1,09,38,80,060,44,39,73,261,45,46,52,132,47,20,46,046,42,4*75
$GBGSV,3,2,09,19,43,330,43,37,29,057,22,29,28,221,37,35,24,282,26,4*76
$GBGSV,3,3,09,36,23,185,35,4*44
$GNGGA,105743.000,2500.7989592,N,12132.4853616,E,4,61,0.43,15.925,M,15.25,M,6,3335*44
$GNRMC,105743.000,A,2500.7989592,N,12132.4853616,E,0.00,0.95,260623,,,R,V*1C
$GPHDT,,T*1B
$GNGGA,105743.200,2500.7989594,N,12132.4853611,E,4,60,0.43,15.920,M,15.25,M,6,3335*43
$GNRMC,105743.200,A,2500.7989594,N,12132.4853611,E,0.00,0.95,260623,,,R,V*1F
$GPHDT,,T*1B
$GNGGA,105743.400,2500.7989586,N,12132.4853549,E,4,61,0.43,15.930,M,15.25,M,6,3335*48
$GNRMC,105743.400,A,2500.7989586,N,12132.4853549,E,0.00,0.95,260623,,,R,V*14
$GPHDT,,T*1B
$GNGGA,105743.600,2500.7989577,N,12132.4853595,E,4,61,0.43,15.922,M,15.25,M,6,3335*46
$GNRMC,105743.600,A,2500.7989577,N,12132.4853595,E,0.00,0.95,260623,,,R,V*19
$GPHDT,,T*1B
$GNGGA,105743.800,2500.7989556,N,12132.4853562,E,4,60,0.43,15.920,M,15.25,M,6,3335*40
$GNRMC,105743.800,A,2500.7989556,N,12132.4853562,E,0.00,0.95,260623,,,R,V*1C
$GPHDT,,T*1B
$GNGSA,A,3,24,196,18,199,15,23,195,05,194,13,,,0.81,0.43,0.69,1*03
$GNGSA,A,3,80,85,70,73,84,86,79,69,71,,,,0.81,0.43,0.69,2*00
$GNGSA,A,3,13,08,07,15,26,02,03,,,,,,0.81,0.43,0.69,3*0E
$GNGSA,A,3,38,39,08,16,06,13,46,09,20,19,37,29,0.81,0.43,0.69,4*01
$GNGSA,A,3,36,35,,,,,,,,,,,0.81,0.43,0.69,4*06
$GPGSV,5,1,17,24,82,112,44,196,74,058,39,18,61,276,45,199,60,167,34,1*6E
$GPGSV,5,2,17,45,47,231,38,15,44,033,37,23,39,330,44,195,39,179,33,1*5F
$GPGSV,5,3,17,05,27,107,32,194,26,141,35,13,16,048,28,12,12,151,,1*5F
$GPGSV,5,4,17,10,09,312,22,29,07,206,,20,06,122,,32,03,258,,1*6B
$GPGSV,5,5,17,25,01,184,,1*59
$GPGSV,2,1,07,24,82,112,47,196,74,058,44,18,61,276,47,199,60,167,42,8*6B
$GPGSV,2,2,07,23,39,330,44,195,39,179,41,194,26,141,34,8*57
$GLGSV,3,1,09,80,45,101,45