$FW : RTK35X,V1.1X0314AS,Lib20210517,1*54
$Tool : LOCOSYS , GNSS Firebird , v1.0.0.19*39
$---------------------------------------------------*2D
,50,016,38,07,42,292,31,15,31,174,28,1*74
$GAGSV,2,2,07,26,28,314,37,30,20,149,13,03,14,058,23,1*4B
$GBGSV,4,1,15,38,82,070,40,08,74,007,34,39,73,267,43,16,66,244,41,1*74
$GBGSV,4,2,15,13,64,339,37,06,64,241,41,46,54,127,45,09,48,230,41,1*78
$GBGSV,4,3,15,19,45,334,43,20,45,051,33,37,28,054,24,36,26,185,35,1*7A
$GBGSV,4,4,15,29,25,218,34,35,23,278,15,22,07,294,27,1*41
$GBGSV,3,1,09,38,82,070,43,39,73,267,45,46,54,127,44,20,45,051,37,4*71
$GBGSV,3,2,09,19,45,334,46,37,28,054,32,36,26,185,33,29,25,218,31,4*72
$GBGSV,3,3,09,35,23,278,25,4*47
$GNACCURACY,3.5*10
$PAIRSAT,1,35,1,0,200,2,0,200,3,0,200,4,0,200,5,0,201,6,0,200,7,0,200,8,0,200,9,0,200,10,0,221,11,0,200,12,0,200,13,0,201,14,0,200,15,0,201,16,0,200,17,0,200,18,0,221,19,0,200,20,0,200,21,0,200,23,0,221,24,0,221,25,0,200,26,0,200,27,0,200,28,0,200,29,0,200,30,0,200,31,0,200,32,0,200,194,0,621,195,0,621,196,0,620,199,0,621*6A
$PAIRSAT,2,23,65,0,200,67,0,200,68,0,200,69,0,201,70,0,201,71,0,201,72,0,200,73,0,201,74,0,200,75,0,200,76,0,200,77,0,200,78,0,200,79,0,201,80,0,201,81,0,200,82,0,200,83,0,200,84,0,201,85,0,201,86,0,201,87,0,200,88,0,200*52
$PAIRSAT,3,23,2,0,1221,3,0,1221,4,0,1200,5,0,200,7,0,1221,8,0,1221,9,0,1200,10,0,1200,11,0,1200,12,0,1200,13,0,1221,15,0,1221,19,0,1200,21,0,1200,24,0,1200,25,0,1200,26,0,1221,27,0,1200,30,0,1200,31,0,1200,33,0,1200,34,0,1200,36,0,1200*69
$PAIRSAT,4,50,1,0,200,2,0,200,3,0,200,4,0,200,5,0,200,6,0,201,7,0,200,8,0,201,9,0,201,10,0,200,11,0,200,12,0,200,13,0,201,14,0,200,15,0,200,16,0,201,19,0,621,20,0,621,21,0,600,22,0,600,23,0,600,24,0,600,25,0,600,26,0,600,27,0,600,28,0,600,29,0,621,30,0,600,31,0,200,32,0,600,33,0,600,34,0,600,35,0,621,36,0,621,37,0,621,38,0,621,39,0,621,40,0,600,41,0,600,42,0,600,43,0,600,44,0,600,45,0,600,46,0,621,56,0,200,57,0,200,58,0,200,59,0,600,60,0,600,61,0,600*42
$PAIRDGP,5,10,15,18,23,24*67
$GNGGA,110522.200,2500.8001615,N,12132.4834298,E,2,61,0.42,16.265,M,15.25,M,28,3335*79
$GNRMC,110522.200,A,2500.8001615,N,12132.4834298,E,0.02,17.93,260623,,,D,V*32
$GPHDT,,T*1B
$GNACCURACY,3.5*10
$GNGGA,110522.300,2500.8001495,N,12132.4834298,E,2,62,0.42,16.256,M,15.25,M,28,3335*71
$GNRMC,110522.300,A,2500.8001495,N,12132.4834298,E,0.02,17.93,260623,,,D,V*39
$GPHDT,,T*1B
$GNACCURACY,3.5*10
$GNGGA,110522.400,2500.8001435,N,12132.4834238,E,2,62,0.42,16.246,M,15.25,M,28,3335*77
$GNRMC,110522.400,A,2500.8001435,N,12132.4834238,E,0.02,17.93,260623,,,D,V*3E
$GPHDT,,T*1B
$GNACCURACY,3.5*10
$GNGGA,110522.500,2500.8001315,N,12132.4834178,E,2,63,0.42,16.236,M,15.25,M,28,3335*72
$GNRMC,110522.500,A,2500.8001315,N,12132.4834178,E,0.02,17.93,260623,,,D,V*3D
$GPHDT,,T*1B
$GNACCURACY,3.5*10
$GNGGA,110522.600,2500.8001195,N,12132.4834178,E,2,63,0.42,16.227,M,15.25,M,28,3335*7B
$GNRMC,110522.600,A,2500.8001195,N,12132.4834178,E,0.02,17.93,260623,,,D,V*34
$GPHDT,,T*1B
$GNACCURACY,3.5*10
$GNGGA,110522.700,2500.8001075,N,12132.4834118,E,2,63,0.42,16.216,M,15.25,M,28,3335*71
$GNRMC,110522.700,A,2500.8001075,N,12132.4834118,E,0.02,17.93,260623,,,D,V*3C
$GPHDT,,T*1B
$GNACCURACY,3.5*10
$GNGGA,110522.800,2500.8001015,N,12132.4834118,E,2,63,0.42,16.206,M,15.25,M,28,3335*79
$GNRMC,110522.800,A,2500.8001015,N,12132.4834118,E,0.02,17.93,260623,,,D,V*35
$GPHDT,,T*1B
$GNACCURACY,3.5*10
$GNGGA,110522.900,2500.8000895,N,12132.4834058,E,2,63,0.42,16.197,M,15.25,M,28,3335*77
$GNRMC,110522.900,A,2500.8000895,N,12132.4834058,E,0.02,17.93,260623,,,D,V*30
$GPHDT,,T*1B
$GNACCURACY,3.5*10
$GNGGA,110523.000,2500.8000835,N,12132.4833998,E,2,63,0.42,16.185,M,15.25,M,29,3335*75
$GNRMC,110523.000,A,2500.8000835,N,12132.4833998,E,0.02,17.93,260623,,,D,V*30
$GPHDT,,T*1B
$GNACCURACY,3.5*10
$GNGGA,110523.100,2500.8000715,N,12132.4833998,E,2,63,0.42,16.175,M,15.25,M,29,3335*76
$GNRMC,110523.100,A,2500.8000715,N,12132.4833998,E,0.02,17.93,260623,,,D,V*3C
$GPHDT,,T*1B
$GNGSA,A,3,24,196,18,199,15,23,195,194,05,10,,,0.79,0.42,0.67,1*08
$GNGSA,A,3,80,85,70,73,86,71,79,84,69,,,,0.79,0.42,0.67,2*08
$GNGSA,A,3,13,08,07,15,26,02,03,,,,,,0.79,0.42,0.67,3*06
$GNGSA,A,3,38,08,39,16,13,06,46,09,19,20,37,36,0.79,0.42,0.67,4*07
$GNGSA,A,3,29,35,,,,,,,,,,,0.79,0.42,0.67,4*00
$GPGSV,5,1,17,24,82,082,41,196,74,059,40,18,61,268,32,199,60,167,36,1*61
$GPGSV,5,2,17,45,47,231,44,15,42,036,34,23,42,332,44,195,38,179,32,1*5A
$GPGSV,5,3,17,194,27,141,19,05,25,110,39,12,14,148,18,13,14,050,14,1*5C
$GPGSV,5,4,17,10,11,314,33,32,05,261,,29,05,203,16,20,04,124,,1*6C
$GPGSV,5,5,17,25,03,182,,1*5D
$GPGSV,2,1,08,24,82,082,48,196,74,059,43,18,61,268,46,199,60,167,48,8*61
$GPGSV,2,2,08,23,42,332,43,195,38,179,24,194,27,141,30,10,11,314,33,8*61
$GLGSV,3,1,09,80,46,095,39,85,42,260,27,70,39,356,22,73,27,164,34,1*7D
$GLGSV,3,2,09,86,23,313,38,71,18,303,32,79,18,040,22,84,18,194,24,1*77
$GLGSV,3,3,09,69,16,063,19,1*44
$GAGSV,3,1,09,13,62,246,35,08,50,016,37,07,42,292,29,15,31,174,32,7*70
$GAGSV,3,2,09,26,28,314,22,02,23,094,13,30,20,149,25,03,14,058,22,7*7E
$GAGSV,3,3,09,25,05,049,,7*45
$GAGSV,2,1,07,13,62,246,42,08,50,016,38,07,42,292,31,15,31,174,29,1*75
$GAGSV,2,2,07,26,28,314,37,30,20,149,14,03,14,058,23,1*4C
$GBGSV,4,1,15,38,82,070,41,08,74,007,34,39,73,267,42,16,66,244,41,1*74
$GBGSV,4,2,15,13,64,339,37,06,64,241,41,46,54,127,45,09,48,230,41,1*78
$GBGSV,4,3,15,19,45,334,43,20,45,051,33,37,28,054,24,36,26,185,35,1*7A
$GBGSV,4,4,15,29,25,218,34,35,23,278,16,22,07,294,26,1*43
$GBGSV,3,1,09,38,82,070,43,39,73,267,46,46,54,127,44,20,45,051,37,4*72
$GBGSV,3,2,09,19,45,334,46,37,28,054,32,36,26,185,34,29,25,218,31,4*75
$GBGSV,3,3,09,35,23,278,25,4*47
$GNACCURACY,3.5*10
$PAIRSAT,1,35,1,0,200,2,0,200,3,0,200,4,0,200,5,0,201,6,0,200,7,0,200,8,0,200,9,0,200,10,0,221,11,0,200,12,0,200,13,0,201,14,0,200,15,0,201,16,0,200,17,0,200,18,0,221,19,0,200,20,0,200,21,0,200,23,0,221,24,0,221,25,0,200,26,0,200,27,0,200,28,0,200,29,0,200,30,0,200,31,0,200,32,0,200,194,0,621,195,0,621,196,0,620,199,0,621*6A
$PAIRSAT,2,23,65,0,200,67,0,200,68,0,200,69,0,201,70,0,201,71,0,201,72,0,200,73,0,201,74,0,200,75,0,200,76,0,200,77,0,200,78,0,200,79,0,201,80,0,201,81,0,200,82,0,200,83,0,200,84,0,201,85,0,201,86,0,201,87,0,200,88,0,200*52
$PAIRSAT,3,23,2,0,1221,3,0,1221,4,0,1200,5,0,200,7,0,1221,8,0,1221,9,0,1200,10,0,1200,11,0,1200,12,0,1200,13,0,1221,15,0,1221,19,0,1200,21,0,1200,24,0,1200,25,0,1200,26,0,1221,27,0,1200,30,0,1200,31,0,1200,33,0,1200,34,0,1200,36,0,1200*69
$PAIRSAT,4,50,1,0,200,2,0,200,3,0,200,4,0,200,5,0,200,6,0,201,7,0,200,8,0,201,9,0,201,10,0,200,11,0,200,12,0,200,13,0,201,14,0,200,15,0,200,16,0,201,19,0,621,20,0,621,21,0,600,22,0,600,23,0,600,24,0,600,25,0,600,26,0,600,27,0,600,28,0,600,29,0,621,30,0,600,31,0,200,32,0,600,33,0,600,34,0,600,35,0,621,36,0,621,37,0,621,38,0,621,39,0,621,40,0,600,41,0,600,42,0,600,43,0,600,44,0,600,45,0,600,46,0,621,56,0,200,57,0,200,58,0,200,59,0,600,60,0,600,61,0,600*42
$PAIRDGP,5,10,15,18,23,24*67
$GNGGA,110523.200,2500.8000655,N,12132.4833998,E,2,63,0.42,16.163,M,15.25,M,29,3335*77
$GNRMC,110523.200,A,2500.8000655,N,12132.4833998,E,0.02,17.93,260623,,,D,V*3A
$GPHDT,,T*1B
$GNACCURACY,3.5*10
$GNGGA,110523.300,2500.8000535,N,12132.4833938,E,2,64,0.42,16.150,M,15.25,M,29,3335*7E
$GNRMC,110523.300,A,2500.8000535,N,12132.4833938,E,0.02,17.93,260623,,,D,V*34
$GPHDT,,T*1B
$GNACCURACY,3.5*10
$GNGGA,110523.400,2500.8000475,N,12132.4833938,E,2,64,0.42,16.137,M,15.25,M,29,3335*7D
$GNRMC,110523.400,A,2500.8000475,N,12132.4833938,E,0.02,17.93,260623,,,D,V*36
$GPHDT,,T*1B
$GNACCURACY,3.5*10
$GNGGA,110523.500,2500.8000415,N,12132.4833938,E,2,64,0.42,16.126,M,15.25,M,29,3335*7A
$GNRMC,110523.500,A,2500.8000415,N,12132.4833938,E,0.02,17.93,260623,,,D,V*31
$GPHDT,,T*1B
$GNACCURACY,3.5*10
$GNGGA,110523.600,2500.8000295,N,12132.4833878,E,2,64,0.42,16.113,M,15.25,M,29,3335*74
$GNRMC,110523.600,A,2500.8000295,N,12132.4833878,E,0.02,17.93,260623,,,D,V*39
$GPHDT,,T*1B
$GNACCURACY,3.5*10
$GNGGA,110523.700,2500.8000235,N,12132.4833878,E,2,64,0.42,16.099,M,15.25,M,29,3335*7C
$GNRMC,110523.700,A,2500.8000235,N,12132.4833878,E,0.02,17.93,260623,,,D,V*32
$GPHDT,,T*1B
$GNACCURACY,3.5*10
$GNGGA,110523.800,2500.8000115,N,12132.4833878,E,2,64,0.42,16.087,M,15.25,M,29,3335*7D
$GNRMC,110523.800,A,2500.8000115,N,12132.4833878,E,0.02,17.93,260623,,,D,V*3C
$GPHDT,,T*1B
$GNACCURACY,3.6*13
$GNGGA,110523.900,2500.8000055,N,12132.4833818,E,2,64,0.42,16.076,M,15.25,M,29,3335*71
$GNRMC,110523.900,A,2500.8000055,N,12132.4833818,E,0.02,17.93,260623,,,D,V*3E
$GPHDT,,T*1B
$GNACCURACY,3.5*10
$GNGGA,110524.000,2500.7999995,N,12132.4833818,E,2,64,0.42,16.064,M,15.25,M,30,3335*77
$GNRMC,110524.000,A,2500.7999995,N,12132.4833818,E,0.02,17.93,260623,,,D,V*33
$GPHDT,,T*1B
$GNACCURACY,3.5*10
$GNGGA,110524.100,2500.7999875,N,12132.4833818,E,2,64,0.42,16.053,M,15.25,M,30,3335*7D
$GNRMC,110524.100,A,2500.7999875,N,12132.4833818,E,0.02,17.93,260623,,,D,V*3D
$GPHDT,,T*1B
$GNGSA,A,3,24,196,18,199,15,23,195,194,05,10,,,0.79,0.42,0.67,1*08
$GNGSA,A,3,80,85,70,73,86,71,79,84,69,,,,0.79,0.42,0.67,2*08
$GNGSA,A,3,13,08,07,15,26,02,03,,,,,,0.79,0.42,0.67,3*06
$GNGSA,A,3,38,08,39,16,13,06,46,09,19,20,37,36,0.79,0.42,0.67,4*07
$GNGSA,A,3,29,35,,,,,,,,,,,0.79,0.42,0.67,4*00
$GPGSV,5,1,17,24,82,081,41,196,74,059,40,18,61,268,33,199,60,167,36,1*63
$GPGSV,5,2,17,45,47,231,44,15,42,037,34,23,42,332,44,195,38,179,32,1*5B
$GPGSV,5,3,17,194,27,141,20,05,25,110,39,12,14,148,19,13,14,050,15,1*56
$GPGSV,5,4,17,10,11,314,32,32,05,261,,29,05,203,16,20,03,125,,1*6B
$GPGSV,5,5,17,25,03,182,,1*5D
$GPGSV,2,1,08,24,82,081,48,196,74,059,43,18,61,268,46,199,60,167,48,8*62
$GPGSV,2,2,08,23,42,332,43,195,38,179,25,194,27,141,30,10,11,314,33,8*60
$GLGSV,3,1,09,80,46,095,39,85,42,260,29,70,39,356,23,73,27,164,34,1*72
$GLGSV,3,2,09,86,23,313,38,71,18,303,32,79,18,040,22,84,18,194,24,1*77
$GLGSV,3,3,09,69,16,063,16,1*4B
$GAGSV,3,1,09,13,62,246,34,08,50,016,37,07,42,292,29,15,31,174,32,7*71
$GAGSV,3,2,09,26,28,314,22,02,23,094,13,30,20,149,25,03,14,058,21,7*7D
$GAGSV,3,3,09,25,05,049,,7*45
$GAGSV,2,1,08,13,62,246,42,08,50,016,38,07,42,292,31,15,31,174,31,1*73
$GAGSV,2,2,08,26,28,314,37,02,23,094,26,30,20,149,16,03,14,058,23,1*7B
$GBGSV,4,1,15,38,82,070,41,08,74,007,34,39,73,267,42,16,66,244,41,1*74
$GBGSV,4,2,15,13,64,339,37,06,64,241,41,46,54,127,45,09,48,230,41,1*78
$GBGSV,4,3,15,19,45,334,43,20,45,051,34,37,28,054,24,36,26,185,35,1*7D
$GBGSV,4,4,15,29,25,218,33,35,23,278,16,22,07,294,25,1*47
$GBGSV,3,1,09,38,82,070,44,39,73,267,46,46,54,127,44,20,45,051,37,4*75
$GBGSV,3,2,09,19,45,334,46,37,28,054,32,36,26,185,34,29,25,218,31,4*75
$GBGSV,3,3,09,35,23,278,25,4*47
$GNACCURACY,3.6*13
$PAIRSAT,1,35,1,0,200,2,0,200,3,0,200,4,0,200,5,0,201,6,0,200,7,0,200,8,0,200,9,0,200,10,0,221,11,0,200,12,0,200,13,0,201,14,0,200,15,0,201,16,0,200,17,0,200,18,0,221,19,0,200,20,0,200,21,0,200,23,0,221,24,0,221,25,0,200,26,0,200,27,0,200,28,0,200,29,0,200,30,0,200,31,0,200,32,0,200,194,0,621,195,0,621,196,0,620,199,0,621*6A
$PAIRSAT,2,23,65,0,200,67,0,200,68,0,200,69,0,201,70,0,201,71,0,201,72,0,200,73,0,201,74,0,200,75,0,200,76,0,200,77,0,200,78,0,200,79,0,201,80,0,201,81,0,200,82,0,200,83,0,200,84,0,201,85,0,201,86,0,201,87,0,200,88,0,200*52
$PAIRSAT,3,23,2,0,1221,3,0,1221,4,0,1200,5,0,200,7,0,1221,8,0,1221,9,0,1200,10,0,1200,11,0,1200,12,0,1200,13,0,1221,15,0,1221,19,0,1200,21,0,1200,24,0,1200,25,0,1200,26,0,1221,27,0,1200,30,0,1200,31,0,1200,33,0,1200,34,0,1200,36,0,1200*69
$PAIRSAT,4,50,1,0,200,2,0,200,3,0,200,4,0,200,5,0,200,6,0,201,7,0,200,8,0,201,9,0,201,10,0,200,11,0,200,12,0,200,13,0,201,14,0,200,15,0,200,16,0,201,19,0,621,20,0,621,21,0,600,22,0,600,23,0,600,24,0,600,25,0,600,26,0,600,27,0,600,28,0,600,29,0,621,30,0,600,31,0,200,32,0,600,33,0,600,34,0,600,35,0,621,36,0,621,37,0,621,38,0,621,39,0,621,40,0,600,41,0,600,42,0,600,43,0,600,44,0,600,45,0,600,46,0,621,56,0,200,57,0,200,58,0,200,59,0,600,60,0,600,61,0,600*42
$PAIRDGP,5,10,15,18,23,24*67
$GNGGA,110524.200,2500.7999815,N,12132.4833758,E,2,64,0.42,16.043,M,15.25,M,30,3335*72
$GNRMC,110524.200,A,2500.7999815,N,12132.4833758,E,0.02,17.93,260623,,,D,V*33
$GPHDT,,T*1B
$GNACCURACY,3.5*10
$GNGGA,110524.300,2500.7999755,N,12132.4833758,E,2,64,0.42,16.031,M,15.25,M,30,3335*7D
$GNRMC,110524.300,A,2500.7999755,N,12132.4833758,E,0.02,17.93,260623,,,D,V*39
$GPHDT,,T*1B
$GNACCURACY,3.5*10
$GNGGA,110524.400,2500.7999695,N,12132.4833698,E,2,64,0.42,16.021,M,15.25,M,30,3335*7B
$GNRMC,110524.400,A,2500.7999695,N,12132.4833698,E,0.02,17.93,260623,,,D,V*3E
$GPHDT,,T*1B
$GNACCURACY,3.5*10
$GNGGA,110524.500,2500.7999635,N,12132.4833698,E,2,64,0.42,16.009,M,15.25,M,30,3335*7A
$GNRMC,110524.500,A,2500.7999635,N,12132.4833698,E,0.02,17.93,260623,,,D,V*35
$GPHDT,,T*1B
$GNACCURACY,3.5*10
$GNGGA,110524.600,2500.7999575,N,12132.4833638,E,2,64,0.42,15.997,M,15.25,M,30,3335*79
$GNRMC,110524.600,A,2500.7999575,N,12132.4833638,E,0.02,17.93,260623,,,D,V*3B
$GPHDT,,T*1B
$GNACCURACY,3.5*10
$GNGGA,110524.700,2500.7999515,N,12132.4833578,E,2,64,0.42,15.984,M,15.25,M,30,3335*7B
$GNRMC,110524.700,A,2500.7999515,N,12132.4833578,E,0.02,17.93,260623,,,D,V*3B
$GPHDT,,T*1B
$GNACCURACY,3.5*10
$GNGGA,110524.800,2500.7999455,N,12132.4833578,E,2,64,0.42,15.970,M,15.25,M,30,3335*7A
$GNRMC,110524.800,A,2500.7999455,N,12132.4833578,E,0.02,17.93,260623,,,D,V*31
$GPHDT,,T*1B
$GNACCURACY,3.5*10
$GNGGA,110524.900,2500.7999455,N,12132.4833518,E,2,64,0.42,15.957,M,15.25,M,30,3335*78
$GNRMC,110524.900,A,2500.7999455,N,12132.4833518,E,0.02,17.93,260623,,,D,V*36
$GPHDT,,T*1B
$GNACCURACY,3.5*10
$GNGGA,110525.000,2500.7999395,N,12132.4833518,E,2,64,0.42,15.941,M,15.25,M,31,3335*7D
$GNRMC,110525.000,A,2500.7999395,N,12132.4833518,E,0.02,17.93,260623,,,D,V*35
$GPHDT,,T*1B
$GNACCURACY,3.5*10
$GNGGA,110525.100,2500.7999335,N,12132.4833458,E,2,64,0.42,15.927,M,15.25,M,31,3335*73
$GNRMC,110525.100,A,2500.7999335,N,12132.4833458,E,0.02,17.93,260623,,,D,V*3B
$GPHDT,,T*1B
$GNGSA,A,3,24,196,18,199,15,23,195,194,05,10,,,0.79,0.42,0.67,1*08
$GNGSA,A,3,80,85,70,73,86,71,79,84,69,,,,0.79,0.42,0.67,2*08
$GNGSA,A,3,13,08,07,15,26,02,03,,,,,,0.79,0.42,0.67,3*06
$GNGSA,A,3,38,08,39,16,13,06,46,09,19,20,37,36,0.79,0.42,0.67,4*07
$GNGSA,A,3,29,35,,,,,,,,,,,0.79,0.42,0.67,4*00
$GPGSV,5,1,17,24,82,081,41,196,74,059,40,18,61,268,33,199,60,167,36,1*63
$GPGSV,5,2,17,45,47,231,44,15,42,037,34,23,42,332,44,195,38,179,33,1*5A
$GPGSV,5,3,17,194,27,141,20,05,25,110,39,12,14,148,19,13,14,050,16,1*55
$GPGSV,5,4,17,10,11,314,31,32,05,261,,29,05,203,16,20,03,125,,1*68
$GPGSV,5,5,17,25,03,182,,1*5D
$GPGSV,2,1,08,24,82,081,48,196,74,059,44,18,61,268,45,199,60,167,47,8*69
$GPGSV,2,2,08,23,42,332,43,195,38,179,28,194,27,141,30,10,11,314,33,8*6D
$GLGSV,3,1,09,80,46,095,39,85,42,260,30,70,39,356,23,73,27,164,34,1*7A
$GLGSV,3,2,09,86,23,313,38,71,18,303,32,79,18,040,20,84,18,194,24,1*75
$GLGSV,3,3,09,69,16,063,16,1*4B
$GAGSV,3,1,09,13,62,246,34,08,50,016,37,07,42,292,30,15,31,174,32,7*79
$GAGSV,3,2,09,26,28,314,22,02,23,094,15,30,20,149,25,03,14,058,20,7*7A
$GAGSV,3,3,09,25,05,049,,7*45
$GAGSV,2,1,08,13,62,246,42,08,50,016,38,07,42,292,31,15,31,174,31,1*73
$GAGSV,2,2,08,26,28,314,37,02,23,094,25,30,20,149,16,03,14,058,23,1*78
$GBGSV,4,1,15,38,82,070,41,08,74,007,33,39,73,267,42,16,66,244,41,1*73
$GBGSV,4,2,15,13,64,339,37,06,64,241,41,46,54,127,44,09,48,230,41,1*79
$GBGSV,4,3,15,19,45,334,43,20,45,051,35,37,28,054,26,36,26,185,34,1*7F
$GBGSV,4,4,15,29,25,218,33,35,23,278,16,22,07,294,25,1*47
$GBGSV,3,1,09,38,82,070,44,39,73,267,46,46,54,127,44,20,45,051,37,4*75
$GBGSV,3,2,09,19,45,334,46,37,28,054,31,36,26,185,34,29,25,218,32,4*75
$GBGSV,3,3,09,35,23,278,26,4*44
$GNACCURACY,3.5*10
$PAIRSAT,1,35,1,0,200,2,0,200,3,0,200,4,0,200,5,0,201,6,0,200,7,0,200,8,0,200,9,0,200,10,0,221,11,0,200,12,0,200,13,0,201,14,0,200,15,0,201,16,0,200,17,0,200,18,0,221,19,0,200,20,0,200,21,0,200,23,0,221,24,0,221,25,0,200,26,0,200,27,0,200,28,0,200,29,0,200,30,0,200,31,0,200,32,0,200,194,0,621,195,0,621,196,0,620,199,0,621*6A
$PAIRSAT,2,23,65,0,200,67,0,200,68,0,200,69,0,201,70,0,201,71,0,201,72,0,200,73,0,201,74,0,200,75,0,200,76,0,200,77,0,200,78,0,200,79,0,201,80,0,201,81,0,200,82,0,200,83,0,200,84,0,201,85,0,201,86,0,201,87,0,200,88,0,200*52
$PAIRSAT,3,23,2,0,1221,3,0,1221,4,0,1200,5,0,200,7,0,1221,8,0,1221,9,0,1200,10,0,1200,11,0,1200,12,0,1200,13,0,1221,15,0,1221,19,0,1200,21,0,1200,24,0,1200,25,0,1200,26,0,1221,27,0,1200,30,0,1200,31,0,1200,33,0,1200,34,0,1200,36,0,1200*69
$PAIRSAT,4,50,1,0,200,2,0,200,3,0,200,4,0,200,5,0,200,6,0,201,7,0,200,8,0,201,9,0,201,10,0,200,11,0,200,12,0,200,13,0,201,14,0,200,15,0,200,16,0,201,19,0,621,20,0,621,21,0,600,22,0,600,23,0,600,24,0,600,25,0,600,26,0,600,27,0,600,28,0,600,29,0,621,30,0,600,31,0,200,32,0,600,33,0,600,34,0,600,35,0,621,36,0,621,37,0,621,38,0,621,39,0,621,40,0,600,41,0,600,42,0,600,43,0,600,44,0,600,45,0,600,46,0,621,56,0,200,57,0,200,58,0,200,59,0,600,60,0,600,61,0,600*42
$PAIRDGP,5,10,15,18,23,24*67
$GNGGA,110525.200,2500.7999275,N,12132.4833458,E,2,64,0.42,15.916,M,15.25,M,31,3335*77
$GNRMC,110525.200,A,2500.7999275,N,12132.4833458,E,0.02,17.93,260623,,,D,V*3D
$GPHDT,,T*1B
$GNACCURACY,3.6*13
$GNGGA,110525.300,2500.7999275,N,12132.4833398,E,2,64,0.42,15.903,M,15.25,M,31,3335*79
$GNRMC,110525.300,A,2500.7999275,N,12132.4833398,E,0.02,17.93,260623,,,D,V*37
$GPHDT,,T*1B
$GNACCURACY,3.5*10
$GNGGA,110525.400,2500.7999215,N,12132.4833398,E,2,64,0.42,15.889,M,15.25,M,31,3335*7B
$GNRMC,110525.400,A,2500.7999215,N,12132.4833398,E,0.02,17.93,260623,,,D,V*36
$GPHDT,,T*1B
$GNACCURACY,3.6*13
$GNGGA,110525.500,2500.7999215,N,12132.4833338,E,2,64,0.42,15.874,M,15.25,M,31,3335*72
$GNRMC,110525.500,A,2500.7999215,N,12132.4833338,E,0.02,17.93,260623,,,D,V*3D
$GPHDT,,T*1B
$GNACCURACY,3.6*13
$GNGGA,110525.600,2500.7999155,N,12132.4833278,E,2,64,0.42,15.860,M,15.25,M,31,3335*76
$GNRMC,110525.600,A,2500.7999155,N,12132.4833278,E,0.02,17.93,260623,,,D,V*3C
$GPHDT,,T*1B
$GNACCURACY,3.5*10
$GNGGA,110525.700,2500.7999095,N,12132.4833278,E,2,64,0.42,15.846,M,15.25,M,31,3335*7E
$GNRMC,110525.700,A,2500.7999095,N,12132.4833278,E,0.02,17.93,260623,,,D,V*30
$GPHDT,,T*1B
$GNACCURACY,3.5*10
$GNGGA,110525.800,2500.7999095,N,12132.4833218,E,2,64,0.42,15.833,M,15.25,M,31,3335*75
$GNRMC,110525.800,A,2500.7999095,N,12132.4833218,E,0.02,17.93,260623,,,D,V*39
$GPHDT,,T*1B
$GNACCURACY,3.5*10
$GNGGA,110525.900,2500.7999095,N,12132.4833218,E,2,64,0.42,15.820,M,15.25,M,31,3335*76
$GNRMC,110525.900,A,2500.7999095,N,12132.4833218,E,0.02,17.93,260623,,,D,V*38
$GPHDT,,T*1B
$GNACCURACY,3.5*10
$GNGGA,110526.000,2500.7999035,N,12132.4833158,E,2,64,0.42,15.807,M,15.25,M,32,3335*77
$GNRMC,110526.000,A,2500.7999035,N,12132.4833158,E,0.02,17.93,260623,,,D,V*3F
$GPHDT,,T*1B
$GNACCURACY,3.5*10
$GNGGA,110526.100,2500.7999035,N,12132.4833158,E,2,64,0.42,15.794,M,15.25,M,32,3335*73
$GNRMC,110526.100,A,2500.7999035,N,12132.4833158,E,0.02,17.93,260623,,,D,V*3E
$GPHDT,,T*1B
$GNGSA,A,3,24,196,18,199,15,23,195,194,05,10,,,0.79,0.42,0.67,1*08
$GNGSA,A,3,80,85,70,73,86,71,79,84,69,,,,0.79,0.42,0.67,2*08
$GNGSA,A,3,13,08,07,15,26,02,03,,,,,,0.79,0.42,0.67,3*06
$GNGSA,A,3,38,08,39,16,13,06,46,09,20,19,37,36,0.79,0.42,0.67,4*07
$GNGSA,A,3,29,35,,,,,,,,,,,0.79,0.42,0.67,4*00
$GPGSV,5,1,17,24,82,081,41,196,74,059,40,18,61,268,34,199,60,167,36,1*64
$GPGSV,5,2,17,45,47,231,44,15,42,037,34,23,42,332,44,195,38,179,33,1*5A
$GPGSV,5,3,17,194,27,141,20,05,25,110,39,12,14,148,19,13,14,050,17,1*54
$GPGSV,5,4,17,10,11,314,32,32,05,261,,29,05,203,16,20,03,125,,1*6B
$GPGSV,5,5,17,25,03,182,,1*5D
$GPGSV,2,1,08,24,82,081,48,196,74,059,44,18,61,268,45,199,60,167,47,8*69
$GPGSV,2,2,08,23,42,332,43,195,38,179,29,194,27,141,32,10,11,314,34,8*69
$GLGSV,3,1,09,80,46,095,39,85,42,260,31,70,39,356,23,73,27,164,34,1*7B
$GLGSV,3,2,09,86,23,313,38,71,18,303,33,79,18,040,20,84,18,194,23,1*73
$GLGSV,3,3,09,69,16,063,16,1*4B
$GAGSV,3,1,09,13,62,246,35,08,50,016,37,07,42,292,30,15,31,174,32,7*78
$GAGSV,3,2,09,26,28,314,22,02,23,094,17,30,20,149,25,03,14,058,20,7*78
$GAGSV,3,3,09,25,05,049,,7*45
$GAGSV,2,1,08,13,62,246,42,08,50,016,38,07,42,292,31,15,31,174,31,1*73
$GAGSV,2,2,08,26,28,314,37,02,23,094,25,30,20,149,16,03,14,058,25,1*7E
$GBGSV,4,1,16,38,82,070,41,08,74,007,33,39,73,267,42,16,66,244,41,1*70
$GBGSV,4,2,16,13,64,339,37,06,64,241,41,46,54,127,44,09,48,230,41,1*7A
$GBGSV,4,3,16,20,45,051,34,19,45,334,43,31,33,205,,37,28,054,26,1*72
$GBGSV,4,4,16,36,26,185,34,29,25,218,33,35,23,278,18,22,07,294,26,1*73
$GBGSV,3,1,09,38,82,070,44,39,73,267,46,46,54,127,43,20,45,051,37,4*72
$GBGSV,3,2,09,19,45,334,46,37,28,054,31,36,26,185,34,29,25,218,33,4*74
$GBGSV,3,3,09,35,23,278,25,4*47
$GNACCURACY,3.5*10
$PAIRSAT,1,35,1,0,200,2,0,200,3,0,200,4,0,200,5,0,201,6,0,200,7,0,200,8,0,200,9,0,200,10,0,221,11,0,200,12,0,200,13,0,201,14,0,200,15,0,201,16,0,200,17,0,200,18,0,221,19,0,200,20,0,200,21,0,200,23,0,221,24,0,221,25,0,200,26,0,200,27,0,200,28,0,200,29,0,200,30,0,200,31,0,200,32,0,200,194,0,621,195,0,621,196,0,620,199,0,621*6A
$PAIRSAT,2,23,65,0,200,67,0,200,68,0,200,69,0,201,70,0,201,71,0,201,72,0,200,73,0,201,74,0,200,75,0,200,76,0,200,77,0,200,78,0,200,79,0,201,80,0,201,81,0,200,82,0,200,83,0,200,84,0,201,85,0,201,86,0,201,87,0,200,88,0,200*52
$PAIRSAT,3,23,2,0,1221,3,0,1221,4,0,1200,5,0,200,7,0,1221,8,0,1221,9,0,1200,10,0,1200,11,0,1200,12,0,1200,13,0,1221,15,0,1221,19,0,1200,21,0,1200,24,0,1200,25,0,1200,26,0,1221,27,0,1200,30,0,1200,31,0,1200,33,0,1200,34,0,1200,36,0,1200*69
$PAIRSAT,4,50,1,0,200,2,0,200,3,0,200,4,0,200,5,0,200,6,0,201,7,0,200,8,0,201,9,0,201,10,0,200,11,0,200,12,0,200,13,0,201,14,0,200,15,0,200,16,0,201,19,0,621,20,0,621,21,0,600,22,0,600,23,0,600,24,0,600,25,0,600,26,0,600,27,0,600,28,0,600,29,0,621,30,0,600,31,0,200,32,0,600,33,0,600,34,0,600,35,0,621,36,0,621,37,0,621,38,0,621,39,0,621,40,0,600,41,0,600,42,0,600,43,0,600,44,0,600,45,0,600,46,0,621,56,0,200,57,0,200,58,0,200,59,0,600,60,0,600,61,0,600*42
$PAIRDGP,5,10,15,18,23,24*67
$GNGGA,110526.200,2500.7999035,N,12132.4833158,E,2,64,0.42,15.783,M,15.25,M,32,3335*76
$GNRMC,110526.200,A,2500.7999035,N,12132.4833158,E,0.02,17.93,260623,,,D,V*3D
$GPHDT,,T*1B
$GNACCURACY,3.5*10
$GNGGA,110526.300,2500.7998975,N,12132.4833158,E,2,64,0.42,15.768,M,15.25,M,32,3335*7E
$GNRMC,110526.300,A,2500.7998975,N,12132.4833158,E,0.02,17.93,260623,,,D,V*30
$GPHDT,,T*1B
$GNACCURACY,3.5*10
$GNGGA,110526.400,2500.7998975,N,12132.4833158,E,2,64,0.42,15.754,M,15.25,M,32,3335*76
$GNRMC,110526.400,A,2500.7998975,N,12132.4833158,E,0.02,17.93,260623,,,D,V*37
$GPHDT,,T*1B
$GNACCURACY,3.5*10
$GNGGA,110526.500,2500.7998915,N,12132.4833098,E,2,64,0.42,15.739,M,15.25,M,32,3335*77
$GNRMC,110526.500,A,2500.7998915,N,12132.4833098,E,0.02,17.93,260623,,,D,V*3D
$GPHDT,,T*1B
$GNACCURACY,3.5*10
$GNGGA,110526.600,2500.7998915,N,12132.4833098,E,2,64,0.42,15.721,M,15.25,M,32,3335*7D
$GNRMC,110526.600,A,2500.7998915,N,12132.4833098,E,0.02,17.93,260623,,,D,V*3E
$GPHDT,,T*1B
$GNACCURACY,3.5*10
$GNGGA,110526.700,2500.7998855,N,12132.4833098,E,2,64,0.42,15.706,M,15.25,M,32,3335*7C
$GNRMC,110526.700,A,2500.7998855,N,12132.4833098,E,0.02,17.93,260623,,,D,V*3A
$GPHDT,,T*1B
$GNACCURACY,3.5*10
$GNGGA,110526.800,2500.7998795,N,12132.4833038,E,2,64,0.42,15.693,M,15.25,M,32,3335*77
$GNRMC,110526.800,A,2500.7998795,N,12132.4833038,E,0.02,17.93,260623,,,D,V*3C
$GPHDT,,T*1B
$GNACCURACY,3.6*13
$GNGGA,110526.900,2500.7998795,N,12132.4833038,E,2,64,0.42,15.677,M,15.25,M,32,3335*7C
$GNRMC,110526.900,A,2500.7998795,N,12132.4833038,E,0.02,17.93,260623,,,D,V*3D
$GPHDT,,T*1B
$GNACCURACY,3.6*13
$GNGGA,110527.000,2500.7998735,N,12132.4832978,E,2,64,0.42,15.663,M,15.25,M,33,3335*76
$GNRMC,110527.000,A,2500.7998735,N,12132.4832978,E,0.02,17.93,260623,,,D,V*33
$GPHDT,,T*1B
$GNACCURACY,3.6*13
$GNGGA,110527.100,2500.7998735,N,12132.4832978,E,2,64,0.42,15.650,M,15.25,M,33,3335*77
$GNRMC,110527.100,A,2500.7998735,N,12132.4832978,E,0.02,17.93,260623,,,D,V*32
$GPHDT,,T*1B
$GNGSA,A,3,24,196,18,199,15,23,195,194,05,10,,,0.79,0.42,0.67,1*08
$GNGSA,A,3,80,85,70,73,86,71,79,84,69,,,,0.79,0.42,0.67,2*08
$GNGSA,A,3,13,08,07,15,26,02,03,,,,,,0.79,0.42,0.67,3*06
$GNGSA,A,3,38,08,39,16,13,06,46,09,19,20,37,36,0.79,0.42,0.67,4*07
$GNGSA,A,3,29,35,,,,,,,,,,,0.79,0.42,0.67,4*00
$GPGSV,5,1,17,24,82,081,41,196,74,059,40,18,61,268,34,199,60,167,36,1*64
$GPGSV,5,2,17,45,47,231,44,15,42,037,33,23,42,332,44,195,38,179,33,1*5D
$GPGSV,5,3,17,194,27,141,23,05,25,110,39,12,14,148,19,13,14,050,17,1*57
$GPGSV,5,4,17,10,11,314,34,32,05,261,,29,05,203,15,20,03,125,,1*6E
$GPGSV,5,5,17,25,03,182,,1*5D
$GPGSV,2,1,08,24,82,081,48,196,74,059,44,18,61,268,45,199,60,167,47,8*69
$GPGSV,2,2,08,23,42,332,43,195,38,179,25,194,27,141,31,10,11,314,34,8*66
$GLGSV,3,1,09,80,46,095,40,85,42,260,30,70,39,356,23,73,27,164,34,1*74
$GLGSV,3,2,09,86,23,313,38,71,18,303,32,79,18,040,19,84,18,194,24,1*7F
$GLGSV,3,3,09,69,16,063,16,1*4B
$GAGSV,3,1,09,13,62,246,35,08,50,016,37,07,42,293,30,15,31,174,32,7*79
$GAGSV,3,2,09,26,28,314,20,02,23,094,17,30,20,149,24,03,14,058,22,7*79
$GAGSV,3,3,09,25,05,049,,7*45
$GAGSV,2,1,08,13,62,246,42,08,50,016,38,07,42,293,31,15,31,174,31,1*72
$GAGSV,2,2,08,26,28,314,37,02,23,094,25,30,20,149,14,03,14,058,25,1*7C
$GBGSV,4,1,15,38,82,070,41,08,74,007,34,39,73,267,42,16,66,244,41,1*74
$GBGSV,4,2,15,13,64,339,37,06,64,241,41,46,54,127,44,09,48,230,41,1*79
$GBGSV,4,3,15,19,45,334,43,20,45,051,34,37,28,054,26,36,26,185,34,1*7E
$GBGSV,4,4,15,29,25,218,33,35,23,278,18,22,07,294,25,1*49
$GBGSV,3,1,09,38,82,070,44,39,73,267,46,46,54,127,43,20,45,051,37,4*72
$GBGSV,3,2,09,19,45,334,46,37,28,054,32,36,26,185,34,29,25,218,32,4*76
$GBGSV,3,3,09,35,23,278,24,4*46
$GNACCURACY,3.6*13
$PAIRSAT,1,35,1,0,200,2,0,200,3,0,200,4,0,200,5,0,201,6,0,200,7,0,200,8,0,200,9,0,200,10,0,221,11,0,200,12,0,200,13,0,201,14,0,200,15,0,201,16,0,200,17,0,200,18,0,221,19,0,200,20,0,200,21,0,200,23,0,221,24,0,221,25,0,200,26,0,200,27,0,200,28,0,200,29,0,200,30,0,200,31,0,200,32,0,200,194,0,621,195,0,621,196,0,620,199,0,621*6A
$PAIRSAT,2,23,65,0,200,67,0,200,68,0,200,69,0,201,70,0,201,71,0,201,72,0,200,73,0,201,74,0,200,75,0,200,76,0,200,77,0,200,78,0,200,79,0,201,80,0,201,81,0,200,82,0,200,83,0,200,84,0,201,85,0,201,86,0,201,87,0,200,88,0,200*52
$PAIRSAT,3,23,2,0,1221,3,0,1221,4,0,1200,5,0,200,7,0,1221,8,0,1221,9,0,1200,10,0,1200,11,0,1200,12,0,1200,13,0,1221,15,0,1221,19,0,1200,21,0,1200,24,0,1200,25,0,1200,26,0,1221,27,0,1200,30,0,1200,31,0,1200,33,0,1200,34,0,1200,36,0,1200*69
$PAIRSAT,4,50,1,0,200,2,0,200,3,0,200,4,0,200,5,0,200,6,0,201,7,0,200,8,0,201,9,0,201,10,0,200,11,0,200,12,0,200,13,0,201,14,0,200,15,0,200,16,0,201,19,0,621,20,0,621,21,0,600,22,0,600,23,0,600,24,0,600,25,0,600,26,0,600,27,0,600,28,0,600,29,0,621,30,0,600,31,0,200,32,0,600,33,0,600,34,0,600,35,0,621,36,0,621,37,0,621,38,0,621,39,0,621,40,0,600,41,0,600,42,0,600,43,0,600,44,0,600,45,0,600,46,0,621,56,0,200,57,0,200,58,0,200,59,0,600,60,0,600,61,0,600*42
$PAIRDGP,5,10,15,18,23,24*67
$GNGGA,110527.200,2500.7998675,N,12132.4832978,E,2,64,0.42,15.635,M,15.25,M,33,3335*72
$GNRMC,110527.200,A,2500.7998675,N,12132.4832978,E,0.02,17.93,260623,,,D,V*34
$GPHDT,,T*1B
$GNACCURACY,3.6*13
$GNGGA,110527.300,2500.7998615,N,12132.4832918,E,2,64,0.42,15.622,M,15.25,M,33,3335*75
$GNRMC,110527.300,A,2500.7998615,N,12132.4832918,E,0.02,17.93,260623,,,D,V*35
$GPHDT,,T*1B
$GNACCURACY,3.6*13
$GNGGA,110527.400,2500.7998615,N,12132.4832918,E,2,64,0.42,15.609,M,15.25,M,33,3335*7B
$GNRMC,110527.400,A,2500.7998615,N,12132.4832918,E,0.02,17.93,260623,,,D,V*32
$GPHDT,,T*1B
$GNACCURACY,3.6*13
$GNGGA,110527.500,2500.7998555,N,12132.4832858,E,2,64,0.42,15.594,M,15.25,M,33,3335*7F
$GNRMC,110527.500,A,2500.7998555,N,12132.4832858,E,0.02,17.93,260623,,,D,V*31
$GPHDT,,T*1B
$GNACCURACY,3.6*13
$GNGGA,110527.600,2500.7998495,N,12132.4832858,E,2,64,0.42,15.578,M,15.25,M,33,3335*73
$GNRMC,110527.600,A,2500.7998495,N,12132.4832858,E,0.02,17.93,260623,,,D,V*3F
$GPHDT,,T*1B
$GNACCURACY,3.6*13
$GNGGA,110527.700,2500.7998435,N,12132.4832798,E,2,64,0.42,15.563,M,15.25,M,33,3335*71
$GNRMC,110527.700,A,2500.7998435,N,12132.4832798,E,0.02,17.93,260623,,,D,V*37
$GPHDT,,T*1B
$GNACCURACY,3.6*13
$GNGGA,110527.800,2500.7998375,N,12132.4832738,E,2,64,0.42,15.547,M,15.25,M,33,3335*71
$GNRMC,110527.800,A,2500.7998375,N,12132.4832738,E,0.02,17.93,260623,,,D,V*31
$GPHDT,,T*1B
$GNACCURACY,3.6*13
$GNGGA,110527.900,2500.7998375,N,12132.4832738,E,2,64,0.42,15.532,M,15.25,M,33,3335*72
$GNRMC,110527.900,A,2500.7998375,N,12132.4832738,E,0.02,17.93,260623,,,D,V*30
$GPHDT,,T*1B
$GNACCURACY,3.6*13
$GNGGA,110528.000,2500.7998315,N,12132.4832678,E,2,64,0.42,15.517,M,15.25,M,34,3335*77
$GNRMC,110528.000,A,2500.7998315,N,12132.4832678,E,0.02,17.93,260623,,,D,V*35
$GPHDT,,T*1B
$GNACCURACY,3.6*13
$GNGGA,110528.100,2500.7998255,N,12132.4832678,E,2,64,0.42,15.502,M,15.25,M,34,3335*77
$GNRMC,110528.100,A,2500.7998255,N,12132.4832678,E,0.02,17.93,260623,,,D,V*31
$GPHDT,,T*1B
$GNGSA,A,3,24,196,18,199,15,23,195,194,05,10,,,0.79,0.42,0.67,1*08
$GNGSA,A,3,80,85,70,73,86,71,79,84,69,,,,0.79,0.42,0.67,2*08
$GNGSA,A,3,13,08,07,15,26,02,03,,,,,,0.79,0.42,0.67,3*06
$GNGSA,A,3,38,08,39,16,13,06,46,09,19,20,37,36,0.79,0.42,0.67,4*07
$GNGSA,A,3,29,35,,,,,,,,,,,0.79,0.42,0.67,4*00
$GPGSV,5,1,17,24,82,081,41,196,74,059,40,18,61,268,31,199,60,167,36,1*61
$GPGSV,5,2,17,45,47,231,44,15,42,037,31,23,42,332,44,195,38,179,33,1*5F
$GPGSV,5,3,17,194,27,141,23,05,25,110,39,12,14,148,20,13,14,050,15,1*5F
$GPGSV,5,4,17,10,11,314,35,32,05,261,,29,05,203,14,20,03,125,,1*6E
$GPGSV,5,5,17,25,03,182,,1*5D
$GPGSV,2,1,08,24,82,081,48,196,74,059,44,18,61,268,45,199,60,167,47,8*69
$GPGSV,2,2,08,23,42,332,43,195,38,179,26,194,27,141,33,10,11,314,34,8*67
$GLGSV,3,1,09,80,46,095,40,85,42,260,29,70,39,356,23,73,27,164,34,1*7C
$GLGSV,3,2,09,86,23,313,38,71,18,303,31,79,18,040,16,84,18,194,24,1*73
$GLGSV,3,3,09,69,16,063,18,1*45
$GAGSV,3,1,09,13,62,246,35,08,50,016,37,07,42,293,30,15,31,174,31,7*7A
$GAGSV,3,2,09,26,28,314,19,02,23,094,14,30,20,149,23,03,14,058,22,7*77
$GAGSV,3,3,09,25,05,049,,7*45
$GAGSV,2,1,08,13,62,246,42,08,50,016,38,07,42,293,31,15,31,174,30,1*73
$GAGSV,2,2,08,26,28,314,37,02,23,094,26,30,20,149,15,03,14,058,25,1*7E
$GBGSV,4,1,15,38,82,070,41,08,74,007,34,39,73,267,42,16,66,244,41,1*74
$GBGSV,4,2,15,13,64,339,37,06,64,241,41,46,54,127,44,09,48,230,41,1*79
$GBGSV,4,3,15,19,45,334,43,20,45,051,34,37,28,054,24,36,26,185,34,1*7C
$GBGSV,4,4,15,29,25,218,33,35,23,278,19,22,07,294,25,1*48
$GBGSV,3,1,09,38,82,070,44,39,73,267,46,46,54,127,43,20,45,051,37,4*72
$GBGSV,3,2,09,19,45,334,46,37,28,054,33,36,26,185,34,29,25,218,32,4*77
$GBGSV,3,3,09,35,23,278,24,4*46
$GNACCURACY,3.6*13
$PAIRSAT,1,35,1,0,200,2,0,200,3,0,200,4,0,200,5,0,201,6,0,200,7,0,200,8,0,200,9,0,200,10,0,221,11,0,200,12,0,200,13,0,201,14,0,200,15,0,201,16,0,200,17,0,200,18,0,221,19,0,200,20,0,200,21,0,200,23,0,221,24,0,221,25,0,200,26,0,200,27,0,200,28,0,200,29,0,200,30,0,200,31,0,200,32,0,200,194,0,621,195,0,621,196,0,620,199,0,621*6A
$PAIRSAT,2,23,65,0,200,67,0,200,68,0,200,69,0,201,70,0,201,71,0,201,72,0,200,73,0,201,74,0,200,75,0,200,76,0,200,77,0,20