$FW : RTK35X,V1.1X0314AS,Lib20210517,1*54
$Tool : LOCOSYS , GNSS Firebird , v1.0.0.19*39
$---------------------------------------------------*2D
$GPHDT,,T*1B
$GNGSA,A,3,24,196,18,199,15,23,195,194,05,13,10,,0.69,0.42,0.55,1*0A
$GNGSA,A,3,80,85,70,73,86,84,79,71,69,,,,0.69,0.42,0.55,2*08
$GNGSA,A,3,13,08,07,15,26,02,03,,,,,,0.69,0.42,0.55,3*06
$GNGSA,A,3,38,08,39,16,13,06,46,09,19,20,37,36,0.69,0.42,0.55,4*07
$GNGSA,A,3,29,35,,,,,,,,,,,0.69,0.42,0.55,4*00
$GPGSV,5,1,17,24,82,086,38,196,74,059,41,18,61,269,38,199,60,167,34,1*63
$GPGSV,5,2,17,45,47,231,29,15,42,036,37,23,42,332,40,195,38,179,36,1*52
$GPGSV,5,3,17,194,27,141,26,05,25,110,38,12,14,149,16,13,14,050,24,1*5D
$GPGSV,5,4,17,10,11,313,33,29,05,204,16,32,04,261,,20,04,124,,1*6D
$GPGSV,5,5,17,25,03,182,,1*5D
$GPGSV,2,1,08,24,82,086,48,196,74,059,45,18,61,269,42,199,60,167,48,8*66
$GPGSV,2,2,08,23,42,332,43,195,38,179,35,194,27,141,31,10,11,313,31,8*65
$GLGSV,3,1,09,80,46,096,44,85,42,261,19,70,39,355,24,73,26,164,32,1*7A
$GLGSV,3,2,09,86,23,314,32,84,19,194,24,79,18,040,17,71,18,303,18,1*75
$GLGSV,3,3,09,69,16,062,25,1*4A
$GAGSV,2,1,08,13,63,247,32,08,50,015,38,07,42,292,26,15,31,174,29,7*7E
$GAGSV,2,2,08,26,27,314,23,02,23,094,27,03,14,058,27,25,05,050,,7*7F
$GAGSV,2,1,07,13,63,247,36,08,50,015,42,07,42,292,31,15,31,174,34,1*74
$GAGSV,2,2,07,26,27,314,33,02,23,094,15,03,14,058,27,1*41
$GBGSV,4,1,14,38,82,068,37,08,74,007,35,39,73,266,43,16,66,243,39,1*74
$GBGSV,4,2,14,13,64,340,36,06,64,240,31,46,54,128,44,09,48,230,27,1*7E
$GBGSV,4,3,14,19,45,333,45,20,45,050,40,37,28,055,33,36,26,185,23,1*7F
$GBGSV,4,4,14,29,26,219,35,35,23,279,22,1*7B
$GBGSV,3,1,09,38,82,068,42,39,73,266,42,46,54,128,46,20,45,050,41,4*72
$GBGSV,3,2,09,19,45,333,44,37,28,055,40,29,26,219,32,36,26,185,35,4*74
$GBGSV,3,3,09,35,23,279,26,4*45
$GNACCURACY,3.4*11
$PAIRSAT,1,35,1,0,200,2,0,200,3,0,200,4,0,200,5,0,201,6,0,200,7,0,200,8,0,200,9,0,200,10,0,221,11,0,200,12,0,200,13,0,201,14,0,200,15,0,201,16,0,200,17,0,200,18,0,221,19,0,200,20,0,200,21,0,200,23,0,221,24,0,221,25,0,200,26,0,200,27,0,200,28,0,200,29,0,200,30,0,200,31,0,200,32,0,200,194,0,621,195,0,621,196,0,620,199,0,621*6A
$PAIRSAT,2,23,65,0,200,67,0,200,68,0,200,69,0,201,70,0,201,71,0,201,72,0,200,73,0,201,74,0,200,75,0,200,76,0,200,77,0,200,78,0,200,79,0,201,80,0,201,81,0,200,82,0,200,83,0,200,84,0,201,85,0,201,86,0,201,87,0,200,88,0,200*52
$PAIRSAT,3,23,2,0,1221,3,0,1221,4,0,1200,5,0,200,7,0,1221,8,0,1221,9,0,1200,10,0,1200,11,0,1200,12,0,1200,13,0,1221,15,0,1221,19,0,1200,21,0,1200,24,0,1200,25,0,1200,26,0,1221,27,0,1200,30,0,1200,31,0,1200,33,0,1200,34,0,1200,36,0,1200*69
$PAIRSAT,4,50,1,0,200,2,0,200,3,0,200,4,0,200,5,0,200,6,0,201,7,0,200,8,0,201,9,0,201,10,0,200,11,0,200,12,0,200,13,0,201,14,0,200,15,0,200,16,0,201,19,0,621,20,0,621,21,0,600,22,0,600,23,0,600,24,0,600,25,0,600,26,0,600,27,0,600,28,0,600,29,0,621,30,0,600,31,0,200,32,0,600,33,0,600,34,0,600,35,0,621,36,0,621,37,0,621,38,0,621,39,0,621,40,0,600,41,0,600,42,0,600,43,0,600,44,0,600,45,0,600,46,0,621,56,0,200,57,0,200,58,0,200,59,0,600,60,0,600,61,0,600*42
$PAIRDGP,0*45
$GNGGA,110405.200,2500.8013044,N,12132.4847333,E,1,65,0.42,15.458,M,15.25,M,18,3335*77
$GNRMC,110405.200,A,2500.8013044,N,12132.4847333,E,0.02,17.93,260623,,,A,V*36
$GPHDT,,T*1B
$GNACCURACY,3.4*11
$GNGGA,110405.300,2500.8013104,N,12132.4847393,E,1,65,0.42,15.451,M,15.25,M,18,3335*70
$GNRMC,110405.300,A,2500.8013104,N,12132.4847393,E,0.01,17.93,260623,,,A,V*3B
$GPHDT,,T*1B
$GNACCURACY,3.4*11
$GNGGA,110405.400,2500.8013104,N,12132.4847513,E,1,65,0.42,15.442,M,15.25,M,18,3335*7B
$GNRMC,110405.400,A,2500.8013104,N,12132.4847513,E,0.02,17.93,260623,,,A,V*31
$GPHDT,,T*1B
$GNACCURACY,3.4*11
$GNGGA,110405.500,2500.8013044,N,12132.4847573,E,1,65,0.42,15.429,M,15.25,M,18,3335*74
$GNRMC,110405.500,A,2500.8013044,N,12132.4847573,E,0.02,17.93,260623,,,A,V*33
$GPHDT,,T*1B
$GNACCURACY,3.4*11
$GNGGA,110405.600,2500.8013044,N,12132.4847633,E,1,65,0.42,15.418,M,15.25,M,18,3335*72
$GNRMC,110405.600,A,2500.8013044,N,12132.4847633,E,0.02,17.93,260623,,,A,V*37
$GPHDT,,T*1B
$GNACCURACY,3.4*11
$GNGGA,110405.700,2500.8013044,N,12132.4847753,E,1,65,0.42,15.411,M,15.25,M,18,3335*7D
$GNRMC,110405.700,A,2500.8013044,N,12132.4847753,E,0.02,17.93,260623,,,A,V*31
$GPHDT,,T*1B
$GNACCURACY,3.4*11
$GNGGA,110405.800,2500.8013044,N,12132.4847813,E,1,65,0.42,15.405,M,15.25,M,18,3335*7C
$GNRMC,110405.800,A,2500.8013044,N,12132.4847813,E,0.03,17.93,260623,,,A,V*34
$GPHDT,,T*1B
$GNACCURACY,3.4*11
$GNGGA,110405.900,2500.8013044,N,12132.4847933,E,1,65,0.42,15.397,M,15.25,M,18,3335*72
$GNRMC,110405.900,A,2500.8013044,N,12132.4847933,E,0.03,17.93,260623,,,A,V*36
$GPHDT,,T*1B
$GNACCURACY,3.4*11
$GNGGA,110406.000,2500.8013044,N,12132.4848053,E,1,65,0.42,15.385,M,15.25,M,19,3335*7A
$GNRMC,110406.000,A,2500.8013044,N,12132.4848053,E,0.03,17.93,260623,,,A,V*3C
$GPHDT,,T*1B
$GNACCURACY,3.4*11
$GNGGA,110406.100,2500.8013044,N,12132.4848113,E,1,65,0.42,15.375,M,15.25,M,19,3335*71
$GNRMC,110406.100,A,2500.8013044,N,12132.4848113,E,0.02,17.93,260623,,,A,V*39
$GPHDT,,T*1B
$GNGSA,A,3,24,196,18,199,15,23,195,194,05,13,10,,0.69,0.42,0.55,1*0A
$GNGSA,A,3,80,85,70,73,86,84,79,71,69,,,,0.69,0.42,0.55,2*08
$GNGSA,A,3,13,08,07,15,26,02,03,,,,,,0.69,0.42,0.55,3*06
$GNGSA,A,3,38,08,39,16,13,06,46,09,19,20,37,36,0.69,0.42,0.55,4*07
$GNGSA,A,3,29,35,,,,,,,,,,,0.69,0.42,0.55,4*00
$GPGSV,5,1,17,24,82,086,39,196,74,059,41,18,61,269,39,199,60,167,34,1*63
$GPGSV,5,2,17,45,47,231,33,15,42,036,38,23,42,332,40,195,38,179,35,1*55
$GPGSV,5,3,17,194,27,141,26,05,25,110,38,12,14,149,16,13,14,050,25,1*5C
$GPGSV,5,4,17,10,11,313,30,29,05,204,16,32,04,261,,20,04,124,,1*6E
$GPGSV,5,5,17,25,03,182,,1*5D
$GPGSV,2,1,08,24,82,086,48,196,74,059,45,18,61,269,43,199,60,167,48,8*67
$GPGSV,2,2,08,23,42,332,43,195,38,179,37,194,27,141,33,10,11,313,32,8*66
$GLGSV,3,1,09,80,46,096,44,85,42,261,18,70,39,355,24,73,26,164,33,1*7A
$GLGSV,3,2,09,86,23,314,32,84,19,194,23,79,18,040,16,71,18,303,18,1*73
$GLGSV,3,3,09,69,16,062,20,1*4F
$GAGSV,2,1,08,13,62,247,33,08,50,015,37,07,42,292,26,15,31,174,30,7*79
$GAGSV,2,2,08,26,27,314,24,02,23,094,26,03,14,058,28,25,05,050,,7*76
$GAGSV,2,1,07,13,62,247,38,08,50,015,43,07,42,292,31,15,31,174,33,1*7D
$GAGSV,2,2,07,26,27,314,33,02,23,094,14,03,14,058,27,1*40
$GBGSV,4,1,14,38,82,068,38,08,74,007,36,39,73,266,44,16,66,243,41,1*70
$GBGSV,4,2,14,13,64,340,36,06,64,240,38,46,54,128,44,09,48,230,32,1*73
$GBGSV,4,3,14,19,45,333,45,20,45,050,40,37,28,055,35,36,26,185,23,1*79
$GBGSV,4,4,14,29,26,219,33,35,23,279,20,1*7F
$GBGSV,3,1,09,38,82,068,42,39,73,266,45,46,54,128,46,20,45,050,41,4*75
$GBGSV,3,2,09,19,45,333,44,37,28,055,39,29,26,219,31,36,26,185,38,4*74
$GBGSV,3,3,09,35,23,279,25,4*46
$GNACCURACY,3.4*11
$PAIRSAT,1,35,1,0,200,2,0,200,3,0,200,4,0,200,5,0,201,6,0,200,7,0,200,8,0,200,9,0,200,10,0,221,11,0,200,12,0,200,13,0,201,14,0,200,15,0,201,16,0,200,17,0,200,18,0,221,19,0,200,20,0,200,21,0,200,23,0,221,24,0,221,25,0,200,26,0,200,27,0,200,28,0,200,29,0,200,30,0,200,31,0,200,32,0,200,194,0,621,195,0,621,196,0,620,199,0,621*6A
$PAIRSAT,2,23,65,0,200,67,0,200,68,0,200,69,0,201,70,0,201,71,0,201,72,0,200,73,0,201,74,0,200,75,0,200,76,0,200,77,0,200,78,0,200,79,0,201,80,0,201,81,0,200,82,0,200,83,0,200,84,0,201,85,0,201,86,0,201,87,0,200,88,0,200*52
$PAIRSAT,3,23,2,0,1221,3,0,1221,4,0,1200,5,0,200,7,0,1221,8,0,1221,9,0,1200,10,0,1200,11,0,1200,12,0,1200,13,0,1221,15,0,1221,19,0,1200,21,0,1200,24,0,1200,25,0,1200,26,0,1221,27,0,1200,30,0,1200,31,0,1200,33,0,1200,34,0,1200,36,0,1200*69
$PAIRSAT,4,50,1,0,200,2,0,200,3,0,200,4,0,200,5,0,200,6,0,201,7,0,200,8,0,201,9,0,201,10,0,200,11,0,200,12,0,200,13,0,201,14,0,200,15,0,200,16,0,201,19,0,621,20,0,621,21,0,600,22,0,600,23,0,600,24,0,600,25,0,600,26,0,600,27,0,600,28,0,600,29,0,621,30,0,600,31,0,200,32,0,600,33,0,600,34,0,600,35,0,621,36,0,621,37,0,621,38,0,621,39,0,621,40,0,600,41,0,600,42,0,600,43,0,600,44,0,600,45,0,600,46,0,621,56,0,200,57,0,200,58,0,200,59,0,600,60,0,600,61,0,600*42
$PAIRDGP,0*45
$GNGGA,110406.200,2500.8013044,N,12132.4848233,E,1,65,0.42,15.362,M,15.25,M,19,3335*75
$GNRMC,110406.200,A,2500.8013044,N,12132.4848233,E,0.01,17.93,260623,,,A,V*38
$GPHDT,,T*1B
$GNACCURACY,3.4*11
$GNGGA,110406.300,2500.8012984,N,12132.4848293,E,1,65,0.42,15.344,M,15.25,M,19,3335*7E
$GNRMC,110406.300,A,2500.8012984,N,12132.4848293,E,0.01,17.93,260623,,,A,V*37
$GPHDT,,T*1B
$GNACCURACY,3.4*11
$GNGGA,110406.400,2500.8012984,N,12132.4848353,E,1,65,0.42,15.331,M,15.25,M,19,3335*76
$GNRMC,110406.400,A,2500.8012984,N,12132.4848353,E,0.01,17.93,260623,,,A,V*3D
$GPHDT,,T*1B
$GNACCURACY,3.4*11
$GNGGA,110406.500,2500.8012924,N,12132.4848473,E,1,65,0.42,15.317,M,15.25,M,19,3335*7C
$GNRMC,110406.500,A,2500.8012924,N,12132.4848473,E,0.01,17.93,260623,,,A,V*33
$GPHDT,,T*1B
$GNACCURACY,3.4*11
$GNGGA,110406.600,2500.8012924,N,12132.4848533,E,1,65,0.42,15.302,M,15.25,M,19,3335*7E
$GNRMC,110406.600,A,2500.8012924,N,12132.4848533,E,0.02,17.93,260623,,,A,V*36
$GPHDT,,T*1B
$GNACCURACY,3.4*11
$GNGGA,110406.700,2500.8012924,N,12132.4848653,E,1,65,0.42,15.294,M,15.25,M,19,3335*74
$GNRMC,110406.700,A,2500.8012924,N,12132.4848653,E,0.01,17.93,260623,,,A,V*31
$GPHDT,,T*1B
$GNACCURACY,3.4*11
$GNGGA,110406.800,2500.8012924,N,12132.4848773,E,1,64,0.42,15.293,M,15.25,M,19,3335*7E
$GNRMC,110406.800,A,2500.8012924,N,12132.4848773,E,0.02,17.93,260623,,,A,V*3E
$GPHDT,,T*1B
$GNACCURACY,3.4*11
$GNGGA,110406.900,2500.8012924,N,12132.4848893,E,1,64,0.42,15.291,M,15.25,M,19,3335*7C
$GNRMC,110406.900,A,2500.8012924,N,12132.4848893,E,0.03,17.93,260623,,,A,V*3F
$GPHDT,,T*1B
$GNACCURACY,3.4*11
$GNGGA,110407.000,2500.8012924,N,12132.4848953,E,1,64,0.42,15.291,M,15.25,M,20,3335*73
$GNRMC,110407.000,A,2500.8012924,N,12132.4848953,E,0.03,17.93,260623,,,A,V*3A
$GPHDT,,T*1B
$GNACCURACY,3.4*11
$GNGGA,110407.100,2500.8012924,N,12132.4849013,E,1,64,0.42,15.288,M,15.25,M,20,3335*76
$GNRMC,110407.100,A,2500.8012924,N,12132.4849013,E,0.02,17.93,260623,,,A,V*36
$GPHDT,,T*1B
$GNGSA,A,3,24,196,18,199,15,23,195,194,05,13,10,,0.69,0.42,0.55,1*0A
$GNGSA,A,3,80,85,70,73,86,84,71,79,69,,,,0.69,0.42,0.55,2*08
$GNGSA,A,3,13,08,07,15,26,02,03,,,,,,0.69,0.42,0.55,3*06
$GNGSA,A,3,38,08,39,16,13,06,46,09,19,20,37,29,0.69,0.42,0.55,4*09
$GNGSA,A,3,36,35,,,,,,,,,,,0.69,0.42,0.55,4*0E
$GPGSV,5,1,17,24,82,086,39,196,74,059,41,18,61,269,39,199,60,167,35,1*62
$GPGSV,5,2,17,45,47,231,34,15,42,036,38,23,42,332,40,195,38,179,35,1*52
$GPGSV,5,3,17,194,27,141,25,05,25,110,38,12,14,149,16,13,14,050,24,1*5E
$GPGSV,5,4,17,10,11,313,31,29,05,204,15,32,04,261,,20,04,124,,1*6C
$GPGSV,5,5,17,25,03,182,,1*5D
$GPGSV,2,1,08,24,82,086,48,196,74,059,45,18,61,269,44,199,60,167,48,8*60
$GPGSV,2,2,08,23,42,332,44,195,38,179,34,194,27,141,31,10,11,313,32,8*60
$GLGSV,3,1,09,80,46,096,43,85,42,261,18,70,39,355,24,73,26,164,33,1*7D
$GLGSV,3,2,09,86,23,314,33,84,19,194,23,71,18,303,19,79,18,040,15,1*70
$GLGSV,3,3,09,69,16,062,23,1*4C
$GAGSV,3,1,09,13,62,247,36,08,50,015,37,07,42,292,25,15,31,174,30,7*7F
$GAGSV,3,2,09,26,27,314,22,02,23,094,25,30,19,149,,03,14,058,28,7*73
$GAGSV,3,3,09,25,05,050,,7*4D
$GAGSV,2,1,06,13,62,247,40,08,50,015,43,07,42,292,31,15,31,174,33,1*73
$GAGSV,2,2,06,26,27,314,34,03,14,058,27,1*7D
$GBGSV,4,1,15,38,82,068,38,08,74,007,35,39,73,266,44,16,66,243,43,1*70
$GBGSV,4,2,15,13,64,340,37,06,64,240,39,46,54,128,44,09,48,230,35,1*75
$GBGSV,4,3,15,19,45,333,45,20,45,050,40,31,33,205,,37,28,055,35,1*71
$GBGSV,4,4,15,29,26,219,36,36,26,185,24,35,23,279,19,1*4A
$GBGSV,3,1,09,38,82,068,42,39,73,266,45,46,54,128,45,20,45,050,41,4*76
$GBGSV,3,2,09,19,45,333,44,37,28,055,39,29,26,219,30,36,26,185,35,4*78
$GBGSV,3,3,09,35,23,279,25,4*46
$GNACCURACY,3.4*11
$PAIRSAT,1,35,1,0,200,2,0,200,3,0,200,4,0,200,5,0,201,6,0,200,7,0,200,8,0,200,9,0,200,10,0,221,11,0,200,12,0,200,13,0,201,14,0,200,15,0,201,16,0,200,17,0,200,18,0,221,19,0,200,20,0,200,21,0,200,23,0,221,24,0,221,25,0,200,26,0,200,27,0,200,28,0,200,29,0,200,30,0,200,31,0,200,32,0,200,194,0,621,195,0,621,196,0,620,199,0,621*6A
$PAIRSAT,2,23,65,0,200,67,0,200,68,0,200,69,0,201,70,0,201,71,0,201,72,0,200,73,0,201,74,0,200,75,0,200,76,0,200,77,0,200,78,0,200,79,0,201,80,0,201,81,0,200,82,0,200,83,0,200,84,0,201,85,0,201,86,0,201,87,0,200,88,0,200*52
$PAIRSAT,3,23,2,0,1221,3,0,1221,4,0,1200,5,0,200,7,0,1221,8,0,1221,9,0,1200,10,0,1200,11,0,1200,12,0,1200,13,0,1221,15,0,1221,19,0,1200,21,0,1200,24,0,1200,25,0,1200,26,0,1221,27,0,1200,30,0,1200,31,0,1200,33,0,1200,34,0,1200,36,0,1200*69
$PAIRSAT,4,50,1,0,200,2,0,200,3,0,200,4,0,200,5,0,200,6,0,201,7,0,200,8,0,201,9,0,201,10,0,200,11,0,200,12,0,200,13,0,201,14,0,200,15,0,200,16,0,201,19,0,621,20,0,621,21,0,600,22,0,600,23,0,600,24,0,600,25,0,600,26,0,600,27,0,600,28,0,600,29,0,621,30,0,600,31,0,200,32,0,600,33,0,600,34,0,600,35,0,621,36,0,621,37,0,621,38,0,621,39,0,621,40,0,600,41,0,600,42,0,600,43,0,600,44,0,600,45,0,600,46,0,621,56,0,200,57,0,200,58,0,200,59,0,600,60,0,600,61,0,600*42
$PAIRDGP,0*45
$GNGGA,110407.200,2500.8012984,N,12132.4849073,E,1,64,0.42,15.284,M,15.25,M,20,3335*75
$GNRMC,110407.200,A,2500.8012984,N,12132.4849073,E,0.02,17.93,260623,,,A,V*39
$GPHDT,,T*1B
$GNACCURACY,3.4*11
$GNGGA,110407.300,2500.8012984,N,12132.4849133,E,1,64,0.42,15.285,M,15.25,M,20,3335*70
$GNRMC,110407.300,A,2500.8012984,N,12132.4849133,E,0.02,17.93,260623,,,A,V*3D
$GPHDT,,T*1B
$GNACCURACY,3.4*11
$GNGGA,110407.400,2500.8012984,N,12132.4849253,E,1,64,0.42,15.285,M,15.25,M,20,3335*72
$GNRMC,110407.400,A,2500.8012984,N,12132.4849253,E,0.01,17.93,260623,,,A,V*3C
$GPHDT,,T*1B
$GNACCURACY,3.4*11
$GNGGA,110407.500,2500.8013044,N,12132.4849313,E,1,64,0.42,15.281,M,15.25,M,20,3335*76
$GNRMC,110407.500,A,2500.8013044,N,12132.4849313,E,0.01,17.93,260623,,,A,V*3C
$GPHDT,,T*1B
$GNACCURACY,3.4*11
$GNGGA,110407.600,2500.8013044,N,12132.4849433,E,1,64,0.42,15.277,M,15.25,M,20,3335*79
$GNRMC,110407.600,A,2500.8013044,N,12132.4849433,E,0.01,17.93,260623,,,A,V*3A
$GPHDT,,T*1B
$GNACCURACY,3.4*11
$GNGGA,110407.700,2500.8013044,N,12132.4849493,E,1,64,0.42,15.275,M,15.25,M,20,3335*70
$GNRMC,110407.700,A,2500.8013044,N,12132.4849493,E,0.00,17.93,260623,,,A,V*30
$GPHDT,,T*1B
$GNACCURACY,3.4*11
$GNGGA,110407.800,2500.8013044,N,12132.4849553,E,1,64,0.42,15.273,M,15.25,M,20,3335*74
$GNRMC,110407.800,A,2500.8013044,N,12132.4849553,E,0.00,17.93,260623,,,A,V*32
$GPHDT,,T*1B
$GNACCURACY,3.4*11
$GNGGA,110407.900,2500.8013044,N,12132.4849613,E,1,64,0.42,15.271,M,15.25,M,20,3335*70
$GNRMC,110407.900,A,2500.8013044,N,12132.4849613,E,0.01,17.93,260623,,,A,V*35
$GPHDT,,T*1B
$GNACCURACY,3.4*11
$GNGGA,110408.000,2500.8013044,N,12132.4849613,E,1,64,0.42,15.271,M,15.25,M,21,3335*77
$GNRMC,110408.000,A,2500.8013044,N,12132.4849613,E,0.00,17.93,260623,,,A,V*32
$GPHDT,,T*1B
$GNACCURACY,3.4*11
$GNGGA,110408.100,2500.8013104,N,12132.4849613,E,1,64,0.42,15.272,M,15.25,M,21,3335*70
$GNRMC,110408.100,A,2500.8013104,N,12132.4849613,E,0.00,17.93,260623,,,A,V*36
$GPHDT,,T*1B
$GNGSA,A,3,24,196,18,199,15,23,195,194,05,13,10,,0.78,0.42,0.65,1*09
$GNGSA,A,3,80,85,70,73,86,84,71,79,69,,,,0.78,0.42,0.65,2*0B
$GNGSA,A,3,13,08,07,15,26,02,03,,,,,,0.78,0.42,0.65,3*05
$GNGSA,A,3,38,08,39,16,13,06,46,09,20,19,37,29,0.78,0.42,0.65,4*0A
$GNGSA,A,3,36,35,,,,,,,,,,,0.78,0.42,0.65,4*0D
$GPGSV,5,1,17,24,82,086,39,196,74,059,41,18,61,269,39,199,60,167,34,1*63
$GPGSV,5,2,17,45,47,231,41,15,42,036,38,23,42,332,40,195,38,179,34,1*51
$GPGSV,5,3,17,194,27,141,24,05,25,110,38,12,14,149,16,13,14,050,26,1*5D
$GPGSV,5,4,17,10,11,313,32,29,05,204,15,32,04,261,,20,04,124,,1*6F
$GPGSV,5,5,17,25,03,182,,1*5D
$GPGSV,2,1,08,24,82,086,48,196,74,059,45,18,61,269,44,199,60,167,48,8*60
$GPGSV,2,2,08,23,42,332,44,195,38,179,33,194,27,141,32,10,11,313,33,8*65
$GLGSV,3,1,09,80,46,096,43,85,42,261,20,70,39,355,24,73,26,164,32,1*77
$GLGSV,3,2,09,86,23,314,32,84,19,194,23,71,18,303,19,79,18,040,15,1*71
$GLGSV,3,3,09,69,16,062,25,1*4A
$GAGSV,3,1,09,13,62,247,34,08,50,015,38,07,42,292,27,15,31,174,29,7*78
$GAGSV,3,2,09,26,27,314,22,02,23,094,25,30,19,149,,03,14,058,29,7*72
$GAGSV,3,3,09,25,05,050,,7*4D
$GAGSV,2,1,06,13,62,247,40,08,50,015,43,07,42,292,31,15,31,174,34,1*74
$GAGSV,2,2,06,26,27,314,34,03,14,058,27,1*7D
$GBGSV,4,1,15,38,82,068,39,08,74,007,35,39,73,266,44,16,66,243,43,1*71
$GBGSV,4,2,15,13,64,340,38,06,64,240,39,46,54,128,45,09,48,230,40,1*79
$GBGSV,4,3,15,20,45,050,40,19,45,333,45,37,28,055,35,29,26,219,37,1*75
$GBGSV,4,4,15,36,26,185,21,35,23,279,25,22,07,294,,1*48
$GBGSV,3,1,09,38,82,068,42,39,73,266,45,46,54,128,45,20,45,050,41,4*76
$GBGSV,3,2,09,19,45,333,44,37,28,055,39,29,26,219,30,36,26,185,36,4*7B
$GBGSV,3,3,09,35,23,279,24,4*47
$GNACCURACY,3.4*11
$PAIRSAT,1,35,1,0,200,2,0,200,3,0,200,4,0,200,5,0,201,6,0,200,7,0,200,8,0,200,9,0,200,10,0,221,11,0,200,12,0,200,13,0,201,14,0,200,15,0,201,16,0,200,17,0,200,18,0,221,19,0,200,20,0,200,21,0,200,23,0,221,24,0,221,25,0,200,26,0,200,27,0,200,28,0,200,29,0,200,30,0,200,31,0,200,32,0,200,194,0,621,195,0,621,196,0,620,199,0,621*6A
$PAIRSAT,2,23,65,0,200,67,0,200,68,0,200,69,0,201,70,0,201,71,0,201,72,0,200,73,0,201,74,0,200,75,0,200,76,0,200,77,0,200,78,0,200,79,0,201,80,0,201,81,0,200,82,0,200,83,0,200,84,0,201,85,0,201,86,0,201,87,0,200,88,0,200*52
$PAIRSAT,3,23,2,0,1221,3,0,1221,4,0,1200,5,0,200,7,0,1221,8,0,1221,9,0,1200,10,0,1200,11,0,1200,12,0,1200,13,0,1221,15,0,1221,19,0,1200,21,0,1200,24,0,1200,25,0,1200,26,0,1221,27,0,1200,30,0,1200,31,0,1200,33,0,1200,34,0,1200,36,0,1200*69
$PAIRSAT,4,50,1,0,200,2,0,200,3,0,200,4,0,200,5,0,200,6,0,201,7,0,200,8,0,201,9,0,201,10,0,200,11,0,200,12,0,200,13,0,201,14,0,200,15,0,200,16,0,201,19,0,621,20,0,621,21,0,600,22,0,600,23,0,600,24,0,600,25,0,600,26,0,600,27,0,600,28,0,600,29,0,621,30,0,600,31,0,200,32,0,600,33,0,600,34,0,600,35,0,621,36,0,621,37,0,621,38,0,621,39,0,621,40,0,600,41,0,600,42,0,600,43,0,600,44,0,600,45,0,600,46,0,621,56,0,200,57,0,200,58,0,200,59,0,600,60,0,600,61,0,600*42
$PAIRDGP,0*45
$GNGGA,110408.200,2500.8013104,N,12132.4849673,E,1,64,0.42,15.274,M,15.25,M,21,3335*73
$GNRMC,110408.200,A,2500.8013104,N,12132.4849673,E,0.00,17.93,260623,,,A,V*33
$GPHDT,,T*1B
$GNACCURACY,3.4*11
$GNGGA,110408.300,2500.8013104,N,12132.4849733,E,1,64,0.42,15.274,M,15.25,M,21,3335*77
$GNRMC,110408.300,A,2500.8013104,N,12132.4849733,E,0.00,17.93,260623,,,A,V*37
$GPHDT,,T*1B
$GNACCURACY,3.4*11
$GNGGA,110408.400,2500.8013104,N,12132.4849733,E,1,64,0.42,15.272,M,15.25,M,21,3335*76
$GNRMC,110408.400,A,2500.8013104,N,12132.4849733,E,0.00,17.93,260623,,,A,V*30
$GPHDT,,T*1B
$GNACCURACY,3.4*11
$GNGGA,110408.500,2500.8013104,N,12132.4849793,E,1,64,0.42,15.269,M,15.25,M,21,3335*77
$GNRMC,110408.500,A,2500.8013104,N,12132.4849793,E,0.00,17.93,260623,,,A,V*3B
$GPHDT,,T*1B
$GNACCURACY,3.5*10
$GNGGA,110408.600,2500.8013104,N,12132.4849853,E,1,64,0.42,15.268,M,15.25,M,21,3335*76
$GNRMC,110408.600,A,2500.8013104,N,12132.4849853,E,0.00,17.93,260623,,,A,V*3B
$GPHDT,,T*1B
$GNACCURACY,3.5*10
$GNGGA,110408.700,2500.8013104,N,12132.4849853,E,1,64,0.42,15.265,M,15.25,M,21,3335*7A
$GNRMC,110408.700,A,2500.8013104,N,12132.4849853,E,0.00,17.93,260623,,,A,V*3A
$GPHDT,,T*1B
$GNACCURACY,3.5*10
$GNGGA,110408.800,2500.8013104,N,12132.4849913,E,1,64,0.42,15.262,M,15.25,M,21,3335*77
$GNRMC,110408.800,A,2500.8013104,N,12132.4849913,E,0.00,17.93,260623,,,A,V*30
$GPHDT,,T*1B
$GNACCURACY,3.5*10
$GNGGA,110408.900,2500.8013044,N,12132.4849913,E,1,64,0.42,15.258,M,15.25,M,21,3335*7A
$GNRMC,110408.900,A,2500.8013044,N,12132.4849913,E,0.00,17.93,260623,,,A,V*34
$GPHDT,,T*1B
$GNACCURACY,3.5*10
$GNGGA,110409.000,2500.8013044,N,12132.4849913,E,1,64,0.42,15.254,M,15.25,M,22,3335*7D
$GNRMC,110409.000,A,2500.8013044,N,12132.4849913,E,0.00,17.93,260623,,,A,V*3C
$PAIR010,0,0,2268,126267*33
$GPHDT,,T*1B
$GNACCURACY,3.5*10
$GNGGA,110409.100,2500.8012984,N,12132.4849913,E,1,64,0.42,15.248,M,15.25,M,22,3335*75
$GNRMC,110409.100,A,2500.8012984,N,12132.4849913,E,0.00,17.93,260623,,,A,V*39
$GPHDT,,T*1B
$GNGSA,A,3,24,196,18,199,15,23,195,194,05,13,10,,0.78,0.42,0.65,1*09
$GNGSA,A,3,80,85,70,73,86,84,71,79,69,,,,0.78,0.42,0.65,2*0B
$GNGSA,A,3,13,08,07,15,26,02,03,,,,,,0.78,0.42,0.65,3*05
$GNGSA,A,3,38,08,39,16,13,06,46,09,20,19,37,36,0.78,0.42,0.65,4*04
$GNGSA,A,3,29,35,,,,,,,,,,,0.78,0.42,0.65,4*03
$GPGSV,5,1,17,24,82,086,39,196,74,059,41,18,61,269,39,199,60,167,34,1*63
$GPGSV,5,2,17,45,47,231,41,15,42,036,38,23,42,332,40,195,38,179,34,1*51
$GPGSV,5,3,17,194,27,141,25,05,25,110,38,12,14,149,16,13,14,050,27,1*5D
$GPGSV,5,4,17,10,11,313,31,29,05,204,13,32,04,261,,20,04,124,,1*6A
$GPGSV,5,5,17,25,03,182,,1*5D
$GPGSV,2,1,08,24,82,086,48,196,74,059,45,18,61,269,44,199,60,167,48,8*60
$GPGSV,2,2,08,23,42,332,44,195,38,179,32,194,27,141,32,10,11,313,33,8*64
$GLGSV,3,1,09,80,46,096,43,85,42,261,20,70,39,355,24,73,27,164,33,1*77
$GLGSV,3,2,09,86,23,314,33,84,19,194,22,71,18,303,17,79,18,040,14,1*7E
$GLGSV,3,3,09,69,16,062,26,1*49
$GAGSV,3,1,09,13,62,247,33,08,50,015,38,07,42,292,27,15,31,174,29,7*7F
$GAGSV,3,2,09,26,27,314,23,02,23,094,24,30,19,149,,03,14,058,29,7*72
$GAGSV,3,3,09,25,05,050,,7*4D
$GAGSV,2,1,06,13,62,247,40,08,50,015,43,07,42,292,31,15,31,174,34,1*74
$GAGSV,2,2,06,26,27,314,34,03,14,058,28,1*72
$GBGSV,4,1,14,38,82,068,39,08,74,007,35,39,73,266,44,16,66,243,43,1*70
$GBGSV,4,2,14,13,64,340,38,06,64,240,39,46,54,128,45,09,48,230,40,1*78
$GBGSV,4,3,14,20,45,050,40,19,45,333,45,37,28,055,35,36,26,185,21,1*7B
$GBGSV,4,4,14,29,26,219,36,35,23,279,25,1*7F
$GBGSV,3,1,09,38,82,068,42,39,73,266,45,46,54,128,45,20,45,050,41,4*76
$GBGSV,3,2,09,19,45,333,44,37,28,055,39,29,26,219,30,36,26,185,34,4*79
$GBGSV,3,3,09,35,23,279,24,4*47
$GNACCURACY,3.5*10
$PAIRSAT,1,35,1,0,200,2,0,200,3,0,200,4,0,200,5,0,201,6,0,200,7,0,200,8,0,200,9,0,200,10,0,221,11,0,200,12,0,200,13,0,201,14,0,200,15,0,201,16,0,200,17,0,200,18,0,221,19,0,200,20,0,200,21,0,200,23,0,221,24,0,221,25,0,200,26,0,200,27,0,200,28,0,200,29,0,200,30,0,200,31,0,200,32,0,200,194,0,621,195,0,621,196,0,620,199,0,621*6A
$PAIRSAT,2,23,65,0,200,67,0,200,68,0,200,69,0,201,70,0,201,71,0,201,72,0,200,73,0,201,74,0,200,75,0,200,76,0,200,77,0,200,78,0,200,79,0,201,80,0,201,81,0,200,82,0,200,83,0,200,84,0,201,85,0,201,86,0,201,87,0,200,88,0,200*52
$PAIRSAT,3,23,2,0,1221,3,0,1221,4,0,1200,5,0,200,7,0,1221,8,0,1221,9,0,1200,10,0,1200,11,0,1200,12,0,1200,13,0,1221,15,0,1221,19,0,1200,21,0,1200,24,0,1200,25,0,1200,26,0,1221,27,0,1200,30,0,1200,31,0,1200,33,0,1200,34,0,1200,36,0,1200*69
$PAIRSAT,4,50,1,0,200,2,0,200,3,0,200,4,0,200,5,0,200,6,0,201,7,0,200,8,0,201,9,0,201,10,0,200,11,0,200,12,0,200,13,0,201,14,0,200,15,0,200,16,0,201,19,0,621,20,0,621,21,0,600,22,0,600,23,0,600,24,0,600,25,0,600,26,0,600,27,0,600,28,0,600,29,0,621,30,0,600,31,0,200,32,0,600,33,0,600,34,0,600,35,0,621,36,0,621,37,0,621,38,0,621,39,0,621,40,0,600,41,0,600,42,0,600,43,0,600,44,0,600,45,0,600,46,0,621,56,0,200,57,0,200,58,0,200,59,0,600,60,0,600,61,0,600*42
$PAIRDGP,0*45
$GNGGA,110409.200,2500.8012984,N,12132.4849973,E,1,64,0.42,15.241,M,15.25,M,22,3335*79
$GNRMC,110409.200,A,2500.8012984,N,12132.4849973,E,0.00,17.93,260623,,,A,V*3C
$GPHDT,,T*1B
$GNACCURACY,3.5*10
$GNGGA,110409.300,2500.8012984,N,12132.4849973,E,1,64,0.42,15.233,M,15.25,M,22,3335*7D
$GNRMC,110409.300,A,2500.8012984,N,12132.4849973,E,0.00,17.93,260623,,,A,V*3D
$GPHDT,,T*1B
$GNACCURACY,3.5*10
$GNGGA,110409.400,2500.8012924,N,12132.4850033,E,1,64,0.42,15.225,M,15.25,M,22,3335*72
$GNRMC,110409.400,A,2500.8012924,N,12132.4850033,E,0.00,17.93,260623,,,A,V*35
$GPHDT,,T*1B
$GNACCURACY,3.5*10
$GNGGA,110409.500,2500.8012864,N,12132.4850033,E,1,64,0.42,15.216,M,15.25,M,22,3335*76
$GNRMC,110409.500,A,2500.8012864,N,12132.4850033,E,0.00,17.93,260623,,,A,V*31
$GPHDT,,T*1B
$GNACCURACY,3.5*10
$GNGGA,110409.600,2500.8012804,N,12132.4850033,E,1,64,0.42,15.207,M,15.25,M,22,3335*73
$GNRMC,110409.600,A,2500.8012804,N,12132.4850033,E,0.00,17.93,260623,,,A,V*34
$GPHDT,,T*1B
$GNACCURACY,3.5*10
$GNGGA,110409.700,2500.8012744,N,12132.4850093,E,1,64,0.42,15.199,M,15.25,M,22,3335*77
$GNRMC,110409.700,A,2500.8012744,N,12132.4850093,E,0.00,17.93,260623,,,A,V*34
$GPHDT,,T*1B
$GNACCURACY,3.5*10
$GNGGA,110409.800,2500.8012744,N,12132.4850153,E,1,64,0.42,15.191,M,15.25,M,22,3335*7D
$GNRMC,110409.800,A,2500.8012744,N,12132.4850153,E,0.00,17.93,260623,,,A,V*36
$GPHDT,,T*1B
$GNACCURACY,3.5*10
$GNGGA,110409.900,2500.8012684,N,12132.4850153,E,1,64,0.42,15.185,M,15.25,M,22,3335*74
$GNRMC,110409.900,A,2500.8012684,N,12132.4850153,E,0.00,17.93,260623,,,A,V*3A
$GPHDT,,T*1B
$GNACCURACY,3.5*10
$GNGGA,110410.000,2500.8012624,N,12132.4850213,E,1,64,0.42,15.178,M,15.25,M,23,3335*7B
$GNRMC,110410.000,A,2500.8012624,N,12132.4850213,E,0.00,17.93,260623,,,A,V*36
$GPHDT,,T*1B
$GNACCURACY,3.5*10
$GNGGA,110410.100,2500.8012624,N,12132.4850273,E,1,64,0.42,15.171,M,15.25,M,23,3335*75
$GNRMC,110410.100,A,2500.8012624,N,12132.4850273,E,0.00,17.93,260623,,,A,V*31
$GPHDT,,T*1B
$GNGSA,A,3,24,196,18,199,15,23,195,194,05,13,10,,0.78,0.42,0.65,1*09
$GNGSA,A,3,80,85,70,73,86,84,71,79,69,,,,0.78,0.42,0.65,2*0B
$GNGSA,A,3,13,08,07,15,26,02,03,,,,,,0.78,0.42,0.65,3*05
$GNGSA,A,3,38,08,39,16,13,06,46,09,20,19,37,36,0.78,0.42,0.65,4*04
$GNGSA,A,3,29,35,,,,,,,,,,,0.78,0.42,0.65,4*03
$GPGSV,5,1,17,24,82,086,39,196,74,059,41,18,61,269,39,199,60,167,34,1*63
$GPGSV,5,2,17,45,47,231,39,15,42,036,38,23,42,332,40,195,38,179,33,1*59
$GPGSV,5,3,17,194,27,141,25,05,25,110,38,12,14,149,15,13,14,050,27,1*5E
$GPGSV,5,4,17,10,11,313,31,29,05,204,14,32,04,261,,20,04,124,,1*6D
$GPGSV,5,5,17,25,03,182,,1*5D
$GPGSV,2,1,08,24,82,086,48,196,74,059,45,18,61,269,44,199,60,167,48,8*60
$GPGSV,2,2,08,23,42,332,44,195,38,179,32,194,27,141,31,10,11,313,33,8*67
$GLGSV,3,1,09,80,46,096,43,85,42,261,18,70,39,355,24,73,27,164,34,1