$FW : RTK35X,V1.1X0314AS,Lib20210517,1*54
$Tool : LOCOSYS , GNSS Firebird , v1.0.0.19*39
$---------------------------------------------------*2D
$GNACCURACY,3.4*11
$GNGGA,110505.700,2500.8009471,N,12132.4832611,E,4,64,0.42,15.940,M,15.25,M,11,3335*74
$GNRMC,110505.700,A,2500.8009471,N,12132.4832611,E,0.02,17.93,260623,,,R,V*2F
$GPHDT,,T*1B
$GNACCURACY,3.4*11
$GNGGA,110505.800,2500.8009444,N,12132.4832592,E,4,64,0.42,15.938,M,15.25,M,11,3335*7A
$GNRMC,110505.800,A,2500.8009444,N,12132.4832592,E,0.02,17.93,260623,,,R,V*2E
$GPHDT,,T*1B
$GNACCURACY,3.4*11
$GNGGA,110505.900,2500.8009455,N,12132.4832572,E,4,64,0.42,15.938,M,15.25,M,11,3335*75
$GNRMC,110505.900,A,2500.8009455,N,12132.4832572,E,0.02,17.93,260623,,,R,V*21
$GPHDT,,T*1B
$GNACCURACY,3.4*11
$GNGGA,110506.000,2500.8009468,N,12132.4832625,E,4,64,0.42,15.945,M,15.25,M,12,3335*79
$GNRMC,110506.000,A,2500.8009468,N,12132.4832625,E,0.02,17.93,260623,,,R,V*24
$GPHDT,,T*1B
$GNACCURACY,3.4*11
$GNGGA,110506.100,2500.8009435,N,12132.4832591,E,4,64,0.42,15.941,M,15.25,M,12,3335*78
$GNRMC,110506.100,A,2500.8009435,N,12132.4832591,E,0.02,17.93,260623,,,R,V*21
$GPHDT,,T*1B
$GNGSA,A,3,24,196,18,199,15,23,195,194,05,10,,,0.79,0.42,0.67,1*08
$GNGSA,A,3,80,85,70,73,86,71,79,84,69,,,,0.79,0.42,0.67,2*08
$GNGSA,A,3,13,08,07,15,26,02,03,,,,,,0.79,0.42,0.67,3*06
$GNGSA,A,3,38,08,39,16,13,06,46,09,20,19,37,36,0.79,0.42,0.67,4*07
$GNGSA,A,3,29,35,,,,,,,,,,,0.79,0.42,0.67,4*00
$GPGSV,4,1,16,24,82,083,43,196,74,059,42,18,61,268,32,199,60,167,36,1*60
$GPGSV,4,2,16,45,47,231,43,15,42,036,40,23,42,332,43,195,38,179,32,1*59
$GPGSV,4,3,16,194,27,141,25,05,25,110,37,12,14,149,17,13,14,050,17,1*50
$GPGSV,4,4,16,10,11,314,38,29,05,203,13,20,04,124,,25,03,182,,1*6C
$GPGSV,2,1,08,24,82,083,47,196,74,059,44,18,61,268,45,199,60,167,48,8*6B
$GPGSV,2,2,08,23,42,332,43,195,38,179,30,194,27,141,30,10,11,314,34,8*63
$GLGSV,3,1,09,80,46,095,41,85,42,260,26,70,39,356,24,73,27,164,31,1*70
$GLGSV,3,2,09,86,23,313,39,71,18,303,34,79,18,040,26,84,18,194,24,1*74
$GLGSV,3,3,09,69,16,063,21,1*4F
$GAGSV,3,1,09,13,62,246,34,08,50,015,39,07,42,292,29,15,31,174,28,7*77
$GAGSV,3,2,09,26,28,314,29,02,23,094,23,30,20,149,19,03,14,058,23,7*78
$GAGSV,3,3,09,25,05,049,,7*45
$GAGSV,2,1,08,13,62,246,40,08,50,015,41,07,42,292,27,15,31,174,31,1*7B
$GAGSV,2,2,08,26,28,314,35,02,23,094,19,30,20,149,22,03,14,058,24,1*75
$GBGSV,4,1,15,38,82,070,41,08,74,007,35,39,73,267,43,16,66,244,42,1*77
$GBGSV,4,2,15,13,64,339,38,06,64,241,42,46,54,127,36,09,48,230,39,1*7F
$GBGSV,4,3,15,20,45,051,41,19,45,334,43,37,28,054,35,36,26,185,31,1*7B
$GBGSV,4,4,15,29,25,218,35,35,23,278,24,22,07,294,27,1*42
$GBGSV,3,1,09,38,82,070,44,39,73,267,45,46,54,127,36,20,45,051,40,4*73
$GBGSV,3,2,09,19,45,334,47,37,28,054,33,36,26,185,37,29,25,218,33,4*74
$GBGSV,3,3,09,35,23,278,23,4*41
$GNACCURACY,3.4*11
$PAIRSAT,1,35,1,0,200,2,0,200,3,0,200,4,0,200,5,0,201,6,0,200,7,0,200,8,0,200,9,0,200,10,0,221,11,0,200,12,0,200,13,0,201,14,0,200,15,0,201,16,0,200,17,0,200,18,0,221,19,0,200,20,0,200,21,0,200,23,0,221,24,0,221,25,0,200,26,0,200,27,0,200,28,0,200,29,0,200,30,0,200,31,0,200,32,0,200,194,0,621,195,0,621,196,0,620,199,0,621*6A
$PAIRSAT,2,23,65,0,200,67,0,200,68,0,200,69,0,201,70,0,201,71,0,201,72,0,200,73,0,201,74,0,200,75,0,200,76,0,200,77,0,200,78,0,200,79,0,201,80,0,201,81,0,200,82,0,200,83,0,200,84,0,201,85,0,201,86,0,201,87,0,200,88,0,200*52
$PAIRSAT,3,23,2,0,1221,3,0,1221,4,0,1200,5,0,200,7,0,1221,8,0,1221,9,0,1200,10,0,1200,11,0,1200,12,0,1200,13,0,1221,15,0,1221,19,0,1200,21,0,1200,24,0,1200,25,0,1200,26,0,1221,27,0,1200,30,0,1200,31,0,1200,33,0,1200,34,0,1200,36,0,1200*69
$PAIRSAT,4,50,1,0,200,2,0,200,3,0,200,4,0,200,5,0,200,6,0,201,7,0,200,8,0,201,9,0,201,10,0,200,11,0,200,12,0,200,13,0,201,14,0,200,15,0,200,16,0,201,19,0,621,20,0,621,21,0,600,22,0,600,23,0,600,24,0,600,25,0,600,26,0,600,27,0,600,28,0,600,29,0,621,30,0,600,31,0,200,32,0,600,33,0,600,34,0,600,35,0,621,36,0,621,37,0,621,38,0,621,39,0,621,40,0,600,41,0,600,42,0,600,43,0,600,44,0,600,45,0,600,46,0,621,56,0,200,57,0,200,58,0,200,59,0,600,60,0,600,61,0,600*42
$PAIRDGP,5,10,15,18,23,24*67
$GNGGA,110506.200,2500.8009446,N,12132.4832601,E,4,64,0.42,15.940,M,15.25,M,12,3335*74
$GNRMC,110506.200,A,2500.8009446,N,12132.4832601,E,0.02,17.93,260623,,,R,V*2C
$GPHDT,,T*1B
$GNACCURACY,3.4*11
$GNGGA,110506.300,2500.8009462,N,12132.4832598,E,4,64,0.42,15.942,M,15.25,M,12,3335*72
$GNRMC,110506.300,A,2500.8009462,N,12132.4832598,E,0.02,17.93,260623,,,R,V*28
$GPHDT,,T*1B
$GNACCURACY,3.4*11
$GNGGA,110506.400,2500.8009441,N,12132.4832581,E,4,64,0.42,15.938,M,15.25,M,12,3335*71
$GNRMC,110506.400,A,2500.8009441,N,12132.4832581,E,0.00,17.93,260623,,,R,V*24
$GPHDT,,T*1B
$GNACCURACY,3.4*11
$GNGGA,110506.500,2500.8009444,N,12132.4832590,E,4,64,0.42,15.936,M,15.25,M,12,3335*7B
$GNRMC,110506.500,A,2500.8009444,N,12132.4832590,E,0.00,17.93,260623,,,R,V*20
$GPHDT,,T*1B
$GNACCURACY,3.4*11
$GNGGA,110506.600,2500.8009436,N,12132.4832572,E,4,64,0.42,15.944,M,15.25,M,12,3335*74
$GNRMC,110506.600,A,2500.8009436,N,12132.4832572,E,0.00,17.93,260623,,,R,V*2A
$GPHDT,,T*1B
$GNACCURACY,3.4*11
$GNGGA,110506.700,2500.8009439,N,12132.4832571,E,4,64,0.42,15.938,M,15.25,M,12,3335*72
$GNRMC,110506.700,A,2500.8009439,N,12132.4832571,E,0.00,17.93,260623,,,R,V*27
$GPHDT,,T*1B
$GNACCURACY,3.4*11
$GNGGA,110506.800,2500.8009448,N,12132.4832586,E,4,64,0.42,15.940,M,15.25,M,12,3335*7C
$GNRMC,110506.800,A,2500.8009448,N,12132.4832586,E,0.00,17.93,260623,,,R,V*26
$GPHDT,,T*1B
$GNACCURACY,3.4*11
$GNGGA,110506.900,2500.8009465,N,12132.4832576,E,4,64,0.42,15.941,M,15.25,M,12,3335*7C
$GNRMC,110506.900,A,2500.8009465,N,12132.4832576,E,0.00,17.93,260623,,,R,V*27
$GPHDT,,T*1B
$GNACCURACY,3.4*11
$GNGGA,110507.000,2500.8009451,N,12132.4832581,E,4,63,0.42,15.941,M,15.25,M,13,3335*7D
$GNRMC,110507.000,A,2500.8009451,N,12132.4832581,E,0.00,17.93,260623,,,R,V*20
$GPHDT,,T*1B
$GNACCURACY,3.4*11
$GNGGA,110507.100,2500.8009439,N,12132.4832603,E,4,63,0.42,15.937,M,15.25,M,13,3335*7A
$GNRMC,110507.100,A,2500.8009439,N,12132.4832603,E,0.00,17.93,260623,,,R,V*26
$GPHDT,,T*1B
$GNGSA,A,3,24,196,18,199,15,23,195,194,05,10,,,0.79,0.42,0.67,1*08
$GNGSA,A,3,80,85,70,73,86,84,79,71,69,,,,0.79,0.42,0.67,2*08
$GNGSA,A,3,13,08,07,15,26,02,03,,,,,,0.79,0.42,0.67,3*06
$GNGSA,A,3,38,08,39,16,13,06,46,09,20,19,37,36,0.79,0.42,0.67,4*07
$GNGSA,A,3,29,35,,,,,,,,,,,0.79,0.42,0.67,4*00
$GPGSV,5,1,17,24,82,083,43,196,74,059,42,18,61,268,32,199,60,167,36,1*60
$GPGSV,5,2,17,45,47,231,43,15,42,036,40,23,42,332,43,195,38,179,32,1*59
$GPGSV,5,3,17,194,27,141,25,05,25,110,36,12,14,148,17,13,14,050,14,1*53
$GPGSV,5,4,17,10,11,314,38,32,05,261,,29,05,203,14,20,04,124,,1*65
$GPGSV,5,5,17,25,03,182,,1*5D
$GPGSV,2,1,08,24,82,083,47,196,74,059,44,18,61,268,45,199,60,167,48,8*6B
$GPGSV,2,2,08,23,42,332,43,195,38,179,30,194,27,141,31,10,11,314,33,8*65
$GLGSV,3,1,09,80,46,095,41,85,42,260,24,70,39,356,24,73,27,164,32,1*71
$GLGSV,3,2,09,86,23,313,39,84,18,194,24,79,18,040,26,71,18,303,33,1*73
$GLGSV,3,3,09,69,16,063,21,1*4F
$GAGSV,2,1,08,13,62,246,35,08,50,015,39,07,42,292,29,15,31,174,28,7*76
$GAGSV,2,2,08,26,28,314,29,02,23,094,21,30,20,149,19,03,14,058,25,7*7C
$GAGSV,2,1,08,13,62,246,40,08,50,015,41,07,42,292,27,15,31,174,31,1*7B
$GAGSV,2,2,08,26,28,314,35,02,23,094,20,30,20,149,21,03,14,058,24,1*7C
$GBGSV,5,1,19,38,82,070,40,08,74,007,33,39,73,267,43,16,66,244,42,1*7D
$GBGSV,5,2,19,13,64,339,37,06,64,241,42,46,54,127,36,09,48,230,39,1*7D
$GBGSV,5,3,19,20,45,051,41,19,45,334,43,37,28,054,35,36,26,185,32,1*75
$GBGSV,5,4,19,29,25,218,35,35,23,278,24,22,07,294,27,32,06,091,,1*70
$GBGSV,5,5,19,07,05,194,,10,03,204,,30,01,172,,1*42
$GBGSV,3,1,09,38,82,070,44,39,73,267,45,46,54,127,37,20,45,051,40,4*72
$GBGSV,3,2,09,19,45,334,47,37,28,054,33,36,26,185,37,29,25,218,32,4*75
$GBGSV,3,3,09,35,23,278,23,4*41
$GNACCURACY,3.4*11
$PAIRSAT,1,35,1,0,200,2,0,200,3,0,200,4,0,200,5,0,201,6,0,200,7,0,200,8,0,200,9,0,200,10,0,221,11,0,200,12,0,200,13,0,201,14,0,200,15,0,201,16,0,200,17,0,200,18,0,221,19,0,200,20,0,200,21,0,200,23,0,221,24,0,221,25,0,200,26,0,200,27,0,200,28,0,200,29,0,200,30,0,200,31,0,200,32,0,200,194,0,621,195,0,621,196,0,620,199,0,621*6A
$PAIRSAT,2,23,65,0,200,67,0,200,68,0,200,69,0,201,70,0,201,71,0,201,72,0,200,73,0,201,74,0,200,75,0,200,76,0,200,77,0,200,78,0,200,79,0,201,80,0,201,81,0,200,82,0,200,83,0,200,84,0,201,85,0,201,86,0,201,87,0,200,88,0,200*52
$PAIRSAT,3,23,2,0,1221,3,0,1221,4,0,1200,5,0,200,7,0,1221,8,0,1221,9,0,1200,10,0,1200,11,0,1200,12,0,1200,13,0,1221,15,0,1221,19,0,1200,21,0,1200,24,0,1200,25,0,1200,26,0,1221,27,0,1200,30,0,1200,31,0,1200,33,0,1200,34,0,1200,36,0,1200*69
$PAIRSAT,4,50,1,0,200,2,0,200,3,0,200,4,0,200,5,0,200,6,0,201,7,0,200,8,0,201,9,0,201,10,0,200,11,0,200,12,0,200,13,0,201,14,0,200,15,0,200,16,0,201,19,0,621,20,0,621,21,0,600,22,0,600,23,0,600,24,0,600,25,0,600,26,0,600,27,0,600,28,0,600,29,0,621,30,0,600,31,0,200,32,0,600,33,0,600,34,0,600,35,0,621,36,0,621,37,0,621,38,0,621,39,0,621,40,0,600,41,0,600,42,0,600,43,0,600,44,0,600,45,0,600,46,0,621,56,0,200,57,0,200,58,0,200,59,0,600,60,0,600,61,0,600*42
$PAIRDGP,5,10,15,18,23,24*67
$GNGGA,110507.200,2500.8009467,N,12132.4832594,E,4,64,0.42,15.939,M,15.25,M,13,3335*76
$GNRMC,110507.200,A,2500.8009467,N,12132.4832594,E,0.00,17.93,260623,,,R,V*23
$GPHDT,,T*1B
$GNACCURACY,3.4*11
$GNGGA,110507.300,2500.8009481,N,12132.4832599,E,4,63,0.42,15.944,M,15.25,M,13,3335*7F
$GNRMC,110507.300,A,2500.8009481,N,12132.4832599,E,0.00,17.93,260623,,,R,V*27
$GPHDT,,T*1B
$GNACCURACY,3.4*11
$GNGGA,110507.400,2500.8009469,N,12132.4832609,E,4,63,0.42,15.931,M,15.25,M,13,3335*76
$GNRMC,110507.400,A,2500.8009469,N,12132.4832609,E,0.00,17.93,260623,,,R,V*2C
$GPHDT,,T*1B
$GNACCURACY,3.4*11
$GNGGA,110507.500,2500.8009463,N,12132.4832588,E,4,64,0.42,15.939,M,15.25,M,13,3335*78
$GNRMC,110507.500,A,2500.8009463,N,12132.4832588,E,0.00,17.93,260623,,,R,V*2D
$GPHDT,,T*1B
$GNACCURACY,3.4*11
$GNGGA,110507.600,2500.8009462,N,12132.4832575,E,4,64,0.42,15.941,M,15.25,M,13,3335*77
$GNRMC,110507.600,A,2500.8009462,N,12132.4832575,E,0.00,17.93,260623,,,R,V*2D
$GPHDT,,T*1B
$GNACCURACY,3.4*11
$GNGGA,110507.700,2500.8009486,N,12132.4832598,E,4,64,0.42,15.930,M,15.25,M,13,3335*79
$GNRMC,110507.700,A,2500.8009486,N,12132.4832598,E,0.00,17.93,260623,,,R,V*25
$GPHDT,,T*1B
$GNACCURACY,3.4*11
$GNGGA,110507.800,2500.8009453,N,12132.4832587,E,4,64,0.42,15.931,M,15.25,M,13,3335*71
$GNRMC,110507.800,A,2500.8009453,N,12132.4832587,E,0.00,17.93,260623,,,R,V*2C
$GPHDT,,T*1B
$GNACCURACY,3.4*11
$GNGGA,110507.900,2500.8009470,N,12132.4832589,E,4,64,0.42,15.937,M,15.25,M,13,3335*79
$GNRMC,110507.900,A,2500.8009470,N,12132.4832589,E,0.00,17.93,260623,,,R,V*22
$GPHDT,,T*1B
$GNACCURACY,3.4*11
$GNGGA,110508.000,2500.8009467,N,12132.4832577,E,4,64,0.42,15.932,M,15.25,M,14,3335*7A
$GNRMC,110508.000,A,2500.8009467,N,12132.4832577,E,0.00,17.93,260623,,,R,V*23
$GPHDT,,T*1B
$GNACCURACY,3.4*11
$GNGGA,110508.100,2500.8009492,N,12132.4832621,E,4,64,0.42,15.939,M,15.25,M,14,3335*7A
$GNRMC,110508.100,A,2500.8009492,N,12132.4832621,E,0.00,17.93,260623,,,R,V*28
$GPHDT,,T*1B
$GNGSA,A,3,24,196,18,199,15,23,195,194,05,10,,,0.79,0.42,0.67,1*08
$GNGSA,A,3,80,85,70,73,86,71,79,84,69,,,,0.79,0.42,0.67,2*08
$GNGSA,A,3,13,08,07,15,26,02,03,,,,,,0.79,0.42,0.67,3*06
$GNGSA,A,3,38,08,39,16,13,06,46,09,19,20,37,36,0.79,0.42,0.67,4*07
$GNGSA,A,3,29,35,,,,,,,,,,,0.79,0.42,0.67,4*00
$GPGSV,5,1,17,24,82,082,43,196,74,059,42,18,61,268,34,199,60,167,36,1*67
$GPGSV,5,2,17,45,47,231,43,15,42,036,40,23,42,332,43,195,38,179,31,1*5A
$GPGSV,5,3,17,194,27,141,25,05,25,110,36,12,14,148,17,13,14,050,15,1*52
$GPGSV,5,4,17,10,11,314,38,32,05,261,,29,05,203,14,20,04,124,,1*65
$GPGSV,5,5,17,25,03,182,,1*5D
$GPGSV,2,1,08,24,82,082,47,196,74,059,44,18,61,268,45,199,60,167,48,8*6A
$GPGSV,2,2,08,23,42,332,43,195,38,179,31,194,27,141,32,10,11,314,34,8*60
$GLGSV,3,1,09,80,46,095,41,85,42,260,19,70,39,356,24,73,27,164,31,1*7C
$GLGSV,3,2,09,86,23,313,39,71,18,303,33,79,18,040,24,84,18,194,24,1*71
$GLGSV,3,3,09,69,16,063,23,1*4D
$GAGSV,3,1,09,13,62,246,35,08,50,015,39,07,42,292,29,15,31,174,28,7*76
$GAGSV,3,2,09,26,28,314,27,02,23,094,20,30,20,149,19,03,14,058,26,7*70
$GAGSV,3,3,09,25,05,049,,7*45
$GAGSV,2,1,08,13,62,246,40,08,50,015,41,07,42,292,27,15,31,174,31,1*7B
$GAGSV,2,2,08,26,28,314,35,02,23,094,22,30,20,149,21,03,14,058,24,1*7E
$GBGSV,4,1,15,38,82,070,40,08,74,007,33,39,73,267,43,16,66,244,42,1*70
$GBGSV,4,2,15,13,64,339,37,06,64,241,42,46,54,127,37,09,48,230,39,1*71
$GBGSV,4,3,15,19,45,334,43,20,45,051,41,37,28,054,35,36,26,185,32,1*78
$GBGSV,4,4,15,29,25,218,33,35,23,278,22,22,07,294,27,1*42
$GBGSV,3,1,09,38,82,070,43,39,73,267,45,46,54,127,38,20,45,051,40,4*7A
$GBGSV,3,2,09,19,45,334,47,37,28,054,33,36,26,185,37,29,25,218,31,4*76
$GBGSV,3,3,09,35,23,278,23,4*41
$GNACCURACY,3.4*11
$PAIRSAT,1,35,1,0,200,2,0,200,3,0,200,4,0,200,5,0,201,6,0,200,7,0,200,8,0,200,9,0,200,10,0,221,11,0,200,12,0,200,13,0,201,14,0,200,15,0,201,16,0,200,17,0,200,18,0,221,19,0,200,20,0,200,21,0,200,23,0,221,24,0,221,25,0,200,26,0,200,27,0,200,28,0,200,29,0,200,30,0,200,31,0,200,32,0,200,194,0,621,195,0,621,196,0,620,199,0,621*6A
$PAIRSAT,2,23,65,0,200,67,0,200,68,0,200,69,0,201,70,0,201,71,0,201,72,0,200,73,0,201,74,0,200,75,0,200,76,0,200,77,0,200,78,0,200,79,0,201,80,0,201,81,0,200,82,0,200,83,0,200,84,0,201,85,0,201,86,0,201,87,0,200,88,0,200*52
$PAIRSAT,3,23,2,0,1221,3,0,1221,4,0,1200,5,0,200,7,0,1221,8,0,1221,9,0,1200,10,0,1200,11,0,1200,12,0,1200,13,0,1221,15,0,1221,19,0,1200,21,0,1200,24,0,1200,25,0,1200,26,0,1221,27,0,1200,30,0,1200,31,0,1200,33,0,1200,34,0,1200,36,0,1200*69
$PAIRSAT,4,50,1,0,200,2,0,200,3,0,200,4,0,200,5,0,200,6,0,201,7,0,200,8,0,201,9,0,201,10,0,200,11,0,200,12,0,200,13,0,201,14,0,200,15,0,200,16,0,201,19,0,621,20,0,621,21,0,600,22,0,600,23,0,600,24,0,600,25,0,600,26,0,600,27,0,600,28,0,600,29,0,621,30,0,600,31,0,200,32,0,600,33,0,600,34,0,600,35,0,621,36,0,621,37,0,621,38,0,621,39,0,621,40,0,600,41,0,600,42,0,600,43,0,600,44,0,600,45,0,600,46,0,621,56,0,200,57,0,200,58,0,200,59,0,600,60,0,600,61,0,600*42
$PAIRDGP,5,10,15,18,23,24*67
$GNGGA,110508.200,2500.8009467,N,12132.4832597,E,4,63,0.42,15.941,M,15.25,M,14,3335*75
$GNRMC,110508.200,A,2500.8009467,N,12132.4832597,E,0.00,17.93,260623,,,R,V*2F
$GPHDT,,T*1B
$GNACCURACY,3.4*11
$GNGGA,110508.300,2500.8009475,N,12132.4832620,E,4,63,0.42,15.926,M,15.25,M,14,3335*79
$GNRMC,110508.300,A,2500.8009475,N,12132.4832620,E,0.00,17.93,260623,,,R,V*22
$GPHDT,,T*1B
$GNACCURACY,3.4*11
$GNGGA,110508.400,2500.8009467,N,12132.4832632,E,4,63,0.42,15.934,M,15.25,M,14,3335*7D
$GNRMC,110508.400,A,2500.8009467,N,12132.4832632,E,0.00,17.93,260623,,,R,V*25
$GPHDT,,T*1B
$GNACCURACY,3.4*11
$GNGGA,110508.500,2500.8009470,N,12132.4832605,E,4,63,0.42,15.931,M,15.25,M,14,3335*7B
$GNRMC,110508.500,A,2500.8009470,N,12132.4832605,E,0.00,17.93,260623,,,R,V*26
$GPHDT,,T*1B
$GNACCURACY,3.4*11
$GNGGA,110508.600,2500.8009458,N,12132.4832621,E,4,63,0.42,15.920,M,15.25,M,14,3335*74
$GNRMC,110508.600,A,2500.8009458,N,12132.4832621,E,0.00,17.93,260623,,,R,V*29
$GPHDT,,T*1B
$GNACCURACY,3.4*11
$GNGGA,110508.700,2500.8009461,N,12132.4832614,E,4,63,0.42,15.927,M,15.25,M,14,3335*7E
$GNRMC,110508.700,A,2500.8009461,N,12132.4832614,E,0.00,17.93,260623,,,R,V*24
$GPHDT,,T*1B
$GNACCURACY,3.4*11
$GNGGA,110508.800,2500.8009482,N,12132.4832621,E,4,63,0.42,15.923,M,15.25,M,14,3335*7E
$GNRMC,110508.800,A,2500.8009482,N,12132.4832621,E,0.00,17.93,260623,,,R,V*20
$GPHDT,,T*1B
$GNACCURACY,3.4*11
$GNGGA,110508.900,2500.8009473,N,12132.4832614,E,4,63,0.42,15.916,M,15.25,M,14,3335*71
$GNRMC,110508.900,A,2500.8009473,N,12132.4832614,E,0.00,17.93,260623,,,R,V*29
$GPHDT,,T*1B
$GNACCURACY,3.4*11
$GNGGA,110509.000,2500.8009474,N,12132.4832618,E,4,63,0.42,15.923,M,15.25,M,15,3335*75
$GNRMC,110509.000,A,2500.8009474,N,12132.4832618,E,0.00,17.93,260623,,,R,V*2A
$PAIR010,0,0,2268,126327*36
$GPHDT,,T*1B
$GNACCURACY,3.4*11
$GNGGA,110509.100,2500.8009473,N,12132.4832615,E,4,63,0.42,15.928,M,15.25,M,15,3335*75
$GNRMC,110509.100,A,2500.8009473,N,12132.4832615,E,0.00,17.93,260623,,,R,V*21
$GPHDT,,T*1B
$GNGSA,A,3,24,196,18,199,15,23,195,194,05,10,,,0.79,0.42,0.67,1*08
$GNGSA,A,3,80,85,70,73,86,71,79,84,69,,,,0.79,0.42,0.67,2*08
$GNGSA,A,3,13,08,07,15,26,02,03,,,,,,0.79,0.42,0.67,3*06
$GNGSA,A,3,38,08,39,16,13,06,46,09,19,20,37,36,0.79,0.42,0.67,4*07
$GNGSA,A,3,29,35,,,,,,,,,,,0.79,0.42,0.67,4*00
$GPGSV,5,1,17,24,82,082,43,196,74,059,42,18,61,268,31,199,60,167,36,1*62
$GPGSV,5,2,17,45,47,231,43,15,42,036,39,23,42,332,43,195,38,179,32,1*57
$GPGSV,5,3,17,194,27,141,23,05,25,110,36,12,14,148,17,13,14,050,14,1*55
$GPGSV,5,4,17,10,11,314,38,32,05,261,,29,05,203,14,20,04,124,,1*65
$GPGSV,5,5,17,25,03,182,,1*5D
$GPGSV,2,1,08,24,82,082,47,196,74,059,44,18,61,268,45,199,60,167,48,8*6A
$GPGSV,2,2,08,23,42,332,43,195,38,179,31,194,27,141,31,10,11,314,34,8*63
$GLGSV,3,1,09,80,46,095,41,85,42,260,18,70,39,356,24,73,27,164,32,1*7E
$GLGSV,3,2,09,86,23,313,39,71,18,303,32,79,18,040,25,84,18,194,24,1*71
$GLGSV,3,3,09,69,16,063,24,1*4A
$GAGSV,3,1,09,13,62,246,36,08,50,015,39,07,42,292,29,15,31,174,29,7*74
$GAGSV,3,2,09,26,28,314,27,02,23,094,19,30,20,149,18,03,14,058,26,7*7B
$GAGSV,3,3,09,25,05,049,,7*45
$GAGSV,2,1,08,13,62,246,40,08,50,015,41,07,42,292,27,15,31,174,31,1*7B
$GAGSV,2,2,08,26,28,314,36,02,23,094,23,30,20,149,21,03,14,058,24,1*7C
$GBGSV,4,1,15,38,82,070,40,08,74,007,33,39,73,267,43,16,66,244,42,1*70
$GBGSV,4,2,15,13,64,339,37,06,64,241,42,46,54,127,39,09,48,230,39,1*7F
$GBGSV,4,3,15,19,45,334,43,20,45,051,40,37,28,054,36,36,26,185,32,1*7A
$GBGSV,4,4,15,29,25,218,34,35,23,278,21,22,07,294,27,1*46
$GBGSV,3,1,09,38,82,070,42,39,73,267,45,46,54,127,39,20,45,051,40,4*7A
$GBGSV,3,2,09,19,45,334,47,37,28,054,33,36,26,185,37,29,25,218,31,4*76
$GBGSV,3,3,09,35,23,278,23,4*41
$GNACCURACY,3.3*16
$PAIRSAT,1,35,1,0,200,2,0,200,3,0,200,4,0,200,5,0,201,6,0,200,7,0,200,8,0,200,9,0,200,10,0,221,11,0,200,12,0,200,13,0,201,14,0,200,15,0,201,16,0,200,17,0,200,18,0,221,19,0,200,20,0,200,21,0,200,23,0,221,24,0,221,25,0,200,26,0,200,27,0,200,28,0,200,29,0,200,30,0,200,31,0,200,32,0,200,194,0,621,195,0,621,196,0,620,199,0,621*6A
$PAIRSAT,2,23,65,0,200,67,0,200,68,0,200,69,0,201,70,0,201,71,0,201,72,0,200,73,0,201,74,0,200,75,0,200,76,0,200,77,0,200,78,0,200,79,0,201,80,0,201,81,0,200,82,0,200,83,0,200,84,0,201,85,0,201,86,0,201,87,0,200,88,0,200*52
$PAIRSAT,3,23,2,0,1221,3,0,1221,4,0,1200,5,0,200,7,0,1221,8,0,1221,9,0,1200,10,0,1200,11,0,1200,12,0,1200,13,0,1221,15,0,1221,19,0,1200,21,0,1200,24,0,1200,25,0,1200,26,0,1221,27,0,1200,30,0,1200,31,0,1200,33,0,1200,34,0,1200,36,0,1200*69
$PAIRSAT,4,50,1,0,200,2,0,200,3,0,200,4,0,200,5,0,200,6,0,201,7,0,200,8,0,201,9,0,201,10,0,200,11,0,200,12,0,200,13,0,201,14,0,200,15,0,200,16,0,201,19,0,621,20,0,621,21,0,600,22,0,600,23,0,600,24,0,600,25,0,600,26,0,600,27,0,600,28,0,600,29,0,621,30,0,600,31,0,200,32,0,600,33,0,600,34,0,600,35,0,621,36,0,621,37,0,621,38,0,621,39,0,621,40,0,600,41,0,600,42,0,600,43,0,600,44,0,600,45,0,600,46,0,621,56,0,200,57,0,200,58,0,200,59,0,600,60,0,600,61,0,600*42
$PAIRDGP,5,10,15,18,23,24*67
$GNGGA,110509.200,2500.8009466,N,12132.4832631,E,4,63,0.42,15.924,M,15.25,M,15,3335*78
$GNRMC,110509.200,A,2500.8009466,N,12132.4832631,E,0.00,17.93,260623,,,R,V*20
$GPHDT,,T*1B
$GNACCURACY,3.3*16
$GNGGA,110509.300,2500.8009456,N,12132.4832617,E,4,63,0.42,15.923,M,15.25,M,15,3335*79
$GNRMC,110509.300,A,2500.8009456,N,12132.4832617,E,0.00,17.93,260623,,,R,V*26
$GPHDT,,T*1B
$GNACCURACY,3.4*11
$GNGGA,110509.400,2500.8009496,N,12132.4832634,E,4,63,0.42,15.928,M,15.25,M,15,3335*78
$GNRMC,110509.400,A,2500.8009496,N,12132.4832634,E,0.00,17.93,260623,,,R,V*2C
$GPHDT,,T*1B
$GNACCURACY,3.3*16
$GNGGA,110509.500,2500.8009479,N,12132.4832609,E,4,63,0.42,15.925,M,15.25,M,15,3335*7B
$GNRMC,110509.500,A,2500.8009479,N,12132.4832609,E,0.00,17.93,260623,,,R,V*22
$GPHDT,,T*1B
$GNACCURACY,3.3*16
$GNGGA,110509.600,2500.8009453,N,12132.4832615,E,4,63,0.42,15.917,M,15.25,M,15,3335*7C
$GNRMC,110509.600,A,2500.8009453,N,12132.4832615,E,0.00,17.93,260623,,,R,V*24
$GPHDT,,T*1B
$GNACCURACY,3.3*16
$GNGGA,110509.700,2500.8009503,N,12132.4832610,E,4,63,0.42,15.936,M,15.25,M,15,3335*7F
$GNRMC,110509.700,A,2500.8009503,N,12132.4832610,E,0.00,17.93,260623,,,R,V*24
$GPHDT,,T*1B
$GNACCURACY,3.3*16
$GNGGA,110509.800,2500.8009449,N,12132.4832607,E,4,63,0.42,15.912,M,15.25,M,15,3335*7F
$GNRMC,110509.800,A,2500.8009449,N,12132.4832607,E,0.00,17.93,260623,,,R,V*22
$GPHDT,,T*1B
$GNACCURACY,3.3*16
$GNGGA,110509.900,2500.8009480,N,12132.4832596,E,4,63,0.42,15.930,M,15.25,M,15,3335*70
$GNRMC,110509.900,A,2500.8009480,N,12132.4832596,E,0.00,17.93,260623,,,R,V*2D
$GPHDT,,T*1B
$GNACCURACY,3.3*16
$GNGGA,110510.000,2500.8009453,N,12132.4832605,E,4,63,0.42,15.932,M,15.25,M,16,3335*77
$GNRMC,110510.000,A,2500.8009453,N,12132.4832605,E,0.00,17.93,260623,,,R,V*2B
$GPHDT,,T*1B
$GNACCURACY,3.3*16
$GNGGA,110510.100,2500.8009475,N,12132.4832612,E,4,63,0.42,15.918,M,15.25,M,16,3335*7C
$GNRMC,110510.100,A,2500.8009475,N,12132.4832612,E,0.00,17.93,260623,,,R,V*28
$GPHDT,,T*1B
$GNGSA,A,3,24,196,18,199,15,23,195,194,05,10,,,0.79,0.42,0.67,1*08
$GNGSA,A,3,80,85,70,73,86,71,79,84,69,,,,0.79,0.42,0.67,2*08
$GNGSA,A,3,13,08,07,15,26,02,03,,,,,,0.79,0.42,0.67,3*06
$GNGSA,A,3,38,08,39,16,13,06,46,09,19,20,37,36,0.79,0.42,0.67,4*07
$GNGSA,A,3,29,35,,,,,,,,,,,0.79,0.42,0.67,4*00
$GPGSV,5,1,17,24,82,082,42,196,74,059,42,18,61,268,33,199,60,167,36,1*61
$GPGSV,5,2,17,45,47,231,43,15,42,036,39,23,42,332,43,195,38,179,32,1*57
$GPGSV,5,3,17,194,27,141,25,05,25,110,36,12,14,148,17,13,14,050,17,1*50
$GPGSV,5,4,17,10,11,314,37,32,05,261,,29,05,203,15,20,04,124,,1*6B
$GPGSV,5,5,17,25,03,182,,1*5D
$GPGSV,2,1,08,24,82,082,47,196,74,059,44,18,61,268,45,199,60,167,48,8*6A
$GPGSV,2,2,08,23,42,332,43,195,38,179,32,194,27,141,31,10,11,314,34,8*60
$GLGSV,3,1,09,80,46,095,42,85,42,260,15,70,39,356,25,73,27,164,31,1*72
$GLGSV,3,2,09,86,23,313,39,71,18,303,33,79,18,040,25,84,18,194,23,1*77
$GLGSV,3,3,09,69,16,063,24,1*4A
$GAGSV,3,1,09,13,62,246,36,08,50,015,39,07,42,292,30,15,31,174,29,7*7C
$GAGSV,3,2,09,26,28,314,27,02,23,094,19,30,20,149,18,03,14,058,26,7*7B
$GAGSV,3,3,09,25,05,049,,7*45
$GAGSV,2,1,08,13,62,246,40,08,50,015,41,07,42,292,29,15,31,174,32,1*76
$GAGSV,2,2,08,26,28,314,36,02,23,094,24,30,20,149,19,03,14,058,24,1*70
$GBGSV,4,1,15,38,82,070,40,08,74,007,33,39,73,267,43,16,66,244,42,1*70
$GBGSV,4,2,15,13,64,339,37,06,64,241,42,46,54,127,37,09,48,230,39,1*71
$GBGSV,4,3,15,19,45,334,43,20,45,051,40,37,28,054,36,36,26,185,33,1*7B
$GBGSV,4,4,15,29,25,218,34,35,23,278,21,22,07,294,27,1*46
$GBGSV,3,1,09,38,82,070,42,39,73,267,44,46,54,127,38,20,45,051,40,4*7A
$GBGSV,3,2,09,19,45,334,47,37,28,054,33,36,26,185,37,29,25,218,31,4*76
$GBGSV,3,3,09,35,23,278,22,4*40
$GNACCURACY,3.3*16
$PAIRSAT,1,35,1,0,200,2,0,200,3,0,200,4,0,200,5,0,201,6,0,200,7,0,200,8,0,200,9,0,200,10,0,221,11,0,200,12,0,200,13,0,201,14,0,200,15,0,201,16,0,200,17,0,200,18,0,221,19,0,200,20,0,200,21,0,200,23,0,221,24,0,221,25,0,200,26,0,200,27,0,200,28,0,200,29,0,200,30,0,200,31,0,200,32,0,200,194,0,621,195,0,621,196,0,620,199,0,621*6A
$PAIRSAT,2,23,65,0,200,67,0,200,68,0,200,69,0,201,70,0,201,71,0,201,72,0,200,73,0,201,74,0,200,75,0,200,76,0,200,77,0,200,78,0,200,79,0,201,80,0,201,81,0,200,82,0,200,83,0,200,84,0,201,85,0,201,86,0,201,87,0,200,88,0,200*52
$PAIRSAT,3,23,2,0,1221,3,0,1221,4,0,1200,5,0,200,7,0,1221,8,0,1221,9,0,1200,10,0,1200,11,0,1200,12,0,1200,13,0,1221,15,0,1221,19,0,1200,21,0,1200,24,0,1200,25,0,1200,26,0,1221,27,0,1200,30,0,1200,31,0,1200,33,0,1200,34,0,1200,36,0,1200*69
$PAIRSAT,4,50,1,0,200,2,0,200,3,0,200,4,0,200,5,0,200,6,0,201,7,0,200,8,0,201,9,0,201,10,0,200,11,0,200,12,0,200,13,0,201,14,0,200,15,0,200,16,0,201,19,0,621,20,0,621,21,0,600,22,0,600,23,0,600,24,0,600,25,0,600,26,0,600,27,0,600,28,0,600,29,0,621,30,0,600,31,0,200,32,0,600,33,0,600,34,0,600,35,0,621,36,0,621,37,0,621,38,0,621,39,0,621,40,0,600,41,0,600,42,0,600,43,0,600,44,0,600,45,0,600,46,0,621,56,0,200,57,0,200,58,0,200,59,0,600,60,0,600,61,0,600*42
$PAIRDGP,5,10,15,18,23,24*67
$GNGGA,110510.200,2500.8009466,N,12132.4832637,E,4,63,0.42,15.923,M,15.25,M,16,3335*72
$GNRMC,110510.200,A,2500.8009466,N,12132.4832637,E,0.00,17.93,260623,,,R,V*2E
$GPHDT,,T*1B
$GNACCURACY,3.3*16
$GNGGA,110510.300,2500.8009444,N,12132.4832612,E,4,63,0.42,15.923,M,15.25,M,16,3335*74
$GNRMC,110510.300,A,2500.8009444,N,12132.4832612,E,0.00,17.93,260623,,,R,V*28
$GPHDT,,T*1B
$GNACCURACY,3.3*16
$GNGGA,110510.400,2500.8009464,N,12132.4832625,E,4,63,0.42,15.920,M,15.25,M,16,3335*76
$GNRMC,110510.400,A,2500.8009464,N,12132.4832625,E,0.00,17.93,260623,,,R,V*29
$GPHDT,,T*1B
$GNACCURACY,3.3*16
$GNGGA,110510.500,2500.8009471,N,12132.4832656,E,4,63,0.42,15.927,M,15.25,M,16,3335*70
$GNRMC,110510.500,A,2500.8009471,N,12132.4832656,E,0.00,17.93,260623,,,R,V*28
$GPHDT,,T*1B
$GNACCURACY,3.3*16
$GNGGA,110510.600,2500.8009435,N,12132.4832627,E,4,63,0.42,15.909,M,15.25,M,16,3335*79
$GNRMC,110510.600,A,2500.8009435,N,12132.4832627,E,0.00,17.93,260623,,,R,V*2D
$GPHDT,,T*1B
$GNACCURACY,3.3*16
$GNGGA,110510.700,2500.8009457,N,12132.4832626,E,4,63,0.42,15.914,M,15.25,M,16,3335*71
$GNRMC,110510.700,A,2500.8009457,N,12132.4832626,E,0.00,17.93,260623,,,R,V*29
$GPHDT,,T*1B
$GNACCURACY,3.3*16
$GNGGA,110510.800,2500.8009477,N,12132.4832617,E,4,63,0.42,15.935,M,15.25,M,16,3335*7D
$GNRMC,110510.800,A,2500.8009477,N,12132.4832617,E,0.00,17.93,260623,,,R,V*26
$GPHDT,,T*1B
$GNACCURACY,3.3*16
$GNGGA,110510.900,2500.8009458,N,12132.4832596,E,4,63,0.42,15.915,M,15.25,M,16,3335*79
$GNRMC,110510.900,A,2500.8009458,N,12132.4832596,E,0.00,17.93,260623,,,R,V*20
$GPHDT,,T*1B
$GNACCURACY,3.3*16
$GNGGA,110511.000,2500.8009452,N,12132.4832623,E,4,63,0.42,15.925,M,15.25,M,17,3335*74
$GNRMC,110511.000,A,2500.8009452,N,12132.4832623,E,0.00,17.93,260623,,,R,V*2F
$GPHDT,,T*1B
$GNACCURACY,3.3*16
$GNGGA,110511.100,2500.8009444,N,12132.4832653,E,4,63,0.42,15.928,M,15.25,M,17,3335*78
$GNRMC,110511.100,A,2500.8009444,N,12132.4832653,E,0.00,17.93,260623,,,R,V*2E
$GPHDT,,T*1B
$GNGSA,A,3,24,196,18,199,15,23,195,194,05,10,,,0.79,0.42,0.67,1*08
$GNGSA,A,3,80,85,70,73,86,71,79,84,69,,,,0.79,0.42,0.67,2*08
$GNGSA,A,3,13,08,07,15,26,02,03,,,,,,0.79,0.42,0.67,3*06
$GNGSA,A,3,38,08,39,16,13,06,46,09,19,20,37,36,0.79,0.42,0.67,4*07
$GNGSA,A,3,29,35,,,,,,,,,,,0.79,0.42,0.67,4*00
$GPGSV,5,1,17,24,82,082,41,196,74,059,41,18,61,268,33,199,60,167,36,1*61
$GPGSV,5,2,17,45,47,231,43,15,42,036,39,23,42,332,43,195,38,179,31,1*54
$GPGSV,5,3,17,194,27,141,29,05,25,110,36,12,14,148,16,13,14,050,18,1*52
$GPGSV,5,4,17,10,11,314,36,32,05,261,,29,05,203,14,20,04,124,,1*6B
$GPGSV,5,5,17,25,03,182,,1*5D
$GPGSV,2,1,08,24,82,082,47,196,74,059,44,18,61,268,45,199,60,167,48,8*6A
$GPGSV,2,2,08,23,42,332,44,195,38,179,32,194,27,141,30,10,11,314,34,8*66
$GLGSV,3,1,09,80,46,095,42,85,42,260,15,70,39,356,25,73,27,164,33,1*70
$GLGSV,3,2,09,86,23,313,39,71,18,303,33,79,18,040,25,84,18,194,23,1*77
$GLGSV,3,3,09,69,16,063,24,1*4A
$GAGSV,3,1,09,13,62,246,35,08,50,016,39,07,42,292,30,15,31,174,29,7*7C
$GAGSV,3,2,09,26,28,314,24,02,23,094,18,30,20,149,18,03,14,058,25,7*7A
$GAGSV,3,3,09,25,05,049,,7*45
$GAGSV,2,1,08,13,62,246,40,08,50,016,41,07,42,292,30,15,31,174,32,1*7D
$GAGSV,2,2,08,26,28,314,37,02,23,094,25,30,20,149,18,03,14,058,24,1*71
$GBGSV,4,1,15,38,82,070,39,08,74,007,33,39,73,267,43,16,66,244,42,1*7E
$GBGSV,4,2,15,13,64,339,38,06,64,241,42,46,54,127,40,09,48,230,39,1*7E
$GBGSV,4,3,15,19,45,334,43,20,45,051,40,37,28,054,36,36,26,185,34,1*7C
$GBGSV,4,4,15,29,25,218,33,35,23,278,20,22,07,294,27,1*40
$GBGSV,3,1,09,38,82,070,42,39,73,267,44,46,54,127,40,20,45,051,40,4*75
$GBGSV,3,2,09,19,45,334,47,37,28,054,31,36,26,185,37,29,25,218,32,4*77
$GBGSV,3,3,09,35,23,278,24,4*46
$GNACCURACY,3.3*16
$PAIRSAT,1,35,1,0,200,2,0,200,3,0,200,4,0,200,5,0,201,6,0,200,7,0,200,8,0,200,9,0,200,10,0,221,11,0,200,12,0,200,13,0,201,14,0,200,15,0,201,16,0,200,17,0,200,18,0,221,19,0,200,20,0,200,21,0,200,23,0,221,24,0,221,25,0,200,26,0,200,27,0,200,28,0,200,29,0,200,30,0,200,31,0,200,32,0,200,194,0,621,195,0,621,196,0,620,199,0,621*6A
$PAIRSAT,2,23,65,0,200,67,0,200,68,0,200,69,0,201,70,0,201,71,0,201,72,0,200,73,0,201,74,0,200,75,0,200,76,0,200,77,0,200,78,0,200,79,0,201,80,0,201,81,0,200,82,0,200,83,0,200,84,0,201,85,0,201,86,0,201,87,0,200,88,0,200*52
$PAIRSAT,3,23,2,0,1221,3,0,1221,4,0,1200,5,0,200,7,0,1221,8,0,1221,9,0,1200,10,0,1200,11,0,1200,12,0,1200,13,0,1221,15,0,1221,19,0,1200,21,0,1200,24,0,1200,25,0,1200,26,0,1221,27,0,1200,30,0,1200,31,0,1200,33,0,1200,34,0,1200,36,0,1200*69
$PAIRSAT,4,50,1,0,200,2,0,200,3,0,200,4,0,200,5,0,200,6,0,201,7,0,200,8,0,201,9,0,201,10,0,200,11,0,200,12,0,200,13,0,201,14,0,200,15,0,200,16,0,201,19,0,621,20,0,621,21,0,600,22,0,600,23,0,600,24,0,600,25,0,600,26,0,600,27,0,600,28,0,600,29,0,621,30,0,600,31,0,200,32,0,600,33,0,600,34,0,600,35,0,621,36,0,621,37,0,621,38,0,621,39,0,621,40,0,600,41,0,600,42,0,600,43,0,600,44,0,600,45,0,600,46,0,621,56,0,200,57,0,200,58,0,200,59,0,600,60,0,600,61,0,600*42
$PAIRDGP,5,10,15,18,23,24*67
$GNGGA,110511.200,2500.8009452,N,12132.4832659,E,4,63,0.42,15.915,M,15.25,M,17,3335*78
$GNRMC,110511.200,A,2500.8009452,N,12132.4832659,E,0.00,17.93,260623,,,R,V*20
$GPHDT,,T*1B
$GNACCURACY,3.3*16
$GNGGA,110511.300,2500.8009450,N,12132.4832645,E,4,63,0.42,15.937,M,15.25,M,17,3335*76
$GNRMC,110511.300,A,2500.8009450,N,12132.4832645,E,0.00,17.93,260623,,,R,V*2E
$GPHDT,,T*1B
$GNACCURACY,3.3*16
$GNGGA,110511.400,2500.8009418,N,12132.4832631,E,4,63,0.42,15.910,M,15.25,M,17,3335*7B
$GNRMC,110511.400,A,2500.8009418,N,12132.4832631,E,0.00,17.93,260623,,,R,V*26
$GPHDT,,T*1B
$GNACCURACY,3.3*16
$GNGGA,110511.500,2500.8009433,N,12132.4832660,E,4,63,0.42,15.917,M,15.25,M,17,3335*70
$GNRMC,110511.500,A,2500.8009433,N,12132.4832660,E,0.00,17.93,260623,,,R,V*2A
$GPHDT,,T*1B
$GNACCURACY,3.3*16
$GNGGA,110511.600,2500.8009442,N,12132.4832613,E,4,63,0.42,15.914,M,15.25,M,17,3335*72
$GNRMC,110511.600,A,2500.8009442,N,12132.4832613,E,0.00,17.93,260623,,,R,V*2B
$GPHDT,,T*1B
$GNACCURACY,3.3*16
$GNGGA,110511.700,2500.8009452,N,12132.4832627,E,4,63,0.42,15.907,M,15.25,M,17,3335*77
$GNRMC,110511.700,A,2500.8009452,N,12132.4832627,E,0.00,17.93,260623,,,R,V*2C
$GPHDT,,T*1B
$GNACCURACY,3.3*16
$GNGGA,110511.800,2500.8009431,N,12132.4832602,E,4,62,0.44,15.906,M,15.25,M,17,3335*7C
$GNRMC,110511.800,A,2500.8009431,N,12132.4832602,E,0.01,17.93,260623,,,R,V*20
$GPHDT,,T*1B
$GNACCURACY,3.3*16
$GNGGA,110511.900,2500.8009424,N,12132.4832606,E,4,62,0.44,15.908,M,15.25,M,17,3335*73
$GNRMC,110511.900,A,2500.8009424,N,12132.4832606,E,0.01,17.93,260623,,,R,V*21
$GPHDT,,T*1B
$GNACCURACY,3.3*16
$GNGGA,110512.000,2500.8009416,N,12132.4832634,E,4,62,0.44,15.913,M,15.25,M,18,3335*7C
$GNRMC,110512.000,A,2500.8009416,N,12132.4832634,E,0.01,17.93,260623,,,R,V*2B
$GPHDT,,T*1B
