$FW : RTK35X,V1.1X0314AS,Lib20210517,1*54
$Tool : LOCOSYS , GNSS Firebird , v1.0.0.19*39
$---------------------------------------------------*2D
$GNGSA,A,3,24,196,18,199,15,23,195,194,05,13,10,,0.78,0.42,0.65,1*09
$GNGSA,A,3,80,85,70,73,86,71,79,84,69,,,,0.78,0.42,0.65,2*0B
$GNGSA,A,3,13,08,07,15,26,02,03,,,,,,0.78,0.42,0.65,3*05
$GNGSA,A,3,38,08,39,16,13,06,46,09,20,19,37,36,0.78,0.42,0.65,4*04
$GNGSA,A,3,29,35,,,,,,,,,,,0.78,0.42,0.65,4*03
$GPGSV,5,1,17,24,82,084,39,196,74,059,40,18,61,269,39,199,60,167,31,1*65
$GPGSV,5,2,17,45,47,231,42,15,42,036,38,23,42,332,42,195,38,179,33,1*57
$GPGSV,5,3,17,194,27,141,20,05,25,110,39,12,14,149,16,13,14,050,20,1*5E
$GPGSV,5,4,17,10,11,314,36,32,05,261,,29,05,204,15,20,04,124,,1*6D
$GPGSV,5,5,17,25,03,182,,1*5D
$GPGSV,2,1,08,24,82,084,47,196,74,059,44,18,61,269,44,199,60,167,45,8*61
$GPGSV,2,2,08,23,42,332,46,195,38,179,32,194,27,141,26,10,11,314,33,8*64
$GLGSV,3,1,09,80,46,095,44,85,42,260,26,70,39,356,24,73,27,164,29,1*7C
$GLGSV,3,2,09,86,23,314,38,71,18,303,28,79,18,040,21,84,18,194,21,1*7D
$GLGSV,3,3,09,69,16,063,18,1*45
$GAGSV,3,1,09,13,62,246,33,08,50,015,38,07,42,292,25,15,31,174,21,7*74
$GAGSV,3,2,09,26,27,314,28,02,23,094,24,30,19,149,20,03,14,058,27,7*75
$GAGSV,3,3,09,25,05,049,,7*45
$GAGSV,2,1,08,13,62,246,39,08,50,015,42,07,42,292,28,15,31,174,22,1*7B
$GAGSV,2,2,08,26,27,314,36,02,23,094,15,30,19,149,21,03,14,058,27,1*7F
$GBGSV,4,1,14,38,82,069,39,08,74,007,34,39,73,267,44,16,66,244,42,1*77
$GBGSV,4,2,14,13,64,339,38,06,64,241,40,46,54,128,44,09,48,230,39,1*76
$GBGSV,4,3,14,20,45,050,41,19,45,334,46,37,28,054,34,36,26,185,21,1*7E
$GBGSV,4,4,14,29,25,218,28,35,23,278,24,1*72
$GBGSV,3,1,09,38,82,069,41,39,73,267,46,46,54,128,41,20,45,050,41,4*72
$GBGSV,3,2,09,19,45,334,47,37,28,054,33,36,26,185,38,29,25,218,35,4*7D
$GBGSV,3,3,09,35,23,278,21,4*43
$GNACCURACY,3.4*11
$PAIRSAT,1,35,1,0,200,2,0,200,3,0,200,4,0,200,5,0,201,6,0,200,7,0,200,8,0,200,9,0,200,10,0,221,11,0,200,12,0,200,13,0,201,14,0,200,15,0,201,16,0,200,17,0,200,18,0,221,19,0,200,20,0,200,21,0,200,23,0,221,24,0,221,25,0,200,26,0,200,27,0,200,28,0,200,29,0,200,30,0,200,31,0,200,32,0,200,194,0,621,195,0,621,196,0,620,199,0,621*6A
$PAIRSAT,2,23,65,0,200,67,0,200,68,0,200,69,0,201,70,0,201,71,0,201,72,0,200,73,0,201,74,0,200,75,0,200,76,0,200,77,0,200,78,0,200,79,0,201,80,0,201,81,0,200,82,0,200,83,0,200,84,0,201,85,0,201,86,0,201,87,0,200,88,0,200*52
$PAIRSAT,3,23,2,0,1221,3,0,1221,4,0,1200,5,0,200,7,0,1221,8,0,1221,9,0,1200,10,0,1200,11,0,1200,12,0,1200,13,0,1221,15,0,1221,19,0,1200,21,0,1200,24,0,1200,25,0,1200,26,0,1221,27,0,1200,30,0,1200,31,0,1200,33,0,1200,34,0,1200,36,0,1200*69
$PAIRSAT,4,50,1,0,200,2,0,200,3,0,200,4,0,200,5,0,200,6,0,201,7,0,200,8,0,201,9,0,201,10,0,200,11,0,200,12,0,200,13,0,201,14,0,200,15,0,200,16,0,201,19,0,621,20,0,621,21,0,600,22,0,600,23,0,600,24,0,600,25,0,600,26,0,600,27,0,600,28,0,600,29,0,621,30,0,600,31,0,200,32,0,600,33,0,600,34,0,600,35,0,621,36,0,621,37,0,621,38,0,621,39,0,621,40,0,600,41,0,600,42,0,600,43,0,600,44,0,600,45,0,600,46,0,621,56,0,200,57,0,200,58,0,200,59,0,600,60,0,600,61,0,600*42
$PAIRDGP,0*45
$GNGGA,110445.200,2500.8016139,N,12132.4835790,E,1,65,0.42,14.732,M,15.25,M,34,3335*75
$GNRMC,110445.200,A,2500.8016139,N,12132.4835790,E,0.02,17.93,260623,,,A,V*34
$GPHDT,,T*1B
$GNACCURACY,3.4*11
$GNGGA,110445.300,2500.8016079,N,12132.4835850,E,1,65,0.42,14.730,M,15.25,M,34,3335*70
$GNRMC,110445.300,A,2500.8016079,N,12132.4835850,E,0.02,17.93,260623,,,A,V*33
$GPHDT,,T*1B
$GNACCURACY,3.4*11
$GNGGA,110445.400,2500.8016139,N,12132.4835970,E,1,65,0.42,14.725,M,15.25,M,34,3335*75
$GNRMC,110445.400,A,2500.8016139,N,12132.4835970,E,0.02,17.93,260623,,,A,V*32
$GPHDT,,T*1B
$GNACCURACY,3.4*11
$GNGGA,110445.500,2500.8016139,N,12132.4836030,E,1,65,0.42,14.721,M,15.25,M,34,3335*7E
$GNRMC,110445.500,A,2500.8016139,N,12132.4836030,E,0.02,17.93,260623,,,A,V*3D
$GPHDT,,T*1B
$GNACCURACY,3.4*11
$GNGGA,110445.600,2500.8016139,N,12132.4836150,E,1,65,0.42,14.720,M,15.25,M,34,3335*7B
$GNRMC,110445.600,A,2500.8016139,N,12132.4836150,E,0.02,17.93,260623,,,A,V*39
$GPHDT,,T*1B
$GNACCURACY,3.4*11
$GNGGA,110445.700,2500.8016139,N,12132.4836270,E,1,65,0.42,14.717,M,15.25,M,34,3335*7F
$GNRMC,110445.700,A,2500.8016139,N,12132.4836270,E,0.02,17.93,260623,,,A,V*39
$GPHDT,,T*1B
$GNACCURACY,3.4*11
$GNGGA,110445.800,2500.8016139,N,12132.4836390,E,1,65,0.42,14.719,M,15.25,M,34,3335*71
$GNRMC,110445.800,A,2500.8016139,N,12132.4836390,E,0.03,17.93,260623,,,A,V*38
$GPHDT,,T*1B
$GNACCURACY,3.4*11
$GNGGA,110445.900,2500.8016139,N,12132.4836450,E,1,65,0.42,14.720,M,15.25,M,34,3335*71
$GNRMC,110445.900,A,2500.8016139,N,12132.4836450,E,0.03,17.93,260623,,,A,V*32
$GPHDT,,T*1B
$GNACCURACY,3.4*11
$GNGGA,110446.000,2500.8016139,N,12132.4836510,E,1,65,0.42,14.722,M,15.25,M,35,3335*7D
$GNRMC,110446.000,A,2500.8016139,N,12132.4836510,E,0.03,17.93,260623,,,A,V*3D
$GPHDT,,T*1B
$GNACCURACY,3.4*11
$GNGGA,110446.100,2500.8016139,N,12132.4836570,E,1,64,0.42,14.726,M,15.25,M,35,3335*7F
$GNRMC,110446.100,A,2500.8016139,N,12132.4836570,E,0.02,17.93,260623,,,A,V*3B
$GPHDT,,T*1B
$GNGSA,A,3,24,196,18,199,15,23,195,194,05,10,,,0.79,0.42,0.67,1*08
$GNGSA,A,3,80,85,70,73,86,71,79,84,69,,,,0.79,0.42,0.67,2*08
$GNGSA,A,3,13,08,07,15,26,02,03,,,,,,0.79,0.42,0.67,3*06
$GNGSA,A,3,38,08,39,16,13,06,46,09,20,19,37,36,0.79,0.42,0.67,4*07
$GNGSA,A,3,29,35,,,,,,,,,,,0.79,0.42,0.67,4*00
$GPGSV,5,1,17,24,82,084,39,196,74,059,40,18,61,269,39,199,60,167,30,1*64
$GPGSV,5,2,17,45,47,231,42,15,42,036,38,23,42,332,42,195,38,179,32,1*56
$GPGSV,5,3,17,194,27,141,20,05,25,110,39,12,14,149,16,13,14,050,19,1*54
$GPGSV,5,4,17,10,11,314,36,32,05,261,,29,05,204,15,20,04,124,,1*6D
$GPGSV,5,5,17,25,03,182,,1*5D
$GPGSV,2,1,08,24,82,084,47,196,74,059,44,18,61,269,44,199,60,167,45,8*61
$GPGSV,2,2,08,23,42,332,46,195,38,179,32,194,27,141,26,10,11,314,34,8*63
$GLGSV,3,1,09,80,46,095,44,85,42,260,26,70,39,356,24,73,27,164,29,1*7C
$GLGSV,3,2,09,86,23,314,38,71,18,303,27,79,18,040,20,84,18,194,20,1*72
$GLGSV,3,3,09,69,16,063,19,1*44
$GAGSV,3,1,09,13,62,246,33,08,50,015,38,07,42,292,25,15,31,174,21,7*74
$GAGSV,3,2,09,26,27,314,28,02,23,094,24,30,19,149,20,03,14,058,26,7*74
$GAGSV,3,3,09,25,05,049,,7*45
$GAGSV,2,1,08,13,62,246,39,08,50,015,42,07,42,292,28,15,31,174,21,1*78
$GAGSV,2,2,08,26,27,314,37,02,23,094,17,30,19,149,22,03,14,058,27,1*7F
$GBGSV,4,1,14,38,82,069,39,08,74,007,34,39,73,267,44,16,66,244,42,1*77
$GBGSV,4,2,14,13,64,339,38,06,64,241,40,46,54,128,44,09,48,230,39,1*76
$GBGSV,4,3,14,20,45,050,41,19,45,334,46,37,28,054,34,36,26,185,23,1*7C
$GBGSV,4,4,14,29,25,218,28,35,23,278,23,1*75
$GBGSV,3,1,09,38,82,069,41,39,73,267,46,46,54,128,41,20,45,050,41,4*72
$GBGSV,3,2,09,19,45,334,47,37,28,054,33,36,26,185,38,29,25,218,35,4*7D
$GBGSV,3,3,09,35,23,278,21,4*43
$GNACCURACY,3.4*11
$PAIRSAT,1,35,1,0,200,2,0,200,3,0,200,4,0,200,5,0,201,6,0,200,7,0,200,8,0,200,9,0,200,10,0,221,11,0,200,12,0,200,13,0,201,14,0,200,15,0,201,16,0,200,17,0,200,18,0,221,19,0,200,20,0,200,21,0,200,23,0,221,24,0,221,25,0,200,26,0,200,27,0,200,28,0,200,29,0,200,30,0,200,31,0,200,32,0,200,194,0,621,195,0,621,196,0,620,199,0,621*6A
$PAIRSAT,2,23,65,0,200,67,0,200,68,0,200,69,0,201,70,0,201,71,0,201,72,0,200,73,0,201,74,0,200,75,0,200,76,0,200,77,0,200,78,0,200,79,0,201,80,0,201,81,0,200,82,0,200,83,0,200,84,0,201,85,0,201,86,0,201,87,0,200,88,0,200*52
$PAIRSAT,3,23,2,0,1221,3,0,1221,4,0,1200,5,0,200,7,0,1221,8,0,1221,9,0,1200,10,0,1200,11,0,1200,12,0,1200,13,0,1221,15,0,1221,19,0,1200,21,0,1200,24,0,1200,25,0,1200,26,0,1221,27,0,1200,30,0,1200,31,0,1200,33,0,1200,34,0,1200,36,0,1200*69
$PAIRSAT,4,50,1,0,200,2,0,200,3,0,200,4,0,200,5,0,200,6,0,201,7,0,200,8,0,201,9,0,201,10,0,200,11,0,200,12,0,200,13,0,201,14,0,200,15,0,200,16,0,201,19,0,621,20,0,621,21,0,600,22,0,600,23,0,600,24,0,600,25,0,600,26,0,600,27,0,600,28,0,600,29,0,621,30,0,600,31,0,200,32,0,600,33,0,600,34,0,600,35,0,621,36,0,621,37,0,621,38,0,621,39,0,621,40,0,600,41,0,600,42,0,600,43,0,600,44,0,600,45,0,600,46,0,621,56,0,200,57,0,200,58,0,200,59,0,600,60,0,600,61,0,600*42
$PAIRDGP,0*45
$GNGGA,110446.200,2500.8016079,N,12132.4836630,E,1,64,0.42,14.728,M,15.25,M,35,3335*70
$GNRMC,110446.200,A,2500.8016079,N,12132.4836630,E,0.02,17.93,260623,,,A,V*3A
$GPHDT,,T*1B
$GNACCURACY,3.4*11
$GNGGA,110446.300,2500.8016139,N,12132.4836750,E,1,64,0.42,14.726,M,15.25,M,35,3335*7D
$GNRMC,110446.300,A,2500.8016139,N,12132.4836750,E,0.02,17.93,260623,,,A,V*39
$GPHDT,,T*1B
$GNACCURACY,3.4*11
$GNGGA,110446.400,2500.8016139,N,12132.4836810,E,1,64,0.42,14.726,M,15.25,M,35,3335*71
$GNRMC,110446.400,A,2500.8016139,N,12132.4836810,E,0.03,17.93,260623,,,A,V*34
$GPHDT,,T*1B
$GNACCURACY,3.4*11
$GNGGA,110446.500,2500.8016079,N,12132.4836930,E,1,64,0.42,14.723,M,15.25,M,35,3335*73
$GNRMC,110446.500,A,2500.8016079,N,12132.4836930,E,0.02,17.93,260623,,,A,V*32
$GPHDT,,T*1B
$GNACCURACY,3.4*11
$GNGGA,110446.600,2500.8016079,N,12132.4836990,E,1,64,0.42,14.719,M,15.25,M,35,3335*73
$GNRMC,110446.600,A,2500.8016079,N,12132.4836990,E,0.03,17.93,260623,,,A,V*3A
$GPHDT,,T*1B
$GNACCURACY,3.4*11
$GNGGA,110446.700,2500.8016079,N,12132.4837110,E,1,63,0.42,14.719,M,15.25,M,35,3335*74
$GNRMC,110446.700,A,2500.8016079,N,12132.4837110,E,0.03,17.93,260623,,,A,V*3A
$GPHDT,,T*1B
$GNACCURACY,3.4*11
$GNGGA,110446.800,2500.8016079,N,12132.4837110,E,1,62,0.42,14.719,M,15.25,M,35,3335*7A
$GNRMC,110446.800,A,2500.8016079,N,12132.4837110,E,0.02,17.93,260623,,,A,V*34
$GPHDT,,T*1B
$GNACCURACY,3.4*11
$GNGGA,110446.900,2500.8016079,N,12132.4837230,E,1,62,0.42,14.719,M,15.25,M,35,3335*7A
$GNRMC,110446.900,A,2500.8016079,N,12132.4837230,E,0.02,17.93,260623,,,A,V*34
$GPHDT,,T*1B
$GNACCURACY,3.4*11
$GNGGA,110447.000,2500.8016079,N,12132.4837290,E,1,62,0.42,14.717,M,15.25,M,36,3335*75
$GNRMC,110447.000,A,2500.8016079,N,12132.4837290,E,0.02,17.93,260623,,,A,V*36
$GPHDT,,T*1B
$GNACCURACY,3.4*11
$GNGGA,110447.100,2500.8016079,N,12132.4837350,E,1,62,0.42,14.715,M,15.25,M,36,3335*7B
$GNRMC,110447.100,A,2500.8016079,N,12132.4837350,E,0.03,17.93,260623,,,A,V*3B
$GPHDT,,T*1B
$GNGSA,A,3,24,196,18,199,15,23,195,05,10,194,,,0.79,0.42,0.67,1*08
$GNGSA,A,3,80,85,70,73,86,71,79,84,69,,,,0.79,0.42,0.67,2*08
$GNGSA,A,3,13,08,07,15,26,02,03,,,,,,0.79,0.42,0.67,3*06
$GNGSA,A,3,38,08,39,16,13,06,46,09,20,19,37,36,0.79,0.42,0.67,4*07
$GNGSA,A,3,29,35,,,,,,,,,,,0.79,0.42,0.67,4*00
$GPGSV,5,1,17,24,82,084,39,196,74,059,40,18,61,269,39,199,60,167,30,1*64
$GPGSV,5,2,17,45,47,231,42,15,42,036,38,23,42,332,42,195,38,179,32,1*56
$GPGSV,5,3,17,194,27,141,19,05,25,110,39,12,14,149,14,13,14,050,20,1*56
$GPGSV,5,4,17,10,11,314,36,32,05,261,,29,05,204,15,20,04,124,,1*6D
$GPGSV,5,5,17,25,03,182,,1*5D
$GPGSV,2,1,08,24,82,084,47,196,74,059,44,18,61,269,44,199,60,167,45,8*61
$GPGSV,2,2,08,23,42,332,46,195,38,179,32,194,27,141,26,10,11,314,35,8*62
$GLGSV,3,1,09,80,46,095,44,85,42,260,26,70,39,356,24,73,27,164,29,1*7C
$GLGSV,3,2,09,86,23,314,37,71,18,303,27,79,18,040,18,84,18,194,20,1*76
$GLGSV,3,3,09,69,16,063,22,1*4C
$GAGSV,3,1,09,13,62,246,34,08,50,015,38,07,42,292,26,15,31,174,20,7*71
$GAGSV,3,2,09,26,27,314,27,02,23,094,25,30,19,149,20,03,14,058,26,7*7A
$GAGSV,3,3,09,25,05,049,,7*45
$GAGSV,2,1,07,13,62,246,40,08,50,015,42,07,42,292,29,26,27,314,37,1*7C
$GAGSV,2,2,07,02,23,094,17,30,19,149,22,03,14,058,27,1*43
$GBGSV,4,1,14,38,82,069,39,08,74,007,34,39,73,267,44,16,66,244,42,1*77
$GBGSV,4,2,14,13,64,339,38,06,64,241,40,46,54,128,44,09,48,230,39,1*76
$GBGSV,4,3,14,20,45,050,41,19,45,334,46,37,28,054,34,36,26,185,23,1*7C
$GBGSV,4,4,14,29,25,218,29,35,23,278,23,1*74
$GBGSV,3,1,09,38,82,069,41,39,73,267,46,46,54,128,41,20,45,050,41,4*72
$GBGSV,3,2,09,19,45,334,47,37,28,054,33,36,26,185,38,29,25,218,36,4*7E
$GBGSV,3,3,09,35,23,278,21,4*43
$GNACCURACY,3.4*11
$PAIRSAT,1,35,1,0,200,2,0,200,3,0,200,4,0,200,5,0,201,6,0,200,7,0,200,8,0,200,9,0,200,10,0,221,11,0,200,12,0,200,13,0,201,14,0,200,15,0,201,16,0,200,17,0,200,18,0,221,19,0,200,20,0,200,21,0,200,23,0,221,24,0,221,25,0,200,26,0,200,27,0,200,28,0,200,29,0,200,30,0,200,31,0,200,32,0,200,194,0,621,195,0,621,196,0,620,199,0,621*6A
$PAIRSAT,2,23,65,0,200,67,0,200,68,0,200,69,0,201,70,0,201,71,0,201,72,0,200,73,0,201,74,0,200,75,0,200,76,0,200,77,0,200,78,0,200,79,0,201,80,0,201,81,0,200,82,0,200,83,0,200,84,0,201,85,0,201,86,0,201,87,0,200,88,0,200*52
$PAIRSAT,3,23,2,0,1221,3,0,1221,4,0,1200,5,0,200,7,0,1221,8,0,1221,9,0,1200,10,0,1200,11,0,1200,12,0,1200,13,0,1221,15,0,1221,19,0,1200,21,0,1200,24,0,1200,25,0,1200,26,0,1221,27,0,1200,30,0,1200,31,0,1200,33,0,1200,34,0,1200,36,0,1200*69
$PAIRSAT,4,50,1,0,200,2,0,200,3,0,200,4,0,200,5,0,200,6,0,201,7,0,200,8,0,201,9,0,201,10,0,200,11,0,200,12,0,200,13,0,201,14,0,200,15,0,200,16,0,201,19,0,621,20,0,621,21,0,600,22,0,600,23,0,600,24,0,600,25,0,600,26,0,600,27,0,600,28,0,600,29,0,621,30,0,600,31,0,200,32,0,600,33,0,600,34,0,600,35,0,621,36,0,621,37,0,621,38,0,621,39,0,621,40,0,600,41,0,600,42,0,600,43,0,600,44,0,600,45,0,600,46,0,621,56,0,200,57,0,200,58,0,200,59,0,600,60,0,600,61,0,600*42
$PAIRDGP,0*45
$GNGGA,110447.200,2500.8016079,N,12132.4837470,E,1,62,0.42,14.714,M,15.25,M,36,3335*7C
$GNRMC,110447.200,A,2500.8016079,N,12132.4837470,E,0.03,17.93,260623,,,A,V*3D
$GPHDT,,T*1B
$GNACCURACY,3.4*11
$GNGGA,110447.300,2500.8016079,N,12132.4837530,E,1,62,0.42,14.714,M,15.25,M,36,3335*78
$GNRMC,110447.300,A,2500.8016079,N,12132.4837530,E,0.03,17.93,260623,,,A,V*39
$GPHDT,,T*1B
$GNACCURACY,3.4*11
$GNGGA,110447.400,2500.8016079,N,12132.4837590,E,1,61,0.42,14.715,M,15.25,M,36,3335*77
$GNRMC,110447.400,A,2500.8016079,N,12132.4837590,E,0.03,17.93,260623,,,A,V*34
$GPHDT,,T*1B
$GNACCURACY,3.4*11
$GNGGA,110447.500,2500.8016079,N,12132.4837650,E,1,62,0.42,14.715,M,15.25,M,36,3335*7A
$GNRMC,110447.500,A,2500.8016079,N,12132.4837650,E,0.03,17.93,260623,,,A,V*3A
$GPHDT,,T*1B
$GNACCURACY,3.4*11
$GNGGA,110447.600,2500.8016079,N,12132.4837650,E,1,62,0.42,14.718,M,15.25,M,36,3335*74
$GNRMC,110447.600,A,2500.8016079,N,12132.4837650,E,0.02,17.93,260623,,,A,V*38
$GPHDT,,T*1B
$GNACCURACY,3.4*11
$GNGGA,110447.700,2500.8016139,N,12132.4837710,E,1,62,0.42,14.718,M,15.25,M,36,3335*75
$GNRMC,110447.700,A,2500.8016139,N,12132.4837710,E,0.03,17.93,260623,,,A,V*38
$GPHDT,,T*1B
$GNACCURACY,3.4*11
$GNGGA,110447.800,2500.8016139,N,12132.4837710,E,1,62,0.42,14.724,M,15.25,M,36,3335*75
$GNRMC,110447.800,A,2500.8016139,N,12132.4837710,E,0.03,17.93,260623,,,A,V*37
$GPHDT,,T*1B
$GNACCURACY,3.4*11
$GNGGA,110447.900,2500.8016139,N,12132.4837770,E,1,61,0.42,14.731,M,15.25,M,36,3335*75
$GNRMC,110447.900,A,2500.8016139,N,12132.4837770,E,0.03,17.93,260623,,,A,V*30
$GPHDT,,T*1B
$GNACCURACY,3.5*10
$GNGGA,110448.000,2500.8016139,N,12132.4837770,E,1,61,0.42,14.735,M,15.25,M,37,3335*76
$GNRMC,110448.000,A,2500.8016139,N,12132.4837770,E,0.02,17.93,260623,,,A,V*37
$GPHDT,,T*1B
$GNACCURACY,3.4*11
$GNGGA,110448.100,2500.8016139,N,12132.4837830,E,1,62,0.42,14.740,M,15.25,M,37,3335*7D
$GNRMC,110448.100,A,2500.8016139,N,12132.4837830,E,0.03,17.93,260623,,,A,V*3C
$GPHDT,,T*1B
$GNGSA,A,3,24,196,18,199,15,23,195,194,05,10,,,0.79,0.42,0.67,1*08
$GNGSA,A,3,80,85,70,73,86,71,79,84,69,,,,0.79,0.42,0.67,2*08
$GNGSA,A,3,13,08,07,15,26,02,03,,,,,,0.79,0.42,0.67,3*06
$GNGSA,A,3,38,08,39,16,13,06,46,09,20,19,37,36,0.79,0.42,0.67,4*07
$GNGSA,A,3,29,35,,,,,,,,,,,0.79,0.42,0.67,4*00
$GPGSV,5,1,17,24,82,084,39,196,74,059,41,18,61,269,39,199,60,167,30,1*65
$GPGSV,5,2,17,45,47,231,42,15,42,036,38,23,42,332,42,195,38,179,30,1*54
$GPGSV,5,3,17,194,27,141,19,05,25,110,39,12,14,149,15,13,14,050,22,1*55
$GPGSV,5,4,17,10,11,314,36,32,05,261,,29,05,204,16,20,04,124,,1*6E
$GPGSV,5,5,17,25,03,182,,1*5D
$GPGSV,2,1,08,24,82,084,47,196,74,059,44,18,61,269,44,199,60,167,45,8*61
$GPGSV,2,2,08,23,42,332,46,195,38,179,31,194,27,141,26,10,11,314,35,8*61
$GLGSV,3,1,09,80,46,095,44,85,42,260,28,70,39,356,24,73,27,164,30,1*7A
$GLGSV,3,2,09,86,23,314,36,71,18,303,28,79,18,040,18,84,18,194,19,1*72
$GLGSV,3,3,09,69,16,063,24,1*4A
$GAGSV,3,1,09,13,62,246,34,08,50,015,38,07,42,292,26,15,31,174,20,7*71
$GAGSV,3,2,09,26,27,314,27,02,23,094,26,30,19,149,19,03,14,058,26,7*73
$GAGSV,3,3,09,25,05,049,,7*45
$GAGSV,2,1,06,13,62,246,40,08,50,015,42,07,42,292,29,26,27,314,37,1*7D
$GAGSV,2,2,06,30,19,149,24,03,14,058,25,1*7E
$GBGSV,4,1,14,38,82,069,39,08,74,007,34,39,73,267,44,16,66,244,42,1*77
$GBGSV,4,2,14,13,64,339,38,06,64,241,40,46,54,128,44,09,48,230,39,1*76
$GBGSV,4,3,14,20,45,050,41,19,45,334,46,37,28,054,35,36,26,185,25,1*7B
$GBGSV,4,4,14,29,25,218,29,35,23,278,23,1*74
$GBGSV,3,1,09,38,82,069,41,39,73,267,46,46,54,128,41,20,45,050,41,4*72
$GBGSV,3,2,09,19,45,334,47,37,28,054,31,36,26,185,37,29,25,218,36,4*73
$GBGSV,3,3,09,35,23,278,21,4*43
$GNACCURACY,3.4*11
$PAIRSAT,1,35,1,0,200,2,0,200,3,0,200,4,0,200,5,0,201,6,0,200,7,0,200,8,0,200,9,0,200,10,0,221,11,0,200,12,0,200,13,0,201,14,0,200,15,0,201,16,0,200,17,0,200,18,0,221,19,0,200,20,0,200,21,0,200,23,0,221,24,0,221,25,0,200,26,0,200,27,0,200,28,0,200,29,0,200,30,0,200,31,0,200,32,0,200,194,0,621,195,0,621,196,0,620,199,0,621*6A
$PAIRSAT,2,23,65,0,200,67,0,200,68,0,200,69,0,201,70,0,201,71,0,201,72,0,200,73,0,201,74,0,200,75,0,200,76,0,200,77,0,200,78,0,200,79,0,201,80,0,201,81,0,200,82,0,200,83,0,200,84,0,201,85,0,201,86,0,201,87,0,200,88,0,200*52
$PAIRSAT,3,23,2,0,1221,3,0,1221,4,0,1200,5,0,200,7,0,1221,8,0,1221,9,0,1200,10,0,1200,11,0,1200,12,0,1200,13,0,1221,15,0,1221,19,0,1200,21,0,1200,24,0,1200,25,0,1200,26,0,1221,27,0,1200,30,0,1200,31,0,1200,33,0,1200,34,0,1200,36,0,1200*69
$PAIRSAT,4,50,1,0,200,2,0,200,3,0,200,4,0,200,5,0,200,6,0,201,7,0,200,8,0,201,9,0,201,10,0,200,11,0,200,12,0,200,13,0,201,14,0,200,15,0,200,16,0,201,19,0,621,20,0,621,21,0,600,22,0,600,23,0,600,24,0,600,25,0,600,26,0,600,27,0,600,28,0,600,29,0,621,30,0,600,31,0,200,32,0,600,33,0,600,34,0,600,35,0,621,36,0,621,37,0,621,38,0,621,39,0,621,40,0,600,41,0,600,42,0,600,43,0,600,44,0,600,45,0,600,46,0,621,56,0,200,57,0,200,58,0,200,59,0,600,60,0,600,61,0,600*42
$PAIRDGP,0*45
$GNGGA,110448.200,2500.8016139,N,12132.4837830,E,1,62,0.42,14.741,M,15.25,M,37,3335*7F
$GNRMC,110448.200,A,2500.8016139,N,12132.4837830,E,0.03,17.93,260623,,,A,V*3F
$GPHDT,,T*1B
$GNACCURACY,3.4*11
$GNGGA,110448.300,2500.8016139,N,12132.4837830,E,1,62,0.42,14.747,M,15.25,M,37,3335*78
$GNRMC,110448.300,A,2500.8016139,N,12132.4837830,E,0.03,17.93,260623,,,A,V*3E
$GPHDT,,T*1B
$GNACCURACY,3.4*11
$GNGGA,110448.400,2500.8016139,N,12132.4837890,E,1,62,0.42,14.752,M,15.25,M,37,3335*71
$GNRMC,110448.400,A,2500.8016139,N,12132.4837890,E,0.03,17.93,260623,,,A,V*33
$GPHDT,,T*1B
$GNACCURACY,3.4*11
$GNGGA,110448.500,2500.8016139,N,12132.4837830,E,1,62,0.42,14.762,M,15.25,M,37,3335*79
$GNRMC,110448.500,A,2500.8016139,N,12132.4837830,E,0.02,17.93,260623,,,A,V*39
$GPHDT,,T*1B
$GNACCURACY,3.4*11
$GNGGA,110448.600,2500.8016139,N,12132.4837830,E,1,63,0.42,14.763,M,15.25,M,37,3335*7A
$GNRMC,110448.600,A,2500.8016139,N,12132.4837830,E,0.02,17.93,260623,,,A,V*3A
$GPHDT,,T*1B
$GNACCURACY,3.5*10
$GNGGA,110448.700,2500.8016139,N,12132.4837830,E,1,63,0.42,14.765,M,15.25,M,37,3335*7D
$GNRMC,110448.700,A,2500.8016139,N,12132.4837830,E,0.02,17.93,260623,,,A,V*3B
$GPHDT,,T*1B
$GNACCURACY,3.4*11
$GNGGA,110448.800,2500.8016139,N,12132.4837830,E,1,63,0.42,14.767,M,15.25,M,37,3335*70
$GNRMC,110448.800,A,2500.8016139,N,12132.4837830,E,0.02,17.93,260623,,,A,V*34
$GPHDT,,T*1B
$GNACCURACY,3.5*10
$GNGGA,110448.900,2500.8016139,N,12132.4837830,E,1,63,0.42,14.768,M,15.25,M,37,3335*7E
$GNRMC,110448.900,A,2500.8016139,N,12132.4837830,E,0.02,17.93,260623,,,A,V*35
$GPHDT,,T*1B
$GNACCURACY,3.5*10
$GNGGA,110449.000,2500.8016139,N,12132.4837770,E,1,62,0.42,14.772,M,15.25,M,38,3335*78
$GNRMC,110449.000,A,2500.8016139,N,12132.4837770,E,0.02,17.93,260623,,,A,V*36
$GPHDT,,T*1B
$GNACCURACY,3.5*10
$GNGGA,110449.100,2500.8016079,N,12132.4837770,E,1,62,0.42,14.779,M,15.25,M,38,3335*77
$GNRMC,110449.100,A,2500.8016079,N,12132.4837770,E,0.02,17.93,260623,,,A,V*32
$GPHDT,,T*1B
$GNGSA,A,3,24,196,18,199,15,23,195,194,05,10,,,0.79,0.42,0.67,1*08
$GNGSA,A,3,80,85,70,73,86,84,79,71,69,,,,0.79,0.42,0.67,2*08
$GNGSA,A,3,13,08,07,15,26,02,03,,,,,,0.79,0.42,0.67,3*06
$GNGSA,A,3,38,08,39,16,06,13,46,09,19,20,37,36,0.79,0.42,0.67,4*07
$GNGSA,A,3,29,35,,,,,,,,,,,0.79,0.42,0.67,4*00
$GPGSV,5,1,17,24,82,084,39,196,74,059,41,18,61,269,39,199,60,167,30,1*65
$GPGSV,5,2,17,45,47,231,42,15,42,036,38,23,42,332,42,195,38,179,30,1*54
$GPGSV,5,3,17,194,27,141,19,05,25,110,39,12,14,149,15,13,14,050,24,1*53
$GPGSV,5,4,17,10,11,314,36,32,05,261,,29,05,204,16,20,04,124,,1*6E
$GPGSV,5,5,17,25,03,182,,1*5D
$GPGSV,2,1,08,24,82,084,46,196,74,059,44,18,61,269,44,199,60,167,45,8*60
$GPGSV,2,2,08,23,42,332,46,195,38,179,31,194,27,141,21,10,11,314,34,8*67
$GLGSV,3,1,09,80,46,095,44,85,42,260,29,70,39,356,24,73,27,164,27,1*7D
$GLGSV,3,2,09,86,23,314,36,84,18,194,19,79,18,040,18,71,18,303,28,1*72
$GLGSV,3,3,09,69,16,063,27,1*49
$GAGSV,3,1,09,13,62,246,35,08,50,015,38,07,42,292,25,15,31,174,19,7*79
$GAGSV,3,2,09,26,27,314,27,02,23,094,28,30,19,149,19,03,14,058,27,7*7C
$GAGSV,3,3,09,25,05,049,,7*45
$GAGSV,2,1,06,13,62,246,40,08,50,015,42,07,42,292,29,26,27,314,37,1*7D
$GAGSV,2,2,06,30,19,149,25,03,14,058,25,1*7F
$GBGSV,4,1,16,38,82,069,39,08,74,007,33,39,73,267,44,16,66,244,42,1*72
$GBGSV,4,2,16,06,64,241,41,13,64,339,38,46,54,128,44,56,48,307,,1*70
$GBGSV,4,3,16,09,48,230,39,19,45,334,46,20,45,050,41,37,28,054,35,1*7D
$GBGSV,4,4,16,36,26,185,26,29,25,218,30,35,23,278,25,32,06,091,,1*7E
$GBGSV,3,1,09,38,82,069,40,39,73,267,45,46,54,128,41,20,45,050,41,4*70
$GBGSV,3,2,09,19,45,334,47,37,28,054,30,36,26,185,36,29,25,218,35,4*70
$GBGSV,3,3,09,35,23,278,22,4*40
$GNACCURACY,3.5*10
$PAIRSAT,1,35,1,0,200,2,0,200,3,0,200,4,0,200,5,0,201,6,0,200,7,0,200,8,0,200,9,0,200,10,0,221,11,0,200,12,0,200,13,0,201,14,0,200,15,0,201,16,0,200,17,0,200,18,0,221,19,0,200,20,0,200,21,0,200,23,0,221,24,0,221,25,0,200,26,0,200,27,0,200,28,0,200,29,0,200,30,0,200,31,0,200,32,0,200,194,0,621,195,0,621,196,0,620,199,0,621*6A
$PAIRSAT,2,23,65,0,200,67,0,200,68,0,200,69,0,201,70,0,201,71,0,201,72,0,200,73,0,201,74,0,200,75,0,200,76,0,200,77,0,200,78,0,200,79,0,201,80,0,201,81,0,200,82,0,200,83,0,200,84,0,201,85,0,201,86,0,201,87,0,200,88,0,200*52
$PAIRSAT,3,23,2,0,1221,3,0,1221,4,0,1200,5,0,200,7,0,1221,8,0,1221,9,0,1200,10,0,1200,11,0,1200,12,0,1200,13,0,1221,15,0,1221,19,0,1200,21,0,1200,24,0,1200,25,0,1200,26,0,1221,27,0,1200,30,0,1200,31,0,1200,33,0,1200,34,0,1200,36,0,1200*69
$PAIRSAT,4,50,1,0,200,2,0,200,3,0,200,4,0,200,5,0,200,6,0,201,7,0,200,8,0,201,9,0,201,10,0,200,11,0,200,12,0,200,13,0,201,14,0,200,15,0,200,16,0,201,19,0,621,20,0,621,21,0,600,22,0,600,23,0,600,24,0,600,25,0,600,26,0,600,27,0,600,28,0,600,29,0,621,30,0,600,31,0,200,32,0,600,33,0,600,34,0,600,35,0,621,36,0,621,37,0,621,38,0,621,39,0,621,40,0,600,41,0,600,42,0,600,43,0,600,44,0,600,45,0,600,46,0,621,56,0,200,57,0,200,58,0,200,59,0,600,60,0,600,61,0,600*42
$PAIRDGP,0*45
$GNGGA,110449.200,2500.8016079,N,12132.4837710,E,1,62,0.42,14.783,M,15.25,M,38,3335*77
$GNRMC,110449.200,A,2500.8016079,N,12132.4837710,E,0.02,17.93,260623,,,A,V*37
$GPHDT,,T*1B
$GNACCURACY,3.5*10
$GNGGA,110449.300,2500.8016019,N,12132.4837710,E,1,62,0.42,14.788,M,15.25,M,38,3335*7B
$GNRMC,110449.300,A,2500.8016019,N,12132.4837710,E,0.02,17.93,260623,,,A,V*30
$GPHDT,,T*1B
$GNACCURACY,3.5*10
$GNGGA,110449.400,2500.8016019,N,12132.4837650,E,1,64,0.42,14.791,M,15.25,M,38,3335*77
$GNRMC,110449.400,A,2500.8016019,N,12132.4837650,E,0.02,17.93,260623,,,A,V*32
$GPHDT,,T*1B
$GNACCURACY,3.4*11
$GNGGA,110449.500,2500.8016019,N,12132.4837650,E,1,64,0.42,14.798,M,15.25,M,38,3335*7F
$GNRMC,110449.500,A,2500.8016019,N,12132.4837650,E,0.02,17.93,260623,,,A,V*33
$GPHDT,,T*1B
$GNACCURACY,3.4*11
$GNGGA,110449.600,2500.8016019,N,12132.4837590,E,1,64,0.42,14.804,M,15.25,M,38,3335*79
$GNRMC,110449.600,A,2500.8016019,N,12132.4837590,E,0.02,17.93,260623,,,A,V*3F
$GPHDT,,T*1B
$GNACCURACY,3.4*11
$GNGGA,110449.700,2500.8016019,N,12132.4837590,E,1,64,0.42,14.806,M,15.25,M,38,3335*7A
$GNRMC,110449.700,A,2500.8016019,N,12132.4837590,E,0.02,17.93,260623,,,A,V*3E
$GPHDT,,T*1B
$GNACCURACY,3.4*11
$GNGGA,110449.800,2500.8015959,N,12132.4837590,E,1,64,0.42,14.806,M,15.25,M,38,3335*7B
$GNRMC,110449.800,A,2500.8015959,N,12132.4837590,E,0.02,17.93,260623,,,A,V*3F
$GPHDT,,T*1B
$GNACCURACY,3.4*11
$GNGGA,110449.900,2500.8015959,N,12132.4837530,E,1,64,0.42,14.813,M,15.25,M,38,3335*74
$GNRMC,110449.900,A,2500.8015959,N,12132.4837530,E,0.02,17.93,260623,,,A,V*34
$GPHDT,,T*1B
$GNACCURACY,3.4*11
$GNGGA,110450.000,2500.8015899,N,12132.4837470,E,1,64,0.42,14.820,M,15.25,M,39,3335*7C
$GNRMC,110450.000,A,2500.8015899,N,12132.4837470,E,0.02,17.93,260623,,,A,V*3D
$GPHDT,,T*1B
$GNACCURACY,3.4*11
$GNGGA,110450.100,2500.8015899,N,12132.4837470,E,1,64,0.42,14.827,M,15.25,M,39,3335*7A
$GNRMC,110450.100,A,2500.8015899,N,12132.4837470,E,0.02,17.93,260623,,,A,V*3C
$GPHDT,,T*1B
$GNGSA,A,3,24,196,18,199,23,15,195,194,05,13,10,,0.78,0.42,0.65,1*09
$GNGSA,A,3,80,85,70,73,86,84,71,79,69,,,,0.78,0.42,0.65,2*0B
$GNGSA,A,3,13,08,07,15,26,02,03,,,,,,0.78,0.42,0.65,3*05
$GNGSA,A,3,38,08,39,16,13,06,46,09,19,20,37,36,0.78,0.42,0.65,4*04
$GNGSA,A,3,29,35,,,,,,,,,,,0.78,0.42,0.65,4*03
$GPGSV,4,1,15,24,82,084,39,196,74,059,41,18,61,269,39,199,60,167,30,1*66
$GPGSV,4,2,15,45,47,231,42,23,42,332,42,15,42,036,40,195,38,179,29,1*50
$GPGSV,4,3,15,194,27,141,18,05,25,110,39,12,14,149,14,13,14,050,24,1*50
$GPGSV,4,4,15,10,11,314,36,29,05,204,16,32,05,261,,1*5C
$GPGSV,2,1,08,24,82,084,46,196,74,059,45,18,61,269,44,199,60,167,45,8*61
$GPGSV,2,2,08,23,42,332,46,195,38,179,31,194,27,141,22,10,11,314,34,8*64
$GLGSV,3,1,09,80,46,095,44,85,42,260,30,70,39,356,24,73,27,164,28,1*7A
$GLGSV,3,2,09,86,23,314,36,84,18,194,19,71,18,303,30,79,18,040,20,1*70
$GLGSV,3,3,09,69,16,063,26,1*48
$GAGSV,3,1,09,13,62,246,35,08,50,015,38,07,42,292,25,15,31,174,19,7*79
$GAGSV,3,2,09,26,27,314,27,02,23,094,28,30,19,149,19,03,14,058,27,7*7C
$GAGSV,3,3,09,25,05,049,,7*45
$GAGSV,2,1,07,13,62,246,40,08,50,015,42,07,42,292,29,15,31,174,27,1*7E
$GAGSV,2,2,07,26,27,314,36,30,19,149,24,03,14,058,26,1*4E
$GBGSV,4,1,15,38,82,069,39,08,74,007,34,39,73,267,44,16,66,244,42,1*76
$GBGSV,4,2,15,13,64,339,38,06,64,241,41,46,54,128,44,09,48,230,39,1*76
$GBGSV,4,3,15,19,45,334,46,20,45,050,41,31,33,205,,37,28,054,35,1*75
$GBGSV,4,4,15,36,26,185,27,29,25,218,30,35,23,278,26,1*40
$GBGSV,3,1,09,38,82,069,40,39,73,267,45,46,54,128,41,20,45,050,41,4*70
$GBGSV,3,2,09,19,45,334,47,37,28,054,31,36,26,185,36,29,25,218,35,4*71
$GBGSV,3,3,09,35,23,278,23,4*41
$GNACCURACY,3.4*11
$PAIRSAT,1,35,1,0,200,2,0,200,3,0,200,4,0,200,5,0,201,6,0,200,7,0,200,8,0,200,9,0,200,10,0,221,11,0,200,12,0,200,13,0,201,14,0,200,15,0,201,16,0,200,17,0,200,18,0,221,19,0,200,20,0,200,21,0,200,23,0,221,24,0,221,25,0,200,26,0,200,27,0,200,28,0,200,29,0,200,30,0,200,31,0,200,32,0,200,194,0,621,195,0,621,196,0,620,199,0,621*6A
$PAIRSAT,2,23,65,0,200,67,0,200,68,0,200,69,0,201,70,0,201,71,0,201,72,0,200,73,0,201,74,0,200,75,0,200,76,0,200,77,0,200,78,0,200,79,0,201,80,0,201,81,0,200,82,0,200,83,0,200,84,0,201,85,0,201,86,0,201,87,0,200,88,0,200*52
$PAIRSAT,3,23,2,0,1221,3,0,1221,4,0,1200,5,0,200,7,0,1221,8,0,1221,9,0,1200,10,0,1200,11,0,1200,12,0,1200,13,0,1221,15,0,1221,19,0,1200,21,0,1200,24,0,1200,25,0,1200,26,0,1221,27,0,1200,30,0,1200,31,0,1200,33,0,1200,34,0,1200,36,0,1200*69
$PAIRSAT,4,50,1,0,200,2,0,200,3,0,200,4,0,200,5,0,200,6,0,201,7,0,200,8,0,201,9,0,201,10,0,200,11,0,200,12,0,200,13,0,201,14,0,200,15,0,200,16,0,201,19,0,621,20,0,621,21,0,600,22,0,600,23,0,600,24,0,600,25,0,600,26,0,600,27,0,600,28,0,600,29,0,621,30,0,600,31,0,200,32,0,600,33,0,600,34,0,600,35,0,621,36,0,621,37,0,621,38,0,621,39,0,621,40,0,600,41,0,600,42,0,600,43,0,600,44,0,600,45,0,600,46,0,621,56,0,200,57,0,200,58,0,200,59,0,600,60,0,600,61,0,600*42
$PAIRDGP,0*45
$GNGGA,110450.200,2500.8015899,N,12132.4837410,E,1,64,0.42,14.834,M,15.25,M,39,3335*7D
$GNRMC,110450.200,A,2500.8015899,N,12132.4837410,E,0.02,17.93,260623,,,A,V*39
$GPHDT,,T*1B
$GNACCURACY,3.4*11
$GNGGA,110450.300,2500.8015839,N,12132.4837350,E,1,64,0.42,14.839,M,15.25,M,39,3335*78
$GNRMC,110450.300,A,2500.8015839,N,12132.4837350,E,0.02,17.93,260623,,,A,V*31
$GPHDT,,T*1B
$GNACCURACY,3.4*11
$GNGGA,110450.400,2500.8015779,N,12132.4837350,E,1,64,0.42,14.846,M,15.25,M,39,3335*7C
$GNRMC,110450.400,A,2500.8015779,N,12132.4837350,E,0.02,17.93,260623,,,A,V*3D
$GPHDT,,T*1B
$GNACCURACY,3.4*11
$GNGGA,110450.500,2500.8015779,N,12132.4837290,E,1,64,0.42,14.849,M,15.25,M,39,3335*7F
$GNRMC,110450.500,A,2500.8015779,N,12132.4837290,E,0.02,17.93,260623,,,A,V*31
$GPHDT,,T*1B
$GNACCURACY,3.4*11
$GNGGA,110450.600,2500.8015719,N,12132.4837290,E,1,63,0.42,14.853,M,15.25,M,39,3335*76
$GNRMC,110450.600,A,2500.8015719,N,12132.4837290,E,0.02,17.93,260623,,,A,V*34
$GPHDT,,T*1B
$GNACCURACY,3.4*11
$GNGGA,110450.700,2500.8015719,N,12132.4837290,E,1,63,0.42,14.854,M,15.25,M,39,3335*70
$GNRMC,110450.700,A,2500.8015719,N,12132.4837290,E,0.02,17.93,260623,,,A,V*35
$GPHDT,,T*1B
$GNACCURACY,3.4*11
$GNGGA,110450.800,2500.8015659,N,12132.4837290,E,1,63,0.42,14.851,M,15.25,M,36,3335*70
$GNRMC,110450.800,A,2500.8015659,N,12132.4837290,E,0.02,17.93,260623,,,A,V*3F
$GPHDT,,T*1B
$GNACCURACY,3.4*11
$GNGGA,110450.900,2500.8015659,N,12132.4837230,E,1,64,0.42,14.855,M,15.25,M,36,3335*78
$GNRMC,110450.900,A,2500.8015659,N,12132.4837230,E,0.02,17.93,260623,,,A,V*34
$GPHDT,,T*1B
$GNACCURACY,3.4*11
$GNGGA,110451.000,2500.8015599,N,12132.4837230,E,1,64,0.42,14.857,M,15.25,M,37,3335*7C
$GNRMC,110451.000,A,2500.8015599,N,12132.4837230,E,0.02,17.93,260623,,,A,V*33
$GPHDT,,T*1B
$GNACCURACY,3.4*11
$GNGGA,110451.100,2500.8015599,N,12132.4837230,E,1,64,0.42,14.862,M,15.25,M,37,3335*7B
$GNRMC,110451.100,