$FW : RTK35X,V1.1X0314AS,Lib20210517,1*54
$Tool : LOCOSYS , GNSS Firebird , v1.0.0.19*39
$---------------------------------------------------*2D
$GNACCURACY,3.3*16
$GNGGA,110300.900,2500.8009019,N,12132.4824490,E,1,62,0.43,15.053,M,15.25,M,14,3335*73
$GNRMC,110300.900,A,2500.8009019,N,12132.4824490,E,0.02,123.59,260623,,,A,V*07
$GPHDT,,T*1B
$GNACCURACY,3.3*16
$GNGGA,110301.000,2500.8009019,N,12132.4824430,E,1,61,0.43,15.041,M,15.25,M,15,3335*70
$GNRMC,110301.000,A,2500.8009019,N,12132.4824430,E,0.01,123.59,260623,,,A,V*06
$GPHDT,,T*1B
$GNACCURACY,3.3*16
$GNGGA,110301.100,2500.8009019,N,12132.4824370,E,1,60,0.44,15.029,M,15.25,M,15,3335*7A
$GNRMC,110301.100,A,2500.8009019,N,12132.4824370,E,0.01,123.59,260623,,,A,V*04
$GPHDT,,T*1B
$GNGSA,A,3,24,196,18,199,15,23,195,194,05,13,10,,0.71,0.44,0.56,1*06
$GNGSA,A,3,80,85,73,86,84,79,69,,,,,,0.71,0.44,0.56,2*05
$GNGSA,A,3,13,08,07,15,26,02,03,,,,,,0.71,0.44,0.56,3*0A
$GNGSA,A,3,38,39,08,16,13,06,46,09,20,19,37,29,0.71,0.44,0.56,4*05
$GNGSA,A,3,36,35,,,,,,,,,,,0.71,0.44,0.56,4*02
$GPGSV,5,1,17,24,82,090,40,196,74,059,42,18,61,270,38,199,60,167,34,1*60
$GPGSV,5,2,17,45,47,231,42,15,42,035,35,23,41,331,42,195,38,179,37,1*5D
$GPGSV,5,3,17,194,27,141,30,05,26,109,40,13,15,050,26,12,14,149,18,1*53
$GPGSV,5,4,17,10,10,313,34,29,06,204,16,32,04,260,,20,04,124,,1*69
$GPGSV,5,5,17,25,02,182,,1*5C
$GPGSV,2,1,08,24,82,090,49,196,74,059,43,18,61,270,43,199,60,167,46,8*61
$GPGSV,2,2,08,23,41,331,44,195,38,179,29,194,27,141,36,10,10,313,24,8*6D
$GLGSV,3,1,09,80,46,097,46,85,42,261,29,70,39,354,13,73,26,164,36,1*7B
$GLGSV,3,2,09,86,23,315,34,84,19,194,24,79,19,041,19,69,17,062,25,1*70
$GLGSV,3,3,09,71,17,302,24,1*46
$GAGSV,2,1,08,13,63,248,37,08,50,015,39,07,42,291,31,15,32,174,35,7*7E
$GAGSV,2,2,08,26,27,314,18,02,23,095,25,03,14,057,25,25,05,050,,7*79
$GAGSV,2,1,05,13,63,248,40,08,50,015,38,07,42,291,27,15,32,174,33,1*75
$GAGSV,2,2,05,02,23,095,29,1*44
$GBGSV,4,1,14,38,81,067,41,39,73,265,42,08,73,007,35,16,66,243,42,1*70
$GBGSV,4,2,14,13,64,340,37,06,64,240,37,46,54,129,45,09,48,229,40,1*70
$GBGSV,4,3,14,20,45,049,40,19,44,333,42,37,28,055,33,29,26,219,27,1*7D
$GBGSV,4,4,14,36,25,185,36,35,23,279,21,1*70
$GBGSV,2,1,08,38,81,067,43,39,73,265,45,46,54,129,46,20,45,049,43,4*70
$GBGSV,2,2,08,19,44,333,44,37,28,055,35,29,26,219,33,36,25,185,41,4*76
$GNACCURACY,3.3*16
$PAIRSAT,1,35,1,0,200,2,0,200,3,0,200,4,0,200,5,0,201,6,0,200,7,0,200,8,0,200,9,0,200,10,0,201,11,0,200,12,0,200,13,0,201,14,0,200,15,0,201,16,0,200,17,0,200,18,0,221,19,0,200,20,0,200,21,0,200,23,0,221,24,0,221,25,0,200,26,0,200,27,0,200,28,0,200,29,0,200,30,0,200,31,0,200,32,0,200,194,0,621,195,0,621,196,0,620,199,0,621*68
$PAIRSAT,2,23,65,0,200,67,0,200,68,0,200,69,0,201,70,0,201,71,0,201,72,0,200,73,0,201,74,0,200,75,0,200,76,0,200,77,0,200,78,0,200,79,0,201,80,0,201,81,0,200,82,0,200,83,0,200,84,0,201,85,0,201,86,0,201,87,0,200,88,0,200*52
$PAIRSAT,3,23,2,0,1221,3,0,1221,4,0,1200,5,0,200,7,0,1221,8,0,1221,9,0,1200,10,0,1200,11,0,1200,12,0,1200,13,0,1221,15,0,1221,19,0,1200,21,0,1200,24,0,1200,25,0,1200,26,0,1221,27,0,1200,30,0,1200,31,0,1200,33,0,1200,34,0,1200,36,0,1200*69
$PAIRSAT,4,50,1,0,200,2,0,200,3,0,200,4,0,200,5,0,200,6,0,201,7,0,200,8,0,201,9,0,201,10,0,200,11,0,200,12,0,200,13,0,201,14,0,200,15,0,200,16,0,201,19,0,621,20,0,621,21,0,600,22,0,600,23,0,600,24,0,600,25,0,600,26,0,600,27,0,600,28,0,600,29,0,621,30,0,600,31,0,200,32,0,600,33,0,600,34,0,600,35,0,621,36,0,621,37,0,621,38,0,621,39,0,621,40,0,600,41,0,600,42,0,600,43,0,600,44,0,600,45,0,600,46,0,621,56,0,200,57,0,200,58,0,200,59,0,600,60,0,600,61,0,600*42
$PAIRDGP,0*45
$GNGGA,110301.200,2500.8009019,N,12132.4824250,E,1,60,0.44,15.017,M,15.25,M,15,3335*77
$GNRMC,110301.200,A,2500.8009019,N,12132.4824250,E,0.01,123.59,260623,,,A,V*04
$GPHDT,,T*1B
$GNACCURACY,3.3*16
$GNGGA,110301.300,2500.8009019,N,12132.4824250,E,1,60,0.44,15.006,M,15.25,M,15,3335*76
$GNRMC,110301.300,A,2500.8009019,N,12132.4824250,E,0.01,123.59,260623,,,A,V*05
$GPHDT,,T*1B
$GNACCURACY,3.3*16
$GNGGA,110301.400,2500.8009019,N,12132.4824130,E,1,60,0.44,14.992,M,15.25,M,15,3335*71
$GNRMC,110301.400,A,2500.8009019,N,12132.4824130,E,0.00,123.59,260623,,,A,V*06
$GPHDT,,T*1B
$GNACCURACY,3.3*16
$GNGGA,110301.500,2500.8009019,N,12132.4824070,E,1,60,0.44,14.981,M,15.25,M,15,3335*77
$GNRMC,110301.500,A,2500.8009019,N,12132.4824070,E,0.01,123.59,260623,,,A,V*03
$GPHDT,,T*1B
$GNACCURACY,3.3*16
$GNGGA,110301.600,2500.8009019,N,12132.4824070,E,1,61,0.43,14.970,M,15.25,M,15,3335*7C
$GNRMC,110301.600,A,2500.8009019,N,12132.4824070,E,0.01,123.59,260623,,,A,V*00
$GPHDT,,T*1B
$GNACCURACY,3.3*16
$GNGGA,110301.700,2500.8009079,N,12132.4824010,E,1,61,0.43,14.960,M,15.25,M,15,3335*7C
$GNRMC,110301.700,A,2500.8009079,N,12132.4824010,E,0.01,123.59,260623,,,A,V*01
$GPHDT,,T*1B
$GNACCURACY,3.3*16
$GNGGA,110301.800,2500.8009079,N,12132.4823950,E,1,61,0.43,14.948,M,15.25,M,15,3335*73
$GNRMC,110301.800,A,2500.8009079,N,12132.4823950,E,0.01,123.59,260623,,,A,V*04
$GPHDT,,T*1B
$GNACCURACY,3.3*16
$GNGGA,110301.900,2500.8009079,N,12132.4823890,E,1,62,0.43,14.932,M,15.25,M,15,3335*71
$GNRMC,110301.900,A,2500.8009079,N,12132.4823890,E,0.01,123.59,260623,,,A,V*08
$GPHDT,,T*1B
$GNACCURACY,3.3*16
$GNGGA,110302.000,2500.8009079,N,12132.4823830,E,1,63,0.43,14.921,M,15.25,M,16,3335*71
$GNRMC,110302.000,A,2500.8009079,N,12132.4823830,E,0.01,123.59,260623,,,A,V*08
$GPHDT,,T*1B
$GNACCURACY,3.3*16
$GNGGA,110302.100,2500.8009079,N,12132.4823830,E,1,63,0.43,14.909,M,15.25,M,16,3335*7A
$GNRMC,110302.100,A,2500.8009079,N,12132.4823830,E,0.01,123.59,260623,,,A,V*09
$GPHDT,,T*1B
$GNGSA,A,3,24,196,18,199,15,23,195,194,05,13,10,,0.70,0.43,0.55,1*03
$GNGSA,A,3,80,85,73,86,84,79,69,71,,,,,0.70,0.43,0.55,2*06
$GNGSA,A,3,13,08,07,15,26,02,03,,,,,,0.70,0.43,0.55,3*0F
$GNGSA,A,3,38,08,39,16,13,06,46,09,20,19,37,29,0.70,0.43,0.55,4*00
$GNGSA,A,3,36,35,,,,,,,,,,,0.70,0.43,0.55,4*07
$GPGSV,5,1,17,24,82,090,40,196,74,059,42,18,61,270,38,199,60,167,34,1*60
$GPGSV,5,2,17,45,47,231,42,15,42,035,36,23,41,331,42,195,38,179,37,1*5E
$GPGSV,5,3,17,194,27,141,30,05,26,109,40,13,15,050,27,12,14,149,19,1*53
$GPGSV,5,4,17,10,10,313,35,29,06,204,16,20,04,124,,32,04,260,,1*68
$GPGSV,5,5,17,25,02,182,,1*5C
$GPGSV,2,1,08,24,82,090,49,196,74,059,43,18,61,270,44,199,60,167,46,8*66
$GPGSV,2,2,08,23,41,331,44,195,38,179,30,194,27,141,36,10,10,313,24,8*65
$GLGSV,3,1,09,80,46,097,46,85,42,261,29,70,39,354,13,73,26,164,36,1*7B
$GLGSV,3,2,09,86,23,315,34,84,19,194,24,79,19,041,19,69,17,062,23,1*76
$GLGSV,3,3,09,71,17,302,24,1*46
$GAGSV,2,1,08,13,63,248,37,08,50,015,39,07,42,291,31,15,32,174,35,7*7E
$GAGSV,2,2,08,26,27,314,18,02,23,095,26,03,14,057,26,25,05,050,,7*79
$GAGSV,2,1,07,13,63,248,40,08,50,015,38,07,42,291,28,15,32,174,33,1*78
$GAGSV,2,2,07,26,27,314,27,02,23,095,29,03,14,057,22,1*40
$GBGSV,5,1,18,38,81,067,41,08,73,007,35,39,73,265,42,16,66,243,42,1*7D
$GBGSV,5,2,18,13,64,340,37,06,64,240,37,46,54,129,45,09,48,229,40,1*7D
$GBGSV,5,3,18,20,45,049,40,19,44,333,42,37,28,055,34,29,26,219,27,1*77
$GBGSV,5,4,18,36,25,185,36,35,23,279,21,32,06,091,,07,05,194,,1*7C
$GBGSV,5,5,18,10,03,205,,30,02,173,,1*7E
$GBGSV,2,1,08,38,81,067,43,39,73,265,45,46,54,129,46,20,45,049,43,4*70
$GBGSV,2,2,08,19,44,333,44,37,28,055,35,29,26,219,33,36,25,185,41,4*76
$GNACCURACY,3.3*16
$PAIRSAT,1,35,1,0,200,2,0,200,3,0,200,4,0,200,5,0,201,6,0,200,7,0,200,8,0,200,9,0,200,10,0,201,11,0,200,12,0,200,13,0,201,14,0,200,15,0,201,16,0,200,17,0,200,18,0,221,19,0,200,20,0,200,21,0,200,23,0,221,24,0,221,25,0,200,26,0,200,27,0,200,28,0,200,29,0,200,30,0,200,31,0,200,32,0,200,194,0,621,195,0,621,196,0,620,199,0,621*68
$PAIRSAT,2,23,65,0,200,67,0,200,68,0,200,69,0,201,70,0,201,71,0,201,72,0,200,73,0,201,74,0,200,75,0,200,76,0,200,77,0,200,78,0,200,79,0,201,80,0,201,81,0,200,82,0,200,83,0,200,84,0,201,85,0,201,86,0,201,87,0,200,88,0,200*52
$PAIRSAT,3,23,2,0,1221,3,0,1221,4,0,1200,5,0,200,7,0,1221,8,0,1221,9,0,1200,10,0,1200,11,0,1200,12,0,1200,13,0,1221,15,0,1221,19,0,1200,21,0,1200,24,0,1200,25,0,1200,26,0,1221,27,0,1200,30,0,1200,31,0,1200,33,0,1200,34,0,1200,36,0,1200*69
$PAIRSAT,4,50,1,0,200,2,0,200,3,0,200,4,0,200,5,0,200,6,0,201,7,0,200,8,0,201,9,0,201,10,0,200,11,0,200,12,0,200,13,0,201,14,0,200,15,0,200,16,0,201,19,0,621,20,0,621,21,0,600,22,0,600,23,0,600,24,0,600,25,0,600,26,0,600,27,0,600,28,0,600,29,0,621,30,0,600,31,0,200,32,0,600,33,0,600,34,0,600,35,0,621,36,0,621,37,0,621,38,0,621,39,0,621,40,0,600,41,0,600,42,0,600,43,0,600,44,0,600,45,0,600,46,0,621,56,0,200,57,0,200,58,0,200,59,0,600,60,0,600,61,0,600*42
$PAIRDGP,0*45
$GNGGA,110302.200,2500.8009079,N,12132.4823770,E,1,63,0.43,14.899,M,15.25,M,16,3335*7A
$GNRMC,110302.200,A,2500.8009079,N,12132.4823770,E,0.02,123.59,260623,,,A,V*02
$GPHDT,,T*1B
$GNACCURACY,3.3*16
$GNGGA,110302.300,2500.8009079,N,12132.4823710,E,1,63,0.43,14.886,M,15.25,M,16,3335*73
$GNRMC,110302.300,A,2500.8009079,N,12132.4823710,E,0.01,123.59,260623,,,A,V*06
$GPHDT,,T*1B
$GNACCURACY,3.3*16
$GNGGA,110302.400,2500.8009079,N,12132.4823650,E,1,63,0.43,14.874,M,15.25,M,16,3335*7C
$GNRMC,110302.400,A,2500.8009079,N,12132.4823650,E,0.01,123.59,260623,,,A,V*04
$GPHDT,,T*1B
$GNACCURACY,3.3*16
$GNGGA,110302.500,2500.8009079,N,12132.4823650,E,1,63,0.43,14.863,M,15.25,M,16,3335*7B
$GNRMC,110302.500,A,2500.8009079,N,12132.4823650,E,0.01,123.59,260623,,,A,V*05
$GPHDT,,T*1B
$GNACCURACY,3.3*16
$GNGGA,110302.600,2500.8009079,N,12132.4823590,E,1,63,0.43,14.850,M,15.25,M,16,3335*77
$GNRMC,110302.600,A,2500.8009079,N,12132.4823590,E,0.01,123.59,260623,,,A,V*09
$GPHDT,,T*1B
$GNACCURACY,3.3*16
$GNGGA,110302.700,2500.8009079,N,12132.4823530,E,1,63,0.43,14.835,M,15.25,M,16,3335*7F
$GNRMC,110302.700,A,2500.8009079,N,12132.4823530,E,0.01,123.59,260623,,,A,V*02
$GPHDT,,T*1B
$GNACCURACY,3.3*16
$GNGGA,110302.800,2500.8009139,N,12132.4823530,E,1,63,0.43,14.819,M,15.25,M,16,3335*7B
$GNRMC,110302.800,A,2500.8009139,N,12132.4823530,E,0.01,123.59,260623,,,A,V*08
$GPHDT,,T*1B
$GNACCURACY,3.3*16
$GNGGA,110302.900,2500.8009139,N,12132.4823530,E,1,63,0.43,14.802,M,15.25,M,16,3335*70
$GNRMC,110302.900,A,2500.8009139,N,12132.4823530,E,0.01,123.59,260623,,,A,V*09
$GPHDT,,T*1B
$GNACCURACY,3.3*16
$GNGGA,110303.000,2500.8009139,N,12132.4823470,E,1,63,0.43,14.787,M,15.25,M,17,3335*7E
$GNRMC,110303.000,A,2500.8009139,N,12132.4823470,E,0.01,123.59,260623,,,A,V*04
$GPHDT,,T*1B
$GNACCURACY,3.3*16
$GNGGA,110303.100,2500.8009199,N,12132.4823470,E,1,63,0.43,14.773,M,15.25,M,17,3335*7E
$GNRMC,110303.100,A,2500.8009199,N,12132.4823470,E,0.01,123.59,260623,,,A,V*0F
$GPHDT,,T*1B
$GNGSA,A,3,24,196,18,199,15,23,195,194,05,13,10,,0.70,0.43,0.55,1*03
$GNGSA,A,3,80,85,73,86,79,84,69,71,,,,,0.70,0.43,0.55,2*06
$GNGSA,A,3,13,08,07,15,26,02,03,,,,,,0.70,0.43,0.55,3*0F
$GNGSA,A,3,38,39,08,16,06,13,46,09,20,19,37,29,0.70,0.43,0.55,4*00
$GNGSA,A,3,36,35,,,,,,,,,,,0.70,0.43,0.55,4*07
$GPGSV,5,1,17,24,82,090,40,196,74,059,42,18,61,270,38,199,60,167,34,1*60
$GPGSV,5,2,17,45,47,231,42,15,42,035,36,23,41,331,42,195,38,179,37,1*5E
$GPGSV,5,3,17,194,27,141,30,05,26,109,40,13,15,050,26,12,14,149,19,1*52
$GPGSV,5,4,17,10,10,313,35,29,06,204,16,32,04,260,,20,04,124,,1*68
$GPGSV,5,5,17,25,02,182,,1*5C
$GPGSV,2,1,08,24,82,090,49,196,74,059,43,18,61,270,44,199,60,167,46,8*66
$GPGSV,2,2,08,23,41,331,44,195,38,179,30,194,27,141,36,10,10,313,24,8*65
$GLGSV,3,1,09,80,46,097,46,85,42,261,29,70,39,354,13,73,26,164,36,1*7B
$GLGSV,3,2,09,86,23,315,34,79,19,041,19,84,19,194,24,69,17,062,21,1*74
$GLGSV,3,3,09,71,17,302,25,1*47
$GAGSV,3,1,09,13,63,248,37,08,50,015,39,07,42,291,31,15,32,174,35,7*7E
$GAGSV,3,2,09,26,27,314,19,02,23,095,26,30,19,149,,03,14,057,25,7*7B
$GAGSV,3,3,09,25,05,050,,7*4D
$GAGSV,2,1,07,13,63,248,40,08,50,015,38,07,42,291,28,15,32,174,33,1*78
$GAGSV,2,2,07,26,27,314,29,02,23,095,29,03,14,057,22,1*4E
$GBGSV,4,1,14,38,81,067,41,39,73,265,42,08,73,007,35,16,66,243,42,1*70
$GBGSV,4,2,14,06,64,240,37,13,64,340,37,46,54,129,45,09,48,229,40,1*70
$GBGSV,4,3,14,20,45,049,40,19,44,333,42,37,28,055,35,29,26,219,28,1*74
$GBGSV,4,4,14,36,25,185,36,35,23,279,21,1*70
$GBGSV,2,1,08,38,81,067,43,39,73,265,45,46,54,129,46,20,45,049,43,4*70
$GBGSV,2,2,08,19,44,333,44,37,28,055,35,29,26,219,33,36,25,185,41,4*76
$GNACCURACY,3.3*16
$PAIRSAT,1,35,1,0,200,2,0,200,3,0,200,4,0,200,5,0,201,6,0,200,7,0,200,8,0,200,9,0,200,10,0,201,11,0,200,12,0,200,13,0,201,14,0,200,15,0,201,16,0,200,17,0,200,18,0,221,19,0,200,20,0,200,21,0,200,23,0,221,24,0,221,25,0,200,26,0,200,27,0,200,28,0,200,29,0,200,30,0,200,31,0,200,32,0,200,194,0,621,195,0,621,196,0,620,199,0,621*68
$PAIRSAT,2,23,65,0,200,67,0,200,68,0,200,69,0,201,70,0,201,71,0,201,72,0,200,73,0,201,74,0,200,75,0,200,76,0,200,77,0,200,78,0,200,79,0,201,80,0,201,81,0,200,82,0,200,83,0,200,84,0,201,85,0,201,86,0,201,87,0,200,88,0,200*52
$PAIRSAT,3,23,2,0,1221,3,0,1221,4,0,1200,5,0,200,7,0,1221,8,0,1221,9,0,1200,10,0,1200,11,0,1200,12,0,1200,13,0,1221,15,0,1221,19,0,1200,21,0,1200,24,0,1200,25,0,1200,26,0,1221,27,0,1200,30,0,1200,31,0,1200,33,0,1200,34,0,1200,36,0,1200*69
$PAIRSAT,4,50,1,0,200,2,0,200,3,0,200,4,0,200,5,0,200,6,0,201,7,0,200,8,0,201,9,0,201,10,0,200,11,0,200,12,0,200,13,0,201,14,0,200,15,0,200,16,0,201,19,0,621,20,0,621,21,0,600,22,0,600,23,0,600,24,0,600,25,0,600,26,0,600,27,0,600,28,0,600,29,0,621,30,0,600,31,0,200,32,0,600,33,0,600,34,0,600,35,0,621,36,0,621,37,0,621,38,0,621,39,0,621,40,0,600,41,0,600,42,0,600,43,0,600,44,0,600,45,0,600,46,0,621,56,0,200,57,0,200,58,0,200,59,0,600,60,0,600,61,0,600*42
$PAIRDGP,0*45
$GNGGA,110303.200,2500.8009199,N,12132.4823350,E,1,63,0.43,14.760,M,15.25,M,17,3335*7A
$GNRMC,110303.200,A,2500.8009199,N,12132.4823350,E,0.01,123.59,260623,,,A,V*09
$GPHDT,,T*1B
$GNACCURACY,3.3*16
$GNGGA,110303.300,2500.8009199,N,12132.4823290,E,1,63,0.43,14.747,M,15.25,M,17,3335*73
$GNRMC,110303.300,A,2500.8009199,N,12132.4823290,E,0.00,123.59,260623,,,A,V*04
$GPHDT,,T*1B
$GNACCURACY,3.3*16
$GNGGA,110303.400,2500.8009259,N,12132.4823290,E,1,63,0.43,14.732,M,15.25,M,17,3335*79
$GNRMC,110303.400,A,2500.8009259,N,12132.4823290,E,0.01,123.59,260623,,,A,V*0D
$GPHDT,,T*1B
$GNACCURACY,3.3*16
$GNGGA,110303.500,2500.8009259,N,12132.4823290,E,1,62,0.44,14.718,M,15.25,M,17,3335*76
$GNRMC,110303.500,A,2500.8009259,N,12132.4823290,E,0.01,123.59,260623,,,A,V*0C
$GPHDT,,T*1B
$GNACCURACY,3.3*16
$GNGGA,110303.600,2500.8009319,N,12132.4823290,E,1,62,0.44,14.702,M,15.25,M,17,3335*7B
$GNRMC,110303.600,A,2500.8009319,N,12132.4823290,E,0.01,123.59,260623,,,A,V*0A
$GPHDT,,T*1B
$GNACCURACY,3.3*16
$GNGGA,110303.700,2500.8009319,N,12132.4823230,E,1,62,0.44,14.688,M,15.25,M,17,3335*73
$GNRMC,110303.700,A,2500.8009319,N,12132.4823230,E,0.02,123.59,260623,,,A,V*02
$GPHDT,,T*1B
$GNACCURACY,3.3*16
$GNGGA,110303.800,2500.8009379,N,12132.4823230,E,1,62,0.44,14.672,M,15.25,M,17,3335*7F
$GNRMC,110303.800,A,2500.8009379,N,12132.4823230,E,0.02,123.59,260623,,,A,V*0B
$GPHDT,,T*1B
$GNACCURACY,3.3*16
$GNGGA,110303.900,2500.8009439,N,12132.4823170,E,1,62,0.44,14.657,M,15.25,M,17,3335*7D
$GNRMC,110303.900,A,2500.8009439,N,12132.4823170,E,0.02,123.59,260623,,,A,V*0E
$GPHDT,,T*1B
$GNACCURACY,3.3*16
$GNGGA,110304.000,2500.8009439,N,12132.4823110,E,1,63,0.43,14.643,M,15.25,M,18,3335*79
$GNRMC,110304.000,A,2500.8009439,N,12132.4823110,E,0.01,123.59,260623,,,A,V*05
$GPHDT,,T*1B
$GNACCURACY,3.3*16
$GNGGA,110304.100,2500.8009439,N,12132.4823110,E,1,63,0.43,14.629,M,15.25,M,18,3335*74
$GNRMC,110304.100,A,2500.8009439,N,12132.4823110,E,0.01,123.59,260623,,,A,V*04
$GPHDT,,T*1B
$GNGSA,A,3,24,196,18,199,15,23,195,194,05,13,10,,0.70,0.43,0.55,1*03
$GNGSA,A,3,80,85,73,86,79,84,69,71,,,,,0.70,0.43,0.55,2*06
$GNGSA,A,3,13,08,07,15,26,02,03,,,,,,0.70,0.43,0.55,3*0F
$GNGSA,A,3,38,39,08,16,06,13,46,09,20,19,37,29,0.70,0.43,0.55,4*00
$GNGSA,A,3,36,35,,,,,,,,,,,0.70,0.43,0.55,4*07
$GPGSV,5,1,17,24,82,090,40,196,74,059,42,18,61,270,38,199,60,167,34,1*60
$GPGSV,5,2,17,45,47,231,42,15,42,035,36,23,41,331,42,195,38,179,37,1*5E
$GPGSV,5,3,17,194,27,141,30,05,26,109,40,13,15,050,26,12,14,149,19,1*52
$GPGSV,5,4,17,10,10,313,35,29,06,204,16,32,04,260,,20,04,124,,1*68
$GPGSV,5,5,17,25,02,182,,1*5C
$GPGSV,2,1,08,24,82,090,49,196,74,059,43,18,61,270,44,199,60,167,46,8*66
$GPGSV,2,2,08,23,41,331,44,195,38,179,32,194,27,141,36,10,10,313,24,8*67
$GLGSV,3,1,09,80,46,097,46,85,42,261,29,70,39,354,13,73,26,164,36,1*7B
$GLGSV,3,2,09,86,23,315,34,79,19,041,19,84,19,194,24,69,17,062,18,1*7E
$GLGSV,3,3,09,71,17,302,26,1*44
$GAGSV,3,1,09,13,63,248,37,08,50,015,39,07,42,291,31,15,32,174,35,7*7E
$GAGSV,3,2,09,26,27,314,23,02,23,095,27,30,19,149,,03,14,057,25,7*73
$GAGSV,3,3,09,25,05,050,,7*4D
$GAGSV,2,1,07,13,63,248,41,08,50,015,38,07,42,291,29,15,32,174,33,1*78
$GAGSV,2,2,07,26,27,314,29,02,23,095,29,03,14,057,23,1*4F
$GBGSV,4,1,14,38,81,067,41,39,73,265,42,08,73,007,35,16,66,243,42,1*70
$GBGSV,4,2,14,06,64,240,37,13,64,340,37,46,54,129,45,09,48,229,40,1*70
$GBGSV,4,3,14,20,45,049,40,19,44,333,42,37,28,055,35,29,26,219,27,1*7B
$GBGSV,4,4,14,36,25,185,36,35,23,279,20,1*71
$GBGSV,2,1,08,38,81,067,43,39,73,265,45,46,54,129,46,20,45,049,43,4*70
$GBGSV,2,2,08,19,44,333,44,37,28,055,35,29,26,219,33,36,25,185,41,4*76
$GNACCURACY,3.3*16
$PAIRSAT,1,35,1,0,200,2,0,200,3,0,200,4,0,200,5,0,201,6,0,200,7,0,200,8,0,200,9,0,200,10,0,201,11,0,200,12,0,200,13,0,201,14,0,200,15,0,201,16,0,200,17,0,200,18,0,221,19,0,200,20,0,200,21,0,200,23,0,221,24,0,221,25,0,200,26,0,200,27,0,200,28,0,200,29,0,200,30,0,200,31,0,200,32,0,200,194,0,621,195,0,621,196,0,620,199,0,621*68
$PAIRSAT,2,23,65,0,200,67,0,200,68,0,200,69,0,201,70,0,201,71,0,201,72,0,200,73,0,201,74,0,200,75,0,200,76,0,200,77,0,200,78,0,200,79,0,201,80,0,201,81,0,200,82,0,200,83,0,200,84,0,201,85,0,201,86,0,201,87,0,200,88,0,200*52
$PAIRSAT,3,23,2,0,1221,3,0,1221,4,0,1200,5,0,200,7,0,1221,8,0,1221,9,0,1200,10,0,1200,11,0,1200,12,0,1200,13,0,1221,15,0,1221,19,0,1200,21,0,1200,24,0,1200,25,0,1200,26,0,1221,27,0,1200,30,0,1200,31,0,1200,33,0,1200,34,0,1200,36,0,1200*69
$PAIRSAT,4,50,1,0,200,2,0,200,3,0,200,4,0,200,5,0,200,6,0,201,7,0,200,8,0,201,9,0,201,10,0,200,11,0,200,12,0,200,13,0,201,14,0,200,15,0,200,16,0,201,19,0,621,20,0,621,21,0,600,22,0,600,23,0,600,24,0,600,25,0,600,26,0,600,27,0,600,28,0,600,29,0,621,30,0,600,31,0,200,32,0,600,33,0,600,34,0,600,35,0,621,36,0,621,37,0,621,38,0,621,39,0,621,40,0,600,41,0,600,42,0,600,43,0,600,44,0,600,45,0,600,46,0,621,56,0,200,57,0,200,58,0,200,59,0,600,60,0,600,61,0,600*42
$PAIRDGP,0*45
$GNGGA,110304.200,2500.8009499,N,12132.4823050,E,1,63,0.43,14.615,M,15.25,M,18,3335*77
$GNRMC,110304.200,A,2500.8009499,N,12132.4823050,E,0.01,123.59,260623,,,A,V*08
$GPHDT,,T*1B
$GNACCURACY,3.3*16
$GNGGA,110304.300,2500.8009499,N,12132.4822990,E,1,63,0.43,14.599,M,15.25,M,18,3335*75
$GNRMC,110304.300,A,2500.8009499,N,12132.4822990,E,0.01,123.59,260623,,,A,V*0D
$GPHDT,,T*1B
$GNACCURACY,3.3*16
$GNGGA,110304.400,2500.8009499,N,12132.4822930,E,1,63,0.43,14.583,M,15.25,M,18,3335*73
$GNRMC,110304.400,A,2500.8009499,N,12132.4822930,E,0.01,123.59,260623,,,A,V*00
$GPHDT,,T*1B
$GNACCURACY,3.3*16
$GNGGA,110304.500,2500.8009559,N,12132.4822870,E,1,63,0.43,14.567,M,15.25,M,18,3335*70
$GNRMC,110304.500,A,2500.8009559,N,12132.4822870,E,0.01,123.59,260623,,,A,V*09
$GPHDT,,T*1B
$GNACCURACY,3.3*16
$GNGGA,110304.600,2500.8009619,N,12132.4822810,E,1,63,0.43,14.551,M,15.25,M,18,3335*77
$GNRMC,110304.600,A,2500.8009619,N,12132.4822810,E,0.01,123.59,260623,,,A,V*0B
$GPHDT,,T*1B
$GNACCURACY,3.3*16
$GNGGA,110304.700,2500.8009619,N,12132.4822750,E,1,63,0.43,14.534,M,15.25,M,18,3335*7E
$GNRMC,110304.700,A,2500.8009619,N,12132.4822750,E,0.01,123.59,260623,,,A,V*01
$GPHDT,,T*1B
$GNACCURACY,3.3*16
$GNGGA,110304.800,2500.8009619,N,12132.4822630,E,1,63,0.43,14.514,M,15.25,M,18,3335*74
$GNRMC,110304.800,A,2500.8009619,N,12132.4822630,E,0.02,123.59,260623,,,A,V*0A
$GPHDT,,T*1B
$GNACCURACY,3.3*16
$GNGGA,110304.900,2500.8009679,N,12132.4822570,E,1,63,0.43,14.497,M,15.25,M,18,3335*7E
$GNRMC,110304.900,A,2500.8009679,N,12132.4822570,E,0.01,123.59,260623,,,A,V*09
$GPHDT,,T*1B
$GNACCURACY,3.3*16
$GNGGA,110305.000,2500.8009679,N,12132.4822510,E,1,63,0.43,14.480,M,15.25,M,19,3335*77
$GNRMC,110305.000,A,2500.8009679,N,12132.4822510,E,0.01,123.59,260623,,,A,V*07
$GPHDT,,T*1B
$GNACCURACY,3.3*16
$GNGGA,110305.100,2500.8009739,N,12132.4822450,E,1,63,0.43,14.463,M,15.25,M,19,3335*7B
$GNRMC,110305.100,A,2500.8009739,N,12132.4822450,E,0.01,123.59,260623,,,A,V*06
$GPHDT,,T*1B
$GNGSA,A,3,24,196,18,199,15,23,195,194,05,13,10,,0.70,0.43,0.55,1*03
$GNGSA,A,3,80,85,73,86,84,79,69,71,,,,,0.70,0.43,0.55,2*06
$GNGSA,A,3,13,08,07,15,26,02,03,,,,,,0.70,0.43,0.55,3*0F
$GNGSA,A,3,38,39,08,16,06,13,46,09,20,19,37,29,0.70,0.43,0.55,4*00
$GNGSA,A,3,36,35,,,,,,,,,,,0.70,0.43,0.55,4*07
$GPGSV,5,1,17,24,82,090,40,196,74,059,42,18,61,270,38,199,60,167,34,1*60
$GPGSV,5,2,17,45,47,231,42,15,42,035,36,23,41,331,42,195,38,179,37,1*5E
$GPGSV,5,3,17,194,27,141,30,05,26,109,40,13,15,050,26,12,14,149,18,1*53
$GPGSV,5,4,17,10,10,313,35,29,06,204,16,32,04,260,,20,04,124,,1*68
$GPGSV,5,5,17,25,02,182,,1*5C
$GPGSV,2,1,08,24,82,090,49,196,74,059,43,18,61,270,44,199,60,167,46,8*66
$GPGSV,2,2,08,23,41,331,44,195,38,179,32,194,27,141,35,10,10,313,21,8*61
$GLGSV,3,1,09,80,46,097,46,85,42,261,31,70,39,354,14,73,26,164,37,1*74
$GLGSV,3,2,09,86,23,315,33,84,19,194,24,79,18,041,19,69,17,062,15,1*75
$GLGSV,3,3,09,71,17,302,25,1*47
$GAGSV,3,1,09,13,63,248,37,08,50,015,39,07,42,291,31,15,32,174,35,7*7E
$GAGSV,3,2,09,26,27,314,22,02,23,095,27,30,19,149,,03,14,057,26,7*71
$GAGSV,3,3,09,25,05,050,,7*4D
$GAGSV,2,1,07,13,63,248,41,08,50,015,38,07,42,291,29,15,32,174,33,1*78
$GAGSV,2,2,07,26,27,314,28,02,23,095,29,03,14,057,23,1*4E
$GBGSV,4,1,14,38,81,067,40,39,73,265,42,08,73,007,35,16,66,243,42,1*71
$GBGSV,4,2,14,06,64,240,37,13,64,340,37,46,54,129,45,09,48,229,40,1*70
$GBGSV,4,3,14,20,45,049,40,19,44,333,42,37,28,055,35,29,26,219,28,1*74
$GBGSV,4,4,14,36,25,185,36,35,23,279,18,1*7A
$GBGSV,2,1,08,38,81,067,43,39,73,265,45,46,54,129,46,20,45,049,43,4*70
$GBGSV,2,2,08,19,44,333,44,37,28,055,35,29,26,219,33,36,25,185,41,4*76
$GNACCURACY,3.3*16
$PAIRSAT,1,35,1,0,200,2,0,200,3,0,200,4,0,200,5,0,201,6,0,200,7,0,200,8,0,200,9,0,200,10,0,201,11,0,200,12,0,200,13,0,201,14,0,200,15,0,201,16,0,200,17,0,200,18,0,221,19,0,200,20,0,200,21,0,200,23,0,221,24,0,221,25,0,200,26,0,200,27,0,200,28,0,200,29,0,200,30,0,200,31,0,200,32,0,200,194,0,621,195,0,621,196,0,620,199,0,621*68
$PAIRSAT,2,23,65,0,200,67,0,200,68,0,200,69,0,201,70,0,201,71,0,201,72,0,200,73,0,201,74,0,200,75,0,200,76,0,200,77,0,200,78,0,200,79,0,201,80,0,201,81,0,200,82,0,200,83,0,200,84,0,201,85,0,201,86,0,201,87,0,200,88,0,200*52
$PAIRSAT,3,23,2,0,1221,3,0,1221,4,0,1200,5,0,200,7,0,1221,8,0,1221,9,0,1200,10,0,1200,11,0,1200,12,0,1200,13,0,1221,15,0,1221,19,0,1200,21,0,1200,24,0,1200,25,0,1200,26,0,1221,27,0,1200,30,0,1200,31,0,1200,33,0,1200,34,0,1200,36,0,1200*69
$PAIRSAT,4,50,1,0,200,2,0,200,3,0,200,4,0,200,5,0,200,6,0,201,7,0,200,8,0,201,9,0,201,10,0,200,11,0,200,12,0,200,13,0,201,14,0,200,15,0,200,16,0,201,19,0,621,20,0,621,21,0,600,22,0,600,23,0,600,24,0,600,25,0,600,26,0,600,27,0,600,28,0,600,29,0,621,30,0,600,31,0,200,32,0,600,33,0,600,34,0,600,35,0,621,36,0,621,37,0,621,38,0,621,39,0,621,40,0,600,41,0,600,42,0,600,43,0,600,44,0,600,45,0,600,46,0,621,56,0,200,57,0,200,58,0,200,59,0,600,60,0,600,61,0,600*42
$PAIRDGP,0*45
$GNGGA,110305.200,2500.8009739,N,12132.4822390,E,1,63,0.43,14.448,M,15.25,M,19,3335*7A
$GNRMC,110305.200,A,2500.8009739,N,12132.4822390,E,0.01,123.59,260623,,,A,V*0E
$GPHDT,,T*1B
$GNACCURACY,3.3*16
$GNGGA,110305.300,2500.8009739,N,12132.4822330,E,1,63,0.43,14.431,M,15.25,M,19,3335*7F
$GNRMC,110305.300,A,2500.8009739,N,12132.4822330,E,0.01,123.59,260623,,,A,V*05
$GPHDT,,T*1B
$GNACCURACY,3.3*16
$GNGGA,110305.400,2500.8009739,N,12132.4822270,E,1,63,0.43,14.414,M,15.25,M,19,3335*7A
$GNRMC,110305.400,A,2500.8009739,N,12132.4822270,E,0.01,123.59,260623,,,A,V*07
$GPHDT,,T*1B
$GNACCURACY,3.3*16
$GNGGA,110305.500,2500.8009799,N,12132.4822210,E,1,63,0.43,14.397,M,15.25,M,19,3335*7B
$GNRMC,110305.500,A,2500.8009799,N,12132.4822210,E,0.01,123.59,260623,,,A,V*0A
$GPHDT,,T*1B
$GNACCURACY,3.3*16
$GNGGA,110305.600,2500.8009799,N,12132.4822150,E,1,63,0.43,14.380,M,15.25,M,19,3335*79
$GNRMC,110305.600,A,2500.8009799,N,12132.4822150,E,0.02,123.59,260623,,,A,V*0D
$GPHDT,,T*1B
$GNACCURACY,3.3*16
$GNGGA,110305.700,2500.8009799,N,12132.4822090,E,1,63,0.43,14.364,M,15.25,M,19,3335*7F
$GNRMC,110305.700,A,2500.8009799,N,12132.4822090,E,0.02,123.59,260623,,,A,V*01
$GPHDT,,T*1B
$GNACCURACY,3.3*16
$GNGGA,110305.800,2500.8009859,N,12132.4822090,E,1,63,0.43,14.349,M,15.25,M,19,3335*7C
$GNRMC,110305.800,A,2500.8009859,N,12132.4822090,E,0.02,123.59,260623,,,A,V*0D
$GPHDT,,T*1B
$GNACCURACY,3.3*16
$GNGGA,110305.900,2500.8009859,N,12132.4822030,E,1,63,0.43,14.332,M,15.25,M,19,3335*7B
$GNRMC,110305.900,A,2500.8009859,N,12132.4822030,E,0.02,123.59,260623,,,A,V*06
$GPHDT,,T*1B
$GNACCURACY,3.3*16
$GNGGA,110306.000,2500.8009859,N,12132.4821970,E,1,63,0.43,14.314,M,15.25,M,20,3335*71
$GNRMC,110306.000,A,2500.8009859,N,12132.4821970,E,0.02,123.59,260623,,,A,V*02
$GPHDT,,T*1B
$GNACCURACY,3.3*16
$GNGGA,110306.100,2500.8009919,N,12132.4821910,E,1,63,0.43,14.297,M,15.25,M,20,3335*79
$GNRMC,110306.100,A,2500.8009919,N,12132.4821910,E,0.01,123.59,260623,,,A,V*03
$GPHDT,,T*1B
$GNGSA,A,3,24,196,18,199,15,23,195,194,05,13,10,,0.70,0.43,0.55,1*03
$GNGSA,A,3,80,85,73,86,84,79,69,71,,,,,0.70,0.43,0.55,2*06
$GNGSA,A,3,13,08,07,15,26,02,03,,,,,,0.70,0.43,0.55,3*0F
$GNGSA,A,3,38,39,08,16,13,06,46,09,20,19,37,29,0.70,0.43,0.55,4*00
$GNGSA,A,3,36,35,,,,,,,,,,,0.70,0.43,0.55,4*07
$GPGSV,5,1,17,24,82,090,40,196,74,059,42,18,61,270,38,199,60,167,34,1*60
$GPGSV,5,2,17,45,47,231,41,15,42,035,36,23,41,331,42,195,38,179,37,1*5D
$GPGSV,5,3,17,194,27,141,31,05,26,109,40,13,15,050,27,12,14,149,18,1*53
$GPGSV,5,4,17,10,10,313,35,29,06,204,16,32,04,260,,20,04,124,,1*68
$GPGSV,5,5,17,25,02,182,,1*5C
$GPGSV,2,1,08,24,82,090,49,196,74,059,43,18,61,270,44,199,60,167,46,8*66
$GPGSV,2,2,08,23,41,331,44,195,38,179,32,194,27,141,35,10,10,313,23,8*63
$GLGSV,3,1,09,80,46,097,46,85,42,261,31,70,39,354,13,73,26,164,37,1*73
$GLGSV,3,2,09,86,23,314,33,84,19,194,24,79,18,041,19,69,17,062,12,1*73
$GLGSV,3,3,09,71,17,302,25,1*47
$GAGSV,2,1,08,13,63,248,37,08,50,015,39,07,42,291,32,15,32,174,35,7*7D
$GAGSV,2,2,08,26,27,314,21,02,23,095,28,30,19,149,,03,14,057,26,7*7D
$GAGSV,2,1,07,13,63,248,41,08,50,015,38,07,42,291,29,15,32,174,33,1*78
$GAGSV,2,2,07,26,27,314,30,02,23,095,29,03,14,057,24,1*40
$GBGSV,4,1,14,38,81,067,40,39,73,265,42,08,73,007,35,16,66,243,42,1*71
$GBGSV,4,2,14,13,64,340,37,06,64,240,37,46,54,129,45,09,48,229,40,1*70
$GBGSV,4,3,14,20,45,049,40,19,44,333,41,37,28,055,35,29,26,219,29,1*76
$GBGSV,4,4,14,36,25,185,36,35,23,279,18,1*7A
$GBGSV,2,1,08,38,81,067,43,39,73,265,45,46,54,129,46,20,45,049,43,4*70
$GBGSV,2,2,08,19,44,333,44,37,28,055,35,29,26,219,32,36,25,185,41,4*77
$GNACCURACY,3.3*16
$PAIRSAT,1,35,1,0,200,2,0,200,3,0,200,4,0,200,5,0,201,6,0,200,7,0,200,8,0,200,9,0,200,10,0,201,11,0,200,12,0,200,13,0,201,14,0,200,15,0,201,16,0,200,17,0,200,18,0,221,19,0,200,20,0,200,21,0,200,23,0,221,24,0,221,25,0,200,26,0,200,27,0,200,28,0,200,29,0,200,30,0,200,31,0,200,32,0,200,194,0,621,195,0,621,196,0,620,199,0,621*68
$PAIRSAT,2,23,65,0,200,67,0,200,68,0,200,69,0,201,70,0,201,71,0,201,72,0,200,73,0,201,74,0,200,75,0,200,76,0,200,77,0,200,78,0,200,79,0,201,80,0,201,81,0,200,82,0,200,83,0,200,84,0,201,85,0,201,86,0,201,87,0,200,88,0,200*52
$PAIRSAT,3,23,2,0,1221,3,0,1221,4,0,1200,5,0,200,7,0,1221,8,0,1221,9,0,1200,10,0,1200,11,0,1200,12,0,1200,13,0,1221,15,0,1221,19,0,1200,21,0,1200,24,0,1200,25,0,1200,26,0,1221,27,0,1200,30,0,1200,31,0,1200,33,0,1200,34,0,1200,36,0,1200*69
$PAIRSAT,4,50,1,0,200,2,0,200,3,0,200,4,0,200,5,0,200,6,0,201,7,0,200,8,0,201,9,0,201,10,0,200,11,0,200,12,0,200,13,0,201,14,0,200,15,0,200,16,0,201,19,0,621,20,0,621,21,0,600,22,0,600,23,0,600,24,0,600,25,0,600,26,0,600,27,0,600,28,0,600,29,0,621,30,0,600,31,0,200,32,0,600,33,0,600,34,0,600,35,0,621,36,0,621,37,0,621,38,0,621,39,0,621,40,0,600,41,0,600,42,0,600,43,0,600,44,0,600,45,0,600,46,0,621,56,0,200,57,0,200,58,0,200,59,0,600,60,0,600,61,0,600*42
$PAIRDGP,0*45
$GNGGA,110306.200,2500.8009919,N,12132.4821850,E,1,63,0.43,14.282,M,15.25,M,20,3335*7B
$GNRMC,110306.200,A,2500.8009919,N,12132.4821850,E,0.02,123.59,260623,,,A,V*06
$GPHDT,,T*1B
$GNACCURACY,3.3*16
$GNGGA,110306.300,2500.8009979,N,12132.4821790,E,1,63,0.43,14.268,M,15.25,M,20,3335*7B
$GNRMC,110306.300,A,2500.8009979,N,12132.4821790,E,0.01,123.59,260623,,,A,V*01
$GPHDT,,T*1B
$GNACCURACY,3.3*16
$GNGGA,110306.400,2500.8009979,N,12132.4821790,E,1,63,0.43,14.254,M,15.25,M,20,3335*73
$GNRMC,110306.400,A,2500.8009979,N,12132.4821790,E,0.02,123.59,260623,,,A,V*05
$GPHDT,,T*1B
$GNACCURACY,3.3*16
$GNGGA,110306.500,2500.8010039,N,12132.4821730,E,1,63,0.43,14.240,M,15.25,M,20,3335*78
$GNRMC,110306.500,A,2500.8010039,N,12132.4821730,E,0.02,123.59,260623,,,A,V*0B
$GPHDT,,T*1B
$GNACCURACY,3.3*16
$GNGGA,110306.600,2500.8010039,N,12132.4821670,E,1,63,0.43,14.226,M,15.25,M,20,3335*7E
$GNRMC,110306.600,A,2500.8010039,N,12132.4821670,E,0.03,123.59,260623,,,A,V*0C
$GPHDT,,T*1B
$GNACCURACY,3.3*16
$GNGGA,110306.700,2500.8010099,N,12132.4821670,E,1,63,0.43,14.213,M,15.25,M,20,3335*73
$GNRMC,110306.700,A,2500.8010099,N,12132.4821670,E,0.03,123.59,260623,,,A,V*07
$GPHDT,,T*1B
$GNACCURACY,3.3*16
$GNGGA,110306.800,2500.8010099,N,12132.4821610,E,1,63,0.43,14.201,M,15.25,M,20,3335*79
$GNRMC,110306.800,A,2500.8010099,N,12132.4821610,E,0.03,123.59,260623,,,A,V*0E
$GPHDT,,T*1B
$GNACCURACY,3.3*16
$GNGGA,110306.900,2500.8010159,N,12132.4821550,E,1,63,0.43,14.189,M,15.25,M,20,3335*71
$GNRMC,110306.900,A,2500.8010159,N,12132.4821550,E,0.03,123.59,260623,,,A,V*05
