$FW : RTK35X,V1.1X0314AS,Lib20210517,1*54
$Tool : LOCOSYS , GNSS Firebird , v1.0.0.19*39
$---------------------------------------------------*2D
$GPHDT,,T*1B
$GNACCURACY,3.5*10
$GNGGA,110202.000,2500.8009367,N,12132.4833020,E,4,63,0.43,15.846,M,15.25,M,1,3335*46
$GNRMC,110202.000,A,2500.8009367,N,12132.4833020,E,0.02,123.59,260623,,,R,V*1D
$GPHDT,,T*1B
$GNACCURACY,3.5*10
$GNGGA,110202.100,2500.8009327,N,12132.4833058,E,4,63,0.43,15.857,M,15.25,M,1,3335*4C
$GNRMC,110202.100,A,2500.8009327,N,12132.4833058,E,0.02,123.59,260623,,,R,V*17
$GPHDT,,T*1B
$GNGSA,A,3,24,196,18,199,15,23,195,194,05,13,,,0.71,0.43,0.57,1*01
$GNGSA,A,3,80,85,70,73,86,84,79,69,71,,,,0.71,0.43,0.57,2*02
$GNGSA,A,3,13,08,07,15,26,02,03,,,,,,0.71,0.43,0.57,3*0C
$GNGSA,A,3,38,39,08,16,13,06,46,09,20,19,37,29,0.71,0.43,0.57,4*03
$GNGSA,A,3,36,35,,,,,,,,,,,0.71,0.43,0.57,4*04
$GPGSV,5,1,17,24,82,094,39,196,74,058,41,18,61,272,38,199,60,167,35,1*6B
$GPGSV,5,2,17,45,47,231,42,15,43,035,36,23,41,331,29,195,38,179,38,1*5D
$GPGSV,5,3,17,194,27,141,25,05,26,109,39,13,15,049,22,12,13,150,20,1*51
$GPGSV,5,4,17,10,10,313,32,29,06,204,16,20,05,124,,32,04,260,,1*6E
$GPGSV,5,5,17,25,02,182,,1*5C
$GPGSV,2,1,08,24,82,094,49,196,74,058,44,18,61,272,42,199,60,167,48,8*6E
$GPGSV,2,2,08,23,41,331,35,195,38,179,28,194,27,141,36,10,10,313,19,8*64
$GLGSV,3,1,09,80,46,097,43,85,43,262,31,70,39,354,18,73,26,164,36,1*7E
$GLGSV,3,2,09,86,23,315,25,84,20,195,22,79,19,041,27,69,17,061,26,1*70
$GLGSV,3,3,09,71,17,302,18,1*49
$GAGSV,2,1,08,13,63,248,34,08,51,014,39,07,42,291,20,15,32,174,22,7*7B
$GAGSV,2,2,08,26,27,315,23,02,22,095,23,03,15,057,21,25,05,050,,7*72
$GAGSV,2,1,07,13,63,248,40,08,51,014,38,07,42,291,25,15,32,174,35,1*73
$GAGSV,2,2,07,26,27,315,31,02,22,095,31,03,15,057,28,1*45
$GBGSV,4,1,14,38,81,065,41,39,73,265,41,08,73,007,36,16,66,242,42,1*73
$GBGSV,4,2,14,13,64,340,39,06,64,239,38,46,53,129,46,09,48,229,41,1*7A
$GBGSV,4,3,14,20,45,049,37,19,44,332,24,37,28,055,33,29,26,219,33,1*79
$GBGSV,4,4,14,36,25,185,37,35,23,280,15,1*70
$GBGSV,3,1,09,38,81,065,42,39,73,265,46,46,53,129,46,20,45,049,41,4*75
$GBGSV,3,2,09,19,44,332,34,37,28,055,16,29,26,219,34,36,25,185,43,4*74
$GBGSV,3,3,09,35,23,280,20,4*45
$GNACCURACY,3.5*10
$PAIRSAT,1,35,1,0,200,2,0,200,3,0,200,4,0,200,5,0,201,6,0,200,7,0,200,8,0,200,9,0,200,10,0,200,11,0,200,12,0,200,13,0,201,14,0,200,15,0,201,16,0,200,17,0,200,18,0,221,19,0,200,20,0,200,21,0,200,23,0,221,24,0,221,25,0,200,26,0,200,27,0,200,28,0,200,29,0,200,30,0,200,31,0,200,32,0,200,194,0,621,195,0,621,196,0,620,199,0,621*69
$PAIRSAT,2,23,65,0,200,67,0,200,68,0,200,69,0,201,70,0,201,71,0,201,72,0,200,73,0,201,74,0,200,75,0,200,76,0,200,77,0,200,78,0,200,79,0,201,80,0,201,81,0,200,82,0,200,83,0,200,84,0,201,85,0,201,86,0,201,87,0,200,88,0,200*52
$PAIRSAT,3,23,2,0,1221,3,0,1221,4,0,1200,5,0,200,7,0,1221,8,0,1221,9,0,1200,10,0,1200,11,0,1200,12,0,1200,13,0,1221,15,0,1221,19,0,1200,21,0,1200,24,0,1200,25,0,1200,26,0,1221,27,0,1200,30,0,1200,31,0,1200,33,0,1200,34,0,1200,36,0,1200*69
$PAIRSAT,4,50,1,0,200,2,0,200,3,0,200,4,0,200,5,0,200,6,0,201,7,0,200,8,0,201,9,0,201,10,0,200,11,0,200,12,0,200,13,0,201,14,0,200,15,0,200,16,0,201,19,0,621,20,0,621,21,0,600,22,0,600,23,0,600,24,0,600,25,0,600,26,0,600,27,0,600,28,0,600,29,0,621,30,0,600,31,0,200,32,0,600,33,0,600,34,0,600,35,0,621,36,0,621,37,0,621,38,0,621,39,0,621,40,0,600,41,0,600,42,0,600,43,0,600,44,0,600,45,0,600,46,0,621,56,0,200,57,0,200,58,0,200,59,0,600,60,0,600,61,0,600*42
$PAIRDGP,0*45
$GNGGA,110202.200,2500.8009343,N,12132.4833047,E,4,63,0.43,15.861,M,15.25,M,1,3335*46
$GNRMC,110202.200,A,2500.8009343,N,12132.4833047,E,0.02,123.59,260623,,,R,V*18
$GPHDT,,T*1B
$GNACCURACY,3.5*10
$GNGGA,110202.300,2500.8009334,N,12132.4833065,E,4,63,0.43,15.844,M,15.25,M,1,3335*40
$GNRMC,110202.300,A,2500.8009334,N,12132.4833065,E,0.02,123.59,260623,,,R,V*19
$GPHDT,,T*1B
$GNACCURACY,3.5*10
$GNGGA,110202.400,2500.8009372,N,12132.4833040,E,4,63,0.43,15.844,M,15.25,M,1,3335*42
$GNRMC,110202.400,A,2500.8009372,N,12132.4833040,E,0.02,123.59,260623,,,R,V*1B
$GPHDT,,T*1B
$GNACCURACY,3.5*10
$GNGGA,110202.500,2500.8009383,N,12132.4832987,E,4,63,0.43,15.849,M,15.25,M,1,3335*43
$GNRMC,110202.500,A,2500.8009383,N,12132.4832987,E,0.02,123.59,260623,,,R,V*17
$GPHDT,,T*1B
$GNACCURACY,3.5*10
$GNGGA,110202.600,2500.8009334,N,12132.4833007,E,4,63,0.43,15.865,M,15.25,M,0,3335*43
$GNRMC,110202.600,A,2500.8009334,N,12132.4833007,E,0.02,123.59,260623,,,R,V*18
$GPHDT,,T*1B
$GNACCURACY,3.4*11
$GNGGA,110202.700,2500.8009306,N,12132.4833020,E,4,63,0.43,15.859,M,15.25,M,0,3335*49
$GNRMC,110202.700,A,2500.8009306,N,12132.4833020,E,0.02,123.59,260623,,,R,V*1D
$GPHDT,,T*1B
$GNACCURACY,3.4*11
$GNGGA,110202.800,2500.8009349,N,12132.4833002,E,4,63,0.43,15.845,M,15.25,M,0,3335*40
$GNRMC,110202.800,A,2500.8009349,N,12132.4833002,E,0.02,123.59,260623,,,R,V*19
$GPHDT,,T*1B
$GNACCURACY,3.5*10
$GNGGA,110202.900,2500.8009327,N,12132.4832982,E,4,63,0.43,15.861,M,15.25,M,0,3335*4F
$GNRMC,110202.900,A,2500.8009327,N,12132.4832982,E,0.01,123.59,260623,,,R,V*13
$GPHDT,,T*1B
$GNACCURACY,3.4*11
$GNGGA,110203.000,2500.8009363,N,12132.4832997,E,4,63,0.43,15.848,M,15.25,M,1,3335*49
$GNRMC,110203.000,A,2500.8009363,N,12132.4832997,E,0.01,123.59,260623,,,R,V*1F
$GPHDT,,T*1B
$GNACCURACY,3.5*10
$GNGGA,110203.100,2500.8009385,N,12132.4833001,E,4,63,0.43,15.828,M,15.25,M,1,3335*41
$GNRMC,110203.100,A,2500.8009385,N,12132.4833001,E,0.01,123.59,260623,,,R,V*11
$GPHDT,,T*1B
$GNGSA,A,3,24,196,18,199,15,23,195,194,05,13,,,0.71,0.43,0.57,1*01
$GNGSA,A,3,80,85,70,73,86,84,79,69,71,,,,0.71,0.43,0.57,2*02
$GNGSA,A,3,13,08,07,15,26,02,03,,,,,,0.71,0.43,0.57,3*0C
$GNGSA,A,3,38,39,08,16,13,06,46,09,20,19,37,29,0.71,0.43,0.57,4*03
$GNGSA,A,3,36,35,,,,,,,,,,,0.71,0.43,0.57,4*04
$GPGSV,5,1,17,24,82,094,37,196,74,058,41,18,61,272,38,199,60,167,35,1*65
$GPGSV,5,2,17,45,47,231,42,15,43,035,35,23,41,331,27,195,38,179,39,1*51
$GPGSV,5,3,17,194,27,141,23,05,26,109,39,13,15,049,22,12,13,150,20,1*57
$GPGSV,5,4,17,10,10,313,32,29,06,204,16,20,05,124,,32,04,260,,1*6E
$GPGSV,5,5,17,25,02,182,,1*5C
$GPGSV,2,1,08,24,82,094,49,196,74,058,44,18,61,272,42,199,60,167,48,8*6E
$GPGSV,2,2,08,23,41,331,35,195,38,179,28,194,27,141,34,10,10,313,19,8*66
$GLGSV,3,1,09,80,46,097,43,85,43,262,31,70,39,354,18,73,26,164,36,1*7E
$GLGSV,3,2,09,86,23,315,24,84,20,195,21,79,19,041,26,69,17,061,25,1*70
$GLGSV,3,3,09,71,17,302,18,1*49
$GAGSV,2,1,08,13,63,248,34,08,51,014,39,07,42,291,22,15,32,174,21,7*7A
$GAGSV,2,2,08,26,27,315,23,02,22,095,24,03,15,057,21,25,05,050,,7*75
$GAGSV,2,1,07,13,63,248,40,08,51,014,38,07,42,291,24,15,32,174,35,1*72
$GAGSV,2,2,07,26,27,315,29,02,22,095,30,03,15,057,27,1*42
$GBGSV,4,1,14,38,81,065,41,39,73,265,41,08,73,007,36,16,66,242,42,1*73
$GBGSV,4,2,14,13,64,340,39,06,64,239,38,46,53,129,46,09,48,229,41,1*7A
$GBGSV,4,3,14,20,45,049,37,19,44,333,26,37,28,055,32,29,26,219,33,1*7B
$GBGSV,4,4,14,36,25,185,36,35,23,280,15,1*71
$GBGSV,3,1,09,38,81,065,42,39,73,265,46,46,53,129,46,20,45,049,41,4*75
$GBGSV,3,2,09,19,44,333,31,37,28,055,17,29,26,219,33,36,25,185,42,4*77
$GBGSV,3,3,09,35,23,280,17,4*41
$GNACCURACY,3.5*10
$PAIRSAT,1,35,1,0,200,2,0,200,3,0,200,4,0,200,5,0,201,6,0,200,7,0,200,8,0,200,9,0,200,10,0,200,11,0,200,12,0,200,13,0,201,14,0,200,15,0,201,16,0,200,17,0,200,18,0,221,19,0,200,20,0,200,21,0,200,23,0,221,24,0,221,25,0,200,26,0,200,27,0,200,28,0,200,29,0,200,30,0,200,31,0,200,32,0,200,194,0,621,195,0,621,196,0,620,199,0,621*69
$PAIRSAT,2,23,65,0,200,67,0,200,68,0,200,69,0,201,70,0,201,71,0,201,72,0,200,73,0,201,74,0,200,75,0,200,76,0,200,77,0,200,78,0,200,79,0,201,80,0,201,81,0,200,82,0,200,83,0,200,84,0,201,85,0,201,86,0,201,87,0,200,88,0,200*52
$PAIRSAT,3,23,2,0,1221,3,0,1221,4,0,1200,5,0,200,7,0,1221,8,0,1221,9,0,1200,10,0,1200,11,0,1200,12,0,1200,13,0,1221,15,0,1221,19,0,1200,21,0,1200,24,0,1200,25,0,1200,26,0,1221,27,0,1200,30,0,1200,31,0,1200,33,0,1200,34,0,1200,36,0,1200*69
$PAIRSAT,4,50,1,0,200,2,0,200,3,0,200,4,0,200,5,0,200,6,0,201,7,0,200,8,0,201,9,0,201,10,0,200,11,0,200,12,0,200,13,0,201,14,0,200,15,0,200,16,0,201,19,0,621,20,0,621,21,0,600,22,0,600,23,0,600,24,0,600,25,0,600,26,0,600,27,0,600,28,0,600,29,0,621,30,0,600,31,0,200,32,0,600,33,0,600,34,0,600,35,0,621,36,0,621,37,0,621,38,0,621,39,0,621,40,0,600,41,0,600,42,0,600,43,0,600,44,0,600,45,0,600,46,0,621,56,0,200,57,0,200,58,0,200,59,0,600,60,0,600,61,0,600*42
$PAIRDGP,0*45
$GNGGA,110203.200,2500.8009358,N,12132.4833008,E,4,63,0.43,15.839,M,15.25,M,1,3335*4B
$GNRMC,110203.200,A,2500.8009358,N,12132.4833008,E,0.01,123.59,260623,,,R,V*1B
$GPHDT,,T*1B
$GNACCURACY,3.5*10
$GNGGA,110203.300,2500.8009367,N,12132.4832993,E,4,63,0.43,15.854,M,15.25,M,1,3335*47
$GNRMC,110203.300,A,2500.8009367,N,12132.4832993,E,0.01,123.59,260623,,,R,V*1C
$GPHDT,,T*1B
$GNACCURACY,3.5*10
$GNGGA,110203.400,2500.8009347,N,12132.4832991,E,4,63,0.43,15.862,M,15.25,M,1,3335*45
$GNRMC,110203.400,A,2500.8009347,N,12132.4832991,E,0.00,123.59,260623,,,R,V*1A
$GPHDT,,T*1B
$GNACCURACY,3.5*10
$GNGGA,110203.500,2500.8009381,N,12132.4832989,E,4,63,0.43,15.846,M,15.25,M,1,3335*41
$GNRMC,110203.500,A,2500.8009381,N,12132.4832989,E,0.01,123.59,260623,,,R,V*19
$GPHDT,,T*1B
$GNACCURACY,3.5*10
$GNGGA,110203.600,2500.8009387,N,12132.4833000,E,4,63,0.43,15.845,M,15.25,M,1,3335*4E
$GNRMC,110203.600,A,2500.8009387,N,12132.4833000,E,0.01,123.59,260623,,,R,V*15
$GPHDT,,T*1B
$GNACCURACY,3.5*10
$GNGGA,110203.700,2500.8009354,N,12132.4833029,E,4,63,0.43,15.850,M,15.25,M,0,3335*4F
$GNRMC,110203.700,A,2500.8009354,N,12132.4833029,E,0.01,123.59,260623,,,R,V*11
$GPHDT,,T*1B
$GNACCURACY,3.5*10
$GNGGA,110203.800,2500.8009347,N,12132.4833098,E,4,63,0.43,15.854,M,15.25,M,0,3335*4C
$GNRMC,110203.800,A,2500.8009347,N,12132.4833098,E,0.02,123.59,260623,,,R,V*15
$GPHDT,,T*1B
$GNACCURACY,3.5*10
$GNGGA,110203.900,2500.8009333,N,12132.4833055,E,4,63,0.43,15.855,M,15.25,M,0,3335*4E
$GNRMC,110203.900,A,2500.8009333,N,12132.4833055,E,0.02,123.59,260623,,,R,V*16
$GPHDT,,T*1B
$GNACCURACY,3.5*10
$GNGGA,110204.000,2500.8009317,N,12132.4833056,E,4,63,0.43,15.843,M,15.25,M,1,3335*43
$GNRMC,110204.000,A,2500.8009317,N,12132.4833056,E,0.02,123.59,260623,,,R,V*1D
$GPHDT,,T*1B
$GNACCURACY,3.5*10
$GNGGA,110204.100,2500.8009315,N,12132.4833057,E,4,63,0.43,15.866,M,15.25,M,1,3335*46
$GNRMC,110204.100,A,2500.8009315,N,12132.4833057,E,0.02,123.59,260623,,,R,V*1F
$GPHDT,,T*1B
$GNGSA,A,3,24,196,18,199,15,23,195,05,13,194,,,0.71,0.43,0.57,1*01
$GNGSA,A,3,80,85,70,73,86,84,79,69,71,,,,0.71,0.43,0.57,2*02
$GNGSA,A,3,13,08,07,15,26,02,03,,,,,,0.71,0.43,0.57,3*0C
$GNGSA,A,3,38,39,08,16,13,06,46,09,20,19,37,29,0.71,0.43,0.57,4*03
$GNGSA,A,3,36,35,,,,,,,,,,,0.71,0.43,0.57,4*04
$GPGSV,5,1,17,24,82,094,36,196,74,058,41,18,61,272,38,199,60,167,35,1*64
$GPGSV,5,2,17,45,47,231,42,15,43,035,35,23,41,331,26,195,38,179,39,1*50
$GPGSV,5,3,17,194,27,141,23,05,26,109,39,13,15,049,24,12,13,150,20,1*51
$GPGSV,5,4,17,10,10,313,32,29,06,204,16,20,05,124,,32,04,260,,1*6E
$GPGSV,5,5,17,25,02,182,,1*5C
$GPGSV,2,1,08,24,82,094,49,196,74,058,44,18,61,272,42,199,60,167,48,8*6E
$GPGSV,2,2,08,23,41,331,35,195,38,179,28,194,27,141,34,10,10,313,23,8*6F
$GLGSV,3,1,09,80,46,097,42,85,43,262,31,70,39,354,16,73,26,164,36,1*71
$GLGSV,3,2,09,86,23,315,24,84,20,195,19,79,19,041,25,69,17,061,25,1*78
$GLGSV,3,3,09,71,17,302,18,1*49
$GAGSV,2,1,08,13,63,248,34,08,51,014,39,07,42,291,22,15,32,174,19,7*71
$GAGSV,2,2,08,26,27,315,22,02,22,095,23,03,15,057,23,25,05,050,,7*71
$GAGSV,2,1,07,13,63,248,40,08,51,014,38,07,42,291,24,15,32,174,35,1*72
$GAGSV,2,2,07,26,27,315,29,02,22,095,30,03,15,057,28,1*4D
$GBGSV,4,1,15,38,81,065,41,39,73,265,41,08,73,007,36,16,66,242,42,1*72
$GBGSV,4,2,15,13,64,340,39,06,64,239,38,46,53,129,46,09,48,229,41,1*7B
$GBGSV,4,3,15,20,45,049,37,19,44,333,26,37,28,055,32,29,26,219,32,1*7B
$GBGSV,4,4,15,36,25,185,36,35,23,280,18,32,06,090,,1*43
$GBGSV,3,1,09,38,81,065,42,39,73,265,46,46,53,129,46,20,45,049,41,4*75
$GBGSV,3,2,09,19,44,333,34,37,28,055,17,29,26,219,33,36,25,185,42,4*72
$GBGSV,3,3,09,35,23,280,17,4*41
$GNACCURACY,3.5*10
$PAIRSAT,1,35,1,0,200,2,0,200,3,0,200,4,0,200,5,0,201,6,0,200,7,0,200,8,0,200,9,0,200,10,0,200,11,0,200,12,0,200,13,0,201,14,0,200,15,0,201,16,0,200,17,0,200,18,0,221,19,0,200,20,0,200,21,0,200,23,0,221,24,0,221,25,0,200,26,0,200,27,0,200,28,0,200,29,0,200,30,0,200,31,0,200,32,0,200,194,0,621,195,0,621,196,0,620,199,0,621*69
$PAIRSAT,2,23,65,0,200,67,0,200,68,0,200,69,0,201,70,0,201,71,0,201,72,0,200,73,0,201,74,0,200,75,0,200,76,0,200,77,0,200,78,0,200,79,0,201,80,0,201,81,0,200,82,0,200,83,0,200,84,0,201,85,0,201,86,0,201,87,0,200,88,0,200*52
$PAIRSAT,3,23,2,0,1221,3,0,1221,4,0,1200,5,0,200,7,0,1221,8,0,1221,9,0,1200,10,0,1200,11,0,1200,12,0,1200,13,0,1221,15,0,1221,19,0,1200,21,0,1200,24,0,1200,25,0,1200,26,0,1221,27,0,1200,30,0,1200,31,0,1200,33,0,1200,34,0,1200,36,0,1200*69
$PAIRSAT,4,50,1,0,200,2,0,200,3,0,200,4,0,200,5,0,200,6,0,201,7,0,200,8,0,201,9,0,201,10,0,200,11,0,200,12,0,200,13,0,201,14,0,200,15,0,200,16,0,201,19,0,621,20,0,621,21,0,600,22,0,600,23,0,600,24,0,600,25,0,600,26,0,600,27,0,600,28,0,600,29,0,621,30,0,600,31,0,200,32,0,600,33,0,600,34,0,600,35,0,621,36,0,621,37,0,621,38,0,621,39,0,621,40,0,600,41,0,600,42,0,600,43,0,600,44,0,600,45,0,600,46,0,621,56,0,200,57,0,200,58,0,200,59,0,600,60,0,600,61,0,600*42
$PAIRDGP,0*45
$GNGGA,110204.200,2500.8009357,N,12132.4833031,E,4,62,0.43,15.836,M,15.25,M,1,3335*47
$GNRMC,110204.200,A,2500.8009357,N,12132.4833031,E,0.02,123.59,260623,,,R,V*1A
$GPHDT,,T*1B
$GNACCURACY,3.4*11
$GNGGA,110204.300,2500.8009370,N,12132.4833029,E,4,63,0.43,15.849,M,15.25,M,1,3335*43
$GNRMC,110204.300,A,2500.8009370,N,12132.4833029,E,0.00,123.59,260623,,,R,V*15
$GPHDT,,T*1B
$GNACCURACY,3.4*11
$GNGGA,110204.400,2500.8009278,N,12132.4833092,E,4,63,0.43,15.877,M,15.25,M,1,3335*40
$GNRMC,110204.400,A,2500.8009278,N,12132.4833092,E,0.01,123.59,260623,,,R,V*1A
$GPHDT,,T*1B
$GNACCURACY,3.4*11
$GNGGA,110204.500,2500.8009304,N,12132.4833025,E,4,63,0.43,15.867,M,15.25,M,1,3335*46
$GNRMC,110204.500,A,2500.8009304,N,12132.4833025,E,0.00,123.59,260623,,,R,V*1C
$GPHDT,,T*1B
$GNACCURACY,3.4*11
$GNGGA,110204.600,2500.8009364,N,12132.4832993,E,4,63,0.43,15.849,M,15.25,M,0,3335*4B
$GNRMC,110204.600,A,2500.8009364,N,12132.4832993,E,0.00,123.59,260623,,,R,V*1C
$GPHDT,,T*1B
$GNACCURACY,3.4*11
$GNGGA,110204.700,2500.8009316,N,12132.4833028,E,4,63,0.43,15.875,M,15.25,M,0,3335*48
$GNRMC,110204.700,A,2500.8009316,N,12132.4833028,E,0.01,123.59,260623,,,R,V*11
$GPHDT,,T*1B
$GNACCURACY,3.4*11
$GNGGA,110204.800,2500.8009325,N,12132.4833017,E,4,63,0.43,15.873,M,15.25,M,0,3335*4D
$GNRMC,110204.800,A,2500.8009325,N,12132.4833017,E,0.00,123.59,260623,,,R,V*13
$GPHDT,,T*1B
$GNACCURACY,3.5*10
$GNGGA,110204.900,2500.8009351,N,12132.4832970,E,4,63,0.43,15.864,M,15.25,M,0,3335*40
$GNRMC,110204.900,A,2500.8009351,N,12132.4832970,E,0.00,123.59,260623,,,R,V*18
$GPHDT,,T*1B
$GNACCURACY,3.5*10
$GNGGA,110205.000,2500.8009358,N,12132.4833007,E,4,63,0.43,15.857,M,15.25,M,1,3335*48
$GNRMC,110205.000,A,2500.8009358,N,12132.4833007,E,0.00,123.59,260623,,,R,V*11
$GPHDT,,T*1B
$GNACCURACY,3.4*11
$GNGGA,110205.100,2500.8009356,N,12132.4832993,E,4,63,0.43,15.857,M,15.25,M,1,3335*42
$GNRMC,110205.100,A,2500.8009356,N,12132.4832993,E,0.00,123.59,260623,,,R,V*1B
$GPHDT,,T*1B
$GNGSA,A,3,24,196,18,199,15,23,195,194,05,13,,,0.81,0.43,0.69,1*03
$GNGSA,A,3,80,85,70,73,86,84,79,69,71,,,,0.81,0.43,0.69,2*00
$GNGSA,A,3,13,08,07,15,26,02,03,,,,,,0.81,0.43,0.69,3*0E
$GNGSA,A,3,38,39,08,16,13,06,46,09,20,19,37,29,0.81,0.43,0.69,4*01
$GNGSA,A,3,36,35,,,,,,,,,,,0.81,0.43,0.69,4*06
$GPGSV,5,1,17,24,82,094,37,196,74,058,41,18,61,272,38,199,60,167,36,1*66
$GPGSV,5,2,17,45,47,231,42,15,43,035,35,23,41,331,25,195,38,179,39,1*53
$GPGSV,5,3,17,194,27,141,25,05,26,109,39,13,15,049,24,12,13,150,20,1*57
$GPGSV,5,4,17,10,10,313,32,29,06,204,15,20,05,124,,32,04,260,,1*6D
$GPGSV,5,5,17,25,02,182,,1*5C
$GPGSV,2,1,08,24,82,094,49,196,74,058,44,18,61,272,42,199,60,167,48,8*6E
$GPGSV,2,2,08,23,41,331,35,195,38,179,27,194,27,141,34,10,10,313,23,8*60
$GLGSV,3,1,09,80,46,097,42,85,43,262,29,70,39,354,16,73,26,164,36,1*78
$GLGSV,3,2,09,86,23,315,25,84,20,195,19,79,19,041,25,69,17,061,25,1*79
$GLGSV,3,3,09,71,17,302,17,1*46
$GAGSV,2,1,08,13,63,248,34,08,51,014,38,07,42,291,21,15,32,174,19,7*73
$GAGSV,2,2,08,26,27,315,24,02,22,095,24,03,15,057,24,25,05,050,,7*77
$GAGSV,2,1,07,13,63,248,40,08,51,014,38,07,42,291,22,15,32,174,36,1*77
$GAGSV,2,2,07,26,27,315,29,02,22,095,30,03,15,057,27,1*42
$GBGSV,4,1,14,38,81,066,41,39,73,265,41,08,73,007,36,16,66,242,42,1*70
$GBGSV,4,2,14,13,64,340,39,06,64,239,38,46,53,129,46,09,48,229,41,1*7A
$GBGSV,4,3,14,20,45,049,37,19,44,333,28,37,28,055,31,29,26,219,32,1*77
$GBGSV,4,4,14,36,25,185,36,35,23,280,18,1*7C
$GBGSV,3,1,09,38,81,066,42,39,73,265,46,46,53,129,46,20,45,049,41,4*76
$GBGSV,3,2,09,19,44,333,33,37,28,055,19,29,26,219,34,36,25,185,42,4*7C
$GBGSV,3,3,09,35,23,280,16,4*40
$GNACCURACY,3.5*10
$PAIRSAT,1,35,1,0,200,2,0,200,3,0,200,4,0,200,5,0,201,6,0,200,7,0,200,8,0,200,9,0,200,10,0,200,11,0,200,12,0,200,13,0,201,14,0,200,15,0,201,16,0,200,17,0,200,18,0,221,19,0,200,20,0,200,21,0,200,23,0,221,24,0,221,25,0,200,26,0,200,27,0,200,28,0,200,29,0,200,30,0,200,31,0,200,32,0,200,194,0,621,195,0,621,196,0,620,199,0,621*69
$PAIRSAT,2,23,65,0,200,67,0,200,68,0,200,69,0,201,70,0,201,71,0,201,72,0,200,73,0,201,74,0,200,75,0,200,76,0,200,77,0,200,78,0,200,79,0,201,80,0,201,81,0,200,82,0,200,83,0,200,84,0,201,85,0,201,86,0,201,87,0,200,88,0,200*52
$PAIRSAT,3,23,2,0,1221,3,0,1221,4,0,1200,5,0,200,7,0,1221,8,0,1221,9,0,1200,10,0,1200,11,0,1200,12,0,1200,13,0,1221,15,0,1221,19,0,1200,21,0,1200,24,0,1200,25,0,1200,26,0,1221,27,0,1200,30,0,1200,31,0,1200,33,0,1200,34,0,1200,36,0,1200*69
$PAIRSAT,4,50,1,0,200,2,0,200,3,0,200,4,0,200,5,0,200,6,0,201,7,0,200,8,0,201,9,0,201,10,0,200,11,0,200,12,0,200,13,0,201,14,0,200,15,0,200,16,0,201,19,0,621,20,0,621,21,0,600,22,0,600,23,0,600,24,0,600,25,0,600,26,0,600,27,0,600,28,0,600,29,0,621,30,0,600,31,0,200,32,0,600,33,0,600,34,0,600,35,0,621,36,0,621,37,0,621,38,0,621,39,0,621,40,0,600,41,0,600,42,0,600,43,0,600,44,0,600,45,0,600,46,0,621,56,0,200,57,0,200,58,0,200,59,0,600,60,0,600,61,0,600*42
$PAIRDGP,0*45
$GNGGA,110205.200,2500.8009347,N,12132.4832980,E,4,63,0.43,15.850,M,15.25,M,1,3335*44
$GNRMC,110205.200,A,2500.8009347,N,12132.4832980,E,0.00,123.59,260623,,,R,V*1A
$GPHDT,,T*1B
$GNACCURACY,3.5*10
$GNGGA,110205.300,2500.8009336,N,12132.4833015,E,4,63,0.43,15.871,M,15.25,M,1,3335*44
$GNRMC,110205.300,A,2500.8009336,N,12132.4833015,E,0.01,123.59,260623,,,R,V*18
$GPHDT,,T*1B
$GNACCURACY,3.5*10
$GNGGA,110205.400,2500.8009331,N,12132.4833028,E,4,63,0.43,15.867,M,15.25,M,1,3335*4D
$GNRMC,110205.400,A,2500.8009331,N,12132.4833028,E,0.00,123.59,260623,,,R,V*17
$GPHDT,,T*1B
$GNACCURACY,3.5*10
$GNGGA,110205.500,2500.8009328,N,12132.4832998,E,4,63,0.43,15.863,M,15.25,M,1,3335*43
$GNRMC,110205.500,A,2500.8009328,N,12132.4832998,E,0.00,123.59,260623,,,R,V*1D
$GPHDT,,T*1B
$GNACCURACY,3.5*10
$GNGGA,110205.600,2500.8009337,N,12132.4832980,E,4,63,0.43,15.847,M,15.25,M,1,3335*41
$GNRMC,110205.600,A,2500.8009337,N,12132.4832980,E,0.00,123.59,260623,,,R,V*19
$GPHDT,,T*1B
$GNACCURACY,3.5*10
$GNGGA,110205.700,2500.8009348,N,12132.4833006,E,4,63,0.43,15.836,M,15.25,M,0,3335*49
$GNRMC,110205.700,A,2500.8009348,N,12132.4833006,E,0.00,123.59,260623,,,R,V*16
$GPHDT,,T*1B
$GNACCURACY,3.5*10
$GNGGA,110205.800,2500.8009315,N,12132.4833031,E,4,63,0.43,15.852,M,15.25,M,0,3335*48
$GNRMC,110205.800,A,2500.8009315,N,12132.4833031,E,0.00,123.59,260623,,,R,V*15
$GPHDT,,T*1B
$GNACCURACY,3.5*10
$GNGGA,110205.900,2500.8009346,N,12132.4832961,E,4,63,0.43,15.853,M,15.25,M,0,3335*43
$GNRMC,110205.900,A,2500.8009346,N,12132.4832961,E,0.00,123.59,260623,,,R,V*1F
$GPHDT,,T*1B
$GNACCURACY,3.5*10
$GNGGA,110206.000,2500.8009330,N,12132.4832997,E,4,63,0.43,15.854,M,15.25,M,1,3335*47
$GNRMC,110206.000,A,2500.8009330,N,12132.4832997,E,0.00,123.59,260623,,,R,V*1D
$GPHDT,,T*1B
$GNACCURACY,3.5*10
$GNGGA,110206.100,2500.8009312,N,12132.4833030,E,4,63,0.43,15.847,M,15.25,M,1,3335*41
$GNRMC,110206.100,A,2500.8009312,N,12132.4833030,E,0.00,123.59,260623,,,R,V*19
$GPHDT,,T*1B
$GNGSA,A,3,24,196,18,199,15,23,195,194,05,13,,,0.81,0.43,0.69,1*03
$GNGSA,A,3,80,85,70,73,86,84,79,69,71,,,,0.81,0.43,0.69,2*00
$GNGSA,A,3,13,08,07,15,26,02,03,,,,,,0.81,0.43,0.69,3*0E
$GNGSA,A,3,38,39,08,16,06,13,46,09,20,19,37,29,0.81,0.43,0.69,4*01
$GNGSA,A,3,36,35,,,,,,,,,,,0.81,0.43,0.69,4*06
$GPGSV,5,1,17,24,82,094,38,196,74,058,41,18,61,272,38,199,60,167,36,1*69
$GPGSV,5,2,17,45,47,231,42,15,43,035,34,23,41,331,21,195,38,179,39,1*56
$GPGSV,5,3,17,194,27,141,27,05,26,109,39,13,15,049,24,12,13,150,20,1*55
$GPGSV,5,4,17,10,10,313,31,29,06,204,16,20,05,124,,32,04,260,,1*6D
$GPGSV,5,5,17,25,02,182,,1*5C
$GPGSV,2,1,08,24,82,094,49,196,74,058,44,18,61,272,42,199,60,167,48,8*6E
$GPGSV,2,2,08,23,41,331,35,195,38,179,28,194,27,141,34,10,10,313,21,8*6D
$GLGSV,3,1,09,80,46,097,42,85,43,262,29,70,39,354,19,73,26,164,36,1*77
$GLGSV,3,2,09,86,23,315,27,84,20,195,20,79,19,041,25,69,17,061,25,1*71
$GLGSV,3,3,09,71,17,302,19,1*48
$GAGSV,3,1,09,13,63,248,34,08,51,014,38,07,42,291,20,15,32,174,19,7*72
$GAGSV,3,2,09,26,27,315,24,02,22,095,23,30,19,150,,03,15,057,24,7*78
$GAGSV,3,3,09,25,05,050,,7*4D
$GAGSV,2,1,07,13,63,248,40,08,51,014,38,07,42,291,21,15,32,174,35,1*77
$GAGSV,2,2,07,26,27,315,29,02,22,095,30,03,15,057,26,1*43
$GBGSV,4,1,14,38,81,066,41,39,73,265,41,08,73,007,36,16,66,242,42,1*70
$GBGSV,4,2,14,06,64,239,38,13,64,340,39,46,53,129,46,09,48,229,41,1*7A
$GBGSV,4,3,14,20,45,049,37,19,44,333,29,37,28,055,30,29,26,219,32,1*77
$GBGSV,4,4,14,36,25,185,36,35,23,280,18,1*7C
$GBGSV,3,1,09,38,81,066,42,39,73,265,46,46,53,129,46,20,45,049,41,4*76
$GBGSV,3,2,09,19,44,333,33,37,28,055,18,29,26,219,34,36,25,185,42,4*7D
$GBGSV,3,3,09,35,23,280,15,4*43
$GNACCURACY,3.5*10
$PAIRSAT,1,35,1,0,200,2,0,200,3,0,200,4,0,200,5,0,201,6,0,200,7,0,200,8,0,200,9,0,200,10,0,200,11,0,200,12,0,200,13,0,201,14,0,200,15,0,201,16,0,200,17,0,200,18,0,221,19,0,200,20,0,200,21,0,200,23,0,221,24,0,221,25,0,200,26,0,200,27,0,200,28,0,200,29,0,200,30,0,200,31,0,200,32,0,200,194,0,621,195,0,621,196,0,620,199,0,621*69
$PAIRSAT,2,23,65,0,200,67,0,200,68,0,200,69,0,201,70,0,201,71,0,201,72,0,200,73,0,201,74,0,200,75,0,200,76,0,200,77,0,200,78,0,200,79,0,201,80,0,201,81,0,200,82,0,200,83,0,200,84,0,201,85,0,201,86,0,201,87,0,200,88,0,200*52
$PAIRSAT,3,23,2,0,1221,3,0,1221,4,0,1200,5,0,200,7,0,1221,8,0,1221,9,0,1200,10,0,1200,11,0,1200,12,0,1200,13,0,1221,15,0,1221,19,0,1200,21,0,1200,24,0,1200,25,0,1200,26,0,1221,27,0,1200,30,0,1200,31,0,1200,33,0,1200,34,0,1200,36,0,1200*69
$PAIRSAT,4,50,1,0,200,2,0,200,3,0,200,4,0,200,5,0,200,6,0,201,7,0,200,8,0,201,9,0,201,10,0,200,11,0,200,12,0,200,13,0,201,14,0,200,15,0,200,16,0,201,19,0,621,20,0,621,21,0,600,22,0,600,23,0,600,24,0,600,25,0,600,26,0,600,27,0,600,28,0,600,29,0,621,30,0,600,31,0,200,32,0,600,33,0,600,34,0,600,35,0,621,36,0,621,37,0,621,38,0,621,39,0,621,40,0,600,41,0,600,42,0,600,43,0,600,44,0,600,45,0,600,46,0,621,56,0,200,57,0,200,58,0,200,59,0,600,60,0,600,61,0,600*42
$PAIRDGP,0*45
$GNGGA,110206.200,2500.8009336,N,12132.4833010,E,4,63,0.43,15.859,M,15.25,M,1,3335*49
$GNRMC,110206.200,A,2500.8009336,N,12132.4833010,E,0.00,123.59,260623,,,R,V*1E
$GPHDT,,T*1B
$GNACCURACY,3.5*10
$GNGGA,110206.300,2500.8009341,N,12132.4833004,E,4,63,0.43,15.855,M,15.25,M,1,3335*41
$GNRMC,110206.300,A,2500.8009341,N,12132.4833004,E,0.00,123.59,260623,,,R,V*1A
$GPHDT,,T*1B
$GNACCURACY,3.5*10
$GNGGA,110206.400,2500.8009384,N,12132.4832925,E,4,63,0.43,15.834,M,15.25,M,1,3335*43
$GNRMC,110206.400,A,2500.8009384,N,12132.4832925,E,0.00,123.59,260623,,,R,V*1F
$GPHDT,,T*1B
$GNACCURACY,3.5*10
$GNGGA,110206.500,2500.8009347,N,12132.4832913,E,4,63,0.43,15.835,M,15.25,M,1,3335*49
$GNRMC,110206.500,A,2500.8009347,N,12132.4832913,E,0.00,123.59,260623,,,R,V*14
$GPHDT,,T*1B
$GNACCURACY,3.5*10
$GNGGA,110206.600,2500.8009413,N,12132.4832920,E,4,63,0.43,15.822,M,15.25,M,1,3335*4A
$GNRMC,110206.600,A,2500.8009413,N,12132.4832920,E,0.00,123.59,260623,,,R,V*11
$GPHDT,,T*1B
$GNACCURACY,3.5*10
$GNGGA,110206.700,2500.8009407,N,12132.4832922,E,4,63,0.43,15.836,M,15.25,M,1,3335*49
$GNRMC,110206.700,A,2500.8009407,N,12132.4832922,E,0.00,123.59,260623,,,R,V*17
$GPHDT,,T*1B
$GNACCURACY,3.5*10
$GNGGA,110206.800,2500.8009380,N,12132.4832921,E,4,63,0.43,15.841,M,15.25,M,1,3335*4D
$GNRMC,110206.800,A,2500.8009380,N,12132.4832921,E,0.00,123.59,260623,,,R,V*13
$GPHDT,,T*1B
$GNACCURACY,3.5*10
$GNGGA,110206.900,2500.8009353,N,12132.4832928,E,4,63,0.43,15.859,M,15.25,M,0,3335*43
$GNRMC,110206.900,A,2500.8009353,N,12132.4832928,E,0.00,123.59,260623,,,R,V*15
$GPHDT,,T*1B
$GNACCURACY,3.5*10
$GNGGA,110207.000,2500.8009335,N,12132.4832964,E,4,63,0.43,15.848,M,15.25,M,1,3335*42
$GNRMC,110207.000,A,2500.8009335,N,12132.4832964,E,0.00,123.59,260623,,,R,V*15
$GPHDT,,T*1B
$GNACCURACY,3.5*10
$GNGGA,110207.100,2500.8009361,N,12132.4832944,E,4,63,0.43,15.845,M,15.25,M,1,3335*4D
$GNRMC,110207.100,A,2500.8009361,N,12132.4832944,E,0.00,123.59,260623,,,R,V*17
$GPHDT,,T*1B
$GNGSA,A,3,24,196,18,199,15,23,195,194,05,13,,,0.81,0.43,0.69,1*03
$GNGSA,A,3,80,85,70,73,86,84,79,69,71,,,,0.81,0.43,0.69,2*00
$GNGSA,A,3,13,08,07,15,26,02,03,,,,,,0.81,0.43,0.69,3*0E
$GNGSA,A,3,38,39,08,16,13,06,46,09,20,19,37,29,0.81,0.43,0.69,4*01
$GNGSA,A,3,36,35,,,,,,,,,,,0.81,0.43,0.69,4*06
$GPGSV,4,1,16,24,82,094,38,196,74,058,41,18,61,272,38,199,60,167,36,1*69
$GPGSV,4,2,16,45,47,231,42,15,43,035,34,23,41,331,26,195,38,179,39,1*51
$GPGSV,4,3,16,194,27,141,27,05,26,109,39,13,15,049,24,12,13,150,21,1*54
$GPGSV,4,4,16,10,10,313,30,29,06,204,16,20,05,124,,25,02,182,,1*63
$GPGSV,2,1,08,24,82,094,49,196,74,058,44,18,61,272,42,199,60,167,48,8*6E
$GPGSV,2,2,08,23,41,331,35,195,38,179,29,194,27,141,34,10,10,313,21,8*6C
$GLGSV,3,1,09,80,46,097,42,85,43,262,29,70,39,354,18,73,26,164,36,1*76
$GLGSV,3,2,09,86,23,315,27,84,20,195,20,79,19,041,25,69,17,061,25,1*71
$GLGSV,3,3,09,71,17,302,19,1*48
$GAGSV,3,1,09,13,63,248,34,08,51,014,38,07,42,291,20,15,32,174,19,7*72
$GAGSV,3,2,09,26,27,315,23,02,22,095,23,30,19,150,,03,15,057,24,7*7F
$GAGSV,3,3,09,25,05,050,,7*4D
$GAGSV,2,1,07,13,63,248,40,08,51,014,38,07,42,291,20,15,32,174,35,1*76
$GAGSV,2,2,07,26,27,315,29,02,22,095,30,03,15,057,27,1*42
$GBGSV,4,1,14,38,81,066,41,39,73,265,41,08,73,007,36,16,66,242,42,1*70
$GBGSV,4,2,14,13,64,340,39,06,64,239,38,46,53,129,46,09,48,229,41,1*7A
$GBGSV,4,3,14,20,45,049,37,19,44,333,26,37,28,055,30,29,26,219,32,1*78
$GBGSV,4,4,14,36,25,185,36,35,23,280,18,1*7C
$GBGSV,3,1,09,38,81,066,42,39,73,265,46,46,53,129,46,20,45,049,41,4*76
$GBGSV,3,2,09,19,44,333,33,37,28,055,18,29,26,219,34,36,25,185,43,4*7C
$GBGSV,3,3,09,35,23,280,17,4*41
$GNACCURACY,3.5*10
$PAIRSAT,1,35,1,0,200,2,0,200,3,0,200,4,0,200,5,0,201,6,0,200,7,0,200,8,0,200,9,0,200,10,0,200,11,0,200,12,0,200,13,0,201,14,0,200,15,0,201,16,0,200,17,0,200,18,0,221,19,0,200,20,0,200,21,0,200,23,0,221,24,0,221,25,0,200,26,0,200,27,0,200,28,0,200,29,0,200,30,0,200,31,0,200,32,0,200,194,0,621,195,0,621,196,0,620,199,0,621*69
$PAIRSAT,2,23,65,0,200,67,0,200,68,0,200,69,0,201,70,0,201,71,0,201,72,0,200,73,0,201,74,0,200,75,0,200,76,0,200,77,0,200,78,0,200,79,0,201,80,0,201,81,0,200,82,0,200,83,0,200,84,0,201,85,0,201,86,0,201,87,0,200,88,0,200*52
$PAIRSAT,3,23,2,0,1221,3,0,1221,4,0,1200,5,0,200,7,0,1221,8,0,1221,9,0,1200,10,0,1200,11,0,1200,12,0,1200,13,0,1221,15,0,1221,19,0,1200,21,0,1200,24,0,1200,25,0,1200,26,0,1221,27,0,1200,30,0,1200,31,0,1200,33,0,1200,34,0,1200,36,0,1200*69
$PAIRSAT,4,50,1,0,200,2,0,200,3,0,200,4,0,200,5,0,200,6,0,201,7,0,200,8,0,201,9,0,201,10,0,200,11,0,200,12,0,200,13,0,201,14,0,200,15,0,200,16,0,201,19,0,621,20,0,621,21,0,600,22,0,600,23,0,600,24,0,600,25,0,600,26,0,600,27,0,600,28,0,600,29,0,621,30,0,600,31,0,200,32,0,600,33,0,600,34,0,600,35,0,621,36,0,621,37,0,621,38,0,621,39,0,621,40,0,600,41,0,600,42,0,600,43,0,600,44,0,600,45,0,600,46,0,621,56,0,200,57,0,200,58,0,200,59,0,600,60,0,600,61,0,600*42
$PAIRDGP,0*45
$GNGGA,110207.200,2500.8009352,N,12132.4832938,E,4,63,0.43,15.854,M,15.25,M,1,3335*45
$GNRMC,110207.200,A,2500.8009352,N,12132.4832938,E,0.00,123.59,260623,,,R,V*1F
$GPHDT,,T*1B
$GNACCURACY,3.5*10
$GNGGA,110207.300,2500.8009354,N,12132.4832953,E,4,63,0.43,15.845,M,15.25,M,1,3335*4F
$GNRMC,110207.300,A,2500.8009354,N,12132.4832953,E,0.00,123.59,260623,,,R,V*15
$GPHDT,,T*1B
$GNACCURACY,3.5*10
$GNGGA,110207.400,2500.8009318,N,12132.4832954,E,4,63,0.43,15.855,M,15.25,M,1,3335*46
$GNRMC,110207.400,A,2500.8009318,N,12132.4832954,E,0.00,123.59,260623,,,R,V*1D
$GPHDT,,T*1B
$GNACCURACY,3.5*10
$GNGGA,110207.500,2500.8009331,N,12132.4832950,E,4,63,0.43,15.850,M,15.25,M,1,3335*4D
$GNRMC,110207.500,A,2500.8009331,N,12132.4832950,E,0.00,123.59,260623,,,R,V*13
$GPHDT,,T*1B
$GNACCURACY,3.5*10
$GNGGA,110207.600,2500.8009347,N,12132.4832946,E,4,63,0.43,15.861,M,15.25,M,1,3335*4A
$GNRMC,110207.600,A,2500.8009347,N,12132.4832946,E,0.01,123.59,260623,,,R,V*17
$GPHDT,,T*1B
$GNACCURACY,3.5*10
$GNGGA,110207.700,2500.8009323,N,12132.4832934,E,4,63,0.43,15.851,M,15.25,M,1,3335*4F
$GNRMC,110207.700,A,2500.8009323,N,12132.4832934,E,0.01,123.59,260623,,,R,V*11
$GPHDT,,T*1B
$GNACCURACY,3.5*10
$GNGGA,110207.800,2500.8009368,N,12132.4832926,E,4,63,0.43,15.837,M,15.25,M,1,3335*4C
$GNRMC,110207.800,A,2500.8009368,N,12132.4832926,E,0.01,123.59,260623,,,R,V*12
$GPHDT,,T*1B
$GNACCURACY,3.5*10
$GNGGA,110207.900,2500.8009305,N,12132.4832983,E,4,63,0.43,15.857,M,15.25,M,1,3335*4F
$GNRMC,110207.900,A,2500.8009305,N,12132.4832983,E,0.01,123.59,260623,,,R,V*17
$GPHDT,,T*1B
$GNACCURACY,3.5*10
$GNGGA,110208.000,2500.8009346,N,12132.4832918,E,4,63,0.43,15.837,M,15.25,M,2,3335*49
$GNRMC,110208.000,A,2500.8009346,N,12132.4832918,E,0.01,123.59,260623,,,R,V*14
$GPHDT,,T*1B
$GNACCURACY,3.5*10
$GNGGA,110208.100,2500.8009308,N,12132.4832946,E,4,62,0.43,15.853,M,15.25,M,2,3335*4A
$GNRMC,110208.100,A,2500.8009308,N,12132.4832946,E,0.01,123.59,260623,,,R,V*14
$GPHDT,,T*1B
$GNGSA,A,3,24,196,18,199,15,23,195,194,05,13,,,0.81,0.43,0.69,1*03
$GNGSA,A,3,80,85,70,73,86,84,79,69,71,,,,0.81,0.43,0.69,2*00
$GNGSA,A,3,13,08,07,15,26,02,03,,,,,,0.81,0.43,0.69,3*0E
$GNGSA,A,3,38,39,08,16,06,13,46,09,20,19,37,29,0.81,0.43,0.69,4*01
$GNGSA,A,3,36,35,,,,,,,,,,,0.81,0.43,0.69,4*06
$GPGSV,5,1,17,24,82,094,38,196,74,058,41,18,61,272,38,199,60,167,36,1*69
$GPGSV,5,2,17,45,47,231,42,15,43,035,34,23,41,331,26,195,38,179,39,1*51
$GPGSV,5,3,17,194,27,141,27,05,26,109,39,13,15,049,23,12,13,150,22,1*50
$GPGSV,5,4,17,10,10,313,31,29,06,204,15,20,05,124,,32,04,260,,1*6E
$GPGSV,5,5,17,25,02,182,,1*5C
$GPGSV,2,1,08,24,82,094,49,196,74,058,44,18,61,272,43,199,60,167,48,8*6F
$GPGSV,2,2,08,23,41,331,36,195,38,179,29,194,27,141,34,10,10,313,23,8*6D
$GLGSV,3,1,09,80,46,097,42,85,43,262,29,70,39,354,18,73,26,164,36,1*76
$GLGSV,3,2,09,86,23,315,27,84,20,195,20,79,19,041,25,69,17,061,25,1*71
$GLGSV,3,3,09,71,17,302,18,1*49
$GAGSV,3,1,09,13,63,248,34,08,51,014,38,07,42,291,19,15,32,174,19,7*78
$GAGSV,3,2,09,26,27,315,20,02,22,095,24,30,19,150,,03,15,057,24,7*7B
$GAGSV,3,3,09,25,05,050,,7*4D
$GAGSV,2,1,07,13,63,248,40,08,51,014,38,07,42,291,22,15,32,174,35,1*74
$GAGSV,2,2,07,26,27,315,30,02,22,095,30,03,15,057,27,1*4A
$GBGSV,4,1,14,38,81,066,41,39,73,265,41,08,73,007,36,16,66,242,42,1*70
$GBGSV,4,2,14,06,64,239,38,13,64,340,39,46,53,129,46,09,48,229,41,1*7A
$GBGSV,4,3,14,20,45,049,37,19,44,333,24,37,28,055,30,29,26,219,32,1*7A
$GBGSV,4,4,14,36,25,185,36,35,23,280,19,1*7D
$GBGSV,3,1,09,38,81,066,42,39,73,265,46,46,53,129,46,20,45,049,41,4*76
$GBGSV,3,2,09,19,44,333,34,37,28,055,18,29,26,219,35,36,25,185,43,4*7A
$GBGSV,3,3,09,35,23,280,17,4*41
$GNACCURACY,3.5*10
$PAIRSAT,1,35,1,0,200,2,0,200,3,0,200,4,0,200,5,0,201,6,0,200,7,0,200,8,0,200,9,0,200,10,0,200,11,0,200,12,0,200,13,0,201,14,0,200,15,0,201,16,0,200,17,0,200,18,0,221,19,0,200,20,0,200,21,0,200,23,0,221,24,0,221,25,0,200,26,0,200,27,0,200,28,0,200,29,0,200,30,0,200,31,0,200,32,0,200,194,0,621,195,0,621,196,0,620,199,0,621*69
$PAIRSAT,2,23,65,0,200,67,0,200,68,0,200,69,0,201,70,0,201,71,0,201,72,0,200,73,0,201,74,0,200,75,0,200,76,0,200,77,0,200,78,0,200,79,0,201,80,0,201,81,0,200,82,0,200,83,0,200,84,0,201,85,0,201,86,0,201,87,0,200,88,0,200*52
$PAIRSAT,3,23,2,0,1221,3,0,1221,4,0,1200,5,0,200,7,0,1221,8,0,1221,9,0,1200,10,0,1200,11,0,1200,12,0,1200,13,0,1221,15,0,1221,19,0,1200,21,0,1200,24,0,1200,25,0,1200,26,0,1221,27,0,1200,30,0,1200,31,0,1200,33,0,1200,34,0,1200,36,0,1200*69
$PAIRSAT,4,50,1,0,200,2,0,200,3,0,200,4,0,200,5,0,200,6,0,201,7,0,200,8,0,201,9,0,201,10,0,200,11,0,200,12,0,200,13,0,201,14,0,200,15,0,200,16,0,201,19,0,621,20,0,621,21,0,600,22,0,600,23,0,600,24,0,600,25,0,600,26,0,600,27,0,600,28,0,600,29,0,621,30,0,600,31,0,200,32,0,600,33,0,600,34,0,600,35,0,621,36,0,621,37,0,621,38,0,621,39,0,621,40,0,600,41,0,600,42,0,600,43,0,600,44,0,600,45,0,600,46,0,621,56,0,200,57,0,200,58,0,200,59,0,600,60,0,600,61,0,600*42
$PAIRDGP,0*45
$GNGGA,110208.200,2500.8009339,N,12132.4832944,E,4,62,0.43,15.846,M,15.25,M,2,3335*4D
$GNRMC,110208.200,A,2500.8009339,N,12132.4832944,E,0.01,123.59,260623,,,R,V*17
$GPHDT,,T*1B
$GNACCURACY,3.5*10
$GNGGA,110208.300,2500.8009312,N,12132.4832949,E,4,62,0.43,15.850,M,15.25,M,2,3335*4F
$GNRMC,110208.300,A,2500.8009312,N,12132.4832949,E,0.01,123.59,260623,,,R,V*12
$GPHDT,,T*1B
$GNACCURACY,3.5*10
$GNGGA,110208.400,2500.8009331,N,12132.4832958,E,4,62,0.43,15.849,M,15.25,M,2,3335*41
$GNRMC,110208.400,A,2500.8009331,N,12132.4832958,E,0.01,123.59,260623,,,R,V*14
$GPHDT,,T*1B
$GNACCURACY,3.5*10
$GNGGA,110208.500,2500.8009344,N,12132.4832931,E,4,62,0.43,15.837,M,15.25,M,2,3335*44
$GNRMC,110208.500,A,2500.8009344,N,12132.4832931,E,0.01,123.59,260623,,,R,V*18
$GPHDT,,T*1B
$GNACCURACY,3.5*10
$GNGGA,110208.600,2500.8009319,N,12132.4832961,E,4,62,0.43,15.845,M,15.25,M,2,3335*4F
$GNRMC,110208.600,A,2500.8009319,N,12132.4832961,E,0.01,123.59,260623,,,R,V*16
$GPHDT,,T*1B
$GNACCURACY,3.5*10
$GNGGA,110208.700,2500.8009307,N,12132.4832949,E,4,62,0.43,15.855,M,15.25,M,2,3335*4A
$GNRMC,110208.700,A,2500.8009307,N,12132.4832949,E,0.01,123.59,260623,,,R,V*12
$GPHDT,,T*1B
$GNACCURACY,3.5*10
$GNGGA,110208.800,2500.8009307,N,12132.4832960,E,4,62,0.43,15.864,M,15.25,M,2,3335*4C
$GNRMC,110208.800,A,2500.8009307,N,12132.4832960,E,0.01,123.59,260623,,,R,V*16
$GPHDT,,T*1B
$GNACCURACY,3.5*10
$GNGGA,110208.900,2500.8009311,N,12132.4832960,E,4,62,0.43,15.853,M,15.25,M,2,3335*4E
$GNRMC,110208.900,A,2500.8009311,N,12132.4832960,E,0.01,123.59,260623,,,R,V*10
$GPHDT,,T*1B
$GNACCURACY,3.5*10
$GNGGA,110209.000,2500.8009342,N,12132.4832935,E,4,62,0.43,15.840,M,15.25,M,3,3335*43
$GNRMC,110209.000,A,2500.8009342,N,12132.4832935,E,0.01,123.59,260623,,,R,V*1E
$PAIR010,0,0,2268,126147*32
$GPHDT,,T*1B
$GNACCURACY,3.5*10
$GNGGA,110209.100,2500.8009333,N,12132.4832976,E,4,62,0.43,15.868,M,15.25,M,3,3335*49
$GNRMC,110209.100,A,2500.8009333,N,12132.4832976,E,0.01,123.59,260623,,,R,V*1E
$GPHDT,,T*1B
$GNGSA,A,3,24,196,18,199,15,23,195,194,05,13,,,0.81,0.43,0.69,1*03
$GNGSA,A,3,80,85,70,73,86,84,79,69,71,,,,0.81,0.43,0.69,2*00
$GNGSA,A,3,13,08,07,15,26,02,03,,,,,,0.81,0.43,0.69,3*0E
$GNGSA,A,3,38,39,08,16,13,06,46,09,20,19,37,29,0.81,0.43,0.69,4*01
$GNGSA,A,3,36,35,,,,,,,,,,,0.81,0.43,0.69,4*06
$GPGSV,5,1,17,24,82,094,38,196,74,058,41,18,61,271,39,199,60,167,36,1*6B
$GPGSV,5,2,17,45,47,231,42,15,43,035,34,23,41,331,22,195,38,179,39,1*55
$GPGSV,5,3,17,194,27,141,27,05,26,109,39,13,15,049,22,12,13,149,21,1*5A
$GPGSV,5,4,17,10,10,313,31,29,06,204,14,20,05,124,,32,04,260,,1*6F
$GPGSV,5,5,17,25,02,182,,1*5C
$GPGSV,2,1,08,24,82,094,49,196,74,058,44,18,61,271,43,199,60,167,48,8*6C
$GPGSV,2,2,08,23,41,331,35,195,38,179,27,194,27,141,34,10,10,313,26,8*65
$GLGSV,3,1,09,80,46,097,41,85,43,262,29,70,39,354,18,73,26,164,35,1*76
$GLGSV,3,2,09,86,23,315,27,84,20,195,20,79,19,041,25,69,17,061,25,1*71
$GLGSV,3,3,09,71,17,302,18,1*49
$GAGSV,2,1,08,13,63,248,34,08,51,014,38,07,42,291,18,15,32,174,20,7*73
$GAGSV,2,2,08,26,27,315,20,02,22,095,24,30,19,150,,03,15,057,23,7*7C
$GAGSV,2,1,07,13,63,248,41,08,51,014,39,07,42,291,22,15,32,174,36,1*77
$GAGSV,2,2,07,26,27,315,30,02,22,095,30,03,15,057,27,1*4A
$GBGSV,4,1,15,38,81,066,41,39,73,265,41,08,73,007,36,16,66,242,42,1*71
$GBGSV,4,2,15,13,64,340,38,06,64,239,37,46,53,129,46,09,48,229,41,1*75
$GBGSV,4,3,15,20,45,049,37,19,44,333,27,37,28,055,30,29,26,219,32,1*78
$GBGSV,4,4,15,36,