$FW : RTK35X,V1.1X0314AS,Lib20210517,1*54
$Tool : LOCOSYS , GNSS Firebird , v1.0.0.19*39
$---------------------------------------------------*2D
,110423.200,2500.8019344,N,12132.4842593,E,1,64,0.44,14.537,M,15.25,M,12,3335*77
$GNRMC,110423.200,A,2500.8019344,N,12132.4842593,E,0.02,17.93,260623,,,A,V*32
$GPHDT,,T*1B
$GNACCURACY,3.4*11
$GNGGA,110423.300,2500.8019344,N,12132.4842473,E,1,64,0.44,14.548,M,15.25,M,12,3335*71
$GNRMC,110423.300,A,2500.8019344,N,12132.4842473,E,0.02,17.93,260623,,,A,V*3C
$GPHDT,,T*1B
$GNACCURACY,3.4*11
$GNGGA,110423.400,2500.8019404,N,12132.4842353,E,1,64,0.44,14.558,M,15.25,M,12,3335*71
$GNRMC,110423.400,A,2500.8019404,N,12132.4842353,E,0.01,17.93,260623,,,A,V*3E
$GPHDT,,T*1B
$GNACCURACY,3.4*11
$GNGGA,110423.500,2500.8019464,N,12132.4842233,E,1,64,0.44,14.570,M,15.25,M,12,3335*7B
$GNRMC,110423.500,A,2500.8019464,N,12132.4842233,E,0.02,17.93,260623,,,A,V*3D
$GPHDT,,T*1B
$GNACCURACY,3.4*11
$GNGGA,110423.600,2500.8019464,N,12132.4842113,E,1,63,0.44,14.582,M,15.25,M,12,3335*73
$GNRMC,110423.600,A,2500.8019464,N,12132.4842113,E,0.01,17.93,260623,,,A,V*3C
$GPHDT,,T*1B
$GNACCURACY,3.4*11
$GNGGA,110423.700,2500.8019524,N,12132.4841933,E,1,63,0.44,14.593,M,15.25,M,12,3335*7E
$GNRMC,110423.700,A,2500.8019524,N,12132.4841933,E,0.02,17.93,260623,,,A,V*32
$GPHDT,,T*1B
$GNACCURACY,3.4*11
$GNGGA,110423.800,2500.8019584,N,12132.4841873,E,1,63,0.44,14.604,M,15.25,M,12,3335*73
$GNRMC,110423.800,A,2500.8019584,N,12132.4841873,E,0.01,17.93,260623,,,A,V*31
$GPHDT,,T*1B
$GNACCURACY,3.4*11
$GNGGA,110423.900,2500.8019584,N,12132.4841753,E,1,64,0.44,14.616,M,15.25,M,12,3335*7B
$GNRMC,110423.900,A,2500.8019584,N,12132.4841753,E,0.01,17.93,260623,,,A,V*3D
$GPHDT,,T*1B
$GNACCURACY,3.4*11
$GNGGA,110424.000,2500.8019644,N,12132.4841633,E,1,64,0.44,14.626,M,15.25,M,13,3335*7F
$GNRMC,110424.000,A,2500.8019644,N,12132.4841633,E,0.02,17.93,260623,,,A,V*38
$GPHDT,,T*1B
$GNACCURACY,3.4*11
$GNGGA,110424.100,2500.8019704,N,12132.4841573,E,1,64,0.44,14.636,M,15.25,M,13,3335*7D
$GNRMC,110424.100,A,2500.8019704,N,12132.4841573,E,0.02,17.93,260623,,,A,V*3B
$GPHDT,,T*1B
$GNGSA,A,3,24,196,18,199,15,23,195,194,05,13,10,,0.80,0.44,0.67,1*0A
$GNGSA,A,3,80,85,70,73,86,71,79,69,,,,,0.80,0.44,0.67,2*04
$GNGSA,A,3,13,08,07,15,26,02,03,,,,,,0.80,0.44,0.67,3*06
$GNGSA,A,3,38,08,39,16,13,06,46,09,20,19,37,36,0.80,0.44,0.67,4*07
$GNGSA,A,3,29,35,,,,,,,,,,,0.80,0.44,0.67,4*00
$GPGSV,5,1,17,24,82,085,37,196,74,059,41,18,61,269,38,199,60,167,30,1*6B
$GPGSV,5,2,17,45,47,231,35,15,42,036,37,23,42,332,40,195,38,179,36,1*5F
$GPGSV,5,3,17,194,27,141,13,05,25,110,40,12,14,149,16,13,14,050,17,1*54
$GPGSV,5,4,17,10,11,314,32,29,05,204,16,32,04,261,,20,04,124,,1*6B
$GPGSV,5,5,17,25,03,182,,1*5D
$GPGSV,2,1,08,24,82,085,48,196,74,059,46,18,61,269,43,199,60,167,46,8*69
$GPGSV,2,2,08,23,42,332,46,195,38,179,34,194,27,141,36,10,11,314,31,8*61
$GLGSV,3,1,09,80,46,096,43,85,42,260,27,70,39,355,24,73,27,164,26,1*75
$GLGSV,3,2,09,86,23,314,35,84,19,194,14,71,18,303,19,79,18,040,25,1*71
$GLGSV,3,3,09,69,16,062,28,1*47
$GAGSV,3,1,09,13,62,246,34,08,50,015,38,07,42,292,27,15,31,174,23,7*73
$GAGSV,3,2,09,26,27,314,27,02,23,094,23,30,19,149,21,03,14,058,31,7*7B
$GAGSV,3,3,09,25,05,050,,7*4D
$GAGSV,2,1,07,13,62,246,42,08,50,015,43,07,42,292,31,15,31,174,35,1*77
$GAGSV,2,2,07,26,27,314,34,02,23,094,21,03,14,058,27,1*41
$GBGSV,4,1,14,38,82,069,38,08,74,007,34,39,73,266,44,16,66,244,43,1*76
$GBGSV,4,2,14,13,64,340,38,06,64,240,41,46,54,128,44,09,48,230,30,1*71
$GBGSV,4,3,14,20,45,050,41,19,45,334,45,37,28,055,36,36,26,185,26,1*79
$GBGSV,4,4,14,29,26,219,26,35,23,279,25,1*7E
$GBGSV,3,1,09,38,82,069,42,39,73,266,44,46,54,128,45,20,45,050,41,4*76
$GBGSV,3,2,09,19,45,334,44,37,28,055,39,29,26,219,31,36,26,185,37,4*7C
$GBGSV,3,3,09,35,23,279,24,4*47
$GNACCURACY,3.4*11
$PAIRSAT,1,35,1,0,200,2,0,200,3,0,200,4,0,200,5,0,201,6,0,200,7,0,200,8,0,200,9,0,200,10,0,221,11,0,200,12,0,200,13,0,201,14,0,200,15,0,201,16,0,200,17,0,200,18,0,221,19,0,200,20,0,200,21,0,200,23,0,221,24,0,221,25,0,200,26,0,200,27,0,200,28,0,200,29,0,200,30,0,200,31,0,200,32,0,200,194,0,621,195,0,621,196,0,620,199,0,621*6A
$PAIRSAT,2,23,65,0,200,67,0,200,68,0,200,69,0,201,70,0,201,71,0,201,72,0,200,73,0,201,74,0,200,75,0,200,76,0,200,77,0,200,78,0,200,79,0,201,80,0,201,81,0,200,82,0,200,83,0,200,84,0,201,85,0,201,86,0,201,87,0,200,88,0,200*52
$PAIRSAT,3,23,2,0,1221,3,0,1221,4,0,1200,5,0,200,7,0,1221,8,0,1221,9,0,1200,10,0,1200,11,0,1200,12,0,1200,13,0,1221,15,0,1221,19,0,1200,21,0,1200,24,0,1200,25,0,1200,26,0,1221,27,0,1200,30,0,1200,31,0,1200,33,0,1200,34,0,1200,36,0,1200*69
$PAIRSAT,4,50,1,0,200,2,0,200,3,0,200,4,0,200,5,0,200,6,0,201,7,0,200,8,0,201,9,0,201,10,0,200,11,0,200,12,0,200,13,0,201,14,0,200,15,0,200,16,0,201,19,0,621,20,0,621,21,0,600,22,0,600,23,0,600,24,0,600,25,0,600,26,0,600,27,0,600,28,0,600,29,0,621,30,0,600,31,0,200,32,0,600,33,0,600,34,0,600,35,0,621,36,0,621,37,0,621,38,0,621,39,0,621,40,0,600,41,0,600,42,0,600,43,0,600,44,0,600,45,0,600,46,0,621,56,0,200,57,0,200,58,0,200,59,0,600,60,0,600,61,0,600*42
$PAIRDGP,0*45
$GNGGA,110424.200,2500.8019764,N,12132.4841513,E,1,64,0.44,14.645,M,15.25,M,13,3335*7A
$GNRMC,110424.200,A,2500.8019764,N,12132.4841513,E,0.02,17.93,260623,,,A,V*38
$GPHDT,,T*1B
$GNACCURACY,3.4*11
$GNGGA,110424.300,2500.8019824,N,12132.4841453,E,1,64,0.44,14.654,M,15.25,M,13,3335*75
$GNRMC,110424.300,A,2500.8019824,N,12132.4841453,E,0.02,17.93,260623,,,A,V*37
$GPHDT,,T*1B
$GNACCURACY,3.4*11
$GNGGA,110424.400,2500.8019884,N,12132.4841393,E,1,64,0.44,14.663,M,15.25,M,13,3335*77
$GNRMC,110424.400,A,2500.8019884,N,12132.4841393,E,0.02,17.93,260623,,,A,V*31
$GPHDT,,T*1B
$GNACCURACY,3.5*10
$GNGGA,110424.500,2500.8019944,N,12132.4841273,E,1,64,0.44,14.670,M,15.25,M,13,3335*76
$GNRMC,110424.500,A,2500.8019944,N,12132.4841273,E,0.02,17.93,260623,,,A,V*32
$GPHDT,,T*1B
$GNACCURACY,3.5*10
$GNGGA,110424.600,2500.8020004,N,12132.4841153,E,1,64,0.44,14.680,M,15.25,M,13,3335*7C
$GNRMC,110424.600,A,2500.8020004,N,12132.4841153,E,0.02,17.93,260623,,,A,V*37
$GPHDT,,T*1B
$GNACCURACY,3.5*10
$GNGGA,110424.700,2500.8020004,N,12132.4841093,E,1,63,0.44,14.690,M,15.25,M,13,3335*76
$GNRMC,110424.700,A,2500.8020004,N,12132.4841093,E,0.02,17.93,260623,,,A,V*3B
$GPHDT,,T*1B
$GNACCURACY,3.5*10
$GNGGA,110424.800,2500.8020064,N,12132.4841033,E,1,63,0.44,14.696,M,15.25,M,13,3335*73
$GNRMC,110424.800,A,2500.8020064,N,12132.4841033,E,0.02,17.93,260623,,,A,V*38
$GPHDT,,T*1B
$GNACCURACY,3.5*10
$GNGGA,110424.900,2500.8020124,N,12132.4840973,E,1,63,0.44,14.704,M,15.25,M,13,3335*71
$GNRMC,110424.900,A,2500.8020124,N,12132.4840973,E,0.02,17.93,260623,,,A,V*30
$GPHDT,,T*1B
$GNACCURACY,3.5*10
$GNGGA,110425.000,2500.8020184,N,12132.4840913,E,1,63,0.44,14.713,M,15.25,M,14,3335*74
$GNRMC,110425.000,A,2500.8020184,N,12132.4840913,E,0.02,17.93,260623,,,A,V*34
$GPHDT,,T*1B
$GNACCURACY,3.5*10
$GNGGA,110425.100,2500.8020184,N,12132.4840853,E,1,63,0.44,14.721,M,15.25,M,14,3335*71
$GNRMC,110425.100,A,2500.8020184,N,12132.4840853,E,0.02,17.93,260623,,,A,V*30
$GPHDT,,T*1B
$GNGSA,A,3,24,196,18,199,15,23,195,05,13,10,194,,0.80,0.44,0.67,1*0A
$GNGSA,A,3,80,85,70,73,86,71,79,69,,,,,0.80,0.44,0.67,2*04
$GNGSA,A,3,13,08,07,15,26,02,03,,,,,,0.80,0.44,0.67,3*06
$GNGSA,A,3,38,08,39,16,13,06,46,09,20,19,37,36,0.80,0.44,0.67,4*07
$GNGSA,A,3,29,35,,,,,,,,,,,0.80,0.44,0.67,4*00
$GPGSV,5,1,17,24,82,085,37,196,74,059,40,18,61,269,38,199,60,167,30,1*6A
$GPGSV,5,2,17,45,47,231,36,15,42,036,38,23,42,332,40,195,38,179,36,1*53
$GPGSV,5,3,17,194,27,141,18,05,25,110,39,12,14,149,16,13,14,050,17,1*51
$GPGSV,5,4,17,10,11,314,32,29,05,204,15,32,04,261,,20,04,124,,1*68
$GPGSV,5,5,17,25,03,182,,1*5D
$GPGSV,2,1,08,24,82,085,48,196,74,059,46,18,61,269,43,199,60,167,46,8*69
$GPGSV,2,2,08,23,42,332,46,195,38,179,34,194,27,141,36,10,11,314,32,8*62
$GLGSV,3,1,09,80,46,096,43,85,42,260,28,70,39,355,24,73,27,164,26,1*7A
$GLGSV,3,2,09,86,23,314,36,84,19,194,17,71,18,303,19,79,18,040,25,1*71
$GLGSV,3,3,09,69,16,063,29,1*47
$GAGSV,3,1,09,13,62,246,34,08,50,015,38,07,42,292,26,15,31,174,21,7*70
$GAGSV,3,2,09,26,27,314,27,02,23,094,24,30,19,149,22,03,14,058,31,7*7F
$GAGSV,3,3,09,25,05,050,,7*4D
$GAGSV,2,1,07,13,62,246,42,08,50,015,43,07,42,292,30,15,31,174,35,1*76
$GAGSV,2,2,07,26,27,314,33,02,23,094,21,03,14,058,27,1*46
$GBGSV,4,1,14,38,82,069,38,08,74,007,34,39,73,266,44,16,66,244,43,1*76
$GBGSV,4,2,14,13,64,340,38,06,64,240,41,46,54,128,44,09,48,230,31,1*70
$GBGSV,4,3,14,20,45,050,41,19,45,334,45,37,28,055,35,36,26,185,25,1*79
$GBGSV,4,4,14,29,26,219,23,35,23,279,25,1*7B
$GBGSV,3,1,09,38,82,069,41,39,73,266,44,46,54,128,46,20,45,050,41,4*76
$GBGSV,3,2,09,19,45,334,44,37,28,055,38,29,26,219,33,36,26,185,36,4*7E
$GBGSV,3,3,09,35,23,279,24,4*47
$GNACCURACY,3.5*10
$PAIRSAT,1,35,1,0,200,2,0,200,3,0,200,4,0,200,5,0,201,6,0,200,7,0,200,8,0,200,9,0,200,10,0,221,11,0,200,12,0,200,13,0,201,14,0,200,15,0,201,16,0,200,17,0,200,18,0,221,19,0,200,20,0,200,21,0,200,23,0,221,24,0,221,25,0,200,26,0,200,27,0,200,28,0,200,29,0,200,30,0,200,31,0,200,32,0,200,194,0,621,195,0,621,196,0,620,199,0,621*6A
$PAIRSAT,2,23,65,0,200,67,0,200,68,0,200,69,0,201,70,0,201,71,0,201,72,0,200,73,0,201,74,0,200,75,0,200,76,0,200,77,0,200,78,0,200,79,0,201,80,0,201,81,0,200,82,0,200,83,0,200,84,0,201,85,0,201,86,0,201,87,0,200,88,0,200*52
$PAIRSAT,3,23,2,0,1221,3,0,1221,4,0,1200,5,0,200,7,0,1221,8,0,1221,9,0,1200,10,0,1200,11,0,1200,12,0,1200,13,0,1221,15,0,1221,19,0,1200,21,0,1200,24,0,1200,25,0,1200,26,0,1221,27,0,1200,30,0,1200,31,0,1200,33,0,1200,34,0,1200,36,0,1200*69
$PAIRSAT,4,50,1,0,200,2,0,200,3,0,200,4,0,200,5,0,200,6,0,201,7,0,200,8,0,201,9,0,201,10,0,200,11,0,200,12,0,200,13,0,201,14,0,200,15,0,200,16,0,201,19,0,621,20,0,621,21,0,600,22,0,600,23,0,600,24,0,600,25,0,600,26,0,600,27,0,600,28,0,600,29,0,621,30,0,600,31,0,200,32,0,600,33,0,600,34,0,600,35,0,621,36,0,621,37,0,621,38,0,621,39,0,621,40,0,600,41,0,600,42,0,600,43,0,600,44,0,600,45,0,600,46,0,621,56,0,200,57,0,200,58,0,200,59,0,600,60,0,600,61,0,600*42
$PAIRDGP,0*45
$GNGGA,110425.200,2500.8020244,N,12132.4840793,E,1,63,0.44,14.731,M,15.25,M,14,3335*7F
$GNRMC,110425.200,A,2500.8020244,N,12132.4840793,E,0.02,17.93,260623,,,A,V*3F
$GPHDT,,T*1B
$GNACCURACY,3.4*11
$GNGGA,110425.300,2500.8020304,N,12132.4840733,E,1,63,0.44,14.738,M,15.25,M,14,3335*78
$GNRMC,110425.300,A,2500.8020304,N,12132.4840733,E,0.02,17.93,260623,,,A,V*31
$GPHDT,,T*1B
$GNACCURACY,3.5*10
$GNGGA,110425.400,2500.8020304,N,12132.4840673,E,1,63,0.44,14.749,M,15.25,M,14,3335*7C
$GNRMC,110425.400,A,2500.8020304,N,12132.4840673,E,0.02,17.93,260623,,,A,V*33
$GPHDT,,T*1B
$GNACCURACY,3.5*10
$GNGGA,110425.500,2500.8020364,N,12132.4840613,E,1,63,0.44,14.761,M,15.25,M,14,3335*77
$GNRMC,110425.500,A,2500.8020364,N,12132.4840613,E,0.01,17.93,260623,,,A,V*31
$GPHDT,,T*1B
$GNACCURACY,3.5*10
$GNGGA,110425.600,2500.8020364,N,12132.4840553,E,1,63,0.44,14.771,M,15.25,M,14,3335*72
$GNRMC,110425.600,A,2500.8020364,N,12132.4840553,E,0.02,17.93,260623,,,A,V*36
$GPHDT,,T*1B
$GNACCURACY,3.5*10
$GNGGA,110425.700,2500.8020424,N,12132.4840493,E,1,63,0.44,14.776,M,15.25,M,14,3335*7A
$GNRMC,110425.700,A,2500.8020424,N,12132.4840493,E,0.01,17.93,260623,,,A,V*3A
$GPHDT,,T*1B
$GNACCURACY,3.4*11
$GNGGA,110425.800,2500.8020424,N,12132.4840433,E,1,63,0.44,14.780,M,15.25,M,14,3335*76
$GNRMC,110425.800,A,2500.8020424,N,12132.4840433,E,0.02,17.93,260623,,,A,V*3C
$GPHDT,,T*1B
$GNACCURACY,3.4*11
$GNGGA,110425.900,2500.8020424,N,12132.4840313,E,1,63,0.44,14.787,M,15.25,M,14,3335*75
$GNRMC,110425.900,A,2500.8020424,N,12132.4840313,E,0.01,17.93,260623,,,A,V*3B
$GPHDT,,T*1B
$GNACCURACY,3.4*11
$GNGGA,110426.000,2500.8020484,N,12132.4840253,E,1,64,0.44,14.789,M,15.25,M,15,3335*78
$GNRMC,110426.000,A,2500.8020484,N,12132.4840253,E,0.01,17.93,260623,,,A,V*3E
$GPHDT,,T*1B
$GNACCURACY,3.4*11
$GNGGA,110426.100,2500.8020484,N,12132.4840133,E,1,64,0.44,14.798,M,15.25,M,15,3335*7C
$GNRMC,110426.100,A,2500.8020484,N,12132.4840133,E,0.01,17.93,260623,,,A,V*3A
$GPHDT,,T*1B
$GNGSA,A,3,24,196,18,199,15,23,195,194,05,10,,,0.82,0.44,0.69,1*04
$GNGSA,A,3,80,85,70,73,86,71,79,69,,,,,0.82,0.44,0.69,2*08
$GNGSA,A,3,13,08,07,15,26,02,03,,,,,,0.82,0.44,0.69,3*0A
$GNGSA,A,3,38,08,39,16,13,06,46,09,20,19,37,36,0.82,0.44,0.69,4*0B
$GNGSA,A,3,29,35,,,,,,,,,,,0.82,0.44,0.69,4*0C
$GPGSV,5,1,17,24,82,085,37,196,74,059,40,18,61,269,38,199,60,167,30,1*6A
$GPGSV,5,2,17,45,47,231,36,15,42,036,39,23,42,332,40,195,38,179,34,1*50
$GPGSV,5,3,17,194,27,141,17,05,25,110,39,12,14,149,17,13,14,050,17,1*5F
$GPGSV,5,4,17,10,11,314,32,29,05,204,14,32,04,261,,20,04,124,,1*69
$GPGSV,5,5,17,25,03,182,,1*5D
$GPGSV,2,1,08,24,82,085,48,196,74,059,46,18,61,269,43,199,60,167,46,8*69
$GPGSV,2,2,08,23,42,332,46,195,38,179,34,194,27,141,31,10,11,314,32,8*65
$GLGSV,3,1,09,80,46,095,43,85,42,260,25,70,39,355,24,73,27,164,25,1*77
$GLGSV,3,2,09,86,23,314,36,84,19,194,14,71,18,303,18,79,18,040,24,1*72
$GLGSV,3,3,09,69,16,063,30,1*4F
$GAGSV,3,1,09,13,62,246,35,08,50,015,38,07,42,292,27,15,31,174,19,7*7B
$GAGSV,3,2,09,26,27,314,26,02,23,094,24,30,19,149,23,03,14,058,31,7*7F
$GAGSV,3,3,09,25,05,050,,7*4D
$GAGSV,2,1,07,13,62,246,42,08,50,015,43,07,42,292,29,15,31,174,35,1*7E
$GAGSV,2,2,07,26,27,314,34,02,23,094,21,03,14,058,28,1*4E
$GBGSV,4,1,14,38,82,069,38,08,74,007,34,39,73,266,44,16,66,244,43,1*76
$GBGSV,4,2,14,13,64,340,38,06,64,240,41,46,54,128,44,09,48,230,29,1*79
$GBGSV,4,3,14,20,45,050,43,19,45,334,45,37,28,055,33,36,26,185,20,1*78
$GBGSV,4,4,14,29,26,219,24,35,23,279,25,1*7C
$GBGSV,3,1,09,38,82,069,41,39,73,266,44,46,54,128,44,20,45,050,41,4*74
$GBGSV,3,2,09,19,45,334,45,37,28,055,38,29,26,219,32,36,26,185,38,4*70
$GBGSV,3,3,09,35,23,279,24,4*47
$GNACCURACY,3.4*11
$PAIRSAT,1,35,1,0,200,2,0,200,3,0,200,4,0,200,5,0,201,6,0,200,7,0,200,8,0,200,9,0,200,10,0,221,11,0,200,12,0,200,13,0,201,14,0,200,15,0,201,16,0,200,17,0,200,18,0,221,19,0,200,20,0,200,21,0,200,23,0,221,24,0,221,25,0,200,26,0,200,27,0,200,28,0,200,29,0,200,30,0,200,31,0,200,32,0,200,194,0,621,195,0,621,196,0,620,199,0,621*6A
$PAIRSAT,2,23,65,0,200,67,0,200,68,0,200,69,0,201,70,0,201,71,0,201,72,0,200,73,0,201,74,0,200,75,0,200,76,0,200,77,0,200,78,0,200,79,0,201,80,0,201,81,0,200,82,0,200,83,0,200,84,0,201,85,0,201,86,0,201,87,0,200,88,0,200*52
$PAIRSAT,3,23,2,0,1221,3,0,1221,4,0,1200,5,0,200,7,0,1221,8,0,1221,9,0,1200,10,0,1200,11,0,1200,12,0,1200,13,0,1221,15,0,1221,19,0,1200,21,0,1200,24,0,1200,25,0,1200,26,0,1221,27,0,1200,30,0,1200,31,0,1200,33,0,1200,34,0,1200,36,0,1200*69
$PAIRSAT,4,50,1,0,200,2,0,200,3,0,200,4,0,200,5,0,200,6,0,201,7,0,200,8,0,201,9,0,201,10,0,200,11,0,200,12,0,200,13,0,201,14,0,200,15,0,200,16,0,201,19,0,621,20,0,621,21,0,600,22,0,600,23,0,600,24,0,600,25,0,600,26,0,600,27,0,600,28,0,600,29,0,621,30,0,600,31,0,200,32,0,600,33,0,600,34,0,600,35,0,621,36,0,621,37,0,621,38,0,621,39,0,621,40,0,600,41,0,600,42,0,600,43,0,600,44,0,600,45,0,600,46,0,621,56,0,200,57,0,200,58,0,200,59,0,600,60,0,600,61,0,600*42
$PAIRDGP,0*45
$GNGGA,110426.200,2500.8009243,N,12132.4832823,E,4,63,0.44,15.758,M,15.25,M,15,3335*7B
$GNRMC,110426.200,A,2500.8009243,N,12132.4832823,E,0.01,17.93,260623,,,R,V*21
$GPHDT,,T*1B
$GNACCURACY,3.4*11
$GNGGA,110426.300,2500.8009207,N,12132.4832832,E,4,63,0.44,15.765,M,15.25,M,15,3335*74
$GNRMC,110426.300,A,2500.8009207,N,12132.4832832,E,0.01,17.93,260623,,,R,V*20
$GPHDT,,T*1B
$GNACCURACY,3.4*11
$GNGGA,110426.400,2500.8009202,N,12132.4832819,E,4,63,0.44,15.766,M,15.25,M,15,3335*7C
$GNRMC,110426.400,A,2500.8009202,N,12132.4832819,E,0.01,17.93,260623,,,R,V*2B
$GPHDT,,T*1B
$GNACCURACY,3.4*11
$GNGGA,110426.500,2500.8009199,N,12132.4832814,E,4,63,0.44,15.773,M,15.25,M,15,3335*75
$GNRMC,110426.500,A,2500.8009199,N,12132.4832814,E,0.01,17.93,260623,,,R,V*26
$GPHDT,,T*1B
$GNACCURACY,3.4*11
$GNGGA,110426.600,2500.8009204,N,12132.4832820,E,4,64,0.42,15.776,M,15.25,M,15,3335*72
$GNRMC,110426.600,A,2500.8009204,N,12132.4832820,E,0.01,17.93,260623,,,R,V*25
$GPHDT,,T*1B
$GNACCURACY,3.4*11
$GNGGA,110426.700,2500.8009215,N,12132.4832814,E,4,64,0.42,15.785,M,15.25,M,15,3335*78
$GNRMC,110426.700,A,2500.8009215,N,12132.4832814,E,0.01,17.93,260623,,,R,V*23
$GPHDT,,T*1B
$GNACCURACY,3.5*10
$GNGGA,110426.800,2500.8009212,N,12132.4832846,E,4,64,0.42,15.787,M,15.25,M,15,3335*75
$GNRMC,110426.800,A,2500.8009212,N,12132.4832846,E,0.01,17.93,260623,,,R,V*2C
$GPHDT,,T*1B
$GNACCURACY,3.5*10
$GNGGA,110426.900,2500.8009191,N,12132.4832790,E,4,64,0.42,15.768,M,15.25,M,15,3335*79
$GNRMC,110426.900,A,2500.8009191,N,12132.4832790,E,0.01,17.93,260623,,,R,V*21
$GPHDT,,T*1B
$GNACCURACY,3.5*10
$GNGGA,110427.000,2500.8009215,N,12132.4832821,E,4,64,0.42,15.770,M,15.25,M,16,3335*71
$GNRMC,110427.000,A,2500.8009215,N,12132.4832821,E,0.01,17.93,260623,,,R,V*23
$GPHDT,,T*1B
$GNACCURACY,3.5*10
$GNGGA,110427.100,2500.8009196,N,12132.4832799,E,4,64,0.42,15.778,M,15.25,M,16,3335*7C
$GNRMC,110427.100,A,2500.8009196,N,12132.4832799,E,0.01,17.93,260623,,,R,V*26
$GPHDT,,T*1B
$GNGSA,A,3,24,196,18,199,15,23,195,194,05,10,,,0.79,0.42,0.67,1*08
$GNGSA,A,3,80,85,70,73,86,71,79,84,69,,,,0.79,0.42,0.67,2*08
$GNGSA,A,3,13,08,07,15,26,02,03,,,,,,0.79,0.42,0.67,3*06
$GNGSA,A,3,38,08,39,16,13,06,46,09,20,19,37,29,0.79,0.42,0.67,4*09
$GNGSA,A,3,36,35,,,,,,,,,,,0.79,0.42,0.67,4*0E
$GPGSV,5,1,17,24,82,085,37,196,74,059,40,18,61,269,38,199,60,167,30,1*6A
$GPGSV,5,2,17,45,47,231,36,15,42,036,39,23,42,332,40,195,38,179,34,1*50
$GPGSV,5,3,17,194,27,141,17,05,25,110,38,12,14,149,17,13,14,050,15,1*5C
$GPGSV,5,4,17,10,11,314,32,29,05,204,15,32,04,261,,20,04,124,,1*68
$GPGSV,5,5,17,25,03,182,,1*5D
$GPGSV,2,1,08,24,82,085,48,196,74,059,45,18,61,269,43,199,60,167,46,8*6A
$GPGSV,2,2,08,23,42,332,46,195,38,179,34,194,27,141,29,10,11,314,32,8*6C
$GLGSV,3,1,09,80,46,095,43,85,42,260,25,70,39,355,24,73,27,164,26,1*74
$GLGSV,3,2,09,86,23,314,36,71,18,303,16,79,18,040,24,84,18,194,17,1*7E
$GLGSV,3,3,09,69,16,063,31,1*4E
$GAGSV,3,1,09,13,62,246,35,08,50,015,38,07,42,292,26,15,31,174,15,7*76
$GAGSV,3,2,09,26,27,314,27,02,23,094,26,30,19,149,24,03,14,058,30,7*7A
$GAGSV,3,3,09,25,05,050,,7*4D
$GAGSV,2,1,07,13,62,246,42,08,50,015,43,07,42,292,29,15,31,174,34,1*7F
$GAGSV,2,2,07,26,27,314,33,02,23,094,21,03,14,058,27,1*46
$GBGSV,4,1,16,38,82,069,38,08,74,007,34,39,73,266,44,16,66,244,43,1*74
$GBGSV,4,2,16,13,64,340,38,06,64,240,41,46,54,128,43,56,48,307,,1*78
$GBGSV,4,3,16,09,48,230,28,20,45,050,43,19,45,334,45,37,28,055,33,1*7B
$GBGSV,4,4,16,29,26,219,28,36,26,185,18,35,23,279,21,22,07,294,,1*7A
$GBGSV,3,1,09,38,82,069,41,39,73,266,44,46,54,128,43,20,45,050,41,4*73
$GBGSV,3,2,09,19,45,334,45,37,28,055,38,29,26,219,31,36,26,185,39,4*72
$GBGSV,3,3,09,35,23,279,24,4*47
$GNACCURACY,3.5*10
$PAIRSAT,1,35,1,0,200,2,0,200,3,0,200,4,0,200,5,0,201,6,0,200,7,0,200,8,0,200,9,0,200,10,0,221,11,0,200,12,0,200,13,0,201,14,0,200,15,0,201,16,0,200,17,0,200,18,0,221,19,0,200,20,0,200,21,0,200,23,0,221,24,0,221,25,0,200,26,0,200,27,0,200,28,0,200,29,0,200,30,0,200,31,0,200,32,0,200,194,0,621,195,0,621,196,0,620,199,0,621*6A
$PAIRSAT,2,23,65,0,200,67,0,200,68,0,200,69,0,201,70,0,201,71,0,201,72,0,200,73,0,201,74,0,200,75,0,200,76,0,200,77,0,200,78,0,200,79,0,201,80,0,201,81,0,200,82,0,200,83,0,200,84,0,201,85,0,201,86,0,201,87,0,200,88,0,200*52
$PAIRSAT,3,23,2,0,1221,3,0,1221,4,0,1200,5,0,200,7,0,1221,8,0,1221,9,0,1200,10,0,1200,11,0,1200,12,0,1200,13,0,1221,15,0,1221,19,0,1200,21,0,1200,24,0,1200,25,0,1200,26,0,1221,27,0,1200,30,0,1200,31,0,1200,33,0,1200,34,0,1200,36,0,1200*69
$PAIRSAT,4,50,1,0,200,2,0,200,3,0,200,4,0,200,5,0,200,6,0,201,7,0,200,8,0,201,9,0,201,10,0,200,11,0,200,12,0,200,13,0,201,14,0,200,15,0,200,16,0,201,19,0,621,20,0,621,21,0,600,22,0,600,23,0,600,24,0,600,25,0,600,26,0,600,27,0,600,28,0,600,29,0,621,30,0,600,31,0,200,32,0,600,33,0,600,34,0,600,35,0,621,36,0,621,37,0,621,38,0,621,39,0,621,40,0,600,41,0,600,42,0,600,43,0,600,44,0,600,45,0,600,46,0,621,56,0,200,57,0,200,58,0,200,59,0,600,60,0,600,61,0,600*42
$PAIRDGP,0*45
$GNGGA,110427.200,2500.8009202,N,12132.4832819,E,4,64,0.42,15.785,M,15.25,M,16,3335*74
$GNRMC,110427.200,A,2500.8009202,N,12132.4832819,E,0.01,17.93,260623,,,R,V*2C
$GPHDT,,T*1B
$GNACCURACY,3.5*10
$GNGGA,110427.300,2500.8009197,N,12132.4832799,E,4,64,0.42,15.777,M,15.25,M,16,3335*70
$GNRMC,110427.300,A,2500.8009197,N,12132.4832799,E,0.01,17.93,260623,,,R,V*25
$GPHDT,,T*1B
$GNACCURACY,3.5*10
$GNGGA,110427.400,2500.8009205,N,12132.4832796,E,4,64,0.42,15.782,M,15.25,M,16,3335*7A
$GNRMC,110427.400,A,2500.8009205,N,12132.4832796,E,0.01,17.93,260623,,,R,V*25
$GPHDT,,T*1B
$GNACCURACY,3.5*10
$GNGGA,110427.500,2500.8009197,N,12132.4832814,E,4,64,0.42,15.786,M,15.25,M,16,3335*72
$GNRMC,110427.500,A,2500.8009197,N,12132.4832814,E,0.01,17.93,260623,,,R,V*29
$GPHDT,,T*1B
$GNACCURACY,3.5*10
$GNGGA,110427.600,2500.8009211,N,12132.4832816,E,4,64,0.42,15.773,M,15.25,M,16,3335*74
$GNRMC,110427.600,A,2500.8009211,N,12132.4832816,E,0.01,17.93,260623,,,R,V*25
$GPHDT,,T*1B
$GNACCURACY,3.5*10
$GNGGA,110427.700,2500.8009194,N,12132.4832801,E,4,64,0.42,15.774,M,15.25,M,16,3335*7A
$GNRMC,110427.700,A,2500.8009194,N,12132.4832801,E,0.01,17.93,260623,,,R,V*2C
$GPHDT,,T*1B
$GNACCURACY,3.5*10
$GNGGA,110427.800,2500.8009208,N,12132.4832809,E,4,64,0.42,15.773,M,15.25,M,16,3335*7C
$GNRMC,110427.800,A,2500.8009208,N,12132.4832809,E,0.01,17.93,260623,,,R,V*2D
$GPHDT,,T*1B
$GNACCURACY,3.5*10
$GNGGA,110427.900,2500.8009198,N,12132.4832825,E,4,64,0.42,15.803,M,15.25,M,16,3335*71
$GNRMC,110427.900,A,2500.8009198,N,12132.4832825,E,0.01,17.93,260623,,,R,V*28
$GPHDT,,T*1B
$GNACCURACY,3.5*10
$GNGGA,110428.000,2500.8009231,N,12132.4832843,E,4,62,0.42,15.782,M,15.25,M,17,3335*76
$GNRMC,110428.000,A,2500.8009231,N,12132.4832843,E,0.01,17.93,260623,,,R,V*2E
$GPHDT,,T*1B
$GNACCURACY,3.5*10
$GNGGA,110428.100,2500.8009224,N,12132.4832819,E,4,62,0.42,15.794,M,15.25,M,17,3335*7B
$GNRMC,110428.100,A,2500.8009224,N,12132.4832819,E,0.01,17.93,260623,,,R,V*24
$GPHDT,,T*1B
$GNGSA,A,3,24,196,18,199,15,23,195,05,10,194,,,0.79,0.42,0.67,1*08
$GNGSA,A,3,80,85,70,73,86,71,79,84,69,,,,0.79,0.42,0.67,2*08
$GNGSA,A,3,13,08,07,15,26,02,03,,,,,,0.79,0.42,0.67,3*06
$GNGSA,A,3,38,08,39,16,13,06,46,09,20,19,37,29,0.79,0.42,0.67,4*09
$GNGSA,A,3,36,35,,,,,,,,,,,0.79,0.42,0.67,4*0E
$GPGSV,5,1,17,24,82,085,37,196,74,059,40,18,61,269,39,199,60,167,31,1*6A
$GPGSV,5,2,17,45,47,231,36,15,42,036,39,23,42,332,41,195,38,179,34,1*51
$GPGSV,5,3,17,194,27,141,17,05,25,110,38,12,14,149,17,13,14,050,14,1*5D
$GPGSV,5,4,17,10,11,314,31,29,05,204,15,32,04,261,,20,04,124,,1*6B
$GPGSV,5,5,17,25,03,182,,1*5D
$GPGSV,2,1,08,24,82,085,48,196,74,059,45,18,61,269,43,199,60,167,47,8*6B
$GPGSV,2,2,08,23,42,332,46,195,38,179,34,194,27,141,29,10,11,314,30,8*6E
$GLGSV,3,1,09,80,46,095,43,85,42,260,25,70,39,355,25,73,27,164,26,1*75
$GLGSV,3,2,09,86,23,314,36,71,18,303,15,79,18,040,24,84,18,194,17,1*7D
$GLGSV,3,3,09,69,16,063,33,1*4C
$GAGSV,3,1,09,13,62,246,35,08,50,015,38,07,42,292,25,15,31,174,13,7*73
$GAGSV,3,2,09,26,27,314,26,02,23,094,26,30,19,149,24,03,14,058,29,7*73
$GAGSV,3,3,09,25,05,050,,7*4D
$GAGSV,2,1,07,13,62,246,42,08,50,015,43,07,42,292,30,15,31,174,34,1*77
$GAGSV,2,2,07,26,27,314,33,02,23,094,21,03,14,058,26,1*47
$GBGSV,4,1,15,38,82,069,38,08,74,007,34,39,73,266,44,16,66,244,43,1*77
$GBGSV,4,2,15,13,64,339,38,06,64,241,41,46,54,128,43,09,48,230,26,1*7F
$GBGSV,4,3,15,20,45,050,43,19,45,334,45,37,28,055,34,29,26,219,29,1*7F
$GBGSV,4,4,15,36,26,185,21,35,23,279,19,22,07,294,,1*47
$GBGSV,3,1,09,38,82,069,41,39,73,266,44,46,54,128,43,20,45,050,41,4*73
$GBGSV,3,2,09,19,45,334,45,37,28,055,38,29,26,219,31,36,26,185,40,4*7C
$GBGSV,3,3,09,35,23,279,24,4*47
$GNACCURACY,3.5*10
$PAIRSAT,1,35,1,0,200,2,0,200,3,0,200,4,0,200,5,0,201,6,0,200,7,0,200,8,0,200,9,0,200,10,0,221,11,0,200,12,0,200,13,0,201,14,0,200,15,0,201,16,0,200,17,0,200,18,0,221,19,0,200,20,0,200,21,0,200,23,0,221,24,0,221,25,0,200,26,0,200,27,0,200,28,0,200,29,0,200,30,0,200,31,0,200,32,0,200,194,0,621,195,0,621,196,0,620,199,0,621*6A
$PAIRSAT,2,23,65,0,200,67,0,200,68,0,200,69,0,201,70,0,201,71,0,201,72,0,200,73,0,201,74,0,200,75,0,200,76,0,200,77,0,200,78,0,200,79,0,201,80,0,201,81,0,200,82,0,200,83,0,200,84,0,201,85,0,201,86,0,201,87,0,200,88,0,200*52
$PAIRSAT,3,23,2,0,1221,3,0,1221,4,0,1200,5,0,200,7,0,1221,8,0,1221,9,0,1200,10,0,1200,11,0,1200,12,0,1200,13,0,1221,15,0,1221,19,0,1200,21,0,1200,24,0,1200,25,0,1200,26,0,1221,27,0,1200,30,0,1200,31,0,1200,33,0,1200,34,0,1200,36,0,1200*69
$PAIRSAT,4,50,1,0,200,2,0,200,3,0,200,4,0,200,5,0,200,6,0,201,7,0,200,8,0,201,9,0,201,10,0,200,11,0,200,12,0,200,13,0,201,14,0,200,15,0,200,16,0,201,19,0,621,20,0,621,21,0,600,22,0,600,23,0,600,24,0,600,25,0,600,26,0,600,27,0,600,28,0,600,29,0,621,30,0,600,31,0,200,32,0,600,33,0,600,34,0,600,35,0,621,36,0,621,37,0,621,38,0,621,39,0,621,40,0,600,41,0,600,42,0,600,43,0,600,44,0,600,45,0,600,46,0,621,56,0,200,57,0,200,58,0,200,59,0,600,60,0,600,61,0,600*42
$PAIRDGP,0*45
$GNGGA,110428.200,2500.8009215,N,12132.4832804,E,4,62,0.42,15.781,M,15.25,M,17,3335*72
$GNRMC,110428.200,A,2500.8009215,N,12132.4832804,E,0.01,17.93,260623,,,R,V*29
$GPHDT,,T*1B
$GNACCURACY,3.5*10
$GNGGA,110428.300,2500.8009221,N,12132.4832841,E,4,62,0.42,15.795,M,15.25,M,17,3335*70
$GNRMC,110428.300,A,2500.8009221,N,12132.4832841,E,0.01,17.93,260623,,,R,V*2E
$GPHDT,,T*1B
$GNACCURACY,3.5*10
$GNGGA,110428.400,2500.8009218,N,12132.4832815,E,4,62,0.42,15.761,M,15.25,M,17,3335*77
$GNRMC,110428.400,A,2500.8009218,N,12132.4832815,E,0.01,17.93,260623,,,R,V*22
$GPHDT,,T*1B
$GNACCURACY,3.5*10
$GNGGA,110428.500,2500.8009222,N,12132.4832794,E,4,62,0.42,15.770,M,15.25,M,17,3335*79
$GNRMC,110428.500,A,2500.8009222,N,12132.4832794,E,0.01,17.93,260623,,,R,V*2C
$GPHDT,,T*1B
$GNACCURACY,3.5*10
$GNGGA,110428.600,2500.8009219,N,12132.4832804,E,4,63,0.42,15.772,M,15.25,M,17,3335*77
$GNRMC,110428.600,A,2500.8009219,N,12132.4832804,E,0.01,17.93,260623,,,R,V*21
$GPHDT,,T*1B
$GNACCURACY,3.5*10
$GNGGA,110428.700,2500.8009195,N,12132.4832801,E,4,64,0.42,15.771,M,15.25,M,17,3335*70
$GNRMC,110428.700,A,2500.8009195,N,12132.4832801,E,0.01,17.93,260623,,,R,V*22
$GPHDT,,T*1B
$GNACCURACY,3.5*10
$GNGGA,110428.800,2500.8009232,N,12132.4832831,E,4,64,0.42,15.778,M,15.25,M,17,3335*7B
$GNRMC,110428.800,A,2500.8009232,N,12132.4832831,E,0.01,17.93,260623,,,R,V*20
$GPHDT,,T*1B
$GNACCURACY,3.5*10
$GNGGA,110428.900,2500.8009264,N,12132.4832861,E,4,63,0.44,15.795,M,15.25,M,17,3335*7E
$GNRMC,110428.900,A,2500.8009264,N,12132.4832861,E,0.01,17.93,260623,,,R,V*27
$GPHDT,,T*1B
$GNACCURACY,3.5*10
$GNGGA,110429.000,2500.8009214,N,12132.4832767,E,4,63,0.44,15.755,M,15.25,M,18,3335*7B
$GNRMC,110429.000,A,2500.8009214,N,12132.4832767,E,0.01,17.93,260623,,,R,V*21
$GPHDT,,T*1B
$GNACCURACY,3.5*10
$GNGGA,110429.100,2500.8009236,N,12132.4832808,E,4,63,0.44,15.783,M,15.25,M,18,3335*77
$GNRMC,110429.100,A,2500.8009236,N,12132.4832808,E,0.01,17.93,260623,,,R,V*26
$GPHDT,,T*1B
$GNGSA,A,3,24,196,18,199,15,23,195,194,05,10,,,0.82,0.44,0.69,1*04
$GNGSA,A,3,80,85,70,73,86,79,84,69,,,,,0.82,0.44,0.69,2*02
$GNGSA,A,3,13,08,07,15,26,02,03,,,,,,0.82,0.44,0.69,3*0A
$GNGSA,A,3,38,08,39,16,13,06,46,09,20,19,37,36,0.82,0.44,0.69,4*0B
$GNGSA,A,3,29,35,,,,,,,,,,,0.82,0.44,0.69,4*0C
$GPGSV,5,1,17,24,82,085,37,196,74,059,41,18,61,269,39,199,60,167,32,1*68
$GPGSV,5,2,17,45,47,231,35,15,42,036,38,23,42,332,41,195,38,179,35,1*52
$GPGSV,5,3,17,194,27,141,17,05,25,110,39,12,14,149,17,13,14,050,15,1*5D
$GPGSV,5,4,17,10,11,314,31,29,05,204,16,32,04,261,,20,04,124,,1*68
$GPGSV,5,5,17,25,03,182,,1*5D
$GPGSV,2,1,08,24,82,085,48,196,74,059,45,18,61,269,43,199,60,167,47,8*6B
$GPGSV,2,2,08,23,42,332,46,195,38,179,33,194,27,141,30,10,11,314,31,8*60
$GLGSV,3,1,09,80,46,095,43,85,42,260,26,70,39,355,25,73,27,164,26,1*76
$GLGSV,3,2,09,86,23,314,36,71,18,303,16,79,18,040,24,84,18,194,16,1*7F
$GLGSV,3,3,09,69,16,063,33,1*4C
$GAGSV,3,1,09,13,62,246,36,08,50,015,38,07,42,292,23,15,31,174,15,7*70
$GAGSV,3,2,09,26,27,314,25,02,23,094,28,30,19,149,25,03,14,058,31,7*76
$GAGSV,3,3,09,25,05,050,,7*4D
$GAGSV,2,1,07,13,62,246,42,08,50,015,43,07,42,292,30,15,31,174,35,1*76
$GAGSV,2,2,07,26,27,314,33,02,23,094,21,03,14,058,26,1*47
$GBGSV,4,1,14,38,82,069,38,08,74,007,33,39,73,266,44,16,66,244,44,1*76
$GBGSV,4,2,14,13,64,339,39,06,64,241,42,46,54,128,43,09,48,230,29,1*73
$GBGSV,4,3,14,20,45,050,43,19,45,334,45,37,28,055,35,36,26,185,21,1*7F
$GBGSV,4,4,14,29,26,219,30,35,23,279,19,1*76
$GBGSV,3,1,09,38,82,069,42,39,73,266,44,46,54,128,44,20,45,050,41,4*77
$GBGSV,3,2,09,19,45,334,45,37,28,055,38,29,26,219,31,36,26,185,39,4*72
$GBGSV,3,3,09,35,23,279,24,4*47
$GNACCURACY,3.5*10
$PAIRSAT,1,35,1,0,200,2,0,200,3,0,200,4,0,200,5,0,201,6,0,200,7,0,200,8,0,200,9,0,200,10,0,221,11,0,200,12,0,200,13,0,201,14,0,200,15,0,201,16,0,200,17,0,200,18,0,221,19,0,200,20,0,200,21,0,200,23,0,221,24,0,221,25,0,200,26,0,200,27,0,200,28,0,200,29,0,200,30,0,200,31,0,200,32,0,200,194,0,621,195,0,621,196,0,620,199,0,621*6A
$PAIRSAT,2,23,65,0,200,67,0,200,68,0,200,69,0,201,70,0,201,71,0,201,72,0,200,73,0,201,74,0,200,75,0,200,76,0,200,77,0,200,78,0,200,79,0,201,80,0,201,81,0,200,82,0,200,83,0,200,84,0,201,85,0,201,86,0,201,87,0,200,88,0,200*52
$PAIRSAT,3,23,2,0,1221,3,0,1221,4,0,1200,5,0,200,7,0,1221,8,0,1221,9,0,1200,10,0,1200,11,0,1200,12,0,1200,13,0,1221,15,0,1221,19,0,1200,21,0,1200,24,0,1200,25,0,1200,26,0,1221,27,0,1200,30,0,1200,31,0,1200,33,0,1200,34,0,1200,36,0,1200*69
$PAIRSAT,4,50,1,0,200,2,0,200,3,0,200,4,0,200,5,0,200,6,0,201,7,0,200,8,0,201,9,0,201,10,0,200,11,0,200,12,0,200,13,0,201,14,0,200,15,0,200,16,0,201,19,0,621,20,0,621,21,0,600,22,0,600,23,0,600,24,0,600,25,0,600,26,0,600,27,0,600,28,0,600,29,0,621,30,0,600,31,0,200,32,0,600,33,0,600,34,0,600,35,0,621,36,0,621,37,0,621,38,0,621,39,0,621,40,0,600,41,0,600,42,0,600,43,0,600,44,0,600,45,0,600,46,0,621,56,0,200,57,0,200,58,0,200,59,0,600,60,0,600,61,0,600*42
$PAIRDGP,0*45
$GNGGA,110429.200,2500.8009257,N,12132.4832841,E,4,63,0.44,15.787,M,15.25,M,18,3335*7A
$GNRMC,110429.200,A,2500.8009257,N,12132.4832841,E,0.01,17.93,260623,,,R,V*2F
$GPHDT,,T*1B
$GNACCURACY,3.5*10
$GNGGA,110429.300,2500.8009249,N,12132.4832828,E,4,63,0.44,15.791,M,15.25,M,18,3335*7C
$GNRMC,110429.300,A,2500.8009249,N,12132.4832828,E,0.01,17.93,260623,,,R,V*2E
$GPHDT,,T*1B
$GNACCURACY,3.5*10
$GNGGA,110429.400,2500.8009256,N,12132.4832856,E,4,63,0.44,15.793,M,15.25,M,18,3335*7E
$GNRMC,110429.400,A,2500.8009256,N,12132.4832856,E,0.01,17.93,260623,,,R,V*2E
$GPHDT,,T*1B
$GNACCURACY,3.5*10
$GNGGA,110429.500,2500.8009257,N,12132.4832842,E,4,63,0.44,15.798,M,15.25,M,18,3335*70
$GNRMC,110429.500,A,2500.8009257,N,12132.4832842,E,0.02,17.93,260623,,,R,V*28
$GPHDT,,T*1B
$GNACCURACY,3.5*10
$GNGGA,110429.600,2500.8009262,N,12132.4832834,E,4,63,0.44,15.775,M,15.25,M,18,3335*77
$GNRMC,110429.600,A,2500.8009262,N,12132.4832834,E,0.02,17.93,260623,,,R,V*2C
$GPHDT,,T*1B
$GNACCURACY,3.5*10
$GNGGA,110429.700,2500.8009273,N,12132.4832821,E,4,63,0.44,15.786,M,15.25,M,18,3335*7E
$GNRMC,110429.700,A,2500.8009273,N,12132.4832821,E,0.02,17.93,260623,,,R,V*29
$GPHDT,,T*1B
$GNACCURACY,3.5*10
$GNGGA,110429.800,2500.8009234,N,12132.4832781,E,4,63,0.44,15.761,M,15.25,M,18,3335*7E
$GNRMC,110429.800,A,2500.8009234,N,12132.4832781,E,0.02,17.93,260623,,,R,V*20
$GPHDT,,T*1B
$GNACCURACY,3.5*10
$GNGGA,110429.900,2500.8009228,N,12132.4832799,E,4,64,0.43,15.796,M,15.25,M,18,3335*73
$GNRMC,110429.900,A,2500.8009228,N,12132.4832799,E,0.02,17.93,260623,,,R,V*25
$GPHDT,,T*1B
