$FW : RTK35X,V1.1X0314AS,Lib20210517,1*54
$Tool : LOCOSYS , GNSS Firebird , v1.0.0.19*39
$---------------------------------------------------*2D
,08,26,28,314,36,02,23,094,18,30,20,149,12,03,14,058,24,1*74
$GBGSV,5,1,17,38,82,070,40,08,74,007,34,39,73,268,41,16,66,244,40,1*7B
$GBGSV,5,2,17,13,65,339,37,06,64,241,41,46,55,127,46,09,48,230,41,1*78
$GBGSV,5,3,17,56,48,307,,19,45,334,42,20,45,051,36,31,34,205,,1*76
$GBGSV,5,4,17,37,28,054,32,36,26,185,37,29,25,218,36,35,23,278,23,1*7F
$GBGSV,5,5,17,22,07,294,25,1*4F
$GBGSV,3,1,09,38,82,070,41,39,73,268,45,46,55,127,44,20,45,051,34,4*7E
$GBGSV,3,2,09,19,45,334,44,37,28,054,31,36,26,185,36,29,25,218,33,4*74
$GBGSV,3,3,09,35,23,278,23,4*41
$GNACCURACY,3.6*13
$PAIRSAT,1,35,1,0,200,2,0,200,3,0,200,4,0,200,5,0,201,6,0,200,7,0,200,8,0,200,9,0,200,10,0,221,11,0,200,12,0,200,13,0,201,14,0,200,15,0,201,16,0,200,17,0,200,18,0,221,19,0,200,20,0,200,21,0,200,23,0,221,24,0,221,25,0,200,26,0,200,27,0,200,28,0,200,29,0,200,30,0,200,31,0,200,32,0,200,194,0,621,195,0,621,196,0,620,199,0,621*6A
$PAIRSAT,2,23,65,0,200,67,0,200,68,0,200,69,0,201,70,0,201,71,0,201,72,0,200,73,0,201,74,0,200,75,0,200,76,0,200,77,0,200,78,0,200,79,0,201,80,0,201,81,0,200,82,0,200,83,0,200,84,0,201,85,0,201,86,0,201,87,0,200,88,0,200*52
$PAIRSAT,3,23,2,0,1221,3,0,1221,4,0,1200,5,0,200,7,0,1221,8,0,1221,9,0,1200,10,0,1200,11,0,1200,12,0,1200,13,0,1221,15,0,1221,19,0,1200,21,0,1200,24,0,1200,25,0,1200,26,0,1221,27,0,1200,30,0,1200,31,0,1200,33,0,1200,34,0,1200,36,0,1200*69
$PAIRSAT,4,50,1,0,200,2,0,200,3,0,200,4,0,200,5,0,200,6,0,201,7,0,200,8,0,201,9,0,201,10,0,200,11,0,200,12,0,200,13,0,201,14,0,200,15,0,200,16,0,201,19,0,621,20,0,621,21,0,600,22,0,600,23,0,600,24,0,600,25,0,600,26,0,600,27,0,600,28,0,600,29,0,621,30,0,600,31,0,200,32,0,600,33,0,600,34,0,600,35,0,621,36,0,621,37,0,621,38,0,621,39,0,621,40,0,600,41,0,600,42,0,600,43,0,600,44,0,600,45,0,600,46,0,621,56,0,200,57,0,200,58,0,200,59,0,600,60,0,600,61,0,600*42
$PAIRDGP,5,10,15,18,23,24*67
$GNGGA,110539.200,2500.7994835,N,12132.4836518,E,2,64,0.42,14.105,M,15.25,M,4,3335*44
$GNRMC,110539.200,A,2500.7994835,N,12132.4836518,E,0.02,17.93,260623,,,D,V*33
$GPHDT,,T*1B
$GNACCURACY,3.6*13
$GNGGA,110539.300,2500.7994775,N,12132.4836578,E,2,64,0.42,14.085,M,15.25,M,4,3335*41
$GNRMC,110539.300,A,2500.7994775,N,12132.4836578,E,0.02,17.93,260623,,,D,V*3F
$GPHDT,,T*1B
$GNACCURACY,3.6*13
$GNGGA,110539.400,2500.7994655,N,12132.4836638,E,2,64,0.42,14.065,M,15.25,M,4,3335*4C
$GNRMC,110539.400,A,2500.7994655,N,12132.4836638,E,0.02,17.93,260623,,,D,V*3C
$GPHDT,,T*1B
$GNACCURACY,3.6*13
$GNGGA,110539.500,2500.7994595,N,12132.4836638,E,2,64,0.42,14.045,M,15.25,M,4,3335*40
$GNRMC,110539.500,A,2500.7994595,N,12132.4836638,E,0.02,17.93,260623,,,D,V*32
$GPHDT,,T*1B
$GNACCURACY,3.6*13
$GNGGA,110539.600,2500.7994535,N,12132.4836698,E,2,64,0.42,14.022,M,15.25,M,4,3335*42
$GNRMC,110539.600,A,2500.7994535,N,12132.4836698,E,0.02,17.93,260623,,,D,V*31
$GPHDT,,T*1B
$GNACCURACY,3.6*13
$GNGGA,110539.700,2500.7994475,N,12132.4836758,E,2,64,0.42,14.002,M,15.25,M,4,3335*49
$GNRMC,110539.700,A,2500.7994475,N,12132.4836758,E,0.02,17.93,260623,,,D,V*38
$GPHDT,,T*1B
$GNACCURACY,3.6*13
$GNGGA,110539.800,2500.7994355,N,12132.4836878,E,2,64,0.42,13.983,M,15.25,M,4,3335*49
$GNRMC,110539.800,A,2500.7994355,N,12132.4836878,E,0.02,17.93,260623,,,D,V*3F
$GPHDT,,T*1B
$GNACCURACY,3.6*13
$GNGGA,110539.900,2500.7994295,N,12132.4836878,E,2,64,0.42,13.964,M,15.25,M,4,3335*4C
$GNRMC,110539.900,A,2500.7994295,N,12132.4836878,E,0.02,17.93,260623,,,D,V*33
$GPHDT,,T*1B
$GNACCURACY,3.6*13
$GNGGA,110540.000,2500.7994235,N,12132.4836938,E,2,64,0.42,13.943,M,15.25,M,5,3335*40
$GNRMC,110540.000,A,2500.7994235,N,12132.4836938,E,0.02,17.93,260623,,,D,V*3B
$GPHDT,,T*1B
$GNACCURACY,3.6*13
$GNGGA,110540.100,2500.7994175,N,12132.4836998,E,2,64,0.42,13.922,M,15.25,M,5,3335*4B
$GNRMC,110540.100,A,2500.7994175,N,12132.4836998,E,0.02,17.93,260623,,,D,V*37
$GPHDT,,T*1B
$GNGSA,A,3,24,196,18,199,15,23,195,194,05,10,,,0.79,0.42,0.67,1*08
$GNGSA,A,3,80,85,70,73,86,71,79,84,69,,,,0.79,0.42,0.67,2*08
$GNGSA,A,3,13,08,07,15,26,02,03,,,,,,0.79,0.42,0.67,3*06
$GNGSA,A,3,38,08,39,16,13,06,46,09,20,19,37,36,0.79,0.42,0.67,4*07
$GNGSA,A,3,29,35,,,,,,,,,,,0.79,0.42,0.67,4*00
$GPGSV,5,1,17,24,82,081,40,196,74,059,41,18,61,267,30,199,60,167,36,1*6F
$GPGSV,5,2,17,45,47,231,43,15,42,037,33,23,42,332,44,195,38,179,32,1*5B
$GPGSV,5,3,17,194,27,141,26,05,25,110,37,12,14,148,17,13,14,050,18,1*5D
$GPGSV,5,4,17,10,11,314,35,32,05,261,,29,05,203,15,20,03,125,,1*6F
$GPGSV,5,5,17,25,03,182,,1*5D
$GPGSV,2,1,08,24,82,081,45,196,74,059,44,18,61,267,44,199,60,167,48,8*65
$GPGSV,2,2,08,23,42,332,43,195,38,179,31,194,27,141,30,10,11,314,32,8*64
$GLGSV,3,1,09,80,46,095,46,85,42,259,29,70,39,356,18,73,27,164,35,1*79
$GLGSV,3,2,09,86,23,313,35,71,18,304,29,79,18,040,22,84,18,194,22,1*71
$GLGSV,3,3,09,69,16,063,18,1*45
$GAGSV,3,1,09,13,62,246,35,08,50,016,30,07,42,293,29,15,31,174,30,7*74
$GAGSV,3,2,09,26,28,314,20,02,23,094,14,30,20,149,19,03,14,058,18,7*7D
$GAGSV,3,3,09,25,05,049,,7*45
$GAGSV,2,1,07,13,62,246,38,08,50,016,27,07,42,293,30,15,31,174,27,1*78
$GAGSV,2,2,07,26,28,314,36,02,23,094,26,03,14,058,22,1*4E
$GBGSV,4,1,16,38,82,070,40,08,74,007,34,39,73,268,42,16,66,244,40,1*78
$GBGSV,4,2,16,13,65,339,34,06,64,241,41,46,55,127,46,09,48,230,41,1*7B
$GBGSV,4,3,16,20,45,051,37,19,45,334,42,31,34,205,,37,28,054,33,1*73
$GBGSV,4,4,16,36,26,185,37,29,25,218,36,35,23,278,25,22,07,294,25,1*78
$GBGSV,3,1,09,38,82,070,41,39,73,268,44,46,55,127,43,20,45,051,36,4*7A
$GBGSV,3,2,09,19,45,334,44,37,28,054,27,36,26,185,36,29,25,218,33,4*73
$GBGSV,3,3,09,35,23,278,22,4*40
$GNACCURACY,3.6*13
$PAIRSAT,1,35,1,0,200,2,0,200,3,0,200,4,0,200,5,0,201,6,0,200,7,0,200,8,0,200,9,0,200,10,0,221,11,0,200,12,0,200,13,0,201,14,0,200,15,0,201,16,0,200,17,0,200,18,0,221,19,0,200,20,0,200,21,0,200,23,0,221,24,0,221,25,0,200,26,0,200,27,0,200,28,0,200,29,0,200,30,0,200,31,0,200,32,0,200,194,0,621,195,0,621,196,0,620,199,0,621*6A
$PAIRSAT,2,23,65,0,200,67,0,200,68,0,200,69,0,201,70,0,201,71,0,201,72,0,200,73,0,201,74,0,200,75,0,200,76,0,200,77,0,200,78,0,200,79,0,201,80,0,201,81,0,200,82,0,200,83,0,200,84,0,201,85,0,201,86,0,201,87,0,200,88,0,200*52
$PAIRSAT,3,23,2,0,1221,3,0,1221,4,0,1200,5,0,200,7,0,1221,8,0,1221,9,0,1200,10,0,1200,11,0,1200,12,0,1200,13,0,1221,15,0,1221,19,0,1200,21,0,1200,24,0,1200,25,0,1200,26,0,1221,27,0,1200,30,0,1200,31,0,1200,33,0,1200,34,0,1200,36,0,1200*69
$PAIRSAT,4,50,1,0,200,2,0,200,3,0,200,4,0,200,5,0,200,6,0,201,7,0,200,8,0,201,9,0,201,10,0,200,11,0,200,12,0,200,13,0,201,14,0,200,15,0,200,16,0,201,19,0,621,20,0,621,21,0,600,22,0,600,23,0,600,24,0,600,25,0,600,26,0,600,27,0,600,28,0,600,29,0,621,30,0,600,31,0,200,32,0,600,33,0,600,34,0,600,35,0,621,36,0,621,37,0,621,38,0,621,39,0,621,40,0,600,41,0,600,42,0,600,43,0,600,44,0,600,45,0,600,46,0,621,56,0,200,57,0,200,58,0,200,59,0,600,60,0,600,61,0,600*42
$PAIRDGP,5,10,15,18,23,24*67
$GNGGA,110540.200,2500.7994115,N,12132.4837058,E,2,64,0.42,13.899,M,15.25,M,5,3335*4B
$GNRMC,110540.200,A,2500.7994115,N,12132.4837058,E,0.02,17.93,260623,,,D,V*36
$GPHDT,,T*1B
$GNACCURACY,3.6*13
$GNGGA,110540.300,2500.7994115,N,12132.4837118,E,2,64,0.42,13.878,M,15.25,M,5,3335*40
$GNRMC,110540.300,A,2500.7994115,N,12132.4837118,E,0.01,17.93,260623,,,D,V*31
$GPHDT,,T*1B
$GNACCURACY,3.6*13
$GNGGA,110540.400,2500.7994055,N,12132.4837178,E,2,64,0.42,13.858,M,15.25,M,5,3335*46
$GNRMC,110540.400,A,2500.7994055,N,12132.4837178,E,0.01,17.93,260623,,,D,V*35
$GPHDT,,T*1B
$GNACCURACY,3.6*13
$GNGGA,110540.500,2500.7994055,N,12132.4837178,E,2,64,0.42,13.830,M,15.25,M,5,3335*49
$GNRMC,110540.500,A,2500.7994055,N,12132.4837178,E,0.01,17.93,260623,,,D,V*34
$GPHDT,,T*1B
$GNACCURACY,3.6*13
$GNGGA,110540.600,2500.7994115,N,12132.4837178,E,2,64,0.42,13.806,M,15.25,M,5,3335*4A
$GNRMC,110540.600,A,2500.7994115,N,12132.4837178,E,0.01,17.93,260623,,,D,V*32
$GPHDT,,T*1B
$GNACCURACY,3.6*13
$GNGGA,110540.700,2500.7994115,N,12132.4837178,E,2,64,0.42,13.781,M,15.25,M,5,3335*4B
$GNRMC,110540.700,A,2500.7994115,N,12132.4837178,E,0.01,17.93,260623,,,D,V*33
$GPHDT,,T*1B
$GNACCURACY,3.6*13
$GNGGA,110540.800,2500.7994175,N,12132.4837238,E,2,64,0.42,13.755,M,15.25,M,5,3335*4C
$GNRMC,110540.800,A,2500.7994175,N,12132.4837238,E,0.01,17.93,260623,,,D,V*3D
$GPHDT,,T*1B
$GNACCURACY,3.6*13
$GNGGA,110540.900,2500.7994235,N,12132.4837298,E,2,64,0.42,13.729,M,15.25,M,5,3335*4B
$GNRMC,110540.900,A,2500.7994235,N,12132.4837298,E,0.02,17.93,260623,,,D,V*32
$GPHDT,,T*1B
$GNACCURACY,3.6*13
$GNGGA,110541.000,2500.7994295,N,12132.4837298,E,2,64,0.42,13.707,M,15.25,M,6,3335*46
$GNRMC,110541.000,A,2500.7994295,N,12132.4837298,E,0.02,17.93,260623,,,D,V*30
$GPHDT,,T*1B
$GNACCURACY,3.6*13
$GNGGA,110541.100,2500.7994355,N,12132.4837358,E,2,64,0.42,13.683,M,15.25,M,6,3335*4A
$GNRMC,110541.100,A,2500.7994355,N,12132.4837358,E,0.02,17.93,260623,,,D,V*31
$GPHDT,,T*1B
$GNGSA,A,3,24,196,18,199,15,23,195,194,05,10,,,0.79,0.42,0.67,1*08
$GNGSA,A,3,80,85,70,73,86,71,79,84,69,,,,0.79,0.42,0.67,2*08
$GNGSA,A,3,13,08,07,15,26,02,03,,,,,,0.79,0.42,0.67,3*06
$GNGSA,A,3,38,08,39,16,13,06,46,09,19,20,37,36,0.79,0.42,0.67,4*07
$GNGSA,A,3,29,35,,,,,,,,,,,0.79,0.42,0.67,4*00
$GPGSV,5,1,17,24,82,080,40,196,74,059,41,18,61,267,27,199,60,167,36,1*68
$GPGSV,5,2,17,45,47,231,43,15,42,037,34,23,42,332,42,195,38,179,32,1*5A
$GPGSV,5,3,17,194,27,141,30,05,25,110,36,12,14,148,17,13,14,050,16,1*55
$GPGSV,5,4,17,10,11,314,37,32,05,261,,29,05,203,13,20,03,125,,1*6B
$GPGSV,5,5,17,25,03,181,,1*5E
$GPGSV,2,1,08,24,82,080,47,196,74,059,44,18,61,267,44,199,60,167,48,8*66
$GPGSV,2,2,08,23,42,332,39,195,38,179,32,194,27,141,29,10,11,314,32,8*62
$GLGSV,3,1,09,80,46,095,46,85,42,259,29,70,39,356,18,73,27,164,33,1*7F
$GLGSV,3,2,09,86,23,313,35,71,18,304,29,79,18,040,22,84,18,194,23,1*70
$GLGSV,3,3,09,69,16,063,17,1*4A
$GAGSV,3,1,09,13,62,246,35,08,50,016,27,07,42,293,23,15,31,174,30,7*78
$GAGSV,3,2,09,26,28,314,19,02,23,094,15,30,20,149,16,03,14,058,18,7*79
$GAGSV,3,3,09,25,05,049,,7*45
$GAGSV,2,1,07,13,62,246,40,08,50,016,24,07,42,293,30,15,31,174,28,1*7B
$GAGSV,2,2,07,26,28,314,36,02,23,094,25,03,14,058,23,1*4C
$GBGSV,4,1,15,38,82,070,40,08,74,007,31,39,73,268,41,16,66,244,39,1*73
$GBGSV,4,2,15,13,65,339,34,06,64,241,40,46,55,127,46,09,48,230,41,1*79
$GBGSV,4,3,15,19,45,334,38,20,45,051,36,37,28,054,35,36,26,185,37,1*71
$GBGSV,4,4,15,29,25,218,36,35,23,278,27,22,07,294,22,1*47
$GBGSV,3,1,09,38,82,070,42,39,73,268,45,46,55,127,43,20,45,051,39,4*77
$GBGSV,3,2,09,19,45,334,42,37,28,054,31,36,26,185,36,29,25,218,33,4*72
$GBGSV,3,3,09,35,23,278,21,4*43
$GNACCURACY,3.6*13
$PAIRSAT,1,35,1,0,200,2,0,200,3,0,200,4,0,200,5,0,201,6,0,200,7,0,200,8,0,200,9,0,200,10,0,221,11,0,200,12,0,200,13,0,201,14,0,200,15,0,201,16,0,200,17,0,200,18,0,221,19,0,200,20,0,200,21,0,200,23,0,221,24,0,221,25,0,200,26,0,200,27,0,200,28,0,200,29,0,200,30,0,200,31,0,200,32,0,200,194,0,621,195,0,621,196,0,620,199,0,621*6A
$PAIRSAT,2,23,65,0,200,67,0,200,68,0,200,69,0,201,70,0,201,71,0,201,72,0,200,73,0,201,74,0,200,75,0,200,76,0,200,77,0,200,78,0,200,79,0,201,80,0,201,81,0,200,82,0,200,83,0,200,84,0,201,85,0,201,86,0,201,87,0,200,88,0,200*52
$PAIRSAT,3,23,2,0,1221,3,0,1221,4,0,1200,5,0,200,7,0,1221,8,0,1221,9,0,1200,10,0,1200,11,0,1200,12,0,1200,13,0,1221,15,0,1221,19,0,1200,21,0,1200,24,0,1200,25,0,1200,26,0,1221,27,0,1200,30,0,1200,31,0,1200,33,0,1200,34,0,1200,36,0,1200*69
$PAIRSAT,4,50,1,0,200,2,0,200,3,0,200,4,0,200,5,0,200,6,0,201,7,0,200,8,0,201,9,0,201,10,0,200,11,0,200,12,0,200,13,0,201,14,0,200,15,0,200,16,0,201,19,0,621,20,0,621,21,0,600,22,0,600,23,0,600,24,0,600,25,0,600,26,0,600,27,0,600,28,0,600,29,0,621,30,0,600,31,0,200,32,0,600,33,0,600,34,0,600,35,0,621,36,0,621,37,0,621,38,0,621,39,0,621,40,0,600,41,0,600,42,0,600,43,0,600,44,0,600,45,0,600,46,0,621,56,0,200,57,0,200,58,0,200,59,0,600,60,0,600,61,0,600*42
$PAIRDGP,5,10,15,18,23,24*67
$GNGGA,110541.200,2500.7994355,N,12132.4837418,E,2,64,0.42,13.658,M,15.25,M,6,3335*4C
$GNRMC,110541.200,A,2500.7994355,N,12132.4837418,E,0.02,17.93,260623,,,D,V*31
$GPHDT,,T*1B
$GNACCURACY,3.6*13
$GNGGA,110541.300,2500.7994415,N,12132.4837478,E,2,64,0.42,13.632,M,15.25,M,6,3335*44
$GNRMC,110541.300,A,2500.7994415,N,12132.4837478,E,0.02,17.93,260623,,,D,V*35
$GPHDT,,T*1B
$GNACCURACY,3.6*13
$GNGGA,110541.400,2500.7994475,N,12132.4837478,E,2,64,0.42,13.605,M,15.25,M,6,3335*41
$GNRMC,110541.400,A,2500.7994475,N,12132.4837478,E,0.02,17.93,260623,,,D,V*34
$GPHDT,,T*1B
$GNACCURACY,3.6*13
$GNGGA,110541.500,2500.7994595,N,12132.4837538,E,2,63,0.42,13.576,M,15.25,M,6,3335*4A
$GNRMC,110541.500,A,2500.7994595,N,12132.4837538,E,0.02,17.93,260623,,,D,V*3F
$GPHDT,,T*1B
$GNACCURACY,3.6*13
$GNGGA,110541.600,2500.7994655,N,12132.4837538,E,2,63,0.42,13.548,M,15.25,M,6,3335*4B
$GNRMC,110541.600,A,2500.7994655,N,12132.4837538,E,0.02,17.93,260623,,,D,V*33
$GPHDT,,T*1B
$GNACCURACY,3.6*13
$GNGGA,110541.700,2500.7994715,N,12132.4837538,E,2,63,0.42,13.522,M,15.25,M,6,3335*43
$GNRMC,110541.700,A,2500.7994715,N,12132.4837538,E,0.02,17.93,260623,,,D,V*37
$GPHDT,,T*1B
$GNACCURACY,3.6*13
$GNGGA,110541.800,2500.7994775,N,12132.4837538,E,2,63,0.42,13.497,M,15.25,M,6,3335*45
$GNRMC,110541.800,A,2500.7994775,N,12132.4837538,E,0.02,17.93,260623,,,D,V*3E
$GPHDT,,T*1B
$GNACCURACY,3.6*13
$GNGGA,110541.900,2500.7994895,N,12132.4837598,E,2,64,0.42,13.472,M,15.25,M,6,3335*43
$GNRMC,110541.900,A,2500.7994895,N,12132.4837598,E,0.02,17.93,260623,,,D,V*34
$GPHDT,,T*1B
$GNACCURACY,3.6*13
$GNGGA,110542.000,2500.7994895,N,12132.4837598,E,2,64,0.42,13.443,M,15.25,M,7,3335*4A
$GNRMC,110542.000,A,2500.7994895,N,12132.4837598,E,0.02,17.93,260623,,,D,V*3E
$GPHDT,,T*1B
$GNACCURACY,3.6*13
$GNGGA,110542.100,2500.7994955,N,12132.4837598,E,2,64,0.42,13.413,M,15.25,M,7,3335*43
$GNRMC,110542.100,A,2500.7994955,N,12132.4837598,E,0.02,17.93,260623,,,D,V*32
$GPHDT,,T*1B
$GNGSA,A,3,24,196,18,199,15,23,195,194,05,10,,,0.79,0.42,0.67,1*08
$GNGSA,A,3,80,85,70,73,86,71,79,84,69,,,,0.79,0.42,0.67,2*08
$GNGSA,A,3,13,08,07,15,26,02,03,,,,,,0.79,0.42,0.67,3*06
$GNGSA,A,3,38,08,39,16,13,06,46,09,19,20,37,36,0.79,0.42,0.67,4*07
$GNGSA,A,3,29,35,,,,,,,,,,,0.79,0.42,0.67,4*00
$GPGSV,5,1,17,24,82,080,41,196,74,059,41,18,61,267,30,199,60,167,36,1*6F
$GPGSV,5,2,17,45,47,231,43,15,42,037,35,23,42,332,41,195,38,179,34,1*5E
$GPGSV,5,3,17,194,27,141,30,05,25,110,36,12,14,148,17,13,14,050,17,1*54
$GPGSV,5,4,17,10,11,314,38,32,05,261,,29,05,203,13,20,03,125,,1*64
$GPGSV,5,5,17,25,03,181,,1*5E
$GPGSV,2,1,08,24,82,080,47,196,74,059,43,18,61,267,44,199,60,167,48,8*61
$GPGSV,2,2,08,23,42,332,38,195,38,179,32,194,27,141,25,10,11,314,29,8*65
$GLGSV,3,1,09,80,46,095,46,85,42,259,28,70,39,356,18,73,27,164,33,1*7E
$GLGSV,3,2,09,86,23,313,35,71,18,304,28,79,18,040,22,84,18,194,24,1*76
$GLGSV,3,3,09,69,16,063,14,1*49
$GAGSV,3,1,09,13,62,246,35,08,50,016,32,07,42,293,22,15,31,174,30,7*7D
$GAGSV,3,2,09,26,28,314,19,02,23,094,16,30,20,149,12,03,14,058,20,7*75
$GAGSV,3,3,09,25,05,049,,7*45
$GAGSV,2,1,07,13,62,246,39,08,50,016,21,07,42,293,29,15,31,174,26,1*76
$GAGSV,2,2,07,26,28,314,36,02,23,094,25,03,14,058,25,1*4A
$GBGSV,4,1,15,38,82,070,40,08,74,007,31,39,73,268,40,16,66,244,39,1*72
$GBGSV,4,2,15,13,65,339,35,06,64,241,40,46,55,127,46,09,48,230,41,1*78
$GBGSV,4,3,15,19,45,334,36,20,45,051,36,37,28,054,35,36,26,185,37,1*7F
$GBGSV,4,4,15,29,25,218,36,35,23,278,25,22,07,294,21,1*46
$GBGSV,3,1,09,38,82,070,42,39,73,268,45,46,55,127,43,20,45,051,38,4*76
$GBGSV,3,2,09,19,45,334,40,37,28,054,29,36,26,185,36,29,25,218,31,4*7B
$GBGSV,3,3,09,35,23,278,23,4*41
$GNACCURACY,3.6*13
$PAIRSAT,1,35,1,0,200,2,0,200,3,0,200,4,0,200,5,0,201,6,0,200,7,0,200,8,0,200,9,0,200,10,0,221,11,0,200,12,0,200,13,0,201,14,0,200,15,0,201,16,0,200,17,0,200,18,0,221,19,0,200,20,0,200,21,0,200,23,0,221,24,0,221,25,0,200,26,0,200,27,0,200,28,0,200,29,0,200,30,0,200,31,0,200,32,0,200,194,0,621,195,0,621,196,0,620,199,0,621*6A
$PAIRSAT,2,23,65,0,200,67,0,200,68,0,200,69,0,201,70,0,201,71,0,201,72,0,200,73,0,201,74,0,200,75,0,200,76,0,200,77,0,200,78,0,200,79,0,201,80,0,201,81,0,200,82,0,200,83,0,200,84,0,201,85,0,201,86,0,201,87,0,200,88,0,200*52
$PAIRSAT,3,23,2,0,1221,3,0,1221,4,0,1200,5,0,200,7,0,1221,8,0,1221,9,0,1200,10,0,1200,11,0,1200,12,0,1200,13,0,1221,15,0,1221,19,0,1200,21,0,1200,24,0,1200,25,0,1200,26,0,1221,27,0,1200,30,0,1200,31,0,1200,33,0,1200,34,0,1200,36,0,1200*69
$PAIRSAT,4,50,1,0,200,2,0,200,3,0,200,4,0,200,5,0,200,6,0,201,7,0,200,8,0,201,9,0,201,10,0,200,11,0,200,12,0,200,13,0,201,14,0,200,15,0,200,16,0,201,19,0,621,20,0,621,21,0,600,22,0,600,23,0,600,24,0,600,25,0,600,26,0,600,27,0,600,28,0,600,29,0,621,30,0,600,31,0,200,32,0,600,33,0,600,34,0,600,35,0,621,36,0,621,37,0,621,38,0,621,39,0,621,40,0,600,41,0,600,42,0,600,43,0,600,44,0,600,45,0,600,46,0,621,56,0,200,57,0,200,58,0,200,59,0,600,60,0,600,61,0,600*42
$PAIRDGP,5,10,15,18,23,24*67
$GNGGA,110542.200,2500.7995015,N,12132.4837598,E,2,64,0.42,13.384,M,15.25,M,7,3335*45
$GNRMC,110542.200,A,2500.7995015,N,12132.4837598,E,0.02,17.93,260623,,,D,V*3D
$GPHDT,,T*1B
$GNACCURACY,3.6*13
$GNGGA,110542.300,2500.7995015,N,12132.4837598,E,2,64,0.42,13.357,M,15.25,M,7,3335*4A
$GNRMC,110542.300,A,2500.7995015,N,12132.4837598,E,0.02,17.93,260623,,,D,V*3C
$GPHDT,,T*1B
$GNACCURACY,3.6*13
$GNGGA,110542.400,2500.7995135,N,12132.4837538,E,2,64,0.42,13.329,M,15.25,M,7,3335*4D
$GNRMC,110542.400,A,2500.7995135,N,12132.4837538,E,0.02,17.93,260623,,,D,V*32
$GPHDT,,T*1B
$GNACCURACY,3.6*13
$GNGGA,110542.500,2500.7995195,N,12132.4837538,E,2,64,0.42,13.308,M,15.25,M,7,3335*45
$GNRMC,110542.500,A,2500.7995195,N,12132.4837538,E,0.02,17.93,260623,,,D,V*39
$GPHDT,,T*1B
$GNACCURACY,3.6*13
$GNGGA,110542.600,2500.7995255,N,12132.4837598,E,2,64,0.42,13.285,M,15.25,M,7,3335*47
$GNRMC,110542.600,A,2500.7995255,N,12132.4837598,E,0.02,17.93,260623,,,D,V*3F
$GPHDT,,T*1B
$GNACCURACY,3.6*13
$GNGGA,110542.700,2500.7995315,N,12132.4837598,E,2,64,0.42,13.262,M,15.25,M,7,3335*4A
$GNRMC,110542.700,A,2500.7995315,N,12132.4837598,E,0.02,17.93,260623,,,D,V*3B
$GPHDT,,T*1B
$GNACCURACY,3.6*13
$GNGGA,110542.800,2500.7995375,N,12132.4837598,E,2,64,0.42,13.238,M,15.25,M,7,3335*4C
$GNRMC,110542.800,A,2500.7995375,N,12132.4837598,E,0.02,17.93,260623,,,D,V*32
$GPHDT,,T*1B
$GNACCURACY,3.6*13
$GNGGA,110542.900,2500.7995435,N,12132.4837658,E,2,63,0.44,13.217,M,15.25,M,7,3335*4D
$GNRMC,110542.900,A,2500.7995435,N,12132.4837658,E,0.02,17.93,260623,,,D,V*3F
$GPHDT,,T*1B
$GNACCURACY,3.6*13
$GNGGA,110543.000,2500.7995495,N,12132.4837598,E,2,63,0.44,13.192,M,15.25,M,8,3335*41
$GNRMC,110543.000,A,2500.7995495,N,12132.4837598,E,0.02,17.93,260623,,,D,V*32
$GPHDT,,T*1B
$GNACCURACY,3.6*13
$GNGGA,110543.100,2500.7995555,N,12132.4837658,E,2,63,0.44,13.167,M,15.25,M,8,3335*48
$GNRMC,110543.100,A,2500.7995555,N,12132.4837658,E,0.02,17.93,260623,,,D,V*31
$GPHDT,,T*1B
$GNGSA,A,3,24,196,18,199,15,23,195,194,05,10,,,0.81,0.44,0.68,1*06
$GNGSA,A,3,80,85,70,73,86,71,79,84,,,,,0.81,0.44,0.68,2*09
$GNGSA,A,3,13,08,07,15,26,02,03,,,,,,0.81,0.44,0.68,3*08
$GNGSA,A,3,38,08,39,16,13,06,46,09,19,20,37,36,0.81,0.44,0.68,4*09
$GNGSA,A,3,29,35,,,,,,,,,,,0.81,0.44,0.68,4*0E
$GPGSV,5,1,17,24,82,080,40,196,74,059,41,18,61,267,28,199,60,167,36,1*67
$GPGSV,5,2,17,45,47,231,43,15,42,037,36,23,42,332,41,195,38,179,33,1*5A
$GPGSV,5,3,17,194,27,141,30,05,25,110,36,12,14,148,18,13,14,050,18,1*54
$GPGSV,5,4,17,10,11,314,38,32,05,261,,29,05,203,14,20,03,125,,1*63
$GPGSV,5,5,17,25,03,181,,1*5E
$GPGSV,2,1,08,24,82,080,47,196,74,059,43,18,61,267,44,199,60,167,48,8*61
$GPGSV,2,2,08,23,42,332,39,195,38,179,32,194,27,141,26,10,11,314,31,8*6E
$GLGSV,3,1,09,80,46,095,46,85,42,259,27,70,39,356,20,73,27,164,34,1*7D
$GLGSV,3,2,09,86,23,313,35,71,18,304,26,79,18,040,23,84,18,194,24,1*79
$GLGSV,3,3,09,69,16,063,16,1*4B
$GAGSV,3,1,09,13,62,245,35,08,50,016,32,07,42,293,22,15,31,174,30,7*7E
$GAGSV,3,2,09,26,28,314,21,02,23,094,17,30,20,149,12,03,14,058,18,7*74
$GAGSV,3,3,09,25,05,049,,7*45
$GAGSV,2,1,07,13,62,245,39,08,50,016,26,07,42,293,29,15,31,174,26,1*72
$GAGSV,2,2,07,26,28,314,35,02,23,094,26,03,14,058,25,1*4A
$GBGSV,4,1,15,38,82,070,41,08,74,007,33,39,73,268,39,16,66,244,40,1*71
$GBGSV,4,2,15,13,65,339,33,06,64,241,40,46,55,127,46,09,48,230,41,1*7E
$GBGSV,4,3,15,19,45,334,38,20,45,051,37,37,28,054,34,36,26,185,37,1*71
$GBGSV,4,4,15,29,25,218,36,35,23,278,24,22,07,294,24,1*42
$GBGSV,3,1,09,38,82,070,42,39,73,268,45,46,55,127,43,20,45,051,38,4*76
$GBGSV,3,2,09,19,45,334,40,37,28,054,27,36,26,185,35,29,25,218,32,4*75
$GBGSV,3,3,09,35,23,278,21,4*43
$GNACCURACY,3.6*13
$PAIRSAT,1,35,1,0,200,2,0,200,3,0,200,4,0,200,5,0,201,6,0,200,7,0,200,8,0,200,9,0,200,10,0,221,11,0,200,12,0,200,13,0,201,14,0,200,15,0,201,16,0,200,17,0,200,18,0,221,19,0,200,20,0,200,21,0,200,23,0,221,24,0,221,25,0,200,26,0,200,27,0,200,28,0,200,29,0,200,30,0,200,31,0,200,32,0,200,194,0,621,195,0,621,196,0,620,199,0,621*6A
$PAIRSAT,2,23,65,0,200,67,0,200,68,0,200,69,0,201,70,0,201,71,0,201,72,0,200,73,0,201,74,0,200,75,0,200,76,0,200,77,0,200,78,0,200,79,0,201,80,0,201,81,0,200,82,0,200,83,0,200,84,0,201,85,0,201,86,0,201,87,0,200,88,0,200*52
$PAIRSAT,3,23,2,0,1221,3,0,1221,4,0,1200,5,0,200,7,0,1221,8,0,1221,9,0,1200,10,0,1200,11,0,1200,12,0,1200,13,0,1221,15,0,1221,19,0,1200,21,0,1200,24,0,1200,25,0,1200,26,0,1221,27,0,1200,30,0,1200,31,0,1200,33,0,1200,34,0,1200,36,0,1200*69
$PAIRSAT,4,50,1,0,200,2,0,200,3,0,200,4,0,200,5,0,200,6,0,201,7,0,200,8,0,201,9,0,201,10,0,200,11,0,200,12,0,200,13,0,201,14,0,200,15,0,200,16,0,201,19,0,621,20,0,621,21,0,600,22,0,600,23,0,600,24,0,600,25,0,600,26,0,600,27,0,600,28,0,600,29,0,621,30,0,600,31,0,200,32,0,600,33,0,600,34,0,600,35,0,621,36,0,621,37,0,621,38,0,621,39,0,621,40,0,600,41,0,600,42,0,600,43,0,600,44,0,600,45,0,600,46,0,621,56,0,200,57,0,200,58,0,200,59,0,600,60,0,600,61,0,600*42
$PAIRDGP,5,10,15,18,23,24*67
$GNGGA,110543.200,2500.7995555,N,12132.4837658,E,2,63,0.44,13.141,M,15.25,M,8,3335*4F
$GNRMC,110543.200,A,2500.7995555,N,12132.4837658,E,0.02,17.93,260623,,,D,V*32
$GPHDT,,T*1B
$GNACCURACY,3.6*13
$GNGGA,110543.300,2500.7995555,N,12132.4837658,E,2,63,0.44,13.120,M,15.25,M,8,3335*49
$GNRMC,110543.300,A,2500.7995555,N,12132.4837658,E,0.02,17.93,260623,,,D,V*33
$GPHDT,,T*1B
$GNACCURACY,3.6*13
$GNGGA,110543.400,2500.7995435,N,12132.4837718,E,2,63,0.44,13.096,M,15.25,M,8,3335*40
$GNRMC,110543.400,A,2500.7995435,N,12132.4837718,E,0.02,17.93,260623,,,D,V*36
$GPHDT,,T*1B
$GNACCURACY,3.6*13
$GNGGA,110543.500,2500.7995375,N,12132.4837718,E,2,63,0.44,13.075,M,15.25,M,8,3335*4F
$GNRMC,110543.500,A,2500.7995375,N,12132.4837718,E,0.02,17.93,260623,,,D,V*34
$GPHDT,,T*1B
$GNACCURACY,3.6*13
$GNGGA,110543.600,2500.7995315,N,12132.4837778,E,2,63,0.44,13.052,M,15.25,M,8,3335*49
$GNRMC,110543.600,A,2500.7995315,N,12132.4837778,E,0.02,17.93,260623,,,D,V*37
$GPHDT,,T*1B
$GNACCURACY,3.6*13
$GNGGA,110543.700,2500.7995255,N,12132.4837838,E,2,63,0.44,13.028,M,15.25,M,8,3335*4B
$GNRMC,110543.700,A,2500.7995255,N,12132.4837838,E,0.02,17.93,260623,,,D,V*38
$GPHDT,,T*1B
$GNACCURACY,3.6*13
$GNGGA,110543.800,2500.7995135,N,12132.4837898,E,2,63,0.44,13.006,M,15.25,M,8,3335*47
$GNRMC,110543.800,A,2500.7995135,N,12132.4837898,E,0.02,17.93,260623,,,D,V*38
$GPHDT,,T*1B
$GNACCURACY,3.6*13
$GNGGA,110543.900,2500.7995075,N,12132.4838018,E,2,63,0.44,12.984,M,15.25,M,8,3335*4E
$GNRMC,110543.900,A,2500.7995075,N,12132.4838018,E,0.02,17.93,260623,,,D,V*33
$GPHDT,,T*1B
$GNACCURACY,3.6*13
$GNGGA,110544.000,2500.7995015,N,12132.4838078,E,2,63,0.44,12.962,M,15.25,M,9,3335*49
$GNRMC,110544.000,A,2500.7995015,N,12132.4838078,E,0.02,17.93,260623,,,D,V*3D
$GPHDT,,T*1B
$GNACCURACY,3.6*13
$GNGGA,110544.100,2500.7994955,N,12132.4838138,E,2,63,0.44,12.943,M,15.25,M,9,3335*42
$GNRMC,110544.100,A,2500.7994955,N,12132.4838138,E,0.02,17.93,260623,,,D,V*35
$GPHDT,,T*1B
$GNGSA,A,3,24,196,18,199,15,23,195,194,05,10,,,0.79,0.42,0.67,1*08
$GNGSA,A,3,80,85,70,73,86,71,79,84,69,,,,0.79,0.42,0.67,2*08
$GNGSA,A,3,13,08,07,15,26,02,03,,,,,,0.79,0.42,0.67,3*06
$GNGSA,A,3,38,08,39,16,13,06,46,09,19,20,37,36,0.79,0.42,0.67,4*07
$GNGSA,A,3,29,35,,,,,,,,,,,0.79,0.42,0.67,4*00
$GPGSV,5,1,17,24,82,080,40,196,74,059,41,18,61,267,34,199,60,167,36,1*6A
$GPGSV,5,2,17,45,47,231,43,15,42,037,32,23,42,332,45,195,38,179,33,1*5A
$GPGSV,5,3,17,194,27,141,32,05,25,110,37,12,14,148,18,13,14,050,19,1*56
$GPGSV,5,4,17,10,11,314,36,32,05,261,,29,05,203,12,20,03,125,,1*6B
$GPGSV,5,5,17,25,03,181,,1*5E
$GPGSV,2,1,08,24,82,080,47,196,74,059,44,18,61,267,44,199,60,167,48,8*66
$GPGSV,2,2,08,23,42,332,42,195,38,179,29,194,27,141,33,10,11,314,33,8*6E
$GLGSV,3,1,09,80,46,095,46,85,42,259,27,70,39,356,21,73,27,164,33,1*7B
$GLGSV,3,2,09,86,23,313,35,71,18,304,29,79,18,040,23,84,18,194,24,1*76
$GLGSV,3,3,09,69,16,063,17,1*4A
$GAGSV,3,1,09,13,62,245,35,08,50,016,28,07,42,293,27,15,31,174,30,7*70
$GAGSV,3,2,09,26,28,314,22,02,23,094,17,30,20,149,13,03,14,058,19,7*77
$GAGSV,3,3,09,25,05,049,,7*45
$GAGSV,2,1,07,13,62,245,39,08,50,016,27,07,42,293,31,15,31,174,26,1*7A
$GAGSV,2,2,07,26,28,314,36,02,23,094,28,03,14,058,23,1*41
$GBGSV,4,1,15,38,82,070,41,08,74,007,33,39,73,268,41,16,66,244,38,1*71
$GBGSV,4,2,15,13,65,339,34,06,64,241,40,46,55,127,46,09,48,230,42,1*7A
$GBGSV,4,3,15,19,45,334,41,20,45,051,36,37,28,054,33,36,26,185,36,1*78
$GBGSV,4,4,15,29,25,218,36,35,23,278,24,22,07,294,24,1*42
$GBGSV,3,1,09,38,82,070,42,39,73,268,45,46,55,127,43,20,45,051,38,4*76
$GBGSV,3,2,09,19,45,334,43,37,28,054,28,36,26,185,37,29,25,218,33,4*7A
$GBGSV,3,3,09,35,23,278,21,4*43
$GNACCURACY,3.6*13
$PAIRSAT,1,35,1,0,200,2,0,200,3,0,200,4,0,200,5,0,201,6,0,200,7,0,200,8,0,200,9,0,200,10,0,221,11,0,200,12,0,200,13,0,201,14,0,200,15,0,201,16,0,200,17,0,200,18,0,221,19,0,200,20,0,200,21,0,200,23,0,221,24,0,221,25,0,200,26,0,200,27,0,200,28,0,200,29,0,200,30,0,200,31,0,200,32,0,200,194,0,621,195,0,621,196,0,620,199,0,621*6A
$PAIRSAT,2,23,65,0,200,67,0,200,68,0,200,69,0,201,70,0,201,71,0,201,72,0,200,73,0,201,74,0,200,75,0,200,76,0,200,77,0,200,78,0,200,79,0,201,80,0,201,81,0,200,82,0,200,83,0,200,84,0,201,85,0,201,86,0,201,87,0,200,88,0,200*52
$PAIRSAT,3,23,2,0,1221,3,0,1221,4,0,1200,5,0,200,7,0,1221,8,0,1221,9,0,1200,10,0,1200,11,0,1200,12,0,1200,13,0,1221,15,0,1221,19,0,1200,21,0,1200,24,0,1200,25,0,1200,26,0,1221,27,0,1200,30,0,1200,31,0,1200,33,0,1200,34,0,1200,36,0,1200*69
$PAIRSAT,4,50,1,0,200,2,0,200,3,0,200,4,0,200,5,0,200,6,0,201,7,0,200,8,0,201,9,0,201,10,0,200,11,0,200,12,0,200,13,0,201,14,0,200,15,0,200,16,0,201,19,0,621,20,0,621,21,0,600,22,0,600,23,0,600,24,0,600,25,0,600,26,0,600,27,0,600,28,0,600,29,0,621,30,0,600,31,0,200,32,0,600,33,0,600,34,0,600,35,0,621,36,0,621,37,0,621,38,0,621,39,0,621,40,0,600,41,0,600,42,0,600,43,0,600,44,0,600,45,0,600,46,0,621,56,0,200,57,0,200,58,0,200,59,0,600,60,0,600,61,0,600*42
$PAIRDGP,5,10,15,18,23,24*67
$GNGGA,110544.200,2500.7994895,N,12132.4838198,E,2,64,0.42,12.921,M,15.25,M,9,3335*43
$GNRMC,110544.200,A,2500.7994895,N,12132.4838198,E,0.03,17.93,260623,,,D,V*30
$GPHDT,,T*1B
$GNACCURACY,3.6*13
$GNGGA,110544.300,2500.7994835,N,12132.4838258,E,2,64,0.42,12.904,M,15.25,M,9,3335*40
$GNRMC,110544.300,A,2500.7994835,N,12132.4838258,E,0.03,17.93,260623,,,D,V*34
$GPHDT,,T*1B
$GNACCURACY,3.6*13
$GNGGA,110544.400,2500.7994715,N,12132.4838378,E,2,64,0.42,12.886,M,15.25,M,9,3335*42
$GNRMC,110544.400,A,2500.7994715,N,12132.4838378,E,0.03,17.93,260623,,,D,V*3D
$GPHDT,,T*1B
$GNACCURACY,3.6*13
$GNGGA,110544.500,2500.7994655,N,12132.4838438,E,2,64,0.42,12.867,M,15.25,M,9,3335*4A
$GNRMC,110544.500,A,2500.7994655,N,12132.4838438,E,0.03,17.93,260623,,,D,V*3A
$GPHDT,,T*1B
$GNACCURACY,3.6*13
$GNGGA,110544.600,2500.7994595,N,12132.4838498,E,2,64,0.42,12.851,M,15.25,M,9,3335*49
$GNRMC,110544.600,A,2500.7994595,N,12132.4838498,E,0.03,17.93,260623,,,D,V*3C
$GPHDT,,T*1B
$GNACCURACY,3.6*13
$GNGGA,110544.700,2500.7994535,N,12132.4838558,E,2,64,0.42,12.836,M,15.25,M,9,3335*4E
$GNRMC,110544.700,A,2500.7994535,N,12132.4838558,E,0.03,17.93,260623,,,D,V*3A
$GPHDT,,T*1B
$GNACCURACY,3.6*13
$GNGGA,110544.800,2500.7994475,N,12132.4838618,E,2,64,0.42,12.817,M,15.25,M,9,3335*40
$GNRMC,110544.800,A,2500.7994475,N,12132.4838618,E,0.03,17.93,260623,,,D,V*37
$GPHDT,,T*1B
$GNACCURACY,3.6*13
$GNGGA,110544.900,2500.7994415,N,12132.4838678,E,2,64,0.42,12.794,M,15.25,M,9,3335*45
$GNRMC,110544.900,A,2500.7994415,N,12132.4838678,E,0.03,17.93,260623,,,D,V*36
$GPHDT,,T*1B
$GNACCURACY,3.6*13
$GNGGA,110545.000,2500.7994415,N,12132.4838738,E,2,64,0.42,12.769,M,15.25,M,10,3335*72
$GNRMC,110545.000,A,2500.7994415,N,12132.4838738,E,0.03,17.93,260623,,,D,V*3B
$GPHDT,,T*1B
$GNACCURACY,3.6*13
$GNGGA,110545.100,2500.7994415,N,12132.4838738,E,2,64,0.42,12.745,M,15.25,M,10,3335*7D
$GNRMC,110545.100,A,2500.7994415,N,12132.4838738,E,0.03,17.93,260623,,,D,V*3A
$GPHDT,,T*1B
$GNGSA,A,3,24,196,18,199,15,23,195,194,05,10,,,0.79,0.42,0.67,1*08
$GNGSA,A,3,80,85,70,73,86,71,79,84,69,,,,0.79,0.42,0.67,2*08
$GNGSA,A,3,13,08,07,15,26,02,03,,,,,,0.79,0.42,0.67,3*06
$GNGSA,A,3,38,08,39,16,13,06,46,09,19,20,37,36,0.79,0.42,0.67,4*07
$GNGSA,A,3,29,35,,,,,,,,,,,0.79,0.42,0.67,4*00
$GPGSV,5,1,17,24,82,080,40,196,74,059,41,18,61,267,32,199,60,167,36,1*6C
$GPGSV,5,2,17,45,47,231,43,15,42,037,31,23,42,332,45,195,38,179,33,1*59
$GPGSV,5,3,17,194,27,141,32,05,25,110,36,12,14,148,18,13,14,050,19,1*57
$GPGSV,5,4,17,10,11,314,36,32,05,261,,29,05,203,12,20,03,125,,1*6B
$GPGSV,5,5,17,25,03,181,,1*5E
$GPGSV,2,1,08,24,82,080,47,196,74,059,44,18,61,267,44,199,60,167,48,8*66
$GPGSV,2,2,08,23,42,332,42,195,38,179,29,194,27,141,32,10,11,314,32,8*6E
$GLGSV,3,1,09,80,46,095,46,85,42,259,25,70,39,356,21,73,27,164,32,1*78
$GLGSV,3,2,09,86,23,313,34,71,18,304,29,79,18,040,22,84,18,194,24,1*76
$GLGSV,3,3,09,69,16,063,14,1*49
$GAGSV,3,1,09,13,62,245,35,08,50,016,30,07,42,293,26,15,31,174,30,7*78
$GAGSV,3,2,09,26,28,313,23,02,23,094,19,30,20,149,16,03,14,058,19,7*7A
$GAGSV,3,3,09,25,05,049,,7*45
$GAGSV,2,1,07,13,62,245,39,08,50,016,26,07,42,293,31,15,31,174,23,1*7E
$GAGSV,2,2,07,26,28,313,36,02,23,094,27,03,14,058,24,1*4E
$GBGSV,4,1,15,38,82,070,41,08,74,007,32,39,73,268,41,16,66,244,38,1*70
$GBGSV,4,2,15,13,65,339,35,06,64,241,40,46,55,127,46,09,48,230,42,1*7B
$GBGSV,4,3,15,19,45,334,40,20,45,051,35,37,28,054,34,36,26,185,37,1*7C
$GBGSV,4,4,15,29,25,218,36,35,23,278,23,22,07,294,22,1*43
$GBGSV,3,1,09,38,82,070,42,39,73,268,45,46,55,127,44,20,45,051,38,4*71
$GBGSV,3,2,09,19,45,334,42,37,28,054,27,36,26,185,37,29,25,218,32,4*75
$GBGSV,3,3,09,35,23,278,20,4*42
$GNACCURACY,3.6*13
$PAIRSAT,1,35,1,0,200,2,0,200,3,0,200,4,0,200,5,0,201,6,0,200,7,0,200,8,0,200,9,0,200,10,0,221,11,0,200,12,0,200,13,0,201,14,0,200,15,0,201,16,0,200,17,0,200,18,0,221,19,0,200,20,0,200,21,0,200,23,0,221,24,0,221,25,0,200,26,0,200,27,0,200,28,0,200,29,0,200,30,0,200,31,0,200,32,0,200,194,0,621,195,0,621,196,0,620,199,0,621*6A
$PAIRSAT,2,23,65,0,200,67,0,200,68,0,200,69,0,201,70,0,201,71,0,201,72,0,200,73,0,201,74,0,200,75,0,200,76,0,200,77,0,200,78,0,200,79,0,201,80,0,201,81,0,200,82,0,200,83,0,200,84,0,201,85,0,201,86,0,201,87,0,200,88,0,200*52
$PAIRSAT,3,23,2,0,1221,3,0,1221,4,0,1200,5,0,200,7,0,1221,8,0,1221,9,0,1200,10,0,1200,11,0,1200,12,0,1200,13,0,1221,15,0,1221,19,0,1200,21,0,1200,24,0,1200,25,0,1200,26,0,1221,27,0,1200,30,0,1200,31,0,1200,33,0,1200,34,0,1200,36,0,1200*69
$PAIRSAT,4,50,1,0,200,2,0,200,3,0,200,4,0,200,5,0,200,6,0,201,7,0,200,8,0,201,9,0,201,10,0,200,11,0,200,12,0,200,13,0,201,14,0,200,15,0,200,16,0,201,19,0,621,20,0,621,21,0,600,22,0,600,23,0,600,24,0,600,25,0,600,26,0,600,27,0,600,28,0,600,29,0,621,30,0,600,31,0,200,32,0,600,33,0,600,34,0,600,35,0,621,36,0,621,37,0,621,38,0,621,39,0,621,40,0,600,41,0,600,42,0,600,43,0,600,44,0,600,45,0,600,46,0,621,56,0,200,57,0,200,58,0,200,59,0,600,60