$FW : RTK35X,V1.1X0314AS,Lib20210517,1*54
$Tool : LOCOSYS , GNSS Firebird , v1.0.0.19*39
$---------------------------------------------------*2D
7.931,M,15.25,M,24,3335*72
$GNRMC,114643.100,A,2500.8226548,N,12132.4586071,E,0.03,333.82,260623,,,D,V*08
$GPHDT,,T*1B
$GNGSA,A,3,196,24,199,23,18,194,195,12,10,25,05,32,0.80,0.45,0.66,1*09
$GNGSA,A,3,73,80,85,86,71,,,,,,,,0.80,0.45,0.66,2*02
$GNGSA,A,3,13,07,08,26,30,15,02,,,,,,0.80,0.45,0.66,3*06
$GNGSA,A,3,08,38,13,39,16,06,46,19,09,36,20,35,0.80,0.45,0.66,4*05
$GNGSA,A,3,37,22,29,,,,,,,,,,0.80,0.45,0.66,4*02
$GPGSV,4,1,16,196,75,071,40,24,64,035,31,199,60,167,37,23,59,345,32,1*65
$GPGSV,4,2,16,18,53,230,44,41,38,242,42,194,34,136,36,15,32,056,22,1*5B
$GPGSV,4,3,16,195,30,179,36,12,26,134,36,10,25,322,44,25,15,171,25,1*52
$GPGSV,4,4,16,05,13,125,27,32,13,277,39,13,03,063,,28,01,221,,1*62
$GPGSV,3,1,10,196,75,071,41,24,64,035,46,199,60,167,47,23,59,345,28,8*60
$GPGSV,3,2,10,18,53,230,46,194,34,136,39,195,30,179,36,10,25,322,32,8*64
$GPGSV,3,3,10,25,15,171,22,32,13,277,36,8*6C
$GLGSV,2,1,08,73,49,153,45,80,46,060,32,70,41,024,,85,28,236,22,1*75
$GLGSV,2,2,08,86,28,290,41,71,26,324,34,69,09,084,14,79,04,027,,1*7A
$GAGSV,3,1,09,13,49,223,42,07,45,313,42,08,44,034,25,26,35,299,40,7*7F
$GAGSV,3,2,09,30,32,138,39,02,27,077,,15,16,173,20,03,07,070,18,7*70
$GAGSV,3,3,09,27,06,185,,7*45
$GAGSV,2,1,07,13,49,223,43,07,45,313,42,08,44,034,33,26,35,299,44,1*74
$GAGSV,2,2,07,30,32,138,39,02,27,077,12,15,16,173,21,1*41
$GBGSV,4,1,15,08,84,352,39,38,82,150,43,13,71,325,43,39,69,295,43,1*74
$GBGSV,4,2,15,16,66,270,42,06,64,265,42,46,62,093,38,19,53,356,34,1*7D
$GBGSV,4,3,15,09,50,246,42,36,44,183,44,20,40,074,33,35,18,260,38,1*75
$GBGSV,4,4,15,37,17,043,22,22,16,307,32,29,13,206,26,1*4C
$GBGSV,3,1,09,38,82,150,46,39,69,295,44,46,62,093,30,19,53,356,27,4*70
$GBGSV,3,2,09,36,44,183,45,20,40,074,26,35,18,260,33,37,17,043,21,4*79
$GBGSV,3,3,09,22,16,307,33,4*49
$GNACCURACY,2.3*17
$PAIRSAT,1,35,1,0,200,2,0,200,3,0,200,4,0,200,5,0,201,6,0,200,7,0,200,8,0,200,9,0,200,10,0,221,11,0,200,12,0,201,13,0,201,14,0,200,15,0,201,16,0,200,17,0,200,18,0,221,19,0,200,20,0,200,21,0,200,23,0,221,24,0,221,25,0,220,26,0,200,27,0,200,28,0,200,29,0,200,30,0,200,31,0,200,32,0,221,194,0,621,195,0,621,196,0,620,199,0,621*6A
$PAIRSAT,2,24,65,0,200,66,0,200,67,0,200,68,0,200,69,0,200,70,0,200,71,0,201,72,0,200,73,0,201,74,0,200,75,0,200,76,0,200,77,0,200,78,0,200,79,0,201,80,0,201,81,0,200,82,0,200,83,0,200,84,0,200,85,0,201,86,0,201,87,0,200,88,0,200*7A
$PAIRSAT,3,23,2,0,1221,3,0,1221,4,0,1200,5,0,200,7,0,1221,8,0,1221,9,0,1200,10,0,1200,11,0,1200,12,0,1200,13,0,1221,15,0,1221,19,0,1200,21,0,1200,24,0,1200,25,0,1200,26,0,1221,27,0,1200,30,0,1221,31,0,1200,33,0,1200,34,0,1200,36,0,1200*6A
$PAIRSAT,4,50,1,0,200,2,0,200,3,0,200,4,0,200,5,0,200,6,0,201,7,0,200,8,0,201,9,0,201,10,0,200,11,0,200,12,0,200,13,0,201,14,0,200,15,0,200,16,0,201,19,0,621,20,0,621,21,0,600,22,0,621,23,0,600,24,0,600,25,0,600,26,0,600,27,0,600,28,0,600,29,0,621,30,0,600,31,0,200,32,0,600,33,0,600,34,0,600,35,0,621,36,0,621,37,0,621,38,0,621,39,0,621,40,0,600,41,0,600,42,0,600,43,0,600,44,0,600,45,0,600,46,0,621,56,0,200,57,0,200,58,0,200,59,0,600,60,0,600,61,0,600*41
$PAIRDGP,10,5,10,12,15,18,23,24,25,28,32*45
$GNGGA,114643.200,2500.8226608,N,12132.4586011,E,2,64,0.45,17.938,M,15.25,M,24,3335*79
$GNRMC,114643.200,A,2500.8226608,N,12132.4586011,E,0.03,333.82,260623,,,D,V*0A
$GPHDT,,T*1B
$GNACCURACY,2.3*17
$GNGGA,114643.300,2500.8226608,N,12132.4585951,E,2,64,0.45,17.945,M,15.25,M,24,3335*7C
$GNRMC,114643.300,A,2500.8226608,N,12132.4585951,E,0.02,333.82,260623,,,D,V*04
$GPHDT,,T*1B
$GNACCURACY,2.3*17
$GNGGA,114643.400,2500.8226608,N,12132.4585951,E,2,64,0.45,17.953,M,15.25,M,24,3335*7C
$GNRMC,114643.400,A,2500.8226608,N,12132.4585951,E,0.03,333.82,260623,,,D,V*02
$GPHDT,,T*1B
$GNACCURACY,2.3*17
$GNGGA,114643.500,2500.8226668,N,12132.4585891,E,2,64,0.45,17.961,M,15.25,M,24,3335*77
$GNRMC,114643.500,A,2500.8226668,N,12132.4585891,E,0.03,333.82,260623,,,D,V*08
$GPHDT,,T*1B
$GNACCURACY,2.3*17
$GNGGA,114643.600,2500.8226608,N,12132.4585831,E,2,64,0.45,17.968,M,15.25,M,24,3335*71
$GNRMC,114643.600,A,2500.8226608,N,12132.4585831,E,0.03,333.82,260623,,,D,V*07
$GPHDT,,T*1B
$GNACCURACY,2.3*17
$GNGGA,114643.700,2500.8226608,N,12132.4585831,E,2,64,0.45,17.975,M,15.25,M,24,3335*7C
$GNRMC,114643.700,A,2500.8226608,N,12132.4585831,E,0.03,333.82,260623,,,D,V*06
$GPHDT,,T*1B
$GNACCURACY,2.3*17
$GNGGA,114643.800,2500.8226608,N,12132.4585831,E,2,64,0.45,17.978,M,15.25,M,24,3335*7E
$GNRMC,114643.800,A,2500.8226608,N,12132.4585831,E,0.03,333.82,260623,,,D,V*09
$GPHDT,,T*1B
$GNACCURACY,2.3*17
$GNGGA,114643.900,2500.8226608,N,12132.4585891,E,2,64,0.45,17.982,M,15.25,M,24,3335*70
$GNRMC,114643.900,A,2500.8226608,N,12132.4585891,E,0.02,333.82,260623,,,D,V*03
$GPHDT,,T*1B
$GNACCURACY,2.3*17
$GNGGA,114644.000,2500.8226548,N,12132.4585891,E,2,64,0.45,17.981,M,15.25,M,25,3335*7B
$GNRMC,114644.000,A,2500.8226548,N,12132.4585891,E,0.03,333.82,260623,,,D,V*0B
$GPHDT,,T*1B
$GNACCURACY,2.3*17
$GNGGA,114644.100,2500.8226548,N,12132.4585891,E,2,64,0.45,17.986,M,15.25,M,25,3335*7D
$GNRMC,114644.100,A,2500.8226548,N,12132.4585891,E,0.03,333.82,260623,,,D,V*0A
$GPHDT,,T*1B
$GNGSA,A,3,196,24,199,23,18,194,195,12,10,25,05,32,0.80,0.45,0.66,1*09
$GNGSA,A,3,73,80,85,86,71,,,,,,,,0.80,0.45,0.66,2*02
$GNGSA,A,3,13,07,08,26,30,15,02,,,,,,0.80,0.45,0.66,3*06
$GNGSA,A,3,08,38,13,39,16,06,46,19,09,36,20,35,0.80,0.45,0.66,4*05
$GNGSA,A,3,37,22,29,,,,,,,,,,0.80,0.45,0.66,4*02
$GPGSV,4,1,15,196,75,071,41,24,64,035,30,199,60,167,36,23,59,345,33,1*66
$GPGSV,4,2,15,18,53,230,44,41,38,242,43,194,34,136,42,15,32,056,,1*5A
$GPGSV,4,3,15,195,30,179,36,12,26,134,41,10,25,322,44,25,15,171,27,1*53
$GPGSV,4,4,15,05,13,125,28,32,13,277,39,28,01,221,,1*5A
$GPGSV,3,1,10,196,75,071,41,24,64,035,46,199,60,167,46,23,59,345,29,8*60
$GPGSV,3,2,10,18,53,230,46,194,34,136,43,195,30,179,35,10,25,322,32,8*6A
$GPGSV,3,3,10,25,15,171,22,32,13,277,36,8*6C
$GLGSV,3,1,09,73,49,153,45,80,46,060,32,70,41,024,,85,28,236,22,1*75
$GLGSV,3,2,09,86,28,290,41,71,26,324,34,74,12,186,,69,09,084,14,1*7A
$GLGSV,3,3,09,79,04,027,,1*4E
$GAGSV,2,1,08,13,49,223,42,07,45,313,42,08,44,034,25,26,35,299,40,7*7F
$GAGSV,2,2,08,30,32,138,43,15,16,173,19,03,07,070,18,27,06,185,,7*7F
$GAGSV,2,1,07,13,49,223,43,07,45,313,41,08,44,034,32,26,35,299,44,1*76
$GAGSV,2,2,07,30,32,138,44,02,27,077,12,15,16,173,22,1*48
$GBGSV,4,1,15,08,84,352,39,38,82,150,43,13,71,325,43,39,69,295,43,1*74
$GBGSV,4,2,15,16,66,270,42,06,64,265,42,46,62,093,38,19,53,356,34,1*7D
$GBGSV,4,3,15,09,50,246,42,36,44,183,43,20,40,074,34,35,18,260,38,1*75
$GBGSV,4,4,15,37,17,043,22,22,16,307,33,29,13,206,26,1*4D
$GBGSV,3,1,09,38,82,150,46,39,69,295,44,46,62,093,31,19,53,356,28,4*7E
$GBGSV,3,2,09,36,44,183,45,20,40,074,26,35,18,260,31,37,17,043,23,4*79
$GBGSV,3,3,09,22,16,307,33,4*49
$GNACCURACY,2.3*17
$PAIRSAT,1,35,1,0,200,2,0,200,3,0,200,4,0,200,5,0,201,6,0,200,7,0,200,8,0,200,9,0,200,10,0,221,11,0,200,12,0,201,13,0,201,14,0,200,15,0,201,16,0,200,17,0,200,18,0,221,19,0,200,20,0,200,21,0,200,23,0,221,24,0,221,25,0,220,26,0,200,27,0,200,28,0,200,29,0,200,30,0,200,31,0,200,32,0,221,194,0,621,195,0,621,196,0,620,199,0,621*6A
$PAIRSAT,2,24,65,0,200,66,0,200,67,0,200,68,0,200,69,0,200,70,0,200,71,0,201,72,0,200,73,0,201,74,0,200,75,0,200,76,0,200,77,0,200,78,0,200,79,0,201,80,0,201,81,0,200,82,0,200,83,0,200,84,0,200,85,0,201,86,0,201,87,0,200,88,0,200*7A
$PAIRSAT,3,23,2,0,1221,3,0,1221,4,0,1200,5,0,200,7,0,1221,8,0,1221,9,0,1200,10,0,1200,11,0,1200,12,0,1200,13,0,1221,15,0,1221,19,0,1200,21,0,1200,24,0,1200,25,0,1200,26,0,1221,27,0,1200,30,0,1221,31,0,1200,33,0,1200,34,0,1200,36,0,1200*6A
$PAIRSAT,4,50,1,0,200,2,0,200,3,0,200,4,0,200,5,0,200,6,0,201,7,0,200,8,0,201,9,0,201,10,0,200,11,0,200,12,0,200,13,0,201,14,0,200,15,0,200,16,0,201,19,0,621,20,0,621,21,0,600,22,0,621,23,0,600,24,0,600,25,0,600,26,0,600,27,0,600,28,0,600,29,0,621,30,0,600,31,0,200,32,0,600,33,0,600,34,0,600,35,0,621,36,0,621,37,0,621,38,0,621,39,0,621,40,0,600,41,0,600,42,0,600,43,0,600,44,0,600,45,0,600,46,0,621,56,0,200,57,0,200,58,0,200,59,0,600,60,0,600,61,0,600*41
$PAIRDGP,10,5,10,12,15,18,23,24,25,28,32*45
$GNGGA,114644.200,2500.8226548,N,12132.4585951,E,2,64,0.45,17.985,M,15.25,M,25,3335*70
$GNRMC,114644.200,A,2500.8226548,N,12132.4585951,E,0.02,333.82,260623,,,D,V*05
$GPHDT,,T*1B
$GNACCURACY,2.3*17
$GNGGA,114644.300,2500.8226488,N,12132.4586011,E,2,64,0.45,17.982,M,15.25,M,25,3335*75
$GNRMC,114644.300,A,2500.8226488,N,12132.4586011,E,0.02,333.82,260623,,,D,V*07
$GPHDT,,T*1B
$GNACCURACY,2.3*17
$GNGGA,114644.400,2500.8226488,N,12132.4586011,E,2,64,0.45,17.984,M,15.25,M,25,3335*74
$GNRMC,114644.400,A,2500.8226488,N,12132.4586011,E,0.02,333.82,260623,,,D,V*00
$GPHDT,,T*1B
$GNACCURACY,2.3*17
$GNGGA,114644.500,2500.8226428,N,12132.4586071,E,2,64,0.45,17.985,M,15.25,M,25,3335*78
$GNRMC,114644.500,A,2500.8226428,N,12132.4586071,E,0.02,333.82,260623,,,D,V*0D
$GPHDT,,T*1B
$GNACCURACY,2.3*17
$GNGGA,114644.600,2500.8226428,N,12132.4586131,E,2,64,0.45,17.987,M,15.25,M,25,3335*7C
$GNRMC,114644.600,A,2500.8226428,N,12132.4586131,E,0.02,333.82,260623,,,D,V*0B
$GPHDT,,T*1B
$GNACCURACY,2.3*17
$GNGGA,114644.700,2500.8226428,N,12132.4586131,E,2,64,0.45,17.991,M,15.25,M,25,3335*7A
$GNRMC,114644.700,A,2500.8226428,N,12132.4586131,E,0.02,333.82,260623,,,D,V*0A
$GPHDT,,T*1B
$GNACCURACY,2.3*17
$GNGGA,114644.800,2500.8226368,N,12132.4586191,E,2,64,0.45,17.992,M,15.25,M,25,3335*7F
$GNRMC,114644.800,A,2500.8226368,N,12132.4586191,E,0.02,333.82,260623,,,D,V*0C
$GPHDT,,T*1B
$GNACCURACY,2.3*17
$GNGGA,114644.900,2500.8226308,N,12132.4586251,E,2,64,0.45,17.994,M,15.25,M,25,3335*71
$GNRMC,114644.900,A,2500.8226308,N,12132.4586251,E,0.02,333.82,260623,,,D,V*04
$GPHDT,,T*1B
$GNACCURACY,2.3*17
$GNGGA,114645.000,2500.8226308,N,12132.4586251,E,2,64,0.45,17.992,M,15.25,M,26,3335*7C
$GNRMC,114645.000,A,2500.8226308,N,12132.4586251,E,0.02,333.82,260623,,,D,V*0C
$GPHDT,,T*1B
$GNACCURACY,2.3*17
$GNGGA,114645.100,2500.8226248,N,12132.4586311,E,2,64,0.45,17.996,M,15.25,M,26,3335*79
$GNRMC,114645.100,A,2500.8226248,N,12132.4586311,E,0.02,333.82,260623,,,D,V*0D
$GPHDT,,T*1B
$GNGSA,A,3,196,24,199,23,18,194,195,12,10,25,05,32,0.80,0.45,0.66,1*09
$GNGSA,A,3,73,80,85,86,71,,,,,,,,0.80,0.45,0.66,2*02
$GNGSA,A,3,13,07,08,26,30,15,02,,,,,,0.80,0.45,0.66,3*06
$GNGSA,A,3,08,38,13,39,16,06,46,19,09,36,20,35,0.80,0.45,0.66,4*05
$GNGSA,A,3,37,22,29,,,,,,,,,,0.80,0.45,0.66,4*02
$GPGSV,4,1,16,196,75,071,41,24,64,035,31,199,60,167,37,23,59,345,33,1*65
$GPGSV,4,2,16,18,53,230,44,41,38,242,43,194,34,136,42,15,32,056,,1*59
$GPGSV,4,3,16,195,30,179,36,12,26,134,42,10,25,322,44,25,15,171,27,1*53
$GPGSV,4,4,16,05,13,125,28,32,13,277,39,13,03,063,,28,01,221,,1*6D
$GPGSV,3,1,10,196,75,071,41,24,64,035,46,199,60,167,46,23,59,345,29,8*60
$GPGSV,3,2,10,18,53,230,46,194,34,136,44,195,30,179,35,10,25,322,33,8*6C
$GPGSV,3,3,10,25,15,171,24,32,13,277,36,8*6A
$GLGSV,2,1,08,73,49,153,45,80,46,060,31,70,41,024,,85,28,236,22,1*76
$GLGSV,2,2,08,86,28,290,41,71,26,324,34,69,09,084,15,79,04,027,,1*7B
$GAGSV,3,1,09,13,49,223,42,07,45,313,42,08,43,034,24,26,35,299,40,7*79
$GAGSV,3,2,09,30,32,138,43,02,27,077,,15,16,173,20,03,07,070,18,7*7D
$GAGSV,3,3,09,27,06,185,,7*45
$GAGSV,2,1,07,13,49,223,43,07,45,313,40,08,43,034,32,26,35,299,44,1*70
$GAGSV,2,2,07,30,32,138,44,02,27,077,13,15,16,173,22,1*49
$GBGSV,4,1,15,08,84,352,39,38,82,150,43,13,71,325,43,39,69,295,43,1*74
$GBGSV,4,2,15,16,66,270,42,06,64,265,42,46,62,093,38,19,53,356,34,1*7D
$GBGSV,4,3,15,09,50,246,42,36,44,183,43,20,40,074,33,35,18,260,38,1*72
$GBGSV,4,4,15,37,17,043,21,22,16,307,32,29,13,206,26,1*4F
$GBGSV,3,1,09,38,82,150,46,39,69,295,44,46,62,093,30,19,53,356,28,4*7F
$GBGSV,3,2,09,36,44,183,45,20,40,074,26,35,18,260,30,37,17,043,23,4*78
$GBGSV,3,3,09,22,16,307,33,4*49
$GNACCURACY,2.3*17
$PAIRSAT,1,35,1,0,200,2,0,200,3,0,200,4,0,200,5,0,201,6,0,200,7,0,200,8,0,200,9,0,200,10,0,221,11,0,200,12,0,201,13,0,201,14,0,200,15,0,201,16,0,200,17,0,200,18,0,221,19,0,200,20,0,200,21,0,200,23,0,221,24,0,221,25,0,220,26,0,200,27,0,200,28,0,200,29,0,200,30,0,200,31,0,200,32,0,221,194,0,621,195,0,621,196,0,620,199,0,621*6A
$PAIRSAT,2,24,65,0,200,66,0,200,67,0,200,68,0,200,69,0,200,70,0,200,71,0,201,72,0,200,73,0,201,74,0,200,75,0,200,76,0,200,77,0,200,78,0,200,79,0,201,80,0,201,81,0,200,82,0,200,83,0,200,84,0,200,85,0,201,86,0,201,87,0,200,88,0,200*7A
$PAIRSAT,3,23,2,0,1221,3,0,1221,4,0,1200,5,0,200,7,0,1221,8,0,1221,9,0,1200,10,0,1200,11,0,1200,12,0,1200,13,0,1221,15,0,1221,19,0,1200,21,0,1200,24,0,1200,25,0,1200,26,0,1221,27,0,1200,30,0,1221,31,0,1200,33,0,1200,34,0,1200,36,0,1200*6A
$PAIRSAT,4,50,1,0,200,2,0,200,3,0,200,4,0,200,5,0,200,6,0,201,7,0,200,8,0,201,9,0,201,10,0,200,11,0,200,12,0,200,13,0,201,14,0,200,15,0,200,16,0,201,19,0,621,20,0,621,21,0,600,22,0,621,23,0,600,24,0,600,25,0,600,26,0,600,27,0,600,28,0,600,29,0,621,30,0,600,31,0,200,32,0,600,33,0,600,34,0,600,35,0,621,36,0,621,37,0,621,38,0,621,39,0,621,40,0,600,41,0,600,42,0,600,43,0,600,44,0,600,45,0,600,46,0,621,56,0,200,57,0,200,58,0,200,59,0,600,60,0,600,61,0,600*41
$PAIRDGP,10,5,10,12,15,18,23,24,25,28,32*45
$GNGGA,114645.200,2500.8226188,N,12132.4586371,E,2,64,0.45,17.997,M,15.25,M,26,3335*72
$GNRMC,114645.200,A,2500.8226188,N,12132.4586371,E,0.02,333.82,260623,,,D,V*07
$GPHDT,,T*1B
$GNACCURACY,2.3*17
$GNGGA,114645.300,2500.8226128,N,12132.4586431,E,2,64,0.45,17.994,M,15.25,M,26,3335*79
$GNRMC,114645.300,A,2500.8226128,N,12132.4586431,E,0.02,333.82,260623,,,D,V*0F
$GPHDT,,T*1B
$GNACCURACY,2.3*17
$GNGGA,114645.400,2500.8226068,N,12132.4586491,E,2,64,0.45,17.995,M,15.25,M,26,3335*70
$GNRMC,114645.400,A,2500.8226068,N,12132.4586491,E,0.02,333.82,260623,,,D,V*07
$GPHDT,,T*1B
$GNACCURACY,2.3*17
$GNGGA,114645.500,2500.8226008,N,12132.4586551,E,2,64,0.45,17.992,M,15.25,M,26,3335*7D
$GNRMC,114645.500,A,2500.8226008,N,12132.4586551,E,0.02,333.82,260623,,,D,V*0D
$GPHDT,,T*1B
$GNACCURACY,2.3*17
$GNGGA,114645.600,2500.8226008,N,12132.4586551,E,2,64,0.45,17.991,M,15.25,M,26,3335*7D
$GNRMC,114645.600,A,2500.8226008,N,12132.4586551,E,0.02,333.82,260623,,,D,V*0E
$GPHDT,,T*1B
$GNACCURACY,2.3*17
$GNGGA,114645.700,2500.8225948,N,12132.4586611,E,2,64,0.45,17.985,M,15.25,M,26,3335*70
$GNRMC,114645.700,A,2500.8225948,N,12132.4586611,E,0.02,333.82,260623,,,D,V*06
$GPHDT,,T*1B
$GNACCURACY,2.3*17
$GNGGA,114645.800,2500.8225888,N,12132.4586671,E,2,63,0.47,17.984,M,15.25,M,26,3335*70
$GNRMC,114645.800,A,2500.8225888,N,12132.4586671,E,0.02,333.82,260623,,,D,V*02
$GPHDT,,T*1B
$GNACCURACY,2.3*17
$GNGGA,114645.900,2500.8225828,N,12132.4586731,E,2,63,0.47,17.985,M,15.25,M,26,3335*7F
$GNRMC,114645.900,A,2500.8225828,N,12132.4586731,E,0.02,333.82,260623,,,D,V*0C
$GPHDT,,T*1B
$GNACCURACY,2.3*17
$GNGGA,114646.000,2500.8225768,N,12132.4586731,E,2,63,0.47,17.985,M,15.25,M,27,3335*7F
$GNRMC,114646.000,A,2500.8225768,N,12132.4586731,E,0.02,333.82,260623,,,D,V*0D
$GPHDT,,T*1B
$GNACCURACY,2.3*17
$GNGGA,114646.100,2500.8225708,N,12132.4586791,E,2,63,0.47,17.984,M,15.25,M,27,3335*73
$GNRMC,114646.100,A,2500.8225708,N,12132.4586791,E,0.01,333.82,260623,,,D,V*03
$GPHDT,,T*1B
$GNGSA,A,3,196,24,199,23,18,194,195,12,10,25,05,32,0.82,0.47,0.67,1*08
$GNGSA,A,3,73,80,85,86,71,,,,,,,,0.82,0.47,0.67,2*03
$GNGSA,A,3,13,07,08,26,30,15,,,,,,,0.82,0.47,0.67,3*05
$GNGSA,A,3,08,38,13,39,16,06,46,19,09,36,20,35,0.82,0.47,0.67,4*04
$GNGSA,A,3,37,22,29,,,,,,,,,,0.82,0.47,0.67,4*03
$GPGSV,4,1,16,196,75,071,41,24,64,035,30,199,60,167,37,23,59,345,33,1*64
$GPGSV,4,2,16,18,53,230,43,41,38,242,43,194,34,136,42,15,32,056,,1*5E
$GPGSV,4,3,16,195,30,179,36,12,26,134,42,10,25,322,44,25,15,171,28,1*5C
$GPGSV,4,4,16,05,13,125,30,32,13,277,39,13,03,063,,28,01,221,,1*64
$GPGSV,3,1,10,196,75,071,41,24,64,035,46,199,60,167,46,23,59,345,29,8*60
$GPGSV,3,2,10,18,53,230,46,194,34,136,44,195,30,179,35,10,25,322,33,8*6C
$GPGSV,3,3,10,25,15,171,25,32,13,277,36,8*6B
$GLGSV,2,1,08,73,49,153,45,80,46,060,31,70,41,024,,85,28,236,22,1*76
$GLGSV,2,2,08,86,28,290,41,71,26,324,34,69,09,084,15,79,04,027,,1*7B
$GAGSV,3,1,09,13,49,223,42,07,45,313,42,08,43,034,24,26,35,299,40,7*79
$GAGSV,3,2,09,30,32,138,43,02,27,077,,15,16,173,21,03,07,070,18,7*7C
$GAGSV,3,3,09,27,06,185,,7*45
$GAGSV,2,1,06,13,49,223,43,07,45,313,40,08,43,034,32,26,35,299,44,1*71
$GAGSV,2,2,06,30,32,138,44,15,16,173,21,1*7E
$GBGSV,4,1,15,08,84,352,39,38,82,150,43,13,71,325,43,39,69,295,43,1*74
$GBGSV,4,2,15,16,66,270,42,06,64,265,42,46,62,093,38,19,53,356,34,1*7D
$GBGSV,4,3,15,09,50,246,42,36,44,183,43,20,40,074,33,35,18,260,37,1*7D
$GBGSV,4,4,15,37,17,043,21,22,16,307,32,29,13,206,27,1*4E
$GBGSV,3,1,09,38,82,150,46,39,69,295,44,46,62,093,29,19,53,356,28,4*77
$GBGSV,3,2,09,36,44,183,45,20,40,074,27,35,18,260,30,37,17,043,23,4*79
$GBGSV,3,3,09,22,16,307,32,4*48
$GNACCURACY,2.3*17
$PAIRSAT,1,35,1,0,200,2,0,200,3,0,200,4,0,200,5,0,201,6,0,200,7,0,200,8,0,200,9,0,200,10,0,221,11,0,200,12,0,201,13,0,201,14,0,200,15,0,201,16,0,200,17,0,200,18,0,221,19,0,200,20,0,200,21,0,200,23,0,221,24,0,221,25,0,220,26,0,200,27,0,200,28,0,200,29,0,200,30,0,200,31,0,200,32,0,221,194,0,621,195,0,621,196,0,620,199,0,621*6A
$PAIRSAT,2,24,65,0,200,66,0,200,67,0,200,68,0,200,69,0,200,70,0,200,71,0,201,72,0,200,73,0,201,74,0,200,75,0,200,76,0,200,77,0,200,78,0,200,79,0,201,80,0,201,81,0,200,82,0,200,83,0,200,84,0,200,85,0,201,86,0,201,87,0,200,88,0,200*7A
$PAIRSAT,3,23,2,0,1221,3,0,1221,4,0,1200,5,0,200,7,0,1221,8,0,1221,9,0,1200,10,0,1200,11,0,1200,12,0,1200,13,0,1221,15,0,1221,19,0,1200,21,0,1200,24,0,1200,25,0,1200,26,0,1221,27,0,1200,30,0,1221,31,0,1200,33,0,1200,34,0,1200,36,0,1200*6A
$PAIRSAT,4,50,1,0,200,2,0,200,3,0,200,4,0,200,5,0,200,6,0,201,7,0,200,8,0,201,9,0,201,10,0,200,11,0,200,12,0,200,13,0,201,14,0,200,15,0,200,16,0,201,19,0,621,20,0,621,21,0,600,22,0,621,23,0,600,24,0,600,25,0,600,26,0,600,27,0,600,28,0,600,29,0,621,30,0,600,31,0,200,32,0,600,33,0,600,34,0,600,35,0,621,36,0,621,37,0,621,38,0,621,39,0,621,40,0,600,41,0,600,42,0,600,43,0,600,44,0,600,45,0,600,46,0,621,56,0,200,57,0,200,58,0,200,59,0,600,60,0,600,61,0,600*41
$PAIRDGP,10,5,10,12,15,18,23,24,25,28,32*45
$GNGGA,114646.200,2500.8225708,N,12132.4586851,E,2,63,0.47,17.981,M,15.25,M,27,3335*76
$GNRMC,114646.200,A,2500.8225708,N,12132.4586851,E,0.01,333.82,260623,,,D,V*03
$GPHDT,,T*1B
$GNACCURACY,2.2*16
$GNGGA,114646.300,2500.8225648,N,12132.4586911,E,2,63,0.47,17.981,M,15.25,M,27,3335*77
$GNRMC,114646.300,A,2500.8225648,N,12132.4586911,E,0.01,333.82,260623,,,D,V*02
$GPHDT,,T*1B
$GNACCURACY,2.2*16
$GNGGA,114646.400,2500.8225588,N,12132.4586971,E,2,63,0.47,17.982,M,15.25,M,27,3335*7A
$GNRMC,114646.400,A,2500.8225588,N,12132.4586971,E,0.02,333.82,260623,,,D,V*0F
$GPHDT,,T*1B
$GNACCURACY,2.2*16
$GNGGA,114646.500,2500.8225528,N,12132.4587031,E,2,63,0.47,17.982,M,15.25,M,27,3335*7D
$GNRMC,114646.500,A,2500.8225528,N,12132.4587031,E,0.02,333.82,260623,,,D,V*08
$GPHDT,,T*1B
$GNACCURACY,2.2*16
$GNGGA,114646.600,2500.8225468,N,12132.4587031,E,2,63,0.45,17.980,M,15.25,M,27,3335*7B
$GNRMC,114646.600,A,2500.8225468,N,12132.4587031,E,0.02,333.82,260623,,,D,V*0E
$GPHDT,,T*1B
$GNACCURACY,2.3*17
$GNGGA,114646.700,2500.8225408,N,12132.4587091,E,2,63,0.45,17.982,M,15.25,M,27,3335*74
$GNRMC,114646.700,A,2500.8225408,N,12132.4587091,E,0.02,333.82,260623,,,D,V*03
$GPHDT,,T*1B
$GNACCURACY,2.3*17
$GNGGA,114646.800,2500.8225408,N,12132.4587091,E,2,63,0.45,17.979,M,15.25,M,27,3335*7F
$GNRMC,114646.800,A,2500.8225408,N,12132.4587091,E,0.02,333.82,260623,,,D,V*0C
$GPHDT,,T*1B
$GNACCURACY,2.3*17
$GNGGA,114646.900,2500.8225348,N,12132.4587151,E,2,63,0.45,17.979,M,15.25,M,27,3335*70
$GNRMC,114646.900,A,2500.8225348,N,12132.4587151,E,0.02,333.82,260623,,,D,V*03
$GPHDT,,T*1B
$GNACCURACY,2.3*17
$GNGGA,114647.000,2500.8225288,N,12132.4587211,E,2,64,0.45,17.979,M,15.25,M,28,3335*7A
$GNRMC,114647.000,A,2500.8225288,N,12132.4587211,E,0.02,333.82,260623,,,D,V*01
$GPHDT,,T*1B
$GNACCURACY,2.3*17
$GNGGA,114647.100,2500.8225288,N,12132.4587211,E,2,64,0.45,17.976,M,15.25,M,28,3335*74
$GNRMC,114647.100,A,2500.8225288,N,12132.4587211,E,0.02,333.82,260623,,,D,V*00
$GPHDT,,T*1B
$GNGSA,A,3,196,24,199,23,18,194,195,12,10,25,05,32,0.80,0.45,0.66,1*09
$GNGSA,A,3,73,80,85,86,71,,,,,,,,0.80,0.45,0.66,2*02
$GNGSA,A,3,13,07,08,26,30,02,15,,,,,,0.80,0.45,0.66,3*06
$GNGSA,A,3,08,38,13,39,16,06,46,19,09,36,20,35,0.80,0.45,0.66,4*05
$GNGSA,A,3,37,22,29,,,,,,,,,,0.80,0.45,0.66,4*02
$GPGSV,4,1,16,196,75,071,41,24,64,035,30,199,60,167,37,23,59,345,33,1*64
$GPGSV,4,2,16,18,53,230,43,41,38,242,43,194,34,136,42,15,32,056,,1*5E
$GPGSV,4,3,16,195,30,179,36,12,26,134,42,10,25,322,44,25,15,171,28,1*5C
$GPGSV,4,4,16,05,13,125,30,32,13,277,39,13,03,063,,28,01,221,,1*64
$GPGSV,3,1,10,196,75,071,41,24,64,035,46,199,60,167,46,23,59,345,29,8*60
$GPGSV,3,2,10,18,53,230,46,194,34,136,44,195,30,179,35,10,25,322,33,8*6C
$GPGSV,3,3,10,25,15,171,25,32,13,277,36,8*6B
$GLGSV,2,1,08,73,49,153,45,80,46,060,31,70,41,024,,85,28,236,21,1*75
$GLGSV,2,2,08,86,28,290,41,71,26,324,34,69,09,084,16,79,04,027,,1*78
$GAGSV,3,1,09,13,49,223,42,07,45,313,42,08,43,034,24,26,35,299,40,7*79
$GAGSV,3,2,09,30,32,138,43,02,27,077,18,15,16,173,21,03,07,070,18,7*75
$GAGSV,3,3,09,27,06,185,,7*45
$GAGSV,2,1,06,13,49,223,43,07,45,313,40,08,43,034,32,26,35,299,44,1*71
$GAGSV,2,2,06,30,32,138,44,15,16,173,22,1*7D
$GBGSV,4,1,15,08,84,352,38,38,82,150,43,13,71,325,43,39,69,295,43,1*75
$GBGSV,4,2,15,16,66,270,42,06,64,265,42,46,62,093,38,19,53,356,34,1*7D
$GBGSV,4,3,15,09,50,246,42,36,44,183,43,20,40,074,33,35,18,260,37,1*7D
$GBGSV,4,4,15,37,17,043,22,22,16,307,32,29,13,206,27,1*4D
$GBGSV,3,1,09,38,82,150,46,39,69,295,44,46,62,093,28,19,53,356,28,4*76
$GBGSV,3,2,09,36,44,183,45,20,40,074,28,35,18,260,30,37,17,043,23,4*76
$GBGSV,3,3,09,22,16,307,33,4*49
$GNACCURACY,2.3*17
$PAIRSAT,1,35,1,0,200,2,0,200,3,0,200,4,0,200,5,0,201,6,0,200,7,0,200,8,0,200,9,0,200,10,0,221,11,0,200,12,0,201,13,0,201,14,0,200,15,0,201,16,0,200,17,0,200,18,0,221,19,0,200,20,0,200,21,0,200,23,0,221,24,0,221,25,0,220,26,0,200,27,0,200,28,0,200,29,0,200,30,0,200,31,0,200,32,0,221,194,0,621,195,0,621,196,0,620,199,0,621*6A
$PAIRSAT,2,24,65,0,200,66,0,200,67,0,200,68,0,200,69,0,200,70,0,200,71,0,201,72,0,200,73,0,201,74,0,200,75,0,200,76,0,200,77,0,200,78,0,200,79,0,201,80,0,201,81,0,200,82,0,200,83,0,200,84,0,200,85,0,201,86,0,201,87,0,200,88,0,200*7A
$PAIRSAT,3,23,2,0,1221,3,0,1221,4,0,1200,5,0,200,7,0,1221,8,0,1221,9,0,1200,10,0,1200,11,0,1200,12,0,1200,13,0,1221,15,0,1221,19,0,1200,21,0,1200,24,0,1200,25,0,1200,26,0,1221,27,0,1200,30,0,1221,31,0,1200,33,0,1200,34,0,1200,36,0,1200*6A
$PAIRSAT,4,50,1,0,200,2,0,200,3,0,200,4,0,200,5,0,200,6,0,201,7,0,200,8,0,201,9,0,201,10,0,200,11,0,200,12,0,200,13,0,201,14,0,200,15,0,200,16,0,201,19,0,621,20,0,621,21,0,600,22,0,621,23,0,600,24,0,600,25,0,600,26,0,600,27,0,600,28,0,600,29,0,621,30,0,600,31,0,200,32,0,600,33,0,600,34,0,600,35,0,621,36,0,621,37,0,621,38,0,621,39,0,621,40,0,600,41,0,600,42,0,600,43,0,600,44,0,600,45,0,600,46,0,621,56,0,200,57,0,200,58,0,200,59,0,600,60,0,600,61,0,600*41
$PAIRDGP,10,5,10,12,15,18,23,24,25,28,32*45
$GNGGA,114647.200,2500.8225228,N,12132.4587271,E,2,64,0.45,17.977,M,15.25,M,28,3335*7A
$GNRMC,114647.200,A,2500.8225228,N,12132.4587271,E,0.02,333.82,260623,,,D,V*0F
$GPHDT,,T*1B
$GNACCURACY,2.2*16
$GNGGA,114647.300,2500.8225168,N,12132.4587331,E,2,64,0.45,17.973,M,15.25,M,28,3335*7D
$GNRMC,114647.300,A,2500.8225168,N,12132.4587331,E,0.02,333.82,260623,,,D,V*0C
$GPHDT,,T*1B
$GNACCURACY,2.2*16
$GNGGA,114647.400,2500.8225108,N,12132.4587391,E,2,64,0.45,17.971,M,15.25,M,28,3335*74
$GNRMC,114647.400,A,2500.8225108,N,12132.4587391,E,0.02,333.82,260623,,,D,V*07
$GPHDT,,T*1B
$GNACCURACY,2.2*16
$GNGGA,114647.500,2500.8225048,N,12132.4587391,E,2,64,0.45,17.965,M,15.25,M,28,3335*75
$GNRMC,114647.500,A,2500.8225048,N,12132.4587391,E,0.02,333.82,260623,,,D,V*03
$GPHDT,,T*1B
$GNACCURACY,2.2*16
$GNGGA,114647.600,2500.8224988,N,12132.4587451,E,2,64,0.45,17.961,M,15.25,M,28,3335*7D
$GNRMC,114647.600,A,2500.8224988,N,12132.4587451,E,0.02,333.82,260623,,,D,V*0F
$GPHDT,,T*1B
$GNACCURACY,2.2*16
$GNGGA,114647.700,2500.8224988,N,12132.4587511,E,2,64,0.45,17.956,M,15.25,M,28,3335*7D
$GNRMC,114647.700,A,2500.8224988,N,12132.4587511,E,0.02,333.82,260623,,,D,V*0B
$GPHDT,,T*1B
$GNACCURACY,2.2*16
$GNGGA,114647.800,2500.8224928,N,12132.4587511,E,2,64,0.45,17.951,M,15.25,M,28,3335*7F
$GNRMC,114647.800,A,2500.8224928,N,12132.4587511,E,0.02,333.82,260623,,,D,V*0E
$GPHDT,,T*1B
$GNACCURACY,2.2*16
$GNGGA,114647.900,2500.8224868,N,12132.4587571,E,2,64,0.45,17.948,M,15.25,M,28,3335*75
$GNRMC,114647.900,A,2500.8224868,N,12132.4587571,E,0.02,333.82,260623,,,D,V*0C
$GPHDT,,T*1B
$GNACCURACY,2.2*16
$GNGGA,114648.000,2500.8224808,N,12132.4587631,E,2,64,0.45,17.944,M,15.25,M,29,3335*7F
$GNRMC,114648.000,A,2500.8224808,N,12132.4587631,E,0.02,333.82,260623,,,D,V*0B
$GPHDT,,T*1B
$GNACCURACY,2.2*16
$GNGGA,114648.100,2500.8224748,N,12132.4587691,E,2,64,0.45,17.941,M,15.25,M,29,3335*7A
$GNRMC,114648.100,A,2500.8224748,N,12132.4587691,E,0.02,333.82,260623,,,D,V*0B
$GPHDT,,T*1B
$GNGSA,A,3,196,24,199,23,18,194,195,12,10,25,05,32,0.80,0.45,0.66,1*09
$GNGSA,A,3,73,80,85,86,71,,,,,,,,0.80,0.45,0.66,2*02
$GNGSA,A,3,13,07,08,26,30,02,15,,,,,,0.80,0.45,0.66,3*06
$GNGSA,A,3,08,38,13,39,16,06,46,19,09,36,20,35,0.80,0.45,0.66,4*05
$GNGSA,A,3,37,22,29,,,,,,,,,,0.80,0.45,0.66,4*02
$GPGSV,4,1,14,196,75,071,41,24,64,035,30,199,60,167,37,23,59,345,33,1*66
$GPGSV,4,2,14,18,53,230,43,41,38,242,43,194,34,136,42,15,32,056,,1*5C
$GPGSV,4,3,14,195,30,179,36,12,26,134,42,10,25,322,44,25,15,171,28,1*5E
$GPGSV,4,4,14,05,13,125,30,32,13,277,39,1*68
$GPGSV,3,1,10,196,75,071,42,24,64,035,46,199,60,167,46,23,59,345,29,8*63
$GPGSV,3,2,10,18,53,230,46,194,34,136,44,195,30,179,36,10,25,322,32,8*6E
$GPGSV,3,3,10,25,15,171,25,32,13,277,36,8*6B
$GLGSV,2,1,07,73,49,153,45,80,46,060,32,85,28,236,19,86,28,290,41,1*7C
$GLGSV,2,2,07,71,26,324,34,69,09,084,16,79,04,027,,1*4D
$GAGSV,3,1,09,13,49,223,42,07,45,313,42,08,43,034,24,26,35,299,40,7*79
$GAGSV,3,2,09,30,32,138,43,02,27,077,18,15,16,173,21,03,07,070,18,7*75
$GAGSV,3,3,09,27,06,185,,7*45
$GAGSV,2,1,07,13,49,223,43,07,45,313,40,08,43,034,32,26,35,299,44,1*70
$GAGSV,2,2,07,30,32,138,44,15,16,173,22,03,07,070,17,1*49
$GBGSV,4,1,15,08,84,352,38,38,82,150,43,13,71,325,43,39,69,295,43,1*75
$GBGSV,4,2,15,16,66,270,42,06,64,265,42,46,62,093,38,19,53,356,34,1*7D
$GBGSV,4,3,15,09,50,246,42,36,44,183,43,20,40,074,32,35,18,260,36,1*7D
$GBGSV,4,4,15,37,17,043,24,22,16,307,32,29,13,206,26,1*4A
$GBGSV,3,1,09,38,82,150,46,39,69,295,44,46,62,093,28,19,53,356,28,4*76
$GBGSV,3,2,09,36,44,183,45,20,40,074,27,35,18,260,30,37,17,043,24,4*7E
$GBGSV,3,3,09,22,16,307,33,4*49
$GNACCURACY,2.2*16
$PAIRSAT,1,35,1,0,200,2,0,200,3,0,200,4,0,200,5,0,201,6,0,200,7,0,200,8,0,200,9,0,200,10,0,221,11,0,200,12,0,201,13,0,201,14,0,200,15,0,201,16,0,200,17,0,200,18,0,221,19,0,200,20,0,200,21,0,200,23,0,221,24,0,221,25,0,220,26,0,200,27,0,200,28,0,200,29,0,200,30,0,200,31,0,200,32,0,221,194,0,621,195,0,621,196,0,620,199,0,621*6A
$PAIRSAT,2,24,65,0,200,66,0,200,67,0,200,68,0,200,69,0,200,70,0,200,71,0,201,72,0,200,73,0,201,74,0,200,75,0,200,76,0,200,77,0,200,78,0,200,79,0,201,80,0,201,81,0,200,82,0,200,83,0,200,84,0,200,85,0,201,86,0,201,87,0,200,88,0,200*7A
$PAIRSAT,3,23,2,0,1221,3,0,1221,4,0,1200,5,0,200,7,0,1221,8,0,1221,9,0,1200,10,0,1200,11,0,1200,12,0,1200,13,0,1221,15,0,1221,19,0,1200,21,0,1200,24,0,1200,25,0,1200,26,0,1221,27,0,1200,30,0,1221,31,0,1200,33,0,1200,34,0,1200,36,0,1200*6A
$PAIRSAT,4,50,1,0,200,2,0,200,3,0,200,4,0,200,5,0,200,6,0,201,7,0,200,8,0,201,9,0,201,10,0,200,11,0,200,12,0,200,13,0,201,14,0,200,15,0,200,16,0,201,19,0,621,20,0,621,21,0,600,22,0,621,23,0,600,24,0,600,25,0,600,26,0,600,27,0,600,28,0,600,29,0,621,30,0,600,31,0,200,32,0,600,33,0,600,34,0,600,35,0,621,36,0,621,37,0,621,38,0,621,39,0,621,40,0,600,41,0,600,42,0,600,43,0,600,44,0,600,45,0,600,46,0,621,56,0,200,57,0,200,58,0,200,59,0,600,60,0,600,61,0,600*41
$PAIRDGP,9,5,10,12,15,18,23,24,25,32*5B
$GNGGA,114648.200,2500.8224688,N,12132.4587691,E,2,64,0.45,17.936,M,15.25,M,29,3335*74
$GNRMC,114648.200,A,2500.8224688,N,12132.4587691,E,0.01,333.82,260623,,,D,V*06
$GPHDT,,T*1B
$GNACCURACY,2.3*17
$GNGGA,114648.300,2500.8224628,N,12132.4587751,E,2,64,0.45,17.937,M,15.25,M,29,3335*73
$GNRMC,114648.300,A,2500.8224628,N,12132.4587751,E,0.02,333.82,260623,,,D,V*03
$GPHDT,,T*1B
$GNACCURACY,2.2*16
$GNGGA,114648.400,2500.8224568,N,12132.4587751,E,2,64,0.45,17.935,M,15.25,M,29,3335*71
$GNRMC,114648.400,A,2500.8224568,N,12132.4587751,E,0.02,333.82,260623,,,D,V*03
$GPHDT,,T*1B
$GNACCURACY,2.2*16
$GNGGA,114648.500,2500.8224568,N,12132.4587811,E,2,64,0.45,17.932,M,15.25,M,29,3335*7C
$GNRMC,114648.500,A,2500.8224568,N,12132.4587811,E,0.02,333.82,260623,,,D,V*09
$GPHDT,,T*1B
$GNACCURACY,2.2*16
$GNGGA,114648.600,2500.8224508,N,12132.4587811,E,2,64,0.45,17.930,M,15.25,M,29,3335*7B
$GNRMC,114648.600,A,2500.8224508,N,12132.4587811,E,0.02,333.82,260623,,,D,V*0C
$GPHDT,,T*1B
$GNACCURACY,2.2*16
$GNGGA,114648.700,2500.8224448,N,12132.4587871,E,2,64,0.45,17.926,M,15.25,M,29,3335*7E
$GNRMC,114648.700,A,2500.8224448,N,12132.4587871,E,0.01,333.82,260623,,,D,V*0D
$GPHDT,,T*1B
$GNACCURACY,2.2*16
$GNGGA,114648.800,2500.8224388,N,12132.4587931,E,2,64,0.45,17.921,M,15.25,M,29,3335*78
$GNRMC,114648.800,A,2500.8224388,N,12132.4587931,E,0.01,333.82,260623,,,D,V*0C
$GPHDT,,T*1B
