$FW : RTK35X,V1.1X0314AS,Lib20210517,1*54
$Tool : LOCOSYS , GNSS Firebird , v1.0.0.19*39
$---------------------------------------------------*2D
$GNACCURACY,2.4*10
$GNGGA,114747.800,2500.8226261,N,12132.4608431,E,4,62,0.45,16.037,M,15.25,M,2,3335*4D
$GNRMC,114747.800,A,2500.8226261,N,12132.4608431,E,0.00,333.82,260623,,,R,V*18
$GPHDT,227.592,T*3C
$GNACCURACY,2.4*10
$GNGGA,114747.900,2500.8226275,N,12132.4608422,E,4,63,0.45,16.025,M,15.25,M,2,3335*49
$GNRMC,114747.900,A,2500.8226275,N,12132.4608422,E,0.01,333.82,260623,,,R,V*1F
$GPHDT,,T*1B
$GNACCURACY,2.4*10
$GNGGA,114748.000,2500.8226271,N,12132.4608428,E,4,63,0.45,16.039,M,15.25,M,3,3335*4D
$GNRMC,114748.000,A,2500.8226271,N,12132.4608428,E,0.00,333.82,260623,,,R,V*16
$GPHDT,228.309,T*37
$GNACCURACY,2.4*10
$GNGGA,114748.100,2500.8226302,N,12132.4608437,E,4,63,0.45,16.021,M,15.25,M,3,3335*4E
$GNRMC,114748.100,A,2500.8226302,N,12132.4608437,E,0.01,333.82,260623,,,R,V*1D
$GPHDT,,T*1B
$GNGSA,A,3,196,24,199,23,18,194,15,195,12,10,25,32,0.72,0.45,0.56,1*06
$GNGSA,A,3,73,80,86,85,71,,,,,,,,0.72,0.45,0.56,2*0C
$GNGSA,A,3,13,07,08,26,30,02,15,,,,,,0.72,0.45,0.56,3*08
$GNGSA,A,3,08,38,13,39,16,06,46,19,09,36,20,35,0.72,0.45,0.56,4*0B
$GNGSA,A,3,37,22,29,,,,,,,,,,0.72,0.45,0.56,4*0C
$GPGSV,4,1,16,196,75,072,40,24,63,035,35,199,60,167,36,23,60,345,33,1*6F
$GPGSV,4,2,16,18,52,230,46,41,38,242,44,194,34,136,39,15,32,057,32,1*51
$GPGSV,4,3,16,195,30,179,38,12,27,133,39,10,25,323,37,25,16,171,21,1*57
$GPGSV,4,4,16,32,13,277,29,05,12,126,15,13,03,064,,28,02,221,,1*64
$GPGSV,3,1,09,196,75,072,43,24,63,035,46,199,60,167,46,23,60,345,32,8*6E
$GPGSV,3,2,09,18,52,230,48,194,34,136,46,195,30,179,36,10,25,323,24,8*6D
$GPGSV,3,3,09,32,13,277,31,8*57
$GLGSV,3,1,09,73,49,153,41,80,46,059,29,70,41,025,,86,28,289,35,1*71
$GLGSV,3,2,09,85,27,235,17,71,26,324,26,74,12,185,,69,09,084,17,1*79
$GLGSV,3,3,09,79,03,027,,1*49
$GAGSV,3,1,09,13,49,222,41,07,46,314,39,08,43,034,31,26,35,298,33,7*72
$GAGSV,3,2,09,30,32,138,42,02,27,077,26,15,15,173,21,27,07,185,,7*7E
$GAGSV,3,3,09,03,07,071,,7*48
$GAGSV,2,1,07,13,49,222,43,07,46,314,37,08,43,034,31,26,35,298,35,1*71
$GAGSV,2,2,07,30,32,138,44,15,15,173,22,03,07,071,11,1*4D
$GBGSV,4,1,15,08,84,351,38,38,81,151,42,13,71,324,43,39,69,295,45,1*72
$GBGSV,4,2,15,16,66,270,43,06,64,266,43,46,62,092,35,19,53,357,24,1*72
$GBGSV,4,3,15,09,50,247,41,36,44,183,43,20,40,074,23,35,18,260,38,1*71
$GBGSV,4,4,15,37,17,043,26,22,16,308,28,29,13,206,29,1*43
$GBGSV,3,1,09,38,81,151,44,39,69,295,46,46,62,092,32,19,53,357,29,4*7E
$GBGSV,3,2,09,36,44,183,45,20,40,074,29,35,18,260,31,37,17,043,30,4*74
$GBGSV,3,3,09,22,16,308,29,4*4D
$GNACCURACY,2.4*10
$PAIRSAT,1,35,1,0,200,2,0,200,3,0,200,4,0,200,5,0,201,6,0,200,7,0,200,8,0,200,9,0,200,10,0,221,11,0,200,12,0,201,13,0,201,14,0,200,15,0,201,16,0,200,17,0,200,18,0,221,19,0,200,20,0,200,21,0,200,23,0,221,24,0,221,25,0,220,26,0,200,27,0,200,28,0,200,29,0,200,30,0,200,31,0,200,32,0,221,194,0,621,195,0,621,196,0,620,199,0,621*6A
$PAIRSAT,2,24,65,0,200,66,0,200,67,0,200,68,0,200,69,0,200,70,0,200,71,0,201,72,0,200,73,0,201,74,0,200,75,0,200,76,0,200,77,0,200,78,0,200,79,0,201,80,0,201,81,0,200,82,0,200,83,0,200,84,0,200,85,0,201,86,0,201,87,0,200,88,0,200*7A
$PAIRSAT,3,23,2,0,1221,3,0,1221,4,0,1200,5,0,200,7,0,1221,8,0,1221,9,0,1200,10,0,1200,11,0,1200,12,0,1200,13,0,1221,15,0,1221,19,0,1200,21,0,1200,24,0,1200,25,0,1200,26,0,1221,27,0,1200,30,0,1221,31,0,1200,33,0,1200,34,0,1200,36,0,1200*6A
$PAIRSAT,4,50,1,0,200,2,0,200,3,0,200,4,0,200,5,0,200,6,0,201,7,0,200,8,0,201,9,0,201,10,0,200,11,0,200,12,0,200,13,0,201,14,0,200,15,0,200,16,0,201,19,0,621,20,0,621,21,0,600,22,0,621,23,0,600,24,0,600,25,0,600,26,0,600,27,0,600,28,0,600,29,0,621,30,0,600,31,0,200,32,0,600,33,0,600,34,0,600,35,0,621,36,0,621,37,0,621,38,0,621,39,0,621,40,0,600,41,0,600,42,0,600,43,0,600,44,0,600,45,0,600,46,0,621,56,0,200,57,0,200,58,0,200,59,0,600,60,0,600,61,0,600*41
$PAIRDGP,10,5,10,12,15,18,23,24,25,28,32*45
$GNGGA,114748.200,2500.8226322,N,12132.4608453,E,4,63,0.45,16.012,M,15.25,M,3,3335*4D
$GNRMC,114748.200,A,2500.8226322,N,12132.4608453,E,0.01,333.82,260623,,,R,V*1E
$GPHDT,227.575,T*35
$GNACCURACY,2.4*10
$GNGGA,114748.300,2500.8226321,N,12132.4608433,E,4,63,0.45,16.021,M,15.25,M,3,3335*49
$GNRMC,114748.300,A,2500.8226321,N,12132.4608433,E,0.02,333.82,260623,,,R,V*19
$GPHDT,,T*1B
$GNACCURACY,2.4*10
$GNGGA,114748.400,2500.8226144,N,12132.4608408,E,4,63,0.45,15.997,M,15.25,M,3,3335*40
$GNRMC,114748.400,A,2500.8226144,N,12132.4608408,E,0.01,333.82,260623,,,R,V*14
$GPHDT,227.362,T*35
$GNACCURACY,2.4*10
$GNGGA,114748.500,2500.8226097,N,12132.4608421,E,4,63,0.45,16.035,M,15.25,M,3,3335*47
$GNRMC,114748.500,A,2500.8226097,N,12132.4608421,E,0.01,333.82,260623,,,R,V*11
$GPHDT,,T*1B
$GNACCURACY,2.4*10
$GNGGA,114748.600,2500.8226075,N,12132.4608397,E,4,63,0.45,16.041,M,15.25,M,3,3335*41
$GNRMC,114748.600,A,2500.8226075,N,12132.4608397,E,0.01,333.82,260623,,,R,V*14
$GPHDT,226.780,T*3C
$GNACCURACY,2.4*10
$GNGGA,114748.700,2500.8226077,N,12132.4608401,E,4,63,0.45,16.045,M,15.25,M,3,3335*4E
$GNRMC,114748.700,A,2500.8226077,N,12132.4608401,E,0.02,333.82,260623,,,R,V*1C
$GPHDT,,T*1B
$GNACCURACY,2.4*10
$GNGGA,114748.800,2500.8226092,N,12132.4608441,E,4,63,0.45,16.033,M,15.25,M,3,3335*4F
$GNRMC,114748.800,A,2500.8226092,N,12132.4608441,E,0.02,333.82,260623,,,R,V*1C
$GPHDT,226.480,T*3F
$GNACCURACY,2.4*10
$GNGGA,114748.900,2500.8226100,N,12132.4608440,E,4,63,0.45,16.027,M,15.25,M,3,3335*40
$GNRMC,114748.900,A,2500.8226100,N,12132.4608440,E,0.02,333.82,260623,,,R,V*16
$GPHDT,,T*1B
$GNACCURACY,2.4*10
$GNGGA,114749.000,2500.8226055,N,12132.4608415,E,4,62,0.45,16.051,M,15.25,M,4,3335*4E
$GNRMC,114749.000,A,2500.8226055,N,12132.4608415,E,0.02,333.82,260623,,,R,V*1F
$GPHDT,226.719,T*3C
$GNACCURACY,2.4*10
$GNGGA,114749.100,2500.8226050,N,12132.4608405,E,4,62,0.45,16.054,M,15.25,M,4,3335*4E
$GNRMC,114749.100,A,2500.8226050,N,12132.4608405,E,0.01,333.82,260623,,,R,V*19
$GPHDT,,T*1B
$GNGSA,A,3,196,24,199,23,18,194,15,195,12,10,25,32,0.72,0.45,0.56,1*06
$GNGSA,A,3,73,80,86,85,71,,,,,,,,0.72,0.45,0.56,2*0C
$GNGSA,A,3,13,07,08,26,30,02,15,,,,,,0.72,0.45,0.56,3*08
$GNGSA,A,3,08,38,13,39,16,06,46,19,09,36,20,35,0.72,0.45,0.56,4*0B
$GNGSA,A,3,37,22,29,,,,,,,,,,0.72,0.45,0.56,4*0C
$GPGSV,4,1,16,196,75,072,40,24,63,035,35,199,60,167,36,23,60,345,32,1*6E
$GPGSV,4,2,16,18,52,230,46,41,38,242,43,194,34,136,39,15,32,057,31,1*55
$GPGSV,4,3,16,195,30,179,38,12,27,133,39,10,25,323,38,25,16,171,19,1*53
$GPGSV,4,4,16,32,14,277,29,05,12,126,16,13,03,064,,28,02,221,,1*60
$GPGSV,3,1,09,196,75,072,43,24,63,035,46,199,60,167,46,23,60,345,31,8*6D
$GPGSV,3,2,09,18,52,230,48,194,34,136,46,195,30,179,35,10,25,323,23,8*69
$GPGSV,3,3,09,32,14,277,29,8*59
$GLGSV,2,1,08,73,49,153,41,80,46,059,29,70,41,025,,86,28,289,37,1*73
$GLGSV,2,2,08,85,27,235,19,71,26,324,28,69,09,084,15,79,03,027,,1*7F
$GAGSV,3,1,09,13,49,222,41,07,46,314,39,08,43,034,32,26,35,298,33,7*71
$GAGSV,3,2,09,30,32,138,42,02,27,077,26,15,15,173,21,27,07,185,,7*7E
$GAGSV,3,3,09,03,07,071,,7*48
$GAGSV,2,1,06,13,49,222,43,07,46,314,37,08,43,034,31,26,35,298,37,1*72
$GAGSV,2,2,06,30,32,138,44,03,07,071,09,1*70
$GBGSV,4,1,15,08,84,351,39,38,81,151,42,13,71,324,43,39,69,295,45,1*73
$GBGSV,4,2,15,16,66,270,43,06,64,266,43,46,62,092,35,19,53,357,22,1*74
$GBGSV,4,3,15,09,50,247,41,36,44,183,43,20,40,074,20,35,18,260,38,1*72
$GBGSV,4,4,15,37,17,043,27,22,16,308,30,29,13,206,25,1*47
$GBGSV,3,1,09,38,81,151,44,39,69,295,46,46,62,092,32,19,53,357,30,4*76
$GBGSV,3,2,09,36,44,183,45,20,40,074,28,35,18,260,30,37,17,043,28,4*7D
$GBGSV,3,3,09,22,16,308,30,4*45
$GNACCURACY,2.4*10
$PAIRSAT,1,35,1,0,200,2,0,200,3,0,200,4,0,200,5,0,201,6,0,200,7,0,200,8,0,200,9,0,200,10,0,221,11,0,200,12,0,201,13,0,201,14,0,200,15,0,201,16,0,200,17,0,200,18,0,221,19,0,200,20,0,200,21,0,200,23,0,221,24,0,221,25,0,220,26,0,200,27,0,200,28,0,200,29,0,200,30,0,200,31,0,200,32,0,221,194,0,621,195,0,621,196,0,620,199,0,621*6A
$PAIRSAT,2,24,65,0,200,66,0,200,67,0,200,68,0,200,69,0,200,70,0,200,71,0,201,72,0,200,73,0,201,74,0,200,75,0,200,76,0,200,77,0,200,78,0,200,79,0,201,80,0,201,81,0,200,82,0,200,83,0,200,84,0,200,85,0,201,86,0,201,87,0,200,88,0,200*7A
$PAIRSAT,3,23,2,0,1221,3,0,1221,4,0,1200,5,0,200,7,0,1221,8,0,1221,9,0,1200,10,0,1200,11,0,1200,12,0,1200,13,0,1221,15,0,1221,19,0,1200,21,0,1200,24,0,1200,25,0,1200,26,0,1221,27,0,1200,30,0,1221,31,0,1200,33,0,1200,34,0,1200,36,0,1200*6A
$PAIRSAT,4,50,1,0,200,2,0,200,3,0,200,4,0,200,5,0,200,6,0,201,7,0,200,8,0,201,9,0,201,10,0,200,11,0,200,12,0,200,13,0,201,14,0,200,15,0,200,16,0,201,19,0,621,20,0,621,21,0,600,22,0,621,23,0,600,24,0,600,25,0,600,26,0,600,27,0,600,28,0,600,29,0,621,30,0,600,31,0,200,32,0,600,33,0,600,34,0,600,35,0,621,36,0,621,37,0,621,38,0,621,39,0,621,40,0,600,41,0,600,42,0,600,43,0,600,44,0,600,45,0,600,46,0,621,56,0,200,57,0,200,58,0,200,59,0,600,60,0,600,61,0,600*41
$PAIRDGP,10,5,10,12,15,18,23,24,25,28,32*45
$GNGGA,114749.200,2500.8226087,N,12132.4608406,E,4,62,0.45,16.039,M,15.25,M,4,3335*4F
$GNRMC,114749.200,A,2500.8226087,N,12132.4608406,E,0.01,333.82,260623,,,R,V*13
$GPHDT,226.884,T*37
$GNACCURACY,2.4*10
$GNGGA,114749.300,2500.8226064,N,12132.4608408,E,4,62,0.45,16.043,M,15.25,M,4,3335*40
$GNRMC,114749.300,A,2500.8226064,N,12132.4608408,E,0.01,333.82,260623,,,R,V*11
$GPHDT,,T*1B
$GNACCURACY,2.4*10
$GNGGA,114749.400,2500.8226069,N,12132.4608411,E,4,62,0.45,16.031,M,15.25,M,4,3335*47
$GNRMC,114749.400,A,2500.8226069,N,12132.4608411,E,0.01,333.82,260623,,,R,V*13
$GPHDT,227.210,T*31
$GNACCURACY,2.4*10
$GNGGA,114749.500,2500.8226124,N,12132.4608410,E,4,62,0.45,16.028,M,15.25,M,4,3335*47
$GNRMC,114749.500,A,2500.8226124,N,12132.4608410,E,0.01,333.82,260623,,,R,V*1B
$GPHDT,,T*1B
$GNACCURACY,2.4*10
$GNGGA,114749.600,2500.8226106,N,12132.4608395,E,4,62,0.45,16.029,M,15.25,M,4,3335*4F
$GNRMC,114749.600,A,2500.8226106,N,12132.4608395,E,0.01,333.82,260623,,,R,V*12
$GPHDT,226.887,T*34
$GNACCURACY,2.4*10
$GNGGA,114749.700,2500.8226081,N,12132.4608439,E,4,62,0.45,16.021,M,15.25,M,1,3335*4C
$GNRMC,114749.700,A,2500.8226081,N,12132.4608439,E,0.01,333.82,260623,,,R,V*1C
$GPHDT,,T*1B
$GNACCURACY,2.4*10
$GNGGA,114749.800,2500.8226076,N,12132.4608446,E,4,62,0.45,16.025,M,15.25,M,1,3335*47
$GNRMC,114749.800,A,2500.8226076,N,12132.4608446,E,0.01,333.82,260623,,,R,V*13
$GPHDT,226.849,T*36
$GNACCURACY,2.4*10
$GNGGA,114749.900,2500.8226082,N,12132.4608455,E,4,62,0.45,16.024,M,15.25,M,0,3335*4F
$GNRMC,114749.900,A,2500.8226082,N,12132.4608455,E,0.01,333.82,260623,,,R,V*1B
$GPHDT,,T*1B
$GNACCURACY,2.4*10
$GNGGA,114750.000,2500.8226075,N,12132.4608496,E,4,62,0.45,16.018,M,15.25,M,1,3335*47
$GNRMC,114750.000,A,2500.8226075,N,12132.4608496,E,0.02,333.82,260623,,,R,V*1E
$GPHDT,227.258,T*3D
$GNACCURACY,2.4*10
$GNGGA,114750.100,2500.8226088,N,12132.4608507,E,4,62,0.45,16.014,M,15.25,M,1,3335*41
$GNRMC,114750.100,A,2500.8226088,N,12132.4608507,E,0.02,333.82,260623,,,R,V*14
$GPHDT,,T*1B
$GNGSA,A,3,196,24,199,23,18,194,15,195,12,10,25,32,0.72,0.45,0.56,1*06
$GNGSA,A,3,73,80,86,85,71,,,,,,,,0.72,0.45,0.56,2*0C
$GNGSA,A,3,13,07,08,26,30,02,15,,,,,,0.72,0.45,0.56,3*08
$GNGSA,A,3,08,38,13,39,16,06,46,19,09,36,20,35,0.72,0.45,0.56,4*0B
$GNGSA,A,3,37,22,29,,,,,,,,,,0.72,0.45,0.56,4*0C
$GPGSV,4,1,16,196,75,072,40,24,63,035,35,199,60,167,36,23,60,345,32,1*6E
$GPGSV,4,2,16,18,52,230,46,41,38,242,43,194,34,136,39,15,32,057,31,1*55
$GPGSV,4,3,16,195,30,179,38,12,27,133,39,10,25,323,36,25,16,171,18,1*5C
$GPGSV,4,4,16,32,14,277,30,05,12,126,17,13,03,064,,28,02,221,,1*69
$GPGSV,3,1,09,196,75,072,43,24,63,035,46,199,60,167,46,23,60,345,31,8*6D
$GPGSV,3,2,09,18,52,230,48,194,34,136,46,195,30,179,35,10,25,323,29,8*63
$GPGSV,3,3,09,32,14,277,24,8*54
$GLGSV,2,1,08,73,49,153,40,80,46,059,30,70,41,025,,86,28,289,37,1*7A
$GLGSV,2,2,08,85,27,235,21,71,26,324,24,69,09,084,15,79,03,027,16,1*7F
$GAGSV,3,1,09,13,49,222,41,07,46,314,39,08,43,034,32,26,35,298,40,7*75
$GAGSV,3,2,09,30,32,138,42,02,27,076,26,15,15,173,21,27,07,185,,7*7F
$GAGSV,3,3,09,03,07,071,,7*48
$GAGSV,2,1,06,13,49,222,43,07,46,314,37,08,43,034,31,26,35,298,42,1*70
$GAGSV,2,2,06,30,32,138,44,03,07,071,11,1*79
$GBGSV,4,1,15,08,84,351,39,38,81,151,42,13,71,324,43,39,69,295,45,1*73
$GBGSV,4,2,15,16,66,270,43,06,64,266,43,46,62,092,35,19,53,357,25,1*73
$GBGSV,4,3,15,09,50,247,41,36,44,183,42,20,40,074,21,35,18,260,39,1*73
$GBGSV,4,4,15,37,17,043,27,22,16,308,29,29,13,206,25,1*4F
$GBGSV,3,1,09,38,81,151,44,39,69,295,46,46,62,092,32,19,53,357,30,4*76
$GBGSV,3,2,09,36,44,183,45,20,40,074,28,35,18,260,33,37,17,043,29,4*7F
$GBGSV,3,3,09,22,16,308,33,4*46
$GNACCURACY,2.4*10
$PAIRSAT,1,35,1,0,200,2,0,200,3,0,200,4,0,200,5,0,201,6,0,200,7,0,200,8,0,200,9,0,200,10,0,221,11,0,200,12,0,201,13,0,201,14,0,200,15,0,201,16,0,200,17,0,200,18,0,221,19,0,200,20,0,200,21,0,200,23,0,221,24,0,221,25,0,220,26,0,200,27,0,200,28,0,200,29,0,200,30,0,200,31,0,200,32,0,221,194,0,621,195,0,621,196,0,620,199,0,621*6A
$PAIRSAT,2,24,65,0,200,66,0,200,67,0,200,68,0,200,69,0,200,70,0,200,71,0,201,72,0,200,73,0,201,74,0,200,75,0,200,76,0,200,77,0,200,78,0,200,79,0,201,80,0,201,81,0,200,82,0,200,83,0,200,84,0,200,85,0,201,86,0,201,87,0,200,88,0,200*7A
$PAIRSAT,3,23,2,0,1221,3,0,1221,4,0,1200,5,0,200,7,0,1221,8,0,1221,9,0,1200,10,0,1200,11,0,1200,12,0,1200,13,0,1221,15,0,1221,19,0,1200,21,0,1200,24,0,1200,25,0,1200,26,0,1221,27,0,1200,30,0,1221,31,0,1200,33,0,1200,34,0,1200,36,0,1200*6A
$PAIRSAT,4,50,1,0,200,2,0,200,3,0,200,4,0,200,5,0,200,6,0,201,7,0,200,8,0,201,9,0,201,10,0,200,11,0,200,12,0,200,13,0,201,14,0,200,15,0,200,16,0,201,19,0,621,20,0,621,21,0,600,22,0,621,23,0,600,24,0,600,25,0,600,26,0,600,27,0,600,28,0,600,29,0,621,30,0,600,31,0,200,32,0,600,33,0,600,34,0,600,35,0,621,36,0,621,37,0,621,38,0,621,39,0,621,40,0,600,41,0,600,42,0,600,43,0,600,44,0,600,45,0,600,46,0,621,56,0,200,57,0,200,58,0,200,59,0,600,60,0,600,61,0,600*41
$PAIRDGP,10,5,10,12,15,18,23,24,25,28,32*45
$GNGGA,114750.200,2500.8226101,N,12132.4608488,E,4,62,0.45,16.013,M,15.25,M,1,3335*43
$GNRMC,114750.200,A,2500.8226101,N,12132.4608488,E,0.01,333.82,260623,,,R,V*12
$GPHDT,227.003,T*31
$GNACCURACY,2.4*10
$GNGGA,114750.300,2500.8226070,N,12132.4608472,E,4,63,0.45,16.027,M,15.25,M,1,3335*46
$GNRMC,114750.300,A,2500.8226070,N,12132.4608472,E,0.01,333.82,260623,,,R,V*11
$GPHDT,,T*1B
$GNACCURACY,2.4*10
$GNGGA,114750.400,2500.8226073,N,12132.4608478,E,4,63,0.45,16.024,M,15.25,M,1,3335*4B
$GNRMC,114750.400,A,2500.8226073,N,12132.4608478,E,0.02,333.82,260623,,,R,V*1C
$GPHDT,227.229,T*3B
$GNACCURACY,2.4*10
$GNGGA,114750.500,2500.8226106,N,12132.4608487,E,4,63,0.45,16.003,M,15.25,M,1,3335*4C
$GNRMC,114750.500,A,2500.8226106,N,12132.4608487,E,0.02,333.82,260623,,,R,V*1E
$GPHDT,,T*1B
$GNACCURACY,2.4*10
$GNGGA,114750.600,2500.8226236,N,12132.4608542,E,4,63,0.45,16.028,M,15.25,M,1,3335*4E
$GNRMC,114750.600,A,2500.8226236,N,12132.4608542,E,0.01,333.82,260623,,,R,V*16
$GPHDT,227.407,T*31
$GNACCURACY,2.4*10
$GNGGA,114750.700,2500.8226225,N,12132.4608489,E,4,64,0.43,16.040,M,15.25,M,1,3335*44
$GNRMC,114750.700,A,2500.8226225,N,12132.4608489,E,0.02,333.82,260623,,,R,V*10
$GPHDT,,T*1B
$GNACCURACY,2.4*10
$GNGGA,114750.800,2500.8226122,N,12132.4608522,E,4,63,0.45,16.017,M,15.25,M,1,3335*4C
$GNRMC,114750.800,A,2500.8226122,N,12132.4608522,E,0.02,333.82,260623,,,R,V*1B
$GPHDT,227.695,T*38
$GNACCURACY,2.4*10
$GNGGA,114750.900,2500.8226101,N,12132.4608502,E,4,63,0.45,16.007,M,15.25,M,1,3335*4F
$GNRMC,114750.900,A,2500.8226101,N,12132.4608502,E,0.01,333.82,260623,,,R,V*1A
$GPHDT,,T*1B
$GNACCURACY,2.4*10
$GNGGA,114751.000,2500.8226080,N,12132.4608508,E,4,64,0.43,16.014,M,15.25,M,2,3335*45
$GNRMC,114751.000,A,2500.8226080,N,12132.4608508,E,0.01,333.82,260623,,,R,V*10
$GPHDT,227.817,T*3C
$GNACCURACY,2.4*10
$GNGGA,114751.100,2500.8226124,N,12132.4608488,E,4,64,0.43,16.013,M,15.25,M,2,3335*45
$GNRMC,114751.100,A,2500.8226124,N,12132.4608488,E,0.01,333.82,260623,,,R,V*17
$GPHDT,,T*1B
$GNGSA,A,3,196,24,199,23,18,194,15,195,12,10,25,32,0.72,0.45,0.56,1*06
$GNGSA,A,3,73,80,86,85,71,,,,,,,,0.72,0.45,0.56,2*0C
$GNGSA,A,3,13,07,08,26,30,02,15,,,,,,0.72,0.45,0.56,3*08
$GNGSA,A,3,08,38,13,39,16,06,46,19,09,36,20,35,0.72,0.45,0.56,4*0B
$GNGSA,A,3,37,22,29,,,,,,,,,,0.72,0.45,0.56,4*0C
$GPGSV,4,1,16,196,75,072,40,24,63,035,35,199,60,167,36,23,60,345,32,1*6E
$GPGSV,4,2,16,18,52,230,46,41,38,242,42,194,34,136,38,15,32,057,31,1*55
$GPGSV,4,3,16,195,30,179,38,12,27,133,39,10,25,323,36,25,16,171,19,1*5D
$GPGSV,4,4,16,32,14,277,23,05,12,126,17,13,03,064,,28,02,221,,1*6B
$GPGSV,3,1,10,196,75,072,43,24,63,035,46,23,60,345,29,199,60,167,46,8*6C
$GPGSV,3,2,10,18,52,230,48,194,34,136,46,195,30,179,35,10,25,323,26,8*64
$GPGSV,3,3,10,25,16,171,20,32,14,277,22,8*6F
$GLGSV,2,1,08,73,49,153,40,80,46,059,30,70,41,025,,86,28,289,35,1*78
$GLGSV,2,2,08,85,27,235,21,71,26,324,24,69,09,084,16,79,03,027,16,1*7C
$GAGSV,3,1,09,13,49,222,41,07,46,314,37,08,43,034,31,26,35,298,40,7*78
$GAGSV,3,2,09,30,32,138,42,02,27,076,26,15,15,173,23,27,07,185,,7*7D
$GAGSV,3,3,09,03,07,071,,7*48
$GAGSV,2,1,06,13,49,222,43,07,46,314,35,08,43,034,31,26,35,298,42,1*72
$GAGSV,2,2,06,30,32,138,44,03,07,071,11,1*79
$GBGSV,4,1,15,08,84,351,39,38,81,151,42,13,71,324,43,39,69,295,45,1*73
$GBGSV,4,2,15,16,66,270,44,06,64,266,43,46,62,092,34,19,53,357,25,1*75
$GBGSV,4,3,15,09,50,247,41,36,44,183,42,20,40,074,25,35,18,260,38,1*76
$GBGSV,4,4,15,37,17,043,26,22,16,308,34,29,13,206,28,1*4F
$GBGSV,3,1,09,38,81,151,44,39,69,295,46,46,62,092,31,19,53,357,28,4*7C
$GBGSV,3,2,09,36,44,183,45,20,40,074,28,35,18,260,33,37,17,043,27,4*71
$GBGSV,3,3,09,22,16,308,36,4*43
$GNACCURACY,2.4*10
$PAIRSAT,1,35,1,0,200,2,0,200,3,0,200,4,0,200,5,0,201,6,0,200,7,0,200,8,0,200,9,0,200,10,0,221,11,0,200,12,0,201,13,0,201,14,0,200,15,0,201,16,0,200,17,0,200,18,0,221,19,0,200,20,0,200,21,0,200,23,0,221,24,0,221,25,0,220,26,0,200,27,0,200,28,0,200,29,0,200,30,0,200,31,0,200,32,0,221,194,0,621,195,0,621,196,0,620,199,0,621*6A
$PAIRSAT,2,24,65,0,200,66,0,200,67,0,200,68,0,200,69,0,200,70,0,200,71,0,201,72,0,200,73,0,201,74,0,200,75,0,200,76,0,200,77,0,200,78,0,200,79,0,201,80,0,201,81,0,200,82,0,200,83,0,200,84,0,200,85,0,201,86,0,201,87,0,200,88,0,200*7A
$PAIRSAT,3,23,2,0,1221,3,0,1221,4,0,1200,5,0,200,7,0,1221,8,0,1221,9,0,1200,10,0,1200,11,0,1200,12,0,1200,13,0,1221,15,0,1221,19,0,1200,21,0,1200,24,0,1200,25,0,1200,26,0,1221,27,0,1200,30,0,1221,31,0,1200,33,0,1200,34,0,1200,36,0,1200*6A
$PAIRSAT,4,50,1,0,200,2,0,200,3,0,200,4,0,200,5,0,200,6,0,201,7,0,200,8,0,201,9,0,201,10,0,200,11,0,200,12,0,200,13,0,201,14,0,200,15,0,200,16,0,201,19,0,621,20,0,621,21,0,600,22,0,621,23,0,600,24,0,600,25,0,600,26,0,600,27,0,600,28,0,600,29,0,621,30,0,600,31,0,200,32,0,600,33,0,600,34,0,600,35,0,621,36,0,621,37,0,621,38,0,621,39,0,621,40,0,600,41,0,600,42,0,600,43,0,600,44,0,600,45,0,600,46,0,621,56,0,200,57,0,200,58,0,200,59,0,600,60,0,600,61,0,600*41
$PAIRDGP,10,5,10,12,15,18,23,24,25,28,32*45
$GNGGA,114751.200,2500.8226065,N,12132.4608499,E,4,63,0.45,16.018,M,15.25,M,2,3335*48
$GNRMC,114751.200,A,2500.8226065,N,12132.4608499,E,0.01,333.82,260623,,,R,V*10
$GPHDT,226.897,T*35
$GNACCURACY,2.4*10
$GNGGA,114751.300,2500.8226041,N,12132.4608483,E,4,63,0.45,16.028,M,15.25,M,2,3335*47
$GNRMC,114751.300,A,2500.8226041,N,12132.4608483,E,0.00,333.82,260623,,,R,V*1D
$GPHDT,,T*1B
$GNACCURACY,2.3*17
$GNGGA,114751.400,2500.8226084,N,12132.4608488,E,4,63,0.45,16.021,M,15.25,M,2,3335*4B
$GNRMC,114751.400,A,2500.8226084,N,12132.4608488,E,0.00,333.82,260623,,,R,V*18
$GPHDT,226.809,T*32
$GNACCURACY,2.3*17
$GNGGA,114751.500,2500.8226072,N,12132.4608471,E,4,63,0.45,16.022,M,15.25,M,2,3335*46
$GNRMC,114751.500,A,2500.8226072,N,12132.4608471,E,0.01,333.82,260623,,,R,V*17
$GPHDT,,T*1B
$GNACCURACY,2.3*17
$GNGGA,114751.600,2500.8226095,N,12132.4608511,E,4,63,0.45,16.017,M,15.25,M,2,3335*4D
$GNRMC,114751.600,A,2500.8226095,N,12132.4608511,E,0.01,333.82,260623,,,R,V*1A
$GPHDT,226.863,T*3E
$GNACCURACY,2.3*17
$GNGGA,114751.700,2500.8226089,N,12132.4608488,E,4,63,0.45,16.019,M,15.25,M,2,3335*4E
$GNRMC,114751.700,A,2500.8226089,N,12132.4608488,E,0.01,333.82,260623,,,R,V*17
$GPHDT,,T*1B
$GNACCURACY,2.3*17
$GNGGA,114751.800,2500.8226089,N,12132.4608467,E,4,65,0.44,16.014,M,15.25,M,2,3335*4A
$GNRMC,114751.800,A,2500.8226089,N,12132.4608467,E,0.01,333.82,260623,,,R,V*19
$GPHDT,226.826,T*3F
$GNACCURACY,2.3*17
$GNGGA,114751.900,2500.8226089,N,12132.4608461,E,4,65,0.44,16.020,M,15.25,M,2,3335*4A
$GNRMC,114751.900,A,2500.8226089,N,12132.4608461,E,0.00,333.82,260623,,,R,V*1F
$GPHDT,,T*1B
$GNACCURACY,2.3*17
$GNGGA,114752.000,2500.8226082,N,12132.4608471,E,4,65,0.44,15.999,M,15.25,M,3,3335*43
$GNRMC,114752.000,A,2500.8226082,N,12132.4608471,E,0.01,333.82,260623,,,R,V*1E
$GPHDT,226.930,T*39
$GNACCURACY,2.3*17
$GNGGA,114752.100,2500.8226106,N,12132.4608432,E,4,65,0.44,16.017,M,15.25,M,3,3335*44
$GNRMC,114752.100,A,2500.8226106,N,12132.4608432,E,0.00,333.82,260623,,,R,V*14
$GPHDT,,T*1B
$GNGSA,A,3,196,24,199,23,18,194,15,195,12,10,25,32,0.78,0.44,0.65,1*0D
$GNGSA,A,3,05,,,,,,,,,,,,0.78,0.44,0.65,1*08
$GNGSA,A,3,73,80,86,85,71,,,,,,,,0.78,0.44,0.65,2*07
$GNGSA,A,3,13,07,08,26,30,02,15,,,,,,0.78,0.44,0.65,3*03
$GNGSA,A,3,08,38,13,39,16,06,46,19,09,36,20,35,0.78,0.44,0.65,4*00
$GNGSA,A,3,37,22,29,,,,,,,,,,0.78,0.44,0.65,4*07
$GPGSV,4,1,16,196,75,072,40,24,63,035,36,199,60,167,36,23,60,345,29,1*67
$GPGSV,4,2,16,18,52,230,46,41,38,242,42,194,34,136,38,15,32,057,30,1*54
$GPGSV,4,3,16,195,30,179,38,12,27,133,39,10,25,323,42,25,16,171,22,1*56
$GPGSV,4,4,16,32,14,277,26,05,12,126,17,13,03,064,,28,02,221,,1*6E
$GPGSV,3,1,10,196,75,072,43,24,63,035,46,199,60,167,46,23,60,345,27,8*62
$GPGSV,3,2,10,18,52,230,48,194,34,136,46,195,30,179,36,10,25,323,32,8*62
$GPGSV,3,3,10,25,16,171,21,32,14,277,25,8*69
$GLGSV,2,1,07,73,49,153,41,80,46,059,30,86,28,289,36,85,27,235,22,1*7C
$GLGSV,2,2,07,71,26,324,29,69,09,084,16,79,03,027,15,1*42
$GAGSV,3,1,09,13,49,222,41,07,46,314,41,08,43,034,31,26,35,298,38,7*76
$GAGSV,3,2,09,30,32,137,42,02,27,076,26,15,15,173,21,27,07,185,,7*70
$GAGSV,3,3,09,03,07,071,,7*48
$GAGSV,2,1,07,13,49,222,43,07,46,314,40,08,43,034,30,26,35,298,42,1*70
$GAGSV,2,2,07,30,32,137,44,02,27,076,23,03,07,071,10,1*41
$GBGSV,4,1,15,08,84,351,38,38,81,151,42,13,71,324,44,39,69,295,44,1*74
$GBGSV,4,2,15,16,66,270,44,06,64,266,43,46,62,092,34,19,53,357,23,1*73
$GBGSV,4,3,15,09,50,247,41,36,44,183,43,20,40,074,25,35,18,260,37,1*78
$GBGSV,4,4,15,37,17,043,25,22,16,308,34,29,13,206,28,1*4C
$GBGSV,3,1,09,38,81,151,44,39,69,295,46,46,62,092,30,19,53,357,32,4*76
$GBGSV,3,2,09,36,44,183,45,20,40,074,27,35,18,260,33,37,17,043,29,4*70
$GBGSV,3,3,09,22,16,308,33,4*46
$GNACCURACY,2.4*10
$PAIRSAT,1,35,1,0,200,2,0,200,3,0,200,4,0,200,5,0,201,6,0,200,7,0,200,8,0,200,9,0,200,10,0,221,11,0,200,12,0,201,13,0,201,14,0,200,15,0,201,16,0,200,17,0,200,18,0,221,19,0,200,20,0,200,21,0,200,23,0,221,24,0,221,25,0,220,26,0,200,27,0,200,28,0,200,29,0,200,30,0,200,31,0,200,32,0,221,194,0,621,195,0,621,196,0,620,199,0,621*6A
$PAIRSAT,2,24,65,0,200,66,0,200,67,0,200,68,0,200,69,0,200,70,0,200,71,0,201,72,0,200,73,0,201,74,0,200,75,0,200,76,0,200,77,0,200,78,0,200,79,0,201,80,0,201,81,0,200,82,0,200,83,0,200,84,0,200,85,0,201,86,0,201,87,0,200,88,0,200*7A
$PAIRSAT,3,23,2,0,1221,3,0,1221,4,0,1200,5,0,200,7,0,1221,8,0,1221,9,0,1200,10,0,1200,11,0,1200,12,0,1200,13,0,1221,15,0,1221,19,0,1200,21,0,1200,24,0,1200,25,0,1200,26,0,1221,27,0,1200,30,0,1221,31,0,1200,33,0,1200,34,0,1200,36,0,1200*6A
$PAIRSAT,4,50,1,0,200,2,0,200,3,0,200,4,0,200,5,0,200,6,0,201,7,0,200,8,0,201,9,0,201,10,0,200,11,0,200,12,0,200,13,0,201,14,0,200,15,0,200,16,0,201,19,0,621,20,0,621,21,0,600,22,0,621,23,0,600,24,0,600,25,0,600,26,0,600,27,0,600,28,0,600,29,0,621,30,0,600,31,0,200,32,0,600,33,0,600,34,0,600,35,0,621,36,0,621,37,0,621,38,0,621,39,0,621,40,0,600,41,0,600,42,0,600,43,0,600,44,0,600,45,0,600,46,0,621,56,0,200,57,0,200,58,0,200,59,0,600,60,0,600,61,0,600*41
$PAIRDGP,10,5,10,12,15,18,23,24,25,28,32*45
$GNGGA,114752.200,2500.8226100,N,12132.4608425,E,4,65,0.44,16.017,M,15.25,M,3,3335*47
$GNRMC,114752.200,A,2500.8226100,N,12132.4608425,E,0.00,333.82,260623,,,R,V*17
$GPHDT,227.116,T*34
$GNACCURACY,2.3*17
$GNGGA,114752.300,2500.8226081,N,12132.4608459,E,4,65,0.44,16.023,M,15.25,M,3,3335*42
$GNRMC,114752.300,A,2500.8226081,N,12132.4608459,E,0.00,333.82,260623,,,R,V*15
$GPHDT,,T*1B
$GNACCURACY,2.3*17
$GNGGA,114752.400,2500.8226097,N,12132.4608427,E,4,65,0.44,16.023,M,15.25,M,3,3335*4B
$GNRMC,114752.400,A,2500.8226097,N,12132.4608427,E,0.00,333.82,260623,,,R,V*1C
$GPHDT,226.912,T*39
$GNACCURACY,2.3*17
$GNGGA,114752.500,2500.8226115,N,12132.4608471,E,4,65,0.44,16.030,M,15.25,M,3,3335*40
$GNRMC,114752.500,A,2500.8226115,N,12132.4608471,E,0.00,333.82,260623,,,R,V*15
$GPHDT,,T*1B
$GNACCURACY,2.3*17
$GNGGA,114752.600,2500.8226102,N,12132.4608473,E,4,65,0.44,16.028,M,15.25,M,3,3335*4E
$GNRMC,114752.600,A,2500.8226102,N,12132.4608473,E,0.00,333.82,260623,,,R,V*12
$GPHDT,226.874,T*38
$GNACCURACY,2.3*17
$GNGGA,114752.700,2500.8226129,N,12132.4608448,E,4,65,0.44,16.010,M,15.25,M,3,3335*45
$GNRMC,114752.700,A,2500.8226129,N,12132.4608448,E,0.01,333.82,260623,,,R,V*13
$GPHDT,,T*1B
$GNACCURACY,2.4*10
$GNGGA,114752.800,2500.8226078,N,12132.4608463,E,4,65,0.44,16.034,M,15.25,M,3,3335*40
$GNRMC,114752.800,A,2500.8226078,N,12132.4608463,E,0.00,333.82,260623,,,R,V*11
$GPHDT,226.737,T*30
$GNACCURACY,2.4*10
$GNGGA,114752.900,2500.8226125,N,12132.4608448,E,4,64,0.44,16.022,M,15.25,M,3,3335*47
$GNRMC,114752.900,A,2500.8226125,N,12132.4608448,E,0.00,333.82,260623,,,R,V*10
$GPHDT,,T*1B
$GNACCURACY,2.4*10
$GNGGA,114753.000,2500.8226084,N,12132.4608441,E,4,64,0.44,16.026,M,15.25,M,4,3335*4F
$GNRMC,114753.000,A,2500.8226084,N,12132.4608441,E,0.00,333.82,260623,,,R,V*1B
$GPHDT,226.773,T*30
$GNACCURACY,2.4*10
$GNGGA,114753.100,2500.8226178,N,12132.4608436,E,4,65,0.44,16.016,M,15.25,M,4,3335*4E
$GNRMC,114753.100,A,2500.8226178,N,12132.4608436,E,0.00,333.82,260623,,,R,V*18
$GPHDT,,T*1B
$GNGSA,A,3,196,24,199,23,18,194,15,195,12,10,25,32,0.78,0.44,0.65,1*0D
$GNGSA,A,3,05,,,,,,,,,,,,0.78,0.44,0.65,1*08
$GNGSA,A,3,73,80,86,85,71,,,,,,,,0.78,0.44,0.65,2*07
$GNGSA,A,3,13,07,08,26,30,02,15,,,,,,0.78,0.44,0.65,3*03
$GNGSA,A,3,08,38,13,39,16,06,46,19,09,36,20,35,0.78,0.44,0.65,4*00
$GNGSA,A,3,37,22,29,,,,,,,,,,0.78,0.44,0.65,4*07
$GPGSV,4,1,16,196,75,072,40,24,63,035,35,199,60,167,35,23,60,345,29,1*67
$GPGSV,4,2,16,18,52,230,46,41,38,242,42,194,34,136,37,15,32,057,29,1*53
$GPGSV,4,3,16,195,30,179,38,12,27,133,39,10,25,323,42,25,16,171,23,1*57
$GPGSV,4,4,16,32,14,277,27,05,12,126,20,13,03,064,,28,02,221,,1*6B
$GPGSV,3,1,10,196,75,072,43,24,63,035,45,199,60,167,46,23,60,345,32,8*65
$GPGSV,3,2,10,18,52,230,47,194,34,136,46,195,30,179,35,10,25,323,31,8*6D
$GPGSV,3,3,10,25,16,171,22,32,14,277,28,8*67
$GLGSV,2,1,07,73,49,153,41,80,46,059,31,86,28,289,37,85,27,235,22,1*7C
$GLGSV,2,2,07,71,26,324,33,69,09,084,18,79,03,027,15,1*47
$GAGSV,3,1,09,13,49,222,40,07,46,314,41,08,43,034,28,26,35,298,39,7*7E
$GAGSV,3,2,09,30,32,137,42,02,27,076,27,15,15,173,22,03,07,071,,7*7E
$GAGSV,3,3,09,27,07,185,,7*44
$GAGSV,2,1,07,13,49,222,43,07,46,314,38,08,43,034,25,26,35,298,43,1*7A
$GAGSV,2,2,07,30,32,137,44,02,27,076,20,03,07,071,10,1*42
$GBGSV,4,1,16,08,84,351,39,38,81,151,42,13,71,324,44,39,69,295,44,1*76
$GBGSV,4,2,16,16,66,270,44,06,64,266,43,46,62,092,34,19,53,357,27,1*74
$GBGSV,4,3,16,09,50,247,41,36,44,183,44,31,40,215,,20,40,074,24,1*72
$GBGSV,4,4,16,35,18,260,36,37,17,043,26,22,16,308,34,29,13,206,28,1*72
$GBGSV,3,1,09,38,81,151,44,39,69,295,45,46,62,092,33,19,53,357,31,4*75
$