$FW : RTK35X,V1.1X0314AS,Lib20210517,1*54
$Tool : LOCOSYS , GNSS Firebird , v1.0.0.19*39
$---------------------------------------------------*2D
$GNACCURACY,2.3*17
$GNGGA,114803.000,2500.8226247,N,12132.4608441,E,4,65,0.44,16.031,M,15.25,M,2,3335*49
$GNRMC,114803.000,A,2500.8226247,N,12132.4608441,E,0.01,333.82,260623,,,R,V*1D
$GPHDT,183.459,T*37
$GNACCURACY,2.3*17
$GNGGA,114803.100,2500.8226308,N,12132.4608483,E,4,65,0.44,16.021,M,15.25,M,2,3335*4D
$GNRMC,114803.100,A,2500.8226308,N,12132.4608483,E,0.01,333.82,260623,,,R,V*18
$GPHDT,,T*1B
$GNGSA,A,3,196,24,199,23,18,194,15,195,12,10,25,32,0.78,0.44,0.65,1*0D
$GNGSA,A,3,05,,,,,,,,,,,,0.78,0.44,0.65,1*08
$GNGSA,A,3,73,80,86,85,71,,,,,,,,0.78,0.44,0.65,2*07
$GNGSA,A,3,13,07,08,26,30,02,15,,,,,,0.78,0.44,0.65,3*03
$GNGSA,A,3,08,38,13,39,16,06,46,19,09,36,20,35,0.78,0.44,0.65,4*00
$GNGSA,A,3,37,22,29,,,,,,,,,,0.78,0.44,0.65,4*07
$GPGSV,4,1,16,196,75,072,40,24,63,035,37,199,60,167,37,23,60,345,27,1*69
$GPGSV,4,2,16,18,52,229,46,41,38,242,41,194,34,136,38,15,32,057,30,1*5F
$GPGSV,4,3,16,195,30,179,39,12,27,133,40,10,26,323,42,25,16,171,20,1*58
$GPGSV,4,4,16,32,14,277,37,05,12,126,23,13,03,064,,28,02,221,,1*69
$GPGSV,3,1,10,196,75,072,43,24,63,035,45,23,60,345,31,199,60,167,46,8*66
$GPGSV,3,2,10,18,52,229,48,194,34,136,46,195,30,179,33,10,26,323,29,8*66
$GPGSV,3,3,10,25,16,171,19,32,14,277,40,8*61
$GLGSV,2,1,07,73,50,153,42,80,46,059,30,86,28,289,43,85,27,235,25,1*72
$GLGSV,2,2,07,71,26,325,31,69,09,084,19,79,03,027,17,1*47
$GAGSV,3,1,09,13,49,222,43,07,46,314,42,08,43,034,31,26,35,298,43,7*7B
$GAGSV,3,2,09,30,32,137,42,02,27,076,24,15,15,173,22,27,07,185,,7*71
$GAGSV,3,3,09,03,07,071,,7*48
$GAGSV,2,1,06,13,49,222,43,07,46,314,43,08,43,034,30,26,35,298,45,1*75
$GAGSV,2,2,06,30,32,137,44,02,27,076,26,1*76
$GBGSV,4,1,15,08,84,350,38,38,81,152,43,13,72,324,42,39,69,296,43,1*76
$GBGSV,4,2,15,16,66,271,41,06,64,266,42,46,62,091,35,19,53,357,18,1*7C
$GBGSV,4,3,15,09,50,247,41,36,44,183,46,20,40,075,29,35,18,260,38,1*7F
$GBGSV,4,4,15,37,16,042,29,22,16,308,36,29,13,206,23,1*49
$GBGSV,3,1,09,38,81,152,45,39,69,296,44,46,62,091,28,19,53,357,27,4*7B
$GBGSV,3,2,09,36,44,183,43,20,40,075,31,35,18,260,34,22,16,308,36,4*70
$GBGSV,3,3,09,37,16,042,25,4*48
$GNACCURACY,2.3*17
$PAIRSAT,1,35,1,0,200,2,0,200,3,0,200,4,0,200,5,0,201,6,0,200,7,0,200,8,0,200,9,0,200,10,0,221,11,0,200,12,0,201,13,0,201,14,0,200,15,0,201,16,0,200,17,0,200,18,0,221,19,0,200,20,0,200,21,0,200,23,0,221,24,0,221,25,0,220,26,0,200,27,0,200,28,0,200,29,0,200,30,0,200,31,0,200,32,0,221,194,0,621,195,0,621,196,0,620,199,0,621*6A
$PAIRSAT,2,24,65,0,200,66,0,200,67,0,200,68,0,200,69,0,200,70,0,200,71,0,201,72,0,200,73,0,201,74,0,200,75,0,200,76,0,200,77,0,200,78,0,200,79,0,201,80,0,201,81,0,200,82,0,200,83,0,200,84,0,200,85,0,201,86,0,201,87,0,200,88,0,200*7A
$PAIRSAT,3,23,2,0,1221,3,0,1221,4,0,1200,5,0,200,7,0,1221,8,0,1221,9,0,1200,10,0,1200,11,0,1200,12,0,1200,13,0,1221,15,0,1221,19,0,1200,21,0,1200,24,0,1200,25,0,1200,26,0,1221,27,0,1200,30,0,1221,31,0,1200,33,0,1200,34,0,1200,36,0,1200*6A
$PAIRSAT,4,50,1,0,200,2,0,200,3,0,200,4,0,200,5,0,200,6,0,201,7,0,200,8,0,201,9,0,201,10,0,200,11,0,200,12,0,200,13,0,201,14,0,200,15,0,200,16,0,201,19,0,621,20,0,621,21,0,600,22,0,621,23,0,600,24,0,600,25,0,600,26,0,600,27,0,600,28,0,600,29,0,621,30,0,600,31,0,200,32,0,600,33,0,600,34,0,600,35,0,621,36,0,621,37,0,621,38,0,621,39,0,621,40,0,600,41,0,600,42,0,600,43,0,600,44,0,600,45,0,600,46,0,621,56,0,200,57,0,200,58,0,200,59,0,600,60,0,600,61,0,600*41
$PAIRDGP,10,5,10,12,15,18,23,24,25,28,32*45
$GNGGA,114803.200,2500.8226275,N,12132.4608463,E,4,65,0.44,16.033,M,15.25,M,2,3335*48
$GNRMC,114803.200,A,2500.8226275,N,12132.4608463,E,0.01,333.82,260623,,,R,V*1E
$GPHDT,183.184,T*32
$GNACCURACY,2.3*17
$GNGGA,114803.300,2500.8226308,N,12132.4608487,E,4,65,0.44,16.027,M,15.25,M,2,3335*4D
$GNRMC,114803.300,A,2500.8226308,N,12132.4608487,E,0.01,333.82,260623,,,R,V*1E
$GPHDT,,T*1B
$GNACCURACY,2.3*17
$GNGGA,114803.400,2500.8226293,N,12132.4608488,E,4,65,0.44,16.032,M,15.25,M,2,3335*42
$GNRMC,114803.400,A,2500.8226293,N,12132.4608488,E,0.01,333.82,260623,,,R,V*15
$GPHDT,183.671,T*3F
$GNACCURACY,2.3*17
$GNGGA,114803.500,2500.8226294,N,12132.4608480,E,4,66,0.44,16.023,M,15.25,M,2,3335*4F
$GNRMC,114803.500,A,2500.8226294,N,12132.4608480,E,0.01,333.82,260623,,,R,V*1B
$GPHDT,,T*1B
$GNACCURACY,2.3*17
$GNGGA,114803.600,2500.8226288,N,12132.4608459,E,4,66,0.44,16.031,M,15.25,M,2,3335*46
$GNRMC,114803.600,A,2500.8226288,N,12132.4608459,E,0.01,333.82,260623,,,R,V*11
$GPHDT,183.773,T*3C
$GNACCURACY,2.3*17
$GNGGA,114803.700,2500.8226287,N,12132.4608474,E,4,66,0.44,16.024,M,15.25,M,2,3335*43
$GNRMC,114803.700,A,2500.8226287,N,12132.4608474,E,0.01,333.82,260623,,,R,V*10
$GPHDT,,T*1B
$GNACCURACY,2.3*17
$GNGGA,114803.800,2500.8226233,N,12132.4608442,E,4,66,0.44,16.025,M,15.25,M,2,3335*47
$GNRMC,114803.800,A,2500.8226233,N,12132.4608442,E,0.01,333.82,260623,,,R,V*15
$GPHDT,183.525,T*3D
$GNACCURACY,2.3*17
$GNGGA,114803.900,2500.8226286,N,12132.4608449,E,4,66,0.44,16.008,M,15.25,M,2,3335*4C
$GNRMC,114803.900,A,2500.8226286,N,12132.4608449,E,0.01,333.82,260623,,,R,V*11
$GPHDT,,T*1B
$GNACCURACY,2.3*17
$GNGGA,114804.000,2500.8226297,N,12132.4608458,E,4,66,0.44,16.023,M,15.25,M,3,3335*4A
$GNRMC,114804.000,A,2500.8226297,N,12132.4608458,E,0.01,333.82,260623,,,R,V*1F
$GPHDT,183.192,T*35
$GNACCURACY,2.3*17
$GNGGA,114804.100,2500.8226296,N,12132.4608473,E,4,66,0.44,16.034,M,15.25,M,3,3335*45
$GNRMC,114804.100,A,2500.8226296,N,12132.4608473,E,0.01,333.82,260623,,,R,V*16
$GPHDT,,T*1B
$GNGSA,A,3,196,24,199,23,18,194,15,195,12,10,25,32,0.78,0.44,0.65,1*0D
$GNGSA,A,3,05,,,,,,,,,,,,0.78,0.44,0.65,1*08
$GNGSA,A,3,73,80,86,85,71,,,,,,,,0.78,0.44,0.65,2*07
$GNGSA,A,3,13,07,08,26,30,02,15,,,,,,0.78,0.44,0.65,3*03
$GNGSA,A,3,08,38,13,39,16,06,46,19,09,36,20,35,0.78,0.44,0.65,4*00
$GNGSA,A,3,22,37,29,,,,,,,,,,0.78,0.44,0.65,4*07
$GPGSV,4,1,16,196,75,072,40,24,63,035,35,199,60,167,37,23,60,345,31,1*6C
$GPGSV,4,2,16,18,52,229,46,41,38,242,41,194,34,136,38,15,32,057,30,1*5F
$GPGSV,4,3,16,195,30,179,39,12,27,133,40,10,26,323,42,25,16,171,17,1*5C
$GPGSV,4,4,16,32,14,277,37,05,12,126,22,13,03,064,,28,02,221,,1*68
$GPGSV,3,1,10,196,75,072,43,24,63,035,46,23,60,345,35,199,60,167,46,8*61
$GPGSV,3,2,10,18,52,229,48,194,34,136,46,195,30,179,33,10,26,323,35,8*6B
$GPGSV,3,3,10,25,16,171,22,32,14,277,40,8*69
$GLGSV,2,1,08,73,50,153,43,80,46,059,31,86,28,289,41,85,27,235,24,1*7E
$GLGSV,2,2,08,71,26,325,30,74,13,185,,69,09,084,18,79,03,027,17,1*75
$GAGSV,3,1,09,13,49,222,43,07,46,314,36,08,43,034,33,26,35,298,38,7*76
$GAGSV,3,2,09,30,32,137,42,02,27,076,21,15,15,173,22,27,07,185,,7*74
$GAGSV,3,3,09,03,07,071,,7*48
$GAGSV,2,1,07,13,49,222,43,07,46,314,38,08,43,034,31,26,35,298,40,1*7C
$GAGSV,2,2,07,30,32,137,44,02,27,076,26,15,15,173,20,1*40
$GBGSV,4,1,16,08,84,350,39,38,81,152,43,13,72,324,42,39,69,296,43,1*74
$GBGSV,4,2,16,16,66,271,41,06,64,266,42,46,62,091,35,19,53,357,23,1*77
$GBGSV,4,3,16,09,50,247,41,36,44,183,46,20,40,075,28,31,40,215,,1*7D
$GBGSV,4,4,16,35,18,260,38,22,16,308,32,37,16,042,29,29,13,206,23,1*7E
$GBGSV,3,1,09,38,81,152,45,39,69,296,43,46,62,091,29,19,53,357,27,4*7D
$GBGSV,3,2,09,36,44,183,43,20,40,075,31,35,18,260,35,22,16,308,34,4*73
$GBGSV,3,3,09,37,16,042,25,4*48
$GNACCURACY,2.3*17
$PAIRSAT,1,35,1,0,200,2,0,200,3,0,200,4,0,200,5,0,201,6,0,200,7,0,200,8,0,200,9,0,200,10,0,221,11,0,200,12,0,201,13,0,201,14,0,200,15,0,201,16,0,200,17,0,200,18,0,221,19,0,200,20,0,200,21,0,200,23,0,221,24,0,221,25,0,220,26,0,200,27,0,200,28,0,200,29,0,200,30,0,200,31,0,200,32,0,221,194,0,621,195,0,621,196,0,620,199,0,621*6A
$PAIRSAT,2,24,65,0,200,66,0,200,67,0,200,68,0,200,69,0,200,70,0,200,71,0,201,72,0,200,73,0,201,74,0,200,75,0,200,76,0,200,77,0,200,78,0,200,79,0,201,80,0,201,81,0,200,82,0,200,83,0,200,84,0,200,85,0,201,86,0,201,87,0,200,88,0,200*7A
$PAIRSAT,3,23,2,0,1221,3,0,1221,4,0,1200,5,0,200,7,0,1221,8,0,1221,9,0,1200,10,0,1200,11,0,1200,12,0,1200,13,0,1221,15,0,1221,19,0,1200,21,0,1200,24,0,1200,25,0,1200,26,0,1221,27,0,1200,30,0,1221,31,0,1200,33,0,1200,34,0,1200,36,0,1200*6A
$PAIRSAT,4,50,1,0,200,2,0,200,3,0,200,4,0,200,5,0,200,6,0,201,7,0,200,8,0,201,9,0,201,10,0,200,11,0,200,12,0,200,13,0,201,14,0,200,15,0,200,16,0,201,19,0,621,20,0,621,21,0,600,22,0,621,23,0,600,24,0,600,25,0,600,26,0,600,27,0,600,28,0,600,29,0,621,30,0,600,31,0,200,32,0,600,33,0,600,34,0,600,35,0,621,36,0,621,37,0,621,38,0,621,39,0,621,40,0,600,41,0,600,42,0,600,43,0,600,44,0,600,45,0,600,46,0,621,56,0,200,57,0,200,58,0,200,59,0,600,60,0,600,61,0,600*41
$PAIRDGP,10,5,10,12,15,18,23,24,25,28,32*45
$GNGGA,114804.200,2500.8226277,N,12132.4608498,E,4,66,0.44,16.029,M,15.25,M,3,3335*40
$GNRMC,114804.200,A,2500.8226277,N,12132.4608498,E,0.01,333.82,260623,,,R,V*1F
$GPHDT,183.650,T*3C
$GNACCURACY,2.3*17
$GNGGA,114804.300,2500.8226293,N,12132.4608479,E,4,66,0.44,16.021,M,15.25,M,3,3335*4C
$GNRMC,114804.300,A,2500.8226293,N,12132.4608479,E,0.01,333.82,260623,,,R,V*1B
$GPHDT,,T*1B
$GNACCURACY,2.3*17
$GNGGA,114804.400,2500.8226275,N,12132.4608442,E,4,66,0.44,16.034,M,15.25,M,3,3335*4F
$GNRMC,114804.400,A,2500.8226275,N,12132.4608442,E,0.01,333.82,260623,,,R,V*1C
$GPHDT,183.132,T*3F
$GNACCURACY,2.3*17
$GNGGA,114804.500,2500.8226282,N,12132.4608444,E,4,66,0.44,16.025,M,15.25,M,3,3335*40
$GNRMC,114804.500,A,2500.8226282,N,12132.4608444,E,0.01,333.82,260623,,,R,V*13
$GPHDT,,T*1B
$GNACCURACY,2.3*17
$GNGGA,114804.600,2500.8226278,N,12132.4608441,E,4,66,0.44,16.042,M,15.25,M,3,3335*42
$GNRMC,114804.600,A,2500.8226278,N,12132.4608441,E,0.01,333.82,260623,,,R,V*10
$GPHDT,183.765,T*3B
$GNACCURACY,2.3*17
$GNGGA,114804.700,2500.8226282,N,12132.4608430,E,4,66,0.44,16.030,M,15.25,M,3,3335*45
$GNRMC,114804.700,A,2500.8226282,N,12132.4608430,E,0.01,333.82,260623,,,R,V*12
$GPHDT,,T*1B
$GNACCURACY,2.3*17
$GNGGA,114804.800,2500.8226245,N,12132.4608425,E,4,66,0.44,16.033,M,15.25,M,3,3335*46
$GNRMC,114804.800,A,2500.8226245,N,12132.4608425,E,0.01,333.82,260623,,,R,V*12
$GPHDT,183.605,T*3C
$GNACCURACY,2.3*17
$GNGGA,114804.900,2500.8226242,N,12132.4608421,E,4,66,0.44,16.046,M,15.25,M,3,3335*46
$GNRMC,114804.900,A,2500.8226242,N,12132.4608421,E,0.01,333.82,260623,,,R,V*10
$GPHDT,,T*1B
$GNACCURACY,2.3*17
$GNGGA,114805.000,2500.8226231,N,12132.4608391,E,4,66,0.44,16.041,M,15.25,M,4,3335*46
$GNRMC,114805.000,A,2500.8226231,N,12132.4608391,E,0.01,333.82,260623,,,R,V*10
$GPHDT,182.861,T*31
$GNACCURACY,2.3*17
$GNGGA,114805.100,2500.8226229,N,12132.4608397,E,4,66,0.44,16.036,M,15.25,M,4,3335*48
$GNRMC,114805.100,A,2500.8226229,N,12132.4608397,E,0.02,333.82,260623,,,R,V*1D
$GPHDT,,T*1B
$GNGSA,A,3,196,24,199,23,18,194,15,195,12,10,25,32,0.78,0.44,0.65,1*0D
$GNGSA,A,3,05,,,,,,,,,,,,0.78,0.44,0.65,1*08
$GNGSA,A,3,73,80,86,85,71,,,,,,,,0.78,0.44,0.65,2*07
$GNGSA,A,3,13,07,08,26,30,02,15,,,,,,0.78,0.44,0.65,3*03
$GNGSA,A,3,08,38,13,39,16,06,46,19,09,36,20,35,0.78,0.44,0.65,4*00
$GNGSA,A,3,37,22,29,,,,,,,,,,0.78,0.44,0.65,4*07
$GPGSV,4,1,16,196,75,072,40,24,63,035,35,199,60,167,37,23,60,345,31,1*6C
$GPGSV,4,2,16,18,52,229,46,41,38,242,41,194,34,136,38,15,32,057,26,1*58
$GPGSV,4,3,16,195,30,179,39,12,27,133,40,10,26,323,42,25,16,171,17,1*5C
$GPGSV,4,4,16,32,14,278,35,05,12,126,21,13,03,064,,28,02,221,,1*66
$GPGSV,3,1,10,196,75,072,43,24,63,035,46,23,60,345,34,199,60,167,46,8*60
$GPGSV,3,2,10,18,52,229,48,194,34,136,46,195,30,179,33,10,26,323,33,8*6D
$GPGSV,3,3,10,25,16,171,22,32,14,278,38,8*69
$GLGSV,2,1,08,73,50,153,42,80,46,059,30,86,28,289,42,85,27,235,24,1*7D
$GLGSV,2,2,08,71,26,325,29,74,13,185,,69,09,084,17,79,03,027,14,1*71
$GAGSV,3,1,09,13,49,222,42,07,46,314,43,08,43,034,32,26,35,298,43,7*78
$GAGSV,3,2,09,30,32,137,42,02,27,076,22,15,15,173,20,27,07,185,,7*75
$GAGSV,3,3,09,03,07,071,,7*48
$GAGSV,2,1,07,13,49,222,43,07,46,314,43,08,43,034,31,26,35,298,44,1*74
$GAGSV,2,2,07,30,32,137,44,02,27,076,27,15,15,173,23,1*42
$GBGSV,4,1,15,08,84,350,39,38,81,152,43,13,72,324,42,39,69,296,44,1*70
$GBGSV,4,2,15,16,66,271,41,06,64,266,42,46,62,091,35,19,53,357,23,1*74
$GBGSV,4,3,15,09,50,247,41,36,44,183,46,20,40,075,28,35,18,260,39,1*7F
$GBGSV,4,4,15,37,16,042,27,22,16,308,37,29,13,206,23,1*46
$GBGSV,3,1,09,38,81,152,45,39,69,296,44,46,62,091,29,19,53,357,26,4*7B
$GBGSV,3,2,09,36,44,183,43,20,40,075,31,35,18,260,35,22,16,308,38,4*7F
$GBGSV,3,3,09,37,16,042,26,4*4B
$GNACCURACY,2.3*17
$PAIRSAT,1,35,1,0,200,2,0,200,3,0,200,4,0,200,5,0,201,6,0,200,7,0,200,8,0,200,9,0,200,10,0,221,11,0,200,12,0,201,13,0,201,14,0,200,15,0,201,16,0,200,17,0,200,18,0,221,19,0,200,20,0,200,21,0,200,23,0,221,24,0,221,25,0,220,26,0,200,27,0,200,28,0,200,29,0,200,30,0,200,31,0,200,32,0,221,194,0,621,195,0,621,196,0,620,199,0,621*6A
$PAIRSAT,2,24,65,0,200,66,0,200,67,0,200,68,0,200,69,0,200,70,0,200,71,0,201,72,0,200,73,0,201,74,0,200,75,0,200,76,0,200,77,0,200,78,0,200,79,0,201,80,0,201,81,0,200,82,0,200,83,0,200,84,0,200,85,0,201,86,0,201,87,0,200,88,0,200*7A
$PAIRSAT,3,23,2,0,1221,3,0,1221,4,0,1200,5,0,200,7,0,1221,8,0,1221,9,0,1200,10,0,1200,11,0,1200,12,0,1200,13,0,1221,15,0,1221,19,0,1200,21,0,1200,24,0,1200,25,0,1200,26,0,1221,27,0,1200,30,0,1221,31,0,1200,33,0,1200,34,0,1200,36,0,1200*6A
$PAIRSAT,4,50,1,0,200,2,0,200,3,0,200,4,0,200,5,0,200,6,0,201,7,0,200,8,0,201,9,0,201,10,0,200,11,0,200,12,0,200,13,0,201,14,0,200,15,0,200,16,0,201,19,0,621,20,0,621,21,0,600,22,0,621,23,0,600,24,0,600,25,0,600,26,0,600,27,0,600,28,0,600,29,0,621,30,0,600,31,0,200,32,0,600,33,0,600,34,0,600,35,0,621,36,0,621,37,0,621,38,0,621,39,0,621,40,0,600,41,0,600,42,0,600,43,0,600,44,0,600,45,0,600,46,0,621,56,0,200,57,0,200,58,0,200,59,0,600,60,0,600,61,0,600*41
$PAIRDGP,10,5,10,12,15,18,23,24,25,28,32*45
$GNGGA,114805.200,2500.8226228,N,12132.4608432,E,4,66,0.44,16.015,M,15.25,M,2,3335*45
$GNRMC,114805.200,A,2500.8226228,N,12132.4608432,E,0.01,333.82,260623,,,R,V*14
$GPHDT,183.154,T*3F
$GNACCURACY,2.3*17
$GNGGA,114805.300,2500.8226249,N,12132.4608460,E,4,66,0.44,16.024,M,15.25,M,2,3335*46
$GNRMC,114805.300,A,2500.8226249,N,12132.4608460,E,0.01,333.82,260623,,,R,V*15
$GPHDT,,T*1B
$GNACCURACY,2.3*17
$GNGGA,114805.400,2500.8226249,N,12132.4608443,E,4,66,0.44,16.019,M,15.25,M,2,3335*4E
$GNRMC,114805.400,A,2500.8226249,N,12132.4608443,E,0.01,333.82,260623,,,R,V*13
$GPHDT,183.040,T*3B
$GNACCURACY,2.3*17
$GNGGA,114805.500,2500.8226247,N,12132.4608467,E,4,66,0.44,16.031,M,15.25,M,1,3335*4E
$GNRMC,114805.500,A,2500.8226247,N,12132.4608467,E,0.01,333.82,260623,,,R,V*1A
$GPHDT,,T*1B
$GNACCURACY,2.3*17
$GNGGA,114805.600,2500.8226226,N,12132.4608462,E,4,66,0.44,16.011,M,15.25,M,0,3335*4C
$GNRMC,114805.600,A,2500.8226226,N,12132.4608462,E,0.01,333.82,260623,,,R,V*1B
$GPHDT,183.114,T*3B
$GNACCURACY,2.3*17
$GNGGA,114805.700,2500.8226231,N,12132.4608457,E,4,66,0.44,16.020,M,15.25,M,0,3335*4F
$GNRMC,114805.700,A,2500.8226231,N,12132.4608457,E,0.01,333.82,260623,,,R,V*1A
$GPHDT,,T*1B
$GNACCURACY,2.3*17
$GNGGA,114805.800,2500.8226222,N,12132.4608447,E,4,66,0.44,16.006,M,15.25,M,0,3335*47
$GNRMC,114805.800,A,2500.8226222,N,12132.4608447,E,0.01,333.82,260623,,,R,V*16
$GPHDT,183.002,T*3D
$GNACCURACY,2.3*17
$GNGGA,114805.900,2500.8226239,N,12132.4608427,E,4,66,0.44,16.023,M,15.25,M,0,3335*4D
$GNRMC,114805.900,A,2500.8226239,N,12132.4608427,E,0.01,333.82,260623,,,R,V*1B
$GPHDT,,T*1B
$GNACCURACY,2.3*17
$GNGGA,114806.000,2500.8226247,N,12132.4608473,E,4,66,0.44,16.002,M,15.25,M,1,3335*4D
$GNRMC,114806.000,A,2500.8226247,N,12132.4608473,E,0.01,333.82,260623,,,R,V*19
$GPHDT,183.017,T*39
$GNACCURACY,2.3*17
$GNGGA,114806.100,2500.8226245,N,12132.4608459,E,4,66,0.44,16.016,M,15.25,M,1,3335*43
$GNRMC,114806.100,A,2500.8226245,N,12132.4608459,E,0.01,333.82,260623,,,R,V*12
$GPHDT,,T*1B
$GNGSA,A,3,196,24,199,23,18,194,15,195,12,10,25,32,0.78,0.44,0.65,1*0D
$GNGSA,A,3,05,,,,,,,,,,,,0.78,0.44,0.65,1*08
$GNGSA,A,3,73,80,86,85,71,,,,,,,,0.78,0.44,0.65,2*07
$GNGSA,A,3,13,07,08,26,30,02,15,,,,,,0.78,0.44,0.65,3*03
$GNGSA,A,3,08,38,13,39,16,06,46,19,09,36,20,35,0.78,0.44,0.65,4*00
$GNGSA,A,3,37,22,29,,,,,,,,,,0.78,0.44,0.65,4*07
$GPGSV,4,1,16,196,75,072,40,24,63,035,35,199,60,167,37,23,60,345,31,1*6C
$GPGSV,4,2,16,18,52,229,46,41,38,242,42,194,34,136,38,15,32,057,26,1*5B
$GPGSV,4,3,16,195,30,179,39,12,27,133,40,10,26,323,42,25,16,171,19,1*52
$GPGSV,4,4,16,32,14,278,31,05,12,126,21,13,03,064,,28,02,221,,1*62
$GPGSV,3,1,10,196,75,072,43,24,63,035,46,23,60,345,34,199,60,167,46,8*60
$GPGSV,3,2,10,18,52,229,48,194,34,136,46,195,30,179,34,10,26,323,33,8*6A
$GPGSV,3,3,10,25,16,171,22,32,14,278,38,8*69
$GLGSV,2,1,07,73,50,153,42,80,46,059,30,86,28,289,43,85,27,235,24,1*73
$GLGSV,2,2,07,71,26,325,30,69,09,084,16,79,03,027,15,1*4B
$GAGSV,3,1,09,13,49,222,42,07,46,314,43,08,43,034,32,26,35,298,43,7*78
$GAGSV,3,2,09,30,32,137,42,02,27,076,21,15,15,173,20,27,07,185,,7*76
$GAGSV,3,3,09,03,07,071,,7*48
$GAGSV,2,1,07,13,49,222,43,07,46,314,44,08,43,034,31,26,35,298,44,1*73
$GAGSV,2,2,07,30,32,137,44,02,27,076,26,15,15,173,23,1*43
$GBGSV,4,1,15,08,84,350,39,38,81,152,43,13,72,324,42,39,69,296,43,1*77
$GBGSV,4,2,15,16,66,271,41,06,64,266,42,46,62,091,35,19,53,357,23,1*74
$GBGSV,4,3,15,09,50,247,41,36,44,183,46,20,40,075,29,35,18,260,38,1*7F
$GBGSV,4,4,15,37,16,042,29,22,16,308,37,29,13,206,23,1*48
$GBGSV,3,1,10,38,81,152,45,39,69,296,44,46,62,091,29,19,53,357,27,4*72
$GBGSV,3,2,10,36,44,183,43,20,40,075,32,35,18,260,34,22,16,308,37,4*7A
$GBGSV,3,3,10,37,16,042,26,29,13,206,16,4*79
$GNACCURACY,2.3*17
$PAIRSAT,1,35,1,0,200,2,0,200,3,0,200,4,0,200,5,0,201,6,0,200,7,0,200,8,0,200,9,0,200,10,0,221,11,0,200,12,0,201,13,0,201,14,0,200,15,0,201,16,0,200,17,0,200,18,0,221,19,0,200,20,0,200,21,0,200,23,0,221,24,0,221,25,0,220,26,0,200,27,0,200,28,0,200,29,0,200,30,0,200,31,0,200,32,0,221,194,0,621,195,0,621,196,0,620,199,0,621*6A
$PAIRSAT,2,24,65,0,200,66,0,200,67,0,200,68,0,200,69,0,200,70,0,200,71,0,201,72,0,200,73,0,201,74,0,200,75,0,200,76,0,200,77,0,200,78,0,200,79,0,201,80,0,201,81,0,200,82,0,200,83,0,200,84,0,200,85,0,201,86,0,201,87,0,200,88,0,200*7A
$PAIRSAT,3,23,2,0,1221,3,0,1221,4,0,1200,5,0,200,7,0,1221,8,0,1221,9,0,1200,10,0,1200,11,0,1200,12,0,1200,13,0,1221,15,0,1221,19,0,1200,21,0,1200,24,0,1200,25,0,1200,26,0,1221,27,0,1200,30,0,1221,31,0,1200,33,0,1200,34,0,1200,36,0,1200*6A
$PAIRSAT,4,50,1,0,200,2,0,200,3,0,200,4,0,200,5,0,200,6,0,201,7,0,200,8,0,201,9,0,201,10,0,200,11,0,200,12,0,200,13,0,201,14,0,200,15,0,200,16,0,201,19,0,621,20,0,621,21,0,600,22,0,621,23,0,600,24,0,600,25,0,600,26,0,600,27,0,600,28,0,600,29,0,621,30,0,600,31,0,200,32,0,600,33,0,600,34,0,600,35,0,621,36,0,621,37,0,621,38,0,621,39,0,621,40,0,600,41,0,600,42,0,600,43,0,600,44,0,600,45,0,600,46,0,621,56,0,200,57,0,200,58,0,200,59,0,600,60,0,600,61,0,600*41
$PAIRDGP,10,5,10,12,15,18,23,24,25,28,32*45
$GNGGA,114806.200,2500.8226246,N,12132.4608465,E,4,67,0.44,16.022,M,15.25,M,1,3335*4A
$GNRMC,114806.200,A,2500.8226246,N,12132.4608465,E,0.01,333.82,260623,,,R,V*1D
$GPHDT,183.384,T*30
$GNACCURACY,2.3*17
$GNGGA,114806.300,2500.8226268,N,12132.4608478,E,4,67,0.44,16.012,M,15.25,M,1,3335*48
$GNRMC,114806.300,A,2500.8226268,N,12132.4608478,E,0.01,333.82,260623,,,R,V*1C
$GPHDT,,T*1B
$GNACCURACY,2.3*17
$GNGGA,114806.400,2500.8226115,N,12132.4608458,E,4,67,0.44,15.983,M,15.25,M,1,3335*46
$GNRMC,114806.400,A,2500.8226115,N,12132.4608458,E,0.01,333.82,260623,,,R,V*10
$GPHDT,183.548,T*36
$GNACCURACY,2.3*17
$GNGGA,114806.500,2500.8226111,N,12132.4608444,E,4,67,0.44,16.012,M,15.25,M,1,3335*4C
$GNRMC,114806.500,A,2500.8226111,N,12132.4608444,E,0.01,333.82,260623,,,R,V*18
$GPHDT,,T*1B
$GNACCURACY,2.3*17
$GNGGA,114806.600,2500.8226066,N,12132.4608505,E,4,67,0.44,16.003,M,15.25,M,0,3335*4B
$GNRMC,114806.600,A,2500.8226066,N,12132.4608505,E,0.01,333.82,260623,,,R,V*1E
$GPHDT,183.238,T*36
$GNACCURACY,2.3*17
$GNGGA,114806.700,2500.8226087,N,12132.4608453,E,4,67,0.44,16.002,M,15.25,M,0,3335*46
$GNRMC,114806.700,A,2500.8226087,N,12132.4608453,E,0.01,333.82,260623,,,R,V*12
$GPHDT,,T*1B
$GNACCURACY,2.3*17
$GNGGA,114806.800,2500.8226087,N,12132.4608433,E,4,67,0.44,16.021,M,15.25,M,0,3335*4E
$GNRMC,114806.800,A,2500.8226087,N,12132.4608433,E,0.01,333.82,260623,,,R,V*1B
$GPHDT,183.081,T*36
$GNACCURACY,2.3*17
$GNGGA,114806.900,2500.8226070,N,12132.4608459,E,4,67,0.44,16.010,M,15.25,M,0,3335*49
$GNRMC,114806.900,A,2500.8226070,N,12132.4608459,E,0.01,333.82,260623,,,R,V*1E
$GPHDT,,T*1B
$GNACCURACY,2.3*17
$GNGGA,114807.000,2500.8226089,N,12132.4608435,E,4,67,0.44,16.006,M,15.25,M,1,3335*4B
$GNRMC,114807.000,A,2500.8226089,N,12132.4608435,E,0.01,333.82,260623,,,R,V*1A
$GPHDT,183.070,T*38
$GNACCURACY,2.3*17
$GNGGA,114807.100,2500.8226095,N,12132.4608465,E,4,67,0.44,16.000,M,15.25,M,1,3335*44
$GNRMC,114807.100,A,2500.8226095,N,12132.4608465,E,0.01,333.82,260623,,,R,V*13
$GPHDT,,T*1B
$GNGSA,A,3,196,24,199,23,18,194,15,195,12,10,25,32,0.78,0.44,0.65,1*0D
$GNGSA,A,3,05,,,,,,,,,,,,0.78,0.44,0.65,1*08
$GNGSA,A,3,73,80,86,85,71,,,,,,,,0.78,0.44,0.65,2*07
$GNGSA,A,3,13,07,08,26,30,02,15,,,,,,0.78,0.44,0.65,3*03
$GNGSA,A,3,08,38,13,39,16,06,46,19,09,36,20,35,0.78,0.44,0.65,4*00
$GNGSA,A,3,37,22,29,,,,,,,,,,0.78,0.44,0.65,4*07
$GPGSV,4,1,16,196,75,072,40,24,63,035,35,199,60,167,37,23,60,345,32,1*6F
$GPGSV,4,2,16,18,52,229,46,41,38,242,43,194,34,136,38,15,32,057,28,1*54
$GPGSV,4,3,16,195,30,179,39,12,27,133,39,10,26,323,43,25,16,171,19,1*5D
$GPGSV,4,4,16,32,14,278,25,05,12,126,22,13,03,064,,28,02,221,,1*64
$GPGSV,3,1,10,196,75,072,44,24,63,035,46,23,60,345,35,199,60,167,47,8*67
$GPGSV,3,2,10,18,52,229,48,194,34,136,46,195,30,179,33,10,26,323,32,8*6C
$GPGSV,3,3,10,25,16,171,23,32,14,278,38,8*68
$GLGSV,2,1,07,73,50,153,42,80,46,059,31,86,28,289,43,85,27,235,27,1*71
$GLGSV,2,2,07,71,26,325,28,69,09,084,13,79,03,027,17,1*45
$GAGSV,3,1,09,13,49,222,42,07,46,314,43,08,43,034,32,26,35,298,43,7*78
$GAGSV,3,2,09,30,32,137,42,02,27,076,20,15,15,173,20,27,07,185,,7*77
$GAGSV,3,3,09,03,07,071,,7*48
$GAGSV,2,1,07,13,49,222,43,07,46,314,45,08,43,034,32,26,35,298,45,1*70
$GAGSV,2,2,07,30,32,137,44,02,27,076,27,15,15,173,22,1*43
$GBGSV,4,1,15,08,84,350,39,38,81,152,43,13,72,324,42,39,69,296,43,1*77
$GBGSV,4,2,15,16,66,271,41,06,64,266,42,46,62,091,35,19,53,357,23,1*74
$GBGSV,4,3,15,09,50,247,41,36,44,183,46,20,40,075,30,35,18,260,37,1*78
$GBGSV,4,4,15,37,16,042,28,22,16,308,37,29,13,206,23,1*49
$GBGSV,3,1,10,38,81,152,45,39,69,296,45,46,62,091,29,19,53,357,25,4*71
$GBGSV,3,2,10,36,44,183,43,20,40,075,32,35,18,260,34,22,16,308,37,4*7A
$GBGSV,3,3,10,37,16,042,26,29,13,206,14,4*7B
$GNACCURACY,2.3*17
$PAIRSAT,1,35,1,0,200,2,0,200,3,0,200,4,0,200,5,0,201,6,0,200,7,0,200,8,0,200,9,0,200,10,0,221,11,0,200,12,0,201,13,0,201,14,0,200,15,0,201,16,0,200,17,0,200,18,0,221,19,0,200,20,0,200,21,0,200,23,0,221,24,0,221,25,0,220,26,0,200,27,0,200,28,0,200,29,0,200,30,0,200,31,0,200,32,0,221,194,0,621,195,0,621,196,0,620,199,0,621*6A
$PAIRSAT,2,24,65,0,200,66,0,200,67,0,200,68,0,200,69,0,200,70,0,200,71,0,201,72,0,200,73,0,201,74,0,200,75,0,200,76,0,200,77,0,200,78,0,200,79,0,201,80,0,201,81,0,200,82,0,200,83,0,200,84,0,200,85,0,201,86,0,201,87,0,200,88,0,200*7A
$PAIRSAT,3,23,2,0,1221,3,0,1221,4,0,1200,5,0,200,7,0,1221,8,0,1221,9,0,1200,10,0,1200,11,0,1200,12,0,1200,13,0,1221,15,0,1221,19,0,1200,21,0,1200,24,0,1200,25,0,1200,26,0,1221,27,0,1200,30,0,1221,31,0,1200,33,0,1200,34,0,1200,36,0,1200*6A
$PAIRSAT,4,50,1,0,200,2,0,200,3,0,200,4,0,200,5,0,200,6,0,201,7,0,200,8,0,201,9,0,201,10,0,200,11,0,200,12,0,200,13,0,201,14,0,200,15,0,200,16,0,201,19,0,621,20,0,621,21,0,600,22,0,621,23,0,600,24,0,600,25,0,600,26,0,600,27,0,600,28,0,600,29,0,621,30,0,600,31,0,200,32,0,600,33,0,600,34,0,600,35,0,621,36,0,621,37,0,621,38,0,621,39,0,621,40,0,600,41,0,600,42,0,600,43,0,600,44,0,600,45,0,600,46,0,621,56,0,200,57,0,200,58,0,200,59,0,600,60,0,600,61,0,600*41
$PAIRDGP,10,5,10,12,15,18,23,24,25,28,32*45
$GNGGA,114807.200,2500.8226114,N,12132.4608475,E,4,67,0.44,16.011,M,15.25,M,1,3335*4E
$GNRMC,114807.200,A,2500.8226114,N,12132.4608475,E,0.01,333.82,260623,,,R,V*19
$GPHDT,183.262,T*39
$GNACCURACY,2.3*17
$GNGGA,114807.300,2500.8226098,N,12132.4608439,E,4,67,0.44,16.005,M,15.25,M,1,3335*47
$GNRMC,114807.300,A,2500.8226098,N,12132.4608439,E,0.01,333.82,260623,,,R,V*15
$GPHDT,,T*1B
$GNACCURACY,2.3*17
$GNGGA,114807.400,2500.8226102,N,12132.4608461,E,4,67,0.44,16.003,M,15.25,M,1,3335*49
$GNRMC,114807.400,A,2500.8226102,N,12132.4608461,E,0.01,333.82,260623,,,R,V*1D
$GPHDT,183.264,T*3F
$GNACCURACY,2.3*17
$GNGGA,114807.500,2500.8226117,N,12132.4608445,E,4,67,0.44,15.998,M,15.25,M,1,3335*42
$GNRMC,114807.500,A,2500.8226117,N,12132.4608445,E,0.01,333.82,260623,,,R,V*1E
$GPHDT,,T*1B
$GNACCURACY,2.3*17
$GNGGA,114807.600,2500.8226115,N,12132.4608450,E,4,67,0.44,15.997,M,15.25,M,0,3335*49
$GNRMC,114807.600,A,2500.8226115,N,12132.4608450,E,0.01,333.82,260623,,,R,V*1B
$GPHDT,183.366,T*3C
$GNACCURACY,2.3*17
$GNGGA,114807.700,2500.8226091,N,12132.4608472,E,4,67,0.44,16.004,M,15.25,M,0,3335*45
$GNRMC,114807.700,A,2500.8226091,N,12132.4608472,E,0.01,333.82,260623,,,R,V*17
$GPHDT,,T*1B
$GNACCURACY,2.3*17
$GNGGA,114807.800,2500.8226099,N,12132.4608450,E,4,67,0.44,15.999,M,15.25,M,0,3335*4C
$GNRMC,114807.800,A,2500.8226099,N,12132.4608450,E,0.01,333.82,260623,,,R,V*10
$GPHDT,183.497,T*35
$GNACCURACY,2.3*17
$GNGGA,114807.900,2500.8226078,N,12132.4608435,E,4,67,0.44,16.013,M,15.25,M,0,3335*49
$GNRMC,114807.900,A,2500.8226078,N,12132.4608435,E,0.01,333.82,260623,,,R,V*1D
$GPHDT,,T*1B
$GNACCURACY,2.3*17
$GNGGA,114808.000,2500.8226100,N,12132.4608459,E,4,67,0.44,16.002,M,15.25,M,1,3335*4A
$GNRMC,114808.000,A,2500.8226100,N,12132.4608459,E,0.00,333.82,260623,,,R,V*1E
$GPHDT,183.673,T*3D
$GNACCURACY,2.3*17
$GNGGA,114808.100,2500.8226137,N,12132.4608437,E,4,67,0.44,16.012,M,15.25,M,1,3335*46
$GNRMC,114808.100,A,2500.8226137,N,12132.4608437,E,0.00,333.82,260623,,,R,V*13
$GPHDT,,T*1B
$GNGSA,A,3,196,24,199,23,18,194,15,195,12,10,25,32,0.78,0.44,0.65,1*0D
$GNGSA,A,3,05,,,,,,,,,,,,0.78,0.44,0.65,1*08
$GNGSA,A,3,73,80,86,85,71,,,,,,,,0.78,0.44,0.65,2*07
$GNGSA,A,3,13,07,08,26,30,02,15,,,,,,0.78,0.44,0.65,3*03
$GNGSA,A,3,08,38,13,39,16,06,46,19,09,36,20,35,0.78,0.44,0.65,4*00
$GNGSA,A,3,37,22,29,,,,,,,,,,0.78,0.44,0.65,4*07
$GPGSV,4,1,16,196,75,072,40,24,63,035,36,199,60,167,37,23,60,345,32,1*6C
$GPGSV,4,2,16,18,52,229,46,41,38,242,43,194,34,136,38,15,32,057,26,1*5A
$GPGSV,4,3,16,195,30,179,38,12,27,133,39,10,26,323,43,25,16,171,19,1*5C
$GPGSV,4,4,16,32,14,278,27,05,12,126,22,13,03,064,,28,02,221,,1*66
$GPGSV,3,1,10,196,75,072,44,24,63,035,46,23,60,345,35,199,60,167,47,8*67
$GPGSV,3,2,10,18,52,229,49,194,34,136,46,195,30,179,34,10,26,323,35,8*6D
$GPGSV,3,3,10,25,16,171,23,32,14,278,36,8*66
$GLGSV,2,1,07,73,50,153,42,80,46,059,32,86,28,289,40,85,27,235,26,1*70
$GLGSV,2,2,07,71,26,325,29,69,09,084,14,79,03,027,14,1*40
$GAGSV,3,1,09,13,49,222,42,07,46,314,43,08,43,034,32,26,35,298,38,7*74
$GAGSV,3,2,09,30,32,137,42,02,27,076,21,15,15,173,19,27,07,185,,7*7C
$GAGSV,3,3,09,03,07,071,,7*48
$GAGSV,2,1,07,13,49,222,44,07,46,314,43,08,43,034,32,26,35,298,41,1*75
$GAGSV,2,2,07,30,32,137,44,02,27,076,27,15,15,173,21,1*40
$GBGSV,4,1,15,08,84,350,39,38,81,152,43,13,72,324,43,39,69,296,42,1*77
$GBGSV,4,2,15,16,66,271,39,06,64,266,40,46,62,091,36,19,53,357,26,1*7F
$GBGSV,4,3,15,09,50,247,41,36,44,183,46,20,40,075,30,35,18,260,40,1*78
$GBGSV,4,4,15,37,16,042,28,22,16,308,36,29,13,206,23,1*48
$GBGSV,3,1,10,38,81,152,45,39,69,296,44,46,62,091,29,19,53,357,26,4*73
$GBGSV,3,2,10,36,44,183,44,20,40,075,32,35,18,260,36,22,16,308,38,4*70
$GBGSV,3,3,10,37,16,042,26,29,13,206,15,4*7A
$GNACCURACY,2.3*17
$PAIRSAT,1,35,1,0,200,2,0,200,3,0,200,4,0,200,5,0,201,6,0,200,7,0,200,8,0,200,9,0,200,10,0,221,11,0,200,12,0,201,13,0,201,14,0,200,15,0,201,16,0,200,17,0,200,18,0,221,19,0,200,20,0,200,21,0,200,23,0,221,24,0,221,25,0,220,26,0,200,27,0,200,28,0,200,29,0,200,30,0,200,31,0,200,32,0,221,194,0,621,195,0,621,196,0,620,199,0,621*6A
$PAIRSAT,2,24,65,0,200,66,0,200,67,0,200,68,0,200,69,0,200,70,0,200,71,0,201,72,0,200,73,0,201,74,0,200,75,0,200,76,0,200,77,0,200,78,0,200,79,0,201,80,0,201,81,0,200,82,0,200,83,0,200,84,0,200,85,0,201,86,0,201,87,0,200,88,0,200*7A
$PAIRSAT,3,23,2,0,1221,3,0,1221,4,0,1200,5,0,200,7,0,1221,8,0,1221,9,0,1200,10,0,1200,11,0,1200,12,0,1200,13,0,1221,15,0,1221,19,0,1200,21,0,1200,24,0,1200,25,0,1200,26,0,1221,27,0,1200,30,0,1221,31,0,1200,33,0,1200,34,0,1200,36,0,1200*6A
$PAIRSAT,4,50,1,0,200,2,0,200,3,0,200,4,0,200,5,0,200,6,0,201,7,0,200,8,0,201,9,0,201,10,0,200,11,0,200,12,0,200,13,0,201,14,0,200,15,0,200,16,0,201,19,0,621,20,0,621,21,0,600,22,0,621,23,0,600,24,0,600,25,0,600,26,0,600,27,0,600,28,0,600,29,0,621,30,0,600,31,0,200,32,0,600,33,0,600,34,0,600,35,0,621,36,0,621,37,0,621,38,0,621,39,0,621,40,0,600,41,0,600,42,0,600,43,0,600,44,0,600,45,0,600,46,0,621,56,0,200,57,0,200,58,0,200,59,0,600,60,0,600,61,0,600*41
$PAIRDGP,10,5,10,12,15,18,23,24,25,28,32*45
$GNGGA,114808.200,2500.8226108,N,12132.4608441,E,4,67,0.44,16.005,M,15.25,M,1,3335*4E
$GNRMC,114808.200,A,2500.8226108,N,12132.4608441,E,0.01,333.82,260623,,,R,V*1C
$GPHDT,183.394,T*31
$GNACCURACY,2.3*17
$GNGGA,114808.300,2500.8226106,N,12132.4608449,E,4,67,0.44,15.996,M,15.25,M,1,3335*49
$GNRMC,114808.300,A,2500.8226106,N,12132.4608449,E,0.00,333.82,260623,,,R,V*1A
$GPHDT,,T*1B
$GNACCURACY,2.3*17
$GNGGA,114808.400,2500.8226164,N,12132.4608453,E,4,67,0.44,16.001,M,15.25,M,1,3335*45
$GNRMC,114808.400,A,2500.8226164,N,12132.4608453,E,0.00,333.82,260623,,,R,V*12
$GPHDT,183.557,T*38
$GNACCURACY,2.3*17
$GNGGA,114808.500,2500.8226286,N,12132.4608482,E,4,67,0.44,16.007,M,15.25,M,1,3335*41
$GNRMC,114808.500,A,2500.8226286,N,12132.4608482,E,0.00,333.82,260623,,,R,V*10
$GPHDT,,T*1B
$GNACCURACY,2.3*17
$GNGGA,114808.600,2500.8226290,N,12132.4608506,E,4,67,0.44,16.010,M,15.25,M,0,3335*4F
$GNRMC,114808.600,A,2500.8226290,N,12132.4608506,E,0.01,333.82,260623,,,R,V*18
$GPHDT,183.381,T*35
$GNACCURACY,2.3*17
$GNGGA,114808.700,2500.8226295,N,12132.4608522,E,4,67,0.44,16.012,M,15.25,M,0,3335*4F
$GNRMC,114808.700,A,2500.8226295,N,12132.4608522,E,0.01,333.82,260623,,,R,V*1A
$GPHDT,,T*1B
