$FW : RTK35X,V1.1X0314AS,Lib20210517,1*54
$Tool : LOCOSYS , GNSS Firebird , v1.0.0.19*39
$---------------------------------------------------*2D
$GNACCURACY,2.3*17
$GNGGA,114838.600,2500.8230328,N,12132.4613630,E,2,63,0.45,19.630,M,15.25,M,5,3335*48
$GNRMC,114838.600,A,2500.8230328,N,12132.4613630,E,0.02,333.82,260623,,,D,V*07
$GPHDT,,T*1B
$GNACCURACY,2.3*17
$GNGGA,114838.700,2500.8230328,N,12132.4613630,E,2,63,0.45,19.654,M,15.25,M,5,3335*4B
$GNRMC,114838.700,A,2500.8230328,N,12132.4613630,E,0.03,333.82,260623,,,D,V*07
$GPHDT,,T*1B
$GNACCURACY,2.3*17
$GNGGA,114838.800,2500.8230328,N,12132.4613630,E,2,64,0.45,19.676,M,15.25,M,5,3335*43
$GNRMC,114838.800,A,2500.8230328,N,12132.4613630,E,0.02,333.82,260623,,,D,V*09
$GPHDT,,T*1B
$GNACCURACY,2.3*17
$GNGGA,114838.900,2500.8230328,N,12132.4613630,E,2,63,0.45,19.701,M,15.25,M,5,3335*44
$GNRMC,114838.900,A,2500.8230328,N,12132.4613630,E,0.02,333.82,260623,,,D,V*08
$GPHDT,,T*1B
$GNACCURACY,2.3*17
$GNGGA,114839.000,2500.8230328,N,12132.4613570,E,2,63,0.45,19.727,M,15.25,M,6,3335*4C
$GNRMC,114839.000,A,2500.8230328,N,12132.4613570,E,0.02,333.82,260623,,,D,V*07
$GPHDT,,T*1B
$GNACCURACY,2.3*17
$GNGGA,114839.100,2500.8230388,N,12132.4613570,E,2,63,0.45,19.751,M,15.25,M,6,3335*46
$GNRMC,114839.100,A,2500.8230388,N,12132.4613570,E,0.02,333.82,260623,,,D,V*0C
$GPHDT,,T*1B
$GNGSA,A,3,196,24,199,23,18,194,195,12,10,25,32,,0.73,0.45,0.57,1*02
$GNGSA,A,3,73,80,86,85,71,,,,,,,,0.73,0.45,0.57,2*0C
$GNGSA,A,3,13,07,08,26,30,02,15,,,,,,0.73,0.45,0.57,3*08
$GNGSA,A,3,08,38,13,39,16,06,46,19,09,36,20,35,0.73,0.45,0.57,4*0B
$GNGSA,A,3,37,22,29,,,,,,,,,,0.73,0.45,0.57,4*0C
$GPGSV,4,1,16,196,75,072,42,24,63,034,38,199,60,167,35,23,60,345,35,1*64
$GPGSV,4,2,16,18,52,229,46,41,38,242,42,194,34,136,40,15,32,057,27,1*55
$GPGSV,4,3,16,195,30,179,36,12,27,133,37,10,26,323,42,25,16,171,24,1*53
$GPGSV,4,4,16,32,14,278,39,05,12,126,14,13,03,064,,28,02,221,,1*6C
$GPGSV,3,1,10,196,75,072,43,24,63,034,46,23,60,345,36,199,60,167,42,8*67
$GPGSV,3,2,10,18,52,229,46,194,34,136,42,195,30,179,34,10,26,323,33,8*60
$GPGSV,3,3,10,25,16,171,24,32,14,278,35,8*62
$GLGSV,2,1,07,73,50,153,43,80,46,058,31,86,28,289,42,85,27,235,25,1*72
$GLGSV,2,2,07,71,26,325,32,69,09,085,18,79,03,027,17,1*44
$GAGSV,3,1,09,13,49,222,42,07,46,314,43,08,43,035,31,26,35,298,40,7*79
$GAGSV,3,2,09,30,32,137,40,02,27,076,24,15,15,173,21,27,07,185,,7*70
$GAGSV,3,3,09,03,07,071,16,7*4F
$GAGSV,2,1,07,13,49,222,44,07,46,314,43,08,43,035,33,26,35,298,43,1*77
$GAGSV,2,2,07,30,32,137,40,02,27,076,23,15,15,173,19,1*4B
$GBGSV,4,1,15,08,84,350,40,38,81,153,43,13,72,324,42,39,69,296,44,1*7F
$GBGSV,4,2,15,16,66,271,42,06,64,266,40,46,62,091,35,19,53,357,25,1*73
$GBGSV,4,3,15,09,50,247,40,36,45,183,40,20,40,075,37,35,18,260,39,1*77
$GBGSV,4,4,15,37,16,042,35,22,16,308,35,29,13,205,20,1*47
$GBGSV,3,1,09,38,81,153,44,39,69,296,45,46,62,091,22,36,45,183,43,4*73
$GBGSV,3,2,09,20,40,075,31,35,18,260,37,22,16,308,30,37,16,042,21,4*7B
$GBGSV,3,3,09,29,13,205,17,4*42
$GNACCURACY,2.3*17
$PAIRSAT,1,35,1,0,200,2,0,200,3,0,200,4,0,200,5,0,201,6,0,200,7,0,200,8,0,200,9,0,200,10,0,221,11,0,200,12,0,201,13,0,201,14,0,200,15,0,201,16,0,200,17,0,200,18,0,221,19,0,200,20,0,200,21,0,200,23,0,221,24,0,221,25,0,220,26,0,200,27,0,200,28,0,200,29,0,200,30,0,200,31,0,200,32,0,221,194,0,621,195,0,621,196,0,620,199,0,621*6A
$PAIRSAT,2,24,65,0,200,66,0,200,67,0,200,68,0,200,69,0,200,70,0,200,71,0,201,72,0,200,73,0,201,74,0,200,75,0,200,76,0,200,77,0,200,78,0,200,79,0,201,80,0,201,81,0,200,82,0,200,83,0,200,84,0,200,85,0,201,86,0,201,87,0,200,88,0,200*7A
$PAIRSAT,3,23,2,0,1221,3,0,1221,4,0,1200,5,0,200,7,0,1221,8,0,1221,9,0,1200,10,0,1200,11,0,1200,12,0,1200,13,0,1221,15,0,1221,19,0,1200,21,0,1200,24,0,1200,25,0,1200,26,0,1221,27,0,1200,30,0,1221,31,0,1200,33,0,1200,34,0,1200,36,0,1200*6A
$PAIRSAT,4,50,1,0,200,2,0,200,3,0,200,4,0,200,5,0,200,6,0,201,7,0,200,8,0,201,9,0,201,10,0,200,11,0,200,12,0,200,13,0,201,14,0,200,15,0,200,16,0,201,19,0,621,20,0,621,21,0,600,22,0,621,23,0,600,24,0,600,25,0,600,26,0,600,27,0,600,28,0,600,29,0,621,30,0,600,31,0,200,32,0,600,33,0,600,34,0,600,35,0,621,36,0,621,37,0,621,38,0,621,39,0,621,40,0,600,41,0,600,42,0,600,43,0,600,44,0,600,45,0,600,46,0,621,56,0,200,57,0,200,58,0,200,59,0,600,60,0,600,61,0,600*41
$PAIRDGP,10,5,10,12,15,18,23,24,25,28,32*45
$GNGGA,114839.200,2500.8230388,N,12132.4613510,E,2,63,0.45,19.778,M,15.25,M,6,3335*48
$GNRMC,114839.200,A,2500.8230388,N,12132.4613510,E,0.02,333.82,260623,,,D,V*09
$GPHDT,,T*1B
$GNACCURACY,2.3*17
$GNGGA,114839.300,2500.8230388,N,12132.4613510,E,2,64,0.45,19.803,M,15.25,M,6,3335*4D
$GNRMC,114839.300,A,2500.8230388,N,12132.4613510,E,0.02,333.82,260623,,,D,V*08
$GPHDT,,T*1B
$GNACCURACY,2.3*17
$GNGGA,114839.400,2500.8230388,N,12132.4613510,E,2,64,0.45,19.828,M,15.25,M,5,3335*40
$GNRMC,114839.400,A,2500.8230388,N,12132.4613510,E,0.02,333.82,260623,,,D,V*0F
$GPHDT,,T*1B
$GNACCURACY,2.3*17
$GNGGA,114839.500,2500.8230448,N,12132.4613450,E,2,64,0.45,19.855,M,15.25,M,5,3335*45
$GNRMC,114839.500,A,2500.8230448,N,12132.4613450,E,0.02,333.82,260623,,,D,V*00
$GPHDT,,T*1B
$GNACCURACY,2.3*17
$GNGGA,114839.600,2500.8230448,N,12132.4613450,E,2,64,0.45,19.876,M,15.25,M,5,3335*47
$GNRMC,114839.600,A,2500.8230448,N,12132.4613450,E,0.02,333.82,260623,,,D,V*03
$GPHDT,,T*1B
$GNACCURACY,2.3*17
$GNGGA,114839.700,2500.8230448,N,12132.4613390,E,2,64,0.45,19.898,M,15.25,M,2,3335*4A
$GNRMC,114839.700,A,2500.8230448,N,12132.4613390,E,0.02,333.82,260623,,,D,V*09
$GPHDT,,T*1B
$GNACCURACY,2.3*17
$GNGGA,114839.800,2500.8230448,N,12132.4613390,E,2,64,0.45,19.918,M,15.25,M,2,3335*4C
$GNRMC,114839.800,A,2500.8230448,N,12132.4613390,E,0.02,333.82,260623,,,D,V*06
$GPHDT,,T*1B
$GNACCURACY,2.3*17
$GNGGA,114839.900,2500.8230448,N,12132.4613330,E,2,64,0.45,19.942,M,15.25,M,2,3335*48
$GNRMC,114839.900,A,2500.8230448,N,12132.4613330,E,0.02,333.82,260623,,,D,V*0D
$GPHDT,,T*1B
$GNACCURACY,2.3*17
$GNGGA,114840.000,2500.8230448,N,12132.4613330,E,2,64,0.45,19.963,M,15.25,M,1,3335*4F
$GNRMC,114840.000,A,2500.8230448,N,12132.4613330,E,0.02,333.82,260623,,,D,V*0A
$GPHDT,,T*1B
$GNACCURACY,2.3*17
$GNGGA,114840.100,2500.8230448,N,12132.4613330,E,2,64,0.45,19.984,M,15.25,M,1,3335*47
$GNRMC,114840.100,A,2500.8230448,N,12132.4613330,E,0.01,333.82,260623,,,D,V*08
$GPHDT,,T*1B
$GNGSA,A,3,196,24,199,23,18,194,15,195,12,10,25,32,0.72,0.45,0.56,1*06
$GNGSA,A,3,73,80,86,85,71,,,,,,,,0.72,0.45,0.56,2*0C
$GNGSA,A,3,13,07,08,26,30,02,15,,,,,,0.72,0.45,0.56,3*08
$GNGSA,A,3,08,38,13,39,16,06,46,19,09,36,20,35,0.72,0.45,0.56,4*0B
$GNGSA,A,3,37,22,29,,,,,,,,,,0.72,0.45,0.56,4*0C
$GPGSV,4,1,16,196,75,072,42,24,63,034,38,199,60,167,36,23,60,345,35,1*67
$GPGSV,4,2,16,18,52,229,46,41,38,242,42,194,34,136,40,15,32,057,28,1*5A
$GPGSV,4,3,16,195,30,179,36,12,27,133,37,10,26,323,42,25,16,171,25,1*52
$GPGSV,4,4,16,32,14,278,40,05,12,126,16,13,03,064,,28,02,221,,1*60
$GPGSV,3,1,10,196,75,072,43,24,63,034,46,23,60,345,36,199,60,167,42,8*67
$GPGSV,3,2,10,18,52,229,45,194,34,136,42,195,30,179,33,10,26,323,33,8*64
$GPGSV,3,3,10,25,16,171,25,32,14,278,35,8*63
$GLGSV,2,1,07,73,50,153,43,80,46,058,31,86,28,289,41,85,27,235,24,1*70
$GLGSV,2,2,07,71,26,325,31,69,09,085,18,79,03,027,18,1*48
$GAGSV,3,1,09,13,49,222,42,07,46,314,43,08,43,035,31,26,35,298,40,7*79
$GAGSV,3,2,09,30,32,137,40,02,27,076,26,15,15,173,21,27,07,185,,7*72
$GAGSV,3,3,09,03,07,071,18,7*41
$GAGSV,2,1,07,13,49,222,44,07,46,314,43,08,43,035,33,26,35,298,43,1*77
$GAGSV,2,2,07,30,32,137,40,02,27,076,24,15,15,173,20,1*46
$GBGSV,4,1,15,08,84,350,40,38,81,153,43,13,72,324,42,39,69,296,44,1*7F
$GBGSV,4,2,15,16,66,271,42,06,64,266,40,46,62,091,34,19,53,357,24,1*73
$GBGSV,4,3,15,09,50,247,40,36,45,183,40,20,40,075,37,35,18,260,40,1*79
$GBGSV,4,4,15,37,16,042,35,22,16,308,34,29,13,205,19,1*4C
$GBGSV,3,1,09,38,81,153,45,39,69,296,45,46,62,091,28,36,45,183,43,4*78
$GBGSV,3,2,09,20,40,075,31,35,18,260,37,22,16,308,30,37,16,042,18,4*71
$GBGSV,3,3,09,29,13,205,18,4*4D
$GNACCURACY,2.3*17
$PAIRSAT,1,35,1,0,200,2,0,200,3,0,200,4,0,200,5,0,201,6,0,200,7,0,200,8,0,200,9,0,200,10,0,221,11,0,200,12,0,201,13,0,201,14,0,200,15,0,201,16,0,200,17,0,200,18,0,221,19,0,200,20,0,200,21,0,200,23,0,221,24,0,221,25,0,220,26,0,200,27,0,200,28,0,200,29,0,200,30,0,200,31,0,200,32,0,221,194,0,621,195,0,621,196,0,620,199,0,621*6A
$PAIRSAT,2,24,65,0,200,66,0,200,67,0,200,68,0,200,69,0,200,70,0,200,71,0,201,72,0,200,73,0,201,74,0,200,75,0,200,76,0,200,77,0,200,78,0,200,79,0,201,80,0,201,81,0,200,82,0,200,83,0,200,84,0,200,85,0,201,86,0,201,87,0,200,88,0,200*7A
$PAIRSAT,3,23,2,0,1221,3,0,1221,4,0,1200,5,0,200,7,0,1221,8,0,1221,9,0,1200,10,0,1200,11,0,1200,12,0,1200,13,0,1221,15,0,1221,19,0,1200,21,0,1200,24,0,1200,25,0,1200,26,0,1221,27,0,1200,30,0,1221,31,0,1200,33,0,1200,34,0,1200,36,0,1200*6A
$PAIRSAT,4,50,1,0,200,2,0,200,3,0,200,4,0,200,5,0,200,6,0,201,7,0,200,8,0,201,9,0,201,10,0,200,11,0,200,12,0,200,13,0,201,14,0,200,15,0,200,16,0,201,19,0,621,20,0,621,21,0,600,22,0,621,23,0,600,24,0,600,25,0,600,26,0,600,27,0,600,28,0,600,29,0,621,30,0,600,31,0,200,32,0,600,33,0,600,34,0,600,35,0,621,36,0,621,37,0,621,38,0,621,39,0,621,40,0,600,41,0,600,42,0,600,43,0,600,44,0,600,45,0,600,46,0,621,56,0,200,57,0,200,58,0,200,59,0,600,60,0,600,61,0,600*41
$PAIRDGP,10,5,10,12,15,18,23,24,25,28,32*45
$GNGGA,114840.200,2500.8230448,N,12132.4613330,E,2,64,0.45,20.009,M,15.25,M,1,3335*42
$GNRMC,114840.200,A,2500.8230448,N,12132.4613330,E,0.02,333.82,260623,,,D,V*08
$GPHDT,,T*1B
$GNACCURACY,2.2*16
$GNGGA,114840.300,2500.8226073,N,12132.4608286,E,4,65,0.45,16.063,M,15.25,M,1,3335*40
$GNRMC,114840.300,A,2500.8226073,N,12132.4608286,E,0.01,333.82,260623,,,R,V*11
$GPHDT,,T*1B
$GNACCURACY,2.2*16
$GNGGA,114840.400,2500.8226058,N,12132.4608272,E,4,65,0.45,16.050,M,15.25,M,1,3335*45
$GNRMC,114840.400,A,2500.8226058,N,12132.4608272,E,0.01,333.82,260623,,,R,V*14
$GPHDT,,T*1B
$GNACCURACY,2.2*16
$GNGGA,114840.500,2500.8226061,N,12132.4608265,E,4,64,0.45,16.076,M,15.25,M,1,3335*4D
$GNRMC,114840.500,A,2500.8226061,N,12132.4608265,E,0.01,333.82,260623,,,R,V*19
$GPHDT,,T*1B
$GNACCURACY,2.2*16
$GNGGA,114840.600,2500.8226057,N,12132.4608284,E,4,64,0.45,16.081,M,15.25,M,0,3335*4D
$GNRMC,114840.600,A,2500.8226057,N,12132.4608284,E,0.01,333.82,260623,,,R,V*10
$GPHDT,,T*1B
$GNACCURACY,2.2*16
$GNGGA,114840.700,2500.8226071,N,12132.4608296,E,4,64,0.45,16.070,M,15.25,M,0,3335*45
$GNRMC,114840.700,A,2500.8226071,N,12132.4608296,E,0.01,333.82,260623,,,R,V*16
$GPHDT,,T*1B
$GNACCURACY,2.2*16
$GNGGA,114840.800,2500.8226079,N,12132.4608272,E,4,64,0.45,16.055,M,15.25,M,0,3335*4F
$GNRMC,114840.800,A,2500.8226079,N,12132.4608272,E,0.01,333.82,260623,,,R,V*1B
$GPHDT,,T*1B
$GNACCURACY,2.2*16
$GNGGA,114840.900,2500.8226080,N,12132.4608295,E,4,64,0.45,16.060,M,15.25,M,0,3335*47
$GNRMC,114840.900,A,2500.8226080,N,12132.4608295,E,0.01,333.82,260623,,,R,V*15
$GPHDT,,T*1B
$GNACCURACY,2.2*16
$GNGGA,114841.000,2500.8226077,N,12132.4608279,E,4,66,0.45,16.054,M,15.25,M,1,3335*41
$GNRMC,114841.000,A,2500.8226077,N,12132.4608279,E,0.01,333.82,260623,,,R,V*17
$GPHDT,,T*1B
$GNACCURACY,2.2*16
$GNGGA,114841.100,2500.8226074,N,12132.4608316,E,4,66,0.45,16.066,M,15.25,M,1,3335*4A
$GNRMC,114841.100,A,2500.8226074,N,12132.4608316,E,0.01,333.82,260623,,,R,V*1D
$GPHDT,,T*1B
$GNGSA,A,3,196,24,199,23,18,194,15,195,12,10,25,32,0.72,0.45,0.56,1*06
$GNGSA,A,3,73,80,86,85,71,,,,,,,,0.72,0.45,0.56,2*0C
$GNGSA,A,3,13,07,08,26,30,02,15,,,,,,0.72,0.45,0.56,3*08
$GNGSA,A,3,08,38,13,39,16,06,46,19,09,36,20,35,0.72,0.45,0.56,4*0B
$GNGSA,A,3,37,22,29,,,,,,,,,,0.72,0.45,0.56,4*0C
$GPGSV,4,1,16,196,75,072,42,24,63,034,37,199,60,167,36,23,60,345,35,1*68
$GPGSV,4,2,16,18,52,229,46,41,38,242,43,194,34,136,40,15,32,057,25,1*56
$GPGSV,4,3,16,195,30,179,36,12,27,133,33,10,26,323,42,25,16,171,24,1*57
$GPGSV,4,4,16,32,14,278,40,05,12,126,16,13,03,064,,28,02,221,,1*60
$GPGSV,3,1,10,196,75,072,43,24,63,034,46,23,60,345,36,199,60,167,43,8*66
$GPGSV,3,2,10,18,52,229,46,194,34,136,42,195,30,179,34,10,26,323,34,8*67
$GPGSV,3,3,10,25,16,171,25,32,14,278,36,8*60
$GLGSV,2,1,07,73,50,153,43,80,46,058,31,86,28,289,41,85,27,235,25,1*71
$GLGSV,2,2,07,71,26,325,32,69,09,085,19,79,03,027,19,1*4B
$GAGSV,3,1,09,13,49,222,42,07,46,314,43,08,43,035,31,26,35,298,40,7*79
$GAGSV,3,2,09,30,32,137,40,02,27,076,26,15,15,173,21,27,07,185,,7*72
$GAGSV,3,3,09,03,07,071,18,7*41
$GAGSV,2,1,07,13,49,222,45,07,46,314,43,08,43,035,34,26,35,298,43,1*71
$GAGSV,2,2,07,30,32,137,41,02,27,076,24,15,15,173,22,1*45
$GBGSV,4,1,15,08,84,350,40,38,81,153,43,13,72,324,43,39,69,296,44,1*7E
$GBGSV,4,2,15,16,66,271,42,06,64,266,40,46,62,091,34,19,53,357,23,1*74
$GBGSV,4,3,15,09,50,247,40,36,45,183,40,20,40,075,37,35,18,260,40,1*79
$GBGSV,4,4,15,37,16,042,35,22,16,308,33,29,13,205,20,1*41
$GBGSV,3,1,10,38,81,153,45,39,69,296,45,46,62,091,28,19,53,357,15,4*72
$GBGSV,3,2,10,36,45,183,43,20,40,075,31,35,18,260,37,22,16,308,32,4*7E
$GBGSV,3,3,10,37,16,042,19,29,13,205,19,4*79
$GNACCURACY,2.2*16
$PAIRSAT,1,35,1,0,200,2,0,200,3,0,200,4,0,200,5,0,201,6,0,200,7,0,200,8,0,200,9,0,200,10,0,221,11,0,200,12,0,201,13,0,201,14,0,200,15,0,201,16,0,200,17,0,200,18,0,221,19,0,200,20,0,200,21,0,200,23,0,221,24,0,221,25,0,220,26,0,200,27,0,200,28,0,200,29,0,200,30,0,200,31,0,200,32,0,221,194,0,621,195,0,621,196,0,620,199,0,621*6A
$PAIRSAT,2,24,65,0,200,66,0,200,67,0,200,68,0,200,69,0,200,70,0,200,71,0,201,72,0,200,73,0,201,74,0,200,75,0,200,76,0,200,77,0,200,78,0,200,79,0,201,80,0,201,81,0,200,82,0,200,83,0,200,84,0,200,85,0,201,86,0,201,87,0,200,88,0,200*7A
$PAIRSAT,3,23,2,0,1221,3,0,1221,4,0,1200,5,0,200,7,0,1221,8,0,1221,9,0,1200,10,0,1200,11,0,1200,12,0,1200,13,0,1221,15,0,1221,19,0,1200,21,0,1200,24,0,1200,25,0,1200,26,0,1221,27,0,1200,30,0,1221,31,0,1200,33,0,1200,34,0,1200,36,0,1200*6A
$PAIRSAT,4,50,1,0,200,2,0,200,3,0,200,4,0,200,5,0,200,6,0,201,7,0,200,8,0,201,9,0,201,10,0,200,11,0,200,12,0,200,13,0,201,14,0,200,15,0,200,16,0,201,19,0,621,20,0,621,21,0,600,22,0,621,23,0,600,24,0,600,25,0,600,26,0,600,27,0,600,28,0,600,29,0,621,30,0,600,31,0,200,32,0,600,33,0,600,34,0,600,35,0,621,36,0,621,37,0,621,38,0,621,39,0,621,40,0,600,41,0,600,42,0,600,43,0,600,44,0,600,45,0,600,46,0,621,56,0,200,57,0,200,58,0,200,59,0,600,60,0,600,61,0,600*41
$PAIRDGP,10,5,10,12,15,18,23,24,25,28,32*45
$GNGGA,114841.200,2500.8226055,N,12132.4608293,E,4,65,0.45,16.065,M,15.25,M,1,3335*46
$GNRMC,114841.200,A,2500.8226055,N,12132.4608293,E,0.01,333.82,260623,,,R,V*11
$GPHDT,,T*1B
$GNACCURACY,2.3*17
$GNGGA,114841.300,2500.8226058,N,12132.4608281,E,4,66,0.45,16.065,M,15.25,M,1,3335*4A
$GNRMC,114841.300,A,2500.8226058,N,12132.4608281,E,0.01,333.82,260623,,,R,V*1E
$GPHDT,,T*1B
$GNACCURACY,2.3*17
$GNGGA,114841.400,2500.8226076,N,12132.4608304,E,4,66,0.45,16.065,M,15.25,M,1,3335*4D
$GNRMC,114841.400,A,2500.8226076,N,12132.4608304,E,0.01,333.82,260623,,,R,V*19
$GPHDT,,T*1B
$GNACCURACY,2.3*17
$GNGGA,114841.500,2500.8226067,N,12132.4608290,E,4,66,0.45,16.063,M,15.25,M,1,3335*46
$GNRMC,114841.500,A,2500.8226067,N,12132.4608290,E,0.01,333.82,260623,,,R,V*14
$GPHDT,,T*1B
$GNACCURACY,2.3*17
$GNGGA,114841.600,2500.8226088,N,12132.4608282,E,4,65,0.45,16.073,M,15.25,M,1,3335*45
$GNRMC,114841.600,A,2500.8226088,N,12132.4608282,E,0.01,333.82,260623,,,R,V*15
$GPHDT,,T*1B
$GNACCURACY,2.3*17
$GNGGA,114841.700,2500.8226054,N,12132.4608291,E,4,66,0.45,16.056,M,15.25,M,0,3335*42
$GNRMC,114841.700,A,2500.8226054,N,12132.4608291,E,0.01,333.82,260623,,,R,V*17
$GPHDT,,T*1B
$GNACCURACY,2.3*17
$GNGGA,114841.800,2500.8226054,N,12132.4608297,E,4,66,0.45,16.055,M,15.25,M,0,3335*48
$GNRMC,114841.800,A,2500.8226054,N,12132.4608297,E,0.01,333.82,260623,,,R,V*1E
$GPHDT,,T*1B
$GNACCURACY,2.3*17
$GNGGA,114841.900,2500.8226035,N,12132.4608295,E,4,66,0.45,16.065,M,15.25,M,0,3335*4F
$GNRMC,114841.900,A,2500.8226035,N,12132.4608295,E,0.01,333.82,260623,,,R,V*1A
$GPHDT,,T*1B
$GNACCURACY,2.3*17
$GNGGA,114842.000,2500.8226051,N,12132.4608297,E,4,66,0.45,16.055,M,15.25,M,1,3335*47
$GNRMC,114842.000,A,2500.8226051,N,12132.4608297,E,0.01,333.82,260623,,,R,V*10
$GPHDT,,T*1B
$GNACCURACY,2.3*17
$GNGGA,114842.100,2500.8226075,N,12132.4608280,E,4,65,0.45,16.053,M,15.25,M,1,3335*43
$GNRMC,114842.100,A,2500.8226075,N,12132.4608280,E,0.01,333.82,260623,,,R,V*11
$GPHDT,,T*1B
$GNGSA,A,3,196,24,199,23,18,194,15,195,12,10,25,32,0.72,0.45,0.56,1*06
$GNGSA,A,3,73,80,86,85,71,,,,,,,,0.72,0.45,0.56,2*0C
$GNGSA,A,3,13,07,08,26,30,02,15,,,,,,0.72,0.45,0.56,3*08
$GNGSA,A,3,08,38,13,39,16,06,46,19,09,36,20,35,0.72,0.45,0.56,4*0B
$GNGSA,A,3,37,22,29,,,,,,,,,,0.72,0.45,0.56,4*0C
$GPGSV,4,1,16,196,75,072,42,24,63,034,37,199,60,167,36,23,60,345,35,1*68
$GPGSV,4,2,16,18,52,229,46,41,38,242,43,194,34,136,40,15,32,057,25,1*56
$GPGSV,4,3,16,195,30,179,36,12,27,133,33,10,26,323,42,25,16,171,24,1*57
$GPGSV,4,4,16,32,14,278,40,05,12,126,17,13,03,064,,28,02,221,,1*61
$GPGSV,3,1,10,196,75,072,42,24,63,034,46,23,60,345,35,199,60,167,43,8*64
$GPGSV,3,2,10,18,52,229,46,194,34,136,42,195,30,179,34,10,26,323,34,8*67
$GPGSV,3,3,10,25,16,171,25,32,14,278,35,8*63
$GLGSV,2,1,07,73,50,152,43,80,46,058,31,86,28,289,41,85,27,235,25,1*70
$GLGSV,2,2,07,71,26,325,32,69,09,085,19,79,03,027,19,1*4B
$GAGSV,3,1,09,13,49,222,42,07,46,314,43,08,43,035,31,26,35,298,40,7*79
$GAGSV,3,2,09,30,32,137,40,02,27,076,25,15,15,173,20,27,07,185,,7*70
$GAGSV,3,3,09,03,07,071,19,7*40
$GAGSV,2,1,07,13,49,222,45,07,46,314,43,08,43,035,34,26,35,298,43,1*71
$GAGSV,2,2,07,30,32,137,41,02,27,076,25,15,15,173,19,1*4C
$GBGSV,4,1,15,08,84,350,40,38,81,153,43,13,72,324,43,39,69,296,44,1*7E
$GBGSV,4,2,15,16,66,271,42,06,64,266,40,46,62,091,34,19,53,357,24,1*73
$GBGSV,4,3,15,09,50,247,40,36,45,183,40,20,40,075,37,35,18,260,39,1*77
$GBGSV,4,4,15,37,16,042,35,22,16,308,33,29,13,205,21,1*40
$GBGSV,3,1,10,38,81,153,45,39,69,296,45,46,62,091,25,19,53,357,16,4*7C
$GBGSV,3,2,10,36,45,183,43,20,40,075,32,35,18,260,37,22,16,308,32,4*7D
$GBGSV,3,3,10,37,16,042,19,29,13,205,19,4*79
$GNACCURACY,2.3*17
$PAIRSAT,1,35,1,0,200,2,0,200,3,0,200,4,0,200,5,0,201,6,0,200,7,0,200,8,0,200,9,0,200,10,0,221,11,0,200,12,0,201,13,0,201,14,0,200,15,0,201,16,0,200,17,0,200,18,0,221,19,0,200,20,0,200,21,0,200,23,0,221,24,0,221,25,0,220,26,0,200,27,0,200,28,0,200,29,0,200,30,0,200,31,0,200,32,0,221,194,0,621,195,0,621,196,0,620,199,0,621*6A
$PAIRSAT,2,24,65,0,200,66,0,200,67,0,200,68,0,200,69,0,200,70,0,200,71,0,201,72,0,200,73,0,201,74,0,200,75,0,200,76,0,200,77,0,200,78,0,200,79,0,201,80,0,201,81,0,200,82,0,200,83,0,200,84,0,200,85,0,201,86,0,201,87,0,200,88,0,200*7A
$PAIRSAT,3,23,2,0,1221,3,0,1221,4,0,1200,5,0,200,7,0,1221,8,0,1221,9,0,1200,10,0,1200,11,0,1200,12,0,1200,13,0,1221,15,0,1221,19,0,1200,21,0,1200,24,0,1200,25,0,1200,26,0,1221,27,0,1200,30,0,1221,31,0,1200,33,0,1200,34,0,1200,36,0,1200*6A
$PAIRSAT,4,50,1,0,200,2,0,200,3,0,200,4,0,200,5,0,200,6,0,201,7,0,200,8,0,201,9,0,201,10,0,200,11,0,200,12,0,200,13,0,201,14,0,200,15,0,200,16,0,201,19,0,621,20,0,621,21,0,600,22,0,621,23,0,600,24,0,600,25,0,600,26,0,600,27,0,600,28,0,600,29,0,621,30,0,600,31,0,200,32,0,600,33,0,600,34,0,600,35,0,621,36,0,621,37,0,621,38,0,621,39,0,621,40,0,600,41,0,600,42,0,600,43,0,600,44,0,600,45,0,600,46,0,621,56,0,200,57,0,200,58,0,200,59,0,600,60,0,600,61,0,600*41
$PAIRDGP,10,5,10,12,15,18,23,24,25,28,32*45
$GNGGA,114842.200,2500.8226062,N,12132.4608291,E,4,65,0.45,16.053,M,15.25,M,1,3335*46
$GNRMC,114842.200,A,2500.8226062,N,12132.4608291,E,0.01,333.82,260623,,,R,V*14
$GPHDT,,T*1B
$GNACCURACY,2.3*17
$GNGGA,114842.300,2500.8226055,N,12132.4608302,E,4,65,0.45,16.057,M,15.25,M,1,3335*4C
$GNRMC,114842.300,A,2500.8226055,N,12132.4608302,E,0.01,333.82,260623,,,R,V*1A
$GPHDT,,T*1B
$GNACCURACY,2.3*17
$GNGGA,114842.400,2500.8226074,N,12132.4608298,E,4,65,0.45,16.055,M,15.25,M,1,3335*48
$GNRMC,114842.400,A,2500.8226074,N,12132.4608298,E,0.02,333.82,260623,,,R,V*1F
$GPHDT,,T*1B
$GNACCURACY,2.3*17
$GNGGA,114842.500,2500.8226050,N,12132.4608302,E,4,65,0.45,16.061,M,15.25,M,1,3335*4A
$GNRMC,114842.500,A,2500.8226050,N,12132.4608302,E,0.02,333.82,260623,,,R,V*1A
$GPHDT,,T*1B
$GNACCURACY,2.3*17
$GNGGA,114842.600,2500.8226064,N,12132.4608306,E,4,65,0.45,16.080,M,15.25,M,1,3335*45
$GNRMC,114842.600,A,2500.8226064,N,12132.4608306,E,0.01,333.82,260623,,,R,V*19
$GPHDT,,T*1B
$GNACCURACY,2.3*17
$GNGGA,114842.700,2500.8226058,N,12132.4608318,E,4,65,0.45,16.082,M,15.25,M,1,3335*46
$GNRMC,114842.700,A,2500.8226058,N,12132.4608318,E,0.02,333.82,260623,,,R,V*1B
$GPHDT,,T*1B
$GNACCURACY,2.3*17
$GNGGA,114842.800,2500.8226045,N,12132.4608288,E,4,66,0.45,16.082,M,15.25,M,1,3335*4E
$GNRMC,114842.800,A,2500.8226045,N,12132.4608288,E,0.02,333.82,260623,,,R,V*10
$GPHDT,,T*1B
$GNACCURACY,2.3*17
$GNGGA,114842.900,2500.8226075,N,12132.4608292,E,4,66,0.45,16.093,M,15.25,M,1,3335*47
$GNRMC,114842.900,A,2500.8226075,N,12132.4608292,E,0.03,333.82,260623,,,R,V*18
$GPHDT,,T*1B
$GNACCURACY,2.3*17
$GNGGA,114843.000,2500.8226057,N,12132.4608307,E,4,66,0.45,16.087,M,15.25,M,2,3335*44
$GNRMC,114843.000,A,2500.8226057,N,12132.4608307,E,0.01,333.82,260623,,,R,V*1F
$GPHDT,,T*1B
$GNACCURACY,2.3*17
$GNGGA,114843.100,2500.8226073,N,12132.4608328,E,4,65,0.45,16.071,M,15.25,M,2,3335*44
$GNRMC,114843.100,A,2500.8226073,N,12132.4608328,E,0.01,333.82,260623,,,R,V*15
$GPHDT,,T*1B
$GNGSA,A,3,196,24,199,23,18,194,15,195,12,10,25,32,0.81,0.45,0.68,1*07
$GNGSA,A,3,73,80,86,85,71,,,,,,,,0.81,0.45,0.68,2*0D
$GNGSA,A,3,13,07,08,26,30,02,15,,,,,,0.81,0.45,0.68,3*09
$GNGSA,A,3,08,38,13,39,16,06,46,19,09,36,20,35,0.81,0.45,0.68,4*0A
$GNGSA,A,3,37,22,29,,,,,,,,,,0.81,0.45,0.68,4*0D
$GPGSV,4,1,16,196,75,072,42,24,63,034,37,199,60,167,34,23,60,345,35,1*6A
$GPGSV,4,2,16,18,52,229,46,41,38,242,40,194,34,136,40,15,32,057,25,1*55
$GPGSV,4,3,16,195,30,179,35,12,27,133,34,10,26,323,42,25,16,171,23,1*54
$GPGSV,4,4,16,32,14,278,40,05,12,126,16,13,03,064,,28,02,221,,1*60
$GPGSV,3,1,10,196,75,072,43,24,63,034,46,23,60,345,36,199,60,167,42,8*67
$GPGSV,3,2,10,18,52,229,47,194,34,136,43,195,30,179,32,10,26,323,33,8*66
$GPGSV,3,3,10,25,16,171,26,32,14,278,38,8*6D
$GLGSV,2,1,07,73,50,152,43,80,46,058,31,86,28,289,41,85,27,235,24,1*71
$GLGSV,2,2,07,71,26,325,33,69,09,085,17,79,03,026,18,1*44
$GAGSV,3,1,09,13,49,222,42,07,46,314,43,08,43,035,31,26,35,298,40,7*79
$GAGSV,3,2,09,30,32,137,38,02,27,076,26,15,15,173,20,27,07,185,,7*7C
$GAGSV,3,3,09,03,07,071,17,7*4E
$GAGSV,2,1,07,13,49,222,45,07,46,314,43,08,43,035,34,26,35,298,43,1*71
$GAGSV,2,2,07,30,32,137,42,02,27,076,25,15,15,173,19,1*4F
$GBGSV,4,1,15,08,84,350,40,38,81,153,43,13,72,324,43,39,69,296,44,1*7E
$GBGSV,4,2,15,16,66,271,42,06,64,266,40,46,62,091,35,19,53,357,25,1*73
$GBGSV,4,3,15,09,50,247,40,36,45,183,40,20,40,075,37,35,18,260,37,1*79
$GBGSV,4,4,15,37,16,042,35,22,16,308,34,29,13,205,21,1*47
$GBGSV,3,1,10,38,81,153,45,39,69,296,45,46,62,091,30,19,53,357,15,4*7B
$GBGSV,3,2,10,36,45,183,43,20,40,075,31,35,18,260,39,22,16,308,31,4*73
$GBGSV,3,3,10,37,16,042,20,29,13,205,19,4*73
$GNACCURACY,2.3*17
$PAIRSAT,1,35,1,0,200,2,0,200,3,0,200,4,0,200,5,0,201,6,0,200,7,0,200,8,0,200,9,0,200,10,0,221,11,0,200,12,0,201,13,0,201,14,0,200,15,0,201,16,0,200,17,0,200,18,0,221,19,0,200,20,0,200,21,0,200,23,0,221,24,0,221,25,0,220,26,0,200,27,0,200,28,0,200,29,0,200,30,0,200,31,0,200,32,0,221,194,0,621,195,0,621,196,0,620,199,0,621*6A
$PAIRSAT,2,24,65,0,200,66,0,200,67,0,200,68,0,200,69,0,200,70,0,200,71,0,201,72,0,200,73,0,201,74,0,200,75,0,200,76,0,200,77,0,200,78,0,200,79,0,201,80,0,201,81,0,200,82,0,200,83,0,200,84,0,200,85,0,201,86,0,201,87,0,200,88,0,200*7A
$PAIRSAT,3,23,2,0,1221,3,0,1221,4,0,1200,5,0,200,7,0,1221,8,0,1221,9,0,1200,10,0,1200,11,0,1200,12,0,1200,13,0,1221,15,0,1221,19,0,1200,21,0,1200,24,0,1200,25,0,1200,26,0,1221,27,0,1200,30,0,1221,31,0,1200,33,0,1200,34,0,1200,36,0,1200*6A
$PAIRSAT,4,50,1,0,200,2,0,200,3,0,200,4,0,200,5,0,200,6,0,201,7,0,200,8,0,201,9,0,201,10,0,200,11,0,200,12,0,200,13,0,201,14,0,200,15,0,200,16,0,201,19,0,621,20,0,621,21,0,600,22,0,621,23,0,600,24,0,600,25,0,600,26,0,600,27,0,600,28,0,600,29,0,621,30,0,600,31,0,200,32,0,600,33,0,600,34,0,600,35,0,621,36,0,621,37,0,621,38,0,621,39,0,621,40,0,600,41,0,600,42,0,600,43,0,600,44,0,600,45,0,600,46,0,621,56,0,200,57,0,200,58,0,200,59,0,600,60,0,600,61,0,600*41
$PAIRDGP,10,5,10,12,15,18,23,24,25,28,32*45
$GNGGA,114843.200,2500.8226134,N,12132.4608296,E,4,66,0.45,16.072,M,15.25,M,2,3335*41
$GNRMC,114843.200,A,2500.8226134,N,12132.4608296,E,0.01,333.82,260623,,,R,V*10
$GPHDT,,T*1B
$GNACCURACY,2.3*17
$GNGGA,114843.300,2500.8226096,N,12132.4608285,E,4,66,0.45,16.072,M,15.25,M,2,3335*4B
$GNRMC,114843.300,A,2500.8226096,N,12132.4608285,E,0.00,333.82,260623,,,R,V*1B
$GPHDT,,T*1B
$GNACCURACY,2.3*17
$GNGGA,114843.400,2500.8226076,N,12132.4608301,E,4,66,0.45,16.034,M,15.25,M,2,3335*4D
$GNRMC,114843.400,A,2500.8226076,N,12132.4608301,E,0.00,333.82,260623,,,R,V*1F
$GPHDT,,T*1B
$GNACCURACY,2.3*17
$GNGGA,114843.500,2500.8226127,N,12132.4608296,E,4,65,0.45,16.071,M,15.25,M,2,3335*44
$GNRMC,114843.500,A,2500.8226127,N,12132.4608296,E,0.00,333.82,260623,,,R,V*14
$GPHDT,,T*1B
$GNACCURACY,2.3*17
$GNGGA,114843.600,2500.8226119,N,12132.4608332,E,4,65,0.45,16.104,M,15.25,M,2,3335*46
$GNRMC,114843.600,A,2500.8226119,N,12132.4608332,E,0.01,333.82,260623,,,R,V*14
$GPHDT,,T*1B
$GNACCURACY,2.3*17
$GNGGA,114843.700,2500.8226107,N,12132.4608327,E,4,65,0.45,16.090,M,15.25,M,2,3335*40
$GNRMC,114843.700,A,2500.8226107,N,12132.4608327,E,0.01,333.82,260623,,,R,V*1E
$GPHDT,,T*1B
$GNACCURACY,2.3*17
$GNGGA,114843.800,2500.8226113,N,12132.4608322,E,4,64,0.45,16.093,M,15.25,M,2,3335*4D
$GNRMC,114843.800,A,2500.8226113,N,12132.4608322,E,0.00,333.82,260623,,,R,V*10
$GPHDT,,T*1B
$GNACCURACY,2.3*17
$GNGGA,114843.900,2500.8226092,N,12132.4608339,E,4,65,0.45,16.097,M,15.25,M,2,3335*4B
$GNRMC,114843.900,A,2500.8226092,N,12132.4608339,E,0.00,333.82,260623,,,R,V*13
$GPHDT,,T*1B
$GNACCURACY,2.3*17
$GNGGA,114844.000,2500.8226052,N,12132.4608323,E,4,65,0.45,16.097,M,15.25,M,3,3335*43
$GNRMC,114844.000,A,2500.8226052,N,12132.4608323,E,0.00,333.82,260623,,,R,V*1A
$GPHDT,,T*1B
$GNACCURACY,2.3*17
$GNGGA,114844.100,2500.8226041,N,12132.4608332,E,4,64,0.45,16.092,M,15.25,M,3,3335*44
$GNRMC,114844.100,A,2500.8226041,N,12132.4608332,E,0.00,333.82,260623,,,R,V*19
$GPHDT,,T*1B
$GNGSA,A,3,196,24,199,23,18,194,15,195,12,10,25,32,0.81,0.45,0.68,1*07
$GNGSA,A,3,73,80,86,85,71,,,,,,,,0.81,0.45,0.68,2*0D
$GNGSA,A,3,13,07,08,26,30,02,15,,,,,,0.81,0.45,0.68,3*09
$GNGSA,A,3,08,38,13,39,16,06,46,19,09,36,20,35,0.81,0.45,0.68,4*0A
$GNGSA,A,3,37,22,29,,,,,,,,,,0.81,0.45,0.68,4*0D
$GPGSV,4,1,16,196,75,072,42,24,63,034,37,199,60,167,34,23,60,345,35,1*6A
$GPGSV,4,2,16,18,52,229,46,41,38,242,40,194,34,136,37,15,32,057,24,1*54
$GPGSV,4,3,16,195,30,179,33,12,27,133,28,10,26,323,42,25,16,171,22,1*5E
$GPGSV,4,4,16,32,14,278,40,05,12,126,16,13,03,064,,28,02,221,,1*60
$GPGSV,3,1,10,196,75,072,43,24,63,034,46,23,60,345,35,199,60,167,42,8*64
$GPGSV,3,2,10,18,52,229,46,194,34,136,40,195,30,179,30,10,26,323,30,8*65
$GPGSV,3,3,10,25,16,171,25,32,14,278,37,8*61
$GLGSV,2,1,07,73,50,152,39,80,46,058,31,86,28,289,41,85,27,235,24,1*7C
$GLGSV,2,2,07,71,26,325,32,69,09,085,16,79,03,026,18,1*44
$GAGSV,3,1,09,13,49,222,41,07,46,314,43,08,43,035,31,26,35,298,40,7*7A
$GAGSV,3,2,09,30,32,137,38,02,27,076,26,15,15,173,22,27,07,185,,7*7E
$GAGSV,3,3,09,03,07,071,17,7*4E
$GAGSV,2,1,07,13,49,222,44,07,46,314,43,08,43,035,34,26,35,298,42,1*71
$GAGSV,2,2,07,30,32,137,39,02,27,076,25,15,15,173,19,1*43
$GBGSV,4,1,15,08,84,350,40,38,81,153,43,13,72,324,43,39,69,296,44,1*7E
$GBGSV,4,2,15,16,66,271,42,06,64,266,40,46,62,091,32,19,53,357,25,1*74
$GBGSV,4,3,15,09,50,247,40,36,45,183,36,20,40,075,37,35,18,260,35,1*7A
$GBGSV,4,4,15,37,16,042,35,22,16,308,34,29,13,205,21,1*47
$GBGSV,3,1,10,38,81,153,43,39,69,296,45,46,62,091,31,19,53,357,10,4*79
$GBGSV,3,2,10,36,45,183,40,20,40,075,30,35,18,260,39,22,16,308,30,4*70
$GBGSV,3,3,10,37,16,042,19,29,13,205,19,4*79
$GNACCURACY,2.3*17
$PAIRSAT,1,35,1,0,200,2,0,200,3,0,200,4,0,200,5,0,201,6,0,200,7,0,200,8,0,200,9,0,200,10,0,221,11,0,200,12,0,201,13,0,201,14,0,200,15,0,201,16,0,200,17,0,200,18,0,221,19,0,200,20,0,200,21,0,200,23,0,221,24,0,221,25,0,220,26,0,200,27,0,200,28,0,200,29,0,200,30,0,200,31,0,200,32,0,221,194,0,621,195,0,621,196,0,620,199,0,621*6A
$PAIRSAT,2,24,65,0,200,66,0,200,67,0,200,68,0,200,69,0,200,70,0,200,71,0,201,72,0,200,73,0,201,74,0,200,75,0,200,76,0,200,77