$FW : RTK35X,V1.1X0314AS,Lib20210517,1*54
$Tool : LOCOSYS , GNSS Firebird , v1.0.0.19*39
$---------------------------------------------------*2D
$GPHDT,,T*1B
$GNACCURACY,2.3*17
$GNGGA,114733.800,2500.8226284,N,12132.4608498,E,4,63,0.44,16.051,M,15.25,M,0,3335*44
$GNRMC,114733.800,A,2500.8226284,N,12132.4608498,E,0.02,333.82,260623,,,R,V*11
$GPHDT,269.732,T*3E
$GNACCURACY,2.3*17
$GNGGA,114733.900,2500.8226200,N,12132.4608476,E,4,63,0.44,16.049,M,15.25,M,0,3335*40
$GNRMC,114733.900,A,2500.8226200,N,12132.4608476,E,0.02,333.82,260623,,,R,V*1C
$GPHDT,,T*1B
$GNACCURACY,2.3*17
$GNGGA,114734.000,2500.8226222,N,12132.4608478,E,4,63,0.44,16.035,M,15.25,M,1,3335*4A
$GNRMC,114734.000,A,2500.8226222,N,12132.4608478,E,0.01,333.82,260623,,,R,V*1F
$GPHDT,269.663,T*3B
$GNACCURACY,2.3*17
$GNGGA,114734.100,2500.8226271,N,12132.4608443,E,4,63,0.44,16.050,M,15.25,M,1,3335*46
$GNRMC,114734.100,A,2500.8226271,N,12132.4608443,E,0.01,333.82,260623,,,R,V*10
$GPHDT,,T*1B
$GNGSA,A,3,196,24,199,23,18,194,15,195,12,10,25,05,0.78,0.44,0.65,1*09
$GNGSA,A,3,32,,,,,,,,,,,,0.78,0.44,0.65,1*0C
$GNGSA,A,3,73,80,85,86,71,,,,,,,,0.78,0.44,0.65,2*07
$GNGSA,A,3,13,07,08,26,30,02,15,,,,,,0.78,0.44,0.65,3*03
$GNGSA,A,3,08,38,13,39,16,06,46,19,09,36,20,35,0.78,0.44,0.65,4*00
$GNGSA,A,3,37,22,29,,,,,,,,,,0.78,0.44,0.65,4*07
$GPGSV,4,1,16,196,75,072,39,24,64,035,24,199,60,167,36,23,60,345,34,1*61
$GPGSV,4,2,16,18,52,230,44,41,38,242,42,194,34,136,39,15,32,057,31,1*56
$GPGSV,4,3,16,195,30,179,36,12,27,133,38,10,25,322,27,25,16,171,21,1*58
$GPGSV,4,4,16,05,13,126,23,32,13,277,38,13,03,064,,28,02,221,,1*60
$GPGSV,3,1,10,196,75,072,42,24,64,035,44,23,60,345,29,199,60,167,47,8*69
$GPGSV,3,2,10,18,52,230,49,194,34,136,43,195,30,179,34,10,25,322,29,8*6F
$GPGSV,3,3,10,25,16,171,22,32,13,277,38,8*61
$GLGSV,2,1,08,73,49,153,41,80,46,059,21,70,41,025,,85,28,235,17,1*7D
$GLGSV,2,2,08,86,28,289,40,71,26,324,20,69,09,084,18,79,04,027,19,1*72
$GAGSV,3,1,09,13,49,222,40,07,46,314,41,08,43,034,26,26,35,298,41,7*7F
$GAGSV,3,2,09,30,32,138,42,02,27,077,24,15,15,173,25,03,07,071,13,7*76
$GAGSV,3,3,09,27,06,185,,7*45
$GAGSV,2,1,06,13,49,222,43,07,46,314,37,08,43,034,23,26,35,298,41,1*70
$GAGSV,2,2,06,30,32,138,41,15,15,173,22,1*7B
$GBGSV,4,1,16,08,84,351,41,38,82,151,43,13,71,324,43,39,69,295,42,1*7A
$GBGSV,4,2,16,16,66,270,42,06,64,265,42,46,62,092,34,19,53,356,28,1*7E
$GBGSV,4,3,16,09,50,246,42,36,44,183,41,20,40,074,26,35,18,260,31,1*7E
$GBGSV,4,4,16,37,17,043,24,22,16,308,35,29,13,206,29,44,03,304,,1*7A
$GBGSV,3,1,09,38,82,151,45,39,69,295,46,46,62,092,33,19,53,356,22,4*77
$GBGSV,3,2,09,36,44,183,45,20,40,074,20,35,18,260,32,37,17,043,25,4*7A
$GBGSV,3,3,09,22,16,308,28,4*4C
$GNACCURACY,2.3*17
$PAIRSAT,1,35,1,0,200,2,0,200,3,0,200,4,0,200,5,0,201,6,0,200,7,0,200,8,0,200,9,0,200,10,0,221,11,0,200,12,0,201,13,0,201,14,0,200,15,0,201,16,0,200,17,0,200,18,0,221,19,0,200,20,0,200,21,0,200,23,0,221,24,0,221,25,0,220,26,0,200,27,0,200,28,0,200,29,0,200,30,0,200,31,0,200,32,0,221,194,0,621,195,0,621,196,0,620,199,0,621*6A
$PAIRSAT,2,24,65,0,200,66,0,200,67,0,200,68,0,200,69,0,200,70,0,200,71,0,201,72,0,200,73,0,201,74,0,200,75,0,200,76,0,200,77,0,200,78,0,200,79,0,201,80,0,201,81,0,200,82,0,200,83,0,200,84,0,200,85,0,201,86,0,201,87,0,200,88,0,200*7A
$PAIRSAT,3,23,2,0,1221,3,0,1221,4,0,1200,5,0,200,7,0,1221,8,0,1221,9,0,1200,10,0,1200,11,0,1200,12,0,1200,13,0,1221,15,0,1221,19,0,1200,21,0,1200,24,0,1200,25,0,1200,26,0,1221,27,0,1200,30,0,1221,31,0,1200,33,0,1200,34,0,1200,36,0,1200*6A
$PAIRSAT,4,50,1,0,200,2,0,200,3,0,200,4,0,200,5,0,200,6,0,201,7,0,200,8,0,201,9,0,201,10,0,200,11,0,200,12,0,200,13,0,201,14,0,200,15,0,200,16,0,201,19,0,621,20,0,621,21,0,600,22,0,621,23,0,600,24,0,600,25,0,600,26,0,600,27,0,600,28,0,600,29,0,621,30,0,600,31,0,200,32,0,600,33,0,600,34,0,600,35,0,621,36,0,621,37,0,621,38,0,621,39,0,621,40,0,600,41,0,600,42,0,600,43,0,600,44,0,600,45,0,600,46,0,621,56,0,200,57,0,200,58,0,200,59,0,600,60,0,600,61,0,600*41
$PAIRDGP,10,5,10,12,15,18,23,24,25,28,32*45
$GNGGA,114734.200,2500.8226241,N,12132.4608467,E,4,64,0.44,16.050,M,15.25,M,1,3335*47
$GNRMC,114734.200,A,2500.8226241,N,12132.4608467,E,0.01,333.82,260623,,,R,V*16
$GPHDT,269.681,T*37
$GNACCURACY,2.3*17
$GNGGA,114734.300,2500.8226284,N,12132.4608471,E,4,64,0.44,16.044,M,15.25,M,1,3335*4D
$GNRMC,114734.300,A,2500.8226284,N,12132.4608471,E,0.01,333.82,260623,,,R,V*19
$GPHDT,,T*1B
$GNACCURACY,2.3*17
$GNGGA,114734.400,2500.8226288,N,12132.4608518,E,4,64,0.44,16.044,M,15.25,M,1,3335*48
$GNRMC,114734.400,A,2500.8226288,N,12132.4608518,E,0.01,333.82,260623,,,R,V*1C
$GPHDT,269.886,T*3E
$GNACCURACY,2.3*17
$GNGGA,114734.500,2500.8226295,N,12132.4608476,E,4,64,0.44,16.050,M,15.25,M,1,3335*49
$GNRMC,114734.500,A,2500.8226295,N,12132.4608476,E,0.02,333.82,260623,,,R,V*1B
$GPHDT,,T*1B
$GNACCURACY,2.3*17
$GNGGA,114734.600,2500.8226227,N,12132.4608466,E,4,64,0.44,16.041,M,15.25,M,1,3335*42
$GNRMC,114734.600,A,2500.8226227,N,12132.4608466,E,0.01,333.82,260623,,,R,V*13
$GPHDT,270.289,T*33
$GNACCURACY,2.3*17
$GNGGA,114734.700,2500.8226235,N,12132.4608431,E,4,64,0.44,16.048,M,15.25,M,0,3335*4A
$GNRMC,114734.700,A,2500.8226235,N,12132.4608431,E,0.02,333.82,260623,,,R,V*10
$GPHDT,,T*1B
$GNACCURACY,2.3*17
$GNGGA,114734.800,2500.8226256,N,12132.4608459,E,4,64,0.44,16.047,M,15.25,M,0,3335*41
$GNRMC,114734.800,A,2500.8226256,N,12132.4608459,E,0.01,333.82,260623,,,R,V*17
$GPHDT,269.647,T*3D
$GNACCURACY,2.3*17
$GNGGA,114734.900,2500.8226246,N,12132.4608459,E,4,64,0.44,16.044,M,15.25,M,0,3335*42
$GNRMC,114734.900,A,2500.8226246,N,12132.4608459,E,0.01,333.82,260623,,,R,V*17
$GPHDT,,T*1B
$GNACCURACY,2.3*17
$GNGGA,114735.000,2500.8226248,N,12132.4608473,E,4,64,0.44,16.040,M,15.25,M,1,3335*49
$GNRMC,114735.000,A,2500.8226248,N,12132.4608473,E,0.01,333.82,260623,,,R,V*19
$GPHDT,269.822,T*30
$GNACCURACY,2.3*17
$GNGGA,114735.100,2500.8226248,N,12132.4608457,E,4,64,0.44,16.041,M,15.25,M,1,3335*4F
$GNRMC,114735.100,A,2500.8226248,N,12132.4608457,E,0.01,333.82,260623,,,R,V*1E
$GPHDT,,T*1B
$GNGSA,A,3,196,24,199,23,18,194,15,195,12,10,25,05,0.78,0.44,0.65,1*09
$GNGSA,A,3,32,,,,,,,,,,,,0.78,0.44,0.65,1*0C
$GNGSA,A,3,73,80,86,85,71,,,,,,,,0.78,0.44,0.65,2*07
$GNGSA,A,3,13,07,08,26,30,02,15,,,,,,0.78,0.44,0.65,3*03
$GNGSA,A,3,08,38,13,39,16,06,46,19,09,36,20,35,0.78,0.44,0.65,4*00
$GNGSA,A,3,22,29,37,,,,,,,,,,0.78,0.44,0.65,4*07
$GPGSV,4,1,16,196,75,072,39,24,64,035,32,199,60,167,36,23,60,345,32,1*60
$GPGSV,4,2,16,18,52,230,44,41,38,242,42,194,34,136,39,15,32,057,26,1*50
$GPGSV,4,3,16,195,30,179,37,12,27,133,38,10,25,322,26,25,16,171,22,1*5B
$GPGSV,4,4,16,05,13,126,23,32,13,277,37,13,03,064,,28,02,221,,1*6F
$GPGSV,3,1,10,196,75,072,43,24,64,035,45,23,60,345,31,199,60,167,47,8*60
$GPGSV,3,2,10,18,52,230,49,194,34,136,44,195,30,179,36,10,25,322,33,8*61
$GPGSV,3,3,10,25,16,171,21,32,13,277,39,8*63
$GLGSV,3,1,09,73,49,153,41,80,46,059,24,70,41,025,,86,28,289,39,1*70
$GLGSV,3,2,09,85,28,235,15,71,26,324,23,74,12,186,,69,09,084,18,1*7D
$GLGSV,3,3,09,79,04,027,18,1*47
$GAGSV,3,1,09,13,49,222,40,07,46,314,41,08,43,034,24,26,35,298,40,7*7C
$GAGSV,3,2,09,30,32,138,42,02,27,077,27,15,15,173,25,03,07,071,13,7*75
$GAGSV,3,3,09,27,06,185,,7*45
$GAGSV,2,1,06,13,49,222,43,07,46,314,40,08,43,034,23,26,35,298,42,1*73
$GAGSV,2,2,06,30,32,138,43,15,15,173,23,1*78
$GBGSV,4,1,16,08,84,351,41,38,82,151,43,13,71,324,43,39,69,295,43,1*7B
$GBGSV,4,2,16,16,66,270,42,06,64,265,42,46,62,092,35,19,53,356,30,1*76
$GBGSV,4,3,16,09,50,246,42,36,44,183,41,20,40,074,26,35,18,260,30,1*7F
$GBGSV,4,4,16,37,17,043,20,22,16,308,37,29,13,206,30,44,03,304,,1*74
$GBGSV,3,1,09,38,82,151,45,39,69,295,47,46,62,092,32,19,53,356,26,4*73
$GBGSV,3,2,09,36,44,183,45,20,40,074,23,35,18,260,34,37,17,043,30,4*7B
$GBGSV,3,3,09,22,16,308,27,4*43
$GNACCURACY,2.3*17
$PAIRSAT,1,35,1,0,200,2,0,200,3,0,200,4,0,200,5,0,201,6,0,200,7,0,200,8,0,200,9,0,200,10,0,221,11,0,200,12,0,201,13,0,201,14,0,200,15,0,201,16,0,200,17,0,200,18,0,221,19,0,200,20,0,200,21,0,200,23,0,221,24,0,221,25,0,220,26,0,200,27,0,200,28,0,200,29,0,200,30,0,200,31,0,200,32,0,221,194,0,621,195,0,621,196,0,620,199,0,621*6A
$PAIRSAT,2,24,65,0,200,66,0,200,67,0,200,68,0,200,69,0,200,70,0,200,71,0,201,72,0,200,73,0,201,74,0,200,75,0,200,76,0,200,77,0,200,78,0,200,79,0,201,80,0,201,81,0,200,82,0,200,83,0,200,84,0,200,85,0,201,86,0,201,87,0,200,88,0,200*7A
$PAIRSAT,3,23,2,0,1221,3,0,1221,4,0,1200,5,0,200,7,0,1221,8,0,1221,9,0,1200,10,0,1200,11,0,1200,12,0,1200,13,0,1221,15,0,1221,19,0,1200,21,0,1200,24,0,1200,25,0,1200,26,0,1221,27,0,1200,30,0,1221,31,0,1200,33,0,1200,34,0,1200,36,0,1200*6A
$PAIRSAT,4,50,1,0,200,2,0,200,3,0,200,4,0,200,5,0,200,6,0,201,7,0,200,8,0,201,9,0,201,10,0,200,11,0,200,12,0,200,13,0,201,14,0,200,15,0,200,16,0,201,19,0,621,20,0,621,21,0,600,22,0,621,23,0,600,24,0,600,25,0,600,26,0,600,27,0,600,28,0,600,29,0,621,30,0,600,31,0,200,32,0,600,33,0,600,34,0,600,35,0,621,36,0,621,37,0,621,38,0,621,39,0,621,40,0,600,41,0,600,42,0,600,43,0,600,44,0,600,45,0,600,46,0,621,56,0,200,57,0,200,58,0,200,59,0,600,60,0,600,61,0,600*41
$PAIRDGP,10,5,10,12,15,18,23,24,25,28,32*45
$GNGGA,114735.200,2500.8226275,N,12132.4608447,E,4,63,0.44,16.049,M,15.25,M,1,3335*4C
$GNRMC,114735.200,A,2500.8226275,N,12132.4608447,E,0.01,333.82,260623,,,R,V*12
$GPHDT,269.522,T*3D
$GNACCURACY,2.3*17
$GNGGA,114735.300,2500.8226258,N,12132.4608459,E,4,64,0.44,16.072,M,15.25,M,1,3335*42
$GNRMC,114735.300,A,2500.8226258,N,12132.4608459,E,0.01,333.82,260623,,,R,V*13
$GPHDT,,T*1B
$GNACCURACY,2.3*17
$GNGGA,114735.400,2500.8226262,N,12132.4608454,E,4,64,0.44,16.047,M,15.25,M,1,3335*47
$GNRMC,114735.400,A,2500.8226262,N,12132.4608454,E,0.01,333.82,260623,,,R,V*10
$GPHDT,269.573,T*39
$GNACCURACY,2.3*17
$GNGGA,114735.500,2500.8226263,N,12132.4608428,E,4,64,0.44,16.056,M,15.25,M,1,3335*4C
$GNRMC,114735.500,A,2500.8226263,N,12132.4608428,E,0.01,333.82,260623,,,R,V*1B
$GPHDT,,T*1B
$GNACCURACY,2.3*17
$GNGGA,114735.600,2500.8226223,N,12132.4608446,E,4,63,0.45,16.032,M,15.25,M,1,3335*47
$GNRMC,114735.600,A,2500.8226223,N,12132.4608446,E,0.01,333.82,260623,,,R,V*14
$GPHDT,269.824,T*36
$GNACCURACY,2.3*17
$GNGGA,114735.700,2500.8226215,N,12132.4608461,E,4,62,0.45,16.064,M,15.25,M,0,3335*45
$GNRMC,114735.700,A,2500.8226215,N,12132.4608461,E,0.01,333.82,260623,,,R,V*15
$GPHDT,,T*1B
$GNACCURACY,2.3*17
$GNGGA,114735.800,2500.8226225,N,12132.4608494,E,4,63,0.45,16.041,M,15.25,M,0,3335*45
$GNRMC,114735.800,A,2500.8226225,N,12132.4608494,E,0.01,333.82,260623,,,R,V*13
$GPHDT,270.136,T*34
$GNACCURACY,2.3*17
$GNGGA,114735.900,2500.8226277,N,12132.4608503,E,4,63,0.45,16.064,M,15.25,M,0,3335*4B
$GNRMC,114735.900,A,2500.8226277,N,12132.4608503,E,0.01,333.82,260623,,,R,V*1A
$GPHDT,,T*1B
$GNACCURACY,2.3*17
$GNGGA,114736.000,2500.8226290,N,12132.4608512,E,4,63,0.45,16.045,M,15.25,M,1,3335*4A
$GNRMC,114736.000,A,2500.8226290,N,12132.4608512,E,0.01,333.82,260623,,,R,V*19
$GPHDT,269.348,T*37
$GNACCURACY,2.3*17
$GNGGA,114736.100,2500.8226257,N,12132.4608486,E,4,63,0.45,16.043,M,15.25,M,1,3335*4A
$GNRMC,114736.100,A,2500.8226257,N,12132.4608486,E,0.01,333.82,260623,,,R,V*1F
$GPHDT,,T*1B
$GNGSA,A,3,196,24,199,23,18,194,195,12,10,25,05,32,0.80,0.45,0.66,1*09
$GNGSA,A,3,73,80,85,86,71,,,,,,,,0.80,0.45,0.66,2*02
$GNGSA,A,3,13,07,08,26,30,02,15,,,,,,0.80,0.45,0.66,3*06
$GNGSA,A,3,08,38,13,39,16,06,46,19,09,36,20,35,0.80,0.45,0.66,4*05
$GNGSA,A,3,37,22,29,,,,,,,,,,0.80,0.45,0.66,4*02
$GPGSV,4,1,16,196,75,072,39,24,64,035,33,199,60,167,36,23,60,345,33,1*60
$GPGSV,4,2,16,18,52,230,44,41,38,242,44,194,34,136,39,15,32,057,30,1*51
$GPGSV,4,3,16,195,30,179,37,12,27,133,38,10,25,322,32,25,16,171,21,1*5D
$GPGSV,4,4,16,05,13,126,22,32,13,277,37,13,03,064,,28,02,221,,1*6E
$GPGSV,3,1,10,196,75,072,44,24,64,035,45,23,60,345,29,199,60,167,47,8*6E
$GPGSV,3,2,10,18,52,230,49,194,34,136,44,195,30,179,35,10,25,322,31,8*60
$GPGSV,3,3,10,25,16,171,21,32,13,277,39,8*63
$GLGSV,2,1,08,73,49,153,41,80,46,059,24,70,41,025,,85,28,235,16,1*79
$GLGSV,2,2,08,86,28,289,40,71,26,324,24,69,09,084,18,79,04,027,17,1*78
$GAGSV,3,1,09,13,49,222,40,07,46,314,41,08,43,034,28,26,35,298,41,7*71
$GAGSV,3,2,09,30,32,138,42,02,27,077,27,15,15,173,25,27,07,185,,7*7B
$GAGSV,3,3,09,03,07,071,12,7*4B
$GAGSV,2,1,06,13,49,222,43,07,46,314,41,08,43,034,25,26,35,298,41,1*77
$GAGSV,2,2,06,30,32,138,42,15,15,173,24,1*7E
$GBGSV,4,1,15,08,84,351,40,38,82,151,43,13,71,324,43,39,69,295,43,1*79
$GBGSV,4,2,15,16,66,270,42,06,64,265,42,46,62,092,35,19,53,356,30,1*75
$GBGSV,4,3,15,09,50,246,42,36,44,183,41,20,40,074,25,35,18,260,34,1*7B
$GBGSV,4,4,15,37,17,043,21,22,16,308,35,29,13,206,29,1*48
$GBGSV,3,1,09,38,82,151,45,39,69,295,47,46,62,092,34,19,53,356,26,4*75
$GBGSV,3,2,09,36,44,183,45,20,40,074,20,35,18,260,34,37,17,043,26,4*7F
$GBGSV,3,3,09,22,16,308,29,4*4D
$GNACCURACY,2.3*17
$PAIRSAT,1,35,1,0,200,2,0,200,3,0,200,4,0,200,5,0,201,6,0,200,7,0,200,8,0,200,9,0,200,10,0,221,11,0,200,12,0,201,13,0,201,14,0,200,15,0,201,16,0,200,17,0,200,18,0,221,19,0,200,20,0,200,21,0,200,23,0,221,24,0,221,25,0,220,26,0,200,27,0,200,28,0,200,29,0,200,30,0,200,31,0,200,32,0,221,194,0,621,195,0,621,196,0,620,199,0,621*6A
$PAIRSAT,2,24,65,0,200,66,0,200,67,0,200,68,0,200,69,0,200,70,0,200,71,0,201,72,0,200,73,0,201,74,0,200,75,0,200,76,0,200,77,0,200,78,0,200,79,0,201,80,0,201,81,0,200,82,0,200,83,0,200,84,0,200,85,0,201,86,0,201,87,0,200,88,0,200*7A
$PAIRSAT,3,23,2,0,1221,3,0,1221,4,0,1200,5,0,200,7,0,1221,8,0,1221,9,0,1200,10,0,1200,11,0,1200,12,0,1200,13,0,1221,15,0,1221,19,0,1200,21,0,1200,24,0,1200,25,0,1200,26,0,1221,27,0,1200,30,0,1221,31,0,1200,33,0,1200,34,0,1200,36,0,1200*6A
$PAIRSAT,4,50,1,0,200,2,0,200,3,0,200,4,0,200,5,0,200,6,0,201,7,0,200,8,0,201,9,0,201,10,0,200,11,0,200,12,0,200,13,0,201,14,0,200,15,0,200,16,0,201,19,0,621,20,0,621,21,0,600,22,0,621,23,0,600,24,0,600,25,0,600,26,0,600,27,0,600,28,0,600,29,0,621,30,0,600,31,0,200,32,0,600,33,0,600,34,0,600,35,0,621,36,0,621,37,0,621,38,0,621,39,0,621,40,0,600,41,0,600,42,0,600,43,0,600,44,0,600,45,0,600,46,0,621,56,0,200,57,0,200,58,0,200,59,0,600,60,0,600,61,0,600*41
$PAIRDGP,10,5,10,12,15,18,23,24,25,28,32*45
$GNGGA,114736.200,2500.8226262,N,12132.4608466,E,4,63,0.45,16.047,M,15.25,M,1,3335*45
$GNRMC,114736.200,A,2500.8226262,N,12132.4608466,E,0.01,333.82,260623,,,R,V*14
$GPHDT,269.409,T*35
$GNACCURACY,2.3*17
$GNGGA,114736.300,2500.8226271,N,12132.4608464,E,4,63,0.45,16.047,M,15.25,M,1,3335*44
$GNRMC,114736.300,A,2500.8226271,N,12132.4608464,E,0.01,333.82,260623,,,R,V*15
$GPHDT,,T*1B
$GNACCURACY,2.3*17
$GNGGA,114736.400,2500.8226298,N,12132.4608500,E,4,63,0.45,16.045,M,15.25,M,1,3335*45
$GNRMC,114736.400,A,2500.8226298,N,12132.4608500,E,0.01,333.82,260623,,,R,V*16
$GPHDT,269.704,T*3B
$GNACCURACY,2.3*17
$GNGGA,114736.500,2500.8226271,N,12132.4608462,E,4,64,0.44,16.049,M,15.25,M,1,3335*4C
$GNRMC,114736.500,A,2500.8226271,N,12132.4608462,E,0.01,333.82,260623,,,R,V*15
$GPHDT,,T*1B
$GNACCURACY,2.3*17
$GNGGA,114736.600,2500.8226314,N,12132.4608511,E,4,64,0.44,16.042,M,15.25,M,1,3335*43
$GNRMC,114736.600,A,2500.8226314,N,12132.4608511,E,0.01,333.82,260623,,,R,V*11
$GPHDT,269.119,T*31
$GNACCURACY,2.3*17
$GNGGA,114736.700,2500.8226300,N,12132.4608447,E,4,64,0.44,16.049,M,15.25,M,1,3335*4E
$GNRMC,114736.700,A,2500.8226300,N,12132.4608447,E,0.01,333.82,260623,,,R,V*17
$GPHDT,,T*1B
$GNACCURACY,2.3*17
$GNGGA,114736.800,2500.8226309,N,12132.4608477,E,4,64,0.44,16.049,M,15.25,M,1,3335*4B
$GNRMC,114736.800,A,2500.8226309,N,12132.4608477,E,0.01,333.82,260623,,,R,V*12
$GPHDT,269.169,T*36
$GNACCURACY,2.3*17
$GNGGA,114736.900,2500.8226270,N,12132.4608472,E,4,64,0.44,16.047,M,15.25,M,1,3335*4E
$GNRMC,114736.900,A,2500.8226270,N,12132.4608472,E,0.01,333.82,260623,,,R,V*19
$GPHDT,,T*1B
$GNACCURACY,2.3*17
$GNGGA,114737.000,2500.8226238,N,12132.4608474,E,4,64,0.44,16.046,M,15.25,M,2,3335*4E
$GNRMC,114737.000,A,2500.8226238,N,12132.4608474,E,0.01,333.82,260623,,,R,V*1B
$GPHDT,269.628,T*34
$GNACCURACY,2.3*17
$GNGGA,114737.100,2500.8226301,N,12132.4608499,E,4,64,0.44,16.070,M,15.25,M,2,3335*42
$GNRMC,114737.100,A,2500.8226301,N,12132.4608499,E,0.01,333.82,260623,,,R,V*12
$GPHDT,,T*1B
$GNGSA,A,3,196,24,199,23,18,194,15,195,12,10,25,05,0.78,0.44,0.65,1*09
$GNGSA,A,3,32,,,,,,,,,,,,0.78,0.44,0.65,1*0C
$GNGSA,A,3,73,80,85,86,71,,,,,,,,0.78,0.44,0.65,2*07
$GNGSA,A,3,13,07,08,26,30,02,15,,,,,,0.78,0.44,0.65,3*03
$GNGSA,A,3,08,38,13,39,16,06,46,19,09,36,20,35,0.78,0.44,0.65,4*00
$GNGSA,A,3,37,22,29,,,,,,,,,,0.78,0.44,0.65,4*07
$GPGSV,4,1,16,196,75,072,39,24,64,035,35,199,60,167,36,23,60,345,33,1*66
$GPGSV,4,2,16,18,52,230,44,41,38,242,43,194,34,136,39,15,32,057,29,1*5E
$GPGSV,4,3,16,195,30,179,37,12,27,133,38,10,25,322,33,25,16,171,19,1*57
$GPGSV,4,4,16,05,13,126,22,32,13,277,37,13,03,064,,28,02,221,,1*6E
$GPGSV,3,1,10,196,75,072,44,24,64,035,45,23,60,345,29,199,60,167,46,8*6F
$GPGSV,3,2,10,18,52,230,49,194,34,136,44,195,30,179,35,10,25,322,31,8*60
$GPGSV,3,3,10,25,16,171,19,32,13,277,39,8*68
$GLGSV,2,1,08,73,49,153,41,80,46,059,23,70,41,025,,85,28,235,16,1*7E
$GLGSV,2,2,08,86,28,289,40,71,26,324,22,69,09,084,18,79,04,027,16,1*7F
$GAGSV,3,1,09,13,49,222,40,07,46,314,41,08,43,034,28,26,35,298,41,7*71
$GAGSV,3,2,09,30,32,138,42,02,27,077,28,15,15,173,24,27,07,185,,7*75
$GAGSV,3,3,09,03,07,071,12,7*4B
$GAGSV,2,1,06,13,49,222,43,07,46,314,40,08,43,034,25,26,35,298,42,1*75
$GAGSV,2,2,06,30,32,138,42,15,15,173,24,1*7E
$GBGSV,4,1,15,08,84,351,40,38,82,151,43,13,71,324,43,39,69,295,43,1*79
$GBGSV,4,2,15,16,66,270,42,06,64,265,42,46,62,092,34,19,53,356,30,1*74
$GBGSV,4,3,15,09,50,246,42,36,44,183,41,20,40,074,26,35,18,260,34,1*78
$GBGSV,4,4,15,37,17,043,22,22,16,308,36,29,13,206,28,1*49
$GBGSV,3,1,09,38,82,151,45,39,69,295,47,46,62,092,31,19,53,356,25,4*73
$GBGSV,3,2,09,36,44,183,45,20,40,074,22,35,18,260,34,37,17,043,27,4*7C
$GBGSV,3,3,09,22,16,308,29,4*4D
$GNACCURACY,2.3*17
$PAIRSAT,1,35,1,0,200,2,0,200,3,0,200,4,0,200,5,0,201,6,0,200,7,0,200,8,0,200,9,0,200,10,0,221,11,0,200,12,0,201,13,0,201,14,0,200,15,0,201,16,0,200,17,0,200,18,0,221,19,0,200,20,0,200,21,0,200,23,0,221,24,0,221,25,0,220,26,0,200,27,0,200,28,0,200,29,0,200,30,0,200,31,0,200,32,0,221,194,0,621,195,0,621,196,0,620,199,0,621*6A
$PAIRSAT,2,24,65,0,200,66,0,200,67,0,200,68,0,200,69,0,200,70,0,200,71,0,201,72,0,200,73,0,201,74,0,200,75,0,200,76,0,200,77,0,200,78,0,200,79,0,201,80,0,201,81,0,200,82,0,200,83,0,200,84,0,200,85,0,201,86,0,201,87,0,200,88,0,200*7A
$PAIRSAT,3,23,2,0,1221,3,0,1221,4,0,1200,5,0,200,7,0,1221,8,0,1221,9,0,1200,10,0,1200,11,0,1200,12,0,1200,13,0,1221,15,0,1221,19,0,1200,21,0,1200,24,0,1200,25,0,1200,26,0,1221,27,0,1200,30,0,1221,31,0,1200,33,0,1200,34,0,1200,36,0,1200*6A
$PAIRSAT,4,50,1,0,200,2,0,200,3,0,200,4,0,200,5,0,200,6,0,201,7,0,200,8,0,201,9,0,201,10,0,200,11,0,200,12,0,200,13,0,201,14,0,200,15,0,200,16,0,201,19,0,621,20,0,621,21,0,600,22,0,621,23,0,600,24,0,600,25,0,600,26,0,600,27,0,600,28,0,600,29,0,621,30,0,600,31,0,200,32,0,600,33,0,600,34,0,600,35,0,621,36,0,621,37,0,621,38,0,621,39,0,621,40,0,600,41,0,600,42,0,600,43,0,600,44,0,600,45,0,600,46,0,621,56,0,200,57,0,200,58,0,200,59,0,600,60,0,600,61,0,600*41
$PAIRDGP,10,5,10,12,15,18,23,24,25,28,32*45
$GNGGA,114737.200,2500.8226289,N,12132.4608477,E,4,64,0.44,16.053,M,15.25,M,2,3335*41
$GNRMC,114737.200,A,2500.8226289,N,12132.4608477,E,0.01,333.82,260623,,,R,V*10
$GPHDT,269.417,T*3A
$GNACCURACY,2.3*17
$GNGGA,114737.300,2500.8226103,N,12132.4608413,E,4,64,0.44,16.025,M,15.25,M,2,3335*42
$GNRMC,114737.300,A,2500.8226103,N,12132.4608413,E,0.01,333.82,260623,,,R,V*12
$GPHDT,,T*1B
$GNACCURACY,2.3*17
$GNGGA,114737.400,2500.8226131,N,12132.4608492,E,4,64,0.44,16.005,M,15.25,M,1,3335*4C
$GNRMC,114737.400,A,2500.8226131,N,12132.4608492,E,0.01,333.82,260623,,,R,V*1D
$GPHDT,269.679,T*30
$GNACCURACY,2.3*17
$GNGGA,114737.500,2500.8226123,N,12132.4608439,E,4,64,0.44,16.015,M,15.25,M,1,3335*4E
$GNRMC,114737.500,A,2500.8226123,N,12132.4608439,E,0.01,333.82,260623,,,R,V*1E
$GPHDT,,T*1B
$GNACCURACY,2.3*17
$GNGGA,114737.600,2500.8226104,N,12132.4608438,E,4,64,0.44,16.013,M,15.25,M,1,3335*4F
$GNRMC,114737.600,A,2500.8226104,N,12132.4608438,E,0.01,333.82,260623,,,R,V*19
$GPHDT,269.666,T*3E
$GNACCURACY,2.3*17
$GNGGA,114737.700,2500.8226144,N,12132.4608419,E,4,64,0.44,16.004,M,15.25,M,1,3335*4F
$GNRMC,114737.700,A,2500.8226144,N,12132.4608419,E,0.01,333.82,260623,,,R,V*1F
$GPHDT,,T*1B
$GNACCURACY,2.3*17
$GNGGA,114737.800,2500.8226139,N,12132.4608428,E,4,64,0.44,16.001,M,15.25,M,1,3335*4D
$GNRMC,114737.800,A,2500.8226139,N,12132.4608428,E,0.01,333.82,260623,,,R,V*18
$GPHDT,269.321,T*38
$GNACCURACY,2.3*17
$GNGGA,114737.900,2500.8226135,N,12132.4608434,E,4,64,0.44,16.003,M,15.25,M,1,3335*4F
$GNRMC,114737.900,A,2500.8226135,N,12132.4608434,E,0.01,333.82,260623,,,R,V*18
$GPHDT,,T*1B
$GNACCURACY,2.3*17
$GNGGA,114738.000,2500.8226156,N,12132.4608421,E,4,64,0.44,16.006,M,15.25,M,2,3335*4E
$GNRMC,114738.000,A,2500.8226156,N,12132.4608421,E,0.01,333.82,260623,,,R,V*1F
$GPHDT,269.147,T*3A
$GNACCURACY,2.3*17
$GNGGA,114738.100,2500.8226136,N,12132.4608435,E,4,63,0.44,16.001,M,15.25,M,2,3335*4C
$GNRMC,114738.100,A,2500.8226136,N,12132.4608435,E,0.01,333.82,260623,,,R,V*1D
$GPHDT,,T*1B
$GNGSA,A,3,196,24,199,23,18,194,15,195,12,10,25,05,0.78,0.44,0.65,1*09
$GNGSA,A,3,32,,,,,,,,,,,,0.78,0.44,0.65,1*0C
$GNGSA,A,3,73,80,86,85,71,,,,,,,,0.78,0.44,0.65,2*07
$GNGSA,A,3,13,07,08,26,30,02,15,,,,,,0.78,0.44,0.65,3*03
$GNGSA,A,3,08,38,13,39,16,06,46,19,09,36,20,35,0.78,0.44,0.65,4*00
$GNGSA,A,3,37,22,29,,,,,,,,,,0.78,0.44,0.65,4*07
$GPGSV,4,1,16,196,75,072,39,24,64,035,36,199,60,167,36,23,60,345,30,1*66
$GPGSV,4,2,16,18,52,230,44,41,38,242,42,194,34,136,39,15,32,057,31,1*56
$GPGSV,4,3,16,195,30,179,37,12,27,133,39,10,25,322,34,25,16,171,19,1*51
$GPGSV,4,4,16,05,13,126,23,32,13,277,37,13,03,064,,28,02,221,,1*6F
$GPGSV,3,1,09,196,75,072,44,24,64,035,45,199,60,167,46,18,52,230,49,8*6B
$GPGSV,3,2,09,194,34,136,44,195,30,179,36,10,25,322,33,25,16,171,19,8*64
$GPGSV,3,3,09,32,13,277,38,8*5E
$GLGSV,2,1,07,73,49,153,40,80,46,059,25,86,28,289,40,85,28,235,16,1*70
$GLGSV,2,2,07,71,26,324,29,69,09,084,18,79,03,027,16,1*4F
$GAGSV,3,1,09,13,49,222,40,07,46,314,41,08,43,034,29,26,35,298,41,7*70
$GAGSV,3,2,09,30,32,138,42,02,27,077,28,15,15,173,25,27,07,185,,7*74
$GAGSV,3,3,09,03,07,071,,7*48
$GAGSV,2,1,06,13,49,222,43,07,46,314,41,08,43,034,29,26,35,298,41,1*7B
$GAGSV,2,2,06,30,32,138,42,15,15,173,23,1*79
$GBGSV,4,1,15,08,84,351,40,38,82,151,43,13,71,324,43,39,69,295,43,1*79
$GBGSV,4,2,15,16,66,270,41,06,64,265,42,46,62,092,34,19,53,356,23,1*75
$GBGSV,4,3,15,09,50,246,42,36,44,183,41,20,40,074,27,35,18,260,36,1*7B
$GBGSV,4,4,15,37,17,043,22,22,16,308,36,29,13,206,29,1*48
$GBGSV,3,1,09,38,82,151,44,39,69,295,47,46,62,092,21,19,53,356,30,4*77
$GBGSV,3,2,09,36,44,183,45,20,40,074,26,35,18,260,34,37,17,043,30,4*7E
$GBGSV,3,3,09,22,16,308,30,4*45
$GNACCURACY,2.3*17
$PAIRSAT,1,35,1,0,200,2,0,200,3,0,200,4,0,200,5,0,201,6,0,200,7,0,200,8,0,200,9,0,200,10,0,221,11,0,200,12,0,201,13,0,201,14,0,200,15,0,201,16,0,200,17,0,200,18,0,221,19,0,200,20,0,200,21,0,200,23,0,221,24,0,221,25,0,220,26,0,200,27,0,200,28,0,200,29,0,200,30,0,200,31,0,200,32,0,221,194,0,621,195,0,621,196,0,620,199,0,621*6A
$PAIRSAT,2,24,65,0,200,66,0,200,67,0,200,68,0,200,69,0,200,70,0,200,71,0,201,72,0,200,73,0,201,74,0,200,75,0,200,76,0,200,77,0,200,78,0,200,79,0,201,80,0,201,81,0,200,82,0,200,83,0,200,84,0,200,85,0,201,86,0,201,87,0,200,88,0,200*7A
$PAIRSAT,3,23,2,0,1221,3,0,1221,4,0,1200,5,0,200,7,0,1221,8,0,1221,9,0,1200,10,0,1200,11,0,1200,12,0,1200,13,0,1221,15,0,1221,19,0,1200,21,0,1200,24,0,1200,25,0,1200,26,0,1221,27,0,1200,30,0,1221,31,0,1200,33,0,1200,34,0,1200,36,0,1200*6A
$PAIRSAT,4,50,1,0,200,2,0,200,3,0,200,4,0,200,5,0,200,6,0,201,7,0,200,8,0,201,9,0,201,10,0,200,11,0,200,12,0,200,13,0,201,14,0,200,15,0,200,16,0,201,19,0,621,20,0,621,21,0,600,22,0,621,23,0,600,24,0,600,25,0,600,26,0,600,27,0,600,28,0,600,29,0,621,30,0,600,31,0,200,32,0,600,33,0,600,34,0,600,35,0,621,36,0,621,37,0,621,38,0,621,39,0,621,40,0,600,41,0,600,42,0,600,43,0,600,44,0,600,45,0,600,46,0,621,56,0,200,57,0,200,58,0,200,59,0,600,60,0,600,61,0,600*41
$PAIRDGP,10,5,10,12,15,18,23,24,25,28,32*45
$GNGGA,114738.200,2500.8226114,N,12132.4608442,E,4,64,0.44,16.014,M,15.25,M,2,3335*4C
$GNRMC,114738.200,A,2500.8226114,N,12132.4608442,E,0.01,333.82,260623,,,R,V*1E
$GPHDT,269.694,T*33
$GNACCURACY,2.3*17
$GNGGA,114738.300,2500.8226102,N,12132.4608390,E,4,64,0.44,16.026,M,15.25,M,2,3335*43
$GNRMC,114738.300,A,2500.8226102,N,12132.4608390,E,0.01,333.82,260623,,,R,V*10
$GPHDT,,T*1B
$GNACCURACY,2.3*17
$GNGGA,114738.400,2500.8226124,N,12132.4608421,E,4,64,0.44,16.016,M,15.25,M,2,3335*4E
$GNRMC,114738.400,A,2500.8226124,N,12132.4608421,E,0.01,333.82,260623,,,R,V*1E
$GPHDT,269.455,T*3C
$GNACCURACY,2.3*17
$GNGGA,114738.500,2500.8226118,N,12132.4608371,E,4,64,0.44,16.010,M,15.25,M,2,3335*44
$GNRMC,114738.500,A,2500.8226118,N,12132.4608371,E,0.01,333.82,260623,,,R,V*12
$GPHDT,,T*1B
$GNACCURACY,2.3*17
$GNGGA,114738.600,2500.8226250,N,12132.4608423,E,4,65,0.44,16.048,M,15.25,M,2,3335*44
$GNRMC,114738.600,A,2500.8226250,N,12132.4608423,E,0.01,333.82,260623,,,R,V*1E
$GPHDT,269.589,T*3C
$GNACCURACY,2.3*17
$GNGGA,114738.700,2500.8226311,N,12132.4608431,E,4,65,0.44,16.031,M,15.25,M,2,3335*4C
$GNRMC,114738.700,A,2500.8226311,N,12132.4608431,E,0.01,333.82,260623,,,R,V*18
$GPHDT,,T*1B
$GNACCURACY,2.3*17
$GNGGA,114738.800,2500.8226310,N,12132.4608473,E,4,65,0.44,16.041,M,15.25,M,2,3335*43
$GNRMC,114738.800,A,2500.8226310,N,12132.4608473,E,0.01,333.82,260623,,,R,V*10
$GPHDT,269.473,T*38
$GNACCURACY,2.3*17
$GNGGA,114738.900,2500.8226321,N,12132.4608464,E,4,65,0.43,16.057,M,15.25,M,2,3335*46
$GNRMC,114738.900,A,2500.8226321,N,12132.4608464,E,0.01,333.82,260623,,,R,V*15
$GPHDT,,T*1B
$GNACCURACY,2.3*17
$GNGGA,114739.000,2500.8226286,N,12132.4608401,E,4,65,0.43,16.052,M,15.25,M,3,3335*45
$GNRMC,114739.000,A,2500.8226286,N,12132.4608401,E,0.01,333.82,260623,,,R,V*12
$GPHDT,269.413,T*3E
$GNACCURACY,2.3*17
$GNGGA,114739.100,2500.8226281,N,12132.4608454,E,4,64,0.45,16.045,M,15.25,M,3,3335*42
$GNRMC,114739.100,A,2500.8226281,N,12132.4608454,E,0.01,333.82,260623,,,R,V*14
$GPHDT,,T*1B
$GNGSA,A,3,196,24,199,23,18,194,15,195,12,10,25,32,0.72,0.45,0.56,1*06
$GNGSA,A,3,73,80,86,85,71,,,,,,,,0.72,0.45,0.56,2*0C
$GNGSA,A,3,13,07,08,26,30,02,15,,,,,,0.72,0.45,0.56,3*08
$GNGSA,A,3,08,38,13,39,16,06,46,19,09,36,20,35,0.72,0.45,0.56,4*0B
$GNGSA,A,3,37,22,29,,,,,,,,,,0.72,0.45,0.56,4*0C
$GPGSV,4,1,16,196,75,072,40,24,64,035,26,199,60,167,36,23,60,345,33,1*6A
$GPGSV,4,2,16,18,52,230,45,41,38,242,42,194,34,136,39,15,32,057,31,1*57
$GPGSV,4,3,16,195,30,179,37,12,27,133,39,10,25,322,34,25,16,171,19,1*51
$GPGSV,4,4,16,05,13,126,19,32,13,277,37,13,03,064,,28,02,221,,1*66
$GPGSV,3,1,10,196,75,072,44,24,64,035,45,23,60,345,31,199,60,167,46,8*66
$GPGSV,3,2,10,18,52,230,49,194,34,136,44,195,30,179,34,10,25,322,30,8*60
$GPGSV,3,3,10,25,16,171,20,32,13,277,38,8*63
$GLGSV,2,1,07,73,49,153,40,80,46,059,24,86,28,289,40,85,27,235,16,1*7E
$GLGSV,2,2,07,71,26,324,26,69,09,084,18,79,03,027,14,1*42
$GAGSV,3,1,09,13,49,222,39,07,46,314,41,08,43,034,27,26,35,298,41,7*70
$GAGSV,3,2,09,30,32,138,42,02,27,077,28,15,15,173,25,27,07,185,,7*74
$GAGSV,3,3,09,03,07,071,,7*48
$GAGSV,2,1,06,13,49,222,43,07,46,314,38,08,43,034,23,26,35,298,39,1*70
$GAGSV,2,2,06,30,32,138,42,15,15,173,25,1*7F
$GBGSV,4,1,15,08,84,351,40,38,82,151,43,13,71,324,43,39,69,295,43,1*79
$GBGSV,4,2,15,16,66,270,41,06,64,265,42,46,62,092,35,19,53,356,30,1*76
$GBGSV,4,3,15,09,50,246,42,36,44,183,42,20,40,074,27,35,18,260,34,1*7A
$GBGSV,4,4,15,37,17,043,22,22,16,308,36,29,13,206,29,1*48
$GBGSV,3,1,09,38,82,151,44,39,69,295,47,46,62,092,35,19,53,356,25,4*76
$GBGSV,3,2,09,36,44,183,45,20,40,074,23,35,18,260,35,37,17,043,26,4*7D
$GBGSV,3,3,09,22,16,308,30,4*45
$GNACCURACY,2.3*17
$PAIRSAT,1,35,1,0,200,2,0,200,3,0,200,4,0,200,5,0,201,6,0,200,7,0,200,8,0,200,9,0,200,10,0,221,11,0,200,12,0,201,13,0,201,14,0,200,15,0,201,16,0,200,17,0,200,18,0,221,19,0,200,20,0,200,21,0,200,23,0,221,24,0,221,25,0,220,26,0,200,27,0,200,28,0,200,29,0,200,30,0,200,31,0,200,32,0,221,194,0,621,195,0,621,196,0,620,199,0,621*6A
$PAIRSAT,2,24,65,0,200,66,0,200,67,0,200,68,0,200,69,0,200,70,0,200,71,0,201,72,0,200,73,0,201,74,0,200,75,0,200,76,0,200,77,0,200,78,0,200,79,0,201,80,0,201,81,0,200,82,0,200,83,0,200,84,0,200,85,0,201,86,0,201,87,0,200,88,0,200*7A
$PAIRSAT,3,23,2,0,1221,3,0,1221,4,0,1200,5,0,200,7,0,1221,8,0,1221,9,0,1200,10,0,1200,11,0,1200,12,0,1200,13,0,1221,15,0,1221,19,0,1200,21,0,1200,24,0,1200,25,0,1200,26,0,1221,27,0,1200,30,0,1221,31,0,1200,33,0,1200,34,0,1200,36,0,1200*6A
$PAIRSAT,4,50,1,0,200,2,0,200,3,0,200,4,0,200,5,0,200,6,0,201,7,0,200,8,0,201,9,0,201,10,0,200,11,0,200,12,0,200,13,0,201,14,0,200,15,0,200,16,0,201,19,0,621,20,0,621,21,0,600,22,0,621,23,0,600,24,0,600,25,0,600,26,0,600,27,0,600,28,0,600,29,0,621,30,0,600,31,0,200,32,0,600,33,0,600,34,0,600,35,0,621,36,0,621,37,0,621,38,0,621,39,0,621,40,0,600,41,0,600,42,0,600,43,0,600,44,0,600,45,0,600,46,0,621,56,0,200,57,0,200,58,0,200,59,0,600,60,0,600,61,0,600*41
$PAIRDGP,10,5,10,12,15,18,23,24,25,28,32*45
$GNGGA,114739.200,2500.8226314,N,12132.4608412,E,4,64,0.45,16.039,M,15.25,M,3,3335*45
$GNRMC,114739.200,A,2500.8226314,N,12132.4608412,E,0.00,333.82,260623,,,R,V*19
$GPHDT,269.580,T*35
$GNACCURACY,2.3*17
$GNGGA,114739.300,2500.8226324,N,12132.4608424,E,4,64,0.45,16.047,M,15.25,M,3,3335*4B
$GNRMC,114739.300,A,2500.8226324,N,12132.4608424,E,0.00,333.82,260623,,,R,V*1E
$GPHDT,,T*1B
$GNACCURACY,2.4*10
$GNGGA,114739.400,2500.8226312,N,12132.4608435,E,4,65,0.43,16.050,M,15.25,M,3,3335*48
$GNRMC,114739.400,A,2500.8226312,N,12132.4608435,E,0.00,333.82,260623,,,R,V*1C
$GPHDT,268.927,T*35
$GNACCURACY,2.4*10
$GNGGA,114739.500,2500.8226339,N,12132.4608449,E,4,64,0.45,16.045,M,15.25,M,3,3335*48
$GNRMC,114739.500,A,2500.8226339,N,12132.4608449,E,0.00,333.82,260623,,,R,V*1F
$GPHDT,,T*1B
$GNACCURACY,2.4*10
$GNGGA,114739.600,2500.8226341,N,12132.4608437,E,4,65,0.43,16.045,M,15.25,M,3,3335*4A
$GNRMC,114739.600,A,2500.8226341,N,12132.4608437,E,0.00,333.82,260623,,,R,V*1A
$GPHDT,268.754,T*3F
$GNACCURACY,2.4*10
$GNGGA,114739.700,2500.8226275,N,12132.4608474,E,4,65,0.43,16.055,M,15.25,M,3,3335*4B
$GNRMC,114739.700,A,2500.8226275,N,12132.4608474,E,0.00,333.82,260623,,,R,V*1A
$GPHDT,,T*1B
$GNACCURACY,2.4*10
$GNGGA,114739.800,2500.8226309,N,12132.4608475,E,4,64,0.45,16.070,M,15.25,M,3,3335*4F
$GNRMC,114739.800,A,2500.8226309,N,12132.4608475,E,0.01,333.82,260623,,,R,V*1F
$GPHDT,269.447,T*3F
