$FW : RTK35X,V1.1X0314AS,Lib20210517,1*54
$Tool : LOCOSYS , GNSS Firebird , v1.0.0.19*39
$---------------------------------------------------*2D
$GNACCURACY,2.3*17
$GNGGA,114705.000,2500.8213948,N,12132.4578871,E,2,65,0.45,17.411,M,15.25,M,46,3335*79
$GNRMC,114705.000,A,2500.8213948,N,12132.4578871,E,0.00,333.82,260623,,,D,V*0A
$GPHDT,3.711,T*31
$GNACCURACY,2.3*17
$GNGGA,114705.100,2500.8213888,N,12132.4578811,E,2,65,0.45,17.400,M,15.25,M,46,3335*73
$GNRMC,114705.100,A,2500.8213888,N,12132.4578811,E,0.00,333.82,260623,,,D,V*00
$GPHDT,,T*1B
$GNGSA,A,3,196,24,199,23,18,194,15,195,12,10,25,05,0.80,0.45,0.66,1*0C
$GNGSA,A,3,32,,,,,,,,,,,,0.80,0.45,0.66,1*09
$GNGSA,A,3,73,80,86,71,,,,,,,,,0.80,0.45,0.66,2*0F
$GNGSA,A,3,13,07,08,26,30,02,15,,,,,,0.80,0.45,0.66,3*06
$GNGSA,A,3,08,38,13,39,16,06,46,19,09,36,20,35,0.80,0.45,0.66,4*05
$GNGSA,A,3,37,22,29,,,,,,,,,,0.80,0.45,0.66,4*02
$GPGSV,4,1,16,196,75,071,40,24,64,035,35,199,60,167,36,23,59,345,32,1*60
$GPGSV,4,2,16,18,53,230,42,41,38,242,41,194,34,136,38,15,32,056,26,1*54
$GPGSV,4,3,16,195,30,179,36,12,26,134,39,10,25,322,43,25,16,171,25,1*59
$GPGSV,4,4,16,05,13,125,29,32,13,277,38,13,03,063,,28,01,221,,1*6D
$GPGSV,3,1,10,196,75,071,44,24,64,035,47,199,60,167,45,23,59,345,26,8*68
$GPGSV,3,2,10,18,53,230,47,194,34,136,47,195,30,179,33,10,25,322,35,8*6E
$GPGSV,3,3,10,25,16,171,22,32,13,277,40,8*6E
$GLGSV,3,1,09,73,49,153,44,80,46,060,17,70,41,024,,85,28,236,17,1*75
$GLGSV,3,2,09,86,28,290,38,71,26,324,34,74,12,186,,69,09,084,16,1*76
$GLGSV,3,3,09,79,04,027,,1*4E
$GAGSV,3,1,09,13,49,222,39,07,45,313,42,08,43,034,29,26,35,298,40,7*78
$GAGSV,3,2,09,30,32,138,41,02,27,077,21,15,15,173,23,03,07,071,13,7*76
$GAGSV,3,3,09,27,06,185,,7*45
$GAGSV,2,1,07,13,49,222,44,07,45,313,40,08,43,034,30,26,35,298,44,1*75
$GAGSV,2,2,07,30,32,138,42,15,15,173,16,03,07,071,09,1*45
$GBGSV,4,1,16,08,84,352,37,38,82,150,42,13,71,325,44,39,69,295,43,1*7F
$GBGSV,4,2,16,16,66,270,42,06,64,265,42,46,62,092,33,19,53,356,29,1*78
$GBGSV,4,3,16,09,50,246,41,36,44,183,43,31,40,215,,20,40,074,31,1*70
$GBGSV,4,4,16,35,18,260,38,37,17,043,30,22,16,308,36,29,13,206,21,1*70
$GBGSV,3,1,10,38,82,150,45,39,69,295,44,46,62,092,19,19,53,356,17,4*72
$GBGSV,3,2,10,36,44,183,42,20,40,074,21,35,18,260,34,37,17,043,22,4*75
$GBGSV,3,3,10,22,16,308,37,29,13,206,17,4*71
$GNACCURACY,2.3*17
$PAIRSAT,1,35,1,0,200,2,0,200,3,0,200,4,0,200,5,0,201,6,0,200,7,0,200,8,0,200,9,0,200,10,0,221,11,0,200,12,0,201,13,0,201,14,0,200,15,0,201,16,0,200,17,0,200,18,0,221,19,0,200,20,0,200,21,0,200,23,0,221,24,0,221,25,0,220,26,0,200,27,0,200,28,0,200,29,0,200,30,0,200,31,0,200,32,0,221,194,0,621,195,0,621,196,0,620,199,0,621*6A
$PAIRSAT,2,24,65,0,200,66,0,200,67,0,200,68,0,200,69,0,200,70,0,200,71,0,201,72,0,200,73,0,201,74,0,200,75,0,200,76,0,200,77,0,200,78,0,200,79,0,201,80,0,201,81,0,200,82,0,200,83,0,200,84,0,200,85,0,201,86,0,201,87,0,200,88,0,200*7A
$PAIRSAT,3,23,2,0,1221,3,0,1221,4,0,1200,5,0,200,7,0,1221,8,0,1221,9,0,1200,10,0,1200,11,0,1200,12,0,1200,13,0,1221,15,0,1221,19,0,1200,21,0,1200,24,0,1200,25,0,1200,26,0,1221,27,0,1200,30,0,1221,31,0,1200,33,0,1200,34,0,1200,36,0,1200*6A
$PAIRSAT,4,50,1,0,200,2,0,200,3,0,200,4,0,200,5,0,200,6,0,201,7,0,200,8,0,201,9,0,201,10,0,200,11,0,200,12,0,200,13,0,201,14,0,200,15,0,200,16,0,201,19,0,621,20,0,621,21,0,600,22,0,621,23,0,600,24,0,600,25,0,600,26,0,600,27,0,600,28,0,600,29,0,621,30,0,600,31,0,200,32,0,600,33,0,600,34,0,600,35,0,621,36,0,621,37,0,621,38,0,621,39,0,621,40,0,600,41,0,600,42,0,600,43,0,600,44,0,600,45,0,600,46,0,621,56,0,200,57,0,200,58,0,200,59,0,600,60,0,600,61,0,600*41
$PAIRDGP,10,5,10,12,15,18,23,24,25,28,32*45
$GNGGA,114705.200,2500.8213768,N,12132.4578811,E,2,65,0.45,17.389,M,15.25,M,46,3335*77
$GNRMC,114705.200,A,2500.8213768,N,12132.4578811,E,0.00,333.82,260623,,,D,V*02
$GPHDT,4.180,T*38
$GNACCURACY,2.3*17
$GNGGA,114705.300,2500.8213708,N,12132.4578811,E,2,65,0.45,17.379,M,15.25,M,46,3335*7F
$GNRMC,114705.300,A,2500.8213708,N,12132.4578811,E,0.00,333.82,260623,,,D,V*05
$GPHDT,,T*1B
$GNACCURACY,2.3*17
$GNGGA,114705.400,2500.8213588,N,12132.4578811,E,2,65,0.45,17.364,M,15.25,M,46,3335*7E
$GNRMC,114705.400,A,2500.8213588,N,12132.4578811,E,0.00,333.82,260623,,,D,V*08
$GPHDT,3.962,T*3B
$GNACCURACY,2.3*17
$GNGGA,114705.500,2500.8213528,N,12132.4578811,E,2,65,0.45,17.350,M,15.25,M,46,3335*72
$GNRMC,114705.500,A,2500.8213528,N,12132.4578811,E,0.00,333.82,260623,,,D,V*03
$GPHDT,,T*1B
$GNACCURACY,2.3*17
$GNGGA,114705.600,2500.8213468,N,12132.4578811,E,2,65,0.45,17.336,M,15.25,M,46,3335*74
$GNRMC,114705.600,A,2500.8213468,N,12132.4578811,E,0.00,333.82,260623,,,D,V*05
$GPHDT,3.412,T*31
$GNACCURACY,2.3*17
$GNGGA,114705.700,2500.8213348,N,12132.4578811,E,2,63,0.47,17.326,M,15.25,M,46,3335*75
$GNRMC,114705.700,A,2500.8213348,N,12132.4578811,E,0.00,333.82,260623,,,D,V*01
$GPHDT,,T*1B
$GNACCURACY,2.3*17
$GNGGA,114705.800,2500.8213288,N,12132.4578811,E,2,63,0.47,17.313,M,15.25,M,46,3335*71
$GNRMC,114705.800,A,2500.8213288,N,12132.4578811,E,0.00,333.82,260623,,,D,V*03
$GPHDT,3.404,T*36
$GNACCURACY,2.3*17
$GNGGA,114705.900,2500.8213168,N,12132.4578871,E,2,63,0.47,17.299,M,15.25,M,46,3335*78
$GNRMC,114705.900,A,2500.8213168,N,12132.4578871,E,0.00,333.82,260623,,,D,V*09
$GPHDT,,T*1B
$GNACCURACY,2.3*17
$GNGGA,114706.000,2500.8213108,N,12132.4578871,E,2,65,0.45,17.285,M,15.25,M,47,3335*7C
$GNRMC,114706.000,A,2500.8213108,N,12132.4578871,E,0.00,333.82,260623,,,D,V*05
$GPHDT,3.323,T*34
$GNACCURACY,2.3*17
$GNGGA,114706.100,2500.8213048,N,12132.4578751,E,2,65,0.45,17.284,M,15.25,M,47,3335*74
$GNRMC,114706.100,A,2500.8213048,N,12132.4578751,E,0.00,333.82,260623,,,D,V*0C
$GPHDT,,T*1B
$GNGSA,A,3,196,24,199,23,18,194,15,195,12,10,25,05,0.80,0.45,0.66,1*0C
$GNGSA,A,3,32,,,,,,,,,,,,0.80,0.45,0.66,1*09
$GNGSA,A,3,73,80,86,71,,,,,,,,,0.80,0.45,0.66,2*0F
$GNGSA,A,3,13,07,08,26,30,02,15,,,,,,0.80,0.45,0.66,3*06
$GNGSA,A,3,08,38,13,39,16,06,46,19,09,36,20,35,0.80,0.45,0.66,4*05
$GNGSA,A,3,37,22,29,,,,,,,,,,0.80,0.45,0.66,4*02
$GPGSV,4,1,16,196,75,071,40,24,64,035,35,199,60,167,36,23,59,345,31,1*63
$GPGSV,4,2,16,18,53,230,42,41,38,242,41,194,34,136,38,15,32,056,30,1*53
$GPGSV,4,3,16,195,30,179,36,12,26,134,39,10,25,322,43,25,16,171,24,1*58
$GPGSV,4,4,16,05,13,125,29,32,13,277,38,13,03,063,,28,01,221,,1*6D
$GPGSV,3,1,10,196,75,071,44,24,64,035,47,199,60,167,45,23,59,345,26,8*68
$GPGSV,3,2,10,18,53,230,47,194,34,136,46,195,30,179,34,10,25,322,34,8*69
$GPGSV,3,3,10,25,16,171,22,32,13,277,39,8*60
$GLGSV,2,1,08,73,49,153,44,80,46,059,17,70,41,024,,85,28,236,17,1*7F
$GLGSV,2,2,08,86,28,290,38,71,26,324,34,69,09,084,17,79,04,027,,1*77
$GAGSV,3,1,09,13,49,222,39,07,45,313,43,08,43,034,30,26,35,298,40,7*71
$GAGSV,3,2,09,30,32,138,41,02,27,077,22,15,15,173,22,03,07,071,,7*76
$GAGSV,3,3,09,27,06,185,,7*45
$GAGSV,2,1,06,13,49,222,44,07,45,313,41,08,43,034,30,26,35,298,44,1*75
$GAGSV,2,2,06,30,32,138,42,15,15,173,16,1*7F
$GBGSV,4,1,15,08,84,352,37,38,82,150,42,13,71,325,44,39,69,295,43,1*7C
$GBGSV,4,2,15,16,66,270,42,06,64,265,42,46,62,092,34,19,53,356,29,1*7C
$GBGSV,4,3,15,09,50,246,41,36,44,183,44,20,40,074,30,35,18,260,38,1*75
$GBGSV,4,4,15,37,17,043,31,22,16,308,36,29,13,206,21,1*42
$GBGSV,3,1,09,38,82,150,45,39,69,295,44,19,53,356,17,36,44,183,42,4*76
$GBGSV,3,2,09,20,40,074,24,35,18,260,35,37,17,043,23,22,16,308,36,4*78
$GBGSV,3,3,09,29,13,206,17,4*41
$GNACCURACY,2.3*17
$PAIRSAT,1,35,1,0,200,2,0,200,3,0,200,4,0,200,5,0,201,6,0,200,7,0,200,8,0,200,9,0,200,10,0,221,11,0,200,12,0,201,13,0,201,14,0,200,15,0,201,16,0,200,17,0,200,18,0,221,19,0,200,20,0,200,21,0,200,23,0,221,24,0,221,25,0,220,26,0,200,27,0,200,28,0,200,29,0,200,30,0,200,31,0,200,32,0,221,194,0,621,195,0,621,196,0,620,199,0,621*6A
$PAIRSAT,2,24,65,0,200,66,0,200,67,0,200,68,0,200,69,0,200,70,0,200,71,0,201,72,0,200,73,0,201,74,0,200,75,0,200,76,0,200,77,0,200,78,0,200,79,0,201,80,0,201,81,0,200,82,0,200,83,0,200,84,0,200,85,0,201,86,0,201,87,0,200,88,0,200*7A
$PAIRSAT,3,23,2,0,1221,3,0,1221,4,0,1200,5,0,200,7,0,1221,8,0,1221,9,0,1200,10,0,1200,11,0,1200,12,0,1200,13,0,1221,15,0,1221,19,0,1200,21,0,1200,24,0,1200,25,0,1200,26,0,1221,27,0,1200,30,0,1221,31,0,1200,33,0,1200,34,0,1200,36,0,1200*6A
$PAIRSAT,4,50,1,0,200,2,0,200,3,0,200,4,0,200,5,0,200,6,0,201,7,0,200,8,0,201,9,0,201,10,0,200,11,0,200,12,0,200,13,0,201,14,0,200,15,0,200,16,0,201,19,0,621,20,0,621,21,0,600,22,0,621,23,0,600,24,0,600,25,0,600,26,0,600,27,0,600,28,0,600,29,0,621,30,0,600,31,0,200,32,0,600,33,0,600,34,0,600,35,0,621,36,0,621,37,0,621,38,0,621,39,0,621,40,0,600,41,0,600,42,0,600,43,0,600,44,0,600,45,0,600,46,0,621,56,0,200,57,0,200,58,0,200,59,0,600,60,0,600,61,0,600*41
$PAIRDGP,10,5,10,12,15,18,23,24,25,28,32*45
$GNGGA,114706.200,2500.8212988,N,12132.4578751,E,2,64,0.45,17.274,M,15.25,M,47,3335*7D
$GNRMC,114706.200,A,2500.8212988,N,12132.4578751,E,0.00,333.82,260623,,,D,V*0B
$GPHDT,3.125,T*30
$GNACCURACY,2.3*17
$GNGGA,114706.300,2500.8212928,N,12132.4578751,E,2,65,0.44,17.265,M,15.25,M,47,3335*76
$GNRMC,114706.300,A,2500.8212928,N,12132.4578751,E,0.00,333.82,260623,,,D,V*00
$GPHDT,,T*1B
$GNACCURACY,2.3*17
$GNGGA,114706.400,2500.8212868,N,12132.4578691,E,2,63,0.45,17.255,M,15.25,M,47,3335*7D
$GNRMC,114706.400,A,2500.8212868,N,12132.4578691,E,0.00,333.82,260623,,,D,V*0F
$GPHDT,2.718,T*39
$GNACCURACY,2.3*17
$GNGGA,114706.500,2500.8212808,N,12132.4578691,E,2,65,0.44,17.249,M,15.25,M,47,3335*70
$GNRMC,114706.500,A,2500.8212808,N,12132.4578691,E,0.01,333.82,260623,,,D,V*09
$GPHDT,,T*1B
$GNACCURACY,2.3*17
$GNGGA,114706.600,2500.8212748,N,12132.4578631,E,2,65,0.44,17.238,M,15.25,M,47,3335*74
$GNRMC,114706.600,A,2500.8212748,N,12132.4578631,E,0.01,333.82,260623,,,D,V*0B
$GPHDT,3.258,T*39
$GNACCURACY,2.3*17
$GNGGA,114706.700,2500.8212688,N,12132.4578631,E,2,65,0.44,17.241,M,15.25,M,47,3335*76
$GNRMC,114706.700,A,2500.8212688,N,12132.4578631,E,0.01,333.82,260623,,,D,V*07
$GPHDT,,T*1B
$GNACCURACY,2.3*17
$GNGGA,114706.800,2500.8212628,N,12132.4578571,E,2,66,0.44,17.231,M,15.25,M,47,3335*70
$GNRMC,114706.800,A,2500.8212628,N,12132.4578571,E,0.01,333.82,260623,,,D,V*05
$GPHDT,3.476,T*33
$GNACCURACY,2.3*17
$GNGGA,114706.900,2500.8212508,N,12132.4578631,E,2,66,0.44,17.218,M,15.25,M,47,3335*7C
$GNRMC,114706.900,A,2500.8212508,N,12132.4578631,E,0.01,333.82,260623,,,D,V*02
$GPHDT,,T*1B
$GNACCURACY,2.3*17
$GNGGA,114707.000,2500.8212448,N,12132.4578571,E,2,66,0.44,17.213,M,15.25,M,48,3335*72
$GNRMC,114707.000,A,2500.8212448,N,12132.4578571,E,0.01,333.82,260623,,,D,V*08
$GPHDT,3.770,T*36
$GNACCURACY,2.3*17
$GNGGA,114707.100,2500.8212448,N,12132.4578631,E,2,67,0.44,17.203,M,15.25,M,48,3335*74
$GNRMC,114707.100,A,2500.8212448,N,12132.4578631,E,0.00,333.82,260623,,,D,V*0F
$GPHDT,,T*1B
$GNGSA,A,3,196,24,199,23,18,194,15,195,12,10,25,05,0.78,0.44,0.65,1*09
$GNGSA,A,3,32,,,,,,,,,,,,0.78,0.44,0.65,1*0C
$GNGSA,A,3,73,80,85,86,71,,,,,,,,0.78,0.44,0.65,2*07
$GNGSA,A,3,13,07,08,26,30,02,15,,,,,,0.78,0.44,0.65,3*03
$GNGSA,A,3,08,38,13,39,16,06,46,19,09,36,20,35,0.78,0.44,0.65,4*00
$GNGSA,A,3,37,22,29,,,,,,,,,,0.78,0.44,0.65,4*07
$GPGSV,4,1,16,196,75,071,40,24,64,035,37,199,60,167,36,23,59,345,31,1*61
$GPGSV,4,2,16,18,53,230,42,41,38,242,42,194,34,136,40,15,32,056,28,1*56
$GPGSV,4,3,16,195,30,179,37,12,26,134,40,10,25,322,43,25,16,171,24,1*57
$GPGSV,4,4,16,05,13,125,29,32,13,277,38,13,03,063,,28,01,221,,1*6D
$GPGSV,3,1,10,196,75,071,44,24,64,035,46,199,60,167,45,23,59,345,26,8*69
$GPGSV,3,2,10,18,53,230,47,194,34,136,47,195,30,179,35,10,25,322,35,8*68
$GPGSV,3,3,10,25,16,171,22,32,13,277,39,8*60
$GLGSV,2,1,08,73,49,153,44,80,46,059,16,70,41,024,,85,28,236,17,1*7E
$GLGSV,2,2,08,86,28,290,38,71,26,324,34,69,09,084,17,79,04,027,,1*77
$GAGSV,3,1,09,13,49,222,39,07,45,313,43,08,43,034,30,26,35,298,40,7*71
$GAGSV,3,2,09,30,32,138,42,02,27,077,23,15,15,173,23,03,07,071,,7*75
$GAGSV,3,3,09,27,06,185,,7*45
$GAGSV,2,1,07,13,49,222,44,07,45,313,41,08,43,034,29,26,35,298,45,1*7D
$GAGSV,2,2,07,30,32,138,43,02,27,077,16,15,15,173,16,1*4F
$GBGSV,4,1,15,08,84,352,37,38,82,150,42,13,71,325,44,39,69,295,43,1*7C
$GBGSV,4,2,15,16,66,270,42,06,64,265,42,46,62,092,34,19,53,356,29,1*7C
$GBGSV,4,3,15,09,50,246,41,36,44,183,43,20,40,074,29,35,18,260,38,1*7A
$GBGSV,4,4,15,37,17,043,29,22,16,308,36,29,13,206,21,1*4B
$GBGSV,3,1,10,38,82,150,45,39,69,295,44,46,62,092,24,19,53,356,17,4*7C
$GBGSV,3,2,10,36,44,183,42,20,40,074,28,35,18,260,35,37,17,043,24,4*7B
$GBGSV,3,3,10,22,16,308,37,29,13,206,18,4*7E
$GNACCURACY,2.3*17
$PAIRSAT,1,35,1,0,200,2,0,200,3,0,200,4,0,200,5,0,201,6,0,200,7,0,200,8,0,200,9,0,200,10,0,221,11,0,200,12,0,201,13,0,201,14,0,200,15,0,201,16,0,200,17,0,200,18,0,221,19,0,200,20,0,200,21,0,200,23,0,221,24,0,221,25,0,220,26,0,200,27,0,200,28,0,200,29,0,200,30,0,200,31,0,200,32,0,221,194,0,621,195,0,621,196,0,620,199,0,621*6A
$PAIRSAT,2,24,65,0,200,66,0,200,67,0,200,68,0,200,69,0,200,70,0,200,71,0,201,72,0,200,73,0,201,74,0,200,75,0,200,76,0,200,77,0,200,78,0,200,79,0,201,80,0,201,81,0,200,82,0,200,83,0,200,84,0,200,85,0,201,86,0,201,87,0,200,88,0,200*7A
$PAIRSAT,3,23,2,0,1221,3,0,1221,4,0,1200,5,0,200,7,0,1221,8,0,1221,9,0,1200,10,0,1200,11,0,1200,12,0,1200,13,0,1221,15,0,1221,19,0,1200,21,0,1200,24,0,1200,25,0,1200,26,0,1221,27,0,1200,30,0,1221,31,0,1200,33,0,1200,34,0,1200,36,0,1200*6A
$PAIRSAT,4,50,1,0,200,2,0,200,3,0,200,4,0,200,5,0,200,6,0,201,7,0,200,8,0,201,9,0,201,10,0,200,11,0,200,12,0,200,13,0,201,14,0,200,15,0,200,16,0,201,19,0,621,20,0,621,21,0,600,22,0,621,23,0,600,24,0,600,25,0,600,26,0,600,27,0,600,28,0,600,29,0,621,30,0,600,31,0,200,32,0,600,33,0,600,34,0,600,35,0,621,36,0,621,37,0,621,38,0,621,39,0,621,40,0,600,41,0,600,42,0,600,43,0,600,44,0,600,45,0,600,46,0,621,56,0,200,57,0,200,58,0,200,59,0,600,60,0,600,61,0,600*41
$PAIRDGP,10,5,10,12,15,18,23,24,25,28,32*45
$GNGGA,114707.200,2500.8212388,N,12132.4578631,E,2,67,0.44,17.195,M,15.25,M,48,3335*70
$GNRMC,114707.200,A,2500.8212388,N,12132.4578631,E,0.00,333.82,260623,,,D,V*07
$GPHDT,3.257,T*36
$GNACCURACY,2.3*17
$GNGGA,114707.300,2500.8212328,N,12132.4578631,E,2,67,0.44,17.185,M,15.25,M,48,3335*7A
$GNRMC,114707.300,A,2500.8212328,N,12132.4578631,E,0.00,333.82,260623,,,D,V*0C
$GPHDT,,T*1B
$GNACCURACY,2.3*17
$GNGGA,114707.400,2500.8212268,N,12132.4578691,E,2,67,0.44,17.176,M,15.25,M,48,3335*7E
$GNRMC,114707.400,A,2500.8212268,N,12132.4578691,E,0.00,333.82,260623,,,D,V*04
$GPHDT,3.440,T*36
$GNACCURACY,2.3*17
$GNGGA,114707.500,2500.8212208,N,12132.4578691,E,2,67,0.44,17.165,M,15.25,M,48,3335*7B
$GNRMC,114707.500,A,2500.8212208,N,12132.4578691,E,0.00,333.82,260623,,,D,V*03
$GPHDT,,T*1B
$GNACCURACY,2.3*17
$GNGGA,114707.600,2500.8212208,N,12132.4578691,E,2,67,0.44,17.155,M,15.25,M,48,3335*7B
$GNRMC,114707.600,A,2500.8212208,N,12132.4578691,E,0.00,333.82,260623,,,D,V*00
$GPHDT,4.060,T*37
$GNACCURACY,2.3*17
$GNGGA,114707.700,2500.8212148,N,12132.4578691,E,2,67,0.44,17.144,M,15.25,M,48,3335*7D
$GNRMC,114707.700,A,2500.8212148,N,12132.4578691,E,0.01,333.82,260623,,,D,V*07
$GPHDT,,T*1B
$GNACCURACY,2.3*17
$GNGGA,114707.800,2500.8212088,N,12132.4578691,E,2,67,0.44,17.131,M,15.25,M,48,3335*7D
$GNRMC,114707.800,A,2500.8212088,N,12132.4578691,E,0.00,333.82,260623,,,D,V*04
$GPHDT,3.699,T*30
$GNACCURACY,2.3*17
$GNGGA,114707.900,2500.8212028,N,12132.4578691,E,2,66,0.45,17.121,M,15.25,M,48,3335*77
$GNRMC,114707.900,A,2500.8212028,N,12132.4578691,E,0.00,333.82,260623,,,D,V*0F
$GPHDT,,T*1B
$GNACCURACY,2.3*17
$GNGGA,114708.000,2500.8212028,N,12132.4578691,E,2,66,0.45,17.106,M,15.25,M,49,3335*75
$GNRMC,114708.000,A,2500.8212028,N,12132.4578691,E,0.00,333.82,260623,,,D,V*09
$GPHDT,3.562,T*37
$GNACCURACY,2.3*17
$GNGGA,114708.100,2500.8211968,N,12132.4578691,E,2,66,0.45,17.093,M,15.25,M,49,3335*77
$GNRMC,114708.100,A,2500.8211968,N,12132.4578691,E,0.00,333.82,260623,,,D,V*06
$GPHDT,,T*1B
$GNGSA,A,3,196,24,199,23,18,194,195,12,10,25,05,32,0.80,0.45,0.66,1*09
$GNGSA,A,3,73,80,85,86,71,,,,,,,,0.80,0.45,0.66,2*02
$GNGSA,A,3,13,07,08,26,30,02,15,,,,,,0.80,0.45,0.66,3*06
$GNGSA,A,3,08,38,13,39,16,06,46,19,09,36,20,35,0.80,0.45,0.66,4*05
$GNGSA,A,3,37,22,29,,,,,,,,,,0.80,0.45,0.66,4*02
$GPGSV,4,1,16,196,75,071,40,24,64,035,37,199,60,167,36,23,59,345,32,1*62
$GPGSV,4,2,16,18,53,230,42,41,38,242,42,194,34,136,39,15,32,056,27,1*57
$GPGSV,4,3,16,195,30,179,37,12,26,134,38,10,25,322,43,25,16,171,24,1*58
$GPGSV,4,4,16,05,13,125,28,32,13,277,39,13,03,063,,28,01,221,,1*6D
$GPGSV,3,1,10,196,75,071,43,24,64,035,46,199,60,167,45,23,59,345,27,8*6F
$GPGSV,3,2,10,18,53,230,47,194,34,136,47,195,30,179,33,10,25,322,34,8*6F
$GPGSV,3,3,10,25,16,171,23,32,13,277,39,8*61
$GLGSV,2,1,08,73,49,153,44,80,46,059,20,70,41,024,,85,28,236,18,1*74
$GLGSV,2,2,08,86,28,290,38,71,26,324,34,69,09,084,17,79,04,027,,1*77
$GAGSV,3,1,09,13,49,222,39,07,45,313,43,08,43,034,29,26,35,298,40,7*79
$GAGSV,3,2,09,30,32,138,42,02,27,077,23,15,15,173,24,03,07,071,,7*72
$GAGSV,3,3,09,27,06,185,,7*45
$GAGSV,2,1,07,13,49,222,44,07,45,313,41,08,43,034,30,26,35,298,45,1*75
$GAGSV,2,2,07,30,32,138,42,02,27,077,17,15,15,173,16,1*4F
$GBGSV,4,1,15,08,84,351,37,38,82,150,42,13,71,325,44,39,69,295,43,1*7F
$GBGSV,4,2,15,16,66,270,42,06,64,265,42,46,62,092,34,19,53,356,28,1*7D
$GBGSV,4,3,15,09,50,246,41,36,44,183,43,20,40,074,28,35,18,260,37,1*74
$GBGSV,4,4,15,37,17,043,29,22,16,308,36,29,13,206,21,1*4B
$GBGSV,3,1,10,38,82,150,45,39,69,295,44,46,62,092,24,19,53,356,17,4*7C
$GBGSV,3,2,10,36,44,183,42,20,40,074,28,35,18,260,36,37,17,043,24,4*78
$GBGSV,3,3,10,22,16,308,37,29,13,206,20,4*75
$GNACCURACY,2.3*17
$PAIRSAT,1,35,1,0,200,2,0,200,3,0,200,4,0,200,5,0,201,6,0,200,7,0,200,8,0,200,9,0,200,10,0,221,11,0,200,12,0,201,13,0,201,14,0,200,15,0,201,16,0,200,17,0,200,18,0,221,19,0,200,20,0,200,21,0,200,23,0,221,24,0,221,25,0,220,26,0,200,27,0,200,28,0,200,29,0,200,30,0,200,31,0,200,32,0,221,194,0,621,195,0,621,196,0,620,199,0,621*6A
$PAIRSAT,2,24,65,0,200,66,0,200,67,0,200,68,0,200,69,0,200,70,0,200,71,0,201,72,0,200,73,0,201,74,0,200,75,0,200,76,0,200,77,0,200,78,0,200,79,0,201,80,0,201,81,0,200,82,0,200,83,0,200,84,0,200,85,0,201,86,0,201,87,0,200,88,0,200*7A
$PAIRSAT,3,23,2,0,1221,3,0,1221,4,0,1200,5,0,200,7,0,1221,8,0,1221,9,0,1200,10,0,1200,11,0,1200,12,0,1200,13,0,1221,15,0,1221,19,0,1200,21,0,1200,24,0,1200,25,0,1200,26,0,1221,27,0,1200,30,0,1221,31,0,1200,33,0,1200,34,0,1200,36,0,1200*6A
$PAIRSAT,4,50,1,0,200,2,0,200,3,0,200,4,0,200,5,0,200,6,0,201,7,0,200,8,0,201,9,0,201,10,0,200,11,0,200,12,0,200,13,0,201,14,0,200,15,0,200,16,0,201,19,0,621,20,0,621,21,0,600,22,0,621,23,0,600,24,0,600,25,0,600,26,0,600,27,0,600,28,0,600,29,0,621,30,0,600,31,0,200,32,0,600,33,0,600,34,0,600,35,0,621,36,0,621,37,0,621,38,0,621,39,0,621,40,0,600,41,0,600,42,0,600,43,0,600,44,0,600,45,0,600,46,0,621,56,0,200,57,0,200,58,0,200,59,0,600,60,0,600,61,0,600*41
$PAIRDGP,10,5,10,12,15,18,23,24,25,28,32*45
$GNGGA,114708.200,2500.8211908,N,12132.4578691,E,2,65,0.45,17.085,M,15.25,M,49,3335*76
$GNRMC,114708.200,A,2500.8211908,N,12132.4578691,E,0.00,333.82,260623,,,D,V*03
$GPHDT,3.418,T*3B
$GNACCURACY,2.3*17
$GNGGA,114708.300,2500.8211848,N,12132.4578691,E,2,65,0.45,17.070,M,15.25,M,49,3335*78
$GNRMC,114708.300,A,2500.8211848,N,12132.4578691,E,0.00,333.82,260623,,,D,V*07
$GPHDT,,T*1B
$GNACCURACY,2.3*17
$GNGGA,114708.400,2500.8211788,N,12132.4578691,E,2,66,0.44,17.058,M,15.25,M,49,3335*74
$GNRMC,114708.400,A,2500.8211788,N,12132.4578691,E,0.00,333.82,260623,,,D,V*03
$GPHDT,3.864,T*3C
$GNACCURACY,2.3*17
$GNGGA,114708.500,2500.8211728,N,12132.4578751,E,2,66,0.44,17.046,M,15.25,M,49,3335*7D
$GNRMC,114708.500,A,2500.8211728,N,12132.4578751,E,0.00,333.82,260623,,,D,V*05
$GPHDT,,T*1B
$GNACCURACY,2.3*17
$GNGGA,114708.600,2500.8211668,N,12132.4578751,E,2,66,0.44,17.034,M,15.25,M,49,3335*7E
$GNRMC,114708.600,A,2500.8211668,N,12132.4578751,E,0.01,333.82,260623,,,D,V*02
$GPHDT,3.747,T*32
$GNACCURACY,2.3*17
$GNGGA,114708.700,2500.8211608,N,12132.4578751,E,2,66,0.44,17.024,M,15.25,M,49,3335*78
$GNRMC,114708.700,A,2500.8211608,N,12132.4578751,E,0.01,333.82,260623,,,D,V*05
$GPHDT,,T*1B
$GNACCURACY,2.3*17
$GNGGA,114708.800,2500.8211548,N,12132.4578751,E,2,64,0.45,17.010,M,15.25,M,49,3335*74
$GNRMC,114708.800,A,2500.8211548,N,12132.4578751,E,0.01,333.82,260623,,,D,V*0D
$GPHDT,3.346,T*37
$GNACCURACY,2.3*17
$GNGGA,114708.900,2500.8211488,N,12132.4578751,E,2,66,0.44,16.997,M,15.25,M,49,3335*7C
$GNRMC,114708.900,A,2500.8211488,N,12132.4578751,E,0.00,333.82,260623,,,D,V*00
$GPHDT,,T*1B
$GNACCURACY,2.3*17
$GNGGA,114709.000,2500.8211428,N,12132.4578751,E,2,65,0.44,16.985,M,15.25,M,50,3335*76
$GNRMC,114709.000,A,2500.8211428,N,12132.4578751,E,0.00,333.82,260623,,,D,V*02
$PAIR010,0,1,2268,128847*34
$GPHDT,3.484,T*3E
$GNACCURACY,2.3*17
$GNGGA,114709.100,2500.8211308,N,12132.4578751,E,2,65,0.44,16.970,M,15.25,M,50,3335*78
$GNRMC,114709.100,A,2500.8211308,N,12132.4578751,E,0.01,333.82,260623,,,D,V*07
$GPHDT,,T*1B
$GNGSA,A,3,196,24,199,23,18,194,15,195,12,10,25,05,0.78,0.44,0.65,1*09
$GNGSA,A,3,32,,,,,,,,,,,,0.78,0.44,0.65,1*0C
$GNGSA,A,3,73,80,85,86,71,,,,,,,,0.78,0.44,0.65,2*07
$GNGSA,A,3,13,07,08,26,30,02,15,,,,,,0.78,0.44,0.65,3*03
$GNGSA,A,3,08,38,13,39,16,06,46,19,09,36,20,35,0.78,0.44,0.65,4*00
$GNGSA,A,3,37,22,29,,,,,,,,,,0.78,0.44,0.65,4*07
$GPGSV,4,1,16,196,75,071,40,24,64,035,36,199,60,167,36,23,59,345,32,1*63
$GPGSV,4,2,16,18,53,230,42,41,38,242,42,194,34,136,38,15,32,056,24,1*55
$GPGSV,4,3,16,195,30,179,37,12,26,134,39,10,25,322,43,25,16,171,25,1*58
$GPGSV,4,4,16,05,13,125,28,32,13,277,39,13,03,063,,28,01,221,,1*6D
$GPGSV,3,1,10,196,75,071,43,24,64,035,46,199,60,167,45,23,59,345,27,8*6F
$GPGSV,3,2,10,18,53,230,47,194,34,136,47,195,30,179,34,10,25,322,35,8*69
$GPGSV,3,3,10,25,16,171,22,32,13,277,39,8*60
$GLGSV,2,1,08,73,49,153,44,80,46,059,18,70,41,024,,85,28,236,18,1*7F
$GLGSV,2,2,08,86,28,290,38,71,26,324,35,69,09,084,15,79,04,027,,1*74
$GAGSV,3,1,09,13,49,222,39,07,45,313,43,08,43,034,30,26,35,298,40,7*71
$GAGSV,3,2,09,30,32,138,42,02,27,077,22,15,15,173,23,03,07,071,,7*74
$GAGSV,3,3,09,27,06,185,,7*45
$GAGSV,2,1,06,13,49,222,44,07,45,313,41,08,43,034,30,26,35,298,45,1*74
$GAGSV,2,2,06,30,32,138,42,15,15,173,16,1*7F
$GBGSV,4,1,15,08,84,351,37,38,82,150,42,13,71,325,44,39,69,295,43,1*7F
$GBGSV,4,2,15,16,66,270,42,06,64,265,42,46,62,092,35,19,53,356,28,1*7C
$GBGSV,4,3,15,09,50,246,41,36,44,183,43,20,40,074,28,35,18,260,37,1*74
$GBGSV,4,4,15,37,17,043,29,22,16,308,36,29,13,206,21,1*4B
$GBGSV,3,1,10,38,82,150,45,39,69,295,44,46,62,092,20,19,53,356,18,4*77
$GBGSV,3,2,10,36,44,183,42,20,40,074,23,35,18,260,36,37,17,043,23,4*74
$GBGSV,3,3,10,22,16,308,37,29,13,206,18,4*7E
$GNACCURACY,2.3*17
$PAIRSAT,1,35,1,0,200,2,0,200,3,0,200,4,0,200,5,0,201,6,0,200,7,0,200,8,0,200,9,0,200,10,0,221,11,0,200,12,0,201,13,0,201,14,0,200,15,0,201,16,0,200,17,0,200,18,0,221,19,0,200,20,0,200,21,0,200,23,0,221,24,0,221,25,0,220,26,0,200,27,0,200,28,0,200,29,0,200,30,0,200,31,0,200,32,0,221,194,0,621,195,0,621,196,0,620,199,0,621*6A
$PAIRSAT,2,24,65,0,200,66,0,200,67,0,200,68,0,200,69,0,200,70,0,200,71,0,201,72,0,200,73,0,201,74,0,200,75,0,200,76,0,200,77,0,200,78,0,200,79,0,201,80,0,201,81,0,200,82,0,200,83,0,200,84,0,200,85,0,201,86,0,201,87,0,200,88,0,200*7A
$PAIRSAT,3,23,2,0,1221,3,0,1221,4,0,1200,5,0,200,7,0,1221,8,0,1221,9,0,1200,10,0,1200,11,0,1200,12,0,1200,13,0,1221,15,0,1221,19,0,1200,21,0,1200,24,0,1200,25,0,1200,26,0,1221,27,0,1200,30,0,1221,31,0,1200,33,0,1200,34,0,1200,36,0,1200*6A
$PAIRSAT,4,50,1,0,200,2,0,200,3,0,200,4,0,200,5,0,200,6,0,201,7,0,200,8,0,201,9,0,201,10,0,200,11,0,200,12,0,200,13,0,201,14,0,200,15,0,200,16,0,201,19,0,621,20,0,621,21,0,600,22,0,621,23,0,600,24,0,600,25,0,600,26,0,600,27,0,600,28,0,600,29,0,621,30,0,600,31,0,200,32,0,600,33,0,600,34,0,600,35,0,621,36,0,621,37,0,621,38,0,621,39,0,621,40,0,600,41,0,600,42,0,600,43,0,600,44,0,600,45,0,600,46,0,621,56,0,200,57,0,200,58,0,200,59,0,600,60,0,600,61,0,600*41
$PAIRDGP,10,5,10,12,15,18,23,24,25,28,32*45
$GNGGA,114709.200,2500.8211248,N,12132.4578811,E,2,65,0.44,16.958,M,15.25,M,50,3335*7F
$GNRMC,114709.200,A,2500.8211248,N,12132.4578811,E,0.01,333.82,260623,,,D,V*0A
$GPHDT,3.373,T*31
$GNACCURACY,2.3*17
$GNGGA,114709.300,2500.8211128,N,12132.4578751,E,2,65,0.44,16.945,M,15.25,M,50,3335*7C
$GNRMC,114709.300,A,2500.8211128,N,12132.4578751,E,0.01,333.82,260623,,,D,V*05
$GPHDT,,T*1B
$GNACCURACY,2.3*17
$GNGGA,114709.400,2500.8211068,N,12132.4578751,E,2,65,0.44,16.935,M,15.25,M,50,3335*79
$GNRMC,114709.400,A,2500.8211068,N,12132.4578751,E,0.01,333.82,260623,,,D,V*07
$GPHDT,3.354,T*34
$GNACCURACY,2.3*17
$GNGGA,114709.500,2500.8211008,N,12132.4578691,E,2,65,0.44,16.921,M,15.25,M,50,3335*76
$GNRMC,114709.500,A,2500.8211008,N,12132.4578691,E,0.01,333.82,260623,,,D,V*0D
$GPHDT,,T*1B
$GNACCURACY,2.3*17
$GNGGA,114709.600,2500.8210948,N,12132.4578691,E,2,65,0.44,16.915,M,15.25,M,50,3335*7E
$GNRMC,114709.600,A,2500.8210948,N,12132.4578691,E,0.01,333.82,260623,,,D,V*02
$GPHDT,3.565,T*30
$GNACCURACY,2.3*17
$GNGGA,114709.700,2500.8210888,N,12132.4578631,E,2,64,0.45,16.907,M,15.25,M,50,3335*7B
$GNRMC,114709.700,A,2500.8210888,N,12132.4578631,E,0.01,333.82,260623,,,D,V*04
$GPHDT,,T*1B
$GNACCURACY,2.3*17
$GNGGA,114709.800,2500.8210828,N,12132.4578571,E,2,63,0.45,16.899,M,15.25,M,50,3335*78
$GNRMC,114709.800,A,2500.8210828,N,12132.4578571,E,0.01,333.82,260623,,,D,V*06
$GPHDT,3.325,T*32
$GNACCURACY,2.3*17
$GNGGA,114709.900,2500.8210768,N,12132.4578511,E,2,63,0.45,16.896,M,15.25,M,50,3335*7B
$GNRMC,114709.900,A,2500.8210768,N,12132.4578511,E,0.01,333.82,260623,,,D,V*0A
$GPHDT,,T*1B
$GNACCURACY,2.3*17
$GNGGA,114710.000,2500.8210708,N,12132.4578451,E,2,63,0.45,16.891,M,15.25,M,51,3335*7F
$GNRMC,114710.000,A,2500.8210708,N,12132.4578451,E,0.01,333.82,260623,,,D,V*08
$GPHDT,3.909,T*36
$GNACCURACY,2.3*17
$GNGGA,114710.100,2500.8210708,N,12132.4578391,E,2,64,0.44,16.892,M,15.25,M,51,3335*70
$GNRMC,114710.100,A,2500.8210708,N,12132.4578391,E,0.01,333.82,260623,,,D,V*02
$GPHDT,,T*1B
$GNGSA,A,3,196,24,199,23,18,194,15,195,12,10,25,05,0.78,0.44,0.65,1*09
$GNGSA,A,3,32,,,,,,,,,,,,0.78,0.44,0.65,1*0C
$GNGSA,A,3,73,80,86,85,71,,,,,,,,0.78,0.44,0.65,2*07
$GNGSA,A,3,13,07,08,26,30,02,15,,,,,,0.78,0.44,0.65,3*03
$GNGSA,A,3,08,38,13,39,16,06,46,19,09,36,20,35,0.78,0.44,0.65,4*00
$GNGSA,A,3,37,22,29,,,,,,,,,,0.78,0.44,0.65,4*07
$GPGSV,4,1,16,196,75,071,40,24,64,035,36,199,60,167,36,23,59,345,32,1*63
$GPGSV,4,2,16,18,53,230,42,41,38,242,41,194,34,136,40,15,32,056,26,1*5B
$GPGSV,4,3,16,195,30,179,37,12,26,134,40,10,25,322,43,25,16,171,25,1*56
$GPGSV,4,4,16,05,13,125,29,32,13,277,39,13,03,063,,28,01,221,,1*6C
$GPGSV,3,1,10,196,75,071,43,24,64,035,46,199,60,167,45,23,59,345,25,8*6D
$GPGSV,3,2,10,18,53,230,47,194,34,136,46,195,30,179,34,10,25,322,34,8*69
$GPGSV,3,3,10,25,16,171,22,32,13,277,39,8*60
$GLGSV,2,1,07,73,49,153,44,80,46,059,18,86,28,290,38,85,28,236,15,1*7D
$GLGSV,2,2,07,71,26,324,35,69,09,084,15,79,04,027,,1*4F
$GAGSV,3,1,09,13,49,222,39,07,45,313,43,08,43,034,31,26,35,298,40,7*70
$GAGSV,3,2,09,30,32,138,42,02,27,077,22,15,15,173,23,03,07,071,,7*74
$GAGSV,3,3,09,27,06,185,,7*45
$GAGSV,2,1,06,13,49,222,44,07,45,313,41,08,43,034,30,26,35,298,45,1*74
$GAGSV,2,2,06,30,32,138,42,15,15,173,14,1*7D
$GBGSV,4,1,15,08,84,351,37,38,82,150,42,13,71,325,44,39,69,295,43,1*7F
$GBGSV,4,2,15,16,66,270,42,06,64,265,42,46,62,092,33,19,53,356,28,1*7A
$GBGSV,4,3,15,09,50,246,41,36,44,183,43,20,40,074,30,35,18,260,37,1*7D
$GBGSV,4,4,15,37,17,043,28,22,16,308,37,29,13,206,22,1*48
$GBGSV,3,1,09,38,82,150,45,39,69,295,44,19,53,356,19,36,44,183,42,4*78
$GBGSV,3,2,09,20,40,074,21,35,18,260,35,37,17,043,23,22,16,308,37,4*7C
$GBGSV,3,3,09,29,13,206,17,4*41
$GNACCURACY,2.3*17
$PAIRSAT,1,35,1,0,200,2,0,200,3,0,200,4,0,200,5,0,201,6,0,200,7,0,200,8,0,200,9,0,200,10,0,221,11,0,200,12,0,201,13,0,201,14,0,200,15,0,201,16,0,200,17,0,200,18,0,221,19,0,200,20,0,200,21,0,200,23,0,221,24,0,221,25,0,220,26,0,200,27,0,200,28,0,200,29,0,200,30,0,200,31,0,200,32,0,221,194,0,621,195,0,621,196,0,620,199,0,621*6A
$PAIRSAT,2,24,65,0,200,66,0,200,67,0,200,68,0,200,69,0,200,70,0,200,71,0,201,72,0,200,73,0,201,74,0,200,75,0,200,76,0,200,77,0,200,78,0,200,79,0,201,80,0,201,81,0,200,82,0,200,83,0,200,84,0,200,85,0,201,86,0,201,87,0,200,88,0,200*7A
$PAIRSAT,3,23,2,0,1221,3,0,1221,4,0,1200,5,0,200,7,0,1221,8,0,1221,9,0,1200,10,0,1200,11,0,1200,12,0,1200,13,0,1221,15,0,1221,19,0,1200,21,0,1200,24,0,1200,25,0,1200,26,0,1221,27,0,1200,30,0,1221,31,0,1200,33,0,1200,34,0,1200,36,0,1200*6A
$PAIRSAT,4,50,1,0,200,2,0,200,3,0,200,4,0,200,5,0,200,6,0,201,7,0,200,8,0,201,9,0,201,10,0,200,11,0,200,12,0,200,13,0,201,14,0,200,15,0,200,16,0,201,19,0,621,20,0,621,21,0,600,22,0,621,23,0,600,24,0,600,25,0,600,26,0,600,27,0,600,28,0,600,29,0,621,30,0,600,31,0,200,32,0,600,33,0,600,34,0,600,35,0,621,36,0,621,37,0,621,38,0,621,39,0,621,40,0,600,41,0,600,42,0,600,43,0,600,44,0,600,45,0,600,46,0,621,56,0,200,57,0,200,58,0,200,59,0,600,60,0,600,61,0,600*41
$PAIRDGP,10,5,10,12,15,18,23,24,25,28,32*45
$GNGGA,114710.200,2500.8210648,N,12132.4578331,E,2,64,0.44,16.891,M,15.25,M,51,3335*7F
$GNRMC,114710.200,A,2500.8210648,N,12132.4578331,E,0.01,333.82,260623,,,D,V*0E
$GPHDT,4.238,T*38
$GNACCURACY,2.3*17
$GNGGA,114710.300,2500.8210588,N,12132.4578271,E,2,64,0.44,16.881,M,15.25,M,51,3335*75
$GNRMC,114710.300,A,2500.8210588,N,12132.4578271,E,0.01,333.82,260623,,,D,V*05
$GPHDT,,T*1B
$GNACCURACY,2.3*17
$GNGGA,114710.400,2500.8210528,N,12132.4578211,E,2,64,0.44,16.877,M,15.25,M,51,3335*77
$GNRMC,114710.400,A,2500.8210528,N,12132.4578211,E,0.01,333.82,260623,,,D,V*0E
$GPHDT,4.484,T*39
$GNACCURACY,2.3*17
$GNGGA,114710.500,2500.8210468,N,12132.4578211,E,2,64,0.44,16.871,M,15.25,M,51,3335*75
$GNRMC,114710.500,A,2500.8210468,N,12132.4578211,E,0.01,333.82,260623,,,D,V*0A
$GPHDT,,T*1B
$GNACCURACY,2.3*17
$GNGGA,114710.600,2500.8210348,N,12132.4578151,E,2,64,0.44,16.859,M,15.25,M,51,3335*7E
$GNRMC,114710.600,A,2500.8210348,N,12132.4578151,E,0.01,333.82,260623,,,D,V*0B
$GPHDT,4.409,T*3C
$GNACCURACY,2.3*17
$GNGGA,114710.700,2500.8210288,N,12132.4578091,E,2,64,0.44,16.852,M,15.25,M,51,3335*74
$GNRMC,114710.700,A,2500.8210288,N,12132.4578091,E,0.01,333.82,260623,,,D,V*0A
$GPHDT,,T*1B
$GNACCURACY,2.3*17
$GNGGA,114710.800,2500.8210228,N,12132.4578091,E,2,64,0.44,16.839,M,15.25,M,51,3335*7C
$GNRMC,114710.800,A,2500.8210228,N,12132.4578091,E,0.01,333.82,260623,,,D,V*0F
$GPHDT,4.458,T*38
$GNACCURACY,2.3*17
$GNGGA,114710.900,2500.8210168,N,12132.4578031,E,2,64,0.44,16.829,M,15.25,M,51,3335*71
$