$FW : RTK35X,V1.1X0314AS,Lib20210517,1*54
$Tool : LOCOSYS , GNSS Firebird , v1.0.0.19*39
$---------------------------------------------------*2D
$GNGSA,A,3,196,24,199,23,18,194,15,195,12,10,25,32,0.81,0.45,0.68,1*07
$GNGSA,A,3,73,80,86,85,71,,,,,,,,0.81,0.45,0.68,2*0D
$GNGSA,A,3,13,07,08,26,30,02,15,,,,,,0.81,0.45,0.68,3*09
$GNGSA,A,3,08,38,13,39,16,06,46,19,09,36,20,35,0.81,0.45,0.68,4*0A
$GNGSA,A,3,22,37,29,,,,,,,,,,0.81,0.45,0.68,4*0D
$GPGSV,4,1,16,196,75,072,41,24,63,035,36,199,60,167,38,23,60,345,33,1*63
$GPGSV,4,2,16,18,52,229,43,41,38,242,38,194,34,136,39,15,32,057,29,1*5D
$GPGSV,4,3,16,195,30,179,31,12,27,133,40,10,26,323,42,25,16,171,25,1*55
$GPGSV,4,4,16,32,14,278,41,05,12,126,17,13,03,064,,28,02,221,,1*60
$GPGSV,3,1,10,196,75,072,43,24,63,035,46,23,60,345,33,199,60,167,47,8*66
$GPGSV,3,2,10,18,52,229,46,194,34,136,43,195,30,179,33,10,26,323,25,8*61
$GPGSV,3,3,10,25,16,171,23,32,14,278,40,8*67
$GLGSV,2,1,07,73,50,153,44,80,46,059,33,86,28,289,45,85,27,235,27,1*73
$GLGSV,2,2,07,71,26,325,27,69,09,084,19,79,03,027,17,1*40
$GAGSV,2,1,08,13,49,222,40,07,46,314,43,08,43,034,34,26,35,298,42,7*7D
$GAGSV,2,2,08,30,32,137,43,02,27,076,21,15,15,173,21,03,07,071,,7*7A
$GAGSV,2,1,07,13,49,222,41,07,46,314,41,08,43,034,32,26,35,298,44,1*77
$GAGSV,2,2,07,30,32,137,41,02,27,076,24,15,15,173,23,1*44
$GBGSV,4,1,15,08,84,350,39,38,81,152,44,13,72,324,43,39,69,296,43,1*71
$GBGSV,4,2,15,16,66,271,41,06,64,266,41,46,62,091,36,19,53,357,24,1*73
$GBGSV,4,3,15,09,50,247,38,36,44,183,43,20,40,075,33,35,18,260,42,1*72
$GBGSV,4,4,15,22,16,308,36,37,16,042,28,29,13,205,26,1*4E
$GBGSV,3,1,09,38,81,152,44,39,69,296,45,46,62,091,25,19,53,357,21,4*70
$GBGSV,3,2,09,36,44,183,44,20,40,075,31,35,18,260,39,22,16,308,32,4*7E
$GBGSV,3,3,09,37,16,042,25,4*48
$GNACCURACY,2.4*10
$PAIRSAT,1,35,1,0,200,2,0,200,3,0,200,4,0,200,5,0,201,6,0,200,7,0,200,8,0,200,9,0,200,10,0,221,11,0,200,12,0,201,13,0,201,14,0,200,15,0,201,16,0,200,17,0,200,18,0,221,19,0,200,20,0,200,21,0,200,23,0,221,24,0,221,25,0,220,26,0,200,27,0,200,28,0,200,29,0,200,30,0,200,31,0,200,32,0,221,194,0,621,195,0,621,196,0,620,199,0,621*6A
$PAIRSAT,2,24,65,0,200,66,0,200,67,0,200,68,0,200,69,0,200,70,0,200,71,0,201,72,0,200,73,0,201,74,0,200,75,0,200,76,0,200,77,0,200,78,0,200,79,0,201,80,0,201,81,0,200,82,0,200,83,0,200,84,0,200,85,0,201,86,0,201,87,0,200,88,0,200*7A
$PAIRSAT,3,23,2,0,1221,3,0,1221,4,0,1200,5,0,200,7,0,1221,8,0,1221,9,0,1200,10,0,1200,11,0,1200,12,0,1200,13,0,1221,15,0,1221,19,0,1200,21,0,1200,24,0,1200,25,0,1200,26,0,1221,27,0,1200,30,0,1221,31,0,1200,33,0,1200,34,0,1200,36,0,1200*6A
$PAIRSAT,4,50,1,0,200,2,0,200,3,0,200,4,0,200,5,0,200,6,0,201,7,0,200,8,0,201,9,0,201,10,0,200,11,0,200,12,0,200,13,0,201,14,0,200,15,0,200,16,0,201,19,0,621,20,0,621,21,0,600,22,0,621,23,0,600,24,0,600,25,0,600,26,0,600,27,0,600,28,0,600,29,0,621,30,0,600,31,0,200,32,0,600,33,0,600,34,0,600,35,0,621,36,0,621,37,0,621,38,0,621,39,0,621,40,0,600,41,0,600,42,0,600,43,0,600,44,0,600,45,0,600,46,0,621,56,0,200,57,0,200,58,0,200,59,0,600,60,0,600,61,0,600*41
$PAIRDGP,10,5,10,12,15,18,23,24,25,28,32*45
$GNGGA,114816.200,2500.8225648,N,12132.4609970,E,2,65,0.45,16.947,M,15.25,M,1,3335*45
$GNRMC,114816.200,A,2500.8225648,N,12132.4609970,E,0.01,333.82,260623,,,D,V*0B
$GPHDT,,T*1B
$GNACCURACY,2.4*10
$GNGGA,114816.300,2500.8225708,N,12132.4610030,E,2,65,0.45,16.946,M,15.25,M,1,3335*45
$GNRMC,114816.300,A,2500.8225708,N,12132.4610030,E,0.01,333.82,260623,,,D,V*0A
$GPHDT,,T*1B
$GNACCURACY,2.4*10
$GNGGA,114816.400,2500.8225708,N,12132.4610030,E,2,65,0.45,16.947,M,15.25,M,1,3335*43
$GNRMC,114816.400,A,2500.8225708,N,12132.4610030,E,0.01,333.82,260623,,,D,V*0D
$GPHDT,,T*1B
$GNACCURACY,2.4*10
$GNGGA,114816.500,2500.8225768,N,12132.4610030,E,2,65,0.45,16.950,M,15.25,M,1,3335*42
$GNRMC,114816.500,A,2500.8225768,N,12132.4610030,E,0.01,333.82,260623,,,D,V*0A
$GPHDT,,T*1B
$GNACCURACY,2.4*10
$GNGGA,114816.600,2500.8225828,N,12132.4610030,E,2,65,0.45,16.953,M,15.25,M,0,3335*48
$GNRMC,114816.600,A,2500.8225828,N,12132.4610030,E,0.01,333.82,260623,,,D,V*02
$GPHDT,,T*1B
$GNACCURACY,2.4*10
$GNGGA,114816.700,2500.8225828,N,12132.4610090,E,2,65,0.45,16.954,M,15.25,M,0,3335*44
$GNRMC,114816.700,A,2500.8225828,N,12132.4610090,E,0.01,333.82,260623,,,D,V*09
$GPHDT,,T*1B
$GNACCURACY,2.4*10
$GNGGA,114816.800,2500.8225888,N,12132.4610090,E,2,65,0.45,16.958,M,15.25,M,0,3335*4D
$GNRMC,114816.800,A,2500.8225888,N,12132.4610090,E,0.01,333.82,260623,,,D,V*0C
$GPHDT,,T*1B
$GNACCURACY,2.4*10
$GNGGA,114816.900,2500.8225948,N,12132.4610150,E,2,65,0.45,16.959,M,15.25,M,0,3335*4D
$GNRMC,114816.900,A,2500.8225948,N,12132.4610150,E,0.01,333.82,260623,,,D,V*0D
$GPHDT,,T*1B
$GNACCURACY,2.4*10
$GNGGA,114817.000,2500.8226008,N,12132.4610150,E,2,65,0.45,16.963,M,15.25,M,1,3335*43
$GNRMC,114817.000,A,2500.8226008,N,12132.4610150,E,0.01,333.82,260623,,,D,V*0B
$GPHDT,,T*1B
$GNACCURACY,2.4*10
$GNGGA,114817.100,2500.8226068,N,12132.4610210,E,2,65,0.45,16.966,M,15.25,M,1,3335*46
$GNRMC,114817.100,A,2500.8226068,N,12132.4610210,E,0.01,333.82,260623,,,D,V*0B
$GPHDT,,T*1B
$GNGSA,A,3,196,24,199,23,18,194,15,195,12,10,25,32,0.81,0.45,0.68,1*07
$GNGSA,A,3,73,80,86,85,71,,,,,,,,0.81,0.45,0.68,2*0D
$GNGSA,A,3,13,07,08,26,30,02,15,,,,,,0.81,0.45,0.68,3*09
$GNGSA,A,3,08,38,13,39,16,06,46,19,09,36,20,35,0.81,0.45,0.68,4*0A
$GNGSA,A,3,22,37,29,,,,,,,,,,0.81,0.45,0.68,4*0D
$GPGSV,4,1,16,196,75,072,41,24,63,035,36,199,60,167,38,23,60,345,33,1*63
$GPGSV,4,2,16,18,52,229,43,41,38,242,42,194,34,136,39,15,32,057,28,1*51
$GPGSV,4,3,16,195,30,179,32,12,27,133,39,10,26,323,42,25,16,171,23,1*5E
$GPGSV,4,4,16,32,14,278,41,05,12,126,17,13,03,064,,28,02,221,,1*60
$GPGSV,3,1,10,196,75,072,43,24,63,035,46,23,60,345,33,199,60,167,46,8*67
$GPGSV,3,2,10,18,52,229,46,194,34,136,43,195,30,179,32,10,26,323,27,8*62
$GPGSV,3,3,10,25,16,171,22,32,14,278,40,8*66
$GLGSV,2,1,07,73,50,153,44,80,46,059,33,86,28,289,45,85,27,235,29,1*7D
$GLGSV,2,2,07,71,26,325,26,69,09,084,20,79,03,027,17,1*4B
$GAGSV,2,1,08,13,49,222,40,07,46,314,43,08,43,034,34,26,35,298,42,7*7D
$GAGSV,2,2,08,30,32,137,43,02,27,076,21,15,15,173,22,03,07,071,,7*79
$GAGSV,2,1,07,13,49,222,42,07,46,314,41,08,43,034,31,26,35,298,44,1*77
$GAGSV,2,2,07,30,32,137,41,02,27,076,24,15,15,173,22,1*45
$GBGSV,4,1,15,08,84,350,39,38,81,152,44,13,72,324,43,39,69,296,43,1*71
$GBGSV,4,2,15,16,66,271,41,06,64,266,42,46,62,091,36,19,53,357,24,1*70
$GBGSV,4,3,15,09,50,247,40,36,44,183,43,20,40,075,33,35,18,260,40,1*7F
$GBGSV,4,4,15,22,16,308,36,37,16,042,28,29,13,205,25,1*4D
$GBGSV,3,1,09,38,81,152,44,39,69,296,45,46,62,091,21,19,53,357,20,4*75
$GBGSV,3,2,09,36,44,183,44,20,40,075,31,35,18,260,37,22,16,308,32,4*70
$GBGSV,3,3,09,37,16,042,24,4*49
$GNACCURACY,2.4*10
$PAIRSAT,1,35,1,0,200,2,0,200,3,0,200,4,0,200,5,0,201,6,0,200,7,0,200,8,0,200,9,0,200,10,0,221,11,0,200,12,0,201,13,0,201,14,0,200,15,0,201,16,0,200,17,0,200,18,0,221,19,0,200,20,0,200,21,0,200,23,0,221,24,0,221,25,0,220,26,0,200,27,0,200,28,0,200,29,0,200,30,0,200,31,0,200,32,0,221,194,0,621,195,0,621,196,0,620,199,0,621*6A
$PAIRSAT,2,24,65,0,200,66,0,200,67,0,200,68,0,200,69,0,200,70,0,200,71,0,201,72,0,200,73,0,201,74,0,200,75,0,200,76,0,200,77,0,200,78,0,200,79,0,201,80,0,201,81,0,200,82,0,200,83,0,200,84,0,200,85,0,201,86,0,201,87,0,200,88,0,200*7A
$PAIRSAT,3,23,2,0,1221,3,0,1221,4,0,1200,5,0,200,7,0,1221,8,0,1221,9,0,1200,10,0,1200,11,0,1200,12,0,1200,13,0,1221,15,0,1221,19,0,1200,21,0,1200,24,0,1200,25,0,1200,26,0,1221,27,0,1200,30,0,1221,31,0,1200,33,0,1200,34,0,1200,36,0,1200*6A
$PAIRSAT,4,50,1,0,200,2,0,200,3,0,200,4,0,200,5,0,200,6,0,201,7,0,200,8,0,201,9,0,201,10,0,200,11,0,200,12,0,200,13,0,201,14,0,200,15,0,200,16,0,201,19,0,621,20,0,621,21,0,600,22,0,621,23,0,600,24,0,600,25,0,600,26,0,600,27,0,600,28,0,600,29,0,621,30,0,600,31,0,200,32,0,600,33,0,600,34,0,600,35,0,621,36,0,621,37,0,621,38,0,621,39,0,621,40,0,600,41,0,600,42,0,600,43,0,600,44,0,600,45,0,600,46,0,621,56,0,200,57,0,200,58,0,200,59,0,600,60,0,600,61,0,600*41
$PAIRDGP,10,5,10,12,15,18,23,24,25,28,32*45
$GNGGA,114817.200,2500.8226128,N,12132.4610210,E,2,65,0.45,16.965,M,15.25,M,1,3335*43
$GNRMC,114817.200,A,2500.8226128,N,12132.4610210,E,0.01,333.82,260623,,,D,V*0D
$GPHDT,,T*1B
$GNACCURACY,2.3*17
$GNGGA,114817.300,2500.8226128,N,12132.4610210,E,2,65,0.45,16.969,M,15.25,M,1,3335*4E
$GNRMC,114817.300,A,2500.8226128,N,12132.4610210,E,0.01,333.82,260623,,,D,V*0C
$GPHDT,,T*1B
$GNACCURACY,2.3*17
$GNGGA,114817.400,2500.8226188,N,12132.4610210,E,2,65,0.45,16.974,M,15.25,M,1,3335*4F
$GNRMC,114817.400,A,2500.8226188,N,12132.4610210,E,0.00,333.82,260623,,,D,V*00
$GPHDT,,T*1B
$GNACCURACY,2.3*17
$GNGGA,114817.500,2500.8226188,N,12132.4610210,E,2,65,0.45,16.981,M,15.25,M,1,3335*44
$GNRMC,114817.500,A,2500.8226188,N,12132.4610210,E,0.00,333.82,260623,,,D,V*01
$GPHDT,,T*1B
$GNACCURACY,2.3*17
$GNGGA,114817.600,2500.8226188,N,12132.4610270,E,2,63,0.47,16.998,M,15.25,M,1,3335*4D
$GNRMC,114817.600,A,2500.8226188,N,12132.4610270,E,0.00,333.82,260623,,,D,V*04
$GPHDT,,T*1B
$GNACCURACY,2.3*17
$GNGGA,114817.700,2500.8226188,N,12132.4610330,E,2,65,0.45,17.018,M,15.25,M,1,3335*4D
$GNRMC,114817.700,A,2500.8226188,N,12132.4610330,E,0.00,333.82,260623,,,D,V*00
$GPHDT,,T*1B
$GNACCURACY,2.3*17
$GNGGA,114817.800,2500.8226188,N,12132.4610390,E,2,66,0.44,17.035,M,15.25,M,1,3335*45
$GNRMC,114817.800,A,2500.8226188,N,12132.4610390,E,0.00,333.82,260623,,,D,V*05
$GPHDT,,T*1B
$GNACCURACY,2.3*17
$GNGGA,114817.900,2500.8226128,N,12132.4610510,E,2,65,0.45,17.048,M,15.25,M,1,3335*48
$GNRMC,114817.900,A,2500.8226128,N,12132.4610510,E,0.00,333.82,260623,,,D,V*00
$GPHDT,,T*1B
$GNACCURACY,2.3*17
$GNGGA,114818.000,2500.8226128,N,12132.4610570,E,2,65,0.45,17.065,M,15.25,M,2,3335*44
$GNRMC,114818.000,A,2500.8226128,N,12132.4610570,E,0.00,333.82,260623,,,D,V*00
$GPHDT,,T*1B
$GNACCURACY,2.3*17
$GNGGA,114818.100,2500.8226068,N,12132.4610630,E,2,65,0.45,17.076,M,15.25,M,2,3335*45
$GNRMC,114818.100,A,2500.8226068,N,12132.4610630,E,0.00,333.82,260623,,,D,V*03
$GPHDT,,T*1B
$GNGSA,A,3,196,24,199,23,18,194,15,195,12,10,25,32,0.81,0.45,0.68,1*07
$GNGSA,A,3,73,80,86,85,71,,,,,,,,0.81,0.45,0.68,2*0D
$GNGSA,A,3,13,07,08,26,30,02,15,,,,,,0.81,0.45,0.68,3*09
$GNGSA,A,3,08,38,13,39,16,06,46,19,09,36,20,35,0.81,0.45,0.68,4*0A
$GNGSA,A,3,22,37,29,,,,,,,,,,0.81,0.45,0.68,4*0D
$GPGSV,4,1,16,196,75,072,41,24,63,035,36,199,60,167,38,23,60,345,33,1*63
$GPGSV,4,2,16,18,52,229,43,41,38,242,43,194,34,136,38,15,32,057,28,1*51
$GPGSV,4,3,16,195,30,179,33,12,27,133,40,10,26,323,42,25,16,171,23,1*51
$GPGSV,4,4,16,32,14,278,39,05,12,126,17,13,03,064,,28,02,221,,1*6F
$GPGSV,3,1,10,196,75,072,43,24,63,035,46,23,60,345,33,199,60,167,47,8*66
$GPGSV,3,2,10,18,52,229,46,194,34,136,43,195,30,179,32,10,26,323,22,8*67
$GPGSV,3,3,10,25,16,171,20,32,14,278,41,8*65
$GLGSV,2,1,07,73,50,153,44,80,46,059,33,86,28,289,45,85,27,235,28,1*7C
$GLGSV,2,2,07,71,26,325,28,69,09,084,20,79,03,027,16,1*44
$GAGSV,2,1,08,13,49,222,40,07,46,314,43,08,43,034,34,26,35,298,42,7*7D
$GAGSV,2,2,08,30,32,137,43,02,27,076,22,15,15,173,22,03,07,071,,7*7A
$GAGSV,2,1,07,13,49,222,42,07,46,314,41,08,43,034,32,26,35,298,44,1*74
$GAGSV,2,2,07,30,32,137,41,02,27,076,24,15,15,173,22,1*45
$GBGSV,4,1,15,08,84,350,39,38,81,152,44,13,72,324,43,39,69,296,43,1*71
$GBGSV,4,2,15,16,66,271,42,06,64,266,42,46,62,091,35,19,53,357,25,1*71
$GBGSV,4,3,15,09,50,247,40,36,44,183,43,20,40,075,32,35,18,260,41,1*7F
$GBGSV,4,4,15,22,16,308,37,37,16,042,30,29,13,205,24,1*44
$GBGSV,3,1,09,38,81,152,44,39,69,296,45,46,62,091,24,19,53,357,19,4*7A
$GBGSV,3,2,09,36,44,183,45,20,40,075,32,35,18,260,37,22,16,308,33,4*73
$GBGSV,3,3,09,37,16,042,24,4*49
$GNACCURACY,2.3*17
$PAIRSAT,1,35,1,0,200,2,0,200,3,0,200,4,0,200,5,0,201,6,0,200,7,0,200,8,0,200,9,0,200,10,0,221,11,0,200,12,0,201,13,0,201,14,0,200,15,0,201,16,0,200,17,0,200,18,0,221,19,0,200,20,0,200,21,0,200,23,0,221,24,0,221,25,0,220,26,0,200,27,0,200,28,0,200,29,0,200,30,0,200,31,0,200,32,0,221,194,0,621,195,0,621,196,0,620,199,0,621*6A
$PAIRSAT,2,24,65,0,200,66,0,200,67,0,200,68,0,200,69,0,200,70,0,200,71,0,201,72,0,200,73,0,201,74,0,200,75,0,200,76,0,200,77,0,200,78,0,200,79,0,201,80,0,201,81,0,200,82,0,200,83,0,200,84,0,200,85,0,201,86,0,201,87,0,200,88,0,200*7A
$PAIRSAT,3,23,2,0,1221,3,0,1221,4,0,1200,5,0,200,7,0,1221,8,0,1221,9,0,1200,10,0,1200,11,0,1200,12,0,1200,13,0,1221,15,0,1221,19,0,1200,21,0,1200,24,0,1200,25,0,1200,26,0,1221,27,0,1200,30,0,1221,31,0,1200,33,0,1200,34,0,1200,36,0,1200*6A
$PAIRSAT,4,50,1,0,200,2,0,200,3,0,200,4,0,200,5,0,200,6,0,201,7,0,200,8,0,201,9,0,201,10,0,200,11,0,200,12,0,200,13,0,201,14,0,200,15,0,200,16,0,201,19,0,621,20,0,621,21,0,600,22,0,621,23,0,600,24,0,600,25,0,600,26,0,600,27,0,600,28,0,600,29,0,621,30,0,600,31,0,200,32,0,600,33,0,600,34,0,600,35,0,621,36,0,621,37,0,621,38,0,621,39,0,621,40,0,600,41,0,600,42,0,600,43,0,600,44,0,600,45,0,600,46,0,621,56,0,200,57,0,200,58,0,200,59,0,600,60,0,600,61,0,600*41
$PAIRDGP,10,5,10,12,15,18,23,24,25,28,32*45
$GNGGA,114818.200,2500.8226008,N,12132.4610630,E,2,65,0.45,17.093,M,15.25,M,2,3335*4B
$GNRMC,114818.200,A,2500.8226008,N,12132.4610630,E,0.00,333.82,260623,,,D,V*06
$GPHDT,,T*1B
$GNACCURACY,2.3*17
$GNGGA,114818.300,2500.8226008,N,12132.4610690,E,2,65,0.45,17.105,M,15.25,M,2,3335*4E
$GNRMC,114818.300,A,2500.8226008,N,12132.4610690,E,0.00,333.82,260623,,,D,V*0D
$GPHDT,,T*1B
$GNACCURACY,2.3*17
$GNGGA,114818.400,2500.8226008,N,12132.4610690,E,2,66,0.44,17.106,M,15.25,M,2,3335*48
$GNRMC,114818.400,A,2500.8226008,N,12132.4610690,E,0.00,333.82,260623,,,D,V*0A
$GPHDT,,T*1B
$GNACCURACY,2.3*17
$GNGGA,114818.500,2500.8226068,N,12132.4610690,E,2,65,0.45,17.109,M,15.25,M,2,3335*42
$GNRMC,114818.500,A,2500.8226068,N,12132.4610690,E,0.00,333.82,260623,,,D,V*0D
$GPHDT,,T*1B
$GNACCURACY,2.3*17
$GNGGA,114818.600,2500.8226128,N,12132.4610630,E,2,63,0.47,17.113,M,15.25,M,2,3335*41
$GNRMC,114818.600,A,2500.8226128,N,12132.4610630,E,0.00,333.82,260623,,,D,V*01
$GPHDT,,T*1B
$GNACCURACY,2.3*17
$GNGGA,114818.700,2500.8226188,N,12132.4610630,E,2,65,0.45,17.120,M,15.25,M,2,3335*4E
$GNRMC,114818.700,A,2500.8226188,N,12132.4610630,E,0.00,333.82,260623,,,D,V*0A
$GPHDT,,T*1B
$GNACCURACY,2.3*17
$GNGGA,114818.800,2500.8226188,N,12132.4610630,E,2,65,0.45,17.125,M,15.25,M,2,3335*44
$GNRMC,114818.800,A,2500.8226188,N,12132.4610630,E,0.00,333.82,260623,,,D,V*05
$GPHDT,,T*1B
$GNACCURACY,2.3*17
$GNGGA,114818.900,2500.8226248,N,12132.4610630,E,2,65,0.45,17.131,M,15.25,M,2,3335*4F
$GNRMC,114818.900,A,2500.8226248,N,12132.4610630,E,0.00,333.82,260623,,,D,V*0B
$GPHDT,,T*1B
$GNACCURACY,2.3*17
$GNGGA,114819.000,2500.8226248,N,12132.4610630,E,2,65,0.45,17.137,M,15.25,M,3,3335*40
$GNRMC,114819.000,A,2500.8226248,N,12132.4610630,E,0.00,333.82,260623,,,D,V*03
$GPHDT,,T*1B
$GNACCURACY,2.3*17
$GNGGA,114819.100,2500.8226248,N,12132.4610630,E,2,65,0.45,17.141,M,15.25,M,3,3335*40
$GNRMC,114819.100,A,2500.8226248,N,12132.4610630,E,0.00,333.82,260623,,,D,V*02
$GPHDT,,T*1B
$GNGSA,A,3,196,24,199,23,18,194,15,195,12,10,25,32,0.78,0.44,0.65,1*0D
$GNGSA,A,3,05,,,,,,,,,,,,0.78,0.44,0.65,1*08
$GNGSA,A,3,73,80,86,85,71,,,,,,,,0.78,0.44,0.65,2*07
$GNGSA,A,3,13,07,08,26,30,02,15,,,,,,0.78,0.44,0.65,3*03
$GNGSA,A,3,08,38,13,39,16,06,46,19,09,36,20,35,0.78,0.44,0.65,4*00
$GNGSA,A,3,22,37,29,,,,,,,,,,0.78,0.44,0.65,4*07
$GPGSV,4,1,16,196,75,072,41,24,63,035,36,199,60,167,38,23,60,345,34,1*64
$GPGSV,4,2,16,18,52,229,43,41,38,242,45,194,34,136,38,15,32,057,28,1*57
$GPGSV,4,3,16,195,30,179,32,12,27,133,40,10,26,323,42,25,16,171,24,1*57
$GPGSV,4,4,16,32,14,278,40,05,12,126,17,13,03,064,,28,02,221,,1*61
$GPGSV,3,1,10,196,75,072,43,24,63,035,46,23,60,345,33,199,60,167,47,8*66
$GPGSV,3,2,10,18,52,229,46,194,34,136,43,195,30,179,31,10,26,323,24,8*62
$GPGSV,3,3,10,25,16,171,20,32,14,278,40,8*64
$GLGSV,2,1,07,73,50,153,44,80,46,059,33,86,28,289,45,85,27,235,28,1*7C
$GLGSV,2,2,07,71,26,325,26,69,09,084,23,79,03,027,16,1*49
$GAGSV,2,1,08,13,49,222,40,07,46,314,43,08,43,034,33,26,35,298,42,7*7A
$GAGSV,2,2,08,30,32,137,43,02,27,076,23,15,15,173,22,03,07,071,,7*7B
$GAGSV,2,1,07,13,49,222,42,07,46,314,41,08,43,034,32,26,35,298,43,1*73
$GAGSV,2,2,07,30,32,137,41,02,27,076,21,15,15,173,22,1*40
$GBGSV,4,1,15,08,84,350,39,38,81,152,44,13,72,324,43,39,69,296,43,1*71
$GBGSV,4,2,15,16,66,271,41,06,64,266,41,46,62,091,35,19,53,357,25,1*71
$GBGSV,4,3,15,09,50,247,41,36,44,183,43,20,40,075,33,35,18,260,41,1*7F
$GBGSV,4,4,15,22,16,308,36,37,16,042,24,29,13,205,24,1*40
$GBGSV,3,1,09,38,81,152,44,39,69,296,45,46,62,091,23,19,53,357,19,4*7D
$GBGSV,3,2,09,36,44,183,45,20,40,075,32,35,18,260,37,22,16,308,32,4*72
$GBGSV,3,3,09,37,16,042,24,4*49
$GNACCURACY,2.3*17
$PAIRSAT,1,35,1,0,200,2,0,200,3,0,200,4,0,200,5,0,201,6,0,200,7,0,200,8,0,200,9,0,200,10,0,221,11,0,200,12,0,201,13,0,201,14,0,200,15,0,201,16,0,200,17,0,200,18,0,221,19,0,200,20,0,200,21,0,200,23,0,221,24,0,221,25,0,220,26,0,200,27,0,200,28,0,200,29,0,200,30,0,200,31,0,200,32,0,221,194,0,621,195,0,621,196,0,620,199,0,621*6A
$PAIRSAT,2,24,65,0,200,66,0,200,67,0,200,68,0,200,69,0,200,70,0,200,71,0,201,72,0,200,73,0,201,74,0,200,75,0,200,76,0,200,77,0,200,78,0,200,79,0,201,80,0,201,81,0,200,82,0,200,83,0,200,84,0,200,85,0,201,86,0,201,87,0,200,88,0,200*7A
$PAIRSAT,3,23,2,0,1221,3,0,1221,4,0,1200,5,0,200,7,0,1221,8,0,1221,9,0,1200,10,0,1200,11,0,1200,12,0,1200,13,0,1221,15,0,1221,19,0,1200,21,0,1200,24,0,1200,25,0,1200,26,0,1221,27,0,1200,30,0,1221,31,0,1200,33,0,1200,34,0,1200,36,0,1200*6A
$PAIRSAT,4,50,1,0,200,2,0,200,3,0,200,4,0,200,5,0,200,6,0,201,7,0,200,8,0,201,9,0,201,10,0,200,11,0,200,12,0,200,13,0,201,14,0,200,15,0,200,16,0,201,19,0,621,20,0,621,21,0,600,22,0,621,23,0,600,24,0,600,25,0,600,26,0,600,27,0,600,28,0,600,29,0,621,30,0,600,31,0,200,32,0,600,33,0,600,34,0,600,35,0,621,36,0,621,37,0,621,38,0,621,39,0,621,40,0,600,41,0,600,42,0,600,43,0,600,44,0,600,45,0,600,46,0,621,56,0,200,57,0,200,58,0,200,59,0,600,60,0,600,61,0,600*41
$PAIRDGP,10,5,10,12,15,18,23,24,25,28,32*45
$GNGGA,114819.200,2500.8226308,N,12132.4610630,E,2,66,0.44,17.144,M,15.25,M,3,3335*41
$GNRMC,114819.200,A,2500.8226308,N,12132.4610630,E,0.00,333.82,260623,,,D,V*04
$GPHDT,,T*1B
$GNACCURACY,2.3*17
$GNGGA,114819.300,2500.8226308,N,12132.4610630,E,2,66,0.44,17.153,M,15.25,M,3,3335*46
$GNRMC,114819.300,A,2500.8226308,N,12132.4610630,E,0.00,333.82,260623,,,D,V*05
$GPHDT,,T*1B
$GNACCURACY,2.3*17
$GNGGA,114819.400,2500.8226368,N,12132.4610570,E,2,65,0.45,17.154,M,15.25,M,3,3335*45
$GNRMC,114819.400,A,2500.8226368,N,12132.4610570,E,0.00,333.82,260623,,,D,V*03
$GPHDT,,T*1B
$GNACCURACY,2.4*10
$GNGGA,114819.500,2500.8226368,N,12132.4610570,E,2,66,0.44,17.163,M,15.25,M,3,3335*42
$GNRMC,114819.500,A,2500.8226368,N,12132.4610570,E,0.00,333.82,260623,,,D,V*02
$GPHDT,,T*1B
$GNACCURACY,2.4*10
$GNGGA,114819.600,2500.8226428,N,12132.4610570,E,2,66,0.44,17.168,M,15.25,M,3,3335*49
$GNRMC,114819.600,A,2500.8226428,N,12132.4610570,E,0.00,333.82,260623,,,D,V*02
$GPHDT,,T*1B
$GNACCURACY,2.4*10
$GNGGA,114819.700,2500.8226428,N,12132.4610570,E,2,66,0.44,17.177,M,15.25,M,3,3335*46
$GNRMC,114819.700,A,2500.8226428,N,12132.4610570,E,0.00,333.82,260623,,,D,V*03
$GPHDT,,T*1B
$GNACCURACY,2.4*10
$GNGGA,114819.800,2500.8226488,N,12132.4610570,E,2,66,0.44,17.182,M,15.25,M,3,3335*49
$GNRMC,114819.800,A,2500.8226488,N,12132.4610570,E,0.00,333.82,260623,,,D,V*06
$GPHDT,,T*1B
$GNACCURACY,2.4*10
$GNGGA,114819.900,2500.8226488,N,12132.4610570,E,2,64,0.45,17.189,M,15.25,M,3,3335*40
$GNRMC,114819.900,A,2500.8226488,N,12132.4610570,E,0.00,333.82,260623,,,D,V*07
$GPHDT,,T*1B
$GNACCURACY,2.4*10
$GNGGA,114820.000,2500.8226548,N,12132.4610570,E,2,64,0.45,17.192,M,15.25,M,4,3335*43
$GNRMC,114820.000,A,2500.8226548,N,12132.4610570,E,0.00,333.82,260623,,,D,V*09
$GPHDT,,T*1B
$GNACCURACY,2.4*10
$GNGGA,114820.100,2500.8226548,N,12132.4610510,E,2,65,0.44,17.198,M,15.25,M,4,3335*4E
$GNRMC,114820.100,A,2500.8226548,N,12132.4610510,E,0.00,333.82,260623,,,D,V*0E
$GPHDT,,T*1B
$GNGSA,A,3,196,24,199,23,18,194,15,195,12,10,25,32,0.78,0.44,0.65,1*0D
$GNGSA,A,3,05,,,,,,,,,,,,0.78,0.44,0.65,1*08
$GNGSA,A,3,73,80,86,85,71,,,,,,,,0.78,0.44,0.65,2*07
$GNGSA,A,3,13,07,08,26,30,02,15,,,,,,0.78,0.44,0.65,3*03
$GNGSA,A,3,08,38,13,39,16,06,46,19,09,36,20,35,0.78,0.44,0.65,4*00
$GNGSA,A,3,22,37,29,,,,,,,,,,0.78,0.44,0.65,4*07
$GPGSV,4,1,16,196,75,072,41,24,63,035,36,199,60,167,37,23,60,345,34,1*6B
$GPGSV,4,2,16,18,52,229,43,41,38,242,45,194,34,136,38,15,32,057,28,1*57
$GPGSV,4,3,16,195,30,179,32,12,27,133,40,10,26,323,42,25,16,171,25,1*56
$GPGSV,4,4,16,32,14,278,40,05,12,126,18,13,03,064,,28,02,221,,1*6E
$GPGSV,3,1,10,196,75,072,43,24,63,035,46,23,60,345,34,199,60,167,47,8*61
$GPGSV,3,2,10,18,52,229,46,194,34,136,43,195,30,179,31,10,26,323,25,8*63
$GPGSV,3,3,10,25,16,171,22,32,14,278,40,8*66
$GLGSV,2,1,08,73,50,153,44,80,46,059,33,70,41,025,,86,28,289,45,1*70
$GLGSV,2,2,08,85,27,235,27,71,26,325,26,69,09,084,23,79,03,027,16,1*7F
$GAGSV,2,1,08,13,49,222,38,07,46,314,43,08,43,034,33,26,35,298,42,7*75
$GAGSV,2,2,08,30,32,137,43,02,27,076,21,15,15,173,21,03,07,071,,7*7A
$GAGSV,2,1,07,13,49,222,42,07,46,314,41,08,43,034,32,26,35,298,43,1*73
$GAGSV,2,2,07,30,32,137,41,02,27,076,21,15,15,173,22,1*40
$GBGSV,4,1,16,08,84,350,39,38,81,152,44,13,72,324,43,39,69,296,43,1*72
$GBGSV,4,2,16,16,66,271,41,06,64,266,41,46,62,091,35,19,53,357,25,1*72
$GBGSV,4,3,16,09,50,247,41,36,44,183,43,20,40,075,34,35,18,260,41,1*7B
$GBGSV,4,4,16,22,16,308,36,37,16,042,16,29,13,205,24,10,02,200,,1*73
$GBGSV,3,1,09,38,81,152,44,39,69,296,45,46,62,091,22,19,53,357,19,4*7C
$GBGSV,3,2,09,36,44,183,45,20,40,075,32,35,18,260,37,22,16,308,31,4*71
$GBGSV,3,3,09,37,16,042,25,4*48
$GNACCURACY,2.4*10
$PAIRSAT,1,35,1,0,200,2,0,200,3,0,200,4,0,200,5,0,201,6,0,200,7,0,200,8,0,200,9,0,200,10,0,221,11,0,200,12,0,201,13,0,201,14,0,200,15,0,201,16,0,200,17,0,200,18,0,221,19,0,200,20,0,200,21,0,200,23,0,221,24,0,221,25,0,220,26,0,200,27,0,200,28,0,200,29,0,200,30,0,200,31,0,200,32,0,221,194,0,621,195,0,621,196,0,620,199,0,621*6A
$PAIRSAT,2,24,65,0,200,66,0,200,67,0,200,68,0,200,69,0,200,70,0,200,71,0,201,72,0,200,73,0,201,74,0,200,75,0,200,76,0,200,77,0,200,78,0,200,79,0,201,80,0,201,81,0,200,82,0,200,83,0,200,84,0,200,85,0,201,86,0,201,87,0,200,88,0,200*7A
$PAIRSAT,3,23,2,0,1221,3,0,1221,4,0,1200,5,0,200,7,0,1221,8,0,1221,9,0,1200,10,0,1200,11,0,1200,12,0,1200,13,0,1221,15,0,1221,19,0,1200,21,0,1200,24,0,1200,25,0,1200,26,0,1221,27,0,1200,30,0,1221,31,0,1200,33,0,1200,34,0,1200,36,0,1200*6A
$PAIRSAT,4,50,1,0,200,2,0,200,3,0,200,4,0,200,5,0,200,6,0,201,7,0,200,8,0,201,9,0,201,10,0,200,11,0,200,12,0,200,13,0,201,14,0,200,15,0,200,16,0,201,19,0,621,20,0,621,21,0,600,22,0,621,23,0,600,24,0,600,25,0,600,26,0,600,27,0,600,28,0,600,29,0,621,30,0,600,31,0,200,32,0,600,33,0,600,34,0,600,35,0,621,36,0,621,37,0,621,38,0,621,39,0,621,40,0,600,41,0,600,42,0,600,43,0,600,44,0,600,45,0,600,46,0,621,56,0,200,57,0,200,58,0,200,59,0,600,60,0,600,61,0,600*41
$PAIRDGP,10,5,10,12,15,18,23,24,25,28,32*45
$GNGGA,114820.200,2500.8226608,N,12132.4610510,E,2,66,0.44,17.198,M,15.25,M,4,3335*49
$GNRMC,114820.200,A,2500.8226608,N,12132.4610510,E,0.00,333.82,260623,,,D,V*0A
$GPHDT,,T*1B
$GNACCURACY,2.4*10
$GNGGA,114820.300,2500.8226608,N,12132.4610510,E,2,65,0.44,17.205,M,15.25,M,4,3335*4C
$GNRMC,114820.300,A,2500.8226608,N,12132.4610510,E,0.00,333.82,260623,,,D,V*0B
$GPHDT,,T*1B
$GNACCURACY,2.4*10
$GNGGA,114820.400,2500.8226668,N,12132.4610450,E,2,64,0.45,17.210,M,15.25,M,1,3335*49
$GNRMC,114820.400,A,2500.8226668,N,12132.4610450,E,0.00,333.82,260623,,,D,V*0F
$GPHDT,,T*1B
$GNACCURACY,2.4*10
$GNGGA,114820.500,2500.8226668,N,12132.4610450,E,2,65,0.44,17.213,M,15.25,M,1,3335*4B
$GNRMC,114820.500,A,2500.8226668,N,12132.4610450,E,0.00,333.82,260623,,,D,V*0E
$GPHDT,,T*1B
$GNACCURACY,2.4*10
$GNGGA,114820.600,2500.8226728,N,12132.4610450,E,2,65,0.44,17.218,M,15.25,M,0,3335*47
$GNRMC,114820.600,A,2500.8226728,N,12132.4610450,E,0.00,333.82,260623,,,D,V*08
$GPHDT,,T*1B
$GNACCURACY,2.4*10
$GNGGA,114820.700,2500.8226728,N,12132.4610450,E,2,65,0.44,17.226,M,15.25,M,0,3335*4B
$GNRMC,114820.700,A,2500.8226728,N,12132.4610450,E,0.00,333.82,260623,,,D,V*09
$GPHDT,,T*1B
$GNACCURACY,2.4*10
$GNGGA,114820.800,2500.8226728,N,12132.4610450,E,2,65,0.44,17.230,M,15.25,M,0,3335*43
$GNRMC,114820.800,A,2500.8226728,N,12132.4610450,E,0.00,333.82,260623,,,D,V*06
$GPHDT,,T*1B
$GNACCURACY,2.4*10
$GNGGA,114820.900,2500.8226788,N,12132.4610450,E,2,65,0.44,17.239,M,15.25,M,0,3335*41
$GNRMC,114820.900,A,2500.8226788,N,12132.4610450,E,0.00,333.82,260623,,,D,V*0D
$GPHDT,,T*1B
$GNACCURACY,2.4*10
$GNGGA,114821.000,2500.8226728,N,12132.4610450,E,2,64,0.45,17.244,M,15.25,M,1,3335*48
$GNRMC,114821.000,A,2500.8226728,N,12132.4610450,E,0.00,333.82,260623,,,D,V*0F
$GPHDT,,T*1B
$GNACCURACY,2.4*10
$GNGGA,114821.100,2500.8226788,N,12132.4610450,E,2,64,0.45,17.250,M,15.25,M,1,3335*46
$GNRMC,114821.100,A,2500.8226788,N,12132.4610450,E,0.00,333.82,260623,,,D,V*04
$GPHDT,,T*1B
$GNGSA,A,3,196,24,199,23,18,194,15,195,12,10,25,32,0.81,0.45,0.68,1*07
$GNGSA,A,3,73,80,86,85,71,,,,,,,,0.81,0.45,0.68,2*0D
$GNGSA,A,3,13,07,08,26,30,02,15,,,,,,0.81,0.45,0.68,3*09
$GNGSA,A,3,08,38,13,39,16,06,46,19,09,36,20,35,0.81,0.45,0.68,4*0A
$GNGSA,A,3,22,29,37,,,,,,,,,,0.81,0.45,0.68,4*0D
$GPGSV,4,1,16,196,75,072,41,24,63,035,36,199,60,167,37,23,60,345,34,1*6B
$GPGSV,4,2,16,18,52,229,43,41,38,242,44,194,34,136,38,15,32,057,27,1*59
$GPGSV,4,3,16,195,30,179,32,12,27,133,40,10,26,323,42,25,16,171,24,1*57
$GPGSV,4,4,16,32,14,278,39,05,12,126,18,13,03,064,,28,02,221,,1*60
$GPGSV,3,1,10,196,75,072,43,24,63,035,47,23,60,345,34,199,60,167,47,8*60
$GPGSV,3,2,10,18,52,229,46,194,34,136,43,195,30,179,32,10,26,323,26,8*63
$GPGSV,3,3,10,25,16,171,22,32,14,278,41,8*67
$GLGSV,3,1,09,73,50,153,44,80,46,059,33,70,41,025,,86,28,289,45,1*70
$GLGSV,3,2,09,85,27,235,27,71,26,325,28,74,13,185,,69,09,084,21,1*71
$GLGSV,3,3,09,79,03,027,16,1*4E
$GAGSV,3,1,09,13,49,222,38,07,46,314,43,08,43,034,33,26,35,298,42,7*75
$GAGSV,3,2,09,30,32,137,43,02,27,076,20,15,15,173,21,27,07,185,,7*77
$GAGSV,3,3,09,03,07,071,,7*48
$GAGSV,2,1,07,13,49,222,42,07,46,314,41,08,43,034,33,26,35,298,43,1*72
$GAGSV,2,2,07,30,32,137,41,02,27,076,23,15,15,173,23,1*43
$GBGSV,4,1,15,08,84,350,39,38,81,152,44,13,72,324,43,39,69,296,43,1*71
$GBGSV,4,2,15,16,66,271,41,06,64,266,41,46,62,091,35,19,53,357,25,1*71
$GBGSV,4,3,15,09,50,247,41,36,44,183,43,20,40,075,33,35,18,260,41,1*7F
$GBGSV,4,4,15,37,16,042,13,22,16,308,36,29,13,205,24,1*44
$GBGSV,3,1,09,38,81,152,44,39,69,296,45,46,62,091,25,19,53,357,18,4*7A
$GBGSV,3,2,09,36,44,183,45,20,40,075,33,35,18,260,38,22,16,308,32,4*7C
$GBGSV,3,3,09,37,16,042,25,4*48
$GNACCURACY,2.4*10
$PAIRSAT,1,35,1,0,200,2,0,200,3,0,200,4,0,200,5,0,201,6,0,200,7,0,200,8,0,200,9,0,200,10,0,221,11,0,200,12,0,201,13,0,201,14,0,200,15,0,201,16,0,200,17,0,200,18,0,221,19,0,200,20,0,200,21,0,200,23,0,221,24,0,221,25,0,220,26,0,200,27,0,200,28,0,200,29,0,200,30,0,200,31,0,200,32,0,221,194,0,621,195,0,621,196,0,620,199,0,621*6A
$PAIRSAT,2,24,65,0,200,66,0,200,67,0,200,68,0,200,69,0,200,70,0,200,71,0,201,72,0,200,73,0,201,74,0,200,75,0,200,76,0,200,77,0,200,78,0,200,79,0,201,80,0,201,81,0,200,82,0,200,83,0,200,84,0,200,85,0,201,86,0,201,87,0,200,88,0,200*7A
$PAIRSAT,3,23,2,0,1221,3,0,1221,4,0,1200,5,0,200,7,0,1221,8,0,1221,9,0,1200,10,0,1200,11,0,1200,12,0,1200,13,0,1221,15,0,1221,19,0,1200,21,0,1200,24,0,1200,25,0,1200,26,0,1221,27,0,1200,30,0,1221,31,0,1200,33,0,1200,34,0,1200,36,0,1200*6A
$PAIRSAT,4,50,1,0,200,2,0,200,3,0,200,4,0,200,5,0,200,6,0,201,7,0,200,8,0,201,9,0,201,10,0,200,11,0,200,12,0,200,13,0,201,14,0,200,15,0,200,16,0,201,19,0,621,20,0,621,21,0,600,22,0,621,23,0,600,24,0,600,25,0,600,26,0,600,27,0,600,28,0,600,29,0,621,30,0,600,31,0,200,32,0,600,33,0,600,34,0,600,35,0,621,36,0,621,37,0,621,38,0,621,39,0,621,40,0,600,41,0,600,42,0,600,43,0,600,44,0,600,45,0,600,46,0,621,56,0,200,57,0,200,58,0,200,59,0,600,60,0,600,61,0,600*41
$PAIRDGP,10,5,10,12,15,18,23,24,25,28,32*45
$GNGGA,114821.200,2500.8226788,N,12132.4610510,E,2,64,0.45,17.261,M,15.25,M,1,3335*42
$GNRMC,114821.200,A,2500.8226788,N,12132.4610510,E,0.00,333.82,260623,,,D,V*02
$GPHDT,,T*1B
$GNACCURACY,2.4*10
$GNGGA,114821.300,2500.8226848,N,12132.4610510,E,2,64,0.45,17.270,M,15.25,M,1,3335*40
$GNRMC,114821.300,A,2500.8226848,N,12132.4610510,E,0.00,333.82,260623,,,D,V*00
$GPHDT,,T*1B
$GNACCURACY,2.4*10
$GNGGA,114821.400,2500.8226908,N,12132.4610570,E,2,64,0.45,17.280,M,15.25,M,1,3335*4B
$GNRMC,114821.400,A,2500.8226908,N,12132.4610570,E,0.01,333.82,260623,,,D,V*05
$GPHDT,,T*1B
$GNACCURACY,2.4*10
$GNGGA,114821.500,2500.8226908,N,12132.4610630,E,2,64,0.45,17.294,M,15.25,M,1,3335*48
$GNRMC,114821.500,A,2500.8226908,N,12132.4610630,E,0.01,333.82,260623,,,D,V*03
$GPHDT,,T*1B
$GNACCURACY,2.4*10
$GNGGA,114821.600,2500.8226968,N,12132.4610690,E,2,64,0.45,17.313,M,15.25,M,1,3335*49
$GNRMC,114821.600,A,2500.8226968,N,12132.4610690,E,0.01,333.82,260623,,,D,V*0C
$GPHDT,,T*1B
$GNACCURACY,2.4*10
$GNGGA,114821.700,2500.8226968,N,12132.4610750,E,2,64,0.45,17.331,M,15.25,M,1,3335*45
$GNRMC,114821.700,A,2500.8226968,N,12132.4610750,E,0.01,333.82,260623,,,D,V*00
$GPHDT,,T*1B
$GNACCURACY,2.4*10
$GNGGA,114821.800,2500.8227028,N,12132.4610810,E,2,64,0.45,17.353,M,15.25,M,1,3335*49
$GNRMC,114821.800,A,2500.8227028,N,12132.4610810,E,0.01,333.82,260623,,,D,V*08
$GPHDT,,T*1B
$GNACCURACY,2.4*10
$GNGGA,114821.900,2500.8227028,N,12132.4610810,E,2,