$FW : RTK35X,V1.1X0314AS,Lib20210517,1*54
$Tool : LOCOSYS , GNSS Firebird , v1.0.0.19*39
$---------------------------------------------------*2D
,,,0.80,0.45,0.66,4*02
$GPGSV,4,1,16,196,75,072,38,24,64,035,33,199,60,167,35,23,59,345,36,1*6D
$GPGSV,4,2,16,18,53,230,42,41,38,242,41,194,34,136,38,15,32,056,21,1*53
$GPGSV,4,3,16,195,30,179,38,12,26,133,40,10,25,322,43,25,16,171,25,1*5E
$GPGSV,4,4,16,05,13,125,28,32,13,277,37,13,03,063,,28,01,221,,1*63
$GPGSV,3,1,10,196,75,072,38,24,64,035,43,199,60,167,47,23,59,345,20,8*60
$GPGSV,3,2,10,18,53,230,49,194,34,136,43,195,30,179,36,10,25,322,29,8*6C
$GPGSV,3,3,10,25,16,171,19,32,13,277,37,8*66
$GLGSV,3,1,09,73,49,153,42,80,46,059,21,70,41,024,,85,28,236,19,1*72
$GLGSV,3,2,09,86,28,290,39,71,26,324,35,74,12,186,,69,09,084,15,1*75
$GLGSV,3,3,09,79,04,027,,1*4E
$GAGSV,3,1,09,13,49,222,39,07,46,313,43,08,43,034,26,26,35,298,42,7*77
$GAGSV,3,2,09,30,32,138,43,02,27,077,17,15,15,173,25,03,07,071,14,7*70
$GAGSV,3,3,09,27,06,185,,7*45
$GAGSV,2,1,06,13,49,222,45,07,46,313,39,08,43,034,26,26,35,298,43,1*78
$GAGSV,2,2,06,30,32,138,41,02,27,077,16,1*7E
$GBGSV,4,1,15,08,84,351,38,38,82,151,41,13,71,325,43,39,69,295,42,1*74
$GBGSV,4,2,15,16,66,270,41,06,64,265,41,46,62,092,26,19,53,356,26,1*70
$GBGSV,4,3,15,09,50,246,41,36,44,183,42,20,40,074,27,35,18,260,35,1*78
$GBGSV,4,4,15,37,17,043,23,22,16,308,37,29,13,206,25,1*44
$GBGSV,2,1,08,38,82,151,46,39,69,295,44,19,53,356,26,36,44,183,44,4*70
$GBGSV,2,2,08,20,40,074,16,35,18,260,37,37,17,043,27,22,16,308,34,4*7D
$GNACCURACY,2.3*17
$PAIRSAT,1,35,1,0,200,2,0,200,3,0,200,4,0,200,5,0,201,6,0,200,7,0,200,8,0,200,9,0,200,10,0,221,11,0,200,12,0,201,13,0,201,14,0,200,15,0,201,16,0,200,17,0,200,18,0,221,19,0,200,20,0,200,21,0,200,23,0,221,24,0,221,25,0,220,26,0,200,27,0,200,28,0,200,29,0,200,30,0,200,31,0,200,32,0,221,194,0,621,195,0,621,196,0,620,199,0,621*6A
$PAIRSAT,2,24,65,0,200,66,0,200,67,0,200,68,0,200,69,0,200,70,0,200,71,0,201,72,0,200,73,0,201,74,0,200,75,0,200,76,0,200,77,0,200,78,0,200,79,0,201,80,0,201,81,0,200,82,0,200,83,0,200,84,0,200,85,0,201,86,0,201,87,0,200,88,0,200*7A
$PAIRSAT,3,23,2,0,1221,3,0,1221,4,0,1200,5,0,200,7,0,1221,8,0,1221,9,0,1200,10,0,1200,11,0,1200,12,0,1200,13,0,1221,15,0,1221,19,0,1200,21,0,1200,24,0,1200,25,0,1200,26,0,1221,27,0,1200,30,0,1221,31,0,1200,33,0,1200,34,0,1200,36,0,1200*6A
$PAIRSAT,4,50,1,0,200,2,0,200,3,0,200,4,0,200,5,0,200,6,0,201,7,0,200,8,0,201,9,0,201,10,0,200,11,0,200,12,0,200,13,0,201,14,0,200,15,0,200,16,0,201,19,0,621,20,0,621,21,0,600,22,0,621,23,0,600,24,0,600,25,0,600,26,0,600,27,0,600,28,0,600,29,0,621,30,0,600,31,0,200,32,0,600,33,0,600,34,0,600,35,0,621,36,0,621,37,0,621,38,0,621,39,0,621,40,0,600,41,0,600,42,0,600,43,0,600,44,0,600,45,0,600,46,0,621,56,0,200,57,0,200,58,0,200,59,0,600,60,0,600,61,0,600*41
$PAIRDGP,10,5,10,12,15,18,23,24,25,28,32*45
$GNGGA,114719.200,2500.8204348,N,12132.4574311,E,2,63,0.45,15.854,M,15.25,M,4,3335*44
$GNRMC,114719.200,A,2500.8204348,N,12132.4574311,E,0.03,333.82,260623,,,D,V*0B
$GPHDT,316.384,T*3E
$GNACCURACY,2.3*17
$GNGGA,114719.300,2500.8204288,N,12132.4574311,E,2,63,0.45,15.840,M,15.25,M,4,3335*4D
$GNRMC,114719.300,A,2500.8204288,N,12132.4574311,E,0.03,333.82,260623,,,D,V*07
$GPHDT,,T*1B
$GNACCURACY,2.3*17
$GNGGA,114719.400,2500.8204228,N,12132.4574311,E,2,63,0.45,15.825,M,15.25,M,4,3335*43
$GNRMC,114719.400,A,2500.8204228,N,12132.4574311,E,0.03,333.82,260623,,,D,V*0A
$GPHDT,316.390,T*3B
$GNACCURACY,2.3*17
$GNGGA,114719.500,2500.8204228,N,12132.4574311,E,2,63,0.45,15.814,M,15.25,M,4,3335*40
$GNRMC,114719.500,A,2500.8204228,N,12132.4574311,E,0.03,333.82,260623,,,D,V*0B
$GPHDT,,T*1B
$GNACCURACY,2.3*17
$GNGGA,114719.600,2500.8204168,N,12132.4574311,E,2,64,0.45,15.802,M,15.25,M,4,3335*44
$GNRMC,114719.600,A,2500.8204168,N,12132.4574311,E,0.03,333.82,260623,,,D,V*0F
$GPHDT,316.330,T*31
$GNACCURACY,2.3*17
$GNGGA,114719.700,2500.8204168,N,12132.4574311,E,2,64,0.45,15.785,M,15.25,M,4,3335*45
$GNRMC,114719.700,A,2500.8204168,N,12132.4574311,E,0.03,333.82,260623,,,D,V*0E
$GPHDT,,T*1B
$GNACCURACY,2.3*17
$GNGGA,114719.800,2500.8204168,N,12132.4574311,E,2,65,0.44,15.776,M,15.25,M,4,3335*46
$GNRMC,114719.800,A,2500.8204168,N,12132.4574311,E,0.03,333.82,260623,,,D,V*01
$GPHDT,316.760,T*30
$GNACCURACY,2.3*17
$GNGGA,114719.900,2500.8204108,N,12132.4574311,E,2,64,0.44,15.763,M,15.25,M,4,3335*44
$GNRMC,114719.900,A,2500.8204108,N,12132.4574311,E,0.03,333.82,260623,,,D,V*06
$GPHDT,,T*1B
$GNACCURACY,2.3*17
$GNGGA,114720.000,2500.8204108,N,12132.4574311,E,2,64,0.44,15.747,M,15.25,M,5,3335*40
$GNRMC,114720.000,A,2500.8204108,N,12132.4574311,E,0.03,333.82,260623,,,D,V*05
$GPHDT,316.264,T*31
$GNACCURACY,2.3*17
$GNGGA,114720.100,2500.8204108,N,12132.4574311,E,2,64,0.44,15.734,M,15.25,M,5,3335*45
$GNRMC,114720.100,A,2500.8204108,N,12132.4574311,E,0.03,333.82,260623,,,D,V*04
$GPHDT,,T*1B
$GNGSA,A,3,196,24,199,23,18,194,15,195,12,10,25,05,0.78,0.44,0.65,1*09
$GNGSA,A,3,32,,,,,,,,,,,,0.78,0.44,0.65,1*0C
$GNGSA,A,3,73,80,85,86,71,,,,,,,,0.78,0.44,0.65,2*07
$GNGSA,A,3,13,07,08,26,30,02,15,,,,,,0.78,0.44,0.65,3*03
$GNGSA,A,3,08,38,13,39,16,06,46,19,09,36,20,35,0.78,0.44,0.65,4*00
$GNGSA,A,3,37,22,29,,,,,,,,,,0.78,0.44,0.65,4*07
$GPGSV,4,1,16,196,75,072,39,24,64,035,33,199,60,167,35,23,59,345,35,1*6F
$GPGSV,4,2,16,18,53,230,42,41,38,242,41,194,34,136,37,15,32,056,23,1*5E
$GPGSV,4,3,16,195,30,179,37,12,26,133,39,10,25,322,43,25,16,171,25,1*5F
$GPGSV,4,4,16,05,13,125,27,32,13,277,36,13,03,063,,28,01,221,,1*6D
$GPGSV,3,1,10,196,75,072,40,24,64,035,43,199,60,167,47,23,59,345,20,8*6F
$GPGSV,3,2,10,18,53,230,49,194,34,136,43,195,30,179,35,10,25,322,30,8*67
$GPGSV,3,3,10,25,16,171,19,32,13,277,38,8*69
$GLGSV,2,1,08,73,49,153,42,80,46,059,23,70,41,024,,85,28,236,19,1*70
$GLGSV,2,2,08,86,28,290,39,71,26,324,35,69,09,084,15,79,04,027,,1*75
$GAGSV,3,1,09,13,49,222,39,07,46,313,43,08,43,034,25,26,35,298,42,7*74
$GAGSV,3,2,09,30,32,138,42,02,27,077,17,15,15,173,25,03,07,071,14,7*71
$GAGSV,3,3,09,27,06,185,,7*45
$GAGSV,2,1,06,13,49,222,45,07,46,313,39,08,43,034,26,26,35,298,43,1*78
$GAGSV,2,2,06,30,32,138,41,02,27,077,13,1*7B
$GBGSV,4,1,15,08,84,351,38,38,82,151,40,13,71,325,43,39,69,295,42,1*75
$GBGSV,4,2,15,16,66,270,41,06,64,265,41,46,62,092,27,19,53,356,27,1*70
$GBGSV,4,3,15,09,50,246,41,36,44,183,42,20,40,074,26,35,18,260,35,1*79
$GBGSV,4,4,15,37,17,043,20,22,16,308,37,29,13,206,26,1*44
$GBGSV,3,1,09,38,82,151,46,39,69,295,44,46,62,092,24,19,53,356,26,4*74
$GBGSV,3,2,09,36,44,183,44,20,40,074,16,35,18,260,37,37,17,043,27,4*79
$GBGSV,3,3,09,22,16,308,34,4*41
$GNACCURACY,2.3*17
$PAIRSAT,1,35,1,0,200,2,0,200,3,0,200,4,0,200,5,0,201,6,0,200,7,0,200,8,0,200,9,0,200,10,0,221,11,0,200,12,0,201,13,0,201,14,0,200,15,0,201,16,0,200,17,0,200,18,0,221,19,0,200,20,0,200,21,0,200,23,0,221,24,0,221,25,0,220,26,0,200,27,0,200,28,0,200,29,0,200,30,0,200,31,0,200,32,0,221,194,0,621,195,0,621,196,0,620,199,0,621*6A
$PAIRSAT,2,24,65,0,200,66,0,200,67,0,200,68,0,200,69,0,200,70,0,200,71,0,201,72,0,200,73,0,201,74,0,200,75,0,200,76,0,200,77,0,200,78,0,200,79,0,201,80,0,201,81,0,200,82,0,200,83,0,200,84,0,200,85,0,201,86,0,201,87,0,200,88,0,200*7A
$PAIRSAT,3,23,2,0,1221,3,0,1221,4,0,1200,5,0,200,7,0,1221,8,0,1221,9,0,1200,10,0,1200,11,0,1200,12,0,1200,13,0,1221,15,0,1221,19,0,1200,21,0,1200,24,0,1200,25,0,1200,26,0,1221,27,0,1200,30,0,1221,31,0,1200,33,0,1200,34,0,1200,36,0,1200*6A
$PAIRSAT,4,50,1,0,200,2,0,200,3,0,200,4,0,200,5,0,200,6,0,201,7,0,200,8,0,201,9,0,201,10,0,200,11,0,200,12,0,200,13,0,201,14,0,200,15,0,200,16,0,201,19,0,621,20,0,621,21,0,600,22,0,621,23,0,600,24,0,600,25,0,600,26,0,600,27,0,600,28,0,600,29,0,621,30,0,600,31,0,200,32,0,600,33,0,600,34,0,600,35,0,621,36,0,621,37,0,621,38,0,621,39,0,621,40,0,600,41,0,600,42,0,600,43,0,600,44,0,600,45,0,600,46,0,621,56,0,200,57,0,200,58,0,200,59,0,600,60,0,600,61,0,600*41
$PAIRDGP,10,5,10,12,15,18,23,24,25,28,32*45
$GNGGA,114720.200,2500.8204108,N,12132.4574311,E,2,64,0.44,15.723,M,15.25,M,5,3335*40
$GNRMC,114720.200,A,2500.8204108,N,12132.4574311,E,0.03,333.82,260623,,,D,V*07
$GPHDT,316.840,T*3D
$GNACCURACY,2.3*17
$GNGGA,114720.300,2500.8204108,N,12132.4574311,E,2,64,0.44,15.711,M,15.25,M,5,3335*40
$GNRMC,114720.300,A,2500.8204108,N,12132.4574311,E,0.03,333.82,260623,,,D,V*06
$GPHDT,,T*1B
$GNACCURACY,2.3*17
$GNGGA,114720.400,2500.8204108,N,12132.4574311,E,2,64,0.44,15.700,M,15.25,M,5,3335*47
$GNRMC,114720.400,A,2500.8204108,N,12132.4574311,E,0.02,333.82,260623,,,D,V*00
$GPHDT,316.455,T*35
$GNACCURACY,2.3*17
$GNGGA,114720.500,2500.8204108,N,12132.4574371,E,2,64,0.44,15.684,M,15.25,M,5,3335*4D
$GNRMC,114720.500,A,2500.8204108,N,12132.4574371,E,0.02,333.82,260623,,,D,V*07
$GPHDT,,T*1B
$GNACCURACY,2.3*17
$GNGGA,114720.600,2500.8204108,N,12132.4574371,E,2,64,0.44,15.676,M,15.25,M,5,3335*43
$GNRMC,114720.600,A,2500.8204108,N,12132.4574371,E,0.02,333.82,260623,,,D,V*04
$GPHDT,316.167,T*31
$GNACCURACY,2.3*17
$GNGGA,114720.700,2500.8204108,N,12132.4574371,E,2,63,0.44,15.661,M,15.25,M,5,3335*43
$GNRMC,114720.700,A,2500.8204108,N,12132.4574371,E,0.02,333.82,260623,,,D,V*05
$GPHDT,,T*1B
$GNACCURACY,2.3*17
$GNGGA,114720.800,2500.8204168,N,12132.4574431,E,2,63,0.44,15.648,M,15.25,M,5,3335*42
$GNRMC,114720.800,A,2500.8204168,N,12132.4574431,E,0.02,333.82,260623,,,D,V*0F
$GPHDT,316.333,T*32
$GNACCURACY,2.3*17
$GNGGA,114720.900,2500.8204168,N,12132.4574431,E,2,63,0.44,15.640,M,15.25,M,5,3335*4B
$GNRMC,114720.900,A,2500.8204168,N,12132.4574431,E,0.02,333.82,260623,,,D,V*0E
$GPHDT,,T*1B
$GNACCURACY,2.3*17
$GNGGA,114721.000,2500.8204168,N,12132.4574431,E,2,64,0.44,15.632,M,15.25,M,6,3335*42
$GNRMC,114721.000,A,2500.8204168,N,12132.4574431,E,0.02,333.82,260623,,,D,V*06
$GPHDT,316.684,T*3B
$GNACCURACY,2.3*17
$GNGGA,114721.100,2500.8204228,N,12132.4574491,E,2,64,0.44,15.626,M,15.25,M,6,3335*4B
$GNRMC,114721.100,A,2500.8204228,N,12132.4574491,E,0.02,333.82,260623,,,D,V*0A
$GPHDT,,T*1B
$GNGSA,A,3,196,24,199,23,18,194,195,12,10,25,05,32,0.80,0.45,0.66,1*09
$GNGSA,A,3,73,80,85,86,71,,,,,,,,0.80,0.45,0.66,2*02
$GNGSA,A,3,13,07,08,26,30,02,15,,,,,,0.80,0.45,0.66,3*06
$GNGSA,A,3,08,38,13,39,16,06,46,19,09,36,20,35,0.80,0.45,0.66,4*05
$GNGSA,A,3,37,22,29,,,,,,,,,,0.80,0.45,0.66,4*02
$GPGSV,4,1,16,196,75,072,39,24,64,035,35,199,60,167,35,23,59,345,35,1*69
$GPGSV,4,2,16,18,53,230,42,41,38,242,41,194,34,136,38,15,32,056,21,1*53
$GPGSV,4,3,16,195,30,179,37,12,26,133,39,10,25,322,43,25,16,171,24,1*5E
$GPGSV,4,4,16,05,13,125,27,32,13,277,36,13,03,063,,28,01,221,,1*6D
$GPGSV,3,1,10,196,75,072,42,24,64,035,46,199,60,167,47,23,59,345,20,8*68
$GPGSV,3,2,10,18,53,230,49,194,34,136,43,195,30,179,34,10,25,322,30,8*66
$GPGSV,3,3,10,25,16,171,18,32,13,277,39,8*69
$GLGSV,2,1,08,73,49,153,41,80,46,059,23,70,41,025,,85,28,236,16,1*7D
$GLGSV,2,2,08,86,28,290,39,71,26,324,35,69,09,084,16,79,04,027,,1*76
$GAGSV,3,1,09,13,49,222,39,07,46,313,43,08,43,034,26,26,35,298,42,7*77
$GAGSV,3,2,09,30,32,138,42,02,27,077,20,15,15,173,24,03,07,071,15,7*75
$GAGSV,3,3,09,27,06,185,,7*45
$GAGSV,2,1,07,13,49,222,44,07,46,313,39,08,43,034,24,26,35,298,43,1*7A
$GAGSV,2,2,07,30,32,138,40,02,27,077,16,15,15,173,21,1*48
$GBGSV,4,1,15,08,84,351,38,38,82,151,41,13,71,325,43,39,69,295,43,1*75
$GBGSV,4,2,15,16,66,270,41,06,64,265,41,46,62,092,32,19,53,356,26,1*75
$GBGSV,4,3,15,09,50,246,41,36,44,183,42,20,40,074,31,35,18,260,33,1*79
$GBGSV,4,4,15,37,17,043,21,22,16,308,37,29,13,206,28,1*4B
$GBGSV,3,1,10,38,82,151,46,39,69,295,44,46,62,092,22,19,53,356,26,4*7A
$GBGSV,3,2,10,36,44,183,44,20,40,074,22,35,18,260,38,37,17,043,27,4*79
$GBGSV,3,3,10,22,16,308,35,29,13,206,17,4*73
$GNACCURACY,2.3*17
$PAIRSAT,1,35,1,0,200,2,0,200,3,0,200,4,0,200,5,0,201,6,0,200,7,0,200,8,0,200,9,0,200,10,0,221,11,0,200,12,0,201,13,0,201,14,0,200,15,0,201,16,0,200,17,0,200,18,0,221,19,0,200,20,0,200,21,0,200,23,0,221,24,0,221,25,0,220,26,0,200,27,0,200,28,0,200,29,0,200,30,0,200,31,0,200,32,0,221,194,0,621,195,0,621,196,0,620,199,0,621*6A
$PAIRSAT,2,24,65,0,200,66,0,200,67,0,200,68,0,200,69,0,200,70,0,200,71,0,201,72,0,200,73,0,201,74,0,200,75,0,200,76,0,200,77,0,200,78,0,200,79,0,201,80,0,201,81,0,200,82,0,200,83,0,200,84,0,200,85,0,201,86,0,201,87,0,200,88,0,200*7A
$PAIRSAT,3,23,2,0,1221,3,0,1221,4,0,1200,5,0,200,7,0,1221,8,0,1221,9,0,1200,10,0,1200,11,0,1200,12,0,1200,13,0,1221,15,0,1221,19,0,1200,21,0,1200,24,0,1200,25,0,1200,26,0,1221,27,0,1200,30,0,1221,31,0,1200,33,0,1200,34,0,1200,36,0,1200*6A
$PAIRSAT,4,50,1,0,200,2,0,200,3,0,200,4,0,200,5,0,200,6,0,201,7,0,200,8,0,201,9,0,201,10,0,200,11,0,200,12,0,200,13,0,201,14,0,200,15,0,200,16,0,201,19,0,621,20,0,621,21,0,600,22,0,621,23,0,600,24,0,600,25,0,600,26,0,600,27,0,600,28,0,600,29,0,621,30,0,600,31,0,200,32,0,600,33,0,600,34,0,600,35,0,621,36,0,621,37,0,621,38,0,621,39,0,621,40,0,600,41,0,600,42,0,600,43,0,600,44,0,600,45,0,600,46,0,621,56,0,200,57,0,200,58,0,200,59,0,600,60,0,600,61,0,600*41
$PAIRDGP,10,5,10,12,15,18,23,24,25,28,32*45
$GNGGA,114721.200,2500.8204228,N,12132.4574491,E,2,64,0.45,15.618,M,15.25,M,6,3335*44
$GNRMC,114721.200,A,2500.8204228,N,12132.4574491,E,0.02,333.82,260623,,,D,V*09
$GPHDT,316.316,T*35
$GNACCURACY,2.3*17
$GNGGA,114721.300,2500.8204228,N,12132.4574551,E,2,64,0.45,15.608,M,15.25,M,6,3335*49
$GNRMC,114721.300,A,2500.8204228,N,12132.4574551,E,0.02,333.82,260623,,,D,V*05
$GPHDT,,T*1B
$GNACCURACY,2.3*17
$GNGGA,114721.400,2500.8204228,N,12132.4574551,E,2,64,0.45,15.597,M,15.25,M,6,3335*4B
$GNRMC,114721.400,A,2500.8204228,N,12132.4574551,E,0.02,333.82,260623,,,D,V*02
$GPHDT,316.278,T*3C
$GNACCURACY,2.3*17
$GNGGA,114721.500,2500.8204228,N,12132.4574491,E,2,64,0.45,15.588,M,15.25,M,6,3335*49
$GNRMC,114721.500,A,2500.8204228,N,12132.4574491,E,0.02,333.82,260623,,,D,V*0E
$GPHDT,,T*1B
$GNACCURACY,2.3*17
$GNGGA,114721.600,2500.8204228,N,12132.4574491,E,2,64,0.45,15.581,M,15.25,M,6,3335*43
$GNRMC,114721.600,A,2500.8204228,N,12132.4574491,E,0.02,333.82,260623,,,D,V*0D
$GPHDT,316.571,T*32
$GNACCURACY,2.3*17
$GNGGA,114721.700,2500.8204228,N,12132.4574551,E,2,64,0.45,15.570,M,15.25,M,6,3335*41
$GNRMC,114721.700,A,2500.8204228,N,12132.4574551,E,0.02,333.82,260623,,,D,V*01
$GPHDT,,T*1B
$GNACCURACY,2.3*17
$GNGGA,114721.800,2500.8204228,N,12132.4574551,E,2,64,0.45,15.559,M,15.25,M,6,3335*45
$GNRMC,114721.800,A,2500.8204228,N,12132.4574551,E,0.02,333.82,260623,,,D,V*0E
$GPHDT,316.316,T*35
$GNACCURACY,2.3*17
$GNGGA,114721.900,2500.8204228,N,12132.4574611,E,2,64,0.45,15.548,M,15.25,M,6,3335*43
$GNRMC,114721.900,A,2500.8204228,N,12132.4574611,E,0.02,333.82,260623,,,D,V*08
$GPHDT,,T*1B
$GNACCURACY,2.3*17
$GNGGA,114722.000,2500.8204228,N,12132.4574611,E,2,64,0.45,15.536,M,15.25,M,7,3335*41
$GNRMC,114722.000,A,2500.8204228,N,12132.4574611,E,0.02,333.82,260623,,,D,V*02
$GPHDT,316.157,T*32
$GNACCURACY,2.3*17
$GNGGA,114722.100,2500.8204228,N,12132.4574671,E,2,64,0.45,15.526,M,15.25,M,7,3335*47
$GNRMC,114722.100,A,2500.8204228,N,12132.4574671,E,0.02,333.82,260623,,,D,V*05
$GPHDT,,T*1B
$GNGSA,A,3,196,24,199,23,18,194,195,12,10,25,32,,0.83,0.45,0.69,1*00
$GNGSA,A,3,73,80,86,85,71,,,,,,,,0.83,0.45,0.69,2*0E
$GNGSA,A,3,13,07,08,26,30,02,15,,,,,,0.83,0.45,0.69,3*0A
$GNGSA,A,3,08,38,13,39,16,06,46,19,09,36,20,35,0.83,0.45,0.69,4*09
$GNGSA,A,3,37,22,29,,,,,,,,,,0.83,0.45,0.69,4*0E
$GPGSV,4,1,16,196,75,072,39,24,64,035,37,199,60,167,36,23,59,345,35,1*68
$GPGSV,4,2,16,18,53,230,42,41,38,242,41,194,34,136,38,15,32,056,22,1*50
$GPGSV,4,3,16,195,30,179,37,12,26,133,39,10,25,322,43,25,16,171,22,1*58
$GPGSV,4,4,16,05,13,125,27,32,13,277,38,13,03,063,,28,01,221,,1*63
$GPGSV,3,1,10,196,75,072,42,24,64,035,46,199,60,167,47,23,59,345,21,8*69
$GPGSV,3,2,10,18,53,230,49,194,34,136,42,195,30,179,33,10,25,322,30,8*60
$GPGSV,3,3,10,25,16,171,16,32,13,277,39,8*67
$GLGSV,2,1,07,73,49,153,41,80,46,059,24,86,28,290,39,85,28,236,15,1*76
$GLGSV,2,2,07,71,26,324,35,69,09,084,16,79,04,027,,1*4C
$GAGSV,3,1,09,13,49,222,39,07,46,313,43,08,43,034,27,26,35,298,42,7*76
$GAGSV,3,2,09,30,32,138,42,02,27,077,21,15,15,173,23,03,07,071,16,7*70
$GAGSV,3,3,09,27,06,185,,7*45
$GAGSV,2,1,07,13,49,222,44,07,46,313,39,08,43,034,24,26,35,298,43,1*7A
$GAGSV,2,2,07,30,32,138,40,02,27,077,15,15,15,173,21,1*4B
$GBGSV,4,1,15,08,84,351,38,38,82,151,42,13,71,325,43,39,69,295,43,1*76
$GBGSV,4,2,15,16,66,270,41,06,64,265,41,46,62,092,33,19,53,356,27,1*75
$GBGSV,4,3,15,09,50,246,41,36,44,183,42,20,40,074,31,35,18,260,35,1*7F
$GBGSV,4,4,15,37,17,043,21,22,16,308,37,29,13,206,27,1*44
$GBGSV,3,1,09,38,82,151,45,39,69,295,44,19,53,356,26,36,44,183,44,4*73
$GBGSV,3,2,09,20,40,074,23,35,18,260,38,37,17,043,28,22,16,308,35,4*7A
$GBGSV,3,3,09,29,13,206,15,4*43
$GNACCURACY,2.3*17
$PAIRSAT,1,35,1,0,200,2,0,200,3,0,200,4,0,200,5,0,201,6,0,200,7,0,200,8,0,200,9,0,200,10,0,221,11,0,200,12,0,201,13,0,201,14,0,200,15,0,201,16,0,200,17,0,200,18,0,221,19,0,200,20,0,200,21,0,200,23,0,221,24,0,221,25,0,220,26,0,200,27,0,200,28,0,200,29,0,200,30,0,200,31,0,200,32,0,221,194,0,621,195,0,621,196,0,620,199,0,621*6A
$PAIRSAT,2,24,65,0,200,66,0,200,67,0,200,68,0,200,69,0,200,70,0,200,71,0,201,72,0,200,73,0,201,74,0,200,75,0,200,76,0,200,77,0,200,78,0,200,79,0,201,80,0,201,81,0,200,82,0,200,83,0,200,84,0,200,85,0,201,86,0,201,87,0,200,88,0,200*7A
$PAIRSAT,3,23,2,0,1221,3,0,1221,4,0,1200,5,0,200,7,0,1221,8,0,1221,9,0,1200,10,0,1200,11,0,1200,12,0,1200,13,0,1221,15,0,1221,19,0,1200,21,0,1200,24,0,1200,25,0,1200,26,0,1221,27,0,1200,30,0,1221,31,0,1200,33,0,1200,34,0,1200,36,0,1200*6A
$PAIRSAT,4,50,1,0,200,2,0,200,3,0,200,4,0,200,5,0,200,6,0,201,7,0,200,8,0,201,9,0,201,10,0,200,11,0,200,12,0,200,13,0,201,14,0,200,15,0,200,16,0,201,19,0,621,20,0,621,21,0,600,22,0,621,23,0,600,24,0,600,25,0,600,26,0,600,27,0,600,28,0,600,29,0,621,30,0,600,31,0,200,32,0,600,33,0,600,34,0,600,35,0,621,36,0,621,37,0,621,38,0,621,39,0,621,40,0,600,41,0,600,42,0,600,43,0,600,44,0,600,45,0,600,46,0,621,56,0,200,57,0,200,58,0,200,59,0,600,60,0,600,61,0,600*41
$PAIRDGP,10,5,10,12,15,18,23,24,25,28,32*45
$GNGGA,114722.200,2500.8204228,N,12132.4574731,E,2,63,0.45,15.514,M,15.25,M,7,3335*47
$GNRMC,114722.200,A,2500.8204228,N,12132.4574731,E,0.02,333.82,260623,,,D,V*03
$GPHDT,316.297,T*3D
$GNACCURACY,2.3*17
$GNGGA,114722.300,2500.8204168,N,12132.4574791,E,2,63,0.45,15.497,M,15.25,M,7,3335*41
$GNRMC,114722.300,A,2500.8204168,N,12132.4574791,E,0.01,333.82,260623,,,D,V*0C
$GPHDT,,T*1B
$GNACCURACY,2.3*17
$GNGGA,114722.400,2500.8204168,N,12132.4574851,E,2,63,0.45,15.485,M,15.25,M,7,3335*46
$GNRMC,114722.400,A,2500.8204168,N,12132.4574851,E,0.01,333.82,260623,,,D,V*08
$GPHDT,316.288,T*33
$GNACCURACY,2.3*17
$GNGGA,114722.500,2500.8204168,N,12132.4574911,E,2,62,0.45,15.469,M,15.25,M,7,3335*41
$GNRMC,114722.500,A,2500.8204168,N,12132.4574911,E,0.01,333.82,260623,,,D,V*0C
$GPHDT,,T*1B
$GNACCURACY,2.3*17
$GNGGA,114722.600,2500.8204168,N,12132.4574971,E,2,64,0.45,15.454,M,15.25,M,7,3335*4C
$GNRMC,114722.600,A,2500.8204168,N,12132.4574971,E,0.01,333.82,260623,,,D,V*09
$GPHDT,316.188,T*30
$GNACCURACY,2.3*17
$GNGGA,114722.700,2500.8204048,N,12132.4575091,E,2,64,0.45,15.449,M,15.25,M,7,3335*44
$GNRMC,114722.700,A,2500.8204048,N,12132.4575091,E,0.01,333.82,260623,,,D,V*0D
$GPHDT,,T*1B
$GNACCURACY,2.3*17
$GNGGA,114722.800,2500.8203988,N,12132.4575091,E,2,64,0.45,15.442,M,15.25,M,7,3335*42
$GNRMC,114722.800,A,2500.8203988,N,12132.4575091,E,0.01,333.82,260623,,,D,V*00
$GPHDT,316.348,T*3E
$GNACCURACY,2.3*17
$GNGGA,114722.900,2500.8203988,N,12132.4575151,E,2,64,0.45,15.431,M,15.25,M,7,3335*4A
$GNRMC,114722.900,A,2500.8203988,N,12132.4575151,E,0.01,333.82,260623,,,D,V*0C
$GPHDT,,T*1B
$GNACCURACY,2.3*17
$GNGGA,114723.000,2500.8203928,N,12132.4575211,E,2,64,0.45,15.428,M,15.25,M,8,3335*48
$GNRMC,114723.000,A,2500.8203928,N,12132.4575211,E,0.01,333.82,260623,,,D,V*09
$GPHDT,317.082,T*3A
$GNACCURACY,2.3*17
$GNGGA,114723.100,2500.8203808,N,12132.4575211,E,2,63,0.45,15.427,M,15.25,M,8,3335*42
$GNRMC,114723.100,A,2500.8203808,N,12132.4575211,E,0.01,333.82,260623,,,D,V*0B
$GPHDT,,T*1B
$GNGSA,A,3,196,24,199,23,18,194,195,12,10,25,05,32,0.80,0.45,0.66,1*09
$GNGSA,A,3,73,80,86,85,71,,,,,,,,0.80,0.45,0.66,2*02
$GNGSA,A,3,13,07,08,26,30,02,15,,,,,,0.80,0.45,0.66,3*06
$GNGSA,A,3,08,38,13,39,16,06,46,19,09,36,20,35,0.80,0.45,0.66,4*05
$GNGSA,A,3,37,22,29,,,,,,,,,,0.80,0.45,0.66,4*02
$GPGSV,4,1,16,196,75,072,39,24,64,035,36,199,60,167,36,23,59,345,35,1*69
$GPGSV,4,2,16,18,53,230,42,41,38,242,42,194,34,136,38,15,32,056,28,1*59
$GPGSV,4,3,16,195,30,179,37,12,26,133,39,10,25,322,44,25,16,171,22,1*5F
$GPGSV,4,4,16,05,13,125,28,32,13,277,38,13,03,063,,28,01,221,,1*6C
$GPGSV,3,1,09,196,75,072,42,24,64,035,46,199,60,167,47,23,59,345,23,8*63
$GPGSV,3,2,09,18,53,230,49,194,34,136,42,195,30,179,34,10,25,322,25,8*6B
$GPGSV,3,3,09,32,13,277,38,8*5E
$GLGSV,2,1,07,73,49,153,42,80,46,059,23,86,28,289,39,85,28,235,15,1*79
$GLGSV,2,2,07,71,26,324,35,69,09,084,16,79,04,027,,1*4C
$GAGSV,3,1,09,13,49,222,39,07,46,313,43,08,43,034,29,26,35,298,42,7*78
$GAGSV,3,2,09,30,32,138,42,02,27,077,22,15,15,173,23,03,07,071,16,7*73
$GAGSV,3,3,09,27,06,185,,7*45
$GAGSV,2,1,07,13,49,222,44,07,46,313,40,08,43,034,27,26,35,298,43,1*77
$GAGSV,2,2,07,30,32,138,39,02,27,077,13,15,15,173,22,1*40
$GBGSV,4,1,15,08,84,351,38,38,82,151,42,13,71,325,43,39,69,295,43,1*76
$GBGSV,4,2,15,16,66,270,41,06,64,265,41,46,62,092,28,19,53,356,27,1*7F
$GBGSV,4,3,15,09,50,246,41,36,44,183,42,20,40,074,29,35,18,260,35,1*76
$GBGSV,4,4,15,37,17,043,21,22,16,308,37,29,13,206,27,1*44
$GBGSV,3,1,09,38,82,151,45,39,69,295,44,19,53,356,26,36,44,183,44,4*73
$GBGSV,3,2,09,20,40,074,26,35,18,260,38,37,17,043,28,22,16,308,35,4*7F
$GBGSV,3,3,09,29,13,206,16,4*40
$GNACCURACY,2.3*17
$PAIRSAT,1,35,1,0,200,2,0,200,3,0,200,4,0,200,5,0,201,6,0,200,7,0,200,8,0,200,9,0,200,10,0,221,11,0,200,12,0,201,13,0,201,14,0,200,15,0,201,16,0,200,17,0,200,18,0,221,19,0,200,20,0,200,21,0,200,23,0,221,24,0,221,25,0,220,26,0,200,27,0,200,28,0,200,29,0,200,30,0,200,31,0,200,32,0,221,194,0,621,195,0,621,196,0,620,199,0,621*6A
$PAIRSAT,2,24,65,0,200,66,0,200,67,0,200,68,0,200,69,0,200,70,0,200,71,0,201,72,0,200,73,0,201,74,0,200,75,0,200,76,0,200,77,0,200,78,0,200,79,0,201,80,0,201,81,0,200,82,0,200,83,0,200,84,0,200,85,0,201,86,0,201,87,0,200,88,0,200*7A
$PAIRSAT,3,23,2,0,1221,3,0,1221,4,0,1200,5,0,200,7,0,1221,8,0,1221,9,0,1200,10,0,1200,11,0,1200,12,0,1200,13,0,1221,15,0,1221,19,0,1200,21,0,1200,24,0,1200,25,0,1200,26,0,1221,27,0,1200,30,0,1221,31,0,1200,33,0,1200,34,0,1200,36,0,1200*6A
$PAIRSAT,4,50,1,0,200,2,0,200,3,0,200,4,0,200,5,0,200,6,0,201,7,0,200,8,0,201,9,0,201,10,0,200,11,0,200,12,0,200,13,0,201,14,0,200,15,0,200,16,0,201,19,0,621,20,0,621,21,0,600,22,0,621,23,0,600,24,0,600,25,0,600,26,0,600,27,0,600,28,0,600,29,0,621,30,0,600,31,0,200,32,0,600,33,0,600,34,0,600,35,0,621,36,0,621,37,0,621,38,0,621,39,0,621,40,0,600,41,0,600,42,0,600,43,0,600,44,0,600,45,0,600,46,0,621,56,0,200,57,0,200,58,0,200,59,0,600,60,0,600,61,0,600*41
$PAIRDGP,10,5,10,12,15,18,23,24,25,28,32*45
$GNGGA,114723.200,2500.8203748,N,12132.4575271,E,2,63,0.45,15.420,M,15.25,M,8,3335*4B
$GNRMC,114723.200,A,2500.8203748,N,12132.4575271,E,0.01,333.82,260623,,,D,V*05
$GPHDT,316.289,T*32
$GNACCURACY,2.3*17
$GNGGA,114723.300,2500.8203748,N,12132.4575331,E,2,63,0.45,15.408,M,15.25,M,8,3335*45
$GNRMC,114723.300,A,2500.8203748,N,12132.4575331,E,0.01,333.82,260623,,,D,V*01
$GPHDT,,T*1B
$GNACCURACY,2.3*17
$GNGGA,114723.400,2500.8203748,N,12132.4575331,E,2,63,0.45,15.397,M,15.25,M,8,3335*43
$GNRMC,114723.400,A,2500.8203748,N,12132.4575331,E,0.01,333.82,260623,,,D,V*06
$GPHDT,316.619,T*3F
$GNACCURACY,2.3*17
$GNGGA,114723.500,2500.8203748,N,12132.4575391,E,2,63,0.45,15.385,M,15.25,M,8,3335*4B
$GNRMC,114723.500,A,2500.8203748,N,12132.4575391,E,0.01,333.82,260623,,,D,V*0D
$GPHDT,,T*1B
$GNACCURACY,2.3*17
$GNGGA,114723.600,2500.8203748,N,12132.4575391,E,2,64,0.45,15.370,M,15.25,M,8,3335*45
$GNRMC,114723.600,A,2500.8203748,N,12132.4575391,E,0.01,333.82,260623,,,D,V*0E
$GPHDT,317.147,T*32
$GNACCURACY,2.3*17
$GNGGA,114723.700,2500.8203688,N,12132.4575391,E,2,64,0.45,15.354,M,15.25,M,8,3335*4F
$GNRMC,114723.700,A,2500.8203688,N,12132.4575391,E,0.01,333.82,260623,,,D,V*02
$GPHDT,,T*1B
$GNACCURACY,2.3*17
$GNGGA,114723.800,2500.8203688,N,12132.4575391,E,2,64,0.45,15.338,M,15.25,M,8,3335*4A
$GNRMC,114723.800,A,2500.8203688,N,12132.4575391,E,0.01,333.82,260623,,,D,V*0D
$GPHDT,316.610,T*36
$GNACCURACY,2.3*17
$GNGGA,114723.900,2500.8203688,N,12132.4575391,E,2,64,0.45,15.316,M,15.25,M,8,3335*47
$GNRMC,114723.900,A,2500.8203688,N,12132.4575391,E,0.01,333.82,260623,,,D,V*0C
$GPHDT,,T*1B
$GNACCURACY,2.3*17
$GNGGA,114724.000,2500.8203688,N,12132.4575451,E,2,64,0.45,15.294,M,15.25,M,9,3335*48
$GNRMC,114724.000,A,2500.8203688,N,12132.4575451,E,0.01,333.82,260623,,,D,V*09
$GPHDT,316.325,T*35
$GNACCURACY,2.3*17
$GNGGA,114724.100,2500.8203688,N,12132.4575451,E,2,64,0.45,15.272,M,15.25,M,9,3335*41
$GNRMC,114724.100,A,2500.8203688,N,12132.4575451,E,0.01,333.82,260623,,,D,V*08
$GPHDT,,T*1B
$GNGSA,A,3,196,24,199,23,18,194,15,195,12,10,25,05,0.78,0.44,0.65,1*09
$GNGSA,A,3,32,,,,,,,,,,,,0.78,0.44,0.65,1*0C
$GNGSA,A,3,73,80,86,85,71,,,,,,,,0.78,0.44,0.65,2*07
$GNGSA,A,3,13,07,08,26,30,02,15,,,,,,0.78,0.44,0.65,3*03
$GNGSA,A,3,08,38,13,39,16,06,46,19,09,36,20,35,0.78,0.44,0.65,4*00
$GNGSA,A,3,37,22,29,,,,,,,,,,0.78,0.44,0.65,4*07
$GPGSV,4,1,16,196,75,072,39,24,64,035,34,199,60,167,36,23,59,345,35,1*6B
$GPGSV,4,2,16,18,53,230,43,41,38,242,42,194,34,136,39,15,32,056,28,1*59
$GPGSV,4,3,16,195,30,179,37,12,26,133,39,10,25,322,44,25,16,171,21,1*5C
$GPGSV,4,4,16,05,13,125,26,32,13,277,36,13,03,063,,28,01,221,,1*6C
$GPGSV,3,1,09,196,75,072,40,24,64,035,44,199,60,167,47,23,59,345,21,8*61
$GPGSV,3,2,09,18,53,230,49,194,34,136,44,195,30,179,35,10,25,322,32,8*6A
$GPGSV,3,3,09,32,13,277,39,8*5F
$GLGSV,2,1,07,73,49,153,42,80,46,059,21,86,28,289,39,85,28,235,12,1*7C
$GLGSV,2,2,07,71,26,324,34,69,09,084,15,79,04,027,,1*4E
$GAGSV,2,1,08,13,49,222,39,07,46,313,43,08,43,034,28,26,35,298,42,7*79
$GAGSV,2,2,08,30,32,138,42,02,27,077,23,15,15,173,22,03,07,071,16,7*73
$GAGSV,2,1,08,13,49,222,44,07,46,313,40,08,43,034,24,26,35,298,43,1*7B
$GAGSV,2,2,08,30,32,138,39,02,27,077,10,15,15,173,22,03,07,071,16,1*79
$GBGSV,5,1,17,08,84,351,38,38,82,151,42,13,71,324,43,39,69,295,43,1*74
$GBGSV,5,2,17,16,66,270,41,06,64,265,41,46,62,092,27,19,53,356,23,1*77
$GBGSV,5,3,17,09,50,246,41,36,44,183,42,20,40,074,27,35,18,260,35,1*7B
$GBGSV,5,4,17,37,17,043,22,22,16,308,37,29,13,206,26,07,05,190,,1*7F
$GBGSV,5,5,17,44,03,304,,1*44
$GBGSV,3,1,10,38,82,151,45,39,69,295,44,46,62,092,25,19,53,356,28,4*70
$GBGSV,3,2,10,36,44,183,44,20,40,074,25,35,18,260,38,37,17,043,29,4*70
$GBGSV,3,3,10,22,16,308,36,29,13,206,14,4*73
$GNACCURACY,2.3*17
$PAIRSAT,1,35,1,0,200,2,0,200,3,0,200,4,0,200,5,0,201,6,0,200,7,0,200,8,0,200,9,0,200,10,0,221,11,0,200,12,0,201,13,0,201,14,0,200,15,0,201,16,0,200,17,0,200,18,0,221,19,0,200,20,0,200,21,0,200,23,0,221,24,0,221,25,0,220,26,0,200,27,0,200,28,0,200,29,0,200,30,0,200,31,0,200,32,0,221,194,0,621,195,0,621,196,0,620,199,0,621*6A
$PAIRSAT,2,24,65,0,200,66,0,200,67,0,200,68,0,200,69,0,200,70,0,200,71,0,201,72,0,200,73,0,201,74,0,200,75,0,200,76,0,200,77,0,200,78,0,200,79,0,201,80,0,201,81,0,200,82,0,200,83,0,200,84,0,200,85,0,201,86,0,201,87,0,200,88,0,200*7A
$PAIRSAT,3,23,2,0,1221,3,0,1221,4,0,1200,5,0,200,7,0,1221,8,0,1221,9,0,1200,10,0,1200,11,0,1200,12,0,1200,13,0,1221,15,0,1221,19,0,1200,21,0,1200,24,0,1200,25,0,1200,26,0,1221,27,0,1200,30,0,1221,31,0,1200,33,0,1200,34,0,1200,36,0,1200*6A
$PAIRSAT,4,50,1,0,200,2,0,200,3,0,200,4,0,200,5,0,200,6,0,201,7,0,200,8,0,201,9,0,201,10,0,200,11,0,200,12,0,200,13,0,201,14,0,200,15,0,200,16,0,201,19,0,621,20,0,621,21,0,600,22,0,621,23,0,600,24,0,600,25,0,600,26,0,600,27,0,600,28,0,600,29,0,621,30,0,600,31,0,200,32,0,600,33,0,600,34,0,600,35,0,621,36,0,621,37,0,621,38,0,621,39,0,621,40,0,600,41,0,600,42,0,600,43,0,600,44,0,600,45,0,600,46,0,621,56,0,200,57,0,200,58,0,200,59,0,600,60,0,600,61,0,600*41
$PAIRDGP,10,5,10,12,15,18,23,24,25,28,32*45
$GNGGA,114724.200,2500.8203688,N,12132.4575451,E,2,65,0.44,15.247,M,15.25,M,9,3335*44
$GNRMC,114724.200,A,2500.8203688,N,12132.4575451,E,0.01,333.82,260623,,,D,V*0B
$GPHDT,316.750,T*33
$GNACCURACY,2.3*17
$GNGGA,114724.300,2500.8203628,N,12132.4575451,E,2,65,0.44,15.225,M,15.25,M,9,3335*4B
$GNRMC,114724.300,A,2500.8203628,N,12132.4575451,E,0.01,333.82,260623,,,D,V*00
$GPHDT,,T*1B
$GNACCURACY,2.3*17
$GNGGA,114724.400,2500.8203628,N,12132.4575451,E,2,65,0.44,15.207,M,15.25,M,9,3335*4C
$GNRMC,114724.400,A,2500.8203628,N,12132.4575451,E,0.01,333.82,260623,,,D,V*07
$GPHDT,315.882,T*30
$GNACCURACY,2.3*17
$GNGGA,114724.500,2500.8203568,N,12132.4575451,E,2,65,0.44,15.190,M,15.25,M,9,3335*47
$GNRMC,114724.500,A,2500.8203568,N,12132.4575451,E,0.01,333.82,260623,,,D,V*01
$GPHDT,,T*1B
$GNACCURACY,2.3*17
$GNGGA,114724.600,2500.8203568,N,12132.4575451,E,2,65,0.44,15.176,M,15.25,M,9,3335*4C
$GNRMC,114724.600,A,2500.8203568,N,12132.4575451,E,0.01,333.82,260623,,,D,V*02
$GPHDT,316.366,T*32
$GNACCURACY,2.3*17
$GNGGA,114724.700,2500.8203508,N,12132.4575451,E,2,65,0.44,15.163,M,15.25,M,9,3335*4F
$GNRMC,114724.700,A,2500.8203508,N,12132.4575451,E,0.01,333.82,260623,,,D,V*05
$GPHDT,,T*1B
$GNACCURACY,2.3*17
$GNGGA,114724.800,2500.8203448,N,12132.4575511,E,2,65,0.44,15.151,M,15.25,M,9,3335*41
$GNRMC,114724.800,A,2500.8203448,N,12132.4575511,E,0.01,333.82,260623,,,D,V*0A
$GPHDT,316.248,T*3F
$GNACCURACY,2.3*17
$GNGGA,114724.900,2500.8203448,N,12132.4575511,E,2,65,0.44,15.139,M,15.25,M,9,3335*4E
$GNRMC,114724.900,A,2500.8203448,N,12132.4575511,E,0.01,333.82,260623,,,D,V*0B
$GPHDT,,T*1B
$GNACCURACY,2.3*17
$GNGGA,114725.000,2500.8203448,N,12132.4575571,E,2,64,0.45,15.127,M,15.25,M,10,3335*77
$GNRMC,114725.000,A,2500.8203448,N,12132.4575571,E,0.01,333.82,260623,,,D,V*05
$GPHDT,316.393,T*38
