$FW : RTK35X,V1.1X0314AS,Lib20210517,1*54
$Tool : LOCOSYS , GNSS Firebird , v1.0.0.19*39
$---------------------------------------------------*2D
*36
$GNACCURACY,5.3*10
$GNGGA,033002.900,2500.7978481,N,12132.4840615,E,4,58,0.47,16.732,M,15.25,M,0,3335*44
$GNRMC,033002.900,A,2500.7978481,N,12132.4840615,E,0.09,317.02,090324,,,R,V*12
$GPHDT,,T*1B
$GNACCURACY,5.4*17
$GNGGA,033003.000,2500.7978466,N,12132.4840619,E,4,58,0.47,16.722,M,15.25,M,1,3335*49
$GNRMC,033003.000,A,2500.7978466,N,12132.4840619,E,0.03,317.02,090324,,,R,V*15
$GPHDT,132.569,T*3F
$GNGSA,A,3,08,194,195,27,21,16,04,09,02,07,196,31,0.75,0.47,0.58,1*31
$GNGSA,A,3,26,,,,,,,,,,,,0.75,0.47,0.58,1*09
$GNGSA,A,3,88,78,81,77,87,79,,,,,,,0.75,0.47,0.58,2*09
$GNGSA,A,3,21,13,19,27,26,15,,,,,,,0.75,0.47,0.58,3*03
$GNGSA,A,3,06,16,09,43,39,40,23,07,10,11,25,28,0.75,0.47,0.58,4*03
$GNGSA,A,3,34,,,,,,,,,,,,0.75,0.47,0.58,4*0F
$GPGSV,4,1,15,08,72,309,42,199,64,166,,194,63,046,37,195,58,123,43,1*5E
$GPGSV,4,2,15,27,49,027,30,45,47,231,39,21,41,169,28,16,35,056,19,1*68
$GPGSV,4,3,15,04,31,215,42,09,30,266,29,02,29,181,35,07,26,320,23,1*66
$GPGSV,4,4,15,196,21,173,25,26,16,085,25,31,14,137,22,1*64
$GPGSV,2,1,08,08,72,309,41,194,63,046,39,195,58,123,44,27,49,027,38,8*63
$GPGSV,2,2,08,04,31,215,41,09,30,266,24,196,21,173,29,26,16,085,30,8*50
$GLGSV,2,1,06,88,71,070,44,78,46,006,21,81,42,189,22,77,32,088,25,1*7D
$GLGSV,2,2,06,87,20,029,14,79,13,320,29,1*7B
$GAGSV,2,1,07,21,51,350,25,13,50,107,40,19,36,256,18,27,33,063,22,7*71
$GAGSV,2,2,07,26,28,175,28,15,22,049,30,04,10,312,16,7*4B
$GAGSV,2,1,06,21,51,350,29,13,50,107,46,19,36,256,23,27,33,063,26,1*70
$GAGSV,2,2,06,15,22,049,30,04,10,312,17,1*7A
$GBGSV,4,1,14,06,81,224,42,16,78,191,41,09,75,299,39,43,73,059,44,1*73
$GBGSV,4,2,14,39,67,177,39,40,65,316,36,23,62,358,26,07,62,295,37,1*75
$GBGSV,4,3,14,10,52,277,27,11,48,045,40,25,47,098,47,28,40,208,40,1*7A
$GBGSV,4,4,14,34,25,040,32,58,,,12,1*48
$GBGSV,2,1,07,43,73,059,43,39,67,177,34,40,65,316,39,23,62,358,21,4*73
$GBGSV,2,2,07,25,47,098,43,28,40,208,34,34,25,040,35,4*47
$GNACCURACY,5.3*10
$PAIRSAT,1,35,2,0,201,3,0,200,4,0,221,5,0,200,6,0,200,7,0,201,8,0,221,9,0,221,10,0,200,11,0,200,12,0,200,13,0,200,14,0,200,15,0,200,16,0,201,17,0,200,18,0,200,19,0,200,20,0,200,21,0,201,22,0,200,23,0,200,24,0,200,25,0,200,26,0,221,27,0,221,28,0,200,29,0,200,30,0,200,31,0,201,32,0,200,194,0,621,195,0,621,196,0,620,199,0,600*5B
$PAIRSAT,2,23,65,0,200,66,0,200,67,0,200,68,0,200,70,0,200,71,0,200,72,0,200,73,0,200,74,0,200,75,0,200,76,0,200,77,0,201,78,0,201,79,0,201,80,0,200,81,0,201,82,0,200,83,0,200,84,0,200,85,0,200,86,0,200,87,0,201,88,0,201*5C
$PAIRSAT,3,23,2,0,1200,3,0,1200,4,0,1200,5,0,200,7,0,1200,8,0,1200,9,0,1200,10,0,1200,11,0,1200,12,0,1200,13,0,1221,15,0,1221,19,0,1221,21,0,1221,24,0,1200,25,0,1200,26,0,1221,27,0,1221,30,0,1200,31,0,1200,33,0,1200,34,0,1200,36,0,1200*6A
$PAIRSAT,4,46,1,0,200,2,0,200,3,0,600,4,0,200,5,0,200,6,0,201,7,0,201,8,0,200,9,0,201,10,0,201,11,0,201,12,0,200,13,0,200,14,0,200,16,0,201,19,0,600,20,0,600,21,0,600,22,0,600,23,0,621,24,0,600,25,0,621,26,0,600,27,0,600,28,0,621,29,0,600,30,0,600,32,0,600,33,0,600,34,0,621,35,0,600,36,0,600,37,0,600,38,0,600,39,0,621,40,0,421,41,0,600,42,0,600,43,0,621,44,0,600,45,0,600,46,0,400,59,0,400,60,0,400,61,0,400,62,0,400*4A
$PAIRDGP,4,2,7,16,21*40
$GNGGA,033003.100,2500.7978524,N,12132.4840626,E,4,57,0.47,16.720,M,15.25,M,1,3335*4E
$GNRMC,033003.100,A,2500.7978524,N,12132.4840626,E,0.04,317.02,090324,,,R,V*18
$GPHDT,,T*1B
$GNACCURACY,5.3*10
$GNGGA,033003.200,2500.7978533,N,12132.4840627,E,4,56,0.49,16.717,M,15.25,M,1,3335*41
$GNRMC,033003.200,A,2500.7978533,N,12132.4840627,E,0.12,317.02,090324,,,R,V*1B
$GPHDT,134.184,T*3E
$GNACCURACY,5.3*10
$GNGGA,033003.300,2500.7978560,N,12132.4840650,E,4,56,0.49,16.682,M,15.25,M,1,3335*4B
$GNRMC,033003.300,A,2500.7978560,N,12132.4840650,E,0.14,317.02,090324,,,R,V*1A
$GPHDT,,T*1B
$GNACCURACY,5.3*10
$GNGGA,033003.400,2500.7978522,N,12132.4840669,E,4,57,0.49,16.700,M,15.25,M,1,3335*4A
$GNRMC,033003.400,A,2500.7978522,N,12132.4840669,E,0.28,317.02,090324,,,R,V*1E
$GPHDT,133.814,T*39
$GNACCURACY,5.3*10
$GNGGA,033003.500,2500.7978617,N,12132.4840531,E,4,57,0.49,16.783,M,15.25,M,1,3335*4B
$GNRMC,033003.500,A,2500.7978617,N,12132.4840531,E,0.34,317.02,090324,,,R,V*19
$GPHDT,,T*1B
$GNACCURACY,5.2*11
$GNGGA,033003.600,2500.7978657,N,12132.4840503,E,4,57,0.49,16.679,M,15.25,M,0,3335*48
$GNRMC,033003.600,A,2500.7978657,N,12132.4840503,E,0.17,317.02,090324,,,R,V*1E
$GPHDT,134.230,T*32
$GNACCURACY,5.5*16
$GNGGA,033003.700,2500.7978587,N,12132.4840499,E,4,58,0.47,16.704,M,15.25,M,0,3335*4F
$GNRMC,033003.700,A,2500.7978587,N,12132.4840499,E,0.04,317.02,090324,,,R,V*11
$GPHDT,,T*1B
$GNACCURACY,5.5*16
$GNGGA,033003.800,2500.7978576,N,12132.4840510,E,4,58,0.47,16.701,M,15.25,M,0,3335*4B
$GNRMC,033003.800,A,2500.7978576,N,12132.4840510,E,0.11,317.02,090324,,,R,V*14
$GPHDT,133.510,T*30
$GNACCURACY,5.5*16
$GNGGA,033003.900,2500.7978586,N,12132.4840551,E,4,58,0.47,16.715,M,15.25,M,0,3335*45
$GNRMC,033003.900,A,2500.7978586,N,12132.4840551,E,0.22,317.02,090324,,,R,V*1F
$GPHDT,,T*1B
$GNACCURACY,5.3*10
$GNGGA,033004.000,2500.7978590,N,12132.4840546,E,4,58,0.47,16.704,M,15.25,M,1,3335*4B
$GNRMC,033004.000,A,2500.7978590,N,12132.4840546,E,0.07,317.02,090324,,,R,V*17
$GPHDT,134.463,T*32
$GNGSA,A,3,08,194,195,27,21,16,04,09,02,07,196,26,0.75,0.47,0.58,1*37
$GNGSA,A,3,31,,,,,,,,,,,,0.75,0.47,0.58,1*0F
$GNGSA,A,3,88,78,81,77,87,79,,,,,,,0.75,0.47,0.58,2*09
$GNGSA,A,3,21,13,19,27,26,15,,,,,,,0.75,0.47,0.58,3*03
$GNGSA,A,3,06,16,09,43,39,40,23,07,10,11,25,28,0.75,0.47,0.58,4*03
$GNGSA,A,3,34,,,,,,,,,,,,0.75,0.47,0.58,4*0F
$GPGSV,4,1,15,08,72,309,46,199,64,166,,194,63,046,41,195,58,123,42,1*5A
$GPGSV,4,2,15,27,49,027,23,45,47,231,39,21,41,169,26,16,35,056,19,1*64
$GPGSV,4,3,15,04,31,215,42,09,30,266,25,02,29,181,36,07,26,320,28,1*62
$GPGSV,4,4,15,196,21,173,22,26,16,085,21,31,14,137,21,1*64
$GPGSV,2,1,08,08,72,309,44,194,63,046,42,195,58,123,44,27,49,027,38,8*6A
$GPGSV,2,2,08,04,31,215,45,09,30,266,26,196,21,173,27,26,16,085,30,8*58
$GLGSV,2,1,07,88,71,070,44,78,46,006,22,81,42,189,25,77,32,088,26,1*7B
$GLGSV,2,2,07,87,20,029,13,79,13,320,23,68,13,253,,1*4F
$GAGSV,2,1,07,21,51,350,30,13,50,107,40,19,36,256,18,27,33,063,26,7*71
$GAGSV,2,2,07,26,28,175,33,15,22,049,30,04,10,312,16,7*41
$GAGSV,2,1,06,21,51,350,35,13,50,107,46,19,36,256,23,27,33,063,26,1*7D
$GAGSV,2,2,06,15,22,049,29,04,10,312,17,1*72
$GBGSV,4,1,15,06,81,224,43,16,78,191,41,09,75,299,43,43,73,058,44,1*7F
$GBGSV,4,2,15,39,67,177,39,40,65,316,43,23,62,358,31,07,62,295,41,1*71
$GBGSV,4,3,15,10,52,277,26,11,48,045,42,25,47,098,45,28,40,208,41,1*7B
$GBGSV,4,4,15,34,25,040,29,37,17,315,,58,,,12,1*76
$GBGSV,2,1,07,43,73,058,44,39,67,177,34,40,65,316,41,23,62,358,35,4*7F
$GBGSV,2,2,07,25,47,098,43,28,40,208,32,34,25,040,33,4*47
$GNACCURACY,5.3*10
$PAIRSAT,1,35,2,0,201,3,0,200,4,0,221,5,0,200,6,0,200,7,0,201,8,0,221,9,0,221,10,0,200,11,0,200,12,0,200,13,0,200,14,0,200,15,0,200,16,0,201,17,0,200,18,0,200,19,0,200,20,0,200,21,0,201,22,0,200,23,0,200,24,0,200,25,0,200,26,0,221,27,0,221,28,0,200,29,0,200,30,0,200,31,0,201,32,0,200,194,0,621,195,0,621,196,0,620,199,0,600*5B
$PAIRSAT,2,23,65,0,200,66,0,200,67,0,200,68,0,200,70,0,200,71,0,200,72,0,200,73,0,200,74,0,200,75,0,200,76,0,200,77,0,201,78,0,201,79,0,201,80,0,200,81,0,201,82,0,200,83,0,200,84,0,200,85,0,200,86,0,200,87,0,201,88,0,201*5C
$PAIRSAT,3,23,2,0,1200,3,0,1200,4,0,1200,5,0,200,7,0,1200,8,0,1200,9,0,1200,10,0,1200,11,0,1200,12,0,1200,13,0,1221,15,0,1221,19,0,1221,21,0,1221,24,0,1200,25,0,1200,26,0,1221,27,0,1221,30,0,1200,31,0,1200,33,0,1200,34,0,1200,36,0,1200*6A
$PAIRSAT,4,46,1,0,200,2,0,200,3,0,600,4,0,200,5,0,200,6,0,201,7,0,201,8,0,200,9,0,201,10,0,201,11,0,201,12,0,200,13,0,200,14,0,200,16,0,201,19,0,600,20,0,600,21,0,600,22,0,600,23,0,621,24,0,600,25,0,621,26,0,600,27,0,600,28,0,621,29,0,600,30,0,600,32,0,600,33,0,600,34,0,621,35,0,600,36,0,600,37,0,600,38,0,600,39,0,621,40,0,421,41,0,600,42,0,600,43,0,621,44,0,600,45,0,600,46,0,400,59,0,400,60,0,400,61,0,400,62,0,400*4A
$PAIRDGP,4,2,7,16,21*40
$GNGGA,033004.100,2500.7978564,N,12132.4840540,E,4,58,0.47,16.715,M,15.25,M,1,3335*47
$GNRMC,033004.100,A,2500.7978564,N,12132.4840540,E,0.03,317.02,090324,,,R,V*1F
$GPHDT,,T*1B
$GNACCURACY,5.3*10
$GNGGA,033004.200,2500.7978562,N,12132.4840517,E,4,57,0.47,16.690,M,15.25,M,1,3335*43
$GNRMC,033004.200,A,2500.7978562,N,12132.4840517,E,0.03,317.02,090324,,,R,V*18
$GPHDT,133.516,T*36
$GNACCURACY,5.3*10
$GNGGA,033004.300,2500.7978550,N,12132.4840538,E,4,57,0.47,16.702,M,15.25,M,1,3335*44
$GNRMC,033004.300,A,2500.7978550,N,12132.4840538,E,0.05,317.02,090324,,,R,V*13
$GPHDT,,T*1B
$GNACCURACY,5.3*10
$GNGGA,033004.400,2500.7978571,N,12132.4840496,E,4,57,0.47,16.692,M,15.25,M,1,3335*4D
$GNRMC,033004.400,A,2500.7978571,N,12132.4840496,E,0.09,317.02,090324,,,R,V*1E
$GPHDT,132.739,T*38
$GNACCURACY,5.3*10
$GNGGA,033004.500,2500.7978514,N,12132.4840572,E,4,57,0.47,16.717,M,15.25,M,0,3335*49
$GNRMC,033004.500,A,2500.7978514,N,12132.4840572,E,0.02,317.02,090324,,,R,V*1C
$GPHDT,,T*1B
$GNACCURACY,5.3*10
$GNGGA,033004.600,2500.7978552,N,12132.4840519,E,4,57,0.47,16.704,M,15.25,M,0,3335*47
$GNRMC,033004.600,A,2500.7978552,N,12132.4840519,E,0.04,317.02,090324,,,R,V*16
$GPHDT,133.387,T*38
$GNACCURACY,5.3*10
$GNGGA,033004.700,2500.7978558,N,12132.4840512,E,4,58,0.47,16.717,M,15.25,M,0,3335*4A
$GNRMC,033004.700,A,2500.7978558,N,12132.4840512,E,0.06,317.02,090324,,,R,V*14
$GPHDT,,T*1B
$GNACCURACY,5.4*17
$GNGGA,033004.800,2500.7978524,N,12132.4840540,E,4,57,0.48,16.698,M,15.25,M,0,3335*4F
$GNRMC,033004.800,A,2500.7978524,N,12132.4840540,E,0.06,317.02,090324,,,R,V*17
$GPHDT,134.562,T*32
$GNACCURACY,5.4*17
$GNGGA,033004.900,2500.7978548,N,12132.4840554,E,4,57,0.48,16.685,M,15.25,M,0,3335*4D
$GNRMC,033004.900,A,2500.7978548,N,12132.4840554,E,0.05,317.02,090324,,,R,V*1A
$GPHDT,,T*1B
$GNACCURACY,5.4*17
$GNGGA,033005.000,2500.7978559,N,12132.4840564,E,4,57,0.48,16.681,M,15.25,M,1,3335*43
$GNRMC,033005.000,A,2500.7978559,N,12132.4840564,E,0.08,317.02,090324,,,R,V*1C
$GPHDT,135.141,T*36
$GNGSA,A,3,08,194,195,27,21,16,04,09,02,07,196,26,0.77,0.48,0.60,1*31
$GNGSA,A,3,31,,,,,,,,,,,,0.77,0.48,0.60,1*09
$GNGSA,A,3,88,78,81,77,79,,,,,,,,0.77,0.48,0.60,2*00
$GNGSA,A,3,21,13,19,27,26,15,,,,,,,0.77,0.48,0.60,3*05
$GNGSA,A,3,06,16,09,43,39,40,07,23,10,11,25,28,0.77,0.48,0.60,4*05
$GNGSA,A,3,34,,,,,,,,,,,,0.77,0.48,0.60,4*09
$GPGSV,4,1,15,08,72,309,45,199,64,166,,194,63,046,41,195,58,123,42,1*59
$GPGSV,4,2,15,27,49,027,24,45,47,231,39,21,41,169,23,16,35,056,28,1*64
$GPGSV,4,3,15,04,31,215,41,09,30,266,19,02,29,181,34,07,26,320,20,1*64
$GPGSV,4,4,15,196,21,173,24,26,16,085,26,31,14,137,23,1*67
$GPGSV,2,1,08,08,72,309,43,194,63,046,42,195,58,123,43,27,49,027,39,8*6B
$GPGSV,2,2,08,04,31,215,44,09,30,266,23,196,21,173,27,26,16,085,29,8*54
$GLGSV,2,1,06,88,71,070,44,78,46,006,23,81,42,189,28,77,32,088,26,1*76
$GLGSV,2,2,06,87,20,029,12,79,13,320,22,1*76
$GAGSV,2,1,07,21,51,350,25,13,50,107,40,19,36,256,17,27,33,063,30,7*7D
$GAGSV,2,2,07,26,28,175,29,15,22,049,33,04,10,312,15,7*4A
$GAGSV,2,1,06,21,51,350,35,13,50,107,46,19,36,256,23,27,33,063,22,1*79
$GAGSV,2,2,06,15,22,049,34,04,10,312,16,1*7F
$GBGSV,4,1,13,06,81,224,43,16,78,191,41,09,75,299,43,43,73,058,45,1*78
$GBGSV,4,2,13,39,67,177,38,40,65,316,42,07,62,295,41,23,62,358,28,1*7F
$GBGSV,4,3,13,10,52,277,28,11,48,045,41,25,47,098,45,28,40,208,40,1*71
$GBGSV,4,4,13,34,25,040,33,1*40
$GBGSV,2,1,07,43,73,058,44,39,67,177,33,40,65,316,39,23,62,358,36,4*74
$GBGSV,2,2,07,25,47,098,43,28,40,208,33,34,25,040,33,4*46
$GNACCURACY,5.4*17
$PAIRSAT,1,35,2,0,201,3,0,200,4,0,221,5,0,200,6,0,200,7,0,201,8,0,221,9,0,221,10,0,200,11,0,200,12,0,200,13,0,200,14,0,200,15,0,200,16,0,201,17,0,200,18,0,200,19,0,200,20,0,200,21,0,201,22,0,200,23,0,200,24,0,200,25,0,200,26,0,221,27,0,221,28,0,200,29,0,200,30,0,200,31,0,201,32,0,200,194,0,621,195,0,621,196,0,620,199,0,600*5B
$PAIRSAT,2,23,65,0,200,66,0,200,67,0,200,68,0,200,70,0,200,71,0,200,72,0,200,73,0,200,74,0,200,75,0,200,76,0,200,77,0,201,78,0,201,79,0,201,80,0,200,81,0,201,82,0,200,83,0,200,84,0,200,85,0,200,86,0,200,87,0,201,88,0,201*5C
$PAIRSAT,3,23,2,0,1200,3,0,1200,4,0,1200,5,0,200,7,0,1200,8,0,1200,9,0,1200,10,0,1200,11,0,1200,12,0,1200,13,0,1221,15,0,1221,19,0,1221,21,0,1221,24,0,1200,25,0,1200,26,0,1221,27,0,1221,30,0,1200,31,0,1200,33,0,1200,34,0,1200,36,0,1200*6A
$PAIRSAT,4,46,1,0,200,2,0,200,3,0,600,4,0,200,5,0,200,6,0,201,7,0,201,8,0,200,9,0,201,10,0,201,11,0,201,12,0,200,13,0,200,14,0,200,16,0,201,19,0,600,20,0,600,21,0,600,22,0,600,23,0,621,24,0,600,25,0,621,26,0,600,27,0,600,28,0,621,29,0,600,30,0,600,32,0,600,33,0,600,34,0,621,35,0,600,36,0,600,37,0,600,38,0,600,39,0,621,40,0,421,41,0,600,42,0,600,43,0,621,44,0,600,45,0,600,46,0,400,59,0,400,60,0,400,61,0,400,62,0,400*4A
$PAIRDGP,5,2,7,16,21,27*68
$GNGGA,033005.100,2500.7978534,N,12132.4840570,E,4,57,0.48,16.696,M,15.25,M,1,3335*4A
$GNRMC,033005.100,A,2500.7978534,N,12132.4840570,E,0.02,317.02,090324,,,R,V*19
$GPHDT,,T*1B
$GNACCURACY,5.4*17
$GNGGA,033005.200,2500.7978488,N,12132.4840546,E,4,57,0.48,16.709,M,15.25,M,1,3335*4D
$GNRMC,033005.200,A,2500.7978488,N,12132.4840546,E,0.04,317.02,090324,,,R,V*1F
$GPHDT,134.518,T*3F
$GNACCURACY,5.4*17
$GNGGA,033005.300,2500.7978445,N,12132.4840571,E,4,57,0.48,16.719,M,15.25,M,1,3335*48
$GNRMC,033005.300,A,2500.7978445,N,12132.4840571,E,0.08,317.02,090324,,,R,V*17
$GPHDT,,T*1B
$GNACCURACY,5.4*17
$GNGGA,033005.400,2500.7978458,N,12132.4840579,E,4,57,0.48,16.722,M,15.25,M,1,3335*43
$GNRMC,033005.400,A,2500.7978458,N,12132.4840579,E,0.09,317.02,090324,,,R,V*15
$GPHDT,134.144,T*32
$GNACCURACY,5.4*17
$GNGGA,033005.500,2500.7978482,N,12132.4840552,E,4,57,0.48,16.718,M,15.25,M,0,3335*44
$GNRMC,033005.500,A,2500.7978482,N,12132.4840552,E,0.07,317.02,090324,,,R,V*14
$GPHDT,,T*1B
$GNACCURACY,5.4*17
$GNGGA,033005.600,2500.7978489,N,12132.4840570,E,4,57,0.48,16.719,M,15.25,M,0,3335*4D
$GNRMC,033005.600,A,2500.7978489,N,12132.4840570,E,0.04,317.02,090324,,,R,V*1F
$GPHDT,134.288,T*31
$GNACCURACY,5.4*17
$GNGGA,033005.700,2500.7978490,N,12132.4840555,E,4,57,0.48,16.721,M,15.25,M,0,3335*48
$GNRMC,033005.700,A,2500.7978490,N,12132.4840555,E,0.03,317.02,090324,,,R,V*16
$GPHDT,,T*1B
$GNACCURACY,5.4*17
$GNGGA,033005.800,2500.7978479,N,12132.4840557,E,4,56,0.49,16.710,M,15.25,M,0,3335*40
$GNRMC,033005.800,A,2500.7978479,N,12132.4840557,E,0.09,317.02,090324,,,R,V*16
$GPHDT,134.592,T*3D
$GNACCURACY,5.4*17
$GNGGA,033005.900,2500.7978467,N,12132.4840555,E,4,56,0.49,16.716,M,15.25,M,0,3335*4A
$GNRMC,033005.900,A,2500.7978467,N,12132.4840555,E,0.09,317.02,090324,,,R,V*1A
$GPHDT,,T*1B
$GNACCURACY,5.4*17
$GNGGA,033006.000,2500.7978520,N,12132.4840542,E,4,56,0.49,16.733,M,15.25,M,1,3335*42
$GNRMC,033006.000,A,2500.7978520,N,12132.4840542,E,0.05,317.02,090324,,,R,V*18
$GPHDT,135.005,T*37
$GNGSA,A,3,08,194,195,27,21,16,04,09,02,07,196,26,0.78,0.49,0.61,1*3E
$GNGSA,A,3,88,78,81,77,79,,,,,,,,0.78,0.49,0.61,2*0F
$GNGSA,A,3,21,13,19,27,26,15,,,,,,,0.78,0.49,0.61,3*0A
$GNGSA,A,3,06,16,09,43,39,40,23,07,10,11,25,28,0.78,0.49,0.61,4*0A
$GNGSA,A,3,34,,,,,,,,,,,,0.78,0.49,0.61,4*06
$GPGSV,4,1,15,08,72,309,45,199,64,166,,194,63,046,42,195,58,123,42,1*5A
$GPGSV,4,2,15,27,49,027,28,45,47,231,39,21,41,169,22,16,35,056,29,1*68
$GPGSV,4,3,15,04,31,215,41,09,30,266,18,02,29,181,34,07,26,320,16,1*60
$GPGSV,4,4,15,196,21,173,24,26,16,085,26,31,14,137,25,1*61
$GPGSV,2,1,08,08,72,309,43,194,63,046,43,195,58,123,43,27,49,027,40,8*64
$GPGSV,2,2,08,04,31,215,44,09,30,266,27,196,21,173,25,26,16,085,29,8*52
$GLGSV,2,1,06,88,71,070,44,78,46,006,19,81,42,189,28,77,32,088,25,1*7C
$GLGSV,2,2,06,87,20,029,15,79,13,320,18,1*78
$GAGSV,2,1,07,21,51,350,23,13,50,107,40,19,36,256,17,27,33,063,32,7*79
$GAGSV,2,2,07,26,28,175,29,15,22,049,35,04,10,312,14,7*4D
$GAGSV,2,1,06,21,51,350,36,13,50,107,46,19,36,256,24,27,33,063,25,1*7A
$GAGSV,2,2,06,15,22,049,36,04,10,312,14,1*7F
$GBGSV,4,1,16,06,81,224,43,16,78,191,40,09,75,299,43,43,73,058,45,1*7C
$GBGSV,4,2,16,39,67,177,38,40,65,316,42,23,62,358,32,07,62,295,40,1*70
$GBGSV,4,3,16,10,52,277,27,11,48,045,41,25,47,098,45,28,40,208,40,1*7B
$GBGSV,4,4,16,34,25,040,35,38,05,171,,32,05,256,,41,03,207,,1*7C
$GBGSV,2,1,07,43,73,058,44,39,67,177,32,40,65,316,39,23,62,358,38,4*7B
$GBGSV,2,2,07,25,47,098,44,28,40,208,33,34,25,040,34,4*46
$GNACCURACY,5.4*17
$PAIRSAT,1,35,2,0,201,3,0,200,4,0,221,5,0,200,6,0,200,7,0,201,8,0,221,9,0,221,10,0,200,11,0,200,12,0,200,13,0,200,14,0,200,15,0,200,16,0,201,17,0,200,18,0,200,19,0,200,20,0,200,21,0,201,22,0,200,23,0,200,24,0,200,25,0,200,26,0,221,27,0,221,28,0,200,29,0,200,30,0,200,31,0,201,32,0,200,194,0,621,195,0,621,196,0,620,199,0,600*5B
$PAIRSAT,2,23,65,0,200,66,0,200,67,0,200,68,0,200,70,0,200,71,0,200,72,0,200,73,0,200,74,0,200,75,0,200,76,0,200,77,0,201,78,0,201,79,0,201,80,0,200,81,0,201,82,0,200,83,0,200,84,0,200,85,0,200,86,0,200,87,0,201,88,0,201*5C
$PAIRSAT,3,23,2,0,1200,3,0,1200,4,0,1200,5,0,200,7,0,1200,8,0,1200,9,0,1200,10,0,1200,11,0,1200,12,0,1200,13,0,1221,15,0,1221,19,0,1221,21,0,1221,24,0,1200,25,0,1200,26,0,1221,27,0,1221,30,0,1200,31,0,1200,33,0,1200,34,0,1200,36,0,1200*6A
$PAIRSAT,4,46,1,0,200,2,0,200,3,0,600,4,0,200,5,0,200,6,0,201,7,0,201,8,0,200,9,0,201,10,0,201,11,0,201,12,0,200,13,0,200,14,0,200,16,0,201,19,0,600,20,0,600,21,0,600,22,0,600,23,0,621,24,0,600,25,0,621,26,0,600,27,0,600,28,0,621,29,0,600,30,0,600,32,0,600,33,0,600,34,0,621,35,0,600,36,0,600,37,0,600,38,0,600,39,0,621,40,0,421,41,0,600,42,0,600,43,0,621,44,0,600,45,0,600,46,0,400,59,0,400,60,0,400,61,0,400,62,0,400*4A
$PAIRDGP,5,2,7,16,21,27*68
$GNGGA,033006.100,2500.7978472,N,12132.4840576,E,4,56,0.49,16.707,M,15.25,M,1,3335*45
$GNRMC,033006.100,A,2500.7978472,N,12132.4840576,E,0.05,317.02,090324,,,R,V*18
$GPHDT,,T*1B
$GNACCURACY,5.5*16
$GNGGA,033006.200,2500.7978479,N,12132.4840547,E,4,57,0.48,16.721,M,15.25,M,1,3335*4B
$GNRMC,033006.200,A,2500.7978479,N,12132.4840547,E,0.10,317.02,090324,,,R,V*16
$GPHDT,134.298,T*30
$GNACCURACY,5.5*16
$GNGGA,033006.300,2500.7978453,N,12132.4840557,E,4,57,0.48,16.711,M,15.25,M,1,3335*40
$GNRMC,033006.300,A,2500.7978453,N,12132.4840557,E,0.03,317.02,090324,,,R,V*1C
$GPHDT,,T*1B
$GNACCURACY,5.5*16
$GNGGA,033006.400,2500.7978460,N,12132.4840560,E,4,57,0.48,16.723,M,15.25,M,0,3335*43
$GNRMC,033006.400,A,2500.7978460,N,12132.4840560,E,0.10,317.02,090324,,,R,V*1D
$GPHDT,134.472,T*32
$GNACCURACY,5.5*16
$GNGGA,033006.500,2500.7978451,N,12132.4840589,E,4,58,0.48,16.717,M,15.25,M,0,3335*4F
$GNRMC,033006.500,A,2500.7978451,N,12132.4840589,E,0.02,317.02,090324,,,R,V*1A
$GPHDT,,T*1B
$GNACCURACY,5.5*16
$GNGGA,033006.600,2500.7978445,N,12132.4840546,E,4,58,0.48,16.719,M,15.25,M,0,3335*44
$GNRMC,033006.600,A,2500.7978445,N,12132.4840546,E,0.14,317.02,090324,,,R,V*18
$GPHDT,134.257,T*33
$GNACCURACY,5.5*16
$GNGGA,033006.700,2500.7978455,N,12132.4840567,E,4,58,0.48,16.721,M,15.25,M,0,3335*4C
$GNRMC,033006.700,A,2500.7978455,N,12132.4840567,E,0.08,317.02,090324,,,R,V*16
$GPHDT,,T*1B
$GNACCURACY,5.5*16
$GNGGA,033006.800,2500.7978433,N,12132.4840569,E,4,58,0.48,16.709,M,15.25,M,0,3335*47
$GNRMC,033006.800,A,2500.7978433,N,12132.4840569,E,0.06,317.02,090324,,,R,V*19
$GPHDT,134.709,T*3D
$GNACCURACY,5.5*16
$GNGGA,033006.900,2500.7978447,N,12132.4840572,E,4,58,0.48,16.723,M,15.25,M,0,3335*47
$GNRMC,033006.900,A,2500.7978447,N,12132.4840572,E,0.06,317.02,090324,,,R,V*11
$GPHDT,,T*1B
$GNACCURACY,5.5*16
$GNGGA,033007.000,2500.7978432,N,12132.4840548,E,4,58,0.48,16.716,M,15.25,M,1,3335*43
$GNRMC,033007.000,A,2500.7978432,N,12132.4840548,E,0.08,317.02,090324,,,R,V*1C
$GPHDT,134.408,T*3F
$GNGSA,A,3,08,194,195,27,21,16,04,09,02,07,196,26,0.77,0.48,0.60,1*31
$GNGSA,A,3,31,,,,,,,,,,,,0.77,0.48,0.60,1*09
$GNGSA,A,3,88,78,81,77,79,,,,,,,,0.77,0.48,0.60,2*00
$GNGSA,A,3,21,13,19,27,26,15,,,,,,,0.77,0.48,0.60,3*05
$GNGSA,A,3,06,16,09,43,39,40,23,07,10,11,25,28,0.77,0.48,0.60,4*05
$GNGSA,A,3,34,,,,,,,,,,,,0.77,0.48,0.60,4*09
$GPGSV,4,1,15,08,72,309,45,199,64,166,,194,63,046,42,195,58,123,42,1*5A
$GPGSV,4,2,15,27,49,027,29,45,47,231,39,21,41,169,22,16,35,056,26,1*66
$GPGSV,4,3,15,04,31,215,40,09,30,266,19,02,29,181,33,07,26,320,17,1*66
$GPGSV,4,4,15,196,21,173,20,26,16,085,27,31,14,137,25,1*64
$GPGSV,2,1,08,08,72,309,43,194,63,046,44,195,58,123,43,27,49,027,40,8*63
$GPGSV,2,2,08,04,31,215,44,09,30,266,26,196,21,173,26,26,16,085,29,8*50
$GLGSV,2,1,07,88,71,070,44,78,46,006,18,81,42,189,27,77,32,088,23,1*75
$GLGSV,2,2,07,87,20,029,13,79,13,320,18,67,01,208,,1*45
$GAGSV,2,1,07,21,51,350,23,13,50,107,40,19,36,256,19,27,33,063,32,7*77
$GAGSV,2,2,07,26,28,175,28,15,22,049,35,04,10,312,15,7*4D
$GAGSV,2,1,07,21,51,350,37,13,50,107,46,19,36,256,24,27,33,063,25,1*7A
$GAGSV,2,2,07,26,28,175,23,15,22,049,36,04,10,312,13,1*45
$GBGSV,4,1,13,06,81,224,43,16,78,191,40,09,75,299,43,43,73,058,45,1*79
$GBGSV,4,2,13,39,67,177,38,40,65,316,42,23,62,358,33,07,62,295,40,1*74
$GBGSV,4,3,13,10,52,277,26,11,48,045,41,25,47,098,44,28,40,208,40,1*7E
$GBGSV,4,4,13,34,25,040,35,1*46
$GBGSV,2,1,07,43,73,058,44,39,67,177,32,40,65,316,39,23,62,358,38,4*7B
$GBGSV,2,2,07,25,47,098,44,28,40,208,34,34,25,040,34,4*41
$GNACCURACY,5.6*15
$PAIRSAT,1,35,2,0,201,3,0,200,4,0,221,5,0,200,6,0,200,7,0,201,8,0,221,9,0,221,10,0,200,11,0,200,12,0,200,13,0,200,14,0,200,15,0,200,16,0,201,17,0,200,18,0,200,19,0,200,20,0,200,21,0,201,22,0,200,23,0,200,24,0,200,25,0,200,26,0,221,27,0,221,28,0,200,29,0,200,30,0,200,31,0,201,32,0,200,194,0,621,195,0,621,196,0,620,199,0,600*5B
$PAIRSAT,2,23,65,0,200,66,0,200,67,0,200,68,0,200,70,0,200,71,0,200,72,0,200,73,0,200,74,0,200,75,0,200,76,0,200,77,0,201,78,0,201,79,0,201,80,0,200,81,0,201,82,0,200,83,0,200,84,0,200,85,0,200,86,0,200,87,0,201,88,0,201*5C
$PAIRSAT,3,23,2,0,1200,3,0,1200,4,0,1200,5,0,200,7,0,1200,8,0,1200,9,0,1200,10,0,1200,11,0,1200,12,0,1200,13,0,1221,15,0,1221,19,0,1221,21,0,1221,24,0,1200,25,0,1200,26,0,1221,27,0,1221,30,0,1200,31,0,1200,33,0,1200,34,0,1200,36,0,1200*6A
$PAIRSAT,4,46,1,0,200,2,0,200,3,0,600,4,0,200,5,0,200,6,0,201,7,0,201,8,0,200,9,0,201,10,0,201,11,0,201,12,0,200,13,0,200,14,0,200,16,0,201,19,0,600,20,0,600,21,0,600,22,0,600,23,0,621,24,0,600,25,0,621,26,0,600,27,0,600,28,0,621,29,0,600,30,0,600,32,0,600,33,0,600,34,0,621,35,0,600,36,0,600,37,0,600,38,0,600,39,0,621,40,0,421,41,0,600,42,0,600,43,0,621,44,0,600,45,0,600,46,0,400,59,0,400,60,0,400,61,0,400,62,0,400*4A
$PAIRDGP,8,2,4,7,8,9,16,21,27*7C
$GNGGA,033007.100,2500.7978428,N,12132.4840565,E,4,58,0.48,16.720,M,15.25,M,1,3335*43
$GNRMC,033007.100,A,2500.7978428,N,12132.4840565,E,0.09,317.02,090324,,,R,V*18
$GPHDT,,T*1B
$GNACCURACY,5.6*15
$GNGGA,033007.200,2500.7978423,N,12132.4840563,E,4,58,0.48,16.712,M,15.25,M,1,3335*4C
$GNRMC,033007.200,A,2500.7978423,N,12132.4840563,E,0.01,317.02,090324,,,R,V*1E
$GPHDT,134.601,T*34
$GNACCURACY,5.6*15
$GNGGA,033007.300,2500.7978407,N,12132.4840595,E,4,59,0.47,16.716,M,15.25,M,1,3335*48
$GNRMC,033007.300,A,2500.7978407,N,12132.4840595,E,0.03,317.02,090324,,,R,V*12
$GPHDT,,T*1B
$GNACCURACY,5.6*15
$GNGGA,033007.400,2500.7978421,N,12132.4840584,E,4,59,0.47,16.710,M,15.25,M,1,3335*4D
$GNRMC,033007.400,A,2500.7978421,N,12132.4840584,E,0.03,317.02,090324,,,R,V*11
$GPHDT,133.431,T*32
$GNACCURACY,5.6*15
$GNGGA,033007.500,2500.7978416,N,12132.4840576,E,4,59,0.47,16.714,M,15.25,M,1,3335*41
$GNRMC,033007.500,A,2500.7978416,N,12132.4840576,E,0.06,317.02,090324,,,R,V*1C
$GPHDT,,T*1B
$GNACCURACY,5.6*15
$GNGGA,033007.600,2500.7978417,N,12132.4840581,E,4,59,0.47,16.719,M,15.25,M,1,3335*46
$GNRMC,033007.600,A,2500.7978417,N,12132.4840581,E,0.02,317.02,090324,,,R,V*12
$GPHDT,133.472,T*35
$GNACCURACY,5.6*15
$GNGGA,033007.700,2500.7978429,N,12132.4840574,E,4,59,0.47,16.718,M,15.25,M,0,3335*40
$GNRMC,033007.700,A,2500.7978429,N,12132.4840574,E,0.05,317.02,090324,,,R,V*13
$GPHDT,,T*1B
$GNACCURACY,5.6*15
$GNGGA,033007.800,2500.7978473,N,12132.4840537,E,4,59,0.47,16.728,M,15.25,M,0,3335*44
$GNRMC,033007.800,A,2500.7978473,N,12132.4840537,E,0.01,317.02,090324,,,R,V*10
$GPHDT,133.236,T*33
$GNACCURACY,5.6*15
$GNGGA,033007.900,2500.7978444,N,12132.4840569,E,4,59,0.47,16.728,M,15.25,M,0,3335*4A
$GNRMC,033007.900,A,2500.7978444,N,12132.4840569,E,0.10,317.02,090324,,,R,V*1E
$GPHDT,,T*1B
$GNACCURACY,5.5*16
$GNGGA,033008.000,2500.7978499,N,12132.4840524,E,4,58,0.49,16.731,M,15.25,M,1,3335*43
$GNRMC,033008.000,A,2500.7978499,N,12132.4840524,E,0.19,317.02,090324,,,R,V*18
$GPHDT,133.529,T*3A
$GNGSA,A,3,08,194,195,27,21,16,04,09,02,07,196,26,0.75,0.47,0.58,1*37
$GNGSA,A,3,31,,,,,,,,,,,,0.75,0.47,0.58,1*0F
$GNGSA,A,3,88,78,81,77,87,79,,,,,,,0.75,0.47,0.58,2*09
$GNGSA,A,3,21,13,19,27,26,15,,,,,,,0.75,0.47,0.58,3*03
$GNGSA,A,3,06,16,09,43,39,40,23,07,10,11,25,28,0.75,0.47,0.58,4*03
$GNGSA,A,3,34,,,,,,,,,,,,0.75,0.47,0.58,4*0F
$GPGSV,4,1,15,08,72,309,45,199,64,166,,194,63,046,42,195,58,123,40,1*58
$GPGSV,4,2,15,27,49,027,29,45,47,231,39,21,41,169,26,16,34,057,26,1*62
$GPGSV,4,3,15,04,31,215,42,09,30,266,19,02,29,181,37,07,26,320,20,1*64
$GPGSV,4,4,15,196,21,173,23,26,16,085,27,31,14,137,24,1*66
$GPGSV,2,1,08,08,72,309,43,194,63,046,44,195,58,123,43,27,49,027,42,8*61
$GPGSV,2,2,08,04,31,215,43,09,30,266,26,196,21,173,27,26,16,085,29,8*56
$GLGSV,2,1,07,88,71,070,44,78,46,006,15,81,42,189,27,77,32,088,24,1*7F
$GLGSV,2,2,07,87,20,029,15,79,13,320,16,67,01,208,,1*4D
$GAGSV,2,1,07,21,51,350,24,13,50,107,40,19,36,256,20,27,33,063,33,7*7B
$GAGSV,2,2,07,26,28,175,29,15,22,049,35,04,10,312,13,7*4A
$GAGSV,2,1,07,21,51,350,38,13,50,107,46,19,36,256,23,27,33,063,23,1*74
$GAGSV,2,2,07,26,28,175,23,15,22,049,36,04,10,312,12,1*44
$GBGSV,4,1,13,06,81,224,42,16,78,191,39,09,75,299,43,43,73,058,45,1*76
$GBGSV,4,2,13,39,67,177,38,40,65,316,42,23,62,358,33,07,62,295,39,1*7A
$GBGSV,4,3,13,10,52,277,26,11,48,045,42,25,47,098,43,28,40,208,40,1*7A
$GBGSV,4,4,13,34,25,040,37,1*44
$GBGSV,2,1,07,43,73,058,44,39,67,177,32,40,65,316,39,23,62,358,38,4*7B
$GBGSV,2,2,07,25,47,098,44,28,40,208,33,34,25,040,34,4*46
$GNACCURACY,5.5*16
$PAIRSAT,1,35,2,0,201,3,0,200,4,0,221,5,0,200,6,0,200,7,0,201,8,0,221,9,0,221,10,0,200,11,0,200,12,0,200,13,0,200,14,0,200,15,0,200,16,0,201,17,0,200,18,0,200,19,0,200,20,0,200,21,0,201,22,0,200,23,0,200,24,0,200,25,0,200,26,0,221,27,0,221,28,0,200,29,0,200,30,0,200,31,0,201,32,0,200,194,0,621,195,0,621,196,0,620,199,0,600*5B
$PAIRSAT,2,23,65,0,200,66,0,200,67,0,200,68,0,200,70,0,200,71,0,200,72,0,200,73,0,200,74,0,200,75,0,200,76,0,200,77,0,201,78,0,201,79,0,201,80,0,200,81,0,201,82,0,200,83,0,200,84,0,200,85,0,200,86,0,200,87,0,201,88,0,201*5C
$PAIRSAT,3,23,2,0,1200,3,0,1200,4,0,1200,5,0,200,7,0,1200,8,0,1200,9,0,1200,10,0,1200,11,0,1200,12,0,1200,13,0,1221,15,0,1221,19,0,1221,21,0,1221,24,0,1200,25,0,1200,26,0,1221,27,0,1221,30,0,1200,31,0,1200,33,0,1200,34,0,1200,36,0,1200*6A
$PAIRSAT,4,46,1,0,200,2,0,200,3,0,600,4,0,200,5,0,200,6,0,201,7,0,201,8,0,200,9,0,201,10,0,201,11,0,201,12,0,200,13,0,200,14,0,200,16,0,201,19,0,600,20,0,600,21,0,600,22,0,600,23,0,621,24,0,600,25,0,621,26,0,600,27,0,600,28,0,621,29,0,600,30,0,600,32,0,600,33,0,600,34,0,621,35,0,600,36,0,600,37,0,600,38,0,600,39,0,621,40,0,421,41,0,600,42,0,600,43,0,621,44,0,600,45,0,600,46,0,400,59,0,400,60,0,400,61,0,400,62,0,400*4A
$PAIRDGP,8,2,4,7,8,9,16,21,27*7C
$GNGGA,033008.100,2500.7978486,N,12132.4840522,E,4,59,0.47,16.733,M,15.25,M,1,3335*47
$GNRMC,033008.100,A,2500.7978486,N,12132.4840522,E,0.01,317.02,090324,,,R,V*18
$GPHDT,,T*1B
$GNACCURACY,5.5*16
$GNGGA,033008.200,2500.7978484,N,12132.4840518,E,4,59,0.47,16.731,M,15.25,M,1,3335*4D
$GNRMC,033008.200,A,2500.7978484,N,12132.4840518,E,0.08,317.02,090324,,,R,V*19
$GPHDT,133.022,T*34
$GNACCURACY,5.4*17
$GNGGA,033008.300,2500.7978440,N,12132.4840576,E,4,59,0.47,16.728,M,15.25,M,1,3335*44
$GNRMC,033008.300,A,2500.7978440,N,12132.4840576,E,0.13,317.02,090324,,,R,V*12
$GPHDT,,T*1B
$GNACCURACY,5.0*13
$GNGGA,033008.400,2500.7978527,N,12132.4840539,E,4,59,0.47,16.732,M,15.25,M,1,3335*43
$GNRMC,033008.400,A,2500.7978527,N,12132.4840539,E,0.13,317.02,090324,,,R,V*1E
$GPHDT,133.595,T*3D
$GNACCURACY,4.9*1B
$GNGGA,033008.500,2500.7978513,N,12132.4840534,E,4,59,0.47,16.732,M,15.25,M,1,3335*48
$GNRMC,033008.500,A,2500.7978513,N,12132.4840534,E,0.10,317.02,090324,,,R,V*16
$GPHDT,,T*1B
$GNACCURACY,4.9*1B
$GNGGA,033008.600,2500.7978501,N,12132.4840550,E,4,59,0.47,16.709,M,15.25,M,1,3335*42
$GNRMC,033008.600,A,2500.7978501,N,12132.4840550,E,0.11,317.02,090324,,,R,V*15
$GPHDT,133.435,T*36
$GNACCURACY,4.8*1A
$GNGGA,033008.700,2500.7978520,N,12132.4840527,E,4,59,0.47,16.710,M,15.25,M,1,3335*48
$GNRMC,033008.700,A,2500.7978520,N,12132.4840527,E,0.01,317.02,090324,,,R,V*16
$GPHDT,,T*1B
$GNACCURACY,4.9*1B
$GNGGA,033008.800,2500.7978510,N,12132.4840577,E,4,59,0.47,16.731,M,15.25,M,0,3335*43
$GNRMC,033008.800,A,2500.7978510,N,12132.4840577,E,0.03,317.02,090324,,,R,V*1D
$GPHDT,133.839,T*36
$GNACCURACY,4.9*1B
$GNGGA,033008.900,2500.7978504,N,12132.4840567,E,4,59,0.47,16.718,M,15.25,M,0,3335*4D
$GNRMC,033008.900,A,2500.7978504,N,12132.4840567,E,0.04,317.02,090324,,,R,V*1F
$GPHDT,,T*1B
$GNACCURACY,4.9*1B
$GNGGA,033009.000,2500.7978492,N,12132.4840559,E,4,59,0.47,16.724,M,15.25,M,1,3335*48
$GNRMC,033009.000,A,2500.7978492,N,12132.4840559,E,0.03,317.02,090324,,,R,V*13
$GPHDT,133.685,T*3F
$GNGSA,A,3,08,194,195,27,21,16,04,09,02,07,196,26,0.75,0.47,0.58,1*37
$GNGSA,A,3,31,,,,,,,,,,,,0.75,0.47,0.58,1*0F
$GNGSA,A,3,88,78,81,77,87,79,,,,,,,0.75,0.47,0.58,2*09
$GNGSA,A,3,21,13,19,27,26,15,,,,,,,0.75,0.47,0.58,3*03
$GNGSA,A,3,06,16,09,43,39,40,07,23,10,11,25,28,0.75,0.47,0.58,4*03
$GNGSA,A,3,34,,,,,,,,,,,,0.75,0.47,0.58,4*0F
$GPGSV,4,1,15,08,72,309,46,199,64,166,,194,63,047,43,195,58,123,42,1*59
$GPGSV,4,2,15,27,49,027,26,45,47,231,39,21,41,169,28,16,34,057,19,1*6F
$GPGSV,4,3,15,04,31,215,42,09,30,266,24,02,29,181,38,07,26,320,34,1*60
$GPGSV,4,4,15,196,21,173,25,26,16,085,22,31,14,138,27,1*69
$GPGSV,2,1,08,08,72,309,46,194,63,047,44,195,58,123,43,27,49,027,42,8*65
$GPGSV,2,2,08,04,31,215,43,09,30,266,26,196,21,173,28,26,16,085,30,8*51
$GLGSV,2,1,06,88,71,070,44,78,46,006,22,81,42,189,20,77,32,088,26,1*7F
$GLGSV,2,2,06,87,20,029,17,79,13,320,23,1*72
$GAGSV,2,1,07,21,51,350,32,13,50,107,40,19,36,256,19,27,33,063,34,7*71
$GAGSV,2,2,07,26,28,175,29,15,22,049,33,04,10,312,17,7*48
$GAGSV,2,1,06,21,51,350,40,13,50,107,46,19,36,256,24,27,33,063,26,1*78
$GAGSV,2,2,06,26,28,175,24,15,22,049,33,1*71
$GBGSV,4,1,13,06,81,224,42,16,78,191,41,09,75,299,43,43,73,058,45,1*79
$GBGSV,4,2,13,39,67,177,39,40,65,316,44,07,62,295,41,23,62,358,37,1*76
$GBGSV,4,3,13,10,52,277,25,11,48,045,45,25,47,098,45,28,40,208,40,1*78
$GBGSV,4,4,13,34,25,040,36,1*45
$GBGSV,2,1,07,43,73,058,45,39,67,177,35,40,65,316,44,23,62,358,41,4*79
$GBGSV,2,2,07,25,47,098,44,28,40,208,34,34,25,040,35,4*40
$GNACCURACY,4.9*1B
$PAIRSAT,1,35,2,0,201,3,0,200,4,0,221,5,0,200,6,0,200,7,0,201,8,0,221,9,0,221,10,0,200,11,0,200,12,0,200,13,0,200,14,0,200,15,0,200,16,0,201,17,0,200,18,0,200,19,0,200,20,0,200,21,0,201,22,0,200,23,0,200,24,0,200,25,0,200,26,0,221,27,0,221,28,0,200,29,0,200,30,0,200,31,0,201,32,0,200,194,0,621,195,0,621,196,0,620,199,0,600*5B
$PAIRSAT,2,23,65,0,200,66,0,200,67,0,200,68,0,200,70,0,200,71,0,200,72,0,200,73,0,200,74,0,200,75,0,200,76,0,200,77,0,201,78,0,201,79,0,201,80,0,200,81,0,201,82,0,200,83,0,200,84,0,200,85,0,200,86,0,200,87,0,201,88,0,201*5C
$PAIRSAT,3,23,2,0,1200,3,0,1200,4,0,1200,5,0,200,7,0,1200,8,0,1200,9,0,1200,10,0,1200,11,0,1200,12,0,1200,13,0,1221,15,0,1221,19,0,1221,21,0,1221,24,0,1200,25,0,1200,26,0,1221,27,0,1221,30,0,1200,31,0,1200,33,0,1200,34,0,1200,36,0,1200*6A
$PAIRSAT,4,46,1,0,200,2,0,200,3,0,600,4,0,200,5,0,200,6,0,201,7,0,201,8,0,200,9,0,201,10,0,201,11,0,201,12,0,200,13,0,200,14,0,200,16,0,201,19,0,600,20,0,600,21,0,600,22,0,600,23,0,621,24,0,600,25,0,621,26,0,600,27,0,600,28,0,621,29,0,600,30,0,600,32,0,600,33,0,600,34,0,621,35,0,600,36,0,600,37,0,600,38,0,600,39,0,621,40,0,421,41,0,600,42,0,600,43,0,621,44,0,600,45,0,600,46,0,400,59,0,400,60,0,400,61,0,400,62,0,400*4A
$PAIRDGP,8,2,4,7,8,9,16,21,27*7C
$GNGGA,033009.100,2500.7978507,N,12132.4840577,E,4,59,0.47,16.729,M,15.25,M,1,3335*45
$GNRMC,033009.100,A,2500.7978507,N,12132.4840577,E,0.03,317.02,090324,,,R,V*13
$GPHDT,,T*1B
$GNACCURACY,4.9*1B
$GNGGA,033009.200,2500.7978525,N,12132.4840541,E,4,59,0.47,16.711,M,15.25,M,1,3335*48
$GNRMC,033009.200,A,2500.7978525,N,12132.4840541,E,0.07,317.02,090324,,,R,V*11
$GPHDT,134.033,T*33
$GNACCURACY,4.9*1B
$GNGGA,033009.300,2500.7978483,N,12132.4840611,E,4,58,0.47,16.731,M,15.25,M,1,3335*41
$GNRMC,033009.300,A,2500.7978483,N,12132.4840611,E,0.04,317.02,090324,,,R,V*18
$GPHDT,,T*1B
$GNACCURACY,4.9*1B
$GNGGA,033009.400,2500.7978544,N,12132.4840555,E,4,57,0.47,16.712,M,15.25,M,1,3335*41
$GNRMC,033009.400,A,2500.7978544,N,12132.4840555,E,0.03,317.02,090324,,,R,V*11
$GPHDT,134.150,T*37
$GNACCURACY,4.9*1B
$GNGGA,033009.500,2500.7978512,N,12132.4840588,E,4,57,0.47,16.720,M,15.25,M,1,3335*42
$GNRMC,033009.500,A,2500.7978512,N,12132.4840588,E,0.13,317.02,090324,,,R,V*12
$GPHDT,,T*1B
$GNACCURACY,4.9*1B
$GNGGA,033009.600,2500.7978533,N,12132.4840549,E,4,57,0.47,16.725,M,15.25,M,0,3335*4B
$GNRMC,033009.600,A,2500.7978533,N,12132.4840549,E,0.09,317.02,090324,,,R,V*14
$GPHDT,133.895,T*30
$GNACCURACY,4.9*1B
$GNGGA,033009.700,2500.7978514,N,12132.4840551,E,4,57,0.47,16.734,M,15.25,M,0,3335*46
$GNRMC,033009.700,A,2500.7978514,N,12132.4840551,E,0.00,317.02,090324,,,R,V*10
$GPHDT,,T*1B
$GNACCURACY,4.9*1B
$GNGGA,033009.800,2500.7978507,N,12132.4840578,E,4,57,0.47,16.731,M,15.25,M,0,3335*45
$GNRMC,033009.800,A,2500.7978507,N,12132.4840578,E,0.09,317.02,090324,,,R,V*1F
$GPHDT,133.768,T*3D
$GNACCURACY,4.9*1B
$GNGGA,033009.900,2500.7978564,N,12132.4840563,E,4,57,0.47,16.702,M,15.25,M,0,3335*4B
$GNRMC,033009.900,A,2500.7978564,N,12132.4840563,E,0.06,317.02,090324,,,R,V*1E
$GPHDT,,T*1B
$GNACCURACY,4.9*1B
$GNGGA,033010.000,2500.7978578,N,12132.4840561,E,4,57,0.47,16.693,M,15.25,M,1,3335*4D
$GNRMC,033010.000,A,2500.7978578,N,12132.4840561,E,0.03,317.02,090324,,,R,V*15
$GPHDT,134.584,T*3A
$GNGSA,A,3,08,194,195,27,21,04,09,02,07,196,26,31,0.76,0.47,0.59,1*30
$GNGSA,A,3,88,78,81,77,87,79,,,,,,,0.76,0.47,0.59,2*0B
$GNGSA,A,3,21,13,19,27,26,15,,,,,,,0.76,0.47,0.59,3*01
$GNGSA,A,3,06,16,09,43,39,40,07,23,10,11,25,28,0.76,0.47,0.59,4*01
$GNGSA,A,3,34,,,,,,,,,,,,0.76,0.47,0.59,4*0D
$GPGSV,4,1,15,08,72,309,47,199,64,167,,194,63,047,43,195,58,123,42,1*59
$GPGSV,4,2,15,27,49,027,25,45,47,231,39,21,41,169,29,16,34,057,17,1*63
$GPGSV,4,3,15,04,31,215,42,09,30,266,25,02,29,181,38,07,26,320,33,1*66
$GPGSV,4,4,15,196,21,173,26,26,16,085,25,31,14,138,22,1*68
$GPGSV,2,1,08,08,72,309,46,194,63,047,44,195,58,123,43,27,49,027,42,8*65
$GPGSV,2,2,08,04,31,215,43,09,30,266,26,196,21,173,29,26,16,085,29,8*58
$GLGSV,2,1,06,88,71,070,44,78,46,006,28,81,42,189,23,77,32,088,26,1*76
$GLGSV,2,2,06,87,20,029,16,79,13,320,24,1*74
$GAGSV,2,1,07,21,51,350,34,13,50,107,40,19,36,256,20,27,33,063,33,7*7A
$GAGSV,2,2,07,26,28,175,29,15,22,049,32,04,10,312,21,7*4C
$GAGSV,2,1,05,21,51,350,40,13,50,107,46,19,36,256,24,27,33,063,28,1*75
$GAGSV,2,2,05,15,22,049,34,1*4E
$GBGSV,4,1,13,06,81,224,42,16,78,191,41,09,75,299,43,43,73,058,45,1*79
$GBGSV,4,2,13,39,67,177,39,40,65,316,43,07,62,295,41,23,62,358,35,1*73
$GBGSV,4,3,13,10,52,277,24,11,48,045,45,25,47,098,45,28,40,208,41,1*78
$GBGSV,4,4,13,34,25,040,33,1*40
$GBGSV,2,1,07,43,73,058,45,39,67,177,35,40,65,316,44,23,62,358,41,4*79
$GBGSV,2,2,07,25,47,098,44,28,40,208,34,34,25,040,32,4*47
$GNACCURACY,4.9*1B
$PAIRSAT,1,35,2,0,201,3,0,200,4,0,221,5,0,200,6,0,200,7,0,201,8,0,221,9,0,221,10,0,200,11,0,200,12,0,200,13,0,200,14,0,200,15,0,200,16,0,201,17,0,200,18,0,200,19,0,200,20,0,200,21,0,201,22,0,200,23,0,200,24,0,200,25,0,200,26,0,221,27,0,221,28,0,200,29,0,200,30,0,200,31,0,201,32,0,200,194,0,621,195,0,621,196,0,620,199,0,600*5B
$PAIRSAT,2,23,65,0,200,66,0,200,67,0,200,68,0,200,70,0,200,71,0,200,72,0,200,73,0,200,74,0,200,75,0,200,76,0,200,77,0,201,78,0,201,79,0,201,80,0,200,81,0,201,82,0,200,83,0,200,84,0,200,85,0,200,86,0,200,87,0,201,88,0,201*5C
$PAIRSAT,3,23,2,0,1200,3,0,1200,4,0,1200,5,0,200,7,0,1200,8,0,1200,9,0,1200,10,0,1200,11,0,1200,12,0,1200,13,0,1221,15,0,1221,19,0,1221,21,0,1221,24,0,1200,25,0,1200,26,0,1221,27,0,1221,30,0,1200,31,0,1200,33,0,1200,34,0,1200,36,0,1200*6A
$PAIRSAT,4,46,1,0,200,2,0,200,3,0,600,4,0,200,5,0,200,6,0,201,7,0,201,8,0,200,9,0,201,10,0,201,11,0,201,12,0,200,13,0,200,14,0,200,16,0,201,19,0,600,20,0,600,21,0,600,22,0,600,23,0,621,24,0,600,25,0,621,26,0,600,27,0,600,28,0,621,29,0,600,30,0,600,32,0,600,33,0,600,34,0,621,35,0,600,36,0,600,37,0,600,38,0,600,39,0,621,40,0,421,41,0,600,42,0,600,43,0,621,44,0,600,45,0,600,46,0,400,59,0,400,60,0,400,61,0,400,62,0,400*4A
$PAIRDGP,8,2,4,7,8,9,16,21,27*7C
$GNGGA,033010.100,2500.7978554,N,12132.4840576,E,4,57,0.47,16.697,M,15.25,M,1,3335*40
$GNRMC,033010.100,A,2500.7978554,N,12132.4840576,E,0.02,317.02,090324,,,R,V*1D
$GPHDT,,T*1B
$GNACCURACY,4.9*1B
$GNGGA,033010.200,2500.7978488,N,12132.4840591,E,4,58,0.47,16.727,M,15.25,M,1,3335*4F
$GNRMC,033010.200,A,2500.7978488,N,12132.4840591,E,0.10,317.02,090324,,,R,V*14
$GPHDT,133.781,T*3A
$GNACCURACY,4.9*1B
$GNGGA,033010.300,2500.7978512,N,12132.4840594,E,4,57,0.47,16.728,M,15.25,M,1,3335*49
$GNRMC,033010.300,A,2500.7978512,N,12132.4840594,E,0.02,317.02,090324,,,R,V*11
$GPHDT,,T*1B
$GNACCURACY,4.9*1B
$GNGGA,033010.400,2500.7978487,N,12132.4840590,E,4,57,0.47,16.737,M,15.25,M,1,3335*49
$GNRMC,033010.400,A,2500.7978487,N,12132.4840590,E,0.04,317.02,090324,,,R,V*19
$GPHDT,133.794,T*3E
$GNACCURACY,4.9*1B
$GNGGA,033010.500,2500.7978492,N,12132.4840590,E,4,57,0.47,16.732,M,15.25,M,1,3335*49
$GNRMC,033010.500,A,2500.7978492,N,12132.4840590,E,0.06,317.02,090324,,,R,V*1E
$GPHDT,,T*1B
$GNACCURACY,4.9*1B
$GNGGA,033010.600,2500.7978501,N,12132.4840563,E,4,57,0.47,16.724,M,15.25,M,1,3335*4A
$GNRMC,033010.600,A,2500.7978501,N,12132.4840563,E,0.03,317.02,090324,,,R,V*1F
$GPHDT,133.815,T*38
$GNACCURACY,4.9*1B
$GNGGA,033010.700,2500.7978491,N,12132.4840570,E,4,57,0.47,16.735,M,15.25,M,0,3335*40
$GNRMC,033010.700,A,2500.7978491,N,12132.4840570,E,0.01,317.02,090324,,,R,V*16
$GPHDT,,T*1B
$GNACCURACY,4.9*1B
$GNGGA,033010.800,2500.7978456,N,12132.4840589,E,4,57,0.47,16.748,M,15.25,M,0,3335*48
$GNRMC,033010.800,A,2500.7978456,N,12132.4840589,E,0.04,317.02,090324,,,R,V*11
$GPHDT,133.918,T*34
$GNACCURACY,5.0*13
$GNGGA,033010.900,2500.7978421,N,12132.4840576,E,4,57,0.47,16.767,M,15.25,M,0,3335*44
$GNRMC,033010.900,A,2500.7978421,N,12132.4840576,E,0.06,317.02,090324,,,R,V*12
$GPHDT,,T*1B
$GNACCURACY,5.0*13
$GNGGA,033011.000,2500.7978433,N,12132.4840551,E,4,57,0.47,16.759,M,15.25,M,1,3335*46
$GNRMC,033011.000,A,2500.7978433,N,12132.4840551,E,0.02,317.02,090324,,,R,V*18
$GPHDT,134.250,T*34
$GNGSA,A,3,08,194,195,27,21,04,09,02,07,196,26,31,0.76,0.47,0.59,1*30
$GNGSA,A,3,88,78,81,77,87,79,,,,,,,0.76,0.47,0.59,2*0B
$GNGSA,A,3,21,13,19,27,26,15,,,,,,,0.76,0.47,0.59,3*01
$GNGSA,A,3,06,16,09,43,39,40,07,23,10,11,25,28,0.76,0.47,0.59,4*01
$GNGSA,A,3,34,,,,,,,,,,,,0.76,0.47,0.59,4*0D
$GPGSV,4,1,15,08,72,309,47,199,64,167,,194,63,047,43,195,58,123,43,1*58
$GPGSV,4,2,15,27,49,027,30,45,47,231,39,21,41,169,26,16,34,057,21,1*6D
$GPGSV,4,3,15,04,31,215,42,09,30,266,21,02,29,181,39,07,26,320,34,1*64
$GPGSV,4,4,15,196,21,173,25,26,16,085,25,31,14,138,26,1*6F
$GPGSV,2,1,08,08,72,309,47,194,63,047,44,195,58,123,43,27,49,027,43,8*65
$GPGSV,2,2,08,04,31,215,44,09,30,266,27,196,21,173,30,26,16,085,28,8*57
$GLGSV,2,1,06,88,71,070,44,78,46,006,32,81,42,189,18,77,32,088,26,1*75
$GLGSV,2,2,06,87,20,029,15,79,13,320,21,1*72
$GAGSV,2,1,07,21,51,350,32,13,50,107,40,19,36,256,20,27,33,063,33,7*7C
$GAGSV,2,2,07,26,28,175,28,15,22,048,27,04,10,312,20,7*49
$GAGSV,2,1,06,21,51,350,42,13,50,107,46,19,36,256,25,27,33,063,25,1*78
$GAGSV,2,2,06,15,22,048,26,04,10,312,30,1*79
$GBGSV,4,1,13,06,81,224,42,16,78,191,42,09,75,299,43,43,73,058,45,1*7A
$GBGSV,4,2,13,39,67,177,40,40,65,316,44,07,62,295,41,23,62,358,36,1*79
$GBGSV,4,3,13,10,52,277,27,11,48,045,45,25,47,098,45,28,40,208,39,1*74
$GBGSV,4,4,13,34,25,040,34,1*47
$GBGSV,2,1,07,43,73,058,45,39,67,177,36,40,65,316,45,23,62,358,42,4*78
$GBGSV,2,2,07,25,47,098,44,28,40,208,34,34,25,040,32,4*47
$GNACCURACY,5.0*13
$PAIRSAT,1,35,2,0,201,3,0,200,4,0,221,5,0,200,6,0,200,7,0,201,8,0,221,9,0,221,10,0,200,11,0,200,12,0,200,13,0,200,14,0,200,15,0,200,16,0,201,17,0,200,18,0,200,19,0,200,20,0,200,21,0,201,22,0,200,23,0,200,24,0,200,25,0,200,26,0,221,27,0,221,28,0,200,29,0,200,30,0,200,31,0,201,32,0,200,194,0,621,195,0,621,196,0,620,199,0,600*5B
$PAIRSAT,2,23,65,0,200,66,0,200,67,0,200,68,0,200,70,0,200,71,0,200,72,0,200,73,0,200,74,0,200,75,0,200,76,0,200,77,0,201,78,0,201,79,0,201,80,0,200,81,0,201,82,0,200,83,0,200,84,0,200,85,0,200,86,0,200,87,0,201,88,0,201*5C
$PAIRSAT,3,23,2,0,1200,3,0,1200,4,0,1200,5,0,200,7,0,1200,8,0,1200,9,0,1200,10,0,1200,11,0,1200,12,0,1200,13,0,1221,15,0,1221,19,0,1221,21,0,1221,24,0,1200,25,0,1200,26,0,1221,27,0,1221,30,0,1200,31,0,1200,33,0,1200,34,0,1200,36,0,1200*6A
$PAIRSAT,4,46,1,0,200,2,0,200,3,0,600,4,0,200,5,0,200,6,0,201,7,0,201,8,0,200,9,0,201,10,0,201,11,0,201,12,0,200,13,0,200,14,0,200,16,0,201,19,0,600,20,0,600,21,0,600,22,0,600,23,0,621,24,0,600,25,0,621,26,0,600,27,0,600,28,0,621,29,0,600,30,0,600,32,0,600,33,0,600,34,0,621,35,0,600,36,0,600,37,0,600,38,0,600,39,0,621,40,0,421,41,0,600,42,0,600,43,0,621,44,0,600,45,0,600,46,0,400,59,0,400,60,0,400,61,0,400,62,0,400*4A
$PAIRDGP,8,2,4,7,8,9,16,21,27*7C
$GNGGA,033011.100,2500.7978422,N,12132.4840581,E,4,57,0.47,16.765,M,15.25,M,1,3335*45
$GNRMC,033011.100,A,2500.7978422,N,12132.4840581,E,0.02,317.02,090324,,,R,V*14
$GPHDT,,T*1B
$GNACCURACY,5.0*13
$GNGGA,033011.200,2500.7978428,N,12132.4840563,E,4,57,0.47,16.761,M,15.25,M,1,3335*44
$GNRMC,033011.200,A,2500.7978428,N,12132.4840563,E,0.02,317.02,090324,,,R,V*11
$GPHDT,133.889,T*3D
$GNACCURACY,4.9*1B
$GNGGA,033011.300,2500.7978414,N,12132.4840577,E,4,57,0.47,16.765,M,15.25,M,1,3335*4B
$GNRMC,033011.300,A,2500.7978414,N,12132.4840577,E,0.03,317.02,090324,,,R,V*1B
$GPHDT,,T*1B
$GNACCURACY,4.9*1B
$GNGGA,033011.400,2500.7978442,N,12132.4840560,E,4,57,0.47,16.756,M,15.25,M,0,3335*48
$GNRMC,033011.400,A,2500.7978442,N,12132.4840560,E,0.05,317.02,090324,,,R,V*1F
$GPHDT,134.232,T*30
$GNACCURACY,5.0*13
$GNGGA,033011.500,2500.7978422,N,12132.4840567,E,4,58,0.47,16.761,M,15.25,M,0,3335*43
$GNRMC,033011.500,A,2500.7978422,N,12132.4840567,E,0.02,317.02,090324,,,R,V*18
$GPHDT,,T*1B
$GNACCURACY,5.0*13
$GNGGA,033011.600,2500.7978437,N,12132.4840555,E,4,58,0.47,16.749,M,15.25,M,0,3335*4F
$GNRMC,033011.600,A,2500.7978437,N,12132.4840555,E,0.04,317.02,090324,,,R,V*18
$GPHDT,134.043,T*34
$GNACCURACY,5.0*13
$GNGGA,033011.700,2500.7978415,N,12132.4840579,E,4,57,0.47,16.755,M,15.25,M,0,3335*42
$GNRMC,033011.700,A,2500.7978415,N,12132.4840579,E,0.02,317.02,090324,,,R,V*11
$GPHDT,,T*1B
$GNACCURACY,5.0*13
$GNGGA,033011.800,2500.7978439,N,12132.4840580,E,4,57,0.47,16.750,M,15.25,M,0,3335*40
$GNRMC,033011.800,A,2500.7978439,N,12132.4840580,E,0.03,317.02,090324,,,R,V*17
$GPHDT,134.231,T*33
$GNACCURACY,5.0*13
$GNGGA,033011.900,2500.7978425,N,12132.4840563,E,4,57,0.47,16.752,M,15.25,M,0,3335*43
$GNRMC,033011.900,A,2500.7978425,N,12132.4840563,E,0.03,317.02,090324,,,R,V*16
$GPHDT,,T*1B
$GNACCURACY,5.0*13
$GNGGA,033012.000,2500.7978423,N,12132.4840588,E,4,57,0.47,16.762,M,15.25,M,1,3335*48
$GNRMC,033012.000,A,2500.7978423,N,12132.4840588,E,0.01,317.02,090324,,,R,V*1D
$GPHDT,134.531,T*34
$GNGSA,A,3,08,194,195,27,21,04,09,02,07,196,26,31,0.76,0.47,0.59,1*30
$GNGSA,A,3,88,78,81,77,87,79,,,,,,,0.76,0.47,0.59,2*0B
$GNGSA,A,3,21,13,19,27,26,15,,,,,,,0.76,0.47,0.59,3*01
$GNGSA,A,3,06,16,09,43,39,40,07,23,10,11,25,28,0.76,0.47,0.59,4*01
$GNGSA,A,3,34,,,,,,,,,,,,0.76,0.47,0.59,4*0D
$GPGSV,4,1,15,08,72,309,47,199,64,167,,194,63,047,43,195,58,123,43,1*58
$GPGSV,4,2,15,27,49,027,32,45,47,231,39,21,41,169,26,16,34,057,24,1*6A
$GPGSV,4,3,15,04,31,215,42,09,30,266,19,02,29,181,39,07,26,320,34,1*6F
$GPGSV,4,4,15,196,21,173,25,26,16,085,25,31,14,138,29,1*60
$GPGSV,2,1,08,08,72,309,47,194,63,047,45,195,58,123,43,27,49,027,43,8*64
$GPGSV,2,2,08,04,31,215,44,09,30,266,28,196,21,173,29,26,16,085,27,8*5F
$GLGSV,2,1,06,88,71,070,44,78,46,006,32,81,42,189,17,77,32,088,27,1*7B
$GLGSV,2,2,06,87,20,029,17,79,13,320,21,1*70
$GAGSV,2,1,07,21,51,350,30,13,50,107,40,19,36,256,19,27,33,063,31,7*76
$GAGSV,2,2,07,26,28,175,28,15,22,048,27,04,10,312,19,7*43
$GAGSV,2,1,06,21,51,350,42,13,50,107,46,19,36,256,25,27,33,063,26,1*7B
$GAGSV,2,2,06,15,22,048,22,04,10,312,29,1*75
$GBGSV,4,1,13,06,81,224,42,16,78,191,42,09,75,299,43,43,73,058,45,1*7A
$GBGSV,4,2,13,39,67,177,40,40,65,316,44,07,62,295,41,23,62,358,36,1*79
$GBGSV,4,3,13,10,52,277,29,11,48,045,45,25,47,098,45,28,40,208,39,1*7A
$GBGSV,4,4,13,34,25,040,35,1*46
$GBGSV,2,1,07,43,73,058,45,39,67,177,36,40,65,316,45,23,62,358,42,4*78
$GBGSV,2,2,07,25,47,098,44,28,40,208,34,34,25,040,32,4*47
$GNACCURACY,5.0*13
$PAIRSAT,1,35,2,0,201,3,0,200,4,0,221,5,0,200,6,0,200,7,0,201,8,0,221,9,0,221,10,0,200,11,0,200,12,0,200,13,0,200,14,0,200,15,0,200,16,0,201,17,0,200,18,0,200,19,0,200,20,0,200,21,0,201,22,0,200,23,0,200,24,0,200,25,0,200,26,0,221,27,0,221,28,0,200,29,0,200,30,0,200,31,0,201,32,0,200,194,0,621,195,0,621,196,0,620,199,0,600*5B
$PAIRSAT,2,23,65,0,200,66,0,200,67,0,200,68,0,200,70,0,200,71,0,200,72,0,200,73,0,200,74,0,200,75,0,200,76,0,200,77,0,201,78,0,201,79,0,201,80,0,200,81,0,201,82,0,200,83,0,200,84,0,200,85,0,200,86,0,200,87,0,201,88,0,201*5C
$PAIRSAT,3,23,2,0,1200,3,0,1200,4,0,1200,5,0,200,7,0,1200,8,0,1200,9,0,1200,10,0,1200,11,0,1200,12,0,1200,13,0,1221,15,0,1221,19,0,1221,21,0,1221,24,0,1200,25,0,1200,26,0,1221,27,0,1221,30,0,1200,31,0,1200,33,0,1200,34,0,1200,36,0,1200*6A
$PAIRSAT,4,46,1,0,200,2,0,200,3,0,600,4,0,200,5,0,200,6,0,201,7,0,201,8,0,200,9,0,201,10,0,201,11,0,201,12,0,200,13,0,200,14,0,200,16,0,201,19,0,600,20,0,600,21,0,600,22,0,600,23,0,621,24,0,600,25,0,621,26,0,600,27,0,600,28,0,621,29,0,600,30,0,600,32,0,600,33,0,600,34,0,621,35,0,600,36,0,600,37,0,600,38,0,600,39,0,621,40,0,421,41,0,600,42,0,600,43,0,621,44,0,600,45,0,600,46,0,400,59,0,400,60,0,400,61,0,400,62,0,400*4A
$PAIRDGP,8,2,4,7,8,9,16,21,27*7C
$GNGGA,033012.100,2500.7978436,N,12132.4840586,E,4,57,0.47,16.753,M,15.25,M,1,3335*41
$GNRMC,033012.100,A,2500.7978436,N,12132.4840586,E,0.02,317.02,090324,,,R,V*15
$GPHDT,,T*1B
$GNACCURACY,4.9*1B
$GNGGA,033012.200,2500.7978422,N,12132.4840597,E,4,57,0.47,16.746,M,15.25,M,1,3335*43
$GNRMC,033012.200,A,2500.7978422,N,12132.4840597,E,0.03,317.02,090324,,,R,V*12
$GPHDT,134.559,T*3A
$GNACCURACY,4.9*1B
$GNGGA,033012.300,2500.7978432,N,12132.4840598,E,4,57,0.47,16.754,M,15.25,M,1,3335*4F
$GNRMC,033012.300,A,2500.7978432,N,12132.4840598,E,0.02,317.02,090324,,,R,V*1C
$GPHDT,,T*1B
$GNACCURACY,4.9*1B
$GNGGA,033012.400,2500.7978488,N,12132.4840560,E,4,57,0.47,16.722,M,15.25,M,1,3335*4F
$GNRMC,033012.400,A,2500.7978488,N,12132.4840560,E,0.03,317.02,090324,,,R,V*1C
$GPHDT,133.912,T*3E
$GNACCURACY,4.9*1B
$GNGGA,033012.500,2500.7978480,N,12132.4840562,E,4,57,0.47,16.738,M,15.25,M,0,3335*4E
$GNRMC,033012.500,A,2500.7978480,N,12132.4840562,E,0.01,317.02,090324,,,R,V*15
$GPHDT,,T*1B
$GNACCURACY,4.9*1B
$GNGGA,033012.600,2500.7978494,N,12132.4840585,E,4,57,0.47,16.743,M,15.25,M,0,3335*4D
$GNRMC,033012.600,A,2500.7978494,N,12132.4840585,E,0.05,317.02,090324,,,R,V*1E
$GPHDT,134.188,T*32
$GNACCURACY,4.9*1B
$GNGGA,033012.700,2500.7978502,N,12132.4840513,E,4,58,0.47,16.728,M,15.25,M,0,3335*4F
$GNRMC,033012.700,A,2500.7978502,N,12132.4840513,E,0.04,317.02,090324,,,R,V*1F
$GPHDT,,T*1B
$GNACCURACY,4.9*1B
$GNGGA,033012.800,2500.7978483,N,12132.4840571,E,4,58,0.47,16.741,M,15.25,M,0,3335*43
$GNRMC,033012.800,A,2500.7978483,N,12132.4840571,E,0.03,317.02,090324,,,R,V*1B
$GPHDT,134.253,T*37
$GNACCURACY,4.9*1B
$GNGGA,033012.900,2500.7978473,N,12132.4840561,E,4,58,0.47,16.740,M,15.25,M,0,3335*4D
$GNRMC,033012.900,A,2500.7978473,N,12132.4840561,E,0.05,317.02,090324,,,R,V*12
$GPHDT,,T*1B
$GNACCURACY,4.9*1B
$GNGGA,033013.000,2500.7978493,N,12132.4840521,E,4,58,0.47,16.728,M,15.25,M,1,3335*40
$GNRMC,033013.000,A,2500.7978493,N,12132.4840521,E,0.03,317.02,090324,,,R,V*16
$GPHDT,133.728,T*39
$GNGSA,A,3,08,194,195,27,21,16,04,09,02,07,196,26,0.75,0.47,0.58,1*37
$GNGSA,A,3,31,,,,,,,,,,,,0.75,0.47,0.58,1*0F
$GNGSA,A,3,88,78,81,77,87,79,,,,,,,0.75,0.47,0.58,2*09
$GNGSA,A,3,21,13,19,27,26,15,,,,,,,0.75,0.47,0.58,3*03
$GNGSA,A,3,06,16,09,43,39,40,07,23,10,11,25,28,0.75,0.47,0.58,4*03
$GNGSA,A,3,34,,,,,,,,,,,,0.75,0.47,0.58,4*0F
$GPGSV,4,1,15,08,72,309,47,199,64,167,,194,63,047,43,195,58,123,43,1*58
$GPGSV,4,2,15,27,49,027,33,45,47,231,39,21,41,169,25,16,34,057,23,1*6F
$GPGSV,4,3,15,04,31,215,42,09,30,266,19,02,29,181,39,07,26,320,35,1*6E
$GPGSV,4,4,15,196,21,173,25,26,16,085,28,31,14,138,29,1*6D
$GPGSV,2,1,08,08,72,309,47,194,63,047,45,195,58,123,43,27,49,027,43,8*64
$GPGSV,2,2,08,04,31,215,44,09,30,266,28,196,21,173,28,26,16,085,27,8*5E
$GLGSV,2,1,06,88,71,070,44,78,46,006,34,81,42,189,17,77,32,088,26,1*7C
$GLGSV,2,2,06,87,20,029,19,79,13,320,22,1*7D
$GAGSV,2,1,07,21,51,350,34,13,50,107,40,19,36,256,19,27,33,063,31,7*72
$GAGSV,2,2,07,26,28,175,29,15,22,048,25,04,10,312,19,7*40
$GAGSV,2,1,07,21,51,350,42,13,50,107,46,19,36,256,25,27,33,063,28,1*74
$GAGSV,2,2,07,26,28,175,21,15,22,048,27,04,10,312,30,1*47
$GBGSV,4,1,13,06,81,224,42,16,78,191,42,09,75,299,43,43,73,058,45,1*7A
$GBGSV,4,2,13,39,67,177,40,40,65,316,44,07,62,295,41,23,62,358,36,1*79
$GBGSV,4,3,13,10,52,277,28,11,48,045,45,25,47,098,45,28,40,208,40,1*75
$GBGSV,4,4,13,34,25,040,35,1*46
$GBGSV,2,1,07,43,73,058,46,39,67,177,36,40,65,316,45,23,62,358,42,4*7B
$GBGSV,2,2,07,25,47,098,44,28,40,208,34,34,25,040,32,4*47
$GNACCURACY,4.9*1B
$PAIRSAT,1,35,2,0,201,3,0,200,4,0,221,5,0,200,6,0,200,7,0,201,8,0,221,9,0,221,10,0,200,11,0,200,12,0,200,13,0,200,14,0,200,15,0,200,16,0,201,17,0,200,18,0,200,19,0,200,20,0,200,21,0,201,22,0,200,23,0,200,24,0,200,25,0,200,26,0,221,27,0,221,28,0,200,29,0,200,30,0,200,31,0,201,32,0,200,194,0,621,195,0,621,196,0,620,199,0,600*5B
$PAIRSAT,2,23,65,0,200,66,0,200,67,0,200,68,0,200,70,0,200,71,0,200,72,0,200,73,0,200,74,0,200,75,0,200,76,0,200,77,0,201,78,0,201,79,0,201,80,0,200,81,0,201,82,0,200,83,0,200,84,0,200,85,0,200,86,0,200,87,0,201,88,0,201*5C
$PAIRSAT,3,23,2,0,1200,3,0,1200,4,0,1200,5,0,200,7,0,1200,8,0,1200,9,0,1200,10,0,1200,11,0,1200,12,0,1200,13,0,1221,15,0,1221,19,0,1221,21,0,1221,24,0,1200,25,0,1200,26,0,1221,27,0,1221,30,0,1200,31,0,1200,33,0,1200,34,0,1200,36,0,1200*6A
$PAIRSAT,4,46,1,0,200,2,0,200,3,0,600,4,0,200,5,0,200,6,0,201,7,0,201,8,0,200,9,0,201,10,0,201,11,0,201,12,0,200,13,0,200,14,0,200,16,0,201,19,0,600,20,0,600,21,0,600,22,0,600,23,0,621,24,0,600,25,0,621,26,0,600,27,0,600,28,0,621,29,0,600,30,0,600,32,0,600,33,0,600,34,0,621,35,0,600,36,0,600,37,0,600,38,0,600,39,0,621,40,0,421,41,0,600,42,0,600,43,0,621,44,0,600,45,0,600,46,0,400,59,0,400,60,0,400,61,0,400,62,0,400*4A
$PAIRDGP,8,2,4,7,8,9,16,21,27*7C
$GNGGA,033013.100,2500.7978498,N,12132.4840540,E,4,59,0.47,16.734,M,15.25,M,1,3335*41
$GNRMC,033013.100,A,2500.7978498,N,12132.4840540,E,0.02,317.02,090324,,,R,V*1A
$GPHDT,,T*1B
$GNACCURACY,4.9*1B
$GNGGA,033013.200,2500.7978474,N,12132.4840563,E,4,59,0.47,16.731,M,15.25,M,1,3335*44
$GNRMC,033013.200,A,2500.7978474,N,12132.4840563,E,0.01,317.02,090324,,,R,V*19
$GPHDT,133.681,T*3B
$GNACCURACY,4.9*1B
$GNGGA,033013.300,2500.7978494,N,12132.4840560,E,4,59,0.47,16.742,M,15.25,M,1,3335*4C
$GNRMC,033013.300,A,2500.7978494,N,12132.4840560,E,0.02,317.02,090324,,,R,V*16
$GPHDT,,T*1B
$GNACCURACY,5.0*13
$GNGGA,033013.400,2500.7978505,N,12132.4840533,E,4,59,0.47,16.736,M,15.25,M,1,3335*47
$GNRMC,033013.400,A,2500.7978505,N,12132.4840533,E,0.01,317.02,090324,,,R,V*1D
$GPHDT,133.856,T*3F
$GNACCURACY,5.0*13
$GNGGA,033013.500,2500.7978543,N,12132.4840517,E,4,59,0.47,16.735,M,15.25,M,1,3335*41
$GNRMC,033013.500,A,2500.7978543,N,12132.4840517,E,0.01,317.02,090324,,,R,V*18
$GPHDT,,T*1B
$GNACCURACY,5.0*13
$GNGGA,033013.600,2500.7978511,N,12132.4840533,E,4,59,0.47,16.733,M,15.25,M,0,3335*44
$GNRMC,033013.600,A,2500.7978511,N,12132.4840533,E,0.01,317.02,090324,,,R,V*1A
$GPHDT,133.854,T*3D
$GNACCURACY,5.0*13
$GNGGA,033013.700,2500.7978541,N,12132.4840512,E,4,59,0.47,16.726,M,15.25,M,0,3335*47
$GNRMC,033013.700,A,2500.7978541,N,12132.4840512,E,0.06,317.02,090324,,,R,V*1A
$GPHDT,,T*1B
$GNACCURACY,5.0*13
$GNGGA,033013.800,2500.7978539,N,12132.4840497,E,4,59,0.47,16.724,M,15.25,M,0,3335*49
$GNRMC,033013.800,A,2500.7978539,N,12132.4840497,E,0.05,317.02,090324,,,R,V*15
$GPHDT,133.980,T*35
$GNACCURACY,5.0*13
$GNGGA,033013.900,2500.7978503,N,12132.4840565,E,4,59,0.47,16.761,M,15.25,M,0,3335*4C
$GNRMC,033013.900,A,2500.7978503,N,12132.4840565,E,0.04,317.02,090324,,,R,V*10
$GPHDT,,T*1B
