$FW : RTK35X,V1.1X0314AS,Lib20210517,1*54
$Tool : LOCOSYS , GNSS Firebird , v1.0.0.19*39
$---------------------------------------------------*2D
9,34,04,10,312,17,7*42
$GAGSV,2,1,06,21,51,350,42,13,50,107,36,19,36,256,20,27,33,063,32,1*7C
$GAGSV,2,2,06,26,28,175,30,15,22,049,32,1*75
$GBGSV,4,1,14,06,81,224,40,16,78,191,42,09,75,299,43,43,73,059,44,1*7F
$GBGSV,4,2,14,39,67,177,39,40,65,316,45,07,63,295,41,23,62,357,36,1*7F
$GBGSV,4,3,14,10,52,277,21,11,48,045,46,25,47,097,46,28,40,208,38,1*7B
$GBGSV,4,4,14,34,25,040,37,41,03,207,,1*70
$GBGSV,2,1,07,43,73,059,44,39,67,177,36,40,65,316,44,23,62,357,43,4*77
$GBGSV,2,2,07,25,47,097,41,28,40,208,39,34,25,040,37,4*45
$GNACCURACY,4.3*11
$PAIRSAT,1,35,2,0,201,3,0,200,4,0,221,5,0,200,6,0,200,7,0,201,8,0,221,9,0,221,10,0,200,11,0,200,12,0,200,13,0,200,14,0,200,15,0,200,16,0,201,17,0,200,18,0,200,19,0,200,20,0,200,21,0,201,22,0,200,23,0,200,24,0,200,25,0,200,26,0,221,27,0,221,28,0,200,29,0,200,30,0,200,31,0,201,32,0,200,194,0,621,195,0,621,196,0,620,199,0,600*5B
$PAIRSAT,2,23,65,0,200,66,0,200,67,0,200,68,0,200,70,0,200,71,0,200,72,0,200,73,0,200,74,0,200,75,0,200,76,0,200,77,0,201,78,0,201,79,0,201,80,0,200,81,0,201,82,0,200,83,0,200,84,0,200,85,0,200,86,0,200,87,0,201,88,0,201*5C
$PAIRSAT,3,23,2,0,1200,3,0,1200,4,0,1200,5,0,200,7,0,1200,8,0,1200,9,0,1200,10,0,1200,11,0,1200,12,0,1200,13,0,1221,15,0,1221,19,0,1221,21,0,1221,24,0,1200,25,0,1200,26,0,1221,27,0,1221,30,0,1200,31,0,1200,33,0,1200,34,0,1200,36,0,1200*6A
$PAIRSAT,4,46,1,0,200,2,0,200,3,0,600,4,0,200,5,0,200,6,0,201,7,0,201,8,0,200,9,0,201,10,0,201,11,0,201,12,0,200,13,0,200,14,0,200,16,0,201,19,0,600,20,0,600,21,0,600,22,0,600,23,0,621,24,0,600,25,0,621,26,0,600,27,0,600,28,0,621,29,0,600,30,0,600,32,0,600,33,0,600,34,0,621,35,0,600,36,0,600,37,0,600,38,0,600,39,0,621,40,0,421,41,0,600,42,0,600,43,0,621,44,0,600,45,0,400,46,0,400,59,0,400,60,0,400,61,0,400,62,0,400*48
$PAIRDGP,4,2,7,16,21*40
$GNGGA,032943.100,2500.7978587,N,12132.4840512,E,4,58,0.48,16.745,M,15.25,M,1,3335*4C
$GNRMC,032943.100,A,2500.7978587,N,12132.4840512,E,0.01,317.02,090324,,,R,V*1C
$GPHDT,,T*1B
$GNACCURACY,4.4*16
$GNGGA,032943.200,2500.7978569,N,12132.4840552,E,4,58,0.48,16.748,M,15.25,M,1,3335*46
$GNRMC,032943.200,A,2500.7978569,N,12132.4840552,E,0.03,317.02,090324,,,R,V*19
$GPHDT,228.844,T*35
$GNACCURACY,4.3*11
$GNGGA,032943.300,2500.7978581,N,12132.4840545,E,4,58,0.48,16.748,M,15.25,M,1,3335*47
$GNRMC,032943.300,A,2500.7978581,N,12132.4840545,E,0.02,317.02,090324,,,R,V*19
$GPHDT,,T*1B
$GNACCURACY,4.3*11
$GNGGA,032943.400,2500.7978617,N,12132.4840467,E,4,58,0.48,16.732,M,15.25,M,1,3335*40
$GNRMC,032943.400,A,2500.7978617,N,12132.4840467,E,0.11,317.02,090324,,,R,V*11
$GPHDT,228.955,T*34
$GNACCURACY,4.4*16
$GNGGA,032943.500,2500.7978644,N,12132.4840422,E,4,58,0.48,16.716,M,15.25,M,1,3335*40
$GNRMC,032943.500,A,2500.7978644,N,12132.4840422,E,0.06,317.02,090324,,,R,V*11
$GPHDT,,T*1B
$GNACCURACY,4.3*11
$GNGGA,032943.600,2500.7978597,N,12132.4840501,E,4,58,0.48,16.742,M,15.25,M,1,3335*4F
$GNRMC,032943.600,A,2500.7978597,N,12132.4840501,E,0.02,317.02,090324,,,R,V*1B
$GPHDT,228.623,T*3A
$GNACCURACY,4.4*16
$GNGGA,032943.700,2500.7978568,N,12132.4840503,E,4,58,0.48,16.751,M,15.25,M,1,3335*4E
$GNRMC,032943.700,A,2500.7978568,N,12132.4840503,E,0.05,317.02,090324,,,R,V*1F
$GPHDT,,T*1B
$GNACCURACY,4.4*16
$GNGGA,032943.800,2500.7978614,N,12132.4840514,E,4,58,0.48,16.744,M,15.25,M,0,3335*4A
$GNRMC,032943.800,A,2500.7978614,N,12132.4840514,E,0.03,317.02,090324,,,R,V*18
$GPHDT,228.674,T*38
$GNACCURACY,4.4*16
$GNGGA,032943.900,2500.7978608,N,12132.4840505,E,4,58,0.48,16.749,M,15.25,M,0,3335*4B
$GNRMC,032943.900,A,2500.7978608,N,12132.4840505,E,0.12,317.02,090324,,,R,V*14
$GPHDT,,T*1B
$GNACCURACY,4.4*16
$GNGGA,032944.000,2500.7978602,N,12132.4840496,E,4,58,0.48,16.746,M,15.25,M,1,3335*4A
$GNRMC,032944.000,A,2500.7978602,N,12132.4840496,E,0.01,317.02,090324,,,R,V*19
$GPHDT,228.709,T*33
$GNGSA,A,3,08,194,195,27,21,16,04,09,02,07,196,26,0.88,0.48,0.74,1*34
$GNGSA,A,3,31,,,,,,,,,,,,0.88,0.48,0.74,1*0C
$GNGSA,A,3,88,78,81,77,79,,,,,,,,0.88,0.48,0.74,2*05
$GNGSA,A,3,21,13,19,27,26,15,,,,,,,0.88,0.48,0.74,3*00
$GNGSA,A,3,06,16,09,43,39,40,07,23,10,11,25,28,0.88,0.48,0.74,4*00
$GNGSA,A,3,34,,,,,,,,,,,,0.88,0.48,0.74,4*0C
$GPGSV,4,1,15,08,72,308,48,199,64,166,,194,63,046,43,195,58,123,42,1*57
$GPGSV,4,2,15,27,49,027,28,45,47,231,29,21,40,169,29,16,35,056,32,1*69
$GPGSV,4,3,15,04,31,216,40,09,30,266,21,02,29,181,37,07,26,320,36,1*69
$GPGSV,4,4,15,196,21,173,32,26,16,084,13,31,14,137,20,1*64
$GPGSV,2,1,08,08,72,308,48,194,63,046,45,195,58,123,42,27,49,027,42,8*6B
$GPGSV,2,2,08,04,31,216,43,09,30,266,24,196,21,173,24,26,16,084,20,8*5C
$GLGSV,2,1,06,88,71,071,44,78,46,006,34,81,42,189,29,77,32,088,24,1*72
$GLGSV,2,2,06,87,20,029,14,79,12,320,23,1*70
$GAGSV,2,1,07,21,51,350,29,13,50,107,40,19,36,256,24,27,33,063,19,7*7A
$GAGSV,2,2,07,26,28,175,22,15,22,049,34,04,10,312,19,7*4A
$GAGSV,2,1,06,21,51,350,42,13,50,107,35,19,36,256,21,27,33,063,30,1*7C
$GAGSV,2,2,06,26,28,175,30,15,22,049,34,1*73
$GBGSV,4,1,13,06,81,224,41,16,78,191,42,09,75,299,43,43,73,059,43,1*7E
$GBGSV,4,2,13,39,67,177,38,40,65,316,46,07,63,295,41,23,62,357,37,1*7B
$GBGSV,4,3,13,10,52,277,20,11,48,045,46,25,47,097,47,28,40,208,39,1*7D
$GBGSV,4,4,13,34,25,040,37,1*44
$GBGSV,2,1,07,43,73,059,44,39,67,177,36,40,65,316,43,23,62,357,43,4*70
$GBGSV,2,2,07,25,47,097,41,28,40,208,40,34,25,040,37,4*4B
$GNACCURACY,4.4*16
$PAIRSAT,1,35,2,0,201,3,0,200,4,0,221,5,0,200,6,0,200,7,0,201,8,0,221,9,0,221,10,0,200,11,0,200,12,0,200,13,0,200,14,0,200,15,0,200,16,0,201,17,0,200,18,0,200,19,0,200,20,0,200,21,0,201,22,0,200,23,0,200,24,0,200,25,0,200,26,0,221,27,0,221,28,0,200,29,0,200,30,0,200,31,0,201,32,0,200,194,0,621,195,0,621,196,0,620,199,0,600*5B
$PAIRSAT,2,23,65,0,200,66,0,200,67,0,200,68,0,200,70,0,200,71,0,200,72,0,200,73,0,200,74,0,200,75,0,200,76,0,200,77,0,201,78,0,201,79,0,201,80,0,200,81,0,201,82,0,200,83,0,200,84,0,200,85,0,200,86,0,200,87,0,201,88,0,201*5C
$PAIRSAT,3,23,2,0,1200,3,0,1200,4,0,1200,5,0,200,7,0,1200,8,0,1200,9,0,1200,10,0,1200,11,0,1200,12,0,1200,13,0,1221,15,0,1221,19,0,1221,21,0,1221,24,0,1200,25,0,1200,26,0,1221,27,0,1221,30,0,1200,31,0,1200,33,0,1200,34,0,1200,36,0,1200*6A
$PAIRSAT,4,46,1,0,200,2,0,200,3,0,600,4,0,200,5,0,200,6,0,201,7,0,201,8,0,200,9,0,201,10,0,201,11,0,201,12,0,200,13,0,200,14,0,200,16,0,201,19,0,600,20,0,600,21,0,600,22,0,600,23,0,621,24,0,600,25,0,621,26,0,600,27,0,600,28,0,621,29,0,600,30,0,600,32,0,600,33,0,600,34,0,621,35,0,600,36,0,600,37,0,600,38,0,600,39,0,621,40,0,421,41,0,600,42,0,600,43,0,621,44,0,600,45,0,400,46,0,400,59,0,400,60,0,400,61,0,400,62,0,400*48
$PAIRDGP,4,2,7,16,21*40
$GNGGA,032944.100,2500.7978610,N,12132.4840491,E,4,58,0.48,16.747,M,15.25,M,1,3335*4E
$GNRMC,032944.100,A,2500.7978610,N,12132.4840491,E,0.02,317.02,090324,,,R,V*1F
$GPHDT,,T*1B
$GNACCURACY,4.3*11
$GNGGA,032944.200,2500.7978552,N,12132.4840500,E,4,58,0.48,16.765,M,15.25,M,1,3335*41
$GNRMC,032944.200,A,2500.7978552,N,12132.4840500,E,0.01,317.02,090324,,,R,V*13
$GPHDT,228.566,T*38
$GNACCURACY,4.3*11
$GNGGA,032944.300,2500.7978602,N,12132.4840493,E,4,58,0.48,16.747,M,15.25,M,1,3335*4D
$GNRMC,032944.300,A,2500.7978602,N,12132.4840493,E,0.01,317.02,090324,,,R,V*1F
$GPHDT,,T*1B
$GNACCURACY,4.3*11
$GNGGA,032944.400,2500.7978597,N,12132.4840517,E,4,58,0.48,16.753,M,15.25,M,1,3335*4D
$GNRMC,032944.400,A,2500.7978597,N,12132.4840517,E,0.02,317.02,090324,,,R,V*19
$GPHDT,228.799,T*3A
$GNACCURACY,4.3*11
$GNGGA,032944.500,2500.7978601,N,12132.4840532,E,4,58,0.48,16.740,M,15.25,M,1,3335*45
$GNRMC,032944.500,A,2500.7978601,N,12132.4840532,E,0.02,317.02,090324,,,R,V*13
$GPHDT,,T*1B
$GNACCURACY,4.3*11
$GNGGA,032944.600,2500.7978579,N,12132.4840521,E,4,58,0.48,16.750,M,15.25,M,0,3335*48
$GNRMC,032944.600,A,2500.7978579,N,12132.4840521,E,0.01,317.02,090324,,,R,V*1D
$GPHDT,228.326,T*3A
$GNACCURACY,4.3*11
$GNGGA,032944.700,2500.7978607,N,12132.4840542,E,4,58,0.48,16.745,M,15.25,M,0,3335*42
$GNRMC,032944.700,A,2500.7978607,N,12132.4840542,E,0.02,317.02,090324,,,R,V*10
$GPHDT,,T*1B
$GNACCURACY,4.3*11
$GNGGA,032944.800,2500.7978607,N,12132.4840525,E,4,58,0.48,16.737,M,15.25,M,0,3335*49
$GNRMC,032944.800,A,2500.7978607,N,12132.4840525,E,0.03,317.02,090324,,,R,V*1F
$GPHDT,228.249,T*32
$GNACCURACY,4.3*11
$GNGGA,032944.900,2500.7978610,N,12132.4840536,E,4,58,0.48,16.738,M,15.25,M,0,3335*43
$GNRMC,032944.900,A,2500.7978610,N,12132.4840536,E,0.03,317.02,090324,,,R,V*1A
$GPHDT,,T*1B
$GNACCURACY,4.3*11
$GNGGA,032945.000,2500.7978588,N,12132.4840543,E,4,58,0.48,16.738,M,15.25,M,1,3335*4A
$GNRMC,032945.000,A,2500.7978588,N,12132.4840543,E,0.04,317.02,090324,,,R,V*15
$GPHDT,228.627,T*3E
$GNGSA,A,3,08,194,195,27,21,16,04,09,02,07,196,31,0.88,0.48,0.74,1*32
$GNGSA,A,3,26,,,,,,,,,,,,0.88,0.48,0.74,1*0A
$GNGSA,A,3,88,78,81,77,79,,,,,,,,0.88,0.48,0.74,2*05
$GNGSA,A,3,21,13,19,27,26,15,,,,,,,0.88,0.48,0.74,3*00
$GNGSA,A,3,06,16,09,43,39,40,07,23,10,11,25,28,0.88,0.48,0.74,4*00
$GNGSA,A,3,34,,,,,,,,,,,,0.88,0.48,0.74,4*0C
$GPGSV,4,1,15,08,72,308,47,199,64,166,,194,63,046,44,195,58,123,42,1*5F
$GPGSV,4,2,15,27,49,027,31,45,47,231,28,21,40,169,25,16,35,056,33,1*6D
$GPGSV,4,3,15,04,31,216,39,09,30,266,22,02,29,181,38,07,26,320,35,1*68
$GPGSV,4,4,15,196,21,173,34,26,16,084,16,31,14,137,17,1*63
$GPGSV,2,1,08,08,72,308,48,194,63,046,44,195,58,123,42,27,49,027,41,8*69
$GPGSV,2,2,08,04,31,216,44,09,30,266,29,196,21,173,21,26,16,084,21,8*52
$GLGSV,2,1,06,88,71,071,43,78,46,006,34,81,42,189,29,77,32,088,24,1*75
$GLGSV,2,2,06,87,20,029,16,79,12,320,21,1*70
$GAGSV,2,1,07,21,51,350,32,13,50,107,36,19,36,256,24,27,33,063,19,7*71
$GAGSV,2,2,07,26,28,175,26,15,22,049,34,04,10,312,21,7*45
$GAGSV,2,1,06,21,51,350,42,13,50,107,34,19,36,256,20,27,33,063,26,1*7B
$GAGSV,2,2,06,26,28,175,31,15,22,049,32,1*74
$GBGSV,4,1,13,06,81,224,41,16,78,191,42,09,75,299,43,43,73,059,43,1*7E
$GBGSV,4,2,13,39,67,177,38,40,65,316,46,07,63,295,41,23,62,357,37,1*7B
$GBGSV,4,3,13,10,52,277,17,11,48,045,46,25,47,097,47,28,40,208,40,1*77
$GBGSV,4,4,13,34,25,040,35,1*46
$GBGSV,2,1,07,43,73,059,45,39,67,177,36,40,65,316,43,23,62,357,43,4*71
$GBGSV,2,2,07,25,47,097,40,28,40,208,40,34,25,040,34,4*49
$GNACCURACY,4.3*11
$PAIRSAT,1,35,2,0,201,3,0,200,4,0,221,5,0,200,6,0,200,7,0,201,8,0,221,9,0,221,10,0,200,11,0,200,12,0,200,13,0,200,14,0,200,15,0,200,16,0,201,17,0,200,18,0,200,19,0,200,20,0,200,21,0,201,22,0,200,23,0,200,24,0,200,25,0,200,26,0,221,27,0,221,28,0,200,29,0,200,30,0,200,31,0,201,32,0,200,194,0,621,195,0,621,196,0,620,199,0,600*5B
$PAIRSAT,2,23,65,0,200,66,0,200,67,0,200,68,0,200,70,0,200,71,0,200,72,0,200,73,0,200,74,0,200,75,0,200,76,0,200,77,0,201,78,0,201,79,0,201,80,0,200,81,0,201,82,0,200,83,0,200,84,0,200,85,0,200,86,0,200,87,0,201,88,0,201*5C
$PAIRSAT,3,23,2,0,1200,3,0,1200,4,0,1200,5,0,200,7,0,1200,8,0,1200,9,0,1200,10,0,1200,11,0,1200,12,0,1200,13,0,1221,15,0,1221,19,0,1221,21,0,1221,24,0,1200,25,0,1200,26,0,1221,27,0,1221,30,0,1200,31,0,1200,33,0,1200,34,0,1200,36,0,1200*6A
$PAIRSAT,4,46,1,0,200,2,0,200,3,0,600,4,0,200,5,0,200,6,0,201,7,0,201,8,0,200,9,0,201,10,0,201,11,0,201,12,0,200,13,0,200,14,0,200,16,0,201,19,0,600,20,0,600,21,0,600,22,0,600,23,0,621,24,0,600,25,0,621,26,0,600,27,0,600,28,0,621,29,0,600,30,0,600,32,0,600,33,0,600,34,0,621,35,0,600,36,0,600,37,0,600,38,0,600,39,0,621,40,0,421,41,0,600,42,0,600,43,0,621,44,0,600,45,0,400,46,0,400,59,0,400,60,0,400,61,0,400,62,0,400*48
$PAIRDGP,4,2,7,16,21*40
$GNGGA,032945.100,2500.7978569,N,12132.4840541,E,4,57,0.48,16.745,M,15.25,M,1,3335*43
$GNRMC,032945.100,A,2500.7978569,N,12132.4840541,E,0.05,317.02,090324,,,R,V*18
$GPHDT,,T*1B
$GNACCURACY,4.3*11
$GNGGA,032945.200,2500.7978593,N,12132.4840520,E,4,57,0.48,16.721,M,15.25,M,1,3335*40
$GNRMC,032945.200,A,2500.7978593,N,12132.4840520,E,0.05,317.02,090324,,,R,V*19
$GPHDT,228.174,T*3F
$GNACCURACY,4.3*11
$GNGGA,032945.300,2500.7978599,N,12132.4840500,E,4,57,0.48,16.725,M,15.25,M,1,3335*4D
$GNRMC,032945.300,A,2500.7978599,N,12132.4840500,E,0.05,317.02,090324,,,R,V*10
$GPHDT,,T*1B
$GNACCURACY,4.3*11
$GNGGA,032945.400,2500.7978594,N,12132.4840483,E,4,57,0.48,16.713,M,15.25,M,1,3335*48
$GNRMC,032945.400,A,2500.7978594,N,12132.4840483,E,0.06,317.02,090324,,,R,V*13
$GPHDT,227.938,T*30
$GNACCURACY,4.3*11
$GNGGA,032945.500,2500.7978551,N,12132.4840490,E,4,57,0.48,16.736,M,15.25,M,1,3335*45
$GNRMC,032945.500,A,2500.7978551,N,12132.4840490,E,0.02,317.02,090324,,,R,V*1D
$GPHDT,,T*1B
$GNACCURACY,4.3*11
$GNGGA,032945.600,2500.7978563,N,12132.4840452,E,4,57,0.48,16.730,M,15.25,M,0,3335*4E
$GNRMC,032945.600,A,2500.7978563,N,12132.4840452,E,0.01,317.02,090324,,,R,V*12
$GPHDT,228.474,T*3A
$GNACCURACY,4.3*11
$GNGGA,032945.700,2500.7978564,N,12132.4840441,E,4,56,0.49,16.724,M,15.25,M,0,3335*4F
$GNRMC,032945.700,A,2500.7978564,N,12132.4840441,E,0.02,317.02,090324,,,R,V*15
$GPHDT,,T*1B
$GNACCURACY,4.3*11
$GNGGA,032945.800,2500.7978569,N,12132.4840431,E,4,56,0.49,16.726,M,15.25,M,0,3335*48
$GNRMC,032945.800,A,2500.7978569,N,12132.4840431,E,0.08,317.02,090324,,,R,V*1A
$GPHDT,228.243,T*38
$GNACCURACY,4.4*16
$GNGGA,032945.900,2500.7978613,N,12132.4840444,E,4,56,0.49,16.720,M,15.25,M,0,3335*43
$GNRMC,032945.900,A,2500.7978613,N,12132.4840444,E,0.08,317.02,090324,,,R,V*17
$GPHDT,,T*1B
$GNACCURACY,4.4*16
$GNGGA,032946.000,2500.7978580,N,12132.4840440,E,4,56,0.49,16.727,M,15.25,M,1,3335*42
$GNRMC,032946.000,A,2500.7978580,N,12132.4840440,E,0.03,317.02,090324,,,R,V*1B
$GPHDT,227.832,T*3B
$GNGSA,A,3,08,194,195,27,21,16,04,09,02,07,196,31,0.88,0.48,0.74,1*32
$GNGSA,A,3,26,,,,,,,,,,,,0.88,0.48,0.74,1*0A
$GNGSA,A,3,88,78,81,77,79,,,,,,,,0.88,0.48,0.74,2*05
$GNGSA,A,3,21,13,19,27,26,15,,,,,,,0.88,0.48,0.74,3*00
$GNGSA,A,3,06,16,09,43,39,40,07,23,10,11,25,28,0.88,0.48,0.74,4*00
$GNGSA,A,3,34,,,,,,,,,,,,0.88,0.48,0.74,4*0C
$GPGSV,4,1,15,08,72,308,47,199,64,166,,194,63,046,44,195,58,123,43,1*5E
$GPGSV,4,2,15,27,49,027,31,45,47,231,27,21,40,169,22,16,35,056,31,1*67
$GPGSV,4,3,15,04,31,216,40,09,30,266,19,02,29,181,38,07,26,320,31,1*6A
$GPGSV,4,4,15,196,21,173,35,26,16,084,15,31,14,137,18,1*6E
$GPGSV,2,1,08,08,72,308,48,194,63,046,44,195,58,123,42,27,49,027,42,8*6A
$GPGSV,2,2,08,04,31,216,44,09,30,266,29,196,21,173,26,26,16,084,24,8*50
$GLGSV,2,1,06,88,71,071,44,78,46,006,36,81,42,189,30,77,32,088,21,1*7D
$GLGSV,2,2,06,87,20,029,17,79,12,320,20,1*70
$GAGSV,2,1,07,21,51,350,35,13,50,107,35,19,36,256,25,27,33,063,22,7*7C
$GAGSV,2,2,07,26,28,175,25,15,22,049,33,04,10,312,19,7*4A
$GAGSV,2,1,06,21,51,350,42,13,50,107,38,19,36,256,22,27,33,063,25,1*76
$GAGSV,2,2,06,26,28,175,32,15,22,049,36,1*73
$GBGSV,4,1,13,06,81,224,41,16,78,191,42,09,75,299,44,43,73,059,44,1*7E
$GBGSV,4,2,13,39,67,177,38,40,65,316,46,07,63,295,42,23,62,357,37,1*78
$GBGSV,4,3,13,10,52,277,14,11,48,045,46,25,47,097,39,28,40,208,40,1*7D
$GBGSV,4,4,13,34,25,040,35,1*46
$GBGSV,2,1,07,43,73,059,46,39,67,177,35,40,65,316,44,23,62,357,43,4*76
$GBGSV,2,2,07,25,47,097,38,28,40,208,40,34,25,040,36,4*44
$GNACCURACY,4.4*16
$PAIRSAT,1,35,2,0,201,3,0,200,4,0,221,5,0,200,6,0,200,7,0,201,8,0,221,9,0,221,10,0,200,11,0,200,12,0,200,13,0,200,14,0,200,15,0,200,16,0,201,17,0,200,18,0,200,19,0,200,20,0,200,21,0,201,22,0,200,23,0,200,24,0,200,25,0,200,26,0,221,27,0,221,28,0,200,29,0,200,30,0,200,31,0,201,32,0,200,194,0,621,195,0,621,196,0,620,199,0,600*5B
$PAIRSAT,2,23,65,0,200,66,0,200,67,0,200,68,0,200,70,0,200,71,0,200,72,0,200,73,0,200,74,0,200,75,0,200,76,0,200,77,0,201,78,0,201,79,0,201,80,0,200,81,0,201,82,0,200,83,0,200,84,0,200,85,0,200,86,0,200,87,0,201,88,0,201*5C
$PAIRSAT,3,23,2,0,1200,3,0,1200,4,0,1200,5,0,200,7,0,1200,8,0,1200,9,0,1200,10,0,1200,11,0,1200,12,0,1200,13,0,1221,15,0,1221,19,0,1221,21,0,1221,24,0,1200,25,0,1200,26,0,1221,27,0,1221,30,0,1200,31,0,1200,33,0,1200,34,0,1200,36,0,1200*6A
$PAIRSAT,4,46,1,0,200,2,0,200,3,0,600,4,0,200,5,0,200,6,0,201,7,0,201,8,0,200,9,0,201,10,0,201,11,0,201,12,0,200,13,0,200,14,0,200,16,0,201,19,0,600,20,0,600,21,0,600,22,0,600,23,0,621,24,0,600,25,0,621,26,0,600,27,0,600,28,0,621,29,0,600,30,0,600,32,0,600,33,0,600,34,0,621,35,0,600,36,0,600,37,0,600,38,0,600,39,0,621,40,0,421,41,0,600,42,0,600,43,0,621,44,0,600,45,0,400,46,0,400,59,0,400,60,0,400,61,0,400,62,0,400*48
$PAIRDGP,4,2,7,16,21*40
$GNGGA,032946.100,2500.7978602,N,12132.4840448,E,4,57,0.48,16.718,M,15.25,M,1,3335*4E
$GNRMC,032946.100,A,2500.7978602,N,12132.4840448,E,0.05,317.02,090324,,,R,V*1D
$GPHDT,,T*1B
$GNACCURACY,4.4*16
$GNGGA,032946.200,2500.7978589,N,12132.4840444,E,4,57,0.48,16.731,M,15.25,M,1,3335*4A
$GNRMC,032946.200,A,2500.7978589,N,12132.4840444,E,0.05,317.02,090324,,,R,V*12
$GPHDT,227.689,T*35
$GNACCURACY,4.5*17
$GNGGA,032946.300,2500.7978601,N,12132.4840438,E,4,58,0.47,16.726,M,15.25,M,1,3335*45
$GNRMC,032946.300,A,2500.7978601,N,12132.4840438,E,0.04,317.02,090324,,,R,V*1A
$GPHDT,,T*1B
$GNACCURACY,4.5*17
$GNGGA,032946.400,2500.7978594,N,12132.4840449,E,4,57,0.48,16.716,M,15.25,M,1,3335*48
$GNRMC,032946.400,A,2500.7978594,N,12132.4840449,E,0.02,317.02,090324,,,R,V*12
$GPHDT,228.345,T*3F
$GNACCURACY,4.5*17
$GNGGA,032946.500,2500.7978567,N,12132.4840457,E,4,56,0.48,16.720,M,15.25,M,0,3335*4F
$GNRMC,032946.500,A,2500.7978567,N,12132.4840457,E,0.03,317.02,090324,,,R,V*11
$GPHDT,,T*1B
$GNACCURACY,4.5*17
$GNGGA,032946.600,2500.7978574,N,12132.4840471,E,4,55,0.49,16.725,M,15.25,M,0,3335*4D
$GNRMC,032946.600,A,2500.7978574,N,12132.4840471,E,0.02,317.02,090324,,,R,V*15
$GPHDT,228.479,T*37
$GNACCURACY,4.5*17
$GNGGA,032946.700,2500.7978574,N,12132.4840446,E,4,55,0.49,16.726,M,15.25,M,0,3335*4B
$GNRMC,032946.700,A,2500.7978574,N,12132.4840446,E,0.02,317.02,090324,,,R,V*10
$GPHDT,,T*1B
$GNACCURACY,4.5*17
$GNGGA,032946.800,2500.7978564,N,12132.4840477,E,4,56,0.48,16.723,M,15.25,M,0,3335*40
$GNRMC,032946.800,A,2500.7978564,N,12132.4840477,E,0.09,317.02,090324,,,R,V*17
$GPHDT,228.611,T*3B
$GNACCURACY,4.5*17
$GNGGA,032946.900,2500.7978583,N,12132.4840466,E,4,56,0.48,16.727,M,15.25,M,0,3335*4C
$GNRMC,032946.900,A,2500.7978583,N,12132.4840466,E,0.10,317.02,090324,,,R,V*17
$GPHDT,,T*1B
$GNACCURACY,4.5*17
$GNGGA,032947.000,2500.7978561,N,12132.4840464,E,4,56,0.48,16.723,M,15.25,M,1,3335*4F
$GNRMC,032947.000,A,2500.7978561,N,12132.4840464,E,0.01,317.02,090324,,,R,V*11
$GPHDT,228.910,T*35
$GNGSA,A,3,08,194,195,27,21,16,04,02,07,196,31,09,0.87,0.48,0.72,1*3B
$GNGSA,A,3,26,,,,,,,,,,,,0.87,0.48,0.72,1*03
$GNGSA,A,3,88,78,81,77,87,79,,,,,,,0.87,0.48,0.72,2*03
$GNGSA,A,3,21,13,19,27,26,15,,,,,,,0.87,0.48,0.72,3*09
$GNGSA,A,3,06,16,09,43,39,40,07,23,11,25,28,34,0.87,0.48,0.72,4*0F
$GPGSV,4,1,15,08,72,308,47,199,64,166,,194,63,046,44,195,58,123,43,1*5E
$GPGSV,4,2,15,27,49,027,32,45,47,231,27,21,40,169,30,16,35,056,28,1*6F
$GPGSV,4,3,15,04,31,216,40,09,30,266,20,02,29,181,38,07,26,320,31,1*60
$GPGSV,4,4,15,196,21,173,32,26,16,084,17,31,14,137,18,1*6B
$GPGSV,2,1,08,08,72,308,48,194,63,046,44,195,58,123,42,27,49,027,42,8*6A
$GPGSV,2,2,08,04,31,216,44,09,30,266,30,196,21,173,25,26,16,084,25,8*5A
$GLGSV,2,1,06,88,71,071,44,78,46,006,35,81,42,189,28,77,32,088,22,1*74
$GLGSV,2,2,06,87,20,029,17,79,12,320,20,1*70
$GAGSV,2,1,07,21,51,350,32,13,50,107,35,19,36,256,25,27,33,063,24,7*7D
$GAGSV,2,2,07,26,28,175,27,15,22,049,34,04,10,312,18,7*4E
$GAGSV,2,1,06,21,51,350,43,13,50,107,38,19,36,256,23,27,33,063,25,1*76
$GAGSV,2,2,06,26,28,175,32,15,22,049,36,1*73
$GBGSV,4,1,13,06,81,224,41,16,78,191,42,09,75,299,44,43,73,059,44,1*7E
$GBGSV,4,2,13,39,67,177,38,40,65,316,46,07,63,295,42,23,62,357,38,1*77
$GBGSV,4,3,13,10,52,277,15,11,48,045,46,25,47,097,39,28,40,208,40,1*7C
$GBGSV,4,4,13,34,25,040,37,1*44
$GBGSV,2,1,07,43,73,059,46,39,67,177,35,40,65,316,44,23,62,357,43,4*76
$GBGSV,2,2,07,25,47,097,38,28,40,208,40,34,25,040,37,4*45
$GNACCURACY,4.5*17
$PAIRSAT,1,35,2,0,201,3,0,200,4,0,221,5,0,200,6,0,200,7,0,201,8,0,221,9,0,221,10,0,200,11,0,200,12,0,200,13,0,200,14,0,200,15,0,200,16,0,201,17,0,200,18,0,200,19,0,200,20,0,200,21,0,201,22,0,200,23,0,200,24,0,200,25,0,200,26,0,221,27,0,221,28,0,200,29,0,200,30,0,200,31,0,201,32,0,200,194,0,621,195,0,621,196,0,620,199,0,600*5B
$PAIRSAT,2,23,65,0,200,66,0,200,67,0,200,68,0,200,70,0,200,71,0,200,72,0,200,73,0,200,74,0,200,75,0,200,76,0,200,77,0,201,78,0,201,79,0,201,80,0,200,81,0,201,82,0,200,83,0,200,84,0,200,85,0,200,86,0,200,87,0,201,88,0,201*5C
$PAIRSAT,3,23,2,0,1200,3,0,1200,4,0,1200,5,0,200,7,0,1200,8,0,1200,9,0,1200,10,0,1200,11,0,1200,12,0,1200,13,0,1221,15,0,1221,19,0,1221,21,0,1221,24,0,1200,25,0,1200,26,0,1221,27,0,1221,30,0,1200,31,0,1200,33,0,1200,34,0,1200,36,0,1200*6A
$PAIRSAT,4,46,1,0,200,2,0,200,3,0,600,4,0,200,5,0,200,6,0,201,7,0,201,8,0,200,9,0,201,10,0,201,11,0,201,12,0,200,13,0,200,14,0,200,16,0,201,19,0,600,20,0,600,21,0,600,22,0,600,23,0,621,24,0,600,25,0,621,26,0,600,27,0,600,28,0,621,29,0,600,30,0,600,32,0,600,33,0,600,34,0,621,35,0,600,36,0,600,37,0,600,38,0,600,39,0,621,40,0,421,41,0,600,42,0,600,43,0,621,44,0,600,45,0,400,46,0,400,59,0,400,60,0,400,61,0,400,62,0,400*48
$PAIRDGP,4,2,7,16,21*40
$GNGGA,032947.100,2500.7978536,N,12132.4840458,E,4,56,0.48,16.735,M,15.25,M,1,3335*44
$GNRMC,032947.100,A,2500.7978536,N,12132.4840458,E,0.01,317.02,090324,,,R,V*1D
$GPHDT,,T*1B
$GNACCURACY,4.5*17
$GNGGA,032947.200,2500.7978578,N,12132.4840472,E,4,57,0.48,16.726,M,15.25,M,1,3335*46
$GNRMC,032947.200,A,2500.7978578,N,12132.4840472,E,0.01,317.02,090324,,,R,V*1C
$GPHDT,228.416,T*3E
$GNACCURACY,4.5*17
$GNGGA,032947.300,2500.7978558,N,12132.4840448,E,4,57,0.48,16.724,M,15.25,M,1,3335*4E
$GNRMC,032947.300,A,2500.7978558,N,12132.4840448,E,0.01,317.02,090324,,,R,V*16
$GPHDT,,T*1B
$GNACCURACY,4.5*17
$GNGGA,032947.400,2500.7978557,N,12132.4840457,E,4,57,0.48,16.728,M,15.25,M,1,3335*44
$GNRMC,032947.400,A,2500.7978557,N,12132.4840457,E,0.05,317.02,090324,,,R,V*14
$GPHDT,228.581,T*31
$GNACCURACY,4.5*17
$GNGGA,032947.500,2500.7978557,N,12132.4840443,E,4,57,0.48,16.731,M,15.25,M,0,3335*49
$GNRMC,032947.500,A,2500.7978557,N,12132.4840443,E,0.04,317.02,090324,,,R,V*11
$GPHDT,,T*1B
$GNACCURACY,4.5*17
$GNGGA,032947.600,2500.7978569,N,12132.4840419,E,4,57,0.48,16.728,M,15.25,M,0,3335*40
$GNRMC,032947.600,A,2500.7978569,N,12132.4840419,E,0.01,317.02,090324,,,R,V*15
$GPHDT,228.035,T*3B
$GNACCURACY,4.5*17
$GNGGA,032947.700,2500.7978565,N,12132.4840437,E,4,58,0.48,16.731,M,15.25,M,0,3335*46
$GNRMC,032947.700,A,2500.7978565,N,12132.4840437,E,0.01,317.02,090324,,,R,V*14
$GPHDT,,T*1B
$GNACCURACY,4.5*17
$GNGGA,032947.800,2500.7978552,N,12132.4840431,E,4,58,0.48,16.731,M,15.25,M,0,3335*4B
$GNRMC,032947.800,A,2500.7978552,N,12132.4840431,E,0.07,317.02,090324,,,R,V*1F
$GPHDT,228.552,T*3F
$GNACCURACY,4.5*17
$GNGGA,032947.900,2500.7978575,N,12132.4840436,E,4,58,0.48,16.735,M,15.25,M,0,3335*4C
$GNRMC,032947.900,A,2500.7978575,N,12132.4840436,E,0.04,317.02,090324,,,R,V*1F
$GPHDT,,T*1B
$GNACCURACY,4.5*17
$GNGGA,032948.000,2500.7978556,N,12132.4840415,E,4,58,0.48,16.723,M,15.25,M,1,3335*4C
$GNRMC,032948.000,A,2500.7978556,N,12132.4840415,E,0.03,317.02,090324,,,R,V*1E
$GPHDT,228.298,T*3E
$GNGSA,A,3,08,194,195,27,21,16,04,09,02,07,196,26,0.87,0.48,0.72,1*3D
$GNGSA,A,3,31,,,,,,,,,,,,0.87,0.48,0.72,1*05
$GNGSA,A,3,88,78,81,77,87,79,,,,,,,0.87,0.48,0.72,2*03
$GNGSA,A,3,21,13,19,27,26,15,,,,,,,0.87,0.48,0.72,3*09
$GNGSA,A,3,06,16,09,43,39,40,07,23,11,25,28,34,0.87,0.48,0.72,4*0F
$GPGSV,4,1,15,08,72,308,47,199,64,166,,194,63,046,44,195,58,123,43,1*5E
$GPGSV,4,2,15,27,49,027,30,45,47,231,28,21,40,169,32,16,35,056,26,1*6E
$GPGSV,4,3,15,04,31,216,40,09,30,266,22,02,29,181,37,07,26,320,32,1*6E
$GPGSV,4,4,15,196,21,173,30,26,16,084,20,31,14,137,17,1*62
$GPGSV,2,1,08,08,72,308,48,194,63,046,46,195,58,123,42,27,49,027,42,8*68
$GPGSV,2,2,08,04,31,216,44,09,30,266,30,196,21,173,27,26,16,084,24,8*59
$GLGSV,2,1,06,88,71,071,44,78,46,006,34,81,42,189,21,77,32,088,22,1*7C
$GLGSV,2,2,06,87,20,029,18,79,12,320,19,1*75
$GAGSV,2,1,07,21,51,350,31,13,50,107,36,19,36,256,28,27,33,063,25,7*71
$GAGSV,2,2,07,26,28,175,25,15,22,049,34,04,10,312,18,7*4C
$GAGSV,2,1,07,21,51,350,43,13,50,107,38,19,36,256,23,27,33,063,24,1*76
$GAGSV,2,2,07,26,28,175,32,15,22,049,36,04,10,312,27,1*42
$GBGSV,4,1,13,06,81,224,41,16,78,191,42,09,75,299,44,43,73,059,44,1*7E
$GBGSV,4,2,13,39,67,177,38,40,65,316,46,07,63,295,42,23,62,357,37,1*78
$GBGSV,4,3,13,10,52,277,16,11,48,045,46,25,47,097,39,28,40,208,40,1*7F
$GBGSV,4,4,13,34,25,040,36,1*45
$GBGSV,2,1,07,43,73,059,46,39,67,177,36,40,65,316,44,23,62,357,43,4*75
$GBGSV,2,2,07,25,47,097,38,28,40,208,40,34,25,040,38,4*4A
$GNACCURACY,4.5*17
$PAIRSAT,1,35,2,0,201,3,0,200,4,0,221,5,0,200,6,0,200,7,0,201,8,0,221,9,0,221,10,0,200,11,0,200,12,0,200,13,0,200,14,0,200,15,0,200,16,0,201,17,0,200,18,0,200,19,0,200,20,0,200,21,0,201,22,0,200,23,0,200,24,0,200,25,0,200,26,0,221,27,0,221,28,0,200,29,0,200,30,0,200,31,0,201,32,0,200,194,0,621,195,0,621,196,0,620,199,0,600*5B
$PAIRSAT,2,23,65,0,200,66,0,200,67,0,200,68,0,200,70,0,200,71,0,200,72,0,200,73,0,200,74,0,200,75,0,200,76,0,200,77,0,201,78,0,201,79,0,201,80,0,200,81,0,201,82,0,200,83,0,200,84,0,200,85,0,200,86,0,200,87,0,201,88,0,201*5C
$PAIRSAT,3,23,2,0,1200,3,0,1200,4,0,1200,5,0,200,7,0,1200,8,0,1200,9,0,1200,10,0,1200,11,0,1200,12,0,1200,13,0,1221,15,0,1221,19,0,1221,21,0,1221,24,0,1200,25,0,1200,26,0,1221,27,0,1221,30,0,1200,31,0,1200,33,0,1200,34,0,1200,36,0,1200*6A
$PAIRSAT,4,46,1,0,200,2,0,200,3,0,600,4,0,200,5,0,200,6,0,201,7,0,201,8,0,200,9,0,201,10,0,201,11,0,201,12,0,200,13,0,200,14,0,200,16,0,201,19,0,600,20,0,600,21,0,600,22,0,600,23,0,621,24,0,600,25,0,621,26,0,600,27,0,600,28,0,621,29,0,600,30,0,600,32,0,600,33,0,600,34,0,621,35,0,600,36,0,600,37,0,600,38,0,600,39,0,621,40,0,421,41,0,600,42,0,600,43,0,621,44,0,600,45,0,400,46,0,400,59,0,400,60,0,400,61,0,400,62,0,400*48
$PAIRDGP,4,2,7,16,21*40
$GNGGA,032948.100,2500.7978569,N,12132.4840427,E,4,58,0.48,16.729,M,15.25,M,1,3335*4A
$GNRMC,032948.100,A,2500.7978569,N,12132.4840427,E,0.00,317.02,090324,,,R,V*11
$GPHDT,,T*1B
$GNACCURACY,4.5*17
$GNGGA,032948.200,2500.7978559,N,12132.4840432,E,4,58,0.48,16.729,M,15.25,M,1,3335*4E
$GNRMC,032948.200,A,2500.7978559,N,12132.4840432,E,0.01,317.02,090324,,,R,V*14
$GPHDT,228.329,T*35
$GNACCURACY,4.5*17
$GNGGA,032948.300,2500.7978558,N,12132.4840434,E,4,58,0.48,16.738,M,15.25,M,1,3335*48
$GNRMC,032948.300,A,2500.7978558,N,12132.4840434,E,0.02,317.02,090324,,,R,V*11
$GPHDT,,T*1B
$GNACCURACY,4.5*17
$GNGGA,032948.400,2500.7978566,N,12132.4840449,E,4,58,0.48,16.737,M,15.25,M,1,3335*47
$GNRMC,032948.400,A,2500.7978566,N,12132.4840449,E,0.01,317.02,090324,,,R,V*12
$GPHDT,228.460,T*3F
$GNACCURACY,4.5*17
$GNGGA,032948.500,2500.7978559,N,12132.4840451,E,4,58,0.48,16.731,M,15.25,M,0,3335*44
$GNRMC,032948.500,A,2500.7978559,N,12132.4840451,E,0.04,317.02,090324,,,R,V*13
$GPHDT,,T*1B
$GNACCURACY,4.5*17
$GNGGA,032948.600,2500.7978547,N,12132.4840444,E,4,58,0.48,16.733,M,15.25,M,0,3335*4E
$GNRMC,032948.600,A,2500.7978547,N,12132.4840444,E,0.01,317.02,090324,,,R,V*1E
$GPHDT,228.773,T*3E
$GNACCURACY,4.5*17
$GNGGA,032948.700,2500.7978560,N,12132.4840429,E,4,58,0.48,16.734,M,15.25,M,0,3335*46
$GNRMC,032948.700,A,2500.7978560,N,12132.4840429,E,0.03,317.02,090324,,,R,V*13
$GPHDT,,T*1B
$GNACCURACY,4.5*17
$GNGGA,032948.800,2500.7978572,N,12132.4840439,E,4,58,0.48,16.729,M,15.25,M,0,3335*47
$GNRMC,032948.800,A,2500.7978572,N,12132.4840439,E,0.02,317.02,090324,,,R,V*1F
$GPHDT,228.669,T*34
$GNACCURACY,4.5*17
$GNGGA,032948.900,2500.7978565,N,12132.4840447,E,4,58,0.48,16.738,M,15.25,M,0,3335*49
$GNRMC,032948.900,A,2500.7978565,N,12132.4840447,E,0.07,317.02,090324,,,R,V*14
$GPHDT,,T*1B
$GNACCURACY,4.5*17
$GNGGA,032949.000,2500.7978575,N,12132.4840446,E,4,57,0.48,16.723,M,15.25,M,1,3335*45
$GNRMC,032949.000,A,2500.7978575,N,12132.4840446,E,0.07,317.02,090324,,,R,V*1C
$GPHDT,228.418,T*30
$GNGSA,A,3,08,194,195,27,21,16,04,09,02,07,196,26,0.87,0.48,0.72,1*3D
$GNGSA,A,3,31,,,,,,,,,,,,0.87,0.48,0.72,1*05
$GNGSA,A,3,88,78,81,77,87,79,,,,,,,0.87,0.48,0.72,2*03
$GNGSA,A,3,21,13,19,27,26,15,,,,,,,0.87,0.48,0.72,3*09
$GNGSA,A,3,06,16,09,43,39,40,07,23,11,25,28,34,0.87,0.48,0.72,4*0F
$GPGSV,4,1,15,08,72,308,47,199,64,166,,194,63,046,44,195,58,123,43,1*5E
$GPGSV,4,2,15,27,49,027,30,45,47,231,28,21,40,169,31,16,35,056,25,1*6E
$GPGSV,4,3,15,04,31,216,40,09,30,266,26,02,29,181,37,07,26,320,36,1*6E
$GPGSV,4,4,15,196,21,173,28,26,16,084,19,31,14,137,16,1*60
$GPGSV,2,1,08,08,72,308,48,194,63,046,47,195,58,123,40,27,49,027,41,8*68
$GPGSV,2,2,08,04,31,216,44,09,30,266,31,196,21,173,27,26,16,084,25,8*59
$GLGSV,2,1,06,88,71,071,44,78,46,006,34,81,42,189,20,77,32,088,21,1*7E
$GLGSV,2,2,06,87,20,029,20,79,12,320,17,1*70
$GAGSV,2,1,07,21,51,350,31,13,50,107,35,19,36,256,29,27,33,063,26,7*70
$GAGSV,2,2,07,26,28,175,25,15,22,049,33,04,10,312,23,7*43
$GAGSV,2,1,07,21,51,350,43,13,50,107,37,19,36,256,24,27,33,063,25,1*7F
$GAGSV,2,2,07,26,28,175,32,15,22,049,35,04,10,312,27,1*41
$GBGSV,4,1,13,06,81,224,41,16,78,191,41,09,75,299,44,43,73,059,45,1*7C
$GBGSV,4,2,13,39,67,177,38,40,65,316,45,07,63,295,42,23,62,357,38,1*74
$GBGSV,4,3,13,10,52,277,24,11,48,045,46,25,47,097,39,28,40,208,40,1*7E
$GBGSV,4,4,13,34,25,040,36,1*45
$GBGSV,2,1,07,43,73,059,46,39,67,177,36,40,65,316,44,23,62,357,43,4*75
$GBGSV,2,2,07,25,47,097,39,28,40,208,39,34,25,040,38,4*45
$GNACCURACY,4.5*17
$PAIRSAT,1,35,2,0,201,3,0,200,4,0,221,5,0,200,6,0,200,7,0,201,8,0,221,9,0,221,10,0,200,11,0,200,12,0,200,13,0,200,14,0,200,15,0,200,16,0,201,17,0,200,18,0,200,19,0,200,20,0,200,21,0,201,22,0,200,23,0,200,24,0,200,25,0,200,26,0,221,27,0,221,28,0,200,29,0,200,30,0,200,31,0,201,32,0,200,194,0,621,195,0,621,196,0,620,199,0,600*5B
$PAIRSAT,2,23,65,0,200,66,0,200,67,0,200,68,0,200,70,0,200,71,0,200,72,0,200,73,0,200,74,0,200,75,0,200,76,0,200,77,0,201,78,0,201,79,0,201,80,0,200,81,0,201,82,0,200,83,0,200,84,0,200,85,0,200,86,0,200,87,0,201,88,0,201*5C
$PAIRSAT,3,23,2,0,1200,3,0,1200,4,0,1200,5,0,200,7,0,1200,8,0,1200,9,0,1200,10,0,1200,11,0,1200,12,0,1200,13,0,1221,15,0,1221,19,0,1221,21,0,1221,24,0,1200,25,0,1200,26,0,1221,27,0,1221,30,0,1200,31,0,1200,33,0,1200,34,0,1200,36,0,1200*6A
$PAIRSAT,4,46,1,0,200,2,0,200,3,0,600,4,0,200,5,0,200,6,0,201,7,0,201,8,0,200,9,0,201,10,0,201,11,0,201,12,0,200,13,0,200,14,0,200,16,0,201,19,0,600,20,0,600,21,0,600,22,0,600,23,0,621,24,0,600,25,0,621,26,0,600,27,0,600,28,0,621,29,0,600,30,0,600,32,0,600,33,0,600,34,0,621,35,0,600,36,0,600,37,0,600,38,0,600,39,0,621,40,0,421,41,0,600,42,0,600,43,0,621,44,0,600,45,0,400,46,0,400,59,0,400,60,0,400,61,0,400,62,0,400*48
$PAIRDGP,4,2,7,16,21*40
$GNGGA,032949.100,2500.7978561,N,12132.4840441,E,4,58,0.48,16.737,M,15.25,M,1,3335*4C
$GNRMC,032949.100,A,2500.7978561,N,12132.4840441,E,0.09,317.02,090324,,,R,V*11
$GPHDT,,T*1B
$GNACCURACY,4.5*17
$GNGGA,032949.200,2500.7978589,N,12132.4840440,E,4,59,0.47,16.734,M,15.25,M,1,3335*45
$GNRMC,032949.200,A,2500.7978589,N,12132.4840440,E,0.05,317.02,090324,,,R,V*19
$GPHDT,228.380,T*36
$GNACCURACY,4.5*17
$GNGGA,032949.300,2500.7978580,N,12132.4840438,E,4,59,0.47,16.733,M,15.25,M,1,3335*45
$GNRMC,032949.300,A,2500.7978580,N,12132.4840438,E,0.04,317.02,090324,,,R,V*1F
$GPHDT,,T*1B
$GNACCURACY,4.5*17
$GNGGA,032949.400,2500.7978560,N,12132.4840474,E,4,59,0.47,16.729,M,15.25,M,1,3335*4F
$GNRMC,032949.400,A,2500.7978560,N,12132.4840474,E,0.09,317.02,090324,,,R,V*13
$GPHDT,228.901,T*35
$GNACCURACY,4.5*17
$GNGGA,032949.500,2500.7978564,N,12132.4840441,E,4,59,0.47,16.729,M,15.25,M,1,3335*4C
$GNRMC,032949.500,A,2500.7978564,N,12132.4840441,E,0.03,317.02,090324,,,R,V*1A
$GPHDT,,T*1B
$GNACCURACY,4.4*16
$GNGGA,032949.600,2500.7978535,N,12132.4840458,E,4,58,0.47,16.728,M,15.25,M,1,3335*43
$GNRMC,032949.600,A,2500.7978535,N,12132.4840458,E,0.01,317.02,090324,,,R,V*17
$GPHDT,228.733,T*3A
$GNACCURACY,4.4*16
$GNGGA,032949.700,2500.7978540,N,12132.4840468,E,4,57,0.47,16.739,M,15.25,M,0,3335*4D
$GNRMC,032949.700,A,2500.7978540,N,12132.4840468,E,0.01,317.02,090324,,,R,V*17
$GPHDT,,T*1B
$GNACCURACY,4.4*16
$GNGGA,032949.800,2500.7978585,N,12132.4840481,E,4,57,0.47,16.737,M,15.25,M,0,3335*42
$GNRMC,032949.800,A,2500.7978585,N,12132.4840481,E,0.04,317.02,090324,,,R,V*13
$GPHDT,228.781,T*33
$GNACCURACY,4.4*16
$GNGGA,032949.900,2500.7978534,N,12132.4840481,E,4,57,0.47,16.707,M,15.25,M,0,3335*4A
$GNRMC,032949.900,A,2500.7978534,N,12132.4840481,E,0.08,317.02,090324,,,R,V*14
$GPHDT,,T*1B
$GNACCURACY,4.4*16
$GNGGA,032950.000,2500.7978533,N,12132.4840514,E,4,57,0.47,16.719,M,15.25,M,1,3335*4F
$GNRMC,032950.000,A,2500.7978533,N,12132.4840514,E,0.05,317.02,090324,,,R,V*12
$GPHDT,228.704,T*3E
$GNGSA,A,3,08,194,195,27,21,04,09,02,07,196,31,26,0.86,0.47,0.72,1*36
$GNGSA,A,3,88,78,81,77,87,79,,,,,,,0.86,0.47,0.72,2*0D
$GNGSA,A,3,21,13,19,27,26,15,,,,,,,0.86,0.47,0.72,3*07
$GNGSA,A,3,06,16,09,43,39,40,07,23,10,11,25,28,0.86,0.47,0.72,4*07
$GNGSA,A,3,34,,,,,,,,,,,,0.86,0.47,0.72,4*0B
$GPGSV,4,1,15,08,72,308,47,199,64,166,,194,63,046,44,195,58,123,43,1*5E
$GPGSV,4,2,15,27,49,027,29,45,47,231,29,21,40,169,31,16,35,056,26,1*64
$GPGSV,4,3,15,04,31,215,40,09,30,266,24,02,29,181,35,07,26,320,36,1*6D
$GPGSV,4,4,15,196,21,173,32,26,16,084,18,31,14,137,19,1*65
$GPGSV,2,1,08,08,72,308,47,194,63,046,47,195,58,123,39,27,49,027,40,8*68
$GPGSV,2,2,08,04,31,215,44,09,30,266,32,196,21,173,27,26,16,084,24,8*58
$GLGSV,2,1,06,88,71,071,44,78,46,006,35,81,42,189,22,77,32,088,22,1*7E
$GLGSV,2,2,06,87,20,029,23,79,12,320,17,1*73
$GAGSV,2,1,07,21,51,350,31,13,50,107,35,19,36,256,28,27,33,063,29,7*7E
$GAGSV,2,2,07,26,28,175,24,15,22,049,34,04,10,312,21,7*47
$GAGSV,2,1,07,21,51,350,43,13,50,107,35,19,36,256,22,27,33,063,22,1*7C
$GAGSV,2,2,07,26,28,175,32,15,22,049,34,04,10,312,12,1*46
$GBGSV,4,1,13,06,81,224,41,16,78,191,41,09,75,299,43,43,73,059,45,1*7B
$GBGSV,4,2,13,39,67,177,38,40,65,316,45,07,63,295,42,23,62,357,40,1*7B
$GBGSV,4,3,13,10,52,277,20,11,48,045,46,25,47,097,39,28,40,208,39,1*74
$GBGSV,4,4,13,34,25,040,37,1*44
$GBGSV,2,1,07,43,73,059,46,39,67,177,34,40,65,316,44,23,62,357,43,4*77
$GBGSV,2,2,07,25,47,097,39,28,40,208,38,34,25,040,37,4*4B
$GNACCURACY,4.5*17
$PAIRSAT,1,35,2,0,201,3,0,200,4,0,221,5,0,200,6,0,200,7,0,201,8,0,221,9,0,221,10,0,200,11,0,200,12,0,200,13,0,200,14,0,200,15,0,200,16,0,201,17,0,200,18,0,200,19,0,200,20,0,200,21,0,201,22,0,200,23,0,200,24,0,200,25,0,200,26,0,221,27,0,221,28,0,200,29,0,200,30,0,200,31,0,201,32,0,200,194,0,621,195,0,621,196,0,620,199,0,600*5B
$PAIRSAT,2,23,65,0,200,66,0,200,67,0,200,68,0,200,70,0,200,71,0,200,72,0,200,73,0,200,74,0,200,75,0,200,76,0,200,77,0,201,78,0,201,79,0,201,80,0,200,81,0,201,82,0,200,83,0,200,84,0,200,85,0,200,86,0,200,87,0,201,88,0,201*5C
$PAIRSAT,3,23,2,0,1200,3,0,1200,4,0,1200,5,0,200,7,0,1200,8,0,1200,9,0,1200,10,0,1200,11,0,1200,12,0,1200,13,0,1221,15,0,1221,19,0,1221,21,0,1221,24,0,1200,25,0,1200,26,0,1221,27,0,1221,30,0,1200,31,0,1200,33,0,1200,34,0,1200,36,0,1200*6A
$PAIRSAT,4,46,1,0,200,2,0,200,3,0,600,4,0,200,5,0,200,6,0,201,7,0,201,8,0,200,9,0,201,10,0,201,11,0,201,12,0,200,13,0,200,14,0,200,16,0,201,19,0,600,20,0,600,21,0,600,22,0,600,23,0,621,24,0,600,25,0,621,26,0,600,27,0,600,28,0,621,29,0,600,30,0,600,32,0,600,33,0,600,34,0,621,35,0,600,36,0,600,37,0,600,38,0,600,39,0,621,40,0,421,41,0,600,42,0,600,43,0,621,44,0,600,45,0,400,46,0,400,59,0,400,60,0,400,61,0,400,62,0,400*48
$PAIRDGP,4,2,7,16,21*40
$GNGGA,032950.100,2500.7978587,N,12132.4840484,E,4,57,0.47,16.728,M,15.25,M,1,3335*4B
$GNRMC,032950.100,A,2500.7978587,N,12132.4840484,E,0.07,317.02,090324,,,R,V*16
$GPHDT,,T*1B
$GNACCURACY,4.5*17
$GNGGA,032950.200,2500.7978592,N,12132.4840462,E,4,58,0.47,16.732,M,15.25,M,1,3335*40
$GNRMC,032950.200,A,2500.7978592,N,12132.4840462,E,0.03,317.02,090324,,,R,V*1D
$GPHDT,228.324,T*38
$GNACCURACY,4.5*17
$GNGGA,032950.300,2500.7978571,N,12132.4840502,E,4,58,0.47,16.735,M,15.25,M,1,3335*4C
$GNRMC,032950.300,A,2500.7978571,N,12132.4840502,E,0.08,317.02,090324,,,R,V*1D
$GPHDT,,T*1B
$GNACCURACY,4.5*17
$GNGGA,032950.400,2500.7978594,N,12132.4840471,E,4,58,0.47,16.724,M,15.25,M,1,3335*45
$GNRMC,032950.400,A,2500.7978594,N,12132.4840471,E,0.05,317.02,090324,,,R,V*19
$GPHDT,228.434,T*3E
$GNACCURACY,4.5*17
$GNGGA,032950.500,2500.7978577,N,12132.4840496,E,4,58,0.47,16.741,M,15.25,M,1,3335*43
$GNRMC,032950.500,A,2500.7978577,N,12132.4840496,E,0.06,317.02,090324,,,R,V*1F
$GPHDT,,T*1B
$GNACCURACY,4.4*16
$GNGGA,032950.600,2500.7978524,N,12132.4840497,E,4,58,0.47,16.712,M,15.25,M,1,3335*41
$GNRMC,032950.600,A,2500.7978524,N,12132.4840497,E,0.04,317.02,090324,,,R,V*19
$GPHDT,228.673,T*3F
$GNACCURACY,4.4*16
$GNGGA,032950.700,2500.7978539,N,12132.4840516,E,4,58,0.47,16.729,M,15.25,M,0,3335*4D
$GNRMC,032950.700,A,2500.7978539,N,12132.4840516,E,0.04,317.02,090324,,,R,V*1C
$GPHDT,,T*1B
$GNACCURACY,4.4*16
$GNGGA,032950.800,2500.7978590,N,12132.4840460,E,4,58,0.47,16.722,M,15.25,M,0,3335*4A
$GNRMC,032950.800,A,2500.7978590,N,12132.4840460,E,0.03,317.02,090324,,,R,V*17
$GPHDT,228.898,T*34
$GNACCURACY,4.4*16
$GNGGA,032950.900,2500.7978574,N,12132.4840459,E,4,58,0.47,16.731,M,15.25,M,0,3335*49
$GNRMC,032950.900,A,2500.7978574,N,12132.4840459,E,0.07,317.02,090324,,,R,V*12
$GPHDT,,T*1B
$GNACCURACY,4.4*16
$GNGGA,032951.000,2500.7978576,N,12132.4840461,E,4,58,0.47,16.724,M,15.25,M,1,3335*4D
$GNRMC,032951.000,A,2500.7978576,N,12132.4840461,E,0.05,317.02,090324,,,R,V*11
$GPHDT,228.843,T*32
$GNGSA,A,3,08,194,195,27,21,16,04,09,02,07,196,31,0.86,0.47,0.72,1*35
$GNGSA,A,3,26,,,,,,,,,,,,0.86,0.47,0.72,1*0D
$GNGSA,A,3,88,78,81,77,87,79,,,,,,,0.86,0.47,0.72,2*0D
$GNGSA,A,3,21,13,19,27,26,15,,,,,,,0.86,0.47,0.72,3*07
$GNGSA,A,3,06,16,09,43,39,40,07,23,10,11,25,28,0.86,0.47,0.72,4*07
$GNGSA,A,3,34,,,,,,,,,,,,0.86,0.47,0.72,4*0B
$GPGSV,4,1,15,08,72,309,47,199,64,166,,194,63,046,44,195,58,123,43,1*5F
$GPGSV,4,2,15,27,49,027,28,45,47,231,28,21,40,169,31,16,35,056,30,1*63
$GPGSV,4,3,15,04,31,215,40,09,30,266,25,02,29,181,35,07,26,320,36,1*6C
$GPGSV,4,4,15,196,21,173,32,26,16,084,17,31,14,137,17,1*64
$GPGSV,2,1,08,08,72,309,47,194,63,046,47,195,58,123,39,27,49,027,40,8*69
$GPGSV,2,2,08,04,31,215,44,09,30,266,33,196,21,173,27,26,16,084,22,8*5F
$GLGSV,2,1,06,88,71,071,44,78,46,006,35,81,42,189,23,77,32,088,23,1*7E
$GLGSV,2,2,06,87,20,029,21,79,12,320,19,1*7F
$GAGSV,2,1,07,21,51,350,33,13,50,107,33,19,36,256,28,27,33,063,31,7*73
$GAGSV,2,2,07,26,28,175,24,15,22,049,34,04,10,312,21,7*47
$GAGSV,2,1,07,21,51,350,43,13,50,107,36,19,36,256,22,27,33,063,21,1*7C
$GAGSV,2,2,07,26,28,175,31,15,22,049,34,04,10,312,13,1*44
$GBGSV,4,1,13,06,81,224,41,16,78,191,41,09,75,299,43,43,73,059,45,1*7B
$GBGSV,4,2,13,39,67,177,38,40,65,316,45,07,63,295,42,23,62,357,40,1*7B
$GBGSV,4,3,13,10,52,277,19,11,48,045,46,25,47,097,39,28,40,208,39,1*7E
$GBGSV,4,4,13,34,25,040,37,1*44
$GBGSV,2,1,07,43,73,059,46,39,67,177,36,40,65,316,44,23,62,357,43,4*75
$GBGSV,2,2,07,25,47,097,39,28,40,208,38,34,25,040,37,4*4B
$GNACCURACY,4.3*11
$PAIRSAT,1,35,2,0,201,3,0,200,4,0,221,5,0,200,6,0,200,7,0,201,8,0,221,9,0,221,10,0,200,11,0,200,12,0,200,13,0,200,14,0,200,15,0,200,16,0,201,17,0,200,18,0,200,19,0,200,20,0,200,21,0,201,22,0,200,23,0,200,24,0,200,25,0,200,26,0,221,27,0,221,28,0,200,29,0,200,30,0,200,31,0,201,32,0,200,194,0,621,195,0,621,196,0,620,199,0,600*5B
$PAIRSAT,2,23,65,0,200,66,0,200,67,0,200,68,0,200,70,0,200,71,0,200,72,0,200,73,0,200,74,0,200,75,0,200,76,0,200,77,0,201,78,0,201,79,0,201,80,0,200,81,0,201,82,0,200,83,0,200,84,0,200,85,0,200,86,0,200,87,0,201,88,0,201*5C
$PAIRSAT,3,23,2,0,1200,3,0,1200,4,0,1200,5,0,200,7,0,1200,8,0,1200,9,0,1200,10,0,1200,11,0,1200,12,0,1200,13,0,1221,15,0,1221,19,0,1221,21,0,1221,24,0,1200,25,0,1200,26,0,1221,27,0,1221,30,0,1200,31,0,1200,33,0,1200,34,0,1200,36,0,1200*6A
$PAIRSAT,4,46,1,0,200,2,0,200,3,0,600,4,0,200,5,0,200,6,0,201,7,0,201,8,0,200,9,0,201,10,0,201,11,0,201,12,0,200,13,0,200,14,0,200,16,0,201,19,0,600,20,0,600,21,0,600,22,0,600,23,0,621,24,0,600,25,0,621,26,0,600,27,0,600,28,0,621,29,0,600,30,0,600,32,0,600,33,0,600,34,0,621,35,0,600,36,0,600,37,0,600,38,0,600,39,0,621,40,0,421,41,0,600,42,0,600,43,0,621,44,0,600,45,0,400,46,0,400,59,0,400,60,0,400,61,0,400,62,0,400*48
$PAIRDGP,4,2,7,16,21*40
$GNGGA,032951.100,2500.7978580,N,12132.4840465,E,4,58,0.47,16.723,M,15.25,M,1,3335*46
$GNRMC,032951.100,A,2500.7978580,N,12132.4840465,E,0.02,317.02,090324,,,R,V*1A
$GPHDT,,T*1B
$GNACCURACY,4.3*11
$GNGGA,032951.200,2500.7978572,N,12132.4840467,E,4,58,0.47,16.725,M,15.25,M,1,3335*4C
$GNRMC,032951.200,A,2500.7978572,N,12132.4840467,E,0.01,317.02,090324,,,R,V*15
$GPHDT,228.969,T*3B
$GNACCURACY,4.3*11
$GNGGA,032951.300,2500.7978575,N,12132.4840464,E,4,58,0.47,16.716,M,15.25,M,1,3335*49
$GNRMC,032951.300,A,2500.7978575,N,12132.4840464,E,0.05,317.02,090324,,,R,V*14
$GPHDT,,T*1B
$GNACCURACY,4.3*11
$GNGGA,032951.400,2500.7978572,N,12132.4840450,E,4,58,0.47,16.724,M,15.25,M,1,3335*4F
$GNRMC,032951.400,A,2500.7978572,N,12132.4840450,E,0.04,317.02,090324,,,R,V*12
$GPHDT,228.920,T*36
$GNACCURACY,4.3*11
$GNGGA,032951.500,2500.7978550,N,12132.4840478,E,4,58,0.47,16.728,M,15.25,M,1,3335*48
$GNRMC,032951.500,A,2500.7978550,N,12132.4840478,E,0.05,317.02,090324,,,R,V*18
$GPHDT,,T*1B
$GNACCURACY,4.3*11
$GNGGA,032951.600,2500.7978566,N,12132.4840440,E,4,58,0.47,16.725,M,15.25,M,0,3335*49
$GNRMC,032951.600,A,2500.7978566,N,12132.4840440,E,0.02,317.02,090324,,,R,V*12
$GPHDT,228.400,T*39
$GNACCURACY,4.3*11
$GNGGA,032951.700,2500.7978546,N,12132.4840453,E,4,58,0.47,16.724,M,15.25,M,0,3335*49
$GNRMC,032951.700,A,2500.7978546,N,12132.4840453,E,0.05,317.02,090324,,,R,V*14
$GPHDT,,T*1B
$GNACCURACY,4.3*11
$GNGGA,032951.800,2500.7978560,N,12132.4840447,E,4,58,0.47,16.732,M,15.25,M,0,3335*40
$GNRMC,032951.800,A,2500.7978560,N,12132.4840447,E,0.03,317.02,090324,,,R,V*1C
$GPHDT,228.496,T*36
$GNACCURACY,4.3*11
$GNGGA,032951.900,2500.7978537,N,12132.4840452,E,4,58,0.47,16.722,M,15.25,M,0,3335*46
$GNRMC,032951.900,A,2500.7978537,N,12132.4840452,E,0.04,317.02,090324,,,R,V*1C
$GPHDT,,T*1B
$GNACCURACY,4.3*11
$GNGGA,032952.000,2500.7978555,N,12132.4840464,E,4,58,0.47,16.722,M,15.25,M,1,3335*4C
$GNRMC,032952.000,A,2500.7978555,N,12132.4840464,E,0.03,317.02,090324,,,R,V*10
$GPHDT,228.765,T*39
$GNGSA,A,3,08,194,195,27,21,16,04,09,02,07,196,31,0.86,0.47,0.72,1*35
$GNGSA,A,3,26,,,,,,,,,,,,0.86,0.47,0.72,1*0D
$GNGSA,A,3,88,78,81,77,87,79,,,,,,,0.86,0.47,0.72,2*0D
$GNGSA,A,3,21,13,19,27,26,15,,,,,,,0.86,0.47,0.72,3*07
$GNGSA,A,3,06,16,09,43,39,40,07,23,10,11,25,28,0.86,0.47,0.72,4*07
$GNGSA,A,3,34,,,,,,,,,,,,0.86,0.47,0.72,4*0B
$GPGSV,4,1,15,08,72,309,47,199,64,166,,194,63,046,44,195,58,123,43,1*5F
$GPGSV,4,2,15,27,49,027,27,45,47,231,29,21,41,169,32,16,35,056,29,1*67
$GPGSV,4,3,15,04,31,215,40,09,30,266,26,02,29,181,36,07,26,320,34,1*6E
$GPGSV,4,4,15,196,21,173,32,26,16,085,18,31,14,137,15,1*68
$GPGSV,2,1,08,08,72,309,47,194,63,046,47,195,58,123,39,27,49,027,40,8*69
$GPGSV,2,2,08,04,31,215,44,09,30,266,32,196,21,173,26,26,16,085,25,8*59
$GLGSV,2,1,07,88,71,071,44,78,46,006,37,81,42,189,23,77,32,088,23,1*7D
$GLGSV,2,2,07,87,20,029,21,68,13,253,,79,12,320,23,1*4F
$GAGSV,2,1,07,21,51,350,33,13,50,107,34,19,36,256,28,27,33,063,31,7*74
$GAGSV,2,2,07,26,28,175,24,15,22,049,33,04,10,312,18,7*4A
$GAGSV,2,1,07,21,51,350,43,13,50,107,36,19,36,256,21,27,33,063,22,1*7C
$GAGSV,2,2,07,26,28,175,31,15,22,049,34,04,10,312,25,1*41
$GBGSV,4,1,13,06,81,224,41,16,78,191,41,09,75,299,43,43,73,059,45,1*7B
$GBGSV,4,2,13,39,67,177,38,40,65,316,45,07,63,295,42,23,62,357,40,1*7B
$GBGSV,4,3,13,10,52,277,22,11,48,045,46,25,47,097,39,28,40,208,40,1*78
$GBGSV,4,4,13,34,25,040,36,1*45
$GBGSV,2,1,07,43,73,059,46,39,67,177,35,40,65,316,44,23,62,357,42,4*77
$GBGSV,2,2,07,25,47,097,39,28,40,208,38,34,25,040,37,4*4B
$GNACCURACY,4.4*16
$PAIRSAT,1,35,2,0,201,3,0,200,4,0,221,5,0,200,6,0,200,7,0,201,8,0,221,9,0,221,10,0,200,11,0,200,12,0,200,13,0,200,14,0,200,15,0,200,16,0,201,17,0,200,18,0,200,19,0,200,20,0,200,21,0,201,22,0,200,23,0,200,24,0,200,25,0,200,26,0,221,27,0,221,28,0,200,29,0,200,30,0,200,31,0,201,32,0,200,194,0,621,195,0,621,196,0,620,199,0,600*5B
$PAIRSAT,2,23,65,0,200,66,0,200,67,0,200,68,0,200,70,0,200,71,0,200,72,0,200,73,0,200,74,0,200,75,0,200,76,0,200,77,0,201,78,0,201,79,0,201,80,0,200,81,0,201,82,0,200,83,0,200,84,0,200,85,0,200,86,0,200,87,0,201,88,0,201*5C
$PAIRSAT,3,23,2,0,1200,3,0,1200,4,0,1200,5,0,200,7,0,1200,8,0,1200,9,0,1200,10,0,1200,11,0,1200,12,0,1200,13,0,1221,15,0,1221,19,0,1221,21,0,1221,24,0,1200,25,0,1200,26,0,1221,27,0,1221,30,0,1200,31,0,1200,33,0,1200,34,0,1200,36,0,1200*6A
$PAIRSAT,4,46,1,0,200,2,0,200,3,0,600,4,0,200,5,0,200,6,0,201,7,0,201,8,0,200,9,0,201,10,0,201,11,0,201,12,0,200,13,0,200,14,0,200,16,0,201,19,0,600,20,0,600,21,0,600,22,0,600,23,0,621,24,0,600,25,0,621,26,0,600,27,0,600,28,0,621,29,0,600,30,0,600,32,0,600,33,0,600,34,0,621,35,0,600,36,0,600,37,0,600,38,0,600,39,0,621,40,0,421,41,0,600,42,0,600,43,0,621,44,0,600,45,0,400,46,0,400,59,0,400,60,0,400,61,0,400,62,0,400*48
$PAIRDGP,4,2,7,16,21*40
$GNGGA,032952.100,2500.7978555,N,12132.4840455,E,4,58,0.47,16.719,M,15.25,M,1,3335*47
$GNRMC,032952.100,A,2500.7978555,N,12132.4840455,E,0.01,317.02,090324,,,R,V*11
$GPHDT,,T*1B
$GNACCURACY,4.4*16
$GNGGA,032952.200,2500.7978555,N,12132.4840449,E,4,59,0.47,16.726,M,15.25,M,1,3335*44
$GNRMC,032952.200,A,2500.7978555,N,12132.4840449,E,0.06,317.02,090324,,,R,V*18
$GPHDT,228.761,T*3D
$GNACCURACY,4.4*16
$GNGGA,032952.300,2500.7978545,N,12132.4840456,E,4,59,0.47,16.723,M,15.25,M,1,3335*4F
$GNRMC,032952.300,A,2500.7978545,N,12132.4840456,E,0.02,317.02,090324,,,R,V*12
$GPHDT,,T*1B
$GNACCURACY,4.4*16
$GNGGA,032952.400,2500.7978575,N,12132.4840442,E,4,59,0.47,16.724,M,15.25,M,1,3335*49
$GNRMC,032952.400,A,2500.7978575,N,12132.4840442,E,0.03,317.02,090324,,,R,V*12
$GPHDT,228.486,T*37
$GNACCURACY,4.4*16
$GNGGA,032952.500,2500.7978544,N,12132.4840470,E,4,59,0.47,16.726,M,15.25,M,0,3335*48
$GNRMC,032952.500,A,2500.7978544,N,12132.4840470,E,0.04,317.02,090324,,,R,V*17
$GPHDT,,T*1B
$GNACCURACY,4.4*16
$GNGGA,032952.600,2500.7978556,N,12132.4840482,E,4,59,0.47,16.733,M,15.25,M,0,3335*41
$GNRMC,032952.600,A,2500.7978556,N,12132.4840482,E,0.05,317.02,090324,,,R,V*1B
$GPHDT,228.684,T*37
$GNACCURACY,4.4*16
$GNGGA,032952.700,2500.7978537,N,12132.4840465,E,4,59,0.47,16.732,M,15.25,M,0,3335*4F
$GNRMC,032952.700,A,2500.7978537,N,12132.4840465,E,0.05,317.02,090324,,,R,V*14
$GPHDT,,T*1B
$GNACCURACY,4.4*16
$GNGGA,032952.800,2500.7978554,N,12132.4840476,E,4,59,0.47,16.737,M,15.25,M,0,3335*42
$GNRMC,032952.800,A,2500.7978554,N,12132.4840476,E,0.04,317.02,090324,,,R,V*1D
$GPHDT,228.614,T*3E
$GNACCURACY,4.4*16
$GNGGA,032952.900,2500.7978544,N,12132.4840471,E,4,59,0.47,16.729,M,15.25,M,0,3335*4A
$GNRMC,032952.900,A,2500.7978544,N,12132.4840471,E,0.02,317.02,090324,,,R,V*1C
$GPHDT,,T*1B
$GNACCURACY,4.4*16
$GNGGA,032953.000,2500.7978566,N,12132.4840473,E,4,59,0.47,16.721,M,15.25,M,1,3335*49
$GNRMC,032953.000,A,2500.7978566,N,12132.4840473,E,0.02,317.02,090324,,,R,V*16
$GPHDT,228.684,T*37
$GNGSA,A,3,08,194,195,27,21,16,04,09,02,07,196,26,0.86,0.47,0.72,1*33
$GNGSA,A,3,31,,,,,,,,,,,,0.86,0.47,0.72,1*0B
$GNGSA,A,3,88,78,81,77,87,79,,,,,,,0.86,0.47,0.72,2*0D
$GNGSA,A,3,21,13,19,27,26,15,,,,,,,0.86,0.47,0.72,3*07
$GNGSA,A,3,06,16,09,43,39,40,07,23,10,11,25,28,0.86,0.47,0.72,4*07
$GNGSA,A,3,34,,,,,,,,,,,,0.86,0.47,0.72,4*0B
$GPGSV,4,1,15,08,72,309,47,199,64,166,,194,63,046,44,195,58,123,43,1*5F
$GPGSV,4,2,15,27,49,027,26,45,47,231,29,21,41,169,33,16,35,056,24,1*6A
$GPGSV,4,3,15,04,31,215,40,09,30,266,23,02,29,181,35,07,26,320,34,1*68
$GPGSV,4,4,15,196,21,173,33,26,16,085,17,31,14,137,19,1*6A
$GPGSV,2,1,08,08,72,309,47,194,63,046,47,195,58,123,40,27,49,027,40,8*67
$GPGSV,2,2,08,04,31,215,44,09,30,266,31,196,21,173,28,26,16,085,26,8*57
$GLGSV,2,1,07,88,71,071,44,78,46,006,36,81,42,189,24,77,32,088,22,1*7A
$GLGSV,2,2,07,87,20,029,21,79,12,320,22,67,02,208,,1*4F
$GAGSV,2,1,07,21,51,350,34,13,50,107,34,19,36,256,27,27,33,063,29,7*75
$GAGSV,2,2,07,26,28,175,24,15,22,049,33,04,10,312,18,7*4A
$GAGSV,2,1,07,21,51,350,43,13,50,107,36,19,36,256,21,27,33,063,23,1*7D
$GAGSV,2,2,07,26,28,175,31,15,22,049,35,04,10,312,29,1*4C
$GBGSV,4,1,15,06,81,224,41,16,78,191,41,09,75,299,44,43,73,059,45,1*7A
$GBGSV,4,2,15,39,67,177,38,40,65,316,45,07,63,295,42,23,62,357,39,1*73
$GBGSV,4,3,15,10,52,277,22,11,48,045,46,25,47,097,38,28,40,208,40,1*7F
$GBGSV,4,4,15,34,25,040,36,32,05,256,,38,05,171,,1*4F
$GBGSV,2,1,07,43,73,059,46,39,67,177,35,40,65,316,44,23,62,357,42,4*77
$GBGSV,2,2,07,25,47,097,39,28,40,208,38,34,25,040,38,4*44
$GNACCURACY,4.4*16
$PAIRSAT,1,35,2,0,201,3,0,200,4,0,221,5,0,200,6,0,200,7,0,201,8,0,221,9,0,221,10,0,200,11,0,200,12,0,200,13,0,200,14,0,200,15,0,200,16,0,201,17,0,200,18,0,200,19,0,200,20,0,200,21,0,201,22,0,200,23,0,200,24,0,200,25,0,200,26,0,221,27,0,221,28,0,200,29,0,200,30,0,200,31,0,201,32,0,200,194,0,621,195,0,621,196,0,620,199,0,600*5B
$PAIRSAT,2,23,65,0,200,66,0,200,67,0,200,68,0,200,70,0,200,71,0,200,72,0,200,73,0,200,74,0,200,75,0,200,76,0,200,77,0,201,78,0,201,79,0,201,80,0,200,81,0,201,82,0,200,83,0,200,84,0,200,85,0,200,86,0,200,87,0,201,88,0,201*5C
$PAIRSAT,3,23,2,0,1200,3,0,1200,4,0,1200,5,0,200,7,0,1200,8,0,1200,9,0,1200,10,0,1200,11,0,1200,12,0,1200,13,0,1221,15,0,1221,19,0,1221,21,0,1221,24,0,1200,25,0,1200,26,0,1221,27,0,1221,30,0,1200,31,0,1200,33,0,1200,34,0,1200,36,0,1200*6A
$PAIRSAT,4,46,1,0,200,2,0,200,3,0,600,4,0,200,5,0,200,6,0,201,7,0,201,8,0,200,9,0,201,10,0,201,11,0,201,12,0,200,13,0,200,14,0,200,16,0,201,19,0,600,20,0,600,21,0,600,22,0,600,23,0,621,24,0,600,25,0,621,26,0,600,27,0,600,28,0,621,29,0,600,30,0,600,32,0,600,33,0,600,34,0,621,35,0,600,36,0,600,37,0,600,38,0,600,39,0,621,40,0,421,41,0,600,42,0,600,43,0,621,44,0,600,45,0,400,46,0,400,59,0,400,60,0,400,61,0,400,62,0,400*48
$PAIRDGP,4,2,7,16,21*40
$GNGGA,032953.100,2500.7978477,N,12132.4840504,E,4,59,0.47,16.729,M,15.25,M,1,3335*40
$GNRMC,032953.100,A,2500.7978477,N,12132.4840504,E,0.07,317.02,090324,,,R,V*12
$GPHDT,,T*1B
$GNACCURACY,4.4*16
$GNGGA,032953.200,2500.7978489,N,12132.4840504,E,4,59,0.47,16.716,M,15.25,M,1,3335*4E
$GNRMC,032953.200,A,2500.7978489,N,12132.4840504,E,0.04,317.02,090324,,,R,V*13
$GPHDT,229.586,T*37
$GNACCURACY,4.4*16
$GNGGA,032953.300,2500.7978472,N,12132.4840506,E,4,58,0.47,16.721,M,15.25,M,1,3335*4C
$GNRMC,032953.300,A,2500.7978472,N,12132.4840506,E,0.02,317.02,090324,,,R,V*12
$GPHDT,,T*1B
$GNACCURACY,4.4*16
$GNGGA,032953.400,2500.7978522,N,12132.4840495,E,4,58,0.47,16.738,M,15.25,M,1,3335*4C
$GNRMC,032953.400,A,2500.7978522,N,12132.4840495,E,0.02,317.02,090324,,,R,V*1A
$GPHDT,229.407,T*3F
$GNACCURACY,4.4*16
$GNGGA,032953.500,2500.7978559,N,12132.4840481,E,4,58,0.47,16.729,M,15.25,M,1,3335*44
$GNRMC,032953.500,A,2500.7978559,N,12132.4840481,E,0.07,317.02,090324,,,R,V*17
$GPHDT,,T*1B
$GNACCURACY,4.4*16
$GNGGA,032953.600,2500.7978565,N,12132.4840484,E,4,58,0.47,16.736,M,15.25,M,1,3335*43
$GNRMC,032953.600,A,2500.7978565,N,12132.4840484,E,0.07,317.02,090324,,,R,V*1E
$GPHDT,228.675,T*39
$GNACCURACY,4.4*16
$GNGGA,032953.700,2500.7978564,N,12132.4840450,E,4,59,0.47,16.756,M,15.25,M,0,3335*4C
$GNRMC,032953.700,A,2500.7978564,N,12132.4840450,E,0.04,317.02,090324,,,R,V*14
$GPHDT,,T*1B
$GNACCURACY,4.4*16
$GNGGA,032953.800,2500.7978541,N,12132.4840525,E,4,59,0.47,16.762,M,15.25,M,0,3335*40
$GNRMC,032953.800,A,2500.7978541,N,12132.4840525,E,0.03,317.02,090324,,,R,V*18
$GPHDT,229.771,T*3D
$GNACCURACY,4.4*16
$GNGGA,032953.900,2500.7978601,N,12132.4840469,E,4,59,0.47,16.745,M,15.25,M,0,3335*4A
$GNRMC,032953.900,A,2500.7978601,N,12132.4840469,E,0.05,317.02,090324,,,R,V*11
$GPHDT,,T*1B
$GNACCURACY,4.4*16
$GNGGA,032954.000,2500.7978581,N,12132.4840471,E,4,59,0.47,16.750,M,15.25,M,1,3335*43
$GNRMC,032954.000,A,2500.7978581,N,12132.4840471,E,0.02,317.02,090324,,,R,V*1A
$GPHDT,229.122,T*3D
$GNGSA,A,3,08,194,195,27,21,16,04,09,02,07,196,26,0.86,0.47,0.72,1*33
$GNGSA,A,3,31,,,,,,,,,,,,0.86,0.47,0.72,1*0B
$GNGSA,A,3,88,78,81,77,87,79,,,,,,,0.86,0.47,0.72,2*0D
$GNGSA,A,3,21,13,19,27,26,15,,,,,,,0.86,0.47,0.72,3*07
$GNGSA,A,3,06,16,09,43,39,40,07,23,10,11,25,28,0.86,0.47,0.72,4*07
$GNGSA,A,3,34,,,,,,,,,,,,0.86,0.47,0.72,4*0B
$GPGSV,4,1,15,08,72,309,48,199,64,166,,194,63,046,44,195,58,123,42,1*51
$GPGSV,4,2,15,27,49,027,30,45,47,231,28,21,41,169,34,16,35,056,24,1*6B
$GPGSV,4,3,15,04,31,215,40,09,30,266,20,02,29,181,35,07,26,320,33,1*6C
$GPGSV,4,4,15,196,21,173,35,26,16,085,17,31,14,137,17,1*62
$GPGSV,2,1,08,08,72,309,47,194,63,046,46,195,58,123,39,27,49,027,42,8*6A
$GPGSV,2,2,08,04,31,215,44,09,30,266,31,196,21,173,23,26,16,085,26,8*5C
$GLGSV,2,1,07,88,71,071,44,78,46,006,35,81,42,189,28,77,32,088,23,1*74
$GLGSV,2,2,07,87,20,029,22,68,13,253,,79,12,320,21,1*4E
$GAGSV,2,1,07,21,51,350,34,13,50,107,33,19,36,256,23,27,33,063,30,7*7E
$GAGSV,2,2,07,26,28,175,25,15,22,049,33,04,10,312,17,7*44
$GAGSV,2,1,07,21,51,350,43,13,50,107,33,19,36,256,23,27,33,063,24,1*7D
$GAGSV,2,2,07,26,28,175,31,15,22,049,35,04,10,312,27,1*42
$GBGSV,4,1,13,06,81,224,41,16,78,191,41,09,75,299,44,43,73,059,44,1*7D
$GBGSV,4,2,13,39,67,177,38,40,65,316,45,07,63,295,42,23,62,357,35,1*79
$GBGSV,4,3,13,10,52,277,18,11,48,045,47,25,47,097,39,28,40,208,41,1*71
$GBGSV,4,4,13,34,25,040,37,1*44
$GBGSV,2,1,07,43,73,059,45,39,67,177,35,40,65,316,44,23,62,357,42,4*74
$GBGSV,2,2,07,25,47,097,39,28,40,208,39,34,25,040,37,4*4A
$GNACCURACY,4.4*16
$PAIRSAT,1,35,2,0,201,3,0,200,4,0,221,5,0,200,6,0,200,7,0,201,8,0,221,9,0,221,10,0,200,11,0,200,12,0,200,13,0,200,14,0,200,15,0,200,16,0,201,17,0,200,18,0,200,19,0,200,20,0,200,21,0,201,22,0,200,23,0,200,24,0,200,25,0,200,26,0,221,27,0,221,28,0,200,29,0,200,30,0,200,31,0,201,32,0,200,194,0,621,195,0,621,196,0,620,199,0,600*5B
$PAIRSAT,2,23,65,0,200,66,0,200,67,0,200,68,0,200,70,0,200,71,0,200,72,0,200,73,0,200,74,0,200,75,0,200,76,0,200,77,0,201,78,0,201,79,0,201,80,0,200,81,0,201,82,0,200,83,0,200,84,0,200,85,0,200,86,0,200,87,0,201,88,0,201*5C
$PAIRSAT,3,23,2,0,1200,3,0,1200,4,0,1200,5,0,200,7,0,1200,8,0,1200,9,0,1200,10,0,1200,11,0,1200,12,0,1200,13,0,1221,15,0,1221,19,0,1221,21,0,1221,24,0,1200,25,0,1200,26,0,1221,27,0,1221,30,0,1200,31,0,1200,33,0,1200,34,0,1200,36,0,1200*6A
$PAIRSAT,4,46,1,0,200,2,0,200,3,0,600,4,0,200,5,0,200,6,0,201,7,0,201,8,0,200,9,0,201,10,0,201,11,0,201,12,0,200,13,0,200,14,0,200,16,0,201,19,0,600,20,0,600,21,0,600,22,0,600,23,0,621,24,0,600,25,0,621,26,0,600,27,0,600,28,0,621,29,0,600,30,0,600,32,0,600,33,0,600,34,0,621,35,0,600,36,0,600,37,0,600,38,0,600,39,0,621,40,0,421,41,0,600,42,0,600,43,0,621,44,0,600,45,0,400,46,0,400,59,0,400,60,0,400,61,0,400,62,0,400*48
$PAIRDGP,4,2,7,16,21*40
$GNGGA,032954.100,2500.7978551,N,12132.4840507,E,4,59,0.47,16.736,M,15.25,M,1,3335*4F
$GNRMC,032954.100,A,2500.7978551,N,12132.4840507,E,0.08,317.02,090324,,,R,V*1C
$GPHDT,,T*1B
$GNACCURACY,4.4*16
$GNGGA,032954.200,2500.7978550,N,12132.4840496,E,4,59,0.47,16.730,M,15.25,M,1,3335*42
$GNRMC,032954.200,A,2500.7978550,N,12132.4840496,E,0.07,317.02,090324,,,R,V*18
$GPHDT,229.425,T*3F
$GNACCURACY,4.4*16
$GNGGA,032954.300,2500.7978585,N,12132.4840471,E,4,59,0.47,16.745,M,15.25,M,1,3335*40
$GNRMC,032954.300,A,2500.7978585,N,12132.4840471,E,0.04,317.02,090324,,,R,V*1B
$GPHDT,,T*1B
$GNACCURACY,4.4*16
$GNGGA,032954.400,2500.7978625,N,12132.4840477,E,4,59,0.47,16.739,M,15.25,M,1,3335*43
$GNRMC,032954.400,A,2500.7978625,N,12132.4840477,E,0.03,317.02,090324,,,R,V*14
$GPHDT,229.025,T*3B
