$FW : RTK35X,V1.1X0314AS,Lib20210517,1*54
$Tool : LOCOSYS , GNSS Firebird , v1.0.0.19*39
$---------------------------------------------------*2D
$GNACCURACY,4.9*1B
$GNGGA,033022.000,2500.7978668,N,12132.4840600,E,4,59,0.47,16.723,M,15.25,M,1,3335*4E
$GNRMC,033022.000,A,2500.7978668,N,12132.4840600,E,0.07,317.02,090324,,,R,V*16
$GPHDT,91.879,T*0B
$GNGSA,A,3,08,194,195,27,21,16,04,09,02,07,196,26,0.86,0.47,0.72,1*33
$GNGSA,A,3,31,,,,,,,,,,,,0.86,0.47,0.72,1*0B
$GNGSA,A,3,88,78,81,77,87,79,,,,,,,0.86,0.47,0.72,2*0D
$GNGSA,A,3,21,13,19,27,26,15,,,,,,,0.86,0.47,0.72,3*07
$GNGSA,A,3,06,16,09,43,39,40,07,23,10,11,25,28,0.86,0.47,0.72,4*07
$GNGSA,A,3,34,,,,,,,,,,,,0.86,0.47,0.72,4*0B
$GPGSV,4,1,15,08,72,309,42,199,64,167,,194,63,047,43,195,58,123,40,1*5E
$GPGSV,4,2,15,27,49,027,36,45,47,231,39,21,41,169,32,16,34,057,34,1*6A
$GPGSV,4,3,15,04,31,215,42,09,30,266,26,02,29,181,38,07,26,320,26,1*61
$GPGSV,4,4,15,196,21,173,27,26,16,085,23,31,14,138,23,1*6E
$GPGSV,2,1,08,08,72,309,46,194,63,047,47,195,58,123,42,27,49,027,44,8*61
$GPGSV,2,2,08,04,31,215,46,09,30,266,29,196,21,173,18,26,16,085,33,8*5B
$GLGSV,2,1,08,88,71,070,39,78,46,007,34,81,42,189,36,77,32,088,26,1*7A
$GLGSV,2,2,08,87,20,029,23,79,13,320,19,68,13,253,,67,01,208,,1*70
$GAGSV,2,1,07,21,51,350,32,13,50,107,35,19,36,256,17,27,33,063,27,7*7F
$GAGSV,2,2,07,26,28,175,35,15,22,048,29,04,10,312,12,7*4A
$GAGSV,2,1,07,21,51,350,40,13,50,107,42,19,36,256,24,27,33,063,29,1*72
$GAGSV,2,2,07,26,28,175,24,15,22,048,38,04,10,312,23,1*4E
$GBGSV,4,1,13,06,81,224,42,16,78,191,41,09,75,299,41,43,73,058,42,1*7C
$GBGSV,4,2,13,39,67,177,40,40,65,316,41,07,62,295,37,23,62,358,38,1*73
$GBGSV,4,3,13,10,52,277,28,11,48,044,46,25,47,098,42,28,40,208,34,1*73
$GBGSV,4,4,13,34,25,040,40,1*44
$GBGSV,2,1,07,43,73,058,47,39,67,177,31,40,65,316,38,23,62,358,40,4*75
$GBGSV,2,2,07,25,47,098,41,28,40,208,38,34,25,040,39,4*45
$GNACCURACY,4.9*1B
$PAIRSAT,1,35,2,0,201,3,0,200,4,0,221,5,0,200,6,0,200,7,0,201,8,0,221,9,0,221,10,0,200,11,0,200,12,0,200,13,0,200,14,0,200,15,0,200,16,0,201,17,0,200,18,0,200,19,0,200,20,0,200,21,0,201,22,0,200,23,0,200,24,0,200,25,0,200,26,0,221,27,0,221,28,0,200,29,0,200,30,0,200,31,0,201,32,0,200,194,0,621,195,0,621,196,0,620,199,0,600*5B
$PAIRSAT,2,23,65,0,200,66,0,200,67,0,200,68,0,200,70,0,200,71,0,200,72,0,200,73,0,200,74,0,200,75,0,200,76,0,200,77,0,201,78,0,201,79,0,201,80,0,200,81,0,201,82,0,200,83,0,200,84,0,200,85,0,200,86,0,200,87,0,201,88,0,201*5C
$PAIRSAT,3,23,2,0,1200,3,0,1200,4,0,1200,5,0,200,7,0,1200,8,0,1200,9,0,1200,10,0,1200,11,0,1200,12,0,1200,13,0,1221,15,0,1221,19,0,1221,21,0,1221,24,0,1200,25,0,1200,26,0,1221,27,0,1221,30,0,1200,31,0,1200,33,0,1200,34,0,1200,36,0,1200*6A
$PAIRSAT,4,46,1,0,200,2,0,200,3,0,600,4,0,200,5,0,200,6,0,201,7,0,201,8,0,200,9,0,201,10,0,201,11,0,201,12,0,200,13,0,200,14,0,200,16,0,201,19,0,600,20,0,600,21,0,600,22,0,600,23,0,621,24,0,600,25,0,621,26,0,600,27,0,600,28,0,621,29,0,600,30,0,600,32,0,600,33,0,600,34,0,621,35,0,600,36,0,600,37,0,600,38,0,600,39,0,621,40,0,421,41,0,600,42,0,600,43,0,621,44,0,600,45,0,600,46,0,400,59,0,400,60,0,400,61,0,400,62,0,400*4A
$PAIRDGP,8,2,4,7,8,9,16,21,27*7C
$GNGGA,033022.100,2500.7978680,N,12132.4840614,E,4,59,0.47,16.735,M,15.25,M,1,3335*4B
$GNRMC,033022.100,A,2500.7978680,N,12132.4840614,E,0.05,317.02,090324,,,R,V*16
$GPHDT,,T*1B
$GNACCURACY,4.9*1B
$GNGGA,033022.200,2500.7978692,N,12132.4840607,E,4,59,0.47,16.740,M,15.25,M,1,3335*4B
$GNRMC,033022.200,A,2500.7978692,N,12132.4840607,E,0.12,317.02,090324,,,R,V*12
$GPHDT,92.189,T*0E
$GNACCURACY,4.9*1B
$GNGGA,033022.300,2500.7978667,N,12132.4840635,E,4,59,0.47,16.735,M,15.25,M,1,3335*43
$GNRMC,033022.300,A,2500.7978667,N,12132.4840635,E,0.07,317.02,090324,,,R,V*1C
$GPHDT,,T*1B
$GNACCURACY,4.9*1B
$GNGGA,033022.400,2500.7978672,N,12132.4840613,E,4,59,0.47,16.732,M,15.25,M,1,3335*43
$GNRMC,033022.400,A,2500.7978672,N,12132.4840613,E,0.00,317.02,090324,,,R,V*1C
$GPHDT,91.583,T*03
$GNACCURACY,4.9*1B
$GNGGA,033022.500,2500.7978657,N,12132.4840720,E,4,59,0.47,16.762,M,15.25,M,1,3335*41
$GNRMC,033022.500,A,2500.7978657,N,12132.4840720,E,0.01,317.02,090324,,,R,V*1A
$GPHDT,,T*1B
$GNACCURACY,4.9*1B
$GNGGA,033022.600,2500.7978598,N,12132.4840773,E,4,59,0.47,16.751,M,15.25,M,1,3335*44
$GNRMC,033022.600,A,2500.7978598,N,12132.4840773,E,0.03,317.02,090324,,,R,V*1D
$GPHDT,91.870,T*02
$GNACCURACY,4.9*1B
$GNGGA,033022.700,2500.7978618,N,12132.4840719,E,4,59,0.47,16.754,M,15.25,M,0,3335*46
$GNRMC,033022.700,A,2500.7978618,N,12132.4840719,E,0.04,317.02,090324,,,R,V*1C
$GPHDT,,T*1B
$GNACCURACY,4.9*1B
$GNGGA,033022.800,2500.7978666,N,12132.4840629,E,4,59,0.47,16.745,M,15.25,M,0,3335*42
$GNRMC,033022.800,A,2500.7978666,N,12132.4840629,E,0.09,317.02,090324,,,R,V*15
$GPHDT,91.324,T*08
$GNACCURACY,4.9*1B
$GNGGA,033022.900,2500.7978646,N,12132.4840725,E,4,59,0.47,16.741,M,15.25,M,0,3335*48
$GNRMC,033022.900,A,2500.7978646,N,12132.4840725,E,0.09,317.02,090324,,,R,V*1B
$GPHDT,,T*1B
$GNACCURACY,4.9*1B
$GNGGA,033023.000,2500.7978651,N,12132.4840723,E,4,59,0.47,16.762,M,15.25,M,1,3335*40
$GNRMC,033023.000,A,2500.7978651,N,12132.4840723,E,0.05,317.02,090324,,,R,V*1F
$GPHDT,92.101,T*0E
$GNGSA,A,3,08,194,195,27,21,16,04,09,02,07,196,26,0.86,0.47,0.72,1*33
$GNGSA,A,3,31,,,,,,,,,,,,0.86,0.47,0.72,1*0B
$GNGSA,A,3,88,78,81,77,87,79,,,,,,,0.86,0.47,0.72,2*0D
$GNGSA,A,3,21,13,19,27,26,15,,,,,,,0.86,0.47,0.72,3*07
$GNGSA,A,3,06,16,09,43,39,40,07,23,10,11,25,28,0.86,0.47,0.72,4*07
$GNGSA,A,3,34,,,,,,,,,,,,0.86,0.47,0.72,4*0B
$GPGSV,4,1,15,08,72,310,43,199,64,167,,194,63,047,43,195,58,123,40,1*57
$GPGSV,4,2,15,27,49,027,33,45,47,231,39,21,41,169,31,16,34,057,34,1*6C
$GPGSV,4,3,15,04,31,215,42,09,30,265,26,02,29,181,38,07,26,320,26,1*62
$GPGSV,4,4,15,196,21,173,31,26,16,085,24,31,14,138,19,1*67
$GPGSV,2,1,08,08,72,310,46,194,63,047,46,195,58,123,42,27,49,027,44,8*68
$GPGSV,2,2,08,04,31,215,47,09,30,265,26,196,21,173,23,26,16,085,33,8*5E
$GLGSV,2,1,06,88,71,070,42,78,46,007,35,81,42,189,37,77,32,088,28,1*76
$GLGSV,2,2,06,87,20,029,23,79,13,320,21,1*77
$GAGSV,2,1,07,21,51,350,35,13,50,107,37,19,36,256,17,27,33,063,31,7*7D
$GAGSV,2,2,07,26,28,175,31,15,22,048,29,04,10,312,13,7*4F
$GAGSV,2,1,07,21,51,350,41,13,50,107,42,19,36,256,21,27,33,063,30,1*7E
$GAGSV,2,2,07,26,28,175,30,15,22,048,38,04,10,312,22,1*4A
$GBGSV,4,1,13,06,81,224,41,16,78,191,41,09,75,299,42,43,73,058,41,1*7F
$GBGSV,4,2,13,39,67,177,40,40,65,316,43,07,62,295,40,23,62,358,37,1*7E
$GBGSV,4,3,13,10,52,277,27,11,48,044,46,25,47,098,43,28,40,208,35,1*7C
$GBGSV,4,4,13,34,25,040,41,1*45
$GBGSV,2,1,07,43,73,058,46,39,67,177,34,40,65,316,41,23,62,358,40,4*7F
$GBGSV,2,2,07,25,47,098,41,28,40,208,39,34,25,040,39,4*44
$GNACCURACY,4.9*1B
$PAIRSAT,1,35,2,0,201,3,0,200,4,0,221,5,0,200,6,0,200,7,0,201,8,0,221,9,0,221,10,0,200,11,0,200,12,0,200,13,0,200,14,0,200,15,0,200,16,0,201,17,0,200,18,0,200,19,0,200,20,0,200,21,0,201,22,0,200,23,0,200,24,0,200,25,0,200,26,0,221,27,0,221,28,0,200,29,0,200,30,0,200,31,0,201,32,0,200,194,0,621,195,0,621,196,0,620,199,0,600*5B
$PAIRSAT,2,23,65,0,200,66,0,200,67,0,200,68,0,200,70,0,200,71,0,200,72,0,200,73,0,200,74,0,200,75,0,200,76,0,200,77,0,201,78,0,201,79,0,201,80,0,200,81,0,201,82,0,200,83,0,200,84,0,200,85,0,200,86,0,200,87,0,201,88,0,201*5C
$PAIRSAT,3,23,2,0,1200,3,0,1200,4,0,1200,5,0,200,7,0,1200,8,0,1200,9,0,1200,10,0,1200,11,0,1200,12,0,1200,13,0,1221,15,0,1221,19,0,1221,21,0,1221,24,0,1200,25,0,1200,26,0,1221,27,0,1221,30,0,1200,31,0,1200,33,0,1200,34,0,1200,36,0,1200*6A
$PAIRSAT,4,46,1,0,200,2,0,200,3,0,600,4,0,200,5,0,200,6,0,201,7,0,201,8,0,200,9,0,201,10,0,201,11,0,201,12,0,200,13,0,200,14,0,200,16,0,201,19,0,600,20,0,600,21,0,600,22,0,600,23,0,621,24,0,600,25,0,621,26,0,600,27,0,600,28,0,621,29,0,600,30,0,600,32,0,600,33,0,600,34,0,621,35,0,600,36,0,600,37,0,600,38,0,600,39,0,621,40,0,421,41,0,600,42,0,600,43,0,621,44,0,600,45,0,600,46,0,400,59,0,400,60,0,400,61,0,400,62,0,400*4A
$PAIRDGP,8,2,4,7,8,9,16,21,27*7C
$GNGGA,033023.100,2500.7978661,N,12132.4840684,E,4,59,0.47,16.749,M,15.25,M,1,3335*47
$GNRMC,033023.100,A,2500.7978661,N,12132.4840684,E,0.05,317.02,090324,,,R,V*11
$GPHDT,,T*1B
$GNACCURACY,4.9*1B
$GNGGA,033023.200,2500.7978656,N,12132.4840675,E,4,59,0.47,16.746,M,15.25,M,1,3335*41
$GNRMC,033023.200,A,2500.7978656,N,12132.4840675,E,0.03,317.02,090324,,,R,V*1E
$GPHDT,92.003,T*0D
$GNACCURACY,4.9*1B
$GNGGA,033023.300,2500.7978650,N,12132.4840685,E,4,59,0.47,16.758,M,15.25,M,1,3335*46
$GNRMC,033023.300,A,2500.7978650,N,12132.4840685,E,0.03,317.02,090324,,,R,V*16
$GPHDT,,T*1B
$GNACCURACY,4.9*1B
$GNGGA,033023.400,2500.7978689,N,12132.4840638,E,4,58,0.49,16.742,M,15.25,M,1,3335*47
$GNRMC,033023.400,A,2500.7978689,N,12132.4840638,E,0.03,317.02,090324,,,R,V*13
$GPHDT,91.717,T*0C
$GNACCURACY,4.9*1B
$GNGGA,033023.500,2500.7978639,N,12132.4840698,E,4,57,0.49,16.749,M,15.25,M,1,3335*43
$GNRMC,033023.500,A,2500.7978639,N,12132.4840698,E,0.03,317.02,090324,,,R,V*13
$GPHDT,,T*1B
$GNACCURACY,4.9*1B
$GNGGA,033023.600,2500.7978681,N,12132.4840679,E,4,57,0.49,16.748,M,15.25,M,1,3335*4D
$GNRMC,033023.600,A,2500.7978681,N,12132.4840679,E,0.02,317.02,090324,,,R,V*1D
$GPHDT,91.126,T*08
$GNACCURACY,4.9*1B
$GNGGA,033023.700,2500.7978657,N,12132.4840696,E,4,57,0.49,16.751,M,15.25,M,0,3335*4F
$GNRMC,033023.700,A,2500.7978657,N,12132.4840696,E,0.12,317.02,090324,,,R,V*17
$GPHDT,,T*1B
$GNACCURACY,4.9*1B
$GNGGA,033023.800,2500.7978648,N,12132.4840669,E,4,57,0.49,16.743,M,15.25,M,0,3335*4D
$GNRMC,033023.800,A,2500.7978648,N,12132.4840669,E,0.12,317.02,090324,,,R,V*16
$GPHDT,91.237,T*0B
$GNACCURACY,5.2*11
$GNGGA,033023.900,2500.7978644,N,12132.4840654,E,4,58,0.47,16.732,M,15.25,M,0,3335*49
$GNRMC,033023.900,A,2500.7978644,N,12132.4840654,E,0.12,317.02,090324,,,R,V*15
$GPHDT,,T*1B
$GNACCURACY,5.2*11
$GNGGA,033024.000,2500.7978654,N,12132.4840696,E,4,58,0.47,16.749,M,15.25,M,1,3335*45
$GNRMC,033024.000,A,2500.7978654,N,12132.4840696,E,0.05,317.02,090324,,,R,V*12
$GPHDT,91.158,T*01
$GNGSA,A,3,08,194,195,27,21,16,04,09,02,07,196,26,0.86,0.47,0.72,1*33
$GNGSA,A,3,31,,,,,,,,,,,,0.86,0.47,0.72,1*0B
$GNGSA,A,3,88,78,81,77,87,79,,,,,,,0.86,0.47,0.72,2*0D
$GNGSA,A,3,21,13,19,27,26,15,,,,,,,0.86,0.47,0.72,3*07
$GNGSA,A,3,06,16,09,43,39,40,07,23,10,11,25,28,0.86,0.47,0.72,4*07
$GNGSA,A,3,34,,,,,,,,,,,,0.86,0.47,0.72,4*0B
$GPGSV,4,1,15,08,72,310,44,199,64,167,,194,63,047,43,195,58,123,40,1*50
$GPGSV,4,2,15,27,49,027,35,45,47,231,40,21,41,169,32,16,34,057,34,1*67
$GPGSV,4,3,15,04,31,215,41,09,30,265,28,02,29,181,38,07,26,320,24,1*6D
$GPGSV,4,4,15,196,21,173,25,26,16,085,20,31,14,138,18,1*67
$GPGSV,2,1,07,08,72,310,46,194,63,047,46,195,58,123,43,27,49,027,44,8*66
$GPGSV,2,2,07,04,31,215,46,09,30,265,25,26,16,085,32,8*5B
$GLGSV,2,1,06,88,71,070,42,78,46,007,35,81,42,189,38,77,32,088,29,1*78
$GLGSV,2,2,06,87,20,029,20,79,13,320,21,1*74
$GAGSV,2,1,07,21,51,350,31,13,50,107,37,19,36,256,17,27,33,063,30,7*78
$GAGSV,2,2,07,26,28,175,34,15,22,048,30,04,10,312,17,7*46
$GAGSV,2,1,07,21,51,350,41,13,50,107,39,19,36,256,21,27,33,063,30,1*72
$GAGSV,2,2,07,26,28,175,29,15,22,048,35,04,10,312,20,1*4D
$GBGSV,4,1,13,06,81,224,41,16,78,191,41,09,75,299,43,43,73,058,43,1*7C
$GBGSV,4,2,13,39,67,177,40,40,65,316,43,07,62,295,39,23,62,358,36,1*71
$GBGSV,4,3,13,10,52,277,29,11,48,044,46,25,47,098,43,28,40,208,36,1*71
$GBGSV,4,4,13,34,25,040,40,1*44
$GBGSV,2,1,07,43,73,058,46,39,67,177,35,40,65,316,40,23,62,358,40,4*7F
$GBGSV,2,2,07,25,47,098,39,28,40,208,36,34,25,040,37,4*4A
$GNACCURACY,5.2*11
$PAIRSAT,1,35,2,0,201,3,0,200,4,0,221,5,0,200,6,0,200,7,0,201,8,0,221,9,0,221,10,0,200,11,0,200,12,0,200,13,0,200,14,0,200,15,0,200,16,0,201,17,0,200,18,0,200,19,0,200,20,0,200,21,0,201,22,0,200,23,0,200,24,0,200,25,0,200,26,0,221,27,0,221,28,0,200,29,0,200,30,0,200,31,0,201,32,0,200,194,0,621,195,0,621,196,0,620,199,0,600*5B
$PAIRSAT,2,23,65,0,200,66,0,200,67,0,200,68,0,200,70,0,200,71,0,200,72,0,200,73,0,200,74,0,200,75,0,200,76,0,200,77,0,201,78,0,201,79,0,201,80,0,200,81,0,201,82,0,200,83,0,200,84,0,200,85,0,200,86,0,200,87,0,201,88,0,201*5C
$PAIRSAT,3,23,2,0,1200,3,0,1200,4,0,1200,5,0,200,7,0,1200,8,0,1200,9,0,1200,10,0,1200,11,0,1200,12,0,1200,13,0,1221,15,0,1221,19,0,1221,21,0,1221,24,0,1200,25,0,1200,26,0,1221,27,0,1221,30,0,1200,31,0,1200,33,0,1200,34,0,1200,36,0,1200*6A
$PAIRSAT,4,46,1,0,200,2,0,200,3,0,600,4,0,200,5,0,200,6,0,201,7,0,201,8,0,200,9,0,201,10,0,201,11,0,201,12,0,200,13,0,200,14,0,200,16,0,201,19,0,600,20,0,600,21,0,600,22,0,600,23,0,621,24,0,600,25,0,621,26,0,600,27,0,600,28,0,621,29,0,600,30,0,600,32,0,600,33,0,600,34,0,621,35,0,600,36,0,600,37,0,600,38,0,600,39,0,621,40,0,421,41,0,600,42,0,600,43,0,621,44,0,600,45,0,600,46,0,400,59,0,400,60,0,400,61,0,400,62,0,400*4A
$PAIRDGP,8,2,4,7,8,9,16,21,27*7C
$GNGGA,033024.100,2500.7978642,N,12132.4840701,E,4,58,0.47,16.748,M,15.25,M,1,3335*4D
$GNRMC,033024.100,A,2500.7978642,N,12132.4840701,E,0.06,317.02,090324,,,R,V*18
$GPHDT,,T*1B
$GNACCURACY,5.2*11
$GNGGA,033024.200,2500.7978645,N,12132.4840702,E,4,58,0.47,16.752,M,15.25,M,1,3335*41
$GNRMC,033024.200,A,2500.7978645,N,12132.4840702,E,0.04,317.02,090324,,,R,V*1D
$GPHDT,90.936,T*00
$GNACCURACY,5.2*11
$GNGGA,033024.300,2500.7978650,N,12132.4840688,E,4,58,0.47,16.752,M,15.25,M,1,3335*47
$GNRMC,033024.300,A,2500.7978650,N,12132.4840688,E,0.04,317.02,090324,,,R,V*1B
$GPHDT,,T*1B
$GNACCURACY,5.2*11
$GNGGA,033024.400,2500.7978627,N,12132.4840723,E,4,58,0.47,16.761,M,15.25,M,1,3335*40
$GNRMC,033024.400,A,2500.7978627,N,12132.4840723,E,0.05,317.02,090324,,,R,V*1D
$GPHDT,91.207,T*08
$GNACCURACY,5.1*12
$GNGGA,033024.500,2500.7978652,N,12132.4840692,E,4,58,0.47,16.754,M,15.25,M,0,3335*4F
$GNRMC,033024.500,A,2500.7978652,N,12132.4840692,E,0.03,317.02,090324,,,R,V*13
$GPHDT,,T*1B
$GNACCURACY,5.1*12
$GNGGA,033024.600,2500.7978671,N,12132.4840667,E,4,58,0.47,16.740,M,15.25,M,0,3335*42
$GNRMC,033024.600,A,2500.7978671,N,12132.4840667,E,0.10,317.02,090324,,,R,V*19
$GPHDT,91.077,T*0D
$GNACCURACY,5.1*12
$GNGGA,033024.700,2500.7978688,N,12132.4840712,E,4,58,0.47,16.740,M,15.25,M,0,3335*46
$GNRMC,033024.700,A,2500.7978688,N,12132.4840712,E,0.10,317.02,090324,,,R,V*1D
$GPHDT,,T*1B
$GNACCURACY,4.8*1A
$GNGGA,033024.800,2500.7978655,N,12132.4840723,E,4,58,0.47,16.749,M,15.25,M,0,3335*42
$GNRMC,033024.800,A,2500.7978655,N,12132.4840723,E,0.03,317.02,090324,,,R,V*12
$GPHDT,91.793,T*00
$GNACCURACY,4.8*1A
$GNGGA,033024.900,2500.7978655,N,12132.4840667,E,4,58,0.47,16.733,M,15.25,M,0,3335*4F
$GNRMC,033024.900,A,2500.7978655,N,12132.4840667,E,0.14,317.02,090324,,,R,V*14
$GPHDT,,T*1B
$GNACCURACY,4.8*1A
$GNGGA,033025.000,2500.7978676,N,12132.4840689,E,4,58,0.47,16.738,M,15.25,M,1,3335*4C
$GNRMC,033025.000,A,2500.7978676,N,12132.4840689,E,0.17,317.02,090324,,,R,V*1E
$GPHDT,91.143,T*0B
$GNGSA,A,3,08,194,195,27,21,16,04,09,02,07,196,26,0.86,0.47,0.72,1*33
$GNGSA,A,3,31,,,,,,,,,,,,0.86,0.47,0.72,1*0B
$GNGSA,A,3,88,78,81,77,87,79,,,,,,,0.86,0.47,0.72,2*0D
$GNGSA,A,3,21,13,19,27,26,15,,,,,,,0.86,0.47,0.72,3*07
$GNGSA,A,3,06,16,09,43,39,40,07,23,10,11,25,28,0.86,0.47,0.72,4*07
$GNGSA,A,3,34,,,,,,,,,,,,0.86,0.47,0.72,4*0B
$GPGSV,4,1,15,08,72,310,44,199,64,167,,194,63,047,43,195,58,123,40,1*50
$GPGSV,4,2,15,27,49,027,34,45,47,231,40,21,41,169,31,16,34,057,34,1*65
$GPGSV,4,3,15,04,31,215,42,09,30,265,26,02,29,181,36,07,26,320,27,1*6D
$GPGSV,4,4,15,196,21,173,25,26,16,085,24,31,14,138,16,1*6D
$GPGSV,2,1,07,08,72,310,46,194,63,047,46,195,58,123,42,27,49,027,45,8*66
$GPGSV,2,2,07,04,31,215,46,09,30,265,29,26,16,085,32,8*57
$GLGSV,2,1,06,88,71,070,42,78,46,007,36,81,42,189,38,77,32,088,29,1*7B
$GLGSV,2,2,06,87,20,029,21,79,13,320,20,1*74
$GAGSV,2,1,07,21,51,350,31,13,50,107,35,19,36,256,17,27,33,063,30,7*7A
$GAGSV,2,2,07,26,28,175,33,15,22,048,31,04,10,312,15,7*42
$GAGSV,2,1,07,21,51,350,41,13,50,107,40,19,36,256,21,27,33,063,30,1*7C
$GAGSV,2,2,07,26,28,175,28,15,22,048,35,04,10,312,21,1*4D
$GBGSV,4,1,13,06,81,224,41,16,78,191,42,09,75,299,43,43,73,058,44,1*78
$GBGSV,4,2,13,39,67,177,40,40,65,316,45,07,62,295,40,23,62,358,37,1*78
$GBGSV,4,3,13,10,52,277,32,11,48,044,46,25,47,098,44,28,40,208,34,1*7E
$GBGSV,4,4,13,34,25,040,40,1*44
$GBGSV,2,1,07,43,73,058,45,39,67,177,34,40,65,316,40,23,62,358,40,4*7D
$GBGSV,2,2,07,25,47,098,38,28,40,208,37,34,25,040,39,4*44
$GNACCURACY,4.7*15
$PAIRSAT,1,35,2,0,201,3,0,200,4,0,221,5,0,200,6,0,200,7,0,201,8,0,221,9,0,221,10,0,200,11,0,200,12,0,200,13,0,200,14,0,200,15,0,200,16,0,201,17,0,200,18,0,200,19,0,200,20,0,200,21,0,201,22,0,200,23,0,200,24,0,200,25,0,200,26,0,221,27,0,221,28,0,200,29,0,200,30,0,200,31,0,201,32,0,200,194,0,621,195,0,621,196,0,620,199,0,600*5B
$PAIRSAT,2,23,65,0,200,66,0,200,67,0,200,68,0,200,70,0,200,71,0,200,72,0,200,73,0,200,74,0,200,75,0,200,76,0,200,77,0,201,78,0,201,79,0,201,80,0,200,81,0,201,82,0,200,83,0,200,84,0,200,85,0,200,86,0,200,87,0,201,88,0,201*5C
$PAIRSAT,3,23,2,0,1200,3,0,1200,4,0,1200,5,0,200,7,0,1200,8,0,1200,9,0,1200,10,0,1200,11,0,1200,12,0,1200,13,0,1221,15,0,1221,19,0,1221,21,0,1221,24,0,1200,25,0,1200,26,0,1221,27,0,1221,30,0,1200,31,0,1200,33,0,1200,34,0,1200,36,0,1200*6A
$PAIRSAT,4,46,1,0,200,2,0,200,3,0,600,4,0,200,5,0,200,6,0,201,7,0,201,8,0,200,9,0,201,10,0,201,11,0,201,12,0,200,13,0,200,14,0,200,16,0,201,19,0,600,20,0,600,21,0,600,22,0,600,23,0,621,24,0,600,25,0,621,26,0,600,27,0,600,28,0,621,29,0,600,30,0,600,32,0,600,33,0,600,34,0,621,35,0,600,36,0,600,37,0,600,38,0,600,39,0,621,40,0,421,41,0,600,42,0,600,43,0,621,44,0,600,45,0,600,46,0,400,59,0,400,60,0,400,61,0,400,62,0,400*4A
$PAIRDGP,8,2,4,7,8,9,16,21,27*7C
$GNGGA,033025.100,2500.7978648,N,12132.4840708,E,4,58,0.47,16.746,M,15.25,M,1,3335*41
$GNRMC,033025.100,A,2500.7978648,N,12132.4840708,E,0.08,317.02,090324,,,R,V*14
$GPHDT,,T*1B
$GNACCURACY,4.6*14
$GNGGA,033025.200,2500.7978660,N,12132.4840690,E,4,58,0.47,16.727,M,15.25,M,1,3335*4F
$GNRMC,033025.200,A,2500.7978660,N,12132.4840690,E,0.04,317.02,090324,,,R,V*11
$GPHDT,91.344,T*0E
$GNACCURACY,4.6*14
$GNGGA,033025.300,2500.7978656,N,12132.4840699,E,4,58,0.47,16.733,M,15.25,M,1,3335*47
$GNRMC,033025.300,A,2500.7978656,N,12132.4840699,E,0.02,317.02,090324,,,R,V*1A
$GPHDT,,T*1B
$GNACCURACY,4.6*14
$GNGGA,033025.400,2500.7978634,N,12132.4840702,E,4,58,0.47,16.737,M,15.25,M,1,3335*43
$GNRMC,033025.400,A,2500.7978634,N,12132.4840702,E,0.05,317.02,090324,,,R,V*1D
$GPHDT,91.118,T*05
$GNACCURACY,4.6*14
$GNGGA,033025.500,2500.7978657,N,12132.4840671,E,4,58,0.47,16.730,M,15.25,M,1,3335*45
$GNRMC,033025.500,A,2500.7978657,N,12132.4840671,E,0.03,317.02,090324,,,R,V*1A
$GPHDT,,T*1B
$GNACCURACY,4.6*14
$GNGGA,033025.600,2500.7978655,N,12132.4840687,E,4,58,0.47,16.736,M,15.25,M,1,3335*4B
$GNRMC,033025.600,A,2500.7978655,N,12132.4840687,E,0.03,317.02,090324,,,R,V*12
$GPHDT,91.226,T*0B
$GNACCURACY,4.6*14
$GNGGA,033025.700,2500.7978685,N,12132.4840696,E,4,58,0.47,16.744,M,15.25,M,0,3335*43
$GNRMC,033025.700,A,2500.7978685,N,12132.4840696,E,0.13,317.02,090324,,,R,V*1F
$GPHDT,,T*1B
$GNACCURACY,4.6*14
$GNGGA,033025.800,2500.7978650,N,12132.4840706,E,4,59,0.47,16.749,M,15.25,M,0,3335*40
$GNRMC,033025.800,A,2500.7978650,N,12132.4840706,E,0.03,317.02,090324,,,R,V*11
$GPHDT,91.615,T*0F
$GNACCURACY,4.6*14
$GNGGA,033025.900,2500.7978676,N,12132.4840722,E,4,59,0.47,16.750,M,15.25,M,0,3335*4B
$GNRMC,033025.900,A,2500.7978676,N,12132.4840722,E,0.11,317.02,090324,,,R,V*11
$GPHDT,,T*1B
$GNACCURACY,4.6*14
$GNGGA,033026.000,2500.7978631,N,12132.4840698,E,4,59,0.47,16.750,M,15.25,M,1,3335*43
$GNRMC,033026.000,A,2500.7978631,N,12132.4840698,E,0.12,317.02,090324,,,R,V*1B
$GPHDT,90.763,T*0E
$GNGSA,A,3,08,194,195,27,21,16,04,09,02,07,196,26,0.86,0.47,0.72,1*33
$GNGSA,A,3,31,,,,,,,,,,,,0.86,0.47,0.72,1*0B
$GNGSA,A,3,88,78,81,77,87,79,,,,,,,0.86,0.47,0.72,2*0D
$GNGSA,A,3,21,13,19,27,26,15,,,,,,,0.86,0.47,0.72,3*07
$GNGSA,A,3,06,16,09,43,39,40,07,23,10,11,25,28,0.86,0.47,0.72,4*07
$GNGSA,A,3,34,,,,,,,,,,,,0.86,0.47,0.72,4*0B
$GPGSV,4,1,15,08,72,310,44,199,64,167,,194,63,047,43,195,58,123,41,1*51
$GPGSV,4,2,15,27,49,027,33,45,47,231,39,21,41,169,31,16,34,057,31,1*69
$GPGSV,4,3,15,04,31,215,41,09,30,265,25,02,29,181,38,07,26,320,22,1*66
$GPGSV,4,4,15,196,21,173,30,26,16,085,27,31,14,138,18,1*64
$GPGSV,2,1,08,08,72,310,47,194,63,047,46,195,58,123,43,27,49,027,46,8*6A
$GPGSV,2,2,08,04,31,215,47,09,30,265,28,196,21,173,25,26,16,085,31,8*54
$GLGSV,2,1,06,88,71,070,42,78,46,007,36,81,42,189,38,77,32,088,28,1*7A
$GLGSV,2,2,06,87,20,029,21,79,13,320,19,1*7E
$GAGSV,2,1,07,21,51,350,32,13,50,107,36,19,36,256,17,27,33,063,30,7*7A
$GAGSV,2,2,07,26,28,175,31,15,22,048,31,04,10,312,11,7*44
$GAGSV,2,1,07,21,51,350,41,13,50,107,42,19,36,256,21,27,33,063,29,1*76
$GAGSV,2,2,07,26,28,175,29,15,22,048,36,04,10,312,22,1*4C
$GBGSV,4,1,13,06,81,224,41,16,78,191,42,09,75,299,43,43,73,058,44,1*78
$GBGSV,4,2,13,39,67,177,40,40,65,316,45,07,62,295,41,23,62,358,38,1*76
$GBGSV,4,3,13,10,52,277,34,11,48,044,46,25,47,098,42,28,40,208,32,1*78
$GBGSV,4,4,13,34,25,040,40,1*44
$GBGSV,2,1,07,43,73,058,45,39,67,177,33,40,65,316,41,23,62,358,42,4*79
$GBGSV,2,2,07,25,47,098,40,28,40,208,39,34,25,040,40,4*4B
$GNACCURACY,4.6*14
$PAIRSAT,1,35,2,0,201,3,0,200,4,0,221,5,0,200,6,0,200,7,0,201,8,0,221,9,0,221,10,0,200,11,0,200,12,0,200,13,0,200,14,0,200,15,0,200,16,0,201,17,0,200,18,0,200,19,0,200,20,0,200,21,0,201,22,0,200,23,0,200,24,0,200,25,0,200,26,0,221,27,0,221,28,0,200,29,0,200,30,0,200,31,0,201,32,0,200,194,0,621,195,0,621,196,0,620,199,0,600*5B
$PAIRSAT,2,23,65,0,200,66,0,200,67,0,200,68,0,200,70,0,200,71,0,200,72,0,200,73,0,200,74,0,200,75,0,200,76,0,200,77,0,201,78,0,201,79,0,201,80,0,200,81,0,201,82,0,200,83,0,200,84,0,200,85,0,200,86,0,200,87,0,201,88,0,201*5C
$PAIRSAT,3,23,2,0,1200,3,0,1200,4,0,1200,5,0,200,7,0,1200,8,0,1200,9,0,1200,10,0,1200,11,0,1200,12,0,1200,13,0,1221,15,0,1221,19,0,1221,21,0,1221,24,0,1200,25,0,1200,26,0,1221,27,0,1221,30,0,1200,31,0,1200,33,0,1200,34,0,1200,36,0,1200*6A
$PAIRSAT,4,46,1,0,200,2,0,200,3,0,600,4,0,200,5,0,200,6,0,201,7,0,201,8,0,200,9,0,201,10,0,201,11,0,201,12,0,200,13,0,200,14,0,200,16,0,201,19,0,600,20,0,600,21,0,600,22,0,600,23,0,621,24,0,600,25,0,621,26,0,600,27,0,600,28,0,621,29,0,600,30,0,600,32,0,600,33,0,600,34,0,621,35,0,600,36,0,600,37,0,600,38,0,600,39,0,621,40,0,421,41,0,600,42,0,600,43,0,621,44,0,600,45,0,600,46,0,400,59,0,400,60,0,400,61,0,400,62,0,400*4A
$PAIRDGP,8,2,4,7,8,9,16,21,27*7C
$GNGGA,033026.100,2500.7978661,N,12132.4840655,E,4,59,0.47,16.742,M,15.25,M,1,3335*45
$GNRMC,033026.100,A,2500.7978661,N,12132.4840655,E,0.05,317.02,090324,,,R,V*18
$GPHDT,,T*1B
$GNACCURACY,4.6*14
$GNGGA,033026.200,2500.7978678,N,12132.4840687,E,4,59,0.47,16.752,M,15.25,M,1,3335*40
$GNRMC,033026.200,A,2500.7978678,N,12132.4840687,E,0.05,317.02,090324,,,R,V*1C
$GPHDT,91.513,T*0A
$GNACCURACY,4.6*14
$GNGGA,033026.300,2500.7978691,N,12132.4840661,E,4,58,0.48,16.749,M,15.25,M,1,3335*4A
$GNRMC,033026.300,A,2500.7978691,N,12132.4840661,E,0.03,317.02,090324,,,R,V*14
$GPHDT,,T*1B
$GNACCURACY,4.6*14
$GNGGA,033026.400,2500.7978666,N,12132.4840673,E,4,58,0.48,16.737,M,15.25,M,1,3335*4F
$GNRMC,033026.400,A,2500.7978666,N,12132.4840673,E,0.05,317.02,090324,,,R,V*1E
$GPHDT,91.094,T*00
$GNACCURACY,4.6*14
$GNGGA,033026.500,2500.7978680,N,12132.4840658,E,4,58,0.48,16.751,M,15.25,M,1,3335*4F
$GNRMC,033026.500,A,2500.7978680,N,12132.4840658,E,0.04,317.02,090324,,,R,V*1F
$GPHDT,,T*1B
$GNACCURACY,4.6*14
$GNGGA,033026.600,2500.7978638,N,12132.4840682,E,4,58,0.48,16.751,M,15.25,M,0,3335*49
$GNRMC,033026.600,A,2500.7978638,N,12132.4840682,E,0.10,317.02,090324,,,R,V*1D
$GPHDT,91.194,T*01
$GNACCURACY,4.6*14
$GNGGA,033026.700,2500.7978649,N,12132.4840660,E,4,58,0.48,16.748,M,15.25,M,0,3335*4A
$GNRMC,033026.700,A,2500.7978649,N,12132.4840660,E,0.03,317.02,090324,,,R,V*14
$GPHDT,,T*1B
$GNACCURACY,4.6*14
$GNGGA,033026.800,2500.7978640,N,12132.4840655,E,4,58,0.48,16.741,M,15.25,M,0,3335*43
$GNRMC,033026.800,A,2500.7978640,N,12132.4840655,E,0.08,317.02,090324,,,R,V*1F
$GPHDT,90.796,T*04
$GNACCURACY,4.6*14
$GNGGA,033026.900,2500.7978662,N,12132.4840659,E,4,58,0.48,16.744,M,15.25,M,0,3335*4B
$GNRMC,033026.900,A,2500.7978662,N,12132.4840659,E,0.07,317.02,090324,,,R,V*1D
$GPHDT,,T*1B
$GNACCURACY,4.7*15
$GNGGA,033027.000,2500.7978651,N,12132.4840721,E,4,58,0.48,16.748,M,15.25,M,1,3335*40
$GNRMC,033027.000,A,2500.7978651,N,12132.4840721,E,0.12,317.02,090324,,,R,V*1F
$GPHDT,91.506,T*0E
$GNGSA,A,3,08,194,195,27,21,16,04,09,02,07,196,26,0.89,0.48,0.75,1*34
$GNGSA,A,3,88,78,81,77,87,79,,,,,,,0.89,0.48,0.75,2*0A
$GNGSA,A,3,21,13,19,27,26,15,,,,,,,0.89,0.48,0.75,3*00
$GNGSA,A,3,06,16,09,43,39,40,07,23,10,11,25,28,0.89,0.48,0.75,4*00
$GNGSA,A,3,34,,,,,,,,,,,,0.89,0.48,0.75,4*0C
$GPGSV,4,1,15,08,72,310,46,199,64,167,,194,63,047,42,195,58,123,41,1*52
$GPGSV,4,2,15,27,49,027,34,45,47,231,38,21,41,169,31,16,34,057,32,1*6C
$GPGSV,4,3,15,04,31,215,41,09,30,265,24,02,29,181,38,07,26,320,26,1*63
$GPGSV,4,4,15,196,21,173,30,26,16,085,27,31,14,138,15,1*69
$GPGSV,2,1,08,08,72,310,47,194,63,047,47,195,58,123,43,27,49,027,46,8*6B
$GPGSV,2,2,08,04,31,215,47,09,30,265,24,196,21,173,24,26,16,085,31,8*59
$GLGSV,2,1,06,88,71,070,42,78,46,007,35,81,42,189,40,77,32,088,27,1*79
$GLGSV,2,2,06,87,20,029,19,79,13,320,19,1*75
$GAGSV,2,1,07,21,51,350,32,13,50,107,36,19,36,256,20,27,33,063,30,7*7E
$GAGSV,2,2,07,26,28,175,31,15,22,048,30,04,10,312,12,7*46
$GAGSV,2,1,07,21,51,350,40,13,50,107,42,19,36,256,20,27,33,063,30,1*7E
$GAGSV,2,2,07,26,28,175,28,15,22,048,38,04,10,312,24,1*45
$GBGSV,4,1,13,06,81,224,41,16,78,191,42,09,75,299,43,43,73,058,44,1*78
$GBGSV,4,2,13,39,67,177,40,40,65,316,44,07,62,295,41,23,62,358,38,1*77
$GBGSV,4,3,13,10,52,277,33,11,48,044,46,25,47,098,42,28,40,208,31,1*7C
$GBGSV,4,4,13,34,25,040,40,1*44
$GBGSV,2,1,07,43,73,058,45,39,67,177,34,40,65,316,40,23,62,358,43,4*7E
$GBGSV,2,2,07,25,47,098,40,28,40,208,39,34,25,040,40,4*4B
$GNACCURACY,4.7*15
$PAIRSAT,1,35,2,0,201,3,0,200,4,0,221,5,0,200,6,0,200,7,0,201,8,0,221,9,0,221,10,0,200,11,0,200,12,0,200,13,0,200,14,0,200,15,0,200,16,0,201,17,0,200,18,0,200,19,0,200,20,0,200,21,0,201,22,0,200,23,0,200,24,0,200,25,0,200,26,0,221,27,0,221,28,0,200,29,0,200,30,0,200,31,0,201,32,0,200,194,0,621,195,0,621,196,0,620,199,0,600*5B
$PAIRSAT,2,23,65,0,200,66,0,200,67,0,200,68,0,200,70,0,200,71,0,200,72,0,200,73,0,200,74,0,200,75,0,200,76,0,200,77,0,201,78,0,201,79,0,201,80,0,200,81,0,201,82,0,200,83,0,200,84,0,200,85,0,200,86,0,200,87,0,201,88,0,201*5C
$PAIRSAT,3,23,2,0,1200,3,0,1200,4,0,1200,5,0,200,7,0,1200,8,0,1200,9,0,1200,10,0,1200,11,0,1200,12,0,1200,13,0,1221,15,0,1221,19,0,1221,21,0,1221,24,0,1200,25,0,1200,26,0,1221,27,0,1221,30,0,1200,31,0,1200,33,0,1200,34,0,1200,36,0,1200*6A
$PAIRSAT,4,46,1,0,200,2,0,200,3,0,600,4,0,200,5,0,200,6,0,201,7,0,201,8,0,200,9,0,201,10,0,201,11,0,201,12,0,200,13,0,200,14,0,200,16,0,201,19,0,600,20,0,600,21,0,600,22,0,600,23,0,621,24,0,600,25,0,621,26,0,600,27,0,600,28,0,621,29,0,600,30,0,600,32,0,600,33,0,600,34,0,621,35,0,600,36,0,600,37,0,600,38,0,600,39,0,621,40,0,421,41,0,600,42,0,600,43,0,621,44,0,600,45,0,600,46,0,600,59,0,400,60,0,400,61,0,400,62,0,400*48
$PAIRDGP,8,2,4,7,8,9,16,21,27*7C
$GNGGA,033027.100,2500.7978626,N,12132.4840760,E,4,58,0.48,16.756,M,15.25,M,1,3335*4B
$GNRMC,033027.100,A,2500.7978626,N,12132.4840760,E,0.05,317.02,090324,,,R,V*1D
$GPHDT,,T*1B
$GNACCURACY,4.6*14
$GNGGA,033027.200,2500.7978611,N,12132.4840724,E,4,58,0.48,16.736,M,15.25,M,1,3335*4A
$GNRMC,033027.200,A,2500.7978611,N,12132.4840724,E,0.07,317.02,090324,,,R,V*18
$GPHDT,90.947,T*06
$GNACCURACY,4.5*17
$GNGGA,033027.300,2500.7978599,N,12132.4840774,E,4,58,0.48,16.745,M,15.25,M,1,3335*49
$GNRMC,033027.300,A,2500.7978599,N,12132.4840774,E,0.03,317.02,090324,,,R,V*1B
$GPHDT,,T*1B
$GNACCURACY,4.5*17
$GNGGA,033027.400,2500.7978611,N,12132.4840761,E,4,58,0.48,16.746,M,15.25,M,1,3335*4A
$GNRMC,033027.400,A,2500.7978611,N,12132.4840761,E,0.04,317.02,090324,,,R,V*1C
$GPHDT,91.197,T*02
$GNACCURACY,4.5*17
$GNGGA,033027.500,2500.7978635,N,12132.4840754,E,4,58,0.48,16.749,M,15.25,M,1,3335*44
$GNRMC,033027.500,A,2500.7978635,N,12132.4840754,E,0.06,317.02,090324,,,R,V*1F
$GPHDT,,T*1B
$GNACCURACY,4.4*16
$GNGGA,033027.600,2500.7978612,N,12132.4840729,E,4,58,0.48,16.753,M,15.25,M,0,3335*42
$GNRMC,033027.600,A,2500.7978612,N,12132.4840729,E,0.03,317.02,090324,,,R,V*16
$GPHDT,90.882,T*0E
$GNACCURACY,4.5*17
$GNGGA,033027.700,2500.7978632,N,12132.4840727,E,4,58,0.48,16.758,M,15.25,M,0,3335*44
$GNRMC,033027.700,A,2500.7978632,N,12132.4840727,E,0.02,317.02,090324,,,R,V*1A
$GPHDT,,T*1B
$GNACCURACY,4.5*17
$GNGGA,033027.800,2500.7978630,N,12132.4840732,E,4,58,0.48,16.751,M,15.25,M,0,3335*44
$GNRMC,033027.800,A,2500.7978630,N,12132.4840732,E,0.09,317.02,090324,,,R,V*18
$GPHDT,91.327,T*0B
$GNACCURACY,4.4*16
$GNGGA,033027.900,2500.7978621,N,12132.4840746,E,4,58,0.48,16.757,M,15.25,M,0,3335*40
$GNRMC,033027.900,A,2500.7978621,N,12132.4840746,E,0.04,317.02,090324,,,R,V*17
$GPHDT,,T*1B
$GNACCURACY,4.4*16
$GNGGA,033028.000,2500.7978605,N,12132.4840756,E,4,58,0.48,16.760,M,15.25,M,1,3335*44
$GNRMC,033028.000,A,2500.7978605,N,12132.4840756,E,0.03,317.02,090324,,,R,V*11
$GPHDT,91.283,T*04
$GNGSA,A,3,08,194,195,27,21,16,04,09,02,07,196,26,0.89,0.48,0.75,1*34
$GNGSA,A,3,88,78,81,77,87,79,,,,,,,0.89,0.48,0.75,2*0A
$GNGSA,A,3,21,13,19,27,26,15,,,,,,,0.89,0.48,0.75,3*00
$GNGSA,A,3,06,16,09,43,39,40,07,23,10,11,25,28,0.89,0.48,0.75,4*00
$GNGSA,A,3,34,,,,,,,,,,,,0.89,0.48,0.75,4*0C
$GPGSV,4,1,15,08,72,310,45,199,64,167,,194,63,047,42,195,58,123,41,1*51
$GPGSV,4,2,15,27,49,027,34,45,47,231,39,21,41,169,32,16,34,057,33,1*6F
$GPGSV,4,3,15,04,31,215,42,09,30,265,24,02,29,181,37,07,26,320,31,1*69
$GPGSV,4,4,15,196,21,173,33,26,16,085,27,31,14,138,15,1*6A
$GPGSV,2,1,08,08,72,310,47,194,63,047,47,195,58,123,43,27,49,027,46,8*6B
$GPGSV,2,2,08,04,31,215,46,09,30,265,25,196,21,173,25,26,16,085,31,8*58
$GLGSV,2,1,06,88,71,070,42,78,46,007,36,81,42,189,40,77,32,088,27,1*7A
$GLGSV,2,2,06,87,20,029,19,79,13,320,20,1*7F
$GAGSV,2,1,07,21,51,350,33,13,50,107,35,19,36,256,20,27,33,063,30,7*7C
$GAGSV,2,2,07,26,28,175,30,15,22,048,31,04,10,312,12,7*46
$GAGSV,2,1,07,21,51,350,41,13,50,107,41,19,36,256,22,27,33,063,27,1*78
$GAGSV,2,2,07,26,28,175,29,15,22,048,38,04,10,312,23,1*43
$GBGSV,4,1,13,06,81,224,41,16,78,191,42,09,75,299,43,43,73,058,44,1*78
$GBGSV,4,2,13,39,67,177,41,40,65,316,46,07,62,295,39,23,62,358,38,1*7B
$GBGSV,4,3,13,10,52,277,33,11,48,044,46,25,47,098,42,28,40,208,29,1*75
$GBGSV,4,4,13,34,25,040,41,1*45
$GBGSV,2,1,07,43,73,058,45,39,67,177,35,40,65,316,43,23,62,358,42,4*7D
$GBGSV,2,2,07,25,47,098,40,28,40,208,38,34,25,040,39,4*44
$GNACCURACY,4.4*16
$PAIRSAT,1,35,2,0,201,3,0,200,4,0,221,5,0,200,6,0,200,7,0,201,8,0,221,9,0,221,10,0,200,11,0,200,12,0,200,13,0,200,14,0,200,15,0,200,16,0,201,17,0,200,18,0,200,19,0,200,20,0,200,21,0,201,22,0,200,23,0,200,24,0,200,25,0,200,26,0,221,27,0,221,28,0,200,29,0,200,30,0,200,31,0,201,32,0,200,194,0,621,195,0,621,196,0,620,199,0,600*5B
$PAIRSAT,2,23,65,0,200,66,0,200,67,0,200,68,0,200,70,0,200,71,0,200,72,0,200,73,0,200,74,0,200,75,0,200,76,0,200,77,0,201,78,0,201,79,0,201,80,0,200,81,0,201,82,0,200,83,0,200,84,0,200,85,0,200,86,0,200,87,0,201,88,0,201*5C
$PAIRSAT,3,23,2,0,1200,3,0,1200,4,0,1200,5,0,200,7,0,1200,8,0,1200,9,0,1200,10,0,1200,11,0,1200,12,0,1200,13,0,1221,15,0,1221,19,0,1221,21,0,1221,24,0,1200,25,0,1200,26,0,1221,27,0,1221,30,0,1200,31,0,1200,33,0,1200,34,0,1200,36,0,1200*6A
$PAIRSAT,4,46,1,0,200,2,0,200,3,0,600,4,0,200,5,0,200,6,0,201,7,0,201,8,0,200,9,0,201,10,0,201,11,0,201,12,0,200,13,0,200,14,0,200,16,0,201,19,0,600,20,0,600,21,0,600,22,0,600,23,0,621,24,0,600,25,0,621,26,0,600,27,0,600,28,0,621,29,0,600,30,0,600,32,0,600,33,0,600,34,0,621,35,0,600,36,0,600,37,0,600,38,0,600,39,0,621,40,0,421,41,0,600,42,0,600,43,0,621,44,0,600,45,0,600,46,0,600,59,0,400,60,0,400,61,0,400,62,0,400*48
$PAIRDGP,8,2,4,7,8,9,16,21,27*7C
$GNGGA,033028.100,2500.7978597,N,12132.4840779,E,4,58,0.48,16.774,M,15.25,M,1,3335*45
$GNRMC,033028.100,A,2500.7978597,N,12132.4840779,E,0.04,317.02,090324,,,R,V*12
$GPHDT,,T*1B
$GNACCURACY,4.4*16
$GNGGA,033028.200,2500.7978617,N,12132.4840742,E,4,58,0.48,16.767,M,15.25,M,1,3335*47
$GNRMC,033028.200,A,2500.7978617,N,12132.4840742,E,0.05,317.02,090324,,,R,V*13
$GPHDT,91.601,T*0A
$GNACCURACY,4.5*17
$GNGGA,033028.300,2500.7978648,N,12132.4840678,E,4,58,0.48,16.754,M,15.25,M,1,3335*44
$GNRMC,033028.300,A,2500.7978648,N,12132.4840678,E,0.04,317.02,090324,,,R,V*11
$GPHDT,,T*1B
$GNACCURACY,4.5*17
$GNGGA,033028.400,2500.7978692,N,12132.4840647,E,4,58,0.48,16.747,M,15.25,M,1,3335*4A
$GNRMC,033028.400,A,2500.7978692,N,12132.4840647,E,0.03,317.02,090324,,,R,V*1A
$GPHDT,92.732,T*08
$GNACCURACY,4.5*17
$GNGGA,033028.500,2500.7978635,N,12132.4840695,E,4,58,0.48,16.751,M,15.25,M,0,3335*4F
$GNRMC,033028.500,A,2500.7978635,N,12132.4840695,E,0.01,317.02,090324,,,R,V*1B
$GPHDT,,T*1B
$GNACCURACY,4.5*17
$GNGGA,033028.600,2500.7978610,N,12132.4840726,E,4,58,0.48,16.770,M,15.25,M,0,3335*41
$GNRMC,033028.600,A,2500.7978610,N,12132.4840726,E,0.01,317.02,090324,,,R,V*16
$GPHDT,91.210,T*0E
$GNACCURACY,4.5*17
$GNGGA,033028.700,2500.7978631,N,12132.4840714,E,4,58,0.48,16.762,M,15.25,M,0,3335*41
$GNRMC,033028.700,A,2500.7978631,N,12132.4840714,E,0.01,317.02,090324,,,R,V*15
$GPHDT,,T*1B
$GNACCURACY,4.5*17
$GNGGA,033028.800,2500.7978622,N,12132.4840683,E,4,59,0.47,16.748,M,15.25,M,0,3335*45
$GNRMC,033028.800,A,2500.7978622,N,12132.4840683,E,0.05,317.02,090324,,,R,V*13
$GPHDT,91.230,T*0C
$GNACCURACY,4.6*14
$GNGGA,033028.900,2500.7978624,N,12132.4840696,E,4,59,0.47,16.763,M,15.25,M,0,3335*4F
$GNRMC,033028.900,A,2500.7978624,N,12132.4840696,E,0.02,317.02,090324,,,R,V*17
$GPHDT,,T*1B
$GNACCURACY,4.6*14
$GNGGA,033029.000,2500.7978623,N,12132.4840715,E,4,59,0.47,16.757,M,15.25,M,1,3335*4C
$GNRMC,033029.000,A,2500.7978623,N,12132.4840715,E,0.05,317.02,090324,,,R,V*15
$GPHDT,91.702,T*08
$GNGSA,A,3,08,194,195,27,21,16,04,09,02,07,196,26,0.86,0.47,0.72,1*33
$GNGSA,A,3,31,,,,,,,,,,,,0.86,0.47,0.72,1*0B
$GNGSA,A,3,88,78,81,77,87,79,,,,,,,0.86,0.47,0.72,2*0D
$GNGSA,A,3,21,13,19,27,26,15,,,,,,,0.86,0.47,0.72,3*07
$GNGSA,A,3,06,16,09,43,39,40,07,23,10,11,25,28,0.86,0.47,0.72,4*07
$GNGSA,A,3,34,,,,,,,,,,,,0.86,0.47,0.72,4*0B
$GPGSV,4,1,15,08,72,310,45,199,64,167,,194,63,047,42,195,58,123,41,1*51
$GPGSV,4,2,15,27,49,027,32,45,47,231,39,21,41,169,26,16,34,057,33,1*6C
$GPGSV,4,3,15,04,31,215,42,09,30,265,20,02,29,181,34,07,26,320,22,1*6C
$GPGSV,4,4,15,196,21,173,34,26,16,085,24,31,14,138,18,1*63
$GPGSV,2,1,08,08,72,310,47,194,63,047,47,195,58,123,43,27,49,027,46,8*6B
$GPGSV,2,2,08,04,31,215,46,09,30,265,25,196,21,173,24,26,16,085,31,8*59
$GLGSV,2,1,06,88,71,070,42,78,46,007,36,81,42,189,40,77,32,088,28,1*75
$GLGSV,2,2,06,87,20,029,20,79,13,320,19,1*7F
$GAGSV,2,1,07,21,51,350,34,13,50,107,36,19,36,256,20,27,33,063,29,7*70
$GAGSV,2,2,07,26,28,175,31,15,22,048,31,04,10,312,,7*44
$GAGSV,2,1,07,21,51,350,40,13,50,107,40,19,36,256,20,27,33,063,29,1*74
$GAGSV,2,2,07,26,28,175,29,15,22,048,38,04,10,312,23,1*43
$GBGSV,4,1,14,06,81,224,41,16,78,191,42,09,75,299,43,43,73,058,43,1*78
$GBGSV,4,2,14,39,67,177,40,40,65,316,45,07,62,295,42,23,62,358,38,1*72
$GBGSV,4,3,14,10,52,277,32,11,48,044,46,25,47,098,42,28,40,208,29,1*73
$GBGSV,4,4,14,34,25,040,41,37,18,315,,1*78
$GBGSV,2,1,07,43,73,058,46,39,67,177,33,40,65,316,42,23,62,358,42,4*79
$GBGSV,2,2,07,25,47,098,40,28,40,208,38,34,25,040,40,4*4A
$GNACCURACY,4.6*14
$PAIRSAT,1,35,2,0,201,3,0,200,4,0,221,5,0,200,6,0,200,7,0,201,8,0,221,9,0,221,10,0,200,11,0,200,12,0,200,13,0,200,14,0,200,15,0,200,16,0,201,17,0,200,18,0,200,19,0,200,20,0,200,21,0,201,22,0,200,23,0,200,24,0,200,25,0,200,26,0,221,27,0,221,28,0,200,29,0,200,30,0,200,31,0,201,32,0,200,194,0,621,195,0,621,196,0,620,199,0,600*5B
$PAIRSAT,2,23,65,0,200,66,0,200,67,0,200,68,0,200,70,0,200,71,0,200,72,0,200,73,0,200,74,0,200,75,0,200,76,0,200,77,0,201,78,0,201,79,0,201,80,0,200,81,0,201,82,0,200,83,0,200,84,0,200,85,0,200,86,0,200,87,0,201,88,0,201*5C
$PAIRSAT,3,23,2,0,1200,3,0,1200,4,0,1200,5,0,200,7,0,1200,8,0,1200,9,0,1200,10,0,1200,11,0,1200,12,0,1200,13,0,1221,15,0,1221,19,0,1221,21,0,1221,24,0,1200,25,0,1200,26,0,1221,27,0,1221,30,0,1200,31,0,1200,33,0,1200,34,0,1200,36,0,1200*6A
$PAIRSAT,4,46,1,0,200,2,0,200,3,0,600,4,0,200,5,0,200,6,0,201,7,0,201,8,0,200,9,0,201,10,0,201,11,0,201,12,0,200,13,0,200,14,0,200,16,0,201,19,0,600,20,0,600,21,0,600,22,0,600,23,0,621,24,0,600,25,0,621,26,0,600,27,0,600,28,0,621,29,0,600,30,0,600,32,0,600,33,0,600,34,0,621,35,0,600,36,0,600,37,0,600,38,0,600,39,0,621,40,0,421,41,0,600,42,0,600,43,0,621,44,0,600,45,0,600,46,0,600,59,0,400,60,0,400,61,0,400,62,0,400*48
$PAIRDGP,8,2,4,7,8,9,16,21,27*7C
$GNGGA,033029.100,2500.7978660,N,12132.4840664,E,4,59,0.47,16.741,M,15.25,M,1,3335*4A
$GNRMC,033029.100,A,2500.7978660,N,12132.4840664,E,0.05,317.02,090324,,,R,V*14
$GPHDT,,T*1B
$GNACCURACY,4.6*14
$GNGGA,033029.200,2500.7978645,N,12132.4840732,E,4,59,0.47,16.754,M,15.25,M,1,3335*48
$GNRMC,033029.200,A,2500.7978645,N,12132.4840732,E,0.05,317.02,090324,,,R,V*12
$GPHDT,92.717,T*0F
$GNACCURACY,4.6*14
$GNGGA,033029.300,2500.7978642,N,12132.4840716,E,4,59,0.47,16.747,M,15.25,M,1,3335*4A
$GNRMC,033029.300,A,2500.7978642,N,12132.4840716,E,0.04,317.02,090324,,,R,V*13
$GPHDT,,T*1B
$GNACCURACY,4.6*14
$GNGGA,033029.400,2500.7978603,N,12132.4840781,E,4,59,0.47,16.753,M,15.25,M,1,3335*43
$GNRMC,033029.400,A,2500.7978603,N,12132.4840781,E,0.01,317.02,090324,,,R,V*1A
$GPHDT,92.538,T*00
$GNACCURACY,4.6*14
$GNGGA,033029.500,2500.7978584,N,12132.4840786,E,4,59,0.47,16.758,M,15.25,M,1,3335*42
$GNRMC,033029.500,A,2500.7978584,N,12132.4840786,E,0.02,317.02,090324,,,R,V*13
$GPHDT,,T*1B
$GNACCURACY,4.5*17
$GNGGA,033029.600,2500.7978619,N,12132.4840746,E,4,59,0.47,16.748,M,15.25,M,1,3335*4B
$GNRMC,033029.600,A,2500.7978619,N,12132.4840746,E,0.06,317.02,090324,,,R,V*1F
$GPHDT,91.696,T*04
$GNACCURACY,4.5*17
$GNGGA,033029.700,2500.7978591,N,12132.4840780,E,4,59,0.47,16.758,M,15.25,M,1,3335*42
$GNRMC,033029.700,A,2500.7978591,N,12132.4840780,E,0.03,317.02,090324,,,R,V*12
$GPHDT,,T*1B
$GNACCURACY,4.5*17
$GNGGA,033029.800,2500.7978634,N,12132.4840765,E,4,59,0.47,16.747,M,15.25,M,0,3335*45
$GNRMC,033029.800,A,2500.7978634,N,12132.4840765,E,0.02,317.02,090324,,,R,V*1B
$GPHDT,91.721,T*09
$GNACCURACY,4.5*17
$GNGGA,033029.900,2500.7978628,N,12132.4840777,E,4,59,0.47,16.750,M,15.25,M,0,3335*4C
$GNRMC,033029.900,A,2500.7978628,N,12132.4840777,E,0.02,317.02,090324,,,R,V*14
$GPHDT,,T*1B
$GNACCURACY,4.5*17
$GNGGA,033030.000,2500.7978642,N,12132.4840738,E,4,59,0.47,16.738,M,15.25,M,1,3335*45
$GNRMC,033030.000,A,2500.7978642,N,12132.4840738,E,0.03,317.02,090324,,,R,V*13
$GPHDT,91.737,T*0E
$GNGSA,A,3,08,194,195,27,21,16,04,09,02,07,196,26,0.86,0.47,0.72,1*33
$GNGSA,A,3,31,,,,,,,,,,,,0.86,0.47,0.72,1*0B
$GNGSA,A,3,88,78,81,77,87,79,,,,,,,0.86,0.47,0.72,2*0D
$GNGSA,A,3,21,13,19,27,26,15,,,,,,,0.86,0.47,0.72,3*07
$GNGSA,A,3,06,16,09,43,39,40,07,23,10,11,25,28,0.86,0.47,0.72,4*07
$GNGSA,A,3,34,,,,,,,,,,,,0.86,0.47,0.72,4*0B
$GPGSV,4,1,15,08,72,310,45,199,64,167,,194,63,047,42,195,58,123,41,1*51
$GPGSV,4,2,15,27,49,027,33,45,47,231,39,21,41,169,31,16,34,057,33,1*6B
$GPGSV,4,3,15,04,31,215,42,09,30,265,17,02,29,181,37,07,26,320,33,1*6B
$GPGSV,4,4,15,196,21,173,31,26,16,085,26,31,14,138,14,1*68
$GPGSV,2,1,08,08,72,310,47,194,63,047,47,195,58,123,43,27,49,027,46,8*6B
$GPGSV,2,2,08,04,31,215,46,09,30,265,26,196,21,173,27,26,16,085,30,8*58
$GLGSV,2,1,07,88,71,070,42,78,46,007,36,81,42,189,39,77,32,088,28,1*7A
$GLGSV,2,2,07,87,20,029,20,79,13,320,19,68,13,252,,1*47
$GAGSV,2,1,07,21,51,350,34,13,50,107,34,19,36,256,19,27,33,063,31,7*71
$GAGSV,2,2,07,26,28,175,28,15,22,048,32,04,10,312,,7*4F
$GAGSV,2,1,07,21,51,350,41,13,50,107,41,19,36,256,22,27,33,063,29,1*76
$GAGSV,2,2,07,26,28,175,28,15,22,048,38,04,10,312,20,1*41
$GBGSV,4,1,14,06,81,224,41,16,78,191,42,09,75,299,42,43,73,058,43,1*79
$GBGSV,4,2,14,39,67,177,41,40,65,316,45,07,62,295,38,23,62,358,38,1*7E
$GBGSV,4,3,14,10,52,277,32,11,48,044,46,25,47,098,42,28,40,208,25,1*7F
$GBGSV,4,4,14,34,25,040,41,37,18,315,,1*78
$GBGSV,2,1,07,43,73,058,46,39,67,177,35,40,65,316,43,23,62,358,42,4*7E
$GBGSV,2,2,07,25,47,098,40,28,40,208,38,34,25,040,39,4*44
$GNACCURACY,4.5*17
$PAIRSAT,1,35,2,0,201,3,0,200,4,0,221,5,0,200,6,0,200,7,0,201,8,0,221,9,0,221,10,0,200,11,0,200,12,0,200,13,0,200,14,0,200,15,0,200,16,0,201,17,0,200,18,0,200,19,0,200,20,0,200,21,0,201,22,0,200,23,0,200,24,0,200,25,0,200,26,0,221,27,0,221,28,0,200,29,0,200,30,0,200,31,0,201,32,0,200,194,0,621,195,0,621,196,0,620,199,0,600*5B
$PAIRSAT,2,23,65,0,200,66,0,200,67,0,200,68,0,200,70,0,200,71,0,200,72,0,200,73,0,200,74,0,200,75,0,200,76,0,200,77,0,201,78,0,201,79,0,201,80,0,200,81,0,201,82,0,200,83,0,200,84,0,200,85,0,200,86,0,200,87,0,201,88,0,201*5C
$PAIRSAT,3,23,2,0,1200,3,0,1200,4,0,1200,5,0,200,7,0,1200,8,0,1200,9,0,1200,10,0,1200,11,0,1200,12,0,1200,13,0,1221,15,0,1221,19,0,1221,21,0,1221,24,0,1200,25,0,1200,26,0,1221,27,0,1221,30,0,1200,31,0,1200,33,0,1200,34,0,1200,36,0,1200*6A
$PAIRSAT,4,46,1,0,200,2,0,200,3,0,600,4,0,200,5,0,200,6,0,201,7,0,201,8,0,200,9,0,201,10,0,201,11,0,201,12,0,200,13,0,200,14,0,200,16,0,201,19,0,600,20,0,600,21,0,600,22,0,600,23,0,621,24,0,600,25,0,621,26,0,600,27,0,600,28,0,621,29,0,600,30,0,600,32,0,600,33,0,600,34,0,621,35,0,600,36,0,600,37,0,600,38,0,600,39,0,621,40,0,421,41,0,600,42,0,600,43,0,621,44,0,600,45,0,600,46,0,600,59,0,400,60,0,400,61,0,400,62,0,400*48
$PAIRDGP,8,2,4,7,8,9,16,21,27*7C
$GNGGA,033030.100,2500.7978618,N,12132.4840750,E,4,59,0.47,16.742,M,15.25,M,1,3335*48
$GNRMC,033030.100,A,2500.7978618,N,12132.4840750,E,0.08,317.02,090324,,,R,V*18
$GPHDT,,T*1B
$GNACCURACY,4.5*17
$GNGGA,033030.200,2500.7978655,N,12132.4840727,E,4,59,0.47,16.744,M,15.25,M,1,3335*44
$GNRMC,033030.200,A,2500.7978655,N,12132.4840727,E,0.05,317.02,090324,,,R,V*1F
$GPHDT,92.060,T*08
$GNACCURACY,4.5*17
$GNGGA,033030.300,2500.7978674,N,12132.4840677,E,4,59,0.47,16.732,M,15.25,M,1,3335*43
$GNRMC,033030.300,A,2500.7978674,N,12132.4840677,E,0.10,317.02,090324,,,R,V*1D
$GPHDT,,T*1B
$GNACCURACY,4.5*17
$GNGGA,033030.400,2500.7978635,N,12132.4840725,E,4,59,0.47,16.766,M,15.25,M,0,3335*47
$GNRMC,033030.400,A,2500.7978635,N,12132.4840725,E,0.07,317.02,090324,,,R,V*1F
$GPHDT,92.397,T*03
$GNACCURACY,4.5*17
$GNGGA,033030.500,2500.7978645,N,12132.4840714,E,4,59,0.47,16.761,M,15.25,M,0,3335*44
$GNRMC,033030.500,A,2500.7978645,N,12132.4840714,E,0.03,317.02,090324,,,R,V*1F
$GPHDT,,T*1B
$GNACCURACY,4.5*17
$GNGGA,033030.600,2500.7978624,N,12132.4840712,E,4,59,0.47,16.760,M,15.25,M,0,3335*47
$GNRMC,033030.600,A,2500.7978624,N,12132.4840712,E,0.03,317.02,090324,,,R,V*1D
$GPHDT,91.798,T*0B
$GNACCURACY,4.5*17
$GNGGA,033030.700,2500.7978655,N,12132.4840693,E,4,59,0.47,16.756,M,15.25,M,0,3335*4D
$GNRMC,033030.700,A,2500.7978655,N,12132.4840693,E,0.07,317.02,090324,,,R,V*16
$GPHDT,,T*1B
$GNACCURACY,4.5*17
$GNGGA,033030.800,2500.7978606,N,12132.4840735,E,4,59,0.47,16.762,M,15.25,M,0,3335*4E
$GNRMC,033030.800,A,2500.7978606,N,12132.4840735,E,0.08,317.02,090324,,,R,V*1D
$GPHDT,92.031,T*0C
$GNACCURACY,4.5*17
$GNGGA,033030.900,2500.7978636,N,12132.4840727,E,4,59,0.47,16.761,M,15.25,M,0,3335*4C
$GNRMC,033030.900,A,2500.7978636,N,12132.4840727,E,0.05,317.02,090324,,,R,V*11
$GPHDT,,T*1B
$GNACCURACY,4.5*17
$GNGGA,033031.000,2500.7978638,N,12132.4840705,E,4,59,0.47,16.754,M,15.25,M,1,3335*4D
$GNRMC,033031.000,A,2500.7978638,N,12132.4840705,E,0.05,317.02,090324,,,R,V*17
$GPHDT,91.970,T*03
$GNGSA,A,3,08,194,195,27,21,16,04,09,02,07,196,26,0.86,0.47,0.72,1*33
$GNGSA,A,3,31,,,,,,,,,,,,0.86,0.47,0.72,1*0B
$GNGSA,A,3,88,78,81,77,87,79,,,,,,,0.86,0.47,0.72,2*0D
$GNGSA,A,3,21,13,19,27,26,15,,,,,,,0.86,0.47,0.72,3*07
$GNGSA,A,3,06,16,09,43,39,40,07,23,10,11,25,28,0.86,0.47,0.72,4*07
$GNGSA,A,3,34,,,,,,,,,,,,0.86,0.47,0.72,4*0B
$GPGSV,4,1,15,08,72,310,45,199,64,167,,194,63,047,42,195,58,123,41,1*51
$GPGSV,4,2,15,27,49,027,34,45,47,231,39,21,41,169,26,16,34,057,31,1*68
$GPGSV,4,3,15,04,31,215,41,09,30,265,15,02,29,181,37,07,26,320,26,1*6E
$GPGSV,4,4,15,196,21,173,33,26,16,085,24,31,14,138,12,1*6E
$GPGSV,2,1,08,08,72,310,47,194,63,047,47,195,58,123,43,27,49,027,46,8*6B
$GPGSV,2,2,08,04,31,215,46,09,30,265,25,196,21,173,24,26,16,085,30,8*58
$GLGSV,2,1,06,88,71,070,42,78,47,007,35,81,42,189,39,77,32,088,28,1*79
$GLGSV,2,2,06,87,20,029,20,79,13,320,18,1*7E
$GAGSV,2,1,07,21,51,350,32,13,50,107,34,19,36,256,19,27,33,063,29,7*7E
$GAGSV,2,2,07,26,28,175,29,15,22,048,32,04,10,312,,7*4E
$GAGSV,2,1,07,21,51,350,39,13,50,107,41,19,36,256,21,27,33,063,29,1*7A
$GAGSV,2,2,07,26,28,175,28,15,22,048,38,04,10,312,19,1*4B
$GBGSV,4,1,13,06,81,224,41,16,78,191,42,09,75,299,42,43,73,058,43,1*7E
$GBGSV,4,2,13,39,67,177,41,40,65,316,45,07,62,295,41,23,62,358,38,1*77
$GBGSV,4,3,13,10,52,277,32,11,48,044,46,25,47,098,42,28,40,208,22,1*7F
$GBGSV,4,4,13,34,25,040,41,1*45
$GBGSV,2,1,07,43,73,058,46,39,67,177,33,40,65,316,42,23,62,358,42,4*79
$GBGSV,2,2,07,25,47,098,40,28,40,208,38,34,25,040,39,4*44
$GNACCURACY,4.6*14
$PAIRSAT,1,35,2,0,201,3,0,200,4,0,221,5,0,200,6,0,200,7,0,201,8,0,221,9,0,221,10,0,200,11,0,200,12,0,200,13,0,200,14,0,200,15,0,200,16,0,201,17,0,200,18,0,200,19,0,200,20,0,200,21,0,201,22,0,200,23,0,200,24,0,200,25,0,200,26,0,221,27,0,221,28,0,200,29,0,200,30,0,200,31,0,201,32,0,200,194,0,621,195,0,621,196,0,620,199,0,600*5B
$PAIRSAT,2,23,65,0,200,66,0,200,67,0,200,68,0,200,70,0,200,71,0,200,72,0,200,73,0,200,74,0,200,75,0,200,76,0,200,77,0,201,78,0,201,79,0,201,80,0,200,81,0,201,82,0,200,83,0,200,84,0,200,85,0,200,86,0,200,87,0,201,88,0,201*5C
$PAIRSAT,3,23,2,0,1200,3,0,1200,4,0,1200,5,0,200,7,0,1200,8,0,1200,9,0,1200,10,0,1200,11,0,1200,12,0,1200,13,0,1221,15,0,1221,19,0,1221,21,0,1221,24,0,1200,25,0,1200,26,0,1221,27,0,1221,30,0,1200,31,0,1200,33,0,1200,34,0,1200,36,0,1200*6A
$PAIRSAT,4,46,1,0,200,2,0,200,3,0,600,4,0,200,5,0,200,6,0,201,7,0,201,8,0,200,9,0,201,10,0,201,11,0,201,12,0,200,13,0,200,14,0,200,16,0,201,19,0,600,20,0,600,21,0,600,22,0,600,23,0,621,24,0,600,25,0,621,26,0,600,27,0,600,28,0,621,29,0,600,30,0,600,32,0,600,33,0,600,34,0,621,35,0,600,36,0,600,37,0,600,38,0,600,39,0,621,40,0,421,41,0,600,42,0,600,43,0,621,44,0,600,45,0,600,46,0,600,59,0,400,60,0,400,61,0,400,62,0,400*48
$PAIRDGP,8,2,4,7,8,9,16,21,27*7C
$GNGGA,033031.100,2500.7978650,N,12132.4840690,E,4,59,0.47,16.756,M,15.25,M,1,3335*4D
$GNRMC,033031.100,A,2500.7978650,N,12132.4840690,E,0.08,317.02,090324,,,R,V*18
$GPHDT,,T*1B
$GNACCURACY,4.6*14
$GNGGA,033031.200,2500.7978633,N,12132.4840737,E,4,59,0.47,16.759,M,15.25,M,1,3335*48
$GNRMC,033031.200,A,2500.7978633,N,12132.4840737,E,0.05,317.02,090324,,,R,V*1F
$GPHDT,92.066,T*0E
$GNACCURACY,4.6*14
$GNGGA,033031.300,2500.7978601,N,12132.4840761,E,4,59,0.47,16.761,M,15.25,M,1,3335*40
$GNRMC,033031.300,A,2500.7978601,N,12132.4840761,E,0.04,317.02,090324,,,R,V*1D
$GPHDT,,T*1B
$GNACCURACY,4.6*14
$GNGGA,033031.400,2500.7978613,N,12132.4840746,E,4,58,0.48,16.744,M,15.25,M,1,3335*48
$GNRMC,033031.400,A,2500.7978613,N,12132.4840746,E,0.02,317.02,090324,,,R,V*1A
$GPHDT,90.931,T*07
$GNACCURACY,4.6*14
$GNGGA,033031.500,2500.7978617,N,12132.4840780,E,4,58,0.48,16.760,M,15.25,M,0,3335*40
$GNRMC,033031.500,A,2500.7978617,N,12132.4840780,E,0.02,317.02,090324,,,R,V*15
$GPHDT,,T*1B
$GNACCURACY,4.6*14
$GNGGA,033031.600,2500.7978592,N,12132.4840773,E,4,58,0.48,16.757,M,15.25,M,0,3335*45
$GNRMC,033031.600,A,2500.7978592,N,12132.4840773,E,0.01,317.02,090324,,,R,V*17
$GPHDT,91.431,T*0B
$GNACCURACY,4.6*14
$GNGGA,033031.700,2500.7978636,N,12132.4840728,E,4,58,0.48,16.743,M,15.25,M,0,3335*42
$GNRMC,033031.700,A,2500.7978636,N,12132.4840728,E,0.02,317.02,090324,,,R,V*16
$GPHDT,,T*1B
$GNACCURACY,4.6*14
$GNGGA,033031.800,2500.7978625,N,12132.4840744,E,4,58,0.48,16.750,M,15.25,M,0,3335*47
$GNRMC,033031.800,A,2500.7978625,N,12132.4840744,E,0.04,317.02,090324,,,R,V*17
$GPHDT,91.559,T*04
$GNACCURACY,4.6*14
$GNGGA,033031.900,2500.7978625,N,12132.4840750,E,4,58,0.48,16.759,M,15.25,M,0,3335*4A
$GNRMC,033031.900,A,2500.7978625,N,12132.4840750,E,0.05,317.02,090324,,,R,V*12
$GPHDT,,T*1B
$GNACCURACY,4.6*14
$GNGGA,033032.000,2500.7978609,N,12132.4840771,E,4,58,0.48,16.758,M,15.25,M,1,3335*4D
$GNRMC,033032.000,A,2500.7978609,N,12132.4840771,E,0.04,317.02,090324,,,R,V*14
$GPHDT,91.274,T*0C
$GNGSA,A,3,08,194,195,27,21,16,04,09,02,07,196,26,0.89,0.48,0.75,1*34
$GNGSA,A,3,88,78,81,77,87,79,,,,,,,0.89,0.48,0.75,2*0A
$GNGSA,A,3,21,13,19,27,26,15,,,,,,,0.89,0.48,0.75,3*00
$GNGSA,A,3,06,16,09,43,39,40,07,23,10,11,25,28,0.89,0.48,0.75,4*00
$GNGSA,A,3,34,,,,,,,,,,,,0.89,0.48,0.75,4*0C
$GPGSV,4,1,15,08,72,310,44,199,64,167,,194,63,047,42,195,58,123,42,1*53
$GPGSV,4,2,15,27,49,027,34,45,47,231,39,21,41,169,26,16,34,057,32,1*6B
$GPGSV,4,3,15,04,31,215,41,09,30,265,16,02,29,181,37,07,26,320,32,1*68
$GPGSV,4,4,15,196,21,173,32,26,16,085,26,31,14,138,14,1*6B
$GPGSV,2,1,08,08,72,310,47,194,63,047,47,195,58,123,43,27,49,027,46,8*6B
$GPGSV,2,2,08,04,31,215,46,09,30,265,23,196,21,173,25,26,16,085,29,8*57
$GLGSV,2,1,06,88,71,069,42,78,47,007,36,81,42,189,39,77,32,088,27,1*7D
$GLGSV,2,2,06,87,20,029,20,79,13,320,18,1*7E
$GAGSV,2,1,07,21,51,350,33,13,50,107,32,19,36,256,17,27,33,063,31,7*7E
$GAGSV,2,2,07,26,28,175,28,15,22,048,32,04,10,312,,7*4F
$GAGSV,2,1,07,21,51,350,41,13,50,107,41,19,36,256,22,27,33,063,29,1*76
$GAGSV,2,2,07,26,28,175,28,15,22,048,38,04,10,312,19,1*4B
$GBGSV,4,1,15,06,81,224,41,16,78,191,42,09,75,299,42,43,73,058,43,1*78
$GBGSV,4,2,15,39,67,177,41,40,65,316,45,07,62,295,40,23,62,358,38,1*70
$GBGSV,4,3,15,10,52,277,32,11,48,044,46,25,47,098,42,28,40,208,27,1*7C
$GBGSV,4,4,15,34,25,040,41,32,05,255,,38,05,171,,1*4C
$GBGSV,2,1,07,43,73,058,46,39,67,177,35,40,65,316,43,23,62,358,42,4*7E
$GBGSV,2,2,07,25,47,098,40,28,40,208,38,34,25,040,39,4*44
$GNACCURACY,4.6*14
$PAIRSAT,1,35,2,0,201,3,0,200,4,0,221,5,0,200,6,0,200,7,0,201,8,0,221,9,0,221,10,0,200,11,0,200,12,0,200,13,0,200,14,0,200,15,0,200,16,0,201,17,0,200,18,0,200,19,0,200,20,0,200,21,0,201,22,0,200,23,0,200,24,0,200,25,0,200,26,0,221,27,0,221,28,0,200,29,0,200,30,0,200,31,0,201,32,0,200,194,0,621,195,0,621,196,0,620,199,0,600*5B
$PAIRSAT,2,23,65,0,200,66,0,200,67,0,200,68,0,200,70,0,200,71,0,200,72,0,200,73,0,200,74,0,200,75,0,200,76,0,200,77,0,201,78,0,201,79,0,201,80,0,200,81,0,201,82,0,200,83,0,200,84,0,200,85,0,200,86,0,200,87,0,201,88,0,201*5C
$PAIRSAT,3,23,2,0,1200,3,0,1200,4,0,1200,5,0,200,7,0,1200,8,0,1200,9,0,1200,10,0,1200,11,0,1200,12,0,1200,13,0,1221,15,0,1221,19,0,1221,21,0,1221,24,0,1200,25,0,1200,26,0,1221,27,0,1221,30,0,1200,31,0,1200,33,0,1200,34,0,1200,36,0,1200*6A
$PAIRSAT,4,46,1,0,200,2,0,200,3,0,600,4,0,200,5,0,200,6,0,201,7,0,201,8,0,200,9,0,201,10,0,201,11,0,201,12,0,200,13,0,200,14,0,200,16,0,201,19,0,600,20,0,600,21,0,600,22,0,600,23,0,621,24,0,600,25,0,621,26,0,600,27,0,600,28,0,621,29,0,600,30,0,600,32,0,600,33,0,600,34,0,621,35,0,600,36,0,600,37,0,600,38,0,600,39,0,621,40,0,421,41,0,600,42,0,600,43,0,621,44,0,600,45,0,600,46,0,600,59,0,400,60,0,400,61,0,400,62,0,400*48
$PAIRDGP,8,2,4,7,8,9,16,21,27*7C
$GNGGA,033032.100,2500.7978617,N,12132.4840770,E,4,58,0.48,16.755,M,15.25,M,1,3335*4F
$GNRMC,033032.100,A,2500.7978617,N,12132.4840770,E,0.08,317.02,090324,,,R,V*17
$GPHDT,,T*1B
$GNACCURACY,4.5*17
$GNGGA,033032.200,2500.7978610,N,12132.4840794,E,4,58,0.48,16.754,M,15.25,M,1,3335*40
$GNRMC,033032.200,A,2500.7978610,N,12132.4840794,E,0.03,317.02,090324,,,R,V*12
$GPHDT,91.586,T*06
$GNACCURACY,4.6*14
$GNGGA,033032.300,2500.7978645,N,12132.4840769,E,4,58,0.48,16.758,M,15.25,M,1,3335*4F
$GNRMC,033032.300,A,2500.7978645,N,12132.4840769,E,0.03,317.02,090324,,,R,V*11
$GPHDT,,T*1B
$GNACCURACY,4.5*17
$GNGGA,033032.400,2500.7978601,N,12132.4840779,E,4,58,0.48,16.757,M,15.25,M,1,3335*46
$GNRMC,033032.400,A,2500.7978601,N,12132.4840779,E,0.02,317.02,090324,,,R,V*16
$GPHDT,91.966,T*04
$GNACCURACY,4.5*17
$GNGGA,033032.500,2500.7978614,N,12132.4840779,E,4,58,0.48,16.748,M,15.25,M,1,3335*4D
$GNRMC,033032.500,A,2500.7978614,N,12132.4840779,E,0.00,317.02,090324,,,R,V*11
$GPHDT,,T*1B
$GNACCURACY,4.5*17
$GNGGA,033032.600,2500.7978615,N,12132.4840791,E,4,58,0.48,16.743,M,15.25,M,1,3335*42
$GNRMC,033032.600,A,2500.7978615,N,12132.4840791,E,0.08,317.02,090324,,,R,V*1D
$GPHDT,91.007,T*0A
$GNACCURACY,4.5*17
$GNGGA,033032.700,2500.7978633,N,12132.4840768,E,4,58,0.48,16.754,M,15.25,M,0,3335*46
$GNRMC,033032.700,A,2500.7978633,N,12132.4840768,E,0.06,317.02,090324,,,R,V*10
$GPHDT,,T*1B
$GNACCURACY,4.5*17
$GNGGA,033032.800,2500.7978616,N,12132.4840763,E,4,58,0.48,16.760,M,15.25,M,0,3335*42
$GNRMC,033032.800,A,2500.7978616,N,12132.4840763,E,0.03,317.02,090324,,,R,V*16
$GPHDT,91.914,T*01
$GNACCURACY,4.5*17
$GNGGA,033032.900,2500.7978576,N,12132.4840775,E,4,58,0.48,16.754,M,15.25,M,0,3335*46
$GNRMC,033032.900,A,2500.7978576,N,12132.4840775,E,0.05,317.02,090324,,,R,V*13
$GPHDT,,T*1B
$GNACCURACY,4.5*17
$GNGGA,033033.000,2500.7978607,N,12132.4840762,E,4,58,0.48,16.762,M,15.25,M,1,3335*49
$GNRMC,033033.000,A,2500.7978607,N,12132.4840762,E,0.03,317.02,090324,,,R,V*1E
$GPHDT,91.850,T*00
$GNGSA,A,3,08,194,195,27,21,16,04,09,02,07,196,26,0.89,0.48,0.75,1*34
$GNGSA,A,3,88,78,81,77,87,79,,,,,,,0.89,0.48,0.75,2*0A
$GNGSA,A,3,21,13,19,27,26,15,,,,,,,0.89,0.48,0.75,3*00
$GNGSA,A,3,06,16,09,43,39,40,07,23,10,11,25,28,0.89,0.48,0.75,4*00
$GNGSA,A,3,34,,,,,,,,,,,,0.89,0.48,0.75,4*0C
$GPGSV,4,1,15,08,72,310,44,199,64,167,,194,63,047,42,195,58,123,42,1*53
$GPGSV,4,2,15,27,49,027,34,45,47,231,39,21,41,169,27,16,34,057,34,1*6C
$GPGSV,4,3,15,04,31,215,42,09,30,265,16,02,29,181,37,07,26,320,34,1*6D
$GPGSV,4,4,15,196,21,173,34,26,16,085,25,31,14,138,16,1*6C
$GPGSV,2,1,08,08,72,310,47,194,63,047,47,195,58,123,43,27,49,027,45,8*68
$GPGSV,2,2,08,04,31,215,46,09,30,265,21,196,21,173,21,26,16,085,29,8*51
$GLGSV,2,1,06,88,71,069,43,78,47,007,34,81,42,189,39,77,32,088,28,1*71
$GLGSV,2,2,06,87,20,029,19,79,13,320,17,1*7B
$GAGSV,2,1,07,21,51,350,31,13,50,107,31,19,36,256,17,27,33,063,31,7*7F
$GAGSV,2,2,07,26,28,175,29,15,22,048,31,04,10,312,,7*4D
$GAGSV,2,1,07,21,51,350,40,13,50,107,42,19,36,256,23,27,33,063,29,1*75
$GAGSV,2,2,07,26,28,175,27,15,22,048,38,04,10,312,19,1*44
$GBGSV,4,1,15,06,81,224,42,16,78,191,42,09,75,298,42,43,73,058,43,1*7A
$GBGSV,4,2,15,39,67,177,41,40,65,316,45,07,62,295,40,23,62,358,37,1*7F
$GB