$FW : RTK35X,V1.1X0314AS,Lib20210517,0*55
$Tool : LOCOSYS , GNSS Firebird , v1.0.0.19*39
$---------------------------------------------------*2D
$GNACCURACY,3.6*13
$GNGGA,100409.800,2500.8048572,N,12132.4798311,E,4,57,0.51,17.341,M,15.25,M,6,3335*47
$GNRMC,100409.800,A,2500.8048572,N,12132.4798311,E,0.05,317.86,120523,,,R,V*15
$GNACCURACY,3.6*13
$GNGGA,100409.900,2500.8048559,N,12132.4798326,E,4,57,0.51,17.330,M,15.25,M,6,3335*4D
$GNRMC,100409.900,A,2500.8048559,N,12132.4798326,E,0.05,317.86,120523,,,R,V*19
$GNGSA,A,3,196,195,11,199,13,20,05,06,15,29,30,194,0.83,0.51,0.66,1*0F
$GNGSA,A,3,19,,,,,,,,,,,,0.83,0.51,0.66,1*06
$GNGSA,A,3,71,86,85,72,,,,,,,,,0.83,0.51,0.66,2*0D
$GNGSA,A,3,19,33,12,04,10,,,,,,,,0.83,0.51,0.66,3*02
$GNGSA,A,3,44,12,21,38,22,08,13,10,07,34,40,39,0.83,0.51,0.66,4*05
$GNGSA,A,3,35,42,,,,,,,,,,,0.83,0.51,0.66,4*0B
$GPGSV,5,1,17,196,74,060,36,195,71,118,42,11,60,047,40,199,60,167,37,1*5F
$GPGSV,5,2,17,50,60,167,38,13,54,184,43,20,53,358,43,05,51,313,40,1*6D
$GPGSV,5,3,17,06,31,101,34,15,28,217,31,29,25,317,35,30,18,096,18,1*6C
$GPGSV,5,4,17,194,15,170,35,19,14,157,18,12,11,235,19,07,09,065,15,1*5A
$GPGSV,5,5,17,25,05,267,15,1*57
$GPGSV,2,1,07,196,74,060,33,195,71,118,39,11,60,047,43,199,60,167,47,8*5D
$GPGSV,2,2,07,06,31,101,37,30,18,096,29,194,15,170,36,8*6F
$GLGSV,2,1,05,71,64,352,45,86,64,008,44,85,53,118,39,72,50,242,28,1*7C
$GLGSV,2,2,05,87,12,332,16,1*44
$GAGSV,2,1,08,19,78,077,32,33,54,083,36,12,50,343,40,04,37,209,23,7*7D
$GAGSV,2,2,08,10,29,324,24,26,12,115,,31,06,216,15,11,05,312,,7*70
$GAGSV,2,1,06,19,78,077,37,33,54,083,35,12,50,343,38,04,37,209,12,1*7E
$GAGSV,2,2,06,10,29,324,20,31,06,216,17,1*79
$GBGSV,4,1,14,44,86,170,46,12,69,325,42,21,65,280,42,38,53,357,40,1*76
$GBGSV,4,2,14,22,45,028,28,08,45,337,38,13,41,320,38,10,39,227,29,1*7B
$GBGSV,4,3,14,07,36,208,18,34,36,320,36,40,34,197,40,39,33,170,45,1*76
$GBGSV,4,4,14,35,32,143,46,42,20,240,31,1*70
$GBGSV,3,1,09,44,86,170,45,21,65,280,41,38,53,357,42,22,45,028,30,4*7C
$GBGSV,3,2,09,34,36,320,37,40,34,197,37,39,33,170,44,35,32,143,42,4*7F
$GBGSV,3,3,09,42,20,240,28,4*42
$GNACCURACY,3.6*13
$PAIRSAT,1,33,1,0,200,2,0,200,3,0,200,4,0,200,5,0,201,6,0,221,7,0,200,8,0,200,9,0,200,11,0,221,12,0,200,13,0,201,14,0,200,15,0,201,16,0,200,17,0,200,18,0,200,19,0,201,20,0,201,21,0,200,23,0,200,24,0,200,25,0,220,26,0,200,27,0,200,28,0,200,29,0,201,30,0,221,31,0,200,194,0,621,195,0,621,196,0,620,199,0,621*6C
$PAIRSAT,2,24,65,0,200,66,0,200,67,0,200,68,0,200,69,0,200,70,0,200,71,0,201,72,0,201,73,0,200,74,0,200,75,0,200,76,0,200,77,0,200,78,0,200,79,0,200,80,0,200,81,0,200,82,0,200,83,0,200,84,0,200,85,0,201,86,0,201,87,0,200,88,0,200*7A
$PAIRSAT,3,22,2,0,200,4,0,1221,5,0,200,7,0,1200,8,0,1200,9,0,1200,10,0,1221,11,0,1200,12,0,1221,13,0,1200,15,0,1200,19,0,1221,21,0,1200,24,0,1200,25,0,1200,26,0,1200,27,0,1200,30,0,1200,31,0,1220,33,0,1221,34,0,1200,36,0,1200*77
$PAIRSAT,4,43,1,0,200,2,0,200,3,0,201,4,0,200,5,0,200,7,0,201,8,0,201,9,0,200,10,0,201,11,0,200,12,0,201,13,0,201,14,0,200,19,0,600,20,0,600,21,0,621,22,0,621,23,0,600,24,0,600,25,0,600,26,0,600,27,0,600,28,0,600,29,0,600,30,0,600,32,0,600,33,0,600,34,0,621,35,0,621,36,0,600,37,0,600,38,0,621,39,0,621,40,0,621,41,0,600,42,0,621,43,0,600,44,0,621,45,0,600,46,0,600,59,0,400,60,0,400,61,0,400*56
$PAIRDGP,10,5,6,7,11,13,15,19,20,29,30*44
$GNGGA,100410.000,2500.8048556,N,12132.4798350,E,4,57,0.51,17.338,M,15.25,M,7,3335*4B
$GNRMC,100410.000,A,2500.8048556,N,12132.4798350,E,0.06,317.86,120523,,,R,V*15
$GNACCURACY,3.6*13
$GNGGA,100410.100,2500.8048586,N,12132.4798368,E,4,57,0.51,17.342,M,15.25,M,7,3335*41
$GNRMC,100410.100,A,2500.8048586,N,12132.4798368,E,0.06,317.86,120523,,,R,V*12
$GNACCURACY,3.6*13
$GNGGA,100410.200,2500.8048594,N,12132.4798395,E,4,57,0.51,17.334,M,15.25,M,7,3335*42
$GNRMC,100410.200,A,2500.8048594,N,12132.4798395,E,0.06,317.86,120523,,,R,V*10
$GNACCURACY,3.5*10
$GNGGA,100410.300,2500.8048601,N,12132.4798388,E,4,57,0.51,17.337,M,15.25,M,7,3335*43
$GNRMC,100410.300,A,2500.8048601,N,12132.4798388,E,0.05,317.86,120523,,,R,V*11
$GNACCURACY,3.5*10
$GNGGA,100410.400,2500.8048601,N,12132.4798335,E,4,57,0.51,17.339,M,15.25,M,7,3335*4C
$GNRMC,100410.400,A,2500.8048601,N,12132.4798335,E,0.05,317.86,120523,,,R,V*10
$GNACCURACY,3.5*10
$GNGGA,100410.500,2500.8048620,N,12132.4798306,E,4,57,0.51,17.348,M,15.25,M,7,3335*48
$GNRMC,100410.500,A,2500.8048620,N,12132.4798306,E,0.07,317.86,120523,,,R,V*10
$GNACCURACY,3.6*13
$GNGGA,100410.600,2500.8048736,N,12132.4798272,E,4,57,0.51,17.346,M,15.25,M,7,3335*41
$GNRMC,100410.600,A,2500.8048736,N,12132.4798272,E,0.11,317.86,120523,,,R,V*10
$GNACCURACY,3.6*13
$GNGGA,100410.700,2500.8048878,N,12132.4798288,E,4,57,0.51,17.349,M,15.25,M,7,3335*4F
$GNRMC,100410.700,A,2500.8048878,N,12132.4798288,E,0.17,317.86,120523,,,R,V*17
$GNACCURACY,3.6*13
$GNGGA,100410.800,2500.8049116,N,12132.4798338,E,4,57,0.51,17.322,M,15.25,M,7,3335*47
$GNRMC,100410.800,A,2500.8049116,N,12132.4798338,E,0.24,317.86,120523,,,R,V*12
$GNACCURACY,3.6*13
$GNGGA,100410.900,2500.8049286,N,12132.4798180,E,4,57,0.51,17.328,M,15.25,M,7,3335*47
$GNRMC,100410.900,A,2500.8049286,N,12132.4798180,E,0.33,317.86,120523,,,R,V*1E
$GNGSA,A,3,196,195,11,199,13,20,05,06,15,29,30,194,0.83,0.51,0.66,1*0F
$GNGSA,A,3,19,,,,,,,,,,,,0.83,0.51,0.66,1*06
$GNGSA,A,3,71,86,85,72,,,,,,,,,0.83,0.51,0.66,2*0D
$GNGSA,A,3,19,33,12,04,10,,,,,,,,0.83,0.51,0.66,3*02
$GNGSA,A,3,44,12,21,38,22,08,13,10,07,34,40,39,0.83,0.51,0.66,4*05
$GNGSA,A,3,35,42,,,,,,,,,,,0.83,0.51,0.66,4*0B
$GPGSV,5,1,17,196,74,060,33,195,71,118,42,11,60,047,38,199,60,167,37,1*55
$GPGSV,5,2,17,50,60,167,38,13,54,184,41,20,53,358,44,05,51,313,40,1*68
$GPGSV,5,3,17,06,31,101,34,15,28,217,28,29,25,317,34,30,18,096,20,1*6E
$GPGSV,5,4,17,194,15,170,35,19,14,157,19,12,11,235,20,07,09,065,16,1*52
$GPGSV,5,5,17,25,05,267,16,1*54
$GPGSV,2,1,07,196,74,060,36,195,71,118,39,11,60,047,43,199,60,167,46,8*59
$GPGSV,2,2,07,06,31,101,37,30,18,096,27,194,15,170,36,8*61
$GLGSV,2,1,05,71,64,352,45,86,64,008,45,85,53,118,39,72,50,242,24,1*71
$GLGSV,2,2,05,87,12,332,15,1*47
$GAGSV,2,1,08,19,78,077,32,33,54,083,34,12,50,343,36,04,37,209,25,7*78
$GAGSV,2,2,08,10,29,324,21,26,12,115,,31,06,216,18,11,05,312,,7*78
$GAGSV,2,1,06,19,78,077,37,33,54,083,30,12,50,343,40,04,37,209,14,1*72
$GAGSV,2,2,06,10,29,324,21,31,06,216,16,1*79
$GBGSV,4,1,14,44,86,170,47,12,69,325,42,21,65,281,42,38,53,357,44,1*72
$GBGSV,4,2,14,22,45,028,25,08,45,337,38,13,41,320,35,10,39,227,25,1*77
$GBGSV,4,3,14,07,36,208,20,34,36,320,31,40,34,197,40,39,33,170,45,1*7A
$GBGSV,4,4,14,35,32,143,46,42,20,240,24,1*74
$GBGSV,3,1,09,44,86,170,45,21,65,281,40,38,53,357,40,22,45,028,34,4*7A
$GBGSV,3,2,09,34,36,320,34,40,34,197,38,39,33,170,44,35,32,143,42,4*73
$GBGSV,3,3,09,42,20,240,28,4*42
$GNACCURACY,3.5*10
$PAIRSAT,1,33,1,0,200,2,0,200,3,0,200,4,0,200,5,0,201,6,0,221,7,0,200,8,0,200,9,0,200,11,0,221,12,0,200,13,0,201,14,0,200,15,0,201,16,0,200,17,0,200,18,0,200,19,0,201,20,0,201,21,0,200,23,0,200,24,0,200,25,0,220,26,0,200,27,0,200,28,0,200,29,0,201,30,0,221,31,0,200,194,0,621,195,0,621,196,0,620,199,0,621*6C
$PAIRSAT,2,24,65,0,200,66,0,200,67,0,200,68,0,200,69,0,200,70,0,200,71,0,201,72,0,201,73,0,200,74,0,200,75,0,200,76,0,200,77,0,200,78,0,200,79,0,200,80,0,200,81,0,200,82,0,200,83,0,200,84,0,200,85,0,201,86,0,201,87,0,200,88,0,200*7A
$PAIRSAT,3,22,2,0,200,4,0,1221,5,0,200,7,0,1200,8,0,1200,9,0,1200,10,0,1221,11,0,1200,12,0,1221,13,0,1200,15,0,1200,19,0,1221,21,0,1200,24,0,1200,25,0,1200,26,0,1200,27,0,1200,30,0,1200,31,0,1220,33,0,1221,34,0,1200,36,0,1200*77
$PAIRSAT,4,43,1,0,200,2,0,200,3,0,201,4,0,200,5,0,200,7,0,201,8,0,201,9,0,200,10,0,201,11,0,200,12,0,201,13,0,201,14,0,200,19,0,600,20,0,600,21,0,621,22,0,621,23,0,600,24,0,600,25,0,600,26,0,600,27,0,600,28,0,600,29,0,600,30,0,600,32,0,600,33,0,600,34,0,621,35,0,621,36,0,600,37,0,600,38,0,621,39,0,621,40,0,621,41,0,600,42,0,621,43,0,600,44,0,621,45,0,600,46,0,600,59,0,400,60,0,400,61,0,400*56
$PAIRDGP,10,5,6,7,11,13,15,19,20,29,30*44
$GNGGA,100411.000,2500.8049555,N,12132.4798108,E,4,57,0.51,17.324,M,15.25,M,8,3335*45
$GNRMC,100411.000,A,2500.8049555,N,12132.4798108,E,0.44,317.86,120523,,,R,V*1F
$GNACCURACY,3.5*10
$GNGGA,100411.100,2500.8049756,N,12132.4797890,E,4,57,0.51,17.332,M,15.25,M,8,3335*45
$GNRMC,100411.100,A,2500.8049756,N,12132.4797890,E,0.51,317.86,120523,,,R,V*1C
$GNACCURACY,3.5*10
$GNGGA,100411.200,2500.8050005,N,12132.4797676,E,4,57,0.51,17.309,M,15.25,M,8,3335*41
$GNRMC,100411.200,A,2500.8050005,N,12132.4797676,E,0.60,343.10,120523,,,R,V*1C
$GNACCURACY,3.5*10
$GNGGA,100411.300,2500.8050253,N,12132.4797163,E,4,57,0.52,17.333,M,15.25,M,8,3335*48
$GNRMC,100411.300,A,2500.8050253,N,12132.4797163,E,0.25,343.10,120523,,,R,V*1E
$GNACCURACY,3.5*10
$GNGGA,100411.400,2500.8050479,N,12132.4797089,E,4,57,0.51,17.344,M,15.25,M,8,3335*47
$GNRMC,100411.400,A,2500.8050479,N,12132.4797089,E,0.35,343.10,120523,,,R,V*13
$GNACCURACY,3.5*10
$GNGGA,100411.500,2500.8050782,N,12132.4796728,E,4,57,0.52,17.304,M,15.25,M,8,3335*4B
$GNRMC,100411.500,A,2500.8050782,N,12132.4796728,E,0.18,343.10,120523,,,R,V*17
$GNACCURACY,3.5*10
$GNGGA,100411.600,2500.8051132,N,12132.4796466,E,4,57,0.52,17.357,M,15.25,M,8,3335*4B
$GNRMC,100411.600,A,2500.8051132,N,12132.4796466,E,0.14,343.10,120523,,,R,V*1D
$GNACCURACY,3.5*10
$GNGGA,100411.700,2500.8051453,N,12132.4796149,E,4,57,0.51,17.377,M,15.25,M,8,3335*41
$GNRMC,100411.700,A,2500.8051453,N,12132.4796149,E,0.27,343.10,120523,,,R,V*16
$GNACCURACY,3.5*10
$GNGGA,100411.800,2500.8051897,N,12132.4795706,E,4,57,0.52,17.380,M,15.25,M,8,3335*4F
$GNRMC,100411.800,A,2500.8051897,N,12132.4795706,E,0.16,343.10,120523,,,R,V*11
$GNACCURACY,3.5*10
$GNGGA,100411.900,2500.8052290,N,12132.4795452,E,4,57,0.51,17.352,M,15.25,M,8,3335*4E
$GNRMC,100411.900,A,2500.8052290,N,12132.4795452,E,0.72,335.03,120523,,,R,V*1D
$GNGSA,A,3,196,195,11,199,13,20,05,06,15,29,30,194,0.83,0.51,0.66,1*0F
$GNGSA,A,3,19,,,,,,,,,,,,0.83,0.51,0.66,1*06
$GNGSA,A,3,71,86,85,72,,,,,,,,,0.83,0.51,0.66,2*0D
$GNGSA,A,3,19,33,12,04,10,,,,,,,,0.83,0.51,0.66,3*02
$GNGSA,A,3,44,12,21,38,22,08,13,10,07,34,40,39,0.83,0.51,0.66,4*05
$GNGSA,A,3,35,42,,,,,,,,,,,0.83,0.51,0.66,4*0B
$GPGSV,5,1,17,196,74,060,36,195,71,118,37,11,60,047,39,199,60,167,39,1*5D
$GPGSV,5,2,17,50,60,167,40,13,54,184,38,20,53,358,42,05,51,313,38,1*60
$GPGSV,5,3,17,06,31,101,34,15,28,217,24,29,25,317,30,30,18,096,21,1*67
$GPGSV,5,4,17,194,15,170,30,19,14,157,19,12,11,235,17,07,09,065,16,1*53
$GPGSV,5,5,17,25,05,267,15,1*57
$GPGSV,2,1,07,196,74,060,43,195,71,118,44,11,60,047,41,199,60,167,46,8*53
$GPGSV,2,2,07,06,31,101,38,30,18,096,26,194,15,170,36,8*6F
$GLGSV,2,1,05,71,64,352,44,86,64,008,46,85,53,118,34,72,50,242,27,1*7D
$GLGSV,2,2,05,87,12,332,16,1*44
$GAGSV,2,1,08,19,78,077,32,33,54,083,35,12,50,343,36,04,37,209,27,7*7B
$GAGSV,2,2,08,10,29,324,25,26,12,115,,31,06,216,17,11,05,312,,7*73
$GAGSV,2,1,06,19,78,077,39,33,54,083,33,12,50,343,40,04,37,209,12,1*79
$GAGSV,2,2,06,10,29,324,23,31,06,216,16,1*7B
$GBGSV,4,1,14,44,86,170,46,12,69,325,40,21,65,281,40,38,53,357,42,1*75
$GBGSV,4,2,14,22,45,028,37,08,45,337,35,13,41,320,34,10,39,227,20,1*7D
$GBGSV,4,3,14,07,36,208,23,34,36,320,33,40,34,197,36,39,33,170,44,1*7B
$GBGSV,4,4,14,35,32,143,45,42,20,240,26,1*75
$GBGSV,3,1,09,44,86,170,44,21,65,281,36,38,53,357,41,22,45,028,34,4*7B
$GBGSV,3,2,09,34,36,320,36,40,34,197,36,39,33,170,43,35,32,143,43,4*79
$GBGSV,3,3,09,42,20,240,25,4*4F
$GNACCURACY,3.5*10
$PAIRSAT,1,33,1,0,200,2,0,200,3,0,200,4,0,200,5,0,201,6,0,221,7,0,200,8,0,200,9,0,200,11,0,221,12,0,200,13,0,201,14,0,200,15,0,201,16,0,200,17,0,200,18,0,200,19,0,201,20,0,201,21,0,200,23,0,200,24,0,200,25,0,220,26,0,200,27,0,200,28,0,200,29,0,201,30,0,221,31,0,200,194,0,621,195,0,621,196,0,620,199,0,621*6C
$PAIRSAT,2,24,65,0,200,66,0,200,67,0,200,68,0,200,69,0,200,70,0,200,71,0,201,72,0,201,73,0,200,74,0,200,75,0,200,76,0,200,77,0,200,78,0,200,79,0,200,80,0,200,81,0,200,82,0,200,83,0,200,84,0,200,85,0,201,86,0,201,87,0,200,88,0,200*7A
$PAIRSAT,3,22,2,0,200,4,0,1221,5,0,200,7,0,1200,8,0,1200,9,0,1200,10,0,1221,11,0,1200,12,0,1221,13,0,1200,15,0,1200,19,0,1221,21,0,1200,24,0,1200,25,0,1200,26,0,1200,27,0,1200,30,0,1200,31,0,1220,33,0,1221,34,0,1200,36,0,1200*77
$PAIRSAT,4,43,1,0,200,2,0,200,3,0,201,4,0,200,5,0,200,7,0,201,8,0,201,9,0,200,10,0,201,11,0,200,12,0,201,13,0,201,14,0,200,19,0,600,20,0,600,21,0,621,22,0,621,23,0,600,24,0,600,25,0,600,26,0,600,27,0,600,28,0,600,29,0,600,30,0,600,32,0,600,33,0,600,34,0,621,35,0,621,36,0,600,37,0,600,38,0,621,39,0,621,40,0,621,41,0,600,42,0,621,43,0,600,44,0,621,45,0,600,46,0,600,59,0,400,60,0,400,61,0,400*56
$PAIRDGP,10,5,6,7,11,13,15,19,20,29,30*44
$GNGGA,100412.000,2500.8052863,N,12132.4795162,E,4,57,0.51,17.325,M,15.25,M,9,3335*45
$GNRMC,100412.000,A,2500.8052863,N,12132.4795162,E,1.03,336.89,120523,,,R,V*11
$GNACCURACY,3.5*10
$GNGGA,100412.100,2500.8053230,N,12132.4794964,E,4,57,0.51,17.379,M,15.25,M,9,3335*4F
$GNRMC,100412.100,A,2500.8053230,N,12132.4794964,E,1.22,336.34,120523,,,R,V*17
$GNACCURACY,3.5*10
$GNGGA,100412.200,2500.8053655,N,12132.4794461,E,4,57,0.51,17.358,M,15.25,M,9,3335*40
$GNRMC,100412.200,A,2500.8053655,N,12132.4794461,E,1.37,334.63,120523,,,R,V*1F
$GNACCURACY,3.5*10
$GNGGA,100412.300,2500.8054057,N,12132.4794120,E,4,57,0.51,17.309,M,15.25,M,9,3335*46
$GNRMC,100412.300,A,2500.8054057,N,12132.4794120,E,1.46,333.16,120523,,,R,V*1E
$GNACCURACY,3.5*10
$GNGGA,100412.400,2500.8054407,N,12132.4793700,E,4,57,0.51,17.330,M,15.25,M,9,3335*49
$GNRMC,100412.400,A,2500.8054407,N,12132.4793700,E,1.54,330.68,120523,,,R,V*12
$GNACCURACY,3.5*10
$GNGGA,100412.500,2500.8054756,N,12132.4793185,E,4,57,0.51,17.336,M,15.25,M,9,3335*42
$GNRMC,100412.500,A,2500.8054756,N,12132.4793185,E,1.58,327.40,120523,,,R,V*1F
$GNACCURACY,3.5*10
$GNGGA,100412.600,2500.8055150,N,12132.4792787,E,4,57,0.51,17.320,M,15.25,M,9,3335*42
$GNRMC,100412.600,A,2500.8055150,N,12132.4792787,E,1.62,326.69,120523,,,R,V*1B
$GNACCURACY,3.5*10
$GNGGA,100412.700,2500.8055567,N,12132.4792332,E,4,57,0.51,17.357,M,15.25,M,9,3335*49
$GNRMC,100412.700,A,2500.8055567,N,12132.4792332,E,1.67,326.07,120523,,,R,V*1D
$GNACCURACY,3.5*10
$GNGGA,100412.800,2500.8056040,N,12132.4791911,E,4,57,0.51,17.352,M,15.25,M,9,3335*48
$GNRMC,100412.800,A,2500.8056040,N,12132.4791911,E,1.70,324.62,120523,,,R,V*1E
$GNACCURACY,3.5*10
$GNGGA,100412.900,2500.8056405,N,12132.4791273,E,4,57,0.51,17.306,M,15.25,M,9,3335*42
$GNRMC,100412.900,A,2500.8056405,N,12132.4791273,E,1.75,325.69,120523,,,R,V*1A
$GNGSA,A,3,196,195,11,199,13,20,05,06,15,29,30,194,0.83,0.51,0.66,1*0F
$GNGSA,A,3,19,,,,,,,,,,,,0.83,0.51,0.66,1*06
$GNGSA,A,3,71,86,85,72,,,,,,,,,0.83,0.51,0.66,2*0D
$GNGSA,A,3,19,33,12,04,10,,,,,,,,0.83,0.51,0.66,3*02
$GNGSA,A,3,44,12,21,38,22,08,13,10,07,34,40,39,0.83,0.51,0.66,4*05
$GNGSA,A,3,35,42,,,,,,,,,,,0.83,0.51,0.66,4*0B
$GPGSV,5,1,17,196,74,060,37,195,71,118,38,11,60,047,42,199,60,167,37,1*51
$GPGSV,5,2,17,50,60,167,40,13,54,184,29,20,53,358,43,05,51,313,37,1*6E
$GPGSV,5,3,17,06,31,101,40,15,28,217,24,29,25,317,39,30,18,096,23,1*6F
$GPGSV,5,4,17,194,15,170,36,19,14,157,18,12,11,235,15,07,09,065,16,1*56
$GPGSV,5,5,17,25,05,267,16,1*54
$GPGSV,2,1,07,196,74,060,46,195,71,118,42,11,60,047,46,199,60,167,45,8*54
$GPGSV,2,2,07,06,31,101,40,30,18,096,25,194,15,170,38,8*6D
$GLGSV,2,1,05,71,64,352,44,86,64,008,44,85,53,118,38,72,50,242,28,1*7C
$GLGSV,2,2,05,87,12,332,18,1*4A
$GAGSV,2,1,08,19,78,077,33,33,54,083,31,12,50,343,36,04,37,209,24,7*7D
$GAGSV,2,2,08,10,29,324,24,31,06,216,15,24,06,262,,11,05,312,,7*74
$GAGSV,2,1,06,19,78,077,35,33,54,083,31,12,50,343,39,04,37,209,12,1*79
$GAGSV,2,2,06,10,29,324,28,31,06,216,16,1*70
$GBGSV,4,1,14,44,85,170,44,12,69,325,40,21,65,281,41,38,53,357,43,1*74
$GBGSV,4,2,14,22,45,028,35,08,45,337,34,13,41,320,33,10,39,227,23,1*7A
$GBGSV,4,3,14,07,36,208,21,34,36,320,31,40,34,197,22,39,33,170,45,1*7F
$GBGSV,4,4,14,35,32,143,45,42,20,241,23,1*71
$GBGSV,3,1,09,44,85,170,45,21,65,281,37,38,53,357,43,22,45,028,36,4*78
$GBGSV,3,2,09,34,36,320,29,40,34,197,27,39,33,170,43,35,32,143,44,4*70
$GBGSV,3,3,09,42,20,241,25,4*4E
$GNACCURACY,3.5*10
$PAIRSAT,1,33,1,0,200,2,0,200,3,0,200,4,0,200,5,0,201,6,0,221,7,0,200,8,0,200,9,0,200,11,0,221,12,0,200,13,0,201,14,0,200,15,0,201,16,0,200,17,0,200,18,0,200,19,0,201,20,0,201,21,0,200,23,0,200,24,0,200,25,0,220,26,0,200,27,0,200,28,0,200,29,0,201,30,0,221,31,0,200,194,0,621,195,0,621,196,0,620,199,0,621*6C
$PAIRSAT,2,24,65,0,200,66,0,200,67,0,200,68,0,200,69,0,200,70,0,200,71,0,201,72,0,201,73,0,200,74,0,200,75,0,200,76,0,200,77,0,200,78,0,200,79,0,200,80,0,200,81,0,200,82,0,200,83,0,200,84,0,200,85,0,201,86,0,201,87,0,200,88,0,200*7A
$PAIRSAT,3,22,2,0,200,4,0,1221,5,0,200,7,0,1200,8,0,1200,9,0,1200,10,0,1221,11,0,1200,12,0,1221,13,0,1200,15,0,1200,19,0,1221,21,0,1200,24,0,1200,25,0,1200,26,0,1200,27,0,1200,30,0,1200,31,0,1220,33,0,1221,34,0,1200,36,0,1200*77
$PAIRSAT,4,43,1,0,200,2,0,200,3,0,201,4,0,200,5,0,200,7,0,201,8,0,201,9,0,200,10,0,201,11,0,200,12,0,201,13,0,201,14,0,200,19,0,600,20,0,600,21,0,621,22,0,621,23,0,600,24,0,600,25,0,600,26,0,600,27,0,600,28,0,600,29,0,600,30,0,600,32,0,600,33,0,600,34,0,621,35,0,621,36,0,600,37,0,600,38,0,621,39,0,621,40,0,621,41,0,600,42,0,621,43,0,600,44,0,621,45,0,600,46,0,600,59,0,400,60,0,400,61,0,400*56
$PAIRDGP,10,5,6,7,11,13,15,19,20,29,30*44
$GNGGA,100413.000,2500.8056904,N,12132.4791006,E,4,57,0.51,17.261,M,15.25,M,10,3335*7E
$GNRMC,100413.000,A,2500.8056904,N,12132.4791006,E,1.80,326.52,120523,,,R,V*1F
$GNACCURACY,3.5*10
$GNGGA,100413.100,2500.8057311,N,12132.4790588,E,4,55,0.51,17.233,M,15.25,M,10,3335*77
$GNRMC,100413.100,A,2500.8057311,N,12132.4790588,E,1.82,325.95,120523,,,R,V*19
$GNACCURACY,3.5*10
$GNGGA,100413.200,2500.8057790,N,12132.4790611,E,4,55,0.51,17.306,M,15.25,M,10,3335*7D
$GNRMC,100413.200,A,2500.8057790,N,12132.4790611,E,1.78,326.76,120523,,,R,V*1F
$GNACCURACY,3.5*10
$GNGGA,100413.300,2500.8058151,N,12132.4790415,E,4,56,0.51,17.389,M,15.25,M,10,3335*7A
$GNRMC,100413.300,A,2500.8058151,N,12132.4790415,E,1.81,327.06,120523,,,R,V*1C
$GNACCURACY,3.5*10
$GNGGA,100413.400,2500.8058586,N,12132.4789791,E,4,56,0.51,17.336,M,15.25,M,10,3335*70
$GNRMC,100413.400,A,2500.8058586,N,12132.4789791,E,1.85,326.21,120523,,,R,V*12
$GNACCURACY,3.5*10
$GNGGA,100413.500,2500.8058954,N,12132.4789374,E,4,56,0.51,17.312,M,15.25,M,10,3335*7B
$GNRMC,100413.500,A,2500.8058954,N,12132.4789374,E,1.84,325.37,120523,,,R,V*1A
$GNACCURACY,3.5*10
$GNGGA,100413.600,2500.8059231,N,12132.4788662,E,4,56,0.51,17.311,M,15.25,M,10,3335*71
$GNRMC,100413.600,A,2500.8059231,N,12132.4788662,E,1.84,323.06,120523,,,R,V*17
$GNACCURACY,3.5*10
$GNGGA,100413.700,2500.8059706,N,12132.4788474,E,4,56,0.51,17.358,M,15.25,M,10,3335*79
$GNRMC,100413.700,A,2500.8059706,N,12132.4788474,E,1.86,323.24,120523,,,R,V*10
$GNACCURACY,3.5*10
$GNGGA,100413.800,2500.8060055,N,12132.4788143,E,4,56,0.51,17.396,M,15.25,M,10,3335*7E
$GNRMC,100413.800,A,2500.8060055,N,12132.4788143,E,1.86,323.27,120523,,,R,V*16
$GNACCURACY,3.5*10
$GNGGA,100413.900,2500.8060445,N,12132.4787623,E,4,56,0.51,17.360,M,15.25,M,10,3335*7D
$GNRMC,100413.900,A,2500.8060445,N,12132.4787623,E,1.87,322.71,120523,,,R,V*1F
$GNGSA,A,3,196,195,11,199,13,20,05,06,15,29,30,194,0.83,0.51,0.66,1*0F
$GNGSA,A,3,19,,,,,,,,,,,,0.83,0.51,0.66,1*06
$GNGSA,A,3,86,71,85,72,,,,,,,,,0.83,0.51,0.66,2*0D
$GNGSA,A,3,19,33,12,04,10,,,,,,,,0.83,0.51,0.66,3*02
$GNGSA,A,3,44,12,21,38,08,22,13,10,07,34,40,39,0.83,0.51,0.66,4*05
$GNGSA,A,3,35,42,,,,,,,,,,,0.83,0.51,0.66,4*0B
$GPGSV,5,1,17,196,74,060,41,195,71,118,40,50,60,167,41,11,60,047,44,1*6C
$GPGSV,5,2,17,199,60,167,38,13,54,184,36,20,53,358,46,05,51,313,36,1*5F
$GPGSV,5,3,17,06,31,101,39,15,28,217,25,29,25,317,32,30,18,096,23,1*6B
$GPGSV,5,4,17,194,15,170,39,19,14,157,18,12,11,235,17,07,09,065,16,1*5B
$GPGSV,5,5,17,25,05,267,16,1*54
$GPGSV,2,1,07,196,74,060,45,195,71,118,44,11,60,047,48,199,60,167,46,8*5C
$GPGSV,2,2,07,06,31,101,41,30,18,096,29,194,15,170,38,8*60
$GLGSV,2,1,06,86,64,008,44,71,64,352,44,85,53,118,39,72,50,242,28,1*7E
$GLGSV,2,2,06,87,12,332,18,65,01,223,,1*78
$GAGSV,2,1,07,19,78,077,32,33,54,083,39,12,50,343,36,04,37,209,22,7*7D
$GAGSV,2,2,07,10,29,324,23,31,06,216,17,11,05,312,,7*48
$GAGSV,2,1,05,19,78,077,38,33,54,083,40,12,50,343,40,10,29,324,29,1*73
$GAGSV,2,2,05,31,06,216,18,1*48
$GBGSV,4,1,15,44,85,170,41,12,69,325,40,21,65,281,43,38,53,357,45,1*74
$GBGSV,4,2,15,08,45,337,30,22,45,028,28,13,41,320,32,10,39,227,26,1*77
$GBGSV,4,3,15,07,36,208,21,34,36,320,32,40,34,197,26,39,33,170,44,1*78
$GBGSV,4,4,15,35,32,143,46,42,20,241,21,45,01,135,,1*46
$GBGSV,2,1,08,44,85,170,41,21,65,281,44,38,53,357,45,22,45,028,34,4*7C
$GBGSV,2,2,08,34,36,320,33,39,33,170,44,35,32,143,45,42,20,241,22,4*77
$GNACCURACY,3.5*10
$PAIRSAT,1,33,1,0,200,2,0,200,3,0,200,4,0,200,5,0,201,6,0,221,7,0,200,8,0,200,9,0,200,11,0,221,12,0,200,13,0,201,14,0,200,15,0,201,16,0,200,17,0,200,18,0,200,19,0,201,20,0,201,21,0,200,23,0,200,24,0,200,25,0,220,26,0,200,27,0,200,28,0,200,29,0,201,30,0,221,31,0,200,194,0,621,195,0,621,196,0,620,199,0,621*6C
$PAIRSAT,2,24,65,0,200,66,0,200,67,0,200,68,0,200,69,0,200,70,0,200,71,0,201,72,0,201,73,0,200,74,0,200,75,0,200,76,0,200,77,0,200,78,0,200,79,0,200,80,0,200,81,0,200,82,0,200,83,0,200,84,0,200,85,0,201,86,0,201,87,0,200,88,0,200*7A
$PAIRSAT,3,22,2,0,200,4,0,1221,5,0,200,7,0,1200,8,0,1200,9,0,1200,10,0,1221,11,0,1200,12,0,1221,13,0,1200,15,0,1200,19,0,1221,21,0,1200,24,0,1200,25,0,1200,26,0,1200,27,0,1200,30,0,1200,31,0,1220,33,0,1221,34,0,1200,36,0,1200*77
$PAIRSAT,4,43,1,0,200,2,0,200,3,0,201,4,0,200,5,0,200,7,0,201,8,0,201,9,0,200,10,0,201,11,0,200,12,0,201,13,0,201,14,0,200,19,0,600,20,0,600,21,0,621,22,0,621,23,0,600,24,0,600,25,0,600,26,0,600,27,0,600,28,0,600,29,0,600,30,0,600,32,0,600,33,0,600,34,0,621,35,0,621,36,0,600,37,0,600,38,0,621,39,0,621,40,0,621,41,0,600,42,0,621,43,0,600,44,0,621,45,0,600,46,0,600,59,0,400,60,0,400,61,0,400*56
$PAIRDGP,10,5,6,7,11,13,15,19,20,29,30*44
$GNGGA,100414.000,2500.8060849,N,12132.4787215,E,4,55,0.51,17.427,M,15.25,M,11,3335*74
$GNRMC,100414.000,A,2500.8060849,N,12132.4787215,E,1.88,322.61,120523,,,R,V*1E
$GNACCURACY,3.5*10
$GNGGA,100414.100,2500.8061183,N,12132.4786874,E,4,55,0.51,17.402,M,15.25,M,11,3335*70
$GNRMC,100414.100,A,2500.8061183,N,12132.4786874,E,1.86,322.53,120523,,,R,V*12
$GNACCURACY,3.5*10
$GNGGA,100414.200,2500.8061729,N,12132.4786613,E,4,55,0.51,17.399,M,15.25,M,11,3335*7F
$GNRMC,100414.200,A,2500.8061729,N,12132.4786613,E,1.89,323.21,120523,,,R,V*13
$GNACCURACY,3.5*10
$GNGGA,100414.300,2500.8062171,N,12132.4786960,E,4,55,0.51,17.501,M,15.25,M,11,3335*7A
$GNRMC,100414.300,A,2500.8062171,N,12132.4786960,E,1.82,322.59,120523,,,R,V*14
$GNACCURACY,3.5*10
$GNGGA,100414.400,2500.8062545,N,12132.4786913,E,4,55,0.51,17.577,M,15.25,M,11,3335*7B
$GNRMC,100414.400,A,2500.8062545,N,12132.4786913,E,1.83,323.08,120523,,,R,V*10
$GNACCURACY,3.5*10
$GNGGA,100414.500,2500.8062881,N,12132.4785798,E,4,55,0.51,17.438,M,15.25,M,11,3335*7B
$GNRMC,100414.500,A,2500.8062881,N,12132.4785798,E,1.83,322.45,120523,,,R,V*12
$GNACCURACY,3.5*10
$GNGGA,100414.600,2500.8063103,N,12132.4785367,E,4,55,0.51,17.460,M,15.25,M,11,3335*73
$GNRMC,100414.600,A,2500.8063103,N,12132.4785367,E,1.78,320.48,120523,,,R,V*1C
$GNACCURACY,3.5*10
$GNGGA,100414.700,2500.8063493,N,12132.4784838,E,4,55,0.51,17.517,M,15.25,M,11,3335*7F
$GNRMC,100414.700,A,2500.8063493,N,12132.4784838,E,1.81,319.54,120523,,,R,V*10
$GNACCURACY,3.5*10
$GNGGA,100414.800,2500.8063790,N,12132.4784675,E,4,55,0.51,17.530,M,15.25,M,11,3335*72
$GNRMC,100414.800,A,2500.8063790,N,12132.4784675,E,1.80,318.76,120523,,,R,V*18
$GNACCURACY,3.5*10
$GNGGA,100414.900,2500.8064145,N,12132.4783858,E,4,55,0.51,17.453,M,15.25,M,11,3335*78
$GNRMC,100414.900,A,2500.8064145,N,12132.4783858,E,1.79,318.52,120523,,,R,V*16
$GNGSA,A,3,196,195,11,199,13,20,05,06,15,29,30,194,0.83,0.51,0.66,1*0F
$GNGSA,A,3,19,,,,,,,,,,,,0.83,0.51,0.66,1*06
$GNGSA,A,3,71,86,85,72,,,,,,,,,0.83,0.51,0.66,2*0D
$GNGSA,A,3,19,33,12,04,10,,,,,,,,0.83,0.51,0.66,3*02
$GNGSA,A,3,44,12,21,38,08,22,13,10,07,34,40,39,0.83,0.51,0.66,4*05
$GNGSA,A,3,35,42,,,,,,,,,,,0.83,0.51,0.66,4*0B
$GPGSV,5,1,17,196,74,060,42,195,71,118,40,11,60,047,41,199,60,167,37,1*5F
$GPGSV,5,2,17,50,60,167,40,13,54,184,33,20,53,358,44,05,51,314,31,1*63
$GPGSV,5,3,17,06,31,101,41,15,28,217,26,29,25,317,30,30,18,096,21,1*67
$GPGSV,5,4,17,194,15,170,37,19,14,157,18,12,11,235,17,07,09,064,14,1*56
$GPGSV,5,5,17,25,05,267,14,1*56
$GPGSV,2,1,07,196,74,060,45,195,71,118,45,11,60,047,46,199,60,167,45,8*50
$GPGSV,2,2,07,06,31,101,36,30,18,096,24,194,15,170,38,8*6D
$GLGSV,2,1,05,71,64,352,44,86,64,008,46,85,53,118,39,72,50,242,28,1*7F
$GLGSV,2,2,05,87,12,332,19,1*4B
$GAGSV,2,1,07,19,78,077,36,33,54,083,38,12,50,343,39,04,37,209,23,7*76
$GAGSV,2,2,07,10,29,324,23,31,06,216,17,11,05,312,,7*48
$GAGSV,2,1,05,19,78,077,37,33,54,083,30,12,50,343,40,10,29,324,24,1*76
$GAGSV,2,2,05,31,06,216,16,1*46
$GBGSV,4,1,14,44,85,170,42,12,69,325,41,21,65,281,40,38,53,357,44,1*75
$GBGSV,4,2,14,08,45,337,34,22,45,028,39,13,41,320,31,10,39,227,24,1*73
$GBGSV,4,3,14,07,36,208,21,34,36,320,37,40,34,197,27,39,33,170,43,1*7A
$GBGSV,4,4,14,35,32,143,47,42,20,241,22,1*72
$GBGSV,2,1,07,44,85,170,41,21,65,281,30,38,53,357,44,22,45,028,38,4*7D
$GBGSV,2,2,07,34,36,320,28,39,33,170,44,35,32,143,43,4*47
$GNACCURACY,3.5*10
$PAIRSAT,1,33,1,0,200,2,0,200,3,0,200,4,0,200,5,0,201,6,0,221,7,0,200,8,0,200,9,0,200,11,0,221,12,0,200,13,0,201,14,0,200,15,0,201,16,0,200,17,0,200,18,0,200,19,0,201,20,0,201,21,0,200,23,0,200,24,0,200,25,0,220,26,0,200,27,0,200,28,0,200,29,0,201,30,0,221,31,0,200,194,0,621,195,0,621,196,0,620,199,0,621*6C
$PAIRSAT,2,24,65,0,200,66,0,200,67,0,200,68,0,200,69,0,200,70,0,200,71,0,201,72,0,201,73,0,200,74,0,200,75,0,200,76,0,200,77,0,200,78,0,200,79,0,200,80,0,200,81,0,200,82,0,200,83,0,200,84,0,200,85,0,201,86,0,201,87,0,200,88,0,200*7A
$PAIRSAT,3,22,2,0,200,4,0,1221,5,0,200,7,0,1200,8,0,1200,9,0,1200,10,0,1221,11,0,1200,12,0,1221,13,0,1200,15,0,1200,19,0,1221,21,0,1200,24,0,1200,25,0,1200,26,0,1200,27,0,1200,30,0,1200,31,0,1220,33,0,1221,34,0,1200,36,0,1200*77
$PAIRSAT,4,43,1,0,200,2,0,200,3,0,201,4,0,200,5,0,200,7,0,201,8,0,201,9,0,200,10,0,201,11,0,200,12,0,201,13,0,201,14,0,200,19,0,600,20,0,600,21,0,621,22,0,621,23,0,600,24,0,600,25,0,600,26,0,600,27,0,600,28,0,600,29,0,600,30,0,600,32,0,600,33,0,600,34,0,621,35,0,621,36,0,600,37,0,600,38,0,621,39,0,621,40,0,621,41,0,600,42,0,621,43,0,600,44,0,621,45,0,600,46,0,600,59,0,400,60,0,400,61,0,400*56
$PAIRDGP,10,5,6,7,11,13,15,19,20,29,30*44
$GNGGA,100415.000,2500.8064501,N,12132.4783753,E,4,54,0.51,17.540,M,15.25,M,12,3335*71
$GNRMC,100415.000,A,2500.8064501,N,12132.4783753,E,1.80,318.99,120523,,,R,V*1F
$GNACCURACY,3.5*10
$GNGGA,100415.100,2500.8064915,N,12132.4783485,E,4,54,0.51,17.560,M,15.25,M,12,3335*73
$GNRMC,100415.100,A,2500.8064915,N,12132.4783485,E,1.80,319.03,120523,,,R,V*1D
$GNACCURACY,3.5*10
$GNGGA,100415.200,2500.8065352,N,12132.4782876,E,4,54,0.51,17.471,M,15.25,M,12,3335*78
$GNRMC,100415.200,A,2500.8065352,N,12132.4782876,E,1.81,319.41,120523,,,R,V*10
$GNACCURACY,3.5*10
$GNGGA,100415.300,2500.8065773,N,12132.4782583,E,4,54,0.51,17.511,M,15.25,M,12,3335*7E
$GNRMC,100415.300,A,2500.8065773,N,12132.4782583,E,1.81,320.45,120523,,,R,V*1F
$GNACCURACY,3.5*10
$GNGGA,100415.400,2500.8066228,N,12132.4782169,E,4,54,0.51,17.434,M,15.25,M,12,3335*77
$GNRMC,100415.400,A,2500.8066228,N,12132.4782169,E,1.81,320.79,120523,,,R,V*1F
$GNACCURACY,3.5*10
$GNGGA,100415.500,2500.8066597,N,12132.4781838,E,4,54,0.51,17.484,M,15.25,M,12,3335*70
$GNRMC,100415.500,A,2500.8066597,N,12132.4781838,E,1.82,321.20,120523,,,R,V*1D
$GNACCURACY,3.5*10
$GNGGA,100415.600,2500.8067097,N,12132.4781676,E,4,54,0.51,17.453,M,15.25,M,12,3335*79
$GNRMC,100415.600,A,2500.8067097,N,12132.4781676,E,1.81,321.19,120523,,,R,V*17
$GNACCURACY,3.5*10
$GNGGA,100415.700,2500.8067434,N,12132.4781272,E,4,54,0.51,17.516,M,15.25,M,12,3335*75
$GNRMC,100415.700,A,2500.8067434,N,12132.4781272,E,1.83,321.09,120523,,,R,V*18
$GNACCURACY,3.5*10
$GNGGA,100415.800,2500.8067796,N,12132.4780939,E,4,54,0.51,17.502,M,15.25,M,12,3335*71
$GNRMC,100415.800,A,2500.8067796,N,12132.4780939,E,1.82,320.85,120523,,,R,V*1D
$GNACCURACY,3.5*10
$GNGGA,100415.900,2500.8068226,N,12132.4780257,E,4,54,0.51,17.424,M,15.25,M,12,3335*77
$GNRMC,100415.900,A,2500.8068226,N,12132.4780257,E,1.80,320.30,120523,,,R,V*12
$GNGSA,A,3,196,195,11,199,13,20,05,06,15,29,30,194,0.83,0.51,0.66,1*0F
$GNGSA,A,3,19,,,,,,,,,,,,0.83,0.51,0.66,1*06
$GNGSA,A,3,86,71,85,72,,,,,,,,,0.83,0.51,0.66,2*0D
$GNGSA,A,3,19,33,12,04,10,,,,,,,,0.83,0.51,0.66,3*02
$GNGSA,A,3,44,12,21,38,08,22,13,10,07,34,40,39,0.83,0.51,0.66,4*05
$GNGSA,A,3,35,42,,,,,,,,,,,0.83,0.51,0.66,4*0B
$GPGSV,5,1,17,196,74,060,42,195,71,118,41,50,60,167,38,11,60,047,40,1*64
$GPGSV,5,2,17,199,60,167,36,13,54,184,33,20,53,358,44,05,51,314,32,1*55
$GPGSV,5,3,17,06,31,101,29,15,28,217,26,29,25,317,30,30,18,096,26,1*6E
$GPGSV,5,4,17,194,15,170,36,19,14,157,17,12,11,235,16,07,09,064,15,1*58
$GPGSV,5,5,17,25,05,267,14,1*56
$GPGSV,2,1,07,196,74,060,45,195,71,118,43,11,60,047,47,199,60,167,44,8*56
$GPGSV,2,2,07,06,31,101,40,30,18,096,29,194,15,170,38,8*61
$GLGSV,2,1,05,86,64,008,46,71,64,352,46,85,53,118,38,72,50,242,27,1*73
$GLGSV,2,2,05,87,12,332,19,1*4B
$GAGSV,2,1,07,19,78,077,38,33,54,083,38,12,50,343,38,04,37,209,22,7*78
$GAGSV,2,2,07,10,29,324,26,31,06,216,17,11,05,312,,7*4D
$GAGSV,2,1,05,19,78,077,37,33,54,083,36,12,50,343,40,10,29,324,25,1*71
$GAGSV,2,2,05,31,06,216,16,1*46
$GBGSV,4,1,16,44,85,170,42,12,69,325,43,21,65,281,40,38,53,357,42,1*73
$GBGSV,4,2,16,08,45,337,27,22,45,028,40,13,41,320,30,10,39,227,24,1*7C
$GBGSV,4,3,16,07,36,208,21,34,36,320,37,40,34,197,25,39,33,170,43,1*7A
$GBGSV,4,4,16,35,32,143,44,42,20,241,22,16,,,34,06,,,27,1*70
$GBGSV,2,1,07,44,85,170,42,21,65,281,34,38,53,357,42,22,45,028,36,4*72
$GBGSV,2,2,07,34,36,320,35,39,33,170,40,35,32,143,42,4*4E
$GNACCURACY,3.5*10
$PAIRSAT,1,33,1,0,200,2,0,200,3,0,200,4,0,200,5,0,201,6,0,221,7,0,200,8,0,200,9,0,200,11,0,221,12,0,200,13,0,201,14,0,200,15,0,201,16,0,200,17,0,200,18,0,200,19,0,201,20,0,201,21,0,200,23,0,200,24,0,200,25,0,220,26,0,200,27,0,200,28,0,200,29,0,201,30,0,221,31,0,200,194,0,621,195,0,621,196,0,620,199,0,621*6C
$PAIRSAT,2,24,65,0,200,66,0,200,67,0,200,68,0,200,69,0,200,70,0,200,71,0,201,72,0,201,73,0,200,74,0,200,75,0,200,76,0,200,77,0,200,78,0,200,79,0,200,80,0,200,81,0,200,82,0,200,83,0,200,84,0,200,85,0,201,86,0,201,87,0,200,88,0,200*7A
$PAIRSAT,3,22,2,0,200,4,0,1221,5,0,200,7,0,1200,8,0,1200,9,0,1200,10,0,1221,11,0,1200,12,0,1221,13,0,1200,15,0,1200,19,0,1221,21,0,1200,24,0,1200,25,0,1200,26,0,1200,27,0,1200,30,0,1200,31,0,1220,33,0,1221,34,0,1200,36,0,1200*77
$PAIRSAT,4,43,1,0,200,2,0,200,3,0,201,4,0,200,5,0,200,7,0,201,8,0,201,9,0,200,10,0,201,11,0,200,12,0,201,13,0,201,14,0,200,19,0,600,20,0,600,21,0,621,22,0,621,23,0,600,24,0,600,25,0,600,26,0,600,27,0,600,28,0,600,29,0,600,30,0,600,32,0,600,33,0,600,34,0,621,35,0,621,36,0,600,37,0,600,38,0,621,39,0,621,40,0,621,41,0,600,42,0,621,43,0,600,44,0,621,45,0,600,46,0,600,59,0,400,60,0,400,61,0,400*56
$PAIRDGP,10,5,6,7,11,13,15,19,20,29,30*44
$GNGGA,100416.000,2500.8068508,N,12132.4779961,E,4,54,0.51,17.508,M,15.25,M,13,3335*70
$GNRMC,100416.000,A,2500.8068508,N,12132.4779961,E,1.80,320.68,120523,,,R,V*16
$GNACCURACY,3.5*10
$GNGGA,100416.100,2500.8068865,N,12132.4779316,E,4,54,0.51,17.484,M,15.25,M,13,3335*78
$GNRMC,100416.100,A,2500.8068865,N,12132.4779316,E,1.81,320.57,120523,,,R,V*16
$GNACCURACY,3.5*10
$GNGGA,100416.200,2500.8069386,N,12132.4778966,E,4,54,0.51,17.486,M,15.25,M,13,3335*72
$GNRMC,100416.200,A,2500.8069386,N,12132.4778966,E,1.82,320.94,120523,,,R,V*12
$GNACCURACY,3.4*11
$GNGGA,100416.300,2500.8069876,N,12132.4778649,E,4,54,0.51,17.430,M,15.25,M,13,3335*78
$GNRMC,100416.300,A,2500.8069876,N,12132.4778649,E,1.83,320.77,120523,,,R,V*19
$GNACCURACY,3.4*11
$GNGGA,100416.400,2500.8070317,N,12132.4778239,E,4,54,0.51,17.439,M,15.25,M,13,3335*71
$GNRMC,100416.400,A,2500.8070317,N,12132.4778239,E,1.81,321.16,120523,,,R,V*1D
$GNACCURACY,3.4*11
$GNGGA,100416.500,2500.8070571,N,12132.4777242,E,4,54,0.51,17.413,M,15.25,M,13,3335*7D
$GNRMC,100416.500,A,2500.8070571,N,12132.4777242,E,1.81,321.06,120523,,,R,V*18
$GNACCURACY,3.4*11
$GNGGA,100416.600,2500.8071027,N,12132.4777649,E,4,54,0.51,17.509,M,15.25,M,13,3335*7C
$GNRMC,100416.600,A,2500.8071027,N,12132.4777649,E,1.78,320.71,120523,,,R,V*14
$GNACCURACY,3.4*11
$GNGGA,100416.700,2500.8071372,N,12132.4777331,E,4,54,0.51,17.554,M,15.25,M,13,3335*7C
$GNRMC,100416.700,A,2500.8071372,N,12132.4777331,E,1.79,320.42,120523,,,R,V*1D
$GNACCURACY,3.4*11
$GNGGA,100416.800,2500.8071853,N,12132.4776926,E,4,54,0.51,17.564,M,15.25,M,13,3335*75
$GNRMC,100416.800,A,2500.8071853,N,12132.4776926,E,1.81,319.97,120523,,,R,V*12
$GNACCURACY,3.4*11
$GNGGA,100416.900,2500.8072122,N,12132.4776442,E,4,54,0.51,17.577,M,15.25,M,13,3335*75
$GNRMC,100416.900,A,2500.8072122,N,12132.4776442,E,1.83,320.38,120523,,,R,V*1D
$GNGSA,A,3,196,195,11,199,13,20,05,06,15,29,30,194,0.83,0.51,0.66,1*0F
$GNGSA,A,3,19,,,,,,,,,,,,0.83,0.51,0.66,1*06
$GNGSA,A,3,86,71,85,72,,,,,,,,,0.83,0.51,0.66,2*0D
$GNGSA,A,3,19,33,12,04,10,,,,,,,,0.83,0.51,0.66,3*02
$GNGSA,A,3,44,12,21,38,08,22,13,10,07,34,40,39,0.83,0.51,0.66,4*05
$GNGSA,A,3,35,42,,,,,,,,,,,0.83,0.51,0.66,4*0B
$GPGSV,5,1,17,196,74,060,43,195,71,118,42,50,60,167,39,11,60,047,40,1*67
$GPGSV,5,2,17,199,60,167,36,13,54,184,30,20,53,358,45,05,51,314,30,1*55
$GPGSV,5,3,17,06,31,101,27,15,28,217,24,29,25,317,38,30,18,096,21,1*6D
$GPGSV,5,4,17,194,15,170,32,19,14,157,15,12,11,235,16,07,09,064,15,1*5E
$GPGSV,5,5,17,25,05,267,13,1*51
$GPGSV,2,1,07,196,74,060,44,195,71,118,43,11,60,047,46,199,60,167,46,8*54
$GPGSV,2,2,07,06,31,101,37,30,18,096,30,194,15,170,39,8*68
$GLGSV,2,1,05,86,64,008,44,71,64,352,43,85,53,118,42,72,50,242,29,1*77
$GLGSV,2,2,05,87,12,332,18,1*4A
$GAGSV,2,1,07,19,78,077,34,33,54,083,33,12,50,343,33,04,37,209,22,7*74
$GAGSV,2,2,07,10,29,324,21,31,06,216,15,11,05,312,,7*48
$GAGSV,2,1,05,19,78,077,38,33,54,083,30,12,50,343,38,10,29,324,28,1*7A
$GAGSV,2,2,05,31,06,216,14,1*44
$GBGSV,4,1,16,44,85,170,40,12,69,325,43,21,65,281,35,38,53,357,43,1*72
$GBGSV,4,2,16,08,45,337,28,22,45,028,43,13,41,320,30,10,39,227,22,1*76
$GBGSV,4,3,16,07,36,208,22,34,36,320,37,40,34,197,21,39,33,170,42,1*7C
$GBGSV,4,4,16,35,32,143,42,42,20,241,26,16,,,36,06,,,22,1*75
$GBGSV,2,1,07,44,85,170,42,21,65,281,37,38,53,357,45,22,45,028,38,4*78
$GBGSV,2,2,07,34,36,320,36,39,33,170,43,35,32,143,42,4*4E
$GNACCURACY,3.4*11
$PAIRSAT,1,33,1,0,200,2,0,200,3,0,200,4,0,200,5,0,201,6,0,221,7,0,200,8,0,200,9,0,200,11,0,221,12,0,200,13,0,201,14,0,200,15,0,201,16,0,200,17,0,200,18,0,200,19,0,201,20,0,201,21,0,200,23,0,200,24,0,200,25,0,220,26,0,200,27,0,200,28,0,200,29,0,201,30,0,221,31,0,200,194,0,621,195,0,621,196,0,620,199,0,621*6C
$PAIRSAT,2,24,65,0,200,66,0,200,67,0,200,68,0,200,69,0,200,70,0,200,71,0,201,72,0,201,73,0,200,74,0,200,75,0,200,76,0,200,77,0,200,78,0,200,79,0,200,80,0,200,81,0,200,82,0,200,83,0,200,84,0,200,85,0,201,86,0,201,87,0,200,88,0,200*7A
$PAIRSAT,3,22,2,0,200,4,0,1221,5,0,200,7,0,1200,8,0,1200,9,0,1200,10,0,1221,11,0,1200,12,0,1221,13,0,1200,15,0,1200,19,0,1221,21,0,1200,24,0,1200,25,0,1200,26,0,1200,27,0,1200,30,0,1200,31,0,1220,33,0,1221,34,0,1200,36,0,1200*77
$PAIRSAT,4,43,1,0,200,2,0,200,3,0,201,4,0,200,5,0,200,7,0,201,8,0,201,9,0,200,10,0,201,11,0,200,12,0,201,13,0,201,14,0,200,19,0,600,20,0,600,21,0,621,22,0,621,23,0,600,24,0,600,25,0,600,26,0,600,27,0,600,28,0,600,29,0,600,30,0,600,32,0,600,33,0,600,34,0,621,35,0,621,36,0,600,37,0,600,38,0,621,39,0,621,40,0,621,41,0,600,42,0,621,43,0,600,44,0,621,45,0,600,46,0,600,59,0,400,60,0,400,61,0,400*56
$PAIRDGP,10,5,6,7,11,13,15,19,20,29,30*44
$GNGGA,100417.000,2500.8072556,N,12132.4775642,E,4,54,0.51,17.481,M,15.25,M,14,3335*74
$GNRMC,100417.000,A,2500.8072556,N,12132.4775642,E,1.84,319.46,120523,,,R,V*17
$GNACCURACY,3.4*11
$GNGGA,100417.100,2500.8072976,N,12132.4775222,E,2,54,0.51,17.489,M,15.25,M,14,3335*77
$GNRMC,100417.100,A,2500.8072976,N,12132.4775222,E,1.83,318.62,120523,,,D,V*0C
$GNACCURACY,3.4*11
$GNGGA,100417.200,2500.8073456,N,12132.4774922,E,2,54,0.51,17.499,M,15.25,M,14,3335*71
$GNRMC,100417.200,A,2500.8073456,N,12132.4774922,E,1.81,318.22,120523,,,D,V*0D
$GNACCURACY,3.4*11
$GNGGA,100417.300,2500.8073936,N,12132.4774562,E,2,54,0.51,17.502,M,15.25,M,14,3335*70
$GNRMC,100417.300,A,2500.8073936,N,12132.4774562,E,1.83,318.31,120523,,,D,V*0F
$GNACCURACY,3.5*10
$GNGGA,100417.400,2500.8074416,N,12132.4774322,E,2,54,0.51,17.507,M,15.25,M,14,3335*78
$GNRMC,100417.400,A,2500.8074416,N,12132.4774322,E,1.83,318.65,120523,,,D,V*03
$GNACCURACY,3.5*10
$GNGGA,100417.500,2500.8074896,N,12132.4773962,E,2,55,0.51,17.511,M,15.25,M,14,3335*72
$GNRMC,100417.500,A,2500.8074896,N,12132.4773962,E,1.86,318.68,120523,,,D,V*07
$GNACCURACY,3.5*10
$GNGGA,100417.600,2500.8075376,N,12132.4773602,E,2,54,0.51,17.509,M,15.25,M,14,3335*74
$GNRMC,100417.600,A,2500.8075376,N,12132.4773602,E,1.88,318.60,120523,,,D,V*0F
$GNACCURACY,3.5*10
$GNGGA,100417.700,2500.8075856,N,12132.4773362,E,2,55,0.51,17.507,M,15.25,M,14,3335*70
$GNRMC,100417.700,A,2500.8075856,N,12132.4773362,E,1.88,318.91,120523,,,D,V*0A
$GNACCURACY,3.4*11
$GNGGA,100417.800,2500.8076396,N,12132.4773182,E,2,55,0.51,17.504,M,15.25,M,14,3335*74
$GNRMC,100417.800,A,2500.8076396,N,12132.4773182,E,1.88,319.28,120523,,,D,V*0E
$GNACCURACY,3.4*11
$GNGGA,100417.900,2500.8076936,N,12132.4772942,E,2,55,0.51,17.506,M,15.25,M,14,3335*72
$GNRMC,100417.900,A,2500.8076936,N,12132.4772942,E,1.87,319.71,120523,,,D,V*09
$GNGSA,A,3,196,195,11,199,13,20,05,06,15,29,30,194,0.83,0.51,0.66,1*0F
$GNGSA,A,3,19,,,,,,,,,,,,0.83,0.51,0.66,1*06
$GNGSA,A,3,71,86,85,72,,,,,,,,,0.83,0.51,0.66,2*0D
$GNGSA,A,3,19,33,12,04,10,,,,,,,,0.83,0.51,0.66,3*02
$GNGSA,A,3,44,12,21,38,22,08,13,10,07,34,40,39,0.83,0.51,0.66,4*05
$GNGSA,A,3,35,42,,,,,,,,,,,0.83,0.51,0.66,4*0B
$GPGSV,5,1,17,196,74,060,41,195,71,118,45,11,60,047,43,199,60,167,31,1*5D
$GPGSV,5,2,17,50,60,167,32,13,54,184,30,20,53,358,43,05,51,314,26,1*64
$GPGSV,5,3,17,06,31,101,28,15,28,217,24,29,25,317,36,30,18,096,24,1*69
$GPGSV,5,4,17,194,15,170,33,19,14,157,16,12,11,235,16,07,09,064,16,1*5F
$GPGSV,5,5,17,25,05,267,16,1*54
$GPGSV,2,1,07,196,74,060,44,195,71,118,43,11,60,047,47,199,60,167,41,8*52
$GPGSV,2,2,07,06,31,101,31,30,18,096,29,194,15,170,37,8*68
$GLGSV,2,1,05,71,64,352,44,86,64,008,44,85,53,118,40,72,50,242,32,1*78
$GLGSV,2,2,05,87,12,332,16,1*44
$GAGSV,2,1,06,19,78,077,35,33,54,083,28,12,50,343,30,04,37,209,22,7*7D
$GAGSV,2,2,06,10,29,324,22,31,06,216,17,7*7D
$GAGSV,2,1,05,19,78,077,35,33,54,083,37,12,50,343,31,10,29,324,31,1*71
$GAGSV,2,2,05,31,06,216,14,1*44
$GBGSV,4,1,16,44,85,170,42,12,69,325,38,21,65,281,41,38,53,357,44,1*78
$GBGSV,4,2,16,22,45,028,46,08,45,337,30,13,41,320,32,10,39,227,20,1*7A
$GBGSV,4,3,16,07,36,208,22,34,36,320,35,40,34,197,24,39,33,170,41,1*78
$GBGSV,4,4,16,35,32,143,44,42,20,241,23,16,,,33,06,,,21,1*70
$GBGSV,2,1,08,44,85,170,41,21,65,281,37,38,53,357,43,22,45,028,44,4*79
$GBGSV,2,2,08,34,36,320,35,39,33,170,39,35,32,143,41,42,20,241,25,4*78
$GNACCURACY,3.4*11
$PAIRSAT,1,33,1,0,200,2,0,200,3,0,200,4,0,200,5,0,201,6,0,221,7,0,200,8,0,200,9,0,200,11,0,221,12,0,200,13,0,201,14,0,200,15,0,201,16,0,200,17,0,200,18,0,200,19,0,201,20,0,201,21,0,200,23,0,200,24,0,200,25,0,220,26,0,200,27,0,200,28,0,200,29,0,201,30,0,221,31,0,200,194,0,621,195,0,621,196,0,620,199,0,621*6C
$PAIRSAT,2,24,65,0,200,66,0,200,67,0,200,68,0,200,69,0,200,70,0,200,71,0,201,72,0,201,73,0,200,74,0,200,75,0,200,76,0,200,77,0,200,78,0,200,79,0,200,80,0,200,81,0,200,82,0,200,83,0,200,84,0,200,85,0,201,86,0,201,87,0,200,88,0,200*7A
$PAIRSAT,3,22,2,0,200,4,0,1221,5,0,200,7,0,1200,8,0,1200,9,0,1200,10,0,1221,11,0,1200,12,0,1221,13,0,1200,15,0,1200,19,0,1221,21,0,1200,24,0,1200,25,0,1200,26,0,1200,27,0,1200,30,0,1200,31,0,1220,33,0,1221,34,0,1200,36,0,1200*77
$PAIRSAT,4,43,1,0,200,2,0,200,3,0,201,4,0,200,5,0,200,7,0,201,8,0,201,9,0,200,10,0,201,11,0,200,12,0,201,13,0,201,14,0,200,19,0,600,20,0,600,21,0,621,22,0,621,23,0,600,24,0,600,25,0,600,26,0,600,27,0,600,28,0,600,29,0,600,30,0,600,32,0,600,33,0,600,34,0,621,35,0,621,36,0,600,37,0,600,38,0,621,39,0,621,40,0,621,41,0,600,42,0,621,43,0,600,44,0,621,45,0,600,46,0,600,59,0,400,60,0,400,61,0,400*56
$PAIRDGP,10,5,6,7,11,13,15,19,20,29,30*44
$GNGGA,100418.000,2500.8077416,N,12132.4772642,E,2,55,0.51,17.513,M,15.25,M,15,3335*70
$GNRMC,100418.000,A,2500.8077416,N,12132.4772642,E,1.88,320.20,120523,,,D,V*0F
$GNACCURACY,3.4*11
$GNGGA,100418.100,2500.8077956,N,12132.4772342,E,2,55,0.51,17.517,M,15.25,M,13,3335*7F
$GNRMC,100418.100,A,2500.8077956,N,12132.4772342,E,1.88,321.12,120523,,,D,V*02
$GNACCURACY,3.4*11
$GNGGA,100418.200,2500.8078556,N,12132.4772042,E,2,55,0.51,17.519,M,15.25,M,13,3335*72
$GNRMC,100418.200,A,2500.8078556,N,12132.4772042,E,1.90,321.84,120523,,,D,V*07
$GNACCURACY,3.4*11
$GNGGA,100418.300,2500.8079096,N,12132.4771622,E,2,55,0.51,17.521,M,15.25,M,11,3335*71
$GNRMC,100418.300,A,2500.8079096,N,12132.4771622,E,1.93,321.61,120523,,,D,V*05
$GNACCURACY,3.4*11
$GNGGA,100418.400,2500.8079576,N,12132.4771322,E,2,55,0.51,17.519,M,15.25,M,11,3335*73
$GNRMC,100418.400,A,2500.8079576,N,12132.4771322,E,1.91,321.44,120523,,,D,V*09
$GNACCURACY,3.5*10
$GNGGA,100418.500,2500.8079996,N,12132.4770962,E,2,55,0.51,17.519,M,15.25,M,9,3335*46
$GNRMC,100418.500,A,2500.8079996,N,12132.4770962,E,1.89,320.59,120523,,,D,V*01
$GNACCURACY,3.5*10
$GNGGA,100418.600,2500.8080536,N,12132.4770722,E,2,55,0.51,17.519,M,15.25,M,9,3335*4F
$GNRMC,100418.600,A,2500.8080536,N,12132.4770722,E,1.89,321.64,120523,,,D,V*07
$GNACCURACY,3.5*10
$GNGGA,100418.700,2500.8081076,N,12132.4770422,E,2,55,0.51,17.518,M,15.25,M,7,3335*42
$GNRMC,100418.700,A,2500.8081076,N,12132.4770422,E,1.88,321.68,120523,,,D,V*08
$GNACCURACY,3.5*10
$GNGGA,100418.800,2500.8081556,N,12132.4770062,E,2,55,0.51,17.513,M,15.25,M,7,3335*41
$GNRMC,100418.800,A,2500.8081556,N,12132.4770062,E,1.89,321.48,120523,,,D,V*03
$GNACCURACY,3.5*10
$GNGGA,100418.900,2500.8082036,N,12132.4769882,E,2,55,0.51,17.515,M,15.25,M,6,3335*49
$GNRMC,100418.900,A,2500.8082036,N,12132.4769882,E,1.89,321.90,120523,,,D,V*09
$GNGSA,A,3,196,195,199,11,13,20,05,06,15,29,30,194,0.83,0.51,0.66,1*0F
$GNGSA,A,3,19,,,,,,,,,,,,0.83,0.51,0.66,1*06
$GNGSA,A,3,86,71,85,72,,,,,,,,,0.83,0.51,0.66,2*0D
$GNGSA,A,3,19,33,12,04,10,,,,,,,,0.83,0.51,0.66,3*02
$GNGSA,A,3,44,12,21,38,08,22,13,10,07,34,40,39,0.83,0.51,0.66,4*05
$GNGSA,A,3,35,42,,,,,,,,,,,0.83,0.51,0.66,4*0B
$GPGSV,5,1,17,196,74,060,41,195,71,118,42,199,60,167,30,11,60,047,41,1*59
$GPGSV,5,2,17,50,60,167,33,13,54,184,30,20,53,358,46,05,51,314,31,1*66
$GPGSV,5,3,17,06,31,101,33,15,28,217,28,29,25,317,37,30,18,096,25,1*6F
$GPGSV,5,4,17,194,15,170,33,19,14,157,17,12,11,235,15,07,09,064,16,1*5D
$GPGSV,5,5,17,25,05,267,15,1*57
$GPGSV,2,1,07,196,74,060,44,195,71,118,43,11,60,047,46,199,60,167,35,8*50
$GPGSV,2,2,07,06,31,101,36,30,18,096,28,194,15,170,31,8*68
$GLGSV,2,1,05,86,64,008,45,71,64,352,44,85,53,118,40,72,50,242,27,1*7D
$GLGSV,2,2,05,87,12,332,17,1*45
$GAGSV,2,1,06,19,78,077,38,33,54,083,37,12,50,343,25,04,37,209,23,7*7B
$GAGSV,2,2,06,10,29,324,28,31,06,216,17,7*77
$GAGSV,2,1,05,19,78,077,35,33,54,083,41,12,50,343,23,10,29,324,34,1*76
$GAGSV,2,2,05,31,06,216,13,1*43
$GBGSV,4,1,15,44,85,170,42,12,69,325,38,21,65,281,33,38,53,357,46,1*7C
$GBGSV,4,2,15,08,45,337,23,22,45,028,45,13,41,320,33,10,39,227,21,1*78
$GBGSV,4,3,15,07,36,208,21,34,36,320,32,40,34,197,23,39,33,170,38,1*76
$GBGSV,4,4,15,35,32,143,46,42,20,241,21,16,,,26,1*72
$GBGSV,2,1,08,44,85,170,42,21,65,281,35,38,53,357,41,22,45,028,44,4*7A
$GBGSV,2,2,08,34,36,320,37,39,33,170,35,35,32,143,43,42,20,241,25,4*74
$GNACCURACY,3.5*10
$PAIRSAT,1,33,1,0,200,2,0,200,3,0,200,4,0,200,5,0,201,6,0,221,7,0,200,8,0,200,9,0,200,11,0,221,12,0,200,13,0,201,14,0,200,15,0,201,16,0,200,17,0,200,18,0,200,19,0,201,20,0,201,21,0,200,23,0,200,24,0,200,25,0,220,26,0,200,27,0,200,28,0,200,29,0,201,30,0,221,31,0,200,194,0,621,195,0,621,196,0,620,199,0,621*6C
$PAIRSAT,2,24,65,0,200,66,0,200,67,0,200,68,0,200,69,0,200,70,0,200,71,0,201,72,0,201,73,0,200,74,0,200,75,0,200,76,0,200,77,0,200,78,0,200,79,0,200,80,0,200,81,0,200,82,0,200,83,0,200,84,0,200,85,0,201,86,0,201,87,0,200,88,0,200*7A
$PAIRSAT,3,22,2,0,200,4,0,1221,5,0,200,7,0,1200,8,0,1200,9,0,1200,10,0,1221,11,0,1200,12,0,1221,13,0,1200,15,0,1200,19,0,1221,21,0,1200,24,0,1200,25,0,1200,26,0,1200,27,0,1200,30,0,1200,31,0,1220,33,0,1221,34,0,1200,36,0,1200*77
$PAIRSAT,4,43,1,0,200,2,0,200,3,0,201,4,0,200,5,0,200,7,0,201,8,0,201,9,0,200,10,0,201,11,0,200,12,0,201,13,0,201,14,0,200,19,0,600,20,0,600,21,0,621,22,0,621,23,0,600,24,0,600,25,0,600,26,0,600,27,0,600,28,0,600,29,0,600,30,0,600,32,0,600,33,0,600,34,0,621,35,0,621,36,0,600,37,0,600,38,0,621,39,0,621,40,0,621,41,0,600,42,0,621,43,0,600,44,0,621,45,0,600,46,0,600,59,0,400,60,0,400,61,0,400*56
$PAIRDGP,10,5,6,7,11,13,15,19,20,29,30*44
$GNGGA,100419.000,2500.8082576,N,12132.4769522,E,2,55,0.51,17.516,M,15.25,M,7,3335*45
$GNRMC,100419.000,A,2500.8082576,N,12132.4769522,E,1.91,320.99,120523,,,D,V*06
$GNACCURACY,3.5*10
$GNGGA,100419.100,2500.8083056,N,12132.4769282,E,2,55,0.51,17.519,M,15.25,M,5,3335*42
$GNRMC,100419.100,A,2500.8083056,N,12132.4769282,E,1.90,320.97,120523,,,D,V*03
$GNACCURACY,3.5*10
$GNGGA,100419.200,2500.8083536,N,12132.4768922,E,2,55,0.51,17.521,M,15.25,M,5,3335*49
$GNRMC,100419.200,A,2500.8083536,N,12132.4768922,E,1.91,320.11,120523,,,D,V*0C
$GNACCURACY,3.5*10
$GNGGA,100419.300,2500.8084076,N,12132.4768802,E,2,55,0.51,17.526,M,15.25,M,3,3335*4C
$GNRMC,100419.300,A,2500.8084076,N,12132.4768802,E,1.90,321.37,120523,,,D,V*0C
$GNACCURACY,3.5*10
$GNGGA,100419.400,2500.8084556,N,12132.4768502,E,2,55,0.51,17.525,M,15.25,M,3,3335*42
$GNRMC,100419.400,A,2500.8084556,N,12132.4768502,E,1.91,321.16,120523,,,D,V*03
$GNACCURACY,3.5*10
$GNGGA,100419.500,2500.8085096,N,12132.4768202,E,2,55,0.51,17.520,M,15.25,M,1,3335*4B
$GNRMC,100419.500,A,2500.8085096,N,12132.4768202,E,1.89,320.96,120523,,,D,V*0D
$GNACCURACY,3.5*10
$GNGGA,100419.600,2500.8085576,N,12132.4767962,E,2,55,0.51,17.514,M,15.25,M,1,3335*46
$GNRMC,100419.600,A,2500.8085576,N,12132.4767962,E,1.88,320.79,120523,,,D,V*07
$GNACCURACY,3.5*10
$GNGGA,100419.700,2500.8086116,N,12132.4767722,E,2,53,0.52,17.507,M,15.25,M,0,3335*4A
$GNRMC,100419.700,A,2500.8086116,N,12132.4767722,E,1.87,320.99,120523,,,D,V*0C
$GNACCURACY,3.8*1D
$GNGGA,100419.800,2500.8086596,N,12132.4767302,E,2,52,0.52,17.502,M,15.25,M,0,3335*4B
$GNRMC,100419.800,A,2500.8086596,N,12132.4767302,E,1.86,319.15,120523,,,D,V*06
$GNACCURACY,3.8*1D
$GNGGA,100419.900,2500.8087016,N,12132.4766882,E,2,53,0.51,17.500,M,15.25,M,0,3335*44
$GNRMC,100419.900,A,2500.8087016,N,12132.4766882,E,1.86,317.80,120523,,,D,V*0B
$GNGSA,A,3,196,195,199,11,13,20,05,06,15,29,30,194,0.86,0.52,0.68,1*07
$GNGSA,A,3,86,71,85,72,,,,,,,,,0.86,0.52,0.68,2*05
$GNGSA,A,3,19,33,12,04,10,,,,,,,,0.86,0.52,0.68,3*0A
$GNGSA,A,3,44,12,21,38,08,22,13,10,07,34,40,39,0.86,0.52,0.68,4*0D
$GNGSA,A,3,35,42,,,,,,,,,,,0.86,0.52,0.68,4*03
$GPGSV,5,1,17,196,74,060,40,195,71,118,41,199,60,167,26,11,60,047,43,1*5E
$GPGSV,5,2,17,50,60,167,30,13,54,184,28,20,53,358,45,05,51,314,35,1*6B
$GPGSV,5,3,17,06,31,101,26,15,28,217,26,29,25,317,37,30,18,096,25,1*65
$GPGSV,5,4,17,194,15,170,29,19,14,157,22,12,11,235,15,07,09,064,15,1*53
$GPGSV,5,5,17,25,05,267,14,1*56
$GPGSV,2,1,07,196,74,060,43,195,71,118,40,11,60,047,48,199,60,167,31,8*5E
$GPGSV,2,2,07,06,31,101,41,30,18,096,28,194,15,170,25,8*6D
$GLGSV,2,1,05,86,64,008,44,71,64,352,44,85,53,118,30,72,50,242,33,1*7E
$GLGSV,2,2,05,87,12,332,17,1*45
$GAGSV,2,1,06,19,78,077,36,33,54,083,40,12,50,343,25,04,37,209,24,7*72
$GAGSV,2,2,06,10,29,324,27,31,06,216,16,7*79
$GAGSV,2,1,05,19,78,077,35,33,54,083,40,12,50,343,28,10,29,324,33,1*7B
$GAGSV,2,2,05,31,06,216,12,1*42
$GBGSV,4,1,15,44,85,170,45,12,69,325,38,21,65,281,34,38,53,357,43,1*79
$GBGSV,4,2,15,08,45,337,22,22,45,028,47,13,41,320,38,10,39,227,25,1*74
$GBGSV,4,3,15,07,36,208,23,34,36,320,41,40,34,197,22,39,33,170,31,1*78
$GBGSV,4,4,15,35,32,143,43,42,20,241,19,16,,,26,1*7C
$GBGSV,2,1,08,44,85,170,41,21,65,281,37,38,53,357,42,22,45,028,45,4*79
$GBGSV,2,2,08,34,36,320,28,40,34,197,21,35,32,143,42,42,20,241,20,4*7B
$GNACCURACY,3.8*1D
$PAIRSAT,1,33,1,0,200,2,0,200,3,0,200,4,0,200,5,0,201,6,0,221,7,0,200,8,0,200,9,0,200,11,0,221,12,0,200,13,0,201,14,0,200,15,0,201,16,0,200,17,0,200,18,0,200,19,0,201,20,0,201,21,0,200,23,0,200,24,0,200,25,0,220,26,0,200,27,0,200,28,0,200,29,0,201,30,0,221,31,0,200,194,0,621,195,0,621,196,0,620,199,0,621*6C
$PAIRSAT,2,24,65,0,200,66,0,200,67,0,200,68,0,200,69,0,200,70,0,200,71,0,201,72,0,201,73,0,200,74,0,200,75,0,200,76,0,200,77,0,200,78,0,200,79,0,200,80,0,200,81,0,200,82,0,200,83,0,200,84,0,200,85,0,201,86,0,201,87,0,200,88,0,200*7A
$PAIRSAT,3,22,2,0,200,4,0,1221,5,0,200,7,0,1200,8,0,1200,9,0,1200,10,0,1221,11,0,1200,12,0,1221,13,0,1200,15,0,1200,19,0,1221,21,0,1200,24,0,1200,25,0,1200,26,0,1200,27,0,1200,30,0,1200,31,0,1220,33,0,1221,34,0,1200,36,0,1200*77
$PAIRSAT,4,43,1,0,200,2,0,200,3,0,201,4,0,200,5,0,200,7,0,201,8,0,201,9,0,200,10,0,201,11,0,200,12,0,201,13,0,201,14,0,200,19,0,600,20,0,600,21,0,621,22,0,621,23,0,600,24,0,600,25,0,600,26,0,600,27,0,600,28,0,600,29,0,600,30,0,600,32,0,600,33,0,600,34,0,621,35,0,621,36,0,600,37,0,600,38,0,621,39,0,621,40,0,621,41,0,600,42,0,621,43,0,600,44,0,621,45,0,600,46,0,600,59,0,400,60,0,400,61,0,400*56
$PAIRDGP,10,5,6,7,11,13,15,19,20,29,30*44
$GNGGA,100420.000,2500.8087496,N,12132.4766582,E,2,54,0.52,17.497,M,15.25,M,1,3335*4C
$GNRMC,100420.000,A,2500.8087496,N,12132.4766582,E,1.87,318.71,120523,,,D,V*09
$GNACCURACY,3.8*1D
$GNGGA,100420.100,2500.8087976,N,12132.4766222,E,2,55,0.52,17.492,M,15.25,M,1,3335*47
$GNRMC,100420.100,A,2500.8087976,N,12132.4766222,E,1.87,318.03,120523,,,D,V*03
$GNACCURACY,3.6*13
$GNGGA,100420.200,2500.8088336,N,12132.4765922,E,2,53,0.54,17.493,M,15.25,M,1,3335*4C
$GNRMC,100420.200,A,2500.8088336,N,12132.4765922,E,1.86,317.37,120523,,,D,V*00
$GNACCURACY,3.6*13
$GNGGA,100420.300,2500.8088816,N,12132.4765622,E,2,54,0.52,17.494,M,15.25,M,1,3335*4D
$GNRMC,100420.300,A,2500.8088816,N,12132.4765622,E,1.87,316.90,120523,,,D,V*0A
$GNACCURACY,3.7*12
$GNGGA,100420.400,2500.8089236,N,12132.4765382,E,2,53,0.52,17.494,M,15.25,M,1,3335*4B
$GNRMC,100420.400,A,2500.8089236,N,12132.4765382,E,1.88,316.92,120523,,,D,V*06
$GNACCURACY,3.7*12
$GNGGA,100420.500,2500.8089656,N,12132.4765202,E,2,54,0.52,17.493,M,15.25,M,1,3335*41
$GNRMC,100420.500,A,2500.8089656,N,12132.4765202,E,1.84,316.80,120523,,,D,V*03
$GNACCURACY,3.7*12
$GNGGA,100420.600,2500.8090076,N,12132.4765082,E,2,54,0.52,17.496,M,15.25,M,0,3335*40
$GNRMC,100420.600,A,2500.8090076,N,12132.4765082,E,1.84,320.46,120523,,,D,V*09
$GNACCURACY,3.7*12
$GNGGA,100420.700,2500.8090616,N,12132.4764962,E,2,56,0.51,17.494,M,15.25,M,0,3335*44
$GNRMC,100420.700,A,2500.8090616,N,12132.4764962,E,1.98,325.54,120523,,,D,V*05
$GNACCURACY,3.7*12
$GNGGA,100420.800,2500.8091156,N,12132.4764782,E,2,56,0.51,17.492,M,15.25,M,0,3335*4F
$GNRMC,100420.800,A,2500.8091156,N,12132.4764782,E,1.99,325.66,120523,,,D,V*08
$GNACCURACY,3.7*12
$GNGGA,100420.900,2500.8091636,N,12132.4764482,E,2,56,0.51,17.490,M,15.25,M,0,3335*4E
$GNRMC,100420.900,A,2500.8091636,N,12132.4764482,E,1.90,321.57,120523,,,D,V*04
$GNGSA,A,3,196,195,199,11,13,20,05,06,15,29,30,19,0.83,0.51,0.66,1*3B
$GNGSA,A,3,194,,,,,,,,,,,,0.83,0.51,0.66,1*32
$GNGSA,A,3,86,71,85,72,,,,,,,,,0.83,0.51,0.66,2*0D
$GNGSA,A,3,19,33,12,04,10,,,,,,,,0.83,0.51,0.66,3*02
$GNGSA,A,3,44,12,21,38,08,22,13,10,07,34,40,39,0.83,0.51,0.66,4*05
$GNGSA,A,3,35,42,,,,,,,,,,,0.83,0.51,0.66,4*0B
$GPGSV,5,1,17,196,74,060,40,195,71,118,40,199,60,167,23,11,60,047,43,1*5A
$GPGSV,5,2,17,50,60,167,27,13,54,184,28,20,53,358,44,05,51,314,40,1*6E
$GPGSV,5,3,17,06,31,101,34,15,28,217,29,29,25,317,39,30,18,096,28,1*6A
$GPGSV,5,4,17,194,15,170,25,19,14,157,26,12,11,235,15,07,09,064,15,1*5B
$GPGSV,5,5,17,25,05,267,17,1*55
$GPGSV,2,1,07,196,74,060,45,195,71,118,44,11,60,047,46,199,60,167,27,8*55
$GPGSV,2,2,07,06,31,101,39,30,18,096,27,194,15,170,25,8*6D
$GLGSV,2,1,05,86,64,008,42,71,64,352,42,85,53,118,39,72,50,242,27,1*72
$GLGSV,2,2,05,87,12,332,16,1*44
$GAGSV,2,1,06,19,77,076,38,33,54,083,42,12,50,343,26,04,37,209,23,7*74
$GAGSV,2,2,06,10,29,324,24,31,06,216,,7*7D
$GAGSV,1,1,04,19,77,076,38,33,54,083,43,12,50,343,24,10,29,324,34,1*72
$GBGSV,4,1,15,44,85,170,42,12,69,325,36,21,65,281,39,38,53,357,42,1*7C
$GBGSV,4,2,15,08,45,337,21,22,45,028,47,13,41,320,35,10,39,227,29,1*76
$GBGSV,4,3,15,07,36,208,21,34,36,320,40,40,34,197,22,39,33,170,26,1*7D
$GBGSV,4,4,15,35,32,143,43,42,20,241,21,16,,,25,1*74
$GBGSV,2,1,08,44,85,170,40,21,65,281,39,38,53,357,38,22,45,028,45,4*7B
$GBGSV,2,2,08,34,36,320,41,39,33,170,24,35,32,143,43,42,20,241,24,4*74
$GNACCURACY,3.7*12
$PAIRSAT,1,33,1,0,200,2,0,200,3,0,200,4,0,200,5,0,201,6,0,221,7,0,200,8,0,200,9,0,200,11,0,221,12,0,200,13,0,201,14,0,200,15,0,201,16,0,200,17,0,200,18,0,200,19,0,201,20,0,201,21,0,200,23,0,200,24,0,200,25,0,220,26,0,200,27,0,200,28,0,200,29,0,201,30,0,221,31,0,200,194,0,621,195,0,621,196,0,620,199,0,621*6C
$PAIRSAT,2,24,65,0,200,66,0,200,67,0,200,68,0,200,69,0,200,70,0,200,71,0,201,72,0,201,73,0,200,74,0,200,75,0,200,76,0,200,77,0,200,78,0,200,79,0,200,80,0,200,81,0,200,82,0,200,83,0,200,84,0,200,85,0,201,86,0,201,87,0,200,88,0,200*7A
$PAIRSAT,3,22,2,0,200,4,0,1221,5,0,200,7,0,1200,8,0,1200,9,0,1200,10,0,1221,11,0,1200,12,0,1221,13,0,1200,15,0,1200,19,0,1221,21,0,1200,24,0,1200,25,0,1200,26,0,1200,27,0,1200,30,0,1200,31,0,1220,33,0,1221,34,0,1200,36,0,1200*77
$PAIRSAT,4,43,1,0,200,2,0,200,3,0,201,4,0,200,5,0,200,7,0,201,8,0,201,9,0,200,10,0,201,11,0,200,12,0,201,13,0,201,14,0,200,19,0,600,20,0,600,21,0,621,22,0,621,23,0,600,24,0,600,25,0,600,26,0,600,27,0,600,28,0,600,29,0,600,30,0,600,32,0,600,33,0,600,34,0,621,35,0,621,36,0,600,37,0,600,38,0,621,39,0,621,40,0,621,41,0,600,42,0,621,43,0,600,44,0,621,45,0,600,46,0,600,59,0,400,60,0,400,61,0,400*56
$PAIRDGP,10,5,6,7,11,13,15,19,20,29,30*44
$GNGGA,100421.000,2500.8092116,N,12132.4764242,E,2,54,0.51,17.495,M,15.25,M,1,3335*4C
$GNRMC,100421.000,A,2500.8092116,N,12132.4764242,E,1.88,315.79,120523,,,D,V*02
$GNACCURACY,3.7*12
$GNGGA,100421.100,2500.8092596,N,12132.4763942,E,2,54,0.51,17.499,M,15.25,M,1,3335*41
$GNRMC,100421.100,A,2500.8092596,N,12132.4763942,E,1.89,314.54,120523,,,D,V*0C
$GNACCURACY,3.8*1D
$GNGGA,100421.200,2500.8093016,N,12132.4763702,E,2,54,0.51,17.502,M,15.25,M,1,3335*47
$GNRMC,100421.200,A,2500.8093016,N,12132.4763702,E,1.79,317.34,120523,,,D,V*03
$GNACCURACY,3.8*1D
$GNGGA,100421.300,2500.8093496,N,12132.4763462,E,2,54,0.51,17.504,M,15.25,M,1,3335*49
$GNRMC,100421.300,A,2500.8093496,N,12132.4763462,E,1.77,318.38,120523,,,D,V*06
$GNACCURACY,3.8*1D
$GNGGA,100421.400,2500.8093916,N,12132.4763102,E,2,54,0.51,17.510,M,15.25,M,1,3335*4D
$GNRMC,100421.400,A,2500.8093916,N,12132.4763102,E,1.76,318.63,120523,,,D,V*08
$GNACCURACY,3.8*1D
$GNGGA,100421.500,2500.8094396,N,12132.4762802,E,2,55,0.51,17.516,M,15.25,M,1,3335*46
$GNRMC,100421.500,A,2500.8094396,N,12132.4762802,E,1.90,320.16,120523,,,D,V*05
$GNACCURACY,3.8*1D
$GNGGA,100421.600,2500.8094876,N,12132.4762562,E,2,54,0.51,17.519,M,15.25,M,1,3335*45
$GNRMC,100421.600,A,2500.8094876,N,12132.4762562,E,1.85,319.26,120523,,,D,V*05
$GNACCURACY,3.8*1D
$GNGGA,100421.700,2500.8095416,N,12132.4762202,E,2,55,0.51,17.521,M,15.25,M,0,3335*45
$GNRMC,100421.700,A,2500.8095416,N,12132.4762202,E,2.00,316.34,120523,,,D,V*0C
$GNACCURACY,3.8*1D
$GNGGA,100421.800,2500.8095896,N,12132.4762022,E,2,56,0.51,17.526,M,15.25,M,0,3335*4A
$GNRMC,100421.800,A,2500.8095896,N,12132.4762022,E,1.97,316.60,120523,,,D,V*0B
$GNACCURACY,3.8*1D
$GNGGA,100421.900,2500.8096436,N,12132.4761722,E,2,56,0.51,17.530,M,15.25,M,0,3335*4D
$GNRMC,100421.900,A,2500.8096436,N,12132.4761722,E,2.03,316.55,120523,,,D,V*03
$GNGSA,A,3,196,195,199,11,13,20,05,06,15,29,30,194,0.83,0.51,0.66,1*0F
$GNGSA,A,3,19,,,,,,,,,,,,0.83,0.51,0.66,1*06
$GNGSA,A,3,86,71,85,72,,,,,,,,,0.83,0.51,0.66,2*0D
$GNGSA,A,3,19,33,12,04,10,,,,,,,,0.83,0.51,0.66,3*02
$GNGSA,A,3,44,12,21,38,08,22,13,10,07,34,40,39,0.83,0.51,0.66,4*05
$GNGSA,A,3,35,42,,,,,,,,,,,0.83,0.51,0.66,4*0B
$GPGSV,5,1,17,196,74,060,43,195,71,118,38,199,60,167,25,11,60,047,44,1*57
$GPGSV,5,2,17,50,60,167,28,13,54,184,25,20,53,358,42,05,51,314,43,1*69
$GPGSV,5,3,17,06,31,101,34,15,28,217,26,29,25,317,35,30,18,096,26,1*67
$GPGSV,5,4,17,194,15,170,25,19,14,157,26,12,11,235,14,07,09,064,16,1*59
$GPGSV,5,5,17,25,05,267,16,1*54
$GPGSV,2,1,08,196,74,060,44,195,71,118,43,11,60,047,46,199,60,167,32,8*58
$GPGSV,2,2,08,06,31,101,31,30,18,096,26,194,15,170,27,25,05,267,17,8*5E
$GLGSV,2,1,05,86,64,008,42,71,64,352,40,85,53,118,40,72,50,242,28,1*71
$GLGSV,2,2,05,87,12,332,17,1*45
$GAGSV,2,1,06,19,77,076,35,33,53,083,40,12,50,343,21,04,37,209,25,7*7D
$GAGSV,2,2,06,10,29,324,26,31,06,216,15,7*7B
$GAGSV,1,1,04,19,77,076,36,33,53,083,44,12,50,343,29,10,29,324,29,1*7D
$GBGSV,4,1,15,44,85,170,38,12,69,325,37,21,65,281,31,38,53,357,42,1*78
$GBGSV,4,2,15,08,45,337,24,22,45,028,48,13,41,320,34,10,39,227,27,1*73
$GBGSV,4,3,15,07,36,208,21,34,36,320,39,40,34,197,23,39,33,170,23,1*77
$GBGSV,4,4,15,35,32,143,38,42,20,241,19,16,,,25,1*73
$GBGSV,3,1,09,44,85,170,35,21,65,281,40,38,53,357,40,22,45,028,46,4*7B
$GBGSV,3,2,09,34,36,320,39,40,34,197,20,39,33,170,20,35,32,143,38,4*78
$GBGSV,3,3,09,42,20,241,21,4*4A
$GNACCURACY,3.8*1D
$PAIRSAT,1,33,1,0,200,2,0,200,3,0,200,4,0,200,5,0,201,6,0,221,7,0,200,8,0,200,9,0,200,11,0,221,12,0,200,13,0,201,14,0,200,15,0,201,16,0,200,17,0,200,18,0,200,19,0,201,20,0,201,21,0,200,23,0,200,24,0,200,25,0,220,26,0,200,27,0,200,28,0,200,29,0,201,30,0,221,31,0,200,194,0,621,195,0,621,196,0,620,199,0,621*6C
$PAIRSAT,2,24,65,0,200,66,0,200,67,0,200,68,0,200,69,0,200,70,0,200,71,0,201,72,0,201,73,0,200,74,0,200,75,0,200,76,0,200,77,0,200,78,0,200,79,0,200,80,0,200,81,0,200,82,0,200,83,0,200,84,0,200,85,0,201,86,0,201,87,0,200,88,0,200*7A
$PAIRSAT,3,22,2,0,200,4,0,1221,5,0,200,7,0,1200,8,0,1200,9,0,1200,10,0,1221,11,0,1200,12,0,1221,13,0,1200,15,0,1200,19,0,1221,21,0,1200,24,0,1200,25,0,1200,26,0,1200,27,0,1200,30,0,1200,31,0,1220,33,0,1221,34,0,1200,36,0,1200*77
$PAIRSAT,4,43,1,0,200,2,0,200,3,0,201,4,0,200,5,0,200,7,0,201,8,0,201,9,0,200,10,0,201,11,0,200,12,0,201,13,0,201,14,0,200,19,0,600,20,0,600,21,0,621,22,0,621,23,0,600,24,0,600,25,0,600,26,0,600,27,0,600,28,0,600,29,0,600,30,0,600,32,0,600,33,0,600,34,0,621,35,0,621,36,0,600,37,0,600,38,0,621,39,0,621,40,0,621,41,0,600,42,0,621,43,0,600,44,0,621,45,0,600,46,0,600,59,0,400,60,0,400,61,0,400*56
$PAIRDGP,10,5,6,7,11,13,15,19,20,29,30*44
$GNGGA,100422.000,2500.8096856,N,12132.4761422,E,2,56,0.51,17.534,M,15.25,M,1,3335*4B
$GNRMC,100422.000,A,2500.8096856,N,12132.4761422,E,2.02,318.59,120523,,,D,V*03
$GNACCURACY,3.8*1D
$GNGGA,100422.100,2500.8097396,N,12132.4761242,E,2,55,0.51,17.536,M,15.25,M,1,3335*4D
$GNRMC,100422.100,A,2500.8097396,N,12132.4761242,E,2.01,322.34,120523,,,D,V*05
$GNACCURACY,3.8*1D
$GNGGA,100422.200,2500.8097816,N,12132.4761002,E,2,56,0.51,17.538,M,15.25,M,1,3335*46
$GNRMC,100422.200,A,2500.8097816,N,12132.4761002,E,1.94,320.65,120523,,,D,V*0A
$GNACCURACY,3.8*1D
$GNGGA,100422.300,2500.8098296,N,12132.4760762,E,2,56,0.51,17.534,M,15.25,M,1,3335*46
$GNRMC,100422.300,A,2500.8098296,N,12132.4760762,E,1.86,316.78,120523,,,D,V*0C
$GNACCURACY,3.8*1D
$GNGGA,100422.400,2500.8098836,N,12132.4760462,E,2,56,0.51,17.530,M,15.25,M,1,3335*46
$GNRMC,100422.400,A,2500.8098836,N,12132.4760462,E,1.94,313.94,120523,,,D,V*0C
$GNACCURACY,3.8*1D
$GNGGA,100422.500,2500.8099316,N,12132.4760162,E,2,56,0.51,17.523,M,15.25,M,0,3335*49
$GNRMC,100422.500,A,2500.8099316,N,12132.4760162,E,1.94,312.40,120523,,,D,V*08
$GNACCURACY,3.8*1D
$GNGGA,100422.600,2500.8099796,N,12132.4759742,E,2,56,0.51,17.522,M,15.25,M,0,3335*49
$GNRMC,100422.600,A,2500.8099796,N,12132.4759742,E,2.09,311.68,120523,,,D,V*07
$GNACCURACY,3.8*1D
$GNGGA,100422.700,2500.8100336,N,12132.4759322,E,2,55,0.51,17.518,M,15.25,M,0,3335*4F
$GNRMC,100422.700,A,2500.8100336,N,12132.4759322,E,2.06,314.39,120523,,,D,V*05
$GNACCURACY,3.8*1D
$GNGGA,100422.800,2500.8100756,N,12132.4759022,E,2,55,0.51,17.519,M,15.25,M,0,3335*40
$GNRMC,100422.800,A,2500.8100756,N,12132.4759022,E,1.90,315.54,120523,,,D,V*0D
$GNACCURACY,3.8*1D
