$FW : RTK35X,V1.1X0314AS,Lib20210517,1*54
$Tool : LOCOSYS , GNSS Firebird , v1.0.0.19*39
$---------------------------------------------------*2D
$GPHDT,,T*1B
$GNGGA,035306.400,2500.7994356,N,12132.4845909,E,4,58,0.50,17.191,M,15.25,M,1,3335*49
$GNRMC,035306.400,A,2500.7994356,N,12132.4845909,E,0.01,35.66,150623,,,R,V*20
$GPHDT,,T*1B
$GNGGA,035306.600,2500.7994256,N,12132.4845805,E,4,58,0.50,17.175,M,15.25,M,0,3335*4C
$GNRMC,035306.600,A,2500.7994256,N,12132.4845805,E,0.01,35.66,150623,,,R,V*2E
$GPHDT,,T*1B
$GNGGA,035306.800,2500.7994226,N,12132.4845718,E,4,58,0.50,17.192,M,15.25,M,0,3335*4F
$GNRMC,035306.800,A,2500.7994226,N,12132.4845718,E,0.01,35.66,150623,,,R,V*24
$GPHDT,,T*1B
$GNGSA,A,3,195,17,199,196,19,06,194,14,03,09,,,0.99,0.50,0.86,1*03
$GNGSA,A,3,71,76,86,72,70,85,75,,,,,,0.99,0.50,0.86,2*0D
$GNGSA,A,3,13,27,21,15,08,,,,,,,,0.99,0.50,0.86,3*00
$GNGSA,A,3,07,40,38,10,08,22,44,13,12,35,21,24,0.99,0.50,0.86,4*0C
$GNGSA,A,3,19,26,,,,,,,,,,,0.99,0.50,0.86,4*03
$GPGSV,4,1,13,195,66,039,45,17,62,032,40,199,60,167,34,196,57,132,40,1*5A
$GPGSV,4,2,13,19,52,349,42,06,49,309,45,194,49,168,32,14,45,180,28,1*5F
$GPGSV,4,3,13,03,26,040,38,09,23,126,21,11,19,267,15,04,18,093,13,1*6D
$GPGSV,4,4,13,20,12,220,18,1*5E
$GPGSV,3,1,09,195,66,039,44,199,60,167,42,196,57,132,43,06,49,309,42,8*5C
$GPGSV,3,2,09,194,49,168,39,14,45,180,35,03,26,040,45,09,23,126,23,8*54
$GPGSV,3,3,09,04,18,093,26,8*57
$GLGSV,2,1,07,71,46,101,40,76,40,253,37,86,39,007,35,72,27,161,35,1*7C
$GLGSV,2,2,07,70,23,043,25,85,20,058,24,75,15,194,31,1*45
$GAGSV,2,1,06,13,53,335,36,27,51,195,38,21,50,290,37,15,29,043,36,7*71
$GAGSV,2,2,06,08,26,120,16,07,11,171,14,7*78
$GAGSV,2,1,05,13,53,335,35,27,51,195,40,21,50,290,39,15,29,043,40,1*77
$GAGSV,2,2,05,08,26,120,19,1*47
$GBGSV,4,1,14,07,84,307,39,40,80,063,44,38,72,270,44,10,69,312,39,1*75
$GBGSV,4,2,14,08,60,249,41,22,55,101,41,44,52,355,41,13,48,240,43,1*7A
$GBGSV,4,3,14,12,40,325,42,35,37,068,35,21,34,177,34,24,30,252,34,1*7E
$GBGSV,4,4,14,19,20,046,31,26,19,201,21,1*75
$GBGSV,3,1,09,40,80,063,45,38,72,270,44,22,55,101,43,44,52,355,42,4*7E
$GBGSV,3,2,09,35,37,068,35,21,34,177,33,24,30,252,25,19,20,046,36,4*7E
$GBGSV,3,3,09,26,19,201,33,4*45
$GNGGA,035307.000,2500.7994413,N,12132.4845548,E,4,58,0.50,17.185,M,15.25,M,1,3335*46
$GNRMC,035307.000,A,2500.7994413,N,12132.4845548,E,0.02,35.66,150623,,,R,V*29
$GPHDT,,T*1B
$GNGGA,035307.200,2500.7994826,N,12132.4845389,E,4,58,0.50,17.246,M,15.25,M,1,3335*49
$GNRMC,035307.200,A,2500.7994826,N,12132.4845389,E,0.02,35.66,150623,,,R,V*2A
$GPHDT,,T*1B
$GNGGA,035307.400,2500.7995037,N,12132.4845308,E,4,58,0.50,17.181,M,15.25,M,1,3335*47
$GNRMC,035307.400,A,2500.7995037,N,12132.4845308,E,0.03,35.66,150623,,,R,V*2D
$GPHDT,,T*1B
$GNGGA,035307.600,2500.7995554,N,12132.4845035,E,4,58,0.50,17.201,M,15.25,M,0,3335*42
$GNRMC,035307.600,A,2500.7995554,N,12132.4845035,E,0.02,35.66,150623,,,R,V*23
$GPHDT,,T*1B
$GNGGA,035307.800,2500.7995935,N,12132.4844632,E,4,58,0.49,17.204,M,15.25,M,0,3335*4A
$GNRMC,035307.800,A,2500.7995935,N,12132.4844632,E,0.08,35.66,150623,,,R,V*2C
$GPHDT,,T*1B
$GNGSA,A,3,195,17,199,196,19,06,194,14,03,09,,,0.99,0.50,0.86,1*03
$GNGSA,A,3,71,76,86,72,70,85,75,,,,,,0.99,0.50,0.86,2*0D
$GNGSA,A,3,13,27,21,15,08,,,,,,,,0.99,0.50,0.86,3*00
$GNGSA,A,3,07,40,38,10,08,22,44,13,12,35,21,24,0.99,0.50,0.86,4*0C
$GNGSA,A,3,19,26,,,,,,,,,,,0.99,0.50,0.86,4*03
$GPGSV,4,1,13,195,66,039,44,17,62,032,41,199,60,167,32,196,57,132,39,1*52
$GPGSV,4,2,13,19,52,349,40,06,49,309,43,194,49,168,31,14,45,180,29,1*59
$GPGSV,4,3,13,03,25,040,39,09,23,126,27,11,19,267,17,04,18,093,25,1*6E
$GPGSV,4,4,13,20,12,220,17,1*51
$GPGSV,3,1,09,195,66,039,44,199,60,167,42,196,57,132,42,06,49,309,44,8*5B
$GPGSV,3,2,09,194,49,168,29,14,45,180,35,03,25,040,45,09,23,126,23,8*56
$GPGSV,3,3,09,04,18,093,24,8*55
$GLGSV,2,1,07,71,46,101,38,76,40,253,31,86,39,007,30,72,27,161,31,1*74
$GLGSV,2,2,07,70,23,043,25,85,20,058,25,75,15,194,26,1*42
$GAGSV,2,1,06,13,53,335,35,27,51,195,38,21,50,290,37,15,29,043,36,7*72
$GAGSV,2,2,06,08,26,120,,07,11,171,18,7*73
$GAGSV,2,1,05,13,53,335,38,27,51,195,39,21,50,290,40,15,29,043,42,1*78
$GAGSV,2,2,05,08,26,120,22,1*4F
$GBGSV,4,1,14,07,84,307,40,40,80,063,39,38,72,270,44,10,69,312,38,1*70
$GBGSV,4,2,14,08,60,249,42,22,55,101,43,44,52,355,41,13,48,240,43,1*7B
$GBGSV,4,3,14,12,40,325,38,35,37,068,35,21,34,177,27,24,30,252,32,1*77
$GBGSV,4,4,14,19,20,046,25,26,19,201,35,1*75
$GBGSV,3,1,09,40,80,063,45,38,72,270,44,22,55,101,42,44,52,355,40,4*7D
$GBGSV,3,2,09,35,37,068,34,21,34,177,30,24,30,252,26,19,20,046,36,4*7F
$GBGSV,3,3,09,26,19,201,36,4*40
$GNGGA,035308.000,2500.7996206,N,12132.4844118,E,4,57,0.50,17.175,M,15.25,M,1,3335*49
$GNRMC,035308.000,A,2500.7996206,N,12132.4844118,E,0.06,35.66,150623,,,R,V*22
$GPHDT,,T*1B
$GNGGA,035308.200,2500.7996591,N,12132.4843802,E,4,56,0.50,17.213,M,15.25,M,1,3335*45
$GNRMC,035308.200,A,2500.7996591,N,12132.4843802,E,0.06,35.66,150623,,,R,V*2C
$GPHDT,,T*1B
$GNGGA,035308.400,2500.7997148,N,12132.4843482,E,4,56,0.50,17.194,M,15.25,M,1,3335*4A
$GNRMC,035308.400,A,2500.7997148,N,12132.4843482,E,0.07,35.66,150623,,,R,V*2E
$GPHDT,,T*1B
$GNGGA,035308.600,2500.7997959,N,12132.4843243,E,4,56,0.50,17.170,M,15.25,M,0,3335*40
$GNRMC,035308.600,A,2500.7997959,N,12132.4843243,E,0.09,35.66,150623,,,R,V*21
$GPHDT,,T*1B
$GNGGA,035308.800,2500.7998710,N,12132.4842929,E,4,56,0.50,17.169,M,15.25,M,0,3335*4C
$GNRMC,035308.800,A,2500.7998710,N,12132.4842929,E,0.12,35.66,150623,,,R,V*2F
$GPHDT,,T*1B
$GNGSA,A,3,195,17,199,196,19,06,194,14,03,09,,,0.99,0.50,0.86,1*03
$GNGSA,A,3,71,76,86,72,70,85,75,,,,,,0.99,0.50,0.86,2*0D
$GNGSA,A,3,13,27,21,15,08,,,,,,,,0.99,0.50,0.86,3*00
$GNGSA,A,3,07,40,38,10,08,22,44,13,12,35,21,24,0.99,0.50,0.86,4*0C
$GNGSA,A,3,19,26,,,,,,,,,,,0.99,0.50,0.86,4*03
$GPGSV,4,1,13,195,66,039,41,17,62,032,40,199,60,167,34,196,57,132,41,1*5F
$GPGSV,4,2,13,19,52,349,39,06,49,310,44,194,49,168,34,14,45,180,31,1*54
$GPGSV,4,3,13,03,25,040,35,09,23,126,24,11,19,267,17,04,18,093,21,1*65
$GPGSV,4,4,13,20,12,220,18,1*5E
$GPGSV,3,1,09,195,66,039,44,199,60,167,43,196,57,132,44,06,49,310,47,8*57
$GPGSV,3,2,09,194,49,168,39,14,45,180,32,03,25,040,43,09,23,126,24,8*51
$GPGSV,3,3,09,04,18,093,29,8*58
$GLGSV,2,1,07,71,46,101,40,76,40,253,31,86,39,007,29,72,27,161,27,1*74
$GLGSV,2,2,07,70,23,043,20,85,20,058,26,75,15,194,23,1*41
$GAGSV,2,1,06,13,53,335,34,27,51,195,38,21,50,290,36,15,29,043,30,7*74
$GAGSV,2,2,06,08,26,120,,07,11,171,18,7*73
$GAGSV,2,1,05,13,53,335,41,27,51,195,38,21,50,290,39,15,29,043,39,1*75
$GAGSV,2,2,05,08,26,120,23,1*4E
$GBGSV,4,1,14,07,84,307,40,40,80,063,41,38,72,270,44,10,69,312,39,1*7E
$GBGSV,4,2,14,08,60,249,39,22,55,101,44,44,52,355,42,13,48,240,41,1*71
$GBGSV,4,3,14,12,40,325,38,35,37,068,38,21,34,177,34,24,30,252,31,1*7B
$GBGSV,4,4,14,19,20,046,25,26,19,201,39,1*79
$GBGSV,3,1,09,40,80,063,43,38,72,270,45,22,55,101,42,44,52,355,39,4*74
$GBGSV,3,2,09,35,37,068,34,21,34,177,23,24,30,252,32,19,20,046,32,4*7C
$GBGSV,3,3,09,26,19,201,40,4*41
$GNGGA,035309.000,2500.7999319,N,12132.4842590,E,4,56,0.50,17.181,M,15.25,M,1,3335*40
$GNRMC,035309.000,A,2500.7999319,N,12132.4842590,E,0.10,35.66,150623,,,R,V*26
$GPHDT,,T*1B
$GNGGA,035309.200,2500.7999932,N,12132.4842192,E,4,57,0.49,17.172,M,15.25,M,1,3335*42
$GNRMC,035309.200,A,2500.7999932,N,12132.4842192,E,0.26,35.66,150623,,,R,V*24
$GPHDT,,T*1B
$GNGGA,035309.400,2500.8000526,N,12132.4841628,E,4,57,0.49,17.146,M,15.25,M,1,3335*49
$GNRMC,035309.400,A,2500.8000526,N,12132.4841628,E,0.47,35.66,150623,,,R,V*2F
$GPHDT,,T*1B
$GNGGA,035309.600,2500.8001024,N,12132.4841101,E,4,57,0.49,17.129,M,15.25,M,0,3335*49
$GNRMC,035309.600,A,2500.8001024,N,12132.4841101,E,0.65,318.51,150623,,,R,V*1F
$GPHDT,,T*1B
$GNGGA,035309.800,2500.8001819,N,12132.4840572,E,4,57,0.49,17.112,M,15.25,M,0,3335*48
$GNRMC,035309.800,A,2500.8001819,N,12132.4840572,E,0.84,322.79,150623,,,R,V*1A
$GPHDT,,T*1B
$GNGSA,A,3,195,17,199,196,19,06,194,14,03,09,,,0.81,0.49,0.65,1*0F
$GNGSA,A,3,71,76,86,72,70,85,75,,,,,,0.81,0.49,0.65,2*01
$GNGSA,A,3,13,27,21,15,08,,,,,,,,0.81,0.49,0.65,3*0C
$GNGSA,A,3,07,40,38,10,08,22,44,13,12,35,21,24,0.81,0.49,0.65,4*00
$GNGSA,A,3,19,26,,,,,,,,,,,0.81,0.49,0.65,4*0F
$GPGSV,4,1,13,195,66,039,39,17,62,032,41,199,60,167,34,196,57,132,41,1*51
$GPGSV,4,2,13,19,52,349,42,06,49,310,46,194,49,168,39,14,45,180,25,1*52
$GPGSV,4,3,13,03,25,040,33,09,23,126,24,11,19,267,19,04,18,093,20,1*6C
$GPGSV,4,4,13,20,12,220,18,1*5E
$GPGSV,2,1,08,195,66,039,42,199,60,167,42,196,57,132,43,06,49,310,45,8*55
$GPGSV,2,2,08,194,49,168,41,14,45,180,33,03,25,040,38,04,18,093,21,8*5C
$GLGSV,2,1,07,71,46,101,42,76,40,253,32,86,39,007,32,72,27,161,28,1*70
$GLGSV,2,2,07,70,23,043,20,85,20,058,26,75,15,194,26,1*44
$GAGSV,2,1,06,13,53,335,35,27,51,195,40,21,50,290,33,15,29,043,31,7*7E
$GAGSV,2,2,06,08,26,120,19,07,11,171,18,7*7B
$GAGSV,2,1,05,13,53,335,33,27,51,195,39,21,50,290,35,15,29,043,34,1*70
$GAGSV,2,2,05,08,26,120,21,1*4C
$GBGSV,4,1,14,07,84,307,40,40,80,063,41,38,72,270,43,10,69,312,35,1*75
$GBGSV,4,2,14,08,60,249,41,22,55,101,45,44,52,355,40,13,48,240,43,1*7F
$GBGSV,4,3,14,12,40,325,40,35,37,068,31,21,34,177,30,24,30,252,27,1*7E
$GBGSV,4,4,14,19,20,046,26,26,19,201,43,1*77
$GBGSV,3,1,09,40,80,063,44,38,72,270,45,22,55,101,42,44,52,355,39,4*73
$GBGSV,3,2,09,35,37,068,29,21,34,177,30,24,30,252,28,19,20,046,25,4*7F
$GBGSV,3,3,09,26,19,201,40,4*41
$GNGGA,035310.000,2500.8002696,N,12132.4840009,E,4,56,0.49,17.088,M,15.25,M,1,3335*49
$GNRMC,035310.000,A,2500.8002696,N,12132.4840009,E,1.05,324.19,150623,,,R,V*11
$GPHDT,,T*1B
$GNGGA,035310.200,2500.8003550,N,12132.4839548,E,4,57,0.49,17.079,M,15.25,M,1,3335*42
$GNRMC,035310.200,A,2500.8003550,N,12132.4839548,E,1.20,326.13,150623,,,R,V*1A
$GPHDT,,T*1B
$GNGGA,035310.400,2500.8004281,N,12132.4839003,E,4,57,0.49,17.077,M,15.25,M,1,3335*4C
$GNRMC,035310.400,A,2500.8004281,N,12132.4839003,E,1.28,325.68,150623,,,R,V*1D
$GPHDT,,T*1B
$GNGGA,035310.600,2500.8005022,N,12132.4838338,E,4,57,0.49,17.064,M,15.25,M,1,3335*4C
$GNRMC,035310.600,A,2500.8005022,N,12132.4838338,E,1.35,324.89,150623,,,R,V*1D
$GPHDT,,T*1B
$GNGGA,035310.800,2500.8005842,N,12132.4837665,E,4,57,0.49,17.063,M,15.25,M,0,3335*48
$GNRMC,035310.800,A,2500.8005842,N,12132.4837665,E,1.48,323.84,150623,,,R,V*1F
$GPHDT,,T*1B
$GNGSA,A,3,195,17,199,196,19,06,194,14,03,09,,,0.81,0.49,0.65,1*0F
$GNGSA,A,3,71,76,86,72,70,85,75,,,,,,0.81,0.49,0.65,2*01
$GNGSA,A,3,13,27,21,15,08,,,,,,,,0.81,0.49,0.65,3*0C
$GNGSA,A,3,07,40,38,10,08,22,44,13,12,35,21,19,0.81,0.49,0.65,4*0E
$GNGSA,A,3,26,24,,,,,,,,,,,0.81,0.49,0.65,4*01
$GPGSV,4,1,13,195,66,039,36,17,62,032,41,199,60,167,35,196,57,132,41,1*5F
$GPGSV,4,2,13,19,52,349,40,06,49,310,46,194,49,168,39,14,45,180,41,1*52
$GPGSV,4,3,13,03,25,040,33,09,23,126,22,11,19,267,19,04,18,093,21,1*6B
$GPGSV,4,4,13,20,12,220,19,1*5F
$GPGSV,2,1,08,195,66,039,40,199,60,167,43,196,57,132,43,06,49,310,47,8*54
$GPGSV,2,2,08,194,49,168,41,14,45,180,41,03,25,040,30,04,18,093,22,8*52
$GLGSV,2,1,07,71,46,101,42,76,40,253,23,86,39,007,30,72,27,161,26,1*7C
$GLGSV,2,2,07,70,23,043,19,85,20,058,26,75,15,194,29,1*41
$GAGSV,2,1,06,13,53,335,35,27,51,195,41,21,50,290,33,15,29,043,29,7*76
$GAGSV,2,2,06,08,26,120,19,07,11,171,17,7*74
$GAGSV,2,1,05,13,53,335,40,27,51,195,42,21,50,290,33,15,29,043,31,1*7B
$GAGSV,2,2,05,08,26,120,21,1*4C
$GBGSV,4,1,14,07,84,307,42,40,80,063,43,38,72,270,44,10,69,312,36,1*71
$GBGSV,4,2,14,08,60,249,39,22,55,101,45,44,52,355,40,13,48,240,42,1*71
$GBGSV,4,3,14,12,40,325,41,35,37,068,32,21,34,177,32,24,30,252,23,1*7A
$GBGSV,4,4,14,19,20,046,25,26,19,201,44,1*73
$GBGSV,3,1,09,40,80,063,45,38,72,270,45,22,55,101,43,44,52,355,37,4*7D
$GBGSV,3,2,09,35,37,068,30,21,34,177,28,24,30,252,28,19,20,046,28,4*73
$GBGSV,3,3,09,26,19,201,39,4*4F
$GNGGA,035311.000,2500.8006557,N,12132.4837120,E,4,55,0.49,17.059,M,15.25,M,1,3335*47
$GNRMC,035311.000,A,2500.8006557,N,12132.4837120,E,1.50,324.97,150623,,,R,V*16
$GPHDT,,T*1B
$GNGGA,035311.200,2500.8007381,N,12132.4836544,E,4,56,0.49,17.080,M,15.25,M,1,3335*49
$GNRMC,035311.200,A,2500.8007381,N,12132.4836544,E,1.53,325.26,150623,,,R,V*17
$GPHDT,,T*1B
$GNGGA,035311.400,2500.8008109,N,12132.4836040,E,4,56,0.49,17.123,M,15.25,M,1,3335*4B
$GNRMC,035311.400,A,2500.8008109,N,12132.4836040,E,1.57,325.92,150623,,,R,V*16
$GPHDT,,T*1B
$GNGGA,035311.600,2500.8008902,N,12132.4835415,E,4,56,0.49,17.125,M,15.25,M,1,3335*4B
$GNRMC,035311.600,A,2500.8008902,N,12132.4835415,E,1.62,324.35,150623,,,R,V*1A
$GPHDT,,T*1B
$GNGGA,035311.800,2500.8009662,N,12132.4834679,E,4,56,0.49,17.114,M,15.25,M,0,3335*47
$GNRMC,035311.800,A,2500.8009662,N,12132.4834679,E,1.65,322.35,150623,,,R,V*14
$GPHDT,,T*1B
$GNGSA,A,3,195,17,199,196,19,06,194,14,03,09,,,0.81,0.49,0.65,1*0F
$GNGSA,A,3,71,76,86,72,70,85,75,,,,,,0.81,0.49,0.65,2*01
$GNGSA,A,3,13,27,21,15,08,,,,,,,,0.81,0.49,0.65,3*0C
$GNGSA,A,3,07,40,38,10,08,22,44,13,12,35,21,24,0.81,0.49,0.65,4*00
$GNGSA,A,3,19,26,,,,,,,,,,,0.81,0.49,0.65,4*0F
$GPGSV,4,1,13,195,66,039,37,17,62,032,35,199,60,167,35,196,57,132,40,1*5C
$GPGSV,4,2,13,19,52,349,39,06,49,310,47,194,49,168,38,14,45,180,39,1*53
$GPGSV,4,3,13,03,25,040,32,09,23,126,22,11,19,267,17,04,18,093,,1*67
$GPGSV,4,4,13,20,13,220,16,1*51
$GPGSV,3,1,09,195,66,039,42,199,60,167,43,196,57,132,44,06,49,310,47,8*51
$GPGSV,3,2,09,194,49,168,38,14,45,180,41,03,25,040,32,09,23,126,30,8*57
$GPGSV,3,3,09,04,18,093,21,8*50
$GLGSV,2,1,07,71,46,101,41,76,40,253,32,86,39,007,36,72,27,161,25,1*7A
$GLGSV,2,2,07,70,23,043,18,85,20,058,28,75,15,194,35,1*43
$GAGSV,2,1,06,13,53,335,36,27,51,195,40,21,50,290,27,15,29,043,26,7*7E
$GAGSV,2,2,06,08,26,120,21,07,11,171,17,7*7F
$GAGSV,2,1,05,13,53,335,41,27,51,195,44,21,50,290,27,15,29,043,29,1*70
$GAGSV,2,2,05,08,26,120,22,1*4F
$GBGSV,4,1,14,07,84,307,41,40,80,063,41,38,72,270,44,10,69,312,40,1*71
$GBGSV,4,2,14,08,60,249,36,22,55,101,45,44,52,355,39,13,48,240,31,1*74
$GBGSV,4,3,14,12,40,325,40,35,37,068,37,21,34,177,24,24,30,252,25,1*7F
$GBGSV,4,4,14,19,20,046,32,26,19,201,42,1*73
$GBGSV,3,1,09,40,80,063,41,38,72,270,44,22,55,101,43,44,52,355,39,4*76
$GBGSV,3,2,09,35,37,068,33,21,34,177,31,24,30,252,24,19,20,046,31,4*7C
$GBGSV,3,3,09,26,19,201,37,4*41
$GNGGA,035312.000,2500.8010419,N,12132.4834043,E,4,57,0.49,17.130,M,15.25,M,1,3335*43
$GNRMC,035312.000,A,2500.8010419,N,12132.4834043,E,1.68,322.24,150623,,,R,V*1B
$GPHDT,,T*1B
$GNGGA,035312.200,2500.8011205,N,12132.4833261,E,4,56,0.49,17.110,M,15.25,M,1,3335*4D
$GNRMC,035312.200,A,2500.8011205,N,12132.4833261,E,1.70,321.77,150623,,,R,V*1A
$GPHDT,,T*1B
$GNGGA,035312.400,2500.8012080,N,12132.4832646,E,4,55,0.49,17.303,M,15.25,M,1,3335*44
$GNRMC,035312.400,A,2500.8012080,N,12132.4832646,E,1.72,320.87,150623,,,R,V*1C
$GPHDT,,T*1B
$GNGGA,035312.600,2500.8012673,N,12132.4831816,E,4,55,0.49,17.138,M,15.25,M,1,3335*4E
$GNRMC,035312.600,A,2500.8012673,N,12132.4831816,E,1.74,320.57,150623,,,R,V*17
$GPHDT,,T*1B
$GNGGA,035312.800,2500.8013470,N,12132.4831072,E,4,55,0.49,17.174,M,15.25,M,1,3335*42
$GNRMC,035312.800,A,2500.8013470,N,12132.4831072,E,1.75,319.83,150623,,,R,V*11
$GPHDT,,T*1B
$GNGSA,A,3,195,17,199,196,19,06,194,14,03,09,,,0.81,0.49,0.65,1*0F
$GNGSA,A,3,71,76,86,72,70,85,75,,,,,,0.81,0.49,0.65,2*01
$GNGSA,A,3,13,27,21,15,08,,,,,,,,0.81,0.49,0.65,3*0C
$GNGSA,A,3,07,40,38,10,08,22,44,13,12,35,21,24,0.81,0.49,0.65,4*00
$GNGSA,A,3,19,26,,,,,,,,,,,0.81,0.49,0.65,4*0F
$GPGSV,4,1,13,195,66,039,40,17,62,032,38,199,60,167,36,196,57,132,41,1*53
$GPGSV,4,2,13,19,52,349,37,06,49,310,45,194,49,168,40,14,45,180,39,1*50
$GPGSV,4,3,13,03,25,040,22,09,23,126,24,11,19,267,17,04,18,093,23,1*61
$GPGSV,4,4,13,20,13,220,16,1*51
$GPGSV,3,1,09,195,66,039,39,199,60,167,45,196,57,132,44,06,49,310,45,8*59
$GPGSV,3,2,09,194,49,168,41,14,45,180,42,03,25,040,30,09,23,126,30,8*58
$GPGSV,3,3,09,04,18,093,20,8*51
$GLGSV,2,1,07,71,46,101,40,76,40,253,27,86,39,007,28,72,27,161,27,1*72
$GLGSV,2,2,07,70,23,043,18,85,20,058,26,75,15,194,30,1*48
$GAGSV,2,1,06,13,53,335,37,27,51,195,40,21,50,290,32,15,29,043,29,7*74
$GAGSV,2,2,06,08,26,120,20,07,11,171,17,7*7E
$GAGSV,1,1,04,13,53,335,42,27,51,195,43,21,50,290,34,08,26,120,24,1*7E
$GBGSV,4,1,14,07,84,307,39,40,80,063,34,38,72,270,44,10,69,312,39,1*72
$GBGSV,4,2,14,08,60,249,31,22,55,101,44,44,52,355,39,13,48,240,28,1*7A
$GBGSV,4,3,14,12,40,325,39,35,37,068,28,21,34,177,35,24,30,252,25,1*7F
$GBGSV,4,4,14,19,20,046,30,26,19,201,40,1*73
$GBGSV,2,1,08,40,80,063,39,38,72,270,44,22,55,101,42,44,52,355,40,4*76
$GBGSV,2,2,08,35,37,068,28,21,34,177,31,19,20,046,24,26,19,201,38,4*70
$GNGGA,035313.000,2500.8014285,N,12132.4830230,E,4,55,0.49,17.143,M,15.25,M,1,3335*41
$GNRMC,035313.000,A,2500.8014285,N,12132.4830230,E,1.76,318.68,150623,,,R,V*11
$GPHDT,,T*1B
$GNGGA,035313.200,2500.8015050,N,12132.4829509,E,4,56,0.49,17.148,M,15.25,M,1,3335*45
$GNRMC,035313.200,A,2500.8015050,N,12132.4829509,E,1.74,318.36,150623,,,R,V*14
$GPHDT,,T*1B
$GNGGA,035313.400,2500.8015930,N,12132.4828696,E,4,56,0.49,17.086,M,15.25,M,1,3335*4B
$GNRMC,035313.400,A,2500.8015930,N,12132.4828696,E,1.76,319.74,150623,,,R,V*1C
$GPHDT,,T*1B
$GNGGA,035313.600,2500.8016728,N,12132.4827956,E,4,56,0.49,17.086,M,15.25,M,1,3335*41
$GNRMC,035313.600,A,2500.8016728,N,12132.4827956,E,1.76,320.33,150623,,,R,V*1F
$GPHDT,,T*1B
$GNGGA,035313.800,2500.8017482,N,12132.4827452,E,4,57,0.49,17.093,M,15.25,M,0,3335*40
$GNRMC,035313.800,A,2500.8017482,N,12132.4827452,E,1.75,321.99,150623,,,R,V*18
$GPHDT,,T*1B
$GNGSA,A,3,195,17,199,196,19,06,194,14,03,09,,,0.81,0.49,0.65,1*0F
$GNGSA,A,3,71,76,86,72,70,85,75,,,,,,0.81,0.49,0.65,2*01
$GNGSA,A,3,13,27,21,15,08,,,,,,,,0.81,0.49,0.65,3*0C
$GNGSA,A,3,07,40,38,10,08,22,44,13,12,35,21,24,0.81,0.49,0.65,4*00
$GNGSA,A,3,19,26,,,,,,,,,,,0.81,0.49,0.65,4*0F
$GPGSV,4,1,13,195,66,039,39,17,62,032,37,199,60,167,36,196,57,132,40,1*53
$GPGSV,4,2,13,19,52,349,39,06,49,310,44,194,49,168,41,14,45,180,41,1*51
$GPGSV,4,3,13,03,25,040,26,09,23,126,25,11,19,267,18,04,18,093,19,1*62
$GPGSV,4,4,13,20,13,220,17,1*50
$GPGSV,3,1,09,195,66,039,38,199,60,167,44,196,57,132,44,06,49,310,44,8*58
$GPGSV,3,2,09,194,49,168,42,14,45,180,44,03,25,040,30,09,23,126,29,8*55
$GPGSV,3,3,09,04,18,093,22,8*53
$GLGSV,2,1,07,71,46,101,40,76,40,253,25,86,39,007,38,72,27,161,29,1*7F
$GLGSV,2,2,07,70,23,043,19,85,20,058,26,75,15,194,29,1*41
$GAGSV,2,1,06,13,53,335,38,27,51,195,42,21,50,290,28,15,29,043,28,7*73
$GAGSV,2,2,06,08,26,120,21,07,11,171,19,7*71
$GAGSV,2,1,05,13,53,335,43,27,51,195,43,21,50,290,27,15,29,043,35,1*78
$GAGSV,2,2,05,08,26,120,26,1*4B
$GBGSV,4,1,14,07,84,307,40,40,80,063,39,38,72,270,44,10,69,312,42,1*7D
$GBGSV,4,2,14,08,60,249,26,22,55,101,43,44,52,355,36,13,48,240,25,1*79
$GBGSV,4,3,14,12,40,325,42,35,37,068,37,21,34,177,34,24,30,252,26,1*7F
$GBGSV,4,4,14,19,20,046,31,26,19,201,39,1*7C
$GBGSV,2,1,08,40,80,063,37,38,72,270,44,22,55,101,41,44,52,355,37,4*7B
$GBGSV,2,2,08,35,37,068,25,21,34,177,30,19,20,046,32,26,19,201,40,4*74
$GNGGA,035314.000,2500.8018188,N,12132.4826593,E,4,56,0.49,17.130,M,15.25,M,1,3335*4A
$GNRMC,035314.000,A,2500.8018188,N,12132.4826593,E,1.75,319.72,150623,,,R,V*14
$GPHDT,,T*1B
$GNGGA,035314.200,2500.8018985,N,12132.4825963,E,4,57,0.49,17.124,M,15.25,M,1,3335*49
$GNRMC,035314.200,A,2500.8018985,N,12132.4825963,E,1.76,318.95,150623,,,R,V*18
$GPHDT,,T*1B
$GNGGA,035314.400,2500.8019785,N,12132.4825104,E,4,57,0.49,17.123,M,15.25,M,1,3335*4E
$GNRMC,035314.400,A,2500.8019785,N,12132.4825104,E,1.75,320.72,150623,,,R,V*19
$GPHDT,,T*1B
$GNGGA,035314.600,2500.8020634,N,12132.4824377,E,4,57,0.49,17.086,M,15.25,M,1,3335*44
$GNRMC,035314.600,A,2500.8020634,N,12132.4824377,E,1.78,320.88,150623,,,R,V*15
$GPHDT,,T*1B
$GNGGA,035314.800,2500.8021373,N,12132.4823547,E,4,57,0.49,17.071,M,15.25,M,1,3335*47
$GNRMC,035314.800,A,2500.8021373,N,12132.4823547,E,1.65,325.30,150623,,,R,V*14
$GPHDT,,T*1B
$GNGSA,A,3,195,17,199,196,19,06,194,14,03,09,,,0.81,0.49,0.65,1*0F
$GNGSA,A,3,71,76,86,72,70,85,75,,,,,,0.81,0.49,0.65,2*01
$GNGSA,A,3,13,27,21,15,08,,,,,,,,0.81,0.49,0.65,3*0C
$GNGSA,A,3,07,40,38,10,08,22,44,13,12,35,21,24,0.81,0.49,0.65,4*00
$GNGSA,A,3,19,26,,,,,,,,,,,0.81,0.49,0.65,4*0F
$GPGSV,4,1,13,195,66,039,36,17,62,032,40,199,60,167,36,196,57,132,41,1*5D
$GPGSV,4,2,13,19,52,349,37,06,49,310,42,194,49,168,41,14,45,180,40,1*58
$GPGSV,4,3,13,03,25,040,25,09,23,126,24,11,19,267,19,04,18,093,19,1*61
$GPGSV,4,4,13,20,13,220,17,1*50
$GPGSV,3,1,09,195,66,039,39,199,60,167,44,196,57,132,45,06,49,310,42,8*5E
$GPGSV,3,2,09,194,49,168,42,14,45,180,44,03,25,040,25,09,23,126,29,8*51
$GPGSV,3,3,09,04,18,093,19,8*5B
$GLGSV,2,1,07,71,46,101,32,76,40,253,27,86,39,007,32,72,27,161,27,1*7C
$GLGSV,2,2,07,70,23,043,19,85,20,058,27,75,15,194,30,1*48
$GAGSV,2,1,06,13,53,335,40,27,51,195,42,21,50,290,28,15,29,043,32,7*77
$GAGSV,2,2,06,08,26,120,24,07,11,171,19,7*74
$GAGSV,2,1,05,13,53,335,42,27,51,195,44,21,50,290,28,15,29,043,35,1*71
$GAGSV,2,2,05,08,26,120,30,1*4C
$GBGSV,4,1,14,07,84,307,39,40,80,063,33,38,72,270,43,10,69,312,40,1*7C
$GBGSV,4,2,14,08,60,249,27,22,55,101,44,44,52,355,37,13,48,240,24,1*7F
$GBGSV,4,3,14,12,40,325,42,35,37,068,37,21,34,177,37,24,30,252,33,1*78
$GBGSV,4,4,14,19,20,046,33,26,19,201,40,1*70
$GBGSV,2,1,08,40,80,063,42,38,72,270,44,22,55,101,42,44,52,355,37,4*7A
$GBGSV,2,2,08,35,37,068,34,21,34,177,38,19,20,046,32,26,19,201,38,4*73
$GNGGA,035315.000,2500.8022118,N,12132.4822841,E,4,57,0.49,17.161,M,15.25,M,2,3335*4B
$GNRMC,035315.000,A,2500.8022118,N,12132.4822841,E,1.63,325.27,150623,,,R,V*1B
$GPHDT,,T*1B
$GNGGA,035315.200,2500.8022858,N,12132.4822112,E,4,57,0.49,17.133,M,15.25,M,2,3335*4C
$GNRMC,035315.200,A,2500.8022858,N,12132.4822112,E,1.76,323.74,150623,,,R,V*1F
$GPHDT,,T*1B
$GNGGA,035315.400,2500.8023512,N,12132.4821335,E,4,57,0.49,17.135,M,15.25,M,1,3335*49
$GNRMC,035315.400,A,2500.8023512,N,12132.4821335,E,1.87,318.03,150623,,,R,V*19
$GPHDT,,T*1B
$GNGGA,035315.600,2500.8024245,N,12132.4820453,E,4,57,0.49,17.122,M,15.25,M,0,3335*48
$GNRMC,035315.600,A,2500.8024245,N,12132.4820453,E,1.77,316.65,150623,,,R,V*1E
$GPHDT,,T*1B
$GNGGA,035315.800,2500.8025127,N,12132.4819807,E,4,57,0.49,17.095,M,15.25,M,0,3335*4A
$GNRMC,035315.800,A,2500.8025127,N,12132.4819807,E,2.04,316.97,150623,,,R,V*1B
$GPHDT,,T*1B
$GNGSA,A,3,195,17,199,196,19,06,194,14,03,09,,,0.81,0.49,0.65,1*0F
$GNGSA,A,3,71,76,86,72,70,85,75,,,,,,0.81,0.49,0.65,2*01
$GNGSA,A,3,13,27,21,15,08,,,,,,,,0.81,0.49,0.65,3*0C
$GNGSA,A,3,07,40,38,10,08,22,44,13,12,35,21,24,0.81,0.49,0.65,4*00
$GNGSA,A,3,19,26,,,,,,,,,,,0.81,0.49,0.65,4*0F
$GPGSV,4,1,13,195,66,039,35,17,62,032,36,199,60,167,36,196,57,132,41,1*5F
$GPGSV,4,2,13,19,52,349,40,06,49,310,39,194,49,168,40,14,45,180,39,1*5B
$GPGSV,4,3,13,03,25,040,25,09,23,126,25,11,19,267,20,04,18,093,19,1*6A
$GPGSV,4,4,13,20,13,220,18,1*5F
$GPGSV,3,1,09,195,66,039,36,199,60,167,45,196,57,132,44,06,49,310,40,8*53
$GPGSV,3,2,09,194,49,168,42,14,45,180,43,03,25,040,25,09,23,126,25,8*5A
$GPGSV,3,3,09,04,18,093,18,8*5A
$GLGSV,2,1,07,71,46,101,40,76,40,253,26,86,39,007,30,72,27,161,23,1*7E
$GLGSV,2,2,07,70,23,043,20,85,20,058,32,75,15,194,32,1*44
$GAGSV,2,1,06,13,53,335,38,27,51,195,40,21,50,290,30,15,29,043,35,7*74
$GAGSV,2,2,06,08,26,120,23,07,11,171,18,7*72
$GAGSV,2,1,05,13,53,335,42,27,51,195,44,21,50,290,31,15,29,043,34,1*78
$GAGSV,2,2,05,08,26,120,31,1*4D
$GBGSV,4,1,14,07,84,307,41,40,80,063,39,38,72,270,42,10,69,312,43,1*7B
$GBGSV,4,2,14,08,60,249,31,22,55,101,45,44,52,355,43,13,48,240,23,1*7D
$GBGSV,4,3,14,12,40,325,38,35,37,068,38,21,34,177,38,24,30,252,26,1*71
$GBGSV,4,4,14,19,20,046,41,26,19,201,37,1*75
$GBGSV,2,1,08,40,80,063,41,38,72,270,44,22,55,101,44,44,52,355,37,4*7F
$GBGSV,2,2,08,35,37,068,37,21,34,177,38,19,20,046,33,26,19,201,35,4*7C
$GNGGA,035316.000,2500.8025990,N,12132.4818961,E,4,57,0.49,17.074,M,15.25,M,1,3335*4B
$GNRMC,035316.000,A,2500.8025990,N,12132.4818961,E,2.05,318.34,150623,,,R,V*12
$GPHDT,,T*1B
$GNGGA,035316.200,2500.8026850,N,12132.4818188,E,4,57,0.49,17.095,M,15.25,M,1,3335*47
$GNRMC,035316.200,A,2500.8026850,N,12132.4818188,E,1.88,324.32,150623,,,R,V*1E
$GPHDT,,T*1B
$GNGGA,035316.400,2500.8027590,N,12132.4817429,E,4,57,0.49,17.086,M,15.25,M,1,3335*42
$GNRMC,035316.400,A,2500.8027590,N,12132.4817429,E,1.78,321.94,150623,,,R,V*1F
$GPHDT,,T*1B
$GNGGA,035316.600,2500.8028433,N,12132.4816822,E,4,57,0.49,17.187,M,15.25,M,1,3335*41
$GNRMC,035316.600,A,2500.8028433,N,12132.4816822,E,1.72,319.49,150623,,,R,V*1D
$GPHDT,,T*1B
$GNGGA,035316.800,2500.8029199,N,12132.4815805,E,4,57,0.49,17.096,M,15.25,M,0,3335*4D
$GNRMC,035316.800,A,2500.8029199,N,12132.4815805,E,1.84,320.70,150623,,,R,V*18
$GPHDT,,T*1B
$GNGSA,A,3,195,17,199,196,19,06,194,14,03,09,,,0.81,0.49,0.65,1*0F
$GNGSA,A,3,71,76,86,72,70,85,75,,,,,,0.81,0.49,0.65,2*01
$GNGSA,A,3,13,27,21,15,08,,,,,,,,0.81,0.49,0.65,3*0C
$GNGSA,A,3,07,40,38,10,08,22,44,13,12,35,21,24,0.81,0.49,0.65,4*00
$GNGSA,A,3,19,26,,,,,,,,,,,0.81,0.49,0.65,4*0F
$GPGSV,4,1,13,195,66,039,33,17,62,032,32,199,60,167,35,196,57,132,40,1*5F
$GPGSV,4,2,13,19,52,349,40,06,49,310,38,194,49,168,41,14,45,180,39,1*5B
$GPGSV,4,3,13,03,25,040,26,09,23,126,23,11,19,267,20,04,18,093,20,1*65
$GPGSV,4,4,13,20,13,220,18,1*5F
$GPGSV,2,1,08,195,66,039,33,199,60,167,44,196,57,132,43,06,49,310,38,8*5F
$GPGSV,2,2,08,194,49,168,42,14,45,180,43,03,25,040,23,09,23,126,27,8*5E
$GLGSV,2,1,07,71,46,101,30,76,40,253,26,86,39,007,39,72,27,161,24,1*77
$GLGSV,2,2,07,70,23,043,20,85,20,058,31,75,15,194,32,1*47
$GAGSV,2,1,06,13,53,335,39,27,51,195,41,21,50,290,35,15,29,043,32,7*76
$GAGSV,2,2,06,08,26,120,25,07,11,171,18,7*74
$GAGSV,2,1,05,13,53,335,42,27,51,195,43,21,50,290,34,15,29,043,26,1*79
$GAGSV,2,2,05,08,26,120,29,1*44
$GBGSV,4,1,14,07,84,307,42,40,80,063,38,38,72,270,44,10,69,312,43,1*7F
$GBGSV,4,2,14,08,60,249,31,22,55,101,45,44,52,355,41,13,48,240,24,1*78
$GBGSV,4,3,14,12,40,325,37,35,37,068,38,21,34,177,40,24,30,252,25,1*72
$GBGSV,4,4,14,19,20,046,42,26,19,201,25,1*75
$GBGSV,2,1,08,40,80,063,36,38,72,270,45,22,55,101,41,44,52,355,39,4*75
$GBGSV,2,2,08,35,37,068,37,21,34,177,35,19,20,046,37,26,19,201,27,4*76
$GNGGA,035317.000,2500.8030110,N,12132.4815077,E,4,57,0.49,17.081,M,15.25,M,1,3335*47
$GNRMC,035317.000,A,2500.8030110,N,12132.4815077,E,1.89,318.58,150623,,,R,V*19
$GPHDT,,T*1B
$GNGGA,035317.200,2500.8030875,N,12132.4814241,E,4,57,0.49,17.074,M,15.25,M,1,3335*43
$GNRMC,035317.200,A,2500.8030875,N,12132.4814241,E,1.76,324.42,150623,,,R,V*13
$GPHDT,,T*1B
$GNGGA,035317.400,2500.8031705,N,12132.4813623,E,4,58,0.49,17.118,M,15.25,M,1,3335*4F
$GNRMC,035317.400,A,2500.8031705,N,12132.4813623,E,1.80,325.93,150623,,,R,V*1F
$GPHDT,,T*1B
$GNGGA,035317.600,2500.8032599,N,12132.4812918,E,4,58,0.49,17.066,M,15.25,M,1,3335*47
$GNRMC,035317.600,A,2500.8032599,N,12132.4812918,E,1.82,319.46,150623,,,R,V*1A
$GPHDT,,T*1B
$GNGGA,035317.800,2500.8033426,N,12132.4811892,E,4,58,0.49,17.003,M,15.25,M,0,3335*4F
$GNRMC,035317.800,A,2500.8033426,N,12132.4811892,E,1.91,319.29,150623,,,R,V*1B
$GPHDT,,T*1B
$GNGSA,A,3,195,17,199,196,19,06,194,14,03,09,,,0.81,0.49,0.65,1*0F
$GNGSA,A,3,71,76,86,72,70,85,75,,,,,,0.81,0.49,0.65,2*01
$GNGSA,A,3,13,27,21,15,08,,,,,,,,0.81,0.49,0.65,3*0C
$GNGSA,A,3,07,40,38,10,08,22,44,13,12,35,21,24,0.81,0.49,0.65,4*00
$GNGSA,A,3,19,26,,,,,,,,,,,0.81,0.49,0.65,4*0F
$GPGSV,4,1,13,195,66,039,30,17,62,032,37,199,60,167,35,196,57,132,40,1*59
$GPGSV,4,2,13,19,52,349,43,06,49,310,36,194,49,168,40,14,45,180,42,1*5B
$GPGSV,4,3,13,03,25,040,21,09,23,126,24,11,19,267,20,04,18,093,24,1*61
$GPGSV,4,4,13,20,13,220,18,1*5F
$GPGSV,2,1,08,195,66,039,40,199,60,167,45,196,57,132,43,06,49,310,38,8*5A
$GPGSV,2,2,08,194,49,168,42,14,45,180,42,03,25,040,24,09,23,126,35,8*5B
$GLGSV,2,1,07,71,46,101,41,76,40,253,24,86,39,007,39,72,27,161,27,1*70
$GLGSV,2,2,07,70,23,043,17,85,20,058,30,75,15,194,30,1*40
$GAGSV,2,1,06,13,53,336,40,27,51,195,41,21,50,290,36,15,29,043,25,7*7E
$GAGSV,2,2,06,08,26,120,24,07,11,171,19,7*74
$GAGSV,2,1,05,13,53,336,42,27,51,195,43,21,50,290,36,15,29,043,24,1*7A
$GAGSV,2,2,05,08,26,120,27,1*4A
$GBGSV,4,1,14,07,84,307,44,40,80,063,41,38,72,270,43,10,69,312,42,1*71
$GBGSV,4,2,14,08,60,249,31,22,55,101,39,44,52,355,43,13,48,240,24,1*71
$GBGSV,4,3,14,12,40,325,37,35,37,068,26,21,34,177,41,24,30,252,24,1*7D
$GBGSV,4,4,14,19,20,046,29,26,19,201,29,1*74
$GBGSV,3,1,09,40,80,063,40,38,72,270,44,22,55,101,40,44,52,355,38,4*75
$GBGSV,3,2,09,35,37,068,40,21,34,177,39,24,30,252,22,19,20,046,33,4*74
$GBGSV,3,3,09,26,19,201,29,4*4E
$GNGGA,035318.000,2500.8034230,N,12132.4810965,E,4,58,0.49,16.956,M,15.25,M,1,3335*4F
$GNRMC,035318.000,A,2500.8034230,N,12132.4810965,E,1.96,320.35,150623,,,R,V*12
$GPHDT,,T*1B
$GNGGA,035318.200,2500.8035147,N,12132.4810167,E,4,58,0.49,16.996,M,15.25,M,1,3335*49
$GNRMC,035318.200,A,2500.8035147,N,12132.4810167,E,1.94,323.29,150623,,,R,V*14
$GPHDT,,T*1B
$GNGGA,035318.400,2500.8036154,N,12132.4809574,E,4,58,0.49,17.029,M,15.25,M,1,3335*4C
$GNRMC,035318.400,A,2500.8036154,N,12132.4809574,E,1.90,324.26,150623,,,R,V*11
$GPHDT,,T*1B
$GNGGA,035318.600,2500.8036951,N,12132.4808575,E,4,58,0.49,17.048,M,15.25,M,1,3335*44
$GNRMC,035318.600,A,2500.8036951,N,12132.4808575,E,1.87,321.82,150623,,,R,V*13
$GPHDT,,T*1B
$GNGGA,035318.800,2500.8037711,N,12132.4807770,E,4,58,0.49,16.997,M,15.25,M,0,3335*42
$GNRMC,035318.800,A,2500.8037711,N,12132.4807770,E,1.90,318.11,150623,,,R,V*18
$GPHDT,,T*1B
$GNGSA,A,3,195,17,199,196,19,06,194,14,03,09,,,0.81,0.49,0.65,1*0F
$GNGSA,A,3,71,76,86,72,70,85,75,,,,,,0.81,0.49,0.65,2*01
$GNGSA,A,3,13,27,21,15,08,,,,,,,,0.81,0.49,0.65,3*0C
$GNGSA,A,3,07,40,38,10,08,22,44,13,12,35,21,24,0.81,0.49,0.65,4*00
$GNGSA,A,3,19,26,,,,,,,,,,,0.81,0.49,0.65,4*0F
$GPGSV,4,1,13,195,66,039,37,17,62,032,38,199,60,167,35,196,57,132,39,1*5F
$GPGSV,4,2,13,19,52,349,45,06,49,310,36,194,49,168,38,14,45,180,42,1*52
$GPGSV,4,3,13,03,25,040,19,09,23,126,25,11,19,267,18,04,18,093,23,1*67
$GPGSV,4,4,13,20,13,220,18,1*5F
$GPGSV,2,1,08,195,66,039,44,199,60,167,44,196,57,132,40,06,49,310,39,8*5D
$GPGSV,2,2,08,194,49,168,42,14,45,180,42,03,25,040,21,09,23,126,28,8*52
$GLGSV,2,1,08,71,46,101,31,76,40,253,24,86,39,007,39,72,27,161,25,1*7A
$GLGSV,2,2,08,77,24,308,,70,23,043,16,85,20,058,30,75,15,194,30,1*73
$GAGSV,2,1,07,13,53,336,41,27,51,195,43,21,50,290,34,15,29,044,25,7*79
$GAGSV,2,2,07,08,26,120,23,26,23,275,,07,11,171,19,7*47
$GAGSV,2,1,05,13,53,336,43,27,51,195,45,21,50,290,37,15,29,044,28,1*77
$GAGSV,2,2,05,08,26,120,25,1*48
$GBGSV,4,1,14,07,84,307,44,40,80,063,38,38,72,270,40,10,69,312,41,1*7F
$GBGSV,4,2,14,08,60,249,27,22,55,101,42,44,52,355,44,13,48,240,24,1*7D
$GBGSV,4,3,14,12,40,325,39,35,37,068,36,21,34,177,43,24,30,252,25,1*71
$GBGSV,4,4,14,19,20,046,35,26,19,201,27,1*77
$GBGSV,3,1,09,40,80,063,43,38,72,270,41,22,55,101,41,44,52,355,42,4*7F
$GBGSV,3,2,09,35,37,068,30,21,34,177,39,24,30,252,23,19,20,046,34,4*75
$GBGSV,3,3,09,26,19,201,24,4*43
$GNGGA,035319.000,2500.8038467,N,12132.4806797,E,4,58,0.49,16.978,M,15.25,M,1,3335*4E
$GNRMC,035319.000,A,2500.8038467,N,12132.4806797,E,1.81,317.71,150623,,,R,V*1D
$GPHDT,,T*1B
$GNGGA,035319.200,2500.8039444,N,12132.4806199,E,4,58,0.49,17.124,M,15.25,M,1,3335*44
$GNRMC,035319.200,A,2500.8039444,N,12132.4806199,E,2.01,320.07,150623,,,R,V*19
$GPHDT,,T*1B
$GNGGA,035319.400,2500.8040326,N,12132.4805182,E,4,57,0.49,17.028,M,15.25,M,1,3335*44
$GNRMC,035319.400,A,2500.8040326,N,12132.4805182,E,2.08,321.11,150623,,,R,V*14
$GPHDT,,T*1B
$GNGGA,035319.600,2500.8041248,N,12132.4804492,E,4,57,0.49,17.258,M,15.25,M,0,3335*4F
$GNRMC,035319.600,A,2500.8041248,N,12132.4804492,E,1.92,319.98,150623,,,R,V*11
$GPHDT,,T*1B
$GNGGA,035319.800,2500.8042061,N,12132.4803495,E,4,57,0.49,17.102,M,15.25,M,0,3335*47
$GNRMC,035319.800,A,2500.8042061,N,12132.4803495,E,1.92,320.45,150623,,,R,V*1F
$GPHDT,,T*1B
$GNGSA,A,3,195,17,199,196,19,06,194,14,03,09,,,0.81,0.49,0.65,1*0F
$GNGSA,A,3,71,76,86,72,70,85,75,,,,,,0.81,0.49,0.65,2*01
$GNGSA,A,3,13,27,21,15,08,,,,,,,,0.81,0.49,0.65,3*0C
$GNGSA,A,3,07,40,38,10,08,22,44,13,12,35,21,24,0.81,0.49,0.65,4*00
$GNGSA,A,3,19,26,,,,,,,,,,,0.81,0.49,0.65,4*0F
$GPGSV,4,1,13,195,66,039,35,17,62,032,31,199,60,167,35,196,57,132,38,1*55
$GPGSV,4,2,13,19,52,349,45,06,49,310,38,194,49,168,38,14,45,180,40,1*5E
$GPGSV,4,3,13,03,25,040,18,09,23,126,23,11,19,267,18,04,18,093,22,1*61
$GPGSV,4,4,13,20,13,220,18,1*5F
$GPGSV,2,1,08,195,66,039,41,199,60,167,44,196,57,132,41,06,49,310,41,8*56
$GPGSV,2,2,08,194,49,168,42,14,45,180,41,03,25,040,22,09,23,126,28,8*52
$GLGSV,2,1,08,71,46,101,36,76,40,253,24,86,39,007,39,72,27,161,27,1*7F
$GLGSV,2,2,08,70,23,043,16,85,20,058,40,87,19,306,,75,15,194,28,1*72
$GAGSV,2,1,08,13,53,336,39,27,51,195,40,21,50,290,32,15,29,044,26,7*7F
$GAGSV,2,2,08,08,26,120,23,26,23,275,,07,11,171,19,30,08,160,,7*74
$GAGSV,2,1,05,13,53,336,42,27,51,195,38,21,50,290,37,15,29,044,28,1*7C
$GAGSV,2,2,05,08,26,120,25,1*48
$GBGSV,4,1,14,07,84,307,43,40,80,063,39,38,72,270,37,10,69,312,41,1*79
$GBGSV,4,2,14,08,60,249,25,22,55,101,39,44,52,355,44,13,48,240,22,1*75
$GBGSV,4,3,14,12,40,325,32,35,37,068,38,21,34,177,41,24,30,252,22,1*71
$GBGSV,4,4,14,19,20,046,25,26,19,201,23,1*72
$GBGSV,2,1,08,40,80,063,42,38,72,270,37,22,55,101,37,44,52,355,42,4*7E
$GBGSV,2,2,08,35,37,068,35,21,34,177,30,24,30,252,20,19,20,046,22,4*7D
$GNGGA,035320.000,2500.8042804,N,12132.4802432,E,4,57,0.49,17.073,M,15.25,M,1,3335*44
$GNRMC,035320.000,A,2500.8042804,N,12132.4802432,E,2.05,317.08,150623,,,R,V*1A
$GPHDT,,T*1B
$GNGGA,035320.200,2500.8043564,N,12132.4801672,E,4,57,0.49,17.108,M,15.25,M,1,3335*44
$GNRMC,035320.200,A,2500.8043564,N,12132.4801672,E,1.83,316.12,150623,,,R,V*10
$GPHDT,,T*1B
$GNGGA,035320.400,2500.8044327,N,12132.4800671,E,4,57,0.49,17.153,M,15.25,M,1,3335*48
$GNRMC,035320.400,A,2500.8044327,N,12132.4800671,E,1.77,318.07,150623,,,R,V*13
$GPHDT,,T*1B
$GNGGA,035320.600,2500.8045299,N,12132.4799865,E,4,57,0.49,17.089,M,15.25,M,0,3335*4C
$GNRMC,035320.600,A,2500.8045299,N,12132.4799865,E,2.10,329.02,150623,,,R,V*15
$GPHDT,,T*1B
$GNGGA,035320.800,2500.8046235,N,12132.4799143,E,4,57,0.49,17.102,M,15.25,M,0,3335*48
$GNRMC,035320.800,A,2500.8046235,N,12132.4799143,E,2.11,325.97,150623,,,R,V*12
$GPHDT,,T*1B
$GNGSA,A,3,195,17,199,196,19,06,194,14,03,09,,,0.81,0.49,0.65,1*0F
$GNGSA,A,3,71,76,86,72,70,85,75,,,,,,0.81,0.49,0.65,2*01
$GNGSA,A,3,13,27,21,15,08,,,,,,,,0.81,0.49,0.65,3*0C
$GNGSA,A,3,07,40,38,10,08,22,44,13,12,35,21,24,0.81,0.49,0.65,4*00
$GNGSA,A,3,19,26,,,,,,,,,,,0.81,0.49,0.65,4*0F
$GPGSV,4,1,13,195,66,039,41,17,62,032,43,199,60,167,35,196,57,132,37,1*5C
$GPGSV,4,2,13,19,52,349,45,06,49,310,35,194,49,168,38,14,45,180,40,1*53
$GPGSV,4,3,13,03,25,040,19,09,23,126,23,11,19,267,19,04,18,093,18,1*68
$GPGSV,4,4,13,20,13,220,16,1*51
$GPGSV,2,1,08,195,66,039,43,199,60,167,44,196,57,132,40,06,49,310,39,8*5A
$GPGSV,2,2,08,194,49,168,42,14,45,180,41,03,25,040,22,09,23,126,28,8*52
$GLGSV,2,1,07,71,46,101,37,76,40,253,23,86,39,007,32,72,27,161,29,1*73
$GLGSV,2,2,07,70,23,043,16,85,20,058,39,75,15,194,27,1*4E
$GAGSV,2,1,08,13,53,336,40,27,51,195,27,21,50,290,28,15,29,044,24,7*79
$GAGSV,2,2,08,08,26,120,24,26,23,275,26,07,11,171,19,30,08,160,,7*77
$GAGSV,2,1,05,13,53,336,40,27,51,195,30,21,50,290,35,15,29,044,27,1*7B
$GAGSV,2,2,05,08,26,120,28,1*45
$GBGSV,4,1,14,07,84,307,43,40,80,063,40,38,72,270,36,10,69,312,34,1*74
$GBGSV,4,2,14,08,60,249,24,22,55,101,37,44,52,355,45,13,48,240,29,1*70
$GBGSV,4,3,14,12,40,325,34,35,37,068,40,21,34,177,38,24,30,252,23,1*77
$GBGSV,4,4,14,19,20,046,26,26,19,201,24,1*76
$GBGSV,3,1,09,40,80,063,43,38,72,270,38,22,55,101,36,44,52,355,41,4*72
$GBGSV,3,2,09,35,37,068,40,21,34,177,34,24,30,252,19,19,20,046,26,4*75
$GBGSV,3,3,09,26,19,201,24,4*43
$GNGGA,035321.000,2500.8047053,N,12132.4798137,E,4,57,0.49,17.096,M,15.25,M,1,3335*4D
$GNRMC,035321.000,A,2500.8047053,N,12132.4798137,E,1.88,319.90,150623,,,R,V*11
$GPHDT,,T*1B
$GNGGA,035321.200,2500.8047691,N,12132.4796965,E,4,57,0.49,17.014,M,15.25,M,1,3335*4C
$GNRMC,035321.200,A,2500.8047691,N,12132.4796965,E,1.93,313.61,150623,,,R,V*14
$GPHDT,,T*1B
$GNGGA,035321.400,2500.8048423,N,12132.4796340,E,4,57,0.49,17.080,M,15.25,M,1,3335*4E
$GNRMC,035321.400,A,2500.8048423,N,12132.4796340,E,1.86,312.37,150623,,,R,V*1D
$GPHDT,,T*1B
$GNGGA,035321.600,2500.8049372,N,12132.4795272,E,4,57,0.49,17.076,M,15.25,M,0,3335*45
$GNRMC,035321.600,A,2500.8049372,N,12132.4795272,E,1.96,317.05,150623,,,R,V*1B
$GPHDT,,T*1B
$GNGGA,035321.800,2500.8050217,N,12132.4794473,E,4,57,0.49,17.154,M,15.25,M,0,3335*46
$GNRMC,035321.800,A,2500.8050217,N,12132.4794473,E,1.99,318.49,150623,,,R,V*11
$GPHDT,,T*1B
$GNGSA,A,3,195,17,199,196,19,06,194,14,03,09,,,0.81,0.49,0.65,1*0F
$GNGSA,A,3,71,76,86,72,70,85,75,,,,,,0.81,0.49,0.65,2*01
$GNGSA,A,3,13,27,21,15,08,,,,,,,,0.81,0.49,0.65,3*0C
$GNGSA,A,3,07,40,38,10,08,22,44,13,12,35,21,24,0.81,0.49,0.65,4*00
$GNGSA,A,3,19,26,,,,,,,,,,,0.81,0.49,0.65,4*0F
$GPGSV,4,1,13,195,66,039,41,17,62,032,44,199,60,167,35,196,57,132,32,1*5E
$GPGSV,4,2,13,19,52,349,45,06,49,310,36,194,49,168,38,14,45,180,42,1*52
$GPGSV,4,3,13,03,25,040,19,09,23,126,24,11,19,267,19,04,18,093,18,1*6F
$GPGSV,4,4,13,20,13,220,16,1*51
$GPGSV,3,1,09,195,66,039,41,199,60,167,44,196,57,132,38,06,49,310,39,8*57
$GPGSV,3,2,09,194,49,168,41,14,45,180,44,03,25,040,20,09,23,126,29,8*57
$GPGSV,3,3,09,04,18,093,23,8*52
$GLGSV,2,1,07,71,46,101,29,76,40,253,25,86,39,007,35,72,27,161,28,1*7C
$GLGSV,2,2,07,70,23,043,16,85,20,058,36,75,15,194,27,1*41
$GAGSV,2,1,08,13,53,336,41,27,51,195,25,21,50,290,34,15,29,044,20,7*73
$GAGSV,2,2,08,08,26,120,22,26,23,275,22,07,11,171,19,30,08,160,,7*75
$GAGSV,2,1,05,13,53,336,43,27,51,195,26,21,50,290,36,15,29,044,25,1*7E
$GAGSV,2,2,05,08,26,120,23,1*4E
$GBGSV,4,1,14,07,84,307,39,40,80,063,31,38,72,270,37,10,69,312,37,1*7D
$GBGSV,4,2,14,08,60,249,23,22,55,101,39,44,52,355,47,13,48,240,26,1*74
$GBGSV,4,3,14,12,40,325,32,35,37,068,39,21,34,177,37,24,30,252,23,1*70
$GBGSV,4,4,14,19,20,046,27,26,19,201,23,1*70
$GBGSV,3,1,09,40,80,063,42,38,72,270,37,22,55,101,40,44,52,355,41,4*7D
$GBGSV,3,2,09,35,37,068,40,21,34,177,36,24,30,252,18,19,20,046,24,4*74
$GBGSV,3,3,09,26,19,201,20,4*47
$GNGGA,035322.000,2500.8051045,N,12132.4793563,E,4,57,0.49,17.042,M,15.25,M,1,3335*49
$GNRMC,035322.000,A,2500.8051045,N,12132.4793563,E,1.92,317.41,150623,,,R,V*15
$GPHDT,,T*1B
$GNGGA,035322.200,2500.8051962,N,12132.4792854,E,4,56,0.49,17.029,M,15.25,M,1,3335*43
$GNRMC,035322.200,A,2500.8051962,N,12132.4792854,E,1.92,322.90,150623,,,R,V*19
$GPHDT,,T*1B
$GNGGA,035322.400,2500.8052728,N,12132.4791789,E,4,56,0.49,17.088,M,15.25,M,1,3335*41
$GNRMC,035322.400,A,2500.8052728,N,12132.4791789,E,2.04,320.54,150623,,,R,V*16
$GPHDT,,T*1B
$GNGGA,035322.600,2500.8053552,N,12132.4791081,E,4,56,0.49,17.122,M,15.25,M,0,3335*42
$GNRMC,035322.600,A,2500.8053552,N,12132.4791081,E,2.00,318.39,150623,,,R,V*11
$GPHDT,,T*1B
$GNGGA,035322.800,2500.8054392,N,12132.4790421,E,1,56,0.49,17.149,M,15.25,M,0,3335*46
$GNRMC,035322.800,A,2500.8054392,N,12132.4790421,E,2.05,327.38,150623,,,A,V*06
$GPHDT,,T*1B
$GNGSA,A,3,195,17,199,196,19,06,194,14,03,09,,,0.81,0.49,0.65,1*0F
$GNGSA,A,3,71,76,86,72,70,85,75,,,,,,0.81,0.49,0.65,2*01
$GNGSA,A,3,13,27,21,15,08,,,,,,,,0.81,0.49,0.65,3*0C
$GNGSA,A,3,07,40,38,10,08,22,44,13,12,35,21,24,0.81,0.49,0.65,4*00
$GNGSA,A,3,19,26,,,,,,,,,,,0.81,0.49,0.65,4*0F
$GPGSV,4,1,13,195,66,039,40,17,62,032,43,199,60,167,36,196,57,132,34,1*5D
$GPGSV,4,2,13,19,52,349,45,06,49,310,37,194,49,168,37,14,45,180,42,1*5C
$GPGSV,4,3,13,03,25,040,21,09,23,126,25,11,19,267,23,04,18,093,20,1*67
$GPGSV,4,4,13,20,13,220,17,1*50
$GPGSV,3,1,09,195,66,039,43,199,60,167,44,196,57,132,38,194,49,168,42,8*6E
$GPGSV,3,2,09,06,49,310,38,14,45,180,38,03,25,040,22,09,23,126,31,8*6E
$GPGSV,3,3,09,04,18,093,19,8*5B
$GLGSV,2,1,07,71,46,101,33,76,40,253,25,86,39,007,39,72,27,161,29,1*7A
$GLGSV,2,2,07,70,23,043,14,85,20,058,35,75,15,194,25,1*42
$GAGSV,2,1,08,13,53,336,42,27,51,195,25,21,50,290,33,15,29,044,19,7*7D
$GAGSV,2,2,08,08,26,120,24,26,23,275,28,07,11,171,19,30,08,160,,7*79
$GAGSV,2,1,06,13,53,336,42,27,51,195,28,21,50,290,38,15,29,044,25,1*7C
$GAGSV,2,2,06,08,26,120,29,26,23,275,29,1*79
$GBGSV,4,1,14,07,84,307,37,40,80,063,41,38,72,270,38,10,69,312,38,1*74
$GBGSV,4,2,14,08,60,249,26,22,55,101,38,44,52,355,46,13,48,240,24,1*73
$GBGSV,4,3,14,12,40,325,33,35,37,068,36,21,34,177,38,24,30,252,26,1*74
$GBGSV,4,4,14,19,20,046,21,26,19,201,24,1*71
$GBGSV,2,1,08,40,80,063,43,38,72,270,40,22,55,101,40,44,52,355,41,4*7C
$GBGSV,2,2,08,35,37,068,41,21,34,177,36,19,20,046,22,26,19,201,20,4*77
$GNGGA,035323.000,2500.8055232,N,12132.4789521,E,1,56,0.49,17.163,M,15.25,M,1,3335*45
$GNRMC,035323.000,A,2500.8055232,N,12132.4789521,E,2.04,320.61,150623,,,A,V*06
$GPHDT,,T*1B
$GNGGA,035323.200,2500.8056072,N,12132.4788621,E,1,56,0.49,17.175,M,15.25,M,1,3335*47
$GNRMC,035323.200,A,2500.8056072,N,12132.4788621,E,2.06,318.26,150623,,,A,V*09
$GPHDT,,T*1B
$GNGGA,035323.400,2500.8056972,N,12132.4787541,E,1,56,0.49,17.191,M,15.25,M,1,3335*48
$GNRMC,035323.400,A,2500.8056972,N,12132.4787541,E,2.32,319.60,150623,,,A,V*08
$GPHDT,,T*1B
$GNGGA,035323.600,2500.8057932,N,12132.4786521,E,1,56,0.49,17.227,M,15.25,M,0,3335*47
$GNRMC,035323.600,A,2500.8057932,N,12132.4786521,E,2.30,318.87,150623,,,A,V*02
$GPHDT,,T*1B
$GNGGA,035323.800,2500.8058712,N,12132.4785441,E,1,56,0.49,17.232,M,15.25,M,0,3335*4A
$GNRMC,035323.800,A,2500.8058712,N,12132.4785441,E,2.21,315.93,150623,,,A,V*03
$GPHDT,,T*1B
$GNGSA,A,3,195,17,199,196,19,06,194,14,03,09,,,0.81,0.49,0.65,1*0F
$GNGSA,A,3,71,76,86,72,70,85,75,,,,,,0.81,0.49,0.65,2*01
$GNGSA,A,3,13,27,21,15,08,,,,,,,,0.81,0.49,0.65,3*0C
$GNGSA,A,3,07,40,38,10,08,22,44,13,12,35,21,24,0.81,0.49,0.65,4*00
$GNGSA,A,3,19,26,,,,,,,,,,,0.81,0.49,0.65,4*0F
$GPGSV,4,1,13,195,66,039,41,17,62,032,44,199,60,167,35,196,57,132,35,1*59
$GPGSV,4,2,13,19,52,349,45,06,49,310,27,194,49,168,38,14,45,180,36,1*51
$GPGSV,4,3,13,03,25,040,19,09,23,126,24,11,19,267,26,04,18,093,21,1*69
$GPGSV,4,4,13,20,13,220,19,1*5E
$GPGSV,3,1,09,195,66,039,43,199,60,167,44,196,57,132,42,194,49,168,42,8*63
$GPGSV,3,2,09,06,49,310,37,14,45,180,29,03,25,040,21,09,23,126,34,8*67
$GPGSV,3,3,09,04,18,093,20,8*51
$GLGSV,2,1,07,71,46,100,32,76,40,253,27,86,39,007,32,72,28,160,36,1*73
$GLGSV,2,2,07,70,23,043,15,85,20,058,33,75,15,194,27,1*47
$GAGSV,2,1,08,13,53,336,40,27,51,195,23,21,50,290,35,15,29,044,19,7*7F
$GAGSV,2,2,08,08,26,120,23,26,23,275,25,07,11,171,19,30,08,160,,7*73
$GAGSV,2,1,06,13,53,336,44,27,51,195,24,21,50,290,36,15,29,044,20,1*7D
$GAGSV,2,2,06,08,26,120,30,26,23,275,37,1*7E
$GBGSV,4,1,14,07,84,307,39,40,80,063,42,38,72,270,38,10,69,312,37,1*76
$GBGSV,4,2,14,08,60,249,29,22,55,101,33,44,52,355,43,13,48,240,23,1*75
$GBGSV,4,3,14,12,40,325,34,35,37,068,42,21,34,177,42,24,30,252,24,1*7F
$GBGSV,4,4,14,19,20,046,20,26,19,201,23,1*77
$GBGSV,2,1,08,40,80,063,44,38,72,270,37,22,55,101,30,44,52,355,43,4*7E
$GBGSV,2,2,08,35,37,068,39,21,34,177,40,19,20,046,24,26,19,201,17,4*7B
$GNGGA,035324.000,2500.8059492,N,12132.4784421,E,1,56,0.49,17.251,M,15.25,M,1,3335*4C
$GNRMC,035324.000,A,2500.8059492,N,12132.4784421,E,2.11,321.11,150623,,,A,V*0F
$GPHDT,,T*1B
$GNGGA,035324.200,2500.8060332,N,12132.4783461,E,1,56,0.50,17.270,M,15.25,M,1,3335*41
$GNRMC,035324.200,A,2500.8060332,N,12132.4783461,E,2.00,316.38,150623,,,A,V*06
$GPHDT,,T*1B
$GNGGA,035324.400,2500.8061172,N,12132.4782381,E,1,55,0.50,17.279,M,15.25,M,1,3335*42
$GNRMC,035324.400,A,2500.8061172,N,12132.4782381,E,2.12,312.28,150623,,,A,V*09
$GPHDT,,T*1B
$GNGGA,035324.600,2500.8061952,N,12132.4781541,E,1,55,0.50,17.296,M,15.25,M,1,3335*42
$GNRMC,035324.600,A,2500.8061952,N,12132.4781541,E,1.98,313.17,150623,,,A,V*04
$GPHDT,,T*1B
$GNGGA,035324.800,2500.8062792,N,12132.4780581,E,1,55,0.50,17.310,M,15.25,M,0,3335*4E
$GNRMC,035324.800,A,2500.8062792,N,12132.4780581,E,2.16,314.96,150623,,,A,V*0D
$GPHDT,,T*1B
$GNGSA,A,3,195,17,199,196,19,06,194,14,03,09,,,0.83,0.50,0.66,1*06
$GNGSA,A,3,71,76,86,72,85,75,,,,,,,0.83,0.50,0.66,2*0F
$GNGSA,A,3,13,27,21,15,08,,,,,,,,0.83,0.50,0.66,3*05
$GNGSA,A,3,07,40,38,10,08,22,44,13,12,35,21,24,0.83,0.50,0.66,4*09
$GNGSA,A,3,19,26,,,,,,,,,,,0.83,0.50,0.66,4*06
$GPGSV,4,1,13,195,66,039,42,17,62,032,43,199,60,167,33,196,57,132,39,1*57
$GPGSV,4,2,13,19,52,349,44,06,49,310,34,194,49,168,36,14,45,180,25,1*5E
$GPGSV,4,3,13,03,25,040,19,09,23,126,25,11,19,267,25,04,18,093,23,1*69
$GPGSV,4,4,13,20,13,220,19,1*5E
$GPGSV,3,1,09,195,66,039,46,199,60,167,42,196,57,132,43,194,49,168,39,8*6D
$GPGSV,3,2,09,06,49,310,37,14,45,180,24,03,25,040,25,09,23,126,34,8*6E
$GPGSV,3,3,09,04,18,093,26,8*57
$GLGSV,2,1,07,71,46,100,27,76,40,253,24,86,39,007,39,72,28,160,34,1*7D
$GLGSV,2,2,07,70,23,043,15,85,20,058,30,75,15,194,23,1*40
$GAGSV,2,1,07,13,53,336,40,27,51,195,24,21,50,290,27,15,29,044,19,7*74
$GAGSV,2,2,07,08,26,120,24,26,23,275,25,07,11,171,19,7*47
$GAGSV,2,1,06,13,53,336,44,27,51,195,26,21,50,290,36,15,29,044,21,1*7E
$GAGSV,2,2,06,08,26,120,29,26,23,275,30,1*71
$GBGSV,4,1,16,07,84,307,40,40,80,063,43,38,72,270,33,10,69,312,36,1*71
$GBGSV,4,2,16,08,60,249,24,22,55,101,42,44,52,355,44,13,48,240,24,1*7C
$GBGSV,4,3,16,12,40,325,29,35,37,068,41,21,34,177,43,24,30,252,24,1*73
$GBGSV,4,4,16,19,20,046,21,26,19,201,23,11,02,290,,09,01,210,,1*76
$GBGSV,2,1,08,40,80,063,44,38,72,270,40,22,55,101,36,44,52,355,42,4*79
$GBGSV,2,2,08,35,37,068,38,21,34,177,38,24,30,252,25,19,20,046,23,4*7C
$GNGGA,035325.000,2500.8063752,N,12132.4779861,E,1,55,0.50,17.332,M,15.25,M,1,3335*4E
$GNRMC,035325.000,A,2500.8063752,N,12132.4779861,E,2.17,326.68,150623,,,A,V*0D
$GPHDT,,T*1B
$GNGGA,035325.200,2500.8064652,N,12132.4779261,E,1,55,0.50,17.353,M,15.25,M,1,3335*47
$GNRMC,035325.200,A,2500.8064652,N,12132.4779261,E,1.91,326.34,150623,,,A,V*07
$GPHDT,,T*1B
$GNGGA,035325.400,2500.8065552,N,12132.4778361,E,1,56,0.50,17.367,M,15.25,M,1,3335*47
$GNRMC,035325.400,A,2500.8065552,N,12132.4778361,E,2.07,322.12,150623,,,A,V*0F
$GPHDT,,T*1B
$GNGGA,035325.600,2500.8066512,N,12132.4777461,E,1,56,0.50,17.383,M,15.25,M,1,3335*40
$GNRMC,035325.600,A,2500.8066512,N,12132.4777461,E,2.13,323.77,150623,,,A,V*05
$GPHDT,,T*1B
$GNGGA,035325.800,2500.8067352,N,12132.4776561,E,1,56,0.50,17.397,M,15.25,M,1,3335*48
$GNRMC,035325.800,A,2500.8067352,N,12132.4776561,E,2.12,319.06,150623,,,A,V*06
$GPHDT,,T*1B
$GNGSA,A,3,195,17,199,196,19,06,194,14,03,09,,,0.83,0.50,0.66,1*06
$GNGSA,A,3,71,76,86,72,85,75,,,,,,,0.83,0.50,0.66,2*0F
$GNGSA,A,3,13,27,21,15,08,,,,,,,,0.83,0.50,0.66,3*05
$GNGSA,A,3,07,40,38,10,08,22,44,13,12,35,21,24,0.83,0.50,0.66,4*09
$GNGSA,A,3,19,26,,,,,,,,,,,0.83,0.50,0.66,4*06
$GPGSV,4,1,13,195,66,039,42,17,62,032,42,199,60,167,34,196,57,132,38,1*50
$GPGSV,4,2,13,19,52,349,44,06,49,310,33,194,49,168,34,14,45,180,29,1*57
$GPGSV,4,3,13,03,25,040,21,09,23,126,23,11,19,267,22,04,18,093,21,1*61
$GPGSV,4,4,13,20,13,220,20,1*54
$GPGSV,3,1,09,195,66,039,46,199,60,167,46,196,57,132,43,194,49,168,38,8*68
$GPGSV,3,2,09,06,49,310,36,14,45,180,28,03,25,040,24,09,23,126,31,8*67
$GPGSV,3,3,09,04,18,093,24,8*55
$GLGSV,2,1,07,71,46,100,36,76,40,253,34,86,39,007,42,72,28,160,30,1*74
$GLGSV,2,2,07,70,23,043,15,85,20,058,27,75,15,194,20,1*45
$GAGSV,2,1,07,13,53,336,38,27,51,195,24,21,50,290,28,15,29,044,19,7*74
$GAGSV,2,2,07,08,26,120,23,26,23,275,25,07,11,171,19,7*40
$GAGSV,2,1,06,13,53,336,38,27,51,195,24,21,50,290,31,15,29,044,22,1*73
$GAGSV,2,2,06,08,26,120,28,26,23,275,27,1*76
$GBGSV,4,1,15,07,84,307,39,40,80,063,42,38,72,270,36,10,69,312,35,1*7B
$GBGSV,4,2,15,08,60,249,25,22,55,101,37,44,52,355,46,13,48,240,25,1*7F
$GBGSV,4,3,15,12,40,325,29,35,37,068,37,21,34,177,39,24,30,252,36,1*7F
$GBGSV,4,4,15,19,20,046,22,26,19,201,21,11,02,290,,1*4F
$GBGSV,3,1,09,40,80,063,43,38,72,270,38,22,55,101,36,44,52,355,40,4*73
$GBGSV,3,2,09,35,37,068,32,21,34,177,30,24,30,252,38,19,20,046,21,4*70
$GBGSV,3,3,09,26,19,201,17,4*43
$GNGGA,035326.000,2500.8068192,N,12132.4775481,E,1,56,0.50,17.416,M,15.25,M,1,3335*40
$GNRMC,035326.000,A,2500.8068192,N,12132.4775481,E,2.26,313.68,150623,,,A,V*05
$GPHDT,,T*1B
$GNGGA,035326.200,2500.8069092,N,12132.4774461,E,1,57,0.50,17.443,M,15.25,M,1,3335*4C
$GNRMC,035326.200,A,2500.8069092,N,12132.4774461,E,2.28,314.72,150623,,,A,V*0A
$GPHDT,,T*1B
$GNGGA,035326.400,2500.8070052,N,12132.4773561,E,1,57,0.50,17.466,M,15.25,M,1,3335*4F
$GNRMC,035326.400,A,2500.8070052,N,12132.4773561,E,2.32,317.98,150623,,,A,V*02
$GPHDT,,T*1B
$GNGGA,035326.600,2500.8070952,N,12132.4772541,E,1,57,0.50,17.480,M,15.25,M,1,3335*4F
$GNRMC,035326.600,A,2500.8070952,N,12132.4772541,E,2.19,315.93,150623,,,A,V*0A
$GPHDT,,T*1B
$GNGGA,035326.800,2500.8071732,N,12132.4771761,E,1,56,0.50,17.505,M,15.25,M,0,3335*47
$GNRMC,035326.800,A,2500.8071732,N,12132.4771761,E,2.05,320.50,150623,,,A,V*0A
$GPHDT,,T*1B
$GNGSA,A,3,195,17,199,196,19,06,194,14,03,09,,,0.83,0.50,0.66,1*06
$GNGSA,A,3,71,76,86,72,85,75,,,,,,,0.83,0.50,0.66,2*0F
$GNGSA,A,3,13,27,21,15,08,,,,,,,,0.83,0.50,0.66,3*05
$GNGSA,A,3,07,40,38,10,08,22,44,13,12,35,21,24,0.83,0.50,0.66,4*09
$GNGSA,A,3,19,26,,,,,,,,,,,0.83,0.50,0.66,4*06
$GPGSV,4,1,13,195,66,039,43,17,62,032,42,199,60,167,33,196,57,132,39,1*57
$GPGSV,4,2,13,19,52,349,45,06,49,310,26,194,49,168,36,14,45,180,25,1*5C
$GPGSV,4,3,13,03,25,040,21,09,23,126,27,11,19,267,25,04,18,093,21,1*62
$GPGSV,4,4,13,20,13,220,19,1*5E
$GPGSV,3,1,09,195,66,039,46,199,60,167,43,196,57,132,41,194,49,168,37,8*60
$GPGSV,3,2,09,06,49,310,41,14,45,180,31,03,25,040,26,09,23,126,30,8*6C
$GPGSV,3,3,09,04,18,093,22,8*53
$GLGSV,2,1,07,71,46,100,30,76,40,253,34,86,39,008,42,72,28,160,27,1*7B
$GLGSV,2,2,07,70,23,043,14,85,20,058,25,75,15,194,18,1*4D
$GAGSV,2,1,07,13,53,336,37,27,51,195,24,21,50,290,29,15,29,044,20,7*70
$GAGSV,2,2,07,08,26,120,24,26,23,275,26,07,11,171,22,7*4C
$GAGSV,2,1,06,13,53,336,35,27,51,195,23,21,50,290,23,15,29,044,22,1*7A
$GAGSV,2,2,06,08,26,120,35,26,23,275,24,1*79
$GBGSV,4,1,14,07,84,307,36,40,80,063,39,38,72,270,36,10,69,312,37,1*7B
$GBGSV,4,2,14,08,60,249,28,22,55,101,39,44,52,355,47,13,48,240,26,1*7F
$GBGSV,4,3,14,12,40,325,30,35,37,068,28,21,34,177,29,24,30,252,34,1*7B
$GBGSV,4,4,14,19,20,046,23,26,19,201,21,1*76
$GBGSV,3,1,09,40,80,063,43,38,72,270,37,22,55,101,38,44,52,355,43,4*71
$GBGSV,3,2,09,35,37,068,40,21,34,177,30,24,30,252,35,19,20,046,21,4*78
$GBGSV,3,3,09,26,19,201,17,4*43
$GNGGA,035327.000,2500.8072452,N,12132.4771041,E,1,57,0.50,17.528,M,15.25,M,1,3335*42
$GNRMC,035327.000,A,2500.8072452,N,12132.4771041,E,1.79,319.00,150623,,,A,V*07
$GPHDT,,T*1B
$GNGGA,035327.200,2500.8073172,N,12132.4770201,E,1,57,0.50,17.553,M,15.25,M,1,3335*4D
$GNRMC,035327.200,A,2500.8073172,N,12132.4770201,E,1.87,315.55,150623,,,A,V*09
$GPHDT,,T*1B
$GNGGA,035327.400,2500.8073952,N,12132.4769541,E,1,57,0.50,17.576,M,15.25,M,1,3335*4D
$GNRMC,035327.400,A,2500.8073952,N,12132.4769541,E,1.96,322.37,150623,,,A,V*0E
$GPHDT,,T*1B
$GNGGA,035327.600,2500.8074792,N,12132.4768881,E,1,57,0.50,17.595,M,15.25,M,0,3335*46
$GNRMC,035327.600,A,2500.8074792,N,12132.4768881,E,1.88,322.73,150623,,,A,V*06
$GPHDT,,T*1B
$GNGGA,035327.800,2500.8075632,N,12132.4768101,E,1,57,0.50,17.621,M,15.25,M,0,3335*4F
$GNRMC,035327.800,A,2500.8075632,N,12132.4768101,E,1.91,319.70,150623,,,A,V*00
$GPHDT,,T*1B
$GNGSA,A,3,195,17,199,196,19,06,194,14,03,09,,,0.83,0.50,0.66,1*06
$GNGSA,A,3,71,76,86,72,85,75,,,,,,,0.83,0.50,0.66,2*0F
$GNGSA,A,3,13,27,21,15,08,,,,,,,,0.83,0.50,0.66,3*05
$GNGSA,A,3,07,40,38,10,08,22,44,13,12,35,21,24,0.83,0.50,0.66,4*09
$GNGSA,A,3,19,26,,,,,,,,,,,0.83,0.50,0.66,4*06
$GPGSV,4,1,13,195,66,039,42,17,62,032,42,199,60,167,30,196,57,132,38,1*54
$GPGSV,4,2,13,19,52,349,43,06,49,310,34,194,49,168,34,14,45,180,25,1*5B
$GPGSV,4,3,13,03,25,040,25,09,23,126,28,11,19,267,25,04,18,093,23,1*6B
$GPGSV,4,4,13,20,13,220,18,1*5F
$GPGSV,3,1,09,195,66,039,45,199,60,167,34,196,57,132,41,194,49,168,30,8*64
$GPGSV,3,2,09,06,49,310,36,14,45,180,26,03,25,040,28,09,23,126,36,8*62
$GPGSV,3,3,09,04,18,093,30,8*50
$GLGSV,2,1,07,71,46,100,40,76,40,253,25,86,39,008,41,72,28,160,27,1*7F
$GLGSV,2,2,07,70,23,043,15,85,20,058,23,75,15,194,18,1*4A
$GAGSV,2,1,07,13,53,336,25,27,51,195,20,21,50,290,30,15,29,044,20,7*7F
$GAGSV,2,2,07,08,26,120,26,26,23,275,25,07,11,171,23,7*4C
$GAGSV,2,1,06,13,53,336,25,27,51,195,19,21,50,290,25,15,29,044,20,1*76
$GAGSV,2,2,06,08,26,120,24,26,23,275,27,1*7A
$GBGSV,4,1,14,07,84,307,39,40,80,063,41,38,72,270,37,10,69,312,36,1*7B
$GBGSV,4,2,14,08,60,249,28,22,55,101,43,44,52,355,46,13,48,240,30,1*74
$GBGSV,4,3,14,12,40,325,25,35,37,068,39,21,34,177,25,24,30,252,28,1*7E
$GBGSV,4,4,14,19,20,046,22,26,19,201,23,1*75
$GBGSV,3,1,09,40,80,063,44,38,72,270,36,22,55,101,38,44,52,355,44,4*70
$GBGSV,3,2,09,35,37,068,40,21,34,177,26,24,30,252,28,19,20,046,21,4*73
$GBGSV,3,3,09,26,19,201,13,4*47
$GNGGA,035328.000,2500.8076352,N,12132.4767261,E,1,57,0.50,17.650,M,15.25,M,1,3335*45
$GNRMC,035328.000,A,2500.8076352,N,12132.4767261,E,1.96,317.78,150623,,,A,V*0C
$GPHDT,,T*1B
$GNGGA,035328.200,2500.8077132,N,12132.4766481,E,1,56,0.50,17.670,M,15.25,M,1,3335*48
$GNRMC,035328.200,A,2500.8077132,N,12132.4766481,E,1.92,314.38,150623,,,A,V*01
$GPHDT,,T*1B
$GNGGA,035328.400,2500.8077972,N,12132.4765881,E,1,56,0.50,17.689,M,15.25,M,1,3335*4B
$GNRMC,035328.400,A,2500.8077972,N,12132.4765881,E,1.86,313.73,150623,,,A,V*09
$GPHDT,,T*1B
$GNGGA,035328.600,2500.8078812,N,12132.4765521,E,1,54,0.50,17.717,M,15.25,M,1,3335*42
$GNRMC,035328.600,A,2500.8078812,N,12132.4765521,E,1.69,321.05,150623,,,A,V*05
$GPHDT,,T*1B
$GNGGA,035328.800,2500.8079472,N,12132.4764681,E,1,55,0.50,17.744,M,15.25,M,0,3335*49
$GNRMC,035328.800,A,2500.8079472,N,12132.4764681,E,1.72,318.31,150623,,,A,V*0F
$GPHDT,,T*1B
$GNGSA,A,3,195,17,199,196,19,06,194,03,09,14,,,0.83,0.50,0.66,1*06
$GNGSA,A,3,71,76,86,72,85,75,,,,,,,0.83,0.50,0.66,2*0F
$GNGSA,A,3,13,27,21,15,08,,,,,,,,0.83,0.50,0.66,3*05
$GNGSA,A,3,07,40,38,10,08,22,44,13,12,35,21,24,0.83,0.50,0.66,4*09
$GNGSA,A,3,19,26,,,,,,,,,,,0.83,0.50,0.66,4*06
$GPGSV,4,1,13,195,66,039,42,17,62,032,42,199,60,167,26,196,57,132,37,1*5C
$GPGSV,4,2,13,19,52,349,40,06,49,310,37,194,49,168,25,14,45,180,23,1*5D
$GPGSV,4,3,13,03,25,040,27,09,23,126,26,11,19,267,25,04,18,093,22,1*66
$GPGSV,4,4,13,20,13,220,17,1*50
$GPGSV,3,1,10,195,66,039,45,199,60,167,34,196,57,132,42,06,49,310,34,8*5C
$GPGSV,3,2,10,194,49,168,35,14,45,180,23,03,25,040,29,09,23,126,36,8*5A
$GPGSV,3,3,10,11,19,267,33,04,18,093,25,8*67
$GLGSV,2,1,07,71,46,100,39,76,40,253,26,86,39,008,33,72,28,160,28,1*78
$GLGSV,2,2,07,70,23,043,16,85,20,058,24,75,15,194,18,1*4E
$GAGSV,2,1,07,13,53,336,24,27,51,195,22,21,50,290,29,15,29,044,20,7*74
$GAGSV,2,2,07,08,26,120,26,26,23,275,27,07,11,171,20,7*4D
$GAGSV,2,1,06,13,53,336,23,27,51,195,22,21,50,290,28,15,29,044,23,1*76
$GAGSV,2,2,06,08,26,120,27,26,23,275,34,1*7B
$GBGSV,4,1,14,07,84,306,37,40,80,063,42,38,72,270,29,10,69,312,33,1*7D
$GBGSV,4,2,14,08,60,249,28,22,55,101,41,44,52,355,38,13,48,240,31,1*7E
$GBGSV,4,3,14,12,40,325,35,35,37,068,36,21,34,177,24,24,30,252,28,1*71
$GBGSV,4,4,14,19,20,046,24,26,19,201,21,1*71
$GBGSV,2,1,08,40,80,063,44,38,72,270,35,22,55,101,40,44,52,355,43,4*7B
$GBGSV,2,2,08,35,37,068,36,21,34,177,23,24,30,252,28,19,20,046,21,4*77
$GNGGA,035329.000,2500.8080192,N,12132.4763781,E,1,55,0.50,17.769,M,15.25,M,1,3335*45
$GNRMC,035329.000,A,2500.8080192,N,12132.4763781,E,1.87,320.16,150623,,,A,V*09
$GPHDT,,T*1B
$GNGGA,035329.200,2500.8080732,N,12132.4763181,E,1,55,0.50,17.799,M,15.25,M,1,3335*42
$GNRMC,035329.200,A,2500.8080732,N,12132.4763181,E,1.73,322.27,150623,,,A,V*0A
$GPHDT,,T*1B
$GNGGA,035329.400,2500.8081512,N,12132.4762341,E,1,55,0.49,17.823,M,15.25,M,1,3335*4C
$GNRMC,035329.400,A,2500.8081512,N,12132.4762341,E,1.83,320.79,150623,,,A,V*04
$GPHDT,,T*1B
$GNGGA,035329.600,2500.8082352,N,12132.4761501,E,1,57,0.49,17.852,M,15.25,M,1,3335*4A
$GNRMC,035329.600,A,2500.8082352,N,12132.4761501,E,1.96,326.15,150623,,,A,V*0E
$GPHDT,,T*1B
$GNGGA,035329.800,2500.8083312,N,12132.4761081,E,1,55,0.50,17.883,M,15.25,M,0,3335*4B
$GNRMC,035329.800,A,2500.8083312,N,12132.4761081,E,1.94,332.79,150623,,,A,V*05
$GPHDT,,T*1B
$GNGSA,A,3,195,17,199,196,19,06,194,14,03,09,,,0.81,0.49,0.65,1*0F
$GNGSA,A,3,71,76,86,72,70,85,75,,,,,,0.81,0.49,0.65,2*01
$GNGSA,A,3,13,27,21,15,08,,,,,,,,0.81,0.49,0.65,3*0C
$GNGSA,A,3,07,40,38,10,08,22,44,13,12,35,21,24,0.81,0.49,0.65,4*00
$GNGSA,A,3,19,26,,,,,,,,,,,0.81,0.49,0.65,4*0F
$GPGSV,4,1,13,195,66,039,42,17,62,032,45,199,60,167,22,196,57,132,36,1*5E
$GPGSV,4,2,13,19,52,349,33,06,49,310,37,194,49,168,28,14,45,180,23,1*54
$GPGSV,4,3,13,03,25,040,33,09,23,126,25,11,19,267,36,04,18,093,21,1*61
$GPGSV,4,4,13,20,13,220,18,1*5F
$GPGSV,3,1,10,195,66,039,46,199,60,167,30,196,57,132,41,194,49,168,33,8*68
$GPGSV,3,2,10,06,49,310,39,14,45,180,27,03,25,040,32,09,23,126,32,8*6B
$GPGSV,3,3,10,11,19,267,33,04,18,093,22,8*60
$GLGSV,2,1,07,71,46,100,33,76,40,253,25,86,39,008,31,72,28,160,30,1*7A
$GLGSV,2,2,07,70,23,043,18,85,20,058,22,75,15,194,20,1*4D
$GAGSV,2,1,07,13,53,336,39,27,51,195,18,21,50,290,31,15,29,044,21,7*79
$GAGSV,2,2,07,08,26,120,21,26,23,275,30,07,11,171,20,7*4C
$GAGSV,2,1,05,27,51,195,24,21,50,290,36,15,29,044,25,08,26,120,37,1*72
$GAGSV,2,2,05,26,23,275,26,1*41
$GBGSV,4,1,14,07,84,306,30,40,80,063,43,38,72,270,31,10,69,312,32,1*73
$GBGSV,4,2,14,08,60,249,29,22,55,101,41,44,52,355,42,13,48,241,31,1*73
$GBGSV,4,3,14,12,40,326,30,35,37,068,38,21,34,177,26,24,30,252,28,1*7B
$GBGSV,4,4,14,19,20,046,21,26,19,201,20,1*75
$GBGSV,2,1,08,40,80,063,43,38,72,270,33,22,55,101,37,44,52,355,40,4*79
$GBGSV,2,2,08,35,37,068,34,21,34,177,22,24,30,252,30,19,20,046,22,4*7E
$GNGGA,035330.000,2500.8084332,N,12132.4760481,E,1,56,0.49,17.915,M,15.25,M,1,3335*4F
$GNRMC,035330.000,A,2500.8084332,N,12132.4760481,E,1.89,328.35,150623,,,A,V*0A
$GPHDT,,T*1B
$GNGGA,035330.200,2500.8085112,N,12132.4759461,E,1,57,0.49,17.946,M,15.25,M,1,3335*4F
$GNRMC,035330.200,A,2500.8085112,N,12132.4759461,E,1.97,324.98,150623,,,A,V*09
$GPHDT,,T*1B
$GNGGA,035330.400,2500.8085952,N,12132.4758561,E,1,57,0.49,17.984,M,15.25,M,1,3335*4B
$GNRMC,035330.400,A,2500.8085952,N,12132.4758561,E,2.03,323.88,150623,,,A,V*0B
$GPHDT,,T*1B
$GNGGA,035330.600,2500.8086852,N,12132.4757301,E,1,56,0.49,18.023,M,15.25,M,0,3335*4F
$GNRMC,035330.600,A,2500.8086852,N,12132.4757301,E,2.22,318.30,150623,,,A,V*0C
$GPHDT,,T*1B
$GNGGA,035330.800,2500.8087932,N,12132.4756461,E,1,57,0.49,18.053,M,15.25,M,0,3335*41
$GNRMC,035330.800,A,2500.8087932,N,12132.4756461,E,2.30,326.36,150623,,,A,V*0C
$GPHDT,,T*1B
$GNGSA,A,3,195,17,199,196,19,06,194,03,09,14,,,0.81,0.49,0.65,1*0F
$GNGSA,A,3,71,76,86,72,70,85,75,,,,,,0.81,0.49,0.65,2*01
$GNGSA,A,3,13,27,21,15,08,,,,,,,,0.81,0.49,0.65,3*0C
$GNGSA,A,3,07,40,38,10,08,22,44,13,12,35,21,24,0.81,0.49,0.65,4*00
$GNGSA,A,3,19,26,,,,,,,,,,,0.81,0.49,0.65,4*0F
$GPGSV,4,1,13,195,66,039,42,17,62,032,44,199,60,167,21,196,57,132,37,1*5D
$GPGSV,4,2,13,19,52,349,31,06,49,310,28,194,49,168,29,14,45,180,22,1*58
$GPGSV,4,3,13,03,25,040,41,09,23,126,24,11,19,267,29,04,18,093,24,1*6E
$GPGSV,4,4,13,20,13,220,19,1*5E
$GPGSV,3,1,10,195,66,039,46,199,60,167,37,196,57,132,38,06,49,310,40,8*52
$GPGSV,3,2,10,194,49,168,28,14,45,180,24,03,25,040,40,09,23,126,31,8*59
$GPGSV,3,3,10,11,19,267,31,04,18,093,27,8*67
$GLGSV,2,1,07,71,46,100,30,76,40,253,25,86,39,008,39,72,28,160,28,1*78
$GLGSV,2,2,07,70,23,043,18,85,20,058,20,75,15,194,19,1*45
$GAGSV,2,1,07,13,53,336,23,27,51,195,21,21,50,290,36,15,29,044,34,7*7B
$GAGSV,2,2,07,08,26,120,24,26,23,275,28,07,11,171,20,7*40
$GAGSV,2,1,06,13,53,336,29,27,51,195,24,21,50,290,37,15,29,044,27,1*70
$GAGSV,2,2,06,08,26,120,29,26,23,275,34,1*75
$GBGSV,4,1,14,07,84,306,29,40,80,063,41,38,72,270,35,10,69,312,31,1*7E
$GBGSV,4,2,14,08,60,249,25,22,55,101,40,44,52,355,42,13,48,241,29,1*77
$GBGSV,4,3,14,12,40,326,25,35,37,068,35,21,34,177,26,24,30,252,27,1*7D
$GBGSV,4,4,14,19,20,046,23,26,19,201,21,1*76
$GBGSV,2,1,08,40,80,063,44,38,72,270,39,22,55,101,42,44,52,355,43,4*75
$GBGSV,2,2,08,35,37,068,32,21,34,177,19,24,30,252,27,19,20,046,23,4*77
$GNGGA,035331.000,2500.8089132,N,12132.4755621,E,1,56,0.49,18.076,M,15.25,M,1,3335*4C
$GNRMC,035331.000,A,2500.8089132,N,12132.4755621,E,2.44,329.88,150623,,,A,V*0F
$PAIR010,0,0,2266,359629*39
$GPHDT,,T*1B
$GNGGA,035331.200,2500.8090032,N,12132.4754781,E,1,57,0.49,18.110,M,15.25,M,1,3335*4D
$GNRMC,035331.200,A,2500.8090032,N,12132.4754781,E,2.29,327.36,150623,,,A,V*0E
$GPHDT,,T*1B
$GNGGA,035331.400,2500.8091352,N,12132.4753881,E,1,57,0.49,18.148,M,15.25,M,1,3335*4A
$GNRMC,035331.400,A,2500.8091352,N,12132.4753881,E,2.52,331.36,150623,,,A,V*0F
$GPHDT,,T*1B
$GNGGA,035331.600,2500.8092492,N,12132.4753101,E,1,57,0.49,18.179,M,15.25,M,0,3335*42
$GNRMC,035331.600,A,2500.8092492,N,12132.4753101,E,2.34,324.32,150623,,,A,V*04
$GPHDT,,T*1B
