$FW : RTK35X,V1.1X0314AS,Lib20210517,1*54
$Tool : LOCOSYS , GNSS Firebird , v1.0.0.19*39
$---------------------------------------------------*2D
05,147.83,090324,,,R,V*19
$GPHDT,5.308,T*3B
$GNACCURACY,5.4*17
$GNGGA,031549.300,2500.7755600,N,12132.4580545,E,4,44,0.67,16.762,M,15.25,M,1,3335*40
$GNRMC,031549.300,A,2500.7755600,N,12132.4580545,E,0.05,147.83,090324,,,R,V*1F
$GPHDT,,T*1B
$GNACCURACY,5.4*17
$GNGGA,031549.400,2500.7755571,N,12132.4580588,E,4,44,0.67,16.733,M,15.25,M,1,3335*47
$GNRMC,031549.400,A,2500.7755571,N,12132.4580588,E,0.05,147.83,090324,,,R,V*1C
$GPHDT,4.489,T*34
$GNACCURACY,5.4*17
$GNGGA,031549.500,2500.7755586,N,12132.4580572,E,4,44,0.67,16.738,M,15.25,M,1,3335*40
$GNRMC,031549.500,A,2500.7755586,N,12132.4580572,E,0.05,147.83,090324,,,R,V*10
$GPHDT,,T*1B
$GNACCURACY,5.4*17
$GNGGA,031549.600,2500.7755663,N,12132.4580534,E,4,44,0.67,16.739,M,15.25,M,0,3335*49
$GNRMC,031549.600,A,2500.7755663,N,12132.4580534,E,0.04,147.83,090324,,,R,V*18
$GPHDT,5.079,T*3E
$GNACCURACY,5.4*17
$GNGGA,031549.700,2500.7755479,N,12132.4580655,E,4,44,0.67,16.765,M,15.25,M,0,3335*4C
$GNRMC,031549.700,A,2500.7755479,N,12132.4580655,E,0.16,147.83,090324,,,R,V*17
$GPHDT,,T*1B
$GNACCURACY,5.4*17
$GNGGA,031549.800,2500.7755642,N,12132.4580464,E,4,44,0.67,16.732,M,15.25,M,0,3335*4B
$GNRMC,031549.800,A,2500.7755642,N,12132.4580464,E,0.15,147.83,090324,,,R,V*11
$GPHDT,5.282,T*38
$GNACCURACY,5.4*17
$GNGGA,031549.900,2500.7755529,N,12132.4580638,E,4,44,0.67,16.767,M,15.25,M,0,3335*4F
$GNRMC,031549.900,A,2500.7755529,N,12132.4580638,E,0.13,147.83,090324,,,R,V*13
$GPHDT,,T*1B
$GNACCURACY,5.4*17
$GNGGA,031550.000,2500.7755535,N,12132.4580617,E,4,44,0.67,16.760,M,15.25,M,1,3335*48
$GNRMC,031550.000,A,2500.7755535,N,12132.4580617,E,0.10,147.83,090324,,,R,V*11
$GPHDT,4.639,T*3D
$GNGSA,A,3,08,194,195,27,16,04,09,07,26,,,,1.18,0.67,0.97,1*03
$GNGSA,A,3,88,78,77,87,,,,,,,,,1.18,0.67,0.97,2*05
$GNGSA,A,3,21,27,15,,,,,,,,,,1.18,0.67,0.97,3*06
$GNGSA,A,3,06,16,43,09,39,40,23,11,10,25,34,28,1.18,0.67,0.97,4*08
$GPGSV,4,1,13,08,72,285,41,199,67,163,,194,63,045,41,195,56,125,31,1*57
$GPGSV,4,2,13,27,55,025,41,16,37,049,38,04,36,221,37,21,34,172,29,1*6D
$GPGSV,4,3,13,09,31,273,31,196,22,174,,07,21,320,34,26,19,079,36,1*57
$GPGSV,4,4,13,31,,,24,1*62
$GPGSV,2,1,07,08,72,285,43,194,63,045,42,195,56,125,37,27,55,025,44,8*6C
$GPGSV,2,2,07,04,36,221,36,09,31,273,29,26,19,079,38,8*50
$GLGSV,2,1,05,88,72,098,40,78,42,358,29,77,34,078,30,87,26,032,29,1*78
$GLGSV,2,2,05,79,,,29,1*78
$GAGSV,1,1,04,21,50,342,39,27,35,057,38,15,24,053,35,04,08,316,30,7*7D
$GAGSV,1,1,03,21,50,342,44,27,35,057,38,15,24,053,33,1*4B
$GBGSV,4,1,13,06,84,237,40,16,82,185,41,43,77,081,43,09,74,310,41,1*79
$GBGSV,4,2,13,39,70,172,33,40,67,311,42,07,63,289,36,23,57,350,44,1*7A
$GBGSV,4,3,13,11,53,050,41,10,52,273,33,25,49,089,47,28,34,206,,1*74
$GBGSV,4,4,13,34,30,042,35,1*40
$GBGSV,2,1,07,43,77,081,45,39,70,172,35,40,67,311,41,23,57,350,45,4*70
$GBGSV,2,2,07,25,49,089,42,28,34,206,23,34,30,042,28,4*49
$GNACCURACY,5.4*17
$PAIRSAT,1,19,4,0,21,7,0,1,8,0,21,9,0,21,14,0,200,15,0,200,16,0,201,17,0,200,18,0,200,19,0,200,20,0,200,21,0,200,22,0,200,26,0,21,27,0,21,194,0,421,195,0,221,196,0,200,199,0,200*63
$PAIRSAT,2,10,70,0,200,71,0,200,77,0,1,78,0,1,83,0,200,84,0,200,85,0,200,86,0,200,87,0,201,88,0,201*7A
$PAIRSAT,3,10,2,0,1000,3,0,1000,4,0,1000,15,0,21,21,0,221,25,0,1200,26,0,1200,27,0,1221,30,0,1200,31,0,1000*7A
$PAIRSAT,4,42,1,0,200,2,0,200,3,0,400,4,0,200,5,0,200,6,0,201,7,0,200,9,0,1,10,0,1,11,0,1,16,0,1,19,0,400,20,0,400,21,0,400,22,0,400,23,0,421,24,0,600,25,0,621,26,0,600,27,0,400,28,0,621,29,0,600,30,0,600,32,0,400,33,0,400,34,0,421,35,0,400,36,0,400,37,0,400,38,0,400,39,0,421,40,0,421,41,0,400,42,0,400,43,0,421,44,0,400,45,0,400,46,0,400,59,0,400,60,0,400,61,0,400,62,0,400*73
$PAIRDGP,0*45
$GNGGA,031550.100,2500.7755574,N,12132.4580610,E,4,44,0.67,16.751,M,15.25,M,1,3335*49
$GNRMC,031550.100,A,2500.7755574,N,12132.4580610,E,0.10,147.83,090324,,,R,V*12
$GPHDT,,T*1B
$GNACCURACY,5.4*17
$GNGGA,031550.200,2500.7755603,N,12132.4580610,E,4,44,0.67,16.764,M,15.25,M,1,3335*4F
$GNRMC,031550.200,A,2500.7755603,N,12132.4580610,E,0.10,147.83,090324,,,R,V*12
$GPHDT,4.823,T*38
$GNACCURACY,5.5*16
$GNGGA,031550.300,2500.7755548,N,12132.4580595,E,4,44,0.67,16.755,M,15.25,M,1,3335*4E
$GNRMC,031550.300,A,2500.7755548,N,12132.4580595,E,0.10,147.83,090324,,,R,V*11
$GPHDT,,T*1B
$GNACCURACY,5.4*17
$GNGGA,031550.400,2500.7755534,N,12132.4580614,E,4,44,0.67,16.754,M,15.25,M,1,3335*49
$GNRMC,031550.400,A,2500.7755534,N,12132.4580614,E,0.09,147.83,090324,,,R,V*1F
$GPHDT,4.573,T*30
$GNACCURACY,5.4*17
$GNGGA,031550.500,2500.7755563,N,12132.4580594,E,4,44,0.67,16.751,M,15.25,M,1,3335*44
$GNRMC,031550.500,A,2500.7755563,N,12132.4580594,E,0.08,147.83,090324,,,R,V*16
$GPHDT,,T*1B
$GNACCURACY,5.4*17
$GNGGA,031550.600,2500.7755626,N,12132.4580581,E,4,44,0.67,16.752,M,15.25,M,0,3335*43
$GNRMC,031550.600,A,2500.7755626,N,12132.4580581,E,0.07,147.83,090324,,,R,V*1C
$GPHDT,4.343,T*35
$GNACCURACY,5.4*17
$GNGGA,031550.700,2500.7755584,N,12132.4580600,E,4,44,0.67,16.758,M,15.25,M,0,3335*49
$GNRMC,031550.700,A,2500.7755584,N,12132.4580600,E,0.07,147.83,090324,,,R,V*1C
$GPHDT,,T*1B
$GNACCURACY,5.4*17
$GNGGA,031550.800,2500.7755603,N,12132.4580584,E,4,44,0.67,16.756,M,15.25,M,0,3335*4B
$GNRMC,031550.800,A,2500.7755603,N,12132.4580584,E,0.03,147.83,090324,,,R,V*14
$GPHDT,4.672,T*32
$GNACCURACY,5.4*17
$GNGGA,031550.900,2500.7755597,N,12132.4580581,E,4,44,0.67,16.761,M,15.25,M,0,3335*45
$GNRMC,031550.900,A,2500.7755597,N,12132.4580581,E,0.03,147.83,090324,,,R,V*1E
$GPHDT,,T*1B
$GNACCURACY,5.3*10
$GNGGA,031551.000,2500.7755630,N,12132.4580566,E,4,44,0.67,16.785,M,15.25,M,1,3335*41
$GNRMC,031551.000,A,2500.7755630,N,12132.4580566,E,0.01,147.83,090324,,,R,V*13
$GPHDT,4.179,T*3E
$GNGSA,A,3,08,194,195,27,16,04,09,07,26,,,,1.18,0.67,0.97,1*03
$GNGSA,A,3,88,78,77,87,,,,,,,,,1.18,0.67,0.97,2*05
$GNGSA,A,3,21,27,15,,,,,,,,,,1.18,0.67,0.97,3*06
$GNGSA,A,3,06,16,43,09,39,40,23,11,10,25,34,28,1.18,0.67,0.97,4*08
$GPGSV,4,1,13,08,72,285,42,199,67,163,,194,63,045,41,195,56,125,33,1*56
$GPGSV,4,2,13,27,55,025,41,16,37,049,37,04,36,221,37,21,34,172,28,1*63
$GPGSV,4,3,13,09,31,273,30,196,22,174,,07,21,320,34,26,19,079,35,1*55
$GPGSV,4,4,13,31,,,24,1*62
$GPGSV,2,1,07,08,72,285,44,194,63,045,42,195,56,125,37,27,55,025,45,8*6A
$GPGSV,2,2,07,04,36,221,37,09,31,273,28,26,19,079,39,8*51
$GLGSV,2,1,05,88,72,098,40,78,42,358,29,77,34,078,28,87,26,032,29,1*71
$GLGSV,2,2,05,79,,,27,1*76
$GAGSV,1,1,04,21,50,342,39,27,35,057,38,15,24,053,35,04,08,316,29,7*75
$GAGSV,1,1,03,21,50,342,44,27,35,057,39,15,24,053,36,1*4F
$GBGSV,4,1,13,06,84,237,40,16,82,185,41,43,77,081,43,09,74,310,41,1*79
$GBGSV,4,2,13,39,70,172,32,40,67,311,42,07,63,289,37,23,57,350,44,1*7A
$GBGSV,4,3,13,11,53,050,41,10,52,273,34,25,49,089,47,28,34,206,,1*73
$GBGSV,4,4,13,34,30,042,35,1*40
$GBGSV,2,1,07,43,77,081,45,39,70,172,36,40,67,311,41,23,57,350,45,4*73
$GBGSV,2,2,07,25,49,089,42,28,34,206,22,34,30,042,30,4*41
$GNACCURACY,5.3*10
$PAIRSAT,1,19,4,0,21,7,0,1,8,0,21,9,0,21,14,0,200,15,0,200,16,0,201,17,0,200,18,0,200,19,0,200,20,0,200,21,0,200,22,0,200,26,0,21,27,0,21,194,0,421,195,0,221,196,0,200,199,0,200*63
$PAIRSAT,2,10,70,0,200,71,0,200,77,0,1,78,0,1,83,0,200,84,0,200,85,0,200,86,0,200,87,0,201,88,0,201*7A
$PAIRSAT,3,10,2,0,1000,3,0,1000,4,0,1000,15,0,21,21,0,221,25,0,1200,26,0,1200,27,0,1221,30,0,1200,31,0,1000*7A
$PAIRSAT,4,43,1,0,200,2,0,200,3,0,400,4,0,200,5,0,200,6,0,201,7,0,200,8,0,200,9,0,1,10,0,1,11,0,1,16,0,1,19,0,400,20,0,400,21,0,400,22,0,400,23,0,421,24,0,600,25,0,621,26,0,600,27,0,400,28,0,621,29,0,600,30,0,600,32,0,400,33,0,400,34,0,421,35,0,400,36,0,400,37,0,400,38,0,400,39,0,421,40,0,421,41,0,400,42,0,400,43,0,421,44,0,400,45,0,400,46,0,400,59,0,400,60,0,400,61,0,400,62,0,400*64
$PAIRDGP,0*45
$GNGGA,031551.100,2500.7755606,N,12132.4580563,E,4,44,0.67,16.770,M,15.25,M,1,3335*4A
$GNRMC,031551.100,A,2500.7755606,N,12132.4580563,E,0.04,147.83,090324,,,R,V*17
$GPHDT,,T*1B
$GNACCURACY,5.3*10
$GNGGA,031551.200,2500.7755579,N,12132.4580592,E,4,44,0.67,16.769,M,15.25,M,1,3335*44
$GNRMC,031551.200,A,2500.7755579,N,12132.4580592,E,0.03,147.83,090324,,,R,V*16
$GPHDT,4.932,T*39
$GNACCURACY,5.3*10
$GNGGA,031551.300,2500.7755607,N,12132.4580560,E,4,44,0.67,16.765,M,15.25,M,1,3335*4E
$GNRMC,031551.300,A,2500.7755607,N,12132.4580560,E,0.03,147.83,090324,,,R,V*10
$GPHDT,,T*1B
$GNACCURACY,5.3*10
$GNGGA,031551.400,2500.7755604,N,12132.4580577,E,4,44,0.67,16.757,M,15.25,M,1,3335*4D
$GNRMC,031551.400,A,2500.7755604,N,12132.4580577,E,0.02,147.83,090324,,,R,V*13
$GPHDT,5.089,T*31
$GNACCURACY,5.3*10
$GNGGA,031551.500,2500.7755612,N,12132.4580587,E,4,44,0.67,16.765,M,15.25,M,1,3335*45
$GNRMC,031551.500,A,2500.7755612,N,12132.4580587,E,0.03,147.83,090324,,,R,V*1B
$GPHDT,,T*1B
$GNACCURACY,5.2*11
$GNGGA,031551.600,2500.7755566,N,12132.4580617,E,4,44,0.67,16.771,M,15.25,M,0,3335*48
$GNRMC,031551.600,A,2500.7755566,N,12132.4580617,E,0.03,147.83,090324,,,R,V*12
$GPHDT,4.873,T*3D
$GNACCURACY,5.3*10
$GNGGA,031551.700,2500.7755569,N,12132.4580586,E,4,44,0.67,16.753,M,15.25,M,0,3335*4D
$GNRMC,031551.700,A,2500.7755569,N,12132.4580586,E,0.02,147.83,090324,,,R,V*16
$GPHDT,,T*1B
$GNACCURACY,5.3*10
$GNGGA,031551.800,2500.7755566,N,12132.4580586,E,4,44,0.67,16.753,M,15.25,M,0,3335*4D
$GNRMC,031551.800,A,2500.7755566,N,12132.4580586,E,0.03,147.83,090324,,,R,V*17
$GPHDT,5.014,T*35
$GNACCURACY,5.3*10
$GNGGA,031551.900,2500.7755556,N,12132.4580604,E,4,44,0.67,16.764,M,15.25,M,0,3335*42
$GNRMC,031551.900,A,2500.7755556,N,12132.4580604,E,0.05,147.83,090324,,,R,V*1A
$GPHDT,,T*1B
$GNACCURACY,5.3*10
$GNGGA,031552.000,2500.7755571,N,12132.4580603,E,4,44,0.67,16.767,M,15.25,M,1,3335*48
$GNRMC,031552.000,A,2500.7755571,N,12132.4580603,E,0.04,147.83,090324,,,R,V*13
$GPHDT,5.012,T*33
$GNGSA,A,3,08,194,195,27,16,04,09,07,26,,,,1.18,0.67,0.97,1*03
$GNGSA,A,3,88,78,77,87,,,,,,,,,1.18,0.67,0.97,2*05
$GNGSA,A,3,21,27,15,,,,,,,,,,1.18,0.67,0.97,3*06
$GNGSA,A,3,06,16,43,09,39,40,23,11,10,25,34,28,1.18,0.67,0.97,4*08
$GPGSV,4,1,13,08,72,285,41,199,67,163,,194,63,045,41,195,56,125,34,1*52
$GPGSV,4,2,13,27,55,025,41,16,37,049,39,04,36,221,37,21,34,172,28,1*6D
$GPGSV,4,3,13,09,31,273,30,196,22,174,,07,21,320,35,26,19,079,36,1*57
$GPGSV,4,4,13,31,,,27,1*61
$GPGSV,2,1,07,08,72,285,43,194,63,045,43,195,56,125,39,27,55,025,45,8*62
$GPGSV,2,2,07,04,36,221,36,09,31,273,29,26,19,079,38,8*50
$GLGSV,2,1,05,88,72,098,41,78,42,358,29,77,34,078,30,87,26,032,30,1*71
$GLGSV,2,2,05,79,,,29,1*78
$GAGSV,1,1,04,21,50,342,39,27,35,057,39,15,24,053,37,04,08,316,29,7*76
$GAGSV,1,1,03,21,50,342,44,27,35,057,39,15,24,053,35,1*4C
$GBGSV,4,1,13,06,84,237,40,16,82,185,41,43,77,081,43,09,74,310,41,1*79
$GBGSV,4,2,13,39,70,172,33,40,67,311,41,07,63,289,36,23,57,350,44,1*79
$GBGSV,4,3,13,11,53,050,41,10,52,273,32,25,49,089,47,28,34,206,,1*75
$GBGSV,4,4,13,34,30,042,37,1*42
$GBGSV,2,1,07,43,77,081,45,39,70,172,36,40,67,311,41,23,57,350,46,4*70
$GBGSV,2,2,07,25,49,089,43,28,34,206,21,34,30,042,30,4*43
$GNACCURACY,5.3*10
$PAIRSAT,1,19,4,0,21,7,0,1,8,0,21,9,0,21,14,0,200,15,0,200,16,0,201,17,0,200,18,0,200,19,0,200,20,0,200,21,0,200,22,0,200,26,0,21,27,0,21,194,0,421,195,0,221,196,0,200,199,0,200*63
$PAIRSAT,2,10,70,0,200,71,0,200,77,0,1,78,0,1,83,0,200,84,0,200,85,0,200,86,0,200,87,0,201,88,0,201*7A
$PAIRSAT,3,10,2,0,1000,3,0,1000,4,0,1000,15,0,21,21,0,221,25,0,1200,26,0,1200,27,0,1221,30,0,1200,31,0,1000*7A
$PAIRSAT,4,43,1,0,200,2,0,200,3,0,400,4,0,200,5,0,200,6,0,201,7,0,200,8,0,200,9,0,1,10,0,1,11,0,1,16,0,1,19,0,400,20,0,400,21,0,400,22,0,400,23,0,421,24,0,600,25,0,621,26,0,600,27,0,400,28,0,621,29,0,600,30,0,600,32,0,400,33,0,400,34,0,421,35,0,400,36,0,400,37,0,400,38,0,400,39,0,421,40,0,421,41,0,400,42,0,400,43,0,421,44,0,400,45,0,400,46,0,400,59,0,400,60,0,400,61,0,400,62,0,400*64
$PAIRDGP,0*45
$GNGGA,031552.100,2500.7755560,N,12132.4580597,E,4,44,0.67,16.766,M,15.25,M,1,3335*46
$GNRMC,031552.100,A,2500.7755560,N,12132.4580597,E,0.04,147.83,090324,,,R,V*1C
$GPHDT,,T*1B
$GNACCURACY,5.3*10
$GNGGA,031552.200,2500.7755557,N,12132.4580613,E,4,44,0.67,16.767,M,15.25,M,1,3335*4F
$GNRMC,031552.200,A,2500.7755557,N,12132.4580613,E,0.04,147.83,090324,,,R,V*14
$GPHDT,4.552,T*33
$GNACCURACY,5.3*10
$GNGGA,031552.300,2500.7755565,N,12132.4580603,E,4,44,0.67,16.755,M,15.25,M,1,3335*4F
$GNRMC,031552.300,A,2500.7755565,N,12132.4580603,E,0.04,147.83,090324,,,R,V*15
$GPHDT,,T*1B
$GNACCURACY,5.3*10
$GNGGA,031552.400,2500.7755563,N,12132.4580586,E,4,44,0.67,16.764,M,15.25,M,0,3335*43
$GNRMC,031552.400,A,2500.7755563,N,12132.4580586,E,0.03,147.83,090324,,,R,V*1D
$GPHDT,5.101,T*30
$GNACCURACY,5.3*10
$GNGGA,031552.500,2500.7755554,N,12132.4580604,E,4,44,0.67,16.762,M,15.25,M,0,3335*49
$GNRMC,031552.500,A,2500.7755554,N,12132.4580604,E,0.03,147.83,090324,,,R,V*11
$GPHDT,,T*1B
$GNACCURACY,5.3*10
$GNGGA,031552.600,2500.7755546,N,12132.4580593,E,4,44,0.67,16.755,M,15.25,M,0,3335*40
$GNRMC,031552.600,A,2500.7755546,N,12132.4580593,E,0.03,147.83,090324,,,R,V*1C
$GPHDT,4.707,T*31
$GNACCURACY,5.3*10
$GNGGA,031552.700,2500.7755572,N,12132.4580616,E,4,44,0.67,16.764,M,15.25,M,0,3335*4A
$GNRMC,031552.700,A,2500.7755572,N,12132.4580616,E,0.03,147.83,090324,,,R,V*14
$GPHDT,,T*1B
$GNACCURACY,5.3*10
$GNGGA,031552.800,2500.7755570,N,12132.4580594,E,4,44,0.67,16.759,M,15.25,M,0,3335*40
$GNRMC,031552.800,A,2500.7755570,N,12132.4580594,E,0.09,147.83,090324,,,R,V*1A
$GPHDT,4.768,T*38
$GNACCURACY,5.3*10
$GNGGA,031552.900,2500.7755574,N,12132.4580593,E,4,44,0.67,16.765,M,15.25,M,0,3335*4D
$GNRMC,031552.900,A,2500.7755574,N,12132.4580593,E,0.06,147.83,090324,,,R,V*17
$GPHDT,,T*1B
$GNACCURACY,5.3*10
$GNGGA,031553.000,2500.7755539,N,12132.4580574,E,4,44,0.67,16.747,M,15.25,M,1,3335*44
$GNRMC,031553.000,A,2500.7755539,N,12132.4580574,E,0.03,147.83,090324,,,R,V*1A
$GPHDT,5.100,T*31
$GNGSA,A,3,08,194,195,27,16,04,09,07,26,,,,1.18,0.67,0.97,1*03
$GNGSA,A,3,88,78,77,87,,,,,,,,,1.18,0.67,0.97,2*05
$GNGSA,A,3,21,27,15,,,,,,,,,,1.18,0.67,0.97,3*06
$GNGSA,A,3,06,16,43,09,39,40,23,11,10,25,34,28,1.18,0.67,0.97,4*08
$GPGSV,4,1,13,08,72,285,41,199,67,163,,194,63,045,41,195,56,125,34,1*52
$GPGSV,4,2,13,27,55,025,42,16,37,049,40,04,36,221,37,21,34,172,28,1*60
$GPGSV,4,3,13,09,31,273,30,196,22,174,,07,21,320,35,26,19,079,36,1*57
$GPGSV,4,4,13,31,,,27,1*61
$GPGSV,2,1,07,08,72,285,43,194,63,045,43,195,56,125,39,27,55,025,45,8*62
$GPGSV,2,2,07,04,36,221,35,09,31,273,29,26,19,079,37,8*5C
$GLGSV,2,1,05,88,72,098,41,78,42,358,29,77,34,078,30,87,26,032,30,1*71
$GLGSV,2,2,05,79,,,29,1*78
$GAGSV,1,1,04,21,50,342,39,27,35,057,39,15,24,053,37,04,08,316,30,7*7E
$GAGSV,1,1,04,21,50,342,44,27,35,057,38,15,24,053,34,04,08,316,22,1*73
$GBGSV,4,1,13,06,84,237,40,16,82,185,41,43,77,081,43,09,74,310,41,1*79
$GBGSV,4,2,13,39,70,172,33,40,67,311,41,07,63,289,35,23,57,350,44,1*7A
$GBGSV,4,3,13,11,53,050,41,10,52,273,32,25,49,089,47,28,34,206,,1*75
$GBGSV,4,4,13,34,30,042,37,1*42
$GBGSV,2,1,07,43,77,081,45,39,70,172,36,40,67,311,41,23,57,350,46,4*70
$GBGSV,2,2,07,25,49,089,43,28,34,206,20,34,30,042,30,4*42
$GNACCURACY,5.3*10
$PAIRSAT,1,19,4,0,21,7,0,1,8,0,21,9,0,21,14,0,200,15,0,200,16,0,201,17,0,200,18,0,200,19,0,200,20,0,200,21,0,200,22,0,200,26,0,21,27,0,21,194,0,421,195,0,221,196,0,200,199,0,200*63
$PAIRSAT,2,10,70,0,200,71,0,200,77,0,1,78,0,1,83,0,200,84,0,200,85,0,200,86,0,200,87,0,201,88,0,201*7A
$PAIRSAT,3,10,2,0,1000,3,0,1000,4,0,1000,15,0,21,21,0,221,25,0,1200,26,0,1200,27,0,1221,30,0,1200,31,0,1200*78
$PAIRSAT,4,43,1,0,200,2,0,200,3,0,400,4,0,200,5,0,200,6,0,201,7,0,200,8,0,200,9,0,1,10,0,1,11,0,1,16,0,1,19,0,400,20,0,400,21,0,400,22,0,400,23,0,421,24,0,600,25,0,621,26,0,600,27,0,400,28,0,621,29,0,600,30,0,600,32,0,400,33,0,400,34,0,421,35,0,400,36,0,400,37,0,400,38,0,400,39,0,421,40,0,421,41,0,400,42,0,400,43,0,421,44,0,400,45,0,400,46,0,400,59,0,400,60,0,400,61,0,400,62,0,400*64
$PAIRDGP,0*45
$GNGGA,031553.100,2500.7755556,N,12132.4580572,E,4,44,0.67,16.758,M,15.25,M,1,3335*44
$GNRMC,031553.100,A,2500.7755556,N,12132.4580572,E,0.02,147.83,090324,,,R,V*15
$GPHDT,,T*1B
$GNACCURACY,5.3*10
$GNGGA,031553.200,2500.7755547,N,12132.4580601,E,4,44,0.67,16.760,M,15.25,M,1,3335*4B
$GNRMC,031553.200,A,2500.7755547,N,12132.4580601,E,0.02,147.83,090324,,,R,V*11
$GPHDT,4.238,T*38
$GNACCURACY,5.3*10
$GNGGA,031553.300,2500.7755544,N,12132.4580588,E,4,44,0.67,16.757,M,15.25,M,1,3335*4F
$GNRMC,031553.300,A,2500.7755544,N,12132.4580588,E,0.02,147.83,090324,,,R,V*11
$GPHDT,,T*1B
$GNACCURACY,5.3*10
$GNGGA,031553.400,2500.7755540,N,12132.4580586,E,4,44,0.67,16.750,M,15.25,M,1,3335*45
$GNRMC,031553.400,A,2500.7755540,N,12132.4580586,E,0.01,147.83,090324,,,R,V*1F
$GPHDT,4.262,T*37
$GNACCURACY,5.3*10
$GNGGA,031553.500,2500.7755558,N,12132.4580594,E,4,44,0.67,16.764,M,15.25,M,1,3335*49
$GNRMC,031553.500,A,2500.7755558,N,12132.4580594,E,0.02,147.83,090324,,,R,V*17
$GPHDT,,T*1B
$GNACCURACY,5.3*10
$GNGGA,031553.600,2500.7755549,N,12132.4580577,E,4,44,0.67,16.740,M,15.25,M,1,3335*41
$GNRMC,031553.600,A,2500.7755549,N,12132.4580577,E,0.02,147.83,090324,,,R,V*19
$GPHDT,3.975,T*3D
$GNACCURACY,5.3*10
$GNGGA,031553.700,2500.7755561,N,12132.4580578,E,4,44,0.67,16.768,M,15.25,M,0,3335*4E
$GNRMC,031553.700,A,2500.7755561,N,12132.4580578,E,0.02,147.83,090324,,,R,V*1D
$GPHDT,,T*1B
$GNACCURACY,5.3*10
$GNGGA,031553.800,2500.7755563,N,12132.4580576,E,4,44,0.67,16.752,M,15.25,M,0,3335*44
$GNRMC,031553.800,A,2500.7755563,N,12132.4580576,E,0.06,147.83,090324,,,R,V*1A
$GPHDT,3.982,T*35
$GNACCURACY,5.3*10
$GNGGA,031553.900,2500.7755554,N,12132.4580593,E,4,44,0.67,16.758,M,15.25,M,0,3335*40
$GNRMC,031553.900,A,2500.7755554,N,12132.4580593,E,0.05,147.83,090324,,,R,V*17
$GPHDT,,T*1B
$GNACCURACY,5.3*10
$GNGGA,031554.000,2500.7755567,N,12132.4580589,E,4,44,0.67,16.757,M,15.25,M,1,3335*4B
$GNRMC,031554.000,A,2500.7755567,N,12132.4580589,E,0.08,147.83,090324,,,R,V*1F
$GPHDT,4.969,T*37
$GNGSA,A,3,08,194,195,27,16,04,09,07,26,,,,1.18,0.67,0.97,1*03
$GNGSA,A,3,88,78,77,87,,,,,,,,,1.18,0.67,0.97,2*05
$GNGSA,A,3,21,27,15,,,,,,,,,,1.18,0.67,0.97,3*06
$GNGSA,A,3,06,16,43,09,39,40,23,11,10,25,34,28,1.18,0.67,0.97,4*08
$GPGSV,4,1,13,08,72,285,41,199,67,163,,194,63,045,41,195,56,125,34,1*52
$GPGSV,4,2,13,27,55,025,42,16,37,049,40,04,36,221,37,21,34,172,28,1*60
$GPGSV,4,3,13,09,31,273,30,196,22,174,,07,21,320,35,26,19,079,36,1*57
$GPGSV,4,4,13,31,,,27,1*61
$GPGSV,2,1,07,08,72,285,43,194,63,045,43,195,56,125,39,27,55,025,45,8*62
$GPGSV,2,2,07,04,36,221,35,09,31,273,29,26,19,079,37,8*5C
$GLGSV,2,1,05,88,72,098,41,78,42,358,27,77,34,078,31,87,26,032,29,1*76
$GLGSV,2,2,05,79,,,29,1*78
$GAGSV,1,1,04,21,50,342,39,27,35,057,39,15,24,053,37,04,08,316,30,7*7E
$GAGSV,1,1,04,21,50,342,44,27,35,057,38,15,24,053,34,04,08,316,22,1*73
$GBGSV,4,1,13,06,84,237,40,16,82,185,41,43,77,081,43,09,74,310,41,1*79
$GBGSV,4,2,13,39,70,172,34,40,67,311,41,07,63,289,35,23,57,350,44,1*7D
$GBGSV,4,3,13,11,53,050,41,10,52,273,33,25,49,089,47,28,34,206,,1*74
$GBGSV,4,4,13,34,30,042,38,1*4D
$GBGSV,2,1,07,43,77,081,45,39,70,172,36,40,67,311,41,23,57,350,46,4*70
$GBGSV,2,2,07,25,49,089,43,28,34,206,20,34,30,042,29,4*4A
$GNACCURACY,5.3*10
$PAIRSAT,1,19,4,0,21,7,0,1,8,0,21,9,0,21,14,0,200,15,0,200,16,0,201,17,0,200,18,0,200,19,0,200,20,0,200,21,0,200,22,0,200,26,0,21,27,0,21,194,0,421,195,0,221,196,0,200,199,0,200*63
$PAIRSAT,2,10,70,0,200,71,0,200,77,0,1,78,0,1,83,0,200,84,0,200,85,0,200,86,0,200,87,0,201,88,0,201*7A
$PAIRSAT,3,10,2,0,1000,3,0,1000,4,0,1000,15,0,21,21,0,221,25,0,1200,26,0,1200,27,0,1221,30,0,1200,31,0,1200*78
$PAIRSAT,4,43,1,0,200,2,0,200,3,0,400,4,0,200,5,0,200,6,0,201,7,0,200,8,0,200,9,0,1,10,0,1,11,0,1,16,0,1,19,0,400,20,0,400,21,0,400,22,0,400,23,0,421,24,0,600,25,0,621,26,0,600,27,0,400,28,0,621,29,0,600,30,0,600,32,0,400,33,0,400,34,0,421,35,0,400,36,0,400,37,0,400,38,0,400,39,0,421,40,0,421,41,0,400,42,0,400,43,0,421,44,0,400,45,0,400,46,0,400,59,0,400,60,0,400,61,0,400,62,0,400*64
$PAIRDGP,0*45
$GNGGA,031554.100,2500.7755558,N,12132.4580593,E,4,44,0.67,16.767,M,15.25,M,1,3335*4E
$GNRMC,031554.100,A,2500.7755558,N,12132.4580593,E,0.06,147.83,090324,,,R,V*17
$GPHDT,,T*1B
$GNACCURACY,5.3*10
$GNGGA,031554.200,2500.7755556,N,12132.4580574,E,4,44,0.67,16.758,M,15.25,M,1,3335*46
$GNRMC,031554.200,A,2500.7755556,N,12132.4580574,E,0.05,147.83,090324,,,R,V*10
$GPHDT,4.881,T*30
$GNACCURACY,5.3*10
$GNGGA,031554.300,2500.7755539,N,12132.4580580,E,4,44,0.67,16.753,M,15.25,M,1,3335*4E
$GNRMC,031554.300,A,2500.7755539,N,12132.4580580,E,0.05,147.83,090324,,,R,V*13
$GPHDT,,T*1B
$GNACCURACY,5.3*10
$GNGGA,031554.400,2500.7755580,N,12132.4580582,E,4,44,0.67,16.758,M,15.25,M,1,3335*42
$GNRMC,031554.400,A,2500.7755580,N,12132.4580582,E,0.05,147.83,090324,,,R,V*14
$GPHDT,4.792,T*3D
$GNACCURACY,5.3*10
$GNGGA,031554.500,2500.7755568,N,12132.4580570,E,4,44,0.67,16.756,M,15.25,M,1,3335*46
$GNRMC,031554.500,A,2500.7755568,N,12132.4580570,E,0.05,147.83,090324,,,R,V*1E
$GPHDT,,T*1B
$GNACCURACY,5.3*10
$GNGGA,031554.600,2500.7755536,N,12132.4580572,E,4,44,0.67,16.749,M,15.25,M,0,3335*43
$GNRMC,031554.600,A,2500.7755536,N,12132.4580572,E,0.05,147.83,090324,,,R,V*14
$GPHDT,4.987,T*37
$GNACCURACY,5.3*10
$GNGGA,031554.700,2500.7755544,N,12132.4580591,E,4,44,0.67,16.762,M,15.25,M,0,3335*43
$GNRMC,031554.700,A,2500.7755544,N,12132.4580591,E,0.06,147.83,090324,,,R,V*1E
$GPHDT,,T*1B
$GNACCURACY,5.3*10
$GNGGA,031554.800,2500.7755561,N,12132.4580587,E,4,44,0.67,16.765,M,15.25,M,0,3335*4B
$GNRMC,031554.800,A,2500.7755561,N,12132.4580587,E,0.06,147.83,090324,,,R,V*11
$GPHDT,4.962,T*3C
$GNACCURACY,5.3*10
$GNGGA,031554.900,2500.7755569,N,12132.4580565,E,4,44,0.67,16.754,M,15.25,M,0,3335*4C
$GNRMC,031554.900,A,2500.7755569,N,12132.4580565,E,0.06,147.83,090324,,,R,V*14
$GPHDT,,T*1B
$GNACCURACY,5.3*10
$GNGGA,031555.000,2500.7755524,N,12132.4580566,E,4,44,0.67,16.752,M,15.25,M,1,3335*49
$GNRMC,031555.000,A,2500.7755524,N,12132.4580566,E,0.01,147.83,090324,,,R,V*11
$GPHDT,4.734,T*31
$GNGSA,A,3,08,194,195,27,16,04,09,07,26,,,,1.18,0.67,0.97,1*03
$GNGSA,A,3,88,78,77,87,,,,,,,,,1.18,0.67,0.97,2*05
$GNGSA,A,3,21,27,15,,,,,,,,,,1.18,0.67,0.97,3*06
$GNGSA,A,3,06,16,43,09,39,40,23,11,10,25,34,28,1.18,0.67,0.97,4*08
$GPGSV,4,1,13,08,72,285,41,199,67,163,,194,63,045,41,195,56,125,34,1*52
$GPGSV,4,2,13,27,55,025,42,16,37,049,40,04,36,221,37,21,34,172,28,1*60
$GPGSV,4,3,13,09,31,273,30,196,22,174,,07,21,320,35,26,19,079,36,1*57
$GPGSV,4,4,13,31,,,27,1*61
$GPGSV,2,1,07,08,72,285,43,194,63,045,43,195,56,125,39,27,55,025,45,8*62
$GPGSV,2,2,07,04,36,221,35,09,31,273,29,26,19,079,37,8*5C
$GLGSV,2,1,05,88,72,098,41,78,42,358,26,77,34,078,31,87,26,032,29,1*77
$GLGSV,2,2,05,79,,,29,1*78
$GAGSV,1,1,04,21,50,342,39,27,35,057,39,15,24,053,37,04,08,316,30,7*7E
$GAGSV,1,1,04,21,50,342,44,27,35,057,38,15,24,053,34,04,08,316,24,1*75
$GBGSV,4,1,13,06,84,237,40,16,82,185,41,43,77,081,43,09,74,310,41,1*79
$GBGSV,4,2,13,39,70,172,35,40,67,311,41,07,63,289,35,23,57,350,44,1*7C
$GBGSV,4,3,13,11,53,050,41,10,52,273,33,25,49,089,47,28,34,206,,1*74
$GBGSV,4,4,13,34,30,042,38,1*4D
$GBGSV,2,1,07,43,77,081,45,39,70,172,36,40,67,311,41,23,57,350,46,4*70
$GBGSV,2,2,07,25,49,089,43,28,34,206,20,34,30,042,29,4*4A
$GNACCURACY,5.3*10
$PAIRSAT,1,19,4,0,21,7,0,1,8,0,21,9,0,21,14,0,200,15,0,200,16,0,201,17,0,200,18,0,200,19,0,200,20,0,200,21,0,200,22,0,200,26,0,21,27,0,21,194,0,421,195,0,221,196,0,200,199,0,200*63
$PAIRSAT,2,10,70,0,200,71,0,200,77,0,1,78,0,1,83,0,200,84,0,200,85,0,200,86,0,200,87,0,201,88,0,201*7A
$PAIRSAT,3,10,2,0,1000,3,0,1000,4,0,1000,15,0,21,21,0,221,25,0,1200,26,0,1200,27,0,1221,30,0,1200,31,0,1200*78
$PAIRSAT,4,43,1,0,200,2,0,200,3,0,400,4,0,200,5,0,200,6,0,201,7,0,200,8,0,200,9,0,1,10,0,1,11,0,1,16,0,1,19,0,400,20,0,400,21,0,400,22,0,400,23,0,421,24,0,600,25,0,621,26,0,600,27,0,400,28,0,621,29,0,600,30,0,600,32,0,400,33,0,400,34,0,421,35,0,400,36,0,400,37,0,400,38,0,400,39,0,421,40,0,421,41,0,400,42,0,400,43,0,421,44,0,400,45,0,400,46,0,400,59,0,400,60,0,400,61,0,400,62,0,400*64
$PAIRDGP,0*45
$GNGGA,031555.100,2500.7755535,N,12132.4580564,E,4,44,0.67,16.743,M,15.25,M,1,3335*4A
$GNRMC,031555.100,A,2500.7755535,N,12132.4580564,E,0.03,147.83,090324,,,R,V*10
$GPHDT,,T*1B
$GNACCURACY,5.3*10
$GNGGA,031555.200,2500.7755526,N,12132.4580574,E,4,44,0.67,16.757,M,15.25,M,1,3335*4F
$GNRMC,031555.200,A,2500.7755526,N,12132.4580574,E,0.02,147.83,090324,,,R,V*11
$GPHDT,3.729,T*3A
$GNACCURACY,5.3*10
$GNGGA,031555.300,2500.7755531,N,12132.4580581,E,4,44,0.67,16.752,M,15.25,M,1,3335*47
$GNRMC,031555.300,A,2500.7755531,N,12132.4580581,E,0.03,147.83,090324,,,R,V*1D
$GPHDT,,T*1B
$GNACCURACY,5.3*10
$GNGGA,031555.400,2500.7755553,N,12132.4580571,E,4,44,0.67,16.750,M,15.25,M,1,3335*49
$GNRMC,031555.400,A,2500.7755553,N,12132.4580571,E,0.03,147.83,090324,,,R,V*11
$GPHDT,2.321,T*37
$GNACCURACY,5.3*10
$GNGGA,031555.500,2500.7755519,N,12132.4580587,E,4,44,0.67,16.749,M,15.25,M,1,3335*47
$GNRMC,031555.500,A,2500.7755519,N,12132.4580587,E,0.03,147.83,090324,,,R,V*17
$GPHDT,,T*1B
$GNACCURACY,5.3*10
$GNGGA,031555.600,2500.7755568,N,12132.4580593,E,4,44,0.67,16.758,M,15.25,M,1,3335*47
$GNRMC,031555.600,A,2500.7755568,N,12132.4580593,E,0.03,147.83,090324,,,R,V*17
$GPHDT,3.526,T*37
$GNACCURACY,5.3*10
$GNGGA,031555.700,2500.7755559,N,12132.4580619,E,4,44,0.67,16.765,M,15.25,M,0,3335*4A
$GNRMC,031555.700,A,2500.7755559,N,12132.4580619,E,0.02,147.83,090324,,,R,V*14
$GPHDT,,T*1B
$GNACCURACY,5.3*10
$GNGGA,031555.800,2500.7755570,N,12132.4580597,E,4,44,0.67,16.754,M,15.25,M,0,3335*49
$GNRMC,031555.800,A,2500.7755570,N,12132.4580597,E,0.02,147.83,090324,,,R,V*15
$GPHDT,4.626,T*33
$GNACCURACY,5.3*10
$GNGGA,031555.900,2500.7755564,N,12132.4580610,E,4,44,0.67,16.767,M,15.25,M,0,3335*41
$GNRMC,031555.900,A,2500.7755564,N,12132.4580610,E,0.02,147.83,090324,,,R,V*1D
$GPHDT,,T*1B
$GNACCURACY,5.4*17
$GNGGA,031556.000,2500.7755554,N,12132.4580598,E,4,44,0.67,16.750,M,15.25,M,1,3335*4E
$GNRMC,031556.000,A,2500.7755554,N,12132.4580598,E,0.01,147.83,090324,,,R,V*14
$GPHDT,4.777,T*36
$GNGSA,A,3,08,194,195,27,16,04,09,07,26,,,,1.18,0.67,0.97,1*03
$GNGSA,A,3,88,78,77,87,,,,,,,,,1.18,0.67,0.97,2*05
$GNGSA,A,3,21,27,15,,,,,,,,,,1.18,0.67,0.97,3*06
$GNGSA,A,3,06,16,43,09,39,40,23,11,10,25,34,28,1.18,0.67,0.97,4*08
$GPGSV,4,1,13,08,72,285,41,199,67,163,,194,63,045,41,195,56,125,34,1*52
$GPGSV,4,2,13,27,55,025,42,16,37,049,40,04,36,221,37,21,34,172,29,1*61
$GPGSV,4,3,13,09,31,273,30,196,22,174,,07,21,320,35,26,19,079,36,1*57
$GPGSV,4,4,13,31,,,27,1*61
$GPGSV,2,1,07,08,72,285,43,194,63,045,43,195,56,125,39,27,55,025,45,8*62
$GPGSV,2,2,07,04,36,221,35,09,31,273,28,26,19,079,37,8*5D
$GLGSV,2,1,05,88,72,098,41,78,42,358,26,77,34,079,30,87,26,032,29,1*77
$GLGSV,2,2,05,79,,,29,1*78
$GAGSV,1,1,04,21,50,342,39,27,35,057,39,15,24,053,37,04,08,316,29,7*76
$GAGSV,1,1,04,21,50,342,44,27,35,057,38,15,24,053,35,04,08,316,22,1*72
$GBGSV,4,1,13,06,84,237,40,16,82,185,41,43,77,081,43,09,74,310,41,1*79
$GBGSV,4,2,13,39,70,172,35,40,67,311,41,07,63,289,35,23,57,350,44,1*7C
$GBGSV,4,3,13,11,53,050,41,10,52,273,32,25,49,089,47,28,34,206,,1*75
$GBGSV,4,4,13,34,30,042,38,1*4D
$GBGSV,2,1,07,43,77,081,45,39,70,172,36,40,67,311,41,23,57,350,46,4*70
$GBGSV,2,2,07,25,49,089,43,28,34,206,21,34,30,042,29,4*4B
$GNACCURACY,5.4*17
$PAIRSAT,1,19,4,0,21,7,0,1,8,0,21,9,0,21,14,0,200,15,0,200,16,0,201,17,0,200,18,0,200,19,0,200,20,0,200,21,0,200,22,0,200,26,0,21,27,0,21,194,0,421,195,0,221,196,0,200,199,0,200*63
$PAIRSAT,2,10,70,0,200,71,0,200,77,0,1,78,0,1,83,0,200,84,0,200,85,0,200,86,0,200,87,0,201,88,0,201*7A
$PAIRSAT,3,10,2,0,1000,3,0,1000,4,0,1000,15,0,21,21,0,221,25,0,1200,26,0,1200,27,0,1221,30,0,1200,31,0,1200*78
$PAIRSAT,4,43,1,0,200,2,0,200,3,0,400,4,0,200,5,0,200,6,0,201,7,0,200,8,0,200,9,0,1,10,0,1,11,0,1,16,0,1,19,0,400,20,0,400,21,0,400,22,0,400,23,0,421,24,0,600,25,0,621,26,0,600,27,0,400,28,0,621,29,0,600,30,0,600,32,0,400,33,0,400,34,0,421,35,0,400,36,0,400,37,0,400,38,0,400,39,0,421,40,0,421,41,0,400,42,0,400,43,0,421,44,0,400,45,0,400,46,0,400,59,0,400,60,0,400,61,0,400,62,0,400*64
$PAIRDGP,0*45
$GNGGA,031556.100,2500.7755587,N,12132.4580594,E,4,44,0.67,16.770,M,15.25,M,1,3335*4F
$GNRMC,031556.100,A,2500.7755587,N,12132.4580594,E,0.00,147.83,090324,,,R,V*16
$GPHDT,,T*1B
$GNACCURACY,5.4*17
$GNGGA,031556.200,2500.7755578,N,12132.4580603,E,4,44,0.67,16.759,M,15.25,M,1,3335*4A
$GNRMC,031556.200,A,2500.7755578,N,12132.4580603,E,0.02,147.83,090324,,,R,V*1A
$GPHDT,4.626,T*33
$GNACCURACY,5.4*17
$GNGGA,031556.300,2500.7755579,N,12132.4580582,E,4,44,0.67,16.752,M,15.25,M,1,3335*4B
$GNRMC,031556.300,A,2500.7755579,N,12132.4580582,E,0.02,147.83,090324,,,R,V*10
$GPHDT,,T*1B
$GNACCURACY,5.4*17
$GNGGA,031556.400,2500.7755562,N,12132.4580616,E,4,44,0.67,16.763,M,15.25,M,1,3335*4A
$GNRMC,031556.400,A,2500.7755562,N,12132.4580616,E,0.02,147.83,090324,,,R,V*13
$GPHDT,4.615,T*33
$GNACCURACY,5.3*10
$GNGGA,031556.500,2500.7755558,N,12132.4580599,E,4,44,0.67,16.748,M,15.25,M,1,3335*4F
$GNRMC,031556.500,A,2500.7755558,N,12132.4580599,E,0.03,147.83,090324,,,R,V*1E
$GPHDT,,T*1B
$GNACCURACY,5.3*10
$GNGGA,031556.600,2500.7755564,N,12132.4580581,E,4,44,0.67,16.744,M,15.25,M,1,3335*46
$GNRMC,031556.600,A,2500.7755564,N,12132.4580581,E,0.03,147.83,090324,,,R,V*1B
$GPHDT,4.740,T*32
$GNACCURACY,5.4*17
$GNGGA,031556.700,2500.7755560,N,12132.4580599,E,4,44,0.67,16.768,M,15.25,M,0,3335*45
$GNRMC,031556.700,A,2500.7755560,N,12132.4580599,E,0.04,147.83,090324,,,R,V*10
$GPHDT,,T*1B
$GNACCURACY,5.3*10
$GNGGA,031556.800,2500.7755591,N,12132.4580576,E,4,44,0.67,16.744,M,15.25,M,0,3335*4B
$GNRMC,031556.800,A,2500.7755591,N,12132.4580576,E,0.04,147.83,090324,,,R,V*10
$GPHDT,4.807,T*3E
$GNACCURACY,5.4*17
$GNGGA,031556.900,2500.7755593,N,12132.4580595,E,4,44,0.67,16.756,M,15.25,M,0,3335*46
$GNRMC,031556.900,A,2500.7755593,N,12132.4580595,E,0.08,147.83,090324,,,R,V*12
$GPHDT,,T*1B
$GNACCURACY,5.3*10
$GNGGA,031557.000,2500.7755586,N,12132.4580591,E,4,44,0.67,16.754,M,15.25,M,1,3335*4D
$GNRMC,031557.000,A,2500.7755586,N,12132.4580591,E,0.06,147.83,090324,,,R,V*14
$GPHDT,4.831,T*3B
$GNGSA,A,3,08,194,195,27,16,04,09,07,26,,,,1.18,0.67,0.97,1*03
$GNGSA,A,3,88,78,77,87,,,,,,,,,1.18,0.67,0.97,2*05
$GNGSA,A,3,21,27,15,,,,,,,,,,1.18,0.67,0.97,3*06
$GNGSA,A,3,06,16,43,09,39,40,23,11,10,25,34,28,1.18,0.67,0.97,4*08
$GPGSV,4,1,13,08,72,285,41,199,67,163,,194,63,045,41,195,56,125,35,1*53
$GPGSV,4,2,13,27,55,025,42,16,37,049,40,04,36,221,37,21,34,172,29,1*61
$GPGSV,4,3,13,09,31,273,30,196,22,174,,07,21,320,36,26,19,079,37,1*55
$GPGSV,4,4,13,31,,,28,1*6E
$GPGSV,2,1,07,08,72,285,43,194,63,045,43,195,56,125,39,27,55,025,46,8*61
$GPGSV,2,2,07,04,36,221,35,09,31,273,28,26,19,079,37,8*5D
$GLGSV,2,1,05,88,72,098,41,78,42,358,26,77,34,079,30,87,26,032,29,1*77
$GLGSV,2,2,05,79,,,29,1*78
$GAGSV,1,1,04,21,50,342,39,27,35,057,39,15,24,053,37,04,08,316,29,7*76
$GAGSV,1,1,04,21,50,342,44,27,35,057,38,15,24,053,35,04,08,316,23,1*73
$GBGSV,4,1,13,06,84,237,39,16,82,185,41,43,77,081,43,09,74,310,40,1*76
$GBGSV,4,2,13,39,70,172,35,40,67,311,41,07,63,289,35,23,57,350,44,1*7C
$GBGSV,4,3,13,11,53,050,41,10,52,273,32,25,49,089,47,28,34,206,,1*75
$GBGSV,4,4,13,34,30,042,38,1*4D
$GBGSV,2,1,07,43,77,081,45,39,70,172,36,40,67,311,41,23,57,350,46,4*70
$GBGSV,2,2,07,25,49,089,43,28,34,206,22,34,30,042,30,4*40
$GNACCURACY,5.3*10
$PAIRSAT,1,19,4,0,21,7,0,1,8,0,21,9,0,21,14,0,200,15,0,200,16,0,201,17,0,200,18,0,200,19,0,200,20,0,200,21,0,200,22,0,200,26,0,21,27,0,21,194,0,421,195,0,221,196,0,200,199,0,200*63
$PAIRSAT,2,10,70,0,200,71,0,200,77,0,1,78,0,1,83,0,200,84,0,200,85,0,200,86,0,200,87,0,201,88,0,201*7A
$PAIRSAT,3,10,2,0,1000,3,0,1000,4,0,1000,15,0,21,21,0,221,25,0,1200,26,0,1200,27,0,1221,30,0,1200,31,0,1200*78
$PAIRSAT,4,43,1,0,200,2,0,200,3,0,400,4,0,200,5,0,200,6,0,201,7,0,200,8,0,200,9,0,1,10,0,1,11,0,1,16,0,1,19,0,400,20,0,400,21,0,400,22,0,400,23,0,421,24,0,600,25,0,621,26,0,600,27,0,400,28,0,621,29,0,600,30,0,600,32,0,400,33,0,400,34,0,421,35,0,400,36,0,400,37,0,400,38,0,400,39,0,421,40,0,421,41,0,400,42,0,400,43,0,421,44,0,400,45,0,400,46,0,400,59,0,400,60,0,400,61,0,400,62,0,400*64
$PAIRDGP,0*45
$GNGGA,031557.100,2500.7755568,N,12132.4580587,E,4,44,0.67,16.755,M,15.25,M,1,3335*4A
$GNRMC,031557.100,A,2500.7755568,N,12132.4580587,E,0.04,147.83,090324,,,R,V*10
$GPHDT,,T*1B
$GNACCURACY,5.3*10
$GNGGA,031557.200,2500.7755538,N,12132.4580606,E,4,44,0.67,16.751,M,15.25,M,1,3335*42
$GNRMC,031557.200,A,2500.7755538,N,12132.4580606,E,0.03,147.83,090324,,,R,V*1B
$GPHDT,4.963,T*3D
$GNACCURACY,5.3*10
$GNGGA,031557.300,2500.7755565,N,12132.4580589,E,4,44,0.67,16.753,M,15.25,M,1,3335*4D
$GNRMC,031557.300,A,2500.7755565,N,12132.4580589,E,0.02,147.83,090324,,,R,V*17
$GPHDT,,T*1B
$GNACCURACY,5.3*10
$GNGGA,031557.400,2500.7755570,N,12132.4580599,E,4,44,0.67,16.756,M,15.25,M,1,3335*4A
$GNRMC,031557.400,A,2500.7755570,N,12132.4580599,E,0.02,147.83,090324,,,R,V*15
$GPHDT,4.778,T*39
$GNACCURACY,5.3*10
$GNGGA,031557.500,2500.7755567,N,12132.4580581,E,4,44,0.67,16.767,M,15.25,M,0,3335*47
$GNRMC,031557.500,A,2500.7755567,N,12132.4580581,E,0.02,147.83,090324,,,R,V*1B
$GPHDT,,T*1B
$GNACCURACY,5.3*10
$GNGGA,031557.600,2500.7755585,N,12132.4580576,E,4,44,0.67,16.757,M,15.25,M,0,3335*43
$GNRMC,031557.600,A,2500.7755585,N,12132.4580576,E,0.02,147.83,090324,,,R,V*1C
$GPHDT,5.021,T*33
$GNACCURACY,5.3*10
$GNGGA,031557.700,2500.7755586,N,12132.4580598,E,4,44,0.67,16.755,M,15.25,M,0,3335*43
$GNRMC,031557.700,A,2500.7755586,N,12132.4580598,E,0.10,147.83,090324,,,R,V*1D
$GPHDT,,T*1B
$GNACCURACY,5.3*10
$GNGGA,031557.800,2500.7755560,N,12132.4580594,E,4,44,0.67,16.756,M,15.25,M,0,3335*4B
$GNRMC,031557.800,A,2500.7755560,N,12132.4580594,E,0.04,147.83,090324,,,R,V*13
$GPHDT,4.915,T*3C
$GNACCURACY,5.3*10
$GNGGA,031557.900,2500.7755567,N,12132.4580601,E,4,44,0.67,16.755,M,15.25,M,0,3335*41
$GNRMC,031557.900,A,2500.7755567,N,12132.4580601,E,0.11,147.83,090324,,,R,V*1E
$GPHDT,,T*1B
$GNACCURACY,5.3*10
$GNGGA,031558.000,2500.7755549,N,12132.4580611,E,4,44,0.67,16.762,M,15.25,M,1,3335*4F
$GNRMC,031558.000,A,2500.7755549,N,12132.4580611,E,0.07,147.83,090324,,,R,V*12
$GPHDT,4.730,T*35
$GNGSA,A,3,08,194,195,27,16,04,09,07,26,,,,1.18,0.67,0.97,1*03
$GNGSA,A,3,88,78,77,87,,,,,,,,,1.18,0.67,0.97,2*05
$GNGSA,A,3,21,27,15,,,,,,,,,,1.18,0.67,0.97,3*06
$GNGSA,A,3,06,16,43,09,39,40,23,11,10,25,34,28,1.18,0.67,0.97,4*08
$GPGSV,4,1,13,08,72,285,41,199,67,163,,194,63,045,41,195,56,125,35,1*53
$GPGSV,4,2,13,27,55,025,42,16,37,049,40,04,36,221,37,21,34,172,29,1*61
$GPGSV,4,3,13,09,31,273,30,196,22,174,,07,21,320,36,26,19,079,37,1*55
$GPGSV,4,4,13,31,,,28,1*6E
$GPGSV,2,1,07,08,72,285,43,194,63,045,43,195,56,125,39,27,55,025,46,8*61
$GPGSV,2,2,07,04,36,221,35,09,31,273,28,26,19,079,37,8*5D
$GLGSV,2,1,05,88,72,098,41,78,42,358,26,77,34,079,29,87,26,032,28,1*7E
$GLGSV,2,2,05,79,,,28,1*79
$GAGSV,1,1,04,21,50,342,39,27,35,057,39,15,24,053,37,04,08,316,30,7*7E
$GAGSV,1,1,04,21,50,342,44,27,35,057,39,15,24,053,36,04,08,316,22,1*70
$GBGSV,4,1,13,06,84,236,39,16,82,185,40,43,77,081,43,09,74,310,40,1*76
$GBGSV,4,2,13,39,70,172,34,40,67,311,41,07,63,289,34,23,57,350,44,1*7C
$GBGSV,4,3,13,11,53,050,41,10,52,273,32,25,49,089,47,28,34,206,,1*75
$GBGSV,4,4,13,34,30,042,37,1*42
$GBGSV,2,1,07,43,77,081,45,39,70,172,36,40,67,311,41,23,57,350,46,4*70
$GBGSV,2,2,07,25,49,089,43,28,34,206,20,34,30,042,30,4*42
$GNACCURACY,5.3*10
$PAIRSAT,1,19,4,0,21,7,0,1,8,0,21,9,0,21,14,0,200,15,0,200,16,0,201,17,0,200,18,0,200,19,0,200,20,0,200,21,0,200,22,0,200,26,0,21,27,0,21,194,0,421,195,0,221,196,0,200,199,0,200*63
$PAIRSAT,2,10,70,0,200,71,0,200,77,0,1,78,0,1,83,0,200,84,0,200,85,0,200,86,0,200,87,0,201,88,0,201*7A
$PAIRSAT,3,10,2,0,1000,3,0,1000,4,0,1000,15,0,21,21,0,221,25,0,1200,26,0,1200,27,0,1221,30,0,1200,31,0,1200*78
$PAIRSAT,4,43,1,0,200,2,0,200,3,0,400,4,0,200,5,0,200,6,0,201,7,0,200,8,0,200,9,0,1,10,0,1,11,0,1,16,0,1,19,0,400,20,0,400,21,0,400,22,0,400,23,0,421,24,0,600,25,0,621,26,0,600,27,0,400,28,0,621,29,0,600,30,0,600,32,0,400,33,0,400,34,0,421,35,0,400,36,0,400,37,0,400,38,0,400,39,0,421,40,0,421,41,0,400,42,0,400,43,0,421,44,0,400,45,0,400,46,0,400,59,0,400,60,0,400,61,0,400,62,0,400*64
$PAIRDGP,0*45
$GNGGA,031558.100,2500.7755588,N,12132.4580602,E,4,44,0.67,16.756,M,15.25,M,1,3335*46
$GNRMC,031558.100,A,2500.7755588,N,12132.4580602,E,0.09,147.83,090324,,,R,V*12
$GPHDT,,T*1B
$GNACCURACY,5.3*10
$GNGGA,031558.200,2500.7755575,N,12132.4580613,E,4,44,0.67,16.755,M,15.25,M,1,3335*44
$GNRMC,031558.200,A,2500.7755575,N,12132.4580613,E,0.09,147.83,090324,,,R,V*13
$GPHDT,4.713,T*34
$GNACCURACY,5.3*10
$GNGGA,031558.300,2500.7755559,N,12132.4580612,E,4,44,0.67,16.770,M,15.25,M,1,3335*4D
$GNRMC,031558.300,A,2500.7755559,N,12132.4580612,E,0.08,147.83,090324,,,R,V*1C
$GPHDT,,T*1B
$GNACCURACY,5.3*10
$GNGGA,031558.400,2500.7755562,N,12132.4580575,E,4,44,0.67,16.764,M,15.25,M,1,3335*45
$GNRMC,031558.400,A,2500.7755562,N,12132.4580575,E,0.09,147.83,090324,,,R,V*10
$GPHDT,5.080,T*38
$GNACCURACY,5.3*10
$GNGGA,031558.500,2500.7755480,N,12132.4580590,E,4,44,0.67,16.744,M,15.25,M,1,3335*40
$GNRMC,031558.500,A,2500.7755480,N,12132.4580590,E,0.06,147.83,090324,,,R,V*18
$GPHDT,,T*1B
$GNACCURACY,5.3*10
$GNGGA,031558.600,2500.7755638,N,12132.4580568,E,4,44,0.67,16.783,M,15.25,M,0,3335*4F
$GNRMC,031558.600,A,2500.7755638,N,12132.4580568,E,0.06,147.83,090324,,,R,V*1D
$GPHDT,5.144,T*31
$GNACCURACY,5.3*10
$GNGGA,031558.700,2500.7755625,N,12132.4580608,E,4,44,0.67,16.755,M,15.25,M,0,3335*4C
$GNRMC,031558.700,A,2500.7755625,N,12132.4580608,E,0.24,147.83,090324,,,R,V*15
$GPHDT,,T*1B
$GNACCURACY,5.3*10
$GNGGA,031558.800,2500.7755553,N,12132.4580604,E,4,44,0.67,16.776,M,15.25,M,0,3335*4C
$GNRMC,031558.800,A,2500.7755553,N,12132.4580604,E,0.07,147.83,090324,,,R,V*15
$GPHDT,4.524,T*32
$GNACCURACY,5.3*10
$GNGGA,031558.900,2500.7755640,N,12132.4580595,E,4,44,0.67,16.772,M,15.25,M,0,3335*43
$GNRMC,031558.900,A,2500.7755640,N,12132.4580595,E,0.14,147.83,090324,,,R,V*1C
$GPHDT,,T*1B
$GNACCURACY,5.3*10
$GNGGA,031559.000,2500.7755587,N,12132.4580586,E,4,44,0.67,16.758,M,15.25,M,1,3335*48
$GNRMC,031559.000,A,2500.7755587,N,12132.4580586,E,0.06,147.83,090324,,,R,V*1D
$GPHDT,3.908,T*37
$GNGSA,A,3,08,194,195,27,16,04,09,07,26,,,,1.18,0.67,0.97,1*03
$GNGSA,A,3,88,78,77,87,,,,,,,,,1.18,0.67,0.97,2*05
$GNGSA,A,3,21,27,15,,,,,,,,,,1.18,0.67,0.97,3*06
$GNGSA,A,3,06,16,43,09,39,40,23,11,10,25,34,28,1.18,0.67,0.97,4*08
$GPGSV,4,1,13,08,72,285,40,199,67,163,,194,63,045,41,195,56,125,33,1*54
$GPGSV,4,2,13,27,55,025,42,16,37,049,39,04,36,221,37,21,34,172,28,1*6E
$GPGSV,4,3,13,09,31,273,30,196,22,174,,07,21,320,35,26,19,079,38,1*59
$GPGSV,4,4,13,31,,,26,1*60
$GPGSV,2,1,07,08,72,285,43,194,63,045,43,195,56,125,39,27,55,025,46,8*61
$GPGSV,2,2,07,04,36,221,35,09,31,273,27,26,19,079,37,8*52
$GLGSV,2,1,05,88,72,098,42,78,42,358,25,77,34,079,30,87,26,032,29,1*77
$GLGSV,2,2,05,79,,,28,1*79
$GAGSV,1,1,04,21,50,342,38,27,35,057,39,15,24,053,37,04,08,316,30,7*7F
$GAGSV,1,1,04,21,50,342,44,27,35,057,39,15,24,053,35,04,08,316,21,1*70
$GBGSV,4,1,13,06,84,236,39,16,82,185,39,43,77,081,44,09,74,310,40,1*7F
$GBGSV,4,2,13,39,70,172,33,40,67,311,40,07,63,289,35,23,57,350,44,1*7B
$GBGSV,4,3,13,11,53,050,41,10,52,273,31,25,49,089,46,28,34,206,,1*77
$GBGSV,4,4,13,34,30,042,37,1*42
$GBGSV,2,1,07,43,77,081,45,39,70,172,36,40,67,311,41,23,57,350,46,4*70
$GBGSV,2,2,07,25,49,089,43,28,34,206,22,34,30,042,33,4*43
$GNACCURACY,5.3*10
$PAIRSAT,1,19,4,0,21,7,0,1,8,0,21,9,0,21,14,0,200,15,0,200,16,0,201,17,0,200,18,0,200,19,0,200,20,0,200,21,0,200,22,0,200,26,0,21,27,0,21,194,0,421,195,0,221,196,0,200,199,0,200*63
$PAIRSAT,2,10,70,0,200,71,0,200,77,0,1,78,0,1,83,0,200,84,0,200,85,0,200,86,0,200,87,0,201,88,0,201*7A
$PAIRSAT,3,10,2,0,1000,3,0,1000,4,0,1000,15,0,21,21,0,221,25,0,1200,26,0,1200,27,0,1221,30,0,1200,31,0,1200*78
$PAIRSAT,4,43,1,0,200,2,0,200,3,0,400,4,0,200,5,0,200,6,0,201,7,0,200,8,0,200,9,0,1,10,0,1,11,0,1,16,0,1,19,0,400,20,0,400,21,0,400,22,0,400,23,0,421,24,0,600,25,0,621,26,0,600,27,0,400,28,0,621,29,0,600,30,0,600,32,0,400,33,0,400,34,0,421,35,0,400,36,0,400,37,0,400,38,0,400,39,0,421,40,0,421,41,0,400,42,0,400,43,0,421,44,0,400,45,0,400,46,0,400,59,0,400,60,0,400,61,0,400,62,0,400*64
$PAIRDGP,0*45
$GNGGA,031559.100,2500.7755600,N,12132.4580578,E,4,44,0.67,16.762,M,15.25,M,1,3335*4D
$GNRMC,031559.100,A,2500.7755600,N,12132.4580578,E,0.06,147.83,090324,,,R,V*11
$GPHDT,,T*1B
$GNACCURACY,5.3*10
$GNGGA,031559.200,2500.7755570,N,12132.4580589,E,4,44,0.67,16.760,M,15.25,M,1,3335*46
$GNRMC,031559.200,A,2500.7755570,N,12132.4580589,E,0.05,147.83,090324,,,R,V*1B
$GPHDT,4.178,T*3F
$GNACCURACY,5.3*10
$GNGGA,031559.300,2500.7755598,N,12132.4580574,E,4,44,0.67,16.760,M,15.25,M,1,3335*43
$GNRMC,031559.300,A,2500.7755598,N,12132.4580574,E,0.05,147.83,090324,,,R,V*1E
$GPHDT,,T*1B
$GNACCURACY,5.3*10
$GNGGA,031559.400,2500.7755582,N,12132.4580597,E,4,44,0.67,16.753,M,15.25,M,1,3335*42
$GNRMC,031559.400,A,2500.7755582,N,12132.4580597,E,0.04,147.83,090324,,,R,V*1E
$GPHDT,4.829,T*32
$GNACCURACY,5.3*10
$GNGGA,031559.500,2500.7755596,N,12132.4580570,E,4,44,0.67,16.753,M,15.25,M,1,3335*4F
$GNRMC,031559.500,A,2500.7755596,N,12132.4580570,E,0.04,147.83,090324,,,R,V*13
$GPHDT,,T*1B
$GNACCURACY,5.4*17
$GNGGA,031559.600,2500.7755571,N,12132.4580596,E,4,44,0.67,16.754,M,15.25,M,1,3335*4A
$GNRMC,031559.600,A,2500.7755571,N,12132.4580596,E,0.03,147.83,090324,,,R,V*16
$GPHDT,4.722,T*36
$GNACCURACY,5.4*17
$GNGGA,031559.700,2500.7755583,N,12132.4580609,E,4,44,0.67,16.760,M,15.25,M,0,3335*45
$GNRMC,031559.700,A,2500.7755583,N,12132.4580609,E,0.03,147.83,090324,,,R,V*1F
$GPHDT,,T*1B
$GNACCURACY,5.3*10
$GNGGA,031559.800,2500.7755562,N,12132.4580604,E,4,44,0.67,16.767,M,15.25,M,0,3335*4F
$GNRMC,031559.800,A,2500.7755562,N,12132.4580604,E,0.03,147.83,090324,,,R,V*12
$GPHDT,4.689,T*36
$GNACCURACY,5.3*10
$GNGGA,031559.900,2500.7755556,N,12132.4580610,E,4,44,0.67,16.771,M,15.25,M,0,3335*4B
$GNRMC,031559.900,A,2500.7755556,N,12132.4580610,E,0.02,147.83,090324,,,R,V*10
$GPHDT,,T*1B
$GNACCURACY,5.3*10
$GNGGA,031600.000,2500.7755588,N,12132.4580596,E,4,44,0.67,16.768,M,15.25,M,1,3335*4A
$GNRMC,031600.000,A,2500.7755588,N,12132.4580596,E,0.02,147.83,090324,,,R,V*18
$GPHDT,4.718,T*3F
$GNGSA,A,3,08,194,195,27,16,04,09,07,26,,,,1.18,0.67,0.97,1*03
$GNGSA,A,3,88,78,77,87,,,,,,,,,1.18,0.67,0.97,2*05
$GNGSA,A,3,21,27,15,,,,,,,,,,1.18,0.67,0.97,3*06
$GNGSA,A,3,06,16,43,09,39,40,23,11,10,25,34,28,1.18,0.67,0.97,4*08
$GPGSV,4,1,13,08,72,285,41,199,67,163,,194,63,045,41,195,56,125,33,1*55
$GPGSV,4,2,13,27,55,025,42,16,37,049,39,04,36,221,38,21,34,172,27,1*6E
$GPGSV,4,3,13,09,31,273,30,196,22,174,,07,21,320,35,26,19,079,38,1*59
$GPGSV,4,4,13,31,,,26,1*60
$GPGSV,2,1,07,08,72,285,43,194,63,045,43,195,56,125,39,27,55,025,46,8*61
$GPGSV,2,2,07,04,36,221,36,09,31,273,27,26,19,079,38,8*5E
$GLGSV,2,1,05,88,72,098,42,78,42,358,23,77,34,079,30,87,26,032,29,1*71
$GLGSV,2,2,05,79,,,28,1*79
$GAGSV,1,1,04,21,50,342,38,27,35,057,39,15,24,053,37,04,08,316,31,7*7E
$GAGSV,1,1,04,21,50,342,44,27,35,057,39,15,24,053,35,04,08,316,21,1*70
$GBGSV,4,1,13,06,84,236,39,16,82,185,40,43,77,081,44,09,74,310,40,1*71
$GBGSV,4,2,13,39,70,172,33,40,67,311,41,07,63,289,35,23,57,350,44,1*7A
$GBGSV,4,3,13,11,53,050,41,10,52,273,31,25,49,089,46,28,34,206,,1*77
$GBGSV,4,4,13,34,30,042,37,1*42
$GBGSV,2,1,07,43,77,081,45,39,70,172,36,40,67,311,41,23,57,350,46,4*70
$GBGSV,2,2,07,25,49,089,43,28,34,206,23,34,30,042,33,4*42
$GNACCURACY,5.3*10
$PAIRSAT,1,19,4,0,21,7,0,1,8,0,21,9,0,21,14,0,200,15,0,200,16,0,201,17,0,200,18,0,200,19,0,200,20,0,200,21,0,200,22,0,200,26,0,21,27,0,21,194,0,421,195,0,221,196,0,200,199,0,200*63
$PAIRSAT,2,10,70,0,200,71,0,200,77,0,1,78,0,1,83,0,200,84,0,200,85,0,200,86,0,200,87,0,201,88,0,201*7A
$PAIRSAT,3,10,2,0,1000,3,0,1000,4,0,1000,15,0,21,21,0,221,25,0,1200,26,0,1200,27,0,1221,30,0,1200,31,0,1200*78
$PAIRSAT,4,43,1,0,200,2,0,200,3,0,400,4,0,200,5,0,200,6,0,201,7,0,200,8,0,200,9,0,1,10,0,1,11,0,1,16,0,1,19,0,400,20,0,400,21,0,400,22,0,400,23,0,421,24,0,600,25,0,621,26,0,600,27,0,400,28,0,621,29,0,600,30,0,600,32,0,400,33,0,400,34,0,421,35,0,400,36,0,400,37,0,400,38,0,400,39,0,421,40,0,421,41,0,400,42,0,400,43,0,421,44,0,400,45,0,400,46,0,400,59,0,400,60,0,400,61,0,400,62,0,400*64
$PAIRDGP,0*45
$GNGGA,031600.100,2500.7755581,N,12132.4580607,E,4,44,0.67,16.766,M,15.25,M,1,3335*47
$GNRMC,031600.100,A,2500.7755581,N,12132.4580607,E,0.02,147.83,090324,,,R,V*1B
$GPHDT,,T*1B
$GNACCURACY,5.3*10
$GNGGA,031600.200,2500.7755567,N,12132.4580632,E,4,44,0.67,16.776,M,15.25,M,1,3335*4B
$GNRMC,031600.200,A,2500.7755567,N,12132.4580632,E,0.02,147.83,090324,,,R,V*16
$GPHDT,4.596,T*3B
$GNACCURACY,5.2*11
$GNGGA,031600.300,2500.7755560,N,12132.4580610,E,4,44,0.67,16.760,M,15.25,M,1,3335*4A
$GNRMC,031600.300,A,2500.7755560,N,12132.4580610,E,0.02,147.83,090324,,,R,V*10
$GPHDT,,T*1B
$GNACCURACY,5.2*11
$GNGGA,031600.400,2500.7755571,N,12132.4580610,E,4,44,0.67,16.770,M,15.25,M,1,3335*4C
$GNRMC,031600.400,A,2500.7755571,N,12132.4580610,E,0.02,147.83,090324,,,R,V*17
$GPHDT,4.725,T*31
$GNACCURACY,5.2*11
$GNGGA,031600.500,2500.7755587,N,12132.4580590,E,4,44,0.67,16.756,M,15.25,M,0,3335*4A
$GNRMC,031600.500,A,2500.7755587,N,12132.4580590,E,0.02,147.83,090324,,,R,V*14
$GPHDT,,T*1B
$GNACCURACY,5.2*11
$GNGGA,031600.600,2500.7755562,N,12132.4580607,E,4,44,0.67,16.760,M,15.25,M,0,3335*4A
$GNRMC,031600.600,A,2500.7755562,N,12132.4580607,E,0.02,147.83,090324,,,R,V*11
$GPHDT,4.221,T*30
$GNACCURACY,5.2*11
$GNGGA,031600.700,2500.7755560,N,12132.4580593,E,4,44,0.67,16.757,M,15.25,M,0,3335*43
$GNRMC,031600.700,A,2500.7755560,N,12132.4580593,E,0.02,147.83,090324,,,R,V*1C
$GPHDT,,T*1B
$GNACCURACY,5.2*11
$GNGGA,031600.800,2500.7755596,N,12132.4580577,E,4,44,0.67,16.754,M,15.25,M,0,3335*4C
$GNRMC,031600.800,A,2500.7755596,N,12132.4580577,E,0.02,147.83,090324,,,R,V*10
$GPHDT,4.882,T*33
$GNACCURACY,5.2*11
$GNGGA,031600.900,2500.7755572,N,12132.4580601,E,4,44,0.67,16.759,M,15.25,M,0,3335*48
$GNRMC,031600.900,A,2500.7755572,N,12132.4580601,E,0.02,147.83,090324,,,R,V*19
$GPHDT,,T*1B
$GNACCURACY,5.2*11
$GNGGA,031601.000,2500.7755584,N,12132.4580591,E,4,44,0.67,16.757,M,15.25,M,1,3335*4C
$GNRMC,031601.000,A,2500.7755584,N,12132.4580591,E,0.01,147.83,090324,,,R,V*11
$GPHDT,4.760,T*30
$GNGSA,A,3,08,194,195,27,16,04,09,07,26,,,,1.18,0.67,0.97,1*03
$GNGSA,A,3,88,78,77,87,,,,,,,,,1.18,0.67,0.97,2*05
$GNGSA,A,3,21,27,15,,,,,,,,,,1.18,0.67,0.97,3*06
$GNGSA,A,3,06,16,43,09,39,40,23,11,10,25,34,28,1.18,0.67,0.97,4*08
$GPGSV,4,1,13,08,72,285,41,199,67,163,,194,63,045,41,195,56,125,33,1*55
$GPGSV,4,2,13,27,55,025,42,16,37,049,39,04,36,221,38,21,34,172,27,1*6E
$GPGSV,4,3,13,09,31,273,31,196,22,174,,07,21,320,36,26,19,079,37,1*54
$GPGSV,4,4,13,31,,,26,1*60
$GPGSV,2,1,07,08,72,285,43,194,63,045,43,195,56,125,39,27,55,025,46,8*61
$GPGSV,2,2,07,04,36,221,37,09,31,273,28,26,19,079,38,8*50
$GLGSV,2,1,05,88,72,098,42,78,42,358,23,77,34,079,30,87,26,032,29,1*71
$GLGSV,2,2,05,79,,,28,1*79
$GAGSV,1,1,04,21,50,342,38,27,35,057,39,15,24,053,37,04,08,316,31,7*7E
$GAGSV,1,1,04,21,50,342,44,27,35,057,39,15,24,053,35,04,08,316,22,1*73
$GBGSV,4,1,13,06,84,236,39,16,82,185,40,43,77,081,44,09,74,310,40,1*71
$GBGSV,4,2,13,39,70,172,33,40,67,311,41,07,63,289,35,23,57,350,44,1*7A
$GBGSV,4,3,13,11,53,050,41,10,52,273,30,25,49,089,46,28,34,206,,1*76
$GBGSV,4,4,13,34,30,042,37,1*42
$GBGSV,2,1,07,43,77,081,45,39,70,172,36,40,67,311,41,23,57,350,45,4*73
$GBGSV,2,2,07,25,49,089,43,28,34,206,23,34,30,042,32,4*43
$GNACCURACY,5.2*11
$PAIRSAT,1,19,4,0,21,7,0,1,8,0,21,9,0,21,14,0,200,15,0,200,16,0,201,17,0,200,18,0,200,19,0,200,20,0,200,21,0,200,22,0,200,26,0,21,27,0,21,194,0,421,195,0,221,196,0,200,199,0,200*63
$PAIRSAT,2,10,70,0,200,71,0,200,77,0,1,78,0,1,83,0,200,84,0,200,85,0,200,86,0,200,87,0,201,88,0,201*7A
$PAIRSAT,3,10,2,0,1000,3,0,1000,4,0,1000,15,0,21,21,0,221,25,0,1200,26,0,1200,27,0,1221,30,0,1200,31,0,1200*78
$PAIRSAT,4,43,1,0,200,2,0,200,3,0,400,4,0,200,5,0,200,6,0,201,7,0,200,8,0,200,9,0,1,10,0,1,11,0,1,16,0,1,19,0,400,20,0,400,21,0,400,22,0,400,23,0,421,24,0,600,25,0,621,26,0,600,27,0,400,28,0,621,29,0,600,30,0,600,32,0,400,33,0,400,34,0,421,35,0,400,36,0,400,37,0,400,38,0,400,39,0,421,40,0,421,41,0,400,42,0,400,43,0,421,44,0,400,45,0,400,46,0,400,59,0,400,60,0,400,61,0,400,62,0,400*64
$PAIRDGP,0*45
$GNGGA,031601.100,2500.7755559,N,12132.4580601,E,4,44,0.67,16.757,M,15.25,M,1,3335*47
$GNRMC,031601.100,A,2500.7755559,N,12132.4580601,E,0.01,147.83,090324,,,R,V*1A
$GPHDT,,T*1B
$GNACCURACY,5.2*11
$GNGGA,031601.200,2500.7755583,N,12132.4580581,E,4,44,0.67,16.752,M,15.25,M,1,3335*4D
$GNRMC,031601.200,A,2500.7755583,N,12132.4580581,E,0.01,147.83,090324,,,R,V*15
$GPHDT,4.791,T*3E
$GNACCURACY,5.2*11
$GNGGA,031601.300,2500.7755566,N,12132.4580606,E,4,44,0.67,16.759,M,15.25,M,1,3335*40
$GNRMC,031601.300,A,2500.7755566,N,12132.4580606,E,0.01,147.83,090324,,,R,V*13
$GPHDT,,T*1B
