$FW : RTK35X,V1.1X0314AS,Lib20210517,1*54
$Tool : LOCOSYS , GNSS Firebird , v1.0.0.19*39
$---------------------------------------------------*2D
$GNACCURACY,5.8*1B
$GNGGA,031527.900,2500.7755443,N,12132.4580674,E,4,44,0.67,16.713,M,15.25,M,0,3335*41
$GNRMC,031527.900,A,2500.7755443,N,12132.4580674,E,0.19,147.83,090324,,,R,V*14
$GPHDT,,T*1B
$GNACCURACY,5.9*1A
$GNGGA,031528.000,2500.7755476,N,12132.4580661,E,4,44,0.67,16.714,M,15.25,M,1,3335*43
$GNRMC,031528.000,A,2500.7755476,N,12132.4580661,E,0.13,147.83,090324,,,R,V*1A
$GPHDT,45.381,T*0E
$GNGSA,A,3,08,194,195,27,16,04,09,07,26,,,,1.18,0.67,0.97,1*03
$GNGSA,A,3,88,78,77,87,,,,,,,,,1.18,0.67,0.97,2*05
$GNGSA,A,3,21,27,15,,,,,,,,,,1.18,0.67,0.97,3*06
$GNGSA,A,3,06,16,43,09,39,40,23,11,10,25,34,28,1.18,0.67,0.97,4*08
$GPGSV,3,1,11,08,72,284,44,199,67,163,,194,63,045,40,195,56,125,35,1*53
$GPGSV,3,2,11,27,55,025,44,16,37,049,30,04,36,221,44,09,31,274,26,1*64
$GPGSV,3,3,11,196,22,174,,07,21,320,30,26,19,079,30,1*6F
$GPGSV,2,1,07,08,72,284,46,194,63,045,42,195,56,125,39,27,55,025,46,8*64
$GPGSV,2,2,07,04,36,221,43,09,31,274,27,26,19,079,29,8*5B
$GLGSV,2,1,05,88,72,099,40,78,42,357,29,77,34,078,25,87,27,032,30,1*7B
$GLGSV,2,2,05,79,,,23,1*72
$GAGSV,1,1,04,21,50,342,39,27,35,057,28,15,24,053,32,26,23,176,13,7*77
$GAGSV,1,1,03,21,50,342,43,27,35,057,37,15,24,053,31,1*41
$GBGSV,3,1,12,06,84,237,39,16,82,185,39,43,77,082,44,09,74,310,40,1*7B
$GBGSV,3,2,12,39,70,171,25,40,67,311,42,23,57,350,46,11,53,050,43,1*7A
$GBGSV,3,3,12,10,52,273,37,25,49,089,42,28,34,205,,34,30,042,43,1*73
$GBGSV,2,1,07,43,77,082,44,39,70,171,34,40,67,311,40,23,57,350,46,4*72
$GBGSV,2,2,07,25,49,089,34,28,34,205,28,34,30,042,38,4*41
$GNACCURACY,5.9*1A
$PAIRSAT,1,18,4,0,21,7,0,1,8,0,21,9,0,21,14,0,200,15,0,200,16,0,201,17,0,200,18,0,200,19,0,200,20,0,200,21,0,200,26,0,21,27,0,21,194,0,421,195,0,221,196,0,200,199,0,200*4C
$PAIRSAT,2,10,70,0,200,71,0,200,77,0,1,78,0,1,83,0,200,84,0,200,85,0,200,86,0,200,87,0,201,88,0,201*7A
$PAIRSAT,3,7,2,0,1000,15,0,21,21,0,221,25,0,1200,26,0,1200,27,0,1221,30,0,200*65
$PAIRSAT,4,42,1,0,200,2,0,200,3,0,400,4,0,200,5,0,200,6,0,201,7,0,200,9,0,1,10,0,1,11,0,1,16,0,1,19,0,400,20,0,400,21,0,400,22,0,400,23,0,421,24,0,600,25,0,621,26,0,600,27,0,400,28,0,621,29,0,600,30,0,600,32,0,400,33,0,400,34,0,421,35,0,400,36,0,400,37,0,400,38,0,400,39,0,421,40,0,421,41,0,400,42,0,400,43,0,421,44,0,400,45,0,400,46,0,400,59,0,400,60,0,400,61,0,400,62,0,400*73
$PAIRDGP,0*45
$GNGGA,031528.100,2500.7755458,N,12132.4580654,E,4,44,0.67,16.706,M,15.25,M,1,3335*4B
$GNRMC,031528.100,A,2500.7755458,N,12132.4580654,E,0.06,147.83,090324,,,R,V*15
$GPHDT,,T*1B
$GNACCURACY,5.9*1A
$GNGGA,031528.200,2500.7755447,N,12132.4580687,E,4,44,0.67,16.710,M,15.25,M,1,3335*4F
$GNRMC,031528.200,A,2500.7755447,N,12132.4580687,E,0.08,147.83,090324,,,R,V*18
$GPHDT,45.666,T*02
$GNACCURACY,6.0*10
$GNGGA,031528.300,2500.7755451,N,12132.4580674,E,4,44,0.67,16.714,M,15.25,M,1,3335*41
$GNRMC,031528.300,A,2500.7755451,N,12132.4580674,E,0.05,147.83,090324,,,R,V*1F
$GPHDT,,T*1B
$GNACCURACY,6.0*10
$GNGGA,031528.400,2500.7755456,N,12132.4580687,E,4,44,0.67,16.709,M,15.25,M,1,3335*41
$GNRMC,031528.400,A,2500.7755456,N,12132.4580687,E,0.06,147.83,090324,,,R,V*10
$GPHDT,45.286,T*08
$GNACCURACY,6.0*10
$GNGGA,031528.500,2500.7755448,N,12132.4580680,E,4,44,0.67,16.718,M,15.25,M,1,3335*48
$GNRMC,031528.500,A,2500.7755448,N,12132.4580680,E,0.09,147.83,090324,,,R,V*16
$GPHDT,,T*1B
$GNACCURACY,6.0*10
$GNGGA,031528.600,2500.7755445,N,12132.4580674,E,4,44,0.67,16.715,M,15.25,M,0,3335*41
$GNRMC,031528.600,A,2500.7755445,N,12132.4580674,E,0.09,147.83,090324,,,R,V*13
$GPHDT,45.123,T*04
$GNACCURACY,6.0*10
$GNGGA,031528.700,2500.7755475,N,12132.4580658,E,4,44,0.67,16.710,M,15.25,M,0,3335*48
$GNRMC,031528.700,A,2500.7755475,N,12132.4580658,E,0.10,147.83,090324,,,R,V*17
$GPHDT,,T*1B
$GNACCURACY,6.0*10
$GNGGA,031528.800,2500.7755453,N,12132.4580663,E,4,44,0.67,16.707,M,15.25,M,0,3335*4D
$GNRMC,031528.800,A,2500.7755453,N,12132.4580663,E,0.24,147.83,090324,,,R,V*13
$GPHDT,44.836,T*08
$GNACCURACY,6.0*10
$GNGGA,031528.900,2500.7755454,N,12132.4580680,E,4,44,0.67,16.709,M,15.25,M,0,3335*48
$GNRMC,031528.900,A,2500.7755454,N,12132.4580680,E,0.28,147.83,090324,,,R,V*14
$GPHDT,,T*1B
$GNACCURACY,6.0*10
$GNGGA,031529.000,2500.7755454,N,12132.4580686,E,4,44,0.67,16.708,M,15.25,M,1,3335*46
$GNRMC,031529.000,A,2500.7755454,N,12132.4580686,E,0.19,147.83,090324,,,R,V*18
$GPHDT,45.282,T*0C
$GNGSA,A,3,08,194,195,27,16,04,09,07,26,,,,1.18,0.67,0.97,1*03
$GNGSA,A,3,88,78,77,87,,,,,,,,,1.18,0.67,0.97,2*05
$GNGSA,A,3,21,27,15,,,,,,,,,,1.18,0.67,0.97,3*06
$GNGSA,A,3,06,16,43,09,39,40,23,11,10,25,34,28,1.18,0.67,0.97,4*08
$GPGSV,3,1,11,08,72,284,44,199,67,163,,194,63,045,40,195,56,125,35,1*53
$GPGSV,3,2,11,27,55,025,44,16,37,049,30,04,36,221,44,09,31,274,26,1*64
$GPGSV,3,3,11,196,22,174,,07,21,320,29,26,19,079,26,1*60
$GPGSV,2,1,07,08,72,284,46,194,63,045,42,195,56,125,38,27,55,025,45,8*66
$GPGSV,2,2,07,04,36,221,44,09,31,274,26,26,19,079,31,8*54
$GLGSV,2,1,05,88,72,099,40,78,42,357,27,77,34,078,25,87,27,032,29,1*7D
$GLGSV,2,2,05,79,,,21,1*70
$GAGSV,1,1,04,21,50,342,39,27,35,057,30,15,24,053,32,26,23,176,13,7*7E
$GAGSV,1,1,03,21,50,342,43,27,35,057,38,15,24,053,32,1*4D
$GBGSV,3,1,12,06,84,237,39,16,82,185,39,43,77,081,44,09,74,310,40,1*78
$GBGSV,3,2,12,39,70,171,25,40,67,311,42,23,57,350,46,11,53,050,43,1*7A
$GBGSV,3,3,12,10,52,273,37,25,49,089,42,28,34,205,,34,30,042,43,1*73
$GBGSV,2,1,07,43,77,081,43,39,70,171,32,40,67,311,40,23,57,350,46,4*70
$GBGSV,2,2,07,25,49,089,34,28,34,205,28,34,30,042,36,4*4F
$GNACCURACY,6.0*10
$PAIRSAT,1,18,4,0,21,7,0,1,8,0,21,9,0,21,14,0,200,15,0,200,16,0,201,17,0,200,18,0,200,19,0,200,20,0,200,21,0,200,26,0,21,27,0,21,194,0,421,195,0,221,196,0,200,199,0,200*4C
$PAIRSAT,2,10,70,0,200,71,0,200,77,0,1,78,0,1,83,0,200,84,0,200,85,0,200,86,0,200,87,0,201,88,0,201*7A
$PAIRSAT,3,7,2,0,1000,15,0,21,21,0,221,25,0,1200,26,0,1200,27,0,1221,30,0,200*65
$PAIRSAT,4,42,1,0,200,2,0,200,3,0,400,4,0,200,5,0,200,6,0,201,7,0,200,9,0,1,10,0,1,11,0,1,16,0,1,19,0,400,20,0,400,21,0,400,22,0,400,23,0,421,24,0,600,25,0,621,26,0,600,27,0,400,28,0,621,29,0,600,30,0,600,32,0,400,33,0,400,34,0,421,35,0,400,36,0,400,37,0,400,38,0,400,39,0,421,40,0,421,41,0,400,42,0,400,43,0,421,44,0,400,45,0,400,46,0,400,59,0,400,60,0,400,61,0,400,62,0,400*73
$PAIRDGP,0*45
$GNGGA,031529.100,2500.7755456,N,12132.4580689,E,4,44,0.67,16.713,M,15.25,M,1,3335*40
$GNRMC,031529.100,A,2500.7755456,N,12132.4580689,E,0.12,147.83,090324,,,R,V*1F
$GPHDT,,T*1B
$GNACCURACY,6.0*10
$GNGGA,031529.200,2500.7755458,N,12132.4580649,E,4,43,0.67,16.708,M,15.25,M,1,3335*4C
$GNRMC,031529.200,A,2500.7755458,N,12132.4580649,E,0.10,147.83,090324,,,R,V*1C
$GPHDT,45.616,T*05
$GNACCURACY,6.1*11
$GNGGA,031529.300,2500.7755452,N,12132.4580680,E,4,43,0.67,16.713,M,15.25,M,1,3335*48
$GNRMC,031529.300,A,2500.7755452,N,12132.4580680,E,0.11,147.83,090324,,,R,V*13
$GPHDT,,T*1B
$GNACCURACY,6.1*11
$GNGGA,031529.400,2500.7755449,N,12132.4580682,E,4,43,0.67,16.691,M,15.25,M,1,3335*4C
$GNRMC,031529.400,A,2500.7755449,N,12132.4580682,E,0.11,147.83,090324,,,R,V*1C
$GPHDT,44.917,T*0A
$GNACCURACY,6.0*10
$GNGGA,031529.500,2500.7755459,N,12132.4580655,E,4,43,0.67,16.705,M,15.25,M,1,3335*4A
$GNRMC,031529.500,A,2500.7755459,N,12132.4580655,E,0.11,147.83,090324,,,R,V*16
$GPHDT,,T*1B
$GNACCURACY,6.0*10
$GNGGA,031529.600,2500.7755438,N,12132.4580720,E,4,44,0.67,16.729,M,15.25,M,0,3335*45
$GNRMC,031529.600,A,2500.7755438,N,12132.4580720,E,0.11,147.83,090324,,,R,V*11
$GPHDT,44.241,T*02
$GNACCURACY,6.0*10
$GNGGA,031529.700,2500.7755453,N,12132.4580677,E,4,43,0.67,16.716,M,15.25,M,0,3335*41
$GNRMC,031529.700,A,2500.7755453,N,12132.4580677,E,0.16,147.83,090324,,,R,V*19
$GPHDT,,T*1B
$GNACCURACY,6.0*10
$GNGGA,031529.800,2500.7755442,N,12132.4580693,E,4,44,0.67,16.721,M,15.25,M,0,3335*47
$GNRMC,031529.800,A,2500.7755442,N,12132.4580693,E,0.23,147.83,090324,,,R,V*1A
$GPHDT,44.757,T*00
$GNACCURACY,5.9*1A
$GNGGA,031529.900,2500.7755450,N,12132.4580689,E,4,44,0.67,16.721,M,15.25,M,0,3335*4E
$GNRMC,031529.900,A,2500.7755450,N,12132.4580689,E,0.23,147.83,090324,,,R,V*13
$GPHDT,,T*1B
$GNACCURACY,6.0*10
$GNGGA,031530.000,2500.7755455,N,12132.4580660,E,4,43,0.67,16.713,M,15.25,M,1,3335*4A
$GNRMC,031530.000,A,2500.7755455,N,12132.4580660,E,0.18,147.83,090324,,,R,V*18
$GPHDT,44.492,T*0A
$GNGSA,A,3,08,194,195,27,16,04,09,07,26,,,,1.18,0.67,0.97,1*03
$GNGSA,A,3,88,78,77,87,,,,,,,,,1.18,0.67,0.97,2*05
$GNGSA,A,3,21,27,15,,,,,,,,,,1.18,0.67,0.97,3*06
$GNGSA,A,3,06,16,43,09,39,40,23,11,10,25,34,28,1.18,0.67,0.97,4*08
$GPGSV,3,1,11,08,72,284,44,199,67,163,,194,63,045,40,195,56,125,35,1*53
$GPGSV,3,2,11,27,55,025,44,16,37,049,32,04,36,221,44,09,31,274,25,1*65
$GPGSV,3,3,11,196,22,174,,07,21,320,28,26,19,079,25,1*62
$GPGSV,2,1,07,08,72,284,44,194,63,045,42,195,56,125,38,27,55,025,45,8*64
$GPGSV,2,2,07,04,36,221,44,09,31,274,27,26,19,079,31,8*55
$GLGSV,2,1,05,88,72,099,40,78,42,357,27,77,34,078,25,87,27,032,30,1*75
$GLGSV,2,2,05,79,,,18,1*7A
$GAGSV,1,1,04,21,50,342,39,27,35,057,31,15,24,053,30,26,23,176,13,7*7D
$GAGSV,1,1,03,21,50,342,43,27,35,057,38,15,24,053,31,1*4E
$GBGSV,3,1,12,06,84,237,38,16,82,185,39,43,77,081,44,09,74,310,40,1*79
$GBGSV,3,2,12,39,70,171,24,40,67,311,42,23,57,350,46,11,53,050,43,1*7B
$GBGSV,3,3,12,10,52,273,37,25,49,089,42,28,34,205,,34,30,042,43,1*73
$GBGSV,2,1,07,43,77,081,43,39,70,171,31,40,67,311,40,23,57,350,45,4*70
$GBGSV,2,2,07,25,49,089,33,28,34,205,28,34,30,042,36,4*48
$GNACCURACY,6.0*10
$PAIRSAT,1,18,4,0,21,7,0,1,8,0,21,9,0,21,14,0,200,15,0,200,16,0,201,17,0,200,18,0,200,19,0,200,20,0,200,21,0,200,26,0,21,27,0,21,194,0,421,195,0,221,196,0,200,199,0,200*4C
$PAIRSAT,2,10,70,0,200,71,0,200,77,0,1,78,0,1,83,0,200,84,0,200,85,0,200,86,0,200,87,0,201,88,0,201*7A
$PAIRSAT,3,7,2,0,1000,15,0,21,21,0,221,25,0,1200,26,0,1200,27,0,1221,30,0,200*65
$PAIRSAT,4,42,1,0,200,2,0,200,3,0,400,4,0,200,5,0,200,6,0,201,7,0,200,9,0,1,10,0,1,11,0,1,16,0,1,19,0,400,20,0,400,21,0,400,22,0,400,23,0,421,24,0,600,25,0,621,26,0,600,27,0,400,28,0,621,29,0,600,30,0,600,32,0,400,33,0,400,34,0,421,35,0,400,36,0,400,37,0,400,38,0,400,39,0,421,40,0,421,41,0,400,42,0,400,43,0,421,44,0,400,45,0,400,46,0,400,59,0,400,60,0,400,61,0,400,62,0,400*73
$PAIRDGP,0*45
$GNGGA,031530.100,2500.7755460,N,12132.4580691,E,4,44,0.67,16.716,M,15.25,M,1,3335*41
$GNRMC,031530.100,A,2500.7755460,N,12132.4580691,E,0.11,147.83,090324,,,R,V*18
$GPHDT,,T*1B
$GNACCURACY,5.9*1A
$GNGGA,031530.200,2500.7755431,N,12132.4580703,E,4,44,0.67,16.719,M,15.25,M,1,3335*43
$GNRMC,031530.200,A,2500.7755431,N,12132.4580703,E,0.11,147.83,090324,,,R,V*15
$GPHDT,44.524,T*06
$GNACCURACY,5.9*1A
$GNGGA,031530.300,2500.7755468,N,12132.4580678,E,4,44,0.67,16.709,M,15.25,M,1,3335*42
$GNRMC,031530.300,A,2500.7755468,N,12132.4580678,E,0.09,147.83,090324,,,R,V*1C
$GPHDT,,T*1B
$GNACCURACY,5.9*1A
$GNGGA,031530.400,2500.7755451,N,12132.4580678,E,4,44,0.67,16.712,M,15.25,M,1,3335*45
$GNRMC,031530.400,A,2500.7755451,N,12132.4580678,E,0.16,147.83,090324,,,R,V*1F
$GPHDT,44.601,T*02
$GNACCURACY,6.0*10
$GNGGA,031530.500,2500.7755448,N,12132.4580683,E,4,44,0.67,16.714,M,15.25,M,1,3335*4E
$GNRMC,031530.500,A,2500.7755448,N,12132.4580683,E,0.07,147.83,090324,,,R,V*12
$GPHDT,,T*1B
$GNACCURACY,6.0*10
$GNGGA,031530.600,2500.7755411,N,12132.4580702,E,4,44,0.67,16.719,M,15.25,M,1,3335*44
$GNRMC,031530.600,A,2500.7755411,N,12132.4580702,E,0.15,147.83,090324,,,R,V*16
$GPHDT,44.775,T*00
$GNACCURACY,6.0*10
$GNGGA,031530.700,2500.7755450,N,12132.4580687,E,4,44,0.67,16.700,M,15.25,M,1,3335*44
$GNRMC,031530.700,A,2500.7755450,N,12132.4580687,E,0.12,147.83,090324,,,R,V*19
$GPHDT,,T*1B
$GNACCURACY,6.0*10
$GNGGA,031530.800,2500.7755490,N,12132.4580633,E,4,44,0.67,16.700,M,15.25,M,0,3335*49
$GNRMC,031530.800,A,2500.7755490,N,12132.4580633,E,0.19,147.83,090324,,,R,V*1E
$GPHDT,44.934,T*0B
$GNACCURACY,6.0*10
$GNGGA,031530.900,2500.7755460,N,12132.4580660,E,4,44,0.67,16.705,M,15.25,M,0,3335*44
$GNRMC,031530.900,A,2500.7755460,N,12132.4580660,E,0.24,147.83,090324,,,R,V*18
$GPHDT,,T*1B
$GNACCURACY,5.9*1A
$GNGGA,031531.000,2500.7755490,N,12132.4580649,E,4,44,0.67,16.696,M,15.25,M,1,3335*42
$GNRMC,031531.000,A,2500.7755490,N,12132.4580649,E,0.13,147.83,090324,,,R,V*10
$GPHDT,44.912,T*0F
$GNGSA,A,3,08,194,195,27,16,04,09,07,26,,,,1.18,0.67,0.97,1*03
$GNGSA,A,3,88,78,77,87,,,,,,,,,1.18,0.67,0.97,2*05
$GNGSA,A,3,21,27,15,,,,,,,,,,1.18,0.67,0.97,3*06
$GNGSA,A,3,06,16,43,09,39,40,23,11,10,25,34,28,1.18,0.67,0.97,4*08
$GPGSV,3,1,12,08,72,284,44,199,67,163,,194,63,045,40,195,56,125,35,1*50
$GPGSV,3,2,12,27,55,025,44,16,37,049,31,04,36,221,43,21,34,172,,1*6F
$GPGSV,3,3,12,09,31,274,25,196,22,174,,07,21,320,29,26,19,079,25,1*5D
$GPGSV,2,1,07,08,72,284,44,194,63,045,42,195,56,125,38,27,55,025,45,8*64
$GPGSV,2,2,07,04,36,221,44,09,31,274,28,26,19,079,31,8*5A
$GLGSV,2,1,05,88,72,099,40,78,42,357,27,77,34,078,24,87,27,032,30,1*74
$GLGSV,2,2,05,79,,,18,1*7A
$GAGSV,1,1,04,21,50,342,39,27,35,057,31,15,24,053,31,26,23,176,13,7*7C
$GAGSV,1,1,03,21,50,342,43,27,35,057,38,15,24,053,32,1*4D
$GBGSV,3,1,12,06,84,237,38,16,82,185,39,43,77,081,44,09,74,310,40,1*79
$GBGSV,3,2,12,39,70,171,23,40,67,311,42,23,57,350,46,11,53,050,43,1*7C
$GBGSV,3,3,12,10,52,273,37,25,49,089,42,28,34,205,,34,30,042,43,1*73
$GBGSV,2,1,07,43,77,081,43,39,70,171,31,40,67,311,40,23,57,350,45,4*70
$GBGSV,2,2,07,25,49,089,33,28,34,205,28,34,30,042,36,4*48
$GNACCURACY,5.9*1A
$PAIRSAT,1,18,4,0,21,7,0,1,8,0,21,9,0,21,14,0,200,15,0,200,16,0,201,17,0,200,18,0,200,19,0,200,20,0,200,21,0,200,26,0,21,27,0,21,194,0,421,195,0,221,196,0,200,199,0,200*4C
$PAIRSAT,2,10,70,0,200,71,0,200,77,0,1,78,0,1,83,0,200,84,0,200,85,0,200,86,0,200,87,0,201,88,0,201*7A
$PAIRSAT,3,7,2,0,1000,15,0,21,21,0,221,25,0,1200,26,0,1200,27,0,1221,30,0,200*65
$PAIRSAT,4,42,1,0,200,2,0,200,3,0,400,4,0,200,5,0,200,6,0,201,7,0,200,9,0,1,10,0,1,11,0,1,16,0,1,19,0,400,20,0,400,21,0,400,22,0,400,23,0,421,24,0,600,25,0,621,26,0,600,27,0,400,28,0,621,29,0,600,30,0,600,32,0,400,33,0,400,34,0,421,35,0,400,36,0,400,37,0,400,38,0,400,39,0,421,40,0,421,41,0,400,42,0,400,43,0,421,44,0,400,45,0,400,46,0,400,59,0,400,60,0,400,61,0,400,62,0,400*73
$PAIRDGP,0*45
$GNGGA,031531.100,2500.7755480,N,12132.4580661,E,4,44,0.67,16.694,M,15.25,M,1,3335*4A
$GNRMC,031531.100,A,2500.7755480,N,12132.4580661,E,0.13,147.83,090324,,,R,V*1A
$GPHDT,,T*1B
$GNACCURACY,5.9*1A
$GNGGA,031531.200,2500.7755484,N,12132.4580644,E,4,44,0.67,16.704,M,15.25,M,1,3335*42
$GNRMC,031531.200,A,2500.7755484,N,12132.4580644,E,0.07,147.83,090324,,,R,V*1F
$GPHDT,45.126,T*01
$GNACCURACY,5.9*1A
$GNGGA,031531.300,2500.7755494,N,12132.4580628,E,4,44,0.67,16.690,M,15.25,M,1,3335*44
$GNRMC,031531.300,A,2500.7755494,N,12132.4580628,E,0.08,147.83,090324,,,R,V*1A
$GPHDT,,T*1B
$GNACCURACY,5.9*1A
$GNGGA,031531.400,2500.7755476,N,12132.4580635,E,4,43,0.67,16.692,M,15.25,M,1,3335*46
$GNRMC,031531.400,A,2500.7755476,N,12132.4580635,E,0.08,147.83,090324,,,R,V*1D
$GPHDT,44.442,T*07
$GNACCURACY,5.7*14
$GNGGA,031531.500,2500.7755497,N,12132.4580645,E,4,44,0.67,16.700,M,15.25,M,1,3335*42
$GNRMC,031531.500,A,2500.7755497,N,12132.4580645,E,0.08,147.83,090324,,,R,V*14
$GPHDT,,T*1B
$GNACCURACY,5.7*14
$GNGGA,031531.600,2500.7755480,N,12132.4580674,E,4,43,0.67,16.701,M,15.25,M,1,3335*43
$GNRMC,031531.600,A,2500.7755480,N,12132.4580674,E,0.09,147.83,090324,,,R,V*12
$GPHDT,44.551,T*04
$GNACCURACY,5.7*14
$GNGGA,031531.700,2500.7755444,N,12132.4580696,E,4,43,0.67,16.731,M,15.25,M,0,3335*44
$GNRMC,031531.700,A,2500.7755444,N,12132.4580696,E,0.23,147.83,090324,,,R,V*1F
$GPHDT,,T*1B
$GNACCURACY,5.7*14
$GNGGA,031531.800,2500.7755441,N,12132.4580698,E,4,43,0.67,16.718,M,15.25,M,0,3335*4B
$GNRMC,031531.800,A,2500.7755441,N,12132.4580698,E,0.20,147.83,090324,,,R,V*18
$GPHDT,44.720,T*00
$GNACCURACY,5.7*14
$GNGGA,031531.900,2500.7755454,N,12132.4580704,E,4,43,0.67,16.722,M,15.25,M,0,3335*43
$GNRMC,031531.900,A,2500.7755454,N,12132.4580704,E,0.24,147.83,090324,,,R,V*1D
$GPHDT,,T*1B
$GNACCURACY,5.7*14
$GNGGA,031532.000,2500.7755432,N,12132.4580698,E,4,43,0.67,16.724,M,15.25,M,1,3335*4A
$GNRMC,031532.000,A,2500.7755432,N,12132.4580698,E,0.15,147.83,090324,,,R,V*11
$GPHDT,44.875,T*0F
$GNGSA,A,3,08,194,195,27,16,04,09,07,26,,,,1.18,0.67,0.97,1*03
$GNGSA,A,3,88,78,77,87,,,,,,,,,1.18,0.67,0.97,2*05
$GNGSA,A,3,21,27,15,,,,,,,,,,1.18,0.67,0.97,3*06
$GNGSA,A,3,06,16,43,09,39,40,23,11,10,25,34,28,1.18,0.67,0.97,4*08
$GPGSV,3,1,12,08,72,284,44,199,67,163,,194,63,045,40,195,56,125,36,1*53
$GPGSV,3,2,12,27,55,025,44,16,37,049,31,04,36,221,43,21,34,172,29,1*64
$GPGSV,3,3,12,09,31,273,25,196,22,174,,07,21,320,30,26,19,079,25,1*52
$GPGSV,2,1,07,08,72,284,44,194,63,045,42,195,56,125,38,27,55,025,45,8*64
$GPGSV,2,2,07,04,36,221,45,09,31,273,28,26,19,079,32,8*5F
$GLGSV,2,1,05,88,72,099,40,78,42,357,27,77,34,078,24,87,27,032,30,1*74
$GLGSV,2,2,05,79,,,21,1*70
$GAGSV,1,1,04,21,50,342,39,27,35,057,31,15,24,053,31,26,23,176,15,7*7A
$GAGSV,1,1,03,21,50,342,43,27,35,057,38,15,24,053,33,1*4C
$GBGSV,4,1,14,06,84,237,38,16,82,185,39,43,77,081,44,09,74,310,40,1*78
$GBGSV,4,2,14,39,70,171,24,40,67,311,42,07,63,289,,23,57,350,46,1*7F
$GBGSV,4,3,14,11,53,050,43,10,52,273,37,25,49,089,42,28,34,205,,1*73
$GBGSV,4,4,14,34,30,042,43,32,07,261,,1*75
$GBGSV,2,1,07,43,77,081,43,39,70,171,31,40,67,311,40,23,57,350,45,4*70
$GBGSV,2,2,07,25,49,089,34,28,34,205,28,34,30,042,37,4*4E
$GNACCURACY,5.7*14
$PAIRSAT,1,18,4,0,21,7,0,1,8,0,21,9,0,21,14,0,200,15,0,200,16,0,201,17,0,200,18,0,200,19,0,200,20,0,200,21,0,200,26,0,21,27,0,21,194,0,421,195,0,221,196,0,200,199,0,200*4C
$PAIRSAT,2,10,70,0,200,71,0,200,77,0,1,78,0,1,83,0,200,84,0,200,85,0,200,86,0,200,87,0,201,88,0,201*7A
$PAIRSAT,3,10,2,0,1000,3,0,1000,4,0,1000,15,0,21,21,0,221,25,0,1200,26,0,1200,27,0,1221,30,0,1200,31,0,1000*7A
$PAIRSAT,4,42,1,0,200,2,0,200,3,0,400,4,0,200,5,0,200,6,0,201,7,0,200,9,0,1,10,0,1,11,0,1,16,0,1,19,0,400,20,0,400,21,0,400,22,0,400,23,0,421,24,0,600,25,0,621,26,0,600,27,0,400,28,0,621,29,0,600,30,0,600,32,0,400,33,0,400,34,0,421,35,0,400,36,0,400,37,0,400,38,0,400,39,0,421,40,0,421,41,0,400,42,0,400,43,0,421,44,0,400,45,0,400,46,0,400,59,0,400,60,0,400,61,0,400,62,0,400*73
$PAIRDGP,0*45
$GNGGA,031532.100,2500.7755440,N,12132.4580720,E,4,43,0.67,16.725,M,15.25,M,1,3335*4D
$GNRMC,031532.100,A,2500.7755440,N,12132.4580720,E,0.10,147.83,090324,,,R,V*12
$GPHDT,,T*1B
$GNACCURACY,5.7*14
$GNGGA,031532.200,2500.7755452,N,12132.4580703,E,4,43,0.67,16.726,M,15.25,M,1,3335*4F
$GNRMC,031532.200,A,2500.7755452,N,12132.4580703,E,0.07,147.83,090324,,,R,V*15
$GPHDT,45.015,T*00
$GNACCURACY,5.7*14
$GNGGA,031532.300,2500.7755425,N,12132.4580723,E,4,43,0.67,16.722,M,15.25,M,1,3335*48
$GNRMC,031532.300,A,2500.7755425,N,12132.4580723,E,0.09,147.83,090324,,,R,V*18
$GPHDT,,T*1B
$GNACCURACY,5.7*14
$GNGGA,031532.400,2500.7755441,N,12132.4580699,E,4,42,0.67,16.723,M,15.25,M,1,3335*4D
$GNRMC,031532.400,A,2500.7755441,N,12132.4580699,E,0.07,147.83,090324,,,R,V*13
$GPHDT,44.962,T*08
$GNACCURACY,5.7*14
$GNGGA,031532.500,2500.7755447,N,12132.4580707,E,4,44,0.67,16.714,M,15.25,M,1,3335*4E
$GNRMC,031532.500,A,2500.7755447,N,12132.4580707,E,0.09,147.83,090324,,,R,V*1C
$GPHDT,,T*1B
$GNACCURACY,5.5*16
$GNGGA,031532.600,2500.7755421,N,12132.4580715,E,4,44,0.67,16.715,M,15.25,M,1,3335*4F
$GNRMC,031532.600,A,2500.7755421,N,12132.4580715,E,0.10,147.83,090324,,,R,V*14
$GPHDT,44.813,T*0F
$GNACCURACY,5.5*16
$GNGGA,031532.700,2500.7755435,N,12132.4580732,E,4,44,0.67,16.722,M,15.25,M,1,3335*4A
$GNRMC,031532.700,A,2500.7755435,N,12132.4580732,E,0.25,147.83,090324,,,R,V*13
$GPHDT,,T*1B
$GNACCURACY,5.5*16
$GNGGA,031532.800,2500.7755406,N,12132.4580744,E,4,44,0.65,16.725,M,15.25,M,1,3335*41
$GNRMC,031532.800,A,2500.7755406,N,12132.4580744,E,0.22,147.83,090324,,,R,V*1A
$GPHDT,45.161,T*02
$GNACCURACY,5.5*16
$GNGGA,031532.900,2500.7755440,N,12132.4580668,E,4,43,0.67,16.700,M,15.25,M,0,3335*4E
$GNRMC,031532.900,A,2500.7755440,N,12132.4580668,E,0.16,147.83,090324,,,R,V*11
$GPHDT,,T*1B
$GNACCURACY,5.5*16
$GNGGA,031533.000,2500.7755435,N,12132.4580687,E,4,43,0.67,16.701,M,15.25,M,1,3335*45
$GNRMC,031533.000,A,2500.7755435,N,12132.4580687,E,0.14,147.83,090324,,,R,V*18
$GPHDT,45.284,T*0A
$GNGSA,A,3,08,194,195,27,16,04,09,07,26,,,,1.18,0.67,0.97,1*03
$GNGSA,A,3,88,78,77,87,,,,,,,,,1.18,0.67,0.97,2*05
$GNGSA,A,3,21,27,15,,,,,,,,,,1.18,0.67,0.97,3*06
$GNGSA,A,3,06,16,43,09,39,40,23,11,10,25,34,28,1.18,0.67,0.97,4*08
$GPGSV,3,1,12,08,72,284,44,199,67,163,,194,63,045,40,195,56,125,36,1*53
$GPGSV,3,2,12,27,55,025,44,16,37,049,32,04,36,221,43,21,34,172,29,1*67
$GPGSV,3,3,12,09,31,273,27,196,22,174,,07,21,320,30,26,19,079,24,1*51
$GPGSV,2,1,07,08,72,284,44,194,63,045,42,195,56,125,38,27,55,025,45,8*64
$GPGSV,2,2,07,04,36,221,45,09,31,273,28,26,19,079,32,8*5F
$GLGSV,2,1,05,88,72,099,39,78,42,357,28,77,34,078,25,87,27,032,30,1*74
$GLGSV,2,2,05,79,,,22,1*73
$GAGSV,1,1,04,21,50,342,39,27,35,057,31,15,24,053,31,26,23,176,15,7*7A
$GAGSV,1,1,03,21,50,342,43,27,35,057,38,15,24,053,33,1*4C
$GBGSV,4,1,13,06,84,237,38,16,82,185,39,43,77,081,44,09,74,310,40,1*7F
$GBGSV,4,2,13,39,70,171,24,40,67,311,42,07,63,289,40,23,57,350,46,1*7C
$GBGSV,4,3,13,11,53,050,43,10,52,273,37,25,49,089,42,28,34,205,,1*74
$GBGSV,4,4,13,34,30,042,43,1*41
$GBGSV,2,1,07,43,77,081,43,39,70,171,30,40,67,311,40,23,57,350,45,4*71
$GBGSV,2,2,07,25,49,089,33,28,34,205,28,34,30,042,37,4*49
$GNACCURACY,5.6*15
$PAIRSAT,1,18,4,0,21,7,0,1,8,0,21,9,0,21,14,0,200,15,0,200,16,0,201,17,0,200,18,0,200,19,0,200,20,0,200,21,0,200,26,0,21,27,0,21,194,0,421,195,0,221,196,0,200,199,0,200*4C
$PAIRSAT,2,10,70,0,200,71,0,200,77,0,1,78,0,1,83,0,200,84,0,200,85,0,200,86,0,200,87,0,201,88,0,201*7A
$PAIRSAT,3,10,2,0,1000,3,0,1000,4,0,1000,15,0,21,21,0,221,25,0,1200,26,0,1200,27,0,1221,30,0,1200,31,0,1000*7A
$PAIRSAT,4,42,1,0,200,2,0,200,3,0,400,4,0,200,5,0,200,6,0,201,7,0,200,9,0,1,10,0,1,11,0,1,16,0,1,19,0,400,20,0,400,21,0,400,22,0,400,23,0,421,24,0,600,25,0,621,26,0,600,27,0,400,28,0,621,29,0,600,30,0,600,32,0,400,33,0,400,34,0,421,35,0,400,36,0,400,37,0,400,38,0,400,39,0,421,40,0,421,41,0,400,42,0,400,43,0,421,44,0,400,45,0,400,46,0,400,59,0,400,60,0,400,61,0,400,62,0,400*73
$PAIRDGP,0*45
$GNGGA,031533.100,2500.7755435,N,12132.4580693,E,4,43,0.67,16.709,M,15.25,M,1,3335*49
$GNRMC,031533.100,A,2500.7755435,N,12132.4580693,E,0.06,147.83,090324,,,R,V*1F
$GPHDT,,T*1B
$GNACCURACY,5.6*15
$GNGGA,031533.200,2500.7755441,N,12132.4580678,E,4,43,0.67,16.703,M,15.25,M,1,3335*46
$GNRMC,031533.200,A,2500.7755441,N,12132.4580678,E,0.05,147.83,090324,,,R,V*19
$GPHDT,45.327,T*02
$GNACCURACY,5.6*15
$GNGGA,031533.300,2500.7755468,N,12132.4580642,E,4,44,0.67,16.692,M,15.25,M,1,3335*4B
$GNRMC,031533.300,A,2500.7755468,N,12132.4580642,E,0.04,147.83,090324,,,R,V*1B
$GPHDT,,T*1B
$GNACCURACY,5.6*15
$GNGGA,031533.400,2500.7755456,N,12132.4580668,E,4,43,0.67,16.701,M,15.25,M,1,3335*45
$GNRMC,031533.400,A,2500.7755456,N,12132.4580668,E,0.06,147.83,090324,,,R,V*1B
$GPHDT,45.399,T*07
$GNACCURACY,5.6*15
$GNGGA,031533.500,2500.7755398,N,12132.4580709,E,4,43,0.67,16.702,M,15.25,M,1,3335*44
$GNRMC,031533.500,A,2500.7755398,N,12132.4580709,E,0.18,147.83,090324,,,R,V*16
$GPHDT,,T*1B
$GNACCURACY,5.6*15
$GNGGA,031533.600,2500.7755449,N,12132.4580674,E,4,43,0.67,16.696,M,15.25,M,1,3335*4B
$GNRMC,031533.600,A,2500.7755449,N,12132.4580674,E,0.10,147.83,090324,,,R,V*1D
$GPHDT,45.516,T*06
$GNACCURACY,5.6*15
$GNGGA,031533.700,2500.7755482,N,12132.4580646,E,4,44,0.67,16.709,M,15.25,M,0,3335*4D
$GNRMC,031533.700,A,2500.7755482,N,12132.4580646,E,0.15,147.83,090324,,,R,V*1F
$GPHDT,,T*1B
$GNACCURACY,5.6*15
$GNGGA,031533.800,2500.7755477,N,12132.4580631,E,4,43,0.67,16.712,M,15.25,M,0,3335*45
$GNRMC,031533.800,A,2500.7755477,N,12132.4580631,E,0.21,147.83,090324,,,R,V*1D
$GPHDT,45.341,T*02
$GNACCURACY,5.5*16
$GNGGA,031533.900,2500.7755484,N,12132.4580623,E,4,43,0.67,16.703,M,15.25,M,0,3335*4B
$GNRMC,031533.900,A,2500.7755484,N,12132.4580623,E,0.25,147.83,090324,,,R,V*17
$GPHDT,,T*1B
$GNACCURACY,5.5*16
$GNGGA,031534.000,2500.7755503,N,12132.4580610,E,4,43,0.67,16.713,M,15.25,M,1,3335*4B
$GNRMC,031534.000,A,2500.7755503,N,12132.4580610,E,0.17,147.83,090324,,,R,V*16
$GPHDT,45.861,T*0B
$GNGSA,A,3,08,194,195,27,16,04,09,07,26,,,,1.18,0.67,0.97,1*03
$GNGSA,A,3,88,78,77,87,,,,,,,,,1.18,0.67,0.97,2*05
$GNGSA,A,3,21,27,15,,,,,,,,,,1.18,0.67,0.97,3*06
$GNGSA,A,3,06,16,43,09,39,40,23,11,10,25,34,28,1.18,0.67,0.97,4*08
$GPGSV,3,1,12,08,72,284,44,199,67,163,,194,63,045,40,195,56,125,36,1*53
$GPGSV,3,2,12,27,55,025,44,16,37,049,33,04,36,221,43,21,34,172,28,1*67
$GPGSV,3,3,12,09,31,273,25,196,22,174,,07,21,320,30,26,19,079,23,1*54
$GPGSV,2,1,07,08,72,284,44,194,63,045,42,195,56,125,38,27,55,025,45,8*64
$GPGSV,2,2,07,04,36,221,45,09,31,273,28,26,19,079,33,8*5E
$GLGSV,2,1,05,88,72,099,40,78,42,357,30,77,34,078,25,87,27,032,30,1*73
$GLGSV,2,2,05,79,,,23,1*72
$GAGSV,1,1,04,21,50,342,39,27,35,057,31,15,24,053,32,26,23,176,14,7*78
$GAGSV,1,1,03,21,50,342,43,27,35,057,38,15,24,053,33,1*4C
$GBGSV,4,1,16,06,84,237,38,16,82,185,39,43,77,081,44,09,74,310,40,1*7A
$GBGSV,4,2,16,39,70,171,26,40,67,311,42,07,63,289,40,23,57,350,46,1*7B
$GBGSV,4,3,16,11,53,050,43,10,52,273,37,25,49,089,42,28,34,205,,1*71
$GBGSV,4,4,16,34,30,042,43,41,06,211,,24,03,115,,38,03,172,,1*79
$GBGSV,2,1,07,43,77,081,43,39,70,171,30,40,67,311,40,23,57,350,45,4*71
$GBGSV,2,2,07,25,49,089,33,28,34,205,28,34,30,042,37,4*49
$GNACCURACY,5.5*16
$PAIRSAT,1,18,4,0,21,7,0,1,8,0,21,9,0,21,14,0,200,15,0,200,16,0,201,17,0,200,18,0,200,19,0,200,20,0,200,21,0,200,26,0,21,27,0,21,194,0,421,195,0,221,196,0,200,199,0,200*4C
$PAIRSAT,2,10,70,0,200,71,0,200,77,0,1,78,0,1,83,0,200,84,0,200,85,0,200,86,0,200,87,0,201,88,0,201*7A
$PAIRSAT,3,10,2,0,1000,3,0,1000,4,0,1000,15,0,21,21,0,221,25,0,1200,26,0,1200,27,0,1221,30,0,1200,31,0,1000*7A
$PAIRSAT,4,42,1,0,200,2,0,200,3,0,400,4,0,200,5,0,200,6,0,201,7,0,200,9,0,1,10,0,1,11,0,1,16,0,1,19,0,400,20,0,400,21,0,400,22,0,400,23,0,421,24,0,600,25,0,621,26,0,600,27,0,400,28,0,621,29,0,600,30,0,600,32,0,400,33,0,400,34,0,421,35,0,400,36,0,400,37,0,400,38,0,400,39,0,421,40,0,421,41,0,400,42,0,400,43,0,421,44,0,400,45,0,400,46,0,400,59,0,400,60,0,400,61,0,400,62,0,400*73
$PAIRDGP,0*45
$GNGGA,031534.100,2500.7755463,N,12132.4580657,E,4,43,0.67,16.703,M,15.25,M,1,3335*4F
$GNRMC,031534.100,A,2500.7755463,N,12132.4580657,E,0.13,147.83,090324,,,R,V*17
$GPHDT,,T*1B
$GNACCURACY,5.5*16
$GNGGA,031534.200,2500.7755469,N,12132.4580654,E,4,43,0.67,16.706,M,15.25,M,1,3335*40
$GNRMC,031534.200,A,2500.7755469,N,12132.4580654,E,0.12,147.83,090324,,,R,V*1C
$GPHDT,45.804,T*08
$GNACCURACY,5.5*16
$GNGGA,031534.300,2500.7755494,N,12132.4580634,E,4,43,0.67,16.696,M,15.25,M,1,3335*4D
$GNRMC,031534.300,A,2500.7755494,N,12132.4580634,E,0.09,147.83,090324,,,R,V*13
$GPHDT,,T*1B
$GNACCURACY,5.5*16
$GNGGA,031534.400,2500.7755460,N,12132.4580648,E,4,43,0.67,16.707,M,15.25,M,1,3335*43
$GNRMC,031534.400,A,2500.7755460,N,12132.4580648,E,0.11,147.83,090324,,,R,V*1D
$GPHDT,45.564,T*03
$GNACCURACY,5.5*16
$GNGGA,031534.500,2500.7755452,N,12132.4580654,E,4,43,0.67,16.703,M,15.25,M,1,3335*4A
$GNRMC,031534.500,A,2500.7755452,N,12132.4580654,E,0.11,147.83,090324,,,R,V*10
$GPHDT,,T*1B
$GNACCURACY,5.5*16
$GNGGA,031534.600,2500.7755458,N,12132.4580693,E,4,43,0.67,16.710,M,15.25,M,0,3335*4B
$GNRMC,031534.600,A,2500.7755458,N,12132.4580693,E,0.11,147.83,090324,,,R,V*12
$GPHDT,45.169,T*0A
$GNACCURACY,5.5*16
$GNGGA,031534.700,2500.7755416,N,12132.4580711,E,4,43,0.67,16.715,M,15.25,M,0,3335*4E
$GNRMC,031534.700,A,2500.7755416,N,12132.4580711,E,0.12,147.83,090324,,,R,V*11
$GPHDT,,T*1B
$GNACCURACY,5.6*15
$GNGGA,031534.800,2500.7755478,N,12132.4580658,E,4,43,0.67,16.695,M,15.25,M,0,3335*4C
$GNRMC,031534.800,A,2500.7755478,N,12132.4580658,E,0.08,147.83,090324,,,R,V*11
$GPHDT,45.742,T*05
$GNACCURACY,5.6*15
$GNGGA,031534.900,2500.7755476,N,12132.4580674,E,4,43,0.67,16.713,M,15.25,M,0,3335*42
$GNRMC,031534.900,A,2500.7755476,N,12132.4580674,E,0.32,147.83,090324,,,R,V*19
$GPHDT,,T*1B
$GNACCURACY,5.6*15
$GNGGA,031535.000,2500.7755484,N,12132.4580660,E,4,43,0.67,16.700,M,15.25,M,1,3335*41
$GNRMC,031535.000,A,2500.7755484,N,12132.4580660,E,0.17,147.83,090324,,,R,V*1E
$GPHDT,44.916,T*0B
$GNGSA,A,3,08,194,195,27,16,04,09,07,26,,,,1.18,0.67,0.97,1*03
$GNGSA,A,3,88,78,77,87,,,,,,,,,1.18,0.67,0.97,2*05
$GNGSA,A,3,21,27,15,,,,,,,,,,1.18,0.67,0.97,3*06
$GNGSA,A,3,06,16,43,09,39,40,23,11,10,25,34,28,1.18,0.67,0.97,4*08
$GPGSV,3,1,12,08,72,284,44,199,67,163,,194,63,045,40,195,56,125,36,1*53
$GPGSV,3,2,12,27,55,025,44,16,37,049,33,04,36,221,43,21,34,172,25,1*6A
$GPGSV,3,3,12,09,31,273,28,196,22,174,,07,21,320,29,26,19,079,22,1*50
$GPGSV,2,1,07,08,72,284,44,194,63,045,42,195,56,125,38,27,55,025,45,8*64
$GPGSV,2,2,07,04,36,221,44,09,31,273,28,26,19,079,33,8*5F
$GLGSV,2,1,05,88,72,099,39,78,42,357,31,77,34,078,25,87,27,032,30,1*7C
$GLGSV,2,2,05,79,,,24,1*75
$GAGSV,2,1,05,21,50,342,39,27,35,057,30,15,24,053,32,26,23,176,15,7*7A
$GAGSV,2,2,05,04,08,316,,7*4E
$GAGSV,1,1,03,21,50,342,43,27,35,057,38,15,24,053,33,1*4C
$GBGSV,4,1,15,06,84,237,38,16,82,185,39,43,77,081,44,09,74,310,40,1*79
$GBGSV,4,2,15,39,70,171,26,40,67,311,42,07,63,289,39,23,57,350,46,1*76
$GBGSV,4,3,15,11,53,050,43,10,52,273,37,25,49,089,42,28,34,205,,1*72
$GBGSV,4,4,15,34,30,042,43,24,03,115,,38,03,172,,1*4B
$GBGSV,2,1,07,43,77,081,43,39,70,171,31,40,67,311,40,23,57,350,45,4*70
$GBGSV,2,2,07,25,49,089,33,28,34,205,28,34,30,042,37,4*49
$GNACCURACY,5.6*15
$PAIRSAT,1,18,4,0,21,7,0,1,8,0,21,9,0,21,14,0,200,15,0,200,16,0,201,17,0,200,18,0,200,19,0,200,20,0,200,21,0,200,26,0,21,27,0,21,194,0,421,195,0,221,196,0,200,199,0,200*4C
$PAIRSAT,2,10,70,0,200,71,0,200,77,0,1,78,0,1,83,0,200,84,0,200,85,0,200,86,0,200,87,0,201,88,0,201*7A
$PAIRSAT,3,10,2,0,1000,3,0,1000,4,0,1000,15,0,21,21,0,221,25,0,1200,26,0,1200,27,0,1221,30,0,1200,31,0,1000*7A
$PAIRSAT,4,42,1,0,200,2,0,200,3,0,400,4,0,200,5,0,200,6,0,201,7,0,200,9,0,1,10,0,1,11,0,1,16,0,1,19,0,400,20,0,400,21,0,400,22,0,400,23,0,421,24,0,600,25,0,621,26,0,600,27,0,400,28,0,621,29,0,600,30,0,600,32,0,400,33,0,400,34,0,421,35,0,400,36,0,400,37,0,400,38,0,400,39,0,421,40,0,421,41,0,400,42,0,400,43,0,421,44,0,400,45,0,400,46,0,400,59,0,400,60,0,400,61,0,400,62,0,400*73
$PAIRDGP,0*45
$GNGGA,031535.100,2500.7755453,N,12132.4580694,E,4,43,0.67,16.711,M,15.25,M,1,3335*41
$GNRMC,031535.100,A,2500.7755453,N,12132.4580694,E,0.11,147.83,090324,,,R,V*18
$GPHDT,,T*1B
$GNACCURACY,5.6*15
$GNGGA,031535.200,2500.7755452,N,12132.4580706,E,4,43,0.67,16.708,M,15.25,M,1,3335*41
$GNRMC,031535.200,A,2500.7755452,N,12132.4580706,E,0.12,147.83,090324,,,R,V*13
$GPHDT,45.277,T*06
$GNACCURACY,5.6*15
$GNGGA,031535.300,2500.7755467,N,12132.4580675,E,4,43,0.67,16.707,M,15.25,M,1,3335*4C
$GNRMC,031535.300,A,2500.7755467,N,12132.4580675,E,0.08,147.83,090324,,,R,V*1A
$GPHDT,,T*1B
$GNACCURACY,5.6*15
$GNGGA,031535.400,2500.7755467,N,12132.4580687,E,4,43,0.67,16.707,M,15.25,M,1,3335*46
$GNRMC,031535.400,A,2500.7755467,N,12132.4580687,E,0.10,147.83,090324,,,R,V*19
$GPHDT,45.203,T*05
$GNACCURACY,5.6*15
$GNGGA,031535.500,2500.7755484,N,12132.4580679,E,4,43,0.67,16.702,M,15.25,M,1,3335*4E
$GNRMC,031535.500,A,2500.7755484,N,12132.4580679,E,0.07,147.83,090324,,,R,V*12
$GPHDT,,T*1B
$GNACCURACY,5.6*15
$GNGGA,031535.600,2500.7755476,N,12132.4580690,E,4,43,0.67,16.698,M,15.25,M,1,3335*45
$GNRMC,031535.600,A,2500.7755476,N,12132.4580690,E,0.06,147.83,090324,,,R,V*1A
$GPHDT,44.972,T*09
$GNACCURACY,5.6*15
$GNGGA,031535.700,2500.7755450,N,12132.4580704,E,4,43,0.67,16.705,M,15.25,M,1,3335*49
$GNRMC,031535.700,A,2500.7755450,N,12132.4580704,E,0.09,147.83,090324,,,R,V*1C
$GPHDT,,T*1B
$GNACCURACY,5.6*15
$GNGGA,031535.800,2500.7755470,N,12132.4580671,E,4,43,0.67,16.704,M,15.25,M,0,3335*47
$GNRMC,031535.800,A,2500.7755470,N,12132.4580671,E,0.10,147.83,090324,,,R,V*1A
$GPHDT,44.864,T*0F
$GNACCURACY,5.6*15
$GNGGA,031535.900,2500.7755490,N,12132.4580657,E,4,43,0.67,16.706,M,15.25,M,0,3335*4E
$GNRMC,031535.900,A,2500.7755490,N,12132.4580657,E,0.10,147.83,090324,,,R,V*11
$GPHDT,,T*1B
$GNACCURACY,5.6*15
$GNGGA,031536.000,2500.7755451,N,12132.4580683,E,4,43,0.67,16.708,M,15.25,M,1,3335*4F
$GNRMC,031536.000,A,2500.7755451,N,12132.4580683,E,0.10,147.83,090324,,,R,V*1F
$GPHDT,45.273,T*02
$GNGSA,A,3,08,194,195,27,16,04,09,07,26,,,,1.18,0.67,0.97,1*03
$GNGSA,A,3,88,78,77,87,,,,,,,,,1.18,0.67,0.97,2*05
$GNGSA,A,3,21,27,15,,,,,,,,,,1.18,0.67,0.97,3*06
$GNGSA,A,3,06,16,43,09,39,40,23,11,10,25,34,28,1.18,0.67,0.97,4*08
$GPGSV,3,1,12,08,72,284,44,199,67,163,,194,63,045,40,195,56,125,36,1*53
$GPGSV,3,2,12,27,55,025,43,16,37,049,32,04,36,221,43,21,34,172,24,1*6D
$GPGSV,3,3,12,09,31,273,30,196,22,174,,07,21,320,28,26,19,079,22,1*58
$GPGSV,2,1,07,08,72,284,45,194,63,045,42,195,56,125,38,27,55,025,45,8*65
$GPGSV,2,2,07,04,36,221,44,09,31,273,29,26,19,079,33,8*5E
$GLGSV,2,1,05,88,72,099,39,78,42,357,32,77,34,078,25,87,27,032,29,1*77
$GLGSV,2,2,05,79,,,26,1*77
$GAGSV,2,1,05,21,50,342,39,27,35,057,30,15,24,053,33,26,23,176,17,7*79
$GAGSV,2,2,05,04,08,316,19,7*46
$GAGSV,1,1,03,21,50,342,43,27,35,057,38,15,24,053,33,1*4C
$GBGSV,4,1,13,06,84,237,38,16,82,185,39,43,77,081,44,09,74,310,40,1*7F
$GBGSV,4,2,13,39,70,171,27,40,67,311,42,07,63,289,39,23,57,350,46,1*71
$GBGSV,4,3,13,11,53,050,43,10,52,273,37,25,49,089,43,28,34,205,,1*75
$GBGSV,4,4,13,34,30,042,43,1*41
$GBGSV,2,1,07,43,77,081,43,39,70,171,32,40,67,311,40,23,57,350,45,4*73
$GBGSV,2,2,07,25,49,089,34,28,34,205,28,34,30,042,37,4*4E
$GNACCURACY,5.6*15
$PAIRSAT,1,18,4,0,21,7,0,1,8,0,21,9,0,21,14,0,200,15,0,200,16,0,201,17,0,200,18,0,200,19,0,200,20,0,200,21,0,200,26,0,21,27,0,21,194,0,421,195,0,221,196,0,200,199,0,200*4C
$PAIRSAT,2,10,70,0,200,71,0,200,77,0,1,78,0,1,83,0,200,84,0,200,85,0,200,86,0,200,87,0,201,88,0,201*7A
$PAIRSAT,3,10,2,0,1000,3,0,1000,4,0,1000,15,0,21,21,0,221,25,0,1200,26,0,1200,27,0,1221,30,0,1200,31,0,1000*7A
$PAIRSAT,4,42,1,0,200,2,0,200,3,0,400,4,0,200,5,0,200,6,0,201,7,0,200,9,0,1,10,0,1,11,0,1,16,0,1,19,0,400,20,0,400,21,0,400,22,0,400,23,0,421,24,0,600,25,0,621,26,0,600,27,0,400,28,0,621,29,0,600,30,0,600,32,0,400,33,0,400,34,0,421,35,0,400,36,0,400,37,0,400,38,0,400,39,0,421,40,0,421,41,0,400,42,0,400,43,0,421,44,0,400,45,0,400,46,0,400,59,0,400,60,0,400,61,0,400,62,0,400*73
$PAIRDGP,0*45
$GNGGA,031536.100,2500.7755490,N,12132.4580662,E,4,43,0.67,16.702,M,15.25,M,1,3335*46
$GNRMC,031536.100,A,2500.7755490,N,12132.4580662,E,0.09,147.83,090324,,,R,V*14
$GPHDT,,T*1B
$GNACCURACY,5.6*15
$GNGGA,031536.200,2500.7755443,N,12132.4580706,E,4,43,0.67,16.710,M,15.25,M,1,3335*4B
$GNRMC,031536.200,A,2500.7755443,N,12132.4580706,E,0.09,147.83,090324,,,R,V*1A
$GPHDT,45.225,T*01
$GNACCURACY,5.6*15
$GNGGA,031536.300,2500.7755475,N,12132.4580660,E,4,43,0.67,16.699,M,15.25,M,1,3335*4E
$GNRMC,031536.300,A,2500.7755475,N,12132.4580660,E,0.07,147.83,090324,,,R,V*11
$GPHDT,,T*1B
$GNACCURACY,5.6*15
$GNGGA,031536.400,2500.7755470,N,12132.4580684,E,4,43,0.67,16.699,M,15.25,M,1,3335*46
$GNRMC,031536.400,A,2500.7755470,N,12132.4580684,E,0.07,147.83,090324,,,R,V*19
$GPHDT,44.965,T*0F
$GNACCURACY,5.6*15
$GNGGA,031536.500,2500.7755481,N,12132.4580674,E,4,43,0.67,16.706,M,15.25,M,1,3335*41
$GNRMC,031536.500,A,2500.7755481,N,12132.4580674,E,0.07,147.83,090324,,,R,V*19
$GPHDT,,T*1B
$GNACCURACY,5.6*15
$GNGGA,031536.600,2500.7755479,N,12132.4580664,E,4,43,0.67,16.696,M,15.25,M,1,3335*4C
$GNRMC,031536.600,A,2500.7755479,N,12132.4580664,E,0.07,147.83,090324,,,R,V*1C
$GPHDT,45.164,T*07
$GNACCURACY,5.6*15
$GNGGA,031536.700,2500.7755477,N,12132.4580672,E,4,43,0.67,16.696,M,15.25,M,1,3335*44
$GNRMC,031536.700,A,2500.7755477,N,12132.4580672,E,0.06,147.83,090324,,,R,V*15
$GPHDT,,T*1B
$GNACCURACY,5.6*15
$GNGGA,031536.800,2500.7755494,N,12132.4580657,E,4,43,0.67,16.709,M,15.25,M,0,3335*47
$GNRMC,031536.800,A,2500.7755494,N,12132.4580657,E,0.04,147.83,090324,,,R,V*12
$GPHDT,44.970,T*0B
$GNACCURACY,5.6*15
$GNGGA,031536.900,2500.7755479,N,12132.4580669,E,4,43,0.67,16.703,M,15.25,M,0,3335*42
$GNRMC,031536.900,A,2500.7755479,N,12132.4580669,E,0.07,147.83,090324,,,R,V*1E
$GPHDT,,T*1B
$GNACCURACY,5.6*15
$GNGGA,031537.000,2500.7755489,N,12132.4580656,E,4,43,0.67,16.690,M,15.25,M,1,3335*43
$GNRMC,031537.000,A,2500.7755489,N,12132.4580656,E,0.05,147.83,090324,,,R,V*17
$GPHDT,45.274,T*05
$GNGSA,A,3,08,194,195,27,16,04,09,07,26,,,,1.18,0.67,0.97,1*03
$GNGSA,A,3,88,78,77,87,,,,,,,,,1.18,0.67,0.97,2*05
$GNGSA,A,3,21,27,15,,,,,,,,,,1.18,0.67,0.97,3*06
$GNGSA,A,3,06,16,43,09,39,40,23,11,10,25,34,28,1.18,0.67,0.97,4*08
$GPGSV,3,1,12,08,72,284,44,199,67,163,,194,63,045,40,195,56,125,36,1*53
$GPGSV,3,2,12,27,55,025,43,16,37,049,32,04,36,221,43,21,34,172,22,1*6B
$GPGSV,3,3,12,09,31,273,29,196,22,174,,07,21,320,28,26,19,079,20,1*52
$GPGSV,2,1,07,08,72,284,45,194,63,045,42,195,56,125,38,27,55,025,45,8*65
$GPGSV,2,2,07,04,36,221,44,09,31,273,29,26,19,079,32,8*5F
$GLGSV,2,1,05,88,72,099,39,78,42,357,32,77,34,078,25,87,27,032,29,1*77
$GLGSV,2,2,05,79,,,26,1*77
$GAGSV,2,1,05,21,50,342,39,27,35,057,30,15,24,053,32,26,23,176,17,7*78
$GAGSV,2,2,05,04,08,316,20,7*4C
$GAGSV,1,1,03,21,50,342,43,27,35,057,38,15,24,053,32,1*4D
$GBGSV,4,1,13,06,84,237,38,16,82,185,39,43,77,081,44,09,74,310,40,1*7F
$GBGSV,4,2,13,39,70,171,28,40,67,311,42,07,63,289,40,23,57,350,46,1*70
$GBGSV,4,3,13,11,53,050,43,10,52,273,37,25,49,089,43,28,34,205,,1*75
$GBGSV,4,4,13,34,30,042,43,1*41
$GBGSV,2,1,07,43,77,081,43,39,70,171,32,40,67,311,40,23,57,350,45,4*73
$GBGSV,2,2,07,25,49,089,35,28,34,205,27,34,30,042,37,4*40
$GNACCURACY,5.6*15
$PAIRSAT,1,18,4,0,21,7,0,1,8,0,21,9,0,21,14,0,200,15,0,200,16,0,201,17,0,200,18,0,200,19,0,200,20,0,200,21,0,200,26,0,21,27,0,21,194,0,421,195,0,221,196,0,200,199,0,200*4C
$PAIRSAT,2,10,70,0,200,71,0,200,77,0,1,78,0,1,83,0,200,84,0,200,85,0,200,86,0,200,87,0,201,88,0,201*7A
$PAIRSAT,3,10,2,0,1000,3,0,1000,4,0,1000,15,0,21,21,0,221,25,0,1200,26,0,1200,27,0,1221,30,0,1200,31,0,1000*7A
$PAIRSAT,4,42,1,0,200,2,0,200,3,0,400,4,0,200,5,0,200,6,0,201,7,0,200,9,0,1,10,0,1,11,0,1,16,0,1,19,0,400,20,0,400,21,0,400,22,0,400,23,0,421,24,0,600,25,0,621,26,0,600,27,0,400,28,0,621,29,0,600,30,0,600,32,0,400,33,0,400,34,0,421,35,0,400,36,0,400,37,0,400,38,0,400,39,0,421,40,0,421,41,0,400,42,0,400,43,0,421,44,0,400,45,0,400,46,0,400,59,0,400,60,0,400,61,0,400,62,0,400*73
$PAIRDGP,0*45
$GNGGA,031537.100,2500.7755449,N,12132.4580714,E,4,43,0.67,16.705,M,15.25,M,1,3335*44
$GNRMC,031537.100,A,2500.7755449,N,12132.4580714,E,0.06,147.83,090324,,,R,V*1E
$GPHDT,,T*1B
$GNACCURACY,5.5*16
$GNGGA,031537.200,2500.7755464,N,12132.4580684,E,4,43,0.67,16.700,M,15.25,M,1,3335*45
$GNRMC,031537.200,A,2500.7755464,N,12132.4580684,E,0.04,147.83,090324,,,R,V*18
$GPHDT,44.984,T*00
$GNACCURACY,5.5*16
$GNGGA,031537.300,2500.7755479,N,12132.4580690,E,4,43,0.67,16.711,M,15.25,M,1,3335*4D
$GNRMC,031537.300,A,2500.7755479,N,12132.4580690,E,0.04,147.83,090324,,,R,V*10
$GPHDT,,T*1B
$GNACCURACY,5.5*16
$GNGGA,031537.400,2500.7755487,N,12132.4580688,E,4,43,0.67,16.699,M,15.25,M,1,3335*43
$GNRMC,031537.400,A,2500.7755487,N,12132.4580688,E,0.05,147.83,090324,,,R,V*1E
$GPHDT,44.832,T*0C
$GNACCURACY,5.5*16
$GNGGA,031537.500,2500.7755466,N,12132.4580675,E,4,43,0.67,16.703,M,15.25,M,0,3335*4C
$GNRMC,031537.500,A,2500.7755466,N,12132.4580675,E,0.04,147.83,090324,,,R,V*13
$GPHDT,,T*1B
$GNACCURACY,5.5*16
$GNGGA,031537.600,2500.7755437,N,12132.4580706,E,4,43,0.67,16.715,M,15.25,M,0,3335*49
$GNRMC,031537.600,A,2500.7755437,N,12132.4580706,E,0.04,147.83,090324,,,R,V*11
$GPHDT,44.965,T*0F
$GNACCURACY,5.5*16
$GNGGA,031537.700,2500.7755478,N,12132.4580691,E,4,44,0.67,16.702,M,15.25,M,0,3335*4D
$GNRMC,031537.700,A,2500.7755478,N,12132.4580691,E,0.04,147.83,090324,,,R,V*14
$GPHDT,,T*1B
$GNACCURACY,5.5*16
$GNGGA,031537.800,2500.7755492,N,12132.4580691,E,4,44,0.67,16.709,M,15.25,M,0,3335*4D
$GNRMC,031537.800,A,2500.7755492,N,12132.4580691,E,0.05,147.83,090324,,,R,V*1E
$GPHDT,45.231,T*04
$GNACCURACY,5.5*16
$GNGGA,031537.900,2500.7755461,N,12132.4580663,E,4,44,0.67,16.710,M,15.25,M,0,3335*45
$GNRMC,031537.900,A,2500.7755461,N,12132.4580663,E,0.09,147.83,090324,,,R,V*12
$GPHDT,,T*1B
$GNACCURACY,5.5*16
$GNGGA,031538.000,2500.7755454,N,12132.4580701,E,4,44,0.67,16.712,M,15.25,M,1,3335*43
$GNRMC,031538.000,A,2500.7755454,N,12132.4580701,E,0.06,147.83,090324,,,R,V*18
$GPHDT,45.149,T*08
$GNGSA,A,3,08,194,195,27,16,04,09,07,26,,,,1.18,0.67,0.97,1*03
$GNGSA,A,3,88,78,77,87,,,,,,,,,1.18,0.67,0.97,2*05
$GNGSA,A,3,21,27,15,,,,,,,,,,1.18,0.67,0.97,3*06
$GNGSA,A,3,06,16,43,09,39,40,23,11,10,25,34,28,1.18,0.67,0.97,4*08
$GPGSV,3,1,12,08,72,284,44,199,67,163,,194,63,045,40,195,56,125,36,1*53
$GPGSV,3,2,12,27,55,025,43,16,37,049,33,04,36,221,43,21,34,172,22,1*6A
$GPGSV,3,3,12,09,31,273,29,196,22,174,,07,21,320,29,26,19,079,24,1*57
$GPGSV,2,1,07,08,72,284,45,194,63,045,42,195,56,125,38,27,55,025,44,8*64
$GPGSV,2,2,07,04,36,221,45,09,31,273,29,26,19,079,32,8*5E
$GLGSV,2,1,05,88,72,099,40,78,42,357,33,77,34,078,24,87,27,032,28,1*78
$GLGSV,2,2,05,79,,,26,1*77
$GAGSV,2,1,05,21,50,342,39,27,35,057,28,15,24,053,32,26,23,176,17,7*71
$GAGSV,2,2,05,04,08,316,20,7*4C
$GAGSV,1,1,03,21,50,342,43,27,35,057,38,15,24,053,32,1*4D
$GBGSV,4,1,13,06,84,237,39,16,82,185,38,43,77,081,44,09,74,310,40,1*7F
$GBGSV,4,2,13,39,70,171,25,40,67,311,42,07,63,289,40,23,57,350,46,1*7D
$GBGSV,4,3,13,11,53,050,43,10,52,273,37,25,49,089,43,28,34,205,,1*75
$GBGSV,4,4,13,34,30,042,43,1*41
$GBGSV,2,1,07,43,77,081,43,39,70,171,32,40,67,311,41,23,57,350,45,4*72
$GBGSV,2,2,07,25,49,089,35,28,34,205,28,34,30,042,37,4*4F
$GNACCURACY,5.5*16
$PAIRSAT,1,18,4,0,21,7,0,1,8,0,21,9,0,21,14,0,200,15,0,200,16,0,201,17,0,200,18,0,200,19,0,200,20,0,200,21,0,200,26,0,21,27,0,21,194,0,421,195,0,221,196,0,200,199,0,200*4C
$PAIRSAT,2,10,70,0,200,71,0,200,77,0,1,78,0,1,83,0,200,84,0,200,85,0,200,86,0,200,87,0,201,88,0,201*7A
$PAIRSAT,3,10,2,0,1000,3,0,1000,4,0,1000,15,0,21,21,0,221,25,0,1200,26,0,1200,27,0,1221,30,0,1200,31,0,1000*7A
$PAIRSAT,4,42,1,0,200,2,0,200,3,0,400,4,0,200,5,0,200,6,0,201,7,0,200,9,0,1,10,0,1,11,0,1,16,0,1,19,0,400,20,0,400,21,0,400,22,0,400,23,0,421,24,0,600,25,0,621,26,0,600,27,0,400,28,0,621,29,0,600,30,0,600,32,0,400,33,0,400,34,0,421,35,0,400,36,0,400,37,0,400,38,0,400,39,0,421,40,0,421,41,0,400,42,0,400,43,0,421,44,0,400,45,0,400,46,0,400,59,0,400,60,0,400,61,0,400,62,0,400*73
$PAIRDGP,0*45
$GNGGA,031538.100,2500.7755456,N,12132.4580709,E,4,44,0.67,16.700,M,15.25,M,1,3335*4B
$GNRMC,031538.100,A,2500.7755456,N,12132.4580709,E,0.06,147.83,090324,,,R,V*13
$GPHDT,,T*1B
$GNACCURACY,5.5*16
$GNGGA,031538.200,2500.7755450,N,12132.4580685,E,4,43,0.67,16.702,M,15.25,M,1,3335*4E
$GNRMC,031538.200,A,2500.7755450,N,12132.4580685,E,0.04,147.83,090324,,,R,V*11
$GPHDT,44.762,T*06
$GNACCURACY,5.5*16
$GNGGA,031538.300,2500.7755449,N,12132.4580684,E,4,43,0.67,16.698,M,15.25,M,1,3335*44
$GNRMC,031538.300,A,2500.7755449,N,12132.4580684,E,0.04,147.83,090324,,,R,V*19
$GPHDT,,T*1B
$GNACCURACY,5.5*16
$GNGGA,031538.400,2500.7755453,N,12132.4580694,E,4,44,0.67,16.701,M,15.25,M,1,3335*4F
$GNRMC,031538.400,A,2500.7755453,N,12132.4580694,E,0.04,147.83,090324,,,R,V*14
$GPHDT,45.474,T*03
$GNACCURACY,5.5*16
$GNGGA,031538.500,2500.7755448,N,12132.4580701,E,4,43,0.67,16.700,M,15.25,M,0,3335*4E
$GNRMC,031538.500,A,2500.7755448,N,12132.4580701,E,0.04,147.83,090324,,,R,V*12
$GPHDT,,T*1B
$GNACCURACY,5.5*16
$GNGGA,031538.600,2500.7755467,N,12132.4580713,E,4,43,0.67,16.707,M,15.25,M,0,3335*44
$GNRMC,031538.600,A,2500.7755467,N,12132.4580713,E,0.14,147.83,090324,,,R,V*1E
$GPHDT,45.285,T*0B
$GNACCURACY,5.6*15
$GNGGA,031538.700,2500.7755444,N,12132.4580719,E,4,43,0.67,16.700,M,15.25,M,0,3335*49
$GNRMC,031538.700,A,2500.7755444,N,12132.4580719,E,0.08,147.83,090324,,,R,V*19
$GPHDT,,T*1B
$GNACCURACY,5.6*15
$GNGGA,031538.800,2500.7755448,N,12132.4580709,E,4,43,0.67,16.697,M,15.25,M,0,3335*44
$GNRMC,031538.800,A,2500.7755448,N,12132.4580709,E,0.04,147.83,090324,,,R,V*17
$GPHDT,45.317,T*01
$GNACCURACY,5.6*15
$GNGGA,031538.900,2500.7755461,N,12132.4580703,E,4,43,0.67,16.702,M,15.25,M,0,3335*49
$GNRMC,031538.900,A,2500.7755461,N,12132.4580703,E,0.13,147.83,090324,,,R,V*11
$GPHDT,,T*1B
$GNACCURACY,5.7*14
$GNGGA,031539.000,2500.7755468,N,12132.4580700,E,4,43,0.67,16.696,M,15.25,M,1,3335*46
$GNRMC,031539.000,A,2500.7755468,N,12132.4580700,E,0.07,147.83,090324,,,R,V*16
$GPHDT,45.015,T*00
$GNGSA,A,3,08,194,195,27,16,04,09,07,26,,,,1.18,0.67,0.97,1*03
$GNGSA,A,3,88,78,77,87,,,,,,,,,1.18,0.67,0.97,2*05
$GNGSA,A,3,21,27,15,,,,,,,,,,1.18,0.67,0.97,3*06
$GNGSA,A,3,06,16,43,09,39,40,23,11,10,25,34,28,1.18,0.67,0.97,4*08
$GPGSV,3,1,12,08,72,284,44,199,67,163,,194,63,045,40,195,56,125,36,1*53
$GPGSV,3,2,12,27,55,025,43,16,37,049,32,04,36,221,43,21,34,172,22,1*6B
$GPGSV,3,3,12,09,31,273,29,196,22,174,,07,21,320,29,26,19,079,20,1*53
$GPGSV,2,1,07,08,72,284,45,194,63,045,42,195,56,125,38,27,55,025,44,8*64
$GPGSV,2,2,07,04,36,221,45,09,31,273,29,26,19,079,32,8*5E
$GLGSV,2,1,05,88,72,099,40,78,42,357,33,77,34,078,24,87,27,032,28,1*78
$GLGSV,2,2,05,79,,,25,1*74
$GAGSV,2,1,05,21,50,342,39,27,35,057,26,15,24,053,32,26,23,176,17,7*7F
$GAGSV,2,2,05,04,08,316,21,7*4D
$GAGSV,1,1,03,21,50,342,43,27,35,057,37,15,24,053,32,1*42
$GBGSV,4,1,13,06,84,237,39,16,82,185,38,43,77,081,44,09,74,310,39,1*71
$GBGSV,4,2,13,39,70,171,25,40,67,311,42,07,63,289,40,23,57,350,46,1*7D
$GBGSV,4,3,13,11,53,050,43,10,52,273,37,25,49,089,43,28,34,205,,1*75
$GBGSV,4,4,13,34,30,042,43,1*41
$GBGSV,2,1,07,43,77,081,43,39,70,171,32,40,67,311,41,23,57,350,45,4*72
$GBGSV,2,2,07,25,49,089,35,28,34,205,28,34,30,042,37,4*4F
$GNACCURACY,5.7*14
$PAIRSAT,1,18,4,0,21,7,0,1,8,0,21,9,0,21,14,0,200,15,0,200,16,0,201,17,0,200,18,0,200,19,0,200,20,0,200,21,0,200,26,0,21,27,0,21,194,0,421,195,0,221,196,0,200,199,0,200*4C
$PAIRSAT,2,10,70,0,200,71,0,200,77,0,1,78,0,1,83,0,200,84,0,200,85,0,200,86,0,200,87,0,201,88,0,201*7A
$PAIRSAT,3,10,2,0,1000,3,0,1000,4,0,1000,15,0,21,21,0,221,25,0,1200,26,0,1200,27,0,1221,30,0,1200,31,0,1000*7A
$PAIRSAT,4,42,1,0,200,2,0,200,3,0,400,4,0,200,5,0,200,6,0,201,7,0,200,9,0,1,10,0,1,11,0,1,16,0,1,19,0,400,20,0,400,21,0,400,22,0,400,23,0,421,24,0,600,25,0,621,26,0,600,27,0,400,28,0,621,29,0,600,30,0,600,32,0,400,33,0,400,34,0,421,35,0,400,36,0,400,37,0,400,38,0,400,39,0,421,40,0,421,41,0,400,42,0,400,43,0,421,44,0,400,45,0,400,46,0,400,59,0,400,60,0,400,61,0,400,62,0,400*73
$PAIRDGP,0*45
$GNGGA,031539.100,2500.7755437,N,12132.4580695,E,4,43,0.67,16.698,M,15.25,M,1,3335*4E
$GNRMC,031539.100,A,2500.7755437,N,12132.4580695,E,0.08,147.83,090324,,,R,V*1F
$GPHDT,,T*1B
$GNACCURACY,5.7*14
$GNGGA,031539.200,2500.7755471,N,12132.4580712,E,4,43,0.67,16.703,M,15.25,M,1,3335*42
$GNRMC,031539.200,A,2500.7755471,N,12132.4580712,E,0.04,147.83,090324,,,R,V*1C
$GPHDT,45.422,T*00
$GNACCURACY,5.7*14
$GNGGA,031539.300,2500.7755464,N,12132.4580718,E,4,43,0.67,16.702,M,15.25,M,1,3335*4C
$GNRMC,031539.300,A,2500.7755464,N,12132.4580718,E,0.05,147.83,090324,,,R,V*12
$GPHDT,,T*1B
$GNACCURACY,5.7*14
$GNGGA,031539.400,2500.7755440,N,12132.4580721,E,4,43,0.67,16.698,M,15.25,M,1,3335*45
$GNRMC,031539.400,A,2500.7755440,N,12132.4580721,E,0.04,147.83,090324,,,R,V*18
$GPHDT,45.379,T*09
$GNACCURACY,5.7*14
$GNGGA,031539.500,2500.7755429,N,12132.4580738,E,4,43,0.67,16.712,M,15.25,M,1,3335*40
$GNRMC,031539.500,A,2500.7755429,N,12132.4580738,E,0.04,147.83,090324,,,R,V*1E
$GPHDT,,T*1B
$GNACCURACY,5.7*14
$GNGGA,031539.600,2500.7755456,N,12132.4580701,E,4,43,0.67,16.696,M,15.25,M,1,3335*4C
$GNRMC,031539.600,A,2500.7755456,N,12132.4580701,E,0.05,147.83,090324,,,R,V*1E
$GPHDT,45.033,T*04
$GNACCURACY,5.7*14
$GNGGA,031539.700,2500.7755456,N,12132.4580711,E,4,43,0.67,16.698,M,15.25,M,1,3335*42
$GNRMC,031539.700,A,2500.7755456,N,12132.4580711,E,0.05,147.83,090324,,,R,V*1E
$GPHDT,,T*1B
$GNACCURACY,5.7*14
$GNGGA,031539.800,2500.7755419,N,12132.4580742,E,4,43,0.67,16.720,M,15.25,M,0,3335*43
$GNRMC,031539.800,A,2500.7755419,N,12132.4580742,E,0.06,147.83,090324,,,R,V*1F
$GPHDT,45.134,T*02
$GNACCURACY,5.7*14
$GNGGA,031539.900,2500.7755460,N,12132.4580709,E,4,43,0.67,16.710,M,15.25,M,0,3335*40
$GNRMC,031539.900,A,2500.7755460,N,12132.4580709,E,0.10,147.83,090324,,,R,V*18
$GPHDT,,T*1B
$GNACCURACY,5.7*14
$GNGGA,031540.000,2500.7755461,N,12132.4580702,E,4,43,0.67,16.717,M,15.25,M,1,3335*4B
$GNRMC,031540.000,A,2500.7755461,N,12132.4580702,E,0.04,147.83,090324,,,R,V*10
$GPHDT,45.360,T*01
$GNGSA,A,3,08,194,195,27,16,04,09,07,26,,,,1.18,0.67,0.97,1*03
$GNGSA,A,3,88,78,77,87,,,,,,,,,1.18,0.67,0.97,2*05
$GNGSA,A,3,21,27,15,,,,,,,,,,1.18,0.67,0.97,3*06
$GNGSA,A,3,06,16,43,09,39,40,23,11,10,25,34,28,1.18,0.67,0.97,4*08
$GPGSV,3,1,12,08,72,284,44,199,67,163,,194,63,045,40,195,56,125,36,1*53
$GPGSV,3,2,12,27,55,025,43,16,37,049,32,04,36,221,43,21,34,172,21,1*68
$GPGSV,3,3,12,09,31,273,30,196,22,174,,07,21,320,28,26,19,079,19,1*50
$GPGSV,2,1,07,08,72,284,45,194,63,045,42,195,56,125,38,27,55,025,44,8*64
$GPGSV,2,2,07,04,36,221,45,09,31,273,29,26,19,079,32,8*5E
$GLGSV,2,1,05,88,72,099,40,78,42,358,33,77,34,078,24,87,27,032,28,1*77
$GLGSV,2,2,05,79,,,24,1*75
$GAGSV,2,1,05,21,50,342,39,27,35,057,25,15,24,053,32,26,23,176,17,7*7C
$GAGSV,2,2,05,04,08,316,20,7*4C
$GAGSV,1,1,03,21,50,342,43,27,35,057,37,15,24,053,32,1*42
$GBGSV,4,1,13,06,84,237,39,16,82,185,38,43,77,081,44,09,74,310,39,1*71
$GBGSV,4,2,13,39,70,171,26,40,67,311,42,07,63,289,40,23,57,350,46,1*7E
$GBGSV,4,3,13,11,53,050,43,10,52,273,37,25,49,089,43,28,34,205,,1*75
$GBGSV,4,4,13,34,30,042,43,1*41
$GBGSV,2,1,07,43,77,081,43,39,70,171,31,40,67,311,41,23,57,350,45,4*71
$GBGSV,2,2,07,25,49,089,35,28,34,205,28,34,30,042,37,4*4F
$GNACCURACY,5.7*14
$PAIRSAT,1,18,4,0,21,7,0,1,8,0,21,9,0,21,14,0,200,15,0,200,16,0,201,17,0,200,18,0,200,19,0,200,20,0,200,21,0,200,26,0,21,27,0,21,194,0,421,195,0,221,196,0,200,199,0,200*4C
$PAIRSAT,2,10,70,0,200,71,0,200,77,0,1,78,0,1,83,0,200,84,0,200,85,0,200,86,0,200,87,0,201,88,0,201*7A
$PAIRSAT,3,10,2,0,1000,3,0,1000,4,0,1000,15,0,21,21,0,221,25,0,1200,26,0,1200,27,0,1221,30,0,1200,31,0,1000*7A
$PAIRSAT,4,42,1,0,200,2,0,200,3,0,400,4,0,200,5,0,200,6,0,201,7,0,200,9,0,1,10,0,1,11,0,1,16,0,1,19,0,400,20,0,400,21,0,400,22,0,400,23,0,421,24,0,600,25,0,621,26,0,600,27,0,400,28,0,621,29,0,600,30,0,600,32,0,400,33,0,400,34,0,421,35,0,400,36,0,400,37,0,400,38,0,400,39,0,421,40,0,421,41,0,