$FW : RTK35X,V1.1X0314AS,Lib20210517,1*54
$Tool : LOCOSYS , GNSS Firebird , v1.0.0.19*39
$---------------------------------------------------*2D
1E
$GPHDT,,T*1B
$GNACCURACY,4.7*15
$GNGGA,031618.600,2500.7755320,N,12132.4580696,E,4,45,0.65,16.735,M,15.25,M,0,3335*48
$GNRMC,031618.600,A,2500.7755320,N,12132.4580696,E,0.01,147.83,090324,,,R,V*13
$GPHDT,230.643,T*35
$GNACCURACY,4.6*14
$GNGGA,031618.700,2500.7755301,N,12132.4580703,E,4,45,0.65,16.711,M,15.25,M,0,3335*41
$GNRMC,031618.700,A,2500.7755301,N,12132.4580703,E,0.08,147.83,090324,,,R,V*15
$GPHDT,,T*1B
$GNACCURACY,4.6*14
$GNGGA,031618.800,2500.7755314,N,12132.4580667,E,4,45,0.65,16.715,M,15.25,M,0,3335*4D
$GNRMC,031618.800,A,2500.7755314,N,12132.4580667,E,0.10,147.83,090324,,,R,V*14
$GPHDT,231.522,T*30
$GNACCURACY,4.6*14
$GNGGA,031618.900,2500.7755317,N,12132.4580657,E,4,45,0.65,16.711,M,15.25,M,0,3335*48
$GNRMC,031618.900,A,2500.7755317,N,12132.4580657,E,0.12,147.83,090324,,,R,V*17
$GPHDT,,T*1B
$GNACCURACY,4.6*14
$GNGGA,031619.000,2500.7755301,N,12132.4580682,E,4,45,0.65,16.714,M,15.25,M,1,3335*4B
$GNRMC,031619.000,A,2500.7755301,N,12132.4580682,E,0.08,147.83,090324,,,R,V*1B
$GPHDT,231.694,T*3E
$GNGSA,A,3,08,194,195,27,16,04,09,07,26,,,,0.95,0.65,0.69,1*04
$GNGSA,A,3,88,78,77,87,,,,,,,,,0.95,0.65,0.69,2*02
$GNGSA,A,3,21,27,15,,,,,,,,,,0.95,0.65,0.69,3*01
$GNGSA,A,3,06,16,43,09,39,40,07,23,11,10,25,28,0.95,0.65,0.69,4*0F
$GNGSA,A,3,34,,,,,,,,,,,,0.95,0.65,0.69,4*03
$GPGSV,4,1,13,08,72,285,45,199,67,163,,194,63,045,42,195,56,125,29,1*59
$GPGSV,4,2,13,27,55,025,44,16,37,049,40,04,36,221,45,21,34,172,18,1*60
$GPGSV,4,3,13,09,31,273,26,196,22,174,17,07,21,320,41,26,19,079,30,1*53
$GPGSV,4,4,13,31,,,29,1*6F
$GPGSV,2,1,06,08,72,285,45,194,63,045,45,195,56,125,34,27,55,025,46,8*6D
$GPGSV,2,2,06,04,36,221,46,26,19,079,34,8*6C
$GLGSV,2,1,05,88,72,097,41,78,43,358,33,77,34,079,21,87,26,032,25,1*71
$GLGSV,2,2,05,79,08,315,22,1*4C
$GAGSV,2,1,06,21,50,342,40,27,35,057,27,15,24,053,35,26,23,176,,7*72
$GAGSV,2,2,06,04,08,316,26,13,,,21,7*48
$GAGSV,2,1,05,21,50,342,43,27,35,057,39,15,24,053,38,04,08,316,14,1*7E
$GAGSV,2,2,05,13,,,33,1*72
$GBGSV,4,1,13,06,84,236,41,16,82,185,39,43,76,080,45,09,74,310,41,1*70
$GBGSV,4,2,13,39,70,172,34,40,67,311,44,07,63,290,41,23,58,350,44,1*7C
$GBGSV,4,3,13,11,53,050,42,10,52,273,34,25,49,089,40,28,34,206,33,1*77
$GBGSV,4,4,13,34,30,042,40,1*42
$GBGSV,2,1,07,43,76,080,42,39,70,172,31,40,67,311,42,23,58,350,45,4*7F
$GBGSV,2,2,07,25,49,089,33,28,34,206,23,34,30,042,38,4*4E
$GNACCURACY,4.6*14
$PAIRSAT,1,20,4,0,21,7,0,1,8,0,21,9,0,21,14,0,200,15,0,200,16,0,201,17,0,200,18,0,200,19,0,200,20,0,200,21,0,200,22,0,200,23,0,200,26,0,21,27,0,21,194,0,421,195,0,221,196,0,200,199,0,200*46
$PAIRSAT,2,11,70,0,200,71,0,200,77,0,1,78,0,1,79,0,1,83,0,200,84,0,200,85,0,200,86,0,200,87,0,201,88,0,201*58
$PAIRSAT,3,10,2,0,1000,3,0,1000,4,0,1000,15,0,21,21,0,221,25,0,1200,26,0,1200,27,0,1221,30,0,1200,31,0,1200*78
$PAIRSAT,4,43,1,0,200,2,0,200,3,0,400,4,0,200,5,0,200,6,0,201,7,0,201,8,0,200,9,0,1,10,0,1,11,0,1,16,0,1,19,0,400,20,0,400,21,0,400,22,0,400,23,0,421,24,0,600,25,0,621,26,0,600,27,0,400,28,0,621,29,0,600,30,0,600,32,0,400,33,0,400,34,0,421,35,0,400,36,0,400,37,0,400,38,0,400,39,0,421,40,0,421,41,0,400,42,0,400,43,0,421,44,0,400,45,0,400,46,0,400,59,0,400,60,0,400,61,0,400,62,0,400*65
$PAIRDGP,0*45
$GNGGA,031619.100,2500.7755285,N,12132.4580673,E,4,45,0.65,16.714,M,15.25,M,1,3335*49
$GNRMC,031619.100,A,2500.7755285,N,12132.4580673,E,0.04,147.83,090324,,,R,V*15
$GPHDT,,T*1B
$GNACCURACY,4.6*14
$GNGGA,031619.200,2500.7755319,N,12132.4580665,E,4,45,0.65,16.716,M,15.25,M,1,3335*4B
$GNRMC,031619.200,A,2500.7755319,N,12132.4580665,E,0.03,147.83,090324,,,R,V*12
$GPHDT,231.414,T*34
$GNACCURACY,4.6*14
$GNGGA,031619.300,2500.7755280,N,12132.4580676,E,4,45,0.65,16.709,M,15.25,M,1,3335*47
$GNRMC,031619.300,A,2500.7755280,N,12132.4580676,E,0.02,147.83,090324,,,R,V*11
$GPHDT,,T*1B
$GNACCURACY,4.6*14
$GNGGA,031619.400,2500.7755302,N,12132.4580715,E,4,45,0.65,16.718,M,15.25,M,1,3335*4F
$GNRMC,031619.400,A,2500.7755302,N,12132.4580715,E,0.01,147.83,090324,,,R,V*1A
$GPHDT,231.997,T*32
$GNACCURACY,4.6*14
$GNGGA,031619.500,2500.7755295,N,12132.4580677,E,4,45,0.65,16.712,M,15.25,M,1,3335*4E
$GNRMC,031619.500,A,2500.7755295,N,12132.4580677,E,0.01,147.83,090324,,,R,V*11
$GPHDT,,T*1B
$GNACCURACY,4.6*14
$GNGGA,031619.600,2500.7755297,N,12132.4580667,E,4,45,0.65,16.712,M,15.25,M,1,3335*4E
$GNRMC,031619.600,A,2500.7755297,N,12132.4580667,E,0.01,147.83,090324,,,R,V*11
$GPHDT,231.257,T*35
$GNACCURACY,4.6*14
$GNGGA,031619.700,2500.7755286,N,12132.4580677,E,4,45,0.65,16.712,M,15.25,M,0,3335*4F
$GNRMC,031619.700,A,2500.7755286,N,12132.4580677,E,0.08,147.83,090324,,,R,V*18
$GPHDT,,T*1B
$GNACCURACY,4.6*14
$GNGGA,031619.800,2500.7755302,N,12132.4580674,E,4,45,0.65,16.714,M,15.25,M,0,3335*48
$GNRMC,031619.800,A,2500.7755302,N,12132.4580674,E,0.02,147.83,090324,,,R,V*13
$GPHDT,231.206,T*31
$GNACCURACY,4.6*14
$GNGGA,031619.900,2500.7755308,N,12132.4580665,E,4,45,0.65,16.712,M,15.25,M,0,3335*45
$GNRMC,031619.900,A,2500.7755308,N,12132.4580665,E,0.05,147.83,090324,,,R,V*1F
$GPHDT,,T*1B
$GNACCURACY,4.6*14
$GNGGA,031620.000,2500.7755302,N,12132.4580665,E,4,45,0.65,16.707,M,15.25,M,1,3335*49
$GNRMC,031620.000,A,2500.7755302,N,12132.4580665,E,0.04,147.83,090324,,,R,V*17
$GPHDT,231.114,T*31
$GNGSA,A,3,08,194,195,27,16,04,09,07,26,,,,0.95,0.65,0.69,1*04
$GNGSA,A,3,88,78,77,87,,,,,,,,,0.95,0.65,0.69,2*02
$GNGSA,A,3,21,27,15,,,,,,,,,,0.95,0.65,0.69,3*01
$GNGSA,A,3,06,16,43,09,39,40,07,23,11,10,25,28,0.95,0.65,0.69,4*0F
$GNGSA,A,3,34,,,,,,,,,,,,0.95,0.65,0.69,4*03
$GPGSV,4,1,13,08,72,285,45,199,67,163,,194,63,045,42,195,56,125,29,1*59
$GPGSV,4,2,13,27,55,025,44,16,37,049,40,04,36,221,45,21,34,172,18,1*60
$GPGSV,4,3,13,09,31,273,26,196,22,174,17,07,21,320,41,26,19,079,31,1*52
$GPGSV,4,4,13,31,,,29,1*6F
$GPGSV,2,1,06,08,72,285,45,194,63,045,45,195,56,125,34,27,55,025,46,8*6D
$GPGSV,2,2,06,04,36,221,46,26,19,079,34,8*6C
$GLGSV,2,1,05,88,72,097,41,78,43,358,34,77,34,079,20,87,26,032,26,1*74
$GLGSV,2,2,05,79,08,315,22,1*4C
$GAGSV,2,1,05,21,50,342,40,27,35,057,28,15,24,053,35,04,08,316,27,7*76
$GAGSV,2,2,05,13,,,19,7*7C
$GAGSV,2,1,05,21,50,342,43,27,35,057,39,15,24,053,38,04,08,316,13,1*79
$GAGSV,2,2,05,13,,,32,1*73
$GBGSV,4,1,13,06,84,236,41,16,82,185,39,43,76,080,45,09,74,310,42,1*73
$GBGSV,4,2,13,39,70,172,34,40,67,311,44,07,63,290,41,23,58,350,44,1*7C
$GBGSV,4,3,13,11,53,050,42,10,52,273,34,25,49,089,40,28,34,206,32,1*76
$GBGSV,4,4,13,34,30,042,40,1*42
$GBGSV,2,1,07,43,76,080,42,39,70,172,32,40,67,311,42,23,58,350,45,4*7C
$GBGSV,2,2,07,25,49,089,34,28,34,206,22,34,30,042,38,4*48
$GNACCURACY,4.7*15
$PAIRSAT,1,20,4,0,21,7,0,1,8,0,21,9,0,21,14,0,200,15,0,200,16,0,201,17,0,200,18,0,200,19,0,200,20,0,200,21,0,200,22,0,200,23,0,200,26,0,21,27,0,21,194,0,421,195,0,221,196,0,200,199,0,200*46
$PAIRSAT,2,11,70,0,200,71,0,200,77,0,1,78,0,1,79,0,1,83,0,200,84,0,200,85,0,200,86,0,200,87,0,201,88,0,201*58
$PAIRSAT,3,10,2,0,1000,3,0,1000,4,0,1000,15,0,21,21,0,221,25,0,1200,26,0,1200,27,0,1221,30,0,1200,31,0,1200*78
$PAIRSAT,4,43,1,0,200,2,0,200,3,0,400,4,0,200,5,0,200,6,0,201,7,0,201,8,0,200,9,0,1,10,0,1,11,0,1,16,0,1,19,0,400,20,0,400,21,0,400,22,0,400,23,0,421,24,0,600,25,0,621,26,0,600,27,0,400,28,0,621,29,0,600,30,0,600,32,0,400,33,0,400,34,0,421,35,0,400,36,0,400,37,0,400,38,0,400,39,0,421,40,0,421,41,0,400,42,0,400,43,0,421,44,0,400,45,0,400,46,0,400,59,0,400,60,0,400,61,0,400,62,0,400*65
$PAIRDGP,0*45
$GNGGA,031620.100,2500.7755283,N,12132.4580688,E,4,45,0.65,16.711,M,15.25,M,1,3335*44
$GNRMC,031620.100,A,2500.7755283,N,12132.4580688,E,0.04,147.83,090324,,,R,V*1D
$GPHDT,,T*1B
$GNACCURACY,4.7*15
$GNGGA,031620.200,2500.7755306,N,12132.4580674,E,4,45,0.65,16.718,M,15.25,M,1,3335*41
$GNRMC,031620.200,A,2500.7755306,N,12132.4580674,E,0.02,147.83,090324,,,R,V*17
$GPHDT,231.380,T*3E
$GNACCURACY,4.7*15
$GNGGA,031620.300,2500.7755299,N,12132.4580683,E,4,45,0.65,16.708,M,15.25,M,1,3335*4E
$GNRMC,031620.300,A,2500.7755299,N,12132.4580683,E,0.02,147.83,090324,,,R,V*19
$GPHDT,,T*1B
$GNACCURACY,4.7*15
$GNGGA,031620.400,2500.7755282,N,12132.4580667,E,4,45,0.65,16.707,M,15.25,M,1,3335*46
$GNRMC,031620.400,A,2500.7755282,N,12132.4580667,E,0.01,147.83,090324,,,R,V*1D
$GPHDT,231.640,T*37
$GNACCURACY,4.6*14
$GNGGA,031620.500,2500.7755295,N,12132.4580659,E,4,45,0.65,16.717,M,15.25,M,1,3335*4D
$GNRMC,031620.500,A,2500.7755295,N,12132.4580659,E,0.01,147.83,090324,,,R,V*17
$GPHDT,,T*1B
$GNACCURACY,4.6*14
$GNGGA,031620.600,2500.7755301,N,12132.4580660,E,4,45,0.65,16.707,M,15.25,M,0,3335*48
$GNRMC,031620.600,A,2500.7755301,N,12132.4580660,E,0.00,147.83,090324,,,R,V*13
$GPHDT,231.439,T*3B
$GNACCURACY,4.7*15
$GNGGA,031620.700,2500.7755297,N,12132.4580669,E,4,45,0.65,16.712,M,15.25,M,0,3335*4A
$GNRMC,031620.700,A,2500.7755297,N,12132.4580669,E,0.00,147.83,090324,,,R,V*15
$GPHDT,,T*1B
$GNACCURACY,4.7*15
$GNGGA,031620.800,2500.7755295,N,12132.4580664,E,4,45,0.65,16.710,M,15.25,M,0,3335*48
$GNRMC,031620.800,A,2500.7755295,N,12132.4580664,E,0.00,147.83,090324,,,R,V*15
$GPHDT,231.168,T*3A
$GNACCURACY,4.7*15
$GNGGA,031620.900,2500.7755285,N,12132.4580681,E,4,45,0.65,16.712,M,15.25,M,0,3335*41
$GNRMC,031620.900,A,2500.7755285,N,12132.4580681,E,0.03,147.83,090324,,,R,V*1D
$GPHDT,,T*1B
$GNACCURACY,4.7*15
$GNGGA,031621.000,2500.7755295,N,12132.4580654,E,4,45,0.65,16.711,M,15.25,M,1,3335*42
$GNRMC,031621.000,A,2500.7755295,N,12132.4580654,E,0.01,147.83,090324,,,R,V*1E
$GPHDT,231.103,T*37
$GNGSA,A,3,08,194,195,27,16,04,09,07,26,,,,0.95,0.65,0.69,1*04
$GNGSA,A,3,88,78,77,87,,,,,,,,,0.95,0.65,0.69,2*02
$GNGSA,A,3,21,27,15,,,,,,,,,,0.95,0.65,0.69,3*01
$GNGSA,A,3,06,16,43,09,39,40,07,23,11,10,25,28,0.95,0.65,0.69,4*0F
$GNGSA,A,3,34,,,,,,,,,,,,0.95,0.65,0.69,4*03
$GPGSV,4,1,13,08,72,286,45,199,67,163,,194,63,045,42,195,56,125,29,1*5A
$GPGSV,4,2,13,27,55,025,44,16,37,050,40,04,36,221,45,21,34,172,16,1*66
$GPGSV,4,3,13,09,31,273,26,196,22,174,17,07,21,320,41,26,19,079,31,1*52
$GPGSV,4,4,13,31,,,30,1*67
$GPGSV,2,1,06,08,72,286,45,194,63,045,45,195,56,125,33,27,55,025,46,8*69
$GPGSV,2,2,06,04,36,221,46,26,19,079,34,8*6C
$GLGSV,2,1,05,88,72,097,41,78,43,358,34,77,34,079,20,87,26,032,27,1*75
$GLGSV,2,2,05,79,08,315,22,1*4C
$GAGSV,2,1,05,21,50,342,40,27,35,057,29,15,24,053,35,04,08,316,27,7*77
$GAGSV,2,2,05,13,,,18,7*7D
$GAGSV,2,1,05,21,50,342,43,27,35,057,39,15,24,053,38,04,08,316,14,1*7E
$GAGSV,2,2,05,13,,,32,1*73
$GBGSV,4,1,13,06,84,236,41,16,82,185,39,43,76,080,45,09,74,310,42,1*73
$GBGSV,4,2,13,39,70,172,34,40,67,311,44,07,63,290,41,23,58,350,44,1*7C
$GBGSV,4,3,13,11,53,050,43,10,52,273,34,25,49,089,40,28,34,206,31,1*74
$GBGSV,4,4,13,34,30,042,40,1*42
$GBGSV,2,1,07,43,76,080,42,39,70,172,32,40,67,311,42,23,58,350,45,4*7C
$GBGSV,2,2,07,25,49,089,32,28,34,206,21,34,30,042,38,4*4D
$GNACCURACY,4.7*15
$PAIRSAT,1,20,4,0,21,7,0,1,8,0,21,9,0,21,14,0,200,15,0,200,16,0,201,17,0,200,18,0,200,19,0,200,20,0,200,21,0,200,22,0,200,23,0,200,26,0,21,27,0,21,194,0,421,195,0,221,196,0,200,199,0,200*46
$PAIRSAT,2,11,70,0,200,71,0,200,77,0,1,78,0,1,79,0,1,83,0,200,84,0,200,85,0,200,86,0,200,87,0,201,88,0,201*58
$PAIRSAT,3,10,2,0,1000,3,0,1000,4,0,1000,15,0,21,21,0,221,25,0,1200,26,0,1200,27,0,1221,30,0,1200,31,0,1200*78
$PAIRSAT,4,43,1,0,200,2,0,200,3,0,400,4,0,200,5,0,200,6,0,201,7,0,201,8,0,200,9,0,201,10,0,1,11,0,1,16,0,1,19,0,400,20,0,400,21,0,400,22,0,400,23,0,421,24,0,600,25,0,621,26,0,600,27,0,400,28,0,621,29,0,600,30,0,600,32,0,400,33,0,400,34,0,421,35,0,400,36,0,400,37,0,400,38,0,400,39,0,421,40,0,421,41,0,400,42,0,400,43,0,421,44,0,400,45,0,400,46,0,400,59,0,400,60,0,400,61,0,400,62,0,400*67
$PAIRDGP,0*45
$GNGGA,031621.100,2500.7755286,N,12132.4580659,E,4,45,0.65,16.704,M,15.25,M,1,3335*48
$GNRMC,031621.100,A,2500.7755286,N,12132.4580659,E,0.01,147.83,090324,,,R,V*10
$GPHDT,,T*1B
$GNACCURACY,4.7*15
$GNGGA,031621.200,2500.7755302,N,12132.4580652,E,4,45,0.65,16.708,M,15.25,M,1,3335*41
$GNRMC,031621.200,A,2500.7755302,N,12132.4580652,E,0.01,147.83,090324,,,R,V*15
$GPHDT,231.122,T*34
$GNACCURACY,4.7*15
$GNGGA,031621.300,2500.7755287,N,12132.4580672,E,4,45,0.65,16.710,M,15.25,M,1,3335*47
$GNRMC,031621.300,A,2500.7755287,N,12132.4580672,E,0.00,147.83,090324,,,R,V*1B
$GPHDT,,T*1B
$GNACCURACY,4.7*15
$GNGGA,031621.400,2500.7755290,N,12132.4580663,E,4,45,0.65,16.704,M,15.25,M,1,3335*43
$GNRMC,031621.400,A,2500.7755290,N,12132.4580663,E,0.01,147.83,090324,,,R,V*1B
$GPHDT,231.253,T*31
$GNACCURACY,4.7*15
$GNGGA,031621.500,2500.7755283,N,12132.4580675,E,4,45,0.65,16.714,M,15.25,M,1,3335*46
$GNRMC,031621.500,A,2500.7755283,N,12132.4580675,E,0.00,147.83,090324,,,R,V*1E
$GPHDT,,T*1B
$GNACCURACY,4.7*15
$GNGGA,031621.600,2500.7755280,N,12132.4580669,E,4,45,0.65,16.708,M,15.25,M,1,3335*46
$GNRMC,031621.600,A,2500.7755280,N,12132.4580669,E,0.01,147.83,090324,,,R,V*12
$GPHDT,231.766,T*32
$GNACCURACY,4.7*15
$GNGGA,031621.700,2500.7755295,N,12132.4580658,E,4,45,0.65,16.707,M,15.25,M,1,3335*4E
$GNRMC,031621.700,A,2500.7755295,N,12132.4580658,E,0.00,147.83,090324,,,R,V*14
$GPHDT,,T*1B
$GNACCURACY,4.7*15
$GNGGA,031621.800,2500.7755278,N,12132.4580670,E,4,45,0.65,16.707,M,15.25,M,1,3335*48
$GNRMC,031621.800,A,2500.7755278,N,12132.4580670,E,0.03,147.83,090324,,,R,V*11
$GPHDT,231.384,T*3A
$GNACCURACY,4.7*15
$GNGGA,031621.900,2500.7755312,N,12132.4580679,E,4,45,0.65,16.717,M,15.25,M,0,3335*4D
$GNRMC,031621.900,A,2500.7755312,N,12132.4580679,E,0.00,147.83,090324,,,R,V*17
$GPHDT,,T*1B
$GNACCURACY,4.7*15
$GNGGA,031622.000,2500.7755275,N,12132.4580680,E,4,45,0.65,16.711,M,15.25,M,1,3335*46
$GNRMC,031622.000,A,2500.7755275,N,12132.4580680,E,0.02,147.83,090324,,,R,V*19
$GPHDT,231.388,T*36
$GNGSA,A,3,08,194,195,27,16,04,09,07,26,,,,0.95,0.65,0.69,1*04
$GNGSA,A,3,88,78,77,87,,,,,,,,,0.95,0.65,0.69,2*02
$GNGSA,A,3,21,27,15,,,,,,,,,,0.95,0.65,0.69,3*01
$GNGSA,A,3,06,16,43,09,39,40,07,23,11,10,25,28,0.95,0.65,0.69,4*0F
$GNGSA,A,3,34,,,,,,,,,,,,0.95,0.65,0.69,4*03
$GPGSV,4,1,13,08,72,286,45,199,67,163,,194,63,045,42,195,56,125,29,1*5A
$GPGSV,4,2,13,27,55,025,44,16,37,050,40,04,36,221,45,21,34,172,16,1*66
$GPGSV,4,3,13,09,31,273,26,196,22,174,17,07,21,320,41,26,19,079,31,1*52
$GPGSV,4,4,13,31,,,30,1*67
$GPGSV,2,1,06,08,72,286,45,194,63,045,45,195,56,125,33,27,55,025,46,8*69
$GPGSV,2,2,06,04,36,221,46,26,19,079,35,8*6D
$GLGSV,2,1,05,88,72,097,41,78,43,358,33,77,34,079,21,87,26,032,29,1*7D
$GLGSV,2,2,05,79,08,315,21,1*4F
$GAGSV,2,1,05,21,50,342,40,27,35,057,30,15,24,053,35,04,08,316,27,7*7F
$GAGSV,2,2,05,13,,,18,7*7D
$GAGSV,2,1,05,21,50,342,43,27,35,057,39,15,24,053,38,04,08,316,13,1*79
$GAGSV,2,2,05,13,,,33,1*72
$GBGSV,4,1,13,06,84,236,41,16,82,185,39,43,76,080,45,09,74,310,42,1*73
$GBGSV,4,2,13,39,70,172,34,40,67,311,44,07,63,290,41,23,58,350,44,1*7C
$GBGSV,4,3,13,11,53,050,43,10,52,273,34,25,49,089,40,28,34,206,33,1*76
$GBGSV,4,4,13,34,30,042,40,1*42
$GBGSV,2,1,07,43,76,080,42,39,70,172,32,40,67,311,42,23,58,350,45,4*7C
$GBGSV,2,2,07,25,49,089,30,28,34,206,22,34,30,042,38,4*4C
$GNACCURACY,4.7*15
$PAIRSAT,1,20,4,0,21,7,0,1,8,0,21,9,0,21,14,0,200,15,0,200,16,0,201,17,0,200,18,0,200,19,0,200,20,0,200,21,0,200,22,0,200,23,0,200,26,0,21,27,0,21,194,0,421,195,0,221,196,0,200,199,0,200*46
$PAIRSAT,2,11,70,0,200,71,0,200,77,0,1,78,0,1,79,0,1,83,0,200,84,0,200,85,0,200,86,0,200,87,0,201,88,0,201*58
$PAIRSAT,3,11,2,0,1000,3,0,1000,4,0,1000,15,0,21,21,0,221,25,0,1200,26,0,1200,27,0,1221,30,0,1200,31,0,1200,33,0,1000*64
$PAIRSAT,4,43,1,0,200,2,0,200,3,0,400,4,0,200,5,0,200,6,0,201,7,0,201,8,0,200,9,0,201,10,0,1,11,0,1,16,0,1,19,0,400,20,0,400,21,0,400,22,0,400,23,0,421,24,0,600,25,0,621,26,0,600,27,0,400,28,0,621,29,0,600,30,0,600,32,0,400,33,0,400,34,0,421,35,0,400,36,0,400,37,0,400,38,0,400,39,0,421,40,0,421,41,0,400,42,0,400,43,0,421,44,0,400,45,0,400,46,0,400,59,0,400,60,0,400,61,0,400,62,0,400*67
$PAIRDGP,0*45
$GNGGA,031622.100,2500.7755301,N,12132.4580675,E,4,45,0.65,16.714,M,15.25,M,1,3335*4A
$GNRMC,031622.100,A,2500.7755301,N,12132.4580675,E,0.02,147.83,090324,,,R,V*10
$GPHDT,,T*1B
$GNACCURACY,4.7*15
$GNGGA,031622.200,2500.7755309,N,12132.4580674,E,4,45,0.65,16.717,M,15.25,M,1,3335*43
$GNRMC,031622.200,A,2500.7755309,N,12132.4580674,E,0.01,147.83,090324,,,R,V*19
$GPHDT,231.262,T*33
$GNACCURACY,4.7*15
$GNGGA,031622.300,2500.7755304,N,12132.4580669,E,4,45,0.65,16.713,M,15.25,M,1,3335*47
$GNRMC,031622.300,A,2500.7755304,N,12132.4580669,E,0.01,147.83,090324,,,R,V*19
$GPHDT,,T*1B
$GNACCURACY,4.7*15
$GNGGA,031622.400,2500.7755289,N,12132.4580693,E,4,45,0.65,16.714,M,15.25,M,1,3335*46
$GNRMC,031622.400,A,2500.7755289,N,12132.4580693,E,0.01,147.83,090324,,,R,V*1F
$GPHDT,231.236,T*32
$GNACCURACY,4.7*15
$GNGGA,031622.500,2500.7755287,N,12132.4580680,E,4,45,0.65,16.712,M,15.25,M,1,3335*4D
$GNRMC,031622.500,A,2500.7755287,N,12132.4580680,E,0.01,147.83,090324,,,R,V*12
$GPHDT,,T*1B
$GNACCURACY,4.7*15
$GNGGA,031622.600,2500.7755290,N,12132.4580696,E,4,45,0.65,16.719,M,15.25,M,1,3335*44
$GNRMC,031622.600,A,2500.7755290,N,12132.4580696,E,0.01,147.83,090324,,,R,V*10
$GPHDT,230.850,T*39
$GNACCURACY,4.7*15
$GNGGA,031622.700,2500.7755304,N,12132.4580666,E,4,45,0.65,16.714,M,15.25,M,0,3335*4A
$GNRMC,031622.700,A,2500.7755304,N,12132.4580666,E,0.04,147.83,090324,,,R,V*17
$GPHDT,,T*1B
$GNACCURACY,4.7*15
$GNGGA,031622.800,2500.7755298,N,12132.4580671,E,4,45,0.65,16.715,M,15.25,M,0,3335*46
$GNRMC,031622.800,A,2500.7755298,N,12132.4580671,E,0.03,147.83,090324,,,R,V*1D
$GPHDT,231.006,T*33
$GNACCURACY,4.7*15
$GNGGA,031622.900,2500.7755298,N,12132.4580680,E,4,45,0.65,16.707,M,15.25,M,0,3335*4A
$GNRMC,031622.900,A,2500.7755298,N,12132.4580680,E,0.02,147.83,090324,,,R,V*13
$GPHDT,,T*1B
$GNACCURACY,4.7*15
$GNGGA,031623.000,2500.7755282,N,12132.4580684,E,4,45,0.65,16.707,M,15.25,M,1,3335*4C
$GNRMC,031623.000,A,2500.7755282,N,12132.4580684,E,0.01,147.83,090324,,,R,V*17
$GPHDT,231.115,T*30
$GNGSA,A,3,08,194,195,27,16,04,09,07,26,,,,0.95,0.65,0.69,1*04
$GNGSA,A,3,88,78,77,87,,,,,,,,,0.95,0.65,0.69,2*02
$GNGSA,A,3,21,27,15,,,,,,,,,,0.95,0.65,0.69,3*01
$GNGSA,A,3,06,16,43,09,39,40,07,23,11,10,25,28,0.95,0.65,0.69,4*0F
$GNGSA,A,3,34,,,,,,,,,,,,0.95,0.65,0.69,4*03
$GPGSV,4,1,13,08,72,286,45,199,67,163,,194,63,045,42,195,56,125,29,1*5A
$GPGSV,4,2,13,27,55,025,44,16,37,050,41,04,36,221,45,21,34,172,16,1*67
$GPGSV,4,3,13,09,31,273,25,196,22,174,17,07,21,320,41,26,19,079,31,1*51
$GPGSV,4,4,13,31,,,30,1*67
$GPGSV,2,1,06,08,72,286,45,194,63,045,45,195,56,125,33,27,55,025,46,8*69
$GPGSV,2,2,06,04,36,221,46,26,19,079,35,8*6D
$GLGSV,2,1,05,88,72,097,41,78,43,358,34,77,34,079,22,87,26,032,31,1*70
$GLGSV,2,2,05,79,08,315,21,1*4F
$GAGSV,2,1,05,21,50,342,40,27,35,057,31,15,24,053,35,04,08,316,28,7*71
$GAGSV,2,2,05,13,,,17,7*72
$GAGSV,1,1,04,21,50,342,43,27,35,057,39,15,24,053,38,13,,,34,1*44
$GBGSV,4,1,13,06,84,236,41,16,82,185,39,43,76,080,45,09,74,310,42,1*73
$GBGSV,4,2,13,39,70,172,34,40,67,311,44,07,63,290,41,23,58,350,44,1*7C
$GBGSV,4,3,13,11,53,050,43,10,52,273,34,25,49,089,40,28,34,206,31,1*74
$GBGSV,4,4,13,34,30,042,40,1*42
$GBGSV,2,1,07,43,76,080,42,39,70,172,32,40,67,311,42,23,58,350,45,4*7C
$GBGSV,2,2,07,25,49,089,30,28,34,206,23,34,30,042,39,4*4C
$GNACCURACY,4.7*15
$PAIRSAT,1,20,4,0,21,7,0,1,8,0,21,9,0,21,14,0,200,15,0,200,16,0,201,17,0,200,18,0,200,19,0,200,20,0,200,21,0,200,22,0,200,23,0,200,26,0,21,27,0,21,194,0,421,195,0,221,196,0,200,199,0,200*46
$PAIRSAT,2,11,70,0,200,71,0,200,77,0,1,78,0,1,79,0,1,83,0,200,84,0,200,85,0,200,86,0,200,87,0,201,88,0,201*58
$PAIRSAT,3,11,2,0,1000,3,0,1000,4,0,1000,15,0,21,21,0,221,25,0,1200,26,0,1200,27,0,1221,30,0,1200,31,0,1200,33,0,1200*66
$PAIRSAT,4,43,1,0,200,2,0,200,3,0,400,4,0,200,5,0,200,6,0,201,7,0,201,8,0,200,9,0,201,10,0,1,11,0,1,16,0,1,19,0,400,20,0,400,21,0,400,22,0,400,23,0,421,24,0,600,25,0,621,26,0,600,27,0,400,28,0,621,29,0,600,30,0,600,32,0,400,33,0,400,34,0,421,35,0,400,36,0,400,37,0,400,38,0,400,39,0,421,40,0,421,41,0,400,42,0,400,43,0,421,44,0,400,45,0,400,46,0,400,59,0,400,60,0,400,61,0,400,62,0,400*67
$PAIRDGP,0*45
$GNGGA,031623.100,2500.7755304,N,12132.4580655,E,4,45,0.65,16.710,M,15.25,M,1,3335*48
$GNRMC,031623.100,A,2500.7755304,N,12132.4580655,E,0.01,147.83,090324,,,R,V*15
$GPHDT,,T*1B
$GNACCURACY,4.7*15
$GNGGA,031623.200,2500.7755311,N,12132.4580667,E,4,45,0.65,16.712,M,15.25,M,1,3335*4C
$GNRMC,031623.200,A,2500.7755311,N,12132.4580667,E,0.01,147.83,090324,,,R,V*13
$GPHDT,231.030,T*36
$GNACCURACY,4.7*15
$GNGGA,031623.300,2500.7755287,N,12132.4580673,E,4,45,0.65,16.708,M,15.25,M,1,3335*4D
$GNRMC,031623.300,A,2500.7755287,N,12132.4580673,E,0.01,147.83,090324,,,R,V*19
$GPHDT,,T*1B
$GNACCURACY,4.7*15
$GNGGA,031623.400,2500.7755285,N,12132.4580679,E,4,45,0.65,16.709,M,15.25,M,1,3335*43
$GNRMC,031623.400,A,2500.7755285,N,12132.4580679,E,0.01,147.83,090324,,,R,V*16
$GPHDT,230.971,T*3B
$GNACCURACY,4.7*15
$GNGGA,031623.500,2500.7755294,N,12132.4580686,E,4,45,0.65,16.711,M,15.25,M,1,3335*4B
$GNRMC,031623.500,A,2500.7755294,N,12132.4580686,E,0.00,147.83,090324,,,R,V*16
$GPHDT,,T*1B
$GNACCURACY,4.8*1A
$GNGGA,031623.600,2500.7755316,N,12132.4580657,E,4,45,0.65,16.709,M,15.25,M,0,3335*47
$GNRMC,031623.600,A,2500.7755316,N,12132.4580657,E,0.01,147.83,090324,,,R,V*13
$GPHDT,231.102,T*36
$GNACCURACY,4.7*15
$GNGGA,031623.700,2500.7755292,N,12132.4580676,E,4,45,0.65,16.706,M,15.25,M,0,3335*47
$GNRMC,031623.700,A,2500.7755292,N,12132.4580676,E,0.01,147.83,090324,,,R,V*1C
$GPHDT,,T*1B
$GNACCURACY,4.7*15
$GNGGA,031623.800,2500.7755302,N,12132.4580673,E,4,45,0.65,16.703,M,15.25,M,0,3335*40
$GNRMC,031623.800,A,2500.7755302,N,12132.4580673,E,0.06,147.83,090324,,,R,V*19
$GPHDT,231.437,T*35
$GNACCURACY,4.7*15
$GNGGA,031623.900,2500.7755311,N,12132.4580688,E,4,45,0.65,16.716,M,15.25,M,0,3335*43
$GNRMC,031623.900,A,2500.7755311,N,12132.4580688,E,0.06,147.83,090324,,,R,V*1E
$GPHDT,,T*1B
$GNACCURACY,4.8*1A
$GNGGA,031624.000,2500.7755301,N,12132.4580681,E,4,45,0.65,16.703,M,15.25,M,1,3335*40
$GNRMC,031624.000,A,2500.7755301,N,12132.4580681,E,0.03,147.83,090324,,,R,V*1D
$GPHDT,231.307,T*31
$GNGSA,A,3,08,194,195,27,16,04,09,07,26,,,,0.95,0.65,0.69,1*04
$GNGSA,A,3,88,78,77,87,,,,,,,,,0.95,0.65,0.69,2*02
$GNGSA,A,3,21,27,15,,,,,,,,,,0.95,0.65,0.69,3*01
$GNGSA,A,3,06,16,43,09,39,40,07,23,11,10,25,28,0.95,0.65,0.69,4*0F
$GNGSA,A,3,34,,,,,,,,,,,,0.95,0.65,0.69,4*03
$GPGSV,4,1,13,08,72,286,45,199,67,163,,194,63,045,42,195,56,125,29,1*5A
$GPGSV,4,2,13,27,55,025,44,16,37,050,41,04,36,221,45,21,34,172,16,1*67
$GPGSV,4,3,13,09,31,273,25,196,22,174,17,07,21,320,41,26,19,079,31,1*51
$GPGSV,4,4,13,31,,,30,1*67
$GPGSV,2,1,06,08,72,286,45,194,63,045,45,195,56,125,33,27,55,025,47,8*68
$GPGSV,2,2,06,04,36,221,46,26,19,079,35,8*6D
$GLGSV,2,1,05,88,72,097,41,78,43,358,34,77,34,079,22,87,26,032,31,1*70
$GLGSV,2,2,05,79,08,315,20,1*4E
$GAGSV,2,1,05,21,50,342,40,27,35,057,31,15,24,053,35,04,08,316,28,7*71
$GAGSV,2,2,05,13,,,17,7*72
$GAGSV,1,1,04,21,50,342,43,27,35,057,39,15,24,053,38,13,,,34,1*44
$GBGSV,4,1,13,06,84,236,41,16,82,185,39,43,76,080,45,09,74,310,42,1*73
$GBGSV,4,2,13,39,70,172,34,40,67,311,44,07,63,290,41,23,58,350,44,1*7C
$GBGSV,4,3,13,11,53,050,43,10,52,273,34,25,49,089,40,28,34,206,31,1*74
$GBGSV,4,4,13,34,30,042,40,1*42
$GBGSV,2,1,07,43,76,080,42,39,70,172,32,40,67,311,42,23,58,350,45,4*7C
$GBGSV,2,2,07,25,49,089,30,28,34,206,21,34,30,042,39,4*4E
$GNACCURACY,4.8*1A
$PAIRSAT,1,20,4,0,21,7,0,1,8,0,21,9,0,21,14,0,200,15,0,200,16,0,201,17,0,200,18,0,200,19,0,200,20,0,200,21,0,200,22,0,200,23,0,200,26,0,21,27,0,21,194,0,421,195,0,221,196,0,200,199,0,200*46
$PAIRSAT,2,11,70,0,200,71,0,200,77,0,1,78,0,1,79,0,1,83,0,200,84,0,200,85,0,200,86,0,200,87,0,201,88,0,201*58
$PAIRSAT,3,11,2,0,1000,3,0,1000,4,0,1000,15,0,21,21,0,221,25,0,1200,26,0,1200,27,0,1221,30,0,1200,31,0,1200,33,0,1200*66
$PAIRSAT,4,43,1,0,200,2,0,200,3,0,400,4,0,200,5,0,200,6,0,201,7,0,201,8,0,200,9,0,201,10,0,1,11,0,1,16,0,1,19,0,400,20,0,400,21,0,400,22,0,400,23,0,421,24,0,600,25,0,621,26,0,600,27,0,400,28,0,621,29,0,600,30,0,600,32,0,400,33,0,400,34,0,421,35,0,400,36,0,400,37,0,400,38,0,400,39,0,421,40,0,421,41,0,400,42,0,400,43,0,421,44,0,400,45,0,400,46,0,400,59,0,400,60,0,400,61,0,400,62,0,400*67
$PAIRDGP,0*45
$GNGGA,031624.100,2500.7755290,N,12132.4580678,E,4,45,0.65,16.707,M,15.25,M,1,3335*4A
$GNRMC,031624.100,A,2500.7755290,N,12132.4580678,E,0.03,147.83,090324,,,R,V*13
$GPHDT,,T*1B
$GNACCURACY,4.8*1A
$GNGGA,031624.200,2500.7755302,N,12132.4580674,E,4,45,0.65,16.707,M,15.25,M,1,3335*4F
$GNRMC,031624.200,A,2500.7755302,N,12132.4580674,E,0.04,147.83,090324,,,R,V*11
$GPHDT,230.959,T*31
$GNACCURACY,4.8*1A
$GNGGA,031624.300,2500.7755298,N,12132.4580679,E,4,45,0.65,16.704,M,15.25,M,1,3335*42
$GNRMC,031624.300,A,2500.7755298,N,12132.4580679,E,0.03,147.83,090324,,,R,V*18
$GPHDT,,T*1B
$GNACCURACY,4.8*1A
$GNGGA,031624.400,2500.7755314,N,12132.4580665,E,4,45,0.65,16.700,M,15.25,M,1,3335*49
$GNRMC,031624.400,A,2500.7755314,N,12132.4580665,E,0.03,147.83,090324,,,R,V*17
$GPHDT,231.139,T*3E
$GNACCURACY,4.8*1A
$GNGGA,031624.500,2500.7755302,N,12132.4580669,E,4,45,0.65,16.706,M,15.25,M,1,3335*45
$GNRMC,031624.500,A,2500.7755302,N,12132.4580669,E,0.02,147.83,090324,,,R,V*1C
$GPHDT,,T*1B
$GNACCURACY,4.8*1A
$GNGGA,031624.600,2500.7755284,N,12132.4580665,E,4,45,0.65,16.704,M,15.25,M,1,3335*47
$GNRMC,031624.600,A,2500.7755284,N,12132.4580665,E,0.01,147.83,090324,,,R,V*1F
$GPHDT,231.271,T*31
$GNACCURACY,4.8*1A
$GNGGA,031624.700,2500.7755309,N,12132.4580681,E,4,45,0.65,16.707,M,15.25,M,1,3335*4B
$GNRMC,031624.700,A,2500.7755309,N,12132.4580681,E,0.02,147.83,090324,,,R,V*13
$GPHDT,,T*1B
$GNACCURACY,4.8*1A
$GNGGA,031624.800,2500.7755292,N,12132.4580664,E,4,45,0.65,16.711,M,15.25,M,0,3335*4A
$GNRMC,031624.800,A,2500.7755292,N,12132.4580664,E,0.04,147.83,090324,,,R,V*12
$GPHDT,231.306,T*30
$GNACCURACY,4.8*1A
$GNGGA,031624.900,2500.7755294,N,12132.4580677,E,4,45,0.65,16.707,M,15.25,M,0,3335*48
$GNRMC,031624.900,A,2500.7755294,N,12132.4580677,E,0.02,147.83,090324,,,R,V*11
$GPHDT,,T*1B
$GNACCURACY,4.8*1A
$GNGGA,031625.000,2500.7755289,N,12132.4580675,E,4,45,0.65,16.712,M,15.25,M,1,3335*4B
$GNRMC,031625.000,A,2500.7755289,N,12132.4580675,E,0.02,147.83,090324,,,R,V*17
$GPHDT,231.414,T*34
$GNGSA,A,3,08,194,195,27,16,04,09,07,26,,,,0.95,0.65,0.69,1*04
$GNGSA,A,3,88,78,77,87,,,,,,,,,0.95,0.65,0.69,2*02
$GNGSA,A,3,21,27,15,,,,,,,,,,0.95,0.65,0.69,3*01
$GNGSA,A,3,06,16,43,09,39,40,07,23,11,10,25,28,0.95,0.65,0.69,4*0F
$GNGSA,A,3,34,,,,,,,,,,,,0.95,0.65,0.69,4*03
$GPGSV,4,1,13,08,72,286,45,199,67,163,,194,63,045,42,195,56,125,29,1*5A
$GPGSV,4,2,13,27,55,025,44,16,37,050,41,04,36,221,45,21,34,172,16,1*67
$GPGSV,4,3,13,09,31,273,24,196,22,174,17,07,21,320,41,26,19,079,30,1*51
$GPGSV,4,4,13,31,,,30,1*67
$GPGSV,2,1,06,08,72,286,45,194,63,045,45,195,56,125,33,27,55,025,47,8*68
$GPGSV,2,2,06,04,36,221,46,26,19,079,35,8*6D
$GLGSV,2,1,05,88,72,097,41,78,43,358,34,77,34,079,21,87,26,032,31,1*73
$GLGSV,2,2,05,79,08,315,19,1*44
$GAGSV,2,1,05,21,50,342,40,27,35,057,31,15,24,053,36,04,08,316,28,7*72
$GAGSV,2,2,05,13,,,17,7*72
$GAGSV,1,1,04,21,50,342,43,27,35,057,39,15,24,053,38,13,,,34,1*44
$GBGSV,4,1,13,06,84,236,41,16,82,185,39,43,76,080,45,09,74,310,42,1*73
$GBGSV,4,2,13,39,70,172,34,40,67,311,44,07,63,290,41,23,58,350,44,1*7C
$GBGSV,4,3,13,11,53,050,43,10,52,273,34,25,49,089,40,28,34,206,32,1*77
$GBGSV,4,4,13,34,30,042,40,1*42
$GBGSV,2,1,07,43,76,080,42,39,70,172,32,40,67,311,42,23,58,350,45,4*7C
$GBGSV,2,2,07,25,49,089,30,28,34,206,21,34,30,042,39,4*4E
$GNACCURACY,4.8*1A
$PAIRSAT,1,20,4,0,21,7,0,1,8,0,21,9,0,21,14,0,200,15,0,200,16,0,201,17,0,200,18,0,200,19,0,200,20,0,200,21,0,200,22,0,200,23,0,200,26,0,21,27,0,21,194,0,421,195,0,221,196,0,200,199,0,200*46
$PAIRSAT,2,11,70,0,200,71,0,200,77,0,1,78,0,1,79,0,1,83,0,200,84,0,200,85,0,200,86,0,200,87,0,201,88,0,201*58
$PAIRSAT,3,11,2,0,1000,3,0,1000,4,0,1000,15,0,21,21,0,221,25,0,1200,26,0,1200,27,0,1221,30,0,1200,31,0,1200,33,0,1200*66
$PAIRSAT,4,43,1,0,200,2,0,200,3,0,400,4,0,200,5,0,200,6,0,201,7,0,201,8,0,200,9,0,201,10,0,1,11,0,1,16,0,1,19,0,400,20,0,400,21,0,400,22,0,400,23,0,421,24,0,600,25,0,621,26,0,600,27,0,400,28,0,621,29,0,600,30,0,600,32,0,400,33,0,400,34,0,421,35,0,400,36,0,400,37,0,400,38,0,400,39,0,421,40,0,421,41,0,400,42,0,400,43,0,421,44,0,400,45,0,400,46,0,400,59,0,400,60,0,400,61,0,400,62,0,400*67
$PAIRDGP,0*45
$GNGGA,031625.100,2500.7755309,N,12132.4580674,E,4,45,0.65,16.701,M,15.25,M,1,3335*40
$GNRMC,031625.100,A,2500.7755309,N,12132.4580674,E,0.01,147.83,090324,,,R,V*1D
$GPHDT,,T*1B
$GNACCURACY,4.8*1A
$GNGGA,031625.200,2500.7755327,N,12132.4580652,E,4,45,0.65,16.706,M,15.25,M,1,3335*4C
$GNRMC,031625.200,A,2500.7755327,N,12132.4580652,E,0.02,147.83,090324,,,R,V*15
$GPHDT,231.077,T*35
$GNACCURACY,4.8*1A
$GNGGA,031625.300,2500.7755324,N,12132.4580684,E,4,45,0.65,16.717,M,15.25,M,1,3335*45
$GNRMC,031625.300,A,2500.7755324,N,12132.4580684,E,0.01,147.83,090324,,,R,V*1F
$GPHDT,,T*1B
$GNACCURACY,4.8*1A
$GNGGA,031625.400,2500.7755342,N,12132.4580668,E,4,45,0.65,16.717,M,15.25,M,1,3335*40
$GNRMC,031625.400,A,2500.7755342,N,12132.4580668,E,0.01,147.83,090324,,,R,V*1A
$GPHDT,230.827,T*39
$GNACCURACY,4.8*1A
$GNGGA,031625.500,2500.7755318,N,12132.4580698,E,4,45,0.65,16.726,M,15.25,M,1,3335*43
$GNRMC,031625.500,A,2500.7755318,N,12132.4580698,E,0.01,147.83,090324,,,R,V*1B
$GPHDT,,T*1B
$GNACCURACY,4.8*1A
$GNGGA,031625.600,2500.7755340,N,12132.4580682,E,4,45,0.65,16.713,M,15.25,M,0,3335*41
$GNRMC,031625.600,A,2500.7755340,N,12132.4580682,E,0.01,147.83,090324,,,R,V*1E
$GPHDT,231.153,T*32
$GNACCURACY,4.8*1A
$GNGGA,031625.700,2500.7755355,N,12132.4580675,E,4,45,0.65,16.730,M,15.25,M,0,3335*4D
$GNRMC,031625.700,A,2500.7755355,N,12132.4580675,E,0.00,147.83,090324,,,R,V*12
$GPHDT,,T*1B
$GNACCURACY,4.8*1A
$GNGGA,031625.800,2500.7755311,N,12132.4580693,E,4,45,0.65,16.723,M,15.25,M,0,3335*48
$GNRMC,031625.800,A,2500.7755311,N,12132.4580693,E,0.01,147.83,090324,,,R,V*14
$GPHDT,230.757,T*31
$GNACCURACY,4.8*1A
$GNGGA,031625.900,2500.7755334,N,12132.4580663,E,4,45,0.65,16.712,M,15.25,M,0,3335*43
$GNRMC,031625.900,A,2500.7755334,N,12132.4580663,E,0.01,147.83,090324,,,R,V*1D
$GPHDT,,T*1B
$GNACCURACY,4.8*1A
$GNGGA,031626.000,2500.7755309,N,12132.4580698,E,4,45,0.65,16.724,M,15.25,M,1,3335*47
$GNRMC,031626.000,A,2500.7755309,N,12132.4580698,E,0.04,147.83,090324,,,R,V*18
$GPHDT,231.024,T*33
$GNGSA,A,3,08,194,195,27,16,04,09,07,26,,,,0.95,0.65,0.69,1*04
$GNGSA,A,3,88,78,77,87,,,,,,,,,0.95,0.65,0.69,2*02
$GNGSA,A,3,21,27,15,,,,,,,,,,0.95,0.65,0.69,3*01
$GNGSA,A,3,06,16,43,09,39,40,07,23,11,10,25,28,0.95,0.65,0.69,4*0F
$GNGSA,A,3,34,,,,,,,,,,,,0.95,0.65,0.69,4*03
$GPGSV,4,1,13,08,72,286,45,199,67,163,,194,63,045,42,195,56,125,29,1*5A
$GPGSV,4,2,13,27,55,025,44,16,37,050,41,04,36,221,45,21,34,172,19,1*68
$GPGSV,4,3,13,09,31,273,24,196,22,174,17,07,21,320,41,26,19,079,29,1*59
$GPGSV,4,4,13,31,,,30,1*67
$GPGSV,2,1,06,08,72,286,45,194,63,045,45,195,56,125,33,27,55,025,47,8*68
$GPGSV,2,2,06,04,36,221,46,26,19,079,35,8*6D
$GLGSV,2,1,05,88,72,097,41,78,43,358,33,77,34,079,21,87,26,032,29,1*7D
$GLGSV,2,2,05,79,08,315,19,1*44
$GAGSV,2,1,05,21,50,343,40,27,35,057,32,15,24,053,37,04,08,316,28,7*71
$GAGSV,2,2,05,13,,,17,7*72
$GAGSV,1,1,04,21,50,343,43,27,35,057,39,15,24,053,38,13,,,34,1*45
$GBGSV,4,1,13,06,84,236,41,16,82,185,39,43,76,080,45,09,74,310,42,1*73
$GBGSV,4,2,13,39,70,172,35,40,67,311,45,07,63,290,41,23,58,350,44,1*7C
$GBGSV,4,3,13,11,53,050,43,10,52,273,36,25,49,089,38,28,34,206,32,1*7A
$GBGSV,4,4,13,34,30,042,40,1*42
$GBGSV,2,1,07,43,76,080,42,39,70,172,32,40,67,311,42,23,58,350,45,4*7C
$GBGSV,2,2,07,25,49,089,28,28,34,206,21,34,30,042,39,4*47
$GNACCURACY,4.8*1A
$PAIRSAT,1,20,4,0,21,7,0,1,8,0,21,9,0,21,14,0,200,15,0,200,16,0,201,17,0,200,18,0,200,19,0,200,20,0,200,21,0,200,22,0,200,23,0,200,26,0,21,27,0,21,194,0,421,195,0,221,196,0,200,199,0,200*46
$PAIRSAT,2,11,70,0,200,71,0,200,77,0,1,78,0,1,79,0,1,83,0,200,84,0,200,85,0,200,86,0,200,87,0,201,88,0,201*58
$PAIRSAT,3,11,2,0,1000,3,0,1000,4,0,1000,15,0,21,21,0,221,25,0,1200,26,0,1200,27,0,1221,30,0,1200,31,0,1200,33,0,1200*66
$PAIRSAT,4,43,1,0,200,2,0,200,3,0,400,4,0,200,5,0,200,6,0,201,7,0,201,8,0,200,9,0,201,10,0,1,11,0,1,16,0,1,19,0,400,20,0,400,21,0,400,22,0,400,23,0,421,24,0,600,25,0,621,26,0,600,27,0,400,28,0,621,29,0,600,30,0,600,32,0,400,33,0,400,34,0,421,35,0,400,36,0,400,37,0,400,38,0,400,39,0,421,40,0,421,41,0,400,42,0,400,43,0,421,44,0,400,45,0,400,46,0,400,59,0,400,60,0,400,61,0,400,62,0,400*67
$PAIRDGP,0*45
$GNGGA,031626.100,2500.7755320,N,12132.4580648,E,4,45,0.65,16.718,M,15.25,M,1,3335*4F
$GNRMC,031626.100,A,2500.7755320,N,12132.4580648,E,0.01,147.83,090324,,,R,V*1A
$GPHDT,,T*1B
$GNACCURACY,4.8*1A
$GNGGA,031626.200,2500.7755323,N,12132.4580686,E,4,45,0.65,16.718,M,15.25,M,1,3335*4D
$GNRMC,031626.200,A,2500.7755323,N,12132.4580686,E,0.01,147.83,090324,,,R,V*18
$GPHDT,231.281,T*3E
$GNACCURACY,4.8*1A
$GNGGA,031626.300,2500.7755318,N,12132.4580678,E,4,45,0.65,16.718,M,15.25,M,1,3335*45
$GNRMC,031626.300,A,2500.7755318,N,12132.4580678,E,0.01,147.83,090324,,,R,V*10
$GPHDT,,T*1B
$GNACCURACY,4.8*1A
$GNGGA,031626.400,2500.7755307,N,12132.4580679,E,4,45,0.65,16.709,M,15.25,M,1,3335*4D
$GNRMC,031626.400,A,2500.7755307,N,12132.4580679,E,0.01,147.83,090324,,,R,V*18
$GPHDT,231.167,T*35
$GNACCURACY,4.8*1A
$GNGGA,031626.500,2500.7755330,N,12132.4580675,E,4,45,0.65,16.710,M,15.25,M,0,3335*4D
$GNRMC,031626.500,A,2500.7755330,N,12132.4580675,E,0.01,147.83,090324,,,R,V*11
$GPHDT,,T*1B
$GNACCURACY,4.8*1A
$GNGGA,031626.600,2500.7755309,N,12132.4580694,E,4,45,0.65,16.715,M,15.25,M,0,3335*4E
$GNRMC,031626.600,A,2500.7755309,N,12132.4580694,E,0.01,147.83,090324,,,R,V*17
$GPHDT,231.362,T*32
$GNACCURACY,4.8*1A
$GNGGA,031626.700,2500.7755313,N,12132.4580684,E,4,45,0.65,16.707,M,15.25,M,0,3335*46
$GNRMC,031626.700,A,2500.7755313,N,12132.4580684,E,0.02,147.83,090324,,,R,V*1F
$GPHDT,,T*1B
$GNACCURACY,4.8*1A
$GNGGA,031626.800,2500.7755323,N,12132.4580677,E,4,45,0.65,16.712,M,15.25,M,0,3335*42
$GNRMC,031626.800,A,2500.7755323,N,12132.4580677,E,0.03,147.83,090324,,,R,V*1E
$GPHDT,231.158,T*39
$GNACCURACY,4.8*1A
$GNGGA,031626.900,2500.7755303,N,12132.4580694,E,4,45,0.65,16.713,M,15.25,M,0,3335*4D
$GNRMC,031626.900,A,2500.7755303,N,12132.4580694,E,0.01,147.83,090324,,,R,V*12
$GPHDT,,T*1B
$GNACCURACY,4.8*1A
$GNGGA,031627.000,2500.7755324,N,12132.4580677,E,4,45,0.65,16.712,M,15.25,M,1,3335*4D
$GNRMC,031627.000,A,2500.7755324,N,12132.4580677,E,0.05,147.83,090324,,,R,V*16
$GPHDT,231.015,T*31
$GNGSA,A,3,08,194,195,27,16,04,09,07,26,,,,0.95,0.65,0.69,1*04
$GNGSA,A,3,88,78,77,87,,,,,,,,,0.95,0.65,0.69,2*02
$GNGSA,A,3,21,27,15,,,,,,,,,,0.95,0.65,0.69,3*01
$GNGSA,A,3,06,16,43,09,39,40,07,23,11,10,25,28,0.95,0.65,0.69,4*0F
$GNGSA,A,3,34,,,,,,,,,,,,0.95,0.65,0.69,4*03
$GPGSV,4,1,13,08,72,286,45,199,67,163,,194,63,045,42,195,56,125,29,1*5A
$GPGSV,4,2,13,27,55,025,44,16,37,050,41,04,36,221,45,21,34,172,18,1*69
$GPGSV,4,3,13,09,31,273,24,196,22,174,18,07,21,320,41,26,19,079,29,1*56
$GPGSV,4,4,13,31,,,30,1*67
$GPGSV,2,1,06,08,72,286,45,194,63,045,45,195,56,125,33,27,55,025,47,8*68
$GPGSV,2,2,06,04,36,221,46,26,19,079,35,8*6D
$GLGSV,2,1,05,88,72,097,41,78,43,358,33,77,34,079,22,87,26,032,29,1*7E
$GLGSV,2,2,05,79,08,315,23,1*4D
$GAGSV,2,1,05,21,50,343,40,27,35,057,33,15,24,053,37,04,08,316,28,7*70
$GAGSV,2,2,05,13,,,15,7*70
$GAGSV,1,1,04,21,50,343,43,27,35,057,39,15,24,053,38,13,,,33,1*42
$GBGSV,4,1,13,06,84,236,41,16,82,185,39,43,76,080,45,09,74,310,42,1*73
$GBGSV,4,2,13,39,70,172,33,40,67,311,45,07,63,290,41,23,58,350,44,1*7A
$GBGSV,4,3,13,11,53,050,43,10,52,273,36,25,49,089,38,28,34,206,31,1*79
$GBGSV,4,4,13,34,30,042,40,1*42
$GBGSV,2,1,07,43,76,080,42,39,70,172,32,40,67,311,42,23,58,350,45,4*7C
$GBGSV,2,2,07,25,49,089,27,28,34,206,20,34,30,042,39,4*49
$GNACCURACY,4.8*1A
$PAIRSAT,1,20,4,0,21,7,0,1,8,0,21,9,0,21,14,0,200,15,0,200,16,0,201,17,0,200,18,0,200,19,0,200,20,0,200,21,0,200,22,0,200,23,0,200,26,0,21,27,0,21,194,0,421,195,0,221,196,0,200,199,0,200*46
$PAIRSAT,2,11,70,0,200,71,0,200,77,0,1,78,0,1,79,0,1,83,0,200,84,0,200,85,0,200,86,0,200,87,0,201,88,0,201*58
$PAIRSAT,3,11,2,0,1000,3,0,1000,4,0,1000,15,0,21,21,0,221,25,0,1200,26,0,1200,27,0,1221,30,0,1200,31,0,1200,33,0,1200*66
$PAIRSAT,4,43,1,0,200,2,0,200,3,0,400,4,0,200,5,0,200,6,0,201,7,0,201,8,0,200,9,0,201,10,0,1,11,0,1,16,0,1,19,0,400,20,0,400,21,0,400,22,0,400,23,0,421,24,0,600,25,0,621,26,0,600,27,0,400,28,0,621,29,0,600,30,0,600,32,0,400,33,0,400,34,0,421,35,0,400,36,0,400,37,0,400,38,0,400,39,0,421,40,0,421,41,0,400,42,0,400,43,0,421,44,0,400,45,0,400,46,0,400,59,0,400,60,0,400,61,0,400,62,0,400*67
$PAIRDGP,0*45
$GNGGA,031627.100,2500.7755319,N,12132.4580683,E,4,45,0.65,16.709,M,15.25,M,1,3335*43
$GNRMC,031627.100,A,2500.7755319,N,12132.4580683,E,0.05,147.83,090324,,,R,V*12
$GPHDT,,T*1B
$GNACCURACY,4.8*1A
$GNGGA,031627.200,2500.7755311,N,12132.4580672,E,4,45,0.65,16.708,M,15.25,M,1,3335*47
$GNRMC,031627.200,A,2500.7755311,N,12132.4580672,E,0.02,147.83,090324,,,R,V*10
$GPHDT,231.034,T*32
$GNACCURACY,4.8*1A
$GNGGA,031627.300,2500.7755318,N,12132.4580671,E,4,45,0.65,16.705,M,15.25,M,1,3335*41
$GNRMC,031627.300,A,2500.7755318,N,12132.4580671,E,0.01,147.83,090324,,,R,V*18
$GPHDT,,T*1B
$GNACCURACY,4.8*1A
$GNGGA,031627.400,2500.7755322,N,12132.4580685,E,4,45,0.65,16.712,M,15.25,M,1,3335*42
$GNRMC,031627.400,A,2500.7755322,N,12132.4580685,E,0.01,147.83,090324,,,R,V*1D
$GPHDT,231.170,T*33
$GNACCURACY,4.8*1A
$GNGGA,031627.500,2500.7755336,N,12132.4580672,E,4,46,0.65,16.713,M,15.25,M,1,3335*4C
$GNRMC,031627.500,A,2500.7755336,N,12132.4580672,E,0.01,147.83,090324,,,R,V*11
$GPHDT,,T*1B
$GNACCURACY,4.8*1A
$GNGGA,031627.600,2500.7755323,N,12132.4580685,E,4,46,0.65,16.709,M,15.25,M,1,3335*48
$GNRMC,031627.600,A,2500.7755323,N,12132.4580685,E,0.01,147.83,090324,,,R,V*1E
$GPHDT,231.003,T*36
$GNACCURACY,4.8*1A
$GNGGA,031627.700,2500.7755307,N,12132.4580658,E,4,46,0.65,16.721,M,15.25,M,0,3335*44
$GNRMC,031627.700,A,2500.7755307,N,12132.4580658,E,0.01,147.83,090324,,,R,V*19
$GPHDT,,T*1B
$GNACCURACY,4.8*1A
$GNGGA,031627.800,2500.7755310,N,12132.4580667,E,4,46,0.65,16.717,M,15.25,M,0,3335*44
$GNRMC,031627.800,A,2500.7755310,N,12132.4580667,E,0.05,147.83,090324,,,R,V*18
$GPHDT,231.157,T*36
$GNACCURACY,4.8*1A
$GNGGA,031627.900,2500.7755313,N,12132.4580665,E,4,46,0.65,16.718,M,15.25,M,0,3335*4B
$GNRMC,031627.900,A,2500.7755313,N,12132.4580665,E,0.06,147.83,090324,,,R,V*1B
$GPHDT,,T*1B
$GNACCURACY,4.8*1A
$GNGGA,031628.000,2500.7755304,N,12132.4580679,E,4,46,0.65,16.724,M,15.25,M,1,3335*48
$GNRMC,031628.000,A,2500.7755304,N,12132.4580679,E,0.03,147.83,090324,,,R,V*13
$GPHDT,230.808,T*34
$GNGSA,A,3,08,194,195,27,16,04,09,07,26,,,,0.95,0.65,0.69,1*04
$GNGSA,A,3,88,78,77,87,,,,,,,,,0.95,0.65,0.69,2*02
$GNGSA,A,3,21,27,15,,,,,,,,,,0.95,0.65,0.69,3*01
$GNGSA,A,3,06,16,43,09,39,40,07,23,11,10,25,28,0.95,0.65,0.69,4*0F
$GNGSA,A,3,34,,,,,,,,,,,,0.95,0.65,0.69,4*03
$GPGSV,4,1,13,08,72,286,45,199,67,163,,194,63,045,42,195,56,125,30,1*52
$GPGSV,4,2,13,27,55,025,44,16,37,050,41,04,36,221,45,21,34,172,17,1*66
$GPGSV,4,3,13,09,31,273,24,196,22,174,18,07,21,320,41,26,19,079,29,1*56
$GPGSV,4,4,13,31,,,30,1*67
$GPGSV,2,1,07,08,72,286,45,194,63,045,45,195,56,125,34,27,55,025,47,8*6E
$GPGSV,2,2,07,04,36,221,46,09,31,273,19,26,19,079,35,8*59
$GLGSV,2,1,05,88,72,097,41,78,43,358,33,77,34,079,22,87,26,032,30,1*76
$GLGSV,2,2,05,79,08,315,24,1*4A
$GAGSV,2,1,05,21,50,343,40,27,35,057,33,15,24,053,37,04,08,316,28,7*70
$GAGSV,2,2,05,13,,,15,7*70
$GAGSV,1,1,04,21,50,343,43,27,35,057,39,15,24,053,38,13,,,33,1*42
$GBGSV,4,1,13,06,84,236,41,16,82,185,38,43,76,080,45,09,74,310,42,1*72
$GBGSV,4,2,13,39,70,172,33,40,67,311,45,07,63,290,41,23,58,350,44,1*7A
$GBGSV,4,3,13,11,53,050,43,10,52,273,36,25,49,089,38,28,34,206,31,1*79
$GBGSV,4,4,13,34,30,042,40,1*42
$GBGSV,2,1,07,43,76,080,42,39,70,172,32,40,67,311,42,23,58,350,45,4*7C
$GBGSV,2,2,07,25,49,089,27,28,34,206,20,34,30,042,39,4*49
$GNACCURACY,4.8*1A
$PAIRSAT,1,20,4,0,21,7,0,1,8,0,21,9,0,21,14,0,200,15,0,200,16,0,201,17,0,200,18,0,200,19,0,200,20,0,200,21,0,200,22,0,200,23,0,200,26,0,21,27,0,21,194,0,421,195,0,221,196,0,200,199,0,200*46
$PAIRSAT,2,11,70,0,200,71,0,200,77,0,1,78,0,1,79,0,1,83,0,200,84,0,200,85,0,200,86,0,200,87,0,201,88,0,201*58
$PAIRSAT,3,11,2,0,1000,3,0,1000,4,0,1000,15,0,21,21,0,221,25,0,1200,26,0,1200,27,0,1221,30,0,1200,31,0,1200,33,0,1200*66
$PAIRSAT,4,43,1,0,200,2,0,200,3,0,400,4,0,200,5,0,200,6,0,201,7,0,201,8,0,200,9,0,201,10,0,1,11,0,1,16,0,1,19,0,400,20,0,400,21,0,400,22,0,400,23,0,421,24,0,600,25,0,621,26,0,600,27,0,400,28,0,621,29,0,600,30,0,600,32,0,400,33,0,400,34,0,421,35,0,400,36,0,400,37,0,400,38,0,400,39,0,421,40,0,421,41,0,400,42,0,400,43,0,421,44,0,400,45,0,400,46,0,400,59,0,400,60,0,400,61,0,400,62,0,400*67
$PAIRDGP,0*45
$GNGGA,031628.100,2500.7755299,N,12132.4580665,E,4,46,0.65,16.719,M,15.25,M,1,3335*4F
$GNRMC,031628.100,A,2500.7755299,N,12132.4580665,E,0.02,147.83,090324,,,R,V*1B
$GPHDT,,T*1B
$GNACCURACY,4.8*1A
$GNGGA,031628.200,2500.7755304,N,12132.4580687,E,4,46,0.65,16.714,M,15.25,M,1,3335*48
$GNRMC,031628.200,A,2500.7755304,N,12132.4580687,E,0.00,147.83,090324,,,R,V*13
$GPHDT,230.672,T*37
$GNACCURACY,4.9*1B
$GNGGA,031628.300,2500.7755316,N,12132.4580664,E,4,46,0.65,16.718,M,15.25,M,1,3335*4B
$GNRMC,031628.300,A,2500.7755316,N,12132.4580664,E,0.01,147.83,090324,,,R,V*1D
$GPHDT,,T*1B
$GNACCURACY,4.9*1B
$GNGGA,031628.400,2500.7755296,N,12132.4580675,E,4,46,0.65,16.715,M,15.25,M,1,3335*48
$GNRMC,031628.400,A,2500.7755296,N,12132.4580675,E,0.01,147.83,090324,,,R,V*13
$GPHDT,230.789,T*32
$GNACCURACY,4.9*1B
$GNGGA,031628.500,2500.7755322,N,12132.4580667,E,4,46,0.65,16.719,M,15.25,M,1,3335*48
$GNRMC,031628.500,A,2500.7755322,N,12132.4580667,E,0.01,147.83,090324,,,R,V*1F
$GPHDT,,T*1B
$GNACCURACY,4.9*1B
$GNGGA,031628.600,2500.7755314,N,12132.4580674,E,4,46,0.65,16.718,M,15.25,M,0,3335*4C
$GNRMC,031628.600,A,2500.7755314,N,12132.4580674,E,0.01,147.83,090324,,,R,V*1B
$GPHDT,230.913,T*3F
$GNACCURACY,4.9*1B
$GNGGA,031628.700,2500.7755320,N,12132.4580678,E,4,46,0.65,16.711,M,15.25,M,0,3335*4F
$GNRMC,031628.700,A,2500.7755320,N,12132.4580678,E,0.03,147.83,090324,,,R,V*13
$GPHDT,,T*1B
$GNACCURACY,4.9*1B
$GNGGA,031628.800,2500.7755317,N,12132.4580689,E,4,46,0.65,16.715,M,15.25,M,0,3335*4E
$GNRMC,031628.800,A,2500.7755317,N,12132.4580689,E,0.03,147.83,090324,,,R,V*16
$GPHDT,230.676,T*33
$GNACCURACY,4.9*1B
$GNGGA,031628.900,2500.7755310,N,12132.4580685,E,4,46,0.65,16.713,M,15.25,M,0,3335*42
$GNRMC,031628.900,A,2500.7755310,N,12132.4580685,E,0.05,147.83,090324,,,R,V*1A
$GPHDT,,T*1B
$GNACCURACY,4.9*1B
$GNGGA,031629.000,2500.7755326,N,12132.4580690,E,4,46,0.65,16.712,M,15.25,M,1,3335*4B
$GNRMC,031629.000,A,2500.7755326,N,12132.4580690,E,0.02,147.83,090324,,,R,V*14
$GPHDT,230.746,T*31
$GNGSA,A,3,08,194,195,27,16,04,09,07,26,,,,0.95,0.65,0.69,1*04
$GNGSA,A,3,88,78,77,87,,,,,,,,,0.95,0.65,0.69,2*02
$GNGSA,A,3,21,27,15,,,,,,,,,,0.95,0.65,0.69,3*01
$GNGSA,A,3,06,16,43,09,39,40,07,23,11,10,25,28,0.95,0.65,0.69,4*0F
$GNGSA,A,3,34,,,,,,,,,,,,0.95,0.65,0.69,4*03
$GPGSV,4,1,13,08,72,286,45,199,67,163,,194,63,045,42,195,56,125,30,1*52
$GPGSV,4,2,13,27,55,025,44,16,37,050,41,04,36,221,45,21,34,172,16,1*67
$GPGSV,4,3,13,09,31,273,25,196,22,174,18,07,21,320,41,26,19,079,28,1*56
$GPGSV,4,4,13,31,,,30,1*67
$GPGSV,2,1,07,08,72,286,45,194,63,045,45,195,56,125,34,27,55,025,47,8*6E
$GPGSV,2,2,07,04,36,221,46,09,31,273,17,26,19,079,34,8*56
$GLGSV,2,1,05,88,72,097,41,78,43,358,32,77,34,079,22,87,26,032,30,1*77
$GLGSV,2,2,05,79,09,315,25,1*4A
$GAGSV,2,1,05,21,50,343,40,27,35,057,32,15,24,053,37,04,08,316,28,7*71
$GAGSV,2,2,05,13,,,15,7*70
$GAGSV,1,1,04,21,50,343,43,27,35,057,39,15,24,053,38,13,,,34,1*45
$GBGSV,4,1,13,06,84,236,41,16,82,185,38,43,76,080,45,09,74,310,42,1*72
$GBGSV,4,2,13,39,70,172,33,40,67,311,45,07,63,290,41,23,58,350,44,1*7A
$GBGSV,4,3,13,11,53,050,43,10,52,273,36,25,49,089,38,28,34,206,31,1*79
$GBGSV,4,4,13,34,30,042,40,1*42
$GBGSV,2,1,07,43,76,080,42,39,70,172,32,40,67,311,42,23,58,350,45,4*7C
$GBGSV,2,2,07,25,49,089,28,28,34,206,21,34,30,042,39,4*47
$GNACCURACY,4.9*1B
$PAIRSAT,1,20,4,0,21,7,0,1,8,0,21,9,0,21,14,0,200,15,0,200,16,0,201,17,0,200,18,0,200,19,0,200,20,0,200,21,0,200,22,0,200,23,0,200,26,0,21,27,0,21,194,0,421,195,0,221,196,0,200,199,0,200*46
$PAIRSAT,2,11,70,0,200,71,0,200,77,0,1,78,0,1,79,0,1,83,0,200,84,0,200,85,0,200,86,0,200,87,0,201,88,0,201*58
$PAIRSAT,3,11,2,0,1000,3,0,1000,4,0,1000,15,0,21,21,0,221,25,0,1200,26,0,1200,27,0,1221,30,0,1200,31,0,1200,33,0,1200*66
$PAIRSAT,4,43,1,0,200,2,0,200,3,0,400,4,0,200,5,0,200,6,0,201,7,0,201,8,0,200,9,0,201,10,0,1,11,0,1,16,0,1,19,0,400,20,0,400,21,0,400,22,0,400,23,0,421,24,0,600,25,0,621,26,0,600,27,0,400,28,0,621,29,0,600,30,0,600,32,0,400,33,0,400,34,0,421,35,0,400,36,0,400,37,0,400,38,0,400,39,0,421,40,0,421,41,0,400,42,0,400,43,0,421,44,0,400,45,0,400,46,0,400,59,0,400,60,0,400,61,0,400,62,0,400*67
$PAIRDGP,0*45
$GNGGA,031629.100,2500.7755315,N,12132.4580674,E,4,46,0.65,16.707,M,15.25,M,1,3335*44
$GNRMC,031629.100,A,2500.7755315,N,12132.4580674,E,0.01,147.83,090324,,,R,V*1C
$GPHDT,,T*1B
$GNACCURACY,4.9*1B
$GNGGA,031629.200,2500.7755314,N,12132.4580679,E,4,46,0.65,16.714,M,15.25,M,1,3335*49
$GNRMC,031629.200,A,2500.7755314,N,12132.4580679,E,0.01,147.83,090324,,,R,V*13
$GPHDT,230.697,T*3C
$GNACCURACY,4.9*1B
$GNGGA,031629.300,2500.7755311,N,12132.4580687,E,4,46,0.65,16.708,M,15.25,M,1,3335*41
$GNRMC,031629.300,A,2500.7755311,N,12132.4580687,E,0.01,147.83,090324,,,R,V*16
$GPHDT,,T*1B
$GNACCURACY,4.9*1B
$GNGGA,031629.400,2500.7755322,N,12132.4580692,E,4,46,0.66,16.715,M,15.25,M,1,3335*4D
$GNRMC,031629.400,A,2500.7755322,N,12132.4580692,E,0.01,147.83,090324,,,R,V*15
$GPHDT,230.256,T*35
$GNACCURACY,4.9*1B
$GNGGA,031629.500,2500.7755328,N,12132.4580661,E,4,46,0.66,16.708,M,15.25,M,1,3335*46
$GNRMC,031629.500,A,2500.7755328,N,12132.4580661,E,0.00,147.83,090324,,,R,V*13
$GPHDT,,T*1B
$GNACCURACY,4.9*1B
$GNGGA,031629.600,2500.7755289,N,12132.4580665,E,4,46,0.66,16.713,M,15.25,M,0,3335*40
$GNRMC,031629.600,A,2500.7755289,N,12132.4580665,E,0.01,147.83,090324,,,R,V*1F
$GPHDT,230.510,T*30
