$FW : RTK35X,V1.1X0314AS,Lib20210517,1*54
$Tool : LOCOSYS , GNSS Firebird , v1.0.0.19*39
$---------------------------------------------------*2D
$GPHDT,,T*1B
$GNGSA,A,3,196,24,195,05,13,194,29,,,,,,1.32,0.78,1.07,1*3D
$GNGSA,A,3,84,80,79,,,,,,,,,,1.32,0.78,1.07,2*01
$GNGSA,A,3,15,03,,,,,,,,,,,1.32,0.78,1.07,3*0D
$GNGSA,A,3,38,39,08,16,20,09,29,46,37,30,32,,1.32,0.78,1.07,4*07
$GPGSV,3,1,10,199,73,011,,196,73,050,27,24,64,172,30,45,47,231,37,1*6D
$GPGSV,3,2,10,195,47,177,44,05,37,086,24,13,30,037,32,194,20,146,32,1*6A
$GPGSV,3,3,10,29,18,221,31,15,,,20,1*52
$GPGSV,1,1,03,196,73,050,33,24,64,172,33,195,47,177,40,8*5A
$GLGSV,1,1,03,84,45,204,26,80,30,126,31,79,26,066,41,1*47
$GAGSV,1,1,02,15,51,170,36,03,24,045,41,7*73
$GAGSV,1,1,02,15,51,170,37,03,24,045,45,1*70
$GBGSV,3,1,11,38,73,034,29,39,71,225,37,08,63,005,30,16,62,215,44,1*74
$GBGSV,3,2,11,20,49,021,31,09,43,213,37,29,40,238,48,46,37,149,32,1*72
$GBGSV,3,3,11,37,34,077,33,30,16,181,22,32,14,073,24,1*4F
$GBGSV,2,1,08,38,73,034,33,39,71,225,41,20,49,021,24,29,40,238,44,4*70
$GBGSV,2,2,08,46,37,149,34,37,34,077,41,30,16,181,21,32,14,073,30,4*7C
$GNGGA,101505.000,2500.7897600,N,12132.4693100,E,2,36,0.78,25.12,M,15.25,M,2,3335*72
$GNRMC,101505.000,A,2500.7897600,N,12132.4693100,E,0.01,223.23,260623,,,D,V*05
$GPHDT,,T*1B
$GNGGA,101505.200,2500.7897600,N,12132.4693200,E,2,36,0.78,25.13,M,15.25,M,2,3335*72
$GNRMC,101505.200,A,2500.7897600,N,12132.4693200,E,0.01,223.23,260623,,,D,V*04
$GPHDT,,T*1B
$GNGGA,101505.400,2500.7897600,N,12132.4693200,E,2,36,0.78,25.13,M,15.25,M,2,3335*74
$GNRMC,101505.400,A,2500.7897600,N,12132.4693200,E,0.01,223.23,260623,,,D,V*02
$GPHDT,,T*1B
$GNGGA,101505.600,2500.7897600,N,12132.4693200,E,2,36,0.78,25.14,M,15.25,M,2,3335*71
$GNRMC,101505.600,A,2500.7897600,N,12132.4693200,E,0.00,223.23,260623,,,D,V*01
$GPHDT,,T*1B
$GNGGA,101505.800,2500.7897600,N,12132.4693300,E,2,36,0.78,25.12,M,15.25,M,2,3335*78
$GNRMC,101505.800,A,2500.7897600,N,12132.4693300,E,0.03,223.23,260623,,,D,V*0D
$GPHDT,,T*1B
$GNGSA,A,3,196,24,195,05,13,194,29,,,,,,1.32,0.78,1.07,1*3D
$GNGSA,A,3,84,80,79,,,,,,,,,,1.32,0.78,1.07,2*01
$GNGSA,A,3,15,03,,,,,,,,,,,1.32,0.78,1.07,3*0D
$GNGSA,A,3,38,39,08,16,20,09,29,46,37,30,32,,1.32,0.78,1.07,4*07
$GPGSV,3,1,10,199,73,011,,196,73,050,27,24,64,172,30,45,47,231,37,1*6D
$GPGSV,3,2,10,195,47,177,44,05,37,086,24,13,30,037,31,194,20,146,32,1*69
$GPGSV,3,3,10,29,18,221,31,15,,,20,1*52
$GPGSV,1,1,03,196,73,050,34,24,64,172,36,195,47,177,40,8*58
$GLGSV,1,1,03,84,45,204,26,80,30,126,32,79,26,066,41,1*44
$GAGSV,1,1,02,15,51,170,36,03,24,045,41,7*73
$GAGSV,1,1,02,15,51,170,37,03,24,045,45,1*70
$GBGSV,3,1,11,38,73,034,30,39,71,225,37,08,63,005,30,16,62,215,44,1*7C
$GBGSV,3,2,11,20,49,021,31,09,43,213,37,29,40,238,48,46,37,149,33,1*73
$GBGSV,3,3,11,37,34,077,32,30,16,181,23,32,14,073,25,1*4E
$GBGSV,2,1,08,38,73,034,33,39,71,225,40,20,49,021,25,29,40,238,44,4*70
$GBGSV,2,2,08,46,37,149,34,37,34,077,41,30,16,181,20,32,14,073,30,4*7D
$GNGGA,101506.000,2500.7897600,N,12132.4693400,E,2,36,0.78,25.13,M,15.25,M,3,3335*74
$GNRMC,101506.000,A,2500.7897600,N,12132.4693400,E,0.03,223.23,260623,,,D,V*01
$GPHDT,,T*1B
$GNGGA,101506.200,2500.7897600,N,12132.4693400,E,2,36,0.78,25.13,M,15.25,M,3,3335*76
$GNRMC,101506.200,A,2500.7897600,N,12132.4693400,E,0.02,223.23,260623,,,D,V*02
$GPHDT,,T*1B
$GNGGA,101506.400,2500.7897600,N,12132.4693400,E,2,36,0.78,25.12,M,15.25,M,3,3335*71
$GNRMC,101506.400,A,2500.7897600,N,12132.4693400,E,0.04,223.23,260623,,,D,V*02
$GPHDT,,T*1B
$GNGGA,101506.600,2500.7897600,N,12132.4693400,E,2,36,0.78,25.13,M,15.25,M,3,3335*72
$GNRMC,101506.600,A,2500.7897600,N,12132.4693400,E,0.03,223.23,260623,,,D,V*07
$GPHDT,,T*1B
$GNGGA,101506.800,2500.7897600,N,12132.4693400,E,2,36,0.78,25.13,M,15.25,M,3,3335*7C
$GNRMC,101506.800,A,2500.7897600,N,12132.4693400,E,0.02,223.23,260623,,,D,V*08
$GPHDT,,T*1B
$GNGSA,A,3,196,24,195,05,13,194,29,,,,,,1.32,0.78,1.07,1*3D
$GNGSA,A,3,84,80,79,,,,,,,,,,1.32,0.78,1.07,2*01
$GNGSA,A,3,15,03,,,,,,,,,,,1.32,0.78,1.07,3*0D
$GNGSA,A,3,38,39,08,16,20,09,29,46,37,30,32,,1.32,0.78,1.07,4*07
$GPGSV,3,1,10,199,73,011,,196,73,050,27,24,64,172,29,45,47,231,36,1*64
$GPGSV,3,2,10,195,47,177,44,05,37,086,26,13,30,037,31,194,20,146,32,1*6B
$GPGSV,3,3,10,29,18,221,31,15,,,20,1*52
$GPGSV,1,1,03,196,73,050,35,24,64,172,36,195,47,177,40,8*59
$GLGSV,2,1,05,84,45,204,27,85,44,300,,70,36,323,,80,30,126,32,1*71
$GLGSV,2,2,05,79,26,066,41,1*42
$GAGSV,1,1,02,15,51,170,36,03,24,045,41,7*73
$GAGSV,1,1,02,15,51,170,37,03,24,045,45,1*70
$GBGSV,3,1,12,38,73,034,30,39,71,225,38,08,63,005,30,16,62,215,44,1*70
$GBGSV,3,2,12,06,60,215,42,20,49,021,30,09,43,213,37,29,40,238,48,1*7B
$GBGSV,3,3,12,46,37,149,33,37,34,077,32,30,16,181,22,32,14,073,25,1*76
$GBGSV,2,1,08,38,73,034,34,39,71,225,39,20,49,021,26,29,40,238,44,4*7A
$GBGSV,2,2,08,46,37,149,33,37,34,077,41,30,16,181,21,32,14,073,30,4*7B
$GNGGA,101507.000,2500.7897600,N,12132.4693500,E,2,36,0.78,25.14,M,15.25,M,4,3335*74
$GNRMC,101507.000,A,2500.7897600,N,12132.4693500,E,0.02,223.23,260623,,,D,V*00
$GPHDT,,T*1B
$GNGGA,101507.200,2500.7897600,N,12132.4693500,E,2,36,0.78,25.13,M,15.25,M,4,3335*71
$GNRMC,101507.200,A,2500.7897600,N,12132.4693500,E,0.02,223.23,260623,,,D,V*02
$GPHDT,,T*1B
$GNGGA,101507.400,2500.7897600,N,12132.4693500,E,2,36,0.78,25.12,M,15.25,M,2,3335*70
$GNRMC,101507.400,A,2500.7897600,N,12132.4693500,E,0.03,223.23,260623,,,D,V*05
$GPHDT,,T*1B
$GNGGA,101507.600,2500.7897600,N,12132.4693500,E,2,36,0.78,25.12,M,15.25,M,0,3335*70
$GNRMC,101507.600,A,2500.7897600,N,12132.4693500,E,0.02,223.23,260623,,,D,V*06
$GPHDT,,T*1B
$GNGGA,101507.800,2500.7897600,N,12132.4693600,E,2,36,0.78,25.12,M,15.25,M,0,3335*7D
$GNRMC,101507.800,A,2500.7897600,N,12132.4693600,E,0.02,223.23,260623,,,D,V*0B
$GPHDT,,T*1B
$GNGSA,A,3,196,24,195,05,13,194,29,,,,,,1.32,0.78,1.07,1*3D
$GNGSA,A,3,84,80,79,,,,,,,,,,1.32,0.78,1.07,2*01
$GNGSA,A,3,15,03,,,,,,,,,,,1.32,0.78,1.07,3*0D
$GNGSA,A,3,38,39,08,16,20,09,29,46,37,30,32,,1.32,0.78,1.07,4*07
$GPGSV,3,1,10,199,73,011,,196,73,050,26,24,64,172,29,45,47,231,36,1*65
$GPGSV,3,2,10,195,47,177,44,05,37,086,26,13,30,037,32,194,20,146,33,1*69
$GPGSV,3,3,10,29,18,221,30,15,,,21,1*52
$GPGSV,1,1,03,196,73,050,35,24,64,172,36,195,47,177,40,8*59
$GLGSV,2,1,05,84,45,204,27,85,44,300,,80,30,126,32,79,26,066,41,1*7E
$GLGSV,2,2,05,86,08,332,,1*49
$GAGSV,1,1,03,15,51,170,36,03,24,045,41,25,04,066,,7*41
$GAGSV,1,1,02,15,51,170,37,03,24,045,44,1*71
$GBGSV,3,1,12,38,73,034,30,39,71,225,38,08,63,005,30,16,62,215,44,1*70
$GBGSV,3,2,12,06,60,215,43,20,49,021,29,09,43,213,37,29,40,238,48,1*72
$GBGSV,3,3,12,46,37,149,33,37,34,077,32,30,16,181,21,32,14,073,25,1*75
$GBGSV,2,1,08,38,73,034,34,39,71,225,39,20,49,021,26,29,40,238,44,4*7A
$GBGSV,2,2,08,46,37,149,31,37,34,077,40,30,16,181,21,32,14,073,30,4*78
$GNGGA,101508.000,2500.7897600,N,12132.4693600,E,2,36,0.78,25.14,M,15.25,M,1,3335*7D
$GNRMC,101508.000,A,2500.7897600,N,12132.4693600,E,0.02,223.23,260623,,,D,V*0C
$GPHDT,,T*1B
$GNGGA,101508.200,2500.7897600,N,12132.4693700,E,2,36,0.78,25.14,M,15.25,M,1,3335*7E
$GNRMC,101508.200,A,2500.7897600,N,12132.4693700,E,0.03,223.23,260623,,,D,V*0E
$GPHDT,,T*1B
$GNGGA,101508.400,2500.7897600,N,12132.4693600,E,2,35,0.78,25.14,M,15.25,M,1,3335*7A
$GNRMC,101508.400,A,2500.7897600,N,12132.4693600,E,0.00,223.23,260623,,,D,V*0A
$GPHDT,,T*1B
$GNGGA,101508.600,2500.7897600,N,12132.4693700,E,2,36,0.78,25.15,M,15.25,M,1,3335*7B
$GNRMC,101508.600,A,2500.7897600,N,12132.4693700,E,0.04,223.23,260623,,,D,V*0D
$GPHDT,,T*1B
$GNGGA,101508.800,2500.7897600,N,12132.4693700,E,2,36,0.78,25.15,M,15.25,M,1,3335*75
$GNRMC,101508.800,A,2500.7897600,N,12132.4693700,E,0.03,223.23,260623,,,D,V*04
$GPHDT,,T*1B
$GNGSA,A,3,196,24,195,05,13,194,29,,,,,,1.32,0.78,1.07,1*3D
$GNGSA,A,3,84,80,79,,,,,,,,,,1.32,0.78,1.07,2*01
$GNGSA,A,3,15,03,,,,,,,,,,,1.32,0.78,1.07,3*0D
$GNGSA,A,3,38,39,08,16,20,09,29,46,37,30,32,,1.32,0.78,1.07,4*07
$GPGSV,3,1,10,199,73,011,,196,73,050,26,24,64,172,30,45,47,231,36,1*6D
$GPGSV,3,2,10,195,47,177,43,05,37,086,27,13,30,037,31,194,20,146,33,1*6C
$GPGSV,3,3,10,29,18,221,30,15,,,18,1*58
$GPGSV,1,1,03,196,73,050,34,24,64,172,35,195,47,177,40,8*5B
$GLGSV,1,1,03,84,45,204,27,80,30,126,32,79,26,066,39,1*4A
$GAGSV,1,1,04,15,51,170,36,03,24,045,39,26,14,323,,25,04,066,,7*7A
$GAGSV,1,1,02,15,51,170,36,03,24,045,42,1*76
$GBGSV,4,1,13,38,73,034,30,39,71,225,38,08,63,005,29,16,62,215,44,1*7E
$GBGSV,4,2,13,06,60,215,43,20,49,021,29,09,43,213,37,29,40,238,48,1*74
$GBGSV,4,3,13,46,37,149,33,37,34,077,31,30,16,181,22,32,14,073,27,1*71
$GBGSV,4,4,13,40,02,191,,1*4B
$GBGSV,2,1,08,38,73,034,33,39,71,225,40,20,49,021,23,29,40,238,44,4*76
$GBGSV,2,2,08,46,37,149,31,37,34,077,39,30,16,181,21,32,14,073,29,4*7E
$GNGGA,101509.000,2500.7897600,N,12132.4693700,E,2,36,0.78,25.14,M,15.25,M,2,3335*7E
$GNRMC,101509.000,A,2500.7897600,N,12132.4693700,E,0.03,223.23,260623,,,D,V*0D
$GPHDT,,T*1B
$GNGGA,101509.200,2500.7897600,N,12132.4693800,E,2,36,0.78,25.16,M,15.25,M,1,3335*72
$GNRMC,101509.200,A,2500.7897600,N,12132.4693800,E,0.10,223.23,260623,,,D,V*02
$GPHDT,,T*1B
$GNGGA,101509.400,2500.7897600,N,12132.4693700,E,2,36,0.78,25.16,M,15.25,M,1,3335*7B
$GNRMC,101509.400,A,2500.7897600,N,12132.4693700,E,0.25,223.23,260623,,,D,V*0D
$GPHDT,,T*1B
$GNGGA,101509.600,2500.7897600,N,12132.4693800,E,2,36,0.78,25.15,M,15.25,M,1,3335*75
$GNRMC,101509.600,A,2500.7897600,N,12132.4693800,E,0.18,223.23,260623,,,D,V*0E
$GPHDT,,T*1B
$GNGGA,101509.800,2500.7897600,N,12132.4693900,E,2,36,0.78,25.16,M,15.25,M,1,3335*79
$GNRMC,101509.800,A,2500.7897600,N,12132.4693900,E,0.12,223.23,260623,,,D,V*0B
$GPHDT,,T*1B
$GNGSA,A,3,196,24,195,05,13,194,29,,,,,,1.32,0.78,1.07,1*3D
$GNGSA,A,3,84,80,79,,,,,,,,,,1.32,0.78,1.07,2*01
$GNGSA,A,3,15,03,,,,,,,,,,,1.32,0.78,1.07,3*0D
$GNGSA,A,3,38,39,08,16,20,09,29,46,37,30,32,,1.32,0.78,1.07,4*07
$GPGSV,3,1,10,199,73,011,,196,73,050,26,24,64,172,29,45,47,231,36,1*65
$GPGSV,3,2,10,195,47,177,43,05,37,086,27,13,30,037,33,194,20,146,33,1*6E
$GPGSV,3,3,10,29,18,221,29,15,,,22,1*59
$GPGSV,1,1,03,196,73,050,34,24,64,172,33,195,47,177,40,8*5D
$GLGSV,1,1,03,84,45,204,27,80,30,126,31,79,26,066,40,1*47
$GAGSV,1,1,04,15,51,170,36,03,24,045,41,26,14,323,,25,04,066,,7*75
$GAGSV,1,1,02,15,51,170,35,03,24,045,44,1*73
$GBGSV,3,1,12,38,73,034,30,39,71,225,38,08,63,005,28,16,62,215,44,1*79
$GBGSV,3,2,12,06,60,215,43,20,49,021,29,09,43,213,37,29,40,238,48,1*72
$GBGSV,3,3,12,46,37,149,32,37,34,077,32,30,16,181,25,32,14,073,27,1*72
$GBGSV,2,1,08,38,73,034,32,39,71,225,40,20,49,021,20,29,40,238,44,4*74
$GBGSV,2,2,08,46,37,149,30,37,34,077,39,30,16,181,20,32,14,073,28,4*7F
$GNGGA,101510.000,2500.7897600,N,12132.4694000,E,2,36,0.78,25.17,M,15.25,M,2,3335*75
$GNRMC,101510.000,A,2500.7897600,N,12132.4694000,E,0.09,223.23,260623,,,D,V*0F
$GPHDT,,T*1B
$GNGGA,101510.200,2500.7897600,N,12132.4694000,E,2,36,0.78,25.16,M,15.25,M,2,3335*76
$GNRMC,101510.200,A,2500.7897600,N,12132.4694000,E,0.09,223.23,260623,,,D,V*0D
$GPHDT,,T*1B
$GNGGA,101510.400,2500.7897600,N,12132.4694100,E,2,36,0.78,25.18,M,15.25,M,2,3335*7F
$GNRMC,101510.400,A,2500.7897600,N,12132.4694100,E,0.12,223.23,260623,,,D,V*00
$GPHDT,,T*1B
$GNGGA,101510.600,2500.7897500,N,12132.4694200,E,2,36,0.78,25.18,M,15.25,M,2,3335*7D
$GNRMC,101510.600,A,2500.7897500,N,12132.4694200,E,0.13,223.23,260623,,,D,V*03
$GPHDT,,T*1B
$GNGGA,101510.800,2500.7897500,N,12132.4694200,E,2,36,0.78,25.18,M,15.25,M,2,3335*73
$GNRMC,101510.800,A,2500.7897500,N,12132.4694200,E,0.11,223.23,260623,,,D,V*0F
$GPHDT,,T*1B
$GNGSA,A,3,196,24,195,05,13,194,29,,,,,,1.32,0.78,1.07,1*3D
$GNGSA,A,3,84,80,79,,,,,,,,,,1.32,0.78,1.07,2*01
$GNGSA,A,3,15,03,,,,,,,,,,,1.32,0.78,1.07,3*0D
$GNGSA,A,3,38,39,08,16,20,09,29,46,37,30,32,,1.32,0.78,1.07,4*07
$GPGSV,3,1,10,199,73,011,,196,73,050,27,24,64,172,30,45,47,231,36,1*6C
$GPGSV,3,2,10,195,47,177,43,05,37,086,27,13,30,037,34,194,20,146,33,1*69
$GPGSV,3,3,10,29,18,221,29,15,,,22,1*59
$GPGSV,1,1,03,196,73,050,34,24,64,172,32,195,47,177,40,8*5C
$GLGSV,1,1,03,84,45,204,28,80,30,126,32,79,26,066,40,1*4B
$GAGSV,1,1,04,15,51,170,35,03,24,045,41,26,14,323,,25,04,066,,7*76
$GAGSV,1,1,02,15,51,170,35,03,24,045,44,1*73
$GBGSV,3,1,12,38,73,034,30,39,71,225,38,08,63,005,28,16,62,215,44,1*79
$GBGSV,3,2,12,06,60,215,43,20,49,021,28,09,43,213,37,29,40,238,48,1*73
$GBGSV,3,3,12,46,37,149,32,37,34,077,34,30,16,181,23,32,14,073,28,1*7D
$GBGSV,2,1,08,38,73,034,32,39,71,225,40,20,49,021,19,29,40,238,44,4*7E
$GBGSV,2,2,08,46,37,149,32,37,34,077,40,30,16,181,20,32,14,073,28,4*73
$GNGGA,101511.000,2500.7897500,N,12132.4694300,E,2,36,0.78,25.18,M,15.25,M,3,3335*7A
$GNRMC,101511.000,A,2500.7897500,N,12132.4694300,E,0.10,223.23,260623,,,D,V*06
$GPHDT,,T*1B
$GNGGA,101511.200,2500.7897600,N,12132.4694300,E,2,36,0.78,25.18,M,15.25,M,3,3335*7B
$GNRMC,101511.200,A,2500.7897600,N,12132.4694300,E,0.06,223.23,260623,,,D,V*00
$GPHDT,,T*1B
$GNGGA,101511.400,2500.7897600,N,12132.4694300,E,2,36,0.78,25.18,M,15.25,M,3,3335*7D
$GNRMC,101511.400,A,2500.7897600,N,12132.4694300,E,0.06,223.23,260623,,,D,V*06
$GPHDT,,T*1B
$GNGGA,101511.600,2500.7897600,N,12132.4694300,E,2,36,0.78,25.18,M,15.25,M,3,3335*7F
$GNRMC,101511.600,A,2500.7897600,N,12132.4694300,E,0.05,223.23,260623,,,D,V*07
$GPHDT,,T*1B
$GNGGA,101511.800,2500.7897600,N,12132.4694300,E,2,36,0.78,25.19,M,15.25,M,3,3335*70
$GNRMC,101511.800,A,2500.7897600,N,12132.4694300,E,0.04,223.23,260623,,,D,V*08
$GPHDT,,T*1B
$GNGSA,A,3,196,24,195,05,13,194,29,,,,,,1.32,0.78,1.07,1*3D
$GNGSA,A,3,84,80,79,,,,,,,,,,1.32,0.78,1.07,2*01
$GNGSA,A,3,15,03,,,,,,,,,,,1.32,0.78,1.07,3*0D
$GNGSA,A,3,38,39,08,16,20,09,29,46,37,30,32,,1.32,0.78,1.07,4*07
$GPGSV,3,1,10,199,73,011,,196,73,050,27,24,64,172,30,45,47,231,36,1*6C
$GPGSV,3,2,10,195,47,177,43,05,37,086,27,13,30,037,34,194,20,146,33,1*69
$GPGSV,3,3,10,29,18,221,30,15,,,21,1*52
$GPGSV,1,1,03,196,73,050,34,24,64,172,32,195,47,177,40,8*5C
$GLGSV,1,1,03,84,45,204,28,80,30,126,32,79,26,066,40,1*4B
$GAGSV,1,1,04,15,51,170,35,03,24,045,41,26,14,323,,25,04,066,,7*76
$GAGSV,1,1,02,15,51,170,35,03,24,045,44,1*73
$GBGSV,3,1,12,38,73,034,30,39,71,225,38,08,63,005,29,16,62,215,44,1*78
$GBGSV,3,2,12,06,60,215,43,20,49,021,28,09,43,213,37,29,40,238,48,1*73
$GBGSV,3,3,12,46,37,149,32,37,34,077,33,30,16,181,24,32,14,073,28,1*7D
$GBGSV,2,1,08,38,73,034,33,39,71,225,40,20,49,021,20,29,40,238,44,4*75
$GBGSV,2,2,08,46,37,149,32,37,34,077,40,30,16,181,21,32,14,073,29,4*73
$GNGGA,101512.000,2500.7897600,N,12132.4694400,E,2,36,0.78,25.19,M,15.25,M,4,3335*7B
$GNRMC,101512.000,A,2500.7897600,N,12132.4694400,E,0.03,223.23,260623,,,D,V*03
$GPHDT,,T*1B
$GNGGA,101512.200,2500.7897600,N,12132.4694400,E,2,36,0.78,25.19,M,15.25,M,4,3335*79
$GNRMC,101512.200,A,2500.7897600,N,12132.4694400,E,0.03,223.23,260623,,,D,V*01
$GPHDT,,T*1B
$GNGGA,101512.400,2500.7897600,N,12132.4694400,E,2,36,0.78,25.19,M,15.25,M,4,3335*7F
$GNRMC,101512.400,A,2500.7897600,N,12132.4694400,E,0.01,223.23,260623,,,D,V*05
$GPHDT,,T*1B
$GNGGA,101512.600,2500.7897600,N,12132.4694400,E,2,36,0.78,25.19,M,15.25,M,1,3335*78
$GNRMC,101512.600,A,2500.7897600,N,12132.4694400,E,0.00,223.23,260623,,,D,V*06
$GPHDT,,T*1B
$GNGGA,101512.800,2500.7897600,N,12132.4694400,E,2,36,0.78,25.20,M,15.25,M,0,3335*7D
$GNRMC,101512.800,A,2500.7897600,N,12132.4694400,E,0.01,223.23,260623,,,D,V*09
$GPHDT,,T*1B
$GNGSA,A,3,196,24,195,05,13,194,29,,,,,,1.32,0.78,1.07,1*3D
$GNGSA,A,3,84,80,79,,,,,,,,,,1.32,0.78,1.07,2*01
$GNGSA,A,3,15,03,,,,,,,,,,,1.32,0.78,1.07,3*0D
$GNGSA,A,3,38,39,08,16,20,09,29,46,37,30,32,,1.32,0.78,1.07,4*07
$GPGSV,3,1,11,199,73,011,,196,73,050,27,24,64,172,29,45,47,231,36,1*65
$GPGSV,3,2,11,195,47,177,43,05,37,086,26,13,30,037,35,194,20,146,33,1*68
$GPGSV,3,3,11,29,18,221,30,11,05,149,,15,,,20,1*6B
$GPGSV,1,1,03,196,73,050,34,24,64,172,32,195,47,177,40,8*5C
$GLGSV,1,1,03,84,45,204,28,80,31,126,31,79,26,065,40,1*4A
$GAGSV,1,1,04,15,51,170,35,03,24,045,41,26,14,323,,25,04,066,,7*76
$GAGSV,1,1,02,15,51,170,35,03,24,045,44,1*73
$GBGSV,3,1,12,38,73,034,30,39,71,225,38,08,63,005,28,16,62,215,44,1*79
$GBGSV,3,2,12,06,60,215,43,20,49,021,29,09,43,213,37,29,40,238,48,1*72
$GBGSV,3,3,12,46,37,149,33,37,34,077,33,30,16,181,23,32,14,073,28,1*7B
$GBGSV,2,1,08,38,73,034,33,39,71,225,40,20,49,021,22,29,40,238,44,4*77
$GBGSV,2,2,08,46,37,149,32,37,34,077,40,30,16,181,21,32,14,073,29,4*73
$GNGGA,101513.000,2500.7897600,N,12132.4694500,E,2,36,0.78,25.20,M,15.25,M,1,3335*74
$GNRMC,101513.000,A,2500.7897600,N,12132.4694500,E,0.04,223.23,260623,,,D,V*04
$GPHDT,,T*1B
$GNGGA,101513.200,2500.7897700,N,12132.4694500,E,2,36,0.78,25.20,M,15.25,M,1,3335*77
$GNRMC,101513.200,A,2500.7897700,N,12132.4694500,E,0.02,223.23,260623,,,D,V*01
$GPHDT,,T*1B
$GNGGA,101513.400,2500.7897700,N,12132.4694400,E,2,36,0.78,25.19,M,15.25,M,1,3335*7A
$GNRMC,101513.400,A,2500.7897700,N,12132.4694400,E,0.04,223.23,260623,,,D,V*00
$GPHDT,,T*1B
$GNGGA,101513.600,2500.7897700,N,12132.4694500,E,2,35,0.78,25.21,M,15.25,M,1,3335*71
$GNRMC,101513.600,A,2500.7897700,N,12132.4694500,E,0.01,223.23,260623,,,D,V*06
$GPHDT,,T*1B
$GNGGA,101513.800,2500.7897700,N,12132.4694500,E,2,36,0.78,25.20,M,15.25,M,1,3335*7D
$GNRMC,101513.800,A,2500.7897700,N,12132.4694500,E,0.00,223.23,260623,,,D,V*09
$GPHDT,,T*1B
$GNGSA,A,3,196,24,195,05,13,194,29,,,,,,1.32,0.78,1.07,1*3D
$GNGSA,A,3,84,80,79,,,,,,,,,,1.32,0.78,1.07,2*01
$GNGSA,A,3,15,03,,,,,,,,,,,1.32,0.78,1.07,3*0D
$GNGSA,A,3,38,39,08,16,20,09,29,46,37,30,32,,1.32,0.78,1.07,4*07
$GPGSV,3,1,11,199,73,011,,196,73,050,27,24,64,172,29,45,47,231,36,1*65
$GPGSV,3,2,11,195,47,177,43,05,37,086,28,13,30,037,35,194,20,146,33,1*66
$GPGSV,3,3,11,29,18,221,30,11,05,149,,15,,,18,1*60
$GPGSV,1,1,03,196,73,050,34,24,64,172,31,195,47,177,40,8*5F
$GLGSV,1,1,03,84,44,204,28,80,31,126,31,79,26,065,40,1*4B
$GAGSV,1,1,04,15,51,170,36,03,24,045,41,26,14,323,,25,04,066,,7*75
$GAGSV,1,1,02,15,51,170,35,03,24,045,44,1*73
$GBGSV,3,1,12,38,73,034,30,39,71,225,38,08,63,005,28,16,62,215,44,1*79
$GBGSV,3,2,12,06,60,215,43,20,49,021,29,09,43,213,37,29,40,238,48,1*72
$GBGSV,3,3,12,46,37,149,33,37,34,077,33,30,16,181,23,32,14,073,28,1*7B
$GBGSV,2,1,08,38,73,034,33,39,71,225,40,20,49,021,21,29,40,238,44,4*74
$GBGSV,2,2,08,46,37,149,32,37,34,077,40,30,16,181,21,32,14,073,29,4*73
$GNGGA,101514.000,2500.7897700,N,12132.4694600,E,2,36,0.78,25.21,M,15.25,M,2,3335*73
$GNRMC,101514.000,A,2500.7897700,N,12132.4694600,E,0.01,223.23,260623,,,D,V*04
$GPHDT,,T*1B
$GNGGA,101514.200,2500.7897700,N,12132.4694500,E,2,36,0.78,25.20,M,15.25,M,2,3335*73
$GNRMC,101514.200,A,2500.7897700,N,12132.4694500,E,0.02,223.23,260623,,,D,V*06
$GPHDT,,T*1B
$GNGGA,101514.400,2500.7897700,N,12132.4694600,E,2,36,0.78,25.21,M,15.25,M,2,3335*77
$GNRMC,101514.400,A,2500.7897700,N,12132.4694600,E,0.00,223.23,260623,,,D,V*01
$GPHDT,,T*1B
$GNGGA,101514.600,2500.7897800,N,12132.4694600,E,2,36,0.78,25.20,M,15.25,M,2,3335*7B
$GNRMC,101514.600,A,2500.7897800,N,12132.4694600,E,0.06,223.23,260623,,,D,V*0A
$GPHDT,,T*1B
$GNGGA,101514.800,2500.7897800,N,12132.4694600,E,2,36,0.78,25.20,M,15.25,M,2,3335*75
$GNRMC,101514.800,A,2500.7897800,N,12132.4694600,E,0.01,223.23,260623,,,D,V*03
$GPHDT,,T*1B
$GNGSA,A,3,196,24,195,05,13,194,29,,,,,,1.32,0.78,1.07,1*3D
$GNGSA,A,3,84,80,79,,,,,,,,,,1.32,0.78,1.07,2*01
$GNGSA,A,3,15,03,,,,,,,,,,,1.32,0.78,1.07,3*0D
$GNGSA,A,3,38,39,08,16,20,09,29,46,37,30,32,,1.32,0.78,1.07,4*07
$GPGSV,3,1,11,199,73,011,,196,73,050,26,24,64,172,28,45,47,231,36,1*65
$GPGSV,3,2,11,195,47,177,43,05,37,086,29,13,30,037,35,194,20,146,33,1*67
$GPGSV,3,3,11,29,18,221,30,11,05,149,,15,,,17,1*6F
$GPGSV,1,1,03,196,73,050,33,24,64,172,31,195,47,177,40,8*58
$GLGSV,1,1,03,84,44,204,28,80,31,126,31,79,26,065,40,1*4B
$GAGSV,1,1,04,15,51,170,35,03,24,045,41,26,14,323,,25,04,066,,7*76
$GAGSV,1,1,02,15,51,170,35,03,24,045,44,1*73
$GBGSV,3,1,12,38,73,034,30,39,71,225,37,08,63,005,28,16,62,215,44,1*76
$GBGSV,3,2,12,06,60,215,43,20,49,021,29,09,43,213,37,29,40,238,48,1*72
$GBGSV,3,3,12,46,37,149,33,37,34,077,33,30,16,181,23,32,14,073,29,1*7A
$GBGSV,2,1,08,38,73,034,33,39,71,225,40,20,49,021,20,29,40,238,44,4*75
$GBGSV,2,2,08,46,37,149,31,37,34,077,40,30,16,181,21,32,14,073,29,4*70
$GNGGA,101515.000,2500.7897800,N,12132.4694600,E,2,36,0.78,25.20,M,15.25,M,3,3335*7D
$GNRMC,101515.000,A,2500.7897800,N,12132.4694600,E,0.01,223.23,260623,,,D,V*0A
$GPHDT,,T*1B
$GNGGA,101515.200,2500.7897800,N,12132.4694600,E,2,36,0.78,25.20,M,15.25,M,3,3335*7F
$GNRMC,101515.200,A,2500.7897800,N,12132.4694600,E,0.02,223.23,260623,,,D,V*0B
$GPHDT,,T*1B
$GNGGA,101515.400,2500.7897800,N,12132.4694600,E,2,35,0.78,25.21,M,15.25,M,3,3335*7B
$GNRMC,101515.400,A,2500.7897800,N,12132.4694600,E,0.02,223.23,260623,,,D,V*0D
$GPHDT,,T*1B
$GNGGA,101515.600,2500.7897800,N,12132.4694600,E,2,35,0.78,25.20,M,15.25,M,3,3335*78
$GNRMC,101515.600,A,2500.7897800,N,12132.4694600,E,0.00,223.23,260623,,,D,V*0D
$GPHDT,,T*1B
$GNGGA,101515.800,2500.7897800,N,12132.4694600,E,2,36,0.78,25.21,M,15.25,M,3,3335*74
$GNRMC,101515.800,A,2500.7897800,N,12132.4694600,E,0.05,223.23,260623,,,D,V*06
