$FW : RTK35X,V1.1X0314AS,Lib20210517,1*54
$Tool : LOCOSYS , GNSS Firebird , v1.0.0.19*39
$---------------------------------------------------*2D
$GPHDT,,T*1B
$GNGSA,A,3,196,24,195,05,13,194,29,,,,,,1.35,0.81,1.08,1*33
$GNGSA,A,3,84,80,79,,,,,,,,,,1.35,0.81,1.08,2*0F
$GNGSA,A,3,15,03,,,,,,,,,,,1.35,0.81,1.08,3*03
$GNGSA,A,3,38,39,08,16,09,29,46,37,30,32,,,1.35,0.81,1.08,4*0B
$GPGSV,3,1,10,196,73,050,27,199,73,011,,24,64,173,37,45,47,231,36,1*6A
$GPGSV,3,2,10,195,47,177,45,05,37,085,37,13,31,036,38,194,20,146,35,1*67
$GPGSV,3,3,10,29,19,221,13,15,,,28,1*5B
$GPGSV,1,1,03,196,73,050,39,24,64,173,37,195,47,177,45,8*50
$GLGSV,1,1,03,84,45,205,28,80,30,127,24,79,26,066,41,1*4D
$GAGSV,1,1,02,15,52,170,38,03,25,044,40,7*7F
$GAGSV,1,1,02,15,52,170,40,03,25,044,41,1*77
$GBGSV,3,1,11,38,72,034,28,39,71,225,33,08,63,005,29,16,62,215,38,1*73
$GBGSV,3,2,11,09,43,213,32,29,41,238,45,46,36,149,38,37,34,077,39,1*77
$GBGSV,3,3,11,30,17,181,31,32,15,073,32,06,,,33,1*7F
$GBGSV,2,1,06,38,72,034,37,39,71,225,32,29,41,238,39,46,36,149,29,4*7E
$GBGSV,2,2,06,37,34,077,40,32,15,073,30,4*70
$GNGGA,101354.000,2500.7899800,N,12132.4695600,E,2,33,0.81,25.85,M,15.25,M,4,3335*7A
$GNRMC,101354.000,A,2500.7899800,N,12132.4695600,E,0.01,349.36,260623,,,D,V*0F
$GPHDT,,T*1B
$GNGGA,101354.200,2500.7899800,N,12132.4695600,E,2,33,0.81,25.85,M,15.25,M,3,3335*7F
$GNRMC,101354.200,A,2500.7899800,N,12132.4695600,E,0.00,349.36,260623,,,D,V*0C
$GPHDT,,T*1B
$GNGGA,101354.400,2500.7899800,N,12132.4695600,E,2,33,0.81,25.85,M,15.25,M,3,3335*79
$GNRMC,101354.400,A,2500.7899800,N,12132.4695600,E,0.01,349.36,260623,,,D,V*0B
$GPHDT,,T*1B
$GNGGA,101354.600,2500.7899800,N,12132.4695600,E,2,33,0.81,25.84,M,15.25,M,3,3335*7A
$GNRMC,101354.600,A,2500.7899800,N,12132.4695600,E,0.01,349.36,260623,,,D,V*09
$GPHDT,,T*1B
$GNGGA,101354.800,2500.7899800,N,12132.4695600,E,2,33,0.81,25.83,M,15.25,M,3,3335*73
$GNRMC,101354.800,A,2500.7899800,N,12132.4695600,E,0.01,349.36,260623,,,D,V*07
$GPHDT,,T*1B
$GNGSA,A,3,196,24,195,05,13,194,29,,,,,,1.35,0.81,1.08,1*33
$GNGSA,A,3,84,80,79,,,,,,,,,,1.35,0.81,1.08,2*0F
$GNGSA,A,3,15,03,,,,,,,,,,,1.35,0.81,1.08,3*03
$GNGSA,A,3,38,39,08,16,09,29,46,37,30,32,,,1.35,0.81,1.08,4*0B
$GPGSV,3,1,10,196,73,050,28,199,73,011,,24,64,173,38,45,47,231,36,1*6A
$GPGSV,3,2,10,195,47,177,45,05,37,085,37,13,31,036,38,194,20,146,35,1*67
$GPGSV,3,3,10,29,19,221,13,15,,,28,1*5B
$GPGSV,1,1,03,196,73,050,39,24,64,173,37,195,47,177,46,8*53
$GLGSV,1,1,03,84,45,205,29,80,30,127,25,79,26,066,41,1*4D
$GAGSV,1,1,02,15,52,170,37,03,25,044,40,7*70
$GAGSV,1,1,02,15,52,170,41,03,25,044,41,1*76
$GBGSV,3,1,11,38,72,034,31,39,71,225,34,08,63,005,29,16,62,215,38,1*7C
$GBGSV,3,2,11,09,43,213,32,29,41,238,43,46,36,149,37,37,34,077,39,1*7E
$GBGSV,3,3,11,30,17,181,31,32,15,073,32,06,,,32,1*7E
$GBGSV,2,1,06,38,72,034,38,39,71,225,32,29,41,238,39,46,36,149,26,4*7E
$GBGSV,2,2,06,37,34,077,40,32,15,073,30,4*70
$GNGGA,101355.000,2500.7899800,N,12132.4695600,E,2,33,0.81,25.83,M,15.25,M,4,3335*7D
$GNRMC,101355.000,A,2500.7899800,N,12132.4695600,E,0.01,349.36,260623,,,D,V*0E
$GPHDT,,T*1B
$GNGGA,101355.200,2500.7899800,N,12132.4695600,E,2,33,0.81,25.82,M,15.25,M,4,3335*7E
$GNRMC,101355.200,A,2500.7899800,N,12132.4695600,E,0.00,349.36,260623,,,D,V*0D
$GPHDT,,T*1B
$GNGGA,101355.400,2500.7899800,N,12132.4695600,E,2,33,0.81,25.82,M,15.25,M,4,3335*78
$GNRMC,101355.400,A,2500.7899800,N,12132.4695600,E,0.00,349.36,260623,,,D,V*0B
$GPHDT,,T*1B
$GNGGA,101355.600,2500.7899800,N,12132.4695600,E,2,33,0.81,25.82,M,15.25,M,4,3335*7A
$GNRMC,101355.600,A,2500.7899800,N,12132.4695600,E,0.00,349.36,260623,,,D,V*09
$GPHDT,,T*1B
$GNGGA,101355.800,2500.7899800,N,12132.4695600,E,2,33,0.81,25.82,M,15.25,M,4,3335*74
$GNRMC,101355.800,A,2500.7899800,N,12132.4695600,E,0.02,349.36,260623,,,D,V*05
$GPHDT,,T*1B
$GNGSA,A,3,196,24,195,05,13,194,29,,,,,,1.35,0.81,1.08,1*33
$GNGSA,A,3,84,80,79,,,,,,,,,,1.35,0.81,1.08,2*0F
$GNGSA,A,3,15,03,,,,,,,,,,,1.35,0.81,1.08,3*03
$GNGSA,A,3,38,39,08,16,09,29,46,37,30,32,,,1.35,0.81,1.08,4*0B
$GPGSV,3,1,10,196,73,050,28,199,73,011,,24,64,173,38,45,47,231,36,1*6A
$GPGSV,3,2,10,195,47,177,45,05,37,085,37,13,31,036,38,194,20,146,36,1*64
$GPGSV,3,3,10,29,19,221,14,15,,,28,1*5C
$GPGSV,1,1,03,196,73,050,39,24,64,173,37,195,47,177,46,8*53
$GLGSV,1,1,03,84,45,205,29,80,30,127,24,79,26,066,42,1*4F
$GAGSV,1,1,02,15,52,170,36,03,25,044,40,7*71
$GAGSV,1,1,02,15,52,170,41,03,25,044,41,1*76
$GBGSV,3,1,11,38,72,034,31,39,71,225,34,08,63,005,29,16,62,215,38,1*7C
$GBGSV,3,2,11,09,43,213,32,29,41,238,43,46,36,149,37,37,34,077,39,1*7E
$GBGSV,3,3,11,30,17,181,31,32,15,073,32,06,,,20,1*7D
$GBGSV,2,1,06,38,72,034,38,39,71,225,32,29,41,238,39,46,36,149,25,4*7D
$GBGSV,2,2,06,37,34,077,40,32,15,073,30,4*70
$GNGGA,101356.000,2500.7899800,N,12132.4695600,E,2,33,0.81,25.81,M,15.25,M,5,3335*7D
$GNRMC,101356.000,A,2500.7899800,N,12132.4695600,E,0.00,349.36,260623,,,D,V*0C
$GPHDT,,T*1B
$GNGGA,101356.200,2500.7899800,N,12132.4695500,E,2,32,0.81,25.80,M,15.25,M,5,3335*7C
$GNRMC,101356.200,A,2500.7899800,N,12132.4695500,E,0.00,349.36,260623,,,D,V*0D
$GPHDT,,T*1B
$GNGGA,101356.400,2500.7899700,N,12132.4695600,E,2,32,0.81,25.80,M,15.25,M,5,3335*76
$GNRMC,101356.400,A,2500.7899700,N,12132.4695600,E,0.01,349.36,260623,,,D,V*06
$GPHDT,,T*1B
$GNGGA,101356.600,2500.7899700,N,12132.4695600,E,2,33,0.81,25.80,M,15.25,M,1,3335*71
$GNRMC,101356.600,A,2500.7899700,N,12132.4695600,E,0.01,349.36,260623,,,D,V*04
$GPHDT,,T*1B
$GNGGA,101356.800,2500.7899700,N,12132.4695600,E,2,33,0.81,25.79,M,15.25,M,1,3335*79
$GNRMC,101356.800,A,2500.7899700,N,12132.4695600,E,0.01,349.36,260623,,,D,V*0A
$GPHDT,,T*1B
$GNGSA,A,3,196,24,195,05,13,194,,,,,,,1.56,0.90,1.28,1*3F
$GNGSA,A,3,84,80,79,,,,,,,,,,1.56,0.90,1.28,2*08
$GNGSA,A,3,15,03,,,,,,,,,,,1.56,0.90,1.28,3*04
$GNGSA,A,3,38,39,08,16,09,29,46,37,30,32,,,1.56,0.90,1.28,4*0C
$GPGSV,3,1,10,196,73,050,28,199,73,011,,24,64,173,38,45,47,231,36,1*6A
$GPGSV,3,2,10,195,47,177,45,05,37,085,37,13,31,036,38,194,20,146,36,1*64
$GPGSV,3,3,10,29,19,221,14,15,,,28,1*5C
$GPGSV,1,1,03,196,73,050,39,24,64,173,36,195,47,177,46,8*52
$GLGSV,1,1,03,84,45,205,29,80,30,127,24,79,26,066,42,1*4F
$GAGSV,1,1,02,15,52,170,36,03,25,044,40,7*71
$GAGSV,1,1,02,15,52,170,41,03,25,044,41,1*76
$GBGSV,3,1,11,38,72,034,32,39,71,225,34,08,63,005,29,16,62,215,38,1*7F
$GBGSV,3,2,11,09,43,213,32,29,41,238,43,46,36,149,37,37,34,077,39,1*7E
$GBGSV,3,3,11,30,17,181,31,32,15,073,32,06,,,16,1*78
$GBGSV,2,1,06,38,72,034,38,39,71,225,31,29,41,238,38,46,36,149,25,4*7F
$GBGSV,2,2,06,37,34,077,40,32,15,073,30,4*70
$GNGGA,101357.000,2500.7899700,N,12132.4695600,E,2,32,0.90,25.79,M,15.25,M,2,3335*72
$GNRMC,101357.000,A,2500.7899700,N,12132.4695600,E,0.00,349.36,260623,,,D,V*02
$GPHDT,,T*1B
$GNGGA,101357.200,2500.7899700,N,12132.4695500,E,2,32,0.90,25.78,M,15.25,M,2,3335*72
$GNRMC,101357.200,A,2500.7899700,N,12132.4695500,E,0.01,349.36,260623,,,D,V*02
$GPHDT,,T*1B
$GNGGA,101357.400,2500.7899700,N,12132.4695600,E,2,32,0.90,25.78,M,15.25,M,2,3335*77
$GNRMC,101357.400,A,2500.7899700,N,12132.4695600,E,0.01,349.36,260623,,,D,V*07
$GPHDT,,T*1B
$GNGGA,101357.600,2500.7899700,N,12132.4695600,E,2,31,0.90,25.77,M,15.25,M,2,3335*79
$GNRMC,101357.600,A,2500.7899700,N,12132.4695600,E,0.01,349.36,260623,,,D,V*05
$GPHDT,,T*1B
$GNGGA,101357.800,2500.7899700,N,12132.4695600,E,2,31,0.90,25.77,M,15.25,M,2,3335*77
$GNRMC,101357.800,A,2500.7899700,N,12132.4695600,E,0.02,349.36,260623,,,D,V*08
$GPHDT,,T*1B
$GNGSA,A,3,196,24,195,05,13,194,,,,,,,1.56,0.90,1.28,1*3F
$GNGSA,A,3,84,80,79,,,,,,,,,,1.56,0.90,1.28,2*08
$GNGSA,A,3,15,03,,,,,,,,,,,1.56,0.90,1.28,3*04
$GNGSA,A,3,38,39,08,16,09,29,46,37,30,32,,,1.56,0.90,1.28,4*0C
$GPGSV,3,1,10,196,73,050,29,199,73,011,,24,64,173,38,45,47,231,36,1*6B
$GPGSV,3,2,10,195,47,177,45,05,37,085,37,13,31,036,38,194,20,146,36,1*64
$GPGSV,3,3,10,29,19,221,13,15,,,27,1*54
$GPGSV,1,1,03,196,73,050,39,24,64,173,36,195,47,177,46,8*52
$GLGSV,1,1,03,84,45,205,29,80,30,127,24,79,26,066,42,1*4F
$GAGSV,1,1,02,15,52,170,36,03,25,044,40,7*71
$GAGSV,1,1,02,15,52,170,41,03,25,044,41,1*76
$GBGSV,3,1,11,38,72,034,32,39,71,225,34,08,63,005,29,16,62,215,38,1*7F
$GBGSV,3,2,11,09,43,213,32,29,41,238,43,46,36,149,38,37,34,077,39,1*71
$GBGSV,3,3,11,30,17,181,31,32,15,073,32,06,,,15,1*7B
$GBGSV,2,1,06,38,72,034,38,39,71,225,31,29,41,238,38,46,36,149,25,4*7F
$GBGSV,2,2,06,37,34,077,40,32,15,073,30,4*70
$GNGGA,101358.000,2500.7899700,N,12132.4695500,E,2,32,0.90,25.77,M,15.25,M,3,3335*71
$GNRMC,101358.000,A,2500.7899700,N,12132.4695500,E,0.01,349.36,260623,,,D,V*0F
$GPHDT,,T*1B
$GNGGA,101358.200,2500.7899700,N,12132.4695500,E,2,31,0.90,25.77,M,15.25,M,3,3335*70
$GNRMC,101358.200,A,2500.7899700,N,12132.4695500,E,0.00,349.36,260623,,,D,V*0C
$GPHDT,,T*1B
$GNGGA,101358.400,2500.7899700,N,12132.4695500,E,2,31,0.90,25.76,M,15.25,M,3,3335*77
$GNRMC,101358.400,A,2500.7899700,N,12132.4695500,E,0.01,349.36,260623,,,D,V*0B
$GPHDT,,T*1B
$GNGGA,101358.600,2500.7899700,N,12132.4695500,E,2,31,0.90,25.76,M,15.25,M,3,3335*75
$GNRMC,101358.600,A,2500.7899700,N,12132.4695500,E,0.01,349.36,260623,,,D,V*09
$GPHDT,,T*1B
$GNGGA,101358.800,2500.7899700,N,12132.4695500,E,2,31,0.90,25.75,M,15.25,M,3,3335*78
$GNRMC,101358.800,A,2500.7899700,N,12132.4695500,E,0.02,349.36,260623,,,D,V*04
$GPHDT,,T*1B
$GNGSA,A,3,196,24,195,05,13,194,,,,,,,1.56,0.90,1.28,1*3F
$GNGSA,A,3,84,80,79,,,,,,,,,,1.56,0.90,1.28,2*08
$GNGSA,A,3,15,03,,,,,,,,,,,1.56,0.90,1.28,3*04
$GNGSA,A,3,38,39,08,16,09,29,46,37,30,32,,,1.56,0.90,1.28,4*0C
$GPGSV,3,1,10,196,73,050,29,199,73,011,,24,64,173,38,195,47,177,45,1*52
$GPGSV,3,2,10,45,47,231,36,05,37,085,37,13,31,036,38,194,20,146,36,1*5D
$GPGSV,3,3,10,29,19,221,14,15,,,26,1*52
$GPGSV,1,1,03,196,73,050,38,24,64,173,36,195,47,177,46,8*53
$GLGSV,2,1,06,84,45,205,29,85,44,301,,70,36,322,,80,30,127,23,1*7C
$GLGSV,2,2,06,79,26,066,42,86,07,332,,1*79
$GAGSV,1,1,03,15,52,170,36,03,25,044,40,25,04,066,,7*43
$GAGSV,1,1,02,15,52,170,42,03,25,044,41,1*75
$GBGSV,3,1,11,38,72,034,32,39,71,225,34,08,63,005,29,16,62,215,38,1*7F
$GBGSV,3,2,11,09,43,213,33,29,41,238,43,46,36,149,38,37,34,077,39,1*70
$GBGSV,3,3,11,30,17,181,31,32,15,073,32,06,,,15,1*7B
$GBGSV,2,1,06,38,72,034,38,39,71,225,31,29,41,238,38,46,36,149,25,4*7F
$GBGSV,2,2,06,37,34,077,40,32,15,073,29,4*78
$GNGGA,101359.000,2500.7899700,N,12132.4695500,E,2,32,0.90,25.75,M,15.25,M,4,3335*75
$GNRMC,101359.000,A,2500.7899700,N,12132.4695500,E,0.01,349.36,260623,,,D,V*0E
$GPHDT,,T*1B
$GNGGA,101359.200,2500.7899700,N,12132.4695500,E,2,32,0.90,25.75,M,15.25,M,4,3335*77
$GNRMC,101359.200,A,2500.7899700,N,12132.4695500,E,0.02,349.36,260623,,,D,V*0F
$GPHDT,,T*1B
$GNGGA,101359.400,2500.7899700,N,12132.4695500,E,2,31,0.90,25.74,M,15.25,M,4,3335*73
$GNRMC,101359.400,A,2500.7899700,N,12132.4695500,E,0.01,349.36,260623,,,D,V*0A
$GPHDT,,T*1B
$GNGGA,101359.600,2500.7899700,N,12132.4695500,E,2,31,0.90,25.74,M,15.25,M,4,3335*71
$GNRMC,101359.600,A,2500.7899700,N,12132.4695500,E,0.01,349.36,260623,,,D,V*08
$GPHDT,,T*1B
$GNGGA,101359.800,2500.7899700,N,12132.4695500,E,2,32,0.90,25.73,M,15.25,M,4,3335*7B
$GNRMC,101359.800,A,2500.7899700,N,12132.4695500,E,0.11,349.36,260623,,,D,V*07
$GPHDT,,T*1B
$GNGSA,A,3,196,24,195,05,13,194,,,,,,,1.56,0.90,1.28,1*3F
$GNGSA,A,3,84,80,79,,,,,,,,,,1.56,0.90,1.28,2*08
$GNGSA,A,3,15,03,,,,,,,,,,,1.56,0.90,1.28,3*04
$GNGSA,A,3,38,39,08,16,09,29,46,37,30,32,,,1.56,0.90,1.28,4*0C
$GPGSV,3,1,10,199,73,011,,196,73,050,29,24,64,173,38,195,47,177,45,1*52
$GPGSV,3,2,10,45,47,231,36,05,37,085,37,13,31,036,38,194,20,146,36,1*5D
$GPGSV,3,3,10,29,19,221,14,15,,,26,1*52
$GPGSV,1,1,03,196,73,050,38,24,64,173,36,195,47,177,46,8*53
$GLGSV,1,1,03,84,45,205,29,80,30,127,23,79,26,066,42,1*48
$GAGSV,1,1,03,15,52,170,36,03,25,044,40,25,04,066,,7*43
$GAGSV,1,1,02,15,52,170,42,03,25,044,41,1*75
$GBGSV,3,1,11,38,72,034,32,39,71,225,34,08,63,005,29,16,62,215,38,1*7F
$GBGSV,3,2,11,09,43,213,33,29,41,238,43,46,36,149,38,37,34,077,39,1*70
$GBGSV,3,3,11,30,17,181,31,32,15,073,32,06,,,14,1*7A
$GBGSV,2,1,06,38,72,034,38,39,71,225,33,29,41,238,38,46,36,149,25,4*7D
$GBGSV,2,2,06,37,34,077,40,32,15,073,29,4*78
$GNGGA,101400.000,2500.7899600,N,12132.4695500,E,2,32,0.90,25.73,M,15.25,M,5,3335*78
$GNRMC,101400.000,A,2500.7899600,N,12132.4695500,E,0.01,349.36,260623,,,D,V*04
$GPHDT,,T*1B
$GNGGA,101400.200,2500.7899600,N,12132.4695500,E,2,32,0.90,25.73,M,15.25,M,5,3335*7A
$GNRMC,101400.200,A,2500.7899600,N,12132.4695500,E,0.01,349.36,260623,,,D,V*06
$GPHDT,,T*1B
$GNGGA,101400.400,2500.7899600,N,12132.4695500,E,2,32,0.90,25.72,M,15.25,M,5,3335*7D
$GNRMC,101400.400,A,2500.7899600,N,12132.4695500,E,0.00,349.36,260623,,,D,V*01
$GPHDT,,T*1B
$GNGGA,101400.600,2500.7899600,N,12132.4695500,E,2,32,0.90,25.72,M,15.25,M,5,3335*7F
$GNRMC,101400.600,A,2500.7899600,N,12132.4695500,E,0.02,349.36,260623,,,D,V*01
$GPHDT,,T*1B
$GNGGA,101400.800,2500.7899600,N,12132.4695500,E,2,32,0.90,25.71,M,15.25,M,5,3335*72
$GNRMC,101400.800,A,2500.7899600,N,12132.4695500,E,0.01,349.36,260623,,,D,V*0C
$GPHDT,,T*1B
$GNGSA,A,3,196,24,195,05,13,194,,,,,,,1.56,0.90,1.28,1*3F
$GNGSA,A,3,84,80,79,,,,,,,,,,1.56,0.90,1.28,2*08
$GNGSA,A,3,15,03,,,,,,,,,,,1.56,0.90,1.28,3*04
$GNGSA,A,3,38,39,08,16,09,29,46,37,30,32,,,1.56,0.90,1.28,4*0C
$GPGSV,3,1,10,199,73,011,,196,73,050,27,24,64,173,38,45,47,231,36,1*65
$GPGSV,3,2,10,195,47,177,45,05,37,085,37,13,31,036,38,194,20,146,36,1*64
$GPGSV,3,3,10,29,19,221,17,15,,,26,1*51
$GPGSV,1,1,03,196,73,050,38,24,64,173,36,195,47,177,46,8*53
$GLGSV,1,1,03,84,45,205,29,80,30,127,25,79,26,066,43,1*4F
$GAGSV,1,1,03,15,52,170,37,03,25,044,40,25,04,066,,7*42
$GAGSV,1,1,02,15,52,170,40,03,25,044,41,1*77
$GBGSV,3,1,12,38,72,034,29,39,71,225,33,08,63,005,29,16,62,215,39,1*70
$GBGSV,3,2,12,09,43,213,33,29,41,238,44,46,36,149,38,19,36,310,,1*72
$GBGSV,3,3,12,37,34,077,39,30,17,181,31,32,15,073,31,06,,,12,1*45
$GBGSV,2,1,06,38,72,034,37,39,71,225,33,29,41,238,39,46,36,149,29,4*7F
$GBGSV,2,2,06,37,34,077,40,32,15,073,30,4*70
$GNGGA,101401.000,2500.7899500,N,12132.4695500,E,2,32,0.90,25.71,M,15.25,M,6,3335*7B
$GNRMC,101401.000,A,2500.7899500,N,12132.4695500,E,0.01,349.36,260623,,,D,V*06
$GPHDT,,T*1B
$GNGGA,101401.200,2500.7899500,N,12132.4695500,E,2,32,0.90,25.70,M,15.25,M,6,3335*78
$GNRMC,101401.200,A,2500.7899500,N,12132.4695500,E,0.01,349.36,260623,,,D,V*04
$GPHDT,,T*1B
$GNGGA,101401.400,2500.7899500,N,12132.4695500,E,2,32,0.90,25.70,M,15.25,M,6,3335*7E
$GNRMC,101401.400,A,2500.7899500,N,12132.4695500,E,0.01,349.36,260623,,,D,V*02
$GPHDT,,T*1B
$GNGGA,101401.600,2500.7899500,N,12132.4695500,E,2,32,0.90,25.69,M,15.25,M,4,3335*76
$GNRMC,101401.600,A,2500.7899500,N,12132.4695500,E,0.01,349.36,260623,,,D,V*00
$GPHDT,,T*1B
$GNGGA,101401.800,2500.7899500,N,12132.4695500,E,2,32,0.90,25.68,M,15.25,M,3,3335*7E
$GNRMC,101401.800,A,2500.7899500,N,12132.4695500,E,0.02,349.36,260623,,,D,V*0D
$GPHDT,,T*1B
$GNGSA,A,3,196,24,195,05,13,194,,,,,,,1.56,0.90,1.28,1*3F
$GNGSA,A,3,84,80,79,,,,,,,,,,1.56,0.90,1.28,2*08
$GNGSA,A,3,15,03,,,,,,,,,,,1.56,0.90,1.28,3*04
$GNGSA,A,3,38,39,08,16,09,29,46,37,30,32,,,1.56,0.90,1.28,4*0C
$GPGSV,3,1,10,199,73,011,,196,73,050,26,24,64,173,37,45,47,231,36,1*6B
$GPGSV,3,2,10,195,47,177,45,05,37,085,37,13,31,036,38,194,20,146,36,1*64
$GPGSV,3,3,10,29,19,221,17,15,,,26,1*51
$GPGSV,1,1,03,196,73,050,38,24,64,173,36,195,47,177,46,8*53
$GLGSV,1,1,03,84,45,205,29,80,30,127,24,79,26,066,43,1*4E
$GAGSV,1,1,03,15,52,170,37,03,25,044,40,25,04,066,,7*42
$GAGSV,1,1,02,15,52,170,40,03,25,044,41,1*77
$GBGSV,3,1,12,38,72,034,29,39,71,225,33,08,63,005,29,16,62,215,39,1*70
$GBGSV,3,2,12,20,49,021,,09,43,213,33,29,41,238,45,46,36,149,38,1*70
$GBGSV,3,3,12,37,34,077,39,30,17,181,31,32,15,073,31,06,,,12,1*45
$GBGSV,2,1,06,38,72,034,36,39,71,225,33,29,41,238,39,46,36,149,29,4*7E
$GBGSV,2,2,06,37,34,077,40,32,15,073,30,4*70
$GNGGA,101402.000,2500.7899500,N,12132.4695500,E,2,32,0.90,25.69,M,15.25,M,1,3335*76
$GNRMC,101402.000,A,2500.7899500,N,12132.4695500,E,0.00,349.36,260623,,,D,V*04
$GPHDT,,T*1B
$GNGGA,101402.200,2500.7899500,N,12132.4695500,E,2,33,0.81,25.69,M,15.25,M,1,3335*75
$GNRMC,101402.200,A,2500.7899500,N,12132.4695500,E,0.01,349.36,260623,,,D,V*07
$GPHDT,,T*1B
$GNGGA,101402.400,2500.7899500,N,12132.4695500,E,2,33,0.81,25.68,M,15.25,M,1,3335*72
$GNRMC,101402.400,A,2500.7899500,N,12132.4695500,E,0.01,349.36,260623,,,D,V*01
$GPHDT,,T*1B
$GNGGA,101402.600,2500.7899500,N,12132.4695500,E,2,33,0.81,25.67,M,15.25,M,0,3335*7E
$GNRMC,101402.600,A,2500.7899500,N,12132.4695500,E,0.01,349.36,260623,,,D,V*03
$GPHDT,,T*1B
$GNGGA,101402.800,2500.7899500,N,12132.4695500,E,2,33,0.81,25.67,M,15.25,M,0,3335*70
$GNRMC,101402.800,A,2500.7899500,N,12132.4695500,E,0.02,349.36,260623,,,D,V*0E
$GPHDT,,T*1B
$GNGSA,A,3,196,24,195,05,13,194,29,,,,,,1.35,0.81,1.08,1*33
$GNGSA,A,3,84,80,79,,,,,,,,,,1.35,0.81,1.08,2*0F
$GNGSA,A,3,15,03,,,,,,,,,,,1.35,0.81,1.08,3*03
$GNGSA,A,3,38,39,08,16,09,29,46,37,30,32,,,1.35,0.81,1.08,4*0B
$GPGSV,3,1,10,199,73,011,,196,73,050,25,24,64,173,37,45,47,231,36,1*68
$GPGSV,3,2,10,195,47,177,45,05,37,085,37,13,31,036,38,194,20,146,36,1*64
$GPGSV,3,3,10,29,19,221,17,15,,,26,1*51
$GPGSV,1,1,03,196,73,050,38,24,64,173,36,195,47,177,46,8*53
$GLGSV,1,1,03,84,45,205,29,80,30,127,23,79,26,066,43,1*49
$GAGSV,1,1,03,15,52,170,37,03,25,044,40,25,04,066,,7*42
$GAGSV,1,1,02,15,52,170,40,03,25,044,41,1*77
$GBGSV,3,1,11,38,72,034,29,39,71,225,34,08,63,005,29,16,62,215,39,1*74
$GBGSV,3,2,11,20,49,021,37,09,43,213,33,29,41,238,45,46,36,149,38,1*77
$GBGSV,3,3,11,37,34,077,39,30,17,181,31,32,15,073,31,1*43
$GBGSV,2,1,06,38,72,034,36,39,71,225,33,29,41,238,39,46,36,149,31,4*77
$GBGSV,2,2,06,37,34,077,40,32,15,073,30,4*70
$GNGGA,101403.000,2500.7899400,N,12132.4695400,E,2,33,0.81,25.67,M,15.25,M,1,3335*78
$GNRMC,101403.000,A,2500.7899400,N,12132.4695400,E,0.01,349.36,260623,,,D,V*04
$GPHDT,,T*1B
$GNGGA,101403.200,2500.7899400,N,12132.4695400,E,2,33,0.81,25.66,M,15.25,M,1,3335*7B
$GNRMC,101403.200,A,2500.7899400,N,12132.4695400,E,0.01,349.36,260623,,,D,V*06
$GPHDT,,T*1B
$GNGGA,101403.400,2500.7899400,N,12132.4695400,E,2,33,0.81,25.66,M,15.25,M,1,3335*7D
$GNRMC,101403.400,A,2500.7899400,N,12132.4695400,E,0.01,349.36,260623,,,D,V*00
$GPHDT,,T*1B
$GNGGA,101403.600,2500.7899400,N,12132.4695400,E,2,33,0.81,25.65,M,15.25,M,1,3335*7C
$GNRMC,101403.600,A,2500.7899400,N,12132.4695400,E,0.02,349.36,260623,,,D,V*01
$GPHDT,,T*1B
$GNGGA,101403.800,2500.7899400,N,12132.4695400,E,2,33,0.81,25.65,M,15.25,M,0,3335*73
$GNRMC,101403.800,A,2500.7899400,N,12132.4695400,E,0.02,349.36,260623,,,D,V*0F
$GPHDT,,T*1B
$GNGSA,A,3,196,24,195,05,13,194,29,,,,,,1.35,0.81,1.08,1*33
$GNGSA,A,3,84,80,79,,,,,,,,,,1.35,0.81,1.08,2*0F
$GNGSA,A,3,15,03,,,,,,,,,,,1.35,0.81,1.08,3*03
$GNGSA,A,3,38,39,08,16,09,29,46,37,30,32,,,1.35,0.81,1.08,4*0B
$GPGSV,3,1,10,199,73,011,,196,73,050,25,24,64,173,37,45,47,231,36,1*68
$GPGSV,3,2,10,195,47,177,45,05,37,085,37,13,31,036,38,194,20,146,36,1*64
$GPGSV,3,3,10,29,19,221,18,15,,,26,1*5E
$GPGSV,1,1,03,196,73,050,38,24,64,173,36,195,47,177,46,8*53
$GLGSV,1,1,03,84,45,205,29,80,30,127,21,79,26,066,43,1*4B
$GAGSV,1,1,03,15,52,170,37,03,25,044,40,25,04,066,,7*42
$GAGSV,1,1,02,15,52,170,40,03,25,044,41,1*77
$GBGSV,3,1,12,38,72,034,29,39,71,225,34,08,63,005,29,16,62,215,39,1*77
$GBGSV,3,2,12,20,49,021,38,09,43,213,33,29,41,238,45,46,36,149,38,1*7B
$GBGSV,3,3,12,37,34,077,39,35,22,301,,30,17,181,31,32,15,073,31,1*74
$GBGSV,2,1,07,38,72,034,36,39,71,225,33,20,49,021,29,29,41,238,39,4*78
$GBGSV,2,2,07,46,36,149,31,37,34,077,40,32,15,073,30,4*48
$GNGGA,101404.000,2500.7899400,N,12132.4695400,E,2,33,0.81,25.65,M,15.25,M,1,3335*7D
$GNRMC,101404.000,A,2500.7899400,N,12132.4695400,E,0.01,349.36,260623,,,D,V*03
$GPHDT,,T*1B
$GNGGA,101404.200,2500.7899400,N,12132.4695300,E,2,33,0.81,25.64,M,15.25,M,1,3335*79
$GNRMC,101404.200,A,2500.7899400,N,12132.4695300,E,0.00,349.36,260623,,,D,V*07
$GPHDT,,T*1B
$GNGGA,101404.400,2500.7899300,N,12132.4695300,E,2,33,0.81,25.64,M,15.25,M,1,3335*78
$GNRMC,101404.400,A,2500.7899300,N,12132.4695300,E,0.00,349.36,260623,,,D,V*06
$GPHDT,,T*1B
$GNGGA,101404.600,2500.7899300,N,12132.4695300,E,2,33,0.81,25.64,M,15.25,M,1,3335*7A
$GNRMC,101404.600,A,2500.7899300,N,12132.4695300,E,0.02,349.36,260623,,,D,V*06
