$FW : RTK35X,V1.1X0314AS,Lib20210517,1*54
$Tool : LOCOSYS , GNSS Firebird , v1.0.0.19*39
$---------------------------------------------------*2D
$GPHDT,,T*1B
$GNGGA,101618.400,2500.7897700,N,12132.4693000,E,2,37,0.72,24.70,M,15.25,M,1,3335*74
$GNRMC,101618.400,A,2500.7897700,N,12132.4693000,E,0.05,223.23,260623,,,D,V*0A
$GPHDT,,T*1B
$GNGGA,101618.600,2500.7897700,N,12132.4693100,E,2,37,0.72,24.69,M,15.25,M,1,3335*7F
$GNRMC,101618.600,A,2500.7897700,N,12132.4693100,E,0.07,223.23,260623,,,D,V*0B
$GPHDT,,T*1B
$GNGGA,101618.800,2500.7897700,N,12132.4693100,E,2,38,0.70,24.68,M,15.25,M,1,3335*7D
$GNRMC,101618.800,A,2500.7897700,N,12132.4693100,E,0.26,223.23,260623,,,D,V*06
$GPHDT,,T*1B
$GNGSA,A,3,196,24,15,195,05,194,29,,,,,,1.01,0.70,0.72,1*30
$GNGSA,A,3,84,80,79,69,,,,,,,,,1.01,0.70,0.72,2*05
$GNGSA,A,3,15,03,,,,,,,,,,,1.01,0.70,0.72,3*06
$GNGSA,A,3,38,39,08,16,06,20,09,29,46,37,30,32,1.01,0.70,0.72,4*0A
$GPGSV,3,1,12,199,73,011,,196,73,050,27,24,65,172,41,15,54,009,25,1*65
$GPGSV,3,2,12,45,47,231,40,195,47,177,44,05,37,086,28,13,30,037,23,1*5E
$GPGSV,3,3,12,194,20,146,33,29,18,220,28,11,05,149,,12,03,164,,1*58
$GPGSV,1,1,04,196,73,050,34,24,65,172,44,195,47,177,44,194,20,146,25,8*55
$GLGSV,1,1,04,84,44,204,33,80,31,126,35,79,26,065,40,69,25,038,31,1*73
$GAGSV,1,1,02,15,51,170,43,03,24,045,41,7*71
$GAGSV,1,1,02,15,51,170,41,03,24,045,41,1*75
$GBGSV,3,1,12,38,73,035,33,39,71,226,41,08,63,005,28,16,62,216,44,1*75
$GBGSV,3,2,12,06,60,215,43,20,49,022,30,09,43,214,41,29,40,237,45,1*7D
$GBGSV,3,3,12,46,37,149,37,37,34,076,30,30,16,181,18,32,14,073,,1*7F
$GBGSV,2,1,08,38,73,035,34,39,71,226,40,20,49,022,28,29,40,237,43,4*73
$GBGSV,2,2,08,46,37,149,34,37,34,076,34,30,16,181,23,32,14,073,27,4*7B
$GNGGA,101619.000,2500.7897600,N,12132.4693100,E,2,38,0.70,24.67,M,15.25,M,2,3335*79
$GNRMC,101619.000,A,2500.7897600,N,12132.4693100,E,0.12,223.23,260623,,,D,V*09
$GPHDT,,T*1B
$GNGGA,101619.200,2500.7897600,N,12132.4693100,E,2,37,0.72,24.67,M,15.25,M,1,3335*75
$GNRMC,101619.200,A,2500.7897600,N,12132.4693100,E,0.03,223.23,260623,,,D,V*0B
$GPHDT,,T*1B
$GNGGA,101619.400,2500.7897600,N,12132.4693100,E,2,39,0.73,24.66,M,15.25,M,1,3335*7D
$GNRMC,101619.400,A,2500.7897600,N,12132.4693100,E,0.03,223.23,260623,,,D,V*0D
$GPHDT,,T*1B
$GNGGA,101619.600,2500.7897600,N,12132.4693100,E,2,39,0.73,24.65,M,15.25,M,1,3335*7C
$GNRMC,101619.600,A,2500.7897600,N,12132.4693100,E,0.02,223.23,260623,,,D,V*0E
$GPHDT,,T*1B
$GNGGA,101619.800,2500.7897600,N,12132.4693100,E,2,38,0.75,24.65,M,15.25,M,1,3335*75
$GNRMC,101619.800,A,2500.7897600,N,12132.4693100,E,0.21,223.23,260623,,,D,V*01
$GPHDT,,T*1B
$GNGSA,A,3,196,24,15,195,05,194,29,,,,,,1.28,0.75,1.04,1*3E
$GNGSA,A,3,84,80,79,69,,,,,,,,,1.28,0.75,1.04,2*0B
$GNGSA,A,3,15,03,,,,,,,,,,,1.28,0.75,1.04,3*08
$GNGSA,A,3,38,39,08,16,06,20,09,29,46,37,30,32,1.28,0.75,1.04,4*04
$GPGSV,3,1,12,199,73,011,,196,73,050,27,24,65,172,41,15,54,009,25,1*65
$GPGSV,3,2,12,45,47,231,40,195,47,177,44,05,37,086,27,13,30,037,24,1*56
$GPGSV,3,3,12,194,20,146,34,29,18,220,28,11,05,149,,12,03,164,20,1*5D
$GPGSV,1,1,04,196,73,050,33,24,65,172,44,195,47,177,44,194,20,146,28,8*5F
$GLGSV,1,1,04,84,44,204,33,80,31,126,36,79,26,065,40,69,25,038,30,1*71
$GAGSV,1,1,02,15,51,170,43,03,24,045,41,7*71
$GAGSV,1,1,02,15,51,170,41,03,24,045,41,1*75
$GBGSV,3,1,12,38,73,035,33,39,71,226,41,08,63,005,28,16,62,216,44,1*75
$GBGSV,3,2,12,06,60,215,43,20,49,022,31,09,43,214,41,29,40,237,45,1*7C
$GBGSV,3,3,12,46,37,149,38,37,34,076,29,30,16,181,18,32,14,073,,1*78
$GBGSV,2,1,08,38,73,035,34,39,71,226,40,20,49,022,28,29,40,237,43,4*73
$GBGSV,2,2,08,46,37,149,34,37,34,076,35,30,16,181,21,32,14,073,26,4*79
$GNGGA,101620.000,2500.7897600,N,12132.4693100,E,2,38,0.75,24.64,M,15.25,M,2,3335*75
$GNRMC,101620.000,A,2500.7897600,N,12132.4693100,E,0.01,223.23,260623,,,D,V*01
$GPHDT,,T*1B
$GNGGA,101620.200,2500.7897600,N,12132.4693100,E,2,37,0.75,24.63,M,15.25,M,2,3335*7F
$GNRMC,101620.200,A,2500.7897600,N,12132.4693100,E,0.03,223.23,260623,,,D,V*01
$GPHDT,,T*1B
$GNGGA,101620.400,2500.7897600,N,12132.4693100,E,2,37,0.75,24.62,M,15.25,M,2,3335*78
$GNRMC,101620.400,A,2500.7897600,N,12132.4693100,E,0.01,223.23,260623,,,D,V*05
$GPHDT,,T*1B
$GNGGA,101620.600,2500.7897600,N,12132.4693100,E,2,37,0.75,24.61,M,15.25,M,1,3335*7A
$GNRMC,101620.600,A,2500.7897600,N,12132.4693100,E,0.03,223.23,260623,,,D,V*05
$GPHDT,,T*1B
$GNGGA,101620.800,2500.7897600,N,12132.4693100,E,2,38,0.75,24.59,M,15.25,M,0,3335*71
$GNRMC,101620.800,A,2500.7897600,N,12132.4693100,E,0.21,223.23,260623,,,D,V*0B
$GPHDT,,T*1B
$GNGSA,A,3,196,24,15,195,05,194,29,,,,,,1.28,0.75,1.04,1*3E
$GNGSA,A,3,84,80,79,69,,,,,,,,,1.28,0.75,1.04,2*0B
$GNGSA,A,3,15,03,,,,,,,,,,,1.28,0.75,1.04,3*08
$GNGSA,A,3,38,39,08,16,06,20,09,29,46,37,30,32,1.28,0.75,1.04,4*04
$GPGSV,3,1,12,199,73,011,,196,73,050,27,24,65,172,41,15,54,009,22,1*62
$GPGSV,3,2,12,45,47,231,40,195,47,177,44,05,37,086,26,13,30,037,27,1*54
$GPGSV,3,3,12,194,20,146,34,29,18,220,29,11,05,149,,12,03,164,21,1*5D
$GPGSV,1,1,04,196,73,050,33,24,65,172,44,195,47,177,44,194,20,146,28,8*5F
$GLGSV,1,1,04,84,44,204,33,80,31,126,36,79,26,065,40,69,25,038,32,1*73
$GAGSV,1,1,02,15,51,170,43,03,24,045,41,7*71
$GAGSV,1,1,02,15,51,170,41,03,24,045,42,1*76
$GBGSV,3,1,12,38,73,035,33,39,71,226,41,08,63,005,28,16,62,216,44,1*75
$GBGSV,3,2,12,06,60,215,43,20,49,022,31,09,43,214,41,29,40,237,45,1*7C
$GBGSV,3,3,12,46,37,149,38,37,34,076,30,30,16,181,18,32,14,073,,1*70
$GBGSV,2,1,08,38,73,035,33,39,71,226,40,20,49,022,24,29,40,237,43,4*78
$GBGSV,2,2,08,46,37,149,34,37,34,076,37,30,16,181,21,32,14,073,28,4*75
$GNGGA,101621.000,2500.7897600,N,12132.4693100,E,2,38,0.75,24.60,M,15.25,M,1,3335*73
$GNRMC,101621.000,A,2500.7897600,N,12132.4693100,E,0.05,223.23,260623,,,D,V*04
$GPHDT,,T*1B
$GNGGA,101621.200,2500.7897600,N,12132.4693100,E,2,38,0.75,24.60,M,15.25,M,1,3335*71
$GNRMC,101621.200,A,2500.7897600,N,12132.4693100,E,0.10,223.23,260623,,,D,V*02
$GPHDT,,T*1B
$GNGGA,101621.400,2500.7897600,N,12132.4693100,E,2,39,0.73,24.59,M,15.25,M,1,3335*7A
$GNRMC,101621.400,A,2500.7897600,N,12132.4693100,E,0.06,223.23,260623,,,D,V*03
$GPHDT,,T*1B
$GNGGA,101621.600,2500.7897600,N,12132.4693100,E,2,39,0.73,24.60,M,15.25,M,1,3335*72
$GNRMC,101621.600,A,2500.7897600,N,12132.4693100,E,0.07,223.23,260623,,,D,V*00
$GPHDT,,T*1B
$GNGGA,101621.800,2500.7897600,N,12132.4693100,E,2,38,0.74,24.58,M,15.25,M,1,3335*71
$GNRMC,101621.800,A,2500.7897600,N,12132.4693100,E,0.28,223.23,260623,,,D,V*03
$GPHDT,,T*1B
$GNGSA,A,3,196,24,15,195,05,13,194,29,,,,,1.26,0.73,1.02,1*32
$GNGSA,A,3,84,80,79,69,,,,,,,,,1.26,0.73,1.02,2*05
$GNGSA,A,3,15,03,,,,,,,,,,,1.26,0.73,1.02,3*06
$GNGSA,A,3,38,39,08,16,06,20,09,29,46,30,37,32,1.26,0.73,1.02,4*0A
$GPGSV,3,1,12,199,73,011,,196,73,050,27,24,65,172,41,15,54,009,24,1*64
$GPGSV,3,2,12,45,47,231,40,195,47,177,44,05,37,086,20,13,30,037,30,1*54
$GPGSV,3,3,12,194,20,146,35,29,18,220,27,11,05,149,,12,03,164,18,1*58
$GPGSV,1,1,04,196,73,050,34,24,65,172,43,195,47,177,44,194,20,146,28,8*5F
$GLGSV,1,1,04,84,44,204,32,80,31,126,36,79,26,065,39,69,25,038,32,1*7C
$GAGSV,1,1,02,15,51,170,43,03,24,045,42,7*72
$GAGSV,1,1,02,15,51,170,42,03,24,045,43,1*74
$GBGSV,3,1,12,38,73,035,33,39,71,226,41,08,63,005,28,16,62,216,43,1*72
$GBGSV,3,2,12,06,60,215,43,20,49,022,31,09,43,214,41,29,40,237,46,1*7F
$GBGSV,3,3,12,46,37,149,38,37,34,076,,30,16,181,19,32,14,073,,1*72
$GBGSV,2,1,08,38,73,035,35,39,71,226,40,20,49,022,24,29,40,237,43,4*7E
$GBGSV,2,2,08,46,37,149,34,37,34,076,35,30,16,181,20,32,14,073,27,4*79
$GNGGA,101622.000,2500.7897600,N,12132.4693000,E,2,38,0.73,24.58,M,15.25,M,2,3335*7F
$GNRMC,101622.000,A,2500.7897600,N,12132.4693000,E,0.01,223.23,260623,,,D,V*02
$GPHDT,,T*1B
$GNGGA,101622.200,2500.7897600,N,12132.4693000,E,2,38,0.73,24.58,M,15.25,M,2,3335*7D
$GNRMC,101622.200,A,2500.7897600,N,12132.4693000,E,0.03,223.23,260623,,,D,V*02
$GPHDT,,T*1B
$GNGGA,101622.400,2500.7897600,N,12132.4693000,E,2,38,0.73,24.56,M,15.25,M,2,3335*75
$GNRMC,101622.400,A,2500.7897600,N,12132.4693000,E,0.02,223.23,260623,,,D,V*05
$GPHDT,,T*1B
$GNGGA,101622.600,2500.7897600,N,12132.4693000,E,2,38,0.73,24.56,M,15.25,M,2,3335*77
$GNRMC,101622.600,A,2500.7897600,N,12132.4693000,E,0.01,223.23,260623,,,D,V*04
$GPHDT,,T*1B
$GNGGA,101622.800,2500.7897600,N,12132.4692900,E,2,38,0.73,24.54,M,15.25,M,2,3335*73
$GNRMC,101622.800,A,2500.7897600,N,12132.4692900,E,0.24,223.23,260623,,,D,V*05
$GPHDT,,T*1B
$GNGSA,A,3,196,24,15,195,05,13,194,29,,,,,1.26,0.73,1.02,1*32
$GNGSA,A,3,84,80,79,69,,,,,,,,,1.26,0.73,1.02,2*05
$GNGSA,A,3,15,03,,,,,,,,,,,1.26,0.73,1.02,3*06
$GNGSA,A,3,38,39,08,16,06,20,09,29,46,30,37,32,1.26,0.73,1.02,4*0A
$GPGSV,3,1,12,199,73,011,,196,73,050,27,24,65,172,41,15,54,009,24,1*64
$GPGSV,3,2,12,45,47,231,40,195,47,177,44,05,37,086,19,13,30,037,33,1*5D
$GPGSV,3,3,12,194,20,146,35,29,18,220,27,11,05,149,,12,03,164,16,1*56
$GPGSV,1,1,04,196,73,050,35,24,65,172,43,195,47,177,44,194,20,146,28,8*5E
$GLGSV,1,1,04,84,44,204,33,80,31,126,35,79,26,065,39,69,25,038,31,1*7D
$GAGSV,1,1,02,15,51,170,43,03,24,045,42,7*72
$GAGSV,1,1,02,15,51,170,42,03,24,045,43,1*74
$GBGSV,3,1,12,38,73,035,31,39,71,226,41,08,63,005,27,16,62,216,43,1*7F
$GBGSV,3,2,12,06,60,215,43,20,49,022,30,09,43,214,41,29,40,237,46,1*7E
$GBGSV,3,3,12,46,37,149,38,37,34,076,,30,16,181,20,32,14,073,,1*78
$GBGSV,2,1,08,38,73,035,35,39,71,226,40,20,49,022,24,29,40,237,43,4*7E
$GBGSV,2,2,08,46,37,149,32,37,34,076,34,30,16,181,20,32,14,073,28,4*71
$GNGGA,101623.000,2500.7897600,N,12132.4692900,E,2,38,0.73,24.54,M,15.25,M,3,3335*7B
$GNRMC,101623.000,A,2500.7897600,N,12132.4692900,E,0.01,223.23,260623,,,D,V*0B
$GPHDT,,T*1B
$GNGGA,101623.200,2500.7897600,N,12132.4692900,E,2,38,0.73,24.54,M,15.25,M,3,3335*79
$GNRMC,101623.200,A,2500.7897600,N,12132.4692900,E,0.02,223.23,260623,,,D,V*0A
$GPHDT,,T*1B
$GNGGA,101623.400,2500.7897600,N,12132.4692900,E,2,38,0.73,24.52,M,15.25,M,3,3335*79
$GNRMC,101623.400,A,2500.7897600,N,12132.4692900,E,0.03,223.23,260623,,,D,V*0D
$GPHDT,,T*1B
$GNGGA,101623.600,2500.7897600,N,12132.4692900,E,2,38,0.73,24.51,M,15.25,M,3,3335*78
$GNRMC,101623.600,A,2500.7897600,N,12132.4692900,E,0.21,223.23,260623,,,D,V*0F
$GPHDT,,T*1B
$GNGGA,101623.800,2500.7897600,N,12132.4692900,E,2,37,0.74,24.50,M,15.25,M,3,3335*7F
$GNRMC,101623.800,A,2500.7897600,N,12132.4692900,E,0.18,223.23,260623,,,D,V*0B
$GPHDT,,T*1B
$GNGSA,A,3,196,24,15,195,05,13,194,29,,,,,1.26,0.73,1.02,1*32
$GNGSA,A,3,84,80,79,69,,,,,,,,,1.26,0.73,1.02,2*05
$GNGSA,A,3,15,03,,,,,,,,,,,1.26,0.73,1.02,3*06
$GNGSA,A,3,38,39,08,16,06,20,09,29,46,30,37,32,1.26,0.73,1.02,4*0A
$GPGSV,3,1,12,199,73,011,,196,73,050,26,24,65,172,41,15,54,009,27,1*66
$GPGSV,3,2,12,45,47,231,40,195,47,177,44,05,37,086,20,13,30,037,32,1*56
$GPGSV,3,3,12,194,20,146,35,29,18,220,28,11,05,149,,12,03,164,20,1*5C
$GPGSV,1,1,04,196,73,050,35,24,65,172,43,195,47,177,44,194,20,146,27,8*51
$GLGSV,1,1,04,84,44,204,33,80,31,126,36,79,26,065,39,69,25,038,30,1*7F
$GAGSV,1,1,02,15,51,170,43,03,24,045,42,7*72
$GAGSV,1,1,02,15,51,170,42,03,24,045,43,1*74
$GBGSV,3,1,12,38,73,035,32,39,71,226,41,08,63,005,27,16,62,216,43,1*7C
$GBGSV,3,2,12,06,60,215,43,20,49,022,28,09,43,214,41,29,40,237,46,1*77
$GBGSV,3,3,12,46,37,149,38,37,34,076,,30,16,181,20,32,14,073,,1*78
$GBGSV,2,1,08,38,73,035,35,39,71,226,40,20,49,022,24,29,40,237,43,4*7E
$GBGSV,2,2,08,46,37,149,33,37,34,076,34,30,16,181,22,32,14,073,27,4*7D
$GNGGA,101624.000,2500.7897600,N,12132.4692800,E,2,38,0.73,24.50,M,15.25,M,4,3335*7E
$GNRMC,101624.000,A,2500.7897600,N,12132.4692800,E,0.02,223.23,260623,,,D,V*0E
$GPHDT,,T*1B
$GNGGA,101624.200,2500.7897600,N,12132.4692800,E,2,37,0.74,24.49,M,15.25,M,2,3335*7A
$GNRMC,101624.200,A,2500.7897600,N,12132.4692800,E,0.01,223.23,260623,,,D,V*0F
$GPHDT,,T*1B
$GNGGA,101624.400,2500.7897500,N,12132.4692800,E,2,36,0.74,24.48,M,15.25,M,1,3335*7C
$GNRMC,101624.400,A,2500.7897500,N,12132.4692800,E,0.04,223.23,260623,,,D,V*0F
$GPHDT,,T*1B
$GNGGA,101624.600,2500.7897600,N,12132.4692800,E,2,36,0.74,24.47,M,15.25,M,0,3335*73
$GNRMC,101624.600,A,2500.7897600,N,12132.4692800,E,0.10,223.23,260623,,,D,V*0B
$GPHDT,,T*1B
$GNGGA,101624.800,2500.7897600,N,12132.4692800,E,2,38,0.73,24.45,M,15.25,M,0,3335*76
$GNRMC,101624.800,A,2500.7897600,N,12132.4692800,E,0.16,223.23,260623,,,D,V*03
$GPHDT,,T*1B
$GNGSA,A,3,196,24,15,195,05,13,194,29,,,,,1.26,0.73,1.02,1*32
$GNGSA,A,3,84,80,79,69,,,,,,,,,1.26,0.73,1.02,2*05
$GNGSA,A,3,15,03,,,,,,,,,,,1.26,0.73,1.02,3*06
$GNGSA,A,3,38,39,08,16,06,20,09,29,46,30,37,32,1.26,0.73,1.02,4*0A
$GPGSV,3,1,12,199,73,011,,196,73,050,25,24,65,172,41,15,54,009,27,1*65
$GPGSV,3,2,12,45,47,231,40,195,47,177,44,05,37,086,20,13,30,037,32,1*56
$GPGSV,3,3,12,194,20,146,35,29,18,220,28,11,05,149,,12,03,164,22,1*5E
$GPGSV,1,1,04,196,73,050,35,24,65,172,43,195,47,177,44,194,20,146,28,8*5E
$GLGSV,1,1,04,84,44,204,33,80,31,126,36,79,26,065,37,69,25,038,28,1*78
$GAGSV,1,1,02,15,51,170,43,03,24,045,42,7*72
$GAGSV,1,1,02,15,51,170,42,03,24,045,43,1*74
$GBGSV,3,1,12,38,73,035,32,39,71,226,41,08,63,005,27,16,62,216,43,1*7C
$GBGSV,3,2,12,06,60,215,43,20,49,022,29,09,43,214,41,29,40,237,46,1*76
$GBGSV,3,3,12,46,37,149,38,37,34,076,,30,16,181,21,32,14,073,,1*79
$GBGSV,2,1,08,38,73,035,35,39,71,226,39,20,49,022,24,29,40,237,43,4*70
$GBGSV,2,2,08,46,37,149,33,37,34,076,33,30,16,181,21,32,14,073,26,4*78
$GNGGA,101625.000,2500.7897600,N,12132.4692800,E,2,38,0.73,24.45,M,15.25,M,1,3335*7E
$GNRMC,101625.000,A,2500.7897600,N,12132.4692800,E,0.04,223.23,260623,,,D,V*09
$GPHDT,,T*1B
$GNGGA,101625.200,2500.7897500,N,12132.4692800,E,2,38,0.73,24.45,M,15.25,M,1,3335*7F
$GNRMC,101625.200,A,2500.7897500,N,12132.4692800,E,0.00,223.23,260623,,,D,V*0C
$GPHDT,,T*1B
$GNGGA,101625.400,2500.7897500,N,12132.4692800,E,2,38,0.73,24.44,M,15.25,M,1,3335*78
$GNRMC,101625.400,A,2500.7897500,N,12132.4692800,E,0.06,223.23,260623,,,D,V*0C
$GPHDT,,T*1B
$GNGGA,101625.600,2500.7897500,N,12132.4692800,E,2,38,0.73,24.44,M,15.25,M,1,3335*7A
$GNRMC,101625.600,A,2500.7897500,N,12132.4692800,E,0.09,223.23,260623,,,D,V*01
$GPHDT,,T*1B
$GNGGA,101625.800,2500.7897500,N,12132.4692800,E,2,38,0.73,24.43,M,15.25,M,1,3335*73
$GNRMC,101625.800,A,2500.7897500,N,12132.4692800,E,0.17,223.23,260623,,,D,V*00
$GPHDT,,T*1B
$GNGSA,A,3,196,24,15,195,05,13,194,29,,,,,1.29,0.74,1.06,1*3E
$GNGSA,A,3,84,80,79,69,,,,,,,,,1.29,0.74,1.06,2*09
$GNGSA,A,3,15,03,,,,,,,,,,,1.29,0.74,1.06,3*0A
$GNGSA,A,3,38,39,08,16,06,20,09,29,46,30,37,,1.29,0.74,1.06,4*07
$GPGSV,3,1,12,199,73,011,,196,73,050,26,24,65,172,41,15,54,009,27,1*66
$GPGSV,3,2,12,45,47,231,40,195,47,177,44,05,37,086,21,13,30,037,32,1*57
$GPGSV,3,3,12,194,20,146,35,29,18,220,29,11,05,149,,12,03,164,23,1*5E
$GPGSV,1,1,04,196,73,050,36,24,65,172,43,195,47,177,44,194,20,146,29,8*5C
$GLGSV,1,1,04,84,44,204,33,80,31,126,35,79,26,065,37,69,25,038,28,1*7B
$GAGSV,1,1,02,15,51,170,43,03,24,045,42,7*72
$GAGSV,1,1,02,15,51,170,42,03,24,045,43,1*74
$GBGSV,3,1,12,38,73,035,33,39,71,226,41,08,63,005,27,16,62,216,43,1*7D
$GBGSV,3,2,12,06,60,215,43,20,49,022,27,09,43,214,41,29,40,237,46,1*78
$GBGSV,3,3,12,46,37,149,38,37,34,076,,30,16,181,20,32,14,074,,1*7F
$GBGSV,2,1,08,38,73,035,35,39,71,226,39,20,49,022,24,29,40,237,43,4*70
$GBGSV,2,2,08,46,37,149,34,37,34,076,34,30,16,181,22,32,14,074,14,4*7D
$GNGGA,101626.000,2500.7897500,N,12132.4692800,E,2,37,0.74,24.44,M,15.25,M,2,3335*74
$GNRMC,101626.000,A,2500.7897500,N,12132.4692800,E,0.03,223.23,260623,,,D,V*0E
$GPHDT,,T*1B
$GNGGA,101626.200,2500.7897500,N,12132.4692700,E,2,37,0.74,24.43,M,15.25,M,2,3335*7E
$GNRMC,101626.200,A,2500.7897500,N,12132.4692700,E,0.02,223.23,260623,,,D,V*02
$GPHDT,,T*1B
$GNGGA,101626.400,2500.7897500,N,12132.4692800,E,2,37,0.74,24.43,M,15.25,M,1,3335*74
$GNRMC,101626.400,A,2500.7897500,N,12132.4692800,E,0.02,223.23,260623,,,D,V*0B
$GPHDT,,T*1B
$GNGGA,101626.600,2500.7897500,N,12132.4692800,E,2,37,0.74,24.42,M,15.25,M,1,3335*77
$GNRMC,101626.600,A,2500.7897500,N,12132.4692800,E,0.03,223.23,260623,,,D,V*08
$GPHDT,,T*1B
$GNGGA,101626.800,2500.7897400,N,12132.4692800,E,2,37,0.74,24.42,M,15.25,M,1,3335*78
$GNRMC,101626.800,A,2500.7897400,N,12132.4692800,E,0.24,223.23,260623,,,D,V*02
$GPHDT,,T*1B
$GNGSA,A,3,196,24,15,195,05,13,194,29,,,,,1.29,0.74,1.06,1*3E
$GNGSA,A,3,84,80,79,69,,,,,,,,,1.29,0.74,1.06,2*09
$GNGSA,A,3,15,03,,,,,,,,,,,1.29,0.74,1.06,3*0A
$GNGSA,A,3,38,39,08,16,06,20,09,29,46,30,37,,1.29,0.74,1.06,4*07
$GPGSV,3,1,12,199,73,011,,196,73,050,27,24,65,172,41,15,54,009,27,1*67
$GPGSV,3,2,12,45,47,231,40,195,47,177,44,05,37,086,25,13,30,037,32,1*53
$GPGSV,3,3,12,194,20,146,34,29,18,220,29,11,05,149,,12,03,164,,1*5E
$GPGSV,1,1,04,196,73,050,34,24,65,172,43,195,47,177,44,194,20,146,29,8*5E
$GLGSV,1,1,04,84,44,204,32,80,31,126,34,79,26,065,38,69,25,038,25,1*79
$GAGSV,1,1,02,15,51,170,43,03,24,045,41,7*71
$GAGSV,1,1,02,15,51,170,42,03,24,045,42,1*75
$GBGSV,3,1,12,38,73,035,33,39,71,227,41,08,63,005,26,16,62,216,43,1*7D
$GBGSV,3,2,12,06,60,215,43,20,49,022,27,09,43,214,41,29,40,237,46,1*78
$GBGSV,3,3,12,46,37,149,38,37,34,076,,30,16,181,20,32,14,074,,1*7F
$GBGSV,2,1,08,38,73,035,32,39,71,227,40,20,49,022,25,29,40,237,43,4*79
$GBGSV,2,2,08,46,37,149,35,37,34,076,35,30,16,181,21,32,14,074,20,4*79
$GNGGA,101627.000,2500.7897400,N,12132.4692800,E,2,37,0.74,24.42,M,15.25,M,2,3335*72
$GNRMC,101627.000,A,2500.7897400,N,12132.4692800,E,0.02,223.23,260623,,,D,V*0F
$GPHDT,,T*1B
$GNGGA,101627.200,2500.7897400,N,12132.4692800,E,2,37,0.74,24.42,M,15.25,M,2,3335*70
$GNRMC,101627.200,A,2500.7897400,N,12132.4692800,E,0.00,223.23,260623,,,D,V*0F
$GPHDT,,T*1B
$GNGGA,101627.400,2500.7897400,N,12132.4692800,E,2,36,0.75,24.42,M,15.25,M,2,3335*76
$GNRMC,101627.400,A,2500.7897400,N,12132.4692800,E,0.01,223.23,260623,,,D,V*08
$GPHDT,,T*1B
$GNGGA,101627.600,2500.7897400,N,12132.4692800,E,2,37,0.74,24.41,M,15.25,M,2,3335*77
$GNRMC,101627.600,A,2500.7897400,N,12132.4692800,E,0.03,223.23,260623,,,D,V*08
$GPHDT,,T*1B
$GNGGA,101627.800,2500.7897400,N,12132.4692800,E,2,37,0.74,24.41,M,15.25,M,2,3335*79
$GNRMC,101627.800,A,2500.7897400,N,12132.4692800,E,0.17,223.23,260623,,,D,V*03
$GPHDT,,T*1B
$GNGSA,A,3,196,24,15,195,05,13,194,29,,,,,1.29,0.74,1.06,1*3E
$GNGSA,A,3,84,80,79,69,,,,,,,,,1.29,0.74,1.06,2*09
$GNGSA,A,3,15,03,,,,,,,,,,,1.29,0.74,1.06,3*0A
$GNGSA,A,3,38,39,08,16,06,20,09,29,46,30,37,,1.29,0.74,1.06,4*07
$GPGSV,3,1,12,199,73,011,,196,73,050,27,24,65,172,41,15,54,009,27,1*67
$GPGSV,3,2,12,45,47,231,40,195,47,177,44,05,37,086,24,13,30,037,32,1*52
$GPGSV,3,3,12,194,20,146,34,29,18,220,29,11,05,149,,12,03,164,,1*5E
$GPGSV,1,1,04,196,73,050,33,24,65,172,43,195,47,177,44,194,20,146,27,8*57
$GLGSV,1,1,04,84,44,204,32,80,31,126,33,79,26,065,37,69,25,038,21,1*75
$GAGSV,1,1,02,15,51,170,43,03,24,045,40,7*70
$GAGSV,1,1,02,15,51,170,42,03,24,045,41,1*76
$GBGSV,3,1,12,38,73,035,34,39,71,227,41,08,63,005,26,16,62,216,43,1*7A
$GBGSV,3,2,12,06,60,215,43,20,49,022,27,09,43,214,41,29,40,237,46,1*78
$GBGSV,3,3,12,46,37,149,38,37,34,076,,30,16,181,19,32,14,074,,1*75
$GBGSV,2,1,08,38,73,035,32,39,71,227,40,20,49,022,24,29,40,237,43,4*78
$GBGSV,2,2,08,46,37,149,35,37,34,076,35,30,16,181,22,32,14,074,21,4*7B
$GNGGA,101628.000,2500.7897400,N,12132.4692800,E,2,37,0.74,24.41,M,15.25,M,3,3335*7F
$GNRMC,101628.000,A,2500.7897400,N,12132.4692800,E,0.01,223.23,260623,,,D,V*03
$GPHDT,,T*1B
$GNGGA,101628.200,2500.7897400,N,12132.4692800,E,2,37,0.74,24.40,M,15.25,M,3,3335*7C
$GNRMC,101628.200,A,2500.7897400,N,12132.4692800,E,0.01,223.23,260623,,,D,V*01
$GPHDT,,T*1B
$GNGGA,101628.400,2500.7897400,N,12132.4692800,E,2,37,0.74,24.41,M,15.25,M,3,3335*7B
$GNRMC,101628.400,A,2500.7897400,N,12132.4692800,E,0.02,223.23,260623,,,D,V*04
$GPHDT,,T*1B
$GNGGA,101628.600,2500.7897400,N,12132.4692800,E,2,38,0.74,24.40,M,15.25,M,3,3335*77
$GNRMC,101628.600,A,2500.7897400,N,12132.4692800,E,0.15,223.23,260623,,,D,V*00
$GPHDT,,T*1B
