$FW : RTK35X,V1.1X0314AS,Lib20210517,1*54
$Tool : LOCOSYS , GNSS Firebird , v1.0.0.19*39
$---------------------------------------------------*2D
$GPHDT,,T*1B
$GNGGA,101529.800,2500.7897900,N,12132.4694600,E,2,37,0.78,25.14,M,15.25,M,0,3335*7E
$GNRMC,101529.800,A,2500.7897900,N,12132.4694600,E,0.00,223.23,260623,,,D,V*0D
$GPHDT,,T*1B
$GNGSA,A,3,196,24,195,05,13,194,29,,,,,,1.32,0.78,1.07,1*3D
$GNGSA,A,3,84,80,79,,,,,,,,,,1.32,0.78,1.07,2*01
$GNGSA,A,3,15,03,,,,,,,,,,,1.32,0.78,1.07,3*0D
$GNGSA,A,3,38,39,08,16,20,09,29,46,37,30,32,,1.32,0.78,1.07,4*07
$GPGSV,3,1,12,199,73,011,,196,73,050,21,24,64,172,39,195,47,177,40,1*5D
$GPGSV,3,2,12,45,47,231,39,05,37,086,39,13,30,037,34,194,20,146,33,1*54
$GPGSV,3,3,12,29,18,221,30,11,05,149,,15,,,16,12,,,18,1*67
$GPGSV,1,1,04,196,73,050,33,24,64,172,38,195,47,177,45,194,20,146,21,8*5D
$GLGSV,1,1,03,84,44,204,31,80,31,126,30,79,26,065,40,1*42
$GAGSV,1,1,03,15,51,170,39,03,24,045,42,26,14,323,15,7*49
$GAGSV,1,1,02,15,51,170,26,03,24,045,43,1*76
$GBGSV,3,1,12,38,73,035,30,39,71,226,39,08,63,005,31,16,62,216,44,1*71
$GBGSV,3,2,12,06,60,215,42,20,49,021,31,09,43,214,40,29,40,237,48,1*72
$GBGSV,3,3,12,46,37,149,39,37,34,077,39,30,16,181,17,32,14,073,27,1*73
$GBGSV,2,1,08,38,73,035,30,39,71,226,40,20,49,021,21,29,40,237,44,4*7A
$GBGSV,2,2,08,46,37,149,33,37,34,077,34,30,16,181,24,32,14,073,24,4*79
$GNGGA,101530.000,2500.7897900,N,12132.4694600,E,2,37,0.78,25.15,M,15.25,M,1,3335*7E
$GNRMC,101530.000,A,2500.7897900,N,12132.4694600,E,0.01,223.23,260623,,,D,V*0C
$GPHDT,,T*1B
$GNGGA,101530.200,2500.7898000,N,12132.4694500,E,2,37,0.78,25.14,M,15.25,M,1,3335*78
$GNRMC,101530.200,A,2500.7898000,N,12132.4694500,E,0.01,223.23,260623,,,D,V*0B
$GPHDT,,T*1B
$GNGGA,101530.400,2500.7898000,N,12132.4694500,E,2,37,0.78,25.15,M,15.25,M,1,3335*7F
$GNRMC,101530.400,A,2500.7898000,N,12132.4694500,E,0.01,223.23,260623,,,D,V*0D
$GPHDT,,T*1B
$GNGGA,101530.600,2500.7898000,N,12132.4694500,E,2,37,0.78,25.15,M,15.25,M,1,3335*7D
$GNRMC,101530.600,A,2500.7898000,N,12132.4694500,E,0.00,223.23,260623,,,D,V*0E
$GPHDT,,T*1B
$GNGGA,101530.800,2500.7898000,N,12132.4694500,E,2,37,0.78,25.15,M,15.25,M,1,3335*73
$GNRMC,101530.800,A,2500.7898000,N,12132.4694500,E,0.02,223.23,260623,,,D,V*02
$GPHDT,,T*1B
$GNGSA,A,3,196,24,195,05,13,194,29,,,,,,1.32,0.78,1.07,1*3D
$GNGSA,A,3,84,80,79,,,,,,,,,,1.32,0.78,1.07,2*01
$GNGSA,A,3,15,03,,,,,,,,,,,1.32,0.78,1.07,3*0D
$GNGSA,A,3,38,39,08,16,20,09,29,46,37,30,32,,1.32,0.78,1.07,4*07
$GPGSV,3,1,12,199,73,011,,196,73,050,18,24,64,172,39,195,47,177,40,1*57
$GPGSV,3,2,12,45,47,231,39,05,37,086,39,13,30,037,35,194,20,146,34,1*52
$GPGSV,3,3,12,29,18,221,30,11,05,149,,15,,,16,12,,,19,1*66
$GPGSV,1,1,04,196,73,050,35,24,64,172,38,195,47,177,44,194,20,146,20,8*5B
$GLGSV,1,1,03,84,44,204,31,80,31,126,30,79,26,065,40,1*42
$GAGSV,1,1,03,15,51,170,39,03,24,045,42,26,14,323,16,7*4A
$GAGSV,1,1,02,15,51,170,20,03,24,045,43,1*70
$GBGSV,3,1,12,38,73,035,32,39,71,226,39,08,63,005,30,16,62,216,44,1*72
$GBGSV,3,2,12,06,60,215,42,20,49,021,30,09,43,214,40,29,40,237,48,1*73
$GBGSV,3,3,12,46,37,149,39,37,34,077,39,30,16,181,17,32,14,073,28,1*7C
$GBGSV,2,1,08,38,73,035,31,39,71,226,40,20,49,021,19,29,40,237,44,4*70
$GBGSV,2,2,08,46,37,149,33,37,34,077,34,30,16,181,24,32,14,073,24,4*79
$GNGGA,101531.000,2500.7898000,N,12132.4694500,E,2,37,0.78,25.14,M,15.25,M,2,3335*78
$GNRMC,101531.000,A,2500.7898000,N,12132.4694500,E,0.02,223.23,260623,,,D,V*0B
$GPHDT,,T*1B
$GNGGA,101531.200,2500.7898000,N,12132.4694500,E,2,37,0.78,25.14,M,15.25,M,2,3335*7A
$GNRMC,101531.200,A,2500.7898000,N,12132.4694500,E,0.01,223.23,260623,,,D,V*0A
$GPHDT,,T*1B
$GNGGA,101531.400,2500.7898000,N,12132.4694500,E,2,37,0.78,25.14,M,15.25,M,2,3335*7C
$GNRMC,101531.400,A,2500.7898000,N,12132.4694500,E,0.01,223.23,260623,,,D,V*0C
$GPHDT,,T*1B
$GNGGA,101531.600,2500.7898000,N,12132.4694400,E,2,37,0.78,25.14,M,15.25,M,2,3335*7F
$GNRMC,101531.600,A,2500.7898000,N,12132.4694400,E,0.03,223.23,260623,,,D,V*0D
$GPHDT,,T*1B
$GNGGA,101531.800,2500.7898000,N,12132.4694400,E,2,37,0.78,25.13,M,15.25,M,2,3335*76
$GNRMC,101531.800,A,2500.7898000,N,12132.4694400,E,0.02,223.23,260623,,,D,V*02
$GPHDT,,T*1B
$GNGSA,A,3,196,24,195,05,13,194,29,,,,,,1.32,0.78,1.07,1*3D
$GNGSA,A,3,84,80,79,,,,,,,,,,1.32,0.78,1.07,2*01
$GNGSA,A,3,15,03,,,,,,,,,,,1.32,0.78,1.07,3*0D
$GNGSA,A,3,38,39,08,16,20,09,29,46,37,30,32,,1.32,0.78,1.07,4*07
$GPGSV,3,1,12,199,73,011,,196,73,050,18,24,65,172,39,195,47,177,40,1*56
$GPGSV,3,2,12,45,47,231,39,05,37,086,39,13,30,037,38,194,20,146,34,1*5F
$GPGSV,3,3,12,29,18,221,30,11,05,149,,15,,,16,12,,,19,1*66
$GPGSV,1,1,04,196,73,050,35,24,65,172,38,195,47,177,44,194,20,146,22,8*58
$GLGSV,1,1,03,84,44,204,31,80,31,126,28,79,26,065,41,1*4A
$GAGSV,1,1,03,15,51,170,39,03,24,045,42,26,14,323,16,7*4A
$GAGSV,1,1,02,15,51,170,25,03,24,045,43,1*75
$GBGSV,3,1,12,38,73,035,32,39,71,226,39,08,63,005,30,16,62,216,44,1*72
$GBGSV,3,2,12,06,60,215,42,20,49,021,30,09,43,214,40,29,40,237,48,1*73
$GBGSV,3,3,12,46,37,149,39,37,34,077,37,30,16,181,17,32,14,073,26,1*7C
$GBGSV,2,1,08,38,73,035,31,39,71,226,40,20,49,021,20,29,40,237,44,4*7A
$GBGSV,2,2,08,46,37,149,32,37,34,077,34,30,16,181,25,32,14,073,24,4*79
$GNGGA,101532.000,2500.7898000,N,12132.4694400,E,2,37,0.78,25.13,M,15.25,M,3,3335*7C
$GNRMC,101532.000,A,2500.7898000,N,12132.4694400,E,0.03,223.23,260623,,,D,V*08
$GPHDT,,T*1B
$GNGGA,101532.200,2500.7898000,N,12132.4694400,E,2,37,0.78,25.14,M,15.25,M,3,3335*79
$GNRMC,101532.200,A,2500.7898000,N,12132.4694400,E,0.00,223.23,260623,,,D,V*09
$GPHDT,,T*1B
$GNGGA,101532.400,2500.7898000,N,12132.4694400,E,2,37,0.78,25.13,M,15.25,M,3,3335*78
$GNRMC,101532.400,A,2500.7898000,N,12132.4694400,E,0.00,223.23,260623,,,D,V*0F
$GPHDT,,T*1B
$GNGGA,101532.600,2500.7898000,N,12132.4694400,E,2,37,0.78,25.13,M,15.25,M,3,3335*7A
$GNRMC,101532.600,A,2500.7898000,N,12132.4694400,E,0.03,223.23,260623,,,D,V*0E
$GPHDT,,T*1B
$GNGGA,101532.800,2500.7898000,N,12132.4694400,E,2,37,0.78,25.13,M,15.25,M,3,3335*74
$GNRMC,101532.800,A,2500.7898000,N,12132.4694400,E,0.07,223.23,260623,,,D,V*04
$GPHDT,,T*1B
$GNGSA,A,3,196,24,195,05,13,194,29,,,,,,1.32,0.78,1.07,1*3D
$GNGSA,A,3,84,80,79,,,,,,,,,,1.32,0.78,1.07,2*01
$GNGSA,A,3,15,03,,,,,,,,,,,1.32,0.78,1.07,3*0D
$GNGSA,A,3,38,39,08,16,20,09,29,46,37,30,32,,1.32,0.78,1.07,4*07
$GPGSV,3,1,11,199,73,011,,196,73,050,21,24,65,172,40,45,47,231,39,1*62
$GPGSV,3,2,11,195,47,177,41,05,37,086,39,13,30,037,38,194,20,146,34,1*6E
$GPGSV,3,3,11,29,18,220,30,11,05,149,,15,,,19,1*60
$GPGSV,1,1,04,196,73,050,35,24,65,172,38,195,47,177,44,194,20,146,23,8*59
$GLGSV,1,1,03,84,44,204,31,80,31,126,25,79,26,065,41,1*47
$GAGSV,1,1,03,15,51,170,39,03,24,045,41,26,14,323,16,7*49
$GAGSV,1,1,02,15,51,170,27,03,24,045,43,1*77
$GBGSV,3,1,12,38,73,035,32,39,71,226,39,08,63,005,30,16,62,216,44,1*72
$GBGSV,3,2,12,06,60,215,42,20,49,021,31,09,43,214,40,29,40,237,48,1*72
$GBGSV,3,3,12,46,37,149,39,37,34,077,37,30,16,181,18,32,14,073,26,1*73
$GBGSV,2,1,08,38,73,035,30,39,71,226,40,20,49,021,20,29,40,237,44,4*7B
$GBGSV,2,2,08,46,37,149,32,37,34,077,34,30,16,181,24,32,14,073,25,4*79
$GNGGA,101533.000,2500.7898000,N,12132.4694400,E,2,37,0.78,25.13,M,15.25,M,4,3335*7A
$GNRMC,101533.000,A,2500.7898000,N,12132.4694400,E,0.02,223.23,260623,,,D,V*08
$GPHDT,,T*1B
$GNGGA,101533.200,2500.7898000,N,12132.4694400,E,2,37,0.78,25.13,M,15.25,M,4,3335*78
$GNRMC,101533.200,A,2500.7898000,N,12132.4694400,E,0.01,223.23,260623,,,D,V*09
$GPHDT,,T*1B
$GNGGA,101533.400,2500.7898000,N,12132.4694400,E,2,37,0.78,25.14,M,15.25,M,4,3335*79
$GNRMC,101533.400,A,2500.7898000,N,12132.4694400,E,0.01,223.23,260623,,,D,V*0F
$GPHDT,,T*1B
$GNGGA,101533.600,2500.7898000,N,12132.4694400,E,2,37,0.78,25.13,M,15.25,M,4,3335*7C
$GNRMC,101533.600,A,2500.7898000,N,12132.4694400,E,0.05,223.23,260623,,,D,V*09
$GPHDT,,T*1B
$GNGGA,101533.800,2500.7898000,N,12132.4694400,E,2,37,0.78,25.13,M,15.25,M,4,3335*72
$GNRMC,101533.800,A,2500.7898000,N,12132.4694400,E,0.10,223.23,260623,,,D,V*03
$GPHDT,,T*1B
$GNGSA,A,3,196,24,195,05,13,194,29,,,,,,1.32,0.78,1.07,1*3D
$GNGSA,A,3,84,80,79,,,,,,,,,,1.32,0.78,1.07,2*01
$GNGSA,A,3,15,03,,,,,,,,,,,1.32,0.78,1.07,3*0D
$GNGSA,A,3,38,39,08,16,20,09,29,46,37,30,32,,1.32,0.78,1.07,4*07
$GPGSV,3,1,12,199,73,011,,196,73,050,21,24,65,172,40,195,47,177,40,1*52
$GPGSV,3,2,12,45,47,231,39,05,37,086,39,13,30,037,37,194,20,146,34,1*50
$GPGSV,3,3,12,29,18,220,30,11,05,149,,15,,,19,12,,,18,1*69
$GPGSV,1,1,04,196,73,050,36,24,65,172,38,195,47,177,44,194,20,146,24,8*5D
$GLGSV,1,1,03,84,44,204,31,80,31,126,28,79,26,065,41,1*4A
$GAGSV,1,1,03,15,51,170,39,03,24,045,41,26,14,323,16,7*49
$GAGSV,1,1,02,15,51,170,30,03,24,045,43,1*71
$GBGSV,3,1,12,38,73,035,32,39,71,226,39,08,63,005,30,16,62,216,44,1*72
$GBGSV,3,2,12,06,60,215,42,20,49,021,31,09,43,214,40,29,40,237,47,1*7D
$GBGSV,3,3,12,46,37,149,38,37,34,077,38,30,16,181,18,32,14,073,27,1*7C
$GBGSV,2,1,08,38,73,035,32,39,71,226,40,20,49,021,19,29,40,237,44,4*73
$GBGSV,2,2,08,46,37,149,32,37,34,077,35,30,16,181,24,32,14,073,25,4*78
$GNGGA,101534.000,2500.7898000,N,12132.4694400,E,2,37,0.78,25.13,M,15.25,M,5,3335*7C
$GNRMC,101534.000,A,2500.7898000,N,12132.4694400,E,0.02,223.23,260623,,,D,V*0F
$GPHDT,,T*1B
$GNGGA,101534.200,2500.7898000,N,12132.4694400,E,2,37,0.78,25.13,M,15.25,M,5,3335*7E
$GNRMC,101534.200,A,2500.7898000,N,12132.4694400,E,0.01,223.23,260623,,,D,V*0E
$GPHDT,,T*1B
$GNGGA,101534.400,2500.7898000,N,12132.4694300,E,2,37,0.78,25.11,M,15.25,M,5,3335*7D
$GNRMC,101534.400,A,2500.7898000,N,12132.4694300,E,0.02,223.23,260623,,,D,V*0C
$GPHDT,,T*1B
$GNGGA,101534.600,2500.7897900,N,12132.4694300,E,2,37,0.78,25.11,M,15.25,M,5,3335*79
$GNRMC,101534.600,A,2500.7897900,N,12132.4694300,E,0.00,223.23,260623,,,D,V*0A
$GPHDT,,T*1B
$GNGGA,101534.800,2500.7898000,N,12132.4694300,E,2,37,0.78,25.11,M,15.25,M,5,3335*71
$GNRMC,101534.800,A,2500.7898000,N,12132.4694300,E,0.00,223.23,260623,,,D,V*02
$GPHDT,,T*1B
$GNGSA,A,3,196,24,195,05,13,194,29,,,,,,1.32,0.78,1.07,1*3D
$GNGSA,A,3,84,80,79,,,,,,,,,,1.32,0.78,1.07,2*01
$GNGSA,A,3,15,03,,,,,,,,,,,1.32,0.78,1.07,3*0D
$GNGSA,A,3,38,39,08,16,20,09,29,46,37,30,32,,1.32,0.78,1.07,4*07
$GPGSV,3,1,12,199,73,011,,196,73,050,23,24,65,172,40,195,47,177,40,1*50
$GPGSV,3,2,12,45,47,231,40,05,37,086,39,13,30,037,38,194,20,146,34,1*51
$GPGSV,3,3,12,29,18,220,30,11,05,149,,15,,,19,12,,,16,1*67
$GPGSV,1,1,04,196,73,050,35,24,65,172,38,195,47,177,44,194,20,146,22,8*58
$GLGSV,1,1,03,84,44,204,31,80,31,126,29,79,26,065,41,1*4B
$GAGSV,1,1,03,15,51,170,39,03,24,045,41,26,14,323,17,7*48
$GAGSV,1,1,02,15,51,170,30,03,24,045,44,1*76
$GBGSV,3,1,12,38,73,035,32,39,71,226,39,08,63,005,30,16,62,216,44,1*72
$GBGSV,3,2,12,06,60,215,42,20,49,021,31,09,43,214,40,29,40,237,47,1*7D
$GBGSV,3,3,12,46,37,149,37,37,34,077,38,30,16,181,18,32,14,073,27,1*73
$GBGSV,2,1,08,38,73,035,31,39,71,226,40,20,49,021,18,29,40,237,44,4*71
$GBGSV,2,2,08,46,37,149,32,37,34,077,36,30,16,181,24,32,14,073,23,4*7D
$GNGGA,101535.000,2500.7897900,N,12132.4694300,E,2,37,0.78,25.12,M,15.25,M,6,3335*7E
$GNRMC,101535.000,A,2500.7897900,N,12132.4694300,E,0.01,223.23,260623,,,D,V*0C
$GPHDT,,T*1B
$GNGGA,101535.200,2500.7897900,N,12132.4694300,E,2,37,0.78,25.10,M,15.25,M,6,3335*7E
$GNRMC,101535.200,A,2500.7897900,N,12132.4694300,E,0.01,223.23,260623,,,D,V*0E
$GPHDT,,T*1B
$GNGGA,101535.400,2500.7897900,N,12132.4694300,E,2,37,0.78,25.11,M,15.25,M,6,3335*79
$GNRMC,101535.400,A,2500.7897900,N,12132.4694300,E,0.04,223.23,260623,,,D,V*0D
$GPHDT,,T*1B
$GNGGA,101535.600,2500.7897900,N,12132.4694300,E,2,37,0.78,25.11,M,15.25,M,6,3335*7B
$GNRMC,101535.600,A,2500.7897900,N,12132.4694300,E,0.03,223.23,260623,,,D,V*08
$GPHDT,,T*1B
$GNGGA,101535.800,2500.7897900,N,12132.4694300,E,2,37,0.78,25.11,M,15.25,M,4,3335*77
$GNRMC,101535.800,A,2500.7897900,N,12132.4694300,E,0.00,223.23,260623,,,D,V*05
$GPHDT,,T*1B
$GNGSA,A,3,196,24,195,05,13,194,29,,,,,,1.32,0.78,1.07,1*3D
$GNGSA,A,3,84,80,79,,,,,,,,,,1.32,0.78,1.07,2*01
$GNGSA,A,3,15,03,,,,,,,,,,,1.32,0.78,1.07,3*0D
$GNGSA,A,3,38,39,08,16,20,09,29,46,37,30,32,,1.32,0.78,1.07,4*07
$GPGSV,3,1,12,199,73,011,,196,73,050,22,24,65,172,39,195,47,177,40,1*5F
$GPGSV,3,2,12,45,47,231,40,05,37,086,38,13,30,037,36,194,20,146,33,1*59
$GPGSV,3,3,12,29,18,220,30,11,05,149,,15,,,20,12,,,18,1*63
$GPGSV,1,1,04,196,73,050,34,24,65,172,39,195,47,177,44,194,20,146,23,8*59
$GLGSV,1,1,03,84,44,204,31,80,31,126,24,79,26,065,41,1*46
$GAGSV,1,1,03,15,51,170,39,03,24,045,41,26,14,323,17,7*48
$GAGSV,1,1,02,15,51,170,29,03,24,045,43,1*79
$GBGSV,3,1,12,38,73,035,33,39,71,226,39,08,63,005,30,16,62,216,44,1*73
$GBGSV,3,2,12,06,60,215,42,20,49,021,33,09,43,214,40,29,40,237,47,1*7F
$GBGSV,3,3,12,46,37,149,38,37,34,077,27,30,16,181,18,32,14,073,25,1*70
$GBGSV,2,1,08,38,73,035,30,39,71,226,40,20,49,021,19,29,40,237,44,4*71
$GBGSV,2,2,08,46,37,149,28,37,34,077,35,30,16,181,24,32,14,073,23,4*75
$GNGGA,101536.000,2500.7897900,N,12132.4694300,E,2,37,0.78,25.11,M,15.25,M,3,3335*7B
$GNRMC,101536.000,A,2500.7897900,N,12132.4694300,E,0.02,223.23,260623,,,D,V*0C
$GPHDT,,T*1B
$GNGGA,101536.200,2500.7897900,N,12132.4694300,E,2,37,0.78,25.11,M,15.25,M,1,3335*7B
$GNRMC,101536.200,A,2500.7897900,N,12132.4694300,E,0.01,223.23,260623,,,D,V*0D
$GPHDT,,T*1B
$GNGGA,101536.400,2500.7897800,N,12132.4694300,E,2,37,0.78,25.11,M,15.25,M,1,3335*7C
$GNRMC,101536.400,A,2500.7897800,N,12132.4694300,E,0.00,223.23,260623,,,D,V*0B
$GPHDT,,T*1B
$GNGGA,101536.600,2500.7897800,N,12132.4694300,E,2,37,0.78,25.11,M,15.25,M,1,3335*7E
$GNRMC,101536.600,A,2500.7897800,N,12132.4694300,E,0.00,223.23,260623,,,D,V*09
$GPHDT,,T*1B
$GNGGA,101536.800,2500.7897800,N,12132.4694300,E,2,37,0.78,25.11,M,15.25,M,1,3335*70
$GNRMC,101536.800,A,2500.7897800,N,12132.4694300,E,0.04,223.23,260623,,,D,V*03
$GPHDT,,T*1B
$GNGSA,A,3,196,24,195,05,13,194,29,,,,,,1.32,0.78,1.07,1*3D
$GNGSA,A,3,84,80,79,,,,,,,,,,1.32,0.78,1.07,2*01
$GNGSA,A,3,15,03,,,,,,,,,,,1.32,0.78,1.07,3*0D
$GNGSA,A,3,38,39,08,16,20,09,29,46,37,30,32,,1.32,0.78,1.07,4*07
$GPGSV,3,1,12,199,73,011,,196,73,050,27,24,65,172,39,195,47,177,40,1*5A
$GPGSV,3,2,12,45,47,231,40,05,37,086,35,13,30,037,34,194,20,146,33,1*56
$GPGSV,3,3,12,29,18,220,30,11,05,149,,15,,,22,12,,,20,1*6A
$GPGSV,1,1,04,196,73,050,32,24,65,172,38,195,47,177,44,194,20,146,22,8*5F
$GLGSV,1,1,03,84,44,204,31,80,31,126,23,79,26,065,40,1*40
$GAGSV,1,1,03,15,51,170,39,03,24,045,42,26,14,323,18,7*44
$GAGSV,1,1,02,15,51,170,27,03,24,045,44,1*70
$GBGSV,3,1,12,38,73,035,31,39,71,226,39,08,63,005,30,16,62,216,44,1*71
$GBGSV,3,2,12,06,60,215,42,20,49,021,33,09,43,214,40,29,40,237,47,1*7F
$GBGSV,3,3,12,46,37,149,38,37,34,077,22,30,16,181,18,32,14,073,24,1*74
$GBGSV,2,1,08,38,73,035,29,39,71,226,40,20,49,021,19,29,40,237,44,4*79
$GBGSV,2,2,08,46,37,149,28,37,34,077,35,30,16,181,23,32,14,073,23,4*72
$GNGGA,101537.000,2500.7897800,N,12132.4694300,E,2,37,0.78,25.11,M,15.25,M,1,3335*79
$GNRMC,101537.000,A,2500.7897800,N,12132.4694300,E,0.04,223.23,260623,,,D,V*0A
$GPHDT,,T*1B
$GNGGA,101537.200,2500.7897700,N,12132.4694300,E,2,37,0.78,25.10,M,15.25,M,1,3335*75
$GNRMC,101537.200,A,2500.7897700,N,12132.4694300,E,0.00,223.23,260623,,,D,V*03
$GPHDT,,T*1B
$GNGGA,101537.400,2500.7897700,N,12132.4694300,E,2,37,0.78,25.10,M,15.25,M,1,3335*73
$GNRMC,101537.400,A,2500.7897700,N,12132.4694300,E,0.06,223.23,260623,,,D,V*03
$GPHDT,,T*1B
$GNGGA,101537.600,2500.7897700,N,12132.4694300,E,2,37,0.78,25.10,M,15.25,M,1,3335*71
$GNRMC,101537.600,A,2500.7897700,N,12132.4694300,E,0.01,223.23,260623,,,D,V*06
$GPHDT,,T*1B
$GNGGA,101537.800,2500.7897700,N,12132.4694300,E,2,37,0.78,25.10,M,15.25,M,1,3335*7F
$GNRMC,101537.800,A,2500.7897700,N,12132.4694300,E,0.03,223.23,260623,,,D,V*0A
$GPHDT,,T*1B
$GNGSA,A,3,196,24,195,05,13,194,29,,,,,,1.32,0.78,1.07,1*3D
$GNGSA,A,3,84,80,79,,,,,,,,,,1.32,0.78,1.07,2*01
$GNGSA,A,3,15,03,,,,,,,,,,,1.32,0.78,1.07,3*0D
$GNGSA,A,3,38,39,08,16,20,09,29,46,37,30,32,,1.32,0.78,1.07,4*07
$GPGSV,3,1,12,199,73,011,,196,73,050,26,24,65,172,39,195,47,177,40,1*5B
$GPGSV,3,2,12,45,47,231,40,05,37,086,38,13,30,037,36,194,20,146,34,1*5E
$GPGSV,3,3,12,29,18,220,30,11,05,149,,15,,,24,12,,,20,1*6C
$GPGSV,1,1,04,196,73,050,35,24,65,172,38,195,47,177,44,194,20,146,21,8*5B
$GLGSV,1,1,03,84,44,204,31,80,31,126,22,79,26,065,40,1*41
$GAGSV,1,1,03,15,51,170,39,03,24,045,42,26,14,323,19,7*45
$GAGSV,1,1,02,15,51,170,30,03,24,045,43,1*71
$GBGSV,3,1,12,38,73,035,31,39,71,226,39,08,63,005,30,16,62,216,44,1*71
$GBGSV,3,2,12,06,60,215,42,20,49,021,33,09,43,214,40,29,40,237,47,1*7F
$GBGSV,3,3,12,46,37,149,38,37,34,077,37,30,16,181,18,32,14,073,24,1*70
$GBGSV,2,1,08,38,73,035,28,39,71,226,40,20,49,021,18,29,40,237,44,4*79
$GBGSV,2,2,08,46,37,149,31,37,34,077,34,30,16,181,23,32,14,073,23,4*7B
$GNGGA,101538.000,2500.7897700,N,12132.4694300,E,2,37,0.78,25.09,M,15.25,M,2,3335*73
$GNRMC,101538.000,A,2500.7897700,N,12132.4694300,E,0.03,223.23,260623,,,D,V*0D
$GPHDT,,T*1B
$GNGGA,101538.200,2500.7897700,N,12132.4694300,E,2,36,0.78,25.09,M,15.25,M,2,3335*70
$GNRMC,101538.200,A,2500.7897700,N,12132.4694300,E,0.03,223.23,260623,,,D,V*0F
$GPHDT,,T*1B
$GNGGA,101538.400,2500.7897700,N,12132.4694300,E,2,37,0.78,25.10,M,15.25,M,2,3335*7F
$GNRMC,101538.400,A,2500.7897700,N,12132.4694300,E,0.01,223.23,260623,,,D,V*0B
$GPHDT,,T*1B
$GNGGA,101538.600,2500.7897700,N,12132.4694300,E,2,36,0.78,25.11,M,15.25,M,2,3335*7D
$GNRMC,101538.600,A,2500.7897700,N,12132.4694300,E,0.01,223.23,260623,,,D,V*09
$GPHDT,,T*1B
$GNGGA,101538.800,2500.7897700,N,12132.4694300,E,2,36,0.78,25.10,M,15.25,M,2,3335*72
$GNRMC,101538.800,A,2500.7897700,N,12132.4694300,E,0.02,223.23,260623,,,D,V*04
$GPHDT,,T*1B
$GNGSA,A,3,196,24,195,05,13,194,29,,,,,,1.32,0.78,1.07,1*3D
$GNGSA,A,3,84,80,79,,,,,,,,,,1.32,0.78,1.07,2*01
$GNGSA,A,3,15,03,,,,,,,,,,,1.32,0.78,1.07,3*0D
$GNGSA,A,3,38,39,08,16,20,09,29,46,37,30,32,,1.32,0.78,1.07,4*07
$GPGSV,3,1,12,199,73,011,,196,73,050,24,24,65,172,39,195,47,177,40,1*59
$GPGSV,3,2,12,45,47,231,40,05,37,086,38,13,30,037,36,194,20,146,34,1*5E
$GPGSV,3,3,12,29,18,220,30,11,05,149,,15,,,24,12,,,23,1*6F
$GPGSV,1,1,04,196,73,050,35,24,65,172,38,195,47,177,44,194,20,146,23,8*59
$GLGSV,1,1,03,84,44,204,31,80,31,126,21,79,26,065,40,1*42
$GAGSV,1,1,03,15,51,170,39,03,24,045,41,26,14,323,18,7*47
$GAGSV,1,1,02,15,51,170,32,03,24,045,43,1*73
$GBGSV,3,1,12,38,73,035,31,39,71,226,39,08,63,005,31,16,62,216,44,1*70
$GBGSV,3,2,12,06,60,215,42,20,49,021,33,09,43,214,40,29,40,237,47,1*7F
$GBGSV,3,3,12,46,37,149,39,37,34,077,36,30,16,181,18,32,14,073,24,1*70
$GBGSV,2,1,08,38,73,035,28,39,71,226,41,20,49,021,19,29,40,237,44,4*79
$GBGSV,2,2,08,46,37,149,33,37,34,077,34,30,16,181,24,32,14,073,23,4*7E
$GNGGA,101539.000,2500.7897700,N,12132.4694300,E,2,37,0.78,25.10,M,15.25,M,3,3335*7B
$GNRMC,101539.000,A,2500.7897700,N,12132.4694300,E,0.00,223.23,260623,,,D,V*0F
$GPHDT,,T*1B
$GNGGA,101539.200,2500.7897700,N,12132.4694300,E,2,37,0.78,25.10,M,15.25,M,3,3335*79
$GNRMC,101539.200,A,2500.7897700,N,12132.4694300,E,0.01,223.23,260623,,,D,V*0C
$GPHDT,,T*1B
$GNGGA,101539.400,2500.7897700,N,12132.4694300,E,2,37,0.78,25.10,M,15.25,M,3,3335*7F
$GNRMC,101539.400,A,2500.7897700,N,12132.4694300,E,0.01,223.23,260623,,,D,V*0A
$GPHDT,,T*1B
$GNGGA,101539.600,2500.7897700,N,12132.4694300,E,2,37,0.78,25.09,M,15.25,M,3,3335*75
$GNRMC,101539.600,A,2500.7897700,N,12132.4694300,E,0.01,223.23,260623,,,D,V*08
$GPHDT,,T*1B
$GNGGA,101539.800,2500.7897700,N,12132.4694300,E,2,37,0.78,25.09,M,15.25,M,3,3335*7B
$GNRMC,101539.800,A,2500.7897700,N,12132.4694300,E,0.00,223.23,260623,,,D,V*07
$GPHDT,,T*1B
$GNGSA,A,3,196,24,195,05,13,194,29,,,,,,1.32,0.78,1.07,1*3D
$GNGSA,A,3,84,80,79,,,,,,,,,,1.32,0.78,1.07,2*01
$GNGSA,A,3,15,03,,,,,,,,,,,1.32,0.78,1.07,3*0D
$GNGSA,A,3,38,39,08,16,20,09,29,46,37,30,32,,1.32,0.78,1.07,4*07
$GPGSV,3,1,11,199,73,011,,196,73,050,22,24,65,172,39,45,47,231,40,1*61
$GPGSV,3,2,11,195,47,177,40,05,37,086,38,13,30,037,36,194,20,146,34,1*60
$GPGSV,3,3,11,29,18,220,30,11,05,149,,15,,,24,1*6E
$GPGSV,1,1,04,196,73,050,34,24,65,172,36,195,47,177,44,194,20,146,23,8*56
$GLGSV,1,1,03,84,44,204,31,80,31,126,20,79,26,065,41,1*42
$GAGSV,1,1,03,15,51,170,39,03,24,045,41,26,14,323,14,7*4B
$GAGSV,1,1,02,15,51,170,30,03,24,045,44,1*76
$GBGSV,3,1,12,38,73,035,30,39,71,226,39,08,63,005,30,16,62,216,44,1*70
$GBGSV,3,2,12,06,60,215,43,20,49,021,33,09,43,214,40,29,40,237,47,1*7E
$GBGSV,3,3,12,46,37,149,38,37,34,077,36,30,16,181,18,32,14,073,20,1*75
$GBGSV,2,1,08,38,73,035,28,39,71,226,41,20,49,021,21,29,40,237,44,4*72
$GBGSV,2,2,08,46,37,149,31,37,34,077,35,30,16,181,24,32,14,073,22,4*7C
$GNGGA,101540.000,2500.7897700,N,12132.4694300,E,2,37,0.78,25.10,M,15.25,M,4,3335*72
$GNRMC,101540.000,A,2500.7897700,N,12132.4694300,E,0.00,223.23,260623,,,D,V*01
$PAIR010,0,1,2268,123358*3A
$GPHDT,,T*1B
$GNGGA,101540.200,2500.7897700,N,12132.4694300,E,2,36,0.78,25.11,M,15.25,M,4,3335*70
$GNRMC,101540.200,A,2500.7897700,N,12132.4694300,E,0.00,223.23,260623,,,D,V*03
$GPHDT,,T*1B
$GNGGA,101540.400,2500.7897700,N,12132.4694300,E,2,36,0.78,25.10,M,15.25,M,4,3335*77
$GNRMC,101540.400,A,2500.7897700,N,12132.4694300,E,0.00,223.23,260623,,,D,V*05
$GPHDT,,T*1B
$GNGGA,101540.600,2500.7897700,N,12132.4694300,E,2,36,0.78,25.10,M,15.25,M,4,3335*75
$GNRMC,101540.600,A,2500.7897700,N,12132.4694300,E,0.04,223.23,260623,,,D,V*03
$GPHDT,,T*1B
$GNGGA,101540.800,2500.7897700,N,12132.4694300,E,2,36,0.78,25.10,M,15.25,M,4,3335*7B
$GNRMC,101540.800,A,2500.7897700,N,12132.4694300,E,0.06,223.23,260623,,,D,V*0F
$GPHDT,,T*1B
$GNGSA,A,3,196,24,195,05,13,194,29,,,,,,1.32,0.78,1.07,1*3D
$GNGSA,A,3,84,80,79,,,,,,,,,,1.32,0.78,1.07,2*01
$GNGSA,A,3,15,03,,,,,,,,,,,1.32,0.78,1.07,3*0D
$GNGSA,A,3,38,39,08,16,20,09,29,46,37,30,32,,1.32,0.78,1.07,4*07
$GPGSV,3,1,11,199,73,011,,196,73,050,26,24,65,172,39,45,47,231,40,1*65
$GPGSV,3,2,11,195,47,177,41,05,37,086,34,13,30,037,37,194,20,146,33,1*6B
$GPGSV,3,3,11,29,18,220,30,11,05,149,,15,,,21,1*6B
$GPGSV,1,1,04,196,73,050,34,24,65,172,36,195,47,177,42,194,20,146,20,8*53
$GLGSV,1,1,03,84,44,204,31,80,31,126,24,79,26,065,42,1*45
$GAGSV,1,1,03,15,51,170,39,03,24,045,42,26,14,323,12,7*4E
$GAGSV,1,1,02,15,51,170,29,03,24,045,44,1*7E
$GBGSV,3,1,12,38,73,035,30,39,71,226,39,08,63,005,28,16,62,216,44,1*79
$GBGSV,3,2,12,06,60,215,43,20,49,021,33,09,43,214,40,29,40,237,47,1*7E
$GBGSV,3,3,12,46,37,149,36,37,34,077,35,30,16,181,19,32,14,073,20,1*79
$GBGSV,2,1,08,38,73,035,28,39,71,226,40,20,49,021,17,29,40,237,44,4*76
$GBGSV,2,2,08,46,37,149,20,37,34,077,37,30,16,181,23,32,14,073,22,4*79
$GNGGA,101541.000,2500.7897800,N,12132.4694300,E,2,36,0.78,25.10,M,15.25,M,5,3335*7C
$GNRMC,101541.000,A,2500.7897800,N,12132.4694300,E,0.01,223.23,260623,,,D,V*0E
$GPHDT,,T*1B
