$FW : RTK35X,V1.1X0314AS,Lib20210517,1*54
$Tool : LOCOSYS , GNSS Firebird , v1.0.0.19*39
$---------------------------------------------------*2D
,1,1,03,24,64,173,40,195,47,177,45,196,,,36,8*6E
$GLGSV,1,1,03,84,46,205,32,80,30,127,33,79,26,067,40,1*43
$GAGSV,2,1,05,15,52,170,39,26,13,323,,25,04,067,,13,,,25,7*49
$GAGSV,2,2,05,03,,,39,7*7F
$GAGSV,1,1,03,15,52,170,41,13,,,29,03,,,41,1*49
$GBGSV,3,1,11,38,72,034,31,39,71,224,41,08,63,005,31,16,62,215,43,1*7A
$GBGSV,3,2,11,09,42,213,40,29,41,238,47,46,36,150,38,37,34,078,37,1*78
$GBGSV,3,3,11,30,17,182,29,32,15,072,28,40,02,192,,1*45
$GBGSV,2,1,06,38,72,034,35,39,71,224,38,29,41,238,44,46,36,150,34,4*79
$GBGSV,2,2,06,37,34,078,40,32,15,072,29,4*76
$GNGGA,101330.000,2500.7898000,N,12132.4694700,E,2,27,0.93,26.12,M,15.25,M,3,3335*7D
$GNRMC,101330.000,A,2500.7898000,N,12132.4694700,E,0.01,349.36,260623,,,D,V*04
$GPHDT,,T*1B
$GNGGA,101330.200,2500.7898000,N,12132.4694700,E,2,27,0.93,26.14,M,15.25,M,3,3335*79
$GNRMC,101330.200,A,2500.7898000,N,12132.4694700,E,0.01,349.36,260623,,,D,V*06
$GPHDT,,T*1B
$GNGGA,101330.400,2500.7898000,N,12132.4694700,E,2,27,0.93,26.14,M,15.25,M,3,3335*7F
$GNRMC,101330.400,A,2500.7898000,N,12132.4694700,E,0.01,349.36,260623,,,D,V*00
$GPHDT,,T*1B
$GNGGA,101330.600,2500.7898000,N,12132.4694700,E,2,27,0.93,26.13,M,15.25,M,3,3335*7A
$GNRMC,101330.600,A,2500.7898000,N,12132.4694700,E,0.03,349.36,260623,,,D,V*00
$GPHDT,,T*1B
$GNGGA,101330.800,2500.7898100,N,12132.4694600,E,2,29,0.93,26.11,M,15.25,M,3,3335*78
$GNRMC,101330.800,A,2500.7898100,N,12132.4694600,E,0.04,349.36,260623,,,D,V*09
$GPHDT,,T*1B
$GNGSA,A,3,196,24,195,05,194,29,,,,,,,1.55,0.93,1.24,1*3A
$GNGSA,A,3,84,80,79,,,,,,,,,,1.55,0.93,1.24,2*04
$GNGSA,A,3,15,,,,,,,,,,,,1.55,0.93,1.24,3*0B
$GNGSA,A,3,38,39,08,16,09,29,46,37,32,,,,1.55,0.93,1.24,4*03
$GPGSV,3,1,10,196,73,050,26,199,73,011,,24,64,173,33,195,47,177,44,1*57
$GPGSV,3,2,10,45,47,231,39,05,37,085,36,194,20,146,34,29,19,221,16,1*5A
$GPGSV,3,3,10,15,,,29,02,,,20,1*6A
$GPGSV,1,1,03,196,73,050,36,24,64,173,40,195,47,177,45,8*5F
$GLGSV,1,1,03,84,46,205,32,80,30,127,33,79,26,067,40,1*43
$GAGSV,2,1,05,15,52,170,39,26,14,323,,25,04,066,,13,,,24,7*4E
$GAGSV,2,2,05,03,,,39,7*7F
$GAGSV,1,1,03,15,52,170,41,13,,,29,03,,,41,1*49
$GBGSV,3,1,11,38,72,034,31,39,71,224,41,08,63,005,31,16,62,215,43,1*7A
$GBGSV,3,2,11,09,42,213,40,29,41,238,47,46,36,150,37,37,34,078,37,1*77
$GBGSV,3,3,11,30,17,182,29,32,15,072,27,23,01,039,,1*4C
$GBGSV,2,1,06,38,72,034,35,39,71,224,38,29,41,238,44,46,36,150,34,4*79
$GBGSV,2,2,06,37,34,078,40,32,15,072,29,4*76
$GNGGA,101331.000,2500.7898000,N,12132.4694600,E,2,29,0.93,26.11,M,15.25,M,2,3335*71
$GNRMC,101331.000,A,2500.7898000,N,12132.4694600,E,0.01,349.36,260623,,,D,V*04
$GPHDT,,T*1B
$GNGGA,101331.200,2500.7898000,N,12132.4694600,E,2,29,0.93,26.12,M,15.25,M,1,3335*73
$GNRMC,101331.200,A,2500.7898000,N,12132.4694600,E,0.00,349.36,260623,,,D,V*07
$GPHDT,,T*1B
$GNGGA,101331.400,2500.7898000,N,12132.4694500,E,2,29,0.93,26.11,M,15.25,M,1,3335*75
$GNRMC,101331.400,A,2500.7898000,N,12132.4694500,E,0.01,349.36,260623,,,D,V*03
$GPHDT,,T*1B
$GNGGA,101331.600,2500.7898000,N,12132.4694500,E,2,29,0.93,26.09,M,15.25,M,0,3335*7F
$GNRMC,101331.600,A,2500.7898000,N,12132.4694500,E,0.01,349.36,260623,,,D,V*01
$GPHDT,,T*1B
$GNGGA,101331.800,2500.7898000,N,12132.4694500,E,2,29,0.93,26.05,M,15.25,M,0,3335*7D
$GNRMC,101331.800,A,2500.7898000,N,12132.4694500,E,0.03,349.36,260623,,,D,V*0D
$GPHDT,,T*1B
$GNGSA,A,3,196,24,195,05,194,29,,,,,,,1.55,0.93,1.24,1*3A
$GNGSA,A,3,84,80,79,,,,,,,,,,1.55,0.93,1.24,2*04
$GNGSA,A,3,15,,,,,,,,,,,,1.55,0.93,1.24,3*0B
$GNGSA,A,3,38,39,08,16,09,29,46,37,32,,,,1.55,0.93,1.24,4*03
$GPGSV,3,1,10,196,73,050,26,199,73,011,,24,64,173,33,195,47,177,44,1*57
$GPGSV,3,2,10,45,47,231,39,05,37,085,35,194,20,146,34,29,19,221,17,1*58
$GPGSV,3,3,10,15,,,29,02,,,18,1*61
$GPGSV,1,1,03,196,73,050,36,24,64,173,41,195,47,177,45,8*5E
$GLGSV,1,1,03,84,46,205,32,80,30,127,33,79,26,067,40,1*43
$GAGSV,2,1,05,15,52,170,39,26,14,323,,25,04,066,,13,,,24,7*4E
$GAGSV,2,2,05,03,,,39,7*7F
$GAGSV,1,1,03,15,52,170,41,13,,,29,03,,,41,1*49
$GBGSV,3,1,10,38,72,034,31,39,71,224,41,08,63,005,31,16,62,215,43,1*7B
$GBGSV,3,2,10,09,42,213,40,29,41,238,47,46,36,150,37,37,34,078,37,1*76
$GBGSV,3,3,10,30,17,182,29,32,15,072,27,1*77
$GBGSV,2,1,05,38,72,034,35,39,71,224,38,29,41,238,44,46,36,150,34,4*7A
$GBGSV,2,2,05,37,34,078,40,4*4E
$GNGGA,101332.000,2500.7898000,N,12132.4694500,E,2,28,0.93,26.05,M,15.25,M,1,3335*76
$GNRMC,101332.000,A,2500.7898000,N,12132.4694500,E,0.00,349.36,260623,,,D,V*05
$GPHDT,,T*1B
$GNGGA,101332.200,2500.7898000,N,12132.4694500,E,2,28,0.93,26.06,M,15.25,M,1,3335*77
$GNRMC,101332.200,A,2500.7898000,N,12132.4694500,E,0.00,349.36,260623,,,D,V*07
$GPHDT,,T*1B
$GNGGA,101332.400,2500.7898000,N,12132.4694500,E,2,29,0.93,26.04,M,15.25,M,1,3335*72
$GNRMC,101332.400,A,2500.7898000,N,12132.4694500,E,0.01,349.36,260623,,,D,V*00
$GPHDT,,T*1B
$GNGGA,101332.600,2500.7898000,N,12132.4694500,E,2,29,0.93,26.02,M,15.25,M,1,3335*76
$GNRMC,101332.600,A,2500.7898000,N,12132.4694500,E,0.02,349.36,260623,,,D,V*01
$GPHDT,,T*1B
$GNGGA,101332.800,2500.7898000,N,12132.4694500,E,2,29,0.93,25.99,M,15.25,M,1,3335*79
$GNRMC,101332.800,A,2500.7898000,N,12132.4694500,E,0.03,349.36,260623,,,D,V*0E
$GPHDT,,T*1B
$GNGSA,A,3,196,24,195,05,194,29,,,,,,,1.55,0.93,1.24,1*3A
$GNGSA,A,3,84,80,79,,,,,,,,,,1.55,0.93,1.24,2*04
$GNGSA,A,3,15,,,,,,,,,,,,1.55,0.93,1.24,3*0B
$GNGSA,A,3,38,39,08,16,09,29,46,37,32,,,,1.55,0.93,1.24,4*03
$GPGSV,3,1,10,196,73,050,26,199,73,011,,24,64,173,34,195,47,177,44,1*50
$GPGSV,3,2,10,45,47,231,39,05,37,085,35,194,20,146,34,29,19,221,18,1*57
$GPGSV,3,3,10,15,,,29,02,,,17,1*6E
$GPGSV,1,1,03,196,73,050,36,24,64,173,41,195,47,177,45,8*5E
$GLGSV,1,1,03,84,46,205,32,80,30,127,33,79,26,067,39,1*4D
$GAGSV,2,1,05,15,52,170,39,26,14,323,,25,04,066,,13,,,24,7*4E
$GAGSV,2,2,05,03,,,39,7*7F
$GAGSV,1,1,03,15,52,170,41,13,,,29,03,,,41,1*49
$GBGSV,3,1,10,38,72,034,31,39,71,224,41,08,63,005,31,16,62,215,43,1*7B
$GBGSV,3,2,10,09,42,213,40,29,41,238,47,46,36,150,37,37,34,078,37,1*76
$GBGSV,3,3,10,30,17,182,29,32,15,072,27,1*77
$GBGSV,2,1,07,38,72,034,35,39,71,224,38,29,41,238,44,46,36,150,34,4*78
$GBGSV,2,2,07,37,34,078,39,30,17,182,24,32,15,072,26,4*4E
$GNGGA,101333.000,2500.7898000,N,12132.4694400,E,2,29,0.93,25.98,M,15.25,M,2,3335*73
$GNRMC,101333.000,A,2500.7898000,N,12132.4694400,E,0.01,349.36,260623,,,D,V*04
$GPHDT,,T*1B
$GNGGA,101333.200,2500.7897900,N,12132.4694400,E,2,29,0.93,25.99,M,15.25,M,2,3335*76
$GNRMC,101333.200,A,2500.7897900,N,12132.4694400,E,0.00,349.36,260623,,,D,V*01
$GPHDT,,T*1B
$GNGGA,101333.400,2500.7897900,N,12132.4694500,E,2,28,0.93,25.98,M,15.25,M,1,3335*72
$GNRMC,101333.400,A,2500.7897900,N,12132.4694500,E,0.01,349.36,260623,,,D,V*07
$GPHDT,,T*1B
$GNGGA,101333.600,2500.7897900,N,12132.4694500,E,2,27,0.93,25.97,M,15.25,M,1,3335*70
$GNRMC,101333.600,A,2500.7897900,N,12132.4694500,E,0.02,349.36,260623,,,D,V*06
$GPHDT,,T*1B
$GNGGA,101333.800,2500.7898000,N,12132.4694500,E,2,27,0.93,25.93,M,15.25,M,0,3335*7D
$GNRMC,101333.800,A,2500.7898000,N,12132.4694500,E,0.04,349.36,260623,,,D,V*08
$GPHDT,,T*1B
$GNGSA,A,3,196,24,195,05,194,29,,,,,,,1.55,0.93,1.24,1*3A
$GNGSA,A,3,84,80,79,,,,,,,,,,1.55,0.93,1.24,2*04
$GNGSA,A,3,15,,,,,,,,,,,,1.55,0.93,1.24,3*0B
$GNGSA,A,3,38,39,08,16,09,29,46,37,32,,,,1.55,0.93,1.24,4*03
$GPGSV,3,1,10,196,73,050,26,199,73,011,,24,64,173,34,195,47,177,44,1*50
$GPGSV,3,2,10,45,47,231,39,05,37,085,35,194,20,146,34,29,19,221,18,1*57
$GPGSV,3,3,10,15,,,30,02,,,17,1*66
$GPGSV,1,1,03,196,73,050,36,24,64,173,41,195,47,177,46,8*5D
$GLGSV,1,1,03,84,46,205,32,80,30,127,33,79,26,067,38,1*4C
$GAGSV,2,1,05,15,52,170,39,26,14,323,,25,04,066,,13,,,24,7*4E
$GAGSV,2,2,05,03,,,39,7*7F
$GAGSV,1,1,03,15,52,170,41,13,,,29,03,,,41,1*49
$GBGSV,3,1,10,38,72,034,32,39,71,224,41,08,63,005,31,16,62,215,43,1*78
$GBGSV,3,2,10,09,42,213,40,29,41,238,47,46,36,150,37,37,34,078,37,1*76
$GBGSV,3,3,10,30,17,182,29,32,15,072,28,1*78
$GBGSV,2,1,06,38,72,034,35,39,71,224,38,29,41,238,44,46,36,150,34,4*79
$GBGSV,2,2,06,37,34,078,39,30,17,182,24,4*7B
$GNGGA,101334.000,2500.7897800,N,12132.4694500,E,2,28,0.93,26.01,M,15.25,M,1,3335*73
$GNRMC,101334.000,A,2500.7897800,N,12132.4694500,E,0.07,349.36,260623,,,D,V*03
$GPHDT,,T*1B
$GNGGA,101334.200,2500.7897700,N,12132.4694600,E,2,28,0.93,26.01,M,15.25,M,1,3335*7D
$GNRMC,101334.200,A,2500.7897700,N,12132.4694600,E,0.01,349.36,260623,,,D,V*0B
$GPHDT,,T*1B
$GNGGA,101334.400,2500.7897800,N,12132.4694600,E,2,29,0.93,26.02,M,15.25,M,1,3335*76
$GNRMC,101334.400,A,2500.7897800,N,12132.4694600,E,0.01,349.36,260623,,,D,V*02
$GPHDT,,T*1B
$GNGGA,101334.600,2500.7897800,N,12132.4694700,E,2,29,0.93,25.98,M,15.25,M,1,3335*75
$GNRMC,101334.600,A,2500.7897800,N,12132.4694700,E,0.02,349.36,260623,,,D,V*02
$GPHDT,,T*1B
$GNGGA,101334.800,2500.7897900,N,12132.4694700,E,2,29,0.93,25.94,M,15.25,M,1,3335*76
$GNRMC,101334.800,A,2500.7897900,N,12132.4694700,E,0.03,349.36,260623,,,D,V*0C
$GPHDT,,T*1B
$GNGSA,A,3,196,24,195,05,194,29,,,,,,,1.55,0.93,1.24,1*3A
$GNGSA,A,3,84,80,79,,,,,,,,,,1.55,0.93,1.24,2*04
$GNGSA,A,3,15,,,,,,,,,,,,1.55,0.93,1.24,3*0B
$GNGSA,A,3,38,39,08,16,09,29,46,37,32,,,,1.55,0.93,1.24,4*03
$GPGSV,3,1,10,196,73,050,26,199,73,011,,24,64,173,33,195,47,177,44,1*57
$GPGSV,3,2,10,45,47,231,39,05,37,085,35,194,20,146,34,29,19,221,18,1*57
$GPGSV,3,3,10,15,,,30,02,,,17,1*66
$GPGSV,1,1,03,196,73,050,36,24,64,173,42,195,47,177,46,8*5E
$GLGSV,1,1,03,84,46,205,32,80,30,127,33,79,26,067,38,1*4C
$GAGSV,2,1,05,15,52,170,39,26,14,323,,25,04,066,,13,,,24,7*4E
$GAGSV,2,2,05,03,,,39,7*7F
$GAGSV,1,1,03,15,52,170,41,13,,,29,03,,,41,1*49
$GBGSV,3,1,10,38,72,034,32,39,71,224,41,08,63,005,31,16,62,215,43,1*78
$GBGSV,3,2,10,09,42,213,40,29,41,238,47,46,36,150,37,37,34,078,37,1*76
$GBGSV,3,3,10,30,17,182,28,32,15,072,28,1*79
$GBGSV,2,1,07,38,72,034,35,39,71,224,38,29,41,238,44,46,36,150,34,4*78
$GBGSV,2,2,07,37,34,078,39,30,17,182,23,32,15,072,25,4*4A
$GNGGA,101335.000,2500.7897900,N,12132.4694800,E,2,28,0.93,25.95,M,15.25,M,2,3335*73
$GNRMC,101335.000,A,2500.7897900,N,12132.4694800,E,0.02,349.36,260623,,,D,V*0B
$GPHDT,,T*1B
$GNGGA,101335.200,2500.7897900,N,12132.4694800,E,2,28,0.93,25.96,M,15.25,M,1,3335*71
$GNRMC,101335.200,A,2500.7897900,N,12132.4694800,E,0.01,349.36,260623,,,D,V*0A
$GPHDT,,T*1B
$GNGGA,101335.400,2500.7897900,N,12132.4694900,E,2,28,0.93,25.96,M,15.25,M,1,3335*76
$GNRMC,101335.400,A,2500.7897900,N,12132.4694900,E,0.02,349.36,260623,,,D,V*0E
$GPHDT,,T*1B
$GNGGA,101335.600,2500.7898000,N,12132.4695000,E,2,28,0.93,25.94,M,15.25,M,1,3335*78
$GNRMC,101335.600,A,2500.7898000,N,12132.4695000,E,0.02,349.36,260623,,,D,V*02
$GPHDT,,T*1B
$GNGGA,101335.800,2500.7898100,N,12132.4695000,E,2,28,0.93,25.90,M,15.25,M,1,3335*73
$GNRMC,101335.800,A,2500.7898100,N,12132.4695000,E,0.02,349.36,260623,,,D,V*0D
$GPHDT,,T*1B
$GNGSA,A,3,196,24,195,05,194,29,,,,,,,1.55,0.93,1.24,1*3A
$GNGSA,A,3,84,80,79,,,,,,,,,,1.55,0.93,1.24,2*04
$GNGSA,A,3,15,,,,,,,,,,,,1.55,0.93,1.24,3*0B
$GNGSA,A,3,38,39,08,16,09,29,46,37,32,,,,1.55,0.93,1.24,4*03
$GPGSV,3,1,10,196,73,050,26,199,73,011,,24,64,173,31,195,47,177,44,1*55
$GPGSV,3,2,10,45,47,231,39,05,37,085,35,194,20,146,34,29,19,221,18,1*57
$GPGSV,3,3,10,15,,,30,02,,,17,1*66
$GPGSV,1,1,03,196,73,050,36,24,64,173,42,195,47,177,46,8*5E
$GLGSV,1,1,03,84,46,205,32,80,30,127,34,79,26,066,38,1*4A
$GAGSV,2,1,05,15,52,170,39,26,14,323,,25,04,066,,13,,,24,7*4E
$GAGSV,2,2,05,03,,,39,7*7F
$GAGSV,1,1,03,15,52,170,41,13,,,28,03,,,41,1*48
$GBGSV,3,1,10,38,72,034,31,39,71,224,41,08,63,005,31,16,62,215,43,1*7B
$GBGSV,3,2,10,09,42,213,40,29,41,238,47,46,36,150,37,37,34,078,37,1*76
$GBGSV,3,3,10,30,17,182,28,32,15,072,28,1*79
$GBGSV,2,1,06,38,72,034,35,39,71,224,38,29,41,238,44,46,36,150,33,4*7E
$GBGSV,2,2,06,37,34,078,39,30,17,182,23,4*7C
$GNGGA,101336.000,2500.7898200,N,12132.4695100,E,2,28,0.93,25.92,M,15.25,M,2,3335*7B
$GNRMC,101336.000,A,2500.7898200,N,12132.4695100,E,0.02,349.36,260623,,,D,V*04
$GPHDT,,T*1B
$GNGGA,101336.200,2500.7898300,N,12132.4695200,E,2,28,0.93,25.92,M,15.25,M,2,3335*7B
$GNRMC,101336.200,A,2500.7898300,N,12132.4695200,E,0.01,349.36,260623,,,D,V*07
$GPHDT,,T*1B
$GNGGA,101336.400,2500.7898300,N,12132.4695200,E,2,28,0.93,25.91,M,15.25,M,2,3335*7E
$GNRMC,101336.400,A,2500.7898300,N,12132.4695200,E,0.02,349.36,260623,,,D,V*02
$GPHDT,,T*1B
$GNGGA,101336.600,2500.7898400,N,12132.4695300,E,2,28,0.93,25.88,M,15.25,M,2,3335*72
$GNRMC,101336.600,A,2500.7898400,N,12132.4695300,E,0.02,349.36,260623,,,D,V*06
$GPHDT,,T*1B
$GNGGA,101336.800,2500.7898500,N,12132.4695400,E,2,28,0.93,25.84,M,15.25,M,2,3335*76
$GNRMC,101336.800,A,2500.7898500,N,12132.4695400,E,0.04,349.36,260623,,,D,V*08
$GPHDT,,T*1B
$GNGSA,A,3,196,24,195,05,194,29,,,,,,,1.55,0.93,1.24,1*3A
$GNGSA,A,3,84,80,79,,,,,,,,,,1.55,0.93,1.24,2*04
$GNGSA,A,3,15,,,,,,,,,,,,1.55,0.93,1.24,3*0B
$GNGSA,A,3,38,39,08,16,09,29,46,37,32,,,,1.55,0.93,1.24,4*03
$GPGSV,3,1,10,196,73,050,26,199,73,011,,24,64,173,31,195,47,177,44,1*55
$GPGSV,3,2,10,45,47,231,39,05,37,085,35,194,20,146,34,29,19,221,18,1*57
$GPGSV,3,3,10,15,,,30,02,,,18,1*69
$GPGSV,1,1,03,196,73,050,36,24,64,173,42,195,47,177,46,8*5E
$GLGSV,1,1,03,84,45,205,32,80,30,127,34,79,26,066,38,1*49
$GAGSV,1,1,04,15,52,170,39,26,14,323,,13,,,25,03,,,39,7*77
$GAGSV,1,1,03,15,52,170,42,13,,,28,03,,,41,1*4B
$GBGSV,3,1,10,38,72,034,30,39,71,224,41,08,63,005,31,16,62,215,43,1*7A
$GBGSV,3,2,10,09,42,213,40,29,41,238,47,46,36,150,37,37,34,078,37,1*76
$GBGSV,3,3,10,30,17,182,28,32,15,072,29,1*78
$GBGSV,2,1,06,38,72,034,35,39,71,224,39,29,41,238,44,46,36,150,33,4*7F
$GBGSV,2,2,06,37,34,078,39,30,17,182,24,4*7B
$GNGGA,101337.000,2500.7898500,N,12132.4695400,E,2,28,0.93,25.94,M,15.25,M,3,3335*7F
$GNRMC,101337.000,A,2500.7898500,N,12132.4695400,E,0.07,349.36,260623,,,D,V*02
$GPHDT,,T*1B
$GNGGA,101337.200,2500.7898500,N,12132.4695500,E,2,30,0.86,25.95,M,15.25,M,3,3335*70
$GNRMC,101337.200,A,2500.7898500,N,12132.4695500,E,0.00,349.36,260623,,,D,V*06
$GPHDT,,T*1B
$GNGGA,101337.400,2500.7898500,N,12132.4695600,E,2,30,0.86,25.95,M,15.25,M,3,3335*75
$GNRMC,101337.400,A,2500.7898500,N,12132.4695600,E,0.01,349.36,260623,,,D,V*02
$GPHDT,,T*1B
$GNGGA,101337.600,2500.7898600,N,12132.4695600,E,2,30,0.86,25.93,M,15.25,M,3,3335*72
$GNRMC,101337.600,A,2500.7898600,N,12132.4695600,E,0.01,349.36,260623,,,D,V*03
$GPHDT,,T*1B
$GNGGA,101337.800,2500.7898800,N,12132.4695700,E,2,30,0.86,25.92,M,15.25,M,3,3335*72
$GNRMC,101337.800,A,2500.7898800,N,12132.4695700,E,0.03,349.36,260623,,,D,V*00
$GPHDT,,T*1B
$GNGSA,A,3,196,24,195,05,194,29,,,,,,,1.45,0.86,1.17,1*3F
$GNGSA,A,3,84,80,79,,,,,,,,,,1.45,0.86,1.17,2*01
$GNGSA,A,3,15,03,,,,,,,,,,,1.45,0.86,1.17,3*0D
$GNGSA,A,3,38,39,08,16,09,29,46,37,32,,,,1.45,0.86,1.17,4*06
$GPGSV,3,1,11,199,73,011,,196,73,050,26,24,64,173,31,45,47,231,39,1*63
$GPGSV,3,2,11,195,47,177,44,05,37,085,35,194,20,146,34,29,19,221,18,1*61
$GPGSV,3,3,11,15,,,30,02,,,20,13,,,37,1*65
$GPGSV,1,1,03,196,73,050,36,24,64,173,42,195,47,177,46,8*5E
$GLGSV,1,1,03,84,45,205,32,80,30,127,33,79,26,066,38,1*4E
$GAGSV,1,1,04,15,52,170,39,03,25,044,39,26,14,323,,13,,,26,7*43
$GAGSV,1,1,03,15,52,170,42,03,25,044,41,13,,,28,1*7C
$GBGSV,3,1,10,38,72,034,30,39,71,224,41,08,63,005,31,16,62,215,43,1*7A
$GBGSV,3,2,10,09,42,213,40,29,41,238,47,46,36,150,37,37,34,078,37,1*76
$GBGSV,3,3,10,30,17,182,28,32,15,072,30,1*70
$GBGSV,2,1,06,38,72,034,35,39,71,224,39,29,41,238,44,46,36,150,33,4*7F
$GBGSV,2,2,06,37,34,078,39,30,17,182,25,4*7A
$GNGGA,101338.000,2500.7898800,N,12132.4695800,E,2,30,0.86,25.92,M,15.25,M,4,3335*7D
$GNRMC,101338.000,A,2500.7898800,N,12132.4695800,E,0.00,349.36,260623,,,D,V*0B
$GPHDT,,T*1B
$GNGGA,101338.200,2500.7898900,N,12132.4695900,E,2,30,0.86,25.93,M,15.25,M,2,3335*78
$GNRMC,101338.200,A,2500.7898900,N,12132.4695900,E,0.01,349.36,260623,,,D,V*08
$GPHDT,,T*1B
$GNGGA,101338.400,2500.7898900,N,12132.4695900,E,2,30,0.86,25.93,M,15.25,M,1,3335*7D
$GNRMC,101338.400,A,2500.7898900,N,12132.4695900,E,0.00,349.36,260623,,,D,V*0F
$GPHDT,,T*1B
$GNGGA,101338.600,2500.7899100,N,12132.4696000,E,2,30,0.86,25.92,M,15.25,M,0,3335*7C
$GNRMC,101338.600,A,2500.7899100,N,12132.4696000,E,0.02,349.36,260623,,,D,V*0C
$GPHDT,,T*1B
$GNGGA,101338.800,2500.7899100,N,12132.4696100,E,2,30,0.86,25.90,M,15.25,M,0,3335*71
$GNRMC,101338.800,A,2500.7899100,N,12132.4696100,E,0.01,349.36,260623,,,D,V*00
$GPHDT,,T*1B
$GNGSA,A,3,196,24,195,05,194,29,,,,,,,1.45,0.86,1.17,1*3F
$GNGSA,A,3,84,80,79,,,,,,,,,,1.45,0.86,1.17,2*01
$GNGSA,A,3,15,03,,,,,,,,,,,1.45,0.86,1.17,3*0D
$GNGSA,A,3,38,39,08,16,09,29,46,37,32,,,,1.45,0.86,1.17,4*06
$GPGSV,3,1,11,199,73,011,,196,73,050,26,24,64,173,31,45,47,231,39,1*63
$GPGSV,3,2,11,195,47,177,44,05,37,085,34,194,20,146,34,29,19,221,18,1*60
$GPGSV,3,3,11,15,,,30,02,,,19,13,,,37,1*6F
$GPGSV,1,1,03,196,73,050,36,24,64,173,42,195,47,177,46,8*5E
$GLGSV,1,1,03,84,45,205,32,80,30,127,32,79,26,066,38,1*4F
$GAGSV,1,1,04,15,52,170,39,03,25,044,39,26,14,323,,13,,,25,7*40
$GAGSV,1,1,03,15,52,170,42,03,25,044,41,13,,,29,1*7D
$GBGSV,3,1,10,38,72,034,30,39,71,224,41,08,63,005,31,16,62,215,43,1*7A
$GBGSV,3,2,10,09,43,213,40,29,41,238,47,46,36,150,37,37,34,078,37,1*77
$GBGSV,3,3,10,30,17,182,28,32,15,072,31,1*71
$GBGSV,2,1,06,38,72,034,35,39,71,224,39,29,41,238,44,46,36,150,33,4*7F
$GBGSV,2,2,06,37,34,078,39,30,17,182,23,4*7C
$GNGGA,101339.000,2500.7899200,N,12132.4696200,E,2,30,0.86,25.90,M,15.25,M,1,3335*79
$GNRMC,101339.000,A,2500.7899200,N,12132.4696200,E,0.01,349.36,260623,,,D,V*09
$GPHDT,,T*1B
$GNGGA,101339.200,2500.7899200,N,12132.4696200,E,2,30,0.86,25.91,M,15.25,M,1,3335*7A
$GNRMC,101339.200,A,2500.7899200,N,12132.4696200,E,0.00,349.36,260623,,,D,V*0A
$GPHDT,,T*1B
$GNGGA,101339.400,2500.7899200,N,12132.4696400,E,2,31,0.86,25.91,M,15.25,M,1,3335*7B
$GNRMC,101339.400,A,2500.7899200,N,12132.4696400,E,0.01,349.36,260623,,,D,V*0B
$GPHDT,,T*1B
$GNGGA,101339.600,2500.7899300,N,12132.4696400,E,2,31,0.86,25.91,M,15.25,M,1,3335*78
$GNRMC,101339.600,A,2500.7899300,N,12132.4696400,E,0.02,349.36,260623,,,D,V*0B
$GPHDT,,T*1B
$GNGGA,101339.800,2500.7899400,N,12132.4696500,E,2,30,0.86,25.90,M,15.25,M,1,3335*70
$GNRMC,101339.800,A,2500.7899400,N,12132.4696500,E,0.02,349.36,260623,,,D,V*03
$GPHDT,,T*1B
$GNGSA,A,3,196,24,195,05,194,29,,,,,,,1.45,0.86,1.17,1*3F
$GNGSA,A,3,84,80,79,,,,,,,,,,1.45,0.86,1.17,2*01
$GNGSA,A,3,15,03,,,,,,,,,,,1.45,0.86,1.17,3*0D
$GNGSA,A,3,38,39,08,16,09,29,46,37,32,,,,1.45,0.86,1.17,4*06
$GPGSV,3,1,11,199,73,011,,196,73,050,26,24,64,173,31,45,47,231,39,1*63
$GPGSV,3,2,11,195,47,177,44,05,37,085,34,194,20,146,34,29,19,221,18,1*60
$GPGSV,3,3,11,15,,,31,02,,,17,13,,,36,1*61
$GPGSV,1,1,03,196,73,050,36,24,64,173,42,195,47,177,46,8*5E
$GLGSV,1,1,03,84,45,205,32,80,30,127,31,79,26,066,38,1*4C
$GAGSV,1,1,03,15,52,170,39,03,25,044,39,13,,,25,7*74
$GAGSV,1,1,03,15,52,170,42,03,25,044,41,13,,,29,1*7D
$GBGSV,3,1,10,38,72,034,30,39,71,224,41,08,63,005,31,16,62,215,43,1*7A
$GBGSV,3,2,10,09,43,213,40,29,41,238,47,46,36,150,37,37,34,078,38,1*78
$GBGSV,3,3,10,30,17,182,29,32,15,072,31,1*70
$GBGSV,2,1,06,38,72,034,35,39,71,224,39,29,41,238,44,46,36,150,34,4*78
$GBGSV,2,2,06,37,34,078,39,30,17,182,23,4*7C
$GNGGA,101340.000,2500.7899400,N,12132.4696500,E,2,30,0.86,25.89,M,15.25,M,2,3335*7D
$GNRMC,101340.000,A,2500.7899400,N,12132.4696500,E,0.00,349.36,260623,,,D,V*07
$PAIR010,0,1,2268,123238*3D
$GPHDT,,T*1B
$GNGGA,101340.200,2500.7899400,N,12132.4696600,E,2,31,0.86,25.92,M,15.25,M,2,3335*77
$GNRMC,101340.200,A,2500.7899400,N,12132.4696600,E,0.01,349.36,260623,,,D,V