$FW : RTK35X,V1.1X0314AS,Lib20210517,1*54
$Tool : LOCOSYS , GNSS Firebird , v1.0.0.19*39
$---------------------------------------------------*2D
$GNGGA,101551.800,2500.7897600,N,12132.4693700,E,2,35,0.78,25.00,M,15.25,M,1,3335*7E
$GNRMC,101551.800,A,2500.7897600,N,12132.4693700,E,0.11,223.23,260623,,,D,V*0B
$GPHDT,,T*1B
$GNGSA,A,3,196,24,195,05,13,194,29,,,,,,1.36,0.78,1.11,1*3E
$GNGSA,A,3,84,80,79,,,,,,,,,,1.36,0.78,1.11,2*02
$GNGSA,A,3,15,03,,,,,,,,,,,1.36,0.78,1.11,3*0E
$GNGSA,A,3,38,39,08,16,06,20,09,29,46,37,30,,1.36,0.78,1.11,4*03
$GPGSV,3,1,12,199,73,011,,196,73,050,24,24,65,172,39,195,47,177,44,1*5D
$GPGSV,3,2,12,45,47,231,39,05,37,086,24,13,30,037,38,194,20,146,32,1*55
$GPGSV,3,3,12,29,18,220,29,11,05,149,,12,03,165,19,15,,,28,1*53
$GPGSV,1,1,04,196,73,050,32,24,65,172,39,195,47,177,45,194,20,146,27,8*5A
$GLGSV,1,1,03,84,44,204,31,80,31,126,20,79,26,065,36,1*42
$GAGSV,1,1,02,15,51,170,43,03,24,045,42,7*72
$GAGSV,1,1,02,15,51,170,40,03,24,045,42,1*77
$GBGSV,3,1,12,38,73,035,31,39,71,226,40,08,63,005,26,16,62,216,44,1*78
$GBGSV,3,2,12,06,60,215,43,20,49,022,36,09,43,214,41,29,40,237,47,1*79
$GBGSV,3,3,12,46,37,149,38,37,34,077,26,30,16,181,18,32,14,073,,1*76
$GBGSV,2,1,06,38,73,035,33,39,71,226,38,20,49,022,23,29,40,237,43,4*7E
$GBGSV,2,2,06,37,34,077,34,30,16,181,24,4*7B
$GNGGA,101552.000,2500.7897600,N,12132.4693700,E,2,35,0.78,25.01,M,15.25,M,2,3335*77
$GNRMC,101552.000,A,2500.7897600,N,12132.4693700,E,0.06,223.23,260623,,,D,V*06
$GPHDT,,T*1B
$GNGGA,101552.200,2500.7897600,N,12132.4693700,E,2,35,0.78,25.00,M,15.25,M,2,3335*74
$GNRMC,101552.200,A,2500.7897600,N,12132.4693700,E,0.02,223.23,260623,,,D,V*00
$GPHDT,,T*1B
$GNGGA,101552.400,2500.7897600,N,12132.4693700,E,2,35,0.78,25.00,M,15.25,M,2,3335*72
$GNRMC,101552.400,A,2500.7897600,N,12132.4693700,E,0.00,223.23,260623,,,D,V*04
$GPHDT,,T*1B
$GNGGA,101552.600,2500.7897600,N,12132.4693700,E,2,35,0.78,24.99,M,15.25,M,2,3335*71
$GNRMC,101552.600,A,2500.7897600,N,12132.4693700,E,0.04,223.23,260623,,,D,V*02
$GPHDT,,T*1B
$GNGGA,101552.800,2500.7897600,N,12132.4693600,E,2,35,0.78,25.00,M,15.25,M,2,3335*7F
$GNRMC,101552.800,A,2500.7897600,N,12132.4693600,E,0.00,223.23,260623,,,D,V*09
$GPHDT,,T*1B
$GNGSA,A,3,196,24,195,05,13,194,29,,,,,,1.36,0.78,1.11,1*3E
$GNGSA,A,3,84,80,79,,,,,,,,,,1.36,0.78,1.11,2*02
$GNGSA,A,3,15,03,,,,,,,,,,,1.36,0.78,1.11,3*0E
$GNGSA,A,3,38,39,08,16,06,20,09,29,46,37,30,,1.36,0.78,1.11,4*03
$GPGSV,3,1,12,199,73,011,,196,73,050,22,24,65,172,39,195,47,177,44,1*5B
$GPGSV,3,2,12,45,47,231,39,05,37,086,22,13,30,037,36,194,20,146,32,1*5D
$GPGSV,3,3,12,29,18,220,29,11,05,149,,12,03,165,18,15,,,28,1*52
$GPGSV,1,1,04,196,73,050,31,24,65,172,39,195,47,177,45,194,20,146,26,8*58
$GLGSV,1,1,03,84,44,204,31,80,31,126,22,79,26,065,36,1*40
$GAGSV,1,1,02,15,51,170,43,03,24,045,42,7*72
$GAGSV,1,1,02,15,51,170,40,03,24,045,42,1*77
$GBGSV,3,1,12,38,73,035,31,39,71,226,40,08,63,005,26,16,62,216,43,1*7F
$GBGSV,3,2,12,06,60,215,43,20,49,022,36,09,43,214,41,29,40,237,47,1*79
$GBGSV,3,3,12,46,37,149,39,37,34,077,27,30,16,181,19,32,14,073,,1*77
$GBGSV,2,1,06,38,73,035,33,39,71,226,38,20,49,022,22,29,40,237,43,4*7F
$GBGSV,2,2,06,37,34,077,35,30,16,181,26,4*78
$GNGGA,101553.000,2500.7897600,N,12132.4693600,E,2,35,0.78,24.99,M,15.25,M,3,3335*76
$GNRMC,101553.000,A,2500.7897600,N,12132.4693600,E,0.01,223.23,260623,,,D,V*01
$GPHDT,,T*1B
$GNGGA,101553.200,2500.7897600,N,12132.4693600,E,2,35,0.78,24.99,M,15.25,M,3,3335*74
$GNRMC,101553.200,A,2500.7897600,N,12132.4693600,E,0.02,223.23,260623,,,D,V*00
$GPHDT,,T*1B
$GNGGA,101553.400,2500.7897600,N,12132.4693600,E,2,36,0.78,25.00,M,15.25,M,3,3335*70
$GNRMC,101553.400,A,2500.7897600,N,12132.4693600,E,0.02,223.23,260623,,,D,V*06
$GPHDT,,T*1B
$GNGGA,101553.600,2500.7897600,N,12132.4693500,E,2,36,0.78,24.99,M,15.25,M,3,3335*70
$GNRMC,101553.600,A,2500.7897600,N,12132.4693500,E,0.01,223.23,260623,,,D,V*04
$GPHDT,,T*1B
$GNGGA,101553.800,2500.7897600,N,12132.4693600,E,2,36,0.78,24.99,M,15.25,M,3,3335*7D
$GNRMC,101553.800,A,2500.7897600,N,12132.4693600,E,0.01,223.23,260623,,,D,V*09
$GPHDT,,T*1B
$GNGSA,A,3,196,24,195,05,13,194,29,,,,,,1.36,0.78,1.11,1*3E
$GNGSA,A,3,84,80,79,,,,,,,,,,1.36,0.78,1.11,2*02
$GNGSA,A,3,15,03,,,,,,,,,,,1.36,0.78,1.11,3*0E
$GNGSA,A,3,38,39,08,16,06,20,09,29,46,37,30,,1.36,0.78,1.11,4*03
$GPGSV,3,1,12,199,73,011,,196,73,050,26,24,65,172,39,195,47,177,44,1*5F
$GPGSV,3,2,12,45,47,231,39,05,37,086,19,13,30,037,35,194,20,146,31,1*55
$GPGSV,3,3,12,29,18,220,28,11,05,149,,12,03,165,18,15,,,28,1*53
$GPGSV,1,1,04,196,73,050,32,24,65,172,39,195,47,177,45,194,20,146,26,8*5B
$GLGSV,2,1,05,84,44,204,31,85,44,299,,70,36,324,,80,31,126,23,1*70
$GLGSV,2,2,05,79,26,065,36,1*41
$GAGSV,1,1,02,15,51,170,43,03,24,045,41,7*71
$GAGSV,1,1,02,15,51,170,39,03,24,045,41,1*7A
$GBGSV,3,1,12,38,73,035,28,39,71,226,40,08,63,005,26,16,62,216,43,1*77
$GBGSV,3,2,12,06,60,215,43,20,49,022,36,09,43,214,41,29,40,237,47,1*79
$GBGSV,3,3,12,46,37,149,39,37,34,077,26,30,16,181,19,32,14,073,,1*76
$GBGSV,2,1,07,38,73,035,33,39,71,226,38,20,49,022,21,29,40,237,43,4*7D
$GBGSV,2,2,07,46,37,149,32,37,34,077,36,30,16,181,26,4*41
$GNGGA,101554.000,2500.7897600,N,12132.4693600,E,2,36,0.78,24.99,M,15.25,M,4,3335*75
$GNRMC,101554.000,A,2500.7897600,N,12132.4693600,E,0.00,223.23,260623,,,D,V*07
$GPHDT,,T*1B
$GNGGA,101554.200,2500.7897600,N,12132.4693500,E,2,36,0.78,24.98,M,15.25,M,4,3335*75
$GNRMC,101554.200,A,2500.7897600,N,12132.4693500,E,0.01,223.23,260623,,,D,V*07
$GPHDT,,T*1B
$GNGGA,101554.400,2500.7897600,N,12132.4693600,E,2,36,0.78,24.98,M,15.25,M,2,3335*76
$GNRMC,101554.400,A,2500.7897600,N,12132.4693600,E,0.01,223.23,260623,,,D,V*02
$GPHDT,,T*1B
$GNGGA,101554.600,2500.7897600,N,12132.4693500,E,2,36,0.78,24.98,M,15.25,M,1,3335*74
$GNRMC,101554.600,A,2500.7897600,N,12132.4693500,E,0.01,223.23,260623,,,D,V*03
$GPHDT,,T*1B
$GNGGA,101554.800,2500.7897600,N,12132.4693500,E,2,36,0.78,24.97,M,15.25,M,1,3335*75
$GNRMC,101554.800,A,2500.7897600,N,12132.4693500,E,0.02,223.23,260623,,,D,V*0E
$GPHDT,,T*1B
$GNGSA,A,3,196,24,195,05,13,194,29,,,,,,1.36,0.78,1.11,1*3E
$GNGSA,A,3,84,80,79,,,,,,,,,,1.36,0.78,1.11,2*02
$GNGSA,A,3,15,03,,,,,,,,,,,1.36,0.78,1.11,3*0E
$GNGSA,A,3,38,39,08,16,06,20,09,29,46,37,30,,1.36,0.78,1.11,4*03
$GPGSV,3,1,12,199,73,011,,196,73,050,25,24,65,172,39,195,47,177,44,1*5C
$GPGSV,3,2,12,45,47,231,39,05,37,086,18,13,30,037,33,194,20,146,31,1*52
$GPGSV,3,3,12,29,18,220,28,11,05,149,,12,03,165,20,15,,,27,1*57
$GPGSV,1,1,04,196,73,050,29,24,65,172,39,195,47,177,45,194,20,146,26,8*51
$GLGSV,1,1,03,84,44,204,30,80,31,126,26,79,26,065,35,1*46
$GAGSV,1,1,02,15,51,170,43,03,24,045,41,7*71
$GAGSV,1,1,02,15,51,170,39,03,24,045,40,1*7B
$GBGSV,3,1,12,38,73,035,26,39,71,226,40,08,63,005,26,16,62,216,43,1*79
$GBGSV,3,2,12,06,60,215,43,20,49,022,36,09,43,214,41,29,40,237,47,1*79
$GBGSV,3,3,12,46,37,149,40,37,34,076,24,30,16,181,18,32,14,073,,1*7A
$GBGSV,2,1,07,38,73,035,32,39,71,226,38,20,49,022,17,29,40,237,43,4*79
$GBGSV,2,2,07,46,37,149,33,37,34,076,36,30,16,181,26,4*41
$GNGGA,101555.000,2500.7897600,N,12132.4693600,E,2,36,0.78,24.98,M,15.25,M,2,3335*73
$GNRMC,101555.000,A,2500.7897600,N,12132.4693600,E,0.04,223.23,260623,,,D,V*02
$GPHDT,,T*1B
$GNGGA,101555.200,2500.7897600,N,12132.4693600,E,2,36,0.78,24.98,M,15.25,M,2,3335*71
$GNRMC,101555.200,A,2500.7897600,N,12132.4693600,E,0.03,223.23,260623,,,D,V*07
$GPHDT,,T*1B
$GNGGA,101555.400,2500.7897600,N,12132.4693600,E,2,36,0.78,24.97,M,15.25,M,2,3335*78
$GNRMC,101555.400,A,2500.7897600,N,12132.4693600,E,0.00,223.23,260623,,,D,V*02
$GPHDT,,T*1B
$GNGGA,101555.600,2500.7897600,N,12132.4693600,E,2,36,0.78,24.98,M,15.25,M,2,3335*75
$GNRMC,101555.600,A,2500.7897600,N,12132.4693600,E,0.00,223.23,260623,,,D,V*00
$GPHDT,,T*1B
$GNGGA,101555.800,2500.7897600,N,12132.4693600,E,2,36,0.78,24.98,M,15.25,M,2,3335*7B
$GNRMC,101555.800,A,2500.7897600,N,12132.4693600,E,0.02,223.23,260623,,,D,V*0C
$GPHDT,,T*1B
$GNGSA,A,3,196,24,195,05,13,194,29,,,,,,1.36,0.78,1.11,1*3E
$GNGSA,A,3,84,80,79,,,,,,,,,,1.36,0.78,1.11,2*02
$GNGSA,A,3,15,03,,,,,,,,,,,1.36,0.78,1.11,3*0E
$GNGSA,A,3,38,39,08,16,06,20,09,29,46,37,30,,1.36,0.78,1.11,4*03
$GPGSV,3,1,12,199,73,011,,196,73,050,25,24,65,172,39,195,47,177,44,1*5C
$GPGSV,3,2,12,45,47,231,39,05,37,086,18,13,30,037,33,194,20,146,31,1*52
$GPGSV,3,3,12,29,18,220,29,11,05,149,,12,03,165,21,15,,,26,1*56
$GPGSV,1,1,04,196,73,050,29,24,65,172,38,195,47,177,45,194,20,146,26,8*50
$GLGSV,2,1,06,84,44,204,30,80,31,126,28,79,26,065,36,69,25,038,30,1*7D
$GLGSV,2,2,06,71,09,279,,86,08,331,,1*7A
$GAGSV,1,1,02,15,51,170,43,03,24,045,41,7*71
$GAGSV,1,1,02,15,51,170,39,03,24,045,39,1*75
$GBGSV,3,1,12,38,73,035,26,39,71,226,40,08,63,005,25,16,62,216,43,1*7A
$GBGSV,3,2,12,06,60,215,43,20,49,022,36,09,43,214,41,29,40,237,47,1*79
$GBGSV,3,3,12,46,37,149,40,37,34,076,25,30,16,181,18,32,14,073,,1*7B
$GBGSV,2,1,07,38,73,035,32,39,71,226,38,20,49,022,17,29,40,237,43,4*79
$GBGSV,2,2,07,46,37,149,33,37,34,076,37,30,16,181,26,4*40
$GNGGA,101556.000,2500.7897600,N,12132.4693600,E,2,36,0.78,24.98,M,15.25,M,3,3335*71
$GNRMC,101556.000,A,2500.7897600,N,12132.4693600,E,0.01,223.23,260623,,,D,V*04
$GPHDT,,T*1B
$GNGGA,101556.200,2500.7897600,N,12132.4693600,E,2,35,0.78,24.97,M,15.25,M,3,3335*7F
$GNRMC,101556.200,A,2500.7897600,N,12132.4693600,E,0.02,223.23,260623,,,D,V*05
$GPHDT,,T*1B
$GNGGA,101556.400,2500.7897600,N,12132.4693600,E,2,35,0.78,24.97,M,15.25,M,3,3335*79
$GNRMC,101556.400,A,2500.7897600,N,12132.4693600,E,0.02,223.23,260623,,,D,V*03
$GPHDT,,T*1B
$GNGGA,101556.600,2500.7897600,N,12132.4693600,E,2,35,0.78,24.97,M,15.25,M,3,3335*7B
$GNRMC,101556.600,A,2500.7897600,N,12132.4693600,E,0.01,223.23,260623,,,D,V*02
$GPHDT,,T*1B
$GNGGA,101556.800,2500.7897600,N,12132.4693700,E,2,35,0.78,24.97,M,15.25,M,3,3335*74
$GNRMC,101556.800,A,2500.7897600,N,12132.4693700,E,0.00,223.23,260623,,,D,V*0C
$GPHDT,,T*1B
$GNGSA,A,3,196,24,195,05,13,194,29,,,,,,1.36,0.78,1.11,1*3E
$GNGSA,A,3,84,80,79,,,,,,,,,,1.36,0.78,1.11,2*02
$GNGSA,A,3,15,03,,,,,,,,,,,1.36,0.78,1.11,3*0E
$GNGSA,A,3,38,39,08,16,06,20,09,29,46,37,30,,1.36,0.78,1.11,4*03
$GPGSV,3,1,10,196,73,050,23,24,65,172,39,45,47,231,39,195,47,177,44,1*65
$GPGSV,3,2,10,05,37,086,16,13,30,037,33,194,20,146,31,29,18,220,29,1*5F
$GPGSV,3,3,10,12,03,165,21,15,,,24,1*56
$GPGSV,1,1,04,196,73,050,29,24,65,172,38,195,47,177,45,194,20,146,26,8*50
$GLGSV,1,1,04,84,44,204,30,80,31,126,28,79,26,065,36,69,25,038,32,1*7E
$GAGSV,1,1,03,15,51,170,43,03,24,045,41,30,07,161,,7*42
$GAGSV,1,1,02,15,51,170,39,03,24,045,39,1*75
$GBGSV,3,1,12,38,73,035,26,39,71,226,40,08,63,005,25,16,62,216,43,1*7A
$GBGSV,3,2,12,06,60,215,43,20,49,022,35,09,43,214,41,29,40,237,47,1*7A
$GBGSV,3,3,12,46,37,149,40,37,34,076,27,30,16,181,19,32,14,073,19,1*70
$GBGSV,2,1,07,38,73,035,32,39,71,226,38,20,49,022,17,29,40,237,43,4*79
$GBGSV,2,2,07,46,37,149,32,37,34,076,37,30,16,181,26,4*41
$GNGGA,101557.000,2500.7897600,N,12132.4693700,E,2,36,0.78,24.97,M,15.25,M,4,3335*79
$GNRMC,101557.000,A,2500.7897600,N,12132.4693700,E,0.01,223.23,260623,,,D,V*04
$GPHDT,,T*1B
$GNGGA,101557.200,2500.7897600,N,12132.4693700,E,2,36,0.78,24.97,M,15.25,M,2,3335*7D
$GNRMC,101557.200,A,2500.7897600,N,12132.4693700,E,0.03,223.23,260623,,,D,V*04
$GPHDT,,T*1B
$GNGGA,101557.400,2500.7897600,N,12132.4693700,E,2,36,0.78,24.97,M,15.25,M,2,3335*7B
$GNRMC,101557.400,A,2500.7897600,N,12132.4693700,E,0.01,223.23,260623,,,D,V*00
$GPHDT,,T*1B
$GNGGA,101557.600,2500.7897600,N,12132.4693700,E,2,36,0.77,24.97,M,15.25,M,0,3335*74
$GNRMC,101557.600,A,2500.7897600,N,12132.4693700,E,0.01,223.23,260623,,,D,V*02
$GPHDT,,T*1B
$GNGGA,101557.800,2500.7897600,N,12132.4693700,E,2,36,0.78,24.98,M,15.25,M,0,3335*7A
$GNRMC,101557.800,A,2500.7897600,N,12132.4693700,E,0.02,223.23,260623,,,D,V*0F
$GPHDT,,T*1B
$GNGSA,A,3,196,24,195,13,194,29,,,,,,,1.33,0.80,1.06,1*3F
$GNGSA,A,3,84,80,79,,,,,,,,,,1.33,0.80,1.06,2*06
$GNGSA,A,3,15,03,,,,,,,,,,,1.33,0.80,1.06,3*0A
$GNGSA,A,3,38,39,08,16,06,20,09,29,46,30,32,37,1.33,0.80,1.06,4*06
$GPGSV,3,1,12,199,73,011,,196,73,050,23,24,65,172,40,195,47,177,44,1*54
$GPGSV,3,2,12,45,47,231,40,05,37,086,13,13,30,037,32,194,20,146,31,1*56
$GPGSV,3,3,12,29,18,220,29,11,05,149,,12,03,165,19,15,,,24,1*5F
$GPGSV,1,1,04,196,73,050,28,24,65,172,38,195,47,177,45,194,20,146,26,8*51
$GLGSV,1,1,04,84,44,204,30,80,31,126,28,79,26,065,36,69,25,038,33,1*7F
$GAGSV,1,1,03,15,51,170,43,03,24,045,41,30,07,161,,7*42
$GAGSV,1,1,02,15,51,170,39,03,24,045,39,1*75
$GBGSV,3,1,12,38,73,035,26,39,71,226,40,08,63,005,24,16,62,216,43,1*7B
$GBGSV,3,2,12,06,60,215,43,20,49,022,35,09,43,214,41,29,40,237,47,1*7A
$GBGSV,3,3,12,46,37,149,40,37,34,076,,30,16,181,19,32,14,073,24,1*7B
$GBGSV,2,1,07,38,73,035,32,39,71,226,38,20,49,022,17,29,40,237,43,4*79
$GBGSV,2,2,07,46,37,149,33,37,34,076,37,30,16,181,26,4*40
$GNGGA,101558.000,2500.7897600,N,12132.4693700,E,2,35,0.80,24.97,M,15.25,M,1,3335*77
$GNRMC,101558.000,A,2500.7897600,N,12132.4693700,E,0.01,223.23,260623,,,D,V*0B
$GPHDT,,T*1B
$GNGGA,101558.200,2500.7897600,N,12132.4693700,E,2,34,0.80,24.98,M,15.25,M,1,3335*7B
$GNRMC,101558.200,A,2500.7897600,N,12132.4693700,E,0.02,223.23,260623,,,D,V*0A
$GPHDT,,T*1B
$GNGGA,101558.400,2500.7897600,N,12132.4693700,E,2,34,0.80,24.98,M,15.25,M,1,3335*7D
$GNRMC,101558.400,A,2500.7897600,N,12132.4693700,E,0.00,223.23,260623,,,D,V*0E
$GPHDT,,T*1B
$GNGGA,101558.600,2500.7897600,N,12132.4693700,E,2,34,0.80,24.97,M,15.25,M,1,3335*70
$GNRMC,101558.600,A,2500.7897600,N,12132.4693700,E,0.01,223.23,260623,,,D,V*0D
$GPHDT,,T*1B
$GNGGA,101558.800,2500.7897700,N,12132.4693700,E,2,34,0.80,24.96,M,15.25,M,1,3335*7E
$GNRMC,101558.800,A,2500.7897700,N,12132.4693700,E,0.06,223.23,260623,,,D,V*05
$GPHDT,,T*1B
$GNGSA,A,3,196,24,195,13,194,29,,,,,,,1.33,0.80,1.06,1*3F
$GNGSA,A,3,84,80,79,,,,,,,,,,1.33,0.80,1.06,2*06
$GNGSA,A,3,15,03,,,,,,,,,,,1.33,0.80,1.06,3*0A
$GNGSA,A,3,38,39,08,16,06,20,09,29,46,30,32,37,1.33,0.80,1.06,4*06
$GPGSV,3,1,12,199,73,011,,196,73,050,23,24,65,172,40,195,47,177,44,1*54
$GPGSV,3,2,12,45,47,231,40,05,37,086,13,13,30,037,32,194,20,146,31,1*56
$GPGSV,3,3,12,29,18,220,29,11,05,149,,12,03,165,18,15,,,24,1*5E
$GPGSV,1,1,04,196,73,050,28,24,65,172,38,195,47,177,45,194,20,146,26,8*51
$GLGSV,1,1,04,84,44,204,30,80,31,126,28,79,26,065,36,69,25,038,32,1*7E
$GAGSV,1,1,03,15,51,170,43,03,24,045,41,30,07,161,,7*42
$GAGSV,1,1,02,15,51,170,39,03,24,045,39,1*75
$GBGSV,3,1,12,38,73,035,25,39,71,226,40,08,63,005,24,16,62,216,43,1*78
$GBGSV,3,2,12,06,60,215,43,20,49,022,35,09,43,214,41,29,40,237,47,1*7A
$GBGSV,3,3,12,46,37,149,40,37,34,076,,30,16,181,18,32,14,073,23,1*7D
$GBGSV,2,1,07,38,73,035,32,39,71,226,38,20,49,022,18,29,40,237,43,4*76
$GBGSV,2,2,07,46,37,149,33,37,34,076,37,30,16,181,26,4*40
$GNGGA,101559.000,2500.7897700,N,12132.4693700,E,2,34,0.80,24.97,M,15.25,M,2,3335*75
$GNRMC,101559.000,A,2500.7897700,N,12132.4693700,E,0.02,223.23,260623,,,D,V*08
$GPHDT,,T*1B
$GNGGA,101559.200,2500.7897700,N,12132.4693700,E,2,34,0.80,24.97,M,15.25,M,2,3335*77
$GNRMC,101559.200,A,2500.7897700,N,12132.4693700,E,0.01,223.23,260623,,,D,V*09
$GPHDT,,T*1B
$GNGGA,101559.400,2500.7897700,N,12132.4693700,E,2,34,0.80,24.97,M,15.25,M,2,3335*71
$GNRMC,101559.400,A,2500.7897700,N,12132.4693700,E,0.01,223.23,260623,,,D,V*0F
$GPHDT,,T*1B
$GNGGA,101559.600,2500.7897700,N,12132.4693700,E,2,34,0.80,24.96,M,15.25,M,2,3335*72
$GNRMC,101559.600,A,2500.7897700,N,12132.4693700,E,0.01,223.23,260623,,,D,V*0D
$GPHDT,,T*1B
$GNGGA,101559.800,2500.7897700,N,12132.4693700,E,2,34,0.80,24.98,M,15.25,M,2,3335*72
$GNRMC,101559.800,A,2500.7897700,N,12132.4693700,E,0.02,223.23,260623,,,D,V*00
$GPHDT,,T*1B
$GNGSA,A,3,196,24,195,13,194,29,,,,,,,1.33,0.80,1.06,1*3F
$GNGSA,A,3,84,80,79,,,,,,,,,,1.33,0.80,1.06,2*06
$GNGSA,A,3,15,03,,,,,,,,,,,1.33,0.80,1.06,3*0A
$GNGSA,A,3,38,39,08,16,06,20,09,29,46,30,32,37,1.33,0.80,1.06,4*06
$GPGSV,3,1,12,199,73,011,,196,73,050,23,24,65,172,40,195,47,177,44,1*54
$GPGSV,3,2,12,45,47,231,40,05,37,086,13,13,30,037,32,194,20,146,31,1*56
$GPGSV,3,3,12,29,18,220,30,11,05,149,,12,03,165,18,15,,,26,1*54
$GPGSV,1,1,04,196,73,050,29,24,65,172,40,195,47,177,45,194,20,146,27,8*5E
$GLGSV,1,1,04,84,44,204,30,80,31,126,29,79,26,065,35,69,25,038,34,1*7A
$GAGSV,1,1,03,15,51,170,43,03,24,045,42,30,07,161,,7*41
$GAGSV,1,1,02,15,51,170,39,03,24,045,40,1*7B
$GBGSV,3,1,12,38,73,035,26,39,71,226,40,08,63,005,24,16,62,216,43,1*7B
$GBGSV,3,2,12,06,60,215,43,20,49,022,34,09,43,214,41,29,40,237,47,1*7B
$GBGSV,3,3,12,46,37,149,40,37,34,076,,30,16,181,17,32,14,073,22,1*73
$GBGSV,2,1,07,38,73,035,32,39,71,226,38,20,49,022,19,29,40,237,43,4*77
$GBGSV,2,2,07,46,37,149,32,37,34,076,37,30,16,181,26,4*41
$GNGGA,101600.000,2500.7897700,N,12132.4693700,E,2,35,0.80,24.96,M,15.25,M,3,3335*7B
$GNRMC,101600.000,A,2500.7897700,N,12132.4693700,E,0.01,223.23,260623,,,D,V*04
$GPHDT,,T*1B
$GNGGA,101600.200,2500.7897700,N,12132.4693700,E,2,36,0.80,24.96,M,15.25,M,3,3335*7A
$GNRMC,101600.200,A,2500.7897700,N,12132.4693700,E,0.00,223.23,260623,,,D,V*07
$GPHDT,,T*1B
$GNGGA,101600.400,2500.7897700,N,12132.4693700,E,2,35,0.83,24.96,M,15.25,M,3,3335*7C
$GNRMC,101600.400,A,2500.7897700,N,12132.4693700,E,0.00,223.23,260623,,,D,V*01
$GPHDT,,T*1B
$GNGGA,101600.600,2500.7897800,N,12132.4693700,E,2,35,0.83,24.96,M,15.25,M,3,3335*71
$GNRMC,101600.600,A,2500.7897800,N,12132.4693700,E,0.00,223.23,260623,,,D,V*0C
$GPHDT,,T*1B
$GNGGA,101600.800,2500.7897800,N,12132.4693700,E,2,36,0.80,24.95,M,15.25,M,3,3335*7C
$GNRMC,101600.800,A,2500.7897800,N,12132.4693700,E,0.01,223.23,260623,,,D,V*03
$GPHDT,,T*1B
$GNGSA,A,3,196,24,195,13,194,29,,,,,,,1.33,0.80,1.06,1*3F
$GNGSA,A,3,84,80,79,,,,,,,,,,1.33,0.80,1.06,2*06
$GNGSA,A,3,15,03,,,,,,,,,,,1.33,0.80,1.06,3*0A
$GNGSA,A,3,38,39,08,16,06,20,09,29,46,37,30,32,1.33,0.80,1.06,4*06
$GPGSV,3,1,12,199,73,011,,196,73,050,23,24,65,172,40,195,47,177,44,1*54
$GPGSV,3,2,12,45,47,231,40,05,37,086,11,13,30,037,32,194,20,146,31,1*54
$GPGSV,3,3,12,29,18,220,31,11,05,149,,12,03,165,21,15,,,26,1*5F
$GPGSV,1,1,04,196,73,050,29,24,65,172,40,195,47,177,45,194,20,146,27,8*5E
$GLGSV,1,1,04,84,44,204,30,80,31,126,31,79,26,065,35,69,25,038,34,1*73
$GAGSV,1,1,04,15,51,170,43,03,24,045,42,30,07,161,,25,04,066,,7*75
$GAGSV,1,1,02,15,51,170,39,03,24,045,40,1*7B
$GBGSV,3,1,12,38,73,035,26,39,71,226,40,08,63,005,24,16,62,216,43,1*7B
$GBGSV,3,2,12,06,60,215,43,20,49,022,34,09,43,214,41,29,40,237,47,1*7B
$GBGSV,3,3,12,46,37,149,40,37,34,076,28,30,16,181,17,32,14,073,22,1*79
$GBGSV,2,1,07,38,73,035,31,39,71,226,38,20,49,022,18,29,40,237,43,4*75
$GBGSV,2,2,07,46,37,149,31,37,34,076,37,30,16,181,26,4*42
$GNGGA,101601.000,2500.7897800,N,12132.4693700,E,2,36,0.80,24.96,M,15.25,M,3,3335*76
$GNRMC,101601.000,A,2500.7897800,N,12132.4693700,E,0.00,223.23,260623,,,D,V*0B
$GPHDT,,T*1B
$GNGGA,101601.200,2500.7897800,N,12132.4693700,E,2,36,0.80,24.95,M,15.25,M,3,3335*77
$GNRMC,101601.200,A,2500.7897800,N,12132.4693700,E,0.00,223.23,260623,,,D,V*09
$GPHDT,,T*1B
$GNGGA,101601.400,2500.7897900,N,12132.4693700,E,2,36,0.80,24.95,M,15.25,M,1,3335*72
$GNRMC,101601.400,A,2500.7897900,N,12132.4693700,E,0.01,223.23,260623,,,D,V*0F
$GPHDT,,T*1B
$GNGGA,101601.600,2500.7897900,N,12132.4693700,E,2,36,0.80,24.95,M,15.25,M,0,3335*71
$GNRMC,101601.600,A,2500.7897900,N,12132.4693700,E,0.00,223.23,260623,,,D,V*0C
$GPHDT,,T*1B
$GNGGA,101601.800,2500.7897900,N,12132.4693700,E,2,36,0.80,24.95,M,15.25,M,0,3335*7F
$GNRMC,101601.800,A,2500.7897900,N,12132.4693700,E,0.00,223.23,260623,,,D,V*02
$GPHDT,,T*1B
$GNGSA,A,3,196,24,195,13,194,29,,,,,,,1.37,0.80,1.11,1*3D
$GNGSA,A,3,84,80,79,,,,,,,,,,1.37,0.80,1.11,2*04
$GNGSA,A,3,15,03,,,,,,,,,,,1.37,0.80,1.11,3*08
$GNGSA,A,3,38,39,08,16,06,20,09,29,46,37,30,,1.37,0.80,1.11,4*05
$GPGSV,3,1,12,199,73,011,,196,73,050,23,24,65,172,40,195,47,177,44,1*54
$GPGSV,3,2,12,45,47,231,40,05,37,086,13,13,30,037,33,194,20,146,32,1*54
$GPGSV,3,3,12,29,18,220,31,11,05,149,,12,03,164,18,15,,,26,1*54
$GPGSV,1,1,04,196,73,050,29,24,65,172,40,195,47,177,45,194,20,146,26,8*5F
$GLGSV,1,1,04,84,44,204,30,80,31,126,31,79,26,065,35,69,25,038,33,1*74
$GAGSV,1,1,04,15,51,170,43,03,24,045,42,26,14,323,,25,04,066,,7*74
$GAGSV,1,1,02,15,51,170,39,03,24,045,39,1*75
$GBGSV,3,1,12,38,73,035,26,39,71,226,40,08,63,005,24,16,62,216,43,1*7B
$GBGSV,3,2,12,06,60,215,43,20,49,022,34,09,43,214,41,29,40,237,46,1*7A
$GBGSV,3,3,12,46,37,149,40,37,34,076,27,30,16,181,17,32,14,073,21,1*75
$GBGSV,2,1,07,38,73,035,31,39,71,226,38,20,49,022,18,29,40,237,43,4*75
$GBGSV,2,2,07,46,37,149,31,37,34,076,36,30,16,181,26,4*43
$GNGGA,101602.000,2500.7897900,N,12132.4693700,E,2,35,0.80,24.95,M,15.25,M,1,3335*76
$GNRMC,101602.000,A,2500.7897900,N,12132.4693700,E,0.01,223.23,260623,,,D,V*08
$GPHDT,,T*1B
$GNGGA,101602.200,2500.7897900,N,12132.4693700,E,2,35,0.80,24.95,M,15.25,M,1,3335*74
$GNRMC,101602.200,A,2500.7897900,N,12132.4693700,E,0.00,223.23,260623,,,D,V*0B
$GPHDT,,T*1B
$GNGGA,101602.400,2500.7897900,N,12132.4693700,E,2,35,0.80,24.95,M,15.25,M,1,3335*72
$GNRMC,101602.400,A,2500.7897900,N,12132.4693700,E,0.01,223.23,260623,,,D,V*0C
$GPHDT,,T*1B
$GNGGA,101602.600,2500.7898000,N,12132.4693700,E,2,35,0.80,24.95,M,15.25,M,1,3335*76
$GNRMC,101602.600,A,2500.7898000,N,12132.4693700,E,0.00,223.23,260623,,,D,V*09
$GPHDT,,T*1B
$GNGGA,101602.800,2500.7898000,N,12132.4693700,E,2,35,0.80,24.94,M,15.25,M,0,3335*78
$GNRMC,101602.800,A,2500.7898000,N,12132.4693700,E,0.00,223.23,260623,,,D,V*07
$GPHDT,,T*1B
$GNGSA,A,3,196,24,195,13,194,29,,,,,,,1.37,0.80,1.11,1*3D
$GNGSA,A,3,84,80,79,,,,,,,,,,1.37,0.80,1.11,2*04
$GNGSA,A,3,15,03,,,,,,,,,,,1.37,0.80,1.11,3*08
$GNGSA,A,3,38,39,08,16,06,20,09,29,46,37,30,,1.37,0.80,1.11,4*05
$GPGSV,3,1,12,199,73,011,,196,73,050,24,24,65,172,40,195,47,177,44,1*53
$GPGSV,3,2,12,45,47,231,40,05,37,086,16,13,30,037,34,194,20,146,32,1*56
$GPGSV,3,3,12,29,18,220,31,11,05,149,,12,03,164,20,15,,,27,1*5E
$GPGSV,1,1,04,196,73,050,28,24,65,172,40,195,47,177,45,194,20,146,26,8*5E
$GLGSV,1,1,04,84,44,204,30,80,31,126,30,79,26,065,35,69,25,038,33,1*75
$GAGSV,1,1,04,15,51,170,43,03,24,045,42,26,14,323,,25,04,066,,7*74
$GAGSV,1,1,02,15,51,170,39,03,24,045,39,1*75
$GBGSV,3,1,12,38,73,035,25,39,71,226,40,08,63,005,23,16,62,216,43,1*7F
$GBGSV,3,2,12,06,60,215,43,20,49,022,34,09,43,214,41,29,40,237,46,1*7A
$GBGSV,3,3,12,46,37,149,40,37,34,076,28,30,16,181,17,32,14,073,21,1*7A
$GBGSV,2,1,07,38,73,035,31,39,71,226,38,20,49,022,19,29,40,237,43,4*74
$GBGSV,2,2,07,46,37,149,31,37,34,076,36,30,16,181,25,4*40
$GNGGA,101603.000,2500.7898000,N,12132.4693700,E,2,35,0.80,24.95,M,15.25,M,1,3335*71
$GNRMC,101603.000,A,2500.7898000,N,12132.4693700,E,0.01,223.23,260623,,,D,V*0F
$GPHDT,,T*1B
$GNGGA,101603.200,2500.7898000,N,12132.4693800,E,2,35,0.80,24.95,M,15.25,M,1,3335*7C
$GNRMC,101603.200,A,2500.7898000,N,12132.4693800,E,0.00,223.23,260623,,,D,V*03
$GPHDT,,T*1B
$GNGGA,101603.400,2500.7898000,N,12132.4693800,E,2,35,0.80,24.95,M,15.25,M,1,3335*7A
$GNRMC,101603.400,A,2500.7898000,N,12132.4693800,E,0.01,223.23,260623,,,D,V*04
$GPHDT,,T*1B
$GNGGA,101603.600,2500.7898000,N,12132.4693800,E,2,36,0.78,24.95,M,15.25,M,1,3335*7C
$GNRMC,101603.600,A,2500.7898000,N,12132.4693800,E,0.09,223.23,260623,,,D,V*0E
$GPHDT,,T*1B
$GNGGA,101603.800,2500.7898000,N,12132.4693800,E,2,36,0.78,24.95,M,15.25,M,1,3335*72
$GNRMC,101603.800,A,2500.7898000,N,12132.4693800,E,0.02,223.23,260623,,,D,V*0B
$GPHDT,,T*1B
$GNGSA,A,3,196,24,195,05,13,194,29,,,,,,1.36,0.78,1.11,1*3E
$GNGSA,A,3,84,80,79,,,,,,,,,,1.36,0.78,1.11,2*02
$GNGSA,A,3,15,03,,,,,,,,,,,1.36,0.78,1.11,3*0E
$GNGSA,A,3,38,39,08,16,06,20,09,29,46,37,30,,1.36,0.78,1.11,4*03
$GPGSV,3,1,12,199,73,011,,196,73,050,24,24,65,172,40,195,47,177,44,1*53
$GPGSV,3,2,12,45,47,231,40,05,37,086,25,13,30,037,36,194,20,146,32,1*54
$GPGSV,3,3,12,29,18,220,30,11,05,149,,12,03,164,19,15,,,28,1*5A
$GPGSV,1,1,04,196,73,050,31,24,65,172,40,195,47,177,45,194,20,146,27,8*57
$GLGSV,1,1,04,84,44,204,30,80,31,126,30,79,26,065,36,69,25,038,33,1*76
$GAGSV,1,1,04,15,51,170,43,03,24,045,42,26,14,323,,25,04,066,,7*74
$GAGSV,1,1,02,15,51,170,40,03,24,045,40,1*75
$GBGSV,3,1,12,38,73,035,27,39,71,226,40,08,63,005,22,16,62,216,43,1*7C
$GBGSV,3,2,12,06,60,215,43,20,49,022,33,09,43,214,41,29,40,237,45,1*7E
$GBGSV,3,3,12,46,37,149,40,37,34,076,30,30,16,181,15,32,14,073,21,1*71
$GBGSV,2,1,07,38,73,035,31,39,71,226,38,20,49,022,24,29,40,237,43,4*7A
$GBGSV,2,2,07,46,37,149,29,37,34,076,36,30,16,181,25,4*49
$GNGGA,101604.000,2500.7898100,N,12132.4693800,E,2,36,0.78,24.95,M,15.25,M,2,3335*7F
$GNRMC,101604.000,A,2500.7898100,N,12132.4693800,E,0.02,223.23,260623,,,D,V*05
$GPHDT,,T*1B
$GNGGA,101604.200,2500.7898100,N,12132.4693800,E,2,35,0.78,24.94,M,15.25,M,2,3335*7F
$GNRMC,101604.200,A,2500.7898100,N,12132.4693800,E,0.02,223.23,260623,,,D,V*07
$GPHDT,,T*1B
$GNGGA,101604.400,2500.7898100,N,12132.4693800,E,2,35,0.78,24.95,M,15.25,M,2,3335*78
$GNRMC,10160