$FW : RTK35X,V1.1X0314AS,Lib20210517,1*54
$Tool : LOCOSYS , GNSS Firebird , v1.0.0.19*39
$---------------------------------------------------*2D
$GNGGA,101639.400,2500.7896800,N,12132.4692800,E,2,38,0.73,24.03,M,15.25,M,1,3335*7A
$GNRMC,101639.400,A,2500.7896800,N,12132.4692800,E,0.04,208.13,260623,,,D,V*05
$GPHDT,,T*1B
$GNGGA,101639.600,2500.7896800,N,12132.4692800,E,2,38,0.73,24.02,M,15.25,M,1,3335*79
$GNRMC,101639.600,A,2500.7896800,N,12132.4692800,E,0.19,208.13,260623,,,D,V*0B
$GPHDT,,T*1B
$GNGGA,101639.800,2500.7896800,N,12132.4692800,E,2,38,0.73,24.02,M,15.25,M,1,3335*77
$GNRMC,101639.800,A,2500.7896800,N,12132.4692800,E,0.25,208.13,260623,,,D,V*0A
$GPHDT,,T*1B
$GNGSA,A,3,196,24,15,195,13,194,29,,,,,,1.27,0.76,1.02,1*33
$GNGSA,A,3,84,80,79,69,,,,,,,,,1.27,0.76,1.02,2*01
$GNGSA,A,3,15,03,,,,,,,,,,,1.27,0.76,1.02,3*02
$GNGSA,A,3,38,39,08,16,06,09,29,46,37,30,20,32,1.27,0.76,1.02,4*0E
$GPGSV,3,1,12,199,73,011,,196,73,050,24,24,65,172,42,15,54,009,19,1*6A
$GPGSV,3,2,12,45,47,231,40,195,47,177,44,05,37,087,21,13,30,037,33,1*57
$GPGSV,3,3,12,194,20,146,34,29,18,220,26,11,04,149,,12,03,164,17,1*56
$GPGSV,1,1,04,196,73,050,34,24,65,172,44,195,47,177,44,194,20,146,24,8*54
$GLGSV,1,1,04,84,44,204,33,80,31,126,35,79,26,065,38,69,25,038,28,1*74
$GAGSV,2,1,05,15,51,170,43,03,24,045,39,26,14,323,,30,08,161,,7*74
$GAGSV,2,2,05,25,04,066,,7*45
$GAGSV,1,1,02,15,51,170,43,03,24,045,42,1*74
$GBGSV,3,1,12,38,73,035,34,39,71,227,41,08,63,005,28,16,62,216,42,1*75
$GBGSV,3,2,12,06,60,215,43,20,49,022,,09,43,214,41,29,40,237,45,1*7E
$GBGSV,3,3,12,46,37,149,36,37,34,076,41,30,16,181,15,32,14,074,20,1*70
$GBGSV,2,1,08,38,73,035,33,39,71,227,40,20,49,022,14,29,40,237,43,4*7A
$GBGSV,2,2,08,46,37,149,32,37,34,076,38,30,16,181,21,32,14,074,25,4*76
$GNGGA,101640.000,2500.7896800,N,12132.4692800,E,2,37,0.76,24.02,M,15.25,M,2,3335*78
$GNRMC,101640.000,A,2500.7896800,N,12132.4692800,E,0.02,208.13,260623,,,D,V*09
$PAIR010,0,1,2268,123418*39
$GPHDT,,T*1B
$GNGGA,101640.200,2500.7896800,N,12132.4692800,E,2,37,0.76,24.02,M,15.25,M,2,3335*7A
$GNRMC,101640.200,A,2500.7896800,N,12132.4692800,E,0.02,208.13,260623,,,D,V*0B
$GPHDT,,T*1B
$GNGGA,101640.400,2500.7896800,N,12132.4692800,E,2,37,0.76,24.00,M,15.25,M,2,3335*7E
$GNRMC,101640.400,A,2500.7896800,N,12132.4692800,E,0.02,208.13,260623,,,D,V*0D
$GPHDT,,T*1B
$GNGGA,101640.600,2500.7896800,N,12132.4692800,E,2,38,0.73,23.99,M,15.25,M,2,3335*71
$GNRMC,101640.600,A,2500.7896800,N,12132.4692800,E,0.23,208.13,260623,,,D,V*0C
$GPHDT,,T*1B
$GNGGA,101640.800,2500.7896700,N,12132.4692800,E,2,38,0.73,23.97,M,15.25,M,2,3335*7E
$GNRMC,101640.800,A,2500.7896700,N,12132.4692800,E,0.15,208.13,260623,,,D,V*08
$GPHDT,,T*1B
$GNGSA,A,3,196,24,15,195,05,13,194,29,,,,,1.26,0.73,1.02,1*32
$GNGSA,A,3,84,80,79,69,,,,,,,,,1.26,0.73,1.02,2*05
$GNGSA,A,3,15,03,,,,,,,,,,,1.26,0.73,1.02,3*06
$GNGSA,A,3,38,39,08,16,06,09,29,46,37,20,30,32,1.26,0.73,1.02,4*0A
$GPGSV,3,1,12,199,73,011,,196,73,050,22,24,65,172,42,15,54,009,19,1*6C
$GPGSV,3,2,12,45,47,231,40,195,47,177,44,05,37,087,22,13,30,037,34,1*53
$GPGSV,3,3,12,194,20,146,34,29,18,220,26,11,04,149,,12,03,164,18,1*59
$GPGSV,1,1,04,196,73,050,34,24,65,172,43,195,47,177,44,194,20,146,23,8*54
$GLGSV,1,1,04,84,44,204,33,80,31,126,36,79,26,065,38,69,25,038,27,1*78
$GAGSV,2,1,05,15,51,170,43,03,24,045,39,26,14,323,,30,08,161,,7*74
$GAGSV,2,2,05,25,04,066,,7*45
$GAGSV,1,1,02,15,51,170,43,03,24,045,42,1*74
$GBGSV,3,1,12,38,73,035,34,39,71,227,41,08,63,005,27,16,62,216,42,1*7A
$GBGSV,3,2,12,06,60,215,43,20,49,022,,09,43,214,41,29,40,237,45,1*7E
$GBGSV,3,3,12,46,37,149,36,37,34,076,40,30,16,181,15,32,14,074,17,1*75
$GBGSV,2,1,08,38,73,035,33,39,71,227,40,20,49,022,11,29,40,237,42,4*7E
$GBGSV,2,2,08,46,37,149,32,37,34,076,38,30,16,181,21,32,14,074,25,4*76
$GNGGA,101641.000,2500.7896700,N,12132.4692800,E,2,37,0.73,23.97,M,15.25,M,3,3335*79
$GNRMC,101641.000,A,2500.7896700,N,12132.4692800,E,0.03,208.13,260623,,,D,V*06
$GPHDT,,T*1B
$GNGGA,101641.200,2500.7896700,N,12132.4692800,E,2,37,0.73,23.95,M,15.25,M,3,3335*79
$GNRMC,101641.200,A,2500.7896700,N,12132.4692800,E,0.02,208.13,260623,,,D,V*05
$GPHDT,,T*1B
$GNGGA,101641.400,2500.7896700,N,12132.4692800,E,2,36,0.75,23.96,M,15.25,M,3,3335*7B
$GNRMC,101641.400,A,2500.7896700,N,12132.4692800,E,0.02,208.13,260623,,,D,V*03
$GPHDT,,T*1B
$GNGGA,101641.600,2500.7896600,N,12132.4692800,E,2,35,0.77,23.94,M,15.25,M,3,3335*7B
$GNRMC,101641.600,A,2500.7896600,N,12132.4692800,E,0.03,208.13,260623,,,D,V*01
$GPHDT,,T*1B
$GNGGA,101641.800,2500.7896500,N,12132.4692900,E,2,35,0.77,23.92,M,15.25,M,3,3335*71
$GNRMC,101641.800,A,2500.7896500,N,12132.4692900,E,0.02,208.13,260623,,,D,V*0C
$GPHDT,,T*1B
$GNGSA,A,3,196,24,195,05,13,194,29,,,,,,1.28,0.77,1.02,1*3C
$GNGSA,A,3,84,80,79,69,,,,,,,,,1.28,0.77,1.02,2*0F
$GNGSA,A,3,15,03,,,,,,,,,,,1.28,0.77,1.02,3*0C
$GNGSA,A,3,38,39,08,16,06,09,29,46,37,30,32,,1.28,0.77,1.02,4*02
$GPGSV,3,1,12,199,73,011,,196,73,050,24,24,65,172,42,15,54,009,24,1*64
$GPGSV,3,2,12,45,47,231,40,195,47,177,44,05,37,087,17,13,30,037,35,1*54
$GPGSV,3,3,12,194,20,146,34,29,18,220,25,11,04,149,,12,03,164,18,1*5A
$GPGSV,1,1,04,196,73,050,34,24,65,172,43,195,47,177,44,194,20,146,23,8*54
$GLGSV,2,1,05,84,44,204,33,80,31,126,35,79,26,065,37,69,25,038,26,1*77
$GLGSV,2,2,05,71,10,279,,1*46
$GAGSV,1,1,04,15,51,170,43,03,24,045,39,26,14,323,,30,08,161,,7*76
$GAGSV,1,1,02,15,51,170,44,03,24,045,42,1*73
$GBGSV,4,1,14,38,73,035,33,39,71,227,41,08,63,005,26,16,62,216,42,1*7D
$GBGSV,4,2,14,06,60,215,43,20,49,022,,09,43,214,41,29,40,237,45,1*7F
$GBGSV,4,3,14,46,37,149,36,37,34,076,40,35,22,300,,30,16,181,19,1*7C
$GBGSV,4,4,14,32,14,074,14,36,08,190,,1*74
$GBGSV,2,1,07,38,73,035,33,39,71,227,40,29,40,237,42,46,37,149,33,4*74
$GBGSV,2,2,07,37,34,076,38,30,16,181,23,32,14,074,25,4*40
$GNGGA,101642.000,2500.7896500,N,12132.4692900,E,2,35,0.77,23.92,M,15.25,M,4,3335*7D
$GNRMC,101642.000,A,2500.7896500,N,12132.4692900,E,0.01,208.13,260623,,,D,V*04
$GPHDT,,T*1B
$GNGGA,101642.200,2500.7896500,N,12132.4692900,E,2,36,0.77,23.91,M,15.25,M,2,3335*79
$GNRMC,101642.200,A,2500.7896500,N,12132.4692900,E,0.03,208.13,260623,,,D,V*04
$GPHDT,,T*1B
$GNGGA,101642.400,2500.7896500,N,12132.4692900,E,2,37,0.75,23.91,M,15.25,M,1,3335*7F
$GNRMC,101642.400,A,2500.7896500,N,12132.4692900,E,0.06,208.13,260623,,,D,V*07
$GPHDT,,T*1B
$GNGGA,101642.600,2500.7896400,N,12132.4692900,E,2,37,0.75,23.89,M,15.25,M,1,3335*75
$GNRMC,101642.600,A,2500.7896400,N,12132.4692900,E,0.06,208.13,260623,,,D,V*04
$GPHDT,,T*1B
$GNGGA,101642.800,2500.7896400,N,12132.4692900,E,2,37,0.75,23.87,M,15.25,M,1,3335*75
$GNRMC,101642.800,A,2500.7896400,N,12132.4692900,E,0.06,208.13,260623,,,D,V*0A
$GPHDT,,T*1B
$GNGSA,A,3,196,24,15,195,05,13,194,29,,,,,1.27,0.75,1.02,1*35
$GNGSA,A,3,84,80,79,69,,,,,,,,,1.27,0.75,1.02,2*02
$GNGSA,A,3,15,03,,,,,,,,,,,1.27,0.75,1.02,3*01
$GNGSA,A,3,38,39,08,16,06,09,29,46,37,30,32,,1.27,0.75,1.02,4*0F
$GPGSV,3,1,12,199,73,011,,196,73,050,25,24,65,172,42,15,54,009,24,1*65
$GPGSV,3,2,12,45,47,231,40,195,47,177,44,05,37,087,14,13,30,037,35,1*57
$GPGSV,3,3,12,194,20,146,34,29,18,220,27,11,04,149,,12,03,164,21,1*52
$GPGSV,1,1,04,196,73,050,34,24,65,172,43,195,47,177,44,194,20,146,24,8*53
$GLGSV,2,1,05,84,44,204,33,80,31,126,35,79,26,065,37,69,25,038,27,1*76
$GLGSV,2,2,05,86,08,331,,1*4A
$GAGSV,1,1,04,15,51,170,44,03,24,045,39,26,14,323,,30,08,161,,7*71
$GAGSV,1,1,02,15,51,170,44,03,24,045,42,1*73
$GBGSV,3,1,12,38,73,035,33,39,71,227,41,08,63,005,27,16,62,216,42,1*7D
$GBGSV,3,2,12,06,60,215,43,20,49,022,,09,43,214,41,29,40,237,45,1*7E
$GBGSV,3,3,12,46,37,149,35,37,34,076,40,30,16,181,20,32,14,074,13,1*74
$GBGSV,2,1,07,38,73,035,33,39,71,227,40,29,40,237,43,46,37,149,33,4*75
$GBGSV,2,2,07,37,34,076,38,30,16,181,22,32,14,074,26,4*42
$GNGGA,101643.000,2500.7896300,N,12132.4692900,E,2,37,0.75,23.86,M,15.25,M,2,3335*79
$GNRMC,101643.000,A,2500.7896300,N,12132.4692900,E,0.01,208.13,260623,,,D,V*03
$GPHDT,,T*1B
$GNGGA,101643.200,2500.7896300,N,12132.4692900,E,2,37,0.75,23.86,M,15.25,M,2,3335*7B
$GNRMC,101643.200,A,2500.7896300,N,12132.4692900,E,0.01,208.13,260623,,,D,V*01
$GPHDT,,T*1B
$GNGGA,101643.400,2500.7896300,N,12132.4693000,E,2,37,0.75,23.86,M,15.25,M,2,3335*75
$GNRMC,101643.400,A,2500.7896300,N,12132.4693000,E,0.02,208.13,260623,,,D,V*0C
$GPHDT,,T*1B
$GNGGA,101643.600,2500.7896200,N,12132.4693000,E,2,37,0.75,23.84,M,15.25,M,2,3335*74
$GNRMC,101643.600,A,2500.7896200,N,12132.4693000,E,0.02,208.13,260623,,,D,V*0F
$GPHDT,,T*1B
$GNGGA,101643.800,2500.7896200,N,12132.4693000,E,2,37,0.75,23.83,M,15.25,M,2,3335*7D
$GNRMC,101643.800,A,2500.7896200,N,12132.4693000,E,0.20,208.13,260623,,,D,V*01
$GPHDT,,T*1B
$GNGSA,A,3,196,24,195,13,194,29,,,,,,,1.30,0.79,1.03,1*3F
$GNGSA,A,3,84,80,79,69,,,,,,,,,1.30,0.79,1.03,2*09
$GNGSA,A,3,15,03,,,,,,,,,,,1.30,0.79,1.03,3*0A
$GNGSA,A,3,38,39,08,16,06,09,29,46,37,30,32,,1.30,0.79,1.03,4*04
$GPGSV,4,1,13,196,73,050,25,199,73,011,,24,65,172,42,15,54,009,22,1*65
$GPGSV,4,2,13,195,47,177,44,45,47,231,40,05,37,087,15,13,30,037,35,1*50
$GPGSV,4,3,13,194,20,146,34,29,18,220,26,11,04,149,,12,03,164,22,1*56
$GPGSV,4,4,13,23,,,23,1*66
$GPGSV,1,1,04,196,73,050,33,24,65,172,43,195,47,177,44,194,20,146,24,8*54
$GLGSV,1,1,04,84,44,204,33,80,31,126,35,79,26,065,37,69,25,038,26,1*75
$GAGSV,1,1,04,15,51,170,44,03,24,045,39,26,14,323,,30,08,161,,7*71
$GAGSV,1,1,02,15,51,170,44,03,24,045,42,1*73
$GBGSV,3,1,12,38,73,035,33,39,71,227,41,08,63,005,28,16,62,216,42,1*72
$GBGSV,3,2,12,06,60,215,43,20,49,022,,09,43,214,41,29,40,237,45,1*7E
$GBGSV,3,3,12,46,37,149,35,37,34,076,40,30,16,181,20,32,14,074,14,1*73
$GBGSV,2,1,07,38,73,035,33,39,71,227,40,29,40,237,43,46,37,149,33,4*75
$GBGSV,2,2,07,37,34,076,38,30,16,181,22,32,14,074,26,4*42
$GNGGA,101644.000,2500.7896200,N,12132.4693000,E,2,35,0.79,23.82,M,15.25,M,3,3335*7C
$GNRMC,101644.000,A,2500.7896200,N,12132.4693000,E,0.02,208.13,260623,,,D,V*0E
$GPHDT,,T*1B
$GNGGA,101644.200,2500.7896200,N,12132.4693000,E,2,36,0.77,23.82,M,15.25,M,3,3335*73
$GNRMC,101644.200,A,2500.7896200,N,12132.4693000,E,0.02,208.13,260623,,,D,V*0C
$GPHDT,,T*1B
$GNGGA,101644.400,2500.7896200,N,12132.4693000,E,2,36,0.77,23.81,M,15.25,M,3,3335*76
$GNRMC,101644.400,A,2500.7896200,N,12132.4693000,E,0.04,208.13,260623,,,D,V*0C
$GPHDT,,T*1B
$GNGGA,101644.600,2500.7896200,N,12132.4693000,E,2,37,0.75,23.80,M,15.25,M,3,3335*76
$GNRMC,101644.600,A,2500.7896200,N,12132.4693000,E,0.25,208.13,260623,,,D,V*0D
$GPHDT,,T*1B
$GNGGA,101644.800,2500.7896200,N,12132.4693000,E,2,37,0.75,23.79,M,15.25,M,3,3335*7E
$GNRMC,101644.800,A,2500.7896200,N,12132.4693000,E,0.19,208.13,260623,,,D,V*0C
$GPHDT,,T*1B
$GNGSA,A,3,196,24,15,195,05,13,194,29,,,,,1.27,0.75,1.02,1*35
$GNGSA,A,3,84,80,79,69,,,,,,,,,1.27,0.75,1.02,2*02
$GNGSA,A,3,15,03,,,,,,,,,,,1.27,0.75,1.02,3*01
$GNGSA,A,3,38,39,08,16,06,09,29,46,37,30,32,,1.27,0.75,1.02,4*0F
$GPGSV,3,1,12,199,73,011,,196,73,050,24,24,65,172,42,15,54,009,19,1*6A
$GPGSV,3,2,12,45,47,231,40,195,47,177,44,05,37,087,21,13,30,037,35,1*51
$GPGSV,3,3,12,194,20,146,34,29,18,220,25,11,04,149,,12,03,164,22,1*53
$GPGSV,1,1,04,196,73,050,33,24,65,172,43,195,47,177,44,194,20,146,23,8*53
$GLGSV,1,1,04,84,44,204,33,80,31,126,35,79,26,065,38,69,25,038,23,1*7F
$GAGSV,1,1,04,15,51,170,44,03,24,045,39,26,15,323,,30,08,161,,7*70
$GAGSV,1,1,02,15,51,170,44,03,24,045,42,1*73
$GBGSV,4,1,13,38,73,035,33,39,71,227,41,08,63,005,27,16,62,216,42,1*7B
$GBGSV,4,2,13,06,60,215,43,20,49,022,,09,43,214,42,29,40,237,45,1*7B
$GBGSV,4,3,13,46,37,149,35,37,34,076,40,30,16,181,22,32,14,074,18,1*7B
$GBGSV,4,4,13,07,07,199,,1*45
$GBGSV,2,1,07,38,73,035,32,39,71,227,40,29,40,237,43,46,37,149,32,4*75
$GBGSV,2,2,07,37,34,076,38,30,16,181,23,32,14,074,26,4*43
$GNGGA,101645.000,2500.7896100,N,12132.4693000,E,2,37,0.75,23.78,M,15.25,M,4,3335*72
$GNRMC,101645.000,A,2500.7896100,N,12132.4693000,E,0.05,208.13,260623,,,D,V*0B
$GPHDT,,T*1B
$GNGGA,101645.200,2500.7896200,N,12132.4692900,E,2,37,0.75,23.77,M,15.25,M,4,3335*74
$GNRMC,101645.200,A,2500.7896200,N,12132.4692900,E,0.00,208.13,260623,,,D,V*07
$GPHDT,,T*1B
$GNGGA,101645.400,2500.7896200,N,12132.4692900,E,2,37,0.75,23.77,M,15.25,M,2,3335*74
$GNRMC,101645.400,A,2500.7896200,N,12132.4692900,E,0.01,208.13,260623,,,D,V*00
$GPHDT,,T*1B
$GNGGA,101645.600,2500.7896100,N,12132.4693000,E,2,36,0.77,23.76,M,15.25,M,1,3335*7C
$GNRMC,101645.600,A,2500.7896100,N,12132.4693000,E,0.04,208.13,260623,,,D,V*0C
$GPHDT,,T*1B
$GNGGA,101645.800,2500.7896100,N,12132.4692900,E,2,36,0.77,23.74,M,15.25,M,0,3335*79
$GNRMC,101645.800,A,2500.7896100,N,12132.4692900,E,0.19,208.13,260623,,,D,V*06
$GPHDT,,T*1B
$GNGSA,A,3,196,24,15,195,05,13,194,29,,,,,1.27,0.75,1.02,1*35
$GNGSA,A,3,84,80,79,69,,,,,,,,,1.27,0.75,1.02,2*02
$GNGSA,A,3,15,03,,,,,,,,,,,1.27,0.75,1.02,3*01
$GNGSA,A,3,38,39,08,16,06,09,29,46,37,30,32,,1.27,0.75,1.02,4*0F
$GPGSV,3,1,12,199,73,011,,196,73,050,25,24,65,172,42,15,54,009,17,1*65
$GPGSV,3,2,12,45,47,231,40,195,47,177,44,05,37,087,24,13,30,037,35,1*54
$GPGSV,3,3,12,194,20,146,34,29,18,220,24,11,04,149,,12,03,164,19,1*5A
$GPGSV,1,1,04,196,73,050,33,24,65,172,43,195,47,177,44,194,20,146,23,8*53
$GLGSV,2,1,05,84,44,204,33,80,31,126,35,79,26,065,39,69,25,038,24,1*7B
$GLGSV,2,2,05,73,05,174,,1*4E
$GAGSV,1,1,04,15,51,170,44,03,24,045,39,26,15,323,,30,08,161,,7*70
$GAGSV,1,1,02,15,51,170,44,03,24,045,42,1*73
$GBGSV,3,1,12,38,73,035,34,39,71,227,41,08,63,005,27,16,62,216,42,1*7A
$GBGSV,3,2,12,06,60,215,43,20,49,022,,09,43,214,42,29,40,237,45,1*7D
$GBGSV,3,3,12,46,37,149,34,37,34,076,40,30,16,181,21,32,14,074,16,1*71
$GBGSV,2,1,07,38,73,035,32,39,71,227,40,29,40,237,43,46,37,149,32,4*75
$GBGSV,2,2,07,37,34,076,38,30,16,181,23,32,14,074,27,4*42
$GNGGA,101646.000,2500.7896100,N,12132.4692900,E,2,37,0.75,23.75,M,15.25,M,1,3335*71
$GNRMC,101646.000,A,2500.7896100,N,12132.4692900,E,0.01,208.13,260623,,,D,V*04
$GPHDT,,T*1B
$GNGGA,101646.200,2500.7896100,N,12132.4692900,E,2,37,0.75,23.73,M,15.25,M,1,3335*75
$GNRMC,101646.200,A,2500.7896100,N,12132.4692900,E,0.02,208.13,260623,,,D,V*05
$GPHDT,,T*1B
$GNGGA,101646.400,2500.7896100,N,12132.4692900,E,2,37,0.75,23.73,M,15.25,M,1,3335*73
$GNRMC,101646.400,A,2500.7896100,N,12132.4692900,E,0.03,208.13,260623,,,D,V*02
$GPHDT,,T*1B
$GNGGA,101646.600,2500.7896000,N,12132.4692900,E,2,37,0.75,23.71,M,15.25,M,1,3335*72
$GNRMC,101646.600,A,2500.7896000,N,12132.4692900,E,0.03,208.13,260623,,,D,V*01
$GPHDT,,T*1B
$GNGGA,101646.800,2500.7896100,N,12132.4692900,E,2,36,0.77,23.71,M,15.25,M,1,3335*7E
$GNRMC,101646.800,A,2500.7896100,N,12132.4692900,E,0.14,208.13,260623,,,D,V*08
$GPHDT,,T*1B
$GNGSA,A,3,196,24,195,05,13,194,29,,,,,,1.28,0.77,1.02,1*3C
$GNGSA,A,3,84,80,79,69,,,,,,,,,1.28,0.77,1.02,2*0F
$GNGSA,A,3,15,03,,,,,,,,,,,1.28,0.77,1.02,3*0C
$GNGSA,A,3,38,39,08,16,06,09,29,46,37,30,32,,1.28,0.77,1.02,4*02
$GPGSV,4,1,13,196,73,050,25,199,73,011,,24,65,172,42,15,54,009,17,1*63
$GPGSV,4,2,13,195,47,177,44,45,47,231,40,05,37,087,20,13,30,037,35,1*56
$GPGSV,4,3,13,194,20,146,34,29,18,220,26,11,04,149,,12,03,164,17,1*50
$GPGSV,4,4,13,27,,,19,1*6B
$GPGSV,1,1,04,196,73,050,33,24,65,172,43,195,47,177,44,194,20,146,23,8*53
$GLGSV,1,1,04,84,44,204,33,80,31,126,35,79,26,065,39,69,25,038,25,1*78
$GAGSV,2,1,05,15,51,170,44,03,24,045,39,26,15,323,,30,08,161,,7*72
$GAGSV,2,2,05,25,05,065,,7*47
$GAGSV,1,1,02,15,51,170,44,03,24,045,42,1*73
$GBGSV,3,1,12,38,73,035,34,39,71,227,41,08,63,005,27,16,62,216,42,1*7A
$GBGSV,3,2,12,06,60,215,43,20,49,022,,09,43,214,42,29,40,237,44,1*7C
$GBGSV,3,3,12,46,37,149,36,37,34,076,40,30,16,181,21,32,14,074,19,1*7C
$GBGSV,2,1,07,38,73,035,32,39,71,227,40,29,40,237,44,46,37,149,32,4*72
$GBGSV,2,2,07,37,34,076,39,30,16,181,21,32,14,074,27,4*41
$GNGGA,101647.000,2500.7896000,N,12132.4692900,E,2,36,0.77,23.71,M,15.25,M,2,3335*75
$GNRMC,101647.000,A,2500.7896000,N,12132.4692900,E,0.01,208.13,260623,,,D,V*04
$GPHDT,,T*1B
$GNGGA,101647.200,2500.7896000,N,12132.4692900,E,2,36,0.77,23.71,M,15.25,M,1,3335*74
$GNRMC,101647.200,A,2500.7896000,N,12132.4692900,E,0.05,208.13,260623,,,D,V*02
$GPHDT,,T*1B
$GNGGA,101647.400,2500.7896000,N,12132.4692900,E,2,36,0.77,23.70,M,15.25,M,1,3335*73
$GNRMC,101647.400,A,2500.7896000,N,12132.4692900,E,0.05,208.13,260623,,,D,V*04
$GPHDT,,T*1B
$GNGGA,101647.600,2500.7896000,N,12132.4693000,E,2,36,0.77,23.70,M,15.25,M,1,3335*79
$GNRMC,101647.600,A,2500.7896000,N,12132.4693000,E,0.06,208.13,260623,,,D,V*0D
$GPHDT,,T*1B
$GNGGA,101647.800,2500.7895900,N,12132.4693000,E,2,36,0.77,23.68,M,15.25,M,1,3335*74
$GNRMC,101647.800,A,2500.7895900,N,12132.4693000,E,0.03,208.13,260623,,,D,V*0C
$GPHDT,,T*1B
$GNGSA,A,3,196,24,195,05,13,194,29,,,,,,1.28,0.77,1.02,1*3C
$GNGSA,A,3,84,80,79,69,,,,,,,,,1.28,0.77,1.02,2*0F
$GNGSA,A,3,15,03,,,,,,,,,,,1.28,0.77,1.02,3*0C
$GNGSA,A,3,38,39,08,16,06,09,29,46,37,30,32,,1.28,0.77,1.02,4*02
$GPGSV,3,1,12,199,73,011,,196,73,050,25,24,65,172,42,15,54,009,21,1*60
$GPGSV,3,2,12,45,47,231,40,195,47,177,44,05,37,087,20,13,30,037,34,1*51
$GPGSV,3,3,12,194,20,146,34,29,18,220,25,11,04,149,,12,03,164,18,1*5A
$GPGSV,1,1,04,196,73,050,33,24,65,172,44,195,47,177,44,194,20,146,22,8*55
$GLGSV,1,1,04,84,44,204,33,80,31,126,35,79,26,065,40,69,25,038,25,1*76
$GAGSV,2,1,05,15,51,170,44,03,24,045,39,26,15,323,11,30,08,161,,7*72
$GAGSV,2,2,05,25,05,065,,7*47
$GAGSV,1,1,02,15,51,170,43,03,24,045,42,1*74
$GBGSV,3,1,12,38,73,035,34,39,71,227,41,08,63,005,27,16,62,216,42,1*7A
$GBGSV,3,2,12,06,60,215,43,20,49,022,,09,43,214,42,29,40,237,44,1*7C
$GBGSV,3,3,12,46,37,149,36,37,34,076,40,30,16,181,21,32,14,074,18,1*7D
$GBGSV,2,1,07,38,73,035,32,39,71,227,40,29,40,237,43,46,37,149,34,4*73
$GBGSV,2,2,07,37,34,076,39,30,16,181,21,32,14,074,27,4*41
$GNGGA,101648.000,2500.7895900,N,12132.4693000,E,2,36,0.77,23.68,M,15.25,M,2,3335*70
$GNRMC,101648.000,A,2500.7895900,N,12132.4693000,E,0.01,208.13,260623,,,D,V*09
$GPHDT,,T*1B
$GNGGA,101648.200,2500.7895900,N,12132.4692900,E,2,37,0.75,23.68,M,15.25,M,2,3335*79
$GNRMC,101648.200,A,2500.7895900,N,12132.4692900,E,0.01,208.13,260623,,,D,V*03
$GPHDT,,T*1B
$GNGGA,101648.400,2500.7895900,N,12132.4693000,E,2,37,0.75,23.66,M,15.25,M,2,3335*79
$GNRMC,101648.400,A,2500.7895900,N,12132.4693000,E,0.02,208.13,260623,,,D,V*0E
$GPHDT,,T*1B
$GNGGA,101648.600,2500.7895900,N,12132.4693000,E,2,37,0.75,23.66,M,15.25,M,2,3335*7B
$GNRMC,101648.600,A,2500.7895900,N,12132.4693000,E,0.02,208.13,260623,,,D,V*0C
$GPHDT,,T*1B
$GNGGA,101648.800,2500.7895900,N,12132.4693000,E,2,37,0.75,23.65,M,15.25,M,2,3335*76
$GNRMC,101648.800,A,2500.7895900,N,12132.4693000,E,0.21,208.13,260623,,,D,V*03
$GPHDT,,T*1B
$GNGSA,A,3,196,24,15,195,05,13,194,29,,,,,1.27,0.75,1.02,1*35
$GNGSA,A,3,84,80,79,69,,,,,,,,,1.27,0.75,1.02,2*02
$GNGSA,A,3,15,03,,,,,,,,,,,1.27,0.75,1.02,3*01
$GNGSA,A,3,38,39,08,16,06,09,29,46,37,30,32,,1.27,0.75,1.02,4*0F
$GPGSV,3,1,12,199,73,011,,196,73,050,25,24,65,172,42,15,54,009,20,1*61
$GPGSV,3,2,12,45,47,231,40,195,47,177,44,05,37,087,19,13,30,037,34,1*5B
$GPGSV,3,3,12,194,20,146,34,29,18,220,26,11,04,149,,12,03,164,21,1*53
$GPGSV,1,1,04,196,73,050,33,24,65,172,44,195,47,177,44,194,20,146,23,8*54
$GLGSV,1,1,04,84,44,204,33,80,31,126,35,79,26,065,40,69,25,038,28,1*7B
$GAGSV,2,1,05,15,51,170,44,03,24,045,39,26,15,323,15,30,08,161,,7*76
$GAGSV,2,2,05,25,05,065,,7*47
$GAGSV,1,1,02,15,51,170,44,03,24,045,42,1*73
$GBGSV,3,1,12,38,73,035,33,39,71,227,41,08,63,005,28,16,62,216,42,1*72
$GBGSV,3,2,12,06,60,215,43,20,49,022,,09,43,214,42,29,40,237,44,1*7C
$GBGSV,3,3,12,46,37,149,36,37,34,076,40,30,16,181,20,32,14,074,16,1*72
$GBGSV,2,1,07,38,73,035,32,39,71,227,40,29,40,237,43,46,37,149,34,4*73
$GBGSV,2,2,07,37,34,076,37,30,16,181,20,32,14,074,27,4*4E
$GNGGA,101649.000,2500.7895800,N,12132.4693000,E,2,37,0.75,23.65,M,15.25,M,3,3335*7F
$GNRMC,101649.000,A,2500.7895800,N,12132.4693000,E,0.01,208.13,260623,,,D,V*09
$GPHDT,,T*1B
$GNGGA,101649.200,2500.7895800,N,12132.4693000,E,2,37,0.75,23.64,M,15.25,M,3,3335*7C
$GNRMC,101649.200,A,2500.7895800,N,12132.4693000,E,0.01,208.13,260623,,,D,V*0B
$GPHDT,,T*1B
$GNGGA,101649.400,2500.7895800,N,12132.4693000,E,2,36,0.77,23.63,M,15.25,M,3,3335*7E
$GNRMC,101649.400,A,2500.7895800,N,12132.4693000,E,0.02,208.13,260623,,,D,V*0E
$GPHDT,,T*1B
$GNGGA,101649.600,2500.7895800,N,12132.4693000,E,2,36,0.77,23.62,M,15.25,M,3,3335*7D
$GNRMC,101649.600,A,2500.7895800,N,12132.4693000,E,0.03,208.13,260623,,,D,V*0D
$GPHDT,,T*1B
$GNGGA,101649.800,2500.7895800,N,12132.4693000,E,2,36,0.77,23.60,M,15.25,M,3,3335*71
$GNRMC,101649.800,A,2500.7895800,N,12132.4693000,E,0.29,208.13,260623,,,D,V*0B
$GPHDT,,T*1B
$GNGSA,A,3,196,24,15,195,13,194,29,,,,,,1.28,0.77,1.02,1*3D
$GNGSA,A,3,84,80,79,69,,,,,,,,,1.28,0.77,1.02,2*0F
$GNGSA,A,3,15,03,,,,,,,,,,,1.28,0.77,1.02,3*0C
$GNGSA,A,3,38,39,08,16,06,09,29,46,37,30,32,,1.28,0.77,1.02,4*02
$GPGSV,3,1,12,199,73,011,,196,73,050,25,24,65,172,42,15,54,009,22,1*63
$GPGSV,3,2,12,45,47,231,39,195,47,177,44,05,37,087,19,13,30,037,34,1*55
$GPGSV,3,3,12,194,20,146,33,29,18,220,26,11,04,149,,12,03,164,21,1*54
$GPGSV,1,1,04,196,73,050,33,24,65,172,44,195,47,177,44,194,20,146,23,8*54
$GLGSV,1,1,04,84,44,204,33,80,31,125,35,79,26,064,40,69,25,038,29,1*78
$GAGSV,2,1,05,15,51,170,44,03,24,045,39,26,15,323,16,30,08,161,,7*75
$GAGSV,2,2,05,25,05,065,,7*47
$GAGSV,1,1,02,15,51,170,44,03,24,045,42,1*73
$GBGSV,4,1,13,38,73,035,33,39,71,227,41,08,63,005,29,16,62,216,42,1*75
$GBGSV,4,2,13,06,60,215,43,20,49,022,,09,43,214,42,29,40,237,44,1*7A
$GBGSV,4,3,13,46,37,149,35,37,34,076,40,30,16,181,18,32,14,074,14,1*7E
$GBGSV,4,4,13,40,02,191,,1*4B
$GBGSV,2,1,07,38,73,035,32,39,71,227,40,29,40,237,44,46,37,149,34,4*74
$GBGSV,2,2,07,37,34,076,37,30,16,181,20,32,14,074,28,4*41
$GNGGA,101650.000,2500.7895800,N,12132.4692900,E,2,36,0.77,23.63,M,15.25,M,4,3335*7D
$GNRMC,101650.000,A,2500.7895800,N,12132.4692900,E,0.20,208.13,260623,,,D,V*0A
$GPHDT,,T*1B
$GNGGA,101650.200,2500.7895800,N,12132.4692900,E,2,35,0.77,23.62,M,15.25,M,4,3335*7D
$GNRMC,101650.200,A,2500.7895800,N,12132.4692900,E,0.04,208.13,260623,,,D,V*0E
$GPHDT,,T*1B
