$FW : RTK35X,V1.1X0314AS,Lib20210517,1*54
$Tool : LOCOSYS , GNSS Firebird , v1.0.0.19*39
$---------------------------------------------------*2D
$GNGSA,A,3,196,24,15,195,05,13,29,194,20,199,,,0.89,0.56,0.69,1*0E
$GNGSA,A,3,84,85,79,69,,,,,,,,,0.89,0.56,0.69,2*0F
$GNGSA,A,3,13,08,15,07,03,,,,,,,,0.89,0.56,0.69,3*04
$GNGSA,A,3,38,39,08,16,06,20,29,09,46,37,30,32,0.89,0.56,0.69,4*05
$GPGSV,4,1,15,196,72,049,22,24,62,174,39,199,60,167,19,15,56,005,26,1*60
$GPGSV,4,2,15,18,49,312,26,195,48,176,46,41,38,242,26,05,38,083,33,1*5E
$GPGSV,4,3,15,13,32,036,30,23,24,315,23,29,20,222,35,194,19,146,26,1*5D
$GPGSV,4,4,15,20,19,106,19,11,07,148,,12,01,166,,1*5C
$GPGSV,2,1,06,196,72,049,37,24,62,174,44,199,60,167,42,18,49,312,17,8*69
$GPGSV,2,2,06,195,48,176,47,194,19,146,26,8*6A
$GLGSV,2,1,05,84,48,206,33,85,43,304,20,79,26,069,43,69,26,035,21,1*79
$GLGSV,2,2,05,86,06,333,,1*46
$GAGSV,2,1,07,13,63,299,18,08,61,346,20,15,54,169,43,07,35,266,17,7*7E
$GAGSV,2,2,07,03,26,043,38,02,13,113,,26,12,323,,7*49
$GAGSV,2,1,05,13,63,299,29,08,61,346,26,15,54,169,40,07,35,266,23,1*7A
$GAGSV,2,2,05,03,26,043,38,1*4B
$GBGSV,3,1,12,38,72,033,30,39,71,222,34,08,62,005,30,16,61,213,42,1*7F
$GBGSV,3,2,12,06,59,213,41,20,49,018,28,29,42,240,32,09,42,212,43,1*74
$GBGSV,3,3,12,46,35,151,28,37,34,079,32,30,18,182,26,32,15,071,28,1*7E
$GBGSV,2,1,07,38,72,033,28,39,71,222,32,20,49,018,26,29,42,240,38,4*7E
$GBGSV,2,2,07,46,35,151,33,37,34,079,33,32,15,071,29,4*40
$GNGGA,101002.000,2500.7880500,N,12132.4741300,E,2,47,0.56,35.31,M,15.25,M,3,3335*72
$GNRMC,101002.000,A,2500.7880500,N,12132.4741300,E,0.10,328.97,260623,,,D,V*0B
$GPHDT,,T*1B
$GNGGA,101002.200,2500.7880500,N,12132.4741300,E,2,47,0.57,35.31,M,15.25,M,3,3335*71
$GNRMC,101002.200,A,2500.7880500,N,12132.4741300,E,0.08,328.97,260623,,,D,V*00
$GPHDT,,T*1B
$GNGGA,101002.400,2500.7880500,N,12132.4741300,E,2,47,0.57,35.31,M,15.25,M,3,3335*77
$GNRMC,101002.400,A,2500.7880500,N,12132.4741300,E,0.19,328.97,260623,,,D,V*06
$GPHDT,,T*1B
$GNGGA,101002.600,2500.7880500,N,12132.4741400,E,2,48,0.56,35.31,M,15.25,M,3,3335*7C
$GNRMC,101002.600,A,2500.7880500,N,12132.4741400,E,0.18,328.97,260623,,,D,V*02
$GPHDT,,T*1B
$GNGGA,101002.800,2500.7880400,N,12132.4741500,E,2,48,0.56,35.31,M,15.25,M,3,3335*72
$GNRMC,101002.800,A,2500.7880400,N,12132.4741500,E,0.19,328.97,260623,,,D,V*0D
$GPHDT,,T*1B
$GNGSA,A,3,196,24,15,195,05,13,29,194,20,199,,,0.89,0.56,0.69,1*0E
$GNGSA,A,3,84,85,79,69,,,,,,,,,0.89,0.56,0.69,2*0F
$GNGSA,A,3,13,08,15,07,03,,,,,,,,0.89,0.56,0.69,3*04
$GNGSA,A,3,38,39,08,16,06,20,09,29,46,37,30,32,0.89,0.56,0.69,4*05
$GPGSV,4,1,15,196,72,049,23,24,62,174,39,199,60,167,15,15,56,005,23,1*68
$GPGSV,4,2,15,18,49,312,26,195,48,176,46,41,38,242,28,05,38,083,32,1*51
$GPGSV,4,3,15,13,32,036,32,23,24,315,23,29,20,222,35,194,19,146,25,1*5C
$GPGSV,4,4,15,20,19,106,19,11,07,148,,12,01,166,,1*5C
$GPGSV,2,1,06,196,72,049,37,24,62,174,44,199,60,167,42,18,49,312,17,8*69
$GPGSV,2,2,06,195,48,176,47,194,19,146,25,8*69
$GLGSV,1,1,04,84,48,206,34,85,43,304,19,79,26,069,43,69,26,035,20,1*77
$GAGSV,2,1,08,13,63,299,17,08,60,347,19,15,54,169,43,07,35,266,15,7*76
$GAGSV,2,2,08,03,26,043,38,02,13,113,,26,12,323,,30,06,162,,7*76
$GAGSV,2,1,05,13,63,299,28,08,60,347,26,15,54,169,40,07,35,266,24,1*7C
$GAGSV,2,2,05,03,26,043,38,1*4B
$GBGSV,3,1,12,38,72,033,30,39,71,222,34,08,62,005,30,16,61,213,42,1*7F
$GBGSV,3,2,12,06,59,213,42,20,49,018,28,09,42,212,43,29,42,240,38,1*7D
$GBGSV,3,3,12,46,35,151,25,37,34,079,32,30,18,182,25,32,15,071,29,1*71
$GBGSV,2,1,08,38,72,033,30,39,71,222,33,20,49,018,25,29,42,240,35,4*77
$GBGSV,2,2,08,46,35,151,33,37,34,079,33,30,18,182,24,32,15,071,28,4*79
$GNGGA,101003.000,2500.7880500,N,12132.4741500,E,2,48,0.56,35.31,M,15.25,M,4,3335*7D
$GNRMC,101003.000,A,2500.7880500,N,12132.4741500,E,0.03,328.97,260623,,,D,V*0E
$GPHDT,,T*1B
$GNGGA,101003.200,2500.7880400,N,12132.4741500,E,2,48,0.56,35.30,M,15.25,M,3,3335*78
$GNRMC,101003.200,A,2500.7880400,N,12132.4741500,E,0.04,328.97,260623,,,D,V*0A
$GPHDT,,T*1B
$GNGGA,101003.400,2500.7880400,N,12132.4741500,E,2,48,0.56,35.30,M,15.25,M,1,3335*7C
$GNRMC,101003.400,A,2500.7880400,N,12132.4741500,E,0.11,328.97,260623,,,D,V*08
$GPHDT,,T*1B
$GNGGA,101003.600,2500.7880400,N,12132.4741500,E,2,48,0.56,35.28,M,15.25,M,0,3335*76
$GNRMC,101003.600,A,2500.7880400,N,12132.4741500,E,0.05,328.97,260623,,,D,V*0F
$GPHDT,,T*1B
$GNGGA,101003.800,2500.7880400,N,12132.4741600,E,2,48,0.56,35.28,M,15.25,M,0,3335*7B
$GNRMC,101003.800,A,2500.7880400,N,12132.4741600,E,0.04,328.97,260623,,,D,V*03
$GPHDT,,T*1B
$GNGSA,A,3,196,24,15,195,05,13,29,194,20,199,,,0.89,0.56,0.69,1*0E
$GNGSA,A,3,84,85,79,69,,,,,,,,,0.89,0.56,0.69,2*0F
$GNGSA,A,3,13,08,15,07,03,,,,,,,,0.89,0.56,0.69,3*04
$GNGSA,A,3,38,39,08,16,06,20,09,29,46,37,30,32,0.89,0.56,0.69,4*05
$GPGSV,4,1,15,196,72,049,23,24,62,174,39,199,60,167,19,15,56,005,24,1*63
$GPGSV,4,2,15,18,49,312,25,195,48,176,46,41,38,242,39,05,38,083,34,1*54
$GPGSV,4,3,15,13,32,036,30,23,24,315,22,29,20,222,34,194,19,146,26,1*5D
$GPGSV,4,4,15,20,19,106,17,11,07,148,,12,01,166,,1*52
$GPGSV,2,1,07,196,72,049,37,24,62,174,43,199,60,167,42,18,49,312,18,8*60
$GPGSV,2,2,07,195,48,176,48,23,24,315,13,194,19,146,24,8*54
$GLGSV,1,1,04,84,48,206,33,85,43,304,18,79,26,069,43,69,26,035,21,1*70
$GAGSV,2,1,08,13,63,299,19,08,60,347,22,15,53,169,43,07,35,266,14,7*76
$GAGSV,2,2,08,03,26,043,38,26,12,323,,30,06,162,,25,04,068,,7*78
$GAGSV,2,1,05,13,63,299,30,08,60,347,24,15,53,169,42,07,35,266,24,1*72
$GAGSV,2,2,05,03,26,043,39,1*4A
$GBGSV,4,1,13,38,72,033,26,39,71,222,38,08,62,005,31,16,61,213,42,1*73
$GBGSV,4,2,13,06,59,213,42,20,49,018,29,09,42,212,41,29,42,240,44,1*73
$GBGSV,4,3,13,46,35,151,24,37,34,079,35,30,18,182,26,32,15,071,30,1*7A
$GBGSV,4,4,13,36,06,191,,1*4E
$GBGSV,2,1,08,38,72,033,30,39,71,222,37,20,49,018,24,29,42,240,42,4*72
$GBGSV,2,2,08,46,35,151,33,37,34,079,34,30,18,182,22,32,15,071,29,4*79
$GNGGA,101004.000,2500.7880400,N,12132.4741600,E,2,48,0.56,35.27,M,15.25,M,1,3335*7A
$GNRMC,101004.000,A,2500.7880400,N,12132.4741600,E,0.05,328.97,260623,,,D,V*0D
$GPHDT,,T*1B
$GNGGA,101004.200,2500.7880400,N,12132.4741600,E,2,48,0.56,35.26,M,15.25,M,1,3335*79
$GNRMC,101004.200,A,2500.7880400,N,12132.4741600,E,0.06,328.97,260623,,,D,V*0C
$GPHDT,,T*1B
$GNGGA,101004.400,2500.7880500,N,12132.4741600,E,2,48,0.56,35.26,M,15.25,M,1,3335*7E
$GNRMC,101004.400,A,2500.7880500,N,12132.4741600,E,0.06,328.97,260623,,,D,V*0B
$GPHDT,,T*1B
$GNGGA,101004.600,2500.7880500,N,12132.4741600,E,2,48,0.56,35.25,M,15.25,M,1,3335*7F
$GNRMC,101004.600,A,2500.7880500,N,12132.4741600,E,0.05,328.97,260623,,,D,V*0A
$GPHDT,,T*1B
$GNGGA,101004.800,2500.7880500,N,12132.4741700,E,2,48,0.56,35.25,M,15.25,M,1,3335*70
$GNRMC,101004.800,A,2500.7880500,N,12132.4741700,E,0.07,328.97,260623,,,D,V*07
$GPHDT,,T*1B
$GNGSA,A,3,196,24,15,195,05,13,29,194,20,199,,,0.89,0.56,0.69,1*0E
$GNGSA,A,3,84,85,79,69,,,,,,,,,0.89,0.56,0.69,2*0F
$GNGSA,A,3,13,08,15,07,03,,,,,,,,0.89,0.56,0.69,3*04
$GNGSA,A,3,38,39,08,16,06,20,29,09,46,37,30,32,0.89,0.56,0.69,4*05
$GPGSV,4,1,15,196,72,049,25,24,62,174,39,199,60,167,18,15,56,005,24,1*64
$GPGSV,4,2,15,18,49,312,25,195,48,176,46,41,38,242,41,05,38,083,34,1*5B
$GPGSV,4,3,15,13,32,036,32,23,24,315,22,29,20,222,33,194,19,146,26,1*58
$GPGSV,4,4,15,20,19,106,17,11,07,148,,12,01,166,,1*52
$GPGSV,2,1,07,196,72,049,37,24,62,174,43,199,60,167,42,18,49,312,19,8*61
$GPGSV,2,2,07,195,48,176,48,23,24,315,11,194,19,146,24,8*56
$GLGSV,1,1,04,84,48,206,33,85,43,304,14,79,26,069,43,69,26,035,26,1*7B
$GAGSV,2,1,07,13,63,299,19,08,60,347,23,15,53,169,43,07,35,266,13,7*7F
$GAGSV,2,2,07,03,26,043,38,30,06,162,,25,04,068,,7*42
$GAGSV,2,1,05,13,63,299,31,08,60,347,24,15,53,169,42,07,35,266,24,1*73
$GAGSV,2,2,05,03,26,043,39,1*4A
$GBGSV,3,1,12,38,72,033,25,39,71,222,39,08,62,005,32,16,61,213,42,1*74
$GBGSV,3,2,12,06,59,213,42,20,49,018,29,29,42,240,46,09,42,212,41,1*77
$GBGSV,3,3,12,46,35,151,24,37,34,079,35,30,18,182,27,32,15,071,30,1*7D
$GBGSV,2,1,08,38,72,033,30,39,71,222,37,20,49,018,25,29,42,240,43,4*72
$GBGSV,2,2,08,46,35,151,34,37,34,079,34,30,18,182,22,32,15,071,27,4*70
$GNGGA,101005.000,2500.7880400,N,12132.4741700,E,2,48,0.56,35.24,M,15.25,M,2,3335*7A
$GNRMC,101005.000,A,2500.7880400,N,12132.4741700,E,0.04,328.97,260623,,,D,V*0C
$GPHDT,,T*1B
$GNGGA,101005.200,2500.7880500,N,12132.4741700,E,2,48,0.56,35.24,M,15.25,M,2,3335*79
$GNRMC,101005.200,A,2500.7880500,N,12132.4741700,E,0.02,328.97,260623,,,D,V*09
$GPHDT,,T*1B
$GNGGA,101005.400,2500.7880400,N,12132.4741700,E,2,48,0.56,35.23,M,15.25,M,2,3335*79
$GNRMC,101005.400,A,2500.7880400,N,12132.4741700,E,0.03,328.97,260623,,,D,V*0F
$GPHDT,,T*1B
$GNGGA,101005.600,2500.7880400,N,12132.4741700,E,2,48,0.56,35.23,M,15.25,M,2,3335*7B
$GNRMC,101005.600,A,2500.7880400,N,12132.4741700,E,0.02,328.97,260623,,,D,V*0C
$GPHDT,,T*1B
$GNGGA,101005.800,2500.7880400,N,12132.4741700,E,2,49,0.56,35.23,M,15.25,M,2,3335*74
$GNRMC,101005.800,A,2500.7880400,N,12132.4741700,E,0.06,328.97,260623,,,D,V*06
$GPHDT,,T*1B
$GNGSA,A,3,196,24,199,15,195,05,13,29,194,20,,,0.89,0.56,0.69,1*0E
$GNGSA,A,3,84,85,79,69,,,,,,,,,0.89,0.56,0.69,2*0F
$GNGSA,A,3,13,08,15,07,03,,,,,,,,0.89,0.56,0.69,3*04
$GNGSA,A,3,38,39,08,16,06,20,29,09,46,37,30,32,0.89,0.56,0.69,4*05
$GPGSV,4,1,15,196,72,049,27,24,62,174,39,199,60,167,19,15,56,005,24,1*67
$GPGSV,4,2,15,18,49,312,25,195,48,176,46,41,38,242,41,05,38,083,33,1*5C
$GPGSV,4,3,15,13,32,036,33,23,24,315,24,29,20,222,33,194,19,146,27,1*5E
$GPGSV,4,4,15,20,19,106,17,11,07,148,,12,01,166,,1*52
$GPGSV,2,1,06,196,72,049,36,24,62,174,43,199,60,167,42,18,49,312,19,8*61
$GPGSV,2,2,06,195,48,176,48,194,19,146,23,8*60
$GLGSV,1,1,04,84,48,206,34,85,43,304,13,79,26,069,43,69,26,035,26,1*7B
$GAGSV,2,1,07,13,63,299,22,08,60,347,22,15,53,169,43,07,35,266,11,7*74
$GAGSV,2,2,07,03,26,043,38,30,06,162,,25,04,068,,7*42
$GAGSV,2,1,05,13,63,299,31,08,60,347,25,15,53,169,42,07,35,266,24,1*72
$GAGSV,2,2,05,03,26,043,39,1*4A
$GBGSV,3,1,12,38,72,033,24,39,71,222,39,08,62,005,32,16,61,213,42,1*75
$GBGSV,3,2,12,06,59,213,42,20,49,018,29,29,42,240,46,09,42,212,41,1*77
$GBGSV,3,3,12,46,35,151,24,37,34,079,36,30,18,182,27,32,15,071,30,1*7E
$GBGSV,2,1,08,38,72,033,30,39,71,222,37,20,49,018,24,29,42,240,43,4*73
$GBGSV,2,2,08,46,35,151,34,37,34,079,34,30,18,182,21,32,15,071,26,4*72
$GNGGA,101006.000,2500.7880400,N,12132.4741700,E,2,49,0.56,35.22,M,15.25,M,3,3335*7F
$GNRMC,101006.000,A,2500.7880400,N,12132.4741700,E,0.15,328.97,260623,,,D,V*0F
$GPHDT,,T*1B
$GNGGA,101006.200,2500.7880500,N,12132.4741700,E,2,49,0.56,35.22,M,15.25,M,3,3335*7C
$GNRMC,101006.200,A,2500.7880500,N,12132.4741700,E,0.11,328.97,260623,,,D,V*08
$GPHDT,,T*1B
$GNGGA,101006.400,2500.7880500,N,12132.4741700,E,2,48,0.60,35.22,M,15.25,M,3,3335*7E
$GNRMC,101006.400,A,2500.7880500,N,12132.4741700,E,0.08,328.97,260623,,,D,V*06
$GPHDT,,T*1B
$GNGGA,101006.600,2500.7880500,N,12132.4741600,E,2,48,0.60,35.21,M,15.25,M,3,3335*7E
$GNRMC,101006.600,A,2500.7880500,N,12132.4741600,E,0.06,328.97,260623,,,D,V*0B
$GPHDT,,T*1B
$GNGGA,101006.800,2500.7880500,N,12132.4741600,E,2,46,0.60,35.21,M,15.25,M,3,3335*7E
$GNRMC,101006.800,A,2500.7880500,N,12132.4741600,E,0.05,328.97,260623,,,D,V*06
$GPHDT,,T*1B
$GNGSA,A,3,196,24,15,195,05,13,29,194,20,199,,,0.91,0.60,0.69,1*02
$GNGSA,A,3,84,79,69,,,,,,,,,,0.91,0.60,0.69,2*0E
$GNGSA,A,3,13,08,15,03,07,,,,,,,,0.91,0.60,0.69,3*08
$GNGSA,A,3,38,39,08,16,06,20,29,09,46,37,30,32,0.91,0.60,0.69,4*09
$GPGSV,4,1,15,196,72,049,26,24,62,174,39,199,60,167,20,15,56,005,23,1*6B
$GPGSV,4,2,15,18,49,312,25,195,48,176,46,41,38,242,41,05,38,083,34,1*5B
$GPGSV,4,3,15,13,32,036,33,23,24,315,24,29,20,222,33,194,19,146,27,1*5E
$GPGSV,4,4,15,20,19,106,15,11,07,148,,12,01,166,,1*50
$GPGSV,2,1,06,196,72,049,36,24,62,174,43,199,60,167,42,18,49,312,19,8*61
$GPGSV,2,2,06,195,48,176,48,194,19,146,24,8*67
$GLGSV,1,1,04,84,48,206,34,85,43,304,13,79,26,069,43,69,26,035,26,1*7B
$GAGSV,2,1,07,13,63,299,21,08,60,347,22,15,53,169,43,07,35,266,,7*77
$GAGSV,2,2,07,03,26,043,38,30,06,162,,25,04,068,,7*42
$GAGSV,2,1,05,13,63,299,31,08,60,347,25,15,53,169,42,07,35,266,23,1*75
$GAGSV,2,2,05,03,26,043,39,1*4A
$GBGSV,3,1,12,38,72,033,25,39,71,222,39,08,62,005,32,16,61,213,42,1*74
$GBGSV,3,2,12,06,59,213,42,20,49,018,29,29,42,240,46,09,42,212,41,1*77
$GBGSV,3,3,12,46,35,151,24,37,34,079,36,30,18,182,27,32,15,071,31,1*7F
$GBGSV,2,1,08,38,72,033,29,39,71,222,37,20,49,018,24,29,42,240,43,4*7B
$GBGSV,2,2,08,46,35,151,34,37,34,079,34,30,18,182,22,32,15,071,26,4*71
$GNGGA,101007.000,2500.7880500,N,12132.4741700,E,2,46,0.60,35.20,M,15.25,M,2,3335*76
$GNRMC,101007.000,A,2500.7880500,N,12132.4741700,E,0.02,328.97,260623,,,D,V*09
$GPHDT,,T*1B
$GNGGA,101007.200,2500.7880500,N,12132.4741600,E,2,47,0.60,35.19,M,15.25,M,1,3335*7D
$GNRMC,101007.200,A,2500.7880500,N,12132.4741600,E,0.07,328.97,260623,,,D,V*0F
$GPHDT,,T*1B
$GNGGA,101007.400,2500.7880600,N,12132.4741600,E,2,47,0.60,35.19,M,15.25,M,1,3335*78
$GNRMC,101007.400,A,2500.7880600,N,12132.4741600,E,0.04,328.97,260623,,,D,V*09
$GPHDT,,T*1B
$GNGGA,101007.600,2500.7880600,N,12132.4741600,E,2,47,0.60,35.18,M,15.25,M,1,3335*7B
$GNRMC,101007.600,A,2500.7880600,N,12132.4741600,E,0.04,328.97,260623,,,D,V*0B
$GPHDT,,T*1B
$GNGGA,101007.800,2500.7880600,N,12132.4741600,E,2,47,0.60,35.18,M,15.25,M,1,3335*75
$GNRMC,101007.800,A,2500.7880600,N,12132.4741600,E,0.09,328.97,260623,,,D,V*08
$GPHDT,,T*1B
$GNGSA,A,3,196,24,199,15,195,05,13,29,194,20,,,0.91,0.60,0.69,1*02
$GNGSA,A,3,84,79,69,,,,,,,,,,0.91,0.60,0.69,2*0E
$GNGSA,A,3,13,08,15,03,07,,,,,,,,0.91,0.60,0.69,3*08
$GNGSA,A,3,38,39,08,16,06,20,29,09,46,37,30,32,0.91,0.60,0.69,4*09
$GPGSV,4,1,15,196,72,049,24,24,62,174,39,199,60,167,22,15,56,005,23,1*6B
$GPGSV,4,2,15,18,49,312,25,195,48,176,46,41,38,242,41,05,38,083,34,1*5B
$GPGSV,4,3,15,13,32,036,34,23,24,315,25,29,20,222,33,194,19,146,27,1*58
$GPGSV,4,4,15,20,19,106,13,11,07,148,,12,01,166,,1*56
$GPGSV,2,1,06,196,72,049,36,24,62,174,43,199,60,167,42,18,49,312,20,8*6B
$GPGSV,2,2,06,195,48,176,48,194,19,146,24,8*67
$GLGSV,1,1,04,84,48,206,34,85,43,304,15,79,26,069,43,69,26,035,25,1*7E
$GAGSV,2,1,07,13,63,299,20,08,60,347,22,15,53,169,43,07,35,266,,7*76
$GAGSV,2,2,07,03,26,043,38,30,06,162,,25,04,068,,7*42
$GAGSV,2,1,05,13,63,299,31,08,60,347,25,15,53,169,42,07,35,266,23,1*75
$GAGSV,2,2,05,03,26,043,39,1*4A
$GBGSV,3,1,12,38,72,033,26,39,71,222,40,08,62,005,32,16,61,213,42,1*79
$GBGSV,3,2,12,06,59,213,42,20,49,018,29,29,42,240,46,09,42,212,41,1*77
$GBGSV,3,3,12,46,35,151,26,37,34,079,36,30,18,182,27,32,15,071,31,1*7D
$GBGSV,2,1,08,38,72,033,29,39,71,222,37,20,49,018,24,29,42,240,43,4*7B
$GBGSV,2,2,08,46,35,151,35,37,34,079,34,30,18,182,22,32,15,071,27,4*71
$GNGGA,101008.000,2500.7880600,N,12132.4741600,E,2,47,0.60,35.18,M,15.25,M,2,3335*71
$GNRMC,101008.000,A,2500.7880600,N,12132.4741600,E,0.03,328.97,260623,,,D,V*05
$GPHDT,,T*1B
$GNGGA,101008.200,2500.7880600,N,12132.4741600,E,2,47,0.60,35.17,M,15.25,M,2,3335*7C
$GNRMC,101008.200,A,2500.7880600,N,12132.4741600,E,0.03,328.97,260623,,,D,V*07
$GPHDT,,T*1B
$GNGGA,101008.400,2500.7880600,N,12132.4741600,E,2,47,0.60,35.17,M,15.25,M,2,3335*7A
$GNRMC,101008.400,A,2500.7880600,N,12132.4741600,E,0.10,328.97,260623,,,D,V*03
$GPHDT,,T*1B
$GNGGA,101008.600,2500.7880600,N,12132.4741600,E,2,46,0.62,35.17,M,15.25,M,2,3335*7B
$GNRMC,101008.600,A,2500.7880600,N,12132.4741600,E,0.07,328.97,260623,,,D,V*07
$GPHDT,,T*1B
$GNGGA,101008.800,2500.7880600,N,12132.4741600,E,2,45,0.62,35.16,M,15.25,M,2,3335*77
$GNRMC,101008.800,A,2500.7880600,N,12132.4741600,E,0.07,328.97,260623,,,D,V*09
$GPHDT,,T*1B
$GNGSA,A,3,196,24,15,195,05,13,29,194,199,,,,0.93,0.62,0.70,1*08
$GNGSA,A,3,84,79,69,,,,,,,,,,0.93,0.62,0.70,2*06
$GNGSA,A,3,13,08,15,03,07,,,,,,,,0.93,0.62,0.70,3*00
$GNGSA,A,3,38,39,08,16,06,20,29,09,46,37,30,32,0.93,0.62,0.70,4*01
$GPGSV,4,1,15,196,72,049,24,24,62,174,39,199,60,167,20,15,56,005,23,1*69
$GPGSV,4,2,15,18,49,312,26,195,48,176,46,05,38,083,35,41,38,242,41,1*59
$GPGSV,4,3,15,13,32,036,36,23,24,315,26,29,20,222,32,194,19,146,28,1*57
$GPGSV,4,4,15,20,19,106,12,11,07,148,,12,01,166,,1*57
$GPGSV,2,1,06,196,72,049,36,24,62,174,43,199,60,167,42,18,49,312,20,8*6B
$GPGSV,2,2,06,195,48,176,48,194,19,146,24,8*67
$GLGSV,2,1,05,84,48,206,34,85,43,304,17,79,26,069,43,69,26,035,25,1*7E
$GLGSV,2,2,05,73,03,175,,1*49
$GAGSV,2,1,08,13,63,299,19,08,60,347,22,15,53,169,43,07,35,266,,7*73
$GAGSV,2,2,08,03,26,043,38,30,06,162,,34,05,152,,25,04,068,,7*79
$GAGSV,2,1,05,13,63,299,31,08,60,347,25,15,53,169,42,07,35,266,24,1*72
$GAGSV,2,2,05,03,26,043,39,1*4A
$GBGSV,4,1,13,38,72,033,27,39,71,222,40,08,62,005,32,16,61,213,42,1*7E
$GBGSV,4,2,13,06,59,213,42,20,49,018,29,29,42,240,46,09,42,212,41,1*71
$GBGSV,4,3,13,46,35,151,23,37,34,079,36,30,18,182,27,32,15,071,31,1*7E
$GBGSV,4,4,13,10,07,210,,1*41
$GBGSV,2,1,08,38,72,033,29,39,71,222,37,20,49,018,24,29,42,240,43,4*7B
$GBGSV,2,2,08,46,35,151,35,37,34,079,33,30,18,182,22,32,15,071,25,4*74
$GNGGA,101009.000,2500.7880600,N,12132.4741600,E,2,45,0.62,35.16,M,15.25,M,3,3335*7F
$GNRMC,101009.000,A,2500.7880600,N,12132.4741600,E,0.05,328.97,260623,,,D,V*02
$GPHDT,,T*1B
$GNGGA,101009.200,2500.7880700,N,12132.4741600,E,2,45,0.62,35.16,M,15.25,M,3,3335*7C
$GNRMC,101009.200,A,2500.7880700,N,12132.4741600,E,0.09,328.97,260623,,,D,V*0D
$GPHDT,,T*1B
$GNGGA,101009.400,2500.7880700,N,12132.4741500,E,2,46,0.62,35.15,M,15.25,M,3,3335*79
$GNRMC,101009.400,A,2500.7880700,N,12132.4741500,E,0.04,328.97,260623,,,D,V*05
$GPHDT,,T*1B
$GNGGA,101009.600,2500.7880700,N,12132.4741500,E,2,46,0.62,35.15,M,15.25,M,3,3335*7B
$GNRMC,101009.600,A,2500.7880700,N,12132.4741500,E,0.03,328.97,260623,,,D,V*00
$GPHDT,,T*1B
$GNGGA,101009.800,2500.7880700,N,12132.4741500,E,2,46,0.62,35.14,M,15.25,M,3,3335*74
$GNRMC,101009.800,A,2500.7880700,N,12132.4741500,E,0.04,328.97,260623,,,D,V*09
$GPHDT,,T*1B
$GNGSA,A,3,196,24,199,15,195,05,29,194,,,,,0.94,0.62,0.70,1*0D
$GNGSA,A,3,84,79,69,,,,,,,,,,0.94,0.62,0.70,2*01
$GNGSA,A,3,13,08,15,03,07,,,,,,,,0.94,0.62,0.70,3*07
$GNGSA,A,3,38,39,08,16,06,20,09,29,46,37,30,32,0.94,0.62,0.70,4*06
$GPGSV,4,1,15,196,72,049,24,24,62,174,39,199,60,167,17,15,56,005,24,1*6A
$GPGSV,4,2,15,18,49,312,27,195,48,176,46,41,38,242,41,05,38,083,35,1*58
$GPGSV,4,3,15,13,32,036,37,23,24,315,26,29,20,222,32,194,19,146,28,1*56
$GPGSV,4,4,15,20,19,106,16,11,07,148,,12,01,166,,1*53
$GPGSV,2,1,05,196,72,049,36,24,62,174,43,199,60,167,42,195,48,176,48,8*53
$GPGSV,2,2,05,194,19,146,25,8*68
$GLGSV,1,1,04,84,48,206,34,85,43,304,16,79,26,069,43,69,26,035,24,1*7C
$GAGSV,2,1,08,13,63,299,19,08,60,347,23,15,53,169,43,07,35,266,,7*72
$GAGSV,2,2,08,03,26,043,38,30,06,162,,34,05,152,,25,04,068,,7*79
$GAGSV,2,1,05,13,63,299,31,08,60,347,26,15,53,169,42,07,35,266,24,1*71
$GAGSV,2,2,05,03,26,043,38,1*4B
$GBGSV,3,1,12,38,72,033,27,39,71,222,40,08,62,005,32,16,61,213,42,1*78
$GBGSV,3,2,12,06,59,213,42,20,49,018,29,09,42,212,41,29,42,240,46,1*77
$GBGSV,3,3,12,46,35,151,22,37,34,079,36,30,18,182,27,32,15,071,31,1*79
$GBGSV,2,1,08,38,72,033,30,39,71,222,38,20,49,018,25,29,42,240,43,4*7D
$GBGSV,2,2,08,46,35,151,35,37,34,079,33,30,18,182,21,32,15,071,25,4*77
$GNGGA,101010.000,2500.7880700,N,12132.4741500,E,2,45,0.62,35.14,M,15.25,M,4,3335*70
$GNRMC,101010.000,A,2500.7880700,N,12132.4741500,E,0.01,328.97,260623,,,D,V*0C
$GPHDT,,T*1B
$GNGGA,101010.200,2500.7880700,N,12132.4741500,E,2,46,0.62,35.14,M,15.25,M,4,3335*71
$GNRMC,101010.200,A,2500.7880700,N,12132.4741500,E,0.02,328.97,260623,,,D,V*0D
$GPHDT,,T*1B
$GNGGA,101010.400,2500.7880700,N,12132.4741500,E,2,46,0.62,35.14,M,15.25,M,4,3335*77
$GNRMC,101010.400,A,2500.7880700,N,12132.4741500,E,0.02,328.97,260623,,,D,V*0B
$GPHDT,,T*1B
$GNGGA,101010.600,2500.7880700,N,12132.4741500,E,2,46,0.62,35.14,M,15.25,M,4,3335*75
$GNRMC,101010.600,A,2500.7880700,N,12132.4741500,E,0.08,328.97,260623,,,D,V*03
$GPHDT,,T*1B
$GNGGA,101010.800,2500.7880700,N,12132.4741500,E,2,46,0.62,35.13,M,15.25,M,4,3335*7C
$GNRMC,101010.800,A,2500.7880700,N,12132.4741500,E,0.04,328.97,260623,,,D,V*01
$GPHDT,,T*1B
$GNGSA,A,3,196,24,199,15,195,05,13,29,194,,,,0.93,0.62,0.70,1*08
$GNGSA,A,3,84,79,69,,,,,,,,,,0.93,0.62,0.70,2*06
$GNGSA,A,3,13,08,15,03,07,,,,,,,,0.93,0.62,0.70,3*00
$GNGSA,A,3,38,39,08,16,06,20,09,29,46,37,30,32,0.93,0.62,0.70,4*01
$GPGSV,4,1,15,196,72,049,24,24,62,174,39,199,60,167,19,15,56,005,24,1*64
$GPGSV,4,2,15,18,49,312,27,195,48,176,46,41,38,242,41,05,38,083,36,1*5B
$GPGSV,4,3,15,13,32,036,38,23,24,315,26,29,20,222,32,194,19,146,28,1*59
$GPGSV,4,4,15,20,19,106,17,11,07,148,,12,01,166,,1*52
$GPGSV,2,1,05,196,72,049,36,24,62,174,43,199,60,167,42,195,48,176,48,8*53
$GPGSV,2,2,05,194,19,146,24,8*69
$GLGSV,1,1,04,84,48,206,35,85,43,304,18,79,26,069,43,69,26,035,22,1*75
$GAGSV,2,1,08,13,63,299,17,08,60,347,25,15,53,169,43,07,35,266,,7*7A
$GAGSV,2,2,08,03,26,043,38,30,06,162,,34,05,152,,25,04,068,,7*79
$GAGSV,2,1,05,13,63,299,31,08,60,347,25,15,53,169,42,07,35,266,23,1*75
$GAGSV,2,2,05,03,26,043,38,1*4B
$GBGSV,3,1,12,38,72,033,27,39,71,222,40,08,62,005,32,16,61,213,42,1*78
$GBGSV,3,2,12,06,59,213,42,20,49,018,28,09,42,212,41,29,42,240,46,1*76
$GBGSV,3,3,12,46,35,151,21,37,34,079,36,30,18,182,28,32,15,071,32,1*76
$GBGSV,2,1,08,38,72,033,30,39,71,222,38,20,49,018,25,29,42,240,43,4*7D
$GBGSV,2,2,08,46,35,151,35,37,34,079,33,30,18,182,21,32,15,071,25,4*77
$GNGGA,101011.000,2500.7880700,N,12132.4741500,E,2,46,0.62,35.13,M,15.25,M,5,3335*74
$GNRMC,101011.000,A,2500.7880700,N,12132.4741500,E,0.01,328.97,260623,,,D,V*0D
$GPHDT,,T*1B
$GNGGA,101011.200,2500.7880700,N,12132.4741500,E,2,47,0.60,35.13,M,15.25,M,5,3335*75
$GNRMC,101011.200,A,2500.7880700,N,12132.4741500,E,0.03,328.97,260623,,,D,V*0D
$GPHDT,,T*1B
$GNGGA,101011.400,2500.7880800,N,12132.4741500,E,2,48,0.56,35.13,M,15.25,M,5,3335*76
$GNRMC,101011.400,A,2500.7880800,N,12132.4741500,E,0.04,328.97,260623,,,D,V*03
$GPHDT,,T*1B
$GNGGA,101011.600,2500.7880800,N,12132.4741500,E,2,48,0.56,35.12,M,15.25,M,5,3335*75
$GNRMC,101011.600,A,2500.7880800,N,12132.4741500,E,0.04,328.97,260623,,,D,V*01
$GPHDT,,T*1B
$GNGGA,101011.800,2500.7880800,N,12132.4741500,E,2,48,0.56,35.12,M,15.25,M,5,3335*7B
$GNRMC,101011.800,A,2500.7880800,N,12132.4741500,E,0.10,328.97,260623,,,D,V*0A
$GPHDT,,T*1B
$GNGSA,A,3,196,24,199,15,195,05,13,29,194,20,,,0.89,0.56,0.69,1*0E
$GNGSA,A,3,84,85,79,69,,,,,,,,,0.89,0.56,0.69,2*0F
$GNGSA,A,3,13,08,15,03,07,,,,,,,,0.89,0.56,0.69,3*04
$GNGSA,A,3,38,39,08,16,06,20,09,29,46,37,30,32,0.89,0.56,0.69,4*05
$GPGSV,4,1,15,196,72,049,26,24,62,174,39,199,60,167,19,15,56,005,25,1*67
$GPGSV,4,2,15,18,49,312,28,195,48,176,46,41,38,242,41,05,38,083,36,1*54
$GPGSV,4,3,15,13,32,036,38,23,24,315,26,29,20,222,32,194,19,146,28,1*59
$GPGSV,4,4,15,20,19,106,17,11,07,148,,12,01,166,,1*52
$GPGSV,2,1,05,196,72,049,36,24,62,174,43,199,60,167,42,195,48,176,48,8*53
$GPGSV,2,2,05,194,19,146,24,8*69
$GLGSV,1,1,04,84,48,206,35,85,43,304,17,79,26,068,43,69,26,035,20,1*79
$GAGSV,2,1,08,13,63,299,17,08,60,347,26,15,53,169,43,07,35,266,,7*79
$GAGSV,2,2,08,03,26,043,38,30,06,162,,34,05,152,,25,04,068,,7*79
$GAGSV,2,1,05,13,63,299,31,08,60,347,25,15,53,169,42,07,35,266,23,1*75
$GAGSV,2,2,05,03,26,043,38,1*4B
$GBGSV,3,1,12,38,72,033,27,39,71,222,40,08,62,005,32,16,61,213,42,1*78
$GBGSV,3,2,12,06,59,213,42,20,49,018,28,09,42,212,41,29,42,240,46,1*76
$GBGSV,3,3,12,46,35,151,21,37,34,079,37,30,18,182,29,32,15,071,32,1*76
$GBGSV,2,1,08,38,72,033,30,39,71,222,38,20,49,018,25,29,42,240,43,4*7D
$GBGSV,2,2,08,46,35,151,35,37,34,079,33,30,18,182,23,32,15,071,25,4*75
$GNGGA,101012.000,2500.7880800,N,12132.4741500,E,2,48,0.56,35.12,M,15.25,M,6,3335*73
$GNRMC,101012.000,A,2500.7880800,N,12132.4741500,E,0.03,328.97,260623,,,D,V*03
$GPHDT,,T*1B
$GNGGA,101012.200,2500.7880800,N,12132.4741500,E,2,48,0.56,35.13,M,15.25,M,6,3335*70
$GNRMC,101012.200,A,2500.7880800,N,12132.4741500,E,0.04,328.97,260623,,,D,V*06
$GPHDT,,T*1B
$GNGGA,101012.400,2500.7880800,N,12132.4741500,E,2,48,0.56,35.13,M,15.25,M,6,3335*76
$GNRMC,101012.400,A,2500.7880800,N,12132.4741500,E,0.01,328.97,260623,,,D,V*05
$GPHDT,,T*1B
$GNGGA,101012.600,2500.7880800,N,12132.4741500,E,2,48,0.56,35.12,M,15.25,M,6,3335*75
$GNRMC,101012.600,A,2500.7880800,N,12132.4741500,E,0.03,328.97,260623,,,D,V*05
$GPHDT,,T*1B
$GNGGA,101012.800,2500.7880800,N,12132.4741500,E,2,48,0.56,35.12,M,15.25,M,4,3335*79
$GNRMC,101012.800,A,2500.7880800,N,12132.4741500,E,0.04,328.97,260623,,,D,V*0C
$GPHDT,,T*1B
$GNGSA,A,3,196,24,199,15,195,05,13,29,194,20,,,0.89,0.56,0.69,1*0E
$GNGSA,A,3,84,85,79,69,,,,,,,,,0.89,0.56,0.69,2*0F
$GNGSA,A,3,13,08,15,03,07,,,,,,,,0.89,0.56,0.69,3*04
$GNGSA,A,3,38,39,08,16,06,20,29,09,46,37,30,32,0.89,0.56,0.69,4*05
$GPGSV,4,1,15,196,72,049,25,24,62,174,39,199,60,167,17,15,56,005,24,1*6B
$GPGSV,4,2,15,18,49,312,27,195,48,176,46,41,38,242,41,05,38,083,36,1*5B
$GPGSV,4,3,15,13,32,036,39,23,24,315,26,29,20,222,33,194,19,146,28,1*59
$GPGSV,4,4,15,20,19,106,17,11,07,148,,12,01,166,,1*52
$GPGSV,2,1,05,196,72,049,36,24,62,174,43,199,60,167,42,195,48,176,48,8*53
$GPGSV,2,2,05,194,19,146,24,8*69
$GLGSV,1,1,04,84,47,206,35,85,43,304,18,79,26,068,43,69,26,035,18,1*72
$GAGSV,2,1,06,13,63,299,17,08,60,347,26,15,53,169,43,07,35,266,,7*77
$GAGSV,2,2,06,03,26,043,38,34,05,152,,7*7A
$GAGSV,2,1,05,13,63,299,31,08,60,347,25,15,53,169,42,07,35,266,23,1*75
$GAGSV,2,2,05,03,26,043,38,1*4B
$GBGSV,3,1,12,38,72,033,27,39,71,222,40,08,62,005,32,16,61,213,42,1*78
$GBGSV,3,2,12,06,59,213,42,20,49,018,28,29,42,240,46,09,42,212,41,1*76
$GBGSV,3,3,12,46,35,151,21,37,34,079,38,30,18,182,29,32,15,071,33,1*78
$GBGSV,2,1,08,38,72,033,30,39,71,222,38,20,49,018,26,29,42,240,43,4*7E
$GBGSV,2,2,08,46,35,151,34,37,34,079,33,30,18,182,23,32,15,071,25,4*74
$GNGGA,101013.000,2500.7880800,N,12132.4741500,E,2,48,0.56,35.13,M,15.25,M,3,3335*76
$GNRMC,101013.000,A,2500.7880800,N,12132.4741500,E,0.00,328.97,260623,,,D,V*01
$GPHDT,,T*1B
$GNGGA,101013.200,2500.7880800,N,12132.4741500,E,2,48,0.56,35.12,M,15.25,M,2,3335*74
$GNRMC,101013.200,A,2500.7880800,N,12132.4741500,E,0.05,328.97,260623,,,D,V*06
