$FW : RTK35X,V1.1X0314AS,Lib20210517,1*54
$Tool : LOCOSYS , GNSS Firebird , v1.0.0.19*39
$---------------------------------------------------*2D
,,1.23,0.62,1.06,2*00
$GNGSA,A,3,21,13,26,27,,,,,,,,,1.23,0.62,1.06,3*00
$GNGSA,A,3,09,16,23,43,40,07,39,28,10,25,37,34,1.23,0.62,1.06,4*09
$GPGSV,4,1,13,08,66,346,43,194,64,050,41,195,63,117,44,50,60,167,40,1*6B
$GPGSV,4,2,13,199,60,167,37,21,55,160,46,02,43,178,46,27,37,033,42,1*5B
$GPGSV,4,3,13,07,37,318,30,16,29,070,40,04,21,206,21,196,20,170,17,1*58
$GPGSV,4,4,13,26,10,095,17,1*59
$GPGSV,2,1,06,08,66,346,43,194,64,050,46,195,63,117,42,199,60,167,46,8*53
$GPGSV,2,2,06,27,37,033,44,196,20,170,29,8*5B
$GLGSV,2,1,05,88,61,037,42,78,54,028,43,77,26,105,17,79,22,330,40,1*74
$GLGSV,2,2,05,87,07,026,20,1*43
$GAGSV,2,1,06,21,54,006,41,13,54,088,36,26,39,173,41,27,30,075,39,7*71
$GAGSV,2,2,06,15,16,041,34,04,12,303,,7*73
$GAGSV,2,1,05,13,54,088,42,21,54,006,44,26,39,173,44,27,30,075,40,1*79
$GAGSV,2,2,05,15,16,041,34,1*41
$GBGSV,3,1,12,09,74,274,42,16,71,197,44,23,71,019,48,43,63,039,44,1*7F
$GBGSV,3,2,12,40,62,326,38,07,61,305,38,39,60,185,43,28,52,217,46,1*79
$GBGSV,3,3,12,10,51,286,23,25,40,113,39,37,26,320,33,34,15,040,22,1*71
$GBGSV,2,1,07,23,71,019,48,40,62,326,37,39,60,185,43,28,52,217,44,4*79
$GBGSV,2,2,07,25,40,113,36,37,26,320,33,34,15,040,19,4*4F
$GNACCURACY,4.9*1B
$PAIRSAT,1,23,2,0,201,3,0,200,4,0,200,5,0,200,6,0,200,7,0,201,8,0,21,16,0,1,20,0,200,21,0,201,22,0,200,23,0,200,24,0,200,25,0,200,26,0,220,27,0,221,28,0,200,29,0,200,30,0,200,194,0,21,195,0,621,196,0,600,199,0,621*67
$PAIRSAT,2,15,70,0,200,71,0,200,73,0,200,74,0,200,75,0,200,76,0,200,77,0,1,78,0,201,79,0,201,80,0,200,84,0,200,85,0,200,86,0,200,87,0,201,88,0,201*5B
$PAIRSAT,3,21,2,0,1200,3,0,1200,4,0,1200,5,0,200,7,0,1200,8,0,1200,9,0,1200,10,0,200,11,0,200,12,0,200,13,0,221,15,0,200,21,0,21,25,0,1000,26,0,1021,27,0,1021,30,0,1000,31,0,1000,33,0,1200,34,0,1000,36,0,1200*54
$PAIRSAT,4,40,3,0,400,7,0,1,9,0,201,10,0,201,11,0,200,12,0,200,13,0,200,14,0,200,16,0,201,19,0,600,20,0,600,21,0,600,22,0,400,23,0,421,24,0,400,25,0,421,26,0,400,27,0,400,28,0,420,29,0,400,30,0,400,32,0,400,33,0,400,34,0,421,35,0,400,36,0,400,37,0,421,38,0,400,39,0,421,40,0,421,41,0,400,42,0,400,43,0,421,44,0,400,45,0,400,46,0,400,59,0,400,60,0,400,61,0,400,62,0,400*42
$PAIRDGP,7,2,7,8,16,21,26,27*56
$GNGGA,035838.200,2500.7952750,N,12132.4377600,E,4,45,0.62,16.802,M,15.25,M,1,3335*42
$GNRMC,035838.200,A,2500.7952750,N,12132.4377600,E,0.02,146.48,090324,,,R,V*11
$GPHDT,91.867,T*04
$GNACCURACY,4.9*1B
$GNGGA,035838.300,2500.7952728,N,12132.4377655,E,4,45,0.62,16.827,M,15.25,M,1,3335*4B
$GNRMC,035838.300,A,2500.7952728,N,12132.4377655,E,0.01,146.48,090324,,,R,V*1C
$GPHDT,,T*1B
$GNACCURACY,4.8*1A
$GNGGA,035838.400,2500.7952702,N,12132.4377664,E,4,45,0.62,16.824,M,15.25,M,1,3335*45
$GNRMC,035838.400,A,2500.7952702,N,12132.4377664,E,0.03,146.48,090324,,,R,V*13
$GPHDT,92.382,T*07
$GNACCURACY,4.8*1A
$GNGGA,035838.500,2500.7952732,N,12132.4377615,E,4,44,0.62,16.799,M,15.25,M,1,3335*49
$GNRMC,035838.500,A,2500.7952732,N,12132.4377615,E,0.01,146.48,090324,,,R,V*15
$GPHDT,,T*1B
$GNACCURACY,4.8*1A
$GNGGA,035838.600,2500.7952713,N,12132.4377654,E,4,44,0.62,16.824,M,15.25,M,1,3335*45
$GNRMC,035838.600,A,2500.7952713,N,12132.4377654,E,0.04,146.48,090324,,,R,V*15
$GPHDT,92.747,T*0A
$GNACCURACY,4.8*1A
$GNGGA,035838.700,2500.7952728,N,12132.4377620,E,4,45,0.62,16.800,M,15.25,M,0,3335*49
$GNRMC,035838.700,A,2500.7952728,N,12132.4377620,E,0.06,146.48,090324,,,R,V*1D
$GPHDT,,T*1B
$GNACCURACY,4.8*1A
$GNGGA,035838.800,2500.7952723,N,12132.4377623,E,4,44,0.62,16.809,M,15.25,M,0,3335*46
$GNRMC,035838.800,A,2500.7952723,N,12132.4377623,E,0.12,146.48,090324,,,R,V*1F
$GPHDT,93.034,T*08
$GNACCURACY,4.8*1A
$GNGGA,035838.900,2500.7952725,N,12132.4377620,E,4,44,0.62,16.808,M,15.25,M,0,3335*43
$GNRMC,035838.900,A,2500.7952725,N,12132.4377620,E,0.07,146.48,090324,,,R,V*1F
$GPHDT,,T*1B
$GNACCURACY,4.8*1A
$GNGGA,035839.000,2500.7952723,N,12132.4377576,E,4,44,0.62,16.771,M,15.25,M,1,3335*4D
$GNRMC,035839.000,A,2500.7952723,N,12132.4377576,E,0.04,146.48,090324,,,R,V*12
$GPHDT,92.996,T*08
$GNACCURACY,4.8*1A
$GNGGA,035839.100,2500.7952713,N,12132.4377644,E,4,44,0.62,16.803,M,15.25,M,1,3335*47
$GNRMC,035839.100,A,2500.7952713,N,12132.4377644,E,0.03,146.48,090324,,,R,V*15
$GPHDT,,T*1B
$GNGSA,A,3,08,194,195,199,21,02,07,27,16,,,,1.23,0.62,1.06,1*3E
$GNGSA,A,3,88,78,77,79,,,,,,,,,1.23,0.62,1.06,2*00
$GNGSA,A,3,13,21,26,27,,,,,,,,,1.23,0.62,1.06,3*00
$GNGSA,A,3,09,16,23,43,40,07,39,28,10,25,37,34,1.23,0.62,1.06,4*09
$GPGSV,4,1,14,08,66,346,43,194,64,050,41,195,63,117,43,50,60,167,40,1*6B
$GPGSV,4,2,14,199,60,167,37,21,55,160,45,02,43,178,46,07,37,318,32,1*50
$GPGSV,4,3,14,27,37,033,42,16,29,070,40,04,21,206,19,196,20,170,15,1*5B
$GPGSV,4,4,14,26,10,095,17,30,07,320,,1*6B
$GPGSV,2,1,06,08,66,346,43,194,64,050,45,195,63,117,42,199,60,167,46,8*50
$GPGSV,2,2,06,27,37,033,43,196,20,170,28,8*5D
$GLGSV,2,1,05,88,61,037,43,78,54,028,43,77,26,105,15,79,22,330,40,1*77
$GLGSV,2,2,05,87,07,026,23,1*40
$GAGSV,2,1,06,13,54,088,38,21,54,006,41,26,39,173,41,27,30,075,37,7*71
$GAGSV,2,2,06,15,16,041,35,04,12,303,,7*72
$GAGSV,2,1,05,13,54,088,43,21,54,006,44,26,39,173,44,27,30,075,40,1*78
$GAGSV,2,2,05,15,16,041,33,1*46
$GBGSV,3,1,12,09,74,274,42,16,71,197,44,23,71,019,48,43,63,039,44,1*7F
$GBGSV,3,2,12,40,62,326,40,07,61,305,40,39,60,185,43,28,52,217,47,1*78
$GBGSV,3,3,12,10,51,286,24,25,40,113,35,37,26,320,34,34,15,040,22,1*7D
$GBGSV,2,1,07,23,71,019,48,40,62,326,39,39,60,185,44,28,52,217,43,4*77
$GBGSV,2,2,07,25,40,113,34,37,26,320,29,34,15,040,20,4*4C
$GNACCURACY,4.8*1A
$PAIRSAT,1,23,2,0,201,3,0,200,4,0,200,5,0,200,6,0,200,7,0,201,8,0,21,16,0,1,20,0,200,21,0,201,22,0,200,23,0,200,24,0,200,25,0,200,26,0,220,27,0,221,28,0,200,29,0,200,30,0,200,194,0,21,195,0,621,196,0,600,199,0,621*67
$PAIRSAT,2,15,70,0,200,71,0,200,73,0,200,74,0,200,75,0,200,76,0,200,77,0,1,78,0,201,79,0,201,80,0,200,84,0,200,85,0,200,86,0,200,87,0,201,88,0,201*5B
$PAIRSAT,3,21,2,0,1200,3,0,1200,4,0,1200,5,0,200,7,0,1200,8,0,1200,9,0,1200,10,0,200,11,0,200,12,0,200,13,0,221,15,0,200,21,0,21,25,0,1000,26,0,1021,27,0,1021,30,0,1000,31,0,1000,33,0,1200,34,0,1000,36,0,1200*54
$PAIRSAT,4,40,3,0,400,7,0,1,9,0,201,10,0,201,11,0,200,12,0,200,13,0,200,14,0,200,16,0,201,19,0,600,20,0,600,21,0,600,22,0,400,23,0,421,24,0,400,25,0,421,26,0,400,27,0,400,28,0,421,29,0,400,30,0,400,32,0,400,33,0,400,34,0,421,35,0,400,36,0,400,37,0,421,38,0,400,39,0,421,40,0,421,41,0,400,42,0,400,43,0,421,44,0,400,45,0,400,46,0,400,59,0,400,60,0,400,61,0,400,62,0,400*43
$PAIRDGP,7,2,7,8,16,21,26,27*56
$GNGGA,035839.200,2500.7952707,N,12132.4377665,E,4,45,0.62,16.803,M,15.25,M,1,3335*43
$GNRMC,035839.200,A,2500.7952707,N,12132.4377665,E,0.03,146.48,090324,,,R,V*10
$GPHDT,92.567,T*0A
$GNACCURACY,4.8*1A
$GNGGA,035839.300,2500.7952747,N,12132.4377580,E,4,45,0.62,16.802,M,15.25,M,1,3335*4F
$GNRMC,035839.300,A,2500.7952747,N,12132.4377580,E,0.04,146.48,090324,,,R,V*1A
$GPHDT,,T*1B
$GNACCURACY,4.8*1A
$GNGGA,035839.400,2500.7952751,N,12132.4377593,E,4,45,0.62,16.782,M,15.25,M,1,3335*4A
$GNRMC,035839.400,A,2500.7952751,N,12132.4377593,E,0.04,146.48,090324,,,R,V*18
$GPHDT,93.103,T*0D
$GNACCURACY,4.7*15
$GNGGA,035839.500,2500.7952736,N,12132.4377599,E,4,45,0.62,16.774,M,15.25,M,1,3335*49
$GNRMC,035839.500,A,2500.7952736,N,12132.4377599,E,0.04,146.48,090324,,,R,V*12
$GPHDT,,T*1B
$GNACCURACY,4.7*15
$GNGGA,035839.600,2500.7952722,N,12132.4377609,E,4,45,0.62,16.777,M,15.25,M,1,3335*46
$GNRMC,035839.600,A,2500.7952722,N,12132.4377609,E,0.03,146.48,090324,,,R,V*19
$GPHDT,92.751,T*0D
$GNACCURACY,4.7*15
$GNGGA,035839.700,2500.7952751,N,12132.4377585,E,4,45,0.62,16.767,M,15.25,M,0,3335*44
$GNRMC,035839.700,A,2500.7952751,N,12132.4377585,E,0.02,146.48,090324,,,R,V*1A
$GPHDT,,T*1B
$GNACCURACY,4.7*15
$GNGGA,035839.800,2500.7952739,N,12132.4377584,E,4,45,0.62,16.770,M,15.25,M,0,3335*42
$GNRMC,035839.800,A,2500.7952739,N,12132.4377584,E,0.02,146.48,090324,,,R,V*1A
$GPHDT,92.880,T*0E
$GNACCURACY,4.6*14
$GNGGA,035839.900,2500.7952741,N,12132.4377574,E,4,45,0.62,16.765,M,15.25,M,0,3335*47
$GNRMC,035839.900,A,2500.7952741,N,12132.4377574,E,0.05,146.48,090324,,,R,V*1C
$GPHDT,,T*1B
$GNACCURACY,4.6*14
$GNGGA,035840.000,2500.7952733,N,12132.4377602,E,4,45,0.62,16.786,M,15.25,M,1,3335*4B
$GNRMC,035840.000,A,2500.7952733,N,12132.4377602,E,0.04,146.48,090324,,,R,V*1D
$GPHDT,92.696,T*07
$GNACCURACY,4.7*15
$GNGGA,035840.100,2500.7952743,N,12132.4377590,E,4,45,0.62,16.773,M,15.25,M,1,3335*4F
$GNRMC,035840.100,A,2500.7952743,N,12132.4377590,E,0.02,146.48,090324,,,R,V*15
$GPHDT,,T*1B
$GNGSA,A,3,08,194,195,199,21,02,27,07,16,,,,1.23,0.62,1.06,1*3E
$GNGSA,A,3,88,78,77,79,,,,,,,,,1.23,0.62,1.06,2*00
$GNGSA,A,3,21,13,26,27,,,,,,,,,1.23,0.62,1.06,3*00
$GNGSA,A,3,09,16,23,43,40,07,39,28,10,25,37,34,1.23,0.62,1.06,4*09
$GPGSV,4,1,13,08,66,346,43,194,64,050,41,195,63,117,43,50,60,167,38,1*63
$GPGSV,4,2,13,199,60,167,36,21,55,160,42,02,43,178,46,27,37,033,40,1*5C
$GPGSV,4,3,13,07,37,318,40,16,29,070,40,04,21,206,18,196,20,170,14,1*56
$GPGSV,4,4,13,26,10,095,14,1*5A
$GPGSV,2,1,06,08,66,346,43,194,64,050,45,195,63,117,43,199,60,167,46,8*51
$GPGSV,2,2,06,27,37,033,44,196,20,170,25,8*57
$GLGSV,2,1,05,88,61,037,43,78,54,028,43,77,26,105,15,79,22,330,41,1*76
$GLGSV,2,2,05,87,07,026,22,1*41
$GAGSV,2,1,06,21,54,006,42,13,54,088,38,26,39,173,41,27,30,075,38,7*7D
$GAGSV,2,2,06,15,16,041,34,04,12,303,,7*73
$GAGSV,2,1,05,13,54,088,43,21,54,006,43,26,39,173,44,27,30,075,40,1*7F
$GAGSV,2,2,05,15,16,041,31,1*44
$GBGSV,3,1,12,09,74,274,41,16,71,197,44,23,71,019,46,43,63,039,44,1*72
$GBGSV,3,2,12,40,62,326,40,07,61,305,40,39,60,185,44,28,52,217,47,1*7F
$GBGSV,3,3,12,10,51,286,21,25,40,113,39,37,26,320,36,34,15,040,22,1*76
$GBGSV,2,1,07,23,71,019,47,40,62,326,41,39,60,185,43,28,52,217,46,4*75
$GBGSV,2,2,07,25,40,113,36,37,26,320,31,34,15,040,19,4*4D
$GNACCURACY,4.6*14
$PAIRSAT,1,23,2,0,201,3,0,200,4,0,200,5,0,200,6,0,200,7,0,201,8,0,21,16,0,1,20,0,200,21,0,201,22,0,200,23,0,200,24,0,200,25,0,200,26,0,220,27,0,221,28,0,200,29,0,200,30,0,200,194,0,21,195,0,621,196,0,600,199,0,621*67
$PAIRSAT,2,15,70,0,200,71,0,200,73,0,200,74,0,200,75,0,200,76,0,200,77,0,1,78,0,201,79,0,201,80,0,200,84,0,200,85,0,200,86,0,200,87,0,201,88,0,201*5B
$PAIRSAT,3,21,2,0,1200,3,0,1200,4,0,1200,5,0,200,7,0,1200,8,0,1200,9,0,1200,10,0,200,11,0,200,12,0,200,13,0,221,15,0,200,21,0,21,25,0,1000,26,0,1021,27,0,1021,30,0,1000,31,0,1000,33,0,1200,34,0,1000,36,0,1200*54
$PAIRSAT,4,40,3,0,400,7,0,1,9,0,201,10,0,201,11,0,200,12,0,200,13,0,200,14,0,200,16,0,201,19,0,600,20,0,600,21,0,600,22,0,400,23,0,421,24,0,400,25,0,421,26,0,400,27,0,400,28,0,421,29,0,400,30,0,400,32,0,400,33,0,400,34,0,421,35,0,400,36,0,400,37,0,421,38,0,400,39,0,421,40,0,421,41,0,400,42,0,400,43,0,421,44,0,400,45,0,400,46,0,400,59,0,400,60,0,400,61,0,400,62,0,400*43
$PAIRDGP,7,2,7,8,16,21,26,27*56
$GNGGA,035840.200,2500.7952735,N,12132.4377595,E,4,45,0.62,16.779,M,15.25,M,1,3335*42
$GNRMC,035840.200,A,2500.7952735,N,12132.4377595,E,0.01,146.48,090324,,,R,V*11
$GPHDT,92.808,T*0E
$GNACCURACY,4.6*14
$GNGGA,035840.300,2500.7952770,N,12132.4377598,E,4,45,0.62,16.783,M,15.25,M,1,3335*4A
$GNRMC,035840.300,A,2500.7952770,N,12132.4377598,E,0.03,146.48,090324,,,R,V*1E
$GPHDT,,T*1B
$GNACCURACY,4.7*15
$GNGGA,035840.400,2500.7952763,N,12132.4377595,E,4,45,0.62,16.789,M,15.25,M,1,3335*48
$GNRMC,035840.400,A,2500.7952763,N,12132.4377595,E,0.03,146.48,090324,,,R,V*16
$GPHDT,93.176,T*0F
$GNACCURACY,4.6*14
$GNGGA,035840.500,2500.7952749,N,12132.4377566,E,4,45,0.62,16.782,M,15.25,M,0,3335*47
$GNRMC,035840.500,A,2500.7952749,N,12132.4377566,E,0.03,146.48,090324,,,R,V*13
$GPHDT,,T*1B
$GNACCURACY,4.6*14
$GNGGA,035840.600,2500.7952757,N,12132.4377567,E,4,45,0.62,16.770,M,15.25,M,0,3335*47
$GNRMC,035840.600,A,2500.7952757,N,12132.4377567,E,0.02,146.48,090324,,,R,V*1F
$GPHDT,93.277,T*0D
$GNACCURACY,4.6*14
$GNGGA,035840.700,2500.7952746,N,12132.4377607,E,4,45,0.62,16.786,M,15.25,M,0,3335*4A
$GNRMC,035840.700,A,2500.7952746,N,12132.4377607,E,0.02,146.48,090324,,,R,V*1B
$GPHDT,,T*1B
$GNACCURACY,4.7*15
$GNGGA,035840.800,2500.7952744,N,12132.4377635,E,4,45,0.62,16.780,M,15.25,M,0,3335*40
$GNRMC,035840.800,A,2500.7952744,N,12132.4377635,E,0.06,146.48,090324,,,R,V*13
$GPHDT,93.095,T*03
$GNACCURACY,4.7*15
$GNGGA,035840.900,2500.7952736,N,12132.4377613,E,4,45,0.62,16.796,M,15.25,M,0,3335*47
$GNRMC,035840.900,A,2500.7952736,N,12132.4377613,E,0.06,146.48,090324,,,R,V*13
$GPHDT,,T*1B
$GNACCURACY,4.7*15
$GNGGA,035841.000,2500.7952741,N,12132.4377643,E,4,45,0.62,16.799,M,15.25,M,1,3335*44
$GNRMC,035841.000,A,2500.7952741,N,12132.4377643,E,0.04,146.48,090324,,,R,V*1C
$GPHDT,92.916,T*00
$GNACCURACY,4.7*15
$GNGGA,035841.100,2500.7952736,N,12132.4377627,E,4,46,0.62,16.800,M,15.25,M,1,3335*4B
$GNRMC,035841.100,A,2500.7952736,N,12132.4377627,E,0.05,146.48,090324,,,R,V*1E
$GPHDT,,T*1B
$GNGSA,A,3,08,194,195,199,21,02,27,07,16,26,,,1.14,0.62,0.96,1*36
$GNGSA,A,3,88,78,77,79,,,,,,,,,1.14,0.62,0.96,2*0C
$GNGSA,A,3,21,13,26,27,,,,,,,,,1.14,0.62,0.96,3*0C
$GNGSA,A,3,09,16,23,43,40,07,39,28,10,25,37,34,1.14,0.62,0.96,4*05
$GPGSV,4,1,13,08,66,346,43,194,64,050,41,195,63,117,43,50,60,167,39,1*62
$GPGSV,4,2,13,199,60,167,36,21,55,160,44,02,43,178,46,27,37,033,42,1*58
$GPGSV,4,3,13,07,37,318,33,16,29,070,40,04,21,206,19,196,20,170,14,1*53
$GPGSV,4,4,13,26,10,095,15,1*5B
$GPGSV,2,1,07,08,66,346,44,194,64,050,45,195,63,117,43,199,60,167,45,8*54
$GPGSV,2,2,07,27,37,033,44,196,20,170,23,26,10,095,19,8*61
$GLGSV,2,1,05,88,60,037,43,78,54,028,43,77,26,105,16,79,22,330,40,1*75
$GLGSV,2,2,05,87,07,026,20,1*43
$GAGSV,2,1,06,21,54,006,42,13,54,088,38,26,39,173,41,27,30,075,38,7*7D
$GAGSV,2,2,06,15,16,041,34,04,12,303,,7*73
$GAGSV,2,1,05,13,54,088,43,21,54,006,44,26,39,173,44,27,30,075,40,1*78
$GAGSV,2,2,05,15,16,041,32,1*47
$GBGSV,3,1,12,09,74,274,41,16,71,197,44,23,71,019,46,43,63,039,44,1*72
$GBGSV,3,2,12,40,62,326,42,07,61,305,42,39,60,185,44,28,52,217,46,1*7E
$GBGSV,3,3,12,10,51,286,21,25,40,113,36,37,26,320,29,34,15,040,23,1*76
$GBGSV,2,1,07,23,71,019,48,40,62,326,41,39,60,185,43,28,52,217,45,4*79
$GBGSV,2,2,07,25,40,113,36,37,26,320,32,34,15,040,20,4*44
$GNACCURACY,4.7*15
$PAIRSAT,1,23,2,0,201,3,0,200,4,0,200,5,0,200,6,0,200,7,0,201,8,0,21,16,0,1,20,0,200,21,0,201,22,0,200,23,0,200,24,0,200,25,0,200,26,0,220,27,0,221,28,0,200,29,0,200,30,0,200,194,0,21,195,0,621,196,0,600,199,0,621*67
$PAIRSAT,2,15,70,0,200,71,0,200,73,0,200,74,0,200,75,0,200,76,0,200,77,0,1,78,0,201,79,0,201,80,0,200,84,0,200,85,0,200,86,0,200,87,0,201,88,0,201*5B
$PAIRSAT,3,21,2,0,1200,3,0,1200,4,0,1200,5,0,200,7,0,1200,8,0,1200,9,0,1200,10,0,200,11,0,200,12,0,200,13,0,221,15,0,200,21,0,21,25,0,1000,26,0,1021,27,0,1021,30,0,1000,31,0,1000,33,0,1200,34,0,1000,36,0,1200*54
$PAIRSAT,4,40,3,0,400,7,0,1,9,0,201,10,0,201,11,0,200,12,0,200,13,0,200,14,0,200,16,0,201,19,0,600,20,0,600,21,0,600,22,0,400,23,0,421,24,0,400,25,0,421,26,0,400,27,0,400,28,0,421,29,0,400,30,0,400,32,0,400,33,0,400,34,0,421,35,0,400,36,0,400,37,0,421,38,0,400,39,0,421,40,0,421,41,0,400,42,0,400,43,0,421,44,0,400,45,0,400,46,0,400,59,0,400,60,0,400,61,0,400,62,0,400*43
$PAIRDGP,7,2,7,8,16,21,26,27*56
$GNGGA,035841.200,2500.7952740,N,12132.4377592,E,4,46,0.62,16.801,M,15.25,M,1,3335*45
$GNRMC,035841.200,A,2500.7952740,N,12132.4377592,E,0.03,146.48,090324,,,R,V*17
$GPHDT,92.945,T*06
$GNACCURACY,4.7*15
$GNGGA,035841.300,2500.7952732,N,12132.4377642,E,4,46,0.62,16.812,M,15.25,M,1,3335*4D
$GNRMC,035841.300,A,2500.7952732,N,12132.4377642,E,0.03,146.48,090324,,,R,V*1D
$GPHDT,,T*1B
$GNACCURACY,4.7*15
$GNGGA,035841.400,2500.7952729,N,12132.4377624,E,4,45,0.62,16.808,M,15.25,M,1,3335*48
$GNRMC,035841.400,A,2500.7952729,N,12132.4377624,E,0.03,146.48,090324,,,R,V*10
$GPHDT,92.810,T*07
$GNACCURACY,4.8*1A
$GNGGA,035841.500,2500.7952750,N,12132.4377629,E,4,45,0.62,16.802,M,15.25,M,1,3335*40
$GNRMC,035841.500,A,2500.7952750,N,12132.4377629,E,0.03,146.48,090324,,,R,V*12
$GPHDT,,T*1B
$GNACCURACY,4.8*1A
$GNGGA,035841.600,2500.7952763,N,12132.4377620,E,4,45,0.62,16.797,M,15.25,M,1,3335*49
$GNRMC,035841.600,A,2500.7952763,N,12132.4377620,E,0.04,146.48,090324,,,R,V*1F
$GPHDT,93.286,T*03
$GNACCURACY,4.7*15
$GNGGA,035841.700,2500.7952745,N,12132.4377582,E,4,45,0.62,16.798,M,15.25,M,0,3335*49
$GNRMC,035841.700,A,2500.7952745,N,12132.4377582,E,0.03,146.48,090324,,,R,V*16
$GPHDT,,T*1B
$GNACCURACY,4.7*15
$GNGGA,035841.800,2500.7952723,N,12132.4377645,E,4,45,0.62,16.788,M,15.25,M,0,3335*4F
$GNRMC,035841.800,A,2500.7952723,N,12132.4377645,E,0.02,146.48,090324,,,R,V*10
$GPHDT,92.799,T*09
$GNACCURACY,4.7*15
$GNGGA,035841.900,2500.7952729,N,12132.4377639,E,4,45,0.62,16.789,M,15.25,M,0,3335*4E
$GNRMC,035841.900,A,2500.7952729,N,12132.4377639,E,0.02,146.48,090324,,,R,V*10
$GPHDT,,T*1B
$GNACCURACY,4.7*15
$GNGGA,035842.000,2500.7952726,N,12132.4377666,E,4,46,0.62,16.792,M,15.25,M,1,3335*49
$GNRMC,035842.000,A,2500.7952726,N,12132.4377666,E,0.02,146.48,090324,,,R,V*1F
$GPHDT,92.786,T*07
$GNACCURACY,4.7*15
$GNGGA,035842.100,2500.7952713,N,12132.4377671,E,4,46,0.62,16.798,M,15.25,M,1,3335*42
$GNRMC,035842.100,A,2500.7952713,N,12132.4377671,E,0.02,146.48,090324,,,R,V*1E
$GPHDT,,T*1B
$GNGSA,A,3,08,194,195,199,21,02,27,07,16,26,,,1.14,0.62,0.96,1*36
$GNGSA,A,3,88,78,77,79,,,,,,,,,1.14,0.62,0.96,2*0C
$GNGSA,A,3,13,21,26,27,,,,,,,,,1.14,0.62,0.96,3*0C
$GNGSA,A,3,09,16,23,43,40,07,39,28,10,25,37,34,1.14,0.62,0.96,4*05
$GPGSV,4,1,13,08,66,346,43,194,64,050,41,195,63,117,43,50,60,167,39,1*62
$GPGSV,4,2,13,199,60,167,37,21,55,160,44,02,43,178,46,27,37,033,42,1*59
$GPGSV,4,3,13,07,37,318,38,16,29,070,40,04,21,206,18,196,20,170,13,1*5E
$GPGSV,4,4,13,26,10,095,15,1*5B
$GPGSV,2,1,07,08,66,346,44,194,64,050,46,195,63,117,41,199,60,167,45,8*55
$GPGSV,2,2,07,27,37,033,44,196,20,170,26,26,10,095,20,8*6E
$GLGSV,2,1,05,88,60,037,43,78,54,028,43,77,26,105,13,79,22,330,39,1*7E
$GLGSV,2,2,05,87,07,026,20,1*43
$GAGSV,2,1,07,13,54,088,39,21,54,006,42,26,39,173,41,27,30,075,38,7*7D
$GAGSV,2,2,07,15,16,041,34,04,12,303,,33,01,200,,7*41
$GAGSV,2,1,05,13,54,088,43,21,54,006,45,26,39,173,44,27,30,075,40,1*79
$GAGSV,2,2,05,15,16,041,30,1*45
$GBGSV,4,1,13,09,74,274,41,16,71,197,44,23,71,019,46,43,63,039,44,1*74
$GBGSV,4,2,13,40,62,326,41,07,61,305,40,39,60,185,44,28,52,217,46,1*79
$GBGSV,4,3,13,10,51,286,22,25,40,113,34,37,26,320,27,34,15,040,21,1*7D
$GBGSV,4,4,13,38,08,169,,1*49
$GBGSV,2,1,07,23,71,019,48,40,62,326,41,39,60,185,43,28,52,217,44,4*78
$GBGSV,2,2,07,25,40,113,36,37,26,320,32,34,15,040,20,4*44
$GNACCURACY,4.7*15
$PAIRSAT,1,23,2,0,201,3,0,200,4,0,200,5,0,200,6,0,200,7,0,201,8,0,221,16,0,1,20,0,200,21,0,201,22,0,200,23,0,200,24,0,200,25,0,200,26,0,220,27,0,221,28,0,200,29,0,200,30,0,200,194,0,21,195,0,621,196,0,600,199,0,621*55
$PAIRSAT,2,15,70,0,200,71,0,200,73,0,200,74,0,200,75,0,200,76,0,200,77,0,1,78,0,201,79,0,201,80,0,200,84,0,200,85,0,200,86,0,200,87,0,201,88,0,201*5B
$PAIRSAT,3,21,2,0,1200,3,0,1200,4,0,1200,5,0,200,7,0,1200,8,0,1200,9,0,1200,10,0,200,11,0,200,12,0,200,13,0,221,15,0,200,21,0,21,25,0,1000,26,0,1021,27,0,1021,30,0,1000,31,0,1000,33,0,1200,34,0,1000,36,0,1200*54
$PAIRSAT,4,40,3,0,400,7,0,1,9,0,201,10,0,201,11,0,200,12,0,200,13,0,200,14,0,200,16,0,201,19,0,600,20,0,600,21,0,600,22,0,400,23,0,421,24,0,400,25,0,421,26,0,400,27,0,400,28,0,421,29,0,400,30,0,400,32,0,400,33,0,400,34,0,421,35,0,400,36,0,400,37,0,421,38,0,400,39,0,421,40,0,421,41,0,400,42,0,400,43,0,421,44,0,400,45,0,400,46,0,400,59,0,400,60,0,400,61,0,400,62,0,400*43
$PAIRDGP,7,2,7,8,16,21,26,27*56
$GNGGA,035842.200,2500.7952701,N,12132.4377696,E,4,46,0.62,16.793,M,15.25,M,1,3335*40
$GNRMC,035842.200,A,2500.7952701,N,12132.4377696,E,0.02,146.48,090324,,,R,V*17
$GPHDT,92.518,T*02
$GNACCURACY,4.7*15
$GNGGA,035842.300,2500.7952728,N,12132.4377654,E,4,46,0.62,16.802,M,15.25,M,1,3335*43
$GNRMC,035842.300,A,2500.7952728,N,12132.4377654,E,0.03,146.48,090324,,,R,V*12
$GPHDT,,T*1B
$GNACCURACY,4.7*15
$GNGGA,035842.400,2500.7952726,N,12132.4377669,E,4,46,0.62,16.802,M,15.25,M,1,3335*44
$GNRMC,035842.400,A,2500.7952726,N,12132.4377669,E,0.02,146.48,090324,,,R,V*14
$GPHDT,92.718,T*00
$GNACCURACY,4.7*15
$GNGGA,035842.500,2500.7952715,N,12132.4377648,E,4,46,0.62,16.803,M,15.25,M,1,3335*47
$GNRMC,035842.500,A,2500.7952715,N,12132.4377648,E,0.02,146.48,090324,,,R,V*16
$GPHDT,,T*1B
$GNACCURACY,4.8*1A
$GNGGA,035842.600,2500.7952732,N,12132.4377673,E,4,45,0.62,16.800,M,15.25,M,0,3335*48
$GNRMC,035842.600,A,2500.7952732,N,12132.4377673,E,0.02,146.48,090324,,,R,V*18
$GPHDT,92.551,T*0F
$GNACCURACY,4.7*15
$GNGGA,035842.700,2500.7952738,N,12132.4377653,E,4,45,0.62,16.805,M,15.25,M,0,3335*44
$GNRMC,035842.700,A,2500.7952738,N,12132.4377653,E,0.02,146.48,090324,,,R,V*11
$GPHDT,,T*1B
$GNACCURACY,4.7*15
$GNGGA,035842.800,2500.7952725,N,12132.4377663,E,4,45,0.62,16.808,M,15.25,M,0,3335*49
$GNRMC,035842.800,A,2500.7952725,N,12132.4377663,E,0.03,146.48,090324,,,R,V*10
$GPHDT,92.395,T*01
$GNACCURACY,4.7*15
$GNGGA,035842.900,2500.7952721,N,12132.4377681,E,4,46,0.62,16.820,M,15.25,M,0,3335*49
$GNRMC,035842.900,A,2500.7952721,N,12132.4377681,E,0.00,146.48,090324,,,R,V*1A
$GPHDT,,T*1B
$GNACCURACY,4.8*1A
$GNGGA,035843.000,2500.7952733,N,12132.4377662,E,4,45,0.62,16.820,M,15.25,M,1,3335*4D
$GNRMC,035843.000,A,2500.7952733,N,12132.4377662,E,0.02,146.48,090324,,,R,V*1E
$GPHDT,92.617,T*0E
$GNACCURACY,4.8*1A
$GNGGA,035843.100,2500.7952745,N,12132.4377644,E,4,45,0.62,16.816,M,15.25,M,1,3335*4C
$GNRMC,035843.100,A,2500.7952745,N,12132.4377644,E,0.03,146.48,090324,,,R,V*1B
$GPHDT,,T*1B
$GNGSA,A,3,08,194,195,199,21,02,27,07,16,26,,,1.14,0.62,0.96,1*36
$GNGSA,A,3,88,78,77,79,,,,,,,,,1.14,0.62,0.96,2*0C
$GNGSA,A,3,13,21,26,27,,,,,,,,,1.14,0.62,0.96,3*0C
$GNGSA,A,3,09,16,23,43,40,07,39,28,10,25,37,34,1.14,0.62,0.96,4*05
$GPGSV,4,1,13,08,66,346,43,194,64,050,41,195,63,117,43,50,60,167,40,1*6C
$GPGSV,4,2,13,199,60,167,37,21,55,160,44,02,43,178,46,27,37,033,41,1*5A
$GPGSV,4,3,13,07,37,318,38,16,29,070,40,04,21,206,17,196,20,170,12,1*50
$GPGSV,4,4,13,26,10,095,14,1*5A
$GPGSV,2,1,07,08,66,346,43,194,64,050,46,195,63,117,41,199,60,167,45,8*52
$GPGSV,2,2,07,27,37,033,43,196,20,170,27,26,10,095,19,8*62
$GLGSV,2,1,05,88,60,037,43,78,54,028,43,77,26,105,15,79,22,330,39,1*78
$GLGSV,2,2,05,87,07,026,20,1*43
$GAGSV,2,1,07,13,54,088,39,21,54,006,42,26,39,173,41,27,30,075,38,7*7D
$GAGSV,2,2,07,15,16,041,35,04,12,303,,33,01,200,,7*40
$GAGSV,2,1,05,13,54,088,42,21,54,006,44,26,39,173,44,27,30,075,40,1*79
$GAGSV,2,2,05,15,16,041,30,1*45
$GBGSV,3,1,12,09,74,274,40,16,71,197,44,23,71,019,46,43,63,039,44,1*73
$GBGSV,3,2,12,40,62,326,40,07,61,305,40,39,60,185,44,28,52,217,46,1*7E
$GBGSV,3,3,12,10,51,286,20,25,40,113,36,37,26,320,32,34,15,040,21,1*7F
$GBGSV,2,1,07,23,71,019,48,40,62,326,40,39,60,185,43,28,52,217,44,4*79
$GBGSV,2,2,07,25,40,113,36,37,26,320,28,34,15,040,18,4*44
$GNACCURACY,4.8*1A
$PAIRSAT,1,23,2,0,201,3,0,200,4,0,200,5,0,200,6,0,200,7,0,201,8,0,221,16,0,1,20,0,200,21,0,201,22,0,200,23,0,200,24,0,200,25,0,200,26,0,220,27,0,221,28,0,200,29,0,200,30,0,200,194,0,21,195,0,621,196,0,600,199,0,621*55
$PAIRSAT,2,15,70,0,200,71,0,200,73,0,200,74,0,200,75,0,200,76,0,200,77,0,1,78,0,201,79,0,201,80,0,200,84,0,200,85,0,200,86,0,200,87,0,201,88,0,201*5B
$PAIRSAT,3,21,2,0,1200,3,0,1200,4,0,1200,5,0,200,7,0,1200,8,0,1200,9,0,1200,10,0,200,11,0,200,12,0,200,13,0,221,15,0,200,21,0,21,25,0,1000,26,0,1021,27,0,1021,30,0,1000,31,0,1000,33,0,1200,34,0,1000,36,0,1200*54
$PAIRSAT,4,40,3,0,400,7,0,1,9,0,201,10,0,201,11,0,200,12,0,200,13,0,200,14,0,200,16,0,201,19,0,600,20,0,600,21,0,600,22,0,400,23,0,421,24,0,400,25,0,421,26,0,400,27,0,400,28,0,421,29,0,400,30,0,400,32,0,400,33,0,400,34,0,421,35,0,400,36,0,400,37,0,421,38,0,400,39,0,421,40,0,421,41,0,400,42,0,400,43,0,421,44,0,400,45,0,400,46,0,400,59,0,400,60,0,400,61,0,400,62,0,400*43
$PAIRDGP,7,2,7,8,16,21,26,27*56
$GNGGA,035843.200,2500.7952742,N,12132.4377674,E,4,45,0.62,16.810,M,15.25,M,1,3335*4D
$GNRMC,035843.200,A,2500.7952742,N,12132.4377674,E,0.04,146.48,090324,,,R,V*1B
$GPHDT,92.676,T*09
$GNACCURACY,4.7*15
$GNGGA,035843.300,2500.7952712,N,12132.4377668,E,4,46,0.62,16.810,M,15.25,M,1,3335*47
$GNRMC,035843.300,A,2500.7952712,N,12132.4377668,E,0.04,146.48,090324,,,R,V*12
$GPHDT,,T*1B
$GNACCURACY,4.7*15
$GNGGA,035843.400,2500.7952723,N,12132.4377669,E,4,46,0.62,16.803,M,15.25,M,1,3335*41
$GNRMC,035843.400,A,2500.7952723,N,12132.4377669,E,0.04,146.48,090324,,,R,V*16
$GPHDT,92.541,T*0E
$GNACCURACY,4.7*15
$GNGGA,035843.500,2500.7952708,N,12132.4377650,E,4,46,0.62,16.800,M,15.25,M,0,3335*41
$GNRMC,035843.500,A,2500.7952708,N,12132.4377650,E,0.03,146.48,090324,,,R,V*13
$GPHDT,,T*1B
$GNACCURACY,4.7*15
$GNGGA,035843.600,2500.7952719,N,12132.4377606,E,4,46,0.62,16.807,M,15.25,M,0,3335*46
$GNRMC,035843.600,A,2500.7952719,N,12132.4377606,E,0.01,146.48,090324,,,R,V*11
$GPHDT,92.388,T*0D
$GNACCURACY,4.8*1A
$GNGGA,035843.700,2500.7952723,N,12132.4377584,E,4,46,0.62,16.776,M,15.25,M,0,3335*4E
$GNRMC,035843.700,A,2500.7952723,N,12132.4377584,E,0.00,146.48,090324,,,R,V*11
$GPHDT,,T*1B
$GNACCURACY,4.7*15
$GNGGA,035843.800,2500.7952740,N,12132.4377594,E,4,46,0.62,16.785,M,15.25,M,0,3335*49
$GNRMC,035843.800,A,2500.7952740,N,12132.4377594,E,0.01,146.48,090324,,,R,V*1B
$GPHDT,92.702,T*0B
$GNACCURACY,4.7*15
$GNGGA,035843.900,2500.7952730,N,12132.4377586,E,4,46,0.62,16.774,M,15.25,M,0,3335*42
$GNRMC,035843.900,A,2500.7952730,N,12132.4377586,E,0.03,146.48,090324,,,R,V*1C
$GPHDT,,T*1B
$GNACCURACY,4.7*15
$GNGGA,035844.000,2500.7952723,N,12132.4377592,E,4,46,0.62,16.770,M,15.25,M,1,3335*4E
$GNRMC,035844.000,A,2500.7952723,N,12132.4377592,E,0.03,146.48,090324,,,R,V*15
$GPHDT,92.492,T*01
$GNACCURACY,4.7*15
$GNGGA,035844.100,2500.7952720,N,12132.4377590,E,4,45,0.62,16.783,M,15.25,M,1,3335*41
$GNRMC,035844.100,A,2500.7952720,N,12132.4377590,E,0.04,146.48,090324,,,R,V*12
$GPHDT,,T*1B
$GNGSA,A,3,08,194,195,199,21,02,27,07,16,26,,,1.14,0.62,0.96,1*36
$GNGSA,A,3,88,78,77,79,,,,,,,,,1.14,0.62,0.96,2*0C
$GNGSA,A,3,13,21,26,27,,,,,,,,,1.14,0.62,0.96,3*0C
$GNGSA,A,3,09,16,23,43,40,07,39,28,10,25,37,34,1.14,0.62,0.96,4*05
$GPGSV,4,1,13,08,66,346,43,194,64,050,41,195,63,117,43,50,60,167,40,1*6C
$GPGSV,4,2,13,199,60,167,37,21,55,160,44,02,43,178,46,27,37,033,42,1*59
$GPGSV,4,3,13,07,37,318,33,16,29,070,40,04,21,206,17,196,20,170,15,1*5C
$GPGSV,4,4,13,26,10,095,15,1*5B
$GPGSV,2,1,07,08,66,346,43,194,64,050,45,195,63,117,41,199,60,167,45,8*51
$GPGSV,2,2,07,27,37,033,44,196,20,170,26,26,10,095,20,8*6E
$GLGSV,2,1,05,88,60,037,43,78,54,028,43,77,26,105,15,79,22,330,34,1*75
$GLGSV,2,2,05,87,07,026,20,1*43
$GAGSV,2,1,07,13,54,088,39,21,54,006,42,26,39,173,41,27,30,075,38,7*7D
$GAGSV,2,2,07,15,16,041,34,04,12,303,,33,01,200,,7*41
$GAGSV,2,1,05,13,54,088,42,21,54,006,45,26,39,173,44,27,30,075,40,1*78
$GAGSV,2,2,05,15,16,041,33,1*46
$GBGSV,3,1,12,09,74,274,41,16,71,197,44,23,71,019,46,43,63,039,44,1*72
$GBGSV,3,2,12,40,62,326,41,07,61,305,41,39,60,185,44,28,52,217,46,1*7E
$GBGSV,3,3,12,10,51,286,20,25,40,113,35,37,26,320,31,34,15,040,23,1*7D
$GBGSV,2,1,07,23,71,019,48,40,62,326,40,39,60,185,43,28,52,217,45,4*78
$GBGSV,2,2,07,25,40,113,37,37,26,320,36,34,15,040,20,4*41
$GNACCURACY,4.7*15
$PAIRSAT,1,23,2,0,201,3,0,200,4,0,200,5,0,200,6,0,200,7,0,201,8,0,221,16,0,1,20,0,200,21,0,201,22,0,200,23,0,200,24,0,200,25,0,200,26,0,220,27,0,221,28,0,200,29,0,200,30,0,200,194,0,21,195,0,621,196,0,600,199,0,621*55
$PAIRSAT,2,15,70,0,200,71,0,200,73,0,200,74,0,200,75,0,200,76,0,200,77,0,1,78,0,201,79,0,201,80,0,200,84,0,200,85,0,200,86,0,200,87,0,201,88,0,201*5B
$PAIRSAT,3,21,2,0,1200,3,0,1200,4,0,1200,5,0,200,7,0,1200,8,0,1200,9,0,1200,10,0,200,11,0,200,12,0,200,13,0,221,15,0,200,21,0,21,25,0,1000,26,0,1021,27,0,1021,30,0,1000,31,0,1000,33,0,1200,34,0,1000,36,0,1200*54
$PAIRSAT,4,40,3,0,400,7,0,1,9,0,201,10,0,201,11,0,200,12,0,200,13,0,200,14,0,200,16,0,201,19,0,600,20,0,600,21,0,600,22,0,400,23,0,421,24,0,400,25,0,421,26,0,400,27,0,400,28,0,421,29,0,400,30,0,400,32,0,400,33,0,400,34,0,421,35,0,400,36,0,400,37,0,421,38,0,400,39,0,421,40,0,421,41,0,400,42,0,400,43,0,421,44,0,400,45,0,400,46,0,400,59,0,400,60,0,400,61,0,400,62,0,400*43
$PAIRDGP,7,2,7,8,16,21,26,27*56
$GNGGA,035844.200,2500.7952738,N,12132.4377567,E,4,46,0.62,16.775,M,15.25,M,1,3335*49
$GNRMC,035844.200,A,2500.7952738,N,12132.4377567,E,0.04,146.48,090324,,,R,V*10
$GPHDT,92.465,T*09
$GNACCURACY,4.8*1A
$GNGGA,035844.300,2500.7952740,N,12132.4377603,E,4,46,0.62,16.773,M,15.25,M,1,3335*40
$GNRMC,035844.300,A,2500.7952740,N,12132.4377603,E,0.04,146.48,090324,,,R,V*1F
$GPHDT,,T*1B
$GNACCURACY,4.8*1A
$GNGGA,035844.400,2500.7952717,N,12132.4377656,E,4,46,0.62,16.797,M,15.25,M,1,3335*4F
$GNRMC,035844.400,A,2500.7952717,N,12132.4377656,E,0.03,146.48,090324,,,R,V*1D
$GPHDT,92.675,T*0A
$GNACCURACY,4.8*1A
$GNGGA,035844.500,2500.7952729,N,12132.4377661,E,4,46,0.62,16.810,M,15.25,M,0,3335*46
$GNRMC,035844.500,A,2500.7952729,N,12132.4377661,E,0.03,146.48,090324,,,R,V*15
$GPHDT,,T*1B
$GNACCURACY,4.7*15
$GNGGA,035844.600,2500.7952735,N,12132.4377674,E,4,46,0.62,16.814,M,15.25,M,0,3335*48
$GNRMC,035844.600,A,2500.7952735,N,12132.4377674,E,0.03,146.48,090324,,,R,V*1F
$GPHDT,92.551,T*0F
$GNACCURACY,4.7*15
$GNGGA,035844.700,2500.7952736,N,12132.4377684,E,4,46,0.62,16.820,M,15.25,M,0,3335*42
$GNRMC,035844.700,A,2500.7952736,N,12132.4377684,E,0.03,146.48,090324,,,R,V*12
$GPHDT,,T*1B
$GNACCURACY,4.8*1A
$GNGGA,035844.800,2500.7952700,N,12132.4377690,E,4,46,0.62,16.801,M,15.25,M,0,3335*4E
$GNRMC,035844.800,A,2500.7952700,N,12132.4377690,E,0.04,146.48,090324,,,R,V*1A
$GPHDT,92.244,T*0C
$GNACCURACY,4.8*1A
$GNGGA,035844.900,2500.7952744,N,12132.4377682,E,4,45,0.62,16.830,M,15.25,M,0,3335*4D
$GNRMC,035844.900,A,2500.7952744,N,12132.4377682,E,0.05,146.48,090324,,,R,V*19
$GPHDT,,T*1B
$GNACCURACY,4.8*1A
$GNGGA,035845.000,2500.7952747,N,12132.4377660,E,4,45,0.62,16.822,M,15.25,M,1,3335*48
$GNRMC,035845.000,A,2500.7952747,N,12132.4377660,E,0.04,146.48,090324,,,R,V*1F
$GPHDT,92.511,T*0B
$GNACCURACY,4.8*1A
$GNGGA,035845.100,2500.7952753,N,12132.4377660,E,4,45,0.62,16.817,M,15.25,M,1,3335*4A
$GNRMC,035845.100,A,2500.7952753,N,12132.4377660,E,0.02,146.48,090324,,,R,V*1D
$GPHDT,,T*1B
$GNGSA,A,3,08,194,195,199,21,02,27,07,16,26,,,1.14,0.62,0.96,1*36
$GNGSA,A,3,88,78,77,79,,,,,,,,,1.14,0.62,0.96,2*0C
$GNGSA,A,3,13,21,26,27,,,,,,,,,1.14,0.62,0.96,3*0C
$GNGSA,A,3,09,16,23,43,40,07,39,28,10,25,37,34,1.14,0.62,0.96,4*05
$GPGSV,4,1,13,08,66,346,43,194,64,050,41,195,63,117,43,50,60,167,40,1*6C
$GPGSV,4,2,13,199,60,167,37,21,55,160,44,02,43,178,46,27,37,033,42,1*59
$GPGSV,4,3,13,07,37,318,37,16,29,070,38,04,21,206,17,196,20,170,14,1*56
$GPGSV,4,4,13,26,10,095,15,1*5B
$GPGSV,2,1,07,08,66,346,43,194,64,050,45,195,63,117,41,199,60,167,45,8*51
$GPGSV,2,2,07,27,37,033,43,196,20,170,25,26,10,095,20,8*6A
$GLGSV,2,1,05,88,60,037,43,78,54,028,43,77,26,105,16,79,22,330,38,1*7A
$GLGSV,2,2,05,87,07,026,20,1*43
$GAGSV,2,1,07,13,54,088,39,21,54,006,43,26,39,173,40,27,30,075,38,7*7D
$GAGSV,2,2,07,15,16,041,35,04,12,303,,33,01,200,,7*40
$GAGSV,2,1,05,13,54,088,42,21,54,006,43,26,39,173,44,27,30,075,40,1*7E
$GAGSV,2,2,05,15,16,041,31,1*44
$GBGSV,3,1,12,09,74,274,39,16,71,197,44,23,71,019,47,43,63,039,44,1*7C
$GBGSV,3,2,12,40,62,326,39,07,61,305,40,39,60,185,44,28,52,217,47,1*71
$GBGSV,3,3,12,10,51,286,18,25,40,113,39,37,26,320,28,34,15,040,21,1*70
$GBGSV,2,1,07,23,71,019,48,40,62,326,40,39,60,185,43,28,52,217,44,4*79
$GBGSV,2,2,07,25,40,113,37,37,26,320,27,34,15,040,19,4*4B
$GNACCURACY,4.8*1A
$PAIRSAT,1,23,2,0,201,3,0,200,4,0,200,5,0,200,6,0,200,7,0,201,8,0,221,16,0,1,20,0,200,21,0,201,22,0,200,23,0,200,24,0,200,25,0,200,26,0,220,27,0,221,28,0,200,29,0,200,30,0,200,194,0,21,195,0,621,196,0,600,199,0,621*55
$PAIRSAT,2,15,70,0,200,71,0,200,73,0,200,74,0,200,75,0,200,76,0,200,77,0,1,78,0,201,79,0,201,80,0,200,84,0,200,85,0,200,86,0,200,87,0,201,88,0,201*5B
$PAIRSAT,3,21,2,0,1200,3,0,1200,4,0,1200,5,0,200,7,0,1200,8,0,1200,9,0,1200,10,0,200,11,0,200,12,0,200,13,0,221,15,0,200,21,0,21,25,0,1000,26,0,1021,27,0,1021,30,0,1000,31,0,1000,33,0,1200,34,0,1000,36,0,1200*54
$PAIRSAT,4,40,3,0,400,7,0,1,9,0,201,10,0,201,11,0,200,12,0,200,13,0,200,14,0,200,16,0,201,19,0,600,20,0,600,21,0,600,22,0,400,23,0,421,24,0,400,25,0,421,26,0,400,27,0,400,28,0,421,29,0,400,30,0,400,32,0,400,33,0,400,34,0,421,35,0,400,36,0,400,37,0,421,38,0,400,39,0,421,40,0,421,41,0,400,42,0,400,43,0,421,44,0,400,45,0,400,46,0,400,59,0,400,60,0,400,61,0,400,62,0,400*43
$PAIRDGP,7,2,7,8,16,21,26,27*56
$GNGGA,035845.200,2500.7952748,N,12132.4377673,E,4,45,0.62,16.818,M,15.25,M,1,3335*4E
$GNRMC,035845.200,A,2500.7952748,N,12132.4377673,E,0.01,146.48,090324,,,R,V*15
$GPHDT,92.558,T*06
$GNACCURACY,4.8*1A
$GNGGA,035845.300,2500.7952745,N,12132.4377635,E,4,45,0.62,16.826,M,15.25,M,1,3335*4D
$GNRMC,035845.300,A,2500.7952745,N,12132.4377635,E,0.01,146.48,090324,,,R,V*1B
$GPHDT,,T*1B
$GNACCURACY,4.8*1A
$GNGGA,035845.400,2500.7952750,N,12132.4377665,E,4,45,0.62,16.809,M,15.25,M,1,3335*46
$GNRMC,035845.400,A,2500.7952750,N,12132.4377665,E,0.01,146.48,090324,,,R,V*1D
$GPHDT,92.320,T*0F
$GNACCURACY,4.8*1A
$GNGGA,035845.500,2500.7952741,N,12132.4377676,E,4,45,0.62,16.818,M,15.25,M,1,3335*45
$GNRMC,035845.500,A,2500.7952741,N,12132.4377676,E,0.01,146.48,090324,,,R,V*1E
$GPHDT,,T*1B
$GNACCURACY,4.8*1A
$GNGGA,035845.600,2500.7952727,N,12132.4377678,E,4,45,0.62,16.816,M,15.25,M,0,3335*47
$GNRMC,035845.600,A,2500.7952727,N,12132.4377678,E,0.01,146.48,090324,,,R,V*13
$GPHDT,92.137,T*0B
$GNACCURACY,4.7*15
$GNGGA,035845.700,2500.7952722,N,12132.4377695,E,4,45,0.62,16.823,M,15.25,M,0,3335*46
$GNRMC,035845.700,A,2500.7952722,N,12132.4377695,E,0.01,146.48,090324,,,R,V*14
$GPHDT,,T*1B
$GNACCURACY,4.7*15
$GNGGA,035845.800,2500.7952725,N,12132.4377660,E,4,45,0.62,16.823,M,15.25,M,0,3335*44
$GNRMC,035845.800,A,2500.7952725,N,12132.4377660,E,0.03,146.48,090324,,,R,V*14
$GPHDT,91.844,T*05
$GNACCURACY,4.6*14
$GNGGA,035845.900,2500.7952714,N,12132.4377679,E,4,45,0.62,16.817,M,15.25,M,0,3335*48
$GNRMC,035845.900,A,2500.7952714,N,12132.4377679,E,0.07,146.48,090324,,,R,V*1B
$GPHDT,,T*1B
$GNACCURACY,4.6*14
$GNGGA,035846.000,2500.7952714,N,12132.4377677,E,4,45,0.62,16.827,M,15.25,M,1,3335*4E
$GNRMC,035846.000,A,2500.7952714,N,12132.4377677,E,0.03,146.48,090324,,,R,V*1B
$GPHDT,91.597,T*06
$GNACCURACY,4.7*15
$GNGGA,035846.100,2500.7952710,N,12132.4377681,E,4,45,0.62,16.815,M,15.25,M,1,3335*43
$GNRMC,035846.100,A,2500.7952710,N,12132.4377681,E,0.03,146.48,090324,,,R,V*17
$GPHDT,,T*1B
$GNGSA,A,3,08,194,195,199,21,02,27,07,16,26,,,1.14,0.62,0.96,1*36
$GNGSA,A,3,88,78,77,79,,,,,,,,,1.14,0.62,0.96,2*0C
$GNGSA,A,3,13,21,26,27,,,,,,,,,1.14,0.62,0.96,3*0C
$GNGSA,A,3,09,16,23,43,40,07,39,28,10,25,37,34,1.14,0.62,0.96,4*05
$GPGSV,4,1,13,08,66,346,43,194,64,050,41,195,63,117,44,50,60,167,40,1*6B
$GPGSV,4,2,13,199,60,167,37,21,55,160,45,02,43,178,46,27,37,033,42,1*58
$GPGSV,4,3,13,07,37,318,36,16,29,070,38,04,21,206,17,196,20,170,13,1*50
$GPGSV,4,4,13,26,10,095,15,1*5B
$GPGSV,2,1,07,08,66,346,43,194,64,050,45,195,63,117,41,199,60,167,45,8*51
$GPGSV,2,2,07,27,37,033,44,196,20,170,26,26,10,095,20,8*6E
$GLGSV,2,1,05,88,60,037,43,78,54,028,43,77,26,105,16,79,22,330,37,1*75
$GLGSV,2,2,05,87,07,026,18,1*48
$GAGSV,2,1,07,13,54,088,40,21,54,006,41,26,39,173,40,27,30,075,38,7*71
$GAGSV,2,2,07,15,16,041,34,04,12,303,,33,01,200,,7*41
$GAGSV,2,1,05,13,54,088,42,21,54,006,44,26,39,173,44,27,30,075,39,1*77
$GAGSV,2,2,05,15,16,041,32,1*47
$GBGSV,3,1,12,09,74,274,40,16,71,197,44,23,71,019,45,43,63,039,44,1*70
$GBGSV,3,2,12,40,62,326,39,07,61,305,40,39,60,185,44,28,52,217,47,1*71
$GBGSV,3,3,12,10,51,286,18,25,40,113,37,37,26,320,29,34,15,040,20,1*7E
$GBGSV,2,1,07,23,71,019,48,40,62,326,40,39,60,185,43,28,52,217,44,4*79
$GBGSV,2,2,07,25,40,113,36,37,26,320,32,34,15,040,18,4*4F
$GNACCURACY,4.7*15
$PAIRSAT,1,23,2,0,201,3,0,200,4,0,200,5,0,200,6,0,200,7,0,201,8,0,221,16,0,1,20,0,200,21,0,201,22,0,200,23,0,200,24,0,200,25,0,200,26,0,220,27,0,221,28,0,200,29,0,200,30,0,200,194,0,21,195,0,621,196,0,600,199,0,621*55
$PAIRSAT,2,15,70,0,200,71,0,200,73,0,200,74,0,200,75,0,200,76,0,200,77,0,1,78,0,201,79,0,201,80,0,200,84,0,200,85,0,200,86,0,200,87,0,201,88,0,201*5B
$PAIRSAT,3,21,2,0,1200,3,0,1200,4,0,1200,5,0,200,7,0,1200,8,0,1200,9,0,1200,10,0,200,11,0,200,12,0,200,13,0,221,15,0,200,21,0,21,25,0,1000,26,0,1021,27,0,1021,30,0,1000,31,0,1000,33,0,1200,34,0,1000,36,0,1200*54
$PAIRSAT,4,40,3,0,400,7,0,1,9,0,201,10,0,201,11,0,200,12,0,200,13,0,200,14,0,200,16,0,201,19,0,600,20,0,600,21,0,600,22,0,400,23,0,421,24,0,400,25,0,421,26,0,400,27,0,400,28,0,421,29,0,400,30,0,400,32,0,400,33,0,400,34,0,421,35,0,400,36,0,400,37,0,421,38,0,400,39,0,421,40,0,421,41,0,400,42,0,400,43,0,421,44,0,400,45,0,400,46,0,400,59,0,400,60,0,400,61,0,400,62,0,400*43
$PAIRDGP,7,2,7,8,16,21,26,27*56
$GNGGA,035846.200,2500.7952714,N,12132.4377642,E,4,45,0.62,16.804,M,15.25,M,1,3335*4B
$GNRMC,035846.200,A,2500.7952714,N,12132.4377642,E,0.01,146.48,090324,,,R,V*1D
$GPHDT,91.820,T*07
$GNACCURACY,4.7*15
$GNGGA,035846.300,2500.7952755,N,12132.4377576,E,4,45,0.62,16.766,M,15.25,M,1,3335*40
$GNRMC,035846.300,A,2500.7952755,N,12132.4377576,E,0.01,146.48,090324,,,R,V*1D
$GPHDT,,T*1B
$GNACCURACY,4.7*15
$GNGGA,035846.400,2500.7952755,N,12132.4377575,E,4,45,0.62,16.770,M,15.25,M,1,3335*43
$GNRMC,035846.400,A,2500.7952755,N,12132.4377575,E,0.01,146.48,090324,,,R,V*19
$GPHDT,92.015,T*0A
$GNACCURACY,4.6*14
$GNGGA,035846.500,2500.7952757,N,12132.4377609,E,4,45,0.62,16.784,M,15.25,M,0,3335*42
$GNRMC,035846.500,A,2500.7952757,N,12132.4377609,E,0.03,146.48,090324,,,R,V*10
$GPHDT,,T*1B
$GNACCURACY,4.6*14
$GNGGA,035846.600,2500.7952769,N,12132.4377581,E,4,45,0.62,16.774,M,15.25,M,0,3335*40
$GNRMC,035846.600,A,2500.7952769,N,12132.4377581,E,0.02,146.48,090324,,,R,V*1C
$GPHDT,92.089,T*0F
$GNACCURACY,4.6*14
$GNGGA,035846.700,2500.7952770,N,12132.4377572,E,4,45,0.62,16.772,M,15.25,M,0,3335*43
$GNRMC,035846.700,A,2500.7952770,N,12132.4377572,E,0.01,146.48,090324,,,R,V*1A
$GPHDT,,T*1B
$GNACCURACY,4.6*14
$GNGGA,035846.800,2500.7952753,N,12132.4377607,E,4,46,0.62,16.774,M,15.25,M,0,3335*49
$GNRMC,035846.800,A,2500.7952753,N,12132.4377607,E,0.03,146.48,090324,,,R,V*17
$GPHDT,91.996,T*0B
$GNACCURACY,4.7*15
$GNGGA,035846.900,2500.7952761,N,12132.4377600,E,4,46,0.62,16.779,M,15.25,M,0,3335*43
$GNRMC,035846.900,A,2500.7952761,N,12132.4377600,E,0.04,146.48,090324,,,R,V*17
$GPHDT,,T*1B
$GNACCURACY,4.7*15
$GNGGA,035847.000,2500.7952766,N,12132.4377605,E,4,46,0.62,16.770,M,15.25,M,1,3335*41
$GNRMC,035847.000,A,2500.7952766,N,12132.4377605,E,0.01,146.48,090324,,,R,V*18
$GPHDT,92.022,T*0E
$GNACCURACY,4.7*15
$GNGGA,035847.100,2500.7952752,N,12132.4377599,E,4,46,0.62,16.776,M,15.25,M,1,3335*47
$GNRMC,035847.100,A,2500.7952752,N,12132.4377599,E,0.02,146.48,090324,,,R,V*1B
$GPHDT,,T*1B
$GNGSA,A,3,08,194,195,199,21,02,27,07,16,26,,,1.14,0.62,0.96,1*36
$GNGSA,A,3,88,78,77,79,,,,,,,,,1.14,0.62,0.96,2*0C
$GNGSA,A,3,13,21,26,27,,,,,,,,,1.14,0.62,0.96,3*0C
$GNGSA,A,3,09,16,23,43,40,07,39,28,10,25,37,34,1.14,0.62,0.96,4*05
$GPGSV,4,1,13,08,66,346,43,194,64,050,41,195,63,117,44,50,60,167,40,1*6B
$GPGSV,4,2,13,199,60,167,37,21,55,160,45,02,43,178,46,27,37,033,43,1*59
$GPGSV,4,3,13,07,37,318,31,16,29,070,39,04,21,206,17,196,20,170,13,1*56
$GPGSV,4,4,13,26,10,095,16,1*58
$GPGSV,2,1,07,08,66,346,44,194,64,050,45,195,63,117,42,199,60,167,45,8*55
$GPGSV,2,2,07,27,37,033,44,196,20,170,26,26,10,095,20,8*6E
$GLGSV,2,1,05,88,60,037,43,78,54,028,43,77,26,105,20,79,22,330,30,1*77
$GLGSV,2,2,05,87,07,026,19,1*49
$GAGSV,2,1,07,13,54,088,40,21,54,006,41,26,39,173,40,27,30,075,38,7*71
$GAGSV,2,2,07,15,16,041,35,04,12,303,,33,01,200,,7*40
$GAGSV,2,1,05,13,54,088,42,21,54,006,46,26,39,173,44,27,30,075,39,1*75
$GAGSV,2,2,05,15,16,041,34,1*41
$GBGSV,3,1,12,09,74,274,40,16,71,197,44,23,71,019,46,43,63,039,44,1*73
$GBGSV,3,2,12,40,62,326,41,07,61,305,41,39,60,185,44,28,52,217,46,1*7E
$GBGSV,3,3,12,10,51,286,18,25,40,113,36,37,26,320,24,34,15,040,22,1*70
$GBGSV,2,1,08,23,71,019,48,43,63,039,45,40,62,326,40,39,60,185,43,4*76
$GBGSV,2,2,08,28,52,217,44,25,40,113,36,37,26,320,33,34,15,040,21,4*72
$GNACCURACY,4.7*15
$PAIRSAT,1,23,2,0,201,3,0,200,4,0,200,5,0,200,6,0,200,7,0,201,8,0,221,16,0,1,20,0,200,21,0,201,22,0,200,23,0,200,24,0,200,25,0,200,26,0,220,27,0,221,28,0,200,29,0,200,30,0,200,194,0,21,195,0,621,196,0,600,199,0,621*55
$PAIRSAT,2,15,70,0,200,71,0,200,73,0,200,74,0,200,75,0,200,76,0,200,77,0,1,78,0,201,79,0,201,80,0,200,84,0,200,85,0,200,86,0,200,87,0,201,88,0,201*5B
$PAIRSAT,3,21,2,0,1200,3,0,1200,4,0,1200,5,0,200,7,0,1200,8,0,1200,9,0,1200,10,0,200,11,0,200,12,0,200,13,0,221,15,0,200,21,0,21,25,0,1000,26,0,1021,27,0,1021,30,0,1000,31,0,1000,33,0,1200,34,0,1000,36,0,1200*54
$PAIRSAT,4,40,3,0,400,7,0,1,9,0,201,10,0,201,11,0,200,12,0,200,13,0,200,14,0,200,16,0,201,19,0,600,20,0,600,21,0,600,22,0,400,23,0,421,24,0,400,25,0,421,26,0,400,27,0,400,28,0,421,29,0,400,30,0,400,32,0,400,33,0,400,34,0,421,35,0,400,36,0,400,37,0,421,38,0,400,39,0,421,40,0,421,41,0,400,42,0,400,43,0,421,44,0,400,45,0,400,46,0,400,59,0,400,60,0,400,61,0,400,62,0,400*43
$PAIRDGP,7,2,7,8,16,21,26,27*56
$GNGGA,035847.200,2500.7952762,N,12132.4377614,E,4,46,0.62,16.783,M,15.25,M,1,3335*4B
$GNRMC,035847.200,A,2500.7952762,N,12132.4377614,E,0.02,146.48,090324,,,R,V*1D
$GPHDT,92.071,T*08
$GNACCURACY,4.7*15
$GNGGA,035847.300,2500.7952754,N,12132.4377651,E,4,46,0.62,16.790,M,15.25,M,1,3335*4C
$GNRMC,035847.300,A,2500.7952754,N,12132.4377651,E,0.03,146.48,090324,,,R,V*19
$GPHDT,,T*1B
$GNACCURACY,4.8*1A
$GNGGA,035847.400,2500.7952748,N,12132.4377632,E,4,46,0.62,16.791,M,15.25,M,1,3335*42
$GNRMC,035847.400,A,2500.7952748,N,12132.4377632,E,0.03,146.48,090324,,,R,V*16
$GPHDT,91.867,T*04
$GNACCURACY,4.7*15
$GNGGA,035847.500,2500.7952723,N,12132.4377681,E,4,46,0.62,16.792,M,15.25,M,1,3335*45
$GNRMC,035847.500,A,2500.7952723,N,12132.4377681,E,0.03,146.48,090324,,,R,V*12
$GPHDT,,T*1B
$GNACCURACY,4.7*15
$GNGGA,035847.600,2500.7952704,N,12132.4377743,E,4,46,0.62,16.801,M,15.25,M,1,3335*49
$GNRMC,035847.600,A,2500.7952704,N,12132.4377743,E,0.02,146.48,090324,,,R,V*1A
$GPHDT,91.431,T*0B
$GNACCURACY,4.7*15
$GNGGA,035847.700,2500.7952716,N,12132.4377716,E,4,46,0.62,16.811,M,15.25,M,0,3335*4B
$GNRMC,035847.700,A,2500.7952716,N,12132.4377716,E,0.01,146.48,090324,,,R,V*1B
$GPHDT,,T*1B
$GNACCURACY,4.7*15
$GNGGA,035847.800,2500.7952721,N,12132.4377753,E,4,46,0.62,16.832,M,15.25,M,0,3335*40
$GNRMC,035847.800,A,2500.7952721,N,12132.4377753,E,0.05,146.48,090324,,,R,V*15
$GPHDT,91.766,T*0A
$GNACCURACY,4.7*15
$GNGGA,035847.900,2500.7952731,N,12132.4377696,E,4,45,0.62,16.826,M,15.25,M,0,3335*4E
$GNRMC,035847.900,A,2500.7952731,N,12132.4377696,E,0.03,146.48,090324,,,R,V*1B
$GPHDT,,T*1B
$GNACCURACY,4.7*15
$GNGGA,035848.000,2500.7952742,N,12132.4377691,E,4,45,0.62,16.840,M,15.25,M,1,3335*4A
$GNRMC,035848.000,A,2500.7952742,N,12132.4377691,E,0.02,146.48,090324,,,R,V*1F
$GPHDT,91.952,T*03
$GNACCURACY,4.7*15
$GNGGA,035848.100,2500.7952736,N,12132.4377683,E,4,45,0.62,16.825,M,15.25,M,1,3335*48
$GNRMC,035848.100,A,2500.7952736,N,12132.4377683,E,0.03,146.48,090324,,,R,V*1F
$GPHDT,,T*1B
$GNGSA,A,3,08,194,195,199,21,02,07,27,16,26,,,1.14,0.62,0.96,1*36
$GNGSA,A,3,88,78,77,79,,,,,,,,,1.14,0.62,0.96,2*0C
$GNGSA,A,3,13,21,26,27,,,,,,,,,1.14,0.62,0.96,3*0C
$GNGSA,A,3,09,16,23,43,40,07,39,28,10,25,37,34,1.14,0.62,0.96,4*05
$GPGSV,4,1,14,08,66,346,42,194,64,050,41,195,63,117,44,50,60,167,40,1*6D
$GPGSV,4,2,14,199,60,167,37,21,55,160,45,02,43,178,46,07,37,318,38,1*5A
$GPGSV,4,3,14,27,37,033,43,16,29,070,39,04,21,206,13,196,20,170,13,1*58
$GPGSV,4,4,14,26,10,095,15,30,07,320,,1*69
$GPGSV,2,1,07,08,66,346,42,194,64,050,45,195,63,117,42,199,60,167,45,8*53
$GPGSV,2,2,07,27,37,033,45,196,20,170,25,26,10,095,20,8*6C
$GLGSV,2,1,05,88,60,037,43,78,54,028,44,77,26,105,20,79,22,330,38,1*78
$GLGSV,2,2,05,87,07,026,19,1*49
$GAGSV,2,1,07,13,54,088,39,21,54,006,40,26,39,173,39,27,30,075,38,7*70
$GAGSV,2,2,07,15,16,041,35,04,12,303,,33,01,200,,7*40
$GAGSV,2,1,05,13,54,088,42,21,54,006,43,26,39,173,44,27,30,075,40,1*7E
$GAGSV,2,2,05,15,16,041,31,1*44
$GBGSV,3,1,12,09,74,274,40,16,71,197,44,23,71,019,45,43,63,039,45,1*71
$GBGSV,3,2,12,40,62,326,39,07,61,305,38,39,60,185,44,28,52,217,47,1*7E
$GBGSV,3,3,12,10,51,286,18,25,40,113,34,37,26,320,28,34,15,040,19,1*76
$GBGSV,2,1,07,23,71,019,48,40,62,326,39,39,60,185,43,28,52,217,44,4*77
$GBGSV,2,2,07,25,40,113,38,37,26,320,30,34,15,040,19,4*42
$GNACCURACY,4.7*15
$PAIRSAT,1,23,2,0,201,3,0,200,4,0,200,5,0,200,6,0,200,7,0,201,8,0,221,16,0,1,20,0,200,21,0,201,22,0,200,23,0,200,24,0,200,25,0,200,26,0,220,27,0,221,28,0,200,29,0,200,30,0,200,194,0,21,195,0,621,196,0,600,199,0,621*55
$PAIRSAT,2,15,70,0,200,71,0,200,73,0,200,74,0,200,75,0,200,76,0,200,77,0,1,78,0,201,79,0,201,80,0,200,84,0,200,85,0,200,86,0,200,87,0,201,88,0,201*5B
$PAIRSAT,3,21,2,0,1200,3,0,1200,4,0,1200,5,0,200,7,0,1200,8,0,1200,9,0,1200,10,0,200,11,0,200,12,0,200,13,0,221,15,0,200,21,0,21,25,0,1000,26,0,1021,27,0,1021,30,0,1000,31,0,1000,33,0,1200,34,0,1000,36,0,1200*54
$PAIRSAT,4,40,3,0,400,7,0,1,9,0,201,10,0,201,11,0,200,12,0,200,13,0,200,14,0,200,16,0,201,19,0,600,20,0,600,21,0,600,22,0,400,23,0,421,24,0,400,25,0,421,26,0,400,27,0,400,28,0,421,29,0,400,30,0,400,32,0,400,33,0,400,34,0,421,35,0,400,36,0,400,37,0,421,38,0,400,39,0,421,40,0,421,41,0,400,42,0,400,43,0,421,44,0,400,45,0,400,46,0,400,59,0,400,60,0,400,61,0,400,62,0,400*43
$PAIRDGP,7,2,7,8,16,21,26,27*56
$GNGGA,035848.200,2500.7952720,N,12132.4377693,E,4,45,0.62,16.815,M,15.25,M,1,3335*4E
$GNRMC,035848.200,A,2500.7952720,N,12132.4377693,E,0.02,146.48,090324,,,R,V*1B
$GPHDT,91.705,T*0F
$GNACCURACY,4.7*15
$GNGGA,035848.300,2500.7952705,N,12132.4377688,E,4,45,0.62,16.819,M,15.25,M,1,3335*4E
$GNRMC,035848.300,A,2500.7952705,N,12132.4377688,E,0.03,146.48,090324,,,R,V*16
$GPHDT,,T*1B
$GNACCURACY,4.7*15
$GNGGA,035848.400,2500.7952725,N,12132.4377724,E,4,45,0.62,16.820,M,15.25,M,1,3335*46
$GNRMC,035848.400,A,2500.7952725,N,12132.4377724,E,0.03,146.48,090324,,,R,V*14
$GPHDT,91.843,T*02
$GNACCURACY,4.7*15
$GNGGA,035848.500,2500.7952721,N,12132.4377702,E,4,45,0.62,16.811,M,15.25,M,1,3335*45
$GNRMC,035848.500,A,2500.7952721,N,12132.4377702,E,0.02,146.48,090324,,,R,V*14
$GPHDT,,T*1B
$GNACCURACY,4.7*15
$GNGGA,035848.600,2500.7952721,N,12132.4377665,E,4,46,0.62,16.808,M,15.25,M,0,3335*4C
$GNRMC,035848.600,A,2500.7952721,N,12132.4377665,E,0.02,146.48,090324,,,R,V*17
$GPHDT,91.897,T*0B
$GNACCURACY,4.7*15
$GNGGA,035848.700,2500.7952715,N,12132.4377654,E,4,45,0.62,16.805,M,15.25,M,0,3335*46
$GNRMC,035848.700,A,2500.7952715,N,12132.4377654,E,0.06,146.48,090324,,,R,V*17
$GPHDT,,T*1B
$GNACCURACY,4.7*15
$GNGGA,035848.800,2500.7952762,N,12132.4377596,E,4,45,0.62,16.778,M,15.25,M,0,3335*41
$GNRMC,035848.800,A,2500.7952762,N,12132.4377596,E,0.04,146.48,090324,,,R,V*17
$GPHDT,92.199,T*0F
$GNACCURACY,4.7*15
$GNGGA,035848.900,2500.7952750,N,12132.4377613,E,4,46,0.62,16.787,M,15.25,M,0,3335*4C
$GNRMC,035848.900,A,2500.7952750,N,12132.4377613,E,0.06,146.48,090324,,,R,V*1B
$GPHDT,,T*1B
$GNACCURACY,4.7*15
$GNGGA,035849.000,2500.7952744,N,12132.4377593,E,4,45,0.62,16.772,M,15.25,M,1,3335*42
$GNRMC,035849.000,A,2500.7952744,N,12132.4377593,E,0.03,146.48,090324,,,R,V*18
$GPHDT,92.298,T*0D
$GNACCURACY,4.7*15
$GNGGA,035849.100,2500.7952755,N,12132.4377626,E,4,45,0.62,16.793,M,15.25,M,1,3335*41
$GNRMC,035849.100,A,2500.7952755,N,12132.4377626,E,0.03,146.48,090324,,,R,V*14
$GPHDT,,T*1B
$GNGSA,A,3,08,194,195,199,21,02,27,07,16,26,,,1.14,0.62,0.96,1*36
$GNGSA,A,3,88,78,77,79,,,,,,,,,1.14,0.62,0.96,2*0C
$GNGSA,A,3,13,21,26,27,,,,,,,,,1.14,0.62,0.96,3*0C
$GNGSA,A,3,09,16,23,43,40,07,39,28,10,25,37,34,1.14,0.62,0.96,4*05
$GPGSV,4,1,13,08,66,346,42,194,64,050,41,195,63,117,44,50,60,167,40,1*6A
$GPGSV,4,2,13,199,60,167,37,21,55,160,45,02,43,178,46,27,37,033,43,1*59
$GPGSV,4,3,13,07,37,318,34,16,29,070,39,04,21,206,13,196,20,170,13,1*57
$GPGSV,4,4,13,26,10,095,17,1*59
$GPGSV,2,1,07,08,66,346,44,194,64,050,45,195,63,117,42,199,60,167,45,8*55
$GPGSV,2,2,07,27,37,033,45,196,20,170,25,26,10,095,19,8*66
$GLGSV,2,1,05,88,60,037,43,78,54,028,44,77,26,105,22,79,22,330,28,1*7B
$GLGSV,2,2,05,87,07,026,20,1*43
$GAGSV,2,1,07,13,54,088,40,21,54,006,41,26,39,173,39,27,30,075,38,7*7F
$GAGSV,2,2,07,15,16,041,34,04,12,303,,33,01,200,,7*41
$GAGSV,2,1,05,13,54,088,42,21,54,006,45,26,39,173,44,27,30,075,40,1*78
$GAGSV,2,2,05,15,16,041,34,1*41
$GBGSV,3,1,12,09,74,274,41,16,71,197,44,23,71,019,46,43,63,039,44,1*72
$GBGSV,3,2,12,40,62,326,40,07,61,305,41,39,60,185,44,28,52,217,47,1*7E
$GBGSV,3,3,12,10,51,286,18,25,40,113,37,37,26,320,24,34,15,040,20,1*73
$GBGSV,2,1,08,23,71,019,48,43,63,039,45,40,62,326,41,39,60,185,43,4*77
$GBGSV,2,2,08,28,52,217,44,25,40,113,35,37,26,320,32,34,15,040,19,4*7B
$GNACCURACY,4.7*15
$PAIRSAT,1,23,2,0,201,3,0,200,4,0,200,5,0,200,6,0,200,7,0,201,8,0,221,16,0,1,20,0,200,21,0,201,22,0,200,23,0,200,24,0,200,25,0,200,26,0,220,27,0,221,28,0,200,29,0,200,30,0,200,194,0,21,195,0,621,196,0,600,199,0,621*55
$PAIRSAT,2,15,70,0,200,71,0,200,73,0,200,74,0,200,75,0,200,76,0,200,77,0,1,78,0,201,79,0,201,80,0,200,84,0,200,85,0,200,86,0,200,87,0,201,88,0,201*5B
$PAIRSAT,3,21,2,0,1200,3,0,1200,4,0,1200,5,0,200,7,0,1200,8,0,1200,9,0,1200,10,0,200,11,0,200,12,0,200,13,0,221,15,0,200,21,0,21,25,0,1000,26,0,1021,27,0,1021,30,0,1000,31,0,1000,33,0,1200,34,0,1000,36,0,1200*54
$PAIRSAT,4,40,3,0,400,7,0,1,9,0,201,10,0,201,11,0,200,12,0,200,13,0,200,14,0,200,16,0,201,19,0,600,20,0,600,21,0,600,22,0,400,23,0,421,24,0,400,25,0,421,26,0,400,27,0,400,28,0,421,29,0,400,30,0,400,32,0,400,33,0,400,34,0,421,35,0,400,36,0,400,37,0,421,38,0,400,39,0,421,40,0,421,41,0,400,42,0,400,43,0,421,44,0,400,45,0,400,46,0,400,59,0,400,60,0,400,61,0,400,62,0,400*43
$PAIRDGP,7,2,7,8,16,21,26,27*56
$GNGGA,035849.200,2500.7952757,N,12132.4377569,E,4,45,0.62,16.774,M,15.25,M,1,3335*41
$GNRMC,035849.200,A,2500.7952757,N,12132.4377569,E,0.03,146.48,090324,,,R,V*1D
$GPHDT,92.284,T*00
$GNACCURACY,4.7*15
$GNGGA,035849.300,2500.7952745,N,12132.4377621,E,4,45,0.62,16.788,M,15.25,M,1,3335*4F
$GNRMC,035849.300,A,2500.7952745,N,12132.4377621,E,0.02,146.48,090324,,,R,V*11
$GPHDT,,T*1B
$GNACCURACY,4.7*15
$GNGGA,035849.400,2500.7952752,N,12132.4377595,E,4,46,0.62,16.792,M,15.25,M,1,3335*4A
$GNRMC,035849.400,A,2500.7952752,N,12132.4377595,E,0.02,146.48,090324,,,R,V*1C
$GPHDT,92.403,T*09
$GNACCURACY,4.8*1A
$GNGGA,035849.500,2500.7952745,N,12132.4377579,E,4,46,0.62,16.778,M,15.25,M,0,3335*4A
$GNRMC,035849.500,A,2500.7952745,N,12132.4377579,E,0.02,146.48,090324,,,R,V*19
$GPHDT,,T*1B
$GNACCURACY,4.8*1A
$GNGGA,035849.600,2500.7952735,N,12132.4377588,E,4,46,0.62,16.789,M,15.25,M,0,3335*4E
$GNRMC,035849.600,A,2500.7952735,N,12132.4377588,E,0.02,146.48,090324,,,R,V*13
$GPHDT,92.084,T*02
$GNACCURACY,4.8*1A
$GNGGA,035849.700,2500.7952741,N,12132.4377617,E,4,46,0.62,16.801,M,15.25,M,0,3335*46
$GNRMC,035849.700,A,2500.7952741,N,12132.4377617,E,0.06,146.48,090324,,,R,V*10
$GPHDT,,T*1B
$GNACCURACY,4.8*1A
$GNGGA,035849.800,2500.7952741,N,12132.4377611,E,4,46,0.62,16.779,M,15.25,M,0,3335*4F
$GNRMC,035849.800,A,2500.7952741,N,12132.4377611,E,0.07,146.48,090324,,,R,V*18
$GPHDT,92.228,T*06
$GNACCURACY,4.8*1A
$GNGGA,035849.900,2500.7952738,N,12132.4377601,E,4,46,0.62,16.798,M,15.25,M,0,3335*4E
$GNRMC,035849.900,A,2500.7952738,N,12132.4377601,E,0.04,146.48,090324,,,R,V*15
$GPHDT,,T*1B
$GNACCURACY,4.8*1A
$GNGGA,035850.000,2500.7952753,N,12132.4377612,E,4,46,0.62,16.788,M,15.25,M,1,3335*40
$GNRMC,035850.000,A,2500.7952753,N,12132.4377612,E,0.03,146.48,090324,,,R,V*1C
$GPHDT,92.091,T*06
$GNACCURACY,4.8*1A
$GNGGA,035850.100,2500.7952769,N,12132.4377582,E,4,46,0.62,16.778,M,15.25,M,1,3335*4D
$GNRMC,035850.100,A,2500.7952769,N,12132.4377582,E,0.04,146.48,090324,,,R,V*19
$GPHDT,,T*1B
$GNGSA,A,3,08,194,195,199,21,02,27,07,16,26,,,1.14,0.62,0.96,1*36
$GNGSA,A,3,88,78,77,79,,,,,,,,,1.14,0.62,0.96,2*0C
$GNGSA,A,3,21,13,26,27,,,,,,,,,1.14,0.62,0.96,3*0C
$GNGSA,A,3,09,16,23,43,40,07,39,28,10,25,37,34,1.14,0.62,0.96,4*05
$GPGSV,4,1,13,08,66,346,42,194,64,050,41,195,63,117,44,50,60,167,40,1*6A
$GPGSV,4,2,13,199,60,167,37,21,55,160,45,02,43,178,46,27,37,033,43,1*59
$GPGSV,4,3,13,07,37,318,34,16,29,070,39,04,21,206,12,196,20,170,13,1*56
$GPGSV,4,4,13,26,10,096,17,1*5A
$GPGSV,2,1,07,08,66,346,44,194,64,050,45,195,63,117,42,199,60,167,46,8*56
$GPGSV,2,2,07,27,37,033,45,196,20,170,27,26,10,096,19,8*67
$GLGSV,2,1,05,88,60,037,44,78,54,028,44,77,26,105,23,79,22,330,26,1*73
$GLGSV,2,2,05,87,07,026,18,1*48
$GAGSV,2,1,06,21,54,006,41,13,54,088,40,26,39,173,40,27,30,075,38,7*70
$GAGSV,2,2,06,15,16,041,34,04,12,303,,7*73
$GAGSV,2,1,05,13,54,088,42,21,54,006,45,26,39,173,44,27,30,075,39,1*76
$GAGSV,2,2,05,15,16,041,35,1*40
$GBGSV,3,1,12,09,74,274,41,16,71,197,44,23,71,019,47,43,63,039,44,1*73
$GBGSV,3,2,12,40,62,326,39,07,61,305,41,39,60,185,44,28,52,217,47,1*70
$GBGSV,3,3,12,10,51,286,17,25,40,113,40,37,26,320,26,34,15,040,24,1*7A
$GBGSV,2,1,07,23,71,019,48,40,62,326,40,39,60,185,43,28,52,217,44,4*79
$GBGSV,2,2,07,25,40,113,34,37,26,320,27,34,15,040,20,4*42
$GNACCURACY,4.8*1A
$PAIRSAT,1,23,2,0,201,3,0,200,4,0,200,5,0,200,6,0,200,7,0,201,8,0,221,16,0,1,20,0,200,21,0,201,22,0,200,23,0,200,24,0,200,25,0,200,26,0,220,27,0,221,28,0,200,29,0,200,30,0,200,194,0,21,195,0,621,196,0,600,199,0,621*55
$PAIRSAT,2,15,70,0,200,71,0,200,73,0,200,74,0,200,75,0,200,76,0,200,77,0,1,78,0,201,79,0,201,80,0,200,84,0,200,85,0,200,86,0,200,87,0,201,88,0,201*5B
$PAIRSAT,3,21,2,0,1200,3,0,1200,4,0,1200,5,0,200,7,0,1200,8,0,1200,9,0,1200,10,0,200,11,0,200,12,0,200,13,0,221,15,0,200,21,0,21,25,0,1000,26,0,1021,27,0,1021,30,0,1000,31,0,1000,33,0,1200,34,0,1000,36,0,1200*54
$PAIRSAT,4,40,3,0,400,7,0,1,9,0,201,10,0,201,11,0,200,12,0,200,13,0,200,14,0,200,16,0,201,19,0,600,20,0,600,21,0,600,22,0,400,23,0,421,24,0,400,25,0,421,26,0,400,27,0,400,28,0,421,29,0,400,30,0,400,32,0,400,33,0,400,34,0,421,35,0,400,36,0,400,37,0,421,38,0,400,39,0,421,40,0,421,41,0,400,42,0,400,43,0,421,44,0,400,45,0,400,46,0,400,59,0,400,60,0,400,61,0,400,62,0,400*43
$PAIRDGP,7,2,7,8,16,21,26,27*56
$GNGGA,035850.200,2500.7952764,N,12132.4377600,E,4,46,0.62,16.787,M,15.25,M,1,3335*4A
$GNRMC,035850.200,A,2500.7952764,N,12132.4377600,E,0.04,146.48,090324,,,R,V*1E
$GPHDT,91.446,T*0B
$GNACCURACY,4.8*1A
$GNGGA,035850.300,2500.7952769,N,12132.4377570,E,4,46,0.62,16.786,M,15.25,M,1,3335*43
$GNRMC,035850.300,A,2500.7952769,N,12132.4377570,E,0.02,146.48,090324,,,R,V*10
$GPHDT,,T*1B
$GNACCURACY,4.8*1A
$GNGGA,035850.400,2500.7952761,N,12132.4377529,E,4,46,0.62,16.777,M,15.25,M,1,3335*4E
$GNRMC,035850.400,A,2500.7952761,N,12132.4377529,E,0.01,146.48,090324,,,R,V*10
$GPHDT,90.706,T*0D
$GNACCURACY,4.8*1A
$GNGGA,035850.500,2500.7952745,N,12132.4377548,E,4,45,0.63,16.790,M,15.25,M,1,3335*45
$GNRMC,035850.500,A,2500.7952745,N,12132.4377548,E,0.01,146.48,090324,,,R,V*10
$GPHDT,,T*1B
