$FW : RTK35X,V1.1X0314AS,Lib20210517,1*54
$Tool : LOCOSYS , GNSS Firebird , v1.0.0.19*39
$---------------------------------------------------*2D
$GPHDT,275.111,T*34
$GNACCURACY,4.6*14
$GNGGA,035801.900,2500.7952630,N,12132.4377529,E,4,42,0.63,16.782,M,15.25,M,0,3335*4C
$GNRMC,035801.900,A,2500.7952630,N,12132.4377529,E,0.09,146.48,090324,,,R,V*14
$GPHDT,,T*1B
$GNACCURACY,4.7*15
$GNGGA,035802.000,2500.7952636,N,12132.4377502,E,4,42,0.63,16.795,M,15.25,M,1,3335*4E
$GNRMC,035802.000,A,2500.7952636,N,12132.4377502,E,0.05,146.48,090324,,,R,V*1D
$GPHDT,274.846,T*3E
$GNACCURACY,4.7*15
$GNGGA,035802.100,2500.7952627,N,12132.4377529,E,4,43,0.63,16.772,M,15.25,M,1,3335*4E
$GNRMC,035802.100,A,2500.7952627,N,12132.4377529,E,0.06,146.48,090324,,,R,V*16
$GPHDT,,T*1B
$GNGSA,A,3,08,194,195,199,21,02,07,27,16,26,,,0.92,0.62,0.69,1*39
$GNGSA,A,3,88,78,77,79,,,,,,,,,0.92,0.62,0.69,2*03
$GNGSA,A,3,13,21,26,27,,,,,,,,,0.92,0.62,0.69,3*03
$GNGSA,A,3,09,23,16,43,40,07,39,10,25,37,34,,0.92,0.62,0.69,4*00
$GPGSV,3,1,12,08,66,345,47,194,64,050,42,195,63,117,36,50,60,167,36,1*6D
$GPGSV,3,2,12,199,60,167,33,21,55,161,41,02,43,178,40,07,37,318,38,1*5C
$GPGSV,3,3,12,27,37,033,42,16,29,070,37,196,20,170,20,26,10,095,17,1*58
$GPGSV,2,1,06,08,66,345,47,194,64,050,44,195,63,117,41,199,60,167,42,8*51
$GPGSV,2,2,06,27,37,033,41,196,20,170,22,8*55
$GLGSV,2,1,05,88,61,037,44,78,54,027,46,77,26,104,17,79,22,330,40,1*79
$GLGSV,2,2,05,87,08,026,17,1*48
$GAGSV,2,1,05,13,54,089,39,21,53,005,44,26,39,173,26,27,30,075,40,7*72
$GAGSV,2,2,05,04,12,303,,7*41
$GAGSV,1,1,04,13,54,089,43,21,53,005,44,26,39,173,40,27,30,075,36,1*7A
$GBGSV,3,1,11,09,74,275,40,23,71,018,47,16,71,197,44,43,63,039,46,1*73
$GBGSV,3,2,11,40,62,325,42,07,61,305,40,39,60,185,42,10,51,286,23,1*79
$GBGSV,3,3,11,25,40,112,37,37,26,320,37,34,15,039,,1*4F
$GBGSV,2,1,07,23,71,018,47,43,63,039,42,40,62,325,40,39,60,185,39,4*7E
$GBGSV,2,2,07,25,40,112,37,37,26,320,24,34,15,039,17,4*49
$GNACCURACY,4.7*15
$PAIRSAT,1,21,2,0,201,3,0,200,4,0,200,5,0,200,6,0,200,7,0,1,8,0,21,16,0,1,20,0,200,21,0,201,22,0,200,23,0,200,24,0,200,25,0,200,26,0,220,27,0,221,28,0,200,194,0,21,195,0,621,196,0,200,199,0,621*6B
$PAIRSAT,2,15,70,0,200,71,0,200,73,0,200,74,0,200,75,0,200,76,0,200,77,0,1,78,0,201,79,0,201,80,0,200,84,0,200,85,0,200,86,0,200,87,0,201,88,0,201*5B
$PAIRSAT,3,20,2,0,1200,3,0,1200,4,0,1200,5,0,200,7,0,1200,8,0,1200,9,0,1200,10,0,200,11,0,200,12,0,200,13,0,221,21,0,21,25,0,1000,26,0,1021,27,0,1021,30,0,1000,31,0,1000,33,0,1200,34,0,1000,36,0,1200*7F
$PAIRSAT,4,39,3,0,400,7,0,1,9,0,201,10,0,201,11,0,200,12,0,200,13,0,200,14,0,200,16,0,201,19,0,600,20,0,600,21,0,400,22,0,400,23,0,421,24,0,400,25,0,421,26,0,400,27,0,400,28,0,400,29,0,400,30,0,400,32,0,400,33,0,400,34,0,421,35,0,400,36,0,400,37,0,421,38,0,400,39,0,421,40,0,421,41,0,400,42,0,400,43,0,421,44,0,400,45,0,400,46,0,400,59,0,400,60,0,400,61,0,400*60
$PAIRDGP,7,2,7,8,16,21,26,27*56
$GNGGA,035802.200,2500.7952646,N,12132.4377588,E,4,44,0.62,16.783,M,15.25,M,1,3335*49
$GNRMC,035802.200,A,2500.7952646,N,12132.4377588,E,0.05,146.48,090324,,,R,V*1A
$GPHDT,274.129,T*3E
$GNACCURACY,4.7*15
$GNGGA,035802.300,2500.7952593,N,12132.4377520,E,4,43,0.63,16.809,M,15.25,M,1,3335*4A
$GNRMC,035802.300,A,2500.7952593,N,12132.4377520,E,0.04,146.48,090324,,,R,V*13
$GPHDT,,T*1B
$GNACCURACY,4.7*15
$GNGGA,035802.400,2500.7952615,N,12132.4377585,E,4,43,0.63,16.790,M,15.25,M,1,3335*40
$GNRMC,035802.400,A,2500.7952615,N,12132.4377585,E,0.02,146.48,090324,,,R,V*10
$GPHDT,274.351,T*33
$GNACCURACY,4.7*15
$GNGGA,035802.500,2500.7952632,N,12132.4377573,E,4,43,0.63,16.793,M,15.25,M,1,3335*4E
$GNRMC,035802.500,A,2500.7952632,N,12132.4377573,E,0.02,146.48,090324,,,R,V*1D
$GPHDT,,T*1B
$GNACCURACY,4.7*15
$GNGGA,035802.600,2500.7952637,N,12132.4377518,E,4,44,0.62,16.784,M,15.25,M,1,3335*45
$GNRMC,035802.600,A,2500.7952637,N,12132.4377518,E,0.01,146.48,090324,,,R,V*15
$GPHDT,274.141,T*30
$GNACCURACY,4.7*15
$GNGGA,035802.700,2500.7952624,N,12132.4377505,E,4,44,0.62,16.761,M,15.25,M,0,3335*40
$GNRMC,035802.700,A,2500.7952624,N,12132.4377505,E,0.06,146.48,090324,,,R,V*1D
$GPHDT,,T*1B
$GNACCURACY,4.7*15
$GNGGA,035802.800,2500.7952629,N,12132.4377489,E,4,45,0.62,16.774,M,15.25,M,0,3335*42
$GNRMC,035802.800,A,2500.7952629,N,12132.4377489,E,0.08,146.48,090324,,,R,V*14
$GPHDT,274.411,T*30
$GNACCURACY,4.8*1A
$GNGGA,035802.900,2500.7952631,N,12132.4377504,E,4,45,0.62,16.782,M,15.25,M,0,3335*47
$GNRMC,035802.900,A,2500.7952631,N,12132.4377504,E,0.05,146.48,090324,,,R,V*15
$GPHDT,,T*1B
$GNACCURACY,4.7*15
$GNGGA,035803.000,2500.7952629,N,12132.4377528,E,4,45,0.62,16.775,M,15.25,M,1,3335*41
$GNRMC,035803.000,A,2500.7952629,N,12132.4377528,E,0.02,146.48,090324,,,R,V*1D
$GPHDT,274.269,T*39
$GNACCURACY,4.7*15
$GNGGA,035803.100,2500.7952620,N,12132.4377566,E,4,45,0.62,16.796,M,15.25,M,1,3335*4E
$GNRMC,035803.100,A,2500.7952620,N,12132.4377566,E,0.02,146.48,090324,,,R,V*1F
$GPHDT,,T*1B
$GNGSA,A,3,08,194,195,199,21,02,07,27,16,26,,,0.92,0.62,0.69,1*39
$GNGSA,A,3,88,78,77,79,,,,,,,,,0.92,0.62,0.69,2*03
$GNGSA,A,3,13,21,26,27,,,,,,,,,0.92,0.62,0.69,3*03
$GNGSA,A,3,09,23,16,43,40,07,39,10,25,37,34,,0.92,0.62,0.69,4*00
$GPGSV,3,1,12,08,66,345,46,194,64,050,42,195,63,117,41,50,60,167,38,1*62
$GPGSV,3,2,12,199,60,167,36,21,55,161,43,02,43,178,42,07,37,318,37,1*56
$GPGSV,3,3,12,27,37,033,43,16,29,070,34,196,20,170,18,26,10,095,17,1*51
$GPGSV,2,1,05,08,66,345,47,194,64,050,42,195,63,117,44,199,60,167,44,8*57
$GPGSV,2,2,05,27,37,033,39,8*53
$GLGSV,2,1,05,88,61,037,42,78,54,027,46,77,26,104,18,79,22,330,40,1*70
$GLGSV,2,2,05,87,08,026,16,1*49
$GAGSV,2,1,05,13,54,089,41,21,53,005,44,26,39,173,22,27,30,075,38,7*76
$GAGSV,2,2,05,04,12,303,,7*41
$GAGSV,1,1,04,13,54,089,45,21,53,005,45,26,39,173,42,27,30,075,37,1*7E
$GBGSV,3,1,11,09,74,275,41,23,71,018,47,16,71,197,44,43,63,039,45,1*71
$GBGSV,3,2,11,40,62,325,42,07,61,305,40,39,60,185,43,10,51,286,23,1*78
$GBGSV,3,3,11,25,40,112,39,37,26,320,38,34,15,039,27,1*4B
$GBGSV,2,1,07,23,71,018,47,43,63,039,43,40,62,325,41,39,60,185,41,4*71
$GBGSV,2,2,07,25,40,112,39,37,26,320,24,34,15,039,17,4*47
$GNACCURACY,4.7*15
$PAIRSAT,1,21,2,0,201,3,0,200,4,0,200,5,0,200,6,0,200,7,0,1,8,0,21,16,0,1,20,0,200,21,0,201,22,0,200,23,0,200,24,0,200,25,0,200,26,0,220,27,0,221,28,0,200,194,0,21,195,0,621,196,0,200,199,0,621*6B
$PAIRSAT,2,15,70,0,200,71,0,200,73,0,200,74,0,200,75,0,200,76,0,200,77,0,1,78,0,201,79,0,201,80,0,200,84,0,200,85,0,200,86,0,200,87,0,201,88,0,201*5B
$PAIRSAT,3,20,2,0,1200,3,0,1200,4,0,1200,5,0,200,7,0,1200,8,0,1200,9,0,1200,10,0,200,11,0,200,12,0,200,13,0,221,21,0,21,25,0,1000,26,0,1021,27,0,1021,30,0,1000,31,0,1000,33,0,1200,34,0,1000,36,0,1200*7F
$PAIRSAT,4,39,3,0,400,7,0,1,9,0,201,10,0,201,11,0,200,12,0,200,13,0,200,14,0,200,16,0,201,19,0,600,20,0,600,21,0,400,22,0,400,23,0,421,24,0,400,25,0,421,26,0,400,27,0,400,28,0,400,29,0,400,30,0,400,32,0,400,33,0,400,34,0,421,35,0,400,36,0,400,37,0,421,38,0,400,39,0,421,40,0,421,41,0,400,42,0,400,43,0,421,44,0,400,45,0,400,46,0,400,59,0,400,60,0,400,61,0,400*60
$PAIRDGP,7,2,7,8,16,21,26,27*56
$GNGGA,035803.200,2500.7952634,N,12132.4377519,E,4,44,0.62,16.786,M,15.25,M,1,3335*40
$GNRMC,035803.200,A,2500.7952634,N,12132.4377519,E,0.03,146.48,090324,,,R,V*10
$GPHDT,274.378,T*38
$GNACCURACY,4.7*15
$GNGGA,035803.300,2500.7952646,N,12132.4377523,E,4,45,0.62,16.782,M,15.25,M,1,3335*48
$GNRMC,035803.300,A,2500.7952646,N,12132.4377523,E,0.02,146.48,090324,,,R,V*1C
$GPHDT,,T*1B
$GNACCURACY,4.7*15
$GNGGA,035803.400,2500.7952666,N,12132.4377542,E,4,45,0.62,16.777,M,15.25,M,1,3335*40
$GNRMC,035803.400,A,2500.7952666,N,12132.4377542,E,0.04,146.48,090324,,,R,V*18
$GPHDT,274.151,T*31
$GNACCURACY,4.7*15
$GNGGA,035803.500,2500.7952646,N,12132.4377543,E,4,45,0.62,16.784,M,15.25,M,0,3335*4F
$GNRMC,035803.500,A,2500.7952646,N,12132.4377543,E,0.04,146.48,090324,,,R,V*1A
$GPHDT,,T*1B
$GNACCURACY,4.7*15
$GNGGA,035803.600,2500.7952628,N,12132.4377559,E,4,45,0.62,16.769,M,15.25,M,0,3335*4C
$GNRMC,035803.600,A,2500.7952628,N,12132.4377559,E,0.04,146.48,090324,,,R,V*1A
$GPHDT,273.991,T*32
$GNACCURACY,4.7*15
$GNGGA,035803.700,2500.7952647,N,12132.4377557,E,4,45,0.62,16.773,M,15.25,M,0,3335*41
$GNRMC,035803.700,A,2500.7952647,N,12132.4377557,E,0.03,146.48,090324,,,R,V*1B
$GPHDT,,T*1B
$GNACCURACY,4.7*15
$GNGGA,035803.800,2500.7952624,N,12132.4377546,E,4,45,0.62,16.788,M,15.25,M,0,3335*4F
$GNRMC,035803.800,A,2500.7952624,N,12132.4377546,E,0.05,146.48,090324,,,R,V*17
$GPHDT,273.959,T*36
$GNACCURACY,4.7*15
$GNGGA,035803.900,2500.7952641,N,12132.4377569,E,4,45,0.62,16.769,M,15.25,M,0,3335*4F
$GNRMC,035803.900,A,2500.7952641,N,12132.4377569,E,0.05,146.48,090324,,,R,V*18
$GPHDT,,T*1B
$GNACCURACY,4.8*1A
$GNGGA,035804.000,2500.7952643,N,12132.4377521,E,4,45,0.62,16.783,M,15.25,M,1,3335*4A
$GNRMC,035804.000,A,2500.7952643,N,12132.4377521,E,0.09,146.48,090324,,,R,V*14
$GPHDT,273.745,T*35
$GNACCURACY,4.8*1A
$GNGGA,035804.100,2500.7952653,N,12132.4377565,E,4,45,0.62,16.799,M,15.25,M,1,3335*41
$GNRMC,035804.100,A,2500.7952653,N,12132.4377565,E,0.06,146.48,090324,,,R,V*1B
$GPHDT,,T*1B
$GNGSA,A,3,08,194,195,199,21,02,07,27,16,26,,,0.92,0.62,0.69,1*39
$GNGSA,A,3,88,78,77,79,,,,,,,,,0.92,0.62,0.69,2*03
$GNGSA,A,3,13,21,26,27,,,,,,,,,0.92,0.62,0.69,3*03
$GNGSA,A,3,09,23,16,43,40,07,39,10,25,37,34,,0.92,0.62,0.69,4*00
$GPGSV,3,1,12,08,66,345,46,194,64,050,41,195,63,117,42,50,60,167,38,1*62
$GPGSV,3,2,12,199,60,167,36,21,55,161,45,02,43,178,42,07,37,318,36,1*51
$GPGSV,3,3,12,27,37,033,43,16,29,070,34,196,20,170,18,26,10,095,18,1*5E
$GPGSV,2,1,05,08,66,345,47,194,64,050,44,195,63,117,44,199,60,167,46,8*53
$GPGSV,2,2,05,27,37,033,41,8*5C
$GLGSV,2,1,05,88,61,037,43,78,54,027,46,77,26,104,23,79,22,330,40,1*79
$GLGSV,2,2,05,87,08,026,17,1*48
$GAGSV,2,1,05,13,54,089,39,21,53,005,43,26,39,173,32,27,30,075,38,7*7F
$GAGSV,2,2,05,04,12,303,,7*41
$GAGSV,1,1,04,13,54,089,43,21,53,005,46,26,39,173,43,27,30,075,38,1*75
$GBGSV,3,1,11,09,74,275,41,23,71,018,47,16,71,197,44,43,63,039,45,1*71
$GBGSV,3,2,11,40,62,325,42,07,61,305,40,39,60,185,43,10,51,286,24,1*7F
$GBGSV,3,3,11,25,40,112,45,37,26,320,38,34,15,039,28,1*4F
$GBGSV,2,1,07,23,71,018,47,43,63,039,43,40,62,325,41,39,60,185,43,4*73
$GBGSV,2,2,07,25,40,112,43,37,26,320,29,34,15,039,17,4*47
$GNACCURACY,4.8*1A
$PAIRSAT,1,21,2,0,201,3,0,200,4,0,200,5,0,200,6,0,200,7,0,1,8,0,21,16,0,1,20,0,200,21,0,201,22,0,200,23,0,200,24,0,200,25,0,200,26,0,220,27,0,221,28,0,200,194,0,21,195,0,621,196,0,200,199,0,621*6B
$PAIRSAT,2,15,70,0,200,71,0,200,73,0,200,74,0,200,75,0,200,76,0,200,77,0,1,78,0,201,79,0,201,80,0,200,84,0,200,85,0,200,86,0,200,87,0,201,88,0,201*5B
$PAIRSAT,3,20,2,0,1200,3,0,1200,4,0,1200,5,0,200,7,0,1200,8,0,1200,9,0,1200,10,0,200,11,0,200,12,0,200,13,0,221,21,0,21,25,0,1000,26,0,1021,27,0,1021,30,0,1000,31,0,1000,33,0,1200,34,0,1000,36,0,1200*7F
$PAIRSAT,4,39,3,0,400,7,0,1,9,0,201,10,0,201,11,0,200,12,0,200,13,0,200,14,0,200,16,0,201,19,0,600,20,0,600,21,0,400,22,0,400,23,0,421,24,0,400,25,0,421,26,0,400,27,0,400,28,0,400,29,0,400,30,0,400,32,0,400,33,0,400,34,0,421,35,0,400,36,0,400,37,0,421,38,0,400,39,0,421,40,0,421,41,0,400,42,0,400,43,0,421,44,0,400,45,0,400,46,0,400,59,0,400,60,0,400,61,0,400*60
$PAIRDGP,7,2,7,8,16,21,26,27*56
$GNGGA,035804.200,2500.7952664,N,12132.4377511,E,4,45,0.62,16.775,M,15.25,M,1,3335*47
$GNRMC,035804.200,A,2500.7952664,N,12132.4377511,E,0.06,146.48,090324,,,R,V*1F
$GPHDT,273.570,T*31
$GNACCURACY,4.8*1A
$GNGGA,035804.300,2500.7952651,N,12132.4377552,E,4,45,0.64,16.784,M,15.25,M,1,3335*4F
$GNRMC,035804.300,A,2500.7952651,N,12132.4377552,E,0.00,146.48,090324,,,R,V*19
$GPHDT,,T*1B
$GNACCURACY,4.8*1A
$GNGGA,035804.400,2500.7952654,N,12132.4377542,E,4,45,0.64,16.774,M,15.25,M,1,3335*43
$GNRMC,035804.400,A,2500.7952654,N,12132.4377542,E,0.00,146.48,090324,,,R,V*1A
$GPHDT,273.707,T*33
$GNACCURACY,4.8*1A
$GNGGA,035804.500,2500.7952633,N,12132.4377542,E,4,45,0.64,16.783,M,15.25,M,1,3335*4B
$GNRMC,035804.500,A,2500.7952633,N,12132.4377542,E,0.00,146.48,090324,,,R,V*1A
$GPHDT,,T*1B
$GNACCURACY,4.8*1A
$GNGGA,035804.600,2500.7952636,N,12132.4377545,E,4,45,0.64,16.776,M,15.25,M,0,3335*41
$GNRMC,035804.600,A,2500.7952636,N,12132.4377545,E,0.00,146.48,090324,,,R,V*1B
$GPHDT,273.856,T*38
$GNACCURACY,4.8*1A
$GNGGA,035804.700,2500.7952644,N,12132.4377512,E,4,45,0.64,16.765,M,15.25,M,0,3335*45
$GNRMC,035804.700,A,2500.7952644,N,12132.4377512,E,0.01,146.48,090324,,,R,V*1C
$GPHDT,,T*1B
$GNACCURACY,4.8*1A
$GNGGA,035804.800,2500.7952636,N,12132.4377536,E,4,45,0.64,16.766,M,15.25,M,0,3335*4A
$GNRMC,035804.800,A,2500.7952636,N,12132.4377536,E,0.07,146.48,090324,,,R,V*16
$GPHDT,273.725,T*33
$GNACCURACY,4.8*1A
$GNGGA,035804.900,2500.7952633,N,12132.4377562,E,4,45,0.64,16.774,M,15.25,M,0,3335*4C
$GNRMC,035804.900,A,2500.7952633,N,12132.4377562,E,0.05,146.48,090324,,,R,V*11
$GPHDT,,T*1B
$GNACCURACY,4.8*1A
$GNGGA,035805.000,2500.7952652,N,12132.4377570,E,4,45,0.64,16.759,M,15.25,M,1,3335*4E
$GNRMC,035805.000,A,2500.7952652,N,12132.4377570,E,0.01,146.48,090324,,,R,V*19
$GPHDT,273.884,T*37
$GNACCURACY,4.9*1B
$GNGGA,035805.100,2500.7952626,N,12132.4377548,E,4,45,0.64,16.757,M,15.25,M,1,3335*49
$GNRMC,035805.100,A,2500.7952626,N,12132.4377548,E,0.02,146.48,090324,,,R,V*13
$GPHDT,,T*1B
$GNGSA,A,3,08,194,195,199,21,02,07,27,16,26,,,1.15,0.64,0.96,1*31
$GNGSA,A,3,88,78,77,79,,,,,,,,,1.15,0.64,0.96,2*0B
$GNGSA,A,3,13,21,26,27,,,,,,,,,1.15,0.64,0.96,3*0B
$GNGSA,A,3,09,23,16,43,40,07,39,10,25,37,34,,1.15,0.64,0.96,4*08
$GPGSV,3,1,12,08,66,345,46,194,64,050,41,195,63,117,41,50,60,167,37,1*6E
$GPGSV,3,2,12,199,60,167,34,21,55,161,41,02,43,178,41,07,37,318,36,1*54
$GPGSV,3,3,12,27,37,033,43,16,29,070,31,196,20,170,19,26,10,095,19,1*5B
$GPGSV,2,1,06,08,66,345,47,194,64,050,44,195,63,117,44,199,60,167,44,8*52
$GPGSV,2,2,06,27,37,033,41,196,20,170,23,8*54
$GLGSV,2,1,05,88,61,037,43,78,54,027,46,77,26,104,26,79,22,330,40,1*7C
$GLGSV,2,2,05,87,08,026,17,1*48
$GAGSV,2,1,05,13,54,089,39,21,53,005,43,26,39,173,29,27,30,075,37,7*7A
$GAGSV,2,2,05,04,12,303,,7*41
$GAGSV,1,1,04,13,54,089,44,21,53,005,45,26,39,173,41,27,30,075,38,1*73
$GBGSV,3,1,11,09,74,275,41,23,71,018,47,16,71,197,44,43,63,039,45,1*71
$GBGSV,3,2,11,40,62,325,42,07,61,305,41,39,60,185,43,10,51,286,24,1*7E
$GBGSV,3,3,11,25,40,112,45,37,26,320,38,34,15,039,27,1*40
$GBGSV,2,1,07,23,71,018,47,43,63,039,43,40,62,325,41,39,60,185,43,4*73
$GBGSV,2,2,07,25,40,112,42,37,26,320,26,34,15,039,17,4*49
$GNACCURACY,4.9*1B
$PAIRSAT,1,21,2,0,201,3,0,200,4,0,200,5,0,200,6,0,200,7,0,1,8,0,21,16,0,1,20,0,200,21,0,201,22,0,200,23,0,200,24,0,200,25,0,200,26,0,220,27,0,221,28,0,200,194,0,21,195,0,621,196,0,200,199,0,621*6B
$PAIRSAT,2,15,70,0,200,71,0,200,73,0,200,74,0,200,75,0,200,76,0,200,77,0,1,78,0,201,79,0,201,80,0,200,84,0,200,85,0,200,86,0,200,87,0,201,88,0,201*5B
$PAIRSAT,3,20,2,0,1200,3,0,1200,4,0,1200,5,0,200,7,0,1200,8,0,1200,9,0,1200,10,0,200,11,0,200,12,0,200,13,0,221,21,0,21,25,0,1000,26,0,1021,27,0,1021,30,0,1000,31,0,1000,33,0,1200,34,0,1000,36,0,1200*7F
$PAIRSAT,4,39,3,0,400,7,0,1,9,0,201,10,0,201,11,0,200,12,0,200,13,0,200,14,0,200,16,0,201,19,0,600,20,0,600,21,0,400,22,0,400,23,0,421,24,0,400,25,0,421,26,0,400,27,0,400,28,0,400,29,0,400,30,0,400,32,0,400,33,0,400,34,0,421,35,0,400,36,0,400,37,0,421,38,0,400,39,0,421,40,0,421,41,0,400,42,0,400,43,0,421,44,0,400,45,0,400,46,0,400,59,0,400,60,0,400,61,0,400*60
$PAIRDGP,7,2,7,8,16,21,26,27*56
$GNGGA,035805.200,2500.7952638,N,12132.4377538,E,4,45,0.64,16.756,M,15.25,M,1,3335*43
$GNRMC,035805.200,A,2500.7952638,N,12132.4377538,E,0.01,146.48,090324,,,R,V*1B
$GPHDT,273.862,T*3F
$GNACCURACY,4.9*1B
$GNGGA,035805.300,2500.7952641,N,12132.4377522,E,4,45,0.64,16.756,M,15.25,M,1,3335*47
$GNRMC,035805.300,A,2500.7952641,N,12132.4377522,E,0.00,146.48,090324,,,R,V*1E
$GPHDT,,T*1B
$GNACCURACY,4.9*1B
$GNGGA,035805.400,2500.7952635,N,12132.4377548,E,4,45,0.64,16.757,M,15.25,M,1,3335*4E
$GNRMC,035805.400,A,2500.7952635,N,12132.4377548,E,0.01,146.48,090324,,,R,V*17
$GPHDT,273.501,T*37
$GNACCURACY,4.9*1B
$GNGGA,035805.500,2500.7952654,N,12132.4377533,E,4,45,0.64,16.738,M,15.25,M,1,3335*4D
$GNRMC,035805.500,A,2500.7952654,N,12132.4377533,E,0.01,146.48,090324,,,R,V*1D
$GPHDT,,T*1B
$GNACCURACY,4.9*1B
$GNGGA,035805.600,2500.7952637,N,12132.4377517,E,4,45,0.64,16.751,M,15.25,M,0,3335*43
$GNRMC,035805.600,A,2500.7952637,N,12132.4377517,E,0.01,146.48,090324,,,R,V*1D
$GPHDT,273.294,T*3C
$GNACCURACY,4.9*1B
$GNGGA,035805.700,2500.7952650,N,12132.4377530,E,4,45,0.64,16.752,M,15.25,M,0,3335*45
$GNRMC,035805.700,A,2500.7952650,N,12132.4377530,E,0.01,146.48,090324,,,R,V*18
$GPHDT,,T*1B
$GNACCURACY,4.9*1B
$GNGGA,035805.800,2500.7952658,N,12132.4377556,E,4,45,0.64,16.743,M,15.25,M,0,3335*42
$GNRMC,035805.800,A,2500.7952658,N,12132.4377556,E,0.08,146.48,090324,,,R,V*16
$GPHDT,272.981,T*32
$GNACCURACY,4.8*1A
$GNGGA,035805.900,2500.7952632,N,12132.4377517,E,4,45,0.64,16.764,M,15.25,M,0,3335*4F
$GNRMC,035805.900,A,2500.7952632,N,12132.4377517,E,0.06,146.48,090324,,,R,V*10
$GPHDT,,T*1B
$GNACCURACY,4.8*1A
$GNGGA,035806.000,2500.7952631,N,12132.4377528,E,4,45,0.64,16.780,M,15.25,M,1,3335*41
$GNRMC,035806.000,A,2500.7952631,N,12132.4377528,E,0.02,146.48,090324,,,R,V*11
$GPHDT,273.308,T*38
$GNACCURACY,4.7*15
$GNGGA,035806.100,2500.7952646,N,12132.4377589,E,4,45,0.64,16.779,M,15.25,M,1,3335*4D
$GNRMC,035806.100,A,2500.7952646,N,12132.4377589,E,0.02,146.48,090324,,,R,V*1B
$GPHDT,,T*1B
$GNGSA,A,3,08,194,195,199,21,02,07,27,16,26,,,1.15,0.64,0.96,1*31
$GNGSA,A,3,88,78,77,79,,,,,,,,,1.15,0.64,0.96,2*0B
$GNGSA,A,3,13,21,26,27,,,,,,,,,1.15,0.64,0.96,3*0B
$GNGSA,A,3,09,16,23,43,40,07,39,10,25,37,34,,1.15,0.64,0.96,4*08
$GPGSV,3,1,12,08,66,345,46,194,64,050,41,195,63,117,41,50,60,167,37,1*6E
$GPGSV,3,2,12,199,60,167,35,21,55,161,45,02,43,178,40,07,37,318,36,1*50
$GPGSV,3,3,12,27,37,033,44,16,29,070,33,196,20,170,22,26,10,095,22,1*5E
$GPGSV,2,1,06,08,66,345,47,194,64,050,43,195,63,117,44,199,60,167,43,8*52
$GPGSV,2,2,06,27,37,033,41,196,20,170,22,8*55
$GLGSV,2,1,05,88,61,037,43,78,54,027,46,77,26,104,24,79,22,330,41,1*7F
$GLGSV,2,2,05,87,08,026,17,1*48
$GAGSV,2,1,05,13,54,089,38,21,53,005,43,26,39,173,34,27,30,075,38,7*78
$GAGSV,2,2,05,04,12,303,,7*41
$GAGSV,1,1,04,13,54,089,43,21,53,005,45,26,39,173,43,27,30,075,38,1*76
$GBGSV,4,1,13,09,74,275,41,16,71,197,44,23,71,018,47,43,63,039,45,1*74
$GBGSV,4,2,13,40,62,325,42,07,61,305,41,39,60,185,43,28,51,216,,1*7F
$GBGSV,4,3,13,10,51,286,23,25,40,112,45,37,26,320,39,34,15,039,27,1*7C
$GBGSV,4,4,13,38,08,169,,1*49
$GBGSV,2,1,07,23,71,018,47,43,63,039,43,40,62,325,42,39,60,185,43,4*70
$GBGSV,2,2,07,25,40,112,42,37,26,320,23,34,15,039,17,4*4C
$GNACCURACY,4.7*15
$PAIRSAT,1,22,2,0,201,3,0,200,4,0,200,5,0,200,6,0,200,7,0,1,8,0,21,16,0,1,20,0,200,21,0,201,22,0,200,23,0,200,24,0,200,25,0,200,26,0,220,27,0,221,28,0,200,29,0,200,194,0,21,195,0,621,196,0,200,199,0,621*4D
$PAIRSAT,2,15,70,0,200,71,0,200,73,0,200,74,0,200,75,0,200,76,0,200,77,0,1,78,0,201,79,0,201,80,0,200,84,0,200,85,0,200,86,0,200,87,0,201,88,0,201*5B
$PAIRSAT,3,20,2,0,1200,3,0,1200,4,0,1200,5,0,200,7,0,1200,8,0,1200,9,0,1200,10,0,200,11,0,200,12,0,200,13,0,221,21,0,21,25,0,1000,26,0,1021,27,0,1021,30,0,1000,31,0,1000,33,0,1200,34,0,1000,36,0,1200*7F
$PAIRSAT,4,39,3,0,400,7,0,1,9,0,201,10,0,201,11,0,200,12,0,200,13,0,200,14,0,200,16,0,201,19,0,600,20,0,600,21,0,400,22,0,400,23,0,421,24,0,400,25,0,421,26,0,400,27,0,400,28,0,400,29,0,400,30,0,400,32,0,400,33,0,400,34,0,421,35,0,400,36,0,400,37,0,421,38,0,400,39,0,421,40,0,421,41,0,400,42,0,400,43,0,421,44,0,400,45,0,400,46,0,400,59,0,400,60,0,400,61,0,400*60
$PAIRDGP,7,2,7,8,16,21,26,27*56
$GNGGA,035806.200,2500.7952640,N,12132.4377559,E,4,45,0.64,16.767,M,15.25,M,1,3335*4A
$GNRMC,035806.200,A,2500.7952640,N,12132.4377559,E,0.02,146.48,090324,,,R,V*13
$GPHDT,273.104,T*36
$GNACCURACY,4.7*15
$GNGGA,035806.300,2500.7952653,N,12132.4377549,E,4,46,0.64,16.767,M,15.25,M,1,3335*4B
$GNRMC,035806.300,A,2500.7952653,N,12132.4377549,E,0.01,146.48,090324,,,R,V*12
$GPHDT,,T*1B
$GNACCURACY,4.7*15
$GNGGA,035806.400,2500.7952634,N,12132.4377530,E,4,46,0.64,16.759,M,15.25,M,1,3335*4E
$GNRMC,035806.400,A,2500.7952634,N,12132.4377530,E,0.01,146.48,090324,,,R,V*1A
$GPHDT,273.040,T*37
$GNACCURACY,4.7*15
$GNGGA,035806.500,2500.7952642,N,12132.4377548,E,4,46,0.64,16.778,M,15.25,M,0,3335*43
$GNRMC,035806.500,A,2500.7952642,N,12132.4377548,E,0.01,146.48,090324,,,R,V*15
$GPHDT,,T*1B
$GNACCURACY,4.7*15
$GNGGA,035806.600,2500.7952650,N,12132.4377527,E,4,46,0.64,16.774,M,15.25,M,0,3335*46
$GNRMC,035806.600,A,2500.7952650,N,12132.4377527,E,0.00,146.48,090324,,,R,V*1D
$GPHDT,272.972,T*3E
$GNACCURACY,4.7*15
$GNGGA,035806.700,2500.7952647,N,12132.4377534,E,4,46,0.64,16.767,M,15.25,M,0,3335*41
$GNRMC,035806.700,A,2500.7952647,N,12132.4377534,E,0.00,146.48,090324,,,R,V*18
$GPHDT,,T*1B
$GNACCURACY,4.7*15
$GNGGA,035806.800,2500.7952647,N,12132.4377557,E,4,46,0.64,16.769,M,15.25,M,0,3335*45
$GNRMC,035806.800,A,2500.7952647,N,12132.4377557,E,0.01,146.48,090324,,,R,V*13
$GPHDT,273.168,T*3C
$GNACCURACY,4.7*15
$GNGGA,035806.900,2500.7952613,N,12132.4377546,E,4,46,0.64,16.751,M,15.25,M,0,3335*4E
$GNRMC,035806.900,A,2500.7952613,N,12132.4377546,E,0.10,146.48,090324,,,R,V*13
$GPHDT,,T*1B
$GNACCURACY,4.7*15
$GNGGA,035807.000,2500.7952619,N,12132.4377541,E,4,45,0.64,16.770,M,15.25,M,1,3335*4A
$GNRMC,035807.000,A,2500.7952619,N,12132.4377541,E,0.02,146.48,090324,,,R,V*15
$GPHDT,273.290,T*38
$GNACCURACY,4.7*15
$GNGGA,035807.100,2500.7952650,N,12132.4377579,E,4,45,0.64,16.767,M,15.25,M,1,3335*4B
$GNRMC,035807.100,A,2500.7952650,N,12132.4377579,E,0.04,146.48,090324,,,R,V*14
$GPHDT,,T*1B
$GNGSA,A,3,08,194,195,199,21,02,07,27,16,26,,,1.15,0.64,0.96,1*31
$GNGSA,A,3,88,78,77,79,,,,,,,,,1.15,0.64,0.96,2*0B
$GNGSA,A,3,13,21,26,27,,,,,,,,,1.15,0.64,0.96,3*0B
$GNGSA,A,3,09,16,23,43,40,07,39,10,25,37,34,,1.15,0.64,0.96,4*08
$GPGSV,3,1,12,08,66,345,46,194,64,050,41,195,63,117,42,50,60,167,38,1*62
$GPGSV,3,2,12,199,60,167,36,21,55,161,46,02,43,178,40,07,37,318,37,1*51
$GPGSV,3,3,12,27,37,033,44,16,29,070,35,196,20,170,22,26,10,095,25,1*5F
$GPGSV,2,1,06,08,66,345,47,194,64,050,44,195,63,117,44,199,60,167,45,8*53
$GPGSV,2,2,06,27,37,033,41,196,20,170,21,8*56
$GLGSV,2,1,05,88,61,037,43,78,54,027,46,77,26,104,24,79,22,330,41,1*7F
$GLGSV,2,2,05,87,08,026,17,1*48
$GAGSV,2,1,05,13,54,089,38,21,53,005,43,26,39,173,31,27,30,075,38,7*7D
$GAGSV,2,2,05,04,12,303,,7*41
$GAGSV,1,1,04,13,54,089,44,21,53,005,46,26,39,173,42,27,30,075,38,1*73
$GBGSV,3,1,12,09,74,275,41,16,71,197,44,23,71,018,47,43,63,039,45,1*72
$GBGSV,3,2,12,40,62,325,42,07,61,305,41,39,60,185,44,10,51,286,24,1*7A
$GBGSV,3,3,12,28,51,216,43,25,40,112,45,37,26,320,39,34,15,039,30,1*78
$GBGSV,2,1,08,23,71,018,47,43,63,039,44,40,62,325,42,39,60,185,42,4*79
$GBGSV,2,2,08,28,51,216,39,25,40,112,41,37,26,320,25,34,15,039,17,4*77
$GNACCURACY,4.7*15
$PAIRSAT,1,22,2,0,201,3,0,200,4,0,200,5,0,200,6,0,200,7,0,1,8,0,21,16,0,1,20,0,200,21,0,201,22,0,200,23,0,200,24,0,200,25,0,200,26,0,220,27,0,221,28,0,200,29,0,200,194,0,21,195,0,621,196,0,600,199,0,621*49
$PAIRSAT,2,15,70,0,200,71,0,200,73,0,200,74,0,200,75,0,200,76,0,200,77,0,1,78,0,201,79,0,201,80,0,200,84,0,200,85,0,200,86,0,200,87,0,201,88,0,201*5B
$PAIRSAT,3,20,2,0,1200,3,0,1200,4,0,1200,5,0,200,7,0,1200,8,0,1200,9,0,1200,10,0,200,11,0,200,12,0,200,13,0,221,21,0,21,25,0,1000,26,0,1021,27,0,1021,30,0,1000,31,0,1000,33,0,1200,34,0,1000,36,0,1200*7F
$PAIRSAT,4,39,3,0,400,7,0,1,9,0,201,10,0,201,11,0,200,12,0,200,13,0,200,14,0,200,16,0,201,19,0,600,20,0,600,21,0,400,22,0,400,23,0,421,24,0,400,25,0,421,26,0,400,27,0,400,28,0,400,29,0,400,30,0,400,32,0,400,33,0,400,34,0,421,35,0,400,36,0,400,37,0,421,38,0,400,39,0,421,40,0,421,41,0,400,42,0,400,43,0,421,44,0,400,45,0,400,46,0,400,59,0,400,60,0,400,61,0,400*60
$PAIRDGP,7,2,7,8,16,21,26,27*56
$GNGGA,035807.200,2500.7952612,N,12132.4377603,E,4,45,0.64,16.796,M,15.25,M,1,3335*4E
$GNRMC,035807.200,A,2500.7952612,N,12132.4377603,E,0.02,146.48,090324,,,R,V*19
$GPHDT,273.201,T*30
$GNACCURACY,4.7*15
$GNGGA,035807.300,2500.7952625,N,12132.4377580,E,4,45,0.64,16.770,M,15.25,M,1,3335*4B
$GNRMC,035807.300,A,2500.7952625,N,12132.4377580,E,0.02,146.48,090324,,,R,V*14
$GPHDT,,T*1B
$GNACCURACY,4.7*15
$GNGGA,035807.400,2500.7952626,N,12132.4377560,E,4,46,0.64,16.763,M,15.25,M,1,3335*40
$GNRMC,035807.400,A,2500.7952626,N,12132.4377560,E,0.02,146.48,090324,,,R,V*1E
$GPHDT,273.557,T*34
$GNACCURACY,4.7*15
$GNGGA,035807.500,2500.7952641,N,12132.4377557,E,4,46,0.64,16.775,M,15.25,M,0,3335*42
$GNRMC,035807.500,A,2500.7952641,N,12132.4377557,E,0.02,146.48,090324,,,R,V*1A
$GPHDT,,T*1B
$GNACCURACY,4.7*15
$GNGGA,035807.600,2500.7952605,N,12132.4377519,E,4,46,0.64,16.770,M,15.25,M,0,3335*4E
$GNRMC,035807.600,A,2500.7952605,N,12132.4377519,E,0.02,146.48,090324,,,R,V*13
$GPHDT,273.672,T*30
$GNACCURACY,4.7*15
$GNGGA,035807.700,2500.7952620,N,12132.4377555,E,4,46,0.64,16.766,M,15.25,M,0,3335*47
$GNRMC,035807.700,A,2500.7952620,N,12132.4377555,E,0.02,146.48,090324,,,R,V*1D
$GPHDT,,T*1B
$GNACCURACY,4.7*15
$GNGGA,035807.800,2500.7952624,N,12132.4377551,E,4,46,0.64,16.777,M,15.25,M,0,3335*48
$GNRMC,035807.800,A,2500.7952624,N,12132.4377551,E,0.03,146.48,090324,,,R,V*13
$GPHDT,273.353,T*36
$GNACCURACY,4.7*15
$GNGGA,035807.900,2500.7952636,N,12132.4377514,E,4,46,0.64,16.767,M,15.25,M,0,3335*4A
$GNRMC,035807.900,A,2500.7952636,N,12132.4377514,E,0.06,146.48,090324,,,R,V*15
$GPHDT,,T*1B
$GNACCURACY,4.7*15
$GNGGA,035808.000,2500.7952637,N,12132.4377575,E,4,46,0.64,16.769,M,15.25,M,1,3335*45
$GNRMC,035808.000,A,2500.7952637,N,12132.4377575,E,0.04,146.48,090324,,,R,V*17
$GPHDT,273.235,T*37
$GNACCURACY,4.7*15
$GNGGA,035808.100,2500.7952624,N,12132.4377517,E,4,45,0.64,16.771,M,15.25,M,1,3335*48
$GNRMC,035808.100,A,2500.7952624,N,12132.4377517,E,0.03,146.48,090324,,,R,V*17
$GPHDT,,T*1B
$GNGSA,A,3,08,194,195,199,21,02,07,27,16,26,,,1.15,0.64,0.96,1*31
$GNGSA,A,3,88,78,77,79,,,,,,,,,1.15,0.64,0.96,2*0B
$GNGSA,A,3,13,21,26,27,,,,,,,,,1.15,0.64,0.96,3*0B
$GNGSA,A,3,09,16,23,43,40,07,39,10,25,37,34,,1.15,0.64,0.96,4*08
$GPGSV,3,1,12,08,66,345,46,194,64,050,42,195,63,117,42,50,60,167,38,1*61
$GPGSV,3,2,12,199,60,167,35,21,55,161,46,02,43,178,39,07,37,318,38,1*53
$GPGSV,3,3,12,27,37,033,44,16,29,070,34,196,20,170,22,26,10,095,25,1*5E
$GPGSV,2,1,06,08,66,345,47,194,64,050,44,195,63,117,44,199,60,167,45,8*53
$GPGSV,2,2,06,27,37,033,40,26,10,095,20,8*65
$GLGSV,2,1,05,88,61,037,43,78,54,027,46,77,26,104,24,79,22,330,41,1*7F
$GLGSV,2,2,05,87,08,026,16,1*49
$GAGSV,2,1,05,13,54,089,38,21,53,005,43,26,39,173,29,27,30,075,38,7*74
$GAGSV,2,2,05,04,12,303,,7*41
$GAGSV,1,1,04,13,54,089,43,21,53,005,46,26,39,173,42,27,30,075,38,1*74
$GBGSV,3,1,12,09,74,275,41,16,71,197,44,23,71,018,47,43,63,039,45,1*72
$GBGSV,3,2,12,40,62,325,42,07,61,305,41,39,60,185,44,10,51,286,24,1*7A
$GBGSV,3,3,12,28,51,216,42,25,40,112,45,37,26,320,38,34,15,039,26,1*7F
$GBGSV,2,1,08,23,71,018,47,43,63,039,43,40,62,325,42,39,60,185,42,4*7E
$GBGSV,2,2,08,28,51,216,45,25,40,112,41,37,26,320,24,34,15,039,15,4*7F
$GNACCURACY,4.7*15
$PAIRSAT,1,22,2,0,201,3,0,200,4,0,200,5,0,200,6,0,200,7,0,1,8,0,21,16,0,1,20,0,200,21,0,201,22,0,200,23,0,200,24,0,200,25,0,200,26,0,220,27,0,221,28,0,200,29,0,200,194,0,21,195,0,621,196,0,600,199,0,621*49
$PAIRSAT,2,15,70,0,200,71,0,200,73,0,200,74,0,200,75,0,200,76,0,200,77,0,1,78,0,201,79,0,201,80,0,200,84,0,200,85,0,200,86,0,200,87,0,201,88,0,201*5B
$PAIRSAT,3,20,2,0,1200,3,0,1200,4,0,1200,5,0,200,7,0,1200,8,0,1200,9,0,1200,10,0,200,11,0,200,12,0,200,13,0,221,21,0,21,25,0,1000,26,0,1021,27,0,1021,30,0,1000,31,0,1000,33,0,1200,34,0,1000,36,0,1200*7F
$PAIRSAT,4,40,3,0,400,7,0,1,9,0,201,10,0,201,11,0,200,12,0,200,13,0,200,14,0,200,16,0,201,19,0,600,20,0,600,21,0,400,22,0,400,23,0,421,24,0,400,25,0,421,26,0,400,27,0,400,28,0,400,29,0,400,30,0,400,32,0,400,33,0,400,34,0,421,35,0,400,36,0,400,37,0,421,38,0,400,39,0,421,40,0,421,41,0,400,42,0,400,43,0,421,44,0,400,45,0,400,46,0,400,59,0,400,60,0,400,61,0,400,62,0,400*42
$PAIRDGP,7,2,7,8,16,21,26,27*56
$GNGGA,035808.200,2500.7952614,N,12132.4377588,E,4,45,0.64,16.798,M,15.25,M,1,3335*49
$GNRMC,035808.200,A,2500.7952614,N,12132.4377588,E,0.02,146.48,090324,,,R,V*10
$GPHDT,273.606,T*33
$GNACCURACY,4.7*15
$GNGGA,035808.300,2500.7952633,N,12132.4377528,E,4,45,0.64,16.767,M,15.25,M,1,3335*47
$GNRMC,035808.300,A,2500.7952633,N,12132.4377528,E,0.03,146.48,090324,,,R,V*1F
$GPHDT,,T*1B
$GNACCURACY,4.7*15
$GNGGA,035808.400,2500.7952645,N,12132.4377515,E,4,45,0.64,16.754,M,15.25,M,1,3335*4F
$GNRMC,035808.400,A,2500.7952645,N,12132.4377515,E,0.02,146.48,090324,,,R,V*16
$GPHDT,273.537,T*32
$GNACCURACY,4.7*15
$GNGGA,035808.500,2500.7952628,N,12132.4377538,E,4,45,0.64,16.758,M,15.25,M,1,3335*46
$GNRMC,035808.500,A,2500.7952628,N,12132.4377538,E,0.02,146.48,090324,,,R,V*13
$GPHDT,,T*1B
$GNACCURACY,4.7*15
$GNGGA,035808.600,2500.7952635,N,12132.4377524,E,4,45,0.64,16.769,M,15.25,M,1,3335*46
$GNRMC,035808.600,A,2500.7952635,N,12132.4377524,E,0.02,146.48,090324,,,R,V*11
$GPHDT,273.327,T*35
$GNACCURACY,4.7*15
$GNGGA,035808.700,2500.7952638,N,12132.4377535,E,4,45,0.64,16.768,M,15.25,M,0,3335*4A
$GNRMC,035808.700,A,2500.7952638,N,12132.4377535,E,0.02,146.48,090324,,,R,V*1D
$GPHDT,,T*1B
$GNACCURACY,4.6*14
$GNGGA,035808.800,2500.7952663,N,12132.4377549,E,4,45,0.64,16.766,M,15.25,M,0,3335*4E
$GNRMC,035808.800,A,2500.7952663,N,12132.4377549,E,0.06,146.48,090324,,,R,V*13
$GPHDT,273.409,T*3E
$GNACCURACY,4.6*14
$GNGGA,035808.900,2500.7952653,N,12132.4377576,E,4,45,0.64,16.773,M,15.25,M,0,3335*44
$GNRMC,035808.900,A,2500.7952653,N,12132.4377576,E,0.04,146.48,090324,,,R,V*1F
$GPHDT,,T*1B
$GNACCURACY,4.7*15
$GNGGA,035809.000,2500.7952627,N,12132.4377568,E,4,45,0.64,16.752,M,15.25,M,1,3335*42
$GNRMC,035809.000,A,2500.7952627,N,12132.4377568,E,0.04,146.48,090324,,,R,V*1B
$GPHDT,273.903,T*39
$GNACCURACY,4.7*15
$GNGGA,035809.100,2500.7952620,N,12132.4377575,E,4,45,0.64,16.783,M,15.25,M,1,3335*44
$GNRMC,035809.100,A,2500.7952620,N,12132.4377575,E,0.03,146.48,090324,,,R,V*16
$GPHDT,,T*1B
$GNGSA,A,3,08,194,195,199,21,02,07,27,16,26,,,1.15,0.64,0.96,1*31
$GNGSA,A,3,88,78,77,79,,,,,,,,,1.15,0.64,0.96,2*0B
$GNGSA,A,3,13,21,26,27,,,,,,,,,1.15,0.64,0.96,3*0B
$GNGSA,A,3,09,16,23,43,40,07,39,10,25,37,34,,1.15,0.64,0.96,4*08
$GPGSV,3,1,12,08,66,345,46,194,64,050,41,195,63,117,42,50,60,167,38,1*62
$GPGSV,3,2,12,199,60,167,35,21,55,161,46,02,43,178,37,07,37,318,38,1*5D
$GPGSV,3,3,12,27,37,033,44,16,29,070,35,196,20,170,21,26,10,095,25,1*5C
$GPGSV,2,1,06,08,66,345,47,194,64,050,44,195,63,117,44,199,60,167,45,8*53
$GPGSV,2,2,06,27,37,033,41,26,10,095,20,8*64
$GLGSV,2,1,05,88,61,037,43,78,54,027,46,77,26,104,24,79,22,330,41,1*7F
$GLGSV,2,2,05,87,07,026,19,1*49
$GAGSV,2,1,05,13,54,089,38,21,53,005,43,26,39,173,30,27,30,075,38,7*7C
$GAGSV,2,2,05,04,12,303,,7*41
$GAGSV,1,1,04,13,54,089,44,21,53,005,46,26,39,173,40,27,30,075,38,1*71
$GBGSV,3,1,12,09,74,275,41,16,71,197,43,23,71,018,48,43,63,039,45,1*7A
$GBGSV,3,2,12,40,62,325,42,07,61,305,41,39,60,185,44,28,51,216,41,1*7B
$GBGSV,3,3,12,10,51,286,25,25,40,112,45,37,26,320,39,34,15,039,27,1*7C
$GBGSV,2,1,08,23,71,018,47,43,63,039,43,40,62,325,42,39,60,185,42,4*7E
$GBGSV,2,2,08,28,51,216,44,25,40,112,41,37,26,320,28,34,15,039,14,4*73
$GNACCURACY,4.7*15
$PAIRSAT,1,22,2,0,201,3,0,200,4,0,200,5,0,200,6,0,200,7,0,1,8,0,21,16,0,1,20,0,200,21,0,201,22,0,200,23,0,200,24,0,200,25,0,200,26,0,220,27,0,221,28,0,200,29,0,200,194,0,21,195,0,621,196,0,600,199,0,621*49
$PAIRSAT,2,15,70,0,200,71,0,200,73,0,200,74,0,200,75,0,200,76,0,200,77,0,1,78,0,201,79,0,201,80,0,200,84,0,200,85,0,200,86,0,200,87,0,201,88,0,201*5B
$PAIRSAT,3,20,2,0,1200,3,0,1200,4,0,1200,5,0,200,7,0,1200,8,0,1200,9,0,1200,10,0,200,11,0,200,12,0,200,13,0,221,21,0,21,25,0,1000,26,0,1021,27,0,1021,30,0,1000,31,0,1000,33,0,1200,34,0,1000,36,0,1200*7F
$PAIRSAT,4,40,3,0,400,7,0,1,9,0,201,10,0,201,11,0,200,12,0,200,13,0,200,14,0,200,16,0,201,19,0,600,20,0,600,21,0,400,22,0,400,23,0,421,24,0,400,25,0,421,26,0,400,27,0,400,28,0,400,29,0,400,30,0,400,32,0,400,33,0,400,34,0,421,35,0,400,36,0,400,37,0,421,38,0,400,39,0,421,40,0,421,41,0,400,42,0,400,43,0,421,44,0,400,45,0,400,46,0,400,59,0,400,60,0,400,61,0,400,62,0,400*42
$PAIRDGP,7,2,7,8,16,21,26,27*56
$GNGGA,035809.200,2500.7952647,N,12132.4377520,E,4,45,0.64,16.771,M,15.25,M,1,3335*4B
$GNRMC,035809.200,A,2500.7952647,N,12132.4377520,E,0.02,146.48,090324,,,R,V*15
$GPHDT,273.174,T*31
$GNACCURACY,4.7*15
$GNGGA,035809.300,2500.7952615,N,12132.4377520,E,4,45,0.64,16.762,M,15.25,M,1,3335*4F
$GNRMC,035809.300,A,2500.7952615,N,12132.4377520,E,0.04,146.48,090324,,,R,V*15
$GPHDT,,T*1B
$GNACCURACY,4.7*15
$GNGGA,035809.400,2500.7952617,N,12132.4377556,E,4,45,0.64,16.780,M,15.25,M,1,3335*47
$GNRMC,035809.400,A,2500.7952617,N,12132.4377556,E,0.03,146.48,090324,,,R,V*16
$GPHDT,273.841,T*3E
$GNACCURACY,4.7*15
$GNGGA,035809.500,2500.7952631,N,12132.4377515,E,4,45,0.64,16.772,M,15.25,M,1,3335*48
$GNRMC,035809.500,A,2500.7952631,N,12132.4377515,E,0.04,146.48,090324,,,R,V*13
$GPHDT,,T*1B
$GNACCURACY,4.8*1A
$GNGGA,035809.600,2500.7952622,N,12132.4377549,E,4,45,0.62,16.762,M,15.25,M,1,3335*47
$GNRMC,035809.600,A,2500.7952622,N,12132.4377549,E,0.02,146.48,090324,,,R,V*1D
$GPHDT,273.565,T*35
$GNACCURACY,4.8*1A
$GNGGA,035809.700,2500.7952659,N,12132.4377564,E,4,45,0.64,16.771,M,15.25,M,0,3335*40
$GNRMC,035809.700,A,2500.7952659,N,12132.4377564,E,0.08,146.48,090324,,,R,V*15
$GPHDT,,T*1B
$GNACCURACY,4.8*1A
$GNGGA,035809.800,2500.7952622,N,12132.4377500,E,4,45,0.64,16.781,M,15.25,M,0,3335*4E
$GNRMC,035809.800,A,2500.7952622,N,12132.4377500,E,0.04,146.48,090324,,,R,V*18
$GPHDT,273.526,T*32
$GNACCURACY,4.8*1A
$GNGGA,035809.900,2500.7952633,N,12132.4377519,E,4,45,0.64,16.773,M,15.25,M,0,3335*4A
$GNRMC,035809.900,A,2500.7952633,N,12132.4377519,E,0.04,146.48,090324,,,R,V*11
$GPHDT,,T*1B
$GNACCURACY,4.7*15
$GNGGA,035810.000,2500.7952660,N,12132.4377563,E,4,45,0.64,16.764,M,15.25,M,1,3335*47
$GNRMC,035810.000,A,2500.7952660,N,12132.4377563,E,0.09,146.48,090324,,,R,V*16
$GPHDT,273.003,T*30
$GNACCURACY,4.7*15
$GNGGA,035810.100,2500.7952630,N,12132.4377541,E,4,45,0.64,16.767,M,15.25,M,1,3335*40
$GNRMC,035810.100,A,2500.7952630,N,12132.4377541,E,0.06,146.48,090324,,,R,V*1D
$GPHDT,,T*1B
$GNGSA,A,3,08,194,195,199,21,02,07,27,16,26,,,1.15,0.64,0.96,1*31
$GNGSA,A,3,88,78,77,79,,,,,,,,,1.15,0.64,0.96,2*0B
$GNGSA,A,3,13,21,26,27,,,,,,,,,1.15,0.64,0.96,3*0B
$GNGSA,A,3,09,16,23,43,40,07,39,10,25,37,34,,1.15,0.64,0.96,4*08
$GPGSV,3,1,12,08,66,345,46,194,64,050,41,195,63,117,42,50,60,167,36,1*6C
$GPGSV,3,2,12,199,60,167,34,21,55,161,44,02,43,178,38,07,37,318,37,1*5E
$GPGSV,3,3,12,27,37,033,44,16,29,070,34,196,20,170,23,26,10,095,24,1*5E
$GPGSV,2,1,06,08,66,345,47,194,64,050,44,195,63,117,45,199,60,167,44,8*53
$GPGSV,2,2,06,27,37,033,41,26,10,095,17,8*60
$GLGSV,2,1,05,88,61,037,43,78,54,027,46,77,26,104,25,79,22,330,41,1*7E
$GLGSV,2,2,05,87,07,026,19,1*49
$GAGSV,2,1,05,13,54,089,38,21,53,005,43,26,39,173,34,27,30,075,38,7*78
$GAGSV,2,2,05,04,12,303,,7*41
$GAGSV,1,1,04,13,54,089,44,21,53,005,45,26,39,173,41,27,30,075,37,1*7C
$GBGSV,3,1,12,09,74,274,41,16,71,197,43,23,71,018,48,43,63,039,45,1*7B
$GBGSV,3,2,12,40,62,325,42,07,61,305,41,39,60,185,44,28,51,216,38,1*75
$GBGSV,3,3,12,10,51,286,24,25,40,112,45,37,26,320,39,34,15,039,28,1*72
$GBGSV,2,1,08,23,71,018,47,43,63,039,43,40,62,325,41,39,60,185,41,4*7E
$GBGSV,2,2,08,28,51,216,44,25,40,112,42,37,26,320,30,34,15,039,13,4*7E
$GNACCURACY,4.7*15
$PAIRSAT,1,22,2,0,201,3,0,200,4,0,200,5,0,200,6,0,200,7,0,1,8,0,21,16,0,1,20,0,200,21,0,201,22,0,200,23,0,200,24,0,200,25,0,200,26,0,220,27,0,221,28,0,200,29,0,200,194,0,21,195,0,621,196,0,600,199,0,621*49
$PAIRSAT,2,15,70,0,200,71,0,200,73,0,200,74,0,200,75,0,200,76,0,200,77,0,1,78,0,201,79,0,201,80,0,200,84,0,200,85,0,200,86,0,200,87,0,201,88,0,201*5B
$PAIRSAT,3,20,2,0,1200,3,0,1200,4,0,1200,5,0,200,7,0,1200,8,0,1200,9,0,1200,10,0,200,11,0,200,12,0,200,13,0,221,21,0,21,25,0,1000,26,0,1021,27,0,1021,30,0,1000,31,0,1000,33,0,1200,34,0,1000,36,0,1200*7F
$PAIRSAT,4,40,3,0,400,7,0,1,9,0,201,10,0,201,11,0,200,12,0,200,13,0,200,14,0,200,16,0,201,19,0,600,20,0,600,21,0,400,22,0,400,23,0,421,24,0,400,25,0,421,26,0,400,27,0,400,28,0,400,29,0,400,30,0,400,32,0,400,33,0,400,34,0,421,35,0,400,36,0,400,37,0,421,38,0,400,39,0,421,40,0,421,41,0,400,42,0,400,43,0,421,44,0,400,45,0,400,46,0,400,59,0,400,60,0,400,61,0,400,62,0,400*42
$PAIRDGP,7,2,7,8,16,21,26,27*56
$GNGGA,035810.200,2500.7952647,N,12132.4377572,E,4,45,0.64,16.778,M,15.25,M,1,3335*4D
$GNRMC,035810.200,A,2500.7952647,N,12132.4377572,E,0.04,146.48,090324,,,R,V*1C
$GPHDT,273.268,T*3F
$GNACCURACY,4.7*15
$GNGGA,035810.300,2500.7952645,N,12132.4377542,E,4,45,0.64,16.773,M,15.25,M,1,3335*46
$GNRMC,035810.300,A,2500.7952645,N,12132.4377542,E,0.03,146.48,090324,,,R,V*1B
$GPHDT,,T*1B
$GNACCURACY,4.7*15
$GNGGA,035810.400,2500.7952642,N,12132.4377552,E,4,45,0.64,16.766,M,15.25,M,1,3335*43
$GNRMC,035810.400,A,2500.7952642,N,12132.4377552,E,0.02,146.48,090324,,,R,V*1B
$GPHDT,273.463,T*32
$GNACCURACY,4.7*15
$GNGGA,035810.500,2500.7952660,N,12132.4377540,E,4,45,0.64,16.781,M,15.25,M,0,3335*49
$GNRMC,035810.500,A,2500.7952660,N,12132.4377540,E,0.03,146.48,090324,,,R,V*18
$GPHDT,,T*1B
$GNACCURACY,4.7*15
$GNGGA,035810.600,2500.7952649,N,12132.4377512,E,4,45,0.64,16.770,M,15.25,M,0,3335*48
$GNRMC,035810.600,A,2500.7952649,N,12132.4377512,E,0.02,146.48,090324,,,R,V*16
$GPHDT,273.444,T*37
$GNACCURACY,4.7*15
$GNGGA,035810.700,2500.7952605,N,12132.4377500,E,4,45,0.64,16.765,M,15.25,M,0,3335*46
$GNRMC,035810.700,A,2500.7952605,N,12132.4377500,E,0.02,146.48,090324,,,R,V*1C
$GPHDT,,T*1B
$GNACCURACY,4.7*15
$GNGGA,035810.800,2500.7952629,N,12132.4377519,E,4,45,0.64,16.779,M,15.25,M,0,3335*42
$GNRMC,035810.800,A,2500.7952629,N,12132.4377519,E,0.03,146.48,090324,,,R,V*14
$GPHDT,273.585,T*3B
$GNACCURACY,4.7*15
$GNGGA,035810.900,2500.7952623,N,12132.4377507,E,4,44,0.64,16.769,M,15.25,M,0,3335*46
$GNRMC,035810.900,A,2500.7952623,N,12132.4377507,E,0.02,146.48,090324,,,R,V*11
$GPHDT,,T*1B
$GNACCURACY,4.7*15
$GNGGA,035811.000,2500.7952688,N,12132.4377563,E,4,44,0.64,16.789,M,15.25,M,1,3335*42
$GNRMC,035811.000,A,2500.7952688,N,12132.4377563,E,0.02,146.48,090324,,,R,V*1A
$GPHDT,273.618,T*3C
$GNACCURACY,4.7*15
$GNGGA,035811.100,2500.7952675,N,12132.4377560,E,4,44,0.64,16.785,M,15.25,M,1,3335*4E
$GNRMC,035811.100,A,2500.7952675,N,12132.4377560,E,0.02,146.48,090324,,,R,V*1A
$GPHDT,,T*1B
$GNGSA,A,3,08,194,195,199,21,02,07,27,16,26,,,1.15,0.64,0.96,1*31
$GNGSA,A,3,88,78,77,79,,,,,,,,,1.15,0.64,0.96,2*0B
$GNGSA,A,3,13,21,26,27,,,,,,,,,1.15,0.64,0.96,3*0B
$GNGSA,A,3,09,16,23,43,40,07,39,10,25,37,34,,1.15,0.64,0.96,4*08
$GPGSV,3,1,12,08,66,345,46,194,64,050,41,195,63,117,42,50,60,167,37,1*6D
$GPGSV,3,2,12,199,60,167,34,21,55,161,44,02,43,178,39,07,37,318,38,1*50
$GPGSV,3,3,12,27,37,033,44,16,29,070,33,196,20,170,22,26,10,095,24,1*58
$GPGSV,2,1,06,08,66,345,47,194,64,050,43,195,63,117,45,199,60,167,44,8*54
$GPGSV,2,2,06,27,37,033,40,26,10,095,16,8*60
$GLGSV,2,1,05,88,61,037,43,78,54,027,46,77,26,104,25,79,22,330,41,1*7E
$GLGSV,2,2,05,87,07,026,19,1*49
$GAGSV,1,1,04,13,54,089,39,21,53,005,44,26,39,173,35,27,30,075,38,7*7D
$GAGSV,1,1,04,13,54,089,44,21,53,005,45,26,39,173,42,27,30,075,37,1*7F
$GBGSV,3,1,12,09,74,274,41,16,71,197,43,23,71,019,48,43,63,039,45,1*7A
$GBGSV,3,2,12,40,62,325,42,07,61,305,41,39,60,185,44,10,51,286,24,1*7A
$GBGSV,3,3,12,28,51,217,38,25,40,112,46,37,26,320,39,34,15,039,26,1*71
$GBGSV,2,1,07,23,71,019,48,43,63,039,43,40,62,325,41,39,60,185,41,4*7F
$GBGSV,2,2,07,28,51,217,44,25,40,112,42,37,26,320,27,4*4D
$GNACCURACY,4.7*15
$PAIRSAT,1,22,2,0,201,3,0,200,4,0,200,5,0,200,6,0,200,7,0,1,8,0,21,16,0,1,20,0,200,21,0,201,22,0,200,23,0,200,24,0,200,25,0,200,26,0,220,27,0,221,28,0,200,29,0,200,194,0,21,195,0,621,196,0,600,199,0,621*49
$PAIRSAT,2,15,70,0,200,71,0,200,73,0,200,74,0,200,75,0,200,76,0,200,77,0,1,78,0,201,79,0,201,80,0,200,84,0,200,85,0,200,86,0,200,87,0,201,88,0,201*5B
$PAIRSAT,3,20,2,0,1200,3,0,1200,4,0,1200,5,0,200,7,0,1200,8,0,1200,9,0,1200,10,0,200,11,0,200,12,0,200,13,0,221,21,0,21,25,0,1000,26,0,1021,27,0,1021,30,0,1000,31,0,1000,33,0,1200,34,0,1000,36,0,1200*7F
$PAIRSAT,4,40,3,0,400,7,0,1,9,0,201,10,0,201,11,0,200,12,0,200,13,0,200,14,0,200,16,0,201,19,0,600,20,0,600,21,0,400,22,0,400,23,0,421,24,0,400,25,0,421,26,0,400,27,0,400,28,0,400,29,0,400,30,0,400,32,0,400,33,0,400,34,0,421,35,0,400,36,0,400,37,0,421,38,0,400,39,0,421,40,0,421,41,0,400,42,0,400,43,0,421,44,0,400,45,0,400,46,0,400,59,0,400,60,0,400,61,0,400,62,0,400*42
$PAIRDGP,7,2,7,8,16,21,26,27*56
$GNGGA,035811.200,2500.7952689,N,12132.4377578,E,4,44,0.64,16.782,M,15.25,M,1,3335*40
$GNRMC,035811.200,A,2500.7952689,N,12132.4377578,E,0.01,146.48,090324,,,R,V*10
$GPHDT,273.649,T*38
$GNACCURACY,4.8*1A
$GNGGA,035811.300,2500.7952635,N,12132.4377530,E,4,44,0.64,16.762,M,15.25,M,1,3335*44
$GNRMC,035811.300,A,2500.7952635,N,12132.4377530,E,0.01,146.48,090324,,,R,V*1A
$GPHDT,,T*1B
$GNACCURACY,4.8*1A
$GNGGA,035811.400,2500.7952638,N,12132.4377541,E,4,44,0.64,16.778,M,15.25,M,1,3335*43
$GNRMC,035811.400,A,2500.7952638,N,12132.4377541,E,0.01,146.48,090324,,,R,V*16
$GPHDT,273.512,T*35
$GNACCURACY,4.8*1A
$GNGGA,035811.500,2500.7952616,N,12132.4377512,E,4,44,0.64,16.763,M,15.25,M,1,3335*42
$GNRMC,035811.500,A,2500.7952616,N,12132.4377512,E,0.01,146.48,090324,,,R,V*1D
$GPHDT,,T*1B
$GNACCURACY,4.8*1A
$GNGGA,035811.600,2500.7952620,N,12132.4377546,E,4,44,0.64,16.763,M,15.25,M,0,3335*44
$GNRMC,035811.600,A,2500.7952620,N,12132.4377546,E,0.01,146.48,090324,,,R,V*1A
$GPHDT,273.605,T*30
$GNACCURACY,4.8*1A
$GNGGA,035811.700,2500.7952601,N,12132.4377518,E,4,44,0.64,16.759,M,15.25,M,0,3335*44
$GNRMC,035811.700,A,2500.7952601,N,12132.4377518,E,0.01,146.48,090324,,,R,V*13
$GPHDT,,T*1B
$GNACCURACY,4.8*1A
$GNGGA,035811.800,2500.7952607,N,12132.4377531,E,4,44,0.64,16.767,M,15.25,M,0,3335*4B
$GNRMC,035811.800,A,2500.7952607,N,12132.4377531,E,0.07,146.48,090324,,,R,V*17
$GPHDT,273.762,T*30
$GNACCURACY,4.8*1A
$GNGGA,035811.900,2500.7952615,N,12132.4377532,E,4,44,0.64,16.759,M,15.25,M,0,3335*47
$GNRMC,035811.900,A,2500.7952615,N,12132.4377532,E,0.07,146.48,090324,,,R,V*16
$GPHDT,,T*1B
$GNACCURACY,4.8*1A
$GNGGA,035812.000,2500.7952619,N,12132.4377537,E,4,44,0.64,16.770,M,15.25,M,1,3335*4E
$GNRMC,035812.000,A,2500.7952619,N,12132.4377537,E,0.06,146.48,090324,,,R,V*14
$GPHDT,273.482,T*3D
$GNACCURACY,4.8*1A
$GNGGA,035812.100,2500.7952614,N,12132.4377520,E,4,44,0.64,16.757,M,15.25,M,1,3335*41
$GNRMC,035812.100,A,2500.7952614,N,12132.4377520,E,0.06,146.48,090324,,,R,V*1E
$GPHDT,,T*1B
$GNGSA,A,3,08,194,195,199,21,02,07,27,16,26,,,1.15,0.64,0.96,1*31
$GNGSA,A,3,88,78,77,79,,,,,,,,,1.15,0.64,0.96,2*0B
$GNGSA,A,3,13,21,26,27,,,,,,,,,1.15,0.64,0.96,3*0B
$GNGSA,A,3,09,16,23,43,40,07,39,10,25,37,34,,1.15,0.64,0.96,4*08
$GPGSV,3,1,12,08,66,345,46,194,64,050,41,195,63,117,42,50,60,167,39,1*63
$GPGSV,3,2,12,199,60,167,36,21,55,161,46,02,43,178,39,07,37,318,38,1*50
$GPGSV,3,3,12,27,37,033,44,16,29,070,34,196,20,170,21,26,10,095,25,1*5D
$GPGSV,2,1,06,08,66,345,47,194,64,050,45,195,63,117,45,199,60,167,46,8*50
$GPGSV,2,2,06,27,37,033,41,26,10,095,16,8*61
$GLGSV,2,1,05,88,61,037,42,78,54,027,45,77,26,104,25,79,22,330,41,1*7C
$GLGSV,2,2,05,87,07,026,19,1*49
$GAGSV,1,1,04,13,54,089,38,21,53,005,43,26,39,173,31,27,30,075,37,7*70
$GAGSV,1,1,04,13,54,089,44,21,53,005,45,26,39,173,43,27,30,075,38,1*71
$GBGSV,3,1,12,09,74,274,41,16,71,197,43,23,71,019,48,43,63,039,45,1*7A
$GBGSV,3,2,12,40,62,325,42,07,61,305,41,39,60,185,43,10,51,286,25,1*7C
$GBGSV,3,3,12,28,51,217,37,25,40,112,46,37,26,320,39,34,15,039,27,1*7F
$GBGSV,2,1,07,23,71,019,48,43,63,039,44,40,62,325,42,39,60,185,40,4*7A
$GBGSV,2,2,07,28,51,217,43,25,40,112,42,37,26,320,26,4*4B
$GNACCURACY,4.8*1A
$PAIRSAT,1,22,2,0,201,3,0,200,4,0,200,5,0,200,6,0,200,7,0,201,8,0,21,16,0,1,20,0,200,21,0,201,22,0,200,23,0,200,24,0,200,25,0,200,26,0,220,27,0,221,28,0,200,29,0,200,194,0,21,195,0,621,196,0,600,199,0,621*4B
$PAIRSAT,2,15,70,0,200,71,0,200,73,0,200,74,0,200,75,0,200,76,0,200,77,0,1,78,0,201,79,0,201,80,0,200,84,0,200,85,0,200,86,0,200,87,0,201,88,0,201*5B
$PAIRSAT,3,20,2,0,1200,3,0,1200,4,0,1200,5,0,200,7,0,1200,8,0,1200,9,0,1200,10,0,200,11,0,200,12,0,200,13,0,221,21,0,21,25,0,1000,26,0,1021,27,0,1021,30,0,1000,31,0,1000,33,0,1200,34,0,1000,36,0,1200*7F
$PAIRSAT,4,40,3,0,400,7,0,1,9,0,201,10,0,201,11,0,200,12,0,200,13,0,200,14,0,200,16,0,201,19,0,600,20,0,600,21,0,400,22,0,400,23,0,421,24,0,400,25,0,421,26,0,400,27,0,400,28,0,400,29,0,400,30,0,400,32,0,400,33,0,400,34,0,421,35,0,400,36,0,400,37,0,421,38,0,400,39,0,421,40,0,421,41,0,400,42,0,400,43,0,421,44,0,400,45,0,400,46,0,400,59,0,400,60,0,400,61,0,400,62,0,400*42
$PAIRDGP,7,2,7,8,16,21,26,27*56
$GNGGA,035812.200,2500.7952627,N,12132.4377544,E,4,44,0.64,16.777,M,15.25,M,1,3335*42
$GNRMC,035812.200,A,2500.7952627,N,12132.4377544,E,0.05,146.48,090324,,,R,V*1C
$GPHDT,273.382,T*3A
$GNACCURACY,4.8*1A
$GNGGA,035812.300,2500.7952614,N,12132.4377538,E,4,44,0.64,16.767,M,15.25,M,1,3335*49
$GNRMC,035812.300,A,2500.7952614,N,12132.4377538,E,0.05,146.48,090324,,,R,V*16
$GPHDT,,T*1B
$GNACCURACY,4.8*1A
$GNGGA,035812.400,2500.7952652,N,12132.4377547,E,4,43,0.64,16.767,M,15.25,M,1,3335*43
$GNRMC,035812.400,A,2500.7952652,N,12132.4377547,E,0.04,146.48,090324,,,R,V*1A
$GPHDT,273.0