$FW : RTK35X,V1.1X0314AS,Lib20210517,1*54
$Tool : LOCOSYS , GNSS Firebird , v1.0.0.19*39
$---------------------------------------------------*2D
$GPHDT,,T*1B
$GNACCURACY,5.0*13
$GNGGA,035819.000,2500.7952655,N,12132.4377551,E,4,46,0.62,16.794,M,15.25,M,1,3335*43
$GNRMC,035819.000,A,2500.7952655,N,12132.4377551,E,0.05,146.48,090324,,,R,V*14
$GPHDT,180.568,T*37
$GNACCURACY,5.0*13
$GNGGA,035819.100,2500.7952654,N,12132.4377561,E,4,46,0.62,16.783,M,15.25,M,1,3335*46
$GNRMC,035819.100,A,2500.7952654,N,12132.4377561,E,0.02,146.48,090324,,,R,V*10
$GPHDT,,T*1B
$GNGSA,A,3,08,194,195,199,21,02,07,27,16,26,,,1.14,0.62,0.96,1*36
$GNGSA,A,3,88,78,77,79,,,,,,,,,1.14,0.62,0.96,2*0C
$GNGSA,A,3,13,21,26,27,,,,,,,,,1.14,0.62,0.96,3*0C
$GNGSA,A,3,09,23,16,43,40,07,39,28,10,25,37,34,1.14,0.62,0.96,4*05
$GPGSV,3,1,12,08,66,345,45,194,64,050,37,195,63,117,42,199,60,167,35,1*59
$GPGSV,3,2,12,50,60,167,38,21,55,160,43,02,43,178,40,07,37,318,45,1*6A
$GPGSV,3,3,12,27,37,033,36,16,29,070,30,196,20,170,25,26,10,095,17,1*59
$GPGSV,2,1,07,08,66,345,43,194,64,050,38,195,63,117,44,199,60,167,46,8*5E
$GPGSV,2,2,07,27,37,033,33,196,20,170,26,26,10,095,17,8*6A
$GLGSV,2,1,05,88,61,037,33,78,54,027,40,77,26,104,26,79,22,330,43,1*7E
$GLGSV,2,2,05,87,07,026,16,1*46
$GAGSV,1,1,04,13,54,089,32,21,53,005,38,26,39,173,39,27,30,075,35,7*7C
$GAGSV,1,1,04,13,54,089,41,21,53,005,40,26,39,173,40,27,30,075,28,1*73
$GBGSV,4,1,13,09,74,274,42,23,71,019,44,16,71,197,41,43,63,039,41,1*75
$GBGSV,4,2,13,40,62,326,43,07,61,305,41,39,60,185,40,28,51,217,39,1*75
$GBGSV,4,3,13,10,51,286,22,25,40,112,42,37,26,320,41,34,15,039,20,1*72
$GBGSV,4,4,13,06,,,14,1*77
$GBGSV,2,1,07,23,71,019,43,43,63,039,38,40,62,326,43,39,60,185,42,4*7A
$GBGSV,2,2,07,28,51,217,38,25,40,112,42,37,26,320,41,4*46
$GNACCURACY,5.0*13
$PAIRSAT,1,22,2,0,201,3,0,200,4,0,200,5,0,200,6,0,200,7,0,201,8,0,21,16,0,1,20,0,200,21,0,201,22,0,200,23,0,200,24,0,200,25,0,200,26,0,220,27,0,221,28,0,200,29,0,200,194,0,21,195,0,621,196,0,600,199,0,621*4B
$PAIRSAT,2,15,70,0,200,71,0,200,73,0,200,74,0,200,75,0,200,76,0,200,77,0,1,78,0,201,79,0,201,80,0,200,84,0,200,85,0,200,86,0,200,87,0,201,88,0,201*5B
$PAIRSAT,3,20,2,0,1200,3,0,1200,4,0,1200,5,0,200,7,0,1200,8,0,1200,9,0,1200,10,0,200,11,0,200,12,0,200,13,0,221,21,0,21,25,0,1000,26,0,1021,27,0,1021,30,0,1000,31,0,1000,33,0,1200,34,0,1000,36,0,1200*7F
$PAIRSAT,4,40,3,0,400,7,0,1,9,0,201,10,0,201,11,0,200,12,0,200,13,0,200,14,0,200,16,0,201,19,0,600,20,0,600,21,0,400,22,0,400,23,0,421,24,0,400,25,0,421,26,0,400,27,0,400,28,0,420,29,0,400,30,0,400,32,0,400,33,0,400,34,0,421,35,0,400,36,0,400,37,0,421,38,0,400,39,0,421,40,0,421,41,0,400,42,0,400,43,0,421,44,0,400,45,0,400,46,0,400,59,0,400,60,0,400,61,0,400,62,0,400*40
$PAIRDGP,7,2,7,8,16,21,26,27*56
$GNGGA,035819.200,2500.7952657,N,12132.4377585,E,4,46,0.62,16.785,M,15.25,M,1,3335*4A
$GNRMC,035819.200,A,2500.7952657,N,12132.4377585,E,0.02,146.48,090324,,,R,V*1A
$GPHDT,181.266,T*3F
$GNACCURACY,4.9*1B
$GNGGA,035819.300,2500.7952635,N,12132.4377548,E,4,46,0.62,16.780,M,15.25,M,1,3335*4B
$GNRMC,035819.300,A,2500.7952635,N,12132.4377548,E,0.01,146.48,090324,,,R,V*1D
$GPHDT,,T*1B
$GNACCURACY,4.9*1B
$GNGGA,035819.400,2500.7952649,N,12132.4377539,E,4,45,0.62,16.796,M,15.25,M,1,3335*45
$GNRMC,035819.400,A,2500.7952649,N,12132.4377539,E,0.01,146.48,090324,,,R,V*17
$GPHDT,180.833,T*34
$GNACCURACY,4.8*1A
$GNGGA,035819.500,2500.7952631,N,12132.4377560,E,4,46,0.62,16.785,M,15.25,M,0,3335*47
$GNRMC,035819.500,A,2500.7952631,N,12132.4377560,E,0.01,146.48,090324,,,R,V*15
$GPHDT,,T*1B
$GNACCURACY,4.8*1A
$GNGGA,035819.600,2500.7952631,N,12132.4377577,E,4,45,0.62,16.774,M,15.25,M,0,3335*4F
$GNRMC,035819.600,A,2500.7952631,N,12132.4377577,E,0.01,146.48,090324,,,R,V*10
$GPHDT,180.939,T*3F
$GNACCURACY,4.8*1A
$GNGGA,035819.700,2500.7952620,N,12132.4377574,E,4,45,0.62,16.771,M,15.25,M,0,3335*48
$GNRMC,035819.700,A,2500.7952620,N,12132.4377574,E,0.01,146.48,090324,,,R,V*12
$GPHDT,,T*1B
$GNACCURACY,4.8*1A
$GNGGA,035819.800,2500.7952621,N,12132.4377566,E,4,45,0.62,16.777,M,15.25,M,0,3335*43
$GNRMC,035819.800,A,2500.7952621,N,12132.4377566,E,0.01,146.48,090324,,,R,V*1F
$GPHDT,180.700,T*3B
$GNACCURACY,4.8*1A
$GNGGA,035819.900,2500.7952644,N,12132.4377599,E,4,45,0.62,16.767,M,15.25,M,0,3335*40
$GNRMC,035819.900,A,2500.7952644,N,12132.4377599,E,0.08,146.48,090324,,,R,V*14
$GPHDT,,T*1B
$GNACCURACY,4.8*1A
$GNGGA,035820.000,2500.7952630,N,12132.4377581,E,4,45,0.62,16.770,M,15.25,M,1,3335*4E
$GNRMC,035820.000,A,2500.7952630,N,12132.4377581,E,0.04,146.48,090324,,,R,V*11
$GPHDT,180.674,T*39
$GNACCURACY,4.8*1A
$GNGGA,035820.100,2500.7952657,N,12132.4377660,E,4,45,0.62,16.748,M,15.25,M,1,3335*49
$GNRMC,035820.100,A,2500.7952657,N,12132.4377660,E,0.05,146.48,090324,,,R,V*1C
$GPHDT,,T*1B
$GNGSA,A,3,08,194,195,199,21,02,07,27,16,26,,,1.14,0.62,0.96,1*36
$GNGSA,A,3,88,78,77,79,,,,,,,,,1.14,0.62,0.96,2*0C
$GNGSA,A,3,13,21,26,27,,,,,,,,,1.14,0.62,0.96,3*0C
$GNGSA,A,3,09,23,16,43,40,07,39,28,10,25,37,34,1.14,0.62,0.96,4*05
$GPGSV,3,1,12,08,66,345,45,194,64,050,39,195,63,117,42,199,60,167,36,1*54
$GPGSV,3,2,12,50,60,167,38,21,55,160,45,02,43,178,39,07,37,318,44,1*63
$GPGSV,3,3,12,27,37,033,35,16,29,070,31,196,20,170,23,26,10,095,15,1*5F
$GPGSV,2,1,07,08,66,345,47,194,64,050,43,195,63,117,46,199,60,167,46,8*54
$GPGSV,2,2,07,27,37,033,33,196,20,170,27,26,10,095,19,8*65
$GLGSV,2,1,05,88,61,037,37,78,54,027,41,77,26,104,26,79,22,330,43,1*7B
$GLGSV,2,2,05,87,07,026,15,1*45
$GAGSV,1,1,04,13,54,088,35,21,53,005,41,26,39,173,39,27,30,075,35,7*74
$GAGSV,1,1,04,13,54,088,42,21,53,005,41,26,39,173,41,27,30,075,30,1*78
$GBGSV,4,1,13,09,74,274,42,23,71,019,47,16,71,197,42,43,63,039,42,1*76
$GBGSV,4,2,13,40,62,326,44,07,61,305,42,39,60,185,42,28,51,217,41,1*7C
$GBGSV,4,3,13,10,51,286,22,25,40,112,44,37,26,320,41,34,15,039,19,1*7E
$GBGSV,4,4,13,06,,,14,1*77
$GBGSV,2,1,07,23,71,019,46,43,63,039,43,40,62,326,45,39,60,185,42,4*75
$GBGSV,2,2,07,28,51,217,40,25,40,112,44,37,26,320,41,4*4F
$GNACCURACY,4.8*1A
$PAIRSAT,1,22,2,0,201,3,0,200,4,0,200,5,0,200,6,0,200,7,0,201,8,0,21,16,0,1,20,0,200,21,0,201,22,0,200,23,0,200,24,0,200,25,0,200,26,0,220,27,0,221,28,0,200,29,0,200,194,0,21,195,0,621,196,0,600,199,0,621*4B
$PAIRSAT,2,15,70,0,200,71,0,200,73,0,200,74,0,200,75,0,200,76,0,200,77,0,1,78,0,201,79,0,201,80,0,200,84,0,200,85,0,200,86,0,200,87,0,201,88,0,201*5B
$PAIRSAT,3,20,2,0,1200,3,0,1200,4,0,1200,5,0,200,7,0,1200,8,0,1200,9,0,1200,10,0,200,11,0,200,12,0,200,13,0,221,21,0,21,25,0,1000,26,0,1021,27,0,1021,30,0,1000,31,0,1000,33,0,1200,34,0,1000,36,0,1200*7F
$PAIRSAT,4,40,3,0,400,7,0,1,9,0,201,10,0,201,11,0,200,12,0,200,13,0,200,14,0,200,16,0,201,19,0,600,20,0,600,21,0,400,22,0,400,23,0,421,24,0,400,25,0,421,26,0,400,27,0,400,28,0,420,29,0,400,30,0,400,32,0,400,33,0,400,34,0,421,35,0,400,36,0,400,37,0,421,38,0,400,39,0,421,40,0,421,41,0,400,42,0,400,43,0,421,44,0,400,45,0,400,46,0,400,59,0,400,60,0,400,61,0,400,62,0,400*40
$PAIRDGP,7,2,7,8,16,21,26,27*56
$GNGGA,035820.200,2500.7952640,N,12132.4377686,E,4,45,0.62,16.786,M,15.25,M,1,3335*46
$GNRMC,035820.200,A,2500.7952640,N,12132.4377686,E,0.06,146.48,090324,,,R,V*12
$GPHDT,180.997,T*3B
$GNACCURACY,4.7*15
$GNGGA,035820.300,2500.7952646,N,12132.4377700,E,4,44,0.62,16.793,M,15.25,M,1,3335*4B
$GNRMC,035820.300,A,2500.7952646,N,12132.4377700,E,0.06,146.48,090324,,,R,V*1A
$GPHDT,,T*1B
$GNACCURACY,4.7*15
$GNGGA,035820.400,2500.7952644,N,12132.4377674,E,4,44,0.62,16.735,M,15.25,M,1,3335*40
$GNRMC,035820.400,A,2500.7952644,N,12132.4377674,E,0.04,146.48,090324,,,R,V*1F
$GPHDT,180.784,T*37
$GNACCURACY,4.8*1A
$GNGGA,035820.500,2500.7952636,N,12132.4377665,E,4,45,0.62,16.733,M,15.25,M,1,3335*43
$GNRMC,035820.500,A,2500.7952636,N,12132.4377665,E,0.04,146.48,090324,,,R,V*1B
$GPHDT,,T*1B
$GNACCURACY,4.8*1A
$GNGGA,035820.600,2500.7952639,N,12132.4377627,E,4,45,0.62,16.736,M,15.25,M,0,3335*4D
$GNRMC,035820.600,A,2500.7952639,N,12132.4377627,E,0.02,146.48,090324,,,R,V*17
$GPHDT,181.071,T*3B
$GNACCURACY,4.8*1A
$GNGGA,035820.700,2500.7952652,N,12132.4377631,E,4,45,0.62,16.744,M,15.25,M,0,3335*43
$GNRMC,035820.700,A,2500.7952652,N,12132.4377631,E,0.02,146.48,090324,,,R,V*1C
$GPHDT,,T*1B
$GNACCURACY,4.8*1A
$GNGGA,035820.800,2500.7952638,N,12132.4377613,E,4,45,0.62,16.747,M,15.25,M,0,3335*43
$GNRMC,035820.800,A,2500.7952638,N,12132.4377613,E,0.07,146.48,090324,,,R,V*1A
$GPHDT,181.354,T*3F
$GNACCURACY,4.8*1A
$GNGGA,035820.900,2500.7952642,N,12132.4377589,E,4,45,0.62,16.746,M,15.25,M,0,3335*4E
$GNRMC,035820.900,A,2500.7952642,N,12132.4377589,E,0.06,146.48,090324,,,R,V*17
$GPHDT,,T*1B
$GNACCURACY,4.8*1A
$GNGGA,035821.000,2500.7952652,N,12132.4377627,E,4,45,0.62,16.747,M,15.25,M,1,3335*40
$GNRMC,035821.000,A,2500.7952652,N,12132.4377627,E,0.04,146.48,090324,,,R,V*1B
$GPHDT,180.861,T*33
$GNACCURACY,4.8*1A
$GNGGA,035821.100,2500.7952653,N,12132.4377583,E,4,44,0.62,16.749,M,15.25,M,1,3335*42
$GNRMC,035821.100,A,2500.7952653,N,12132.4377583,E,0.03,146.48,090324,,,R,V*11
$GPHDT,,T*1B
$GNGSA,A,3,08,194,195,199,21,02,07,27,16,26,,,1.14,0.62,0.96,1*36
$GNGSA,A,3,88,78,77,79,,,,,,,,,1.14,0.62,0.96,2*0C
$GNGSA,A,3,21,13,26,27,,,,,,,,,1.14,0.62,0.96,3*0C
$GNGSA,A,3,09,23,16,43,40,07,39,10,28,25,37,34,1.14,0.62,0.96,4*05
$GPGSV,3,1,12,08,66,345,46,194,64,050,38,195,63,117,42,50,60,167,39,1*6D
$GPGSV,3,2,12,199,60,167,36,21,55,160,44,02,43,178,39,07,37,318,45,1*59
$GPGSV,3,3,12,27,37,033,28,16,29,070,34,196,20,170,25,26,10,095,14,1*51
$GPGSV,2,1,06,08,66,345,47,194,64,050,43,195,63,117,46,199,60,167,46,8*55
$GPGSV,2,2,06,196,20,170,27,26,10,095,18,8*54
$GLGSV,2,1,05,88,61,037,37,78,54,027,40,77,26,104,30,79,22,330,43,1*7D
$GLGSV,2,2,05,87,07,026,14,1*44
$GAGSV,1,1,04,21,54,005,35,13,54,088,23,26,39,173,38,27,30,075,35,7*76
$GAGSV,1,1,04,13,54,088,44,21,54,005,42,26,39,173,43,27,30,075,32,1*7A
$GBGSV,3,1,12,09,74,274,39,23,71,019,46,16,71,197,42,43,63,039,43,1*7C
$GBGSV,3,2,12,40,62,326,44,07,61,305,41,39,60,185,42,10,51,286,22,1*7F
$GBGSV,3,3,12,28,51,217,40,25,40,112,44,37,26,320,42,34,15,039,21,1*77
$GBGSV,2,1,06,23,71,019,46,40,62,326,46,39,60,185,41,28,51,217,40,4*75
$GBGSV,2,2,06,25,40,112,46,37,26,320,43,4*70
$GNACCURACY,4.8*1A
$PAIRSAT,1,22,2,0,201,3,0,200,4,0,200,5,0,200,6,0,200,7,0,201,8,0,21,16,0,1,20,0,200,21,0,201,22,0,200,23,0,200,24,0,200,25,0,200,26,0,220,27,0,221,28,0,200,29,0,200,194,0,21,195,0,621,196,0,600,199,0,621*4B
$PAIRSAT,2,15,70,0,200,71,0,200,73,0,200,74,0,200,75,0,200,76,0,200,77,0,1,78,0,201,79,0,201,80,0,200,84,0,200,85,0,200,86,0,200,87,0,201,88,0,201*5B
$PAIRSAT,3,20,2,0,1200,3,0,1200,4,0,1200,5,0,200,7,0,1200,8,0,1200,9,0,1200,10,0,200,11,0,200,12,0,200,13,0,221,21,0,21,25,0,1000,26,0,1021,27,0,1021,30,0,1000,31,0,1000,33,0,1200,34,0,1000,36,0,1200*7F
$PAIRSAT,4,40,3,0,400,7,0,1,9,0,201,10,0,201,11,0,200,12,0,200,13,0,200,14,0,200,16,0,201,19,0,600,20,0,600,21,0,600,22,0,400,23,0,421,24,0,400,25,0,421,26,0,400,27,0,400,28,0,420,29,0,400,30,0,400,32,0,400,33,0,400,34,0,421,35,0,400,36,0,400,37,0,421,38,0,400,39,0,421,40,0,421,41,0,400,42,0,400,43,0,421,44,0,400,45,0,400,46,0,400,59,0,400,60,0,400,61,0,400,62,0,400*42
$PAIRDGP,7,2,7,8,16,21,26,27*56
$GNGGA,035821.200,2500.7952642,N,12132.4377580,E,4,44,0.62,16.756,M,15.25,M,1,3335*4C
$GNRMC,035821.200,A,2500.7952642,N,12132.4377580,E,0.02,146.48,090324,,,R,V*10
$GPHDT,180.161,T*3A
$GNACCURACY,4.8*1A
$GNGGA,035821.300,2500.7952639,N,12132.4377552,E,4,45,0.62,16.760,M,15.25,M,1,3335*4A
$GNRMC,035821.300,A,2500.7952639,N,12132.4377552,E,0.03,146.48,090324,,,R,V*13
$GPHDT,,T*1B
$GNACCURACY,4.7*15
$GNGGA,035821.400,2500.7952653,N,12132.4377578,E,4,44,0.62,16.768,M,15.25,M,1,3335*40
$GNRMC,035821.400,A,2500.7952653,N,12132.4377578,E,0.03,146.48,090324,,,R,V*10
$GPHDT,179.617,T*3A
$GNACCURACY,4.7*15
$GNGGA,035821.500,2500.7952639,N,12132.4377560,E,4,44,0.62,16.774,M,15.25,M,1,3335*49
$GNRMC,035821.500,A,2500.7952639,N,12132.4377560,E,0.03,146.48,090324,,,R,V*14
$GPHDT,,T*1B
$GNACCURACY,4.7*15
$GNGGA,035821.600,2500.7952647,N,12132.4377558,E,4,43,0.63,16.782,M,15.25,M,0,3335*46
$GNRMC,035821.600,A,2500.7952647,N,12132.4377558,E,0.03,146.48,090324,,,R,V*15
$GPHDT,179.472,T*3B
$GNACCURACY,4.7*15
$GNGGA,035821.700,2500.7952654,N,12132.4377580,E,4,44,0.62,16.777,M,15.25,M,0,3335*4C
$GNRMC,035821.700,A,2500.7952654,N,12132.4377580,E,0.03,146.48,090324,,,R,V*13
$GPHDT,,T*1B
$GNACCURACY,4.7*15
$GNGGA,035821.800,2500.7952658,N,12132.4377571,E,4,43,0.63,16.773,M,15.25,M,0,3335*43
$GNRMC,035821.800,A,2500.7952658,N,12132.4377571,E,0.05,146.48,090324,,,R,V*18
$GPHDT,179.444,T*3E
$GNACCURACY,4.7*15
$GNGGA,035821.900,2500.7952659,N,12132.4377573,E,4,44,0.62,16.772,M,15.25,M,0,3335*46
$GNRMC,035821.900,A,2500.7952659,N,12132.4377573,E,0.02,146.48,090324,,,R,V*1D
$GPHDT,,T*1B
$GNACCURACY,4.7*15
$GNGGA,035822.000,2500.7952667,N,12132.4377587,E,4,43,0.63,16.767,M,15.25,M,1,3335*49
$GNRMC,035822.000,A,2500.7952667,N,12132.4377587,E,0.03,146.48,090324,,,R,V*10
$GPHDT,179.680,T*34
$GNACCURACY,4.7*15
$GNGGA,035822.100,2500.7952655,N,12132.4377588,E,4,43,0.63,16.763,M,15.25,M,1,3335*42
$GNRMC,035822.100,A,2500.7952655,N,12132.4377588,E,0.02,146.48,090324,,,R,V*1E
$GPHDT,,T*1B
$GNGSA,A,3,08,194,195,199,21,02,07,27,16,,,,1.30,0.63,1.14,1*3E
$GNGSA,A,3,88,78,77,79,,,,,,,,,1.30,0.63,1.14,2*00
$GNGSA,A,3,21,13,26,27,,,,,,,,,1.30,0.63,1.14,3*00
$GNGSA,A,3,09,23,16,43,40,07,39,10,28,25,37,,1.30,0.63,1.14,4*0E
$GPGSV,3,1,12,08,66,345,46,194,64,050,41,195,63,117,42,50,60,167,39,1*63
$GPGSV,3,2,12,199,60,167,36,21,55,160,45,02,43,178,39,07,37,318,44,1*59
$GPGSV,3,3,12,27,37,033,34,16,29,070,36,196,20,170,23,26,10,095,15,1*59
$GPGSV,2,1,06,08,66,345,47,194,64,050,45,195,63,117,46,199,60,167,46,8*53
$GPGSV,2,2,06,27,37,033,36,196,20,170,27,8*50
$GLGSV,2,1,05,88,61,037,40,78,54,027,43,77,26,104,31,79,22,330,43,1*7F
$GLGSV,2,2,05,87,07,026,14,1*44
$GAGSV,1,1,04,21,54,005,39,13,54,088,34,26,39,173,38,27,30,075,38,7*71
$GAGSV,1,1,04,13,54,088,45,21,54,005,44,26,39,173,42,27,30,075,35,1*7B
$GBGSV,3,1,12,09,74,274,42,23,71,019,47,16,71,197,42,43,63,039,44,1*76
$GBGSV,3,2,12,40,62,326,44,07,61,305,41,39,60,185,42,10,51,286,22,1*7F
$GBGSV,3,3,12,28,51,217,41,25,40,112,45,37,26,320,42,34,15,039,18,1*7D
$GBGSV,2,1,06,23,71,019,46,40,62,326,46,39,60,185,41,28,51,217,42,4*77
$GBGSV,2,2,06,25,40,112,46,37,26,320,42,4*71
$GNACCURACY,4.7*15
$PAIRSAT,1,22,2,0,201,3,0,200,4,0,200,5,0,200,6,0,200,7,0,201,8,0,21,16,0,1,20,0,200,21,0,201,22,0,200,23,0,200,24,0,200,25,0,200,26,0,220,27,0,221,28,0,200,29,0,200,194,0,21,195,0,621,196,0,600,199,0,621*4B
$PAIRSAT,2,15,70,0,200,71,0,200,73,0,200,74,0,200,75,0,200,76,0,200,77,0,1,78,0,201,79,0,201,80,0,200,84,0,200,85,0,200,86,0,200,87,0,201,88,0,201*5B
$PAIRSAT,3,20,2,0,1200,3,0,1200,4,0,1200,5,0,200,7,0,1200,8,0,1200,9,0,1200,10,0,200,11,0,200,12,0,200,13,0,221,21,0,21,25,0,1000,26,0,1021,27,0,1021,30,0,1000,31,0,1000,33,0,1200,34,0,1000,36,0,1200*7F
$PAIRSAT,4,40,3,0,400,7,0,1,9,0,201,10,0,201,11,0,200,12,0,200,13,0,200,14,0,200,16,0,201,19,0,600,20,0,600,21,0,600,22,0,400,23,0,421,24,0,400,25,0,421,26,0,400,27,0,400,28,0,420,29,0,400,30,0,400,32,0,400,33,0,400,34,0,421,35,0,400,36,0,400,37,0,421,38,0,400,39,0,421,40,0,421,41,0,400,42,0,400,43,0,421,44,0,400,45,0,400,46,0,400,59,0,400,60,0,400,61,0,400,62,0,400*42
$PAIRDGP,7,2,7,8,16,21,26,27*56
$GNGGA,035822.200,2500.7952644,N,12132.4377572,E,4,43,0.63,16.764,M,15.25,M,1,3335*43
$GNRMC,035822.200,A,2500.7952644,N,12132.4377572,E,0.01,146.48,090324,,,R,V*1B
$GPHDT,179.831,T*30
$GNACCURACY,4.7*15
$GNGGA,035822.300,2500.7952647,N,12132.4377599,E,4,43,0.63,16.770,M,15.25,M,1,3335*41
$GNRMC,035822.300,A,2500.7952647,N,12132.4377599,E,0.02,146.48,090324,,,R,V*1F
$GPHDT,,T*1B
$GNACCURACY,4.8*1A
$GNGGA,035822.400,2500.7952657,N,12132.4377600,E,4,43,0.63,16.779,M,15.25,M,1,3335*4D
$GNRMC,035822.400,A,2500.7952657,N,12132.4377600,E,0.02,146.48,090324,,,R,V*1A
$GPHDT,180.263,T*3B
$GNACCURACY,4.7*15
$GNGGA,035822.500,2500.7952621,N,12132.4377573,E,4,43,0.63,16.768,M,15.25,M,0,3335*4B
$GNRMC,035822.500,A,2500.7952621,N,12132.4377573,E,0.02,146.48,090324,,,R,V*1D
$GPHDT,,T*1B
$GNACCURACY,4.7*15
$GNGGA,035822.600,2500.7952632,N,12132.4377540,E,4,43,0.63,16.772,M,15.25,M,0,3335*41
$GNRMC,035822.600,A,2500.7952632,N,12132.4377540,E,0.02,146.48,090324,,,R,V*1C
$GPHDT,179.666,T*3C
$GNACCURACY,4.8*1A
$GNGGA,035822.700,2500.7952644,N,12132.4377558,E,4,43,0.63,16.778,M,15.25,M,0,3335*42
$GNRMC,035822.700,A,2500.7952644,N,12132.4377558,E,0.02,146.48,090324,,,R,V*15
$GPHDT,,T*1B
$GNACCURACY,4.8*1A
$GNGGA,035822.800,2500.7952636,N,12132.4377562,E,4,43,0.63,16.789,M,15.25,M,0,3335*4F
$GNRMC,035822.800,A,2500.7952636,N,12132.4377562,E,0.02,146.48,090324,,,R,V*16
$GPHDT,180.332,T*3E
$GNACCURACY,4.8*1A
$GNGGA,035822.900,2500.7952643,N,12132.4377566,E,4,44,0.62,16.779,M,15.25,M,0,3335*41
$GNRMC,035822.900,A,2500.7952643,N,12132.4377566,E,0.04,146.48,090324,,,R,V*17
$GPHDT,,T*1B
$GNACCURACY,4.8*1A
$GNGGA,035823.000,2500.7952634,N,12132.4377569,E,4,44,0.62,16.780,M,15.25,M,1,3335*41
$GNRMC,035823.000,A,2500.7952634,N,12132.4377569,E,0.03,146.48,090324,,,R,V*17
$GPHDT,180.054,T*3D
$GNACCURACY,4.8*1A
$GNGGA,035823.100,2500.7952640,N,12132.4377570,E,4,44,0.62,16.780,M,15.25,M,1,3335*4B
$GNRMC,035823.100,A,2500.7952640,N,12132.4377570,E,0.02,146.48,090324,,,R,V*1C
$GPHDT,,T*1B
$GNGSA,A,3,08,194,195,199,21,02,07,27,16,,,,1.23,0.62,1.06,1*3E
$GNGSA,A,3,88,78,77,79,,,,,,,,,1.23,0.62,1.06,2*00
$GNGSA,A,3,21,13,26,27,,,,,,,,,1.23,0.62,1.06,3*00
$GNGSA,A,3,09,16,23,43,40,07,39,28,10,25,37,34,1.23,0.62,1.06,4*09
$GPGSV,3,1,12,08,66,345,46,194,64,050,39,195,63,117,42,50,60,167,38,1*6D
$GPGSV,3,2,12,199,60,167,36,21,55,160,45,02,43,178,40,07,37,318,44,1*57
$GPGSV,3,3,12,27,37,033,32,16,29,070,36,196,20,170,21,26,10,095,17,1*5F
$GPGSV,2,1,06,08,66,345,47,194,64,050,44,195,63,117,46,199,60,167,46,8*52
$GPGSV,2,2,06,27,37,033,33,196,20,170,26,8*54
$GLGSV,2,1,05,88,61,037,37,78,54,027,38,77,26,104,30,79,22,330,43,1*72
$GLGSV,2,2,05,87,07,026,17,1*47
$GAGSV,2,1,05,21,54,005,39,13,54,088,31,26,39,173,38,27,30,075,37,7*79
$GAGSV,2,2,05,15,16,041,,7*40
$GAGSV,1,1,04,13,54,088,45,21,54,005,44,26,39,173,42,27,30,075,34,1*7A
$GBGSV,3,1,12,09,74,274,41,16,71,197,42,23,71,019,47,43,63,039,43,1*72
$GBGSV,3,2,12,40,62,326,44,07,61,305,40,39,60,185,43,28,51,217,40,1*78
$GBGSV,3,3,12,10,51,286,22,25,40,112,45,37,26,320,42,34,15,039,18,1*7B
$GBGSV,2,1,07,23,71,019,46,40,62,326,46,39,60,185,41,28,51,217,42,4*76
$GBGSV,2,2,07,25,40,112,46,37,26,320,43,34,15,039,20,4*4A
$GNACCURACY,4.8*1A
$PAIRSAT,1,22,2,0,201,3,0,200,4,0,200,5,0,200,6,0,200,7,0,201,8,0,21,16,0,1,20,0,200,21,0,201,22,0,200,23,0,200,24,0,200,25,0,200,26,0,220,27,0,221,28,0,200,29,0,200,194,0,21,195,0,621,196,0,600,199,0,621*4B
$PAIRSAT,2,15,70,0,200,71,0,200,73,0,200,74,0,200,75,0,200,76,0,200,77,0,1,78,0,201,79,0,201,80,0,200,84,0,200,85,0,200,86,0,200,87,0,201,88,0,201*5B
$PAIRSAT,3,21,2,0,1200,3,0,1200,4,0,1200,5,0,200,7,0,1200,8,0,1200,9,0,1200,10,0,200,11,0,200,12,0,200,13,0,221,15,0,200,21,0,21,25,0,1000,26,0,1021,27,0,1021,30,0,1000,31,0,1000,33,0,1200,34,0,1000,36,0,1200*54
$PAIRSAT,4,40,3,0,400,7,0,1,9,0,201,10,0,201,11,0,200,12,0,200,13,0,200,14,0,200,16,0,201,19,0,600,20,0,600,21,0,600,22,0,400,23,0,421,24,0,400,25,0,421,26,0,400,27,0,400,28,0,420,29,0,400,30,0,400,32,0,400,33,0,400,34,0,421,35,0,400,36,0,400,37,0,421,38,0,400,39,0,421,40,0,421,41,0,400,42,0,400,43,0,421,44,0,400,45,0,400,46,0,400,59,0,400,60,0,400,61,0,400,62,0,400*42
$PAIRDGP,7,2,7,8,16,21,26,27*56
$GNGGA,035823.200,2500.7952632,N,12132.4377574,E,4,45,0.62,16.775,M,15.25,M,1,3335*42
$GNRMC,035823.200,A,2500.7952632,N,12132.4377574,E,0.02,146.48,090324,,,R,V*1E
$GPHDT,180.309,T*36
$GNACCURACY,4.7*15
$GNGGA,035823.300,2500.7952641,N,12132.4377552,E,4,44,0.62,16.781,M,15.25,M,1,3335*49
$GNRMC,035823.300,A,2500.7952641,N,12132.4377552,E,0.02,146.48,090324,,,R,V*1F
$GPHDT,,T*1B
$GNACCURACY,4.7*15
$GNGGA,035823.400,2500.7952633,N,12132.4377549,E,4,44,0.62,16.782,M,15.25,M,1,3335*42
$GNRMC,035823.400,A,2500.7952633,N,12132.4377549,E,0.02,146.48,090324,,,R,V*17
$GPHDT,180.187,T*32
$GNACCURACY,4.7*15
$GNGGA,035823.500,2500.7952636,N,12132.4377565,E,4,44,0.62,16.761,M,15.25,M,1,3335*45
$GNRMC,035823.500,A,2500.7952636,N,12132.4377565,E,0.02,146.48,090324,,,R,V*1D
$GPHDT,,T*1B
$GNACCURACY,4.7*15
$GNGGA,035823.600,2500.7952637,N,12132.4377605,E,4,44,0.62,16.757,M,15.25,M,1,3335*47
$GNRMC,035823.600,A,2500.7952637,N,12132.4377605,E,0.03,146.48,090324,,,R,V*1B
$GPHDT,180.838,T*3F
$GNACCURACY,4.7*15
$GNGGA,035823.700,2500.7952621,N,12132.4377605,E,4,44,0.62,16.762,M,15.25,M,0,3335*46
$GNRMC,035823.700,A,2500.7952621,N,12132.4377605,E,0.02,146.48,090324,,,R,V*1C
$GPHDT,,T*1B
$GNACCURACY,4.7*15
$GNGGA,035823.800,2500.7952631,N,12132.4377588,E,4,44,0.62,16.750,M,15.25,M,0,3335*4F
$GNRMC,035823.800,A,2500.7952631,N,12132.4377588,E,0.02,146.48,090324,,,R,V*14
$GPHDT,180.125,T*3A
$GNACCURACY,4.7*15
$GNGGA,035823.900,2500.7952630,N,12132.4377576,E,4,44,0.62,16.761,M,15.25,M,0,3335*4C
$GNRMC,035823.900,A,2500.7952630,N,12132.4377576,E,0.05,146.48,090324,,,R,V*12
$GPHDT,,T*1B
$GNACCURACY,4.7*15
$GNGGA,035824.000,2500.7952624,N,12132.4377597,E,4,44,0.62,16.759,M,15.25,M,1,3335*42
$GNRMC,035824.000,A,2500.7952624,N,12132.4377597,E,0.03,146.48,090324,,,R,V*10
$GPHDT,180.356,T*3C
$GNACCURACY,4.7*15
$GNGGA,035824.100,2500.7952639,N,12132.4377599,E,4,44,0.62,16.765,M,15.25,M,1,3335*4E
$GNRMC,035824.100,A,2500.7952639,N,12132.4377599,E,0.03,146.48,090324,,,R,V*13
$GPHDT,,T*1B
$GNGSA,A,3,08,194,195,199,21,02,07,27,16,,,,1.23,0.62,1.06,1*3E
$GNGSA,A,3,88,78,77,79,,,,,,,,,1.23,0.62,1.06,2*00
$GNGSA,A,3,21,13,26,27,,,,,,,,,1.23,0.62,1.06,3*00
$GNGSA,A,3,09,23,16,43,40,07,39,10,28,25,37,34,1.23,0.62,1.06,4*09
$GPGSV,3,1,12,08,66,345,45,194,64,050,41,195,63,117,41,50,60,167,39,1*63
$GPGSV,3,2,12,199,60,167,36,21,55,160,45,02,43,178,40,07,37,318,44,1*57
$GPGSV,3,3,12,27,37,033,36,16,29,070,36,196,20,170,22,26,10,095,17,1*58
$GPGSV,2,1,06,08,66,345,47,194,64,050,44,195,63,117,46,199,60,167,46,8*52
$GPGSV,2,2,06,27,37,033,34,196,20,170,26,8*53
$GLGSV,2,1,05,88,61,037,41,78,54,028,43,77,26,105,30,79,22,330,43,1*71
$GLGSV,2,2,05,87,07,026,16,1*46
$GAGSV,1,1,04,21,54,005,43,13,54,088,35,26,39,173,39,27,30,075,38,7*7C
$GAGSV,1,1,04,13,54,088,45,21,54,005,46,26,39,173,42,27,30,075,33,1*7F
$GBGSV,3,1,12,09,74,274,41,23,71,019,47,16,71,197,42,43,63,039,45,1*74
$GBGSV,3,2,12,40,62,326,43,07,61,305,42,39,60,185,43,10,51,286,22,1*7A
$GBGSV,3,3,12,28,51,217,40,25,40,112,45,37,26,320,43,34,15,039,18,1*7D
$GBGSV,2,1,07,23,71,019,46,40,62,326,43,39,60,185,42,28,51,217,42,4*70
$GBGSV,2,2,07,25,40,112,46,37,26,320,42,34,15,039,18,4*40
$GNACCURACY,4.7*15
$PAIRSAT,1,22,2,0,201,3,0,200,4,0,200,5,0,200,6,0,200,7,0,201,8,0,21,16,0,1,20,0,200,21,0,201,22,0,200,23,0,200,24,0,200,25,0,200,26,0,220,27,0,221,28,0,200,29,0,200,194,0,21,195,0,621,196,0,600,199,0,621*4B
$PAIRSAT,2,15,70,0,200,71,0,200,73,0,200,74,0,200,75,0,200,76,0,200,77,0,1,78,0,201,79,0,201,80,0,200,84,0,200,85,0,200,86,0,200,87,0,201,88,0,201*5B
$PAIRSAT,3,21,2,0,1200,3,0,1200,4,0,1200,5,0,200,7,0,1200,8,0,1200,9,0,1200,10,0,200,11,0,200,12,0,200,13,0,221,15,0,200,21,0,21,25,0,1000,26,0,1021,27,0,1021,30,0,1000,31,0,1000,33,0,1200,34,0,1000,36,0,1200*54
$PAIRSAT,4,40,3,0,400,7,0,1,9,0,201,10,0,201,11,0,200,12,0,200,13,0,200,14,0,200,16,0,201,19,0,600,20,0,600,21,0,600,22,0,400,23,0,421,24,0,400,25,0,421,26,0,400,27,0,400,28,0,420,29,0,400,30,0,400,32,0,400,33,0,400,34,0,421,35,0,400,36,0,400,37,0,421,38,0,400,39,0,421,40,0,421,41,0,400,42,0,400,43,0,421,44,0,400,45,0,400,46,0,400,59,0,400,60,0,400,61,0,400,62,0,400*42
$PAIRDGP,7,2,7,8,16,21,26,27*56
$GNGGA,035824.200,2500.7952621,N,12132.4377620,E,4,44,0.62,16.766,M,15.25,M,1,3335*46
$GNRMC,035824.200,A,2500.7952621,N,12132.4377620,E,0.03,146.48,090324,,,R,V*18
$GPHDT,180.937,T*31
$GNACCURACY,4.7*15
$GNGGA,035824.300,2500.7952626,N,12132.4377605,E,4,44,0.62,16.763,M,15.25,M,1,3335*42
$GNRMC,035824.300,A,2500.7952626,N,12132.4377605,E,0.03,146.48,090324,,,R,V*19
$GPHDT,,T*1B
$GNACCURACY,4.7*15
$GNGGA,035824.400,2500.7952617,N,12132.4377593,E,4,44,0.62,16.770,M,15.25,M,1,3335*49
$GNRMC,035824.400,A,2500.7952617,N,12132.4377593,E,0.03,146.48,090324,,,R,V*10
$GPHDT,180.837,T*30
$GNACCURACY,4.7*15
$GNGGA,035824.500,2500.7952611,N,12132.4377611,E,4,44,0.62,16.763,M,15.25,M,1,3335*45
$GNRMC,035824.500,A,2500.7952611,N,12132.4377611,E,0.03,146.48,090324,,,R,V*1E
$GPHDT,,T*1B
$GNACCURACY,4.7*15
$GNGGA,035824.600,2500.7952618,N,12132.4377587,E,4,44,0.62,16.763,M,15.25,M,1,3335*43
$GNRMC,035824.600,A,2500.7952618,N,12132.4377587,E,0.03,146.48,090324,,,R,V*18
$GPHDT,180.178,T*32
$GNACCURACY,4.8*1A
$GNGGA,035824.700,2500.7952628,N,12132.4377552,E,4,45,0.62,16.757,M,15.25,M,0,3335*4E
$GNRMC,035824.700,A,2500.7952628,N,12132.4377552,E,0.03,146.48,090324,,,R,V*12
$GPHDT,,T*1B
$GNACCURACY,4.8*1A
$GNGGA,035824.800,2500.7952640,N,12132.4377562,E,4,45,0.62,16.759,M,15.25,M,0,3335*42
$GNRMC,035824.800,A,2500.7952640,N,12132.4377562,E,0.05,146.48,090324,,,R,V*16
$GPHDT,179.612,T*3F
$GNACCURACY,4.8*1A
$GNGGA,035824.900,2500.7952620,N,12132.4377497,E,4,45,0.62,16.774,M,15.25,M,0,3335*41
$GNRMC,035824.900,A,2500.7952620,N,12132.4377497,E,0.05,146.48,090324,,,R,V*1A
$GPHDT,,T*1B
$GNACCURACY,4.8*1A
$GNGGA,035825.000,2500.7952635,N,12132.4377498,E,4,45,0.62,16.773,M,15.25,M,1,3335*44
$GNRMC,035825.000,A,2500.7952635,N,12132.4377498,E,0.05,146.48,090324,,,R,V*19
$GPHDT,178.335,T*3E
$GNACCURACY,4.8*1A
$GNGGA,035825.100,2500.7952623,N,12132.4377482,E,4,45,0.62,16.766,M,15.25,M,1,3335*4D
$GNRMC,035825.100,A,2500.7952623,N,12132.4377482,E,0.05,146.48,090324,,,R,V*14
$GPHDT,,T*1B
$GNGSA,A,3,08,194,195,199,21,02,07,27,16,26,,,1.14,0.62,0.96,1*36
$GNGSA,A,3,88,78,77,79,,,,,,,,,1.14,0.62,0.96,2*0C
$GNGSA,A,3,21,13,26,27,,,,,,,,,1.14,0.62,0.96,3*0C
$GNGSA,A,3,09,23,16,43,40,07,39,10,28,25,37,34,1.14,0.62,0.96,4*05
$GPGSV,3,1,12,08,66,345,45,194,64,050,39,195,63,117,42,50,60,167,39,1*6F
$GPGSV,3,2,12,199,60,167,36,21,55,160,45,02,43,178,40,07,37,318,44,1*57
$GPGSV,3,3,12,27,37,033,35,16,29,070,35,196,20,170,21,26,10,095,17,1*5B
$GPGSV,2,1,07,08,66,345,47,194,64,050,43,195,63,117,45,199,60,167,46,8*57
$GPGSV,2,2,07,27,37,033,38,196,20,170,25,26,10,095,17,8*62
$GLGSV,2,1,05,88,61,037,37,78,54,028,40,77,26,105,30,79,22,330,43,1*73
$GLGSV,2,2,05,87,07,026,15,1*45
$GAGSV,1,1,04,21,54,005,41,13,54,088,31,26,39,173,39,27,30,075,36,7*74
$GAGSV,1,1,04,13,54,088,44,21,54,005,46,26,39,173,42,27,30,075,29,1*75
$GBGSV,3,1,12,09,74,274,41,23,71,019,46,16,71,197,42,43,63,039,43,1*73
$GBGSV,3,2,12,40,62,326,43,07,61,305,42,39,60,185,42,10,51,286,23,1*7A
$GBGSV,3,3,12,28,51,217,41,25,40,112,45,37,26,320,43,34,15,039,18,1*7C
$GBGSV,2,1,07,23,71,019,45,40,62,326,44,39,60,185,41,28,51,217,42,4*77
$GBGSV,2,2,07,25,40,112,46,37,26,320,42,34,15,039,17,4*4F
$GNACCURACY,4.8*1A
$PAIRSAT,1,22,2,0,201,3,0,200,4,0,200,5,0,200,6,0,200,7,0,201,8,0,21,16,0,1,20,0,200,21,0,201,22,0,200,23,0,200,24,0,200,25,0,200,26,0,220,27,0,221,28,0,200,29,0,200,194,0,21,195,0,621,196,0,600,199,0,621*4B
$PAIRSAT,2,15,70,0,200,71,0,200,73,0,200,74,0,200,75,0,200,76,0,200,77,0,1,78,0,201,79,0,201,80,0,200,84,0,200,85,0,200,86,0,200,87,0,201,88,0,201*5B
$PAIRSAT,3,21,2,0,1200,3,0,1200,4,0,1200,5,0,200,7,0,1200,8,0,1200,9,0,1200,10,0,200,11,0,200,12,0,200,13,0,221,15,0,200,21,0,21,25,0,1000,26,0,1021,27,0,1021,30,0,1000,31,0,1000,33,0,1200,34,0,1000,36,0,1200*54
$PAIRSAT,4,40,3,0,400,7,0,1,9,0,201,10,0,201,11,0,200,12,0,200,13,0,200,14,0,200,16,0,201,19,0,600,20,0,600,21,0,600,22,0,400,23,0,421,24,0,400,25,0,421,26,0,400,27,0,400,28,0,420,29,0,400,30,0,400,32,0,400,33,0,400,34,0,421,35,0,400,36,0,400,37,0,421,38,0,400,39,0,421,40,0,421,41,0,400,42,0,400,43,0,421,44,0,400,45,0,400,46,0,400,59,0,400,60,0,400,61,0,400,62,0,400*42
$PAIRDGP,7,2,7,8,16,21,26,27*56
$GNGGA,035825.200,2500.7952649,N,12132.4377509,E,4,45,0.62,16.774,M,15.25,M,1,3335*43
$GNRMC,035825.200,A,2500.7952649,N,12132.4377509,E,0.04,146.48,090324,,,R,V*18
$GPHDT,179.178,T*34
$GNACCURACY,4.8*1A
$GNGGA,035825.300,2500.7952633,N,12132.4377506,E,4,45,0.62,16.773,M,15.25,M,1,3335*47
$GNRMC,035825.300,A,2500.7952633,N,12132.4377506,E,0.03,146.48,090324,,,R,V*1C
$GPHDT,,T*1B
$GNACCURACY,4.8*1A
$GNGGA,035825.400,2500.7952623,N,12132.4377511,E,4,45,0.62,16.778,M,15.25,M,0,3335*4D
$GNRMC,035825.400,A,2500.7952623,N,12132.4377511,E,0.02,146.48,090324,,,R,V*1D
$GPHDT,178.706,T*3A
$GNACCURACY,4.8*1A
$GNGGA,035825.500,2500.7952643,N,12132.4377546,E,4,45,0.62,16.770,M,15.25,M,0,3335*40
$GNRMC,035825.500,A,2500.7952643,N,12132.4377546,E,0.02,146.48,090324,,,R,V*18
$GPHDT,,T*1B
$GNACCURACY,4.8*1A
$GNGGA,035825.600,2500.7952679,N,12132.4377673,E,4,45,0.62,16.742,M,15.25,M,0,3335*4E
$GNRMC,035825.600,A,2500.7952679,N,12132.4377673,E,0.01,146.48,090324,,,R,V*14
$GPHDT,180.130,T*3E
$GNACCURACY,4.8*1A
$GNGGA,035825.700,2500.7952675,N,12132.4377685,E,4,45,0.62,16.738,M,15.25,M,0,3335*47
$GNRMC,035825.700,A,2500.7952675,N,12132.4377685,E,0.11,146.48,090324,,,R,V*11
$GPHDT,,T*1B
$GNACCURACY,4.8*1A
$GNGGA,035825.800,2500.7952636,N,12132.4377587,E,4,45,0.62,16.755,M,15.25,M,0,3335*45
$GNRMC,035825.800,A,2500.7952636,N,12132.4377587,E,0.02,146.48,090324,,,R,V*1A
$GPHDT,179.950,T*36
$GNACCURACY,4.8*1A
$GNGGA,035825.900,2500.7952633,N,12132.4377628,E,4,45,0.62,16.753,M,15.25,M,0,3335*41
$GNRMC,035825.900,A,2500.7952633,N,12132.4377628,E,0.07,146.48,090324,,,R,V*1D
$GPHDT,,T*1B
$GNACCURACY,4.7*15
$GNGGA,035826.000,2500.7952642,N,12132.4377612,E,4,45,0.62,16.764,M,15.25,M,1,3335*41
$GNRMC,035826.000,A,2500.7952642,N,12132.4377612,E,0.06,146.48,090324,,,R,V*19
$GPHDT,179.315,T*3D
$GNACCURACY,4.8*1A
$GNGGA,035826.100,2500.7952633,N,12132.4377584,E,4,45,0.62,16.762,M,15.25,M,1,3335*4C
$GNRMC,035826.100,A,2500.7952633,N,12132.4377584,E,0.03,146.48,090324,,,R,V*17
$GPHDT,,T*1B
$GNGSA,A,3,08,194,195,199,21,02,07,27,16,26,,,1.14,0.62,0.96,1*36
$GNGSA,A,3,88,78,77,79,,,,,,,,,1.14,0.62,0.96,2*0C
$GNGSA,A,3,21,13,26,27,,,,,,,,,1.14,0.62,0.96,3*0C
$GNGSA,A,3,09,23,16,43,40,07,39,10,28,25,37,34,1.14,0.62,0.96,4*05
$GPGSV,3,1,12,08,66,345,45,194,64,050,41,195,63,117,42,50,60,167,39,1*60
$GPGSV,3,2,12,199,60,167,36,21,55,160,45,02,43,178,40,07,37,318,44,1*57
$GPGSV,3,3,12,27,37,033,36,16,29,070,33,196,20,170,21,26,10,095,17,1*5E
$GPGSV,2,1,07,08,66,345,48,194,64,050,44,195,63,117,45,199,60,167,46,8*5F
$GPGSV,2,2,07,27,37,033,37,196,20,170,26,26,10,095,17,8*6E
$GLGSV,2,1,05,88,61,037,42,78,54,028,43,77,26,105,29,79,22,330,42,1*7B
$GLGSV,2,2,05,87,07,026,14,1*44
$GAGSV,1,1,04,21,54,005,43,13,54,088,34,26,39,173,39,27,30,075,34,7*71
$GAGSV,1,1,04,13,54,088,44,21,54,005,47,26,39,173,42,27,30,075,26,1*7B
$GBGSV,3,1,12,09,74,274,42,23,71,019,47,16,71,197,42,43,63,039,44,1*76
$GBGSV,3,2,12,40,62,326,43,07,61,305,42,39,60,185,42,10,51,286,22,1*7B
$GBGSV,3,3,12,28,51,217,41,25,40,112,45,37,26,320,42,34,15,039,17,1*72
$GBGSV,2,1,07,23,71,019,47,40,62,326,44,39,60,185,42,28,51,217,42,4*76
$GBGSV,2,2,07,25,40,112,46,37,26,320,43,34,15,039,17,4*4E
$GNACCURACY,4.7*15
$PAIRSAT,1,22,2,0,201,3,0,200,4,0,200,5,0,200,6,0,200,7,0,201,8,0,21,16,0,1,20,0,200,21,0,201,22,0,200,23,0,200,24,0,200,25,0,200,26,0,220,27,0,221,28,0,200,29,0,200,194,0,21,195,0,621,196,0,600,199,0,621*4B
$PAIRSAT,2,15,70,0,200,71,0,200,73,0,200,74,0,200,75,0,200,76,0,200,77,0,1,78,0,201,79,0,201,80,0,200,84,0,200,85,0,200,86,0,200,87,0,201,88,0,201*5B
$PAIRSAT,3,21,2,0,1200,3,0,1200,4,0,1200,5,0,200,7,0,1200,8,0,1200,9,0,1200,10,0,200,11,0,200,12,0,200,13,0,221,15,0,200,21,0,21,25,0,1000,26,0,1021,27,0,1021,30,0,1000,31,0,1000,33,0,1200,34,0,1000,36,0,1200*54
$PAIRSAT,4,40,3,0,400,7,0,1,9,0,201,10,0,201,11,0,200,12,0,200,13,0,200,14,0,200,16,0,201,19,0,600,20,0,600,21,0,600,22,0,400,23,0,421,24,0,400,25,0,421,26,0,400,27,0,400,28,0,420,29,0,400,30,0,400,32,0,400,33,0,400,34,0,421,35,0,400,36,0,400,37,0,421,38,0,400,39,0,421,40,0,421,41,0,400,42,0,400,43,0,421,44,0,400,45,0,400,46,0,400,59,0,400,60,0,400,61,0,400,62,0,400*42
$PAIRDGP,7,2,7,8,16,21,26,27*56
$GNGGA,035826.200,2500.7952621,N,12132.4377583,E,4,45,0.62,16.750,M,15.25,M,1,3335*4A
$GNRMC,035826.200,A,2500.7952621,N,12132.4377583,E,0.02,146.48,090324,,,R,V*11
$GPHDT,178.982,T*38
$GNACCURACY,4.8*1A
$GNGGA,035826.300,2500.7952625,N,12132.4377594,E,4,45,0.62,16.761,M,15.25,M,1,3335*4B
$GNRMC,035826.300,A,2500.7952625,N,12132.4377594,E,0.01,146.48,090324,,,R,V*11
$GPHDT,,T*1B
$GNACCURACY,4.8*1A
$GNGGA,035826.400,2500.7952630,N,12132.4377580,E,4,45,0.62,16.762,M,15.25,M,1,3335*4E
$GNRMC,035826.400,A,2500.7952630,N,12132.4377580,E,0.02,146.48,090324,,,R,V*14
$GPHDT,178.885,T*3E
$GNACCURACY,4.8*1A
$GNGGA,035826.500,2500.7952627,N,12132.4377585,E,4,45,0.62,16.772,M,15.25,M,1,3335*4D
$GNRMC,035826.500,A,2500.7952627,N,12132.4377585,E,0.03,146.48,090324,,,R,V*17
$GPHDT,,T*1B
$GNACCURACY,4.7*15
$GNGGA,035826.600,2500.7952621,N,12132.4377548,E,4,45,0.62,16.759,M,15.25,M,0,3335*41
$GNRMC,035826.600,A,2500.7952621,N,12132.4377548,E,0.03,146.48,090324,,,R,V*13
$GPHDT,178.753,T*3A
$GNACCURACY,4.8*1A
$GNGGA,035826.700,2500.7952619,N,12132.4377607,E,4,45,0.62,16.754,M,15.25,M,0,3335*4E
$GNRMC,035826.700,A,2500.7952619,N,12132.4377607,E,0.02,146.48,090324,,,R,V*10
$GPHDT,,T*1B
$GNACCURACY,4.7*15
$GNGGA,035826.800,2500.7952623,N,12132.4377598,E,4,45,0.62,16.735,M,15.25,M,0,3335*4A
$GNRMC,035826.800,A,2500.7952623,N,12132.4377598,E,0.02,146.48,090324,,,R,V*13
$GPHDT,179.037,T*3E
$GNACCURACY,4.7*15
$GNGGA,035826.900,2500.7952647,N,12132.4377620,E,4,45,0.62,16.730,M,15.25,M,0,3335*4C
$GNRMC,035826.900,A,2500.7952647,N,12132.4377620,E,0.04,146.48,090324,,,R,V*16
$GPHDT,,T*1B
$GNACCURACY,4.8*1A
$GNGGA,035827.000,2500.7952639,N,12132.4377591,E,4,45,0.62,16.744,M,15.25,M,1,3335*46
$GNRMC,035827.000,A,2500.7952639,N,12132.4377591,E,0.05,146.48,090324,,,R,V*1F
$GPHDT,179.494,T*33
$GNACCURACY,4.7*15
$GNGGA,035827.100,2500.7952654,N,12132.4377578,E,4,45,0.62,16.748,M,15.25,M,1,3335*47
$GNRMC,035827.100,A,2500.7952654,N,12132.4377578,E,0.03,146.48,090324,,,R,V*14
$GPHDT,,T*1B
$GNGSA,A,3,08,194,195,199,21,02,07,27,16,26,,,1.14,0.62,0.96,1*36
$GNGSA,A,3,88,78,77,79,,,,,,,,,1.14,0.62,0.96,2*0C
$GNGSA,A,3,21,13,26,27,,,,,,,,,1.14,0.62,0.96,3*0C
$GNGSA,A,3,09,23,16,43,40,07,39,10,28,25,37,34,1.14,0.62,0.96,4*05
$GPGSV,3,1,12,08,66,345,45,194,64,050,40,195,63,117,42,50,60,167,39,1*61
$GPGSV,3,2,12,199,60,167,37,21,55,160,44,02,43,178,40,07,37,318,44,1*57
$GPGSV,3,3,12,27,37,033,29,16,29,070,33,196,20,170,21,26,10,095,17,1*50
$GPGSV,2,1,07,08,66,345,48,194,64,050,43,195,63,117,45,199,60,167,46,8*58
$GPGSV,2,2,07,27,37,033,33,196,20,170,26,26,10,095,15,8*68
$GLGSV,2,1,05,88,61,037,40,78,54,028,42,77,26,105,29,79,22,330,42,1*78
$GLGSV,2,2,05,87,07,026,13,1*43
$GAGSV,1,1,04,21,54,005,42,13,54,088,32,26,39,173,39,27,30,075,35,7*77
$GAGSV,1,1,04,13,54,088,44,21,54,005,46,26,39,173,42,27,30,075,26,1*7A
$GBGSV,3,1,12,09,74,274,42,23,71,019,47,16,71,197,41,43,63,039,44,1*75
$GBGSV,3,2,12,40,62,326,43,07,61,305,42,39,60,185,43,10,51,286,22,1*7A
$GBGSV,3,3,12,28,51,217,42,25,40,113,45,37,26,320,43,34,15,039,16,1*70
$GBGSV,2,1,07,23,71,019,45,40,62,326,45,39,60,185,42,28,51,217,41,4*76
$GBGSV,2,2,07,25,40,113,45,37,26,320,43,34,15,039,16,4*4D
$GNACCURACY,4.8*1A
$PAIRSAT,1,22,2,0,201,3,0,200,4,0,200,5,0,200,6,0,200,7,0,201,8,0,21,16,0,1,20,0,200,21,0,201,22,0,200,23,0,200,24,0,200,25,0,200,26,0,220,27,0,221,28,0,200,29,0,200,194,0,21,195,0,621,196,0,600,199,0,621*4B
$PAIRSAT,2,15,70,0,200,71,0,200,73,0,200,74,0,200,75,0,200,76,0,200,77,0,1,78,0,201,79,0,201,80,0,200,84,0,200,85,0,200,86,0,200,87,0,201,88,0,201*5B
$PAIRSAT,3,21,2,0,1200,3,0,1200,4,0,1200,5,0,200,7,0,1200,8,0,1200,9,0,1200,10,0,200,11,0,200,12,0,200,13,0,221,15,0,200,21,0,21,25,0,1000,26,0,1021,27,0,1021,30,0,1000,31,0,1000,33,0,1200,34,0,1000,36,0,1200*54
$PAIRSAT,4,40,3,0,400,7,0,1,9,0,201,10,0,201,11,0,200,12,0,200,13,0,200,14,0,200,16,0,201,19,0,600,20,0,600,21,0,600,22,0,400,23,0,421,24,0,400,25,0,421,26,0,400,27,0,400,28,0,420,29,0,400,30,0,400,32,0,400,33,0,400,34,0,421,35,0,400,36,0,400,37,0,421,38,0,400,39,0,421,40,0,421,41,0,400,42,0,400,43,0,421,44,0,400,45,0,400,46,0,400,59,0,400,60,0,400,61,0,400,62,0,400*42
$PAIRDGP,7,2,7,8,16,21,26,27*56
$GNGGA,035827.200,2500.7952649,N,12132.4377565,E,4,45,0.62,16.740,M,15.25,M,1,3335*4C
$GNRMC,035827.200,A,2500.7952649,N,12132.4377565,E,0.03,146.48,090324,,,R,V*17
$GPHDT,179.199,T*3B
$GNACCURACY,4.7*15
$GNGGA,035827.300,2500.7952649,N,12132.4377588,E,4,45,0.62,16.742,M,15.25,M,1,3335*4C
$GNRMC,035827.300,A,2500.7952649,N,12132.4377588,E,0.02,146.48,090324,,,R,V*14
$GPHDT,,T*1B
$GNACCURACY,4.7*15
$GNGGA,035827.400,2500.7952652,N,12132.4377573,E,4,45,0.62,16.741,M,15.25,M,1,3335*46
$GNRMC,035827.400,A,2500.7952652,N,12132.4377573,E,0.02,146.48,090324,,,R,V*1D
$GPHDT,179.141,T*3E
$GNACCURACY,4.7*15
$GNGGA,035827.500,2500.7952655,N,12132.4377572,E,4,45,0.62,16.749,M,15.25,M,0,3335*48
$GNRMC,035827.500,A,2500.7952655,N,12132.4377572,E,0.02,146.48,090324,,,R,V*1A
$GPHDT,,T*1B
$GNACCURACY,4.7*15
$GNGGA,035827.600,2500.7952660,N,12132.4377619,E,4,45,0.62,16.753,M,15.25,M,0,3335*48
$GNRMC,035827.600,A,2500.7952660,N,12132.4377619,E,0.02,146.48,090324,,,R,V*11
$GPHDT,179.495,T*32
$GNACCURACY,4.7*15
$GNGGA,035827.700,2500.7952636,N,12132.4377569,E,4,45,0.62,16.764,M,15.25,M,0,3335*4A
$GNRMC,035827.700,A,2500.7952636,N,12132.4377569,E,0.02,146.48,090324,,,R,V*17
$GPHDT,,T*1B
$GNACCURACY,4.7*15
$GNGGA,035827.800,2500.7952641,N,12132.4377595,E,4,45,0.62,16.765,M,15.25,M,0,3335*47
$GNRMC,035827.800,A,2500.7952641,N,12132.4377595,E,0.04,146.48,090324,,,R,V*1D
$GPHDT,179.777,T*3D
$GNACCURACY,4.7*15
$GNGGA,035827.900,2500.7952622,N,12132.4377590,E,4,45,0.62,16.744,M,15.25,M,0,3335*45
$GNRMC,035827.900,A,2500.7952622,N,12132.4377590,E,0.16,146.48,090324,,,R,V*1F
$GPHDT,,T*1B
$GNACCURACY,4.7*15
$GNGGA,035828.000,2500.7952620,N,12132.4377575,E,4,45,0.62,16.736,M,15.25,M,1,3335*4E
$GNRMC,035828.000,A,2500.7952620,N,12132.4377575,E,0.08,146.48,090324,,,R,V*1F
$GPHDT,179.725,T*3A
$GNACCURACY,4.7*15
$GNGGA,035828.100,2500.7952653,N,12132.4377573,E,4,45,0.62,16.756,M,15.25,M,1,3335*4B
$GNRMC,035828.100,A,2500.7952653,N,12132.4377573,E,0.04,146.48,090324,,,R,V*10
$GPHDT,,T*1B
$GNGSA,A,3,08,194,195,199,21,02,07,27,16,26,,,1.14,0.62,0.96,1*36
$GNGSA,A,3,88,78,77,79,,,,,,,,,1.14,0.62,0.96,2*0C
$GNGSA,A,3,21,13,26,27,,,,,,,,,1.14,0.62,0.96,3*0C
$GNGSA,A,3,09,23,16,43,40,07,39,28,10,25,37,34,1.14,0.62,0.96,4*05
$GPGSV,3,1,12,08,66,345,45,194,64,050,41,195,63,117,42,50,60,167,39,1*60
$GPGSV,3,2,12,199,60,167,37,21,55,160,44,02,43,178,40,07,37,318,44,1*57
$GPGSV,3,3,12,27,37,033,32,16,29,070,35,196,20,170,21,26,10,095,18,1*53
$GPGSV,2,1,07,08,66,345,48,194,64,050,44,195,63,117,45,199,60,167,46,8*5F
$GPGSV,2,2,07,27,37,033,35,196,20,170,25,26,10,095,16,8*6E
$GLGSV,2,1,05,88,61,037,41,78,54,028,43,77,26,105,30,79,22,330,42,1*70
$GLGSV,2,2,05,87,07,026,15,1*45
$GAGSV,1,1,04,21,54,005,43,13,54,088,34,26,39,173,39,27,30,075,36,7*73
$GAGSV,1,1,04,13,54,088,44,21,54,005,46,26,39,173,42,27,30,075,32,1*7F
$GBGSV,3,1,12,09,74,274,41,23,71,019,47,16,71,197,41,43,63,039,44,1*76
$GBGSV,3,2,12,40,62,326,43,07,61,305,42,39,60,185,43,28,52,217,42,1*7C
$GBGSV,3,3,12,10,51,286,23,25,40,113,45,37,26,320,42,34,15,040,15,1*78
$GBGSV,2,1,07,23,71,019,46,40,62,326,44,39,60,185,42,28,52,217,41,4*77
$GBGSV,2,2,07,25,40,113,45,37,26,320,43,34,15,040,17,4*42
$GNACCURACY,4.7*15
$PAIRSAT,1,22,2,0,201,3,0,200,4,0,200,5,0,200,6,0,200,7,0,201,8,0,21,16,0,1,20,0,200,21,0,201,22,0,200,23,0,200,24,0,200,25,0,200,26,0,220,27,0,221,28,0,200,29,0,200,194,0,21,195,0,621,196,0,600,199,0,621*4B
$PAIRSAT,2,15,70,0,200,71,0,200,73,0,200,74,0,200,75,0,200,76,0,200,77,0,1,78,0,201,79,0,201,80,0,200,84,0,200,85,0,200,86,0,200,87,0,201,88,0,201*5B
$PAIRSAT,3,21,2,0,1200,3,0,1200,4,0,1200,5,0,200,7,0,1200,8,0,1200,9,0,1200,10,0,200,11,0,200,12,0,200,13,0,221,15,0,200,21,0,21,25,0,1000,26,0,1021,27,0,1021,30,0,1000,31,0,1000,33,0,1200,34,0,1000,36,0,1200*54
$PAIRSAT,4,40,3,0,400,7,0,1,9,0,201,10,0,201,11,0,200,12,0,200,13,0,200,14,0,200,16,0,201,19,0,600,20,0,600,21,0,600,22,0,400,23,0,421,24,0,400,25,0,421,26,0,400,27,0,400,28,0,420,29,0,400,30,0,400,32,0,400,33,0,400,34,0,421,35,0,400,36,0,400,37,0,421,38,0,400,39,0,421,40,0,421,41,0,400,42,0,400,43,0,421,44,0,400,45,0,400,46,0,400,59,0,400,60,0,400,61,0,400,62,0,400*42
$PAIRDGP,7,2,7,8,16,21,26,27*56
$GNGGA,035828.200,2500.7952654,N,12132.4377605,E,4,45,0.62,16.760,M,15.25,M,1,3335*48
$GNRMC,035828.200,A,2500.7952654,N,12132.4377605,E,0.03,146.48,090324,,,R,V*11
$GPHDT,179.273,T*3C
$GNACCURACY,4.7*15
$GNGGA,035828.300,2500.7952622,N,12132.4377581,E,4,45,0.62,16.751,M,15.25,M,1,3335*45
$GNRMC,035828.300,A,2500.7952622,N,12132.4377581,E,0.03,146.48,090324,,,R,V*1E
$GPHDT,,T*1B
$GNACCURACY,4.7*15
$GNGGA,035828.400,2500.7952638,N,12132.4377635,E,4,45,0.62,16.740,M,15.25,M,1,3335*45
$GNRMC,035828.400,A,2500.7952638,N,12132.4377635,E,0.03,146.48,090324,,,R,V*1E
$GPHDT,179.960,T*35
$GNACCURACY,4.7*15
$GNGGA,035828.500,2500.7952641,N,12132.4377614,E,4,45,0.62,16.743,M,15.25,M,0,3335*4B
$GNRMC,035828.500,A,2500.7952641,N,12132.4377614,E,0.03,146.48,090324,,,R,V*12
$GPHDT,,T*1B
$GNACCURACY,4.7*15
$GNGGA,035828.600,2500.7952632,N,12132.4377625,E,4,45,0.62,16.742,M,15.25,M,0,3335*4F
$GNRMC,035828.600,A,2500.7952632,N,12132.4377625,E,0.02,146.48,090324,,,R,V*16
$GPHDT,180.259,T*32
$GNACCURACY,4.7*15
$GNGGA,035828.700,2500.7952638,N,12132.4377612,E,4,45,0.62,16.752,M,15.25,M,0,3335*41
$GNRMC,035828.700,A,2500.7952638,N,12132.4377612,E,0.02,146.48,090324,,,R,V*19
$GPHDT,,T*1B
$GNACCURACY,4.8*1A
$GNGGA,035828.800,2500.7952647,N,12132.4377602,E,4,45,0.62,16.757,M,15.25,M,0,3335*42
$GNRMC,035828.800,A,2500.7952647,N,12132.4377602,E,0.02,146.48,090324,,,R,V*1F
$GPHDT,180.018,T*35
$GNACCURACY,4.8*1A
$GNGGA,035828.900,2500.7952659,N,12132.4377619,E,4,45,0.62,16.744,M,15.25,M,0,3335*44
$GNRMC,035828.900,A,2500.7952659,N,12132.4377619,E,0.05,146.48,090324,,,R,V*1C
$GPHDT,,T*1B
$GNACCURACY,4.8*1A
$GNGGA,035829.000,2500.7952654,N,12132.4377576,E,4,45,0.62,16.749,M,15.25,M,1,3335*47
$GNRMC,035829.000,A,2500.7952654,N,12132.4377576,E,0.05,146.48,090324,,,R,V*13
$GPHDT,179.953,T*35
$GNACCURACY,4.8*1A
$GNGGA,035829.100,2500.7952618,N,12132.4377578,E,4,45,0.62,16.750,M,15.25,M,1,3335*48
$GNRMC,035829.100,A,2500.7952618,N,12132.4377578,E,0.02,146.48,090324,,,R,V*13
$GPHDT,,T*1B
$GNGSA,A,3,08,194,195,199,21,02,07,27,16,26,,,1.14,0.62,0.96,1*36
$GNGSA,A,3,88,78,77,79,,,,,,,,,1.14,0.62,0.96,2*0C
$GNGSA,A,3,21,13,26,27,,,,,,,,,1.14,0.62,0.96,3*0C
$GNGSA,A,3,09,23,16,43,40,07,39,28,10,25,37,34,1.14,0.62,0.96,4*05
$GPGSV,3,1,12,08,66,345,45,194,64,050,41,195,63,117,42,50,60,167,39,1*60
$GPGSV,3,2,12,199,60,167,37,21,55,160,44,02,43,178,40,07,37,318,44,1*57
$GPGSV,3,3,12,27,37,033,35,16,29,070,36,196,20,170,21,26,10,095,20,1*5C
$GPGSV,2,1,07,08,66,345,48,194,64,050,45,195,63,117,45,199,60,167,46,8*5E
$GPGSV,2,2,07,27,37,033,35,196,20,170,26,26,10,095,15,8*6E
$GLGSV,2,1,05,88,61,037,42,78,54,028,43,77,26,105,29,79,22,330,41,1*78
$GLGSV,2,2,05,87,07,026,14,1*44
$GAGSV,1,1,04,21,54,005,41,13,54,088,36,26,39,173,38,27,30,075,36,7*72
$GAGSV,1,1,04,13,54,088,44,21,54,005,46,26,39,173,42,27,30,075,32,1*7F
$GBGSV,3,1,12,09,74,274,42,23,71,019,47,16,71,197,41,43,63,039,44,1*75
$GBGSV,3,2,12,40,62,326,43,07,61,305,42,39,60,185,43,28,52,217,42,1*7C
$GBGSV,3,3,12,10,51,286,23,25,40,113,46,37,26,320,43,34,15,040,15,1*7A
$GBGSV,2,1,07,23,71,019,46,40,62,326,45,39,60,185,42,28,52,217,41,4*76
$GBGSV,2,2,07,25,40,113,45,37,26,320,43,34,15,040,17,4*42
$GNACCURACY,4.8*1A
$PAIRSAT,1,22,2,0,201,3,0,200,4,0,200,5,0,200,6,0,200,7,0,201,8,0,21,16,0,1,20,0,200,21,0,201,22,0,200,23,0,200,24,0,200,25,0,200,26,0,220,27,0,221,28,0,200,29,0,200,194,0,21,195,0,621,196,0,600,199,0,621*4B
$PAIRSAT,2,15,70,0,200,71,0,200,73,0,200,74,0,200,75,0,200,76,0,200,77,0,1,78,0,201,79,0,201,80,0,200,84,0,200,85,0,200,86,0,200,87,0,201,88,0,201*5B
$PAIRSAT,3,21,2,0,1200,3,0,1200,4,0,1200,5,0,200,7,0,1200,8,0,1200,9,0,1200,10,0,200,11,0,200,12,0,200,13,0,221,15,0,200,21,0,21,25,0,1000,26,0,1021,27,0,1021,30,0,1000,31,0,1000,33,0,1200,34,0,1000,36,0,1200*54
$PAIRSAT,4,40,3,0,400,7,0,1,9,0,201,10,0,201,11,0,200,12,0,200,13,0,200,14,0,200,16,0,201,19,0,600,20,0,600,21,0,600,22,0,400,23,0,421,24,0,400,25,0,421,26,0,400,27,0,400,28,0,420,29,0,400,30,0,400,32,0,400,33,0,400,34,0,421,35,0,400,36,0,400,37,0,421,38,0,400,39,0,421,40,0,421,41,0,400,42,0,400,43,0,421,44,0,400,45,0,400,46,0,400,59,0,400,60,0,400,61,0,400,62,0,400*42
$PAIRDGP,7,2,7,8,16,21,26,27*56
$GNGGA,035829.200,2500.7952636,N,12132.4377607,E,4,45,0.62,16.763,M,15.25,M,1,3335*4C
$GNRMC,035829.200,A,2500.7952636,N,12132.4377607,E,0.03,146.48,090324,,,R,V*16
$GPHDT,179.589,T*3E
$GNACCURACY,4.7*15
$GNGGA,035829.300,2500.7952613,N,12132.4377573,E,4,45,0.62,16.765,M,15.25,M,1,3335*4C
$GNRMC,035829.300,A,2500.7952613,N,12132.4377573,E,0.02,146.48,090324,,,R,V*11
$GPHDT,,T*1B
$GNACCURACY,4.7*15
$GNGGA,035829.400,2500.7952623,N,12132.4377560,E,4,45,0.62,16.759,M,15.25,M,1,3335*45
$GNRMC,035829.400,A,2500.7952623,N,12132.4377560,E,0.02,146.48,090324,,,R,V*17
$GPHDT,179.063,T*3F
$GNACCURACY,4.7*15
$GNGGA,035829.500,2500.7952639,N,12132.4377573,E,4,45,0.62,16.773,M,15.25,M,1,3335*45
$GNRMC,035829.500,A,2500.7952639,N,12132.4377573,E,0.02,146.48,090324,,,R,V*1F
$GPHDT,,T*1B
$GNACCURACY,4.7*15
$GNGGA,035829.600,2500.7952659,N,12132.4377559,E,4,45,0.62,16.759,M,15.25,M,0,3335*41
$GNRMC,035829.600,A,2500.7952659,N,12132.4377559,E,0.01,146.48,090324,,,R,V*11
$GPHDT,178.825,T*34
$GNACCURACY,4.7*15
$GNGGA,035829.700,2500.7952659,N,12132.4377558,E,4,45,0.62,16.768,M,15.25,M,0,3335*43
$GNRMC,035829.700,A,2500.7952659,N,12132.4377558,E,0.02,146.48,090324,,,R,V*12
$GPHDT,,T*1B
$GNACCURACY,4.7*15
$GNGGA,035829.800,2500.7952655,N,12132.4377561,E,4,45,0.62,16.768,M,15.25,M,0,3335*4A
$GNRMC,035829.800,A,2500.7952655,N,12132.4377561,E,0.07,146.48,090324,,,R,V*1E
$GPHDT,178.810,T*32
$GNACCURACY,4.7*15
$GNGGA,035829.900,2500.7952657,N,12132.4377552,E,4,45,0.62,16.762,M,15.25,M,0,3335*43
$GNRMC,035829.900,A,2500.7952657,N,12132.4377552,E,0.05,146.48,090324,,,R,V*1F
$GPHDT,,T*1B
$GNACCURACY,4.7*15
$GNGGA,035830.000,2500.7952651,N,12132.4377591,E,4,45,0.62,16.770,M,15.25,M,1,3335*49
$GNRMC,035830.000,A,2500.7952651,N,12132.4377591,E,0.04,146.48,090324,,,R,V*16
$GPHDT,179.054,T*3B
$GNACCURACY,4.7*15
$GNGGA,035830.100,2500.7952624,N,12132.4377573,E,4,45,0.62,16.746,M,15.25,M,1,3335*43
$GNRMC,035830.100,A,2500.7952624,N,12132.4377573,E,0.02,146.48,090324,,,R,V*1F
$GPHDT,,T*1B
$GNGSA,A,3,08,194,195,199,21,02,07,27,16,26,,,1.14,0.62,0.96,1*36
$GNGSA,A,3,88,78,77,79,,,,,,,,,1.14,0.62,0.96,2*0C
$GNGSA,A,3,21,13,26,27,,,,,,,,,1.14,0.62,0.96,3*0C
$GNGSA,A,3,09,23,16,43,40,07,39,28,10,25,37,34,1.14,0.62,0.96,4*05
$GPGSV,3,1,12,08,66,345,46,194,64,050,39,195,63,117,42,50,60,167,39,1*6C
$GPGSV,3,2,12,199,60,167,36,21,55,160,44,02,43,178,42,07,37,318,44,1*54
$GPGSV,3,3,12,27,37,033,33,16,29,070,37,196,20,170,22,26,10,095,20,1*58
$GPGSV,2,1,06,08,66,345,48,194,64,050,44,195,63,117,45,199,60,167,46,8*5E
$GPGSV,2,2,06,27,37,033,30,26,10,095,14,8*65
$GLGSV,2,1,05,88,61,037,39,78,54,028,41,77,26,105,29,79,22,330,43,1*74
$GLGSV,2,2,05,87,07,026,14,1*44
$GAGSV,1,1,04,21,54,005,41,13,54,088,34,26,39,173,38,27,30,075,36,7*70
$GAGSV,1,1,04,13,54,088,44,21,54,005,45,26,39,173,42,27,30,075,30,1*7E
$GBGSV,3,1,12,09,74,274,42,23,71,019,47,16,71,197,41,43,63,039,43,1*72
$GBGSV,3,2,12,40,62,326,43,07,61,305,42,39,60,185,43,28,52,217,42,1*7C
$GBGSV,3,3,12,10,51,286,23,25,40,113,46,37,26,320,42,34,15,040,15,1*7B
$GBGSV,2,1,07,23,71,019,46,40,62,326,46,39,60,185,42,28,52,217,41,4*75
$GBGSV,2,2,07,25,40,113,45,37,26,320,43,34,15,040,17,4*42
$GNACCURACY,4.8*1A
$PAIRSAT,1,22,2,0,201,3,0,200,4,0,200,5,0,200,6,0,200,7,0,201,8,0,21,16,0,1,20,0,200,21,0,201,22,0,200,23,0,200,24,0,200,25,0,200,26,0,220,27,0,221,28,0,200,29,0,200,194,0,21,195,0,621,196,0,600,199,0,621*4B
$PAIRSAT,2,15,70,0,200,71,0,200,73,0,200,74,0,200,75,0,200,76,0,200,77,0,1,78,0,201,79,0,201,80,0,200,84,0,200,85,0,200,86,0,200,87,0,201,88,0,201*5B
$PAIRSAT,3,21,2,0,1200,3,0,1200,4,0,1200,5,0,200,7,0,1200,8,0,1200,9,0,1200,10,0,200,11,0,200,12,0,200,13,0,221,15,0,200,21,0,21,25,0,1000,26,0,1021,27,0,1021,30,0,1000,31,0,1000,33,0,1200,34,0,1000,36,0,1200*54
$PAIRSAT,4,40,3,0,400,7,0,1,9,0,201,10,0,201,11,0,200,12,0,200,13,0,200,14,0,200,16,0,201,19,0,600,20,0,600,21,0,600,22,0,400,23,0,421,24,0,400,25,0,421,26,0,400,27,0,400,28,0,420,29,0,400,30,0,400,32,0,400,33,0,400,34,0,421,35,0,400,36,0,400,37,0,421,38,0,400,39,0,421,40,0,421,41,0,400,42,0,400,43,0,421,44,0,400,45,0,400,46,0,400,59,0,400,60,0,400,61,0,400,62,0,400*42
$PAIRDGP,7,2,7,8,16,21,26,27*56
$GNGGA,035830.200,2500.7952642,N,12132.4377598,E,4,45,0.62,16.743,M,15.25,M,1,3335*40
$GNRMC,035830.200,A,2500.7952642,N,12132.4377598,E,0.02,146.48,090324,,,R,V*19
$GPHDT,179.288,T*38
$GNACCURACY,4.8*1A
$GNGGA,035830.300,2500.7952650,N,12132.4377601,E,4,45,0.62,16.754,M,15.25,M,1,3335*47
$GNRMC,035830.300,A,2500.7952650,N,12132.4377601,E,0.01,146.48,090324,,,R,V*1B
$GPHDT,,T*1B
$GNACCURACY,4.8*1A
$GNGGA,035830.400,2500.7952693,N,12132.4377682,E,4,45,0.62,16.723,M,15.25,M,1,3335*44
$GNRMC,035830.400,A,2500.7952693,N,12132.4377682,E,0.00,146.48,090324,,,R,V*19
$GPHDT,180.546,T*3B
$GNACCURACY,4.8*1A
$GNGGA,035830.500,2500.7952675,N,12132.4377611,E,4,45,0.62,16.738,M,15.25,M,0,3335*4C
$GNRMC,035830.500,A,2500.7952675,N,12132.4377611,E,0.01,146.48,090324,,,R,V*1B
$GPHDT,,T*1B
$GNACCURACY,4.8*1A
$GNGGA,035830.600,2500.7952663,N,12132.4377575,E,4,45,0.62,16.766,M,15.25,M,0,3335*42
$GNRMC,035830.600,A,2500.7952663,N,12132.4377575,E,0.09,146.48,090324,,,R,V*16
$GPHDT,180.298,T*3F
$GNACCURACY,4.8*1A
$GNGGA,035830.700,2500.7952660,N,12132.4377616,E,4,45,0.62,16.743,M,15.25,M,0,3335*41
$GNRMC,035830.700,A,2500.7952660,N,12132.4377616,E,0.06,146.48,090324,,,R,V*1D
$GPHDT,,T*1B
$GNACCURACY,4.8*1A
$GNGGA,035830.800,2500.7952653,N,12132.4377596,E,4,45,0.62,16.757,M,15.25,M,0,3335*40
$GNRMC,035830.800,A,2500.7952653,N,12132.4377596,E,0.03,146.48,090324,,,R,V*1C
$GPHDT,180.187,T*32
$GNACCURACY,4.8*1A
$GNGGA,035830.900,2500.7952656,N,12132.4377650,E,4,45,0.62,16.738,M,15.25,M,0,3335*44
$GNRMC,035830.900,A,2500.7952656,N,12132.4377650,E,0.07,146.48,090324,,,R,V*15
$GPHDT,,T*1B
$GNACCURACY,4.8*1A
$GNGGA,035831.000,2500.7952652,N,12132.4377627,E,4,44,0.62,16.741,M,15.25,M,1,3335*46
$GNRMC,035831.000,A,2500.7952652,N,12132.4377627,E,0.01,146.48,090324,,,R,V*1F
$GPHDT,180.198,T*3C
$GNACCURACY,4.8*1A
$GNGGA,035831.100,2500.7952657,N,12132.4377646,E,4,44,0.62,16.739,M,15.25,M,1,3335*4A
$GNRMC,035831.100,A,2500.7952657,N,12132.4377646,E,0.01,146.48,090324,,,R,V*1C
$GPHDT,,T*1B
$GNGSA,A,3,08,194,195,199,21,02,07,27,16,26,,,1.14,0.62,0.96,1*36
$GNGSA,A,3,88,78,77,79,,,,,,,,,1.14,0.62,0.96,2*0C
$GNGSA,A,3,21,13,26,27,,,,,,,,,1.14,0.62,0.96,3*0C
$GNGSA,A,3,09,23,16,43,40,07,39,28,10,25,37,34,1.14,0.62,0.96,4*05
$GPGSV,3,1,12,08,66,345,45,194,64,050,40,195,63,117,42,50,60,167,40,1*6F
$GPGSV,3,2,12,199,60,167,37,21,55,160,44,02,43,178,42,07,37,318,44,1*55
$GPGSV,3,3,12,27,37,033,37,16,29,070,30,196,20,170,19,26,10,095,22,1*51
$GPGSV,2,1,07,08,66,345,48,194,64,050,44,195,63,117,45,199,60,167,46,8*5F
$GPGSV,2,2,07,27,37,033,36,196,20,170,23,26,10,095,14,8*69
$GLGSV,2,1,05,88,61,037,41,78,54,028,43,77,26,105,26,79,22,330,41,1*74
$GLGSV,2,2,05,87,07,026,13,1*43
$GAGSV,1,1,04,21,54,005,41,13,54,088,34,26,39,173,38,27,30,075,31,7*77
$GAGSV,1,1,03,21,54,005,47,13,54,088,44,26,39,173,42,1*4C
$G