$FW : RTK35X,V1.1X0314AS,Lib20210517,1*54
$Tool : LOCOSYS , GNSS Firebird , v1.0.0.19*39
$---------------------------------------------------*2D
$GNGGA,033255.400,2500.8164716,N,12132.4426691,E,4,67,0.43,17.699,M,15.25,M,4,3335*43
$GNRMC,033255.400,A,2500.8164716,N,12132.4426691,E,0.00,227.48,270623,,,R,V*13
$GPHDT,136.986,T*36
$GNGGA,033255.600,2500.8164723,N,12132.4426683,E,4,67,0.43,17.706,M,15.25,M,4,3335*43
$GNRMC,033255.600,A,2500.8164723,N,12132.4426683,E,0.00,227.48,270623,,,R,V*14
$GPHDT,137.033,T*30
$GNGGA,033255.800,2500.8164720,N,12132.4426714,E,4,67,0.43,17.696,M,15.25,M,4,3335*49
$GNRMC,033255.800,A,2500.8164720,N,12132.4426714,E,0.00,227.48,270623,,,R,V*16
$GPHDT,137.248,T*3E
$GNGSA,A,3,195,17,196,19,199,06,194,14,09,11,04,03,0.82,0.43,0.70,1*06
$GNGSA,A,3,67,68,82,83,80,73,66,,,,,,0.82,0.43,0.70,2*0A
$GNGSA,A,3,24,10,12,11,31,19,04,25,33,,,,0.82,0.43,0.70,3*04
$GNGSA,A,3,40,07,10,14,08,33,43,13,42,11,28,37,0.82,0.43,0.70,4*0C
$GNGSA,A,3,23,,,,,,,,,,,,0.82,0.43,0.70,4*0F
$GPGSV,4,1,15,195,67,041,42,17,64,061,42,196,62,129,39,19,62,008,40,1*65
$GPGSV,4,2,15,199,60,167,36,06,50,330,43,194,43,170,40,41,38,242,35,1*65
$GPGSV,4,3,15,14,31,178,39,09,30,112,41,11,25,279,45,20,24,226,17,1*67
$GPGSV,4,4,15,04,21,079,27,03,14,038,27,12,09,321,16,1*59
$GPGSV,3,1,10,195,67,041,45,196,62,129,46,199,60,167,46,06,50,330,46,8*50
$GPGSV,3,2,10,194,43,170,42,14,31,178,41,09,30,112,41,11,25,279,45,8*5D
$GPGSV,3,3,10,04,21,079,32,03,14,038,28,8*63
$GLGSV,2,1,08,67,48,073,45,68,42,152,43,82,37,029,39,83,31,333,29,1*7C
$GLGSV,2,2,08,80,29,236,34,73,23,297,42,66,11,031,21,79,05,189,,1*76
$GAGSV,3,1,09,24,54,251,38,10,49,327,40,12,49,008,37,11,33,294,38,7*7A
$GAGSV,3,2,09,31,32,183,33,19,29,092,29,04,24,156,40,25,23,311,37,7*74
$GAGSV,3,3,09,33,17,059,26,7*44
$GAGSV,3,1,09,24,54,251,40,10,49,327,45,12,49,008,41,11,33,294,36,1*79
$GAGSV,3,2,09,31,32,183,38,19,29,092,38,04,24,156,36,25,23,311,32,1*7D
$GAGSV,3,3,09,33,17,059,32,1*47
$GBGSV,4,1,15,40,84,101,41,07,83,263,38,10,72,298,38,14,61,096,42,1*7D
$GBGSV,4,2,15,08,59,263,38,33,58,155,44,43,53,046,44,13,49,252,35,1*7F
$GBGSV,4,3,15,42,43,059,46,11,34,074,38,28,34,320,45,23,22,225,19,1*74
$GBGSV,4,4,15,34,20,092,,37,17,278,31,41,17,197,,1*4D
$GBGSV,2,1,07,40,84,101,45,33,58,155,45,43,53,046,43,42,43,059,47,4*79
$GBGSV,2,2,07,28,34,320,43,23,22,225,19,37,17,278,35,4*4A
$GNGGA,033256.000,2500.8164692,N,12132.4426714,E,4,66,0.43,17.696,M,15.25,M,5,3335*4A
$GNRMC,033256.000,A,2500.8164692,N,12132.4426714,E,0.00,227.48,270623,,,R,V*15
$GPHDT,136.682,T*3D
$GNGGA,033256.200,2500.8164688,N,12132.4426696,E,4,66,0.43,17.699,M,15.25,M,5,3335*47
$GNRMC,033256.200,A,2500.8164688,N,12132.4426696,E,0.00,227.48,270623,,,R,V*17
$GPHDT,137.269,T*3D
$GNGGA,033256.400,2500.8164679,N,12132.4426710,E,4,67,0.43,17.693,M,15.25,M,5,3335*4B
$GNRMC,033256.400,A,2500.8164679,N,12132.4426710,E,0.00,227.48,270623,,,R,V*10
$GPHDT,136.952,T*3F
$GNGGA,033256.600,2500.8164675,N,12132.4426718,E,4,67,0.43,17.695,M,15.25,M,5,3335*4B
$GNRMC,033256.600,A,2500.8164675,N,12132.4426718,E,0.00,227.48,270623,,,R,V*16
$GPHDT,137.070,T*37
$GNGGA,033256.800,2500.8164721,N,12132.4426704,E,4,67,0.43,17.700,M,15.25,M,5,3335*45
$GNRMC,033256.800,A,2500.8164721,N,12132.4426704,E,0.00,227.48,270623,,,R,V*15
$GPHDT,137.080,T*38
$GNGSA,A,3,195,17,196,19,199,06,194,14,09,11,04,03,0.82,0.43,0.70,1*06
$GNGSA,A,3,67,68,82,83,80,73,66,,,,,,0.82,0.43,0.70,2*0A
$GNGSA,A,3,24,10,12,11,31,19,04,25,33,,,,0.82,0.43,0.70,3*04
$GNGSA,A,3,40,07,10,14,08,33,43,13,42,11,28,23,0.82,0.43,0.70,4*09
$GNGSA,A,3,37,,,,,,,,,,,,0.82,0.43,0.70,4*0A
$GPGSV,4,1,15,195,67,041,42,17,64,061,42,196,62,129,39,19,62,008,40,1*65
$GPGSV,4,2,15,199,60,167,36,06,50,330,43,194,43,170,40,41,38,242,35,1*65
$GPGSV,4,3,15,14,31,178,39,09,30,112,41,11,25,279,45,20,24,226,17,1*67
$GPGSV,4,4,15,04,21,079,27,03,14,038,28,12,09,321,17,1*57
$GPGSV,3,1,10,195,67,041,45,196,62,129,46,199,60,167,46,06,50,330,46,8*50
$GPGSV,3,2,10,194,43,170,42,14,31,178,41,09,30,112,41,11,25,279,45,8*5D
$GPGSV,3,3,10,04,21,079,32,03,14,038,28,8*63
$GLGSV,2,1,08,67,48,073,45,68,42,152,43,82,37,029,39,83,31,333,29,1*7C
$GLGSV,2,2,08,80,29,236,34,73,23,297,42,66,11,031,23,79,05,189,,1*74
$GAGSV,3,1,09,24,54,251,38,10,49,327,40,12,49,008,37,11,33,294,38,7*7A
$GAGSV,3,2,09,31,32,183,33,19,29,092,29,04,24,156,40,25,23,311,37,7*74
$GAGSV,3,3,09,33,17,059,26,7*44
$GAGSV,3,1,09,24,54,251,40,10,49,327,45,12,49,008,41,11,33,294,36,1*79
$GAGSV,3,2,09,31,32,183,38,19,29,092,38,04,24,156,36,25,23,311,31,1*7E
$GAGSV,3,3,09,33,17,059,32,1*47
$GBGSV,4,1,15,40,84,101,41,07,83,263,38,10,72,298,38,14,61,096,42,1*7D
$GBGSV,4,2,15,08,59,263,38,33,58,155,44,43,53,046,44,13,49,252,35,1*7F
$GBGSV,4,3,15,42,43,059,46,11,34,074,38,28,34,320,45,23,22,225,19,1*74
$GBGSV,4,4,15,34,20,092,,37,17,278,31,41,17,197,,1*4D
$GBGSV,2,1,07,40,84,101,45,33,58,155,45,43,53,046,43,42,43,059,47,4*79
$GBGSV,2,2,07,28,34,320,43,23,22,225,21,37,17,278,34,4*40
$GNGGA,033257.000,2500.8164687,N,12132.4426713,E,4,67,0.43,17.707,M,15.25,M,6,3335*43
$GNRMC,033257.000,A,2500.8164687,N,12132.4426713,E,0.00,227.48,270623,,,R,V*17
$GPHDT,137.030,T*33
$GNGGA,033257.200,2500.8164698,N,12132.4426717,E,4,67,0.43,17.706,M,15.25,M,6,3335*4A
$GNRMC,033257.200,A,2500.8164698,N,12132.4426717,E,0.00,227.48,270623,,,R,V*1F
$GPHDT,137.386,T*3D
$GNGGA,033257.400,2500.8164692,N,12132.4426723,E,4,67,0.43,17.701,M,15.25,M,6,3335*46
$GNRMC,033257.400,A,2500.8164692,N,12132.4426723,E,0.00,227.48,270623,,,R,V*14
$GPHDT,137.076,T*31
$GNGGA,033257.600,2500.8164656,N,12132.4426730,E,4,67,0.43,17.703,M,15.25,M,6,3335*4C
$GNRMC,033257.600,A,2500.8164656,N,12132.4426730,E,0.00,227.48,270623,,,R,V*1C
$GPHDT,136.861,T*3E
$GNGGA,033257.800,2500.8164673,N,12132.4426751,E,4,67,0.43,17.695,M,15.25,M,4,3335*4E
$GNRMC,033257.800,A,2500.8164673,N,12132.4426751,E,0.00,227.48,270623,,,R,V*12
$GPHDT,136.895,T*35
$GNGSA,A,3,195,17,196,19,199,06,194,14,09,11,04,03,0.82,0.43,0.70,1*06
$GNGSA,A,3,67,68,82,83,80,73,66,,,,,,0.82,0.43,0.70,2*0A
$GNGSA,A,3,24,10,12,11,31,19,04,25,33,,,,0.82,0.43,0.70,3*04
$GNGSA,A,3,40,07,10,14,08,33,43,13,42,11,28,23,0.82,0.43,0.70,4*09
$GNGSA,A,3,37,,,,,,,,,,,,0.82,0.43,0.70,4*0A
$GPGSV,4,1,15,195,67,041,42,17,64,061,42,196,62,129,39,19,62,008,40,1*65
$GPGSV,4,2,15,199,60,167,36,06,50,330,43,194,43,170,40,41,38,242,36,1*66
$GPGSV,4,3,15,14,31,178,39,09,30,112,41,11,25,279,45,20,24,226,14,1*64
$GPGSV,4,4,15,04,21,079,25,03,14,038,28,12,09,321,17,1*55
$GPGSV,3,1,10,195,67,041,45,196,62,129,46,199,60,167,46,06,50,330,46,8*50
$GPGSV,3,2,10,194,43,170,42,14,31,178,41,09,30,112,41,11,25,279,45,8*5D
$GPGSV,3,3,10,04,21,079,32,03,14,038,28,8*63
$GLGSV,2,1,08,67,48,073,45,68,42,152,43,82,37,029,39,83,31,333,29,1*7C
$GLGSV,2,2,08,80,29,236,36,73,23,297,42,66,11,031,23,79,05,189,,1*76
$GAGSV,3,1,09,24,54,251,38,10,49,327,40,12,49,008,37,11,33,294,38,7*7A
$GAGSV,3,2,09,31,32,183,33,19,29,092,28,04,24,156,40,25,23,311,37,7*75
$GAGSV,3,3,09,33,17,059,26,7*44
$GAGSV,3,1,09,24,54,251,40,10,49,327,45,12,49,008,41,11,33,294,36,1*79
$GAGSV,3,2,09,31,32,183,37,19,29,092,38,04,24,156,36,25,23,311,33,1*73
$GAGSV,3,3,09,33,17,059,32,1*47
$GBGSV,4,1,16,40,84,101,41,07,83,263,38,10,72,298,38,14,61,096,42,1*7E
$GBGSV,4,2,16,08,59,263,38,33,58,155,44,43,53,046,44,13,49,252,35,1*7C
$GBGSV,4,3,16,42,43,059,46,11,34,074,38,28,34,320,45,23,22,225,19,1*77
$GBGSV,4,4,16,34,20,092,,37,17,278,31,41,17,197,,21,01,034,,1*7B
$GBGSV,2,1,07,40,84,101,45,33,58,155,45,43,53,046,44,42,43,059,47,4*7E
$GBGSV,2,2,07,28,34,320,43,23,22,225,20,37,17,278,35,4*40
$GNGGA,033258.000,2500.8164676,N,12132.4426678,E,4,67,0.43,17.683,M,15.25,M,3,3335*46
$GNRMC,033258.000,A,2500.8164676,N,12132.4426678,E,0.00,227.48,270623,,,R,V*1A
$GPHDT,136.986,T*36
$GNGGA,033258.200,2500.8164645,N,12132.4426669,E,4,67,0.43,17.680,M,15.25,M,1,3335*45
$GNRMC,033258.200,A,2500.8164645,N,12132.4426669,E,0.01,227.48,270623,,,R,V*19
$GPHDT,137.063,T*35
$GNGGA,033258.400,2500.8164673,N,12132.4426693,E,4,66,0.43,17.677,M,15.25,M,1,3335*4A
$GNRMC,033258.400,A,2500.8164673,N,12132.4426693,E,0.00,227.48,270623,,,R,V*1E
$GPHDT,136.829,T*32
$GNGGA,033258.600,2500.8164681,N,12132.4426720,E,4,66,0.43,17.663,M,15.25,M,1,3335*49
$GNRMC,033258.600,A,2500.8164681,N,12132.4426720,E,0.00,227.48,270623,,,R,V*18
$GPHDT,137.334,T*34
$GNGGA,033258.800,2500.8164669,N,12132.4426727,E,4,66,0.43,17.657,M,15.25,M,0,3335*40
$GNRMC,033258.800,A,2500.8164669,N,12132.4426727,E,0.00,227.48,270623,,,R,V*17
$GPHDT,136.906,T*3E
$GNGSA,A,3,195,17,196,19,199,06,194,14,09,11,04,03,0.82,0.43,0.70,1*06
$GNGSA,A,3,67,68,82,83,80,73,66,,,,,,0.82,0.43,0.70,2*0A
$GNGSA,A,3,24,10,12,11,31,19,04,25,33,,,,0.82,0.43,0.70,3*04
$GNGSA,A,3,40,07,10,14,08,33,43,13,42,28,11,37,0.82,0.43,0.70,4*0C
$GNGSA,A,3,23,,,,,,,,,,,,0.82,0.43,0.70,4*0F
$GPGSV,4,1,15,195,67,041,42,17,64,061,41,196,62,129,39,19,62,008,40,1*66
$GPGSV,4,2,15,199,60,167,36,06,50,330,43,194,43,170,40,41,38,242,41,1*66
$GPGSV,4,3,15,14,31,178,39,09,30,112,41,11,25,279,45,20,24,226,16,1*66
$GPGSV,4,4,15,04,21,079,25,03,14,038,28,12,09,321,17,1*55
$GPGSV,3,1,10,195,67,041,45,196,62,129,46,199,60,167,46,06,50,330,46,8*50
$GPGSV,3,2,10,194,43,170,44,14,31,178,41,09,30,112,41,11,25,279,45,8*5B
$GPGSV,3,3,10,04,21,079,30,03,14,038,28,8*61
$GLGSV,2,1,08,67,48,073,45,68,42,152,43,82,37,029,40,83,31,333,29,1*72
$GLGSV,2,2,08,80,29,236,38,73,23,297,42,66,11,031,22,79,05,189,,1*79
$GAGSV,3,1,09,24,54,251,41,10,49,327,40,12,49,008,37,11,33,294,38,7*74
$GAGSV,3,2,09,31,32,183,34,19,29,092,28,04,24,156,39,25,23,311,37,7*7C
$GAGSV,3,3,09,33,17,059,26,7*44
$GAGSV,3,1,09,24,54,251,44,10,49,327,45,12,49,008,41,11,33,294,37,1*7C
$GAGSV,3,2,09,31,32,183,39,19,29,092,38,04,24,156,36,25,23,311,35,1*7B
$GAGSV,3,3,09,33,17,059,33,1*46
$GBGSV,4,1,14,40,84,101,41,07,83,263,38,10,72,298,39,14,61,096,42,1*7D
$GBGSV,4,2,14,08,59,263,39,33,58,155,44,43,53,046,43,13,49,252,41,1*7B
$GBGSV,4,3,14,42,43,059,45,28,34,320,45,11,34,074,38,23,22,225,18,1*77
$GBGSV,4,4,14,37,17,278,32,41,17,197,,1*71
$GBGSV,2,1,07,40,84,101,45,33,58,155,45,43,53,046,44,42,43,059,47,4*7E
$GBGSV,2,2,07,28,34,320,42,23,22,225,18,37,17,278,34,4*4B
$GNGGA,033259.000,2500.8164682,N,12132.4426712,E,4,66,0.43,17.655,M,15.25,M,1,3335*49
$GNRMC,033259.000,A,2500.8164682,N,12132.4426712,E,0.00,227.48,270623,,,R,V*1D
$GPHDT,137.147,T*32
$GNGGA,033259.200,2500.8164681,N,12132.4426716,E,4,66,0.43,17.661,M,15.25,M,1,3335*4B
$GNRMC,033259.200,A,2500.8164681,N,12132.4426716,E,0.00,227.48,270623,,,R,V*18
$GPHDT,137.470,T*33
$GNGGA,033259.400,2500.8164699,N,12132.4426718,E,4,66,0.43,17.666,M,15.25,M,1,3335*4D
$GNRMC,033259.400,A,2500.8164699,N,12132.4426718,E,0.00,227.48,270623,,,R,V*19
$GPHDT,137.914,T*3C
$GNGGA,033259.600,2500.8164707,N,12132.4426716,E,4,66,0.43,17.669,M,15.25,M,1,3335*48
$GNRMC,033259.600,A,2500.8164707,N,12132.4426716,E,0.00,227.48,270623,,,R,V*13
$GPHDT,137.485,T*39
$GNGGA,033259.800,2500.8164750,N,12132.4426667,E,4,65,0.43,17.692,M,15.25,M,1,3335*44
$GNRMC,033259.800,A,2500.8164750,N,12132.4426667,E,0.00,227.48,270623,,,R,V*18
$GPHDT,137.059,T*3C
$GNGSA,A,3,195,17,196,19,199,06,194,14,09,11,04,03,0.82,0.43,0.70,1*06
$GNGSA,A,3,67,68,82,83,80,73,66,,,,,,0.82,0.43,0.70,2*0A
$GNGSA,A,3,24,10,12,11,31,19,04,25,33,,,,0.82,0.43,0.70,3*04
$GNGSA,A,3,40,07,10,14,08,33,43,13,42,28,11,37,0.82,0.43,0.70,4*0C
$GNGSA,A,3,23,,,,,,,,,,,,0.82,0.43,0.70,4*0F
$GPGSV,4,1,15,195,67,041,42,17,64,061,41,196,62,129,39,19,62,008,40,1*66
$GPGSV,4,2,15,199,60,167,36,06,50,330,43,194,43,170,38,41,38,242,42,1*6A
$GPGSV,4,3,15,14,31,178,38,09,30,112,41,11,25,279,45,20,24,226,16,1*67
$GPGSV,4,4,15,04,21,079,24,03,14,038,28,12,09,321,,1*52
$GPGSV,3,1,10,195,67,041,45,196,62,129,46,199,60,167,46,06,50,330,46,8*50
$GPGSV,3,2,10,194,43,170,43,14,31,178,39,09,30,112,42,11,25,279,45,8*50
$GPGSV,3,3,10,04,21,079,30,03,14,038,29,8*60
$GLGSV,2,1,08,67,48,073,45,68,42,152,41,82,37,029,39,83,31,333,29,1*7E
$GLGSV,2,2,08,80,29,236,40,73,23,297,42,66,11,031,25,79,05,189,,1*71
$GAGSV,3,1,09,24,54,250,41,10,49,327,40,12,49,008,37,11,33,294,38,7*75
$GAGSV,3,2,09,31,32,183,32,19,29,092,28,04,24,156,39,25,23,311,37,7*7A
$GAGSV,3,3,09,33,17,059,28,7*4A
$GAGSV,3,1,09,24,54,250,44,10,49,327,45,12,49,008,41,11,33,294,37,1*7D
$GAGSV,3,2,09,31,32,183,37,19,29,092,38,04,24,156,35,25,23,311,36,1*75
$GAGSV,3,3,09,33,17,059,33,1*46
$GBGSV,4,1,14,40,84,101,41,07,83,263,38,10,72,298,39,14,61,096,42,1*7D
$GBGSV,4,2,14,08,59,263,39,33,58,155,44,43,53,046,43,13,49,252,41,1*7B
$GBGSV,4,3,14,42,43,059,45,28,34,320,45,11,34,074,38,23,22,225,19,1*76
$GBGSV,4,4,14,37,17,278,32,41,17,197,,1*71
$GBGSV,2,1,07,40,84,101,45,33,58,155,45,43,53,046,44,42,43,059,47,4*7E
$GBGSV,2,2,07,28,34,320,42,23,22,225,16,37,17,278,34,4*45
$GNGGA,033300.000,2500.8164772,N,12132.4426677,E,4,66,0.43,17.693,M,15.25,M,2,3335*41
$GNRMC,033300.000,A,2500.8164772,N,12132.4426677,E,0.00,227.48,270623,,,R,V*1C
$GPHDT,137.515,T*31
$GNGGA,033300.200,2500.8164790,N,12132.4426679,E,4,66,0.43,17.692,M,15.25,M,2,3335*40
$GNRMC,033300.200,A,2500.8164790,N,12132.4426679,E,0.00,227.48,270623,,,R,V*1C
$GPHDT,136.892,T*32
$GNGGA,033300.400,2500.8164729,N,12132.4426706,E,4,67,0.43,17.683,M,15.25,M,2,3335*4C
$GNRMC,033300.400,A,2500.8164729,N,12132.4426706,E,0.00,227.48,270623,,,R,V*11
$GPHDT,136.862,T*3D
$GNGGA,033300.600,2500.8164750,N,12132.4426663,E,4,67,0.43,17.701,M,15.25,M,2,3335*49
$GNRMC,033300.600,A,2500.8164750,N,12132.4426663,E,0.00,227.48,270623,,,R,V*1F
$GPHDT,136.803,T*3A
$GNGGA,033300.800,2500.8164761,N,12132.4426686,E,4,67,0.43,17.691,M,15.25,M,2,3335*46
$GNRMC,033300.800,A,2500.8164761,N,12132.4426686,E,0.00,227.48,270623,,,R,V*18
$GPHDT,137.046,T*32
$GNGSA,A,3,195,17,196,19,199,06,194,14,09,11,04,03,0.82,0.43,0.70,1*06
$GNGSA,A,3,67,68,82,83,80,73,66,,,,,,0.82,0.43,0.70,2*0A
$GNGSA,A,3,24,10,12,11,31,19,04,25,33,,,,0.82,0.43,0.70,3*04
$GNGSA,A,3,40,07,10,14,08,33,43,13,42,28,11,23,0.82,0.43,0.70,4*09
$GNGSA,A,3,37,,,,,,,,,,,,0.82,0.43,0.70,4*0A
$GPGSV,4,1,15,195,67,041,42,17,64,061,41,196,62,129,39,19,62,008,40,1*66
$GPGSV,4,2,15,199,60,167,36,06,50,330,43,194,43,170,38,41,38,242,43,1*6B
$GPGSV,4,3,15,14,31,178,38,09,30,112,38,11,25,279,45,20,24,226,15,1*6A
$GPGSV,4,4,15,04,21,079,25,03,14,038,28,12,09,321,,1*53
$GPGSV,3,1,10,195,67,041,45,196,62,129,46,199,60,167,46,06,50,330,46,8*50
$GPGSV,3,2,10,194,43,170,43,14,31,178,40,09,30,112,38,11,25,279,45,8*53
$GPGSV,3,3,10,04,21,079,30,03,14,038,28,8*61
$GLGSV,2,1,08,67,48,073,45,68,42,152,43,82,37,029,39,83,31,333,30,1*74
$GLGSV,2,2,08,80,29,236,40,73,23,297,42,66,11,031,26,79,05,189,,1*72
$GAGSV,3,1,09,24,54,250,42,10,49,327,40,12,49,008,37,11,33,294,38,7*76
$GAGSV,3,2,09,31,32,183,35,19,29,092,27,04,24,156,40,25,23,311,37,7*7C
$GAGSV,3,3,09,33,17,059,30,7*43
$GAGSV,3,1,09,24,54,250,45,10,49,327,45,12,49,008,41,11,33,294,38,1*73
$GAGSV,3,2,09,31,32,183,39,19,29,092,37,04,24,156,37,25,23,311,36,1*76
$GAGSV,3,3,09,33,17,059,33,1*46
$GBGSV,4,1,14,40,84,101,41,07,83,263,38,10,72,298,39,14,61,096,41,1*7E
$GBGSV,4,2,14,08,59,263,39,33,58,155,44,43,53,046,43,13,49,252,41,1*7B
$GBGSV,4,3,14,42,43,059,45,28,34,320,45,11,34,074,38,23,22,225,20,1*7C
$GBGSV,4,4,14,37,17,278,31,41,17,197,,1*72
$GBGSV,2,1,07,40,84,101,45,33,58,155,46,43,53,046,44,42,43,059,47,4*7D
$GBGSV,2,2,07,28,34,320,42,23,22,225,16,37,17,278,34,4*45
$GNGGA,033301.000,2500.8164756,N,12132.4426723,E,4,67,0.43,17.689,M,15.25,M,3,3335*4D
$GNRMC,033301.000,A,2500.8164756,N,12132.4426723,E,0.00,227.48,270623,,,R,V*1B
$GPHDT,137.396,T*3C
$GNGGA,033301.200,2500.8164734,N,12132.4426677,E,4,67,0.43,17.686,M,15.25,M,3,3335*44
$GNRMC,033301.200,A,2500.8164734,N,12132.4426677,E,0.00,227.48,270623,,,R,V*1D
$GPHDT,137.131,T*33
$GNGGA,033301.400,2500.8164699,N,12132.4426720,E,4,67,0.43,17.673,M,15.25,M,3,3335*4D
$GNRMC,033301.400,A,2500.8164699,N,12132.4426720,E,0.00,227.48,270623,,,R,V*1E
$GPHDT,136.924,T*3E
$GNGGA,033301.600,2500.8164708,N,12132.4426716,E,4,67,0.43,17.675,M,15.25,M,3,3335*45
$GNRMC,033301.600,A,2500.8164708,N,12132.4426716,E,0.00,227.48,270623,,,R,V*10
$GPHDT,137.025,T*37
$GNGGA,033301.800,2500.8164712,N,12132.4426711,E,4,67,0.43,17.674,M,15.25,M,3,3335*46
$GNRMC,033301.800,A,2500.8164712,N,12132.4426711,E,0.00,227.48,270623,,,R,V*12
$GPHDT,137.268,T*3C
$GNGSA,A,3,195,17,196,19,199,06,194,14,09,11,03,04,0.82,0.43,0.70,1*06
$GNGSA,A,3,67,68,82,83,80,73,66,,,,,,0.82,0.43,0.70,2*0A
$GNGSA,A,3,24,10,12,11,31,19,04,25,33,,,,0.82,0.43,0.70,3*04
$GNGSA,A,3,40,07,10,14,08,33,43,13,42,28,11,23,0.82,0.43,0.70,4*09
$GNGSA,A,3,37,,,,,,,,,,,,0.82,0.43,0.70,4*0A
$GPGSV,4,1,15,195,67,041,42,17,64,061,41,196,62,129,39,19,62,008,40,1*66
$GPGSV,4,2,15,199,60,167,36,06,50,330,43,194,43,170,39,41,38,242,44,1*6D
$GPGSV,4,3,15,14,31,178,38,09,30,112,40,11,25,279,45,20,24,226,14,1*64
$GPGSV,4,4,15,04,21,079,21,03,14,038,29,12,09,321,,1*56
$GPGSV,3,1,10,195,67,041,45,196,62,129,46,199,60,167,46,06,50,330,46,8*50
$GPGSV,3,2,10,194,43,170,43,14,31,178,41,09,30,112,40,11,25,279,45,8*5D
$GPGSV,3,3,10,04,21,079,29,03,14,038,28,8*69
$GLGSV,2,1,08,67,48,073,45,68,42,152,44,82,37,029,39,83,31,333,31,1*72
$GLGSV,2,2,08,80,29,236,40,73,23,297,42,66,11,031,26,79,05,189,,1*72
$GAGSV,3,1,09,24,54,250,42,10,49,327,40,12,49,008,37,11,33,294,38,7*76
$GAGSV,3,2,09,31,32,183,35,19,29,092,26,04,24,156,39,25,23,311,37,7*73
$GAGSV,3,3,09,33,17,060,29,7*41
$GAGSV,3,1,09,24,54,250,45,10,49,327,45,12,49,008,41,11,33,294,38,1*73
$GAGSV,3,2,09,31,32,183,38,19,29,092,37,04,24,156,30,25,23,311,36,1*70
$GAGSV,3,3,09,33,17,060,33,1*4C
$GBGSV,4,1,14,40,84,101,41,07,83,263,38,10,72,298,39,14,61,096,41,1*7E
$GBGSV,4,2,14,08,59,263,38,33,58,155,44,43,53,046,43,13,49,252,41,1*7A
$GBGSV,4,3,14,42,43,059,45,28,34,320,45,11,34,074,38,23,22,225,21,1*7D
$GBGSV,4,4,14,37,17,278,31,41,17,197,,1*72
$GBGSV,2,1,07,40,84,101,45,33,58,155,46,43,53,046,44,42,43,059,47,4*7D
$GBGSV,2,2,07,28,34,320,42,23,22,225,16,37,17,278,34,4*45
$GNGGA,033302.000,2500.8164686,N,12132.4426716,E,4,66,0.43,17.687,M,15.25,M,4,3335*4C
$GNRMC,033302.000,A,2500.8164686,N,12132.4426716,E,0.00,227.48,270623,,,R,V*12
$GPHDT,136.615,T*33
$GNGGA,033302.200,2500.8164707,N,12132.4426727,E,4,66,0.43,17.693,M,15.25,M,4,3335*41
$GNRMC,033302.200,A,2500.8164707,N,12132.4426727,E,0.00,227.48,270623,,,R,V*1A
$GPHDT,137.097,T*3E
$GNGGA,033302.400,2500.8164688,N,12132.4426719,E,4,67,0.43,17.686,M,15.25,M,4,3335*49
$GNRMC,033302.400,A,2500.8164688,N,12132.4426719,E,0.00,227.48,270623,,,R,V*17
$GPHDT,136.938,T*33
$GNGGA,033302.600,2500.8164679,N,12132.4426724,E,4,67,0.43,17.681,M,15.25,M,4,3335*4C
$GNRMC,033302.600,A,2500.8164679,N,12132.4426724,E,0.00,227.48,270623,,,R,V*15
$GPHDT,136.675,T*35
$GNGGA,033302.800,2500.8164714,N,12132.4426737,E,4,67,0.43,17.679,M,15.25,M,4,3335*4D
$GNRMC,033302.800,A,2500.8164714,N,12132.4426737,E,0.00,227.48,270623,,,R,V*13
$GPHDT,136.898,T*38
$GNGSA,A,3,195,17,196,19,199,06,194,14,09,11,04,03,0.82,0.43,0.70,1*06
$GNGSA,A,3,67,68,82,83,80,73,66,,,,,,0.82,0.43,0.70,2*0A
$GNGSA,A,3,24,10,12,11,31,19,04,25,33,,,,0.82,0.43,0.70,3*04
$GNGSA,A,3,40,07,10,14,08,33,43,13,42,28,11,23,0.82,0.43,0.70,4*09
$GNGSA,A,3,37,,,,,,,,,,,,0.82,0.43,0.70,4*0A
$GPGSV,4,1,15,195,67,041,42,17,64,061,41,196,62,129,39,19,62,008,40,1*66
$GPGSV,4,2,15,199,60,167,36,06,50,330,43,194,43,170,38,41,38,242,44,1*6C
$GPGSV,4,3,15,14,31,178,35,09,30,112,40,11,25,279,45,20,24,226,16,1*6B
$GPGSV,4,4,15,04,21,079,24,03,14,038,29,12,09,321,,1*53
$GPGSV,3,1,10,195,67,041,45,196,62,129,46,199,60,167,46,06,50,330,46,8*50
$GPGSV,3,2,10,194,43,170,43,14,31,178,38,09,30,112,41,11,25,279,45,8*52
$GPGSV,3,3,10,04,21,079,29,03,14,038,28,8*69
$GLGSV,2,1,08,67,48,072,45,68,42,152,44,82,37,029,39,83,31,333,31,1*73
$GLGSV,2,2,08,80,29,236,40,73,23,297,42,66,10,030,26,79,05,189,,1*72
$GAGSV,3,1,09,24,54,250,42,10,49,327,40,12,49,008,37,11,33,294,38,7*76
$GAGSV,3,2,09,31,32,183,31,19,29,092,26,04,24,156,39,25,23,311,37,7*77
$GAGSV,3,3,09,33,17,060,29,7*41
$GAGSV,3,1,09,24,54,250,45,10,49,327,45,12,49,008,41,11,33,294,38,1*73
$GAGSV,3,2,09,31,32,183,36,19,29,092,37,04,24,156,35,25,23,311,36,1*7B
$GAGSV,3,3,09,33,17,060,33,1*4C
$GBGSV,4,1,14,40,84,101,41,07,83,263,38,10,72,298,39,14,61,096,41,1*7E
$GBGSV,4,2,14,08,59,263,38,33,58,155,44,43,53,046,43,13,49,252,41,1*7A
$GBGSV,4,3,14,42,43,059,45,28,34,320,45,11,34,074,38,23,22,225,17,1*78
$GBGSV,4,4,14,37,17,278,32,41,17,197,,1*71
$GBGSV,2,1,07,40,84,101,45,33,58,155,46,43,53,046,44,42,43,059,47,4*7D
$GBGSV,2,2,07,28,34,320,42,23,22,225,16,37,17,278,34,4*45
$GNGGA,033303.000,2500.8164687,N,12132.4426738,E,4,67,0.43,17.683,M,15.25,M,5,3335*44
$GNRMC,033303.000,A,2500.8164687,N,12132.4426738,E,0.00,227.48,270623,,,R,V*1E
$GPHDT,137.109,T*38
$GNGGA,033303.200,2500.8164700,N,12132.4426733,E,4,66,0.43,17.681,M,15.25,M,5,3335*40
$GNRMC,033303.200,A,2500.8164700,N,12132.4426733,E,0.00,227.48,270623,,,R,V*19
$GPHDT,137.363,T*36
$GNGGA,033303.400,2500.8164713,N,12132.4426740,E,4,67,0.43,17.685,M,15.25,M,5,3335*45
$GNRMC,033303.400,A,2500.8164713,N,12132.4426740,E,0.00,227.48,270623,,,R,V*19
$GPHDT,137.164,T*33
$GNGGA,033303.600,2500.8164733,N,12132.4426719,E,4,67,0.43,17.692,M,15.25,M,5,3335*4F
$GNRMC,033303.600,A,2500.8164733,N,12132.4426719,E,0.00,227.48,270623,,,R,V*15
$GPHDT,137.022,T*30
$GNGGA,033303.800,2500.8164728,N,12132.4426730,E,4,67,0.43,17.690,M,15.25,M,5,3335*42
$GNRMC,033303.800,A,2500.8164728,N,12132.4426730,E,0.00,227.48,270623,,,R,V*1A
$GPHDT,137.079,T*3E
$GNGSA,A,3,195,17,196,19,199,06,194,14,09,11,04,03,0.82,0.43,0.70,1*06
$GNGSA,A,3,67,68,82,83,80,73,66,,,,,,0.82,0.43,0.70,2*0A
$GNGSA,A,3,24,10,12,11,31,19,04,25,33,,,,0.82,0.43,0.70,3*04
$GNGSA,A,3,40,07,10,14,08,33,43,13,42,28,11,23,0.82,0.43,0.70,4*09
$GNGSA,A,3,37,,,,,,,,,,,,0.82,0.43,0.70,4*0A
$GPGSV,4,1,15,195,67,041,42,17,64,061,41,196,62,129,39,19,62,008,40,1*66
$GPGSV,4,2,15,199,60,167,36,06,50,330,43,194,43,170,40,41,38,242,44,1*63
$GPGSV,4,3,15,14,31,178,36,09,30,112,40,11,25,279,45,20,24,226,17,1*69
$GPGSV,4,4,15,04,21,079,25,03,14,038,29,12,09,321,,1*52
$GPGSV,3,1,10,195,67,041,45,196,62,129,46,199,60,167,45,06,50,330,46,8*53
$GPGSV,3,2,10,194,43,170,43,14,31,178,38,09,30,112,41,11,25,279,45,8*52
$GPGSV,3,3,10,04,21,079,29,03,14,038,28,8*69
$GLGSV,2,1,08,67,48,072,45,68,42,152,44,82,37,029,39,83,31,333,31,1*73
$GLGSV,2,2,08,80,29,236,40,73,23,297,42,66,10,030,26,79,05,189,,1*72
$GAGSV,3,1,09,24,54,250,42,10,49,327,40,12,49,008,37,11,33,294,38,7*76
$GAGSV,3,2,09,31,32,183,31,19,29,092,26,04,24,156,39,25,23,311,37,7*77
$GAGSV,3,3,09,33,17,060,29,7*41
$GAGSV,3,1,09,24,54,250,45,10,49,327,45,12,49,008,41,11,33,294,38,1*73
$GAGSV,3,2,09,31,32,183,33,19,29,092,37,04,24,156,36,25,23,311,36,1*7D
$GAGSV,3,3,09,33,17,060,33,1*4C
$GBGSV,4,1,14,40,84,101,41,07,83,263,38,10,72,298,39,14,61,096,41,1*7E
$GBGSV,4,2,14,08,59,263,38,33,58,155,44,43,53,046,43,13,49,252,41,1*7A
$GBGSV,4,3,14,42,43,059,45,28,34,320,45,11,34,074,38,23,22,225,17,1*78
$GBGSV,4,4,14,37,17,278,31,41,17,197,,1*72
$GBGSV,2,1,07,40,84,101,45,33,58,155,46,43,53,046,44,42,43,059,47,4*7D
$GBGSV,2,2,07,28,34,320,42,23,22,225,15,37,17,278,34,4*46
$GNGGA,033304.000,2500.8164710,N,12132.4426744,E,4,67,0.43,17.690,M,15.25,M,6,3335*46
$GNRMC,033304.000,A,2500.8164710,N,12132.4426744,E,0.00,227.48,270623,,,R,V*1D
$GPHDT,137.112,T*32
$GNGGA,033304.200,2500.8164721,N,12132.4426749,E,4,67,0.43,17.697,M,15.25,M,6,3335*4C
$GNRMC,033304.200,A,2500.8164721,N,12132.4426749,E,0.00,227.48,270623,,,R,V*10
$GPHDT,137.251,T*36
$GNGGA,033304.400,2500.8164718,N,12132.4426750,E,4,67,0.43,17.701,M,15.25,M,6,3335*46
$GNRMC,033304.400,A,2500.8164718,N,12132.4426750,E,0.00,227.48,270623,,,R,V*14
$GPHDT,137.161,T*36
$GNGGA,033304.600,2500.8164682,N,12132.4426757,E,4,67,0.43,17.672,M,15.25,M,4,3335*46
$GNRMC,033304.600,A,2500.8164682,N,12132.4426757,E,0.00,227.48,270623,,,R,V*13
$GPHDT,137.170,T*36
$GNGGA,033304.800,2500.8164732,N,12132.4426771,E,4,67,0.43,17.681,M,15.25,M,2,3335*4C
$GNRMC,033304.800,A,2500.8164732,N,12132.4426771,E,0.00,227.48,270623,,,R,V*13
$GPHDT,137.175,T*33
$GNGSA,A,3,195,17,196,19,199,06,194,14,09,11,04,03,0.82,0.43,0.70,1*06
$GNGSA,A,3,67,68,82,83,80,73,66,,,,,,0.82,0.43,0.70,2*0A
$GNGSA,A,3,24,10,12,11,31,19,04,25,33,,,,0.82,0.43,0.70,3*04
$GNGSA,A,3,40,07,10,14,08,33,43,13,42,28,11,23,0.82,0.43,0.70,4*09
$GNGSA,A,3,37,,,,,,,,,,,,0.82,0.43,0.70,4*0A
$GPGSV,4,1,15,195,67,041,42,17,64,061,41,196,62,129,39,19,62,008,40,1*66
$GPGSV,4,2,15,199,60,167,36,06,50,330,43,194,43,170,40,41,38,242,44,1*63
$GPGSV,4,3,15,14,31,178,37,09,30,112,40,11,25,279,45,20,24,226,18,1*67
$GPGSV,4,4,15,04,21,079,25,03,14,038,30,12,09,321,,1*5A
$GPGSV,3,1,10,195,67,041,45,196,62,129,46,199,60,167,45,06,50,330,46,8*53
$GPGSV,3,2,10,194,43,170,43,14,31,178,38,09,30,112,41,11,25,279,45,8*52
$GPGSV,3,3,10,04,21,079,29,03,14,038,28,8*69
$GLGSV,2,1,08,67,48,072,45,68,42,152,44,82,37,029,38,83,31,333,31,1*72
$GLGSV,2,2,08,80,29,236,40,73,23,297,42,66,10,030,26,79,05,189,,1*72
$GAGSV,3,1,09,24,54,250,42,10,49,327,40,12,49,008,36,11,33,294,38,7*77
$GAGSV,3,2,09,31,32,183,31,19,29,092,26,04,24,156,40,25,23,311,37,7*79
$GAGSV,3,3,09,33,17,060,30,7*49
$GAGSV,3,1,09,24,54,250,45,10,49,327,45,12,49,008,41,11,33,294,38,1*73
$GAGSV,3,2,09,31,32,183,33,19,29,092,37,04,24,156,37,25,23,311,36,1*7C
$GAGSV,3,3,09,33,17,060,32,1*4D
$GBGSV,4,1,14,40,84,101,41,07,83,263,38,10,72,298,39,14,61,096,41,1*7E
$GBGSV,4,2,14,08,59,263,38,33,58,155,44,43,53,046,43,13,49,252,41,1*7A
$GBGSV,4,3,14,42,43,059,45,28,34,320,45,11,34,074,38,23,22,225,19,1*76
$GBGSV,4,4,14,37,17,278,31,41,17,197,,1*72
$GBGSV,2,1,07,40,84,101,45,33,58,155,46,43,53,046,44,42,43,059,46,4*7C
$GBGSV,2,2,07,28,34,320,42,23,22,225,16,37,17,278,34,4*45
$GNGGA,033305.000,2500.8164730,N,12132.4426718,E,4,67,0.43,17.679,M,15.25,M,1,3335*4C
$GNRMC,033305.000,A,2500.8164730,N,12132.4426718,E,0.00,227.48,270623,,,R,V*17
$GPHDT,137.099,T*30
$GNGGA,033305.200,2500.8164749,N,12132.4426717,E,4,67,0.43,17.685,M,15.25,M,1,3335*4C
$GNRMC,033305.200,A,2500.8164749,N,12132.4426717,E,0.00,227.48,270623,,,R,V*14
