$FW : RTK35X,V1.1X0314AS,Lib20210517,1*54
$Tool : LOCOSYS , GNSS Firebird , v1.0.0.19*39
$---------------------------------------------------*2D
$GNGGA,033228.600,2500.8164623,N,12132.4426726,E,4,65,0.42,17.661,M,15.25,M,2,3335*43
$GNRMC,033228.600,A,2500.8164623,N,12132.4426726,E,0.00,227.48,270623,,,R,V*11
$GPHDT,183.164,T*3C
$GNGGA,033228.800,2500.8164643,N,12132.4426738,E,4,65,0.42,17.664,M,15.25,M,2,3335*41
$GNRMC,033228.800,A,2500.8164643,N,12132.4426738,E,0.00,227.48,270623,,,R,V*16
$GPHDT,183.105,T*3B
$GNGSA,A,3,195,17,196,19,199,06,194,14,09,11,04,03,0.81,0.42,0.69,1*0C
$GNGSA,A,3,67,68,82,83,80,73,66,,,,,,0.81,0.42,0.69,2*00
$GNGSA,A,3,24,10,12,11,31,19,04,25,33,,,,0.81,0.42,0.69,3*0E
$GNGSA,A,3,40,07,10,14,08,33,43,13,42,11,28,37,0.81,0.42,0.69,4*06
$GNGSA,A,3,41,,,,,,,,,,,,0.81,0.42,0.69,4*01
$GPGSV,4,1,15,195,67,041,39,17,64,060,40,196,62,129,40,19,62,007,40,1*6B
$GPGSV,4,2,15,199,60,167,34,06,50,330,44,194,43,170,42,41,38,242,38,1*6F
$GPGSV,4,3,15,14,32,178,43,09,30,113,43,11,25,279,42,20,24,226,21,1*68
$GPGSV,4,4,15,04,21,079,34,03,14,038,11,12,09,321,16,1*5E
$GPGSV,3,1,10,195,67,041,45,196,62,129,45,199,60,167,46,06,50,330,46,8*53
$GPGSV,3,2,10,194,43,170,45,14,32,178,43,09,30,113,45,11,25,279,44,8*5F
$GPGSV,3,3,10,04,21,079,28,03,14,038,25,8*65
$GLGSV,2,1,08,67,48,073,42,68,42,153,43,82,37,028,43,83,31,333,31,1*7F
$GLGSV,2,2,08,80,30,236,32,73,23,297,42,66,11,031,24,79,06,189,,1*7E
$GAGSV,3,1,09,24,54,251,39,10,49,327,41,12,49,008,36,11,33,294,37,7*74
$GAGSV,3,2,09,31,32,183,41,19,29,092,32,04,23,157,36,25,23,311,37,7*7C
$GAGSV,3,3,09,33,17,059,31,7*42
$GAGSV,3,1,09,24,54,251,38,10,49,327,44,12,49,008,41,11,33,294,38,1*79
$GAGSV,3,2,09,31,32,183,40,19,29,092,40,04,23,157,40,25,23,311,38,1*70
$GAGSV,3,3,09,33,17,059,28,1*4C
$GBGSV,4,1,14,40,84,099,39,07,83,263,39,10,72,298,38,14,61,096,41,1*71
$GBGSV,4,2,14,08,59,262,38,33,58,155,42,43,54,045,44,13,49,252,27,1*7E
$GBGSV,4,3,14,42,43,060,44,11,35,073,42,28,34,319,45,23,22,225,20,1*76
$GBGSV,4,4,14,37,18,279,31,41,16,197,,1*7D
$GBGSV,2,1,07,40,84,099,45,33,58,155,46,43,54,045,43,42,43,060,45,4*76
$GBGSV,2,2,07,28,34,319,43,37,18,279,35,41,16,197,19,4*47
$GNGGA,033229.000,2500.8164663,N,12132.4426730,E,4,65,0.42,17.669,M,15.25,M,3,3335*4E
$GNRMC,033229.000,A,2500.8164663,N,12132.4426730,E,0.00,227.48,270623,,,R,V*15
$GPHDT,183.203,T*3E
$GNGGA,033229.200,2500.8164696,N,12132.4426734,E,4,65,0.42,17.670,M,15.25,M,3,3335*4A
$GNRMC,033229.200,A,2500.8164696,N,12132.4426734,E,0.00,227.48,270623,,,R,V*19
$GPHDT,183.108,T*36
$GNGGA,033229.400,2500.8164603,N,12132.4426740,E,4,65,0.42,17.667,M,15.25,M,3,3335*45
$GNRMC,033229.400,A,2500.8164603,N,12132.4426740,E,0.00,227.48,270623,,,R,V*10
$GPHDT,182.958,T*3A
$GNGGA,033229.600,2500.8164582,N,12132.4426761,E,4,65,0.42,17.656,M,15.25,M,3,3335*4C
$GNRMC,033229.600,A,2500.8164582,N,12132.4426761,E,0.00,227.48,270623,,,R,V*1B
$GPHDT,183.268,T*33
$GNGGA,033229.800,2500.8164664,N,12132.4426741,E,4,65,0.42,17.672,M,15.25,M,3,3335*4D
$GNRMC,033229.800,A,2500.8164664,N,12132.4426741,E,0.00,227.48,270623,,,R,V*1C
$GPHDT,183.297,T*33
$GNGSA,A,3,195,17,196,19,199,06,194,14,09,11,04,03,0.81,0.42,0.69,1*0C
$GNGSA,A,3,67,68,82,83,80,73,66,,,,,,0.81,0.42,0.69,2*00
$GNGSA,A,3,24,10,12,11,31,19,04,25,33,,,,0.81,0.42,0.69,3*0E
$GNGSA,A,3,40,07,10,14,08,33,43,13,42,11,28,37,0.81,0.42,0.69,4*06
$GNGSA,A,3,41,,,,,,,,,,,,0.81,0.42,0.69,4*01
$GPGSV,4,1,15,195,67,041,39,17,64,060,40,196,62,129,40,19,62,007,40,1*6B
$GPGSV,4,2,15,199,60,167,33,06,50,330,44,194,43,170,41,41,38,242,37,1*64
$GPGSV,4,3,15,14,32,178,43,09,30,113,43,11,25,279,42,20,24,226,21,1*68
$GPGSV,4,4,15,04,21,079,34,03,14,038,10,12,09,321,14,1*5D
$GPGSV,3,1,10,195,67,041,45,196,62,129,45,199,60,167,46,06,50,330,46,8*53
$GPGSV,3,2,10,194,43,170,45,14,32,178,43,09,30,113,45,11,25,279,44,8*5F
$GPGSV,3,3,10,04,21,079,27,03,14,038,25,8*6A
$GLGSV,2,1,08,67,48,073,41,68,42,153,43,82,37,028,42,83,31,333,32,1*7E
$GLGSV,2,2,08,80,30,236,32,73,23,297,42,66,11,031,25,79,06,189,,1*7F
$GAGSV,3,1,09,24,54,251,39,10,49,327,41,12,49,008,37,11,33,294,37,7*75
$GAGSV,3,2,09,31,32,183,41,19,29,092,31,04,23,157,37,25,23,311,37,7*7E
$GAGSV,3,3,09,33,17,059,31,7*42
$GAGSV,3,1,09,24,54,251,38,10,49,327,44,12,49,008,41,11,33,294,38,1*79
$GAGSV,3,2,09,31,32,183,40,19,29,092,40,04,23,157,40,25,23,311,38,1*70
$GAGSV,3,3,09,33,17,059,28,1*4C
$GBGSV,4,1,14,40,84,099,39,07,83,263,39,10,72,298,38,14,61,096,41,1*71
$GBGSV,4,2,14,08,59,262,38,33,58,155,42,43,54,045,44,13,49,252,26,1*7F
$GBGSV,4,3,14,42,43,060,44,11,35,073,41,28,34,319,45,23,22,225,22,1*77
$GBGSV,4,4,14,37,18,279,32,41,16,197,,1*7E
$GBGSV,2,1,07,40,84,099,45,33,58,155,46,43,54,045,43,42,43,060,45,4*76
$GBGSV,2,2,07,28,34,319,42,37,18,279,35,41,16,197,19,4*46
$GNGGA,033230.000,2500.8164626,N,12132.4426751,E,4,65,0.42,17.663,M,15.25,M,4,3335*4D
$GNRMC,033230.000,A,2500.8164626,N,12132.4426751,E,0.00,227.48,270623,,,R,V*1B
$GPHDT,182.968,T*39
$GNGGA,033230.200,2500.8164653,N,12132.4426708,E,4,65,0.42,17.672,M,15.25,M,2,3335*47
$GNRMC,033230.200,A,2500.8164653,N,12132.4426708,E,0.00,227.48,270623,,,R,V*17
$GPHDT,183.284,T*31
$GNGGA,033230.400,2500.8164588,N,12132.4426758,E,4,65,0.42,17.652,M,15.25,M,1,3335*40
$GNRMC,033230.400,A,2500.8164588,N,12132.4426758,E,0.00,227.48,270623,,,R,V*11
$GPHDT,183.293,T*37
$GNGGA,033230.600,2500.8164588,N,12132.4426724,E,4,65,0.42,17.657,M,15.25,M,0,3335*4D
$GNRMC,033230.600,A,2500.8164588,N,12132.4426724,E,0.00,227.48,270623,,,R,V*18
$GPHDT,183.426,T*3F
$GNGGA,033230.800,2500.8164648,N,12132.4426681,E,4,65,0.42,17.674,M,15.25,M,0,3335*43
$GNRMC,033230.800,A,2500.8164648,N,12132.4426681,E,0.00,227.48,270623,,,R,V*17
$GPHDT,183.183,T*35
$GNGSA,A,3,195,17,196,19,199,06,194,14,09,11,04,03,0.81,0.42,0.69,1*0C
$GNGSA,A,3,67,68,82,83,80,73,66,,,,,,0.81,0.42,0.69,2*00
$GNGSA,A,3,24,12,10,11,31,19,04,25,33,,,,0.81,0.42,0.69,3*0E
$GNGSA,A,3,40,07,10,14,08,33,43,13,42,11,28,37,0.81,0.42,0.69,4*06
$GNGSA,A,3,41,,,,,,,,,,,,0.81,0.42,0.69,4*01
$GPGSV,4,1,15,195,67,041,39,17,64,060,40,196,62,129,40,19,62,007,40,1*6B
$GPGSV,4,2,15,199,60,167,33,06,50,330,44,194,43,170,41,41,38,242,37,1*64
$GPGSV,4,3,15,14,32,178,42,09,30,113,42,11,25,279,42,20,24,226,20,1*69
$GPGSV,4,4,15,04,21,079,34,03,14,038,,12,09,321,16,1*5E
$GPGSV,3,1,10,195,67,041,45,196,62,129,45,199,60,167,46,06,50,330,46,8*53
$GPGSV,3,2,10,194,43,170,45,14,32,178,43,09,30,113,45,11,25,279,44,8*5F
$GPGSV,3,3,10,04,21,079,28,03,14,038,23,8*63
$GLGSV,3,1,09,67,48,073,41,68,42,152,43,82,37,028,42,83,31,333,32,1*7F
$GLGSV,3,2,09,80,30,236,33,73,23,297,43,66,11,031,27,79,06,189,,1*7D
$GLGSV,3,3,09,69,04,186,,1*45
$GAGSV,3,1,09,24,54,251,39,12,49,008,37,10,49,327,41,11,33,294,38,7*7A
$GAGSV,3,2,09,31,32,183,41,19,29,092,32,04,23,157,37,25,23,311,37,7*7D
$GAGSV,3,3,09,33,17,059,30,7*43
$GAGSV,3,1,09,24,54,251,38,10,49,327,44,12,49,008,41,11,33,294,38,1*79
$GAGSV,3,2,09,31,32,183,40,19,29,092,40,04,23,157,40,25,23,311,37,1*7F
$GAGSV,3,3,09,33,17,059,29,1*4D
$GBGSV,4,1,14,40,84,099,39,07,83,263,39,10,72,298,38,14,61,096,41,1*71
$GBGSV,4,2,14,08,59,262,38,33,58,155,42,43,54,045,44,13,49,252,28,1*71
$GBGSV,4,3,14,42,43,060,44,11,35,073,41,28,34,319,45,23,22,225,20,1*75
$GBGSV,4,4,14,37,18,279,32,41,16,197,,1*7E
$GBGSV,2,1,07,40,84,099,45,33,58,155,45,43,54,045,43,42,43,060,45,4*75
$GBGSV,2,2,07,28,34,319,42,37,18,279,35,41,16,197,18,4*47
$GNGGA,033231.000,2500.8164641,N,12132.4426706,E,4,65,0.42,17.673,M,15.25,M,1,3335*4B
$GNRMC,033231.000,A,2500.8164641,N,12132.4426706,E,0.00,227.48,270623,,,R,V*19
$GPHDT,183.388,T*3C
$GNGGA,033231.200,2500.8164669,N,12132.4426730,E,4,65,0.42,17.676,M,15.25,M,1,3335*43
$GNRMC,033231.200,A,2500.8164669,N,12132.4426730,E,0.00,227.48,270623,,,R,V*14
$GPHDT,183.437,T*3F
$GNGGA,033231.400,2500.8164670,N,12132.4426709,E,4,65,0.42,17.679,M,15.25,M,1,3335*48
$GNRMC,033231.400,A,2500.8164670,N,12132.4426709,E,0.00,227.48,270623,,,R,V*10
$GPHDT,183.372,T*39
$GNGGA,033231.600,2500.8164677,N,12132.4426703,E,4,65,0.42,17.680,M,15.25,M,1,3335*41
$GNRMC,033231.600,A,2500.8164677,N,12132.4426703,E,0.00,227.48,270623,,,R,V*1F
$GPHDT,183.400,T*3B
$GNGGA,033231.800,2500.8164650,N,12132.4426695,E,4,65,0.42,17.682,M,15.25,M,1,3335*46
$GNRMC,033231.800,A,2500.8164650,N,12132.4426695,E,0.00,227.48,270623,,,R,V*1A
$GPHDT,183.145,T*3F
$GNGSA,A,3,195,17,196,19,199,06,194,14,09,11,04,03,0.81,0.42,0.69,1*0C
$GNGSA,A,3,67,68,82,83,80,73,66,,,,,,0.81,0.42,0.69,2*00
$GNGSA,A,3,24,12,10,11,31,19,04,25,33,,,,0.81,0.42,0.69,3*0E
$GNGSA,A,3,40,07,10,14,08,33,43,13,42,11,28,37,0.81,0.42,0.69,4*06
$GNGSA,A,3,41,,,,,,,,,,,,0.81,0.42,0.69,4*01
$GPGSV,4,1,15,195,67,041,39,17,64,060,40,196,62,129,40,19,62,007,40,1*6B
$GPGSV,4,2,15,199,60,167,33,06,50,330,44,194,43,170,41,41,38,242,37,1*64
$GPGSV,4,3,15,14,32,178,42,09,30,113,42,11,25,279,42,20,24,226,18,1*62
$GPGSV,4,4,15,04,21,079,33,03,14,038,,12,09,321,17,1*58
$GPGSV,3,1,10,195,67,041,45,196,62,129,46,199,60,167,46,06,50,330,45,8*53
$GPGSV,3,2,10,194,43,170,45,14,32,178,43,09,30,113,45,11,25,279,44,8*5F
$GPGSV,3,3,10,04,21,079,27,03,14,038,23,8*6C
$GLGSV,3,1,09,67,48,073,42,68,42,152,43,82,37,028,41,83,31,333,33,1*7E
$GLGSV,3,2,09,80,30,236,34,73,23,297,43,66,11,031,28,79,06,189,,1*75
$GLGSV,3,3,09,69,04,186,,1*45
$GAGSV,3,1,09,24,54,251,39,12,49,008,37,10,49,327,41,11,33,294,38,7*7A
$GAGSV,3,2,09,31,32,183,41,19,29,092,33,04,23,157,37,25,23,311,37,7*7C
$GAGSV,3,3,09,33,17,059,29,7*4B
$GAGSV,3,1,09,24,54,251,38,10,49,327,44,12,49,008,41,11,33,294,38,1*79
$GAGSV,3,2,09,31,32,183,40,19,29,092,39,04,23,157,40,25,23,311,36,1*70
$GAGSV,3,3,09,33,17,059,29,1*4D
$GBGSV,4,1,14,40,84,099,40,07,83,263,39,10,72,298,39,14,61,096,41,1*7E
$GBGSV,4,2,14,08,59,262,38,33,58,155,42,43,54,045,44,13,49,252,26,1*7F
$GBGSV,4,3,14,42,43,060,44,11,35,073,40,28,34,319,45,23,22,225,22,1*76
$GBGSV,4,4,14,37,18,279,32,41,16,197,,1*7E
$GBGSV,2,1,07,40,84,099,45,33,58,155,45,43,54,045,43,42,43,060,46,4*76
$GBGSV,2,2,07,28,34,319,42,37,18,279,34,41,16,197,19,4*47
$GNGGA,033232.000,2500.8164660,N,12132.4426700,E,4,65,0.42,17.681,M,15.25,M,2,3335*43
$GNRMC,033232.000,A,2500.8164660,N,12132.4426700,E,0.00,227.48,270623,,,R,V*1F
$GPHDT,183.170,T*39
$GNGGA,033232.200,2500.8164674,N,12132.4426714,E,4,65,0.42,17.677,M,15.25,M,2,3335*48
$GNRMC,033232.200,A,2500.8164674,N,12132.4426714,E,0.00,227.48,270623,,,R,V*1D
$GPHDT,183.309,T*35
$GNGGA,033232.400,2500.8164713,N,12132.4426706,E,4,65,0.42,17.689,M,15.25,M,2,3335*4C
$GNRMC,033232.400,A,2500.8164713,N,12132.4426706,E,0.00,227.48,270623,,,R,V*18
$GPHDT,183.493,T*31
$GNGGA,033232.600,2500.8164694,N,12132.4426701,E,4,65,0.42,17.681,M,15.25,M,2,3335*4F
$GNRMC,033232.600,A,2500.8164694,N,12132.4426701,E,0.00,227.48,270623,,,R,V*13
$GPHDT,183.420,T*39
$GNGGA,033232.800,2500.8164686,N,12132.4426706,E,4,65,0.42,17.694,M,15.25,M,2,3335*41
$GNRMC,033232.800,A,2500.8164686,N,12132.4426706,E,0.00,227.48,270623,,,R,V*19
$GPHDT,183.494,T*36
$GNGSA,A,3,195,17,196,19,199,06,194,14,09,11,04,03,0.81,0.42,0.69,1*0C
$GNGSA,A,3,67,68,82,83,80,73,66,,,,,,0.81,0.42,0.69,2*00
$GNGSA,A,3,24,10,12,11,31,19,04,25,33,,,,0.81,0.42,0.69,3*0E
$GNGSA,A,3,40,07,10,14,08,33,43,13,42,11,28,37,0.81,0.42,0.69,4*06
$GNGSA,A,3,41,,,,,,,,,,,,0.81,0.42,0.69,4*01
$GPGSV,4,1,15,195,67,041,39,17,64,060,40,196,62,129,39,19,62,007,40,1*65
$GPGSV,4,2,15,199,60,167,33,06,50,330,44,194,43,170,40,41,38,242,38,1*6A
$GPGSV,4,3,15,14,32,178,42,09,30,113,42,11,25,279,42,20,24,226,17,1*6D
$GPGSV,4,4,15,04,21,079,33,03,14,038,,12,09,321,,1*5E
$GPGSV,3,1,10,195,67,041,45,196,62,129,46,199,60,167,46,06,50,330,45,8*53
$GPGSV,3,2,10,194,43,170,45,14,32,178,43,09,30,113,46,11,25,279,44,8*5C
$GPGSV,3,3,10,04,21,079,28,03,14,038,23,8*63
$GLGSV,2,1,08,67,48,073,42,68,42,152,43,82,37,029,41,83,31,333,33,1*7F
$GLGSV,2,2,08,80,29,236,35,73,23,297,43,66,11,031,28,79,05,189,,1*7F
$GAGSV,3,1,09,24,54,251,39,10,49,327,41,12,49,008,37,11,33,294,38,7*7A
$GAGSV,3,2,09,31,32,183,41,19,29,092,33,04,23,157,37,25,23,311,37,7*7C
$GAGSV,3,3,09,33,17,059,29,7*4B
$GAGSV,3,1,09,24,54,251,38,10,49,327,44,12,49,008,41,11,33,294,38,1*79
$GAGSV,3,2,09,31,32,183,41,19,29,092,39,04,23,157,40,25,23,311,36,1*71
$GAGSV,3,3,09,33,17,059,29,1*4D
$GBGSV,4,1,14,40,84,099,40,07,83,263,39,10,72,298,39,14,61,096,42,1*7D
$GBGSV,4,2,14,08,59,262,38,33,58,155,42,43,54,045,44,13,49,252,26,1*7F
$GBGSV,4,3,14,42,43,060,44,11,35,073,40,28,34,319,45,23,22,225,22,1*76
$GBGSV,4,4,14,37,18,279,32,41,16,197,,1*7E
$GBGSV,2,1,07,40,84,099,45,33,58,155,45,43,54,045,43,42,43,060,46,4*76
$GBGSV,2,2,07,28,34,319,42,37,18,279,34,41,16,197,19,4*47
$GNGGA,033233.000,2500.8164688,N,12132.4426701,E,4,65,0.42,17.703,M,15.25,M,3,3335*4F
$GNRMC,033233.000,A,2500.8164688,N,12132.4426701,E,0.00,227.48,270623,,,R,V*19
$GPHDT,183.363,T*39
$GNGGA,033233.200,2500.8164704,N,12132.4426736,E,4,65,0.42,17.687,M,15.25,M,3,3335*41
$GNRMC,033233.200,A,2500.8164704,N,12132.4426736,E,0.00,227.48,270623,,,R,V*1A
$GPHDT,183.534,T*3D
$GNGGA,033233.400,2500.8164715,N,12132.4426733,E,4,66,0.41,17.688,M,15.25,M,3,3335*4D
$GNRMC,033233.400,A,2500.8164715,N,12132.4426733,E,0.00,227.48,270623,,,R,V*19
$GPHDT,183.512,T*39
$GNGGA,033233.600,2500.8164706,N,12132.4426725,E,4,66,0.41,17.682,M,15.25,M,3,3335*40
$GNRMC,033233.600,A,2500.8164706,N,12132.4426725,E,0.00,227.48,270623,,,R,V*1E
$GPHDT,183.471,T*3D
$GNGGA,033233.800,2500.8164734,N,12132.4426727,E,4,66,0.41,17.688,M,15.25,M,3,3335*47
$GNRMC,033233.800,A,2500.8164734,N,12132.4426727,E,0.00,227.48,270623,,,R,V*13
$GPHDT,183.696,T*36
$GNGSA,A,3,195,17,196,19,199,06,194,14,09,11,04,03,0.79,0.41,0.68,1*09
$GNGSA,A,3,67,68,82,83,80,73,66,,,,,,0.79,0.41,0.68,2*05
$GNGSA,A,3,24,10,12,11,31,19,04,25,33,,,,0.79,0.41,0.68,3*0B
$GNGSA,A,3,40,07,10,14,08,33,43,13,42,11,28,23,0.79,0.41,0.68,4*06
$GNGSA,A,3,37,41,,,,,,,,,,,0.79,0.41,0.68,4*00
$GPGSV,4,1,15,195,67,041,39,17,64,060,41,196,62,129,39,19,62,007,40,1*64
$GPGSV,4,2,15,199,60,167,33,06,50,330,44,194,43,170,40,41,38,242,38,1*6A
$GPGSV,4,3,15,14,32,178,42,09,30,113,41,11,25,279,42,20,24,226,18,1*61
$GPGSV,4,4,15,04,21,079,32,03,14,038,,12,09,321,,1*5F
$GPGSV,3,1,10,195,67,041,45,196,62,129,46,199,60,167,46,06,50,330,45,8*53
$GPGSV,3,2,10,194,43,170,45,14,32,178,43,09,30,113,46,11,25,279,44,8*5C
$GPGSV,3,3,10,04,21,079,27,03,14,038,23,8*6C
$GLGSV,2,1,08,67,48,073,42,68,42,152,43,82,37,029,40,83,31,333,33,1*7E
$GLGSV,2,2,08,80,29,236,35,73,23,297,43,66,11,031,28,79,05,189,,1*7F
$GAGSV,3,1,09,24,54,251,39,10,49,327,42,12,49,008,37,11,33,294,38,7*79
$GAGSV,3,2,09,31,32,183,40,19,29,092,32,04,23,157,37,25,23,311,37,7*7C
$GAGSV,3,3,09,33,17,059,28,7*4A
$GAGSV,3,1,09,24,54,251,38,10,49,327,44,12,49,008,41,11,33,294,38,1*79
$GAGSV,3,2,09,31,32,183,41,19,29,092,38,04,23,157,40,25,23,311,36,1*70
$GAGSV,3,3,09,33,17,059,29,1*4D
$GBGSV,5,1,19,40,84,099,40,07,83,263,39,10,72,298,39,14,61,096,42,1*71
$GBGSV,5,2,19,08,59,262,38,33,58,155,43,43,54,045,44,13,49,252,26,1*72
$GBGSV,5,3,19,42,43,060,44,11,35,073,40,28,34,319,45,23,22,225,23,1*7B
$GBGSV,5,4,19,34,20,092,,37,18,279,32,41,16,197,,25,05,181,,1*76
$GBGSV,5,5,19,39,02,180,,06,01,190,,21,01,034,,1*45
$GBGSV,2,1,07,40,84,099,45,33,58,155,45,43,54,045,43,42,43,060,46,4*76
$GBGSV,2,2,07,28,34,319,42,37,18,279,34,41,16,197,19,4*47
$GNGGA,033234.000,2500.8164706,N,12132.4426715,E,4,66,0.41,17.692,M,15.25,M,3,3335*43
$GNRMC,033234.000,A,2500.8164706,N,12132.4426715,E,0.00,227.48,270623,,,R,V*1C
$GPHDT,183.432,T*3A
$GNGGA,033234.200,2500.8164701,N,12132.4426718,E,4,66,0.41,17.686,M,15.25,M,3,3335*4E
$GNRMC,033234.200,A,2500.8164701,N,12132.4426718,E,0.00,227.48,270623,,,R,V*14
$GPHDT,183.617,T*3F
$GNGGA,033234.400,2500.8164597,N,12132.4426767,E,4,66,0.41,17.644,M,15.25,M,1,3335*41
$GNRMC,033234.400,A,2500.8164597,N,12132.4426767,E,0.00,227.48,270623,,,R,V*17
$GPHDT,183.477,T*3B
$GNGGA,033234.600,2500.8164598,N,12132.4426747,E,4,66,0.41,17.643,M,15.25,M,0,3335*48
$GNRMC,033234.600,A,2500.8164598,N,12132.4426747,E,0.00,227.48,270623,,,R,V*18
$GPHDT,183.761,T*3F
$GNGGA,033234.800,2500.8164657,N,12132.4426709,E,4,66,0.41,17.668,M,15.25,M,0,3335*45
$GNRMC,033234.800,A,2500.8164657,N,12132.4426709,E,0.00,227.48,270623,,,R,V*1C
$GPHDT,183.544,T*3A
$GNGSA,A,3,195,17,196,19,199,06,194,14,09,11,04,03,0.79,0.41,0.68,1*09
$GNGSA,A,3,67,68,82,83,80,73,66,,,,,,0.79,0.41,0.68,2*05
$GNGSA,A,3,24,12,10,11,31,19,04,25,33,,,,0.79,0.41,0.68,3*0B
$GNGSA,A,3,40,07,10,14,08,33,43,13,42,11,28,23,0.79,0.41,0.68,4*06
$GNGSA,A,3,37,41,,,,,,,,,,,0.79,0.41,0.68,4*00
$GPGSV,4,1,15,195,67,041,39,17,64,060,42,196,62,129,39,19,62,007,40,1*67
$GPGSV,4,2,15,199,60,167,33,06,50,330,44,194,43,170,40,41,38,242,38,1*6A
$GPGSV,4,3,15,14,32,178,42,09,30,113,41,11,25,279,42,20,24,226,18,1*61
$GPGSV,4,4,15,04,21,079,32,03,14,038,,12,09,321,,1*5F
$GPGSV,3,1,10,195,67,041,45,196,62,129,46,199,60,167,46,06,50,330,45,8*53
$GPGSV,3,2,10,194,43,170,45,14,32,178,43,09,30,113,46,11,25,279,44,8*5C
$GPGSV,3,3,10,04,21,079,27,03,14,038,21,8*6E
$GLGSV,3,1,09,67,48,073,43,68,42,152,43,82,37,029,40,83,31,333,33,1*7F
$GLGSV,3,2,09,80,29,236,36,73,23,297,43,66,11,031,28,79,05,189,,1*7C
$GLGSV,3,3,09,69,04,186,,1*45
$GAGSV,3,1,09,24,54,251,39,12,49,008,37,10,49,327,42,11,33,294,38,7*79
$GAGSV,3,2,09,31,32,183,40,19,29,092,28,04,23,157,37,25,23,311,37,7*77
$GAGSV,3,3,09,33,17,059,29,7*4B
$GAGSV,3,1,09,24,54,251,38,10,49,327,44,12,49,008,41,11,33,294,38,1*79
$GAGSV,3,2,09,31,32,183,41,19,29,092,38,04,23,157,40,25,23,311,36,1*70
$GAGSV,3,3,09,33,17,059,29,1*4D
$GBGSV,4,1,14,40,84,099,40,07,83,263,39,10,72,298,39,14,61,096,42,1*7D
$GBGSV,4,2,14,08,59,262,38,33,58,155,44,43,54,045,44,13,49,252,28,1*77
$GBGSV,4,3,14,42,43,060,45,11,35,073,41,28,34,319,45,23,22,225,24,1*70
$GBGSV,4,4,14,37,18,279,32,41,16,197,,1*7E
$GBGSV,2,1,07,40,84,099,45,33,58,155,44,43,54,045,43,42,43,060,46,4*77
$GBGSV,2,2,07,28,34,319,42,37,18,279,34,41,16,197,19,4*47
$GNGGA,033235.000,2500.8164694,N,12132.4426686,E,4,66,0.41,17.674,M,15.25,M,1,3335*49
$GNRMC,033235.000,A,2500.8164694,N,12132.4426686,E,0.00,227.48,270623,,,R,V*1C
$GPHDT,183.514,T*3F
$GNGGA,033235.200,2500.8164662,N,12132.4426706,E,4,66,0.41,17.660,M,15.25,M,1,3335*4E
$GNRMC,033235.200,A,2500.8164662,N,12132.4426706,E,0.00,227.48,270623,,,R,V*1E
$GPHDT,183.420,T*39
$GNGGA,033235.400,2500.8164717,N,12132.4426725,E,4,66,0.41,17.678,M,15.25,M,1,3335*43
$GNRMC,033235.400,A,2500.8164717,N,12132.4426725,E,0.00,227.48,270623,,,R,V*1A
$GPHDT,183.894,T*3A
$GNGGA,033235.600,2500.8164710,N,12132.4426710,E,4,67,0.41,17.680,M,15.25,M,1,3335*46
$GNRMC,033235.600,A,2500.8164710,N,12132.4426710,E,0.00,227.48,270623,,,R,V*19
$GPHDT,183.812,T*34
$GNGGA,033235.800,2500.8164704,N,12132.4426699,E,4,67,0.41,17.684,M,15.25,M,1,3335*49
$GNRMC,033235.800,A,2500.8164704,N,12132.4426699,E,0.00,227.48,270623,,,R,V*12
$GPHDT,183.470,T*3C
$GNGSA,A,3,195,17,196,19,199,06,194,14,09,11,04,03,0.79,0.41,0.68,1*09
$GNGSA,A,3,67,68,82,83,80,73,66,,,,,,0.79,0.41,0.68,2*05
$GNGSA,A,3,24,10,12,11,31,19,04,25,33,,,,0.79,0.41,0.68,3*0B
$GNGSA,A,3,40,07,10,14,08,33,43,13,42,11,28,23,0.79,0.41,0.68,4*06
$GNGSA,A,3,37,41,,,,,,,,,,,0.79,0.41,0.68,4*00
$GPGSV,4,1,15,195,67,041,39,17,64,060,42,196,62,129,39,19,62,007,40,1*67
$GPGSV,4,2,15,199,60,167,34,06,50,330,44,194,43,170,40,41,38,242,38,1*6D
$GPGSV,4,3,15,14,32,178,42,09,30,113,41,11,25,279,42,20,24,226,18,1*61
$GPGSV,4,4,15,04,21,079,32,03,14,038,20,12,09,321,,1*5D
$GPGSV,3,1,10,195,67,041,45,196,62,129,46,199,60,167,46,06,50,330,45,8*53
$GPGSV,3,2,10,194,43,170,45,14,32,178,43,09,30,113,46,11,25,279,44,8*5C
$GPGSV,3,3,10,04,21,079,29,03,14,038,22,8*63
$GLGSV,2,1,08,67,48,073,43,68,42,152,43,82,37,029,40,83,31,333,33,1*7F
$GLGSV,2,2,08,80,29,236,36,73,23,297,43,66,11,031,27,79,05,189,16,1*74
$GAGSV,3,1,09,24,54,251,39,10,49,327,42,12,49,008,37,11,33,294,38,7*79
$GAGSV,3,2,09,31,32,183,40,19,29,092,29,04,23,157,37,25,23,311,37,7*76
$GAGSV,3,3,09,33,17,059,29,7*4B
$GAGSV,3,1,09,24,54,251,38,10,49,327,44,12,49,008,41,11,33,294,38,1*79
$GAGSV,3,2,09,31,32,183,41,19,29,092,38,04,23,157,40,25,23,311,37,1*71
$GAGSV,3,3,09,33,17,059,29,1*4D
$GBGSV,4,1,15,40,84,099,40,07,83,263,39,10,72,298,39,14,61,096,41,1*7F
$GBGSV,4,2,15,08,59,263,38,33,58,155,44,43,54,045,44,13,49,252,27,1*78
$GBGSV,4,3,15,42,43,060,45,11,35,073,41,28,34,319,45,23,22,225,24,1*71
$GBGSV,4,4,15,37,18,279,32,41,16,197,,25,05,181,,1*45
$GBGSV,2,1,07,40,84,099,45,33,58,155,44,43,54,045,43,42,43,060,46,4*77
$GBGSV,2,2,07,28,34,319,42,37,18,279,34,41,16,197,20,4*4D
$GNGGA,033236.000,2500.8164696,N,12132.4426700,E,4,67,0.41,17.678,M,15.25,M,2,3335*49
$GNRMC,033236.000,A,2500.8164696,N,12132.4426700,E,0.00,227.48,270623,,,R,V*12
$GPHDT,183.544,T*3A
$GNGGA,033236.200,2500.8164681,N,12132.4426722,E,4,67,0.41,17.678,M,15.25,M,2,3335*4D
$GNRMC,033236.200,A,2500.8164681,N,12132.4426722,E,0.00,227.48,270623,,,R,V*16
$GPHDT,183.763,T*3D
$GNGGA,033236.400,2500.8164698,N,12132.4426701,E,4,67,0.41,17.685,M,15.25,M,2,3335*40
$GNRMC,033236.400,A,2500.8164698,N,12132.4426701,E,0.00,227.48,270623,,,R,V*19
$GPHDT,183.512,T*39
$GNGGA,033236.600,2500.8164681,N,12132.4426709,E,4,67,0.41,17.684,M,15.25,M,2,3335*43
$GNRMC,033236.600,A,2500.8164681,N,12132.4426709,E,0.00,227.48,270623,,,R,V*1B
$GPHDT,183.740,T*3C
$GNGGA,033236.800,2500.8164692,N,12132.4426720,E,4,67,0.41,17.677,M,15.25,M,2,3335*48
$GNRMC,033236.800,A,2500.8164692,N,12132.4426720,E,0.00,227.48,270623,,,R,V*1C
$GPHDT,183.598,T*3B
$GNGSA,A,3,195,17,196,19,199,06,194,14,09,11,04,03,0.79,0.41,0.68,1*09
$GNGSA,A,3,67,68,82,83,80,73,66,,,,,,0.79,0.41,0.68,2*05
$GNGSA,A,3,24,10,12,11,31,19,04,25,33,,,,0.79,0.41,0.68,3*0B
$GNGSA,A,3,40,07,10,14,08,33,43,13,42,11,28,23,0.79,0.41,0.68,4*06
$GNGSA,A,3,37,41,,,,,,,,,,,0.79,0.41,0.68,4*00
$GPGSV,4,1,15,195,67,041,39,17,64,060,42,196,62,129,39,19,62,007,40,1*67
$GPGSV,4,2,15,199,60,167,34,06,50,330,44,194,43,170,40,41,38,242,38,1*6D
$GPGSV,4,3,15,14,32,178,42,09,30,113,41,11,25,279,42,20,24,226,19,1*60
$GPGSV,4,4,15,04,21,079,32,03,14,038,21,12,09,321,,1*5C
$GPGSV,3,1,10,195,67,041,45,196,62,129,46,199,60,167,46,06,50,330,45,8*53
$GPGSV,3,2,10,194,43,170,45,14,32,178,43,09,30,113,46,11,25,279,44,8*5C
$GPGSV,3,3,10,04,21,079,29,03,14,038,22,8*63
$GLGSV,2,1,08,67,48,073,43,68,42,152,43,82,37,029,40,83,31,333,33,1*7F
$GLGSV,2,2,08,80,29,236,36,73,23,297,43,66,11,031,26,79,05,189,15,1*76
$GAGSV,3,1,09,24,54,251,39,10,49,327,42,12,49,008,37,11,33,294,38,7*79
$GAGSV,3,2,09,31,32,183,40,19,29,092,29,04,23,157,37,25,23,311,37,7*76
$GAGSV,3,3,09,33,17,059,29,7*4B
$GAGSV,3,1,09,24,54,251,38,10,49,327,44,12,49,008,41,11,33,294,38,1*79
$GAGSV,3,2,09,31,32,183,41,19,29,092,38,04,23,157,40,25,23,311,37,1*71
$GAGSV,3,3,09,33,17,059,29,1*4D
$GBGSV,4,1,15,40,84,099,40,07,83,263,39,10,72,298,39,14,61,096,41,1*7F
$GBGSV,4,2,15,08,59,263,38,33,58,155,44,43,54,045,44,13,49,252,27,1*78
$GBGSV,4,3,15,42,43,060,45,11,34,074,41,28,34,319,45,23,22,225,24,1*77
$GBGSV,4,4,15,37,18,279,32,41,16,197,,06,01,190,,1*40
$GBGSV,2,1,07,40,84,099,45,33,58,155,44,43,54,045,43,42,43,060,46,4*77
$GBGSV,2,2,07,28,34,319,42,37,18,279,34,41,16,197,20,4*4D
$GNGGA,033237.000,2500.8164713,N,12132.4426705,E,4,67,0.41,17.688,M,15.25,M,3,3335*4F
$GNRMC,033237.000,A,2500.8164713,N,12132.4426705,E,0.00,227.48,270623,,,R,V*1A
$GPHDT,183.487,T*34
$GNGGA,033237.200,2500.8164711,N,12132.4426721,E,4,67,0.41,17.680,M,15.25,M,3,3335*41
$GNRMC,033237.200,A,2500.8164711,N,12132.4426721,E,0.00,227.48,270623,,,R,V*1C
$GPHDT,183.625,T*3E
$GNGGA,033237.400,2500.8164710,N,12132.4426722,E,4,67,0.41,17.689,M,15.25,M,3,3335*4C
$GNRMC,033237.400,A,2500.8164710,N,12132.4426722,E,0.00,227.48,270623,,,R,V*18
$GPHDT,183.838,T*3C
$GNGGA,033237.600,2500.8164723,N,12132.4426698,E,4,67,0.41,17.693,M,15.25,M,3,3335*45
$GNRMC,033237.600,A,2500.8164723,N,12132.4426698,E,0.00,227.48,270623,,,R,V*1A
$GPHDT,183.631,T*3B
$GNGGA,033237.800,2500.8164730,N,12132.4426720,E,4,67,0.41,17.690,M,15.25,M,3,3335*48
$GNRMC,033237.800,A,2500.8164730,N,12132.4426720,E,0.00,227.48,270623,,,R,V*14
$GPHDT,183.753,T*3E
$GNGSA,A,3,195,17,196,19,199,06,194,14,09,11,04,03,0.79,0.41,0.68,1*09
$GNGSA,A,3,67,68,82,83,80,73,66,,,,,,0.79,0.41,0.68,2*05
$GNGSA,A,3,24,10,12,11,31,19,04,25,33,,,,0.79,0.41,0.68,3*0B
$GNGSA,A,3,40,07,10,14,08,33,43,13,42,11,28,23,0.79,0.41,0.68,4*06
$GNGSA,A,3,37,41,,,,,,,,,,,0.79,0.41,0.68,4*00
$GPGSV,4,1,15,195,67,041,39,17,64,060,42,196,62,129,39,19,62,007,40,1*67
$GPGSV,4,2,15,199,60,167,34,06,50,330,44,194,43,170,40,41,38,242,38,1*6D
$GPGSV,4,3,15,14,32,178,42,09,30,113,41,11,25,279,42,20,24,226,20,1*6A
$GPGSV,4,4,15,04,21,079,33,03,14,038,22,12,09,321,,1*5E
$GPGSV,3,1,10,195,67,041,45,196,62,129,46,199,60,167,46,06,50,330,45,8*53
$GPGSV,3,2,10,194,43,170,45,14,32,178,43,09,30,113,46,11,25,279,44,8*5C
$GPGSV,3,3,10,04,21,079,29,03,14,038,23,8*62
$GLGSV,2,1,08,67,48,073,43,68,42,152,43,82,37,029,40,83,31,333,33,1*7F
$GLGSV,2,2,08,80,29,236,36,73,23,297,43,66,11,031,26,79,05,189,17,1*74
$GAGSV,3,1,09,24,54,251,39,10,49,327,42,12,49,008,37,11,33,294,38,7*79
$GAGSV,3,2,09,31,32,183,40,19,29,092,30,04,23,157,37,25,23,311,37,7*7E
$GAGSV,3,3,09,33,17,059,29,7*4B
$GAGSV,3,1,09,24,54,251,38,10,49,327,43,12,49,008,41,11,33,294,38,1*7E
$GAGSV,3,2,09,31,32,183,41,19,29,092,38,04,23,157,40,25,23,311,37,1*71
$GAGSV,3,3,09,33,17,059,29,1*4D
$GBGSV,4,1,15,40,84,099,40,07,83,263,39,10,72,298,39,14,61,096,41,1*7F
$GBGSV,4,2,15,08,59,263,38,33,58,155,44,43,54,045,44,13,49,252,26,1*79
$GBGSV,4,3,15,42,43,060,45,11,34,074,41,28,34,319,45,23,22,225,24,1*77
$GBGSV,4,4,15,37,18,279,32,41,16,197,,21,01,034,,1*4A
$GBGSV,2,1,07,40,84,099,45,33,58,155,44,43,54,045,43,42,43,060,46,4*77
$GBGSV,2,2,07,28,34,319,42,37,18,279,34,41,16,197,20,4*4D
$GNGGA,033238.000,2500.8164724,N,12132.4426706,E,4,67,0.41,17.689,M,15.25,M,4,3335*41
$GNRMC,033238.000,A,2500.8164724,N,12132.4426706,E,0.00,227.48,270623,,,R,V*12
$GPHDT,183.633,T*39
$GNGGA,033238.200,2500.8164725,N,12132.4426710,E,4,66,0.41,17.683,M,15.25,M,4,3335*4E
$GNRMC,033238.200,A,2500.8164725,N,12132.4426710,E,0.00,227.48,270623,,,R,V*16
$GPHDT,183.503,T*39
$GNGGA,033238.400,2500.8164708,N,12132.4426739,E,4,66,0.41,17.689,M,15.25,M,4,3335*46
$GNRMC,033238.400,A,2500.8164708,N,12132.4426739,E,0.00,227.48,270623,,,R,V*14
$GPHDT,183.664,T*3B
$GNGGA,033238.600,2500.8164723,N,12132.4426718,E,4,66,0.41,17.696,M,15.25,M,4,3335*40
$GNRMC,033238.600,A,2500.8164723,N,12132.4426718,E,0.00,227.48,270623,,,R,V*1C
$GPHDT,183.698,T*38
$GNGGA,033238.800,2500.8164730,N,12132.4426710,E,4,66,0.41,17.698,M,15.25,M,4,3335*4A
$GNRMC,033238.800,A,2500.8164730,N,12132.4426710,E,0.00,227.48,270623,,,R,V*18
$GPHDT,183.459,T*37
$GNGSA,A,3,195,17,196,19,199,06,194,14,09,11,04,03,0.79,0.41,0.68,1*09
$GNGSA,A,3,67,68,82,83,80,73,66,,,,,,0.79,0.41,0.68,2*05
$GNGSA,A,3,24,12,10,11,31,19,04,25,33,,,,0.79,0.41,0.68,3*0B
$GNGSA,A,3,40,07,10,14,08,33,43,13,42,11,28,23,0.79,0.41,0.68,4*06
$GNGSA,A,3,37,41,,,,,,,,,,,0.79,0.41,0.68,4*00
$GPGSV,4,1,15,195,67,041,39,17,64,060,42,196,62,129,39,19,62,007,40,1*67
$GPGSV,4,2,15,199,60,167,34,06,50,330,44,194,43,170,40,41,38,242,38,1*6D
$GPGSV,4,3,15,14,32,178,42,09,30,113,41,11,25,279,42,20,24,226,20,1*6A
$GPGSV,4,4,15,04,21,079,33,03,14,038,,12,09,321,,1*5E
$GPGSV,3,1,10,195,67,041,45,196,62,129,46,199,60,167,46,06,50,330,45,8*53
$GPGSV,3,2,10,194,43,170,45,14,32,178,43,09,30,113,46,11,25,279,44,8*5C
$GPGSV,3,3,10,04,21,079,29,03,14,038,23,8*62
$GLGSV,3,1,09,67,48,073,43,68,42,152,43,82,37,029,40,83,31,333,33,1*7F
$GLGSV,3,2,09,80,29,236,35,73,23,297,43,66,11,031,25,79,05,189,17,1*74
$GLGSV,3,3,09,69,04,186,,1*45
$GAGSV,3,1,09,24,54,251,39,12,49,008,37,10,49,327,42,11,33,294,38,7*79
$GAGSV,3,2,09,31,32,183,40,19,29,092,30,04,23,157,37,25,23,311,37,7*7E
$GAGSV,3,3,09,33,17,059,29,7*4B
$GAGSV,3,1,09,24,54,251,38,10,49,327,43,12,49,008,41,11,33,294,38,1*7E
$GAGSV,3,2,09,31,32,183,41,19,29,092,38,04,23,157,40,25,23,311,37,1*71
$GAGSV,3,3,09,33,17,059,30,1*45
$GBGSV,5,1,17,40,84,099,40,07,83,263,39,10,72,298,39,14,61,096,41,1*7C
$GBGSV,5,2,17,08,59,263,38,33,58,155,44,43,54,045,44,13,49,252,26,1*7A
$GBGSV,5,3,17,42,43,060,45,11,34,074,41,28,34,319,45,23,22,225,24,1*74
$GBGSV,5,4,17,34,20,092,,37,18,279,32,41,16,197,,25,05,181,,1*78
$GBGSV,5,5,17,39,02,180,,1*41
$GBGSV,2,1,07,40,84,099,45,33,58,155,44,43,54,045,43,42,43,060,46,4*77
$GBGSV,2,2,07,28,34,319,42,37,18,279,34,41,16,197,21,4*4C
$GNGGA,033239.000,2500.8164739,N,12132.4426709,E,4,66,0.41,17.701,M,15.25,M,5,3335*42
$GNRMC,033239.000,A,2500.8164739,N,12132.4426709,E,0.00,227.48,270623,,,R,V*10
$GPHDT,183.585,T*37
$GNGGA,033239.200,2500.8164733,N,12132.4426715,E,4,67,0.41,17.705,M,15.25,M,5,3335*42
$GNRMC,033239.200,A,2500.8164733,N,12132.4426715,E,0.00,227.48,270623,,,R,V*15
$GPHDT,183.484,T*37
$GNGGA,033239.400,2500.8164745,N,12132.4426749,E,4,67,0.41,17.694,M,15.25,M,5,3335*45
$GNRMC,033239.400,A,2500.8164745,N,12132.4426749,E,0.00,227.48,270623,,,R,V*1B
