$FW : RTK35X,V1.1X0314AS,Lib20210517,1*54
$Tool : LOCOSYS , GNSS Firebird , v1.0.0.19*39
$---------------------------------------------------*2D
$GPHDT,47.045,T*07
$GNGGA,033018.800,2500.8164732,N,12132.4426731,E,4,66,0.42,17.669,M,15.25,M,0,3335*42
$GNRMC,033018.800,A,2500.8164732,N,12132.4426731,E,0.00,227.48,270623,,,R,V*19
$GPHDT,47.069,T*09
$GNGSA,A,3,195,17,196,19,199,06,194,14,09,11,03,04,0.82,0.42,0.70,1*07
$GNGSA,A,3,67,68,82,83,80,73,66,,,,,,0.82,0.42,0.70,2*0B
$GNGSA,A,3,24,12,10,31,11,19,04,25,33,,,,0.82,0.42,0.70,3*05
$GNGSA,A,3,40,07,10,14,08,33,43,13,42,11,28,37,0.82,0.42,0.70,4*0D
$GNGSA,A,3,41,,,,,,,,,,,,0.82,0.42,0.70,4*0A
$GPGSV,4,1,15,195,67,041,41,17,64,058,42,196,61,130,36,19,61,006,43,1*66
$GPGSV,4,2,15,199,60,167,35,06,50,328,44,194,44,170,45,41,38,242,41,1*69
$GPGSV,4,3,15,14,33,178,43,09,30,114,32,11,24,278,42,20,23,226,23,1*6D
$GPGSV,4,4,15,04,21,080,25,03,15,038,30,12,08,321,17,1*5A
$GPGSV,3,1,10,195,67,041,46,196,61,130,43,199,60,167,44,06,50,328,46,8*56
$GPGSV,3,2,10,194,44,170,46,14,33,178,46,09,30,114,28,11,24,278,47,8*50
$GPGSV,3,3,10,04,21,080,21,03,15,038,23,8*6D
$GLGSV,2,1,08,67,48,075,39,68,41,153,43,82,37,027,45,83,31,332,31,1*7E
$GLGSV,2,2,08,80,30,237,40,73,23,299,38,66,12,031,27,79,06,190,,1*71
$GAGSV,3,1,09,24,55,252,40,12,50,007,37,10,48,325,37,31,33,183,39,7*75
$GAGSV,3,2,09,11,33,293,35,19,29,093,29,04,23,157,40,25,22,312,35,7*74
$GAGSV,3,3,09,33,17,059,32,7*41
$GAGSV,3,1,09,24,55,252,44,12,50,007,43,10,48,325,46,11,33,293,41,1*7D
$GAGSV,3,2,09,31,33,183,44,19,29,093,29,04,23,157,39,25,22,312,36,1*79
$GAGSV,3,3,09,33,17,059,17,1*40
$GBGSV,4,1,14,40,83,095,42,07,83,267,39,10,72,300,38,14,61,098,41,1*7C
$GBGSV,4,2,14,08,59,261,39,33,57,156,42,43,54,044,43,13,49,251,41,1*75
$GBGSV,4,3,14,42,44,061,41,11,35,072,38,28,34,319,44,23,23,226,,1*78
$GBGSV,4,4,14,37,18,280,27,41,16,197,,1*7C
$GBGSV,2,1,07,40,83,095,45,33,57,156,43,43,54,044,43,42,44,061,42,4*74
$GBGSV,2,2,07,28,34,319,43,37,18,280,35,41,16,197,19,4*41
$GNGGA,033019.000,2500.8164716,N,12132.4426727,E,4,65,0.42,17.664,M,15.25,M,1,3335*45
$GNRMC,033019.000,A,2500.8164716,N,12132.4426727,E,0.00,227.48,270623,,,R,V*11
$GPHDT,46.661,T*06
$GNGGA,033019.200,2500.8164733,N,12132.4426735,E,4,65,0.42,17.666,M,15.25,M,1,3335*41
$GNRMC,033019.200,A,2500.8164733,N,12132.4426735,E,0.00,227.48,270623,,,R,V*17
$GPHDT,47.143,T*00
$GNGGA,033019.400,2500.8164767,N,12132.4426743,E,4,65,0.42,17.668,M,15.25,M,1,3335*49
$GNRMC,033019.400,A,2500.8164767,N,12132.4426743,E,0.00,227.48,270623,,,R,V*11
$GPHDT,46.788,T*00
$GNGGA,033019.600,2500.8164714,N,12132.4426720,E,4,66,0.42,17.667,M,15.25,M,1,3335*46
$GNRMC,033019.600,A,2500.8164714,N,12132.4426720,E,0.00,227.48,270623,,,R,V*12
$GPHDT,46.959,T*02
$GNGGA,033019.800,2500.8164762,N,12132.4426731,E,4,66,0.42,17.678,M,15.25,M,0,3335*46
$GNRMC,033019.800,A,2500.8164762,N,12132.4426731,E,0.00,227.48,270623,,,R,V*1D
$GPHDT,47.115,T*03
$GNGSA,A,3,195,17,196,19,199,06,194,14,09,11,04,03,0.82,0.42,0.70,1*07
$GNGSA,A,3,67,68,82,83,80,73,66,,,,,,0.82,0.42,0.70,2*0B
$GNGSA,A,3,24,12,10,31,11,19,04,25,33,,,,0.82,0.42,0.70,3*05
$GNGSA,A,3,40,07,10,14,08,33,43,13,42,11,28,37,0.82,0.42,0.70,4*0D
$GNGSA,A,3,41,,,,,,,,,,,,0.82,0.42,0.70,4*0A
$GPGSV,4,1,15,195,67,041,41,17,64,058,42,196,61,130,37,19,61,006,43,1*67
$GPGSV,4,2,15,199,60,167,35,06,50,328,44,194,44,170,45,41,38,242,41,1*69
$GPGSV,4,3,15,14,33,178,43,09,30,114,32,11,24,278,42,20,23,226,23,1*6D
$GPGSV,4,4,15,04,21,080,28,03,15,038,31,12,08,321,19,1*58
$GPGSV,3,1,10,195,67,041,46,196,61,130,43,199,60,167,45,06,50,328,47,8*56
$GPGSV,3,2,10,194,44,170,46,14,33,178,46,09,30,114,30,11,24,278,47,8*59
$GPGSV,3,3,10,04,21,080,20,03,15,038,25,8*6A
$GLGSV,3,1,09,67,48,075,38,68,41,153,43,82,37,027,45,83,31,332,31,1*7F
$GLGSV,3,2,09,80,30,237,40,73,23,299,38,66,12,031,28,79,06,190,,1*7E
$GLGSV,3,3,09,69,03,186,,1*42
$GAGSV,3,1,09,24,55,252,40,12,50,007,36,10,48,325,37,31,33,183,39,7*74
$GAGSV,3,2,09,11,33,293,35,19,29,093,29,04,23,157,40,25,22,312,35,7*74
$GAGSV,3,3,09,33,17,059,32,7*41
$GAGSV,3,1,09,24,55,252,45,12,50,007,43,10,48,325,46,11,33,293,41,1*7C
$GAGSV,3,2,09,31,33,183,44,19,29,093,29,04,23,157,40,25,22,312,36,1*77
$GAGSV,3,3,09,33,17,059,17,1*40
$GBGSV,4,1,15,40,83,095,42,07,83,267,39,10,72,300,39,14,61,098,41,1*7C
$GBGSV,4,2,15,08,59,261,39,33,57,156,42,43,54,044,43,13,49,251,41,1*74
$GBGSV,4,3,15,42,44,061,41,11,35,072,39,28,34,319,44,23,23,226,,1*78
$GBGSV,4,4,15,37,18,280,27,41,16,197,,06,01,190,,1*42
$GBGSV,2,1,07,40,83,095,45,33,57,156,44,43,54,044,43,42,44,061,42,4*73
$GBGSV,2,2,07,28,34,319,43,37,18,280,35,41,16,197,19,4*41
$GNGGA,033020.000,2500.8164767,N,12132.4426740,E,4,66,0.42,17.658,M,15.25,M,1,3335*44
$GNRMC,033020.000,A,2500.8164767,N,12132.4426740,E,0.00,227.48,270623,,,R,V*1C
$GPHDT,46.979,T*00
$GNGGA,033020.200,2500.8164764,N,12132.4426735,E,4,66,0.42,17.665,M,15.25,M,1,3335*49
$GNRMC,033020.200,A,2500.8164764,N,12132.4426735,E,0.00,227.48,270623,,,R,V*1F
$GPHDT,46.640,T*05
$GNGGA,033020.400,2500.8164788,N,12132.4426737,E,4,65,0.42,17.658,M,15.25,M,1,3335*42
$GNRMC,033020.400,A,2500.8164788,N,12132.4426737,E,0.00,227.48,270623,,,R,V*19
$GPHDT,46.763,T*05
$GNGGA,033020.600,2500.8164788,N,12132.4426778,E,4,65,0.42,17.658,M,15.25,M,1,3335*4B
$GNRMC,033020.600,A,2500.8164788,N,12132.4426778,E,0.00,227.48,270623,,,R,V*10
$GPHDT,46.372,T*01
$GNGGA,033020.800,2500.8164731,N,12132.4426795,E,4,65,0.42,17.636,M,15.25,M,0,3335*4D
$GNRMC,033020.800,A,2500.8164731,N,12132.4426795,E,0.00,227.48,270623,,,R,V*1F
$GPHDT,47.001,T*07
$GNGSA,A,3,195,17,196,19,199,06,194,14,09,11,04,03,0.82,0.42,0.70,1*07
$GNGSA,A,3,67,68,82,83,80,73,66,,,,,,0.82,0.42,0.70,2*0B
$GNGSA,A,3,24,12,10,31,11,19,04,25,33,,,,0.82,0.42,0.70,3*05
$GNGSA,A,3,40,07,10,14,08,33,43,13,42,11,28,37,0.82,0.42,0.70,4*0D
$GNGSA,A,3,41,,,,,,,,,,,,0.82,0.42,0.70,4*0A
$GPGSV,4,1,15,195,67,041,41,17,64,058,43,196,61,130,37,19,61,006,43,1*66
$GPGSV,4,2,15,199,60,167,35,06,50,328,44,194,44,170,45,41,38,242,41,1*69
$GPGSV,4,3,15,14,33,178,43,09,30,114,32,11,24,278,42,20,23,226,23,1*6D
$GPGSV,4,4,15,04,21,080,30,03,15,038,31,12,08,321,20,1*5B
$GPGSV,3,1,10,195,67,041,46,196,61,130,43,199,60,167,45,06,50,328,47,8*56
$GPGSV,3,2,10,194,44,170,46,14,33,178,46,09,30,114,30,11,24,278,47,8*59
$GPGSV,3,3,10,04,21,080,22,03,15,038,25,8*68
$GLGSV,2,1,08,67,48,074,38,68,41,153,44,82,37,027,45,83,31,332,31,1*79
$GLGSV,2,2,08,80,30,237,40,73,23,299,36,66,11,031,27,79,06,190,,1*7C
$GAGSV,3,1,09,24,55,252,40,12,50,007,36,10,48,325,37,31,33,183,39,7*74
$GAGSV,3,2,09,11,33,293,35,19,29,093,30,04,23,157,40,25,22,312,35,7*7C
$GAGSV,3,3,09,33,17,059,33,7*40
$GAGSV,3,1,09,24,55,252,45,12,50,007,43,10,48,325,46,11,33,293,41,1*7C
$GAGSV,3,2,09,31,33,183,44,19,29,093,29,04,23,157,40,25,22,312,36,1*77
$GAGSV,3,3,09,33,17,059,17,1*40
$GBGSV,4,1,16,40,83,095,42,07,83,267,39,10,72,300,39,14,61,098,41,1*7F
$GBGSV,4,2,16,08,59,261,39,33,57,156,43,43,54,044,43,13,49,251,41,1*76
$GBGSV,4,3,16,42,44,061,42,11,35,072,40,28,34,319,44,23,23,226,,1*76
$GBGSV,4,4,16,37,18,280,26,41,16,197,,06,01,190,,21,01,035,,1*74
$GBGSV,2,1,07,40,83,095,45,33,57,156,44,43,54,044,43,42,44,061,42,4*73
$GBGSV,2,2,07,28,34,319,43,37,18,280,34,41,16,197,19,4*40
$GNGGA,033021.000,2500.8164701,N,12132.4426815,E,4,66,0.42,17.634,M,15.25,M,1,3335*40
$GNRMC,033021.000,A,2500.8164701,N,12132.4426815,E,0.00,227.48,270623,,,R,V*12
$GPHDT,46.854,T*0E
$GNGGA,033021.200,2500.8164744,N,12132.4426803,E,4,66,0.42,17.636,M,15.25,M,1,3335*46
$GNRMC,033021.200,A,2500.8164744,N,12132.4426803,E,0.00,227.48,270623,,,R,V*16
$GPHDT,46.014,T*02
$GNGGA,033021.400,2500.8164680,N,12132.4426811,E,4,66,0.42,17.628,M,15.25,M,1,3335*45
$GNRMC,033021.400,A,2500.8164680,N,12132.4426811,E,0.00,227.48,270623,,,R,V*1A
$GPHDT,47.071,T*00
$GNGGA,033021.600,2500.8164702,N,12132.4426818,E,4,66,0.42,17.630,M,15.25,M,1,3335*4C
$GNRMC,033021.600,A,2500.8164702,N,12132.4426818,E,0.00,227.48,270623,,,R,V*1A
$GPHDT,46.794,T*0D
$GNGGA,033021.800,2500.8164690,N,12132.4426816,E,4,66,0.42,17.622,M,15.25,M,1,3335*45
$GNRMC,033021.800,A,2500.8164690,N,12132.4426816,E,0.00,227.48,270623,,,R,V*10
$GPHDT,46.562,T*06
$GNGSA,A,3,195,17,196,19,199,06,194,14,09,11,04,03,0.82,0.42,0.70,1*07
$GNGSA,A,3,67,68,82,83,80,73,66,,,,,,0.82,0.42,0.70,2*0B
$GNGSA,A,3,24,12,10,31,11,19,04,25,33,,,,0.82,0.42,0.70,3*05
$GNGSA,A,3,40,07,10,14,08,33,43,13,42,11,28,37,0.82,0.42,0.70,4*0D
$GNGSA,A,3,41,,,,,,,,,,,,0.82,0.42,0.70,4*0A
$GPGSV,4,1,15,195,67,041,41,17,64,058,43,196,61,130,37,19,61,006,43,1*66
$GPGSV,4,2,15,199,60,167,35,06,50,328,44,194,44,170,45,41,38,242,41,1*69
$GPGSV,4,3,15,14,33,178,43,09,30,114,29,11,24,278,42,20,23,226,22,1*66
$GPGSV,4,4,15,04,21,080,32,03,15,038,31,12,08,321,19,1*53
$GPGSV,3,1,10,195,67,041,46,196,61,130,43,199,60,167,45,06,50,328,47,8*56
$GPGSV,3,2,10,194,44,170,46,14,33,178,47,09,30,114,30,11,24,278,47,8*58
$GPGSV,3,3,10,04,21,080,23,03,15,038,25,8*69
$GLGSV,2,1,08,67,48,074,37,68,41,153,44,82,37,027,45,83,31,332,31,1*76
$GLGSV,2,2,08,80,30,237,40,73,23,298,37,66,11,031,27,79,06,190,,1*7C
$GAGSV,3,1,09,24,55,252,40,12,50,007,36,10,48,325,37,31,33,183,39,7*74
$GAGSV,3,2,09,11,33,293,35,19,29,093,30,04,23,157,40,25,22,312,35,7*7C
$GAGSV,3,3,09,33,17,059,33,7*40
$GAGSV,3,1,09,24,55,252,45,12,50,007,43,10,48,325,46,11,33,293,41,1*7C
$GAGSV,3,2,09,31,33,183,44,19,29,093,30,04,23,157,40,25,22,312,36,1*7F
$GAGSV,3,3,09,33,17,059,17,1*40
$GBGSV,4,1,14,40,83,095,42,07,83,267,39,10,72,300,39,14,61,098,41,1*7D
$GBGSV,4,2,14,08,59,261,39,33,57,156,43,43,54,044,43,13,49,251,41,1*74
$GBGSV,4,3,14,42,44,061,42,11,35,072,40,28,34,319,44,23,23,226,,1*74
$GBGSV,4,4,14,37,18,280,26,41,16,197,,1*7D
$GBGSV,2,1,07,40,83,095,45,33,57,156,45,43,54,044,43,42,44,061,42,4*72
$GBGSV,2,2,07,28,34,319,43,37,18,280,34,41,16,197,20,4*4A
$GNGGA,033022.000,2500.8164675,N,12132.4426845,E,4,66,0.42,17.625,M,15.25,M,2,3335*47
$GNRMC,033022.000,A,2500.8164675,N,12132.4426845,E,0.00,227.48,270623,,,R,V*16
$GPHDT,46.136,T*03
$GNGGA,033022.200,2500.8164676,N,12132.4426836,E,4,66,0.42,17.631,M,15.25,M,1,3335*44
$GNRMC,033022.200,A,2500.8164676,N,12132.4426836,E,0.00,227.48,270623,,,R,V*13
$GPHDT,46.893,T*05
$GNGGA,033022.400,2500.8164762,N,12132.4426800,E,4,66,0.42,17.654,M,15.25,M,1,3335*40
$GNRMC,033022.400,A,2500.8164762,N,12132.4426800,E,0.00,227.48,270623,,,R,V*14
$GPHDT,46.839,T*05
$GNGGA,033022.600,2500.8164768,N,12132.4426786,E,4,66,0.42,17.666,M,15.25,M,1,3335*48
$GNRMC,033022.600,A,2500.8164768,N,12132.4426786,E,0.00,227.48,270623,,,R,V*1D
$GPHDT,47.080,T*0E
$GNGGA,033022.800,2500.8164754,N,12132.4426772,E,4,66,0.42,17.662,M,15.25,M,1,3335*46
$GNRMC,033022.800,A,2500.8164754,N,12132.4426772,E,0.00,227.48,270623,,,R,V*17
$GPHDT,46.697,T*0F
$GNGSA,A,3,195,17,196,19,199,06,194,14,09,11,04,03,0.82,0.42,0.70,1*07
$GNGSA,A,3,67,68,82,83,80,73,66,,,,,,0.82,0.42,0.70,2*0B
$GNGSA,A,3,24,12,10,31,11,19,04,25,33,,,,0.82,0.42,0.70,3*05
$GNGSA,A,3,40,07,10,14,08,33,43,13,42,11,28,37,0.82,0.42,0.70,4*0D
$GNGSA,A,3,41,,,,,,,,,,,,0.82,0.42,0.70,4*0A
$GPGSV,4,1,15,195,67,041,41,17,64,058,43,196,61,130,37,19,61,006,43,1*66
$GPGSV,4,2,15,199,60,167,36,06,50,328,44,194,44,170,45,41,38,242,41,1*6A
$GPGSV,4,3,15,14,33,178,43,09,30,114,27,11,24,278,42,20,23,226,22,1*68
$GPGSV,4,4,15,04,21,080,32,03,15,038,30,12,08,321,19,1*52
$GPGSV,3,1,10,195,67,041,46,196,61,130,43,199,60,167,45,06,50,328,47,8*56
$GPGSV,3,2,10,194,44,170,46,14,33,178,47,09,30,114,29,11,24,278,47,8*50
$GPGSV,3,3,10,04,21,080,21,03,15,038,25,8*6B
$GLGSV,2,1,08,67,48,074,36,68,41,153,44,82,37,027,45,83,31,332,31,1*77
$GLGSV,2,2,08,80,30,237,40,73,23,298,37,66,11,031,28,79,06,190,,1*73
$GAGSV,3,1,09,24,55,252,40,12,50,007,37,10,48,325,37,31,33,183,39,7*75
$GAGSV,3,2,09,11,33,293,34,19,29,093,31,04,23,157,40,25,22,312,35,7*7C
$GAGSV,3,3,09,33,17,059,33,7*40
$GAGSV,3,1,09,24,55,252,45,12,50,007,43,10,48,325,46,11,33,293,41,1*7C
$GAGSV,3,2,09,31,33,183,44,19,29,093,30,04,23,157,40,25,22,312,36,1*7F
$GAGSV,3,3,09,33,17,059,17,1*40
$GBGSV,4,1,14,40,83,095,42,07,83,267,38,10,72,300,39,14,61,098,41,1*7C
$GBGSV,4,2,14,08,59,261,39,33,57,156,43,43,54,044,43,13,49,251,41,1*74
$GBGSV,4,3,14,42,44,061,42,11,35,072,40,28,34,319,44,23,23,226,,1*74
$GBGSV,4,4,14,37,18,280,29,41,16,197,,1*72
$GBGSV,2,1,07,40,83,095,45,33,57,156,45,43,54,044,43,42,44,061,42,4*72
$GBGSV,2,2,07,28,34,319,43,37,18,280,33,41,16,197,19,4*47
$GNGGA,033023.000,2500.8164755,N,12132.4426795,E,4,66,0.42,17.666,M,15.25,M,2,3335*40
$GNRMC,033023.000,A,2500.8164755,N,12132.4426795,E,0.00,227.48,270623,,,R,V*16
$GPHDT,46.315,T*00
$GNGGA,033023.200,2500.8164760,N,12132.4426786,E,4,66,0.42,17.667,M,15.25,M,2,3335*47
$GNRMC,033023.200,A,2500.8164760,N,12132.4426786,E,0.00,227.48,270623,,,R,V*10
$GPHDT,46.162,T*02
$GNGGA,033023.400,2500.8164771,N,12132.4426790,E,4,65,0.42,17.660,M,15.25,M,2,3335*42
$GNRMC,033023.400,A,2500.8164771,N,12132.4426790,E,0.00,227.48,270623,,,R,V*11
$GPHDT,46.690,T*08
$GNGGA,033023.600,2500.8164802,N,12132.4426789,E,4,65,0.42,17.672,M,15.25,M,2,3335*40
$GNRMC,033023.600,A,2500.8164802,N,12132.4426789,E,0.00,227.48,270623,,,R,V*10
$GPHDT,46.764,T*02
$GNGGA,033023.800,2500.8164771,N,12132.4426805,E,4,65,0.42,17.668,M,15.25,M,2,3335*45
$GNRMC,033023.800,A,2500.8164771,N,12132.4426805,E,0.00,227.48,270623,,,R,V*1E
$GPHDT,46.975,T*0C
$GNGSA,A,3,195,17,196,19,199,06,194,14,09,11,04,03,0.82,0.42,0.70,1*07
$GNGSA,A,3,67,68,82,83,80,73,66,,,,,,0.82,0.42,0.70,2*0B
$GNGSA,A,3,24,12,10,31,11,19,04,25,33,,,,0.82,0.42,0.70,3*05
$GNGSA,A,3,40,07,10,14,08,33,43,13,42,11,28,37,0.82,0.42,0.70,4*0D
$GNGSA,A,3,41,,,,,,,,,,,,0.82,0.42,0.70,4*0A
$GPGSV,4,1,15,195,67,041,41,17,64,058,43,196,61,130,37,19,61,006,43,1*66
$GPGSV,4,2,15,199,60,167,36,06,50,328,44,194,44,170,45,41,38,242,42,1*69
$GPGSV,4,3,15,14,33,178,42,09,30,114,27,11,24,278,42,20,23,226,23,1*68
$GPGSV,4,4,15,04,21,080,33,03,15,038,29,12,08,321,18,1*5A
$GPGSV,3,1,09,195,67,041,46,196,61,130,43,199,60,167,45,06,50,328,47,8*5E
$GPGSV,3,2,09,194,44,170,46,14,33,178,47,09,30,114,28,11,24,278,47,8*59
$GPGSV,3,3,09,03,15,038,26,8*5C
$GLGSV,2,1,08,67,48,074,36,68,41,153,44,82,37,027,45,83,31,332,31,1*77
$GLGSV,2,2,08,80,30,237,40,73,23,298,37,66,11,031,27,79,06,190,,1*7C
$GAGSV,3,1,09,24,55,252,40,12,50,007,37,10,48,325,39,31,33,183,39,7*7B
$GAGSV,3,2,09,11,33,293,34,19,29,093,31,04,23,157,40,25,22,312,35,7*7C
$GAGSV,3,3,09,33,17,059,33,7*40
$GAGSV,3,1,09,24,55,252,45,12,50,007,43,10,48,325,46,11,33,293,41,1*7C
$GAGSV,3,2,09,31,33,183,44,19,29,093,29,04,23,157,40,25,22,312,36,1*77
$GAGSV,3,3,09,33,17,059,17,1*40
$GBGSV,4,1,14,40,83,095,42,07,83,267,38,10,72,300,39,14,61,098,42,1*7F
$GBGSV,4,2,14,08,59,261,39,33,57,156,43,43,54,044,43,13,49,251,41,1*74
$GBGSV,4,3,14,42,44,061,42,11,35,072,39,28,34,319,44,23,23,226,,1*7A
$GBGSV,4,4,14,37,18,280,30,41,16,197,,1*7A
$GBGSV,2,1,07,40,83,095,45,33,57,156,45,43,54,044,43,42,44,061,42,4*72
$GBGSV,2,2,07,28,34,319,43,37,18,280,33,41,16,197,19,4*47
$GNGGA,033024.000,2500.8164778,N,12132.4426806,E,4,65,0.42,17.671,M,15.25,M,3,3335*49
$GNRMC,033024.000,A,2500.8164778,N,12132.4426806,E,0.00,227.48,270623,,,R,V*1B
$GPHDT,46.664,T*03
$GNGGA,033024.200,2500.8164776,N,12132.4426806,E,4,66,0.42,17.665,M,15.25,M,3,3335*43
$GNRMC,033024.200,A,2500.8164776,N,12132.4426806,E,0.00,227.48,270623,,,R,V*17
$GPHDT,46.890,T*06
$GNGGA,033024.400,2500.8164786,N,12132.4426828,E,4,66,0.42,17.664,M,15.25,M,3,3335*47
$GNRMC,033024.400,A,2500.8164786,N,12132.4426828,E,0.00,227.48,270623,,,R,V*12
$GPHDT,47.012,T*05
$GNGGA,033024.600,2500.8164780,N,12132.4426809,E,4,66,0.42,17.670,M,15.25,M,3,3335*45
$GNRMC,033024.600,A,2500.8164780,N,12132.4426809,E,0.00,227.48,270623,,,R,V*15
$GPHDT,46.839,T*05
$GNGGA,033024.800,2500.8164792,N,12132.4426811,E,4,65,0.42,17.660,M,15.25,M,3,3335*43
$GNRMC,033024.800,A,2500.8164792,N,12132.4426811,E,0.00,227.48,270623,,,R,V*11
$GPHDT,46.962,T*0A
$GNGSA,A,3,195,17,196,19,199,06,194,14,09,11,04,03,0.82,0.42,0.70,1*07
$GNGSA,A,3,67,68,82,83,80,73,66,,,,,,0.82,0.42,0.70,2*0B
$GNGSA,A,3,24,12,10,31,11,19,04,25,33,,,,0.82,0.42,0.70,3*05
$GNGSA,A,3,40,07,10,14,08,33,43,13,42,11,28,37,0.82,0.42,0.70,4*0D
$GNGSA,A,3,41,,,,,,,,,,,,0.82,0.42,0.70,4*0A
$GPGSV,4,1,15,195,67,041,41,17,64,058,43,196,61,130,37,19,61,006,43,1*66
$GPGSV,4,2,15,199,60,167,36,06,50,328,44,194,44,170,45,41,38,242,42,1*69
$GPGSV,4,3,15,14,33,178,42,09,30,114,26,11,24,278,42,20,23,226,23,1*69
$GPGSV,4,4,15,04,21,080,32,03,15,038,28,12,08,321,20,1*51
$GPGSV,3,1,09,195,67,041,46,196,61,130,43,199,60,167,45,06,50,328,47,8*5E
$GPGSV,3,2,09,194,44,170,46,14,33,178,47,09,30,114,28,11,24,278,47,8*59
$GPGSV,3,3,09,03,15,038,25,8*5F
$GLGSV,2,1,08,67,48,074,36,68,41,153,44,82,37,027,45,83,31,332,31,1*77
$GLGSV,2,2,08,80,30,237,40,73,23,298,38,66,11,031,27,79,06,190,,1*73
$GAGSV,3,1,09,24,55,252,40,12,50,007,37,10,48,325,39,31,33,183,39,7*7B
$GAGSV,3,2,09,11,33,293,34,19,29,093,31,04,23,157,40,25,22,312,35,7*7C
$GAGSV,3,3,09,33,17,059,33,7*40
$GAGSV,3,1,09,24,55,252,45,12,50,007,43,10,48,325,46,11,33,293,41,1*7C
$GAGSV,3,2,09,31,33,183,44,19,29,093,29,04,23,157,40,25,22,312,36,1*77
$GAGSV,3,3,09,33,17,059,17,1*40
$GBGSV,4,1,14,40,83,095,42,07,83,267,38,10,72,300,39,14,61,098,42,1*7F
$GBGSV,4,2,14,08,59,261,39,33,57,156,43,43,54,044,43,13,49,251,41,1*74
$GBGSV,4,3,14,42,44,061,42,11,35,072,39,28,34,319,44,23,23,226,,1*7A
$GBGSV,4,4,14,37,18,280,31,41,16,197,,1*7B
$GBGSV,2,1,07,40,83,095,45,33,57,156,45,43,54,044,43,42,44,061,42,4*72
$GBGSV,2,2,07,28,34,319,43,37,18,280,33,41,16,197,19,4*47
$GNGGA,033025.000,2500.8164805,N,12132.4426811,E,4,65,0.42,17.670,M,15.25,M,4,3335*4D
$GNRMC,033025.000,A,2500.8164805,N,12132.4426811,E,0.00,227.48,270623,,,R,V*19
$GPHDT,46.850,T*0A
$GNGGA,033025.200,2500.8164772,N,12132.4426798,E,4,66,0.42,17.689,M,15.25,M,4,3335*4B
$GNRMC,033025.200,A,2500.8164772,N,12132.4426798,E,0.00,227.48,270623,,,R,V*1A
$GPHDT,46.624,T*07
$GNGGA,033025.400,2500.8164766,N,12132.4426797,E,4,66,0.42,17.677,M,15.25,M,4,3335*46
$GNRMC,033025.400,A,2500.8164766,N,12132.4426797,E,0.00,227.48,270623,,,R,V*16
$GPHDT,46.733,T*00
$GNGGA,033025.600,2500.8164818,N,12132.4426773,E,4,66,0.42,17.665,M,15.25,M,2,3335*4D
$GNRMC,033025.600,A,2500.8164818,N,12132.4426773,E,0.00,227.48,270623,,,R,V*18
$GPHDT,46.969,T*01
$GNGGA,033025.800,2500.8164810,N,12132.4426746,E,4,66,0.42,17.662,M,15.25,M,0,3335*48
$GNRMC,033025.800,A,2500.8164810,N,12132.4426746,E,0.00,227.48,270623,,,R,V*18
$GPHDT,46.752,T*07
$GNGSA,A,3,195,17,196,19,199,06,194,14,09,11,04,03,0.82,0.42,0.70,1*07
$GNGSA,A,3,67,68,82,83,80,73,66,,,,,,0.82,0.42,0.70,2*0B
$GNGSA,A,3,24,12,10,31,11,19,04,25,33,,,,0.82,0.42,0.70,3*05
$GNGSA,A,3,40,07,10,14,08,33,43,13,42,11,28,37,0.82,0.42,0.70,4*0D
$GNGSA,A,3,41,,,,,,,,,,,,0.82,0.42,0.70,4*0A
$GPGSV,4,1,15,195,67,041,41,17,64,058,43,196,61,130,37,19,61,006,43,1*66
$GPGSV,4,2,15,199,60,167,36,06,50,328,44,194,44,170,45,41,38,242,42,1*69
$GPGSV,4,3,15,14,33,178,42,09,30,114,26,11,24,278,42,20,23,226,24,1*6E
$GPGSV,4,4,15,04,21,080,32,03,15,038,28,12,08,321,19,1*5B
$GPGSV,3,1,10,195,67,041,46,196,61,130,43,199,60,167,45,06,50,328,47,8*56
$GPGSV,3,2,10,194,44,170,46,14,33,178,47,09,30,114,28,11,24,278,47,8*51
$GPGSV,3,3,10,04,21,080,21,03,15,038,24,8*6A
$GLGSV,2,1,08,67,48,074,37,68,41,153,44,82,37,027,45,83,31,332,30,1*77
$GLGSV,2,2,08,80,30,237,40,73,23,298,38,66,11,031,28,79,06,190,,1*7C
$GAGSV,3,1,09,24,55,252,40,12,50,007,37,10,48,325,40,31,33,183,39,7*75
$GAGSV,3,2,09,11,33,293,34,19,29,093,31,04,23,157,40,25,22,312,35,7*7C
$GAGSV,3,3,09,33,17,059,33,7*40
$GAGSV,3,1,09,24,55,252,45,12,50,007,43,10,48,325,46,11,33,293,41,1*7C
$GAGSV,3,2,09,31,33,183,44,19,29,093,29,04,23,157,40,25,22,312,36,1*77
$GAGSV,3,3,09,33,17,059,17,1*40
$GBGSV,4,1,14,40,83,095,42,07,83,266,38,10,72,300,39,14,61,098,42,1*7E
$GBGSV,4,2,14,08,59,261,39,33,57,156,43,43,54,044,43,13,49,251,41,1*74
$GBGSV,4,3,14,42,44,061,42,11,35,072,39,28,34,319,44,23,23,226,,1*7A
$GBGSV,4,4,14,37,18,280,31,41,16,197,,1*7B
$GBGSV,2,1,07,40,83,095,45,33,57,156,45,43,54,044,43,42,44,061,42,4*72
$GBGSV,2,2,07,28,34,319,42,37,18,280,32,41,16,197,19,4*47
$GNGGA,033026.000,2500.8164816,N,12132.4426738,E,4,66,0.42,17.665,M,15.25,M,1,3335*4A
$GNRMC,033026.000,A,2500.8164816,N,12132.4426738,E,0.00,227.48,270623,,,R,V*1C
$GPHDT,46.931,T*0C
$GNGGA,033026.200,2500.8164810,N,12132.4426722,E,4,66,0.42,17.673,M,15.25,M,1,3335*42
$GNRMC,033026.200,A,2500.8164810,N,12132.4426722,E,0.00,227.48,270623,,,R,V*13
$GPHDT,47.050,T*03
$GNGGA,033026.400,2500.8164826,N,12132.4426729,E,4,66,0.42,17.667,M,15.25,M,1,3335*4F
$GNRMC,033026.400,A,2500.8164826,N,12132.4426729,E,0.00,227.48,270623,,,R,V*1B
$GPHDT,46.881,T*06
$GNGGA,033026.600,2500.8164829,N,12132.4426741,E,4,66,0.42,17.678,M,15.25,M,1,3335*42
$GNRMC,033026.600,A,2500.8164829,N,12132.4426741,E,0.00,227.48,270623,,,R,V*18
$GPHDT,46.970,T*09
$GNGGA,033026.800,2500.8164827,N,12132.4426753,E,4,66,0.42,17.676,M,15.25,M,1,3335*4F
$GNRMC,033026.800,A,2500.8164827,N,12132.4426753,E,0.00,227.48,270623,,,R,V*1B
$GPHDT,46.661,T*06
$GNGSA,A,3,195,17,196,19,199,06,194,14,09,11,04,03,0.82,0.42,0.70,1*07
$GNGSA,A,3,67,68,82,83,80,73,66,,,,,,0.82,0.42,0.70,2*0B
$GNGSA,A,3,24,12,10,31,11,19,04,25,33,,,,0.82,0.42,0.70,3*05
$GNGSA,A,3,40,07,10,14,08,33,43,13,42,11,28,37,0.82,0.42,0.70,4*0D
$GNGSA,A,3,41,,,,,,,,,,,,0.82,0.42,0.70,4*0A
$GPGSV,4,1,15,195,67,041,41,17,64,058,43,196,61,130,37,19,61,006,43,1*66
$GPGSV,4,2,15,199,60,167,36,06,50,328,44,194,44,170,45,41,38,242,42,1*69
$GPGSV,4,3,15,14,33,178,42,09,30,114,25,11,24,278,42,20,23,226,24,1*6D
$GPGSV,4,4,15,04,21,080,32,03,15,038,26,12,08,321,18,1*54
$GPGSV,3,1,10,195,67,041,46,196,61,130,43,199,60,167,45,06,50,328,46,8*57
$GPGSV,3,2,10,194,44,170,46,14,33,178,47,09,30,114,30,11,24,278,47,8*58
$GPGSV,3,3,10,04,21,080,22,03,15,038,24,8*69
$GLGSV,2,1,08,67,48,074,37,68,41,153,44,82,37,027,45,83,31,332,30,1*77
$GLGSV,2,2,08,80,30,237,40,73,23,298,38,66,11,031,28,79,06,190,,1*7C
$GAGSV,3,1,09,24,55,252,40,12,50,007,37,10,48,325,40,31,33,183,39,7*75
$GAGSV,3,2,09,11,33,293,34,19,29,093,31,04,23,157,40,25,22,312,35,7*7C
$GAGSV,3,3,09,33,17,059,33,7*40
$GAGSV,3,1,09,24,55,252,45,12,50,007,43,10,48,325,46,11,33,293,40,1*7D
$GAGSV,3,2,09,31,33,183,44,19,29,093,29,04,23,157,40,25,22,312,36,1*77
$GAGSV,3,3,09,33,17,059,17,1*40
$GBGSV,4,1,14,40,83,095,42,07,83,266,38,10,72,299,39,14,61,098,42,1*7F
$GBGSV,4,2,14,08,59,262,39,33,57,156,43,43,54,044,43,13,49,251,41,1*77
$GBGSV,4,3,14,42,44,061,42,11,35,073,38,28,34,319,44,23,23,226,,1*7A
$GBGSV,4,4,14,37,18,280,31,41,16,197,26,1*7F
$GBGSV,2,1,07,40,83,095,45,33,57,156,44,43,54,044,43,42,44,061,42,4*73
$GBGSV,2,2,07,28,34,319,42,37,18,280,32,41,16,197,18,4*46
$GNGGA,033027.000,2500.8164808,N,12132.4426734,E,4,66,0.42,17.673,M,15.25,M,2,3335*4C
$GNRMC,033027.000,A,2500.8164808,N,12132.4426734,E,0.00,227.48,270623,,,R,V*1E
$GPHDT,46.859,T*03
$GNGGA,033027.200,2500.8164835,N,12132.4426756,E,4,66,0.42,17.675,M,15.25,M,2,3335*42
$GNRMC,033027.200,A,2500.8164835,N,12132.4426756,E,0.00,227.48,270623,,,R,V*16
$GPHDT,46.886,T*01
$GNGGA,033027.400,2500.8164837,N,12132.4426737,E,4,66,0.42,17.681,M,15.25,M,2,3335*4A
$GNRMC,033027.400,A,2500.8164837,N,12132.4426737,E,0.00,227.48,270623,,,R,V*15
$GPHDT,46.772,T*05
$GNGGA,033027.600,2500.8164847,N,12132.4426744,E,4,66,0.42,17.671,M,15.25,M,2,3335*44
$GNRMC,033027.600,A,2500.8164847,N,12132.4426744,E,0.00,227.48,270623,,,R,V*14
$GPHDT,46.986,T*00
$GNGGA,033027.800,2500.8164824,N,12132.4426747,E,4,66,0.42,17.672,M,15.25,M,2,3335*4F
$GNRMC,033027.800,A,2500.8164824,N,12132.4426747,E,0.00,227.48,270623,,,R,V*1C
$GPHDT,46.860,T*09
$GNGSA,A,3,195,17,196,19,199,06,194,14,09,11,04,03,0.82,0.42,0.70,1*07
$GNGSA,A,3,67,68,82,83,80,73,66,,,,,,0.82,0.42,0.70,2*0B
$GNGSA,A,3,24,12,10,31,11,19,04,25,33,,,,0.82,0.42,0.70,3*05
$GNGSA,A,3,40,07,10,14,08,33,43,13,42,11,28,37,0.82,0.42,0.70,4*0D
$GNGSA,A,3,41,,,,,,,,,,,,0.82,0.42,0.70,4*0A
$GPGSV,4,1,15,195,67,041,41,17,64,058,43,196,61,130,37,19,61,006,43,1*66
$GPGSV,4,2,15,199,60,167,36,06,50,328,44,194,44,170,45,41,38,242,42,1*69
$GPGSV,4,3,15,14,33,178,42,09,30,114,25,11,24,278,42,20,23,226,24,1*6D
$GPGSV,4,4,15,04,21,080,31,03,15,038,26,12,08,321,18,1*57
$GPGSV,3,1,09,195,67,041,46,196,61,130,43,199,60,167,45,06,50,328,46,8*5F
$GPGSV,3,2,09,194,44,170,46,14,33,178,47,09,30,114,30,11,24,278,47,8*50
$GPGSV,3,3,09,03,15,038,25,8*5F
$GLGSV,2,1,08,67,48,074,37,68,41,153,44,82,37,027,45,83,31,332,31,1*76
$GLGSV,2,2,08,80,30,237,40,73,23,298,38,66,11,031,28,79,06,190,,1*7C
$GAGSV,3,1,09,24,55,252,40,12,50,007,37,10,48,325,40,31,33,183,39,7*75
$GAGSV,3,2,09,11,33,293,34,19,29,093,31,04,23,157,40,25,22,312,35,7*7C
$GAGSV,3,3,09,33,17,059,33,7*40
$GAGSV,3,1,09,24,55,252,45,12,50,007,43,10,48,325,46,11,33,293,40,1*7D
$GAGSV,3,2,09,31,33,183,44,19,29,093,30,04,23,157,40,25,22,312,36,1*7F
$GAGSV,3,3,09,33,17,059,17,1*40
$GBGSV,4,1,14,40,83,095,42,07,83,266,38,10,72,299,39,14,61,098,42,1*7F
$GBGSV,4,2,14,08,59,262,39,33,57,156,43,43,54,044,43,13,49,251,41,1*77
$GBGSV,4,3,14,42,44,061,43,11,35,073,38,28,34,319,44,23,23,226,,1*7B
$GBGSV,4,4,14,37,18,280,31,41,16,197,25,1*7C
$GBGSV,2,1,07,40,83,095,45,33,57,156,44,43,54,044,43,42,44,061,42,4*73
$GBGSV,2,2,07,28,34,319,42,37,18,280,33,41,16,197,18,4*47
$GNGGA,033028.000,2500.8164820,N,12132.4426763,E,4,65,0.42,17.670,M,15.25,M,3,3335*4A
$GNRMC,033028.000,A,2500.8164820,N,12132.4426763,E,0.00,227.48,270623,,,R,V*19
$GPHDT,46.500,T*02
$GNGGA,033028.200,2500.8164845,N,12132.4426740,E,4,66,0.42,17.681,M,15.25,M,3,3335*47
$GNRMC,033028.200,A,2500.8164845,N,12132.4426740,E,0.00,227.48,270623,,,R,V*19
$GPHDT,46.876,T*0E
$GNGGA,033028.400,2500.8164820,N,12132.4426755,E,4,65,0.42,17.669,M,15.25,M,3,3335*43
$GNRMC,033028.400,A,2500.8164820,N,12132.4426755,E,0.00,227.48,270623,,,R,V*18
$GPHDT,46.558,T*0F
$GNGGA,033028.600,2500.8164847,N,12132.4426759,E,4,66,0.42,17.678,M,15.25,M,3,3335*4F
$GNRMC,033028.600,A,2500.8164847,N,12132.4426759,E,0.00,227.48,270623,,,R,V*17
$GPHDT,46.488,T*03
$GNGGA,033028.800,2500.8164775,N,12132.4426768,E,4,66,0.42,17.659,M,15.25,M,2,3335*4F
$GNRMC,033028.800,A,2500.8164775,N,12132.4426768,E,0.00,227.48,270623,,,R,V*15
$GPHDT,46.587,T*0D
$GNGSA,A,3,195,17,196,19,199,06,194,14,09,11,04,03,0.82,0.42,0.70,1*07
$GNGSA,A,3,67,68,82,83,80,73,66,,,,,,0.82,0.42,0.70,2*0B
$GNGSA,A,3,24,12,10,31,11,19,04,25,33,,,,0.82,0.42,0.70,3*05
$GNGSA,A,3,40,07,10,14,08,33,43,13,42,11,28,37,0.82,0.42,0.70,4*0D
$GNGSA,A,3,41,,,,,,,,,,,,0.82,0.42,0.70,4*0A
$GPGSV,4,1,15,195,67,041,41,17,64,058,43,196,61,130,37,19,61,006,43,1*66
$GPGSV,4,2,15,199,60,167,36,06,50,328,44,194,44,170,45,41,38,242,42,1*69
$GPGSV,4,3,15,14,33,178,42,09,30,114,25,11,24,278,42,20,23,226,25,1*6C
$GPGSV,4,4,15,04,21,080,30,03,15,038,25,12,08,321,18,1*55
$GPGSV,3,1,10,195,67,041,46,196,61,130,43,199,60,167,45,06,50,328,46,8*57
$GPGSV,3,2,10,194,44,170,46,14,33,178,47,09,30,114,30,11,24,278,47,8*58
$GPGSV,3,3,10,04,21,080,23,03,15,038,25,8*69
$GLGSV,2,1,08,67,48,074,37,68,41,153,44,82,37,027,45,83,31,332,30,1*77
$GLGSV,2,2,08,80,30,237,40,73,23,298,38,66,11,031,28,79,06,190,,1*7C
$GAGSV,3,1,09,24,55,252,40,12,50,007,37,10,48,325,40,31,33,183,39,7*75
$GAGSV,3,2,09,11,33,293,34,19,29,093,31,04,23,157,40,25,22,312,35,7*7C
$GAGSV,3,3,09,33,17,059,33,7*40
$GAGSV,3,1,09,24,55,252,45,12,50,007,43,10,48,325,46,11,33,293,40,1*7D
$GAGSV,3,2,09,31,33,183,44,19,29,093,30,04,23,157,40,25,22,312,36,1*7F
$GAGSV,3,3,09,33,17,059,17,1*40
$GBGSV,4,1,14,40,83,095,42,07,83,266,38,10,72,299,39,14,61,098,43,1*7E
$GBGSV,4,2,14,08,59,262,39,33,57,156,43,43,54,044,43,13,49,251,41,1*77
$GBGSV,4,3,14,42,44,061,43,11,35,073,38,28,34,319,44,23,23,226,,1*7B
$GBGSV,4,4,14,37,18,280,32,41,16,197,17,1*7E
$GBGSV,2,1,07,40,83,095,45,33,57,156,44,43,54,044,43,42,44,061,42,4*73
$GBGSV,2,2,07,28,34,319,42,37,18,280,33,41,16,197,18,4*47
$GNGGA,033029.000,2500.8164769,N,12132.4426758,E,4,66,0.42,17.674,M,15.25,M,3,3335*46
$GNRMC,033029.000,A,2500.8164769,N,12132.4426758,E,0.00,227.48,270623,,,R,V*12
$GPHDT,46.672,T*04
$GNGGA,033029.200,2500.8164774,N,12132.4426765,E,4,66,0.42,17.658,M,15.25,M,1,3335*4A
$GNRMC,033029.200,A,2500.8164774,N,12132.4426765,E,0.00,227.48,270623,,,R,V*12
$GPHDT,46.539,T*08
