$FW : RTK35X,V1.1X0314AS,Lib20210517,1*54
$Tool : LOCOSYS , GNSS Firebird , v1.0.0.19*39
$---------------------------------------------------*2D
$GPHDT,226.255,T*31
$GNGGA,033209.800,2500.8164815,N,12132.4426776,E,4,65,0.42,17.642,M,15.25,M,1,3335*42
$GNRMC,033209.800,A,2500.8164815,N,12132.4426776,E,0.00,227.48,270623,,,R,V*12
$GPHDT,226.540,T*32
$GNGSA,A,3,195,17,196,19,199,06,194,14,09,11,04,03,0.81,0.42,0.69,1*0C
$GNGSA,A,3,67,68,82,83,80,73,66,,,,,,0.81,0.42,0.69,2*00
$GNGSA,A,3,24,10,12,31,11,19,04,25,33,,,,0.81,0.42,0.69,3*0E
$GNGSA,A,3,40,07,10,14,08,33,43,13,42,11,28,37,0.81,0.42,0.69,4*06
$GNGSA,A,3,41,,,,,,,,,,,,0.81,0.42,0.69,4*01
$GPGSV,4,1,15,195,67,041,40,17,64,060,41,196,62,130,41,19,62,007,38,1*62
$GPGSV,4,2,15,199,60,167,36,06,50,329,34,194,44,170,43,41,38,242,41,1*6A
$GPGSV,4,3,15,14,32,178,40,09,30,113,41,11,25,279,25,20,23,226,16,1*6B
$GPGSV,4,4,15,04,21,079,28,03,14,038,16,12,08,321,18,1*5B
$GPGSV,3,1,10,195,67,041,45,196,62,130,46,199,60,167,45,06,50,329,38,8*5A
$GPGSV,3,2,10,194,44,170,45,14,32,178,45,09,30,113,45,11,25,279,31,8*5C
$GPGSV,3,3,10,04,21,079,29,03,14,038,27,8*66
$GLGSV,2,1,08,67,48,073,43,68,42,153,43,82,37,028,43,83,31,333,28,1*76
$GLGSV,2,2,08,80,30,236,37,73,23,297,26,66,11,031,21,79,06,189,,1*7C
$GAGSV,3,1,09,24,55,251,37,10,49,326,28,12,49,008,36,31,33,183,37,7*72
$GAGSV,3,2,09,11,33,294,31,19,29,092,33,04,23,157,37,25,23,311,33,7*79
$GAGSV,3,3,09,33,17,059,35,7*46
$GAGSV,3,1,09,24,55,251,41,12,49,008,40,10,49,326,30,31,33,183,44,1*79
$GAGSV,3,2,09,11,33,294,32,19,29,092,38,04,23,157,42,25,23,311,34,1*72
$GAGSV,3,3,09,33,17,059,32,1*47
$GBGSV,4,1,14,40,84,099,40,07,83,263,41,10,72,298,39,14,61,096,42,1*72
$GBGSV,4,2,14,08,59,262,32,33,58,155,43,43,54,045,44,13,49,252,39,1*7A
$GBGSV,4,3,14,42,43,060,42,11,35,073,45,28,34,319,39,23,22,225,,1*7E
$GBGSV,4,4,14,37,18,279,30,41,16,197,,1*7C
$GBGSV,2,1,06,40,84,099,46,33,58,155,46,43,54,045,42,42,43,060,45,4*75
$GBGSV,2,2,06,28,34,319,36,41,16,197,18,4*72
$GNGGA,033210.000,2500.8164821,N,12132.4426777,E,4,65,0.42,17.644,M,15.25,M,2,3335*41
$GNRMC,033210.000,A,2500.8164821,N,12132.4426777,E,0.00,227.48,270623,,,R,V*14
$GPHDT,226.335,T*36
$GNGGA,033210.200,2500.8164835,N,12132.4426791,E,4,65,0.42,17.635,M,15.25,M,2,3335*48
$GNRMC,033210.200,A,2500.8164835,N,12132.4426791,E,0.00,227.48,270623,,,R,V*1B
$GPHDT,226.458,T*3A
$GNGGA,033210.400,2500.8164800,N,12132.4426905,E,4,65,0.42,17.644,M,15.25,M,2,3335*4D
$GNRMC,033210.400,A,2500.8164800,N,12132.4426905,E,0.00,227.48,270623,,,R,V*18
$GPHDT,226.805,T*3E
$GNGGA,033210.600,2500.8164759,N,12132.4426948,E,4,65,0.42,17.685,M,15.25,M,2,3335*48
$GNRMC,033210.600,A,2500.8164759,N,12132.4426948,E,0.00,227.48,270623,,,R,V*10
$GPHDT,227.478,T*39
$GNGGA,033210.800,2500.8164800,N,12132.4426926,E,4,65,0.42,17.668,M,15.25,M,2,3335*4E
$GNRMC,033210.800,A,2500.8164800,N,12132.4426926,E,0.00,227.48,270623,,,R,V*15
$GPHDT,227.157,T*31
$GNGSA,A,3,195,17,196,19,199,06,194,14,09,11,04,03,0.81,0.42,0.69,1*0C
$GNGSA,A,3,67,68,82,83,80,73,66,,,,,,0.81,0.42,0.69,2*00
$GNGSA,A,3,24,10,12,31,11,19,04,25,33,,,,0.81,0.42,0.69,3*0E
$GNGSA,A,3,40,07,10,14,08,33,43,13,42,11,28,37,0.81,0.42,0.69,4*06
$GNGSA,A,3,41,,,,,,,,,,,,0.81,0.42,0.69,4*01
$GPGSV,4,1,15,195,67,041,39,17,64,060,41,196,62,130,41,19,62,007,39,1*6D
$GPGSV,4,2,15,199,60,167,36,06,50,329,38,194,44,170,43,41,38,242,41,1*66
$GPGSV,4,3,15,14,32,178,40,09,30,113,42,11,25,279,29,20,23,226,16,1*64
$GPGSV,4,4,15,04,21,079,30,03,14,038,15,12,08,321,18,1*51
$GPGSV,3,1,10,195,67,041,45,196,62,130,46,199,60,167,45,06,50,329,42,8*57
$GPGSV,3,2,10,194,44,170,45,14,32,178,45,09,30,113,45,11,25,279,34,8*59
$GPGSV,3,3,10,04,21,079,26,03,14,038,25,8*6B
$GLGSV,2,1,08,67,48,073,43,68,42,153,42,82,37,028,41,83,31,333,28,1*75
$GLGSV,2,2,08,80,30,236,39,73,23,297,24,66,11,031,19,79,06,189,,1*7B
$GAGSV,3,1,09,24,55,251,37,10,49,326,31,12,49,008,38,31,33,183,37,7*74
$GAGSV,3,2,09,11,33,294,31,19,29,092,33,04,23,157,38,25,23,311,31,7*74
$GAGSV,3,3,09,33,17,059,35,7*46
$GAGSV,3,1,09,24,55,251,41,12,49,008,41,10,49,326,37,11,33,294,32,1*79
$GAGSV,3,2,09,31,33,183,44,19,29,092,38,04,23,157,42,25,23,311,34,1*74
$GAGSV,3,3,09,33,17,059,34,1*41
$GBGSV,4,1,14,40,84,099,40,07,83,263,41,10,72,298,40,14,61,096,42,1*7C
$GBGSV,4,2,14,08,59,262,32,33,58,155,43,43,54,045,44,13,49,252,38,1*7B
$GBGSV,4,3,14,42,43,060,42,11,35,073,45,28,34,319,37,23,22,225,,1*70
$GBGSV,4,4,14,37,18,279,26,41,16,197,,1*7B
$GBGSV,2,1,07,40,84,099,45,33,58,155,46,43,54,045,42,42,43,060,45,4*77
$GBGSV,2,2,07,28,34,319,36,37,18,279,17,41,16,197,18,4*44
$GNGGA,033211.000,2500.8164778,N,12132.4426908,E,4,65,0.42,17.688,M,15.25,M,3,3335*44
$GNRMC,033211.000,A,2500.8164778,N,12132.4426908,E,0.00,227.48,270623,,,R,V*10
$GPHDT,227.159,T*3F
$GNGGA,033211.200,2500.8164792,N,12132.4426932,E,4,65,0.42,17.662,M,15.25,M,3,3335*4F
$GNRMC,033211.200,A,2500.8164792,N,12132.4426932,E,0.00,227.48,270623,,,R,V*1F
$GPHDT,227.112,T*30
$GNGGA,033211.400,2500.8164790,N,12132.4426958,E,4,65,0.42,17.692,M,15.25,M,3,3335*48
$GNRMC,033211.400,A,2500.8164790,N,12132.4426958,E,0.00,227.48,270623,,,R,V*17
$GPHDT,227.412,T*35
$GNGGA,033211.600,2500.8164783,N,12132.4426957,E,4,65,0.42,17.693,M,15.25,M,3,3335*46
$GNRMC,033211.600,A,2500.8164783,N,12132.4426957,E,0.00,227.48,270623,,,R,V*18
$GPHDT,227.629,T*3F
$GNGGA,033211.800,2500.8164784,N,12132.4426927,E,4,65,0.42,17.690,M,15.25,M,3,3335*4B
$GNRMC,033211.800,A,2500.8164784,N,12132.4426927,E,0.00,227.48,270623,,,R,V*16
$GPHDT,227.372,T*34
$GNGSA,A,3,195,17,196,19,199,06,194,14,09,11,04,03,0.81,0.42,0.69,1*0C
$GNGSA,A,3,67,68,82,83,80,73,66,,,,,,0.81,0.42,0.69,2*00
$GNGSA,A,3,24,10,12,31,11,19,04,25,33,,,,0.81,0.42,0.69,3*0E
$GNGSA,A,3,40,07,10,14,08,33,43,13,42,11,28,37,0.81,0.42,0.69,4*06
$GNGSA,A,3,41,,,,,,,,,,,,0.81,0.42,0.69,4*01
$GPGSV,4,1,15,195,67,041,38,17,64,060,42,196,62,130,41,19,62,007,39,1*6F
$GPGSV,4,2,15,199,60,167,36,06,50,329,39,194,44,170,43,41,38,242,41,1*67
$GPGSV,4,3,15,14,32,178,40,09,30,113,42,11,25,279,26,20,23,226,16,1*6B
$GPGSV,4,4,15,04,21,079,30,03,14,038,15,12,08,321,19,1*50
$GPGSV,3,1,10,195,67,041,45,196,62,130,46,199,60,167,45,06,50,329,42,8*57
$GPGSV,3,2,10,194,44,170,45,14,32,178,45,09,30,113,45,11,25,279,36,8*5B
$GPGSV,3,3,10,04,21,079,25,03,14,038,25,8*68
$GLGSV,2,1,08,67,48,073,43,68,42,153,42,82,37,028,41,83,31,333,29,1*74
$GLGSV,2,2,08,80,30,236,39,73,23,297,22,66,11,031,22,79,06,189,,1*75
$GAGSV,3,1,09,24,55,251,37,10,49,326,33,12,49,008,38,31,33,183,37,7*76
$GAGSV,3,2,09,11,33,294,31,19,29,092,33,04,23,157,38,25,23,311,31,7*74
$GAGSV,3,3,09,33,17,059,35,7*46
$GAGSV,3,1,09,24,55,251,41,12,49,008,42,10,49,326,38,11,33,294,31,1*76
$GAGSV,3,2,09,31,33,183,43,19,29,092,37,04,23,157,42,25,23,311,33,1*7B
$GAGSV,3,3,09,33,17,059,34,1*41
$GBGSV,4,1,14,40,84,099,40,07,83,263,41,10,72,298,40,14,61,096,42,1*7C
$GBGSV,4,2,14,08,59,262,33,33,58,155,43,43,54,045,44,13,49,252,38,1*7A
$GBGSV,4,3,14,42,43,060,42,11,35,073,45,28,34,319,37,23,22,225,,1*70
$GBGSV,4,4,14,37,18,279,26,41,16,197,,1*7B
$GBGSV,2,1,07,40,84,099,45,33,58,155,46,43,54,045,42,42,43,060,45,4*77
$GBGSV,2,2,07,28,34,319,36,37,18,279,16,41,16,197,18,4*45
$GNGGA,033212.000,2500.8164730,N,12132.4426939,E,4,65,0.42,17.672,M,15.25,M,2,3335*4D
$GNRMC,033212.000,A,2500.8164730,N,12132.4426939,E,0.00,227.48,270623,,,R,V*1D
$GPHDT,227.040,T*36
$GNGGA,033212.200,2500.8164739,N,12132.4426886,E,4,66,0.42,17.659,M,15.25,M,1,3335*4A
$GNRMC,033212.200,A,2500.8164739,N,12132.4426886,E,0.00,227.48,270623,,,R,V*13
$GPHDT,227.082,T*38
$GNGGA,033212.400,2500.8164759,N,12132.4426938,E,4,66,0.42,17.652,M,15.25,M,1,3335*45
$GNRMC,033212.400,A,2500.8164759,N,12132.4426938,E,0.00,227.48,270623,,,R,V*17
$GPHDT,227.329,T*3A
$GNGGA,033212.600,2500.8164833,N,12132.4426877,E,4,65,0.42,17.668,M,15.25,M,0,3335*45
$GNRMC,033212.600,A,2500.8164833,N,12132.4426877,E,0.00,227.48,270623,,,R,V*1C
$GPHDT,226.770,T*33
$GNGGA,033212.800,2500.8164726,N,12132.4426954,E,4,65,0.42,17.629,M,15.25,M,0,3335*45
$GNRMC,033212.800,A,2500.8164726,N,12132.4426954,E,0.00,227.48,270623,,,R,V*19
$GPHDT,227.041,T*37
$GNGSA,A,3,195,17,196,19,199,06,194,14,09,11,04,03,0.81,0.42,0.69,1*0C
$GNGSA,A,3,67,68,82,83,80,73,66,,,,,,0.81,0.42,0.69,2*00
$GNGSA,A,3,24,10,12,31,11,19,04,25,33,,,,0.81,0.42,0.69,3*0E
$GNGSA,A,3,40,07,10,14,08,33,43,13,42,11,28,37,0.81,0.42,0.69,4*06
$GNGSA,A,3,41,,,,,,,,,,,,0.81,0.42,0.69,4*01
$GPGSV,4,1,15,195,67,041,37,17,64,060,42,196,62,130,41,19,62,007,40,1*6E
$GPGSV,4,2,15,199,60,167,36,06,50,329,39,194,44,170,43,41,38,242,41,1*67
$GPGSV,4,3,15,14,32,178,40,09,30,113,42,11,25,279,27,20,23,226,17,1*6B
$GPGSV,4,4,15,04,21,079,30,03,14,038,17,12,08,321,20,1*58
$GPGSV,3,1,10,195,67,041,45,196,62,130,46,199,60,167,45,06,50,329,42,8*57
$GPGSV,3,2,10,194,44,170,45,14,32,178,45,09,30,113,45,11,25,279,35,8*58
$GPGSV,3,3,10,04,21,079,25,03,14,038,26,8*6B
$GLGSV,2,1,08,67,48,073,43,68,42,153,42,82,37,028,41,83,31,333,28,1*75
$GLGSV,2,2,08,80,30,236,39,73,23,297,25,66,11,031,22,79,06,189,,1*72
$GAGSV,3,1,09,24,55,251,37,10,49,326,34,12,49,008,38,31,33,183,37,7*71
$GAGSV,3,2,09,11,33,294,30,19,29,092,33,04,23,157,37,25,23,311,32,7*79
$GAGSV,3,3,09,33,17,059,35,7*46
$GAGSV,3,1,09,24,55,251,41,12,49,008,42,10,49,326,39,11,33,294,31,1*77
$GAGSV,3,2,09,31,33,183,43,19,29,092,37,04,23,157,42,25,23,311,33,1*7B
$GAGSV,3,3,09,33,17,059,33,1*46
$GBGSV,4,1,14,40,84,099,40,07,83,263,41,10,72,298,40,14,61,096,42,1*7C
$GBGSV,4,2,14,08,59,262,33,33,58,155,43,43,54,045,44,13,49,252,38,1*7A
$GBGSV,4,3,14,42,43,060,42,11,35,073,45,28,34,319,36,23,22,225,,1*71
$GBGSV,4,4,14,37,18,279,28,41,16,197,,1*75
$GBGSV,2,1,07,40,84,099,45,33,58,155,46,43,54,045,42,42,43,060,45,4*77
$GBGSV,2,2,07,28,34,319,36,37,18,279,16,41,16,197,18,4*45
$GNGGA,033213.000,2500.8164736,N,12132.4426952,E,4,65,0.42,17.646,M,15.25,M,1,3335*43
$GNRMC,033213.000,A,2500.8164736,N,12132.4426952,E,0.00,227.48,270623,,,R,V*17
$GPHDT,227.290,T*39
$GNGGA,033213.200,2500.8164643,N,12132.4426886,E,4,65,0.42,17.671,M,15.25,M,1,3335*4E
$GNRMC,033213.200,A,2500.8164643,N,12132.4426886,E,0.00,227.48,270623,,,R,V*1E
$GPHDT,227.369,T*3E
$GNGGA,033213.400,2500.8164649,N,12132.4426867,E,4,65,0.42,17.663,M,15.25,M,1,3335*4E
$GNRMC,033213.400,A,2500.8164649,N,12132.4426867,E,0.00,227.48,270623,,,R,V*1D
$GPHDT,227.287,T*3F
$GNGGA,033213.600,2500.8164677,N,12132.4426914,E,4,65,0.42,17.659,M,15.25,M,1,3335*4D
$GNRMC,033213.600,A,2500.8164677,N,12132.4426914,E,0.00,227.48,270623,,,R,V*17
$GPHDT,227.540,T*33
$GNGGA,033213.800,2500.8164673,N,12132.4426852,E,4,65,0.42,17.671,M,15.25,M,1,3335*4E
$GNRMC,033213.800,A,2500.8164673,N,12132.4426852,E,0.00,227.48,270623,,,R,V*1E
$GPHDT,227.267,T*31
$GNGSA,A,3,195,17,196,19,199,06,194,14,09,11,04,03,0.81,0.42,0.69,1*0C
$GNGSA,A,3,67,68,82,83,80,73,66,,,,,,0.81,0.42,0.69,2*00
$GNGSA,A,3,24,10,12,31,11,19,04,25,33,,,,0.81,0.42,0.69,3*0E
$GNGSA,A,3,40,07,10,14,08,33,43,13,42,11,28,37,0.81,0.42,0.69,4*06
$GNGSA,A,3,41,,,,,,,,,,,,0.81,0.42,0.69,4*01
$GPGSV,4,1,15,195,67,041,39,17,64,060,42,196,62,130,39,19,62,007,40,1*6F
$GPGSV,4,2,15,199,60,167,37,06,50,329,40,194,44,170,41,41,38,242,41,1*6A
$GPGSV,4,3,15,14,32,178,41,09,30,113,42,11,25,279,23,20,23,226,17,1*6E
$GPGSV,4,4,15,04,21,079,31,03,14,038,14,12,08,321,19,1*50
$GPGSV,3,1,10,195,67,041,45,196,62,130,46,199,60,167,45,06,50,329,43,8*56
$GPGSV,3,2,10,194,44,170,45,14,32,178,45,09,30,113,45,11,25,279,37,8*5A
$GPGSV,3,3,10,04,21,079,26,03,14,038,26,8*68
$GLGSV,2,1,08,67,48,073,43,68,42,153,44,82,37,028,42,83,31,333,30,1*79
$GLGSV,2,2,08,80,30,236,39,73,23,297,27,66,11,031,21,79,06,189,,1*73
$GAGSV,3,1,09,24,55,251,38,10,49,326,35,12,49,008,38,31,33,183,38,7*70
$GAGSV,3,2,09,11,33,294,30,19,29,092,33,04,23,157,39,25,23,311,33,7*76
$GAGSV,3,3,09,33,17,059,34,7*47
$GAGSV,3,1,09,24,55,251,41,12,49,008,42,10,49,326,40,11,33,294,32,1*7A
$GAGSV,3,2,09,31,33,183,43,19,29,092,37,04,23,157,42,25,23,311,33,1*7B
$GAGSV,3,3,09,33,17,059,33,1*46
$GBGSV,4,1,14,40,84,099,42,07,83,263,40,10,72,298,41,14,61,096,42,1*7E
$GBGSV,4,2,14,08,59,262,33,33,58,155,43,43,54,045,44,13,49,252,38,1*7A
$GBGSV,4,3,14,42,43,060,42,11,35,073,44,28,34,319,36,23,22,225,,1*70
$GBGSV,4,4,14,37,18,279,28,41,16,197,,1*75
$GBGSV,2,1,07,40,84,099,45,33,58,155,46,43,54,045,43,42,43,060,45,4*76
$GBGSV,2,2,07,28,34,319,36,37,18,279,24,41,16,197,18,4*44
$GNGGA,033214.000,2500.8164668,N,12132.4426863,E,4,65,0.42,17.658,M,15.25,M,2,3335*41
$GNRMC,033214.000,A,2500.8164668,N,12132.4426863,E,0.00,227.48,270623,,,R,V*19
$GPHDT,226.951,T*3E
$GNGGA,033214.200,2500.8164673,N,12132.4426899,E,4,65,0.42,17.632,M,15.25,M,2,3335*40
$GNRMC,033214.200,A,2500.8164673,N,12132.4426899,E,0.00,227.48,270623,,,R,V*14
$GPHDT,227.248,T*3C
$GNGGA,033214.400,2500.8164763,N,12132.4426922,E,4,65,0.42,17.623,M,15.25,M,2,3335*47
$GNRMC,033214.400,A,2500.8164763,N,12132.4426922,E,0.00,227.48,270623,,,R,V*13
$GPHDT,226.765,T*37
$GNGGA,033214.600,2500.8164723,N,12132.4426905,E,4,65,0.42,17.639,M,15.25,M,2,3335*4F
$GNRMC,033214.600,A,2500.8164723,N,12132.4426905,E,0.00,227.48,270623,,,R,V*10
$GPHDT,226.801,T*3A
$GNGGA,033214.800,2500.8164758,N,12132.4426905,E,4,65,0.42,17.645,M,15.25,M,2,3335*46
$GNRMC,033214.800,A,2500.8164758,N,12132.4426905,E,0.00,227.48,270623,,,R,V*12
$GPHDT,226.703,T*37
$GNGSA,A,3,195,17,196,19,199,06,194,14,09,11,04,03,0.81,0.42,0.69,1*0C
$GNGSA,A,3,67,68,82,83,80,73,66,,,,,,0.81,0.42,0.69,2*00
$GNGSA,A,3,24,10,12,31,11,19,04,25,33,,,,0.81,0.42,0.69,3*0E
$GNGSA,A,3,40,07,10,14,08,33,43,13,42,11,28,37,0.81,0.42,0.69,4*06
$GNGSA,A,3,41,,,,,,,,,,,,0.81,0.42,0.69,4*01
$GPGSV,4,1,15,195,67,041,39,17,64,060,41,196,62,130,39,19,62,007,40,1*6C
$GPGSV,4,2,15,199,60,167,38,06,50,329,40,194,44,170,41,41,38,242,41,1*65
$GPGSV,4,3,15,14,32,178,42,09,30,113,41,11,25,279,26,20,23,226,16,1*6A
$GPGSV,4,4,15,04,21,079,31,03,14,038,14,12,08,321,18,1*51
$GPGSV,3,1,10,195,67,041,45,196,62,130,46,199,60,167,46,06,50,329,43,8*55
$GPGSV,3,2,10,194,44,170,45,14,32,178,44,09,30,113,45,11,25,279,37,8*5B
$GPGSV,3,3,10,04,21,079,26,03,14,038,25,8*6B
$GLGSV,2,1,08,67,48,073,43,68,42,153,44,82,37,028,42,83,31,333,30,1*79
$GLGSV,2,2,08,80,30,236,39,73,23,297,28,66,11,031,22,79,06,189,,1*7F
$GAGSV,3,1,09,24,55,251,38,10,49,326,35,12,49,008,38,31,33,183,38,7*70
$GAGSV,3,2,09,11,33,294,30,19,29,092,32,04,23,157,39,25,23,311,33,7*77
$GAGSV,3,3,09,33,17,059,33,7*40
$GAGSV,3,1,09,24,55,251,41,12,49,008,42,10,49,326,40,11,33,294,32,1*7A
$GAGSV,3,2,09,31,33,183,43,19,29,092,37,04,23,157,42,25,23,311,34,1*7C
$GAGSV,3,3,09,33,17,059,34,1*41
$GBGSV,4,1,14,40,84,099,42,07,83,263,40,10,72,298,41,14,61,096,42,1*7E
$GBGSV,4,2,14,08,59,262,35,33,58,155,44,43,54,045,44,13,49,252,38,1*7B
$GBGSV,4,3,14,42,43,060,42,11,35,073,44,28,34,319,36,23,22,225,,1*70
$GBGSV,4,4,14,37,18,279,29,41,16,197,,1*74
$GBGSV,2,1,07,40,84,099,45,33,58,155,46,43,54,045,43,42,43,060,45,4*76
$GBGSV,2,2,07,28,34,319,36,37,18,279,25,41,16,197,18,4*45
$GNGGA,033215.000,2500.8164730,N,12132.4426900,E,4,65,0.42,17.647,M,15.25,M,3,3335*47
$GNRMC,033215.000,A,2500.8164730,N,12132.4426900,E,0.00,227.48,270623,,,R,V*10
$GPHDT,226.990,T*33
$GNGGA,033215.200,2500.8164719,N,12132.4426928,E,4,65,0.42,17.636,M,15.25,M,3,3335*42
$GNRMC,033215.200,A,2500.8164719,N,12132.4426928,E,0.00,227.48,270623,,,R,V*13
$GPHDT,227.158,T*3E
$GNGGA,033215.400,2500.8164725,N,12132.4426903,E,4,65,0.42,17.628,M,15.25,M,3,3335*4D
$GNRMC,033215.400,A,2500.8164725,N,12132.4426903,E,0.01,227.48,270623,,,R,V*12
$GPHDT,227.220,T*32
$GNGGA,033215.600,2500.8164730,N,12132.4426907,E,4,65,0.42,17.625,M,15.25,M,3,3335*42
$GNRMC,033215.600,A,2500.8164730,N,12132.4426907,E,0.00,227.48,270623,,,R,V*11
$GPHDT,226.853,T*3D
$GNGGA,033215.800,2500.8164625,N,12132.4426880,E,4,65,0.42,17.724,M,15.25,M,3,3335*47
$GNRMC,033215.800,A,2500.8164625,N,12132.4426880,E,0.00,227.48,270623,,,R,V*14
$GPHDT,227.442,T*30
$GNGSA,A,3,195,17,196,19,199,06,194,14,09,11,04,03,0.81,0.42,0.69,1*0C
$GNGSA,A,3,67,68,82,83,80,73,66,,,,,,0.81,0.42,0.69,2*00
$GNGSA,A,3,24,10,12,31,11,19,04,25,33,,,,0.81,0.42,0.69,3*0E
$GNGSA,A,3,40,07,10,14,08,33,43,13,42,11,28,37,0.81,0.42,0.69,4*06
$GNGSA,A,3,41,,,,,,,,,,,,0.81,0.42,0.69,4*01
$GPGSV,4,1,15,195,67,041,39,17,64,060,41,196,62,130,38,19,62,007,40,1*6D
$GPGSV,4,2,15,199,60,167,38,06,50,330,40,194,44,170,41,41,38,242,41,1*6D
$GPGSV,4,3,15,14,32,178,42,09,30,113,40,11,25,279,30,20,23,226,17,1*6D
$GPGSV,4,4,15,04,21,079,33,03,14,038,14,12,08,321,17,1*5C
$GPGSV,3,1,10,195,67,041,45,196,62,130,46,199,60,167,46,06,50,330,43,8*5D
$GPGSV,3,2,10,194,44,170,45,14,32,178,43,09,30,113,45,11,25,279,36,8*5D
$GPGSV,3,3,10,04,21,079,26,03,14,038,26,8*68
$GLGSV,2,1,08,67,48,073,43,68,42,153,44,82,37,028,42,83,31,333,30,1*79
$GLGSV,2,2,08,80,30,236,39,73,23,297,29,66,11,031,23,79,06,189,,1*7F
$GAGSV,3,1,09,24,55,251,38,10,49,326,34,12,49,008,38,31,33,183,38,7*71
$GAGSV,3,2,09,11,33,294,31,19,29,092,32,04,23,157,39,25,23,311,33,7*76
$GAGSV,3,3,09,33,17,059,32,7*41
$GAGSV,3,1,09,24,55,251,41,12,49,008,42,10,49,326,40,11,33,294,32,1*7A
$GAGSV,3,2,09,31,33,183,42,19,29,092,37,04,23,157,41,25,23,311,34,1*7E
$GAGSV,3,3,09,33,17,059,34,1*41
$GBGSV,4,1,14,40,84,099,42,07,83,263,41,10,72,298,41,14,61,096,42,1*7F
$GBGSV,4,2,14,08,59,262,35,33,58,155,44,43,54,045,44,13,49,252,38,1*7B
$GBGSV,4,3,14,42,43,060,42,11,35,073,44,28,34,319,35,23,22,225,,1*73
$GBGSV,4,4,14,37,18,279,30,41,16,197,,1*7C
$GBGSV,2,1,07,40,84,099,45,33,58,155,46,43,54,045,43,42,43,060,45,4*76
$GBGSV,2,2,07,28,34,319,35,37,18,279,21,41,16,197,18,4*42
$GNGGA,033216.000,2500.8164606,N,12132.4426876,E,4,65,0.42,17.747,M,15.25,M,4,3335*46
$GNRMC,033216.000,A,2500.8164606,N,12132.4426876,E,0.00,227.48,270623,,,R,V*17
$GPHDT,227.765,T*36
$GNGGA,033216.200,2500.8164571,N,12132.4426826,E,4,65,0.42,17.754,M,15.25,M,4,3335*40
$GNRMC,033216.200,A,2500.8164571,N,12132.4426826,E,0.00,227.48,270623,,,R,V*13
$GPHDT,227.196,T*3C
$GNGGA,033216.400,2500.8164605,N,12132.4426837,E,4,65,0.42,17.761,M,15.25,M,4,3335*40
$GNRMC,033216.400,A,2500.8164605,N,12132.4426837,E,0.00,227.48,270623,,,R,V*15
$GPHDT,226.868,T*35
$GNGGA,033216.600,2500.8164585,N,12132.4426795,E,4,65,0.42,17.769,M,15.25,M,4,3335*46
$GNRMC,033216.600,A,2500.8164585,N,12132.4426795,E,0.00,227.48,270623,,,R,V*1B
$GPHDT,226.974,T*39
$GNGGA,033216.800,2500.8164595,N,12132.4426821,E,4,65,0.42,17.798,M,15.25,M,4,3335*47
$GNRMC,033216.800,A,2500.8164595,N,12132.4426821,E,0.00,227.48,270623,,,R,V*14
$GPHDT,227.057,T*30
$GNGSA,A,3,195,17,196,19,199,06,194,14,09,11,04,03,0.81,0.42,0.69,1*0C
$GNGSA,A,3,67,68,82,83,80,73,66,,,,,,0.81,0.42,0.69,2*00
$GNGSA,A,3,24,10,12,31,11,19,04,25,33,,,,0.81,0.42,0.69,3*0E
$GNGSA,A,3,40,07,10,14,08,33,43,13,42,11,28,37,0.81,0.42,0.69,4*06
$GNGSA,A,3,41,,,,,,,,,,,,0.81,0.42,0.69,4*01
$GPGSV,4,1,15,195,67,041,38,17,64,060,41,196,62,130,38,19,62,007,40,1*6C
$GPGSV,4,2,15,199,60,167,38,06,50,330,40,194,44,170,41,41,38,242,41,1*6D
$GPGSV,4,3,15,14,32,178,42,09,30,113,40,11,25,279,30,20,23,226,18,1*62
$GPGSV,4,4,15,04,21,079,33,03,14,038,12,12,09,321,16,1*5A
$GPGSV,3,1,10,195,67,041,45,196,62,130,46,199,60,167,46,06,50,330,43,8*5D
$GPGSV,3,2,10,194,44,170,45,14,32,178,43,09,30,113,45,11,25,279,36,8*5D
$GPGSV,3,3,10,04,21,079,25,03,14,038,26,8*6B
$GLGSV,2,1,08,67,48,073,43,68,42,153,44,82,37,028,42,83,31,333,29,1*71
$GLGSV,2,2,08,80,30,236,39,73,23,297,28,66,11,031,22,79,06,189,,1*7F
$GAGSV,3,1,09,24,55,251,38,10,49,326,35,12,49,008,38,31,33,183,38,7*70
$GAGSV,3,2,09,11,33,294,31,19,29,092,32,04,23,157,39,25,23,311,33,7*76
$GAGSV,3,3,09,33,17,059,32,7*41
$GAGSV,3,1,09,24,55,251,41,12,49,008,42,10,49,326,40,11,33,294,31,1*79
$GAGSV,3,2,09,31,33,183,42,19,29,092,37,04,23,157,41,25,23,311,34,1*7E
$GAGSV,3,3,09,33,17,059,34,1*41
$GBGSV,4,1,14,40,84,099,42,07,83,263,41,10,72,298,41,14,61,096,42,1*7F
$GBGSV,4,2,14,08,59,262,35,33,58,155,44,43,54,045,44,13,49,252,38,1*7B
$GBGSV,4,3,14,42,43,060,42,11,35,073,44,28,34,319,35,23,22,225,,1*73
$GBGSV,4,4,14,37,18,279,28,41,16,197,,1*75
$GBGSV,2,1,07,40,84,099,45,33,58,155,46,43,54,045,43,42,43,060,45,4*76
$GBGSV,2,2,07,28,34,319,35,37,18,279,21,41,16,197,19,4*43
$GNGGA,033217.000,2500.8164604,N,12132.4426813,E,4,65,0.42,17.769,M,15.25,M,5,3335*4B
$GNRMC,033217.000,A,2500.8164604,N,12132.4426813,E,0.00,227.48,270623,,,R,V*17
$GPHDT,227.139,T*39
$GNGGA,033217.200,2500.8164584,N,12132.4426847,E,4,65,0.42,17.765,M,15.25,M,5,3335*4F
$GNRMC,033217.200,A,2500.8164584,N,12132.4426847,E,0.00,227.48,270623,,,R,V*1F
$GPHDT,227.174,T*30
$GNGGA,033217.400,2500.8164595,N,12132.4426842,E,4,65,0.42,17.782,M,15.25,M,5,3335*45
$GNRMC,033217.400,A,2500.8164595,N,12132.4426842,E,0.00,227.48,270623,,,R,V*1C
$GPHDT,226.948,T*36
$GNGGA,033217.600,2500.8164606,N,12132.4426833,E,4,65,0.42,17.797,M,15.25,M,5,3335*4C
$GNRMC,033217.600,A,2500.8164606,N,12132.4426833,E,0.00,227.48,270623,,,R,V*11
$GPHDT,227.195,T*3F
$GNGGA,033217.800,2500.8164603,N,12132.4426819,E,4,65,0.42,17.797,M,15.25,M,5,3335*4F
$GNRMC,033217.800,A,2500.8164603,N,12132.4426819,E,0.00,227.48,270623,,,R,V*12
$GPHDT,227.005,T*37
$GNGSA,A,3,195,17,196,19,199,06,194,14,09,11,04,03,0.81,0.42,0.69,1*0C
$GNGSA,A,3,67,68,82,83,80,73,66,,,,,,0.81,0.42,0.69,2*00
$GNGSA,A,3,24,12,10,31,11,19,04,25,33,,,,0.81,0.42,0.69,3*0E
$GNGSA,A,3,40,07,10,14,08,33,43,13,42,11,28,37,0.81,0.42,0.69,4*06
$GNGSA,A,3,41,,,,,,,,,,,,0.81,0.42,0.69,4*01
$GPGSV,4,1,15,195,67,041,39,17,64,060,41,196,62,130,38,19,62,007,40,1*6D
$GPGSV,4,2,15,199,60,167,37,06,50,330,40,194,44,170,41,41,38,242,41,1*62
$GPGSV,4,3,15,14,32,178,42,09,30,113,41,11,25,279,27,20,23,226,16,1*6B
$GPGSV,4,4,15,04,21,079,31,03,14,038,11,12,09,321,17,1*5A
$GPGSV,3,1,10,195,67,041,45,196,62,130,46,199,60,167,46,06,50,330,43,8*5D
$GPGSV,3,2,10,194,44,170,45,14,32,178,44,09,30,113,45,11,25,279,37,8*5B
$GPGSV,3,3,10,04,21,079,25,03,14,038,27,8*6A
$GLGSV,3,1,09,67,48,073,43,68,42,153,44,82,37,028,42,83,31,333,29,1*71
$GLGSV,3,2,09,80,30,236,39,73,23,297,27,66,11,031,21,79,06,189,,1*73
$GLGSV,3,3,09,69,04,186,,1*45
$GAGSV,3,1,09,24,55,251,38,12,49,008,38,10,49,326,36,31,33,183,38,7*73
$GAGSV,3,2,09,11,33,294,30,19,29,092,32,04,23,157,40,25,23,311,33,7*79
$GAGSV,3,3,09,33,17,059,34,7*47
$GAGSV,3,1,09,24,55,251,41,12,49,008,42,10,49,326,40,11,33,294,31,1*79
$GAGSV,3,2,09,31,33,183,42,19,29,092,37,04,23,157,40,25,23,311,34,1*7F
$GAGSV,3,3,09,33,17,059,34,1*41
$GBGSV,4,1,14,40,84,099,42,07,83,263,40,10,72,298,41,14,61,096,42,1*7E
$GBGSV,4,2,14,08,59,262,35,33,58,155,44,43,54,045,44,13,49,252,38,1*7B
$GBGSV,4,3,14,42,43,060,42,11,35,073,44,28,34,319,35,23,22,225,24,1*75
$GBGSV,4,4,14,37,18,279,28,41,16,197,,1*75
$GBGSV,2,1,07,40,84,099,45,33,58,155,46,43,54,045,43,42,43,060,45,4*76
$GBGSV,2,2,07,28,34,319,35,37,18,279,21,41,16,197,19,4*43
$GNGGA,033218.000,2500.8164619,N,12132.4426886,E,4,65,0.42,17.795,M,15.25,M,6,3335*44
$GNRMC,033218.000,A,2500.8164619,N,12132.4426886,E,0.00,227.48,270623,,,R,V*18
$GPHDT,227.080,T*3A
$GNGGA,033218.200,2500.8164596,N,12132.4426880,E,4,65,0.42,17.802,M,15.25,M,5,3335*46
$GNRMC,033218.200,A,2500.8164596,N,12132.4426880,E,0.00,227.48,270623,,,R,V*18
$GPHDT,227.279,T*3E
$GNGGA,033218.400,2500.8164604,N,12132.4426861,E,4,65,0.42,17.811,M,15.25,M,5,3335*45
$GNRMC,033218.400,A,2500.8164604,N,12132.4426861,E,0.00,227.48,270623,,,R,V*19
$GPHDT,226.894,T*36
$GNGGA,033218.600,2500.8164597,N,12132.4426830,E,4,65,0.42,17.778,M,15.25,M,3,3335*4C
$GNRMC,033218.600,A,2500.8164597,N,12132.4426830,E,0.00,227.48,270623,,,R,V*16
$GPHDT,226.947,T*39
$GNGGA,033218.800,2500.8164550,N,12132.4426925,E,4,65,0.42,17.775,M,15.25,M,1,3335*43
$GNRMC,033218.800,A,2500.8164550,N,12132.4426925,E,0.00,227.48,270623,,,R,V*16
$GPHDT,227.039,T*38
$GNGSA,A,3,195,17,196,19,199,06,194,14,09,11,04,03,0.81,0.42,0.69,1*0C
$GNGSA,A,3,67,68,82,83,80,73,66,,,,,,0.81,0.42,0.69,2*00
$GNGSA,A,3,24,10,12,31,11,19,04,25,33,,,,0.81,0.42,0.69,3*0E
$GNGSA,A,3,40,07,10,14,08,33,43,13,42,11,28,37,0.81,0.42,0.69,4*06
$GNGSA,A,3,41,,,,,,,,,,,,0.81,0.42,0.69,4*01
$GPGSV,4,1,15,195,67,041,39,17,64,060,41,196,62,130,38,19,62,007,40,1*6D
$GPGSV,4,2,15,199,60,167,37,06,50,330,40,194,44,170,41,41,38,242,41,1*62
$GPGSV,4,3,15,14,32,178,42,09,30,113,41,11,25,279,26,20,24,226,15,1*6E
$GPGSV,4,4,15,04,21,079,31,03,14,038,15,12,09,321,17,1*5E
$GPGSV,3,1,10,195,67,041,45,196,62,130,46,199,60,167,46,06,50,330,43,8*5D
$GPGSV,3,2,10,194,44,170,45,14,32,178,44,09,30,113,45,11,25,279,37,8*5B
$GPGSV,3,3,10,04,21,079,24,03,14,038,27,8*6B
$GLGSV,2,1,08,67,48,073,43,68,42,153,44,82,37,028,42,83,31,333,29,1*71
$GLGSV,2,2,08,80,30,236,39,73,23,297,27,66,11,031,20,79,06,189,,1*72
$GAGSV,3,1,09,24,55,251,38,10,49,326,36,12,49,008,38,31,33,183,38,7*73
$GAGSV,3,2,09,11,33,294,30,19,29,092,32,04,23,157,40,25,23,311,33,7*79
$GAGSV,3,3,09,33,17,059,34,7*47
$GAGSV,3,1,09,24,55,251,41,12,49,008,42,10,49,326,40,11,33,294,32,1*7A
$GAGSV,3,2,09,31,33,183,42,19,29,092,37,04,23,157,40,25,23,311,34,1*7F
$GAGSV,3,3,09,33,17,059,34,1*41
$GBGSV,4,1,15,40,84,099,42,07,83,263,40,10,72,298,41,14,61,096,42,1*7F
$GBGSV,4,2,15,08,59,262,34,33,58,155,44,43,54,045,44,13,49,252,39,1*7A
$GBGSV,4,3,15,42,43,060,42,11,35,073,44,28,34,319,35,23,22,225,24,1*74
$GBGSV,4,4,15,37,18,279,28,41,16,197,,25,05,181,,1*4E
$GBGSV,2,1,07,40,84,099,45,33,58,155,47,43,54,045,43,42,43,060,45,4*77
$GBGSV,2,2,07,28,34,319,35,37,18,279,23,41,16,197,20,4*4B
$GNGGA,033219.000,2500.8164572,N,12132.4426831,E,4,65,0.42,17.767,M,15.25,M,1,3335*4D
$GNRMC,033219.000,A,2500.8164572,N,12132.4426831,E,0.00,227.48,270623,,,R,V*1B
$GPHDT,227.131,T*31
$GNGGA,033219.200,2500.8164595,N,12132.4426792,E,4,65,0.42,17.785,M,15.25,M,1,3335*4C
$GNRMC,033219.200,A,2500.8164595,N,12132.4426792,E,0.00,227.48,270623,,,R,V*16
$GPHDT,227.015,T*36
$GNGGA,033219.400,2500.8164563,N,12132.4426792,E,4,65,0.42,17.766,M,15.25,M,1,3335*4E
$GNRMC,033219.400,A,2500.8164563,N,12132.4426792,E,0.00,227.48,270623,,,R,V*19
$GPHDT,227.154,T*32
$GNGGA,033219.600,2500.8164577,N,12132.4426833,E,4,65,0.42,17.760,M,15.25,M,0,3335*4A
$GNRMC,033219.600,A,2500.8164577,N,12132.4426833,E,0.00,227.48,270623,,,R,V*1A
$GPHDT,227.290,T*39
$GNGGA,033219.800,2500.8164602,N,12132.4426823,E,4,65,0.42,17.765,M,15.25,M,0,3335*41
$GNRMC,033219.800,A,2500.8164602,N,12132.4426823,E,0.00,227.48,270623,,,R,V*14
$GPHDT,227.282,T*3A
$GNGSA,A,3,195,17,196,19,199,06,194,14,09,11,04,03,0.81,0.42,0.69,1*0C
$GNGSA,A,3,67,68,82,83,80,73,66,,,,,,0.81,0.42,0.69,2*00
$GNGSA,A,3,24,10,12,31,11,19,04,25,33,,,,0.81,0.42,0.69,3*0E
$GNGSA,A,3,40,07,10,14,08,33,43,13,42,11,28,37,0.81,0.42,0.69,4*06
$GNGSA,A,3,41,,,,,,,,,,,,0.81,0.42,0.69,4*01
$GPGSV,4,1,15,195,67,041,39,17,64,060,41,196,62,130,39,19,62,007,40,1*6C
$GPGSV,4,2,15,199,60,167,37,06,50,330,40,194,44,170,41,41,38,242,41,1*62
$GPGSV,4,3,15,14,32,178,42,09,30,113,41,11,25,279,30,20,24,226,15,1*69
$GPGSV,4,4,15,04,21,079,32,03,14,038,16,12,09,321,17,1*5E
$GPGSV,3,1,10,195,67,041,45,196,62,130,46,199,60,167,46,06,50,330,43,8*5D
$GPGSV,3,2,10,194,44,170,45,14,32,178,44,09,30,113,45,11,25,279,37,8*5B
$GPGSV,3,3,10,04,21,079,22,03,14,038,27,8*6D
$GLGSV,2,1,08,67,48,073,43,68,42,153,44,82,37,028,42,83,31,333,29,1*71
$GLGSV,2,2,08,80,30,236,39,73,23,297,26,66,11,031,20,79,06,189,,1*73
$GAGSV,3,1,09,24,55,251,38,10,49,326,36,12,49,008,38,31,33,183,37,7*7C
$GAGSV,3,2,09,11,33,294,32,19,29,092,32,04,23,157,40,25,23,311,33,7*7B
$GAGSV,3,3,09,33,17,059,34,7*47
$GAGSV,3,1,09,24,55,251,41,12,49,008,42,10,49,326,40,11,33,294,32,1*7A
$GAGSV,3,2,09,31,33,183,43,19,29,092,37,04,23,157,40,25,23,311,34,1*7E
$GAGSV,3,3,09,33,17,059,34,1*41
$GBGSV,4,1,15,40,84,099,42,07,83,263,40,10,72,298,41,14,61,096,42,1*7F
$GBGSV,4,2,15,08,59,262,34,33,58,155,44,43,54,045,44,13,49,252,39,1*7A
$GBGSV,4,3,15,42,43,060,42,11,35,073,44,28,34,319,35,23,22,225,24,1*74
$GBGSV,4,4,15,37,18,279,27,41,16,197,,06,01,190,,1*44
$GBGSV,2,1,07,40,84,099,45,33,58,155,47,43,54,045,43,42,43,060,45,4*77
$GBGSV,2,2,07,28,34,319,35,37,18,279,20,41,16,197,20,4*48
$GNGGA,033220.000,2500.8164616,N,12132.4426855,E,4,65,0.42,17.744,M,15.25,M,1,3335*45
$GNRMC,033220.000,A,2500.8164616,N,12132.4426855,E,0.00,227.48,270623,,,R,V*12
$GPHDT,227.288,T*30
$GNGGA,033220.200,2500.8164617,N,12132.