$FW : RTK35X,V1.1X0314AS,Lib20210517,1*54
$Tool : LOCOSYS , GNSS Firebird , v1.0.0.19*39
$---------------------------------------------------*2D
$GPHDT,6.537,T*32
$GNGGA,033040.800,2500.8164738,N,12132.4426788,E,4,64,0.44,17.651,M,15.25,M,1,3335*49
$GNRMC,033040.800,A,2500.8164738,N,12132.4426788,E,0.02,227.48,270623,,,R,V*1E
$GPHDT,6.622,T*35
$GNGSA,A,3,195,17,196,19,199,06,194,14,09,11,04,03,0.74,0.44,0.59,1*03
$GNGSA,A,3,67,68,82,83,80,73,66,,,,,,0.74,0.44,0.59,2*0F
$GNGSA,A,3,24,12,10,31,11,19,04,25,33,,,,0.74,0.44,0.59,3*01
$GNGSA,A,3,40,07,10,14,08,33,43,13,42,11,28,37,0.74,0.44,0.59,4*09
$GPGSV,4,1,15,195,67,041,41,17,64,058,42,196,61,130,36,19,61,006,41,1*64
$GPGSV,4,2,15,199,60,167,36,06,50,329,44,194,44,170,43,41,38,242,41,1*6D
$GPGSV,4,3,15,14,32,178,43,09,30,113,29,11,24,278,40,20,23,226,21,1*61
$GPGSV,4,4,15,04,21,080,31,03,15,038,27,12,08,321,,1*5F
$GPGSV,3,1,10,195,67,041,45,196,61,130,43,199,60,167,45,06,50,329,45,8*56
$GPGSV,3,2,10,194,44,170,45,14,32,178,44,09,30,113,28,11,24,278,48,8*58
$GPGSV,3,3,10,04,21,080,25,03,15,038,23,8*69
$GLGSV,2,1,08,67,48,074,40,68,41,153,43,82,37,027,46,83,31,332,32,1*71
$GLGSV,2,2,08,80,30,237,37,73,23,298,37,66,11,031,25,79,06,190,,1*7E
$GAGSV,3,1,09,24,55,252,40,12,50,007,37,10,48,325,40,31,33,183,41,7*7A
$GAGSV,3,2,09,11,33,293,35,19,29,093,31,04,23,157,40,25,22,312,36,7*7E
$GAGSV,3,3,09,33,17,059,33,7*40
$GAGSV,3,1,09,24,55,252,45,12,50,007,43,10,48,325,44,31,33,183,40,1*7F
$GAGSV,3,2,09,11,33,293,40,19,29,093,30,04,23,157,39,25,22,312,34,1*77
$GAGSV,3,3,09,33,17,059,17,1*40
$GBGSV,4,1,14,40,84,096,41,07,83,266,38,10,72,299,40,14,61,098,41,1*75
$GBGSV,4,2,14,08,59,262,39,33,57,156,42,43,54,044,43,13,49,251,41,1*76
$GBGSV,4,3,14,42,44,061,43,11,35,073,36,28,34,319,45,23,23,226,,1*74
$GBGSV,4,4,14,37,18,279,30,41,16,197,21,1*7F
$GBGSV,2,1,06,40,84,096,45,33,57,156,44,43,54,044,43,42,44,061,42,4*76
$GBGSV,2,2,06,28,34,319,42,37,18,279,36,4*71
$GNGGA,033041.000,2500.8164738,N,12132.4426802,E,4,64,0.44,17.644,M,15.25,M,2,3335*4A
$GNRMC,033041.000,A,2500.8164738,N,12132.4426802,E,0.02,227.48,270623,,,R,V*1A
$GPHDT,6.656,T*36
$GNGGA,033041.200,2500.8164713,N,12132.4426815,E,4,65,0.44,17.638,M,15.25,M,2,3335*4D
$GNRMC,033041.200,A,2500.8164713,N,12132.4426815,E,0.01,227.48,270623,,,R,V*14
$GPHDT,6.516,T*31
$GNGGA,033041.400,2500.8164763,N,12132.4426786,E,4,65,0.44,17.647,M,15.25,M,2,3335*41
$GNRMC,033041.400,A,2500.8164763,N,12132.4426786,E,0.01,227.48,270623,,,R,V*10
$GPHDT,6.689,T*34
$GNGGA,033041.600,2500.8164741,N,12132.4426794,E,4,65,0.44,17.658,M,15.25,M,2,3335*4E
$GNRMC,033041.600,A,2500.8164741,N,12132.4426794,E,0.00,227.48,270623,,,R,V*10
$GPHDT,6.602,T*37
$GNGGA,033041.800,2500.8164731,N,12132.4426780,E,4,65,0.44,17.659,M,15.25,M,2,3335*43
$GNRMC,033041.800,A,2500.8164731,N,12132.4426780,E,0.01,227.48,270623,,,R,V*1D
$GPHDT,6.568,T*38
$GNGSA,A,3,195,17,196,19,199,06,194,14,09,11,04,03,0.74,0.44,0.59,1*03
$GNGSA,A,3,67,68,82,83,80,73,66,,,,,,0.74,0.44,0.59,2*0F
$GNGSA,A,3,24,12,10,31,11,19,04,25,33,,,,0.74,0.44,0.59,3*01
$GNGSA,A,3,40,07,10,14,08,33,43,13,42,11,28,37,0.74,0.44,0.59,4*09
$GPGSV,4,1,15,195,67,041,41,17,64,058,42,196,61,130,36,19,61,006,41,1*64
$GPGSV,4,2,15,199,60,167,37,06,50,329,44,194,44,170,43,41,38,242,41,1*6C
$GPGSV,4,3,15,14,32,178,42,09,30,113,29,11,24,278,40,20,23,226,20,1*61
$GPGSV,4,4,15,04,21,080,28,03,15,038,27,12,08,321,,1*57
$GPGSV,3,1,10,195,67,041,46,196,61,130,44,199,60,167,45,06,50,329,46,8*51
$GPGSV,3,2,10,194,44,170,46,14,32,178,44,09,30,113,28,11,24,278,49,8*5A
$GPGSV,3,3,10,04,21,080,26,03,15,038,22,8*6B
$GLGSV,2,1,08,67,48,074,40,68,41,153,43,82,37,027,46,83,31,332,32,1*71
$GLGSV,2,2,08,80,30,237,37,73,23,298,37,66,11,031,26,79,06,190,,1*7D
$GAGSV,3,1,09,24,55,252,40,12,50,007,36,10,48,325,40,31,33,183,41,7*7B
$GAGSV,3,2,09,11,33,293,36,19,29,093,31,04,23,157,40,25,22,312,36,7*7D
$GAGSV,3,3,09,33,17,059,32,7*41
$GAGSV,3,1,09,24,55,252,45,12,50,007,43,10,48,325,45,31,33,183,41,1*7F
$GAGSV,3,2,09,11,33,293,40,19,29,093,30,04,23,157,39,25,22,312,35,1*76
$GAGSV,3,3,09,33,17,059,16,1*41
$GBGSV,4,1,14,40,84,096,41,07,83,266,38,10,72,299,40,14,61,098,41,1*75
$GBGSV,4,2,14,08,59,262,39,33,57,156,42,43,54,044,43,13,49,251,41,1*76
$GBGSV,4,3,14,42,44,061,43,11,35,073,36,28,34,319,44,23,23,226,,1*75
$GBGSV,4,4,14,37,18,279,31,41,16,197,21,1*7E
$GBGSV,2,1,06,40,84,096,45,33,57,156,44,43,54,044,43,42,44,061,42,4*76
$GBGSV,2,2,06,28,34,319,43,37,18,279,36,4*70
$GNGGA,033042.000,2500.8164728,N,12132.4426816,E,4,65,0.44,17.645,M,15.25,M,3,3335*4C
$GNRMC,033042.000,A,2500.8164728,N,12132.4426816,E,0.02,227.48,270623,,,R,V*1D
$GPHDT,6.348,T*3C
$GNGGA,033042.200,2500.8164772,N,12132.4426802,E,4,65,0.44,17.650,M,15.25,M,3,3335*40
$GNRMC,033042.200,A,2500.8164772,N,12132.4426802,E,0.01,227.48,270623,,,R,V*16
$GPHDT,6.611,T*35
$GNGGA,033042.400,2500.8164776,N,12132.4426796,E,4,65,0.44,17.657,M,15.25,M,3,3335*47
$GNRMC,033042.400,A,2500.8164776,N,12132.4426796,E,0.02,227.48,270623,,,R,V*15
$GPHDT,6.514,T*33
$GNGGA,033042.600,2500.8164743,N,12132.4426821,E,4,65,0.44,17.652,M,15.25,M,3,3335*45
$GNRMC,033042.600,A,2500.8164743,N,12132.4426821,E,0.02,227.48,270623,,,R,V*12
$GPHDT,6.332,T*31
$GNGGA,033042.800,2500.8164746,N,12132.4426790,E,4,64,0.44,17.646,M,15.25,M,2,3335*4E
$GNRMC,033042.800,A,2500.8164746,N,12132.4426790,E,0.00,227.48,270623,,,R,V*1E
$GPHDT,6.411,T*37
$GNGSA,A,3,195,17,196,19,199,06,194,14,09,11,04,03,0.74,0.44,0.59,1*03
$GNGSA,A,3,67,68,82,83,80,73,66,,,,,,0.74,0.44,0.59,2*0F
$GNGSA,A,3,24,12,10,31,11,19,04,25,33,,,,0.74,0.44,0.59,3*01
$GNGSA,A,3,40,07,10,14,08,33,43,13,42,11,28,37,0.74,0.44,0.59,4*09
$GPGSV,4,1,15,195,67,041,41,17,64,058,42,196,61,130,36,19,61,006,41,1*64
$GPGSV,4,2,15,199,60,167,36,06,50,329,43,194,44,170,43,41,38,242,41,1*6A
$GPGSV,4,3,15,14,32,178,42,09,30,113,29,11,24,278,40,20,23,226,18,1*6A
$GPGSV,4,4,15,04,21,080,24,03,15,038,25,12,08,321,,1*59
$GPGSV,3,1,10,195,67,041,46,196,61,130,44,199,60,167,45,06,50,329,46,8*51
$GPGSV,3,2,10,194,44,170,46,14,32,178,44,09,30,113,28,11,24,278,49,8*5A
$GPGSV,3,3,10,04,21,080,24,03,15,038,19,8*61
$GLGSV,3,1,09,67,48,074,40,68,41,153,43,82,37,027,45,83,31,332,33,1*73
$GLGSV,3,2,09,80,30,237,37,73,23,298,37,66,11,031,27,79,06,190,,1*7C
$GLGSV,3,3,09,69,03,186,,1*42
$GAGSV,3,1,09,24,55,252,40,12,50,007,36,10,48,325,39,31,33,183,41,7*75
$GAGSV,3,2,09,11,33,293,36,19,29,093,31,04,23,157,40,25,22,312,36,7*7D
$GAGSV,3,3,09,33,17,059,32,7*41
$GAGSV,3,1,09,24,55,252,45,12,50,007,43,10,48,325,45,31,33,183,41,1*7F
$GAGSV,3,2,09,11,33,293,40,19,29,093,30,04,23,157,39,25,22,312,35,1*76
$GAGSV,3,3,09,33,17,059,16,1*41
$GBGSV,4,1,14,40,84,096,41,07,83,266,38,10,72,299,40,14,61,098,41,1*75
$GBGSV,4,2,14,08,59,262,39,33,57,156,42,43,54,044,43,13,49,251,41,1*76
$GBGSV,4,3,14,42,44,061,43,11,35,073,36,28,34,319,43,23,23,226,,1*72
$GBGSV,4,4,14,37,18,279,32,41,16,197,23,1*7F
$GBGSV,2,1,06,40,84,096,45,33,57,156,44,43,54,044,43,42,44,061,42,4*76
$GBGSV,2,2,06,28,34,319,43,37,18,279,35,4*73
$GNGGA,033043.000,2500.8164752,N,12132.4426800,E,4,65,0.44,17.645,M,15.25,M,3,3335*47
$GNRMC,033043.000,A,2500.8164752,N,12132.4426800,E,0.02,227.48,270623,,,R,V*16
$GPHDT,6.387,T*3F
$GNGGA,033043.200,2500.8164790,N,12132.4426758,E,4,64,0.44,17.639,M,15.25,M,1,3335*41
$GNRMC,033043.200,A,2500.8164790,N,12132.4426758,E,0.02,227.48,270623,,,R,V*18
$GPHDT,6.448,T*3B
$GNGGA,033043.400,2500.8164807,N,12132.4426746,E,4,64,0.44,17.654,M,15.25,M,1,3335*42
$GNRMC,033043.400,A,2500.8164807,N,12132.4426746,E,0.02,227.48,270623,,,R,V*10
$GPHDT,6.625,T*32
$GNGGA,033043.600,2500.8164815,N,12132.4426742,E,4,65,0.44,17.657,M,15.25,M,1,3335*45
$GNRMC,033043.600,A,2500.8164815,N,12132.4426742,E,0.02,227.48,270623,,,R,V*15
$GPHDT,6.587,T*39
$GNGGA,033043.800,2500.8164831,N,12132.4426735,E,4,65,0.44,17.662,M,15.25,M,1,3335*4B
$GNRMC,033043.800,A,2500.8164831,N,12132.4426735,E,0.02,227.48,270623,,,R,V*1D
$GPHDT,6.534,T*31
$GNGSA,A,3,195,17,196,19,199,06,194,14,09,11,04,03,0.74,0.44,0.59,1*03
$GNGSA,A,3,67,68,82,83,80,73,66,,,,,,0.74,0.44,0.59,2*0F
$GNGSA,A,3,24,12,10,31,11,19,04,25,33,,,,0.74,0.44,0.59,3*01
$GNGSA,A,3,40,07,10,14,08,33,43,13,42,11,28,37,0.74,0.44,0.59,4*09
$GPGSV,4,1,15,195,67,041,41,17,64,058,42,196,61,130,36,19,61,006,42,1*67
$GPGSV,4,2,15,199,60,167,37,06,50,329,43,194,44,170,43,41,38,242,41,1*6B
$GPGSV,4,3,15,14,32,178,42,09,30,113,31,11,24,278,40,20,23,226,19,1*62
$GPGSV,4,4,15,04,21,080,26,03,15,038,23,12,08,321,,1*5D
$GPGSV,3,1,10,195,67,041,46,196,61,130,44,199,60,167,45,06,50,329,46,8*51
$GPGSV,3,2,10,194,44,170,46,14,32,178,44,09,30,113,29,11,24,278,49,8*5B
$GPGSV,3,3,10,04,21,080,24,03,15,038,22,8*69
$GLGSV,2,1,08,67,48,074,39,68,41,153,43,82,37,027,45,83,31,332,33,1*7D
$GLGSV,2,2,08,80,30,237,37,73,23,298,37,66,11,031,26,79,06,190,,1*7D
$GAGSV,3,1,09,24,55,252,40,12,50,007,35,10,48,325,39,31,33,183,41,7*76
$GAGSV,3,2,09,11,33,293,36,19,29,093,31,04,23,157,40,25,22,312,35,7*7E
$GAGSV,3,3,09,33,17,059,32,7*41
$GAGSV,3,1,09,24,55,252,45,12,50,007,43,10,48,325,45,31,33,183,41,1*7F
$GAGSV,3,2,09,11,33,293,39,19,29,093,30,04,23,157,39,25,22,312,34,1*79
$GAGSV,3,3,09,33,17,059,13,1*44
$GBGSV,4,1,14,40,84,096,41,07,83,266,38,10,72,299,40,14,61,098,42,1*76
$GBGSV,4,2,14,08,59,262,39,33,57,156,41,43,54,044,43,13,49,251,41,1*75
$GBGSV,4,3,14,42,44,061,43,11,35,073,36,28,34,319,43,23,23,226,,1*72
$GBGSV,4,4,14,37,18,279,33,41,16,197,24,1*79
$GBGSV,2,1,06,40,84,096,45,33,57,156,44,43,54,044,43,42,44,061,42,4*76
$GBGSV,2,2,06,28,34,319,43,37,18,279,34,4*72
$GNGGA,033044.000,2500.8164849,N,12132.4426739,E,4,65,0.44,17.668,M,15.25,M,2,3335*4E
$GNRMC,033044.000,A,2500.8164849,N,12132.4426739,E,0.01,227.48,270623,,,R,V*12
$GPHDT,6.370,T*37
$GNGGA,033044.200,2500.8164834,N,12132.4426718,E,4,64,0.44,17.666,M,15.25,M,2,3335*4A
$GNRMC,033044.200,A,2500.8164834,N,12132.4426718,E,0.01,227.48,270623,,,R,V*19
$GPHDT,6.800,T*3B
$GNGGA,033044.400,2500.8164822,N,12132.4426744,E,4,64,0.44,17.672,M,15.25,M,2,3335*47
$GNRMC,033044.400,A,2500.8164822,N,12132.4426744,E,0.01,227.48,270623,,,R,V*11
$GPHDT,6.649,T*38
$GNGGA,033044.600,2500.8164837,N,12132.4426742,E,4,64,0.44,17.665,M,15.25,M,2,3335*41
$GNRMC,033044.600,A,2500.8164837,N,12132.4426742,E,0.02,227.48,270623,,,R,V*12
$GPHDT,6.677,T*35
$GNGGA,033044.800,2500.8164836,N,12132.4426755,E,4,63,0.44,17.665,M,15.25,M,2,3335*4F
$GNRMC,033044.800,A,2500.8164836,N,12132.4426755,E,0.01,227.48,270623,,,R,V*18
$GPHDT,6.547,T*35
$GNGSA,A,3,195,17,196,19,199,06,194,14,09,11,04,03,0.74,0.44,0.59,1*03
$GNGSA,A,3,67,68,82,83,80,73,66,,,,,,0.74,0.44,0.59,2*0F
$GNGSA,A,3,24,12,10,31,11,19,04,25,33,,,,0.74,0.44,0.59,3*01
$GNGSA,A,3,40,07,10,14,08,33,43,13,42,11,28,37,0.74,0.44,0.59,4*09
$GPGSV,4,1,15,195,67,041,41,17,64,058,42,196,61,130,36,19,61,006,42,1*67
$GPGSV,4,2,15,199,60,167,37,06,50,329,43,194,44,170,43,41,38,242,40,1*6A
$GPGSV,4,3,15,14,32,178,42,09,30,113,31,11,24,278,40,20,23,226,21,1*69
$GPGSV,4,4,15,04,21,080,25,03,15,038,24,12,08,321,,1*59
$GPGSV,3,1,09,195,67,041,46,196,61,130,44,199,60,167,45,06,50,329,46,8*59
$GPGSV,3,2,09,194,44,170,46,14,32,178,44,09,30,113,30,11,24,278,49,8*5B
$GPGSV,3,3,09,03,15,038,22,8*58
$GLGSV,2,1,08,67,48,074,39,68,41,153,43,82,37,027,45,83,31,332,32,1*7C
$GLGSV,2,2,08,80,30,237,37,73,23,298,38,66,11,031,26,79,06,190,,1*72
$GAGSV,3,1,09,24,55,252,40,12,50,007,35,10,48,325,41,31,33,183,41,7*79
$GAGSV,3,2,09,11,33,293,36,19,29,093,31,04,23,157,40,25,22,312,34,7*7F
$GAGSV,3,3,09,33,17,059,32,7*41
$GAGSV,3,1,09,24,55,252,45,12,50,007,43,10,48,325,45,11,33,293,38,1*71
$GAGSV,3,2,09,31,33,183,41,19,29,093,31,04,23,157,39,25,22,312,34,1*77
$GAGSV,3,3,09,33,17,059,14,1*43
$GBGSV,4,1,14,40,84,096,41,07,83,266,39,10,72,299,40,14,61,098,42,1*77
$GBGSV,4,2,14,08,59,262,39,33,57,156,41,43,54,044,43,13,49,251,41,1*75
$GBGSV,4,3,14,42,44,061,43,11,35,073,36,28,34,319,43,23,23,226,,1*72
$GBGSV,4,4,14,37,18,279,34,41,16,197,23,1*79
$GBGSV,2,1,06,40,84,096,45,33,57,156,44,43,54,044,43,42,44,061,42,4*76
$GBGSV,2,2,06,28,34,319,44,37,18,279,33,4*72
$GNGGA,033045.000,2500.8164864,N,12132.4426739,E,4,63,0.44,17.675,M,15.25,M,3,3335*4B
$GNRMC,033045.000,A,2500.8164864,N,12132.4426739,E,0.02,227.48,270623,,,R,V*1F
$GPHDT,6.446,T*35
$GNGGA,033045.200,2500.8164862,N,12132.4426736,E,4,63,0.44,17.676,M,15.25,M,3,3335*43
$GNRMC,033045.200,A,2500.8164862,N,12132.4426736,E,0.02,227.48,270623,,,R,V*14
$GPHDT,6.664,T*37
$GNGGA,033045.400,2500.8164856,N,12132.4426720,E,4,63,0.44,17.683,M,15.25,M,3,3335*4F
$GNRMC,033045.400,A,2500.8164856,N,12132.4426720,E,0.01,227.48,270623,,,R,V*11
$GPHDT,6.720,T*36
$GNGGA,033045.600,2500.8164862,N,12132.4426744,E,4,63,0.44,17.674,M,15.25,M,3,3335*40
$GNRMC,033045.600,A,2500.8164862,N,12132.4426744,E,0.03,227.48,270623,,,R,V*14
$GPHDT,6.723,T*35
$GNGGA,033045.800,2500.8164870,N,12132.4426752,E,4,63,0.44,17.677,M,15.25,M,3,3335*49
$GNRMC,033045.800,A,2500.8164870,N,12132.4426752,E,0.02,227.48,270623,,,R,V*1F
$GPHDT,6.491,T*3F
$GNGSA,A,3,195,17,196,19,199,06,194,14,09,11,04,03,0.74,0.44,0.59,1*03
$GNGSA,A,3,67,68,82,83,80,73,66,,,,,,0.74,0.44,0.59,2*0F
$GNGSA,A,3,24,12,10,31,11,19,04,25,33,,,,0.74,0.44,0.59,3*01
$GNGSA,A,3,40,07,10,14,08,33,43,13,42,11,28,37,0.74,0.44,0.59,4*09
$GPGSV,4,1,15,195,67,041,41,17,64,058,42,196,61,130,36,19,61,006,42,1*67
$GPGSV,4,2,15,199,60,167,37,06,50,329,43,194,44,170,43,41,38,242,40,1*6A
$GPGSV,4,3,15,14,32,178,42,09,30,113,29,11,24,278,40,20,23,226,18,1*6A
$GPGSV,4,4,15,04,21,080,27,03,15,038,25,12,08,321,,1*5A
$GPGSV,3,1,09,195,67,041,46,196,61,130,44,199,60,167,45,06,50,329,47,8*58
$GPGSV,3,2,09,194,44,170,46,14,32,178,45,09,30,113,31,11,24,278,49,8*5B
$GPGSV,3,3,09,03,15,038,24,8*5E
$GLGSV,2,1,08,67,48,074,39,68,41,153,43,82,37,027,45,83,31,332,32,1*7C
$GLGSV,2,2,08,80,30,237,38,73,23,298,38,66,11,031,25,79,06,190,,1*7E
$GAGSV,3,1,09,24,55,252,40,12,50,007,35,10,48,325,41,31,33,183,41,7*79
$GAGSV,3,2,09,11,33,293,36,19,29,093,31,04,23,157,40,25,22,312,34,7*7F
$GAGSV,3,3,09,33,17,059,32,7*41
$GAGSV,3,1,09,24,55,252,45,12,50,007,43,10,48,325,46,11,33,293,38,1*72
$GAGSV,3,2,09,31,33,183,41,19,29,093,31,04,23,157,39,25,22,312,35,1*76
$GAGSV,3,3,09,33,17,059,17,1*40
$GBGSV,4,1,15,40,84,096,41,07,83,266,39,10,72,299,40,14,61,098,43,1*77
$GBGSV,4,2,15,08,59,262,39,33,57,156,41,43,54,044,43,13,49,251,41,1*74
$GBGSV,4,3,15,42,44,061,43,11,35,073,35,28,34,319,42,23,23,226,,1*71
$GBGSV,4,4,15,37,18,279,34,41,16,197,23,39,02,180,,1*49
$GBGSV,2,1,06,40,84,096,45,33,57,156,44,43,54,044,43,42,44,061,43,4*77
$GBGSV,2,2,06,28,34,319,44,37,18,279,33,4*72
$GNGGA,033046.000,2500.8164771,N,12132.4426771,E,4,63,0.44,17.652,M,15.25,M,3,3335*4A
$GNRMC,033046.000,A,2500.8164771,N,12132.4426771,E,0.02,227.48,270623,,,R,V*1B
$GPHDT,6.358,T*3D
$GNGGA,033046.200,2500.8164767,N,12132.4426765,E,4,63,0.44,17.651,M,15.25,M,1,3335*4B
$GNRMC,033046.200,A,2500.8164767,N,12132.4426765,E,0.03,227.48,270623,,,R,V*1A
$GPHDT,6.542,T*30
$GNGGA,033046.400,2500.8164785,N,12132.4426752,E,4,63,0.44,17.653,M,15.25,M,1,3335*47
$GNRMC,033046.400,A,2500.8164785,N,12132.4426752,E,0.03,227.48,270623,,,R,V*14
$GPHDT,6.604,T*31
$GNGGA,033046.600,2500.8164760,N,12132.4426777,E,4,64,0.44,17.653,M,15.25,M,1,3335*4E
$GNRMC,033046.600,A,2500.8164760,N,12132.4426777,E,0.01,227.48,270623,,,R,V*18
$GPHDT,6.439,T*3D
$GNGGA,033046.800,2500.8164797,N,12132.4426736,E,4,63,0.44,17.660,M,15.25,M,1,3335*4A
$GNRMC,033046.800,A,2500.8164797,N,12132.4426736,E,0.01,227.48,270623,,,R,V*1B
$GPHDT,6.545,T*37
$GNGSA,A,3,195,17,196,19,199,06,194,14,09,11,04,03,0.74,0.44,0.59,1*03
$GNGSA,A,3,67,68,82,83,80,73,66,,,,,,0.74,0.44,0.59,2*0F
$GNGSA,A,3,24,12,10,31,11,19,04,25,33,,,,0.74,0.44,0.59,3*01
$GNGSA,A,3,40,07,10,14,08,33,43,13,42,11,28,37,0.74,0.44,0.59,4*09
$GPGSV,4,1,15,195,67,041,41,17,64,058,42,196,61,130,36,19,61,006,42,1*67
$GPGSV,4,2,15,199,60,167,37,06,50,329,42,194,44,170,43,41,38,242,40,1*6B
$GPGSV,4,3,15,14,32,178,42,09,30,113,30,11,24,278,40,20,23,226,18,1*62
$GPGSV,4,4,15,04,21,080,28,03,15,038,23,12,08,321,,1*53
$GPGSV,3,1,10,195,67,041,46,196,61,130,44,199,60,167,45,06,50,329,47,8*50
$GPGSV,3,2,10,194,44,170,46,14,32,178,45,09,30,113,31,11,24,278,49,8*53
$GPGSV,3,3,10,04,21,080,23,03,15,038,24,8*68
$GLGSV,2,1,08,67,48,074,39,68,41,153,43,82,37,027,45,83,31,332,32,1*7C
$GLGSV,2,2,08,80,30,237,39,73,23,298,38,66,11,031,26,79,06,190,,1*7C
$GAGSV,3,1,09,24,55,252,39,12,50,007,35,10,49,326,41,31,33,183,41,7*75
$GAGSV,3,2,09,11,33,293,36,19,29,093,31,04,23,157,40,25,22,312,34,7*7F
$GAGSV,3,3,09,33,17,059,31,7*42
$GAGSV,3,1,09,24,55,252,45,12,50,007,43,10,49,326,46,31,33,183,41,1*7E
$GAGSV,3,2,09,11,33,293,38,19,29,093,31,04,23,157,39,25,22,312,35,1*78
$GAGSV,3,3,09,33,17,059,15,1*42
$GBGSV,4,1,16,40,84,096,41,07,83,266,39,10,72,299,40,14,61,098,43,1*74
$GBGSV,4,2,16,08,59,262,39,33,57,156,41,43,54,044,44,13,49,251,41,1*70
$GBGSV,4,3,16,42,44,061,43,11,35,073,35,28,34,319,42,23,23,226,,1*72
$GBGSV,4,4,16,34,20,091,,37,18,279,34,41,16,197,23,21,01,035,,1*72
$GBGSV,2,1,06,40,84,096,45,33,57,156,44,43,54,044,43,42,44,061,43,4*77
$GBGSV,2,2,06,28,34,319,44,37,18,279,34,4*75
$GNGGA,033047.000,2500.8164802,N,12132.4426753,E,4,64,0.44,17.670,M,15.25,M,2,3335*46
$GNRMC,033047.000,A,2500.8164802,N,12132.4426753,E,0.01,227.48,270623,,,R,V*12
$GPHDT,6.440,T*33
$GNGGA,033047.200,2500.8164792,N,12132.4426757,E,4,63,0.45,17.663,M,15.25,M,2,3335*42
$GNRMC,033047.200,A,2500.8164792,N,12132.4426757,E,0.01,227.48,270623,,,R,V*12
$GPHDT,6.551,T*32
$GNGGA,033047.400,2500.8164816,N,12132.4426720,E,4,64,0.44,17.666,M,15.25,M,2,3335*44
$GNRMC,033047.400,A,2500.8164816,N,12132.4426720,E,0.01,227.48,270623,,,R,V*17
$GPHDT,6.633,T*35
$GNGGA,033047.600,2500.8164768,N,12132.4426771,E,4,63,0.44,17.658,M,15.25,M,2,3335*4E
$GNRMC,033047.600,A,2500.8164768,N,12132.4426771,E,0.01,227.48,270623,,,R,V*17
$GPHDT,6.475,T*35
$GNGGA,033047.800,2500.8164774,N,12132.4426755,E,4,62,0.44,17.670,M,15.25,M,2,3335*40
$GNRMC,033047.800,A,2500.8164774,N,12132.4426755,E,0.01,227.48,270623,,,R,V*12
$GPHDT,6.474,T*34
$GNGSA,A,3,195,17,196,19,199,06,194,14,09,11,04,03,0.85,0.44,0.73,1*05
$GNGSA,A,3,67,68,82,83,80,73,66,,,,,,0.85,0.44,0.73,2*09
$GNGSA,A,3,24,12,10,31,11,19,04,25,33,,,,0.85,0.44,0.73,3*07
$GNGSA,A,3,40,07,10,14,08,33,43,13,42,11,28,37,0.85,0.44,0.73,4*0F
$GPGSV,4,1,15,195,67,041,41,17,64,058,42,196,61,130,36,19,61,006,42,1*67
$GPGSV,4,2,15,199,60,167,37,06,50,329,42,194,44,170,43,41,38,242,40,1*6B
$GPGSV,4,3,15,14,32,178,42,09,30,113,30,11,24,278,40,20,23,226,18,1*62
$GPGSV,4,4,15,04,21,080,26,03,15,038,25,12,08,321,16,1*5C
$GPGSV,3,1,09,195,67,041,46,196,61,130,44,199,60,167,45,06,50,329,47,8*58
$GPGSV,3,2,09,194,44,170,46,14,32,178,45,09,30,113,30,11,24,278,48,8*5B
$GPGSV,3,3,09,03,15,038,24,8*5E
$GLGSV,3,1,09,67,48,074,39,68,41,153,43,82,37,027,45,83,31,332,32,1*7C
$GLGSV,3,2,09,80,30,237,39,73,23,298,38,66,11,031,26,79,06,190,,1*7C
$GLGSV,3,3,09,69,03,186,,1*42
$GAGSV,3,1,09,24,55,252,39,12,50,007,35,10,49,326,41,31,33,183,41,7*75
$GAGSV,3,2,09,11,33,293,37,19,29,093,32,04,23,157,40,25,22,312,34,7*7D
$GAGSV,3,3,09,33,17,059,31,7*42
$GAGSV,3,1,09,24,55,252,45,12,50,007,43,10,49,326,46,11,33,293,38,1*70
$GAGSV,3,2,09,31,33,183,41,19,29,093,30,04,23,157,39,25,22,312,35,1*77
$GAGSV,3,3,09,33,17,059,15,1*42
$GBGSV,4,1,14,40,84,096,41,07,83,266,39,10,72,299,40,14,61,098,43,1*76
$GBGSV,4,2,14,08,59,262,39,33,57,156,41,43,54,044,44,13,49,251,41,1*72
$GBGSV,4,3,14,42,44,061,43,11,35,073,35,28,34,319,41,23,23,226,,1*73
$GBGSV,4,4,14,37,18,279,34,41,16,197,23,1*79
$GBGSV,2,1,06,40,84,096,45,33,57,156,44,43,54,044,43,42,44,061,43,4*77
$GBGSV,2,2,06,28,34,319,44,37,18,279,34,4*75
$GNGGA,033048.000,2500.8164788,N,12132.4426737,E,4,63,0.44,17.664,M,15.25,M,3,3335*45
$GNRMC,033048.000,A,2500.8164788,N,12132.4426737,E,0.00,227.48,270623,,,R,V*13
$GPHDT,6.779,T*3A
$GNGGA,033048.200,2500.8164785,N,12132.4426772,E,4,63,0.44,17.656,M,15.25,M,3,3335*4A
$GNRMC,033048.200,A,2500.8164785,N,12132.4426772,E,0.00,227.48,270623,,,R,V*1D
$GPHDT,6.469,T*38
$GNGGA,033048.400,2500.8164786,N,12132.4426746,E,4,63,0.44,17.664,M,15.25,M,3,3335*49
$GNRMC,033048.400,A,2500.8164786,N,12132.4426746,E,0.00,227.48,270623,,,R,V*1F
$GPHDT,6.716,T*33
$GNGGA,033048.600,2500.8164795,N,12132.4426741,E,4,63,0.44,17.658,M,15.25,M,3,3335*41
$GNRMC,033048.600,A,2500.8164795,N,12132.4426741,E,0.00,227.48,270623,,,R,V*18
$GPHDT,6.744,T*34
$GNGGA,033048.800,2500.8164775,N,12132.4426757,E,4,63,0.44,17.656,M,15.25,M,3,3335*48
$GNRMC,033048.800,A,2500.8164775,N,12132.4426757,E,0.00,227.48,270623,,,R,V*1F
$GPHDT,6.612,T*36
$GNGSA,A,3,195,17,196,19,199,06,194,14,09,11,03,,0.86,0.45,0.74,1*04
$GNGSA,A,3,67,68,82,83,80,73,66,,,,,,0.86,0.45,0.74,2*0C
$GNGSA,A,3,24,12,10,31,11,19,04,25,33,,,,0.86,0.45,0.74,3*02
$GNGSA,A,3,40,07,10,14,08,33,43,13,42,11,28,37,0.86,0.45,0.74,4*0A
$GPGSV,4,1,15,195,67,041,41,17,64,058,42,196,61,130,36,19,61,006,42,1*67
$GPGSV,4,2,15,199,60,167,37,06,50,329,42,194,44,170,43,41,38,242,40,1*6B
$GPGSV,4,3,15,14,32,178,42,09,30,113,30,11,24,278,40,20,23,226,16,1*6C
$GPGSV,4,4,15,04,21,080,,03,15,038,25,12,08,321,,1*5F
$GPGSV,3,1,09,195,67,041,46,196,61,130,44,199,60,167,45,06,50,329,47,8*58
$GPGSV,3,2,09,194,44,170,46,14,32,178,45,09,30,113,30,11,24,278,48,8*5B
$GPGSV,3,3,09,03,15,038,23,8*59
$GLGSV,2,1,08,67,48,074,39,68,41,153,43,82,37,027,45,83,31,332,32,1*7C
$GLGSV,2,2,08,80,30,237,39,73,23,298,38,66,11,031,24,79,06,190,,1*7E
$GAGSV,3,1,09,24,55,252,39,12,50,007,34,10,49,326,41,31,33,183,41,7*74
$GAGSV,3,2,09,11,33,293,37,19,29,093,32,04,23,157,40,25,22,312,34,7*7D
$GAGSV,3,3,09,33,17,059,32,7*41
$GAGSV,3,1,09,24,55,252,45,12,50,007,43,10,49,326,46,11,33,293,38,1*70
$GAGSV,3,2,09,31,33,183,41,19,29,093,30,04,23,157,39,25,22,312,35,1*77
$GAGSV,3,3,09,33,17,059,16,1*41
$GBGSV,4,1,14,40,84,096,41,07,83,266,39,10,72,299,40,14,61,098,43,1*76
$GBGSV,4,2,14,08,59,262,39,33,57,156,41,43,54,044,44,13,49,251,41,1*72
$GBGSV,4,3,14,42,44,061,43,11,35,073,36,28,34,319,41,23,23,226,,1*70
$GBGSV,4,4,14,37,18,279,34,41,16,197,23,1*79
$GBGSV,2,1,06,40,84,096,45,33,57,156,44,43,54,044,43,42,44,061,43,4*77
$GBGSV,2,2,06,28,34,319,44,37,18,279,34,4*75
$GNGGA,033049.000,2500.8164797,N,12132.4426748,E,4,62,0.45,17.662,M,15.25,M,4,3335*43
$GNRMC,033049.000,A,2500.8164797,N,12132.4426748,E,0.00,227.48,270623,,,R,V*14
$GPHDT,6.685,T*38
$GNGGA,033049.200,2500.8164740,N,12132.4426764,E,4,62,0.45,17.659,M,15.25,M,4,3335*4D
$GNRMC,033049.200,A,2500.8164740,N,12132.4426764,E,0.00,227.48,270623,,,R,V*12
$GPHDT,6.743,T*33
$GNGGA,033049.400,2500.8164770,N,12132.4426759,E,4,62,0.45,17.663,M,15.25,M,4,3335*4F
$GNRMC,033049.400,A,2500.8164770,N,12132.4426759,E,0.00,227.48,270623,,,R,V*19
$GPHDT,6.851,T*3F
$GNGGA,033049.600,2500.8164775,N,12132.4426748,E,4,63,0.44,17.668,M,15.25,M,4,3335*43
$GNRMC,033049.600,A,2500.8164775,N,12132.4426748,E,0.00,227.48,270623,,,R,V*1E
$GPHDT,6.882,T*31
$GNGGA,033049.800,2500.8164765,N,12132.4426774,E,4,63,0.44,17.657,M,15.25,M,4,3335*4F
$GNRMC,033049.800,A,2500.8164765,N,12132.4426774,E,0.00,227.48,270623,,,R,V*1E
$GPHDT,6.636,T*30
$GNGSA,A,3,195,17,196,19,199,06,194,14,09,11,04,03,0.85,0.44,0.73,1*05
$GNGSA,A,3,67,68,82,83,80,73,66,,,,,,0.85,0.44,0.73,2*09
$GNGSA,A,3,24,12,10,31,11,19,04,25,33,,,,0.85,0.44,0.73,3*07
$GNGSA,A,3,40,07,10,14,08,33,43,13,42,11,28,37,0.85,0.44,0.73,4*0F
$GPGSV,4,1,15,195,67,041,41,17,64,058,42,196,61,130,36,19,61,006,42,1*67
$GPGSV,4,2,15,199,60,167,37,06,50,329,42,194,44,170,43,41,38,242,40,1*6B
$GPGSV,4,3,15,14,32,178,42,09,30,113,30,11,24,278,40,20,23,226,15,1*6F
$GPGSV,4,4,15,04,21,080,33,03,15,038,24,12,08,321,,1*5E
$GPGSV,3,1,09,195,67,041,46,196,61,130,44,199,60,167,45,06,50,329,47,8*58
$GPGSV,3,2,09,194,44,170,46,14,32,178,45,09,30,113,30,11,24,278,48,8*5B
$GPGSV,3,3,09,03,15,038,24,8*5E
$GLGSV,2,1,08,67,48,074,39,68,41,153,43,82,37,027,45,83,31,332,32,1*7C
$GLGSV,2,2,08,80,30,237,39,73,23,298,37,66,11,031,24,79,06,190,,1*71
$GAGSV,3,1,09,24,55,252,39,12,50,007,34,10,49,326,41,31,33,183,41,7*74
$GAGSV,3,2,09,11,33,293,37,19,29,093,31,04,23,157,40,25,22,312,34,7*7E
$GAGSV,3,3,09,33,17,059,32,7*41
$GAGSV,3,1,09,24,55,252,45,12,50,007,43,10,49,326,46,11,33,293,38,1*70
$GAGSV,3,2,09,31,33,183,41,19,29,093,30,04,23,157,39,25,22,312,35,1*77
$GAGSV,3,3,09,33,17,059,16,1*41
$GBGSV,4,1,14,40,84,096,41,07,83,266,39,10,72,299,40,14,61,098,43,1*76
$GBGSV,4,2,14,08,59,262,39,33,57,156,41,43,54,044,44,13,49,251,41,1*72
$GBGSV,4,3,14,42,44,061,43,11,35,073,36,28,34,319,41,23,23,226,,1*70
$GBGSV,4,4,14,37,18,279,34,41,16,197,23,1*79
$GBGSV,2,1,06,40,84,096,45,33,57,156,44,43,54,044,43,42,44,061,43,4*77
$GBGSV,2,2,06,28,34,319,44,37,18,279,34,4*75
$GNGGA,033050.000,2500.8164728,N,12132.4426787,E,4,63,0.44,17.663,M,15.25,M,5,3335*4C
$GNRMC,033050.000,A,2500.8164728,N,12132.4426787,E,0.00,227.48,270623,,,R,V*1B
$GPHDT,6.686,T*3B
$GNGGA,033050.200,2500.8164770,N,12132.4426779,E,4,64,0.44,17.660,M,15.25,M,5,3335*46
$GNRMC,033050.200,A,2500.8164770,N,12132.4426779,E,0.00,227.48,270623,,,R,V*15
$GPHDT,6.609,T*3C
$GNGGA,033050.400,2500.8164757,N,12132.4426779,E,4,64,0.44,17.658,M,15.25,M,5,3335*4E
$GNRMC,033050.400,A,2500.8164757,N,12132.4426779,E,0.00,227.48,270623,,,R,V*16
$GPHDT,6.563,T*33
$GNGGA,033050.600,2500.8164779,N,12132.4426767,E,4,64,0.44,17.676,M,15.25,M,5,3335*43
$GNRMC,033050.600,A,2500.8164779,N,12132.4426767,E,0.00,227.48,270623,,,R,V*17
$GPHDT,6.438,T*3C
$GNGGA,033050.800,2500.8164727,N,12132.4426798,E,4,64,0.44,17.652,M,15.25,M,5,3335*40
$GNRMC,033050.800,A,2500.8164727,N,12132.4426798,E,0.00,227.48,270623,,,R,V*12
$GPHDT,6.592,T*3D
$GNGSA,A,3,195,17,196,19,199,06,194,14,09,11,04,03,0.85,0.44,0.73,1*05
$GNGSA,A,3,67,68,82,83,80,73,66,,,,,,0.85,0.44,0.73,2*09
$GNGSA,A,3,24,12,10,31,11,19,04,25,33,,,,0.85,0.44,0.73,3*07
$GNGSA,A,3,40,07,10,14,08,33,43,13,42,11,28,37,0.85,0.44,0.73,4*0F
$GPGSV,4,1,15,195,67,041,41,17,64,058,42,196,61,130,36,19,61,006,42,1*67
$GPGSV,4,2,15,199,60,167,37,06,50,329,42,194,44,170,43,41,38,242,40,1*6B
$GPGSV,4,3,15,14,32,178,42,09,30,113,30,11,24,278,40,20,23,226,15,1*6F
$GPGSV,4,4,15,04,21,080,35,03,15,038,24,12,08,321,,1*58
$GPGSV,3,1,09,195,67,041,46,196,61,130,44,199,60,167,45,06,50,329,47,8*58
$GPGSV,3,2,09,194,44,170,46,14,32,178,45,09,30,113,30,11,24,278,48,8*5B
$GPGSV,3,3,09,03,15,038,24,8*5E
$GLGSV,2,1,08,67,48,074,39,68,41,153,43,82,37,027,45,83,31,332,32,1*7C
$GLGSV,2,2,08,80,30,237,39,73,23,298,37,66,11,031,24,79,06,190,,1*71
$GAGSV,3,1,09,24,55,252,39,12,50,007,34,10,49,326,41,31,33,183,41,7*74
$GAGSV,3,2,09,11,33,293,37,19,29,093,31,04,23,157,40,25,22,312,34,7*7E
$GAGSV,3,3,09,33,17,059,31,7*42
$GAGSV,3,1,09,24,55,252,45,12,50,007,43,10,49,326,46,11,33,293,38,1*70
$GAGSV,3,2,09,31,33,183,41,19,29,093,30,04,23,157,40,25,22,312,35,1*79
$GAGSV,3,3,09,33,17,059,16,1*41
$GBGSV,4,1,14,40,84,096,41,07,83,266,39,10,72,299,40,14,61,098,43,1*76
$GBGSV,4,2,14,08,59,262,39,33,57,156,41,43,54,044,44,13,49,251,41,1*72
$GBGSV,4,3,14,42,44,061,43,11,35,073,36,28,34,319,41,23,23,226,,1*70
$GBGSV,4,4,14,37,18,279,34,41,16,197,23,1*79
$GBGSV,2,1,06,40,84,096,45,33,57,156,44,43,54,044,43,42,44,061,43,4*77
$GBGSV,2,2,06,28,34,319,44,37,18,279,35,4*74
$GNGGA,033051.000,2500.8164771,N,12132.4426778,E,4,64,0.44,17.671,M,15.25,M,6,3335*46
$GNRMC,033051.000,A,2500.8164771,N,12132.4426778,E,0.00,227.48,270623,,,R,V*16
$GPHDT,6.366,T*30
$GNGGA,033051.200,2500.8164775,N,12132.4426768,E,4,64,0.44,17.677,M,15.25,M,6,3335*47
$GNRMC,033051.200,A,2500.8164775,N,12132.4426768,E,0.00,227.48,270623,,,R,V*11
$GPHDT,6.506,T*30
$GNGGA,033051.400,2500.8164734,N,12132.4426793,E,4,64,0.44,17.664,M,15.25,M,6,3335*42
$GNRMC,033051.400,A,2500.8164734,N,12132.4426793,E,0.00,227.48,270623,,,R,V*16
