$FW : RTK35X,V1.1X0314AS,Lib20210517,1*54
$Tool : LOCOSYS , GNSS Firebird , v1.0.0.19*39
$---------------------------------------------------*2D
$GPHDT,316.360,T*34
$GNGGA,033104.600,2500.8164807,N,12132.4426660,E,4,65,0.42,17.693,M,15.25,M,2,3335*48
$GNRMC,033104.600,A,2500.8164807,N,12132.4426660,E,0.04,227.48,270623,,,R,V*13
$GPHDT,316.577,T*34
$GNGGA,033104.800,2500.8164824,N,12132.4426667,E,4,65,0.42,17.687,M,15.25,M,2,3335*45
$GNRMC,033104.800,A,2500.8164824,N,12132.4426667,E,0.02,227.48,270623,,,R,V*1D
$GPHDT,316.299,T*33
$GNGSA,A,3,195,17,196,19,199,06,194,14,09,11,04,03,0.71,0.42,0.57,1*0E
$GNGSA,A,3,67,68,82,83,80,73,66,,,,,,0.71,0.42,0.57,2*02
$GNGSA,A,3,24,12,10,31,11,19,04,25,33,,,,0.71,0.42,0.57,3*0C
$GNGSA,A,3,40,07,10,14,08,33,43,13,42,11,28,37,0.71,0.42,0.57,4*04
$GNGSA,A,3,41,,,,,,,,,,,,0.71,0.42,0.57,4*03
$GPGSV,4,1,15,195,67,041,42,17,64,058,40,196,61,130,37,19,61,006,42,1*67
$GPGSV,4,2,15,199,60,167,35,06,50,329,44,194,44,170,42,41,38,242,41,1*6F
$GPGSV,4,3,15,14,32,178,42,09,30,113,43,11,24,278,40,20,23,226,17,1*69
$GPGSV,4,4,15,04,21,080,25,03,15,038,20,12,08,321,,1*5D
$GPGSV,3,1,10,195,67,041,46,196,61,130,44,199,60,167,46,06,50,329,45,8*51
$GPGSV,3,2,10,194,44,170,46,14,32,178,46,09,30,113,43,11,24,278,45,8*59
$GPGSV,3,3,10,04,21,080,22,03,15,038,13,8*6D
$GLGSV,2,1,08,67,48,074,37,68,41,153,41,82,37,027,38,83,31,332,34,1*7C
$GLGSV,2,2,08,80,30,237,37,73,23,298,37,66,11,031,15,79,06,190,,1*7D
$GAGSV,3,1,09,24,55,252,40,12,50,007,30,10,49,326,42,31,33,183,40,7*7C
$GAGSV,3,2,09,11,33,293,36,19,29,093,38,04,23,157,39,25,22,312,36,7*7A
$GAGSV,3,3,09,33,17,059,30,7*43
$GAGSV,2,1,08,24,55,252,46,12,50,007,40,10,49,326,44,31,33,183,44,1*79
$GAGSV,2,2,08,11,33,293,33,19,29,093,38,04,23,157,34,25,22,312,36,1*74
$GBGSV,4,1,14,40,84,097,41,07,83,265,39,10,72,299,40,14,61,097,39,1*76
$GBGSV,4,2,14,08,59,262,41,33,57,156,42,43,54,044,39,13,49,252,43,1*75
$GBGSV,4,3,14,42,44,061,41,11,35,073,33,28,34,319,46,23,22,226,,1*71
$GBGSV,4,4,14,37,18,279,35,41,16,197,19,1*71
$GBGSV,2,1,06,40,84,097,45,33,57,156,46,43,54,044,35,42,44,061,41,4*77
$GBGSV,2,2,06,28,34,319,42,37,18,279,34,4*73
$GNGGA,033105.000,2500.8164811,N,12132.4426680,E,4,65,0.42,17.681,M,15.25,M,3,3335*44
$GNRMC,033105.000,A,2500.8164811,N,12132.4426680,E,0.02,227.48,270623,,,R,V*1B
$GPHDT,316.346,T*30
$GNGGA,033105.200,2500.8164848,N,12132.4426689,E,4,65,0.42,17.697,M,15.25,M,3,3335*44
$GNRMC,033105.200,A,2500.8164848,N,12132.4426689,E,0.01,227.48,270623,,,R,V*1F
$GPHDT,316.188,T*30
$GNGGA,033105.400,2500.8164820,N,12132.4426668,E,4,65,0.42,17.687,M,15.25,M,3,3335*42
$GNRMC,033105.400,A,2500.8164820,N,12132.4426668,E,0.01,227.48,270623,,,R,V*18
$GPHDT,316.374,T*31
$GNGGA,033105.600,2500.8164875,N,12132.4426673,E,4,64,0.42,17.684,M,15.25,M,3,3335*48
$GNRMC,033105.600,A,2500.8164875,N,12132.4426673,E,0.01,227.48,270623,,,R,V*10
$GPHDT,316.231,T*31
$GNGGA,033105.800,2500.8164830,N,12132.4426689,E,4,64,0.42,17.676,M,15.25,M,3,3335*4F
$GNRMC,033105.800,A,2500.8164830,N,12132.4426689,E,0.01,227.48,270623,,,R,V*1A
$GPHDT,316.397,T*3C
$GNGSA,A,3,195,17,196,19,199,06,194,14,09,11,04,03,0.71,0.42,0.57,1*0E
$GNGSA,A,3,67,68,82,83,80,73,66,,,,,,0.71,0.42,0.57,2*02
$GNGSA,A,3,24,12,10,31,11,19,04,25,33,,,,0.71,0.42,0.57,3*0C
$GNGSA,A,3,40,07,10,14,08,33,43,13,42,11,28,37,0.71,0.42,0.57,4*04
$GNGSA,A,3,41,,,,,,,,,,,,0.71,0.42,0.57,4*03
$GPGSV,4,1,15,195,67,041,42,17,64,058,40,196,61,130,37,19,61,006,42,1*67
$GPGSV,4,2,15,199,60,167,34,06,50,329,44,194,44,170,42,41,38,242,40,1*6F
$GPGSV,4,3,15,14,32,178,42,09,30,113,43,11,24,278,40,20,23,226,17,1*69
$GPGSV,4,4,15,04,21,080,26,03,15,038,20,12,08,321,,1*5E
$GPGSV,3,1,10,195,67,041,46,196,61,130,44,199,60,167,46,06,50,329,45,8*51
$GPGSV,3,2,10,194,44,170,46,14,32,178,46,09,30,113,43,11,24,278,45,8*59
$GPGSV,3,3,10,04,21,080,24,03,15,038,13,8*6B
$GLGSV,2,1,08,67,48,074,37,68,41,153,41,82,37,027,37,83,31,332,34,1*73
$GLGSV,2,2,08,80,30,237,38,73,23,298,36,66,11,031,14,79,06,190,,1*72
$GAGSV,3,1,09,24,55,252,39,12,50,007,31,10,49,326,42,31,33,183,40,7*73
$GAGSV,3,2,09,11,33,293,36,19,29,093,38,04,23,157,39,25,22,312,36,7*7A
$GAGSV,3,3,09,33,17,059,31,7*42
$GAGSV,2,1,08,24,55,252,46,12,50,007,40,10,49,326,44,31,33,183,44,1*79
$GAGSV,2,2,08,11,33,293,33,19,29,093,38,04,23,157,33,25,22,312,36,1*73
$GBGSV,4,1,14,40,84,097,41,07,83,265,39,10,72,299,40,14,61,097,39,1*76
$GBGSV,4,2,14,08,59,262,41,33,57,156,41,43,54,044,38,13,49,252,43,1*77
$GBGSV,4,3,14,42,43,060,41,11,35,073,33,28,34,319,46,23,22,226,,1*77
$GBGSV,4,4,14,37,18,279,34,41,16,197,19,1*70
$GBGSV,2,1,06,40,84,097,45,33,57,156,46,43,54,044,33,42,43,060,41,4*77
$GBGSV,2,2,06,28,34,319,42,37,18,279,34,4*73
$GNGGA,033106.000,2500.8164818,N,12132.4426682,E,4,65,0.42,17.666,M,15.25,M,2,3335*44
$GNRMC,033106.000,A,2500.8164818,N,12132.4426682,E,0.02,227.48,270623,,,R,V*13
$GPHDT,316.136,T*35
$GNGGA,033106.200,2500.8164852,N,12132.4426649,E,4,65,0.42,17.672,M,15.25,M,1,3335*49
$GNRMC,033106.200,A,2500.8164852,N,12132.4426649,E,0.02,227.48,270623,,,R,V*18
$GPHDT,316.144,T*30
$GNGGA,033106.400,2500.8164863,N,12132.4426643,E,4,64,0.42,17.681,M,15.25,M,1,3335*4A
$GNRMC,033106.400,A,2500.8164863,N,12132.4426643,E,0.01,227.48,270623,,,R,V*15
$GPHDT,316.052,T*36
$GNGGA,033106.600,2500.8164814,N,12132.4426670,E,4,64,0.42,17.664,M,15.25,M,1,3335*43
$GNRMC,033106.600,A,2500.8164814,N,12132.4426670,E,0.01,227.48,270623,,,R,V*17
$GPHDT,316.248,T*3F
$GNGGA,033106.800,2500.8164836,N,12132.4426656,E,4,63,0.43,17.673,M,15.25,M,1,3335*49
$GNRMC,033106.800,A,2500.8164836,N,12132.4426656,E,0.02,227.48,270623,,,R,V*1E
$GPHDT,316.226,T*37
$GNGSA,A,3,195,17,196,19,199,06,194,14,09,11,03,,0.75,0.45,0.60,1*0D
$GNGSA,A,3,67,68,82,83,80,73,,,,,,,0.75,0.45,0.60,2*05
$GNGSA,A,3,24,12,10,31,11,19,04,25,33,,,,0.75,0.45,0.60,3*0B
$GNGSA,A,3,40,07,10,14,08,33,43,13,42,11,28,37,0.75,0.45,0.60,4*03
$GNGSA,A,3,41,,,,,,,,,,,,0.75,0.45,0.60,4*04
$GPGSV,4,1,15,195,67,041,42,17,64,058,40,196,61,130,37,19,61,006,42,1*67
$GPGSV,4,2,15,199,60,167,33,06,50,329,44,194,44,170,42,41,38,242,39,1*66
$GPGSV,4,3,15,14,32,178,42,09,30,113,43,11,24,278,40,20,23,226,17,1*69
$GPGSV,4,4,15,04,21,080,27,03,15,038,24,12,08,321,,1*5B
$GPGSV,3,1,09,195,67,041,46,196,61,130,44,199,60,167,46,06,50,329,45,8*59
$GPGSV,3,2,09,194,44,170,46,14,32,178,46,09,30,113,43,11,24,278,45,8*51
$GPGSV,3,3,09,03,15,038,12,8*5B
$GLGSV,2,1,08,67,48,074,37,68,41,153,41,82,37,027,37,83,31,332,34,1*73
$GLGSV,2,2,08,80,30,237,38,73,23,298,35,66,11,031,13,79,06,190,,1*76
$GAGSV,3,1,09,24,55,252,39,12,50,007,32,10,49,326,42,31,33,183,40,7*70
$GAGSV,3,2,09,11,33,293,37,19,29,093,38,04,23,157,39,25,22,312,36,7*7B
$GAGSV,3,3,09,33,17,059,30,7*43
$GAGSV,2,1,08,24,55,252,46,12,50,007,40,10,49,326,44,31,33,183,44,1*79
$GAGSV,2,2,08,11,33,293,33,19,29,093,38,04,23,157,34,25,22,312,36,1*74
$GBGSV,4,1,16,40,84,097,41,07,83,265,39,10,72,299,40,14,61,097,39,1*74
$GBGSV,4,2,16,08,59,262,41,33,57,156,42,43,54,044,38,13,49,252,43,1*76
$GBGSV,4,3,16,42,43,060,40,11,35,073,33,28,34,319,46,23,22,226,,1*74
$GBGSV,4,4,16,37,18,279,34,41,16,197,19,39,02,180,,06,01,190,,1*7C
$GBGSV,2,1,06,40,84,097,45,33,57,156,46,43,54,044,32,42,43,060,40,4*77
$GBGSV,2,2,06,28,34,319,42,37,18,279,34,4*73
$GNGGA,033107.000,2500.8164830,N,12132.4426671,E,4,62,0.45,17.666,M,15.25,M,2,3335*43
$GNRMC,033107.000,A,2500.8164830,N,12132.4426671,E,0.01,227.48,270623,,,R,V*17
$GPHDT,316.140,T*34
$GNGGA,033107.200,2500.8164838,N,12132.4426665,E,4,63,0.43,17.673,M,15.25,M,2,3335*4F
$GNRMC,033107.200,A,2500.8164838,N,12132.4426665,E,0.01,227.48,270623,,,R,V*18
$GPHDT,315.989,T*3A
$GNGGA,033107.400,2500.8164819,N,12132.4426680,E,4,63,0.43,17.679,M,15.25,M,2,3335*4B
$GNRMC,033107.400,A,2500.8164819,N,12132.4426680,E,0.01,227.48,270623,,,R,V*16
$GPHDT,316.126,T*34
$GNGGA,033107.600,2500.8164824,N,12132.4426668,E,4,63,0.43,17.667,M,15.25,M,2,3335*4E
$GNRMC,033107.600,A,2500.8164824,N,12132.4426668,E,0.01,227.48,270623,,,R,V*1C
$GPHDT,316.106,T*36
$GNGGA,033107.800,2500.8164814,N,12132.4426665,E,4,63,0.43,17.676,M,15.25,M,2,3335*4E
$GNRMC,033107.800,A,2500.8164814,N,12132.4426665,E,0.02,227.48,270623,,,R,V*1F
$GPHDT,316.260,T*35
$GNGSA,A,3,195,17,196,19,199,06,194,14,09,11,04,03,0.73,0.43,0.59,1*03
$GNGSA,A,3,67,68,82,83,80,73,,,,,,,0.73,0.43,0.59,2*0F
$GNGSA,A,3,24,12,10,31,11,19,04,25,33,,,,0.73,0.43,0.59,3*01
$GNGSA,A,3,40,07,10,14,08,33,43,13,42,11,28,37,0.73,0.43,0.59,4*09
$GNGSA,A,3,41,,,,,,,,,,,,0.73,0.43,0.59,4*0E
$GPGSV,4,1,15,195,67,041,42,17,64,058,40,196,61,130,36,19,61,006,42,1*66
$GPGSV,4,2,15,199,60,167,34,06,50,329,44,194,44,170,42,41,38,242,39,1*61
$GPGSV,4,3,15,14,32,178,42,09,30,113,43,11,24,278,40,20,23,226,18,1*66
$GPGSV,4,4,15,04,21,080,29,03,15,038,23,12,08,321,,1*52
$GPGSV,3,1,10,195,67,041,46,196,61,130,44,199,60,167,46,06,50,329,45,8*51
$GPGSV,3,2,10,194,44,170,46,14,32,178,46,09,30,113,43,11,24,278,45,8*59
$GPGSV,3,3,10,04,21,080,24,03,15,038,12,8*6A
$GLGSV,2,1,08,67,48,074,38,68,41,153,42,82,37,027,36,83,31,332,34,1*7E
$GLGSV,2,2,08,80,30,237,38,73,23,298,35,66,11,031,15,79,06,190,,1*70
$GAGSV,3,1,09,24,55,252,39,12,50,007,31,10,49,326,42,31,33,183,40,7*73
$GAGSV,3,2,09,11,33,293,37,19,29,093,38,04,23,157,39,25,22,312,36,7*7B
$GAGSV,3,3,09,33,17,059,30,7*43
$GAGSV,2,1,08,24,55,252,46,12,50,007,40,10,49,326,44,31,33,183,44,1*79
$GAGSV,2,2,08,11,33,293,33,19,29,093,38,04,23,157,34,25,22,312,36,1*74
$GBGSV,4,1,14,40,84,097,41,07,83,265,39,10,72,299,40,14,61,097,39,1*76
$GBGSV,4,2,14,08,59,262,41,33,57,156,42,43,54,044,38,13,49,252,43,1*74
$GBGSV,4,3,14,42,43,060,41,11,35,073,33,28,34,319,46,23,22,226,,1*77
$GBGSV,4,4,14,37,18,279,34,41,16,197,19,1*70
$GBGSV,2,1,06,40,84,097,45,33,57,156,47,43,54,044,33,42,43,060,40,4*77
$GBGSV,2,2,06,28,34,319,42,37,18,279,33,4*74
$GNGGA,033108.000,2500.8164833,N,12132.4426665,E,4,63,0.43,17.674,M,15.25,M,3,3335*4F
$GNRMC,033108.000,A,2500.8164833,N,12132.4426665,E,0.00,227.48,270623,,,R,V*1F
$GPHDT,316.154,T*31
$GNGGA,033108.200,2500.8164844,N,12132.4426663,E,4,63,0.43,17.689,M,15.25,M,3,3335*49
$GNRMC,033108.200,A,2500.8164844,N,12132.4426663,E,0.00,227.48,270623,,,R,V*1B
$GPHDT,316.384,T*3E
$GNGGA,033108.400,2500.8164836,N,12132.4426669,E,4,63,0.43,17.686,M,15.25,M,3,3335*4F
$GNRMC,033108.400,A,2500.8164836,N,12132.4426669,E,0.01,227.48,270623,,,R,V*13
$GPHDT,316.487,T*3A
$GNGGA,033108.600,2500.8164859,N,12132.4426680,E,4,63,0.43,17.689,M,15.25,M,3,3335*4C
$GNRMC,033108.600,A,2500.8164859,N,12132.4426680,E,0.01,227.48,270623,,,R,V*1F
$GPHDT,316.221,T*30
$GNGGA,033108.800,2500.8164840,N,12132.4426692,E,4,63,0.43,17.682,M,15.25,M,3,3335*42
$GNRMC,033108.800,A,2500.8164840,N,12132.4426692,E,0.01,227.48,270623,,,R,V*1A
$GPHDT,316.025,T*36
$GNGSA,A,3,195,17,196,19,199,06,194,14,09,11,04,03,0.73,0.43,0.59,1*03
$GNGSA,A,3,67,68,82,83,80,73,,,,,,,0.73,0.43,0.59,2*0F
$GNGSA,A,3,24,12,10,31,11,19,04,25,33,,,,0.73,0.43,0.59,3*01
$GNGSA,A,3,40,07,10,14,08,33,43,13,42,11,28,37,0.73,0.43,0.59,4*09
$GNGSA,A,3,41,,,,,,,,,,,,0.73,0.43,0.59,4*0E
$GPGSV,4,1,15,195,67,041,42,17,64,058,40,196,61,130,36,19,61,006,42,1*66
$GPGSV,4,2,15,199,60,167,33,06,50,329,44,194,44,170,42,41,38,242,39,1*66
$GPGSV,4,3,15,14,32,178,42,09,30,113,43,11,24,278,40,20,23,226,18,1*66
$GPGSV,4,4,15,04,21,080,29,03,15,038,23,12,08,321,,1*52
$GPGSV,3,1,09,195,67,041,46,196,61,130,45,199,60,167,46,06,50,329,45,8*58
$GPGSV,3,2,09,194,44,170,46,14,32,178,46,09,30,113,43,11,24,278,45,8*51
$GPGSV,3,3,09,04,21,080,25,8*5C
$GLGSV,2,1,08,67,48,074,38,68,41,153,42,82,37,027,36,83,31,332,34,1*7E
$GLGSV,2,2,08,80,30,237,38,73,23,298,35,66,11,031,17,79,06,190,,1*72
$GAGSV,3,1,09,24,55,252,39,12,50,007,31,10,49,326,42,31,33,183,40,7*73
$GAGSV,3,2,09,11,33,293,37,19,29,093,38,04,23,157,39,25,22,312,36,7*7B
$GAGSV,3,3,09,33,17,059,30,7*43
$GAGSV,3,1,09,24,55,252,46,12,50,007,40,10,49,326,44,11,33,293,34,1*7E
$GAGSV,3,2,09,31,33,183,44,19,29,093,38,04,23,157,33,25,22,312,36,1*73
$GAGSV,3,3,09,33,17,059,36,1*43
$GBGSV,4,1,15,40,84,097,41,07,83,265,39,10,72,299,40,14,61,097,39,1*77
$GBGSV,4,2,15,08,59,262,41,33,57,156,42,43,54,044,38,13,49,252,43,1*75
$GBGSV,4,3,15,42,43,060,41,11,35,073,33,28,34,319,46,23,22,226,,1*76
$GBGSV,4,4,15,34,20,091,,37,18,279,34,41,16,197,18,1*4D
$GBGSV,2,1,06,40,84,097,45,33,57,156,47,43,54,044,33,42,43,060,40,4*77
$GBGSV,2,2,06,28,34,319,42,37,18,279,33,4*74
$GNGGA,033109.000,2500.8164818,N,12132.4426684,E,4,63,0.43,17.687,M,15.25,M,3,3335*44
$GNRMC,033109.000,A,2500.8164818,N,12132.4426684,E,0.01,227.48,270623,,,R,V*19
$GPHDT,316.203,T*30
$GNGGA,033109.200,2500.8164834,N,12132.4426667,E,4,63,0.43,17.680,M,15.25,M,1,3335*40
$GNRMC,033109.200,A,2500.8164834,N,12132.4426667,E,0.02,227.48,270623,,,R,V*1B
$GPHDT,316.072,T*34
$GNGGA,033109.400,2500.8164792,N,12132.4426662,E,4,63,0.43,17.683,M,15.25,M,1,3335*43
$GNRMC,033109.400,A,2500.8164792,N,12132.4426662,E,0.01,227.48,270623,,,R,V*18
$GPHDT,316.193,T*3A
$GNGGA,033109.600,2500.8164741,N,12132.4426682,E,4,63,0.43,17.652,M,15.25,M,0,3335*4C
$GNRMC,033109.600,A,2500.8164741,N,12132.4426682,E,0.02,227.48,270623,,,R,V*19
$GPHDT,316.433,T*35
$GNGGA,033109.800,2500.8164767,N,12132.4426676,E,4,63,0.43,17.655,M,15.25,M,0,3335*4A
$GNRMC,033109.800,A,2500.8164767,N,12132.4426676,E,0.01,227.48,270623,,,R,V*1B
$GPHDT,316.333,T*32
$GNGSA,A,3,195,17,196,19,199,06,194,14,09,11,04,03,0.73,0.43,0.59,1*03
$GNGSA,A,3,67,68,82,83,80,73,,,,,,,0.73,0.43,0.59,2*0F
$GNGSA,A,3,24,12,10,31,11,19,04,25,33,,,,0.73,0.43,0.59,3*01
$GNGSA,A,3,40,07,10,14,08,33,43,13,42,11,28,37,0.73,0.43,0.59,4*09
$GNGSA,A,3,41,,,,,,,,,,,,0.73,0.43,0.59,4*0E
$GPGSV,4,1,15,195,67,041,42,17,64,058,40,196,61,130,36,19,61,006,42,1*66
$GPGSV,4,2,15,199,60,167,33,06,50,329,44,194,44,170,42,41,38,242,39,1*66
$GPGSV,4,3,15,14,32,178,42,09,30,113,43,11,24,278,39,20,23,226,18,1*68
$GPGSV,4,4,15,04,21,080,26,03,15,038,22,12,08,321,,1*5C
$GPGSV,3,1,09,195,67,041,46,196,61,130,45,199,60,167,46,06,50,329,45,8*58
$GPGSV,3,2,09,194,44,170,46,14,32,178,46,09,30,113,43,11,24,278,45,8*51
$GPGSV,3,3,09,04,21,080,24,8*5D
$GLGSV,2,1,08,67,48,074,38,68,41,153,42,82,37,027,36,83,31,332,34,1*7E
$GLGSV,2,2,08,80,30,237,38,73,23,298,35,66,11,031,12,79,06,190,,1*77
$GAGSV,3,1,09,24,55,252,39,12,50,007,31,10,49,326,42,31,33,183,40,7*73
$GAGSV,3,2,09,11,33,293,37,19,29,093,38,04,23,157,40,25,22,312,35,7*76
$GAGSV,3,3,09,33,17,059,30,7*43
$GAGSV,3,1,09,24,55,252,46,12,50,007,40,10,49,326,44,11,33,293,34,1*7E
$GAGSV,3,2,09,31,33,183,44,19,29,093,38,04,23,157,33,25,22,312,36,1*73
$GAGSV,3,3,09,33,17,059,35,1*40
$GBGSV,4,1,14,40,84,097,41,07,83,265,39,10,72,299,40,14,61,097,39,1*76
$GBGSV,4,2,14,08,59,262,41,33,57,156,42,43,54,044,38,13,49,252,43,1*74
$GBGSV,4,3,14,42,43,060,41,11,35,073,33,28,34,319,46,23,22,226,,1*77
$GBGSV,4,4,14,37,18,279,34,41,16,197,18,1*71
$GBGSV,2,1,06,40,84,097,45,33,57,156,47,43,54,044,33,42,43,060,40,4*77
$GBGSV,2,2,06,28,34,319,42,37,18,279,33,4*74
$GNGGA,033110.000,2500.8164788,N,12132.4426682,E,4,63,0.43,17.652,M,15.25,M,1,3335*46
$GNRMC,033110.000,A,2500.8164788,N,12132.4426682,E,0.01,227.48,270623,,,R,V*11
$GPHDT,316.083,T*3A
$GNGGA,033110.200,2500.8164771,N,12132.4426671,E,4,63,0.43,17.662,M,15.25,M,1,3335*4D
$GNRMC,033110.200,A,2500.8164771,N,12132.4426671,E,0.00,227.48,270623,,,R,V*18
$GPHDT,316.330,T*31
$GNGGA,033110.400,2500.8164768,N,12132.4426674,E,4,63,0.43,17.663,M,15.25,M,1,3335*47
$GNRMC,033110.400,A,2500.8164768,N,12132.4426674,E,0.00,227.48,270623,,,R,V*13
$GPHDT,316.106,T*36
$GNGGA,033110.600,2500.8164792,N,12132.4426695,E,4,63,0.43,17.655,M,15.25,M,1,3335*4A
$GNRMC,033110.600,A,2500.8164792,N,12132.4426695,E,0.01,227.48,270623,,,R,V*1A
$GPHDT,316.193,T*3A
$GNGGA,033110.800,2500.8164804,N,12132.4426683,E,4,63,0.43,17.658,M,15.25,M,1,3335*4E
$GNRMC,033110.800,A,2500.8164804,N,12132.4426683,E,0.02,227.48,270623,,,R,V*10
$GPHDT,316.232,T*32
$GNGSA,A,3,195,17,196,19,199,06,194,14,09,11,04,03,0.73,0.43,0.59,1*03
$GNGSA,A,3,67,68,82,83,80,73,,,,,,,0.73,0.43,0.59,2*0F
$GNGSA,A,3,24,12,10,31,11,19,04,25,33,,,,0.73,0.43,0.59,3*01
$GNGSA,A,3,40,07,10,14,08,33,43,13,42,11,28,37,0.73,0.43,0.59,4*09
$GNGSA,A,3,41,,,,,,,,,,,,0.73,0.43,0.59,4*0E
$GPGSV,4,1,15,195,67,041,42,17,64,058,40,196,61,130,36,19,61,006,42,1*66
$GPGSV,4,2,15,199,60,167,33,06,50,329,44,194,44,170,42,41,38,242,39,1*66
$GPGSV,4,3,15,14,32,178,42,09,30,113,43,11,24,278,39,20,23,226,18,1*68
$GPGSV,4,4,15,04,21,080,25,03,15,038,22,12,08,321,,1*5F
$GPGSV,3,1,10,195,67,041,46,196,61,130,45,199,60,167,47,06,50,329,45,8*51
$GPGSV,3,2,10,194,44,170,46,14,32,178,46,09,30,113,43,11,24,278,45,8*59
$GPGSV,3,3,10,04,21,080,24,03,15,038,15,8*6D
$GLGSV,2,1,08,67,48,074,38,68,41,153,42,82,37,027,36,83,31,332,34,1*7E
$GLGSV,2,2,08,80,30,237,38,73,23,298,36,66,11,031,12,79,06,190,,1*74
$GAGSV,3,1,09,24,55,252,39,12,50,007,31,10,49,326,42,31,33,183,40,7*73
$GAGSV,3,2,09,11,33,293,37,19,29,093,38,04,23,157,40,25,22,312,35,7*76
$GAGSV,3,3,09,33,17,059,31,7*42
$GAGSV,3,1,09,24,55,252,46,12,50,007,40,10,49,326,44,31,33,183,44,1*79
$GAGSV,3,2,09,11,33,293,34,19,29,093,38,04,23,157,34,25,22,312,36,1*73
$GAGSV,3,3,09,33,17,059,35,1*40
$GBGSV,4,1,14,40,84,097,41,07,83,265,39,10,72,299,40,14,61,097,39,1*76
$GBGSV,4,2,14,08,59,262,41,33,57,156,42,43,54,044,38,13,49,252,43,1*74
$GBGSV,4,3,14,42,43,060,41,11,35,073,34,28,34,319,46,23,22,226,,1*70
$GBGSV,4,4,14,37,18,279,34,41,16,197,18,1*71
$GBGSV,2,1,06,40,84,097,45,33,57,156,47,43,54,044,34,42,43,060,40,4*70
$GBGSV,2,2,06,28,34,319,42,37,18,279,34,4*73
$GNGGA,033111.000,2500.8164776,N,12132.4426704,E,4,63,0.43,17.655,M,15.25,M,2,3335*4D
$GNRMC,033111.000,A,2500.8164776,N,12132.4426704,E,0.02,227.48,270623,,,R,V*1D
$GPHDT,316.282,T*39
$GNGGA,033111.200,2500.8164770,N,12132.4426661,E,4,63,0.43,17.665,M,15.25,M,2,3335*48
$GNRMC,033111.200,A,2500.8164770,N,12132.4426661,E,0.01,227.48,270623,,,R,V*18
$GPHDT,316.286,T*3D
$GNGGA,033111.400,2500.8164756,N,12132.4426661,E,4,62,0.45,17.672,M,15.25,M,2,3335*4B
$GNRMC,033111.400,A,2500.8164756,N,12132.4426661,E,0.01,227.48,270623,,,R,V*1A
$GPHDT,316.343,T*35
$GNGGA,033111.600,2500.8164775,N,12132.4426666,E,4,62,0.45,17.675,M,15.25,M,2,3335*48
$GNRMC,033111.600,A,2500.8164775,N,12132.4426666,E,0.00,227.48,270623,,,R,V*1F
$GPHDT,316.276,T*32
$GNGGA,033111.800,2500.8164775,N,12132.4426653,E,4,63,0.43,17.675,M,15.25,M,2,3335*47
$GNRMC,033111.800,A,2500.8164775,N,12132.4426653,E,0.02,227.48,270623,,,R,V*15
$GPHDT,316.367,T*33
$GNGSA,A,3,195,17,196,19,199,06,194,14,09,11,04,03,0.73,0.43,0.59,1*03
$GNGSA,A,3,67,68,82,83,80,73,,,,,,,0.73,0.43,0.59,2*0F
$GNGSA,A,3,24,12,10,31,11,19,04,25,33,,,,0.73,0.43,0.59,3*01
$GNGSA,A,3,40,07,10,14,08,33,43,13,42,11,28,37,0.73,0.43,0.59,4*09
$GNGSA,A,3,41,,,,,,,,,,,,0.73,0.43,0.59,4*0E
$GPGSV,4,1,15,195,67,041,42,17,64,058,40,196,61,130,36,19,61,006,42,1*66
$GPGSV,4,2,15,199,60,167,34,06,50,329,44,194,44,170,42,41,38,242,39,1*61
$GPGSV,4,3,15,14,32,178,42,09,30,113,43,11,24,278,39,20,23,226,18,1*68
$GPGSV,4,4,15,04,21,080,25,03,15,038,22,12,08,321,,1*5F
$GPGSV,3,1,10,195,67,041,46,196,61,130,45,199,60,167,47,06,50,329,45,8*51
$GPGSV,3,2,10,194,44,170,46,14,32,178,46,09,30,113,43,11,24,278,45,8*59
$GPGSV,3,3,10,04,21,080,24,03,15,038,13,8*6B
$GLGSV,2,1,08,67,48,074,38,68,41,153,42,82,37,027,36,83,31,332,34,1*7E
$GLGSV,2,2,08,80,30,237,38,73,23,298,36,66,11,031,11,79,06,190,,1*77
$GAGSV,3,1,09,24,55,252,39,12,50,007,32,10,49,326,42,31,33,183,40,7*70
$GAGSV,3,2,09,11,33,293,37,19,29,093,38,04,23,157,40,25,22,312,35,7*76
$GAGSV,3,3,09,33,17,059,32,7*41
$GAGSV,3,1,09,24,55,252,45,12,50,007,40,10,49,326,44,31,33,183,44,1*7A
$GAGSV,3,2,09,11,33,293,34,19,29,093,38,04,23,157,34,25,22,312,36,1*73
$GAGSV,3,3,09,33,17,059,35,1*40
$GBGSV,4,1,14,40,84,097,41,07,83,265,39,10,72,299,40,14,61,097,39,1*76
$GBGSV,4,2,14,08,59,262,41,33,57,156,42,43,54,044,38,13,49,252,43,1*74
$GBGSV,4,3,14,42,43,060,41,11,35,073,35,28,34,319,46,23,22,226,,1*71
$GBGSV,4,4,14,37,18,279,35,41,16,197,18,1*70
$GBGSV,2,1,06,40,84,097,45,33,57,156,47,43,54,044,34,42,43,060,40,4*70
$GBGSV,2,2,06,28,34,319,42,37,18,279,34,4*73
$GNGGA,033112.000,2500.8164790,N,12132.4426677,E,4,63,0.43,17.661,M,15.25,M,3,3335*45
$GNRMC,033112.000,A,2500.8164790,N,12132.4426677,E,0.01,227.48,270623,,,R,V*10
$GPHDT,316.599,T*34
$GNGGA,033112.200,2500.8164784,N,12132.4426669,E,4,63,0.43,17.675,M,15.25,M,1,3335*4A
$GNRMC,033112.200,A,2500.8164784,N,12132.4426669,E,0.03,227.48,270623,,,R,V*1A
$GPHDT,316.399,T*32
$GNGGA,033112.400,2500.8164785,N,12132.4426697,E,4,63,0.43,17.668,M,15.25,M,1,3335*40
$GNRMC,033112.400,A,2500.8164785,N,12132.4426697,E,0.02,227.48,270623,,,R,V*1D
$GPHDT,316.157,T*32
$GNGGA,033112.600,2500.8164804,N,12132.4426696,E,4,63,0.43,17.661,M,15.25,M,1,3335*4C
$GNRMC,033112.600,A,2500.8164804,N,12132.4426696,E,0.02,227.48,270623,,,R,V*18
$GPHDT,316.304,T*36
$GNGGA,033112.800,2500.8164790,N,12132.4426690,E,4,63,0.43,17.678,M,15.25,M,1,3335*4E
$GNRMC,033112.800,A,2500.8164790,N,12132.4426690,E,0.03,227.48,270623,,,R,V*13
$GPHDT,316.514,T*31
$GNGSA,A,3,195,17,196,19,199,06,194,14,09,11,04,03,0.73,0.43,0.59,1*03
$GNGSA,A,3,67,68,82,83,80,73,,,,,,,0.73,0.43,0.59,2*0F
$GNGSA,A,3,24,12,10,31,11,19,04,25,33,,,,0.73,0.43,0.59,3*01
$GNGSA,A,3,40,07,10,14,08,33,43,13,42,11,28,37,0.73,0.43,0.59,4*09
$GNGSA,A,3,41,,,,,,,,,,,,0.73,0.43,0.59,4*0E
$GPGSV,4,1,15,195,67,041,42,17,64,059,40,196,61,130,36,19,61,006,42,1*67
$GPGSV,4,2,15,199,60,167,34,06,50,329,44,194,44,170,42,41,38,242,39,1*61
$GPGSV,4,3,15,14,32,178,42,09,30,113,43,11,24,278,39,20,23,226,18,1*68
$GPGSV,4,4,15,04,21,080,22,03,15,038,22,12,08,321,,1*58
$GPGSV,3,1,10,195,67,041,46,196,61,130,45,199,60,167,47,06,50,329,45,8*51
$GPGSV,3,2,10,194,44,170,46,14,32,178,46,09,30,113,43,11,24,278,45,8*59
$GPGSV,3,3,10,04,21,080,26,03,15,038,12,8*68
$GLGSV,2,1,08,67,48,074,38,68,41,153,42,82,37,027,36,83,31,332,34,1*7E
$GLGSV,2,2,08,80,30,237,38,73,23,298,36,66,11,031,14,79,06,190,,1*72
$GAGSV,3,1,09,24,55,252,39,12,50,007,32,10,49,326,42,31,33,183,40,7*70
$GAGSV,3,2,09,11,33,293,37,19,29,093,38,04,23,157,40,25,22,312,35,7*76
$GAGSV,3,3,09,33,17,059,31,7*42
$GAGSV,3,1,09,24,55,252,45,12,50,007,40,10,49,326,44,31,33,183,44,1*7A
$GAGSV,3,2,09,11,33,293,35,19,29,093,37,04,23,157,34,25,22,312,36,1*7D
$GAGSV,3,3,09,33,17,059,34,1*41
$GBGSV,4,1,14,40,84,097,41,07,83,265,39,10,72,299,40,14,61,097,39,1*76
$GBGSV,4,2,14,08,59,262,41,33,57,156,42,43,54,044,38,13,49,252,43,1*74
$GBGSV,4,3,14,42,43,060,40,11,35,073,34,28,34,319,46,23,22,226,,1*71
$GBGSV,4,4,14,37,18,279,35,41,16,197,18,1*70
$GBGSV,2,1,06,40,84,097,45,33,57,156,47,43,54,044,34,42,43,060,40,4*70
$GBGSV,2,2,06,28,34,319,42,37,18,279,33,4*74
$GNGGA,033113.000,2500.8164808,N,12132.4426676,E,4,63,0.43,17.680,M,15.25,M,2,3335*45
$GNRMC,033113.000,A,2500.8164808,N,12132.4426676,E,0.02,227.48,270623,,,R,V*1D
$GPHDT,316.394,T*3F
$GNGGA,033113.200,2500.8164794,N,12132.4426692,E,4,63,0.43,17.676,M,15.25,M,2,3335*4E
$GNRMC,033113.200,A,2500.8164794,N,12132.4426692,E,0.02,227.48,270623,,,R,V*1F
$GPHDT,316.132,T*31
$GNGGA,033113.400,2500.8164796,N,12132.4426691,E,4,63,0.43,17.669,M,15.25,M,2,3335*47
$GNRMC,033113.400,A,2500.8164796,N,12132.4426691,E,0.01,227.48,270623,,,R,V*1B
$GPHDT,316.634,T*30
$GNGGA,033113.600,2500.8164823,N,12132.4426695,E,4,63,0.43,17.668,M,15.25,M,2,3335*41
$GNRMC,033113.600,A,2500.8164823,N,12132.4426695,E,0.02,227.48,270623,,,R,V*1F
$GPHDT,316.505,T*31
$GNGGA,033113.800,2500.8164792,N,12132.4426690,E,4,63,0.43,17.680,M,15.25,M,2,3335*49
$GNRMC,033113.800,A,2500.8164792,N,12132.4426690,E,0.02,227.48,270623,,,R,V*11
$GPHDT,316.605,T*32
$GNGSA,A,3,195,17,196,19,199,06,194,14,09,11,04,03,0.73,0.43,0.59,1*03
$GNGSA,A,3,67,68,82,83,80,73,,,,,,,0.73,0.43,0.59,2*0F
$GNGSA,A,3,24,12,10,31,11,19,04,25,33,,,,0.73,0.43,0.59,3*01
$GNGSA,A,3,40,07,10,14,08,33,43,13,42,11,28,37,0.73,0.43,0.59,4*09
$GNGSA,A,3,41,,,,,,,,,,,,0.73,0.43,0.59,4*0E
$GPGSV,4,1,15,195,67,041,42,17,64,059,40,196,61,130,36,19,61,007,42,1*66
$GPGSV,4,2,15,199,60,167,34,06,50,329,44,194,44,170,43,41,38,242,40,1*6E
$GPGSV,4,3,15,14,32,178,42,09,30,113,43,11,24,278,39,20,23,226,16,1*66
$GPGSV,4,4,15,04,21,080,22,03,15,038,21,12,08,321,,1*5B
$GPGSV,3,1,09,195,67,041,46,196,61,130,45,199,60,167,47,06,50,329,45,8*59
$GPGSV,3,2,09,194,44,170,46,14,32,178,46,09,30,113,43,11,24,278,45,8*51
$GPGSV,3,3,09,04,21,080,24,8*5D
$GLGSV,2,1,08,67,48,074,38,68,41,153,42,82,37,027,36,83,31,332,34,1*7E
$GLGSV,2,2,08,80,30,237,38,73,23,298,36,66,11,031,17,79,06,190,,1*71
$GAGSV,3,1,09,24,55,252,39,12,50,007,32,10,49,326,42,31,33,183,40,7*70
$GAGSV,3,2,09,11,33,293,37,19,29,093,38,04,23,157,40,25,22,312,35,7*76
$GAGSV,3,3,09,33,17,059,31,7*42
$GAGSV,3,1,09,24,55,252,45,12,50,007,40,10,49,326,44,11,33,293,34,1*7D
$GAGSV,3,2,09,31,33,183,44,19,29,093,37,04,23,157,34,25,22,312,36,1*7B
$GAGSV,3,3,09,33,17,059,34,1*41
$GBGSV,4,1,14,40,84,097,41,07,83,265,39,10,72,299,40,14,61,097,40,1*78
$GBGSV,4,2,14,08,59,262,41,33,57,156,42,43,54,044,38,13,49,252,43,1*74
$GBGSV,4,3,14,42,43,060,40,11,35,073,34,28,34,319,46,23,22,226,,1*71
$GBGSV,4,4,14,37,18,279,35,41,16,197,18,1*70
$GBGSV,2,1,06,40,84,097,45,33,57,156,47,43,54,044,34,42,43,060,40,4*70
$GBGSV,2,2,06,28,34,319,42,37,18,279,33,4*74
$GNGGA,033114.000,2500.8164811,N,12132.4426706,E,4,63,0.43,17.673,M,15.25,M,3,3335*41
$GNRMC,033114.000,A,2500.8164811,N,12132.4426706,E,0.02,227.48,270623,,,R,V*14
$GPHDT,316.217,T*35
$GNGGA,033114.200,2500.8164802,N,12132.4426675,E,4,64,0.43,17.688,M,15.25,M,3,3335*47
$GNRMC,033114.200,A,2500.8164802,N,12132.4426675,E,0.03,227.48,270623,,,R,V*10
$GPHDT,316.605,T*32
$GNGGA,033114.400,2500.8164814,N,12132.4426703,E,4,64,0.43,17.673,M,15.25,M,3,3335*42
$GNRMC,033114.400,A,2500.8164814,N,12132.4426703,E,0.02,227.48,270623,,,R,V*10
$GPHDT,316.304,T*36
$GNGGA,033114.600,2500.8164844,N,12132.4426711,E,4,65,0.42,17.668,M,15.25,M,3,3335*4C
$GNRMC,033114.600,A,2500.8164844,N,12132.4426711,E,0.02,227.48,270623,,,R,V*14
$GPHDT,316.280,T*3B
$GNGGA,033114.800,2500.8164844,N,12132.4426697,E,4,65,0.42,17.680,M,15.25,M,3,3335*4B
$GNRMC,033114.800,A,2500.8164844,N,12132.4426697,E,0.02,227.48,270623,,,R,V*15
$GPHDT,316.590,T*3D
$GNGSA,A,3,195,17,196,19,199,06,194,14,09,11,04,03,0.71,0.42,0.57,1*0E
$GNGSA,A,3,67,68,82,83,80,73,66,,,,,,0.71,0.42,0.57,2*02
$GNGSA,A,3,24,12,10,31,11,19,04,25,33,,,,0.71,0.42,0.57,3*0C
$GNGSA,A,3,40,07,10,14,08,33,43,13,42,11,28,37,0.71,0.42,0.57,4*04
$GNGSA,A,3,41,,,,,,,,,,,,0.71,0.42,0.57,4*03
$GPGSV,4,1,15,195,67,041,42,17,64,059,40,196,61,130,36,19,61,007,42,1*66
$GPGSV,4,2,15,199,60,167,34,06,50,329,44,194,44,170,43,41,38,242,40,1*6E
$GPGSV,4,3,15,14,32,178,42,09,30,113,43,11,24,278,39,20,23,226,15,1*65
$GPGSV,4,4,15,04,21,080,22,03,15,038,20,12,08,321,,1*5A
$GPGSV,3,1,09,195,67,041,46,196,61,130,45,199,60,167,47,06,50,329,45,8*59
$GPGSV,3,2,09,194,44,170,46,14,32,178,46,09,30,113,42,11,24,278,45,8*50
$GPGSV,3,3,09,04,21,080,24,8*5D
$GLGSV,2,1,08,67,48,074,39,68,41,153,42,82,37,027,36,83,31,332,34,1*7F
$GLGSV,2,2,08,80,30,237,38,73,23,298,36,66,11,031,17,79,06,190,,1*71
$GAGSV,3,1,09,24,55,252,40,12,50,007,32,10,49,326,42,31,33,183,40,7*7E
$GAGSV,3,2,09,11,33,293,37,19,29,093,38,04,23,157,40,25,22,312,35,7*76
$GAGSV,3,3,09,33,17,059,32,7*41
$GAGSV,3,1,09,24,55,252,44,12,50,007,40,10,49,326,44,11,33,293,34,1*7C
$GAGSV,3,2,09,31,33,183,44,19,29,093,37,04,23,157,34,25,22,312,36,1*7B
$GAGSV,3,3,09,33,17,059,34,1*41
$GBGSV,4,1,14,40,84,097,41,07,83,265,39,10,72,299,40,14,61,097,41,1*79
$GBGSV,4,2,14,08,59,262,41,33,57,156,42,43,54,044,38,13,49,252,43,1*74
$GBGSV,4,3,14,42,43,060,39,11,35,073,34,28,34,319,46,23,22,226,,1*7F
$GBGSV,4,4,14,37,18,279,35,41,16,197,18,1*70
$GBGSV,2,1,06,40,84,097,45,33,57,156,47,43,54,044,34,42,43,060,40,4*70
$GBGSV,2,2,06,28,34,319,42,37,18,279,33,4*74
$GNGGA,033115.000,2500.8164821,N,12132.4426702,E,4,65,0.42,17.685,M,15.25,M,4,3335*4E
$GNRMC,033115.000,A,2500.8164821,N,12132.4426702,E,0.01,227.48,270623,,,R,V*11
$GPHDT,316.519,T*3C
$GNGGA,033115.200,2500.8164815,N,12132.4426664,E,4,65,0.42,17.692,M,15.25,M,2,3335*4A
$GNRMC,033115.200,A,2500.8164815,N,12132.4426664,E,0.01,227.48,270623,,,R,V*15
$GPHDT,316.304,T*36
$GNGGA,033115.400,2500.8164817,N,12132.4426654,E,4,65,0.42,17.683,M,15.25,M,1,3335*4E
$GNRMC,033115.400,A,2500.8164817,N,12132.4426654,E,0.01,227.48,270623,,,R,V*12
