$FW : RTK35X,V1.1X0314AS,Lib20210517,1*54
$Tool : LOCOSYS , GNSS Firebird , v1.0.0.19*39
$---------------------------------------------------*2D
$GPHDT,92.272,T*09
$GNGGA,033318.800,2500.8164485,N,12132.4426958,E,4,66,0.43,17.653,M,15.25,M,12,3335*74
$GNRMC,033318.800,A,2500.8164485,N,12132.4426958,E,0.00,227.48,270623,,,R,V*14
$GPHDT,92.300,T*0D
$GNGSA,A,3,195,17,196,19,199,06,194,14,09,11,04,03,0.82,0.43,0.70,1*06
$GNGSA,A,3,67,68,82,83,80,73,66,,,,,,0.82,0.43,0.70,2*0A
$GNGSA,A,3,24,10,12,11,31,19,04,25,33,,,,0.82,0.43,0.70,3*04
$GNGSA,A,3,40,07,10,14,08,33,43,13,42,11,28,23,0.82,0.43,0.70,4*09
$GNGSA,A,3,37,,,,,,,,,,,,0.82,0.43,0.70,4*0A
$GPGSV,4,1,15,195,67,041,42,17,64,061,43,196,62,129,39,19,62,008,42,1*66
$GPGSV,4,2,15,199,60,167,32,06,50,330,43,194,43,170,34,41,38,242,41,1*61
$GPGSV,4,3,15,14,31,178,31,09,30,112,43,11,25,279,44,20,24,226,25,1*6D
$GPGSV,4,4,15,04,21,079,25,03,14,038,26,12,09,321,18,1*54
$GPGSV,3,1,10,195,67,041,45,196,62,129,44,199,60,167,39,06,50,330,47,8*5B
$GPGSV,3,2,10,194,43,170,33,14,31,178,28,09,30,112,44,11,25,279,43,8*57
$GPGSV,3,3,10,04,21,079,29,03,14,038,31,8*61
$GLGSV,2,1,08,67,48,072,43,68,42,152,39,82,37,029,43,83,31,333,30,1*73
$GLGSV,2,2,08,80,29,236,37,73,23,297,40,66,10,030,26,79,05,189,,1*70
$GAGSV,3,1,09,24,54,250,41,10,49,327,41,12,49,008,37,11,33,294,36,7*7A
$GAGSV,3,2,09,31,32,183,31,19,29,092,31,04,24,156,35,25,23,311,36,7*7C
$GAGSV,3,3,09,33,17,060,29,7*41
$GAGSV,3,1,09,24,54,250,43,10,49,327,45,12,49,008,41,11,33,294,38,1*75
$GAGSV,3,2,09,31,32,183,34,19,29,092,36,04,24,156,39,25,23,311,36,1*74
$GAGSV,3,3,09,33,17,060,30,1*4F
$GBGSV,4,1,16,40,84,102,40,07,82,262,40,10,72,298,37,14,61,095,43,1*7E
$GBGSV,4,2,16,08,59,263,40,33,58,155,42,43,53,046,45,13,49,252,41,1*77
$GBGSV,4,3,16,42,43,059,45,11,34,074,39,28,34,320,46,23,22,225,23,1*7F
$GBGSV,4,4,16,37,17,278,28,41,17,197,,25,05,181,,06,01,190,,1*7D
$GBGSV,2,1,06,40,84,102,46,33,58,155,40,43,53,046,45,42,43,059,45,4*79
$GBGSV,2,2,06,28,34,320,43,37,17,278,26,4*75
$GNGGA,033319.000,2500.8164525,N,12132.4426933,E,4,66,0.43,17.657,M,15.25,M,13,3335*7E
$GNRMC,033319.000,A,2500.8164525,N,12132.4426933,E,0.00,227.48,270623,,,R,V*1B
$GPHDT,92.165,T*0C
$GNGGA,033319.200,2500.8164611,N,12132.4426956,E,4,66,0.43,17.656,M,15.25,M,13,3335*7A
$GNRMC,033319.200,A,2500.8164611,N,12132.4426956,E,0.00,227.48,270623,,,R,V*1E
$GPHDT,92.229,T*07
$GNGGA,033319.400,2500.8164540,N,12132.4426953,E,4,66,0.43,17.651,M,15.25,M,13,3335*79
$GNRMC,033319.400,A,2500.8164540,N,12132.4426953,E,0.00,227.48,270623,,,R,V*1A
$GPHDT,92.317,T*0B
$GNGGA,033319.600,2500.8164495,N,12132.4426945,E,4,66,0.43,17.662,M,15.25,M,13,3335*75
$GNRMC,033319.600,A,2500.8164495,N,12132.4426945,E,0.00,227.48,270623,,,R,V*16
$GPHDT,92.305,T*08
$GNGGA,033319.800,2500.8164468,N,12132.4426946,E,4,66,0.43,17.659,M,15.25,M,13,3335*72
$GNRMC,033319.800,A,2500.8164468,N,12132.4426946,E,0.00,227.48,270623,,,R,V*19
$GPHDT,92.455,T*0A
$GNGSA,A,3,195,17,196,19,199,06,194,14,09,11,04,03,0.82,0.43,0.70,1*06
$GNGSA,A,3,67,68,82,83,80,73,66,,,,,,0.82,0.43,0.70,2*0A
$GNGSA,A,3,24,10,12,11,31,19,04,25,33,,,,0.82,0.43,0.70,3*04
$GNGSA,A,3,40,07,10,14,08,33,43,13,42,28,11,23,0.82,0.43,0.70,4*09
$GNGSA,A,3,37,,,,,,,,,,,,0.82,0.43,0.70,4*0A
$GPGSV,4,1,15,195,67,041,42,17,64,061,43,196,62,129,39,19,62,008,42,1*66
$GPGSV,4,2,15,199,60,167,33,06,50,330,43,194,43,170,32,41,38,242,41,1*66
$GPGSV,4,3,15,14,31,178,31,09,30,112,43,11,25,279,44,20,24,226,24,1*6C
$GPGSV,4,4,15,04,21,079,27,03,14,038,27,12,09,321,18,1*57
$GPGSV,3,1,10,195,67,041,46,196,62,129,44,199,60,167,39,06,50,330,47,8*58
$GPGSV,3,2,10,194,43,170,35,14,31,178,25,09,30,112,45,11,25,279,43,8*5D
$GPGSV,3,3,10,04,21,079,29,03,14,038,32,8*62
$GLGSV,2,1,08,67,48,072,43,68,42,152,39,82,37,029,43,83,31,333,30,1*73
$GLGSV,2,2,08,80,29,236,37,73,23,297,40,66,10,030,24,79,05,189,,1*72
$GAGSV,3,1,09,24,54,250,41,10,49,327,41,12,49,008,37,11,33,294,36,7*7A
$GAGSV,3,2,09,31,32,183,31,19,29,092,31,04,24,156,35,25,23,311,36,7*7C
$GAGSV,3,3,09,33,17,060,27,7*4F
$GAGSV,3,1,09,24,54,250,43,10,49,327,45,12,49,008,41,11,33,294,38,1*75
$GAGSV,3,2,09,31,32,183,34,19,29,092,36,04,24,156,39,25,23,311,37,1*75
$GAGSV,3,3,09,33,17,060,30,1*4F
$GBGSV,4,1,14,40,84,102,40,07,82,262,40,10,72,298,37,14,61,095,43,1*7C
$GBGSV,4,2,14,08,59,263,40,33,58,155,42,43,53,046,45,13,49,252,41,1*75
$GBGSV,4,3,14,42,43,059,45,28,34,320,46,11,34,074,40,23,22,225,23,1*73
$GBGSV,4,4,14,37,17,278,27,41,17,197,,1*75
$GBGSV,2,1,06,40,84,102,46,33,58,155,41,43,53,046,45,42,43,059,45,4*78
$GBGSV,2,2,06,28,34,320,43,37,17,278,29,4*7A
$GNGGA,033320.000,2500.8164434,N,12132.4426975,E,4,66,0.43,17.653,M,15.25,M,14,3335*74
$GNRMC,033320.000,A,2500.8164434,N,12132.4426975,E,0.00,227.48,270623,,,R,V*12
$GPHDT,92.647,T*0B
$GNGGA,033320.200,2500.8164501,N,12132.4426959,E,4,66,0.43,17.662,M,15.25,M,14,3335*7D
$GNRMC,033320.200,A,2500.8164501,N,12132.4426959,E,0.00,227.48,270623,,,R,V*19
$GPHDT,92.747,T*0A
$GNGGA,033320.400,2500.8164431,N,12132.4427017,E,4,66,0.43,17.662,M,15.25,M,14,3335*7B
$GNRMC,033320.400,A,2500.8164431,N,12132.4427017,E,0.00,227.48,270623,,,R,V*1F
$GPHDT,92.742,T*0F
$GNGGA,033320.600,2500.8164500,N,12132.4426979,E,4,66,0.43,17.668,M,15.25,M,14,3335*70
$GNRMC,033320.600,A,2500.8164500,N,12132.4426979,E,0.00,227.48,270623,,,R,V*1E
$GPHDT,92.442,T*0C
$GNGGA,033320.800,2500.8164474,N,12132.4426980,E,4,66,0.43,17.678,M,15.25,M,14,3335*7B
$GNRMC,033320.800,A,2500.8164474,N,12132.4426980,E,0.00,227.48,270623,,,R,V*14
$GPHDT,92.450,T*0F
$GNGSA,A,3,195,17,196,19,199,06,194,14,09,11,04,03,0.82,0.43,0.70,1*06
$GNGSA,A,3,67,68,82,83,80,73,66,,,,,,0.82,0.43,0.70,2*0A
$GNGSA,A,3,24,10,12,11,31,19,04,25,33,,,,0.82,0.43,0.70,3*04
$GNGSA,A,3,40,07,10,14,08,33,43,13,42,28,11,23,0.82,0.43,0.70,4*09
$GNGSA,A,3,37,,,,,,,,,,,,0.82,0.43,0.70,4*0A
$GPGSV,4,1,15,195,67,041,42,17,64,061,43,196,62,129,39,19,62,008,42,1*66
$GPGSV,4,2,15,199,60,167,34,06,50,331,40,194,43,170,30,41,38,242,42,1*62
$GPGSV,4,3,15,14,31,178,35,09,30,112,43,11,25,279,44,20,24,226,23,1*6F
$GPGSV,4,4,15,04,21,079,28,03,14,038,26,12,09,321,20,1*52
$GPGSV,3,1,10,195,67,041,47,196,62,129,45,199,60,167,41,06,50,331,47,8*56
$GPGSV,3,2,10,194,43,170,35,14,31,178,27,09,30,112,45,11,25,279,42,8*5E
$GPGSV,3,3,10,04,21,079,30,03,14,038,31,8*69
$GLGSV,2,1,08,67,48,072,43,68,42,152,39,82,37,029,43,83,31,333,29,1*7B
$GLGSV,2,2,08,80,29,236,37,73,23,297,41,66,10,030,24,79,05,189,,1*73
$GAGSV,3,1,09,24,54,250,41,10,49,327,40,12,49,008,37,11,33,294,36,7*7B
$GAGSV,3,2,09,31,32,183,33,19,29,092,31,04,24,156,36,25,23,311,36,7*7D
$GAGSV,3,3,09,33,17,060,25,7*4D
$GAGSV,3,1,09,24,54,250,43,10,49,327,45,12,49,008,41,11,33,294,38,1*75
$GAGSV,3,2,09,31,32,183,34,19,29,092,36,04,24,156,38,25,23,311,38,1*7B
$GAGSV,3,3,09,33,17,060,30,1*4F
$GBGSV,4,1,14,40,84,102,40,07,82,262,41,10,72,298,38,14,61,095,43,1*72
$GBGSV,4,2,14,08,59,263,40,33,58,155,42,43,53,046,45,13,49,252,40,1*74
$GBGSV,4,3,14,42,43,059,45,28,34,320,46,11,34,074,40,23,22,225,23,1*73
$GBGSV,4,4,14,37,17,278,26,41,17,197,,1*74
$GBGSV,2,1,06,40,84,102,46,33,58,155,43,43,53,046,45,42,43,059,45,4*7A
$GBGSV,2,2,06,28,34,320,43,37,17,278,29,4*7A
$GNGGA,033321.000,2500.8164514,N,12132.4426982,E,4,66,0.43,17.682,M,15.25,M,15,3335*73
$GNRMC,033321.000,A,2500.8164514,N,12132.4426982,E,0.00,227.48,270623,,,R,V*18
$GPHDT,92.488,T*0A
$GNGGA,033321.200,2500.8164516,N,12132.4426960,E,4,66,0.43,17.683,M,15.25,M,14,3335*7F
$GNRMC,033321.200,A,2500.8164516,N,12132.4426960,E,0.00,227.48,270623,,,R,V*14
$GPHDT,92.978,T*08
$GNGGA,033321.400,2500.8164493,N,12132.4426958,E,4,66,0.43,17.686,M,15.25,M,14,3335*7B
$GNRMC,033321.400,A,2500.8164493,N,12132.4426958,E,0.00,227.48,270623,,,R,V*15
$GPHDT,92.288,T*0C
$GNGGA,033321.600,2500.8164494,N,12132.4426950,E,4,66,0.43,17.682,M,15.25,M,14,3335*72
$GNRMC,033321.600,A,2500.8164494,N,12132.4426950,E,0.00,227.48,270623,,,R,V*18
$GPHDT,92.505,T*0E
$GNGGA,033321.800,2500.8164499,N,12132.4426964,E,4,66,0.43,17.678,M,15.25,M,14,3335*73
$GNRMC,033321.800,A,2500.8164499,N,12132.4426964,E,0.00,227.48,270623,,,R,V*1C
$GPHDT,92.688,T*08
$GNGSA,A,3,195,17,196,19,199,06,194,14,09,11,03,04,0.82,0.43,0.70,1*06
$GNGSA,A,3,67,68,82,83,80,73,66,,,,,,0.82,0.43,0.70,2*0A
$GNGSA,A,3,24,10,12,11,31,19,04,25,33,,,,0.82,0.43,0.70,3*04
$GNGSA,A,3,40,07,10,14,08,33,43,13,42,28,11,23,0.82,0.43,0.70,4*09
$GNGSA,A,3,37,,,,,,,,,,,,0.82,0.43,0.70,4*0A
$GPGSV,4,1,15,195,67,041,42,17,64,061,43,196,62,129,40,19,62,008,42,1*68
$GPGSV,4,2,15,199,60,167,34,06,50,331,40,194,43,170,28,41,38,242,42,1*6B
$GPGSV,4,3,15,14,31,178,35,09,30,112,43,11,25,279,44,20,24,226,23,1*6F
$GPGSV,4,4,15,04,21,079,24,03,14,038,26,12,09,321,21,1*5F
$GPGSV,3,1,10,195,67,041,47,196,62,129,45,199,60,167,41,06,50,331,47,8*56
$GPGSV,3,2,10,194,43,170,33,14,31,178,23,09,30,112,45,11,25,279,43,8*5D
$GPGSV,3,3,10,04,21,079,29,03,14,038,32,8*62
$GLGSV,2,1,08,67,48,072,43,68,42,152,39,82,37,029,43,83,31,333,28,1*7A
$GLGSV,2,2,08,80,29,236,38,73,23,297,41,66,10,030,26,79,05,189,,1*7E
$GAGSV,3,1,09,24,54,250,41,10,49,327,40,12,49,008,37,11,33,294,36,7*7B
$GAGSV,3,2,09,31,32,183,33,19,29,092,32,04,24,156,35,25,23,311,38,7*73
$GAGSV,3,3,09,33,17,060,29,7*41
$GAGSV,3,1,09,24,54,250,43,10,49,327,45,12,49,008,41,11,33,294,38,1*75
$GAGSV,3,2,09,31,32,183,32,19,29,092,36,04,24,156,36,25,23,311,37,1*7C
$GAGSV,3,3,09,33,17,060,30,1*4F
$GBGSV,4,1,14,40,84,102,41,07,82,262,41,10,72,298,38,14,61,095,43,1*73
$GBGSV,4,2,14,08,59,263,40,33,58,155,43,43,53,046,45,13,49,252,40,1*75
$GBGSV,4,3,14,42,43,059,45,28,34,320,45,11,34,074,40,23,22,225,23,1*70
$GBGSV,4,4,14,37,17,278,28,41,17,197,,1*7A
$GBGSV,2,1,06,40,84,102,45,33,58,155,43,43,53,046,44,42,43,059,45,4*78
$GBGSV,2,2,06,28,34,320,43,37,17,278,32,4*70
$GNGGA,033322.000,2500.8164509,N,12132.4426973,E,4,65,0.43,17.678,M,15.25,M,15,3335*74
$GNRMC,033322.000,A,2500.8164509,N,12132.4426973,E,0.00,227.48,270623,,,R,V*19
$GPHDT,92.166,T*0F
$GNGGA,033322.200,2500.8164452,N,12132.4426959,E,4,66,0.43,17.675,M,15.25,M,15,3335*7F
$GNRMC,033322.200,A,2500.8164452,N,12132.4426959,E,0.00,227.48,270623,,,R,V*1C
$GPHDT,92.959,T*0B
$GNGGA,033322.400,2500.8164454,N,12132.4426992,E,4,66,0.43,17.667,M,15.25,M,15,3335*7B
$GNRMC,033322.400,A,2500.8164454,N,12132.4426992,E,0.00,227.48,270623,,,R,V*1B
$GPHDT,92.577,T*0B
$GNGGA,033322.600,2500.8164474,N,12132.4426985,E,4,66,0.43,17.667,M,15.25,M,15,3335*7D
$GNRMC,033322.600,A,2500.8164474,N,12132.4426985,E,0.00,227.48,270623,,,R,V*1D
$GPHDT,92.246,T*0E
$GNGGA,033322.800,2500.8164467,N,12132.4426976,E,4,66,0.43,17.673,M,15.25,M,15,3335*78
$GNRMC,033322.800,A,2500.8164467,N,12132.4426976,E,0.00,227.48,270623,,,R,V*1D
$GPHDT,92.191,T*07
$GNGSA,A,3,195,17,196,19,199,06,194,14,09,11,04,03,0.82,0.43,0.70,1*06
$GNGSA,A,3,67,68,82,83,80,73,66,,,,,,0.82,0.43,0.70,2*0A
$GNGSA,A,3,24,10,12,11,31,19,04,25,33,,,,0.82,0.43,0.70,3*04
$GNGSA,A,3,40,07,10,14,08,33,43,13,42,28,11,23,0.82,0.43,0.70,4*09
$GNGSA,A,3,37,,,,,,,,,,,,0.82,0.43,0.70,4*0A
$GPGSV,4,1,15,195,67,041,41,17,64,061,43,196,62,129,40,19,62,008,42,1*6B
$GPGSV,4,2,15,199,60,167,35,06,50,331,40,194,43,170,32,41,38,242,41,1*62
$GPGSV,4,3,15,14,31,178,34,09,30,112,43,11,25,279,44,20,24,226,22,1*6F
$GPGSV,4,4,15,04,21,079,26,03,14,038,25,12,09,321,20,1*5F
$GPGSV,3,1,10,195,67,041,47,196,62,129,45,199,60,167,41,06,50,331,47,8*56
$GPGSV,3,2,10,194,43,170,26,14,31,178,22,09,30,112,45,11,25,279,43,8*58
$GPGSV,3,3,10,04,21,079,29,03,14,038,32,8*62
$GLGSV,2,1,08,67,48,072,41,68,42,152,39,82,37,029,43,83,31,333,29,1*79
$GLGSV,2,2,08,80,29,236,38,73,23,297,41,66,10,030,26,79,05,189,,1*7E
$GAGSV,3,1,09,24,54,250,41,10,49,327,40,12,49,008,38,11,33,294,36,7*74
$GAGSV,3,2,09,31,32,183,33,19,29,092,32,04,24,156,35,25,23,311,38,7*73
$GAGSV,3,3,09,33,17,060,29,7*41
$GAGSV,3,1,09,24,54,250,43,10,49,327,45,12,49,008,41,11,33,294,38,1*75
$GAGSV,3,2,09,31,32,183,33,19,29,092,36,04,24,156,36,25,23,311,37,1*7D
$GAGSV,3,3,09,33,17,060,30,1*4F
$GBGSV,4,1,14,40,84,102,42,07,82,262,41,10,72,298,38,14,61,095,42,1*71
$GBGSV,4,2,14,08,59,263,40,33,58,155,43,43,53,046,45,13,49,252,40,1*75
$GBGSV,4,3,14,42,43,059,46,28,34,320,45,11,34,074,40,23,22,225,23,1*73
$GBGSV,4,4,14,37,17,278,26,41,17,197,,1*74
$GBGSV,2,1,06,40,84,102,45,33,58,155,43,43,53,046,44,42,43,059,45,4*78
$GBGSV,2,2,06,28,34,320,43,37,17,278,29,4*7A
$GNGGA,033323.000,2500.8164485,N,12132.4426983,E,4,66,0.43,17.680,M,15.25,M,16,3335*78
$GNRMC,033323.000,A,2500.8164485,N,12132.4426983,E,0.00,227.48,270623,,,R,V*12
$GPHDT,92.074,T*0D
$GNGGA,033323.200,2500.8164480,N,12132.4426982,E,4,66,0.43,17.674,M,15.25,M,16,3335*75
$GNRMC,033323.200,A,2500.8164480,N,12132.4426982,E,0.00,227.48,270623,,,R,V*14
$GPHDT,92.071,T*08
$GNGGA,033323.400,2500.8164494,N,12132.4426979,E,4,65,0.43,17.673,M,15.25,M,16,3335*76
$GNRMC,033323.400,A,2500.8164494,N,12132.4426979,E,0.00,227.48,270623,,,R,V*13
$GPHDT,92.198,T*0E
$GNGGA,033323.600,2500.8164569,N,12132.4426976,E,4,65,0.43,17.677,M,15.25,M,16,3335*7C
$GNRMC,033323.600,A,2500.8164569,N,12132.4426976,E,0.00,227.48,270623,,,R,V*1D
$GPHDT,92.146,T*0D
$GNGGA,033323.800,2500.8164511,N,12132.4427003,E,4,65,0.43,17.676,M,15.25,M,16,3335*76
$GNRMC,033323.800,A,2500.8164511,N,12132.4427003,E,0.00,227.48,270623,,,R,V*16
$GPHDT,92.305,T*08
$GNGSA,A,3,195,17,196,19,199,06,194,14,09,11,03,04,0.82,0.43,0.70,1*06
$GNGSA,A,3,67,68,82,83,80,73,66,,,,,,0.82,0.43,0.70,2*0A
$GNGSA,A,3,24,10,12,11,31,19,04,25,33,,,,0.82,0.43,0.70,3*04
$GNGSA,A,3,40,07,10,14,08,33,43,13,42,28,11,23,0.82,0.43,0.70,4*09
$GNGSA,A,3,37,,,,,,,,,,,,0.82,0.43,0.70,4*0A
$GPGSV,4,1,15,195,67,041,41,17,64,061,42,196,62,129,40,19,62,008,42,1*6A
$GPGSV,4,2,15,199,60,167,36,06,50,331,40,194,43,170,32,41,38,242,41,1*61
$GPGSV,4,3,15,14,31,178,32,09,30,112,43,11,25,279,44,20,24,227,20,1*6A
$GPGSV,4,4,15,04,21,079,,03,14,038,25,12,09,321,21,1*5A
$GPGSV,3,1,10,195,67,041,47,196,62,129,45,199,60,167,41,06,50,331,47,8*56
$GPGSV,3,2,10,194,43,170,23,14,31,178,27,09,30,112,45,11,25,279,43,8*58
$GPGSV,3,3,10,04,21,079,29,03,14,038,31,8*61
$GLGSV,2,1,08,67,48,072,41,68,42,152,40,82,37,029,43,83,31,333,29,1*77
$GLGSV,2,2,08,80,29,236,38,73,23,297,41,66,10,030,25,79,05,189,,1*7D
$GAGSV,3,1,09,24,54,250,41,10,49,327,40,12,49,008,38,11,33,294,36,7*74
$GAGSV,3,2,09,31,32,183,33,19,29,092,32,04,24,156,35,25,23,311,38,7*73
$GAGSV,3,3,09,33,17,060,30,7*49
$GAGSV,3,1,09,24,54,250,43,10,49,327,45,12,49,008,41,11,33,294,38,1*75
$GAGSV,3,2,09,31,32,183,34,19,29,092,37,04,24,156,35,25,23,311,37,1*78
$GAGSV,3,3,09,33,17,060,30,1*4F
$GBGSV,4,1,14,40,84,102,42,07,82,262,41,10,72,298,38,14,61,095,42,1*71
$GBGSV,4,2,14,08,59,263,40,33,58,155,43,43,53,046,45,13,49,252,40,1*75
$GBGSV,4,3,14,42,43,059,46,28,34,320,45,11,34,074,40,23,22,225,21,1*71
$GBGSV,4,4,14,37,17,278,26,41,17,197,,1*74
$GBGSV,2,1,06,40,84,102,45,33,58,155,43,43,53,046,44,42,43,059,45,4*78
$GBGSV,2,2,06,28,34,320,43,37,17,278,29,4*7A
$GNGGA,033324.000,2500.8164543,N,12132.4426999,E,4,65,0.43,17.677,M,15.25,M,17,3335*75
$GNRMC,033324.000,A,2500.8164543,N,12132.4426999,E,0.00,227.48,270623,,,R,V*15
$GPHDT,92.436,T*0F
$GNGGA,033324.200,2500.8164466,N,12132.4427026,E,4,65,0.43,17.673,M,15.25,M,17,3335*79
$GNRMC,033324.200,A,2500.8164466,N,12132.4427026,E,0.00,227.48,270623,,,R,V*1D
$GPHDT,92.142,T*09
$GNGGA,033324.400,2500.8164585,N,12132.4427022,E,4,65,0.43,17.679,M,15.25,M,17,3335*7D
$GNRMC,033324.400,A,2500.8164585,N,12132.4427022,E,0.00,227.48,270623,,,R,V*13
$GPHDT,92.291,T*04
$GNGGA,033324.600,2500.8164501,N,12132.4427064,E,4,65,0.43,17.672,M,15.25,M,17,3335*7A
$GNRMC,033324.600,A,2500.8164501,N,12132.4427064,E,0.00,227.48,270623,,,R,V*1F
$GPHDT,92.461,T*0D
$GNGGA,033324.800,2500.8164491,N,12132.4427057,E,4,65,0.43,17.676,M,15.25,M,17,3335*78
$GNRMC,033324.800,A,2500.8164491,N,12132.4427057,E,0.00,227.48,270623,,,R,V*19
$GPHDT,92.474,T*09
$GNGSA,A,3,195,17,196,19,199,06,194,14,09,11,03,04,0.82,0.43,0.70,1*06
$GNGSA,A,3,67,68,82,83,80,73,66,,,,,,0.82,0.43,0.70,2*0A
$GNGSA,A,3,24,10,12,11,31,19,04,25,33,,,,0.82,0.43,0.70,3*04
$GNGSA,A,3,40,07,10,14,08,33,43,13,42,28,11,23,0.82,0.43,0.70,4*09
$GNGSA,A,3,37,,,,,,,,,,,,0.82,0.43,0.70,4*0A
$GPGSV,4,1,15,195,67,041,41,17,64,061,42,196,62,129,40,19,62,008,42,1*6A
$GPGSV,4,2,15,199,60,167,36,06,50,331,41,194,43,170,29,41,38,242,42,1*69
$GPGSV,4,3,15,14,31,178,31,09,30,112,44,11,25,279,45,20,24,227,18,1*64
$GPGSV,4,4,15,04,21,079,,03,14,038,25,12,09,321,20,1*5B
$GPGSV,3,1,10,195,67,041,47,196,62,129,46,199,60,167,41,06,50,331,47,8*55
$GPGSV,3,2,10,194,43,170,29,14,31,178,27,09,30,112,45,11,25,279,43,8*52
$GPGSV,3,3,10,04,21,079,29,03,14,038,31,8*61
$GLGSV,2,1,08,67,48,072,41,68,42,152,40,82,37,029,43,83,31,333,30,1*7F
$GLGSV,2,2,08,80,29,236,38,73,23,297,41,66,10,030,26,79,05,189,,1*7E
$GAGSV,3,1,09,24,54,250,41,10,49,327,40,12,49,008,38,11,33,294,36,7*74
$GAGSV,3,2,09,31,32,183,31,19,29,092,32,04,24,156,35,25,23,311,37,7*7E
$GAGSV,3,3,09,33,17,060,31,7*48
$GAGSV,3,1,09,24,54,250,43,10,49,327,45,12,49,008,41,11,33,294,38,1*75
$GAGSV,3,2,09,31,32,183,34,19,29,092,38,04,24,156,35,25,23,311,38,1*78
$GAGSV,3,3,09,33,17,060,30,1*4F
$GBGSV,4,1,14,40,84,102,42,07,82,262,41,10,72,298,38,14,61,095,42,1*71
$GBGSV,4,2,14,08,59,263,40,33,58,155,43,43,53,046,45,13,49,252,40,1*75
$GBGSV,4,3,14,42,43,059,46,28,34,320,45,11,34,074,39,23,22,225,21,1*7F
$GBGSV,4,4,14,37,17,278,26,41,17,197,,1*74
$GBGSV,2,1,06,40,84,102,45,33,58,155,43,43,53,046,44,42,43,059,45,4*78
$GBGSV,2,2,06,28,34,320,43,37,17,278,29,4*7A
$GNGGA,033325.000,2500.8164593,N,12132.4427032,E,4,65,0.43,17.680,M,15.25,M,18,3335*77
$GNRMC,033325.000,A,2500.8164593,N,12132.4427032,E,0.00,227.48,270623,,,R,V*10
$GPHDT,92.429,T*01
$GNGGA,033325.200,2500.8164433,N,12132.4427031,E,4,65,0.43,17.670,M,15.25,M,18,3335*72
$GNRMC,033325.200,A,2500.8164433,N,12132.4427031,E,0.00,227.48,270623,,,R,V*1A
$GPHDT,92.305,T*08
$GNGGA,033325.400,2500.8164452,N,12132.4427035,E,4,66,0.43,17.673,M,15.25,M,18,3335*77
$GNRMC,033325.400,A,2500.8164452,N,12132.4427035,E,0.00,227.48,270623,,,R,V*1F
$GPHDT,92.324,T*0B
$GNGGA,033325.600,2500.8164534,N,12132.4427051,E,4,65,0.43,17.674,M,15.25,M,18,3335*72
$GNRMC,033325.600,A,2500.8164534,N,12132.4427051,E,0.00,227.48,270623,,,R,V*1E
$GPHDT,92.330,T*0E
$GNGGA,033325.800,2500.8164553,N,12132.4427031,E,4,65,0.43,17.688,M,15.25,M,18,3335*78
$GNRMC,033325.800,A,2500.8164553,N,12132.4427031,E,0.00,227.48,270623,,,R,V*17
$GPHDT,92.726,T*0D
$GNGSA,A,3,195,17,196,19,199,06,194,14,09,11,03,04,0.84,0.44,0.72,1*05
$GNGSA,A,3,67,68,82,83,80,73,66,,,,,,0.84,0.44,0.72,2*09
$GNGSA,A,3,24,10,12,11,31,19,04,25,33,,,,0.84,0.44,0.72,3*07
$GNGSA,A,3,40,07,10,14,08,33,43,13,42,28,11,37,0.84,0.44,0.72,4*0F
$GPGSV,4,1,15,195,67,041,41,17,64,061,42,196,62,129,40,19,62,008,42,1*6A
$GPGSV,4,2,15,199,60,167,36,06,50,331,41,194,43,170,28,41,38,242,43,1*69
$GPGSV,4,3,15,14,31,178,32,09,30,112,44,11,25,279,45,20,24,227,16,1*69
$GPGSV,4,4,15,04,21,079,,03,14,038,24,12,09,321,21,1*5B
$GPGSV,3,1,10,195,67,041,47,196,62,129,46,199,60,167,41,06,50,331,47,8*55
$GPGSV,3,2,10,194,43,170,32,14,31,178,22,09,30,112,45,11,25,279,43,8*5D
$GPGSV,3,3,10,04,21,079,29,03,14,038,31,8*61
$GLGSV,2,1,08,67,48,072,41,68,42,152,40,82,37,029,43,83,31,333,30,1*7F
$GLGSV,2,2,08,80,29,236,38,73,23,297,41,66,10,030,27,79,05,189,,1*7F
$GAGSV,3,1,09,24,54,250,41,10,49,327,40,12,49,008,38,11,33,294,36,7*74
$GAGSV,3,2,09,31,32,183,32,19,29,092,32,04,24,156,35,25,23,311,37,7*7D
$GAGSV,3,3,09,33,17,060,30,7*49
$GAGSV,3,1,09,24,54,250,43,10,49,327,45,12,49,008,41,11,33,294,38,1*75
$GAGSV,3,2,09,31,32,183,34,19,29,092,37,04,24,156,33,25,23,311,38,1*71
$GAGSV,3,3,09,33,17,060,29,1*47
$GBGSV,4,1,14,40,84,102,42,07,82,262,41,10,72,298,38,14,61,095,42,1*71
$GBGSV,4,2,14,08,59,263,40,33,58,155,43,43,53,046,45,13,49,252,40,1*75
$GBGSV,4,3,14,42,43,059,46,28,34,320,45,11,34,074,40,23,22,225,,1*72
$GBGSV,4,4,14,37,17,278,25,41,17,197,,1*77
$GBGSV,2,1,06,40,84,102,45,33,58,155,43,43,53,046,44,42,43,059,45,4*78
$GBGSV,2,2,06,28,34,320,43,37,17,278,31,4*73
$GNGGA,033326.000,2500.8164531,N,12132.4427046,E,4,64,0.44,17.674,M,15.25,M,19,3335*73
$GNRMC,033326.000,A,2500.8164531,N,12132.4427046,E,0.00,227.48,270623,,,R,V*18
$GPHDT,92.573,T*0F
$GNGGA,033326.200,2500.8164520,N,12132.4427043,E,4,64,0.44,17.684,M,15.25,M,19,3335*7B
$GNRMC,033326.200,A,2500.8164520,N,12132.4427043,E,0.00,227.48,270623,,,R,V*1F
$GPHDT,92.252,T*0B
$GNGGA,033326.400,2500.8164482,N,12132.4427036,E,4,64,0.44,17.685,M,15.25,M,19,3335*77
$GNRMC,033326.400,A,2500.8164482,N,12132.4427036,E,0.00,227.48,270623,,,R,V*12
$GPHDT,92.102,T*0D
$GNGGA,033326.600,2500.8164545,N,12132.4427053,E,4,65,0.43,17.686,M,15.25,M,19,3335*79
$GNRMC,033326.600,A,2500.8164545,N,12132.4427053,E,0.00,227.48,270623,,,R,V*19
$GPHDT,92.475,T*08
$GNGGA,033326.800,2500.8164542,N,12132.4427072,E,4,65,0.43,17.686,M,15.25,M,19,3335*73
$GNRMC,033326.800,A,2500.8164542,N,12132.4427072,E,0.00,227.48,270623,,,R,V*13
$GPHDT,92.584,T*07
$GNGSA,A,3,195,17,196,19,199,06,194,14,09,11,03,04,0.82,0.43,0.70,1*06
$GNGSA,A,3,67,68,82,83,80,73,66,,,,,,0.82,0.43,0.70,2*0A
$GNGSA,A,3,24,10,12,11,31,19,04,25,33,,,,0.82,0.43,0.70,3*04
$GNGSA,A,3,40,07,10,14,08,33,43,13,42,28,11,37,0.82,0.43,0.70,4*0C
$GNGSA,A,3,23,,,,,,,,,,,,0.82,0.43,0.70,4*0F
$GPGSV,4,1,15,195,67,041,42,17,64,061,42,196,62,129,40,19,62,008,42,1*69
$GPGSV,4,2,15,199,60,167,36,06,50,331,41,194,43,170,26,41,38,242,43,1*67
$GPGSV,4,3,15,14,31,178,33,09,30,112,44,11,25,279,45,20,24,227,16,1*68
$GPGSV,4,4,15,04,21,079,,03,14,038,25,12,09,321,20,1*5B
$GPGSV,3,1,10,195,67,041,47,196,62,129,46,199,60,167,41,06,50,331,47,8*55
$GPGSV,3,2,10,194,43,170,33,14,31,178,25,09,30,112,45,11,25,279,43,8*5B
$GPGSV,3,3,10,04,21,079,29,03,14,038,31,8*61
$GLGSV,2,1,08,67,48,072,40,68,42,152,40,82,37,029,43,83,31,333,30,1*7E
$GLGSV,2,2,08,80,29,236,38,73,23,297,41,66,10,030,28,79,05,189,,1*70
$GAGSV,3,1,09,24,54,250,41,10,49,327,40,12,49,008,38,11,33,294,36,7*74
$GAGSV,3,2,09,31,32,183,32,19,29,092,33,04,24,156,35,25,23,311,37,7*7C
$GAGSV,3,3,09,33,17,060,29,7*41
$GAGSV,3,1,09,24,54,250,44,10,49,327,45,12,49,008,41,11,33,294,38,1*72
$GAGSV,3,2,09,31,32,183,33,19,29,092,37,04,24,156,31,25,23,311,38,1*74
$GAGSV,3,3,09,33,17,060,29,1*47
$GBGSV,4,1,14,40,84,102,42,07,82,262,41,10,72,298,39,14,61,095,42,1*70
$GBGSV,4,2,14,08,59,263,40,33,58,155,43,43,53,046,45,13,49,252,40,1*75
$GBGSV,4,3,14,42,43,059,46,28,34,320,45,11,34,074,41,23,22,225,,1*73
$GBGSV,4,4,14,37,17,278,25,41,17,197,,1*77
$GBGSV,2,1,07,40,84,102,45,33,58,155,43,43,53,046,44,42,43,059,45,4*79
$GBGSV,2,2,07,28,34,320,43,23,22,225,18,37,17,278,31,4*4F
$GNGGA,033327.000,2500.8164554,N,12132.4427065,E,4,65,0.43,17.687,M,15.25,M,20,3335*70
$GNRMC,033327.000,A,2500.8164554,N,12132.4427065,E,0.00,227.48,270623,,,R,V*1B
$GPHDT,92.586,T*05
$GNGGA,033327.200,2500.8164757,N,12132.4426955,E,4,65,0.43,17.729,M,15.25,M,20,3335*7D
$GNRMC,033327.200,A,2500.8164757,N,12132.4426955,E,0.00,227.48,270623,,,R,V*13
$GPHDT,92.505,T*0E
$GNGGA,033327.400,2500.8164801,N,12132.4426956,E,4,65,0.43,17.734,M,15.25,M,20,3335*78
$GNRMC,033327.400,A,2500.8164801,N,12132.4426956,E,0.00,227.48,270623,,,R,V*1A
$GPHDT,92.786,T*07
$GNGGA,033327.600,2500.8164762,N,12132.4426964,E,4,65,0.43,17.737,M,15.25,M,20,3335*72
$GNRMC,033327.600,A,2500.8164762,N,12132.4426964,E,0.00,227.48,270623,,,R,V*13
$GPHDT,92.534,T*0C
$GNGGA,033327.800,2500.8164743,N,12132.4426951,E,4,65,0.43,17.731,M,15.25,M,20,3335*7F
$GNRMC,033327.800,A,2500.8164743,N,12132.4426951,E,0.00,227.48,270623,,,R,V*18
$GPHDT,92.518,T*02
$GNGSA,A,3,195,17,196,19,199,06,194,14,09,11,03,04,0.82,0.43,0.70,1*06
$GNGSA,A,3,67,68,82,83,80,73,66,,,,,,0.82,0.43,0.70,2*0A
$GNGSA,A,3,24,10,12,11,31,19,04,25,33,,,,0.82,0.43,0.70,3*04
$GNGSA,A,3,40,07,10,14,08,33,43,13,42,28,11,37,0.82,0.43,0.70,4*0C
$GNGSA,A,3,23,,,,,,,,,,,,0.82,0.43,0.70,4*0F
$GPGSV,4,1,15,195,67,041,42,17,64,061,42,196,62,129,40,19,62,008,42,1*69
$GPGSV,4,2,15,199,60,167,35,06,50,331,41,194,43,170,25,41,38,242,43,1*67
$GPGSV,4,3,15,14,31,178,33,09,30,112,44,11,25,279,45,20,24,227,16,1*68
$GPGSV,4,4,15,04,21,079,,03,14,038,26,12,09,321,20,1*58
$GPGSV,3,1,10,195,67,041,47,196,62,129,46,199,60,167,41,06,50,331,47,8*55
$GPGSV,3,2,10,194,43,170,33,14,31,178,26,09,30,112,45,11,25,279,43,8*58
$GPGSV,3,3,10,04,21,079,29,03,14,038,31,8*61
$GLGSV,2,1,08,67,48,072,40,68,42,152,40,82,37,029,43,83,31,333,30,1*7E
$GLGSV,2,2,08,80,29,236,38,73,23,297,41,66,10,030,28,79,05,189,,1*70
$GAGSV,3,1,09,24,54,250,41,10,49,327,40,12,49,008,38,11,33,294,36,7*74
$GAGSV,3,2,09,31,32,183,32,19,29,092,33,04,24,156,35,25,23,311,37,7*7C
$GAGSV,3,3,09,33,17,060,29,7*41
$GAGSV,3,1,09,24,54,250,44,10,49,327,45,12,49,008,41,11,33,294,38,1*72
$GAGSV,3,2,09,31,32,183,33,19,29,092,37,04,24,156,31,25,23,311,38,1*74
$GAGSV,3,3,09,33,17,060,29,1*47
$GBGSV,4,1,14,40,84,102,42,07,82,262,41,10,72,298,39,14,61,095,42,1*70
$GBGSV,4,2,14,08,59,263,40,33,58,155,43,43,53,046,45,13,49,252,40,1*75
$GBGSV,4,3,14,42,43,059,46,28,34,320,45,11,34,074,41,23,22,225,,1*73
$GBGSV,4,4,14,37,17,278,25,41,17,197,,1*77
$GBGSV,2,1,07,40,84,102,45,33,58,155,43,43,53,046,44,42,43,059,45,4*79
$GBGSV,2,2,07,28,34,320,43,23,22,225,18,37,17,278,31,4*4F
$GNGGA,033328.000,2500.8164774,N,12132.4426973,E,4,65,0.43,17.733,M,15.25,M,21,3335*7F
$GNRMC,033328.000,A,2500.8164774,N,12132.4426973,E,0.00,227.48,270623,,,R,V*1B
$GPHDT,92.424,T*0C
$GNGGA,033328.200,2500.8164811,N,12132.4426947,E,4,65,0.43,17.753,M,15.25,M,21,3335*70
$GNRMC,033328.200,A,2500.8164811,N,12132.4426947,E,0.00,227.48,270623,,,R,V*12
$GPHDT,92.417,T*0C
$GNGGA,033328.400,2500.8164842,N,12132.4426945,E,4,65,0.43,17.748,M,15.25,M,21,3335*78
$GNRMC,033328.400,A,2500.8164842,N,12132.4426945,E,0.00,227.48,270623,,,R,V*10
$GPHDT,92.555,T*0B
$GNGGA,033328.600,2500.8164811,N,12132.4426975,E,4,65,0.43,17.740,M,15.25,M,21,3335*77
$GNRMC,033328.600,A,2500.8164811,N,12132.4426975,E,0.00,227.48,270623,,,R,V*17
$GPHDT,92.492,T*01
$GNGGA,033328.800,2500.8164832,N,12132.4426955,E,4,65,0.43,17.746,M,15.25,M,21,3335*7C
$GNRMC,033328.800,A,2500.8164832,N,12132.4426955,E,0.00,227.48,270623,,,R,V*1A
$GPHDT,92.609,T*01
$GNGSA,A,3,195,17,196,19,199,06,194,14,09,11,03,04,0.82,0.43,0.70,1*06
$GNGSA,A,3,67,68,82,83,80,73,66,,,,,,0.82,0.43,0.70,2*0A
$GNGSA,A,3,24,10,12,11,31,19,04,25,33,,,,0.82,0.43,0.70,3*04
$GNGSA,A,3,40,07,10,14,08,33,43,13,42,28,11,37,0.82,0.43,0.70,4*0C
$GNGSA,A,3,23,,,,,,,,,,,,0.82,0.43,0.70,4*0F
$GPGSV,4,1,15,195,67,041,42,17,64,061,42,196,62,129,40,19,62,008,42,1*69
$GPGSV,4,2,15,199,60,167,35,06,50,331,39,194,43,170,25,41,38,242,42,1*69
$GPGSV,4,3,15,14,31,178,34,09,30,112,44,11,25,279,45,20,24,227,15,1*6C
$GPGSV,4,4,15,04,21,079,,03,14,038,25,12,09,321,21,1*5A
$GPGSV,3,1,10,195,67,041,47,196,62,129,46,199,60,167,41,06,50,331,47,8*55
$GPGSV,3,2,10,194,43,170,30,14,31,178,26,09,30,112,45,11,25,279,43,8*5B
$GPGSV,3,3,10,04,21,079,29,03,14,038,31,8*61
$GLGSV,2,1,08,67,48,072,41,68,42,152,40,82,37,029,43,83,31,333,29,1*77
$GLGSV,2,2,08,80,29,236,38,73,23,297,41,66,10,030,28,79,05,189,,1*70
$GAGSV,3,1,09,24,54,250,41,10,49,327,39,12,49,008,38,11,33,294,36,7*7A
$GAGSV,3,2,09,31,32,183,33,19,29,092,33,04,24,156,35,25,23,311,37,7*7D
$GAGSV,3,3,09,33,17,060,26,7*4E
$GAGSV,3,1,09,24,54,250,44,10,49,327,45,12,49,008,41,11,33,294,38,1*72
$GAGSV,3,2,09,31,32,183,34,19,29,092,36,04,24,156,33,25,23,311,38,1*70
$GAGSV,3,3,09,33,17,060,29,1*47
$GBGSV,4,1,14,40,84,102,42,07,82,262,41,10,72,298,39,14,61,095,42,1*70
$GBGSV,4,2,14,08,59,263,40,33,58,155,43,43,53,046,45,13,49,252,41,1*74
$GBGSV,4,3,14,42,43,059,46,28,34,320,45,11,34,074,41,23,22,225,,1*73
$GBGSV,4,4,14,37,17,278,25,41,17,197,,1*77
$GBGSV,2,1,07,40,84,102,45,33,58,155,43,43,53,046,43,42,43,059,43,4*78
$GBGSV,2,2,07,28,34,320,43,23,22,225,18,37,17,278,30,4*4E
$GNGGA,033329.000,2500.8165069,N,12132.4426754,E,4,65,0.43,17.798,M,15.25,M,22,3335*7D
$GNRMC,033329.000,A,2500.8165069,N,12132.4426754,E,0.00,227.48,270623,,,R,V*1B
$GPHDT,92.670,T*0F
$GNGGA,033329.200,2500.8165087,N,12132.4426761,E,4,65,0.43,17.797,M,15.25,M,22,3335*76
$GNRMC,033329.200,A,2500.8165087,N,12132.4426761,E,0.00,227.48,270623,,,R,V*1F
$GPHDT,92.125,T*08
$GNGGA,033329.400,2500.8165121,N,12132.4426737,E,4,65,0.43,17.806,M,15.25,M,22,3335*79
$GNRMC,033329.400,A,2500.8165121,N,12132.4426737,E,0.00,227.48,270623,,,R,V*17
$GPHDT,92.431,T*08
$GNGGA,033329.600,2500.8165133,N,12132.4426752,E,4,65,0.43,17.805,M,15.25,M,22,3335*78
$GNRMC,033329.600,A,2500.8165133,N,12132.4426752,E,0.00,227.48,270623,,,R,V*15
$GPHDT,92.638,T*03
