$FW : RTK35X,V1.1X0314AS,Lib20210517,1*54
$Tool : LOCOSYS , GNSS Firebird , v1.0.0.19*39
$---------------------------------------------------*2D
$GPHDT,270.171,T*37
$GNGSA,A,3,195,17,196,19,199,06,194,14,09,11,04,03,0.81,0.42,0.69,1*0C
$GNGSA,A,3,67,68,82,83,80,73,66,,,,,,0.81,0.42,0.69,2*00
$GNGSA,A,3,24,12,10,31,11,19,04,25,33,,,,0.81,0.42,0.69,3*0E
$GNGSA,A,3,40,07,10,14,08,33,43,13,42,11,28,37,0.81,0.42,0.69,4*06
$GNGSA,A,3,41,,,,,,,,,,,,0.81,0.42,0.69,4*01
$GPGSV,4,1,15,195,67,041,34,17,64,059,39,196,62,130,38,19,61,007,38,1*69
$GPGSV,4,2,15,199,60,167,35,06,50,329,39,194,44,170,43,41,38,242,43,1*66
$GPGSV,4,3,15,14,32,178,43,09,30,113,42,11,24,278,41,20,23,226,20,1*6C
$GPGSV,4,4,15,04,21,080,29,03,15,038,22,12,08,321,,1*53
$GPGSV,3,1,10,195,67,041,41,196,62,130,45,199,60,167,46,06,50,329,43,8*52
$GPGSV,3,2,10,194,44,170,46,14,32,178,46,09,30,113,44,11,24,278,40,8*5B
$GPGSV,3,3,10,04,21,080,31,03,15,038,25,8*6A
$GLGSV,2,1,08,67,48,074,45,68,41,153,43,82,37,027,40,83,31,332,24,1*75
$GLGSV,2,2,08,80,30,237,39,73,23,298,29,66,11,031,24,79,06,190,,1*7E
$GAGSV,3,1,09,24,55,252,40,12,50,007,28,10,49,326,34,31,33,183,40,7*74
$GAGSV,3,2,09,11,33,293,35,19,29,092,36,04,23,157,36,25,23,312,30,7*7E
$GAGSV,3,3,09,33,17,059,32,7*41
$GAGSV,3,1,09,24,55,252,45,12,50,007,29,10,49,326,40,11,33,293,35,1*77
$GAGSV,3,2,09,31,33,183,45,19,29,092,35,04,23,157,41,25,23,312,33,1*7F
$GAGSV,3,3,09,33,17,059,39,1*4C
$GBGSV,4,1,13,40,84,097,41,07,83,265,39,10,72,299,41,14,61,097,42,1*7C
$GBGSV,4,2,13,08,59,262,39,33,57,156,43,43,54,044,39,13,49,252,44,1*7B
$GBGSV,4,3,13,42,43,060,43,11,35,073,43,28,34,319,32,37,18,279,38,1*7B
$GBGSV,4,4,13,41,16,197,19,1*41
$GBGSV,2,1,07,40,84,097,44,33,57,156,46,43,54,044,36,42,43,060,44,4*77
$GBGSV,2,2,07,28,34,319,38,37,18,279,28,41,16,197,22,4*4F
$GNGGA,033124.000,2500.8164546,N,12132.4426888,E,4,67,0.42,17.639,M,15.25,M,5,3335*49
$GNRMC,033124.000,A,2500.8164546,N,12132.4426888,E,0.00,227.48,270623,,,R,V*13
$GPHDT,270.137,T*35
$GNGGA,033124.200,2500.8164584,N,12132.4426865,E,4,67,0.42,17.645,M,15.25,M,5,3335*4D
$GNRMC,033124.200,A,2500.8164584,N,12132.4426865,E,0.00,227.48,270623,,,R,V*1C
$GPHDT,269.075,T*3A
$GNGGA,033124.400,2500.8164570,N,12132.4426853,E,4,67,0.42,17.637,M,15.25,M,5,3335*40
$GNRMC,033124.400,A,2500.8164570,N,12132.4426853,E,0.00,227.48,270623,,,R,V*14
$GPHDT,269.724,T*39
$GNGGA,033124.600,2500.8164528,N,12132.4426861,E,4,67,0.42,17.627,M,15.25,M,5,3335*4F
$GNRMC,033124.600,A,2500.8164528,N,12132.4426861,E,0.00,227.48,270623,,,R,V*1A
$GPHDT,269.665,T*3D
$GNGGA,033124.800,2500.8164552,N,12132.4426852,E,4,67,0.42,17.636,M,15.25,M,5,3335*4C
$GNRMC,033124.800,A,2500.8164552,N,12132.4426852,E,0.00,227.48,270623,,,R,V*19
$GPHDT,269.976,T*30
$GNGSA,A,3,195,17,196,19,199,06,194,14,09,11,04,03,0.81,0.42,0.69,1*0C
$GNGSA,A,3,67,68,82,83,80,73,66,,,,,,0.81,0.42,0.69,2*00
$GNGSA,A,3,24,12,10,31,11,19,04,25,33,,,,0.81,0.42,0.69,3*0E
$GNGSA,A,3,40,07,10,14,08,33,43,13,42,11,28,37,0.81,0.42,0.69,4*06
$GNGSA,A,3,41,,,,,,,,,,,,0.81,0.42,0.69,4*01
$GPGSV,4,1,15,195,67,041,35,17,64,059,39,196,62,130,39,19,61,007,38,1*69
$GPGSV,4,2,15,199,60,167,35,06,50,329,39,194,44,170,43,41,38,242,43,1*66
$GPGSV,4,3,15,14,32,178,42,09,30,113,42,11,24,278,41,20,23,226,21,1*6C
$GPGSV,4,4,15,04,21,080,30,03,15,038,24,12,08,321,,1*5D
$GPGSV,3,1,10,195,67,041,40,196,62,130,45,199,60,167,46,06,50,329,43,8*53
$GPGSV,3,2,10,194,44,170,46,14,32,178,46,09,30,113,44,11,24,278,40,8*5B
$GPGSV,3,3,10,04,21,080,31,03,15,038,26,8*69
$GLGSV,2,1,08,67,48,074,45,68,41,153,43,82,37,027,40,83,31,332,21,1*70
$GLGSV,2,2,08,80,30,237,39,73,23,298,29,66,11,031,24,79,06,190,,1*7E
$GAGSV,3,1,09,24,55,252,40,12,50,007,30,10,49,326,35,31,33,183,40,7*7C
$GAGSV,3,2,09,11,33,293,35,19,29,092,36,04,23,157,36,25,23,312,29,7*76
$GAGSV,3,3,09,33,17,059,24,7*46
$GAGSV,3,1,09,24,55,252,44,12,50,007,32,10,49,326,40,11,33,293,36,1*7F
$GAGSV,3,2,09,31,33,183,44,19,29,092,33,04,23,157,39,25,23,312,33,1*77
$GAGSV,3,3,09,33,17,059,39,1*4C
$GBGSV,4,1,14,40,84,097,41,07,83,265,39,10,72,299,41,14,61,097,42,1*7B
$GBGSV,4,2,14,08,59,262,39,33,57,156,43,43,54,044,39,13,49,252,44,1*7C
$GBGSV,4,3,14,42,43,060,43,11,35,073,44,28,34,319,34,23,22,226,,1*70
$GBGSV,4,4,14,37,18,279,38,41,16,197,19,1*7C
$GBGSV,2,1,07,40,84,097,44,33,57,156,46,43,54,044,37,42,43,060,44,4*76
$GBGSV,2,2,07,28,34,319,39,37,18,279,28,41,16,197,22,4*4E
$GNGGA,033125.000,2500.8164594,N,12132.4426855,E,4,67,0.42,17.635,M,15.25,M,6,3335*48
$GNRMC,033125.000,A,2500.8164594,N,12132.4426855,E,0.00,227.48,270623,,,R,V*1D
$GPHDT,269.691,T*36
$GNGGA,033125.200,2500.8164489,N,12132.4426885,E,4,67,0.42,17.635,M,15.25,M,6,3335*4A
$GNRMC,033125.200,A,2500.8164489,N,12132.4426885,E,0.00,227.48,270623,,,R,V*1F
$GPHDT,270.192,T*3A
$GNGGA,033125.400,2500.8164510,N,12132.4426862,E,4,66,0.42,17.643,M,15.25,M,6,3335*44
$GNRMC,033125.400,A,2500.8164510,N,12132.4426862,E,0.00,227.48,270623,,,R,V*11
$GPHDT,270.090,T*39
$GNGGA,033125.600,2500.8164563,N,12132.4426902,E,4,67,0.41,17.625,M,15.25,M,4,3335*45
$GNRMC,033125.600,A,2500.8164563,N,12132.4426902,E,0.00,227.48,270623,,,R,V*10
$GPHDT,269.864,T*32
$GNGGA,033125.800,2500.8164565,N,12132.4426807,E,4,67,0.41,17.639,M,15.25,M,2,3335*42
$GNRMC,033125.800,A,2500.8164565,N,12132.4426807,E,0.00,227.48,270623,,,R,V*1C
$GPHDT,269.967,T*30
$GNGSA,A,3,195,17,196,19,199,06,194,14,09,11,04,03,0.79,0.41,0.68,1*09
$GNGSA,A,3,67,68,82,83,80,73,66,,,,,,0.79,0.41,0.68,2*05
$GNGSA,A,3,24,12,10,31,11,19,04,25,33,,,,0.79,0.41,0.68,3*0B
$GNGSA,A,3,40,07,10,14,08,33,43,13,42,11,28,23,0.79,0.41,0.68,4*06
$GNGSA,A,3,37,41,,,,,,,,,,,0.79,0.41,0.68,4*00
$GPGSV,4,1,15,195,67,041,35,17,64,059,39,196,62,130,39,19,61,007,38,1*69
$GPGSV,4,2,15,199,60,167,35,06,50,329,39,194,44,170,43,41,38,242,42,1*67
$GPGSV,4,3,15,14,32,178,42,09,30,113,42,11,24,278,41,20,23,226,23,1*6E
$GPGSV,4,4,15,04,21,080,31,03,15,038,25,12,08,321,,1*5D
$GPGSV,3,1,09,195,67,041,40,196,62,130,45,199,60,167,46,06,50,329,43,8*5B
$GPGSV,3,2,09,194,44,170,46,14,32,178,46,09,30,113,44,11,24,278,40,8*53
$GPGSV,3,3,09,03,15,038,26,8*5C
$GLGSV,2,1,08,67,48,073,45,68,42,153,43,82,37,027,40,83,31,332,21,1*74
$GLGSV,2,2,08,80,30,237,39,73,23,298,30,66,11,031,24,79,06,190,,1*76
$GAGSV,3,1,09,24,55,252,40,12,50,007,31,10,49,326,35,31,33,183,40,7*7D
$GAGSV,3,2,09,11,33,293,35,19,29,092,36,04,23,157,37,25,23,312,30,7*7F
$GAGSV,3,3,09,33,17,059,27,7*45
$GAGSV,3,1,09,24,55,252,44,12,50,007,33,10,49,326,40,11,33,293,36,1*7E
$GAGSV,3,2,09,31,33,183,44,19,29,092,34,04,23,157,39,25,23,312,33,1*70
$GAGSV,3,3,09,33,17,059,39,1*4C
$GBGSV,4,1,15,40,84,097,41,07,83,265,39,10,72,299,41,14,61,097,41,1*79
$GBGSV,4,2,15,08,59,262,39,33,57,156,43,43,54,044,39,13,49,252,44,1*7D
$GBGSV,4,3,15,42,43,060,44,11,35,073,44,28,34,319,34,23,22,226,27,1*73
$GBGSV,4,4,15,37,18,279,38,41,16,197,18,06,01,190,,1*43
$GBGSV,2,1,07,40,84,097,44,33,57,156,46,43,54,044,37,42,43,060,44,4*76
$GBGSV,2,2,07,28,34,319,39,37,18,279,29,41,16,197,21,4*4C
$GNGGA,033126.000,2500.8164513,N,12132.4426845,E,4,67,0.41,17.629,M,15.25,M,2,3335*4F
$GNRMC,033126.000,A,2500.8164513,N,12132.4426845,E,0.00,227.48,270623,,,R,V*10
$GPHDT,269.941,T*34
$GNGGA,033126.200,2500.8164637,N,12132.4426788,E,4,67,0.41,17.654,M,15.25,M,1,3335*4F
$GNRMC,033126.200,A,2500.8164637,N,12132.4426788,E,0.00,227.48,270623,,,R,V*19
$GPHDT,270.206,T*34
$GNGGA,033126.400,2500.8164714,N,12132.4426754,E,4,67,0.41,17.679,M,15.25,M,1,3335*47
$GNRMC,033126.400,A,2500.8164714,N,12132.4426754,E,0.00,227.48,270623,,,R,V*1E
$GPHDT,269.894,T*3D
$GNGGA,033126.600,2500.8164709,N,12132.4426743,E,4,67,0.41,17.677,M,15.25,M,1,3335*41
$GNRMC,033126.600,A,2500.8164709,N,12132.4426743,E,0.00,227.48,270623,,,R,V*16
$GPHDT,269.961,T*36
$GNGGA,033126.800,2500.8164698,N,12132.4426716,E,4,67,0.41,17.682,M,15.25,M,1,3335*4C
$GNRMC,033126.800,A,2500.8164698,N,12132.4426716,E,0.00,227.48,270623,,,R,V*11
$GPHDT,270.126,T*35
$GNGSA,A,3,195,17,196,19,199,06,194,14,09,11,04,03,0.79,0.41,0.68,1*09
$GNGSA,A,3,67,68,82,83,80,73,66,,,,,,0.79,0.41,0.68,2*05
$GNGSA,A,3,24,12,10,11,31,19,04,25,33,,,,0.79,0.41,0.68,3*0B
$GNGSA,A,3,40,07,10,14,08,33,43,13,42,11,28,23,0.79,0.41,0.68,4*06
$GNGSA,A,3,37,41,,,,,,,,,,,0.79,0.41,0.68,4*00
$GPGSV,4,1,15,195,67,041,35,17,64,059,39,196,62,130,39,19,61,007,38,1*69
$GPGSV,4,2,15,199,60,167,35,06,50,329,39,194,44,170,43,41,38,242,42,1*67
$GPGSV,4,3,15,14,32,178,42,09,30,113,42,11,24,278,41,20,23,226,22,1*6F
$GPGSV,4,4,15,04,21,080,32,03,15,038,24,12,08,321,,1*5F
$GPGSV,3,1,10,195,67,041,40,196,62,130,45,199,60,167,46,06,50,329,43,8*53
$GPGSV,3,2,10,194,44,170,46,14,32,178,46,09,30,113,44,11,24,278,40,8*5B
$GPGSV,3,3,10,04,21,080,26,03,15,038,26,8*6F
$GLGSV,2,1,07,67,48,073,45,68,42,153,43,82,37,027,40,83,31,332,21,1*7B
$GLGSV,2,2,07,80,30,237,39,73,23,298,29,66,11,031,24,1*41
$GAGSV,3,1,09,24,55,252,40,12,50,007,31,10,49,326,35,11,33,293,35,7*7F
$GAGSV,3,2,09,31,33,183,40,19,29,092,36,04,23,157,37,25,23,312,28,7*74
$GAGSV,3,3,09,33,17,059,27,7*45
$GAGSV,3,1,09,24,55,252,44,12,50,007,34,10,49,326,40,11,33,293,36,1*79
$GAGSV,3,2,09,31,33,183,44,19,29,092,34,04,23,157,39,25,23,312,33,1*70
$GAGSV,3,3,09,33,17,059,39,1*4C
$GBGSV,4,1,14,40,84,097,41,07,83,265,40,10,72,299,41,14,61,097,41,1*76
$GBGSV,4,2,14,08,59,262,39,33,57,156,43,43,54,044,39,13,49,252,44,1*7C
$GBGSV,4,3,14,42,43,060,44,11,35,073,44,28,34,319,35,23,22,226,26,1*72
$GBGSV,4,4,14,37,18,279,38,41,16,197,18,1*7D
$GBGSV,2,1,07,40,84,097,44,33,57,156,46,43,54,044,37,42,43,060,44,4*76
$GBGSV,2,2,07,28,34,319,39,37,18,279,29,41,16,197,21,4*4C
$GNGGA,033127.000,2500.8164704,N,12132.4426722,E,4,68,0.41,17.682,M,15.25,M,2,3335*4A
$GNRMC,033127.000,A,2500.8164704,N,12132.4426722,E,0.00,227.48,270623,,,R,V*1B
$GPHDT,269.995,T*3D
$GNGGA,033127.200,2500.8164708,N,12132.4426710,E,4,68,0.41,17.691,M,15.25,M,2,3335*47
$GNRMC,033127.200,A,2500.8164708,N,12132.4426710,E,0.00,227.48,270623,,,R,V*14
$GPHDT,270.013,T*32
$GNGGA,033127.400,2500.8164699,N,12132.4426731,E,4,67,0.42,17.690,M,15.25,M,2,3335*46
$GNRMC,033127.400,A,2500.8164699,N,12132.4426731,E,0.00,227.48,270623,,,R,V*18
$GPHDT,269.936,T*34
$GNGGA,033127.600,2500.8164717,N,12132.4426747,E,4,67,0.42,17.686,M,15.25,M,2,3335*45
$GNRMC,033127.600,A,2500.8164717,N,12132.4426747,E,0.00,227.48,270623,,,R,V*1C
$GPHDT,269.472,T*39
$GNGGA,033127.800,2500.8164723,N,12132.4426772,E,4,67,0.42,17.673,M,15.25,M,2,3335*40
$GNRMC,033127.800,A,2500.8164723,N,12132.4426772,E,0.00,227.48,270623,,,R,V*13
$GPHDT,269.591,T*35
$GNGSA,A,3,195,17,196,19,199,06,194,14,09,11,04,03,0.81,0.42,0.69,1*0C
$GNGSA,A,3,67,68,82,83,80,73,66,,,,,,0.81,0.42,0.69,2*00
$GNGSA,A,3,24,12,10,31,11,19,04,25,33,,,,0.81,0.42,0.69,3*0E
$GNGSA,A,3,40,07,10,14,08,33,43,13,42,11,28,37,0.81,0.42,0.69,4*06
$GNGSA,A,3,41,,,,,,,,,,,,0.81,0.42,0.69,4*01
$GPGSV,4,1,15,195,67,041,35,17,64,059,39,196,62,130,39,19,61,007,38,1*69
$GPGSV,4,2,15,199,60,167,35,06,50,329,39,194,44,170,43,41,38,242,42,1*67
$GPGSV,4,3,15,14,32,178,42,09,30,113,41,11,24,278,41,20,23,226,20,1*6E
$GPGSV,4,4,15,04,21,080,32,03,15,038,24,12,08,321,,1*5F
$GPGSV,3,1,10,195,67,041,40,196,62,130,44,199,60,167,46,06,50,329,43,8*52
$GPGSV,3,2,10,194,44,170,46,14,32,178,46,09,30,113,44,11,24,278,40,8*5B
$GPGSV,3,3,10,04,21,080,25,03,15,038,25,8*6F
$GLGSV,2,1,08,67,48,073,45,68,42,153,43,82,37,027,40,83,31,332,21,1*74
$GLGSV,2,2,08,80,30,237,39,73,23,298,30,66,11,031,26,79,06,190,,1*74
$GAGSV,3,1,09,24,55,252,40,12,50,007,31,10,49,326,35,31,33,183,40,7*7D
$GAGSV,3,2,09,11,33,293,35,19,29,092,36,04,23,157,37,25,23,312,29,7*77
$GAGSV,3,3,09,33,17,059,28,7*4A
$GAGSV,3,1,09,24,55,252,44,12,50,007,34,10,49,326,40,11,33,293,36,1*79
$GAGSV,3,2,09,31,33,183,44,19,29,092,34,04,23,157,39,25,23,312,32,1*71
$GAGSV,3,3,09,33,17,059,39,1*4C
$GBGSV,4,1,14,40,84,097,41,07,83,265,40,10,72,299,41,14,61,097,41,1*76
$GBGSV,4,2,14,08,59,262,39,33,57,156,43,43,54,044,39,13,49,252,44,1*7C
$GBGSV,4,3,14,42,43,060,44,11,35,073,44,28,34,319,35,23,22,226,24,1*70
$GBGSV,4,4,14,37,18,279,38,41,16,197,18,1*7D
$GBGSV,2,1,07,40,84,097,44,33,57,156,46,43,54,044,37,42,43,060,44,4*76
$GBGSV,2,2,07,28,34,319,39,37,18,279,28,41,16,197,21,4*4D
$GNGGA,033128.000,2500.8164767,N,12132.4426750,E,4,67,0.42,17.689,M,15.25,M,3,3335*43
$GNRMC,033128.000,A,2500.8164767,N,12132.4426750,E,0.00,227.48,270623,,,R,V*14
$GPHDT,269.597,T*33
$GNGGA,033128.200,2500.8164731,N,12132.4426775,E,4,67,0.42,17.682,M,15.25,M,3,3335*4E
$GNRMC,033128.200,A,2500.8164731,N,12132.4426775,E,0.00,227.48,270623,,,R,V*12
$GPHDT,269.916,T*36
$GNGGA,033128.400,2500.8164693,N,12132.4426719,E,4,67,0.42,17.688,M,15.25,M,3,3335*41
$GNRMC,033128.400,A,2500.8164693,N,12132.4426719,E,0.00,227.48,270623,,,R,V*17
$GPHDT,270.256,T*31
$GNGGA,033128.600,2500.8164760,N,12132.4426740,E,4,67,0.42,17.695,M,15.25,M,3,3335*4E
$GNRMC,033128.600,A,2500.8164760,N,12132.4426740,E,0.00,227.48,270623,,,R,V*14
$GPHDT,269.785,T*32
$GNGGA,033128.800,2500.8164743,N,12132.4426733,E,4,67,0.42,17.687,M,15.25,M,3,3335*46
$GNRMC,033128.800,A,2500.8164743,N,12132.4426733,E,0.00,227.48,270623,,,R,V*1F
$GPHDT,269.779,T*31
$GNGSA,A,3,195,17,196,19,199,06,194,14,09,11,04,03,0.81,0.42,0.69,1*0C
$GNGSA,A,3,67,68,82,83,80,73,66,,,,,,0.81,0.42,0.69,2*00
$GNGSA,A,3,24,12,10,31,11,19,04,25,33,,,,0.81,0.42,0.69,3*0E
$GNGSA,A,3,40,07,10,14,08,33,43,13,42,11,28,37,0.81,0.42,0.69,4*06
$GNGSA,A,3,41,,,,,,,,,,,,0.81,0.42,0.69,4*01
$GPGSV,4,1,15,195,67,041,35,17,64,059,39,196,62,130,39,19,61,007,38,1*69
$GPGSV,4,2,15,199,60,167,35,06,50,329,39,194,44,170,43,41,38,242,42,1*67
$GPGSV,4,3,15,14,32,178,42,09,30,113,41,11,24,278,40,20,23,226,20,1*6F
$GPGSV,4,4,15,04,21,080,31,03,15,038,24,12,08,321,,1*5C
$GPGSV,3,1,10,195,67,041,40,196,62,130,44,199,60,167,46,06,50,329,43,8*52
$GPGSV,3,2,10,194,44,170,46,14,32,178,46,09,30,113,44,11,24,278,40,8*5B
$GPGSV,3,3,10,04,21,080,25,03,15,038,25,8*6F
$GLGSV,3,1,09,67,48,073,45,68,42,153,43,82,37,028,39,83,31,333,21,1*74
$GLGSV,3,2,09,80,30,237,39,73,23,298,30,66,11,031,26,79,06,190,,1*74
$GLGSV,3,3,09,69,04,186,,1*45
$GAGSV,3,1,09,24,55,252,40,12,50,007,31,10,49,326,35,31,33,183,40,7*7D
$GAGSV,3,2,09,11,33,293,35,19,29,092,35,04,23,157,37,25,23,312,29,7*74
$GAGSV,3,3,09,33,17,059,29,7*4B
$GAGSV,3,1,09,24,55,252,44,12,50,007,34,10,49,326,40,11,33,293,36,1*79
$GAGSV,3,2,09,31,33,183,44,19,29,092,34,04,23,157,40,25,23,312,32,1*7F
$GAGSV,3,3,09,33,17,059,39,1*4C
$GBGSV,4,1,14,40,84,097,41,07,83,265,40,10,72,299,40,14,61,097,41,1*77
$GBGSV,4,2,14,08,59,262,39,33,57,156,43,43,54,044,39,13,49,252,44,1*7C
$GBGSV,4,3,14,42,43,060,44,11,35,073,44,28,34,319,35,23,22,226,24,1*70
$GBGSV,4,4,14,37,18,279,38,41,16,197,18,1*7D
$GBGSV,2,1,07,40,84,097,44,33,57,156,46,43,54,044,37,42,43,060,44,4*76
$GBGSV,2,2,07,28,34,319,39,37,18,279,28,41,16,197,21,4*4D
$GNGGA,033129.000,2500.8164740,N,12132.4426754,E,4,67,0.42,17.689,M,15.25,M,4,3335*44
$GNRMC,033129.000,A,2500.8164740,N,12132.4426754,E,0.00,227.48,270623,,,R,V*14
$GPHDT,270.023,T*31
$GNGGA,033129.200,2500.8164741,N,12132.4426717,E,4,67,0.42,17.700,M,15.25,M,4,3335*40
$GNRMC,033129.200,A,2500.8164741,N,12132.4426717,E,0.00,227.48,270623,,,R,V*10
$GPHDT,269.704,T*3B
$GNGGA,033129.400,2500.8164746,N,12132.4426724,E,4,67,0.42,17.692,M,15.25,M,4,3335*4B
$GNRMC,033129.400,A,2500.8164746,N,12132.4426724,E,0.00,227.48,270623,,,R,V*11
$GPHDT,269.591,T*35
$GNGGA,033129.600,2500.8164743,N,12132.4426741,E,4,67,0.42,17.696,M,15.25,M,4,3335*4B
$GNRMC,033129.600,A,2500.8164743,N,12132.4426741,E,0.00,227.48,270623,,,R,V*15
$GPHDT,269.800,T*30
$GNGGA,033129.800,2500.8164759,N,12132.4426775,E,4,67,0.42,17.692,M,15.25,M,4,3335*4D
$GNRMC,033129.800,A,2500.8164759,N,12132.4426775,E,0.00,227.48,270623,,,R,V*17
$GPHDT,269.667,T*3F
$GNGSA,A,3,195,17,196,19,199,06,194,14,09,11,04,03,0.81,0.42,0.69,1*0C
$GNGSA,A,3,67,68,82,83,80,73,66,,,,,,0.81,0.42,0.69,2*00
$GNGSA,A,3,24,12,10,31,11,19,04,25,33,,,,0.81,0.42,0.69,3*0E
$GNGSA,A,3,40,07,10,14,08,33,43,13,42,11,28,37,0.81,0.42,0.69,4*06
$GNGSA,A,3,41,,,,,,,,,,,,0.81,0.42,0.69,4*01
$GPGSV,4,1,15,195,67,041,35,17,64,059,39,196,62,130,39,19,61,007,38,1*69
$GPGSV,4,2,15,199,60,167,35,06,50,329,39,194,44,170,43,41,38,242,42,1*67
$GPGSV,4,3,15,14,32,178,42,09,30,113,41,11,24,278,40,20,23,226,20,1*6F
$GPGSV,4,4,15,04,21,080,30,03,15,038,24,12,08,321,,1*5D
$GPGSV,3,1,10,195,67,041,40,196,62,130,44,199,60,167,46,06,50,329,43,8*52
$GPGSV,3,2,10,194,44,170,46,14,32,178,46,09,30,113,44,11,24,278,40,8*5B
$GPGSV,3,3,10,04,21,080,28,03,15,038,24,8*63
$GLGSV,2,1,08,67,48,073,45,68,42,153,43,82,37,028,39,83,31,333,23,1*76
$GLGSV,2,2,08,80,30,237,39,73,23,298,31,66,11,031,25,79,06,190,,1*76
$GAGSV,3,1,09,24,55,252,40,12,50,007,31,10,49,326,34,31,33,183,40,7*7C
$GAGSV,3,2,09,11,33,293,35,19,29,092,35,04,23,157,37,25,23,312,29,7*74
$GAGSV,3,3,09,33,17,059,29,7*4B
$GAGSV,3,1,09,24,55,252,44,12,50,007,33,10,49,326,40,11,33,293,35,1*7D
$GAGSV,3,2,09,31,33,183,44,19,29,092,34,04,23,157,40,25,23,312,32,1*7F
$GAGSV,3,3,09,33,17,059,39,1*4C
$GBGSV,4,1,14,40,84,097,41,07,83,265,40,10,72,299,40,14,61,097,41,1*77
$GBGSV,4,2,14,08,59,262,39,33,57,156,43,43,54,044,39,13,49,252,44,1*7C
$GBGSV,4,3,14,42,43,060,44,11,35,073,44,28,34,319,36,23,22,226,23,1*74
$GBGSV,4,4,14,37,18,279,38,41,16,197,18,1*7D
$GBGSV,2,1,07,40,84,097,44,33,57,156,46,43,54,044,37,42,43,060,44,4*76
$GBGSV,2,2,07,28,34,319,39,37,18,279,28,41,16,197,21,4*4D
$GNGGA,033130.000,2500.8164736,N,12132.4426725,E,4,67,0.42,17.698,M,15.25,M,5,3335*4A
$GNRMC,033130.000,A,2500.8164736,N,12132.4426725,E,0.00,227.48,270623,,,R,V*1B
$GPHDT,270.091,T*38
$GNGGA,033130.200,2500.8164746,N,12132.4426768,E,4,67,0.42,17.690,M,15.25,M,5,3335*4E
$GNRMC,033130.200,A,2500.8164746,N,12132.4426768,E,0.00,227.48,270623,,,R,V*17
$GPHDT,269.964,T*33
$GNGGA,033130.400,2500.8164728,N,12132.4426770,E,4,67,0.42,17.698,M,15.25,M,5,3335*41
$GNRMC,033130.400,A,2500.8164728,N,12132.4426770,E,0.00,227.48,270623,,,R,V*10
$GPHDT,270.067,T*31
$GNGGA,033130.600,2500.8164722,N,12132.4426757,E,4,67,0.42,17.698,M,15.25,M,5,3335*4C
$GNRMC,033130.600,A,2500.8164722,N,12132.4426757,E,0.00,227.48,270623,,,R,V*1D
$GPHDT,270.293,T*38
$GNGGA,033130.800,2500.8164757,N,12132.4426743,E,4,67,0.42,17.701,M,15.25,M,5,3335*44
$GNRMC,033130.800,A,2500.8164757,N,12132.4426743,E,0.00,227.48,270623,,,R,V*14
$GPHDT,269.974,T*32
$GNGSA,A,3,195,17,196,19,199,06,194,14,09,11,04,03,0.81,0.42,0.69,1*0C
$GNGSA,A,3,67,68,82,83,80,73,66,,,,,,0.81,0.42,0.69,2*00
$GNGSA,A,3,24,12,10,31,11,19,04,25,33,,,,0.81,0.42,0.69,3*0E
$GNGSA,A,3,40,07,10,14,08,33,43,13,42,11,28,37,0.81,0.42,0.69,4*06
$GNGSA,A,3,41,,,,,,,,,,,,0.81,0.42,0.69,4*01
$GPGSV,4,1,15,195,67,041,35,17,64,059,39,196,62,130,39,19,61,007,38,1*69
$GPGSV,4,2,15,199,60,167,35,06,50,329,39,194,44,170,43,41,38,242,42,1*67
$GPGSV,4,3,15,14,32,178,42,09,30,113,40,11,24,278,40,20,23,226,20,1*6E
$GPGSV,4,4,15,04,21,080,30,03,15,038,24,12,08,321,,1*5D
$GPGSV,3,1,10,195,67,041,40,196,62,130,44,199,60,167,46,06,50,329,43,8*52
$GPGSV,3,2,10,194,44,170,46,14,32,178,46,09,30,113,44,11,24,278,40,8*5B
$GPGSV,3,3,10,04,21,080,28,03,15,038,24,8*63
$GLGSV,2,1,08,67,48,073,45,68,42,153,43,82,37,028,39,83,31,333,23,1*76
$GLGSV,2,2,08,80,30,237,40,73,23,298,31,66,11,031,25,79,06,190,16,1*7F
$GAGSV,3,1,09,24,55,252,40,12,50,007,30,10,49,326,34,31,33,183,40,7*7D
$GAGSV,3,2,09,11,33,293,35,19,29,092,35,04,23,157,37,25,23,312,30,7*7C
$GAGSV,3,3,09,33,17,059,29,7*4B
$GAGSV,3,1,09,24,55,252,44,12,50,007,33,10,49,326,40,11,33,293,35,1*7D
$GAGSV,3,2,09,31,33,183,44,19,29,092,34,04,23,157,40,25,23,312,33,1*7E
$GAGSV,3,3,09,33,17,059,39,1*4C
$GBGSV,4,1,14,40,84,097,41,07,83,264,40,10,72,299,40,14,61,097,41,1*76
$GBGSV,4,2,14,08,59,262,39,33,57,156,43,43,54,044,40,13,49,252,43,1*75
$GBGSV,4,3,14,42,43,060,44,11,35,073,44,28,34,319,36,23,22,226,23,1*74
$GBGSV,4,4,14,37,18,279,38,41,16,197,18,1*7D
$GBGSV,2,1,07,40,84,097,44,33,57,156,46,43,54,044,37,42,43,060,44,4*76
$GBGSV,2,2,07,28,34,319,39,37,18,279,28,41,16,197,21,4*4D
$GNGGA,033131.000,2500.8164760,N,12132.4426741,E,4,66,0.42,17.697,M,15.25,M,6,3335*47
$GNRMC,033131.000,A,2500.8164760,N,12132.4426741,E,0.00,227.48,270623,,,R,V*1B
$GPHDT,270.205,T*37
$GNGGA,033131.200,2500.8164769,N,12132.4426758,E,4,66,0.42,17.696,M,15.25,M,6,3335*45
$GNRMC,033131.200,A,2500.8164769,N,12132.4426758,E,0.00,227.48,270623,,,R,V*18
$GPHDT,269.729,T*34
$GNGGA,033131.400,2500.8164754,N,12132.4426763,E,4,66,0.42,17.693,M,15.25,M,6,3335*40
$GNRMC,033131.400,A,2500.8164754,N,12132.4426763,E,0.00,227.48,270623,,,R,V*18
$GPHDT,270.200,T*32
$GNGGA,033131.600,2500.8164765,N,12132.4426755,E,4,66,0.42,17.699,M,15.25,M,6,3335*4F
$GNRMC,033131.600,A,2500.8164765,N,12132.4426755,E,0.00,227.48,270623,,,R,V*1D
$GPHDT,270.004,T*34
$GNGGA,033131.800,2500.8164736,N,12132.4426753,E,4,66,0.42,17.695,M,15.25,M,4,3335*4F
$GNRMC,033131.800,A,2500.8164736,N,12132.4426753,E,0.00,227.48,270623,,,R,V*13
$GPHDT,269.932,T*30
$GNGSA,A,3,195,17,196,19,199,06,194,14,09,11,04,03,0.81,0.42,0.69,1*0C
$GNGSA,A,3,67,68,82,83,80,73,66,,,,,,0.81,0.42,0.69,2*00
$GNGSA,A,3,24,12,10,31,11,19,04,25,33,,,,0.81,0.42,0.69,3*0E
$GNGSA,A,3,40,07,10,14,08,33,43,13,42,11,28,37,0.81,0.42,0.69,4*06
$GNGSA,A,3,41,,,,,,,,,,,,0.81,0.42,0.69,4*01
$GPGSV,4,1,15,195,67,041,35,17,64,059,39,196,62,130,39,19,61,007,38,1*69
$GPGSV,4,2,15,199,60,167,35,06,50,329,39,194,44,170,43,41,38,242,42,1*67
$GPGSV,4,3,15,14,32,178,42,09,30,113,40,11,24,278,40,20,23,226,20,1*6E
$GPGSV,4,4,15,04,21,080,28,03,15,038,23,12,08,321,,1*53
$GPGSV,3,1,10,195,67,041,40,196,62,130,44,199,60,167,46,06,50,329,43,8*52
$GPGSV,3,2,10,194,44,170,46,14,32,178,46,09,30,113,44,11,24,278,40,8*5B
$GPGSV,3,3,10,04,21,080,28,03,15,038,24,8*63
$GLGSV,2,1,08,67,48,073,45,68,42,153,43,82,37,028,39,83,31,333,24,1*71
$GLGSV,2,2,08,80,30,237,40,73,23,298,31,66,11,031,26,79,06,190,15,1*7F
$GAGSV,3,1,09,24,55,252,40,12,50,007,30,10,49,326,35,31,33,183,40,7*7C
$GAGSV,3,2,09,11,33,293,35,19,29,092,35,04,23,157,37,25,23,312,30,7*7C
$GAGSV,3,3,09,33,17,059,29,7*4B
$GAGSV,3,1,09,24,55,252,44,12,50,007,33,10,49,326,40,11,33,293,35,1*7D
$GAGSV,3,2,09,31,33,183,44,19,29,092,34,04,23,157,40,25,23,312,33,1*7E
$GAGSV,3,3,09,33,17,059,38,1*4D
$GBGSV,4,1,14,40,84,097,42,07,83,264,40,10,72,299,40,14,61,097,41,1*75
$GBGSV,4,2,14,08,59,262,39,33,57,156,42,43,54,044,40,13,49,252,43,1*74
$GBGSV,4,3,14,42,43,060,44,11,35,073,44,28,34,319,36,23,22,226,23,1*74
$GBGSV,4,4,14,37,18,279,38,41,16,197,17,1*72
$GBGSV,2,1,07,40,84,097,44,33,57,156,46,43,54,044,37,42,43,060,44,4*76
$GBGSV,2,2,07,28,34,319,39,37,18,279,28,41,16,197,22,4*4E
$GNGGA,033132.000,2500.8164699,N,12132.4426765,E,4,66,0.42,17.676,M,15.25,M,3,3335*4F
$GNRMC,033132.000,A,2500.8164699,N,12132.4426765,E,0.00,227.48,270623,,,R,V*19
$GPHDT,270.125,T*36
$GNGGA,033132.200,2500.8164556,N,12132.4426890,E,4,66,0.42,17.624,M,15.25,M,2,3335*4E
$GNRMC,033132.200,A,2500.8164556,N,12132.4426890,E,0.00,227.48,270623,,,R,V*1E
$GPHDT,269.747,T*3C
$GNGGA,033132.400,2500.8164567,N,12132.4426837,E,4,66,0.42,17.645,M,15.25,M,2,3335*40
$GNRMC,033132.400,A,2500.8164567,N,12132.4426837,E,0.00,227.48,270623,,,R,V*17
$GPHDT,269.955,T*31
$GNGGA,033132.600,2500.8164615,N,12132.4426770,E,4,66,0.42,17.659,M,15.25,M,2,3335*45
$GNRMC,033132.600,A,2500.8164615,N,12132.4426770,E,0.00,227.48,270623,,,R,V*1F
$GPHDT,269.578,T*32
$GNGGA,033132.800,2500.8164624,N,12132.4426773,E,4,66,0.42,17.656,M,15.25,M,0,3335*47
$GNRMC,033132.800,A,2500.8164624,N,12132.4426773,E,0.00,227.48,270623,,,R,V*10
$GPHDT,269.769,T*30
$GNGSA,A,3,195,17,196,19,199,06,194,14,09,11,04,03,0.81,0.42,0.69,1*0C
$GNGSA,A,3,67,68,82,83,80,73,66,,,,,,0.81,0.42,0.69,2*00
$GNGSA,A,3,24,12,10,31,11,19,04,25,33,,,,0.81,0.42,0.69,3*0E
$GNGSA,A,3,40,07,10,14,08,33,43,13,42,11,28,37,0.81,0.42,0.69,4*06
$GNGSA,A,3,41,,,,,,,,,,,,0.81,0.42,0.69,4*01
$GPGSV,4,1,15,195,67,041,35,17,64,059,39,196,62,130,39,19,61,007,38,1*69
$GPGSV,4,2,15,199,60,167,35,06,50,329,39,194,44,170,43,41,38,242,42,1*67
$GPGSV,4,3,15,14,32,178,42,09,30,113,40,11,24,278,40,20,23,226,19,1*64
$GPGSV,4,4,15,04,21,080,26,03,15,038,23,12,08,321,,1*5D
$GPGSV,3,1,10,195,67,041,40,196,62,130,44,199,60,167,46,06,50,329,43,8*52
$GPGSV,3,2,10,194,44,170,46,14,32,178,46,09,30,113,44,11,24,278,40,8*5B
$GPGSV,3,3,10,04,21,080,27,03,15,038,24,8*6C
$GLGSV,2,1,08,67,48,073,45,68,42,153,43,82,37,028,39,83,31,333,23,1*76
$GLGSV,2,2,08,80,30,237,40,73,23,298,32,66,11,031,26,79,06,190,16,1*7F
$GAGSV,3,1,09,24,55,252,40,12,50,007,30,10,49,326,35,31,33,183,40,7*7C
$GAGSV,3,2,09,11,33,293,35,19,29,092,35,04,23,157,37,25,23,312,30,7*7C
$GAGSV,3,3,09,33,17,059,29,7*4B
$GAGSV,3,1,09,24,55,252,44,12,50,007,33,10,49,326,40,11,33,293,35,1*7D
$GAGSV,3,2,09,31,33,183,44,19,29,092,34,04,23,157,40,25,23,312,33,1*7E
$GAGSV,3,3,09,33,17,059,38,1*4D
$GBGSV,4,1,15,40,84,097,42,07,83,264,40,10,72,299,40,14,61,097,41,1*74
$GBGSV,4,2,15,08,59,262,38,33,57,156,42,43,54,044,40,13,49,252,43,1*74
$GBGSV,4,3,15,42,43,060,44,11,35,073,44,28,34,319,36,23,22,226,24,1*72
$GBGSV,4,4,15,37,18,279,38,41,16,197,17,06,01,190,,1*4C
$GBGSV,2,1,07,40,84,097,44,33,57,156,46,43,54,044,37,42,43,060,44,4*76
$GBGSV,2,2,07,28,34,319,39,37,18,279,29,41,16,197,21,4*4C
$GNGGA,033133.000,2500.8164630,N,12132.4426774,E,4,66,0.42,17.655,M,15.25,M,1,3335*4E
$GNRMC,033133.000,A,2500.8164630,N,12132.4426774,E,0.00,227.48,270623,,,R,V*1B
$GPHDT,269.618,T*37
$GNGGA,033133.200,2500.8164651,N,12132.4426787,E,4,66,0.42,17.653,M,15.25,M,1,3335*41
$GNRMC,033133.200,A,2500.8164651,N,12132.4426787,E,0.00,227.48,270623,,,R,V*12
$GPHDT,269.584,T*31
$GNGGA,033133.400,2500.8164620,N,12132.4426757,E,4,66,0.42,17.659,M,15.25,M,1,3335*46
$GNRMC,033133.400,A,2500.8164620,N,12132.4426757,E,0.00,227.48,270623,,,R,V*1F
$GPHDT,269.894,T*3D
$GNGGA,033133.600,2500.8164602,N,12132.4426787,E,4,66,0.42,17.654,M,15.25,M,1,3335*44
$GNRMC,033133.600,A,2500.8164602,N,12132.4426787,E,0.00,227.48,270623,,,R,V*10
$GPHDT,269.710,T*3E
$GNGGA,033133.800,2500.8164568,N,12132.4426759,E,4,66,0.42,17.661,M,15.25,M,0,3335*41
$GNRMC,033133.800,A,2500.8164568,N,12132.4426759,E,0.00,227.48,270623,,,R,V*12
$GPHDT,270.242,T*34
$GNGSA,A,3,195,17,196,19,199,06,194,14,09,11,04,03,0.81,0.42,0.69,1*0C
$GNGSA,A,3,67,68,82,83,80,73,66,,,,,,0.81,0.42,0.69,2*00
$GNGSA,A,3,24,12,10,31,11,19,04,25,33,,,,0.81,0.42,0.69,3*0E
$GNGSA,A,3,40,07,10,14,08,33,43,13,42,11,28,37,0.81,0.42,0.69,4*06
$GNGSA,A,3,41,,,,,,,,,,,,0.81,0.42,0.69,4*01
$GPGSV,4,1,15,195,67,041,35,17,64,059,39,196,62,130,39,19,61,007,39,1*68
$GPGSV,4,2,15,199,60,167,35,06,50,329,39,194,44,170,43,41,38,242,42,1*67
$GPGSV,4,3,15,14,32,178,42,09,30,113,40,11,24,278,40,20,23,226,19,1*64
$GPGSV,4,4,15,04,21,080,24,03,15,038,21,12,08,321,,1*5D
$GPGSV,3,1,10,195,67,041,40,196,62,130,44,199,60,167,46,06,50,329,44,8*55
$GPGSV,3,2,10,194,44,170,46,14,32,178,46,09,30,113,45,11,24,278,40,8*5A
$GPGSV,3,3,10,04,21,080,28,03,15,038,24,8*63
$GLGSV,3,1,09,67,48,073,45,68,42,153,43,82,37,028,39,83,31,333,23,1*76
$GLGSV,3,2,09,80,30,237,40,73,23,298,32,66,11,031,24,79,06,190,13,1*78
$GLGSV,3,3,09,69,04,186,,1*45
$GAGSV,3,1,09,24,55,252,40,12,50,007,30,10,49,326,35,31,33,183,40,7*7C
$GAGSV,3,2,09,11,33,293,35,19,29,092,35,04,23,157,37,25,23,312,30,7*7C
$GAGSV,3,3,09,33,17,059,27,7*45
$GAGSV,3,1,09,24,55,252,44,12,50,007,33,10,49,326,40,11,33,293,35,1*7D
$GAGSV,3,2,09,31,33,183,44,19,29,092,34,04,23,157,41,25,23,312,34,1*78
$GAGSV,3,3,09,33,17,059,38,1*4D
$GBGSV,5,1,19,40,84,097,42,07,83,264,40,10,72,299,40,14,61,097,41,1*79
$GBGSV,5,2,19,08,59,262,38,33,57,156,42,43,54,044,40,13,49,252,43,1*79
$GBGSV,5,3,19,42,43,060,44,11,35,073,44,28,34,319,36,23,22,226,24,1*7F
$GBGSV,5,4,19,34,20,091,,37,18,279,38,41,16,197,17,25,05,182,,1*7A
$GBGSV,5,5,19,39,02,180,,06,01,190,,21,01,035,,1*44
$GBGSV,2,1,07,40,84,097,44,33,57,156,46,43,54,044,38,42,43,060,44,4*79
$GBGSV,2,2,07,28,34,319,39,37,18,279,29,41,16,197,21,4*4C
$GNGGA,033134.000,2500.8164664,N,12132.4426720,E,4,66,0.42,17.686,M,15.25,M,1,3335*47
$GNRMC,033134.000,A,2500.8164664,N,12132.4426720,E,0.00,227.48,270623,,,R,V*1C
$GPHDT,270.021,T*33
$GNGGA,033134.200,2500.8164651,N,12132.4426705,E,4,66,0.42,17.699,M,15.25,M,1,3335*4A
$GNRMC,033134.200,A,2500.8164651,N,12132.4426705,E,0.00,227.48,270623,,,R,V*1F
$GPHDT,269.986,T*3F
$GNGGA,033134.400,2500.8164672,N,12132.4426715,E,4,66,0.42,17.695,M,15.25,M,1,3335*40
$GNRMC,033134.400,A,2500.8164672,N,12132.4426715,E,0.00,227.48,270623,,,R,V*19
