$FW : RTK35X,V1.1X0314AS,Lib20210517,0*55
$Tool : LOCOSYS , GNSS Firebird , v1.0.0.19*39
$---------------------------------------------------*2D
40,20,197,26,1*7D
$GBGSV,4,4,15,24,11,097,,42,11,050,21,25,11,150,,1*49
$GBGSV,3,1,09,28,70,279,39,38,56,011,42,33,53,010,43,39,48,176,44,4*7B
$GBGSV,3,2,09,41,46,280,40,43,39,163,42,27,25,318,32,40,20,197,29,4*76
$GBGSV,3,3,09,42,11,050,33,4*49
$GNACCURACY,3.2*17
$PAIRSAT,1,35,1,0,200,2,0,200,3,0,200,4,0,200,5,0,201,6,0,221,7,0,200,8,0,200,9,0,200,10,0,200,11,0,221,12,0,200,13,0,201,14,0,200,15,0,201,16,0,200,17,0,200,18,0,200,19,0,200,20,0,201,21,0,200,23,0,200,24,0,200,25,0,200,26,0,200,27,0,200,28,0,200,29,0,201,30,0,221,31,0,200,32,0,200,194,0,621,195,0,621,196,0,620,199,0,621*69
$PAIRSAT,2,15,69,0,1,70,0,201,71,0,201,73,0,200,74,0,200,75,0,200,76,0,200,77,0,200,79,0,200,80,0,200,81,0,200,82,0,200,84,0,1,85,0,201,87,0,200*54
$PAIRSAT,3,22,2,0,200,4,0,1200,5,0,200,7,0,1221,8,0,1221,9,0,1200,10,0,1200,11,0,1200,12,0,1200,13,0,1221,15,0,1221,19,0,1200,21,0,1200,24,0,1200,25,0,1200,26,0,1221,27,0,1200,30,0,1200,31,0,1200,33,0,1200,34,0,1221,36,0,1200*76
$PAIRSAT,4,43,1,0,201,2,0,201,3,0,201,4,0,201,5,0,200,7,0,201,9,0,201,10,0,201,11,0,201,12,0,200,15,0,200,16,0,201,19,0,600,20,0,600,21,0,600,22,0,600,23,0,600,24,0,621,25,0,621,26,0,600,27,0,621,28,0,621,29,0,600,30,0,600,32,0,600,33,0,621,34,0,600,35,0,600,36,0,600,37,0,600,38,0,621,39,0,621,40,0,621,41,0,621,42,0,621,43,0,621,44,0,400,45,0,400,46,0,400,57,0,200,59,0,601,60,0,601,61,0,600*69
$PAIRDGP,9,5,6,7,11,13,15,20,29,30*58
$GNGGA,111535.000,2500.8048697,N,12132.4786171,E,2,51,0.51,15.716,M,15.25,M,1,3335*41
$GNRMC,111535.000,A,2500.8048697,N,12132.4786171,E,0.02,317.81,100523,,,D,V*04
$GNACCURACY,3.2*17
$GNGGA,111535.100,2500.8048697,N,12132.4786111,E,2,51,0.51,15.711,M,15.25,M,1,3335*41
$GNRMC,111535.100,A,2500.8048697,N,12132.4786111,E,0.02,317.81,100523,,,D,V*03
$GNACCURACY,3.2*17
$GNGGA,111535.200,2500.8048757,N,12132.4786051,E,2,51,0.51,15.707,M,15.25,M,1,3335*4D
$GNRMC,111535.200,A,2500.8048757,N,12132.4786051,E,0.02,317.81,100523,,,D,V*08
$GNACCURACY,3.3*16
$GNGGA,111535.300,2500.8048757,N,12132.4786051,E,2,51,0.51,15.701,M,15.25,M,1,3335*4A
$GNRMC,111535.300,A,2500.8048757,N,12132.4786051,E,0.02,317.81,100523,,,D,V*09
$GNACCURACY,3.3*16
$GNGGA,111535.400,2500.8048817,N,12132.4786051,E,2,51,0.51,15.697,M,15.25,M,1,3335*48
$GNRMC,111535.400,A,2500.8048817,N,12132.4786051,E,0.02,317.81,100523,,,D,V*05
$GNACCURACY,3.3*16
$GNGGA,111535.500,2500.8048817,N,12132.4785991,E,2,52,0.51,15.700,M,15.25,M,1,3335*43
$GNRMC,111535.500,A,2500.8048817,N,12132.4785991,E,0.02,317.81,100523,,,D,V*02
$GNACCURACY,3.3*16
$GNGGA,111535.600,2500.8048817,N,12132.4785871,E,2,52,0.51,15.701,M,15.25,M,0,3335*4F
$GNRMC,111535.600,A,2500.8048817,N,12132.4785871,E,0.01,317.81,100523,,,D,V*0D
$GNACCURACY,3.3*16
$GNGGA,111535.700,2500.8048817,N,12132.4785811,E,2,52,0.51,15.701,M,15.25,M,0,3335*48
$GNRMC,111535.700,A,2500.8048817,N,12132.4785811,E,0.01,317.81,100523,,,D,V*0A
$GNACCURACY,3.3*16
$GNGGA,111535.800,2500.8048817,N,12132.4785691,E,2,52,0.51,15.703,M,15.25,M,0,3335*43
$GNRMC,111535.800,A,2500.8048817,N,12132.4785691,E,0.01,317.81,100523,,,D,V*03
$GNACCURACY,3.3*16
$GNGGA,111535.900,2500.8048817,N,12132.4785571,E,2,52,0.51,15.706,M,15.25,M,0,3335*4A
$GNRMC,111535.900,A,2500.8048817,N,12132.4785571,E,0.01,317.81,100523,,,D,V*0F
$GNGSA,A,3,13,196,195,199,15,11,05,20,29,30,194,,0.88,0.51,0.72,1*07
$GNGSA,A,3,84,70,85,69,71,,,,,,,,0.88,0.51,0.72,2*0C
$GNGSA,A,3,08,13,15,07,26,,,,,,,,0.88,0.51,0.72,3*0F
$GNGSA,A,3,28,38,33,39,41,16,43,27,07,09,40,42,0.88,0.51,0.72,4*02
$GPGSV,4,1,15,13,87,149,43,196,72,050,37,195,65,147,42,50,60,167,40,1*64
$GPGSV,4,2,15,199,60,167,37,15,53,240,28,11,52,105,33,05,51,000,41,1*5C
$GPGSV,4,3,15,20,45,040,29,29,42,289,41,30,21,067,38,06,13,126,21,1*68
$GPGSV,4,4,15,194,12,164,14,24,06,191,,07,02,042,,1*63
$GPGSV,2,1,06,196,72,050,46,195,65,147,42,199,60,167,43,11,52,105,35,8*5B
$GPGSV,2,2,06,30,21,067,34,194,12,164,28,8*5B
$GLGSV,2,1,05,84,73,139,22,70,54,295,28,85,40,334,38,69,29,023,25,1*7B
$GLGSV,2,2,05,71,20,245,23,1*4B
$GAGSV,2,1,06,08,74,020,42,13,63,347,41,15,53,115,36,07,47,229,20,7*76
$GAGSV,2,2,06,26,13,320,22,34,05,132,,7*70
$GAGSV,2,1,05,08,74,020,44,13,63,347,42,15,53,115,43,07,47,229,29,1*7D
$GAGSV,2,2,05,26,13,320,26,1*43
$GBGSV,4,1,15,28,70,279,36,38,56,011,43,33,53,010,42,39,48,176,44,1*7B
$GBGSV,4,2,15,41,46,280,37,16,40,179,42,43,39,163,40,27,25,318,38,1*79
$GBGSV,4,3,15,07,23,205,19,09,20,192,25,40,20,197,25,11,14,153,,1*76
$GBGSV,4,4,15,24,11,097,,42,11,050,20,25,11,150,,1*48
$GBGSV,3,1,09,28,70,279,40,38,56,011,42,33,53,010,43,39,48,176,44,4*75
$GBGSV,3,2,09,41,46,280,40,43,39,163,42,27,25,318,30,40,20,197,29,4*74
$GBGSV,3,3,09,42,11,050,30,4*4A
$GNACCURACY,3.3*16
$PAIRSAT,1,35,1,0,200,2,0,200,3,0,200,4,0,200,5,0,201,6,0,221,7,0,200,8,0,200,9,0,200,10,0,200,11,0,221,12,0,200,13,0,201,14,0,200,15,0,201,16,0,200,17,0,200,18,0,200,19,0,200,20,0,201,21,0,200,23,0,200,24,0,200,25,0,200,26,0,200,27,0,200,28,0,200,29,0,201,30,0,221,31,0,200,32,0,200,194,0,621,195,0,621,196,0,620,199,0,621*69
$PAIRSAT,2,15,69,0,1,70,0,201,71,0,201,73,0,200,74,0,200,75,0,200,76,0,200,77,0,200,79,0,200,80,0,200,81,0,200,82,0,200,84,0,1,85,0,201,87,0,200*54
$PAIRSAT,3,22,2,0,200,4,0,1200,5,0,200,7,0,1221,8,0,1221,9,0,1200,10,0,1200,11,0,1200,12,0,1200,13,0,1221,15,0,1221,19,0,1200,21,0,1200,24,0,1200,25,0,1200,26,0,1221,27,0,1200,30,0,1200,31,0,1200,33,0,1200,34,0,1221,36,0,1200*76
$PAIRSAT,4,43,1,0,201,2,0,201,3,0,201,4,0,201,5,0,200,7,0,201,9,0,201,10,0,201,11,0,201,12,0,200,15,0,200,16,0,201,19,0,600,20,0,600,21,0,600,22,0,600,23,0,600,24,0,621,25,0,621,26,0,600,27,0,621,28,0,621,29,0,600,30,0,600,32,0,600,33,0,621,34,0,600,35,0,600,36,0,600,37,0,600,38,0,621,39,0,621,40,0,621,41,0,621,42,0,621,43,0,621,44,0,400,45,0,400,46,0,400,57,0,200,59,0,601,60,0,601,61,0,600*69
$PAIRDGP,9,5,6,7,11,13,15,20,29,30*58
$GNGGA,111536.000,2500.8048817,N,12132.4785451,E,2,52,0.51,15.710,M,15.25,M,1,3335*45
$GNRMC,111536.000,A,2500.8048817,N,12132.4785451,E,0.02,317.81,100523,,,D,V*05
$GNACCURACY,3.3*16
$GNGGA,111536.100,2500.8048817,N,12132.4785391,E,2,52,0.51,15.713,M,15.25,M,1,3335*4C
$GNRMC,111536.100,A,2500.8048817,N,12132.4785391,E,0.02,317.81,100523,,,D,V*0F
$GNACCURACY,3.3*16
$GNGGA,111536.200,2500.8048817,N,12132.4785271,E,2,52,0.51,15.716,M,15.25,M,1,3335*45
$GNRMC,111536.200,A,2500.8048817,N,12132.4785271,E,0.02,317.81,100523,,,D,V*03
$GNACCURACY,3.3*16
$GNGGA,111536.300,2500.8048817,N,12132.4785211,E,2,52,0.51,15.720,M,15.25,M,1,3335*47
$GNRMC,111536.300,A,2500.8048817,N,12132.4785211,E,0.02,317.81,100523,,,D,V*04
$GNACCURACY,3.3*16
$GNGGA,111536.400,2500.8048757,N,12132.4785091,E,2,52,0.51,15.720,M,15.25,M,1,3335*41
$GNRMC,111536.400,A,2500.8048757,N,12132.4785091,E,0.02,317.81,100523,,,D,V*02
$GNACCURACY,3.3*16
$GNGGA,111536.500,2500.8048757,N,12132.4785031,E,2,52,0.51,15.721,M,15.25,M,1,3335*4B
$GNRMC,111536.500,A,2500.8048757,N,12132.4785031,E,0.02,317.81,100523,,,D,V*09
$GNACCURACY,3.4*11
$GNGGA,111536.600,2500.8048757,N,12132.4784971,E,2,53,0.49,15.718,M,15.25,M,0,3335*47
$GNRMC,111536.600,A,2500.8048757,N,12132.4784971,E,0.02,317.81,100523,,,D,V*06
$GNACCURACY,3.4*11
$GNGGA,111536.700,2500.8048817,N,12132.4784911,E,2,53,0.49,15.712,M,15.25,M,0,3335*41
$GNRMC,111536.700,A,2500.8048817,N,12132.4784911,E,0.02,317.81,100523,,,D,V*0A
$GNACCURACY,3.3*16
$GNGGA,111536.800,2500.8048817,N,12132.4784791,E,2,53,0.49,15.710,M,15.25,M,0,3335*4A
$GNRMC,111536.800,A,2500.8048817,N,12132.4784791,E,0.02,317.81,100523,,,D,V*03
$GNACCURACY,3.3*16
$GNGGA,111536.900,2500.8048817,N,12132.4784731,E,2,52,0.51,15.704,M,15.25,M,0,3335*4C
$GNRMC,111536.900,A,2500.8048817,N,12132.4784731,E,0.02,317.81,100523,,,D,V*08
$GNGSA,A,3,13,196,195,199,15,11,05,20,29,30,194,,0.88,0.51,0.72,1*07
$GNGSA,A,3,84,70,85,69,71,,,,,,,,0.88,0.51,0.72,2*0C
$GNGSA,A,3,08,13,15,07,26,,,,,,,,0.88,0.51,0.72,3*0F
$GNGSA,A,3,28,38,33,39,41,16,43,27,07,40,09,42,0.88,0.51,0.72,4*02
$GPGSV,4,1,14,13,87,149,44,196,72,050,38,195,65,147,42,50,60,167,40,1*6D
$GPGSV,4,2,14,199,60,167,37,15,53,240,29,11,52,105,34,05,51,000,40,1*5A
$GPGSV,4,3,14,20,45,040,30,29,42,289,41,30,21,067,38,06,13,126,22,1*62
$GPGSV,4,4,14,194,12,164,13,24,06,191,,1*56
$GPGSV,2,1,06,196,72,050,45,195,65,147,42,199,60,167,43,11,52,105,36,8*5B
$GPGSV,2,2,06,30,21,067,33,194,12,164,28,8*5C
$GLGSV,2,1,05,84,73,139,22,70,54,295,27,85,40,334,38,69,29,023,25,1*74
$GLGSV,2,2,05,71,20,245,28,1*40
$GAGSV,2,1,06,08,74,020,42,13,63,347,41,15,53,115,36,07,47,229,15,7*70
$GAGSV,2,2,06,26,13,320,20,34,05,132,,7*72
$GAGSV,2,1,05,08,74,020,44,13,63,347,42,15,53,115,43,07,47,229,29,1*7D
$GAGSV,2,2,05,26,13,320,27,1*42
$GBGSV,4,1,16,28,70,279,37,38,56,011,43,33,53,010,42,39,48,176,44,1*79
$GBGSV,4,2,16,41,46,280,35,16,40,179,42,43,39,163,40,10,26,221,,1*7F
$GBGSV,4,3,16,27,25,318,38,07,23,205,17,40,20,197,25,09,20,192,25,1*7A
$GBGSV,4,4,16,11,14,153,,42,11,050,19,25,11,150,,24,11,097,,1*73
$GBGSV,3,1,09,28,70,279,40,38,56,011,42,33,53,010,43,39,48,176,44,4*75
$GBGSV,3,2,09,41,46,280,39,43,39,163,42,27,25,318,31,40,20,197,29,4*7B
$GBGSV,3,3,09,42,11,050,30,4*4A
$GNACCURACY,3.6*13
$PAIRSAT,1,35,1,0,200,2,0,200,3,0,200,4,0,200,5,0,201,6,0,221,7,0,200,8,0,200,9,0,200,10,0,200,11,0,221,12,0,200,13,0,201,14,0,200,15,0,201,16,0,200,17,0,200,18,0,200,19,0,200,20,0,201,21,0,200,23,0,200,24,0,200,25,0,200,26,0,200,27,0,200,28,0,200,29,0,201,30,0,221,31,0,200,32,0,200,194,0,621,195,0,621,196,0,620,199,0,621*69
$PAIRSAT,2,15,69,0,1,70,0,201,71,0,201,73,0,200,74,0,200,75,0,200,76,0,200,77,0,200,79,0,200,80,0,200,81,0,200,82,0,200,84,0,1,85,0,201,87,0,200*54
$PAIRSAT,3,22,2,0,200,4,0,1200,5,0,200,7,0,1221,8,0,1221,9,0,1200,10,0,1200,11,0,1200,12,0,1200,13,0,1221,15,0,1221,19,0,1200,21,0,1200,24,0,1200,25,0,1200,26,0,1221,27,0,1200,30,0,1200,31,0,1200,33,0,1200,34,0,1221,36,0,1200*76
$PAIRSAT,4,43,1,0,201,2,0,201,3,0,201,4,0,201,5,0,200,7,0,201,9,0,201,10,0,201,11,0,201,12,0,200,15,0,200,16,0,201,19,0,600,20,0,600,21,0,600,22,0,600,23,0,600,24,0,621,25,0,621,26,0,600,27,0,621,28,0,621,29,0,600,30,0,600,32,0,600,33,0,621,34,0,600,35,0,600,36,0,600,37,0,600,38,0,621,39,0,621,40,0,621,41,0,621,42,0,621,43,0,621,44,0,400,45,0,400,46,0,400,57,0,200,59,0,601,60,0,601,61,0,600*69
$PAIRDGP,8,5,6,11,13,15,20,29,30*42
$GNGGA,111537.000,2500.8048817,N,12132.4784611,E,2,52,0.51,15.699,M,15.25,M,1,3335*43
$GNRMC,111537.000,A,2500.8048817,N,12132.4784611,E,0.02,317.81,100523,,,D,V*03
$GNACCURACY,3.6*13
$GNGGA,111537.100,2500.8048817,N,12132.4784551,E,2,52,0.51,15.690,M,15.25,M,1,3335*4C
$GNRMC,111537.100,A,2500.8048817,N,12132.4784551,E,0.02,317.81,100523,,,D,V*05
$GNACCURACY,3.6*13
$GNGGA,111537.200,2500.8048817,N,12132.4784491,E,2,52,0.51,15.681,M,15.25,M,1,3335*42
$GNRMC,111537.200,A,2500.8048817,N,12132.4784491,E,0.02,317.81,100523,,,D,V*0B
$GNACCURACY,3.6*13
$GNGGA,111537.300,2500.8048817,N,12132.4784491,E,2,53,0.49,15.670,M,15.25,M,1,3335*45
$GNRMC,111537.300,A,2500.8048817,N,12132.4784491,E,0.02,317.81,100523,,,D,V*0A
$GNACCURACY,3.6*13
$GNGGA,111537.400,2500.8048877,N,12132.4784491,E,2,52,0.51,15.657,M,15.25,M,1,3335*49
$GNRMC,111537.400,A,2500.8048877,N,12132.4784491,E,0.01,317.81,100523,,,D,V*08
$GNACCURACY,3.1*14
$GNGGA,111537.500,2500.8048877,N,12132.4784491,E,2,53,0.49,15.646,M,15.25,M,1,3335*40
$GNRMC,111537.500,A,2500.8048877,N,12132.4784491,E,0.01,317.81,100523,,,D,V*09
$GNACCURACY,3.1*14
$GNGGA,111537.600,2500.8048877,N,12132.4784431,E,2,53,0.49,15.637,M,15.25,M,1,3335*4F
$GNRMC,111537.600,A,2500.8048877,N,12132.4784431,E,0.02,317.81,100523,,,D,V*03
$GNACCURACY,3.1*14
$GNGGA,111537.700,2500.8048937,N,12132.4784431,E,2,53,0.49,15.624,M,15.25,M,0,3335*48
$GNRMC,111537.700,A,2500.8048937,N,12132.4784431,E,0.02,317.81,100523,,,D,V*07
$GNACCURACY,3.1*14
$GNGGA,111537.800,2500.8048937,N,12132.4784431,E,2,53,0.49,15.613,M,15.25,M,0,3335*43
$GNRMC,111537.800,A,2500.8048937,N,12132.4784431,E,0.01,317.81,100523,,,D,V*0B
$GNACCURACY,3.1*14
$GNGGA,111537.900,2500.8048997,N,12132.4784431,E,2,53,0.49,15.601,M,15.25,M,0,3335*4B
$GNRMC,111537.900,A,2500.8048997,N,12132.4784431,E,0.02,317.81,100523,,,D,V*03
$GNGSA,A,3,13,196,195,199,15,11,05,20,29,30,06,194,0.85,0.49,0.70,1*07
$GNGSA,A,3,84,70,85,69,71,,,,,,,,0.85,0.49,0.70,2*0A
$GNGSA,A,3,08,13,15,07,26,,,,,,,,0.85,0.49,0.70,3*09
$GNGSA,A,3,28,38,33,39,41,16,43,27,07,09,40,42,0.85,0.49,0.70,4*04
$GPGSV,4,1,15,13,87,149,44,196,72,050,38,195,65,147,42,50,60,167,40,1*6C
$GPGSV,4,2,15,199,60,167,37,15,53,240,28,11,52,105,35,05,51,001,39,1*54
$GPGSV,4,3,15,20,45,040,30,29,42,289,41,30,21,067,37,06,13,126,22,1*6C
$GPGSV,4,4,15,194,12,164,17,24,06,191,,07,02,042,,1*60
$GPGSV,2,1,07,196,72,050,44,195,65,147,42,199,60,167,44,11,52,105,35,8*5F
$GPGSV,2,2,07,30,21,067,33,06,13,126,18,194,12,164,26,8*6B
$GLGSV,2,1,05,84,73,139,22,70,54,295,28,85,40,334,38,69,29,023,25,1*7B
$GLGSV,2,2,05,71,20,245,28,1*40
$GAGSV,2,1,06,08,74,020,42,13,63,347,41,15,53,115,34,07,47,229,15,7*72
$GAGSV,2,2,06,26,13,320,16,34,05,132,,7*77
$GAGSV,2,1,05,08,74,020,44,13,63,347,42,15,53,115,43,07,47,229,28,1*7C
$GAGSV,2,2,05,26,13,320,28,1*4D
$GBGSV,4,1,16,28,70,279,36,38,56,011,43,33,53,010,42,39,48,176,44,1*78
$GBGSV,4,2,16,41,46,280,34,16,40,179,42,43,39,163,40,10,26,221,,1*7E
$GBGSV,4,3,16,27,25,318,38,07,23,205,17,09,20,192,25,40,20,197,28,1*77
$GBGSV,4,4,16,11,14,153,,42,11,050,18,25,11,150,,24,11,097,,1*72
$GBGSV,3,1,09,28,70,279,40,38,56,011,42,33,53,010,43,39,48,176,44,4*75
$GBGSV,3,2,09,41,46,280,39,43,39,163,42,27,25,318,32,40,20,197,29,4*78
$GBGSV,3,3,09,42,11,050,32,4*48
$GNACCURACY,3.1*14
$PAIRSAT,1,35,1,0,200,2,0,200,3,0,200,4,0,200,5,0,201,6,0,221,7,0,200,8,0,200,9,0,200,10,0,200,11,0,221,12,0,200,13,0,201,14,0,200,15,0,201,16,0,200,17,0,200,18,0,200,19,0,200,20,0,201,21,0,200,23,0,200,24,0,200,25,0,200,26,0,200,27,0,200,28,0,200,29,0,201,30,0,221,31,0,200,32,0,200,194,0,621,195,0,621,196,0,620,199,0,621*69
$PAIRSAT,2,15,69,0,1,70,0,201,71,0,201,73,0,200,74,0,200,75,0,200,76,0,200,77,0,200,79,0,200,80,0,200,81,0,200,82,0,200,84,0,1,85,0,201,87,0,200*54
$PAIRSAT,3,22,2,0,200,4,0,1200,5,0,200,7,0,1221,8,0,1221,9,0,1200,10,0,1200,11,0,1200,12,0,1200,13,0,1221,15,0,1221,19,0,1200,21,0,1200,24,0,1200,25,0,1200,26,0,1221,27,0,1200,30,0,1200,31,0,1200,33,0,1200,34,0,1221,36,0,1200*76
$PAIRSAT,4,43,1,0,201,2,0,201,3,0,201,4,0,201,5,0,200,7,0,201,9,0,201,10,0,201,11,0,201,12,0,200,15,0,200,16,0,201,19,0,600,20,0,600,21,0,600,22,0,600,23,0,600,24,0,621,25,0,621,26,0,600,27,0,621,28,0,621,29,0,600,30,0,600,32,0,600,33,0,621,34,0,600,35,0,600,36,0,600,37,0,600,38,0,621,39,0,621,40,0,621,41,0,621,42,0,621,43,0,621,44,0,400,45,0,400,46,0,400,57,0,200,59,0,601,60,0,601,61,0,600*69
$PAIRDGP,9,5,6,7,11,13,15,20,29,30*58
$GNGGA,111538.000,2500.8048997,N,12132.4784431,E,2,53,0.49,15.589,M,15.25,M,1,3335*4F
$GNRMC,111538.000,A,2500.8048997,N,12132.4784431,E,0.02,317.81,100523,,,D,V*05
$GNACCURACY,3.1*14
$GNGGA,111538.100,2500.8049057,N,12132.4784491,E,2,53,0.49,15.577,M,15.25,M,1,3335*41
$GNRMC,111538.100,A,2500.8049057,N,12132.4784491,E,0.02,317.81,100523,,,D,V*0A
$GNACCURACY,3.1*14
$GNGGA,111538.200,2500.8049422,N,12132.4796462,E,4,53,0.49,17.096,M,15.25,M,1,3335*45
$GNRMC,111538.200,A,2500.8049422,N,12132.4796462,E,0.02,317.81,100523,,,R,V*16
$GNACCURACY,3.1*14
$GNGGA,111538.300,2500.8049456,N,12132.4796492,E,4,53,0.49,17.086,M,15.25,M,1,3335*49
$GNRMC,111538.300,A,2500.8049456,N,12132.4796492,E,0.02,317.81,100523,,,R,V*1B
$GNACCURACY,3.1*14
$GNGGA,111538.400,2500.8049457,N,12132.4796503,E,4,53,0.49,17.076,M,15.25,M,1,3335*49
$GNRMC,111538.400,A,2500.8049457,N,12132.4796503,E,0.02,317.81,100523,,,R,V*14
$GNACCURACY,3.1*14
$GNGGA,111538.500,2500.8049475,N,12132.4796480,E,4,53,0.49,17.095,M,15.25,M,1,3335*4F
$GNRMC,111538.500,A,2500.8049475,N,12132.4796480,E,0.02,317.81,100523,,,R,V*1F
$GNACCURACY,3.1*14
$GNGGA,111538.600,2500.8049469,N,12132.4796488,E,4,52,0.49,17.072,M,15.25,M,0,3335*40
$GNRMC,111538.600,A,2500.8049469,N,12132.4796488,E,0.02,317.81,100523,,,R,V*19
$GNACCURACY,3.1*14
$GNGGA,111538.700,2500.8049476,N,12132.4796508,E,4,53,0.49,17.077,M,15.25,M,0,3335*42
$GNRMC,111538.700,A,2500.8049476,N,12132.4796508,E,0.02,317.81,100523,,,R,V*1F
$GNACCURACY,3.1*14
$GNGGA,111538.800,2500.8049471,N,12132.4796516,E,4,53,0.49,17.079,M,15.25,M,0,3335*4B
$GNRMC,111538.800,A,2500.8049471,N,12132.4796516,E,0.02,317.81,100523,,,R,V*18
$GNACCURACY,3.1*14
$GNGGA,111538.900,2500.8049514,N,12132.4796495,E,4,53,0.49,17.075,M,15.25,M,0,3335*4E
$GNRMC,111538.900,A,2500.8049514,N,12132.4796495,E,0.02,317.81,100523,,,R,V*11
$GNGSA,A,3,13,196,195,199,15,11,05,20,29,30,06,194,0.85,0.49,0.69,1*0F
$GNGSA,A,3,84,70,85,69,71,,,,,,,,0.85,0.49,0.69,2*02
$GNGSA,A,3,08,13,15,07,26,,,,,,,,0.85,0.49,0.69,3*01
$GNGSA,A,3,28,38,33,39,41,16,43,27,07,09,40,42,0.85,0.49,0.69,4*0C
$GPGSV,4,1,15,13,87,147,44,196,72,050,39,195,65,147,42,50,60,167,40,1*63
$GPGSV,4,2,15,199,60,167,37,15,53,240,24,11,52,105,36,05,51,001,40,1*55
$GPGSV,4,3,15,20,45,040,31,29,42,289,41,30,21,067,37,06,13,126,21,1*6E
$GPGSV,4,4,15,194,12,164,17,24,06,191,,07,02,042,,1*60
$GPGSV,2,1,07,196,72,050,44,195,65,147,42,199,60,167,44,11,52,105,37,8*5D
$GPGSV,2,2,07,30,21,067,34,06,13,126,19,194,12,164,25,8*6E
$GLGSV,2,1,05,84,73,139,20,70,54,295,28,85,40,334,37,69,29,023,26,1*75
$GLGSV,2,2,05,71,20,245,26,1*4E
$GAGSV,2,1,06,08,74,020,42,13,63,347,41,15,53,115,37,07,47,229,22,7*75
$GAGSV,2,2,06,26,13,320,16,34,05,132,,7*77
$GAGSV,2,1,05,08,74,020,44,13,63,347,42,15,53,115,44,07,47,229,26,1*75
$GAGSV,2,2,05,26,13,320,27,1*42
$GBGSV,4,1,16,28,70,279,37,38,56,011,44,33,53,010,44,39,48,176,44,1*78
$GBGSV,4,2,16,41,46,280,34,16,40,179,42,43,39,163,40,10,26,221,,1*7E
$GBGSV,4,3,16,27,25,318,38,07,23,205,15,09,20,192,23,40,20,197,28,1*73
$GBGSV,4,4,16,11,14,153,,42,11,050,18,25,11,150,,24,11,097,,1*72
$GBGSV,3,1,09,28,70,279,41,38,56,011,42,33,53,010,43,39,48,176,44,4*74
$GBGSV,3,2,09,41,46,280,39,43,39,163,42,27,25,318,32,40,20,197,30,4*70
$GBGSV,3,3,09,42,11,050,33,4*49
$GNACCURACY,3.1*14
$PAIRSAT,1,35,1,0,200,2,0,200,3,0,200,4,0,200,5,0,201,6,0,221,7,0,200,8,0,200,9,0,200,10,0,200,11,0,221,12,0,200,13,0,201,14,0,200,15,0,201,16,0,200,17,0,200,18,0,200,19,0,200,20,0,201,21,0,200,23,0,200,24,0,200,25,0,200,26,0,200,27,0,200,28,0,200,29,0,201,30,0,221,31,0,200,32,0,200,194,0,621,195,0,621,196,0,620,199,0,621*69
$PAIRSAT,2,15,69,0,1,70,0,201,71,0,201,73,0,200,74,0,200,75,0,200,76,0,200,77,0,200,79,0,200,80,0,200,81,0,200,82,0,200,84,0,1,85,0,201,87,0,200*54
$PAIRSAT,3,22,2,0,200,4,0,1200,5,0,200,7,0,1221,8,0,1221,9,0,1200,10,0,1200,11,0,1200,12,0,1200,13,0,1221,15,0,1221,19,0,1200,21,0,1200,24,0,1200,25,0,1200,26,0,1221,27,0,1200,30,0,1200,31,0,1200,33,0,1200,34,0,1221,36,0,1200*76
$PAIRSAT,4,43,1,0,201,2,0,201,3,0,201,4,0,201,5,0,200,7,0,201,9,0,201,10,0,201,11,0,201,12,0,200,15,0,200,16,0,201,19,0,600,20,0,600,21,0,600,22,0,600,23,0,600,24,0,621,25,0,621,26,0,600,27,0,621,28,0,621,29,0,600,30,0,600,32,0,600,33,0,621,34,0,600,35,0,600,36,0,600,37,0,600,38,0,621,39,0,621,40,0,621,41,0,621,42,0,621,43,0,621,44,0,400,45,0,400,46,0,400,57,0,200,59,0,601,60,0,601,61,0,600*69
$PAIRDGP,9,5,6,7,11,13,15,20,29,30*58
$GNGGA,111539.000,2500.8049494,N,12132.4796510,E,4,52,0.49,17.081,M,15.25,M,1,3335*48
$GNRMC,111539.000,A,2500.8049494,N,12132.4796510,E,0.02,317.81,100523,,,R,V*1C
$GNACCURACY,3.1*14
$GNGGA,111539.100,2500.8049498,N,12132.4796507,E,4,53,0.49,17.063,M,15.25,M,1,3335*4E
$GNRMC,111539.100,A,2500.8049498,N,12132.4796507,E,0.02,317.81,100523,,,R,V*17
$GNACCURACY,3.1*14
$GNGGA,111539.200,2500.8049502,N,12132.4796546,E,4,52,0.49,17.072,M,15.25,M,1,3335*4B
$GNRMC,111539.200,A,2500.8049502,N,12132.4796546,E,0.02,317.81,100523,,,R,V*13
$GNACCURACY,3.1*14
$GNGGA,111539.300,2500.8049517,N,12132.4796511,E,4,51,0.49,17.076,M,15.25,M,1,3335*4B
$GNRMC,111539.300,A,2500.8049517,N,12132.4796511,E,0.02,317.81,100523,,,R,V*14
$GNACCURACY,3.1*14
$GNGGA,111539.400,2500.8049563,N,12132.4796592,E,4,51,0.49,17.055,M,15.25,M,1,3335*45
$GNRMC,111539.400,A,2500.8049563,N,12132.4796592,E,0.02,317.81,100523,,,R,V*1B
$GNACCURACY,3.1*14
$GNGGA,111539.500,2500.8049577,N,12132.4796618,E,4,52,0.49,17.068,M,15.25,M,1,3335*4D
$GNRMC,111539.500,A,2500.8049577,N,12132.4796618,E,0.02,317.81,100523,,,R,V*1E
$GNACCURACY,3.1*14
$GNGGA,111539.600,2500.8049586,N,12132.4796616,E,4,53,0.49,17.034,M,15.25,M,1,3335*46
$GNRMC,111539.600,A,2500.8049586,N,12132.4796616,E,0.02,317.81,100523,,,R,V*1D
$GNACCURACY,3.1*14
$GNGGA,111539.700,2500.8049594,N,12132.4796542,E,4,53,0.49,17.066,M,15.25,M,0,3335*40
$GNRMC,111539.700,A,2500.8049594,N,12132.4796542,E,0.02,317.81,100523,,,R,V*1D
$GNACCURACY,3.1*14
$GNGGA,111539.800,2500.8049584,N,12132.4796510,E,4,53,0.49,17.088,M,15.25,M,0,3335*49
$GNRMC,111539.800,A,2500.8049584,N,12132.4796510,E,0.02,317.81,100523,,,R,V*14
$GNACCURACY,3.1*14
$GNGGA,111539.900,2500.8049639,N,12132.4796433,E,4,52,0.49,17.075,M,15.25,M,0,3335*4E
$GNRMC,111539.900,A,2500.8049639,N,12132.4796433,E,0.02,317.81,100523,,,R,V*10
$GNGSA,A,3,13,196,195,199,15,11,05,20,29,30,06,194,0.85,0.49,0.69,1*0F
$GNGSA,A,3,84,70,85,69,71,,,,,,,,0.85,0.49,0.69,2*02
$GNGSA,A,3,08,13,15,07,26,,,,,,,,0.85,0.49,0.69,3*01
$GNGSA,A,3,28,38,33,39,41,16,43,27,07,09,40,42,0.85,0.49,0.69,4*0C
$GPGSV,4,1,15,13,87,147,44,196,72,050,40,195,65,147,37,50,60,167,38,1*60
$GPGSV,4,2,15,199,60,167,36,15,53,240,21,11,52,105,36,05,51,001,40,1*51
$GPGSV,4,3,15,20,45,040,29,29,42,289,41,30,21,067,35,06,13,126,19,1*6E
$GPGSV,4,4,15,194,12,164,17,24,06,191,,07,02,042,,1*60
$GPGSV,2,1,07,196,72,050,45,195,65,147,43,199,60,167,43,11,52,105,36,8*5B
$GPGSV,2,2,07,30,21,067,35,06,13,126,19,194,12,164,20,8*6A
$GLGSV,2,1,05,84,73,139,18,70,54,295,28,85,40,334,37,69,29,023,29,1*71
$GLGSV,2,2,05,71,20,245,24,1*4C
$GAGSV,2,1,06,08,74,020,42,13,63,347,40,15,53,115,38,07,47,229,19,7*73
$GAGSV,2,2,06,26,13,320,20,34,05,132,,7*72
$GAGSV,1,1,04,08,74,020,43,13,63,347,43,15,53,115,43,26,13,320,26,1*7C
$GBGSV,4,1,16,28,70,279,38,38,56,011,44,33,53,010,44,39,48,176,44,1*77
$GBGSV,4,2,16,41,46,280,33,16,40,179,41,43,39,163,33,10,26,221,,1*7E
$GBGSV,4,3,16,27,25,318,38,07,23,205,17,09,20,192,23,40,20,197,30,1*78
$GBGSV,4,4,16,11,14,153,,42,11,050,19,25,11,150,,24,11,097,,1*73
$GBGSV,3,1,09,28,70,279,41,38,56,011,42,33,53,010,44,39,48,176,43,4*74
$GBGSV,3,2,09,41,46,280,38,43,39,163,42,27,25,318,31,40,20,197,30,4*72
$GBGSV,3,3,09,42,11,050,33,4*49
$GNACCURACY,3.1*14
$PAIRSAT,1,35,1,0,200,2,0,200,3,0,200,4,0,200,5,0,201,6,0,221,7,0,200,8,0,200,9,0,200,10,0,200,11,0,221,12,0,200,13,0,201,14,0,200,15,0,201,16,0,200,17,0,200,18,0,200,19,0,200,20,0,201,21,0,200,23,0,200,24,0,200,25,0,200,26,0,200,27,0,200,28,0,200,29,0,201,30,0,221,31,0,200,32,0,200,194,0,621,195,0,621,196,0,620,199,0,621*69
$PAIRSAT,2,15,69,0,1,70,0,201,71,0,201,73,0,200,74,0,200,75,0,200,76,0,200,77,0,200,79,0,200,80,0,200,81,0,200,82,0,200,84,0,1,85,0,201,87,0,200*54
$PAIRSAT,3,22,2,0,200,4,0,1200,5,0,200,7,0,1221,8,0,1221,9,0,1200,10,0,1200,11,0,1200,12,0,1200,13,0,1221,15,0,1221,19,0,1200,21,0,1200,24,0,1200,25,0,1200,26,0,1221,27,0,1200,30,0,1200,31,0,1200,33,0,1200,34,0,1221,36,0,1200*76
$PAIRSAT,4,43,1,0,201,2,0,201,3,0,201,4,0,201,5,0,200,7,0,201,9,0,201,10,0,201,11,0,201,12,0,200,15,0,200,16,0,201,19,0,600,20,0,600,21,0,600,22,0,600,23,0,600,24,0,621,25,0,621,26,0,600,27,0,621,28,0,621,29,0,600,30,0,600,32,0,600,33,0,621,34,0,600,35,0,600,36,0,600,37,0,600,38,0,621,39,0,621,40,0,621,41,0,621,42,0,621,43,0,621,44,0,400,45,0,400,46,0,400,57,0,200,59,0,601,60,0,601,61,0,600*69
$PAIRDGP,9,5,6,7,11,13,15,20,29,30*58
$GNGGA,111540.000,2500.8049696,N,12132.4796270,E,4,52,0.49,17.092,M,15.25,M,1,3335*45
$GNRMC,111540.000,A,2500.8049696,N,12132.4796270,E,0.03,317.81,100523,,,R,V*12
$GNACCURACY,3.1*14
$GNGGA,111540.100,2500.8049742,N,12132.4796205,E,4,52,0.49,17.084,M,15.25,M,1,3335*49
$GNRMC,111540.100,A,2500.8049742,N,12132.4796205,E,0.03,317.81,100523,,,R,V*19
$GNACCURACY,3.1*14
$GNGGA,111540.200,2500.8049790,N,12132.4796086,E,4,52,0.49,17.085,M,15.25,M,1,3335*4D
$GNRMC,111540.200,A,2500.8049790,N,12132.4796086,E,0.03,317.81,100523,,,R,V*1C
$GNACCURACY,3.1*14
$GNGGA,111540.300,2500.8049863,N,12132.4795963,E,4,52,0.49,17.084,M,15.25,M,1,3335*4F
$GNRMC,111540.300,A,2500.8049863,N,12132.4795963,E,0.04,317.81,100523,,,R,V*18
$GNACCURACY,3.1*14
$GNGGA,111540.400,2500.8049843,N,12132.4795879,E,4,52,0.49,17.090,M,15.25,M,1,3335*45
$GNRMC,111540.400,A,2500.8049843,N,12132.4795879,E,0.04,317.81,100523,,,R,V*17
$GNACCURACY,3.1*14
$GNGGA,111540.500,2500.8049888,N,12132.4795750,E,4,53,0.49,17.095,M,15.25,M,1,3335*43
$GNRMC,111540.500,A,2500.8049888,N,12132.4795750,E,0.04,317.81,100523,,,R,V*15
$GNACCURACY,3.1*14
$GNGGA,111540.600,2500.8049947,N,12132.4795636,E,4,54,0.49,17.105,M,15.25,M,1,3335*4C
$GNRMC,111540.600,A,2500.8049947,N,12132.4795636,E,0.05,317.81,100523,,,R,V*14
$GNACCURACY,3.1*14
$GNGGA,111540.700,2500.8050040,N,12132.4795592,E,4,54,0.49,17.124,M,15.25,M,0,3335*44
$GNRMC,111540.700,A,2500.8050040,N,12132.4795592,E,0.05,317.81,100523,,,R,V*1E
$GNACCURACY,3.1*14
$GNGGA,111540.800,2500.8050134,N,12132.4795507,E,4,53,0.49,17.113,M,15.25,M,0,3335*46
$GNRMC,111540.800,A,2500.8050134,N,12132.4795507,E,0.06,317.81,100523,,,R,V*1C
$GNACCURACY,3.1*14
$GNGGA,111540.900,2500.8050279,N,12132.4795409,E,4,53,0.49,17.093,M,15.25,M,0,3335*4B
$GNRMC,111540.900,A,2500.8050279,N,12132.4795409,E,0.07,317.81,100523,,,R,V*19
$GNGSA,A,3,13,196,195,199,15,11,05,20,29,30,06,194,0.85,0.49,0.69,1*0F
$GNGSA,A,3,84,70,85,69,71,,,,,,,,0.85,0.49,0.69,2*02
$GNGSA,A,3,08,13,15,07,26,,,,,,,,0.85,0.49,0.69,3*01
$GNGSA,A,3,28,38,33,39,41,16,43,27,07,09,42,40,0.85,0.49,0.69,4*0C
$GPGSV,4,1,15,13,87,147,44,196,72,050,41,195,65,147,39,50,60,167,37,1*60
$GPGSV,4,2,15,199,60,167,35,15,53,240,19,11,52,105,38,05,51,001,44,1*53
$GPGSV,4,3,15,20,45,040,22,29,42,289,38,30,21,067,40,06,13,126,16,1*66
$GPGSV,4,4,15,194,12,164,23,24,06,191,,07,02,042,,1*67
$GPGSV,2,1,07,196,72,050,44,195,65,147,43,199,60,167,44,11,52,105,36,8*5D
$GPGSV,2,2,07,30,21,067,36,06,13,126,16,194,12,164,23,8*65
$GLGSV,2,1,05,84,73,139,20,70,54,295,19,85,40,334,36,69,29,023,28,1*78
$GLGSV,2,2,05,71,20,245,20,1*48
$GAGSV,2,1,06,08,74,020,41,13,63,347,42,15,53,115,31,07,47,229,26,7*77
$GAGSV,2,2,06,26,13,320,26,34,05,132,,7*74
$GAGSV,2,1,05,08,74,020,43,13,63,347,42,15,53,115,41,07,47,229,31,1*71
$GAGSV,2,2,05,26,13,320,29,1*4C
$GBGSV,4,1,16,28,70,279,37,38,56,011,42,33,53,010,43,39,48,176,43,1*7E
$GBGSV,4,2,16,41,46,280,37,16,40,179,40,43,39,163,39,10,26,221,,1*71
$GBGSV,4,3,16,27,25,318,38,07,23,205,19,09,20,192,24,40,20,197,,1*72
$GBGSV,4,4,16,11,14,153,,42,11,050,27,25,11,150,,24,11,097,,1*7E
$GBGSV,3,1,09,28,70,279,40,38,56,011,42,33,53,010,46,39,48,176,42,4*76
$GBGSV,3,2,09,41,46,280,35,43,39,163,41,27,25,318,35,40,20,197,26,4*7F
$GBGSV,3,3,09,42,11,050,27,4*4C
$GNACCURACY,3.1*14
$PAIRSAT,1,35,1,0,200,2,0,200,3,0,200,4,0,200,5,0,201,6,0,221,7,0,200,8,0,200,9,0,200,10,0,200,11,0,221,12,0,200,13,0,201,14,0,200,15,0,201,16,0,200,17,0,200,18,0,200,19,0,200,20,0,201,21,0,200,23,0,200,24,0,200,25,0,200,26,0,200,27,0,200,28,0,200,29,0,201,30,0,221,31,0,200,32,0,200,194,0,621,195,0,621,196,0,620,199,0,621*69
$PAIRSAT,2,15,69,0,1,70,0,201,71,0,201,73,0,200,74,0,200,75,0,200,76,0,200,77,0,200,79,0,200,80,0,200,81,0,200,82,0,200,84,0,1,85,0,201,87,0,200*54
$PAIRSAT,3,22,2,0,200,4,0,1200,5,0,200,7,0,1221,8,0,1221,9,0,1200,10,0,1200,11,0,1200,12,0,1200,13,0,1221,15,0,1221,19,0,1200,21,0,1200,24,0,1200,25,0,1200,26,0,1221,27,0,1200,30,0,1200,31,0,1200,33,0,1200,34,0,1221,36,0,1200*76
$PAIRSAT,4,43,1,0,201,2,0,201,3,0,201,4,0,201,5,0,200,7,0,201,9,0,201,10,0,201,11,0,201,12,0,200,15,0,200,16,0,201,19,0,600,20,0,600,21,0,600,22,0,600,23,0,600,24,0,621,25,0,621,26,0,600,27,0,621,28,0,621,29,0,600,30,0,600,32,0,600,33,0,621,34,0,600,35,0,600,36,0,600,37,0,600,38,0,621,39,0,621,40,0,621,41,0,621,42,0,621,43,0,621,44,0,400,45,0,400,46,0,400,57,0,200,59,0,601,60,0,601,61,0,600*69
$PAIRDGP,9,5,6,7,11,13,15,20,29,30*58
$GNGGA,111541.000,2500.8050414,N,12132.4795333,E,4,52,0.49,17.089,M,15.25,M,1,3335*4B
$GNRMC,111541.000,A,2500.8050414,N,12132.4795333,E,0.08,317.81,100523,,,R,V*1D
$GNACCURACY,3.1*14
$GNGGA,111541.100,2500.8050566,N,12132.4795202,E,4,52,0.49,17.069,M,15.25,M,1,3335*43
$GNRMC,111541.100,A,2500.8050566,N,12132.4795202,E,0.10,317.81,100523,,,R,V*12
$GNACCURACY,3.1*14
$GNGGA,111541.200,2500.8050760,N,12132.4795087,E,4,52,0.49,17.079,M,15.25,M,1,3335*4A
$GNRMC,111541.200,A,2500.8050760,N,12132.4795087,E,0.11,317.81,100523,,,R,V*1B
$GNACCURACY,3.0*15
$GNGGA,111541.300,2500.8050940,N,12132.4794994,E,4,52,0.49,17.087,M,15.25,M,1,3335*4C
$GNRMC,111541.300,A,2500.8050940,N,12132.4794994,E,0.13,317.81,100523,,,R,V*1E
$GNACCURACY,3.0*15
$GNGGA,111541.400,2500.8051151,N,12132.4794915,E,4,52,0.49,17.098,M,15.25,M,1,3335*45
$GNRMC,111541.400,A,2500.8051151,N,12132.4794915,E,0.14,317.81,100523,,,R,V*1E
$GNACCURACY,3.0*15
$GNGGA,111541.500,2500.8051284,N,12132.4794854,E,4,53,0.49,17.112,M,15.25,M,1,3335*49
$GNRMC,111541.500,A,2500.8051284,N,12132.4794854,E,0.15,317.81,100523,,,R,V*11
$GNACCURACY,3.0*15
$GNGGA,111541.600,2500.8051356,N,12132.4794732,E,4,53,0.49,17.110,M,15.25,M,1,3335*49
$GNRMC,111541.600,A,2500.8051356,N,12132.4794732,E,0.16,317.81,100523,,,R,V*10
$GNACCURACY,3.1*14
$GNGGA,111541.700,2500.8051491,N,12132.4794647,E,4,53,0.49,17.117,M,15.25,M,0,3335*41
$GNRMC,111541.700,A,2500.8051491,N,12132.4794647,E,0.17,317.81,100523,,,R,V*1F
$GNACCURACY,3.0*15
$GNGGA,111541.800,2500.8051606,N,12132.4794524,E,4,53,0.49,17.115,M,15.25,M,0,3335*46
$GNRMC,111541.800,A,2500.8051606,N,12132.4794524,E,0.18,317.81,100523,,,R,V*15
$GNACCURACY,3.0*15
$GNGGA,111541.900,2500.8051737,N,12132.4794525,E,4,53,0.49,17.085,M,15.25,M,0,3335*4D
$GNRMC,111541.900,A,2500.8051737,N,12132.4794525,E,0.18,317.81,100523,,,R,V*16
$GNGSA,A,3,13,196,195,199,15,11,05,20,29,30,194,06,0.85,0.49,0.69,1*0F
$GNGSA,A,3,84,70,85,69,71,,,,,,,,0.85,0.49,0.69,2*02
$GNGSA,A,3,08,13,15,07,26,,,,,,,,0.85,0.49,0.69,3*01
$GNGSA,A,3,28,38,33,39,41,16,43,27,07,09,42,40,0.85,0.49,0.69,4*0C
$GPGSV,4,1,15,13,87,147,40,196,72,050,41,195,65,147,39,50,60,167,39,1*6A
$GPGSV,4,2,15,199,60,167,37,15,53,240,23,11,52,105,37,05,51,001,42,1*51
$GPGSV,4,3,15,20,45,040,31,29,42,289,35,30,21,067,40,06,13,126,16,1*69
$GPGSV,4,4,15,194,12,164,24,24,06,191,,07,02,042,,1*60
$GPGSV,2,1,07,196,72,050,43,195,65,147,40,199,60,167,44,11,52,105,39,8*56
$GPGSV,2,2,07,30,21,067,32,06,13,126,15,194,12,164,26,8*67
$GLGSV,2,1,05,84,73,139,24,70,54,295,27,85,40,334,37,69,29,023,30,1*79
$GLGSV,2,2,05,71,20,245,22,1*4A
$GAGSV,2,1,06,08,74,020,43,13,63,347,39,15,53,115,32,07,47,229,25,7*79
$GAGSV,2,2,06,26,13,320,22,34,05,132,,7*70
$GAGSV,2,1,05,08,74,020,39,13,63,347,47,15,53,115,38,07,47,229,27,1*70
$GAGSV,2,2,05,26,13,320,26,1*43
$GBGSV,4,1,16,28,70,279,37,38,56,011,45,33,53,010,47,39,48,176,43,1*7D
$GBGSV,4,2,16,41,46,280,32,16,40,179,42,43,39,163,42,27,25,318,40,1*72
$GBGSV,4,3,16,07,23,205,20,40,20,197,,09,20,192,28,11,14,153,,1*75
$GBGSV,4,4,16,42,11,050,26,25,11,150,,24,11,097,,57,07,037,,1*7C
$GBGSV,3,1,09,28,70,279,43,38,56,011,42,33,53,010,44,39,48,176,43,4*76
$GBGSV,3,2,09,41,46,280,33,43,39,163,42,27,25,318,25,40,20,197,27,4*7A
$GBGSV,3,3,09,42,11,050,23,4*48
$GNACCURACY,3.0*15
$PAIRSAT,1,35,1,0,200,2,0,200,3,0,200,4,0,200,5,0,201,6,0,221,7,0,200,8,0,200,9,0,200,10,0,200,11,0,221,12,0,200,13,0,201,14,0,200,15,0,201,16,0,200,17,0,200,18,0,200,19,0,200,20,0,201,21,0,200,23,0,200,24,0,200,25,0,200,26,0,200,27,0,200,28,0,200,29,0,201,30,0,221,31,0,200,32,0,200,194,0,621,195,0,621,196,0,620,199,0,621*69
$PAIRSAT,2,15,69,0,1,70,0,201,71,0,201,73,0,200,74,0,200,75,0,200,76,0,200,77,0,200,79,0,200,80,0,200,81,0,200,82,0,200,84,0,1,85,0,201,87,0,200*54
$PAIRSAT,3,22,2,0,200,4,0,1200,5,0,200,7,0,1221,8,0,1221,9,0,1200,10,0,1200,11,0,1200,12,0,1200,13,0,1221,15,0,1221,19,0,1200,21,0,1200,24,0,1200,25,0,1200,26,0,1221,27,0,1200,30,0,1200,31,0,1200,33,0,1200,34,0,1221,36,0,1200*76
$PAIRSAT,4,43,1,0,201,2,0,201,3,0,201,4,0,201,5,0,200,7,0,201,9,0,201,10,0,201,11,0,201,12,0,200,15,0,200,16,0,201,19,0,600,20,0,600,21,0,600,22,0,600,23,0,600,24,0,621,25,0,621,26,0,600,27,0,621,28,0,621,29,0,600,30,0,600,32,0,600,33,0,621,34,0,600,35,0,600,36,0,600,37,0,600,38,0,621,39,0,621,40,0,621,41,0,621,42,0,621,43,0,621,44,0,400,45,0,400,46,0,400,57,0,200,59,0,601,60,0,601,61,0,600*69
$PAIRDGP,9,5,6,7,11,13,15,20,29,30*58
$GNGGA,111542.000,2500.8051891,N,12132.4794431,E,4,53,0.49,17.062,M,15.25,M,1,3335*48
$GNRMC,111542.000,A,2500.8051891,N,12132.4794431,E,0.19,317.81,100523,,,R,V*1A
$GNACCURACY,3.0*15
$GNGGA,111542.100,2500.8052008,N,12132.4794313,E,4,53,0.49,17.046,M,15.25,M,1,3335*43
$GNRMC,111542.100,A,2500.8052008,N,12132.4794313,E,0.20,317.81,100523,,,R,V*1D
$GNACCURACY,3.1*14
$GNGGA,111542.200,2500.8052186,N,12132.4794187,E,4,51,0.50,17.059,M,15.25,M,1,3335*4C
$GNRMC,111542.200,A,2500.8052186,N,12132.4794187,E,0.21,317.81,100523,,,R,V*17
$GNACCURACY,3.1*14
$GNGGA,111542.300,2500.8052370,N,12132.4793839,E,4,51,0.50,17.055,M,15.25,M,1,3335*41
$GNRMC,111542.300,A,2500.8052370,N,12132.4793839,E,0.23,317.81,100523,,,R,V*14
$GNACCURACY,3.1*14
$GNGGA,111542.400,2500.8052555,N,12132.4793655,E,4,51,0.50,17.064,M,15.25,M,1,3335*41
$GNRMC,111542.400,A,2500.8052555,N,12132.4793655,E,0.24,317.81,100523,,,R,V*11
$GNACCURACY,3.1*14
$GNGGA,111542.500,2500.8052715,N,12132.4793434,E,4,51,0.50,17.079,M,15.25,M,1,3335*4F
$GNRMC,111542.500,A,2500.8052715,N,12132.4793434,E,0.25,317.81,100523,,,R,V*12
$GNACCURACY,3.1*14
$GNGGA,111542.600,2500.8052829,N,12132.4793216,E,4,51,0.50,17.069,M,15.25,M,1,3335*4B
$GNRMC,111542.600,A,2500.8052829,N,12132.4793216,E,0.25,317.81,100523,,,R,V*17
$GNACCURACY,3.1*14
$GNGGA,111542.700,2500.8052991,N,12132.4793123,E,4,51,0.50,17.073,M,15.25,M,1,3335*46
$GNRMC,111542.700,A,2500.8052991,N,12132.4793123,E,0.26,317.81,100523,,,R,V*12
$GNACCURACY,3.1*14
$GNGGA,111542.800,2500.8053060,N,12132.4793017,E,4,50,0.50,17.073,M,15.25,M,0,3335*49
$GNRMC,111542.800,A,2500.8053060,N,12132.4793017,E,0.26,317.81,100523,,,R,V*1D
$GNACCURACY,3.1*14
$GNGGA,111542.900,2500.8053128,N,12132.4792874,E,4,50,0.50,17.084,M,15.25,M,0,3335*41
$GNRMC,111542.900,A,2500.8053128,N,12132.4792874,E,0.26,317.81,100523,,,R,V*1D
$GNGSA,A,3,13,196,195,199,15,11,05,20,29,30,06,194,0.85,0.49,0.69,1*0F
$GNGSA,A,3,84,70,85,69,71,,,,,,,,0.85,0.49,0.69,2*02
$GNGSA,A,3,08,13,15,07,26,,,,,,,,0.85,0.49,0.69,3*01
$GNGSA,A,3,28,38,33,39,41,16,43,27,07,09,42,40,0.85,0.49,0.69,4*0C
$GPGSV,4,1,15,13,87,147,42,196,72,050,38,195,65,147,39,50,60,167,38,1*67
$GPGSV,4,2,15,199,60,167,35,15,53,240,27,11,52,105,37,05,51,001,45,1*50
$GPGSV,4,3,15,20,45,040,32,29,42,289,33,30,21,067,36,06,13,126,16,1*6D
$GPGSV,4,4,15,194,12,164,19,24,06,191,,07,02,042,,1*6E
$GPGSV,2,1,07,196,72,050,44,195,65,147,43,199,60,167,44,11,52,105,38,8*53
$GPGSV,2,2,07,30,21,067,37,06,13,126,17,194,12,164,24,8*62
$GLGSV,2,1,05,84,73,139,24,70,54,295,28,85,40,334,35,69,29,023,24,1*71
$GLGSV,2,2,05,71,20,245,21,1*49
$GAGSV,2,1,06,08,74,020,43,13,63,347,43,15,53,115,33,07,47,229,25,7*75
$GAGSV,2,2,06,26,13,320,19,34,05,132,,7*78
$GAGSV,2,1,05,08,74,020,41,13,63,347,45,15,53,115,38,07,47,229,29,1*73
$GAGSV,2,2,05,26,13,320,25,1*40
$GBGSV,4,1,16,28,70,279,39,38,56,011,42,33,53,010,45,39,48,176,40,1*75
$GBGSV,4,2,16,41,46,280,36,16,40,179,39,43,39,163,41,10,26,221,,1*71
$GBGSV,4,3,16,27,25,318,40,07,23,205,23,09,20,192,21,40,20,197,,1*71
$GBGSV,4,4,16,11,14,153,,42,11,050,28,25,11,150,,24,11,097,,1*71
$GBGSV,3,1,09,28,70,279,40,38,56,011,44,33,53,010,45,39,48,176,40,4*71
$GBGSV,3,2,09,41,46,280,37,43,39,163,38,27,25,318,30,40,20,197,23,4*73
$GBGSV,3,3,09,42,11,050,21,4*4A
$GNACCURACY,3.1*14
$PAIRSAT,1,35,1,0,200,2,0,200,3,0,200,4,0,200,5,0,201,6,0,221,7,0,200,8,0,200,9,0,200,10,0,200,11,0,221,12,0,200,13,0,201,14,0,200,15,0,201,16,0,200,17,0,200,18,0,200,19,0,200,20,0,201,21,0,200,23,0,200,24,0,200,25,0,200,26,0,200,27,0,200,28,0,200,29,0,201,30,0,221,31,0,200,32,0,200,194,0,621,195,0,621,196,0,620,199,0,621*69
$PAIRSAT,2,15,69,0,1,70,0,201,71,0,201,73,0,200,74,0,200,75,0,200,76,0,200,77,0,200,79,0,200,80,0,200,81,0,200,82,0,200,84,0,1,85,0,201,87,0,200*54
$PAIRSAT,3,22,2,0,200,4,0,1200,5,0,200,7,0,1221,8,0,1221,9,0,1200,10,0,1200,11,0,1200,12,0,1200,13,0,1221,15,0,1221,19,0,1200,21,0,1200,24,0,1200,25,0,1200,26,0,1221,27,0,1200,30,0,1200,31,0,1200,33,0,1200,34,0,1221,36,0,1200*76
$PAIRSAT,4,43,1,0,201,2,0,201,3,0,201,4,0,201,5,0,200,7,0,201,9,0,201,10,0,201,11,0,201,12,0,200,15,0,200,16,0,201,19,0,600,20,0,600,21,0,600,22,0,600,23,0,600,24,0,621,25,0,621,26,0,600,27,0,621,28,0,621,29,0,600,30,0,600,32,0,600,33,0,621,34,0,600,35,0,600,36,0,600,37,0,600,38,0,621,39,0,621,40,0,621,41,0,621,42,0,621,43,0,621,44,0,400,45,0,400,46,0,400,57,0,200,59,0,601,60,0,601,61,0,600*69
$PAIRDGP,9,5,6,7,11,13,15,20,29,30*58
$GNGGA,111543.000,2500.8053190,N,12132.4792748,E,4,52,0.49,17.079,M,15.25,M,1,3335*43
$GNRMC,111543.000,A,2500.8053190,N,12132.4792748,E,0.27,317.81,100523,,,R,V*17
$GNACCURACY,3.1*14
$GNGGA,111543.100,2500.8053301,N,12132.4792650,E,4,52,0.49,17.091,M,15.25,M,1,3335*46
$GNRMC,111543.100,A,2500.8053301,N,12132.4792650,E,0.27,317.81,100523,,,R,V*14
$GNACCURACY,3.1*14
$GNGGA,111543.200,2500.8053444,N,12132.4792579,E,4,52,0.49,17.082,M,15.25,M,1,3335*49
$GNRMC,111543.200,A,2500.8053444,N,12132.4792579,E,0.28,317.81,100523,,,R,V*16
$GNACCURACY,3.1*14
$GNGGA,111543.300,2500.8053621,N,12132.4792471,E,4,53,0.49,17.094,M,15.25,M,1,3335*46
$GNRMC,111543.300,A,2500.8053621,N,12132.4792471,E,0.28,317.81,100523,,,R,V*1F
$GNACCURACY,3.1*14
$GNGGA,111543.400,2500.8053809,N,12132.4792361,E,4,52,0.49,17.107,M,15.25,M,1,3335*49
$GNRMC,111543.400,A,2500.8053809,N,12132.4792361,E,0.29,317.81,100523,,,R,V*1B
$GNACCURACY,3.1*14
$GNGGA,111543.500,2500.8053924,N,12132.4792222,E,4,52,0.49,17.078,M,15.25,M,0,3335*48
$GNRMC,111543.500,A,2500.8053924,N,12132.4792222,E,0.30,317.81,100523,,,R,V*1A
$GNACCURACY,3.1*14
$GNGGA,111543.600,2500.8054112,N,12132.4792056,E,4,52,0.49,17.119,M,15.25,M,0,3335*46
$GNRMC,111543.600,A,2500.8054112,N,12132.4792056,E,0.31,317.81,100523,,,R,V*13
$GNACCURACY,3.1*14
$GNGGA,111543.700,2500.8054211,N,12132.4791816,E,4,52,0.49,17.115,M,15.25,M,0,3335*44
$GNRMC,111543.700,A,2500.8054211,N,12132.4791816,E,0.31,317.81,100523,,,R,V*1D
$GNACCURACY,3.1*14
$GNGGA,111543.800,2500.8054404,N,12132.4791646,E,4,53,0.49,17.155,M,15.25,M,0,3335*47
$GNRMC,111543.800,A,2500.8054404,N,12132.4791646,E,0.32,317.81,100523,,,R,V*18
$GNACCURACY,3.3*16
$GNGGA,111543.900,2500.8054586,N,12132.4791616,E,4,53,0.49,17.148,M,15.25,M,0,3335*44
$GNRMC,111543.900,A,2500.8054586,N,12132.4791616,E,0.33,317.81,100523,,,R,V*16
$GNGSA,A,3,13,196,195,199,15,11,05,20,29,30,194,06,0.85,0.49,0.69,1*0F
$GNGSA,A,3,84,70,85,69,71,,,,,,,,0.85,0.49,0.69,2*02
$GNGSA,A,3,08,13,15,07,26,,,,,,,,0.85,0.49,0.69,3*01
$GNGSA,A,3,28,38,33,39,41,16,43,27,07,09,40,42,0.85,0.49,0.69,4*0C
$GPGSV,4,1,15,13,87,147,43,196,72,050,41,195,65,147,38,50,60,167,40,1*66
$GPGSV,4,2,15,199,60,167,37,15,53,240,29,11,52,105,40,05,51,001,41,1*58
$GPGSV,4,3,15,20,45,040,36,29,42,289,37,30,21,067,33,06,13,126,16,1*68
$GPGSV,4,4,15,194,12,164,23,24,06,191,,07,02,042,,1*67
$GPGSV,2,1,07,196,72,050,43,195,65,147,43,199,60,167,44,11,52,105,41,8*5A
$GPGSV,2,2,07,30,21,067,39,06,13,126,17,194,12,164,24,8*6C
$GLGSV,2,1,05,84,73,139,26,70,54,295,21,85,40,334,36,69,29,023,26,1*7B
$GLGSV,2,2,05,71,20,245,27,1*4F
$GAGSV,2,1,06,08,74,020,42,13,63,347,39,15,53,115,37,07,47,229,26,7*7E
$GAGSV,2,2,06,26,13,320,20,34,05,132,,7*72
$GAGSV,1,1,04,08,74,020,42,13,63,347,45,15,53,115,39,26,13,320,24,1*74
$GBGSV,4,1,16,28,70,279,31,38,56,011,44,33,53,010,43,39,48,176,39,1*73
$GBGSV,4,2,16,41,46,280,38,16,40,179,38,43,39,163,41,10,26,221,,1*7E
$GBGSV,4,3,16,27,25,318,41,07,23,205,23,09,20,192,24,40,20,197,28,1*7F
$GBGSV,4,4,16,11,14,153,,42,11,050,27,25,11,150,,24,11,097,,1*7E
$GBGSV,2,1,08,28,70,279,40,38,56,011,40,33,53,010,46,39,48,176,40,4*76
$GBGSV,2,2,08,41,46,280,32,43,39,163,36,27,25,318,33,42,11,050,23,4*71
$GNACCURACY,3.3*16
$PAIRSAT,1,35,1,0,200,2,0,200,3,0,200,4,0,200,5,0,201,6,0,221,7,0,200,8,0,200,9,0,200,10,0,200,11,0,221,12,0,200,13,0,201,14,0,200,15,0,201,16,0,200,17,0,200,18,0,200,19,0,200,20,0,201,21,0,200,23,0,200,24,0,200,25,0,200,26,0,200,27,0,200,28,0,200,29,0,201,30,0,221,31,0,200,32,0,200,194,0,621,195,0,621,196,0,620,199,0,621*69
$PAIRSAT,2,15,69,0,1,70,0,201,71,0,201,73,0,200,74,0,200,75,0,200,76,0,200,77,0,200,79,0,200,80,0,200,81,0,200,82,0,200,84,0,1,85,0,201,87,0,200*54
$PAIRSAT,3,22,2,0,200,4,0,1200,5,0,200,7,0,1221,8,0,1221,9,0,1200,10,0,1200,11,0,1200,12,0,1200,13,0,1221,15,0,1221,19,0,1200,21,0,1200,24,0,1200,25,0,1200,26,0,1221,27,0,1200,30,0,1200,31,0,1200,33,0,1200,34,0,1221,36,0,1200*76
$PAIRSAT,4,43,1,0,201,2,0,201,3,0,201,4,0,201,5,0,200,7,0,201,9,0,201,10,0,201,11,0,201,12,0,200,15,0,200,16,0,201,19,0,600,20,0,600,21,0,600,22,0,600,23,0,600,24,0,621,25,0,621,26,0,600,27,0,621,28,0,621,29,0,600,30,0,600,32,0,600,33,0,621,34,0,600,35,0,600,36,0,600,37,0,600,38,0,621,39,0,621,40,0,621,41,0,621,42,0,621,43,0,621,44,0,400,45,0,400,46,0,400,57,0,200,59,0,601,60,0,601,61,0,600*69
$PAIRDGP,9,5,6,7,11,13,15,20,29,30*58
$GNGGA,111544.000,2500.8054730,N,12132.4791591,E,4,52,0.49,17.123,M,15.25,M,1,3335*44
$GNRMC,111544.000,A,2500.8054730,N,12132.4791591,E,0.33,317.81,100523,,,R,V*1B
$GNACCURACY,3.3*16
$GNGGA,111544.100,2500.8054820,N,12132.4791512,E,4,52,0.49,17.138,M,15.25,M,1,3335*4A
$GNRMC,111544.100,A,2500.8054820,N,12132.4791512,E,0.33,317.81,100523,,,R,V*1F
$GNACCURACY,3.3*16
$GNGGA,111544.200,2500.8054892,N,12132.4791384,E,4,52,0.49,17.139,M,15.25,M,1,3335*48
$GNRMC,111544.200,A,2500.8054892,N,12132.4791384,E,0.33,317.81,100523,,,R,V*1C
$GNACCURACY,3.3*16
$GNGGA,111544.300,2500.8055003,N,12132.4791313,E,4,52,0.49,17.133,M,15.25,M,1,3335*4C
$GNRMC,111544.300,A,2500.8055003,N,12132.4791313,E,0.34,317.81,100523,,,R,V*15
$GNACCURACY,3.3*16
$GNGGA,111544.400,2500.8055125,N,12132.4791206,E,4,52,0.49,17.111,M,15.25,M,1,3335*4B
$GNRMC,111544.400,A,2500.8055125,N,12132.4791206,E,0.34,317.81,100523,,,R,V*12
$GNACCURACY,3.3*16
$GNGGA,111544.500,2500.8055273,N,12132.4791174,E,4,51,0.49,17.096,M,15.25,M,1,3335*41
$GNRMC,111544.500,A,2500.8055273,N,12132.4791174,E,0.34,317.81,100523,,,R,V*15
$GNACCURACY,3.3*16
$GNGGA,111544.600,2500.8055434,N,12132.4791008,E,4,50,0.49,17.103,M,15.25,M,1,3335*41
$GNRMC,111544.600,A,2500.8055434,N,12132.4791008,E,0.34,317.81,100523,,,R,V*19
$GNACCURACY,3.3*16
$GNGGA,111544.700,2500.8055593,N,12132.4790646,E,4,50,0.49,17.109,M,15.25,M,0,3335*4A
$GNRMC,111544.700,A,2500.8055593,N,12132.4790646,E,0.35,317.81,100523,,,R,V*18
$GNACCURACY,3.4*11
$GNGGA,111544.800,2500.8055812,N,12132.4790403,E,4,50,0.49,17.025,M,15.25,M,0,3335*4D
$GNRMC,111544.800,A,2500.8055812,N,12132.4790403,E,0.35,317.81,100523,,,R,V*10
$GNACCURACY,3.4*11
$GNGGA,111544.900,2500.8056033,N,12132.4790250,E,4,51,0.49,17.020,M,15.25,M,0,3335*40
$GNRMC,111544.900,A,2500.8056033,N,12132.4790250,E,0.36,317.81,100523,,,R,V*1A
$GNGSA,A,3,13,196,195,199,15,11,05,20,29,30,06,194,0.85,0.49,0.69,1*0F
$GNGSA,A,3,84,70,85,69,71,,,,,,,,0.85,0.49,0.69,2*02
$GNGSA,A,3,08,13,15,07,26,,,,,,,,0.85,0.49,0.69,3*01
$GNGSA,A,3,28,38,33,39,41,16,43,27,07,09,40,42,0.85,0.49,0.69,4*0C
$GPGSV,4,1,15,13,87,147,41,196,72,050,40,195,65,147,39,50,60,167,39,1*6A
$GPGSV,4,2,15,199,60,167,37,15,53,240,28,11,52,105,40,05,51,001,43,1*5B
$GPGSV,4,3,15,20,45,040,27,29,42,289,34,30,21,067,33,06,13,126,18,1*65
$GPGSV,4,4,15,194,12,164,19,24,06,191,,07,02,042,,1*6E
$GPGSV,2,1,07,196,72,050,44,195,65,147,44,199,60,167,44,11,52,105,39,8*55
$GPGSV,2,2,07,30,21,067,40,06,13,126,22,194,12,164,26,8*66
$GLGSV,2,1,06,84,73,139,23,70,54,295,28,85,40,334,34,69,29,023,38,1*79
$GLGSV,2,2,06,71,20,245,26,79,01,083,,1*79
$GAGSV,2,1,06,08,74,020,41,13,63,347,43,15,53,115,33,07,47,229,24,7*76
$GAGSV,2,2,06,26,13,320,21,34,05,132,,7*73
$GAGSV,1,1,04,08,74,020,42,13,63,347,45,15,53,115,30,26,13,320,24,1*7D
$GBGSV,4,1,16,28,70,279,39,38,56,011,42,33,53,010,46,39,48,176,39,1*78
$GBGSV,4,2,16,41,46,280,39,16,40,179,38,43,39,163,38,10,26,221,,1*71
$GBGSV,4,3,16,27,25,318,36,07,23,205,21,09,20,192,23,40,20,197,26,1*74
$GBGSV,4,4,16,11,14,153,,25,11,150,,24,11,097,,42,11,050,19,1*73
$GBGSV,3,1,09,28,70,279,40,38,56,011,45,33,53,010,45,39,48,176,39,4*7E
$GBGSV,3,2,09,41,46,280,35,43,39,163,39,27,25,318,33,40,20,197,20,4*70
$GBGSV,3,3,09,42,11,050,21,4*4A
$GNACCURACY,3.4*11
$PAIRSAT,1,35,1,0,200,2,0,200,3,0,200,4,0,200,5,0,201,6,0,221,7,0,200,8,0,200,9,0,200,10,0,200,11,0,221,12,0,200,13,0,201,14,0,200,15,0,201,16,0,200,17,0,200,18,0,200,19,0,200,20,0,201,21,0,200,23,0,200,24,0,200,25,0,200,26,0,200,27,0,200,28,0,200,29,0,201,30,0,221,31,0,200,32,0,200,194,0,621,195,0,621,196,0,620,199,0,621*69
$PAIRSAT,2,15,69,0,1,70,0,201,71,0,201,73,0,200,74,0,200,75,0,200,76,0,200,77,0,200,79,0,200,80,0,200,81,0,200,82,0,200,84,0,1,85,0,201,87,0,200*54
$PAIRSAT,3,22,2,0,200,4,0,1200,5,0,200,7,0,1221,8,0,1221,9,0,1200,10,0,1200,11,0,1200,12,0,1200,13,0,1221,15,0,1221,19,0,1200,21,0,1200,24,0,1200,25,0,1200,26,0,1221,27,0,1200,30,0,1200,31,0,1200,33,0,1200,34,0,1221,36,0,1200*76
$PAIRSAT,4,43,1,0,201,2,0,201,3,0,201,4,0,201,5,0,200,7,0,201,9,0,201,10,0,201,11,0,201,12,0,200,15,0,200,16,0,201,19,0,600,20,0,600,21,0,600,22,0,600,23,0,600,24,0,621,25,0,621,26,0,600,27,0,621,28,0,621,29,0,600,30,0,600,32,0,600,33,0,621,34,0,600,35,0,600,36,0,600,37,0,600,38,0,621,39,0,621,40,0,621,41,0,621,42,0,621,43,0,621,44,0,400,45,0,400,46,0,400,57,0,200,59,0,601,60,0,601,61,0,600*69
$PAIRDGP,9,5,6,7,11,13,15,20,29,30*58
$GNGGA,111545.000,2500.8056165,N,12132.4790199,E,4,51,0.49,17.100,M,15.25,M,1,3335*4E
$GNRMC,111545.000,A,2500.8056165,N,12132.4790199,E,0.37,317.81,100523,,,R,V*17
$GNACCURACY,3.4*11
$GNGGA,111545.100,2500.8056312,N,12132.4790031,E,4,52,0.49,17.084,M,15.25,M,1,3335*40
$GNRMC,111545.100,A,2500.8056312,N,12132.4790031,E,0.37,317.81,100523,,,R,V*17
$GNACCURACY,3.4*11
$GNGGA,111545.200,2500.8056451,N,12132.4789909,E,4,52,0.49,17.083,M,15.25,M,1,3335*4E
$GNRMC,111545.200,A,2500.8056451,N,12132.4789909,E,0.38,317.81,100523,,,R,V*11
$GNACCURACY,3.4*11
$GNGGA,111545.300,2500.8056536,N,12132.4789667,E,4,52,0.49,17.096,M,15.25,M,1,3335*4C
$GNRMC,111545.300,A,2500.8056536,N,12132.4789667,E,0.38,317.81,100523,,,R,V*17
$GNACCURACY,3.4*11
$GNGGA,111545.400,2500.8056646,N,12132.4789561,E,4,52,0.49,17.093,M,15.25,M,1,3335*4F
$GNRMC,111545.400,A,2500.8056646,N,12132.4789561,E,0.38,317.81,100523,,,R,V*11
$GNACCURACY,3.4*11
$GNGGA,111545.500,2500.8056734,N,12132.4789512,E,4,53,0.49,17.110,M,15.25,M,1,3335*45
$GNRMC,111545.500,A,2500.8056734,N,12132.4789512,E,0.39,317.81,100523,,,R,V*11
$GNACCURACY,3.4*11
$GNGGA,111545.600,2500.8056885,N,12132.4789261,E,4,53,0.49,17.071,M,15.25,M,0,3335*47
$GNRMC,111545.600,A,2500.8056885,N,12132.4789261,E,0.39,317.81,100523,,,R,V*14
$GNACCURACY,3.4*11
$GNGGA,111545.700,2500.8057110,N,12132.4789096,E,4,52,0.49,17.090,M,15.25,M,0,3335*46
$GNRMC,111545.700,A,2500.8057110,N,12132.4789096,E,0.40,317.81,100523,,,R,V*15
$GNACCURACY,3.4*11
$GNGGA,111545.800,2500.8057336,N,12132.4788968,E,4,52,0.49,17.107,M,15.25,M,0,3335*49
$GNRMC,111545.800,A,2500.8057336,N,12132.4788968,E,0.41,317.81,100523,,,R,V*14
$GNACCURACY,3.4*11
$GNGGA,111545.900,2500.8057617,N,12132.4788805,E,4,53,0.49,17.083,M,15.25,M,0,3335*48
$GNRMC,111545.900,A,2500.8057617,N,12132.4788805,E,0.43,317.81,100523,,,R,V*1B
$GNGSA,A,3,13,196,195,199,15,11,05,20,29,30,06,194,0.75,0.49,0.57,1*0D
$GNGSA,A,3,84,70,85,69,71,,,,,,,,0.75,0.49,0.57,2*00
$GNGSA,A,3,08,13,15,07,26,,,,,,,,0.75,0.49,0.57,3*03
$GNGSA,A,3,28,38,33,39,41,16,43,27,07,09,40,42,0.75,0.49,0.57,4*0E
$GPGSV,4,1,15,13,87,147,40,196,72,050,41,195,65,147,39,50,60,167,39,1*6A
$GPGSV,4,2,15,199,60,167,37,15,53,240,32,11,52,105,39,05,51,001,46,1*5B
$GPGSV,4,3,15,20,45,040,28,29,42,289,39,30,21,067,37,06,13,126,17,1*6C
$GPGSV,4,4,15,194,12,164,22,24,06,191,,07,02,042,,1*66
$GPGSV,2,1,07,196,72,050,43,195,65,147,44,199,60,167,44,11,52,105,39,8*52
$GPGSV,2,2,07,30,21,067,39,06,13,126,19,194,12,164,22,8*64
$GLGSV,2,1,06,84,73,139,26,70,54,296,28,85,40,334,36,69,29,023,38,1*7D
$GLGSV,2,2,06,71,20,245,21,79,01,083,,1*7E
$GAGSV,2,1,06,08,74,020,43,13,63,347,42,15,53,115,35,07,47,229,20,7*77
$GAGSV,2,2,06,26,13,320,26,34,05,132,,7*74
$GAGSV,2,1,05,08,74,020,42,13,63,347,44,15,53,115,33,07,47,229,29,1*7A
$GAGSV,2,2,05,26,13,320,28,1*4D
$GBGSV,4,1,16,28,70,279,41,38,56,011,42,33,53,010,46,39,48,176,39,1*77
$GBGSV,4,2,16,41,46,280,28,16,40,179,39,43,39,163,40,10,26,221,,1*7F
$GBGSV,4,3,16,27,25,318,38,07,23,205,19,09,20,192,20,40,20,197,22,1*76
$GBGSV,4,4,16,11,14,153,,25,11,150,,24,11,097,,42,11,050,20,1*79
$GBGSV,3,1,09,28,70,279,39,38,56,011,45,33,53,010,46,39,48,176,39,4*73
$GBGSV,3,2,09,41,46,280,39,43,39,163,39,27,25,318,36,40,20,197,22,4*7B
$GBGSV,3,3,09,42,11,050,17,4*4F
$GNACCURACY,3.4*11
$PAIRSAT,1,35,1,0,200,2,0,200,3,0,200,4,0,200,5,0,201,6,0,221,7,0,200,8,0,200,9,0,200,10,0,200,11,0,221,12,0,200,13,0,201,14,0,200,15,0,201,16,0,200,17,0,200,18,0,200,19,0,200,20,0,201,21,0,200,23,0,200,24,0,200,25,0,200,26,0,200,27,0,200,28,0,200,29,0,201,30,0,221,31,0,200,32,0,200,194,0,621,195,0,621,196,0,620,199,0,621*69
$PAIRSAT,2,15,69,0,1,70,0,201,71,0,201,73,0,200,74,0,200,75,0,200,76,0,200,77,0,200,79,0,200,80,0,200,81,0,200,82,0,200,84,0,1,85,0,201,87,0,200*54
$PAIRSAT,3,22,2,0,200,4,0,1200,5,0,200,7,0,1221,8,0,1221,9,0,1200,10,0,1200,11,0,1200,12,0,1200,13,0,1221,15,0,1221,19,0,1200,21,0,1200,24,0,1200,25,0,1200,26,0,1221,27,0,1200,30,0,1200,31,0,1200,33,0,1200,34,0,1221,36,0,1200*76
$PAIRSAT,4,43,1,0,201,2,0,201,3,0,201,4,0,201,5,0,200,7,0,201,9,0,201,10,0,201,11,0,201,12,0,200,15,0,200,16,0,201,19,0,600,20,0,600,21,0,600,22,0,600,23,0,600,24,0,621,25,0,621,26,0,600,27,0,621,28,0,621,29,0,600,30,0,600,32,0,600,33,0,621,34,0,600,35,0,600,36,0,600,37,0,600,38,0,621,39,0,621,40,0,621,41,0,621,42,0,621,43,0,621,44,0,400,45,0,400,46,0,400,57,0,200,59,0,601,60,0,601,61,0,600*69
$PAIRDGP,9,5,6,7,11,13,15,20,29,30*58
$GNGGA,111546.000,2500.8057852,N,12132.4788601,E,4,53,0.49,17.063,M,15.25,M,1,3335*48
$GNRMC,111546.000,A,2500.8057852,N,12132.4788601,E,0.46,317.81,100523,,,R,V*11
$GNACCURACY,3.4*11
$GNGGA,111546.100,2500.8058055,N,12132.4788462,E,4,53,0.49,17.102,M,15.25,M,1,3335*48
$GNRMC,111546.100,A,2500.8058055,N,12132.4788462,E,0.49,317.81,100523,,,R,V*18
$GNACCURACY,3.4*11
$GNGGA,111546.200,2500.8058277,N,12132.4788206,E,4,54,0.49,17.170,M,15.25,M,1,3335*4F
$GNRMC,111546.200,A,2500.8058277,N,12132.4788206,E,0.52,317.81,100523,,,R,V*17
$GNACCURACY,3.4*11
$GNGGA,111546.300,2500.8058469,N,12132.4788153,E,4,55,0.49,17.073,M,15.25,M,1,3335*47
$GNRMC,111546.300,A,2500.8058469,N,12132.4788153,E,0.53,317.81,100523,,,R,V*1D
$GNACCURACY,3.4*11
$GNGGA,111546.400,2500.8058581,N,12132.4788032,E,4,53,0.49,17.110,M,15.25,M,1,3335*43
$GNRMC,111546.400,A,2500.8058581,N,12132.4788032,E,0.54,317.81,100523,,,R,V*1C
$GNACCURACY,3.4*11
$GNGGA,111546.500,2500.8058664,N,12132.4787882,E,4,53,0.49,17.137,M,15.25,M,1,3335*43
$GNRMC,111546.500,A,2500.8058664,N,12132.4787882,E,0.53,317.81,100523,,,R,V*1E
$GNACCURACY,3.4*11
$GNGGA,111546.600,2500.8058753,N,12132.4787686,E,4,53,0.49,17.180,M,15.25,M,0,3335*42
$GNRMC,111546.600,A,2500.8058753,N,12132.4787686,E,0.52,317.81,100523,,,R,V*13
$GNACCURACY,3.4*11
$GNGGA,111546.700,2500.8058872,N,12132.4787584,E,4,52,0.50,17.220,M,15.25,M,0,3335*4E
$GNRMC,111546.700,A,2500.8058872,N,12132.4787584,E,0.52,317.81,100523,,,R,V*1F
$GNACCURACY,3.4*11
$GNGGA,111546.800,2500.8058978,N,12132.4787442,E,4,53,0.49,17.234,M,15.25,M,0,3335*4D
$GNRMC,111546.800,A,2500.8058978,N,12132.4787442,E,0.52,317.81,100523,,,R,V*10
$GNACCURACY,3.4*11
$GNGGA,111546.900,2500.8059150,N,12132.4787175,E,4,52,0.49,17.182,M,15.25,M,0,3335*41
$GNRMC,111546.900,A,2500.8059150,N,12132.4787175,E,0.53,317.81,100523,,,R,V*12
$GNGSA,A,3,13,196,195,199,15,11,05,20,29,30,06,194,0.85,0.49,0.69,1*0F
$GNGSA,A,3,84,70,85,69,71,,,,,,,,0.85,0.49,0.69,2*02
$GNGSA,A,3,08,13,15,07,26,,,,,,,,0.85,0.49,0.69,3*01
$GNGSA,A,3,28,38,33,39,41,16,43,27,07,09,40,42,0.85,0.49,0.69,4*0C
$GPGSV,4,1,15,13,87,147,41,196,72,050,41,195,65,147,38,50,60,167,39,1*6A
$GPGSV,4,2,15,199,60,167,35,15,53,240,23,11,52,105,34,05,51,001,45,1*57
$GPGSV,4,3,15,20,45,040,30,29,42,289,37,30,21,067,36,06,13,126,17,1*6A
$GPGSV,4,4,15,194,12,164,24,24,06,191,,07,02,042,,1*60
$GPGSV,2,1,07,196,72,050,43,195,65,147,41,199,60,167,43,11,52,105,40,8*5E
$GPGSV,2,2,07,30,21,067,36,06,13,126,19,194,12,164,25,8*6C
$GLGSV,2,1,05,84,72,140,22,70,54,296,24,85,41,334,29,69,29,023,39,1*77
$GLGSV,2,2,05,71,20,245,18,1*43
$GAGSV,2,1,06,08,74,020,43,13,63,347,42,15,53,115,30,07,47,229,19,7*78
$GAGSV,2,2,06,26,13,320,24,34,05,132,,7*76
$GAGSV,1,1,04,08,74,020,40,13,63,347,43,15,53,115,38,26,13,320,25,1*70
$GBGSV,4,1,16,28,70,279,42,38,56,011,41,33,53,010,44,39,48,176,38,1*74
$GBGSV,4,2,16,41,46,280,38,16,40,179,40,43,39,163,39,10,26,221,,1*7E
$GBGSV,4,3,16,27,25,318,35,07,23,205,18,09,20,192,17,40,20,197,23,1*7F
$GBGSV,4,4,16,11,14,153,,42,11,050,23,25,11,150,,24,11,097,,1*7A
$GBGSV,3,1,09,28,70,279,38,38,56,011,43,33,53,010,42,39,48,176,38,4*71
$GBGSV,3,2,09,41,46,280,41,43,39,163,38,27,25,318,37,40,20,197,22,4*74
$GBGSV,3,3,09,42,11,050,21,4*4A
$GNACCURACY,3.4*11
$PAIRSAT,1,35,1,0,200,2,0,200,3,0,200,4,0,200,5,0,201,6,0,221,7,0,200,8,0,200,9,0,200,10,0,200,11,0,221,12,0,200,13,0,201,14,0,200,15,0,201,16,0,200,17,0,200,18,0,200,19,0,200,20,0,201,21,0,200,23,0,200,24,0,200,25,0,200,26,0,200,27,0,200,28,0,200,29,0,201,30,0,221,31,0,200,32,0,200,194,0,621,195,0,621,196,0,620,199,0,621*69
$PAIRSAT,2,15,69,0,1,70,0,201,71,0,201,73,0,200,74,0,200,75,0,200,76,0,200,77,0,200,79,0,200,80,0,200,81,0,200,82,0,200,84,0,1,85,0,201,87,0,200*54
$PAIRSAT,3,22,2,0,200,4,0,1200,5,0,200,7,0,1221,8,0,1221,9,0,1200,10,0,1200,11,0,1200,12,0,1200,13,0,1221,15,0,1221,19,0,1200,21,0,1200,24,0,1200,25,0,1200,26,0,1221,27,0,1200,30,0,1200,31,0,1200,33,0,1200,34,0,1221,36,0,1200*76
$PAIRSAT,4,43,1,0,201,2,0,201,3,0,201,4,0,201,5,0,200,7,0,201,9,0,201,10,0,201,11,0,201,12,0,200,15,0,200,16,0,201,19,0,600,20,0,600,21,0,600,22,0,600,23,0,600,24,0,621,25,0,621,26,0,600,27,0,621,28,0,621,29,0,600,30,0,600,32,0,600,33,0,621,34,0,600,35,0,600,36,0,600,37,0,600,38,0,621,39,0,621,40,0,621,41,0,621,42,0,621,43,0,621,44,0,400,45,0,400,46,0,400,57,0,200,59,0,601,60,0,601,61,0,600*69
$PAIRDGP,9,5,6,7,11,13,15,20,29,30*58
$GNGGA,111547.000,2500.8059296,N,12132.4787024,E,4,52,0.49,17.153,M,15.25,M,1,3335*48
$GNRMC,111547.000,A,2500.8059296,N,12132.4787024,E,0.54,317.81,100523,,,R,V*11
$GNACCURACY,3.3*16
$GNGGA,111547.100,2500.8059426,N,12132.4786752,E,4,52,0.49,17.145,M,15.25,M,1,3335*44
$GNRMC,111547.100,A,2500.8059426,N,12132.4786752,E,0.58,321.43,100523,,,R,V*1D
$GNACCURACY,3.3*16
$GNGGA,111547.200,2500.8059626,N,12132.4786587,E,4,54,0.49,17.156,M,15.25,M,1,3335*4B
$GNRMC,111547.200,A,2500.8059626,N,12132.4786587,E,0.61,320.17,100523,,,R,V*1C
$GNACCURACY,3.3*16
$GNGGA,111547.300,2500.8059792,N,12132.4786475,E,4,54,0.49,17.186,M,15.25,M,1,3335*45
$GNRMC,111547.300,A,2500.8059792,N,12132.4786475,E,0.63,318.65,100523,,,R,V*13
$GNACCURACY,3.3*16
$GNGGA,111547.400,2500.8059873,N,12132.4786315,E,4,54,0.49,17.184,M,15.25,M,1,3335*41
$GNRMC,111547.400,A,2500.8059873,N,12132.4786315,E,0.63,317.75,100523,,,R,V*1B
$GNACCURACY,3.3*16
$GNGGA,111547.500,2500.8059988,N,12132.4786130,E,4,52,0.49,17.181,M,15.25,M,1,3335*43
$GNRMC,111547.500,A,2500.8059988,N,12132.4786130,E,0.63,317.64,100523,,,R,V*1A
$GNACCURACY,3.3*16
$GNGGA,111547.600,2500.8060085,N,12132.4785858,E,4,52,0.49,17.223,M,15.25,M,1,3335*41
$GNRMC,111547.600,A,2500.8060085,N,12132.4785858,E,0.62,317.28,100523,,,R,V*1A
$GNACCURACY,3.3*16
$GNGGA,111547.700,2500.8060217,N,12132.4785870,E,4,53,0.49,17.223,M,15.25,M,1,3335*42
$GNRMC,111547.700,A,2500.8060217,N,12132.4785870,E,0.62,317.56,100523,,,R,V*11
$GNACCURACY,3.5*10
$GNGGA,111547.800,2500.8060377,N,12132.4786035,E,4,53,0.49,17.176,M,15.25,M,0,3335*42
$GNRMC,111547.800,A,2500.8060377,N,12132.4786035,E,0.62,317.17,100523,,,R,V*16
$GNACCURACY,3.5*10
$GNGGA,111547.900,2500.8060540,N,12132.4785856,E,4,53,0.49,17.152,M,15.25,M,0,3335*49
$GNRMC,111547.900,A,2500.8060540,N,12132.4785856,E,0.62,317.40,100523,,,R,V*19
$GNGSA,A,3,13,196,195,199,15,11,05,20,29,30,194,06,0.85,0.49,0.69,1*0F
$GNGSA,A,3,84,70,85,69,71,,,,,,,,0.85,0.49,0.69,2*02
$GNGSA,A,3,08,13,15,07,26,,,,,,,,0.85,0.49,0.69,3*01
$GNGSA,A,3,28,38,33,39,41,16,43,27,07,09,42,40,0.85,0.49,0.69,4*0C
$GPGSV,4,1,15,13,87,147,43,196,72,050,43,195,65,147,40,50,60,167,37,1*6B
$GPGSV,4,2,15,199,60,167,34,15,53,240,30,11,52,105,35,05,51,001,44,1*54
$GPGSV,4,3,15,20,45,040,25,29,42,289,38,30,21,067,28,06,13,126,17,1*6E
$GPGSV,4,4,15,194,12,164,25,24,06,191,,07,02,042,,1*61
$GPGSV,2,1,07,196,72,050,43,195,65,147,44,199,60,167,45,11,52,105,39,8*53
$GPGSV,2,2,07,30,21,067,34,06,13,126,22,194,12,164,26,8*65
$GLGSV,2,1,05,84,72,140,26,70,54,296,23,85,41,334,35,69,29,023,42,1*75
$GLGSV,2,2,05,71,20,245,18,1*43
$GAGSV,2,1,06,08,74,020,43,13,63,347,40,15,53,115,29,07,47,229,30,7*79
$GAGSV,2,2,06,26,13,320,26,34,05,132,,7*74
$GAGSV,2,1,05,08,74,020,44,13,63,347,45,15,53,115,39,07,47,229,25,1*7B
$GAGSV,2,2,05,26,13,320,22,1*47
$GBGSV,4,1,15,28,70,279,44,38,56,011,44,33,53,010,46,39,48,176,39,1*77
$GBGSV,4,2,15,41,46,280,39,16,40,179,37,43,39,163,40,10,26,221,,1*72
$GBGSV,4,3,15,27,25,318,36,07,23,205,16,09,21,192,17,40,20,197,17,1*77
$GBGSV,4,4,15,24,11,097,,42,11,050,27,25,11,150,,1*4F
$GBGSV,3,1,09,28,70,279,41,38,56,011,43,33,53,010,45,39,48,176,41,4*76
$GBGSV,3,2,09,41,46,280,36,43,39,163,41,27,25,318,38,40,20,197,27,4*70
$GBGSV,3,3,09,42,11,050,29,4*42
$GNACCURACY,3.5*10
$PAIRSAT,1,35,1,0,200,2,0,200,3,0,200,4,0,200,5,0,201,6,0,221,7,0,200,8,0,200,9,0,200,10,0,200,11,0,221,12,0,200,13,0,201,14,0,200,15,0,201,16,0,200,17,0,200,18,0,200,19,0,200,20,0,201,21,0,200,23,0,200,24,0,200,25,0,200,26,0,200,27,0,200,28,0,200,29,0,201,30,0,221,31,0,200,32,0,200,194,0,621,195,0,621,196,0,620,199,0,621*69
$PAIRSAT,2,15,69,0,1,70,0,201,71,0,201,73,0,200,74,0,200,75,0,200,76,0,200,77,0,200,79,0,200,80,0,200,81,0,200,82,0,200,84,0,1,85,0,201,87,0,200*54
$PAIRSAT,3,22,2,0,200,4,0,1200,5,0,200,7,0,1221,8,0,1221,9,0,1200,10,0,1200,11,0,1200,12,0,1200,13,0,1221,15,0,1221,19,0,1200,21,0,1200,24,0,1200,25,0,1200,26,0,1221,27,0,1200,30,0,1200,31,0,1200,33,0,1200,34,0,1221,36,0,1200*76
$PAIRSAT,4,43,1,0,201,2,0,201,3,0,201,4,0,201,5,0,200,7,0,201,9,0,201,10,0,201,11,0,201,12,0,200,15,0,200,16,0,201,19,0,600,20,0,600,21,0,600,22,0,600,23,0,600,24,0,621,25,0,621,26,0,600,27,0,621,28,0,621,29,0,600,30,0,600,32,0,600,33,0,621,34,0,600,35,0,600,36,0,600,37,0,600,38,0,621,39,0,621,40,0,621,41,0,621,42,0,621,43,0,621,44,0,400,45,0,400,46,0,400,57,0,200,59,0,601,60,0,601,61,0,600*69
$PAIRDGP,9,5,6,7,11,13,15,20,29,30*58
$GNGGA,111548.000,2500.8060708,N,12132.4785730,E,4,53,0.49,17.129,M,15.25,M,1,3335*43
$GNRMC,111548.000,A,2500.8060708,N,12132.4785730,E,0.63,317.36,100523,,,R,V*1E
$GNACCURACY,3.5*10
$GNGGA,111548.100,2500.8060917,N,12132.4785633,E,4,53,0.49,17.110,M,15.25,M,1,3335*4A
$GNRMC,111548.100,A,2500.8060917,N,12132.4785633,E,0.64,317.59,100523,,,R,V*13
$GNACCURACY,3.5*10
$GNGGA,111548.200,2500.8061169,N,12132.4785285,E,4,54,0.49,17.173,M,15.25,M,1,3335*42
$GNRMC,111548.200,A,2500.8061169,N,12132.4785285,E,0.67,317.60,100523,,,R,V*10
$GNACCURACY,3.5*10
$GNGGA,111548.300,2500.8061347,N,12132.4784863,E,4,54,0.49,17.196,M,15.25,M,1,3335*45
$GNRMC,111548.300,A,2500.8061347,N,12132.4784863,E,0.68,318.12,100523,,,R,V*19
$GNACCURACY,3.5*10
$GNGGA,111548.400,2500.8061582,N,12132.4785040,E,4,52,0.49,17.157,M,15.25,M,1,3335*4E
$GNRMC,111548.400,A,2500.8061582,N,12132.4785040,E,0.72,316.43,100523,,,R,V*18
$GNACCURACY,3.5*10
$GNGGA,111548.500,2500.8061834,N,12132.4784983,E,4,53,0.49,17.130,M,15.25,M,1,3335*48
$GNRMC,111548.500,A,2500.8061834,N,12132.4784983,E,0.73,317.17,100523,,,R,V*1F
$GNACCURACY,3.5*10
$GNGGA,111548.600,2500.8061975,N,12132.4784822,E,4,52,0.49,17.126,M,15.25,M,1,3335*43
$GNRMC,111548.600,A,2500.8061975,N,12132.4784822,E,0.72,317.85,100523,,,R,V*18
$GNACCURACY,3.5*10
$GNGGA,111548.700,2500.8062062,N,12132.4784691,E,4,52,0.49,17.164,M,15.25,M,1,3335*4E
$GNRMC,111548.700,A,2500.8062062,N,12132.4784691,E,0.71,318.24,100523,,,R,V*14
$GNACCURACY,3.5*10
