$FW : RTK35X,V1.1X0314AS,Lib20210517,1*54
$Tool : LOCOSYS , GNSS Firebird , v1.0.0.19*39
$---------------------------------------------------*2D
8,37,24,049,30,1*7D
$GBGSV,4,4,15,35,22,271,36,29,20,213,22,22,10,299,26,1*4B
$GBGSV,3,1,09,38,83,098,41,39,72,279,31,46,59,116,42,19,48,342,26,4*76
$GBGSV,3,2,09,20,43,060,30,36,33,184,22,37,24,049,28,35,22,271,38,4*7F
$GBGSV,3,3,09,22,10,299,27,4*4C
$GNACCURACY,2.9*1D
$PAIRSAT,1,35,1,0,200,2,0,200,3,0,200,4,0,200,5,0,201,6,0,200,7,0,200,8,0,200,9,0,200,10,0,221,11,0,200,12,0,201,13,0,201,14,0,200,15,0,201,16,0,200,17,0,200,18,0,221,19,0,200,20,0,200,21,0,200,23,0,221,24,0,221,25,0,200,26,0,200,27,0,200,28,0,200,29,0,200,30,0,200,31,0,200,32,0,221,194,0,621,195,0,621,196,0,620,199,0,621*68
$PAIRSAT,2,23,65,0,200,67,0,200,68,0,200,69,0,201,70,0,201,71,0,201,72,0,200,73,0,201,74,0,200,75,0,200,76,0,200,77,0,200,78,0,200,79,0,201,80,0,201,81,0,200,82,0,200,83,0,200,84,0,200,85,0,201,86,0,201,87,0,200,88,0,200*53
$PAIRSAT,3,23,2,0,1221,3,0,1221,4,0,1200,5,0,200,7,0,1221,8,0,1221,9,0,1200,10,0,1200,11,0,1200,12,0,1200,13,0,1221,15,0,1221,19,0,1200,21,0,1200,24,0,1200,25,0,1200,26,0,1221,27,0,1200,30,0,1221,31,0,1200,33,0,1200,34,0,1200,36,0,1200*6A
$PAIRSAT,4,50,1,0,200,2,0,200,3,0,200,4,0,200,5,0,200,6,0,201,7,0,200,8,0,201,9,0,201,10,0,200,11,0,200,12,0,200,13,0,201,14,0,200,15,0,200,16,0,201,19,0,621,20,0,621,21,0,600,22,0,621,23,0,600,24,0,600,25,0,600,26,0,600,27,0,600,28,0,600,29,0,621,30,0,600,31,0,200,32,0,600,33,0,600,34,0,600,35,0,621,36,0,621,37,0,621,38,0,621,39,0,621,40,0,600,41,0,600,42,0,600,43,0,600,44,0,600,45,0,600,46,0,621,56,0,200,57,0,200,58,0,200,59,0,600,60,0,600,61,0,600*41
$PAIRDGP,8,5,10,12,13,15,18,23,24*72
$GNGGA,112109.200,2500.8112100,N,12132.4740800,E,2,65,0.41,23.77,M,15.25,M,9,3335*72
$GNRMC,112109.200,A,2500.8112100,N,12132.4740800,E,0.03,210.41,260623,,,D,V*01
$GPHDT,,T*1B
$GNACCURACY,2.9*1D
$GNGGA,112109.300,2500.8112100,N,12132.4740800,E,2,65,0.41,23.78,M,15.25,M,9,3335*7C
$GNRMC,112109.300,A,2500.8112100,N,12132.4740800,E,0.03,210.41,260623,,,D,V*00
$GPHDT,,T*1B
$GNACCURACY,2.9*1D
$GNGGA,112109.400,2500.8112100,N,12132.4740900,E,2,65,0.41,23.79,M,15.25,M,9,3335*7B
$GNRMC,112109.400,A,2500.8112100,N,12132.4740900,E,0.03,210.41,260623,,,D,V*06
$GPHDT,,T*1B
$GNACCURACY,2.9*1D
$GNGGA,112109.500,2500.8112100,N,12132.4740900,E,2,65,0.41,23.80,M,15.25,M,9,3335*7C
$GNRMC,112109.500,A,2500.8112100,N,12132.4740900,E,0.02,210.41,260623,,,D,V*06
$GPHDT,,T*1B
$GNACCURACY,2.9*1D
$GNGGA,112109.600,2500.8112000,N,12132.4740900,E,2,65,0.41,23.81,M,15.25,M,9,3335*7F
$GNRMC,112109.600,A,2500.8112000,N,12132.4740900,E,0.03,210.41,260623,,,D,V*05
$GPHDT,,T*1B
$GNACCURACY,2.9*1D
$GNGGA,112109.700,2500.8112000,N,12132.4740900,E,2,65,0.41,23.82,M,15.25,M,9,3335*7D
$GNRMC,112109.700,A,2500.8112000,N,12132.4740900,E,0.03,210.41,260623,,,D,V*04
$GPHDT,,T*1B
$GNACCURACY,2.9*1D
$GNGGA,112109.800,2500.8112100,N,12132.4740900,E,2,66,0.41,23.83,M,15.25,M,9,3335*71
$GNRMC,112109.800,A,2500.8112100,N,12132.4740900,E,0.03,210.41,260623,,,D,V*0A
$GPHDT,,T*1B
$GNACCURACY,2.9*1D
$GNGGA,112109.900,2500.8112100,N,12132.4741000,E,2,66,0.41,23.84,M,15.25,M,9,3335*7F
$GNRMC,112109.900,A,2500.8112100,N,12132.4741000,E,0.02,210.41,260623,,,D,V*02
$GPHDT,,T*1B
$GNACCURACY,2.9*1D
$GNGGA,112110.000,2500.8112100,N,12132.4741000,E,2,66,0.41,23.85,M,15.25,M,10,3335*47
$GNRMC,112110.000,A,2500.8112100,N,12132.4741000,E,0.02,210.41,260623,,,D,V*03
$GPHDT,,T*1B
$GNACCURACY,2.9*1D
$GNGGA,112110.100,2500.8112100,N,12132.4741100,E,2,66,0.41,23.86,M,15.25,M,10,3335*44
$GNRMC,112110.100,A,2500.8112100,N,12132.4741100,E,0.02,210.41,260623,,,D,V*03
$GPHDT,,T*1B
$GNGSA,A,3,24,196,199,18,23,15,195,194,05,12,10,13,0.74,0.41,0.62,1*02
$GNGSA,A,3,80,70,85,73,86,71,69,,,,,,0.74,0.41,0.62,2*01
$GNGSA,A,3,13,08,07,26,15,30,03,02,,,,,0.74,0.41,0.62,3*0E
$GNGSA,A,3,38,08,39,13,16,06,46,09,19,20,36,37,0.74,0.41,0.62,4*0C
$GNGSA,A,3,35,29,22,,,,,,,,,,0.74,0.41,0.62,4*0B
$GPGSV,4,1,16,24,76,048,44,196,74,063,38,199,60,167,26,50,60,167,28,1*64
$GPGSV,4,2,16,18,60,251,29,23,48,337,30,15,38,044,34,195,35,180,16,1*53
$GPGSV,4,3,16,194,30,139,40,05,21,117,23,12,19,143,36,10,16,317,37,1*5B
$GPGSV,4,4,16,13,10,055,17,32,08,267,28,25,07,178,,29,02,198,,1*61
$GPGSV,3,1,09,24,76,048,46,196,74,063,43,18,60,251,38,199,60,167,23,8*64
$GPGSV,3,2,09,23,48,337,25,195,35,180,33,194,30,139,46,10,16,317,33,8*6F
$GPGSV,3,3,09,32,08,267,31,8*5C
$GLGSV,2,1,08,80,48,081,34,70,40,007,17,85,37,249,26,73,35,160,32,1*7D
$GLGSV,2,2,08,86,26,305,43,71,21,311,42,69,14,071,22,79,13,034,17,1*7A
$GAGSV,3,1,09,13,58,235,33,08,47,023,45,07,43,300,37,26,31,309,42,7*75
$GAGSV,3,2,09,15,25,174,18,02,25,088,,30,24,145,39,03,11,063,19,7*77
$GAGSV,3,3,09,25,03,044,,7*4E
$GAGSV,2,1,07,13,58,235,27,08,47,023,47,07,43,300,38,26,31,309,44,1*72
$GAGSV,2,2,07,02,25,088,27,15,25,174,20,30,24,145,44,1*44
$GBGSV,4,1,15,38,83,098,40,08,78,005,38,39,72,279,32,13,67,336,41,1*79
$GBGSV,4,2,15,16,66,254,34,06,65,250,31,46,59,116,44,09,49,236,23,1*7D
$GBGSV,4,3,15,19,48,342,32,20,43,060,36,36,33,184,28,37,24,049,30,1*7D
$GBGSV,4,4,15,35,22,271,37,29,20,213,22,22,10,299,26,1*4A
$GBGSV,3,1,10,38,83,098,41,39,72,279,32,46,59,116,43,19,48,342,26,4*7C
$GBGSV,3,2,10,20,43,060,32,36,33,184,21,37,24,049,28,35,22,271,38,4*76
$GBGSV,3,3,10,29,20,213,19,22,10,299,26,4*74
$GNACCURACY,2.9*1D
$PAIRSAT,1,35,1,0,200,2,0,200,3,0,200,4,0,200,5,0,201,6,0,200,7,0,200,8,0,200,9,0,200,10,0,221,11,0,200,12,0,201,13,0,201,14,0,200,15,0,201,16,0,200,17,0,200,18,0,221,19,0,200,20,0,200,21,0,200,23,0,221,24,0,221,25,0,200,26,0,200,27,0,200,28,0,200,29,0,200,30,0,200,31,0,200,32,0,221,194,0,621,195,0,621,196,0,620,199,0,621*68
$PAIRSAT,2,23,65,0,200,67,0,200,68,0,200,69,0,201,70,0,201,71,0,201,72,0,200,73,0,201,74,0,200,75,0,200,76,0,200,77,0,200,78,0,200,79,0,201,80,0,201,81,0,200,82,0,200,83,0,200,84,0,200,85,0,201,86,0,201,87,0,200,88,0,200*53
$PAIRSAT,3,23,2,0,1221,3,0,1221,4,0,1200,5,0,200,7,0,1221,8,0,1221,9,0,1200,10,0,1200,11,0,1200,12,0,1200,13,0,1221,15,0,1221,19,0,1200,21,0,1200,24,0,1200,25,0,1200,26,0,1221,27,0,1200,30,0,1221,31,0,1200,33,0,1200,34,0,1200,36,0,1200*6A
$PAIRSAT,4,50,1,0,200,2,0,200,3,0,200,4,0,200,5,0,200,6,0,201,7,0,200,8,0,201,9,0,201,10,0,200,11,0,200,12,0,200,13,0,201,14,0,200,15,0,200,16,0,201,19,0,621,20,0,621,21,0,600,22,0,621,23,0,600,24,0,600,25,0,600,26,0,600,27,0,600,28,0,600,29,0,621,30,0,600,31,0,200,32,0,600,33,0,600,34,0,600,35,0,621,36,0,621,37,0,621,38,0,621,39,0,621,40,0,600,41,0,600,42,0,600,43,0,600,44,0,600,45,0,600,46,0,621,56,0,200,57,0,200,58,0,200,59,0,600,60,0,600,61,0,600*41
$PAIRDGP,8,5,10,12,13,15,18,23,24*72
$GNGGA,112110.200,2500.8112100,N,12132.4741100,E,2,66,0.41,23.87,M,15.25,M,10,3335*46
$GNRMC,112110.200,A,2500.8112100,N,12132.4741100,E,0.02,210.41,260623,,,D,V*00
$GPHDT,,T*1B
$GNACCURACY,2.8*1C
$GNGGA,112110.300,2500.8112100,N,12132.4741100,E,2,66,0.41,23.89,M,15.25,M,10,3335*49
$GNRMC,112110.300,A,2500.8112100,N,12132.4741100,E,0.02,210.41,260623,,,D,V*01
$GPHDT,,T*1B
$GNACCURACY,2.8*1C
$GNGGA,112110.400,2500.8112100,N,12132.4741100,E,2,66,0.41,23.90,M,15.25,M,10,3335*46
$GNRMC,112110.400,A,2500.8112100,N,12132.4741100,E,0.02,210.41,260623,,,D,V*06
$GPHDT,,T*1B
$GNACCURACY,2.8*1C
$GNGGA,112110.500,2500.8112100,N,12132.4741200,E,2,66,0.41,23.91,M,15.25,M,10,3335*45
$GNRMC,112110.500,A,2500.8112100,N,12132.4741200,E,0.02,210.41,260623,,,D,V*04
$GPHDT,,T*1B
$GNACCURACY,2.8*1C
$GNGGA,112110.600,2500.8112100,N,12132.4741200,E,2,66,0.41,23.92,M,15.25,M,10,3335*45
$GNRMC,112110.600,A,2500.8112100,N,12132.4741200,E,0.02,210.41,260623,,,D,V*07
$GPHDT,,T*1B
$GNACCURACY,2.8*1C
$GNGGA,112110.700,2500.8112100,N,12132.4741200,E,2,66,0.41,23.94,M,15.25,M,10,3335*42
$GNRMC,112110.700,A,2500.8112100,N,12132.4741200,E,0.02,210.41,260623,,,D,V*06
$GPHDT,,T*1B
$GNACCURACY,2.8*1C
$GNGGA,112110.800,2500.8112100,N,12132.4741200,E,2,66,0.41,23.95,M,15.25,M,10,3335*4C
$GNRMC,112110.800,A,2500.8112100,N,12132.4741200,E,0.02,210.41,260623,,,D,V*09
$GPHDT,,T*1B
$GNACCURACY,2.8*1C
$GNGGA,112110.900,2500.8112100,N,12132.4741200,E,2,66,0.41,23.96,M,15.25,M,10,3335*4E
$GNRMC,112110.900,A,2500.8112100,N,12132.4741200,E,0.02,210.41,260623,,,D,V*08
$GPHDT,,T*1B
$GNACCURACY,2.8*1C
$GNGGA,112111.000,2500.8112100,N,12132.4741200,E,2,66,0.41,23.98,M,15.25,M,11,3335*49
$GNRMC,112111.000,A,2500.8112100,N,12132.4741200,E,0.02,210.41,260623,,,D,V*00
$GPHDT,,T*1B
$GNACCURACY,2.8*1C
$GNGGA,112111.100,2500.8112100,N,12132.4741200,E,2,67,0.41,23.99,M,15.25,M,11,3335*48
$GNRMC,112111.100,A,2500.8112100,N,12132.4741200,E,0.02,210.41,260623,,,D,V*01
$GPHDT,,T*1B
$GNGSA,A,3,24,196,199,18,23,15,195,194,05,12,10,13,0.74,0.41,0.62,1*02
$GNGSA,A,3,80,70,85,73,86,71,69,,,,,,0.74,0.41,0.62,2*01
$GNGSA,A,3,13,08,07,26,15,30,03,02,,,,,0.74,0.41,0.62,3*0E
$GNGSA,A,3,38,08,39,13,16,06,46,09,19,20,36,37,0.74,0.41,0.62,4*0C
$GNGSA,A,3,35,29,22,,,,,,,,,,0.74,0.41,0.62,4*0B
$GPGSV,4,1,16,24,76,048,44,196,74,063,38,199,60,167,26,50,60,167,30,1*6D
$GPGSV,4,2,16,18,60,251,30,23,48,337,30,15,38,044,34,195,35,180,16,1*5B
$GPGSV,4,3,16,194,30,139,41,05,21,117,23,12,19,143,36,10,16,317,37,1*5A
$GPGSV,4,4,16,13,10,055,15,32,08,267,28,25,07,178,,29,02,198,,1*63
$GPGSV,3,1,09,24,76,048,46,196,74,063,44,18,60,251,38,199,60,167,24,8*64
$GPGSV,3,2,09,23,48,337,25,195,35,180,33,194,30,139,46,10,16,317,34,8*68
$GPGSV,3,3,09,32,08,267,31,8*5C
$GLGSV,2,1,08,80,48,081,33,70,40,007,17,85,37,249,25,73,35,160,32,1*79
$GLGSV,2,2,08,86,26,305,43,71,21,311,42,69,14,071,23,79,13,034,18,1*74
$GAGSV,3,1,09,13,58,235,34,08,47,023,45,07,43,300,38,26,31,309,42,7*7D
$GAGSV,3,2,09,15,25,174,18,02,25,088,,30,24,145,39,03,11,063,19,7*77
$GAGSV,3,3,09,25,03,044,,7*4E
$GAGSV,2,1,08,13,58,235,28,08,47,023,47,07,43,300,38,26,31,309,44,1*72
$GAGSV,2,2,08,02,25,088,29,15,25,174,22,30,24,145,44,03,11,063,19,1*79
$GBGSV,4,1,15,38,83,098,40,08,78,005,38,39,72,279,32,13,67,336,41,1*79
$GBGSV,4,2,15,16,66,254,34,06,65,250,31,46,59,116,44,09,49,236,24,1*7A
$GBGSV,4,3,15,19,48,342,32,20,43,060,36,36,33,184,28,37,24,049,30,1*7D
$GBGSV,4,4,15,35,22,271,37,29,20,213,22,22,10,299,26,1*4A
$GBGSV,3,1,10,38,83,098,41,39,72,279,32,46,59,116,43,19,48,342,24,4*7E
$GBGSV,3,2,10,20,43,060,32,36,33,184,22,37,24,049,28,35,22,271,38,4*75
$GBGSV,3,3,10,29,20,213,17,22,10,299,26,4*7A
$GNACCURACY,2.8*1C
$PAIRSAT,1,35,1,0,200,2,0,200,3,0,200,4,0,200,5,0,201,6,0,200,7,0,200,8,0,200,9,0,200,10,0,221,11,0,200,12,0,201,13,0,201,14,0,200,15,0,201,16,0,200,17,0,200,18,0,221,19,0,200,20,0,200,21,0,200,23,0,221,24,0,221,25,0,200,26,0,200,27,0,200,28,0,200,29,0,200,30,0,200,31,0,200,32,0,221,194,0,621,195,0,621,196,0,620,199,0,621*68
$PAIRSAT,2,23,65,0,200,67,0,200,68,0,200,69,0,201,70,0,201,71,0,201,72,0,200,73,0,201,74,0,200,75,0,200,76,0,200,77,0,200,78,0,200,79,0,201,80,0,201,81,0,200,82,0,200,83,0,200,84,0,200,85,0,201,86,0,201,87,0,200,88,0,200*53
$PAIRSAT,3,23,2,0,1221,3,0,1221,4,0,1200,5,0,200,7,0,1221,8,0,1221,9,0,1200,10,0,1200,11,0,1200,12,0,1200,13,0,1221,15,0,1221,19,0,1200,21,0,1200,24,0,1200,25,0,1200,26,0,1221,27,0,1200,30,0,1221,31,0,1200,33,0,1200,34,0,1200,36,0,1200*6A
$PAIRSAT,4,50,1,0,200,2,0,200,3,0,200,4,0,200,5,0,200,6,0,201,7,0,200,8,0,201,9,0,201,10,0,200,11,0,200,12,0,200,13,0,201,14,0,200,15,0,200,16,0,201,19,0,621,20,0,621,21,0,600,22,0,621,23,0,600,24,0,600,25,0,600,26,0,600,27,0,600,28,0,600,29,0,621,30,0,600,31,0,200,32,0,600,33,0,600,34,0,600,35,0,621,36,0,621,37,0,621,38,0,621,39,0,621,40,0,600,41,0,600,42,0,600,43,0,600,44,0,600,45,0,600,46,0,621,56,0,200,57,0,200,58,0,200,59,0,600,60,0,600,61,0,600*41
$PAIRDGP,8,5,10,12,13,15,18,23,24*72
$GNGGA,112111.200,2500.8112100,N,12132.4741200,E,2,67,0.41,24.00,M,15.25,M,11,3335*4C
$GNRMC,112111.200,A,2500.8112100,N,12132.4741200,E,0.02,210.41,260623,,,D,V*02
$GPHDT,,T*1B
$GNACCURACY,2.8*1C
$GNGGA,112111.300,2500.8112100,N,12132.4741300,E,2,67,0.41,24.02,M,15.25,M,11,3335*4E
$GNRMC,112111.300,A,2500.8112100,N,12132.4741300,E,0.02,210.41,260623,,,D,V*02
$GPHDT,,T*1B
$GNACCURACY,2.8*1C
$GNGGA,112111.400,2500.8112100,N,12132.4741200,E,2,67,0.41,24.03,M,15.25,M,11,3335*49
$GNRMC,112111.400,A,2500.8112100,N,12132.4741200,E,0.02,210.41,260623,,,D,V*04
$GPHDT,,T*1B
$GNACCURACY,2.8*1C
$GNGGA,112111.500,2500.8112100,N,12132.4741300,E,2,67,0.41,24.04,M,15.25,M,11,3335*4E
$GNRMC,112111.500,A,2500.8112100,N,12132.4741300,E,0.02,210.41,260623,,,D,V*04
$GPHDT,,T*1B
$GNACCURACY,2.9*1D
$GNGGA,112111.600,2500.8112000,N,12132.4741300,E,2,67,0.41,24.06,M,15.25,M,11,3335*4E
$GNRMC,112111.600,A,2500.8112000,N,12132.4741300,E,0.02,210.41,260623,,,D,V*06
$GPHDT,,T*1B
$GNACCURACY,2.7*13
$GNGGA,112111.700,2500.8112000,N,12132.4741300,E,2,66,0.42,24.07,M,15.25,M,11,3335*4C
$GNRMC,112111.700,A,2500.8112000,N,12132.4741300,E,0.02,210.41,260623,,,D,V*07
$GPHDT,,T*1B
$GNACCURACY,2.7*13
$GNGGA,112111.800,2500.8112000,N,12132.4741400,E,2,66,0.42,24.08,M,15.25,M,11,3335*4B
$GNRMC,112111.800,A,2500.8112000,N,12132.4741400,E,0.02,210.41,260623,,,D,V*0F
$GPHDT,,T*1B
$GNACCURACY,2.7*13
$GNGGA,112111.900,2500.8112000,N,12132.4741400,E,2,66,0.42,24.09,M,15.25,M,11,3335*4B
$GNRMC,112111.900,A,2500.8112000,N,12132.4741400,E,0.02,210.41,260623,,,D,V*0E
$GPHDT,,T*1B
$GNACCURACY,2.7*13
$GNGGA,112112.000,2500.8112000,N,12132.4741400,E,2,66,0.42,24.10,M,15.25,M,12,3335*4A
$GNRMC,112112.000,A,2500.8112000,N,12132.4741400,E,0.02,210.41,260623,,,D,V*04
$GPHDT,,T*1B
$GNACCURACY,2.6*12
$GNGGA,112112.100,2500.8112000,N,12132.4741500,E,2,66,0.42,24.11,M,15.25,M,12,3335*4B
$GNRMC,112112.100,A,2500.8112000,N,12132.4741500,E,0.02,210.41,260623,,,D,V*04
$GPHDT,,T*1B
$GNGSA,A,3,24,196,199,18,23,15,195,194,05,12,10,,0.77,0.42,0.64,1*06
$GNGSA,A,3,80,70,85,73,86,71,69,,,,,,0.77,0.42,0.64,2*07
$GNGSA,A,3,13,08,07,26,15,30,03,02,,,,,0.77,0.42,0.64,3*08
$GNGSA,A,3,38,08,39,13,16,06,46,09,19,20,36,37,0.77,0.42,0.64,4*0A
$GNGSA,A,3,35,29,22,,,,,,,,,,0.77,0.42,0.64,4*0D
$GPGSV,4,1,16,24,76,048,44,196,74,063,38,199,60,167,26,50,60,167,30,1*6D
$GPGSV,4,2,16,18,60,251,30,23,48,337,30,15,38,044,34,195,35,180,17,1*5A
$GPGSV,4,3,16,194,30,139,41,05,21,117,22,12,19,143,36,10,16,317,37,1*5B
$GPGSV,4,4,16,13,10,055,,32,08,267,29,25,07,178,,29,02,198,,1*66
$GPGSV,3,1,09,24,76,048,46,196,74,063,44,18,60,251,38,199,60,167,25,8*65
$GPGSV,3,2,09,23,48,337,28,195,35,180,33,194,30,139,46,10,16,317,34,8*65
$GPGSV,3,3,09,32,08,267,31,8*5C
$GLGSV,2,1,08,80,48,081,33,70,40,007,17,85,37,249,24,73,35,160,32,1*78
$GLGSV,2,2,08,86,26,305,43,71,21,311,42,69,14,071,21,79,13,034,17,1*79
$GAGSV,3,1,09,13,58,235,34,08,47,023,45,07,43,300,38,26,31,309,42,7*7D
$GAGSV,3,2,09,15,25,174,18,02,25,088,,30,24,145,38,03,11,063,19,7*76
$GAGSV,3,3,09,25,03,044,,7*4E
$GAGSV,2,1,08,13,58,235,27,08,47,023,47,07,43,300,38,26,31,309,44,1*7D
$GAGSV,2,2,08,02,25,088,28,15,25,174,22,30,24,145,44,03,11,063,22,1*70
$GBGSV,4,1,15,38,83,098,40,08,78,005,38,39,72,279,32,13,67,336,41,1*79
$GBGSV,4,2,15,16,66,254,34,06,65,250,32,46,59,116,44,09,49,236,23,1*7E
$GBGSV,4,3,15,19,48,342,33,20,43,060,36,36,33,184,27,37,24,049,30,1*73
$GBGSV,4,4,15,35,22,271,37,29,20,213,23,22,10,299,26,1*4B
$GBGSV,3,1,10,38,83,098,41,39,72,279,33,46,59,116,43,19,48,342,24,4*7F
$GBGSV,3,2,10,20,43,060,32,36,33,184,23,37,24,049,28,35,22,271,38,4*74
$GBGSV,3,3,10,29,20,213,17,22,10,299,25,4*79
$GNACCURACY,2.6*12
$PAIRSAT,1,35,1,0,200,2,0,200,3,0,200,4,0,200,5,0,201,6,0,200,7,0,200,8,0,200,9,0,200,10,0,221,11,0,200,12,0,201,13,0,201,14,0,200,15,0,201,16,0,200,17,0,200,18,0,221,19,0,200,20,0,200,21,0,200,23,0,221,24,0,221,25,0,200,26,0,200,27,0,200,28,0,200,29,0,200,30,0,200,31,0,200,32,0,221,194,0,621,195,0,621,196,0,620,199,0,621*68
$PAIRSAT,2,23,65,0,200,67,0,200,68,0,200,69,0,201,70,0,201,71,0,201,72,0,200,73,0,201,74,0,200,75,0,200,76,0,200,77,0,200,78,0,200,79,0,201,80,0,201,81,0,200,82,0,200,83,0,200,84,0,200,85,0,201,86,0,201,87,0,200,88,0,200*53
$PAIRSAT,3,23,2,0,1221,3,0,1221,4,0,1200,5,0,200,7,0,1221,8,0,1221,9,0,1200,10,0,1200,11,0,1200,12,0,1200,13,0,1221,15,0,1221,19,0,1200,21,0,1200,24,0,1200,25,0,1200,26,0,1221,27,0,1200,30,0,1221,31,0,1200,33,0,1200,34,0,1200,36,0,1200*6A
$PAIRSAT,4,50,1,0,200,2,0,200,3,0,200,4,0,200,5,0,200,6,0,201,7,0,200,8,0,201,9,0,201,10,0,200,11,0,200,12,0,200,13,0,201,14,0,200,15,0,200,16,0,201,19,0,621,20,0,621,21,0,600,22,0,621,23,0,600,24,0,600,25,0,600,26,0,600,27,0,600,28,0,600,29,0,621,30,0,600,31,0,200,32,0,600,33,0,600,34,0,600,35,0,621,36,0,621,37,0,621,38,0,621,39,0,621,40,0,600,41,0,600,42,0,600,43,0,600,44,0,600,45,0,600,46,0,621,56,0,200,57,0,200,58,0,200,59,0,600,60,0,600,61,0,600*41
$PAIRDGP,8,5,10,12,13,15,18,23,24*72
$GNGGA,112112.200,2500.8112000,N,12132.4741500,E,2,66,0.42,24.13,M,15.25,M,12,3335*4A
$GNRMC,112112.200,A,2500.8112000,N,12132.4741500,E,0.02,210.41,260623,,,D,V*07
$GPHDT,,T*1B
$GNACCURACY,2.6*12
$GNGGA,112112.300,2500.8112000,N,12132.4741500,E,2,66,0.42,24.14,M,15.25,M,12,3335*4C
$GNRMC,112112.300,A,2500.8112000,N,12132.4741500,E,0.02,210.41,260623,,,D,V*06
$GPHDT,,T*1B
$GNACCURACY,2.6*12
$GNGGA,112112.400,2500.8112000,N,12132.4741600,E,2,66,0.42,24.15,M,15.25,M,12,3335*49
$GNRMC,112112.400,A,2500.8112000,N,12132.4741600,E,0.02,210.41,260623,,,D,V*02
$GPHDT,,T*1B
$GNACCURACY,2.6*12
$GNGGA,112112.500,2500.8112000,N,12132.4741600,E,2,66,0.42,24.16,M,15.25,M,12,3335*4B
$GNRMC,112112.500,A,2500.8112000,N,12132.4741600,E,0.02,210.41,260623,,,D,V*03
$GPHDT,,T*1B
$GNACCURACY,2.6*12
$GNGGA,112112.600,2500.8112000,N,12132.4741700,E,2,66,0.42,24.17,M,15.25,M,12,3335*48
$GNRMC,112112.600,A,2500.8112000,N,12132.4741700,E,0.02,210.41,260623,,,D,V*01
$GPHDT,,T*1B
$GNACCURACY,2.6*12
$GNGGA,112112.700,2500.8112000,N,12132.4741700,E,2,66,0.42,24.18,M,15.25,M,12,3335*46
$GNRMC,112112.700,A,2500.8112000,N,12132.4741700,E,0.02,210.41,260623,,,D,V*00
$GPHDT,,T*1B
$GNACCURACY,2.6*12
$GNGGA,112112.800,2500.8112000,N,12132.4741700,E,2,66,0.42,24.20,M,15.25,M,12,3335*42
$GNRMC,112112.800,A,2500.8112000,N,12132.4741700,E,0.02,210.41,260623,,,D,V*0F
$GPHDT,,T*1B
$GNACCURACY,2.6*12
$GNGGA,112112.900,2500.8112000,N,12132.4741800,E,2,66,0.42,24.21,M,15.25,M,12,3335*4D
$GNRMC,112112.900,A,2500.8112000,N,12132.4741800,E,0.01,210.41,260623,,,D,V*02
$GPHDT,,T*1B
$GNACCURACY,2.6*12
$GNGGA,112113.000,2500.8112100,N,12132.4741800,E,2,66,0.42,24.23,M,15.25,M,13,3335*47
$GNRMC,112113.000,A,2500.8112100,N,12132.4741800,E,0.01,210.41,260623,,,D,V*0B
$GPHDT,,T*1B
$GNACCURACY,2.6*12
$GNGGA,112113.100,2500.8112000,N,12132.4741800,E,2,66,0.42,24.24,M,15.25,M,13,3335*40
$GNRMC,112113.100,A,2500.8112000,N,12132.4741800,E,0.01,210.41,260623,,,D,V*0B
$GPHDT,,T*1B
$GNGSA,A,3,24,196,199,18,23,15,195,194,05,12,10,,0.77,0.42,0.64,1*06
$GNGSA,A,3,80,70,85,73,86,71,69,,,,,,0.77,0.42,0.64,2*07
$GNGSA,A,3,13,08,07,26,15,30,03,02,,,,,0.77,0.42,0.64,3*08
$GNGSA,A,3,38,08,39,13,16,06,46,09,19,20,36,37,0.77,0.42,0.64,4*0A
$GNGSA,A,3,35,29,22,,,,,,,,,,0.77,0.42,0.64,4*0D
$GPGSV,4,1,16,24,76,048,44,196,74,063,38,199,60,167,26,50,60,167,30,1*6D
$GPGSV,4,2,16,18,60,251,29,23,48,337,30,15,38,044,34,195,35,180,17,1*52
$GPGSV,4,3,16,194,30,139,41,05,21,117,23,12,19,143,36,10,16,317,37,1*5A
$GPGSV,4,4,16,13,10,055,,32,08,267,28,25,07,178,,29,02,198,,1*67
$GPGSV,3,1,09,24,76,048,46,196,74,063,44,18,60,251,38,199,60,167,24,8*64
$GPGSV,3,2,09,23,48,337,26,195,35,180,33,194,30,139,46,10,16,317,34,8*6B
$GPGSV,3,3,09,32,08,267,31,8*5C
$GLGSV,2,1,08,80,48,081,34,70,40,007,17,85,37,249,22,73,35,160,32,1*79
$GLGSV,2,2,08,86,26,305,43,71,21,311,42,69,14,071,20,79,13,034,16,1*79
$GAGSV,3,1,09,13,58,235,34,08,47,023,45,07,43,300,38,26,31,309,42,7*7D
$GAGSV,3,2,09,15,25,174,18,02,25,088,,30,24,145,38,03,11,063,19,7*76
$GAGSV,3,3,09,25,03,044,,7*4E
$GAGSV,2,1,08,13,58,235,26,08,47,023,47,07,43,300,38,26,31,309,44,1*7C
$GAGSV,2,2,08,02,25,088,28,15,25,174,21,30,24,145,44,03,11,063,21,1*70
$GBGSV,4,1,15,38,83,098,40,08,78,005,38,39,72,279,30,13,67,335,41,1*78
$GBGSV,4,2,15,16,66,254,34,06,65,250,31,46,59,116,44,09,49,236,23,1*7D
$GBGSV,4,3,15,19,48,342,32,20,43,060,36,36,33,184,28,37,24,049,30,1*7D
$GBGSV,4,4,15,35,22,271,38,29,20,213,24,22,10,299,26,1*43
$GBGSV,3,1,10,38,83,098,41,39,72,279,33,46,59,116,43,19,48,342,23,4*78
$GBGSV,3,2,10,20,43,060,32,36,33,184,22,37,24,049,28,35,22,271,38,4*75
$GBGSV,3,3,10,29,20,213,16,22,10,299,26,4*7B
$GNACCURACY,2.6*12
$PAIRSAT,1,35,1,0,200,2,0,200,3,0,200,4,0,200,5,0,201,6,0,200,7,0,200,8,0,200,9,0,200,10,0,221,11,0,200,12,0,201,13,0,201,14,0,200,15,0,201,16,0,200,17,0,200,18,0,221,19,0,200,20,0,200,21,0,200,23,0,221,24,0,221,25,0,200,26,0,200,27,0,200,28,0,200,29,0,200,30,0,200,31,0,200,32,0,221,194,0,621,195,0,621,196,0,620,199,0,621*68
$PAIRSAT,2,23,65,0,200,67,0,200,68,0,200,69,0,201,70,0,201,71,0,201,72,0,200,73,0,201,74,0,200,75,0,200,76,0,200,77,0,200,78,0,200,79,0,201,80,0,201,81,0,200,82,0,200,83,0,200,84,0,200,85,0,201,86,0,201,87,0,200,88,0,200*53
$PAIRSAT,3,23,2,0,1221,3,0,1221,4,0,1200,5,0,200,7,0,1221,8,0,1221,9,0,1200,10,0,1200,11,0,1200,12,0,1200,13,0,1221,15,0,1221,19,0,1200,21,0,1200,24,0,1200,25,0,1200,26,0,1221,27,0,1200,30,0,1221,31,0,1200,33,0,1200,34,0,1200,36,0,1200*6A
$PAIRSAT,4,50,1,0,200,2,0,200,3,0,200,4,0,200,5,0,200,6,0,201,7,0,200,8,0,201,9,0,201,10,0,200,11,0,200,12,0,200,13,0,201,14,0,200,15,0,200,16,0,201,19,0,621,20,0,621,21,0,600,22,0,621,23,0,600,24,0,600,25,0,600,26,0,600,27,0,600,28,0,600,29,0,621,30,0,600,31,0,200,32,0,600,33,0,600,34,0,600,35,0,621,36,0,621,37,0,621,38,0,621,39,0,621,40,0,600,41,0,600,42,0,600,43,0,600,44,0,600,45,0,600,46,0,621,56,0,200,57,0,200,58,0,200,59,0,600,60,0,600,61,0,600*41
$PAIRDGP,8,5,10,12,13,15,18,23,24*72
$GNGGA,112113.200,2500.8112000,N,12132.4741900,E,2,66,0.42,24.25,M,15.25,M,13,3335*43
$GNRMC,112113.200,A,2500.8112000,N,12132.4741900,E,0.01,210.41,260623,,,D,V*09
$GPHDT,,T*1B
$GNACCURACY,2.6*12
$GNGGA,112113.300,2500.8112100,N,12132.4741900,E,2,66,0.42,24.27,M,15.25,M,13,3335*41
$GNRMC,112113.300,A,2500.8112100,N,12132.4741900,E,0.01,210.41,260623,,,D,V*09
$GPHDT,,T*1B
$GNACCURACY,2.6*12
$GNGGA,112113.400,2500.8112000,N,12132.4741900,E,2,66,0.42,24.28,M,15.25,M,13,3335*48
$GNRMC,112113.400,A,2500.8112000,N,12132.4741900,E,0.01,210.41,260623,,,D,V*0F
$GPHDT,,T*1B
$GNACCURACY,2.6*12
$GNGGA,112113.500,2500.8112000,N,12132.4742000,E,2,66,0.42,24.29,M,15.25,M,13,3335*42
$GNRMC,112113.500,A,2500.8112000,N,12132.4742000,E,0.01,210.41,260623,,,D,V*04
$GPHDT,,T*1B
$GNACCURACY,2.6*12
$GNGGA,112113.600,2500.8112000,N,12132.4742000,E,2,66,0.42,24.31,M,15.25,M,13,3335*48
$GNRMC,112113.600,A,2500.8112000,N,12132.4742000,E,0.01,210.41,260623,,,D,V*07
$GPHDT,,T*1B
$GNACCURACY,2.6*12
$GNGGA,112113.700,2500.8112000,N,12132.4742000,E,2,66,0.42,24.32,M,15.25,M,13,3335*4A
$GNRMC,112113.700,A,2500.8112000,N,12132.4742000,E,0.01,210.41,260623,,,D,V*06
$GPHDT,,T*1B
$GNACCURACY,2.6*12
$GNGGA,112113.800,2500.8112000,N,12132.4742000,E,2,66,0.42,24.33,M,15.25,M,13,3335*44
$GNRMC,112113.800,A,2500.8112000,N,12132.4742000,E,0.01,210.41,260623,,,D,V*09
$GPHDT,,T*1B
$GNACCURACY,2.6*12
$GNGGA,112113.900,2500.8112000,N,12132.4742000,E,2,66,0.42,24.35,M,15.25,M,13,3335*43
$GNRMC,112113.900,A,2500.8112000,N,12132.4742000,E,0.01,210.41,260623,,,D,V*08
$GPHDT,,T*1B
$GNACCURACY,2.6*12
$GNGGA,112114.000,2500.8112000,N,12132.4742000,E,2,66,0.42,24.36,M,15.25,M,14,3335*49
$GNRMC,112114.000,A,2500.8112000,N,12132.4742000,E,0.01,210.41,260623,,,D,V*06
$GPHDT,,T*1B
$GNACCURACY,2.6*12
$GNGGA,112114.100,2500.8112000,N,12132.4742000,E,2,66,0.42,24.37,M,15.25,M,14,3335*49
$GNRMC,112114.100,A,2500.8112000,N,12132.4742000,E,0.02,210.41,260623,,,D,V*04
$GPHDT,,T*1B
$GNGSA,A,3,24,196,199,18,23,15,195,194,05,12,10,,0.77,0.42,0.64,1*06
$GNGSA,A,3,80,70,85,73,86,71,69,,,,,,0.77,0.42,0.64,2*07
$GNGSA,A,3,13,08,07,26,15,30,03,02,,,,,0.77,0.42,0.64,3*08
$GNGSA,A,3,38,08,39,13,16,06,46,09,19,20,36,37,0.77,0.42,0.64,4*0A
$GNGSA,A,3,35,29,22,,,,,,,,,,0.77,0.42,0.64,4*0D
$GPGSV,4,1,16,24,76,048,44,196,74,063,38,199,60,167,26,50,60,167,29,1*65
$GPGSV,4,2,16,18,60,251,29,23,48,337,30,15,38,044,34,195,35,180,17,1*52
$GPGSV,4,3,16,194,30,139,41,05,21,117,24,12,19,143,36,10,16,317,37,1*5D
$GPGSV,4,4,16,13,10,055,,32,08,267,29,25,07,178,,29,02,198,,1*66
$GPGSV,3,1,09,24,76,048,46,196,74,063,44,18,60,251,38,199,60,167,24,8*64
$GPGSV,3,2,09,23,48,337,26,195,35,180,33,194,30,139,46,10,16,317,34,8*6B
$GPGSV,3,3,09,32,08,267,31,8*5C
$GLGSV,2,1,08,80,48,081,33,70,40,007,17,85,37,249,21,73,35,160,32,1*7D
$GLGSV,2,2,08,86,26,305,43,71,21,311,42,69,14,071,19,79,13,034,17,1*72
$GAGSV,3,1,09,13,58,235,34,08,47,023,45,07,43,300,38,26,31,309,42,7*7D
$GAGSV,3,2,09,15,25,174,18,02,25,088,,30,24,145,38,03,11,063,19,7*76
$GAGSV,3,3,09,25,03,044,,7*4E
$GAGSV,2,1,08,13,58,235,26,08,47,023,47,07,43,300,38,26,31,309,44,1*7C
$GAGSV,2,2,08,02,25,088,27,15,25,174,20,30,24,145,44,03,11,063,20,1*7F
$GBGSV,4,1,15,38,83,098,40,08,78,005,38,39,72,279,30,13,67,335,41,1*78
$GBGSV,4,2,15,16,66,254,34,06,65,250,31,46,59,116,44,09,49,236,22,1*7C
$GBGSV,4,3,15,19,48,342,33,20,43,060,36,36,33,184,29,37,24,049,30,1*7D
$GBGSV,4,4,15,35,22,271,38,29,20,213,24,22,10,299,25,1*40
$GBGSV,3,1,10,38,83,098,41,39,72,279,33,46,59,116,43,19,48,342,24,4*7F
$GBGSV,3,2,10,20,43,060,32,36,33,184,23,37,24,049,28,35,22,271,38,4*74
$GBGSV,3,3,10,29,20,213,17,22,10,299,27,4*7B
$GNACCURACY,2.6*12
$PAIRSAT,1,35,1,0,200,2,0,200,3,0,200,4,0,200,5,0,201,6,0,200,7,0,200,8,0,200,9,0,200,10,0,221,11,0,200,12,0,201,13,0,201,14,0,200,15,0,201,16,0,200,17,0,200,18,0,221,19,0,200,20,0,200,21,0,200,23,0,221,24,0,221,25,0,200,26,0,200,27,0,200,28,0,200,29,0,200,30,0,200,31,0,200,32,0,221,194,0,621,195,0,621,196,0,620,199,0,621*68
$PAIRSAT,2,23,65,0,200,67,0,200,68,0,200,69,0,201,70,0,201,71,0,201,72,0,200,73,0,201,74,0,200,75,0,200,76,0,200,77,0,200,78,0,200,79,0,201,80,0,201,81,0,200,82,0,200,83,0,200,84,0,200,85,0,201,86,0,201,87,0,200,88,0,200*53
$PAIRSAT,3,23,2,0,1221,3,0,1221,4,0,1200,5,0,200,7,0,1221,8,0,1221,9,0,1200,10,0,1200,11,0,1200,12,0,1200,13,0,1221,15,0,1221,19,0,1200,21,0,1200,24,0,1200,25,0,1200,26,0,1221,27,0,1200,30,0,1221,31,0,1200,33,0,1200,34,0,1200,36,0,1200*6A
$PAIRSAT,4,50,1,0,200,2,0,200,3,0,200,4,0,200,5,0,200,6,0,201,7,0,200,8,0,201,9,0,201,10,0,200,11,0,200,12,0,200,13,0,201,14,0,200,15,0,200,16,0,201,19,0,621,20,0,621,21,0,600,22,0,621,23,0,600,24,0,600,25,0,600,26,0,600,27,0,600,28,0,600,29,0,621,30,0,600,31,0,200,32,0,600,33,0,600,34,0,600,35,0,621,36,0,621,37,0,621,38,0,621,39,0,621,40,0,600,41,0,600,42,0,600,43,0,600,44,0,600,45,0,600,46,0,621,56,0,200,57,0,200,58,0,200,59,0,600,60,0,600,61,0,600*41
$PAIRDGP,8,5,10,12,13,15,18,23,24*72
$GNGGA,112114.200,2500.8112000,N,12132.4742000,E,2,66,0.42,24.39,M,15.25,M,14,3335*44
$GNRMC,112114.200,A,2500.8112000,N,12132.4742000,E,0.01,210.41,260623,,,D,V*04
$GPHDT,,T*1B
$GNACCURACY,2.6*12
$GNGGA,112114.300,2500.8112000,N,12132.4742000,E,2,66,0.42,24.40,M,15.25,M,14,3335*4B
$GNRMC,112114.300,A,2500.8112000,N,12132.4742000,E,0.01,210.41,260623,,,D,V*05
$GPHDT,,T*1B
$GNACCURACY,2.6*12
$GNGGA,112114.400,2500.8112000,N,12132.4742000,E,2,66,0.42,24.41,M,15.25,M,14,3335*4D
$GNRMC,112114.400,A,2500.8112000,N,12132.4742000,E,0.01,210.41,260623,,,D,V*02
$GPHDT,,T*1B
$GNACCURACY,2.6*12
$GNGGA,112114.500,2500.8112000,N,12132.4742100,E,2,66,0.42,24.43,M,15.25,M,14,3335*4F
$GNRMC,112114.500,A,2500.8112000,N,12132.4742100,E,0.01,210.41,260623,,,D,V*02
$GPHDT,,T*1B
$GNACCURACY,2.6*12
$GNGGA,112114.600,2500.8112000,N,12132.4742100,E,2,66,0.42,24.44,M,15.25,M,14,3335*4B
$GNRMC,112114.600,A,2500.8112000,N,12132.4742100,E,0.01,210.41,260623,,,D,V*01
$GPHDT,,T*1B
$GNACCURACY,2.6*12
$GNGGA,112114.700,2500.8112100,N,12132.4742100,E,2,66,0.42,24.45,M,15.25,M,14,3335*4A
$GNRMC,112114.700,A,2500.8112100,N,12132.4742100,E,0.01,210.41,260623,,,D,V*01
$GPHDT,,T*1B
$GNACCURACY,2.6*12
$GNGGA,112114.800,2500.8112100,N,12132.4742100,E,2,66,0.42,24.46,M,15.25,M,14,3335*46
$GNRMC,112114.800,A,2500.8112100,N,12132.4742100,E,0.01,210.41,260623,,,D,V*0E
$GPHDT,,T*1B
$GNACCURACY,2.6*12
$GNGGA,112114.900,2500.8112100,N,12132.4742200,E,2,66,0.42,24.47,M,15.25,M,14,3335*45
$GNRMC,112114.900,A,2500.8112100,N,12132.4742200,E,0.01,210.41,260623,,,D,V*0C
$GPHDT,,T*1B
$GNACCURACY,2.6*12
$GNGGA,112115.000,2500.8112100,N,12132.4742300,E,2,66,0.42,24.48,M,15.25,M,15,3335*42
$GNRMC,112115.000,A,2500.8112100,N,12132.4742300,E,0.01,210.41,260623,,,D,V*05
$GPHDT,,T*1B
$GNACCURACY,2.6*12
$GNGGA,112115.100,2500.8112200,N,12132.4742300,E,2,66,0.42,24.49,M,15.25,M,15,3335*41
$GNRMC,112115.100,A,2500.8112200,N,12132.4742300,E,0.01,210.41,260623,,,D,V*07
$GPHDT,,T*1B
$GNGSA,A,3,24,196,199,18,23,15,195,194,05,12,10,,0.77,0.42,0.64,1*06
$GNGSA,A,3,80,70,85,73,86,71,69,,,,,,0.77,0.42,0.64,2*07
$GNGSA,A,3,13,08,07,26,15,30,03,02,,,,,0.77,0.42,0.64,3*08
$GNGSA,A,3,38,08,39,13,16,06,46,09,19,20,36,37,0.77,0.42,0.64,4*0A
$GNGSA,A,3,35,29,22,,,,,,,,,,0.77,0.42,0.64,4*0D
$GPGSV,4,1,16,24,76,048,43,196,74,063,38,199,60,167,26,50,60,167,29,1*62
$GPGSV,4,2,16,18,60,251,29,23,48,337,30,15,38,044,33,195,35,180,17,1*55
$GPGSV,4,3,16,19