$FW : RTK35X,V1.1X0314AS,Lib20210517,1*54
$Tool : LOCOSYS , GNSS Firebird , v1.0.0.19*39
$---------------------------------------------------*2D
$GNACCURACY,2.8*1C
$GNGGA,112133.000,2500.8103700,N,12132.4748100,E,2,65,0.42,24.60,M,15.25,M,33,3335*45
$GNRMC,112133.000,A,2500.8103700,N,12132.4748100,E,0.01,210.41,260623,,,D,V*0F
$GPHDT,,T*1B
$GNACCURACY,2.8*1C
$GNGGA,112133.100,2500.8103700,N,12132.4748200,E,2,65,0.42,24.59,M,15.25,M,33,3335*4D
$GNRMC,112133.100,A,2500.8103700,N,12132.4748200,E,0.01,210.41,260623,,,D,V*0D
$GPHDT,,T*1B
$GNGSA,A,3,24,196,199,18,23,195,194,05,12,10,,,0.76,0.42,0.63,1*04
$GNGSA,A,3,80,85,73,86,71,69,79,,,,,,0.76,0.42,0.63,2*08
$GNGSA,A,3,13,08,07,26,15,02,30,03,,,,,0.76,0.42,0.63,3*0E
$GNGSA,A,3,38,08,39,13,16,06,46,09,19,20,36,37,0.76,0.42,0.63,4*0C
$GNGSA,A,3,35,29,22,,,,,,,,,,0.76,0.42,0.63,4*0B
$GPGSV,4,1,15,24,76,048,42,196,74,063,38,199,60,167,24,18,60,251,27,1*66
$GPGSV,4,2,15,23,48,337,27,15,38,044,18,195,35,180,23,194,30,139,39,1*62
$GPGSV,4,3,15,05,20,117,29,12,19,143,36,10,16,317,35,13,10,055,14,1*67
$GPGSV,4,4,15,32,08,267,23,25,07,177,,29,02,198,,1*53
$GPGSV,3,1,09,24,76,048,45,196,74,063,44,18,60,251,39,199,60,167,21,8*63
$GPGSV,3,2,09,23,48,337,28,195,35,180,32,194,30,139,42,10,16,317,36,8*62
$GPGSV,3,3,09,32,08,267,29,8*55
$GLGSV,2,1,08,80,48,081,38,70,40,007,,85,37,249,21,73,35,160,32,1*70
$GLGSV,2,2,08,86,26,305,41,71,21,311,42,69,14,071,28,79,13,034,25,1*73
$GAGSV,3,1,09,13,58,235,32,08,47,023,34,07,43,300,35,26,31,309,43,7*71
$GAGSV,3,2,09,15,25,174,14,02,25,088,17,30,24,145,41,03,11,063,21,7*79
$GAGSV,3,3,09,25,03,044,,7*4E
$GAGSV,2,1,08,13,58,235,24,08,47,023,38,07,43,300,37,26,31,309,42,1*7F
$GAGSV,2,2,08,02,25,088,31,15,25,174,26,30,24,145,40,03,11,063,20,1*7A
$GBGSV,4,1,15,38,83,099,41,08,78,005,36,39,71,279,35,13,67,335,40,1*71
$GBGSV,4,2,15,16,66,255,33,06,65,251,29,46,59,116,46,09,49,236,25,1*77
$GBGSV,4,3,15,19,48,342,34,20,43,060,32,36,33,184,29,37,24,049,23,1*7C
$GBGSV,4,4,15,35,22,271,32,29,20,213,18,22,10,300,24,1*45
$GBGSV,3,1,09,38,83,099,42,39,71,279,33,46,59,116,44,19,48,342,17,4*71
$GBGSV,3,2,09,20,43,060,27,36,33,184,14,37,24,049,30,35,22,271,38,4*75
$GBGSV,3,3,09,22,10,300,27,4*4D
$GNACCURACY,2.8*1C
$PAIRSAT,1,35,1,0,200,2,0,200,3,0,200,4,0,200,5,0,201,6,0,200,7,0,200,8,0,200,9,0,200,10,0,221,11,0,200,12,0,201,13,0,201,14,0,200,15,0,201,16,0,200,17,0,200,18,0,221,19,0,200,20,0,200,21,0,200,23,0,221,24,0,221,25,0,200,26,0,200,27,0,200,28,0,200,29,0,200,30,0,200,31,0,200,32,0,221,194,0,621,195,0,621,196,0,620,199,0,621*68
$PAIRSAT,2,23,65,0,200,67,0,200,68,0,200,69,0,201,70,0,201,71,0,201,72,0,200,73,0,201,74,0,200,75,0,200,76,0,200,77,0,200,78,0,200,79,0,201,80,0,201,81,0,200,82,0,200,83,0,200,84,0,200,85,0,201,86,0,201,87,0,200,88,0,200*53
$PAIRSAT,3,23,2,0,1221,3,0,1221,4,0,1200,5,0,200,7,0,1221,8,0,1221,9,0,1200,10,0,1200,11,0,1200,12,0,1200,13,0,1221,15,0,1221,19,0,1200,21,0,1200,24,0,1200,25,0,1200,26,0,1221,27,0,1200,30,0,1221,31,0,1200,33,0,1200,34,0,1200,36,0,1200*6A
$PAIRSAT,4,50,1,0,200,2,0,200,3,0,200,4,0,200,5,0,200,6,0,201,7,0,200,8,0,201,9,0,201,10,0,200,11,0,200,12,0,200,13,0,201,14,0,200,15,0,200,16,0,201,19,0,621,20,0,621,21,0,600,22,0,621,23,0,600,24,0,600,25,0,600,26,0,600,27,0,600,28,0,600,29,0,621,30,0,600,31,0,200,32,0,600,33,0,600,34,0,600,35,0,621,36,0,621,37,0,621,38,0,621,39,0,621,40,0,600,41,0,600,42,0,600,43,0,600,44,0,600,45,0,600,46,0,621,56,0,200,57,0,200,58,0,200,59,0,600,60,0,600,61,0,600*41
$PAIRDGP,8,5,10,12,13,15,18,23,24*72
$GNGGA,112133.200,2500.8103700,N,12132.4748300,E,2,65,0.42,24.58,M,15.25,M,33,3335*4E
$GNRMC,112133.200,A,2500.8103700,N,12132.4748300,E,0.01,210.41,260623,,,D,V*0F
$GPHDT,,T*1B
$GNACCURACY,2.8*1C
$GNGGA,112133.300,2500.8103700,N,12132.4748400,E,2,65,0.42,24.58,M,15.25,M,33,3335*48
$GNRMC,112133.300,A,2500.8103700,N,12132.4748400,E,0.01,210.41,260623,,,D,V*09
$GPHDT,,T*1B
$GNACCURACY,2.8*1C
$GNGGA,112133.400,2500.8103700,N,12132.4748400,E,2,65,0.42,24.57,M,15.25,M,33,3335*40
$GNRMC,112133.400,A,2500.8103700,N,12132.4748400,E,0.01,210.41,260623,,,D,V*0E
$GPHDT,,T*1B
$GNACCURACY,2.8*1C
$GNGGA,112133.500,2500.8103700,N,12132.4748500,E,2,65,0.42,24.57,M,15.25,M,33,3335*40
$GNRMC,112133.500,A,2500.8103700,N,12132.4748500,E,0.01,210.41,260623,,,D,V*0E
$GPHDT,,T*1B
$GNACCURACY,2.8*1C
$GNGGA,112133.600,2500.8103700,N,12132.4748600,E,2,64,0.42,24.56,M,15.25,M,33,3335*40
$GNRMC,112133.600,A,2500.8103700,N,12132.4748600,E,0.01,210.41,260623,,,D,V*0E
$GPHDT,,T*1B
$GNACCURACY,2.8*1C
$GNGGA,112133.700,2500.8103700,N,12132.4748700,E,2,64,0.42,24.55,M,15.25,M,33,3335*43
$GNRMC,112133.700,A,2500.8103700,N,12132.4748700,E,0.01,210.41,260623,,,D,V*0E
$GPHDT,,T*1B
$GNACCURACY,2.8*1C
$GNGGA,112133.800,2500.8103700,N,12132.4748800,E,2,63,0.42,24.55,M,15.25,M,33,3335*44
$GNRMC,112133.800,A,2500.8103700,N,12132.4748800,E,0.01,210.41,260623,,,D,V*0E
$GPHDT,,T*1B
$GNACCURACY,2.8*1C
$GNGGA,112133.900,2500.8103700,N,12132.4748900,E,2,63,0.42,24.54,M,15.25,M,33,3335*45
$GNRMC,112133.900,A,2500.8103700,N,12132.4748900,E,0.01,210.41,260623,,,D,V*0E
$GPHDT,,T*1B
$GNACCURACY,2.8*1C
$GNGGA,112134.000,2500.8103700,N,12132.4749000,E,2,63,0.42,24.53,M,15.25,M,34,3335*43
$GNRMC,112134.000,A,2500.8103700,N,12132.4749000,E,0.01,210.41,260623,,,D,V*08
$GPHDT,,T*1B
$GNACCURACY,2.8*1C
$GNGGA,112134.100,2500.8103700,N,12132.4749100,E,2,63,0.42,24.53,M,15.25,M,34,3335*43
$GNRMC,112134.100,A,2500.8103700,N,12132.4749100,E,0.01,210.41,260623,,,D,V*08
$GPHDT,,T*1B
$GNGSA,A,3,24,196,199,18,23,195,194,05,12,10,,,0.76,0.42,0.63,1*04
$GNGSA,A,3,80,85,73,86,71,69,79,,,,,,0.76,0.42,0.63,2*08
$GNGSA,A,3,13,08,07,26,02,15,30,03,,,,,0.76,0.42,0.63,3*0E
$GNGSA,A,3,38,08,39,13,16,06,46,09,19,20,36,37,0.76,0.42,0.63,4*0C
$GNGSA,A,3,35,29,22,,,,,,,,,,0.76,0.42,0.63,4*0B
$GPGSV,4,1,15,24,76,048,43,196,74,063,40,199,60,167,24,18,60,251,26,1*69
$GPGSV,4,2,15,23,48,337,26,15,38,044,18,195,35,180,17,194,30,139,40,1*6A
$GPGSV,4,3,15,05,20,117,26,12,19,143,35,10,16,317,35,13,10,055,14,1*6B
$GPGSV,4,4,15,32,08,267,24,25,07,177,,29,02,198,,1*54
$GPGSV,2,1,08,24,76,048,46,196,74,063,44,18,60,251,39,23,48,337,31,8*5C
$GPGSV,2,2,08,195,35,180,31,194,30,139,42,10,16,317,34,32,08,267,31,8*6B
$GLGSV,3,1,09,80,48,081,39,70,40,007,,85,37,249,21,73,35,160,32,1*71
$GLGSV,3,2,09,86,26,305,41,71,21,311,42,69,14,071,27,79,13,034,26,1*7F
$GLGSV,3,3,09,84,11,191,,1*44
$GAGSV,3,1,09,13,58,235,32,08,47,023,40,07,43,300,35,26,31,309,43,7*72
$GAGSV,3,2,09,02,25,088,17,15,25,174,14,30,24,145,41,03,11,063,21,7*79
$GAGSV,3,3,09,25,03,044,,7*4E
$GAGSV,2,1,08,13,58,235,26,08,47,023,43,07,43,300,37,26,31,309,42,1*71
$GAGSV,2,2,08,15,25,174,23,02,25,088,32,30,24,145,40,03,11,063,20,1*7C
$GBGSV,4,1,16,38,83,099,40,08,78,005,37,39,71,279,32,13,67,335,40,1*75
$GBGSV,4,2,16,16,66,255,34,06,65,251,29,46,59,116,46,09,49,236,26,1*70
$GBGSV,4,3,16,19,48,342,35,20,43,060,33,36,33,184,29,37,24,049,25,1*79
$GBGSV,4,4,16,35,22,271,34,29,20,213,22,22,10,300,23,32,03,097,,1*72
$GBGSV,3,1,10,38,83,099,41,39,71,279,35,46,59,116,44,19,48,342,17,4*7C
$GBGSV,3,2,10,20,43,060,30,36,33,184,16,37,24,049,30,35,22,271,40,4*76
$GBGSV,3,3,10,29,20,213,23,22,10,300,28,4*72
$GNACCURACY,2.8*1C
$PAIRSAT,1,35,1,0,200,2,0,200,3,0,200,4,0,200,5,0,201,6,0,200,7,0,200,8,0,200,9,0,200,10,0,221,11,0,200,12,0,201,13,0,201,14,0,200,15,0,201,16,0,200,17,0,200,18,0,221,19,0,200,20,0,200,21,0,200,23,0,221,24,0,221,25,0,200,26,0,200,27,0,200,28,0,200,29,0,200,30,0,200,31,0,200,32,0,221,194,0,621,195,0,621,196,0,620,199,0,621*68
$PAIRSAT,2,23,65,0,200,67,0,200,68,0,200,69,0,201,70,0,201,71,0,201,72,0,200,73,0,201,74,0,200,75,0,200,76,0,200,77,0,200,78,0,200,79,0,201,80,0,201,81,0,200,82,0,200,83,0,200,84,0,200,85,0,201,86,0,201,87,0,200,88,0,200*53
$PAIRSAT,3,23,2,0,1221,3,0,1221,4,0,1200,5,0,200,7,0,1221,8,0,1221,9,0,1200,10,0,1200,11,0,1200,12,0,1200,13,0,1221,15,0,1221,19,0,1200,21,0,1200,24,0,1200,25,0,1200,26,0,1221,27,0,1200,30,0,1221,31,0,1200,33,0,1200,34,0,1200,36,0,1200*6A
$PAIRSAT,4,50,1,0,200,2,0,200,3,0,200,4,0,200,5,0,200,6,0,201,7,0,200,8,0,201,9,0,201,10,0,200,11,0,200,12,0,200,13,0,201,14,0,200,15,0,200,16,0,201,19,0,621,20,0,621,21,0,600,22,0,621,23,0,600,24,0,600,25,0,600,26,0,600,27,0,600,28,0,600,29,0,621,30,0,600,31,0,200,32,0,600,33,0,600,34,0,600,35,0,621,36,0,621,37,0,621,38,0,621,39,0,621,40,0,600,41,0,600,42,0,600,43,0,600,44,0,600,45,0,600,46,0,621,56,0,200,57,0,200,58,0,200,59,0,600,60,0,600,61,0,600*41
$PAIRDGP,8,5,10,12,13,15,18,23,24*72
$GNGGA,112134.200,2500.8103700,N,12132.4749200,E,2,65,0.42,24.52,M,15.25,M,34,3335*44
$GNRMC,112134.200,A,2500.8103700,N,12132.4749200,E,0.01,210.41,260623,,,D,V*08
$GPHDT,,T*1B
$GNACCURACY,2.8*1C
$GNGGA,112134.300,2500.8103700,N,12132.4749200,E,2,65,0.42,24.51,M,15.25,M,34,3335*46
$GNRMC,112134.300,A,2500.8103700,N,12132.4749200,E,0.01,210.41,260623,,,D,V*09
$GPHDT,,T*1B
$GNACCURACY,2.8*1C
$GNGGA,112134.400,2500.8103700,N,12132.4749300,E,2,65,0.42,24.50,M,15.25,M,34,3335*41
$GNRMC,112134.400,A,2500.8103700,N,12132.4749300,E,0.01,210.41,260623,,,D,V*0F
$GPHDT,,T*1B
$GNACCURACY,2.8*1C
$GNGGA,112134.500,2500.8103700,N,12132.4749400,E,2,66,0.42,24.49,M,15.25,M,34,3335*4C
$GNRMC,112134.500,A,2500.8103700,N,12132.4749400,E,0.01,210.41,260623,,,D,V*09
$GPHDT,,T*1B
$GNACCURACY,2.8*1C
$GNGGA,112134.600,2500.8103700,N,12132.4749500,E,2,66,0.42,24.49,M,15.25,M,34,3335*4E
$GNRMC,112134.600,A,2500.8103700,N,12132.4749500,E,0.01,210.41,260623,,,D,V*0B
$GPHDT,,T*1B
$GNACCURACY,2.8*1C
$GNGGA,112134.700,2500.8103700,N,12132.4749500,E,2,66,0.42,24.48,M,15.25,M,34,3335*4E
$GNRMC,112134.700,A,2500.8103700,N,12132.4749500,E,0.01,210.41,260623,,,D,V*0A
$GPHDT,,T*1B
$GNACCURACY,2.8*1C
$GNGGA,112134.800,2500.8103700,N,12132.4749600,E,2,66,0.42,24.48,M,15.25,M,34,3335*42
$GNRMC,112134.800,A,2500.8103700,N,12132.4749600,E,0.01,210.41,260623,,,D,V*06
$GPHDT,,T*1B
$GNACCURACY,2.8*1C
$GNGGA,112134.900,2500.8103700,N,12132.4749600,E,2,66,0.42,24.47,M,15.25,M,34,3335*4C
$GNRMC,112134.900,A,2500.8103700,N,12132.4749600,E,0.01,210.41,260623,,,D,V*07
$GPHDT,,T*1B
$GNACCURACY,2.8*1C
$GNGGA,112135.000,2500.8103700,N,12132.4749800,E,2,66,0.42,24.47,M,15.25,M,35,3335*4B
$GNRMC,112135.000,A,2500.8103700,N,12132.4749800,E,0.01,210.41,260623,,,D,V*01
$GPHDT,,T*1B
$GNACCURACY,2.8*1C
$GNGGA,112135.100,2500.8103700,N,12132.4749800,E,2,66,0.42,24.47,M,15.25,M,35,3335*4A
$GNRMC,112135.100,A,2500.8103700,N,12132.4749800,E,0.01,210.41,260623,,,D,V*00
$GPHDT,,T*1B
$GNGSA,A,3,24,196,18,199,23,15,195,194,05,12,10,,0.76,0.42,0.63,1*00
$GNGSA,A,3,80,85,73,86,71,69,79,,,,,,0.76,0.42,0.63,2*08
$GNGSA,A,3,13,08,07,26,15,02,30,03,,,,,0.76,0.42,0.63,3*0E
$GNGSA,A,3,38,08,39,13,16,06,46,09,19,20,36,37,0.76,0.42,0.63,4*0C
$GNGSA,A,3,35,29,22,,,,,,,,,,0.76,0.42,0.63,4*0B
$GPGSV,4,1,16,24,76,048,43,196,74,063,40,18,60,251,27,199,60,167,23,1*6C
$GPGSV,4,2,16,23,48,337,25,45,47,231,,15,38,044,21,195,35,180,17,1*52
$GPGSV,4,3,16,194,30,139,40,05,20,117,24,12,19,143,35,10,16,318,35,1*53
$GPGSV,4,4,16,13,10,055,13,32,08,267,28,25,07,177,,29,02,198,,1*6A
$GPGSV,2,1,08,24,76,048,47,196,74,063,44,18,60,251,39,23,48,337,30,8*5C
$GPGSV,2,2,08,195,35,180,30,194,30,139,42,10,16,318,34,32,08,267,30,8*64
$GLGSV,3,1,09,80,48,081,39,70,40,007,,85,37,249,23,73,35,160,32,1*73
$GLGSV,3,2,09,86,26,305,42,71,21,311,42,69,14,071,28,79,13,034,26,1*73
$GLGSV,3,3,09,84,11,191,,1*44
$GAGSV,3,1,09,13,58,235,33,08,47,023,40,07,43,300,35,26,31,309,43,7*73
$GAGSV,3,2,09,15,25,174,13,02,25,088,17,30,24,145,41,03,11,063,21,7*7E
$GAGSV,3,3,09,25,03,044,,7*4E
$GAGSV,2,1,08,13,58,235,26,08,47,023,43,07,43,300,37,26,31,309,42,1*71
$GAGSV,2,2,08,15,25,174,22,02,25,088,33,30,24,145,40,03,11,063,20,1*7C
$GBGSV,4,1,15,38,83,099,39,08,78,005,37,39,71,279,32,13,67,335,40,1*78
$GBGSV,4,2,15,16,66,255,34,06,65,251,29,46,59,116,46,09,49,236,27,1*72
$GBGSV,4,3,15,19,48,342,35,20,43,060,33,36,33,184,28,37,24,049,25,1*7B
$GBGSV,4,4,15,35,22,271,35,29,20,213,23,22,10,300,24,1*4A
$GBGSV,3,1,10,38,83,099,40,39,71,279,34,46,59,116,44,19,48,342,16,4*7D
$GBGSV,3,2,10,20,43,060,29,36,33,184,15,37,24,049,31,35,22,271,38,4*73
$GBGSV,3,3,10,29,20,213,21,22,10,300,27,4*7F
$GNACCURACY,2.8*1C
$PAIRSAT,1,35,1,0,200,2,0,200,3,0,200,4,0,200,5,0,201,6,0,200,7,0,200,8,0,200,9,0,200,10,0,221,11,0,200,12,0,201,13,0,201,14,0,200,15,0,201,16,0,200,17,0,200,18,0,221,19,0,200,20,0,200,21,0,200,23,0,221,24,0,221,25,0,200,26,0,200,27,0,200,28,0,200,29,0,200,30,0,200,31,0,200,32,0,221,194,0,621,195,0,621,196,0,620,199,0,621*68
$PAIRSAT,2,23,65,0,200,67,0,200,68,0,200,69,0,201,70,0,201,71,0,201,72,0,200,73,0,201,74,0,200,75,0,200,76,0,200,77,0,200,78,0,200,79,0,201,80,0,201,81,0,200,82,0,200,83,0,200,84,0,200,85,0,201,86,0,201,87,0,200,88,0,200*53
$PAIRSAT,3,23,2,0,1221,3,0,1221,4,0,1200,5,0,200,7,0,1221,8,0,1221,9,0,1200,10,0,1200,11,0,1200,12,0,1200,13,0,1221,15,0,1221,19,0,1200,21,0,1200,24,0,1200,25,0,1200,26,0,1221,27,0,1200,30,0,1221,31,0,1200,33,0,1200,34,0,1200,36,0,1200*6A
$PAIRSAT,4,50,1,0,200,2,0,200,3,0,200,4,0,200,5,0,200,6,0,201,7,0,200,8,0,201,9,0,201,10,0,200,11,0,200,12,0,200,13,0,201,14,0,200,15,0,200,16,0,201,19,0,621,20,0,621,21,0,600,22,0,621,23,0,600,24,0,600,25,0,600,26,0,600,27,0,600,28,0,600,29,0,621,30,0,600,31,0,200,32,0,600,33,0,600,34,0,600,35,0,621,36,0,621,37,0,621,38,0,621,39,0,621,40,0,600,41,0,600,42,0,600,43,0,600,44,0,600,45,0,600,46,0,621,56,0,200,57,0,200,58,0,200,59,0,600,60,0,600,61,0,600*41
$PAIRDGP,8,5,10,12,13,15,18,23,24*72
$GNGGA,112135.200,2500.8103700,N,12132.4749900,E,2,66,0.42,24.46,M,15.25,M,35,3335*49
$GNRMC,112135.200,A,2500.8103700,N,12132.4749900,E,0.01,210.41,260623,,,D,V*02
$GPHDT,,T*1B
$GNACCURACY,2.8*1C
$GNGGA,112135.300,2500.8103700,N,12132.4750000,E,2,66,0.42,24.46,M,15.25,M,35,3335*49
$GNRMC,112135.300,A,2500.8103700,N,12132.4750000,E,0.01,210.41,260623,,,D,V*02
$GPHDT,,T*1B
$GNACCURACY,2.8*1C
$GNGGA,112135.400,2500.8103700,N,12132.4750100,E,2,65,0.42,24.45,M,15.25,M,35,3335*4F
$GNRMC,112135.400,A,2500.8103700,N,12132.4750100,E,0.02,210.41,260623,,,D,V*07
$GPHDT,,T*1B
$GNACCURACY,2.8*1C
$GNGGA,112135.500,2500.8103700,N,12132.4750200,E,2,65,0.42,24.44,M,15.25,M,35,3335*4C
$GNRMC,112135.500,A,2500.8103700,N,12132.4750200,E,0.02,210.41,260623,,,D,V*05
$GPHDT,,T*1B
$GNACCURACY,2.8*1C
$GNGGA,112135.600,2500.8103700,N,12132.4750300,E,2,65,0.42,24.43,M,15.25,M,35,3335*49
$GNRMC,112135.600,A,2500.8103700,N,12132.4750300,E,0.02,210.41,260623,,,D,V*07
$GPHDT,,T*1B
$GNACCURACY,2.8*1C
$GNGGA,112135.700,2500.8103700,N,12132.4750400,E,2,65,0.42,24.42,M,15.25,M,35,3335*4E
$GNRMC,112135.700,A,2500.8103700,N,12132.4750400,E,0.02,210.41,260623,,,D,V*01
$GPHDT,,T*1B
$GNACCURACY,2.8*1C
$GNGGA,112135.800,2500.8103700,N,12132.4750500,E,2,65,0.42,24.41,M,15.25,M,35,3335*43
$GNRMC,112135.800,A,2500.8103700,N,12132.4750500,E,0.02,210.41,260623,,,D,V*0F
$GPHDT,,T*1B
$GNACCURACY,2.8*1C
$GNGGA,112135.900,2500.8103700,N,12132.4750600,E,2,65,0.42,24.40,M,15.25,M,35,3335*40
$GNRMC,112135.900,A,2500.8103700,N,12132.4750600,E,0.02,210.41,260623,,,D,V*0D
$GPHDT,,T*1B
$GNACCURACY,2.8*1C
$GNGGA,112136.000,2500.8103700,N,12132.4750700,E,2,65,0.42,24.39,M,15.25,M,36,3335*46
$GNRMC,112136.000,A,2500.8103700,N,12132.4750700,E,0.02,210.41,260623,,,D,V*06
$GPHDT,,T*1B
$GNACCURACY,2.8*1C
$GNGGA,112136.100,2500.8103700,N,12132.4750700,E,2,65,0.42,24.38,M,15.25,M,36,3335*46
$GNRMC,112136.100,A,2500.8103700,N,12132.4750700,E,0.02,210.41,260623,,,D,V*07
$GPHDT,,T*1B
$GNGSA,A,3,24,196,18,199,23,15,195,194,05,12,10,,0.76,0.42,0.63,1*00
$GNGSA,A,3,80,85,73,86,71,69,79,,,,,,0.76,0.42,0.63,2*08
$GNGSA,A,3,13,08,07,26,15,02,30,03,,,,,0.76,0.42,0.63,3*0E
$GNGSA,A,3,38,08,39,13,16,06,46,09,19,20,36,37,0.76,0.42,0.63,4*0C
$GNGSA,A,3,35,29,22,,,,,,,,,,0.76,0.42,0.63,4*0B
$GPGSV,4,1,16,24,76,047,43,196,74,063,40,18,60,251,27,199,60,167,25,1*65
$GPGSV,4,2,16,23,49,337,25,45,47,231,27,15,38,045,22,195,35,180,17,1*54
$GPGSV,4,3,16,194,30,139,40,05,20,117,23,12,19,143,34,10,16,318,35,1*55
$GPGSV,4,4,16,13,10,055,14,32,08,267,26,25,07,177,,29,02,198,,1*63
$GPGSV,2,1,08,24,76,047,48,196,74,063,44,18,60,251,39,23,49,337,28,8*54
$GPGSV,2,2,08,195,35,180,30,194,30,139,42,10,16,318,34,32,08,267,30,8*64
$GLGSV,3,1,09,80,48,081,40,70,40,007,,85,37,249,25,73,35,160,32,1*7B
$GLGSV,3,2,09,86,26,305,42,71,21,311,42,69,14,071,30,79,13,034,24,1*78
$GLGSV,3,3,09,84,11,191,,1*44
$GAGSV,3,1,09,13,58,235,31,08,47,023,42,07,43,300,34,26,31,309,43,7*72
$GAGSV,3,2,09,15,25,174,14,02,25,088,19,30,24,145,41,03,11,063,21,7*77
$GAGSV,3,3,09,25,03,044,,7*4E
$GAGSV,2,1,07,13,58,235,25,08,47,023,43,07,43,300,37,26,31,309,41,1*7E
$GAGSV,2,2,07,02,25,088,33,30,24,145,40,03,11,063,21,1*43
$GBGSV,4,1,15,38,83,099,39,08,78,005,37,39,71,279,33,13,67,335,40,1*79
$GBGSV,4,2,15,16,66,255,34,06,65,251,29,46,59,116,46,09,49,236,27,1*72
$GBGSV,4,3,15,19,48,342,35,20,43,060,33,36,33,184,28,37,24,049,25,1*7B
$GBGSV,4,4,15,35,22,271,35,29,20,213,19,22,10,300,24,1*43
$GBGSV,3,1,10,38,83,099,42,39,71,279,34,46,59,116,43,19,48,342,18,4*76
$GBGSV,3,2,10,20,43,060,29,36,33,184,13,37,24,049,30,35,22,271,39,4*75
$GBGSV,3,3,10,29,20,213,24,22,10,300,26,4*7B
$GNACCURACY,2.8*1C
$PAIRSAT,1,35,1,0,200,2,0,200,3,0,200,4,0,200,5,0,201,6,0,200,7,0,200,8,0,200,9,0,200,10,0,221,11,0,200,12,0,201,13,0,201,14,0,200,15,0,201,16,0,200,17,0,200,18,0,221,19,0,200,20,0,200,21,0,200,23,0,221,24,0,221,25,0,200,26,0,200,27,0,200,28,0,200,29,0,200,30,0,200,31,0,200,32,0,221,194,0,621,195,0,621,196,0,620,199,0,621*68
$PAIRSAT,2,23,65,0,200,67,0,200,68,0,200,69,0,201,70,0,201,71,0,201,72,0,200,73,0,201,74,0,200,75,0,200,76,0,200,77,0,200,78,0,200,79,0,201,80,0,201,81,0,200,82,0,200,83,0,200,84,0,200,85,0,201,86,0,201,87,0,200,88,0,200*53
$PAIRSAT,3,23,2,0,1221,3,0,1221,4,0,1200,5,0,200,7,0,1221,8,0,1221,9,0,1200,10,0,1200,11,0,1200,12,0,1200,13,0,1221,15,0,1221,19,0,1200,21,0,1200,24,0,1200,25,0,1200,26,0,1221,27,0,1200,30,0,1221,31,0,1200,33,0,1200,34,0,1200,36,0,1200*6A
$PAIRSAT,4,50,1,0,200,2,0,200,3,0,200,4,0,200,5,0,200,6,0,201,7,0,200,8,0,201,9,0,201,10,0,200,11,0,200,12,0,200,13,0,201,14,0,200,15,0,200,16,0,201,19,0,621,20,0,621,21,0,600,22,0,621,23,0,600,24,0,600,25,0,600,26,0,600,27,0,600,28,0,600,29,0,621,30,0,600,31,0,200,32,0,600,33,0,600,34,0,600,35,0,621,36,0,621,37,0,621,38,0,621,39,0,621,40,0,600,41,0,600,42,0,600,43,0,600,44,0,600,45,0,600,46,0,621,56,0,200,57,0,200,58,0,200,59,0,600,60,0,600,61,0,600*41
$PAIRDGP,8,5,10,12,13,15,18,23,24*72
$GNGGA,112136.200,2500.8103700,N,12132.4750800,E,2,65,0.42,24.37,M,15.25,M,36,3335*45
$GNRMC,112136.200,A,2500.8103700,N,12132.4750800,E,0.02,210.41,260623,,,D,V*0B
$GPHDT,,T*1B
$GNACCURACY,2.8*1C
$GNGGA,112136.300,2500.8103700,N,12132.4750800,E,2,64,0.42,24.35,M,15.25,M,36,3335*47
$GNRMC,112136.300,A,2500.8103700,N,12132.4750800,E,0.02,210.41,260623,,,D,V*0A
$GPHDT,,T*1B
$GNACCURACY,2.8*1C
$GNGGA,112136.400,2500.8103600,N,12132.4750900,E,2,64,0.42,24.34,M,15.25,M,36,3335*41
$GNRMC,112136.400,A,2500.8103600,N,12132.4750900,E,0.02,210.41,260623,,,D,V*0D
$GPHDT,,T*1B
$GNACCURACY,2.8*1C
$GNGGA,112136.500,2500.8103600,N,12132.4751000,E,2,64,0.42,24.33,M,15.25,M,36,3335*4F
$GNRMC,112136.500,A,2500.8103600,N,12132.4751000,E,0.02,210.41,260623,,,D,V*04
$GPHDT,,T*1B
$GNACCURACY,2.8*1C
$GNGGA,112136.600,2500.8103600,N,12132.4751100,E,2,64,0.42,24.32,M,15.25,M,36,3335*4C
$GNRMC,112136.600,A,2500.8103600,N,12132.4751100,E,0.02,210.41,260623,,,D,V*06
$GPHDT,,T*1B
$GNACCURACY,2.8*1C
$GNGGA,112136.700,2500.8103600,N,12132.4751100,E,2,64,0.42,24.31,M,15.25,M,36,3335*4E
$GNRMC,112136.700,A,2500.8103600,N,12132.4751100,E,0.02,210.41,260623,,,D,V*07
$GPHDT,,T*1B
$GNACCURACY,2.8*1C
$GNGGA,112136.800,2500.8103600,N,12132.4751200,E,2,65,0.42,24.30,M,15.25,M,36,3335*42
$GNRMC,112136.800,A,2500.8103600,N,12132.4751200,E,0.02,210.41,260623,,,D,V*0B
$GPHDT,,T*1B
$GNACCURACY,2.8*1C
$GNGGA,112136.900,2500.8103600,N,12132.4751300,E,2,65,0.42,24.28,M,15.25,M,36,3335*4B
$GNRMC,112136.900,A,2500.8103600,N,12132.4751300,E,0.02,210.41,260623,,,D,V*0B
$GPHDT,,T*1B
$GNACCURACY,2.8*1C
$GNGGA,112137.000,2500.8103700,N,12132.4751300,E,2,65,0.42,24.27,M,15.25,M,37,3335*4C
$GNRMC,112137.000,A,2500.8103700,N,12132.4751300,E,0.02,210.41,260623,,,D,V*02
$GPHDT,,T*1B
$GNACCURACY,2.8*1C
$GNGGA,112137.100,2500.8103600,N,12132.4751400,E,2,65,0.42,24.26,M,15.25,M,37,3335*4A
$GNRMC,112137.100,A,2500.8103600,N,12132.4751400,E,0.02,210.41,260623,,,D,V*05
$GPHDT,,T*1B
$GNGSA,A,3,24,196,18,199,23,15,195,194,05,12,10,,0.76,0.42,0.63,1*00
$GNGSA,A,3,80,85,73,86,71,69,79,,,,,,0.76,0.42,0.63,2*08
$GNGSA,A,3,13,08,07,26,02,15,30,03,,,,,0.76,0.42,0.63,3*0E
$GNGSA,A,3,38,08,39,13,16,06,46,09,19,20,36,37,0.76,0.42,0.63,4*0C
$GNGSA,A,3,35,29,22,,,,,,,,,,0.76,0.42,0.63,4*0B
$GPGSV,4,1,16,24,76,047,43,196,74,063,40,18,60,251,26,199,60,167,25,1*64
$GPGSV,4,2,16,23,49,337,24,45,47,231,27,15,38,045,24,195,35,180,18,1*5C
$GPGSV,4,3,16,194,30,139,40,05,20,117,22,12,19,143,34,10,16,318,34,1*55
$GPGSV,4,4,16,13,10,055,16,25,08,177,,32,08,267,26,29,02,198,,1*6E
$GPGSV,2,1,08,24,76,047,48,196,74,063,44,18,60,251,39,23,49,337,29,8*55
$GPGSV,2,2,08,195,35,180,31,194,30,139,42,10,16,318,34,32,08,267,30,8*65
$GLGSV,3,1,09,80,48,081,41,70,40,007,,85,37,249,24,73,35,160,31,1*78
$GLGSV,3,2,09,86,26,305,41,71,21,311,42,69,14,071,30,79,13,034,22,1*7D
$GLGSV,3,3,09,84,11,191,,1*44
$GAGSV,3,1,09,13,58,235,31,08,47,023,42,07,43,300,34,26,31,309,43,7*72
$GAGSV,3,2,09,02,25,088,20,15,25,174,17,30,24,145,41,03,11,063,20,7*7F
$GAGSV,3,3,09,25,03,044,,7*4E
$GAGSV,2,1,07,13,58,235,24,08,47,023,44,07,43,300,37,26,31,309,42,1*7B
$GAGSV,2,2,07,02,25,088,33,30,24,145,41,03,11,063,21,1*42
$GBGSV,4,1,15,38,83,099,39,08,78,005,37,39,71,279,34,13,67,335,40,1*7E
$GBGSV,4,2,15,16,66,255,34,06,65,251,30,46,59,116,46,09,49,236,26,1*7B
$GBGSV,4,3,15,19,48,342,35,20,43,060,31,36,33,184,28,37,24,049,26,1*7A
$GBGSV,4,4,15,35,22,271,35,29,20,213,19,22,10,300,24,1*43
$GBGSV,3,1,10,38,83,099,42,39,71,279,34,46,59,116,43,19,48,342,18,4*76
$GBGSV,3,2,10,20,43,060,29,36,33,184,16,37,24,049,30,35,22,271,39,4*70
$GBGSV,3,3,10,29,20,213,23,22,10,300,26,4*7C
$GNACCURACY,2.8*1C
$PAIRSAT,1,35,1,0,200,2,0,200,3,0,200,4,0,200,5,0,201,6,0,200,7,0,200,8,0,200,9,0,200,10,0,221,11,0,200,12,0,201,13,0,201,14,0,200,15,0,201,16,0,200,17,0,200,18,0,221,19,0,200,20,0,200,21,0,200,23,0,221,24,0,221,25,0,200,26,0,200,27,0,200,28,0,200,29,0,200,30,0,200,31,0,200,32,0,221,194,0,621,195,0,621,196,0,620,199,0,621*68
$PAIRSAT,2,23,65,0,200,67,0,200,68,0,200,69,0,201,70,0,201,71,0,201,72,0,200,73,0,201,74,0,200,75,0,200,76,0,200,77,0,200,78,0,200,79,0,201,80,0,201,81,0,200,82,0,200,83,0,200,84,0,200,85,0,201,86,0,201,87,0,200,88,0,200*53
$PAIRSAT,3,23,2,0,1221,3,0,1221,4,0,1200,5,0,200,7,0,1221,8,0,1221,9,0,1200,10,0,1200,11,0,1200,12,0,1200,13,0,1221,15,0,1221,19,0,1200,21,0,1200,24,0,1200,25,0,1200,26,0,1221,27,0,1200,30,0,1221,31,0,1200,33,0,1200,34,0,1200,36,0,1200*6A
$PAIRSAT,4,50,1,0,200,2,0,200,3,0,200,4,0,200,5,0,200,6,0,201,7,0,200,8,0,201,9,0,201,10,0,200,11,0,200,12,0,200,13,0,201,14,0,200,15,0,200,16,0,201,19,0,621,20,0,621,21,0,600,22,0,621,23,0,600,24,0,600,25,0,600,26,0,600,27,0,600,28,0,600,29,0,621,30,0,600,31,0,200,32,0,600,33,0,600,34,0,600,35,0,621,36,0,621,37,0,621,38,0,621,39,0,621,40,0,600,41,0,600,42,0,600,43,0,600,44,0,600,45,0,600,46,0,621,56,0,200,57,0,200,58,0,200,59,0,600,60,0,600,61,0,600*41
$PAIRDGP,8,5,10,12,13,15,18,23,24*72
$GNGGA,112137.200,2500.8103500,N,12132.4751400,E,2,65,0.42,24.25,M,15.25,M,37,3335*49
$GNRMC,112137.200,A,2500.8103500,N,12132.4751400,E,0.02,210.41,260623,,,D,V*05
$GPHDT,,T*1B
$GNACCURACY,2.8*1C
$GNGGA,112137.300,2500.8103500,N,12132.4751500,E,2,65,0.42,24.23,M,15.25,M,37,3335*4F
$GNRMC,112137.300,A,2500.8103500,N,12132.4751500,E,0.02,210.41,260623,,,D,V*05
$GPHDT,,T*1B
$GNACCURACY,2.8*1C
$GNGGA,112137.400,2500.8103500,N,12132.4751500,E,2,66,0.42,24.22,M,15.25,M,37,3335*4A
$GNRMC,112137.400,A,2500.8103500,N,12132.4751500,E,0.02,210.41,260623,,,D,V*02
$GPHDT,,T*1B
$GNACCURACY,2.8*1C
$GNGGA,112137.500,2500.8103500,N,12132.4751600,E,2,66,0.42,24.20,M,15.25,M,37,3335*4A
$GNRMC,112137.500,A,2500.8103500,N,12132.4751600,E,0.02,210.41,260623,,,D,V*00
$GPHDT,,T*1B
$GNACCURACY,2.8*1C
$GNGGA,112137.600,2500.8103500,N,12132.4751600,E,2,66,0.42,24.19,M,15.25,M,37,3335*43
$GNRMC,112137.600,A,2500.8103500,N,12132.4751600,E,0.02,210.41,260623,,,D,V*03
$GPHDT,,T*1B
$GNACCURACY,2.8*1C
$GNGGA,112137.700,2500.8103500,N,12132.4751700,E,2,65,0.42,24.17,M,15.25,M,37,3335*4E
$GNRMC,112137.700,A,2500.8103500,N,12132.4751700,E,0.02,210.41,260623,,,D,V*03
$GPHDT,,T*1B
$GNACCURACY,2.8*1C
$GNGGA,112137.800,2500.8103500,N,12132.4751700,E,2,66,0.42,24.16,M,15.25,M,37,3335*43
$GNRMC,112137.800,A,2500.8103500,N,12132.4751700,E,0.02,210.41,260623,,,D,V*0C
$GPHDT,,T*1B
$GNACCURACY,2.8*1C
$GNGGA,112137.900,2500.8103500,N,12132.4751700,E,2,66,0.42,24.14,M,15.25,M,37,3335*40
$GNRMC,112137.900,A,2500.8103500,N,12132.4751700,E,0.02,210.41,260623,,,D,V*0D
$GPHDT,,T*1B
$GNACCURACY,2.8*1C
$GNGGA,112138.000,2500.8103500,N,12132.4751800,E,2,66,0.42,24.12,M,15.25,M,38,3335*40
$GNRMC,112138.000,A,2500.8103500,N,12132.4751800,E,0.02,210.41,260623,,,D,V*04
$GPHDT,,T*1B
$GNACCURACY,2.8*1C
$GNGGA,112138.100,2500.8103400,N,12132.4751900,E,2,65,0.42,24.11,M,15.25,M,38,3335*41
$GNRMC,112138.100,A,2500.8103400,N,12132.4751900,E,0.02,210.41,260623,,,D,V*05
$GPHDT,,T*1B
$GNGSA,A,3,24,196,18,199,23,15,195,194,05,12,10,,0.76,0.42,0.63,1*00
$GNGSA,A,3,80,85,73,86,71,69,79,,,,,,0.76,0.42,0.63,2*08
$GNGSA,A,3,13,08,07,26,15,02,30,03,,,,,0.76,0.42,0.63,3*0E
$GNGSA,A,3,38,08,39,13,16,06,46,09,19,20,36,37,0.76,0.42,0.63,4*0C
$GNGSA,A,3,35,29,22,,,,,,,,,,0.76,0.42,0.63,4*0B
$GPGSV,4,1,16,24,76,047,44,196,74,063,40,18,60,251,24,199,60,167,24,1*60
$GPGSV,4,2,16,23,49,337,20,45,47,231,28,15,38,045,24,195,35,180,16,1*59
$GPGSV,4,3,16,194,30,139,41,05,20,117,22,12,19,143,34,10,16,318,34,1*54
$GPGSV,4,4,16,13,10,055,16,25,08,177,,32,08,267,24,29,02,198,,1*6C
$GPGSV,3,1,09,24,76,047,47,196,74,063,44,18,60,251,39,199,60,167,25,8*6A
$GPGSV,3,2,09,23,49,337,30,195,35,180,31,194,30,139,42,10,16,318,31,8*61
$GPGSV,3,3,09,32,08,267,30,8*5D
$GLGSV,3,1,09,80,48,081,41,70,40,007,,85,37,249,26,73,35,160,32,1*79
$GLGSV,3,2,09,86,26,305,42,71,21,311,42,69,14,071,28,79,13,034,19,1*7F
$GLGSV,3,3,09,84,11,191,,1*44
$GAGSV,2,1,08,13,58,235,31,08,47,023,42,07,43,300,34,26,31,309,43,7*72
$GAGSV,2,2,08,15,25,174,17,02,25,087,18,30,24,145,41,03,11,063,,7*79
$GAGSV,2,1,07,13,58,235,24,08,47,023,44,07,43,300,37,26,31,309,39,1*77
$GAGSV,2,2,07,02,25,087,33,30,24,145,41,03,11,063,20,1*4C
$GBGSV,4,1,15,38,83,099,40,08,78,005,38,39,71,279,34,13,67,335,40,1*7F
$GBGSV,4,2,15,16,66,255,34,06,65,251,30,46,59,116,46,09,49,236,27,1*7A
$GBGSV,4,3,15,19,48,342,35,20,43,060,30,36,33,184,27,37,24,049,26,1*74
$GBGSV,4,4,15,35,22,271,35,29,20,213,22,22,10,300,23,1*4C
$GBGSV,3,1,10,38,83,099,42,39,71,279,35,46,59,116,43,19,48,342,17,4*78
$GBGSV,3,2,10,20,43,060,31,36,33,184,19,37,24,049,30,35,22,271,39,4*76
$GBGSV,3,3,10,29,20,213,23,22,10,300,25,4*7F
$GNACCURACY,2.8*1C
$PAIRSAT,1,35,1,0,200,2,0,200,3,0,200,4,0,200,5,0,201,6,0,200,7,0,200,8,0,200,9,0,200,10,0,221,11,0,200,12,0,201,13,0,201,14,0,200,15,0,201,16,0,200,17,0,200,18,0,221,19,0,200,20,0,200,21,0,200,23,0,221,24,0,221,25,0,200,26,0,200,27,0,200,28,0,200,29,0,200,30,0,200,31,0,200,32,0,221,194,0,621,195,0,621,196,0,620,199,0,621*68
$PAIRSAT,2,23,65,0,200,67,0,200,68,0,200,69,0,201,70,0,201,71,0,201,72,0,200,73,0,201,74,0,200,75,0,200,76,0,200,77,0,200,78,0,200,79,0,201,80,0,201,81,0,200,82,0,200,83,0,200,84,0,200,85,0,201,86,0,201,87,0,200,88,0,200*53
$PAIRSAT,3,23,2,0,1221,3,0,1221,4,0,1200,5,0,200,7,0,1221,8,0,1221,9,0,1200,10,0,1200,11,0,1200,12,0,1200,13,0,1221,15,0,1221,19,0,1200,21,0,1200,24,0,1200,25,0,1200,26,0,1221,27,0,1200,30,0,1221,31,0,1200,33,0,1200,34,0,1200,36,0,1200*6A
$PAIRSAT,4,50,1,0,200,2,0,200,3,0,200,4,0,200,5,0,200,6,0,201,7,0,200,8,0,201,9,0,201,10,0,200,11,0,200,12,0,200,13,0,201,14,0,200,15,0,200,16,0,201,19,0,621,20,0,621,21,0,600,22,0,621,23,0,600,24,0,600,25,0,600,26,0,600,27,0,600,28,0,600,29,0,621,30,0,600,31,0,200,32,0,600,33,0,600,34,0,600,35,0,621,36,0,621,37,0,621,38,0,621,39,0,621,40,0,600,41,0,600,42,0,600,43,0,600,44,0,600,45,0,600,46,0,621,56,0,200,57,0,200,58,0,200,59,0,600,60,0,600,61,0,600*41
$PAIRDGP,8,5,10,12,13,15,18,23,24*72
$GNGGA,112138.200,2500.8103400,N,12132.4751900,E,2,64,0.42,24.10,M,15.25,M,38,3335*42
$GNRMC,112138.200,A,2500.8103400,N,12132.4751900,E,0.02,210.41,260623,,,D,V*06
$GPHDT,,T*1B
$GNACCURACY,2.8*1C
$GNGGA,112138.300,2500.8103400,N,12132.4751900,E,2,64,0.42,24.09,M,15.25,M,38,3335*4B
$GNRMC,112138.300,A,2500.8103400,N,12132.4751900,E,0.02,210.41,260623,,,D,V*07
$GPHDT,,T*1B
$GNACCURACY,2.8*1C
$GNGGA,112138.400,2500.8103400,N,12132.4751900,E,2,63,0.42,24.07,M,15.25,M,38,3335*45
$GNRMC,112138.400,A,2500.8103400,N,12132.4751900,E,0.02,210.41,260623,,,D,V*00
$GPHDT,,T*1B
$GNACCURACY,2.8*1C
$GNGGA,112138.500,2500.8103400,N,12132.4752000,E,2,63,0.42,24.06,M,15.25,M,38,3335*4F
$GNRMC,112138.500,A,2500.8103400,N,12132.4752000,E,0.02,210.41,260623,,,D,V*0B
$GPHDT,,T*1B
$GNACCURACY,2.8*1C
$GNGGA,112138.600,2500.8103400,N,12132.4752000,E,2,63,0.42,24.05,M,15.25,M,38,3335*4F
$GNRMC,112138.600,A,2500.8103400,N,12132.4752000,E,0.02,210.41,260623,,,D,V*08
$GPHDT,,T*1B
$GNACCURACY,2.8*1C
$GNGGA,112138.700,2500.8103300,N,12132.4752000,E,2,63,0.42,24.04,M,15.25,M,38,3335*48
$GNRMC,112138.700,A,2500.8103300,N,12132.4752000,E,0.02,210.41,260623,,,D,V*0E
$GPHDT,,T*1B
