$FW : RTK35X,V1.1X0314AS,Lib20210517,1*54
$Tool : LOCOSYS , GNSS Firebird , v1.0.0.19*39
$---------------------------------------------------*2D
T,1,35,1,0,200,2,0,200,3,0,200,4,0,200,5,0,201,6,0,200,7,0,200,8,0,200,9,0,200,10,0,221,11,0,200,12,0,201,13,0,201,14,0,200,15,0,201,16,0,200,17,0,200,18,0,221,19,0,200,20,0,200,21,0,200,23,0,221,24,0,221,25,0,200,26,0,200,27,0,200,28,0,200,29,0,200,30,0,200,31,0,200,32,0,220,194,0,621,195,0,621,196,0,620,199,0,621*69
$PAIRSAT,2,23,65,0,200,67,0,200,68,0,200,69,0,201,70,0,201,71,0,201,72,0,200,73,0,201,74,0,200,75,0,200,76,0,200,77,0,200,78,0,200,79,0,201,80,0,201,81,0,200,82,0,200,83,0,200,84,0,200,85,0,201,86,0,201,87,0,200,88,0,200*53
$PAIRSAT,3,23,2,0,1221,3,0,1221,4,0,1200,5,0,200,7,0,1221,8,0,1221,9,0,1200,10,0,1200,11,0,1200,12,0,1200,13,0,1221,15,0,1221,19,0,1200,21,0,1200,24,0,1200,25,0,1200,26,0,1221,27,0,1200,30,0,1221,31,0,1200,33,0,1200,34,0,1200,36,0,1200*6A
$PAIRSAT,4,50,1,0,200,2,0,200,3,0,200,4,0,200,5,0,200,6,0,201,7,0,200,8,0,201,9,0,201,10,0,200,11,0,200,12,0,200,13,0,201,14,0,200,15,0,200,16,0,201,19,0,621,20,0,621,21,0,600,22,0,621,23,0,600,24,0,600,25,0,600,26,0,600,27,0,600,28,0,600,29,0,621,30,0,600,31,0,200,32,0,600,33,0,600,34,0,600,35,0,621,36,0,621,37,0,621,38,0,621,39,0,621,40,0,600,41,0,600,42,0,600,43,0,600,44,0,600,45,0,600,46,0,621,56,0,200,57,0,200,58,0,200,59,0,600,60,0,600,61,0,600*41
$PAIRDGP,8,5,10,12,13,15,18,23,24*72
$GNGGA,112027.200,2500.8103500,N,12132.4750400,E,2,62,0.42,22.74,M,15.25,M,8,3335*71
$GNRMC,112027.200,A,2500.8103500,N,12132.4750400,E,0.03,210.41,260623,,,D,V*05
$GPHDT,,T*1B
$GNACCURACY,2.8*1C
$GNGGA,112027.300,2500.8103500,N,12132.4750500,E,2,63,0.42,22.74,M,15.25,M,8,3335*70
$GNRMC,112027.300,A,2500.8103500,N,12132.4750500,E,0.03,210.41,260623,,,D,V*05
$GPHDT,,T*1B
$GNACCURACY,2.8*1C
$GNGGA,112027.400,2500.8103500,N,12132.4750600,E,2,63,0.42,22.75,M,15.25,M,8,3335*75
$GNRMC,112027.400,A,2500.8103500,N,12132.4750600,E,0.03,210.41,260623,,,D,V*01
$GPHDT,,T*1B
$GNACCURACY,2.8*1C
$GNGGA,112027.500,2500.8103500,N,12132.4750700,E,2,63,0.42,22.75,M,15.25,M,8,3335*75
$GNRMC,112027.500,A,2500.8103500,N,12132.4750700,E,0.03,210.41,260623,,,D,V*01
$GPHDT,,T*1B
$GNACCURACY,2.8*1C
$GNGGA,112027.600,2500.8103400,N,12132.4750800,E,2,63,0.42,22.75,M,15.25,M,8,3335*78
$GNRMC,112027.600,A,2500.8103400,N,12132.4750800,E,0.02,210.41,260623,,,D,V*0D
$GPHDT,,T*1B
$GNACCURACY,2.8*1C
$GNGGA,112027.700,2500.8103400,N,12132.4750800,E,2,63,0.42,22.76,M,15.25,M,8,3335*7A
$GNRMC,112027.700,A,2500.8103400,N,12132.4750800,E,0.02,210.41,260623,,,D,V*0C
$GPHDT,,T*1B
$GNACCURACY,2.8*1C
$GNGGA,112027.800,2500.8103400,N,12132.4750900,E,2,63,0.42,22.76,M,15.25,M,8,3335*74
$GNRMC,112027.800,A,2500.8103400,N,12132.4750900,E,0.02,210.41,260623,,,D,V*02
$GPHDT,,T*1B
$GNACCURACY,2.8*1C
$GNGGA,112027.900,2500.8103300,N,12132.4751000,E,2,63,0.42,22.77,M,15.25,M,8,3335*7B
$GNRMC,112027.900,A,2500.8103300,N,12132.4751000,E,0.02,210.41,260623,,,D,V*0C
$GPHDT,,T*1B
$GNACCURACY,2.8*1C
$GNGGA,112028.000,2500.8103200,N,12132.4751100,E,2,63,0.42,22.78,M,15.25,M,9,3335*73
$GNRMC,112028.000,A,2500.8103200,N,12132.4751100,E,0.02,210.41,260623,,,D,V*0A
$GPHDT,,T*1B
$GNACCURACY,2.8*1C
$GNGGA,112028.100,2500.8103200,N,12132.4751200,E,2,63,0.42,22.78,M,15.25,M,9,3335*71
$GNRMC,112028.100,A,2500.8103200,N,12132.4751200,E,0.02,210.41,260623,,,D,V*08
$GPHDT,,T*1B
$GNGSA,A,3,24,196,199,18,23,15,195,194,05,12,10,,0.69,0.42,0.55,1*0B
$GNGSA,A,3,80,70,85,73,86,71,69,79,,,,,0.69,0.42,0.55,2*04
$GNGSA,A,3,13,08,07,26,15,02,30,03,,,,,0.69,0.42,0.55,3*05
$GNGSA,A,3,38,08,39,13,16,06,46,09,19,20,36,37,0.69,0.42,0.55,4*07
$GNGSA,A,3,35,29,,,,,,,,,,,0.69,0.42,0.55,4*00
$GPGSV,4,1,16,24,77,049,42,196,74,063,40,199,60,167,23,50,60,167,,1*62
$GPGSV,4,2,16,18,60,252,24,23,48,337,30,15,38,044,38,195,35,179,19,1*58
$GPGSV,4,3,16,194,30,139,42,05,21,116,28,12,18,143,33,10,16,317,39,1*59
$GPGSV,4,4,16,13,10,055,,32,08,267,29,25,07,178,,29,02,198,,1*66
$GPGSV,3,1,09,24,77,049,47,196,74,063,46,18,60,252,39,199,60,167,25,8*64
$GPGSV,3,2,09,23,48,337,23,195,35,179,32,194,30,139,46,10,16,317,29,8*65
$GPGSV,3,3,09,32,08,267,27,8*5B
$GLGSV,3,1,09,80,48,082,40,70,40,006,18,85,37,250,25,73,35,160,33,1*79
$GLGSV,3,2,09,86,26,305,42,71,20,311,43,69,14,071,28,79,13,034,16,1*70
$GLGSV,3,3,09,84,11,191,,1*44
$GAGSV,3,1,09,13,58,235,32,08,47,022,46,07,43,300,37,26,31,309,41,7*75
$GAGSV,3,2,09,15,25,174,17,02,25,088,27,30,24,145,43,03,11,062,19,7*71
$GAGSV,3,3,09,25,03,045,,7*4F
$GAGSV,2,1,07,13,58,235,29,08,47,022,48,07,43,300,38,26,31,309,42,1*74
$GAGSV,2,2,07,02,25,088,33,15,25,174,22,30,24,145,43,1*44
$GBGSV,4,1,15,38,83,097,40,08,78,005,38,39,72,279,19,13,67,336,40,1*7E
$GBGSV,4,2,15,16,66,254,34,06,65,250,27,46,58,117,43,09,49,236,30,1*7F
$GBGSV,4,3,15,19,48,342,28,20,43,059,25,36,32,184,28,37,24,049,31,1*7E
$GBGSV,4,4,15,35,22,271,35,29,21,214,28,22,10,299,16,1*47
$GBGSV,2,1,07,38,83,097,41,39,72,279,34,46,58,117,41,19,48,342,17,4*72
$GBGSV,2,2,07,20,43,059,26,36,32,184,28,35,22,271,37,4*4C
$GNACCURACY,2.8*1C
$PAIRSAT,1,35,1,0,200,2,0,200,3,0,200,4,0,200,5,0,201,6,0,200,7,0,200,8,0,200,9,0,200,10,0,221,11,0,200,12,0,201,13,0,201,14,0,200,15,0,201,16,0,200,17,0,200,18,0,221,19,0,200,20,0,200,21,0,200,23,0,221,24,0,221,25,0,200,26,0,200,27,0,200,28,0,200,29,0,200,30,0,200,31,0,200,32,0,220,194,0,621,195,0,621,196,0,620,199,0,621*69
$PAIRSAT,2,23,65,0,200,67,0,200,68,0,200,69,0,201,70,0,201,71,0,201,72,0,200,73,0,201,74,0,200,75,0,200,76,0,200,77,0,200,78,0,200,79,0,201,80,0,201,81,0,200,82,0,200,83,0,200,84,0,200,85,0,201,86,0,201,87,0,200,88,0,200*53
$PAIRSAT,3,23,2,0,1221,3,0,1221,4,0,1200,5,0,200,7,0,1221,8,0,1221,9,0,1200,10,0,1200,11,0,1200,12,0,1200,13,0,1221,15,0,1221,19,0,1200,21,0,1200,24,0,1200,25,0,1200,26,0,1221,27,0,1200,30,0,1221,31,0,1200,33,0,1200,34,0,1200,36,0,1200*6A
$PAIRSAT,4,50,1,0,200,2,0,200,3,0,200,4,0,200,5,0,200,6,0,201,7,0,200,8,0,201,9,0,201,10,0,200,11,0,200,12,0,200,13,0,201,14,0,200,15,0,200,16,0,201,19,0,621,20,0,621,21,0,600,22,0,621,23,0,600,24,0,600,25,0,600,26,0,600,27,0,600,28,0,600,29,0,621,30,0,600,31,0,200,32,0,600,33,0,600,34,0,600,35,0,621,36,0,621,37,0,621,38,0,621,39,0,621,40,0,600,41,0,600,42,0,600,43,0,600,44,0,600,45,0,600,46,0,621,56,0,200,57,0,200,58,0,200,59,0,600,60,0,600,61,0,600*41
$PAIRDGP,8,5,10,12,13,15,18,23,24*72
$GNGGA,112028.200,2500.8103200,N,12132.4751300,E,2,63,0.42,22.79,M,15.25,M,9,3335*72
$GNRMC,112028.200,A,2500.8103200,N,12132.4751300,E,0.03,210.41,260623,,,D,V*0B
$GPHDT,,T*1B
$GNACCURACY,2.8*1C
$GNGGA,112028.300,2500.8103100,N,12132.4751400,E,2,62,0.42,22.79,M,15.25,M,9,3335*76
$GNRMC,112028.300,A,2500.8103100,N,12132.4751400,E,0.03,210.41,260623,,,D,V*0E
$GPHDT,,T*1B
$GNACCURACY,2.8*1C
$GNGGA,112028.400,2500.8103100,N,12132.4751500,E,2,63,0.42,22.80,M,15.25,M,9,3335*77
$GNRMC,112028.400,A,2500.8103100,N,12132.4751500,E,0.02,210.41,260623,,,D,V*09
$GPHDT,,T*1B
$GNACCURACY,2.8*1C
$GNGGA,112028.500,2500.8103000,N,12132.4751600,E,2,63,0.42,22.80,M,15.25,M,9,3335*74
$GNRMC,112028.500,A,2500.8103000,N,12132.4751600,E,0.03,210.41,260623,,,D,V*0B
$GPHDT,,T*1B
$GNACCURACY,2.8*1C
$GNGGA,112028.600,2500.8102900,N,12132.4751600,E,2,63,0.42,22.80,M,15.25,M,9,3335*7F
$GNRMC,112028.600,A,2500.8102900,N,12132.4751600,E,0.03,210.41,260623,,,D,V*00
$GPHDT,,T*1B
$GNACCURACY,2.8*1C
$GNGGA,112028.700,2500.8102900,N,12132.4751700,E,2,63,0.42,22.80,M,15.25,M,9,3335*7F
$GNRMC,112028.700,A,2500.8102900,N,12132.4751700,E,0.02,210.41,260623,,,D,V*01
$GPHDT,,T*1B
$GNACCURACY,2.8*1C
$GNGGA,112028.800,2500.8102900,N,12132.4751700,E,2,63,0.42,22.80,M,15.25,M,9,3335*70
$GNRMC,112028.800,A,2500.8102900,N,12132.4751700,E,0.02,210.41,260623,,,D,V*0E
$GPHDT,,T*1B
$GNACCURACY,2.8*1C
$GNGGA,112028.900,2500.8102800,N,12132.4751900,E,2,63,0.42,22.81,M,15.25,M,9,3335*7F
$GNRMC,112028.900,A,2500.8102800,N,12132.4751900,E,0.02,210.41,260623,,,D,V*00
$GPHDT,,T*1B
$GNACCURACY,2.8*1C
$GNGGA,112029.000,2500.8102800,N,12132.4751900,E,2,63,0.42,22.81,M,15.25,M,10,3335*4F
$GNRMC,112029.000,A,2500.8102800,N,12132.4751900,E,0.02,210.41,260623,,,D,V*08
$GPHDT,,T*1B
$GNACCURACY,2.8*1C
$GNGGA,112029.100,2500.8102700,N,12132.4752000,E,2,63,0.42,22.82,M,15.25,M,10,3335*48
$GNRMC,112029.100,A,2500.8102700,N,12132.4752000,E,0.01,210.41,260623,,,D,V*0F
$GPHDT,,T*1B
$GNGSA,A,3,24,196,199,18,23,15,195,194,05,12,10,,0.69,0.42,0.55,1*0B
$GNGSA,A,3,80,70,85,73,86,71,69,79,,,,,0.69,0.42,0.55,2*04
$GNGSA,A,3,13,08,07,26,02,15,30,03,,,,,0.69,0.42,0.55,3*05
$GNGSA,A,3,38,08,39,13,16,06,46,09,19,20,36,37,0.69,0.42,0.55,4*07
$GNGSA,A,3,35,29,,,,,,,,,,,0.69,0.42,0.55,4*00
$GPGSV,4,1,15,24,77,049,42,196,74,063,40,199,60,167,23,18,60,252,23,1*69
$GPGSV,4,2,15,23,48,337,30,15,38,044,38,195,35,179,17,194,30,139,42,1*6B
$GPGSV,4,3,15,05,21,116,28,12,18,143,33,10,16,317,39,13,10,055,,1*6B
$GPGSV,4,4,15,32,08,267,29,25,07,178,,29,02,198,,1*56
$GPGSV,3,1,09,24,77,049,47,196,74,063,46,18,60,252,39,199,60,167,25,8*64
$GPGSV,3,2,09,23,48,337,27,195,35,179,31,194,30,139,46,10,16,317,30,8*6A
$GPGSV,3,3,09,32,08,267,26,8*5A
$GLGSV,3,1,09,80,48,082,40,70,40,006,18,85,37,250,25,73,35,160,31,1*7B
$GLGSV,3,2,09,86,26,305,42,71,20,311,43,69,14,071,28,79,13,034,16,1*70
$GLGSV,3,3,09,84,11,191,,1*44
$GAGSV,3,1,09,13,58,235,32,08,47,022,46,07,43,300,37,26,31,309,41,7*75
$GAGSV,3,2,09,02,25,088,27,15,25,174,17,30,24,145,43,03,11,062,19,7*71
$GAGSV,3,3,09,25,03,045,,7*4F
$GAGSV,2,1,07,13,58,235,29,08,47,022,48,07,43,300,38,26,31,309,42,1*74
$GAGSV,2,2,07,02,25,088,33,15,25,174,23,30,24,145,43,1*45
$GBGSV,4,1,15,38,83,097,40,08,78,005,38,39,72,279,19,13,67,336,40,1*7E
$GBGSV,4,2,15,16,66,254,34,06,65,250,27,46,58,117,43,09,49,236,30,1*7F
$GBGSV,4,3,15,19,48,342,27,20,43,059,26,36,32,184,29,37,24,049,31,1*73
$GBGSV,4,4,15,35,22,271,35,29,21,214,28,22,10,299,15,1*44
$GBGSV,2,1,07,38,83,097,41,39,72,279,34,46,58,117,41,19,48,342,17,4*72
$GBGSV,2,2,07,20,43,059,26,36,32,184,29,35,22,271,37,4*4D
$GNACCURACY,2.8*1C
$PAIRSAT,1,35,1,0,200,2,0,200,3,0,200,4,0,200,5,0,201,6,0,200,7,0,200,8,0,200,9,0,200,10,0,221,11,0,200,12,0,201,13,0,201,14,0,200,15,0,201,16,0,200,17,0,200,18,0,221,19,0,200,20,0,200,21,0,200,23,0,221,24,0,221,25,0,200,26,0,200,27,0,200,28,0,200,29,0,200,30,0,200,31,0,200,32,0,220,194,0,621,195,0,621,196,0,620,199,0,621*69
$PAIRSAT,2,23,65,0,200,67,0,200,68,0,200,69,0,201,70,0,201,71,0,201,72,0,200,73,0,201,74,0,200,75,0,200,76,0,200,77,0,200,78,0,200,79,0,201,80,0,201,81,0,200,82,0,200,83,0,200,84,0,200,85,0,201,86,0,201,87,0,200,88,0,200*53
$PAIRSAT,3,23,2,0,1221,3,0,1221,4,0,1200,5,0,200,7,0,1221,8,0,1221,9,0,1200,10,0,1200,11,0,1200,12,0,1200,13,0,1221,15,0,1221,19,0,1200,21,0,1200,24,0,1200,25,0,1200,26,0,1221,27,0,1200,30,0,1221,31,0,1200,33,0,1200,34,0,1200,36,0,1200*6A
$PAIRSAT,4,50,1,0,200,2,0,200,3,0,200,4,0,200,5,0,200,6,0,201,7,0,200,8,0,201,9,0,201,10,0,200,11,0,200,12,0,200,13,0,201,14,0,200,15,0,200,16,0,201,19,0,621,20,0,621,21,0,600,22,0,621,23,0,600,24,0,600,25,0,600,26,0,600,27,0,600,28,0,600,29,0,621,30,0,600,31,0,200,32,0,600,33,0,600,34,0,600,35,0,621,36,0,621,37,0,621,38,0,621,39,0,621,40,0,600,41,0,600,42,0,600,43,0,600,44,0,600,45,0,600,46,0,621,56,0,200,57,0,200,58,0,200,59,0,600,60,0,600,61,0,600*41
$PAIRDGP,8,5,10,12,13,15,18,23,24*72
$GNGGA,112029.200,2500.8102600,N,12132.4752200,E,2,63,0.42,22.82,M,15.25,M,10,3335*48
$GNRMC,112029.200,A,2500.8102600,N,12132.4752200,E,0.01,210.41,260623,,,D,V*0F
$GPHDT,,T*1B
$GNACCURACY,2.8*1C
$GNGGA,112029.300,2500.8102600,N,12132.4752300,E,2,63,0.42,22.83,M,15.25,M,10,3335*49
$GNRMC,112029.300,A,2500.8102600,N,12132.4752300,E,0.01,210.41,260623,,,D,V*0F
$GPHDT,,T*1B
$GNACCURACY,2.8*1C
$GNGGA,112029.400,2500.8102500,N,12132.4752300,E,2,63,0.42,22.84,M,15.25,M,10,3335*4A
$GNRMC,112029.400,A,2500.8102500,N,12132.4752300,E,0.02,210.41,260623,,,D,V*08
$GPHDT,,T*1B
$GNACCURACY,2.8*1C
$GNGGA,112029.500,2500.8102500,N,12132.4752500,E,2,63,0.42,22.84,M,15.25,M,10,3335*4D
$GNRMC,112029.500,A,2500.8102500,N,12132.4752500,E,0.01,210.41,260623,,,D,V*0C
$GPHDT,,T*1B
$GNACCURACY,2.8*1C
$GNGGA,112029.600,2500.8102400,N,12132.4752500,E,2,63,0.42,22.85,M,15.25,M,10,3335*4E
$GNRMC,112029.600,A,2500.8102400,N,12132.4752500,E,0.01,210.41,260623,,,D,V*0E
$GPHDT,,T*1B
$GNACCURACY,2.8*1C
$GNGGA,112029.700,2500.8102300,N,12132.4752600,E,2,63,0.42,22.85,M,15.25,M,10,3335*4B
$GNRMC,112029.700,A,2500.8102300,N,12132.4752600,E,0.02,210.41,260623,,,D,V*08
$GPHDT,,T*1B
$GNACCURACY,2.8*1C
$GNGGA,112029.800,2500.8102300,N,12132.4752700,E,2,63,0.42,22.85,M,15.25,M,10,3335*45
$GNRMC,112029.800,A,2500.8102300,N,12132.4752700,E,0.02,210.41,260623,,,D,V*06
$GPHDT,,T*1B
$GNACCURACY,2.8*1C
$GNGGA,112029.900,2500.8102200,N,12132.4752800,E,2,63,0.42,22.86,M,15.25,M,7,3335*7F
$GNRMC,112029.900,A,2500.8102200,N,12132.4752800,E,0.02,210.41,260623,,,D,V*09
$GPHDT,,T*1B
$GNACCURACY,2.8*1C
$GNGGA,112030.000,2500.8102200,N,12132.4752800,E,2,63,0.42,22.86,M,15.25,M,8,3335*71
$GNRMC,112030.000,A,2500.8102200,N,12132.4752800,E,0.02,210.41,260623,,,D,V*08
$GPHDT,,T*1B
$GNACCURACY,2.8*1C
$GNGGA,112030.100,2500.8102100,N,12132.4752900,E,2,63,0.42,22.87,M,15.25,M,8,3335*73
$GNRMC,112030.100,A,2500.8102100,N,12132.4752900,E,0.02,210.41,260623,,,D,V*0B
$GPHDT,,T*1B
$GNGSA,A,3,24,196,199,18,23,15,195,194,05,12,10,,0.69,0.42,0.55,1*0B
$GNGSA,A,3,80,70,85,73,86,71,69,79,,,,,0.69,0.42,0.55,2*04
$GNGSA,A,3,13,08,07,26,15,02,30,03,,,,,0.69,0.42,0.55,3*05
$GNGSA,A,3,38,08,39,13,16,06,46,09,19,20,36,37,0.69,0.42,0.55,4*07
$GNGSA,A,3,35,29,,,,,,,,,,,0.69,0.42,0.55,4*00
$GPGSV,4,1,15,24,77,049,42,196,74,063,40,199,60,167,24,18,60,252,23,1*6E
$GPGSV,4,2,15,23,48,337,31,15,38,044,38,195,35,179,20,194,30,139,42,1*6E
$GPGSV,4,3,15,05,21,116,28,12,18,143,34,10,16,317,39,13,10,055,,1*6C
$GPGSV,4,4,15,32,08,267,29,25,07,178,,29,02,198,,1*56
$GPGSV,3,1,09,24,77,049,47,196,74,063,46,18,60,252,39,199,60,167,25,8*64
$GPGSV,3,2,09,23,48,337,26,195,35,179,31,194,30,139,46,10,16,317,30,8*6B
$GPGSV,3,3,09,32,08,267,26,8*5A
$GLGSV,2,1,08,80,48,082,40,70,40,006,18,85,37,250,25,73,35,160,29,1*72
$GLGSV,2,2,08,86,26,305,42,71,20,311,43,69,14,071,27,79,13,034,16,1*7F
$GAGSV,3,1,09,13,58,235,32,08,47,022,46,07,43,300,37,26,31,309,42,7*76
$GAGSV,3,2,09,15,25,174,18,02,25,088,27,30,24,145,43,03,11,062,19,7*7E
$GAGSV,3,3,09,25,03,045,,7*4F
$GAGSV,2,1,07,13,58,235,29,08,47,022,48,07,43,300,38,26,31,309,42,1*74
$GAGSV,2,2,07,02,25,088,33,15,25,174,23,30,24,145,43,1*45
$GBGSV,4,1,15,38,83,097,40,08,78,005,38,39,72,279,17,13,67,336,40,1*70
$GBGSV,4,2,15,16,66,254,34,06,65,250,27,46,58,117,43,09,49,236,30,1*7F
$GBGSV,4,3,15,19,48,342,27,20,43,059,27,36,32,184,29,37,24,049,31,1*72
$GBGSV,4,4,15,35,22,271,35,29,21,214,28,22,10,299,15,1*44
$GBGSV,2,1,08,38,83,097,41,39,72,279,34,46,58,117,40,19,48,342,12,4*79
$GBGSV,2,2,08,20,43,059,25,36,32,184,28,35,22,271,37,22,10,299,15,4*77
$GNACCURACY,2.9*1D
$PAIRSAT,1,35,1,0,200,2,0,200,3,0,200,4,0,200,5,0,201,6,0,200,7,0,200,8,0,200,9,0,200,10,0,221,11,0,200,12,0,201,13,0,201,14,0,200,15,0,201,16,0,200,17,0,200,18,0,221,19,0,200,20,0,200,21,0,200,23,0,221,24,0,221,25,0,200,26,0,200,27,0,200,28,0,200,29,0,200,30,0,200,31,0,200,32,0,221,194,0,621,195,0,621,196,0,620,199,0,621*68
$PAIRSAT,2,23,65,0,200,67,0,200,68,0,200,69,0,201,70,0,201,71,0,201,72,0,200,73,0,201,74,0,200,75,0,200,76,0,200,77,0,200,78,0,200,79,0,201,80,0,201,81,0,200,82,0,200,83,0,200,84,0,200,85,0,201,86,0,201,87,0,200,88,0,200*53
$PAIRSAT,3,23,2,0,1221,3,0,1221,4,0,1200,5,0,200,7,0,1221,8,0,1221,9,0,1200,10,0,1200,11,0,1200,12,0,1200,13,0,1221,15,0,1221,19,0,1200,21,0,1200,24,0,1200,25,0,1200,26,0,1221,27,0,1200,30,0,1221,31,0,1200,33,0,1200,34,0,1200,36,0,1200*6A
$PAIRSAT,4,50,1,0,200,2,0,200,3,0,200,4,0,200,5,0,200,6,0,201,7,0,200,8,0,201,9,0,201,10,0,200,11,0,200,12,0,200,13,0,201,14,0,200,15,0,200,16,0,201,19,0,621,20,0,621,21,0,600,22,0,621,23,0,600,24,0,600,25,0,600,26,0,600,27,0,600,28,0,600,29,0,621,30,0,600,31,0,200,32,0,600,33,0,600,34,0,600,35,0,621,36,0,621,37,0,621,38,0,621,39,0,621,40,0,600,41,0,600,42,0,600,43,0,600,44,0,600,45,0,600,46,0,621,56,0,200,57,0,200,58,0,200,59,0,600,60,0,600,61,0,600*41
$PAIRDGP,8,5,10,12,13,15,18,23,24*72
$GNGGA,112030.200,2500.8102000,N,12132.4753000,E,2,63,0.42,22.87,M,15.25,M,8,3335*79
$GNRMC,112030.200,A,2500.8102000,N,12132.4753000,E,0.02,210.41,260623,,,D,V*01
$GPHDT,,T*1B
$GNACCURACY,2.9*1D
$GNGGA,112030.300,2500.8102000,N,12132.4753100,E,2,63,0.42,22.88,M,15.25,M,8,3335*76
$GNRMC,112030.300,A,2500.8102000,N,12132.4753100,E,0.02,210.41,260623,,,D,V*01
$GPHDT,,T*1B
$GNACCURACY,2.9*1D
$GNGGA,112030.400,2500.8101900,N,12132.4753200,E,2,63,0.42,22.89,M,15.25,M,8,3335*79
$GNRMC,112030.400,A,2500.8101900,N,12132.4753200,E,0.02,210.41,260623,,,D,V*0F
$GPHDT,,T*1B
$GNACCURACY,2.9*1D
$GNGGA,112030.500,2500.8101900,N,12132.4753300,E,2,63,0.42,22.89,M,15.25,M,8,3335*79
$GNRMC,112030.500,A,2500.8101900,N,12132.4753300,E,0.01,210.41,260623,,,D,V*0C
$GPHDT,,T*1B
$GNACCURACY,2.9*1D
$GNGGA,112030.600,2500.8101900,N,12132.4753400,E,2,63,0.42,22.89,M,15.25,M,8,3335*7D
$GNRMC,112030.600,A,2500.8101900,N,12132.4753400,E,0.01,210.41,260623,,,D,V*08
$GPHDT,,T*1B
$GNACCURACY,2.9*1D
$GNGGA,112030.700,2500.8101800,N,12132.4753400,E,2,63,0.42,22.89,M,15.25,M,8,3335*7D
$GNRMC,112030.700,A,2500.8101800,N,12132.4753400,E,0.01,210.41,260623,,,D,V*08
$GPHDT,,T*1B
$GNACCURACY,2.9*1D
$GNGGA,112030.800,2500.8101700,N,12132.4753500,E,2,63,0.42,22.90,M,15.25,M,8,3335*74
$GNRMC,112030.800,A,2500.8101700,N,12132.4753500,E,0.01,210.41,260623,,,D,V*09
$GPHDT,,T*1B
$GNACCURACY,2.9*1D
$GNGGA,112030.900,2500.8101700,N,12132.4753600,E,2,63,0.42,22.90,M,15.25,M,8,3335*76
$GNRMC,112030.900,A,2500.8101700,N,12132.4753600,E,0.01,210.41,260623,,,D,V*0B
$GPHDT,,T*1B
$GNACCURACY,2.9*1D
$GNGGA,112031.000,2500.8101600,N,12132.4753700,E,2,63,0.42,22.91,M,15.25,M,9,3335*7E
$GNRMC,112031.000,A,2500.8101600,N,12132.4753700,E,0.01,210.41,260623,,,D,V*03
$GPHDT,,T*1B
$GNACCURACY,2.9*1D
$GNGGA,112031.100,2500.8101600,N,12132.4753800,E,2,63,0.42,22.91,M,15.25,M,9,3335*70
$GNRMC,112031.100,A,2500.8101600,N,12132.4753800,E,0.01,210.41,260623,,,D,V*0D
$GPHDT,,T*1B
$GNGSA,A,3,24,196,199,18,23,15,195,194,05,12,10,,0.69,0.42,0.55,1*0B
$GNGSA,A,3,80,70,85,73,86,71,69,79,,,,,0.69,0.42,0.55,2*04
$GNGSA,A,3,13,08,07,26,15,02,30,03,,,,,0.69,0.42,0.55,3*05
$GNGSA,A,3,38,08,39,13,16,06,46,09,19,20,36,37,0.69,0.42,0.55,4*07
$GNGSA,A,3,35,29,,,,,,,,,,,0.69,0.42,0.55,4*00
$GPGSV,4,1,15,24,77,049,42,196,74,063,40,199,60,167,24,18,60,252,23,1*6E
$GPGSV,4,2,15,23,48,337,31,15,38,044,38,195,35,179,20,194,30,139,42,1*6E
$GPGSV,4,3,15,05,21,116,27,12,18,143,34,10,16,317,39,13,10,055,,1*63
$GPGSV,4,4,15,32,08,267,29,25,07,178,,29,02,198,,1*56
$GPGSV,3,1,09,24,77,049,47,196,74,063,46,18,60,252,39,199,60,167,25,8*64
$GPGSV,3,2,09,23,48,337,28,195,35,179,32,194,30,139,46,10,16,317,29,8*6E
$GPGSV,3,3,09,32,08,267,26,8*5A
$GLGSV,2,1,08,80,48,082,40,70,40,006,18,85,37,250,21,73,35,160,28,1*77
$GLGSV,2,2,08,86,26,305,42,71,20,311,43,69,14,071,26,79,13,034,15,1*7D
$GAGSV,3,1,09,13,58,235,32,08,47,022,46,07,43,300,37,26,31,309,42,7*76
$GAGSV,3,2,09,15,25,174,18,02,25,088,27,30,24,145,43,03,11,062,19,7*7E
$GAGSV,3,3,09,25,03,045,,7*4F
$GAGSV,2,1,07,13,58,235,29,08,47,022,48,07,43,300,38,26,31,309,42,1*74
$GAGSV,2,2,07,02,25,088,33,15,25,174,23,30,24,145,43,1*45
$GBGSV,4,1,15,38,83,097,40,08,78,005,38,39,72,279,16,13,67,336,40,1*71
$GBGSV,4,2,15,16,66,254,34,06,65,250,27,46,58,117,43,09,49,236,30,1*7F
$GBGSV,4,3,15,19,48,342,28,20,43,059,27,36,32,184,29,37,24,049,31,1*7D
$GBGSV,4,4,15,35,22,271,35,29,21,214,28,22,10,299,14,1*45
$GBGSV,2,1,08,38,83,097,41,39,72,279,34,46,58,117,40,19,48,342,14,4*7F
$GBGSV,2,2,08,20,43,059,25,36,32,184,28,35,22,271,37,22,10,299,14,4*76
$GNACCURACY,2.9*1D
$PAIRSAT,1,35,1,0,200,2,0,200,3,0,200,4,0,200,5,0,201,6,0,200,7,0,200,8,0,200,9,0,200,10,0,221,11,0,200,12,0,201,13,0,201,14,0,200,15,0,201,16,0,200,17,0,200,18,0,221,19,0,200,20,0,200,21,0,200,23,0,221,24,0,221,25,0,200,26,0,200,27,0,200,28,0,200,29,0,200,30,0,200,31,0,200,32,0,221,194,0,621,195,0,621,196,0,620,199,0,621*68
$PAIRSAT,2,23,65,0,200,67,0,200,68,0,200,69,0,201,70,0,201,71,0,201,72,0,200,73,0,201,74,0,200,75,0,200,76,0,200,77,0,200,78,0,200,79,0,201,80,0,201,81,0,200,82,0,200,83,0,200,84,0,200,85,0,201,86,0,201,87,0,200,88,0,200*53
$PAIRSAT,3,23,2,0,1221,3,0,1221,4,0,1200,5,0,200,7,0,1221,8,0,1221,9,0,1200,10,0,1200,11,0,1200,12,0,1200,13,0,1221,15,0,1221,19,0,1200,21,0,1200,24,0,1200,25,0,1200,26,0,1221,27,0,1200,30,0,1221,31,0,1200,33,0,1200,34,0,1200,36,0,1200*6A
$PAIRSAT,4,50,1,0,200,2,0,200,3,0,200,4,0,200,5,0,200,6,0,201,7,0,200,8,0,201,9,0,201,10,0,200,11,0,200,12,0,200,13,0,201,14,0,200,15,0,200,16,0,201,19,0,621,20,0,621,21,0,600,22,0,621,23,0,600,24,0,600,25,0,600,26,0,600,27,0,600,28,0,600,29,0,621,30,0,600,31,0,200,32,0,600,33,0,600,34,0,600,35,0,621,36,0,621,37,0,621,38,0,621,39,0,621,40,0,600,41,0,600,42,0,600,43,0,600,44,0,600,45,0,600,46,0,621,56,0,200,57,0,200,58,0,200,59,0,600,60,0,600,61,0,600*41
$PAIRDGP,8,5,10,12,13,15,18,23,24*72
$GNGGA,112031.200,2500.8101600,N,12132.4753900,E,2,63,0.42,22.91,M,15.25,M,9,3335*72
$GNRMC,112031.200,A,2500.8101600,N,12132.4753900,E,0.01,210.41,260623,,,D,V*0F
$GPHDT,,T*1B
$GNACCURACY,2.9*1D
$GNGGA,112031.300,2500.8101500,N,12132.4754000,E,2,63,0.42,22.92,M,15.25,M,1,3335*75
$GNRMC,112031.300,A,2500.8101500,N,12132.4754000,E,0.01,210.41,260623,,,D,V*03
$GPHDT,,T*1B
$GNACCURACY,2.9*1D
$GNGGA,112031.400,2500.8101400,N,12132.4754100,E,2,62,0.42,22.92,M,15.25,M,1,3335*73
$GNRMC,112031.400,A,2500.8101400,N,12132.4754100,E,0.01,210.41,260623,,,D,V*04
$GPHDT,,T*1B
$GNACCURACY,2.8*1C
$GNGGA,112031.500,2500.8101400,N,12132.4754200,E,2,62,0.42,22.93,M,15.25,M,0,3335*71
$GNRMC,112031.500,A,2500.8101400,N,12132.4754200,E,0.02,210.41,260623,,,D,V*05
$GPHDT,,T*1B
$GNACCURACY,2.8*1C
$GNGGA,112031.600,2500.8101400,N,12132.4754300,E,2,62,0.42,22.93,M,15.25,M,0,3335*73
$GNRMC,112031.600,A,2500.8101400,N,12132.4754300,E,0.02,210.41,260623,,,D,V*07
$GPHDT,,T*1B
$GNACCURACY,2.8*1C
$GNGGA,112031.700,2500.8101300,N,12132.4754400,E,2,62,0.42,22.94,M,15.25,M,0,3335*75
$GNRMC,112031.700,A,2500.8101300,N,12132.4754400,E,0.01,210.41,260623,,,D,V*05
$GPHDT,,T*1B
$GNACCURACY,2.8*1C
$GNGGA,112031.800,2500.8101300,N,12132.4754500,E,2,62,0.42,22.94,M,15.25,M,0,3335*7B
$GNRMC,112031.800,A,2500.8101300,N,12132.4754500,E,0.00,210.41,260623,,,D,V*0A
$GPHDT,,T*1B
$GNACCURACY,2.8*1C
$GNGGA,112031.900,2500.8101300,N,12132.4754600,E,2,62,0.42,22.95,M,15.25,M,0,3335*78
$GNRMC,112031.900,A,2500.8101300,N,12132.4754600,E,0.01,210.41,260623,,,D,V*09
$GPHDT,,T*1B
$GNACCURACY,2.8*1C
$GNGGA,112032.000,2500.8101200,N,12132.4754700,E,2,62,0.42,22.95,M,15.25,M,1,3335*73
$GNRMC,112032.000,A,2500.8101200,N,12132.4754700,E,0.00,210.41,260623,,,D,V*02
$GPHDT,,T*1B
$GNACCURACY,2.8*1C
$GNGGA,112032.100,2500.8101100,N,12132.4754800,E,2,62,0.42,22.96,M,15.25,M,1,3335*7D
$GNRMC,112032.100,A,2500.8101100,N,12132.4754800,E,0.00,210.41,260623,,,D,V*0F
$GPHDT,,T*1B
$GNGSA,A,3,24,196,199,18,23,15,195,194,05,12,10,,0.78,0.42,0.66,1*0B
$GNGSA,A,3,80,70,85,73,86,71,69,79,,,,,0.78,0.42,0.66,2*04
$GNGSA,A,3,13,08,07,26,02,15,30,03,,,,,0.78,0.42,0.66,3*05
$GNGSA,A,3,38,08,39,13,16,06,46,09,19,20,36,37,0.78,0.42,0.66,4*07
$GNGSA,A,3,35,29,,,,,,,,,,,0.78,0.42,0.66,4*00
$GPGSV,4,1,15,24,76,049,42,196,74,063,40,199,60,167,24,18,60,252,24,1*68
$GPGSV,4,2,15,23,48,337,31,15,38,044,38,195,35,179,19,194,30,139,42,1*64
$GPGSV,4,3,15,05,21,116,27,12,18,143,34,10,16,317,39,13,10,055,,1*63
$GPGSV,4,4,15,32,08,267,29,25,07,178,,29,02,198,,1*56
$GPGSV,3,1,09,24,76,049,47,196,74,063,46,18,60,252,39,199,60,167,25,8*65
$GPGSV,3,2,09,23,48,337,28,195,35,179,32,194,30,139,46,10,16,317,28,8*6F
$GPGSV,3,3,09,32,08,267,27,8*5B
$GLGSV,3,1,09,80,48,082,39,70,40,006,17,85,37,250,20,73,35,160,27,1*78
$GLGSV,3,2,09,86,26,305,42,71,20,311,43,69,14,071,23,79,13,034,16,1*7B
$GLGSV,3,3,09,84,11,191,,1*44
$GAGSV,3,1,09,13,58,235,32,08,47,022,46,07,43,300,37,26,31,309,42,7*76
$GAGSV,3,2,09,02,25,088,26,15,25,174,18,30,24,145,43,03,11,062,19,7*7F
$GAGSV,3,3,09,25,03,045,,7*4F
$GAGSV,2,1,07,13,58,235,28,08,47,022,48,07,43,300,38,26,31,309,42,1*75
$GAGSV,2,2,07,02,25,088,33,15,25,174,23,30,24,145,43,1*45
$GBGSV,4,1,15,38,83,097,40,08,78,005,38,39,72,279,14,13,67,336,40,1*73
$GBGSV,4,2,15,16,66,254,34,06,65,250,28,46,58,117,43,09,49,236,30,1*70
$GBGSV,4,3,15,19,48,342,28,20,43,059,27,36,32,184,29,37,24,049,31,1*7D
$GBGSV,4,4,15,35,22,271,35,29,21,214,28,22,10,299,16,1*47
$GBGSV,2,1,07,38,83,097,41,39,72,279,34,46,58,117,40,20,43,059,25,4*7A
$GBGSV,2,2,07,36,32,184,28,35,22,271,37,22,10,299,13,4*40
$GNACCURACY,2.8*1C
$PAIRSAT,1,35,1,0,200,2,0,200,3,0,200,4,0,200,5,0,201,6,0,200,7,0,200,8,0,200,9,0,200,10,0,221,11,0,200,12,0,201,13,0,201,14,0,200,15,0,201,16,0,200,17,0,200,18,0,221,19,0,200,20,0,200,21,0,200,23,0,221,24,0,221,25,0,200,26,0,200,27,0,200,28,0,200,29,0,200,30,0,200,31,0,200,32,0,221,194,0,621,195,0,621,196,0,620,199,0,621*68
$PAIRSAT,2,23,65,0,200,67,0,200,68,0,200,69,0,201,70,0,201,71,0,201,72,0,200,73,0,201,74,0,200,75,0,200,76,0,200,77,0,200,78,0,200,79,0,201,80,0,201,81,0,200,82,0,200,83,0,200,84,0,200,85,0,201,86,0,201,87,0,200,88,0,200*53
$PAIRSAT,3,23,2,0,1221,3,0,1221,4,0,1200,5,0,200,7,0,1221,8,0,1221,9,0,1200,10,0,1200,11,0,1200,12,0,1200,13,0,1221,15,0,1221,19,0,1200,21,0,1200,24,0,1200,25,0,1200,26,0,1221,27,0,1200,30,0,1221,31,0,1200,33,0,1200,34,0,1200,36,0,1200*6A
$PAIRSAT,4,50,1,0,200,2,0,200,3,0,200,4,0,200,5,0,200,6,0,201,7,0,200,8,0,201,9,0,201,10,0,200,11,0,200,12,0,200,13,0,201,14,0,200,15,0,200,16,0,201,19,0,621,20,0,621,21,0,600,22,0,621,23,0,600,24,0,600,25,0,600,26,0,600,27,0,600,28,0,600,29,0,621,30,0,600,31,0,200,32,0,600,33,0,600,34,0,600,35,0,621,36,0,621,37,0,621,38,0,621,39,0,621,40,0,600,41,0,600,42,0,600,43,0,600,44,0,600,45,0,600,46,0,621,56,0,200,57,0,200,58,0,200,59,0,600,60,0,600,61,0,600*41
$PAIRDGP,8,5,10,12,13,15,18,23,24*72
$GNGGA,112032.200,2500.8101100,N,12132.4754900,E,2,62,0.42,22.96,M,15.25,M,1,3335*7F
$GNRMC,112032.200,A,2500.8101100,N,12132.4754900,E,0.00,210.41,260623,,,D,V*0D
$GPHDT,,T*1B
$GNACCURACY,2.8*1C
$GNGGA,112032.300,2500.8101000,N,12132.4755000,E,2,62,0.42,22.97,M,15.25,M,1,3335*76
$GNRMC,112032.300,A,2500.8101000,N,12132.4755000,E,0.00,210.41,260623,,,D,V*05
$GPHDT,,T*1B
$GNACCURACY,2.8*1C
$GNGGA,112032.400,2500.8101000,N,12132.4755100,E,2,62,0.42,22.97,M,15.25,M,1,3335*70
$GNRMC,112032.400,A,2500.8101000,N,12132.4755100,E,0.00,210.41,260623,,,D,V*03
$GPHDT,,T*1B
$GNACCURACY,2.8*1C
$GNGGA,112032.500,2500.8101000,N,12132.4755200,E,2,62,0.42,22.98,M,15.25,M,1,3335*7D
$GNRMC,112032.500,A,2500.8101000,N,12132.4755200,E,0.00,210.41,260623,,,D,V*01
$GPHDT,,T*1B
$GNACCURACY,2.8*1C
$GNGGA,112032.600,2500.8100900,N,12132.4755300,E,2,62,0.42,22.98,M,15.25,M,1,3335*77
$GNRMC,112032.600,A,2500.8100900,N,12132.4755300,E,0.00,210.41,260623,,,D,V*0B
$GPHDT,,T*1B
$GNACCURACY,2.8*1C
$GNGGA,112032.700,2500.8100800,N,12132.4755300,E,2,62,0.42,22.99,M,15.25,M,1,3335*76
$GNRMC,112032.700,A,2500.8100800,N,12132.4755300,E,0.00,210.41,260623,,,D,V*0B
$GPHDT,,T*1B
$GNACCURACY,2.8*1C
$GNGGA,112032.800,2500.8100800,N,12132.4755400,E,2,62,0.42,22.99,M,15.25,M,0,3335*7F
$GNRMC,112032.800,A,2500.8100800,N,12132.4755400,E,0.00,210.41,260623,,,D,V*03
$GPHDT,,T*1B
$GNACCURACY,2.7*13
$GNGGA,112032.900,2500.8100700,N,12132.4755500,E,2,62,0.42,23.00,M,15.25,M,0,3335*71
$GNRMC,112032.900,A,2500.8100700,N,12132.4755500,E,0.00,210.41,260623,,,D,V*0C
$GPHDT,,T*1B
$GNACCURACY,2.7*13
$GNGGA,112033.000,2500.8100700,N,12132.4755600,E,2,62,0.42,23.00,M,15.25,M,1,3335*7B
$GNRMC,112033.000,A,2500.8100700,N,12132.4755600,E,0.00,210.41,260623,,,D,V*07
$GPHDT,,T*1B
$GNACCURACY,2.7*13
$GNGGA,112033.100,2500.8100600,N,12132.4755700,E,2,62,0.42,23.00,M,15.25,M,1,3335*7A
$GNRMC,112033.100,A,2500.8100600,N,12132.4755700,E,0.00,210.41,260623,,,D,V*06
$GPHDT,,T*1B
$GNGSA,A,3,24,196,199,18,23,15,195,194,05,12,10,,0.78,0.42,0.66,1*0B
$GNGSA,A,3,80,70,85,73,86,71,69,79,,,,,0.78,0.42,0.66,2*04
$GNGSA,A,3,13,08,07,26,02,15,30,03,,,,,0.78,0.42,0.66,3*05
$GNGSA,A,3,38,08,39,13,16,06,46,09,19,20,36,37,0.78,0.42,0.66,4*07
$GNGSA,A,3,35,29,,,,,,,,,,,0.78,0.42,0.66,4*00
$GPGSV,4,1,15,24,76,049,42,196,74,063,40,199,60,167,24,18,60,252,23,1*6F
$GPGSV,4,2,15,23,48,337,31,15,38,044,38,195,35,179,18,194,30,139,43,1*64
$GPGSV,4,3,15,05,21,116,24,12,18,143,35,10,16,317,39,13,10,055,,1*61
$GPGSV,4,4,15,32,08,267,30,25,07,178,,29,02,198,,1*5E
$GPGSV,3,1,09,24,76,049,47,196,74,063,46,18,60,252,39,199,60,167,25,8*65
$GPGSV,3,2,09,23,48,337,27,195,35,179,32,194,30,139,46,10,16,317,26,8*6E
$GPGSV,3,3,09,32,08,267,27,8*5B
$GLGSV,3,1,09,80,48,082,39,70,40,006,17,85,37,250,19,73,35,160,25,1*70
$GLGSV,3,2,09,86,26,305,41,71,20,311,43,69,14,071,21,79,13,034,17,1*7B
$GLGSV,3,3,09,84,11,191,,1*44
$GAGSV,3,1,09,13,58,235,32,08,47,022,46,07,43,300,37,26,31,309,42,7*76
$GAGSV,3,2,09,02,25,088,25,15,25,174,18,30,24,145,43,03,11,062,19,7*7C
$GAGSV,3,3,09,25,03,045,,7*4F
$GAGSV,2,1,07,13,58,235,28,08,47,022,48,07,43,300,38,26,31,309,42,1*75
$GAGSV,2,2,07,02,25,088,33,15,25,174,22,30,24,145,43,1*44
$GBGSV,5,1,17,38,83,097,40,08,78,005,38,39,72,279,16,13,67,336,40,1*72
$GBGSV,5,2,17,16,66,254,35,06,65,250,29,46,58,117,43,09,49,236,30,1*73
$GBGSV,5,3,17,19,48,342,28,20,43,059,29,31,36,208,,36,32,184,29,1*70
$GBGSV,5,4,17,37,24,049,32,35,22,271,35,29,21,214,29,22,10,299,17,1*7A
$GBGSV,5,5,17,07,05,193,,1*49
$GBGSV,2,1,06,38,83,097,41,39,72,279,34,46,58,117,40,20,43,059,25,4*7B
$GBGSV,2,2,06,36,32,184,29,35,22,271,37,4*71
$GNACCURACY,2.7*13
$PAIRSAT,1,35,1,0,200,2,0,200,3,0,200,4,0,200,5,0,201,6,0,200,7,0,200,8,0,200,9,0,200,10,0,221,11,0,200,12,0,201,13,0,201,14,0,200,15,0,201,16,0,200,17,0,200,18,0,221,19,0,200,20,0,200,21,0,200,23,0,221,24,0,221,25,0,200,26,0,200,27,0,200,28,0,200,29,0,200,30,0,200,31,0,200,32,0,221,194,0,621,195,0,621,196,0,620,199,0,621*68
$PAIRSAT,2,23,65,0,200,67,0,200,68,0,200,69,0,201,70,0,201,71,0,201,72,0,200,73,0,201,74,0,200,75,0,200,76,0,200,77,0,200,78,0,200,79,0,201,80,0,201,81,0,200,82,0,200,83,0,200,84,0,200,85,0,201,86,0,201,87,0,200,88,0,200*53
$PAIRSAT,3,23,2,0,1221,3,0,1221,4,0,1200,5,0,200,7,0,1221,8,0,1221,9,0,1200,10,0,1200,11,0,1200,12,0,1200,13,0,1221,15,0,1221,19,0,1200,21,0,1200,24,0,1200,25,0,1200,26,0,1221,27,0,1200,30,0,1221,31,0,1200,33,0,1200,34,0,1200,36,0,1200*6A
$PAIRSAT,4,50,1,0,200,2,0,200,3,0,200,4,0,200,5,0,200,6,0,201,7,0,200,8,0,201,9,0,201,10,0,200,11,0,200,12,0,200,13,0,201,14,0,200,15,0,200,16,0,201,19,0,621,20,0,621,21,0,600,22,0,621,23,0,600,24,0,600,25,0,600,26,0,600,27,0,600,28,0,600,29,0,621,30,0,600,31,0,200,32,0,600,33,0,600,34,0,600,35,0,621,36,0,621,37,0,621,38,0,621,39,0,621,40,0,600,41,0,600,42,0,600,43,0,600,44,0,600,45,0,600,46,0,621,56,0,200,57,0,200,58,0,200,59,0,600,60,0,600,61,0,600*41
$PAIRDGP,8,5,10,12,13,15,18,23,24*72
$GNGGA,112033.200,2500.8100600,N,12132.4755800,E,2,62,0.42,23.01,M,15.25,M,1,3335*77
$GNRMC,112033.200,A,2500.8100600,N,12132.4755800,E,0.00,210.41,260623,,,D,V*0A
$GPHDT,,T*1B
$GNACCURACY,2.7*13
$GNGGA,112033.300,2500.8100500,N,12132.4755900,E,2,62,0.42,23.01,M,15.25,M,1,3335*74
$GNRMC,112033.300,A,2500.8100500,N,12132.4755900,E,0.00,210.41,260623,,,D,V*09
$GPHDT,,T*1B
$GNACCURACY,2.7*13
$GNGGA,112033.400,2500.8100500,N,12132.4755900,E,2,62,0.42,23.01,M,15.25,M,1,3335*73
$GNRMC,112033.400,A,2500.8100500,N,12132.4755900,E,0.00,210.41,260623,,,D,V*0E
$GPHDT,,T*1B
$GNACCURACY,2.7*13
$GNGGA,112033.500,2500.8100500,N,12132.4756000,E,2,62,0.42,23.01,M,15.25,M,1,3335*78
$GNRMC,112033.500,A,2500.8100500,N,12132.4756000,E,0.00,210.41,260623,,,D,V*05
$GPHDT,,T*1B
$GNACCURACY,2.7*13
$GNGGA,112033.600,2500.8100500,N,12132.4756100,E,2,62,0.42,23.01,M,15.25,M,1,3335*7A
$GNRMC,112033.600,A,2500.8100500,N,12132.4756100,E,0.00,210.41,260623,,,D,V*07
