$FW : RTK35X,V1.1X0314AS,Lib20210517,1*54
$Tool : LOCOSYS , GNSS Firebird , v1.0.0.19*39
$---------------------------------------------------*2D
$GNACCURACY,2.8*1C
$GNGGA,112050.000,2500.8106300,N,12132.4750000,E,2,62,0.42,23.13,M,15.25,M,2,3335*7E
$GNRMC,112050.000,A,2500.8106300,N,12132.4750000,E,0.05,210.41,260623,,,D,V*06
$GPHDT,,T*1B
$GNACCURACY,2.8*1C
$GNGGA,112050.100,2500.8106500,N,12132.4749900,E,2,62,0.42,23.14,M,15.25,M,2,3335*7F
$GNRMC,112050.100,A,2500.8106500,N,12132.4749900,E,0.05,210.41,260623,,,D,V*00
$GPHDT,,T*1B
$GNGSA,A,3,24,196,18,199,23,15,195,194,05,12,10,,0.76,0.42,0.63,1*00
$GNGSA,A,3,80,85,73,86,71,69,79,,,,,,0.76,0.42,0.63,2*08
$GNGSA,A,3,13,08,07,26,15,02,30,03,,,,,0.76,0.42,0.63,3*0E
$GNGSA,A,3,38,08,39,13,16,06,46,09,19,20,36,37,0.76,0.42,0.63,4*0C
$GNGSA,A,3,35,29,22,,,,,,,,,,0.76,0.42,0.63,4*0B
$GPGSV,4,1,16,24,76,048,43,196,74,063,40,18,60,252,25,199,60,167,26,1*68
$GPGSV,4,2,16,23,48,337,32,45,47,231,,15,38,044,37,195,35,179,18,1*5A
$GPGSV,4,3,16,194,30,139,25,05,21,116,24,12,19,143,32,10,16,317,35,1*58
$GPGSV,4,4,16,13,10,055,15,32,08,267,30,25,07,178,,29,02,198,,1*6A
$GPGSV,2,1,08,24,76,048,47,196,74,063,46,18,60,252,40,23,48,337,28,8*5A
$GPGSV,2,2,08,195,35,179,31,194,30,139,42,10,16,317,34,32,08,267,28,8*65
$GLGSV,3,1,09,80,48,082,39,70,40,006,13,85,37,249,30,73,35,160,26,1*74
$GLGSV,3,2,09,86,26,305,43,71,21,311,44,69,14,071,25,79,13,034,21,1*7E
$GLGSV,3,3,09,84,11,191,,1*44
$GAGSV,3,1,09,13,58,235,35,08,47,023,44,07,43,300,38,26,31,309,42,7*7D
$GAGSV,3,2,09,15,25,174,22,02,25,088,18,30,24,145,37,03,11,062,21,7*73
$GAGSV,3,3,09,25,03,045,,7*4F
$GAGSV,2,1,06,13,58,235,25,08,47,023,47,07,43,300,38,26,31,309,44,1*71
$GAGSV,2,2,06,02,25,088,32,30,24,145,37,1*76
$GBGSV,4,1,15,38,83,098,40,08,78,005,38,39,72,279,30,13,67,336,40,1*7A
$GBGSV,4,2,15,16,66,254,35,06,65,250,31,46,59,116,40,09,49,236,28,1*73
$GBGSV,4,3,15,19,48,342,28,20,43,059,27,36,32,184,27,37,24,049,31,1*73
$GBGSV,4,4,15,35,22,271,38,29,21,213,25,22,10,299,27,1*42
$GBGSV,3,1,09,38,83,098,41,39,72,279,34,46,59,116,38,19,48,342,29,4*71
$GBGSV,3,2,09,20,43,059,26,36,32,184,25,37,24,049,22,35,22,271,35,4*73
$GBGSV,3,3,09,22,10,299,23,4*48
$GNACCURACY,2.8*1C
$PAIRSAT,1,35,1,0,200,2,0,200,3,0,200,4,0,200,5,0,201,6,0,200,7,0,200,8,0,200,9,0,200,10,0,221,11,0,200,12,0,201,13,0,201,14,0,200,15,0,201,16,0,200,17,0,200,18,0,221,19,0,200,20,0,200,21,0,200,23,0,221,24,0,221,25,0,200,26,0,200,27,0,200,28,0,200,29,0,200,30,0,200,31,0,200,32,0,221,194,0,621,195,0,621,196,0,620,199,0,621*68
$PAIRSAT,2,23,65,0,200,67,0,200,68,0,200,69,0,201,70,0,201,71,0,201,72,0,200,73,0,201,74,0,200,75,0,200,76,0,200,77,0,200,78,0,200,79,0,201,80,0,201,81,0,200,82,0,200,83,0,200,84,0,200,85,0,201,86,0,201,87,0,200,88,0,200*53
$PAIRSAT,3,23,2,0,1221,3,0,1221,4,0,1200,5,0,200,7,0,1221,8,0,1221,9,0,1200,10,0,1200,11,0,1200,12,0,1200,13,0,1221,15,0,1221,19,0,1200,21,0,1200,24,0,1200,25,0,1200,26,0,1221,27,0,1200,30,0,1221,31,0,1200,33,0,1200,34,0,1200,36,0,1200*6A
$PAIRSAT,4,50,1,0,200,2,0,200,3,0,200,4,0,200,5,0,200,6,0,201,7,0,200,8,0,201,9,0,201,10,0,200,11,0,200,12,0,200,13,0,201,14,0,200,15,0,200,16,0,201,19,0,621,20,0,621,21,0,600,22,0,621,23,0,600,24,0,600,25,0,600,26,0,600,27,0,600,28,0,600,29,0,621,30,0,600,31,0,200,32,0,600,33,0,600,34,0,600,35,0,621,36,0,621,37,0,621,38,0,621,39,0,621,40,0,600,41,0,600,42,0,600,43,0,600,44,0,600,45,0,600,46,0,621,56,0,200,57,0,200,58,0,200,59,0,600,60,0,600,61,0,600*41
$PAIRDGP,8,5,10,12,13,15,18,23,24*72
$GNGGA,112050.200,2500.8106500,N,12132.4749900,E,2,63,0.42,23.16,M,15.25,M,2,3335*7F
$GNRMC,112050.200,A,2500.8106500,N,12132.4749900,E,0.05,210.41,260623,,,D,V*03
$GPHDT,,T*1B
$GNACCURACY,2.8*1C
$GNGGA,112050.300,2500.8106800,N,12132.4749900,E,2,63,0.42,23.17,M,15.25,M,2,3335*72
$GNRMC,112050.300,A,2500.8106800,N,12132.4749900,E,0.05,210.41,260623,,,D,V*0F
$GPHDT,,T*1B
$GNACCURACY,2.8*1C
$GNGGA,112050.400,2500.8106900,N,12132.4749800,E,2,62,0.42,23.18,M,15.25,M,2,3335*7B
$GNRMC,112050.400,A,2500.8106900,N,12132.4749800,E,0.05,210.41,260623,,,D,V*08
$GPHDT,,T*1B
$GNACCURACY,2.8*1C
$GNGGA,112050.500,2500.8107100,N,12132.4749800,E,2,63,0.42,23.20,M,15.25,M,2,3335*79
$GNRMC,112050.500,A,2500.8107100,N,12132.4749800,E,0.05,210.41,260623,,,D,V*00
$GPHDT,,T*1B
$GNACCURACY,2.8*1C
$GNGGA,112050.600,2500.8107300,N,12132.4749700,E,2,64,0.42,23.21,M,15.25,M,2,3335*71
$GNRMC,112050.600,A,2500.8107300,N,12132.4749700,E,0.05,210.41,260623,,,D,V*0E
$GPHDT,,T*1B
$GNACCURACY,2.8*1C
$GNGGA,112050.700,2500.8107400,N,12132.4749600,E,2,64,0.42,23.22,M,15.25,M,2,3335*75
$GNRMC,112050.700,A,2500.8107400,N,12132.4749600,E,0.06,210.41,260623,,,D,V*0A
$GPHDT,,T*1B
$GNACCURACY,2.8*1C
$GNGGA,112050.800,2500.8107600,N,12132.4749600,E,2,64,0.42,23.23,M,15.25,M,2,3335*79
$GNRMC,112050.800,A,2500.8107600,N,12132.4749600,E,0.06,210.41,260623,,,D,V*07
$GPHDT,,T*1B
$GNACCURACY,2.8*1C
$GNGGA,112050.900,2500.8107700,N,12132.4749500,E,2,64,0.42,23.25,M,15.25,M,2,3335*7C
$GNRMC,112050.900,A,2500.8107700,N,12132.4749500,E,0.06,210.41,260623,,,D,V*04
$GPHDT,,T*1B
$GNACCURACY,2.8*1C
$GNGGA,112051.000,2500.8108000,N,12132.4749300,E,2,64,0.42,23.26,M,15.25,M,3,3335*78
$GNRMC,112051.000,A,2500.8108000,N,12132.4749300,E,0.06,210.41,260623,,,D,V*02
$GPHDT,,T*1B
$GNACCURACY,2.8*1C
$GNGGA,112051.100,2500.8108200,N,12132.4749300,E,2,64,0.42,23.27,M,15.25,M,3,3335*7A
$GNRMC,112051.100,A,2500.8108200,N,12132.4749300,E,0.06,210.41,260623,,,D,V*01
$GPHDT,,T*1B
$GNGSA,A,3,24,196,18,199,23,15,195,194,05,12,10,,0.76,0.42,0.63,1*00
$GNGSA,A,3,80,85,73,86,71,69,79,,,,,,0.76,0.42,0.63,2*08
$GNGSA,A,3,13,08,07,26,15,02,30,03,,,,,0.76,0.42,0.63,3*0E
$GNGSA,A,3,38,08,39,13,16,06,46,09,19,20,36,37,0.76,0.42,0.63,4*0C
$GNGSA,A,3,35,29,22,,,,,,,,,,0.76,0.42,0.63,4*0B
$GPGSV,4,1,16,24,76,048,43,196,74,063,40,18,60,252,25,199,60,167,25,1*6B
$GPGSV,4,2,16,23,48,337,31,45,47,231,29,15,38,044,37,195,35,179,19,1*53
$GPGSV,4,3,16,194,30,139,22,05,21,116,24,12,19,143,31,10,16,317,35,1*5C
$GPGSV,4,4,16,13,10,055,17,32,08,267,30,25,07,178,,29,02,198,,1*68
$GPGSV,3,1,09,24,76,048,47,196,74,063,46,18,60,252,40,199,60,167,24,8*6B
$GPGSV,3,2,09,23,48,337,28,195,35,179,31,194,30,139,42,10,16,317,35,8*64
$GPGSV,3,3,09,32,08,267,29,8*55
$GLGSV,3,1,09,80,48,082,39,70,40,006,12,85,37,249,30,73,35,160,26,1*75
$GLGSV,3,2,09,86,26,305,43,71,21,311,44,69,14,071,24,79,13,034,22,1*7C
$GLGSV,3,3,09,84,11,191,,1*44
$GAGSV,3,1,09,13,58,235,34,08,47,023,45,07,43,300,38,26,31,309,42,7*7D
$GAGSV,3,2,09,15,25,174,22,02,25,088,19,30,24,145,37,03,11,062,21,7*72
$GAGSV,3,3,09,25,03,045,,7*4F
$GAGSV,2,1,06,13,58,235,25,08,47,023,47,07,43,300,38,26,31,309,44,1*71
$GAGSV,2,2,06,02,25,088,32,30,24,145,39,1*78
$GBGSV,5,1,17,38,83,098,40,08,78,005,38,39,72,279,30,13,67,336,40,1*79
$GBGSV,5,2,17,16,66,254,35,06,65,250,31,46,59,116,41,09,49,236,28,1*71
$GBGSV,5,3,17,56,48,311,,19,48,342,28,20,43,059,29,31,36,209,,1*7F
$GBGSV,5,4,17,36,32,184,28,37,24,049,31,35,22,271,37,29,21,213,25,1*76
$GBGSV,5,5,17,22,10,299,26,1*47
$GBGSV,3,1,09,38,83,098,42,39,72,279,34,46,59,116,38,19,48,342,29,4*72
$GBGSV,3,2,09,20,43,059,25,36,32,184,25,37,24,049,23,35,22,271,35,4*71
$GBGSV,3,3,09,22,10,299,26,4*4D
$GNACCURACY,2.8*1C
$PAIRSAT,1,35,1,0,200,2,0,200,3,0,200,4,0,200,5,0,201,6,0,200,7,0,200,8,0,200,9,0,200,10,0,221,11,0,200,12,0,201,13,0,201,14,0,200,15,0,201,16,0,200,17,0,200,18,0,221,19,0,200,20,0,200,21,0,200,23,0,221,24,0,221,25,0,200,26,0,200,27,0,200,28,0,200,29,0,200,30,0,200,31,0,200,32,0,221,194,0,621,195,0,621,196,0,620,199,0,621*68
$PAIRSAT,2,23,65,0,200,67,0,200,68,0,200,69,0,201,70,0,201,71,0,201,72,0,200,73,0,201,74,0,200,75,0,200,76,0,200,77,0,200,78,0,200,79,0,201,80,0,201,81,0,200,82,0,200,83,0,200,84,0,200,85,0,201,86,0,201,87,0,200,88,0,200*53
$PAIRSAT,3,23,2,0,1221,3,0,1221,4,0,1200,5,0,200,7,0,1221,8,0,1221,9,0,1200,10,0,1200,11,0,1200,12,0,1200,13,0,1221,15,0,1221,19,0,1200,21,0,1200,24,0,1200,25,0,1200,26,0,1221,27,0,1200,30,0,1221,31,0,1200,33,0,1200,34,0,1200,36,0,1200*6A
$PAIRSAT,4,50,1,0,200,2,0,200,3,0,200,4,0,200,5,0,200,6,0,201,7,0,200,8,0,201,9,0,201,10,0,200,11,0,200,12,0,200,13,0,201,14,0,200,15,0,200,16,0,201,19,0,621,20,0,621,21,0,600,22,0,621,23,0,600,24,0,600,25,0,600,26,0,600,27,0,600,28,0,600,29,0,621,30,0,600,31,0,200,32,0,600,33,0,600,34,0,600,35,0,621,36,0,621,37,0,621,38,0,621,39,0,621,40,0,600,41,0,600,42,0,600,43,0,600,44,0,600,45,0,600,46,0,621,56,0,200,57,0,200,58,0,200,59,0,600,60,0,600,61,0,600*41
$PAIRDGP,8,5,10,12,13,15,18,23,24*72
$GNGGA,112051.200,2500.8108300,N,12132.4749200,E,2,64,0.42,23.29,M,15.25,M,3,3335*77
$GNRMC,112051.200,A,2500.8108300,N,12132.4749200,E,0.06,210.41,260623,,,D,V*02
$GPHDT,,T*1B
$GNACCURACY,2.8*1C
$GNGGA,112051.300,2500.8108500,N,12132.4749100,E,2,64,0.42,23.31,M,15.25,M,3,3335*7A
$GNRMC,112051.300,A,2500.8108500,N,12132.4749100,E,0.06,210.41,260623,,,D,V*06
$GPHDT,,T*1B
$GNACCURACY,2.8*1C
$GNGGA,112051.400,2500.8108600,N,12132.4749000,E,2,64,0.42,23.32,M,15.25,M,3,3335*7C
$GNRMC,112051.400,A,2500.8108600,N,12132.4749000,E,0.06,210.41,260623,,,D,V*03
$GPHDT,,T*1B
$GNACCURACY,2.8*1C
$GNGGA,112051.500,2500.8108800,N,12132.4749000,E,2,64,0.42,23.33,M,15.25,M,3,3335*72
$GNRMC,112051.500,A,2500.8108800,N,12132.4749000,E,0.06,210.41,260623,,,D,V*0C
$GPHDT,,T*1B
$GNACCURACY,2.8*1C
$GNGGA,112051.600,2500.8109000,N,12132.4748900,E,2,64,0.42,23.34,M,15.25,M,3,3335*77
$GNRMC,112051.600,A,2500.8109000,N,12132.4748900,E,0.06,210.41,260623,,,D,V*0E
$GPHDT,,T*1B
$GNACCURACY,2.8*1C
$GNGGA,112051.700,2500.8109200,N,12132.4748900,E,2,63,0.42,23.35,M,15.25,M,3,3335*72
$GNRMC,112051.700,A,2500.8109200,N,12132.4748900,E,0.06,210.41,260623,,,D,V*0D
$GPHDT,,T*1B
$GNACCURACY,2.8*1C
$GNGGA,112051.800,2500.8109400,N,12132.4748800,E,2,63,0.42,23.37,M,15.25,M,3,3335*78
$GNRMC,112051.800,A,2500.8109400,N,12132.4748800,E,0.06,210.41,260623,,,D,V*05
$GPHDT,,T*1B
$GNACCURACY,2.8*1C
$GNGGA,112051.900,2500.8109500,N,12132.4748700,E,2,64,0.42,23.38,M,15.25,M,3,3335*7F
$GNRMC,112051.900,A,2500.8109500,N,12132.4748700,E,0.06,210.41,260623,,,D,V*0A
$GPHDT,,T*1B
$GNACCURACY,2.8*1C
$GNGGA,112052.000,2500.8109700,N,12132.4748600,E,2,64,0.42,23.39,M,15.25,M,4,3335*70
$GNRMC,112052.000,A,2500.8109700,N,12132.4748600,E,0.06,210.41,260623,,,D,V*03
$GPHDT,,T*1B
$GNACCURACY,2.7*13
$GNGGA,112052.100,2500.8109900,N,12132.4748600,E,2,64,0.42,23.41,M,15.25,M,4,3335*70
$GNRMC,112052.100,A,2500.8109900,N,12132.4748600,E,0.06,210.41,260623,,,D,V*0C
$GPHDT,,T*1B
$GNGSA,A,3,24,196,18,199,23,15,195,194,05,12,10,,0.76,0.42,0.63,1*00
$GNGSA,A,3,80,85,73,86,71,69,79,,,,,,0.76,0.42,0.63,2*08
$GNGSA,A,3,13,08,07,26,15,02,30,03,,,,,0.76,0.42,0.63,3*0E
$GNGSA,A,3,38,08,39,13,16,06,46,09,19,20,36,37,0.76,0.42,0.63,4*0C
$GNGSA,A,3,35,29,22,,,,,,,,,,0.76,0.42,0.63,4*0B
$GPGSV,4,1,16,24,76,048,43,196,74,063,40,18,60,252,23,199,60,167,25,1*6D
$GPGSV,4,2,16,23,48,337,30,45,47,231,30,15,38,044,37,195,35,179,20,1*50
$GPGSV,4,3,16,194,30,139,35,05,21,116,24,12,19,143,33,10,16,317,35,1*58
$GPGSV,4,4,16,13,10,055,16,32,08,267,31,25,07,178,,29,02,198,,1*68
$GPGSV,3,1,09,24,76,048,47,196,74,063,46,18,60,252,40,199,60,167,25,8*6A
$GPGSV,3,2,09,23,48,337,28,195,35,179,32,194,30,139,45,10,16,317,33,8*66
$GPGSV,3,3,09,32,08,267,28,8*54
$GLGSV,3,1,09,80,48,082,39,70,40,006,13,85,37,249,30,73,35,160,26,1*74
$GLGSV,3,2,09,86,26,305,43,71,21,311,44,69,14,071,24,79,13,034,20,1*7E
$GLGSV,3,3,09,84,11,191,,1*44
$GAGSV,3,1,09,13,58,235,33,08,47,023,45,07,43,300,38,26,31,309,42,7*7A
$GAGSV,3,2,09,15,25,174,23,02,25,088,19,30,24,145,40,03,11,062,21,7*73
$GAGSV,3,3,09,25,03,045,,7*4F
$GAGSV,2,1,06,13,58,235,25,08,47,023,47,07,43,300,38,26,31,309,44,1*71
$GAGSV,2,2,06,02,25,088,32,30,24,145,42,1*74
$GBGSV,5,1,19,38,83,098,40,08,78,005,38,39,72,279,31,13,67,336,40,1*76
$GBGSV,5,2,19,16,66,254,36,06,65,250,29,46,59,116,41,09,49,236,28,1*75
$GBGSV,5,3,19,19,48,342,28,20,43,059,27,31,36,209,,36,32,184,28,1*70
$GBGSV,5,4,19,37,24,049,31,35,22,271,36,29,21,213,25,22,10,299,26,1*7D
$GBGSV,5,5,19,07,05,193,,10,03,203,,44,02,314,,1*40
$GBGSV,3,1,09,38,83,098,42,39,72,279,33,46,59,116,39,19,48,342,29,4*74
$GBGSV,3,2,09,20,43,059,24,36,32,184,24,37,24,049,26,35,22,271,35,4*74
$GBGSV,3,3,09,22,10,299,23,4*48
$GNACCURACY,2.7*13
$PAIRSAT,1,35,1,0,200,2,0,200,3,0,200,4,0,200,5,0,201,6,0,200,7,0,200,8,0,200,9,0,200,10,0,221,11,0,200,12,0,201,13,0,201,14,0,200,15,0,201,16,0,200,17,0,200,18,0,221,19,0,200,20,0,200,21,0,200,23,0,221,24,0,221,25,0,200,26,0,200,27,0,200,28,0,200,29,0,200,30,0,200,31,0,200,32,0,221,194,0,621,195,0,621,196,0,620,199,0,621*68
$PAIRSAT,2,23,65,0,200,67,0,200,68,0,200,69,0,201,70,0,201,71,0,201,72,0,200,73,0,201,74,0,200,75,0,200,76,0,200,77,0,200,78,0,200,79,0,201,80,0,201,81,0,200,82,0,200,83,0,200,84,0,200,85,0,201,86,0,201,87,0,200,88,0,200*53
$PAIRSAT,3,23,2,0,1221,3,0,1221,4,0,1200,5,0,200,7,0,1221,8,0,1221,9,0,1200,10,0,1200,11,0,1200,12,0,1200,13,0,1221,15,0,1221,19,0,1200,21,0,1200,24,0,1200,25,0,1200,26,0,1221,27,0,1200,30,0,1221,31,0,1200,33,0,1200,34,0,1200,36,0,1200*6A
$PAIRSAT,4,50,1,0,200,2,0,200,3,0,200,4,0,200,5,0,200,6,0,201,7,0,200,8,0,201,9,0,201,10,0,200,11,0,200,12,0,200,13,0,201,14,0,200,15,0,200,16,0,201,19,0,621,20,0,621,21,0,600,22,0,621,23,0,600,24,0,600,25,0,600,26,0,600,27,0,600,28,0,600,29,0,621,30,0,600,31,0,200,32,0,600,33,0,600,34,0,600,35,0,621,36,0,621,37,0,621,38,0,621,39,0,621,40,0,600,41,0,600,42,0,600,43,0,600,44,0,600,45,0,600,46,0,621,56,0,200,57,0,200,58,0,200,59,0,600,60,0,600,61,0,600*41
$PAIRDGP,8,5,10,12,13,15,18,23,24*72
$GNGGA,112052.200,2500.8110100,N,12132.4748500,E,2,64,0.42,23.43,M,15.25,M,4,3335*72
$GNRMC,112052.200,A,2500.8110100,N,12132.4748500,E,0.06,210.41,260623,,,D,V*0C
$GPHDT,,T*1B
$GNACCURACY,2.7*13
$GNGGA,112052.300,2500.8110200,N,12132.4748400,E,2,64,0.42,23.44,M,15.25,M,2,3335*70
$GNRMC,112052.300,A,2500.8110200,N,12132.4748400,E,0.06,210.41,260623,,,D,V*0F
$GPHDT,,T*1B
$GNACCURACY,2.7*13
$GNGGA,112052.400,2500.8110400,N,12132.4748400,E,2,65,0.42,23.45,M,15.25,M,2,3335*71
$GNRMC,112052.400,A,2500.8110400,N,12132.4748400,E,0.06,210.41,260623,,,D,V*0E
$GPHDT,,T*1B
$GNACCURACY,2.7*13
$GNGGA,112052.500,2500.8110500,N,12132.4748300,E,2,65,0.42,23.47,M,15.25,M,1,3335*77
$GNRMC,112052.500,A,2500.8110500,N,12132.4748300,E,0.06,210.41,260623,,,D,V*09
$GPHDT,,T*1B
$GNACCURACY,2.7*13
$GNGGA,112052.600,2500.8110600,N,12132.4748300,E,2,65,0.42,23.48,M,15.25,M,1,3335*78
$GNRMC,112052.600,A,2500.8110600,N,12132.4748300,E,0.06,210.41,260623,,,D,V*09
$GPHDT,,T*1B
$GNACCURACY,2.7*13
$GNGGA,112052.700,2500.8110700,N,12132.4748200,E,2,65,0.42,23.50,M,15.25,M,0,3335*71
$GNRMC,112052.700,A,2500.8110700,N,12132.4748200,E,0.05,210.41,260623,,,D,V*0B
$GPHDT,,T*1B
$GNACCURACY,2.7*13
$GNGGA,112052.800,2500.8110900,N,12132.4748100,E,2,65,0.42,23.51,M,15.25,M,0,3335*72
$GNRMC,112052.800,A,2500.8110900,N,12132.4748100,E,0.05,210.41,260623,,,D,V*09
$GPHDT,,T*1B
$GNACCURACY,2.7*13
$GNGGA,112052.900,2500.8111000,N,12132.4748100,E,2,64,0.42,23.53,M,15.25,M,0,3335*78
$GNRMC,112052.900,A,2500.8111000,N,12132.4748100,E,0.05,210.41,260623,,,D,V*00
$GPHDT,,T*1B
$GNACCURACY,2.7*13
$GNGGA,112053.000,2500.8111200,N,12132.4748000,E,2,65,0.42,23.54,M,15.25,M,1,3335*74
$GNRMC,112053.000,A,2500.8111200,N,12132.4748000,E,0.05,210.41,260623,,,D,V*0B
$GPHDT,,T*1B
$GNACCURACY,2.7*13
$GNGGA,112053.100,2500.8111300,N,12132.4748000,E,2,65,0.42,23.55,M,15.25,M,1,3335*75
$GNRMC,112053.100,A,2500.8111300,N,12132.4748000,E,0.05,210.41,260623,,,D,V*0B
$GPHDT,,T*1B
$GNGSA,A,3,24,196,18,199,23,15,195,194,05,12,10,,0.77,0.43,0.64,1*07
$GNGSA,A,3,80,85,73,86,71,79,,,,,,,0.77,0.43,0.64,2*00
$GNGSA,A,3,13,08,07,26,15,02,30,03,,,,,0.77,0.43,0.64,3*09
$GNGSA,A,3,38,08,39,13,16,06,46,09,19,20,36,37,0.77,0.43,0.64,4*0B
$GNGSA,A,3,35,29,22,,,,,,,,,,0.77,0.43,0.64,4*0C
$GPGSV,4,1,16,24,76,048,43,196,74,063,39,18,60,252,22,199,60,167,26,1*61
$GPGSV,4,2,16,23,48,337,28,45,47,231,28,15,38,044,36,195,35,179,20,1*51
$GPGSV,4,3,16,194,30,139,39,05,21,116,24,12,19,143,34,10,16,317,36,1*50
$GPGSV,4,4,16,13,10,055,16,32,08,267,31,25,07,178,,29,02,198,,1*68
$GPGSV,3,1,09,24,76,048,47,196,74,063,46,18,60,252,39,199,60,167,27,8*66
$GPGSV,3,2,09,23,48,337,28,195,35,179,31,194,30,139,45,10,16,317,33,8*65
$GPGSV,3,3,09,32,08,267,27,8*5B
$GLGSV,3,1,09,80,48,082,40,70,40,006,14,85,37,249,29,73,35,160,24,1*77
$GLGSV,3,2,09,86,26,305,43,71,21,311,43,69,14,071,23,79,13,034,18,1*75
$GLGSV,3,3,09,84,11,191,,1*44
$GAGSV,3,1,09,13,58,235,33,08,47,023,45,07,43,300,38,26,31,309,41,7*79
$GAGSV,3,2,09,15,25,174,23,02,25,088,18,30,24,145,39,03,11,062,21,7*7C
$GAGSV,3,3,09,25,03,045,,7*4F
$GAGSV,2,1,07,13,58,235,24,08,47,023,47,07,43,300,38,26,31,309,42,1*77
$GAGSV,2,2,07,02,25,088,31,15,25,174,24,30,24,145,42,1*41
$GBGSV,4,1,15,38,83,098,39,08,78,005,38,39,72,279,31,13,67,336,40,1*75
$GBGSV,4,2,15,16,66,254,36,06,65,250,29,46,59,116,41,09,49,236,25,1*75
$GBGSV,4,3,15,19,48,342,31,20,43,059,31,36,32,184,30,37,24,049,30,1*7B
$GBGSV,4,4,15,35,22,271,36,29,21,213,23,22,10,299,27,1*4A
$GBGSV,3,1,09,38,83,098,42,39,72,279,33,46,59,116,39,19,48,342,28,4*75
$GBGSV,3,2,09,20,43,059,23,36,32,184,24,37,24,049,26,35,22,271,35,4*73
$GBGSV,3,3,09,22,10,299,21,4*4A
$GNACCURACY,2.7*13
$PAIRSAT,1,35,1,0,200,2,0,200,3,0,200,4,0,200,5,0,201,6,0,200,7,0,200,8,0,200,9,0,200,10,0,221,11,0,200,12,0,201,13,0,201,14,0,200,15,0,201,16,0,200,17,0,200,18,0,221,19,0,200,20,0,200,21,0,200,23,0,221,24,0,221,25,0,200,26,0,200,27,0,200,28,0,200,29,0,200,30,0,200,31,0,200,32,0,221,194,0,621,195,0,621,196,0,620,199,0,621*68
$PAIRSAT,2,23,65,0,200,67,0,200,68,0,200,69,0,201,70,0,201,71,0,201,72,0,200,73,0,201,74,0,200,75,0,200,76,0,200,77,0,200,78,0,200,79,0,201,80,0,201,81,0,200,82,0,200,83,0,200,84,0,200,85,0,201,86,0,201,87,0,200,88,0,200*53
$PAIRSAT,3,23,2,0,1221,3,0,1221,4,0,1200,5,0,200,7,0,1221,8,0,1221,9,0,1200,10,0,1200,11,0,1200,12,0,1200,13,0,1221,15,0,1221,19,0,1200,21,0,1200,24,0,1200,25,0,1200,26,0,1221,27,0,1200,30,0,1221,31,0,1200,33,0,1200,34,0,1200,36,0,1200*6A
$PAIRSAT,4,50,1,0,200,2,0,200,3,0,200,4,0,200,5,0,200,6,0,201,7,0,200,8,0,201,9,0,201,10,0,200,11,0,200,12,0,200,13,0,201,14,0,200,15,0,200,16,0,201,19,0,621,20,0,621,21,0,600,22,0,621,23,0,600,24,0,600,25,0,600,26,0,600,27,0,600,28,0,600,29,0,621,30,0,600,31,0,200,32,0,600,33,0,600,34,0,600,35,0,621,36,0,621,37,0,621,38,0,621,39,0,621,40,0,600,41,0,600,42,0,600,43,0,600,44,0,600,45,0,600,46,0,621,56,0,200,57,0,200,58,0,200,59,0,600,60,0,600,61,0,600*41
$PAIRDGP,8,5,10,12,13,15,18,23,24*72
$GNGGA,112053.200,2500.8111400,N,12132.4747900,E,2,64,0.43,23.56,M,15.25,M,1,3335*74
$GNRMC,112053.200,A,2500.8111400,N,12132.4747900,E,0.05,210.41,260623,,,D,V*09
$GPHDT,,T*1B
$GNACCURACY,2.7*13
$GNGGA,112053.300,2500.8111500,N,12132.4747900,E,2,64,0.43,23.57,M,15.25,M,1,3335*75
$GNRMC,112053.300,A,2500.8111500,N,12132.4747900,E,0.05,210.41,260623,,,D,V*09
$GPHDT,,T*1B
$GNACCURACY,2.7*13
$GNGGA,112053.400,2500.8111600,N,12132.4747800,E,2,64,0.43,23.58,M,15.25,M,1,3335*7F
$GNRMC,112053.400,A,2500.8111600,N,12132.4747800,E,0.05,210.41,260623,,,D,V*0C
$GPHDT,,T*1B
$GNACCURACY,2.7*13
$GNGGA,112053.500,2500.8111700,N,12132.4747800,E,2,65,0.42,23.58,M,15.25,M,1,3335*7F
$GNRMC,112053.500,A,2500.8111700,N,12132.4747800,E,0.05,210.41,260623,,,D,V*0C
$GPHDT,,T*1B
$GNACCURACY,2.7*13
$GNGGA,112053.600,2500.8111800,N,12132.4747800,E,2,65,0.42,23.59,M,15.25,M,1,3335*72
$GNRMC,112053.600,A,2500.8111800,N,12132.4747800,E,0.05,210.41,260623,,,D,V*00
$GPHDT,,T*1B
$GNACCURACY,2.7*13
$GNGGA,112053.700,2500.8111900,N,12132.4747800,E,2,65,0.42,23.60,M,15.25,M,1,3335*78
$GNRMC,112053.700,A,2500.8111900,N,12132.4747800,E,0.05,210.41,260623,,,D,V*00
$GPHDT,,T*1B
$GNACCURACY,2.7*13
$GNGGA,112053.800,2500.8111900,N,12132.4747700,E,2,65,0.42,23.60,M,15.25,M,1,3335*78
$GNRMC,112053.800,A,2500.8111900,N,12132.4747700,E,0.05,210.41,260623,,,D,V*00
$GPHDT,,T*1B
$GNACCURACY,2.7*13
$GNGGA,112053.900,2500.8112000,N,12132.4747700,E,2,65,0.42,23.61,M,15.25,M,1,3335*72
$GNRMC,112053.900,A,2500.8112000,N,12132.4747700,E,0.05,210.41,260623,,,D,V*0B
$GPHDT,,T*1B
$GNACCURACY,2.7*13
$GNGGA,112054.000,2500.8112100,N,12132.4747600,E,2,65,0.42,23.61,M,15.25,M,2,3335*7F
$GNRMC,112054.000,A,2500.8112100,N,12132.4747600,E,0.05,210.41,260623,,,D,V*05
$GPHDT,,T*1B
$GNACCURACY,2.7*13
$GNGGA,112054.100,2500.8112100,N,12132.4747600,E,2,65,0.42,23.62,M,15.25,M,2,3335*7D
$GNRMC,112054.100,A,2500.8112100,N,12132.4747600,E,0.05,210.41,260623,,,D,V*04
$GPHDT,,T*1B
$GNGSA,A,3,24,196,18,199,23,15,195,194,05,12,10,,0.76,0.42,0.63,1*00
$GNGSA,A,3,80,85,73,86,71,69,79,,,,,,0.76,0.42,0.63,2*08
$GNGSA,A,3,13,08,07,26,15,02,30,03,,,,,0.76,0.42,0.63,3*0E
$GNGSA,A,3,38,08,39,13,16,06,46,09,19,20,36,37,0.76,0.42,0.63,4*0C
$GNGSA,A,3,35,29,22,,,,,,,,,,0.76,0.42,0.63,4*0B
$GPGSV,4,1,16,24,76,048,43,196,74,063,40,18,60,252,23,199,60,167,25,1*6D
$GPGSV,4,2,16,23,48,337,29,45,47,231,29,15,38,044,36,195,35,179,19,1*5B
$GPGSV,4,3,16,194,30,139,34,05,21,116,26,12,19,143,33,10,16,317,36,1*58
$GPGSV,4,4,16,13,10,055,17,32,08,267,31,25,07,178,,29,02,198,,1*69
$GPGSV,3,1,09,24,76,048,47,196,74,063,45,18,60,252,39,199,60,167,26,8*64
$GPGSV,3,2,09,23,48,337,28,195,35,179,32,194,30,139,44,10,16,317,34,8*60
$GPGSV,3,3,09,32,08,267,27,8*5B
$GLGSV,3,1,09,80,48,082,39,70,40,006,13,85,37,249,30,73,35,160,24,1*76
$GLGSV,3,2,09,86,26,305,43,71,21,311,43,69,14,071,23,79,13,034,18,1*75
$GLGSV,3,3,09,84,11,191,,1*44
$GAGSV,3,1,09,13,58,235,33,08,47,023,45,07,43,300,38,26,31,309,41,7*79
$GAGSV,3,2,09,15,25,174,23,02,25,088,17,30,24,145,38,03,11,062,21,7*72
$GAGSV,3,3,09,25,03,045,,7*4F
$GAGSV,2,1,07,13,58,235,24,08,47,023,47,07,43,300,38,26,31,309,43,1*76
$GAGSV,2,2,07,02,25,088,32,15,25,174,21,30,24,145,41,1*44
$GBGSV,4,1,15,38,83,098,39,08,78,005,38,39,72,279,32,13,67,336,40,1*76
$GBGSV,4,2,15,16,66,254,36,06,65,250,30,46,59,116,42,09,49,236,25,1*7E
$GBGSV,4,3,15,19,48,342,30,20,43,059,30,36,32,184,31,37,24,049,32,1*78
$GBGSV,4,4,15,35,22,271,36,29,21,213,24,22,10,299,27,1*4D
$GBGSV,3,1,09,38,83,098,41,39,72,279,35,46,59,116,40,19,48,342,30,4*77
$GBGSV,3,2,09,20,43,059,25,36,32,184,23,37,24,049,25,35,22,271,35,4*71
$GBGSV,3,3,09,22,10,299,23,4*48
$GNACCURACY,2.7*13
$PAIRSAT,1,35,1,0,200,2,0,200,3,0,200,4,0,200,5,0,201,6,0,200,7,0,200,8,0,200,9,0,200,10,0,221,11,0,200,12,0,201,13,0,201,14,0,200,15,0,201,16,0,200,17,0,200,18,0,221,19,0,200,20,0,200,21,0,200,23,0,221,24,0,221,25,0,200,26,0,200,27,0,200,28,0,200,29,0,200,30,0,200,31,0,200,32,0,221,194,0,621,195,0,621,196,0,620,199,0,621*68
$PAIRSAT,2,23,65,0,200,67,0,200,68,0,200,69,0,201,70,0,201,71,0,201,72,0,200,73,0,201,74,0,200,75,0,200,76,0,200,77,0,200,78,0,200,79,0,201,80,0,201,81,0,200,82,0,200,83,0,200,84,0,200,85,0,201,86,0,201,87,0,200,88,0,200*53
$PAIRSAT,3,23,2,0,1221,3,0,1221,4,0,1200,5,0,200,7,0,1221,8,0,1221,9,0,1200,10,0,1200,11,0,1200,12,0,1200,13,0,1221,15,0,1221,19,0,1200,21,0,1200,24,0,1200,25,0,1200,26,0,1221,27,0,1200,30,0,1221,31,0,1200,33,0,1200,34,0,1200,36,0,1200*6A
$PAIRSAT,4,50,1,0,200,2,0,200,3,0,200,4,0,200,5,0,200,6,0,201,7,0,200,8,0,201,9,0,201,10,0,200,11,0,200,12,0,200,13,0,201,14,0,200,15,0,200,16,0,201,19,0,621,20,0,621,21,0,600,22,0,621,23,0,600,24,0,600,25,0,600,26,0,600,27,0,600,28,0,600,29,0,621,30,0,600,31,0,200,32,0,600,33,0,600,34,0,600,35,0,621,36,0,621,37,0,621,38,0,621,39,0,621,40,0,600,41,0,600,42,0,600,43,0,600,44,0,600,45,0,600,46,0,621,56,0,200,57,0,200,58,0,200,59,0,600,60,0,600,61,0,600*41
$PAIRDGP,8,5,10,12,13,15,18,23,24*72
$GNGGA,112054.200,2500.8112200,N,12132.4747500,E,2,65,0.42,23.63,M,15.25,M,2,3335*7F
$GNRMC,112054.200,A,2500.8112200,N,12132.4747500,E,0.05,210.41,260623,,,D,V*07
$GPHDT,,T*1B
$GNACCURACY,2.7*13
$GNGGA,112054.300,2500.8112200,N,12132.4747500,E,2,65,0.42,23.64,M,15.25,M,2,3335*79
$GNRMC,112054.300,A,2500.8112200,N,12132.4747500,E,0.04,210.41,260623,,,D,V*07
$GPHDT,,T*1B
$GNACCURACY,2.7*13
$GNGGA,112054.400,2500.8112300,N,12132.4747500,E,2,65,0.42,23.64,M,15.25,M,2,3335*7F
$GNRMC,112054.400,A,2500.8112300,N,12132.4747500,E,0.04,210.41,260623,,,D,V*01
$GPHDT,,T*1B
$GNACCURACY,2.7*13
$GNGGA,112054.500,2500.8112400,N,12132.4747500,E,2,65,0.42,23.66,M,15.25,M,2,3335*7B
$GNRMC,112054.500,A,2500.8112400,N,12132.4747500,E,0.04,210.41,260623,,,D,V*07
$GPHDT,,T*1B
$GNACCURACY,2.7*13
$GNGGA,112054.600,2500.8112500,N,12132.4747500,E,2,64,0.43,23.66,M,15.25,M,2,3335*79
$GNRMC,112054.600,A,2500.8112500,N,12132.4747500,E,0.04,210.41,260623,,,D,V*05
$GPHDT,,T*1B
$GNACCURACY,2.7*13
$GNGGA,112054.700,2500.8112600,N,12132.4747500,E,2,64,0.43,23.67,M,15.25,M,2,3335*7A
$GNRMC,112054.700,A,2500.8112600,N,12132.4747500,E,0.04,210.41,260623,,,D,V*07
$GPHDT,,T*1B
$GNACCURACY,2.7*13
$GNGGA,112054.800,2500.8112700,N,12132.4747500,E,2,64,0.43,23.68,M,15.25,M,2,3335*7B
$GNRMC,112054.800,A,2500.8112700,N,12132.4747500,E,0.04,210.41,260623,,,D,V*09
$GPHDT,,T*1B
$GNACCURACY,2.7*13
$GNGGA,112054.900,2500.8112800,N,12132.4747500,E,2,65,0.42,23.68,M,15.25,M,2,3335*75
$GNRMC,112054.900,A,2500.8112800,N,12132.4747500,E,0.04,210.41,260623,,,D,V*07
$GPHDT,,T*1B
$GNACCURACY,2.7*13
$GNGGA,112055.000,2500.8112800,N,12132.4747500,E,2,65,0.42,23.68,M,15.25,M,3,3335*7C
$GNRMC,112055.000,A,2500.8112800,N,12132.4747500,E,0.04,210.41,260623,,,D,V*0F
$GPHDT,,T*1B
$GNACCURACY,2.7*13
$GNGGA,112055.100,2500.8112800,N,12132.4747400,E,2,65,0.42,23.69,M,15.25,M,3,3335*7D
$GNRMC,112055.100,A,2500.8112800,N,12132.4747400,E,0.04,210.41,260623,,,D,V*0F
$GPHDT,,T*1B
$GNGSA,A,3,24,196,18,199,23,15,195,194,05,12,10,,0.76,0.42,0.63,1*00
$GNGSA,A,3,80,85,73,86,71,69,79,,,,,,0.76,0.42,0.63,2*08
$GNGSA,A,3,13,08,07,26,15,02,30,03,,,,,0.76,0.42,0.63,3*0E
$GNGSA,A,3,38,08,39,13,16,06,46,09,19,20,36,37,0.76,0.42,0.63,4*0C
$GNGSA,A,3,35,29,22,,,,,,,,,,0.76,0.42,0.63,4*0B
$GPGSV,4,1,16,24,76,048,43,196,74,063,40,18,60,252,24,199,60,167,24,1*6B
$GPGSV,4,2,16,23,48,337,29,45,47,231,28,15,38,044,36,195,35,179,18,1*5B
$GPGSV,4,3,16,194,30,139,34,05,21,116,25,12,19,143,33,10,16,317,36,1*5B
$GPGSV,4,4,16,13,10,055,18,32,08,267,31,25,07,178,,29,02,198,,1*66
$GPGSV,3,1,09,24,76,048,47,196,74,063,45,18,60,252,39,199,60,167,25,8*67
$GPGSV,3,2,09,23,48,337,28,195,35,179,32,194,30,139,43,10,16,317,33,8*60
$GPGSV,3,3,09,32,08,267,27,8*5B
$GLGSV,3,1,09,80,48,081,38,70,40,006,14,85,37,249,31,73,35,160,24,1*72
$GLGSV,3,2,09,86,26,305,43,71,21,311,43,69,14,071,24,79,13,034,19,1*73
$GLGSV,3,3,09,84,11,191,,1*44
$GAGSV,3,1,09,13,58,235,33,08,47,023,45,07,43,300,38,26,31,309,41,7*79
$GAGSV,3,2,09,15,25,174,23,02,25,088,17,30,24,145,38,03,11,062,21,7*72
$GAGSV,3,3,09,25,03,045,,7*4F
$GAGSV,2,1,07,13,58,235,24,08,47,023,47,07,43,300,38,26,31,309,43,1*76
$GAGSV,2,2,07,02,25,088,32,15,25,174,21,30,24,145,40,1*45
$GBGSV,4,1,15,38,83,098,40,08,78,005,38,39,72,279,32,13,67,336,40,1*78
$GBGSV,4,2,15,16,66,254,36,06,65,250,30,46,59,116,43,09,49,236,25,1*7F
$GBGSV,4,3,15,19,48,342,29,20,43,059,31,36,32,184,30,37,24,049,32,1*70
$GBGSV,4,4,15,35,22,271,36,29,21,213,24,22,10,299,27,1*4D
$GBGSV,3,1,09,38,83,098,41,39,72,279,35,46,59,116,41,19,48,342,30,4*76
$GBGSV,3,2,09,20,43,059,26,36,32,184,23,37,24,049,24,35,22,271,35,4*73
$GBGSV,3,3,09,22,10,299,24,4*4F
$GNACCURACY,2.7*13
$PAIRSAT,1,35,1,0,200,2,0,200,3,0,200,4,0,200,5,0,201,6,0,200,7,0,200,8,0,200,9,0,200,10,0,221,11,0,200,12,0,201,13,0,201,14,0,200,15,0,201,16,0,200,17,0,200,18,0,221,19,0,200,20,0,200,21,0,200,23,0,221,24,0,221,25,0,200,26,0,200,27,0,200,28,0,200,29,0,200,30,0,200,31,0,200,32,0,221,194,0,621,195,0,621,196,0,620,199,0,621*68
$PAIRSAT,2,23,65,0,200,67,0,200,68,0,200,69,0,201,70,0,201,71,0,201,72,0,200,73,0,201,74,0,200,75,0,200,76,0,200,77,0,200,78,0,200,79,0,201,80,0,201,81,0,200,82,0,200,83,0,200,84,0,200,85,0,201,86,0,201,87,0,200,88,0,200*53
$PAIRSAT,3,23,2,0,1221,3,0,1221,4,0,1200,5,0,200,7,0,1221,8,0,1221,9,0,1200,10,0,1200,11,0,1200,12,0,1200,13,0,1221,15,0,1221,19,0,1200,21,0,1200,24,0,1200,25,0,1200,26,0,1221,27,0,1200,30,0,1221,31,0,1200,33,0,1200,34,0,1200,36,0,1200*6A
$PAIRSAT,4,50,1,0,200,2,0,200,3,0,200,4,0,200,5,0,200,6,0,201,7,0,200,8,0,201,9,0,201,10,0,200,11,0,200,12,0,200,13,0,201,14,0,200,15,0,200,16,0,201,19,0,621,20,0,621,21,0,600,22,0,621,23,0,600,24,0,600,25,0,600,26,0,600,27,0,600,28,0,600,29,0,621,30,0,600,31,0,200,32,0,600,33,0,600,34,0,600,35,0,621,36,0,621,37,0,621,38,0,621,39,0,621,40,0,600,41,0,600,42,0,600,43,0,600,44,0,600,45,0,600,46,0,621,56,0,200,57,0,200,58,0,200,59,0,600,60,0,600,61,0,600*41
$PAIRDGP,8,5,10,12,13,15,18,23,24*72
$GNGGA,112055.200,2500.8112800,N,12132.4747400,E,2,65,0.42,23.70,M,15.25,M,3,3335*76
$GNRMC,112055.200,A,2500.8112800,N,12132.4747400,E,0.04,210.41,260623,,,D,V*0C
$GPHDT,,T*1B
$GNACCURACY,2.7*13
$GNGGA,112055.300,2500.8112900,N,12132.4747400,E,2,65,0.42,23.70,M,15.25,M,3,3335*76
$GNRMC,112055.300,A,2500.8112900,N,12132.4747400,E,0.04,210.41,260623,,,D,V*0C
$GPHDT,,T*1B
$GNACCURACY,2.7*13
$GNGGA,112055.400,2500.8113000,N,12132.4747400,E,2,65,0.42,23.71,M,15.25,M,3,3335*78
$GNRMC,112055.400,A,2500.8113000,N,12132.4747400,E,0.04,210.41,260623,,,D,V*03
$GPHDT,,T*1B
$GNACCURACY,2.7*13
$GNGGA,112055.500,2500.8113100,N,12132.4747300,E,2,65,0.42,23.71,M,15.25,M,3,3335*7F
$GNRMC,112055.500,A,2500.8113100,N,12132.4747300,E,0.04,210.41,260623,,,D,V*04
$GPHDT,,T*1B
