$FW : RTK35X,V1.1X0314AS,Lib20210517,1*54
$Tool : LOCOSYS , GNSS Firebird , v1.0.0.19*39
$---------------------------------------------------*2D
$GNACCURACY,2.8*1C
$GNGGA,112154.800,2500.8097700,N,12132.4756200,E,2,62,0.42,22.11,M,15.25,M,54,3335*4A
$GNRMC,112154.800,A,2500.8097700,N,12132.4756200,E,0.03,210.41,260623,,,D,V*04
$GPHDT,,T*1B
$GNACCURACY,2.8*1C
$GNGGA,112154.900,2500.8097700,N,12132.4756200,E,2,62,0.42,22.09,M,15.25,M,54,3335*42
$GNRMC,112154.900,A,2500.8097700,N,12132.4756200,E,0.03,210.41,260623,,,D,V*05
$GPHDT,,T*1B
$GNACCURACY,2.8*1C
$GNGGA,112155.000,2500.8097800,N,12132.4756300,E,2,63,0.42,22.08,M,15.25,M,55,3335*45
$GNRMC,112155.000,A,2500.8097800,N,12132.4756300,E,0.03,210.41,260623,,,D,V*03
$GPHDT,,T*1B
$GNACCURACY,2.8*1C
$GNGGA,112155.100,2500.8097800,N,12132.4756300,E,2,64,0.42,22.07,M,15.25,M,55,3335*4C
$GNRMC,112155.100,A,2500.8097800,N,12132.4756300,E,0.03,210.41,260623,,,D,V*02
$GPHDT,,T*1B
$GNGSA,A,3,24,196,199,18,15,195,194,05,12,10,23,,0.76,0.42,0.63,1*00
$GNGSA,A,3,80,70,85,73,86,71,69,79,,,,,0.76,0.42,0.63,2*0F
$GNGSA,A,3,13,08,07,26,15,30,02,03,,,,,0.76,0.42,0.63,3*0E
$GNGSA,A,3,38,08,39,13,16,06,46,09,19,20,36,37,0.76,0.42,0.63,4*0C
$GNGSA,A,3,35,29,22,,,,,,,,,,0.76,0.42,0.63,4*0B
$GPGSV,4,1,16,24,76,047,43,196,74,064,42,199,60,167,25,18,59,251,16,1*68
$GPGSV,4,2,16,23,49,337,16,15,38,045,30,41,38,241,34,195,35,180,19,1*50
$GPGSV,4,3,16,194,30,139,41,05,20,117,23,12,19,143,34,10,16,318,35,1*54
$GPGSV,4,4,16,13,09,055,18,25,08,177,,32,08,267,24,29,02,198,,1*6A
$GPGSV,2,1,08,24,76,047,47,196,74,064,46,18,59,251,37,23,49,337,31,8*52
$GPGSV,2,2,08,195,35,180,30,194,30,139,43,10,16,318,26,32,08,267,19,8*6D
$GLGSV,2,1,08,80,48,081,43,70,40,007,14,85,37,249,25,73,36,160,30,1*7C
$GLGSV,2,2,08,86,26,305,40,71,21,312,40,69,14,071,28,79,13,034,23,1*75
$GAGSV,3,1,09,13,58,234,29,08,47,023,34,07,43,301,33,26,31,308,42,7*7D
$GAGSV,3,2,09,15,25,174,23,02,25,087,,30,24,145,42,03,11,063,,7*74
$GAGSV,3,3,09,25,03,044,,7*4E
$GAGSV,2,1,08,13,58,234,25,08,47,023,38,07,43,301,37,26,31,308,38,1*72
$GAGSV,2,2,08,15,25,174,20,02,25,087,28,30,24,145,42,03,11,063,21,1*78
$GBGSV,4,1,15,38,83,100,39,08,78,005,36,39,71,280,35,13,67,335,39,1*77
$GBGSV,4,2,15,16,66,255,31,06,65,251,31,46,59,116,45,09,49,236,29,1*73
$GBGSV,4,3,15,19,48,342,28,20,43,060,25,36,33,184,27,37,24,049,25,1*7F
$GBGSV,4,4,15,35,22,271,37,29,20,213,16,22,10,300,26,1*4C
$GBGSV,3,1,10,38,83,100,41,39,71,280,34,46,59,116,44,19,48,342,22,4*7C
$GBGSV,3,2,10,20,43,060,30,36,33,184,21,37,24,049,22,35,22,271,35,4*73
$GBGSV,3,3,10,29,20,213,23,22,10,300,25,4*7F
$GNACCURACY,2.8*1C
$PAIRSAT,1,35,1,0,200,2,0,200,3,0,200,4,0,200,5,0,201,6,0,200,7,0,200,8,0,200,9,0,200,10,0,221,11,0,200,12,0,201,13,0,201,14,0,200,15,0,201,16,0,200,17,0,200,18,0,221,19,0,200,20,0,200,21,0,200,23,0,221,24,0,221,25,0,200,26,0,200,27,0,200,28,0,200,29,0,200,30,0,200,31,0,200,32,0,221,194,0,621,195,0,621,196,0,620,199,0,621*68
$PAIRSAT,2,23,65,0,200,67,0,200,68,0,200,69,0,201,70,0,201,71,0,201,72,0,200,73,0,201,74,0,200,75,0,200,76,0,200,77,0,200,78,0,200,79,0,201,80,0,201,81,0,200,82,0,200,83,0,200,84,0,200,85,0,201,86,0,201,87,0,200,88,0,200*53
$PAIRSAT,3,23,2,0,1221,3,0,1221,4,0,1200,5,0,200,7,0,1221,8,0,1221,9,0,1200,10,0,1200,11,0,1200,12,0,1200,13,0,1221,15,0,1221,19,0,1200,21,0,1200,24,0,1200,25,0,1200,26,0,1221,27,0,1200,30,0,1221,31,0,1200,33,0,1200,34,0,1200,36,0,1200*6A
$PAIRSAT,4,50,1,0,200,2,0,200,3,0,200,4,0,200,5,0,200,6,0,201,7,0,200,8,0,201,9,0,201,10,0,200,11,0,200,12,0,200,13,0,201,14,0,200,15,0,200,16,0,201,19,0,621,20,0,621,21,0,600,22,0,621,23,0,600,24,0,600,25,0,600,26,0,600,27,0,600,28,0,600,29,0,621,30,0,600,31,0,200,32,0,600,33,0,600,34,0,600,35,0,621,36,0,621,37,0,621,38,0,621,39,0,621,40,0,600,41,0,600,42,0,600,43,0,600,44,0,600,45,0,600,46,0,621,56,0,200,57,0,200,58,0,200,59,0,600,60,0,600,61,0,600*41
$PAIRDGP,8,5,10,12,13,15,18,23,24*72
$GNGGA,112155.200,2500.8097900,N,12132.4756400,E,2,64,0.42,22.06,M,15.25,M,55,3335*48
$GNRMC,112155.200,A,2500.8097900,N,12132.4756400,E,0.03,210.41,260623,,,D,V*07
$GPHDT,,T*1B
$GNACCURACY,2.8*1C
$GNGGA,112155.300,2500.8098000,N,12132.4756400,E,2,64,0.42,22.05,M,15.25,M,55,3335*4C
$GNRMC,112155.300,A,2500.8098000,N,12132.4756400,E,0.03,210.41,260623,,,D,V*00
$GPHDT,,T*1B
$GNACCURACY,2.8*1C
$GNGGA,112155.400,2500.8098000,N,12132.4756500,E,2,64,0.42,22.04,M,15.25,M,55,3335*4B
$GNRMC,112155.400,A,2500.8098000,N,12132.4756500,E,0.04,210.41,260623,,,D,V*01
$GPHDT,,T*1B
$GNACCURACY,2.8*1C
$GNGGA,112155.500,2500.8098100,N,12132.4756500,E,2,64,0.42,22.03,M,15.25,M,55,3335*4C
$GNRMC,112155.500,A,2500.8098100,N,12132.4756500,E,0.04,210.41,260623,,,D,V*01
$GPHDT,,T*1B
$GNACCURACY,2.8*1C
$GNGGA,112155.600,2500.8098200,N,12132.4756600,E,2,65,0.42,22.03,M,15.25,M,55,3335*4E
$GNRMC,112155.600,A,2500.8098200,N,12132.4756600,E,0.04,210.41,260623,,,D,V*02
$GPHDT,,T*1B
$GNACCURACY,2.8*1C
$GNGGA,112155.700,2500.8098300,N,12132.4756600,E,2,65,0.42,22.02,M,15.25,M,55,3335*4F
$GNRMC,112155.700,A,2500.8098300,N,12132.4756600,E,0.04,210.41,260623,,,D,V*02
$GPHDT,,T*1B
$GNACCURACY,2.8*1C
$GNGGA,112155.800,2500.8098300,N,12132.4756700,E,2,65,0.42,22.01,M,15.25,M,55,3335*42
$GNRMC,112155.800,A,2500.8098300,N,12132.4756700,E,0.04,210.41,260623,,,D,V*0C
$GPHDT,,T*1B
$GNACCURACY,2.8*1C
$GNGGA,112155.900,2500.8098400,N,12132.4756700,E,2,66,0.42,22.00,M,15.25,M,55,3335*46
$GNRMC,112155.900,A,2500.8098400,N,12132.4756700,E,0.04,210.41,260623,,,D,V*0A
$GPHDT,,T*1B
$GNACCURACY,2.8*1C
$GNGGA,112156.000,2500.8098500,N,12132.4756700,E,2,66,0.42,21.99,M,15.25,M,56,3335*4D
$GNRMC,112156.000,A,2500.8098500,N,12132.4756700,E,0.04,210.41,260623,,,D,V*01
$GPHDT,,T*1B
$GNACCURACY,2.8*1C
$GNGGA,112156.100,2500.8098500,N,12132.4756700,E,2,65,0.42,21.99,M,15.25,M,56,3335*4F
$GNRMC,112156.100,A,2500.8098500,N,12132.4756700,E,0.04,210.41,260623,,,D,V*00
$GPHDT,,T*1B
$GNGSA,A,3,24,196,199,18,23,15,195,194,05,12,10,,0.76,0.42,0.63,1*00
$GNGSA,A,3,80,70,85,73,86,71,69,79,,,,,0.76,0.42,0.63,2*0F
$GNGSA,A,3,13,08,07,26,15,30,02,03,,,,,0.76,0.42,0.63,3*0E
$GNGSA,A,3,38,08,39,13,16,06,46,09,19,20,36,37,0.76,0.42,0.63,4*0C
$GNGSA,A,3,35,29,22,,,,,,,,,,0.76,0.42,0.63,4*0B
$GPGSV,4,1,16,24,76,047,43,196,74,064,42,199,60,167,24,18,59,251,16,1*69
$GPGSV,4,2,16,23,49,337,20,15,38,045,31,41,38,241,34,195,35,180,19,1*54
$GPGSV,4,3,16,194,30,139,41,05,20,117,21,12,19,143,35,10,16,318,34,1*56
$GPGSV,4,4,16,13,09,055,18,25,08,177,,32,08,267,24,29,02,198,,1*6A
$GPGSV,2,1,08,24,76,047,48,196,74,064,46,18,59,251,37,23,49,337,31,8*5D
$GPGSV,2,2,08,195,35,180,30,194,30,139,43,10,16,318,29,32,08,267,20,8*68
$GLGSV,2,1,08,80,48,081,43,70,40,007,14,85,37,249,25,73,36,160,31,1*7D
$GLGSV,2,2,08,86,26,305,39,71,21,312,42,69,14,071,27,79,13,034,23,1*76
$GAGSV,3,1,09,13,58,234,29,08,47,023,42,07,43,301,34,26,31,308,42,7*7B
$GAGSV,3,2,09,02,25,087,,15,24,174,23,30,24,145,42,03,11,063,,7*75
$GAGSV,3,3,09,25,03,044,,7*4E
$GAGSV,2,1,08,13,58,234,24,08,47,023,42,07,43,301,37,26,31,308,37,1*71
$GAGSV,2,2,08,02,25,087,28,15,24,174,21,30,24,145,42,03,11,063,21,1*78
$GBGSV,4,1,15,38,83,100,39,08,78,005,36,39,71,280,35,13,67,335,39,1*77
$GBGSV,4,2,15,16,66,255,32,06,65,251,32,46,59,116,45,09,49,236,29,1*73
$GBGSV,4,3,15,19,48,342,27,20,43,060,24,36,33,184,27,37,24,049,27,1*73
$GBGSV,4,4,15,35,22,271,38,29,20,213,17,22,10,300,29,1*4D
$GBGSV,3,1,10,38,83,100,41,39,71,280,33,46,59,116,45,19,48,342,22,4*7A
$GBGSV,3,2,10,20,43,060,30,36,33,184,20,37,24,049,20,35,22,271,36,4*73
$GBGSV,3,3,10,29,20,213,23,22,10,300,25,4*7F
$GNACCURACY,2.8*1C
$PAIRSAT,1,35,1,0,200,2,0,200,3,0,200,4,0,200,5,0,201,6,0,200,7,0,200,8,0,200,9,0,200,10,0,221,11,0,200,12,0,201,13,0,201,14,0,200,15,0,201,16,0,200,17,0,200,18,0,221,19,0,200,20,0,200,21,0,200,23,0,221,24,0,221,25,0,200,26,0,200,27,0,200,28,0,200,29,0,200,30,0,200,31,0,200,32,0,221,194,0,621,195,0,621,196,0,620,199,0,621*68
$PAIRSAT,2,23,65,0,200,67,0,200,68,0,200,69,0,201,70,0,201,71,0,201,72,0,200,73,0,201,74,0,200,75,0,200,76,0,200,77,0,200,78,0,200,79,0,201,80,0,201,81,0,200,82,0,200,83,0,200,84,0,200,85,0,201,86,0,201,87,0,200,88,0,200*53
$PAIRSAT,3,23,2,0,1221,3,0,1221,4,0,1200,5,0,200,7,0,1221,8,0,1221,9,0,1200,10,0,1200,11,0,1200,12,0,1200,13,0,1221,15,0,1221,19,0,1200,21,0,1200,24,0,1200,25,0,1200,26,0,1221,27,0,1200,30,0,1221,31,0,1200,33,0,1200,34,0,1200,36,0,1200*6A
$PAIRSAT,4,50,1,0,200,2,0,200,3,0,200,4,0,200,5,0,200,6,0,201,7,0,200,8,0,201,9,0,201,10,0,200,11,0,200,12,0,200,13,0,201,14,0,200,15,0,200,16,0,201,19,0,621,20,0,621,21,0,600,22,0,621,23,0,600,24,0,600,25,0,600,26,0,600,27,0,600,28,0,600,29,0,621,30,0,600,31,0,200,32,0,600,33,0,600,34,0,600,35,0,621,36,0,621,37,0,621,38,0,621,39,0,621,40,0,600,41,0,600,42,0,600,43,0,600,44,0,600,45,0,600,46,0,621,56,0,200,57,0,200,58,0,200,59,0,600,60,0,600,61,0,600*41
$PAIRDGP,8,5,10,12,13,15,18,23,24*72
$GNGGA,112156.200,2500.8098600,N,12132.4756800,E,2,65,0.42,21.98,M,15.25,M,56,3335*41
$GNRMC,112156.200,A,2500.8098600,N,12132.4756800,E,0.04,210.41,260623,,,D,V*0F
$GPHDT,,T*1B
$GNACCURACY,2.8*1C
$GNGGA,112156.300,2500.8098600,N,12132.4756800,E,2,64,0.42,21.97,M,15.25,M,56,3335*4E
$GNRMC,112156.300,A,2500.8098600,N,12132.4756800,E,0.04,210.41,260623,,,D,V*0E
$GPHDT,,T*1B
$GNACCURACY,2.8*1C
$GNGGA,112156.400,2500.8098700,N,12132.4756800,E,2,64,0.42,21.96,M,15.25,M,56,3335*49
$GNRMC,112156.400,A,2500.8098700,N,12132.4756800,E,0.04,210.41,260623,,,D,V*08
$GPHDT,,T*1B
$GNACCURACY,2.8*1C
$GNGGA,112156.500,2500.8098800,N,12132.4756800,E,2,64,0.42,21.95,M,15.25,M,56,3335*44
$GNRMC,112156.500,A,2500.8098800,N,12132.4756800,E,0.04,210.41,260623,,,D,V*06
$GPHDT,,T*1B
$GNACCURACY,2.8*1C
$GNGGA,112156.600,2500.8098900,N,12132.4756800,E,2,65,0.42,21.94,M,15.25,M,56,3335*46
$GNRMC,112156.600,A,2500.8098900,N,12132.4756800,E,0.04,210.41,260623,,,D,V*04
$GPHDT,,T*1B
$GNACCURACY,2.8*1C
$GNGGA,112156.700,2500.8098900,N,12132.4756900,E,2,66,0.42,21.94,M,15.25,M,56,3335*45
$GNRMC,112156.700,A,2500.8098900,N,12132.4756900,E,0.04,210.41,260623,,,D,V*04
$GPHDT,,T*1B
$GNACCURACY,2.8*1C
$GNGGA,112156.800,2500.8099000,N,12132.4756900,E,2,66,0.42,21.93,M,15.25,M,56,3335*45
$GNRMC,112156.800,A,2500.8099000,N,12132.4756900,E,0.04,210.41,260623,,,D,V*03
$GPHDT,,T*1B
$GNACCURACY,2.8*1C
$GNGGA,112156.900,2500.8099000,N,12132.4757000,E,2,66,0.42,21.92,M,15.25,M,56,3335*4D
$GNRMC,112156.900,A,2500.8099000,N,12132.4757000,E,0.04,210.41,260623,,,D,V*0A
$GPHDT,,T*1B
$GNACCURACY,2.8*1C
$GNGGA,112157.000,2500.8099100,N,12132.4757000,E,2,67,0.42,21.92,M,15.25,M,57,3335*44
$GNRMC,112157.000,A,2500.8099100,N,12132.4757000,E,0.04,210.41,260623,,,D,V*03
$GPHDT,,T*1B
$GNACCURACY,2.8*1C
$GNGGA,112157.100,2500.8099200,N,12132.4757000,E,2,67,0.42,21.91,M,15.25,M,57,3335*45
$GNRMC,112157.100,A,2500.8099200,N,12132.4757000,E,0.04,210.41,260623,,,D,V*01
$GPHDT,,T*1B
$GNGSA,A,3,24,196,199,18,23,15,195,194,05,12,10,,0.76,0.42,0.63,1*00
$GNGSA,A,3,80,70,85,73,86,71,69,79,,,,,0.76,0.42,0.63,2*0F
$GNGSA,A,3,13,08,07,26,02,15,30,03,,,,,0.76,0.42,0.63,3*0E
$GNGSA,A,3,38,08,39,13,16,06,46,09,19,20,36,37,0.76,0.42,0.63,4*0C
$GNGSA,A,3,35,29,22,,,,,,,,,,0.76,0.42,0.63,4*0B
$GPGSV,4,1,16,24,76,047,43,196,74,064,42,199,60,167,25,18,59,251,17,1*69
$GPGSV,4,2,16,23,49,337,21,15,38,045,31,41,38,241,34,195,35,180,18,1*54
$GPGSV,4,3,16,194,30,139,41,05,20,117,22,12,19,143,34,10,16,318,35,1*55
$GPGSV,4,4,16,13,09,055,16,25,08,177,,32,08,267,24,29,02,198,,1*64
$GPGSV,3,1,09,24,76,047,48,196,74,064,46,199,60,167,22,18,59,251,37,8*63
$GPGSV,3,2,09,23,49,337,27,195,35,180,28,194,30,139,43,10,16,318,28,8*66
$GPGSV,3,3,09,32,08,267,20,8*5C
$GLGSV,2,1,08,80,48,081,43,70,40,007,15,85,37,249,24,73,36,160,31,1*7D
$GLGSV,2,2,08,86,26,305,39,71,21,312,41,69,14,071,27,79,13,034,23,1*75
$GAGSV,3,1,09,13,58,234,30,08,47,023,43,07,43,301,33,26,31,308,42,7*75
$GAGSV,3,2,09,02,25,087,20,15,24,174,22,30,24,145,42,03,11,063,,7*76
$GAGSV,3,3,09,25,03,044,,7*4E
$GAGSV,2,1,08,13,58,234,24,08,47,023,46,07,43,301,38,26,31,308,41,1*7B
$GAGSV,2,2,08,02,25,087,29,15,24,174,19,30,24,145,42,03,11,063,21,1*72
$GBGSV,4,1,15,38,83,100,39,08,78,005,36,39,71,280,35,13,67,335,40,1*79
$GBGSV,4,2,15,16,66,255,32,06,65,251,32,46,59,116,45,09,49,236,29,1*73
$GBGSV,4,3,15,19,48,342,24,20,43,060,21,36,33,184,27,37,24,049,26,1*74
$GBGSV,4,4,15,35,22,271,35,29,20,213,18,22,10,300,28,1*4E
$GBGSV,3,1,10,38,83,100,41,39,71,280,33,46,59,116,45,19,48,342,23,4*7B
$GBGSV,3,2,10,20,43,060,31,36,33,184,19,37,24,049,19,35,22,271,35,4*71
$GBGSV,3,3,10,29,20,213,23,22,10,300,28,4*72
$GNACCURACY,2.8*1C
$PAIRSAT,1,35,1,0,200,2,0,200,3,0,200,4,0,200,5,0,201,6,0,200,7,0,200,8,0,200,9,0,200,10,0,221,11,0,200,12,0,201,13,0,201,14,0,200,15,0,201,16,0,200,17,0,200,18,0,221,19,0,200,20,0,200,21,0,200,23,0,221,24,0,221,25,0,200,26,0,200,27,0,200,28,0,200,29,0,200,30,0,200,31,0,200,32,0,221,194,0,621,195,0,621,196,0,620,199,0,621*68
$PAIRSAT,2,23,65,0,200,67,0,200,68,0,200,69,0,201,70,0,201,71,0,201,72,0,200,73,0,201,74,0,200,75,0,200,76,0,200,77,0,200,78,0,200,79,0,201,80,0,201,81,0,200,82,0,200,83,0,200,84,0,200,85,0,201,86,0,201,87,0,200,88,0,200*53
$PAIRSAT,3,23,2,0,1221,3,0,1221,4,0,1200,5,0,200,7,0,1221,8,0,1221,9,0,1200,10,0,1200,11,0,1200,12,0,1200,13,0,1221,15,0,1221,19,0,1200,21,0,1200,24,0,1200,25,0,1200,26,0,1221,27,0,1200,30,0,1221,31,0,1200,33,0,1200,34,0,1200,36,0,1200*6A
$PAIRSAT,4,50,1,0,200,2,0,200,3,0,200,4,0,200,5,0,200,6,0,201,7,0,200,8,0,201,9,0,201,10,0,200,11,0,200,12,0,200,13,0,201,14,0,200,15,0,200,16,0,201,19,0,621,20,0,621,21,0,600,22,0,621,23,0,600,24,0,600,25,0,600,26,0,600,27,0,600,28,0,600,29,0,621,30,0,600,31,0,200,32,0,600,33,0,600,34,0,600,35,0,621,36,0,621,37,0,621,38,0,621,39,0,621,40,0,600,41,0,600,42,0,600,43,0,600,44,0,600,45,0,600,46,0,621,56,0,200,57,0,200,58,0,200,59,0,600,60,0,600,61,0,600*41
$PAIRDGP,8,5,10,12,13,15,18,23,24*72
$GNGGA,112157.200,2500.8099300,N,12132.4757000,E,2,67,0.42,21.91,M,15.25,M,57,3335*47
$GNRMC,112157.200,A,2500.8099300,N,12132.4757000,E,0.04,210.41,260623,,,D,V*03
$GPHDT,,T*1B
$GNACCURACY,2.8*1C
$GNGGA,112157.300,2500.8099300,N,12132.4757000,E,2,67,0.42,21.91,M,15.25,M,57,3335*46
$GNRMC,112157.300,A,2500.8099300,N,12132.4757000,E,0.04,210.41,260623,,,D,V*02
$GPHDT,,T*1B
$GNACCURACY,2.8*1C
$GNGGA,112157.400,2500.8099400,N,12132.4757000,E,2,67,0.42,21.90,M,15.25,M,57,3335*47
$GNRMC,112157.400,A,2500.8099400,N,12132.4757000,E,0.04,210.41,260623,,,D,V*02
$GPHDT,,T*1B
$GNACCURACY,2.8*1C
$GNGGA,112157.500,2500.8099500,N,12132.4757000,E,2,67,0.42,21.90,M,15.25,M,57,3335*47
$GNRMC,112157.500,A,2500.8099500,N,12132.4757000,E,0.04,210.41,260623,,,D,V*02
$GPHDT,,T*1B
$GNACCURACY,2.8*1C
$GNGGA,112157.600,2500.8099600,N,12132.4757000,E,2,67,0.42,21.89,M,15.25,M,57,3335*4F
$GNRMC,112157.600,A,2500.8099600,N,12132.4757000,E,0.04,210.41,260623,,,D,V*02
$GPHDT,,T*1B
$GNACCURACY,2.8*1C
$GNGGA,112157.700,2500.8099600,N,12132.4757000,E,2,67,0.42,21.89,M,15.25,M,57,3335*4E
$GNRMC,112157.700,A,2500.8099600,N,12132.4757000,E,0.04,210.41,260623,,,D,V*03
$GPHDT,,T*1B
$GNACCURACY,2.8*1C
$GNGGA,112157.800,2500.8099700,N,12132.4757000,E,2,67,0.42,21.89,M,15.25,M,57,3335*40
$GNRMC,112157.800,A,2500.8099700,N,12132.4757000,E,0.04,210.41,260623,,,D,V*0D
$GPHDT,,T*1B
$GNACCURACY,2.8*1C
$GNGGA,112157.900,2500.8099800,N,12132.4757000,E,2,67,0.42,21.88,M,15.25,M,57,3335*4F
$GNRMC,112157.900,A,2500.8099800,N,12132.4757000,E,0.04,210.41,260623,,,D,V*03
$GPHDT,,T*1B
$GNACCURACY,2.8*1C
$GNGGA,112158.000,2500.8099800,N,12132.4756900,E,2,66,0.42,21.88,M,15.25,M,58,3335*4F
$GNRMC,112158.000,A,2500.8099800,N,12132.4756900,E,0.04,210.41,260623,,,D,V*0D
$GPHDT,,T*1B
$GNACCURACY,2.8*1C
$GNGGA,112158.100,2500.8099800,N,12132.4756900,E,2,66,0.42,21.88,M,15.25,M,58,3335*4E
$GNRMC,112158.100,A,2500.8099800,N,12132.4756900,E,0.04,210.41,260623,,,D,V*0C
$GPHDT,,T*1B
$GNGSA,A,3,24,196,199,18,23,15,195,194,05,12,10,,0.76,0.42,0.63,1*00
$GNGSA,A,3,80,70,85,73,86,71,69,79,,,,,0.76,0.42,0.63,2*0F
$GNGSA,A,3,13,08,07,26,02,15,30,03,,,,,0.76,0.42,0.63,3*0E
$GNGSA,A,3,38,08,39,13,16,06,46,09,19,20,36,37,0.76,0.42,0.63,4*0C
$GNGSA,A,3,35,29,22,,,,,,,,,,0.76,0.42,0.63,4*0B
$GPGSV,4,1,16,24,76,047,43,196,74,064,42,199,60,167,24,18,59,251,20,1*6C
$GPGSV,4,2,16,23,49,337,20,15,38,045,31,41,38,241,33,195,35,180,18,1*52
$GPGSV,4,3,16,194,30,139,41,05,20,117,24,12,19,143,34,10,16,318,32,1*54
$GPGSV,4,4,16,13,09,055,17,25,08,177,,32,08,267,24,29,02,198,,1*65
$GPGSV,3,1,09,24,76,047,48,196,74,064,46,199,60,167,23,18,59,251,37,8*62
$GPGSV,3,2,09,23,49,337,27,195,35,180,30,194,30,139,43,10,16,318,25,8*62
$GPGSV,3,3,09,32,08,267,20,8*5C
$GLGSV,2,1,08,80,48,081,43,70,40,007,15,85,37,249,23,73,36,160,31,1*7A
$GLGSV,2,2,08,86,26,305,39,71,21,312,39,69,14,071,27,79,13,034,21,1*78
$GAGSV,3,1,09,13,58,234,31,08,47,023,43,07,43,301,35,26,31,308,42,7*72
$GAGSV,3,2,09,02,25,087,18,15,24,174,22,30,24,145,42,03,11,063,,7*7D
$GAGSV,3,3,09,25,03,044,,7*4E
$GAGSV,2,1,07,13,58,234,24,08,47,023,45,07,43,301,40,02,25,087,28,1*70
$GAGSV,2,2,07,15,24,174,19,30,24,145,42,03,11,063,20,1*4D
$GBGSV,4,1,15,38,83,100,39,08,78,005,36,39,71,280,35,13,67,335,40,1*79
$GBGSV,4,2,15,16,66,255,31,06,65,251,32,46,59,116,45,09,49,236,29,1*70
$GBGSV,4,3,15,19,48,342,31,20,43,060,20,36,33,184,27,37,24,049,28,1*7F
$GBGSV,4,4,15,35,22,271,36,29,20,213,22,22,10,300,27,1*4B
$GBGSV,3,1,10,38,83,100,41,39,71,280,33,46,59,116,45,19,48,342,22,4*7A
$GBGSV,3,2,10,20,43,060,31,36,33,184,18,37,24,049,18,35,22,271,35,4*71
$GBGSV,3,3,10,29,20,213,24,22,10,300,24,4*79
$GNACCURACY,2.8*1C
$PAIRSAT,1,35,1,0,200,2,0,200,3,0,200,4,0,200,5,0,201,6,0,200,7,0,200,8,0,200,9,0,200,10,0,221,11,0,200,12,0,201,13,0,201,14,0,200,15,0,201,16,0,200,17,0,200,18,0,221,19,0,200,20,0,200,21,0,200,23,0,221,24,0,221,25,0,200,26,0,200,27,0,200,28,0,200,29,0,200,30,0,200,31,0,200,32,0,221,194,0,621,195,0,621,196,0,620,199,0,621*68
$PAIRSAT,2,23,65,0,200,67,0,200,68,0,200,69,0,201,70,0,201,71,0,201,72,0,200,73,0,201,74,0,200,75,0,200,76,0,200,77,0,200,78,0,200,79,0,201,80,0,201,81,0,200,82,0,200,83,0,200,84,0,200,85,0,201,86,0,201,87,0,200,88,0,200*53
$PAIRSAT,3,23,2,0,1221,3,0,1221,4,0,1200,5,0,200,7,0,1221,8,0,1221,9,0,1200,10,0,1200,11,0,1200,12,0,1200,13,0,1221,15,0,1221,19,0,1200,21,0,1200,24,0,1200,25,0,1200,26,0,1221,27,0,1200,30,0,1221,31,0,1200,33,0,1200,34,0,1200,36,0,1200*6A
$PAIRSAT,4,50,1,0,200,2,0,200,3,0,200,4,0,200,5,0,200,6,0,201,7,0,200,8,0,201,9,0,201,10,0,200,11,0,200,12,0,200,13,0,201,14,0,200,15,0,200,16,0,201,19,0,621,20,0,621,21,0,600,22,0,621,23,0,600,24,0,600,25,0,600,26,0,600,27,0,600,28,0,600,29,0,621,30,0,600,31,0,200,32,0,600,33,0,600,34,0,600,35,0,621,36,0,621,37,0,621,38,0,621,39,0,621,40,0,600,41,0,600,42,0,600,43,0,600,44,0,600,45,0,600,46,0,621,56,0,200,57,0,200,58,0,200,59,0,600,60,0,600,61,0,600*41
$PAIRDGP,8,5,10,12,13,15,18,23,24*72
$GNGGA,112158.200,2500.8099900,N,12132.4756900,E,2,66,0.42,21.88,M,15.25,M,58,3335*4C
$GNRMC,112158.200,A,2500.8099900,N,12132.4756900,E,0.04,210.41,260623,,,D,V*0E
$GPHDT,,T*1B
$GNACCURACY,2.7*13
$GNGGA,112158.300,2500.8099900,N,12132.4757000,E,2,65,0.42,21.87,M,15.25,M,58,3335*49
$GNRMC,112158.300,A,2500.8099900,N,12132.4757000,E,0.04,210.41,260623,,,D,V*07
$GPHDT,,T*1B
$GNACCURACY,2.7*13
$GNGGA,112158.400,2500.8099900,N,12132.4757000,E,2,66,0.42,21.87,M,15.25,M,58,3335*4D
$GNRMC,112158.400,A,2500.8099900,N,12132.4757000,E,0.04,210.41,260623,,,D,V*00
$GPHDT,,T*1B
$GNACCURACY,2.7*13
$GNGGA,112158.500,2500.8100000,N,12132.4757000,E,2,66,0.42,21.86,M,15.25,M,58,3335*45
$GNRMC,112158.500,A,2500.8100000,N,12132.4757000,E,0.04,210.41,260623,,,D,V*09
$GPHDT,,T*1B
$GNACCURACY,2.7*13
$GNGGA,112158.600,2500.8100100,N,12132.4757100,E,2,66,0.42,21.86,M,15.25,M,58,3335*46
$GNRMC,112158.600,A,2500.8100100,N,12132.4757100,E,0.04,210.41,260623,,,D,V*0A
$GPHDT,,T*1B
$GNACCURACY,2.7*13
$GNGGA,112158.700,2500.8100100,N,12132.4757100,E,2,66,0.42,21.86,M,15.25,M,58,3335*47
$GNRMC,112158.700,A,2500.8100100,N,12132.4757100,E,0.04,210.41,260623,,,D,V*0B
$GPHDT,,T*1B
$GNACCURACY,2.8*1C
$GNGGA,112158.800,2500.8100100,N,12132.4757100,E,2,66,0.42,21.85,M,15.25,M,58,3335*4B
$GNRMC,112158.800,A,2500.8100100,N,12132.4757100,E,0.04,210.41,260623,,,D,V*04
$GPHDT,,T*1B
$GNACCURACY,2.8*1C
$GNGGA,112158.900,2500.8100200,N,12132.4757100,E,2,66,0.42,21.85,M,15.25,M,58,3335*49
$GNRMC,112158.900,A,2500.8100200,N,12132.4757100,E,0.04,210.41,260623,,,D,V*06
$GPHDT,,T*1B
$GNACCURACY,2.7*13
$GNGGA,112159.000,2500.8100200,N,12132.4757100,E,2,66,0.42,21.85,M,15.25,M,59,3335*40
$GNRMC,112159.000,A,2500.8100200,N,12132.4757100,E,0.04,210.41,260623,,,D,V*0E
$GPHDT,,T*1B
$GNACCURACY,2.7*13
$GNGGA,112159.100,2500.8100200,N,12132.4757200,E,2,67,0.42,21.84,M,15.25,M,59,3335*42
$GNRMC,112159.100,A,2500.8100200,N,12132.4757200,E,0.04,210.41,260623,,,D,V*0C
$GPHDT,,T*1B
$GNGSA,A,3,24,196,199,18,23,15,195,194,05,12,10,,0.76,0.42,0.63,1*00
$GNGSA,A,3,80,70,85,73,86,71,69,79,,,,,0.76,0.42,0.63,2*0F
$GNGSA,A,3,13,08,07,26,02,15,30,03,,,,,0.76,0.42,0.63,3*0E
$GNGSA,A,3,38,08,39,13,16,06,46,09,19,20,36,37,0.76,0.42,0.63,4*0C
$GNGSA,A,3,35,29,22,,,,,,,,,,0.76,0.42,0.63,4*0B
$GPGSV,4,1,16,24,76,047,43,196,74,064,42,199,60,167,23,18,59,251,22,1*69
$GPGSV,4,2,16,23,49,337,22,15,38,045,31,41,38,241,32,195,35,180,18,1*51
$GPGSV,4,3,16,194,30,139,41,05,20,117,23,12,19,143,34,10,16,318,32,1*53
$GPGSV,4,4,16,13,09,055,17,25,08,177,,32,08,267,24,29,02,198,,1*65
$GPGSV,3,1,09,24,76,047,48,196,74,064,46,199,60,167,23,18,59,251,37,8*62
$GPGSV,3,2,09,23,49,337,30,195,35,180,30,194,30,139,43,10,16,318,25,8*64
$GPGSV,3,3,09,32,08,267,19,8*56
$GLGSV,2,1,08,80,48,080,42,70,40,007,14,85,37,249,21,73,36,160,31,1*79
$GLGSV,2,2,08,86,26,305,33,71,21,312,38,69,14,071,27,79,13,033,18,1*7E
$GAGSV,3,1,09,13,58,234,29,08,47,023,43,07,43,301,31,26,31,308,38,7*72
$GAGSV,3,2,09,02,25,087,18,15,24,174,23,30,24,145,42,03,11,063,17,7*7A
$GAGSV,3,3,09,25,03,044,,7*4E
$GAGSV,2,1,07,13,58,234,27,08,47,023,45,07,43,301,30,26,31,308,39,1*73
$GAGSV,2,2,07,02,25,087,28,30,24,145,42,03,11,063,21,1*44
$GBGSV,5,1,18,38,83,100,39,08,78,005,37,39,71,280,34,13,67,335,40,1*75
$GBGSV,5,2,18,16,66,255,32,06,65,251,31,46,59,116,45,09,49,236,29,1*7C
$GBGSV,5,3,18,19,48,342,31,56,48,311,,20,43,060,17,31,36,209,,1*7F
$GBGSV,5,4,18,36,33,184,26,37,24,049,28,35,22,271,36,29,20,213,23,1*78
$GBGSV,5,5,18,22,10,300,24,32,03,098,,1*78
$GBGSV,3,1,10,38,83,100,41,39,71,280,34,46,59,116,45,19,48,342,23,4*7C
$GBGSV,3,2,10,20,43,060,32,36,33,184,19,37,24,049,18,35,22,271,35,4*73
$GBGSV,3,3,10,29,20,213,24,22,10,300,25,4*78
$GNACCURACY,2.7*13
$PAIRSAT,1,35,1,0,200,2,0,200,3,0,200,4,0,200,5,0,201,6,0,200,7,0,200,8,0,200,9,0,200,10,0,221,11,0,200,12,0,201,13,0,201,14,0,200,15,0,201,16,0,200,17,0,200,18,0,221,19,0,200,20,0,200,21,0,200,23,0,221,24,0,221,25,0,200,26,0,200,27,0,200,28,0,200,29,0,200,30,0,200,31,0,200,32,0,221,194,0,621,195,0,621,196,0,620,199,0,621*68
$PAIRSAT,2,23,65,0,200,67,0,200,68,0,200,69,0,201,70,0,201,71,0,201,72,0,200,73,0,201,74,0,200,75,0,200,76,0,200,77,0,200,78,0,200,79,0,201,80,0,201,81,0,200,82,0,200,83,0,200,84,0,200,85,0,201,86,0,201,87,0,200,88,0,200*53
$PAIRSAT,3,23,2,0,1221,3,0,1221,4,0,1200,5,0,200,7,0,1221,8,0,1221,9,0,1200,10,0,1200,11,0,1200,12,0,1200,13,0,1221,15,0,1221,19,0,1200,21,0,1200,24,0,1200,25,0,1200,26,0,1221,27,0,1200,30,0,1221,31,0,1200,33,0,1200,34,0,1200,36,0,1200*6A
$PAIRSAT,4,50,1,0,200,2,0,200,3,0,200,4,0,200,5,0,200,6,0,201,7,0,200,8,0,201,9,0,201,10,0,200,11,0,200,12,0,200,13,0,201,14,0,200,15,0,200,16,0,201,19,0,621,20,0,621,21,0,600,22,0,621,23,0,600,24,0,600,25,0,600,26,0,600,27,0,600,28,0,600,29,0,621,30,0,600,31,0,200,32,0,600,33,0,600,34,0,600,35,0,621,36,0,621,37,0,621,38,0,621,39,0,621,40,0,600,41,0,600,42,0,600,43,0,600,44,0,600,45,0,600,46,0,621,56,0,200,57,0,200,58,0,200,59,0,600,60,0,600,61,0,600*41
$PAIRDGP,8,5,10,12,13,15,18,23,24*72
$GNGGA,112159.200,2500.8100200,N,12132.4757200,E,2,67,0.42,21.84,M,15.25,M,59,3335*41
$GNRMC,112159.200,A,2500.8100200,N,12132.4757200,E,0.04,210.41,260623,,,D,V*0F
$GPHDT,,T*1B
$GNACCURACY,2.7*13
$GNGGA,112159.300,2500.8100300,N,12132.4757200,E,2,67,0.42,21.83,M,15.25,M,59,3335*46
$GNRMC,112159.300,A,2500.8100300,N,12132.4757200,E,0.04,210.41,260623,,,D,V*0F
$GPHDT,,T*1B
$GNACCURACY,2.8*1C
$GNGGA,112159.400,2500.8100400,N,12132.4757300,E,2,67,0.42,21.83,M,15.25,M,59,3335*47
$GNRMC,112159.400,A,2500.8100400,N,12132.4757300,E,0.04,210.41,260623,,,D,V*0E
$GPHDT,,T*1B
$GNACCURACY,2.8*1C
$GNGGA,112159.500,2500.8100300,N,12132.4757300,E,2,66,0.42,21.83,M,15.25,M,59,3335*40
$GNRMC,112159.500,A,2500.8100300,N,12132.4757300,E,0.04,210.41,260623,,,D,V*08
$GPHDT,,T*1B
$GNACCURACY,2.8*1C
$GNGGA,112159.600,2500.8100300,N,12132.4757400,E,2,67,0.42,21.83,M,15.25,M,59,3335*45
$GNRMC,112159.600,A,2500.8100300,N,12132.4757400,E,0.04,210.41,260623,,,D,V*0C
$GPHDT,,T*1B
$GNACCURACY,2.8*1C
$GNGGA,112159.700,2500.8100300,N,12132.4757400,E,2,67,0.42,21.84,M,15.25,M,59,3335*43
$GNRMC,112159.700,A,2500.8100300,N,12132.4757400,E,0.04,210.41,260623,,,D,V*0D
$GPHDT,,T*1B
$GNACCURACY,2.8*1C
$GNGGA,112159.800,2500.8100300,N,12132.4757400,E,2,67,0.42,21.84,M,15.25,M,59,3335*4C
$GNRMC,112159.800,A,2500.8100300,N,12132.4757400,E,0.04,210.41,260623,,,D,V*02
$GPHDT,,T*1B
$GNACCURACY,2.8*1C
$GNGGA,112159.900,2500.8100300,N,12132.4757500,E,2,67,0.42,21.84,M,15.25,M,59,3335*4C
$GNRMC,112159.900,A,2500.8100300,N,12132.4757500,E,0.04,210.41,260623,,,D,V*02
$GPHDT,,T*1B
$GNACCURACY,2.8*1C
$GNGGA,112200.000,2500.8100400,N,12132.4757500,E,2,67,0.42,21.84,M,15.25,M,60,3335*47
$GNRMC,112200.000,A,2500.8100400,N,12132.4757500,E,0.04,210.41,260623,,,D,V*03
$GPHDT,,T*1B
$GNACCURACY,2.8*1C
$GNGGA,112200.100,2500.8100300,N,12132.4757600,E,2,67,0.42,21.84,M,15.25,M,60,3335*42
$GNRMC,112200.100,A,2500.8100300,N,12132.4757600,E,0.04,210.41,260623,,,D,V*06
$GPHDT,,T*1B
$GNGSA,A,3,24,196,199,18,23,15,195,194,05,12,10,,0.76,0.42,0.63,1*00
$GNGSA,A,3,80,70,85,73,86,71,69,79,,,,,0.76,0.42,0.63,2*0F
$GNGSA,A,3,13,08,07,26,02,30,15,03,,,,,0.76,0.42,0.63,3*0E
$GNGSA,A,3,38,08,39,13,16,06,46,09,19,20,36,37,0.76,0.42,0.63,4*0C
$GNGSA,A,3,35,29,22,,,,,,,,,,0.76,0.42,0.63,4*0B
$GPGSV,4,1,16,24,76,047,43,196,74,064,42,199,60,167,23,18,59,251,20,1*6B
$GPGSV,4,2,16,23,49,337,24,15,38,045,32,41,38,241,32,195,35,180,18,1*54
$GPGSV,4,3,16,194,30,139,41,05,20,117,25,12,19,143,34,10,16,318,32,1*55
$GPGSV,4,4,16,13,09,055,19,25,08,177,,32,08,267,22,29,02,198,,1*6D
$GPGSV,3,1,09,24,76,047,48,196,74,064,46,199,60,167,21,18,59,251,37,8*60
$GPGSV,3,2,09,23,49,337,30,195,35,180,30,194,30,139,43,10,16,318,24,8*65
$GPGSV,3,3,09,32,08,267,23,8*5F
$GLGSV,3,1,09,80,48,080,42,70,40,007,15,85,37,249,21,73,36,160,30,1*79
$GLGSV,3,2,09,86,26,304,27,71,21,312,37,69,14,071,28,79,13,033,16,1*74
$GLGSV,3,3,09,84,10,191,,1*45
$GAGSV,3,1,09,13,58,234,29,08,47,023,43,07,43,301,27,26,31,308,39,7*74
$GAGSV,3,2,09,02,25,087,18,30,24,145,42,15,24,174,23,03,11,063,15,7*78
$GAGSV,3,3,09,25,03,044,,7*4E
$GAGSV,2,1,07,13,58,234,27,08,47,023,45,07,43,301,33,26,31,308,39,1*70
$GAGSV,2,2,07,02,25,087,28,30,24,145,42,03,11,063,21,1*44
$GBGSV,4,1,15,38,83,100,39,08,78,005,37,39,71,280,33,13,67,335,39,1*70
$GBGSV,4,2,15,16,66,255,33,06,65,251,32,46,59,116,45,09,49,236,30,1*7A
$GBGSV,4,3,15,19,48,342,31,20,43,060,14,36,33,184,25,37,24,049,27,1*75
$GBGSV,