$FW : RTK35X,V1.1X0314AS,Lib20210517,1*54
$Tool : LOCOSYS , GNSS Firebird , v1.0.0.19*39
$---------------------------------------------------*2D
$GNACCURACY,2.7*13
$GNGGA,112009.100,2500.8106600,N,12132.4747300,E,2,65,0.42,21.83,M,15.25,M,41,3335*48
$GNRMC,112009.100,A,2500.8106600,N,12132.4747300,E,0.02,210.41,260623,,,D,V*0C
$GPHDT,,T*1B
$GNGSA,A,3,24,196,199,18,23,15,195,194,05,12,10,13,0.67,0.42,0.53,1*01
$GNGSA,A,3,80,70,85,73,86,71,69,79,,,,,0.67,0.42,0.53,2*0C
$GNGSA,A,3,13,08,07,26,02,15,30,,,,,,0.67,0.42,0.53,3*0E
$GNGSA,A,3,38,08,39,13,16,06,46,09,19,20,36,37,0.67,0.42,0.53,4*0F
$GNGSA,A,3,35,29,22,,,,,,,,,,0.67,0.42,0.53,4*08
$GPGSV,4,1,15,24,77,049,43,196,74,063,40,199,60,167,23,18,60,252,27,1*6C
$GPGSV,4,2,15,23,48,336,26,15,38,044,34,195,35,179,22,194,30,139,41,1*64
$GPGSV,4,3,15,05,21,116,27,12,18,143,33,10,16,317,37,13,10,055,19,1*62
$GPGSV,4,4,15,32,08,267,16,25,07,178,,29,02,198,,1*5A
$GPGSV,3,1,09,24,77,049,47,196,74,063,46,18,60,252,36,199,60,167,23,8*6D
$GPGSV,3,2,09,23,48,336,23,195,35,179,31,194,30,139,43,10,16,317,33,8*69
$GPGSV,3,3,09,32,08,267,22,8*5E
$GLGSV,3,1,09,80,48,082,40,70,40,006,18,85,37,250,25,73,35,160,36,1*7C
$GLGSV,3,2,09,86,26,306,38,71,20,311,42,69,14,070,26,79,13,034,17,1*71
$GLGSV,3,3,09,84,11,191,,1*44
$GAGSV,3,1,09,13,58,235,33,08,48,022,45,07,43,300,37,26,31,309,41,7*78
$GAGSV,3,2,09,02,25,088,30,15,25,174,17,30,24,145,41,03,11,062,,7*7D
$GAGSV,3,3,09,25,03,045,,7*4F
$GAGSV,2,1,06,13,58,235,27,08,48,022,48,07,43,300,37,26,31,309,42,1*7B
$GAGSV,2,2,06,02,25,088,36,30,24,145,37,1*72
$GBGSV,4,1,15,38,83,096,40,08,77,005,39,39,72,278,26,13,67,336,40,1*7C
$GBGSV,4,2,15,16,66,254,32,06,65,250,20,46,58,117,42,09,49,236,24,1*7A
$GBGSV,4,3,15,19,48,342,29,20,43,059,29,36,32,184,29,37,24,049,28,1*7A
$GBGSV,4,4,15,35,22,272,21,29,21,214,21,22,10,299,19,1*47
$GBGSV,3,1,09,38,83,096,42,39,72,278,35,46,58,117,41,19,48,342,20,4*7B
$GBGSV,3,2,09,20,43,059,25,36,32,184,27,37,24,049,21,35,22,272,36,4*71
$GBGSV,3,3,09,29,21,214,18,4*4C
$GNACCURACY,2.7*13
$PAIRSAT,1,35,1,0,200,2,0,200,3,0,200,4,0,200,5,0,201,6,0,200,7,0,200,8,0,200,9,0,200,10,0,221,11,0,200,12,0,201,13,0,201,14,0,200,15,0,201,16,0,200,17,0,200,18,0,221,19,0,200,20,0,200,21,0,200,23,0,221,24,0,221,25,0,200,26,0,200,27,0,200,28,0,200,29,0,200,30,0,200,31,0,200,32,0,220,194,0,621,195,0,621,196,0,620,199,0,621*69
$PAIRSAT,2,23,65,0,200,67,0,200,68,0,200,69,0,201,70,0,201,71,0,201,72,0,200,73,0,201,74,0,200,75,0,200,76,0,200,77,0,200,78,0,200,79,0,201,80,0,201,81,0,200,82,0,200,83,0,200,84,0,200,85,0,201,86,0,201,87,0,200,88,0,200*53
$PAIRSAT,3,23,2,0,1221,3,0,1221,4,0,1200,5,0,200,7,0,1221,8,0,1221,9,0,1200,10,0,1200,11,0,1200,12,0,1200,13,0,1221,15,0,1221,19,0,1200,21,0,1200,24,0,1200,25,0,1200,26,0,1221,27,0,1200,30,0,1221,31,0,1200,33,0,1200,34,0,1200,36,0,1200*6A
$PAIRSAT,4,50,1,0,200,2,0,200,3,0,200,4,0,200,5,0,200,6,0,201,7,0,200,8,0,201,9,0,201,10,0,200,11,0,200,12,0,200,13,0,201,14,0,200,15,0,200,16,0,201,19,0,621,20,0,621,21,0,600,22,0,621,23,0,600,24,0,600,25,0,600,26,0,600,27,0,600,28,0,600,29,0,621,30,0,600,31,0,200,32,0,600,33,0,600,34,0,600,35,0,621,36,0,621,37,0,621,38,0,621,39,0,621,40,0,600,41,0,600,42,0,600,43,0,600,44,0,600,45,0,600,46,0,621,56,0,200,57,0,200,58,0,200,59,0,600,60,0,600,61,0,600*41
$PAIRDGP,8,5,10,12,13,15,18,23,24*72
$GNGGA,112009.200,2500.8106600,N,12132.4747300,E,2,65,0.42,21.84,M,15.25,M,41,3335*4C
$GNRMC,112009.200,A,2500.8106600,N,12132.4747300,E,0.02,210.41,260623,,,D,V*0F
$GPHDT,,T*1B
$GNACCURACY,2.7*13
$GNGGA,112009.300,2500.8106600,N,12132.4747200,E,2,65,0.42,21.84,M,15.25,M,41,3335*4C
$GNRMC,112009.300,A,2500.8106600,N,12132.4747200,E,0.03,210.41,260623,,,D,V*0E
$GPHDT,,T*1B
$GNACCURACY,2.7*13
$GNGGA,112009.400,2500.8106600,N,12132.4747200,E,2,65,0.42,21.85,M,15.25,M,41,3335*4A
$GNRMC,112009.400,A,2500.8106600,N,12132.4747200,E,0.03,210.41,260623,,,D,V*09
$GPHDT,,T*1B
$GNACCURACY,2.7*13
$GNGGA,112009.500,2500.8106500,N,12132.4747200,E,2,66,0.42,21.85,M,15.25,M,41,3335*4B
$GNRMC,112009.500,A,2500.8106500,N,12132.4747200,E,0.02,210.41,260623,,,D,V*0A
$GPHDT,,T*1B
$GNACCURACY,2.7*13
$GNGGA,112009.600,2500.8106500,N,12132.4747100,E,2,66,0.42,21.86,M,15.25,M,41,3335*48
$GNRMC,112009.600,A,2500.8106500,N,12132.4747100,E,0.02,210.41,260623,,,D,V*0A
$GPHDT,,T*1B
$GNACCURACY,2.7*13
$GNGGA,112009.700,2500.8106500,N,12132.4747000,E,2,66,0.42,21.86,M,15.25,M,41,3335*48
$GNRMC,112009.700,A,2500.8106500,N,12132.4747000,E,0.02,210.41,260623,,,D,V*0A
$GPHDT,,T*1B
$GNACCURACY,2.7*13
$GNGGA,112009.800,2500.8106500,N,12132.4746900,E,2,66,0.42,21.87,M,15.25,M,41,3335*4E
$GNRMC,112009.800,A,2500.8106500,N,12132.4746900,E,0.02,210.41,260623,,,D,V*0D
$GPHDT,,T*1B
$GNACCURACY,2.7*13
$GNGGA,112009.900,2500.8106500,N,12132.4746900,E,2,66,0.42,21.87,M,15.25,M,41,3335*4F
$GNRMC,112009.900,A,2500.8106500,N,12132.4746900,E,0.02,210.41,260623,,,D,V*0C
$GPHDT,,T*1B
$GNACCURACY,2.7*13
$GNGGA,112010.000,2500.8106500,N,12132.4746900,E,2,66,0.42,21.87,M,15.25,M,42,3335*4D
$GNRMC,112010.000,A,2500.8106500,N,12132.4746900,E,0.01,210.41,260623,,,D,V*0E
$GPHDT,,T*1B
$GNACCURACY,2.7*13
$GNGGA,112010.100,2500.8106500,N,12132.4746900,E,2,66,0.42,21.88,M,15.25,M,42,3335*43
$GNRMC,112010.100,A,2500.8106500,N,12132.4746900,E,0.02,210.41,260623,,,D,V*0C
$GPHDT,,T*1B
$GNGSA,A,3,24,196,199,18,23,15,195,194,05,12,10,13,0.67,0.42,0.53,1*01
$GNGSA,A,3,80,70,85,73,86,71,69,79,,,,,0.67,0.42,0.53,2*0C
$GNGSA,A,3,13,08,07,26,02,15,30,,,,,,0.67,0.42,0.53,3*0E
$GNGSA,A,3,38,08,39,13,16,06,46,09,19,20,36,37,0.67,0.42,0.53,4*0F
$GNGSA,A,3,35,29,22,,,,,,,,,,0.67,0.42,0.53,4*08
$GPGSV,4,1,15,24,77,049,43,196,74,063,40,199,60,167,23,18,60,252,27,1*6C
$GPGSV,4,2,15,23,48,336,26,15,38,044,34,195,35,179,22,194,30,139,41,1*64
$GPGSV,4,3,15,05,21,116,27,12,18,143,33,10,16,317,37,13,10,055,19,1*62
$GPGSV,4,4,15,32,08,267,16,25,07,178,,29,02,198,,1*5A
$GPGSV,3,1,09,24,77,049,47,196,74,063,46,18,60,252,36,199,60,167,22,8*6C
$GPGSV,3,2,09,23,48,336,24,195,35,179,31,194,30,139,43,10,16,317,33,8*6E
$GPGSV,3,3,09,32,08,267,23,8*5F
$GLGSV,3,1,09,80,48,082,39,70,40,006,17,85,37,250,25,73,35,160,36,1*7D
$GLGSV,3,2,09,86,26,306,38,71,20,311,43,69,14,070,25,79,13,034,16,1*72
$GLGSV,3,3,09,84,11,191,,1*44
$GAGSV,3,1,09,13,58,235,33,08,48,022,45,07,43,300,38,26,31,309,41,7*77
$GAGSV,3,2,09,02,25,088,30,15,25,174,17,30,24,145,41,03,11,062,,7*7D
$GAGSV,3,3,09,25,03,045,,7*4F
$GAGSV,2,1,06,13,58,235,28,08,48,022,48,07,43,300,37,26,31,309,42,1*74
$GAGSV,2,2,06,02,25,088,36,30,24,145,37,1*72
$GBGSV,4,1,15,38,83,096,40,08,77,005,39,39,72,278,25,13,67,336,40,1*7F
$GBGSV,4,2,15,16,66,254,32,06,65,250,20,46,58,117,42,09,49,236,25,1*7B
$GBGSV,4,3,15,19,48,342,29,20,43,059,28,36,32,184,29,37,24,049,29,1*7A
$GBGSV,4,4,15,35,22,271,19,29,21,214,21,22,10,299,19,1*4F
$GBGSV,3,1,10,38,83,096,42,39,72,278,35,46,58,117,41,19,48,342,21,4*72
$GBGSV,3,2,10,20,43,059,24,36,32,184,27,37,24,049,21,35,22,271,36,4*7B
$GBGSV,3,3,10,29,21,214,20,22,10,299,21,4*7F
$GNACCURACY,2.7*13
$PAIRSAT,1,35,1,0,200,2,0,200,3,0,200,4,0,200,5,0,201,6,0,200,7,0,200,8,0,200,9,0,200,10,0,221,11,0,200,12,0,201,13,0,201,14,0,200,15,0,201,16,0,200,17,0,200,18,0,221,19,0,200,20,0,200,21,0,200,23,0,221,24,0,221,25,0,200,26,0,200,27,0,200,28,0,200,29,0,200,30,0,200,31,0,200,32,0,220,194,0,621,195,0,621,196,0,620,199,0,621*69
$PAIRSAT,2,23,65,0,200,67,0,200,68,0,200,69,0,201,70,0,201,71,0,201,72,0,200,73,0,201,74,0,200,75,0,200,76,0,200,77,0,200,78,0,200,79,0,201,80,0,201,81,0,200,82,0,200,83,0,200,84,0,200,85,0,201,86,0,201,87,0,200,88,0,200*53
$PAIRSAT,3,23,2,0,1221,3,0,1221,4,0,1200,5,0,200,7,0,1221,8,0,1221,9,0,1200,10,0,1200,11,0,1200,12,0,1200,13,0,1221,15,0,1221,19,0,1200,21,0,1200,24,0,1200,25,0,1200,26,0,1221,27,0,1200,30,0,1221,31,0,1200,33,0,1200,34,0,1200,36,0,1200*6A
$PAIRSAT,4,50,1,0,200,2,0,200,3,0,200,4,0,200,5,0,200,6,0,201,7,0,200,8,0,201,9,0,201,10,0,200,11,0,200,12,0,200,13,0,201,14,0,200,15,0,200,16,0,201,19,0,621,20,0,621,21,0,600,22,0,621,23,0,600,24,0,600,25,0,600,26,0,600,27,0,600,28,0,600,29,0,621,30,0,600,31,0,200,32,0,600,33,0,600,34,0,600,35,0,621,36,0,621,37,0,621,38,0,621,39,0,621,40,0,600,41,0,600,42,0,600,43,0,600,44,0,600,45,0,600,46,0,621,56,0,200,57,0,200,58,0,200,59,0,600,60,0,600,61,0,600*41
$PAIRDGP,8,5,10,12,13,15,18,23,24*72
$GNGGA,112010.200,2500.8106500,N,12132.4746800,E,2,66,0.42,21.88,M,15.25,M,42,3335*41
$GNRMC,112010.200,A,2500.8106500,N,12132.4746800,E,0.01,210.41,260623,,,D,V*0D
$GPHDT,,T*1B
$GNACCURACY,2.7*13
$GNGGA,112010.300,2500.8106400,N,12132.4746800,E,2,66,0.42,21.88,M,15.25,M,42,3335*41
$GNRMC,112010.300,A,2500.8106400,N,12132.4746800,E,0.01,210.41,260623,,,D,V*0D
$GPHDT,,T*1B
$GNACCURACY,2.7*13
$GNGGA,112010.400,2500.8106400,N,12132.4746800,E,2,66,0.42,21.89,M,15.25,M,42,3335*47
$GNRMC,112010.400,A,2500.8106400,N,12132.4746800,E,0.02,210.41,260623,,,D,V*09
$GPHDT,,T*1B
$GNACCURACY,2.7*13
$GNGGA,112010.500,2500.8106400,N,12132.4746800,E,2,66,0.42,21.90,M,15.25,M,42,3335*4E
$GNRMC,112010.500,A,2500.8106400,N,12132.4746800,E,0.01,210.41,260623,,,D,V*0B
$GPHDT,,T*1B
$GNACCURACY,2.7*13
$GNGGA,112010.600,2500.8106400,N,12132.4746700,E,2,66,0.42,21.90,M,15.25,M,42,3335*42
$GNRMC,112010.600,A,2500.8106400,N,12132.4746700,E,0.02,210.41,260623,,,D,V*04
$GPHDT,,T*1B
$GNACCURACY,2.7*13
$GNGGA,112010.700,2500.8106400,N,12132.4746600,E,2,66,0.42,21.91,M,15.25,M,42,3335*43
$GNRMC,112010.700,A,2500.8106400,N,12132.4746600,E,0.02,210.41,260623,,,D,V*04
$GPHDT,,T*1B
$GNACCURACY,2.7*13
$GNGGA,112010.800,2500.8106300,N,12132.4746600,E,2,66,0.42,21.91,M,15.25,M,42,3335*4B
$GNRMC,112010.800,A,2500.8106300,N,12132.4746600,E,0.03,210.41,260623,,,D,V*0D
$GPHDT,,T*1B
$GNACCURACY,2.7*13
$GNGGA,112010.900,2500.8106300,N,12132.4746600,E,2,65,0.42,21.91,M,15.25,M,42,3335*49
$GNRMC,112010.900,A,2500.8106300,N,12132.4746600,E,0.03,210.41,260623,,,D,V*0C
$GPHDT,,T*1B
$GNACCURACY,2.7*13
$GNGGA,112011.000,2500.8106300,N,12132.4746600,E,2,65,0.42,21.91,M,15.25,M,43,3335*40
$GNRMC,112011.000,A,2500.8106300,N,12132.4746600,E,0.02,210.41,260623,,,D,V*05
$GPHDT,,T*1B
$GNACCURACY,2.7*13
$GNGGA,112011.100,2500.8106300,N,12132.4746600,E,2,66,0.42,21.92,M,15.25,M,43,3335*41
$GNRMC,112011.100,A,2500.8106300,N,12132.4746600,E,0.02,210.41,260623,,,D,V*04
$GPHDT,,T*1B
$GNGSA,A,3,24,196,199,18,23,15,195,194,05,12,10,13,0.67,0.42,0.53,1*01
$GNGSA,A,3,80,70,85,73,86,71,69,79,,,,,0.67,0.42,0.53,2*0C
$GNGSA,A,3,13,08,07,26,02,15,30,,,,,,0.67,0.42,0.53,3*0E
$GNGSA,A,3,38,08,39,13,16,06,46,09,19,20,36,37,0.67,0.42,0.53,4*0F
$GNGSA,A,3,35,29,22,,,,,,,,,,0.67,0.42,0.53,4*08
$GPGSV,4,1,15,24,77,049,43,196,74,063,40,199,60,167,23,18,60,252,26,1*6D
$GPGSV,4,2,15,23,48,336,26,15,38,044,34,195,35,179,22,194,30,139,41,1*64
$GPGSV,4,3,15,05,21,116,27,12,18,143,33,10,16,317,37,13,10,055,18,1*63
$GPGSV,4,4,15,32,08,267,17,25,07,178,,29,02,198,,1*5B
$GPGSV,3,1,09,24,77,049,47,196,74,063,46,18,60,252,37,199,60,167,22,8*6D
$GPGSV,3,2,09,23,48,336,22,195,35,179,31,194,30,139,43,10,16,317,33,8*68
$GPGSV,3,3,09,32,08,267,22,8*5E
$GLGSV,3,1,09,80,48,082,39,70,40,006,16,85,37,250,25,73,35,160,36,1*7C
$GLGSV,3,2,09,86,26,306,38,71,20,311,43,69,14,070,25,79,13,034,16,1*72
$GLGSV,3,3,09,84,11,191,,1*44
$GAGSV,3,1,09,13,58,235,32,08,48,022,45,07,43,300,38,26,31,309,41,7*76
$GAGSV,3,2,09,02,25,088,29,15,25,174,17,30,24,145,41,03,11,062,,7*75
$GAGSV,3,3,09,25,03,045,,7*4F
$GAGSV,2,1,06,13,58,235,28,08,48,022,48,07,43,300,37,26,31,309,41,1*77
$GAGSV,2,2,06,02,25,088,35,30,24,145,37,1*71
$GBGSV,4,1,15,38,83,097,40,08,77,005,39,39,72,279,25,13,67,336,40,1*7F
$GBGSV,4,2,15,16,66,254,32,06,65,250,21,46,58,117,42,09,49,236,26,1*79
$GBGSV,4,3,15,19,48,342,29,20,43,059,27,36,32,184,29,37,24,049,29,1*75
$GBGSV,4,4,15,35,22,271,19,29,21,214,21,22,10,299,19,1*4F
$GBGSV,3,1,10,38,83,097,42,39,72,279,35,46,58,117,41,19,48,342,21,4*72
$GBGSV,3,2,10,20,43,059,24,36,32,184,27,37,24,049,20,35,22,271,36,4*7A
$GBGSV,3,3,10,29,21,214,18,22,10,299,18,4*7E
$GNACCURACY,2.7*13
$PAIRSAT,1,35,1,0,200,2,0,200,3,0,200,4,0,200,5,0,201,6,0,200,7,0,200,8,0,200,9,0,200,10,0,221,11,0,200,12,0,201,13,0,201,14,0,200,15,0,201,16,0,200,17,0,200,18,0,221,19,0,200,20,0,200,21,0,200,23,0,221,24,0,221,25,0,200,26,0,200,27,0,200,28,0,200,29,0,200,30,0,200,31,0,200,32,0,220,194,0,621,195,0,621,196,0,620,199,0,621*69
$PAIRSAT,2,23,65,0,200,67,0,200,68,0,200,69,0,201,70,0,201,71,0,201,72,0,200,73,0,201,74,0,200,75,0,200,76,0,200,77,0,200,78,0,200,79,0,201,80,0,201,81,0,200,82,0,200,83,0,200,84,0,200,85,0,201,86,0,201,87,0,200,88,0,200*53
$PAIRSAT,3,23,2,0,1221,3,0,1221,4,0,1200,5,0,200,7,0,1221,8,0,1221,9,0,1200,10,0,1200,11,0,1200,12,0,1200,13,0,1221,15,0,1221,19,0,1200,21,0,1200,24,0,1200,25,0,1200,26,0,1221,27,0,1200,30,0,1221,31,0,1200,33,0,1200,34,0,1200,36,0,1200*6A
$PAIRSAT,4,50,1,0,200,2,0,200,3,0,200,4,0,200,5,0,200,6,0,201,7,0,200,8,0,201,9,0,201,10,0,200,11,0,200,12,0,200,13,0,201,14,0,200,15,0,200,16,0,201,19,0,621,20,0,621,21,0,600,22,0,621,23,0,600,24,0,600,25,0,600,26,0,600,27,0,600,28,0,600,29,0,621,30,0,600,31,0,200,32,0,600,33,0,600,34,0,600,35,0,621,36,0,621,37,0,621,38,0,621,39,0,621,40,0,600,41,0,600,42,0,600,43,0,600,44,0,600,45,0,600,46,0,621,56,0,200,57,0,200,58,0,200,59,0,600,60,0,600,61,0,600*41
$PAIRDGP,8,5,10,12,13,15,18,23,24*72
$GNGGA,112011.200,2500.8106400,N,12132.4746600,E,2,66,0.42,21.93,M,15.25,M,43,3335*44
$GNRMC,112011.200,A,2500.8106400,N,12132.4746600,E,0.02,210.41,260623,,,D,V*00
$GPHDT,,T*1B
$GNACCURACY,2.7*13
$GNGGA,112011.300,2500.8106400,N,12132.4746600,E,2,66,0.42,21.93,M,15.25,M,43,3335*45
$GNRMC,112011.300,A,2500.8106400,N,12132.4746600,E,0.02,210.41,260623,,,D,V*01
$GPHDT,,T*1B
$GNACCURACY,2.7*13
$GNGGA,112011.400,2500.8106300,N,12132.4746600,E,2,66,0.42,21.94,M,15.25,M,43,3335*42
$GNRMC,112011.400,A,2500.8106300,N,12132.4746600,E,0.02,210.41,260623,,,D,V*01
$GPHDT,,T*1B
$GNACCURACY,2.7*13
$GNGGA,112011.500,2500.8106300,N,12132.4746500,E,2,66,0.42,21.94,M,15.25,M,43,3335*40
$GNRMC,112011.500,A,2500.8106300,N,12132.4746500,E,0.02,210.41,260623,,,D,V*03
$GPHDT,,T*1B
$GNACCURACY,2.7*13
$GNGGA,112011.600,2500.8106300,N,12132.4746500,E,2,66,0.42,21.95,M,15.25,M,43,3335*42
$GNRMC,112011.600,A,2500.8106300,N,12132.4746500,E,0.02,210.41,260623,,,D,V*00
$GPHDT,,T*1B
$GNACCURACY,2.7*13
$GNGGA,112011.700,2500.8106300,N,12132.4746400,E,2,66,0.42,21.96,M,15.25,M,43,3335*41
$GNRMC,112011.700,A,2500.8106300,N,12132.4746400,E,0.02,210.41,260623,,,D,V*00
$GPHDT,,T*1B
$GNACCURACY,2.7*13
$GNGGA,112011.800,2500.8106200,N,12132.4746400,E,2,66,0.42,21.97,M,15.25,M,43,3335*4E
$GNRMC,112011.800,A,2500.8106200,N,12132.4746400,E,0.02,210.41,260623,,,D,V*0E
$GPHDT,,T*1B
$GNACCURACY,2.7*13
$GNGGA,112011.900,2500.8106200,N,12132.4746300,E,2,66,0.42,21.97,M,15.25,M,43,3335*48
$GNRMC,112011.900,A,2500.8106200,N,12132.4746300,E,0.02,210.41,260623,,,D,V*08
$GPHDT,,T*1B
$GNACCURACY,2.7*13
$GNGGA,112012.000,2500.8106200,N,12132.4746300,E,2,66,0.42,21.98,M,15.25,M,44,3335*4A
$GNRMC,112012.000,A,2500.8106200,N,12132.4746300,E,0.03,210.41,260623,,,D,V*03
$GPHDT,,T*1B
$GNACCURACY,2.7*13
$GNGGA,112012.100,2500.8106200,N,12132.4746300,E,2,66,0.42,21.99,M,15.25,M,44,3335*4A
$GNRMC,112012.100,A,2500.8106200,N,12132.4746300,E,0.02,210.41,260623,,,D,V*03
$GPHDT,,T*1B
$GNGSA,A,3,24,196,199,18,23,15,195,194,05,12,10,13,0.67,0.42,0.53,1*01
$GNGSA,A,3,80,70,85,73,86,71,69,79,,,,,0.67,0.42,0.53,2*0C
$GNGSA,A,3,13,08,07,26,15,02,30,,,,,,0.67,0.42,0.53,3*0E
$GNGSA,A,3,38,08,39,13,16,06,46,09,19,20,36,37,0.67,0.42,0.53,4*0F
$GNGSA,A,3,35,29,22,,,,,,,,,,0.67,0.42,0.53,4*08
$GPGSV,4,1,15,24,77,049,43,196,74,063,40,199,60,167,22,18,60,252,26,1*6C
$GPGSV,4,2,15,23,48,336,26,15,38,044,35,195,35,179,22,194,30,139,41,1*65
$GPGSV,4,3,15,05,21,116,28,12,18,143,33,10,16,317,37,13,10,055,18,1*6C
$GPGSV,4,4,15,32,08,267,19,25,07,178,,29,02,198,,1*55
$GPGSV,3,1,09,24,77,049,47,196,74,063,46,18,60,252,37,199,60,167,22,8*6D
$GPGSV,3,2,09,23,48,336,23,195,35,179,32,194,30,139,43,10,16,317,33,8*6A
$GPGSV,3,3,09,32,08,267,23,8*5F
$GLGSV,2,1,08,80,48,082,39,70,40,006,15,85,37,250,28,73,35,160,35,1*71
$GLGSV,2,2,08,86,26,306,39,71,20,311,43,69,14,070,24,79,13,034,16,1*72
$GAGSV,3,1,09,13,58,235,32,08,48,022,45,07,43,300,38,26,31,309,41,7*76
$GAGSV,3,2,09,15,25,174,17,02,25,088,29,30,24,145,41,03,11,062,,7*75
$GAGSV,3,3,09,25,03,045,,7*4F
$GAGSV,2,1,06,13,58,235,28,08,48,022,48,07,43,300,37,26,31,309,41,1*77
$GAGSV,2,2,06,02,25,088,35,30,24,145,37,1*71
$GBGSV,4,1,15,38,83,097,40,08,77,005,39,39,72,279,25,13,67,336,40,1*7F
$GBGSV,4,2,15,16,66,254,32,06,65,250,21,46,58,117,42,09,49,236,26,1*79
$GBGSV,4,3,15,19,48,342,28,20,43,059,26,36,32,184,29,37,24,049,29,1*75
$GBGSV,4,4,15,35,22,271,20,29,21,214,20,22,10,299,19,1*44
$GBGSV,3,1,10,38,83,097,42,39,72,279,35,46,58,117,41,19,48,342,22,4*71
$GBGSV,3,2,10,20,43,059,26,36,32,184,28,37,24,049,20,35,22,271,36,4*77
$GBGSV,3,3,10,29,21,214,18,22,10,299,19,4*7F
$GNACCURACY,2.7*13
$PAIRSAT,1,35,1,0,200,2,0,200,3,0,200,4,0,200,5,0,201,6,0,200,7,0,200,8,0,200,9,0,200,10,0,221,11,0,200,12,0,201,13,0,201,14,0,200,15,0,201,16,0,200,17,0,200,18,0,221,19,0,200,20,0,200,21,0,200,23,0,221,24,0,221,25,0,200,26,0,200,27,0,200,28,0,200,29,0,200,30,0,200,31,0,200,32,0,220,194,0,621,195,0,621,196,0,620,199,0,621*69
$PAIRSAT,2,23,65,0,200,67,0,200,68,0,200,69,0,201,70,0,201,71,0,201,72,0,200,73,0,201,74,0,200,75,0,200,76,0,200,77,0,200,78,0,200,79,0,201,80,0,201,81,0,200,82,0,200,83,0,200,84,0,200,85,0,201,86,0,201,87,0,200,88,0,200*53
$PAIRSAT,3,23,2,0,1221,3,0,1221,4,0,1200,5,0,200,7,0,1221,8,0,1221,9,0,1200,10,0,1200,11,0,1200,12,0,1200,13,0,1221,15,0,1221,19,0,1200,21,0,1200,24,0,1200,25,0,1200,26,0,1221,27,0,1200,30,0,1221,31,0,1200,33,0,1200,34,0,1200,36,0,1200*6A
$PAIRSAT,4,50,1,0,200,2,0,200,3,0,200,4,0,200,5,0,200,6,0,201,7,0,200,8,0,201,9,0,201,10,0,200,11,0,200,12,0,200,13,0,201,14,0,200,15,0,200,16,0,201,19,0,621,20,0,621,21,0,600,22,0,621,23,0,600,24,0,600,25,0,600,26,0,600,27,0,600,28,0,600,29,0,621,30,0,600,31,0,200,32,0,600,33,0,600,34,0,600,35,0,621,36,0,621,37,0,621,38,0,621,39,0,621,40,0,600,41,0,600,42,0,600,43,0,600,44,0,600,45,0,600,46,0,621,56,0,200,57,0,200,58,0,200,59,0,600,60,0,600,61,0,600*41
$PAIRDGP,8,5,10,12,13,15,18,23,24*72
$GNGGA,112012.200,2500.8106200,N,12132.4746300,E,2,66,0.42,22.00,M,15.25,M,44,3335*4A
$GNRMC,112012.200,A,2500.8106200,N,12132.4746300,E,0.02,210.41,260623,,,D,V*00
$GPHDT,,T*1B
$GNACCURACY,2.7*13
$GNGGA,112012.300,2500.8106200,N,12132.4746200,E,2,66,0.42,22.00,M,15.25,M,44,3335*4A
$GNRMC,112012.300,A,2500.8106200,N,12132.4746200,E,0.03,210.41,260623,,,D,V*01
$GPHDT,,T*1B
$GNACCURACY,2.7*13
$GNGGA,112012.400,2500.8106200,N,12132.4746200,E,2,66,0.42,22.01,M,15.25,M,44,3335*4C
$GNRMC,112012.400,A,2500.8106200,N,12132.4746200,E,0.03,210.41,260623,,,D,V*06
$GPHDT,,T*1B
$GNACCURACY,2.7*13
$GNGGA,112012.500,2500.8106200,N,12132.4746100,E,2,66,0.42,22.02,M,15.25,M,44,3335*4D
$GNRMC,112012.500,A,2500.8106200,N,12132.4746100,E,0.04,210.41,260623,,,D,V*03
$GPHDT,,T*1B
$GNACCURACY,2.7*13
$GNGGA,112012.600,2500.8106300,N,12132.4746100,E,2,66,0.42,22.02,M,15.25,M,44,3335*4F
$GNRMC,112012.600,A,2500.8106300,N,12132.4746100,E,0.04,210.41,260623,,,D,V*01
$GPHDT,,T*1B
$GNACCURACY,2.7*13
$GNGGA,112012.700,2500.8106300,N,12132.4746100,E,2,66,0.42,22.03,M,15.25,M,44,3335*4F
$GNRMC,112012.700,A,2500.8106300,N,12132.4746100,E,0.04,210.41,260623,,,D,V*00
$GPHDT,,T*1B
$GNACCURACY,2.7*13
$GNGGA,112012.800,2500.8106300,N,12132.4746000,E,2,66,0.42,22.03,M,15.25,M,44,3335*41
$GNRMC,112012.800,A,2500.8106300,N,12132.4746000,E,0.04,210.41,260623,,,D,V*0E
$GPHDT,,T*1B
$GNACCURACY,2.7*13
$GNGGA,112012.900,2500.8106300,N,12132.4746000,E,2,66,0.42,22.04,M,15.25,M,44,3335*47
$GNRMC,112012.900,A,2500.8106300,N,12132.4746000,E,0.04,210.41,260623,,,D,V*0F
$GPHDT,,T*1B
$GNACCURACY,2.7*13
$GNGGA,112013.000,2500.8106400,N,12132.4746000,E,2,66,0.42,22.05,M,15.25,M,45,3335*48
$GNRMC,112013.000,A,2500.8106400,N,12132.4746000,E,0.04,210.41,260623,,,D,V*00
$GPHDT,,T*1B
$GNACCURACY,2.7*13
$GNGGA,112013.100,2500.8106300,N,12132.4746000,E,2,66,0.42,22.05,M,15.25,M,45,3335*4E
$GNRMC,112013.100,A,2500.8106300,N,12132.4746000,E,0.04,210.41,260623,,,D,V*06
$GPHDT,,T*1B
$GNGSA,A,3,24,196,199,18,23,15,195,194,05,12,10,13,0.68,0.42,0.53,1*0E
$GNGSA,A,3,80,85,73,86,71,69,79,,,,,,0.68,0.42,0.53,2*04
$GNGSA,A,3,13,08,07,26,02,15,30,,,,,,0.68,0.42,0.53,3*01
$GNGSA,A,3,38,08,39,13,16,06,46,09,19,20,36,37,0.68,0.42,0.53,4*00
$GNGSA,A,3,35,29,22,,,,,,,,,,0.68,0.42,0.53,4*07
$GPGSV,4,1,15,24,77,049,43,196,74,063,40,199,60,167,22,18,60,252,26,1*6C
$GPGSV,4,2,15,23,48,336,26,15,38,044,35,195,35,179,22,194,30,139,41,1*65
$GPGSV,4,3,15,05,21,116,28,12,18,143,34,10,16,317,37,13,10,055,18,1*6B
$GPGSV,4,4,15,32,08,267,20,25,07,178,,29,02,198,,1*5F
$GPGSV,3,1,09,24,77,049,47,196,74,063,46,18,60,252,37,199,60,167,22,8*6D
$GPGSV,3,2,09,23,48,336,21,195,35,179,31,194,30,139,43,10,16,317,33,8*6B
$GPGSV,3,3,09,32,08,267,21,8*5D
$GLGSV,2,1,08,80,48,082,38,70,40,006,14,85,37,250,29,73,35,160,35,1*70
$GLGSV,2,2,08,86,26,306,39,71,20,311,43,69,14,070,24,79,13,034,16,1*72
$GAGSV,3,1,09,13,58,235,32,08,48,022,45,07,43,300,38,26,31,309,41,7*76
$GAGSV,3,2,09,02,25,088,29,15,25,174,18,30,24,145,41,03,11,062,,7*7A
$GAGSV,3,3,09,25,03,045,,7*4F
$GAGSV,2,1,07,13,58,235,27,08,48,022,48,07,43,300,37,26,31,309,41,1*79
$GAGSV,2,2,07,02,25,088,35,15,25,174,19,30,24,145,37,1*49
$GBGSV,5,1,17,38,83,097,40,08,77,005,39,39,72,279,26,13,67,336,40,1*7F
$GBGSV,5,2,17,16,66,254,33,06,65,250,21,46,58,117,42,09,49,236,26,1*7B
$GBGSV,5,3,17,19,48,342,28,20,43,059,26,36,32,184,28,37,24,049,29,1*77
$GBGSV,5,4,17,35,22,271,20,29,21,214,23,22,10,299,18,07,05,193,,1*7C
$GBGSV,5,5,17,10,03,203,,1*43
$GBGSV,3,1,10,38,83,097,42,39,72,279,36,46,58,117,41,19,48,342,23,4*73
$GBGSV,3,2,10,20,43,059,26,36,32,184,28,37,24,049,19,35,22,271,36,4*7D
$GBGSV,3,3,10,29,21,214,18,22,10,299,20,4*75
$GNACCURACY,2.7*13
$PAIRSAT,1,35,1,0,200,2,0,200,3,0,200,4,0,200,5,0,201,6,0,200,7,0,200,8,0,200,9,0,200,10,0,221,11,0,200,12,0,201,13,0,201,14,0,200,15,0,201,16,0,200,17,0,200,18,0,221,19,0,200,20,0,200,21,0,200,23,0,221,24,0,221,25,0,200,26,0,200,27,0,200,28,0,200,29,0,200,30,0,200,31,0,200,32,0,220,194,0,621,195,0,621,196,0,620,199,0,621*69
$PAIRSAT,2,23,65,0,200,67,0,200,68,0,200,69,0,201,70,0,201,71,0,201,72,0,200,73,0,201,74,0,200,75,0,200,76,0,200,77,0,200,78,0,200,79,0,201,80,0,201,81,0,200,82,0,200,83,0,200,84,0,200,85,0,201,86,0,201,87,0,200,88,0,200*53
$PAIRSAT,3,23,2,0,1221,3,0,1221,4,0,1200,5,0,200,7,0,1221,8,0,1221,9,0,1200,10,0,1200,11,0,1200,12,0,1200,13,0,1221,15,0,1221,19,0,1200,21,0,1200,24,0,1200,25,0,1200,26,0,1221,27,0,1200,30,0,1221,31,0,1200,33,0,1200,34,0,1200,36,0,1200*6A
$PAIRSAT,4,50,1,0,200,2,0,200,3,0,200,4,0,200,5,0,200,6,0,201,7,0,200,8,0,201,9,0,201,10,0,200,11,0,200,12,0,200,13,0,201,14,0,200,15,0,200,16,0,201,19,0,621,20,0,621,21,0,600,22,0,621,23,0,600,24,0,600,25,0,600,26,0,600,27,0,600,28,0,600,29,0,621,30,0,600,31,0,200,32,0,600,33,0,600,34,0,600,35,0,621,36,0,621,37,0,621,38,0,621,39,0,621,40,0,600,41,0,600,42,0,600,43,0,600,44,0,600,45,0,600,46,0,621,56,0,200,57,0,200,58,0,200,59,0,600,60,0,600,61,0,600*41
$PAIRDGP,8,5,10,12,13,15,18,23,24*72
$GNGGA,112013.200,2500.8106300,N,12132.4746000,E,2,66,0.42,22.06,M,15.25,M,45,3335*4E
$GNRMC,112013.200,A,2500.8106300,N,12132.4746000,E,0.03,210.41,260623,,,D,V*02
$GPHDT,,T*1B
$GNACCURACY,2.7*13
$GNGGA,112013.300,2500.8106300,N,12132.4746000,E,2,66,0.42,22.07,M,15.25,M,45,3335*4E
$GNRMC,112013.300,A,2500.8106300,N,12132.4746000,E,0.03,210.41,260623,,,D,V*03
$GPHDT,,T*1B
$GNACCURACY,2.7*13
$GNGGA,112013.400,2500.8106300,N,12132.4745900,E,2,66,0.42,22.07,M,15.25,M,45,3335*43
$GNRMC,112013.400,A,2500.8106300,N,12132.4745900,E,0.03,210.41,260623,,,D,V*0E
$GPHDT,,T*1B
$GNACCURACY,2.7*13
$GNGGA,112013.500,2500.8106300,N,12132.4745900,E,2,66,0.42,22.08,M,15.25,M,45,3335*4D
$GNRMC,112013.500,A,2500.8106300,N,12132.4745900,E,0.03,210.41,260623,,,D,V*0F
$GPHDT,,T*1B
$GNACCURACY,2.7*13
$GNGGA,112013.600,2500.8106300,N,12132.4745900,E,2,66,0.42,22.08,M,15.25,M,45,3335*4E
$GNRMC,112013.600,A,2500.8106300,N,12132.4745900,E,0.03,210.41,260623,,,D,V*0C
$GPHDT,,T*1B
$GNACCURACY,2.7*13
$GNGGA,112013.700,2500.8106200,N,12132.4745900,E,2,66,0.42,22.09,M,15.25,M,45,3335*4F
$GNRMC,112013.700,A,2500.8106200,N,12132.4745900,E,0.03,210.41,260623,,,D,V*0C
$GPHDT,,T*1B
$GNACCURACY,2.7*13
$GNGGA,112013.800,2500.8106200,N,12132.4745900,E,2,66,0.42,22.10,M,15.25,M,45,3335*48
$GNRMC,112013.800,A,2500.8106200,N,12132.4745900,E,0.03,210.41,260623,,,D,V*03
$GPHDT,,T*1B
$GNACCURACY,2.7*13
$GNGGA,112013.900,2500.8106200,N,12132.4745900,E,2,66,0.42,22.11,M,15.25,M,45,3335*48
$GNRMC,112013.900,A,2500.8106200,N,12132.4745900,E,0.03,210.41,260623,,,D,V*02
$GPHDT,,T*1B
$GNACCURACY,2.7*13
$GNGGA,112014.000,2500.8106200,N,12132.4745900,E,2,66,0.42,22.11,M,15.25,M,46,3335*45
$GNRMC,112014.000,A,2500.8106200,N,12132.4745900,E,0.03,210.41,260623,,,D,V*0C
$GPHDT,,T*1B
$GNACCURACY,2.7*13
$GNGGA,112014.100,2500.8106200,N,12132.4745900,E,2,66,0.42,22.12,M,15.25,M,46,3335*47
$GNRMC,112014.100,A,2500.8106200,N,12132.4745900,E,0.03,210.41,260623,,,D,V*0D
$GPHDT,,T*1B
$GNGSA,A,3,24,196,199,18,23,15,195,194,05,12,10,13,0.68,0.42,0.53,1*0E
$GNGSA,A,3,80,85,73,86,71,69,79,,,,,,0.68,0.42,0.53,2*04
$GNGSA,A,3,13,08,07,26,15,02,30,,,,,,0.68,0.42,0.53,3*01
$GNGSA,A,3,38,08,39,13,16,06,46,09,19,20,36,37,0.68,0.42,0.53,4*00
$GNGSA,A,3,35,29,22,,,,,,,,,,0.68,0.42,0.53,4*07
$GPGSV,4,1,15,24,77,049,43,196,74,063,40,199,60,167,23,18,60,252,26,1*6D
$GPGSV,4,2,15,23,48,336,26,15,38,044,35,195,35,179,22,194,30,139,41,1*65
$GPGSV,4,3,15,05,21,116,29,12,18,143,34,10,16,317,37,13,10,055,18,1*6A
$GPGSV,4,4,15,32,08,267,20,25,07,178,,29,02,198,,1*5F
$GPGSV,3,1,09,24,77,049,47,196,74,063,46,18,60,252,37,199,60,167,22,8*6D
$GPGSV,3,2,09,23,48,336,21,195,35,179,32,194,30,139,43,10,16,317,33,8*68
$GPGSV,3,3,09,32,08,267,21,8*5D
$GLGSV,2,1,08,80,48,082,38,70,40,006,15,85,37,250,29,73,35,160,35,1*71
$GLGSV,2,2,08,86,26,306,39,71,20,311,43,69,14,070,24,79,13,034,16,1*72
$GAGSV,3,1,09,13,58,235,32,08,48,022,45,07,43,300,38,26,31,309,41,7*76
$GAGSV,3,2,09,15,25,174,19,02,25,088,29,30,24,145,41,03,11,062,,7*7B
$GAGSV,3,3,09,25,03,045,,7*4F
$GAGSV,2,1,07,13,58,235,27,08,48,022,48,07,43,300,37,26,31,309,41,1*79
$GAGSV,2,2,07,02,25,088,35,15,25,174,18,30,24,145,37,1*48
$GBGSV,5,1,17,38,83,097,40,08,77,005,39,39,72,279,26,13,67,336,40,1*7F
$GBGSV,5,2,17,16,66,254,33,06,65,250,21,46,58,117,42,09,49,236,27,1*7A
$GBGSV,5,3,17,19,48,342,29,20,43,059,26,36,32,184,28,37,24,049,30,1*7E
$GBGSV,5,4,17,35,22,271,20,29,21,214,23,22,10,299,18,07,05,193,,1*7C
$GBGSV,5,5,17,32,03,097,,1*4C
$GBGSV,3,1,10,38,83,097,42,39,72,279,36,46,58,117,41,19,48,342,23,4*73
$GBGSV,3,2,10,20,43,059,26,36,32,184,27,37,24,049,19,35,22,271,36,4*72
$GBGSV,3,3,10,29,21,214,18,22,10,299,19,4*7F
$GNACCURACY,2.7*13
$PAIRSAT,1,35,1,0,200,2,0,200,3,0,200,4,0,200,5,0,201,6,0,200,7,0,200,8,0,200,9,0,200,10,0,221,11,0,200,12,0,201,13,0,201,14,0,200,15,0,201,16,0,200,17,0,200,18,0,221,19,0,200,20,0,200,21,0,200,23,0,221,24,0,221,25,0,200,26,0,200,27,0,200,28,0,200,29,0,200,30,0,200,31,0,200,32,0,220,194,0,621,195,0,621,196,0,620,199,0,621*69
$PAIRSAT,2,23,65,0,200,67,0,200,68,0,200,69,0,201,70,0,201,71,0,201,72,0,200,73,0,201,74,0,200,75,0,200,76,0,200,77,0,200,78,0,200,79,0,201,80,0,201,81,0,200,82,0,200,83,0,200,84,0,200,85,0,201,86,0,201,87,0,200,88,0,200*53
$PAIRSAT,3,23,2,0,1221,3,0,1221,4,0,1200,5,0,200,7,0,1221,8,0,1221,9,0,1200,10,0,1200,11,0,1200,12,0,1200,13,0,1221,15,0,1221,19,0,1200,21,0,1200,24,0,1200,25,0,1200,26,0,1221,27,0,1200,30,0,1221,31,0,1200,33,0,1200,34,0,1200,36,0,1200*6A
$PAIRSAT,4,50,1,0,200,2,0,200,3,0,200,4,0,200,5,0,200,6,0,201,7,0,200,8,0,201,9,0,201,10,0,200,11,0,200,12,0,200,13,0,201,14,0,200,15,0,200,16,0,201,19,0,621,20,0,621,21,0,600,22,0,621,23,0,600,24,0,600,25,0,600,26,0,600,27,0,600,28,0,600,29,0,621,30,0,600,31,0,200,32,0,600,33,0,600,34,0,600,35,0,621,36,0,621,37,0,621,38,0,621,39,0,621,40,0,600,41,0,600,42,0,600,43,0,600,44,0,600,45,0,600,46,0,621,56,0,200,57,0,200,58,0,200,59,0,600,60,0,600,61,0,600*41
$PAIRDGP,8,5,10,12,13,15,18,23,24*72
$GNGGA,112014.200,2500.8106200,N,12132.4745900,E,2,66,0.42,22.12,M,15.25,M,46,3335*44
$GNRMC,112014.200,A,2500.8106200,N,12132.4745900,E,0.02,210.41,260623,,,D,V*0F
$GPHDT,,T*1B
$GNACCURACY,2.7*13
$GNGGA,112014.300,2500.8106200,N,12132.4745900,E,2,66,0.42,22.13,M,15.25,M,46,3335*44
$GNRMC,112014.300,A,2500.8106200,N,12132.4745900,E,0.02,210.41,260623,,,D,V*0E
$GPHDT,,T*1B
$GNACCURACY,2.7*13
$GNGGA,112014.400,2500.8106200,N,12132.4746000,E,2,66,0.42,22.13,M,15.25,M,46,3335*49
$GNRMC,112014.400,A,2500.8106200,N,12132.4746000,E,0.02,210.41,260623,,,D,V*03
$GPHDT,,T*1B
$GNACCURACY,2.7*13
$GNGGA,112014.500,2500.8106200,N,12132.4746000,E,2,66,0.42,22.13,M,15.25,M,46,3335*48
$GNRMC,112014.500,A,2500.8106200,N,12132.4746000,E,0.02,210.41,260623,,,D,V*02
$GPHDT,,T*1B
$GNACCURACY,2.7*13
$GNGGA,112014.600,2500.8106200,N,12132.4746000,E,2,66,0.42,22.14,M,15.25,M,46,3335*4C
$GNRMC,112014.600,A,2500.8106200,N,12132.4746000,E,0.03,210.41,260623,,,D,V*00
$GPHDT,,T*1B
$GNACCURACY,2.7*13
$GNGGA,112014.700,2500.8106100,N,12132.4746000,E,2,66,0.42,22.14,M,15.25,M,46,3335*4E
$GNRMC,112014.700,A,2500.8106100,N,12132.4746000,E,0.02,210.41,260623,,,D,V*03
$GPHDT,,T*1B
$GNACCURACY,2.7*13
$GNGGA,112014.800,2500.8106100,N,12132.4746100,E,2,65,0.42,22.14,M,15.25,M,46,3335*43
$GNRMC,112014.800,A,2500.8106100,N,12132.4746100,E,0.02,210.41,260623,,,D,V*0D
$GPHDT,,T*1B
$GNACCURACY,2.7*13
$GNGGA,112014.900,2500.8106100,N,12132.4746100,E,2,66,0.42,22.15,M,15.25,M,46,3335*40
$GNRMC,112014.900,A,2500.8106100,N,12132.4746100,E,0.02,210.41,260623,,,D,V*0C
$GPHDT,,T*1B
$GNACCURACY,2.7*13
$GNGGA,112015.000,2500.8106100,N,12132.4746100,E,2,66,0.42,22.15,M,15.25,M,47,3335*49
$GNRMC,112015.000,A,2500.8106100,N,12132.4746100,E,0.03,210.41,260623,,,D,V*05
$GPHDT,,T*1B
$GNACCURACY,2.7*13
$GNGGA,112015.100,2500.8106100,N,12132.4746200,E,2,66,0.42,22.16,M,15.25,M,47,3335*48
$GNRMC,112015.100,A,2500.8106100,N,12132.4746200,E,0.03,210.41,260623,,,D,V*07
$GPHDT,,T*1B
