$FW : RTK35X,V1.1X0314AS,Lib20210517,1*54
$Tool : LOCOSYS , GNSS Firebird , v1.0.0.19*39
$---------------------------------------------------*2D
$GNACCURACY,2.8*1C
$GNGGA,111916.600,2500.8120800,N,12132.4761900,E,2,64,0.42,21.33,M,15.25,M,1,3335*71
$GNRMC,111916.600,A,2500.8120800,N,12132.4761900,E,0.02,315.58,260623,,,D,V*07
$GPHDT,,T*1B
$GNACCURACY,2.8*1C
$GNGGA,111916.700,2500.8120800,N,12132.4761800,E,2,64,0.42,21.33,M,15.25,M,1,3335*71
$GNRMC,111916.700,A,2500.8120800,N,12132.4761800,E,0.02,315.58,260623,,,D,V*07
$GPHDT,,T*1B
$GNACCURACY,2.8*1C
$GNGGA,111916.800,2500.8120800,N,12132.4761800,E,2,64,0.42,21.34,M,15.25,M,1,3335*79
$GNRMC,111916.800,A,2500.8120800,N,12132.4761800,E,0.02,315.58,260623,,,D,V*08
$GPHDT,,T*1B
$GNACCURACY,2.8*1C
$GNGGA,111916.900,2500.8120800,N,12132.4761700,E,2,64,0.42,21.34,M,15.25,M,1,3335*77
$GNRMC,111916.900,A,2500.8120800,N,12132.4761700,E,0.02,315.58,260623,,,D,V*06
$GPHDT,,T*1B
$GNACCURACY,2.8*1C
$GNGGA,111917.000,2500.8120800,N,12132.4761600,E,2,65,0.42,21.35,M,15.25,M,2,3335*7D
$GNRMC,111917.000,A,2500.8120800,N,12132.4761600,E,0.02,315.58,260623,,,D,V*0F
$GPHDT,,T*1B
$GNACCURACY,2.8*1C
$GNGGA,111917.100,2500.8120800,N,12132.4761600,E,2,65,0.42,21.35,M,15.25,M,2,3335*7C
$GNRMC,111917.100,A,2500.8120800,N,12132.4761600,E,0.02,315.58,260623,,,D,V*0E
$GPHDT,,T*1B
$GNGSA,A,3,24,196,199,18,23,15,195,194,05,12,10,13,0.74,0.42,0.61,1*02
$GNGSA,A,3,80,70,85,73,86,71,69,79,,,,,0.74,0.42,0.61,2*0F
$GNGSA,A,3,13,08,07,26,15,02,30,03,,,,,0.74,0.42,0.61,3*0E
$GNGSA,A,3,38,08,39,13,16,06,46,09,19,20,36,35,0.74,0.42,0.61,4*0E
$GNGSA,A,3,29,22,,,,,,,,,,,0.74,0.42,0.61,4*0D
$GPGSV,4,1,14,24,77,050,46,196,74,063,40,199,60,167,21,18,60,253,22,1*66
$GPGSV,4,2,14,23,48,336,28,15,39,043,29,195,35,179,27,194,29,139,43,1*6E
$GPGSV,4,3,14,05,21,116,26,12,18,144,34,10,15,317,38,13,10,054,22,1*67
$GPGSV,4,4,14,32,08,266,18,25,07,178,,1*6D
$GPGSV,3,1,09,24,77,050,47,196,74,063,46,18,60,253,30,199,60,167,27,8*66
$GPGSV,3,2,09,23,48,336,29,195,35,179,29,194,29,139,45,10,15,317,43,8*60
$GPGSV,3,3,09,32,08,266,26,8*5B
$GLGSV,3,1,09,80,48,083,33,70,40,005,17,85,38,250,23,73,34,161,38,1*72
$GLGSV,3,2,09,86,26,306,37,71,20,310,41,69,14,070,29,79,14,034,22,1*72
$GLGSV,3,3,09,84,12,191,,1*47
$GAGSV,3,1,09,13,58,236,26,08,48,022,45,07,43,299,33,26,31,309,39,7*75
$GAGSV,3,2,09,15,25,174,17,02,25,088,24,30,24,145,40,03,11,062,,7*79
$GAGSV,3,3,09,25,04,045,,7*48
$GAGSV,2,1,08,13,58,236,29,08,48,022,45,07,43,299,40,26,31,309,44,1*72
$GAGSV,2,2,08,02,25,088,36,15,25,174,22,30,24,145,39,03,11,062,27,1*71
$GBGSV,4,1,15,38,83,094,40,08,77,005,38,39,72,278,35,13,67,336,38,1*72
$GBGSV,4,2,15,16,66,253,34,06,65,249,30,46,58,118,44,09,49,235,20,1*7C
$GBGSV,4,3,15,19,47,341,26,20,44,059,37,36,32,184,24,37,24,050,,1*7E
$GBGSV,4,4,15,35,22,272,34,29,21,214,16,22,10,299,32,1*4E
$GBGSV,2,1,08,38,83,094,42,39,72,278,37,46,58,118,45,19,47,341,20,4*7C
$GBGSV,2,2,08,20,44,059,16,36,32,184,30,35,22,272,36,29,21,214,15,4*77
$GNACCURACY,2.8*1C
$PAIRSAT,1,35,1,0,200,2,0,200,3,0,200,4,0,200,5,0,201,6,0,200,7,0,200,8,0,200,9,0,200,10,0,221,11,0,200,12,0,201,13,0,201,14,0,200,15,0,201,16,0,200,17,0,200,18,0,221,19,0,200,20,0,200,21,0,200,23,0,221,24,0,221,25,0,200,26,0,200,27,0,200,28,0,200,29,0,200,30,0,200,31,0,200,32,0,220,194,0,621,195,0,621,196,0,620,199,0,621*69
$PAIRSAT,2,23,65,0,200,67,0,200,68,0,200,69,0,201,70,0,201,71,0,201,72,0,200,73,0,201,74,0,200,75,0,200,76,0,200,77,0,200,78,0,200,79,0,201,80,0,201,81,0,200,82,0,200,83,0,200,84,0,200,85,0,201,86,0,201,87,0,200,88,0,200*53
$PAIRSAT,3,23,2,0,1221,3,0,1221,4,0,1200,5,0,200,7,0,1221,8,0,1221,9,0,1200,10,0,1200,11,0,1200,12,0,1200,13,0,1221,15,0,1221,19,0,1200,21,0,1200,24,0,1200,25,0,1200,26,0,1221,27,0,1200,30,0,1221,31,0,1200,33,0,1200,34,0,1200,36,0,1200*6A
$PAIRSAT,4,50,1,0,200,2,0,200,3,0,200,4,0,200,5,0,200,6,0,201,7,0,200,8,0,201,9,0,201,10,0,200,11,0,200,12,0,200,13,0,201,14,0,200,15,0,200,16,0,201,19,0,621,20,0,621,21,0,600,22,0,621,23,0,600,24,0,600,25,0,600,26,0,600,27,0,600,28,0,600,29,0,621,30,0,600,31,0,200,32,0,600,33,0,600,34,0,600,35,0,621,36,0,621,37,0,621,38,0,621,39,0,621,40,0,600,41,0,600,42,0,600,43,0,600,44,0,600,45,0,600,46,0,621,56,0,200,57,0,200,58,0,200,59,0,600,60,0,600,61,0,600*41
$PAIRDGP,8,5,10,12,13,15,18,23,24*72
$GNGGA,111917.200,2500.8120800,N,12132.4761500,E,2,65,0.42,21.36,M,15.25,M,2,3335*7F
$GNRMC,111917.200,A,2500.8120800,N,12132.4761500,E,0.02,315.58,260623,,,D,V*0E
$GPHDT,,T*1B
$GNACCURACY,2.8*1C
$GNGGA,111917.300,2500.8120800,N,12132.4761400,E,2,65,0.42,21.36,M,15.25,M,2,3335*7F
$GNRMC,111917.300,A,2500.8120800,N,12132.4761400,E,0.01,315.58,260623,,,D,V*0D
$GPHDT,,T*1B
$GNACCURACY,2.8*1C
$GNGGA,111917.400,2500.8120800,N,12132.4761300,E,2,65,0.42,21.37,M,15.25,M,2,3335*7E
$GNRMC,111917.400,A,2500.8120800,N,12132.4761300,E,0.01,315.58,260623,,,D,V*0D
$GPHDT,,T*1B
$GNACCURACY,2.8*1C
$GNGGA,111917.500,2500.8120800,N,12132.4761200,E,2,65,0.42,21.37,M,15.25,M,2,3335*7E
$GNRMC,111917.500,A,2500.8120800,N,12132.4761200,E,0.01,315.58,260623,,,D,V*0D
$GPHDT,,T*1B
$GNACCURACY,2.8*1C
$GNGGA,111917.600,2500.8120800,N,12132.4761100,E,2,65,0.42,21.38,M,15.25,M,2,3335*71
$GNRMC,111917.600,A,2500.8120800,N,12132.4761100,E,0.01,315.58,260623,,,D,V*0D
$GPHDT,,T*1B
$GNACCURACY,2.8*1C
$GNGGA,111917.700,2500.8120800,N,12132.4761000,E,2,65,0.42,21.38,M,15.25,M,2,3335*71
$GNRMC,111917.700,A,2500.8120800,N,12132.4761000,E,0.01,315.58,260623,,,D,V*0D
$GPHDT,,T*1B
$GNACCURACY,2.8*1C
$GNGGA,111917.800,2500.8120800,N,12132.4760900,E,2,65,0.42,21.39,M,15.25,M,2,3335*77
$GNRMC,111917.800,A,2500.8120800,N,12132.4760900,E,0.01,315.58,260623,,,D,V*0A
$GPHDT,,T*1B
$GNACCURACY,2.8*1C
$GNGGA,111917.900,2500.8120800,N,12132.4760900,E,2,65,0.42,21.39,M,15.25,M,2,3335*76
$GNRMC,111917.900,A,2500.8120800,N,12132.4760900,E,0.02,315.58,260623,,,D,V*08
$GPHDT,,T*1B
$GNACCURACY,2.8*1C
$GNGGA,111918.000,2500.8120800,N,12132.4760700,E,2,64,0.42,21.39,M,15.25,M,3,3335*7E
$GNRMC,111918.000,A,2500.8120800,N,12132.4760700,E,0.01,315.58,260623,,,D,V*03
$GPHDT,,T*1B
$GNACCURACY,2.8*1C
$GNGGA,111918.100,2500.8120800,N,12132.4760700,E,2,64,0.42,21.40,M,15.25,M,3,3335*71
$GNRMC,111918.100,A,2500.8120800,N,12132.4760700,E,0.02,315.58,260623,,,D,V*01
$GPHDT,,T*1B
$GNGSA,A,3,24,196,199,18,23,15,195,194,05,12,10,13,0.74,0.42,0.61,1*02
$GNGSA,A,3,80,70,85,73,86,71,69,79,,,,,0.74,0.42,0.61,2*0F
$GNGSA,A,3,13,08,07,26,15,02,30,03,,,,,0.74,0.42,0.61,3*0E
$GNGSA,A,3,38,08,39,13,16,06,46,09,19,20,36,35,0.74,0.42,0.61,4*0E
$GNGSA,A,3,29,22,,,,,,,,,,,0.74,0.42,0.61,4*0D
$GPGSV,4,1,14,24,77,050,46,196,74,063,40,199,60,167,22,18,60,253,19,1*6D
$GPGSV,4,2,14,23,48,336,26,15,39,043,29,195,35,179,27,194,29,139,43,1*60
$GPGSV,4,3,14,05,21,116,28,12,18,144,34,10,15,317,38,13,10,054,22,1*69
$GPGSV,4,4,14,32,08,266,18,25,07,178,,1*6D
$GPGSV,3,1,09,24,77,050,47,196,74,063,46,18,60,253,31,199,60,167,24,8*64
$GPGSV,3,2,09,23,48,336,26,195,35,179,29,194,29,139,45,10,15,317,43,8*6F
$GPGSV,3,3,09,32,08,266,25,8*58
$GLGSV,3,1,09,80,48,083,33,70,40,005,17,85,38,250,19,73,34,161,38,1*7B
$GLGSV,3,2,09,86,26,306,35,71,20,310,40,69,14,070,30,79,14,034,21,1*7A
$GLGSV,3,3,09,84,12,191,,1*47
$GAGSV,3,1,09,13,58,236,25,08,48,022,45,07,43,299,31,26,31,309,39,7*74
$GAGSV,3,2,09,15,25,174,17,02,25,088,21,30,24,145,39,03,11,062,,7*72
$GAGSV,3,3,09,25,04,045,,7*48
$GAGSV,2,1,08,13,58,236,29,08,48,022,45,07,43,299,39,26,31,309,45,1*7D
$GAGSV,2,2,08,02,25,088,36,15,25,174,22,30,24,145,39,03,11,062,26,1*70
$GBGSV,4,1,15,38,83,094,40,08,77,005,38,39,72,278,35,13,67,336,38,1*72
$GBGSV,4,2,15,16,66,253,34,06,65,249,30,46,58,118,43,09,49,235,22,1*79
$GBGSV,4,3,15,19,47,341,26,20,44,059,37,36,32,184,26,37,24,050,,1*7C
$GBGSV,4,4,15,35,22,272,35,29,21,214,19,22,10,299,32,1*40
$GBGSV,2,1,07,38,83,094,42,39,72,278,38,46,58,118,45,19,47,341,22,4*7E
$GBGSV,2,2,07,36,32,184,30,35,22,272,36,29,21,214,16,4*42
$GNACCURACY,2.8*1C
$PAIRSAT,1,35,1,0,200,2,0,200,3,0,200,4,0,200,5,0,201,6,0,200,7,0,200,8,0,200,9,0,200,10,0,221,11,0,200,12,0,201,13,0,201,14,0,200,15,0,201,16,0,200,17,0,200,18,0,221,19,0,200,20,0,200,21,0,200,23,0,221,24,0,221,25,0,200,26,0,200,27,0,200,28,0,200,29,0,200,30,0,200,31,0,200,32,0,220,194,0,621,195,0,621,196,0,620,199,0,621*69
$PAIRSAT,2,23,65,0,200,67,0,200,68,0,200,69,0,201,70,0,201,71,0,201,72,0,200,73,0,201,74,0,200,75,0,200,76,0,200,77,0,200,78,0,200,79,0,201,80,0,201,81,0,200,82,0,200,83,0,200,84,0,200,85,0,201,86,0,201,87,0,200,88,0,200*53
$PAIRSAT,3,23,2,0,1221,3,0,1221,4,0,1200,5,0,200,7,0,1221,8,0,1221,9,0,1200,10,0,1200,11,0,1200,12,0,1200,13,0,1221,15,0,1221,19,0,1200,21,0,1200,24,0,1200,25,0,1200,26,0,1221,27,0,1200,30,0,1221,31,0,1200,33,0,1200,34,0,1200,36,0,1200*6A
$PAIRSAT,4,50,1,0,200,2,0,200,3,0,200,4,0,200,5,0,200,6,0,201,7,0,200,8,0,201,9,0,201,10,0,200,11,0,200,12,0,200,13,0,201,14,0,200,15,0,200,16,0,201,19,0,621,20,0,621,21,0,600,22,0,621,23,0,600,24,0,600,25,0,600,26,0,600,27,0,600,28,0,600,29,0,621,30,0,600,31,0,200,32,0,600,33,0,600,34,0,600,35,0,621,36,0,621,37,0,621,38,0,621,39,0,621,40,0,600,41,0,600,42,0,600,43,0,600,44,0,600,45,0,600,46,0,621,56,0,200,57,0,200,58,0,200,59,0,600,60,0,600,61,0,600*41
$PAIRDGP,8,5,10,12,13,15,18,23,24*72
$GNGGA,111918.200,2500.8120700,N,12132.4760600,E,2,64,0.42,21.40,M,15.25,M,1,3335*7E
$GNRMC,111918.200,A,2500.8120700,N,12132.4760600,E,0.02,315.58,260623,,,D,V*0C
$GPHDT,,T*1B
$GNACCURACY,2.8*1C
$GNGGA,111918.300,2500.8120800,N,12132.4760600,E,2,64,0.42,21.40,M,15.25,M,1,3335*70
$GNRMC,111918.300,A,2500.8120800,N,12132.4760600,E,0.01,315.58,260623,,,D,V*01
$GPHDT,,T*1B
$GNACCURACY,2.8*1C
$GNGGA,111918.400,2500.8120700,N,12132.4760400,E,2,65,0.42,21.41,M,15.25,M,1,3335*7A
$GNRMC,111918.400,A,2500.8120700,N,12132.4760400,E,0.01,315.58,260623,,,D,V*0B
$GPHDT,,T*1B
$GNACCURACY,2.8*1C
$GNGGA,111918.500,2500.8120700,N,12132.4760400,E,2,65,0.42,21.41,M,15.25,M,1,3335*7B
$GNRMC,111918.500,A,2500.8120700,N,12132.4760400,E,0.02,315.58,260623,,,D,V*09
$GPHDT,,T*1B
$GNACCURACY,2.8*1C
$GNGGA,111918.600,2500.8120600,N,12132.4760300,E,2,65,0.42,21.42,M,15.25,M,1,3335*7D
$GNRMC,111918.600,A,2500.8120600,N,12132.4760300,E,0.01,315.58,260623,,,D,V*0F
$GPHDT,,T*1B
$GNACCURACY,2.8*1C
$GNGGA,111918.700,2500.8120600,N,12132.4760300,E,2,65,0.42,21.42,M,15.25,M,1,3335*7C
$GNRMC,111918.700,A,2500.8120600,N,12132.4760300,E,0.01,315.58,260623,,,D,V*0E
$GPHDT,,T*1B
$GNACCURACY,2.8*1C
$GNGGA,111918.800,2500.8120600,N,12132.4760300,E,2,65,0.42,21.42,M,15.25,M,1,3335*73
$GNRMC,111918.800,A,2500.8120600,N,12132.4760300,E,0.01,315.58,260623,,,D,V*01
$GPHDT,,T*1B
$GNACCURACY,2.8*1C
$GNGGA,111918.900,2500.8120600,N,12132.4760200,E,2,65,0.42,21.42,M,15.25,M,1,3335*73
$GNRMC,111918.900,A,2500.8120600,N,12132.4760200,E,0.01,315.58,260623,,,D,V*01
$GPHDT,,T*1B
$GNACCURACY,2.8*1C
$GNGGA,111919.000,2500.8120600,N,12132.4760200,E,2,65,0.42,21.42,M,15.25,M,2,3335*78
$GNRMC,111919.000,A,2500.8120600,N,12132.4760200,E,0.02,315.58,260623,,,D,V*0A
$GPHDT,,T*1B
$GNACCURACY,2.8*1C
$GNGGA,111919.100,2500.8120600,N,12132.4760100,E,2,65,0.42,21.42,M,15.25,M,2,3335*7A
$GNRMC,111919.100,A,2500.8120600,N,12132.4760100,E,0.02,315.58,260623,,,D,V*08
$GPHDT,,T*1B
$GNGSA,A,3,24,196,199,18,23,15,195,194,05,12,10,13,0.74,0.42,0.61,1*02
$GNGSA,A,3,80,70,85,73,86,71,69,79,,,,,0.74,0.42,0.61,2*0F
$GNGSA,A,3,13,08,07,26,15,02,30,03,,,,,0.74,0.42,0.61,3*0E
$GNGSA,A,3,38,08,39,13,16,06,46,09,19,20,36,35,0.74,0.42,0.61,4*0E
$GNGSA,A,3,29,22,,,,,,,,,,,0.74,0.42,0.61,4*0D
$GPGSV,4,1,14,24,77,050,46,196,74,063,40,199,60,167,23,18,60,253,20,1*66
$GPGSV,4,2,14,23,48,336,25,15,39,043,32,195,35,179,27,194,29,139,43,1*69
$GPGSV,4,3,14,05,21,116,28,12,18,144,34,10,15,317,38,13,10,054,20,1*6B
$GPGSV,4,4,14,32,08,266,18,25,07,178,,1*6D
$GPGSV,3,1,09,24,77,050,47,196,74,063,46,18,60,253,29,199,60,167,24,8*6D
$GPGSV,3,2,09,23,48,336,27,195,35,179,29,194,29,139,46,10,15,317,42,8*6C
$GPGSV,3,3,09,32,08,266,25,8*58
$GLGSV,3,1,09,80,48,083,32,70,40,005,17,85,38,250,19,73,34,161,38,1*7A
$GLGSV,3,2,09,86,26,306,35,71,20,310,39,69,14,070,32,79,14,034,20,1*77
$GLGSV,3,3,09,84,12,191,,1*47
$GAGSV,3,1,09,13,58,236,23,08,48,022,45,07,43,299,30,26,31,309,39,7*73
$GAGSV,3,2,09,15,25,174,16,02,25,088,22,30,24,145,39,03,11,062,,7*70
$GAGSV,3,3,09,25,04,045,,7*48
$GAGSV,2,1,08,13,58,236,26,08,48,022,45,07,43,299,39,26,31,309,44,1*73
$GAGSV,2,2,08,02,25,088,36,15,25,174,25,30,24,145,41,03,11,062,25,1*7B
$GBGSV,4,1,15,38,83,094,40,08,77,005,38,39,72,278,35,13,67,336,38,1*72
$GBGSV,4,2,15,16,66,253,34,06,65,249,30,46,58,118,43,09,49,235,25,1*7E
$GBGSV,4,3,15,19,47,341,26,20,44,059,37,36,32,184,29,37,24,050,,1*73
$GBGSV,4,4,15,35,22,272,31,29,21,214,19,22,10,299,33,1*45
$GBGSV,2,1,08,38,83,094,42,39,72,278,39,46,58,118,45,19,47,341,25,4*77
$GBGSV,2,2,08,20,44,059,25,36,32,184,31,35,22,272,36,29,21,214,16,4*75
$GNACCURACY,2.8*1C
$PAIRSAT,1,35,1,0,200,2,0,200,3,0,200,4,0,200,5,0,201,6,0,200,7,0,200,8,0,200,9,0,200,10,0,221,11,0,200,12,0,201,13,0,201,14,0,200,15,0,201,16,0,200,17,0,200,18,0,221,19,0,200,20,0,200,21,0,200,23,0,221,24,0,221,25,0,200,26,0,200,27,0,200,28,0,200,29,0,200,30,0,200,31,0,200,32,0,220,194,0,621,195,0,621,196,0,620,199,0,621*69
$PAIRSAT,2,23,65,0,200,67,0,200,68,0,200,69,0,201,70,0,201,71,0,201,72,0,200,73,0,201,74,0,200,75,0,200,76,0,200,77,0,200,78,0,200,79,0,201,80,0,201,81,0,200,82,0,200,83,0,200,84,0,200,85,0,201,86,0,201,87,0,200,88,0,200*53
$PAIRSAT,3,23,2,0,1221,3,0,1221,4,0,1200,5,0,200,7,0,1221,8,0,1221,9,0,1200,10,0,1200,11,0,1200,12,0,1200,13,0,1221,15,0,1221,19,0,1200,21,0,1200,24,0,1200,25,0,1200,26,0,1221,27,0,1200,30,0,1221,31,0,1200,33,0,1200,34,0,1200,36,0,1200*6A
$PAIRSAT,4,50,1,0,200,2,0,200,3,0,200,4,0,200,5,0,200,6,0,201,7,0,200,8,0,201,9,0,201,10,0,200,11,0,200,12,0,200,13,0,201,14,0,200,15,0,200,16,0,201,19,0,621,20,0,621,21,0,600,22,0,621,23,0,600,24,0,600,25,0,600,26,0,600,27,0,600,28,0,600,29,0,621,30,0,600,31,0,200,32,0,600,33,0,600,34,0,600,35,0,621,36,0,621,37,0,621,38,0,621,39,0,621,40,0,600,41,0,600,42,0,600,43,0,600,44,0,600,45,0,600,46,0,621,56,0,200,57,0,200,58,0,200,59,0,600,60,0,600,61,0,600*41
$PAIRDGP,8,5,10,12,13,15,18,23,24*72
$GNGGA,111919.200,2500.8120600,N,12132.4760100,E,2,65,0.42,21.42,M,15.25,M,2,3335*79
$GNRMC,111919.200,A,2500.8120600,N,12132.4760100,E,0.02,315.58,260623,,,D,V*0B
$GPHDT,,T*1B
$GNACCURACY,2.8*1C
$GNGGA,111919.300,2500.8120600,N,12132.4760100,E,2,64,0.42,21.42,M,15.25,M,2,3335*79
$GNRMC,111919.300,A,2500.8120600,N,12132.4760100,E,0.02,315.58,260623,,,D,V*0A
$GPHDT,,T*1B
$GNACCURACY,2.8*1C
$GNGGA,111919.400,2500.8120600,N,12132.4760100,E,2,64,0.42,21.43,M,15.25,M,1,3335*7C
$GNRMC,111919.400,A,2500.8120600,N,12132.4760100,E,0.01,315.58,260623,,,D,V*0E
$GPHDT,,T*1B
$GNACCURACY,2.8*1C
$GNGGA,111919.500,2500.8120600,N,12132.4760000,E,2,64,0.42,21.43,M,15.25,M,1,3335*7C
$GNRMC,111919.500,A,2500.8120600,N,12132.4760000,E,0.01,315.58,260623,,,D,V*0E
$GPHDT,,T*1B
$GNACCURACY,2.8*1C
$GNGGA,111919.600,2500.8120600,N,12132.4760000,E,2,64,0.42,21.43,M,15.25,M,0,3335*7E
$GNRMC,111919.600,A,2500.8120600,N,12132.4760000,E,0.02,315.58,260623,,,D,V*0E
$GPHDT,,T*1B
$GNACCURACY,2.8*1C
$GNGGA,111919.700,2500.8120600,N,12132.4759900,E,2,64,0.42,21.43,M,15.25,M,0,3335*7C
$GNRMC,111919.700,A,2500.8120600,N,12132.4759900,E,0.01,315.58,260623,,,D,V*0F
$GPHDT,,T*1B
$GNACCURACY,2.8*1C
$GNGGA,111919.800,2500.8120600,N,12132.4759900,E,2,63,0.42,21.43,M,15.25,M,0,3335*74
$GNRMC,111919.800,A,2500.8120600,N,12132.4759900,E,0.02,315.58,260623,,,D,V*03
$GPHDT,,T*1B
$GNACCURACY,2.8*1C
$GNGGA,111919.900,2500.8120600,N,12132.4759800,E,2,63,0.42,21.43,M,15.25,M,0,3335*74
$GNRMC,111919.900,A,2500.8120600,N,12132.4759800,E,0.02,315.58,260623,,,D,V*03
$GPHDT,,T*1B
$GNACCURACY,2.8*1C
$GNGGA,111920.000,2500.8120600,N,12132.4759800,E,2,63,0.42,21.43,M,15.25,M,1,3335*76
$GNRMC,111920.000,A,2500.8120600,N,12132.4759800,E,0.02,315.58,260623,,,D,V*00
$GPHDT,,T*1B
$GNACCURACY,2.8*1C
$GNGGA,111920.100,2500.8120600,N,12132.4759700,E,2,63,0.42,21.43,M,15.25,M,1,3335*78
$GNRMC,111920.100,A,2500.8120600,N,12132.4759700,E,0.01,315.58,260623,,,D,V*0D
$GPHDT,,T*1B
$GNGSA,A,3,24,196,199,18,23,15,195,194,05,12,10,13,0.74,0.42,0.61,1*02
$GNGSA,A,3,80,70,85,73,86,71,69,79,,,,,0.74,0.42,0.61,2*0F
$GNGSA,A,3,13,08,07,26,15,02,30,03,,,,,0.74,0.42,0.61,3*0E
$GNGSA,A,3,38,08,39,13,16,06,46,09,19,20,36,35,0.74,0.42,0.61,4*0E
$GNGSA,A,3,29,22,,,,,,,,,,,0.74,0.42,0.61,4*0D
$GPGSV,4,1,15,24,77,050,46,196,74,063,40,199,60,167,23,18,60,253,20,1*67
$GPGSV,4,2,15,23,48,336,25,15,39,043,32,195,35,179,28,194,29,139,43,1*67
$GPGSV,4,3,15,05,21,116,25,12,18,144,34,10,15,317,37,13,10,054,20,1*68
$GPGSV,4,4,15,32,08,266,18,25,07,178,,42,,,,1*6A
$GPGSV,3,1,09,24,77,050,47,196,74,063,46,18,60,253,29,199,60,167,25,8*6C
$GPGSV,3,2,09,23,48,336,28,195,35,179,29,194,29,139,46,10,15,317,42,8*63
$GPGSV,3,3,09,32,08,266,25,8*58
$GLGSV,2,1,08,80,48,083,32,70,40,005,16,85,38,250,18,73,34,161,38,1*7A
$GLGSV,2,2,08,86,26,306,35,71,20,310,39,69,14,070,32,79,14,034,20,1*77
$GAGSV,3,1,09,13,58,236,28,08,48,022,45,07,43,299,30,26,31,309,39,7*78
$GAGSV,3,2,09,15,25,174,18,02,25,088,20,30,24,145,38,03,11,062,,7*7D
$GAGSV,3,3,09,25,04,045,,7*48
$GAGSV,2,1,08,13,58,236,28,08,48,022,45,07,43,299,39,26,31,309,44,1*7D
$GAGSV,2,2,08,02,25,088,37,15,25,174,23,30,24,145,41,03,11,062,25,1*7C
$GBGSV,4,1,14,38,83,094,40,08,77,005,38,39,72,278,35,13,67,336,38,1*73
$GBGSV,4,2,14,16,66,253,34,06,65,249,31,46,58,118,43,09,49,235,24,1*7F
$GBGSV,4,3,14,19,47,341,26,20,43,059,37,36,32,184,29,35,22,272,32,1*72
$GBGSV,4,4,14,29,21,214,15,22,10,299,33,1*7B
$GBGSV,2,1,07,38,83,094,42,39,72,278,39,46,58,118,45,19,47,341,24,4*79
$GBGSV,2,2,07,20,43,059,23,36,32,184,31,35,22,272,36,4*43
$GNACCURACY,2.8*1C
$PAIRSAT,1,35,1,0,200,2,0,200,3,0,200,4,0,200,5,0,201,6,0,200,7,0,200,8,0,200,9,0,200,10,0,221,11,0,200,12,0,201,13,0,201,14,0,200,15,0,201,16,0,200,17,0,200,18,0,221,19,0,200,20,0,200,21,0,200,23,0,221,24,0,221,25,0,200,26,0,200,27,0,200,28,0,200,29,0,200,30,0,200,31,0,200,32,0,220,194,0,621,195,0,621,196,0,620,199,0,621*69
$PAIRSAT,2,23,65,0,200,67,0,200,68,0,200,69,0,201,70,0,201,71,0,201,72,0,200,73,0,201,74,0,200,75,0,200,76,0,200,77,0,200,78,0,200,79,0,201,80,0,201,81,0,200,82,0,200,83,0,200,84,0,200,85,0,201,86,0,201,87,0,200,88,0,200*53
$PAIRSAT,3,23,2,0,1221,3,0,1221,4,0,1200,5,0,200,7,0,1221,8,0,1221,9,0,1200,10,0,1200,11,0,1200,12,0,1200,13,0,1221,15,0,1221,19,0,1200,21,0,1200,24,0,1200,25,0,1200,26,0,1221,27,0,1200,30,0,1221,31,0,1200,33,0,1200,34,0,1200,36,0,1200*6A
$PAIRSAT,4,50,1,0,200,2,0,200,3,0,200,4,0,200,5,0,200,6,0,201,7,0,200,8,0,201,9,0,201,10,0,200,11,0,200,12,0,200,13,0,201,14,0,200,15,0,200,16,0,201,19,0,621,20,0,621,21,0,600,22,0,621,23,0,600,24,0,600,25,0,600,26,0,600,27,0,600,28,0,600,29,0,621,30,0,600,31,0,200,32,0,600,33,0,600,34,0,600,35,0,621,36,0,621,37,0,621,38,0,621,39,0,621,40,0,600,41,0,600,42,0,600,43,0,600,44,0,600,45,0,600,46,0,621,56,0,200,57,0,200,58,0,200,59,0,600,60,0,600,61,0,600*41
$PAIRDGP,8,5,10,12,13,15,18,23,24*72
$GNGGA,111920.200,2500.8120600,N,12132.4759700,E,2,64,0.42,21.43,M,15.25,M,1,3335*7C
$GNRMC,111920.200,A,2500.8120600,N,12132.4759700,E,0.01,315.58,260623,,,D,V*0E
$GPHDT,,T*1B
$GNACCURACY,2.8*1C
$GNGGA,111920.300,2500.8120600,N,12132.4759700,E,2,64,0.42,21.43,M,15.25,M,1,3335*7D
$GNRMC,111920.300,A,2500.8120600,N,12132.4759700,E,0.01,315.58,260623,,,D,V*0F
$GPHDT,,T*1B
$GNACCURACY,2.8*1C
$GNGGA,111920.400,2500.8120500,N,12132.4759600,E,2,64,0.42,21.43,M,15.25,M,1,3335*78
$GNRMC,111920.400,A,2500.8120500,N,12132.4759600,E,0.01,315.58,260623,,,D,V*0A
$GPHDT,,T*1B
$GNACCURACY,2.8*1C
$GNGGA,111920.500,2500.8120500,N,12132.4759500,E,2,64,0.42,21.44,M,15.25,M,1,3335*7D
$GNRMC,111920.500,A,2500.8120500,N,12132.4759500,E,0.02,315.58,260623,,,D,V*0B
$GPHDT,,T*1B
$GNACCURACY,2.8*1C
$GNGGA,111920.600,2500.8120400,N,12132.4759400,E,2,65,0.42,21.44,M,15.25,M,1,3335*7F
$GNRMC,111920.600,A,2500.8120400,N,12132.4759400,E,0.02,315.58,260623,,,D,V*08
$GPHDT,,T*1B
$GNACCURACY,2.8*1C
$GNGGA,111920.700,2500.8120400,N,12132.4759300,E,2,65,0.42,21.45,M,15.25,M,1,3335*78
$GNRMC,111920.700,A,2500.8120400,N,12132.4759300,E,0.02,315.58,260623,,,D,V*0E
$GPHDT,,T*1B
$GNACCURACY,2.8*1C
$GNGGA,111920.800,2500.8120300,N,12132.4759200,E,2,65,0.42,21.45,M,15.25,M,1,3335*71
$GNRMC,111920.800,A,2500.8120300,N,12132.4759200,E,0.01,315.58,260623,,,D,V*04
$GPHDT,,T*1B
$GNACCURACY,2.8*1C
$GNGGA,111920.900,2500.8120300,N,12132.4759100,E,2,65,0.42,21.45,M,15.25,M,1,3335*73
$GNRMC,111920.900,A,2500.8120300,N,12132.4759100,E,0.01,315.58,260623,,,D,V*06
$GPHDT,,T*1B
$GNACCURACY,2.8*1C
$GNGGA,111921.000,2500.8120300,N,12132.4759100,E,2,65,0.42,21.45,M,15.25,M,2,3335*78
$GNRMC,111921.000,A,2500.8120300,N,12132.4759100,E,0.01,315.58,260623,,,D,V*0E
$GPHDT,,T*1B
$GNACCURACY,2.8*1C
$GNGGA,111921.100,2500.8120200,N,12132.4759000,E,2,65,0.42,21.45,M,15.25,M,1,3335*7A
$GNRMC,111921.100,A,2500.8120200,N,12132.4759000,E,0.01,315.58,260623,,,D,V*0F
$GPHDT,,T*1B
$GNGSA,A,3,24,196,199,18,23,15,195,194,05,12,10,13,0.74,0.42,0.61,1*02
$GNGSA,A,3,80,70,85,73,86,71,69,79,,,,,0.74,0.42,0.61,2*0F
$GNGSA,A,3,13,08,07,26,15,02,30,03,,,,,0.74,0.42,0.61,3*0E
$GNGSA,A,3,38,08,39,13,16,06,46,09,19,20,36,35,0.74,0.42,0.61,4*0E
$GNGSA,A,3,29,22,,,,,,,,,,,0.74,0.42,0.61,4*0D
$GPGSV,4,1,14,24,77,050,46,196,74,063,40,199,60,167,23,18,60,253,20,1*66
$GPGSV,4,2,14,23,48,336,25,15,39,043,32,195,35,179,28,194,29,139,43,1*66
$GPGSV,4,3,14,05,21,116,24,12,18,144,34,10,15,317,37,13,10,054,20,1*68
$GPGSV,4,4,14,32,08,266,18,25,07,178,,1*6D
$GPGSV,3,1,09,24,77,050,47,196,74,063,46,18,60,253,29,199,60,167,24,8*6D
$GPGSV,3,2,09,23,48,336,28,195,35,179,30,194,29,139,46,10,15,317,42,8*6B
$GPGSV,3,3,09,32,08,266,24,8*59
$GLGSV,3,1,09,80,48,083,33,70,40,005,16,85,38,250,17,73,34,161,38,1*74
$GLGSV,3,2,09,86,26,306,35,71,20,310,40,69,14,070,31,79,14,034,20,1*7A
$GLGSV,3,3,09,84,12,191,,1*47
$GAGSV,2,1,08,13,58,236,28,08,48,022,45,07,43,299,30,26,31,309,39,7*78
$GAGSV,2,2,08,15,25,174,18,02,25,088,19,30,24,145,38,03,11,062,,7*77
$GAGSV,2,1,08,13,58,236,27,08,48,022,45,07,43,299,39,26,31,309,44,1*72
$GAGSV,2,2,08,02,25,088,37,15,25,174,21,30,24,145,41,03,11,062,25,1*7E
$GBGSV,4,1,14,38,83,094,40,08,77,005,38,39,72,278,35,13,67,336,38,1*73
$GBGSV,4,2,14,16,66,253,34,06,65,249,31,46,58,118,43,09,49,235,24,1*7F
$GBGSV,4,3,14,19,47,341,26,20,43,059,37,36,32,184,30,35,22,272,32,1*7A
$GBGSV,4,4,14,29,21,214,15,22,10,299,33,1*7B
$GBGSV,2,1,08,38,83,094,42,39,72,278,38,46,58,118,44,19,47,341,24,4*76
$GBGSV,2,2,08,20,43,059,24,36,32,184,30,35,22,272,35,29,21,214,17,4*70
$GNACCURACY,2.8*1C
$PAIRSAT,1,35,1,0,200,2,0,200,3,0,200,4,0,200,5,0,201,6,0,200,7,0,200,8,0,200,9,0,200,10,0,221,11,0,200,12,0,201,13,0,201,14,0,200,15,0,201,16,0,200,17,0,200,18,0,221,19,0,200,20,0,200,21,0,200,23,0,221,24,0,221,25,0,200,26,0,200,27,0,200,28,0,200,29,0,200,30,0,200,31,0,200,32,0,220,194,0,621,195,0,621,196,0,620,199,0,621*69
$PAIRSAT,2,23,65,0,200,67,0,200,68,0,200,69,0,201,70,0,201,71,0,201,72,0,200,73,0,201,74,0,200,75,0,200,76,0,200,77,0,200,78,0,200,79,0,201,80,0,201,81,0,200,82,0,200,83,0,200,84,0,200,85,0,201,86,0,201,87,0,200,88,0,200*53
$PAIRSAT,3,23,2,0,1221,3,0,1221,4,0,1200,5,0,200,7,0,1221,8,0,1221,9,0,1200,10,0,1200,11,0,1200,12,0,1200,13,0,1221,15,0,1221,19,0,1200,21,0,1200,24,0,1200,25,0,1200,26,0,1221,27,0,1200,30,0,1221,31,0,1200,33,0,1200,34,0,1200,36,0,1200*6A
$PAIRSAT,4,50,1,0,200,2,0,200,3,0,200,4,0,200,5,0,200,6,0,201,7,0,200,8,0,201,9,0,201,10,0,200,11,0,200,12,0,200,13,0,201,14,0,200,15,0,200,16,0,201,19,0,621,20,0,621,21,0,600,22,0,621,23,0,600,24,0,600,25,0,600,26,0,600,27,0,600,28,0,600,29,0,621,30,0,600,31,0,200,32,0,600,33,0,600,34,0,600,35,0,621,36,0,621,37,0,621,38,0,621,39,0,621,40,0,600,41,0,600,42,0,600,43,0,600,44,0,600,45,0,600,46,0,621,56,0,200,57,0,200,58,0,200,59,0,600,60,0,600,61,0,600*41
$PAIRDGP,8,5,10,12,13,15,18,23,24*72
$GNGGA,111921.200,2500.8120200,N,12132.4758900,E,2,65,0.42,21.45,M,15.25,M,1,3335*71
$GNRMC,111921.200,A,2500.8120200,N,12132.4758900,E,0.01,315.58,260623,,,D,V*04
$GPHDT,,T*1B
$GNACCURACY,2.8*1C
$GNGGA,111921.300,2500.8120200,N,12132.4758900,E,2,64,0.42,21.45,M,15.25,M,1,3335*71
$GNRMC,111921.300,A,2500.8120200,N,12132.4758900,E,0.01,315.58,260623,,,D,V*05
$GPHDT,,T*1B
$GNACCURACY,2.8*1C
$GNGGA,111921.400,2500.8120100,N,12132.4758900,E,2,64,0.42,21.45,M,15.25,M,1,3335*75
$GNRMC,111921.400,A,2500.8120100,N,12132.4758900,E,0.02,315.58,260623,,,D,V*02
$GPHDT,,T*1B
$GNACCURACY,2.8*1C
$GNGGA,111921.500,2500.8120100,N,12132.4758800,E,2,64,0.42,21.45,M,15.25,M,1,3335*75
$GNRMC,111921.500,A,2500.8120100,N,12132.4758800,E,0.01,315.58,260623,,,D,V*01
$GPHDT,,T*1B
$GNACCURACY,2.8*1C
$GNGGA,111921.600,2500.8120100,N,12132.4758800,E,2,64,0.42,21.45,M,15.25,M,1,3335*76
$GNRMC,111921.600,A,2500.8120100,N,12132.4758800,E,0.01,315.58,260623,,,D,V*02
$GPHDT,,T*1B
$GNACCURACY,2.8*1C
$GNGGA,111921.700,2500.8120000,N,12132.4758700,E,2,64,0.42,21.45,M,15.25,M,1,3335*79
$GNRMC,111921.700,A,2500.8120000,N,12132.4758700,E,0.01,315.58,260623,,,D,V*0D
$GPHDT,,T*1B
$GNACCURACY,2.8*1C
$GNGGA,111921.800,2500.8120000,N,12132.4758600,E,2,64,0.42,21.45,M,15.25,M,1,3335*77
$GNRMC,111921.800,A,2500.8120000,N,12132.4758600,E,0.01,315.58,260623,,,D,V*03
$GPHDT,,T*1B
$GNACCURACY,2.8*1C
$GNGGA,111921.900,2500.8120000,N,12132.4758600,E,2,64,0.42,21.45,M,15.25,M,1,3335*76
$GNRMC,111921.900,A,2500.8120000,N,12132.4758600,E,0.02,315.58,260623,,,D,V*01
$GPHDT,,T*1B
$GNACCURACY,2.8*1C
$GNGGA,111922.000,2500.8120000,N,12132.4758600,E,2,64,0.42,21.45,M,15.25,M,2,3335*7F
$GNRMC,111922.000,A,2500.8120000,N,12132.4758600,E,0.02,315.58,260623,,,D,V*0B
$GPHDT,,T*1B
$GNACCURACY,2.8*1C
$GNGGA,111922.100,2500.8120000,N,12132.4758500,E,2,64,0.42,21.45,M,15.25,M,2,3335*7D
$GNRMC,111922.100,A,2500.8120000,N,12132.4758500,E,0.02,315.58,260623,,,D,V*09
$GPHDT,,T*1B
$GNGSA,A,3,24,196,199,18,23,15,195,194,05,12,10,13,0.74,0.42,0.61,1*02
$GNGSA,A,3,80,70,85,73,86,71,69,79,,,,,0.74,0.42,0.61,2*0F
$GNGSA,A,3,13,08,07,26,15,02,30,03,,,,,0.74,0.42,0.61,3*0E
$GNGSA,A,3,38,08,39,13,16,06,46,09,19,20,36,35,0.74,0.42,0.61,4*0E
$GNGSA,A,3,22,29,,,,,,,,,,,0.74,0.42,0.61,4*0D
$GPGSV,4,1,14,24,77,050,46,196,74,063,40,199,60,167,22,18,60,253,24,1*63
$GPGSV,4,2,14,23,48,336,25,15,39,043,32,195,35,179,28,194,29,139,43,1*66
$GPGSV,4,3,14,05,21,116,28,12,18,144,34,10,15,317,38,13,10,054,20,1*6B
$GPGSV,4,4,14,32,08,266,18,25,07,178,,1*6D
$GPGSV,3,1,09,24,77,050,47,196,74,063,46,18,60,253,29,199,60,167,25,8*6C
$GPGSV,3,2,09,23,48,336,28,195,35,179,30,194,29,139,46,10,15,317,42,8*6B
$GPGSV,3,3,09,32,08,266,24,8*59
$GLGSV,3,1,09,80,48,083,31,70,40,005,16,85,38,250,19,73,34,161,38,1*78
$GLGSV,3,2,09,86,26,306,36,71,20,310,39,69,14,070,31,79,14,034,19,1*7D
$GLGSV,3,3,09,84,12,191,,1*47
$GAGSV,2,1,08,13,58,236,26,08,48,022,45,07,43,299,30,26,31,309,36,7*79
$GAGSV,2,2,08,15,25,174,18,02,25,088,22,30,24,145,38,03,11,062,,7*7F
$GAGSV,2,1,08,13,58,236,26,08,48,022,45,07,43,299,39,26,31,309,43,1*74
$GAGSV,2,2,08,02,25,088,37,15,25,174,24,30,24,145,41,03,11,062,24,1*7A
$GBGSV,4,1,14,38,83,095,40,08,77,005,38,39,72,278,34,13,67,336,38,1*73
$GBGSV,4,2,14,16,66,253,34,06,65,249,31,46,58,118,43,09,49,235,24,1*7F
$GBGSV,4,3,14,19,47,341,27,20,43,059,37,36,32,184,31,35,22,272,31,1*79
$GBGSV,4,4,14,29,21,214,16,22,10,299,31,1*7A
$GBGSV,2,1,08,38,83,095,42,39,72,278,38,46,58,118,44,19,47,341,24,4*77
$GBGSV,2,2,08,20,43,059,24,36,32,184,30,35,22,272,35,29,21,214,17,4*70
$GNACCURACY,2.8*1C
$PAIRSAT,1,35,1,0,200,2,0,200,3,0,200,4,0,200,5,0,201,6,0,200,7,0,200,8,0,200,9,0,200,10,0,221,11,0,200,12,0,201,13,0,201,14,0,200,15,0,201,16,0,200,17,0,200,18,0,221,19,0,200,20,0,200,21,0,200,23,0,221,24,0,221,25,0,200,26,0,200,27,0,200,28,0,200,29,0,200,30,0,200,31,0,200,32,0,220,194,0,621,195,0,621,196,0,620,199,0,621*69
$PAIRSAT,2,23,65,0,200,67,0,200,68,0,200,69,0,201,70,0,201,71,0,201,72,0,200,73,0,201,74,0,200,75,0,200,76,0,200,77,0,200,78,0,200,79,0,201,80,0,201,81,0,200,82,0,200,83,0,200,84,0,200,85,0,201,86,0,201,87,0,200,88,0,200*53
$PAIRSAT,3,23,2,0,1221,3,0,1221,4,0,1200,5,0,200,7,0,1221,8,0,1221,9,0,1200,10,0,1200,11,0,1200,12,0,1200,13,0,1221,15,0,1221,19,0,1200,21,0,1200,24,0,1200,25,0,1200,26,0,1221,27,0,1200,30,0,1221,31,0,1200,33,0,1200,34,0,1200,36,0,1200*6A
$PAIRSAT,4,50,1,0,200,2,0,200,3,0,200,4,0,200,5,0,200,6,0,201,7,0,200,8,0,201,9,0,201,10,0,200,11,0,200,12,0,200,13,0,201,14,0,200,15,0,200,16,0,201,19,0,621,20,0,621,21,0,600,22,0,621,23,0,600,24,0,600,25,0,600,26,0,600,27,0,600,28,0,600,29,0,621,30,0,600,31,0,200,32,0,600,33,0,600,34,0,600,35,0,621,36,0,621,37,0,621,38,0,621,39,0,621,40,0,600,41,0,600,42,0,600,43,0,600,44,0,600,45,0,600,46,0,621,56,0,200,57,0,200,58,0,200,59,0,600,60,0,600,61,0,600*41
$PAIRDGP,8,5,10,12,13,15,18,23,24*72
$GNGGA,111922.200,2500.8119900,N,12132.4758500,E,2,64,0.42,21.45,M,15.25,M,2,3335*7D
$GNRMC,111922.200,A,2500.8119900,N,12132.4758500,E,0.02,315.58,260623,,,D,V*09
$GPHDT,,T*1B
$GNACCURACY,2.8*1C
$GNGGA,111922.300,2500.8119900,N,12132.4758500,E,2,64,0.42,21.45,M,15.25,M,2,3335*7C
$GNRMC,111922.300,A,2500.8119900,N,12132.4758500,E,0.02,315.58,260623,,,D,V*08
$GPHDT,,T*1B
$GNACCURACY,2.8*1C
$GNGGA,111922.400,2500.8119900,N,12132.4758500,E,2,64,0.42,21.45,M,15.25,M,1,3335*78
$GNRMC,111922.400,A,2500.8119900,N,12132.4758500,E,0.02,315.58,260623,,,D,V*0F
$GPHDT,,T*1B
$GNACCURACY,2.8*1C
$GNGGA,111922.500,2500.8119800,N,12132.4758400,E,2,64,0.42,21.45,M,15.25,M,0,3335*78
$GNRMC,111922.500,A,2500.8119800,N,12132.4758400,E,0.02,315.58,260623,,,D,V*0E
$GPHDT,,T*1B
$GNACCURACY,2.8*1C
$GNGGA,111922.600,2500.8119700,N,12132.4758300,E,2,65,0.42,21.45,M,15.25,M,0,3335*72
$GNRMC,111922.600,A,2500.8119700,N,12132.4758300,E,0.02,315.58,260623,,,D,V*05
$GPHDT,,T*1B
$GNACCURACY,2.8*1C
$GNGGA,111922.700,2500.8119700,N,12132.4758300,E,2,65,0.42,21.45,M,15.25,M,0,3335*73
$GNRMC,111922.700,A,2500.8119700,N,12132.4758300,E,0.02,315.58,260623,,,D,V*04
$GPHDT,,T*1B
$GNACCURACY,2.8*1C
$GNGGA,111922.800,2500.8119600,N,12132.4758200,E,2,65,0.42,21.45,M,15.25,M,0,3335*7C
$GNRMC,111922.800,A,2500.8119600,N,12132.4758200,E,0.02,315.58,260623,,,D,V*0B
$GPHDT,,T*1B
$GNACCURACY,2.8*1C
$GNGGA,111922.900,2500.8119600,N,12132.4758200,E,2,65,0.42,21.46,M,15.25,M,0,3335*7E
$GNRMC,111922.900,A,2500.8119600,N,12132.4758200,E,0.02,315.58,260623,,,D,V*0A
$GPHDT,,T*1B
$GNACCURACY,2.8*1C
$GNGGA,111923.000,2500.8119400,N,12132.4758000,E,2,65,0.42,21.46,M,15.25,M,1,3335*77
$GNRMC,111923.000,A,2500.8119400,N,12132.4758000,E,0.02,315.58,260623,,,D,V*02
$GPHDT,,T*1B
$GNACCURACY,2.8*1C
$GNGGA,111923.100,2500.8119400,N,12132.4758000,E,2,65,0.42,21.46,M,15.25,M,1,3335*76
$GNRMC,111923.100,A,2500.8119400,N,12132.4758000,E,0.02,315.58,260623,,,D,V*03
$GPHDT,,T*1B
$GNGSA,A,3,24,196,199,18,23,15,195,194,05,12,10,13,0.74,0.42,0.61,1*02
$GNGSA,A,3,80,70,85,73,86,71,69,79,,,,,0.74,0.42,0.61,2*0F
$GNGSA,A,3,13,08,07,26,15,02,30,03,,,,,0.74,0.42,0.61,3*0E
$GNGSA,A,3,38,08,39,13,16,06,46,09,19,20,36,35,0.74,0.42,0.61,4*0E
$GNGSA,A,3,29,22,,,,,,,,,,,0.74,0.42,0.61,4*0D
$GPGSV,4,1,14,24,77,050,46,196,74,063,40,199,60,167,23,18,60,253,24,1*62
$GPGSV,4,2,14,23,48,336,24,15,39,043,32,195,35,179,28,194,29,139,43,1*67
$GPGSV,4,3,14,05,21,116,29,12,18,144,33,10,15,317,39,13,10,054,19,1*66
$GPGSV,4,4,14,32,08,266,18,25,07,178,,1*6D
$GPGSV,3,1,09,24,77,050,47,196,74,063,46,18,60,253,30,199,60,167,25,8*64
$GPGSV,3,2,09,23,48,336,28,195,35,179,29,194,29,139,46,10,15,317,42,8*63
$GPGSV,3,3,09,32,08,266,23,8*5E
$GLGSV,3,1,09,80,48,083,33,70,40,005,17,85,38,250,20,73,34,161,38,1*71
$GLGSV,3,2,09,86,26,306,34,71,20,310,39,69,14,070,32,79,14,034,19,1*7C
$GLGSV,3,3,09,84,12,191,,1*47
$GAGSV,3,1,09,13,58,236,25,08,48,022,45,07,43,299,29,26,31,309,37,7*73
$GAGSV,3,2,09,15,25,174,17,02,25,088,24,30,24,145,39,03,11,062,,7*77
$GAGSV,3,3,09,25,04,045,,7*48
$GAGSV,2,1,08,13,58,236,27,08,48,022,45,07,43,299,38,26,31,309,42,1*75
$GAGSV,2,2,08,02,25,088,36,15,25,174,25,30,24,145,42,03,11,062,24,1*79
$GBGSV,4,1,14,38,83,095,40,08,77,005,38,39,72,278,34,13,67,336,38,1*73
$GBGSV,4,2,14,16,66,253,34,06,65,249,30,46,58,117,43,09,49,235,24,1*71
$GBGSV,4,3,14,19,47,341,26,20,43,059,37,36,32,184,31,35,22,272,33,1*7A
$GBGSV,4,4,14,29,21,214,17,22,10,299,30,1*7A
$GBGSV,2,1,08,38,83,095,42,39,72,278,38,46,58,117,44,19,47,341,23,4*7F
$GBGSV,2,2,08,20,43,059,25,36,32,184,30,35,22,272,36,29,21,214,16,4*73
$GNACCURACY,2.8*1C
$PAIRSAT,1,35,1,0,200,2,0,200,3,0,200,4,0,200,5,0,201,6,0,200,7,0,200,8,0,200,9,0,200,10,0,221,11,0,200,12,0,201,13,0,201,14,0,200,15,0,201,16,0,200,17,0,200,18,0,221,19,0,200,20,0,200,21,0,200,23,0,221,24,0,221,25,0,200,26,0,200,27,0,200,28,0,200,29,0,200,30,0,200,31,0,200,32,0,220,194,0,621,195,0,621,196,0,620,199,0,621*69
$PAIRSAT,2,23,65,0,200,67,0,200,68,0,200,69,0,201,70,0,201,71,0,201,72,0,200,73,0,201,74,0,200,75,0,200,76,0,200,77,0,200,78,0,200,79,0,201,80,0,201,81,0,200,82,0,200,83,0,200,84,0,200,85,0,201,86,0,201,87,0,200,88,0,200*53
$PAIRSAT,3,23,2,0,1221,3,0,1221,4,0,1200,5,0,200,7,0,1221,8,0,1221,9,0,1200,10,0,1200,11,0,1200,12,0,1200,13,0,1221,15,0,1221,19,0,1200,21,0,1200,24,0,1200,25,0,1200,26,0,1221,27,0,1200,30,0,1221,31,0,1200,33,0,1200,34,0,1200,36,0,1200*6A
$PAIRSAT,4,50,1,0,200,2,0,200,3,0,200,4,0,200,5,0,200,6,0,201,7,0,200,8,0,201,9,0,201,10,0,200,11,0,200,12,0,200,13,0,201,14,0,200,15,0,200,16,0,201,19,0,621,20,0,621,21,0,600,22,0,621,23,0,600,24,0,600,25,0,600,26,0,600,27,0,600,28,0,600,29,0,621,30,0,600,31,0,200,32,0,600,33,0,600,34,0,600,35,0,621,36,0,621,37,0,621,38,0,621,39,0,621,40,0,600,41,0,600,42,0,600,43,0,600,44,0,600,45,0,600,46,0,621,56,0,200,57,0,200,58,0,200,59,0,600,60,0,600,61,0,600*41
$PAIRDGP,8,5,10,12,13,15,18,23,24*72
$GNGGA,111923.200,2500.8119300,N,12132.4757900,E,2,65,0.42,21.46,M,15.25,M,1,3335*74
$GNRMC,111923.200,A,2500.8119300,N,12132.4757900,E,0.02,315.58,260623,,,D,V*01
$GPHDT,,T*1B
$GNACCURACY,2.8*1C
$GNGGA,111923.300,2500.8119300,N,12132.4757900,E,2,65,0.42,21.46,M,15.25,M,1,3335*75
$GNRMC,111923.300,A,2500.8119300,N,12132.4757900,E,0.02,315.58,260623,,,D,V*00
$GPHDT,,T*1B
$GNACCURACY,2.8*1C
$GNGGA,111923.400,2500.8119300,N,12132.4757800,E,2,65,0.42,21.46,M,15.25,M,1,3335*73
$GNRMC,111923.400,A,2500.8119300,N,12132.4757800,E,0.02,315.58,260623,,,D,V*06
$GPHDT,,T*1B
$GNACCURACY,2.8*1C
$GNGGA,111923.500,2500.8119200,N,12132.4757700,E,2,65,0.42,21.46,M,15.25,M,1,3335*7C
$GNRMC,111923.500,A,2500.8119200,N,12132.4757700,E,0.02,315.58,260623,,,D,V*09
$GPHDT,,T*1B
$GNACCURACY,2.8*1C
$GNGGA,111923.600,2500.8119100,N,12132.4757700,E,2,65,0.42,21.47,M,15.25,M,1,3335*7D
$GNRMC,111923.600,A,2500.8119100,N,12132.4757700,E,0.02,315.58,260623,,,D,V*09
$GPHDT,,T*1B
$GNACCURACY,2.8*1C
$GNGGA,111923.700,2500.8119100,N,12132.4757600,E,2,65,0.42,21.47,M,15.25,M,1,3335*7D
$GNRMC,111923.700,A,2500.8119100,N,12132.4757600,E,0.02,315.58,260623,,,D,V*09
$GPHDT,,T*1B
$GNACCURACY,2.8*1C
$GNGGA,111923.800,2500.8119000,N,12132.4757600,E,2,65,0.42,21.48,M,15.25,M,1,3335*7C
$GNRMC,111923.800,A,2500.8119000,N,12132.4757600,E,0.02,315.58,260623,,,D,V*07
$GPHDT,,T*1B
$GNACCURACY,2.8*1C
$GNGGA,111923.900,2500.8119000,N,12132.4757400,E,2,65,0.42,21.48,M,15.25,M,1,3335*7F
$GNRMC,111923.900,A,2500.8119000,N,12132.4757400,E,0.02,315.58,260623,,,D,V*04
$GPHDT,,T*1B
$GNACCURACY,2.8*1C
$GNGGA,111924.000,2500.8118900,N,12132.4757400,E,2,65,0.42,21.48,M,15.25,M,2,3335*7A
$GNRMC,111924.000,A,2500.8118900,N,12132.4757400,E,0.02,315.58,260623,,,D,V*02
$GPHDT,,T*1B
$GNACCURACY,2.8*1C
$GNGGA,111924.100,2500.8118800,N,12132.4757300,E,2,65,0.42,21.48,M,15.25,M,2,3335*7D
$GNRMC,111924.100,A,2500.8118800,N,12132.4757300,E,0.02,315.58,260623,,,D,V*05
$GPHDT,,T*1B
$GNGSA,A,3,24,196,18,199,23,15,195,194,05,12,10,13,0.74,0.42,0.61,1*02
$GNGSA,A,3,80,70,85,73,86,71,79,69,,,,,0.74,0.42,0.61,2*0F
$GNGSA,A,3,13,08,07,26,02,15,30,03,,,,,0.74,0.42,0.61,3*0E
$GNGSA,A,3,38,08,39,13,16,06,46,09,19,20,36,35,0.74,0.42,0.61,4*0E
$GNGSA,A,3,29,22,,,,,,,,,,,0.74,0.42,0.61,4*0D
$GPGSV,4,1,13,24,77,050,46,196,74,063,40,18,60,253,22,199,60,167,23,1*63
$GPGSV,4,2,13,23,48,336,26,15,39,043,32,195,35,179,28,194,29,139,43,1*62
$GPGSV,4,3,13,05,21,116,25,12,18,144,33,10,15,317,39,13,10,054,18,1*6C
$GPGSV,4,4,13,32,08,266,19,1*55
$GPGSV,3,1,09,24,77,050,47,196,74,063,46,18,60,253,30,199,60,167,23,8*62
$GPGSV,3,2,09,23,48,336,28,195,35,179,29,194,29,139,44,10,15,317,42,8*61
$GPGSV,3,3,09,32,08,266,23,8*5E
$GLGSV,3,1,09,80,48,083,34,70,40,005,17,85,38,250,18,73,34,161,38,1*7D
$GLGSV,3,2,09,86,26,306,31,71,20,310,40,79,14,034,19,69,14,070,32,1*77
$GLGSV,3,3,09,84,12,191,,1*47
$GAGSV,3,1,09,13,58,236,22,08,48,022,45,07,43,299,31,26,31,309,37,7*7D
$GAGSV,3,2,09,02,25,088,24,15,25,174,17,30,24,145,40,03,11,062,,7*79
$GAGSV,3,3,09,25,04,045,,7*48
$GAGSV,2,1,08,13,58,236,29,08,48,022,45,07,43,299,38,26,31,309,42,1*7B
$GAGSV,2,2,08,02,25,088,36,15,25,174,24,30,24,145,38,03,11,062,25,1*74
$GBGSV,4,1,15,38,83,095,40,08,77,005,38,39,72,278,29,13,67,336,38,1*7E
$GBGSV,4,2,15,16,66,253,34,06,65,249,27,46,58,117,43,09,49,235,22,1*70
$GBGSV,4,3,15,19,47,341,29,20,43,059,37,36,32,184,31,37,24,049,,1*7A
$GBGSV,4,4,15,35,22,272,31,29,21,214,18,22,10,299,29,1*4F
$GBGSV,2,1,08,38,83,095,42,39,72,278,37,46,58,117,44,19,47,341,22,4*71
$GBGSV,2,2,08,20,43,059,23,36,32,184,30,35,22,272,37,29,21,214,17,4*75
$GNACCURACY,2.8*1C
$PAIRSAT,1,35,1,0,200,2,0,200,3,0,200,4,0,200,5,0,201,6,0,200,7,0,200,8,0,200,9,0,200,10,0,221,11,0,200,12,0,201,13,0,201,14,0,200,15,0,201,16,0,200,17,0,200,18,0,221,19,0,200,20,0,200,21,0,200,23,0,221,24,0,221,25,0,200,26,0,200,27,0,200,28,0,200,29,0,200,30,0,200,31,0,200,32,0,220,194,0,621,195,0,621,196,0,620,199,0,621*69
$PAIRSAT,2,23,65,0,200,67,0,200,68,0,200,69,0,201,70,0,201,71,0,201,72,0,200,73,0,201,74,0,200,75,0,200,76,0,200,77,0,200,78,0,200,79,0,201,80,0,201,81,0,200,82,0,200,83,0,200,84,0,200,85,0,201,86,0,201,87,0,200,88,0,200*53
$PAIRSAT,3,23,2,0,1221,3,0,1221,4,0,1200,5,0,200,7,0,1221,8,0,1221,9,0,1200,10,0,1200,11,0,1200,12,0,1200,13,0,1221,15,0,1221,19,0,1200,21,0,1200,24,0,1200,25,0,1200,26,0,1221,27,0,1200,30,0,1221,31,0,1200,33,0,1200,34,0,1200,36,0,1200*6A
$PAIRSAT,4,50,1,0,200,2,0,200,3,0,200,4,0,200,5,0,200,6,0,201,7,0,200,8,0,201,9,0,201,10,0,200,11,0,200,12,0,200,13,0,201,14,0,200,15,0,200,16,0,201,19,0,621,20,0,621,21,0,600,22,0,621,23,0,600,24,0,600,25,0,600,26,0,600,27,0,600,28,0,600,29,0,621,30,0,600,31,0,200,32,0,600,33,0,600,34,0,600,35,0,621,36,0,621,37,0,621,38,0,621,39,0,621,40,0,600,41,0,600,42,0,600,43,0,600,44,0,600,45,0,600,46,0,621,56,0,200,57,0,200,58,0,200,59,0,600,60,0,600,61,0,600*41
$PAIRDGP,8,5,10,12,13,15,18,23,24*72
$GNGGA,111924.200,2500.8118800,N,12132.4757300,E,2,65,0.42,21.48,M,15.25,M,2,3335*7E
$GNRMC,111924.200,A,2500.8118800,N,12132.4757300,E,0.02,315.58,260623,,,D,V*06
$GPHDT,,T*1B
$GNACCURACY,2.8*1C
$GNGGA,111924.300,2500.8118700,N,12132.4757200,E,2,65,0.42,21.48,M,15.25,M,2,3335*71
$GNRMC,111924.300,A,2500.8118700,N,12132.4757200,E,0.02,315.58,260623,,,D,V*09
$GPHDT,,T*1B
$GNACCURACY,2.8*1C
$GNGGA,111924.400,2500.8118600,N,12132.4757100,E,2,65,0.42,21.48,M,15.25,M,2,3335*74
$GNRMC,111924.400,A,2500.8118600,N,12132.4757100,E,0.02,315.58,260623,,,D,V*0C
$GPHDT,,T*1B
$GNACCURACY,2.8*1C
$GNGGA,111924.500,2500.8118500,N,12132.4757100,E,2,65,0.42,21.48,M,15.25,M,2,3335*76
$GNRMC,111924.500,A,2500.8118500,N,12132.4757100,E,0.02,315.58,260623,,,D,V*0E
$GPHDT,,T*1B
$GNACCURACY,2.8*1C
$GNGGA,111924.600,2500.8118500,N,12132.4757000,E,2,65,0.42,21.48,M,15.25,M,2,3335*74
$GNRMC,111924.600,A,2500.8118500,N,12132.4757000,E,0.02,315.58,260623,,,D,V*0C
$GPHDT,,T*1B
$GNACCURACY,2.8*1C
$GNGGA,111924.700,2500.8118400,N,12132.4756900,E,2,65,0.42,21.49,M,15.25,M,2,3335*7D
$GNRMC,111924.700,A,2500.8118400,N,12132.4756900,E,0.02,315.58,260623,,,D,V*04
$GPHDT,,T*1B
$GNACCURACY,2.8*1C
$GNGGA,111924.800,2500.8118400,N,12132.4756900,E,2,65,0.42,21.49,M,15.25,M,2,3335*72
$GNRMC,111924.800,A,2500.8118400,N,12132.4756900,E,0.02,315.58,260623,,,D,V*0B
$GPHDT,,T*1B
$GNACCURACY,2.8*1C
$GNGGA,111924.900,2500.8118300,N,12132.4756800,E,2,65,0.42,21.49,M,15.25,M,2,3335*75
$GNRMC,111924.900,A,2500.8118300,N,12132.4756800,E,0.02,315.58,260623,,,D,V*0C
$GPHDT,,T*1B
$GNACCURACY,2.8*1C
$GNGGA,111925.000,2500.8118200,N,12132.4756800,E,2,65,0.42,21.49,M,15.25,M,3,3335*7D
$GNRMC,111925.000,A,2500.8118200,N,12132.4756800,E,0.02,315.58,260623,,,D,V*05
$GPHDT,,T*1B
$GNACCURACY,2.8*1C
$GNGGA,111925.100,2500.8118200,N,12132.4756700,E,2,65,0.42,21.49,M,15.25,M,3,3335*73
$GNRMC,111925.100,A,2500.8118200,N,12132.4756700,E,0.02,315.58,260623,,,D,V*0B
$GPHDT,,T*1B
$GNGSA,A,3,24,196,199,18,23,15,195,194,05,12,10,13,0.74,0.42,0.61,1*02
$GNGSA,A,3,80,70,85,73,86,71,69,79,,,,,0.74,0.42,0.61,2*0F
$GNGSA,A,3,13,08,07,26,15,02,30,03,,,,,0.74,0.42,0.61,3*0E
$GNGSA,A,3,38,08,39,13,16,06,46,09,19,20,36,35,0.74,0.42,0.61,4*0E
$GNGSA,A,3,29,22,,,,,,,,,,,0.74,0.42,0.61,4*0D
$GPGSV,4,1,14,24,77,050,46,196,74,063,40,199,60,167,23,18,60,253,16,1*63
$GPGSV,4,2,14,23,48,336,27,15,39,043,33,195,35,179,26,194,29,139,43,1*6B
$GPGSV,4,3,14,05,21,116,28,12,18,144,33,10,16,317,39,13,10,054,17,1*6A
$GPGSV,4,4,14,32,08,266,17,25,07,178,,1*62
$GPGSV,3,1,09,24,77,050,47,196,74,063,46,18,60,253,29,199,60,167,25,8*6C
$GPGSV,3,2,09,23,48,336,29,195,35,179,31,194,29,139,44,10,16,317,43,8*6B
$GPGSV,3,3,09,32,08,266,23,8*5E
$GLGSV,3,1,09,80,48,083,34,70,40,005,17,85,38,250,22,73,34,161,38,1*74
$GLGSV,3,2,09,86,26,306,34,71,20,310,40,69,14,070,31,79,14,034,19,1*71
$GLGSV,3,3,09,84,12,191,,1*47
$GAGSV,3,1,09,13,58,236,19,08,48,022,45,07,43,299,33,26,31,309,36,7*76
$GAGSV,3,2,09,15,25,174,19,02,25,088,25,30,24,145,41,03,11,062,,7*77
$GAGSV,3,3,09,25,04,045,,7*48
$GAGSV,2,1,08,13,58,236,29,08,48,022,45,07,43,299,39,26,31,309,42,1*7A
$GAGSV,2,2,08,02,25,088,36,15,25,174,24,30,24,145,38,03,11,062,24,1*75
$GBGSV,4,1,15,38,83,095,40,08,77,005,38,39,72,278,28,13,67,336,37,1*70
$GBGSV,4,2,15,16,66,253,33,06,65,249,26,46,58,117,43,09,49,235,23,1*77
$GBGSV,4,3,15,19,47,341,31,20,43,059,37,36,32,184,30,37,24,049,,1*72
$GBGSV,4,4,15,35,22,272,30,29,21,214,20,22,10,299,32,1*4F
$GBGSV,3,1,09,38,83,095,42,39,72,278,37,46,58,117,43,19,47,341,20,4*74
$GBGSV,3,2,09,20,43,059,18,36,32,184,30,35,22,272,37,29,21,214,15,4*7F
$GBGSV,3,3,09,22,10,299,23,4*48
$GNACCURACY,2.8*1C
$PAIRSAT,1,35,1,0,200,2,0,200,3,0,200,4,0,200,5,0,201,6,0,200,7,0,200,8,0,200,9,0,200,10,0,221,11,0,200,12,0,201,13,0,201,14,0,200,15,0,201,16,0,200,17,0,200,18,0,221,19,0,200,20,0,200,21,0,200,23,0,221,24,0,221,25,0,200,26,0,200,27,0,200,28,0,200,29,0,200,30,0,200,31,0,200,32,0,220,194,0,621,195,0,621,196,0,620,199,0,621*69
$PAIRSAT,2,23,65,0,200,67,0,200,68,0,200,69,0,201,70,0,201,71,0,201,72,0,200,73,0,201,74,0,200,75,0,200,76,0,200,77,0,200,78,0,200,79,0,201,80,0,201,81,0,200,82,0,200,83,0,200,84,0,200,85,0,201,86,0,201,87,0,200,88,0,200*53
$PAIRSAT,3,23,2,0,1221,3,0,1221,4,0,1200,5,0,200,7,0,1221,8,0,1221,9,0,1200,10,0,1200,11,0,1200,12,0,1200,13,0,1221,15,0,1221,19,0,1200,21,0,1200,24,0,1200,25,0,1200,26,0,1221,27,0,1200,30,0,1221,31,0,1200,33,0,1200,34,0,1200,36,0,1200*6A
$PAIRSAT,4,50,1,0,200,2,0,200,3,0,200,4,0,200,5,0,200,6,0,201,7,0,200,8,0,201,9,0,201,10,0,200,11,0,200,12,0,200,13,0,201,14,0,200,15,0,200,16,0,201,19,0,621,20,0,621,21,0,600,22,0,621,23,0,600,24,0,600,25,0,600,26,0,600,27,0,600,28,0,600,29,0,621,30,0,600,31,0,200,32,0,600,33,0,600,34,0,600,35,0,621,36,0,621,37,0,621,38,0,621,39,0,621,40,0,600,41,0,600,42,0,600,43,0,600,44,0,600,45,0,600,46,0,621,56,0,200,57,0,200,58,0,200,59,0,600,60,0,600,61,0,600*41
$PAIRDGP,8,5,10,12,13,15,18,23,24*72
$GNGGA,111925.200,2500.8118100,N,12132.4756700,E,2,66,0.42,21.48,M,15.25,M,3,3335*71
$GNRMC,111925.200,A,2500.8118100,N,12132.4756700,E,0.02,315.58,260623,,,D,V*0B
$GPHDT,,T*1B
$GNACCURACY,2.8*1C
$GNGGA,111925.300,2500.8118100,N,12132.4756700,E,2,66,0.42,21.48,M,15.25,M,3,3335*70
$GNRMC,111925.300,A,2500.8118100,N,12132.4756700,E,0.02,315.58,260623,,,D,V*0A
$GPHDT,,T*1B
$GNACCURACY,2.8*1C
$GNGGA,111925.400,2500.8118000,N,12132.4756600,E,2,66,0.42,21.48,M,15.25,M,3,3335*77
$GNRMC,111925.400,A,2500.8118000,N,12132.4756600,E,0.03,315.58,260623,,,D,V*0C
$GPHDT,,T*1B
$GNACCURACY,2.8*1C
$GNGGA,111925.500,2500.8117900,N,12132.4756600,E,2,66,0.42,21.48,M,15.25,M,3,3335*70
$GNRMC,111925.500,A,2500.8117900,N,12132.4756600,E,0.02,315.58,260623,,,D,V*0A
$GPHDT,,T*1B
$GNACCURACY,2.8*1C
$GNGGA,111925.600,2500.8117800,N,12132.4756600,E,2,66,0.42,21.48,M,15.25,M,3,3335*72
$GNRMC,111925.600,A,2500.8117800,N,12132.4756600,E,0.02,315.58,260623,,,D,V*08
$GPHDT,,T*1B
$GNACCURACY,2.8*1C
$GNGGA,111925.700,2500.8117800,N,12132.4756500,E,2,66,0.42,21.47,M,15.25,M,3,3335*7F
$GNRMC,111925.700,A,2500.8117800,N,12132.4756500,E,0.02,315.58,260623,,,D,V*0A
$GPHDT,,T*1B
$GNACCURACY,2.8*1C
$GNGGA,111925.800,2500.8117700,N,12132.4756500,E,2,66,0.42,21.47,M,15.25,M,3,3335*7F
$GNRMC,111925.800,A,2500.8117700,N,12132.4756500,E,0.03,315.58,260623,,,D,V*0B
$GPHDT,,T*1B
$GNACCURACY,2.8*1C
$GNGGA,111925.900,2500.8117600,N,12132.4756500,E,2,66,0.42,21.46,M,15.25,M,3,3335*7E
$GNRMC,111925.900,A,2500.8117600,N,12132.4756500,E,0.03,315.58,260623,,,D,V*0B
$GPHDT,,T*1B
$GNACCURACY,2.8*1C
$GNGGA,111926.000,2500.8117600,N,12132.4756500,E,2,66,0.42,21.46,M,15.25,M,4,3335*73
$GNRMC,111926.000,A,2500.8117600,N,12132.4756500,E,0.03,315.58,260623,,,D,V*01
$GPHDT,,T*1B
$GNACCURACY,2.8*1C
$GNGGA,111926.100,2500.8117500,N,12132.4756400,E,2,66,0.42,21.46,M,15.25,M,1,3335*75
$GNRMC,111926.100,A,2500.8117500,N,12132.4756400,E,0.03,315.58,260623,,,D,V*02
$GPHDT,,T*1B
$GNGSA,A,3,24,196,199,18,23,15,195,194,05,12,10,13,0.74,0.42,0.61,1*02
$GNGSA,A,3,80,70,85,73,86,71,69,79,,,,,0.74,0.42,0.61,2*0F
$GNGSA,A,3,13,08,07,26,02,15,30,03,,,,,0.74,0.42,0.61,3*0E
$GNGSA,A,3,38,08,39,13,16,06,46,09,19,20,36,35,0.74,0.42,0.61,4*0E
$GNGSA,A,3,29,22,,,,,,,,,,,0.74,0.42,0.61,4*0D
$GPGSV,4,1,15,24,77,050,46,196,74,063,41,199,60,167,23,18,60,253,15,1*60
$GPGSV,4,2,15,23,48,336,26,15,38,043,33,195,35,179,27,194,29,139,43,1*6B
$GPGSV,4,3,15,05,21,116,26,12,18,144,33,10,16,317,39,13,10,055,17,1*64
$GPGSV,4,4,15,32,08,266,14,25,07,178,,43,,,,1*67
$GPGSV,3,1,09,24,77,050,47,196,74,063,46,18,60,253,29,199,60,167,25,8*6C
$GPGSV,3,2,09,23,48,336,29,195,35,179,31,194,29,139,44,10,16,317,43,8*6B
$GPGSV,3,3,09,32,08,266,23,8*5E
$GLGSV,3,1,09,80,48,083,34,70,40,005,17,85,38,250,24,73,34,161,38,1*72
$GLGSV,3,2,09,86,26,306,35,71,20,310,40,69,14,070,29,79,14,034,19,1*79
$GLGSV,3,3,09,84,12,191,,1*47
$GAGSV,3,1,09,13,58,236,19,08,48,022,45,07,43,299,33,26,31,309,36,7*76
$GAGSV,3,2,09,02,25,088,27,15,25,174,19,30,24,145,41,03,11,062,,7*75
$GAGSV,3,3,09,25,04,045,,7*48
$GAGSV,2,1,08,13,58,236,29,08,48,022,46,07,43,299,40,26,31,309,41,1*74
$GAGSV,2,2,08,02,25,088,37,15,25,174,24,30,24,145,38,03,11,062,23,1*73
$GBGSV,4,1,15,38,83,095,40,08,77,005,38,39,72,278,28,13,67,336,37,1*70
$GBGSV,4,2,15,16,66,253,33,06,65,249,24,46,58,117,43,09,49,235,23,1*75
$GBGSV,4,3,15,19,47,341,31,20,43,059,37,36,32,184,29,37,24,049,,1*7A
$GBG