$FW : RTK35X,V1.1X0314AS,Lib20210517,1*54
$Tool : LOCOSYS , GNSS Firebird , v1.0.0.19*39
$---------------------------------------------------*2D
A,2500.8122700,N,12132.4745300,E,0.02,315.58,260623,,,D,V*05
$GPHDT,,T*1B
$GNACCURACY,2.8*1C
$GNGGA,111845.300,2500.8122700,N,12132.4745300,E,2,64,0.42,22.68,M,15.25,M,3,3335*7D
$GNRMC,111845.300,A,2500.8122700,N,12132.4745300,E,0.02,315.58,260623,,,D,V*04
$GPHDT,,T*1B
$GNACCURACY,2.8*1C
$GNGGA,111845.400,2500.8122800,N,12132.4745400,E,2,64,0.42,22.68,M,15.25,M,3,3335*72
$GNRMC,111845.400,A,2500.8122800,N,12132.4745400,E,0.01,315.58,260623,,,D,V*08
$GPHDT,,T*1B
$GNACCURACY,2.8*1C
$GNGGA,111845.500,2500.8122800,N,12132.4745400,E,2,64,0.42,22.68,M,15.25,M,3,3335*73
$GNRMC,111845.500,A,2500.8122800,N,12132.4745400,E,0.02,315.58,260623,,,D,V*0A
$GPHDT,,T*1B
$GNACCURACY,2.8*1C
$GNGGA,111845.600,2500.8122800,N,12132.4745400,E,2,64,0.42,22.67,M,15.25,M,3,3335*7F
$GNRMC,111845.600,A,2500.8122800,N,12132.4745400,E,0.03,315.58,260623,,,D,V*08
$GPHDT,,T*1B
$GNACCURACY,2.8*1C
$GNGGA,111845.700,2500.8122900,N,12132.4745400,E,2,64,0.42,22.67,M,15.25,M,3,3335*7F
$GNRMC,111845.700,A,2500.8122900,N,12132.4745400,E,0.02,315.58,260623,,,D,V*09
$GPHDT,,T*1B
$GNACCURACY,2.8*1C
$GNGGA,111845.800,2500.8122900,N,12132.4745500,E,2,64,0.42,22.67,M,15.25,M,3,3335*71
$GNRMC,111845.800,A,2500.8122900,N,12132.4745500,E,0.02,315.58,260623,,,D,V*07
$GPHDT,,T*1B
$GNACCURACY,2.8*1C
$GNGGA,111845.900,2500.8122900,N,12132.4745500,E,2,63,0.42,22.67,M,15.25,M,3,3335*77
$GNRMC,111845.900,A,2500.8122900,N,12132.4745500,E,0.02,315.58,260623,,,D,V*06
$GPHDT,,T*1B
$GNACCURACY,2.9*1D
$GNGGA,111846.000,2500.8122900,N,12132.4745500,E,2,62,0.42,22.67,M,15.25,M,4,3335*7B
$GNRMC,111846.000,A,2500.8122900,N,12132.4745500,E,0.03,315.58,260623,,,D,V*0D
$GPHDT,,T*1B
$GNACCURACY,2.9*1D
$GNGGA,111846.100,2500.8122900,N,12132.4745600,E,2,61,0.42,22.67,M,15.25,M,3,3335*7D
$GNRMC,111846.100,A,2500.8122900,N,12132.4745600,E,0.02,315.58,260623,,,D,V*0E
$GPHDT,,T*1B
$GNGSA,A,3,24,196,199,23,15,195,194,05,12,10,18,,0.67,0.42,0.53,1*03
$GNGSA,A,3,80,70,85,73,86,71,69,79,,,,,0.67,0.42,0.53,2*0C
$GNGSA,A,3,13,08,07,26,15,02,30,03,,,,,0.67,0.42,0.53,3*0D
$GNGSA,A,3,38,08,39,13,16,06,46,09,19,20,35,29,0.67,0.42,0.53,4*03
$GNGSA,A,3,22,36,,,,,,,,,,,0.67,0.42,0.53,4*00
$GPGSV,4,1,14,24,77,051,46,196,74,063,40,199,60,167,22,18,60,254,,1*63
$GPGSV,4,2,14,23,47,336,27,15,39,043,29,195,35,179,23,194,29,139,44,1*6D
$GPGSV,4,3,14,05,21,116,36,12,18,144,34,10,15,317,37,40,12,259,,1*62
$GPGSV,4,4,14,13,10,054,,32,08,266,18,1*61
$GPGSV,3,1,09,24,77,051,46,196,74,063,45,18,60,254,26,199,60,167,21,8*63
$GPGSV,3,2,09,23,47,336,32,195,35,179,30,194,29,139,45,10,15,317,35,8*6C
$GPGSV,3,3,09,32,08,266,26,8*5B
$GLGSV,3,1,09,80,48,083,40,70,40,005,15,85,38,251,28,73,34,161,39,1*7F
$GLGSV,3,2,09,86,26,306,38,71,20,310,37,69,14,070,30,79,14,035,24,1*73
$GLGSV,3,3,09,84,12,191,,1*47
$GAGSV,3,1,09,13,59,236,23,08,48,022,44,07,43,299,37,26,31,309,37,7*7A
$GAGSV,3,2,09,15,26,174,19,02,25,089,28,30,23,145,40,03,12,062,13,7*7F
$GAGSV,3,3,09,25,04,045,,7*48
$GAGSV,2,1,06,13,59,236,25,08,48,022,45,07,43,299,42,26,31,309,43,1*74
$GAGSV,2,2,06,02,25,089,33,30,23,145,41,1*70
$GBGSV,4,1,14,38,83,093,40,08,77,005,40,39,72,277,32,13,67,336,37,1*7C
$GBGSV,4,2,14,16,66,253,23,06,65,249,33,46,58,118,44,09,49,235,22,1*7A
$GBGSV,4,3,14,19,47,341,19,20,44,058,36,36,32,184,17,35,22,272,37,1*71
$GBGSV,4,4,14,29,21,214,22,22,10,299,25,1*78
$GBGSV,2,1,08,38,83,093,43,39,72,277,37,46,58,118,44,19,47,341,27,4*73
$GBGSV,2,2,08,20,44,058,31,36,32,184,29,35,22,272,35,29,21,214,18,4*75
$GNACCURACY,2.9*1D
$PAIRSAT,1,35,1,0,200,2,0,200,3,0,200,4,0,200,5,0,201,6,0,200,7,0,200,8,0,200,9,0,200,10,0,221,11,0,200,12,0,201,13,0,201,14,0,200,15,0,201,16,0,200,17,0,200,18,0,221,19,0,200,20,0,200,21,0,200,23,0,221,24,0,221,25,0,200,26,0,200,27,0,200,28,0,200,29,0,200,30,0,200,31,0,200,32,0,220,194,0,621,195,0,621,196,0,620,199,0,621*69
$PAIRSAT,2,23,65,0,200,67,0,200,68,0,200,69,0,201,70,0,201,71,0,201,72,0,200,73,0,201,74,0,200,75,0,200,76,0,200,77,0,200,78,0,200,79,0,201,80,0,201,81,0,200,82,0,200,83,0,200,84,0,200,85,0,201,86,0,201,87,0,200,88,0,200*53
$PAIRSAT,3,23,2,0,1221,3,0,1221,4,0,1200,5,0,200,7,0,1221,8,0,1221,9,0,1200,10,0,1200,11,0,1200,12,0,1200,13,0,1221,15,0,1221,19,0,1200,21,0,1200,24,0,1200,25,0,1200,26,0,1221,27,0,1200,30,0,1221,31,0,1200,33,0,1200,34,0,1200,36,0,1200*6A
$PAIRSAT,4,50,1,0,200,2,0,200,3,0,200,4,0,200,5,0,200,6,0,201,7,0,200,8,0,201,9,0,201,10,0,200,11,0,200,12,0,200,13,0,201,14,0,200,15,0,200,16,0,201,19,0,621,20,0,621,21,0,600,22,0,621,23,0,600,24,0,600,25,0,600,26,0,600,27,0,600,28,0,600,29,0,621,30,0,600,31,0,200,32,0,600,33,0,600,34,0,600,35,0,621,36,0,621,37,0,621,38,0,621,39,0,621,40,0,600,41,0,600,42,0,600,43,0,600,44,0,600,45,0,600,46,0,621,56,0,200,57,0,200,58,0,200,59,0,600,60,0,600,61,0,600*41
$PAIRDGP,8,5,10,12,13,15,18,23,24*72
$GNGGA,111846.200,2500.8123000,N,12132.4745600,E,2,61,0.42,22.67,M,15.25,M,3,3335*76
$GNRMC,111846.200,A,2500.8123000,N,12132.4745600,E,0.04,315.58,260623,,,D,V*03
$GPHDT,,T*1B
$GNACCURACY,2.9*1D
$GNGGA,111846.300,2500.8123000,N,12132.4745600,E,2,62,0.42,22.67,M,15.25,M,3,3335*74
$GNRMC,111846.300,A,2500.8123000,N,12132.4745600,E,0.02,315.58,260623,,,D,V*04
$GPHDT,,T*1B
$GNACCURACY,2.9*1D
$GNGGA,111846.400,2500.8123000,N,12132.4745700,E,2,62,0.42,22.66,M,15.25,M,1,3335*71
$GNRMC,111846.400,A,2500.8123000,N,12132.4745700,E,0.03,315.58,260623,,,D,V*03
$GPHDT,,T*1B
$GNACCURACY,2.9*1D
$GNGGA,111846.500,2500.8123000,N,12132.4745700,E,2,62,0.42,22.66,M,15.25,M,1,3335*70
$GNRMC,111846.500,A,2500.8123000,N,12132.4745700,E,0.03,315.58,260623,,,D,V*02
$GPHDT,,T*1B
$GNACCURACY,2.9*1D
$GNGGA,111846.600,2500.8123000,N,12132.4745700,E,2,62,0.42,22.65,M,15.25,M,1,3335*70
$GNRMC,111846.600,A,2500.8123000,N,12132.4745700,E,0.02,315.58,260623,,,D,V*00
$GPHDT,,T*1B
$GNACCURACY,2.9*1D
$GNGGA,111846.700,2500.8123000,N,12132.4745700,E,2,61,0.43,22.65,M,15.25,M,1,3335*73
$GNRMC,111846.700,A,2500.8123000,N,12132.4745700,E,0.02,315.58,260623,,,D,V*01
$GPHDT,,T*1B
$GNACCURACY,2.9*1D
$GNGGA,111846.800,2500.8123000,N,12132.4745700,E,2,62,0.43,22.65,M,15.25,M,1,3335*7F
$GNRMC,111846.800,A,2500.8123000,N,12132.4745700,E,0.02,315.58,260623,,,D,V*0E
$GPHDT,,T*1B
$GNACCURACY,2.9*1D
$GNGGA,111846.900,2500.8123000,N,12132.4745700,E,2,62,0.43,22.64,M,15.25,M,1,3335*7F
$GNRMC,111846.900,A,2500.8123000,N,12132.4745700,E,0.02,315.58,260623,,,D,V*0F
$GPHDT,,T*1B
$GNACCURACY,2.9*1D
$GNGGA,111847.000,2500.8123000,N,12132.4745700,E,2,62,0.43,22.64,M,15.25,M,2,3335*74
$GNRMC,111847.000,A,2500.8123000,N,12132.4745700,E,0.01,315.58,260623,,,D,V*04
$GPHDT,,T*1B
$GNACCURACY,2.9*1D
$GNGGA,111847.100,2500.8123000,N,12132.4745700,E,2,62,0.43,22.64,M,15.25,M,2,3335*75
$GNRMC,111847.100,A,2500.8123000,N,12132.4745700,E,0.01,315.58,260623,,,D,V*05
$GPHDT,,T*1B
$GNGSA,A,3,24,196,199,18,23,15,195,194,05,12,10,,0.70,0.44,0.55,1*05
$GNGSA,A,3,80,85,73,86,71,69,79,,,,,,0.70,0.44,0.55,2*0D
$GNGSA,A,3,13,08,07,26,15,02,30,03,,,,,0.70,0.44,0.55,3*0B
$GNGSA,A,3,38,08,39,13,16,06,46,09,19,20,35,29,0.70,0.44,0.55,4*05
$GNGSA,A,3,36,,,,,,,,,,,,0.70,0.44,0.55,4*06
$GPGSV,4,1,14,24,77,051,46,196,74,063,40,199,60,167,23,18,60,254,23,1*63
$GPGSV,4,2,14,23,47,336,27,15,39,043,29,195,35,179,23,194,29,139,44,1*6D
$GPGSV,4,3,14,05,21,116,36,12,18,144,33,10,15,317,36,40,12,259,,1*64
$GPGSV,4,4,14,13,10,054,,32,08,266,16,1*6F
$GPGSV,3,1,09,24,77,051,46,196,74,063,45,18,60,254,21,199,60,167,22,8*67
$GPGSV,3,2,09,23,47,336,31,195,35,179,30,194,29,139,45,10,15,317,32,8*68
$GPGSV,3,3,09,32,08,266,24,8*59
$GLGSV,3,1,09,80,48,083,40,70,40,005,15,85,38,251,30,73,34,161,39,1*76
$GLGSV,3,2,09,86,26,306,39,71,20,310,35,69,14,070,30,79,14,035,21,1*75
$GLGSV,3,3,09,84,12,191,,1*47
$GAGSV,3,1,09,13,59,236,29,08,48,022,44,07,43,299,35,26,31,309,37,7*72
$GAGSV,3,2,09,15,26,174,20,02,25,089,27,30,23,145,40,03,12,062,14,7*7D
$GAGSV,3,3,09,25,04,045,,7*48
$GAGSV,2,1,07,13,59,236,28,08,48,022,45,07,43,299,38,26,31,309,43,1*75
$GAGSV,2,2,07,15,26,174,22,02,25,089,33,30,23,145,41,1*43
$GBGSV,4,1,14,38,83,093,40,08,77,005,38,39,72,277,36,13,67,336,38,1*78
$GBGSV,4,2,14,16,66,253,22,06,65,249,33,46,58,118,44,09,49,235,28,1*71
$GBGSV,4,3,14,19,47,341,23,20,44,058,37,36,32,184,17,35,22,272,32,1*7C
$GBGSV,4,4,14,29,21,214,21,22,10,299,19,1*74
$GBGSV,2,1,08,38,83,093,42,39,72,277,36,46,58,118,43,19,47,341,27,4*74
$GBGSV,2,2,08,20,44,058,30,36,32,184,29,35,22,272,26,29,21,214,17,4*79
$GNACCURACY,2.9*1D
$PAIRSAT,1,35,1,0,200,2,0,200,3,0,200,4,0,200,5,0,201,6,0,200,7,0,200,8,0,200,9,0,200,10,0,221,11,0,200,12,0,201,13,0,201,14,0,200,15,0,201,16,0,200,17,0,200,18,0,221,19,0,200,20,0,200,21,0,200,23,0,221,24,0,221,25,0,200,26,0,200,27,0,200,28,0,200,29,0,200,30,0,200,31,0,200,32,0,220,194,0,621,195,0,621,196,0,620,199,0,621*69
$PAIRSAT,2,23,65,0,200,67,0,200,68,0,200,69,0,201,70,0,201,71,0,201,72,0,200,73,0,201,74,0,200,75,0,200,76,0,200,77,0,200,78,0,200,79,0,201,80,0,201,81,0,200,82,0,200,83,0,200,84,0,200,85,0,201,86,0,201,87,0,200,88,0,200*53
$PAIRSAT,3,23,2,0,1221,3,0,1221,4,0,1200,5,0,200,7,0,1221,8,0,1221,9,0,1200,10,0,1200,11,0,1200,12,0,1200,13,0,1221,15,0,1221,19,0,1200,21,0,1200,24,0,1200,25,0,1200,26,0,1221,27,0,1200,30,0,1221,31,0,1200,33,0,1200,34,0,1200,36,0,1200*6A
$PAIRSAT,4,50,1,0,200,2,0,200,3,0,200,4,0,200,5,0,200,6,0,201,7,0,200,8,0,201,9,0,201,10,0,200,11,0,200,12,0,200,13,0,201,14,0,200,15,0,200,16,0,201,19,0,621,20,0,621,21,0,600,22,0,621,23,0,600,24,0,600,25,0,600,26,0,600,27,0,600,28,0,600,29,0,621,30,0,600,31,0,200,32,0,600,33,0,600,34,0,600,35,0,621,36,0,621,37,0,621,38,0,621,39,0,621,40,0,600,41,0,600,42,0,600,43,0,600,44,0,600,45,0,600,46,0,621,56,0,200,57,0,200,58,0,200,59,0,600,60,0,600,61,0,600*41
$PAIRDGP,8,5,10,12,13,15,18,23,24*72
$GNGGA,111847.200,2500.8123000,N,12132.4745700,E,2,61,0.44,22.64,M,15.25,M,2,3335*72
$GNRMC,111847.200,A,2500.8123000,N,12132.4745700,E,0.02,315.58,260623,,,D,V*05
$GPHDT,,T*1B
$GNACCURACY,2.9*1D
$GNGGA,111847.300,2500.8122900,N,12132.4745800,E,2,61,0.44,22.64,M,15.25,M,2,3335*74
$GNRMC,111847.300,A,2500.8122900,N,12132.4745800,E,0.02,315.58,260623,,,D,V*03
$GPHDT,,T*1B
$GNACCURACY,2.9*1D
$GNGGA,111847.400,2500.8122900,N,12132.4745800,E,2,61,0.44,22.63,M,15.25,M,2,3335*74
$GNRMC,111847.400,A,2500.8122900,N,12132.4745800,E,0.01,315.58,260623,,,D,V*07
$GPHDT,,T*1B
$GNACCURACY,2.9*1D
$GNGGA,111847.500,2500.8122900,N,12132.4745800,E,2,61,0.44,22.62,M,15.25,M,2,3335*74
$GNRMC,111847.500,A,2500.8122900,N,12132.4745800,E,0.01,315.58,260623,,,D,V*06
$GPHDT,,T*1B
$GNACCURACY,2.9*1D
$GNGGA,111847.600,2500.8122800,N,12132.4745800,E,2,61,0.44,22.62,M,15.25,M,2,3335*76
$GNRMC,111847.600,A,2500.8122800,N,12132.4745800,E,0.00,315.58,260623,,,D,V*05
$GPHDT,,T*1B
$GNACCURACY,2.9*1D
$GNGGA,111847.700,2500.8122800,N,12132.4745900,E,2,62,0.42,22.62,M,15.25,M,2,3335*73
$GNRMC,111847.700,A,2500.8122800,N,12132.4745900,E,0.00,315.58,260623,,,D,V*05
$GPHDT,,T*1B
$GNACCURACY,2.9*1D
$GNGGA,111847.800,2500.8122700,N,12132.4745900,E,2,62,0.42,22.61,M,15.25,M,2,3335*70
$GNRMC,111847.800,A,2500.8122700,N,12132.4745900,E,0.00,315.58,260623,,,D,V*05
$GPHDT,,T*1B
$GNACCURACY,2.9*1D
$GNGGA,111847.900,2500.8122700,N,12132.4745900,E,2,62,0.42,22.60,M,15.25,M,2,3335*70
$GNRMC,111847.900,A,2500.8122700,N,12132.4745900,E,0.01,315.58,260623,,,D,V*05
$GPHDT,,T*1B
$GNACCURACY,2.9*1D
$GNGGA,111848.000,2500.8122700,N,12132.4745900,E,2,62,0.42,22.59,M,15.25,M,3,3335*7D
$GNRMC,111848.000,A,2500.8122700,N,12132.4745900,E,0.01,315.58,260623,,,D,V*03
$GPHDT,,T*1B
$GNACCURACY,2.9*1D
$GNGGA,111848.100,2500.8122700,N,12132.4745900,E,2,62,0.42,22.59,M,15.25,M,3,3335*7C
$GNRMC,111848.100,A,2500.8122700,N,12132.4745900,E,0.01,315.58,260623,,,D,V*02
$GPHDT,,T*1B
$GNGSA,A,3,24,196,199,18,23,15,195,194,05,12,10,,0.68,0.42,0.53,1*0C
$GNGSA,A,3,80,85,73,86,71,69,79,,,,,,0.68,0.42,0.53,2*04
$GNGSA,A,3,13,08,07,26,15,02,30,03,,,,,0.68,0.42,0.53,3*02
$GNGSA,A,3,38,08,39,13,16,06,46,09,19,20,35,29,0.68,0.42,0.53,4*0C
$GNGSA,A,3,22,36,,,,,,,,,,,0.68,0.42,0.53,4*0F
$GPGSV,4,1,14,24,77,051,46,196,74,063,40,199,60,167,25,18,60,254,25,1*63
$GPGSV,4,2,14,23,47,336,28,15,39,043,29,195,35,179,24,194,29,139,44,1*65
$GPGSV,4,3,14,05,21,116,36,12,18,144,33,10,15,317,36,40,12,259,,1*64
$GPGSV,4,4,14,13,10,054,,32,08,266,14,1*6D
$GPGSV,3,1,09,24,77,051,46,196,74,063,46,18,60,254,18,199,60,167,25,8*69
$GPGSV,3,2,09,23,47,336,31,195,35,179,30,194,29,139,45,10,15,317,33,8*69
$GPGSV,3,3,09,32,08,266,23,8*5E
$GLGSV,3,1,09,80,48,083,40,70,40,005,15,85,38,251,30,73,34,161,39,1*76
$GLGSV,3,2,09,86,26,306,39,71,20,310,36,69,14,070,30,79,14,035,20,1*77
$GLGSV,3,3,09,84,12,191,,1*47
$GAGSV,3,1,09,13,59,236,29,08,48,022,44,07,43,299,36,26,31,309,38,7*7E
$GAGSV,3,2,09,15,26,174,21,02,25,089,27,30,23,145,40,03,12,062,16,7*7E
$GAGSV,3,3,09,25,04,045,,7*48
$GAGSV,2,1,07,13,59,236,29,08,48,022,45,07,43,299,39,26,31,309,43,1*75
$GAGSV,2,2,07,15,26,174,24,02,25,089,33,30,23,145,41,1*45
$GBGSV,4,1,15,38,83,093,40,08,77,005,38,39,72,277,36,13,67,336,38,1*79
$GBGSV,4,2,15,16,66,253,22,06,65,249,33,46,58,118,44,09,49,235,27,1*7F
$GBGSV,4,3,15,19,47,341,24,20,44,058,38,36,32,184,13,35,22,272,34,1*77
$GBGSV,4,4,15,29,21,214,22,22,10,299,26,10,03,203,,1*49
$GBGSV,2,1,08,38,83,093,42,39,72,277,36,46,58,118,43,19,47,341,27,4*74
$GBGSV,2,2,08,20,44,058,29,36,32,184,29,35,22,272,27,29,21,214,20,4*74
$GNACCURACY,2.9*1D
$PAIRSAT,1,35,1,0,200,2,0,200,3,0,200,4,0,200,5,0,201,6,0,200,7,0,200,8,0,200,9,0,200,10,0,221,11,0,200,12,0,201,13,0,201,14,0,200,15,0,201,16,0,200,17,0,200,18,0,221,19,0,200,20,0,200,21,0,200,23,0,221,24,0,221,25,0,200,26,0,200,27,0,200,28,0,200,29,0,200,30,0,200,31,0,200,32,0,220,194,0,621,195,0,621,196,0,620,199,0,621*69
$PAIRSAT,2,23,65,0,200,67,0,200,68,0,200,69,0,201,70,0,201,71,0,201,72,0,200,73,0,201,74,0,200,75,0,200,76,0,200,77,0,200,78,0,200,79,0,201,80,0,201,81,0,200,82,0,200,83,0,200,84,0,200,85,0,201,86,0,201,87,0,200,88,0,200*53
$PAIRSAT,3,23,2,0,1221,3,0,1221,4,0,1200,5,0,200,7,0,1221,8,0,1221,9,0,1200,10,0,1200,11,0,1200,12,0,1200,13,0,1221,15,0,1221,19,0,1200,21,0,1200,24,0,1200,25,0,1200,26,0,1221,27,0,1200,30,0,1221,31,0,1200,33,0,1200,34,0,1200,36,0,1200*6A
$PAIRSAT,4,50,1,0,200,2,0,200,3,0,200,4,0,200,5,0,200,6,0,201,7,0,200,8,0,201,9,0,201,10,0,200,11,0,200,12,0,200,13,0,201,14,0,200,15,0,200,16,0,201,19,0,621,20,0,621,21,0,600,22,0,621,23,0,600,24,0,600,25,0,600,26,0,600,27,0,600,28,0,600,29,0,621,30,0,600,31,0,200,32,0,600,33,0,600,34,0,600,35,0,621,36,0,621,37,0,621,38,0,621,39,0,621,40,0,600,41,0,600,42,0,600,43,0,600,44,0,600,45,0,600,46,0,621,56,0,200,57,0,200,58,0,200,59,0,600,60,0,600,61,0,600*41
$PAIRDGP,8,5,10,12,13,15,18,23,24*72
$GNGGA,111848.200,2500.8122600,N,12132.4745900,E,2,62,0.42,22.58,M,15.25,M,3,3335*7F
$GNRMC,111848.200,A,2500.8122600,N,12132.4745900,E,0.00,315.58,260623,,,D,V*01
$GPHDT,,T*1B
$GNACCURACY,2.9*1D
$GNGGA,111848.300,2500.8122600,N,12132.4745900,E,2,61,0.42,22.57,M,15.25,M,3,3335*72
$GNRMC,111848.300,A,2500.8122600,N,12132.4745900,E,0.00,315.58,260623,,,D,V*00
$GPHDT,,T*1B
$GNACCURACY,2.9*1D
$GNGGA,111848.400,2500.8122600,N,12132.4745900,E,2,61,0.42,22.56,M,15.25,M,3,3335*74
$GNRMC,111848.400,A,2500.8122600,N,12132.4745900,E,0.01,315.58,260623,,,D,V*06
$GPHDT,,T*1B
$GNACCURACY,2.9*1D
$GNGGA,111848.500,2500.8122500,N,12132.4746000,E,2,61,0.42,22.55,M,15.25,M,3,3335*7F
$GNRMC,111848.500,A,2500.8122500,N,12132.4746000,E,0.01,315.58,260623,,,D,V*0E
$GPHDT,,T*1B
$GNACCURACY,2.9*1D
$GNGGA,111848.600,2500.8122500,N,12132.4746000,E,2,62,0.42,22.54,M,15.25,M,3,3335*7E
$GNRMC,111848.600,A,2500.8122500,N,12132.4746000,E,0.01,315.58,260623,,,D,V*0D
$GPHDT,,T*1B
$GNACCURACY,2.9*1D
$GNGGA,111848.700,2500.8122400,N,12132.4746000,E,2,62,0.42,22.54,M,15.25,M,3,3335*7E
$GNRMC,111848.700,A,2500.8122400,N,12132.4746000,E,0.01,315.58,260623,,,D,V*0D
$GPHDT,,T*1B
$GNACCURACY,2.9*1D
$GNGGA,111848.800,2500.8122400,N,12132.4746000,E,2,62,0.42,22.53,M,15.25,M,3,3335*76
$GNRMC,111848.800,A,2500.8122400,N,12132.4746000,E,0.01,315.58,260623,,,D,V*02
$GPHDT,,T*1B
$GNACCURACY,2.9*1D
$GNGGA,111848.900,2500.8122300,N,12132.4746000,E,2,62,0.42,22.52,M,15.25,M,3,3335*71
$GNRMC,111848.900,A,2500.8122300,N,12132.4746000,E,0.01,315.58,260623,,,D,V*04
$GPHDT,,T*1B
$GNACCURACY,2.9*1D
$GNGGA,111849.000,2500.8122300,N,12132.4746000,E,2,62,0.42,22.51,M,15.25,M,4,3335*7D
$GNRMC,111849.000,A,2500.8122300,N,12132.4746000,E,0.03,315.58,260623,,,D,V*0E
$GPHDT,,T*1B
$GNACCURACY,2.9*1D
$GNGGA,111849.100,2500.8122200,N,12132.4746000,E,2,62,0.42,22.50,M,15.25,M,3,3335*7B
$GNRMC,111849.100,A,2500.8122200,N,12132.4746000,E,0.03,315.58,260623,,,D,V*0E
$GPHDT,,T*1B
$GNGSA,A,3,24,196,199,18,23,15,195,194,05,12,10,13,0.67,0.42,0.52,1*00
$GNGSA,A,3,80,85,73,86,71,69,79,,,,,,0.67,0.42,0.52,2*0A
$GNGSA,A,3,13,08,07,26,15,02,30,03,,,,,0.67,0.42,0.52,3*0C
$GNGSA,A,3,38,08,39,13,16,06,46,09,19,20,35,29,0.67,0.42,0.52,4*02
$GNGSA,A,3,22,36,,,,,,,,,,,0.67,0.42,0.52,4*01
$GPGSV,4,1,15,24,77,051,46,196,74,063,40,199,60,167,25,18,60,254,27,1*60
$GPGSV,4,2,15,23,47,336,28,15,39,043,29,195,35,179,24,194,29,139,44,1*64
$GPGSV,4,3,15,05,21,116,36,12,18,144,33,10,15,317,36,13,10,054,17,1*68
$GPGSV,4,4,15,32,08,266,15,25,07,178,,29,02,199,,1*59
$GPGSV,3,1,09,24,77,051,46,196,74,063,46,18,60,254,17,199,60,167,26,8*65
$GPGSV,3,2,09,23,47,336,32,195,35,179,30,194,29,139,45,10,15,317,34,8*6D
$GPGSV,3,3,09,32,08,266,23,8*5E
$GLGSV,3,1,09,80,48,083,40,70,40,005,16,85,38,251,30,73,34,161,39,1*75
$GLGSV,3,2,09,86,26,306,39,71,20,310,36,69,14,070,30,79,14,035,20,1*77
$GLGSV,3,3,09,84,12,191,,1*47
$GAGSV,3,1,09,13,59,236,29,08,48,022,44,07,43,299,36,26,31,309,38,7*7E
$GAGSV,3,2,09,15,26,174,20,02,25,089,28,30,23,145,40,03,12,062,17,7*71
$GAGSV,3,3,09,25,04,045,,7*48
$GAGSV,2,1,07,13,59,236,31,08,48,022,45,07,43,299,40,26,31,309,43,1*72
$GAGSV,2,2,07,15,26,174,24,02,25,089,34,30,23,145,41,1*42
$GBGSV,4,1,15,38,83,093,40,08,77,005,38,39,72,277,35,13,67,336,38,1*7A
$GBGSV,4,2,15,16,66,253,23,06,65,249,32,46,58,118,44,09,49,235,27,1*7F
$GBGSV,4,3,15,19,47,341,24,20,44,058,38,36,32,184,15,37,25,050,,1*71
$GBGSV,4,4,15,35,22,272,34,29,21,214,24,22,10,299,26,1*4A
$GBGSV,2,1,07,38,83,093,42,39,72,277,36,46,58,118,44,19,47,341,28,4*73
$GBGSV,2,2,07,20,44,058,28,36,32,184,29,35,22,272,28,4*48
$GNACCURACY,2.9*1D
$PAIRSAT,1,35,1,0,200,2,0,200,3,0,200,4,0,200,5,0,201,6,0,200,7,0,200,8,0,200,9,0,200,10,0,221,11,0,200,12,0,201,13,0,201,14,0,200,15,0,201,16,0,200,17,0,200,18,0,221,19,0,200,20,0,200,21,0,200,23,0,221,24,0,221,25,0,200,26,0,200,27,0,200,28,0,200,29,0,200,30,0,200,31,0,200,32,0,220,194,0,621,195,0,621,196,0,620,199,0,621*69
$PAIRSAT,2,23,65,0,200,67,0,200,68,0,200,69,0,201,70,0,201,71,0,201,72,0,200,73,0,201,74,0,200,75,0,200,76,0,200,77,0,200,78,0,200,79,0,201,80,0,201,81,0,200,82,0,200,83,0,200,84,0,200,85,0,201,86,0,201,87,0,200,88,0,200*53
$PAIRSAT,3,23,2,0,1221,3,0,1221,4,0,1200,5,0,200,7,0,1221,8,0,1221,9,0,1200,10,0,1200,11,0,1200,12,0,1200,13,0,1221,15,0,1221,19,0,1200,21,0,1200,24,0,1200,25,0,1200,26,0,1221,27,0,1200,30,0,1221,31,0,1200,33,0,1200,34,0,1200,36,0,1200*6A
$PAIRSAT,4,50,1,0,200,2,0,200,3,0,200,4,0,200,5,0,200,6,0,201,7,0,200,8,0,201,9,0,201,10,0,200,11,0,200,12,0,200,13,0,201,14,0,200,15,0,200,16,0,201,19,0,621,20,0,621,21,0,600,22,0,621,23,0,600,24,0,600,25,0,600,26,0,600,27,0,600,28,0,600,29,0,621,30,0,600,31,0,200,32,0,600,33,0,600,34,0,600,35,0,621,36,0,621,37,0,621,38,0,621,39,0,621,40,0,600,41,0,600,42,0,600,43,0,600,44,0,600,45,0,600,46,0,621,56,0,200,57,0,200,58,0,200,59,0,600,60,0,600,61,0,600*41
$PAIRDGP,8,5,10,12,13,15,18,23,24*72
$GNGGA,111849.200,2500.8122100,N,12132.4746000,E,2,62,0.42,22.49,M,15.25,M,3,3335*73
$GNRMC,111849.200,A,2500.8122100,N,12132.4746000,E,0.02,315.58,260623,,,D,V*0F
$GPHDT,,T*1B
$GNACCURACY,2.9*1D
$GNGGA,111849.300,2500.8122100,N,12132.4746000,E,2,62,0.42,22.49,M,15.25,M,3,3335*72
$GNRMC,111849.300,A,2500.8122100,N,12132.4746000,E,0.03,315.58,260623,,,D,V*0F
$GPHDT,,T*1B
$GNACCURACY,2.9*1D
$GNGGA,111849.400,2500.8122000,N,12132.4746000,E,2,62,0.42,22.48,M,15.25,M,1,3335*77
$GNRMC,111849.400,A,2500.8122000,N,12132.4746000,E,0.03,315.58,260623,,,D,V*09
$GPHDT,,T*1B
$GNACCURACY,2.9*1D
$GNGGA,111849.500,2500.8122000,N,12132.4746000,E,2,62,0.42,22.48,M,15.25,M,1,3335*76
$GNRMC,111849.500,A,2500.8122000,N,12132.4746000,E,0.03,315.58,260623,,,D,V*08
$GPHDT,,T*1B
$GNACCURACY,2.9*1D
$GNGGA,111849.600,2500.8121900,N,12132.4746000,E,2,63,0.42,22.48,M,15.25,M,0,3335*7F
$GNRMC,111849.600,A,2500.8121900,N,12132.4746000,E,0.03,315.58,260623,,,D,V*01
$GPHDT,,T*1B
$GNACCURACY,2.9*1D
$GNGGA,111849.700,2500.8121800,N,12132.4746000,E,2,63,0.42,22.47,M,15.25,M,0,3335*70
$GNRMC,111849.700,A,2500.8121800,N,12132.4746000,E,0.03,315.58,260623,,,D,V*01
$GPHDT,,T*1B
$GNACCURACY,2.9*1D
$GNGGA,111849.800,2500.8121800,N,12132.4746000,E,2,63,0.42,22.47,M,15.25,M,0,3335*7F
$GNRMC,111849.800,A,2500.8121800,N,12132.4746000,E,0.03,315.58,260623,,,D,V*0E
$GPHDT,,T*1B
$GNACCURACY,2.9*1D
$GNGGA,111849.900,2500.8121700,N,12132.4746000,E,2,63,0.42,22.46,M,15.25,M,0,3335*70
$GNRMC,111849.900,A,2500.8121700,N,12132.4746000,E,0.03,315.58,260623,,,D,V*00
$GPHDT,,T*1B
$GNACCURACY,2.9*1D
$GNGGA,111850.000,2500.8121600,N,12132.4745900,E,2,63,0.42,22.46,M,15.25,M,1,3335*7B
$GNRMC,111850.000,A,2500.8121600,N,12132.4745900,E,0.04,315.58,260623,,,D,V*0D
$GPHDT,,T*1B
$GNACCURACY,2.9*1D
$GNGGA,111850.100,2500.8121500,N,12132.4746000,E,2,63,0.42,22.45,M,15.25,M,1,3335*70
$GNRMC,111850.100,A,2500.8121500,N,12132.4746000,E,0.03,315.58,260623,,,D,V*02
$GPHDT,,T*1B
$GNGSA,A,3,24,196,199,18,23,15,195,194,05,12,10,13,0.67,0.42,0.52,1*00
$GNGSA,A,3,80,85,73,86,71,69,79,,,,,,0.67,0.42,0.52,2*0A
$GNGSA,A,3,13,08,07,26,15,02,30,03,,,,,0.67,0.42,0.52,3*0C
$GNGSA,A,3,38,08,39,13,16,06,46,09,19,20,35,29,0.67,0.42,0.52,4*02
$GNGSA,A,3,22,36,,,,,,,,,,,0.67,0.42,0.52,4*01
$GPGSV,4,1,15,24,77,051,47,196,74,063,40,199,60,167,25,18,60,254,25,1*63
$GPGSV,4,2,15,23,47,336,28,15,39,043,29,195,35,179,24,194,29,139,44,1*64
$GPGSV,4,3,15,05,21,116,36,12,18,144,32,10,15,317,36,13,10,054,17,1*69
$GPGSV,4,4,15,32,08,266,15,25,07,178,,29,02,199,,1*59
$GPGSV,3,1,09,24,77,051,46,196,74,063,46,18,60,254,14,199,60,167,25,8*65
$GPGSV,3,2,09,23,47,336,32,195,35,179,30,194,29,139,45,10,15,317,34,8*6D
$GPGSV,3,3,09,32,08,266,23,8*5E
$GLGSV,3,1,09,80,48,083,40,70,40,005,14,85,38,251,30,73,34,161,39,1*77
$GLGSV,3,2,09,86,26,306,39,71,20,310,36,69,14,070,30,79,14,035,19,1*7D
$GLGSV,3,3,09,84,12,191,,1*47
$GAGSV,3,1,09,13,59,236,29,08,48,022,44,07,43,299,36,26,31,309,38,7*7E
$GAGSV,3,2,09,15,26,174,19,02,25,089,28,30,23,145,40,03,12,062,17,7*7B
$GAGSV,3,3,09,25,04,045,,7*48
$GAGSV,2,1,07,13,59,236,31,08,48,022,44,07,43,299,40,26,31,309,43,1*73
$GAGSV,2,2,07,15,26,174,24,02,25,089,34,30,23,145,41,1*42
$GBGSV,4,1,15,38,83,094,40,08,77,005,38,39,72,278,35,13,67,336,38,1*72
$GBGSV,4,2,15,16,66,253,25,06,65,249,32,46,58,118,44,09,49,235,27,1*79
$GBGSV,4,3,15,19,47,341,24,20,44,058,38,36,32,184,11,37,25,050,,1*75
$GBGSV,4,4,15,35,22,272,34,29,21,214,24,22,10,299,27,1*4B
$GBGSV,2,1,08,38,83,094,42,39,72,278,36,46,58,118,44,19,47,341,28,4*74
$GBGSV,2,2,08,20,44,058,28,36,32,184,29,35,22,272,28,29,21,214,21,4*7B
$GNACCURACY,2.9*1D
$PAIRSAT,1,35,1,0,200,2,0,200,3,0,200,4,0,200,5,0,201,6,0,200,7,0,200,8,0,200,9,0,200,10,0,221,11,0,200,12,0,201,13,0,201,14,0,200,15,0,201,16,0,200,17,0,200,18,0,221,19,0,200,20,0,200,21,0,200,23,0,221,24,0,221,25,0,200,26,0,200,27,0,200,28,0,200,29,0,200,30,0,200,31,0,200,32,0,220,194,0,621,195,0,621,196,0,620,199,0,621*69
$PAIRSAT,2,23,65,0,200,67,0,200,68,0,200,69,0,201,70,0,201,71,0,201,72,0,200,73,0,201,74,0,200,75,0,200,76,0,200,77,0,200,78,0,200,79,0,201,80,0,201,81,0,200,82,0,200,83,0,200,84,0,200,85,0,201,86,0,201,87,0,200,88,0,200*53
$PAIRSAT,3,23,2,0,1221,3,0,1221,4,0,1200,5,0,200,7,0,1221,8,0,1221,9,0,1200,10,0,1200,11,0,1200,12,0,1200,13,0,1221,15,0,1221,19,0,1200,21,0,1200,24,0,1200,25,0,1200,26,0,1221,27,0,1200,30,0,1221,31,0,1200,33,0,1200,34,0,1200,36,0,1200*6A
$PAIRSAT,4,50,1,0,200,2,0,200,3,0,200,4,0,200,5,0,200,6,0,201,7,0,200,8,0,201,9,0,201,10,0,200,11,0,200,12,0,200,13,0,201,14,0,200,15,0,200,16,0,201,19,0,621,20,0,621,21,0,600,22,0,621,23,0,600,24,0,600,25,0,600,26,0,600,27,0,600,28,0,600,29,0,621,30,0,600,31,0,200,32,0,600,33,0,600,34,0,600,35,0,621,36,0,621,37,0,621,38,0,621,39,0,621,40,0,600,41,0,600,42,0,600,43,0,600,44,0,600,45,0,600,46,0,621,56,0,200,57,0,200,58,0,200,59,0,600,60,0,600,61,0,600*41
$PAIRDGP,8,5,10,12,13,15,18,23,24*72
$GNGGA,111850.200,2500.8121500,N,12132.4746000,E,2,63,0.42,22.45,M,15.25,M,1,3335*73
$GNRMC,111850.200,A,2500.8121500,N,12132.4746000,E,0.03,315.58,260623,,,D,V*01
$GPHDT,,T*1B
$GNACCURACY,2.9*1D
$GNGGA,111850.300,2500.8121400,N,12132.4746000,E,2,63,0.42,22.44,M,15.25,M,1,3335*72
$GNRMC,111850.300,A,2500.8121400,N,12132.4746000,E,0.03,315.58,260623,,,D,V*01
$GPHDT,,T*1B
$GNACCURACY,2.9*1D
$GNGGA,111850.400,2500.8121300,N,12132.4745900,E,2,63,0.42,22.43,M,15.25,M,1,3335*7F
$GNRMC,111850.400,A,2500.8121300,N,12132.4745900,E,0.04,315.58,260623,,,D,V*0C
$GPHDT,,T*1B
$GNACCURACY,2.9*1D
$GNGGA,111850.500,2500.8121200,N,12132.4746000,E,2,63,0.42,22.43,M,15.25,M,1,3335*75
$GNRMC,111850.500,A,2500.8121200,N,12132.4746000,E,0.03,315.58,260623,,,D,V*01
$GPHDT,,T*1B
$GNACCURACY,2.9*1D
$GNGGA,111850.600,2500.8121200,N,12132.4746000,E,2,63,0.42,22.42,M,15.25,M,1,3335*77
$GNRMC,111850.600,A,2500.8121200,N,12132.4746000,E,0.04,315.58,260623,,,D,V*05
$GPHDT,,T*1B
$GNACCURACY,2.9*1D
$GNGGA,111850.700,2500.8121200,N,12132.4746000,E,2,63,0.42,22.41,M,15.25,M,1,3335*75
$GNRMC,111850.700,A,2500.8121200,N,12132.4746000,E,0.03,315.58,260623,,,D,V*03
$GPHDT,,T*1B
