$FW : RTK35X,V1.1X0314AS,Lib20210517,1*54
$Tool : LOCOSYS , GNSS Firebird , v1.0.0.19*39
$---------------------------------------------------*2D
$GNGSA,A,3,19,196,195,199,17,06,20,09,11,194,12,04,0.85,0.50,0.69,1*0C
$GNGSA,A,3,68,83,82,69,67,,,,,,,,0.85,0.50,0.69,2*04
$GNGSA,A,3,10,12,04,11,24,25,19,,,,,,0.85,0.50,0.69,3*0B
$GNGSA,A,3,33,40,07,10,08,14,28,43,13,41,42,11,0.85,0.50,0.69,4*00
$GPGSV,4,1,15,19,71,084,30,196,70,117,41,195,69,051,41,50,60,167,27,1*6A
$GPGSV,4,2,15,199,60,167,25,17,54,116,45,06,49,010,34,20,43,249,44,1*51
$GPGSV,4,3,15,09,37,080,32,11,35,307,27,194,33,173,35,12,24,302,22,1*5F
$GPGSV,4,4,15,05,18,232,15,04,17,053,24,14,08,171,,1*53
$GPGSV,2,1,08,196,70,117,47,195,69,051,41,199,60,167,42,06,49,010,38,8*58
$GPGSV,2,2,08,09,37,080,18,11,35,307,33,194,33,173,31,04,17,053,28,8*5E
$GLGSV,2,1,07,68,70,109,35,83,41,008,27,82,35,067,25,69,33,185,24,1*77
$GLGSV,2,2,07,67,32,036,30,73,17,265,,74,08,308,18,1*43
$GAGSV,3,1,09,10,50,358,33,12,44,037,18,04,42,142,35,11,40,319,24,7*76
$GAGSV,3,2,09,24,39,224,26,19,32,066,,25,29,290,16,09,12,188,,7*75
$GAGSV,3,3,09,33,08,079,22,7*4C
$GAGSV,2,1,06,10,50,358,39,12,44,037,21,04,42,142,41,11,40,319,30,1*78
$GAGSV,2,2,06,19,32,066,13,25,29,290,19,1*77
$GBGSV,4,1,14,33,76,095,40,40,75,179,31,07,72,223,38,10,69,262,38,1*7D
$GBGSV,4,2,14,08,55,289,39,14,52,051,29,28,50,341,42,43,49,085,36,1*74
$GBGSV,4,3,14,13,47,275,37,41,40,201,45,42,26,041,32,11,25,100,34,1*75
$GBGSV,4,4,14,37,10,256,,23,08,207,,1*7B
$GBGSV,2,1,06,33,76,095,43,40,75,179,43,28,50,341,39,43,49,085,14,4*73
$GBGSV,2,2,06,41,40,201,47,42,26,041,26,4*77
$GNGGA,043019.000,2500.7856300,N,12132.4484700,E,2,55,0.50,19.26,M,15.25,M,1,3335*73
$GNRMC,043019.000,A,2500.7856300,N,12132.4484700,E,0.02,62.93,270623,,,D,V*3E
$GPHDT,,T*1B
$GNGGA,043019.200,2500.7856300,N,12132.4484700,E,2,55,0.50,19.25,M,15.25,M,1,3335*72
$GNRMC,043019.200,A,2500.7856300,N,12132.4484700,E,0.01,62.93,270623,,,D,V*3F
$GPHDT,,T*1B
$GNGGA,043019.400,2500.7856300,N,12132.4484700,E,2,55,0.51,19.25,M,15.25,M,1,3335*75
$GNRMC,043019.400,A,2500.7856300,N,12132.4484700,E,0.01,62.93,270623,,,D,V*39
$GPHDT,,T*1B
$GNGGA,043019.600,2500.7856200,N,12132.4484700,E,2,56,0.50,19.25,M,15.25,M,1,3335*74
$GNRMC,043019.600,A,2500.7856200,N,12132.4484700,E,0.01,62.93,270623,,,D,V*3A
$GPHDT,,T*1B
$GNGGA,043019.800,2500.7856200,N,12132.4484600,E,2,54,0.50,19.25,M,15.25,M,0,3335*78
$GNRMC,043019.800,A,2500.7856200,N,12132.4484600,E,0.01,62.93,270623,,,D,V*35
$GPHDT,,T*1B
$GNGSA,A,3,19,196,195,199,17,06,20,09,11,194,12,04,0.85,0.50,0.69,1*0C
$GNGSA,A,3,68,83,82,69,67,,,,,,,,0.85,0.50,0.69,2*04
$GNGSA,A,3,10,12,04,11,24,19,25,,,,,,0.85,0.50,0.69,3*0B
$GNGSA,A,3,33,40,07,10,08,14,28,43,13,41,42,11,0.85,0.50,0.69,4*00
$GPGSV,4,1,15,19,71,084,30,196,70,117,41,195,69,051,42,50,60,167,27,1*69
$GPGSV,4,2,15,199,60,167,24,17,54,116,45,06,49,010,33,20,43,249,44,1*57
$GPGSV,4,3,15,09,37,080,31,11,35,307,27,194,33,173,34,12,24,302,21,1*5E
$GPGSV,4,4,15,05,18,232,13,04,17,053,24,14,08,171,,1*55
$GPGSV,2,1,08,196,70,117,47,195,69,051,41,199,60,167,42,06,49,010,38,8*58
$GPGSV,2,2,08,09,37,080,18,11,35,307,33,194,33,173,31,04,17,053,28,8*5E
$GLGSV,2,1,08,68,70,109,35,83,41,008,26,82,35,067,25,69,33,185,23,1*7E
$GLGSV,2,2,08,67,32,036,32,73,17,265,,74,08,308,17,84,07,312,,1*7A
$GAGSV,3,1,10,10,50,358,33,12,44,037,17,04,42,142,35,11,40,319,25,7*70
$GAGSV,3,2,10,24,39,224,27,19,32,066,18,25,29,290,13,09,12,188,,7*70
$GAGSV,3,3,10,33,08,079,22,36,04,284,,7*7B
$GAGSV,2,1,06,10,50,358,38,12,44,037,21,04,42,142,41,11,40,319,32,1*7B
$GAGSV,2,2,06,19,32,066,13,25,29,290,19,1*77
$GBGSV,4,1,14,33,76,095,40,40,75,179,31,07,72,223,38,10,69,262,38,1*7D
$GBGSV,4,2,14,08,55,289,39,14,52,051,28,28,50,341,42,43,49,085,35,1*76
$GBGSV,4,3,14,13,47,275,37,41,40,201,45,42,26,041,32,11,25,100,34,1*75
$GBGSV,4,4,14,37,10,256,,23,08,207,,1*7B
$GBGSV,2,1,05,33,76,095,43,40,75,179,43,28,50,341,39,41,40,201,47,4*73
$GBGSV,2,2,05,42,26,041,28,4*4B
$GNGGA,043020.000,2500.7856200,N,12132.4484600,E,2,55,0.50,19.25,M,15.25,M,1,3335*7A
$GNRMC,043020.000,A,2500.7856200,N,12132.4484600,E,0.02,62.93,270623,,,D,V*34
$GPHDT,,T*1B
$GNGGA,043020.200,2500.7856200,N,12132.4484600,E,2,55,0.50,19.25,M,15.25,M,1,3335*78
$GNRMC,043020.200,A,2500.7856200,N,12132.4484600,E,0.03,62.93,270623,,,D,V*37
$GPHDT,,T*1B
$GNGGA,043020.400,2500.7856100,N,12132.4484600,E,2,55,0.50,19.25,M,15.25,M,1,3335*7D
$GNRMC,043020.400,A,2500.7856100,N,12132.4484600,E,0.04,62.93,270623,,,D,V*35
$GPHDT,,T*1B
$GNGGA,043020.600,2500.7856100,N,12132.4484600,E,2,55,0.50,19.25,M,15.25,M,1,3335*7F
$GNRMC,043020.600,A,2500.7856100,N,12132.4484600,E,0.04,62.93,270623,,,D,V*37
$GPHDT,,T*1B
$GNGGA,043020.800,2500.7856100,N,12132.4484600,E,2,55,0.50,19.25,M,15.25,M,0,3335*70
$GNRMC,043020.800,A,2500.7856100,N,12132.4484600,E,0.02,62.93,270623,,,D,V*3F
$GPHDT,,T*1B
$GNGSA,A,3,19,196,195,199,17,06,20,09,11,194,12,04,0.85,0.50,0.69,1*0C
$GNGSA,A,3,68,83,82,69,67,,,,,,,,0.85,0.50,0.69,2*04
$GNGSA,A,3,10,12,04,11,24,19,25,,,,,,0.85,0.50,0.69,3*0B
$GNGSA,A,3,33,40,07,10,08,14,28,43,13,41,42,11,0.85,0.50,0.69,4*00
$GPGSV,4,1,15,19,71,084,30,196,70,117,41,195,69,051,42,199,60,167,25,1*5F
$GPGSV,4,2,15,50,60,167,27,17,54,116,45,06,49,010,34,20,43,249,44,1*67
$GPGSV,4,3,15,09,37,080,31,11,35,307,28,194,33,173,34,12,24,302,23,1*53
$GPGSV,4,4,15,05,18,232,13,04,17,053,24,14,08,171,,1*55
$GPGSV,2,1,08,196,70,117,47,195,69,051,41,199,60,167,40,06,49,010,38,8*5A
$GPGSV,2,2,08,09,37,080,17,11,35,307,33,194,33,173,31,04,17,053,27,8*5E
$GLGSV,2,1,07,68,70,109,35,83,41,008,27,82,35,067,26,69,33,185,23,1*73
$GLGSV,2,2,07,67,32,036,32,73,17,265,,74,08,308,17,1*4E
$GAGSV,3,1,10,10,50,358,33,12,44,037,16,04,42,142,35,11,40,319,23,7*77
$GAGSV,3,2,10,24,39,224,27,19,32,066,17,25,29,290,10,09,12,188,,7*7C
$GAGSV,3,3,10,33,08,079,24,36,04,284,,7*7D
$GAGSV,2,1,06,10,50,358,38,12,44,037,22,04,42,142,41,11,40,319,32,1*78
$GAGSV,2,2,06,19,32,066,10,25,29,290,18,1*75
$GBGSV,4,1,14,33,76,095,40,40,75,179,31,07,72,223,38,10,69,262,38,1*7D
$GBGSV,4,2,14,08,55,289,39,14,52,051,28,28,50,341,42,43,49,085,34,1*77
$GBGSV,4,3,14,13,47,275,37,41,40,201,45,42,26,041,32,11,25,100,34,1*75
$GBGSV,4,4,14,37,10,256,,23,08,207,,1*7B
$GBGSV,2,1,05,33,76,095,43,40,75,179,43,28,50,341,37,41,40,201,47,4*7D
$GBGSV,2,2,05,42,26,041,27,4*44
$GNGGA,043021.000,2500.7856000,N,12132.4484600,E,2,55,0.50,19.25,M,15.25,M,1,3335*79
$GNRMC,043021.000,A,2500.7856000,N,12132.4484600,E,0.03,62.93,270623,,,D,V*36
$GPHDT,,T*1B
$GNGGA,043021.200,2500.7856000,N,12132.4484600,E,2,55,0.50,19.25,M,15.25,M,1,3335*7B
$GNRMC,043021.200,A,2500.7856000,N,12132.4484600,E,0.03,62.93,270623,,,D,V*34
$GPHDT,,T*1B
$GNGGA,043021.400,2500.7856000,N,12132.4484600,E,2,54,0.50,19.25,M,15.25,M,1,3335*7C
$GNRMC,043021.400,A,2500.7856000,N,12132.4484600,E,0.03,62.93,270623,,,D,V*32
$GPHDT,,T*1B
$GNGGA,043021.600,2500.7856000,N,12132.4484600,E,2,55,0.50,19.25,M,15.25,M,1,3335*7F
$GNRMC,043021.600,A,2500.7856000,N,12132.4484600,E,0.01,62.93,270623,,,D,V*32
$GPHDT,,T*1B
$GNGGA,043021.800,2500.7856000,N,12132.4484600,E,2,55,0.50,19.25,M,15.25,M,0,3335*70
$GNRMC,043021.800,A,2500.7856000,N,12132.4484600,E,0.01,62.93,270623,,,D,V*3C
$GPHDT,,T*1B
$GNGSA,A,3,19,196,195,199,17,06,20,09,11,194,12,04,0.85,0.50,0.69,1*0C
$GNGSA,A,3,68,83,82,69,67,,,,,,,,0.85,0.50,0.69,2*04
$GNGSA,A,3,10,12,04,11,24,19,25,,,,,,0.85,0.50,0.69,3*0B
$GNGSA,A,3,33,40,07,10,08,14,28,43,13,41,42,11,0.85,0.50,0.69,4*00
$GPGSV,4,1,14,19,71,084,28,196,70,117,41,195,69,051,42,199,60,167,25,1*57
$GPGSV,4,2,14,50,60,167,27,17,54,116,45,06,49,010,34,20,43,249,44,1*66
$GPGSV,4,3,14,09,37,080,31,11,35,307,26,194,33,173,34,12,24,302,24,1*5B
$GPGSV,4,4,14,05,18,232,13,04,17,053,25,1*6F
$GPGSV,2,1,08,196,70,117,47,195,69,051,41,199,60,167,40,06,49,010,38,8*5A
$GPGSV,2,2,08,09,37,080,17,11,35,307,32,194,33,173,31,04,17,053,28,8*50
$GLGSV,2,1,07,68,70,109,34,83,41,008,26,82,35,067,26,69,33,185,25,1*75
$GLGSV,2,2,07,67,32,036,32,73,17,265,,74,08,308,17,1*4E
$GAGSV,3,1,10,10,50,358,33,12,44,037,17,04,42,142,35,11,40,319,23,7*76
$GAGSV,3,2,10,24,39,224,27,19,32,066,17,25,29,290,12,09,12,188,,7*7E
$GAGSV,3,3,10,33,08,079,24,36,04,284,,7*7D
$GAGSV,2,1,06,10,50,358,38,12,44,037,25,04,42,142,41,11,40,319,32,1*7F
$GAGSV,2,2,06,19,32,066,12,25,29,290,17,1*78
$GBGSV,4,1,15,33,76,095,40,40,75,179,30,07,72,223,38,10,69,262,37,1*72
$GBGSV,4,2,15,08,55,289,40,14,52,051,26,28,50,341,42,43,49,085,35,1*77
$GBGSV,4,3,15,13,47,275,36,41,40,201,45,42,26,041,32,11,25,100,34,1*75
$GBGSV,4,4,15,37,10,256,,34,08,113,,23,08,207,,1*46
$GBGSV,2,1,05,33,76,095,43,40,75,179,43,28,50,341,37,41,40,201,47,4*7D
$GBGSV,2,2,05,42,26,041,28,4*4B
$GNGGA,043022.000,2500.7855900,N,12132.4484600,E,2,55,0.50,19.25,M,15.25,M,1,3335*70
$GNRMC,043022.000,A,2500.7855900,N,12132.4484600,E,0.02,62.93,270623,,,D,V*3E
$GPHDT,,T*1B
$GNGGA,043022.200,2500.7855900,N,12132.4484600,E,2,55,0.50,19.25,M,15.25,M,1,3335*72
$GNRMC,043022.200,A,2500.7855900,N,12132.4484600,E,0.01,62.93,270623,,,D,V*3F
$GPHDT,,T*1B
$GNGGA,043022.400,2500.7855900,N,12132.4484600,E,2,55,0.50,19.25,M,15.25,M,1,3335*74
$GNRMC,043022.400,A,2500.7855900,N,12132.4484600,E,0.02,62.93,270623,,,D,V*3A
$GPHDT,,T*1B
$GNGGA,043022.600,2500.7855900,N,12132.4484600,E,2,55,0.50,19.25,M,15.25,M,0,3335*77
$GNRMC,043022.600,A,2500.7855900,N,12132.4484600,E,0.01,62.93,270623,,,D,V*3B
$GPHDT,,T*1B
$GNGGA,043022.800,2500.7855800,N,12132.4484700,E,2,55,0.50,19.25,M,15.25,M,0,3335*79
$GNRMC,043022.800,A,2500.7855800,N,12132.4484700,E,0.01,62.93,270623,,,D,V*35
$GPHDT,,T*1B
$GNGSA,A,3,19,196,195,199,17,06,20,09,11,194,12,04,0.85,0.50,0.69,1*0C
$GNGSA,A,3,68,83,82,69,67,,,,,,,,0.85,0.50,0.69,2*04
$GNGSA,A,3,10,12,04,11,24,19,25,,,,,,0.85,0.50,0.69,3*0B
$GNGSA,A,3,33,40,07,10,08,14,28,43,13,41,42,11,0.85,0.50,0.69,4*00
$GPGSV,4,1,15,19,71,084,28,196,70,117,41,195,69,051,42,199,60,167,25,1*56
$GPGSV,4,2,15,50,60,167,28,17,54,116,45,06,49,010,32,20,43,249,44,1*6E
$GPGSV,4,3,15,09,37,080,31,11,35,307,26,194,33,173,34,12,24,302,24,1*5A
$GPGSV,4,4,15,05,18,232,14,04,17,053,20,14,08,171,,1*56
$GPGSV,2,1,08,196,70,117,47,195,69,051,41,199,60,167,40,06,49,010,37,8*55
$GPGSV,2,2,08,09,37,080,16,11,35,307,32,194,33,173,30,04,17,053,28,8*50
$GLGSV,2,1,07,68,70,109,34,83,41,008,26,82,35,067,28,69,33,185,25,1*7B
$GLGSV,2,2,07,67,32,036,33,73,17,265,,74,08,308,17,1*4F
$GAGSV,3,1,10,10,50,358,33,12,44,037,17,04,42,142,35,11,40,319,24,7*71
$GAGSV,3,2,10,24,39,224,27,19,32,066,16,25,29,290,12,09,12,188,,7*7F
$GAGSV,3,3,10,33,08,079,23,36,04,284,,7*7A
$GAGSV,2,1,06,10,50,358,38,12,44,037,24,04,42,142,41,11,40,319,32,1*7E
$GAGSV,2,2,06,19,32,066,13,25,29,290,17,1*79
$GBGSV,4,1,14,33,76,095,40,40,75,179,31,07,72,223,38,10,69,262,36,1*73
$GBGSV,4,2,14,08,55,290,40,14,52,051,25,28,50,341,42,43,49,085,35,1*7D
$GBGSV,4,3,14,13,47,275,36,41,40,201,45,42,26,041,32,11,25,100,35,1*75
$GBGSV,4,4,14,37,10,256,,34,08,113,,1*7B
$GBGSV,2,1,05,33,76,095,43,40,75,179,43,28,50,341,37,41,40,201,47,4*7D
$GBGSV,2,2,05,42,26,041,28,4*4B
$GNGGA,043023.000,2500.7855700,N,12132.4484700,E,2,55,0.50,19.25,M,15.25,M,1,3335*7E
$GNRMC,043023.000,A,2500.7855700,N,12132.4484700,E,0.01,62.93,270623,,,D,V*33
$PAIR010,0,1,2268,189041*31
$GPHDT,,T*1B
$GNGGA,043023.200,2500.7855700,N,12132.4484700,E,2,53,0.50,19.25,M,15.25,M,1,3335*7A
$GNRMC,043023.200,A,2500.7855700,N,12132.4484700,E,0.01,62.93,270623,,,D,V*31
$GPHDT,,T*1B
$GNGGA,043023.400,2500.7855700,N,12132.4484700,E,2,53,0.50,19.25,M,15.25,M,1,3335*7C
$GNRMC,043023.400,A,2500.7855700,N,12132.4484700,E,0.01,62.93,270623,,,D,V*37
$GPHDT,,T*1B
$GNGGA,043023.600,2500.7855600,N,12132.4484800,E,2,54,0.50,19.25,M,15.25,M,0,3335*76
$GNRMC,043023.600,A,2500.7855600,N,12132.4484800,E,0.01,62.93,270623,,,D,V*3B
$GPHDT,,T*1B
$GNGGA,043023.800,2500.7855600,N,12132.4484900,E,2,54,0.50,19.25,M,15.25,M,0,3335*79
$GNRMC,043023.800,A,2500.7855600,N,12132.4484900,E,0.01,62.93,270623,,,D,V*34
$GPHDT,,T*1B
$GNGSA,A,3,19,196,195,199,17,06,20,09,11,194,12,04,0.85,0.50,0.69,1*0C
$GNGSA,A,3,68,83,82,69,67,,,,,,,,0.85,0.50,0.69,2*04
$GNGSA,A,3,10,12,04,11,24,19,25,,,,,,0.85,0.50,0.69,3*0B
$GNGSA,A,3,33,40,07,10,08,14,28,43,13,41,42,11,0.85,0.50,0.69,4*00
$GPGSV,4,1,15,19,71,084,27,196,70,117,41,195,69,051,42,50,60,167,28,1*60
$GPGSV,4,2,15,199,60,167,25,17,54,116,45,06,49,010,32,20,43,249,44,1*57
$GPGSV,4,3,15,09,37,080,30,11,35,307,26,194,33,173,34,12,24,302,24,1*5B
$GPGSV,4,4,15,05,18,232,14,04,17,053,23,14,08,171,,1*55
$GPGSV,2,1,08,196,70,117,47,195,69,051,41,199,60,167,41,06,49,010,37,8*54
$GPGSV,2,2,08,09,37,080,15,11,35,307,31,194,33,173,30,04,17,053,29,8*51
$GLGSV,2,1,06,68,70,109,35,83,41,008,25,82,35,067,29,69,33,185,24,1*78
$GLGSV,2,2,06,67,32,036,33,74,08,308,17,1*7D
$GAGSV,3,1,09,10,50,358,33,12,44,037,18,04,42,142,35,11,40,319,26,7*74
$GAGSV,3,2,09,24,39,224,27,19,32,066,17,25,29,290,,33,08,079,24,7*7E
$GAGSV,3,3,09,36,04,284,,7*45
$GAGSV,2,1,06,10,50,358,38,12,44,037,23,04,42,142,41,11,40,319,32,1*79
$GAGSV,2,2,06,24,39,224,24,25,29,290,16,1*7D
$GBGSV,4,1,14,33,76,095,40,40,75,179,33,07,72,223,38,10,69,262,36,1*71
$GBGSV,4,2,14,08,55,290,40,14,51,051,23,28,50,341,42,43,49,085,35,1*78
$GBGSV,4,3,14,13,47,275,36,41,40,201,45,42,26,041,32,11,25,101,35,1*74
$GBGSV,4,4,14,37,10,256,,34,08,113,,1*7B
$GBGSV,2,1,05,33,76,095,43,40,75,179,43,28,50,341,36,41,40,201,47,4*7C
$GBGSV,2,2,05,42,26,041,29,4*4A
$GNGGA,043024.000,2500.7855500,N,12132.4484900,E,2,54,0.50,19.25,M,15.25,M,1,3335*74
$GNRMC,043024.000,A,2500.7855500,N,12132.4484900,E,0.02,62.93,270623,,,D,V*3B
$GPHDT,,T*1B
$GNGGA,043024.200,2500.7855400,N,12132.4485000,E,2,54,0.50,19.25,M,15.25,M,1,3335*7F
$GNRMC,043024.200,A,2500.7855400,N,12132.4485000,E,0.02,62.93,270623,,,D,V*30
$GPHDT,,T*1B
$GNGGA,043024.400,2500.7855400,N,12132.4484900,E,2,54,0.50,19.25,M,15.25,M,1,3335*71
$GNRMC,043024.400,A,2500.7855400,N,12132.4484900,E,0.04,62.93,270623,,,D,V*38
$GPHDT,,T*1B
$GNGGA,043024.600,2500.7855400,N,12132.4484900,E,2,54,0.50,19.25,M,15.25,M,0,3335*72
$GNRMC,043024.600,A,2500.7855400,N,12132.4484900,E,0.04,62.93,270623,,,D,V*3A
$GPHDT,,T*1B
$GNGGA,043024.800,2500.7855400,N,12132.4484900,E,2,54,0.50,19.25,M,15.25,M,0,3335*7C
$GNRMC,043024.800,A,2500.7855400,N,12132.4484900,E,0.01,62.93,270623,,,D,V*31
$GPHDT,,T*1B
$GNGSA,A,3,19,196,195,199,17,06,20,09,11,194,12,04,0.85,0.50,0.69,1*0C
$GNGSA,A,3,68,83,82,69,67,,,,,,,,0.85,0.50,0.69,2*04
$GNGSA,A,3,10,12,04,11,24,19,25,,,,,,0.85,0.50,0.69,3*0B
$GNGSA,A,3,33,40,07,10,08,14,28,43,13,41,42,11,0.85,0.50,0.69,4*00
$GPGSV,4,1,15,19,71,084,27,196,70,117,41,195,69,051,42,50,60,167,28,1*60
$GPGSV,4,2,15,199,60,167,25,17,54,116,44,06,49,010,32,20,43,249,44,1*56
$GPGSV,4,3,15,09,37,080,29,11,35,307,27,194,33,173,33,12,24,302,23,1*52
$GPGSV,4,4,15,05,18,232,15,04,17,053,23,14,08,171,,1*54
$GPGSV,2,1,08,196,70,117,47,195,69,051,41,199,60,167,42,06,49,010,37,8*57
$GPGSV,2,2,08,09,37,080,15,11,35,307,32,194,33,173,30,04,17,053,31,8*5B
$GLGSV,2,1,07,68,70,109,35,83,41,008,25,82,35,067,30,69,33,185,24,1*71
$GLGSV,2,2,07,67,32,036,33,73,17,265,,74,08,308,17,1*4F
$GAGSV,2,1,08,10,50,358,33,12,44,037,18,04,42,142,35,11,40,319,24,7*76
$GAGSV,2,2,08,24,39,224,28,19,32,066,16,25,29,290,,33,08,079,24,7*70
$GAGSV,2,1,06,10,50,358,38,12,44,037,23,04,42,142,42,11,40,319,32,1*7A
$GAGSV,2,2,06,24,39,224,26,25,29,290,17,1*7E
$GBGSV,4,1,14,33,76,095,40,40,75,179,35,07,72,223,38,10,69,262,36,1*77
$GBGSV,4,2,14,08,55,290,40,14,51,051,18,28,50,341,42,43,49,085,35,1*70
$GBGSV,4,3,14,13,47,275,36,41,40,201,45,42,26,041,32,11,25,101,35,1*74
$GBGSV,4,4,14,37,10,256,,23,08,207,,1*7B
$GBGSV,2,1,05,33,76,095,43,40,75,179,43,28,50,341,36,41,40,201,47,4*7C
$GBGSV,2,2,05,42,26,041,29,4*4A
$GNGGA,043025.000,2500.7855400,N,12132.4484900,E,2,54,0.50,19.25,M,15.25,M,1,3335*74
$GNRMC,043025.000,A,2500.7855400,N,12132.4484900,E,0.03,62.93,270623,,,D,V*3A
$GPHDT,,T*1B
$GNGGA,043025.200,2500.7855400,N,12132.4484900,E,2,54,0.50,19.24,M,15.25,M,1,3335*77
$GNRMC,043025.200,A,2500.7855400,N,12132.4484900,E,0.03,62.93,270623,,,D,V*38
$GPHDT,,T*1B
$GNGGA,043025.400,2500.7855400,N,12132.4484900,E,2,54,0.50,19.25,M,15.25,M,1,3335*70
$GNRMC,043025.400,A,2500.7855400,N,12132.4484900,E,0.02,62.93,270623,,,D,V*3F
$GPHDT,,T*1B
$GNGGA,043025.600,2500.7855400,N,12132.4484900,E,2,54,0.50,19.25,M,15.25,M,1,3335*72
$GNRMC,043025.600,A,2500.7855400,N,12132.4484900,E,0.01,62.93,270623,,,D,V*3E
$GPHDT,,T*1B
$GNGGA,043025.800,2500.7855400,N,12132.4484900,E,2,53,0.50,19.25,M,15.25,M,0,3335*7A
$GNRMC,043025.800,A,2500.7855400,N,12132.4484900,E,0.02,62.93,270623,,,D,V*33
$GPHDT,,T*1B
$GNGSA,A,3,19,196,195,199,17,06,20,09,11,194,12,04,0.85,0.50,0.69,1*0C
$GNGSA,A,3,68,83,82,69,67,,,,,,,,0.85,0.50,0.69,2*04
$GNGSA,A,3,10,12,04,11,24,19,25,,,,,,0.85,0.50,0.69,3*0B
$GNGSA,A,3,33,40,07,10,08,14,28,43,13,41,42,11,0.85,0.50,0.69,4*00
$GPGSV,4,1,15,19,71,084,28,196,70,117,41,195,69,051,42,50,60,167,28,1*6F
$GPGSV,4,2,15,199,60,167,27,17,54,116,44,06,49,010,31,20,43,249,44,1*57
$GPGSV,4,3,15,09,37,080,28,11,35,307,27,194,33,173,33,12,24,302,23,1*53
$GPGSV,4,4,15,05,18,232,15,04,17,053,21,14,08,171,,1*56
$GPGSV,2,1,08,196,70,117,47,195,69,051,42,199,60,167,42,06,49,010,37,8*54
$GPGSV,2,2,08,09,37,080,14,11,35,307,32,194,33,173,30,04,17,053,30,8*5B
$GLGSV,2,1,07,68,70,109,35,83,41,008,25,82,35,067,30,69,33,185,25,1*70
$GLGSV,2,2,07,67,32,036,34,73,17,265,,74,08,308,18,1*47
$GAGSV,2,1,08,10,50,358,33,12,44,037,18,04,42,142,35,11,40,319,24,7*76
$GAGSV,2,2,08,24,39,224,28,19,32,066,15,25,29,290,,33,08,079,24,7*73
$GAGSV,2,1,06,10,50,358,38,12,44,037,24,04,42,142,42,11,40,319,31,1*7E
$GAGSV,2,2,06,24,39,224,24,25,29,290,17,1*7C
$GBGSV,4,1,15,33,76,095,40,40,75,179,33,07,72,223,38,10,69,262,36,1*70
$GBGSV,4,2,15,08,55,290,40,14,51,051,20,28,50,341,42,43,49,085,35,1*7A
$GBGSV,4,3,15,13,47,275,37,41,40,201,45,42,26,041,32,11,25,101,35,1*74
$GBGSV,4,4,15,37,10,256,,23,08,207,,34,08,113,,1*46
$GBGSV,2,1,05,33,76,095,43,40,75,179,44,28,50,341,36,41,40,201,47,4*7B
$GBGSV,2,2,05,42,26,041,29,4*4A
$GNGGA,043026.000,2500.7855400,N,12132.4484900,E,2,54,0.50,19.25,M,15.25,M,1,3335*77
$GNRMC,043026.000,A,2500.7855400,N,12132.4484900,E,0.00,62.93,270623,,,D,V*3A
$GPHDT,,T*1B
$GNGGA,043026.200,2500.7855400,N,12132.4484900,E,2,54,0.50,19.25,M,15.25,M,1,3335*75
$GNRMC,043026.200,A,2500.7855400,N,12132.4484900,E,0.00,62.93,270623,,,D,V*38
$GPHDT,,T*1B
$GNGGA,043026.400,2500.7855400,N,12132.4484900,E,2,54,0.50,19.25,M,15.25,M,1,3335*73
$GNRMC,043026.400,A,2500.7855400,N,12132.4484900,E,0.01,62.93,270623,,,D,V*3F
$GPHDT,,T*1B
$GNGGA,043026.600,2500.7855400,N,12132.4484900,E,2,54,0.50,19.25,M,15.25,M,0,3335*70
$GNRMC,043026.600,A,2500.7855400,N,12132.4484900,E,0.06,62.93,270623,,,D,V*3A
$GPHDT,,T*1B
$GNGGA,043026.800,2500.7855400,N,12132.4484900,E,2,54,0.50,19.25,M,15.25,M,0,3335*7E
$GNRMC,043026.800,A,2500.7855400,N,12132.4484900,E,0.01,62.93,270623,,,D,V*33
$GPHDT,,T*1B
$GNGSA,A,3,19,196,195,199,17,06,20,09,11,194,12,04,0.85,0.50,0.69,1*0C
$GNGSA,A,3,68,83,82,69,67,,,,,,,,0.85,0.50,0.69,2*04
$GNGSA,A,3,10,12,04,11,24,19,25,,,,,,0.85,0.50,0.69,3*0B
$GNGSA,A,3,33,40,07,10,08,14,28,43,13,41,42,11,0.85,0.50,0.69,4*00
$GPGSV,4,1,15,19,71,084,28,196,70,117,41,195,69,051,42,50,60,167,28,1*6F
$GPGSV,4,2,15,199,60,167,27,17,54,116,44,06,49,010,30,20,43,249,44,1*56
$GPGSV,4,3,15,09,37,080,28,11,35,307,27,194,33,173,33,12,24,302,25,1*55
$GPGSV,4,4,15,05,18,232,15,04,17,053,18,14,08,171,,1*5C
$GPGSV,2,1,08,196,70,117,47,195,69,051,42,199,60,167,42,06,49,010,37,8*54
$GPGSV,2,2,08,09,37,080,14,11,35,307,32,194,33,173,29,04,17,053,29,8*5B
$GLGSV,2,1,07,68,70,109,35,83,41,008,25,82,35,067,30,69,33,185,25,1*70
$GLGSV,2,2,07,67,32,036,34,73,17,265,,74,08,308,18,1*47
$GAGSV,3,1,09,10,50,358,33,12,44,037,18,04,42,142,35,11,40,319,22,7*70
$GAGSV,3,2,09,24,39,224,28,19,32,066,17,25,29,290,,09,12,188,,7*7A
$GAGSV,3,3,09,33,08,079,24,7*4A
$GAGSV,2,1,06,10,50,358,38,12,44,037,24,04,42,142,42,11,40,319,31,1*7E
$GAGSV,2,2,06,24,39,224,25,25,29,290,18,1*72
$GBGSV,4,1,15,33,76,095,40,40,75,179,34,07,72,223,38,10,69,262,36,1*77
$GBGSV,4,2,15,08,55,290,40,14,51,051,20,28,50,341,42,43,49,085,36,1*79
$GBGSV,4,3,15,13,47,275,37,41,40,201,45,42,26,041,33,11,25,101,35,1*75
$GBGSV,4,4,15,37,10,256,,23,08,207,,34,08,113,,1*46
$GBGSV,2,1,05,33,76,095,43,40,75,179,44,28,50,341,36,41,40,201,47,4*7B
$GBGSV,2,2,05,42,26,041,28,4*4B
$GNGGA,043027.000,2500.7855400,N,12132.4484900,E,2,54,0.50,19.25,M,15.25,M,1,3335*76
$GNRMC,043027.000,A,2500.7855400,N,12132.4484900,E,0.01,62.93,270623,,,D,V*3A
$GPHDT,,T*1B
$GNGGA,043027.200,2500.7855400,N,12132.4484900,E,2,54,0.50,19.25,M,15.25,M,1,3335*74
$GNRMC,043027.200,A,2500.7855400,N,12132.4484900,E,0.01,62.93,270623,,,D,V*38
$GPHDT,,T*1B
$GNGGA,043027.400,2500.7855400,N,12132.4484900,E,2,54,0.50,19.25,M,15.25,M,1,3335*72
$GNRMC,043027.400,A,2500.7855400,N,12132.4484900,E,0.07,62.93,270623,,,D,V*38
$GPHDT,,T*1B
$GNGGA,043027.600,2500.7855400,N,12132.4484900,E,2,54,0.50,19.25,M,15.25,M,0,3335*71
$GNRMC,043027.600,A,2500.7855400,N,12132.4484900,E,0.04,62.93,270623,,,D,V*39
$GPHDT,,T*1B
$GNGGA,043027.800,2500.7855400,N,12132.4484900,E,2,54,0.50,19.25,M,15.25,M,0,3335*7F
$GNRMC,043027.800,A,2500.7855400,N,12132.4484900,E,0.03,62.93,270623,,,D,V*30
$GPHDT,,T*1B
$GNGSA,A,3,19,196,195,199,17,06,20,09,11,194,04,,0.87,0.51,0.70,1*04
$GNGSA,A,3,68,83,82,69,67,,,,,,,,0.87,0.51,0.70,2*0F
$GNGSA,A,3,10,12,04,11,24,19,25,,,,,,0.87,0.51,0.70,3*00
$GNGSA,A,3,33,40,07,10,08,14,28,43,13,41,42,11,0.87,0.51,0.70,4*0B
$GPGSV,4,1,15,19,71,084,28,196,70,117,41,195,69,051,42,50,60,167,28,1*6F
$GPGSV,4,2,15,199,60,167,27,17,54,116,44,06,49,010,28,20,43,249,44,1*5F
$GPGSV,4,3,15,09,37,080,28,11,35,307,26,194,33,173,33,12,24,302,25,1*54
$GPGSV,4,4,15,05,18,232,16,04,17,053,17,14,08,171,,1*50
$GPGSV,2,1,08,196,70,117,47,195,69,051,42,199,60,167,42,06,49,010,37,8*54
$GPGSV,2,2,08,09,37,080,13,11,35,307,32,194,33,173,29,04,17,053,29,8*5C
$GLGSV,2,1,07,68,70,109,35,83,41,008,26,82,35,067,29,69,33,185,25,1*7B
$GLGSV,2,2,07,67,32,036,34,73,17,265,,74,08,308,18,1*47
$GAGSV,3,1,09,10,50,358,33,12,44,037,18,04,42,142,35,11,40,319,25,7*77
$GAGSV,3,2,09,24,39,224,28,19,32,066,17,25,29,290,,09,12,188,,7*7A
$GAGSV,3,3,09,33,08,079,24,7*4A
$GAGSV,2,1,06,10,50,358,38,12,44,037,24,04,42,142,42,11,40,319,31,1*7E
$GAGSV,2,2,06,24,39,224,25,25,29,290,18,1*72
$GBGSV,4,1,15,33,76,094,40,40,75,179,34,07,72,223,38,10,69,262,36,1*76
$GBGSV,4,2,15,08,55,290,40,14,51,051,23,28,50,341,42,43,49,085,36,1*7A
$GBGSV,4,3,15,13,47,275,36,41,40,201,45,42,26,041,33,11,25,101,34,1*75
$GBGSV,4,4,15,37,10,256,,23,08,207,,34,08,113,,1*46
$GBGSV,2,1,05,33,76,094,43,40,75,179,44,28,50,341,36,41,40,201,47,4*7A
$GBGSV,2,2,05,42,26,041,27,4*44
$GNGGA,043028.000,2500.7855400,N,12132.4484900,E,2,53,0.51,19.25,M,15.25,M,1,3335*7F
$GNRMC,043028.000,A,2500.7855400,N,12132.4484900,E,0.03,62.93,270623,,,D,V*37
$GPHDT,,T*1B
$GNGGA,043028.200,2500.7855400,N,12132.4484900,E,2,53,0.51,19.25,M,15.25,M,1,3335*7D
$GNRMC,043028.200,A,2500.7855400,N,12132.4484900,E,0.03,62.93,270623,,,D,V*35
$GPHDT,,T*1B
$GNGGA,043028.400,2500.7855400,N,12132.4484900,E,2,52,0.51,19.26,M,15.25,M,1,3335*79
$GNRMC,043028.400,A,2500.7855400,N,12132.4484900,E,0.05,62.93,270623,,,D,V*35
$GPHDT,,T*1B
$GNGGA,043028.600,2500.7855400,N,12132.4484900,E,2,51,0.52,19.26,M,15.25,M,0,3335*7A
$GNRMC,043028.600,A,2500.7855400,N,12132.4484900,E,0.05,62.93,270623,,,D,V*37
$GPHDT,,T*1B
$GNGGA,043028.800,2500.7855400,N,12132.4484900,E,2,52,0.51,19.27,M,15.25,M,0,3335*75
$GNRMC,043028.800,A,2500.7855400,N,12132.4484900,E,0.06,62.93,270623,,,D,V*3A
$GPHDT,,T*1B
$GNGSA,A,3,19,196,195,199,17,06,20,09,11,194,12,04,0.85,0.50,0.69,1*0C
$GNGSA,A,3,68,83,82,69,67,,,,,,,,0.85,0.50,0.69,2*04
$GNGSA,A,3,10,12,04,11,24,19,25,,,,,,0.85,0.50,0.69,3*0B
$GNGSA,A,3,33,40,07,10,08,28,43,13,41,42,11,,0.85,0.50,0.69,4*05
$GPGSV,4,1,15,19,71,084,30,196,70,117,41,195,69,051,42,50,60,167,28,1*66
$GPGSV,4,2,15,199,60,167,26,17,54,116,44,06,49,010,29,20,43,249,44,1*5F
$GPGSV,4,3,15,09,37,080,28,11,35,307,26,194,33,173,33,12,24,302,24,1*55
$GPGSV,4,4,15,05,18,232,16,04,17,053,19,14,08,171,,1*5E
$GPGSV,2,1,07,196,70,117,47,195,69,051,42,199,60,167,42,06,49,010,37,8*5B
$GPGSV,2,2,07,11,35,307,32,194,33,173,29,04,17,053,31,8*6D
$GLGSV,2,1,07,68,70,109,35,83,41,008,26,82,35,067,29,69,33,185,25,1*7B
$GLGSV,2,2,07,67,32,036,33,73,17,265,,74,08,308,19,1*41
$GAGSV,3,1,09,10,50,358,33,12,44,037,18,04,42,142,35,11,40,319,24,7*76
$GAGSV,3,2,09,24,39,224,27,19,32,066,15,25,29,290,,09,12,188,,7*77
$GAGSV,3,3,09,33,08,079,22,7*4C
$GAGSV,2,1,06,10,50,358,38,12,44,037,24,04,42,142,42,11,40,319,31,1*7E
$GAGSV,2,2,06,24,39,224,25,25,29,290,18,1*72
$GBGSV,4,1,15,33,76,094,40,40,75,179,34,07,72,223,38,10,69,262,36,1*76
$GBGSV,4,2,15,08,55,290,40,14,51,051,,28,50,341,42,43,49,085,35,1*78
$GBGSV,4,3,15,13,47,275,36,41,40,201,45,42,26,041,35,11,25,101,34,1*73
$GBGSV,4,4,15,37,10,256,,23,08,207,,34,08,113,,1*46
$GBGSV,2,1,05,33,76,094,43,40,75,179,44,28,50,341,36,41,40,201,47,4*7A
$GBGSV,2,2,05,42,26,041,27,4*44
$GNGGA,043029.000,2500.7855400,N,12132.4484900,E,2,51,0.50,19.27,M,15.25,M,1,3335*7F
$GNRMC,043029.000,A,2500.7855400,N,12132.4484900,E,0.05,62.93,270623,,,D,V*30
$GPHDT,,T*1B
$GNGGA,043029.200,2500.7855400,N,12132.4484900,E,2,51,0.50,19.28,M,15.25,M,1,3335*72
$GNRMC,043029.200,A,2500.7855400,N,12132.4484900,E,0.02,62.93,270623,,,D,V*35
$GPHDT,,T*1B
$GNGGA,043029.400,2500.7855400,N,12132.4484900,E,2,52,0.51,19.28,M,15.25,M,1,3335*76
$GNRMC,043029.400,A,2500.7855400,N,12132.4484900,E,0.01,62.93,270623,,,D,V*30
$GPHDT,,T*1B
$GNGGA,043029.600,2500.7855400,N,12132.4484900,E,2,52,0.51,19.28,M,15.25,M,1,3335*74
$GNRMC,043029.600,A,2500.7855400,N,12132.4484900,E,0.02,62.93,270623,,,D,V*31
$GPHDT,,T*1B
$GNGGA,043029.800,2500.7855400,N,12132.4484900,E,2,52,0.51,19.28,M,15.25,M,0,3335*7B
$GNRMC,043029.800,A,2500.7855400,N,12132.4484900,E,0.06,62.93,270623,,,D,V*3B
$GPHDT,,T*1B
$GNGSA,A,3,19,196,195,199,17,06,20,09,11,194,12,04,1.08,0.51,0.95,1*0A
$GNGSA,A,3,68,83,82,69,67,,,,,,,,1.08,0.51,0.95,2*02
$GNGSA,A,3,10,12,04,11,24,19,25,,,,,,1.08,0.51,0.95,3*0D
$GNGSA,A,3,33,40,07,10,08,28,43,13,41,42,11,,1.08,0.51,0.95,4*03
$GPGSV,4,1,15,19,71,084,31,196,70,117,41,195,69,051,42,199,60,167,24,1*5F
$GPGSV,4,2,15,50,60,167,28,17,54,116,44,06,49,010,26,20,43,249,43,1*6D
$GPGSV,4,3,15,09,37,080,27,11,35,307,25,194,33,173,33,12,24,302,23,1*5E
$GPGSV,4,4,15,05,18,232,16,04,17,053,21,14,08,171,,1*55
$GPGSV,2,1,07,196,70,117,47,195,69,051,42,199,60,167,42,06,49,010,37,8*5B
$GPGSV,2,2,07,11,35,307,32,194,33,173,29,04,17,053,31,8*6D
$GLGSV,2,1,08,68,70,109,35,83,41,008,27,82,35,067,29,69,33,185,25,1*75
$GLGSV,2,2,08,67,32,036,33,73,17,265,,74,08,308,19,80,08,214,,1*79
$GAGSV,3,1,09,10,50,358,33,12,44,037,18,04,42,142,35,11,40,319,26,7*74
$GAGSV,3,2,09,24,39,224,27,19,32,066,15,25,29,290,,09,12,188,,7*77
$GAGSV,3,3,09,33,08,079,22,7*4C
$GAGSV,2,1,06,10,50,358,38,12,44,037,24,04,42,142,42,11,40,319,31,1*7E
$GAGSV,2,2,06,24,39,224,25,25,29,290,18,1*72
$GBGSV,4,1,14,33,76,094,40,40,75,179,34,07,72,223,38,10,69,262,37,1*76
$GBGSV,4,2,14,08,55,290,40,14,51,051,,28,50,341,42,43,49,086,35,1*7A
$GBGSV,4,3,14,13,47,275,36,41,41,201,45,42,26,041,35,11,25,101,34,1*73
$GBGSV,4,4,14,37,10,256,,23,08,207,,1*7B
$GBGSV,2,1,05,33,76,094,43,40,75,179,44,28,50,341,36,41,41,201,47,4*7B
$GBGSV,2,2,05,42,26,041,27,4*44
$GNGGA,043030.000,2500.7855400,N,12132.4484900,E,2,52,0.51,19.28,M,15.25,M,1,3335*7A
$GNRMC,043030.000,A,2500.7855400,N,12132.4484900,E,0.04,62.93,270623,,,D,V*39
$GPHDT,,T*1B
$GNGGA,043030.200,2500.7855400,N,12132.4484900,E,2,52,0.51,19.28,M,15.25,M,1,3335*78
$GNRMC,043030.200,A,2500.7855400,N,12132.4484900,E,0.03,62.93,270623,,,D,V*3C
$GPHDT,,T*1B
$GNGGA,043030.400,2500.7855400,N,12132.4484900,E,2,52,0.51,19.28,M,15.25,M,1,3335*7E
$GNRMC,043030.400,A,2500.7855400,N,12132.4484900,E,0.02,62.93,270623,,,D,V*3B
$GPHDT,,T*1B
$GNGGA,043030.600,2500.7855400,N,12132.4484900,E,2,52,0.51,19.28,M,15.25,M,1,3335*7C
$GNRMC,043030.600,A,2500.7855400,N,12132.4484900,E,0.04,62.93,270623,,,D,V*3F
