$FW : RTK35X,V1.1X0314AS,Lib20210517,1*54
$Tool : LOCOSYS , GNSS Firebird , v1.0.0.19*39
$---------------------------------------------------*2D
623,,,D,V*35
$GPHDT,,T*1B
$GNGGA,042918.200,2500.7853600,N,12132.4497500,E,2,53,0.52,17.59,M,15.25,M,1,3335*7A
$GNRMC,042918.200,A,2500.7853600,N,12132.4497500,E,0.00,62.93,270623,,,D,V*37
$GPHDT,,T*1B
$GNGGA,042918.400,2500.7853700,N,12132.4497400,E,2,53,0.52,17.59,M,15.25,M,1,3335*7C
$GNRMC,042918.400,A,2500.7853700,N,12132.4497400,E,0.01,62.93,270623,,,D,V*30
$GPHDT,,T*1B
$GNGGA,042918.600,2500.7853700,N,12132.4497300,E,2,53,0.52,17.59,M,15.25,M,0,3335*78
$GNRMC,042918.600,A,2500.7853700,N,12132.4497300,E,0.00,62.93,270623,,,D,V*34
$GPHDT,,T*1B
$GNGGA,042918.800,2500.7853800,N,12132.4497300,E,2,53,0.52,17.59,M,15.25,M,0,3335*79
$GNRMC,042918.800,A,2500.7853800,N,12132.4497300,E,0.00,62.93,270623,,,D,V*35
$GPHDT,,T*1B
$GNGSA,A,3,19,196,195,199,17,06,20,09,11,12,04,194,1.12,0.52,0.99,1*0E
$GNGSA,A,3,68,83,82,67,69,,,,,,,,1.12,0.52,0.99,2*06
$GNGSA,A,3,10,12,04,24,11,19,25,,,,,,1.12,0.52,0.99,3*09
$GNGSA,A,3,33,40,07,10,08,14,43,28,13,41,42,,1.12,0.52,0.99,4*02
$GPGSV,4,1,15,19,71,082,34,196,70,118,41,195,69,051,43,50,60,167,31,1*62
$GPGSV,4,2,15,199,60,167,29,17,55,115,43,06,49,009,39,20,43,249,44,1*5C
$GPGSV,4,3,15,09,37,081,28,11,35,306,26,194,33,173,21,12,24,303,17,1*57
$GPGSV,4,4,15,05,18,232,14,04,17,054,16,14,08,171,,1*54
$GPGSV,2,1,08,196,70,118,45,195,69,051,44,199,60,167,41,06,49,009,40,8*54
$GPGSV,2,2,08,09,37,081,21,11,35,306,36,194,33,173,34,04,17,054,24,8*5F
$GLGSV,2,1,06,68,69,111,39,83,41,007,29,82,35,067,25,67,33,037,37,1*7E
$GLGSV,2,2,06,69,32,185,26,74,08,309,19,1*71
$GAGSV,3,1,09,10,50,357,39,12,44,036,21,04,42,143,35,24,39,224,22,7*78
$GAGSV,3,2,09,11,39,319,38,19,32,067,18,25,29,290,19,09,11,188,,7*77
$GAGSV,3,3,09,33,09,079,20,7*4F
$GAGSV,2,1,07,10,50,357,43,12,44,036,20,04,42,143,36,11,39,319,40,1*73
$GAGSV,2,2,07,19,32,067,16,25,29,290,19,33,09,079,15,1*41
$GBGSV,4,1,13,33,76,097,42,40,75,178,40,07,72,224,40,10,69,263,36,1*7A
$GBGSV,4,2,13,08,55,289,39,14,52,051,19,43,49,084,25,28,49,340,44,1*7C
$GBGSV,4,3,13,13,47,275,38,41,40,201,35,42,27,041,31,11,25,100,21,1*7C
$GBGSV,4,4,13,23,08,208,,1*47
$GBGSV,2,1,06,33,76,097,44,40,75,178,43,28,49,340,45,43,49,084,22,4*71
$GBGSV,2,2,06,41,40,201,36,42,27,041,22,4*74
$GNGGA,042919.000,2500.7853800,N,12132.4497300,E,2,54,0.52,17.59,M,15.25,M,1,3335*76
$GNRMC,042919.000,A,2500.7853800,N,12132.4497300,E,0.00,62.93,270623,,,D,V*3C
$GPHDT,,T*1B
$GNGGA,042919.200,2500.7853900,N,12132.4497200,E,2,53,0.52,17.60,M,15.25,M,1,3335*79
$GNRMC,042919.200,A,2500.7853900,N,12132.4497200,E,0.00,62.93,270623,,,D,V*3E
$GPHDT,,T*1B
$GNGGA,042919.400,2500.7854000,N,12132.4497200,E,2,53,0.52,17.59,M,15.25,M,1,3335*7B
$GNRMC,042919.400,A,2500.7854000,N,12132.4497200,E,0.00,62.93,270623,,,D,V*36
$GPHDT,,T*1B
$GNGGA,042919.600,2500.7854100,N,12132.4497100,E,2,53,0.52,17.59,M,15.25,M,1,3335*7B
$GNRMC,042919.600,A,2500.7854100,N,12132.4497100,E,0.01,62.93,270623,,,D,V*37
$GPHDT,,T*1B
$GNGGA,042919.800,2500.7854200,N,12132.4497100,E,2,53,0.52,17.59,M,15.25,M,1,3335*76
$GNRMC,042919.800,A,2500.7854200,N,12132.4497100,E,0.00,62.93,270623,,,D,V*3B
$GPHDT,,T*1B
$GNGSA,A,3,19,196,195,199,17,06,20,09,11,12,194,04,1.12,0.52,0.99,1*0E
$GNGSA,A,3,68,83,82,67,69,,,,,,,,1.12,0.52,0.99,2*06
$GNGSA,A,3,10,12,04,24,11,19,25,,,,,,1.12,0.52,0.99,3*09
$GNGSA,A,3,33,40,07,10,08,14,28,13,41,42,43,,1.12,0.52,0.99,4*02
$GPGSV,4,1,15,19,71,082,33,196,70,118,41,195,69,051,43,50,60,167,31,1*65
$GPGSV,4,2,15,199,60,167,29,17,55,115,43,06,49,009,39,20,43,249,44,1*5C
$GPGSV,4,3,15,09,37,081,24,11,35,306,24,194,33,173,21,12,24,303,18,1*56
$GPGSV,4,4,15,05,18,232,15,04,17,054,16,14,08,171,,1*55
$GPGSV,2,1,08,196,70,118,45,195,69,051,44,199,60,167,42,06,49,009,40,8*57
$GPGSV,2,2,08,09,37,081,23,11,35,306,36,194,33,173,34,04,17,054,20,8*59
$GLGSV,2,1,08,68,69,111,39,83,41,007,30,82,35,067,24,67,33,037,37,1*79
$GLGSV,2,2,08,69,32,185,27,74,08,309,19,80,08,214,,84,07,312,,1*72
$GAGSV,2,1,08,10,50,357,39,12,44,036,21,04,42,143,35,24,39,224,21,7*7B
$GAGSV,2,2,08,11,39,319,38,19,32,067,18,25,29,290,19,33,09,079,20,7*7A
$GAGSV,2,1,07,10,50,357,43,12,44,036,21,04,42,143,36,11,39,319,40,1*72
$GAGSV,2,2,07,19,32,067,15,25,29,290,19,33,09,079,16,1*41
$GBGSV,4,1,14,33,76,097,42,40,75,178,39,07,72,224,39,10,69,263,36,1*7D
$GBGSV,4,2,14,08,55,289,39,14,52,051,20,28,49,340,44,43,49,084,26,1*72
$GBGSV,4,3,14,13,47,275,37,41,40,201,35,42,27,041,31,11,25,100,,1*77
$GBGSV,4,4,14,37,10,256,,23,08,208,,1*74
$GBGSV,2,1,06,33,76,097,44,40,75,178,43,28,49,340,45,43,49,084,20,4*73
$GBGSV,2,2,06,41,40,201,41,42,27,041,23,4*75
$GNGGA,042920.000,2500.7854200,N,12132.4497100,E,2,52,0.52,17.59,M,15.25,M,1,3335*75
$GNRMC,042920.000,A,2500.7854200,N,12132.4497100,E,0.00,62.93,270623,,,D,V*39
$GPHDT,,T*1B
$GNGGA,042920.200,2500.7854400,N,12132.4497000,E,2,53,0.52,17.59,M,15.25,M,1,3335*71
$GNRMC,042920.200,A,2500.7854400,N,12132.4497000,E,0.01,62.93,270623,,,D,V*3D
$GPHDT,,T*1B
$GNGGA,042920.400,2500.7854500,N,12132.4496900,E,2,53,0.52,17.59,M,15.25,M,1,3335*7E
$GNRMC,042920.400,A,2500.7854500,N,12132.4496900,E,0.01,62.93,270623,,,D,V*32
$GPHDT,,T*1B
$GNGGA,042920.600,2500.7854600,N,12132.4496900,E,2,53,0.52,17.58,M,15.25,M,0,3335*7F
$GNRMC,042920.600,A,2500.7854600,N,12132.4496900,E,0.00,62.93,270623,,,D,V*32
$GPHDT,,T*1B
$GNGGA,042920.800,2500.7854700,N,12132.4496800,E,2,53,0.52,17.57,M,15.25,M,0,3335*7E
$GNRMC,042920.800,A,2500.7854700,N,12132.4496800,E,0.00,62.93,270623,,,D,V*3C
$GPHDT,,T*1B
$GNGSA,A,3,19,196,195,199,17,06,20,09,11,12,194,04,1.12,0.52,0.99,1*0E
$GNGSA,A,3,68,83,82,67,69,,,,,,,,1.12,0.52,0.99,2*06
$GNGSA,A,3,10,12,04,11,24,19,25,,,,,,1.12,0.52,0.99,3*09
$GNGSA,A,3,33,40,07,10,08,14,28,43,13,41,42,,1.12,0.52,0.99,4*02
$GPGSV,4,1,15,19,71,082,33,196,70,118,41,195,69,051,43,50,60,167,31,1*65
$GPGSV,4,2,15,199,60,167,29,17,55,115,43,06,49,009,40,20,43,249,44,1*52
$GPGSV,4,3,15,09,37,081,23,11,35,306,24,194,33,173,21,12,24,303,18,1*51
$GPGSV,4,4,15,05,18,232,15,04,17,054,14,14,08,171,,1*57
$GPGSV,2,1,08,196,70,118,45,195,69,051,44,199,60,167,42,06,49,009,40,8*57
$GPGSV,2,2,08,09,37,081,24,11,35,306,36,194,33,173,34,04,17,054,24,8*5A
$GLGSV,2,1,07,68,69,111,39,83,41,007,30,82,35,067,25,67,33,037,38,1*78
$GLGSV,2,2,07,69,32,185,29,74,08,309,21,80,08,214,,1*43
$GAGSV,3,1,09,10,50,357,39,12,44,036,19,04,42,143,35,11,39,319,38,7*71
$GAGSV,3,2,09,24,39,224,22,19,32,067,19,25,29,290,19,33,09,079,22,7*7B
$GAGSV,3,3,09,36,04,284,,7*45
$GAGSV,2,1,07,10,50,357,43,12,44,036,20,04,42,143,35,11,39,319,40,1*70
$GAGSV,2,2,07,19,32,067,13,25,29,290,19,33,09,079,16,1*47
$GBGSV,4,1,14,33,76,097,42,40,75,178,38,07,72,224,39,10,69,263,35,1*7F
$GBGSV,4,2,14,08,55,289,39,14,52,051,19,28,49,340,44,43,49,084,27,1*79
$GBGSV,4,3,14,13,47,275,37,41,40,201,38,42,27,041,32,11,25,100,,1*79
$GBGSV,4,4,14,37,10,256,,23,08,207,,1*7B
$GBGSV,2,1,06,33,76,097,44,40,75,178,42,28,49,340,45,43,49,084,18,4*79
$GBGSV,2,2,06,41,40,201,41,42,27,041,21,4*77
$GNGGA,042921.000,2500.7854700,N,12132.4496900,E,2,53,0.52,17.58,M,15.25,M,1,3335*78
$GNRMC,042921.000,A,2500.7854700,N,12132.4496900,E,0.00,62.93,270623,,,D,V*34
$GPHDT,,T*1B
$GNGGA,042921.200,2500.7854700,N,12132.4496900,E,2,53,0.52,17.57,M,15.25,M,1,3335*75
$GNRMC,042921.200,A,2500.7854700,N,12132.4496900,E,0.00,62.93,270623,,,D,V*36
$GPHDT,,T*1B
$GNGGA,042921.400,2500.7854700,N,12132.4496900,E,2,53,0.52,17.57,M,15.25,M,1,3335*73
$GNRMC,042921.400,A,2500.7854700,N,12132.4496900,E,0.00,62.93,270623,,,D,V*30
$GPHDT,,T*1B
$GNGGA,042921.600,2500.7854700,N,12132.4496900,E,2,53,0.52,17.57,M,15.25,M,0,3335*70
$GNRMC,042921.600,A,2500.7854700,N,12132.4496900,E,0.00,62.93,270623,,,D,V*32
$GPHDT,,T*1B
$GNGGA,042921.800,2500.7854700,N,12132.4496900,E,2,54,0.50,17.57,M,15.25,M,0,3335*7B
$GNRMC,042921.800,A,2500.7854700,N,12132.4496900,E,0.00,62.93,270623,,,D,V*3C
$GPHDT,,T*1B
$GNGSA,A,3,19,196,195,199,17,06,20,09,11,12,194,04,1.07,0.50,0.95,1*04
$GNGSA,A,3,68,83,82,67,69,,,,,,,,1.07,0.50,0.95,2*0C
$GNGSA,A,3,10,12,04,24,11,19,25,,,,,,1.07,0.50,0.95,3*03
$GNGSA,A,3,33,40,07,10,08,14,28,43,13,41,42,11,1.07,0.50,0.95,4*08
$GPGSV,4,1,15,19,71,082,32,196,70,118,41,195,69,051,43,199,60,167,30,1*51
$GPGSV,4,2,15,50,60,167,33,17,55,115,43,06,49,009,40,20,43,249,44,1*6D
$GPGSV,4,3,15,09,37,081,23,11,35,306,25,194,33,173,21,12,24,303,17,1*5F
$GPGSV,4,4,15,05,18,232,15,04,17,054,15,14,08,171,,1*56
$GPGSV,2,1,08,196,70,118,45,195,69,051,44,199,60,167,42,06,49,009,40,8*57
$GPGSV,2,2,08,09,37,081,23,11,35,306,36,194,33,173,33,04,17,054,25,8*5B
$GLGSV,2,1,08,68,69,111,39,83,41,007,30,82,35,067,26,67,33,037,38,1*74
$GLGSV,2,2,08,69,32,185,29,73,17,266,,74,08,309,20,80,08,214,,1*7D
$GAGSV,3,1,09,10,50,357,39,12,44,036,19,04,42,143,35,24,39,224,23,7*72
$GAGSV,3,2,09,11,39,319,38,19,32,067,19,25,29,290,19,33,09,079,21,7*7A
$GAGSV,3,3,09,36,04,284,,7*45
$GAGSV,2,1,07,10,50,357,43,12,44,036,20,04,42,143,36,11,39,319,40,1*73
$GAGSV,2,2,07,19,32,067,13,25,29,290,19,33,09,079,15,1*44
$GBGSV,4,1,14,33,76,097,42,40,75,178,38,07,72,224,39,10,69,263,35,1*7F
$GBGSV,4,2,14,08,55,289,39,14,52,051,21,28,50,340,44,43,49,084,27,1*7A
$GBGSV,4,3,14,13,47,275,37,41,40,201,43,42,27,041,31,11,25,100,30,1*75
$GBGSV,4,4,14,37,10,256,,23,08,207,,1*7B
$GBGSV,2,1,06,33,76,097,44,40,75,178,42,28,50,340,45,43,49,084,17,4*7E
$GBGSV,2,2,06,41,40,201,42,42,27,041,22,4*77
$GNGGA,042922.000,2500.7854800,N,12132.4496800,E,2,54,0.50,17.57,M,15.25,M,1,3335*7F
$GNRMC,042922.000,A,2500.7854800,N,12132.4496800,E,0.00,62.93,270623,,,D,V*39
$GPHDT,,T*1B
$GNGGA,042922.200,2500.7854800,N,12132.4496800,E,2,54,0.50,17.57,M,15.25,M,1,3335*7D
$GNRMC,042922.200,A,2500.7854800,N,12132.4496800,E,0.00,62.93,270623,,,D,V*3B
$GPHDT,,T*1B
$GNGGA,042922.400,2500.7854800,N,12132.4496800,E,2,54,0.50,17.57,M,15.25,M,1,3335*7B
$GNRMC,042922.400,A,2500.7854800,N,12132.4496800,E,0.00,62.93,270623,,,D,V*3D
$GPHDT,,T*1B
$GNGGA,042922.600,2500.7854800,N,12132.4496800,E,2,54,0.50,17.57,M,15.25,M,1,3335*79
$GNRMC,042922.600,A,2500.7854800,N,12132.4496800,E,0.00,62.93,270623,,,D,V*3F
$GPHDT,,T*1B
$GNGGA,042922.800,2500.7854800,N,12132.4496800,E,2,53,0.51,17.57,M,15.25,M,1,3335*71
$GNRMC,042922.800,A,2500.7854800,N,12132.4496800,E,0.00,62.93,270623,,,D,V*31
$GPHDT,,T*1B
$GNGSA,A,3,19,196,195,199,17,06,20,09,12,11,194,04,1.12,0.52,0.99,1*0E
$GNGSA,A,3,68,83,82,67,69,,,,,,,,1.12,0.52,0.99,2*06
$GNGSA,A,3,10,12,04,24,11,19,25,,,,,,1.12,0.52,0.99,3*09
$GNGSA,A,3,33,40,07,10,08,14,28,13,41,42,43,,1.12,0.52,0.99,4*02
$GPGSV,4,1,15,19,71,082,30,196,70,118,40,195,69,051,43,50,60,167,33,1*65
$GPGSV,4,2,15,199,60,167,30,17,55,115,43,06,49,009,40,20,43,249,44,1*5A
$GPGSV,4,3,15,09,37,081,23,11,35,306,20,194,33,173,19,12,24,303,17,1*51
$GPGSV,4,4,15,05,18,232,15,04,17,054,14,14,08,171,,1*57
$GPGSV,2,1,08,196,70,118,45,195,69,051,44,199,60,167,42,06,49,009,40,8*57
$GPGSV,2,2,08,09,37,081,24,11,35,306,36,194,33,173,33,04,17,054,22,8*5B
$GLGSV,2,1,08,68,69,111,39,83,41,007,30,82,35,067,28,67,33,037,38,1*7A
$GLGSV,2,2,08,69,32,185,29,73,17,266,,74,08,309,19,80,08,214,,1*77
$GAGSV,3,1,10,10,50,357,39,12,44,036,22,04,42,143,27,24,39,224,24,7*76
$GAGSV,3,2,10,11,39,319,38,19,32,067,19,25,29,290,19,09,11,188,,7*7E
$GAGSV,3,3,10,33,09,079,20,36,04,284,,7*78
$GAGSV,2,1,07,10,50,357,43,12,44,036,20,04,42,143,26,11,39,319,39,1*7C
$GAGSV,2,2,07,24,39,224,20,25,29,290,19,33,09,079,13,1*42
$GBGSV,4,1,14,33,76,096,42,40,75,178,38,07,72,224,39,10,69,263,35,1*7E
$GBGSV,4,2,14,08,55,289,39,14,52,051,26,28,50,340,44,43,49,084,26,1*7C
$GBGSV,4,3,14,13,47,275,37,41,40,201,45,42,27,041,32,11,25,100,,1*73
$GBGSV,4,4,14,37,10,256,,23,08,207,,1*7B
$GBGSV,2,1,06,33,76,096,44,40,75,178,42,28,50,340,45,43,49,084,17,4*7F
$GBGSV,2,2,06,41,40,201,43,42,27,041,22,4*76
$GNGGA,042923.000,2500.7854900,N,12132.4496700,E,2,51,0.52,17.57,M,15.25,M,1,3335*77
$GNRMC,042923.000,A,2500.7854900,N,12132.4496700,E,0.00,62.93,270623,,,D,V*36
$PAIR010,0,1,2268,188981*35
$GPHDT,,T*1B
$GNGGA,042923.200,2500.7855000,N,12132.4496700,E,2,50,0.52,17.57,M,15.25,M,1,3335*7C
$GNRMC,042923.200,A,2500.7855000,N,12132.4496700,E,0.00,62.93,270623,,,D,V*3C
$GPHDT,,T*1B
$GNGGA,042923.400,2500.7855000,N,12132.4496700,E,2,51,0.52,17.57,M,15.25,M,1,3335*7B
$GNRMC,042923.400,A,2500.7855000,N,12132.4496700,E,0.00,62.93,270623,,,D,V*3A
$GPHDT,,T*1B
$GNGGA,042923.600,2500.7855100,N,12132.4496700,E,2,51,0.52,17.57,M,15.25,M,1,3335*78
$GNRMC,042923.600,A,2500.7855100,N,12132.4496700,E,0.00,62.93,270623,,,D,V*39
$GPHDT,,T*1B
$GNGGA,042923.800,2500.7855100,N,12132.4496700,E,2,52,0.52,17.57,M,15.25,M,0,3335*74
$GNRMC,042923.800,A,2500.7855100,N,12132.4496700,E,0.00,62.93,270623,,,D,V*37
$GPHDT,,T*1B
$GNGSA,A,3,19,196,195,199,17,06,20,09,11,194,12,04,1.12,0.52,0.99,1*0E
$GNGSA,A,3,68,83,82,67,69,,,,,,,,1.12,0.52,0.99,2*06
$GNGSA,A,3,10,12,04,24,11,19,25,,,,,,1.12,0.52,0.99,3*09
$GNGSA,A,3,33,40,07,10,08,14,28,43,13,41,42,,1.12,0.52,0.99,4*02
$GPGSV,4,1,15,19,71,082,31,196,70,118,40,195,69,051,43,50,60,167,33,1*64
$GPGSV,4,2,15,199,60,167,30,17,55,115,43,06,49,009,40,20,43,249,44,1*5A
$GPGSV,4,3,15,09,37,081,19,11,35,306,24,194,33,173,22,12,24,303,17,1*54
$GPGSV,4,4,15,05,18,232,15,04,17,054,17,14,08,171,,1*54
$GPGSV,2,1,08,196,70,118,45,195,69,051,44,199,60,167,42,06,49,009,40,8*57
$GPGSV,2,2,08,09,37,081,26,11,35,306,37,194,33,173,32,04,17,054,21,8*5A
$GLGSV,2,1,08,68,69,111,39,83,41,007,31,82,35,067,28,67,33,037,39,1*7A
$GLGSV,2,2,08,69,32,185,29,73,17,266,,74,08,309,19,80,08,214,,1*77
$GAGSV,3,1,10,10,50,357,39,12,44,036,23,04,42,143,29,24,39,224,24,7*79
$GAGSV,3,2,10,11,39,319,38,19,32,067,17,25,29,290,19,09,11,188,,7*70
$GAGSV,3,3,10,33,09,079,20,36,04,284,,7*78
$GAGSV,2,1,06,10,50,357,43,12,44,036,20,04,42,143,36,11,39,319,39,1*7C
$GAGSV,2,2,06,24,39,224,19,25,29,290,19,1*7C
$GBGSV,4,1,14,33,76,096,42,40,75,178,38,07,72,224,39,10,69,263,35,1*7E
$GBGSV,4,2,14,08,55,289,39,14,52,051,24,28,50,340,44,43,49,084,27,1*7F
$GBGSV,4,3,14,13,47,275,37,41,40,201,44,42,27,041,31,11,25,100,,1*71
$GBGSV,4,4,14,37,10,256,,23,08,207,,1*7B
$GBGSV,2,1,05,33,76,096,43,40,75,178,42,28,50,340,45,41,40,201,43,4*7E
$GBGSV,2,2,05,42,27,041,22,4*40
$GNGGA,042924.000,2500.7855200,N,12132.4496700,E,2,53,0.52,17.57,M,15.25,M,1,3335*78
$GNRMC,042924.000,A,2500.7855200,N,12132.4496700,E,0.00,62.93,270623,,,D,V*3B
$GPHDT,,T*1B
$GNGGA,042924.200,2500.7855300,N,12132.4496600,E,2,53,0.52,17.57,M,15.25,M,1,3335*7A
$GNRMC,042924.200,A,2500.7855300,N,12132.4496600,E,0.00,62.93,270623,,,D,V*39
$GPHDT,,T*1B
$GNGGA,042924.400,2500.7855300,N,12132.4496600,E,2,53,0.52,17.57,M,15.25,M,1,3335*7C
$GNRMC,042924.400,A,2500.7855300,N,12132.4496600,E,0.00,62.93,270623,,,D,V*3F
$GPHDT,,T*1B
$GNGGA,042924.600,2500.7855400,N,12132.4496600,E,2,54,0.50,17.57,M,15.25,M,1,3335*7C
$GNRMC,042924.600,A,2500.7855400,N,12132.4496600,E,0.00,62.93,270623,,,D,V*3A
$GPHDT,,T*1B
$GNGGA,042924.800,2500.7855400,N,12132.4496500,E,2,54,0.50,17.57,M,15.25,M,0,3335*70
$GNRMC,042924.800,A,2500.7855400,N,12132.4496500,E,0.00,62.93,270623,,,D,V*37
$GPHDT,,T*1B
$GNGSA,A,3,19,196,195,199,17,06,20,09,11,194,12,04,1.07,0.50,0.95,1*04
$GNGSA,A,3,68,83,82,67,69,,,,,,,,1.07,0.50,0.95,2*0C
$GNGSA,A,3,10,12,04,24,11,19,25,,,,,,1.07,0.50,0.95,3*03
$GNGSA,A,3,33,40,07,10,08,14,28,43,13,41,42,11,1.07,0.50,0.95,4*08
$GPGSV,4,1,15,19,71,082,31,196,70,118,40,195,69,051,43,199,60,167,30,1*53
$GPGSV,4,2,15,50,60,167,33,17,55,115,43,06,49,009,40,20,43,249,44,1*6D
$GPGSV,4,3,15,09,37,081,16,11,35,306,22,194,33,173,26,12,24,303,17,1*59
$GPGSV,4,4,15,05,18,232,16,04,17,054,17,14,08,171,,1*57
$GPGSV,2,1,08,196,70,118,45,195,69,051,44,199,60,167,42,06,49,009,40,8*57
$GPGSV,2,2,08,09,37,081,26,11,35,306,37,194,33,173,32,04,17,054,24,8*5F
$GLGSV,2,1,07,68,69,111,39,83,41,007,31,82,35,067,28,67,33,037,39,1*75
$GLGSV,2,2,07,69,32,185,29,73,17,266,,74,08,309,20,1*45
$GAGSV,3,1,10,10,50,357,39,12,44,036,23,04,42,143,30,24,39,224,24,7*71
$GAGSV,3,2,10,11,39,319,38,19,32,067,15,25,29,290,19,09,11,188,,7*72
$GAGSV,3,3,10,33,09,079,20,36,04,284,,7*78
$GAGSV,2,1,06,10,50,357,43,12,44,036,20,04,42,143,36,11,39,319,39,1*7C
$GAGSV,2,2,06,24,39,224,17,25,29,290,19,1*72
$GBGSV,4,1,14,33,76,096,42,40,75,178,37,07,72,224,39,10,69,263,35,1*71
$GBGSV,4,2,14,08,55,289,39,14,52,051,24,28,50,340,45,43,49,085,31,1*78
$GBGSV,4,3,14,13,47,275,37,41,40,201,43,42,27,041,33,11,25,100,30,1*77
$GBGSV,4,4,14,37,10,256,,23,08,207,,1*7B
$GBGSV,2,1,05,33,76,096,43,40,75,178,42,28,50,340,45,41,40,201,43,4*7E
$GBGSV,2,2,05,42,27,041,22,4*40
$GNGGA,042925.000,2500.7855500,N,12132.4496400,E,2,54,0.50,17.57,M,15.25,M,1,3335*78
$GNRMC,042925.000,A,2500.7855500,N,12132.4496400,E,0.00,62.93,270623,,,D,V*3E
$GPHDT,,T*1B
$GNGGA,042925.200,2500.7855600,N,12132.4496400,E,2,54,0.50,17.57,M,15.25,M,1,3335*79
$GNRMC,042925.200,A,2500.7855600,N,12132.4496400,E,0.00,62.93,270623,,,D,V*3F
$GPHDT,,T*1B
$GNGGA,042925.400,2500.7855700,N,12132.4496400,E,2,54,0.50,17.57,M,15.25,M,1,3335*7E
$GNRMC,042925.400,A,2500.7855700,N,12132.4496400,E,0.00,62.93,270623,,,D,V*38
$GPHDT,,T*1B
$GNGGA,042925.600,2500.7855700,N,12132.4496300,E,2,54,0.50,17.57,M,15.25,M,1,3335*7B
$GNRMC,042925.600,A,2500.7855700,N,12132.4496300,E,0.00,62.93,270623,,,D,V*3D
$GPHDT,,T*1B
$GNGGA,042925.800,2500.7855800,N,12132.4496300,E,2,54,0.50,17.57,M,15.25,M,0,3335*7B
$GNRMC,042925.800,A,2500.7855800,N,12132.4496300,E,0.00,62.93,270623,,,D,V*3C
$GPHDT,,T*1B
$GNGSA,A,3,19,196,195,199,17,06,20,09,11,194,12,04,1.07,0.50,0.95,1*04
$GNGSA,A,3,68,83,82,67,69,,,,,,,,1.07,0.50,0.95,2*0C
$GNGSA,A,3,10,12,04,11,24,19,25,,,,,,1.07,0.50,0.95,3*03
$GNGSA,A,3,33,40,07,10,08,14,28,43,13,41,42,11,1.07,0.50,0.95,4*08
$GPGSV,4,1,15,19,71,082,31,196,70,118,40,195,69,051,43,50,60,167,33,1*64
$GPGSV,4,2,15,199,60,167,31,17,55,115,43,06,49,009,40,20,43,249,44,1*5B
$GPGSV,4,3,15,09,37,081,14,11,35,306,25,194,33,173,25,12,24,303,17,1*5F
$GPGSV,4,4,15,05,18,232,15,04,17,054,17,14,08,171,,1*54
$GPGSV,2,1,08,196,70,118,45,195,69,051,44,199,60,167,42,06,49,009,40,8*57
$GPGSV,2,2,08,09,37,081,26,11,35,306,37,194,33,173,32,04,17,054,25,8*5E
$GLGSV,2,1,07,68,69,111,39,83,41,007,31,82,35,067,28,67,33,037,39,1*75
$GLGSV,2,2,07,69,32,185,27,73,17,266,,74,08,309,20,1*4B
$GAGSV,3,1,09,10,50,357,39,12,44,036,23,04,42,143,30,11,39,319,38,7*7D
$GAGSV,3,2,09,24,39,224,24,19,32,067,15,25,29,290,19,09,11,188,,7*7E
$GAGSV,3,3,09,33,09,079,19,7*45
$GAGSV,2,1,06,10,50,357,43,12,44,036,20,04,42,143,36,11,39,319,39,1*7C
$GAGSV,2,2,06,24,39,224,17,25,29,290,19,1*72
$GBGSV,4,1,14,33,76,096,42,40,75,178,37,07,72,224,38,10,69,263,35,1*70
$GBGSV,4,2,14,08,55,289,39,14,52,051,23,28,50,340,45,43,49,085,31,1*7F
$GBGSV,4,3,14,13,47,275,37,41,40,201,43,42,27,041,33,11,25,100,30,1*77
$GBGSV,4,4,14,37,10,256,,23,08,207,,1*7B
$GBGSV,2,1,05,33,76,096,43,40,75,178,42,28,50,340,45,41,40,201,43,4*7E
$GBGSV,2,2,05,42,27,041,23,4*41
$GNGGA,042926.000,2500.7855900,N,12132.4496100,E,2,54,0.50,17.57,M,15.25,M,1,3335*72
$GNRMC,042926.000,A,2500.7855900,N,12132.4496100,E,0.00,62.93,270623,,,D,V*34
$GPHDT,,T*1B
$GNGGA,042926.200,2500.7856000,N,12132.4496100,E,2,54,0.50,17.57,M,15.25,M,1,3335*7A
$GNRMC,042926.200,A,2500.7856000,N,12132.4496100,E,0.00,62.93,270623,,,D,V*3C
$GPHDT,,T*1B
$GNGGA,042926.400,2500.7856100,N,12132.4496000,E,2,54,0.50,17.57,M,15.25,M,1,3335*7C
$GNRMC,042926.400,A,2500.7856100,N,12132.4496000,E,0.00,62.93,270623,,,D,V*3A
$GPHDT,,T*1B
$GNGGA,042926.600,2500.7856200,N,12132.4495900,E,2,54,0.50,17.56,M,15.25,M,0,3335*77
$GNRMC,042926.600,A,2500.7856200,N,12132.4495900,E,0.00,62.93,270623,,,D,V*31
$GPHDT,,T*1B
$GNGGA,042926.800,2500.7856300,N,12132.4495800,E,2,54,0.50,17.56,M,15.25,M,0,3335*79
$GNRMC,042926.800,A,2500.7856300,N,12132.4495800,E,0.00,62.93,270623,,,D,V*3F
$GPHDT,,T*1B
$GNGSA,A,3,19,196,195,199,17,06,20,09,11,194,12,04,1.07,0.50,0.95,1*04
$GNGSA,A,3,68,83,82,67,69,,,,,,,,1.07,0.50,0.95,2*0C
$GNGSA,A,3,10,12,04,24,11,19,25,,,,,,1.07,0.50,0.95,3*03
$GNGSA,A,3,33,40,07,10,08,14,28,43,13,41,42,11,1.07,0.50,0.95,4*08
$GPGSV,4,1,15,19,71,082,32,196,70,118,40,195,69,051,43,199,60,167,32,1*52
$GPGSV,4,2,15,50,60,167,33,17,55,115,43,06,49,009,40,20,43,249,44,1*6D
$GPGSV,4,3,15,09,37,081,14,11,35,306,23,194,33,173,26,12,24,303,17,1*5A
$GPGSV,4,4,15,05,18,232,14,04,17,054,,14,08,171,,1*53
$GPGSV,2,1,08,196,70,118,45,195,69,051,44,199,60,167,42,06,49,009,40,8*57
$GPGSV,2,2,08,09,37,081,26,11,35,306,37,194,33,173,32,04,17,054,27,8*5C
$GLGSV,2,1,08,68,69,111,39,83,41,007,31,82,35,067,27,67,33,037,39,1*75
$GLGSV,2,2,08,69,32,185,29,73,17,266,,74,08,309,20,80,08,214,,1*7D
$GAGSV,3,1,09,10,50,357,39,12,44,036,22,04,42,143,32,24,39,224,22,7*7C
$GAGSV,3,2,09,11,39,319,38,19,32,067,15,25,29,290,19,09,11,188,,7*7A
$GAGSV,3,3,09,33,09,079,19,7*45
$GAGSV,2,1,06,10,50,357,43,12,44,036,19,04,42,143,36,11,39,319,39,1*76
$GAGSV,2,2,06,24,39,224,19,25,29,290,19,1*7C
$GBGSV,4,1,14,33,76,096,42,40,75,178,37,07,72,224,38,10,69,263,35,1*70
$GBGSV,4,2,14,08,55,289,39,14,52,051,24,28,50,340,45,43,49,085,31,1*78
$GBGSV,4,3,14,13,47,275,37,41,40,201,43,42,27,041,34,11,25,100,30,1*70
$GBGSV,4,4,14,37,10,256,,23,08,207,,1*7B
$GBGSV,2,1,05,33,76,096,44,40,75,178,42,28,50,340,45,41,40,201,43,4*79
$GBGSV,2,2,05,42,27,041,21,4*43
$GNGGA,042927.000,2500.7856300,N,12132.4495800,E,2,54,0.50,17.56,M,15.25,M,1,3335*71
$GNRMC,042927.000,A,2500.7856300,N,12132.4495800,E,0.00,62.93,270623,,,D,V*36
$GPHDT,,T*1B
$GNGGA,042927.200,2500.7856500,N,12132.4495700,E,2,54,0.50,17.56,M,15.25,M,1,3335*7A
$GNRMC,042927.200,A,2500.7856500,N,12132.4495700,E,0.00,62.93,270623,,,D,V*3D
$GPHDT,,T*1B
$GNGGA,042927.400,2500.7856500,N,12132.4495600,E,2,53,0.50,17.56,M,15.25,M,1,3335*7A
$GNRMC,042927.400,A,2500.7856500,N,12132.4495600,E,0.00,62.93,270623,,,D,V*3A
$GPHDT,,T*1B
$GNGGA,042927.600,2500.7856600,N,12132.4495500,E,2,53,0.50,17.56,M,15.25,M,0,3335*79
$GNRMC,042927.600,A,2500.7856600,N,12132.4495500,E,0.00,62.93,270623,,,D,V*38
$GPHDT,,T*1B
$GNGGA,042927.800,2500.7856800,N,12132.4495500,E,2,53,0.50,17.56,M,15.25,M,0,3335*79
$GNRMC,042927.800,A,2500.7856800,N,12132.4495500,E,0.00,62.93,270623,,,D,V*38
$GPHDT,,T*1B
$GNGSA,A,3,19,196,195,199,17,06,20,09,11,12,194,04,1.07,0.50,0.95,1*04
$GNGSA,A,3,68,83,82,67,69,,,,,,,,1.07,0.50,0.95,2*0C
$GNGSA,A,3,10,12,04,11,24,19,25,,,,,,1.07,0.50,0.95,3*03
$GNGSA,A,3,33,40,07,10,08,14,28,43,13,41,42,11,1.07,0.50,0.95,4*08
$GPGSV,4,1,15,19,71,082,31,196,70,118,40,195,69,051,43,50,60,167,33,1*64
$GPGSV,4,2,15,199,60,167,31,17,55,115,44,06,49,009,40,20,43,249,44,1*5C
$GPGSV,4,3,15,09,37,081,16,11,35,306,21,194,33,173,22,12,24,303,17,1*5E
$GPGSV,4,4,15,05,18,232,15,04,17,054,,14,08,171,,1*52
$GPGSV,2,1,08,196,70,118,46,195,69,051,44,199,60,167,42,06,49,009,40,8*54
$GPGSV,2,2,08,09,37,081,27,11,35,306,37,194,33,173,32,04,17,054,25,8*5F
$GLGSV,3,1,09,68,69,111,40,83,41,007,31,82,35,067,24,67,33,037,39,1*78
$GLGSV,3,2,09,69,32,185,30,73,17,266,,74,08,309,21,80,08,214,,1*74
$GLGSV,3,3,09,84,07,312,,1*4A
$GAGSV,3,1,10,10,50,357,39,12,44,036,23,04,42,143,23,11,39,319,38,7*77
$GAGSV,3,2,10,24,39,224,21,19,32,067,15,25,29,290,17,09,11,188,,7*7D
$GAGSV,3,3,10,33,09,079,18,36,04,284,,7*73
$GAGSV,2,1,06,10,50,357,43,12,44,036,19,04,42,143,36,11,39,319,39,1*76
$GAGSV,2,2,06,24,39,224,18,25,29,290,19,1*7D
$GBGSV,4,1,14,33,76,096,42,40,75,178,37,07,72,224,38,10,69,263,35,1*70
$GBGSV,4,2,14,08,55,289,39,14,52,051,25,28,50,340,45,43,49,085,31,1*79
$GBGSV,4,3,14,13,47,275,38,41,40,201,43,42,27,041,35,11,25,100,31,1*7F
$GBGSV,4,4,14,37,10,256,,23,08,207,,1*7B
$GBGSV,2,1,05,33,76,096,44,40,75,178,42,28,50,340,45,41,40,201,43,4*79
$GBGSV,2,2,05,42,27,041,23,4*41
$GNGGA,042928.000,2500.7856800,N,12132.4495400,E,2,53,0.50,17.57,M,15.25,M,1,3335*7F
$GNRMC,042928.000,A,2500.7856800,N,12132.4495400,E,0.00,62.93,270623,,,D,V*3E
$GPHDT,,T*1B
$GNGGA,042928.200,2500.7856900,N,12132.4495400,E,2,54,0.50,17.57,M,15.25,M,1,3335*7B
$GNRMC,042928.200,A,2500.7856900,N,12132.4495400,E,0.00,62.93,270623,,,D,V*3D
$GPHDT,,T*1B
$GNGGA,042928.400,2500.7856900,N,12132.4495300,E,2,52,0.51,17.57,M,15.25,M,1,3335*7D
$GNRMC,042928.400,A,2500.7856900,N,12132.4495300,E,0.00,62.93,270623,,,D,V*3C
$GPHDT,,T*1B
$GNGGA,042928.600,2500.7856900,N,12132.4495200,E,2,52,0.51,17.57,M,15.25,M,1,3335*7E
$GNRMC,042928.600,A,2500.7856900,N,12132.4495200,E,0.00,62.93,270623,,,D,V*3F
$GPHDT,,T*1B
$GNGGA,042928.800,2500.7856900,N,12132.4495200,E,2,52,0.51,17.58,M,15.25,M,1,3335*7F
$GNRMC,042928.800,A,2500.7856900,N,12132.4495200,E,0.00,62.93,270623,,,D,V*31
