$FW : RTK35X,V1.1X0314AS,Lib20210517,1*54
$Tool : LOCOSYS , GNSS Firebird , v1.0.0.19*39
$---------------------------------------------------*2D
$GPHDT,,T*1B
$GNGGA,043149.600,2500.7844300,N,12132.4488600,E,2,52,0.55,21.19,M,15.25,M,0,3335*7B
$GNRMC,043149.600,A,2500.7844300,N,12132.4488600,E,0.01,62.93,270623,,,D,V*31
$GPHDT,,T*1B
$GNGGA,043149.800,2500.7844200,N,12132.4488600,E,2,51,0.56,21.19,M,15.25,M,0,3335*74
$GNRMC,043149.800,A,2500.7844200,N,12132.4488600,E,0.01,62.93,270623,,,D,V*3E
$GPHDT,,T*1B
$GNGSA,A,3,19,196,195,199,17,06,20,11,12,04,,,0.91,0.56,0.72,1*30
$GNGSA,A,3,68,83,82,67,,,,,,,,,0.91,0.56,0.72,2*02
$GNGSA,A,3,10,12,04,11,24,19,25,,,,,,0.91,0.56,0.72,3*02
$GNGSA,A,3,33,40,07,10,08,14,28,43,13,41,42,11,0.91,0.56,0.72,4*09
$GPGSV,4,1,15,19,71,086,37,196,70,117,38,195,69,051,43,199,60,167,30,1*51
$GPGSV,4,2,15,50,60,167,32,17,54,117,40,06,49,011,40,20,44,250,45,1*6B
$GPGSV,4,3,15,09,37,079,15,11,36,307,33,194,33,174,22,12,24,301,25,1*5F
$GPGSV,4,4,15,05,19,233,19,04,16,053,27,14,07,171,,1*52
$GPGSV,2,1,06,196,70,117,44,195,69,051,43,199,60,167,38,06,49,011,42,8*56
$GPGSV,2,2,06,11,36,307,32,04,16,053,30,8*6D
$GLGSV,2,1,07,68,70,107,37,83,42,009,30,82,35,068,25,69,34,185,14,1*74
$GLGSV,2,2,07,67,32,036,36,74,08,308,,80,07,213,,1*40
$GAGSV,3,1,10,10,50,359,35,12,44,037,16,04,43,142,36,11,40,320,38,7*72
$GAGSV,3,2,10,24,38,224,21,19,31,066,17,25,29,289,17,09,12,188,,7*77
$GAGSV,3,3,10,33,08,080,22,36,04,284,,7*7D
$GAGSV,2,1,07,10,50,359,44,12,44,037,21,04,43,142,38,11,40,320,41,1*71
$GAGSV,2,2,07,24,38,224,28,25,29,289,20,33,08,080,16,1*4B
$GBGSV,4,1,13,33,76,092,39,40,74,180,41,07,72,223,39,10,69,262,34,1*7E
$GBGSV,4,2,13,08,55,290,39,14,51,050,19,28,50,341,44,43,48,086,32,1*7A
$GBGSV,4,3,13,13,47,275,32,41,41,202,32,42,26,041,37,11,25,101,36,1*73
$GBGSV,4,4,13,37,10,255,,1*43
$GBGSV,2,1,06,33,76,092,42,40,74,180,44,28,50,341,39,43,48,086,14,4*77
$GBGSV,2,2,06,41,41,202,40,42,26,041,30,4*75
$GNGGA,043150.000,2500.7844200,N,12132.4488600,E,2,51,0.56,21.19,M,15.25,M,1,3335*75
$GNRMC,043150.000,A,2500.7844200,N,12132.4488600,E,0.03,62.93,270623,,,D,V*3C
$GPHDT,,T*1B
$GNGGA,043150.200,2500.7844200,N,12132.4488600,E,2,50,0.56,21.19,M,15.25,M,1,3335*76
$GNRMC,043150.200,A,2500.7844200,N,12132.4488600,E,0.02,62.93,270623,,,D,V*3F
$GPHDT,,T*1B
$GNGGA,043150.400,2500.7844200,N,12132.4488600,E,2,50,0.56,21.19,M,15.25,M,1,3335*70
$GNRMC,043150.400,A,2500.7844200,N,12132.4488600,E,0.03,62.93,270623,,,D,V*38
$GPHDT,,T*1B
$GNGGA,043150.600,2500.7844200,N,12132.4488600,E,2,50,0.56,21.19,M,15.25,M,1,3335*72
$GNRMC,043150.600,A,2500.7844200,N,12132.4488600,E,0.06,62.93,270623,,,D,V*3F
$GPHDT,,T*1B
$GNGGA,043150.800,2500.7844200,N,12132.4488600,E,2,50,0.56,21.19,M,15.25,M,0,3335*7D
$GNRMC,043150.800,A,2500.7844200,N,12132.4488600,E,0.07,62.93,270623,,,D,V*30
$GPHDT,,T*1B
$GNGSA,A,3,19,196,195,199,17,06,20,11,12,04,,,0.91,0.56,0.72,1*30
$GNGSA,A,3,68,83,82,67,,,,,,,,,0.91,0.56,0.72,2*02
$GNGSA,A,3,10,12,04,11,24,19,25,,,,,,0.91,0.56,0.72,3*02
$GNGSA,A,3,33,40,07,10,08,14,28,43,13,41,42,11,0.91,0.56,0.72,4*09
$GPGSV,4,1,15,19,71,086,37,196,70,117,38,195,69,051,43,199,60,167,30,1*51
$GPGSV,4,2,15,50,60,167,31,17,54,117,40,06,49,011,40,20,44,250,45,1*68
$GPGSV,4,3,15,09,37,079,18,11,36,307,33,194,33,174,22,12,24,301,25,1*52
$GPGSV,4,4,15,05,19,233,18,04,16,053,26,14,07,171,,1*52
$GPGSV,2,1,06,196,70,117,44,195,69,051,43,199,60,167,38,06,49,011,42,8*56
$GPGSV,2,2,06,11,36,307,32,04,16,053,30,8*6D
$GLGSV,2,1,06,68,70,107,37,83,42,009,30,82,35,068,24,69,34,185,13,1*73
$GLGSV,2,2,06,67,32,036,35,80,07,213,,1*72
$GAGSV,3,1,09,10,50,359,35,12,44,037,16,04,43,142,36,11,40,320,38,7*7A
$GAGSV,3,2,09,24,38,223,22,19,31,066,16,25,29,289,17,33,08,080,22,7*71
$GAGSV,3,3,09,36,04,284,,7*45
$GAGSV,2,1,07,10,50,359,44,12,44,037,22,04,43,142,39,11,40,320,41,1*73
$GAGSV,2,2,07,24,38,223,29,25,29,289,19,33,08,080,15,1*44
$GBGSV,4,1,14,33,76,092,39,40,74,180,41,07,72,223,39,10,69,262,35,1*78
$GBGSV,4,2,14,08,55,290,39,14,51,050,19,28,50,341,44,43,48,086,32,1*7D
$GBGSV,4,3,14,13,47,275,32,41,41,202,34,42,26,041,37,11,25,101,36,1*72
$GBGSV,4,4,14,37,10,255,,23,08,207,,1*78
$GBGSV,2,1,05,33,76,092,42,40,74,180,44,28,50,341,40,41,41,202,40,4*7E
$GBGSV,2,2,05,42,26,041,31,4*43
$GNGGA,043151.000,2500.7844200,N,12132.4488600,E,2,50,0.56,21.20,M,15.25,M,1,3335*7F
$GNRMC,043151.000,A,2500.7844200,N,12132.4488600,E,0.03,62.93,270623,,,D,V*3D
$GPHDT,,T*1B
$GNGGA,043151.200,2500.7844200,N,12132.4488600,E,2,49,0.58,21.20,M,15.25,M,1,3335*7B
$GNRMC,043151.200,A,2500.7844200,N,12132.4488600,E,0.02,62.93,270623,,,D,V*3E
$GPHDT,,T*1B
$GNGGA,043151.400,2500.7844200,N,12132.4488600,E,2,49,0.58,21.20,M,15.25,M,1,3335*7D
$GNRMC,043151.400,A,2500.7844200,N,12132.4488600,E,0.04,62.93,270623,,,D,V*3E
$GPHDT,,T*1B
$GNGGA,043151.600,2500.7844200,N,12132.4488600,E,2,49,0.58,21.20,M,15.25,M,1,3335*7F
$GNRMC,043151.600,A,2500.7844200,N,12132.4488600,E,0.03,62.93,270623,,,D,V*3B
$GPHDT,,T*1B
$GNGGA,043151.800,2500.7844200,N,12132.4488600,E,2,49,0.58,21.20,M,15.25,M,0,3335*70
$GNRMC,043151.800,A,2500.7844200,N,12132.4488600,E,0.03,62.93,270623,,,D,V*35
$GPHDT,,T*1B
$GNGSA,A,3,19,196,195,199,17,06,20,11,12,04,,,0.94,0.58,0.74,1*3D
$GNGSA,A,3,68,83,82,67,,,,,,,,,0.94,0.58,0.74,2*0F
$GNGSA,A,3,10,12,04,11,24,19,25,,,,,,0.94,0.58,0.74,3*0F
$GNGSA,A,3,33,40,07,10,08,14,28,43,13,41,42,,0.94,0.58,0.74,4*04
$GPGSV,4,1,15,19,71,086,36,196,70,117,38,195,69,051,43,199,60,167,30,1*50
$GPGSV,4,2,15,50,60,167,32,17,54,117,41,06,49,011,40,20,44,250,45,1*6A
$GPGSV,4,3,15,09,37,079,18,11,36,307,34,194,33,174,22,12,24,301,23,1*53
$GPGSV,4,4,15,05,19,233,18,04,16,053,26,14,07,171,,1*52
$GPGSV,2,1,06,196,70,117,44,195,69,051,43,199,60,167,37,06,49,011,42,8*59
$GPGSV,2,2,06,11,36,307,33,04,16,053,31,8*6D
$GLGSV,2,1,06,68,70,107,37,83,42,009,30,82,35,068,22,69,34,185,18,1*7E
$GLGSV,2,2,06,67,32,036,35,73,16,265,,1*7F
$GAGSV,3,1,09,10,50,359,35,12,44,037,16,04,43,142,36,11,40,320,38,7*7A
$GAGSV,3,2,09,24,38,223,20,19,31,066,15,25,29,289,17,33,08,080,22,7*70
$GAGSV,3,3,09,36,04,284,,7*45
$GAGSV,2,1,07,10,50,359,44,12,44,037,23,04,43,142,39,11,40,320,41,1*72
$GAGSV,2,2,07,24,38,223,29,25,29,289,20,33,08,080,13,1*48
$GBGSV,4,1,14,33,76,092,39,40,74,180,41,07,72,223,39,10,69,262,35,1*78
$GBGSV,4,2,14,08,55,290,39,14,51,050,21,28,50,341,45,43,48,086,33,1*76
$GBGSV,4,3,14,13,47,275,30,41,41,202,36,42,26,041,37,37,10,255,,1*77
$GBGSV,4,4,14,23,08,207,,34,08,113,,1*73
$GBGSV,2,1,05,33,76,092,42,40,74,180,44,28,50,341,41,41,41,202,40,4*7F
$GBGSV,2,2,05,42,26,041,31,4*43
$GNGGA,043152.000,2500.7844200,N,12132.4488600,E,2,49,0.58,21.20,M,15.25,M,1,3335*7A
$GNRMC,043152.000,A,2500.7844200,N,12132.4488600,E,0.01,62.93,270623,,,D,V*3C
$GPHDT,,T*1B
$GNGGA,043152.200,2500.7844200,N,12132.4488600,E,2,50,0.55,21.20,M,15.25,M,1,3335*7D
$GNRMC,043152.200,A,2500.7844200,N,12132.4488600,E,0.01,62.93,270623,,,D,V*3E
$GPHDT,,T*1B
$GNGGA,043152.400,2500.7844200,N,12132.4488500,E,2,50,0.55,21.20,M,15.25,M,1,3335*78
$GNRMC,043152.400,A,2500.7844200,N,12132.4488500,E,0.02,62.93,270623,,,D,V*38
$GPHDT,,T*1B
$GNGGA,043152.600,2500.7844200,N,12132.4488500,E,2,51,0.52,21.20,M,15.25,M,0,3335*7D
$GNRMC,043152.600,A,2500.7844200,N,12132.4488500,E,0.02,62.93,270623,,,D,V*3A
$GPHDT,,T*1B
$GNGGA,043152.800,2500.7844200,N,12132.4488500,E,2,51,0.52,21.20,M,15.25,M,0,3335*73
$GNRMC,043152.800,A,2500.7844200,N,12132.4488500,E,0.04,62.93,270623,,,D,V*32
$GPHDT,,T*1B
$GNGSA,A,3,19,196,195,199,17,06,20,11,194,12,04,,0.88,0.52,0.71,1*03
$GNGSA,A,3,68,83,82,69,67,,,,,,,,0.88,0.52,0.71,2*02
$GNGSA,A,3,10,12,04,11,24,19,25,,,,,,0.88,0.52,0.71,3*0D
$GNGSA,A,3,33,40,07,10,08,14,28,43,13,41,42,,0.88,0.52,0.71,4*06
$GPGSV,4,1,14,19,71,086,35,196,70,117,38,195,69,051,43,50,60,167,32,1*64
$GPGSV,4,2,14,199,60,167,30,17,54,117,41,06,49,011,41,20,44,250,45,1*5C
$GPGSV,4,3,14,09,37,079,17,11,36,307,34,194,33,174,25,12,24,301,23,1*5A
$GPGSV,4,4,14,05,19,233,16,04,16,053,25,1*6B
$GPGSV,2,1,07,196,70,117,44,195,69,051,43,199,60,167,37,06,49,011,41,8*5B
$GPGSV,2,2,07,09,37,079,26,11,36,307,32,04,16,053,31,8*5A
$GLGSV,2,1,06,68,70,107,38,83,42,009,29,82,35,068,23,69,34,185,20,1*73
$GLGSV,2,2,06,67,32,036,33,73,16,265,,1*79
$GAGSV,3,1,10,10,50,359,35,12,44,037,16,04,43,142,36,11,40,320,38,7*72
$GAGSV,3,2,10,24,38,223,19,19,31,066,17,25,29,289,17,09,12,188,,7*7B
$GAGSV,3,3,10,33,08,080,23,36,04,284,,7*7C
$GAGSV,2,1,07,10,50,359,44,12,44,037,21,04,43,142,39,11,40,320,41,1*70
$GAGSV,2,2,07,24,38,223,29,25,29,289,19,33,08,080,10,1*41
$GBGSV,4,1,15,33,76,092,39,40,74,180,41,07,72,223,39,10,69,262,35,1*79
$GBGSV,4,2,15,08,55,290,39,14,51,050,23,28,50,341,45,43,48,086,34,1*72
$GBGSV,4,3,15,13,47,275,30,41,41,202,36,42,26,041,37,11,25,101,,1*76
$GBGSV,4,4,15,37,10,255,,23,08,207,,34,08,113,,1*45
$GBGSV,2,1,05,33,76,092,42,40,74,180,44,28,50,341,41,41,41,202,40,4*7F
$GBGSV,2,2,05,42,26,041,31,4*43
$GNGGA,043153.000,2500.7844200,N,12132.4488400,E,2,51,0.52,21.20,M,15.25,M,1,3335*7A
$GNRMC,043153.000,A,2500.7844200,N,12132.4488400,E,0.04,62.93,270623,,,D,V*3A
$GPHDT,,T*1B
$GNGGA,043153.200,2500.7844200,N,12132.4488400,E,2,51,0.52,21.20,M,15.25,M,1,3335*78
$GNRMC,043153.200,A,2500.7844200,N,12132.4488400,E,0.02,62.93,270623,,,D,V*3E
$GPHDT,,T*1B
$GNGGA,043153.400,2500.7844200,N,12132.4488300,E,2,53,0.52,21.20,M,15.25,M,1,3335*7B
$GNRMC,043153.400,A,2500.7844200,N,12132.4488300,E,0.04,62.93,270623,,,D,V*39
$GPHDT,,T*1B
$GNGGA,043153.600,2500.7844200,N,12132.4488300,E,2,51,0.54,21.20,M,15.25,M,1,3335*7D
$GNRMC,043153.600,A,2500.7844200,N,12132.4488300,E,0.04,62.93,270623,,,D,V*3B
$GPHDT,,T*1B
$GNGGA,043153.800,2500.7844100,N,12132.4488200,E,2,52,0.52,21.19,M,15.25,M,1,3335*7E
$GNRMC,043153.800,A,2500.7844100,N,12132.4488200,E,0.05,62.93,270623,,,D,V*36
$GPHDT,,T*1B
$GNGSA,A,3,19,196,195,199,17,06,20,11,12,04,09,194,0.87,0.52,0.70,1*04
$GNGSA,A,3,68,83,82,69,67,,,,,,,,0.87,0.52,0.70,2*0C
$GNGSA,A,3,10,12,04,11,24,19,25,,,,,,0.87,0.52,0.70,3*03
$GNGSA,A,3,33,40,07,10,08,14,28,43,13,41,42,,0.87,0.52,0.70,4*08
$GPGSV,4,1,14,19,71,086,35,196,70,117,38,195,69,051,43,50,60,167,33,1*65
$GPGSV,4,2,14,199,60,167,30,17,54,117,41,06,49,011,41,20,44,250,45,1*5C
$GPGSV,4,3,14,09,37,079,17,11,36,307,34,194,33,174,23,12,24,301,24,1*5B
$GPGSV,4,4,14,05,19,233,16,04,16,053,25,1*6B
$GPGSV,2,1,08,196,70,117,44,195,69,051,43,199,60,167,38,06,49,011,41,8*5B
$GPGSV,2,2,08,09,37,079,27,11,36,307,32,194,33,174,29,04,16,053,29,8*58
$GLGSV,2,1,08,68,70,107,38,83,42,009,30,82,35,068,21,69,34,185,20,1*77
$GLGSV,2,2,08,67,32,036,32,73,16,265,,74,08,308,,80,07,213,,1*79
$GAGSV,3,1,09,10,50,359,35,12,44,037,16,04,43,142,36,11,40,320,38,7*7A
$GAGSV,3,2,09,24,38,223,19,19,31,066,17,25,29,289,17,09,12,188,,7*73
$GAGSV,3,3,09,33,08,080,23,7*4B
$GAGSV,2,1,06,10,50,359,44,12,44,037,19,04,43,142,39,11,40,320,41,1*7A
$GAGSV,2,2,06,24,38,223,29,25,29,289,19,1*71
$GBGSV,4,1,15,33,76,092,39,40,74,180,41,07,72,223,39,10,69,262,35,1*79
$GBGSV,4,2,15,08,55,290,39,14,51,050,23,28,50,341,46,43,48,086,34,1*71
$GBGSV,4,3,15,13,47,275,30,41,41,202,37,42,26,041,38,11,25,101,,1*78
$GBGSV,4,4,15,37,10,255,,34,08,113,,23,08,207,,1*45
$GBGSV,2,1,05,33,76,092,42,40,74,180,44,28,50,341,41,41,41,202,41,4*7E
$GBGSV,2,2,05,42,26,041,31,4*43
$GNGGA,043154.000,2500.7844100,N,12132.4488100,E,2,52,0.52,21.19,M,15.25,M,2,3335*71
$GNRMC,043154.000,A,2500.7844100,N,12132.4488100,E,0.04,62.93,270623,,,D,V*3B
$GPHDT,,T*1B
$GNGGA,043154.200,2500.7844000,N,12132.4488000,E,2,53,0.52,21.19,M,15.25,M,1,3335*71
$GNRMC,043154.200,A,2500.7844000,N,12132.4488000,E,0.04,62.93,270623,,,D,V*39
$GPHDT,,T*1B
$GNGGA,043154.400,2500.7844000,N,12132.4488000,E,2,53,0.52,21.19,M,15.25,M,1,3335*77
$GNRMC,043154.400,A,2500.7844000,N,12132.4488000,E,0.03,62.93,270623,,,D,V*38
$GPHDT,,T*1B
$GNGGA,043154.600,2500.7844000,N,12132.4487900,E,2,53,0.52,21.19,M,15.25,M,0,3335*72
$GNRMC,043154.600,A,2500.7844000,N,12132.4487900,E,0.02,62.93,270623,,,D,V*3D
$GPHDT,,T*1B
$GNGGA,043154.800,2500.7843900,N,12132.4487900,E,2,53,0.52,21.18,M,15.25,M,0,3335*73
$GNRMC,043154.800,A,2500.7843900,N,12132.4487900,E,0.03,62.93,270623,,,D,V*3C
$GPHDT,,T*1B
$GNGSA,A,3,19,196,195,199,17,06,20,11,194,12,04,09,0.87,0.52,0.70,1*04
$GNGSA,A,3,68,83,82,69,67,,,,,,,,0.87,0.52,0.70,2*0C
$GNGSA,A,3,10,12,04,11,24,19,25,,,,,,0.87,0.52,0.70,3*03
$GNGSA,A,3,33,40,07,10,08,14,28,43,13,41,42,,0.87,0.52,0.70,4*08
$GPGSV,4,1,14,19,71,086,35,196,70,117,38,195,69,051,43,50,60,167,31,1*67
$GPGSV,4,2,14,199,60,167,30,17,54,117,41,06,49,011,41,20,44,250,45,1*5C
$GPGSV,4,3,14,09,37,079,,11,36,307,34,194,33,174,27,12,24,301,22,1*5F
$GPGSV,4,4,14,05,19,233,16,04,16,053,24,1*6A
$GPGSV,2,1,08,196,70,117,44,195,69,051,43,199,60,167,38,06,49,011,41,8*5B
$GPGSV,2,2,08,09,37,079,26,11,36,307,32,194,33,174,29,04,16,053,30,8*51
$GLGSV,3,1,09,68,70,106,38,83,42,009,30,82,35,068,18,69,34,185,21,1*7D
$GLGSV,3,2,09,67,32,036,32,73,16,265,,74,08,308,,84,07,313,,1*7C
$GLGSV,3,3,09,80,07,213,,1*4E
$GAGSV,3,1,09,10,50,359,35,12,44,037,17,04,43,142,36,11,40,320,38,7*7B
$GAGSV,3,2,09,24,38,223,17,19,31,066,17,25,29,289,17,09,12,188,,7*7D
$GAGSV,3,3,09,33,08,080,22,7*4A
$GAGSV,2,1,06,10,50,359,44,12,44,037,21,04,43,142,39,11,40,320,41,1*71
$GAGSV,2,2,06,24,38,223,29,25,29,289,19,1*71
$GBGSV,4,1,16,33,76,092,39,40,74,180,41,07,72,223,39,10,69,262,36,1*79
$GBGSV,4,2,16,08,55,290,39,14,51,050,23,28,50,341,46,43,48,086,34,1*72
$GBGSV,4,3,16,13,47,275,31,41,41,202,37,42,26,041,38,11,25,101,,1*7A
$GBGSV,4,4,16,37,10,255,,23,08,207,,34,08,113,,39,06,174,,1*78
$GBGSV,2,1,05,33,76,092,42,40,74,180,44,28,50,341,40,41,41,202,41,4*7F
$GBGSV,2,2,05,42,26,041,31,4*43
$GNGGA,043155.000,2500.7844000,N,12132.4487900,E,2,53,0.52,21.19,M,15.25,M,1,3335*74
$GNRMC,043155.000,A,2500.7844000,N,12132.4487900,E,0.02,62.93,270623,,,D,V*3A
$GPHDT,,T*1B
$GNGGA,043155.200,2500.7843900,N,12132.4487900,E,2,53,0.52,21.19,M,15.25,M,1,3335*78
$GNRMC,043155.200,A,2500.7843900,N,12132.4487900,E,0.03,62.93,270623,,,D,V*37
$GPHDT,,T*1B
$GNGGA,043155.400,2500.7844000,N,12132.4487900,E,2,53,0.52,21.19,M,15.25,M,1,3335*70
$GNRMC,043155.400,A,2500.7844000,N,12132.4487900,E,0.05,62.93,270623,,,D,V*39
$GPHDT,,T*1B
$GNGGA,043155.600,2500.7844000,N,12132.4487900,E,2,52,0.52,21.19,M,15.25,M,1,3335*73
$GNRMC,043155.600,A,2500.7844000,N,12132.4487900,E,0.06,62.93,270623,,,D,V*38
$GPHDT,,T*1B
$GNGGA,043155.800,2500.7844000,N,12132.4487900,E,2,52,0.52,21.20,M,15.25,M,0,3335*76
$GNRMC,043155.800,A,2500.7844000,N,12132.4487900,E,0.06,62.93,270623,,,D,V*36
$GPHDT,,T*1B
$GNGSA,A,3,19,196,195,199,17,06,20,11,194,12,04,09,0.87,0.52,0.70,1*04
$GNGSA,A,3,68,83,82,69,67,,,,,,,,0.87,0.52,0.70,2*0C
$GNGSA,A,3,10,12,04,11,24,19,25,,,,,,0.87,0.52,0.70,3*03
$GNGSA,A,3,33,40,07,10,08,14,28,43,13,41,42,,0.87,0.52,0.70,4*08
$GPGSV,4,1,14,19,71,086,35,196,70,117,38,195,69,051,43,50,60,167,31,1*67
$GPGSV,4,2,14,199,60,167,30,17,54,117,41,06,49,011,41,20,44,250,45,1*5C
$GPGSV,4,3,14,09,37,079,,11,36,307,34,194,33,174,29,12,24,301,21,1*52
$GPGSV,4,4,14,05,19,233,15,04,16,053,24,1*69
$GPGSV,2,1,07,196,70,117,44,195,69,051,43,199,60,167,39,06,49,011,41,8*55
$GPGSV,2,2,07,09,37,079,25,11,36,307,32,194,33,174,26,8*64
$GLGSV,3,1,09,68,70,106,38,83,42,009,30,82,35,068,17,69,34,185,24,1*77
$GLGSV,3,2,09,67,32,036,30,73,16,265,,74,08,307,,84,07,313,,1*71
$GLGSV,3,3,09,80,07,213,,1*4E
$GAGSV,3,1,10,10,50,359,35,12,44,037,16,04,43,142,36,11,40,320,37,7*7D
$GAGSV,3,2,10,24,38,223,18,19,31,066,16,25,29,289,17,09,12,188,,7*7B
$GAGSV,3,3,10,33,08,080,22,36,05,285,,7*7D
$GAGSV,2,1,06,10,50,359,43,12,44,037,21,04,43,142,39,11,40,320,41,1*76
$GAGSV,2,2,06,24,38,223,29,25,29,289,20,1*7B
$GBGSV,4,1,15,33,76,092,39,40,74,180,41,07,72,223,39,10,69,262,35,1*79
$GBGSV,4,2,15,08,55,290,39,14,51,050,21,28,50,341,44,43,48,086,34,1*71
$GBGSV,4,3,15,13,47,275,33,41,41,202,37,42,26,041,38,11,25,101,33,1*7B
$GBGSV,4,4,15,37,10,255,,23,08,207,,34,08,113,,1*45
$GBGSV,2,1,05,33,76,092,42,40,74,180,44,28,50,341,40,41,41,202,41,4*7F
$GBGSV,2,2,05,42,26,041,31,4*43
$GNGGA,043156.000,2500.7844000,N,12132.4487900,E,2,52,0.52,21.20,M,15.25,M,1,3335*7C
$GNRMC,043156.000,A,2500.7844000,N,12132.4487900,E,0.10,62.93,270623,,,D,V*3A
$GPHDT,,T*1B
$GNGGA,043156.200,2500.7844000,N,12132.4487900,E,2,53,0.50,21.21,M,15.25,M,1,3335*7C
$GNRMC,043156.200,A,2500.7844000,N,12132.4487900,E,0.06,62.93,270623,,,D,V*3F
$GPHDT,,T*1B
$GNGGA,043156.400,2500.7844000,N,12132.4487800,E,2,52,0.52,21.21,M,15.25,M,1,3335*78
$GNRMC,043156.400,A,2500.7844000,N,12132.4487800,E,0.06,62.93,270623,,,D,V*38
$GPHDT,,T*1B
$GNGGA,043156.600,2500.7844000,N,12132.4487900,E,2,52,0.52,21.22,M,15.25,M,0,3335*79
$GNRMC,043156.600,A,2500.7844000,N,12132.4487900,E,0.04,62.93,270623,,,D,V*39
$GPHDT,,T*1B
$GNGGA,043156.800,2500.7844000,N,12132.4487800,E,2,51,0.52,21.22,M,15.25,M,0,3335*75
$GNRMC,043156.800,A,2500.7844000,N,12132.4487800,E,0.03,62.93,270623,,,D,V*31
$GPHDT,,T*1B
$GNGSA,A,3,19,196,195,199,17,06,20,11,194,12,04,09,1.12,0.52,0.99,1*0E
$GNGSA,A,3,68,83,82,69,67,,,,,,,,1.12,0.52,0.99,2*06
$GNGSA,A,3,10,12,04,11,24,19,25,,,,,,1.12,0.52,0.99,3*09
$GNGSA,A,3,33,40,07,10,08,14,28,43,13,41,42,,1.12,0.52,0.99,4*02
$GPGSV,4,1,14,19,71,086,35,196,70,117,38,195,69,051,43,50,60,167,31,1*67
$GPGSV,4,2,14,199,60,167,30,17,54,117,41,06,49,011,40,20,44,250,45,1*5D
$GPGSV,4,3,14,09,37,079,,11,36,307,34,194,33,174,26,12,24,301,22,1*5E
$GPGSV,4,4,14,05,19,233,16,04,16,053,24,1*6A
$GPGSV,2,1,08,196,70,117,44,195,69,051,43,199,60,167,39,06,49,011,41,8*5A
$GPGSV,2,2,08,09,37,079,26,11,36,307,32,194,33,174,30,04,16,053,31,8*58
$GLGSV,2,1,07,68,70,106,38,83,42,009,30,82,35,068,15,69,34,185,25,1*7B
$GLGSV,2,2,07,67,32,036,27,74,08,307,,80,07,213,,1*4F
$GAGSV,3,1,10,10,50,359,35,12,44,037,16,04,43,142,36,11,40,320,37,7*7D
$GAGSV,3,2,10,24,38,223,18,19,31,066,15,25,29,289,17,09,12,188,,7*78
$GAGSV,3,3,10,33,08,080,22,36,05,285,,7*7D
$GAGSV,2,1,06,10,50,359,43,12,44,037,22,04,43,142,39,11,40,320,41,1*75
$GAGSV,2,2,06,24,38,223,29,25,29,289,20,1*7B
$GBGSV,4,1,15,33,76,092,39,40,74,180,41,07,72,223,39,10,69,262,34,1*78
$GBGSV,4,2,15,08,55,290,39,14,51,050,23,28,50,341,44,43,48,086,34,1*73
$GBGSV,4,3,15,13,47,275,33,41,41,202,37,42,26,041,38,11,25,101,,1*7B
$GBGSV,4,4,15,37,10,255,,34,08,113,,23,08,207,,1*45
$GBGSV,2,1,05,33,76,092,42,40,74,180,44,28,50,341,40,41,41,202,41,4*7F
$GBGSV,2,2,05,42,26,041,31,4*43
$GNGGA,043157.000,2500.7844000,N,12132.4487800,E,2,53,0.52,21.22,M,15.25,M,1,3335*7F
$GNRMC,043157.000,A,2500.7844000,N,12132.4487800,E,0.00,62.93,270623,,,D,V*3B
$GPHDT,,T*1B
$GNGGA,043157.200,2500.7844000,N,12132.4487800,E,2,51,0.52,21.22,M,15.25,M,1,3335*7F
$GNRMC,043157.200,A,2500.7844000,N,12132.4487800,E,0.01,62.93,270623,,,D,V*38
$GPHDT,,T*1B
$GNGGA,043157.400,2500.7844000,N,12132.4487700,E,2,52,0.50,21.22,M,15.25,M,1,3335*77
$GNRMC,043157.400,A,2500.7844000,N,12132.4487700,E,0.00,62.93,270623,,,D,V*30
$GPHDT,,T*1B
$GNGGA,043157.600,2500.7844000,N,12132.4487700,E,2,50,0.52,21.22,M,15.25,M,0,3335*74
$GNRMC,043157.600,A,2500.7844000,N,12132.4487700,E,0.01,62.93,270623,,,D,V*33
$GPHDT,,T*1B
$GNGGA,043157.800,2500.7843900,N,12132.4487700,E,2,50,0.52,21.22,M,15.25,M,0,3335*74
$GNRMC,043157.800,A,2500.7843900,N,12132.4487700,E,0.01,62.93,270623,,,D,V*33
$GPHDT,,T*1B
$GNGSA,A,3,19,196,195,199,17,06,20,11,12,04,09,194,1.13,0.52,1.00,1*0E
$GNGSA,A,3,68,83,69,67,,,,,,,,,1.13,0.52,1.00,2*0C
$GNGSA,A,3,10,12,04,11,24,19,25,,,,,,1.13,0.52,1.00,3*09
$GNGSA,A,3,33,40,07,10,08,14,28,43,13,41,42,,1.13,0.52,1.00,4*02
$GPGSV,4,1,14,19,71,086,34,196,70,117,38,195,69,051,43,50,60,167,31,1*66
$GPGSV,4,2,14,199,60,167,29,17,54,117,41,06,49,011,40,20,44,250,45,1*55
$GPGSV,4,3,14,09,37,079,,11,36,307,34,194,33,174,22,12,24,301,23,1*5B
$GPGSV,4,4,14,05,19,233,16,04,16,053,23,1*6D
$GPGSV,2,1,07,196,70,117,44,195,69,051,43,199,60,167,39,06,49,011,41,8*55
$GPGSV,2,2,07,09,37,079,25,11,36,307,32,194,33,174,28,8*6A
$GLGSV,2,1,07,68,70,106,37,83,42,009,30,82,35,068,12,69,34,185,25,1*73
$GLGSV,2,2,07,67,32,036,22,74,08,307,,80,07,213,,1*4A
$GAGSV,3,1,09,10,50,359,36,12,44,037,17,04,43,142,36,11,40,320,37,7*77
$GAGSV,3,2,09,24,38,223,18,19,31,066,15,25,29,289,15,33,08,080,21,7*7A
$GAGSV,3,3,09,36,05,285,,7*45
$GAGSV,2,1,06,10,50,359,43,12,44,037,22,04,43,142,38,11,40,320,41,1*74
$GAGSV,2,2,06,24,38,223,29,25,29,289,21,1*7A
$GBGSV,4,1,15,33,76,092,38,40,74,180,41,07,72,223,39,10,69,262,34,1*79
$GBGSV,4,2,15,08,55,290,39,14,51,050,24,28,50,341,44,43,48,086,34,1*74
$GBGSV,4,3,15,13,47,275,31,41,41,202,37,42,26,041,39,11,25,101,,1*78
$GBGSV,4,4,15,37,10,255,,23,08,207,,34,08,113,,1*45
$GBGSV,2,1,05,33,76,092,42,40,74,180,45,28,50,341,39,41,41,202,41,4*70
$GBGSV,2,2,05,42,26,041,30,4*42
$GNGGA,043158.000,2500.7843900,N,12132.4487600,E,2,50,0.52,21.22,M,15.25,M,1,3335*73
$GNRMC,043158.000,A,2500.7843900,N,12132.4487600,E,0.01,62.93,270623,,,D,V*35
$GPHDT,,T*1B
$GNGGA,043158.200,2500.7843900,N,12132.4487600,E,2,50,0.52,21.22,M,15.25,M,1,3335*71
$GNRMC,043158.200,A,2500.7843900,N,12132.4487600,E,0.01,62.93,270623,,,D,V*37
$GPHDT,,T*1B
$GNGGA,043158.400,2500.7843900,N,12132.4487600,E,2,50,0.52,21.22,M,15.25,M,1,3335*77
$GNRMC,043158.400,A,2500.7843900,N,12132.4487600,E,0.00,62.93,270623,,,D,V*30
$GPHDT,,T*1B
$GNGGA,043158.600,2500.7843900,N,12132.4487500,E,2,50,0.52,21.22,M,15.25,M,0,3335*77
$GNRMC,043158.600,A,2500.7843900,N,12132.4487500,E,0.00,62.93,270623,,,D,V*31
$GPHDT,,T*1B
$GNGGA,043158.800,2500.7843900,N,12132.4487400,E,2,49,0.53,21.22,M,15.25,M,0,3335*71
$GNRMC,043158.800,A,2500.7843900,N,12132.4487400,E,0.01,62.93,270623,,,D,V*3F
$GPHDT,,T*1B
$GNGSA,A,3,19,196,195,199,17,06,20,11,12,09,194,,1.22,0.53,1.10,1*08
$GNGSA,A,3,68,83,69,67,,,,,,,,,1.22,0.53,1.10,2*0E
$GNGSA,A,3,10,12,04,11,24,19,25,,,,,,1.22,0.53,1.10,3*0B
$GNGSA,A,3,33,40,07,10,08,14,28,43,13,41,42,,1.22,0.53,1.10,4*00
$GPGSV,4,1,13,19,71,086,34,196,70,117,39,195,69,051,43,50,60,167,31,1*60
$GPGSV,4,2,13,199,60,167,29,17,54,117,41,06,49,011,40,20,44,250,45,1*52
$GPGSV,4,3,13,11,36,307,35,194,33,174,22,12,24,301,23,05,19,233,16,1*56
$GPGSV,4,4,13,04,16,053,24,1*55
$GPGSV,2,1,07,196,70,117,44,195,69,051,43,199,60,167,39,06,49,011,41,8*55
$GPGSV,2,2,07,09,37,079,26,11,36,307,33,194,33,174,26,8*66
$GLGSV,2,1,07,68,70,106,37,83,42,009,30,82,35,068,17,69,34,185,25,1*76
$GLGSV,2,2,07,67,32,036,18,74,08,307,,80,07,213,,1*43
$GAGSV,3,1,09,10,50,359,36,12,44,037,17,04,43,142,36,11,40,320,37,7*77
$GAGSV,3,2,09,24,38,223,18,19,31,066,15,25,29,289,16,33,08,080,21,7*79
$GAGSV,3,3,09,36,05,285,,7*45
$GAGSV,2,1,06,10,50,359,43,12,44,037,21,04,43,142,38,11,40,320,41,1*77
$GAGSV,2,2,06,24,38,223,29,25,29,289,21,1*7A
$GBGSV,4,1,15,33,76,092,38,40,74,180,41,07,72,223,39,10,69,262,34,1*79
$GBGSV,4,2,15,08,55,290,39,14,51,050,24,28,50,341,44,43,48,086,34,1*74
$GBGSV,4,3,15,13,47,275,31,41,41,202,38,42,26,041,39,11,25,101,,1*77
$GBGSV,4,4,15,37,10,255,,23,08,207,,34,08,113,,1*45
$GBGSV,2,1,05,33,76,092,43,40,74,180,45,28,50,341,40,41,41,202,42,4*7C
$GBGSV,2,2,05,42,26,041,30,4*42
$GNGGA,043159.000,2500.7843900,N,12132.4487300,E,2,49,0.53,21.22,M,15.25,M,1,3335*7E
$GNRMC,043159.000,A,2500.7843900,N,12132.4487300,E,0.01,62.93,270623,,,D,V*31
$GPHDT,,T*1B
$GNGGA,043159.200,2500.7843900,N,12132.4487200,E,2,49,0.53,21.22,M,15.25,M,1,3335*7D
$GNRMC,043159.200,A,2500.7843900,N,12132.4487200,E,0.01,62.93,270623,,,D,V*32
$GPHDT,,T*1B
$GNGGA,043159.400,2500.7844000,N,12132.4487100,E,2,50,0.52,21.22,M,15.25,M,1,3335*7F
$GNRMC,043159.400,A,2500.7844000,N,12132.4487100,E,0.01,62.93,270623,,,D,V*39
$GPHDT,,T*1B
$GNGGA,043159.600,2500.7844000,N,12132.4487000,E,2,50,0.52,21.22,M,15.25,M,0,3335*7D
$GNRMC,043159.600,A,2500.7844000,N,12132.4487000,E,0.01,62.93,270623,,,D,V*3A
$GPHDT,,T*1B
$GNGGA,043159.800,2500.7844000,N,12132.4487000,E,2,52,0.52,21.23,M,15.25,M,0,3335*70
$GNRMC,043159.800,A,2500.7844000,N,12132.4487000,E,0.00,62.93,270623,,,D,V*35
$GPHDT,,T*1B
$GNGSA,A,3,19,196,195,199,17,06,20,09,11,12,04,194,1.13,0.52,1.00,1*0E
$GNGSA,A,3,68,83,69,67,,,,,,,,,1.13,0.52,1.00,2*0C
$GNGSA,A,3,10,12,04,11,24,19,25,,,,,,1.13,0.52,1.00,3*09
$GNGSA,A,3,33,40,07,10,08,14,28,43,13,41,42,,1.13,0.52,1.00,4*02
$GPGSV,4,1,14,19,71,086,34,196,70,117,39,195,69,051,44,50,60,167,30,1*61
$GPGSV,4,2,14,199,60,167,29,17,54,117,41,06,49,011,40,20,44,250,45,1*55
$GPGSV,4,3,14,09,37,079,28,11,36,307,35,194,33,174,22,12,24,301,23,1*50
$GPGSV,4,4,14,05,19,233,16,04,16,053,21,1*6F
$GPGSV,2,1,08,196,70,117,45,195,69,051,44,199,60,167,40,06,49,011,41,8*52
$GPGSV,2,2,08,09,37,079,26,11,36,307,34,194,33,174,23,04,16,053,32,8*5F
$GLGSV,2,1,06,68,70,106,37,83,42,009,30,82,35,068,18,69,34,185,25,1*78
$GLGSV,2,2,06,67,32,036,17,80,07,213,,1*72
$GAGSV,3,1,09,10,50,359,36,12,44,037,17,04,43,142,36,11,40,320,37,7*77
$GAGSV,3,2,09,24,38,223,20,19,31,066,16,25,29,289,17,33,08,080,21,7*70
$GAGSV,3,3,09,36,05,285,,7*45
$GAGSV,2,1,06,10,50,359,43,12,44,037,22,04,43,142,38,11,40,320,42,1*77
$GAGSV,2,2,06,24,38,223,29,25,29,289,21,1*7A
$GBGSV,4,1,15,33,76,092,38,40,74,180,41,07,72,223,39,10,69,262,34,1*79
$GBGSV,4,2,15,08,55,290,39,14,51,050,24,28,50,341,43,43,48,086,34,1*73
$GBGSV,4,3,15,13,47,275,32,41,41,202,38,42,26,041,39,11,25,101,,1*74
$GBGSV,4,4,15,37,10,255,,34,08,113,,23,08,207,,1*45
$GBGSV,2,1,05,33,76,092,43,40,74,180,45,28,50,341,41,41,41,202,42,4*7D
$GBGSV,2,2,05,42,26,041,30,4*42
$GNGGA,043200.000,2500.7844000,N,12132.4486800,E,2,52,0.52,21.23,M,15.25,M,1,3335*7F
$GNRMC,043200.000,A,2500.7844000,N,12132.4486800,E,0.01,62.93,270623,,,D,V*3A
$GPHDT,,T*1B
$GNGGA,043200.200,2500.7844000,N,12132.4486800,E,2,54,0.52,21.22,M,15.25,M,1,3335*7A
$GNRMC,043200.200,A,2500.7844000,N,12132.4486800,E,0.00,62.93,270623,,,D,V*39
$GPHDT,,T*1B
$GNGGA,043200.400,2500.7844000,N,12132.4486700,E,2,54,0.52,21.23,M,15.25,M,1,3335*72
$GNRMC,043200.400,A,2500.7844000,N,12132.4486700,E,0.00,62.93,270623,,,D,V*30
$GPHDT,,T*1B
