$FW : RTK35X,V1.1X0314AS,Lib20210517,1*54
$Tool : LOCOSYS , GNSS Firebird , v1.0.0.19*39
$---------------------------------------------------*2D
$GPHDT,,T*1B
$GNGGA,043059.400,2500.7852100,N,12132.4484700,E,2,53,0.52,20.89,M,15.25,M,1,3335*7E
$GNRMC,043059.400,A,2500.7852100,N,12132.4484700,E,0.01,62.93,270623,,,D,V*3B
$GPHDT,,T*1B
$GNGGA,043059.600,2500.7852100,N,12132.4484700,E,2,52,0.51,20.89,M,15.25,M,1,3335*7E
$GNRMC,043059.600,A,2500.7852100,N,12132.4484700,E,0.02,62.93,270623,,,D,V*3A
$GPHDT,,T*1B
$GNGGA,043059.800,2500.7852100,N,12132.4484700,E,2,53,0.52,20.90,M,15.25,M,0,3335*7B
$GNRMC,043059.800,A,2500.7852100,N,12132.4484700,E,0.02,62.93,270623,,,D,V*34
$GPHDT,,T*1B
$GNGSA,A,3,19,196,195,199,17,06,20,09,11,194,12,04,0.87,0.51,0.70,1*07
$GNGSA,A,3,68,83,82,69,67,,,,,,,,0.87,0.51,0.70,2*0F
$GNGSA,A,3,10,12,04,11,24,19,25,,,,,,0.87,0.51,0.70,3*00
$GNGSA,A,3,33,40,07,10,08,14,28,43,13,41,42,,0.87,0.51,0.70,4*0B
$GPGSV,4,1,15,19,71,085,37,196,70,117,41,195,69,051,39,50,60,167,28,1*6C
$GPGSV,4,2,15,199,60,167,25,17,54,117,45,06,49,011,38,20,43,250,40,1*51
$GPGSV,4,3,15,09,37,080,23,11,36,307,26,194,33,173,29,12,24,302,23,1*51
$GPGSV,4,4,15,05,19,232,21,04,17,053,29,14,08,171,,1*58
$GPGSV,2,1,07,196,70,117,46,195,69,051,42,199,60,167,44,06,49,011,43,8*5E
$GPGSV,2,2,07,11,36,307,32,194,33,173,26,04,17,053,24,8*65
$GLGSV,2,1,07,68,70,108,40,83,41,008,26,82,35,068,20,69,33,185,24,1*7F
$GLGSV,2,2,07,67,32,036,36,73,16,265,,80,07,213,,1*42
$GAGSV,3,1,09,10,50,358,38,12,44,037,16,04,43,142,36,11,40,319,35,7*71
$GAGSV,3,2,09,24,38,224,14,19,31,066,20,25,29,290,22,09,12,188,,7*73
$GAGSV,3,3,09,33,08,079,,7*4C
$GAGSV,2,1,05,10,50,358,43,12,44,037,25,04,43,142,41,11,40,319,31,1*72
$GAGSV,2,2,05,25,29,290,20,1*45
$GBGSV,4,1,14,33,76,093,41,40,75,179,39,07,72,223,38,10,69,262,36,1*7C
$GBGSV,4,2,14,08,55,290,36,14,51,050,20,28,50,341,43,43,49,086,35,1*79
$GBGSV,4,3,14,13,47,275,34,41,41,201,45,42,26,041,30,11,25,101,,1*73
$GBGSV,4,4,14,37,10,256,,23,08,207,,1*7B
$GBGSV,2,1,06,33,76,093,44,40,75,179,46,28,50,341,43,43,49,086,26,4*78
$GBGSV,2,2,06,41,41,201,45,42,26,041,29,4*7B
$GNGGA,043100.000,2500.7852100,N,12132.4484700,E,2,53,0.51,20.90,M,15.25,M,1,3335*7C
$GNRMC,043100.000,A,2500.7852100,N,12132.4484700,E,0.01,62.93,270623,,,D,V*32
$GPHDT,,T*1B
$GNGGA,043100.200,2500.7852100,N,12132.4484700,E,2,53,0.52,20.90,M,15.25,M,1,3335*7D
$GNRMC,043100.200,A,2500.7852100,N,12132.4484700,E,0.01,62.93,270623,,,D,V*30
$GPHDT,,T*1B
$GNGGA,043100.400,2500.7852100,N,12132.4484700,E,2,53,0.51,20.90,M,15.25,M,1,3335*78
$GNRMC,043100.400,A,2500.7852100,N,12132.4484700,E,0.01,62.93,270623,,,D,V*36
$GPHDT,,T*1B
$GNGGA,043100.600,2500.7852100,N,12132.4484700,E,2,53,0.52,20.90,M,15.25,M,0,3335*78
$GNRMC,043100.600,A,2500.7852100,N,12132.4484700,E,0.00,62.93,270623,,,D,V*35
$GPHDT,,T*1B
$GNGGA,043100.800,2500.7852100,N,12132.4484800,E,2,53,0.52,20.90,M,15.25,M,0,3335*79
$GNRMC,043100.800,A,2500.7852100,N,12132.4484800,E,0.01,62.93,270623,,,D,V*35
$GPHDT,,T*1B
$GNGSA,A,3,19,196,195,199,17,06,20,09,11,194,12,04,0.87,0.52,0.70,1*04
$GNGSA,A,3,68,83,82,69,67,,,,,,,,0.87,0.52,0.70,2*0C
$GNGSA,A,3,10,12,04,11,24,19,25,,,,,,0.87,0.52,0.70,3*03
$GNGSA,A,3,33,40,07,10,08,14,28,43,13,41,42,,0.87,0.52,0.70,4*08
$GPGSV,4,1,15,19,71,085,37,196,70,117,41,195,69,051,39,50,60,167,28,1*6C
$GPGSV,4,2,15,199,60,167,26,17,54,117,45,06,49,011,38,20,43,250,40,1*52
$GPGSV,4,3,15,09,37,080,21,11,36,307,26,194,33,173,31,12,24,302,24,1*5D
$GPGSV,4,4,15,05,19,232,21,04,17,053,28,14,08,171,,1*59
$GPGSV,2,1,07,196,70,117,46,195,69,051,42,199,60,167,44,06,49,011,43,8*5E
$GPGSV,2,2,07,11,36,307,33,194,33,173,24,04,17,053,24,8*66
$GLGSV,2,1,07,68,70,108,40,83,41,008,26,82,35,068,20,69,33,185,24,1*7F
$GLGSV,2,2,07,67,32,036,36,73,16,265,,80,07,213,,1*42
$GAGSV,3,1,09,10,50,358,37,12,44,037,18,04,43,142,36,11,40,319,36,7*73
$GAGSV,3,2,09,24,38,224,15,19,31,066,18,25,29,290,21,09,12,188,,7*7A
$GAGSV,3,3,09,33,08,079,,7*4C
$GAGSV,2,1,05,10,50,358,43,12,44,037,25,04,43,142,41,11,40,319,33,1*70
$GAGSV,2,2,05,25,29,290,19,1*4F
$GBGSV,4,1,14,33,76,093,41,40,75,179,38,07,72,223,38,10,69,262,36,1*7D
$GBGSV,4,2,14,08,55,290,36,14,51,050,23,28,50,341,43,43,49,086,35,1*7A
$GBGSV,4,3,14,13,47,275,34,41,41,201,45,42,26,041,29,11,25,101,,1*7B
$GBGSV,4,4,14,37,10,255,,23,08,207,,1*78
$GBGSV,2,1,06,33,76,093,44,40,75,179,46,28,50,341,43,43,49,086,27,4*79
$GBGSV,2,2,06,41,41,201,45,42,26,041,27,4*75
$GNGGA,043101.000,2500.7852100,N,12132.4484800,E,2,53,0.52,20.90,M,15.25,M,1,3335*71
$GNRMC,043101.000,A,2500.7852100,N,12132.4484800,E,0.01,62.93,270623,,,D,V*3C
$GPHDT,,T*1B
$GNGGA,043101.200,2500.7852000,N,12132.4484800,E,2,54,0.52,20.90,M,15.25,M,1,3335*75
$GNRMC,043101.200,A,2500.7852000,N,12132.4484800,E,0.01,62.93,270623,,,D,V*3F
$GPHDT,,T*1B
$GNGGA,043101.400,2500.7852000,N,12132.4484800,E,2,54,0.52,20.90,M,15.25,M,1,3335*73
$GNRMC,043101.400,A,2500.7852000,N,12132.4484800,E,0.01,62.93,270623,,,D,V*39
$GPHDT,,T*1B
$GNGGA,043101.600,2500.7852000,N,12132.4484900,E,2,54,0.52,20.90,M,15.25,M,0,3335*71
$GNRMC,043101.600,A,2500.7852000,N,12132.4484900,E,0.01,62.93,270623,,,D,V*3A
$GPHDT,,T*1B
$GNGGA,043101.800,2500.7852000,N,12132.4484900,E,2,54,0.52,20.90,M,15.25,M,0,3335*7F
$GNRMC,043101.800,A,2500.7852000,N,12132.4484900,E,0.01,62.93,270623,,,D,V*34
$GPHDT,,T*1B
$GNGSA,A,3,19,196,195,199,17,06,20,09,11,194,12,04,0.87,0.52,0.70,1*04
$GNGSA,A,3,68,83,82,69,67,,,,,,,,0.87,0.52,0.70,2*0C
$GNGSA,A,3,10,12,04,11,24,19,25,,,,,,0.87,0.52,0.70,3*03
$GNGSA,A,3,33,40,07,10,08,14,28,43,13,41,42,,0.87,0.52,0.70,4*08
$GPGSV,4,1,15,19,71,085,37,196,70,117,41,195,69,051,39,50,60,167,28,1*6C
$GPGSV,4,2,15,199,60,167,25,17,54,117,45,06,49,011,38,20,43,250,40,1*51
$GPGSV,4,3,15,09,37,080,21,11,36,307,26,194,33,173,31,12,24,302,25,1*5C
$GPGSV,4,4,15,05,19,232,22,04,17,053,29,14,08,171,,1*5B
$GPGSV,2,1,07,196,70,117,46,195,69,051,42,199,60,167,44,06,49,011,43,8*5E
$GPGSV,2,2,07,11,36,307,33,194,33,173,24,04,17,053,26,8*64
$GLGSV,2,1,06,68,70,108,40,83,41,008,26,82,35,068,21,69,33,185,26,1*7D
$GLGSV,2,2,06,67,32,036,36,73,16,265,,1*7C
$GAGSV,3,1,09,10,50,358,37,12,44,037,19,04,43,142,36,11,40,319,36,7*72
$GAGSV,3,2,09,24,38,224,14,19,31,066,19,25,29,290,21,09,12,188,,7*7A
$GAGSV,3,3,09,33,08,079,,7*4C
$GAGSV,2,1,06,10,50,358,43,12,44,037,25,04,43,142,41,11,40,319,33,1*73
$GAGSV,2,2,06,19,31,066,17,25,29,290,19,1*70
$GBGSV,4,1,14,33,76,093,41,40,75,179,38,07,72,223,38,10,69,262,36,1*7D
$GBGSV,4,2,14,08,55,290,34,14,51,050,21,28,50,341,43,43,49,086,35,1*7A
$GBGSV,4,3,14,13,47,275,34,41,41,201,45,42,26,041,29,11,25,101,,1*7B
$GBGSV,4,4,14,37,10,255,,23,08,207,,1*78
$GBGSV,2,1,06,33,76,093,44,40,75,179,46,28,50,341,43,43,49,086,27,4*79
$GBGSV,2,2,06,41,41,201,45,42,26,041,28,4*7A
$GNGGA,043102.000,2500.7851900,N,12132.4484900,E,2,54,0.52,20.90,M,15.25,M,1,3335*7F
$GNRMC,043102.000,A,2500.7851900,N,12132.4484900,E,0.01,62.93,270623,,,D,V*35
$GPHDT,,T*1B
$GNGGA,043102.200,2500.7852000,N,12132.4484900,E,2,55,0.52,20.90,M,15.25,M,1,3335*76
$GNRMC,043102.200,A,2500.7852000,N,12132.4484900,E,0.02,62.93,270623,,,D,V*3E
$GPHDT,,T*1B
$GNGGA,043102.400,2500.7851900,N,12132.4484900,E,2,55,0.52,20.90,M,15.25,M,1,3335*7A
$GNRMC,043102.400,A,2500.7851900,N,12132.4484900,E,0.02,62.93,270623,,,D,V*32
$GPHDT,,T*1B
$GNGGA,043102.600,2500.7851900,N,12132.4484900,E,2,55,0.52,20.90,M,15.25,M,0,3335*79
$GNRMC,043102.600,A,2500.7851900,N,12132.4484900,E,0.04,62.93,270623,,,D,V*36
$GPHDT,,T*1B
$GNGGA,043102.800,2500.7852000,N,12132.4484900,E,2,55,0.52,20.91,M,15.25,M,0,3335*7C
$GNRMC,043102.800,A,2500.7852000,N,12132.4484900,E,0.04,62.93,270623,,,D,V*32
$GPHDT,,T*1B
$GNGSA,A,3,19,196,195,199,17,06,20,09,11,194,12,04,0.87,0.52,0.70,1*04
$GNGSA,A,3,68,83,82,69,67,,,,,,,,0.87,0.52,0.70,2*0C
$GNGSA,A,3,10,12,04,11,24,19,25,,,,,,0.87,0.52,0.70,3*03
$GNGSA,A,3,33,40,07,10,08,14,28,43,13,41,42,,0.87,0.52,0.70,4*08
$GPGSV,4,1,15,19,71,085,37,196,70,117,41,195,69,051,40,50,60,167,27,1*6D
$GPGSV,4,2,15,199,60,167,24,17,54,117,45,06,49,011,38,20,43,250,40,1*50
$GPGSV,4,3,15,09,37,080,20,11,36,307,27,194,33,173,32,12,24,302,26,1*5C
$GPGSV,4,4,15,05,19,232,22,04,17,053,29,14,08,171,,1*5B
$GPGSV,2,1,08,196,70,117,46,195,69,051,42,199,60,167,44,06,49,011,41,8*53
$GPGSV,2,2,08,09,37,080,15,11,36,307,31,194,33,173,24,04,17,053,26,8*58
$GLGSV,2,1,06,68,70,108,40,83,41,008,28,82,35,068,21,69,33,185,26,1*73
$GLGSV,2,2,06,67,32,036,37,73,16,265,,1*7D
$GAGSV,3,1,09,10,50,358,37,12,44,037,20,04,43,142,36,11,40,319,36,7*78
$GAGSV,3,2,09,24,38,224,15,19,31,066,19,25,29,290,20,09,12,188,,7*7A
$GAGSV,3,3,09,33,08,079,,7*4C
$GAGSV,2,1,06,10,50,358,43,12,44,037,22,04,43,142,41,11,40,319,30,1*77
$GAGSV,2,2,06,19,31,066,17,25,29,290,21,1*7B
$GBGSV,4,1,14,33,76,093,41,40,75,179,38,07,72,223,38,10,69,262,35,1*7E
$GBGSV,4,2,14,08,55,290,34,14,51,050,20,28,50,341,43,43,49,086,35,1*7B
$GBGSV,4,3,14,13,47,275,34,41,41,201,45,42,26,041,29,37,10,255,,1*7B
$GBGSV,4,4,14,34,08,113,,23,08,207,,1*73
$GBGSV,2,1,06,33,76,093,44,40,75,179,46,28,50,341,43,43,49,086,26,4*78
$GBGSV,2,2,06,41,41,201,45,42,26,041,29,4*7B
$GNGGA,043103.000,2500.7852000,N,12132.4484900,E,2,54,0.52,20.91,M,15.25,M,1,3335*75
$GNRMC,043103.000,A,2500.7852000,N,12132.4484900,E,0.05,62.93,270623,,,D,V*3A
$GPHDT,,T*1B
$GNGGA,043103.200,2500.7852000,N,12132.4484900,E,2,54,0.52,20.91,M,15.25,M,1,3335*77
$GNRMC,043103.200,A,2500.7852000,N,12132.4484900,E,0.05,62.93,270623,,,D,V*38
$GPHDT,,T*1B
$GNGGA,043103.400,2500.7851900,N,12132.4484900,E,2,54,0.52,20.92,M,15.25,M,1,3335*78
$GNRMC,043103.400,A,2500.7851900,N,12132.4484900,E,0.06,62.93,270623,,,D,V*37
$GPHDT,,T*1B
$GNGGA,043103.600,2500.7851900,N,12132.4484900,E,2,54,0.52,20.92,M,15.25,M,1,3335*7A
$GNRMC,043103.600,A,2500.7851900,N,12132.4484900,E,0.17,62.93,270623,,,D,V*35
$GPHDT,,T*1B
$GNGGA,043103.800,2500.7851900,N,12132.4485000,E,2,54,0.52,20.93,M,15.25,M,0,3335*7C
$GNRMC,043103.800,A,2500.7851900,N,12132.4485000,E,0.03,62.93,270623,,,D,V*36
$GPHDT,,T*1B
$GNGSA,A,3,19,196,195,199,17,06,20,09,11,194,12,04,0.87,0.52,0.70,1*04
$GNGSA,A,3,68,83,82,69,67,,,,,,,,0.87,0.52,0.70,2*0C
$GNGSA,A,3,10,12,04,11,24,19,25,,,,,,0.87,0.52,0.70,3*03
$GNGSA,A,3,33,40,07,10,08,14,28,43,13,41,42,,0.87,0.52,0.70,4*08
$GPGSV,4,1,15,19,71,085,37,196,70,117,41,195,69,051,40,50,60,167,26,1*6C
$GPGSV,4,2,15,199,60,167,23,17,54,117,45,06,49,011,39,20,43,250,33,1*52
$GPGSV,4,3,15,09,37,080,18,11,36,307,29,194,33,173,32,12,24,302,28,1*57
$GPGSV,4,4,15,05,19,232,20,04,17,053,29,14,08,171,,1*59
$GPGSV,2,1,08,196,70,117,46,195,69,051,42,199,60,167,44,06,49,011,41,8*53
$GPGSV,2,2,08,09,37,080,17,11,36,307,29,194,33,173,27,04,17,053,26,8*50
$GLGSV,2,1,06,68,70,108,40,83,41,008,29,82,35,068,22,69,33,185,27,1*70
$GLGSV,2,2,06,67,32,036,37,73,16,265,,1*7D
$GAGSV,3,1,09,10,50,358,37,12,44,037,20,04,43,142,36,11,40,319,36,7*78
$GAGSV,3,2,09,24,38,224,17,19,31,066,19,25,29,290,20,09,12,188,,7*78
$GAGSV,3,3,09,33,08,079,18,7*45
$GAGSV,2,1,06,10,50,358,43,12,44,037,20,04,43,142,41,11,40,319,28,1*7C
$GAGSV,2,2,06,19,31,066,15,25,29,290,20,1*78
$GBGSV,4,1,14,33,76,093,41,40,75,179,37,07,72,223,36,10,69,262,36,1*7C
$GBGSV,4,2,14,08,55,290,36,14,51,050,23,28,50,341,43,43,49,086,34,1*7B
$GBGSV,4,3,14,13,47,275,35,41,41,201,45,42,26,041,28,37,10,255,,1*7B
$GBGSV,4,4,14,34,08,113,,23,08,207,,1*73
$GBGSV,2,1,06,33,76,093,44,40,75,179,46,28,50,341,43,43,49,086,25,4*7B
$GBGSV,2,2,06,41,41,201,45,42,26,041,30,4*73
$GNGGA,043104.000,2500.7851900,N,12132.4485000,E,2,55,0.52,20.93,M,15.25,M,1,3335*73
$GNRMC,043104.000,A,2500.7851900,N,12132.4485000,E,0.04,62.93,270623,,,D,V*3E
$GPHDT,,T*1B
$GNGGA,043104.200,2500.7851900,N,12132.4485000,E,2,55,0.52,20.93,M,15.25,M,1,3335*71
$GNRMC,043104.200,A,2500.7851900,N,12132.4485000,E,0.03,62.93,270623,,,D,V*3B
$GPHDT,,T*1B
$GNGGA,043104.400,2500.7851900,N,12132.4485000,E,2,55,0.52,20.93,M,15.25,M,1,3335*77
$GNRMC,043104.400,A,2500.7851900,N,12132.4485000,E,0.04,62.93,270623,,,D,V*3A
$GPHDT,,T*1B
$GNGGA,043104.600,2500.7851900,N,12132.4485000,E,2,55,0.52,20.93,M,15.25,M,0,3335*74
$GNRMC,043104.600,A,2500.7851900,N,12132.4485000,E,0.06,62.93,270623,,,D,V*3A
$GPHDT,,T*1B
$GNGGA,043104.800,2500.7851900,N,12132.4485100,E,2,54,0.52,20.93,M,15.25,M,0,3335*7A
$GNRMC,043104.800,A,2500.7851900,N,12132.4485100,E,0.05,62.93,270623,,,D,V*36
$GPHDT,,T*1B
$GNGSA,A,3,19,196,195,199,17,06,20,09,194,12,04,11,0.87,0.52,0.70,1*04
$GNGSA,A,3,68,83,82,69,67,,,,,,,,0.87,0.52,0.70,2*0C
$GNGSA,A,3,10,12,04,11,24,19,25,,,,,,0.87,0.52,0.70,3*03
$GNGSA,A,3,33,40,07,10,08,14,28,43,13,41,42,,0.87,0.52,0.70,4*08
$GPGSV,4,1,15,19,71,085,38,196,70,117,41,195,69,051,39,50,60,167,26,1*6D
$GPGSV,4,2,15,199,60,167,25,17,54,117,45,06,49,011,40,20,43,250,39,1*50
$GPGSV,4,3,15,09,37,080,20,11,36,307,23,194,33,173,31,12,24,302,29,1*54
$GPGSV,4,4,15,05,19,232,20,04,17,053,26,14,08,171,,1*56
$GPGSV,2,1,08,196,70,117,46,195,69,051,42,199,60,167,44,06,49,011,41,8*53
$GPGSV,2,2,08,09,37,080,16,11,36,307,34,194,33,173,26,04,17,053,25,8*5F
$GLGSV,2,1,07,68,70,108,40,83,41,008,29,82,35,068,24,69,33,185,28,1*78
$GLGSV,2,2,07,67,32,036,37,73,16,265,,74,08,308,,1*4C
$GAGSV,3,1,09,10,50,358,37,12,44,037,20,04,43,142,35,11,40,319,39,7*74
$GAGSV,3,2,09,24,38,224,18,19,31,066,19,25,29,290,20,09,12,188,,7*77
$GAGSV,3,3,09,33,08,079,15,7*48
$GAGSV,2,1,06,10,50,358,42,12,44,037,22,04,43,142,40,11,40,319,39,1*7E
$GAGSV,2,2,06,19,31,066,14,25,29,290,19,1*73
$GBGSV,4,1,14,33,76,093,41,40,75,179,37,07,72,223,36,10,69,262,36,1*7C
$GBGSV,4,2,14,08,55,290,36,14,51,050,23,28,50,341,43,43,49,086,34,1*7B
$GBGSV,4,3,14,13,47,275,35,41,41,201,45,42,26,041,30,11,25,101,,1*72
$GBGSV,4,4,14,37,10,255,,34,08,113,,1*78
$GBGSV,2,1,06,33,76,093,44,40,75,179,46,28,50,341,43,43,49,086,27,4*79
$GBGSV,2,2,06,41,41,201,45,42,26,041,29,4*7B
$GNGGA,043105.000,2500.7851900,N,12132.4485100,E,2,54,0.52,20.93,M,15.25,M,1,3335*72
$GNRMC,043105.000,A,2500.7851900,N,12132.4485100,E,0.03,62.93,270623,,,D,V*39
$GPHDT,,T*1B
$GNGGA,043105.200,2500.7851900,N,12132.4485100,E,2,53,0.52,20.93,M,15.25,M,1,3335*77
$GNRMC,043105.200,A,2500.7851900,N,12132.4485100,E,0.03,62.93,270623,,,D,V*3B
$GPHDT,,T*1B
$GNGGA,043105.400,2500.7851800,N,12132.4485100,E,2,53,0.52,20.93,M,15.25,M,1,3335*70
$GNRMC,043105.400,A,2500.7851800,N,12132.4485100,E,0.02,62.93,270623,,,D,V*3D
$GPHDT,,T*1B
$GNGGA,043105.600,2500.7851800,N,12132.4485200,E,2,53,0.52,20.93,M,15.25,M,0,3335*70
$GNRMC,043105.600,A,2500.7851800,N,12132.4485200,E,0.02,62.93,270623,,,D,V*3C
$GPHDT,,T*1B
$GNGGA,043105.800,2500.7851800,N,12132.4485200,E,2,53,0.52,20.93,M,15.25,M,0,3335*7E
$GNRMC,043105.800,A,2500.7851800,N,12132.4485200,E,0.02,62.93,270623,,,D,V*32
$GPHDT,,T*1B
$GNGSA,A,3,19,196,195,199,17,06,20,09,194,12,04,11,0.87,0.52,0.70,1*04
$GNGSA,A,3,68,83,82,69,67,,,,,,,,0.87,0.52,0.70,2*0C
$GNGSA,A,3,10,12,04,11,24,19,25,,,,,,0.87,0.52,0.70,3*03
$GNGSA,A,3,33,40,07,10,08,14,28,43,13,41,42,,0.87,0.52,0.70,4*08
$GPGSV,4,1,15,19,71,085,38,196,70,117,41,195,69,051,39,50,60,167,25,1*6E
$GPGSV,4,2,15,199,60,167,24,17,54,117,45,06,49,011,39,20,43,250,39,1*5F
$GPGSV,4,3,15,09,37,080,21,11,36,307,16,194,33,173,30,12,24,302,29,1*52
$GPGSV,4,4,15,05,19,232,20,04,17,053,24,14,08,171,,1*54
$GPGSV,2,1,06,196,70,117,46,195,69,051,42,199,60,167,44,06,49,011,41,8*5D
$GPGSV,2,2,06,11,36,307,35,04,17,053,24,8*6E
$GLGSV,2,1,07,68,70,108,40,83,41,008,29,82,35,068,23,69,33,185,27,1*70
$GLGSV,2,2,07,67,32,036,37,73,16,265,,74,08,308,,1*4C
$GAGSV,3,1,09,10,50,358,37,12,44,037,20,04,43,142,35,11,40,319,40,7*7A
$GAGSV,3,2,09,24,38,224,16,19,31,066,19,25,29,290,20,09,12,188,,7*79
$GAGSV,3,3,09,33,08,079,16,7*4B
$GAGSV,2,1,06,10,50,358,42,12,44,037,23,04,43,142,40,11,40,319,40,1*71
$GAGSV,2,2,06,19,31,066,15,25,29,290,19,1*72
$GBGSV,4,1,14,33,76,093,41,40,75,179,37,07,72,223,36,10,69,262,36,1*7C
$GBGSV,4,2,14,08,55,290,36,14,51,050,22,28,50,341,43,43,49,086,34,1*7A
$GBGSV,4,3,14,13,47,275,34,41,41,201,45,42,26,041,28,11,25,101,,1*7A
$GBGSV,4,4,14,37,10,255,,23,08,207,,1*78
$GBGSV,2,1,06,33,76,093,44,40,75,179,46,28,50,341,43,43,49,086,26,4*78
$GBGSV,2,2,06,41,41,201,45,42,26,041,30,4*73
$GNGGA,043106.000,2500.7851800,N,12132.4485200,E,2,52,0.52,20.93,M,15.25,M,1,3335*75
$GNRMC,043106.000,A,2500.7851800,N,12132.4485200,E,0.02,62.93,270623,,,D,V*39
$GPHDT,,T*1B
$GNGGA,043106.200,2500.7851800,N,12132.4485300,E,2,52,0.52,20.93,M,15.25,M,1,3335*76
$GNRMC,043106.200,A,2500.7851800,N,12132.4485300,E,0.03,62.93,270623,,,D,V*3B
$GPHDT,,T*1B
$GNGGA,043106.400,2500.7851800,N,12132.4485300,E,2,52,0.52,20.93,M,15.25,M,1,3335*70
$GNRMC,043106.400,A,2500.7851800,N,12132.4485300,E,0.03,62.93,270623,,,D,V*3D
$GPHDT,,T*1B
$GNGGA,043106.600,2500.7851700,N,12132.4485300,E,2,53,0.52,20.93,M,15.25,M,0,3335*7D
$GNRMC,043106.600,A,2500.7851700,N,12132.4485300,E,0.02,62.93,270623,,,D,V*31
$GPHDT,,T*1B
$GNGGA,043106.800,2500.7851700,N,12132.4485400,E,2,53,0.52,20.92,M,15.25,M,0,3335*75
$GNRMC,043106.800,A,2500.7851700,N,12132.4485400,E,0.03,62.93,270623,,,D,V*39
$GPHDT,,T*1B
$GNGSA,A,3,19,196,195,199,17,06,20,09,194,12,04,11,0.87,0.52,0.70,1*04
$GNGSA,A,3,68,83,82,69,67,,,,,,,,0.87,0.52,0.70,2*0C
$GNGSA,A,3,10,12,04,11,24,19,25,,,,,,0.87,0.52,0.70,3*03
$GNGSA,A,3,33,40,07,10,08,14,28,43,13,41,42,,0.87,0.52,0.70,4*08
$GPGSV,4,1,15,19,71,085,38,196,70,117,41,195,69,051,39,50,60,167,26,1*6D
$GPGSV,4,2,15,199,60,167,22,17,54,117,45,06,49,011,38,20,43,250,39,1*58
$GPGSV,4,3,15,09,37,080,19,11,36,307,16,194,33,173,30,12,24,302,29,1*59
$GPGSV,4,4,15,05,19,232,20,04,17,053,25,14,08,171,,1*55
$GPGSV,2,1,07,196,70,117,46,195,69,051,42,199,60,167,44,06,49,011,41,8*5C
$GPGSV,2,2,07,11,36,307,35,194,33,173,28,04,17,053,25,8*6D
$GLGSV,2,1,08,68,70,108,40,83,41,008,28,82,35,068,23,69,33,185,27,1*7E
$GLGSV,2,2,08,67,32,036,37,73,16,265,,74,08,308,,84,07,312,,1*78
$GAGSV,3,1,10,10,50,358,36,12,44,037,20,04,43,142,35,11,40,319,40,7*73
$GAGSV,3,2,10,24,38,224,14,19,31,066,18,25,29,290,19,09,12,188,,7*78
$GAGSV,3,3,10,33,08,079,16,36,04,284,,7*7C
$GAGSV,2,1,06,10,50,358,42,12,44,037,22,04,43,142,40,11,40,319,40,1*70
$GAGSV,2,2,06,19,31,066,15,25,29,290,19,1*72
$GBGSV,4,1,14,33,76,093,41,40,75,179,37,07,72,223,37,10,69,262,36,1*7D
$GBGSV,4,2,14,08,55,290,36,14,51,050,19,28,50,341,43,43,49,086,33,1*75
$GBGSV,4,3,14,13,47,275,34,41,41,201,45,42,26,041,28,37,10,255,,1*7A
$GBGSV,4,4,14,23,08,207,,34,08,113,,1*73
$GBGSV,2,1,06,33,76,093,44,40,75,179,46,28,50,341,43,43,49,086,27,4*79
$GBGSV,2,2,06,41,41,201,45,42,26,041,30,4*73
$GNGGA,043107.000,2500.7851700,N,12132.4485400,E,2,53,0.52,20.92,M,15.25,M,1,3335*7D
$GNRMC,043107.000,A,2500.7851700,N,12132.4485400,E,0.03,62.93,270623,,,D,V*30
$GPHDT,,T*1B
$GNGGA,043107.200,2500.7851700,N,12132.4485500,E,2,53,0.52,20.92,M,15.25,M,1,3335*7E
$GNRMC,043107.200,A,2500.7851700,N,12132.4485500,E,0.03,62.93,270623,,,D,V*33
$GPHDT,,T*1B
$GNGGA,043107.400,2500.7851700,N,12132.4485500,E,2,52,0.52,20.92,M,15.25,M,1,3335*79
$GNRMC,043107.400,A,2500.7851700,N,12132.4485500,E,0.02,62.93,270623,,,D,V*34
$GPHDT,,T*1B
$GNGGA,043107.600,2500.7851600,N,12132.4485500,E,2,52,0.52,20.92,M,15.25,M,0,3335*7B
$GNRMC,043107.600,A,2500.7851600,N,12132.4485500,E,0.02,62.93,270623,,,D,V*37
$GPHDT,,T*1B
$GNGGA,043107.800,2500.7851600,N,12132.4485600,E,2,52,0.52,20.92,M,15.25,M,0,3335*76
$GNRMC,043107.800,A,2500.7851600,N,12132.4485600,E,0.03,62.93,270623,,,D,V*3B
$GPHDT,,T*1B
$GNGSA,A,3,19,196,195,199,17,06,20,194,12,04,11,,0.88,0.52,0.71,1*03
$GNGSA,A,3,68,83,82,69,67,,,,,,,,0.88,0.52,0.71,2*02
$GNGSA,A,3,10,12,04,11,24,19,25,,,,,,0.88,0.52,0.71,3*0D
$GNGSA,A,3,33,40,07,10,08,14,28,43,13,41,42,,0.88,0.52,0.71,4*06
$GPGSV,4,1,15,19,71,085,38,196,70,117,41,195,69,051,39,50,60,167,26,1*6D
$GPGSV,4,2,15,199,60,167,22,17,54,117,45,06,49,011,38,20,43,250,39,1*58
$GPGSV,4,3,15,09,37,080,20,11,36,307,19,194,33,173,30,12,24,302,30,1*54
$GPGSV,4,4,15,05,19,232,20,04,17,053,25,14,08,171,,1*55
$GPGSV,2,1,07,196,70,117,46,195,69,051,42,199,60,167,44,06,49,011,41,8*5C
$GPGSV,2,2,07,11,36,307,35,194,33,173,27,04,17,053,27,8*60
$GLGSV,2,1,07,68,70,108,40,83,41,008,28,82,35,068,23,69,33,185,26,1*70
$GLGSV,2,2,07,67,32,036,37,73,16,265,,74,08,308,,1*4C
$GAGSV,3,1,10,10,50,358,36,12,44,037,19,04,43,142,35,11,40,319,40,7*79
$GAGSV,3,2,10,24,38,224,14,19,31,066,18,25,29,290,19,09,12,188,,7*78
$GAGSV,3,3,10,33,08,079,16,36,04,284,,7*7C
$GAGSV,2,1,07,10,50,358,42,12,44,037,22,04,43,142,40,11,40,319,40,1*71
$GAGSV,2,2,07,19,31,066,15,25,29,290,18,33,08,079,21,1*47
$GBGSV,4,1,14,33,76,093,41,40,75,179,37,07,72,223,37,10,69,262,34,1*7F
$GBGSV,4,2,14,08,55,290,36,14,51,050,18,28,50,341,43,43,49,086,33,1*74
$GBGSV,4,3,14,13,47,275,34,41,41,201,45,42,26,041,27,37,10,255,,1*75
$GBGSV,4,4,14,23,08,207,,34,08,113,,1*73
$GBGSV,2,1,06,33,76,093,44,40,75,179,46,28,50,341,43,43,49,086,28,4*76
$GBGSV,2,2,06,41,41,201,45,42,26,041,30,4*73
$GNGGA,043108.000,2500.7851500,N,12132.4485600,E,2,52,0.52,20.92,M,15.25,M,1,3335*73
$GNRMC,043108.000,A,2500.7851500,N,12132.4485600,E,0.02,62.93,270623,,,D,V*3E
$GPHDT,,T*1B
$GNGGA,043108.200,2500.7851500,N,12132.4485600,E,2,51,0.52,20.92,M,15.25,M,1,3335*72
$GNRMC,043108.200,A,2500.7851500,N,12132.4485600,E,0.02,62.93,270623,,,D,V*3C
$GPHDT,,T*1B
$GNGGA,043108.400,2500.7851500,N,12132.4485600,E,2,51,0.52,20.92,M,15.25,M,1,3335*74
$GNRMC,043108.400,A,2500.7851500,N,12132.4485600,E,0.00,62.93,270623,,,D,V*38
$GPHDT,,T*1B
$GNGGA,043108.600,2500.7851400,N,12132.4485600,E,2,52,0.52,20.92,M,15.25,M,0,3335*75
$GNRMC,043108.600,A,2500.7851400,N,12132.4485600,E,0.01,62.93,270623,,,D,V*3A
$GPHDT,,T*1B
$GNGGA,043108.800,2500.7851400,N,12132.4485600,E,2,52,0.52,20.92,M,15.25,M,0,3335*7B
$GNRMC,043108.800,A,2500.7851400,N,12132.4485600,E,0.02,62.93,270623,,,D,V*37
$GPHDT,,T*1B
$GNGSA,A,3,19,196,195,199,17,06,20,09,194,12,04,11,0.87,0.52,0.70,1*04
$GNGSA,A,3,68,83,82,69,67,,,,,,,,0.87,0.52,0.70,2*0C
$GNGSA,A,3,10,12,04,11,24,19,25,,,,,,0.87,0.52,0.70,3*03
$GNGSA,A,3,33,40,07,10,08,14,28,43,13,41,42,,0.87,0.52,0.70,4*08
$GPGSV,4,1,15,19,71,085,38,196,70,117,41,195,69,051,39,50,60,167,26,1*6D
$GPGSV,4,2,15,199,60,167,23,17,54,117,45,06,49,011,38,20,43,250,41,1*56
$GPGSV,4,3,15,09,37,080,19,11,36,307,20,194,33,173,30,12,24,302,30,1*54
$GPGSV,4,4,15,05,19,232,20,04,17,053,28,14,08,171,,1*58
$GPGSV,2,1,07,196,70,117,47,195,69,051,43,199,60,167,44,06,49,011,43,8*5E
$GPGSV,2,2,07,11,36,307,35,194,33,173,25,04,17,053,29,8*6C
$GLGSV,2,1,08,68,70,108,40,83,41,008,28,82,35,068,21,69,33,185,24,1*7F
$GLGSV,2,2,08,67,32,036,37,73,16,265,,74,08,308,,80,07,213,,1*7C
$GAGSV,3,1,09,10,50,358,36,12,44,037,19,04,43,142,36,11,40,319,40,7*72
$GAGSV,3,2,09,24,38,224,16,19,31,066,18,25,29,290,19,33,08,079,16,7*78
$GAGSV,3,3,09,36,04,284,,7*45
$GAGSV,2,1,06,10,50,358,44,12,44,037,22,04,43,142,41,11,40,319,40,1*77
$GAGSV,2,2,06,19,31,066,15,25,29,290,18,1*73
$GBGSV,4,1,14,33,76,093,41,40,75,179,37,07,72,223,37,10,69,262,34,1*7F
$GBGSV,4,2,14,08,55,290,37,14,51,050,18,28,50,341,43,43,49,086,33,1*75
$GBGSV,4,3,14,13,47,275,34,41,41,201,45,42,26,041,27,37,10,255,,1*75
$GBGSV,4,4,14,23,08,207,,34,08,113,,1*73
$GBGSV,2,1,06,33,76,093,44,40,75,179,46,28,50,341,42,43,49,086,28,4*77
$GBGSV,2,2,06,41,41,201,45,42,26,041,31,4*72
$GNGGA,043109.000,2500.7851300,N,12132.4485600,E,2,52,0.52,20.92,M,15.25,M,1,3335*74
$GNRMC,043109.000,A,2500.7851300,N,12132.4485600,E,0.02,62.93,270623,,,D,V*39
$GPHDT,,T*1B
$GNGGA,043109.200,2500.7851200,N,12132.4485600,E,2,52,0.52,20.92,M,15.25,M,1,3335*77
$GNRMC,043109.200,A,2500.7851200,N,12132.4485600,E,0.02,62.93,270623,,,D,V*3A
$GPHDT,,T*1B
$GNGGA,043109.400,2500.7851200,N,12132.4485600,E,2,51,0.52,20.92,M,15.25,M,1,3335*72
$GNRMC,043109.400,A,2500.7851200,N,12132.4485600,E,0.01,62.93,270623,,,D,V*3F
$GPHDT,,T*1B
$GNGGA,043109.600,2500.7851200,N,12132.4485600,E,2,52,0.52,20.92,M,15.25,M,0,3335*72
$GNRMC,043109.600,A,2500.7851200,N,12132.4485600,E,0.01,62.93,270623,,,D,V*3D
$GPHDT,,T*1B
$GNGGA,043109.800,2500.7851100,N,12132.4485700,E,2,52,0.52,20.92,M,15.25,M,0,3335*7E
$GNRMC,043109.800,A,2500.7851100,N,12132.4485700,E,0.01,62.93,270623,,,D,V*31
$GPHDT,,T*1B
$GNGSA,A,3,19,196,195,199,17,06,20,09,194,12,04,11,0.87,0.52,0.70,1*04
$GNGSA,A,3,68,83,82,69,67,,,,,,,,0.87,0.52,0.70,2*0C
$GNGSA,A,3,10,12,04,11,24,19,25,,,,,,0.87,0.52,0.70,3*03
$GNGSA,A,3,33,40,07,10,08,14,28,43,13,41,42,,0.87,0.52,0.70,4*08
$GPGSV,4,1,15,19,71,086,38,196,70,117,41,195,69,051,39,50,60,167,26,1*6E
$GPGSV,4,2,15,199,60,167,24,17,54,117,45,06,49,011,38,20,44,250,41,1*56
$GPGSV,4,3,15,09,37,080,23,11,36,307,18,194,33,173,30,12,24,302,30,1*56
$GPGSV,4,4,15,05,19,232,20,04,17,053,30,14,08,171,,1*51
$GPGSV,2,1,07,196,70,117,47,195,69,051,43,199,60,167,44,06,49,011,43,8*5E
$GPGSV,2,2,07,11,36,307,35,194,33,173,25,04,17,053,29,8*6C
$GLGSV,2,1,07,68,70,108,39,83,41,008,29,82,35,068,20,69,33,185,23,1*79
$GLGSV,2,2,07,67,32,036,37,74,08,308,,80,07,213,,1*41
$GAGSV,3,1,09,10,50,358,36,12,44,037,20,04,43,142,36,11,40,319,40,7*78
$GAGSV,3,2,09,24,38,224,17,19,31,066,18,25,29,290,17,33,08,079,15,7*74
$GAGSV,3,3,09,36,04,284,,7*45
$GAGSV,2,1,07,10,50,358,44,12,44,037,21,04,43,142,41,11,40,319,40,1*75
$GAGSV,2,2,07,19,31,066,12,25,29,290,18,33,08,079,18,1*4A
$GBGSV,4,1,14,33,76,093,42,40,75,179,37,07,72,223,37,10,69,262,35,1*7D
$GBGSV,4,2,14,08,55,290,37,14,51,050,19,28,50,341,43,43,49,086,33,1*74
$GBGSV,4,3,14,13,47,275,34,41,41,201,45,42,26,041,27,37,10,255,,1*75
$GBGSV,4,4,14,23,08,207,,34,08,113,,1*73
$GBGSV,2,1,06,33,76,093,42,40,75,179,45,28,50,341,41,43,49,086,27,4*7E
$GBGSV,2,2,06,41,41,201,45,42,26,041,31,4*72
$GNGGA,043110.000,2500.7851100,N,12132.4485700,E,2,52,0.52,20.92,M,15.25,M,1,3335*7F
$GNRMC,043110.000,A,2500.7851100,N,12132.4485700,E,0.02,62.93,270623,,,D,V*32
$GPHDT,,T*1B
$GNGGA,043110.200,2500.7850900,N,12132.4485800,E,2,52,0.52,20.92,M,15.25,M,1,3335*7B
$GNRMC,043110.200,A,2500.7850900,N,12132.4485800,E,0.03,62.93,270623,,,D,V*37
$GPHDT,,T*1B
$GNGGA,043110.400,2500.7850900,N,12132.4485800,E,2,52,0.52,20.92,M,15.25,M,1,3335*7D
$GNRMC,043110.400,A,2500.7850900,N,12132.4485800,E,0.02,62.93,270623,,,D,V*30
$GPHDT,,T*1B
$GNGGA,043110.600,2500.7850800,N,12132.4485800,E,2,52,0.52,20.92,M,15.25,M,1,3335*7E
$GNRMC,043110.600,A,2500.7850800,N,12132.4485800,E,0.03,62.93,270623,,,D,V*32
$GPHDT,,T*1B
$GNGGA,043110.800,2500.7850800,N,12132.4485900,E,2,54,0.52,20.92,M,15.25,M,0,3335*76
$GNRMC,043110.800,A,2500.7850800,N,12132.4485900,E,0.03,62.93,270623,,,D,V*3D
$GPHDT,,T*1B
$GNGSA,A,3,19,196,195,199,17,06,20,09,194,12,04,11,0.87,0.52,0.70,1*04
$GNGSA,A,3,68,83,82,69,67,,,,,,,,0.87,0.52,0.70,2*0C
$GNGSA,A,3,10,12,04,11,24,19,25,,,,,,0.87,0.52,0.70,3*03
$GNGSA,A,3,33,40,07,10,08,14,28,43,13,41,42,,0.87,0.52,0.70,4*08
$GPGSV,4,1,15,19,71,086,38,196,70,117,41,195,69,051,40,50,60,167,27,1*61
$GPGSV,4,2,15,199,60,167,25,17,54,117,44,06,49,011,38,20,44,250,42,1*55
$GPGSV,4,3,15,09,37,080,26,11,36,307,17,194,33,173,30,12,24,302,30,1*5C
$GPGSV,4,4,15,05,19,232,20,04,17,053,26,14,08,171,,1*56
$GPGSV,2,1,07,196,70,117,47,195,69,051,42,199,60,167,44,06,49,011,43,8*5F
$GPGSV,2,2,07,09,37,080,27,11,36,307,33,04,17,053,27,8*5A
$GLGSV,2,1,06,68,70,108,38,83,41,008,29,82,35,068,20,69,33,185,23,1*79
$GLGSV,2,2,06,67,32,036,37,80,07,213,,1*70
$GAGSV,3,1,09,10,50,358,35,12,44,037,20,04,43,142,36,11,40,319,39,7*75
$GAGSV,3,2,09,24,38,224,17,19,31,066,18,25,29,290,15,33,08,079,16,7*75
$GAGSV,3,3,09,36,04,284,,7*45
$GAGSV,2,1,08,10,50,358,43,12,44,037,20,04,43,142,41,11,40,319,39,1*72
$GAGSV,2,2,08,24,38,224,16,19,31,066,11,25,29,290,18,33,08,079,18,1*78
$GBGSV,4,1,14,33,76,093,41,40,75,179,38,07,72,223,37,10,69,262,36,1*72
$GBGSV,4,2,14,08,55,290,37,14,51,050,18,28,50,341,44,43,49,086,33,1*72
$GBGSV,4,3,14,13,47,275,34,41,41,201,45,42,26,041,26,37,10,255,,1*74
$GBGSV,4,4,14,34,08,113,,23,08,207,,1*73
$GBGSV,2,1,06,33,76,093,42,40,75,179,45,28,50,341,41,43,49,086,26,4*7F
$GBGSV,2,2,06,41,41,201,45,42,26,041,31,4*72
$GNGGA,043111.000,2500.7850700,N,12132.4485900,E,2,53,0.52,20.92,M,15.25,M,1,3335*76
$GNRMC,043111.000,A,2500.7850700,N,12132.4485900,E,0.02,62.93,270623,,,D,V*3A
$GPHDT,,T*1B
$GNGGA,043111.200,2500.7850600,N,12132.4485900,E,2,52,0.52,20.92,M,15.25,M,1,3335*74
$GNRMC,043111.200,A,2500.7850600,N,12132.4485900,E,0.02,62.93,270623,,,D,V*39
$GPHDT,,T*1B
$GNGGA,043111.400,2500.7850500,N,12132.4486100,E,2,51,0.52,20.92,M,15.25,M,1,3335*79
$GNRMC,043111.400,A,2500.7850500,N,12132.4486100,E,0.02,62.93,270623,,,D,V*37
$GPHDT,,T*1B
$GNGGA,043111.600,2500.7850400,N,12132.4486000,E,2,50,0.52,20.92,M,15.25,M,0,3335*7B
$GNRMC,043111.600,A,2500.7850400,N,12132.4486000,E,0.03,62.93,270623,,,D,V*34
