$FW : RTK35X,V1.1X0314AS,Lib20210517,1*54
$Tool : LOCOSYS , GNSS Firebird , v1.0.0.19*39
$---------------------------------------------------*2D
$GNGSA,A,3,19,196,195,199,17,06,20,09,11,194,12,04,1.08,0.51,0.95,1*0A
$GNGSA,A,3,68,83,82,69,67,,,,,,,,1.08,0.51,0.95,2*02
$GNGSA,A,3,10,12,04,11,24,19,25,,,,,,1.08,0.51,0.95,3*0D
$GNGSA,A,3,33,40,07,10,08,28,43,13,41,42,11,,1.08,0.51,0.95,4*03
$GPGSV,4,1,15,19,71,085,28,196,70,117,41,195,69,051,41,50,60,167,30,1*64
$GPGSV,4,2,15,199,60,167,28,17,54,117,43,06,49,011,37,20,43,250,45,1*50
$GPGSV,4,3,15,09,37,080,26,11,36,307,26,194,33,173,32,12,24,302,28,1*55
$GPGSV,4,4,15,05,19,232,16,04,17,053,25,14,08,171,,1*50
$GPGSV,2,1,08,196,70,117,46,195,69,051,43,199,60,167,42,06,49,011,42,8*57
$GPGSV,2,2,08,09,37,080,22,11,36,307,35,194,33,173,22,04,17,053,30,8*59
$GLGSV,2,1,08,68,70,109,39,83,41,008,30,82,35,067,24,69,33,185,20,1*77
$GLGSV,2,2,08,67,32,036,33,73,17,265,,74,08,308,18,80,08,214,,1*78
$GAGSV,3,1,09,10,50,358,34,12,44,037,17,04,42,142,36,11,40,319,38,7*70
$GAGSV,3,2,09,24,39,224,22,19,32,066,15,25,29,290,,09,12,188,,7*72
$GAGSV,3,3,09,33,08,079,18,7*45
$GAGSV,2,1,06,10,50,358,34,12,44,037,25,04,42,142,40,11,40,319,36,1*76
$GAGSV,2,2,06,24,39,224,26,25,29,290,13,1*7A
$GBGSV,4,1,15,33,76,094,42,40,75,179,37,07,72,223,41,10,69,262,37,1*78
$GBGSV,4,2,15,08,55,290,38,14,51,051,,28,50,341,42,43,49,086,33,1*72
$GBGSV,4,3,15,13,47,275,29,41,41,201,43,42,26,041,31,11,25,101,30,1*7A
$GBGSV,4,4,15,37,10,256,,34,08,113,,23,08,207,,1*46
$GBGSV,2,1,06,33,76,094,43,40,75,179,44,28,50,341,38,43,49,086,29,4*79
$GBGSV,2,2,06,41,41,201,46,42,26,041,22,4*73
$GNGGA,043040.000,2500.7855000,N,12132.4484500,E,2,54,0.51,19.79,M,15.25,M,1,3335*77
$GNRMC,043040.000,A,2500.7855000,N,12132.4484500,E,0.10,62.93,270623,,,D,V*33
$GPHDT,,T*1B
$GNGGA,043040.200,2500.7855000,N,12132.4484400,E,2,54,0.51,19.81,M,15.25,M,1,3335*73
$GNRMC,043040.200,A,2500.7855000,N,12132.4484400,E,0.07,62.93,270623,,,D,V*36
$GPHDT,,T*1B
$GNGGA,043040.400,2500.7855000,N,12132.4484400,E,2,54,0.50,19.83,M,15.25,M,1,3335*76
$GNRMC,043040.400,A,2500.7855000,N,12132.4484400,E,0.03,62.93,270623,,,D,V*34
$GPHDT,,T*1B
$GNGGA,043040.600,2500.7855000,N,12132.4484400,E,2,54,0.51,19.86,M,15.25,M,1,3335*70
$GNRMC,043040.600,A,2500.7855000,N,12132.4484400,E,0.04,62.93,270623,,,D,V*31
$GPHDT,,T*1B
$GNGGA,043040.800,2500.7855000,N,12132.4484400,E,2,54,0.51,19.88,M,15.25,M,0,3335*71
$GNRMC,043040.800,A,2500.7855000,N,12132.4484400,E,0.05,62.93,270623,,,D,V*3E
$GPHDT,,T*1B
$GNGSA,A,3,19,196,195,199,17,06,20,09,11,194,12,04,1.10,0.51,0.97,1*01
$GNGSA,A,3,68,83,82,69,67,,,,,,,,1.10,0.51,0.97,2*09
$GNGSA,A,3,10,12,04,11,24,19,,,,,,,1.10,0.51,0.97,3*01
$GNGSA,A,3,33,40,07,10,08,14,28,43,13,41,42,11,1.10,0.51,0.97,4*0D
$GPGSV,4,1,15,19,71,085,29,196,70,117,41,195,69,051,41,50,60,167,31,1*64
$GPGSV,4,2,15,199,60,167,28,17,54,117,43,06,49,011,37,20,43,250,45,1*50
$GPGSV,4,3,15,09,37,080,28,11,36,307,26,194,33,173,32,12,24,302,28,1*5B
$GPGSV,4,4,15,05,19,232,15,04,17,053,23,14,08,171,,1*55
$GPGSV,2,1,08,196,70,117,46,195,69,051,43,199,60,167,43,06,49,011,42,8*56
$GPGSV,2,2,08,09,37,080,26,11,36,307,35,194,33,173,22,04,17,053,30,8*5D
$GLGSV,2,1,08,68,70,109,39,83,41,008,30,82,35,067,23,69,33,185,19,1*7A
$GLGSV,2,2,08,67,32,036,33,73,17,265,,74,08,308,18,80,08,214,,1*78
$GAGSV,3,1,09,10,50,358,35,12,44,037,17,04,42,142,36,11,40,319,38,7*71
$GAGSV,3,2,09,24,39,224,23,19,32,066,17,25,29,290,,09,12,188,,7*71
$GAGSV,3,3,09,33,08,079,18,7*45
$GAGSV,2,1,05,10,50,358,36,12,44,037,24,04,42,142,40,11,40,319,35,1*75
$GAGSV,2,2,05,24,39,224,26,1*4C
$GBGSV,4,1,15,33,76,094,42,40,75,179,38,07,72,223,40,10,69,262,37,1*76
$GBGSV,4,2,15,08,55,290,38,14,51,051,28,28,50,341,42,43,49,086,33,1*78
$GBGSV,4,3,15,13,47,275,28,41,41,201,43,42,26,041,31,11,25,101,30,1*7B
$GBGSV,4,4,15,37,10,256,,34,08,113,,23,08,207,,1*46
$GBGSV,2,1,06,33,76,094,44,40,75,179,44,28,50,341,39,43,49,086,28,4*7E
$GBGSV,2,2,06,41,41,201,46,42,26,041,22,4*73
$GNGGA,043041.000,2500.7855000,N,12132.4484400,E,2,54,0.51,19.90,M,15.25,M,1,3335*70
$GNRMC,043041.000,A,2500.7855000,N,12132.4484400,E,0.03,62.93,270623,,,D,V*31
$GPHDT,,T*1B
$GNGGA,043041.200,2500.7854900,N,12132.4484400,E,2,52,0.51,19.92,M,15.25,M,1,3335*7E
$GNRMC,043041.200,A,2500.7854900,N,12132.4484400,E,0.02,62.93,270623,,,D,V*3A
$GPHDT,,T*1B
$GNGGA,043041.400,2500.7854900,N,12132.4484400,E,2,53,0.51,19.94,M,15.25,M,1,3335*7F
$GNRMC,043041.400,A,2500.7854900,N,12132.4484400,E,0.02,62.93,270623,,,D,V*3C
$GPHDT,,T*1B
$GNGGA,043041.600,2500.7854800,N,12132.4484400,E,2,52,0.53,19.96,M,15.25,M,1,3335*7D
$GNRMC,043041.600,A,2500.7854800,N,12132.4484400,E,0.02,62.93,270623,,,D,V*3F
$GPHDT,,T*1B
$GNGGA,043041.800,2500.7854900,N,12132.4484300,E,2,53,0.51,19.98,M,15.25,M,0,3335*79
$GNRMC,043041.800,A,2500.7854900,N,12132.4484300,E,0.02,62.93,270623,,,D,V*37
$GPHDT,,T*1B
$GNGSA,A,3,19,196,195,199,17,06,20,09,11,194,12,04,1.10,0.51,0.97,1*01
$GNGSA,A,3,68,83,82,69,67,,,,,,,,1.10,0.51,0.97,2*09
$GNGSA,A,3,10,12,04,11,24,19,,,,,,,1.10,0.51,0.97,3*01
$GNGSA,A,3,33,40,07,10,08,14,28,43,13,41,42,11,1.10,0.51,0.97,4*0D
$GPGSV,4,1,15,19,71,085,29,196,70,117,41,195,69,051,41,50,60,167,30,1*65
$GPGSV,4,2,15,199,60,167,27,17,54,117,43,06,49,011,37,20,43,250,45,1*5F
$GPGSV,4,3,15,09,37,080,26,11,36,307,28,194,33,173,31,12,24,302,28,1*58
$GPGSV,4,4,15,05,19,232,15,04,17,053,25,14,08,171,,1*53
$GPGSV,2,1,07,196,70,117,47,195,69,051,43,199,60,167,43,06,49,011,42,8*58
$GPGSV,2,2,07,09,37,080,23,11,36,307,35,04,17,053,30,8*5E
$GLGSV,2,1,07,68,70,109,38,83,41,008,30,82,35,067,19,69,33,185,21,1*76
$GLGSV,2,2,07,67,32,036,32,73,17,265,,74,08,308,19,1*40
$GAGSV,3,1,09,10,50,358,35,12,44,037,18,04,42,142,36,11,40,319,37,7*71
$GAGSV,3,2,09,24,39,224,22,19,32,066,17,25,29,290,,09,12,188,,7*70
$GAGSV,3,3,09,33,08,079,18,7*45
$GAGSV,2,1,06,10,50,358,35,12,44,037,22,04,42,142,40,11,40,319,35,1*73
$GAGSV,2,2,06,24,39,224,26,33,08,079,14,1*7C
$GBGSV,4,1,15,33,76,094,42,40,75,179,38,07,72,223,40,10,69,262,37,1*76
$GBGSV,4,2,15,08,55,290,39,14,51,051,20,28,50,341,42,43,49,086,33,1*71
$GBGSV,4,3,15,13,47,275,29,41,41,201,43,42,26,041,33,11,25,101,29,1*70
$GBGSV,4,4,15,37,10,256,,23,08,207,,34,08,113,,1*46
$GBGSV,2,1,06,33,76,094,44,40,75,179,44,28,50,341,39,43,49,086,28,4*7E
$GBGSV,2,2,06,41,41,201,46,42,26,041,23,4*72
$GNGGA,043042.000,2500.7854800,N,12132.4484300,E,2,53,0.51,20.00,M,15.25,M,1,3335*79
$GNRMC,043042.000,A,2500.7854800,N,12132.4484300,E,0.04,62.93,270623,,,D,V*3B
$GPHDT,,T*1B
$GNGGA,043042.200,2500.7854800,N,12132.4484200,E,2,53,0.51,20.02,M,15.25,M,1,3335*78
$GNRMC,043042.200,A,2500.7854800,N,12132.4484200,E,0.04,62.93,270623,,,D,V*38
$GPHDT,,T*1B
$GNGGA,043042.400,2500.7854800,N,12132.4484200,E,2,52,0.53,20.04,M,15.25,M,1,3335*7B
$GNRMC,043042.400,A,2500.7854800,N,12132.4484200,E,0.04,62.93,270623,,,D,V*3E
$GPHDT,,T*1B
$GNGGA,043042.600,2500.7854800,N,12132.4484200,E,2,52,0.53,20.06,M,15.25,M,0,3335*7A
$GNRMC,043042.600,A,2500.7854800,N,12132.4484200,E,0.04,62.93,270623,,,D,V*3C
$GPHDT,,T*1B
$GNGGA,043042.800,2500.7854800,N,12132.4484200,E,2,52,0.53,20.07,M,15.25,M,0,3335*75
$GNRMC,043042.800,A,2500.7854800,N,12132.4484200,E,0.04,62.93,270623,,,D,V*32
$GPHDT,,T*1B
$GNGSA,A,3,19,196,195,199,17,06,20,09,11,194,12,04,1.14,0.53,1.01,1*09
$GNGSA,A,3,68,83,82,69,67,,,,,,,,1.14,0.53,1.01,2*01
$GNGSA,A,3,10,12,04,11,24,19,,,,,,,1.14,0.53,1.01,3*09
$GNGSA,A,3,33,40,07,10,08,14,28,43,13,41,42,,1.14,0.53,1.01,4*05
$GPGSV,4,1,15,19,71,085,30,196,70,117,41,195,69,051,41,199,60,167,28,1*50
$GPGSV,4,2,15,50,60,167,30,17,54,117,43,06,49,011,36,20,43,250,45,1*6C
$GPGSV,4,3,15,09,37,080,24,11,36,307,28,194,33,173,31,12,24,302,28,1*5A
$GPGSV,4,4,15,05,19,232,16,04,17,053,22,14,08,171,,1*57
$GPGSV,2,1,07,196,70,117,47,195,69,051,43,199,60,167,43,06,49,011,42,8*58
$GPGSV,2,2,07,09,37,080,20,11,36,307,35,04,17,053,30,8*5D
$GLGSV,2,1,07,68,70,109,38,83,41,008,30,82,35,067,19,69,33,185,22,1*75
$GLGSV,2,2,07,67,32,036,31,73,17,265,,74,08,308,19,1*43
$GAGSV,3,1,10,10,50,358,35,12,44,037,18,04,43,142,36,11,40,319,37,7*78
$GAGSV,3,2,10,24,39,224,23,19,32,066,17,25,29,290,,09,12,188,,7*79
$GAGSV,3,3,10,33,08,079,17,36,04,284,,7*7D
$GAGSV,2,1,05,10,50,358,35,12,44,037,23,04,43,142,41,11,40,319,35,1*71
$GAGSV,2,2,05,24,39,224,27,1*4D
$GBGSV,4,1,14,33,76,094,42,40,75,179,38,07,72,223,39,10,69,262,37,1*79
$GBGSV,4,2,14,08,55,290,39,14,51,051,27,28,50,341,42,43,49,086,33,1*77
$GBGSV,4,3,14,13,47,275,30,41,41,201,43,42,26,041,32,11,25,101,29,1*78
$GBGSV,4,4,14,37,10,256,,34,08,113,,1*7B
$GBGSV,2,1,06,33,76,094,44,40,75,179,44,28,50,341,39,43,49,086,29,4*7F
$GBGSV,2,2,06,41,41,201,46,42,26,041,21,4*70
$GNGGA,043043.000,2500.7854800,N,12132.4484300,E,2,52,0.53,20.09,M,15.25,M,1,3335*72
$GNRMC,043043.000,A,2500.7854800,N,12132.4484300,E,0.03,62.93,270623,,,D,V*3D
$GPHDT,,T*1B
$GNGGA,043043.200,2500.7854700,N,12132.4484300,E,2,53,0.51,20.10,M,15.25,M,1,3335*74
$GNRMC,043043.200,A,2500.7854700,N,12132.4484300,E,0.03,62.93,270623,,,D,V*30
$GPHDT,,T*1B
$GNGGA,043043.400,2500.7854700,N,12132.4484300,E,2,53,0.51,20.12,M,15.25,M,1,3335*70
$GNRMC,043043.400,A,2500.7854700,N,12132.4484300,E,0.03,62.93,270623,,,D,V*36
$GPHDT,,T*1B
$GNGGA,043043.600,2500.7854700,N,12132.4484300,E,2,53,0.51,20.14,M,15.25,M,0,3335*75
$GNRMC,043043.600,A,2500.7854700,N,12132.4484300,E,0.03,62.93,270623,,,D,V*34
$GPHDT,,T*1B
$GNGGA,043043.800,2500.7854700,N,12132.4484300,E,2,52,0.53,20.15,M,15.25,M,0,3335*79
$GNRMC,043043.800,A,2500.7854700,N,12132.4484300,E,0.03,62.93,270623,,,D,V*3A
$GPHDT,,T*1B
$GNGSA,A,3,19,196,195,199,17,06,20,09,11,194,12,04,1.14,0.53,1.01,1*09
$GNGSA,A,3,68,83,82,69,67,,,,,,,,1.14,0.53,1.01,2*01
$GNGSA,A,3,10,12,04,11,24,19,,,,,,,1.14,0.53,1.01,3*09
$GNGSA,A,3,33,40,07,10,08,14,28,43,13,41,42,,1.14,0.53,1.01,4*05
$GPGSV,4,1,15,19,71,085,32,196,70,117,41,195,69,051,41,50,60,167,30,1*6F
$GPGSV,4,2,15,199,60,167,28,17,54,117,43,06,49,011,36,20,43,250,46,1*52
$GPGSV,4,3,15,09,37,080,26,11,36,307,29,194,33,173,31,12,24,302,28,1*59
$GPGSV,4,4,15,05,19,232,15,04,17,053,18,14,08,171,,1*5D
$GPGSV,2,1,07,196,70,117,47,195,69,051,43,199,60,167,43,06,49,011,42,8*58
$GPGSV,2,2,07,09,37,080,19,11,36,307,34,04,17,053,31,8*57
$GLGSV,2,1,07,68,70,109,38,83,41,008,30,82,35,067,18,69,33,185,21,1*77
$GLGSV,2,2,07,67,32,036,32,74,08,308,19,80,08,214,,1*44
$GAGSV,3,1,09,10,50,358,34,12,44,037,17,04,43,142,36,11,40,319,37,7*7E
$GAGSV,3,2,09,24,39,224,23,19,32,066,17,25,29,290,,33,08,079,17,7*7A
$GAGSV,3,3,09,36,04,284,,7*45
$GAGSV,2,1,06,10,50,358,35,12,44,037,24,04,43,142,41,11,40,319,35,1*75
$GAGSV,2,2,06,24,39,224,27,33,08,079,17,1*7E
$GBGSV,4,1,14,33,76,094,42,40,75,179,38,07,72,223,39,10,69,262,37,1*79
$GBGSV,4,2,14,08,55,290,39,14,51,051,29,28,50,341,42,43,49,086,31,1*7B
$GBGSV,4,3,14,13,47,275,30,41,41,201,43,42,26,041,32,11,25,101,,1*73
$GBGSV,4,4,14,37,10,256,,23,08,207,,1*7B
$GBGSV,2,1,06,33,76,094,44,40,75,179,44,28,50,341,39,43,49,086,27,4*71
$GBGSV,2,2,06,41,41,201,46,42,26,041,21,4*70
$GNGGA,043044.000,2500.7854700,N,12132.4484300,E,2,52,0.53,20.17,M,15.25,M,1,3335*75
$GNRMC,043044.000,A,2500.7854700,N,12132.4484300,E,0.02,62.93,270623,,,D,V*34
$GPHDT,,T*1B
$GNGGA,043044.200,2500.7854700,N,12132.4484300,E,2,51,0.53,20.19,M,15.25,M,1,3335*7A
$GNRMC,043044.200,A,2500.7854700,N,12132.4484300,E,0.02,62.93,270623,,,D,V*36
$GPHDT,,T*1B
$GNGGA,043044.400,2500.7854600,N,12132.4484300,E,2,51,0.53,20.20,M,15.25,M,1,3335*77
$GNRMC,043044.400,A,2500.7854600,N,12132.4484300,E,0.02,62.93,270623,,,D,V*31
$GPHDT,,T*1B
$GNGGA,043044.600,2500.7854500,N,12132.4484300,E,2,51,0.53,20.22,M,15.25,M,0,3335*75
$GNRMC,043044.600,A,2500.7854500,N,12132.4484300,E,0.02,62.93,270623,,,D,V*30
$GPHDT,,T*1B
$GNGGA,043044.800,2500.7854500,N,12132.4484300,E,2,51,0.53,20.24,M,15.25,M,0,3335*7D
$GNRMC,043044.800,A,2500.7854500,N,12132.4484300,E,0.03,62.93,270623,,,D,V*3F
$GPHDT,,T*1B
$GNGSA,A,3,19,196,195,199,17,06,20,09,11,194,12,04,1.14,0.53,1.01,1*09
$GNGSA,A,3,68,83,82,69,67,,,,,,,,1.14,0.53,1.01,2*01
$GNGSA,A,3,10,12,04,11,24,19,,,,,,,1.14,0.53,1.01,3*09
$GNGSA,A,3,33,40,07,10,08,14,28,43,13,41,42,,1.14,0.53,1.01,4*05
$GPGSV,4,1,15,19,71,085,33,196,70,117,41,195,69,051,41,199,60,167,28,1*53
$GPGSV,4,2,15,50,60,167,30,17,54,117,43,06,49,011,36,20,43,250,46,1*6F
$GPGSV,4,3,15,09,37,080,26,11,36,307,29,194,33,173,32,12,24,302,28,1*5A
$GPGSV,4,4,15,05,19,232,15,04,17,053,14,14,08,171,,1*51
$GPGSV,2,1,07,196,70,117,47,195,69,051,43,199,60,167,43,06,49,011,42,8*58
$GPGSV,2,2,07,09,37,080,20,11,36,307,34,04,17,053,31,8*5D
$GLGSV,2,1,08,68,70,109,38,83,41,008,30,82,35,067,18,69,33,185,21,1*78
$GLGSV,2,2,08,67,32,036,32,74,08,308,19,80,08,214,,84,07,312,,1*70
$GAGSV,3,1,09,10,50,358,35,12,44,037,16,04,43,142,36,11,40,319,37,7*7E
$GAGSV,3,2,09,24,39,224,23,19,32,066,17,25,29,290,,33,08,079,18,7*75
$GAGSV,3,3,09,36,04,284,,7*45
$GAGSV,2,1,06,10,50,358,35,12,44,037,24,04,43,142,41,11,40,319,35,1*75
$GAGSV,2,2,06,24,39,224,28,33,08,079,17,1*71
$GBGSV,4,1,14,33,76,094,42,40,75,179,38,07,72,223,39,10,69,262,37,1*79
$GBGSV,4,2,14,08,55,290,40,14,51,051,28,28,50,341,42,43,49,086,31,1*74
$GBGSV,4,3,14,13,47,275,30,41,41,201,43,42,26,041,32,11,25,101,,1*73
$GBGSV,4,4,14,37,10,256,,23,08,207,,1*7B
$GBGSV,2,1,06,33,76,094,44,40,75,179,44,28,50,341,39,43,49,086,27,4*71
$GBGSV,2,2,06,41,41,201,46,42,26,041,21,4*70
$GNGGA,043045.000,2500.7854500,N,12132.4484300,E,2,51,0.53,20.26,M,15.25,M,1,3335*77
$GNRMC,043045.000,A,2500.7854500,N,12132.4484300,E,0.03,62.93,270623,,,D,V*36
$GPHDT,,T*1B
$GNGGA,043045.200,2500.7854500,N,12132.4484300,E,2,51,0.53,20.27,M,15.25,M,1,3335*74
$GNRMC,043045.200,A,2500.7854500,N,12132.4484300,E,0.03,62.93,270623,,,D,V*34
$GPHDT,,T*1B
$GNGGA,043045.400,2500.7854500,N,12132.4484300,E,2,51,0.53,20.29,M,15.25,M,1,3335*7C
$GNRMC,043045.400,A,2500.7854500,N,12132.4484300,E,0.03,62.93,270623,,,D,V*32
$GPHDT,,T*1B
$GNGGA,043045.600,2500.7854400,N,12132.4484300,E,2,52,0.53,20.30,M,15.25,M,0,3335*75
$GNRMC,043045.600,A,2500.7854400,N,12132.4484300,E,0.03,62.93,270623,,,D,V*31
$GPHDT,,T*1B
$GNGGA,043045.800,2500.7854400,N,12132.4484200,E,2,51,0.53,20.31,M,15.25,M,0,3335*78
$GNRMC,043045.800,A,2500.7854400,N,12132.4484200,E,0.03,62.93,270623,,,D,V*3E
$GPHDT,,T*1B
$GNGSA,A,3,19,196,195,199,17,06,20,09,11,194,12,04,1.14,0.53,1.01,1*09
$GNGSA,A,3,68,83,82,69,67,,,,,,,,1.14,0.53,1.01,2*01
$GNGSA,A,3,10,12,04,11,24,19,,,,,,,1.14,0.53,1.01,3*09
$GNGSA,A,3,33,40,07,10,08,14,28,43,13,41,42,,1.14,0.53,1.01,4*05
$GPGSV,4,1,15,19,71,085,32,196,70,117,41,195,69,051,41,50,60,167,31,1*6E
$GPGSV,4,2,15,199,60,167,29,17,54,117,43,06,49,011,36,20,43,250,46,1*53
$GPGSV,4,3,15,09,37,080,25,11,36,307,28,194,33,173,32,12,24,302,27,1*57
$GPGSV,4,4,15,05,19,232,15,04,17,053,17,14,08,171,,1*52
$GPGSV,2,1,08,196,70,117,47,195,69,051,43,199,60,167,43,06,49,011,42,8*57
$GPGSV,2,2,08,09,37,080,23,11,36,307,34,194,33,173,29,04,17,053,31,8*53
$GLGSV,2,1,07,68,70,109,39,83,41,008,30,82,35,067,18,69,33,185,18,1*7C
$GLGSV,2,2,07,67,32,036,33,74,08,308,20,80,08,214,,1*4F
$GAGSV,3,1,09,10,50,358,35,12,44,037,16,04,43,142,36,11,40,319,37,7*7E
$GAGSV,3,2,09,24,39,224,23,19,31,066,16,25,29,290,,33,08,079,18,7*77
$GAGSV,3,3,09,36,04,284,,7*45
$GAGSV,2,1,06,10,50,358,34,12,44,037,22,04,43,142,41,11,40,319,35,1*72
$GAGSV,2,2,06,24,39,224,27,33,08,079,16,1*7F
$GBGSV,4,1,14,33,76,094,40,40,75,179,37,07,72,223,39,10,69,262,37,1*74
$GBGSV,4,2,14,08,55,290,40,14,51,051,28,28,50,341,42,43,49,086,33,1*76
$GBGSV,4,3,14,13,47,275,29,41,41,201,43,42,26,041,32,11,25,101,,1*7B
$GBGSV,4,4,14,37,10,256,,23,08,207,,1*7B
$GBGSV,2,1,06,33,76,094,44,40,75,179,44,28,50,341,39,43,49,086,27,4*71
$GBGSV,2,2,06,41,41,201,46,42,26,041,21,4*70
$GNGGA,043046.000,2500.7854300,N,12132.4484200,E,2,51,0.53,20.32,M,15.25,M,1,3335*76
$GNRMC,043046.000,A,2500.7854300,N,12132.4484200,E,0.03,62.93,270623,,,D,V*32
$GPHDT,,T*1B
$GNGGA,043046.200,2500.7854200,N,12132.4484200,E,2,51,0.53,20.33,M,15.25,M,1,3335*74
$GNRMC,043046.200,A,2500.7854200,N,12132.4484200,E,0.03,62.93,270623,,,D,V*31
$GPHDT,,T*1B
$GNGGA,043046.400,2500.7854200,N,12132.4484200,E,2,51,0.53,20.33,M,15.25,M,1,3335*72
$GNRMC,043046.400,A,2500.7854200,N,12132.4484200,E,0.03,62.93,270623,,,D,V*37
$GPHDT,,T*1B
$GNGGA,043046.600,2500.7854200,N,12132.4484100,E,2,52,0.53,20.34,M,15.25,M,0,3335*76
$GNRMC,043046.600,A,2500.7854200,N,12132.4484100,E,0.03,62.93,270623,,,D,V*36
$GPHDT,,T*1B
$GNGGA,043046.800,2500.7854200,N,12132.4484100,E,2,52,0.53,20.35,M,15.25,M,0,3335*79
$GNRMC,043046.800,A,2500.7854200,N,12132.4484100,E,0.03,62.93,270623,,,D,V*38
$GPHDT,,T*1B
$GNGSA,A,3,19,196,195,199,17,06,20,09,11,194,12,04,1.14,0.53,1.01,1*09
$GNGSA,A,3,68,83,82,69,67,,,,,,,,1.14,0.53,1.01,2*01
$GNGSA,A,3,10,12,04,11,24,19,,,,,,,1.14,0.53,1.01,3*09
$GNGSA,A,3,33,40,07,10,08,14,28,43,13,41,42,,1.14,0.53,1.01,4*05
$GPGSV,4,1,15,19,71,085,30,196,70,117,41,195,69,051,41,50,60,167,31,1*6C
$GPGSV,4,2,15,199,60,167,29,17,54,117,44,06,49,011,37,20,43,250,46,1*55
$GPGSV,4,3,15,09,37,080,26,11,36,307,28,194,33,173,32,12,24,302,27,1*54
$GPGSV,4,4,15,05,19,232,15,04,17,053,19,14,08,171,,1*5C
$GPGSV,2,1,08,196,70,117,47,195,69,051,43,199,60,167,43,06,49,011,42,8*57
$GPGSV,2,2,08,09,37,080,24,11,36,307,34,194,33,173,28,04,17,053,31,8*55
$GLGSV,2,1,07,68,70,109,39,83,41,008,29,82,35,067,18,69,33,185,15,1*79
$GLGSV,2,2,07,67,32,036,33,74,08,308,20,80,08,214,,1*4F
$GAGSV,3,1,09,10,50,358,35,12,44,037,16,04,43,142,36,11,40,319,37,7*7E
$GAGSV,3,2,09,24,38,224,24,19,31,066,17,25,29,290,,33,08,079,19,7*71
$GAGSV,3,3,09,36,04,284,,7*45
$GAGSV,2,1,05,10,50,358,34,12,44,037,24,04,43,142,41,11,40,319,35,1*77
$GAGSV,2,2,05,24,38,224,26,1*4D
$GBGSV,4,1,13,33,76,094,40,40,75,179,36,07,72,223,39,10,69,262,37,1*72
$GBGSV,4,2,13,08,55,290,40,14,51,051,28,28,50,341,42,43,49,086,34,1*76
$GBGSV,4,3,13,13,47,275,29,41,41,201,43,42,26,041,32,11,25,101,,1*7C
$GBGSV,4,4,13,23,08,207,,1*48
$GBGSV,2,1,06,33,76,094,44,40,75,179,44,28,50,341,39,43,49,086,27,4*71
$GBGSV,2,2,06,41,41,201,46,42,26,041,21,4*70
$GNGGA,043047.000,2500.7854100,N,12132.4484100,E,2,52,0.53,20.37,M,15.25,M,1,3335*70
$GNRMC,043047.000,A,2500.7854100,N,12132.4484100,E,0.02,62.93,270623,,,D,V*33
$GPHDT,,T*1B
$GNGGA,043047.200,2500.7854100,N,12132.4484100,E,2,52,0.53,20.38,M,15.25,M,1,3335*7D
$GNRMC,043047.200,A,2500.7854100,N,12132.4484100,E,0.03,62.93,270623,,,D,V*30
$GPHDT,,T*1B
$GNGGA,043047.400,2500.7854000,N,12132.4484100,E,2,52,0.53,20.39,M,15.25,M,1,3335*7B
$GNRMC,043047.400,A,2500.7854000,N,12132.4484100,E,0.03,62.93,270623,,,D,V*37
$GPHDT,,T*1B
$GNGGA,043047.600,2500.7854000,N,12132.4484100,E,2,52,0.53,20.40,M,15.25,M,0,3335*76
$GNRMC,043047.600,A,2500.7854000,N,12132.4484100,E,0.03,62.93,270623,,,D,V*35
$GPHDT,,T*1B
$GNGGA,043047.800,2500.7853900,N,12132.4484100,E,2,52,0.53,20.40,M,15.25,M,0,3335*76
$GNRMC,043047.800,A,2500.7853900,N,12132.4484100,E,0.03,62.93,270623,,,D,V*35
$GPHDT,,T*1B
$GNGSA,A,3,19,196,195,199,17,06,20,09,11,194,12,04,1.14,0.53,1.01,1*09
$GNGSA,A,3,68,83,82,69,67,,,,,,,,1.14,0.53,1.01,2*01
$GNGSA,A,3,10,12,04,11,24,19,,,,,,,1.14,0.53,1.01,3*09
$GNGSA,A,3,33,40,07,10,08,14,28,43,13,41,42,,1.14,0.53,1.01,4*05
$GPGSV,4,1,15,19,71,085,32,196,70,117,41,195,69,051,41,50,60,167,30,1*6F
$GPGSV,4,2,15,199,60,167,28,17,54,117,44,06,49,011,37,20,43,250,46,1*54
$GPGSV,4,3,15,09,37,080,28,11,36,307,27,194,33,173,31,12,24,302,27,1*56
$GPGSV,4,4,15,05,19,232,15,04,17,053,20,14,08,171,,1*56
$GPGSV,2,1,08,196,70,117,47,195,69,051,42,199,60,167,43,06,49,011,42,8*56
$GPGSV,2,2,08,09,37,080,23,11,36,307,34,194,33,173,25,04,17,053,31,8*5F
$GLGSV,2,1,07,68,70,109,38,83,41,008,29,82,35,067,18,69,33,185,20,1*7E
$GLGSV,2,2,07,67,32,036,33,74,08,308,20,80,08,214,,1*4F
$GAGSV,3,1,09,10,50,358,34,12,44,037,15,04,43,142,36,11,40,319,37,7*7C
$GAGSV,3,2,09,24,38,224,23,19,31,066,17,25,29,290,,33,08,079,19,7*76
$GAGSV,3,3,09,36,04,284,,7*45
$GAGSV,2,1,05,10,50,358,34,12,44,037,25,04,43,142,41,11,40,319,35,1*76
$GAGSV,2,2,05,24,38,224,27,1*4C
$GBGSV,4,1,14,33,76,094,41,40,75,179,36,07,72,223,39,10,69,262,37,1*74
$GBGSV,4,2,14,08,55,290,40,14,51,051,26,28,50,341,42,43,49,086,34,1*7F
$GBGSV,4,3,14,13,47,275,31,41,41,201,43,42,26,041,32,11,25,101,,1*72
$GBGSV,4,4,14,37,10,256,,23,08,207,,1*7B
$GBGSV,2,1,06,33,76,094,44,40,75,179,44,28,50,341,39,43,49,086,27,4*71
$GBGSV,2,2,06,41,41,201,45,42,26,041,21,4*73
$GNGGA,043048.000,2500.7853800,N,12132.4484200,E,2,52,0.53,20.42,M,15.25,M,1,3335*70
$GNRMC,043048.000,A,2500.7853800,N,12132.4484200,E,0.03,62.93,270623,,,D,V*30
$GPHDT,,T*1B
$GNGGA,043048.200,2500.7853800,N,12132.4484100,E,2,52,0.53,20.44,M,15.25,M,1,3335*77
$GNRMC,043048.200,A,2500.7853800,N,12132.4484100,E,0.03,62.93,270623,,,D,V*31
$GPHDT,,T*1B
$GNGGA,043048.400,2500.7853800,N,12132.4484100,E,2,52,0.53,20.47,M,15.25,M,1,3335*72
$GNRMC,043048.400,A,2500.7853800,N,12132.4484100,E,0.03,62.93,270623,,,D,V*37
$GPHDT,,T*1B
$GNGGA,043048.600,2500.7853700,N,12132.4484200,E,2,52,0.53,20.49,M,15.25,M,0,3335*73
$GNRMC,043048.600,A,2500.7853700,N,12132.4484200,E,0.03,62.93,270623,,,D,V*39
$GPHDT,,T*1B
$GNGGA,043048.800,2500.7853700,N,12132.4484200,E,2,52,0.53,20.51,M,15.25,M,0,3335*74
$GNRMC,043048.800,A,2500.7853700,N,12132.4484200,E,0.03,62.93,270623,,,D,V*37
$GPHDT,,T*1B
$GNGSA,A,3,19,196,195,199,17,06,20,09,194,12,04,11,1.14,0.53,1.01,1*09
$GNGSA,A,3,68,83,82,69,67,,,,,,,,1.14,0.53,1.01,2*01
$GNGSA,A,3,10,12,04,11,24,19,,,,,,,1.14,0.53,1.01,3*09
$GNGSA,A,3,33,40,07,10,08,14,28,43,13,41,42,,1.14,0.53,1.01,4*05
$GPGSV,4,1,15,19,71,085,33,196,70,117,41,195,69,051,41,50,60,167,30,1*6E
$GPGSV,4,2,15,199,60,167,28,17,54,117,44,06,49,011,36,20,43,250,46,1*55
$GPGSV,4,3,15,09,37,080,29,11,36,307,25,194,33,173,30,12,24,302,27,1*54
$GPGSV,4,4,15,05,19,232,15,04,17,053,21,14,08,171,,1*57
$GPGSV,2,1,08,196,70,117,47,195,69,051,42,199,60,167,43,06,49,011,42,8*56
$GPGSV,2,2,08,09,37,080,23,11,36,307,35,194,33,173,25,04,17,053,31,8*5E
$GLGSV,2,1,06,68,70,109,38,83,41,008,29,82,35,067,18,69,33,185,22,1*7D
$GLGSV,2,2,06,67,32,036,33,74,08,308,20,1*79
$GAGSV,3,1,09,10,50,358,34,12,44,037,15,04,43,142,36,11,40,319,37,7*7C
$GAGSV,3,2,09,24,38,224,24,19,31,066,17,25,29,290,,33,08,079,18,7*70
$GAGSV,3,3,09,36,04,284,,7*45
$GAGSV,2,1,05,10,50,358,35,12,44,037,26,04,43,142,41,11,40,319,35,1*74
$GAGSV,2,2,05,24,38,224,27,1*4C
$GBGSV,4,1,14,33,76,094,41,40,75,179,36,07,72,223,39,10,69,262,37,1*74
$GBGSV,4,2,14,08,55,290,40,14,51,051,26,28,50,341,42,43,49,086,34,1*7F
$GBGSV,4,3,14,13,47,275,31,41,41,201,43,42,26,041,32,37,10,256,,1*71
$GBGSV,4,4,14,34,08,113,,23,08,207,,1*73
$GBGSV,2,1,06,33,76,094,44,40,75,179,44,28,50,341,39,43,49,086,26,4*70
$GBGSV,2,2,06,41,41,201,45,42,26,041,21,4*73
$GNGGA,043049.000,2500.7853600,N,12132.4484300,E,2,51,0.53,20.51,M,15.25,M,1,3335*7F
$GNRMC,043049.000,A,2500.7853600,N,12132.4484300,E,0.03,62.93,270623,,,D,V*3E
$GPHDT,,T*1B
$GNGGA,043049.200,2500.7853600,N,12132.4484300,E,2,52,0.53,20.52,M,15.25,M,1,3335*7D
$GNRMC,043049.200,A,2500.7853600,N,12132.4484300,E,0.03,62.93,270623,,,D,V*3C
$GPHDT,,T*1B
$GNGGA,043049.400,2500.7853600,N,12132.4484300,E,2,52,0.53,20.54,M,15.25,M,1,3335*7D
$GNRMC,043049.400,A,2500.7853600,N,12132.4484300,E,0.03,62.93,270623,,,D,V*3A
$GPHDT,,T*1B
$GNGGA,043049.600,2500.7853600,N,12132.4484300,E,2,52,0.53,20.54,M,15.25,M,0,3335*7E
$GNRMC,043049.600,A,2500.7853600,N,12132.4484300,E,0.03,62.93,270623,,,D,V*38
$GPHDT,,T*1B
$GNGGA,043049.800,2500.7853500,N,12132.4484200,E,2,52,0.53,20.55,M,15.25,M,0,3335*73
$GNRMC,043049.800,A,2500.7853500,N,12132.4484200,E,0.03,62.93,270623,,,D,V*34
$GPHDT,,T*1B
$GNGSA,A,3,19,196,195,199,17,06,20,09,11,194,12,04,1.14,0.53,1.01,1*09
$GNGSA,A,3,68,83,82,69,67,,,,,,,,1.14,0.53,1.01,2*01
$GNGSA,A,3,10,12,04,11,24,19,,,,,,,1.14,0.53,1.01,3*09
$GNGSA,A,3,33,40,07,10,08,14,28,43,13,41,42,,1.14,0.53,1.01,4*05
$GPGSV,4,1,15,19,71,085,34,196,70,117,41,195,69,051,41,50,60,167,30,1*69
$GPGSV,4,2,15,199,60,167,28,17,54,117,44,06,49,011,36,20,43,250,46,1*55
$GPGSV,4,3,15,09,37,080,30,11,36,307,28,194,33,173,30,12,24,302,26,1*50
$GPGSV,4,4,15,05,19,232,14,04,17,053,21,14,08,171,,1*56
$GPGSV,2,1,08,196,70,117,47,195,69,051,42,199,60,167,43,06,49,011,42,8*56
$GPGSV,2,2,08,09,37,080,22,11,36,307,35,194,33,173,25,04,17,053,31,8*5F
$GLGSV,2,1,06,68,70,108,38,83,41,008,29,82,35,067,15,69,33,185,24,1*77
$GLGSV,2,2,06,67,32,036,33,74,08,308,19,1*73
$GAGSV,2,1,08,10,50,358,34,12,44,037,17,04,43,142,36,11,40,319,37,7*7E
$GAGSV,2,2,08,24,38,224,24,19,31,066,18,25,29,290,,33,08,079,17,7*70
$GAGSV,2,1,05,10,50,358,35,12,44,037,26,04,43,142,41,11,40,319,35,1*74
$GAGSV,2,2,05,24,38,224,27,1*4C
$GBGSV,4,1,14,33,76,094,41,40,75,179,36,07,72,223,39,10,69,262,37,1*74
$GBGSV,4,2,14,08,55,290,40,14,51,051,26,28,50,341,42,43,49,086,34,1*7F
$GBGSV,4,3,14,13,47,275,31,41,41,201,43,42,26,041,32,11,25,101,,1*72
$GBGSV,4,4,14,37,10,256,,23,08,207,,1*7B
$GBGSV,2,1,06,33,76,094,44,40,75,179,44,28,50,341,39,43,49,086,26,4*70
$GBGSV,2,2,06,41,41,201,45,42,26,041,21,4*73
$GNGGA,043050.000,2500.7853500,N,12132.4484200,E,2,52,0.53,20.56,M,15.25,M,1,3335*71
$GNRMC,043050.000,A,2500.7853500,N,12132.4484200,E,0.02,62.93,270623,,,D,V*35
$GPHDT,,T*1B
$GNGGA,043050.200,2500.7853500,N,12132.4484200,E,2,53,0.53,20.57,M,15.25,M,1,3335*73
$GNRMC,043050.200,A,2500.7853500,N,12132.4484200,E,0.02,62.93,270623,,,D,V*37
$GPHDT,,T*1B
$GNGGA,043050.400,2500.7853500,N,12132.4484200,E,2,51,0.54,20.58,M,15.25,M,1,3335*7F
$GNRMC,043050.400,A,2500.7853500,N,12132.4484200,E,0.02,62.93,270623,,,D,V*31
$GPHDT,,T*1B
$GNGGA,043050.600,2500.7853500,N,12132.4484200,E,2,52,0.52,20.59,M,15.25,M,0,3335*78
$GNRMC,043050.600,A,2500.7853500,N,12132.4484200,E,0.02,62.93,270623,,,D,V*33
$GPHDT,,T*1B
$GNGGA,043050.800,2500.7853500,N,12132.4484200,E,2,52,0.52,20.61,M,15.25,M,0,3335*7D
$GNRMC,043050.800,A,2500.7853500,N,12132.4484200,E,0.02,62.93,270623,,,D,V*3D
$GPHDT,,T*1B
$GNGSA,A,3,19,196,195,199,17,06,20,09,11,194,12,04,1.13,0.52,1.00,1*0E
$GNGSA,A,3,68,83,69,67,,,,,,,,,1.13,0.52,1.00,2*0C
$GNGSA,A,3,10,12,04,11,24,19,25,,,,,,1.13,0.52,1.00,3*09
$GNGSA,A,3,33,40,07,10,08,14,28,43,13,41,42,,1.13,0.52,1.00,4*02
$GPGSV,4,1,15,19,71,085,34,196,70,117,41,195,69,051,41,50,60,167,30,1*69
$GPGSV,4,2,15,199,60,167,28,17,54,117,44,06,49,011,36,20,43,250,46,1*55
$GPGSV,4,3,15,09,37,080,29,11,36,307,27,194,33,173,30,12,24,302,26,1*57
$GPGSV,4,4,15,05,19,232,14,04,17,053,18,14,08,171,,1*5C
$GPGSV,2,1,07,196,70,117,47,195,69,051,42,199,60,167,43,06,49,011,42,8*59
$GPGSV,2,2,07,09,37,080,23,11,36,307,35,04,17,053,31,8*5F
$GLGSV,2,1,07,68,70,108,38,83,41,008,29,82,35,067,14,69,33,185,24,1*77
$GLGSV,2,2,07,67,32,036,34,73,16,265,,74,08,308,18,1*46
$GAGSV,3,1,09,10,50,358,33,12,44,037,18,04,43,142,36,11,40,319,37,7*76
$GAGSV,3,2,09,24,38,224,24,19,31,066,18,25,29,290,18,09,12,188,,7*72
$GAGSV,3,3,09,33,08,079,15,7*48
$GAGSV,2,1,05,10,50,358,34,12,44,037,26,04,43,142,41,11,40,319,36,1*76
$GAGSV,2,2,05,24,38,224,27,1*4C
$GBGSV,4,1,14,33,76,094,41,40,75,179,36,07,72,223,39,10,69,262,37,1*74
$GBGSV,4,2,14,08,55,290,40,14,51,051,23,28,50,341,42,43,49,086,34,1*7A
$GBGSV,4,3,14,13,47,275,30,41,41,201,43,42,26,041,32,11,25,101,,1*73
$GBGSV,4,4,14,37,10,256,,23,08,207,,1*7B
$GBGSV,2,1,06,33,76,094,44,40,75,179,44,28,50,341,39,43,49,086,25,4*73
$GBGSV,2,2,06,41,41,201,45,42,26,041,21,4*73
$GNGGA,043051.000,2500.7853500,N,12132.4484200,E,2,52,0.52,20.62,M,15.25,M,1,3335*76
$GNRMC,043051.000,A,2500.7853500,N,12132.4484200,E,0.02,62.93,270623,,,D,V*34
$GPHDT,,T*1B
