$FW : RTK35X,V1.1X0314AS,Lib20210517,1*54
$Tool : LOCOSYS , GNSS Firebird , v1.0.0.19*39
$---------------------------------------------------*2D
$GNGGA,042958.800,2500.7858900,N,12132.4488300,E,2,51,0.52,19.23,M,15.25,M,0,3335*78
$GNRMC,042958.800,A,2500.7858900,N,12132.4488300,E,0.05,62.93,270623,,,D,V*30
$GPHDT,,T*1B
$GNGSA,A,3,19,196,195,199,17,06,20,09,11,194,12,04,0.88,0.52,0.71,1*0A
$GNGSA,A,3,68,83,82,69,67,,,,,,,,0.88,0.52,0.71,2*02
$GNGSA,A,3,10,04,24,11,19,25,12,,,,,,0.88,0.52,0.71,3*0D
$GNGSA,A,3,33,40,07,10,08,28,43,13,41,42,,,0.88,0.52,0.71,4*03
$GPGSV,4,1,15,19,71,083,29,196,70,118,38,195,69,051,42,199,60,167,25,1*51
$GPGSV,4,2,15,50,60,167,28,17,55,116,38,06,49,010,34,20,43,249,44,1*63
$GPGSV,4,3,15,09,37,081,18,11,35,306,23,194,33,173,32,12,24,302,25,1*53
$GPGSV,4,4,15,05,18,232,16,04,17,053,18,14,08,171,,1*5F
$GPGSV,2,1,08,196,70,118,45,195,69,051,41,199,60,167,44,06,49,010,38,8*53
$GPGSV,2,2,08,09,37,081,24,11,35,306,30,194,33,173,29,04,17,053,26,8*55
$GLGSV,2,1,08,68,70,110,36,83,41,008,22,82,35,067,24,69,33,185,26,1*75
$GLGSV,2,2,08,67,33,037,38,74,08,308,17,80,08,214,,84,07,312,,1*74
$GAGSV,3,1,09,10,50,358,31,12,44,036,,04,42,142,35,24,39,224,28,7*77
$GAGSV,3,2,09,11,39,319,35,19,32,067,13,25,29,290,14,09,11,188,,7*7C
$GAGSV,3,3,09,33,09,079,14,7*48
$GAGSV,2,1,06,10,50,358,37,12,44,036,25,04,42,142,39,11,39,319,39,1*7B
$GAGSV,2,2,06,24,39,224,23,19,32,067,17,1*74
$GBGSV,4,1,14,33,76,095,41,40,75,179,31,07,72,223,38,10,69,262,36,1*72
$GBGSV,4,2,14,08,55,289,39,14,52,051,,28,50,341,43,43,49,085,36,1*7E
$GBGSV,4,3,14,13,47,275,36,41,40,201,44,42,26,041,35,11,25,100,31,1*77
$GBGSV,4,4,14,37,10,256,,23,08,207,,1*7B
$GBGSV,2,1,06,33,76,095,43,40,75,179,42,28,50,341,40,43,49,085,18,4*70
$GBGSV,2,2,06,41,40,201,46,42,26,041,15,4*76
$GNGGA,042959.000,2500.7858900,N,12132.4488200,E,2,53,0.52,19.23,M,15.25,M,1,3335*73
$GNRMC,042959.000,A,2500.7858900,N,12132.4488200,E,0.07,62.93,270623,,,D,V*3A
$GPHDT,,T*1B
$GNGGA,042959.200,2500.7858900,N,12132.4488200,E,2,54,0.50,19.23,M,15.25,M,1,3335*74
$GNRMC,042959.200,A,2500.7858900,N,12132.4488200,E,0.06,62.93,270623,,,D,V*39
$GPHDT,,T*1B
$GNGGA,042959.400,2500.7858900,N,12132.4488100,E,2,53,0.52,19.23,M,15.25,M,1,3335*74
$GNRMC,042959.400,A,2500.7858900,N,12132.4488100,E,0.06,62.93,270623,,,D,V*3C
$GPHDT,,T*1B
$GNGGA,042959.600,2500.7858900,N,12132.4488000,E,2,54,0.52,19.22,M,15.25,M,1,3335*71
$GNRMC,042959.600,A,2500.7858900,N,12132.4488000,E,0.07,62.93,270623,,,D,V*3E
$GPHDT,,T*1B
$GNGGA,042959.800,2500.7858900,N,12132.4487900,E,2,54,0.52,19.22,M,15.25,M,1,3335*79
$GNRMC,042959.800,A,2500.7858900,N,12132.4487900,E,0.08,62.93,270623,,,D,V*39
$GPHDT,,T*1B
$GNGSA,A,3,19,196,195,199,17,06,20,09,11,194,12,04,0.88,0.52,0.71,1*0A
$GNGSA,A,3,68,83,82,67,69,,,,,,,,0.88,0.52,0.71,2*02
$GNGSA,A,3,10,12,04,11,24,19,25,,,,,,0.88,0.52,0.71,3*0D
$GNGSA,A,3,33,40,07,10,08,28,43,13,41,42,,,0.88,0.52,0.71,4*03
$GPGSV,4,1,15,19,71,083,29,196,70,118,39,195,69,051,42,199,60,167,25,1*50
$GPGSV,4,2,15,50,60,167,28,17,55,116,42,06,49,010,34,20,43,249,45,1*6F
$GPGSV,4,3,15,09,37,081,15,11,35,306,24,194,33,173,31,12,24,302,25,1*5A
$GPGSV,4,4,15,05,18,232,16,04,17,053,24,14,08,171,,1*50
$GPGSV,2,1,08,196,70,118,45,195,69,051,40,199,60,167,44,06,49,010,38,8*52
$GPGSV,2,2,08,09,37,081,25,11,35,306,31,194,33,173,24,04,17,053,24,8*5A
$GLGSV,2,1,08,68,70,110,37,83,41,008,23,82,35,067,26,67,33,037,38,1*7E
$GLGSV,2,2,08,69,33,185,25,74,08,308,17,80,08,214,,84,07,312,,1*7E
$GAGSV,3,1,10,10,50,358,29,12,44,036,19,04,42,142,35,11,39,319,35,7*7B
$GAGSV,3,2,10,24,39,224,27,19,32,067,14,25,29,290,15,09,11,188,,7*78
$GAGSV,3,3,10,33,09,079,14,36,04,284,,7*7F
$GAGSV,2,1,06,10,50,358,38,12,44,036,25,04,42,142,38,11,39,319,39,1*75
$GAGSV,2,2,06,24,39,224,23,19,32,067,17,1*74
$GBGSV,4,1,14,33,76,095,42,40,75,179,30,07,72,223,38,10,69,262,36,1*70
$GBGSV,4,2,14,08,55,289,39,14,52,051,,28,50,341,44,43,49,085,37,1*78
$GBGSV,4,3,14,13,47,275,35,41,40,201,44,42,26,041,35,37,10,256,,1*74
$GBGSV,4,4,14,34,08,113,,23,08,207,,1*73
$GBGSV,2,1,06,33,76,095,43,40,75,179,42,28,50,341,40,43,49,085,16,4*7E
$GBGSV,2,2,06,41,40,201,46,42,26,041,16,4*75
$GNGGA,043000.000,2500.7858900,N,12132.4487900,E,2,54,0.52,19.22,M,15.25,M,2,3335*76
$GNRMC,043000.000,A,2500.7858900,N,12132.4487900,E,0.06,62.93,270623,,,D,V*3B
$GPHDT,,T*1B
$GNGGA,043000.200,2500.7858900,N,12132.4487900,E,2,54,0.52,19.22,M,15.25,M,1,3335*77
$GNRMC,043000.200,A,2500.7858900,N,12132.4487900,E,0.05,62.93,270623,,,D,V*3A
$GPHDT,,T*1B
$GNGGA,043000.400,2500.7858800,N,12132.4487900,E,2,54,0.52,19.22,M,15.25,M,1,3335*70
$GNRMC,043000.400,A,2500.7858800,N,12132.4487900,E,0.03,62.93,270623,,,D,V*3B
$GPHDT,,T*1B
$GNGGA,043000.600,2500.7858800,N,12132.4487700,E,2,53,0.52,19.22,M,15.25,M,0,3335*7A
$GNRMC,043000.600,A,2500.7858800,N,12132.4487700,E,0.06,62.93,270623,,,D,V*32
$GPHDT,,T*1B
$GNGGA,043000.800,2500.7858800,N,12132.4487700,E,2,52,0.52,19.22,M,15.25,M,0,3335*75
$GNRMC,043000.800,A,2500.7858800,N,12132.4487700,E,0.05,62.93,270623,,,D,V*3F
$GPHDT,,T*1B
$GNGSA,A,3,19,196,195,199,17,06,20,11,194,12,04,09,0.88,0.52,0.71,1*0A
$GNGSA,A,3,68,83,82,69,67,,,,,,,,0.88,0.52,0.71,2*02
$GNGSA,A,3,10,12,04,11,24,19,25,,,,,,0.88,0.52,0.71,3*0D
$GNGSA,A,3,33,40,07,10,08,28,43,13,41,42,,,0.88,0.52,0.71,4*03
$GPGSV,4,1,15,19,71,083,29,196,70,118,41,195,69,051,42,50,60,167,29,1*67
$GPGSV,4,2,15,199,60,167,26,17,55,116,43,06,49,010,35,20,43,249,45,1*55
$GPGSV,4,3,15,09,37,081,14,11,35,306,26,194,33,173,33,12,24,302,25,1*5B
$GPGSV,4,4,15,05,18,232,16,04,17,053,25,14,08,171,,1*51
$GPGSV,2,1,08,196,70,118,46,195,69,051,40,199,60,167,44,06,49,010,37,8*5E
$GPGSV,2,2,08,09,37,081,24,11,35,306,30,194,33,173,30,04,17,053,30,8*5A
$GLGSV,2,1,07,68,70,110,38,83,41,008,23,82,35,067,25,69,33,185,25,1*77
$GLGSV,2,2,07,67,33,037,38,74,08,308,18,80,08,214,,1*4F
$GAGSV,3,1,10,10,50,358,30,12,44,036,20,04,42,142,36,11,39,319,35,7*7A
$GAGSV,3,2,10,24,39,224,28,19,32,067,15,25,29,290,12,09,11,188,,7*71
$GAGSV,3,3,10,33,09,079,13,36,04,284,,7*78
$GAGSV,2,1,06,10,50,358,38,12,44,036,26,04,42,142,35,11,39,319,39,1*7B
$GAGSV,2,2,06,24,39,224,23,19,32,067,19,1*7A
$GBGSV,4,1,14,33,76,095,42,40,75,179,28,07,72,223,37,10,69,262,37,1*77
$GBGSV,4,2,14,08,55,289,39,14,52,051,,28,50,341,44,43,49,085,38,1*77
$GBGSV,4,3,14,13,47,275,34,41,40,201,44,42,26,041,35,37,10,256,,1*75
$GBGSV,4,4,14,23,08,207,,34,08,113,,1*73
$GBGSV,2,1,06,33,76,095,43,40,75,179,42,28,50,341,41,43,49,085,17,4*7E
$GBGSV,2,2,06,41,40,201,46,42,26,041,16,4*75
$GNGGA,043001.000,2500.7858700,N,12132.4487700,E,2,53,0.52,19.22,M,15.25,M,1,3335*73
$GNRMC,043001.000,A,2500.7858700,N,12132.4487700,E,0.05,62.93,270623,,,D,V*39
$GPHDT,,T*1B
$GNGGA,043001.200,2500.7858700,N,12132.4487600,E,2,52,0.52,19.22,M,15.25,M,1,3335*71
$GNRMC,043001.200,A,2500.7858700,N,12132.4487600,E,0.03,62.93,270623,,,D,V*3C
$GPHDT,,T*1B
$GNGGA,043001.400,2500.7858700,N,12132.4487600,E,2,52,0.52,19.22,M,15.25,M,1,3335*77
$GNRMC,043001.400,A,2500.7858700,N,12132.4487600,E,0.03,62.93,270623,,,D,V*3A
$GPHDT,,T*1B
$GNGGA,043001.600,2500.7858600,N,12132.4487600,E,2,52,0.52,19.22,M,15.25,M,0,3335*75
$GNRMC,043001.600,A,2500.7858600,N,12132.4487600,E,0.03,62.93,270623,,,D,V*39
$GPHDT,,T*1B
$GNGGA,043001.800,2500.7858600,N,12132.4487500,E,2,52,0.52,19.21,M,15.25,M,0,3335*7B
$GNRMC,043001.800,A,2500.7858600,N,12132.4487500,E,0.02,62.93,270623,,,D,V*35
$GPHDT,,T*1B
$GNGSA,A,3,19,196,195,199,17,06,20,11,194,12,04,09,0.88,0.52,0.71,1*0A
$GNGSA,A,3,68,83,82,67,69,,,,,,,,0.88,0.52,0.71,2*02
$GNGSA,A,3,10,12,04,11,24,19,25,,,,,,0.88,0.52,0.71,3*0D
$GNGSA,A,3,33,40,07,10,08,28,43,13,41,42,,,0.88,0.52,0.71,4*03
$GPGSV,4,1,15,19,71,083,28,196,70,118,41,195,69,051,42,50,60,167,26,1*69
$GPGSV,4,2,15,199,60,167,21,17,55,116,43,06,49,010,36,20,43,249,45,1*51
$GPGSV,4,3,15,09,37,081,13,11,35,306,26,194,33,173,33,12,24,302,24,1*5D
$GPGSV,4,4,15,05,18,232,16,04,17,053,18,14,08,171,,1*5F
$GPGSV,2,1,08,196,70,118,47,195,69,051,40,199,60,167,44,06,49,010,37,8*5F
$GPGSV,2,2,08,09,37,081,24,11,35,306,28,194,33,173,31,04,17,053,31,8*53
$GLGSV,2,1,06,68,70,110,38,83,41,008,23,82,35,067,23,67,33,037,38,1*7A
$GLGSV,2,2,06,69,33,185,28,74,08,308,17,1*71
$GAGSV,3,1,10,10,50,358,30,12,44,036,23,04,42,142,36,11,39,319,36,7*7A
$GAGSV,3,2,10,24,39,224,27,19,32,067,13,25,29,290,12,09,11,188,,7*78
$GAGSV,3,3,10,33,09,079,14,36,04,284,,7*7F
$GAGSV,2,1,06,10,50,358,38,12,44,036,26,04,42,142,37,11,39,319,39,1*79
$GAGSV,2,2,06,24,39,224,24,19,32,067,20,1*77
$GBGSV,4,1,14,33,76,095,42,40,75,179,26,07,72,223,37,10,69,262,37,1*79
$GBGSV,4,2,14,08,55,289,39,14,52,051,,28,50,341,44,43,49,085,38,1*77
$GBGSV,4,3,14,13,47,275,35,41,40,201,44,42,26,041,34,37,10,256,,1*75
$GBGSV,4,4,14,23,08,207,,34,08,113,,1*73
$GBGSV,2,1,05,33,76,095,43,40,75,179,42,28,50,341,41,43,49,085,15,4*7F
$GBGSV,2,2,05,41,40,201,46,4*46
$GNGGA,043002.000,2500.7858600,N,12132.4487400,E,2,52,0.52,19.22,M,15.25,M,1,3335*73
$GNRMC,043002.000,A,2500.7858600,N,12132.4487400,E,0.03,62.93,270623,,,D,V*3E
$GPHDT,,T*1B
$GNGGA,043002.200,2500.7858600,N,12132.4487400,E,2,52,0.52,19.22,M,15.25,M,1,3335*71
$GNRMC,043002.200,A,2500.7858600,N,12132.4487400,E,0.01,62.93,270623,,,D,V*3E
$GPHDT,,T*1B
$GNGGA,043002.400,2500.7858600,N,12132.4487400,E,2,52,0.52,19.22,M,15.25,M,1,3335*77
$GNRMC,043002.400,A,2500.7858600,N,12132.4487400,E,0.01,62.93,270623,,,D,V*38
$GPHDT,,T*1B
$GNGGA,043002.600,2500.7858600,N,12132.4487300,E,2,52,0.52,19.22,M,15.25,M,1,3335*72
$GNRMC,043002.600,A,2500.7858600,N,12132.4487300,E,0.01,62.93,270623,,,D,V*3D
$GPHDT,,T*1B
$GNGGA,043002.800,2500.7858500,N,12132.4487300,E,2,52,0.52,19.22,M,15.25,M,0,3335*7E
$GNRMC,043002.800,A,2500.7858500,N,12132.4487300,E,0.01,62.93,270623,,,D,V*30
$GPHDT,,T*1B
$GNGSA,A,3,19,196,195,199,17,06,20,11,194,12,04,09,0.88,0.52,0.71,1*0A
$GNGSA,A,3,68,83,82,67,69,,,,,,,,0.88,0.52,0.71,2*02
$GNGSA,A,3,10,12,04,11,24,19,25,,,,,,0.88,0.52,0.71,3*0D
$GNGSA,A,3,33,40,07,10,08,28,43,13,41,42,,,0.88,0.52,0.71,4*03
$GPGSV,4,1,15,19,71,083,27,196,70,118,41,195,69,051,42,50,60,167,26,1*66
$GPGSV,4,2,15,199,60,167,23,17,55,116,43,06,49,010,36,20,43,249,45,1*53
$GPGSV,4,3,15,09,37,080,16,11,35,306,25,194,33,173,33,12,24,302,24,1*5A
$GPGSV,4,4,15,05,18,232,16,04,17,053,20,14,08,171,,1*54
$GPGSV,2,1,08,196,70,118,47,195,69,051,40,199,60,167,44,06,49,010,37,8*5F
$GPGSV,2,2,08,09,37,080,22,11,35,306,27,194,33,173,32,04,17,053,27,8*5F
$GLGSV,2,1,07,68,70,110,38,83,41,008,23,82,35,067,25,67,33,037,37,1*72
$GLGSV,2,2,07,69,33,185,28,74,08,308,16,80,08,214,,1*46
$GAGSV,3,1,09,10,50,358,29,12,44,036,20,04,42,142,35,11,39,319,36,7*7A
$GAGSV,3,2,09,24,39,224,28,19,32,067,13,25,29,290,13,33,09,079,14,7*74
$GAGSV,3,3,09,36,04,284,,7*45
$GAGSV,2,1,06,10,50,358,38,12,44,036,26,04,42,142,37,11,39,319,39,1*79
$GAGSV,2,2,06,24,39,224,23,19,32,067,21,1*71
$GBGSV,4,1,14,33,76,095,42,40,75,179,28,07,72,223,37,10,69,262,38,1*78
$GBGSV,4,2,14,08,55,289,39,14,52,051,,28,50,341,44,43,49,085,38,1*77
$GBGSV,4,3,14,13,47,275,36,41,40,201,44,42,26,041,34,37,10,256,,1*76
$GBGSV,4,4,14,23,08,207,,34,08,113,,1*73
$GBGSV,2,1,05,33,76,095,43,40,75,179,42,28,50,341,41,43,49,085,16,4*7C
$GBGSV,2,2,05,41,40,201,46,4*46
$GNGGA,043003.000,2500.7858400,N,12132.4487300,E,2,52,0.52,19.22,M,15.25,M,1,3335*77
$GNRMC,043003.000,A,2500.7858400,N,12132.4487300,E,0.01,62.93,270623,,,D,V*38
$GPHDT,,T*1B
$GNGGA,043003.200,2500.7858400,N,12132.4487300,E,2,52,0.52,19.22,M,15.25,M,1,3335*75
$GNRMC,043003.200,A,2500.7858400,N,12132.4487300,E,0.01,62.93,270623,,,D,V*3A
$GPHDT,,T*1B
$GNGGA,043003.400,2500.7858400,N,12132.4487300,E,2,52,0.52,19.22,M,15.25,M,1,3335*73
$GNRMC,043003.400,A,2500.7858400,N,12132.4487300,E,0.01,62.93,270623,,,D,V*3C
$GPHDT,,T*1B
$GNGGA,043003.600,2500.7858300,N,12132.4487200,E,2,52,0.52,19.23,M,15.25,M,0,3335*77
$GNRMC,043003.600,A,2500.7858300,N,12132.4487200,E,0.00,62.93,270623,,,D,V*39
$GPHDT,,T*1B
$GNGGA,043003.800,2500.7858300,N,12132.4487100,E,2,52,0.52,19.23,M,15.25,M,0,3335*7A
$GNRMC,043003.800,A,2500.7858300,N,12132.4487100,E,0.01,62.93,270623,,,D,V*35
$GPHDT,,T*1B
$GNGSA,A,3,19,196,195,199,17,06,20,11,194,12,04,09,0.88,0.52,0.71,1*0A
$GNGSA,A,3,68,83,82,69,67,,,,,,,,0.88,0.52,0.71,2*02
$GNGSA,A,3,10,12,04,24,11,19,25,,,,,,0.88,0.52,0.71,3*0D
$GNGSA,A,3,33,40,07,10,08,28,43,13,41,42,,,0.88,0.52,0.71,4*03
$GPGSV,4,1,15,19,71,083,28,196,70,118,41,195,69,051,42,199,60,167,24,1*5F
$GPGSV,4,2,15,50,60,167,26,17,55,116,43,06,49,010,35,20,43,249,45,1*61
$GPGSV,4,3,15,09,37,080,17,11,35,307,25,194,33,173,33,12,24,302,24,1*5A
$GPGSV,4,4,15,05,18,232,16,04,17,053,23,14,08,171,,1*57
$GPGSV,2,1,08,196,70,118,47,195,69,051,40,199,60,167,44,06,49,010,37,8*5F
$GPGSV,2,2,08,09,37,080,22,11,35,307,28,194,33,173,30,04,17,053,28,8*5C
$GLGSV,2,1,08,68,70,110,38,83,41,008,22,82,35,067,25,69,33,185,27,1*7B
$GLGSV,2,2,08,67,33,037,36,74,08,308,16,80,08,214,,84,07,312,,1*7B
$GAGSV,3,1,09,10,50,358,29,12,44,036,19,04,42,142,35,24,39,224,28,7*76
$GAGSV,3,2,09,11,39,319,36,19,32,067,12,25,29,290,14,33,09,079,14,7*74
$GAGSV,3,3,09,36,04,284,,7*45
$GAGSV,2,1,06,10,50,358,38,12,44,036,25,04,42,142,37,11,39,319,39,1*7A
$GAGSV,2,2,06,24,39,224,24,19,32,067,20,1*77
$GBGSV,4,1,14,33,76,095,42,40,75,179,28,07,72,223,37,10,69,262,38,1*78
$GBGSV,4,2,14,08,55,289,39,14,52,051,,28,50,341,44,43,49,085,38,1*77
$GBGSV,4,3,14,13,47,275,35,41,40,201,44,42,26,041,35,11,25,100,,1*76
$GBGSV,4,4,14,37,10,256,,23,08,207,,1*7B
$GBGSV,2,1,05,33,76,095,43,40,75,179,42,28,50,341,41,43,49,085,13,4*79
$GBGSV,2,2,05,41,40,201,46,4*46
$GNGGA,043004.000,2500.7858300,N,12132.4487100,E,2,52,0.52,19.23,M,15.25,M,1,3335*74
$GNRMC,043004.000,A,2500.7858300,N,12132.4487100,E,0.01,62.93,270623,,,D,V*3A
$GPHDT,,T*1B
$GNGGA,043004.200,2500.7858200,N,12132.4487100,E,2,52,0.52,19.23,M,15.25,M,1,3335*77
$GNRMC,043004.200,A,2500.7858200,N,12132.4487100,E,0.01,62.93,270623,,,D,V*39
$GPHDT,,T*1B
$GNGGA,043004.400,2500.7858200,N,12132.4487000,E,2,53,0.50,19.23,M,15.25,M,1,3335*73
$GNRMC,043004.400,A,2500.7858200,N,12132.4487000,E,0.01,62.93,270623,,,D,V*3E
$GPHDT,,T*1B
$GNGGA,043004.600,2500.7858100,N,12132.4487000,E,2,55,0.50,19.24,M,15.25,M,1,3335*73
$GNRMC,043004.600,A,2500.7858100,N,12132.4487000,E,0.02,62.93,270623,,,D,V*3C
$GPHDT,,T*1B
$GNGGA,043004.800,2500.7858000,N,12132.4486900,E,2,55,0.50,19.24,M,15.25,M,0,3335*75
$GNRMC,043004.800,A,2500.7858000,N,12132.4486900,E,0.01,62.93,270623,,,D,V*38
$GPHDT,,T*1B
$GNGSA,A,3,19,196,195,199,17,06,20,09,11,194,12,04,0.85,0.50,0.69,1*0C
$GNGSA,A,3,68,83,82,69,67,,,,,,,,0.85,0.50,0.69,2*04
$GNGSA,A,3,10,12,04,24,11,19,25,,,,,,0.85,0.50,0.69,3*0B
$GNGSA,A,3,33,40,07,10,08,28,43,13,41,42,11,,0.85,0.50,0.69,4*05
$GPGSV,4,1,15,19,71,084,29,196,70,118,41,195,69,051,42,199,60,167,24,1*59
$GPGSV,4,2,15,50,60,167,26,17,54,116,43,06,49,010,32,20,43,249,45,1*67
$GPGSV,4,3,15,09,37,080,23,11,35,307,24,194,33,173,34,12,24,302,24,1*5B
$GPGSV,4,4,15,05,18,232,15,04,17,053,22,14,08,171,,1*55
$GPGSV,2,1,08,196,70,118,47,195,69,051,40,199,60,167,43,06,49,010,37,8*58
$GPGSV,2,2,08,09,37,080,22,11,35,307,29,194,33,173,30,04,17,053,30,8*54
$GLGSV,2,1,08,68,70,110,37,83,41,008,22,82,35,067,23,69,33,185,26,1*73
$GLGSV,2,2,08,67,33,037,34,73,17,266,,74,08,308,17,80,08,214,,1*73
$GAGSV,3,1,09,10,50,358,29,12,44,036,22,04,42,142,35,24,39,224,27,7*71
$GAGSV,3,2,09,11,39,319,36,19,32,067,12,25,29,290,13,09,11,188,,7*79
$GAGSV,3,3,09,33,09,079,14,7*48
$GAGSV,2,1,07,10,50,358,38,12,44,036,25,04,42,142,37,11,39,319,39,1*7B
$GAGSV,2,2,07,24,39,224,24,19,32,067,21,25,29,290,15,1*44
$GBGSV,4,1,14,33,76,095,41,40,75,179,28,07,72,223,37,10,69,262,38,1*7B
$GBGSV,4,2,14,08,55,289,39,14,52,051,,28,50,341,44,43,49,085,38,1*77
$GBGSV,4,3,14,13,47,275,35,41,40,201,44,42,26,041,34,11,25,100,29,1*7C
$GBGSV,4,4,14,37,10,256,,23,08,207,,1*7B
$GBGSV,2,1,05,33,76,095,43,40,75,179,42,28,50,341,41,43,49,085,15,4*7F
$GBGSV,2,2,05,41,40,201,46,4*46
$GNGGA,043005.000,2500.7858000,N,12132.4486800,E,2,55,0.50,19.25,M,15.25,M,1,3335*7D
$GNRMC,043005.000,A,2500.7858000,N,12132.4486800,E,0.00,62.93,270623,,,D,V*31
$GPHDT,,T*1B
$GNGGA,043005.200,2500.7858000,N,12132.4486800,E,2,55,0.50,19.25,M,15.25,M,1,3335*7F
$GNRMC,043005.200,A,2500.7858000,N,12132.4486800,E,0.02,62.93,270623,,,D,V*31
$GPHDT,,T*1B
$GNGGA,043005.400,2500.7857800,N,12132.4486700,E,2,55,0.50,19.25,M,15.25,M,1,3335*71
$GNRMC,043005.400,A,2500.7857800,N,12132.4486700,E,0.02,62.93,270623,,,D,V*3F
$GPHDT,,T*1B
$GNGGA,043005.600,2500.7857700,N,12132.4486700,E,2,53,0.52,19.25,M,15.25,M,1,3335*78
$GNRMC,043005.600,A,2500.7857700,N,12132.4486700,E,0.05,62.93,270623,,,D,V*35
$GPHDT,,T*1B
$GNGGA,043005.800,2500.7857800,N,12132.4486700,E,2,54,0.52,19.25,M,15.25,M,1,3335*7E
$GNRMC,043005.800,A,2500.7857800,N,12132.4486700,E,0.01,62.93,270623,,,D,V*30
$GPHDT,,T*1B
$GNGSA,A,3,19,196,195,199,17,06,20,09,11,194,12,04,0.88,0.52,0.71,1*0A
$GNGSA,A,3,68,83,82,69,67,,,,,,,,0.88,0.52,0.71,2*02
$GNGSA,A,3,10,12,04,24,11,25,19,,,,,,0.88,0.52,0.71,3*0D
$GNGSA,A,3,33,40,07,10,08,28,43,13,41,42,,,0.88,0.52,0.71,4*03
$GPGSV,4,1,15,19,71,084,29,196,70,118,41,195,69,051,42,199,60,167,20,1*5D
$GPGSV,4,2,15,50,60,167,26,17,54,116,43,06,49,010,31,20,43,249,45,1*64
$GPGSV,4,3,15,09,37,080,26,11,35,307,24,194,33,173,34,12,24,302,25,1*5F
$GPGSV,4,4,15,05,18,232,15,04,17,053,21,14,08,171,,1*56
$GPGSV,2,1,08,196,70,118,47,195,69,051,39,199,60,167,43,06,49,010,37,8*56
$GPGSV,2,2,08,09,37,080,20,11,35,307,30,194,33,173,30,04,17,053,29,8*56
$GLGSV,2,1,08,68,70,110,36,83,41,008,25,82,35,067,21,69,33,185,26,1*77
$GLGSV,2,2,08,67,33,037,31,73,17,266,,74,08,308,18,80,08,214,,1*79
$GAGSV,3,1,09,10,50,358,29,12,44,036,22,04,42,142,37,24,39,224,27,7*73
$GAGSV,3,2,09,11,39,319,36,19,32,067,,25,29,290,14,09,11,188,,7*7D
$GAGSV,3,3,09,33,09,079,14,7*48
$GAGSV,2,1,07,10,50,358,38,12,44,036,24,04,42,142,35,11,39,319,39,1*78
$GAGSV,2,2,07,24,39,224,25,19,32,067,21,25,29,290,14,1*44
$GBGSV,4,1,14,33,76,095,41,40,75,179,26,07,72,223,37,10,69,262,38,1*75
$GBGSV,4,2,14,08,55,289,39,14,52,051,21,28,50,341,44,43,49,085,37,1*7B
$GBGSV,4,3,14,13,47,275,35,41,40,201,44,42,26,041,33,11,25,100,25,1*77
$GBGSV,4,4,14,37,10,256,,23,08,207,,1*7B
$GBGSV,2,1,06,33,76,095,43,40,75,179,41,28,50,341,41,43,49,085,17,4*7D
$GBGSV,2,2,06,41,40,201,46,42,26,041,28,4*78
$GNGGA,043006.000,2500.7857700,N,12132.4486700,E,2,54,0.52,19.25,M,15.25,M,2,3335*79
$GNRMC,043006.000,A,2500.7857700,N,12132.4486700,E,0.06,62.93,270623,,,D,V*33
$GPHDT,,T*1B
$GNGGA,043006.200,2500.7857800,N,12132.4486700,E,2,54,0.52,19.25,M,15.25,M,2,3335*74
$GNRMC,043006.200,A,2500.7857800,N,12132.4486700,E,0.01,62.93,270623,,,D,V*39
$GPHDT,,T*1B
$GNGGA,043006.400,2500.7857800,N,12132.4486700,E,2,54,0.52,19.25,M,15.25,M,2,3335*72
$GNRMC,043006.400,A,2500.7857800,N,12132.4486700,E,0.02,62.93,270623,,,D,V*3C
$GPHDT,,T*1B
$GNGGA,043006.600,2500.7857700,N,12132.4486700,E,2,54,0.52,19.26,M,15.25,M,2,3335*7C
$GNRMC,043006.600,A,2500.7857700,N,12132.4486700,E,0.01,62.93,270623,,,D,V*32
$GPHDT,,T*1B
$GNGGA,043006.800,2500.7857700,N,12132.4486700,E,2,54,0.52,19.26,M,15.25,M,2,3335*72
$GNRMC,043006.800,A,2500.7857700,N,12132.4486700,E,0.03,62.93,270623,,,D,V*3E
$GPHDT,,T*1B
$GNGSA,A,3,19,196,195,199,17,06,20,09,11,194,12,04,0.88,0.52,0.71,1*0A
$GNGSA,A,3,68,83,82,67,69,,,,,,,,0.88,0.52,0.71,2*02
$GNGSA,A,3,10,12,04,11,24,25,19,,,,,,0.88,0.52,0.71,3*0D
$GNGSA,A,3,33,40,07,10,08,28,43,13,41,42,,,0.88,0.52,0.71,4*03
$GPGSV,4,1,15,19,71,084,30,196,70,118,41,195,69,051,42,50,60,167,27,1*66
$GPGSV,4,2,15,199,60,167,24,17,54,116,42,06,49,010,31,20,43,249,45,1*53
$GPGSV,4,3,15,09,37,080,27,11,35,307,24,194,33,173,35,12,24,302,24,1*5E
$GPGSV,4,4,15,05,18,232,15,04,17,053,20,14,08,171,,1*57
$GPGSV,2,1,07,196,70,118,47,195,69,051,38,199,60,167,42,06,49,010,37,8*59
$GPGSV,2,2,07,09,37,080,21,11,35,307,30,04,17,053,31,8*5B
$GLGSV,3,1,09,68,70,110,32,83,41,008,25,82,35,067,21,67,33,037,29,1*7A
$GLGSV,3,2,09,69,33,185,27,73,17,266,,74,08,308,18,80,08,214,,1*78
$GLGSV,3,3,09,84,07,312,,1*4A
$GAGSV,3,1,10,10,50,358,29,12,44,036,21,04,42,142,38,11,39,319,36,7*7E
$GAGSV,3,2,10,24,39,224,27,19,32,067,,25,29,290,13,09,11,188,,7*7B
$GAGSV,3,3,10,33,09,079,17,36,04,284,,7*7C
$GAGSV,2,1,07,10,50,358,38,12,44,036,24,04,42,142,35,11,39,319,39,1*78
$GAGSV,2,2,07,24,39,224,25,19,32,067,18,25,29,290,14,1*4E
$GBGSV,4,1,14,33,76,095,41,40,75,179,29,07,72,223,36,10,69,262,37,1*74
$GBGSV,4,2,14,08,55,289,39,14,52,051,24,28,50,341,44,43,49,085,37,1*7E
$GBGSV,4,3,14,13,47,275,34,41,40,201,44,42,26,041,34,11,25,100,,1*76
$GBGSV,4,4,14,37,10,256,,23,08,207,,1*7B
$GBGSV,2,1,06,33,76,095,43,40,75,179,41,28,50,341,41,43,49,085,17,4*7D
$GBGSV,2,2,06,41,40,201,46,42,26,041,29,4*79
$GNGGA,043007.000,2500.7857700,N,12132.4486700,E,2,53,0.52,19.26,M,15.25,M,1,3335*7F
$GNRMC,043007.000,A,2500.7857700,N,12132.4486700,E,0.03,62.93,270623,,,D,V*37
$GPHDT,,T*1B
$GNGGA,043007.200,2500.7857700,N,12132.4486600,E,2,52,0.52,19.26,M,15.25,M,1,3335*7D
$GNRMC,043007.200,A,2500.7857700,N,12132.4486600,E,0.05,62.93,270623,,,D,V*32
$GPHDT,,T*1B
$GNGGA,043007.400,2500.7857700,N,12132.4486500,E,2,51,0.53,19.26,M,15.25,M,1,3335*7A
$GNRMC,043007.400,A,2500.7857700,N,12132.4486500,E,0.06,62.93,270623,,,D,V*34
$GPHDT,,T*1B
$GNGGA,043007.600,2500.7857700,N,12132.4486500,E,2,51,0.53,19.26,M,15.25,M,1,3335*78
$GNRMC,043007.600,A,2500.7857700,N,12132.4486500,E,0.05,62.93,270623,,,D,V*35
$GPHDT,,T*1B
$GNGGA,043007.800,2500.7857700,N,12132.4486500,E,2,51,0.53,19.26,M,15.25,M,1,3335*76
$GNRMC,043007.800,A,2500.7857700,N,12132.4486500,E,0.05,62.93,270623,,,D,V*3B
$GPHDT,,T*1B
$GNGSA,A,3,19,196,195,199,17,06,20,09,11,194,12,04,0.89,0.53,0.71,1*0A
$GNGSA,A,3,68,83,82,67,69,,,,,,,,0.89,0.53,0.71,2*02
$GNGSA,A,3,10,12,04,24,11,19,,,,,,,0.89,0.53,0.71,3*0A
$GNGSA,A,3,33,40,07,10,08,28,43,13,41,42,,,0.89,0.53,0.71,4*03
$GPGSV,4,1,15,19,71,084,28,196,70,118,41,195,69,051,41,50,60,167,27,1*6C
$GPGSV,4,2,15,199,60,167,25,17,54,116,41,06,49,010,27,20,43,249,45,1*56
$GPGSV,4,3,15,09,37,080,27,11,35,307,25,194,33,173,35,12,24,302,22,1*59
$GPGSV,4,4,15,05,18,232,14,04,17,053,20,14,08,171,,1*56
$GPGSV,2,1,07,196,70,118,46,195,69,051,38,199,60,167,42,06,49,010,37,8*58
$GPGSV,2,2,07,09,37,080,20,11,35,307,32,04,17,053,28,8*50
$GLGSV,2,1,08,68,70,110,30,83,41,008,25,82,35,067,19,67,33,037,26,1*7C
$GLGSV,2,2,08,69,33,185,26,73,17,266,,74,08,308,18,80,08,214,,1*79
$GAGSV,3,1,10,10,50,358,29,12,44,036,21,04,42,142,38,24,39,224,27,7*77
$GAGSV,3,2,10,11,39,319,36,19,32,067,,25,29,290,,09,11,188,,7*70
$GAGSV,3,3,10,33,09,079,17,36,04,284,,7*7C
$GAGSV,2,1,06,10,50,358,38,12,44,036,23,04,42,142,35,11,39,319,39,1*7E
$GAGSV,2,2,06,24,39,224,24,19,32,067,18,1*7C
$GBGSV,4,1,14,33,76,095,41,40,75,179,29,07,72,223,36,10,69,262,37,1*74
$GBGSV,4,2,14,08,55,289,39,14,52,051,22,28,50,341,44,43,49,085,36,1*79
$GBGSV,4,3,14,13,47,275,33,41,40,201,44,42,26,041,34,11,25,100,,1*71
$GBGSV,4,4,14,37,10,256,,23,08,207,,1*7B
$GBGSV,2,1,06,33,76,095,43,40,75,179,41,28,50,341,41,43,49,085,18,4*72
$GBGSV,2,2,06,41,40,201,46,42,26,041,28,4*78
$GNGGA,043008.000,2500.7857700,N,12132.4486500,E,2,51,0.53,19.27,M,15.25,M,2,3335*73
$GNRMC,043008.000,A,2500.7857700,N,12132.4486500,E,0.04,62.93,270623,,,D,V*3D
$GPHDT,,T*1B
$GNGGA,043008.200,2500.7857700,N,12132.4486500,E,2,51,0.53,19.27,M,15.25,M,1,3335*72
$GNRMC,043008.200,A,2500.7857700,N,12132.4486500,E,0.04,62.93,270623,,,D,V*3F
$GPHDT,,T*1B
$GNGGA,043008.400,2500.7857700,N,12132.4486400,E,2,51,0.53,19.27,M,15.25,M,1,3335*75
$GNRMC,043008.400,A,2500.7857700,N,12132.4486400,E,0.04,62.93,270623,,,D,V*38
$GPHDT,,T*1B
$GNGGA,043008.600,2500.7857700,N,12132.4486400,E,2,51,0.53,19.27,M,15.25,M,1,3335*77
$GNRMC,043008.600,A,2500.7857700,N,12132.4486400,E,0.02,62.93,270623,,,D,V*3C
$GPHDT,,T*1B
$GNGGA,043008.800,2500.7857600,N,12132.4486400,E,2,51,0.53,19.27,M,15.25,M,0,3335*79
$GNRMC,043008.800,A,2500.7857600,N,12132.4486400,E,0.02,62.93,270623,,,D,V*33
$GPHDT,,T*1B
$GNGSA,A,3,19,196,195,199,17,06,20,09,11,194,12,04,0.89,0.53,0.71,1*0A
$GNGSA,A,3,68,83,82,67,69,,,,,,,,0.89,0.53,0.71,2*02
$GNGSA,A,3,10,12,04,24,11,19,,,,,,,0.89,0.53,0.71,3*0A
$GNGSA,A,3,33,40,07,10,08,28,43,13,41,42,,,0.89,0.53,0.71,4*03
$GPGSV,4,1,15,19,71,084,24,196,70,117,41,195,69,051,41,199,60,167,26,1*5A
$GPGSV,4,2,15,50,60,167,28,17,54,116,41,06,49,010,26,20,43,249,45,1*6E
$GPGSV,4,3,15,09,37,080,29,11,35,307,26,194,33,173,32,12,24,302,21,1*50
$GPGSV,4,4,15,05,18,232,15,04,17,053,22,14,08,171,,1*55
$GPGSV,2,1,08,196,70,117,46,195,69,051,38,199,60,167,42,06,49,010,37,8*58
$GPGSV,2,2,08,09,37,080,18,11,35,307,31,194,33,173,27,04,17,053,26,8*55
$GLGSV,2,1,07,68,70,110,30,83,41,008,25,82,35,067,19,67,33,037,21,1*74
$GLGSV,2,2,07,69,33,185,25,74,08,308,18,80,08,214,,1*45
$GAGSV,3,1,10,10,50,358,30,12,44,036,21,04,42,142,38,24,39,224,27,7*7F
$GAGSV,3,2,10,11,39,319,36,19,32,067,,25,29,290,,09,11,188,,7*70
$GAGSV,3,3,10,33,09,079,17,36,04,284,,7*7C
$GAGSV,2,1,06,10,50,358,38,12,44,036,24,04,42,142,35,11,39,319,39,1*79
$GAGSV,2,2,06,24,39,224,24,19,32,067,18,1*7C
$GBGSV,4,1,14,33,76,095,41,40,75,179,29,07,72,223,37,10,69,262,37,1*75
$GBGSV,4,2,14,08,55,289,39,14,52,051,23,28,50,341,44,43,49,085,36,1*78
$GBGSV,4,3,14,13,47,275,33,41,40,201,44,42,26,041,35,11,25,100,,1*70
$GBGSV,4,4,14,37,10,256,,23,08,207,,1*7B
$GBGSV,2,1,06,33,76,095,43,40,75,179,41,28,50,341,41,43,49,085,20,4*79
$GBGSV,2,2,06,41,40,201,46,42,26,041,24,4*74
$GNGGA,043009.000,2500.7857700,N,12132.4486400,E,2,52,0.53,19.26,M,15.25,M,1,3335*72
$GNRMC,043009.000,A,2500.7857700,N,12132.4486400,E,0.01,62.93,270623,,,D,V*38
$GPHDT,,T*1B
$GNGGA,043009.200,2500.7857600,N,12132.4486400,E,2,51,0.53,19.26,M,15.25,M,1,3335*72
$GNRMC,043009.200,A,2500.7857600,N,12132.4486400,E,0.03,62.93,270623,,,D,V*39
$GPHDT,,T*1B
$GNGGA,043009.400,2500.7857500,N,12132.4486400,E,2,51,0.53,19.26,M,15.25,M,1,3335*77
$GNRMC,043009.400,A,2500.7857500,N,12132.4486400,E,0.03,62.93,270623,,,D,V*3C
$GPHDT,,T*1B
$GNGGA,043009.600,2500.7857500,N,12132.4486400,E,2,52,0.53,19.26,M,15.25,M,1,3335*76
$GNRMC,043009.600,A,2500.7857500,N,12132.4486400,E,0.03,62.93,270623,,,D,V*3E
$GPHDT,,T*1B
$GNGGA,043009.800,2500.7857500,N,12132.4486400,E,2,53,0.53,19.26,M,15.25,M,0,3335*78
$GNRMC,043009.800,A,2500.7857500,N,12132.4486400,E,0.02,62.93,270623,,,D,V*31
