$FW : RTK35X,V1.1X0314AS,Lib20210517,1*54
$Tool : LOCOSYS , GNSS Firebird , v1.0.0.19*39
$---------------------------------------------------*2D
$GPHDT,,T*1B
$GNGSA,A,3,19,196,195,199,17,06,20,11,194,12,04,09,1.12,0.52,0.99,1*0E
$GNGSA,A,3,68,83,82,67,69,,,,,,,,1.12,0.52,0.99,2*06
$GNGSA,A,3,10,12,04,11,24,25,19,,,,,,1.12,0.52,0.99,3*09
$GNGSA,A,3,33,40,07,10,08,14,28,43,13,41,42,,1.12,0.52,0.99,4*02
$GPGSV,4,1,15,19,71,083,34,196,70,118,42,195,69,051,42,50,60,167,29,1*68
$GPGSV,4,2,15,199,60,167,26,17,55,116,42,06,49,010,38,20,43,249,45,1*59
$GPGSV,4,3,15,09,37,081,24,11,35,306,28,194,33,173,32,12,24,302,18,1*59
$GPGSV,4,4,15,05,18,232,16,04,17,053,19,14,08,171,,1*5E
$GPGSV,2,1,08,196,70,118,46,195,69,051,40,199,60,167,41,06,49,010,42,8*59
$GPGSV,2,2,08,09,37,081,26,11,35,306,35,194,33,173,32,04,17,053,26,8*58
$GLGSV,2,1,07,68,69,111,39,83,41,007,31,82,35,067,24,67,33,037,26,1*77
$GLGSV,2,2,07,69,32,185,23,74,08,309,18,80,08,214,,1*43
$GAGSV,3,1,10,10,50,358,38,12,44,036,25,04,42,142,37,11,39,319,37,7*74
$GAGSV,3,2,10,24,39,224,20,19,32,067,,25,29,290,14,09,11,188,,7*7B
$GAGSV,3,3,10,33,09,079,14,36,04,284,,7*7F
$GAGSV,2,1,06,10,50,358,43,12,44,036,27,04,42,142,38,11,39,319,37,1*75
$GAGSV,2,2,06,24,39,224,10,19,32,067,15,1*76
$GBGSV,4,1,14,33,76,096,40,40,75,178,34,07,72,224,39,10,69,263,37,1*72
$GBGSV,4,2,14,08,55,289,38,14,52,051,25,28,50,340,45,43,49,085,34,1*7D
$GBGSV,4,3,14,13,47,275,38,41,40,201,44,42,27,041,,37,10,256,,1*7E
$GBGSV,4,4,14,23,08,207,,34,08,113,,1*73
$GBGSV,2,1,05,33,76,096,43,40,75,178,43,28,50,340,45,41,40,201,45,4*79
$GBGSV,2,2,05,42,27,041,16,4*47
$GNGGA,042939.000,2500.7857100,N,12132.4494300,E,2,50,0.52,17.88,M,15.25,M,1,3335*72
$GNRMC,042939.000,A,2500.7857100,N,12132.4494300,E,0.03,62.93,270623,,,D,V*33
$GPHDT,,T*1B
$GNGGA,042939.200,2500.7857100,N,12132.4494300,E,2,51,0.52,17.91,M,15.25,M,1,3335*79
$GNRMC,042939.200,A,2500.7857100,N,12132.4494300,E,0.03,62.93,270623,,,D,V*31
$GPHDT,,T*1B
$GNGGA,042939.400,2500.7857100,N,12132.4494200,E,2,51,0.52,17.92,M,15.25,M,1,3335*7D
$GNRMC,042939.400,A,2500.7857100,N,12132.4494200,E,0.04,62.93,270623,,,D,V*31
$GPHDT,,T*1B
$GNGGA,042939.600,2500.7857100,N,12132.4494200,E,2,51,0.52,17.94,M,15.25,M,0,3335*78
$GNRMC,042939.600,A,2500.7857100,N,12132.4494200,E,0.04,62.93,270623,,,D,V*33
$GPHDT,,T*1B
$GNGGA,042939.800,2500.7857100,N,12132.4494200,E,2,51,0.52,17.96,M,15.25,M,0,3335*74
$GNRMC,042939.800,A,2500.7857100,N,12132.4494200,E,0.04,62.93,270623,,,D,V*3D
$GPHDT,,T*1B
$GNGSA,A,3,19,196,195,199,17,06,20,09,11,194,12,04,1.12,0.52,0.99,1*0E
$GNGSA,A,3,68,83,82,67,69,,,,,,,,1.12,0.52,0.99,2*06
$GNGSA,A,3,10,12,04,24,11,25,19,,,,,,1.12,0.52,0.99,3*09
$GNGSA,A,3,33,40,07,10,08,14,28,43,13,41,42,,1.12,0.52,0.99,4*02
$GPGSV,4,1,15,19,71,083,34,196,70,118,42,195,69,051,42,50,60,167,29,1*68
$GPGSV,4,2,15,199,60,167,26,17,55,116,43,06,49,010,37,20,43,249,45,1*57
$GPGSV,4,3,15,09,37,081,26,11,35,306,28,194,33,173,33,12,24,302,19,1*5B
$GPGSV,4,4,15,05,18,232,17,04,17,053,19,14,08,171,,1*5F
$GPGSV,2,1,08,196,70,118,46,195,69,051,40,199,60,167,42,06,49,010,42,8*5A
$GPGSV,2,2,08,09,37,081,26,11,35,306,35,194,33,173,31,04,17,053,25,8*58
$GLGSV,2,1,06,68,69,111,39,83,41,007,31,82,35,067,24,67,33,037,26,1*76
$GLGSV,2,2,06,69,32,185,22,74,08,309,17,1*7B
$GAGSV,3,1,09,10,50,358,38,12,44,036,24,04,42,142,37,24,39,224,17,7*76
$GAGSV,3,2,09,11,39,319,37,19,32,067,,25,29,290,14,33,09,079,15,7*77
$GAGSV,3,3,09,36,04,284,,7*45
$GAGSV,2,1,06,10,50,358,43,12,44,036,28,04,42,142,38,11,39,319,37,1*7A
$GAGSV,2,2,06,24,39,224,13,19,32,067,13,1*73
$GBGSV,4,1,14,33,76,096,40,40,75,178,34,07,72,224,39,10,69,263,36,1*73
$GBGSV,4,2,14,08,55,289,37,14,52,051,26,28,50,340,45,43,49,085,35,1*70
$GBGSV,4,3,14,13,47,275,38,41,40,201,44,42,27,041,,11,25,100,,1*7C
$GBGSV,4,4,14,37,10,256,,23,08,207,,1*7B
$GBGSV,2,1,05,33,76,096,43,40,75,178,43,28,50,340,45,41,40,201,45,4*79
$GBGSV,2,2,05,42,27,041,17,4*46
$GNGGA,042940.000,2500.7857100,N,12132.4494100,E,2,51,0.52,17.98,M,15.25,M,1,3335*7E
$GNRMC,042940.000,A,2500.7857100,N,12132.4494100,E,0.04,62.93,270623,,,D,V*38
$GPHDT,,T*1B
$GNGGA,042940.200,2500.7857100,N,12132.4494000,E,2,51,0.52,18.00,M,15.25,M,1,3335*73
$GNRMC,042940.200,A,2500.7857100,N,12132.4494000,E,0.04,62.93,270623,,,D,V*3B
$GPHDT,,T*1B
$GNGGA,042940.400,2500.7857100,N,12132.4494000,E,2,52,0.52,18.02,M,15.25,M,1,3335*74
$GNRMC,042940.400,A,2500.7857100,N,12132.4494000,E,0.04,62.93,270623,,,D,V*3D
$GPHDT,,T*1B
$GNGGA,042940.600,2500.7857100,N,12132.4494000,E,2,50,0.52,18.04,M,15.25,M,1,3335*72
$GNRMC,042940.600,A,2500.7857100,N,12132.4494000,E,0.04,62.93,270623,,,D,V*3F
$GPHDT,,T*1B
$GNGGA,042940.800,2500.7857100,N,12132.4493900,E,2,52,0.52,18.05,M,15.25,M,0,3335*70
$GNRMC,042940.800,A,2500.7857100,N,12132.4493900,E,0.04,62.93,270623,,,D,V*3F
$GPHDT,,T*1B
$GNGSA,A,3,19,196,195,199,17,06,20,09,11,194,12,04,1.12,0.52,0.99,1*0E
$GNGSA,A,3,68,83,82,67,69,,,,,,,,1.12,0.52,0.99,2*06
$GNGSA,A,3,10,12,04,24,11,25,19,,,,,,1.12,0.52,0.99,3*09
$GNGSA,A,3,33,40,07,10,08,14,28,43,13,41,42,,1.12,0.52,0.99,4*02
$GPGSV,4,1,15,19,71,083,34,196,70,118,42,195,69,051,42,50,60,167,29,1*68
$GPGSV,4,2,15,199,60,167,24,17,55,116,44,06,49,010,37,20,43,249,45,1*52
$GPGSV,4,3,15,09,37,081,25,11,35,306,28,194,33,173,33,12,24,302,19,1*58
$GPGSV,4,4,15,05,18,232,17,04,17,053,18,14,08,171,,1*5E
$GPGSV,2,1,08,196,70,118,45,195,69,051,40,199,60,167,42,06,49,010,42,8*59
$GPGSV,2,2,08,09,37,081,26,11,35,306,35,194,33,173,30,04,17,053,28,8*54
$GLGSV,2,1,06,68,69,111,38,83,41,007,31,82,35,067,21,67,33,037,28,1*7C
$GLGSV,2,2,06,69,32,185,21,74,08,309,17,1*78
$GAGSV,3,1,09,10,50,358,38,12,44,036,24,04,42,142,38,24,39,224,17,7*79
$GAGSV,3,2,09,11,39,319,37,19,32,067,,25,29,290,15,33,09,079,15,7*76
$GAGSV,3,3,09,36,04,284,,7*45
$GAGSV,2,1,05,10,50,358,43,12,44,036,28,04,42,142,38,11,39,319,37,1*79
$GAGSV,2,2,05,19,32,067,13,1*4A
$GBGSV,4,1,15,33,76,096,40,40,75,178,34,07,72,224,39,10,69,263,37,1*73
$GBGSV,4,2,15,08,55,289,37,14,52,051,23,28,50,340,45,43,49,085,34,1*75
$GBGSV,4,3,15,13,47,275,37,41,40,201,44,42,27,041,33,11,25,100,,1*72
$GBGSV,4,4,15,37,10,256,,34,08,113,,06,03,184,,1*42
$GBGSV,2,1,05,33,76,096,43,40,75,178,43,28,50,340,45,41,40,201,45,4*79
$GBGSV,2,2,05,42,27,041,19,4*48
$GNGGA,042941.000,2500.7857100,N,12132.4493900,E,2,52,0.52,18.07,M,15.25,M,1,3335*7A
$GNRMC,042941.000,A,2500.7857100,N,12132.4493900,E,0.04,62.93,270623,,,D,V*36
$GPHDT,,T*1B
$GNGGA,042941.200,2500.7857100,N,12132.4493800,E,2,52,0.52,18.09,M,15.25,M,1,3335*77
$GNRMC,042941.200,A,2500.7857100,N,12132.4493800,E,0.04,62.93,270623,,,D,V*35
$GPHDT,,T*1B
$GNGGA,042941.400,2500.7857200,N,12132.4493700,E,2,53,0.52,18.10,M,15.25,M,1,3335*74
$GNRMC,042941.400,A,2500.7857200,N,12132.4493700,E,0.04,62.93,270623,,,D,V*3F
$GPHDT,,T*1B
$GNGGA,042941.600,2500.7857200,N,12132.4493600,E,2,53,0.52,18.12,M,15.25,M,1,3335*75
$GNRMC,042941.600,A,2500.7857200,N,12132.4493600,E,0.04,62.93,270623,,,D,V*3C
$GPHDT,,T*1B
$GNGGA,042941.800,2500.7857200,N,12132.4493600,E,2,53,0.52,18.13,M,15.25,M,0,3335*7B
$GNRMC,042941.800,A,2500.7857200,N,12132.4493600,E,0.04,62.93,270623,,,D,V*32
$GPHDT,,T*1B
$GNGSA,A,3,19,196,195,199,17,06,20,09,11,194,12,04,1.12,0.52,0.99,1*0E
$GNGSA,A,3,68,83,82,67,69,,,,,,,,1.12,0.52,0.99,2*06
$GNGSA,A,3,10,12,04,24,11,19,25,,,,,,1.12,0.52,0.99,3*09
$GNGSA,A,3,33,40,07,10,08,14,28,43,13,41,42,,1.12,0.52,0.99,4*02
$GPGSV,4,1,15,19,71,083,33,196,70,118,42,195,69,051,42,50,60,167,28,1*6E
$GPGSV,4,2,15,199,60,167,26,17,55,116,44,06,49,010,37,20,43,249,45,1*50
$GPGSV,4,3,15,09,37,081,29,11,35,306,28,194,33,173,34,12,24,302,20,1*59
$GPGSV,4,4,15,05,18,232,17,04,17,053,17,14,08,171,,1*51
$GPGSV,2,1,08,196,70,118,45,195,69,051,40,199,60,167,42,06,49,010,42,8*59
$GPGSV,2,2,08,09,37,081,27,11,35,306,34,194,33,173,30,04,17,053,32,8*5F
$GLGSV,2,1,06,68,69,111,39,83,41,007,31,82,35,067,23,67,33,037,31,1*77
$GLGSV,2,2,06,69,32,185,18,74,08,309,18,1*7D
$GAGSV,3,1,09,10,50,358,38,12,44,036,24,04,42,142,38,24,39,224,19,7*77
$GAGSV,3,2,09,11,39,319,37,19,32,067,13,25,29,290,15,33,09,079,17,7*76
$GAGSV,3,3,09,36,04,284,,7*45
$GAGSV,2,1,05,10,50,358,43,12,44,036,30,04,42,142,39,11,39,319,37,1*71
$GAGSV,2,2,05,19,32,067,11,1*48
$GBGSV,4,1,14,33,76,096,40,40,75,178,36,07,72,224,39,10,69,263,36,1*71
$GBGSV,4,2,14,08,55,289,38,14,52,051,22,28,50,340,45,43,49,085,35,1*7B
$GBGSV,4,3,14,13,47,275,37,41,40,201,45,42,27,041,34,37,10,256,,1*77
$GBGSV,4,4,14,34,08,113,,23,08,207,,1*73
$GBGSV,2,1,05,33,76,096,43,40,75,178,43,28,50,340,45,41,40,201,45,4*79
$GBGSV,2,2,05,42,27,041,19,4*48
$GNGGA,042942.000,2500.7857200,N,12132.4493500,E,2,53,0.52,18.15,M,15.25,M,1,3335*74
$GNRMC,042942.000,A,2500.7857200,N,12132.4493500,E,0.05,62.93,270623,,,D,V*3B
$GPHDT,,T*1B
$GNGGA,042942.200,2500.7857200,N,12132.4493400,E,2,53,0.52,18.16,M,15.25,M,1,3335*74
$GNRMC,042942.200,A,2500.7857200,N,12132.4493400,E,0.04,62.93,270623,,,D,V*39
$GPHDT,,T*1B
$GNGGA,042942.400,2500.7857200,N,12132.4493400,E,2,53,0.52,18.18,M,15.25,M,1,3335*7C
$GNRMC,042942.400,A,2500.7857200,N,12132.4493400,E,0.04,62.93,270623,,,D,V*3F
$GPHDT,,T*1B
$GNGGA,042942.600,2500.7857200,N,12132.4493300,E,2,53,0.52,18.19,M,15.25,M,1,3335*78
$GNRMC,042942.600,A,2500.7857200,N,12132.4493300,E,0.05,62.93,270623,,,D,V*3B
$GPHDT,,T*1B
$GNGGA,042942.800,2500.7857200,N,12132.4493300,E,2,52,0.52,18.20,M,15.25,M,0,3335*7C
$GNRMC,042942.800,A,2500.7857200,N,12132.4493300,E,0.05,62.93,270623,,,D,V*35
$GPHDT,,T*1B
$GNGSA,A,3,19,196,195,199,17,06,20,09,11,194,12,04,1.12,0.52,0.99,1*0E
$GNGSA,A,3,68,83,82,67,69,,,,,,,,1.12,0.52,0.99,2*06
$GNGSA,A,3,10,04,24,11,19,25,12,,,,,,1.12,0.52,0.99,3*09
$GNGSA,A,3,33,40,07,10,08,14,28,43,13,41,42,,1.12,0.52,0.99,4*02
$GPGSV,4,1,15,19,71,083,33,196,70,118,42,195,69,051,42,50,60,167,28,1*6E
$GPGSV,4,2,15,199,60,167,27,17,55,116,44,06,49,010,37,20,43,249,45,1*51
$GPGSV,4,3,15,09,37,081,32,11,35,306,28,194,33,173,34,12,24,302,20,1*53
$GPGSV,4,4,15,05,18,232,17,04,17,053,17,14,08,171,,1*51
$GPGSV,2,1,08,196,70,118,45,195,69,051,40,199,60,167,42,06,49,010,42,8*59
$GPGSV,2,2,08,09,37,081,28,11,35,306,33,194,33,173,30,04,17,053,31,8*54
$GLGSV,2,1,06,68,69,111,39,83,41,007,31,82,35,067,23,67,33,037,33,1*75
$GLGSV,2,2,06,69,32,185,18,74,08,309,20,1*76
$GAGSV,3,1,09,10,50,358,38,12,44,036,,04,42,142,37,24,39,224,21,7*75
$GAGSV,3,2,09,11,39,319,37,19,32,067,15,25,29,290,17,33,09,079,18,7*7D
$GAGSV,3,3,09,36,04,284,,7*45
$GAGSV,1,1,04,10,50,358,43,12,44,036,30,04,42,142,39,11,39,319,38,1*7C
$GBGSV,4,1,14,33,76,096,41,40,75,178,37,07,72,224,39,10,69,263,37,1*70
$GBGSV,4,2,14,08,55,289,38,14,52,051,20,28,50,340,45,43,49,085,33,1*7F
$GBGSV,4,3,14,13,47,275,37,41,40,201,45,42,27,041,34,37,10,256,,1*77
$GBGSV,4,4,14,34,08,113,,23,08,207,,1*73
$GBGSV,2,1,05,33,76,096,43,40,75,178,43,28,50,340,45,41,40,201,45,4*79
$GBGSV,2,2,05,42,27,041,18,4*49
$GNGGA,042943.000,2500.7857300,N,12132.4493100,E,2,51,0.52,18.22,M,15.25,M,1,3335*76
$GNRMC,042943.000,A,2500.7857300,N,12132.4493100,E,0.05,62.93,270623,,,D,V*3F
$GPHDT,,T*1B
$GNGGA,042943.200,2500.7857400,N,12132.4493100,E,2,51,0.52,18.22,M,15.25,M,1,3335*73
$GNRMC,042943.200,A,2500.7857400,N,12132.4493100,E,0.05,62.93,270623,,,D,V*3A
$GPHDT,,T*1B
$GNGGA,042943.400,2500.7857400,N,12132.4493000,E,2,51,0.52,18.23,M,15.25,M,1,3335*75
$GNRMC,042943.400,A,2500.7857400,N,12132.4493000,E,0.05,62.93,270623,,,D,V*3D
$GPHDT,,T*1B
$GNGGA,042943.600,2500.7857400,N,12132.4493000,E,2,51,0.52,18.23,M,15.25,M,1,3335*77
$GNRMC,042943.600,A,2500.7857400,N,12132.4493000,E,0.05,62.93,270623,,,D,V*3F
$GPHDT,,T*1B
$GNGGA,042943.800,2500.7857500,N,12132.4492900,E,2,52,0.51,18.23,M,15.25,M,0,3335*71
$GNRMC,042943.800,A,2500.7857500,N,12132.4492900,E,0.04,62.93,270623,,,D,V*39
$GPHDT,,T*1B
$GNGSA,A,3,19,196,195,199,17,06,20,09,11,194,12,04,0.87,0.51,0.70,1*07
$GNGSA,A,3,68,83,82,67,69,,,,,,,,0.87,0.51,0.70,2*0F
$GNGSA,A,3,10,12,04,24,11,19,25,,,,,,0.87,0.51,0.70,3*00
$GNGSA,A,3,33,40,07,10,08,14,28,43,13,41,42,,0.87,0.51,0.70,4*0B
$GPGSV,4,1,15,19,71,083,36,196,70,118,42,195,69,051,42,50,60,167,29,1*6A
$GPGSV,4,2,15,199,60,167,25,17,55,116,43,06,49,010,38,20,43,249,45,1*5B
$GPGSV,4,3,15,09,37,081,32,11,35,306,28,194,33,173,33,12,24,302,20,1*54
$GPGSV,4,4,15,05,18,232,18,04,17,053,19,14,08,171,,1*50
$GPGSV,2,1,08,196,70,118,46,195,69,051,40,199,60,167,42,06,49,010,42,8*5A
$GPGSV,2,2,08,09,37,081,27,11,35,306,33,194,33,173,30,04,17,053,33,8*59
$GLGSV,2,1,06,68,69,111,40,83,41,007,31,82,35,067,23,67,33,037,34,1*7C
$GLGSV,2,2,06,69,32,185,23,74,08,309,20,1*7E
$GAGSV,3,1,09,10,50,358,38,12,44,036,21,04,42,142,37,24,39,224,22,7*75
$GAGSV,3,2,09,11,39,319,37,19,32,067,17,25,29,290,17,33,09,079,19,7*7E
$GAGSV,3,3,09,36,04,284,,7*45
$GAGSV,2,1,05,10,50,358,43,12,44,036,30,04,42,142,38,11,39,319,38,1*7F
$GAGSV,2,2,05,25,29,290,19,1*4F
$GBGSV,4,1,14,33,76,096,42,40,75,178,37,07,72,224,40,10,69,263,35,1*7F
$GBGSV,4,2,14,08,55,289,38,14,52,051,19,28,50,340,45,43,49,085,33,1*75
$GBGSV,4,3,14,13,47,275,35,41,40,201,44,42,27,041,33,37,10,256,,1*73
$GBGSV,4,4,14,34,08,113,,23,08,207,,1*73
$GBGSV,2,1,05,33,76,096,43,40,75,178,43,28,50,340,45,41,40,201,45,4*79
$GBGSV,2,2,05,42,27,041,18,4*49
$GNGGA,042944.000,2500.7857500,N,12132.4492800,E,2,53,0.51,18.25,M,15.25,M,1,3335*79
$GNRMC,042944.000,A,2500.7857500,N,12132.4492800,E,0.05,62.93,270623,,,D,V*36
$GPHDT,,T*1B
$GNGGA,042944.200,2500.7857500,N,12132.4492700,E,2,53,0.52,18.27,M,15.25,M,1,3335*75
$GNRMC,042944.200,A,2500.7857500,N,12132.4492700,E,0.05,62.93,270623,,,D,V*3B
$GPHDT,,T*1B
$GNGGA,042944.400,2500.7857500,N,12132.4492500,E,2,53,0.52,18.28,M,15.25,M,1,3335*7E
$GNRMC,042944.400,A,2500.7857500,N,12132.4492500,E,0.05,62.93,270623,,,D,V*3F
$GPHDT,,T*1B
$GNGGA,042944.600,2500.7857500,N,12132.4492400,E,2,53,0.52,18.29,M,15.25,M,0,3335*7D
$GNRMC,042944.600,A,2500.7857500,N,12132.4492400,E,0.05,62.93,270623,,,D,V*3C
$GPHDT,,T*1B
$GNGGA,042944.800,2500.7857600,N,12132.4492300,E,2,53,0.52,18.29,M,15.25,M,0,3335*77
$GNRMC,042944.800,A,2500.7857600,N,12132.4492300,E,0.05,62.93,270623,,,D,V*36
$GPHDT,,T*1B
$GNGSA,A,3,19,196,195,199,17,06,20,09,11,194,12,04,1.12,0.52,0.99,1*0E
$GNGSA,A,3,68,83,82,67,69,,,,,,,,1.12,0.52,0.99,2*06
$GNGSA,A,3,10,12,04,11,24,19,25,,,,,,1.12,0.52,0.99,3*09
$GNGSA,A,3,33,40,07,10,08,14,28,43,13,41,42,,1.12,0.52,0.99,4*02
$GPGSV,4,1,15,19,71,083,36,196,70,118,42,195,69,051,42,50,60,167,30,1*62
$GPGSV,4,2,15,199,60,167,27,17,55,116,41,06,49,010,38,20,43,249,45,1*5B
$GPGSV,4,3,15,09,37,081,31,11,35,306,27,194,33,173,32,12,24,302,21,1*58
$GPGSV,4,4,15,05,18,232,17,04,17,053,19,14,08,171,,1*5F
$GPGSV,2,1,08,196,70,118,47,195,69,051,40,199,60,167,44,06,49,010,42,8*5D
$GPGSV,2,2,08,09,37,081,27,11,35,306,34,194,33,173,32,04,17,053,34,8*5B
$GLGSV,2,1,07,68,70,110,41,83,41,007,31,82,35,067,23,67,33,037,35,1*74
$GLGSV,2,2,07,69,33,185,24,73,17,266,,74,08,309,20,1*49
$GAGSV,3,1,09,10,50,358,38,12,44,036,20,04,42,142,28,11,39,319,37,7*77
$GAGSV,3,2,09,24,39,224,21,19,32,067,17,25,29,290,16,33,09,079,19,7*71
$GAGSV,3,3,09,36,04,284,,7*45
$GAGSV,2,1,05,10,50,358,44,12,44,036,30,04,42,142,36,11,39,319,38,1*76
$GAGSV,2,2,05,25,29,290,17,1*41
$GBGSV,4,1,13,33,76,096,42,40,75,178,36,07,72,224,40,10,69,263,35,1*79
$GBGSV,4,2,13,08,55,289,39,14,52,051,19,28,50,340,45,43,49,085,33,1*73
$GBGSV,4,3,13,13,47,275,36,41,40,201,44,42,27,041,34,34,08,113,,1*78
$GBGSV,4,4,13,23,08,207,,1*48
$GBGSV,2,1,05,33,76,096,45,40,75,178,43,28,50,340,45,41,40,201,46,4*7C
$GBGSV,2,2,05,42,27,041,18,4*49
$GNGGA,042945.000,2500.7857700,N,12132.4492200,E,2,53,0.52,18.30,M,15.25,M,1,3335*77
$GNRMC,042945.000,A,2500.7857700,N,12132.4492200,E,0.05,62.93,270623,,,D,V*3F
$GPHDT,,T*1B
$GNGGA,042945.200,2500.7857700,N,12132.4492100,E,2,53,0.52,18.32,M,15.25,M,1,3335*74
$GNRMC,042945.200,A,2500.7857700,N,12132.4492100,E,0.05,62.93,270623,,,D,V*3E
$GPHDT,,T*1B
$GNGGA,042945.400,2500.7857700,N,12132.4492000,E,2,52,0.52,18.31,M,15.25,M,1,3335*71
$GNRMC,042945.400,A,2500.7857700,N,12132.4492000,E,0.05,62.93,270623,,,D,V*39
$GPHDT,,T*1B
$GNGGA,042945.600,2500.7857800,N,12132.4491900,E,2,53,0.52,18.33,M,15.25,M,0,3335*74
$GNRMC,042945.600,A,2500.7857800,N,12132.4491900,E,0.05,62.93,270623,,,D,V*3E
$GPHDT,,T*1B
$GNGGA,042945.800,2500.7857800,N,12132.4491800,E,2,53,0.52,18.35,M,15.25,M,0,3335*7D
$GNRMC,042945.800,A,2500.7857800,N,12132.4491800,E,0.05,62.93,270623,,,D,V*31
$GPHDT,,T*1B
$GNGSA,A,3,19,196,195,199,17,06,20,09,11,194,12,04,1.12,0.52,0.99,1*0E
$GNGSA,A,3,68,83,82,67,69,,,,,,,,1.12,0.52,0.99,2*06
$GNGSA,A,3,10,12,04,11,24,19,25,,,,,,1.12,0.52,0.99,3*09
$GNGSA,A,3,33,40,07,10,08,28,43,13,41,42,,,1.12,0.52,0.99,4*07
$GPGSV,4,1,15,19,71,083,34,196,70,118,42,195,69,051,42,50,60,167,30,1*60
$GPGSV,4,2,15,199,60,167,28,17,55,116,41,06,49,010,38,20,43,249,45,1*54
$GPGSV,4,3,15,09,37,081,32,11,35,306,27,194,33,173,31,12,24,302,21,1*58
$GPGSV,4,4,15,05,18,232,17,04,17,053,21,14,08,171,,1*54
$GPGSV,2,1,08,196,70,118,46,195,69,051,40,199,60,167,44,06,49,010,41,8*5F
$GPGSV,2,2,08,09,37,081,25,11,35,306,34,194,33,173,26,04,17,053,32,8*5A
$GLGSV,2,1,08,68,70,110,41,83,41,007,31,82,35,067,21,67,33,037,36,1*7A
$GLGSV,2,2,08,69,33,185,20,73,17,266,,74,08,308,20,80,08,214,,1*74
$GAGSV,3,1,10,10,50,358,38,12,44,036,19,04,42,142,32,11,39,319,37,7*7E
$GAGSV,3,2,10,24,39,224,21,19,32,067,19,25,29,290,17,09,11,188,,7*71
$GAGSV,3,3,10,33,09,079,19,36,04,284,,7*72
$GAGSV,2,1,06,10,50,358,44,12,44,036,29,04,42,142,39,11,39,319,38,1*72
$GAGSV,2,2,06,24,39,224,21,25,29,290,15,1*7B
$GBGSV,4,1,13,33,76,096,42,40,75,178,37,07,72,224,40,10,69,263,37,1*7A
$GBGSV,4,2,13,08,55,289,39,14,52,051,14,28,50,340,44,43,49,085,33,1*7F
$GBGSV,4,3,13,13,47,275,36,41,40,201,44,42,27,041,36,37,10,256,,1*72
$GBGSV,4,4,13,23,08,207,,1*48
$GBGSV,2,1,05,33,76,096,44,40,75,178,43,28,50,340,45,41,40,201,46,4*7D
$GBGSV,2,2,05,42,27,041,18,4*49
$GNGGA,042946.000,2500.7857800,N,12132.4491800,E,2,53,0.52,18.36,M,15.25,M,1,3335*74
$GNRMC,042946.000,A,2500.7857800,N,12132.4491800,E,0.05,62.93,270623,,,D,V*3A
$GPHDT,,T*1B
$GNGGA,042946.200,2500.7857900,N,12132.4491600,E,2,53,0.52,18.37,M,15.25,M,1,3335*78
$GNRMC,042946.200,A,2500.7857900,N,12132.4491600,E,0.05,62.93,270623,,,D,V*37
$GPHDT,,T*1B
$GNGGA,042946.400,2500.7857900,N,12132.4491500,E,2,53,0.52,18.39,M,15.25,M,1,3335*73
$GNRMC,042946.400,A,2500.7857900,N,12132.4491500,E,0.05,62.93,270623,,,D,V*32
$GPHDT,,T*1B
$GNGGA,042946.600,2500.7857900,N,12132.4491500,E,2,52,0.52,18.40,M,15.25,M,1,3335*7E
$GNRMC,042946.600,A,2500.7857900,N,12132.4491500,E,0.05,62.93,270623,,,D,V*30
$GPHDT,,T*1B
$GNGGA,042946.800,2500.7858000,N,12132.4491500,E,2,52,0.52,18.42,M,15.25,M,0,3335*75
$GNRMC,042946.800,A,2500.7858000,N,12132.4491500,E,0.05,62.93,270623,,,D,V*38
$GPHDT,,T*1B
$GNGSA,A,3,19,196,195,199,17,06,20,09,11,194,12,04,1.12,0.52,0.99,1*0E
$GNGSA,A,3,68,83,82,69,67,,,,,,,,1.12,0.52,0.99,2*06
$GNGSA,A,3,10,12,04,11,24,19,25,,,,,,1.12,0.52,0.99,3*09
$GNGSA,A,3,33,40,07,10,08,28,43,13,41,42,,,1.12,0.52,0.99,4*07
$GPGSV,4,1,15,19,71,083,33,196,70,118,42,195,69,051,42,50,60,167,31,1*66
$GPGSV,4,2,15,199,60,167,28,17,55,116,41,06,49,010,38,20,43,249,45,1*54
$GPGSV,4,3,15,09,37,081,31,11,35,306,24,194,33,173,33,12,24,302,20,1*5B
$GPGSV,4,4,15,05,18,232,17,04,17,053,20,14,08,171,,1*55
$GPGSV,2,1,08,196,70,118,46,195,69,051,40,199,60,167,44,06,49,010,41,8*5F
$GPGSV,2,2,08,09,37,081,25,11,35,306,34,194,33,173,27,04,17,053,32,8*5B
$GLGSV,3,1,09,68,70,110,40,83,41,007,31,82,35,067,20,69,33,185,20,1*7B
$GLGSV,3,2,09,67,33,037,37,73,17,266,,74,08,308,20,80,08,214,,1*74
$GLGSV,3,3,09,84,07,312,,1*4A
$GAGSV,3,1,10,10,50,358,38,12,44,036,21,04,42,142,34,11,39,319,37,7*73
$GAGSV,3,2,10,24,39,224,21,19,32,067,19,25,29,290,17,09,11,188,,7*71
$GAGSV,3,3,10,33,09,079,19,36,04,284,,7*72
$GAGSV,2,1,05,10,50,358,44,12,44,036,29,04,42,142,39,11,39,319,38,1*71
$GAGSV,2,2,05,24,39,224,21,1*4B
$GBGSV,4,1,13,33,76,096,42,40,75,178,37,07,72,224,39,10,69,263,37,1*74
$GBGSV,4,2,13,08,55,289,39,14,52,051,17,28,50,340,44,43,49,085,35,1*7A
$GBGSV,4,3,13,13,47,275,36,41,40,201,44,42,27,041,36,37,10,256,,1*72
$GBGSV,4,4,13,23,08,207,,1*48
$GBGSV,2,1,05,33,76,096,44,40,75,178,43,28,50,340,45,41,40,201,46,4*7D
$GBGSV,2,2,05,42,27,041,19,4*48
$GNGGA,042947.000,2500.7858000,N,12132.4491400,E,2,52,0.52,18.43,M,15.25,M,1,3335*7D
$GNRMC,042947.000,A,2500.7858000,N,12132.4491400,E,0.05,62.93,270623,,,D,V*30
$GPHDT,,T*1B
$GNGGA,042947.200,2500.7858000,N,12132.4491300,E,2,52,0.52,18.45,M,15.25,M,1,3335*7E
$GNRMC,042947.200,A,2500.7858000,N,12132.4491300,E,0.05,62.93,270623,,,D,V*35
$GPHDT,,T*1B
$GNGGA,042947.400,2500.7858000,N,12132.4491300,E,2,52,0.52,18.46,M,15.25,M,1,3335*7B
$GNRMC,042947.400,A,2500.7858000,N,12132.4491300,E,0.05,62.93,270623,,,D,V*33
$GPHDT,,T*1B
$GNGGA,042947.600,2500.7858100,N,12132.4491200,E,2,52,0.52,18.48,M,15.25,M,1,3335*77
$GNRMC,042947.600,A,2500.7858100,N,12132.4491200,E,0.05,62.93,270623,,,D,V*31
$GPHDT,,T*1B
$GNGGA,042947.800,2500.7858100,N,12132.4491200,E,2,52,0.52,18.48,M,15.25,M,0,3335*78
$GNRMC,042947.800,A,2500.7858100,N,12132.4491200,E,0.05,62.93,270623,,,D,V*3F
$GPHDT,,T*1B
$GNGSA,A,3,19,196,195,199,17,06,20,09,11,194,12,04,1.12,0.52,0.99,1*0E
$GNGSA,A,3,68,83,82,67,69,,,,,,,,1.12,0.52,0.99,2*06
$GNGSA,A,3,10,12,04,11,24,19,25,,,,,,1.12,0.52,0.99,3*09
$GNGSA,A,3,33,40,07,10,08,14,28,43,13,41,42,,1.12,0.52,0.99,4*02
$GPGSV,4,1,15,19,71,083,33,196,70,118,42,195,69,051,42,50,60,167,31,1*66
$GPGSV,4,2,15,199,60,167,28,17,55,116,41,06,49,010,38,20,43,249,45,1*54
$GPGSV,4,3,15,09,37,081,31,11,35,306,24,194,33,173,32,12,24,302,21,1*5B
$GPGSV,4,4,15,05,18,232,16,04,17,053,19,14,08,171,,1*5E
$GPGSV,2,1,08,196,70,118,46,195,69,051,40,199,60,167,44,06,49,010,41,8*5F
$GPGSV,2,2,08,09,37,081,25,11,35,306,33,194,33,173,27,04,17,053,32,8*5C
$GLGSV,2,1,08,68,70,110,40,83,41,008,31,82,35,067,18,67,33,037,38,1*70
$GLGSV,2,2,08,69,33,185,20,73,17,266,,74,08,308,20,80,08,214,,1*74
$GAGSV,3,1,10,10,50,358,38,12,44,036,18,04,42,142,34,11,39,319,37,7*79
$GAGSV,3,2,10,24,39,224,22,19,32,067,19,25,29,290,17,09,11,188,,7*72
$GAGSV,3,3,10,33,09,079,20,36,04,284,,7*78
$GAGSV,2,1,06,10,50,358,44,12,44,036,29,04,42,142,39,11,39,319,38,1*72
$GAGSV,2,2,06,24,39,224,20,33,09,079,17,1*78
$GBGSV,4,1,13,33,76,096,42,40,75,178,37,07,72,224,39,10,69,263,37,1*74
$GBGSV,4,2,13,08,55,289,40,14,52,051,24,28,50,340,44,43,49,085,35,1*74
$GBGSV,4,3,13,13,47,275,36,41,40,201,44,42,27,041,37,37,10,256,,1*73
$GBGSV,4,4,13,23,08,207,,1*48
$GBGSV,2,1,05,33,76,096,44,40,75,178,43,28,50,340,45,41,40,201,46,4*7D
$GBGSV,2,2,05,42,27,041,18,4*49
$GNGGA,042948.000,2500.7858100,N,12132.4491000,E,2,53,0.52,18.50,M,15.25,M,1,3335*74
$GNRMC,042948.000,A,2500.7858100,N,12132.4491000,E,0.05,62.93,270623,,,D,V*3A
$GPHDT,,T*1B
$GNGGA,042948.200,2500.7858100,N,12132.4491000,E,2,53,0.52,18.52,M,15.25,M,1,3335*74
$GNRMC,042948.200,A,2500.7858100,N,12132.4491000,E,0.05,62.93,270623,,,D,V*38
$GPHDT,,T*1B
$GNGGA,042948.400,2500.7858200,N,12132.4490900,E,2,53,0.52,18.53,M,15.25,M,1,3335*78
$GNRMC,042948.400,A,2500.7858200,N,12132.4490900,E,0.05,62.93,270623,,,D,V*35
$GPHDT,,T*1B
$GNGGA,042948.600,2500.7858300,N,12132.4490800,E,2,53,0.52,18.55,M,15.25,M,0,3335*7D
$GNRMC,042948.600,A,2500.7858300,N,12132.4490800,E,0.05,62.93,270623,,,D,V*37
$GPHDT,,T*1B
$GNGGA,042948.800,2500.7858300,N,12132.4490800,E,2,53,0.52,18.56,M,15.25,M,0,3335*70
$GNRMC,042948.800,A,2500.7858300,N,12132.4490800,E,0.05,62.93,270623,,,D,V*39
$GPHDT,,T*1B
$GNGSA,A,3,19,196,195,199,17,06,20,09,11,194,12,04,1.12,0.52,0.99,1*0E
$GNGSA,A,3,68,83,82,67,69,,,,,,,,1.12,0.52,0.99,2*06
$GNGSA,A,3,10,12,04,11,24,19,25,,,,,,1.12,0.52,0.99,3*09
$GNGSA,A,3,33,40,07,10,08,14,28,43,13,41,42,,1.12,0.52,0.99,4*02
$GPGSV,4,1,15,19,71,083,32,196,70,118,42,195,69,051,42,50,60,167,30,1*66
$GPGSV,4,2,15,199,60,167,28,17,55,116,41,06,49,010,39,20,43,249,45,1*55
$GPGSV,4,3,15,09,37,081,31,11,35,306,24,194,33,173,33,12,24,302,22,1*59
$GPGSV,4,4,15,05,18,232,16,04,17,053,21,14,08,171,,1*55
$GPGSV,2,1,08,196,70,118,46,195,69,051,40,199,60,167,44,06,49,010,41,8*5F
$GPGSV,2,2,08,09,37,081,24,11,35,306,34,194,33,173,30,04,17,053,32,8*5C
$GLGSV,2,1,08,68,70,110,40,83,41,008,31,82,35,067,18,67,33,037,38,1*70
$GLGSV,2,2,08,69,33,185,22,73,17,266,,74,08,308,20,80,08,214,,1*76
$GAGSV,3,1,10,10,50,358,38,12,44,036,17,04,42,142,34,11,39,319,37,7*76
$GAGSV,3,2,10,24,39,224,22,19,32,067,19,25,29,290,17,09,11,188,,7*72
$GAGSV,3,3,10,33,09,079,21,36,04,284,,7*79
$GAGSV,2,1,06,10,50,358,44,12,44,036,29,04,42,142,39,11,39,319,38,1*72
$GAGSV,2,2,06,24,39,224,19,33,09,079,18,1*7D
$GBGSV,4,1,14,33,76,096,42,40,75,178,37,07,72,224,39,10,69,263,37,1*73
$GBGSV,4,2,14,08,55,289,40,14,52,051,22,28,50,340,44,43,49,085,35,1*75
$GBGSV,4,3,14,13,47,275,36,41,40,201,44,42,27,041,37,37,10,256,,1*74
$GBGSV,4,4,14,23,08,207,,34,08,113,,1*73
$GBGSV,2,1,05,33,76,096,44,40,75,178,43,28,50,340,45,41,40,201,46,4*7D
$GBGSV,2,2,05,42,27,041,20,4*42
$GNGGA,042949.000,2500.7858300,N,12132.4490800,E,2,53,0.52,18.57,M,15.25,M,1,3335*79
$GNRMC,042949.000,A,2500.7858300,N,12132.4490800,E,0.05,62.93,270623,,,D,V*30
$GPHDT,,T*1B
$GNGGA,042949.200,2500.7858400,N,12132.4490700,E,2,53,0.52,18.59,M,15.25,M,1,3335*7D
$GNRMC,042949.200,A,2500.7858400,N,12132.4490700,E,0.05,62.93,270623,,,D,V*3A
$GPHDT,,T*1B
$GNGGA,042949.400,2500.7858400,N,12132.4490800,E,2,53,0.52,18.60,M,15.25,M,1,3335*7E
$GNRMC,042949.400,A,2500.7858400,N,12132.4490800,E,0.04,62.93,270623,,,D,V*32
$GPHDT,,T*1B
$GNGGA,042949.600,2500.7858400,N,12132.4490900,E,2,53,0.52,18.61,M,15.25,M,0,3335*7D
$GNRMC,042949.600,A,2500.7858400,N,12132.4490900,E,0.04,62.93,270623,,,D,V*31
$GPHDT,,T*1B
$GNGGA,042949.800,2500.7858400,N,12132.4490800,E,2,53,0.52,18.62,M,15.25,M,0,3335*71
$GNRMC,042949.800,A,2500.7858400,N,12132.4490800,E,0.04,62.93,270623,,,D,V*3E
$GPHDT,,T*1B
$GNGSA,A,3,19,196,195,199,17,06,20,09,11,194,12,04,1.12,0.52,0.99,1*0E
$GNGSA,A,3,68,83,82,69,67,,,,,,,,1.12,0.52,0.99,2*06
$GNGSA,A,3,10,12,04,11,24,19,25,,,,,,1.12,0.52,0.99,3*09
$GNGSA,A,3,33,40,07,10,08,14,28,43,13,41,42,,1.12,0.52,0.99,4*02
$GPGSV,4,1,15,19,71,083,32,196,70,118,42,195,69,051,42,50,60,167,30,1*66
$GPGSV,4,2,15,199,60,167,28,17,55,116,41,06,49,010,39,20,43,249,45,1*55
$GPGSV,4,3,15,09,37,081,30,11,35,306,23,194,33,173,34,12,24,302,22,1*58
$GPGSV,4,4,15,05,18,232,16,04,17,053,19,14,08,171,,1*5E
$GPGSV,2,1,08,196,70,118,46,195,69,051,40,199,60,167,44,06,49,010,41,8*5F
$GPGSV,2,2,08,09,37,081,24,11,35,306,34,194,33,173,31,04,17,053,30,8*5F
$GLGSV,2,1,07,68,70,110,40,83,41,008,31,82,35,067,21,69,33,185,21,1*7B
$GLGSV,2,2,07,67,33,037,38,74,08,308,21,80,08,214,,1*45
$GAGSV,3,1,10,10,50,358,38,12,44,036,18,04,42,142,34,11,39,319,36,7*78
$GAGSV,3,2,10,24,39,224,23,19,32,067,18,25,29,290,17,09,11,188,,7*72
$GAGSV,3,3,10,33,09,079,19,36,04,284,,7*72
$GAGSV,2,1,07,10,50,358,44,12,44,036,29,04,42,142,39,11,39,319,38,1*73
$GAGSV,2,2,07,24,39,224,20,19,32,067,19,33,09,079,17,1*49
$GBGSV,4,1,13,33,76,096,42,40,75,178,36,07,72,223,39,10,69,263,37,1*72
$GBGSV,4,2,13,08,55,289,40,14,52,051,20,28,50,340,44,43,49,085,