$FW : RTK35X,V1.1X0314AS,Lib20210517,1*54
$Tool : LOCOSYS , GNSS Firebird , v1.0.0.19*39
$---------------------------------------------------*2D
$GNGGA,043123.800,2500.7848800,N,12132.4488700,E,2,55,0.50,21.01,M,15.25,M,0,3335*74
$GNRMC,043123.800,A,2500.7848800,N,12132.4488700,E,0.02,62.93,270623,,,D,V*36
$GPHDT,,T*1B
$GNGSA,A,3,19,196,195,199,17,06,20,11,194,12,04,,0.85,0.50,0.69,1*05
$GNGSA,A,3,68,83,82,69,67,,,,,,,,0.85,0.50,0.69,2*04
$GNGSA,A,3,10,12,04,11,24,25,19,,,,,,0.85,0.50,0.69,3*0B
$GNGSA,A,3,33,40,07,10,08,14,28,43,13,41,42,11,0.85,0.50,0.69,4*00
$GPGSV,4,1,15,19,71,086,35,196,70,117,43,195,69,051,43,50,60,167,28,1*62
$GPGSV,4,2,15,199,60,167,25,17,54,117,44,06,49,011,38,20,44,250,42,1*55
$GPGSV,4,3,15,09,37,080,21,11,36,307,26,194,33,174,29,12,24,302,25,1*52
$GPGSV,4,4,15,05,19,232,20,04,17,053,25,14,08,171,,1*55
$GPGSV,2,1,07,196,70,117,47,195,69,051,40,199,60,167,42,06,49,011,42,8*5A
$GPGSV,2,2,07,11,36,307,30,194,33,174,23,04,17,053,28,8*69
$GLGSV,2,1,06,68,70,107,38,83,41,008,29,82,35,068,16,69,34,185,28,1*7F
$GLGSV,2,2,06,67,32,036,36,80,07,213,,1*71
$GAGSV,3,1,09,10,50,359,36,12,44,037,24,04,43,142,38,11,40,320,39,7*77
$GAGSV,3,2,09,24,38,224,22,19,31,066,,25,29,289,14,33,08,080,,7*72
$GAGSV,3,3,09,36,04,284,,7*45
$GAGSV,2,1,07,10,50,359,44,12,44,037,14,04,43,142,39,11,40,320,38,1*78
$GAGSV,2,2,07,24,38,224,23,19,31,066,16,25,29,289,16,1*4F
$GBGSV,4,1,14,33,76,093,39,40,75,179,36,07,72,223,35,10,69,262,36,1*71
$GBGSV,4,2,14,08,55,290,37,14,51,050,23,28,50,341,43,43,49,086,27,1*78
$GBGSV,4,3,14,13,47,275,33,41,41,201,39,42,26,041,32,11,25,101,32,1*7C
$GBGSV,4,4,14,37,10,255,,23,08,207,,1*78
$GBGSV,2,1,06,33,76,093,45,40,75,179,44,28,50,341,41,43,49,086,23,4*7C
$GBGSV,2,2,06,41,41,201,42,42,26,041,26,4*73
$GNGGA,043124.000,2500.7848700,N,12132.4488800,E,2,53,0.50,21.01,M,15.25,M,1,3335*7C
$GNRMC,043124.000,A,2500.7848700,N,12132.4488800,E,0.03,62.93,270623,,,D,V*38
$GPHDT,,T*1B
$GNGGA,043124.200,2500.7848700,N,12132.4488900,E,2,52,0.52,21.02,M,15.25,M,1,3335*7F
$GNRMC,043124.200,A,2500.7848700,N,12132.4488900,E,0.02,62.93,270623,,,D,V*3A
$GPHDT,,T*1B
$GNGGA,043124.400,2500.7848500,N,12132.4488900,E,2,52,0.52,21.02,M,15.25,M,1,3335*7B
$GNRMC,043124.400,A,2500.7848500,N,12132.4488900,E,0.02,62.93,270623,,,D,V*3E
$GPHDT,,T*1B
$GNGGA,043124.600,2500.7848500,N,12132.4489000,E,2,51,0.52,21.02,M,15.25,M,1,3335*72
$GNRMC,043124.600,A,2500.7848500,N,12132.4489000,E,0.01,62.93,270623,,,D,V*37
$GPHDT,,T*1B
$GNGGA,043124.800,2500.7848500,N,12132.4489100,E,2,52,0.52,21.02,M,15.25,M,0,3335*7F
$GNRMC,043124.800,A,2500.7848500,N,12132.4489100,E,0.01,62.93,270623,,,D,V*38
$GPHDT,,T*1B
$GNGSA,A,3,19,196,195,199,17,06,20,09,11,194,12,04,0.87,0.52,0.70,1*04
$GNGSA,A,3,68,83,82,69,67,,,,,,,,0.87,0.52,0.70,2*0C
$GNGSA,A,3,10,12,04,11,24,19,25,,,,,,0.87,0.52,0.70,3*03
$GNGSA,A,3,33,40,07,10,08,14,28,43,13,41,42,,0.87,0.52,0.70,4*08
$GPGSV,4,1,15,19,71,086,36,196,70,117,43,195,69,051,43,50,60,167,28,1*61
$GPGSV,4,2,15,199,60,167,25,17,54,117,44,06,49,011,38,20,44,250,40,1*57
$GPGSV,4,3,15,09,37,080,20,11,36,307,26,194,33,174,28,12,24,302,25,1*52
$GPGSV,4,4,15,05,19,232,21,04,17,053,26,14,08,171,,1*57
$GPGSV,2,1,07,196,70,117,46,195,69,051,40,199,60,167,42,06,49,011,42,8*5B
$GPGSV,2,2,07,11,36,307,28,194,33,174,21,04,17,053,30,8*6B
$GLGSV,2,1,05,68,70,107,38,83,42,009,29,82,35,068,15,69,34,185,28,1*7D
$GLGSV,2,2,05,67,32,036,36,1*4D
$GAGSV,2,1,08,10,50,359,36,12,44,037,23,04,43,142,38,11,40,320,39,7*70
$GAGSV,2,2,08,24,38,224,22,19,31,066,,25,29,289,,33,08,080,,7*77
$GAGSV,2,1,07,10,50,359,44,12,44,037,11,04,43,142,39,11,40,320,38,1*7D
$GAGSV,2,2,07,24,38,224,23,19,31,066,16,25,29,289,18,1*41
$GBGSV,4,1,14,33,76,093,38,40,75,179,36,07,72,223,36,10,69,262,36,1*73
$GBGSV,4,2,14,08,55,290,37,14,51,050,24,28,50,341,43,43,49,086,27,1*7F
$GBGSV,4,3,14,13,47,275,34,41,41,201,39,42,26,041,32,11,25,101,,1*7A
$GBGSV,4,4,14,37,10,255,,23,08,207,,1*78
$GBGSV,2,1,06,33,76,093,45,40,75,179,44,28,50,341,40,43,49,086,22,4*7C
$GBGSV,2,2,06,41,41,201,40,42,26,041,26,4*71
$GNGGA,043125.000,2500.7848400,N,12132.4489200,E,2,52,0.52,21.03,M,15.25,M,1,3335*74
$GNRMC,043125.000,A,2500.7848400,N,12132.4489200,E,0.02,62.93,270623,,,D,V*30
$GPHDT,,T*1B
$GNGGA,043125.200,2500.7848300,N,12132.4489200,E,2,52,0.52,21.03,M,15.25,M,1,3335*71
$GNRMC,043125.200,A,2500.7848300,N,12132.4489200,E,0.01,62.93,270623,,,D,V*36
$GPHDT,,T*1B
$GNGGA,043125.400,2500.7848200,N,12132.4489200,E,2,52,0.52,21.03,M,15.25,M,1,3335*76
$GNRMC,043125.400,A,2500.7848200,N,12132.4489200,E,0.02,62.93,270623,,,D,V*32
$GPHDT,,T*1B
$GNGGA,043125.600,2500.7848200,N,12132.4489300,E,2,53,0.50,21.03,M,15.25,M,1,3335*76
$GNRMC,043125.600,A,2500.7848200,N,12132.4489300,E,0.02,62.93,270623,,,D,V*31
$GPHDT,,T*1B
$GNGGA,043125.800,2500.7848100,N,12132.4489400,E,2,54,0.50,21.03,M,15.25,M,0,3335*7A
$GNRMC,043125.800,A,2500.7848100,N,12132.4489400,E,0.02,62.93,270623,,,D,V*3B
$GPHDT,,T*1B
$GNGSA,A,3,19,196,195,199,17,06,20,09,11,194,12,04,0.87,0.52,0.70,1*04
$GNGSA,A,3,68,83,82,69,67,,,,,,,,0.87,0.52,0.70,2*0C
$GNGSA,A,3,10,12,04,11,24,19,25,,,,,,0.87,0.52,0.70,3*03
$GNGSA,A,3,33,40,07,10,08,14,28,43,13,41,42,,0.87,0.52,0.70,4*08
$GPGSV,4,1,15,19,71,086,36,196,70,117,43,195,69,051,43,50,60,167,28,1*61
$GPGSV,4,2,15,199,60,167,25,17,54,117,44,06,49,011,38,20,44,250,40,1*57
$GPGSV,4,3,15,09,37,080,17,11,36,307,28,194,33,174,29,12,24,302,27,1*5B
$GPGSV,4,4,15,05,19,232,20,04,17,053,24,14,08,171,,1*54
$GPGSV,2,1,07,196,70,117,46,195,69,051,40,199,60,167,42,06,49,011,42,8*5B
$GPGSV,2,2,07,11,36,307,29,194,33,174,23,04,17,053,30,8*68
$GLGSV,2,1,06,68,70,107,38,83,42,009,29,82,35,068,16,69,34,185,30,1*74
$GLGSV,2,2,06,67,32,036,36,73,16,265,,1*7C
$GAGSV,2,1,08,10,50,359,36,12,44,037,23,04,43,142,38,11,40,320,39,7*70
$GAGSV,2,2,08,24,38,224,22,19,31,066,18,25,29,289,,33,08,080,13,7*7C
$GAGSV,2,1,06,10,50,359,44,04,43,142,39,11,40,320,39,24,38,224,25,1*74
$GAGSV,2,2,06,19,31,066,16,25,29,289,18,1*78
$GBGSV,4,1,14,33,76,093,38,40,75,179,36,07,72,223,36,10,69,262,36,1*73
$GBGSV,4,2,14,08,55,290,37,14,51,050,24,28,50,341,43,43,49,086,26,1*7E
$GBGSV,4,3,14,13,47,275,34,41,41,201,39,42,26,041,31,11,25,101,,1*79
$GBGSV,4,4,14,37,10,255,,23,08,207,,1*78
$GBGSV,2,1,06,33,76,093,45,40,75,179,44,28,50,341,40,43,49,086,22,4*7C
$GBGSV,2,2,06,41,41,201,40,42,26,041,27,4*70
$GNGGA,043126.000,2500.7848000,N,12132.4489400,E,2,51,0.52,21.03,M,15.25,M,1,3335*76
$GNRMC,043126.000,A,2500.7848000,N,12132.4489400,E,0.01,62.93,270623,,,D,V*32
$GPHDT,,T*1B
$GNGGA,043126.200,2500.7847900,N,12132.4489500,E,2,52,0.52,21.04,M,15.25,M,1,3335*77
$GNRMC,043126.200,A,2500.7847900,N,12132.4489500,E,0.02,62.93,270623,,,D,V*34
$GPHDT,,T*1B
$GNGGA,043126.400,2500.7847900,N,12132.4489500,E,2,52,0.52,21.04,M,15.25,M,1,3335*71
$GNRMC,043126.400,A,2500.7847900,N,12132.4489500,E,0.02,62.93,270623,,,D,V*32
$GPHDT,,T*1B
$GNGGA,043126.600,2500.7847800,N,12132.4489500,E,2,52,0.50,21.04,M,15.25,M,0,3335*71
$GNRMC,043126.600,A,2500.7847800,N,12132.4489500,E,0.02,62.93,270623,,,D,V*31
$GPHDT,,T*1B
$GNGGA,043126.800,2500.7847700,N,12132.4489600,E,2,52,0.50,21.04,M,15.25,M,0,3335*73
$GNRMC,043126.800,A,2500.7847700,N,12132.4489600,E,0.02,62.93,270623,,,D,V*33
$GPHDT,,T*1B
$GNGSA,A,3,19,196,195,199,17,06,20,09,11,194,12,04,0.87,0.52,0.70,1*04
$GNGSA,A,3,68,83,82,69,67,,,,,,,,0.87,0.52,0.70,2*0C
$GNGSA,A,3,10,12,04,11,24,19,25,,,,,,0.87,0.52,0.70,3*03
$GNGSA,A,3,33,40,07,10,08,14,28,43,13,41,42,,0.87,0.52,0.70,4*08
$GPGSV,4,1,15,19,71,086,36,196,70,117,43,195,69,051,43,50,60,167,28,1*61
$GPGSV,4,2,15,199,60,167,25,17,54,117,44,06,49,011,38,20,44,250,40,1*57
$GPGSV,4,3,15,09,37,080,17,11,36,307,29,194,33,174,28,12,24,302,27,1*5B
$GPGSV,4,4,15,05,19,232,20,04,17,053,24,14,08,171,,1*54
$GPGSV,2,1,07,196,70,117,46,195,69,051,40,199,60,167,42,06,49,011,42,8*5B
$GPGSV,2,2,07,11,36,307,30,194,33,174,22,04,17,053,28,8*68
$GLGSV,2,1,06,68,70,107,38,83,42,009,29,82,35,068,20,69,34,185,30,1*71
$GLGSV,2,2,06,67,32,036,36,73,16,265,,1*7C
$GAGSV,3,1,09,10,50,359,36,12,44,037,22,04,43,142,38,11,40,320,39,7*71
$GAGSV,3,2,09,24,38,224,22,19,31,066,18,25,29,289,,09,12,188,,7*75
$GAGSV,3,3,09,33,08,080,13,7*48
$GAGSV,2,1,06,10,50,359,44,04,43,142,39,11,40,320,40,24,38,224,24,1*7B
$GAGSV,2,2,06,19,31,066,16,25,29,289,16,1*76
$GBGSV,4,1,15,33,76,093,38,40,75,179,36,07,72,223,37,10,69,262,35,1*70
$GBGSV,4,2,15,08,55,290,37,14,51,050,26,28,50,341,43,43,49,086,25,1*7E
$GBGSV,4,3,15,13,47,275,31,41,41,201,39,42,26,041,32,11,25,101,,1*7E
$GBGSV,4,4,15,37,10,255,,34,08,113,,23,08,207,,1*45
$GBGSV,2,1,06,33,76,093,45,40,75,179,44,28,50,341,40,43,49,086,20,4*7E
$GBGSV,2,2,06,41,41,201,41,42,26,041,27,4*71
$GNGGA,043127.000,2500.7847500,N,12132.4489700,E,2,52,0.52,21.05,M,15.25,M,1,3335*7B
$GNRMC,043127.000,A,2500.7847500,N,12132.4489700,E,0.02,62.93,270623,,,D,V*39
$GPHDT,,T*1B
$GNGGA,043127.200,2500.7847500,N,12132.4489600,E,2,51,0.52,21.05,M,15.25,M,1,3335*7B
$GNRMC,043127.200,A,2500.7847500,N,12132.4489600,E,0.01,62.93,270623,,,D,V*39
$GPHDT,,T*1B
$GNGGA,043127.400,2500.7847300,N,12132.4489700,E,2,49,0.52,21.05,M,15.25,M,1,3335*73
$GNRMC,043127.400,A,2500.7847300,N,12132.4489700,E,0.02,62.93,270623,,,D,V*3B
$GPHDT,,T*1B
$GNGGA,043127.600,2500.7847400,N,12132.4489600,E,2,49,0.52,21.05,M,15.25,M,0,3335*76
$GNRMC,043127.600,A,2500.7847400,N,12132.4489600,E,0.02,62.93,270623,,,D,V*3F
$GPHDT,,T*1B
$GNGGA,043127.800,2500.7847300,N,12132.4489700,E,2,49,0.52,21.05,M,15.25,M,0,3335*7E
$GNRMC,043127.800,A,2500.7847300,N,12132.4489700,E,0.03,62.93,270623,,,D,V*36
$GPHDT,,T*1B
$GNGSA,A,3,19,196,195,199,17,06,20,11,194,12,04,,0.88,0.52,0.71,1*03
$GNGSA,A,3,68,83,82,69,67,,,,,,,,0.88,0.52,0.71,2*02
$GNGSA,A,3,10,12,04,11,24,19,25,,,,,,0.88,0.52,0.71,3*0D
$GNGSA,A,3,33,40,07,10,08,14,28,43,13,41,42,,0.88,0.52,0.71,4*06
$GPGSV,4,1,15,19,71,086,36,196,70,117,43,195,69,051,43,50,60,167,28,1*61
$GPGSV,4,2,15,199,60,167,24,17,54,117,44,06,49,011,39,20,44,250,44,1*53
$GPGSV,4,3,15,09,37,080,15,11,36,307,28,194,33,174,28,12,24,302,26,1*59
$GPGSV,4,4,15,05,19,232,18,04,17,053,24,14,08,171,,1*5F
$GPGSV,2,1,06,196,70,117,46,195,69,051,40,199,60,167,41,06,49,011,41,8*5A
$GPGSV,2,2,06,11,36,307,32,04,17,053,28,8*65
$GLGSV,2,1,06,68,70,107,37,83,42,009,29,82,35,068,26,69,34,185,30,1*78
$GLGSV,2,2,06,67,32,036,33,73,16,265,,1*79
$GAGSV,3,1,09,10,50,359,36,12,44,037,23,04,43,142,38,11,40,320,39,7*70
$GAGSV,3,2,09,24,38,224,24,19,31,066,17,25,29,289,,09,12,188,,7*7C
$GAGSV,3,3,09,33,08,080,13,7*48
$GAGSV,2,1,06,10,50,359,42,04,43,142,39,11,40,320,40,24,38,224,27,1*7E
$GAGSV,2,2,06,19,31,066,16,25,29,289,14,1*74
$GBGSV,4,1,15,33,76,093,39,40,75,179,37,07,72,223,38,10,69,262,35,1*7F
$GBGSV,4,2,15,08,55,290,28,14,51,050,29,28,50,341,43,43,49,086,28,1*72
$GBGSV,4,3,15,13,47,275,31,41,41,201,35,42,26,041,35,11,25,101,,1*75
$GBGSV,4,4,15,37,10,255,,34,08,113,,23,08,207,,1*45
$GBGSV,2,1,06,33,76,093,45,40,75,179,44,28,50,341,41,43,49,086,19,4*75
$GBGSV,2,2,06,41,41,201,40,42,26,041,27,4*70
$GNGGA,043128.000,2500.7847300,N,12132.4489700,E,2,50,0.52,21.05,M,15.25,M,1,3335*70
$GNRMC,043128.000,A,2500.7847300,N,12132.4489700,E,0.01,62.93,270623,,,D,V*33
$GPHDT,,T*1B
$GNGGA,043128.200,2500.7847300,N,12132.4489600,E,2,51,0.52,21.05,M,15.25,M,1,3335*72
$GNRMC,043128.200,A,2500.7847300,N,12132.4489600,E,0.02,62.93,270623,,,D,V*33
$GPHDT,,T*1B
$GNGGA,043128.400,2500.7847300,N,12132.4489700,E,2,51,0.52,21.06,M,15.25,M,1,3335*76
$GNRMC,043128.400,A,2500.7847300,N,12132.4489700,E,0.01,62.93,270623,,,D,V*37
$GPHDT,,T*1B
$GNGGA,043128.600,2500.7847300,N,12132.4489600,E,2,51,0.52,21.06,M,15.25,M,0,3335*74
$GNRMC,043128.600,A,2500.7847300,N,12132.4489600,E,0.02,62.93,270623,,,D,V*37
$GPHDT,,T*1B
$GNGGA,043128.800,2500.7847300,N,12132.4489600,E,2,51,0.52,21.06,M,15.25,M,0,3335*7A
$GNRMC,043128.800,A,2500.7847300,N,12132.4489600,E,0.01,62.93,270623,,,D,V*3A
$GPHDT,,T*1B
$GNGSA,A,3,19,196,195,199,17,06,20,11,194,12,04,,0.88,0.52,0.71,1*03
$GNGSA,A,3,68,83,82,69,67,,,,,,,,0.88,0.52,0.71,2*02
$GNGSA,A,3,10,12,04,11,24,19,25,,,,,,0.88,0.52,0.71,3*0D
$GNGSA,A,3,33,40,07,10,08,14,28,43,13,41,42,,0.88,0.52,0.71,4*06
$GPGSV,4,1,15,19,71,086,36,196,70,117,43,195,69,051,43,50,60,167,28,1*61
$GPGSV,4,2,15,199,60,167,24,17,54,117,44,06,49,011,39,20,44,250,45,1*52
$GPGSV,4,3,15,09,37,080,14,11,36,307,27,194,33,174,29,12,24,302,28,1*58
$GPGSV,4,4,15,05,19,232,15,04,17,053,26,14,08,171,,1*50
$GPGSV,2,1,07,196,70,117,46,195,69,051,40,199,60,167,41,06,49,011,41,8*5B
$GPGSV,2,2,07,11,36,307,32,194,33,174,30,04,17,053,31,8*61
$GLGSV,2,1,06,68,70,107,38,83,42,009,29,82,35,068,28,69,34,185,28,1*70
$GLGSV,2,2,06,67,32,036,28,73,16,265,,1*73
$GAGSV,3,1,09,10,50,359,36,12,44,037,23,04,43,142,38,11,40,320,39,7*70
$GAGSV,3,2,09,24,38,224,23,19,31,066,12,25,29,289,,09,12,188,,7*7E
$GAGSV,3,3,09,33,08,080,12,7*49
$GAGSV,2,1,06,10,50,359,42,04,43,142,39,11,40,320,40,24,38,224,28,1*71
$GAGSV,2,2,06,19,31,066,16,25,29,289,14,1*74
$GBGSV,4,1,15,33,76,093,40,40,75,179,37,07,72,223,39,10,69,262,36,1*73
$GBGSV,4,2,15,08,55,290,32,14,51,050,29,28,50,341,43,43,49,086,28,1*79
$GBGSV,4,3,15,13,47,275,28,41,41,201,36,42,26,041,35,11,25,101,,1*7E
$GBGSV,4,4,15,37,10,255,,34,08,113,,23,08,207,,1*45
$GBGSV,2,1,06,33,76,093,45,40,75,179,44,28,50,341,42,43,49,086,22,4*7E
$GBGSV,2,2,06,41,41,201,42,42,26,041,26,4*73
$GNGGA,043129.000,2500.7847300,N,12132.4489700,E,2,51,0.52,21.06,M,15.25,M,1,3335*73
$GNRMC,043129.000,A,2500.7847300,N,12132.4489700,E,0.01,62.93,270623,,,D,V*32
$GPHDT,,T*1B
$GNGGA,043129.200,2500.7847300,N,12132.4489700,E,2,51,0.52,21.06,M,15.25,M,1,3335*71
$GNRMC,043129.200,A,2500.7847300,N,12132.4489700,E,0.01,62.93,270623,,,D,V*30
$GPHDT,,T*1B
$GNGGA,043129.400,2500.7847300,N,12132.4489700,E,2,51,0.52,21.06,M,15.25,M,1,3335*77
$GNRMC,043129.400,A,2500.7847300,N,12132.4489700,E,0.02,62.93,270623,,,D,V*35
$GPHDT,,T*1B
$GNGGA,043129.600,2500.7847300,N,12132.4489700,E,2,50,0.52,21.06,M,15.25,M,0,3335*75
$GNRMC,043129.600,A,2500.7847300,N,12132.4489700,E,0.02,62.93,270623,,,D,V*37
$GPHDT,,T*1B
$GNGGA,043129.800,2500.7847200,N,12132.4489700,E,2,51,0.52,21.06,M,15.25,M,0,3335*7B
$GNRMC,043129.800,A,2500.7847200,N,12132.4489700,E,0.01,62.93,270623,,,D,V*3B
$GPHDT,,T*1B
$GNGSA,A,3,19,196,195,199,17,06,20,11,194,12,04,,0.88,0.52,0.71,1*03
$GNGSA,A,3,68,83,82,69,67,,,,,,,,0.88,0.52,0.71,2*02
$GNGSA,A,3,10,12,04,11,24,19,25,,,,,,0.88,0.52,0.71,3*0D
$GNGSA,A,3,33,40,07,10,08,14,28,43,13,41,42,,0.88,0.52,0.71,4*06
$GPGSV,4,1,15,19,71,086,36,196,70,117,43,195,69,051,42,50,60,167,27,1*6F
$GPGSV,4,2,15,199,60,167,23,17,54,117,44,06,49,011,39,20,44,250,46,1*56
$GPGSV,4,3,15,09,37,080,17,11,36,307,27,194,33,174,26,12,24,302,28,1*54
$GPGSV,4,4,15,05,19,232,15,04,17,053,26,14,08,171,,1*50
$GPGSV,2,1,07,196,70,117,47,195,69,051,41,199,60,167,41,06,49,011,41,8*5B
$GPGSV,2,2,07,11,36,307,32,194,33,174,27,04,17,053,29,8*6E
$GLGSV,2,1,07,68,70,107,38,83,42,009,30,82,35,068,28,69,34,185,28,1*79
$GLGSV,2,2,07,67,32,036,25,73,16,265,,74,08,308,,1*4F
$GAGSV,2,1,08,10,50,359,37,12,44,037,23,04,43,142,38,11,40,320,39,7*71
$GAGSV,2,2,08,24,38,224,20,19,31,066,10,09,12,188,,33,08,080,13,7*72
$GAGSV,2,1,06,10,50,359,43,04,43,142,40,11,40,320,40,24,38,224,29,1*7F
$GAGSV,2,2,06,19,31,066,16,25,29,289,15,1*75
$GBGSV,4,1,15,33,76,093,40,40,75,179,38,07,72,223,39,10,69,262,36,1*7C
$GBGSV,4,2,15,08,55,290,32,14,51,050,29,28,50,341,43,43,49,086,30,1*70
$GBGSV,4,3,15,13,47,275,26,41,41,201,36,42,26,041,35,11,25,101,,1*70
$GBGSV,4,4,15,37,10,255,,23,08,207,,34,08,113,,1*45
$GBGSV,2,1,06,33,76,093,45,40,75,179,44,28,50,341,42,43,49,086,24,4*78
$GBGSV,2,2,06,41,41,201,42,42,26,041,27,4*72
$GNGGA,043130.000,2500.7847200,N,12132.4489700,E,2,51,0.52,21.06,M,15.25,M,1,3335*7A
$GNRMC,043130.000,A,2500.7847200,N,12132.4489700,E,0.00,62.93,270623,,,D,V*3A
$GPHDT,,T*1B
$GNGGA,043130.200,2500.7847200,N,12132.4489700,E,2,51,0.52,21.06,M,15.25,M,1,3335*78
$GNRMC,043130.200,A,2500.7847200,N,12132.4489700,E,0.00,62.93,270623,,,D,V*38
$GPHDT,,T*1B
$GNGGA,043130.400,2500.7847200,N,12132.4489700,E,2,50,0.52,21.06,M,15.25,M,0,3335*7E
$GNRMC,043130.400,A,2500.7847200,N,12132.4489700,E,0.02,62.93,270623,,,D,V*3C
$GPHDT,,T*1B
$GNGGA,043130.600,2500.7847100,N,12132.4489700,E,2,52,0.52,21.06,M,15.25,M,0,3335*7D
$GNRMC,043130.600,A,2500.7847100,N,12132.4489700,E,0.01,62.93,270623,,,D,V*3E
$GPHDT,,T*1B
$GNGGA,043130.800,2500.7847000,N,12132.4489700,E,2,52,0.52,21.06,M,15.25,M,0,3335*72
$GNRMC,043130.800,A,2500.7847000,N,12132.4489700,E,0.01,62.93,270623,,,D,V*31
$GPHDT,,T*1B
$GNGSA,A,3,19,196,195,199,17,06,20,11,194,12,04,,0.88,0.52,0.71,1*03
$GNGSA,A,3,68,83,82,69,67,,,,,,,,0.88,0.52,0.71,2*02
$GNGSA,A,3,10,12,04,11,24,19,25,,,,,,0.88,0.52,0.71,3*0D
$GNGSA,A,3,33,40,07,10,08,14,28,43,13,41,42,,0.88,0.52,0.71,4*06
$GPGSV,4,1,15,19,71,086,35,196,70,117,43,195,69,051,42,50,60,167,26,1*6D
$GPGSV,4,2,15,199,60,167,23,17,54,117,44,06,49,011,39,20,44,250,46,1*56
$GPGSV,4,3,15,09,37,080,22,11,36,307,30,194,33,174,24,12,24,302,28,1*56
$GPGSV,4,4,15,05,19,232,14,04,17,053,24,14,08,171,,1*53
$GPGSV,2,1,07,196,70,117,47,195,69,051,41,199,60,167,41,06,49,011,41,8*5B
$GPGSV,2,2,07,11,36,307,33,194,33,174,28,04,17,053,29,8*60
$GLGSV,2,1,07,68,70,107,37,83,42,009,31,82,35,068,28,69,34,185,30,1*7E
$GLGSV,2,2,07,67,32,036,27,74,08,308,,84,07,313,,1*45
$GAGSV,3,1,09,10,50,359,37,12,44,037,23,04,43,142,38,11,40,320,39,7*71
$GAGSV,3,2,09,24,38,224,22,19,31,066,10,25,29,289,,09,12,188,,7*7D
$GAGSV,3,3,09,33,08,080,,7*4A
$GAGSV,2,1,07,10,50,359,43,12,44,037,25,04,43,142,40,11,40,320,40,1*7C
$GAGSV,2,2,07,24,38,224,28,19,31,066,16,25,29,289,14,1*46
$GBGSV,4,1,14,33,76,093,40,40,75,179,38,07,72,223,39,10,69,262,36,1*7D
$GBGSV,4,2,14,08,55,290,32,14,51,050,29,28,50,341,42,43,49,086,30,1*70
$GBGSV,4,3,14,13,47,275,27,41,41,201,36,42,26,041,35,11,25,101,,1*70
$GBGSV,4,4,14,37,10,255,,23,08,207,,1*78
$GBGSV,2,1,06,33,76,093,44,40,75,179,44,28,50,341,42,43,49,086,23,4*7E
$GBGSV,2,2,06,41,41,201,40,42,26,041,26,4*71
$GNGGA,043131.000,2500.7847000,N,12132.4489700,E,2,51,0.52,21.06,M,15.25,M,1,3335*79
$GNRMC,043131.000,A,2500.7847000,N,12132.4489700,E,0.01,62.93,270623,,,D,V*38
$GPHDT,,T*1B
$GNGGA,043131.200,2500.7847000,N,12132.4489700,E,2,52,0.52,21.06,M,15.25,M,1,3335*78
$GNRMC,043131.200,A,2500.7847000,N,12132.4489700,E,0.01,62.93,270623,,,D,V*3A
$GPHDT,,T*1B
$GNGGA,043131.400,2500.7846900,N,12132.4489700,E,2,51,0.53,21.06,M,15.25,M,1,3335*74
$GNRMC,043131.400,A,2500.7846900,N,12132.4489700,E,0.01,62.93,270623,,,D,V*34
$GPHDT,,T*1B
$GNGGA,043131.600,2500.7846900,N,12132.4489700,E,2,52,0.53,21.06,M,15.25,M,1,3335*75
$GNRMC,043131.600,A,2500.7846900,N,12132.4489700,E,0.01,62.93,270623,,,D,V*36
$GPHDT,,T*1B
$GNGGA,043131.800,2500.7846900,N,12132.4489700,E,2,52,0.53,21.05,M,15.25,M,0,3335*79
$GNRMC,043131.800,A,2500.7846900,N,12132.4489700,E,0.01,62.93,270623,,,D,V*38
$GPHDT,,T*1B
$GNGSA,A,3,19,196,195,199,17,06,20,09,11,194,12,04,0.89,0.53,0.71,1*0A
$GNGSA,A,3,68,83,82,69,67,,,,,,,,0.89,0.53,0.71,2*02
$GNGSA,A,3,10,12,04,11,24,19,,,,,,,0.89,0.53,0.71,3*0A
$GNGSA,A,3,33,40,07,10,08,14,28,43,13,41,42,,0.89,0.53,0.71,4*06
$GPGSV,4,1,15,19,71,086,34,196,70,117,43,195,69,051,42,50,60,167,26,1*6C
$GPGSV,4,2,15,199,60,167,25,17,54,117,44,06,49,011,39,20,44,250,42,1*54
$GPGSV,4,3,15,09,37,080,25,11,36,307,30,194,33,174,27,12,24,302,28,1*52
$GPGSV,4,4,15,05,19,232,14,04,17,053,25,14,08,171,,1*52
$GPGSV,2,1,07,196,70,117,47,195,69,051,41,199,60,167,40,06,49,011,40,8*5B
$GPGSV,2,2,07,11,36,307,33,194,33,174,28,04,17,053,30,8*68
$GLGSV,2,1,08,68,70,107,37,83,42,009,31,82,35,068,28,69,34,185,32,1*73
$GLGSV,2,2,08,67,32,036,29,74,08,308,,84,07,313,,80,07,213,,1*7B
$GAGSV,3,1,09,10,50,359,36,12,44,037,21,04,43,142,38,11,40,320,39,7*72
$GAGSV,3,2,09,24,38,224,23,19,31,066,15,25,29,289,,33,08,080,,7*72
$GAGSV,3,3,09,36,04,284,,7*45
$GAGSV,2,1,06,10,50,359,44,12,44,037,23,04,43,142,40,11,40,320,40,1*7C
$GAGSV,2,2,06,24,38,224,28,19,31,066,16,1*7D
$GBGSV,4,1,14,33,76,093,39,40,75,179,37,07,72,223,39,10,69,262,34,1*7E
$GBGSV,4,2,14,08,55,290,34,14,51,050,29,28,50,341,42,43,49,086,30,1*76
$GBGSV,4,3,14,13,47,275,27,41,41,201,28,42,26,041,33,11,25,101,,1*79
$GBGSV,4,4,14,37,10,255,,06,03,184,,1*7C
$GBGSV,2,1,06,33,76,093,44,40,75,179,44,28,50,341,40,43,49,086,22,4*7D
$GBGSV,2,2,06,41,41,201,41,42,26,041,28,4*7E
$GNGGA,043132.000,2500.7846700,N,12132.4489700,E,2,52,0.53,21.05,M,15.25,M,1,3335*7D
$GNRMC,043132.000,A,2500.7846700,N,12132.4489700,E,0.01,62.93,270623,,,D,V*3D
$GPHDT,,T*1B
$GNGGA,043132.200,2500.7846700,N,12132.4489700,E,2,53,0.53,21.05,M,15.25,M,1,3335*7E
$GNRMC,043132.200,A,2500.7846700,N,12132.4489700,E,0.01,62.93,270623,,,D,V*3F
$GPHDT,,T*1B
$GNGGA,043132.400,2500.7846600,N,12132.4489800,E,2,53,0.53,21.05,M,15.25,M,1,3335*76
$GNRMC,043132.400,A,2500.7846600,N,12132.4489800,E,0.02,62.93,270623,,,D,V*34
$GPHDT,,T*1B
$GNGGA,043132.600,2500.7846600,N,12132.4489700,E,2,53,0.53,21.05,M,15.25,M,1,3335*7B
$GNRMC,043132.600,A,2500.7846600,N,12132.4489700,E,0.02,62.93,270623,,,D,V*39
$GPHDT,,T*1B
$GNGGA,043132.800,2500.7846500,N,12132.4489700,E,2,53,0.53,21.05,M,15.25,M,0,3335*77
$GNRMC,043132.800,A,2500.7846500,N,12132.4489700,E,0.01,62.93,270623,,,D,V*37
$GPHDT,,T*1B
$GNGSA,A,3,19,196,195,199,17,06,20,09,11,194,12,04,0.89,0.53,0.71,1*0A
$GNGSA,A,3,68,83,82,69,67,,,,,,,,0.89,0.53,0.71,2*02
$GNGSA,A,3,10,12,04,11,24,19,,,,,,,0.89,0.53,0.71,3*0A
$GNGSA,A,3,33,40,07,10,08,14,28,43,13,41,42,,0.89,0.53,0.71,4*06
$GPGSV,4,1,14,19,71,086,34,196,70,117,43,195,69,051,42,50,60,167,26,1*6D
$GPGSV,4,2,14,199,60,167,24,17,54,117,44,06,49,011,39,20,44,250,41,1*57
$GPGSV,4,3,14,09,37,080,25,11,36,307,30,194,33,174,27,12,24,302,28,1*53
$GPGSV,4,4,14,05,19,232,15,04,17,053,25,1*68
$GPGSV,2,1,07,196,70,117,47,195,69,051,41,199,60,167,40,06,49,011,40,8*5B
$GPGSV,2,2,07,11,36,307,33,194,33,174,29,04,17,053,30,8*69
$GLGSV,2,1,07,68,70,107,37,83,42,009,30,82,35,068,28,69,34,185,32,1*7D
$GLGSV,2,2,07,67,32,036,30,74,08,308,,80,07,213,,1*46
$GAGSV,3,1,09,10,50,359,36,12,44,037,19,04,43,142,38,11,40,320,39,7*79
$GAGSV,3,2,09,24,38,224,22,19,31,066,16,25,29,289,,33,08,080,13,7*72
$GAGSV,3,3,09,36,04,284,,7*45
$GAGSV,2,1,06,10,50,359,44,12,44,037,23,04,43,142,40,11,40,320,40,1*7C
$GAGSV,2,2,06,24,38,224,26,19,31,066,16,1*73
$GBGSV,4,1,14,33,76,092,39,40,75,179,37,07,72,223,39,10,69,262,33,1*78
$GBGSV,4,2,14,08,55,290,34,14,51,050,29,28,50,341,42,43,49,086,31,1*77
$GBGSV,4,3,14,13,47,275,27,41,41,201,32,42,26,041,32,11,25,101,,1*73
$GBGSV,4,4,14,37,10,255,,34,08,113,,1*78
$GBGSV,2,1,06,33,76,092,44,40,75,179,44,28,50,341,40,43,49,086,22,4*7C
$GBGSV,2,2,06,41,41,201,41,42,26,041,28,4*7E
$GNGGA,043133.000,2500.7846400,N,12132.4489700,E,2,53,0.53,21.05,M,15.25,M,1,3335*7E
$GNRMC,043133.000,A,2500.7846400,N,12132.4489700,E,0.01,62.93,270623,,,D,V*3F
$GPHDT,,T*1B
$GNGGA,043133.200,2500.7846300,N,12132.4489700,E,2,53,0.53,21.05,M,15.25,M,1,3335*7B
$GNRMC,043133.200,A,2500.7846300,N,12132.4489700,E,0.02,62.93,270623,,,D,V*39
$GPHDT,,T*1B
$GNGGA,043133.400,2500.7846200,N,12132.4489700,E,2,53,0.53,21.05,M,15.25,M,1,3335*7C
$GNRMC,043133.400,A,2500.7846200,N,12132.4489700,E,0.03,62.93,270623,,,D,V*3F
$GPHDT,,T*1B
$GNGGA,043133.600,2500.7846100,N,12132.4489700,E,2,53,0.53,21.05,M,15.25,M,0,3335*7C
$GNRMC,043133.600,A,2500.7846100,N,12132.4489700,E,0.04,62.93,270623,,,D,V*39
$GPHDT,,T*1B
$GNGGA,043133.800,2500.7846000,N,12132.4489600,E,2,53,0.53,21.05,M,15.25,M,0,3335*72
$GNRMC,043133.800,A,2500.7846000,N,12132.4489600,E,0.03,62.93,270623,,,D,V*30
$GPHDT,,T*1B
$GNGSA,A,3,19,196,195,199,17,06,20,09,11,194,12,04,1.14,0.53,1.01,1*09
$GNGSA,A,3,68,83,82,69,67,,,,,,,,1.14,0.53,1.01,2*01
$GNGSA,A,3,10,12,04,11,24,19,,,,,,,1.14,0.53,1.01,3*09
$GNGSA,A,3,33,40,07,10,08,14,28,43,13,41,42,,1.14,0.53,1.01,4*05
$GPGSV,4,1,15,19,71,086,34,196,70,117,43,195,69,051,42,50,60,167,27,1*6D
$GPGSV,4,2,15,199,60,167,24,17,54,117,44,06,49,011,38,20,44,250,41,1*57
$GPGSV,4,3,15,09,37,080,26,11,36,307,31,194,33,174,26,12,24,302,27,1*5E
$GPGSV,4,4,15,05,19,232,15,04,17,053,26,14,08,171,,1*50
$GPGSV,2,1,07,196,70,117,47,195,69,051,41,199,60,167,40,06,49,011,40,8*5B
$GPGSV,2,2,07,11,36,307,33,194,33,174,28,04,17,053,30,8*68
$GLGSV,2,1,07,68,70,107,37,83,42,009,30,82,35,068,28,69,34,185,33,1*7C
$GLGSV,2,2,07,67,32,036,30,74,08,308,,80,07,213,,1*46
$GAGSV,3,1,09,10,50,359,36,12,44,037,19,04,43,142,38,11,40,320,39,7*79
$GAGSV,3,2,09,24,38,224,20,19,31,066,16,25,29,289,,33,08,080,12,7*71
$GAGSV,3,3,09,36,04,284,,7*45
$GAGSV,2,1,07,10,50,359,44,12,44,037,23,04,43,142,40,11,40,320,41,1*7C
$GAGSV,2,2,07,24,38,224,26,19,31,066,16,33,08,080,18,1*4B
$GBGSV,4,1,13,33,76,092,39,40,74,180,37,07,72,223,39,10,69,262,31,1*7A
$GBGSV,4,2,13,08,55,290,34,14,51,050,29,28,50,341,43,43,49,086,31,1*71
$GBGSV,4,3,13,13,47,275,24,41,41,202,33,42,26,041,31,11,25,101,,1*76
$GBGSV,4,4,13,37,10,255,,1*43
$GBGSV,2,1,06,33,76,092,44,40,74,180,44,28,50,341,40,43,49,086,21,4*78
$GBGSV,2,2,06,41,41,202,42,42,26,041,28,4*7E
$GNGGA,043134.000,2500.7845800,N,12132.4489500,E,2,53,0.53,21.05,M,15.25,M,1,3335*74
$GNRMC,043134.000,A,2500.7845800,N,12132.4489500,E,0.02,62.93,270623,,,D,V*36
$GPHDT,,T*1B
$GNGGA,043134.200,2500.7845700,N,12132.4489500,E,2,53,0.53,21.05,M,15.25,M,1,3335*79
$GNRMC,043134.200,A,2500.7845700,N,12132.4489500,E,0.01,62.93,270623,,,D,V*38
$GPHDT,,T*1B
$GNGGA,043134.400,2500.7845800,N,12132.4489500,E,2,53,0.53,21.05,M,15.25,M,1,3335*70
$GNRMC,043134.400,A,2500.7845800,N,12132.4489500,E,0.01,62.93,270623,,,D,V*31
$GPHDT,,T*1B
$GNGGA,043134.600,2500.7845700,N,12132.4489500,E,2,51,0.53,21.05,M,15.25,M,1,3335*7F
$GNRMC,043134.600,A,2500.7845700,N,12132.4489500,E,0.00,62.93,270623,,,D,V*3D
$GPHDT,,T*1B
$GNGGA,043134.800,2500.7845800,N,12132.4489500,E,2,51,0.53,21.05,M,15.25,M,0,3335*7F
$GNRMC,043134.800,A,2500.7845800,N,12132.4489500,E,0.08,62.93,270623,,,D,V*34
$GPHDT,,T*1B
$GNGSA,A,3,19,196,195,199,17,06,20,09,11,194,12,04,1.14,0.53,1.01,1*09
$GNGSA,A,3,68,83,82,69,67,,,,,,,,1.14,0.53,1.01,2*01
$GNGSA,A,3,10,12,04,11,24,19,,,,,,,1.14,0.53,1.01,3*09
$GNGSA,A,3,33,40,07,10,08,14,28,43,13,41,42,,1.14,0.53,1.01,4*05
$GPGSV,4,1,15,19,71,086,34,196,70,117,43,195,69,051,42,50,60,167,27,1*6D
$GPGSV,4,2,15,199,60,167,23,17,54,117,44,06,49,011,38,20,44,250,39,1*5F
$GPGSV,4,3,15,09,37,080,25,11,36,307,30,194,33,174,25,12,24,302,25,1*5D
$GPGSV,4,4,15,05,19,232,17,04,17,053,23,14,08,171,,1*57
$GPGSV,2,1,07,196,70,117,47,195,69,051,42,199,60,167,41,06,49,011,42,8*5B
$GPGSV,2,2,07,11,36,307,33,194,33,174,30,04,17,053,30,8*61
$GLGSV,2,1,07,68,70,107,37,83,42,009,29,82,35,068,26,69,34,185,33,1*7A
$GLGSV,2,2,07,67,32,036,31,74,08,308,,80,07,213,,1*47
$GAGSV,3,1,09,10,50,359,33,12,44,037,18,04,43,142,38,11,40,320,40,7*73
$GAGSV,3,2,09,24,38,224,20,19,31,066,,25,29,289,,33,08,080,,7*75
$GAGSV,3,3,09,36,04,284,,7*45
$GAGSV,2,1,07,10,50,359,44,12,44,037,25,04,43,142,41,11,40,320,41,1*7B
$GAGSV,2,2,07,24,38,224,26,19,31,066,17,33,08,080,20,1*41
$GBGSV,4,1,14,33,76,092,41,40,74,180,37,07,72,223,37,10,69,262,32,1*7F
$GBGSV,4,2,14,08,55,290,31,14,51,050,28,28,50,341,43,43,48,086,33,1*71
$GBGSV,4,3,14,13,47,275,24,41,41,202,34,42,26,041,31,37,10,255,,1*76
$GBGSV,4,4,14,23,08,207,,34,08,113,,1*73
$GBGSV,2,1,06,33,76,092,46,40,74,180,44,28,50,341,42,43,48,086,22,4*7A
$GBGSV,2,2,06,41,41,202,44,42,26,041,29,4*79
$GNGGA,043135.000,2500.7845700,N,12132.4489500,E,2,52,0.53,21.05,M,15.25,M,1,3335*7B
$GNRMC,043135.000,A,2500.7845700,N,12132.4489500,E,0.03,62.93,270623,,,D,V*39
$GPHDT,,T*1B
$GNGGA,043135.200,2500.7845700,N,12132.4489500,E,2,51,0.53,21.05,M,15.25,M,1,3335*7A
$GNRMC,043135.200,A,2500.7845700,N,12132.4489500,E,0.05,62.93,270623,,,D,V*3D
$GPHDT,,T*1B
