$FW : RTK35X,V1.1X0314AS,Lib20210517,1*54
$Tool : LOCOSYS , GNSS Firebird , v1.0.0.19*39
$---------------------------------------------------*2D
7,37,27,053,35,1*70
$GBGSV,4,4,15,29,24,217,25,35,23,277,25,22,08,295,31,1*4A
$GBGSV,3,1,10,38,82,074,44,39,72,269,43,46,55,126,47,20,45,052,20,4*75
$GBGSV,3,2,10,19,45,335,44,37,27,053,31,36,27,185,33,29,24,217,26,4*7B
$GBGSV,3,3,10,35,23,277,24,22,08,295,13,4*75
$GNACCURACY,3.5*10
$PAIRSAT,1,35,1,0,200,2,0,200,3,0,200,4,0,200,5,0,201,6,0,200,7,0,200,8,0,200,9,0,200,10,0,221,11,0,200,12,0,200,13,0,201,14,0,200,15,0,201,16,0,200,17,0,200,18,0,221,19,0,200,20,0,200,21,0,200,23,0,221,24,0,221,25,0,200,26,0,200,27,0,200,28,0,200,29,0,200,30,0,200,31,0,200,32,0,200,194,0,621,195,0,621,196,0,620,199,0,621*6A
$PAIRSAT,2,23,65,0,200,67,0,200,68,0,200,69,0,201,70,0,201,71,0,201,72,0,200,73,0,201,74,0,200,75,0,200,76,0,200,77,0,200,78,0,200,79,0,201,80,0,201,81,0,200,82,0,200,83,0,200,84,0,201,85,0,201,86,0,201,87,0,200,88,0,200*52
$PAIRSAT,3,23,2,0,1221,3,0,1221,4,0,1200,5,0,200,7,0,1221,8,0,1221,9,0,1200,10,0,1200,11,0,1200,12,0,1200,13,0,1221,15,0,1221,19,0,1200,21,0,1200,24,0,1200,25,0,1200,26,0,1221,27,0,1200,30,0,1200,31,0,1200,33,0,1200,34,0,1200,36,0,1200*69
$PAIRSAT,4,50,1,0,200,2,0,200,3,0,200,4,0,200,5,0,200,6,0,201,7,0,200,8,0,201,9,0,201,10,0,200,11,0,200,12,0,200,13,0,201,14,0,200,15,0,200,16,0,201,19,0,621,20,0,621,21,0,600,22,0,621,23,0,600,24,0,600,25,0,600,26,0,600,27,0,600,28,0,600,29,0,621,30,0,600,31,0,200,32,0,600,33,0,600,34,0,600,35,0,621,36,0,621,37,0,621,38,0,621,39,0,621,40,0,600,41,0,600,42,0,600,43,0,600,44,0,600,45,0,600,46,0,621,56,0,200,57,0,200,58,0,200,59,0,600,60,0,600,61,0,600*41
$PAIRDGP,1,15*6C
$GNGGA,110801.200,2500.8029474,N,12132.4812885,E,4,63,0.42,15.879,M,15.25,M,1,3335*43
$GNRMC,110801.200,A,2500.8029474,N,12132.4812885,E,0.01,197.87,260623,,,R,V*1A
$GPHDT,,T*1B
$GNACCURACY,3.5*10
$GNGGA,110801.300,2500.8029481,N,12132.4812874,E,4,63,0.42,15.877,M,15.25,M,1,3335*48
$GNRMC,110801.300,A,2500.8029481,N,12132.4812874,E,0.01,197.87,260623,,,R,V*1F
$GPHDT,,T*1B
$GNACCURACY,3.5*10
$GNGGA,110801.400,2500.8029488,N,12132.4812878,E,4,63,0.42,15.883,M,15.25,M,1,3335*41
$GNRMC,110801.400,A,2500.8029488,N,12132.4812878,E,0.01,197.87,260623,,,R,V*1D
$GPHDT,,T*1B
$GNACCURACY,3.5*10
$GNGGA,110801.500,2500.8029464,N,12132.4812872,E,4,63,0.42,15.889,M,15.25,M,0,3335*43
$GNRMC,110801.500,A,2500.8029464,N,12132.4812872,E,0.01,197.87,260623,,,R,V*14
$GPHDT,,T*1B
$GNACCURACY,3.5*10
$GNGGA,110801.600,2500.8029472,N,12132.4812906,E,4,63,0.42,15.875,M,15.25,M,0,3335*46
$GNRMC,110801.600,A,2500.8029472,N,12132.4812906,E,0.01,197.87,260623,,,R,V*12
$GPHDT,,T*1B
$GNACCURACY,3.5*10
$GNGGA,110801.700,2500.8029473,N,12132.4812891,E,4,63,0.42,15.883,M,15.25,M,0,3335*40
$GNRMC,110801.700,A,2500.8029473,N,12132.4812891,E,0.01,197.87,260623,,,R,V*1D
$GPHDT,,T*1B
$GNACCURACY,3.5*10
$GNGGA,110801.800,2500.8029479,N,12132.4812884,E,4,63,0.42,15.885,M,15.25,M,0,3335*47
$GNRMC,110801.800,A,2500.8029479,N,12132.4812884,E,0.01,197.87,260623,,,R,V*1C
$GPHDT,,T*1B
$GNACCURACY,3.5*10
$GNGGA,110801.900,2500.8029466,N,12132.4812873,E,4,63,0.42,15.885,M,15.25,M,0,3335*40
$GNRMC,110801.900,A,2500.8029466,N,12132.4812873,E,0.01,197.87,260623,,,R,V*1B
$GPHDT,,T*1B
$GNACCURACY,3.5*10
$GNGGA,110802.000,2500.8029464,N,12132.4812871,E,4,63,0.42,15.877,M,15.25,M,1,3335*46
$GNRMC,110802.000,A,2500.8029464,N,12132.4812871,E,0.01,197.87,260623,,,R,V*11
$GPHDT,,T*1B
$GNACCURACY,3.5*10
$GNGGA,110802.100,2500.8029472,N,12132.4812892,E,4,63,0.42,15.880,M,15.25,M,1,3335*45
$GNRMC,110802.100,A,2500.8029472,N,12132.4812892,E,0.01,197.87,260623,,,R,V*1A
$GPHDT,,T*1B
$GNGSA,A,3,24,196,18,199,23,15,195,194,05,13,10,,0.78,0.42,0.65,1*09
$GNGSA,A,3,80,85,70,73,86,71,84,79,69,,,,0.78,0.42,0.65,2*0B
$GNGSA,A,3,13,08,07,15,26,02,03,,,,,,0.78,0.42,0.65,3*05
$GNGSA,A,3,38,08,39,16,13,06,46,20,19,36,37,29,0.78,0.42,0.65,4*06
$GNGSA,A,3,35,,,,,,,,,,,,0.78,0.42,0.65,4*08
$GPGSV,4,1,16,24,81,073,37,196,74,060,39,18,61,265,29,199,60,167,33,1*6B
$GPGSV,4,2,16,23,43,333,45,15,41,038,38,195,37,179,37,194,28,140,43,1*66
$GPGSV,4,3,16,05,24,111,40,12,15,148,18,13,13,051,28,10,12,314,39,1*61
$GPGSV,4,4,16,29,05,202,,32,05,262,,25,04,181,,20,03,125,,1*63
$GPGSV,2,1,08,24,81,073,49,196,74,060,40,18,61,265,29,199,60,167,43,8*6B
$GPGSV,2,2,08,23,43,333,43,195,37,179,35,194,28,140,36,10,12,314,38,8*6E
$GLGSV,3,1,09,80,47,093,40,85,41,258,32,70,39,358,26,73,28,163,28,1*77
$GLGSV,3,2,09,86,24,312,21,71,18,305,32,84,17,193,18,79,17,039,21,1*7A
$GLGSV,3,3,09,69,16,064,14,1*4E
$GAGSV,3,1,09,13,62,244,32,08,50,017,40,07,42,294,29,15,30,174,28,7*78
$GAGSV,3,2,09,26,28,313,35,02,23,093,22,30,20,148,24,03,13,059,21,7*7F
$GAGSV,3,3,09,25,04,048,,7*45
$GAGSV,2,1,07,13,62,244,35,08,50,017,41,07,42,294,33,15,30,174,24,1*70
$GAGSV,2,2,07,26,28,313,31,30,20,148,25,03,13,059,18,1*40
$GBGSV,4,1,15,38,82,074,43,08,75,007,36,39,72,269,44,16,66,246,36,1*7A
$GBGSV,4,2,15,13,65,339,45,06,64,243,30,46,55,126,45,09,48,231,19,1*74
$GBGSV,4,3,15,20,45,052,40,19,45,335,44,36,27,185,37,37,27,053,35,1*70
$GBGSV,4,4,15,29,24,217,22,35,23,277,26,22,08,295,31,1*4E
$GBGSV,3,1,09,38,82,074,44,39,72,269,43,46,55,126,47,19,45,335,44,4*77
$GBGSV,3,2,09,20,45,052,18,37,27,053,31,36,27,185,31,29,24,217,24,4*72
$GBGSV,3,3,09,35,23,277,24,4*49
$GNACCURACY,3.5*10
$PAIRSAT,1,35,1,0,200,2,0,200,3,0,200,4,0,200,5,0,201,6,0,200,7,0,200,8,0,200,9,0,200,10,0,221,11,0,200,12,0,200,13,0,201,14,0,200,15,0,201,16,0,200,17,0,200,18,0,221,19,0,200,20,0,200,21,0,200,23,0,221,24,0,221,25,0,200,26,0,200,27,0,200,28,0,200,29,0,200,30,0,200,31,0,200,32,0,200,194,0,621,195,0,621,196,0,620,199,0,621*6A
$PAIRSAT,2,23,65,0,200,67,0,200,68,0,200,69,0,201,70,0,201,71,0,201,72,0,200,73,0,201,74,0,200,75,0,200,76,0,200,77,0,200,78,0,200,79,0,201,80,0,201,81,0,200,82,0,200,83,0,200,84,0,201,85,0,201,86,0,201,87,0,200,88,0,200*52
$PAIRSAT,3,23,2,0,1221,3,0,1221,4,0,1200,5,0,200,7,0,1221,8,0,1221,9,0,1200,10,0,1200,11,0,1200,12,0,1200,13,0,1221,15,0,1221,19,0,1200,21,0,1200,24,0,1200,25,0,1200,26,0,1221,27,0,1200,30,0,1200,31,0,1200,33,0,1200,34,0,1200,36,0,1200*69
$PAIRSAT,4,50,1,0,200,2,0,200,3,0,200,4,0,200,5,0,200,6,0,201,7,0,200,8,0,201,9,0,201,10,0,200,11,0,200,12,0,200,13,0,201,14,0,200,15,0,200,16,0,201,19,0,621,20,0,621,21,0,600,22,0,621,23,0,600,24,0,600,25,0,600,26,0,600,27,0,600,28,0,600,29,0,621,30,0,600,31,0,200,32,0,600,33,0,600,34,0,600,35,0,621,36,0,621,37,0,621,38,0,621,39,0,621,40,0,600,41,0,600,42,0,600,43,0,600,44,0,600,45,0,600,46,0,621,56,0,200,57,0,200,58,0,200,59,0,600,60,0,600,61,0,600*41
$PAIRDGP,1,15*6C
$GNGGA,110802.200,2500.8029481,N,12132.4812876,E,4,63,0.42,15.871,M,15.25,M,1,3335*4E
$GNRMC,110802.200,A,2500.8029481,N,12132.4812876,E,0.01,197.87,260623,,,R,V*1F
$GPHDT,,T*1B
$GNACCURACY,3.5*10
$GNGGA,110802.300,2500.8029458,N,12132.4812878,E,4,63,0.42,15.881,M,15.25,M,1,3335*4A
$GNRMC,110802.300,A,2500.8029458,N,12132.4812878,E,0.01,197.87,260623,,,R,V*14
$GPHDT,,T*1B
$GNACCURACY,3.5*10
$GNGGA,110802.400,2500.8029467,N,12132.4812858,E,4,63,0.42,15.876,M,15.25,M,1,3335*4B
$GNRMC,110802.400,A,2500.8029467,N,12132.4812858,E,0.01,197.87,260623,,,R,V*1D
$GPHDT,,T*1B
$GNACCURACY,3.5*10
$GNGGA,110802.500,2500.8029446,N,12132.4812812,E,4,63,0.42,15.877,M,15.25,M,1,3335*46
$GNRMC,110802.500,A,2500.8029446,N,12132.4812812,E,0.01,197.87,260623,,,R,V*11
$GPHDT,,T*1B
$GNACCURACY,3.5*10
$GNGGA,110802.600,2500.8029452,N,12132.4812814,E,4,63,0.42,15.873,M,15.25,M,1,3335*42
$GNRMC,110802.600,A,2500.8029452,N,12132.4812814,E,0.01,197.87,260623,,,R,V*11
$GPHDT,,T*1B
$GNACCURACY,3.5*10
$GNGGA,110802.700,2500.8029462,N,12132.4812857,E,4,63,0.42,15.873,M,15.25,M,1,3335*47
$GNRMC,110802.700,A,2500.8029462,N,12132.4812857,E,0.01,197.87,260623,,,R,V*14
$GPHDT,,T*1B
$GNACCURACY,3.5*10
$GNGGA,110802.800,2500.8029446,N,12132.4812852,E,4,63,0.42,15.882,M,15.25,M,0,3335*44
$GNRMC,110802.800,A,2500.8029446,N,12132.4812852,E,0.01,197.87,260623,,,R,V*18
$GPHDT,,T*1B
$GNACCURACY,3.5*10
$GNGGA,110802.900,2500.8029459,N,12132.4812882,E,4,63,0.42,15.884,M,15.25,M,0,3335*40
$GNRMC,110802.900,A,2500.8029459,N,12132.4812882,E,0.01,197.87,260623,,,R,V*1A
$GPHDT,,T*1B
$GNACCURACY,3.5*10
$GNGGA,110803.000,2500.8029450,N,12132.4812874,E,4,63,0.42,15.880,M,15.25,M,1,3335*4D
$GNRMC,110803.000,A,2500.8029450,N,12132.4812874,E,0.01,197.87,260623,,,R,V*12
$GPHDT,,T*1B
$GNACCURACY,3.4*11
$GNGGA,110803.100,2500.8029465,N,12132.4812878,E,4,63,0.42,15.873,M,15.25,M,1,3335*4A
$GNRMC,110803.100,A,2500.8029465,N,12132.4812878,E,0.01,197.87,260623,,,R,V*19
$GPHDT,,T*1B
$GNGSA,A,3,24,196,18,199,23,15,195,194,05,13,10,,0.78,0.42,0.65,1*09
$GNGSA,A,3,80,85,70,73,86,71,84,79,69,,,,0.78,0.42,0.65,2*0B
$GNGSA,A,3,13,08,07,15,26,02,03,,,,,,0.78,0.42,0.65,3*05
$GNGSA,A,3,38,08,39,16,13,06,46,20,19,36,37,29,0.78,0.42,0.65,4*06
$GNGSA,A,3,35,,,,,,,,,,,,0.78,0.42,0.65,4*08
$GPGSV,4,1,16,24,81,073,37,196,74,060,39,18,61,265,27,199,60,167,35,1*63
$GPGSV,4,2,16,23,43,333,45,15,41,038,37,195,37,179,38,194,28,140,43,1*66
$GPGSV,4,3,16,05,24,111,40,12,15,148,17,13,13,051,26,10,12,314,38,1*61
$GPGSV,4,4,16,29,05,202,,32,05,262,,25,04,181,,20,03,125,,1*63
$GPGSV,2,1,08,24,81,073,49,196,74,060,41,18,61,265,29,199,60,167,43,8*6A
$GPGSV,2,2,08,23,43,333,43,195,37,179,31,194,28,140,35,10,12,314,38,8*69
$GLGSV,3,1,09,80,47,093,40,85,41,258,32,70,39,358,26,73,28,163,28,1*77
$GLGSV,3,2,09,86,24,312,20,71,18,305,33,84,17,193,19,79,17,039,22,1*78
$GLGSV,3,3,09,69,16,064,15,1*4F
$GAGSV,3,1,09,13,62,244,33,08,50,017,40,07,42,294,29,15,30,174,28,7*79
$GAGSV,3,2,09,26,28,313,35,02,23,093,23,30,20,148,24,03,13,059,21,7*7E
$GAGSV,3,3,09,25,04,048,,7*45
$GAGSV,2,1,07,13,62,244,34,08,50,017,41,07,42,294,33,15,30,174,20,1*75
$GAGSV,2,2,07,26,28,313,31,30,20,148,26,03,13,059,18,1*43
$GBGSV,4,1,15,38,82,074,43,08,75,007,36,39,72,269,44,16,66,246,35,1*79
$GBGSV,4,2,15,13,65,339,45,06,64,243,30,46,55,126,45,09,48,231,21,1*7F
$GBGSV,4,3,15,20,45,052,40,19,45,335,44,36,27,185,37,37,27,053,35,1*70
$GBGSV,4,4,15,29,24,217,20,35,23,277,25,22,08,295,31,1*4F
$GBGSV,3,1,10,38,82,074,44,39,72,269,43,46,55,126,47,20,45,052,19,4*7F
$GBGSV,3,2,10,19,45,335,44,37,27,053,30,36,27,185,33,29,24,217,24,4*78
$GBGSV,3,3,10,35,23,277,25,22,08,295,15,4*72
$GNACCURACY,3.5*10
$PAIRSAT,1,35,1,0,200,2,0,200,3,0,200,4,0,200,5,0,201,6,0,200,7,0,200,8,0,200,9,0,200,10,0,221,11,0,200,12,0,200,13,0,201,14,0,200,15,0,201,16,0,200,17,0,200,18,0,221,19,0,200,20,0,200,21,0,200,23,0,221,24,0,221,25,0,200,26,0,200,27,0,200,28,0,200,29,0,200,30,0,200,31,0,200,32,0,200,194,0,621,195,0,621,196,0,620,199,0,621*6A
$PAIRSAT,2,23,65,0,200,67,0,200,68,0,200,69,0,201,70,0,201,71,0,201,72,0,200,73,0,201,74,0,200,75,0,200,76,0,200,77,0,200,78,0,200,79,0,201,80,0,201,81,0,200,82,0,200,83,0,200,84,0,201,85,0,201,86,0,201,87,0,200,88,0,200*52
$PAIRSAT,3,23,2,0,1221,3,0,1221,4,0,1200,5,0,200,7,0,1221,8,0,1221,9,0,1200,10,0,1200,11,0,1200,12,0,1200,13,0,1221,15,0,1221,19,0,1200,21,0,1200,24,0,1200,25,0,1200,26,0,1221,27,0,1200,30,0,1200,31,0,1200,33,0,1200,34,0,1200,36,0,1200*69
$PAIRSAT,4,50,1,0,200,2,0,200,3,0,200,4,0,200,5,0,200,6,0,201,7,0,200,8,0,201,9,0,201,10,0,200,11,0,200,12,0,200,13,0,201,14,0,200,15,0,200,16,0,201,19,0,621,20,0,621,21,0,600,22,0,621,23,0,600,24,0,600,25,0,600,26,0,600,27,0,600,28,0,600,29,0,621,30,0,600,31,0,200,32,0,600,33,0,600,34,0,600,35,0,621,36,0,621,37,0,621,38,0,621,39,0,621,40,0,600,41,0,600,42,0,600,43,0,600,44,0,600,45,0,600,46,0,621,56,0,200,57,0,200,58,0,200,59,0,600,60,0,600,61,0,600*41
$PAIRDGP,1,15*6C
$GNGGA,110803.200,2500.8029443,N,12132.4812870,E,4,63,0.42,15.869,M,15.25,M,1,3335*4E
$GNRMC,110803.200,A,2500.8029443,N,12132.4812870,E,0.01,197.87,260623,,,R,V*16
$GPHDT,,T*1B
$GNACCURACY,3.4*11
$GNGGA,110803.300,2500.8029459,N,12132.4812877,E,4,63,0.42,15.867,M,15.25,M,1,3335*4D
$GNRMC,110803.300,A,2500.8029459,N,12132.4812877,E,0.00,197.87,260623,,,R,V*1A
$GPHDT,,T*1B
$GNACCURACY,3.4*11
$GNGGA,110803.400,2500.8029463,N,12132.4812881,E,4,63,0.42,15.880,M,15.25,M,1,3335*43
$GNRMC,110803.400,A,2500.8029463,N,12132.4812881,E,0.01,197.87,260623,,,R,V*1C
$GPHDT,,T*1B
$GNACCURACY,3.4*11
$GNGGA,110803.500,2500.8029448,N,12132.4812879,E,4,62,0.42,15.880,M,15.25,M,1,3335*4D
$GNRMC,110803.500,A,2500.8029448,N,12132.4812879,E,0.01,197.87,260623,,,R,V*13
$GPHDT,,T*1B
$GNACCURACY,3.4*11
$GNGGA,110803.600,2500.8029468,N,12132.4812863,E,4,63,0.42,15.874,M,15.25,M,1,3335*4D
$GNRMC,110803.600,A,2500.8029468,N,12132.4812863,E,0.01,197.87,260623,,,R,V*19
$GPHDT,,T*1B
$GNACCURACY,3.4*11
$GNGGA,110803.700,2500.8029457,N,12132.4812867,E,4,63,0.42,15.892,M,15.25,M,0,3335*4D
$GNRMC,110803.700,A,2500.8029457,N,12132.4812867,E,0.01,197.87,260623,,,R,V*10
$GPHDT,,T*1B
$GNACCURACY,3.3*16
$GNGGA,110803.800,2500.8029479,N,12132.4812901,E,4,64,0.42,15.891,M,15.25,M,0,3335*4B
$GNRMC,110803.800,A,2500.8029479,N,12132.4812901,E,0.01,197.87,260623,,,R,V*12
$GPHDT,,T*1B
$GNACCURACY,3.3*16
$GNGGA,110803.900,2500.8029467,N,12132.4812872,E,4,63,0.42,15.893,M,15.25,M,0,3335*45
$GNRMC,110803.900,A,2500.8029467,N,12132.4812872,E,0.01,197.87,260623,,,R,V*19
$GPHDT,,T*1B
$GNACCURACY,3.3*16
$GNGGA,110804.000,2500.8029489,N,12132.4812893,E,4,63,0.42,15.879,M,15.25,M,1,3335*41
$GNRMC,110804.000,A,2500.8029489,N,12132.4812893,E,0.01,197.87,260623,,,R,V*18
$GPHDT,,T*1B
$GNACCURACY,3.3*16
$GNGGA,110804.100,2500.8029479,N,12132.4812917,E,4,63,0.42,15.882,M,15.25,M,1,3335*46
$GNRMC,110804.100,A,2500.8029479,N,12132.4812917,E,0.01,197.87,260623,,,R,V*1B
$GPHDT,,T*1B
$GNGSA,A,3,24,196,18,199,23,15,195,194,05,13,10,,0.78,0.42,0.65,1*09
$GNGSA,A,3,80,85,70,73,86,71,84,79,69,,,,0.78,0.42,0.65,2*0B
$GNGSA,A,3,13,08,07,15,26,02,03,,,,,,0.78,0.42,0.65,3*05
$GNGSA,A,3,38,08,39,16,13,06,46,20,19,36,37,29,0.78,0.42,0.65,4*06
$GNGSA,A,3,35,,,,,,,,,,,,0.78,0.42,0.65,4*08
$GPGSV,4,1,16,24,81,073,37,196,74,060,39,18,61,265,23,199,60,167,38,1*6A
$GPGSV,4,2,16,23,43,333,45,15,41,038,37,195,37,179,44,194,28,140,41,1*6F
$GPGSV,4,3,16,05,24,111,40,12,15,148,17,13,13,051,26,10,12,314,39,1*60
$GPGSV,4,4,16,29,05,202,,32,05,262,,25,04,181,,20,03,125,,1*63
$GPGSV,2,1,08,24,81,073,49,196,74,060,41,18,61,265,30,199,60,167,46,8*67
$GPGSV,2,2,08,23,43,333,43,195,37,179,40,194,28,140,28,10,12,314,38,8*63
$GLGSV,3,1,09,80,47,093,40,85,41,258,32,70,39,358,26,73,28,163,21,1*7E
$GLGSV,3,2,09,86,24,312,22,71,18,305,32,84,17,193,23,79,17,039,18,1*7B
$GLGSV,3,3,09,69,16,064,15,1*4F
$GAGSV,3,1,09,13,62,244,33,08,50,017,40,07,42,294,29,15,30,174,33,7*73
$GAGSV,3,2,09,26,28,313,35,02,23,093,23,30,20,148,21,03,13,059,21,7*7B
$GAGSV,3,3,09,25,04,048,,7*45
$GAGSV,2,1,07,13,62,244,33,08,50,017,41,07,42,294,33,15,30,174,25,1*77
$GAGSV,2,2,07,26,28,313,32,30,20,148,26,03,13,059,18,1*40
$GBGSV,4,1,15,38,82,074,43,08,75,007,36,39,72,269,44,16,66,246,35,1*79
$GBGSV,4,2,15,13,65,339,45,06,64,243,30,46,55,126,45,09,48,231,21,1*7F
$GBGSV,4,3,15,20,45,052,39,19,45,335,44,36,27,185,42,37,27,053,36,1*7F
$GBGSV,4,4,15,29,24,217,16,35,23,277,24,22,08,295,31,1*4B
$GBGSV,3,1,09,38,82,074,44,39,72,269,44,46,55,126,47,19,45,335,44,4*70
$GBGSV,3,2,09,20,45,052,22,37,27,053,31,36,27,185,41,29,24,217,23,4*7B
$GBGSV,3,3,09,35,23,277,26,4*4B
$GNACCURACY,3.3*16
$PAIRSAT,1,35,1,0,200,2,0,200,3,0,200,4,0,200,5,0,201,6,0,200,7,0,200,8,0,200,9,0,200,10,0,221,11,0,200,12,0,200,13,0,201,14,0,200,15,0,201,16,0,200,17,0,200,18,0,221,19,0,200,20,0,200,21,0,200,23,0,221,24,0,221,25,0,200,26,0,200,27,0,200,28,0,200,29,0,200,30,0,200,31,0,200,32,0,200,194,0,621,195,0,621,196,0,620,199,0,621*6A
$PAIRSAT,2,23,65,0,200,67,0,200,68,0,200,69,0,201,70,0,201,71,0,201,72,0,200,73,0,201,74,0,200,75,0,200,76,0,200,77,0,200,78,0,200,79,0,201,80,0,201,81,0,200,82,0,200,83,0,200,84,0,201,85,0,201,86,0,201,87,0,200,88,0,200*52
$PAIRSAT,3,23,2,0,1221,3,0,1221,4,0,1200,5,0,200,7,0,1221,8,0,1221,9,0,1200,10,0,1200,11,0,1200,12,0,1200,13,0,1221,15,0,1221,19,0,1200,21,0,1200,24,0,1200,25,0,1200,26,0,1221,27,0,1200,30,0,1200,31,0,1200,33,0,1200,34,0,1200,36,0,1200*69
$PAIRSAT,4,50,1,0,200,2,0,200,3,0,200,4,0,200,5,0,200,6,0,201,7,0,200,8,0,201,9,0,201,10,0,200,11,0,200,12,0,200,13,0,201,14,0,200,15,0,200,16,0,201,19,0,621,20,0,621,21,0,600,22,0,621,23,0,600,24,0,600,25,0,600,26,0,600,27,0,600,28,0,600,29,0,621,30,0,600,31,0,200,32,0,600,33,0,600,34,0,600,35,0,621,36,0,621,37,0,621,38,0,621,39,0,621,40,0,600,41,0,600,42,0,600,43,0,600,44,0,600,45,0,600,46,0,621,56,0,200,57,0,200,58,0,200,59,0,600,60,0,600,61,0,600*41
$PAIRDGP,1,15*6C
$GNGGA,110804.200,2500.8029507,N,12132.4812904,E,4,63,0.42,15.879,M,15.25,M,1,3335*4B
$GNRMC,110804.200,A,2500.8029507,N,12132.4812904,E,0.01,197.87,260623,,,R,V*12
$GPHDT,,T*1B
$GNACCURACY,3.3*16
$GNGGA,110804.300,2500.8029504,N,12132.4812913,E,4,63,0.42,15.867,M,15.25,M,1,3335*40
$GNRMC,110804.300,A,2500.8029504,N,12132.4812913,E,0.01,197.87,260623,,,R,V*16
$GPHDT,,T*1B
$GNACCURACY,3.3*16
$GNGGA,110804.400,2500.8029541,N,12132.4812954,E,4,63,0.42,15.876,M,15.25,M,1,3335*45
$GNRMC,110804.400,A,2500.8029541,N,12132.4812954,E,0.01,197.87,260623,,,R,V*13
$GPHDT,,T*1B
$GNACCURACY,3.3*16
$GNGGA,110804.500,2500.8029547,N,12132.4812971,E,4,63,0.42,15.868,M,15.25,M,1,3335*4A
$GNRMC,110804.500,A,2500.8029547,N,12132.4812971,E,0.00,197.87,260623,,,R,V*12
$GPHDT,,T*1B
$GNACCURACY,3.3*16
$GNGGA,110804.600,2500.8029565,N,12132.4812964,E,4,63,0.42,15.873,M,15.25,M,1,3335*47
$GNRMC,110804.600,A,2500.8029565,N,12132.4812964,E,0.01,197.87,260623,,,R,V*14
$GPHDT,,T*1B
$GNACCURACY,3.4*11
$GNGGA,110804.700,2500.8029564,N,12132.4812967,E,4,63,0.42,15.874,M,15.25,M,0,3335*42
$GNRMC,110804.700,A,2500.8029564,N,12132.4812967,E,0.01,197.87,260623,,,R,V*17
$GPHDT,,T*1B
$GNACCURACY,3.4*11
$GNGGA,110804.800,2500.8029564,N,12132.4812940,E,4,64,0.42,15.885,M,15.25,M,0,3335*41
$GNRMC,110804.800,A,2500.8029564,N,12132.4812940,E,0.01,197.87,260623,,,R,V*1D
$GPHDT,,T*1B
$GNACCURACY,3.4*11
$GNGGA,110804.900,2500.8029567,N,12132.4812905,E,4,64,0.42,15.874,M,15.25,M,0,3335*4C
$GNRMC,110804.900,A,2500.8029567,N,12132.4812905,E,0.01,197.87,260623,,,R,V*1E
$GPHDT,,T*1B
$GNACCURACY,3.4*11
$GNGGA,110805.000,2500.8029550,N,12132.4812926,E,4,64,0.42,15.872,M,15.25,M,1,3335*46
$GNRMC,110805.000,A,2500.8029550,N,12132.4812926,E,0.01,197.87,260623,,,R,V*13
$GPHDT,,T*1B
$GNACCURACY,3.4*11
$GNGGA,110805.100,2500.8029516,N,12132.4812892,E,4,63,0.42,15.887,M,15.25,M,1,3335*46
$GNRMC,110805.100,A,2500.8029516,N,12132.4812892,E,0.01,197.87,260623,,,R,V*1E
$GPHDT,,T*1B
$GNGSA,A,3,24,196,18,199,23,15,195,194,05,13,10,,0.78,0.42,0.65,1*09
$GNGSA,A,3,80,85,70,73,86,71,84,79,69,,,,0.78,0.42,0.65,2*0B
$GNGSA,A,3,13,08,07,15,26,02,03,,,,,,0.78,0.42,0.65,3*05
$GNGSA,A,3,38,08,39,16,13,06,46,20,19,36,37,29,0.78,0.42,0.65,4*06
$GNGSA,A,3,35,,,,,,,,,,,,0.78,0.42,0.65,4*08
$GPGSV,4,1,16,24,81,073,37,196,74,060,39,18,61,265,26,199,60,167,38,1*6F
$GPGSV,4,2,16,23,43,333,45,15,41,038,38,195,37,179,43,194,28,140,38,1*69
$GPGSV,4,3,16,05,24,111,38,12,15,147,16,13,13,051,26,10,12,314,39,1*61
$GPGSV,4,4,16,29,05,202,,32,05,262,,25,04,181,,20,03,125,,1*63
$GPGSV,2,1,08,24,81,073,49,196,74,060,41,18,61,265,29,199,60,167,46,8*6F
$GPGSV,2,2,08,23,43,333,43,195,37,179,43,194,28,140,36,10,12,314,38,8*6F
$GLGSV,3,1,09,80,47,093,39,85,41,258,33,70,39,358,26,73,28,163,25,1*75
$GLGSV,3,2,09,86,24,312,21,71,18,305,32,84,17,193,21,79,17,039,15,1*77
$GLGSV,3,3,09,69,16,064,14,1*4E
$GAGSV,2,1,08,13,62,244,34,08,50,017,40,07,42,294,30,15,30,174,30,7*7F
$GAGSV,2,2,08,26,28,313,35,02,23,093,22,30,20,148,20,03,13,059,19,7*70
$GAGSV,2,1,07,13,62,244,33,08,50,017,41,07,42,294,33,15,30,174,35,1*76
$GAGSV,2,2,07,26,28,313,32,30,20,148,25,03,13,059,18,1*43
$GBGSV,4,1,15,38,82,074,43,08,75,007,36,39,72,269,44,16,66,246,35,1*79
$GBGSV,4,2,15,13,65,339,45,06,64,243,30,46,55,126,45,09,48,231,21,1*7F
$GBGSV,4,3,15,20,45,052,39,19,45,335,44,36,27,185,41,37,27,053,35,1*7F
$GBGSV,4,4,15,29,24,217,17,35,23,277,25,22,08,295,31,1*4B
$GBGSV,3,1,09,38,82,074,44,39,72,269,44,46,55,126,47,19,45,335,44,4*70
$GBGSV,3,2,09,20,45,052,25,37,27,053,31,36,27,185,41,29,24,217,21,4*7E
$GBGSV,3,3,09,35,23,277,26,4*4B
$GNACCURACY,3.4*11
$PAIRSAT,1,35,1,0,200,2,0,200,3,0,200,4,0,200,5,0,201,6,0,200,7,0,200,8,0,200,9,0,200,10,0,221,11,0,200,12,0,200,13,0,201,14,0,200,15,0,201,16,0,200,17,0,200,18,0,221,19,0,200,20,0,200,21,0,200,23,0,221,24,0,221,25,0,200,26,0,200,27,0,200,28,0,200,29,0,200,30,0,200,31,0,200,32,0,200,194,0,621,195,0,621,196,0,620,199,0,621*6A
$PAIRSAT,2,23,65,0,200,67,0,200,68,0,200,69,0,201,70,0,201,71,0,201,72,0,200,73,0,201,74,0,200,75,0,200,76,0,200,77,0,200,78,0,200,79,0,201,80,0,201,81,0,200,82,0,200,83,0,200,84,0,201,85,0,201,86,0,201,87,0,200,88,0,200*52
$PAIRSAT,3,23,2,0,1221,3,0,1221,4,0,1200,5,0,200,7,0,1221,8,0,1221,9,0,1200,10,0,1200,11,0,1200,12,0,1200,13,0,1221,15,0,1221,19,0,1200,21,0,1200,24,0,1200,25,0,1200,26,0,1221,27,0,1200,30,0,1200,31,0,1200,33,0,1200,34,0,1200,36,0,1200*69
$PAIRSAT,4,50,1,0,200,2,0,200,3,0,200,4,0,200,5,0,200,6,0,201,7,0,200,8,0,201,9,0,201,10,0,200,11,0,200,12,0,200,13,0,201,14,0,200,15,0,200,16,0,201,19,0,621,20,0,621,21,0,600,22,0,621,23,0,600,24,0,600,25,0,600,26,0,600,27,0,600,28,0,600,29,0,621,30,0,600,31,0,200,32,0,600,33,0,600,34,0,600,35,0,621,36,0,621,37,0,621,38,0,621,39,0,621,40,0,600,41,0,600,42,0,600,43,0,600,44,0,600,45,0,600,46,0,621,56,0,200,57,0,200,58,0,200,59,0,600,60,0,600,61,0,600*41
$PAIRDGP,1,15*6C
$GNGGA,110805.200,2500.8029492,N,12132.4812853,E,4,63,0.42,15.892,M,15.25,M,1,3335*41
$GNRMC,110805.200,A,2500.8029492,N,12132.4812853,E,0.01,197.87,260623,,,R,V*1D
$GPHDT,269.733,T*3F
$GNACCURACY,3.4*11
$GNGGA,110805.300,2500.8029494,N,12132.4812868,E,4,63,0.42,15.887,M,15.25,M,1,3335*4A
$GNRMC,110805.300,A,2500.8029494,N,12132.4812868,E,0.01,197.87,260623,,,R,V*12
$GPHDT,,T*1B
$GNACCURACY,3.4*11
$GNGGA,110805.400,2500.8029509,N,12132.4812895,E,4,63,0.42,15.873,M,15.25,M,1,3335*41
$GNRMC,110805.400,A,2500.8029509,N,12132.4812895,E,0.01,197.87,260623,,,R,V*12
$GPHDT,269.801,T*31
$GNACCURACY,3.5*10
$GNGGA,110805.500,2500.8029499,N,12132.4812881,E,4,63,0.42,15.879,M,15.25,M,1,3335*47
$GNRMC,110805.500,A,2500.8029499,N,12132.4812881,E,0.01,197.87,260623,,,R,V*1E
$GPHDT,,T*1B
$GNACCURACY,3.5*10
$GNGGA,110805.600,2500.8029511,N,12132.4812901,E,4,62,0.43,15.872,M,15.25,M,1,3335*47
$GNRMC,110805.600,A,2500.8029511,N,12132.4812901,E,0.01,197.87,260623,,,R,V*15
$GPHDT,270.147,T*32
$GNACCURACY,3.5*10
$GNGGA,110805.700,2500.8029497,N,12132.4812905,E,4,62,0.43,15.883,M,15.25,M,0,3335*42
$GNRMC,110805.700,A,2500.8029497,N,12132.4812905,E,0.01,197.87,260623,,,R,V*1F
$GPHDT,,T*1B
$GNACCURACY,3.5*10
$GNGGA,110805.800,2500.8029498,N,12132.4812910,E,4,62,0.43,15.883,M,15.25,M,0,3335*46
$GNRMC,110805.800,A,2500.8029498,N,12132.4812910,E,0.00,197.87,260623,,,R,V*1A
$GPHDT,270.154,T*30
$GNACCURACY,3.5*10
$GNGGA,110805.900,2500.8029501,N,12132.4812891,E,4,62,0.43,15.883,M,15.25,M,0,3335*4E
$GNRMC,110805.900,A,2500.8029501,N,12132.4812891,E,0.00,197.87,260623,,,R,V*12
$GPHDT,,T*1B
$GNACCURACY,3.5*10
$GNGGA,110806.000,2500.8029492,N,12132.4812886,E,4,62,0.43,15.884,M,15.25,M,1,3335*4F
$GNRMC,110806.000,A,2500.8029492,N,12132.4812886,E,0.00,197.87,260623,,,R,V*15
$GPHDT,270.149,T*3C
$GNACCURACY,3.5*10
$GNGGA,110806.100,2500.8029505,N,12132.4812905,E,4,62,0.43,15.889,M,15.25,M,1,3335*46
$GNRMC,110806.100,A,2500.8029505,N,12132.4812905,E,0.00,197.87,260623,,,R,V*11
$GPHDT,,T*1B
$GNGSA,A,3,24,196,18,199,23,15,195,194,05,13,10,,0.79,0.43,0.66,1*0A
$GNGSA,A,3,80,85,70,73,86,71,79,84,,,,,0.79,0.43,0.66,2*07
$GNGSA,A,3,13,08,07,15,26,02,03,,,,,,0.79,0.43,0.66,3*06
$GNGSA,A,3,38,08,39,16,13,06,46,19,20,37,36,29,0.79,0.43,0.66,4*05
$GNGSA,A,3,35,,,,,,,,,,,,0.79,0.43,0.66,4*0B
$GPGSV,4,1,16,24,81,073,37,196,74,060,39,18,61,265,27,199,60,167,38,1*6E
$GPGSV,4,2,16,23,43,333,45,15,41,038,38,195,37,179,44,194,28,140,38,1*6E
$GPGSV,4,3,16,05,24,111,36,12,15,147,16,13,13,051,27,10,12,314,39,1*6E
$GPGSV,4,4,16,29,05,202,,32,05,262,,25,04,181,,20,03,125,,1*63
$GPGSV,2,1,08,24,81,073,49,196,74,060,40,18,61,265,29,199,60,167,46,8*6E
$GPGSV,2,2,08,23,43,333,42,195,37,179,43,194,28,140,30,10,12,314,38,8*68
$GLGSV,3,1,09,80,47,093,39,85,41,258,33,70,39,358,26,73,28,163,24,1*74
$GLGSV,3,2,09,86,24,312,19,71,18,305,32,79,17,039,16,84,17,193,20,1*7E
$GLGSV,3,3,09,69,16,064,17,1*4D
$GAGSV,2,1,08,13,62,244,33,08,50,017,40,07,42,294,30,15,30,174,31,7*79
$GAGSV,2,2,08,26,28,313,35,02,23,093,22,30,20,148,20,03,13,059,19,7*70
$GAGSV,2,1,06,13,62,244,33,08,50,017,41,07,42,294,33,15,30,174,35,1*77
$GAGSV,2,2,06,26,28,313,32,03,13,059,18,1*79
$GBGSV,5,1,17,38,82,074,43,08,75,007,37,39,72,269,44,16,66,246,36,1*78
$GBGSV,5,2,17,13,65,339,45,06,64,243,30,46,55,126,45,09,48,231,21,1*7C
$GBGSV,5,3,17,19,45,335,44,20,45,052,39,31,34,206,,37,27,053,34,1*75
$GBGSV,5,4,17,36,27,185,41,29,24,217,14,35,23,277,27,22,08,295,31,1*70
$GBGSV,5,5,17,07,05,194,,1*4E
$GBGSV,3,1,09,38,82,074,44,39,72,269,44,46,55,126,47,20,45,052,25,4*7F
$GBGSV,3,2,09,19,45,335,44,36,27,185,40,37,27,053,30,29,24,217,23,4*73
$GBGSV,3,3,09,35,23,277,24,4*49
$GNACCURACY,3.5*10
$PAIRSAT,1,35,1,0,200,2,0,200,3,0,200,4,0,200,5,0,201,6,0,200,7,0,200,8,0,200,9,0,200,10,0,221,11,0,200,12,0,200,13,0,201,14,0,200,15,0,201,16,0,200,17,0,200,18,0,221,19,0,200,20,0,200,21,0,200,23,0,221,24,0,221,25,0,200,26,0,200,27,0,200,28,0,200,29,0,200,30,0,200,31,0,200,32,0,200,194,0,621,195,0,621,196,0,620,199,0,621*6A
$PAIRSAT,2,23,65,0,200,67,0,200,68,0,200,69,0,201,70,0,201,71,0,201,72,0,200,73,0,201,74,0,200,75,0,200,76,0,200,77,0,200,78,0,200,79,0,201,80,0,201,81,0,200,82,0,200,83,0,200,84,0,201,85,0,201,86,0,201,87,0,200,88,0,200*52
$PAIRSAT,3,23,2,0,1221,3,0,1221,4,0,1200,5,0,200,7,0,1221,8,0,1221,9,0,1200,10,0,1200,11,0,1200,12,0,1200,13,0,1221,15,0,1221,19,0,1200,21,0,1200,24,0,1200,25,0,1200,26,0,1221,27,0,1200,30,0,1200,31,0,1200,33,0,1200,34,0,1200,36,0,1200*69
$PAIRSAT,4,50,1,0,200,2,0,200,3,0,200,4,0,200,5,0,200,6,0,201,7,0,200,8,0,201,9,0,201,10,0,200,11,0,200,12,0,200,13,0,201,14,0,200,15,0,200,16,0,201,19,0,621,20,0,621,21,0,600,22,0,621,23,0,600,24,0,600,25,0,600,26,0,600,27,0,600,28,0,600,29,0,621,30,0,600,31,0,200,32,0,600,33,0,600,34,0,600,35,0,621,36,0,621,37,0,621,38,0,621,39,0,621,40,0,600,41,0,600,42,0,600,43,0,600,44,0,600,45,0,600,46,0,621,56,0,200,57,0,200,58,0,200,59,0,600,60,0,600,61,0,600*41
$PAIRDGP,1,15*6C
$GNGGA,110806.200,2500.8029494,N,12132.4812906,E,4,62,0.43,15.902,M,15.25,M,1,3335*4D
$GNRMC,110806.200,A,2500.8029494,N,12132.4812906,E,0.00,197.87,260623,,,R,V*18
$GPHDT,269.970,T*36
$GNACCURACY,3.5*10
$GNGGA,110806.300,2500.8029492,N,12132.4812899,E,4,62,0.43,15.876,M,15.25,M,1,3335*4F
$GNRMC,110806.300,A,2500.8029492,N,12132.4812899,E,0.00,197.87,260623,,,R,V*18
$GPHDT,,T*1B
$GNACCURACY,3.5*10
$GNGGA,110806.400,2500.8029484,N,12132.4812921,E,4,62,0.43,15.884,M,15.25,M,1,3335*40
$GNRMC,110806.400,A,2500.8029484,N,12132.4812921,E,0.00,197.87,260623,,,R,V*1A
$GPHDT,269.798,T*3E
$GNACCURACY,3.5*10
$GNGGA,110806.500,2500.8029469,N,12132.4812895,E,4,62,0.43,15.882,M,15.25,M,1,3335*4A
$GNRMC,110806.500,A,2500.8029469,N,12132.4812895,E,0.00,197.87,260623,,,R,V*16
$GPHDT,,T*1B
$GNACCURACY,3.5*10
$GNGGA,110806.600,2500.8029462,N,12132.4812908,E,4,62,0.43,15.884,M,15.25,M,0,3335*40
$GNRMC,110806.600,A,2500.8029462,N,12132.4812908,E,0.00,197.87,260623,,,R,V*1B
$GPHDT,270.421,T*37
$GNACCURACY,3.5*10
$GNGGA,110806.700,2500.8029449,N,12132.4812879,E,4,62,0.43,15.882,M,15.25,M,0,3335*49
$GNRMC,110806.700,A,2500.8029449,N,12132.4812879,E,0.00,197.87,260623,,,R,V*14
$GPHDT,,T*1B
$GNACCURACY,3.5*10
$GNGGA,110806.800,2500.8029467,N,12132.4812901,E,4,62,0.43,15.885,M,15.25,M,0,3335*43
$GNRMC,110806.800,A,2500.8029467,N,12132.4812901,E,0.00,197.87,260623,,,R,V*19
$GPHDT,270.370,T*34
$GNACCURACY,3.6*13
$GNGGA,110806.900,2500.8029536,N,12132.4812962,E,4,62,0.43,15.853,M,15.25,M,0,3335*49
$GNRMC,110806.900,A,2500.8029536,N,12132.4812962,E,0.00,197.87,260623,,,R,V*18
$GPHDT,,T*1B
$GNACCURACY,3.5*10
$GNGGA,110807.000,2500.8029463,N,12132.4812888,E,4,62,0.43,15.882,M,15.25,M,1,3335*48
$GNRMC,110807.000,A,2500.8029463,N,12132.4812888,E,0.00,197.87,260623,,,R,V*14
$GPHDT,270.400,T*34
$GNACCURACY,3.5*10
$GNGGA,110807.100,2500.8029471,N,12132.4812891,E,4,61,0.45,15.883,M,15.25,M,1,3335*46
$GNRMC,110807.100,A,2500.8029471,N,12132.4812891,E,0.00,197.87,260623,,,R,V*1E
$GPHDT,,T*1B
$GNGSA,A,3,24,196,18,199,23,15,195,194,05,10,,,0.81,0.45,0.68,1*07
$GNGSA,A,3,80,85,70,73,86,71,84,79,,,,,0.81,0.45,0.68,2*08
$GNGSA,A,3,13,08,07,15,26,02,03,,,,,,0.81,0.45,0.68,3*09
$GNGSA,A,3,38,08,39,16,13,06,46,20,19,36,37,29,0.81,0.45,0.68,4*0A
$GNGSA,A,3,35,,,,,,,,,,,,0.81,0.45,0.68,4*04
$GPGSV,4,1,16,24,81,073,37,196,74,060,39,18,61,265,26,199,60,167,38,1*6F
$GPGSV,4,2,16,23,43,333,45,15,41,038,38,195,37,179,39,194,28,140,42,1*69
$GPGSV,4,3,16,05,24,111,39,12,15,147,16,13,13,051,25,10,12,314,39,1*63
$GPGSV,4,4,16,29,05,202,,32,05,262,,25,04,181,,20,03,125,,1*63
$GPGSV,2,1,08,24,81,073,49,196,74,060,40,18,61,265,29,199,60,167,46,8*6E
$GPGSV,2,2,08,23,43,333,42,195,37,179,32,194,28,140,31,10,12,314,38,8*6F
$GLGSV,3,1,09,80,47,093,40,85,41,258,32,70,39,358,27,73,28,163,24,1*7A
$GLGSV,3,2,09,86,24,312,18,71,18,305,31,84,17,193,22,79,17,039,16,1*7E
$GLGSV,3,3,09,69,16,064,15,1*4F
$GAGSV,2,1,08,13,62,244,33,08,50,017,40,07,42,294,30,15,30,174,31,7*79
$GAGSV,2,2,08,26,28,313,35,02,23,093,23,30,20,148,21,03,13,059,20,7*7A
$GAGSV,2,1,06,13,62,244,33,08,50,017,41,07,42,294,33,15,30,174,23,1*70
$GAGSV,2,2,06,26,28,313,32,03,13,059,19,1*78
$GBGSV,4,1,15,38,82,074,43,08,75,007,36,39,72,269,44,16,66,246,36,1*7A
$GBGSV,4,2,15,13,65,339,45,06,64,243,30,46,55,126,45,09,48,231,19,1*74
$GBGSV,4,3,15,20,45,052,37,19,45,335,44,36,27,185,40,37,27,053,34,1*71
$GBGSV,4,4,15,29,24,217,15,35,23,277,27,22,08,295,31,1*4B
$GBGSV,3,1,09,38,82,074,44,39,72,269,44,46,55,126,47,20,45,052,24,4*7E
$GBGSV,3,2,09,19,45,335,44,36,27,185,39,37,27,053,30,29,24,217,23,4*7D
$GBGSV,3,3,09,35,23,277,24,4*49
$GNACCURACY,3.5*10
$PAIRSAT,1,35,1,0,200,2,0,200,3,0,200,4,0,200,5,0,201,6,0,200,7,0,200,8,0,200,9,0,200,10,0,221,11,0,200,12,0,200,13,0,201,14,0,200,15,0,201,16,0,200,17,0,200,18,0,221,19,0,200,20,0,200,21,0,200,23,0,221,24,0,221,25,0,200,26,0,200,27,0,200,28,0,200,29,0,200,30,0,200,31,0,200,32,0,200,194,0,621,195,0,621,196,0,620,199,0,621*6A
$PAIRSAT,2,23,65,0,200,67,0,200,68,0,200,69,0,201,70,0,201,71,0,201,72,0,200,73,0,201,74,0,200,75,0,200,76,0,200,77,0,200,78,0,200,79,0,201,80,0,201,81,0,200,82,0,200,83,0,200,84,0,201,85,0,201,86,0,201,87,0,200,88,0,200*52
$PAIRSAT,3,23,2,0,1221,3,0,1221,4,0,1200,5,0,200,7,0,1221,8,0,1221,9,0,1200,10,0,1200,11,0,1200,12,0,1200,13,0,1221,15,0,1221,19,0,1200,21,0,1200,24,0,1200,25,0,1200,26,0,1221,27,0,1200,30,0,1200,31,0,1200,33,0,1200,34,0,1200,36,0,1200*69
$PAIRSAT,4,50,1,0,200,2,0,200,3,0,200,4,0,200,5,0,200,6,0,201,7,0,200,8,0,201,9,0,201,10,0,200,11,0,200,12,0,200,13,0,201,14,0,200,15,0,200,16,0,201,19,0,621,20,0,621,21,0,600,22,0,621,23,0,600,24,0,600,25,0,600,26,0,600,27,0,600,28,0,600,29,0,621,30,0,600,31,0,200,32,0,600,33,0,600,34,0,600,35,0,621,36,0,621,37,0,621,38,0,621,39,0,621,40,0,600,41,0,600,42,0,600,43,0,600,44,0,600,45,0,600,46,0,621,56,0,200,57,0,200,58,0,200,59,0,600,60,0,600,61,0,600*41
$PAIRDGP,1,15*6C
$GNGGA,110807.200,2500.8029449,N,12132.4812867,E,4,61,0.45,15.872,M,15.25,M,1,3335*49
$GNRMC,110807.200,A,2500.8029449,N,12132.4812867,E,0.00,197.87,260623,,,R,V*1F
$GPHDT,270.289,T*33
$GNACCURACY,3.5*10
$GNGGA,110807.300,2500.8029463,N,12132.4812910,E,4,61,0.45,15.858,M,15.25,M,1,3335*49
$GNRMC,110807.300,A,2500.8029463,N,12132.4812910,E,0.00,197.87,260623,,,R,V*17
$GPHDT,,T*1B
$GNACCURACY,3.5*10
$GNGGA,110807.400,2500.8029444,N,12132.4812890,E,4,61,0.45,15.868,M,15.25,M,1,3335*41
$GNRMC,110807.400,A,2500.8029444,N,12132.4812890,E,0.00,197.87,260623,,,R,V*1C
$GPHDT,270.492,T*3F
$GNACCURACY,3.5*10
$GNGGA,110807.500,2500.8029475,N,12132.4812917,E,4,61,0.45,15.868,M,15.25,M,1,3335*4C
$GNRMC,110807.500,A,2500.8029475,N,12132.4812917,E,0.00,197.87,260623,,,R,V*11
$GPHDT,,T*1B
$GNACCURACY,3.5*10
$GNGGA,110807.600,2500.8029460,N,12132.4812900,E,4,62,0.43,15.864,M,15.25,M,1,3335*44
$GNRMC,110807.600,A,2500.8029460,N,12132.4812900,E,0.00,197.87,260623,,,R,V*10
$GPHDT,270.286,T*3C
$GNACCURACY,3.5*10
$GNGGA,110807.700,2500.8029459,N,12132.4812920,E,4,61,0.45,15.871,M,15.25,M,0,3335*4D
$GNRMC,110807.700,A,2500.8029459,N,12132.4812920,E,0.00,197.87,260623,,,R,V*19
$GPHDT,,T*1B
$GNACCURACY,3.5*10
$GNGGA,110807.800,2500.8029486,N,12132.4812921,E,4,61,0.45,15.876,M,15.25,M,0,3335*46
$GNRMC,110807.800,A,2500.8029486,N,12132.4812921,E,0.00,197.87,260623,,,R,V*15
$GPHDT,269.691,T*36
$GNACCURACY,3.5*10
$GNGGA,110807.900,2500.8029551,N,12132.4812957,E,4,62,0.44,15.854,M,15.25,M,0,3335*4F
$GNRMC,110807.900,A,2500.8029551,N,12132.4812957,E,0.00,197.87,260623,,,R,V*1E
$GPHDT,,T*1B
$GNACCURACY,3.5*10
$GNGGA,110808.000,2500.8029546,N,12132.4812972,E,4,62,0.44,15.869,M,15.25,M,1,3335*47
$GNRMC,110808.000,A,2500.8029546,N,12132.4812972,E,0.00,197.87,260623,,,R,V*19
$GPHDT,270.009,T*39
$GNACCURACY,3.5*10
$GNGGA,110808.100,2500.8029540,N,12132.4812965,E,4,60,0.44,15.862,M,15.25,M,1,3335*4F
$GNRMC,110808.100,A,2500.8029540,N,12132.4812965,E,0.00,197.87,260623,,,R,V*18
$GPHDT,,T*1B
$GNGSA,A,3,24,196,18,199,23,15,195,194,05,10,,,0.78,0.42,0.66,1*08
$GNGSA,A,3,80,85,70,73,86,71,84,79,69,,,,0.78,0.42,0.66,2*08
$GNGSA,A,3,13,08,07,15,26,02,03,,,,,,0.78,0.42,0.66,3*06
$GNGSA,A,3,38,08,39,16,13,06,46,09,20,19,36,37,0.78,0.42,0.66,4*07
$GNGSA,A,3,35,29,,,,,,,,,,,0.78,0.42,0.66,4*00
$GPGSV,4,1,16,24,81,073,37,196,74,060,39,18,61,265,24,199,60,167,32,1*67
$GPGSV,4,2,16,23,43,333,45,15,41,038,37,195,37,179,40,194,28,140,40,1*6A
$GPGSV,4,3,16,05,24,111,36,12,15,147,16,13,13,051,23,10,12,314,39,1*6A
$GPGSV,4,4,16,29,05,202,,32,05,262,,25,04,181,,20,03,125,,1*63
$GPGSV,2,1,08,24,81,073,49,196,74,060,40,18,61,265,29,199,60,167,43,8*6B
$GPGSV,2,2,08,23,43,333,42,195,37,179,36,194,28,140,26,10,12,314,38,8*6D
$GLGSV,3,1,09,80,47,093,40,85,41,258,32,70,39,358,27,73,28,163,26,1*78
$GLGSV,3,2,09,86,24,312,21,71,18,305,31,84,17,193,23,79,17,039,17,1*74
$GLGSV,3,3,09,69,16,064,15,1*4F
$GAGSV,3,1,09,13,62,244,34,08,50,017,40,07,42,294,30,15,30,174,31,7*7E
$GAGSV,3,2,09,26,28,313,35,02,23,093,23,30,20,148,21,03,13,059,20,7*7A
$GAGSV,3,3,09,25,04,048,,7*45
$GAGSV,2,1,06,13,62,244,33,08,50,017,41,07,42,294,33,15,30,174,22,1*71
$GAGSV,2,2,06,26,28,313,32,03,13,059,21,1*73
$GBGSV,4,1,15,38,82,074,43,08,75,007,36,39,72,269,44,16,66,246,37,1*7B
$GBGSV,4,2,15,13,65,339,45,06,64,243,31,46,55,126,44,09,48,231,21,1*7F
$GBGSV,4,3,15,20,45,052,38,19,45,335,44,36,27,185,41,37,27,053,32,1*79
$GBGSV,4,4,15,29,24,217,17,35,23,277,27,22,08,295,31,1*49
$GBGSV,3,1,09,38,82,074,44,39,72,269,44,46,55,126,46,20,45,052,26,4*7D
$GBGSV,3,2,09,19,45,335,44,36,27,185,37,37,27,053,29,29,24,217,22,4*7A
$GBGSV,3,3,09,35,23,277,24,4*49
$GNACCURACY,3.5*10
$PAIRSAT,1,35,1,0,200,2,0,200,3,0,200,4,0,200,5,0,201,6,0,200,7,0,200,8,0,200,9,0,200,10,0,221,11,0,200,12,0,200,13,0,201,14,0,200,15,0,201,16,0,200,17,0,200,18,0,221,19,0,200,20,0,200,21,0,200,23,0,221,24,0,221,25,0,200,26,0,200,27,0,200,28,0,200,29,0,200,30,0,200,31,0,200,32,0,200,194,0,621,195,0,621,196,0,620,199,0,621*6A
$PAIRSAT,2,23,65,0,200,67,0,200,68,0,200,69,0,201,70,0,201,71,0,201,72,0,200,73,0,201,74,0,200,75,0,200,76,0,200,77,0,200,78,0,200,79,0,201,80,0,201,81,0,200,82,0,200,83,0,200,84,0,201,85,0,201,86,0,201,87,0,200,88,0,200*52
$PAIRSAT,3,23,2,0,1221,3,0,1221,4,0,1200,5,0,200,7,0,1221,8,0,1221,9,0,1200,10,0,1200,11,0,1200,12,0,1200,13,0,1221,15,0,1221,19,0,1200,21,0,1200,24,0,1200,25,0,1200,26,0,1221,27,0,1200,30,0,1200,31,0,1200,33,0,1200,34,0,1200,36,0,1200*69
$PAIRSAT,4,50,1,0,200,2,0,200,3,0,200,4,0,200,5,0,200,6,0,201,7,0,200,8,0,201,9,0,201,10,0,200,11,0,200,12,0,200,13,0,201,14,0,200,15,0,200,16,0,201,19,0,621,20,0,621,21,0,600,22,0,621,23,0,600,24,0,600,25,0,600,26,0,600,27,0,600,28,0,600,29,0,621,30,0,600,31,0,200,32,0,600,33,0,600,34,0,600,35,0,621,36,0,621,37,0,621,38,0,621,39,0,621,40,0,600,41,0,600,42,0,600,43,0,600,44,0,600,45,0,600,46,0,621,56,0,200,57,0,200,58,0,200,59,0,600,60,0,600,61,0,600*41
$PAIRDGP,1,15*6C
$GNGGA,110808.200,2500.8029552,N,12132.4812941,E,4,61,0.42,15.857,M,15.25,M,1,3335*48
$GNRMC,110808.200,A,2500.8029552,N,12132.4812941,E,0.00,197.87,260623,,,R,V*1E
$GPHDT,269.959,T*3D
$GNACCURACY,3.5*10
$GNGGA,110808.300,2500.8029519,N,12132.4812962,E,4,61,0.42,15.869,M,15.25,M,1,3335*4A
$GNRMC,110808.300,A,2500.8029519,N,12132.4812962,E,0.00,197.87,260623,,,R,V*11
$GPHDT,,T*1B
$GNACCURACY,3.5*10
$GNGGA,110808.400,2500.8029522,N,12132.4812930,E,4,61,0.42,15.862,M,15.25,M,1,3335*49
$GNRMC,110808.400,A,2500.8029522,N,12132.4812930,E,0.00,197.87,260623,,,R,V*19
$GPHDT,270.016,T*37
$GNACCURACY,3.6*13
$GNGGA,110808.500,2500.8029537,N,12132.4812957,E,4,61,0.42,15.876,M,15.25,M,1,3335*48
$GNRMC,110808.500,A,2500.8029537,N,12132.4812957,E,0.00,197.87,260623,,,R,V*1D
$GPHDT,,T*1B
$GNACCURACY,3.6*13
$GNGGA,110808.600,2500.8029552,N,12132.4812994,E,4,61,0.42,15.859,M,15.25,M,1,3335*4A
$GNRMC,110808.600,A,2500.8029552,N,12132.4812994,E,0.00,197.87,260623,,,R,V*12
$GPHDT,269.757,T*3D
$GNACCURACY,3.5*10
$GNGGA,110808.700,2500.8029545,N,12132.4812973,E,4,61,0.42,15.862,M,15.25,M,1,3335*4C
$GNRMC,110808.700,A,2500.8029545,N,12132.4812973,E,0.00,197.87,260623,,,R,V*1C
$GPHDT,,T*1B
$GNACCURACY,3.5*10
$GNGGA,110808.800,2500.8029544,N,12132.4812935,E,4,61,0.42,15.873,M,15.25,M,1,3335*40
$GNRMC,110808.800,A,2500.8029544,N,12132.4812935,E,0.00,197.87,260623,,,R,V*10
$GPHDT,269.669,T*31
$GNACCURACY,3.5*10
$GNGGA,110808.900,2500.8029547,N,12132.4812992,E,4,61,0.42,15.869,M,15.25,M,1,3335*44
$GNRMC,110808.900,A,2500.8029547,N,12132.4812992,E,0.00,197.87,260623,,,R,V*1F
$GPHDT,,T*1B
$GNACCURACY,3.5*10
$GNGGA,110809.000,2500.8029530,N,12132.4812946,E,4,61,0.42,15.888,M,15.25,M,2,3335*49
$GNRMC,110809.000,A,2500.8029530,N,12132.4812946,E,0.00,197.87,260623,,,R,V*1E
$PAIR010,0,0,2268,126507*32
$GPHDT,270.266,T*32
$GNACCURACY,3.5*10
$GNGGA,110809.100,2500.8029563,N,12132.4812932,E,4,61,0.42,15.888,M,15.25,M,2,3335*4D
$GNRMC,110809.100,A,2500.8029563,N,12132.4812932,E,0.00,197.87,260623,,,R,V*1A
$GPHDT,,T*1B
$GNGSA,A,3,24,196,18,199,23,15,195,194,05,10,,,0.78,0.42,0.66,1*08
$GNGSA,A,3,80,85,70,73,86,71,84,79,69,,,,0.78,0.42,0.66,2*08
$GNGSA,A,3,13,08,07,15,26,02,03,,,,,,0.78,0.42,0.66,3*06
$GNGSA,A,3,38,08,39,16,13,06,46,09,20,19,36,37,0.78,0.42,0.66,4*07
$GNGSA,A,3,35,29,,,,,,,,,,,0.78,0.42,0.66,4*00
$GPGSV,4,1,16,24,81,073,39,196,74,060,40,18,61,265,22,199,60,167,27,1*65
$GPGSV,4,2,16,23,43,333,45,15,41,038,37,195,37,179,40,194,28,140,36,1*6B
$GPGSV,4,3,16,05,24,111,33,12,15,147,15,13,13,051,23,10,12,314,40,1*62
$GPGSV,4,4,16,29,05,202,,32,05,262,,25,04,181,,20,03,125,,1*63
$GPGSV,2,1,08,24,81,073,48,196,74,060,40,18,61,265,31,199,60,167,39,8*6E
$GPGSV,2,2,08,23,43,333,42,195,37,179,40,194,28,140,31,10,12,314,39,8*6B
$GLGSV,3,1,09,80,47,093,40,85,41,258,31,70,39,358,26,73,28,163,26,1*7A
$GLGSV,3,2,09,86,24,312,23,71,18,305,31,84,17,193,21,79,17,039,16,1*75
$GLGSV,3,3,09,69,16,064,15,1*4F
$GAGSV,3,1,09,13,61,244,34,08,50,017,40,07,42,294,31,15,30,174,31,7*7C
$GAGSV,3,2,09,26,28,313,35,02,23,093,22,30,20,148,19,03,13,059,21,7*71
$GAGSV,3,3,09,25,04,048,,7*45
$GAGSV,2,1,06,13,61,244,33,08,50,017,43,07,42,294,34,15,30,174,33,1*77
$GAGSV,2,2,06,26,28,313,33,03,13,059,21,1*72
$GBGSV,4,1,15,38,82,074,43,08,75,007,38,39,72,269,43,16,66,246,38,1*7D
$GBGSV,4,2,15,13,65,339,45,06,64,243,31,46,55,126,31,09,48,231,21,1*7D
$GBGSV,4,3,15,20,45,052,39,19,45,335,44,36,27,185,38,37,27,053,33,1*77
$GBGSV,4,4,15,29,24,217,15,35,23,277,27,22,08,295,32,1*48
$GBGSV,3,1,09,38,82,074,43,39,72,269,44,46,55,126,41,20,45,052,28,4*73
$GBGSV,3,2,09,19,45,335,44,36,27,185,36,37,27,053,30,29,24,217,24,4*75
$GBGSV,3,3,09,35,23,277,24,4*49
$GNACCURACY,3.5*10
$PAIRSAT,1,35,1,0,200,2,0,200,3,0,200,4,0,200,5,0,201,6,0,200,7,0,200,8,0,200,9,0,200,10,0,221,11,0,200,12,0,200,13,0,201,14,0,200,15,0,201,16,0,200,17,0,200,18,0,221,19,0,200,20,0,200,21,0,200,23,0,221,24,0,221,25,0,200,26,0,200,27,0,200,28,0,200,29,0,200,30,0,200,31,0,200,32,0,200,194,0,621,195,0,621,196,0,620,199,0,621*6