$FW : RTK35X,V1.1X0314AS,Lib20210517,1*54
$Tool : LOCOSYS , GNSS Firebird , v1.0.0.19*39
$---------------------------------------------------*2D

$GAGSV,2,2,06,26,28,313,37,02,23,093,16,1*76
$GBGSV,4,1,15,38,82,075,42,08,75,007,38,39,72,270,43,16,66,246,39,1*74
$GBGSV,4,2,15,13,65,339,45,06,64,243,32,46,55,125,44,09,48,231,19,1*74
$GBGSV,4,3,15,19,45,336,43,20,45,053,37,36,27,185,44,37,27,053,36,1*72
$GBGSV,4,4,15,29,24,217,,35,23,277,21,22,08,295,31,1*49
$GBGSV,2,1,07,38,82,075,44,39,72,270,44,46,55,125,45,19,45,336,43,4*73
$GBGSV,2,2,07,20,45,053,36,36,27,185,43,37,27,053,28,4*42
$GNACCURACY,3.4*11
$PAIRSAT,1,35,1,0,200,2,0,200,3,0,200,4,0,200,5,0,201,6,0,200,7,0,200,8,0,200,9,0,200,10,0,221,11,0,200,12,0,200,13,0,201,14,0,200,15,0,201,16,0,200,17,0,200,18,0,221,19,0,200,20,0,200,21,0,200,23,0,221,24,0,221,25,0,200,26,0,200,27,0,200,28,0,200,29,0,200,30,0,200,31,0,200,32,0,200,194,0,621,195,0,621,196,0,620,199,0,621*6A
$PAIRSAT,2,23,65,0,200,67,0,200,68,0,200,69,0,201,70,0,201,71,0,201,72,0,200,73,0,201,74,0,200,75,0,200,76,0,200,77,0,200,78,0,200,79,0,201,80,0,201,81,0,200,82,0,200,83,0,200,84,0,201,85,0,201,86,0,201,87,0,200,88,0,200*52
$PAIRSAT,3,23,2,0,1221,3,0,1221,4,0,1200,5,0,200,7,0,1221,8,0,1221,9,0,1200,10,0,1200,11,0,1200,12,0,1200,13,0,1221,15,0,1221,19,0,1200,21,0,1200,24,0,1200,25,0,1200,26,0,1221,27,0,1200,30,0,1200,31,0,1200,33,0,1200,34,0,1200,36,0,1200*69
$PAIRSAT,4,50,1,0,200,2,0,200,3,0,200,4,0,200,5,0,200,6,0,201,7,0,200,8,0,201,9,0,201,10,0,200,11,0,200,12,0,200,13,0,201,14,0,200,15,0,200,16,0,201,19,0,621,20,0,621,21,0,600,22,0,621,23,0,600,24,0,600,25,0,600,26,0,600,27,0,600,28,0,600,29,0,621,30,0,600,31,0,200,32,0,600,33,0,600,34,0,600,35,0,621,36,0,621,37,0,621,38,0,621,39,0,621,40,0,600,41,0,600,42,0,600,43,0,600,44,0,600,45,0,600,46,0,621,56,0,200,57,0,200,58,0,200,59,0,600,60,0,600,61,0,600*41
$PAIRDGP,1,15*6C
$GNGGA,110840.200,2500.8029566,N,12132.4812885,E,4,60,0.44,15.867,M,15.25,M,5,3335*4A
$GNRMC,110840.200,A,2500.8029566,N,12132.4812885,E,0.02,197.87,260623,,,R,V*1E
$GPHDT,,T*1B
$GNACCURACY,3.4*11
$GNGGA,110840.300,2500.8029545,N,12132.4812906,E,4,59,0.45,15.879,M,15.25,M,5,3335*44
$GNRMC,110840.300,A,2500.8029545,N,12132.4812906,E,0.02,197.87,260623,,,R,V*14
$GPHDT,,T*1B
$GNACCURACY,3.4*11
$GNGGA,110840.400,2500.8029552,N,12132.4812845,E,4,59,0.45,15.863,M,15.25,M,5,3335*48
$GNRMC,110840.400,A,2500.8029552,N,12132.4812845,E,0.02,197.87,260623,,,R,V*13
$GPHDT,,T*1B
$GNACCURACY,3.4*11
$GNGGA,110840.500,2500.8029532,N,12132.4812857,E,4,60,0.44,15.878,M,15.25,M,5,3335*4D
$GNRMC,110840.500,A,2500.8029532,N,12132.4812857,E,0.02,197.87,260623,,,R,V*17
$GPHDT,,T*1B
$GNACCURACY,3.4*11
$GNGGA,110840.600,2500.8029534,N,12132.4812842,E,4,60,0.44,15.884,M,15.25,M,5,3335*4F
$GNRMC,110840.600,A,2500.8029534,N,12132.4812842,E,0.02,197.87,260623,,,R,V*16
$GPHDT,,T*1B
$GNACCURACY,3.4*11
$GNGGA,110840.700,2500.8029588,N,12132.4812862,E,4,61,0.44,15.870,M,15.25,M,5,3335*41
$GNRMC,110840.700,A,2500.8029588,N,12132.4812862,E,0.02,197.87,260623,,,R,V*12
$GPHDT,,T*1B
$GNACCURACY,3.4*11
$GNGGA,110840.800,2500.8029543,N,12132.4812846,E,4,62,0.43,15.871,M,15.25,M,5,3335*4A
$GNRMC,110840.800,A,2500.8029543,N,12132.4812846,E,0.02,197.87,260623,,,R,V*1C
$GPHDT,,T*1B
$GNACCURACY,3.4*11
$GNGGA,110840.900,2500.8029523,N,12132.4812827,E,4,62,0.43,15.876,M,15.25,M,5,3335*4D
$GNRMC,110840.900,A,2500.8029523,N,12132.4812827,E,0.02,197.87,260623,,,R,V*1C
$GPHDT,,T*1B
$GNACCURACY,3.4*11
$GNGGA,110841.000,2500.8029534,N,12132.4812834,E,4,62,0.43,15.879,M,15.25,M,6,3335*4D
$GNRMC,110841.000,A,2500.8029534,N,12132.4812834,E,0.02,197.87,260623,,,R,V*10
$GPHDT,,T*1B
$GNACCURACY,3.4*11
$GNGGA,110841.100,2500.8029556,N,12132.4812864,E,4,62,0.43,15.873,M,15.25,M,6,3335*47
$GNRMC,110841.100,A,2500.8029556,N,12132.4812864,E,0.02,197.87,260623,,,R,V*10
$GPHDT,,T*1B
$GNGSA,A,3,24,196,18,199,23,15,195,194,05,13,10,,0.79,0.43,0.66,1*0A
$GNGSA,A,3,80,85,70,73,86,71,84,79,69,,,,0.79,0.43,0.66,2*08
$GNGSA,A,3,13,08,07,15,26,02,03,,,,,,0.79,0.43,0.66,3*06
$GNGSA,A,3,38,08,39,16,13,06,46,09,19,20,36,37,0.79,0.43,0.66,4*07
$GNGSA,A,3,35,,,,,,,,,,,,0.79,0.43,0.66,4*0B
$GPGSV,5,1,17,24,81,071,33,196,74,060,38,18,61,264,25,199,60,167,38,1*6A
$GPGSV,5,2,17,50,50,134,39,23,44,333,45,15,41,038,33,195,37,179,41,1*53
$GPGSV,5,3,17,194,28,140,37,05,24,112,29,12,15,147,20,13,13,051,24,1*5C
$GPGSV,5,4,17,10,12,315,40,32,05,262,17,29,04,202,,25,04,181,,1*62
$GPGSV,5,5,17,20,02,125,,1*54
$GPGSV,2,1,08,24,81,071,47,196,74,060,40,18,61,264,20,199,60,167,47,8*6B
$GPGSV,2,2,08,23,44,333,40,195,37,179,43,194,28,140,39,10,12,315,41,8*6B
$GLGSV,3,1,09,80,47,092,33,85,41,257,25,70,39,358,27,73,29,163,35,1*77
$GLGSV,3,2,09,86,24,312,28,71,18,305,34,84,17,193,23,79,17,038,20,1*7D
$GLGSV,3,3,09,69,16,065,17,1*4C
$GAGSV,2,1,08,13,61,243,33,08,49,017,37,07,42,294,33,15,30,174,34,7*73
$GAGSV,2,2,08,26,28,313,34,02,23,093,23,03,13,059,17,25,04,048,,7*7F
$GAGSV,2,1,07,13,61,243,29,08,49,017,38,07,42,294,36,15,30,174,36,1*79
$GAGSV,2,2,07,26,28,313,37,02,23,093,16,03,13,059,19,1*42
$GBGSV,4,1,15,38,82,075,42,08,75,007,38,39,72,270,43,16,66,246,39,1*74
$GBGSV,4,2,15,13,65,339,45,06,64,243,31,46,55,125,45,09,48,231,19,1*76
$GBGSV,4,3,15,19,45,336,43,20,45,053,39,36,27,185,44,37,27,053,31,1*7B
$GBGSV,4,4,15,29,24,217,,35,23,277,24,22,08,295,29,1*45
$GBGSV,2,1,07,38,82,075,44,39,72,270,44,46,55,125,46,19,45,336,44,4*77
$GBGSV,2,2,07,20,45,053,30,36,27,185,43,37,27,053,35,4*48
$GNACCURACY,3.4*11
$PAIRSAT,1,35,1,0,200,2,0,200,3,0,200,4,0,200,5,0,201,6,0,200,7,0,200,8,0,200,9,0,200,10,0,221,11,0,200,12,0,200,13,0,201,14,0,200,15,0,201,16,0,200,17,0,200,18,0,221,19,0,200,20,0,200,21,0,200,23,0,221,24,0,221,25,0,200,26,0,200,27,0,200,28,0,200,29,0,200,30,0,200,31,0,200,32,0,200,194,0,621,195,0,621,196,0,620,199,0,621*6A
$PAIRSAT,2,23,65,0,200,67,0,200,68,0,200,69,0,201,70,0,201,71,0,201,72,0,200,73,0,201,74,0,200,75,0,200,76,0,200,77,0,200,78,0,200,79,0,201,80,0,201,81,0,200,82,0,200,83,0,200,84,0,201,85,0,201,86,0,201,87,0,200,88,0,200*52
$PAIRSAT,3,23,2,0,1221,3,0,1221,4,0,1200,5,0,200,7,0,1221,8,0,1221,9,0,1200,10,0,1200,11,0,1200,12,0,1200,13,0,1221,15,0,1221,19,0,1200,21,0,1200,24,0,1200,25,0,1200,26,0,1221,27,0,1200,30,0,1200,31,0,1200,33,0,1200,34,0,1200,36,0,1200*69
$PAIRSAT,4,50,1,0,200,2,0,200,3,0,200,4,0,200,5,0,200,6,0,201,7,0,200,8,0,201,9,0,201,10,0,200,11,0,200,12,0,200,13,0,201,14,0,200,15,0,200,16,0,201,19,0,621,20,0,621,21,0,600,22,0,621,23,0,600,24,0,600,25,0,600,26,0,600,27,0,600,28,0,600,29,0,621,30,0,600,31,0,200,32,0,600,33,0,600,34,0,600,35,0,621,36,0,621,37,0,621,38,0,621,39,0,621,40,0,600,41,0,600,42,0,600,43,0,600,44,0,600,45,0,600,46,0,621,56,0,200,57,0,200,58,0,200,59,0,600,60,0,600,61,0,600*41
$PAIRDGP,1,15*6C
$GNGGA,110841.200,2500.8029565,N,12132.4812846,E,4,62,0.43,15.877,M,15.25,M,6,3335*40
$GNRMC,110841.200,A,2500.8029565,N,12132.4812846,E,0.02,197.87,260623,,,R,V*13
$GPHDT,,T*1B
$GNACCURACY,3.4*11
$GNGGA,110841.300,2500.8029556,N,12132.4812850,E,4,61,0.43,15.881,M,15.25,M,6,3335*4C
$GNRMC,110841.300,A,2500.8029556,N,12132.4812850,E,0.02,197.87,260623,,,R,V*15
$GPHDT,,T*1B
$GNACCURACY,3.4*11
$GNGGA,110841.400,2500.8029547,N,12132.4812863,E,4,61,0.43,15.870,M,15.25,M,5,3335*46
$GNRMC,110841.400,A,2500.8029547,N,12132.4812863,E,0.02,197.87,260623,,,R,V*12
$GPHDT,,T*1B
$GNACCURACY,3.5*10
$GNGGA,110841.500,2500.8029547,N,12132.4812857,E,4,61,0.43,15.882,M,15.25,M,5,3335*4D
$GNRMC,110841.500,A,2500.8029547,N,12132.4812857,E,0.02,197.87,260623,,,R,V*14
$GPHDT,,T*1B
$GNACCURACY,3.5*10
$GNGGA,110841.600,2500.8029553,N,12132.4812907,E,4,61,0.43,15.871,M,15.25,M,5,3335*43
$GNRMC,110841.600,A,2500.8029553,N,12132.4812907,E,0.02,197.87,260623,,,R,V*16
$GPHDT,,T*1B
$GNACCURACY,3.5*10
$GNGGA,110841.700,2500.8029553,N,12132.4812868,E,4,60,0.44,15.883,M,15.25,M,5,3335*41
$GNRMC,110841.700,A,2500.8029553,N,12132.4812868,E,0.02,197.87,260623,,,R,V*1F
$GPHDT,,T*1B
$GNACCURACY,3.5*10
$GNGGA,110841.800,2500.8029555,N,12132.4812853,E,4,60,0.44,15.884,M,15.25,M,5,3335*47
$GNRMC,110841.800,A,2500.8029555,N,12132.4812853,E,0.02,197.87,260623,,,R,V*1E
$GPHDT,,T*1B
$GNACCURACY,3.5*10
$GNGGA,110841.900,2500.8029555,N,12132.4812890,E,4,61,0.43,15.882,M,15.25,M,5,3335*49
$GNRMC,110841.900,A,2500.8029555,N,12132.4812890,E,0.02,197.87,260623,,,R,V*10
$GPHDT,,T*1B
$GNACCURACY,3.5*10
$GNGGA,110842.000,2500.8029540,N,12132.4812835,E,4,61,0.43,15.866,M,15.25,M,6,3335*41
$GNRMC,110842.000,A,2500.8029540,N,12132.4812835,E,0.02,197.87,260623,,,R,V*11
$GPHDT,,T*1B
$GNACCURACY,3.5*10
$GNGGA,110842.100,2500.8029545,N,12132.4812880,E,4,61,0.43,15.866,M,15.25,M,6,3335*4B
$GNRMC,110842.100,A,2500.8029545,N,12132.4812880,E,0.02,197.87,260623,,,R,V*1B
$GPHDT,,T*1B
$GNGSA,A,3,24,196,18,199,23,15,195,194,05,13,10,,0.79,0.43,0.66,1*0A
$GNGSA,A,3,80,85,70,73,86,71,84,79,69,,,,0.79,0.43,0.66,2*08
$GNGSA,A,3,13,08,07,15,26,02,03,,,,,,0.79,0.43,0.66,3*06
$GNGSA,A,3,38,08,39,16,13,06,46,09,19,20,36,37,0.79,0.43,0.66,4*07
$GNGSA,A,3,35,,,,,,,,,,,,0.79,0.43,0.66,4*0B
$GPGSV,5,1,17,24,81,071,33,196,74,060,39,18,61,264,25,199,60,167,38,1*6B
$GPGSV,5,2,17,50,50,134,40,23,44,333,45,15,41,038,33,195,37,179,41,1*5D
$GPGSV,5,3,17,194,28,140,36,05,24,112,23,12,15,147,19,13,13,051,25,1*5C
$GPGSV,5,4,17,10,12,315,40,32,05,262,17,29,04,202,,25,04,181,,1*62
$GPGSV,5,5,17,20,02,125,,1*54
$GPGSV,2,1,07,24,81,071,48,196,74,060,40,199,60,167,47,23,44,333,41,8*60
$GPGSV,2,2,07,195,37,179,43,194,28,140,39,10,12,315,42,8*51
$GLGSV,3,1,09,80,47,092,34,85,41,257,25,70,39,358,27,73,29,163,35,1*70
$GLGSV,3,2,09,86,24,312,29,71,18,305,34,84,17,193,23,79,17,038,19,1*76
$GLGSV,3,3,09,69,16,065,15,1*4E
$GAGSV,2,1,08,13,61,243,33,08,49,017,37,07,42,294,34,15,29,174,34,7*7C
$GAGSV,2,2,08,26,28,313,34,02,23,093,21,03,13,059,21,25,04,048,,7*78
$GAGSV,2,1,07,13,61,243,30,08,49,017,37,07,42,294,36,15,29,174,36,1*76
$GAGSV,2,2,07,26,28,313,37,02,23,093,15,03,13,059,18,1*40
$GBGSV,4,1,15,38,82,075,42,08,75,007,38,39,72,270,43,16,66,246,39,1*74
$GBGSV,4,2,15,13,65,339,45,06,64,243,31,46,55,125,45,09,48,231,19,1*76
$GBGSV,4,3,15,19,45,336,43,20,45,053,39,36,27,185,44,37,27,053,31,1*7B
$GBGSV,4,4,15,29,24,217,,35,23,277,21,22,08,295,30,1*48
$GBGSV,2,1,07,38,82,075,44,39,72,270,44,46,55,125,46,19,45,336,44,4*77
$GBGSV,2,2,07,20,45,053,31,36,27,185,43,37,27,053,36,4*4A
$GNACCURACY,3.5*10
$PAIRSAT,1,35,1,0,200,2,0,200,3,0,200,4,0,200,5,0,201,6,0,200,7,0,200,8,0,200,9,0,200,10,0,221,11,0,200,12,0,200,13,0,201,14,0,200,15,0,201,16,0,200,17,0,200,18,0,221,19,0,200,20,0,200,21,0,200,23,0,221,24,0,221,25,0,200,26,0,200,27,0,200,28,0,200,29,0,200,30,0,200,31,0,200,32,0,200,194,0,621,195,0,621,196,0,620,199,0,621*6A
$PAIRSAT,2,23,65,0,200,67,0,200,68,0,200,69,0,201,70,0,201,71,0,201,72,0,200,73,0,201,74,0,200,75,0,200,76,0,200,77,0,200,78,0,200,79,0,201,80,0,201,81,0,200,82,0,200,83,0,200,84,0,201,85,0,201,86,0,201,87,0,200,88,0,200*52
$PAIRSAT,3,23,2,0,1221,3,0,1221,4,0,1200,5,0,200,7,0,1221,8,0,1221,9,0,1200,10,0,1200,11,0,1200,12,0,1200,13,0,1221,15,0,1221,19,0,1200,21,0,1200,24,0,1200,25,0,1200,26,0,1221,27,0,1200,30,0,1200,31,0,1200,33,0,1200,34,0,1200,36,0,1200*69
$PAIRSAT,4,50,1,0,200,2,0,200,3,0,200,4,0,200,5,0,200,6,0,201,7,0,200,8,0,201,9,0,201,10,0,200,11,0,200,12,0,200,13,0,201,14,0,200,15,0,200,16,0,201,19,0,621,20,0,621,21,0,600,22,0,621,23,0,600,24,0,600,25,0,600,26,0,600,27,0,600,28,0,600,29,0,621,30,0,600,31,0,200,32,0,600,33,0,600,34,0,600,35,0,621,36,0,621,37,0,621,38,0,621,39,0,621,40,0,600,41,0,600,42,0,600,43,0,600,44,0,600,45,0,600,46,0,621,56,0,200,57,0,200,58,0,200,59,0,600,60,0,600,61,0,600*41
$PAIRDGP,1,15*6C
$GNGGA,110842.200,2500.8029538,N,12132.4812871,E,4,61,0.43,15.867,M,15.25,M,6,3335*4D
$GNRMC,110842.200,A,2500.8029538,N,12132.4812871,E,0.02,197.87,260623,,,R,V*1C
$GPHDT,,T*1B
$GNACCURACY,3.5*10
$GNGGA,110842.300,2500.8029561,N,12132.4812887,E,4,61,0.43,15.871,M,15.25,M,6,3335*4E
$GNRMC,110842.300,A,2500.8029561,N,12132.4812887,E,0.02,197.87,260623,,,R,V*18
$GPHDT,,T*1B
$GNACCURACY,3.5*10
$GNGGA,110842.400,2500.8029526,N,12132.4812923,E,4,61,0.43,15.887,M,15.25,M,6,3335*4C
$GNRMC,110842.400,A,2500.8029526,N,12132.4812923,E,0.02,197.87,260623,,,R,V*13
$GPHDT,,T*1B
$GNACCURACY,3.5*10
$GNGGA,110842.500,2500.8029512,N,12132.4812886,E,4,60,0.44,15.898,M,15.25,M,6,3335*4C
$GNRMC,110842.500,A,2500.8029512,N,12132.4812886,E,0.02,197.87,260623,,,R,V*1B
$GPHDT,,T*1B
$GNACCURACY,3.5*10
$GNGGA,110842.600,2500.8029510,N,12132.4812870,E,4,60,0.44,15.896,M,15.25,M,6,3335*4A
$GNRMC,110842.600,A,2500.8029510,N,12132.4812870,E,0.02,197.87,260623,,,R,V*13
$GPHDT,,T*1B
$GNACCURACY,3.5*10
$GNGGA,110842.700,2500.8029519,N,12132.4812920,E,4,60,0.44,15.888,M,15.25,M,6,3335*49
$GNRMC,110842.700,A,2500.8029519,N,12132.4812920,E,0.02,197.87,260623,,,R,V*1F
$GPHDT,,T*1B
$GNACCURACY,3.6*13
$GNGGA,110842.800,2500.8029519,N,12132.4812916,E,4,60,0.44,15.894,M,15.25,M,6,3335*4E
$GNRMC,110842.800,A,2500.8029519,N,12132.4812916,E,0.02,197.87,260623,,,R,V*15
$GPHDT,,T*1B
$GNACCURACY,3.5*10
$GNGGA,110842.900,2500.8029519,N,12132.4812916,E,4,61,0.44,15.893,M,15.25,M,6,3335*49
$GNRMC,110842.900,A,2500.8029519,N,12132.4812916,E,0.02,197.87,260623,,,R,V*14
$GPHDT,,T*1B
$GNACCURACY,3.5*10
$GNGGA,110843.000,2500.8029482,N,12132.4812890,E,4,59,0.45,15.891,M,15.25,M,7,3335*44
$GNRMC,110843.000,A,2500.8029482,N,12132.4812890,E,0.02,197.87,260623,,,R,V*10
$GPHDT,,T*1B
$GNACCURACY,3.6*13
$GNGGA,110843.100,2500.8029460,N,12132.4812854,E,4,59,0.45,15.902,M,15.25,M,7,3335*4A
$GNRMC,110843.100,A,2500.8029460,N,12132.4812854,E,0.02,197.87,260623,,,R,V*15
$GPHDT,,T*1B
$GNGSA,A,3,24,196,18,199,23,15,195,194,05,13,10,,0.80,0.45,0.67,1*0B
$GNGSA,A,3,80,85,70,73,86,71,79,84,,,,,0.80,0.45,0.67,2*06
$GNGSA,A,3,13,08,07,15,26,02,03,,,,,,0.80,0.45,0.67,3*07
$GNGSA,A,3,38,08,39,16,13,06,46,20,19,36,37,35,0.80,0.45,0.67,4*09
$GPGSV,5,1,17,24,81,071,33,196,74,060,39,18,61,264,25,199,60,167,38,1*6B
$GPGSV,5,2,17,50,50,134,40,23,44,333,45,15,41,038,32,195,37,179,41,1*5C
$GPGSV,5,3,17,194,28,140,36,05,24,112,28,12,15,147,18,13,13,051,24,1*57
$GPGSV,5,4,17,10,12,315,40,32,05,262,17,29,04,202,,25,04,181,,1*62
$GPGSV,5,5,17,20,02,125,,1*54
$GPGSV,2,1,08,24,81,071,48,196,74,060,40,18,61,264,23,199,60,167,47,8*67
$GPGSV,2,2,08,23,44,333,40,195,37,179,43,194,28,140,39,10,12,315,42,8*68
$GLGSV,3,1,09,80,47,092,35,85,41,257,24,70,39,358,27,73,29,163,35,1*70
$GLGSV,3,2,09,86,24,312,28,71,18,305,34,79,17,038,19,84,17,193,23,1*77
$GLGSV,3,3,09,69,16,065,14,1*4F
$GAGSV,2,1,08,13,61,243,33,08,49,017,37,07,42,294,34,15,29,174,34,7*7C
$GAGSV,2,2,08,26,28,313,34,02,23,093,20,30,21,148,,03,13,059,19,7*70
$GAGSV,2,1,06,13,61,243,30,08,49,017,37,07,42,294,36,15,29,174,36,1*77
$GAGSV,2,2,06,26,28,313,37,02,23,093,15,1*75
$GBGSV,4,1,16,38,82,075,42,08,75,007,38,39,72,270,43,16,66,246,39,1*77
$GBGSV,4,2,16,13,65,339,45,06,64,243,31,46,55,125,45,56,48,308,,1*7C
$GBGSV,4,3,16,09,48,231,19,20,45,053,39,19,45,336,43,36,27,185,44,1*70
$GBGSV,4,4,16,37,27,053,34,29,24,217,,35,23,277,24,22,08,295,30,1*7E
$GBGSV,2,1,07,38,82,075,44,39,72,270,44,46,55,125,46,19,45,336,44,4*77
$GBGSV,2,2,07,20,45,053,33,36,27,185,43,37,27,053,36,4*48
$GNACCURACY,3.6*13
$PAIRSAT,1,35,1,0,200,2,0,200,3,0,200,4,0,200,5,0,201,6,0,200,7,0,200,8,0,200,9,0,200,10,0,221,11,0,200,12,0,200,13,0,201,14,0,200,15,0,201,16,0,200,17,0,200,18,0,221,19,0,200,20,0,200,21,0,200,23,0,221,24,0,221,25,0,200,26,0,200,27,0,200,28,0,200,29,0,200,30,0,200,31,0,200,32,0,200,194,0,621,195,0,621,196,0,620,199,0,621*6A
$PAIRSAT,2,23,65,0,200,67,0,200,68,0,200,69,0,201,70,0,201,71,0,201,72,0,200,73,0,201,74,0,200,75,0,200,76,0,200,77,0,200,78,0,200,79,0,201,80,0,201,81,0,200,82,0,200,83,0,200,84,0,201,85,0,201,86,0,201,87,0,200,88,0,200*52
$PAIRSAT,3,23,2,0,1221,3,0,1221,4,0,1200,5,0,200,7,0,1221,8,0,1221,9,0,1200,10,0,1200,11,0,1200,12,0,1200,13,0,1221,15,0,1221,19,0,1200,21,0,1200,24,0,1200,25,0,1200,26,0,1221,27,0,1200,30,0,1200,31,0,1200,33,0,1200,34,0,1200,36,0,1200*69
$PAIRSAT,4,50,1,0,200,2,0,200,3,0,200,4,0,200,5,0,200,6,0,201,7,0,200,8,0,201,9,0,201,10,0,200,11,0,200,12,0,200,13,0,201,14,0,200,15,0,200,16,0,201,19,0,621,20,0,621,21,0,600,22,0,621,23,0,600,24,0,600,25,0,600,26,0,600,27,0,600,28,0,600,29,0,621,30,0,600,31,0,200,32,0,600,33,0,600,34,0,600,35,0,621,36,0,621,37,0,621,38,0,621,39,0,621,40,0,600,41,0,600,42,0,600,43,0,600,44,0,600,45,0,600,46,0,621,56,0,200,57,0,200,58,0,200,59,0,600,60,0,600,61,0,600*41
$PAIRDGP,1,15*6C
$GNGGA,110843.200,2500.8029513,N,12132.4812883,E,4,59,0.45,15.895,M,15.25,M,7,3335*49
$GNRMC,110843.200,A,2500.8029513,N,12132.4812883,E,0.01,197.87,260623,,,R,V*1A
$GPHDT,,T*1B
$GNACCURACY,3.6*13
$GNGGA,110843.300,2500.8029460,N,12132.4812818,E,4,59,0.45,15.900,M,15.25,M,7,3335*42
$GNRMC,110843.300,A,2500.8029460,N,12132.4812818,E,0.01,197.87,260623,,,R,V*1C
$GPHDT,,T*1B
$GNACCURACY,3.6*13
$GNGGA,110843.400,2500.8029480,N,12132.4812869,E,4,59,0.45,15.892,M,15.25,M,7,3335*47
$GNRMC,110843.400,A,2500.8029480,N,12132.4812869,E,0.01,197.87,260623,,,R,V*13
$GPHDT,,T*1B
$GNACCURACY,3.6*13
$GNGGA,110843.500,2500.8029479,N,12132.4812866,E,4,59,0.45,15.900,M,15.25,M,7,3335*45
$GNRMC,110843.500,A,2500.8029479,N,12132.4812866,E,0.01,197.87,260623,,,R,V*1B
$GPHDT,,T*1B
$GNACCURACY,3.6*13
$GNGGA,110843.600,2500.8029478,N,12132.4812859,E,4,60,0.44,15.904,M,15.25,M,7,3335*44
$GNRMC,110843.600,A,2500.8029478,N,12132.4812859,E,0.01,197.87,260623,,,R,V*15
$GPHDT,,T*1B
$GNACCURACY,3.6*13
$GNGGA,110843.700,2500.8029481,N,12132.4812859,E,4,60,0.44,15.909,M,15.25,M,7,3335*4E
$GNRMC,110843.700,A,2500.8029481,N,12132.4812859,E,0.01,197.87,260623,,,R,V*12
$GPHDT,,T*1B
$GNACCURACY,3.6*13
$GNGGA,110843.800,2500.8029512,N,12132.4812863,E,4,61,0.43,15.904,M,15.25,M,7,3335*48
$GNRMC,110843.800,A,2500.8029512,N,12132.4812863,E,0.01,197.87,260623,,,R,V*1F
$GPHDT,,T*1B
$GNACCURACY,3.6*13
$GNGGA,110843.900,2500.8029504,N,12132.4812866,E,4,60,0.44,15.916,M,15.25,M,7,3335*4E
$GNRMC,110843.900,A,2500.8029504,N,12132.4812866,E,0.01,197.87,260623,,,R,V*1C
$GPHDT,,T*1B
$GNACCURACY,3.6*13
$GNGGA,110844.000,2500.8029506,N,12132.4812852,E,4,61,0.43,15.908,M,15.25,M,8,3335*43
$GNRMC,110844.000,A,2500.8029506,N,12132.4812852,E,0.01,197.87,260623,,,R,V*17
$GPHDT,,T*1B
$GNACCURACY,3.6*13
$GNGGA,110844.100,2500.8029501,N,12132.4812843,E,4,60,0.44,15.908,M,15.25,M,8,3335*43
$GNRMC,110844.100,A,2500.8029501,N,12132.4812843,E,0.01,197.87,260623,,,R,V*11
$GPHDT,,T*1B
$GNGSA,A,3,24,196,18,199,23,15,195,194,05,13,10,,0.79,0.44,0.66,1*0D
$GNGSA,A,3,80,85,70,73,86,71,79,84,69,,,,0.79,0.44,0.66,2*0F
$GNGSA,A,3,13,08,07,15,26,02,03,,,,,,0.79,0.44,0.66,3*01
$GNGSA,A,3,38,08,39,16,13,06,46,19,20,36,37,35,0.79,0.44,0.66,4*0F
$GPGSV,5,1,17,24,81,071,33,196,74,060,39,18,61,264,24,199,60,167,38,1*6A
$GPGSV,5,2,17,50,50,134,39,23,44,333,45,15,41,038,33,195,37,179,41,1*53
$GPGSV,5,3,17,194,28,140,36,05,24,112,28,12,15,147,18,13,13,051,23,1*50
$GPGSV,5,4,17,10,12,315,40,32,05,262,17,29,04,202,,25,04,181,,1*62
$GPGSV,5,5,17,20,02,125,,1*54
$GPGSV,2,1,08,24,81,071,48,196,74,060,40,18,61,264,20,199,60,167,47,8*64
$GPGSV,2,2,08,23,44,333,40,195,37,179,43,194,28,140,39,10,12,315,42,8*68
$GLGSV,3,1,09,80,47,092,35,85,41,257,25,70,39,358,27,73,29,163,35,1*71
$GLGSV,3,2,09,86,24,312,28,71,18,305,34,79,17,038,20,84,17,193,23,1*7D
$GLGSV,3,3,09,69,16,065,20,1*48
$GAGSV,3,1,09,13,61,243,33,08,49,017,37,07,42,294,34,15,29,174,35,7*7D
$GAGSV,3,2,09,26,28,313,34,02,23,093,21,30,21,148,,03,13,059,22,7*79
$GAGSV,3,3,09,25,04,048,,7*45
$GAGSV,2,1,06,13,61,243,29,08,49,017,36,07,42,294,36,15,29,174,36,1*7E
$GAGSV,2,2,06,26,28,313,37,02,23,093,15,1*75
$GBGSV,4,1,16,38,82,075,42,08,75,007,38,39,72,270,43,16,66,246,39,1*77
$GBGSV,4,2,16,13,65,339,45,06,64,243,31,46,55,125,45,56,48,308,,1*7C
$GBGSV,4,3,16,09,48,231,19,19,45,336,43,20,45,053,39,36,27,185,44,1*70
$GBGSV,4,4,16,37,27,053,32,29,24,217,,35,23,277,24,22,08,295,30,1*78
$GBGSV,2,1,07,38,82,075,44,39,72,270,44,46,55,125,46,19,45,336,44,4*77
$GBGSV,2,2,07,20,45,053,27,36,27,185,43,37,27,053,36,4*4D
$GNACCURACY,3.6*13
$PAIRSAT,1,35,1,0,200,2,0,200,3,0,200,4,0,200,5,0,201,6,0,200,7,0,200,8,0,200,9,0,200,10,0,221,11,0,200,12,0,200,13,0,201,14,0,200,15,0,201,16,0,200,17,0,200,18,0,221,19,0,200,20,0,200,21,0,200,23,0,221,24,0,221,25,0,200,26,0,200,27,0,200,28,0,200,29,0,200,30,0,200,31,0,200,32,0,200,194,0,621,195,0,621,196,0,620,199,0,621*6A
$PAIRSAT,2,23,65,0,200,67,0,200,68,0,200,69,0,201,70,0,201,71,0,201,72,0,200,73,0,201,74,0,200,75,0,200,76,0,200,77,0,200,78,0,200,79,0,201,80,0,201,81,0,200,82,0,200,83,0,200,84,0,201,85,0,201,86,0,201,87,0,200,88,0,200*52
$PAIRSAT,3,23,2,0,1221,3,0,1221,4,0,1200,5,0,200,7,0,1221,8,0,1221,9,0,1200,10,0,1200,11,0,1200,12,0,1200,13,0,1221,15,0,1221,19,0,1200,21,0,1200,24,0,1200,25,0,1200,26,0,1221,27,0,1200,30,0,1200,31,0,1200,33,0,1200,34,0,1200,36,0,1200*69
$PAIRSAT,4,50,1,0,200,2,0,200,3,0,200,4,0,200,5,0,200,6,0,201,7,0,200,8,0,201,9,0,201,10,0,200,11,0,200,12,0,200,13,0,201,14,0,200,15,0,200,16,0,201,19,0,621,20,0,621,21,0,600,22,0,621,23,0,600,24,0,600,25,0,600,26,0,600,27,0,600,28,0,600,29,0,621,30,0,600,31,0,200,32,0,600,33,0,600,34,0,600,35,0,621,36,0,621,37,0,621,38,0,621,39,0,621,40,0,600,41,0,600,42,0,600,43,0,600,44,0,600,45,0,600,46,0,621,56,0,200,57,0,200,58,0,200,59,0,600,60,0,600,61,0,600*41
$PAIRDGP,1,15*6C
$GNGGA,110844.200,2500.8029482,N,12132.4812835,E,4,60,0.44,15.907,M,15.25,M,8,3335*44
$GNRMC,110844.200,A,2500.8029482,N,12132.4812835,E,0.01,197.87,260623,,,R,V*19
$GPHDT,,T*1B
$GNACCURACY,3.6*13
$GNGGA,110844.300,2500.8029486,N,12132.4812845,E,4,61,0.44,15.909,M,15.25,M,8,3335*49
$GNRMC,110844.300,A,2500.8029486,N,12132.4812845,E,0.01,197.87,260623,,,R,V*1B
$GPHDT,,T*1B
$GNACCURACY,3.6*13
$GNGGA,110844.400,2500.8029484,N,12132.4812861,E,4,61,0.44,15.900,M,15.25,M,8,3335*43
$GNRMC,110844.400,A,2500.8029484,N,12132.4812861,E,0.01,197.87,260623,,,R,V*18
$GPHDT,,T*1B
$GNACCURACY,3.6*13
$GNGGA,110844.500,2500.8029493,N,12132.4812846,E,4,61,0.44,15.909,M,15.25,M,8,3335*48
$GNRMC,110844.500,A,2500.8029493,N,12132.4812846,E,0.01,197.87,260623,,,R,V*1A
$GPHDT,,T*1B
$GNACCURACY,3.5*10
$GNGGA,110844.600,2500.8029483,N,12132.4812814,E,4,62,0.43,15.912,M,15.25,M,8,3335*43
$GNRMC,110844.600,A,2500.8029483,N,12132.4812814,E,0.01,197.87,260623,,,R,V*1F
$GPHDT,,T*1B
$GNACCURACY,3.5*10
$GNGGA,110844.700,2500.8029487,N,12132.4812829,E,4,61,0.44,15.907,M,15.25,M,8,3335*48
$GNRMC,110844.700,A,2500.8029487,N,12132.4812829,E,0.01,197.87,260623,,,R,V*14
$GPHDT,,T*1B
$GNACCURACY,3.5*10
$GNGGA,110844.800,2500.8029479,N,12132.4812825,E,4,59,0.45,15.912,M,15.25,M,8,3335*44
$GNRMC,110844.800,A,2500.8029479,N,12132.4812825,E,0.01,197.87,260623,,,R,V*16
$GPHDT,,T*1B
$GNACCURACY,3.5*10
$GNGGA,110844.900,2500.8029483,N,12132.4812805,E,4,59,0.45,15.903,M,15.25,M,8,3335*42
$GNRMC,110844.900,A,2500.8029483,N,12132.4812805,E,0.01,197.87,260623,,,R,V*10
$GPHDT,,T*1B
$GNACCURACY,3.5*10
$GNGGA,110845.000,2500.8029494,N,12132.4812847,E,4,59,0.45,15.914,M,15.25,M,9,3335*4D
$GNRMC,110845.000,A,2500.8029494,N,12132.4812847,E,0.01,197.87,260623,,,R,V*18
$GPHDT,,T*1B
$GNACCURACY,3.6*13
$GNGGA,110845.100,2500.8029484,N,12132.4812815,E,4,59,0.45,15.901,M,15.25,M,9,3335*4E
$GNRMC,110845.100,A,2500.8029484,N,12132.4812815,E,0.01,197.87,260623,,,R,V*1F
$GPHDT,,T*1B
$GNGSA,A,3,24,196,18,199,23,15,195,194,05,10,,,0.81,0.45,0.68,1*07
$GNGSA,A,3,80,85,70,73,86,71,79,84,69,,,,0.81,0.45,0.68,2*07
$GNGSA,A,3,13,08,07,15,26,02,03,,,,,,0.81,0.45,0.68,3*09
$GNGSA,A,3,38,08,39,16,13,06,46,19,20,37,36,35,0.81,0.45,0.68,4*07
$GPGSV,5,1,17,24,81,071,35,196,74,060,39,18,61,264,23,199,60,167,38,1*6B
$GPGSV,5,2,17,50,50,134,40,23,44,333,44,15,41,038,33,195,37,179,41,1*5C
$GPGSV,5,3,17,194,28,140,37,05,24,112,28,12,15,147,18,13,13,051,23,1*51
$GPGSV,5,4,17,10,12,315,40,32,05,262,18,29,04,202,,25,04,181,,1*6D
$GPGSV,5,5,17,20,02,125,,1*54
$GPGSV,2,1,07,24,81,071,48,196,74,060,40,199,60,167,47,23,44,333,40,8*61
$GPGSV,2,2,07,195,37,179,43,194,28,140,38,10,12,315,42,8*50
$GLGSV,3,1,09,80,47,092,30,85,41,257,25,70,39,358,27,73,29,163,35,1*74
$GLGSV,3,2,09,86,24,312,27,71,18,305,34,79,17,038,21,84,17,193,23,1*73
$GLGSV,3,3,09,69,16,065,22,1*4A
$GAGSV,3,1,09,13,61,243,32,08,49,017,37,07,42,294,34,15,29,174,35,7*7C
$GAGSV,3,2,09,26,28,313,34,02,23,093,21,30,21,148,24,03,13,059,21,7*7C
$GAGSV,3,3,09,25,04,048,,7*45
$GAGSV,2,1,07,13,61,243,30,08,49,017,37,07,42,294,36,15,29,174,36,1*76
$GAGSV,2,2,07,26,28,313,37,02,23,093,13,03,13,059,19,1*47
$GBGSV,4,1,15,38,82,075,42,08,75,007,38,39,72,270,43,16,66,246,39,1*74
$GBGSV,4,2,15,13,65,339,45,06,64,243,31,46,55,125,45,09,48,231,18,1*77
$GBGSV,4,3,15,19,45,336,43,20,45,053,39,37,27,053,34,36,27,185,44,1*7E
$GBGSV,4,4,15,29,24,217,,35,23,277,24,22,08,295,28,1*44
$GBGSV,2,1,07,38,82,075,44,39,72,270,44,46,55,125,46,19,45,336,44,4*77
$GBGSV,2,2,07,20,45,053,31,36,27,185,43,37,27,053,36,4*4A
$GNACCURACY,3.5*10
$PAIRSAT,1,35,1,0,200,2,0,200,3,0,200,4,0,200,5,0,201,6,0,200,7,0,200,8,0,200,9,0,200,10,0,221,11,0,200,12,0,200,13,0,201,14,0,200,15,0,201,16,0,200,17,0,200,18,0,221,19,0,200,20,0,200,21,0,200,23,0,221,24,0,221,25,0,200,26,0,200,27,0,200,28,0,200,29,0,200,30,0,200,31,0,200,32,0,200,194,0,621,195,0,621,196,0,620,199,0,621*6A
$PAIRSAT,2,23,65,0,200,67,0,200,68,0,200,69,0,201,70,0,201,71,0,201,72,0,200,73,0,201,74,0,200,75,0,200,76,0,200,77,0,200,78,0,200,79,0,201,80,0,201,81,0,200,82,0,200,83,0,200,84,0,201,85,0,201,86,0,201,87,0,200,88,0,200*52
$PAIRSAT,3,23,2,0,1221,3,0,1221,4,0,1200,5,0,200,7,0,1221,8,0,1221,9,0,1200,10,0,1200,11,0,1200,12,0,1200,13,0,1221,15,0,1221,19,0,1200,21,0,1200,24,0,1200,25,0,1200,26,0,1221,27,0,1200,30,0,1200,31,0,1200,33,0,1200,34,0,1200,36,0,1200*69
$PAIRSAT,4,50,1,0,200,2,0,200,3,0,200,4,0,200,5,0,200,6,0,201,7,0,200,8,0,201,9,0,201,10,0,200,11,0,200,12,0,200,13,0,201,14,0,200,15,0,200,16,0,201,19,0,621,20,0,621,21,0,600,22,0,621,23,0,600,24,0,600,25,0,600,26,0,600,27,0,600,28,0,600,29,0,621,30,0,600,31,0,200,32,0,600,33,0,600,34,0,600,35,0,621,36,0,621,37,0,621,38,0,621,39,0,621,40,0,600,41,0,600,42,0,600,43,0,600,44,0,600,45,0,600,46,0,621,56,0,200,57,0,200,58,0,200,59,0,600,60,0,600,61,0,600*41
$PAIRDGP,1,15*6C
$GNGGA,110845.200,2500.8029504,N,12132.4812845,E,4,59,0.45,15.912,M,15.25,M,9,3335*43
$GNRMC,110845.200,A,2500.8029504,N,12132.4812845,E,0.01,197.87,260623,,,R,V*10
$GPHDT,,T*1B
$GNACCURACY,3.5*10
$GNGGA,110845.300,2500.8029491,N,12132.4812823,E,4,59,0.45,15.909,M,15.25,M,9,3335*45
$GNRMC,110845.300,A,2500.8029491,N,12132.4812823,E,0.01,197.87,260623,,,R,V*1C
$GPHDT,,T*1B
$GNACCURACY,3.5*10
$GNGGA,110845.400,2500.8029489,N,12132.4812839,E,4,59,0.45,15.913,M,15.25,M,9,3335*4B
$GNRMC,110845.400,A,2500.8029489,N,12132.4812839,E,0.01,197.87,260623,,,R,V*19
$GPHDT,,T*1B
$GNACCURACY,3.5*10
$GNGGA,110845.500,2500.8029473,N,12132.4812807,E,4,59,0.45,15.916,M,15.25,M,9,3335*47
$GNRMC,110845.500,A,2500.8029473,N,12132.4812807,E,0.01,197.87,260623,,,R,V*10
$GPHDT,,T*1B
$GNACCURACY,3.5*10
$GNGGA,110845.600,2500.8029501,N,12132.4812841,E,4,60,0.44,15.908,M,15.25,M,9,3335*46
$GNRMC,110845.600,A,2500.8029501,N,12132.4812841,E,0.01,197.87,260623,,,R,V*15
$GPHDT,,T*1B
$GNACCURACY,3.5*10
$GNGGA,110845.700,2500.8029499,N,12132.4812811,E,4,60,0.44,15.908,M,15.25,M,9,3335*42
$GNRMC,110845.700,A,2500.8029499,N,12132.4812811,E,0.01,197.87,260623,,,R,V*11
$GPHDT,,T*1B
$GNACCURACY,3.5*10
$GNGGA,110845.800,2500.8029496,N,12132.4812838,E,4,60,0.44,15.909,M,15.25,M,9,3335*48
$GNRMC,110845.800,A,2500.8029496,N,12132.4812838,E,0.01,197.87,260623,,,R,V*1A
$GPHDT,,T*1B
$GNACCURACY,3.5*10
$GNGGA,110845.900,2500.8029492,N,12132.4812818,E,4,59,0.45,15.914,M,15.25,M,9,3335*48
$GNRMC,110845.900,A,2500.8029492,N,12132.4812818,E,0.01,197.87,260623,,,R,V*1D
$GPHDT,,T*1B
$GNACCURACY,3.6*13
$GNGGA,110846.000,2500.8029501,N,12132.4812834,E,4,59,0.45,15.914,M,15.25,M,10,3335*7F
$GNRMC,110846.000,A,2500.8029501,N,12132.4812834,E,0.01,197.87,260623,,,R,V*12
$GPHDT,,T*1B
$GNACCURACY,3.6*13
$GNGGA,110846.100,2500.8029511,N,12132.4812836,E,4,59,0.45,15.921,M,15.25,M,10,3335*7B
$GNRMC,110846.100,A,2500.8029511,N,12132.4812836,E,0.01,197.87,260623,,,R,V*10
$GPHDT,,T*1B
$GNGSA,A,3,24,196,18,199,23,15,195,1