$FW : RTK35X,V1.1X0314AS,Lib20210517,1*54
$Tool : LOCOSYS , GNSS Firebird , v1.0.0.19*39
$---------------------------------------------------*2D
6,0,201,87,0,200,88,0,200*52
$PAIRSAT,3,23,2,0,1221,3,0,1221,4,0,1200,5,0,200,7,0,1221,8,0,1221,9,0,1200,10,0,1200,11,0,1200,12,0,1200,13,0,1221,15,0,1221,19,0,1200,21,0,1200,24,0,1200,25,0,1200,26,0,1221,27,0,1200,30,0,1200,31,0,1200,33,0,1200,34,0,1200,36,0,1200*69
$PAIRSAT,4,50,1,0,200,2,0,200,3,0,200,4,0,200,5,0,200,6,0,201,7,0,200,8,0,201,9,0,201,10,0,200,11,0,200,12,0,200,13,0,201,14,0,200,15,0,200,16,0,201,19,0,621,20,0,621,21,0,600,22,0,621,23,0,600,24,0,600,25,0,600,26,0,600,27,0,600,28,0,600,29,0,621,30,0,600,31,0,200,32,0,600,33,0,600,34,0,600,35,0,621,36,0,621,37,0,621,38,0,621,39,0,621,40,0,600,41,0,600,42,0,600,43,0,600,44,0,600,45,0,600,46,0,621,56,0,200,57,0,200,58,0,200,59,0,600,60,0,600,61,0,600*41
$PAIRDGP,7,5,10,13,15,18,23,24*52
$GNGGA,110854.200,2500.8029512,N,12132.4812938,E,4,62,0.43,15.849,M,15.25,M,1,3335*46
$GNRMC,110854.200,A,2500.8029512,N,12132.4812938,E,0.02,197.87,260623,,,R,V*1F
$GPHDT,,T*1B
$GNACCURACY,3.4*11
$GNGGA,110854.300,2500.8029475,N,12132.4812923,E,4,62,0.43,15.847,M,15.25,M,1,3335*43
$GNRMC,110854.300,A,2500.8029475,N,12132.4812923,E,0.02,197.87,260623,,,R,V*14
$GPHDT,,T*1B
$GNACCURACY,3.4*11
$GNGGA,110854.400,2500.8029508,N,12132.4812928,E,4,62,0.43,15.843,M,15.25,M,1,3335*40
$GNRMC,110854.400,A,2500.8029508,N,12132.4812928,E,0.02,197.87,260623,,,R,V*13
$GPHDT,,T*1B
$GNACCURACY,3.4*11
$GNGGA,110854.500,2500.8029576,N,12132.4812982,E,4,62,0.43,15.835,M,15.25,M,1,3335*49
$GNRMC,110854.500,A,2500.8029576,N,12132.4812982,E,0.02,197.87,260623,,,R,V*1B
$GPHDT,,T*1B
$GNACCURACY,3.4*11
$GNGGA,110854.600,2500.8029555,N,12132.4812949,E,4,61,0.43,15.842,M,15.25,M,1,3335*4F
$GNRMC,110854.600,A,2500.8029555,N,12132.4812949,E,0.02,197.87,260623,,,R,V*1E
$GPHDT,,T*1B
$GNACCURACY,3.4*11
$GNGGA,110854.700,2500.8029565,N,12132.4812941,E,4,61,0.43,15.835,M,15.25,M,1,3335*45
$GNRMC,110854.700,A,2500.8029565,N,12132.4812941,E,0.03,197.87,260623,,,R,V*15
$GPHDT,,T*1B
$GNACCURACY,3.4*11
$GNGGA,110854.800,2500.8029581,N,12132.4812980,E,4,61,0.43,15.825,M,15.25,M,1,3335*4C
$GNRMC,110854.800,A,2500.8029581,N,12132.4812980,E,0.03,197.87,260623,,,R,V*1D
$GPHDT,,T*1B
$GNACCURACY,3.4*11
$GNGGA,110854.900,2500.8029568,N,12132.4812954,E,4,61,0.43,15.840,M,15.25,M,1,3335*40
$GNRMC,110854.900,A,2500.8029568,N,12132.4812954,E,0.03,197.87,260623,,,R,V*12
$GPHDT,,T*1B
$GNACCURACY,3.4*11
$GNGGA,110855.000,2500.8029466,N,12132.4812833,E,4,61,0.43,15.855,M,15.25,M,2,3335*40
$GNRMC,110855.000,A,2500.8029466,N,12132.4812833,E,0.03,197.87,260623,,,R,V*15
$GPHDT,,T*1B
$GNACCURACY,3.5*10
$GNGGA,110855.100,2500.8029472,N,12132.4812854,E,4,61,0.43,15.852,M,15.25,M,1,3335*41
$GNRMC,110855.100,A,2500.8029472,N,12132.4812854,E,0.03,197.87,260623,,,R,V*10
$GPHDT,,T*1B
$GNGSA,A,3,24,196,18,199,23,15,195,194,05,13,10,,0.79,0.43,0.66,1*0A
$GNGSA,A,3,80,85,70,73,86,71,79,69,84,,,,0.79,0.43,0.66,2*08
$GNGSA,A,3,13,08,07,15,26,02,03,,,,,,0.79,0.43,0.66,3*06
$GNGSA,A,3,38,08,39,16,13,06,46,09,19,20,36,37,0.79,0.43,0.66,4*07
$GNGSA,A,3,35,,,,,,,,,,,,0.79,0.43,0.66,4*0B
$GPGSV,5,1,17,24,81,070,36,196,74,060,39,18,61,264,25,199,60,167,40,1*60
$GPGSV,5,2,17,50,50,134,41,23,44,333,44,15,41,038,30,195,37,179,43,1*5C
$GPGSV,5,3,17,194,28,140,39,05,24,112,24,12,15,147,16,13,13,051,25,1*5B
$GPGSV,5,4,17,10,12,315,40,32,05,262,18,25,04,181,,29,04,202,,1*6D
$GPGSV,5,5,17,20,02,126,,1*57
$GPGSV,2,1,07,24,81,070,47,196,74,060,41,199,60,167,46,23,44,333,38,8*60
$GPGSV,2,2,07,195,37,179,42,194,28,140,40,10,12,315,41,8*5D
$GLGSV,3,1,09,80,47,092,39,85,41,257,17,70,39,358,26,73,29,163,36,1*7E
$GLGSV,3,2,09,86,24,312,29,71,18,305,35,79,17,038,21,69,16,065,20,1*75
$GLGSV,3,3,09,84,16,193,27,1*44
$GAGSV,3,1,09,13,61,243,26,08,49,017,37,07,42,294,35,15,29,174,35,7*78
$GAGSV,3,2,09,26,28,313,31,02,23,093,19,30,21,148,24,03,13,059,21,7*72
$GAGSV,3,3,09,25,04,048,,7*45
$GAGSV,2,1,06,13,61,243,31,08,49,017,38,07,42,294,37,15,29,174,32,1*7C
$GAGSV,2,2,06,26,28,313,36,02,23,093,17,1*76
$GBGSV,5,1,17,38,82,075,42,08,75,007,38,39,72,270,43,16,66,247,35,1*7A
$GBGSV,5,2,17,13,65,339,44,06,64,243,29,46,55,125,47,56,48,308,,1*76
$GBGSV,5,3,17,09,48,231,21,19,45,336,44,20,44,053,33,36,28,185,45,1*79
$GBGSV,5,4,17,37,27,053,26,29,24,217,,35,23,276,31,22,08,295,26,1*7F
$GBGSV,5,5,17,07,05,194,,1*4E
$GBGSV,2,1,08,38,82,075,45,39,72,270,43,46,55,125,44,19,45,336,43,4*7B
$GBGSV,2,2,08,20,44,053,33,36,28,185,41,37,27,053,29,35,23,276,16,4*76
$GNACCURACY,3.5*10
$PAIRSAT,1,35,1,0,200,2,0,200,3,0,200,4,0,200,5,0,201,6,0,200,7,0,200,8,0,200,9,0,200,10,0,221,11,0,200,12,0,200,13,0,201,14,0,200,15,0,201,16,0,200,17,0,200,18,0,221,19,0,200,20,0,200,21,0,200,23,0,221,24,0,221,25,0,200,26,0,200,27,0,200,28,0,200,29,0,200,30,0,200,31,0,200,32,0,200,194,0,621,195,0,621,196,0,620,199,0,621*6A
$PAIRSAT,2,23,65,0,200,67,0,200,68,0,200,69,0,201,70,0,201,71,0,201,72,0,200,73,0,201,74,0,200,75,0,200,76,0,200,77,0,200,78,0,200,79,0,201,80,0,201,81,0,200,82,0,200,83,0,200,84,0,201,85,0,201,86,0,201,87,0,200,88,0,200*52
$PAIRSAT,3,23,2,0,1221,3,0,1221,4,0,1200,5,0,200,7,0,1221,8,0,1221,9,0,1200,10,0,1200,11,0,1200,12,0,1200,13,0,1221,15,0,1221,19,0,1200,21,0,1200,24,0,1200,25,0,1200,26,0,1221,27,0,1200,30,0,1200,31,0,1200,33,0,1200,34,0,1200,36,0,1200*69
$PAIRSAT,4,50,1,0,200,2,0,200,3,0,200,4,0,200,5,0,200,6,0,201,7,0,200,8,0,201,9,0,201,10,0,200,11,0,200,12,0,200,13,0,201,14,0,200,15,0,200,16,0,201,19,0,621,20,0,621,21,0,600,22,0,621,23,0,600,24,0,600,25,0,600,26,0,600,27,0,600,28,0,600,29,0,621,30,0,600,31,0,200,32,0,600,33,0,600,34,0,600,35,0,621,36,0,621,37,0,621,38,0,621,39,0,621,40,0,600,41,0,600,42,0,600,43,0,600,44,0,600,45,0,600,46,0,621,56,0,200,57,0,200,58,0,200,59,0,600,60,0,600,61,0,600*41
$PAIRDGP,7,5,10,13,15,18,23,24*52
$GNGGA,110855.200,2500.8029491,N,12132.4812903,E,4,61,0.43,15.848,M,15.25,M,1,3335*47
$GNRMC,110855.200,A,2500.8029491,N,12132.4812903,E,0.03,197.87,260623,,,R,V*1D
$GPHDT,,T*1B
$GNACCURACY,3.5*10
$GNGGA,110855.300,2500.8029535,N,12132.4812914,E,4,60,0.44,15.832,M,15.25,M,1,3335*44
$GNRMC,110855.300,A,2500.8029535,N,12132.4812914,E,0.03,197.87,260623,,,R,V*15
$GPHDT,,T*1B
$GNACCURACY,3.5*10
$GNGGA,110855.400,2500.8029536,N,12132.4812941,E,4,60,0.44,15.842,M,15.25,M,1,3335*47
$GNRMC,110855.400,A,2500.8029536,N,12132.4812941,E,0.03,197.87,260623,,,R,V*11
$GPHDT,,T*1B
$GNACCURACY,3.5*10
$GNGGA,110855.500,2500.8029513,N,12132.4812870,E,4,60,0.44,15.850,M,15.25,M,0,3335*40
$GNRMC,110855.500,A,2500.8029513,N,12132.4812870,E,0.03,197.87,260623,,,R,V*14
$GPHDT,,T*1B
$GNACCURACY,3.5*10
$GNGGA,110855.600,2500.8029540,N,12132.4812925,E,4,60,0.44,15.846,M,15.25,M,0,3335*43
$GNRMC,110855.600,A,2500.8029540,N,12132.4812925,E,0.03,197.87,260623,,,R,V*10
$GPHDT,,T*1B
$GNACCURACY,3.5*10
$GNGGA,110855.700,2500.8029524,N,12132.4812898,E,4,60,0.44,15.846,M,15.25,M,0,3335*47
$GNRMC,110855.700,A,2500.8029524,N,12132.4812898,E,0.03,197.87,260623,,,R,V*14
$GPHDT,,T*1B
$GNACCURACY,3.5*10
$GNGGA,110855.800,2500.8029527,N,12132.4812917,E,4,60,0.44,15.848,M,15.25,M,0,3335*43
$GNRMC,110855.800,A,2500.8029527,N,12132.4812917,E,0.03,197.87,260623,,,R,V*1E
$GPHDT,,T*1B
$GNACCURACY,3.4*11
$GNGGA,110855.900,2500.8029541,N,12132.4812907,E,4,61,0.43,15.855,M,15.25,M,0,3335*49
$GNRMC,110855.900,A,2500.8029541,N,12132.4812907,E,0.03,197.87,260623,,,R,V*1E
$GPHDT,,T*1B
$GNACCURACY,3.4*11
$GNGGA,110856.000,2500.8029533,N,12132.4812921,E,4,61,0.43,15.860,M,15.25,M,1,3335*45
$GNRMC,110856.000,A,2500.8029533,N,12132.4812921,E,0.03,197.87,260623,,,R,V*15
$GPHDT,,T*1B
$GNACCURACY,3.4*11
$GNGGA,110856.100,2500.8029514,N,12132.4812894,E,4,61,0.43,15.866,M,15.25,M,1,3335*48
$GNRMC,110856.100,A,2500.8029514,N,12132.4812894,E,0.03,197.87,260623,,,R,V*1E
$GPHDT,,T*1B
$GNGSA,A,3,24,196,18,199,23,15,195,194,05,13,10,,0.79,0.43,0.66,1*0A
$GNGSA,A,3,80,85,70,73,86,71,79,69,84,,,,0.79,0.43,0.66,2*08
$GNGSA,A,3,13,08,07,15,26,02,03,,,,,,0.79,0.43,0.66,3*06
$GNGSA,A,3,38,08,39,16,13,06,46,09,19,20,36,37,0.79,0.43,0.66,4*07
$GNGSA,A,3,35,,,,,,,,,,,,0.79,0.43,0.66,4*0B
$GPGSV,5,1,17,24,81,070,36,196,74,060,39,18,61,264,26,199,60,167,40,1*63
$GPGSV,5,2,17,50,50,134,42,23,44,333,44,15,41,038,32,195,37,179,43,1*5D
$GPGSV,5,3,17,194,28,140,40,05,24,112,28,12,15,147,16,13,13,051,28,1*54
$GPGSV,5,4,17,10,12,315,40,32,05,262,18,29,04,202,,25,04,181,,1*6D
$GPGSV,5,5,17,20,02,126,,1*57
$GPGSV,2,1,07,24,81,070,47,196,74,060,41,199,60,167,46,23,44,333,38,8*60
$GPGSV,2,2,07,195,37,179,42,194,28,140,41,10,12,315,41,8*5C
$GLGSV,3,1,09,80,47,092,38,85,41,257,17,70,39,358,26,73,29,163,36,1*7F
$GLGSV,3,2,09,86,24,312,29,71,18,305,36,79,17,038,22,69,16,065,18,1*7E
$GLGSV,3,3,09,84,16,193,27,1*44
$GAGSV,3,1,09,13,61,243,25,08,49,017,36,07,42,294,35,15,29,174,35,7*7A
$GAGSV,3,2,09,26,28,313,31,02,23,093,19,30,21,148,25,03,13,059,22,7*70
$GAGSV,3,3,09,25,04,048,,7*45
$GAGSV,2,1,06,13,61,243,31,08,49,017,38,07,42,294,37,15,29,174,33,1*7D
$GAGSV,2,2,06,26,28,313,35,02,23,093,17,1*75
$GBGSV,4,1,16,38,82,075,42,08,75,007,38,39,72,270,43,16,66,247,34,1*7B
$GBGSV,4,2,16,13,65,339,44,06,64,243,29,46,55,125,47,56,48,308,,1*76
$GBGSV,4,3,16,09,48,231,21,19,45,336,44,20,44,053,36,36,28,185,45,1*7C
$GBGSV,4,4,16,37,27,053,29,29,24,217,,35,23,276,31,22,08,295,26,1*70
$GBGSV,2,1,08,38,82,075,44,39,72,270,43,46,55,125,44,19,45,336,43,4*7A
$GBGSV,2,2,08,20,44,053,31,36,28,185,41,37,27,053,26,35,23,276,16,4*7B
$GNACCURACY,3.4*11
$PAIRSAT,1,35,1,0,200,2,0,200,3,0,200,4,0,200,5,0,201,6,0,200,7,0,200,8,0,200,9,0,200,10,0,221,11,0,200,12,0,200,13,0,201,14,0,200,15,0,201,16,0,200,17,0,200,18,0,221,19,0,200,20,0,200,21,0,200,23,0,221,24,0,221,25,0,200,26,0,200,27,0,200,28,0,200,29,0,200,30,0,200,31,0,200,32,0,200,194,0,621,195,0,621,196,0,620,199,0,621*6A
$PAIRSAT,2,23,65,0,200,67,0,200,68,0,200,69,0,201,70,0,201,71,0,201,72,0,200,73,0,201,74,0,200,75,0,200,76,0,200,77,0,200,78,0,200,79,0,201,80,0,201,81,0,200,82,0,200,83,0,200,84,0,201,85,0,201,86,0,201,87,0,200,88,0,200*52
$PAIRSAT,3,23,2,0,1221,3,0,1221,4,0,1200,5,0,200,7,0,1221,8,0,1221,9,0,1200,10,0,1200,11,0,1200,12,0,1200,13,0,1221,15,0,1221,19,0,1200,21,0,1200,24,0,1200,25,0,1200,26,0,1221,27,0,1200,30,0,1200,31,0,1200,33,0,1200,34,0,1200,36,0,1200*69
$PAIRSAT,4,50,1,0,200,2,0,200,3,0,200,4,0,200,5,0,200,6,0,201,7,0,200,8,0,201,9,0,201,10,0,200,11,0,200,12,0,200,13,0,201,14,0,200,15,0,200,16,0,201,19,0,621,20,0,621,21,0,600,22,0,621,23,0,600,24,0,600,25,0,600,26,0,600,27,0,600,28,0,600,29,0,621,30,0,600,31,0,200,32,0,600,33,0,600,34,0,600,35,0,621,36,0,621,37,0,621,38,0,621,39,0,621,40,0,600,41,0,600,42,0,600,43,0,600,44,0,600,45,0,600,46,0,621,56,0,200,57,0,200,58,0,200,59,0,600,60,0,600,61,0,600*41
$PAIRDGP,7,5,10,13,15,18,23,24*52
$GNGGA,110856.200,2500.8029519,N,12132.4812892,E,4,61,0.43,15.857,M,15.25,M,1,3335*42
$GNRMC,110856.200,A,2500.8029519,N,12132.4812892,E,0.03,197.87,260623,,,R,V*16
$GPHDT,,T*1B
$GNACCURACY,3.4*11
$GNGGA,110856.300,2500.8029535,N,12132.4812883,E,4,61,0.43,15.860,M,15.25,M,1,3335*49
$GNRMC,110856.300,A,2500.8029535,N,12132.4812883,E,0.03,197.87,260623,,,R,V*19
$GPHDT,,T*1B
$GNACCURACY,3.4*11
$GNGGA,110856.400,2500.8029529,N,12132.4812878,E,4,61,0.43,15.861,M,15.25,M,1,3335*46
$GNRMC,110856.400,A,2500.8029529,N,12132.4812878,E,0.03,197.87,260623,,,R,V*17
$GPHDT,,T*1B
$GNACCURACY,3.4*11
$GNGGA,110856.500,2500.8029530,N,12132.4812938,E,4,61,0.43,15.858,M,15.25,M,0,3335*41
$GNRMC,110856.500,A,2500.8029530,N,12132.4812938,E,0.03,197.87,260623,,,R,V*1B
$GPHDT,,T*1B
$GNACCURACY,3.4*11
$GNGGA,110856.600,2500.8029517,N,12132.4812917,E,4,61,0.43,15.864,M,15.25,M,0,3335*45
$GNRMC,110856.600,A,2500.8029517,N,12132.4812917,E,0.03,197.87,260623,,,R,V*10
$GPHDT,,T*1B
$GNACCURACY,3.4*11
$GNGGA,110856.700,2500.8029517,N,12132.4812888,E,4,61,0.43,15.859,M,15.25,M,0,3335*4D
$GNRMC,110856.700,A,2500.8029517,N,12132.4812888,E,0.03,197.87,260623,,,R,V*16
$GPHDT,,T*1B
$GNACCURACY,3.4*11
$GNGGA,110856.800,2500.8029538,N,12132.4812947,E,4,62,0.43,15.853,M,15.25,M,0,3335*44
$GNRMC,110856.800,A,2500.8029538,N,12132.4812947,E,0.03,197.87,260623,,,R,V*16
$GPHDT,,T*1B
$GNACCURACY,3.4*11
$GNGGA,110856.900,2500.8029516,N,12132.4812895,E,4,60,0.44,15.857,M,15.25,M,0,3335*46
$GNRMC,110856.900,A,2500.8029516,N,12132.4812895,E,0.03,197.87,260623,,,R,V*15
$GPHDT,,T*1B
$GNACCURACY,3.4*11
$GNGGA,110857.000,2500.8029527,N,12132.4812913,E,4,61,0.43,15.869,M,15.25,M,1,3335*49
$GNRMC,110857.000,A,2500.8029527,N,12132.4812913,E,0.00,197.87,260623,,,R,V*13
$GPHDT,,T*1B
$GNACCURACY,3.4*11
$GNGGA,110857.100,2500.8029521,N,12132.4812894,E,4,61,0.43,15.850,M,15.25,M,1,3335*4A
$GNRMC,110857.100,A,2500.8029521,N,12132.4812894,E,0.00,197.87,260623,,,R,V*1A
$GPHDT,,T*1B
$GNGSA,A,3,24,196,18,199,23,15,195,194,05,13,10,,0.79,0.43,0.66,1*0A
$GNGSA,A,3,80,85,70,73,86,71,79,69,84,,,,0.79,0.43,0.66,2*08
$GNGSA,A,3,13,08,07,15,26,02,03,,,,,,0.79,0.43,0.66,3*06
$GNGSA,A,3,38,08,39,16,13,06,46,09,19,20,36,35,0.79,0.43,0.66,4*05
$GNGSA,A,3,37,,,,,,,,,,,,0.79,0.43,0.66,4*09
$GPGSV,5,1,17,24,81,070,36,196,74,060,39,18,61,264,25,199,60,167,40,1*60
$GPGSV,5,2,17,50,50,134,41,23,44,333,44,15,41,038,33,195,37,179,43,1*5F
$GPGSV,5,3,17,194,28,140,40,05,24,112,30,12,15,147,16,13,13,051,26,1*53
$GPGSV,5,4,17,10,12,315,40,32,05,262,19,29,04,202,,25,04,181,,1*6C
$GPGSV,5,5,17,20,02,126,,1*57
$GPGSV,2,1,07,24,81,070,47,196,74,060,41,199,60,167,46,23,44,333,38,8*60
$GPGSV,2,2,07,195,37,179,42,194,28,140,41,10,12,315,40,8*5D
$GLGSV,3,1,09,80,47,092,38,85,41,257,18,70,39,358,25,73,29,163,35,1*70
$GLGSV,3,2,09,86,24,312,29,71,18,305,36,79,17,038,23,69,16,065,18,1*7F
$GLGSV,3,3,09,84,16,193,27,1*44
$GAGSV,3,1,09,13,61,243,25,08,49,017,36,07,42,294,35,15,29,174,36,7*79
$GAGSV,3,2,09,26,28,313,32,02,23,092,19,30,21,148,23,03,13,059,24,7*72
$GAGSV,3,3,09,25,04,048,,7*45
$GAGSV,2,1,07,13,61,243,32,08,49,017,38,07,42,294,37,15,29,174,32,1*7E
$GAGSV,2,2,07,26,28,313,35,02,23,092,18,30,21,148,23,1*46
$GBGSV,4,1,16,38,82,075,42,08,75,007,38,39,72,270,43,16,66,247,34,1*7B
$GBGSV,4,2,16,13,65,339,44,06,64,243,29,46,55,125,47,56,48,308,,1*76
$GBGSV,4,3,16,09,48,231,22,19,45,336,43,20,44,053,36,36,28,185,45,1*78
$GBGSV,4,4,16,37,27,053,23,29,24,217,,35,23,276,30,22,08,295,27,1*7A
$GBGSV,2,1,08,38,82,075,44,39,72,270,43,46,55,125,44,19,45,336,43,4*7A
$GBGSV,2,2,08,20,44,053,30,36,28,185,41,37,27,053,28,35,23,276,16,4*74
$GNACCURACY,3.3*16
$PAIRSAT,1,35,1,0,200,2,0,200,3,0,200,4,0,200,5,0,201,6,0,200,7,0,200,8,0,200,9,0,200,10,0,221,11,0,200,12,0,200,13,0,201,14,0,200,15,0,201,16,0,200,17,0,200,18,0,221,19,0,200,20,0,200,21,0,200,23,0,221,24,0,221,25,0,200,26,0,200,27,0,200,28,0,200,29,0,200,30,0,200,31,0,200,32,0,200,194,0,621,195,0,621,196,0,620,199,0,621*6A
$PAIRSAT,2,23,65,0,200,67,0,200,68,0,200,69,0,201,70,0,201,71,0,201,72,0,200,73,0,201,74,0,200,75,0,200,76,0,200,77,0,200,78,0,200,79,0,201,80,0,201,81,0,200,82,0,200,83,0,200,84,0,201,85,0,201,86,0,201,87,0,200,88,0,200*52
$PAIRSAT,3,23,2,0,1221,3,0,1221,4,0,1200,5,0,200,7,0,1221,8,0,1221,9,0,1200,10,0,1200,11,0,1200,12,0,1200,13,0,1221,15,0,1221,19,0,1200,21,0,1200,24,0,1200,25,0,1200,26,0,1221,27,0,1200,30,0,1200,31,0,1200,33,0,1200,34,0,1200,36,0,1200*69
$PAIRSAT,4,50,1,0,200,2,0,200,3,0,200,4,0,200,5,0,200,6,0,201,7,0,200,8,0,201,9,0,201,10,0,200,11,0,200,12,0,200,13,0,201,14,0,200,15,0,200,16,0,201,19,0,621,20,0,621,21,0,600,22,0,621,23,0,600,24,0,600,25,0,600,26,0,600,27,0,600,28,0,600,29,0,621,30,0,600,31,0,200,32,0,600,33,0,600,34,0,600,35,0,621,36,0,621,37,0,621,38,0,621,39,0,621,40,0,600,41,0,600,42,0,600,43,0,600,44,0,600,45,0,600,46,0,621,56,0,200,57,0,200,58,0,200,59,0,600,60,0,600,61,0,600*41
$PAIRDGP,7,5,10,13,15,18,23,24*52
$GNGGA,110857.200,2500.8029510,N,12132.4812893,E,4,60,0.43,15.848,M,15.25,M,1,3335*44
$GNRMC,110857.200,A,2500.8029510,N,12132.4812893,E,0.00,197.87,260623,,,R,V*1C
$GPHDT,,T*1B
$GNACCURACY,3.3*16
$GNGGA,110857.300,2500.8029530,N,12132.4812883,E,4,60,0.43,15.862,M,15.25,M,1,3335*4E
$GNRMC,110857.300,A,2500.8029530,N,12132.4812883,E,0.00,197.87,260623,,,R,V*1E
$GPHDT,,T*1B
$GNACCURACY,3.3*16
$GNGGA,110857.400,2500.8029525,N,12132.4812907,E,4,60,0.43,15.859,M,15.25,M,1,3335*48
$GNRMC,110857.400,A,2500.8029525,N,12132.4812907,E,0.00,197.87,260623,,,R,V*10
$GPHDT,,T*1B
$GNACCURACY,3.3*16
$GNGGA,110857.500,2500.8029528,N,12132.4812904,E,4,60,0.43,15.854,M,15.25,M,1,3335*4A
$GNRMC,110857.500,A,2500.8029528,N,12132.4812904,E,0.00,197.87,260623,,,R,V*1F
$GPHDT,,T*1B
$GNACCURACY,3.3*16
$GNGGA,110857.600,2500.8029557,N,12132.4812915,E,4,60,0.43,15.848,M,15.25,M,1,3335*4C
$GNRMC,110857.600,A,2500.8029557,N,12132.4812915,E,0.00,197.87,260623,,,R,V*14
$GPHDT,,T*1B
$GNACCURACY,3.3*16
$GNGGA,110857.700,2500.8029528,N,12132.4812902,E,4,61,0.43,15.862,M,15.25,M,1,3335*4A
$GNRMC,110857.700,A,2500.8029528,N,12132.4812902,E,0.00,197.87,260623,,,R,V*1B
$GPHDT,,T*1B
$GNACCURACY,3.3*16
$GNGGA,110857.800,2500.8029527,N,12132.4812914,E,4,61,0.43,15.851,M,15.25,M,1,3335*4D
$GNRMC,110857.800,A,2500.8029527,N,12132.4812914,E,0.00,197.87,260623,,,R,V*1C
$GPHDT,,T*1B
$GNACCURACY,3.3*16
$GNGGA,110857.900,2500.8029525,N,12132.4812883,E,4,61,0.43,15.850,M,15.25,M,1,3335*40
$GNRMC,110857.900,A,2500.8029525,N,12132.4812883,E,0.00,197.87,260623,,,R,V*10
$GPHDT,,T*1B
$GNACCURACY,3.3*16
$GNGGA,110858.000,2500.8029509,N,12132.4812855,E,4,61,0.43,15.858,M,15.25,M,2,3335*48
$GNRMC,110858.000,A,2500.8029509,N,12132.4812855,E,0.00,197.87,260623,,,R,V*13
$GPHDT,,T*1B
$GNACCURACY,3.3*16
$GNGGA,110858.100,2500.8029535,N,12132.4812905,E,4,61,0.43,15.867,M,15.25,M,2,3335*4E
$GNRMC,110858.100,A,2500.8029535,N,12132.4812905,E,0.00,197.87,260623,,,R,V*19
$GPHDT,,T*1B
$GNGSA,A,3,24,196,18,199,23,15,195,194,05,13,10,,0.79,0.43,0.66,1*0A
$GNGSA,A,3,80,85,70,73,86,71,79,69,84,,,,0.79,0.43,0.66,2*08
$GNGSA,A,3,13,08,07,15,26,02,03,,,,,,0.79,0.43,0.66,3*06
$GNGSA,A,3,38,08,39,16,13,06,46,09,19,20,36,37,0.79,0.43,0.66,4*07
$GNGSA,A,3,35,,,,,,,,,,,,0.79,0.43,0.66,4*0B
$GPGSV,5,1,17,24,81,070,37,196,74,060,39,18,61,264,25,199,60,167,40,1*61
$GPGSV,5,2,17,50,50,134,41,23,44,333,44,15,41,038,31,195,37,179,43,1*5D
$GPGSV,5,3,17,194,28,140,40,05,24,112,31,12,15,147,17,13,13,051,26,1*53
$GPGSV,5,4,17,10,12,315,40,32,05,262,19,29,04,202,,25,04,181,,1*6C
$GPGSV,5,5,17,20,02,126,,1*57
$GPGSV,2,1,07,24,81,070,47,196,74,060,41,199,60,167,46,23,44,333,39,8*61
$GPGSV,2,2,07,195,37,179,42,194,28,140,41,10,12,315,40,8*5D
$GLGSV,3,1,09,80,47,092,38,85,41,257,19,70,39,358,25,73,29,163,36,1*72
$GLGSV,3,2,09,86,24,312,32,71,18,305,36,79,17,038,24,69,16,065,24,1*7D
$GLGSV,3,3,09,84,16,193,27,1*44
$GAGSV,3,1,09,13,61,243,26,08,49,017,36,07,42,294,35,15,29,174,36,7*7A
$GAGSV,3,2,09,26,28,313,32,02,23,092,20,30,21,148,24,03,13,059,21,7*7A
$GAGSV,3,3,09,25,04,048,,7*45
$GAGSV,2,1,07,13,61,243,32,08,49,017,37,07,42,294,37,15,29,174,32,1*71
$GAGSV,2,2,07,26,28,313,35,02,23,092,18,30,21,148,24,1*41
$GBGSV,4,1,15,38,82,075,42,08,75,007,38,39,72,270,43,16,66,247,34,1*78
$GBGSV,4,2,15,13,65,339,44,06,64,243,29,46,55,125,47,09,48,231,23,1*75
$GBGSV,4,3,15,19,45,336,43,20,44,053,37,36,28,185,45,37,27,053,29,1*73
$GBGSV,4,4,15,29,24,217,,35,23,276,30,22,08,295,27,1*4F
$GBGSV,3,1,09,38,82,075,44,39,72,270,43,46,55,125,44,19,45,336,43,4*7A
$GBGSV,3,2,09,20,44,053,30,36,28,185,41,37,27,053,33,35,23,276,15,4*7D
$GBGSV,3,3,09,22,08,295,17,4*4A
$GNACCURACY,3.3*16
$PAIRSAT,1,35,1,0,200,2,0,200,3,0,200,4,0,200,5,0,201,6,0,200,7,0,200,8,0,200,9,0,200,10,0,221,11,0,200,12,0,200,13,0,201,14,0,200,15,0,201,16,0,200,17,0,200,18,0,221,19,0,200,20,0,200,21,0,200,23,0,221,24,0,221,25,0,200,26,0,200,27,0,200,28,0,200,29,0,200,30,0,200,31,0,200,32,0,200,194,0,621,195,0,621,196,0,620,199,0,621*6A
$PAIRSAT,2,23,65,0,200,67,0,200,68,0,200,69,0,201,70,0,201,71,0,201,72,0,200,73,0,201,74,0,200,75,0,200,76,0,200,77,0,200,78,0,200,79,0,201,80,0,201,81,0,200,82,0,200,83,0,200,84,0,201,85,0,201,86,0,201,87,0,200,88,0,200*52
$PAIRSAT,3,23,2,0,1221,3,0,1221,4,0,1200,5,0,200,7,0,1221,8,0,1221,9,0,1200,10,0,1200,11,0,1200,12,0,1200,13,0,1221,15,0,1221,19,0,1200,21,0,1200,24,0,1200,25,0,1200,26,0,1221,27,0,1200,30,0,1200,31,0,1200,33,0,1200,34,0,1200,36,0,1200*69
$PAIRSAT,4,50,1,0,200,2,0,200,3,0,200,4,0,200,5,0,200,6,0,201,7,0,200,8,0,201,9,0,201,10,0,200,11,0,200,12,0,200,13,0,201,14,0,200,15,0,200,16,0,201,19,0,621,20,0,621,21,0,600,22,0,621,23,0,600,24,0,600,25,0,600,26,0,600,27,0,600,28,0,600,29,0,621,30,0,600,31,0,200,32,0,600,33,0,600,34,0,600,35,0,621,36,0,621,37,0,621,38,0,621,39,0,621,40,0,600,41,0,600,42,0,600,43,0,600,44,0,600,45,0,600,46,0,621,56,0,200,57,0,200,58,0,200,59,0,600,60,0,600,61,0,600*41
$PAIRDGP,7,5,10,13,15,18,23,24*52
$GNGGA,110858.200,2500.8029518,N,12132.4812881,E,4,61,0.43,15.858,M,15.25,M,2,3335*43
$GNRMC,110858.200,A,2500.8029518,N,12132.4812881,E,0.00,197.87,260623,,,R,V*18
$GPHDT,,T*1B
$GNACCURACY,3.3*16
$GNGGA,110858.300,2500.8029526,N,12132.4812907,E,4,61,0.43,15.854,M,15.25,M,2,3335*4C
$GNRMC,110858.300,A,2500.8029526,N,12132.4812907,E,0.00,197.87,260623,,,R,V*1B
$GPHDT,,T*1B
$GNACCURACY,3.3*16
$GNGGA,110858.400,2500.8029531,N,12132.4812896,E,4,61,0.43,15.853,M,15.25,M,2,3335*43
$GNRMC,110858.400,A,2500.8029531,N,12132.4812896,E,0.00,197.87,260623,,,R,V*13
$GPHDT,,T*1B
$GNACCURACY,3.3*16
$GNGGA,110858.500,2500.8029529,N,12132.4812898,E,4,61,0.43,15.851,M,15.25,M,2,3335*47
$GNRMC,110858.500,A,2500.8029529,N,12132.4812898,E,0.00,197.87,260623,,,R,V*15
$GPHDT,,T*1B
$GNACCURACY,3.3*16
$GNGGA,110858.600,2500.8029533,N,12132.4812868,E,4,61,0.43,15.852,M,15.25,M,2,3335*43
$GNRMC,110858.600,A,2500.8029533,N,12132.4812868,E,0.00,197.87,260623,,,R,V*12
$GPHDT,,T*1B
$GNACCURACY,3.4*11
$GNGGA,110858.700,2500.8029536,N,12132.4812895,E,4,61,0.43,15.861,M,15.25,M,2,3335*45
$GNRMC,110858.700,A,2500.8029536,N,12132.4812895,E,0.00,197.87,260623,,,R,V*14
$GPHDT,,T*1B
$GNACCURACY,3.3*16
$GNGGA,110858.800,2500.8029555,N,12132.4812908,E,4,60,0.44,15.855,M,15.25,M,2,3335*4B
$GNRMC,110858.800,A,2500.8029555,N,12132.4812908,E,0.00,197.87,260623,,,R,V*1B
$GPHDT,,T*1B
$GNACCURACY,3.4*11
$GNGGA,110858.900,2500.8029579,N,12132.4812937,E,4,61,0.43,15.840,M,15.25,M,2,3335*4A
$GNRMC,110858.900,A,2500.8029579,N,12132.4812937,E,0.00,197.87,260623,,,R,V*18
$GPHDT,,T*1B
$GNACCURACY,3.3*16
$GNGGA,110859.000,2500.8029547,N,12132.4812950,E,4,61,0.43,15.844,M,15.25,M,3,3335*4B
$GNRMC,110859.000,A,2500.8029547,N,12132.4812950,E,0.00,197.87,260623,,,R,V*1C
$GPHDT,,T*1B
$GNACCURACY,3.3*16
$GNGGA,110859.100,2500.8029497,N,12132.4812924,E,4,61,0.43,15.838,M,15.25,M,3,3335*4E
$GNRMC,110859.100,A,2500.8029497,N,12132.4812924,E,0.00,197.87,260623,,,R,V*12
$GPHDT,,T*1B
$GNGSA,A,3,24,196,18,199,23,15,195,194,05,13,10,,0.79,0.43,0.66,1*0A
$GNGSA,A,3,80,85,70,73,86,71,79,69,84,,,,0.79,0.43,0.66,2*08
$GNGSA,A,3,13,08,07,15,26,02,03,,,,,,0.79,0.43,0.66,3*06
$GNGSA,A,3,38,08,39,16,13,06,46,09,19,20,36,37,0.79,0.43,0.66,4*07
$GNGSA,A,3,35,,,,,,,,,,,,0.79,0.43,0.66,4*0B
$GPGSV,5,1,17,24,81,070,38,196,74,060,39,18,61,264,25,199,60,167,40,1*6E
$GPGSV,5,2,17,50,50,134,40,23,44,333,44,15,41,038,32,195,37,179,43,1*5F
$GPGSV,5,3,17,194,28,140,40,05,24,112,32,12,15,147,17,13,13,051,24,1*52
$GPGSV,5,4,17,10,12,315,40,32,05,262,19,29,04,202,,25,04,181,,1*6C
$GPGSV,5,5,17,20,02,126,,1*57
$GPGSV,2,1,07,24,81,070,47,196,74,060,41,199,60,167,46,23,44,333,39,8*61
$GPGSV,2,2,07,195,37,179,42,194,28,140,41,10,12,315,41,8*5C
$GLGSV,3,1,09,80,47,092,38,85,41,257,19,70,39,358,25,73,29,163,36,1*72
$GLGSV,3,2,09,86,24,312,32,71,18,305,36,79,17,038,24,69,16,065,26,1*7F
$GLGSV,3,3,09,84,16,193,27,1*44
$GAGSV,3,1,09,13,61,243,26,08,49,017,36,07,42,294,35,15,29,174,35,7*79
$GAGSV,3,2,09,26,28,313,32,02,23,092,22,30,21,148,23,03,13,059,19,7*74
$GAGSV,3,3,09,25,04,048,,7*45
$GAGSV,2,1,07,13,61,243,31,08,49,017,37,07,42,294,37,15,29,174,32,1*72
$GAGSV,2,2,07,26,28,313,35,02,23,092,19,30,21,148,25,1*41
$GBGSV,4,1,15,38,82,075,42,08,75,007,38,39,72,270,44,16,66,247,34,1*7F
$GBGSV,4,2,15,13,65,339,44,06,64,243,29,46,55,125,47,09,48,231,23,1*75
$GBGSV,4,3,15,19,45,336,43,20,44,053,34,36,28,185,45,37,27,053,27,1*7E
$GBGSV,4,4,15,29,24,217,,35,23,276,31,22,08,295,26,1*4F
$GBGSV,3,1,09,38,82,075,44,39,72,270,43,46,55,125,44,19,45,336,43,4*7A
$GBGSV,3,2,09,20,44,053,32,36,28,185,41,37,27,053,33,35,23,276,14,4*7E
$GBGSV,3,3,09,22,08,295,17,4*4A
$GNACCURACY,3.3*16
$PAIRSAT,1,35,1,0,200,2,0,200,3,0,200,4,0,200,5,0,201,6,0,200,7,0,200,8,0,200,9,0,200,10,0,221,11,0,200,12,0,200,13,0,201,14,0,200,15,0,201,16,0,200,17,0,200,18,0,221,19,0,200,20,0,200,21,0,200,23,0,221,24,0,221,25,0,200,26,0,200,27,0,200,28,0,200,29,0,200,30,0,200,31,0,200,32,0,200,194,0,621,195,0,621,196,0,620,199,0,621*6A
$PAIRSAT,2,23,65,0,200,67,0,200,68,0,200,69,0,201,70,0,201,71,0,201,72,0,200,73,0,201,74,0,200,75,0,200,76,0,200,77,0,200,78,0,200,79,0,201,80,0,201,81,0,200,82,0,200,83,0,200,84,0,201,85,0,201,86,0,201,87,0,200,88,0,200*52
$PAIRSAT,3,23,2,0,1221,3,0,1221,4,0,1200,5,0,200,7,0,1221,8,0,1221,9,0,1200,10,0,1200,11,0,1200,12,0,1200,13,0,1221,15,0,1221,19,0,1200,21,0,1200,24,0,1200,25,0,1200,26,0,1221,27,0,1200,30,0,1200,31,0,1200,33,0,1200,34,0,1200,36,0,1200*69
$PAIRSAT,4,50,1,0,200,2,0,200,3,0,200,4,0,200,5,0,200,6,0,201,7,0,200,8,0,201,9,0,201,10,0,200,11,0,200,12,0,200,13,0,201,14,0,200,15,0,200,16,0,201,19,0,621,20,0,621,21,0,600,22,0,621,23,0,600,24,0,600,25,0,600,26,0,600,27,0,600,28,0,600,29,0,621,30,0,600,31,0,200,32,0,600,33,0,600,34,0,600,35,0,621,36,0,621,37,0,621,38,0,621,39,0,621,40,0,600,41,0,600,42,0,600,43,0,600,44,0,600,45,0,600,46,0,621,56,0,200,57,0,200,58,0,200,59,0,600,60,0,600,61,0,600*41
$PAIRDGP,7,5,10,13,15,18,23,24*52
$GNGGA,110859.200,2500.8029491,N,12132.4812904,E,4,61,0.43,15.853,M,15.25,M,3,3335*44
$GNRMC,110859.200,A,2500.8029491,N,12132.4812904,E,0.00,197.87,260623,,,R,V*15
$GPHDT,,T*1B
$GNACCURACY,3.3*16
$GNGGA,110859.300,2500.8029552,N,12132.4812934,E,4,61,0.43,15.850,M,15.25,M,3,3335*4B
$GNRMC,110859.300,A,2500.8029552,N,12132.4812934,E,0.00,197.87,260623,,,R,V*19
$GPHDT,,T*1B
$GNACCURACY,3.3*16
$GNGGA,110859.400,2500.8029539,N,12132.4812892,E,4,62,0.43,15.850,M,15.25,M,3,3335*4F
$GNRMC,110859.400,A,2500.8029539,N,12132.4812892,E,0.00,197.87,260623,,,R,V*1E
$GPHDT,,T*1B
$GNACCURACY,3.3*16
$GNGGA,110859.500,2500.8029508,N,12132.4812921,E,4,61,0.44,15.852,M,15.25,M,3,3335*43
$GNRMC,110859.500,A,2500.8029508,N,12132.4812921,E,0.00,197.87,260623,,,R,V*14
$GPHDT,,T*1B
$GNACCURACY,3.3*16
$GNGGA,110859.600,2500.8029487,N,12132.4812901,E,4,62,0.43,15.851,M,15.25,M,3,3335*43
$GNRMC,110859.600,A,2500.8029487,N,12132.4812901,E,0.00,197.87,260623,,,R,V*13
$GPHDT,,T*1B
$GNACCURACY,3.3*16
$GNGGA,110859.700,2500.8029481,N,12132.4812899,E,4,62,0.43,15.853,M,15.25,M,3,3335*46
$GNRMC,110859.700,A,2500.8029481,N,12132.4812899,E,0.00,197.87,260623,,,R,V*14
$GPHDT,,T*1B
$GNACCURACY,3.4*11
$GNGGA,110859.800,2500.8029472,N,12132.4812822,E,4,62,0.43,15.851,M,15.25,M,3,3335*47
$GNRMC,110859.800,A,2500.8029472,N,12132.4812822,E,0.00,197.87,260623,,,R,V*17
$GPHDT,,T*1B
$GNACCURACY,3.3*16
$GNGGA,110859.900,2500.8029495,N,12132.4812908,E,4,62,0.43,15.861,M,15.25,M,3,3335*45
$GNRMC,110859.900,A,2500.8029495,N,12132.4812908,E,0.00,197.87,260623,,,R,V*16
$GPHDT,,T*1B
$GNACCURACY,3.4*11
$GNGGA,110900.000,2500.8029479,N,12132.4812907,E,4,62,0.43,15.850,M,15.25,M,3,3335*4E
$GNRMC,110900.000,A,2500.8029479,N,12132.4812907,E,0.00,197.87,260623,,,R,V*1F
$GPHDT,,T*1B
$GNACCURACY,3.4*11
$GNGGA,110900.100,2500.8029475,N,12132.4812831,E,4,62,0.43,15.852,M,15.25,M,3,3335*45
$GNRMC,110900.100,A,2500.8029475,N,12132.4812831,E,0.00,197.87,260623,,,R,V*16
$GPHDT,,T*1B
