$FW : RTK35X,V1.1X0314AS,Lib20210517,1*54
$Tool : LOCOSYS , GNSS Firebird , v1.0.0.19*39
$---------------------------------------------------*2D
$GNACCURACY,3.5*10
$GNGGA,110723.600,2500.8029547,N,12132.4812966,E,4,62,0.42,15.869,M,15.25,M,2,3335*46
$GNRMC,110723.600,A,2500.8029547,N,12132.4812966,E,0.01,197.87,260623,,,R,V*1C
$GPHDT,0.908,T*34
$GNACCURACY,3.5*10
$GNGGA,110723.700,2500.8029552,N,12132.4812985,E,4,61,0.44,15.869,M,15.25,M,2,3335*4B
$GNRMC,110723.700,A,2500.8029552,N,12132.4812985,E,0.00,197.87,260623,,,R,V*15
$GPHDT,,T*1B
$GNACCURACY,3.5*10
$GNGGA,110723.800,2500.8029530,N,12132.4812954,E,4,62,0.42,15.869,M,15.25,M,2,3335*49
$GNRMC,110723.800,A,2500.8029530,N,12132.4812954,E,0.01,197.87,260623,,,R,V*13
$GPHDT,1.039,T*3E
$GNACCURACY,3.5*10
$GNGGA,110723.900,2500.8029561,N,12132.4813002,E,4,64,0.42,15.864,M,15.25,M,2,3335*4C
$GNRMC,110723.900,A,2500.8029561,N,12132.4813002,E,0.00,197.87,260623,,,R,V*1C
$GPHDT,,T*1B
$GNACCURACY,3.5*10
$GNGGA,110724.000,2500.8029561,N,12132.4812980,E,4,63,0.42,15.866,M,15.25,M,3,3335*44
$GNRMC,110724.000,A,2500.8029561,N,12132.4812980,E,0.01,197.87,260623,,,R,V*11
$GPHDT,0.779,T*3C
$GNACCURACY,3.5*10
$GNGGA,110724.100,2500.8029532,N,12132.4812953,E,4,63,0.42,15.869,M,15.25,M,3,3335*42
$GNRMC,110724.100,A,2500.8029532,N,12132.4812953,E,0.01,197.87,260623,,,R,V*18
$GPHDT,,T*1B
$GNGSA,A,3,24,196,18,199,23,15,195,194,05,13,10,,0.78,0.42,0.65,1*09
$GNGSA,A,3,80,85,70,73,86,71,79,84,69,,,,0.78,0.42,0.65,2*0B
$GNGSA,A,3,13,08,07,15,26,02,03,,,,,,0.78,0.42,0.65,3*05
$GNGSA,A,3,38,08,39,16,13,06,46,19,20,37,36,29,0.78,0.42,0.65,4*06
$GNGSA,A,3,35,,,,,,,,,,,,0.78,0.42,0.65,4*08
$GPGSV,4,1,16,24,81,075,41,196,74,060,37,18,61,266,30,199,60,167,37,1*6D
$GPGSV,4,2,16,23,43,333,44,15,41,038,32,195,37,179,43,194,27,140,43,1*61
$GPGSV,4,3,16,05,24,111,38,12,15,148,19,13,13,051,25,10,12,314,39,1*62
$GPGSV,4,4,16,29,05,203,,32,05,262,16,25,04,181,,20,03,125,,1*65
$GPGSV,2,1,08,24,81,075,49,196,74,060,42,18,61,266,33,199,60,167,46,8*62
$GPGSV,2,2,08,23,43,333,44,195,37,179,45,194,27,140,41,10,12,314,42,8*6C
$GLGSV,3,1,09,80,47,093,40,85,41,258,21,70,39,357,27,73,28,163,32,1*70
$GLGSV,3,2,09,86,24,312,20,71,18,305,29,79,17,039,25,84,17,194,27,1*7E
$GLGSV,3,3,09,69,16,064,18,1*42
$GAGSV,3,1,09,13,62,244,28,08,50,017,39,07,42,293,32,15,30,174,29,7*71
$GAGSV,3,2,09,26,28,313,29,02,23,093,20,30,20,148,19,03,14,059,21,7*79
$GAGSV,3,3,09,25,04,049,,7*44
$GAGSV,2,1,06,13,62,244,32,08,50,017,41,07,42,293,31,15,30,174,37,1*71
$GAGSV,2,2,06,26,28,313,37,03,14,059,19,1*7A
$GBGSV,4,1,15,38,82,073,39,08,74,007,39,39,72,269,43,16,66,246,34,1*7B
$GBGSV,4,2,15,13,65,339,45,06,64,242,18,46,55,126,45,09,48,231,21,1*74
$GBGSV,4,3,15,19,45,335,43,20,45,052,41,37,27,053,35,36,27,185,46,1*70
$GBGSV,4,4,15,29,25,218,33,35,23,277,26,22,07,295,26,1*49
$GBGSV,3,1,10,38,82,073,43,39,72,269,43,46,55,126,47,19,45,335,43,4*78
$GBGSV,3,2,10,20,45,052,28,37,27,053,28,36,27,185,43,29,25,218,27,4*79
$GBGSV,3,3,10,35,23,277,28,22,07,295,23,4*75
$GNACCURACY,3.5*10
$PAIRSAT,1,35,1,0,200,2,0,200,3,0,200,4,0,200,5,0,201,6,0,200,7,0,200,8,0,200,9,0,200,10,0,221,11,0,200,12,0,200,13,0,201,14,0,200,15,0,201,16,0,200,17,0,200,18,0,221,19,0,200,20,0,200,21,0,200,23,0,221,24,0,221,25,0,200,26,0,200,27,0,200,28,0,200,29,0,200,30,0,200,31,0,200,32,0,200,194,0,621,195,0,621,196,0,620,199,0,621*6A
$PAIRSAT,2,23,65,0,200,67,0,200,68,0,200,69,0,201,70,0,201,71,0,201,72,0,200,73,0,201,74,0,200,75,0,200,76,0,200,77,0,200,78,0,200,79,0,201,80,0,201,81,0,200,82,0,200,83,0,200,84,0,201,85,0,201,86,0,201,87,0,200,88,0,200*52
$PAIRSAT,3,23,2,0,1221,3,0,1221,4,0,1200,5,0,200,7,0,1221,8,0,1221,9,0,1200,10,0,1200,11,0,1200,12,0,1200,13,0,1221,15,0,1221,19,0,1200,21,0,1200,24,0,1200,25,0,1200,26,0,1221,27,0,1200,30,0,1200,31,0,1200,33,0,1200,34,0,1200,36,0,1200*69
$PAIRSAT,4,50,1,0,200,2,0,200,3,0,200,4,0,200,5,0,200,6,0,201,7,0,200,8,0,201,9,0,201,10,0,200,11,0,200,12,0,200,13,0,201,14,0,200,15,0,200,16,0,201,19,0,621,20,0,621,21,0,600,22,0,621,23,0,600,24,0,600,25,0,600,26,0,600,27,0,600,28,0,600,29,0,621,30,0,600,31,0,200,32,0,600,33,0,600,34,0,600,35,0,621,36,0,621,37,0,621,38,0,621,39,0,621,40,0,600,41,0,600,42,0,600,43,0,600,44,0,600,45,0,600,46,0,621,56,0,200,57,0,200,58,0,200,59,0,600,60,0,600,61,0,600*41
$PAIRDGP,1,15*6C
$GNGGA,110724.200,2500.8029533,N,12132.4812929,E,4,63,0.42,15.873,M,15.25,M,3,3335*46
$GNRMC,110724.200,A,2500.8029533,N,12132.4812929,E,0.01,197.87,260623,,,R,V*17
$GPHDT,0.708,T*3A
$GNACCURACY,3.5*10
$GNGGA,110724.300,2500.8029549,N,12132.4812952,E,4,63,0.42,15.870,M,15.25,M,3,3335*45
$GNRMC,110724.300,A,2500.8029549,N,12132.4812952,E,0.01,197.87,260623,,,R,V*17
$GPHDT,,T*1B
$GNACCURACY,3.5*10
$GNGGA,110724.400,2500.8029575,N,12132.4813006,E,4,63,0.42,15.855,M,15.25,M,3,3335*43
$GNRMC,110724.400,A,2500.8029575,N,12132.4813006,E,0.00,197.87,260623,,,R,V*17
$GPHDT,0.875,T*3F
$GNACCURACY,3.5*10
$GNGGA,110724.500,2500.8029568,N,12132.4812998,E,4,63,0.42,15.862,M,15.25,M,3,3335*45
$GNRMC,110724.500,A,2500.8029568,N,12132.4812998,E,0.01,197.87,260623,,,R,V*14
$GPHDT,,T*1B
$GNACCURACY,3.5*10
$GNGGA,110724.600,2500.8029561,N,12132.4812996,E,4,63,0.42,15.869,M,15.25,M,3,3335*4A
$GNRMC,110724.600,A,2500.8029561,N,12132.4812996,E,0.01,197.87,260623,,,R,V*10
$GPHDT,0.678,T*3C
$GNACCURACY,3.5*10
$GNGGA,110724.700,2500.8029578,N,12132.4812981,E,4,63,0.42,15.859,M,15.25,M,3,3335*46
$GNRMC,110724.700,A,2500.8029578,N,12132.4812981,E,0.01,197.87,260623,,,R,V*1F
$GPHDT,,T*1B
$GNACCURACY,3.5*10
$GNGGA,110724.800,2500.8029569,N,12132.4813008,E,4,64,0.42,15.867,M,15.25,M,3,3335*4A
$GNRMC,110724.800,A,2500.8029569,N,12132.4813008,E,0.01,197.87,260623,,,R,V*19
$GPHDT,0.354,T*37
$GNACCURACY,3.5*10
$GNGGA,110724.900,2500.8029546,N,12132.4812939,E,4,63,0.42,15.865,M,15.25,M,3,3335*49
$GNRMC,110724.900,A,2500.8029546,N,12132.4812939,E,0.01,197.87,260623,,,R,V*1F
$GPHDT,,T*1B
$GNACCURACY,3.5*10
$GNGGA,110725.000,2500.8029545,N,12132.4812951,E,4,63,0.42,15.868,M,15.25,M,4,3335*46
$GNRMC,110725.000,A,2500.8029545,N,12132.4812951,E,0.01,197.87,260623,,,R,V*1A
$GPHDT,1.064,T*36
$GNACCURACY,3.5*10
$GNGGA,110725.100,2500.8029557,N,12132.4812978,E,4,63,0.42,15.865,M,15.25,M,4,3335*42
$GNRMC,110725.100,A,2500.8029557,N,12132.4812978,E,0.01,197.87,260623,,,R,V*13
$GPHDT,,T*1B
$GNGSA,A,3,24,196,18,199,23,15,195,194,05,13,10,,0.78,0.42,0.65,1*09
$GNGSA,A,3,80,85,70,73,86,71,84,79,69,,,,0.78,0.42,0.65,2*0B
$GNGSA,A,3,13,08,07,15,26,02,03,,,,,,0.78,0.42,0.65,3*05
$GNGSA,A,3,38,08,39,16,13,06,46,19,20,36,37,29,0.78,0.42,0.65,4*06
$GNGSA,A,3,35,,,,,,,,,,,,0.78,0.42,0.65,4*08
$GPGSV,4,1,16,24,81,075,40,196,74,060,37,18,61,266,30,199,60,167,37,1*6C
$GPGSV,4,2,16,23,43,333,44,15,41,038,32,195,37,179,42,194,27,140,43,1*60
$GPGSV,4,3,16,05,24,111,38,12,15,148,19,13,13,051,25,10,12,314,39,1*62
$GPGSV,4,4,16,29,05,203,,32,05,262,16,25,04,181,,20,03,125,,1*65
$GPGSV,2,1,08,24,81,075,49,196,74,060,42,18,61,266,33,199,60,167,46,8*62
$GPGSV,2,2,08,23,43,333,44,195,37,179,45,194,27,140,41,10,12,314,42,8*6C
$GLGSV,3,1,09,80,47,093,40,85,41,258,23,70,39,357,27,73,28,163,32,1*72
$GLGSV,3,2,09,86,24,312,20,71,18,305,29,84,17,194,26,79,17,039,25,1*7F
$GLGSV,3,3,09,69,16,064,18,1*42
$GAGSV,3,1,09,13,62,244,29,08,50,017,39,07,42,293,32,15,30,174,29,7*70
$GAGSV,3,2,09,26,28,313,29,02,23,093,20,30,20,148,19,03,14,059,22,7*7A
$GAGSV,3,3,09,25,04,049,,7*44
$GAGSV,2,1,06,13,62,244,32,08,50,017,41,07,42,293,31,15,30,174,37,1*71
$GAGSV,2,2,06,26,28,313,37,03,14,059,17,1*74
$GBGSV,5,1,20,38,82,073,39,08,74,007,39,39,72,269,43,16,66,246,34,1*7C
$GBGSV,5,2,20,13,65,339,45,06,64,242,17,46,55,126,45,09,48,231,21,1*7C
$GBGSV,5,3,20,56,48,307,,19,45,335,42,20,45,052,41,36,27,185,46,1*7C
$GBGSV,5,4,20,37,27,053,35,29,25,218,33,35,23,277,26,22,07,295,28,1*71
$GBGSV,5,5,20,07,05,194,,32,05,092,,10,03,204,,30,01,172,,1*77
$GBGSV,3,1,10,38,82,073,43,39,72,269,43,46,55,126,47,19,45,335,43,4*78
$GBGSV,3,2,10,20,45,052,28,37,27,053,28,36,27,185,43,29,25,218,27,4*79
$GBGSV,3,3,10,35,23,277,28,22,07,295,22,4*74
$GNACCURACY,3.5*10
$PAIRSAT,1,35,1,0,200,2,0,200,3,0,200,4,0,200,5,0,201,6,0,200,7,0,200,8,0,200,9,0,200,10,0,221,11,0,200,12,0,200,13,0,201,14,0,200,15,0,201,16,0,200,17,0,200,18,0,221,19,0,200,20,0,200,21,0,200,23,0,221,24,0,221,25,0,200,26,0,200,27,0,200,28,0,200,29,0,200,30,0,200,31,0,200,32,0,200,194,0,621,195,0,621,196,0,620,199,0,621*6A
$PAIRSAT,2,23,65,0,200,67,0,200,68,0,200,69,0,201,70,0,201,71,0,201,72,0,200,73,0,201,74,0,200,75,0,200,76,0,200,77,0,200,78,0,200,79,0,201,80,0,201,81,0,200,82,0,200,83,0,200,84,0,201,85,0,201,86,0,201,87,0,200,88,0,200*52
$PAIRSAT,3,23,2,0,1221,3,0,1221,4,0,1200,5,0,200,7,0,1221,8,0,1221,9,0,1200,10,0,1200,11,0,1200,12,0,1200,13,0,1221,15,0,1221,19,0,1200,21,0,1200,24,0,1200,25,0,1200,26,0,1221,27,0,1200,30,0,1200,31,0,1200,33,0,1200,34,0,1200,36,0,1200*69
$PAIRSAT,4,50,1,0,200,2,0,200,3,0,200,4,0,200,5,0,200,6,0,201,7,0,200,8,0,201,9,0,201,10,0,200,11,0,200,12,0,200,13,0,201,14,0,200,15,0,200,16,0,201,19,0,621,20,0,621,21,0,600,22,0,621,23,0,600,24,0,600,25,0,600,26,0,600,27,0,600,28,0,600,29,0,621,30,0,600,31,0,200,32,0,600,33,0,600,34,0,600,35,0,621,36,0,621,37,0,621,38,0,621,39,0,621,40,0,600,41,0,600,42,0,600,43,0,600,44,0,600,45,0,600,46,0,621,56,0,200,57,0,200,58,0,200,59,0,600,60,0,600,61,0,600*41
$PAIRDGP,1,15*6C
$GNGGA,110725.200,2500.8029573,N,12132.4812997,E,4,63,0.42,15.867,M,15.25,M,4,3335*44
$GNRMC,110725.200,A,2500.8029573,N,12132.4812997,E,0.01,197.87,260623,,,R,V*17
$GPHDT,0.665,T*30
$GNACCURACY,3.5*10
$GNGGA,110725.300,2500.8029570,N,12132.4812987,E,4,63,0.42,15.864,M,15.25,M,4,3335*44
$GNRMC,110725.300,A,2500.8029570,N,12132.4812987,E,0.01,197.87,260623,,,R,V*14
$GPHDT,,T*1B
$GNACCURACY,3.5*10
$GNGGA,110725.400,2500.8029564,N,12132.4812986,E,4,63,0.42,15.861,M,15.25,M,4,3335*42
$GNRMC,110725.400,A,2500.8029564,N,12132.4812986,E,0.01,197.87,260623,,,R,V*17
$GPHDT,0.865,T*3E
$GNACCURACY,3.5*10
$GNGGA,110725.500,2500.8029550,N,12132.4812962,E,4,63,0.42,15.877,M,15.25,M,4,3335*49
$GNRMC,110725.500,A,2500.8029550,N,12132.4812962,E,0.00,197.87,260623,,,R,V*1A
$GPHDT,,T*1B
$GNACCURACY,3.5*10
$GNGGA,110725.600,2500.8029544,N,12132.4812947,E,4,63,0.42,15.867,M,15.25,M,4,3335*49
$GNRMC,110725.600,A,2500.8029544,N,12132.4812947,E,0.00,197.87,260623,,,R,V*1B
$GPHDT,0.419,T*39
$GNACCURACY,3.4*11
$GNGGA,110725.700,2500.8029546,N,12132.4812931,E,4,63,0.42,15.868,M,15.25,M,4,3335*44
$GNRMC,110725.700,A,2500.8029546,N,12132.4812931,E,0.00,197.87,260623,,,R,V*19
$GPHDT,,T*1B
$GNACCURACY,3.4*11
$GNGGA,110725.800,2500.8029549,N,12132.4812943,E,4,63,0.42,15.873,M,15.25,M,4,3335*4B
$GNRMC,110725.800,A,2500.8029549,N,12132.4812943,E,0.00,197.87,260623,,,R,V*1C
$GPHDT,0.794,T*3F
$GNACCURACY,3.4*11
$GNGGA,110725.900,2500.8029575,N,12132.4812972,E,4,63,0.42,15.861,M,15.25,M,4,3335*44
$GNRMC,110725.900,A,2500.8029575,N,12132.4812972,E,0.00,197.87,260623,,,R,V*10
$GPHDT,,T*1B
$GNACCURACY,3.4*11
$GNGGA,110726.000,2500.8029580,N,12132.4813006,E,4,63,0.42,15.866,M,15.25,M,5,3335*49
$GNRMC,110726.000,A,2500.8029580,N,12132.4813006,E,0.00,197.87,260623,,,R,V*1B
$GPHDT,0.924,T*3A
$GNACCURACY,3.4*11
$GNGGA,110726.100,2500.8029552,N,12132.4812975,E,4,63,0.42,15.872,M,15.25,M,5,3335*4E
$GNRMC,110726.100,A,2500.8029552,N,12132.4812975,E,0.00,197.87,260623,,,R,V*19
$GPHDT,,T*1B
$GNGSA,A,3,24,196,18,199,23,15,195,194,05,13,10,,0.78,0.42,0.65,1*09
$GNGSA,A,3,80,85,70,73,86,71,79,84,69,,,,0.78,0.42,0.65,2*0B
$GNGSA,A,3,13,08,07,15,26,02,03,,,,,,0.78,0.42,0.65,3*05
$GNGSA,A,3,38,08,39,16,13,06,46,19,20,37,36,29,0.78,0.42,0.65,4*06
$GNGSA,A,3,35,,,,,,,,,,,,0.78,0.42,0.65,4*08
$GPGSV,4,1,16,24,81,075,40,196,74,060,37,18,61,266,30,199,60,167,37,1*6C
$GPGSV,4,2,16,23,43,333,44,15,41,038,33,195,37,179,42,194,27,140,43,1*61
$GPGSV,4,3,16,05,24,111,38,12,15,148,19,13,13,051,26,10,12,314,38,1*60
$GPGSV,4,4,16,29,05,203,,32,05,262,16,25,04,181,,20,03,125,,1*65
$GPGSV,2,1,08,24,81,075,49,196,74,060,42,18,61,266,33,199,60,167,46,8*62
$GPGSV,2,2,08,23,43,333,44,195,37,179,46,194,27,140,41,10,12,314,42,8*6F
$GLGSV,3,1,09,80,47,093,40,85,41,258,22,70,39,357,27,73,28,163,32,1*73
$GLGSV,3,2,09,86,24,312,20,71,18,305,29,79,17,039,25,84,17,194,27,1*7E
$GLGSV,3,3,09,69,16,064,19,1*43
$GAGSV,3,1,09,13,62,244,29,08,50,017,39,07,42,293,32,15,30,174,30,7*78
$GAGSV,3,2,09,26,28,313,29,02,23,093,19,30,20,148,20,03,14,059,22,7*7A
$GAGSV,3,3,09,25,04,049,,7*44
$GAGSV,2,1,06,13,62,244,32,08,50,017,41,07,42,293,31,15,30,174,37,1*71
$GAGSV,2,2,06,26,28,313,37,03,14,059,19,1*7A
$GBGSV,4,1,16,38,82,073,39,08,74,007,39,39,72,269,43,16,66,246,34,1*78
$GBGSV,4,2,16,13,65,339,45,06,64,242,17,46,55,126,45,56,48,307,,1*75
$GBGSV,4,3,16,09,48,231,21,19,45,335,42,20,45,052,41,37,27,053,35,1*7A
$GBGSV,4,4,16,36,27,185,46,29,25,218,33,35,23,277,26,22,07,295,28,1*7A
$GBGSV,3,1,10,38,82,073,43,39,72,269,43,46,55,126,47,19,45,335,43,4*78
$GBGSV,3,2,10,20,45,052,27,37,27,053,28,36,27,185,43,29,25,218,28,4*79
$GBGSV,3,3,10,35,23,277,29,22,07,295,22,4*75
$GNACCURACY,3.5*10
$PAIRSAT,1,35,1,0,200,2,0,200,3,0,200,4,0,200,5,0,201,6,0,200,7,0,200,8,0,200,9,0,200,10,0,221,11,0,200,12,0,200,13,0,201,14,0,200,15,0,201,16,0,200,17,0,200,18,0,221,19,0,200,20,0,200,21,0,200,23,0,221,24,0,221,25,0,200,26,0,200,27,0,200,28,0,200,29,0,200,30,0,200,31,0,200,32,0,200,194,0,621,195,0,621,196,0,620,199,0,621*6A
$PAIRSAT,2,23,65,0,200,67,0,200,68,0,200,69,0,201,70,0,201,71,0,201,72,0,200,73,0,201,74,0,200,75,0,200,76,0,200,77,0,200,78,0,200,79,0,201,80,0,201,81,0,200,82,0,200,83,0,200,84,0,201,85,0,201,86,0,201,87,0,200,88,0,200*52
$PAIRSAT,3,23,2,0,1221,3,0,1221,4,0,1200,5,0,200,7,0,1221,8,0,1221,9,0,1200,10,0,1200,11,0,1200,12,0,1200,13,0,1221,15,0,1221,19,0,1200,21,0,1200,24,0,1200,25,0,1200,26,0,1221,27,0,1200,30,0,1200,31,0,1200,33,0,1200,34,0,1200,36,0,1200*69
$PAIRSAT,4,50,1,0,200,2,0,200,3,0,200,4,0,200,5,0,200,6,0,201,7,0,200,8,0,201,9,0,201,10,0,200,11,0,200,12,0,200,13,0,201,14,0,200,15,0,200,16,0,201,19,0,621,20,0,621,21,0,600,22,0,621,23,0,600,24,0,600,25,0,600,26,0,600,27,0,600,28,0,600,29,0,621,30,0,600,31,0,200,32,0,600,33,0,600,34,0,600,35,0,621,36,0,621,37,0,621,38,0,621,39,0,621,40,0,600,41,0,600,42,0,600,43,0,600,44,0,600,45,0,600,46,0,621,56,0,200,57,0,200,58,0,200,59,0,600,60,0,600,61,0,600*41
$PAIRDGP,1,15*6C
$GNGGA,110726.200,2500.8029557,N,12132.4812982,E,4,63,0.42,15.872,M,15.25,M,5,3335*40
$GNRMC,110726.200,A,2500.8029557,N,12132.4812982,E,0.00,197.87,260623,,,R,V*17
$GPHDT,1.080,T*3C
$GNACCURACY,3.4*11
$GNGGA,110726.300,2500.8029526,N,12132.4812945,E,4,64,0.42,15.870,M,15.25,M,5,3335*49
$GNRMC,110726.300,A,2500.8029526,N,12132.4812945,E,0.00,197.87,260623,,,R,V*1B
$GPHDT,,T*1B
$GNACCURACY,3.4*11
$GNGGA,110726.400,2500.8029545,N,12132.4812908,E,4,63,0.42,15.873,M,15.25,M,5,3335*46
$GNRMC,110726.400,A,2500.8029545,N,12132.4812908,E,0.00,197.87,260623,,,R,V*10
$GPHDT,1.285,T*3B
$GNACCURACY,3.4*11
$GNGGA,110726.500,2500.8029553,N,12132.4812933,E,4,63,0.42,15.882,M,15.25,M,5,3335*46
$GNRMC,110726.500,A,2500.8029553,N,12132.4812933,E,0.00,197.87,260623,,,R,V*1E
$GPHDT,,T*1B
$GNACCURACY,3.4*11
$GNGGA,110726.600,2500.8029558,N,12132.4812925,E,4,63,0.42,15.876,M,15.25,M,5,3335*42
$GNRMC,110726.600,A,2500.8029558,N,12132.4812925,E,0.00,197.87,260623,,,R,V*11
$GPHDT,0.939,T*36
$GNACCURACY,3.4*11
$GNGGA,110726.700,2500.8029554,N,12132.4812923,E,4,63,0.42,15.888,M,15.25,M,5,3335*48
$GNRMC,110726.700,A,2500.8029554,N,12132.4812923,E,0.00,197.87,260623,,,R,V*1A
$GPHDT,,T*1B
$GNACCURACY,3.4*11
$GNGGA,110726.800,2500.8029589,N,12132.4812963,E,4,63,0.42,15.862,M,15.25,M,5,3335*47
$GNRMC,110726.800,A,2500.8029589,N,12132.4812963,E,0.00,197.87,260623,,,R,V*11
$GPHDT,1.538,T*3A
$GNACCURACY,3.5*10
$GNGGA,110726.900,2500.8029577,N,12132.4812982,E,4,63,0.42,15.880,M,15.25,M,5,3335*44
$GNRMC,110726.900,A,2500.8029577,N,12132.4812982,E,0.00,197.87,260623,,,R,V*1E
$GPHDT,,T*1B
$GNACCURACY,3.5*10
$GNGGA,110727.000,2500.8029590,N,12132.4812999,E,4,63,0.42,15.879,M,15.25,M,6,3335*4A
$GNRMC,110727.000,A,2500.8029590,N,12132.4812999,E,0.00,197.87,260623,,,R,V*15
$GPHDT,0.005,T*30
$GNACCURACY,3.5*10
$GNGGA,110727.100,2500.8029560,N,12132.4812964,E,4,63,0.42,15.876,M,15.25,M,6,3335*49
$GNRMC,110727.100,A,2500.8029560,N,12132.4812964,E,0.00,197.87,260623,,,R,V*19
$GPHDT,,T*1B
$GNGSA,A,3,24,196,18,199,23,15,195,194,05,13,10,,0.78,0.42,0.65,1*09
$GNGSA,A,3,80,85,70,73,86,71,79,84,69,,,,0.78,0.42,0.65,2*0B
$GNGSA,A,3,13,08,07,15,26,02,03,,,,,,0.78,0.42,0.65,3*05
$GNGSA,A,3,38,08,39,16,13,06,46,19,20,37,36,29,0.78,0.42,0.65,4*06
$GNGSA,A,3,35,,,,,,,,,,,,0.78,0.42,0.65,4*08
$GPGSV,4,1,16,24,81,075,40,196,74,060,37,18,61,266,30,199,60,167,37,1*6C
$GPGSV,4,2,16,23,43,333,44,15,41,038,32,195,37,179,45,194,27,140,43,1*67
$GPGSV,4,3,16,05,24,111,38,12,15,148,17,13,13,051,26,10,12,314,38,1*6E
$GPGSV,4,4,16,29,05,203,,32,05,262,16,25,04,181,,20,03,125,,1*65
$GPGSV,2,1,08,24,81,075,48,196,74,060,42,18,61,266,32,199,60,167,46,8*62
$GPGSV,2,2,08,23,43,333,44,195,37,179,44,194,27,140,41,10,12,314,42,8*6D
$GLGSV,3,1,09,80,47,093,41,85,41,258,24,70,39,357,26,73,28,163,33,1*74
$GLGSV,3,2,09,86,24,312,20,71,18,305,28,79,17,039,26,84,17,194,25,1*7E
$GLGSV,3,3,09,69,16,064,19,1*43
$GAGSV,3,1,09,13,62,244,29,08,50,017,39,07,42,293,32,15,30,174,32,7*7A
$GAGSV,3,2,09,26,28,313,29,02,23,093,19,30,20,148,20,03,14,059,21,7*79
$GAGSV,3,3,09,25,04,049,,7*44
$GAGSV,2,1,07,13,62,244,31,08,50,017,41,07,42,293,31,15,30,174,38,1*7C
$GAGSV,2,2,07,26,28,313,37,30,20,148,26,03,14,059,19,1*43
$GBGSV,4,1,15,38,82,073,39,08,74,007,39,39,72,269,43,16,66,246,34,1*7B
$GBGSV,4,2,15,13,65,339,45,06,64,242,18,46,55,126,45,09,48,231,21,1*74
$GBGSV,4,3,15,19,45,335,42,20,45,052,41,37,27,053,35,36,27,185,46,1*71
$GBGSV,4,4,15,29,25,218,33,35,23,277,26,22,07,295,27,1*48
$GBGSV,3,1,10,38,82,073,43,39,72,269,43,46,55,126,47,20,45,052,25,4*70
$GBGSV,3,2,10,19,45,335,43,36,27,185,43,37,27,053,30,29,25,218,27,4*75
$GBGSV,3,3,10,35,23,277,28,22,07,295,23,4*75
$GNACCURACY,3.5*10
$PAIRSAT,1,35,1,0,200,2,0,200,3,0,200,4,0,200,5,0,201,6,0,200,7,0,200,8,0,200,9,0,200,10,0,221,11,0,200,12,0,200,13,0,201,14,0,200,15,0,201,16,0,200,17,0,200,18,0,221,19,0,200,20,0,200,21,0,200,23,0,221,24,0,221,25,0,200,26,0,200,27,0,200,28,0,200,29,0,200,30,0,200,31,0,200,32,0,200,194,0,621,195,0,621,196,0,620,199,0,621*6A
$PAIRSAT,2,23,65,0,200,67,0,200,68,0,200,69,0,201,70,0,201,71,0,201,72,0,200,73,0,201,74,0,200,75,0,200,76,0,200,77,0,200,78,0,200,79,0,201,80,0,201,81,0,200,82,0,200,83,0,200,84,0,201,85,0,201,86,0,201,87,0,200,88,0,200*52
$PAIRSAT,3,23,2,0,1221,3,0,1221,4,0,1200,5,0,200,7,0,1221,8,0,1221,9,0,1200,10,0,1200,11,0,1200,12,0,1200,13,0,1221,15,0,1221,19,0,1200,21,0,1200,24,0,1200,25,0,1200,26,0,1221,27,0,1200,30,0,1200,31,0,1200,33,0,1200,34,0,1200,36,0,1200*69
$PAIRSAT,4,50,1,0,200,2,0,200,3,0,200,4,0,200,5,0,200,6,0,201,7,0,200,8,0,201,9,0,201,10,0,200,11,0,200,12,0,200,13,0,201,14,0,200,15,0,200,16,0,201,19,0,621,20,0,621,21,0,600,22,0,621,23,0,600,24,0,600,25,0,600,26,0,600,27,0,600,28,0,600,29,0,621,30,0,600,31,0,200,32,0,600,33,0,600,34,0,600,35,0,621,36,0,621,37,0,621,38,0,621,39,0,621,40,0,600,41,0,600,42,0,600,43,0,600,44,0,600,45,0,600,46,0,621,56,0,200,57,0,200,58,0,200,59,0,600,60,0,600,61,0,600*41
$PAIRDGP,1,15*6C
$GNGGA,110727.200,2500.8029543,N,12132.4812940,E,4,63,0.42,15.880,M,15.25,M,6,3335*44
$GNRMC,110727.200,A,2500.8029543,N,12132.4812940,E,0.00,197.87,260623,,,R,V*1D
$GPHDT,0.378,T*39
$GNACCURACY,3.5*10
$GNGGA,110727.300,2500.8029552,N,12132.4812949,E,4,63,0.42,15.888,M,15.25,M,6,3335*44
$GNRMC,110727.300,A,2500.8029552,N,12132.4812949,E,0.00,197.87,260623,,,R,V*15
$GPHDT,,T*1B
$GNACCURACY,3.5*10
$GNGGA,110727.400,2500.8029552,N,12132.4812931,E,4,62,0.44,15.880,M,15.25,M,6,3335*43
$GNRMC,110727.400,A,2500.8029552,N,12132.4812931,E,0.00,197.87,260623,,,R,V*1D
$GPHDT,0.209,T*3E
$GNACCURACY,3.5*10
$GNGGA,110727.500,2500.8029568,N,12132.4812947,E,4,62,0.44,15.872,M,15.25,M,6,3335*47
$GNRMC,110727.500,A,2500.8029568,N,12132.4812947,E,0.00,197.87,260623,,,R,V*14
$GPHDT,,T*1B
$GNACCURACY,3.5*10
$GNGGA,110727.600,2500.8029557,N,12132.4812958,E,4,62,0.44,15.882,M,15.25,M,6,3335*49
$GNRMC,110727.600,A,2500.8029557,N,12132.4812958,E,0.00,197.87,260623,,,R,V*15
$GPHDT,0.202,T*35
$GNACCURACY,3.5*10
$GNGGA,110727.700,2500.8029577,N,12132.4812989,E,4,62,0.44,15.871,M,15.25,M,6,3335*4A
$GNRMC,110727.700,A,2500.8029577,N,12132.4812989,E,0.00,197.87,260623,,,R,V*1A
$GPHDT,,T*1B
$GNACCURACY,3.5*10
$GNGGA,110727.800,2500.8029582,N,12132.4812986,E,4,63,0.42,15.876,M,15.25,M,6,3335*40
$GNRMC,110727.800,A,2500.8029582,N,12132.4812986,E,0.00,197.87,260623,,,R,V*10
$GPHDT,359.654,T*3D
$GNACCURACY,3.5*10
$GNGGA,110727.900,2500.8029551,N,12132.4812920,E,4,63,0.42,15.882,M,15.25,M,6,3335*48
$GNRMC,110727.900,A,2500.8029551,N,12132.4812920,E,0.00,197.87,260623,,,R,V*13
$GPHDT,,T*1B
$GNACCURACY,3.5*10
$GNGGA,110728.000,2500.8029548,N,12132.4812936,E,4,63,0.42,15.881,M,15.25,M,7,3335*43
$GNRMC,110728.000,A,2500.8029548,N,12132.4812936,E,0.00,197.87,260623,,,R,V*1A
$GPHDT,0.337,T*32
$GNACCURACY,3.5*10
$GNGGA,110728.100,2500.8029566,N,12132.4812969,E,4,63,0.42,15.888,M,15.25,M,7,3335*4D
$GNRMC,110728.100,A,2500.8029566,N,12132.4812969,E,0.00,197.87,260623,,,R,V*1D
$GPHDT,,T*1B
$GNGSA,A,3,24,196,18,199,23,15,195,194,05,13,10,,0.78,0.42,0.65,1*09
$GNGSA,A,3,80,85,70,73,86,71,79,84,69,,,,0.78,0.42,0.65,2*0B
$GNGSA,A,3,13,08,07,15,26,02,03,,,,,,0.78,0.42,0.65,3*05
$GNGSA,A,3,38,08,39,16,13,06,46,19,20,37,36,29,0.78,0.42,0.65,4*06
$GNGSA,A,3,35,,,,,,,,,,,,0.78,0.42,0.65,4*08
$GPGSV,4,1,16,24,81,075,40,196,74,060,37,18,61,266,29,199,60,167,38,1*6B
$GPGSV,4,2,16,23,43,333,44,15,41,038,32,195,37,179,45,194,27,140,43,1*67
$GPGSV,4,3,16,05,24,111,38,12,15,148,17,13,13,051,26,10,12,314,38,1*6E
$GPGSV,4,4,16,29,05,203,,32,05,262,16,25,04,181,,20,03,125,,1*65
$GPGSV,2,1,08,24,81,075,48,196,74,060,42,18,61,266,31,199,60,167,46,8*61
$GPGSV,2,2,08,23,43,333,43,195,37,179,44,194,27,140,41,10,12,314,42,8*6A
$GLGSV,3,1,09,80,47,093,41,85,41,258,25,70,39,357,26,73,28,163,33,1*75
$GLGSV,3,2,09,86,24,312,20,71,18,305,28,79,17,039,26,84,17,194,25,1*7E
$GLGSV,3,3,09,69,16,064,19,1*43
$GAGSV,3,1,09,13,62,244,29,08,50,017,39,07,42,293,32,15,30,174,32,7*7A
$GAGSV,3,2,09,26,28,313,30,02,23,093,19,30,20,148,20,03,14,059,22,7*72
$GAGSV,3,3,09,25,04,049,,7*44
$GAGSV,2,1,07,13,62,244,31,08,50,017,41,07,42,293,31,15,30,174,38,1*7C
$GAGSV,2,2,07,26,28,313,37,30,20,148,25,03,14,059,19,1*40
$GBGSV,4,1,15,38,82,073,39,08,74,007,39,39,72,269,43,16,66,246,34,1*7B
$GBGSV,4,2,15,13,65,339,45,06,64,242,19,46,55,126,45,09,48,231,21,1*75
$GBGSV,4,3,15,19,45,335,42,20,45,052,40,37,27,053,35,36,27,185,46,1*70
$GBGSV,4,4,15,29,25,218,33,35,23,277,26,22,07,295,26,1*49
$GBGSV,3,1,10,38,82,073,43,39,72,269,43,46,55,126,47,20,45,052,26,4*73
$GBGSV,3,2,10,19,45,335,43,36,27,185,43,37,27,053,30,29,25,218,27,4*75
$GBGSV,3,3,10,35,23,277,28,22,07,295,23,4*75
$GNACCURACY,3.5*10
$PAIRSAT,1,35,1,0,200,2,0,200,3,0,200,4,0,200,5,0,201,6,0,200,7,0,200,8,0,200,9,0,200,10,0,221,11,0,200,12,0,200,13,0,201,14,0,200,15,0,201,16,0,200,17,0,200,18,0,221,19,0,200,20,0,200,21,0,200,23,0,221,24,0,221,25,0,200,26,0,200,27,0,200,28,0,200,29,0,200,30,0,200,31,0,200,32,0,200,194,0,621,195,0,621,196,0,620,199,0,621*6A
$PAIRSAT,2,23,65,0,200,67,0,200,68,0,200,69,0,201,70,0,201,71,0,201,72,0,200,73,0,201,74,0,200,75,0,200,76,0,200,77,0,200,78,0,200,79,0,201,80,0,201,81,0,200,82,0,200,83,0,200,84,0,201,85,0,201,86,0,201,87,0,200,88,0,200*52
$PAIRSAT,3,23,2,0,1221,3,0,1221,4,0,1200,5,0,200,7,0,1221,8,0,1221,9,0,1200,10,0,1200,11,0,1200,12,0,1200,13,0,1221,15,0,1221,19,0,1200,21,0,1200,24,0,1200,25,0,1200,26,0,1221,27,0,1200,30,0,1200,31,0,1200,33,0,1200,34,0,1200,36,0,1200*69
$PAIRSAT,4,50,1,0,200,2,0,200,3,0,200,4,0,200,5,0,200,6,0,201,7,0,200,8,0,201,9,0,201,10,0,200,11,0,200,12,0,200,13,0,201,14,0,200,15,0,200,16,0,201,19,0,621,20,0,621,21,0,600,22,0,621,23,0,600,24,0,600,25,0,600,26,0,600,27,0,600,28,0,600,29,0,621,30,0,600,31,0,200,32,0,600,33,0,600,34,0,600,35,0,621,36,0,621,37,0,621,38,0,621,39,0,621,40,0,600,41,0,600,42,0,600,43,0,600,44,0,600,45,0,600,46,0,621,56,0,200,57,0,200,58,0,200,59,0,600,60,0,600,61,0,600*41
$PAIRDGP,1,15*6C
$GNGGA,110728.200,2500.8029541,N,12132.4812927,E,4,63,0.42,15.874,M,15.25,M,7,3335*42
$GNRMC,110728.200,A,2500.8029541,N,12132.4812927,E,0.00,197.87,260623,,,R,V*11
$GPHDT,0.460,T*37
$GNACCURACY,3.5*10
$GNGGA,110728.300,2500.8029540,N,12132.4812924,E,4,64,0.42,15.885,M,15.25,M,7,3335*48
$GNRMC,110728.300,A,2500.8029540,N,12132.4812924,E,0.00,197.87,260623,,,R,V*12
$GPHDT,,T*1B
$GNACCURACY,3.5*10
$GNGGA,110728.400,2500.8029564,N,12132.4812945,E,4,63,0.42,15.881,M,15.25,M,7,3335*4D
$GNRMC,110728.400,A,2500.8029564,N,12132.4812945,E,0.00,197.87,260623,,,R,V*14
$GPHDT,0.550,T*35
$GNACCURACY,3.5*10
$GNGGA,110728.500,2500.8029557,N,12132.4812965,E,4,63,0.42,15.881,M,15.25,M,7,3335*4E
$GNRMC,110728.500,A,2500.8029557,N,12132.4812965,E,0.00,197.87,260623,,,R,V*17
$GPHDT,,T*1B
$GNACCURACY,3.5*10
$GNGGA,110728.600,2500.8029588,N,12132.4813014,E,4,64,0.42,15.872,M,15.25,M,7,3335*4A
$GNRMC,110728.600,A,2500.8029588,N,12132.4813014,E,0.00,197.87,260623,,,R,V*18
$GPHDT,359.969,T*3C
$GNACCURACY,3.5*10
$GNGGA,110728.700,2500.8029590,N,12132.4813024,E,4,64,0.42,15.875,M,15.25,M,7,3335*46
$GNRMC,110728.700,A,2500.8029590,N,12132.4813024,E,0.00,197.87,260623,,,R,V*13
$GPHDT,,T*1B
$GNACCURACY,3.5*10
$GNGGA,110728.800,2500.8029610,N,12132.4813029,E,4,63,0.42,15.874,M,15.25,M,7,3335*49
$GNRMC,110728.800,A,2500.8029610,N,12132.4813029,E,0.00,197.87,260623,,,R,V*1A
$GPHDT,359.177,T*3B
$GNACCURACY,3.5*10
$GNGGA,110728.900,2500.8029590,N,12132.4813001,E,4,64,0.42,15.877,M,15.25,M,7,3335*4D
$GNRMC,110728.900,A,2500.8029590,N,12132.4813001,E,0.00,197.87,260623,,,R,V*1A
$GPHDT,,T*1B
$GNACCURACY,3.5*10
$GNGGA,110729.000,2500.8029596,N,12132.4813030,E,4,64,0.42,15.874,M,15.25,M,8,3335*4D
$GNRMC,110729.000,A,2500.8029596,N,12132.4813030,E,0.00,197.87,260623,,,R,V*16
$GPHDT,0.333,T*36
$GNACCURACY,3.5*10
$GNGGA,110729.100,2500.8029603,N,12132.4813032,E,4,64,0.42,15.886,M,15.25,M,8,3335*4C
$GNRMC,110729.100,A,2500.8029603,N,12132.4813032,E,0.00,197.87,260623,,,R,V*1A
$GPHDT,,T*1B
$GNGSA,A,3,24,196,18,199,23,15,195,194,05,13,10,,0.78,0.42,0.65,1*09
$GNGSA,A,3,80,85,70,73,86,71,79,84,69,,,,0.78,0.42,0.65,2*0B
$GNGSA,A,3,13,08,07,15,26,02,03,,,,,,0.78,0.42,0.65,3*05
$GNGSA,A,3,38,08,39,16,13,06,46,09,19,20,37,36,0.78,0.42,0.65,4*04
$GNGSA,A,3,29,35,,,,,,,,,,,0.78,0.42,0.65,4*03
$GPGSV,4,1,16,24,81,075,40,196,74,060,37,18,61,266,29,199,60,167,38,1*6B
$GPGSV,4,2,16,23,43,333,44,15,41,038,33,195,37,179,45,194,27,140,43,1*66
$GPGSV,4,3,16,05,24,111,38,12,15,148,17,13,13,051,24,10,12,314,38,1*6C
$GPGSV,4,4,16,29,05,203,,32,05,262,16,25,04,181,,20,03,125,,1*65
$GPGSV,2,1,08,24,81,075,48,196,74,060,42,18,61,266,32,199,60,167,47,8*63
$GPGSV,2,2,08,23,43,333,43,195,37,179,44,194,27,140,42,10,12,314,42,8*69
$GLGSV,3,1,09,80,47,093,41,85,41,258,25,70,39,357,26,73,28,163,33,1*75
$GLGSV,3,2,09,86,24,312,19,71,18,305,29,79,17,039,25,84,17,194,25,1*76
$GLGSV,3,3,09,69,16,064,19,1*43
$GAGSV,3,1,09,13,62,244,29,08,50,017,39,07,42,293,32,15,30,174,32,7*7A
$GAGSV,3,2,09,26,28,313,30,02,23,093,18,30,20,148,20,03,14,059,21,7*70
$GAGSV,3,3,09,25,04,049,,7*44
$GAGSV,2,1,07,13,62,244,31,08,50,017,41,07,42,293,31,15,30,174,38,1*7C
$GAGSV,2,2,07,26,28,313,37,30,20,148,17,03,14,059,18,1*40
$GBGSV,4,1,15,38,82,073,39,08,74,007,39,39,72,269,43,16,66,246,34,1*7B
$GBGSV,4,2,15,13,65,339,45,06,64,242,19,46,55,126,45,09,48,231,22,1*76
$GBGSV,4,3,15,19,45,335,42,20,45,052,40,37,27,053,34,36,27,185,46,1*71
$GBGSV,4,4,15,29,25,218,33,35,23,277,26,22,07,295,26,1*49
$GBGSV,3,1,10,38,82,073,43,39,72,269,43,46,55,126,47,20,45,052,25,4*70
$GBGSV,3,2,10,19,45,335,43,36,27,185,44,37,27,053,31,29,25,218,28,4*7C
$GBGSV,3,3,10,35,23,277,29,22,07,295,24,4*73
$GNACCURACY,3.5*10
$PAIRSAT,1,35,1,0,200,2,0,200,3,0,200,4,0,200,5,0,201,6,0,200,7,0,200,8,0,200,9,0,200,10,0,221,11,0,200,12,0,200,13,0,201,14,0,200,15,0,201,16,0,200,17,0,200,18,0,221,19,0,200,20,0,200,21,0,200,23,0,221,24,0,221,25,0,200,26,0,200,27,0,200,28,0,200,29,0,200,30,0,200,31,0,200,32,0,200,194,0,621,195,0,621,196,0,620,199,0,621*6A
$PAIRSAT,2,23,65,0,200,67,0,200,68,0,200,69,0,201,70,0,201,71,0,201,72,0,200,73,0,201,74,0,200,75,0,200,76,0,200,77,0,200,78,0,200,79,0,201,80,0,201,81,0,200,82,0,200,83,0,200,84,0,201,85,0,201,86,0,201,87,0,200,88,0,200*52
$PAIRSAT,3,23,2,0,1221,3,0,1221,4,0,1200,5,0,200,7,0,1221,8,0,1221,9,0,1200,10,0,1200,11,0,1200,12,0,1200,13,0,1221,15,0,1221,19,0,1200,21,0,1200,24,0,1200,25,0,1200,26,0,1221,27,0,1200,30,0,1200,31,0,1200,33,0,1200,34,0,1200,36,0,1200*69
$PAIRSAT,4,50,1,0,200,2,0,200,3,0,200,4,0,200,5,0,200,6,0,201,7,0,200,8,0,201,9,0,201,10,0,200,11,0,200,12,0,200,13,0,201,14,0,200,15,0,200,16,0,201,19,0,621,20,0,621,21,0,600,22,0,621,23,0,600,24,0,600,25,0,600,26,0,600,27,0,600,28,0,600,29,0,621,30,0,600,31,0,200,32,0,600,33,0,600,34,0,600,35,0,621,36,0,621,37,0,621