$FW : RTK35X,V1.1X0314AS,Lib20210517,1*54
$Tool : LOCOSYS , GNSS Firebird , v1.0.0.19*39
$---------------------------------------------------*2D
$GNACCURACY,3.5*10
$GNGGA,110910.000,2500.8029461,N,12132.4812932,E,4,58,0.45,15.843,M,15.25,M,1,3335*4F
$GNRMC,110910.000,A,2500.8029461,N,12132.4812932,E,0.01,197.87,260623,,,R,V*10
$GPHDT,,T*1B
$GNACCURACY,3.5*10
$GNGGA,110910.100,2500.8029451,N,12132.4812925,E,4,58,0.45,15.830,M,15.25,M,1,3335*4F
$GNRMC,110910.100,A,2500.8029451,N,12132.4812925,E,0.01,197.87,260623,,,R,V*14
$GPHDT,,T*1B
$GNGSA,A,3,24,196,18,199,23,15,195,194,05,13,10,,0.71,0.45,0.55,1*04
$GNGSA,A,3,80,73,86,71,79,69,84,,,,,,0.71,0.45,0.55,2*0C
$GNGSA,A,3,13,08,07,15,26,02,03,,,,,,0.71,0.45,0.55,3*08
$GNGSA,A,3,38,08,39,16,13,06,46,09,19,20,36,35,0.71,0.45,0.55,4*0B
$GNGSA,A,3,37,,,,,,,,,,,,0.71,0.45,0.55,4*07
$GPGSV,5,1,17,24,81,070,39,196,74,060,39,18,61,264,18,50,60,167,37,1*55
$GPGSV,5,2,17,199,60,167,38,23,44,333,40,15,41,038,26,195,37,179,43,1*60
$GPGSV,5,3,17,194,28,140,41,05,24,112,37,12,15,147,14,13,13,051,29,1*58
$GPGSV,5,4,17,10,12,315,38,32,05,262,15,29,04,202,,25,04,181,,1*6F
$GPGSV,5,5,17,20,02,126,,1*57
$GPGSV,2,1,08,24,81,070,47,196,74,060,41,18,61,264,30,199,60,167,47,8*6A
$GPGSV,2,2,08,23,44,333,29,195,37,179,45,194,28,140,39,10,12,315,30,8*64
$GLGSV,3,1,09,80,47,092,38,85,41,257,13,70,39,358,15,73,29,163,34,1*79
$GLGSV,3,2,09,86,24,311,31,71,18,305,33,79,17,038,26,69,16,065,27,1*79
$GLGSV,3,3,09,84,16,193,26,1*45
$GAGSV,3,1,09,13,61,243,28,08,49,017,31,07,42,294,34,15,29,174,34,7*70
$GAGSV,3,2,09,26,28,313,33,02,23,092,19,30,21,148,22,03,13,059,21,7*77
$GAGSV,3,3,09,25,04,048,,7*45
$GAGSV,2,1,07,13,61,243,32,08,49,017,25,07,42,294,36,15,29,174,35,1*74
$GAGSV,2,2,07,26,28,313,31,02,23,092,26,30,21,148,25,1*49
$GBGSV,4,1,15,38,82,076,42,08,75,007,37,39,72,270,42,16,66,247,34,1*75
$GBGSV,4,2,15,13,65,339,40,06,64,243,31,46,56,125,47,09,48,232,21,1*7A
$GBGSV,4,3,15,19,46,336,36,20,44,053,38,36,28,185,45,37,27,053,20,1*74
$GBGSV,4,4,15,29,24,217,,35,23,276,25,22,08,296,23,1*4C
$GBGSV,2,1,08,38,82,076,44,39,72,270,43,46,56,125,44,19,46,336,31,4*7C
$GBGSV,2,2,08,20,44,053,29,36,28,185,45,37,27,053,34,22,08,296,15,4*77
$GNACCURACY,3.6*13
$PAIRSAT,1,35,1,0,200,2,0,200,3,0,200,4,0,200,5,0,201,6,0,200,7,0,200,8,0,200,9,0,200,10,0,221,11,0,200,12,0,200,13,0,201,14,0,200,15,0,201,16,0,200,17,0,200,18,0,221,19,0,200,20,0,200,21,0,200,23,0,221,24,0,221,25,0,200,26,0,200,27,0,200,28,0,200,29,0,200,30,0,200,31,0,200,32,0,200,194,0,621,195,0,621,196,0,620,199,0,621*6A
$PAIRSAT,2,23,65,0,200,67,0,200,68,0,200,69,0,201,70,0,201,71,0,201,72,0,200,73,0,201,74,0,200,75,0,200,76,0,200,77,0,200,78,0,200,79,0,201,80,0,201,81,0,200,82,0,200,83,0,200,84,0,201,85,0,201,86,0,201,87,0,200,88,0,200*52
$PAIRSAT,3,23,2,0,1221,3,0,1221,4,0,1200,5,0,200,7,0,1221,8,0,1221,9,0,1200,10,0,1200,11,0,1200,12,0,1200,13,0,1221,15,0,1221,19,0,1200,21,0,1200,24,0,1200,25,0,1200,26,0,1221,27,0,1200,30,0,1200,31,0,1200,33,0,1200,34,0,1200,36,0,1200*69
$PAIRSAT,4,50,1,0,200,2,0,200,3,0,200,4,0,200,5,0,200,6,0,201,7,0,200,8,0,201,9,0,201,10,0,200,11,0,200,12,0,200,13,0,201,14,0,200,15,0,200,16,0,201,19,0,621,20,0,621,21,0,600,22,0,621,23,0,600,24,0,600,25,0,600,26,0,600,27,0,600,28,0,600,29,0,621,30,0,600,31,0,200,32,0,600,33,0,600,34,0,600,35,0,621,36,0,621,37,0,621,38,0,621,39,0,621,40,0,600,41,0,600,42,0,600,43,0,600,44,0,600,45,0,600,46,0,621,56,0,200,57,0,200,58,0,200,59,0,600,60,0,600,61,0,600*41
$PAIRDGP,7,5,10,13,15,18,23,24*52
$GNGGA,110910.200,2500.8029458,N,12132.4812912,E,4,58,0.45,15.835,M,15.25,M,1,3335*44
$GNRMC,110910.200,A,2500.8029458,N,12132.4812912,E,0.01,197.87,260623,,,R,V*1A
$GPHDT,,T*1B
$GNACCURACY,3.6*13
$GNGGA,110910.300,2500.8029454,N,12132.4812951,E,4,58,0.45,15.838,M,15.25,M,1,3335*43
$GNRMC,110910.300,A,2500.8029454,N,12132.4812951,E,0.01,197.87,260623,,,R,V*10
$GPHDT,,T*1B
$GNACCURACY,3.6*13
$GNGGA,110910.400,2500.8029446,N,12132.4812905,E,4,58,0.45,15.840,M,15.25,M,1,3335*49
$GNRMC,110910.400,A,2500.8029446,N,12132.4812905,E,0.01,197.87,260623,,,R,V*15
$GPHDT,,T*1B
$GNACCURACY,3.6*13
$GNGGA,110910.500,2500.8029439,N,12132.4812914,E,4,58,0.45,15.833,M,15.25,M,1,3335*44
$GNRMC,110910.500,A,2500.8029439,N,12132.4812914,E,0.01,197.87,260623,,,R,V*1C
$GPHDT,,T*1B
$GNACCURACY,3.6*13
$GNGGA,110910.600,2500.8029431,N,12132.4812934,E,4,58,0.45,15.839,M,15.25,M,0,3335*46
$GNRMC,110910.600,A,2500.8029431,N,12132.4812934,E,0.02,197.87,260623,,,R,V*16
$GPHDT,,T*1B
$GNACCURACY,3.6*13
$GNGGA,110910.700,2500.8029431,N,12132.4812920,E,4,58,0.45,15.833,M,15.25,M,0,3335*48
$GNRMC,110910.700,A,2500.8029431,N,12132.4812920,E,0.01,197.87,260623,,,R,V*11
$GPHDT,,T*1B
$GNACCURACY,3.6*13
$GNGGA,110910.800,2500.8029432,N,12132.4812924,E,4,58,0.45,15.845,M,15.25,M,0,3335*41
$GNRMC,110910.800,A,2500.8029432,N,12132.4812924,E,0.02,197.87,260623,,,R,V*1A
$GPHDT,,T*1B
$GNACCURACY,3.6*13
$GNGGA,110910.900,2500.8029433,N,12132.4812921,E,4,58,0.45,15.841,M,15.25,M,0,3335*40
$GNRMC,110910.900,A,2500.8029433,N,12132.4812921,E,0.01,197.87,260623,,,R,V*1C
$GPHDT,,T*1B
$GNACCURACY,3.6*13
$GNGGA,110911.000,2500.8029441,N,12132.4812917,E,4,58,0.45,15.835,M,15.25,M,1,3335*4A
$GNRMC,110911.000,A,2500.8029441,N,12132.4812917,E,0.01,197.87,260623,,,R,V*14
$GPHDT,,T*1B
$GNACCURACY,3.6*13
$GNGGA,110911.100,2500.8029439,N,12132.4812910,E,4,58,0.45,15.836,M,15.25,M,1,3335*40
$GNRMC,110911.100,A,2500.8029439,N,12132.4812910,E,0.01,197.87,260623,,,R,V*1D
$GPHDT,,T*1B
$GNGSA,A,3,24,196,18,199,23,15,195,194,05,13,10,,0.71,0.45,0.55,1*04
$GNGSA,A,3,80,73,86,71,79,69,84,,,,,,0.71,0.45,0.55,2*0C
$GNGSA,A,3,13,08,07,15,26,02,03,,,,,,0.71,0.45,0.55,3*08
$GNGSA,A,3,38,08,39,16,13,06,46,09,19,20,36,35,0.71,0.45,0.55,4*0B
$GNGSA,A,3,37,,,,,,,,,,,,0.71,0.45,0.55,4*07
$GPGSV,5,1,17,24,81,069,39,196,74,060,39,18,61,264,18,50,60,167,37,1*5D
$GPGSV,5,2,17,199,60,167,37,23,44,333,40,15,41,038,26,195,37,179,43,1*6F
$GPGSV,5,3,17,194,28,140,41,05,24,112,37,12,15,147,14,13,13,051,29,1*58
$GPGSV,5,4,17,10,12,315,38,32,05,262,15,29,04,202,,25,04,181,,1*6F
$GPGSV,5,5,17,20,02,126,,1*57
$GPGSV,2,1,08,24,81,069,47,196,74,060,41,18,61,264,30,199,60,167,47,8*62
$GPGSV,2,2,08,23,44,333,30,195,37,179,44,194,28,140,39,10,12,315,30,8*6D
$GLGSV,3,1,09,80,47,092,38,85,41,257,16,70,39,358,16,73,29,163,34,1*7F
$GLGSV,3,2,09,86,24,311,31,71,18,305,34,79,17,038,27,69,16,065,27,1*7F
$GLGSV,3,3,09,84,16,193,26,1*45
$GAGSV,3,1,09,13,61,243,28,08,49,017,32,07,42,294,34,15,29,174,33,7*74
$GAGSV,3,2,09,26,28,313,33,02,23,092,19,30,21,148,23,03,13,059,21,7*76
$GAGSV,3,3,09,25,04,048,,7*45
$GAGSV,2,1,07,13,61,243,32,08,49,017,29,07,42,294,36,15,29,174,35,1*78
$GAGSV,2,2,07,26,28,313,31,02,23,092,26,30,21,148,26,1*4A
$GBGSV,4,1,15,38,82,076,42,08,75,007,37,39,72,270,42,16,66,247,33,1*72
$GBGSV,4,2,15,13,65,339,41,06,64,243,31,46,56,125,47,09,48,232,21,1*7B
$GBGSV,4,3,15,19,46,336,36,20,44,053,38,36,28,185,45,37,27,053,20,1*74
$GBGSV,4,4,15,29,24,217,,35,23,276,25,22,08,296,23,1*4C
$GBGSV,2,1,08,38,82,076,44,39,72,270,42,46,56,125,44,19,46,336,30,4*7C
$GBGSV,2,2,08,20,44,053,31,36,28,185,45,37,27,053,33,22,08,296,16,4*7A
$GNACCURACY,3.6*13
$PAIRSAT,1,35,1,0,200,2,0,200,3,0,200,4,0,200,5,0,201,6,0,200,7,0,200,8,0,200,9,0,200,10,0,221,11,0,200,12,0,200,13,0,201,14,0,200,15,0,201,16,0,200,17,0,200,18,0,221,19,0,200,20,0,200,21,0,200,23,0,221,24,0,221,25,0,200,26,0,200,27,0,200,28,0,200,29,0,200,30,0,200,31,0,200,32,0,200,194,0,621,195,0,621,196,0,620,199,0,621*6A
$PAIRSAT,2,23,65,0,200,67,0,200,68,0,200,69,0,201,70,0,201,71,0,201,72,0,200,73,0,201,74,0,200,75,0,200,76,0,200,77,0,200,78,0,200,79,0,201,80,0,201,81,0,200,82,0,200,83,0,200,84,0,201,85,0,201,86,0,201,87,0,200,88,0,200*52
$PAIRSAT,3,23,2,0,1221,3,0,1221,4,0,1200,5,0,200,7,0,1221,8,0,1221,9,0,1200,10,0,1200,11,0,1200,12,0,1200,13,0,1221,15,0,1221,19,0,1200,21,0,1200,24,0,1200,25,0,1200,26,0,1221,27,0,1200,30,0,1200,31,0,1200,33,0,1200,34,0,1200,36,0,1200*69
$PAIRSAT,4,50,1,0,200,2,0,200,3,0,200,4,0,200,5,0,200,6,0,201,7,0,200,8,0,201,9,0,201,10,0,200,11,0,200,12,0,200,13,0,201,14,0,200,15,0,200,16,0,201,19,0,621,20,0,621,21,0,600,22,0,621,23,0,600,24,0,600,25,0,600,26,0,600,27,0,600,28,0,600,29,0,621,30,0,600,31,0,200,32,0,600,33,0,600,34,0,600,35,0,621,36,0,621,37,0,621,38,0,621,39,0,621,40,0,600,41,0,600,42,0,600,43,0,600,44,0,600,45,0,600,46,0,621,56,0,200,57,0,200,58,0,200,59,0,600,60,0,600,61,0,600*41
$PAIRDGP,7,5,10,13,15,18,23,24*52
$GNGGA,110911.200,2500.8029426,N,12132.4812919,E,4,58,0.45,15.843,M,15.25,M,1,3335*46
$GNRMC,110911.200,A,2500.8029426,N,12132.4812919,E,0.01,197.87,260623,,,R,V*19
$GPHDT,,T*1B
$GNACCURACY,3.6*13
$GNGGA,110911.300,2500.8029434,N,12132.4812923,E,4,58,0.45,15.834,M,15.25,M,1,3335*4D
$GNRMC,110911.300,A,2500.8029434,N,12132.4812923,E,0.02,197.87,260623,,,R,V*11
$GPHDT,,T*1B
$GNACCURACY,3.6*13
$GNGGA,110911.400,2500.8029431,N,12132.4812911,E,4,58,0.45,15.835,M,15.25,M,1,3335*4F
$GNRMC,110911.400,A,2500.8029431,N,12132.4812911,E,0.01,197.87,260623,,,R,V*11
$GPHDT,,T*1B
$GNACCURACY,3.6*13
$GNGGA,110911.500,2500.8029462,N,12132.4812936,E,4,58,0.45,15.832,M,15.25,M,1,3335*4A
$GNRMC,110911.500,A,2500.8029462,N,12132.4812936,E,0.02,197.87,260623,,,R,V*10
$GPHDT,,T*1B
$GNACCURACY,3.6*13
$GNGGA,110911.600,2500.8029444,N,12132.4812934,E,4,58,0.45,15.836,M,15.25,M,1,3335*4B
$GNRMC,110911.600,A,2500.8029444,N,12132.4812934,E,0.02,197.87,260623,,,R,V*15
$GPHDT,,T*1B
$GNACCURACY,3.6*13
$GNGGA,110911.700,2500.8029429,N,12132.4812909,E,4,58,0.45,15.832,M,15.25,M,1,3335*4B
$GNRMC,110911.700,A,2500.8029429,N,12132.4812909,E,0.02,197.87,260623,,,R,V*11
$GPHDT,,T*1B
$GNACCURACY,3.6*13
$GNGGA,110911.800,2500.8029453,N,12132.4813002,E,4,58,0.45,15.839,M,15.25,M,1,3335*41
$GNRMC,110911.800,A,2500.8029453,N,12132.4813002,E,0.00,197.87,260623,,,R,V*12
$GPHDT,,T*1B
$GNACCURACY,3.6*13
$GNGGA,110911.900,2500.8029444,N,12132.4812968,E,4,58,0.45,15.833,M,15.25,M,1,3335*48
$GNRMC,110911.900,A,2500.8029444,N,12132.4812968,E,0.00,197.87,260623,,,R,V*11
$GPHDT,,T*1B
$GNACCURACY,3.6*13
$GNGGA,110912.000,2500.8029443,N,12132.4813006,E,4,58,0.45,15.839,M,15.25,M,2,3335*4C
$GNRMC,110912.000,A,2500.8029443,N,12132.4813006,E,0.01,197.87,260623,,,R,V*1D
$GPHDT,,T*1B
$GNACCURACY,3.6*13
$GNGGA,110912.100,2500.8029406,N,12132.4813012,E,4,58,0.45,15.839,M,15.25,M,1,3335*4A
$GNRMC,110912.100,A,2500.8029406,N,12132.4813012,E,0.01,197.87,260623,,,R,V*18
$GPHDT,,T*1B
$GNGSA,A,3,24,196,18,199,23,15,195,194,05,13,10,,0.71,0.45,0.55,1*04
$GNGSA,A,3,80,73,86,71,79,69,84,,,,,,0.71,0.45,0.55,2*0C
$GNGSA,A,3,13,08,07,15,26,02,03,,,,,,0.71,0.45,0.55,3*08
$GNGSA,A,3,38,08,39,16,13,06,46,09,19,20,36,35,0.71,0.45,0.55,4*0B
$GNGSA,A,3,37,,,,,,,,,,,,0.71,0.45,0.55,4*07
$GPGSV,5,1,17,24,81,069,39,196,74,060,40,18,61,264,19,50,60,167,39,1*5C
$GPGSV,5,2,17,199,60,167,38,23,44,333,37,15,41,038,31,195,37,179,43,1*66
$GPGSV,5,3,17,194,28,140,42,05,24,112,38,12,15,147,14,13,13,051,27,1*5A
$GPGSV,5,4,17,10,12,315,39,32,06,263,15,29,04,202,,25,04,181,,1*6C
$GPGSV,5,5,17,20,02,126,,1*57
$GPGSV,2,1,08,24,81,069,47,196,74,060,41,18,61,264,31,199,60,167,47,8*63
$GPGSV,2,2,08,23,44,333,25,195,37,179,45,194,28,140,39,10,12,315,33,8*6B
$GLGSV,3,1,09,80,47,092,37,85,41,257,20,70,39,358,14,73,29,163,35,1*76
$GLGSV,3,2,09,86,24,311,31,71,18,305,32,79,17,038,26,69,16,065,25,1*7A
$GLGSV,3,3,09,84,16,193,25,1*46
$GAGSV,3,1,09,13,61,243,27,08,49,017,36,07,42,294,35,15,29,174,34,7*79
$GAGSV,3,2,09,26,28,313,32,02,23,092,19,30,21,148,23,03,13,059,21,7*77
$GAGSV,3,3,09,25,04,048,,7*45
$GAGSV,2,1,07,13,61,243,33,08,49,017,37,07,42,294,35,15,29,174,36,1*76
$GAGSV,2,2,07,26,28,313,31,02,23,092,27,30,21,148,26,1*4B
$GBGSV,4,1,15,38,82,076,42,08,75,007,37,39,72,270,43,16,66,247,33,1*73
$GBGSV,4,2,15,13,65,339,41,06,64,243,31,46,56,125,47,09,48,232,22,1*78
$GBGSV,4,3,15,19,46,336,37,20,44,053,38,36,28,185,45,37,27,053,17,1*71
$GBGSV,4,4,15,29,24,217,,35,23,276,26,22,08,296,28,1*44
$GBGSV,2,1,08,38,82,076,44,39,72,270,42,46,56,125,44,19,46,336,34,4*78
$GBGSV,2,2,08,20,44,053,30,36,28,185,45,37,27,053,33,22,08,296,16,4*7B
$GNACCURACY,3.6*13
$PAIRSAT,1,35,1,0,200,2,0,200,3,0,200,4,0,200,5,0,201,6,0,200,7,0,200,8,0,200,9,0,200,10,0,221,11,0,200,12,0,200,13,0,201,14,0,200,15,0,201,16,0,200,17,0,200,18,0,221,19,0,200,20,0,200,21,0,200,23,0,221,24,0,221,25,0,200,26,0,200,27,0,200,28,0,200,29,0,200,30,0,200,31,0,200,32,0,200,194,0,621,195,0,621,196,0,620,199,0,621*6A
$PAIRSAT,2,23,65,0,200,67,0,200,68,0,200,69,0,201,70,0,201,71,0,201,72,0,200,73,0,201,74,0,200,75,0,200,76,0,200,77,0,200,78,0,200,79,0,201,80,0,201,81,0,200,82,0,200,83,0,200,84,0,201,85,0,201,86,0,201,87,0,200,88,0,200*52
$PAIRSAT,3,23,2,0,1221,3,0,1221,4,0,1200,5,0,200,7,0,1221,8,0,1221,9,0,1200,10,0,1200,11,0,1200,12,0,1200,13,0,1221,15,0,1221,19,0,1200,21,0,1200,24,0,1200,25,0,1200,26,0,1221,27,0,1200,30,0,1200,31,0,1200,33,0,1200,34,0,1200,36,0,1200*69
$PAIRSAT,4,50,1,0,200,2,0,200,3,0,200,4,0,200,5,0,200,6,0,201,7,0,200,8,0,201,9,0,201,10,0,200,11,0,200,12,0,200,13,0,201,14,0,200,15,0,200,16,0,201,19,0,621,20,0,621,21,0,600,22,0,621,23,0,600,24,0,600,25,0,600,26,0,600,27,0,600,28,0,600,29,0,621,30,0,600,31,0,200,32,0,600,33,0,600,34,0,600,35,0,621,36,0,621,37,0,621,38,0,621,39,0,621,40,0,600,41,0,600,42,0,600,43,0,600,44,0,600,45,0,600,46,0,621,56,0,200,57,0,200,58,0,200,59,0,600,60,0,600,61,0,600*41
$PAIRDGP,7,5,10,13,15,18,23,24*52
$GNGGA,110912.200,2500.8029427,N,12132.4813002,E,4,58,0.45,15.841,M,15.25,M,1,3335*44
$GNRMC,110912.200,A,2500.8029427,N,12132.4813002,E,0.00,197.87,260623,,,R,V*18
$GPHDT,,T*1B
$GNACCURACY,3.6*13
$GNGGA,110912.300,2500.8029428,N,12132.4813008,E,4,58,0.45,15.846,M,15.25,M,1,3335*47
$GNRMC,110912.300,A,2500.8029428,N,12132.4813008,E,0.01,197.87,260623,,,R,V*1D
$GPHDT,,T*1B
$GNACCURACY,3.6*13
$GNGGA,110912.400,2500.8029435,N,12132.4813001,E,4,58,0.45,15.844,M,15.25,M,1,3335*47
$GNRMC,110912.400,A,2500.8029435,N,12132.4813001,E,0.01,197.87,260623,,,R,V*1F
$GPHDT,,T*1B
$GNACCURACY,3.6*13
$GNGGA,110912.500,2500.8029425,N,12132.4812983,E,4,58,0.45,15.838,M,15.25,M,1,3335*4E
$GNRMC,110912.500,A,2500.8029425,N,12132.4812983,E,0.02,197.87,260623,,,R,V*1E
$GPHDT,,T*1B
$GNACCURACY,3.5*10
$GNGGA,110912.600,2500.8029472,N,12132.4813018,E,4,59,0.44,15.841,M,15.25,M,1,3335*4B
$GNRMC,110912.600,A,2500.8029472,N,12132.4813018,E,0.02,197.87,260623,,,R,V*15
$GPHDT,,T*1B
$GNACCURACY,3.5*10
$GNGGA,110912.700,2500.8029545,N,12132.4813031,E,4,59,0.44,15.823,M,15.25,M,1,3335*40
$GNRMC,110912.700,A,2500.8029545,N,12132.4813031,E,0.01,197.87,260623,,,R,V*19
$GPHDT,,T*1B
$GNACCURACY,3.5*10
$GNGGA,110912.800,2500.8029548,N,12132.4812993,E,4,59,0.44,15.832,M,15.25,M,1,3335*42
$GNRMC,110912.800,A,2500.8029548,N,12132.4812993,E,0.02,197.87,260623,,,R,V*18
$GPHDT,,T*1B
$GNACCURACY,3.5*10
$GNGGA,110912.900,2500.8029457,N,12132.4812979,E,4,59,0.44,15.831,M,15.25,M,1,3335*4B
$GNRMC,110912.900,A,2500.8029457,N,12132.4812979,E,0.02,197.87,260623,,,R,V*12
$GPHDT,,T*1B
$GNACCURACY,3.5*10
$GNGGA,110913.000,2500.8029459,N,12132.4812984,E,4,59,0.44,15.826,M,15.25,M,2,3335*4A
$GNRMC,110913.000,A,2500.8029459,N,12132.4812984,E,0.02,197.87,260623,,,R,V*16
$GPHDT,,T*1B
$GNACCURACY,3.6*13
$GNGGA,110913.100,2500.8029475,N,12132.4813005,E,4,59,0.44,15.831,M,15.25,M,2,3335*42
$GNRMC,110913.100,A,2500.8029475,N,12132.4813005,E,0.03,197.87,260623,,,R,V*19
$GPHDT,,T*1B
$GNGSA,A,3,24,196,18,199,23,15,195,194,05,13,10,,0.70,0.44,0.55,1*04
$GNGSA,A,3,80,85,73,86,71,79,69,84,,,,,0.70,0.44,0.55,2*01
$GNGSA,A,3,13,08,07,15,26,02,03,,,,,,0.70,0.44,0.55,3*08
$GNGSA,A,3,38,08,39,16,13,06,46,09,19,20,36,35,0.70,0.44,0.55,4*0B
$GNGSA,A,3,37,,,,,,,,,,,,0.70,0.44,0.55,4*07
$GPGSV,5,1,17,24,81,069,39,196,74,060,40,18,61,264,20,50,60,167,40,1*58
$GPGSV,5,2,17,199,60,167,38,23,44,333,44,15,41,038,32,195,37,179,43,1*61
$GPGSV,5,3,17,194,28,140,42,05,24,112,38,12,15,147,13,13,13,051,26,1*5C
$GPGSV,5,4,17,10,12,315,37,32,06,263,15,29,04,202,,25,04,181,,1*62
$GPGSV,5,5,17,20,02,126,,1*57
$GPGSV,2,1,08,24,81,069,46,196,74,060,41,18,61,264,28,199,60,167,47,8*6A
$GPGSV,2,2,08,23,44,333,38,195,37,179,45,194,28,140,39,10,12,315,33,8*67
$GLGSV,3,1,09,80,47,092,38,85,41,257,19,70,39,358,15,73,29,163,34,1*73
$GLGSV,3,2,09,86,24,311,31,71,18,305,31,79,17,038,26,69,16,065,25,1*79
$GLGSV,3,3,09,84,16,193,25,1*46
$GAGSV,3,1,09,13,61,243,25,08,49,017,36,07,42,294,36,15,29,174,35,7*79
$GAGSV,3,2,09,26,28,313,31,02,24,092,18,30,21,148,22,03,13,059,20,7*72
$GAGSV,3,3,09,25,04,048,,7*45
$GAGSV,2,1,07,13,61,243,31,08,49,017,33,07,42,294,35,15,29,174,36,1*70
$GAGSV,2,2,07,26,28,313,30,02,24,092,27,30,21,148,24,1*4F
$GBGSV,4,1,16,38,82,076,42,08,75,007,37,39,72,270,43,16,66,247,33,1*70
$GBGSV,4,2,16,13,65,339,42,06,64,243,29,46,56,125,47,56,48,308,,1*73
$GBGSV,4,3,16,09,48,232,23,19,46,336,41,20,44,053,38,36,28,185,45,1*75
$GBGSV,4,4,16,37,27,053,18,29,24,217,,35,23,276,24,22,08,296,27,1*74
$GBGSV,2,1,08,38,82,076,44,39,72,270,42,46,56,125,44,19,46,336,40,4*7B
$GBGSV,2,2,08,20,44,053,28,36,28,185,45,37,27,053,33,22,08,296,16,4*72
$GNACCURACY,3.6*13
$PAIRSAT,1,35,1,0,200,2,0,200,3,0,200,4,0,200,5,0,201,6,0,200,7,0,200,8,0,200,9,0,200,10,0,221,11,0,200,12,0,200,13,0,201,14,0,200,15,0,201,16,0,200,17,0,200,18,0,221,19,0,200,20,0,200,21,0,200,23,0,221,24,0,221,25,0,200,26,0,200,27,0,200,28,0,200,29,0,200,30,0,200,31,0,200,32,0,200,194,0,621,195,0,621,196,0,620,199,0,621*6A
$PAIRSAT,2,23,65,0,200,67,0,200,68,0,200,69,0,201,70,0,201,71,0,201,72,0,200,73,0,201,74,0,200,75,0,200,76,0,200,77,0,200,78,0,200,79,0,201,80,0,201,81,0,200,82,0,200,83,0,200,84,0,201,85,0,201,86,0,201,87,0,200,88,0,200*52
$PAIRSAT,3,23,2,0,1221,3,0,1221,4,0,1200,5,0,200,7,0,1221,8,0,1221,9,0,1200,10,0,1200,11,0,1200,12,0,1200,13,0,1221,15,0,1221,19,0,1200,21,0,1200,24,0,1200,25,0,1200,26,0,1221,27,0,1200,30,0,1200,31,0,1200,33,0,1200,34,0,1200,36,0,1200*69
$PAIRSAT,4,50,1,0,200,2,0,200,3,0,200,4,0,200,5,0,200,6,0,201,7,0,200,8,0,201,9,0,201,10,0,200,11,0,200,12,0,200,13,0,201,14,0,200,15,0,200,16,0,201,19,0,621,20,0,621,21,0,600,22,0,621,23,0,600,24,0,600,25,0,600,26,0,600,27,0,600,28,0,600,29,0,621,30,0,600,31,0,200,32,0,600,33,0,600,34,0,600,35,0,621,36,0,621,37,0,621,38,0,621,39,0,621,40,0,600,41,0,600,42,0,600,43,0,600,44,0,600,45,0,600,46,0,621,56,0,200,57,0,200,58,0,200,59,0,600,60,0,600,61,0,600*41
$PAIRDGP,7,5,10,13,15,18,23,24*52
$GNGGA,110913.200,2500.8029469,N,12132.4812999,E,4,59,0.44,15.833,M,15.25,M,2,3335*43
$GNRMC,110913.200,A,2500.8029469,N,12132.4812999,E,0.02,197.87,260623,,,R,V*1B
$GPHDT,,T*1B
$GNACCURACY,3.6*13
$GNGGA,110913.300,2500.8029487,N,12132.4812982,E,4,59,0.44,15.822,M,15.25,M,2,3335*48
$GNRMC,110913.300,A,2500.8029487,N,12132.4812982,E,0.01,197.87,260623,,,R,V*13
$GPHDT,,T*1B
$GNACCURACY,3.5*10
$GNGGA,110913.400,2500.8029443,N,12132.4812892,E,4,59,0.44,15.829,M,15.25,M,2,3335*4C
$GNRMC,110913.400,A,2500.8029443,N,12132.4812892,E,0.01,197.87,260623,,,R,V*1C
$GPHDT,,T*1B
$GNACCURACY,3.6*13
$GNGGA,110913.500,2500.8029437,N,12132.4812907,E,4,59,0.44,15.836,M,15.25,M,2,3335*4D
$GNRMC,110913.500,A,2500.8029437,N,12132.4812907,E,0.02,197.87,260623,,,R,V*10
$GPHDT,,T*1B
$GNACCURACY,3.6*13
$GNGGA,110913.600,2500.8029447,N,12132.4812937,E,4,59,0.44,15.833,M,15.25,M,2,3335*4F
$GNRMC,110913.600,A,2500.8029447,N,12132.4812937,E,0.01,197.87,260623,,,R,V*14
$GPHDT,,T*1B
$GNACCURACY,3.6*13
$GNGGA,110913.700,2500.8029449,N,12132.4812898,E,4,59,0.44,15.827,M,15.25,M,2,3335*41
$GNRMC,110913.700,A,2500.8029449,N,12132.4812898,E,0.01,197.87,260623,,,R,V*1F
$GPHDT,,T*1B
$GNACCURACY,3.6*13
$GNGGA,110913.800,2500.8029450,N,12132.4812911,E,4,59,0.44,15.835,M,15.25,M,2,3335*45
$GNRMC,110913.800,A,2500.8029450,N,12132.4812911,E,0.01,197.87,260623,,,R,V*18
$GPHDT,,T*1B
$GNACCURACY,3.6*13
$GNGGA,110913.900,2500.8029442,N,12132.4812914,E,4,59,0.44,15.830,M,15.25,M,2,3335*47
$GNRMC,110913.900,A,2500.8029442,N,12132.4812914,E,0.01,197.87,260623,,,R,V*1F
$GPHDT,,T*1B
$GNACCURACY,3.6*13
$GNGGA,110914.000,2500.8029437,N,12132.4812890,E,4,59,0.44,15.830,M,15.25,M,3,3335*47
$GNRMC,110914.000,A,2500.8029437,N,12132.4812890,E,0.00,197.87,260623,,,R,V*1F
$GPHDT,,T*1B
$GNACCURACY,3.6*13
$GNGGA,110914.100,2500.8029434,N,12132.4812902,E,4,59,0.44,15.837,M,15.25,M,3,3335*48
$GNRMC,110914.100,A,2500.8029434,N,12132.4812902,E,0.01,197.87,260623,,,R,V*16
$GPHDT,,T*1B
$GNGSA,A,3,24,196,18,199,23,15,195,194,05,13,10,,0.70,0.44,0.55,1*04
$GNGSA,A,3,80,85,73,86,71,79,69,84,,,,,0.70,0.44,0.55,2*01
$GNGSA,A,3,13,08,07,15,26,02,03,,,,,,0.70,0.44,0.55,3*08
$GNGSA,A,3,38,08,39,16,13,06,46,09,19,20,36,35,0.70,0.44,0.55,4*0B
$GNGSA,A,3,37,,,,,,,,,,,,0.70,0.44,0.55,4*07
$GPGSV,5,1,17,24,81,069,39,196,74,060,40,18,61,264,20,50,60,167,40,1*58
$GPGSV,5,2,17,199,60,167,38,23,44,333,44,15,41,038,26,195,37,179,43,1*64
$GPGSV,5,3,17,194,28,140,42,05,24,112,38,12,15,147,14,13,13,051,26,1*5B
$GPGSV,5,4,17,10,12,315,37,32,06,263,14,29,04,202,,25,04,181,,1*63
$GPGSV,5,5,17,20,02,126,,1*57
$GPGSV,2,1,08,24,81,069,46,196,74,060,41,18,61,264,29,199,60,167,48,8*64
$GPGSV,2,2,08,23,44,333,43,195,37,179,45,194,28,140,40,10,12,315,30,8*66
$GLGSV,3,1,09,80,47,092,37,85,41,257,20,70,39,358,16,73,29,163,35,1*74
$GLGSV,3,2,09,86,24,311,33,71,18,305,31,79,17,038,26,69,16,065,25,1*7B
$GLGSV,3,3,09,84,16,193,24,1*47
$GAGSV,3,1,09,13,61,243,25,08,49,017,34,07,42,294,36,15,29,174,34,7*7A
$GAGSV,3,2,09,26,28,313,31,02,24,092,18,30,21,148,22,03,13,059,20,7*72
$GAGSV,3,3,09,25,04,048,,7*45
$GAGSV,2,1,07,13,61,243,31,08,49,017,33,07,42,294,35,15,29,174,35,1*73
$GAGSV,2,2,07,26,28,313,30,02,24,092,27,30,21,148,25,1*4E
$GBGSV,4,1,15,38,82,076,42,08,75,007,37,39,72,270,43,16,66,247,30,1*70
$GBGSV,4,2,15,13,65,339,43,06,64,243,29,46,56,125,47,09,48,232,23,1*72
$GBGSV,4,3,15,19,46,336,43,20,44,053,38,36,28,185,45,37,27,053,17,1*72
$GBGSV,4,4,15,29,24,217,,35,23,276,25,22,08,296,25,1*4A
$GBGSV,2,1,08,38,82,076,44,39,72,270,42,46,56,125,44,19,46,336,43,4*78
$GBGSV,2,2,08,20,44,053,30,36,28,185,45,37,27,053,34,22,08,296,15,4*7F
$GNACCURACY,3.6*13
$PAIRSAT,1,35,1,0,200,2,0,200,3,0,200,4,0,200,5,0,201,6,0,200,7,0,200,8,0,200,9,0,200,10,0,221,11,0,200,12,0,200,13,0,201,14,0,200,15,0,201,16,0,200,17,0,200,18,0,221,19,0,200,20,0,200,21,0,200,23,0,221,24,0,221,25,0,200,26,0,200,27,0,200,28,0,200,29,0,200,30,0,200,31,0,200,32,0,200,194,0,621,195,0,621,196,0,620,199,0,621*6A
$PAIRSAT,2,23,65,0,200,67,0,200,68,0,200,69,0,201,70,0,201,71,0,201,72,0,200,73,0,201,74,0,200,75,0,200,76,0,200,77,0,200,78,0,200,79,0,201,80,0,201,81,0,200,82,0,200,83,0,200,84,0,201,85,0,201,86,0,201,87,0,200,88,0,200*52
$PAIRSAT,3,23,2,0,1221,3,0,1221,4,0,1200,5,0,200,7,0,1221,8,0,1221,9,0,1200,10,0,1200,11,0,1200,12,0,1200,13,0,1221,15,0,1221,19,0,1200,21,0,1200,24,0,1200,25,0,1200,26,0,1221,27,0,1200,30,0,1200,31,0,1200,33,0,1200,34,0,1200,36,0,1200*69
$PAIRSAT,4,50,1,0,200,2,0,200,3,0,200,4,0,200,5,0,200,6,0,201,7,0,200,8,0,201,9,0,201,10,0,200,11,0,200,12,0,200,13,0,201,14,0,200,15,0,200,16,0,201,19,0,621,20,0,621,21,0,600,22,0,621,23,0,600,24,0,600,25,0,600,26,0,600,27,0,600,28,0,600,29,0,621,30,0,600,31,0,200,32,0,600,33,0,600,34,0,600,35,0,621,36,0,621,37,0,621,38,0,621,39,0,621,40,0,600,41,0,600,42,0,600,43,0,600,44,0,600,45,0,600,46,0,621,56,0,200,57,0,200,58,0,200,59,0,600,60,0,600,61,0,600*41
$PAIRDGP,7,5,10,13,15,18,23,24*52
$GNGGA,110914.200,2500.8029452,N,12132.4812930,E,4,59,0.44,15.831,M,15.25,M,3,3335*4C
$GNRMC,110914.200,A,2500.8029452,N,12132.4812930,E,0.01,197.87,260623,,,R,V*14
$GPHDT,,T*1B
$GNACCURACY,3.6*13
$GNGGA,110914.300,2500.8029452,N,12132.4812914,E,4,59,0.44,15.825,M,15.25,M,3,3335*4E
$GNRMC,110914.300,A,2500.8029452,N,12132.4812914,E,0.01,197.87,260623,,,R,V*13
$GPHDT,,T*1B
$GNACCURACY,3.7*12
$GNGGA,110914.400,2500.8029457,N,12132.4812908,E,4,59,0.44,15.832,M,15.25,M,3,3335*47
$GNRMC,110914.400,A,2500.8029457,N,12132.4812908,E,0.01,197.87,260623,,,R,V*1C
$GPHDT,,T*1B
$GNACCURACY,3.7*12
$GNGGA,110914.500,2500.8029463,N,12132.4812912,E,4,59,0.44,15.832,M,15.25,M,3,3335*4A
$GNRMC,110914.500,A,2500.8029463,N,12132.4812912,E,0.01,197.87,260623,,,R,V*11
$GPHDT,,T*1B
$GNACCURACY,3.7*12
$GNGGA,110914.600,2500.8029443,N,12132.4812903,E,4,60,0.44,15.834,M,15.25,M,3,3335*47
$GNRMC,110914.600,A,2500.8029443,N,12132.4812903,E,0.01,197.87,260623,,,R,V*10
$GPHDT,,T*1B
$GNACCURACY,3.7*12
$GNGGA,110914.700,2500.8029463,N,12132.4812913,E,4,60,0.44,15.831,M,15.25,M,3,3335*40
$GNRMC,110914.700,A,2500.8029463,N,12132.4812913,E,0.01,197.87,260623,,,R,V*12
$GPHDT,,T*1B
$GNACCURACY,3.7*12
$GNGGA,110914.800,2500.8029475,N,12132.4812902,E,4,61,0.43,15.829,M,15.25,M,3,3335*47
$GNRMC,110914.800,A,2500.8029475,N,12132.4812902,E,0.02,197.87,260623,,,R,V*19
$GPHDT,,T*1B
$GNACCURACY,3.7*12
$GNGGA,110914.900,2500.8029466,N,12132.4812933,E,4,60,0.44,15.827,M,15.25,M,3,3335*4E
$GNRMC,110914.900,A,2500.8029466,N,12132.4812933,E,0.02,197.87,260623,,,R,V*18
$GPHDT,,T*1B
$GNACCURACY,3.7*12
$GNGGA,110915.000,2500.8029470,N,12132.4812907,E,4,60,0.44,15.828,M,15.25,M,4,3335*4E
$GNRMC,110915.000,A,2500.8029470,N,12132.4812907,E,0.01,197.87,260623,,,R,V*13
$GPHDT,,T*1B
$GNACCURACY,3.7*12
$GNGGA,110915.100,2500.8029475,N,12132.4812917,E,4,60,0.44,15.830,M,15.25,M,4,3335*42
$GNRMC,110915.100,A,2500.8029475,N,12132.4812917,E,0.02,197.87,260623,,,R,V*15
$GPHDT,,T*1B
$GNGSA,A,3,24,196,18,199,23,15,195,194,05,10,,,0.71,0.44,0.56,1*04
$GNGSA,A,3,80,85,70,73,86,71,79,69,84,,,,0.71,0.44,0.56,2*04
$GNGSA,A,3,13,08,07,26,15,02,03,,,,,,0.71,0.44,0.56,3*0A
$GNGSA,A,3,38,08,39,16,13,06,46,09,19,20,36,35,0.71,0.44,0.56,4*09
$GNGSA,A,3,37,,,,,,,,,,,,0.71,0.44,0.56,4*05
$GPGSV,5,1,17,24,81,069,39,196,74,060,40,18,61,264,17,50,60,167,39,1*52
$GPGSV,5,2,17,199,60,167,38,23,44,333,44,15,41,038,28,195,37,179,43,1*6A
$GPGSV,5,3,17,194,28,140,43,05,24,112,38,12,15,147,13,13,13,051,25,1*5E
$GPGSV,5,4,17,10,12,315,37,32,06,263,15,29,04,202,,25,04,181,,1*62
$GPGSV,5,5,17,20,02,126,,1*57
$GPGSV,2,1,08,24,81,069,46,196,74,060,41,18,61,264,29,199,60,167,48,8*64
$GPGSV,2,2,08,23,44,333,43,195,37,179,45,194,28,140,40,10,12,315,31,8*67
$GLGSV,3,1,09,80,47,092,37,85,41,257,21,70,39,358,16,73,29,163,35,1*75
$GLGSV,3,2,09,86,24,311,33,71,18,305,32,79,17,038,26,69,16,065,23,1*7E
$GLGSV,3,3,09,84,16,193,24,1*47
$GAGSV,3,1,09,13,61,243,20,08,49,017,33,07,42,294,35,26,29,312,31,7*7C
$GAGSV,3,2,09,15,29,174,34,02,24,092,17,30,21,148,23,03,13,059,20,7*7B
$GAGSV,3,3,09,25,04,048,,7*45
$GAGSV,2,1,08,13,61,243,32,08,49,017,32,07,42,294,35,15,29,174,35,1*7E
$GAGSV,2,2,08,26,29,312,30,02,24,092,27,30,21,148,25,03,13,059,21,1*7F
$GBGSV,4,1,15,38,82,076,42,08,75,007,37,39,72,270,43,16,66,247,33,1*73
$GBGSV,4,2,15,13,65,339,43,06,64,243,31,46,56,125,47,09,48,232,23,1*7B
$GBGSV,4,3,15,19,46,336,43,20,44,053,37,36,28,185,45,37,27,053,21,1*78
$GBGSV,4,4,15,29,24,217,,35,23,276,25,22,08,296,24,1*4B
$GBGSV,2,1,08,38,82,076,44,39,72,270,42,46,56,125,44,19,46,336,43,4*78
$GBGSV,2,2,08,20,44,053,32,36,28,185,45,37,27,053,34,22,08,296,16,4*7E
$GNACCURACY,3.7*12
$PAIRSAT,1,35,1,0,200,2,0,200,3,0,200,4,0,200,5,0,201,6,0,200,7,0,200,8,0,200,9,0,200,10,0,221,11,0,200,12,0,200,13,0,201,14,0,200,15,0,201,16,0,200,17,0,200,18,0,221,19,0,200,20,0,200,21,0,200,23,0,221,24,0,221,25,0,200,26,0,200,27,0,200,28,0,200,29,0,200,30,0,200,31,0,200,32,0,200,194,0,621,195,0,621,196,0,620,199,0,621*6A
$PAIRSAT,2,23,65,0,200,67,0,200,68,0,200,69,0,201,70,0,201,71,0,201,72,0,200,73,0,201,74,0,200,75,0,200,76,0,200,77,0,200,78,0,200,79,0,201,80,0,201,81,0,200,82,0,200,83,0,200,84,0,201,85,0,201,86,0,201,87,0,200,88,0,200*52
$PAIRSAT,3,23,2,0,1221,3,0,1221,4,0,1200,5,0,200,7,0,1221,8,0,1221,9,0,1200,10,0,1200,11,0,1200,12,0,1200,13,0,1221,15,0,1221,19,0,1200,21,0,1200,24,0,1200,25,0,1200,26,0,1221,27,0,1200,30,0,1200,31,0,1200,33,0,1200,34,0,1200,36,0,1200*69
$PAIRSAT,4,50,1,0,200,2,0,200,3,0,200,4,0,200,5,0,200,6,0,201,7,0,200,8,0,201,9,0,201,10,0,200,11,0,200,12,0,200,13,0,201,14,0,200,15,0,200,16,0,201,19,0,621,20,0,621,21,0,600,22,0,621,23,0,600,24,0,600,25,0,600,26,0,600,27,0,600,28,0,600,29,0,621,30,0,600,31,0,200,32,0,600,33,0,600,34,0,600,35,0,621,36,0,621,37,0,621,38,0,621,39,0,621,40,0,600,41,0,600,42,0,600,43,0,600,44,0,600,45,0,600,46,0,621,56,0,200,57,0,200,58,0,200,59,0,600,60,0,600,61,0,600*41
$PAIRDGP,7,5,10,13,15,18,23,24*52
$GNGGA,110915.200,2500.8029459,N,12132.4812933,E,4,60,0.44,15.847,M,15.25,M,2,3335*4F
$GNRMC,110915.200,A,2500.8029459,N,12132.4812933,E,0.01,197.87,260623,,,R,V*1D
$GPHDT,,T*1B
$GNACCURACY,3.8*1D
$GNGGA,110915.300,2500.8029471,N,12132.4812912,E,4,61,0.43,15.848,M,15.25,M,2,3335*4E
$GNRMC,110915.300,A,2500.8029471,N,12132.4812912,E,0.02,197.87,260623,,,R,V*16
$GPHDT,,T*1B
$GNACCURACY,3.8*1D
$GNGGA,110915.400,2500.8029489,N,12132.4813013,E,4,62,0.43,15.850,M,15.25,M,1,3335*4E
$GNRMC,110915.400,A,2500.8029489,N,12132.4813013,E,0.01,197.87,260623,,,R,V*1C
$GPHDT,,T*1B
$GNACCURACY,3.8*1D
$GNGGA,110915.500,2500.8029477,N,12132.4812998,E,4,62,0.43,15.850,M,15.25,M,1,3335*45
$GNRMC,110915.500,A,2500.8029477,N,12132.4812998,E,0.02,197.87,260623,,,R,V*14
$GPHDT,,T*1B
$GNACCURACY,3.7*12
$GNGGA,110915.600,2500.8029438,N,12132.4812960,E,4,62,0.43,15.843,M,15.25,M,0,3335*49
$GNRMC,110915.600,A,2500.8029438,N,12132.4812960,E,0.02,197.87,260623,,,R,V*1B
$GPHDT,,T*1B
$GNACCURACY,3.7*12
$GNGGA,110915.700,2500.8029448,N,12132.4812954,E,4,62,0.43,15.854,M,15.25,M,0,3335*4E
$GNRMC,110915.700,A,2500.8029448,N,12132.4812954,E,0.02,197.87,260623,,,R,V*1A
$GPHDT,,T*1B
$GNACCURACY,3.7*12
$GNGGA,110915.800,2500.8029423,N,12132.4812968,E,4,62,0.43,15.856,M,15.25,M,0,3335*41
$GNRMC,110915.800,A,2500.8029423,N,12132.4812968,E,0.02,197.87,260623,,,R,V*17
$GPHDT,,T*1B
$GNACCURACY,3.7*12
$GNGGA,110915.900,2500.8029455,N,12132.4813038,E,4,62,0.43,15.848,M,15.25,M,0,3335*43
$GNRMC,110915.900,A,2500.8029455,N,12132.4813038,E,0.02,1