$FW : RTK35X,V1.1X0314AS,Lib20210517,1*54
$Tool : LOCOSYS , GNSS Firebird , v1.0.0.19*39
$---------------------------------------------------*2D
.42,0.65,4*04
$GNGSA,A,3,29,35,,,,,,,,,,,0.78,0.42,0.65,4*03
$GPGSV,4,1,16,24,81,074,39,196,74,060,36,18,61,265,30,199,60,167,37,1*61
$GPGSV,4,2,16,23,43,333,44,15,41,038,37,195,37,179,42,194,28,140,43,1*6A
$GPGSV,4,3,16,05,24,111,42,12,15,148,19,13,13,051,26,10,12,314,38,1*6D
$GPGSV,4,4,16,29,05,203,,32,05,262,13,25,04,181,,20,03,125,,1*60
$GPGSV,2,1,08,24,81,074,50,196,74,060,42,18,61,265,32,199,60,167,45,8*6A
$GPGSV,2,2,08,23,43,333,41,195,37,179,43,194,28,140,37,10,12,314,41,8*62
$GLGSV,3,1,09,80,47,093,42,85,41,258,16,70,39,357,25,73,28,163,28,1*7F
$GLGSV,3,2,09,86,24,312,24,71,18,305,24,84,17,194,25,79,17,039,22,1*72
$GLGSV,3,3,09,69,16,064,25,1*4C
$GAGSV,3,1,09,13,62,244,31,08,50,017,39,07,42,294,33,15,30,174,31,7*76
$GAGSV,3,2,09,26,28,313,32,02,23,093,20,30,20,148,21,03,14,059,17,7*7D
$GAGSV,3,3,09,25,04,049,,7*44
$GAGSV,2,1,08,13,62,244,30,08,50,017,39,07,42,294,31,15,30,174,34,1*76
$GAGSV,2,2,08,26,28,313,34,02,23,093,14,30,20,148,20,03,14,059,18,1*74
$GBGSV,4,1,15,38,82,073,41,08,75,007,37,39,72,269,41,16,66,246,33,1*7E
$GBGSV,4,2,15,13,65,339,45,06,64,242,26,46,55,126,45,09,48,231,23,1*7B
$GBGSV,4,3,15,20,45,052,39,19,45,335,42,36,27,185,44,37,27,053,35,1*7C
$GBGSV,4,4,15,29,24,217,34,35,23,277,28,22,08,295,21,1*46
$GBGSV,3,1,10,38,82,073,44,39,72,269,41,46,55,126,47,20,45,052,29,4*79
$GBGSV,3,2,10,19,45,335,42,37,27,053,32,36,27,185,40,29,24,217,28,4*74
$GBGSV,3,3,10,35,23,277,28,22,08,295,24,4*7D
$GNACCURACY,3.5*10
$PAIRSAT,1,35,1,0,200,2,0,200,3,0,200,4,0,200,5,0,201,6,0,200,7,0,200,8,0,200,9,0,200,10,0,221,11,0,200,12,0,200,13,0,201,14,0,200,15,0,201,16,0,200,17,0,200,18,0,221,19,0,200,20,0,200,21,0,200,23,0,221,24,0,221,25,0,200,26,0,200,27,0,200,28,0,200,29,0,200,30,0,200,31,0,200,32,0,200,194,0,621,195,0,621,196,0,620,199,0,621*6A
$PAIRSAT,2,23,65,0,200,67,0,200,68,0,200,69,0,201,70,0,201,71,0,201,72,0,200,73,0,201,74,0,200,75,0,200,76,0,200,77,0,200,78,0,200,79,0,201,80,0,201,81,0,200,82,0,200,83,0,200,84,0,201,85,0,201,86,0,201,87,0,200,88,0,200*52
$PAIRSAT,3,23,2,0,1221,3,0,1221,4,0,1200,5,0,200,7,0,1221,8,0,1221,9,0,1200,10,0,1200,11,0,1200,12,0,1200,13,0,1221,15,0,1221,19,0,1200,21,0,1200,24,0,1200,25,0,1200,26,0,1221,27,0,1200,30,0,1200,31,0,1200,33,0,1200,34,0,1200,36,0,1200*69
$PAIRSAT,4,50,1,0,200,2,0,200,3,0,200,4,0,200,5,0,200,6,0,201,7,0,200,8,0,201,9,0,201,10,0,200,11,0,200,12,0,200,13,0,201,14,0,200,15,0,200,16,0,201,19,0,621,20,0,621,21,0,600,22,0,621,23,0,600,24,0,600,25,0,600,26,0,600,27,0,600,28,0,600,29,0,621,30,0,600,31,0,200,32,0,600,33,0,600,34,0,600,35,0,621,36,0,621,37,0,621,38,0,621,39,0,621,40,0,600,41,0,600,42,0,600,43,0,600,44,0,600,45,0,600,46,0,621,56,0,200,57,0,200,58,0,200,59,0,600,60,0,600,61,0,600*41
$PAIRDGP,1,15*6C
$GNGGA,110744.200,2500.8029681,N,12132.4812664,E,4,65,0.42,15.837,M,15.25,M,20,3335*7B
$GNRMC,110744.200,A,2500.8029681,N,12132.4812664,E,0.00,197.87,260623,,,R,V*1C
$GPHDT,,T*1B
$GNACCURACY,3.5*10
$GNGGA,110744.300,2500.8029741,N,12132.4812697,E,4,65,0.42,15.867,M,15.25,M,20,3335*7E
$GNRMC,110744.300,A,2500.8029741,N,12132.4812697,E,0.00,197.87,260623,,,R,V*1C
$GPHDT,,T*1B
$GNACCURACY,3.5*10
$GNGGA,110744.400,2500.8029739,N,12132.4812675,E,4,64,0.42,15.888,M,15.25,M,20,3335*7A
$GNRMC,110744.400,A,2500.8029739,N,12132.4812675,E,0.00,197.87,260623,,,R,V*18
$GPHDT,,T*1B
$GNACCURACY,3.5*10
$GNGGA,110744.500,2500.8029765,N,12132.4812679,E,4,63,0.42,15.896,M,15.25,M,20,3335*76
$GNRMC,110744.500,A,2500.8029765,N,12132.4812679,E,0.01,197.87,260623,,,R,V*1D
$GPHDT,,T*1B
$GNACCURACY,3.5*10
$GNGGA,110744.600,2500.8029755,N,12132.4812657,E,4,63,0.42,15.894,M,15.25,M,20,3335*78
$GNRMC,110744.600,A,2500.8029755,N,12132.4812657,E,0.00,197.87,260623,,,R,V*10
$GPHDT,,T*1B
$GNACCURACY,3.5*10
$GNGGA,110744.700,2500.8029768,N,12132.4812714,E,4,63,0.42,15.888,M,15.25,M,20,3335*7C
$GNRMC,110744.700,A,2500.8029768,N,12132.4812714,E,0.01,197.87,260623,,,R,V*18
$GPHDT,,T*1B
$GNACCURACY,3.5*10
$GNGGA,110744.800,2500.8029733,N,12132.4812701,E,4,64,0.42,15.875,M,15.25,M,20,3335*7C
$GNRMC,110744.800,A,2500.8029733,N,12132.4812701,E,0.01,197.87,260623,,,R,V*1D
$GPHDT,,T*1B
$GNACCURACY,3.5*10
$GNGGA,110744.900,2500.8029769,N,12132.4812731,E,4,63,0.42,15.893,M,15.25,M,20,3335*7E
$GNRMC,110744.900,A,2500.8029769,N,12132.4812731,E,0.01,197.87,260623,,,R,V*10
$GPHDT,,T*1B
$GNACCURACY,3.5*10
$GNGGA,110745.000,2500.8029754,N,12132.4812685,E,4,62,0.44,15.906,M,15.25,M,21,3335*7D
$GNRMC,110745.000,A,2500.8029754,N,12132.4812685,E,0.00,197.87,260623,,,R,V*19
$GPHDT,,T*1B
$GNACCURACY,3.5*10
$GNGGA,110745.100,2500.8029718,N,12132.4812671,E,4,63,0.42,15.879,M,15.25,M,21,3335*71
$GNRMC,110745.100,A,2500.8029718,N,12132.4812671,E,0.00,197.87,260623,,,R,V*1B
$GPHDT,,T*1B
$GNGSA,A,3,24,196,18,199,23,15,195,194,05,13,10,,0.78,0.42,0.65,1*09
$GNGSA,A,3,80,85,70,73,86,71,79,84,69,,,,0.78,0.42,0.65,2*0B
$GNGSA,A,3,13,08,07,15,26,02,03,,,,,,0.78,0.42,0.65,3*05
$GNGSA,A,3,38,08,39,16,13,06,46,09,19,20,36,37,0.78,0.42,0.65,4*04
$GNGSA,A,3,29,35,,,,,,,,,,,0.78,0.42,0.65,4*03
$GPGSV,4,1,16,24,81,074,38,196,74,060,37,18,61,265,32,199,60,167,37,1*63
$GPGSV,4,2,16,23,43,333,44,15,41,038,37,195,37,179,44,194,28,140,43,1*6C
$GPGSV,4,3,16,05,24,111,42,12,15,148,19,13,13,051,25,10,12,314,38,1*6E
$GPGSV,4,4,16,29,05,203,,32,05,262,14,25,04,181,,20,03,125,,1*67
$GPGSV,2,1,08,24,81,074,49,196,74,060,42,18,61,265,31,199,60,167,46,8*62
$GPGSV,2,2,08,23,43,333,41,195,37,179,44,194,28,140,41,10,12,314,41,8*64
$GLGSV,3,1,09,80,47,093,42,85,41,258,18,70,39,357,25,73,28,163,25,1*7C
$GLGSV,3,2,09,86,24,312,24,71,18,305,23,79,17,039,21,84,17,194,25,1*76
$GLGSV,3,3,09,69,16,064,24,1*4D
$GAGSV,3,1,09,13,62,244,32,08,50,017,39,07,42,294,33,15,30,174,29,7*7C
$GAGSV,3,2,09,26,28,313,31,02,23,093,23,30,20,148,21,03,14,059,16,7*7C
$GAGSV,3,3,09,25,04,049,,7*44
$GAGSV,2,1,07,13,62,244,33,08,50,017,41,07,42,294,32,15,30,174,34,1*76
$GAGSV,2,2,07,26,28,313,34,30,20,148,22,03,14,059,18,1*45
$GBGSV,4,1,16,38,82,074,41,08,75,007,37,39,72,269,42,16,66,246,34,1*7E
$GBGSV,4,2,16,13,65,339,45,06,64,242,26,46,55,126,45,09,48,231,22,1*79
$GBGSV,4,3,16,19,45,335,42,20,45,052,40,36,27,185,45,37,27,053,35,1*70
$GBGSV,4,4,16,29,24,217,34,35,23,277,27,22,08,295,22,32,05,092,,1*76
$GBGSV,3,1,10,38,82,074,44,39,72,269,41,46,55,126,47,20,45,052,27,4*70
$GBGSV,3,2,10,19,45,335,43,37,27,053,31,36,27,185,41,29,24,217,28,4*77
$GBGSV,3,3,10,35,23,277,28,22,08,295,24,4*7D
$GNACCURACY,3.5*10
$PAIRSAT,1,35,1,0,200,2,0,200,3,0,200,4,0,200,5,0,201,6,0,200,7,0,200,8,0,200,9,0,200,10,0,221,11,0,200,12,0,200,13,0,201,14,0,200,15,0,201,16,0,200,17,0,200,18,0,221,19,0,200,20,0,200,21,0,200,23,0,221,24,0,221,25,0,200,26,0,200,27,0,200,28,0,200,29,0,200,30,0,200,31,0,200,32,0,200,194,0,621,195,0,621,196,0,620,199,0,621*6A
$PAIRSAT,2,23,65,0,200,67,0,200,68,0,200,69,0,201,70,0,201,71,0,201,72,0,200,73,0,201,74,0,200,75,0,200,76,0,200,77,0,200,78,0,200,79,0,201,80,0,201,81,0,200,82,0,200,83,0,200,84,0,201,85,0,201,86,0,201,87,0,200,88,0,200*52
$PAIRSAT,3,23,2,0,1221,3,0,1221,4,0,1200,5,0,200,7,0,1221,8,0,1221,9,0,1200,10,0,1200,11,0,1200,12,0,1200,13,0,1221,15,0,1221,19,0,1200,21,0,1200,24,0,1200,25,0,1200,26,0,1221,27,0,1200,30,0,1200,31,0,1200,33,0,1200,34,0,1200,36,0,1200*69
$PAIRSAT,4,50,1,0,200,2,0,200,3,0,200,4,0,200,5,0,200,6,0,201,7,0,200,8,0,201,9,0,201,10,0,200,11,0,200,12,0,200,13,0,201,14,0,200,15,0,200,16,0,201,19,0,621,20,0,621,21,0,600,22,0,621,23,0,600,24,0,600,25,0,600,26,0,600,27,0,600,28,0,600,29,0,621,30,0,600,31,0,200,32,0,600,33,0,600,34,0,600,35,0,621,36,0,621,37,0,621,38,0,621,39,0,621,40,0,600,41,0,600,42,0,600,43,0,600,44,0,600,45,0,600,46,0,621,56,0,200,57,0,200,58,0,200,59,0,600,60,0,600,61,0,600*41
$PAIRDGP,1,15*6C
$GNGGA,110745.200,2500.8029699,N,12132.4812649,E,4,64,0.42,15.861,M,15.25,M,21,3335*7F
$GNRMC,110745.200,A,2500.8029699,N,12132.4812649,E,0.00,197.87,260623,,,R,V*1B
$GPHDT,,T*1B
$GNACCURACY,3.5*10
$GNGGA,110745.300,2500.8029760,N,12132.4812674,E,4,64,0.42,15.899,M,15.25,M,21,3335*70
$GNRMC,110745.300,A,2500.8029760,N,12132.4812674,E,0.00,197.87,260623,,,R,V*13
$GPHDT,,T*1B
$GNACCURACY,3.5*10
$GNGGA,110745.400,2500.8029789,N,12132.4812707,E,4,64,0.42,15.893,M,15.25,M,21,3335*7F
$GNRMC,110745.400,A,2500.8029789,N,12132.4812707,E,0.00,197.87,260623,,,R,V*16
$GPHDT,,T*1B
$GNACCURACY,3.5*10
$GNGGA,110745.500,2500.8029790,N,12132.4812710,E,4,64,0.42,15.897,M,15.25,M,21,3335*74
$GNRMC,110745.500,A,2500.8029790,N,12132.4812710,E,0.00,197.87,260623,,,R,V*19
$GPHDT,,T*1B
$GNACCURACY,3.5*10
$GNGGA,110745.600,2500.8029798,N,12132.4812731,E,4,64,0.42,15.906,M,15.25,M,21,3335*75
$GNRMC,110745.600,A,2500.8029798,N,12132.4812731,E,0.00,197.87,260623,,,R,V*11
$GPHDT,,T*1B
$GNACCURACY,3.5*10
$GNGGA,110745.700,2500.8029817,N,12132.4812746,E,4,64,0.42,15.902,M,15.25,M,21,3335*78
$GNRMC,110745.700,A,2500.8029817,N,12132.4812746,E,0.00,197.87,260623,,,R,V*18
$GPHDT,,T*1B
$GNACCURACY,3.5*10
$GNGGA,110745.800,2500.8029801,N,12132.4812745,E,4,64,0.42,15.888,M,15.25,M,21,3335*70
$GNRMC,110745.800,A,2500.8029801,N,12132.4812745,E,0.00,197.87,260623,,,R,V*13
$GPHDT,,T*1B
$GNACCURACY,3.5*10
$GNGGA,110745.900,2500.8029818,N,12132.4812713,E,4,64,0.42,15.903,M,15.25,M,21,3335*78
$GNRMC,110745.900,A,2500.8029818,N,12132.4812713,E,0.00,197.87,260623,,,R,V*19
$GPHDT,,T*1B
$GNACCURACY,3.5*10
$GNGGA,110746.000,2500.8029778,N,12132.4812715,E,4,64,0.42,15.903,M,15.25,M,22,3335*7E
$GNRMC,110746.000,A,2500.8029778,N,12132.4812715,E,0.00,197.87,260623,,,R,V*1C
$GPHDT,,T*1B
$GNACCURACY,3.5*10
$GNGGA,110746.100,2500.8029848,N,12132.4812765,E,4,64,0.42,15.919,M,15.25,M,22,3335*7F
$GNRMC,110746.100,A,2500.8029848,N,12132.4812765,E,0.00,197.87,260623,,,R,V*16
$GPHDT,,T*1B
$GNGSA,A,3,24,196,18,199,23,15,195,194,05,13,10,,0.78,0.42,0.65,1*09
$GNGSA,A,3,80,85,70,73,86,71,84,79,69,,,,0.78,0.42,0.65,2*0B
$GNGSA,A,3,13,08,07,15,26,02,03,,,,,,0.78,0.42,0.65,3*05
$GNGSA,A,3,38,08,39,16,13,06,46,09,20,19,36,37,0.78,0.42,0.65,4*04
$GNGSA,A,3,29,35,,,,,,,,,,,0.78,0.42,0.65,4*03
$GPGSV,4,1,16,24,81,074,38,196,74,060,37,18,61,265,31,199,60,167,36,1*61
$GPGSV,4,2,16,23,43,333,44,15,41,038,36,195,37,179,44,194,28,140,43,1*6D
$GPGSV,4,3,16,05,24,111,42,12,15,148,19,13,13,051,25,10,12,314,38,1*6E
$GPGSV,4,4,16,29,05,203,,32,05,262,13,25,04,181,,20,03,125,,1*60
$GPGSV,2,1,08,24,81,074,49,196,74,060,42,18,61,265,32,199,60,167,46,8*61
$GPGSV,2,2,08,23,43,333,42,195,37,179,43,194,28,140,42,10,12,314,42,8*60
$GLGSV,3,1,09,80,47,093,41,85,41,258,12,70,39,357,25,73,28,163,27,1*77
$GLGSV,3,2,09,86,24,312,24,71,18,305,24,84,17,194,23,79,17,039,22,1*74
$GLGSV,3,3,09,69,16,064,23,1*4A
$GAGSV,3,1,09,13,62,244,32,08,50,017,39,07,42,294,32,15,30,174,32,7*77
$GAGSV,3,2,09,26,28,313,31,02,23,093,24,30,20,148,22,03,14,059,16,7*78
$GAGSV,3,3,09,25,04,049,,7*44
$GAGSV,2,1,07,13,62,244,33,08,50,017,41,07,42,294,33,15,30,174,34,1*77
$GAGSV,2,2,07,26,28,313,34,30,20,148,24,03,14,059,18,1*43
$GBGSV,4,1,15,38,82,074,41,08,75,007,37,39,72,269,42,16,66,246,34,1*7D
$GBGSV,4,2,15,13,65,339,45,06,64,242,25,46,55,126,45,09,48,231,23,1*78
$GBGSV,4,3,15,20,45,052,40,19,45,335,42,36,27,185,45,37,27,053,35,1*73
$GBGSV,4,4,15,29,24,217,34,35,23,277,28,22,08,295,22,1*45
$GBGSV,3,1,10,38,82,074,44,39,72,269,41,46,55,126,47,20,45,052,27,4*70
$GBGSV,3,2,10,19,45,335,43,37,27,053,31,36,27,185,40,29,24,217,29,4*77
$GBGSV,3,3,10,35,23,277,28,22,08,295,22,4*7B
$GNACCURACY,3.5*10
$PAIRSAT,1,35,1,0,200,2,0,200,3,0,200,4,0,200,5,0,201,6,0,200,7,0,200,8,0,200,9,0,200,10,0,221,11,0,200,12,0,200,13,0,201,14,0,200,15,0,201,16,0,200,17,0,200,18,0,221,19,0,200,20,0,200,21,0,200,23,0,221,24,0,221,25,0,200,26,0,200,27,0,200,28,0,200,29,0,200,30,0,200,31,0,200,32,0,200,194,0,621,195,0,621,196,0,620,199,0,621*6A
$PAIRSAT,2,23,65,0,200,67,0,200,68,0,200,69,0,201,70,0,201,71,0,201,72,0,200,73,0,201,74,0,200,75,0,200,76,0,200,77,0,200,78,0,200,79,0,201,80,0,201,81,0,200,82,0,200,83,0,200,84,0,201,85,0,201,86,0,201,87,0,200,88,0,200*52
$PAIRSAT,3,23,2,0,1221,3,0,1221,4,0,1200,5,0,200,7,0,1221,8,0,1221,9,0,1200,10,0,1200,11,0,1200,12,0,1200,13,0,1221,15,0,1221,19,0,1200,21,0,1200,24,0,1200,25,0,1200,26,0,1221,27,0,1200,30,0,1200,31,0,1200,33,0,1200,34,0,1200,36,0,1200*69
$PAIRSAT,4,50,1,0,200,2,0,200,3,0,200,4,0,200,5,0,200,6,0,201,7,0,200,8,0,201,9,0,201,10,0,200,11,0,200,12,0,200,13,0,201,14,0,200,15,0,200,16,0,201,19,0,621,20,0,621,21,0,600,22,0,621,23,0,600,24,0,600,25,0,600,26,0,600,27,0,600,28,0,600,29,0,621,30,0,600,31,0,200,32,0,600,33,0,600,34,0,600,35,0,621,36,0,621,37,0,621,38,0,621,39,0,621,40,0,600,41,0,600,42,0,600,43,0,600,44,0,600,45,0,600,46,0,621,56,0,200,57,0,200,58,0,200,59,0,600,60,0,600,61,0,600*41
$PAIRDGP,1,15*6C
$GNGGA,110746.200,2500.8029828,N,12132.4812727,E,4,64,0.42,15.915,M,15.25,M,22,3335*70
$GNRMC,110746.200,A,2500.8029828,N,12132.4812727,E,0.00,197.87,260623,,,R,V*15
$GPHDT,,T*1B
$GNACCURACY,3.6*13
$GNGGA,110746.300,2500.8029789,N,12132.4812727,E,4,64,0.42,15.906,M,15.25,M,22,3335*77
$GNRMC,110746.300,A,2500.8029789,N,12132.4812727,E,0.00,197.87,260623,,,R,V*10
$GPHDT,,T*1B
$GNACCURACY,3.5*10
$GNGGA,110746.400,2500.8029843,N,12132.4812743,E,4,64,0.42,15.929,M,15.25,M,22,3335*76
$GNRMC,110746.400,A,2500.8029843,N,12132.4812743,E,0.00,197.87,260623,,,R,V*1C
$GPHDT,,T*1B
$GNACCURACY,3.5*10
$GNGGA,110746.500,2500.8029828,N,12132.4812747,E,4,64,0.42,15.911,M,15.25,M,22,3335*75
$GNRMC,110746.500,A,2500.8029828,N,12132.4812747,E,0.00,197.87,260623,,,R,V*14
$GPHDT,,T*1B
$GNACCURACY,3.5*10
$GNGGA,110746.600,2500.8029812,N,12132.4812709,E,4,64,0.42,15.912,M,15.25,M,22,3335*76
$GNRMC,110746.600,A,2500.8029812,N,12132.4812709,E,0.00,197.87,260623,,,R,V*14
$GPHDT,,T*1B
$GNACCURACY,3.6*13
$GNGGA,110746.700,2500.8029861,N,12132.4812762,E,4,64,0.42,15.918,M,15.25,M,22,3335*74
$GNRMC,110746.700,A,2500.8029861,N,12132.4812762,E,0.00,197.87,260623,,,R,V*1C
$GPHDT,,T*1B
$GNACCURACY,3.6*13
$GNGGA,110746.800,2500.8029835,N,12132.4812741,E,4,64,0.42,15.925,M,15.25,M,22,3335*75
$GNRMC,110746.800,A,2500.8029835,N,12132.4812741,E,0.00,197.87,260623,,,R,V*13
$GPHDT,,T*1B
$GNACCURACY,3.6*13
$GNGGA,110746.900,2500.8029815,N,12132.4812736,E,4,64,0.42,15.904,M,15.25,M,22,3335*75
$GNRMC,110746.900,A,2500.8029815,N,12132.4812736,E,0.00,197.87,260623,,,R,V*10
$GPHDT,,T*1B
$GNACCURACY,3.6*13
$GNGGA,110747.000,2500.8029804,N,12132.4812711,E,4,64,0.42,15.913,M,15.25,M,23,3335*7F
$GNRMC,110747.000,A,2500.8029804,N,12132.4812711,E,0.00,197.87,260623,,,R,V*1D
$GPHDT,,T*1B
$GNACCURACY,3.6*13
$GNGGA,110747.100,2500.8029825,N,12132.4812710,E,4,64,0.42,15.904,M,15.25,M,23,3335*7A
$GNRMC,110747.100,A,2500.8029825,N,12132.4812710,E,0.00,197.87,260623,,,R,V*1E
$GPHDT,,T*1B
$GNGSA,A,3,24,196,18,199,23,15,195,194,05,13,10,,0.78,0.42,0.65,1*09
$GNGSA,A,3,80,85,70,73,86,71,84,79,69,,,,0.78,0.42,0.65,2*0B
$GNGSA,A,3,13,08,07,15,26,02,03,,,,,,0.78,0.42,0.65,3*05
$GNGSA,A,3,38,08,39,16,13,06,46,09,20,19,36,37,0.78,0.42,0.65,4*04
$GNGSA,A,3,29,35,,,,,,,,,,,0.78,0.42,0.65,4*03
$GPGSV,4,1,16,24,81,074,38,196,74,060,37,18,61,265,31,199,60,167,36,1*61
$GPGSV,4,2,16,23,43,333,44,15,41,038,36,195,37,179,44,194,28,140,43,1*6D
$GPGSV,4,3,16,05,24,111,42,12,15,148,19,13,13,051,26,10,12,314,38,1*6D
$GPGSV,4,4,16,29,05,203,,32,05,262,14,25,04,181,,20,03,125,,1*67
$GPGSV,2,1,08,24,81,074,49,196,74,060,42,18,61,265,32,199,60,167,46,8*61
$GPGSV,2,2,08,23,43,333,42,195,37,179,42,194,28,140,42,10,12,314,42,8*61
$GLGSV,3,1,09,80,47,093,41,85,41,258,12,70,39,357,25,73,28,163,28,1*78
$GLGSV,3,2,09,86,24,312,24,71,18,305,26,84,17,194,23,79,17,039,22,1*76
$GLGSV,3,3,09,69,16,064,22,1*4B
$GAGSV,3,1,09,13,62,244,31,08,50,017,39,07,42,294,32,15,30,174,31,7*77
$GAGSV,3,2,09,26,28,313,30,02,23,093,24,30,20,148,23,03,14,059,16,7*78
$GAGSV,3,3,09,25,04,049,,7*44
$GAGSV,2,1,07,13,62,244,33,08,50,017,41,07,42,294,33,15,30,174,34,1*77
$GAGSV,2,2,07,26,28,313,34,30,20,148,24,03,14,059,19,1*42
$GBGSV,4,1,15,38,82,074,41,08,75,007,37,39,72,269,42,16,66,246,34,1*7D
$GBGSV,4,2,15,13,65,339,45,06,64,242,25,46,55,126,45,09,48,231,24,1*7F
$GBGSV,4,3,15,20,45,052,40,19,45,335,42,36,27,185,45,37,27,053,35,1*73
$GBGSV,4,4,15,29,24,217,34,35,23,277,28,22,08,295,23,1*44
$GBGSV,3,1,10,38,82,074,44,39,72,269,41,46,55,126,47,20,45,052,28,4*7F
$GBGSV,3,2,10,19,45,335,43,37,27,053,31,36,27,185,40,29,24,217,29,4*77
$GBGSV,3,3,10,35,23,277,28,22,08,295,22,4*7B
$GNACCURACY,3.6*13
$PAIRSAT,1,35,1,0,200,2,0,200,3,0,200,4,0,200,5,0,201,6,0,200,7,0,200,8,0,200,9,0,200,10,0,221,11,0,200,12,0,200,13,0,201,14,0,200,15,0,201,16,0,200,17,0,200,18,0,221,19,0,200,20,0,200,21,0,200,23,0,221,24,0,221,25,0,200,26,0,200,27,0,200,28,0,200,29,0,200,30,0,200,31,0,200,32,0,200,194,0,621,195,0,621,196,0,620,199,0,621*6A
$PAIRSAT,2,23,65,0,200,67,0,200,68,0,200,69,0,201,70,0,201,71,0,201,72,0,200,73,0,201,74,0,200,75,0,200,76,0,200,77,0,200,78,0,200,79,0,201,80,0,201,81,0,200,82,0,200,83,0,200,84,0,201,85,0,201,86,0,201,87,0,200,88,0,200*52
$PAIRSAT,3,23,2,0,1221,3,0,1221,4,0,1200,5,0,200,7,0,1221,8,0,1221,9,0,1200,10,0,1200,11,0,1200,12,0,1200,13,0,1221,15,0,1221,19,0,1200,21,0,1200,24,0,1200,25,0,1200,26,0,1221,27,0,1200,30,0,1200,31,0,1200,33,0,1200,34,0,1200,36,0,1200*69
$PAIRSAT,4,50,1,0,200,2,0,200,3,0,200,4,0,200,5,0,200,6,0,201,7,0,200,8,0,201,9,0,201,10,0,200,11,0,200,12,0,200,13,0,201,14,0,200,15,0,200,16,0,201,19,0,621,20,0,621,21,0,600,22,0,621,23,0,600,24,0,600,25,0,600,26,0,600,27,0,600,28,0,600,29,0,621,30,0,600,31,0,200,32,0,600,33,0,600,34,0,600,35,0,621,36,0,621,37,0,621,38,0,621,39,0,621,40,0,600,41,0,600,42,0,600,43,0,600,44,0,600,45,0,600,46,0,621,56,0,200,57,0,200,58,0,200,59,0,600,60,0,600,61,0,600*41
$PAIRDGP,1,15*6C
$GNGGA,110747.200,2500.8029824,N,12132.4812714,E,4,64,0.42,15.920,M,15.25,M,23,3335*7A
$GNRMC,110747.200,A,2500.8029824,N,12132.4812714,E,0.00,197.87,260623,,,R,V*18
$GPHDT,,T*1B
$GNACCURACY,3.6*13
$GNGGA,110747.300,2500.8029854,N,12132.4812769,E,4,64,0.42,15.918,M,15.25,M,23,3335*7D
$GNRMC,110747.300,A,2500.8029854,N,12132.4812769,E,0.00,197.87,260623,,,R,V*14
$GPHDT,,T*1B
$GNACCURACY,3.5*10
$GNGGA,110747.400,2500.8029837,N,12132.4812734,E,4,64,0.42,15.923,M,15.25,M,23,3335*7F
$GNRMC,110747.400,A,2500.8029837,N,12132.4812734,E,0.00,197.87,260623,,,R,V*1E
$GPHDT,,T*1B
$GNACCURACY,3.5*10
$GNGGA,110747.500,2500.8029772,N,12132.4812856,E,4,64,0.42,15.931,M,15.25,M,10,3335*78
$GNRMC,110747.500,A,2500.8029772,N,12132.4812856,E,0.00,197.87,260623,,,R,V*1A
$GPHDT,,T*1B
$GNACCURACY,3.5*10
$GNGGA,110747.600,2500.8029789,N,12132.4812833,E,4,64,0.42,15.959,M,15.25,M,10,3335*72
$GNRMC,110747.600,A,2500.8029789,N,12132.4812833,E,0.00,197.87,260623,,,R,V*1E
$GPHDT,,T*1B
$GNACCURACY,3.5*10
$GNGGA,110747.700,2500.8029725,N,12132.4812784,E,4,64,0.42,15.925,M,15.25,M,10,3335*7D
$GNRMC,110747.700,A,2500.8029725,N,12132.4812784,E,0.00,197.87,260623,,,R,V*1A
$GPHDT,,T*1B
$GNACCURACY,3.5*10
$GNGGA,110747.800,2500.8029785,N,12132.4812837,E,4,64,0.42,15.937,M,15.25,M,10,3335*7C
$GNRMC,110747.800,A,2500.8029785,N,12132.4812837,E,0.00,197.87,260623,,,R,V*18
$GPHDT,,T*1B
$GNACCURACY,3.5*10
$GNGGA,110747.900,2500.8029772,N,12132.4812849,E,4,63,0.42,15.964,M,15.25,M,10,3335*7D
$GNRMC,110747.900,A,2500.8029772,N,12132.4812849,E,0.00,197.87,260623,,,R,V*18
$GPHDT,,T*1B
$GNACCURACY,3.5*10
$GNGGA,110748.000,2500.8029710,N,12132.4812776,E,4,63,0.42,15.917,M,15.25,M,11,3335*79
$GNRMC,110748.000,A,2500.8029710,N,12132.4812776,E,0.00,197.87,260623,,,R,V*19
$GPHDT,,T*1B
$GNACCURACY,3.5*10
$GNGGA,110748.100,2500.8029753,N,12132.4812810,E,4,63,0.42,15.915,M,15.25,M,11,3335*72
$GNRMC,110748.100,A,2500.8029753,N,12132.4812810,E,0.00,197.87,260623,,,R,V*10
$GPHDT,,T*1B
$GNGSA,A,3,24,196,18,199,23,15,195,194,05,13,10,,0.78,0.42,0.65,1*09
$GNGSA,A,3,80,70,73,86,71,84,79,69,,,,,0.78,0.42,0.65,2*06
$GNGSA,A,3,13,08,07,15,26,02,03,,,,,,0.78,0.42,0.65,3*05
$GNGSA,A,3,38,08,39,16,13,06,46,09,20,19,36,37,0.78,0.42,0.65,4*04
$GNGSA,A,3,29,35,,,,,,,,,,,0.78,0.42,0.65,4*03
$GPGSV,4,1,16,24,81,074,38,196,74,060,37,18,61,265,30,199,60,167,36,1*60
$GPGSV,4,2,16,23,43,333,44,15,41,038,36,195,37,179,44,194,28,140,43,1*6D
$GPGSV,4,3,16,05,24,111,42,12,15,148,19,13,13,051,26,10,12,314,38,1*6D
$GPGSV,4,4,16,29,05,203,,32,05,262,,25,04,181,,20,03,125,,1*62
$GPGSV,2,1,08,24,81,074,49,196,74,060,42,18,61,265,30,199,60,167,46,8*63
$GPGSV,2,2,08,23,43,333,42,195,37,179,42,194,28,140,42,10,12,314,42,8*61
$GLGSV,3,1,09,80,47,093,41,85,41,258,12,70,39,357,26,73,28,163,28,1*7B
$GLGSV,3,2,09,86,24,312,24,71,18,305,27,84,17,194,22,79,17,039,22,1*76
$GLGSV,3,3,09,69,16,064,20,1*49
$GAGSV,3,1,09,13,62,244,29,08,50,017,39,07,42,294,32,15,30,174,31,7*7E
$GAGSV,3,2,09,26,28,313,31,02,23,093,24,30,20,148,23,03,14,059,16,7*79
$GAGSV,3,3,09,25,04,049,,7*44
$GAGSV,2,1,07,13,62,244,33,08,50,017,41,07,42,294,33,15,30,174,34,1*77
$GAGSV,2,2,07,26,28,313,34,30,20,148,26,03,14,059,19,1*40
$GBGSV,4,1,15,38,82,074,41,08,75,007,37,39,72,269,42,16,66,246,34,1*7D
$GBGSV,4,2,15,13,65,339,45,06,64,242,25,46,55,126,45,09,48,231,25,1*7E
$GBGSV,4,3,15,20,45,052,40,19,45,335,42,36,27,185,45,37,27,053,35,1*73
$GBGSV,4,4,15,29,24,217,34,35,23,277,28,22,08,295,23,1*44
$GBGSV,3,1,10,38,82,074,44,39,72,269,41,46,55,126,47,20,45,052,28,4*7F
$GBGSV,3,2,10,19,45,335,43,37,27,053,31,36,27,185,40,29,24,217,28,4*76
$GBGSV,3,3,10,35,23,277,28,22,08,295,22,4*7B
$GNACCURACY,3.5*10
$PAIRSAT,1,35,1,0,200,2,0,200,3,0,200,4,0,200,5,0,201,6,0,200,7,0,200,8,0,200,9,0,200,10,0,221,11,0,200,12,0,200,13,0,201,14,0,200,15,0,201,16,0,200,17,0,200,18,0,221,19,0,200,20,0,200,21,0,200,23,0,221,24,0,221,25,0,200,26,0,200,27,0,200,28,0,200,29,0,200,30,0,200,31,0,200,32,0,200,194,0,621,195,0,621,196,0,620,199,0,621*6A
$PAIRSAT,2,23,65,0,200,67,0,200,68,0,200,69,0,201,70,0,201,71,0,201,72,0,200,73,0,201,74,0,200,75,0,200,76,0,200,77,0,200,78,0,200,79,0,201,80,0,201,81,0,200,82,0,200,83,0,200,84,0,201,85,0,201,86,0,201,87,0,200,88,0,200*52
$PAIRSAT,3,23,2,0,1221,3,0,1221,4,0,1200,5,0,200,7,0,1221,8,0,1221,9,0,1200,10,0,1200,11,0,1200,12,0,1200,13,0,1221,15,0,1221,19,0,1200,21,0,1200,24,0,1200,25,0,1200,26,0,1221,27,0,1200,30,0,1200,31,0,1200,33,0,1200,34,0,1200,36,0,1200*69
$PAIRSAT,4,50,1,0,200,2,0,200,3,0,200,4,0,200,5,0,200,6,0,201,7,0,200,8,0,201,9,0,201,10,0,200,11,0,200,12,0,200,13,0,201,14,0,200,15,0,200,16,0,201,19,0,621,20,0,621,21,0,600,22,0,621,23,0,600,24,0,600,25,0,600,26,0,600,27,0,600,28,0,600,29,0,621,30,0,600,31,0,200,32,0,600,33,0,600,34,0,600,35,0,621,36,0,621,37,0,621,38,0,621,39,0,621,40,0,600,41,0,600,42,0,600,43,0,600,44,0,600,45,0,600,46,0,621,56,0,200,57,0,200,58,0,200,59,0,600,60,0,600,61,0,600*41
$PAIRDGP,1,15*6C
$GNGGA,110748.200,2500.8029788,N,12132.4812854,E,4,63,0.42,15.938,M,15.25,M,11,3335*78
$GNRMC,110748.200,A,2500.8029788,N,12132.4812854,E,0.00,197.87,260623,,,R,V*15
$GPHDT,,T*1B
$GNACCURACY,3.5*10
$GNGGA,110748.300,2500.8029742,N,12132.4812807,E,4,63,0.42,15.921,M,15.25,M,11,3335*71
$GNRMC,110748.300,A,2500.8029742,N,12132.4812807,E,0.00,197.87,260623,,,R,V*14
$GPHDT,,T*1B
$GNACCURACY,3.5*10
$GNGGA,110748.400,2500.8029740,N,12132.4812785,E,4,63,0.42,15.903,M,15.25,M,11,3335*71
$GNRMC,110748.400,A,2500.8029740,N,12132.4812785,E,0.00,197.87,260623,,,R,V*14
$GPHDT,,T*1B
$GNACCURACY,3.6*13
$GNGGA,110748.500,2500.8029714,N,12132.4812740,E,4,63,0.42,15.899,M,15.25,M,11,3335*7A
$GNRMC,110748.500,A,2500.8029714,N,12132.4812740,E,0.00,197.87,260623,,,R,V*1D
$GPHDT,,T*1B
$GNACCURACY,3.6*13
$GNGGA,110748.600,2500.8029713,N,12132.4812766,E,4,63,0.42,15.905,M,15.25,M,11,3335*7E
$GNRMC,110748.600,A,2500.8029713,N,12132.4812766,E,0.00,197.87,260623,,,R,V*1D
$GPHDT,,T*1B
$GNACCURACY,3.6*13
$GNGGA,110748.700,2500.8029721,N,12132.4812737,E,4,62,0.43,15.911,M,15.25,M,11,3335*7F
$GNRMC,110748.700,A,2500.8029721,N,12132.4812737,E,0.00,197.87,260623,,,R,V*19
$GPHDT,,T*1B
$GNACCURACY,3.5*10
$GNGGA,110748.800,2500.8029766,N,12132.4812801,E,4,62,0.43,15.918,M,15.25,M,11,3335*70
$GNRMC,110748.800,A,2500.8029766,N,12132.4812801,E,0.00,197.87,260623,,,R,V*1F
$GPHDT,,T*1B
$GNACCURACY,3.5*10
$GNGGA,110748.900,2500.8029718,N,12132.4812747,E,4,63,0.43,15.915,M,15.25,M,11,3335*79
$GNRMC,110748.900,A,2500.8029718,N,12132.4812747,E,0.01,197.87,260623,,,R,V*1B
$GPHDT,,T*1B
$GNACCURACY,3.5*10
$GNGGA,110749.000,2500.8029754,N,12132.4812781,E,4,63,0.43,15.917,M,15.25,M,12,3335*72
$GNRMC,110749.000,A,2500.8029754,N,12132.4812781,E,0.01,197.87,260623,,,R,V*11
$GPHDT,,T*1B
$GNACCURACY,3.5*10
$GNGGA,110749.100,2500.8029712,N,12132.4812739,E,4,63,0.43,15.895,M,15.25,M,12,3335*79
$GNRMC,110749.100,A,2500.8029712,N,12132.4812739,E,0.01,197.87,260623,,,R,V*11
$GPHDT,,T*1B
$GNGSA,A,3,24,196,18,199,23,15,195,194,05,10,,,0.80,0.43,0.67,1*0F
$GNGSA,A,3,80,70,73,86,71,84,79,69,,,,,0.80,0.43,0.67,2*02
$GNGSA,A,3,13,08,07,15,26,02,03,,,,,,0.80,0.43,0.67,3*01
$GNGSA,A,3,38,08,39,16,13,06,46,09,20,19,36,37,0.80,0.43,0.67,4*00
$GNGSA,A,3,29,35,,,,,,,,,,,0.80,0.43,0.67,4*07
$GPGSV,4,1,16,24,81,074,36,196,74,060,37,18,61,265,31,199,60,167,36,1*6F
$GPGSV,4,2,16,23,43,333,44,15,41,038,36,195,37,179,44,194,28,140,43,1*6D
$GPGSV,4,3,16,05,24,111,42,12,15,148,18,13,13,051,24,10,12,314,38,1*6E
$GPGSV,4,4,16,29,05,203,,32,05,262,,25,04,181,,20,03,125,,1*62
$GPGSV,2,1,08,24,81,074,49,196,74,060,42,18,61,265,30,199,60,167,46,8*63
$GPGSV,2,2,08,23,43,333,42,195,37,179,42,194,28,140,42,10,12,314,42,8*61
$GLGSV,3,1,09,80,47,093,41,85,41,258,15,70,39,357,27,73,28,163,26,1*73
$GLGSV,3,2,09,86,24,312,24,71,18,305,27,84,17,194,22,79,17,039,25,1*71
$GLGSV,3,3,09,69,16,064,20,1*49
$GAGSV,3,1,09,13,62,244,31,08,50,017,39,07,42,294,32,15,30,174,30,7*76
$GAGSV,3,2,09,26,28,313,31,02,23,093,24,30,20,148,21,03,14,059,16,7*7B
$GAGSV,3,3,09,25,04,049,,7*44
$GAGSV,2,1,08,13,62,244,33,08,50,017,41,07,42,294,33,15,30,174,35,1*79
$GAGSV,2,2,08,26,28,313,35,02,23,093,18,30,20,148,26,03,14,059,19,1*7E
$GBGSV,4,1,15,38,82,074,41,08,75,007,37,39,72,269,43,16,66,246,34,1*7C
$GBGSV,4,2,15,13,65,339,45,06,64,242,27,46,55,126,45,09,48,231,24,1*7D
$GBGSV,4,3,15,20,45,052,40,19,45,335,43,36,27,185,45,37,27,053,35,1*72
$GBGSV,4,4,15,29,24,217,34,35,23,277,28,22,08,295,24,1*43
$GBGSV,3,1,10,38,82,074,44,39,72,269,42,46,55,126,47,20,45,052,27,4*73
$GBGSV,3,2,10,19,45,335,43,37,27,053,31,36,27,185,40,29,24,217,27,4*79
$GBGSV,3,3,10,35,23,277,27,22,08,295,23,4*75
$GNACCURACY,3.5*10
$PAIRSAT,1,35,1,0,200,2,0,200,3,0,200,4,0,200,5,0,201,6,0,200,7,0,200,8,0,200,9,0,200,10,0,221,11,0,200,12,0,200,13,0,201,14,0,200,15,0,201,16,0,200,17,0,200,18,0,221,19,0,200,20,0,200,21,0,200,23,0,221,24,0,221,25,0,200,26,0,200,27,0,200,28,0,200,29,0,200,30,0,200,31,0,200,32,0,200,194,0,621,195,0,621,196,0,620,199,0,621*6A
$PAIRSAT,2,23,65,0,200,67,0,200,68,0,200,69,0,201,70,0,201,71,0,201,72,0,200,73,0,201,74,0,200,75,0,200,76,0,200,77,0,200,78,0,200,79,0,201,80,0,201,81,0,200,82,0,200,83,0,200,84,0,201,85,0,201,86,0,201,87,0,200,88,0,200*52
$PAIRSAT,3,23,2,0,1221,3,0,1221,4,0,1200,5,0,200,7,0,1221,8,0,1221,9,0,1200,10,0,1200,11,0,1200,12,0,1200,13,0,1221,15,0,1221,19,0,1200,21,0,1200,24,0,1200,25,0,1200,26,0,1221,27,0,1200,30,0,1200,31,0,1200,33,0,1200,34,0,1200,36,0,1200*69
$PAIRSAT,4,50,1,0,200,2,0,200,3,0,200,4,0,200,5,0,200,6,0,201,7,0,200,8,0,201,9,0,201,10,0,200,11,0,200,12,0,200,13,0,201,14,0,200,15,0,200,16,0,201,19,0,621,20,0,621,21,0,600,22,0,621,23,0,600,24,0,600,25,0,600,26,0,600,27,0,600,28,0,600,29,0,621,30,0,600,31,0,200,32,0,600,33,0,600,34,0,600,35,0,621,36,0,621,37,0,621,38,0,621,39,0,621,40,0,600,41,0,600,42,0,600,43,0,600,44,0,600,45,0,600,46,0,621,56,0,200,57,0,200,58,0,200,59,0,600,60,0,600,61,0,600*41
$PAIRDGP,1,15*6C
$GNGGA,110749.200,2500.8029741,N,12132.4812774,E,4,63,0.43,15.901,M,15.25,M,12,3335*79
$GNRMC,110749.200,A,2500.8029741,N,12132.4812774,E,0.01,197.87,260623,,,R,V*1D
$GPHDT,,T*1B
$GNACCURACY,3.5*10
$GNGGA,110749.300,2500.8029701,N,12132.4812781,E,4,63,0.43,15.912,M,15.25,M,12,3335*74
$GNRMC,110749.300,A,2500.8029701,N,12132.4812781,E,0.01,197.87,260623,,,R,V*12
$GPHDT,,T*1B
$GNACCURACY,3.5*10
$GNGGA,110749.400,2500.8029733,N,12132.4812755,E,4,64,0.42,15.904,M,15.25,M,12,3335*7A
$GNRMC,110749.400,A,2500.8029733,N,12132.4812755,E,0.00,197.87,260623,,,R,V*1C
$GPHDT,,T*1B
$GNACCURACY,3.5*10
$GNGGA,110749.500,2500.8029774,N,12132.4812800,E,4,64,0.42,15.943,M,15.25,M,12,3335*74
$GNRMC,110749.500,A,2500.8029774,N,12132.4812800,E,0.00,197.87,260623,,,R,V*11
$GPHDT,,T*1B
$GNACCURACY,3.5*10
$GNGGA,110749.600,2500.8029756,N,12132.4812796,E,4,64,0.42,15.912,M,15.25,M,12,3335*73
$GNRMC,110749.600,A,2500.8029756,N,12132.4812796,E,0.00,197.87,260623,,,R,V*12
$GPHDT,,T*1B
$GNACCURACY,3.5*10
$GNGGA,110749.700,2500.8029756,N,12132.4812808,E,4,63,0.43,15.924,M,15.25,M,12,3335*79
$GNRMC,110749.700,A,2500.8029756,N,12132.4812808,E,0.00,197.87,260623,,,R,V*1B
$GPHDT,,T*1B
$GNACCURACY,3.5*10
$GNGGA,110749.800,2500.8029744,N,12132.4812745,E,4,64,0.42,15.904,M,15.25,M,12,3335*77
$GNRMC,110749.800,A,2500.8029744,N,12132.4812745,E,0.01,197.87,260623,,,R,V*10
$GPHDT,,T*1B
