$FW : RTK35X,V1.1X0314AS,Lib20210517,1*54
$Tool : LOCOSYS , GNSS Firebird , v1.0.0.19*39
$---------------------------------------------------*2D
194,24,1*75
$GLGSV,3,3,09,69,16,064,29,1*40
$GAGSV,3,1,09,13,62,245,20,08,50,016,39,07,42,293,14,15,30,174,34,7*71
$GAGSV,3,2,09,26,28,313,26,02,23,093,25,30,20,148,,03,14,058,27,7*7C
$GAGSV,3,3,09,25,04,049,,7*44
$GAGSV,2,1,05,13,62,245,31,08,50,016,41,07,42,293,30,15,30,174,37,1*70
$GAGSV,2,2,05,26,28,313,31,1*4D
$GBGSV,4,1,15,38,82,072,39,08,74,007,38,39,72,269,41,16,66,245,23,1*7C
$GBGSV,4,2,15,13,65,339,43,06,64,242,26,46,55,126,45,09,48,231,17,1*7A
$GBGSV,4,3,15,19,45,335,39,20,45,052,41,37,27,054,34,36,27,185,44,1*79
$GBGSV,4,4,15,29,25,218,30,35,23,277,21,22,07,295,31,1*4B
$GBGSV,3,1,09,38,82,072,43,39,72,269,43,46,55,126,46,20,45,052,28,4*75
$GBGSV,3,2,09,19,45,335,40,36,27,185,45,37,27,054,31,29,25,218,27,4*7E
$GBGSV,3,3,09,35,23,277,24,4*49
$GNACCURACY,3.6*13
$PAIRSAT,1,35,1,0,200,2,0,200,3,0,200,4,0,200,5,0,201,6,0,200,7,0,200,8,0,200,9,0,200,10,0,221,11,0,200,12,0,200,13,0,201,14,0,200,15,0,201,16,0,200,17,0,200,18,0,221,19,0,200,20,0,200,21,0,200,23,0,221,24,0,221,25,0,200,26,0,200,27,0,200,28,0,200,29,0,200,30,0,200,31,0,200,32,0,200,194,0,621,195,0,621,196,0,620,199,0,621*6A
$PAIRSAT,2,23,65,0,200,67,0,200,68,0,200,69,0,201,70,0,201,71,0,201,72,0,200,73,0,201,74,0,200,75,0,200,76,0,200,77,0,200,78,0,200,79,0,201,80,0,201,81,0,200,82,0,200,83,0,200,84,0,201,85,0,201,86,0,201,87,0,200,88,0,200*52
$PAIRSAT,3,23,2,0,1221,3,0,1221,4,0,1200,5,0,200,7,0,1221,8,0,1221,9,0,1200,10,0,1200,11,0,1200,12,0,1200,13,0,1221,15,0,1221,19,0,1200,21,0,1200,24,0,1200,25,0,1200,26,0,1221,27,0,1200,30,0,1200,31,0,1200,33,0,1200,34,0,1200,36,0,1200*69
$PAIRSAT,4,50,1,0,200,2,0,200,3,0,200,4,0,200,5,0,200,6,0,201,7,0,200,8,0,201,9,0,201,10,0,200,11,0,200,12,0,200,13,0,201,14,0,200,15,0,200,16,0,201,19,0,621,20,0,621,21,0,600,22,0,600,23,0,600,24,0,600,25,0,600,26,0,600,27,0,600,28,0,600,29,0,621,30,0,600,31,0,200,32,0,600,33,0,600,34,0,600,35,0,621,36,0,621,37,0,621,38,0,621,39,0,621,40,0,600,41,0,600,42,0,600,43,0,600,44,0,600,45,0,600,46,0,621,56,0,200,57,0,200,58,0,200,59,0,600,60,0,600,61,0,600*42
$PAIRDGP,1,15*6C
$GNGGA,110702.200,2500.8029471,N,12132.4812980,E,4,62,0.42,15.856,M,15.25,M,1,3335*42
$GNRMC,110702.200,A,2500.8029471,N,12132.4812980,E,0.01,197.87,260623,,,R,V*17
$GPHDT,43.010,T*03
$GNACCURACY,3.6*13
$GNGGA,110702.300,2500.8029458,N,12132.4812962,E,4,62,0.42,15.857,M,15.25,M,1,3335*45
$GNRMC,110702.300,A,2500.8029458,N,12132.4812962,E,0.01,197.87,260623,,,R,V*11
$GPHDT,,T*1B
$GNACCURACY,3.6*13
$GNGGA,110702.400,2500.8029466,N,12132.4812961,E,4,62,0.42,15.857,M,15.25,M,1,3335*4C
$GNRMC,110702.400,A,2500.8029466,N,12132.4812961,E,0.01,197.87,260623,,,R,V*18
$GPHDT,43.368,T*0F
$GNACCURACY,3.6*13
$GNGGA,110702.500,2500.8029416,N,12132.4813030,E,4,62,0.42,15.885,M,15.25,M,1,3335*49
$GNRMC,110702.500,A,2500.8029416,N,12132.4813030,E,0.01,197.87,260623,,,R,V*12
$GPHDT,,T*1B
$GNACCURACY,3.6*13
$GNGGA,110702.600,2500.8029421,N,12132.4813006,E,4,62,0.42,15.877,M,15.25,M,1,3335*46
$GNRMC,110702.600,A,2500.8029421,N,12132.4813006,E,0.01,197.87,260623,,,R,V*10
$GPHDT,42.593,T*0C
$GNACCURACY,3.6*13
$GNGGA,110702.700,2500.8029453,N,12132.4812982,E,4,62,0.42,15.864,M,15.25,M,0,3335*45
$GNRMC,110702.700,A,2500.8029453,N,12132.4812982,E,0.01,197.87,260623,,,R,V*10
$GPHDT,,T*1B
$GNACCURACY,3.6*13
$GNGGA,110702.800,2500.8029453,N,12132.4812946,E,4,62,0.42,15.861,M,15.25,M,0,3335*47
$GNRMC,110702.800,A,2500.8029453,N,12132.4812946,E,0.01,197.87,260623,,,R,V*17
$GPHDT,43.294,T*0D
$GNACCURACY,3.5*10
$GNGGA,110702.900,2500.8029438,N,12132.4812925,E,4,62,0.42,15.862,M,15.25,M,0,3335*4D
$GNRMC,110702.900,A,2500.8029438,N,12132.4812925,E,0.01,197.87,260623,,,R,V*1E
$GPHDT,,T*1B
$GNACCURACY,3.5*10
$GNGGA,110703.000,2500.8029460,N,12132.4812957,E,4,62,0.42,15.872,M,15.25,M,1,3335*4D
$GNRMC,110703.000,A,2500.8029460,N,12132.4812957,E,0.01,197.87,260623,,,R,V*1E
$GPHDT,43.615,T*00
$GNACCURACY,3.5*10
$GNGGA,110703.100,2500.8029475,N,12132.4812950,E,4,62,0.42,15.857,M,15.25,M,1,3335*48
$GNRMC,110703.100,A,2500.8029475,N,12132.4812950,E,0.01,197.87,260623,,,R,V*1C
$GPHDT,,T*1B
$GNGSA,A,3,24,196,18,199,23,15,195,194,05,13,10,,0.80,0.43,0.67,1*0D
$GNGSA,A,3,80,85,70,73,86,79,84,69,,,,,0.80,0.43,0.67,2*09
$GNGSA,A,3,13,08,07,15,26,02,03,,,,,,0.80,0.43,0.67,3*01
$GNGSA,A,3,38,08,39,16,13,06,46,19,20,37,36,29,0.80,0.43,0.67,4*02
$GNGSA,A,3,35,,,,,,,,,,,,0.80,0.43,0.67,4*0C
$GPGSV,4,1,16,24,81,076,40,196,74,060,38,18,61,266,24,199,60,167,37,1*65
$GPGSV,4,2,16,23,43,333,39,15,41,037,31,195,37,179,44,194,27,140,43,1*60
$GPGSV,4,3,16,05,25,111,39,12,15,148,23,13,14,051,26,10,12,314,35,1*63
$GPGSV,4,4,16,32,05,262,16,29,05,203,,25,03,181,,20,03,125,,1*62
$GPGSV,2,1,08,24,81,076,49,196,74,060,40,18,61,266,37,199,60,167,47,8*66
$GPGSV,2,2,08,23,43,333,43,195,37,179,45,194,27,140,40,10,12,314,35,8*6A
$GLGSV,3,1,09,80,47,093,34,85,41,258,18,70,39,357,23,73,28,163,31,1*7E
$GLGSV,3,2,09,86,24,313,23,71,18,304,25,79,17,039,27,84,17,194,23,1*77
$GLGSV,3,3,09,69,16,064,29,1*40
$GAGSV,3,1,09,13,62,245,19,08,50,016,39,07,42,293,14,15,30,174,34,7*7B
$GAGSV,3,2,09,26,28,313,28,02,23,093,25,30,20,148,,03,14,058,26,7*73
$GAGSV,3,3,09,25,04,049,,7*44
$GAGSV,2,1,05,13,62,245,31,08,50,016,41,07,42,293,28,15,30,174,36,1*78
$GAGSV,2,2,05,26,28,313,33,1*4F
$GBGSV,4,1,15,38,82,072,39,08,74,007,38,39,72,269,42,16,66,245,23,1*7F
$GBGSV,4,2,15,13,65,339,43,06,64,242,23,46,55,126,44,09,48,231,15,1*7C
$GBGSV,4,3,15,19,45,335,41,20,45,052,41,37,27,054,34,36,27,185,44,1*76
$GBGSV,4,4,15,29,25,218,30,35,23,277,18,22,07,295,33,1*43
$GBGSV,3,1,09,38,82,072,43,39,72,269,43,46,55,126,46,20,45,052,26,4*7B
$GBGSV,3,2,09,19,45,335,43,36,27,185,45,37,27,054,30,29,25,218,28,4*73
$GBGSV,3,3,09,35,23,277,24,4*49
$GNACCURACY,3.5*10
$PAIRSAT,1,35,1,0,200,2,0,200,3,0,200,4,0,200,5,0,201,6,0,200,7,0,200,8,0,200,9,0,200,10,0,221,11,0,200,12,0,200,13,0,201,14,0,200,15,0,201,16,0,200,17,0,200,18,0,221,19,0,200,20,0,200,21,0,200,23,0,221,24,0,221,25,0,200,26,0,200,27,0,200,28,0,200,29,0,200,30,0,200,31,0,200,32,0,200,194,0,621,195,0,621,196,0,620,199,0,621*6A
$PAIRSAT,2,23,65,0,200,67,0,200,68,0,200,69,0,201,70,0,201,71,0,201,72,0,200,73,0,201,74,0,200,75,0,200,76,0,200,77,0,200,78,0,200,79,0,201,80,0,201,81,0,200,82,0,200,83,0,200,84,0,201,85,0,201,86,0,201,87,0,200,88,0,200*52
$PAIRSAT,3,23,2,0,1221,3,0,1221,4,0,1200,5,0,200,7,0,1221,8,0,1221,9,0,1200,10,0,1200,11,0,1200,12,0,1200,13,0,1221,15,0,1221,19,0,1200,21,0,1200,24,0,1200,25,0,1200,26,0,1221,27,0,1200,30,0,1200,31,0,1200,33,0,1200,34,0,1200,36,0,1200*69
$PAIRSAT,4,50,1,0,200,2,0,200,3,0,200,4,0,200,5,0,200,6,0,201,7,0,200,8,0,201,9,0,201,10,0,200,11,0,200,12,0,200,13,0,201,14,0,200,15,0,200,16,0,201,19,0,621,20,0,621,21,0,600,22,0,601,23,0,600,24,0,600,25,0,600,26,0,600,27,0,600,28,0,600,29,0,621,30,0,600,31,0,200,32,0,600,33,0,600,34,0,600,35,0,621,36,0,621,37,0,621,38,0,621,39,0,621,40,0,600,41,0,600,42,0,600,43,0,600,44,0,600,45,0,600,46,0,621,56,0,200,57,0,200,58,0,200,59,0,600,60,0,600,61,0,600*43
$PAIRDGP,1,15*6C
$GNGGA,110703.200,2500.8029473,N,12132.4812950,E,4,61,0.43,15.857,M,15.25,M,1,3335*4F
$GNRMC,110703.200,A,2500.8029473,N,12132.4812950,E,0.01,197.87,260623,,,R,V*19
$GPHDT,43.877,T*0A
$GNACCURACY,3.5*10
$GNGGA,110703.300,2500.8029449,N,12132.4812950,E,4,61,0.43,15.870,M,15.25,M,1,3335*42
$GNRMC,110703.300,A,2500.8029449,N,12132.4812950,E,0.01,197.87,260623,,,R,V*11
$GPHDT,,T*1B
$GNACCURACY,3.5*10
$GNGGA,110703.400,2500.8029441,N,12132.4812950,E,4,61,0.43,15.864,M,15.25,M,1,3335*48
$GNRMC,110703.400,A,2500.8029441,N,12132.4812950,E,0.01,197.87,260623,,,R,V*1E
$GPHDT,43.421,T*05
$GNACCURACY,3.5*10
$GNGGA,110703.500,2500.8029452,N,12132.4812953,E,4,61,0.43,15.859,M,15.25,M,0,3335*47
$GNRMC,110703.500,A,2500.8029452,N,12132.4812953,E,0.01,197.87,260623,,,R,V*1E
$GPHDT,,T*1B
$GNACCURACY,3.5*10
$GNGGA,110703.600,2500.8029447,N,12132.4812948,E,4,62,0.42,15.852,M,15.25,M,0,3335*43
$GNRMC,110703.600,A,2500.8029447,N,12132.4812948,E,0.01,197.87,260623,,,R,V*13
$GPHDT,43.711,T*05
$GNACCURACY,3.5*10
$GNGGA,110703.700,2500.8029446,N,12132.4812950,E,4,62,0.42,15.871,M,15.25,M,0,3335*4B
$GNRMC,110703.700,A,2500.8029446,N,12132.4812950,E,0.01,197.87,260623,,,R,V*1A
$GPHDT,,T*1B
$GNACCURACY,3.5*10
$GNGGA,110703.800,2500.8029461,N,12132.4812962,E,4,62,0.42,15.858,M,15.25,M,0,3335*4B
$GNRMC,110703.800,A,2500.8029461,N,12132.4812962,E,0.01,197.87,260623,,,R,V*11
$GPHDT,43.567,T*06
$GNACCURACY,3.5*10
$GNGGA,110703.900,2500.8029456,N,12132.4812966,E,4,62,0.42,15.859,M,15.25,M,0,3335*4B
$GNRMC,110703.900,A,2500.8029456,N,12132.4812966,E,0.01,197.87,260623,,,R,V*10
$GPHDT,,T*1B
$GNACCURACY,3.5*10
$GNGGA,110704.000,2500.8029456,N,12132.4812945,E,4,62,0.42,15.852,M,15.25,M,1,3335*4E
$GNRMC,110704.000,A,2500.8029456,N,12132.4812945,E,0.01,197.87,260623,,,R,V*1F
$GPHDT,43.927,T*0E
$GNACCURACY,3.5*10
$GNGGA,110704.100,2500.8029466,N,12132.4812950,E,4,62,0.42,15.859,M,15.25,M,1,3335*43
$GNRMC,110704.100,A,2500.8029466,N,12132.4812950,E,0.01,197.87,260623,,,R,V*19
$GPHDT,,T*1B
$GNGSA,A,3,24,196,18,199,23,15,195,194,05,13,10,,0.78,0.42,0.65,1*09
$GNGSA,A,3,80,85,70,73,86,71,84,79,69,,,,0.78,0.42,0.65,2*0B
$GNGSA,A,3,13,08,07,15,26,02,03,,,,,,0.78,0.42,0.65,3*05
$GNGSA,A,3,38,08,39,16,13,06,46,19,20,37,36,29,0.78,0.42,0.65,4*06
$GNGSA,A,3,35,,,,,,,,,,,,0.78,0.42,0.65,4*08
$GPGSV,4,1,16,24,81,076,40,196,74,060,38,18,61,266,25,199,60,167,38,1*6B
$GPGSV,4,2,16,23,43,333,41,15,41,037,31,195,37,179,44,194,27,140,43,1*6F
$GPGSV,4,3,16,05,25,111,39,12,15,148,23,13,14,051,27,10,12,314,36,1*61
$GPGSV,4,4,16,32,05,262,16,29,05,203,,25,03,181,,20,03,125,,1*62
$GPGSV,2,1,08,24,81,076,49,196,74,060,40,18,61,266,36,199,60,167,47,8*67
$GPGSV,2,2,08,23,43,333,43,195,37,179,45,194,27,140,40,10,12,314,38,8*67
$GLGSV,3,1,09,80,47,093,35,85,41,258,18,70,39,357,24,73,28,163,32,1*7B
$GLGSV,3,2,09,86,24,313,27,71,18,304,23,84,17,194,24,79,17,039,28,1*7D
$GLGSV,3,3,09,69,16,064,29,1*40
$GAGSV,2,1,08,13,62,244,19,08,50,016,39,07,42,293,15,15,30,174,34,7*7B
$GAGSV,2,2,08,26,28,313,28,02,23,093,24,30,20,148,,03,14,058,26,7*72
$GAGSV,2,1,05,13,62,244,30,08,50,016,41,07,42,293,22,15,30,174,36,1*72
$GAGSV,2,2,05,26,28,313,35,1*49
$GBGSV,4,1,15,38,82,072,39,08,74,007,38,39,72,269,42,16,66,245,28,1*74
$GBGSV,4,2,15,13,65,339,43,06,64,242,23,46,55,126,44,09,48,231,15,1*7C
$GBGSV,4,3,15,19,45,335,43,20,45,052,41,37,27,054,35,36,27,185,44,1*75
$GBGSV,4,4,15,29,25,218,30,35,23,277,18,22,07,295,31,1*41
$GBGSV,3,1,10,38,82,072,43,39,72,269,43,46,55,126,46,19,45,335,43,4*78
$GBGSV,3,2,10,20,45,052,25,37,27,054,31,36,27,185,45,29,25,218,26,4*7C
$GBGSV,3,3,10,35,23,277,24,22,07,295,24,4*7E
$GNACCURACY,3.5*10
$PAIRSAT,1,35,1,0,200,2,0,200,3,0,200,4,0,200,5,0,201,6,0,200,7,0,200,8,0,200,9,0,200,10,0,221,11,0,200,12,0,200,13,0,201,14,0,200,15,0,201,16,0,200,17,0,200,18,0,221,19,0,200,20,0,200,21,0,200,23,0,221,24,0,221,25,0,200,26,0,200,27,0,200,28,0,200,29,0,200,30,0,200,31,0,200,32,0,200,194,0,621,195,0,621,196,0,620,199,0,621*6A
$PAIRSAT,2,23,65,0,200,67,0,200,68,0,200,69,0,201,70,0,201,71,0,201,72,0,200,73,0,201,74,0,200,75,0,200,76,0,200,77,0,200,78,0,200,79,0,201,80,0,201,81,0,200,82,0,200,83,0,200,84,0,201,85,0,201,86,0,201,87,0,200,88,0,200*52
$PAIRSAT,3,23,2,0,1221,3,0,1221,4,0,1200,5,0,200,7,0,1221,8,0,1221,9,0,1200,10,0,1200,11,0,1200,12,0,1200,13,0,1221,15,0,1221,19,0,1200,21,0,1200,24,0,1200,25,0,1200,26,0,1221,27,0,1200,30,0,1200,31,0,1200,33,0,1200,34,0,1200,36,0,1200*69
$PAIRSAT,4,50,1,0,200,2,0,200,3,0,200,4,0,200,5,0,200,6,0,201,7,0,200,8,0,201,9,0,201,10,0,200,11,0,200,12,0,200,13,0,201,14,0,200,15,0,200,16,0,201,19,0,621,20,0,621,21,0,600,22,0,601,23,0,600,24,0,600,25,0,600,26,0,600,27,0,600,28,0,600,29,0,621,30,0,600,31,0,200,32,0,600,33,0,600,34,0,600,35,0,621,36,0,621,37,0,621,38,0,621,39,0,621,40,0,600,41,0,600,42,0,600,43,0,600,44,0,600,45,0,600,46,0,621,56,0,200,57,0,200,58,0,200,59,0,600,60,0,600,61,0,600*43
$PAIRDGP,1,15*6C
$GNGGA,110704.200,2500.8029464,N,12132.4812957,E,4,62,0.42,15.858,M,15.25,M,1,3335*44
$GNRMC,110704.200,A,2500.8029464,N,12132.4812957,E,0.01,197.87,260623,,,R,V*1F
$GPHDT,43.763,T*00
$GNACCURACY,3.5*10
$GNGGA,110704.300,2500.8029459,N,12132.4812935,E,4,62,0.42,15.865,M,15.25,M,1,3335*41
$GNRMC,110704.300,A,2500.8029459,N,12132.4812935,E,0.01,197.87,260623,,,R,V*14
$GPHDT,,T*1B
$GNACCURACY,3.5*10
$GNGGA,110704.400,2500.8029466,N,12132.4812944,E,4,62,0.42,15.857,M,15.25,M,1,3335*4D
$GNRMC,110704.400,A,2500.8029466,N,12132.4812944,E,0.01,197.87,260623,,,R,V*19
$GPHDT,43.789,T*04
$GNACCURACY,3.5*10
$GNGGA,110704.500,2500.8029471,N,12132.4812967,E,4,62,0.42,15.865,M,15.25,M,0,3335*4B
$GNRMC,110704.500,A,2500.8029471,N,12132.4812967,E,0.01,197.87,260623,,,R,V*1F
$GPHDT,,T*1B
$GNACCURACY,3.6*13
$GNGGA,110704.600,2500.8029432,N,12132.4812957,E,4,62,0.42,15.868,M,15.25,M,0,3335*41
$GNRMC,110704.600,A,2500.8029432,N,12132.4812957,E,0.01,197.87,260623,,,R,V*18
$GPHDT,43.331,T*03
$GNACCURACY,3.6*13
$GNGGA,110704.700,2500.8029457,N,12132.4812948,E,4,62,0.42,15.857,M,15.25,M,0,3335*41
$GNRMC,110704.700,A,2500.8029457,N,12132.4812948,E,0.01,197.87,260623,,,R,V*14
$GPHDT,,T*1B
$GNACCURACY,3.6*13
$GNGGA,110704.800,2500.8029464,N,12132.4812959,E,4,62,0.42,15.855,M,15.25,M,0,3335*4C
$GNRMC,110704.800,A,2500.8029464,N,12132.4812959,E,0.01,197.87,260623,,,R,V*1B
$GPHDT,43.830,T*09
$GNACCURACY,3.6*13
$GNGGA,110704.900,2500.8029468,N,12132.4812955,E,4,62,0.42,15.861,M,15.25,M,0,3335*4A
$GNRMC,110704.900,A,2500.8029468,N,12132.4812955,E,0.01,197.87,260623,,,R,V*1A
$GPHDT,,T*1B
$GNACCURACY,3.6*13
$GNGGA,110705.000,2500.8029467,N,12132.4812995,E,4,62,0.42,15.865,M,15.25,M,1,3335*44
$GNRMC,110705.000,A,2500.8029467,N,12132.4812995,E,0.01,197.87,260623,,,R,V*11
$GPHDT,43.351,T*05
$GNACCURACY,3.6*13
$GNGGA,110705.100,2500.8029484,N,12132.4812998,E,4,62,0.42,15.860,M,15.25,M,1,3335*40
$GNRMC,110705.100,A,2500.8029484,N,12132.4812998,E,0.01,197.87,260623,,,R,V*10
$GPHDT,,T*1B
$GNGSA,A,3,24,196,18,199,23,15,195,194,05,13,10,,0.78,0.42,0.65,1*09
$GNGSA,A,3,80,85,70,73,86,71,84,79,69,,,,0.78,0.42,0.65,2*0B
$GNGSA,A,3,13,08,07,15,26,02,03,,,,,,0.78,0.42,0.65,3*05
$GNGSA,A,3,38,08,39,16,13,06,46,19,20,36,37,29,0.78,0.42,0.65,4*06
$GNGSA,A,3,35,,,,,,,,,,,,0.78,0.42,0.65,4*08
$GPGSV,4,1,16,24,81,076,40,196,74,060,38,18,61,266,30,199,60,167,38,1*6F
$GPGSV,4,2,16,23,43,333,41,15,41,037,31,195,37,179,44,194,27,140,43,1*6F
$GPGSV,4,3,16,05,25,111,39,12,15,148,22,13,14,051,28,10,12,314,40,1*6E
$GPGSV,4,4,16,32,05,262,16,29,05,203,,25,03,181,,20,03,125,,1*62
$GPGSV,2,1,08,24,81,076,49,196,74,060,41,18,61,266,35,199,60,167,46,8*64
$GPGSV,2,2,08,23,43,333,42,195,37,179,44,194,27,140,39,10,12,314,38,8*69
$GLGSV,3,1,09,80,47,093,36,85,41,258,19,70,39,357,26,73,28,163,32,1*7B
$GLGSV,3,2,09,86,24,313,26,71,18,304,26,84,17,194,22,79,17,039,28,1*7F
$GLGSV,3,3,09,69,16,064,27,1*4E
$GAGSV,2,1,07,13,62,244,23,08,50,016,39,07,42,293,18,15,30,174,32,7*76
$GAGSV,2,2,07,26,28,313,27,02,23,093,24,03,14,058,26,7*4E
$GAGSV,2,1,05,13,62,244,31,08,50,016,41,07,42,293,27,15,30,174,37,1*77
$GAGSV,2,2,05,26,28,313,35,1*49
$GBGSV,4,1,15,38,82,072,39,08,74,007,38,39,72,269,43,16,66,245,31,1*7D
$GBGSV,4,2,15,13,65,339,43,06,64,242,23,46,55,126,44,09,48,231,15,1*7C
$GBGSV,4,3,15,19,45,335,43,20,45,052,41,36,27,185,44,37,27,054,35,1*75
$GBGSV,4,4,15,29,25,218,29,35,23,277,18,22,07,295,30,1*48
$GBGSV,3,1,10,38,82,072,43,39,72,269,44,46,55,126,46,19,45,335,43,4*7F
$GBGSV,3,2,10,20,45,052,25,37,27,054,30,36,27,185,45,29,25,218,26,4*7D
$GBGSV,3,3,10,35,23,277,24,22,07,295,21,4*7B
$GNACCURACY,3.5*10
$PAIRSAT,1,35,1,0,200,2,0,200,3,0,200,4,0,200,5,0,201,6,0,200,7,0,200,8,0,200,9,0,200,10,0,221,11,0,200,12,0,200,13,0,201,14,0,200,15,0,201,16,0,200,17,0,200,18,0,221,19,0,200,20,0,200,21,0,200,23,0,221,24,0,221,25,0,200,26,0,200,27,0,200,28,0,200,29,0,200,30,0,200,31,0,200,32,0,200,194,0,621,195,0,621,196,0,620,199,0,621*6A
$PAIRSAT,2,23,65,0,200,67,0,200,68,0,200,69,0,201,70,0,201,71,0,201,72,0,200,73,0,201,74,0,200,75,0,200,76,0,200,77,0,200,78,0,200,79,0,201,80,0,201,81,0,200,82,0,200,83,0,200,84,0,201,85,0,201,86,0,201,87,0,200,88,0,200*52
$PAIRSAT,3,23,2,0,1221,3,0,1221,4,0,1200,5,0,200,7,0,1221,8,0,1221,9,0,1200,10,0,1200,11,0,1200,12,0,1200,13,0,1221,15,0,1221,19,0,1200,21,0,1200,24,0,1200,25,0,1200,26,0,1221,27,0,1200,30,0,1200,31,0,1200,33,0,1200,34,0,1200,36,0,1200*69
$PAIRSAT,4,50,1,0,200,2,0,200,3,0,200,4,0,200,5,0,200,6,0,201,7,0,200,8,0,201,9,0,201,10,0,200,11,0,200,12,0,200,13,0,201,14,0,200,15,0,200,16,0,201,19,0,621,20,0,621,21,0,600,22,0,601,23,0,600,24,0,600,25,0,600,26,0,600,27,0,600,28,0,600,29,0,621,30,0,600,31,0,200,32,0,600,33,0,600,34,0,600,35,0,621,36,0,621,37,0,621,38,0,621,39,0,621,40,0,600,41,0,600,42,0,600,43,0,600,44,0,600,45,0,600,46,0,621,56,0,200,57,0,200,58,0,200,59,0,600,60,0,600,61,0,600*43
$PAIRDGP,1,15*6C
$GNGGA,110705.200,2500.8029436,N,12132.4812925,E,4,62,0.42,15.867,M,15.25,M,1,3335*4B
$GNRMC,110705.200,A,2500.8029436,N,12132.4812925,E,0.01,197.87,260623,,,R,V*1C
$GPHDT,43.535,T*01
$GNACCURACY,3.5*10
$GNGGA,110705.300,2500.8029426,N,12132.4812939,E,4,62,0.42,15.857,M,15.25,M,0,3335*44
$GNRMC,110705.300,A,2500.8029426,N,12132.4812939,E,0.01,197.87,260623,,,R,V*11
$GPHDT,,T*1B
$GNACCURACY,3.5*10
$GNGGA,110705.400,2500.8029462,N,12132.4812978,E,4,62,0.42,15.852,M,15.25,M,0,3335*43
$GNRMC,110705.400,A,2500.8029462,N,12132.4812978,E,0.01,197.87,260623,,,R,V*13
$GPHDT,43.512,T*04
$GNACCURACY,3.5*10
$GNGGA,110705.500,2500.8029469,N,12132.4812968,E,4,62,0.42,15.852,M,15.25,M,0,3335*48
$GNRMC,110705.500,A,2500.8029469,N,12132.4812968,E,0.01,197.87,260623,,,R,V*18
$GPHDT,,T*1B
$GNACCURACY,3.5*10
$GNGGA,110705.600,2500.8029434,N,12132.4812931,E,4,62,0.42,15.853,M,15.25,M,0,3335*4E
$GNRMC,110705.600,A,2500.8029434,N,12132.4812931,E,0.01,197.87,260623,,,R,V*1F
$GPHDT,42.983,T*01
$GNACCURACY,3.5*10
$GNGGA,110705.700,2500.8029465,N,12132.4812965,E,4,62,0.42,15.842,M,15.25,M,0,3335*4A
$GNRMC,110705.700,A,2500.8029465,N,12132.4812965,E,0.01,197.87,260623,,,R,V*1B
$GPHDT,,T*1B
$GNACCURACY,3.5*10
$GNGGA,110705.800,2500.8029465,N,12132.4812961,E,4,62,0.42,15.860,M,15.25,M,0,3335*41
$GNRMC,110705.800,A,2500.8029465,N,12132.4812961,E,0.00,197.87,260623,,,R,V*11
$GPHDT,43.559,T*0B
$GNACCURACY,3.5*10
$GNGGA,110705.900,2500.8029449,N,12132.4812934,E,4,62,0.42,15.859,M,15.25,M,0,3335*44
$GNRMC,110705.900,A,2500.8029449,N,12132.4812934,E,0.00,197.87,260623,,,R,V*1E
$GPHDT,,T*1B
$GNACCURACY,3.6*13
$GNGGA,110706.000,2500.8029451,N,12132.4812943,E,4,62,0.42,15.855,M,15.25,M,1,3335*4A
$GNRMC,110706.000,A,2500.8029451,N,12132.4812943,E,0.00,197.87,260623,,,R,V*1D
$GPHDT,43.629,T*0F
$GNACCURACY,3.5*10
$GNGGA,110706.100,2500.8029454,N,12132.4812927,E,4,62,0.42,15.859,M,15.25,M,1,3335*40
$GNRMC,110706.100,A,2500.8029454,N,12132.4812927,E,0.00,197.87,260623,,,R,V*1B
$GPHDT,,T*1B
$GNGSA,A,3,24,196,18,199,23,15,195,194,05,13,10,,0.78,0.42,0.65,1*09
$GNGSA,A,3,80,85,70,73,86,71,84,79,69,,,,0.78,0.42,0.65,2*0B
$GNGSA,A,3,13,08,07,15,26,02,03,,,,,,0.78,0.42,0.65,3*05
$GNGSA,A,3,38,08,39,16,13,06,46,19,20,36,37,29,0.78,0.42,0.65,4*06
$GNGSA,A,3,35,,,,,,,,,,,,0.78,0.42,0.65,4*08
$GPGSV,4,1,16,24,81,076,40,196,74,060,38,18,61,266,29,199,60,167,38,1*67
$GPGSV,4,2,16,23,43,333,41,15,41,037,31,195,37,179,44,194,27,140,43,1*6F
$GPGSV,4,3,16,05,25,111,39,12,15,148,21,13,14,051,28,10,12,314,40,1*6D
$GPGSV,4,4,16,32,05,262,17,29,05,203,,25,03,181,,20,03,125,,1*63
$GPGSV,2,1,08,24,81,076,49,196,74,060,42,18,61,266,35,199,60,167,47,8*66
$GPGSV,2,2,08,23,43,333,42,195,37,179,44,194,27,140,40,10,12,314,38,8*67
$GLGSV,3,1,09,80,47,093,36,85,41,258,16,70,39,357,25,73,28,163,33,1*76
$GLGSV,3,2,09,86,24,313,27,71,18,304,23,84,17,194,23,79,17,039,27,1*75
$GLGSV,3,3,09,69,16,064,27,1*4E
$GAGSV,2,1,07,13,62,244,20,08,50,016,39,07,42,293,20,15,30,174,33,7*7F
$GAGSV,2,2,07,26,28,313,26,02,23,093,25,03,14,058,26,7*4E
$GAGSV,2,1,05,13,62,244,31,08,50,016,41,07,42,293,29,15,30,174,37,1*79
$GAGSV,2,2,05,26,28,313,33,1*4F
$GBGSV,4,1,15,38,82,072,39,08,74,007,38,39,72,269,43,16,66,245,28,1*75
$GBGSV,4,2,15,13,65,339,43,06,64,242,23,46,55,126,44,09,48,231,17,1*7E
$GBGSV,4,3,15,19,45,335,43,20,45,052,41,36,27,185,44,37,27,054,35,1*75
$GBGSV,4,4,15,29,25,218,30,35,23,277,17,22,07,295,28,1*46
$GBGSV,3,1,10,38,82,072,43,39,72,269,44,46,55,126,46,19,45,335,43,4*7F
$GBGSV,3,2,10,20,45,052,24,37,27,054,30,36,27,185,45,29,25,218,27,4*7D
$GBGSV,3,3,10,35,23,277,25,22,07,295,22,4*79
$GNACCURACY,3.6*13
$PAIRSAT,1,35,1,0,200,2,0,200,3,0,200,4,0,200,5,0,201,6,0,200,7,0,200,8,0,200,9,0,200,10,0,221,11,0,200,12,0,200,13,0,201,14,0,200,15,0,201,16,0,200,17,0,200,18,0,221,19,0,200,20,0,200,21,0,200,23,0,221,24,0,221,25,0,200,26,0,200,27,0,200,28,0,200,29,0,200,30,0,200,31,0,200,32,0,200,194,0,621,195,0,621,196,0,620,199,0,621*6A
$PAIRSAT,2,23,65,0,200,67,0,200,68,0,200,69,0,201,70,0,201,71,0,201,72,0,200,73,0,201,74,0,200,75,0,200,76,0,200,77,0,200,78,0,200,79,0,201,80,0,201,81,0,200,82,0,200,83,0,200,84,0,201,85,0,201,86,0,201,87,0,200,88,0,200*52
$PAIRSAT,3,23,2,0,1221,3,0,1221,4,0,1200,5,0,200,7,0,1221,8,0,1221,9,0,1200,10,0,1200,11,0,1200,12,0,1200,13,0,1221,15,0,1221,19,0,1200,21,0,1200,24,0,1200,25,0,1200,26,0,1221,27,0,1200,30,0,1200,31,0,1200,33,0,1200,34,0,1200,36,0,1200*69
$PAIRSAT,4,50,1,0,200,2,0,200,3,0,200,4,0,200,5,0,200,6,0,201,7,0,200,8,0,201,9,0,201,10,0,200,11,0,200,12,0,200,13,0,201,14,0,200,15,0,200,16,0,201,19,0,621,20,0,621,21,0,600,22,0,601,23,0,600,24,0,600,25,0,600,26,0,600,27,0,600,28,0,600,29,0,621,30,0,600,31,0,200,32,0,600,33,0,600,34,0,600,35,0,621,36,0,621,37,0,621,38,0,621,39,0,621,40,0,600,41,0,600,42,0,600,43,0,600,44,0,600,45,0,600,46,0,621,56,0,200,57,0,200,58,0,200,59,0,600,60,0,600,61,0,600*43
$PAIRDGP,1,15*6C
$GNGGA,110706.200,2500.8029446,N,12132.4812921,E,4,62,0.42,15.860,M,15.25,M,1,3335*4C
$GNRMC,110706.200,A,2500.8029446,N,12132.4812921,E,0.00,197.87,260623,,,R,V*1D
$GPHDT,43.651,T*00
$GNACCURACY,3.5*10
$GNGGA,110706.300,2500.8029463,N,12132.4812934,E,4,62,0.42,15.855,M,15.25,M,1,3335*48
$GNRMC,110706.300,A,2500.8029463,N,12132.4812934,E,0.00,197.87,260623,,,R,V*1F
$GPHDT,,T*1B
$GNACCURACY,3.6*13
$GNGGA,110706.400,2500.8029463,N,12132.4812932,E,4,62,0.42,15.865,M,15.25,M,1,3335*4A
$GNRMC,110706.400,A,2500.8029463,N,12132.4812932,E,0.00,197.87,260623,,,R,V*1E
$GPHDT,43.536,T*02
$GNACCURACY,3.6*13
$GNGGA,110706.500,2500.8029456,N,12132.4812938,E,4,62,0.42,15.859,M,15.25,M,1,3335*48
$GNRMC,110706.500,A,2500.8029456,N,12132.4812938,E,0.00,197.87,260623,,,R,V*13
$GPHDT,,T*1B
$GNACCURACY,3.6*13
$GNGGA,110706.600,2500.8029457,N,12132.4812937,E,4,62,0.42,15.866,M,15.25,M,0,3335*48
$GNRMC,110706.600,A,2500.8029457,N,12132.4812937,E,0.00,197.87,260623,,,R,V*1E
$GPHDT,43.582,T*0D
$GNACCURACY,3.6*13
$GNGGA,110706.700,2500.8029459,N,12132.4812937,E,4,62,0.42,15.860,M,15.25,M,0,3335*41
$GNRMC,110706.700,A,2500.8029459,N,12132.4812937,E,0.00,197.87,260623,,,R,V*11
$GPHDT,,T*1B
$GNACCURACY,3.5*10
$GNGGA,110706.800,2500.8029453,N,12132.4812924,E,4,62,0.42,15.860,M,15.25,M,0,3335*46
$GNRMC,110706.800,A,2500.8029453,N,12132.4812924,E,0.00,197.87,260623,,,R,V*16
$GPHDT,43.342,T*07
$GNACCURACY,3.5*10
$GNGGA,110706.900,2500.8029464,N,12132.4812943,E,4,62,0.42,15.853,M,15.25,M,0,3335*42
$GNRMC,110706.900,A,2500.8029464,N,12132.4812943,E,0.00,197.87,260623,,,R,V*12
$GPHDT,,T*1B
$GNACCURACY,3.5*10
$GNGGA,110707.000,2500.8029470,N,12132.4812937,E,4,61,0.42,15.857,M,15.25,M,1,3335*4A
$GNRMC,110707.000,A,2500.8029470,N,12132.4812937,E,0.00,197.87,260623,,,R,V*1C
$GPHDT,43.469,T*09
$GNACCURACY,3.5*10
$GNGGA,110707.100,2500.8029506,N,12132.4812934,E,4,61,0.42,15.865,M,15.25,M,1,3335*49
$GNRMC,110707.100,A,2500.8029506,N,12132.4812934,E,0.00,197.87,260623,,,R,V*1E
$GPHDT,,T*1B
$GNGSA,A,3,24,196,18,199,23,15,195,194,05,13,10,,0.78,0.42,0.65,1*09
$GNGSA,A,3,80,85,70,73,86,71,79,84,69,,,,0.78,0.42,0.65,2*0B
$GNGSA,A,3,13,08,07,15,26,02,03,,,,,,0.78,0.42,0.65,3*05
$GNGSA,A,3,38,08,39,16,13,06,46,20,19,36,37,29,0.78,0.42,0.65,4*06
$GNGSA,A,3,35,,,,,,,,,,,,0.78,0.42,0.65,4*08
$GPGSV,4,1,16,24,81,076,39,196,74,060,38,18,61,266,29,199,60,167,38,1*69
$GPGSV,4,2,16,23,43,333,41,15,41,037,31,195,37,179,44,194,27,140,43,1*6F
$GPGSV,4,3,16,05,25,111,39,12,15,148,20,13,14,051,28,10,12,314,39,1*62
$GPGSV,4,4,16,32,05,262,18,29,05,203,,25,03,181,,20,03,125,,1*6C
$GPGSV,2,1,08,24,81,076,49,196,74,060,42,18,61,266,35,199,60,167,47,8*66
$GPGSV,2,2,08,23,43,333,43,195,37,179,44,194,27,140,40,10,12,314,38,8*66
$GLGSV,3,1,09,80,47,093,36,85,41,258,15,70,39,357,25,73,28,163,33,1*75
$GLGSV,3,2,09,86,24,313,26,71,18,304,24,79,17,039,27,84,17,194,24,1*74
$GLGSV,3,3,09,69,16,064,26,1*4F
$GAGSV,2,1,08,13,62,244,19,08,50,016,39,07,42,293,20,15,30,174,34,7*7D
$GAGSV,2,2,08,26,28,313,26,02,23,093,26,30,20,148,,03,14,058,27,7*7F
$GAGSV,2,1,05,13,62,244,31,08,50,016,41,07,42,293,29,15,30,174,37,1*79
$GAGSV,2,2,05,26,28,313,33,1*4F
$GBGSV,4,1,16,38,82,072,39,08,74,007,39,39,72,269,43,16,66,245,29,1*76
$GBGSV,4,2,16,13,65,339,43,06,64,242,23,46,55,126,44,56,48,307,,1*75
$GBGSV,4,3,16,09,48,231,17,20,45,052,41,19,45,335,43,36,27,185,44,1*73
$GBGSV,4,4,16,37,27,054,35,29,25,218,31,35,23,277,14,22,07,295,28,1*71
$GBGSV,3,1,10,38,82,072,43,39,72,269,44,46,55,126,46,19,45,335,43,4*7F
$GBGSV,3,2,10,20,45,052,24,37,27,054,30,36,27,185,45,29,25,218,27,4*7D
$GBGSV,3,3,10,35,23,277,25,22,07,295,22,4*79
$GNACCURACY,3.5*10
$PAIRSAT,1,35,1,0,200,2,0,200,3,0,200,4,0,200,5,0,201,6,0,200,7,0,200,8,0,200,9,0,200,10,0,221,11,0,200,12,0,200,13,0,201,14,0,200,15,0,201,16,0,200,17,0,200,18,0,221,19,0,200,20,0,200,21,0,200,23,0,221,24,0,221,25,0,200,26,0,200,27,0,200,28,0,200,29,0,200,30,0,200,31,0,200,32,0,200,194,0,621,195,0,621,196,0,620,199,0,621*6A
$PAIRSAT,2,23,65,0,200,67,0,200,68,0,200,69,0,201,70,0,201,71,0,201,72,0,200,73,0,201,74,0,200,75,0,200,76,0,200,77,0,200,78,0,200,79,0,201,80,0,201,81,0,200,82,0,200,83,0,200,84,0,201,85,0,201,86,0,201,87,0,200,88,0,200*52
$PAIRSAT,3,23,2,0,1221,3,0,1221,4,0,1200,5,0,200,7,0,1221,8,0,1221,9,0,1200,10,0,1200,11,0,1200,12,0,1200,13,0,1221,15,0,1221,19,0,1200,21,0,1200,24,0,1200,25,0,1200,26,0,1221,27,0,1200,30,0,1200,31,0,1200,33,0,1200,34,0,1200,36,0,1200*69
$PAIRSAT,4,50,1,0,200,2,0,200,3,0,200,4,0,200,5,0,200,6,0,201,7,0,200,8,0,201,9,0,201,10,0,200,11,0,200,12,0,200,13,0,201,14,0,200,15,0,200,16,0,201,19,0,621,20,0,621,21,0,600,22,0,601,23,0,600,24,0,600,25,0,600,26,0,600,27,0,600,28,0,600,29,0,621,30,0,600,31,0,200,32,0,600,33,0,600,34,0,600,35,0,621,36,0,621,37,0,621,38,0,621,39,0,621,40,0,600,41,0,600,42,0,600,43,0,600,44,0,600,45,0,600,46,0,621,56,0,200,57,0,200,58,0,200,59,0,600,60,0,600,61,0,600*43
$PAIRDGP,1,15*6C
$GNGGA,110707.200,2500.8029483,N,12132.4812948,E,4,62,0.42,15.862,M,15.25,M,1,3335*49
$GNRMC,110707.200,A,2500.8029483,N,12132.4812948,E,0.00,197.87,260623,,,R,V*1A
$GPHDT,43.539,T*0D
$GNACCURACY,3.5*10
$GNGGA,110707.300,2500.8029463,N,12132.4812930,E,4,62,0.42,15.858,M,15.25,M,1,3335*40
$GNRMC,110707.300,A,2500.8029463,N,12132.4812930,E,0.00,197.87,260623,,,R,V*1A
$GPHDT,,T*1B
$GNACCURACY,3.6*13
$GNGGA,110707.400,2500.8029475,N,12132.4812926,E,4,62,0.42,15.856,M,15.25,M,1,3335*49
$GNRMC,110707.400,A,2500.8029475,N,12132.4812926,E,0.00,197.87,260623,,,R,V*1D
$GPHDT,43.452,T*01
$GNACCURACY,3.5*10
$GNGGA,110707.500,2500.8029471,N,12132.4812927,E,4,61,0.42,15.853,M,15.25,M,1,3335*4B
$GNRMC,110707.500,A,2500.8029471,N,12132.4812927,E,0.00,197.87,260623,,,R,V*19
$GPHDT,,T*1B
$GNACCURACY,3.5*10
$GNGGA,110707.600,2500.8029471,N,12132.4812931,E,4,61,0.42,15.866,M,15.25,M,1,3335*49
$GNRMC,110707.600,A,2500.8029471,N,12132.4812931,E,0.00,197.87,260623,,,R,V*1D
$GPHDT,43.045,T*03
$GNACCURACY,3.6*13
$GNGGA,110707.700,2500.8029445,N,12132.4812918,E,4,61,0.42,15.865,M,15.25,M,0,3335*46
$GNRMC,110707.700,A,2500.8029445,N,12132.4812918,E,0.00,197.87,260623,,,R,V*10
$GPHDT,,T*1B
$GNACCURACY,3.5*10
$GNGGA,110707.800,2500.8029457,N,12132.4812910,E,4,61,0.42,15.863,M,15.25,M,0,3335*44
$GNRMC,110707.800,A,2500.8029457,N,12132.4812910,E,0.00,197.87,260623,,,R,V*14
$GPHDT,43.718,T*0C
$GNACCURACY,3.5*10
$GNGGA,110707.900,2500.8029459,N,12132.4812958,E,4,61,0.42,15.856,M,15.25,M,0,3335*41
$GNRMC,110707.900,A,2500.8029459,N,12132.4812958,E,0.00,197.87,260623,,,R,V*17
$GPHDT,,T*1B
$GNACCURACY,3.5*10
$GNGGA,110708.000,2500.8029480,N,12132.4812945,E,4,61,0.42,15.850,M,15.25,M,1,3335*48
$GNRMC,110708.000,A,2500.8029480,N,12132.4812945,E,0.00,197.87,260623,,,R,V*19
$GPHDT,43.380,T*09
$GNACCURACY,3.5*10
$GNGGA,110708.100,2500.8029475,N,12132.4812941,E,4,61,0.42,15.863,M,15.25,M,1,3335*47
$GNRMC,110708.100,A,2500.8029475,N,12132.4812941,E,0.00,197.87,260623,,,R,V*16
$GPHDT,,T*1B
$GNGSA,A,3,24,196,18,199,23,15,195,194,05,13,10,,0.78,0.42,0.65,1*09
$GNGSA,A,3,80,85,70,73,86,71,84,79,69,,,,0.78,0.42,0.65,2*0B
$GNGSA,A,3,13,08,07,15,26,02,03,,,,,,0.78,0.42,0.65,3*05
$GNGSA,A,3,38,08,39,16,13,06,46,20,19,36,37,29,0.78,0.42,0.65,4*06
$GNGSA,A,3,35,,,,,,,,,,,,0.78,0.42,0.65,4*08
$GPGSV,4,1,15,24,81,076,39,196,74,060,38,18,61,266,26,199,60,167,38,1*65
$GPGSV,4,2,15,23,43,333,42,15,41,037,31,195,37,179,44,194,27,140,43,1*6F
$GPGSV,4,3,15,05,25,111,39,12,15,148,21,13,14,051,29,10,12,314,39,1*61
$GPGSV,4,4,15,32,05,262,18,20,03,125,,25,03,181,,1*50
$GPGSV,2,1,08,24,81,076,49,196,74,060,42,18,61,266,36,199,60,167,47,8*65
$GPGSV,2,2,08,23,43,333,43,195,37,179,44,194,27,140,40,10,12,314,38,8*66
$GLGSV,3,1,09,80,47,093,36,85,41,258,14,70,39,357,25,73,28,163,34,1*73
$GLGSV,3,2,09,86,24,313,27,71,18,304,24,84,17,194,24,79,17,039,27,1*75
$GLGSV,3,3,09,69,16,064,26,1*4F
$GAGSV,2,1,08,13,62,244,19,08,50,016,39,07,42,293,21,15,30,174,34,7*7C
$GAGSV,2,2,08,26,28,313,27,02,23,093,26,30,20,148,,03,14,058,27,7*7E
$GAGSV,2,1,05,13,62,244,32,08,50,016,41,07,42,293,29,15,30,174,37,1*7A
$GAGSV,2,2,05,26,28,313,34,1*48
$GBGSV,4,1,16,38,82,072,39,08,74,007,39,39,72,269,43,16,66,245,29,1*76
$GBGSV,4,2,16,13,65,339,43,06,64,242,22,46,55,126,44,09,48,231,19,1*72
$GBGSV,4,3,16,56,48,307,,20,45,052,41,19,45,335,43,36,27,185,44,1*7B
$GBGSV,4,4,16,37,27,054,35,29,25,218,31,35,23,277,15,22,07,295,28,1*70
$GBGSV,3,1,10,38,82,072,43,39,72,269,44,46,55,126,46,19,45,335,43,4*7F
$GBGSV,3,2,10,20,45,052,23,37,27,054,29,36,27,185,45,29,25,218,27,4*72
$GBGSV,3,3,10,35,23,277,25,22,07,295,25,4*7E
$GNACCURACY,3.5*10
$PAIRSAT,1,35,1,0,200,2,0,200,3,0,200,4,0,200,5,0,201,6,0,200,7,0,200,8,0,200,9,0,200,10,0,221,11,0,200,12,0,200,13,0,201,14,0,200,15,0,201,16,0,200,17,0,200,18,0,221,19,0,200,20,0,200,21,0,200,23,0,221,24,0,221,25,0,200,26,0,200,27,0,200,28,0,200,29,0,200,30,0,200,31,0,200,32,0,200,194,0,621,195,0,621,196,0,620,199,0,621*6A
$PAIRSAT,2,23,65,0,200,67,0,200,68,0,200,69,0,201,70,0,201,71,0,201,72,0,200,73,0,201,74,0,200,75,0,200,76,0,200,77,0,200,78,0,200,79,0,201,80,0,201,81,0,200,82,0,200,83,0,200,84,0,201,85,0,201,86,0,201,87,0,200,88,0,200*52
$PAIRSAT,3,23,2,0,1221,3,0,1221,4,0,1200,5,0,200,7,0,1221,8,0,1221,9,0,1200,10,0,1200,11,0,1200,12,0,1200,13,0,1221,15,0,1221,19,0,1200,21,0,1200,24,0,1200,25,0,1200,26,0,1221,27,0,1200,30,0,1200,31,0,1200,33,0,1200,34,0,1200,36,0,1200*69
$PAIRSAT,4,50,1,0,200,2,0,200,3,0,200,4,0,200,5,0,200,6,0,201,7,0,200,8,0,201,9,0,201,10,0,200,11,0,200,12,0,200,13,0,201,14,0,200,15,0,200,16,0,201,19,0,621,20,0,621,21,0,600,22,0,601,23,0,600,24,0,600,25,0,600,26,0,600,27,0,600,28,0,600,29,0,621,30,0,600,31,0,200,32,0,600,33,0,600,34,0,600,35,0,621,36,0,621,37,0,621,38,0,621,39,0,621,40,0,600,41,0,600,42,0,600,43,0,600,44,0,600,45,0,600,46,0,621,56,0,200,57,0,200,58,0,200,59,0,600,60,0,600,61,0,600*43
$PAIRDGP,1,15*6C
$GNGGA,110708.200,2500.8029484,N,12132.4812963,E,4,61,0.42,15.851,M,15.25,M,1,3335*4B
$GNRMC,110708.200,A,2500.8029484,N,12132.4812963,E,0.00,197.87,260623,,,R,V*1B
$GPHDT,43.101,T*02
$GNACCURACY,3.5*10
$GNGGA,110708.300,2500.8029453,N,12132.4812908,E,4,61,0.42,15.862,M,15.25,M,1,3335*4D
$GNRMC,110708.300,A,2500.8029453,N,12132.4812908,E,0.00,197.87,260623,,,R,V*1D
$GPHDT,,T*1B
$GNACCURACY,3.5*10
$GNGGA,110708.400,2500.8029460,N,12132.4812917,E,4,61,0.42,15.858,M,15.25,M,1,3335*4D
$GNRMC,110708.400,A,2500.8029460,N,12132.4812917,E,0.00,197.87,260623,,,R,V*14
$GPHDT,43.767,T*04
$GNACCURACY,3.5*10
$GNGGA,110708.500,2500.8029446,N,12132.4812915,E,4,61,0.42,15.864,M,15.25,M,1,3335*45
$GNRMC,110708.500,A,2500.8029446,N,12132.4812915,E,0.00,197.87,260623,,,R,V*13
$GPHDT,,T*1B
$GNACCURACY,3.5*10
$GNGGA,110708.600,2500.8029463,N,12132.4812909,E,4,61,0.42,15.857,M,15.25,M,1,3335*4C
$GNRMC,110708.600,A,2500.8029463,N,12132.4812909,E,0.00,197.87,260623,,,R,V*1A
$GPHDT,43.693,T*0E
$GNACCURACY,3.5*10
$GNGGA,110708.700,2500.8029464,N,12132.4812905,E,4,61,0.42,15.858,M,15.25,M,1,3335*49
$GNRMC,110708.700,A,2500.8029464,N,12132.4812905,E,0.00,197.87,260623,,,R,V*10
$GPHDT,,T*1B
$GNACCURACY,3.5*10
$GNGGA,110708.800,2500.8029450,N,12132.4812904,E,4,61,0.42,15.867,M,15.25,M,1,3335*4C
$GNRMC,110708.800,A,2500.8029450,N,12132.4812904,E,0.00,197.87,260623,,,R,V*19
$GPHDT,43.609,T*0D
$GNACCURACY,3.4*11
$GNGGA,110708.900,2500.8029469,N,12132.4812921,E,4,61,0.42,15.855,M,15.25,M,1,3335*41
$GNRMC,110708.900,A,2500.8029469,N,12132.4812921,E,0.00,197.87,260623,,,R,V*15
$GPHDT,,T*1B
$GNACCURACY,3.5*10
$GNGGA,110709.000,2500.8029445,N,12132.4812914,E,4,61,0.42,15.855,M,15.25,M,2,3335*42
$GNRMC,110709.000,A,2500.8029445,N,12132.4812914,E,0.00,197.87,260623,,,R,V*15
$PAIR010,0,0,2268,126447*37
$GPHDT,43.628,T*0E
$GNACCURACY,3.5*10
$GNGGA,110709.100,2500.8029451,N,12132.4812916,E,4,61,0.42,15.858,M,15.25,M,2,3335*49
$GNRMC,110709.100,A,2500.8029451,N,12132.4812916,E,0.01,197.87,260623,,,R,V*12
$GPHDT,,T*1B
$GNGSA,A,3,24,196,18,199,23,15,195,194,05,13,10,,0.78,0.42,0.65,1*09
$GNGSA,A,3,80,85,70,73,86,71,79,84,69,,,,0.78,0.42,0.65,2*0B
$GNGSA,A,3,13,08,07,15,26,02,03,,,,,,0.78,0.42,0.65,3*05
$GNGSA,A,3,38,08,39,16,13,06,46,20,19,36,37,29,0.78,0.42,0.65,4*06
$GNGSA,A,3,35,,,,,,,,,,,,0.78,0.42,0.65,4*08
$GPGSV,4,1,16,24,81,076,39,196,74,060,38,18,61,266,29,199,60,167,38,1*69
$GPGSV,4,2,16,23,43,333,42,15,41,037,32,195,37,179,44,194,27,140,43,1*6F
$GPGSV,4,3,16,05,25,111,39,12,15,148,20,13,14,051,29,10,12,314,39,1*63
$GPGSV,4,4,16,32,05,262,18,29,05,203,,25,03,181,,20,03,125,,1*6C
$GPGSV,2,1,08,24,81,076,49,196,74,060,42,18,61,266,36,199,60,167,47,8*65
$GPGSV,2,2,08,23,43,333,43,195,37,179,44,194,27,140,40,10,12,314,38,8*66
$GLGSV,3,1,09,80,47,093,37,85,41,258,14,70,39,357,25,73,28,163,34,1*72
$GLGSV,3,2,09,86,24,312,28,71,18,304,24,79,17,039,26,84,17,194,25,1*7B
$GLGSV,3,3,09,69,16,064,26,1*4F
$GAGSV,2,1,08,13,62,244,21,08,50,016,39,07,42,293,21,15,30,174,33,7*70
$GAGSV,2,2,08,26,28,313,27,02,23,093,27,30,20,148,,03,14,058,27,7*7F
$GAGSV,2,1,05,13,62,244,32,08,50,016,41,07,42,293,29,15,30,174,38,1*75
$GAGSV,2,2,05,26,28,313,34,1*48
$GBGSV,4,1,16,38,82,072,40,08,74,007,39,39,72,269,43,16,66,245,30,1*70
$GBGSV,4,2,16,13,65,339,43,06,64,242,22,46,55,126,44,56,48,307,,1*74
$GBGSV,4,3,16,09,48,231,19,20,45,052,41,19,45,335,43,36,27,185,44,1*7D
$GBGSV,4,4,16,37,27,054,35,29,25,218,31,35,23,277,15,22,07,295,28,1*70
$GBGSV,3,1,10,38,82,072,43,39,72,269,44,46,55,126,46,19,45,335,43,4*7F
$GBGSV,3,2,10,20,45,052,23,37,27,054,29,36,27,185,45,29,25,218,28,4*7D
$GBGSV,3,3,10,35,23,277,26,22,07,295,24,4*7C
$GNACCURACY,3.5*10
$PAIRSAT,1,35,1,0,200,2,0,200,3,0,200,4,0,200,5,0,201,6,0,200,7,0,200,8,0,200,9,0,200,10,0,221,11,0,200,12,0,200,13,0,201,14,0,200,15,0,201,16,0,200,17,0,200,18,0,221,19,0,200,20,0,200,21,0,200,23,0,221,24,0,221,25,0,200,26,0,200,27,0,200,28,0,200,29,0,200,30,0,200,31,0,200,32,0,200,194,0,621,195,0,621,196,0,620,199,0,621*6A
$PAIRSAT,2,23,65,0,200,67,0,200,68,0,200,69,0,201,70,0,201,71,0,201,72,0,200,73,0,201,74,0,200,75,0,200,76,0,200,77,0,200,78,0,200,79,0,201,80,0,201,81,0,200,82,0,200,83,0,200,84,0,201,85,0,201,86,0,201,87,0,200,88,0,200*52
$PAIRSAT,3,23,2,0,1221,3,0,1221,4,0,1200,5,0,200,7,0,1221,8,0,1221,9,0,1200,10,0,1200,11,0,1200,12,0,1200,13,0,1221,15,0,1221,19,0,1200,21,0,1200,24,0,1200,25,0,1200,26,0,1221,27,0,1200,30,0,1200,31,0,1200,33,0,1200,34,0,1200,36,0,1200*69
$PAIRSAT,4,50,1,0,200,2,0,200,3,0,200,4,0,200,5,0,200,6,0,201,7,0,200,8,0,201,9,0,201,10,0,200,11,0,200,12,0,200,13,0,201,14,0,200,15,0,200,16,0,201,19,0,621,20,0,621,21,0,600,22,0,601,23,0,600,24,0,600,25,0,600,26,0,600,27,0,600,28,0,600,29,0,621,30,0,600,31,0,200,32,0,600,33,0,600,34,0,600,35,0,621,36,0,621,37,0,621,38,0,621,39,0,621,40,0,600,41,0,600,42,0,600,43,0,600,44,0,600,45,0,600,46,0,621,56,0,200,57,0,200,58,0,200,59,0,600,60,0,600,61,0,600*43
$PAIRDGP,1,15*6C
$GNGGA,110709.200,2500.8029468,N,12132.4812907,E,4,61,0.42,15.850,M,15.25,M,2,3335*48
$GNRMC,110709.200,A,2500.8029468,N,12132.4812907,E,0.01,197.87,260623,,,R,V*1B
$GPHDT,43.731,T*07
$GNACCURACY,3.5*10
$GNGGA,110709.300,2500.8029466,N,12132.4812915,E,4,61,0.42,15.861,M,15.25,M,2,3335*46
$GNRMC,110709.300,A,2500.8029466,N,12132.4812915,E,0.01,197.87,260623,,,R,V*17
$GPHDT,,T*1B
$GNACCURACY,3.5*10
$GNGGA,110709.400,2500.8029472,N,12132.4812933,E,4,61,0.42,15.866,M,15.25,M,2,3335*47
$GNRMC,110709.400,A,2500.8029472,N,12132.4812933,E,0.01,197.87,260623,,,R,V*11
$GPHDT,43.715,T*01
$GNACCURACY,3.5*10
$GNGGA,110709.500,2500.8029475,N,12132.4812932,E,4,61,0.42,15.862,M,15.25,M,2,3335*44
$GNRMC,110709.500,A,2500.8029475,N,12132.4812932,E,0.01,197.87,260623,,,R,V*16
$GPHDT,,T*1B
$GNACCURACY,3.5*10
$GNGGA,110709.600,2500.8029459,N,12132.4812906,E,4,61,0.42,15.851,M,15.25,M,2,3335*4E
$GNRMC,110709.600,A,2500.8029459,N,12132.4812906,E,0.01,197.87,260623,,,R,V*1C
$GPHDT,43.750,T*00
$GNACCURACY,3.5*10
$GNGGA,110709.700,2500.8029459,N,12132.4812931,E,4,61,0.42,15.862,M,15.25,M,2,3335*4B
$GNRMC,110709.700,A,2500.8029459,N,12132.4812931,E,0.01,197.87,260623,,,R,V*19
$GPHDT,,T*1B
$GNACCURACY,3.5*10
$GNGGA,110709.800,2500.8029471,N,12132.4812927,E,4,62,0.42,15.846,M,15.25,M,2,3335*4C
$GNRMC,110709.800,A,2500.8029471,N,12132.4812927,E,0.01,197.87,260623,,,R,V*1B
$GPHDT,43.431,T*04
$GNACCURACY,3.5*10
$GNGGA,110709.900,2500.8029468,N,12132.4812924,E,4,62,0.42,15.856,M,15.25,M,2,3335*47
$GNRMC,110709.900,A,2500.8029468,N,12132.4812924,E,0.01,197.87,260623,,,R,V*11
$GPHDT,,T*1B
