$FW : RTK35X,V1.1X0314AS,Lib20210517,1*54
$Tool : LOCOSYS , GNSS Firebird , v1.0.0.19*39
$---------------------------------------------------*2D
$GNACCURACY,3.5*10
$GNGGA,110819.900,2500.8029637,N,12132.4813080,E,4,61,0.42,15.884,M,15.25,M,0,3335*49
$GNRMC,110819.900,A,2500.8029637,N,12132.4813080,E,0.03,197.87,260623,,,R,V*13
$GPHDT,,T*1B
$GNACCURACY,3.5*10
$GNGGA,110820.000,2500.8029660,N,12132.4813033,E,4,61,0.42,15.900,M,15.25,M,1,3335*4C
$GNRMC,110820.000,A,2500.8029660,N,12132.4813033,E,0.03,197.87,260623,,,R,V*1A
$GPHDT,226.042,T*35
$GNACCURACY,3.4*11
$GNGGA,110820.100,2500.8029645,N,12132.4813026,E,4,60,0.42,15.890,M,15.25,M,1,3335*47
$GNRMC,110820.100,A,2500.8029645,N,12132.4813026,E,0.03,197.87,260623,,,R,V*18
$GPHDT,,T*1B
$GNGSA,A,3,24,196,199,23,15,195,194,05,10,18,,,0.78,0.42,0.66,1*08
$GNGSA,A,3,80,85,70,73,86,71,79,84,69,,,,0.78,0.42,0.66,2*08
$GNGSA,A,3,13,08,07,15,26,02,03,,,,,,0.78,0.42,0.66,3*06
$GNGSA,A,3,38,08,39,16,13,06,46,09,20,19,37,36,0.78,0.42,0.66,4*07
$GNGSA,A,3,35,29,,,,,,,,,,,0.78,0.42,0.66,4*00
$GPGSV,5,1,17,24,81,073,37,196,74,060,39,18,61,265,20,199,60,167,37,1*66
$GPGSV,5,2,17,50,50,134,38,23,43,333,45,15,41,038,36,195,37,179,40,1*51
$GPGSV,5,3,17,194,28,140,36,05,24,111,39,12,15,147,18,13,13,051,22,1*52
$GPGSV,5,4,17,10,12,314,40,29,05,202,,32,05,262,14,25,04,181,,1*61
$GPGSV,5,5,17,20,03,125,,1*55
$GPGSV,2,1,08,24,81,073,48,196,74,060,40,18,61,265,25,199,60,167,46,8*63
$GPGSV,2,2,08,23,43,333,43,195,37,179,42,194,28,140,40,10,12,314,40,8*60
$GLGSV,3,1,09,80,47,092,38,85,41,258,24,70,39,358,25,73,29,163,28,1*7C
$GLGSV,3,2,09,86,24,312,25,71,18,305,30,79,17,038,25,84,17,193,15,1*74
$GLGSV,3,3,09,69,16,064,18,1*42
$GAGSV,3,1,09,13,61,244,35,08,50,017,39,07,42,294,32,15,30,174,26,7*76
$GAGSV,3,2,09,26,28,313,35,02,23,093,22,30,20,148,17,03,13,059,21,7*7F
$GAGSV,3,3,09,25,04,048,,7*45
$GAGSV,2,1,07,13,61,244,31,08,50,017,40,07,42,294,35,15,30,174,36,1*73
$GAGSV,2,2,07,26,28,313,35,30,20,148,25,03,13,059,20,1*4F
$GBGSV,4,1,16,38,82,074,43,08,75,007,37,39,72,270,44,16,66,246,39,1*7F
$GBGSV,4,2,16,13,65,339,45,06,64,243,29,46,55,125,41,09,48,231,18,1*79
$GBGSV,4,3,16,20,45,052,36,19,45,336,43,31,34,206,,37,27,053,32,1*78
$GBGSV,4,4,16,36,27,185,39,29,24,217,,35,23,277,21,22,08,295,33,1*7E
$GBGSV,3,1,09,38,82,074,44,39,72,270,44,46,55,125,45,19,45,336,45,4*7B
$GBGSV,3,2,09,20,45,052,28,37,27,053,31,36,27,185,39,29,24,217,23,4*7E
$GBGSV,3,3,09,35,23,277,20,4*4D
$GNACCURACY,3.4*11
$PAIRSAT,1,35,1,0,200,2,0,200,3,0,200,4,0,200,5,0,201,6,0,200,7,0,200,8,0,200,9,0,200,10,0,221,11,0,200,12,0,200,13,0,201,14,0,200,15,0,201,16,0,200,17,0,200,18,0,221,19,0,200,20,0,200,21,0,200,23,0,221,24,0,221,25,0,200,26,0,200,27,0,200,28,0,200,29,0,200,30,0,200,31,0,200,32,0,200,194,0,621,195,0,621,196,0,620,199,0,621*6A
$PAIRSAT,2,23,65,0,200,67,0,200,68,0,200,69,0,201,70,0,201,71,0,201,72,0,200,73,0,201,74,0,200,75,0,200,76,0,200,77,0,200,78,0,200,79,0,201,80,0,201,81,0,200,82,0,200,83,0,200,84,0,201,85,0,201,86,0,201,87,0,200,88,0,200*52
$PAIRSAT,3,23,2,0,1221,3,0,1221,4,0,1200,5,0,200,7,0,1221,8,0,1221,9,0,1200,10,0,1200,11,0,1200,12,0,1200,13,0,1221,15,0,1221,19,0,1200,21,0,1200,24,0,1200,25,0,1200,26,0,1221,27,0,1200,30,0,1200,31,0,1200,33,0,1200,34,0,1200,36,0,1200*69
$PAIRSAT,4,50,1,0,200,2,0,200,3,0,200,4,0,200,5,0,200,6,0,201,7,0,200,8,0,201,9,0,201,10,0,200,11,0,200,12,0,200,13,0,201,14,0,200,15,0,200,16,0,201,19,0,621,20,0,621,21,0,600,22,0,621,23,0,600,24,0,600,25,0,600,26,0,600,27,0,600,28,0,600,29,0,621,30,0,600,31,0,200,32,0,600,33,0,600,34,0,600,35,0,621,36,0,621,37,0,621,38,0,621,39,0,621,40,0,600,41,0,600,42,0,600,43,0,600,44,0,600,45,0,600,46,0,621,56,0,200,57,0,200,58,0,200,59,0,600,60,0,600,61,0,600*41
$PAIRDGP,1,15*6C
$GNGGA,110820.200,2500.8029666,N,12132.4813035,E,4,60,0.42,15.891,M,15.25,M,1,3335*46
$GNRMC,110820.200,A,2500.8029666,N,12132.4813035,E,0.03,197.87,260623,,,R,V*18
$GPHDT,226.109,T*3B
$GNACCURACY,3.4*11
$GNGGA,110820.300,2500.8029655,N,12132.4813025,E,4,59,0.44,15.892,M,15.25,M,1,3335*49
$GNRMC,110820.300,A,2500.8029655,N,12132.4813025,E,0.03,197.87,260623,,,R,V*18
$GPHDT,,T*1B
$GNACCURACY,3.4*11
$GNGGA,110820.400,2500.8029580,N,12132.4812972,E,4,59,0.44,15.897,M,15.25,M,1,3335*4A
$GNRMC,110820.400,A,2500.8029580,N,12132.4812972,E,0.03,197.87,260623,,,R,V*1E
$GPHDT,226.768,T*3A
$GNACCURACY,3.4*11
$GNGGA,110820.500,2500.8029549,N,12132.4812964,E,4,60,0.44,15.881,M,15.25,M,1,3335*44
$GNRMC,110820.500,A,2500.8029549,N,12132.4812964,E,0.03,197.87,260623,,,R,V*1D
$GPHDT,,T*1B
$GNACCURACY,3.4*11
$GNGGA,110820.600,2500.8029539,N,12132.4812966,E,4,59,0.45,15.881,M,15.25,M,1,3335*49
$GNRMC,110820.600,A,2500.8029539,N,12132.4812966,E,0.03,197.87,260623,,,R,V*1B
$GPHDT,225.277,T*32
$GNACCURACY,3.4*11
$GNGGA,110820.700,2500.8029533,N,12132.4812994,E,4,59,0.45,15.879,M,15.25,M,0,3335*49
$GNRMC,110820.700,A,2500.8029533,N,12132.4812994,E,0.03,197.87,260623,,,R,V*1D
$GPHDT,,T*1B
$GNACCURACY,3.4*11
$GNGGA,110820.800,2500.8029528,N,12132.4813017,E,4,59,0.45,15.864,M,15.25,M,0,3335*43
$GNRMC,110820.800,A,2500.8029528,N,12132.4813017,E,0.03,197.87,260623,,,R,V*1B
$GPHDT,224.955,T*38
$GNACCURACY,3.4*11
$GNGGA,110820.900,2500.8029529,N,12132.4813042,E,4,60,0.44,15.868,M,15.25,M,0,3335*44
$GNRMC,110820.900,A,2500.8029529,N,12132.4813042,E,0.03,197.87,260623,,,R,V*1B
$GPHDT,,T*1B
$GNACCURACY,3.4*11
$GNGGA,110821.000,2500.8029598,N,12132.4813120,E,4,59,0.44,15.852,M,15.25,M,1,3335*41
$GNRMC,110821.000,A,2500.8029598,N,12132.4813120,E,0.03,197.87,260623,,,R,V*1C
$GPHDT,225.056,T*33
$GNACCURACY,3.4*11
$GNGGA,110821.100,2500.8029591,N,12132.4813124,E,4,59,0.44,15.850,M,15.25,M,1,3335*4F
$GNRMC,110821.100,A,2500.8029591,N,12132.4813124,E,0.03,197.87,260623,,,R,V*10
$GPHDT,,T*1B
$GNGSA,A,3,24,196,199,23,15,195,194,05,10,18,,,0.82,0.44,0.69,1*04
$GNGSA,A,3,80,85,70,73,86,71,79,69,,,,,0.82,0.44,0.69,2*08
$GNGSA,A,3,13,08,07,15,26,02,03,,,,,,0.82,0.44,0.69,3*0A
$GNGSA,A,3,38,08,39,16,13,06,46,09,19,20,37,36,0.82,0.44,0.69,4*0B
$GNGSA,A,3,35,29,,,,,,,,,,,0.82,0.44,0.69,4*0C
$GPGSV,5,1,17,24,81,073,38,196,74,060,39,18,61,265,20,199,60,167,37,1*69
$GPGSV,5,2,17,50,50,134,37,23,43,333,45,15,41,038,36,195,37,179,40,1*5E
$GPGSV,5,3,17,194,28,140,35,05,24,112,34,12,15,147,18,13,13,051,22,1*5F
$GPGSV,5,4,17,10,12,315,40,29,05,202,,32,05,262,15,25,04,181,,1*61
$GPGSV,5,5,17,20,03,125,,1*55
$GPGSV,2,1,08,24,81,073,48,196,74,060,40,18,61,265,27,199,60,167,46,8*61
$GPGSV,2,2,08,23,43,333,43,195,37,179,44,194,28,140,38,10,12,315,39,8*66
$GLGSV,3,1,09,80,47,092,38,85,41,258,24,70,39,358,25,73,29,163,26,1*72
$GLGSV,3,2,09,86,24,312,24,71,18,305,30,79,17,038,26,84,17,193,13,1*70
$GLGSV,3,3,09,69,16,064,15,1*4F
$GAGSV,3,1,09,13,61,244,35,08,50,017,39,07,42,294,32,15,30,174,30,7*71
$GAGSV,3,2,09,26,28,313,35,02,23,093,22,30,20,148,17,03,13,059,21,7*7F
$GAGSV,3,3,09,25,04,048,,7*45
$GAGSV,2,1,07,13,61,244,31,08,50,017,40,07,42,294,35,15,30,174,36,1*73
$GAGSV,2,2,07,26,28,313,35,30,20,148,26,03,13,059,19,1*46
$GBGSV,4,1,15,38,82,074,43,08,75,007,37,39,72,270,44,16,66,246,39,1*7C
$GBGSV,4,2,15,13,65,339,45,06,64,243,29,46,55,125,43,09,48,231,19,1*79
$GBGSV,4,3,15,19,45,336,43,20,45,052,36,37,27,053,33,36,27,185,39,1*7D
$GBGSV,4,4,15,29,24,217,,35,23,277,20,22,08,295,33,1*4A
$GBGSV,3,1,09,38,82,074,44,39,72,270,44,46,55,125,46,19,45,336,45,4*78
$GBGSV,3,2,09,20,45,052,28,37,27,053,31,36,27,185,38,29,24,217,24,4*78
$GBGSV,3,3,09,35,23,277,19,4*47
$GNACCURACY,3.4*11
$PAIRSAT,1,35,1,0,200,2,0,200,3,0,200,4,0,200,5,0,201,6,0,200,7,0,200,8,0,200,9,0,200,10,0,221,11,0,200,12,0,200,13,0,201,14,0,200,15,0,201,16,0,200,17,0,200,18,0,221,19,0,200,20,0,200,21,0,200,23,0,221,24,0,221,25,0,200,26,0,200,27,0,200,28,0,200,29,0,200,30,0,200,31,0,200,32,0,200,194,0,621,195,0,621,196,0,620,199,0,621*6A
$PAIRSAT,2,23,65,0,200,67,0,200,68,0,200,69,0,201,70,0,201,71,0,201,72,0,200,73,0,201,74,0,200,75,0,200,76,0,200,77,0,200,78,0,200,79,0,201,80,0,201,81,0,200,82,0,200,83,0,200,84,0,201,85,0,201,86,0,201,87,0,200,88,0,200*52
$PAIRSAT,3,23,2,0,1221,3,0,1221,4,0,1200,5,0,200,7,0,1221,8,0,1221,9,0,1200,10,0,1200,11,0,1200,12,0,1200,13,0,1221,15,0,1221,19,0,1200,21,0,1200,24,0,1200,25,0,1200,26,0,1221,27,0,1200,30,0,1200,31,0,1200,33,0,1200,34,0,1200,36,0,1200*69
$PAIRSAT,4,50,1,0,200,2,0,200,3,0,200,4,0,200,5,0,200,6,0,201,7,0,200,8,0,201,9,0,201,10,0,200,11,0,200,12,0,200,13,0,201,14,0,200,15,0,200,16,0,201,19,0,621,20,0,621,21,0,600,22,0,621,23,0,600,24,0,600,25,0,600,26,0,600,27,0,600,28,0,600,29,0,621,30,0,600,31,0,200,32,0,600,33,0,600,34,0,600,35,0,621,36,0,621,37,0,621,38,0,621,39,0,621,40,0,600,41,0,600,42,0,600,43,0,600,44,0,600,45,0,600,46,0,621,56,0,200,57,0,200,58,0,200,59,0,600,60,0,600,61,0,600*41
$PAIRDGP,1,15*6C
$GNGGA,110821.200,2500.8029590,N,12132.4813127,E,4,59,0.44,15.859,M,15.25,M,1,3335*47
$GNRMC,110821.200,A,2500.8029590,N,12132.4813127,E,0.02,197.87,260623,,,R,V*10
$GPHDT,225.170,T*36
$GNACCURACY,3.4*11
$GNGGA,110821.300,2500.8029589,N,12132.4813102,E,4,60,0.44,15.850,M,15.25,M,1,3335*4A
$GNRMC,110821.300,A,2500.8029589,N,12132.4813102,E,0.02,197.87,260623,,,R,V*1E
$GPHDT,,T*1B
$GNACCURACY,3.4*11
$GNGGA,110821.400,2500.8029577,N,12132.4813120,E,4,60,0.44,15.846,M,15.25,M,1,3335*4B
$GNRMC,110821.400,A,2500.8029577,N,12132.4813120,E,0.02,197.87,260623,,,R,V*18
$GPHDT,225.310,T*32
$GNACCURACY,3.4*11
$GNGGA,110821.500,2500.8029589,N,12132.4813113,E,4,60,0.44,15.858,M,15.25,M,0,3335*45
$GNRMC,110821.500,A,2500.8029589,N,12132.4813113,E,0.02,197.87,260623,,,R,V*18
$GPHDT,,T*1B
$GNACCURACY,3.4*11
$GNGGA,110821.600,2500.8029577,N,12132.4813111,E,4,60,0.44,15.854,M,15.25,M,0,3335*49
$GNRMC,110821.600,A,2500.8029577,N,12132.4813111,E,0.02,197.87,260623,,,R,V*18
$GPHDT,224.982,T*32
$GNACCURACY,3.4*11
$GNGGA,110821.700,2500.8029595,N,12132.4813114,E,4,60,0.44,15.854,M,15.25,M,0,3335*41
$GNRMC,110821.700,A,2500.8029595,N,12132.4813114,E,0.02,197.87,260623,,,R,V*10
$GPHDT,,T*1B
$GNACCURACY,3.4*11
$GNGGA,110821.800,2500.8029586,N,12132.4813121,E,4,60,0.44,15.847,M,15.25,M,0,3335*48
$GNRMC,110821.800,A,2500.8029586,N,12132.4813121,E,0.02,197.87,260623,,,R,V*1B
$GPHDT,225.339,T*39
$GNACCURACY,3.4*11
$GNGGA,110821.900,2500.8029573,N,12132.4813109,E,4,60,0.44,15.853,M,15.25,M,0,3335*4C
$GNRMC,110821.900,A,2500.8029573,N,12132.4813109,E,0.02,197.87,260623,,,R,V*1A
$GPHDT,,T*1B
$GNACCURACY,3.4*11
$GNGGA,110822.000,2500.8029589,N,12132.4813081,E,4,60,0.44,15.865,M,15.25,M,1,3335*46
$GNRMC,110822.000,A,2500.8029589,N,12132.4813081,E,0.02,197.87,260623,,,R,V*14
$GPHDT,225.262,T*36
$GNACCURACY,3.4*11
$GNGGA,110822.100,2500.8029597,N,12132.4813115,E,4,60,0.44,15.846,M,15.25,M,1,3335*45
$GNRMC,110822.100,A,2500.8029597,N,12132.4813115,E,0.02,197.87,260623,,,R,V*16
$GPHDT,,T*1B
$GNGSA,A,3,24,196,18,199,23,15,195,194,05,10,,,0.82,0.44,0.69,1*04
$GNGSA,A,3,80,85,70,73,86,71,79,69,,,,,0.82,0.44,0.69,2*08
$GNGSA,A,3,13,08,07,15,26,02,03,,,,,,0.82,0.44,0.69,3*0A
$GNGSA,A,3,38,08,39,16,13,06,46,09,19,20,37,36,0.82,0.44,0.69,4*0B
$GNGSA,A,3,35,29,,,,,,,,,,,0.82,0.44,0.69,4*0C
$GPGSV,5,1,17,24,81,073,38,196,74,060,39,18,61,265,21,199,60,167,37,1*68
$GPGSV,5,2,17,50,50,134,37,23,43,333,45,15,41,038,36,195,37,179,40,1*5E
$GPGSV,5,3,17,194,28,140,35,05,24,112,34,12,15,147,17,13,13,051,22,1*50
$GPGSV,5,4,17,10,12,315,40,29,05,202,,32,05,262,13,25,04,181,,1*67
$GPGSV,5,5,17,20,03,125,,1*55
$GPGSV,2,1,08,24,81,073,48,196,74,060,40,18,61,265,27,199,60,167,46,8*61
$GPGSV,2,2,08,23,43,333,43,195,37,179,44,194,28,140,37,10,12,315,39,8*69
$GLGSV,3,1,09,80,47,092,38,85,41,258,24,70,39,358,25,73,29,163,25,1*71
$GLGSV,3,2,09,86,24,312,24,71,18,305,30,79,17,038,25,84,17,193,12,1*72
$GLGSV,3,3,09,69,16,064,14,1*4E
$GAGSV,3,1,09,13,61,244,35,08,50,017,39,07,42,294,32,15,30,174,31,7*70
$GAGSV,3,2,09,26,28,313,35,02,23,093,22,30,20,148,17,03,13,059,20,7*7E
$GAGSV,3,3,09,25,04,048,,7*45
$GAGSV,2,1,07,13,61,244,31,08,50,017,40,07,42,294,35,15,30,174,35,1*70
$GAGSV,2,2,07,26,28,313,35,30,20,148,25,03,13,059,20,1*4F
$GBGSV,4,1,15,38,82,074,43,08,75,007,37,39,72,270,44,16,66,246,39,1*7C
$GBGSV,4,2,15,13,65,339,45,06,64,243,29,46,55,125,43,09,48,231,20,1*73
$GBGSV,4,3,15,19,45,336,43,20,45,052,36,37,27,053,33,36,27,185,39,1*7D
$GBGSV,4,4,15,29,24,217,,35,23,277,18,22,08,295,33,1*41
$GBGSV,3,1,09,38,82,074,44,39,72,270,44,46,55,125,46,19,45,336,45,4*78
$GBGSV,3,2,09,20,45,052,31,37,27,053,32,36,27,185,38,29,24,217,24,4*73
$GBGSV,3,3,09,35,23,277,18,4*46
$GNACCURACY,3.4*11
$PAIRSAT,1,35,1,0,200,2,0,200,3,0,200,4,0,200,5,0,201,6,0,200,7,0,200,8,0,200,9,0,200,10,0,221,11,0,200,12,0,200,13,0,201,14,0,200,15,0,201,16,0,200,17,0,200,18,0,221,19,0,200,20,0,200,21,0,200,23,0,221,24,0,221,25,0,200,26,0,200,27,0,200,28,0,200,29,0,200,30,0,200,31,0,200,32,0,200,194,0,621,195,0,621,196,0,620,199,0,621*6A
$PAIRSAT,2,23,65,0,200,67,0,200,68,0,200,69,0,201,70,0,201,71,0,201,72,0,200,73,0,201,74,0,200,75,0,200,76,0,200,77,0,200,78,0,200,79,0,201,80,0,201,81,0,200,82,0,200,83,0,200,84,0,201,85,0,201,86,0,201,87,0,200,88,0,200*52
$PAIRSAT,3,23,2,0,1221,3,0,1221,4,0,1200,5,0,200,7,0,1221,8,0,1221,9,0,1200,10,0,1200,11,0,1200,12,0,1200,13,0,1221,15,0,1221,19,0,1200,21,0,1200,24,0,1200,25,0,1200,26,0,1221,27,0,1200,30,0,1200,31,0,1200,33,0,1200,34,0,1200,36,0,1200*69
$PAIRSAT,4,50,1,0,200,2,0,200,3,0,200,4,0,200,5,0,200,6,0,201,7,0,200,8,0,201,9,0,201,10,0,200,11,0,200,12,0,200,13,0,201,14,0,200,15,0,200,16,0,201,19,0,621,20,0,621,21,0,600,22,0,621,23,0,600,24,0,600,25,0,600,26,0,600,27,0,600,28,0,600,29,0,621,30,0,600,31,0,200,32,0,600,33,0,600,34,0,600,35,0,621,36,0,621,37,0,621,38,0,621,39,0,621,40,0,600,41,0,600,42,0,600,43,0,600,44,0,600,45,0,600,46,0,621,56,0,200,57,0,200,58,0,200,59,0,600,60,0,600,61,0,600*41
$PAIRDGP,1,15*6C
$GNGGA,110822.200,2500.8029587,N,12132.4813105,E,4,60,0.44,15.854,M,15.25,M,1,3335*45
$GNRMC,110822.200,A,2500.8029587,N,12132.4813105,E,0.02,197.87,260623,,,R,V*15
$GPHDT,225.362,T*37
$GNACCURACY,3.4*11
$GNGGA,110822.300,2500.8029592,N,12132.4813100,E,4,60,0.44,15.856,M,15.25,M,1,3335*47
$GNRMC,110822.300,A,2500.8029592,N,12132.4813100,E,0.02,197.87,260623,,,R,V*15
$GPHDT,,T*1B
$GNACCURACY,3.4*11
$GNGGA,110822.400,2500.8029582,N,12132.4813109,E,4,60,0.44,15.853,M,15.25,M,1,3335*4D
$GNRMC,110822.400,A,2500.8029582,N,12132.4813109,E,0.02,197.87,260623,,,R,V*1A
$GPHDT,225.374,T*30
$GNACCURACY,3.4*11
$GNGGA,110822.500,2500.8029579,N,12132.4813112,E,4,60,0.44,15.856,M,15.25,M,0,3335*46
$GNRMC,110822.500,A,2500.8029579,N,12132.4813112,E,0.02,197.87,260623,,,R,V*15
$GPHDT,,T*1B
$GNACCURACY,3.4*11
$GNGGA,110822.600,2500.8029578,N,12132.4813079,E,4,59,0.44,15.868,M,15.25,M,0,3335*4F
$GNRMC,110822.600,A,2500.8029578,N,12132.4813079,E,0.02,197.87,260623,,,R,V*1B
$GPHDT,225.189,T*30
$GNACCURACY,3.4*11
$GNGGA,110822.700,2500.8029575,N,12132.4813110,E,4,58,0.45,15.852,M,15.25,M,0,3335*44
$GNRMC,110822.700,A,2500.8029575,N,12132.4813110,E,0.02,197.87,260623,,,R,V*19
$GPHDT,,T*1B
$GNACCURACY,3.4*11
$GNGGA,110822.800,2500.8029582,N,12132.4813134,E,4,58,0.45,15.849,M,15.25,M,0,3335*4F
$GNRMC,110822.800,A,2500.8029582,N,12132.4813134,E,0.02,197.87,260623,,,R,V*18
$GPHDT,225.224,T*34
$GNACCURACY,3.4*11
$GNGGA,110822.900,2500.8029581,N,12132.4813100,E,4,57,0.46,15.853,M,15.25,M,0,3335*4D
$GNRMC,110822.900,A,2500.8029581,N,12132.4813100,E,0.02,197.87,260623,,,R,V*1D
$GPHDT,,T*1B
$GNACCURACY,3.4*11
$GNGGA,110823.000,2500.8029581,N,12132.4813124,E,4,57,0.46,15.856,M,15.25,M,1,3335*47
$GNRMC,110823.000,A,2500.8029581,N,12132.4813124,E,0.02,197.87,260623,,,R,V*13
$GPHDT,225.257,T*30
$GNACCURACY,3.4*11
$GNGGA,110823.100,2500.8029584,N,12132.4813109,E,4,58,0.46,15.849,M,15.25,M,1,3335*4D
$GNRMC,110823.100,A,2500.8029584,N,12132.4813109,E,0.02,197.87,260623,,,R,V*18
$GPHDT,,T*1B
$GNGSA,A,3,24,196,18,199,23,15,195,194,05,10,,,0.85,0.46,0.71,1*08
$GNGSA,A,3,80,85,70,73,86,71,79,,,,,,0.85,0.46,0.71,2*0B
$GNGSA,A,3,13,08,07,15,26,02,03,,,,,,0.85,0.46,0.71,3*06
$GNGSA,A,3,38,08,39,16,13,06,46,20,19,36,37,35,0.85,0.46,0.71,4*08
$GNGSA,A,3,29,,,,,,,,,,,,0.85,0.46,0.71,4*06
$GPGSV,4,1,16,24,81,072,37,196,74,060,39,18,61,265,25,199,60,167,37,1*62
$GPGSV,4,2,16,50,50,134,36,23,43,333,45,15,41,038,36,195,37,179,40,1*5F
$GPGSV,4,3,16,194,28,140,34,05,24,112,34,12,15,147,17,13,13,051,21,1*52
$GPGSV,4,4,16,10,12,315,41,29,05,202,,32,05,262,14,25,04,181,,1*61
$GPGSV,2,1,08,24,81,072,48,196,74,060,40,18,61,265,27,199,60,167,46,8*60
$GPGSV,2,2,08,23,43,333,43,195,37,179,44,194,28,140,37,10,12,315,39,8*69
$GLGSV,3,1,09,80,47,092,38,85,41,258,26,70,39,358,25,73,29,163,24,1*72
$GLGSV,3,2,09,86,24,312,23,71,18,305,30,84,17,193,11,79,17,038,25,1*76
$GLGSV,3,3,09,69,16,064,14,1*4E
$GAGSV,3,1,09,13,61,244,35,08,50,017,39,07,42,294,32,15,30,174,31,7*70
$GAGSV,3,2,09,26,28,313,35,02,23,093,22,30,20,148,18,03,13,059,20,7*71
$GAGSV,3,3,09,25,04,048,,7*45
$GAGSV,2,1,07,13,61,244,30,08,50,017,40,07,42,294,35,15,30,174,35,1*71
$GAGSV,2,2,07,26,28,313,36,02,23,093,17,30,20,148,25,1*4C
$GBGSV,4,1,15,38,82,074,43,08,75,007,37,39,72,270,44,16,66,246,39,1*7C
$GBGSV,4,2,15,13,65,339,45,06,64,243,29,46,55,125,43,09,48,231,18,1*78
$GBGSV,4,3,15,20,45,052,36,19,45,336,43,36,27,185,39,37,27,053,33,1*7D
$GBGSV,4,4,15,29,24,217,,35,23,277,17,22,08,295,33,1*4E
$GBGSV,3,1,09,38,82,074,44,39,72,270,44,46,55,125,46,19,45,336,45,4*78
$GBGSV,3,2,09,20,45,052,29,37,27,053,32,36,27,185,39,29,24,217,24,4*7B
$GBGSV,3,3,09,35,23,277,18,4*46
$GNACCURACY,3.4*11
$PAIRSAT,1,35,1,0,200,2,0,200,3,0,200,4,0,200,5,0,201,6,0,200,7,0,200,8,0,200,9,0,200,10,0,221,11,0,200,12,0,200,13,0,201,14,0,200,15,0,201,16,0,200,17,0,200,18,0,221,19,0,200,20,0,200,21,0,200,23,0,221,24,0,221,25,0,200,26,0,200,27,0,200,28,0,200,29,0,200,30,0,200,31,0,200,32,0,200,194,0,621,195,0,621,196,0,620,199,0,621*6A
$PAIRSAT,2,23,65,0,200,67,0,200,68,0,200,69,0,201,70,0,201,71,0,201,72,0,200,73,0,201,74,0,200,75,0,200,76,0,200,77,0,200,78,0,200,79,0,201,80,0,201,81,0,200,82,0,200,83,0,200,84,0,201,85,0,201,86,0,201,87,0,200,88,0,200*52
$PAIRSAT,3,23,2,0,1221,3,0,1221,4,0,1200,5,0,200,7,0,1221,8,0,1221,9,0,1200,10,0,1200,11,0,1200,12,0,1200,13,0,1221,15,0,1221,19,0,1200,21,0,1200,24,0,1200,25,0,1200,26,0,1221,27,0,1200,30,0,1200,31,0,1200,33,0,1200,34,0,1200,36,0,1200*69
$PAIRSAT,4,50,1,0,200,2,0,200,3,0,200,4,0,200,5,0,200,6,0,201,7,0,200,8,0,201,9,0,201,10,0,200,11,0,200,12,0,200,13,0,201,14,0,200,15,0,200,16,0,201,19,0,621,20,0,621,21,0,600,22,0,621,23,0,600,24,0,600,25,0,600,26,0,600,27,0,600,28,0,600,29,0,621,30,0,600,31,0,200,32,0,600,33,0,600,34,0,600,35,0,621,36,0,621,37,0,621,38,0,621,39,0,621,40,0,600,41,0,600,42,0,600,43,0,600,44,0,600,45,0,600,46,0,621,56,0,200,57,0,200,58,0,200,59,0,600,60,0,600,61,0,600*41
$PAIRDGP,1,15*6C
$GNGGA,110823.200,2500.8029580,N,12132.4813092,E,4,58,0.46,15.846,M,15.25,M,1,3335*46
$GNRMC,110823.200,A,2500.8029580,N,12132.4813092,E,0.02,197.87,260623,,,R,V*1C
$GPHDT,225.356,T*30
$GNACCURACY,3.4*11
$GNGGA,110823.300,2500.8029594,N,12132.4813015,E,4,58,0.46,15.874,M,15.25,M,1,3335*4C
$GNRMC,110823.300,A,2500.8029594,N,12132.4813015,E,0.02,197.87,260623,,,R,V*17
$GPHDT,,T*1B
$GNACCURACY,3.4*11
$GNGGA,110823.400,2500.8029595,N,12132.4813006,E,4,59,0.45,15.882,M,15.25,M,1,3335*43
$GNRMC,110823.400,A,2500.8029595,N,12132.4813006,E,0.02,197.87,260623,,,R,V*13
$GPHDT,225.215,T*36
$GNACCURACY,3.4*11
$GNGGA,110823.500,2500.8029626,N,12132.4813046,E,4,59,0.45,15.875,M,15.25,M,1,3335*45
$GNRMC,110823.500,A,2500.8029626,N,12132.4813046,E,0.01,197.87,260623,,,R,V*1E
$GPHDT,,T*1B
$GNACCURACY,3.4*11
$GNGGA,110823.600,2500.8029594,N,12132.4813045,E,4,60,0.45,15.886,M,15.25,M,0,3335*48
$GNRMC,110823.600,A,2500.8029594,N,12132.4813045,E,0.01,197.87,260623,,,R,V*14
$GPHDT,225.365,T*30
$GNACCURACY,3.4*11
$GNGGA,110823.700,2500.8029597,N,12132.4813034,E,4,60,0.45,15.868,M,15.25,M,0,3335*4C
$GNRMC,110823.700,A,2500.8029597,N,12132.4813034,E,0.01,197.87,260623,,,R,V*10
$GPHDT,,T*1B
$GNACCURACY,3.4*11
$GNGGA,110823.800,2500.8029598,N,12132.4813062,E,4,60,0.45,15.860,M,15.25,M,0,3335*47
$GNRMC,110823.800,A,2500.8029598,N,12132.4813062,E,0.01,197.87,260623,,,R,V*13
$GPHDT,225.410,T*35
$GNACCURACY,3.4*11
$GNGGA,110823.900,2500.8029590,N,12132.4813027,E,4,60,0.45,15.862,M,15.25,M,0,3335*4D
$GNRMC,110823.900,A,2500.8029590,N,12132.4813027,E,0.01,197.87,260623,,,R,V*1B
$GPHDT,,T*1B
$GNACCURACY,3.4*11
$GNGGA,110824.000,2500.8029609,N,12132.4813052,E,4,60,0.45,15.864,M,15.25,M,1,3335*45
$GNRMC,110824.000,A,2500.8029609,N,12132.4813052,E,0.01,197.87,260623,,,R,V*14
$GPHDT,225.199,T*31
$GNACCURACY,3.4*11
$GNGGA,110824.100,2500.8029607,N,12132.4813047,E,4,60,0.45,15.873,M,15.25,M,1,3335*48
$GNRMC,110824.100,A,2500.8029607,N,12132.4813047,E,0.01,197.87,260623,,,R,V*1F
$GPHDT,,T*1B
$GNGSA,A,3,24,196,18,199,23,15,195,194,05,10,,,0.83,0.45,0.70,1*0C
$GNGSA,A,3,80,85,70,73,86,71,79,,,,,,0.83,0.45,0.70,2*0F
$GNGSA,A,3,13,08,07,15,26,02,03,,,,,,0.83,0.45,0.70,3*02
$GNGSA,A,3,38,08,39,16,13,06,46,09,19,20,37,36,0.83,0.45,0.70,4*03
$GNGSA,A,3,35,29,,,,,,,,,,,0.83,0.45,0.70,4*04
$GPGSV,5,1,17,24,81,072,36,196,74,060,39,18,61,265,25,199,60,167,37,1*63
$GPGSV,5,2,17,50,50,134,38,23,43,333,45,15,41,038,36,195,37,179,39,1*5F
$GPGSV,5,3,17,194,28,140,35,05,24,112,38,12,15,147,17,13,13,051,22,1*5C
$GPGSV,5,4,17,10,12,315,41,29,05,202,,32,05,262,15,25,04,181,,1*60
$GPGSV,5,5,17,20,03,125,,1*55
$GPGSV,2,1,08,24,81,072,48,196,74,060,40,18,61,265,26,199,60,167,46,8*61
$GPGSV,2,2,08,23,43,333,43,195,37,179,44,194,28,140,39,10,12,315,39,8*67
$GLGSV,3,1,09,80,47,092,38,85,41,258,26,70,39,358,25,73,29,163,27,1*71
$GLGSV,3,2,09,86,24,312,24,71,18,305,31,79,17,038,22,84,17,193,13,1*75
$GLGSV,3,3,09,69,16,064,16,1*4C
$GAGSV,3,1,09,13,61,244,35,08,50,017,39,07,42,294,32,15,30,174,30,7*71
$GAGSV,3,2,09,26,28,313,35,02,23,093,22,30,20,148,18,03,13,059,19,7*7B
$GAGSV,3,3,09,25,04,048,,7*45
$GAGSV,2,1,07,13,61,244,30,08,50,017,40,07,42,294,35,15,30,174,36,1*72
$GAGSV,2,2,07,26,28,313,36,02,23,093,17,03,13,059,20,1*48
$GBGSV,4,1,15,38,82,074,43,08,75,007,37,39,72,270,44,16,66,246,39,1*7C
$GBGSV,4,2,15,13,65,339,44,06,64,243,29,46,55,125,42,09,48,231,18,1*78
$GBGSV,4,3,15,19,45,336,43,20,45,052,36,37,27,053,33,36,27,185,39,1*7D
$GBGSV,4,4,15,29,24,217,,35,23,277,19,22,08,295,33,1*40
$GBGSV,3,1,09,38,82,074,44,39,72,270,44,46,55,125,46,20,45,052,30,4*71
$GBGSV,3,2,09,19,45,336,45,36,27,185,39,37,27,053,32,29,24,217,24,4*7A
$GBGSV,3,3,09,35,23,277,18,4*46
$GNACCURACY,3.4*11
$PAIRSAT,1,35,1,0,200,2,0,200,3,0,200,4,0,200,5,0,201,6,0,200,7,0,200,8,0,200,9,0,200,10,0,221,11,0,200,12,0,200,13,0,201,14,0,200,15,0,201,16,0,200,17,0,200,18,0,221,19,0,200,20,0,200,21,0,200,23,0,221,24,0,221,25,0,200,26,0,200,27,0,200,28,0,200,29,0,200,30,0,200,31,0,200,32,0,200,194,0,621,195,0,621,196,0,620,199,0,621*6A
$PAIRSAT,2,23,65,0,200,67,0,200,68,0,200,69,0,201,70,0,201,71,0,201,72,0,200,73,0,201,74,0,200,75,0,200,76,0,200,77,0,200,78,0,200,79,0,201,80,0,201,81,0,200,82,0,200,83,0,200,84,0,201,85,0,201,86,0,201,87,0,200,88,0,200*52
$PAIRSAT,3,23,2,0,1221,3,0,1221,4,0,1200,5,0,200,7,0,1221,8,0,1221,9,0,1200,10,0,1200,11,0,1200,12,0,1200,13,0,1221,15,0,1221,19,0,1200,21,0,1200,24,0,1200,25,0,1200,26,0,1221,27,0,1200,30,0,1200,31,0,1200,33,0,1200,34,0,1200,36,0,1200*69
$PAIRSAT,4,50,1,0,200,2,0,200,3,0,200,4,0,200,5,0,200,6,0,201,7,0,200,8,0,201,9,0,201,10,0,200,11,0,200,12,0,200,13,0,201,14,0,200,15,0,200,16,0,201,19,0,621,20,0,621,21,0,600,22,0,621,23,0,600,24,0,600,25,0,600,26,0,600,27,0,600,28,0,600,29,0,621,30,0,600,31,0,200,32,0,600,33,0,600,34,0,600,35,0,621,36,0,621,37,0,621,38,0,621,39,0,621,40,0,600,41,0,600,42,0,600,43,0,600,44,0,600,45,0,600,46,0,621,56,0,200,57,0,200,58,0,200,59,0,600,60,0,600,61,0,600*41
$PAIRDGP,1,15*6C
$GNGGA,110824.200,2500.8029607,N,12132.4813064,E,4,60,0.45,15.855,M,15.25,M,1,3335*4E
$GNRMC,110824.200,A,2500.8029607,N,12132.4813064,E,0.01,197.87,260623,,,R,V*1D
$GPHDT,225.182,T*3B
$GNACCURACY,3.4*11
$GNGGA,110824.300,2500.8029606,N,12132.4813054,E,4,60,0.45,15.868,M,15.25,M,1,3335*43
$GNRMC,110824.300,A,2500.8029606,N,12132.4813054,E,0.01,197.87,260623,,,R,V*1E
$GPHDT,,T*1B
$GNACCURACY,3.4*11
$GNGGA,110824.400,2500.8029539,N,12132.4812953,E,4,60,0.45,15.864,M,15.25,M,1,3335*48
$GNRMC,110824.400,A,2500.8029539,N,12132.4812953,E,0.01,197.87,260623,,,R,V*19
$GPHDT,225.132,T*30
$GNACCURACY,3.4*11
$GNGGA,110824.500,2500.8029530,N,12132.4812965,E,4,60,0.45,15.875,M,15.25,M,1,3335*45
$GNRMC,110824.500,A,2500.8029530,N,12132.4812965,E,0.01,197.87,260623,,,R,V*14
$GPHDT,,T*1B
$GNACCURACY,3.4*11
$GNGGA,110824.600,2500.8029527,N,12132.4812968,E,4,60,0.45,15.877,M,15.25,M,1,3335*4F
$GNRMC,110824.600,A,2500.8029527,N,12132.4812968,E,0.01,197.87,260623,,,R,V*1C
$GPHDT,225.215,T*36
$GNACCURACY,3.4*11
$GNGGA,110824.700,2500.8029547,N,12132.4812955,E,4,60,0.45,15.876,M,15.25,M,1,3335*47
$GNRMC,110824.700,A,2500.8029547,N,12132.4812955,E,0.01,197.87,260623,,,R,V*15
$GPHDT,,T*1B
$GNACCURACY,3.4*11
$GNGGA,110824.800,2500.8029541,N,12132.4812969,E,4,60,0.45,15.877,M,15.25,M,1,3335*40
$GNRMC,110824.800,A,2500.8029541,N,12132.4812969,E,0.01,197.87,260623,,,R,V*13
$GPHDT,225.161,T*36
$GNACCURACY,3.4*11
$GNGGA,110824.900,2500.8029606,N,12132.4813018,E,4,60,0.45,15.864,M,15.25,M,1,3335*4D
$GNRMC,110824.900,A,2500.8029606,N,12132.4813018,E,0.01,197.87,260623,,,R,V*1C
$GPHDT,,T*1B
$GNACCURACY,3.4*11
$GNGGA,110825.000,2500.8029610,N,12132.4813028,E,4,60,0.45,15.869,M,15.25,M,2,3335*4F
$GNRMC,110825.000,A,2500.8029610,N,12132.4813028,E,0.01,197.87,260623,,,R,V*10
$GPHDT,224.960,T*3E
$GNACCURACY,3.4*11
$GNGGA,110825.100,2500.8029601,N,12132.4813051,E,4,61,0.45,15.863,M,15.25,M,2,3335*4B
$GNRMC,110825.100,A,2500.8029601,N,12132.4813051,E,0.01,197.87,260623,,,R,V*1F
$GPHDT,,T*1B
$GNGSA,A,3,24,196,18,199,23,15,195,194,05,13,10,,0.81,0.45,0.68,1*05
$GNGSA,A,3,80,85,70,73,86,71,79,,,,,,0.81,0.45,0.68,2*04
$GNGSA,A,3,13,08,07,15,26,02,03,,,,,,0.81,0.45,0.68,3*09
$GNGSA,A,3,38,08,39,16,13,06,46,09,19,20,37,36,0.81,0.45,0.68,4*08
$GNGSA,A,3,35,29,,,,,,,,,,,0.81,0.45,0.68,4*0F
$GPGSV,5,1,17,24,81,072,36,196,74,060,39,18,61,265,24,199,60,167,37,1*62
$GPGSV,5,2,17,50,50,134,39,23,43,333,45,15,41,038,36,195,37,179,39,1*5E
$GPGSV,5,3,17,194,28,140,35,05,24,112,38,12,15,147,17,13,13,051,24,1*5A
$GPGSV,5,4,17,10,12,315,41,29,05,202,,32,05,262,15,25,04,181,,1*60
$GPGSV,5,5,17,20,03,125,,1*55
$GPGSV,2,1,08,24,81,072,48,196,74,060,40,18,61,265,26,199,60,167,46,8*61
$GPGSV,2,2,08,23,43,333,43,195,37,179,44,194,28,140,39,10,12,315,39,8*67
$GLGSV,3,1,09,80,47,092,37,85,41,258,27,70,39,358,25,73,29,163,30,1*79
$GLGSV,3,2,09,86,24,312,27,71,18,305,31,79,17,038,23,84,17,193,13,1*77
$GLGSV,3,3,09,69,16,064,18,1*42
$GAGSV,3,1,09,13,61,243,35,08,49,017,39,07,42,294,33,15,30,174,28,7*76
$GAGSV,3,2,09,26,28,313,35,02,23,093,21,30,20,148,18,03,13,059,19,7*78
$GAGSV,3,3,09,25,04,048,,7*45
$GAGSV,2,1,07,13,61,243,31,08,49,017,40,07,42,294,35,15,30,174,36,1*7C
$GAGSV,2,2,07,26,28,313,36,02,23,093,17,03,13,059,21,1*49
$GBGSV,4,1,15,38,82,074,43,08,75,007,37,39,72,270,44,16,66,246,39,1*7C
$GBGSV,4,2,15,13,65,339,44,06,64,243,30,46,55,125,41,09,48,231,19,1*72
$GBGSV,4,3,15,19,45,336,43,20,45,052,36,37,27,053,33,36,27,185,38,1*7C
$GBGSV,4,4,15,29,24,217,,35,23,277,21,22,08,295,33,1*4B
$GBGSV,3,1,09,38,82,074,44,39,72,270,44,46,55,125,45,20,45,052,30,4*72
$GBGSV,3,2,09,19,45,336,45,36,27,185,39,37,27,053,31,29,24,217,24,4*79
$GBGSV,3,3,09,35,23,277,18,4*46
$GNACCURACY,3.4*11
$PAIRSAT,1,35,1,0,200,2,0,200,3,0,200,4,0,200,5,0,201,6,0,200,7,0,200,8,0,200,9,0,200,10,0,221,11,0,200,12,0,200,13,0,201,14,0,200,15,0,201,16,0,200,17,0,200,18,0,221,19,0,200,20,0,200,21,0,200,23,0,221,24,0,221,25,0,200,26,0,200,27,0,200,28,0,200,29,0,200,30,0,200,31,0,200,32,0,200,194,0,621,195,0,621,196,0,620,199,0,621*6A
$PAIRSAT,2,23,65,0,200,67,0,200,68,0,200,69,0,201,70,0,201,71,0,201,72,0,200,73,0,201,74,0,200,75,0,200,76,0,200,77,0,200,78,0,200,79,0,201,80,0,201,81,0,200,82,0,200,83,0,200,84,0,201,85,0,201,86,0,201,87,0,200,88,0,200*52
$PAIRSAT,3,23,2,0,1221,3,0,1221,4,0,1200,5,0,200,7,0,1221,8,0,1221,9,0,1200,10,0,1200,11,0,1200,12,0,1200,13,0,1221,15,0,1221,19,0,1200,21,0,1200,24,0,1200,25,0,1200,26,0,1221,27,0,1200,30,0,1200,31,0,1200,33,0,1200,34,0,1200,36,0,1200*69
$PAIRSAT,4,50,1,0,200,2,0,200,3,0,200,4,0,200,5,0,200,6,0,201,7,0,200,8,0,201,9,0,201,10,0,200,11,0,200,12,0,200,13,0,201,14,0,200,15,0,200,16,0,201,19,0,621,20,0,621,21,0,600,22,0,621,23,0,600,24,0,600,25,0,600,26,0,600,27,0,600,28,0,600,29,0,621,30,0,600,31,0,200,32,0,600,33,0,600,34,0,600,35,0,621,36,0,621,37,0,621,38,0,621,39,0,621,40,0,600,41,0,600,42,0,600,43,0,600,44,0,600,45,0,600,46,0,621,56,0,200,57,0,200,58,0,200,59,0,600,60,0,600,61,0,600*41
$PAIRDGP,1,15*6C
$GNGGA,110825.200,2500.8029622,N,12132.4813049,E,4,61,0.45,15.863,M,15.25,M,2,3335*40
$GNRMC,110825.200,A,2500.8029622,N,12132.4813049,E,0.01,197.87,260623,,,R,V*14
$GPHDT,224.957,T*3A
$GNACCURACY,3.4*11
$GNGGA,110825.300,2500.8029618,N,12132.4813033,E,4,61,0.45,15.871,M,15.25,M,2,3335*46
$GNRMC,110825.300,A,2500.8029618,N,12132.4813033,E,0.01,197.87,260623,,,R,V*11
$GPHDT,,T*1B
$GNACCURACY,3.4*11
$GNGGA,110825.400,2500.8029616,N,12132.4813046,E,4,61,0.45,15.873,M,15.25,M,2,3335*4F
$GNRMC,110825.400,A,2500.8029616,N,12132.4813046,E,0.01,197.87,260623,,,R,V*1A
$GPHDT,225.027,T*35
$GNACCURACY,3.4*11
$GNGGA,110825.500,2500.8029625,N,12132.4813036,E,4,62,0.44,15.880,M,15.25,M,2,3335*47
$GNRMC,110825.500,A,2500.8029625,N,12132.4813036,E,0.01,197.87,260623,,,R,V*1C
$GPHDT,,T*1B
$GNACCURACY,3.4*11
$GNGGA,110825.600,2500.8029633,N,12132.4813058,E,4,61,0.44,15.879,M,15.25,M,2,3335*4E
$GNRMC,110825.600,A,2500.8029633,N,12132.4813058,E,0.00,197.87,260623,,,R,V*11
