$FW : RTK35X,V1.1X0314AS,Lib20210517,1*54
$Tool : LOCOSYS , GNSS Firebird , v1.0.0.19*39
$---------------------------------------------------*2D
050,30,1*43
$GBGSV,4,1,15,06,82,226,35,16,79,190,39,09,75,301,36,43,74,063,43,1*7A
$GBGSV,4,2,15,39,68,176,43,40,66,315,34,07,63,294,17,23,61,356,39,1*74
$GBGSV,4,3,15,10,52,276,21,11,49,046,43,25,47,096,43,28,39,208,40,1*79
$GBGSV,4,4,15,34,26,041,34,57,,,27,58,,,27,1*4C
$GBGSV,2,1,07,43,74,063,32,39,68,176,47,40,66,315,30,23,61,356,35,4*70
$GBGSV,2,2,07,25,47,096,37,28,39,208,29,34,26,041,38,4*47
$GNACCURACY,5.2*11
$PAIRSAT,1,35,2,0,201,3,0,200,4,0,221,5,0,200,6,0,200,7,0,201,8,0,221,9,0,221,10,0,200,11,0,200,12,0,200,13,0,200,14,0,200,15,0,200,16,0,201,17,0,200,18,0,200,19,0,200,20,0,200,21,0,201,22,0,200,23,0,200,24,0,200,25,0,200,26,0,221,27,0,221,28,0,200,29,0,200,30,0,200,31,0,201,32,0,200,194,0,621,195,0,621,196,0,620,199,0,600*5B
$PAIRSAT,2,23,65,0,200,66,0,200,67,0,200,68,0,200,70,0,200,71,0,200,72,0,200,73,0,200,74,0,200,75,0,200,76,0,200,77,0,201,78,0,201,79,0,201,80,0,200,81,0,201,82,0,200,83,0,200,84,0,200,85,0,200,86,0,200,87,0,201,88,0,201*5C
$PAIRSAT,3,23,2,0,1200,3,0,1200,4,0,1200,5,0,200,7,0,1200,8,0,1200,9,0,1200,10,0,1200,11,0,1200,12,0,1200,13,0,1221,15,0,221,19,0,1221,21,0,1221,24,0,200,25,0,1200,26,0,1221,27,0,1221,30,0,1200,31,0,1200,33,0,1200,34,0,1200,36,0,1200*6A
$PAIRSAT,4,46,1,0,200,2,0,200,3,0,600,4,0,200,5,0,200,6,0,201,7,0,201,8,0,200,9,0,201,10,0,201,11,0,201,12,0,200,13,0,200,14,0,200,16,0,201,19,0,600,20,0,600,21,0,600,22,0,600,23,0,621,24,0,600,25,0,621,26,0,600,27,0,600,28,0,621,29,0,600,30,0,600,32,0,600,33,0,600,34,0,621,35,0,600,36,0,600,37,0,600,38,0,600,39,0,621,40,0,421,41,0,600,42,0,600,43,0,621,44,0,400,45,0,400,46,0,400,59,0,400,60,0,400,61,0,400,62,0,400*4A
$PAIRDGP,8,2,4,7,8,9,16,21,27*7C
$GNGGA,032653.100,2500.7903369,N,12132.4755443,E,4,56,0.50,16.705,M,15.25,M,1,3335*45
$GNRMC,032653.100,A,2500.7903369,N,12132.4755443,E,0.07,222.47,090324,,,R,V*16
$GPHDT,,T*1B
$GNACCURACY,5.2*11
$GNGGA,032653.200,2500.7903361,N,12132.4755497,E,4,56,0.50,16.727,M,15.25,M,1,3335*47
$GNRMC,032653.200,A,2500.7903361,N,12132.4755497,E,0.08,222.47,090324,,,R,V*1B
$GPHDT,,T*1B
$GNACCURACY,5.2*11
$GNGGA,032653.300,2500.7903337,N,12132.4755527,E,4,56,0.50,16.719,M,15.25,M,1,3335*42
$GNRMC,032653.300,A,2500.7903337,N,12132.4755527,E,0.05,222.47,090324,,,R,V*1E
$GPHDT,,T*1B
$GNACCURACY,5.5*16
$GNGGA,032653.400,2500.7903350,N,12132.4755494,E,4,57,0.47,16.721,M,15.25,M,1,3335*41
$GNRMC,032653.400,A,2500.7903350,N,12132.4755494,E,0.07,222.47,090324,,,R,V*13
$GPHDT,,T*1B
$GNACCURACY,5.5*16
$GNGGA,032653.500,2500.7903361,N,12132.4755453,E,4,57,0.47,16.725,M,15.25,M,0,3335*4C
$GNRMC,032653.500,A,2500.7903361,N,12132.4755453,E,0.06,222.47,090324,,,R,V*1A
$GPHDT,,T*1B
$GNACCURACY,5.5*16
$GNGGA,032653.600,2500.7903336,N,12132.4755499,E,4,57,0.47,16.731,M,15.25,M,0,3335*4E
$GNRMC,032653.600,A,2500.7903336,N,12132.4755499,E,0.04,222.47,090324,,,R,V*1F
$GPHDT,,T*1B
$GNACCURACY,5.5*16
$GNGGA,032653.700,2500.7903325,N,12132.4755471,E,4,57,0.47,16.748,M,15.25,M,0,3335*45
$GNRMC,032653.700,A,2500.7903325,N,12132.4755471,E,0.10,222.47,090324,,,R,V*1F
$GPHDT,,T*1B
$GNACCURACY,5.5*16
$GNGGA,032653.800,2500.7903364,N,12132.4755479,E,4,57,0.47,16.714,M,15.25,M,0,3335*4E
$GNRMC,032653.800,A,2500.7903364,N,12132.4755479,E,0.08,222.47,090324,,,R,V*14
$GPHDT,,T*1B
$GNACCURACY,5.2*11
$GNGGA,032653.900,2500.7903346,N,12132.4755398,E,4,57,0.47,16.718,M,15.25,M,0,3335*4B
$GNRMC,032653.900,A,2500.7903346,N,12132.4755398,E,0.08,222.47,090324,,,R,V*1D
$GPHDT,,T*1B
$GNACCURACY,5.2*11
$GNGGA,032654.000,2500.7903403,N,12132.4755317,E,4,57,0.47,16.691,M,15.25,M,1,3335*45
$GNRMC,032654.000,A,2500.7903403,N,12132.4755317,E,0.09,222.47,090324,,,R,V*13
$GPHDT,,T*1B
$GNGSA,A,3,08,194,195,27,21,16,04,09,02,07,196,26,0.76,0.47,0.59,1*35
$GNGSA,A,3,31,,,,,,,,,,,,0.76,0.47,0.59,1*0D
$GNGSA,A,3,88,78,81,77,87,79,,,,,,,0.76,0.47,0.59,2*0B
$GNGSA,A,3,21,13,19,27,26,15,,,,,,,0.76,0.47,0.59,3*01
$GNGSA,A,3,06,16,09,43,39,40,07,23,11,25,28,34,0.76,0.47,0.59,4*07
$GPGSV,4,1,15,08,72,304,32,199,64,166,,194,63,046,41,195,58,123,44,1*52
$GPGSV,4,2,15,27,50,027,38,45,47,231,40,21,39,169,46,16,35,055,37,1*6E
$GPGSV,4,3,15,04,32,217,35,09,31,267,21,02,28,181,36,07,25,320,23,1*6E
$GPGSV,4,4,15,196,21,173,30,26,17,083,31,31,15,137,18,1*6A
$GPGSV,2,1,08,08,72,304,23,194,63,046,43,195,58,123,46,27,50,027,44,8*66
$GPGSV,2,2,08,04,32,217,30,09,31,267,24,196,21,173,34,26,17,083,30,8*5C
$GLGSV,2,1,06,88,72,076,41,78,45,004,20,81,40,189,41,77,32,086,25,1*74
$GLGSV,2,2,06,87,22,030,25,79,12,319,16,1*74
$GAGSV,2,1,07,21,51,348,20,13,50,109,40,19,36,258,19,27,34,062,23,7*7B
$GAGSV,2,2,07,26,27,175,23,15,23,050,35,04,09,313,,7*4D
$GAGSV,2,1,05,21,51,348,27,13,50,109,39,27,34,062,31,26,27,175,35,1*7B
$GAGSV,2,2,05,15,23,050,32,1*41
$GBGSV,4,1,15,06,82,226,35,16,79,190,39,09,75,301,36,43,74,063,43,1*7A
$GBGSV,4,2,15,39,68,176,43,40,66,315,34,07,63,294,17,23,61,356,37,1*7A
$GBGSV,4,3,15,10,52,276,21,11,49,046,43,25,47,096,43,28,39,208,40,1*79
$GBGSV,4,4,15,34,26,041,33,57,,,27,58,,,28,1*44
$GBGSV,2,1,07,43,74,063,34,39,68,176,46,40,66,315,31,23,61,356,35,4*76
$GBGSV,2,2,07,25,47,096,38,28,39,208,33,34,26,041,38,4*43
$GNACCURACY,5.2*11
$PAIRSAT,1,35,2,0,201,3,0,200,4,0,221,5,0,200,6,0,200,7,0,201,8,0,221,9,0,221,10,0,200,11,0,200,12,0,200,13,0,200,14,0,200,15,0,200,16,0,201,17,0,200,18,0,200,19,0,200,20,0,200,21,0,201,22,0,200,23,0,200,24,0,200,25,0,200,26,0,221,27,0,221,28,0,200,29,0,200,30,0,200,31,0,201,32,0,200,194,0,621,195,0,621,196,0,620,199,0,600*5B
$PAIRSAT,2,23,65,0,200,66,0,200,67,0,200,68,0,200,70,0,200,71,0,200,72,0,200,73,0,200,74,0,200,75,0,200,76,0,200,77,0,201,78,0,201,79,0,201,80,0,200,81,0,201,82,0,200,83,0,200,84,0,200,85,0,200,86,0,200,87,0,201,88,0,201*5C
$PAIRSAT,3,23,2,0,1200,3,0,1200,4,0,1200,5,0,200,7,0,1200,8,0,1200,9,0,1200,10,0,1200,11,0,1200,12,0,1200,13,0,1221,15,0,221,19,0,1221,21,0,1221,24,0,200,25,0,1200,26,0,1221,27,0,1221,30,0,1200,31,0,1200,33,0,1200,34,0,1200,36,0,1200*6A
$PAIRSAT,4,46,1,0,200,2,0,200,3,0,600,4,0,200,5,0,200,6,0,201,7,0,201,8,0,200,9,0,201,10,0,201,11,0,201,12,0,200,13,0,200,14,0,200,16,0,201,19,0,600,20,0,600,21,0,600,22,0,600,23,0,621,24,0,600,25,0,621,26,0,600,27,0,600,28,0,621,29,0,600,30,0,600,32,0,600,33,0,600,34,0,621,35,0,600,36,0,600,37,0,600,38,0,600,39,0,621,40,0,421,41,0,600,42,0,600,43,0,621,44,0,400,45,0,400,46,0,400,59,0,400,60,0,400,61,0,400,62,0,400*4A
$PAIRDGP,8,2,4,7,8,9,16,21,27*7C
$GNGGA,032654.100,2500.7903330,N,12132.4755398,E,4,57,0.47,16.723,M,15.25,M,1,3335*4C
$GNRMC,032654.100,A,2500.7903330,N,12132.4755398,E,0.04,222.47,090324,,,R,V*1F
$GPHDT,,T*1B
$GNACCURACY,5.2*11
$GNGGA,032654.200,2500.7903365,N,12132.4755361,E,4,57,0.47,16.716,M,15.25,M,1,3335*4F
$GNRMC,032654.200,A,2500.7903365,N,12132.4755361,E,0.04,222.47,090324,,,R,V*1A
$GPHDT,,T*1B
$GNACCURACY,5.2*11
$GNGGA,032654.300,2500.7903351,N,12132.4755403,E,4,57,0.47,16.718,M,15.25,M,1,3335*44
$GNRMC,032654.300,A,2500.7903351,N,12132.4755403,E,0.11,222.47,090324,,,R,V*1B
$GPHDT,,T*1B
$GNACCURACY,5.2*11
$GNGGA,032654.400,2500.7903343,N,12132.4755424,E,4,57,0.47,16.721,M,15.25,M,1,3335*4F
$GNRMC,032654.400,A,2500.7903343,N,12132.4755424,E,0.15,222.47,090324,,,R,V*1E
$GPHDT,,T*1B
$GNACCURACY,5.2*11
$GNGGA,032654.500,2500.7903366,N,12132.4755364,E,4,57,0.47,16.740,M,15.25,M,1,3335*4D
$GNRMC,032654.500,A,2500.7903366,N,12132.4755364,E,0.02,222.47,090324,,,R,V*1D
$GPHDT,,T*1B
$GNACCURACY,5.2*11
$GNGGA,032654.600,2500.7903358,N,12132.4755399,E,4,57,0.47,16.724,M,15.25,M,1,3335*43
$GNRMC,032654.600,A,2500.7903358,N,12132.4755399,E,0.06,222.47,090324,,,R,V*15
$GPHDT,,T*1B
$GNACCURACY,5.2*11
$GNGGA,032654.700,2500.7903357,N,12132.4755353,E,4,57,0.47,16.710,M,15.25,M,0,3335*4D
$GNRMC,032654.700,A,2500.7903357,N,12132.4755353,E,0.10,222.47,090324,,,R,V*1A
$GPHDT,,T*1B
$GNACCURACY,5.2*11
$GNGGA,032654.800,2500.7903411,N,12132.4755363,E,4,57,0.47,16.696,M,15.25,M,0,3335*4B
$GNRMC,032654.800,A,2500.7903411,N,12132.4755363,E,0.07,222.47,090324,,,R,V*15
$GPHDT,,T*1B
$GNACCURACY,5.2*11
$GNGGA,032654.900,2500.7903349,N,12132.4755394,E,4,57,0.47,16.728,M,15.25,M,0,3335*4C
$GNRMC,032654.900,A,2500.7903349,N,12132.4755394,E,0.03,222.47,090324,,,R,V*12
$GPHDT,,T*1B
$GNACCURACY,5.2*11
$GNGGA,032655.000,2500.7903353,N,12132.4755391,E,4,57,0.47,16.724,M,15.25,M,1,3335*47
$GNRMC,032655.000,A,2500.7903353,N,12132.4755391,E,0.03,222.47,090324,,,R,V*14
$GPHDT,,T*1B
$GNGSA,A,3,08,194,195,27,21,16,04,09,02,07,196,26,0.76,0.47,0.59,1*35
$GNGSA,A,3,31,,,,,,,,,,,,0.76,0.47,0.59,1*0D
$GNGSA,A,3,88,78,81,77,87,79,,,,,,,0.76,0.47,0.59,2*0B
$GNGSA,A,3,21,13,19,27,26,15,,,,,,,0.76,0.47,0.59,3*01
$GNGSA,A,3,06,16,09,43,39,40,07,23,11,25,28,34,0.76,0.47,0.59,4*07
$GPGSV,4,1,15,08,72,304,32,199,64,166,,194,63,046,41,195,58,123,44,1*52
$GPGSV,4,2,15,27,50,027,37,45,47,231,40,21,39,169,46,16,35,055,37,1*61
$GPGSV,4,3,15,04,32,217,34,09,31,267,22,02,28,181,38,07,25,320,22,1*63
$GPGSV,4,4,15,196,21,173,30,26,17,083,31,31,15,137,17,1*65
$GPGSV,2,1,08,08,72,304,24,194,63,046,43,195,58,123,46,27,50,027,44,8*61
$GPGSV,2,2,08,04,32,217,30,09,31,267,24,196,21,173,35,26,17,083,30,8*5D
$GLGSV,2,1,06,88,72,076,41,78,45,004,23,81,40,189,41,77,32,086,25,1*77
$GLGSV,2,2,06,87,22,030,24,79,12,319,14,1*77
$GAGSV,2,1,07,21,51,348,22,13,50,109,40,19,36,258,19,27,34,062,23,7*79
$GAGSV,2,2,07,26,27,175,28,15,23,050,35,04,09,313,,7*46
$GAGSV,2,1,05,21,51,348,26,13,50,109,39,27,34,062,30,26,27,175,37,1*79
$GAGSV,2,2,05,15,23,050,31,1*42
$GBGSV,4,1,15,06,82,226,35,16,79,190,39,09,75,301,36,43,74,063,43,1*7A
$GBGSV,4,2,15,39,68,176,43,40,66,315,34,07,63,294,14,23,61,356,37,1*79
$GBGSV,4,3,15,10,52,276,21,11,49,046,43,25,47,096,43,28,39,208,40,1*79
$GBGSV,4,4,15,34,26,041,33,57,,,27,58,,,28,1*44
$GBGSV,2,1,07,43,74,063,34,39,68,176,46,40,66,315,31,23,61,356,35,4*76
$GBGSV,2,2,07,25,47,096,38,28,39,208,33,34,26,041,38,4*43
$GNACCURACY,5.2*11
$PAIRSAT,1,35,2,0,201,3,0,200,4,0,221,5,0,200,6,0,200,7,0,201,8,0,221,9,0,221,10,0,200,11,0,200,12,0,200,13,0,200,14,0,200,15,0,200,16,0,201,17,0,200,18,0,200,19,0,200,20,0,200,21,0,201,22,0,200,23,0,200,24,0,200,25,0,200,26,0,221,27,0,221,28,0,200,29,0,200,30,0,200,31,0,201,32,0,200,194,0,621,195,0,621,196,0,620,199,0,600*5B
$PAIRSAT,2,23,65,0,200,66,0,200,67,0,200,68,0,200,70,0,200,71,0,200,72,0,200,73,0,200,74,0,200,75,0,200,76,0,200,77,0,201,78,0,201,79,0,201,80,0,200,81,0,201,82,0,200,83,0,200,84,0,200,85,0,200,86,0,200,87,0,201,88,0,201*5C
$PAIRSAT,3,23,2,0,1200,3,0,1200,4,0,1200,5,0,200,7,0,1200,8,0,1200,9,0,1200,10,0,1200,11,0,1200,12,0,1200,13,0,1221,15,0,221,19,0,1221,21,0,1221,24,0,200,25,0,1200,26,0,1221,27,0,1221,30,0,1200,31,0,1200,33,0,1200,34,0,1200,36,0,1200*6A
$PAIRSAT,4,46,1,0,200,2,0,200,3,0,600,4,0,200,5,0,200,6,0,201,7,0,201,8,0,200,9,0,201,10,0,201,11,0,201,12,0,200,13,0,200,14,0,200,16,0,201,19,0,600,20,0,600,21,0,600,22,0,600,23,0,621,24,0,600,25,0,621,26,0,600,27,0,600,28,0,621,29,0,600,30,0,600,32,0,600,33,0,600,34,0,621,35,0,600,36,0,600,37,0,600,38,0,600,39,0,621,40,0,421,41,0,600,42,0,600,43,0,621,44,0,400,45,0,400,46,0,400,59,0,400,60,0,400,61,0,400,62,0,400*4A
$PAIRDGP,8,2,4,7,8,9,16,21,27*7C
$GNGGA,032655.100,2500.7903394,N,12132.4755310,E,4,57,0.47,16.695,M,15.25,M,1,3335*4F
$GNRMC,032655.100,A,2500.7903394,N,12132.4755310,E,0.19,222.47,090324,,,R,V*1C
$GPHDT,,T*1B
$GNACCURACY,5.2*11
$GNGGA,032655.200,2500.7903392,N,12132.4755403,E,4,57,0.47,16.706,M,15.25,M,1,3335*44
$GNRMC,032655.200,A,2500.7903392,N,12132.4755403,E,0.19,222.47,090324,,,R,V*1C
$GPHDT,,T*1B
$GNACCURACY,5.3*10
$GNGGA,032655.300,2500.7903405,N,12132.4755322,E,4,57,0.47,16.700,M,15.25,M,1,3335*4E
$GNRMC,032655.300,A,2500.7903405,N,12132.4755322,E,0.14,222.47,090324,,,R,V*1D
$GPHDT,,T*1B
$GNACCURACY,5.3*10
$GNGGA,032655.400,2500.7903402,N,12132.4755367,E,4,57,0.47,16.707,M,15.25,M,1,3335*48
$GNRMC,032655.400,A,2500.7903402,N,12132.4755367,E,0.11,222.47,090324,,,R,V*19
$GPHDT,,T*1B
$GNACCURACY,5.3*10
$GNGGA,032655.500,2500.7903373,N,12132.4755433,E,4,57,0.47,16.699,M,15.25,M,1,3335*48
$GNRMC,032655.500,A,2500.7903373,N,12132.4755433,E,0.07,222.47,090324,,,R,V*18
$GPHDT,,T*1B
$GNACCURACY,5.3*10
$GNGGA,032655.600,2500.7903306,N,12132.4755498,E,4,57,0.47,16.709,M,15.25,M,0,3335*41
$GNRMC,032655.600,A,2500.7903306,N,12132.4755498,E,0.12,222.47,090324,,,R,V*1C
$GPHDT,,T*1B
$GNACCURACY,5.3*10
$GNGGA,032655.700,2500.7903380,N,12132.4755327,E,4,57,0.47,16.702,M,15.25,M,0,3335*46
$GNRMC,032655.700,A,2500.7903380,N,12132.4755327,E,0.07,222.47,090324,,,R,V*14
$GPHDT,,T*1B
$GNACCURACY,5.3*10
$GNGGA,032655.800,2500.7903414,N,12132.4755371,E,4,58,0.47,16.693,M,15.25,M,0,3335*46
$GNRMC,032655.800,A,2500.7903414,N,12132.4755371,E,0.04,222.47,090324,,,R,V*11
$GPHDT,,T*1B
$GNACCURACY,5.3*10
$GNGGA,032655.900,2500.7903327,N,12132.4755448,E,4,58,0.47,16.716,M,15.25,M,0,3335*41
$GNRMC,032655.900,A,2500.7903327,N,12132.4755448,E,0.08,222.47,090324,,,R,V*16
$GPHDT,,T*1B
$GNACCURACY,5.3*10
$GNGGA,032656.000,2500.7903326,N,12132.4755471,E,4,57,0.50,16.726,M,15.25,M,1,3335*4B
$GNRMC,032656.000,A,2500.7903326,N,12132.4755471,E,0.09,222.47,090324,,,R,V*16
$GPHDT,,T*1B
$GNGSA,A,3,08,194,195,27,21,16,04,09,02,07,196,26,0.80,0.50,0.62,1*32
$GNGSA,A,3,31,,,,,,,,,,,,0.80,0.50,0.62,1*0A
$GNGSA,A,3,88,78,81,77,87,,,,,,,,0.80,0.50,0.62,2*02
$GNGSA,A,3,21,13,19,27,26,15,,,,,,,0.80,0.50,0.62,3*06
$GNGSA,A,3,06,16,09,43,39,40,07,23,11,25,28,34,0.80,0.50,0.62,4*00
$GPGSV,4,1,15,08,72,304,32,199,64,166,,194,63,046,41,195,58,123,44,1*52
$GPGSV,4,2,15,27,50,027,37,45,47,231,41,21,39,169,46,16,35,055,37,1*60
$GPGSV,4,3,15,04,32,217,34,09,31,267,21,02,28,181,38,07,25,320,21,1*63
$GPGSV,4,4,15,196,21,173,29,26,17,083,30,31,15,137,17,1*6C
$GPGSV,2,1,08,08,72,304,23,194,63,046,43,195,58,123,46,27,50,027,44,8*66
$GPGSV,2,2,08,04,32,217,30,09,31,267,24,196,21,173,35,26,17,083,29,8*55
$GLGSV,2,1,06,88,72,076,42,78,45,004,23,81,40,189,41,77,32,086,25,1*74
$GLGSV,2,2,06,87,22,030,24,79,12,319,12,1*71
$GAGSV,2,1,07,21,51,348,23,13,50,109,40,19,36,258,18,27,34,062,23,7*79
$GAGSV,2,2,07,26,27,175,29,15,23,050,35,04,09,313,,7*47
$GAGSV,2,1,06,21,51,348,26,13,50,109,39,19,36,258,21,27,34,062,30,1*7D
$GAGSV,2,2,06,26,27,175,37,15,23,050,32,1*74
$GBGSV,4,1,15,06,82,226,35,16,79,190,39,09,75,301,36,43,74,063,43,1*7A
$GBGSV,4,2,15,39,68,176,43,40,66,315,35,07,63,294,14,23,61,356,37,1*78
$GBGSV,4,3,15,10,52,276,21,11,49,046,43,25,47,096,43,28,39,208,40,1*79
$GBGSV,4,4,15,34,26,041,33,57,,,28,58,,,28,1*4B
$GBGSV,2,1,07,43,74,063,34,39,68,176,46,40,66,315,31,23,61,356,35,4*76
$GBGSV,2,2,07,25,47,096,38,28,39,208,33,34,26,041,38,4*43
$GNACCURACY,5.3*10
$PAIRSAT,1,35,2,0,201,3,0,200,4,0,221,5,0,200,6,0,200,7,0,201,8,0,221,9,0,221,10,0,200,11,0,200,12,0,200,13,0,200,14,0,200,15,0,200,16,0,201,17,0,200,18,0,200,19,0,200,20,0,200,21,0,201,22,0,200,23,0,200,24,0,200,25,0,200,26,0,221,27,0,221,28,0,200,29,0,200,30,0,200,31,0,201,32,0,200,194,0,621,195,0,621,196,0,620,199,0,600*5B
$PAIRSAT,2,23,65,0,200,66,0,200,67,0,200,68,0,200,70,0,200,71,0,200,72,0,200,73,0,200,74,0,200,75,0,200,76,0,200,77,0,201,78,0,201,79,0,201,80,0,200,81,0,201,82,0,200,83,0,200,84,0,200,85,0,200,86,0,200,87,0,201,88,0,201*5C
$PAIRSAT,3,23,2,0,1200,3,0,1200,4,0,1200,5,0,200,7,0,1200,8,0,1200,9,0,1200,10,0,1200,11,0,1200,12,0,1200,13,0,1221,15,0,221,19,0,1221,21,0,1221,24,0,200,25,0,1200,26,0,1221,27,0,1221,30,0,1200,31,0,1200,33,0,1200,34,0,1200,36,0,1200*6A
$PAIRSAT,4,46,1,0,200,2,0,200,3,0,600,4,0,200,5,0,200,6,0,201,7,0,201,8,0,200,9,0,201,10,0,201,11,0,201,12,0,200,13,0,200,14,0,200,16,0,201,19,0,600,20,0,600,21,0,600,22,0,600,23,0,621,24,0,600,25,0,621,26,0,600,27,0,600,28,0,621,29,0,600,30,0,600,32,0,600,33,0,600,34,0,621,35,0,600,36,0,600,37,0,600,38,0,600,39,0,621,40,0,421,41,0,600,42,0,600,43,0,621,44,0,400,45,0,400,46,0,400,59,0,400,60,0,400,61,0,400,62,0,400*4A
$PAIRDGP,8,2,4,7,8,9,16,21,27*7C
$GNGGA,032656.100,2500.7903357,N,12132.4755428,E,4,57,0.50,16.711,M,15.25,M,1,3335*44
$GNRMC,032656.100,A,2500.7903357,N,12132.4755428,E,0.14,222.47,090324,,,R,V*11
$GPHDT,,T*1B
$GNACCURACY,5.3*10
$GNGGA,032656.200,2500.7903394,N,12132.4755371,E,4,57,0.50,16.692,M,15.25,M,1,3335*49
$GNRMC,032656.200,A,2500.7903394,N,12132.4755371,E,0.14,222.47,090324,,,R,V*16
$GPHDT,,T*1B
$GNACCURACY,5.3*10
$GNGGA,032656.300,2500.7903385,N,12132.4755405,E,4,57,0.50,16.697,M,15.25,M,1,3335*49
$GNRMC,032656.300,A,2500.7903385,N,12132.4755405,E,0.12,222.47,090324,,,R,V*15
$GPHDT,,T*1B
$GNACCURACY,5.4*17
$GNGGA,032656.400,2500.7903376,N,12132.4755419,E,4,57,0.50,16.693,M,15.25,M,1,3335*4B
$GNRMC,032656.400,A,2500.7903376,N,12132.4755419,E,0.05,222.47,090324,,,R,V*15
$GPHDT,,T*1B
$GNACCURACY,5.3*10
$GNGGA,032656.500,2500.7903363,N,12132.4755383,E,4,57,0.50,16.694,M,15.25,M,0,3335*4C
$GNRMC,032656.500,A,2500.7903363,N,12132.4755383,E,0.09,222.47,090324,,,R,V*18
$GPHDT,,T*1B
$GNACCURACY,5.3*10
$GNGGA,032656.600,2500.7903400,N,12132.4755431,E,4,57,0.50,16.698,M,15.25,M,0,3335*4F
$GNRMC,032656.600,A,2500.7903400,N,12132.4755431,E,0.13,222.47,090324,,,R,V*1C
$GPHDT,,T*1B
$GNACCURACY,5.3*10
$GNGGA,032656.700,2500.7903387,N,12132.4755350,E,4,57,0.50,16.705,M,15.25,M,0,3335*43
$GNRMC,032656.700,A,2500.7903387,N,12132.4755350,E,0.15,222.47,090324,,,R,V*13
$GPHDT,,T*1B
$GNACCURACY,5.3*10
$GNGGA,032656.800,2500.7903380,N,12132.4755284,E,4,57,0.50,16.694,M,15.25,M,0,3335*4A
$GNRMC,032656.800,A,2500.7903380,N,12132.4755284,E,0.02,222.47,090324,,,R,V*15
$GPHDT,,T*1B
$GNACCURACY,5.3*10
$GNGGA,032656.900,2500.7903405,N,12132.4755402,E,4,57,0.50,16.707,M,15.25,M,0,3335*42
$GNRMC,032656.900,A,2500.7903405,N,12132.4755402,E,0.05,222.47,090324,,,R,V*11
$GPHDT,,T*1B
$GNACCURACY,5.3*10
$GNGGA,032657.000,2500.7903393,N,12132.4755409,E,4,57,0.50,16.693,M,15.25,M,1,3335*44
$GNRMC,032657.000,A,2500.7903393,N,12132.4755409,E,0.04,222.47,090324,,,R,V*1B
$GPHDT,,T*1B
$GNGSA,A,3,08,194,195,27,21,16,04,09,02,07,196,26,0.82,0.52,0.63,1*33
$GNGSA,A,3,88,78,81,77,87,,,,,,,,0.82,0.52,0.63,2*03
$GNGSA,A,3,21,13,19,27,26,15,,,,,,,0.82,0.52,0.63,3*07
$GNGSA,A,3,06,16,09,43,39,40,07,23,11,25,28,34,0.82,0.52,0.63,4*01
$GPGSV,4,1,15,08,72,304,32,199,64,166,,194,63,046,41,195,58,123,44,1*52
$GPGSV,4,2,15,27,50,027,37,45,47,231,41,21,39,169,46,16,35,055,38,1*6F
$GPGSV,4,3,15,04,32,217,34,09,31,267,18,02,28,181,35,07,25,320,19,1*6F
$GPGSV,4,4,15,196,21,173,29,26,17,083,29,31,15,137,17,1*64
$GPGSV,2,1,08,08,72,304,23,194,63,046,43,195,58,123,47,27,50,027,44,8*67
$GPGSV,2,2,08,04,32,217,30,09,31,267,26,196,21,173,35,26,17,083,30,8*5F
$GLGSV,2,1,06,88,72,076,42,78,45,004,24,81,40,189,41,77,32,086,25,1*73
$GLGSV,2,2,06,87,22,030,24,79,12,319,14,1*77
$GAGSV,2,1,07,21,51,348,23,13,50,109,40,19,36,258,18,27,34,062,22,7*78
$GAGSV,2,2,07,26,27,175,23,15,23,049,35,04,09,313,,7*45
$GAGSV,2,1,06,21,51,348,27,13,50,109,40,19,36,258,20,27,34,062,31,1*72
$GAGSV,2,2,06,26,27,175,37,15,23,049,31,1*7F
$GBGSV,4,1,16,06,82,226,35,16,79,190,39,09,75,301,36,43,74,063,43,1*79
$GBGSV,4,2,16,39,68,176,43,40,66,315,35,07,63,294,14,23,61,356,37,1*7B
$GBGSV,4,3,16,10,52,276,21,11,49,046,43,25,47,096,43,28,39,208,40,1*7A
$GBGSV,4,4,16,34,26,041,33,32,05,257,,57,,,27,58,,,27,1*7C
$GBGSV,2,1,07,43,74,063,35,39,68,176,47,40,66,315,31,23,61,356,35,4*76
$GBGSV,2,2,07,25,47,096,38,28,39,208,32,34,26,041,39,4*43
$GNACCURACY,5.3*10
$PAIRSAT,1,35,2,0,201,3,0,200,4,0,221,5,0,200,6,0,200,7,0,201,8,0,221,9,0,221,10,0,200,11,0,200,12,0,200,13,0,200,14,0,200,15,0,200,16,0,201,17,0,200,18,0,200,19,0,200,20,0,200,21,0,201,22,0,200,23,0,200,24,0,200,25,0,200,26,0,221,27,0,221,28,0,200,29,0,200,30,0,200,31,0,201,32,0,200,194,0,621,195,0,621,196,0,620,199,0,600*5B
$PAIRSAT,2,23,65,0,200,66,0,200,67,0,200,68,0,200,70,0,200,71,0,200,72,0,200,73,0,200,74,0,200,75,0,200,76,0,200,77,0,201,78,0,201,79,0,201,80,0,200,81,0,201,82,0,200,83,0,200,84,0,200,85,0,200,86,0,200,87,0,201,88,0,201*5C
$PAIRSAT,3,23,2,0,1200,3,0,1200,4,0,1200,5,0,200,7,0,1200,8,0,1200,9,0,1200,10,0,1200,11,0,1200,12,0,1200,13,0,1221,15,0,221,19,0,1221,21,0,1221,24,0,200,25,0,1200,26,0,1221,27,0,1221,30,0,1200,31,0,1200,33,0,1200,34,0,1200,36,0,1200*6A
$PAIRSAT,4,46,1,0,200,2,0,200,3,0,600,4,0,200,5,0,200,6,0,201,7,0,201,8,0,200,9,0,201,10,0,201,11,0,201,12,0,200,13,0,200,14,0,200,16,0,201,19,0,600,20,0,600,21,0,600,22,0,600,23,0,621,24,0,600,25,0,621,26,0,600,27,0,600,28,0,621,29,0,600,30,0,600,32,0,600,33,0,600,34,0,621,35,0,600,36,0,600,37,0,600,38,0,600,39,0,621,40,0,421,41,0,600,42,0,600,43,0,621,44,0,400,45,0,400,46,0,400,59,0,400,60,0,400,61,0,400,62,0,400*4A
$PAIRDGP,8,2,4,7,8,9,16,21,27*7C
$GNGGA,032657.100,2500.7903400,N,12132.4755476,E,4,56,0.52,16.706,M,15.25,M,1,3335*4E
$GNRMC,032657.100,A,2500.7903400,N,12132.4755476,E,0.12,222.47,090324,,,R,V*18
$GPHDT,,T*1B
$GNACCURACY,5.3*10
$GNGGA,032657.200,2500.7903379,N,12132.4755423,E,4,56,0.52,16.698,M,15.25,M,1,3335*42
$GNRMC,032657.200,A,2500.7903379,N,12132.4755423,E,0.10,222.47,090324,,,R,V*10
$GPHDT,,T*1B
$GNACCURACY,5.3*10
$GNGGA,032657.300,2500.7903371,N,12132.4755389,E,4,56,0.52,16.690,M,15.25,M,1,3335*44
$GNRMC,032657.300,A,2500.7903371,N,12132.4755389,E,0.08,222.47,090324,,,R,V*17
$GPHDT,,T*1B
$GNACCURACY,5.3*10
$GNGGA,032657.400,2500.7903396,N,12132.4755307,E,4,56,0.52,16.697,M,15.25,M,1,3335*4B
$GNRMC,032657.400,A,2500.7903396,N,12132.4755307,E,0.05,222.47,090324,,,R,V*12
$GPHDT,,T*1B
$GNACCURACY,5.3*10
$GNGGA,032657.500,2500.7903379,N,12132.4755440,E,4,56,0.52,16.713,M,15.25,M,1,3335*42
$GNRMC,032657.500,A,2500.7903379,N,12132.4755440,E,0.02,222.47,090324,,,R,V*11
$GPHDT,,T*1B
$GNACCURACY,5.3*10
$GNGGA,032657.600,2500.7903376,N,12132.4755439,E,4,56,0.52,16.718,M,15.25,M,1,3335*4B
$GNRMC,032657.600,A,2500.7903376,N,12132.4755439,E,0.01,222.47,090324,,,R,V*10
$GPHDT,,T*1B
$GNACCURACY,5.3*10
$GNGGA,032657.700,2500.7903367,N,12132.4755464,E,4,56,0.52,16.700,M,15.25,M,1,3335*4B
$GNRMC,032657.700,A,2500.7903367,N,12132.4755464,E,0.02,222.47,090324,,,R,V*1A
$GPHDT,,T*1B
$GNACCURACY,5.3*10
$GNGGA,032657.800,2500.7903353,N,12132.4755450,E,4,56,0.52,16.713,M,15.25,M,0,3335*47
$GNRMC,032657.800,A,2500.7903353,N,12132.4755450,E,0.07,222.47,090324,,,R,V*10
$GPHDT,,T*1B
$GNACCURACY,5.3*10
$GNGGA,032657.900,2500.7903358,N,12132.4755456,E,4,55,0.55,16.712,M,15.25,M,0,3335*4E
$GNRMC,032657.900,A,2500.7903358,N,12132.4755456,E,0.09,222.47,090324,,,R,V*12
$GPHDT,,T*1B
$GNACCURACY,5.4*17
$GNGGA,032658.000,2500.7903385,N,12132.4755444,E,4,56,0.52,16.709,M,15.25,M,1,3335*44
$GNRMC,032658.000,A,2500.7903385,N,12132.4755444,E,0.08,222.47,090324,,,R,V*16
$GPHDT,,T*1B
$GNGSA,A,3,08,194,195,27,21,16,04,09,02,196,26,,0.86,0.55,0.66,1*32
$GNGSA,A,3,88,78,81,77,87,,,,,,,,0.86,0.55,0.66,2*05
$GNGSA,A,3,21,13,19,27,26,15,,,,,,,0.86,0.55,0.66,3*01
$GNGSA,A,3,06,16,09,43,39,40,07,23,11,25,28,34,0.86,0.55,0.66,4*07
$GPGSV,4,1,15,08,72,304,32,199,64,166,,194,63,046,41,195,58,123,44,1*52
$GPGSV,4,2,15,27,50,027,37,45,47,231,41,21,39,169,46,16,35,055,38,1*6F
$GPGSV,4,3,15,04,32,217,34,09,31,267,18,02,28,181,37,07,25,320,16,1*62
$GPGSV,4,4,15,196,21,173,29,26,17,083,29,31,15,137,17,1*64
$GPGSV,2,1,08,08,72,304,23,194,63,046,43,195,58,123,47,27,50,027,44,8*67
$GPGSV,2,2,08,04,32,217,30,09,31,267,26,196,21,173,35,26,17,083,30,8*5F
$GLGSV,2,1,08,88,72,076,42,78,45,004,27,81,40,189,41,77,32,086,23,1*78
$GLGSV,2,2,08,87,22,030,25,68,14,254,,79,12,319,14,67,02,209,,1*78
$GAGSV,2,1,07,21,51,348,24,13,50,109,40,19,36,258,18,27,34,062,24,7*79
$GAGSV,2,2,07,26,27,175,28,15,23,049,35,04,09,313,,7*4E
$GAGSV,2,1,06,21,51,348,27,13,50,109,40,19,36,258,17,27,34,062,33,1*74
$GAGSV,2,2,06,26,27,175,38,15,23,049,30,1*71
$GBGSV,5,1,17,06,82,226,35,16,79,190,39,09,75,301,36,43,74,063,43,1*79
$GBGSV,5,2,17,39,68,176,43,40,66,315,35,07,63,294,16,23,61,356,37,1*79
$GBGSV,5,3,17,10,52,276,21,11,49,046,43,25,47,096,43,28,39,208,40,1*7A
$GBGSV,5,4,17,34,26,041,34,37,17,314,,41,04,208,,58,,,27,1*47
$GBGSV,5,5,17,57,,,26,1*76
$GBGSV,2,1,07,43,74,063,36,39,68,176,47,40,66,315,32,23,61,356,36,4*75
$GBGSV,2,2,07,25,47,096,38,28,39,208,31,34,26,041,39,4*40
$GNACCURACY,5.4*17
$PAIRSAT,1,35,2,0,201,3,0,200,4,0,221,5,0,200,6,0,200,7,0,201,8,0,221,9,0,221,10,0,200,11,0,200,12,0,200,13,0,200,14,0,200,15,0,200,16,0,201,17,0,200,18,0,200,19,0,200,20,0,200,21,0,201,22,0,200,23,0,200,24,0,200,25,0,200,26,0,221,27,0,221,28,0,200,29,0,200,30,0,200,31,0,201,32,0,200,194,0,621,195,0,621,196,0,620,199,0,600*5B
$PAIRSAT,2,23,65,0,200,66,0,200,67,0,200,68,0,200,70,0,200,71,0,200,72,0,200,73,0,200,74,0,200,75,0,200,76,0,200,77,0,201,78,0,201,79,0,201,80,0,200,81,0,201,82,0,200,83,0,200,84,0,200,85,0,200,86,0,200,87,0,201,88,0,201*5C
$PAIRSAT,3,23,2,0,1200,3,0,1200,4,0,1200,5,0,200,7,0,1200,8,0,1200,9,0,1200,10,0,1200,11,0,1200,12,0,1200,13,0,1221,15,0,221,19,0,1221,21,0,1221,24,0,200,25,0,1200,26,0,1221,27,0,1221,30,0,1200,31,0,1200,33,0,1200,34,0,1200,36,0,1200*6A
$PAIRSAT,4,46,1,0,200,2,0,200,3,0,600,4,0,200,5,0,200,6,0,201,7,0,201,8,0,200,9,0,201,10,0,201,11,0,201,12,0,200,13,0,200,14,0,200,16,0,201,19,0,600,20,0,600,21,0,600,22,0,600,23,0,621,24,0,600,25,0,621,26,0,600,27,0,600,28,0,621,29,0,600,30,0,600,32,0,600,33,0,600,34,0,621,35,0,600,36,0,600,37,0,600,38,0,600,39,0,621,40,0,421,41,0,600,42,0,600,43,0,621,44,0,400,45,0,400,46,0,400,59,0,400,60,0,400,61,0,400,62,0,400*4A
$PAIRDGP,8,2,4,7,8,9,16,21,27*7C
$GNGGA,032658.100,2500.7903394,N,12132.4755436,E,4,55,0.55,16.690,M,15.25,M,1,3335*45
$GNRMC,032658.100,A,2500.7903394,N,12132.4755436,E,0.08,222.47,090324,,,R,V*12
$GPHDT,,T*1B
$GNACCURACY,5.4*17
$GNGGA,032658.200,2500.7903378,N,12132.4755419,E,4,55,0.55,16.718,M,15.25,M,1,3335*48
$GNRMC,032658.200,A,2500.7903378,N,12132.4755419,E,0.05,222.47,090324,,,R,V*13
$GPHDT,,T*1B
$GNACCURACY,5.4*17
$GNGGA,032658.300,2500.7903413,N,12132.4755328,E,4,55,0.55,16.708,M,15.25,M,1,3335*47
$GNRMC,032658.300,A,2500.7903413,N,12132.4755328,E,0.06,222.47,090324,,,R,V*1E
$GPHDT,,T*1B
$GNACCURACY,5.4*17
$GNGGA,032658.400,2500.7903399,N,12132.4755400,E,4,55,0.55,16.695,M,15.25,M,1,3335*4D
$GNRMC,032658.400,A,2500.7903399,N,12132.4755400,E,0.09,222.47,090324,,,R,V*1E
$GPHDT,,T*1B
$GNACCURACY,5.4*17
$GNGGA,032658.500,2500.7903377,N,12132.4755490,E,4,55,0.55,16.718,M,15.25,M,1,3335*41
$GNRMC,032658.500,A,2500.7903377,N,12132.4755490,E,0.08,222.47,090324,,,R,V*17
$GPHDT,,T*1B
$GNACCURACY,5.4*17
$GNGGA,032658.600,2500.7903360,N,12132.4755433,E,4,55,0.55,16.699,M,15.25,M,0,3335*44
$GNRMC,032658.600,A,2500.7903360,N,12132.4755433,E,0.05,222.47,090324,,,R,V*16
$GPHDT,,T*1B
$GNACCURACY,5.4*17
$GNGGA,032658.700,2500.7903392,N,12132.4755400,E,4,55,0.55,16.695,M,15.25,M,0,3335*44
$GNRMC,032658.700,A,2500.7903392,N,12132.4755400,E,0.02,222.47,090324,,,R,V*1D
$GPHDT,,T*1B
$GNACCURACY,5.5*16
$GNGGA,032658.800,2500.7903396,N,12132.4755426,E,4,55,0.55,16.696,M,15.25,M,0,3335*48
$GNRMC,032658.800,A,2500.7903396,N,12132.4755426,E,0.04,222.47,090324,,,R,V*14
$GPHDT,,T*1B
$GNACCURACY,5.5*16
$GNGGA,032658.900,2500.7903401,N,12132.4755331,E,4,55,0.55,16.681,M,15.25,M,0,3335*47
$GNRMC,032658.900,A,2500.7903401,N,12132.4755331,E,0.06,222.47,090324,,,R,V*1F
$GPHDT,,T*1B
$GNACCURACY,5.5*16
$GNGGA,032659.000,2500.7903419,N,12132.4755330,E,4,55,0.55,16.680,M,15.25,M,1,3335*47
$GNRMC,032659.000,A,2500.7903419,N,12132.4755330,E,0.09,222.47,090324,,,R,V*10
$GPHDT,,T*1B
$GNGSA,A,3,08,194,195,27,21,16,04,09,02,196,26,,0.86,0.55,0.66,1*32
$GNGSA,A,3,88,78,81,77,87,,,,,,,,0.86,0.55,0.66,2*05
$GNGSA,A,3,21,13,19,27,26,15,,,,,,,0.86,0.55,0.66,3*01
$GNGSA,A,3,06,16,09,43,39,40,07,23,11,25,28,34,0.86,0.55,0.66,4*07
$GPGSV,4,1,15,08,72,304,32,199,64,166,,194,63,046,41,195,58,123,44,1*52
$GPGSV,4,2,15,27,50,027,35,45,47,231,41,21,39,169,46,16,35,055,38,1*6D
$GPGSV,4,3,15,04,32,217,35,09,31,267,18,02,28,181,37,07,25,320,15,1*60
$GPGSV,4,4,15,196,21,173,28,26,17,083,30,31,15,137,16,1*6C
$GPGSV,2,1,08,08,72,304,22,194,63,046,43,195,58,123,47,27,50,027,44,8*66
$GPGSV,2,2,08,04,32,217,30,09,31,267,25,196,21,173,35,26,17,083,29,8*54
$GLGSV,2,1,07,88,72,076,42,78,45,004,28,81,40,189,41,77,32,086,22,1*79
$GLGSV,2,2,07,87,22,030,24,79,12,319,15,67,02,209,,1*4F
$GAGSV,2,1,07,21,51,348,25,13,50,109,40,19,36,258,18,27,34,062,22,7*7E
$GAGSV,2,2,07,26,27,175,26,15,23,049,35,04,09,313,,7*40
$GAGSV,2,1,06,21,51,348,27,13,50,109,40,19,36,258,19,27,34,062,33,1*7A
$GAGSV,2,2,06,26,27,175,38,15,23,049,30,1*71
$GBGSV,5,1,18,06,82,226,34,16,79,190,39,09,75,301,35,43,74,063,43,1*74
$GBGSV,5,2,18,39,68,176,43,40,66,315,35,07,63,294,17,23,61,356,38,1*78
$GBGSV,5,3,18,10,52,276,22,11,49,046,43,25,47,096,43,28,39,208,40,1*76
$GBGSV,5,4,18,34,26,041,34,37,17,314,,32,05,257,,38,04,171,,1*77
$GBGSV,5,5,18,57,,,26,58,,,21,1*77
$GBGSV,2,1,07,43,74,063,36,39,68,176,47,40,66,315,32,23,61,356,36,4*75
$GBGSV,2,2,07,25,47,096,38,28,39,208,32,34,26,041,39,4*43
$GNACCURACY,5.5*16
$PAIRSAT,1,35,2,0,201,3,0,200,4,0,221,5,0,200,6,0,200,7,0,201,8,0,221,9,0,221,10,0,200,11,0,200,12,0,200,13,0,200,14,0,200,15,0,200,16,0,201,17,0,200,18,0,200,19,0,200,20,0,200,21,0,201,22,0,200,23,0,200,24,0,200,25,0,200,26,0,221,27,0,221,28,0,200,29,0,200,30,0,200,31,0,201,32,0,200,194,0,621,195,0,621,196,0,620,199,0,600*5B
$PAIRSAT,2,23,65,0,200,66,0,200,67,0,200,68,0,200,70,0,200,71,0,200,72,0,200,73,0,200,74,0,200,75,0,200,76,0,200,77,0,201,78,0,201,79,0,201,80,0,200,81,0,201,82,0,200,83,0,200,84,0,200,85,0,200,86,0,200,87,0,201,88,0,201*5C
$PAIRSAT,3,23,2,0,1200,3,0,1200,4,0,1200,5,0,200,7,0,1200,8,0,1200,9,0,1200,10,0,1200,11,0,1200,12,0,1200,13,0,1221,15,0,221,19,0,1221,21,0,1221,24,0,200,25,0,1200,26,0,1221,27,0,1221,30,0,1200,31,0,1200,33,0,1200,34,0,1200,36,0,1200*6A
$PAIRSAT,4,46,1,0,200,2,0,200,3,0,600,4,0,200,5,0,200,6,0,201,7,0,201,8,0,200,9,0,201,10,0,201,11,0,201,12,0,200,13,0,200,14,0,200,16,0,201,19,0,600,20,0,600,21,0,600,22,0,600,23,0,621,24,0,600,25,0,621,26,0,600,27,0,600,28,0,621,29,0,600,30,0,600,32,0,600,33,0,600,34,0,621,35,0,600,36,0,600,37,0,600,38,0,600,39,0,621,40,0,421,41,0,600,42,0,600,43,0,621,44,0,400,45,0,400,46,0,400,59,0,400,60,0,400,61,0,400,62,0,400*4A
$PAIRDGP,8,2,4,7,8,9,16,21,27*7C
$GNGGA,032659.100,2500.7903450,N,12132.4755358,E,4,55,0.55,16.672,M,15.25,M,1,3335*48
$GNRMC,032659.100,A,2500.7903450,N,12132.4755358,E,0.04,222.47,090324,,,R,V*1F
$GPHDT,,T*1B
$GNACCURACY,5.5*16
$GNGGA,032659.200,2500.7903428,N,12132.4755435,E,4,55,0.55,16.689,M,15.25,M,1,3335*4C
$GNRMC,032659.200,A,2500.7903428,N,12132.4755435,E,0.02,222.47,090324,,,R,V*19
$GPHDT,,T*1B
$GNACCURACY,5.5*16
$GNGGA,032659.300,2500.7903422,N,12132.4755375,E,4,55,0.55,16.690,M,15.25,M,1,3335*4C
$GNRMC,032659.300,A,2500.7903422,N,12132.4755375,E,0.01,222.47,090324,,,R,V*12
$GPHDT,,T*1B
$GNACCURACY,5.5*16
$GNGGA,032659.400,2500.7903413,N,12132.4755332,E,4,55,0.55,16.707,M,15.25,M,1,3335*45
$GNRMC,032659.400,A,2500.7903413,N,12132.4755332,E,0.01,222.47,090324,,,R,V*14
$GPHDT,,T*1B
$GNACCURACY,5.5*16
$GNGGA,032659.500,2500.7903430,N,12132.4755339,E,4,55,0.55,16.695,M,15.25,M,1,3335*44
$GNRMC,032659.500,A,2500.7903430,N,12132.4755339,E,0.01,222.47,090324,,,R,V*1F
$GPHDT,,T*1B
$GNACCURACY,5.5*16
$GNGGA,032659.600,2500.7903392,N,12132.4755405,E,4,55,0.55,16.700,M,15.25,M,0,3335*4C
$GNRMC,032659.600,A,2500.7903392,N,12132.4755405,E,0.01,222.47,090324,,,R,V*1B
$GPHDT,,T*1B
$GNACCURACY,5.5*16
$GNGGA,032659.700,2500.7903386,N,12132.4755381,E,4,56,0.54,16.693,M,15.25,M,0,3335*4A
$GNRMC,032659.700,A,2500.7903386,N,12132.4755381,E,0.00,222.47,090324,,,R,V*15
$GPHDT,,T*1B
$GNACCURACY,5.5*16
$GNGGA,032659.800,2500.7903412,N,12132.4755331,E,4,56,0.54,16.709,M,15.25,M,0,3335*46
$GNRMC,032659.800,A,2500.7903412,N,12132.4755331,E,0.06,222.47,090324,,,R,V*1D
$GPHDT,,T*1B
$GNACCURACY,5.5*16
$GNGGA,032659.900,2500.7903397,N,12132.4755369,E,4,56,0.54,16.692,M,15.25,M,0,3335*43
$GNRMC,032659.900,A,2500.7903397,N,12132.4755369,E,0.04,222.47,090324,,,R,V*19
$GPHDT,,T*1B
$GNACCURACY,5.5*16
$GNGGA,032700.000,2500.7903428,N,12132.4755383,E,4,56,0.54,16.681,M,15.25,M,1,3335*43
$GNRMC,032700.000,A,2500.7903428,N,12132.4755383,E,0.03,222.47,090324,,,R,V*1D
$GPHDT,,T*1B
$GNGSA,A,3,08,194,195,27,21,16,04,09,02,196,26,31,0.84,0.54,0.65,1*30
$GNGSA,A,3,88,78,81,77,87,,,,,,,,0.84,0.54,0.65,2*05
$GNGSA,A,3,21,13,19,27,26,15,,,,,,,0.84,0.54,0.65,3*01
$GNGSA,A,3,06,16,09,43,39,40,07,23,11,25,28,34,0.84,0.54,0.65,4*07
$GPGSV,4,1,15,08,72,304,32,199,64,166,,194,63,046,41,195,58,123,44,1*52
$GPGSV,4,2,15,27,50,027,34,45,47,231,41,21,39,169,46,16,35,055,38,1*6C
$GPGSV,4,3,15,04,32,217,35,09,31,267,17,02,28,181,36,07,25,320,14,1*6F
$GPGSV,4,4,15,196,21,173,28,26,17,083,30,31,15,137,16,1*6C
$GPGSV,2,1,08,08,72,304,21,194,63,046,43,195,58,123,47,27,50,027,44,8*65
$GPGSV,2,2,08,04,32,217,30,09,31,267,25,196,21,173,35,26,17,083,29,8*54
$GLGSV,2,1,06,88,72,076,42,78,45,004,28,81,40,189,41,77,32,086,23,1*79
$GLGSV,2,2,06,87,22,030,24,79,12,319,13,1*70
$GAGSV,2,1,07,21,51,348,26,13,50,109,40,19,36,258,18,27,34,062,23,7*7C
$GAGSV,2,2,07,26,27,175,24,15,23,049,35,04,09,313,,7*42
$GAGSV,2,1,06,21,51,348,27,13,50,109,41,19,36,258,20,27,34,062,32,1*70
$GAGSV,2,2,06,26,27,175,38,15,23,049,30,1*71
$GBGSV,4,1,16,06,82,226,34,16,79,190,39,09,75,301,35,43,74,063,43,1*7B
$GBGSV,4,2,16,39,68,176,43,40,66,315,35,07,63,294,17,23,61,356,38,1*77
$GBGSV,4,3,16,10,52,276,21,11,49,046,43,25,47,096,43,28,39,208,40,1*7A
$GBGSV,4,4,16,34,26,041,33,32,05,257,,57,,,27,58,,,28,1*73
$GBGSV,2,1,07,43,74,063,36,39,68,176,47,40,66,315,32,23,61,356,36,4*75
$GBGSV,2,2,07,25,47,096,38,28,39,208,32,34,26,041,39,4*43
$GNACCURACY,5.5*16
$PAIRSAT,1,35,2,0,201,3,0,200,4,0,221,5,0,200,6,0,200,7,0,201,8,0,221,9,0,221,10,0,200,11,0,200,12,0,200,13,0,200,14,0,200,15,0,200,16,0,201,17,0,200,18,0,200,19,0,200,20,0,200,21,0,201,22,0,200,23,0,200,24,0,200,25,0,200,26,0,221,27,0,221,28,0,200,29,0,200,30,0,200,31,0,201,32,0,200,194,0,621,195,0,621,196,0,620,199,0,600*5B
$PAIRSAT,2,23,65,0,200,66,0,200,67,0,200,68,0,200,70,0,200,71,0,200,72,0,200,73,0,200,74,0,200,75,0,200,76,0,200,77,0,201,78,0,201,79,0,201,80,0,200,81,0,201,82,0,200,83,0,200,84,0,200,85,0,200,86,0,200,87,0,201,88,0,201*5C
$PAIRSAT,3,23,2,0,1200,3,0,1200,4,0,1200,5,0,200,7,0,1200,8,0,1200,9,0,1200,10,0,1200,11,0,1200,12,0,1200,13,0,1221,15,0,221,19,0,1221,21,0,1221,24,0,200,25,0,1200,26,0,1221,27,0,1221,30,0,1200,31,0,1200,33,0,1200,34,0,1200,36,0,1200*6A
$PAIRSAT,4,46,1,0,200,2,0,200,3,0,600,4,0,200,5,0,200,6,0,201,7,0,201,8,0,200,9,0,201,10,0,201,11,0,201,12,0,200,13,0,200,14,0,200,16,0,201,19,0,600,20,0,600,21,0,600,22,0,600,23,0,621,24,0,600,25,0,621,26,0,600,27,0,600,28,0,621,29,0,600,30,0,600,32,0,600,33,0,600,34,0,621,35,0,600,36,0,600,37,0,600,38,0,600,39,0,621,40,0,421,41,0,600,42,0,600,43,0,621,44,0,400,45,0,400,46,0,400,59,0,400,60,0,400,61,0,400,62,0,400*4A
$PAIRDGP,8,2,4,7,8,9,16,21,27*7C
$GNGGA,032700.100,2500.7903447,N,12132.4755369,E,4,56,0.54,16.683,M,15.25,M,1,3335*4D
$GNRMC,032700.100,A,2500.7903447,N,12132.4755369,E,0.02,222.47,090324,,,R,V*10
$GPHDT,,T*1B
$GNACCURACY,5.5*16
$GNGGA,032700.200,2500.7903455,N,12132.4755339,E,4,56,0.54,16.681,M,15.25,M,1,3335*4A
$GNRMC,032700.200,A,2500.7903455,N,12132.4755339,E,0.15,222.47,090324,,,R,V*13
$GPHDT,,T*1B
$GNACCURACY,5.5*16
$GNGGA,032700.300,2500.7903391,N,12132.4755376,E,4,56,0.54,16.709,M,15.25,M,1,3335*4E
$GNRMC,032700.300,A,2500.7903391,N,12132.4755376,E,0.09,222.47,090324,,,R,V*1B
$GPHDT,,T*1B
$GNACCURACY,5.5*16
$GNGGA,032700.400,2500.7903467,N,12132.4755275,E,4,56,0.54,16.668,M,15.25,M,1,3335*43
$GNRMC,032700.400,A,2500.7903467,N,12132.4755275,E,0.08,222.47,090324,,,R,V*11
$GPHDT,,T*1B
$GNACCURACY,5.5*16
$GNGGA,032700.500,2500.7903444,N,12132.4755281,E,4,56,0.54,16.660,M,15.25,M,1,3335*40
$GNRMC,032700.500,A,2500.7903444,N,12132.4755281,E,0.07,222.47,090324,,,R,V*15
$GPHDT,,T*1B
$GNACCURACY,5.5*16
$GNGGA,032700.600,2500.7903441,N,12132.4755276,E,4,56,0.54,16.667,M,15.25,M,1,3335*49
$GNRMC,032700.600,A,2500.7903441,N,12132.4755276,E,0.06,222.47,090324,,,R,V*1A
$GPHDT,,T*1B
$GNACCURACY,5.5*16
$GNGGA,032700.700,2500.7903454,N,12132.4755337,E,4,56,0.54,16.674,M,15.25,M,0,3335*4B
$GNRMC,032700.700,A,2500.7903454,N,12132.4755337,E,0.04,222.47,090324,,,R,V*19
$GPHDT,,T*1B
$GNACCURACY,5.5*16
$GNGGA,032700.800,2500.7903464,N,12132.4755293,E,4,56,0.54,16.656,M,15.25,M,0,3335*48
$GNRMC,032700.800,A,2500.7903464,N,12132.4755293,E,0.05,222.47,090324,,,R,V*1B
$GPHDT,,T*1B
$GNACCURACY,5.4*17
$GNGGA,032700.900,2500.7903490,N,12132.4755280,E,4,57,0.50,16.645,M,15.25,M,0,3335*47
$GNRMC,032700.900,A,2500.7903490,N,12132.4755280,E,0.14,222.47,090324,,,R,V*13
$GPHDT,,T*1B
$GNACCURACY,5.4*17
$GNGGA,032701.000,2500.7903395,N,12132.4755292,E,4,56,0.54,16.695,M,15.25,M,1,3335*47
$GNRMC,032701.000,A,2500.7903395,N,12132.4755292,E,0.01,222.47,090324,,,R,V*1E
$GPHDT,,T*1B
$GNGSA,A,3,08,194,195,27,21,16,04,09,02,196,26,31,0.84,0.54,0.65,1*30
$GNGSA,A,3,88,78,81,77,87,,,,,,,,0.84,0.54,0.65,2*05
$GNGSA,A,3,21,13,19,27,26,15,,,,,,,0.84,0.54,0.65,3*01
$GNGSA,A,3,06,16,09,43,39,40,07,23,11,25,28,34,0.84,0.54,0.65,4*07
$GPGSV,4,1,15,08,72,304,32,199,64,166,,194,63,046,41,195,58,123,44,1*52
$GPGSV,4,2,15,27,50,027,34,45,47,231,40,21,39,169,46,16,35,055,38,1*6D
$GPGSV,4,3,15,04,32,217,34,09,31,267,17,02,28,181,36,07,25,320,15,1*6F
$GPGSV,4,4,15,196,21,173,28,26,17,083,30,31,15,137,15,1*6F
$GPGSV,2,1,08,08,72,304,21,194,63,046,43,195,58,123,47,27,50,027,44,8*65
$GPGSV,2,2,08,04,32,217,30,09,31,267,25,196,21,173,35,26,17,083,29,8*54
$GLGSV,2,1,07,88,72,076,42,78,46,005,28,81,40,189,41,77,32,086,23,1*7A
$GLGSV,2,2,07,87,21,030,25,79,12,319,15,67,02,209,,1*4D
$GAGSV,2,1,07,21,51,348,26,13,50,109,40,19,36,258,17,27,34,062,24,7*74
$GAGSV,2,2,07,26,27,175,26,15,23,049,35,04,09,313,,7*40
$GAGSV,2,1,06,21,51,348,27,13,50,109,41,19,36,258,20,27,34,062,32,1*70
$GAGSV,2,2,06,26,27,175,37,15,23,049,30,1*7E
$GBGSV,4,1,16,06,82,226,34,16,79,190,39,09,75,301,36,43,74,063,43,1*78
$GBGSV,4,2,16,39,68,176,43,40,66,315,35,07,63,294,17,23,61,356,37,1*78
$GBGSV,4,3,16,10,52,276,21,11,49,046,43,25,47,096,43,28,39,208,40,1*7A
$GBGSV,4,4,16,34,26,041,33,41,04,208,,58,,,28,57,,,26,1*7D
$GBGSV,2,1,07,43,74,063,36,39,68,176,47,40,66,315,32,23,61,356,37,4*74
$GBGSV,2,2,07,25,47,096,38,28,39,208,32,34,26,041,39,4*43
$GNACCURACY,5.4*17
$PAIRSAT,1,35,2,0,201,3,0,200,4,0,221,5,0,200,6,0,200,7,0,201,8,0,221,9,0,221,10,0,200,11,0,200,12,0,200,13,0,200,14,0,200,15,0,200,16,0,201,17,0,200,18,0,200,19,0,200,20,0,200,21,0,201,22,0,200,23,0,200,24,0,200,25,0,200,26,0,221,27,0,221,28,0,200,29,0,200,30,0,200,31,0,201,32,0,200,194,0,621,195,0,621,196,0,620,199,0,600*5B
$PAIRSAT,2,23,65,0,200,66,0,200,67,0,200,68,0,200,70,0,200,71,0,200,72,0,200,73,0,200,74,0,200,75,0,200,76,0,200,77,0,201,78,0,201,79,0,201,80,0,200,81,0,201,82,0,200,83,0,200,84,0,200,85,0,200,86,0,200,87,0,201,88,0,201*5C
$PAIRSAT,3,23,2,0,1200,3,0,1200,4,0,1200,5,0,200,7,0,1200,8,0,1200,9,0,1200,10,0,1200,11,0,1200,12,0,1200,13,0,1221,15,0,221,19,0,1221,21,0,1221,24,0,200,25,0,1200,26,0,1221,27,0,1221,30,0,1200,31,0,1200,33,0,1200,34,0,1200,36,0,1200*6A
$PAIRSAT,4,46,1,0,200,2,0,200,3,0,600,4,0,200,5,0,200,6,0,201,7,0,201,8,0,200,9,0,201,10,0,201,11,0,201,12,0,200,13,0,200,14,0,200,16,0,201,19,0,600,20,0,600,21,0,600,22,0,600,23,0,621,24,0,600,25,0,621,26,0,600,27,0,600,28,0,621,29,0,600,30,0,600,32,0,600,33,0,600,34,0,621,35,0,600,36,0,600,37,0,600,38,0,600,39,0,621,40,0,421,41,0,600,42,0,600,43,0,621,44,0,400,45,0,400,46,0,400,59,0,400,60,0,400,61,0,400,62,0,400*4A
$PAIRDGP,8,2,4,7,8,9,16,21,27*7C
$GNGGA,032701.100,2500.7903417,N,12132.4755259,E,4,56,0.54,16.683,M,15.25,M,1,3335*4B
$GNRMC,032701.100,A,2500.7903417,N,12132.4755259,E,0.10,222.47,090324,,,R,V*15
$GPHDT,,T*1B
$GNACCURACY,5.4*17
$GNGGA,032701.200,2500.7903420,N,12132.4755261,E,4,56,0.54,16.690,M,15.25,M,1,3335*45
$GNRMC,032701.200,A,2500.7903420,N,12132.4755261,E,0.12,222.47,090324,,,R,V*1B
$GPHDT,,T*1B
$GNACCURACY,5.4*17
$GNGGA,032701.300,2500.7903453,N,12132.4755273,E,4,56,0.54,16.665,M,15.25,M,1,3335*49
$GNRMC,032701.300,A,2500.7903453,N,12132.4755273,E,0.08,222.47,090324,,,R,V*16
$GPHDT,,T*1B
$GNACCURACY,5.4*17
$GNGGA,032701.400,2500.7903451,N,12132.4755272,E,4,56,0.54,16.683,M,15.25,M,1,3335*45
$GNRMC,032701.400,A,2500.7903451,N,12132.4755272,E,0.05,222.47,090324,,,R,V*1F
$GPHDT,,T*1B
$GNACCURACY,5.4*17
$GNGGA,032701.500,2500.7903426,N,12132.4755249,E,4,56,0.54,16.694,M,15.25,M,1,3335*4A
$GNRMC,032701.500,A,2500.7903426,N,12132.4755249,E,0.03,222.47,090324,,,R,V*10
$GPHDT,,T*1B
$GNACCURACY,5.4*17
$GNGGA,032701.600,2500.7903410,N,12132.4755376,E,4,56,0.54,16.703,M,15.25,M,1,3335*4E
$GNRMC,032701.600,A,2500.7903410,N,12132.4755376,E,0.01,222.47,090324,,,R,V*19
$GPHDT,,T*1B
$GNACCURACY,5.4*17
$GNGGA,032701.700,2500.7903383,N,12132.4755399,E,4,56,0.54,16.704,M,15.25,M,0,3335*45
$GNRMC,032701.700,A,2500.7903383,N,12132.4755399,E,0.02,222.47,090324,,,R,V*17
$GPHDT,,T*1B
$GNACCURACY,5.4*17
$GNGGA,032701.800,2500.7903355,N,12132.4755418,E,4,56,0.54,16.713,M,15.25,M,0,3335*49
$GNRMC,032701.800,A,2500.7903355,N,12132.4755418,E,0.08,222.47,090324,,,R,V*17
$GPHDT,,T*1B
$GNACCURACY,5.4*17
$GNGGA,032701.900,2500.7903413,N,12132.4755337,E,4,56,0.54,16.695,M,15.25,M,0,3335*48
$GNRMC,032701.900,A,2500.7903413,N,12132.4755337,E,0.05,222.47,090324,,,R,V*14
$GPHDT,,T*1B
$GNACCURACY,5.4*17
$GNGGA,032702.000,2500.7903366,N,12132.4755395,E,4,56,0.54,16.708,M,15.25,M,1,3335*4B
$GNRMC,032702.000,A,2500.7903366,N,12132.4755395,E,0.08,222.47,090324,,,R,V*1E
$GPHDT,,T*1B
$GNGSA,A,3,08,194,195,27,21,16,04,09,02,196,26,31,0.84,0.54,0.65,1*30
$GNGSA,A,3,88,78,81,77,87,,,,,,,,0.84,0.54,0.65,2*05
$GNGSA,A,3,21,13,19,27,26,15,,,,,,,0.84,0.54,0.65,3*01
$GNGSA,A,3,06,16,09,43,39,40,07,23,11,25,28,34,0.84,0.54,0.65,4*07
$GPGSV,4,1,15,08,72,304,31,199,64,166,,194,63,046,41,195,58,123,44,1*51
$GPGSV,4,2,15,27,50,027,33,45,47,231,40,21,39,169,46,16,35,055,38,1*6A
$GPGSV,4,3,15,04,32,217,34,09,31,267,18,02,28,181,36,07,25,320,15,1*60
$GPGSV,4,4,15,196,21,173,26,26,17,083,30,31,15,137,15,1*61
$GPGSV,2,1,08,08,72,304,21,194,63,046,43,195,58,123,47,27,50,027,44,8*65
$GPGSV,2,2,08,04,32,217,30,09,31,267,26,196,21,173,35,26,17,083,29,8*57
$GLGSV,2,1,07,88,72,076,42,78,46,005,29,81,40,189,41,77,32,086,21,1*79
$GLGSV,2,2,07,87,21,030,24,79,12,319,14,67,02,209,,1*4D
$GAGSV,2,1,07,21,51,348,26,13,50,109,40,19,36,258,17,27,34,062,27,7*77
$GAGSV,2,2,07,26,27,175,25,15,23,049,35,04,09,313,,7*43
$GAGSV,2,1,06,21,51,348,28,13,50,109,41,19,36,258,20,27,34,062,33,1*7E
$GAGSV,2,2,06,26,27,175,39,15,23,049,30,1*70
$GBGSV,4,1,15,06,82,226,34,16,79,190,39,09,75,301,36,43,74,063,43,1*7B
$GBGSV,4,2,15,39,68,176,43,40,66,315,36,07,63,294,17,23,61,356,37,1*78
$GBGSV,4,3,15,10,52,276,21,11,49,046,43,25,47,096,43,28,39,208,40,1*79
$GBGSV,4,4,15,34,26,041,33,57,,,25,58,,,29,1*47
$GBGSV,2,1,07,43,74,063,36,39,68,176,47,40,66,315,32,23,61,356,37,4*74
$GBGSV,2,2,07,25,47,096,37,28,39,208,32,34,26,041,39,4*4C
$GNACCURACY,5.4*17
$PAIRSAT,1,35,2,0,201,3,0,200,4,0,221,5,0,200,6,0,200,7,0,201,8,0,221,9,0,221,10,0,200,11,0,200,12,0,200,13,0,200,14,0,200,15,0,200,16,0,201,17,0,200,18,0,200,19,0,200,20,0,200,21,0,201,22,0,200,23,0,200,24,0,200,25,0,200,26,0,221,27,0,221,28,0,200,29,0,200,30,0,200,31,0,201,32,0,200,194,0,621,195,0,621,196,0,620,199,0,600*5B
$PAIRSAT,2,23,65,0,200,66,0,200,67,0,200,68,0,200,70,0,200,71,0,200,72,0,200,73,0,200,74,0,200,75,0,200,76,0,200,77,0,201,78,0,201,79,0,201,80,0,200,81,0,201,82,0,200,83,0,200,84,0,200,85,0,200,86,0,200,87,0,201,88,0,201*5C
$PAIRSAT,3,23,2,0,1200,3,0,1200,4,0,1200,5,0,200,7,0,1200,8,0,1200,9,0,1200,10,0,1200,11,0,1200,12,0,1200,13,0,1221,15,0,221,19,0,1221,21,0,1221,24,0,200,25,0,1200,26,0,1221,27,0,1221,30,0,1200,31,0,1200,33,0,1200,34,0,1200,36,0,1200*6A
$PAIRSAT,4,46,1,0,200,2,0,200,3,0,600,4,0,200,5,0,200,6,0,201,7,0,201,8,0,200,9,0,201,10,0,201,11,0,201,12,0,200,13,0,200,14,0,200,16,0,201,19,0,600,20,0,600,21,0,600,22,0,600,23,0,621,24,0,600,25,0,621,26,0,600,27,0,600,28,0,621,29,0,600,30,0,600,32,0,600,33,0,600,34,0,621,35,0,600,36,0,600,37,0,600,38,0,600,39,0,621,40,0,421,41,0,600,42,0,600,43,0,621,44,0,400,45,0,400,46,0,400,59,0,400,60,0,400,61,0,400,62,0,400*4A
$PAIRDGP,8,2,4,7,8,9,16,21,27*7C
$GNGGA,032702.100,2500.7903401,N,12132.4755398,E,4,56,0.54,16.698,M,15.25,M,1,3335*49
$GNRMC,032702.100,A,2500.7903401,N,12132.4755398,E,0.07,222.47,090324,,,R,V*1B
$GPHDT,,T*1B
$GNACCURACY,5.4*17
$GNGGA,032702.200,2500.7903421,N,12132.4755373,E,4,55,0.55,16.690,M,15.25,M,1,3335*47
$GNRMC,032702.200,A,2500.7903421,N,12132.4755373,E,0.03,222.47,090324,,,R,V*1B
$GPHDT,,T*1B
$GNACCURACY,5.4*17
$GNGGA,032702.300,2500.7903407,N,12132.4755428,E,4,55,0.55,16.691,M,15.25,M,1,3335*4A
$GNRMC,032702.300,A,2500.7903407,N,12132.4755428,E,0.04,222.47,090324,,,R,V*10
$GPHDT,,T*1B
$GNACCURACY,5.4*17
$GNGGA,032702.400,2500.7903443,N,12132.4755339,E,4,55,0.55,16.691,M,15.25,M,1,3335*4A
$GNRMC,032702.400,A,2500.7903443,N,12132.4755339,E,0.02,222.47,090324,,,R,V*16
$GPHDT,,T*1B
$GNACCURACY,5.4*17
$GNGGA,032702.500,2500.7903387,N,12132.4755389,E,4,55,0.55,16.708,M,15.25,M,1,3335*4E
$GNRMC,032702.500,A,2500.7903387,N,12132.4755389,E,0.03,222.47,090324,,,R,V*12
$GPHDT,,T*1B
