$FW : RTK35X,V1.1X0314AS,Lib20210517,1*54
$Tool : LOCOSYS , GNSS Firebird , v1.0.0.19*39
$---------------------------------------------------*2D
$GNACCURACY,6.0*10
$GNGGA,032713.000,2500.7903328,N,12132.4755151,E,4,54,0.50,16.717,M,15.25,M,1,3335*43
$GNRMC,032713.000,A,2500.7903328,N,12132.4755151,E,0.03,82.30,090324,,,R,V*2D
$GPHDT,,T*1B
$GNGSA,A,3,08,194,195,27,21,16,04,09,26,31,196,,0.78,0.50,0.60,1*30
$GNGSA,A,3,88,78,81,77,87,79,,,,,,,0.78,0.50,0.60,2*09
$GNGSA,A,3,21,13,19,27,26,15,,,,,,,0.78,0.50,0.60,3*03
$GNGSA,A,3,06,16,09,43,39,40,07,23,11,25,28,34,0.78,0.50,0.60,4*05
$GPGSV,4,1,15,08,72,304,26,199,64,166,,194,63,046,41,195,58,123,43,1*50
$GPGSV,4,2,15,27,50,027,40,45,47,231,28,21,39,169,42,16,35,055,42,1*69
$GPGSV,4,3,15,04,32,216,32,09,31,267,20,02,28,181,16,07,25,320,18,1*63
$GPGSV,4,4,15,196,21,173,16,26,17,083,31,31,15,137,20,1*65
$GPGSV,2,1,07,08,72,304,27,194,63,046,44,195,58,123,44,27,50,027,46,8*6A
$GPGSV,2,2,07,09,31,267,18,196,21,173,36,26,17,083,32,8*6E
$GLGSV,2,1,06,88,72,076,42,78,46,005,32,81,40,189,39,77,32,086,27,1*7B
$GLGSV,2,2,06,87,21,030,16,79,12,319,16,1*77
$GAGSV,2,1,07,21,51,348,26,13,50,109,39,19,36,258,15,27,34,062,38,7*75
$GAGSV,2,2,07,26,27,175,32,15,23,049,34,04,09,313,,7*44
$GAGSV,2,1,05,21,51,348,30,13,50,109,42,27,34,062,33,26,27,175,31,1*77
$GAGSV,2,2,05,15,23,049,30,1*4B
$GBGSV,4,1,15,06,82,226,34,16,79,190,40,09,75,301,34,43,74,062,44,1*71
$GBGSV,4,2,15,39,68,176,43,40,66,315,35,07,63,294,18,23,61,356,39,1*7A
$GBGSV,4,3,15,10,52,276,14,11,49,046,44,25,47,096,46,28,39,208,29,1*72
$GBGSV,4,4,15,34,26,041,35,57,,,27,58,,,26,1*4C
$GBGSV,2,1,07,43,74,062,37,39,68,176,45,40,66,315,34,23,61,356,32,4*75
$GBGSV,2,2,07,25,47,096,45,28,39,208,34,34,26,041,33,4*45
$GNACCURACY,6.0*10
$PAIRSAT,1,35,2,0,201,3,0,200,4,0,221,5,0,200,6,0,200,7,0,201,8,0,221,9,0,221,10,0,200,11,0,200,12,0,200,13,0,200,14,0,200,15,0,200,16,0,201,17,0,200,18,0,200,19,0,200,20,0,200,21,0,201,22,0,200,23,0,200,24,0,200,25,0,200,26,0,221,27,0,221,28,0,200,29,0,200,30,0,200,31,0,201,32,0,200,194,0,621,195,0,621,196,0,620,199,0,600*5B
$PAIRSAT,2,23,65,0,200,66,0,200,67,0,200,68,0,200,70,0,200,71,0,200,72,0,200,73,0,200,74,0,200,75,0,200,76,0,200,77,0,201,78,0,201,79,0,201,80,0,200,81,0,201,82,0,200,83,0,200,84,0,200,85,0,200,86,0,200,87,0,201,88,0,201*5C
$PAIRSAT,3,23,2,0,1200,3,0,1200,4,0,1200,5,0,200,7,0,1200,8,0,1200,9,0,1200,10,0,1200,11,0,1200,12,0,1200,13,0,1221,15,0,1221,19,0,1221,21,0,1221,24,0,1200,25,0,1200,26,0,1221,27,0,1221,30,0,1200,31,0,1200,33,0,1200,34,0,1200,36,0,1200*6A
$PAIRSAT,4,46,1,0,200,2,0,200,3,0,600,4,0,200,5,0,200,6,0,201,7,0,201,8,0,200,9,0,201,10,0,201,11,0,201,12,0,200,13,0,200,14,0,200,16,0,201,19,0,600,20,0,600,21,0,600,22,0,600,23,0,621,24,0,600,25,0,621,26,0,600,27,0,600,28,0,621,29,0,600,30,0,600,32,0,600,33,0,600,34,0,621,35,0,600,36,0,600,37,0,600,38,0,600,39,0,621,40,0,421,41,0,600,42,0,600,43,0,621,44,0,400,45,0,400,46,0,400,59,0,400,60,0,400,61,0,400,62,0,400*4A
$PAIRDGP,8,2,4,7,8,9,16,21,27*7C
$GNGGA,032713.100,2500.7903310,N,12132.4755177,E,4,53,0.50,16.695,M,15.25,M,1,3335*41
$GNRMC,032713.100,A,2500.7903310,N,12132.4755177,E,0.05,82.30,090324,,,R,V*25
$GPHDT,,T*1B
$GNACCURACY,6.0*10
$GNGGA,032713.200,2500.7903325,N,12132.4755194,E,4,53,0.50,16.699,M,15.25,M,1,3335*45
$GNRMC,032713.200,A,2500.7903325,N,12132.4755194,E,0.17,82.30,090324,,,R,V*2E
$GPHDT,,T*1B
$GNACCURACY,6.1*11
$GNGGA,032713.300,2500.7903336,N,12132.4755203,E,4,54,0.50,16.703,M,15.25,M,1,3335*4E
$GNRMC,032713.300,A,2500.7903336,N,12132.4755203,E,0.08,82.30,090324,,,R,V*2E
$GPHDT,,T*1B
$GNACCURACY,6.1*11
$GNGGA,032713.400,2500.7903311,N,12132.4755273,E,4,54,0.50,16.719,M,15.25,M,1,3335*40
$GNRMC,032713.400,A,2500.7903311,N,12132.4755273,E,0.05,82.30,090324,,,R,V*26
$GPHDT,,T*1B
$GNACCURACY,6.1*11
$GNGGA,032713.500,2500.7903328,N,12132.4755254,E,4,54,0.50,16.714,M,15.25,M,1,3335*43
$GNRMC,032713.500,A,2500.7903328,N,12132.4755254,E,0.06,82.30,090324,,,R,V*2B
$GPHDT,,T*1B
$GNACCURACY,6.1*11
$GNGGA,032713.600,2500.7903325,N,12132.4755216,E,4,53,0.50,16.710,M,15.25,M,1,3335*48
$GNRMC,032713.600,A,2500.7903325,N,12132.4755216,E,0.14,82.30,090324,,,R,V*20
$GPHDT,,T*1B
$GNACCURACY,6.1*11
$GNGGA,032713.700,2500.7903316,N,12132.4755220,E,4,54,0.48,16.710,M,15.25,M,0,3335*43
$GNRMC,032713.700,A,2500.7903316,N,12132.4755220,E,0.12,82.30,090324,,,R,V*22
$GPHDT,,T*1B
$GNACCURACY,6.1*11
$GNGGA,032713.800,2500.7903333,N,12132.4755250,E,4,54,0.48,16.716,M,15.25,M,0,3335*4A
$GNRMC,032713.800,A,2500.7903333,N,12132.4755250,E,0.23,82.30,090324,,,R,V*2F
$GPHDT,,T*1B
$GNACCURACY,6.1*11
$GNGGA,032713.900,2500.7903328,N,12132.4755162,E,4,54,0.48,16.701,M,15.25,M,0,3335*45
$GNRMC,032713.900,A,2500.7903328,N,12132.4755162,E,0.24,82.30,090324,,,R,V*21
$GPHDT,,T*1B
$GNACCURACY,6.1*11
$GNGGA,032714.000,2500.7903316,N,12132.4755241,E,4,54,0.48,16.709,M,15.25,M,1,3335*4D
$GNRMC,032714.000,A,2500.7903316,N,12132.4755241,E,0.19,82.30,090324,,,R,V*2E
$GPHDT,,T*1B
$GNGSA,A,3,08,194,195,27,21,16,04,09,07,26,31,196,0.76,0.48,0.59,1*3A
$GNGSA,A,3,88,78,81,77,87,79,,,,,,,0.76,0.48,0.59,2*04
$GNGSA,A,3,21,13,19,27,26,15,,,,,,,0.76,0.48,0.59,3*0E
$GNGSA,A,3,06,16,09,43,39,40,07,23,11,25,28,34,0.76,0.48,0.59,4*08
$GPGSV,4,1,15,08,72,304,26,199,64,166,,194,63,046,41,195,58,123,43,1*50
$GPGSV,4,2,15,27,50,027,40,45,47,231,29,21,39,169,42,16,35,055,42,1*68
$GPGSV,4,3,15,04,32,216,32,09,31,267,18,02,28,181,16,07,25,320,20,1*63
$GPGSV,4,4,15,196,21,173,14,26,17,083,31,31,15,137,19,1*6D
$GPGSV,2,1,07,08,72,304,28,194,63,046,44,195,58,123,44,27,50,027,46,8*65
$GPGSV,2,2,07,09,31,267,18,196,21,173,36,26,17,083,33,8*6F
$GLGSV,2,1,07,88,72,076,42,78,46,005,32,81,40,189,39,77,32,086,27,1*7A
$GLGSV,2,2,07,87,21,030,16,79,12,319,17,67,02,209,,1*4F
$GAGSV,2,1,07,21,51,348,28,13,50,109,39,19,36,258,15,27,34,062,38,7*7B
$GAGSV,2,2,07,26,27,175,32,15,23,049,35,04,09,313,,7*45
$GAGSV,2,1,05,21,51,348,30,13,50,109,42,27,34,062,33,26,27,175,31,1*77
$GAGSV,2,2,05,15,23,049,30,1*4B
$GBGSV,4,1,15,06,82,226,34,16,79,190,40,09,75,301,34,43,74,062,44,1*71
$GBGSV,4,2,15,39,68,176,43,40,66,315,35,07,63,294,19,23,61,356,39,1*7B
$GBGSV,4,3,15,10,52,276,13,11,49,046,44,25,47,096,46,28,39,208,29,1*75
$GBGSV,4,4,15,34,26,041,34,57,,,26,58,,,25,1*4F
$GBGSV,2,1,07,43,74,062,37,39,68,176,45,40,66,315,34,23,61,356,32,4*75
$GBGSV,2,2,07,25,47,096,45,28,39,208,34,34,26,041,33,4*45
$GNACCURACY,6.2*12
$PAIRSAT,1,35,2,0,201,3,0,200,4,0,221,5,0,200,6,0,200,7,0,201,8,0,221,9,0,221,10,0,200,11,0,200,12,0,200,13,0,200,14,0,200,15,0,200,16,0,201,17,0,200,18,0,200,19,0,200,20,0,200,21,0,201,22,0,200,23,0,200,24,0,200,25,0,200,26,0,221,27,0,221,28,0,200,29,0,200,30,0,200,31,0,201,32,0,200,194,0,621,195,0,621,196,0,620,199,0,600*5B
$PAIRSAT,2,23,65,0,200,66,0,200,67,0,200,68,0,200,70,0,200,71,0,200,72,0,200,73,0,200,74,0,200,75,0,200,76,0,200,77,0,201,78,0,201,79,0,201,80,0,200,81,0,201,82,0,200,83,0,200,84,0,200,85,0,200,86,0,200,87,0,201,88,0,201*5C
$PAIRSAT,3,23,2,0,1200,3,0,1200,4,0,1200,5,0,200,7,0,1200,8,0,1200,9,0,1200,10,0,1200,11,0,1200,12,0,1200,13,0,1221,15,0,1221,19,0,1221,21,0,1221,24,0,1200,25,0,1200,26,0,1221,27,0,1221,30,0,1200,31,0,1200,33,0,1200,34,0,1200,36,0,1200*6A
$PAIRSAT,4,46,1,0,200,2,0,200,3,0,600,4,0,200,5,0,200,6,0,201,7,0,201,8,0,200,9,0,201,10,0,201,11,0,201,12,0,200,13,0,200,14,0,200,16,0,201,19,0,600,20,0,600,21,0,600,22,0,600,23,0,621,24,0,600,25,0,621,26,0,600,27,0,600,28,0,621,29,0,600,30,0,600,32,0,600,33,0,600,34,0,621,35,0,600,36,0,600,37,0,600,38,0,600,39,0,621,40,0,421,41,0,600,42,0,600,43,0,621,44,0,400,45,0,400,46,0,400,59,0,400,60,0,400,61,0,400,62,0,400*4A
$PAIRDGP,8,2,4,7,8,9,16,21,27*7C
$GNGGA,032714.100,2500.7903335,N,12132.4755210,E,4,54,0.48,16.708,M,15.25,M,1,3335*48
$GNRMC,032714.100,A,2500.7903335,N,12132.4755210,E,0.12,82.30,090324,,,R,V*21
$GPHDT,,T*1B
$GNACCURACY,6.2*12
$GNGGA,032714.200,2500.7903331,N,12132.4755179,E,4,54,0.48,16.714,M,15.25,M,1,3335*4E
$GNRMC,032714.200,A,2500.7903331,N,12132.4755179,E,0.01,82.30,090324,,,R,V*28
$GPHDT,,T*1B
$GNACCURACY,6.2*12
$GNGGA,032714.300,2500.7903329,N,12132.4755218,E,4,53,0.48,16.710,M,15.25,M,1,3335*41
$GNRMC,032714.300,A,2500.7903329,N,12132.4755218,E,0.07,82.30,090324,,,R,V*22
$GPHDT,,T*1B
$GNACCURACY,6.2*12
$GNGGA,032714.400,2500.7903313,N,12132.4755255,E,4,53,0.48,16.710,M,15.25,M,1,3335*46
$GNRMC,032714.400,A,2500.7903313,N,12132.4755255,E,0.06,82.30,090324,,,R,V*24
$GPHDT,,T*1B
$GNACCURACY,6.2*12
$GNGGA,032714.500,2500.7903332,N,12132.4755242,E,4,53,0.48,16.713,M,15.25,M,0,3335*40
$GNRMC,032714.500,A,2500.7903332,N,12132.4755242,E,0.05,82.30,090324,,,R,V*23
$GPHDT,,T*1B
$GNACCURACY,6.2*12
$GNGGA,032714.600,2500.7903325,N,12132.4755254,E,4,53,0.48,16.702,M,15.25,M,0,3335*42
$GNRMC,032714.600,A,2500.7903325,N,12132.4755254,E,0.07,82.30,090324,,,R,V*23
$GPHDT,,T*1B
$GNACCURACY,6.1*11
$GNGGA,032714.700,2500.7903308,N,12132.4755324,E,4,53,0.48,16.716,M,15.25,M,0,3335*4F
$GNRMC,032714.700,A,2500.7903308,N,12132.4755324,E,0.18,82.30,090324,,,R,V*25
$GPHDT,,T*1B
$GNACCURACY,6.0*10
$GNGGA,032714.800,2500.7903341,N,12132.4755168,E,4,53,0.48,16.703,M,15.25,M,0,3335*43
$GNRMC,032714.800,A,2500.7903341,N,12132.4755168,E,0.11,82.30,090324,,,R,V*24
$GPHDT,,T*1B
$GNACCURACY,6.0*10
$GNGGA,032714.900,2500.7903346,N,12132.4755141,E,4,53,0.48,16.698,M,15.25,M,0,3335*4D
$GNRMC,032714.900,A,2500.7903346,N,12132.4755141,E,0.13,82.30,090324,,,R,V*2B
$GPHDT,,T*1B
$GNACCURACY,6.0*10
$GNGGA,032715.000,2500.7903338,N,12132.4755176,E,4,53,0.48,16.710,M,15.25,M,1,3335*48
$GNRMC,032715.000,A,2500.7903338,N,12132.4755176,E,0.07,82.30,090324,,,R,V*2B
$GPHDT,,T*1B
$GNGSA,A,3,08,194,195,27,21,16,04,09,07,26,31,196,0.76,0.48,0.59,1*3A
$GNGSA,A,3,88,78,81,77,87,79,,,,,,,0.76,0.48,0.59,2*04
$GNGSA,A,3,21,13,19,27,26,15,,,,,,,0.76,0.48,0.59,3*0E
$GNGSA,A,3,06,16,09,43,39,40,07,23,11,25,28,34,0.76,0.48,0.59,4*08
$GPGSV,4,1,15,08,72,304,24,199,64,166,,194,63,046,41,195,58,123,43,1*52
$GPGSV,4,2,15,27,50,027,40,45,47,231,29,21,39,169,42,16,35,055,42,1*68
$GPGSV,4,3,15,04,32,216,32,09,31,267,18,02,28,181,16,07,25,320,21,1*62
$GPGSV,4,4,15,196,21,173,17,26,17,083,31,31,15,137,19,1*6E
$GPGSV,2,1,06,08,72,304,28,194,63,046,44,195,58,123,44,27,50,027,46,8*64
$GPGSV,2,2,06,196,21,173,36,26,17,083,32,8*5E
$GLGSV,2,1,07,88,72,076,42,78,46,005,30,81,40,189,39,77,32,086,28,1*77
$GLGSV,2,2,07,87,21,030,18,79,12,319,17,67,02,209,,1*41
$GAGSV,2,1,07,21,51,348,28,13,50,109,39,19,36,258,15,27,34,062,38,7*7B
$GAGSV,2,2,07,26,27,175,33,15,23,049,35,04,09,313,,7*44
$GAGSV,2,1,05,21,51,348,29,13,50,109,42,27,34,062,33,26,27,175,34,1*7A
$GAGSV,2,2,05,15,23,049,29,1*43
$GBGSV,4,1,15,06,82,226,33,16,79,190,40,09,75,301,34,43,74,062,44,1*76
$GBGSV,4,2,15,39,68,176,42,40,66,315,35,07,63,294,18,23,61,356,39,1*7B
$GBGSV,4,3,15,10,52,276,12,11,49,046,44,25,47,096,46,28,39,208,33,1*7F
$GBGSV,4,4,15,34,26,041,34,57,,,25,58,,,28,1*41
$GBGSV,2,1,07,43,74,062,37,39,68,176,45,40,66,315,34,23,61,356,31,4*76
$GBGSV,2,2,07,25,47,096,45,28,39,208,34,34,26,041,32,4*44
$GNACCURACY,5.9*1A
$PAIRSAT,1,35,2,0,201,3,0,200,4,0,221,5,0,200,6,0,200,7,0,201,8,0,221,9,0,221,10,0,200,11,0,200,12,0,200,13,0,200,14,0,200,15,0,200,16,0,201,17,0,200,18,0,200,19,0,200,20,0,200,21,0,201,22,0,200,23,0,200,24,0,200,25,0,200,26,0,221,27,0,221,28,0,200,29,0,200,30,0,200,31,0,201,32,0,200,194,0,621,195,0,621,196,0,620,199,0,600*5B
$PAIRSAT,2,23,65,0,200,66,0,200,67,0,200,68,0,200,70,0,200,71,0,200,72,0,200,73,0,200,74,0,200,75,0,200,76,0,200,77,0,201,78,0,201,79,0,201,80,0,200,81,0,201,82,0,200,83,0,200,84,0,200,85,0,200,86,0,200,87,0,201,88,0,201*5C
$PAIRSAT,3,23,2,0,1200,3,0,1200,4,0,1200,5,0,200,7,0,1200,8,0,1200,9,0,1200,10,0,1200,11,0,1200,12,0,1200,13,0,1221,15,0,1221,19,0,1221,21,0,1221,24,0,1200,25,0,1200,26,0,1221,27,0,1221,30,0,1200,31,0,1200,33,0,1200,34,0,1200,36,0,1200*6A
$PAIRSAT,4,46,1,0,200,2,0,200,3,0,600,4,0,200,5,0,200,6,0,201,7,0,201,8,0,200,9,0,201,10,0,201,11,0,201,12,0,200,13,0,200,14,0,200,16,0,201,19,0,600,20,0,600,21,0,600,22,0,600,23,0,621,24,0,600,25,0,621,26,0,600,27,0,600,28,0,621,29,0,600,30,0,600,32,0,600,33,0,600,34,0,621,35,0,600,36,0,600,37,0,600,38,0,600,39,0,621,40,0,421,41,0,600,42,0,600,43,0,621,44,0,400,45,0,400,46,0,400,59,0,400,60,0,400,61,0,400,62,0,400*4A
$PAIRDGP,8,2,4,7,8,9,16,21,27*7C
$GNGGA,032715.100,2500.7903353,N,12132.4755156,E,4,53,0.48,16.701,M,15.25,M,1,3335*46
$GNRMC,032715.100,A,2500.7903353,N,12132.4755156,E,0.23,82.30,090324,,,R,V*23
$GPHDT,,T*1B
$GNACCURACY,5.9*1A
$GNGGA,032715.200,2500.7903345,N,12132.4755154,E,4,53,0.48,16.706,M,15.25,M,1,3335*47
$GNRMC,032715.200,A,2500.7903345,N,12132.4755154,E,0.03,82.30,090324,,,R,V*27
$GPHDT,,T*1B
$GNACCURACY,5.9*1A
$GNGGA,032715.300,2500.7903357,N,12132.4755124,E,4,54,0.47,16.702,M,15.25,M,1,3335*4E
$GNRMC,032715.300,A,2500.7903357,N,12132.4755124,E,0.04,82.30,090324,,,R,V*25
$GPHDT,,T*1B
$GNACCURACY,5.9*1A
$GNGGA,032715.400,2500.7903360,N,12132.4755187,E,4,54,0.47,16.714,M,15.25,M,1,3335*43
$GNRMC,032715.400,A,2500.7903360,N,12132.4755187,E,0.03,82.30,090324,,,R,V*28
$GPHDT,,T*1B
$GNACCURACY,5.8*1B
$GNGGA,032715.500,2500.7903379,N,12132.4755144,E,4,55,0.47,16.718,M,15.25,M,1,3335*48
$GNRMC,032715.500,A,2500.7903379,N,12132.4755144,E,0.07,82.30,090324,,,R,V*2A
$GPHDT,,T*1B
$GNACCURACY,5.8*1B
$GNGGA,032715.600,2500.7903345,N,12132.4755180,E,4,55,0.47,16.706,M,15.25,M,0,3335*42
$GNRMC,032715.600,A,2500.7903345,N,12132.4755180,E,0.17,82.30,090324,,,R,V*2F
$GPHDT,,T*1B
$GNACCURACY,5.8*1B
$GNGGA,032715.700,2500.7903361,N,12132.4755141,E,4,55,0.47,16.696,M,15.25,M,0,3335*40
$GNRMC,032715.700,A,2500.7903361,N,12132.4755141,E,0.09,82.30,090324,,,R,V*2A
$GPHDT,,T*1B
$GNACCURACY,5.8*1B
$GNGGA,032715.800,2500.7903361,N,12132.4755163,E,4,55,0.47,16.695,M,15.25,M,0,3335*4C
$GNRMC,032715.800,A,2500.7903361,N,12132.4755163,E,0.06,82.30,090324,,,R,V*2A
$GPHDT,,T*1B
$GNACCURACY,5.8*1B
$GNGGA,032715.900,2500.7903350,N,12132.4755172,E,4,54,0.48,16.702,M,15.25,M,0,3335*4E
$GNRMC,032715.900,A,2500.7903350,N,12132.4755172,E,0.21,82.30,090324,,,R,V*2C
$GPHDT,,T*1B
$GNACCURACY,5.8*1B
$GNGGA,032716.000,2500.7903383,N,12132.4755229,E,4,56,0.47,16.720,M,15.25,M,1,3335*4B
$GNRMC,032716.000,A,2500.7903383,N,12132.4755229,E,0.10,82.30,090324,,,R,V*27
$GPHDT,,T*1B
$GNGSA,A,3,08,194,195,27,21,16,04,09,02,07,196,26,0.76,0.47,0.59,1*35
$GNGSA,A,3,31,,,,,,,,,,,,0.76,0.47,0.59,1*0D
$GNGSA,A,3,88,78,81,77,87,79,,,,,,,0.76,0.47,0.59,2*0B
$GNGSA,A,3,21,13,19,27,26,15,,,,,,,0.76,0.47,0.59,3*01
$GNGSA,A,3,06,16,09,43,39,40,07,23,11,25,28,34,0.76,0.47,0.59,4*07
$GPGSV,4,1,15,08,72,304,20,199,64,166,,194,63,046,41,195,58,123,43,1*56
$GPGSV,4,2,15,27,50,027,40,45,47,231,32,21,39,169,42,16,35,055,42,1*62
$GPGSV,4,3,15,04,32,216,33,09,31,267,21,02,28,181,20,07,25,320,20,1*6D
$GPGSV,4,4,15,196,21,173,24,26,17,083,32,31,15,137,19,1*6D
$GPGSV,2,1,07,08,72,304,28,194,63,046,44,195,58,123,45,27,50,027,46,8*64
$GPGSV,2,2,07,04,32,216,28,196,21,173,36,26,17,083,33,8*64
$GLGSV,2,1,06,88,72,076,42,78,46,005,28,81,40,189,36,77,32,086,29,1*71
$GLGSV,2,2,06,87,21,030,18,79,12,319,17,1*78
$GAGSV,2,1,07,21,51,348,28,13,50,109,39,19,36,258,14,27,34,062,38,7*7A
$GAGSV,2,2,07,26,27,175,34,15,23,049,36,04,09,313,,7*40
$GAGSV,2,1,05,21,51,348,29,13,50,109,43,27,34,062,33,26,27,175,37,1*78
$GAGSV,2,2,05,15,23,049,29,1*43
$GBGSV,4,1,15,06,82,226,31,16,79,190,39,09,75,301,33,43,74,062,44,1*7D
$GBGSV,4,2,15,39,68,176,42,40,66,315,36,07,63,294,19,23,61,356,39,1*79
$GBGSV,4,3,15,10,52,276,14,11,49,046,44,25,47,096,46,28,39,208,34,1*7E
$GBGSV,4,4,15,34,26,041,34,57,,,27,58,,,27,1*4C
$GBGSV,2,1,07,43,74,062,39,39,68,176,45,40,66,315,34,23,61,356,32,4*7B
$GBGSV,2,2,07,25,47,096,45,28,39,208,36,34,26,041,35,4*41
$GNACCURACY,5.8*1B
$PAIRSAT,1,35,2,0,201,3,0,200,4,0,221,5,0,200,6,0,200,7,0,201,8,0,221,9,0,221,10,0,200,11,0,200,12,0,200,13,0,200,14,0,200,15,0,200,16,0,201,17,0,200,18,0,200,19,0,200,20,0,200,21,0,201,22,0,200,23,0,200,24,0,200,25,0,200,26,0,221,27,0,221,28,0,200,29,0,200,30,0,200,31,0,201,32,0,200,194,0,621,195,0,621,196,0,620,199,0,600*5B
$PAIRSAT,2,23,65,0,200,66,0,200,67,0,200,68,0,200,70,0,200,71,0,200,72,0,200,73,0,200,74,0,200,75,0,200,76,0,200,77,0,201,78,0,201,79,0,201,80,0,200,81,0,201,82,0,200,83,0,200,84,0,200,85,0,200,86,0,200,87,0,201,88,0,201*5C
$PAIRSAT,3,23,2,0,1200,3,0,1200,4,0,1200,5,0,200,7,0,1200,8,0,1200,9,0,1200,10,0,1200,11,0,1200,12,0,1200,13,0,1221,15,0,1221,19,0,1221,21,0,1221,24,0,1200,25,0,1200,26,0,1221,27,0,1221,30,0,1200,31,0,1200,33,0,1200,34,0,1200,36,0,1200*6A
$PAIRSAT,4,46,1,0,200,2,0,200,3,0,600,4,0,200,5,0,200,6,0,201,7,0,201,8,0,200,9,0,201,10,0,201,11,0,201,12,0,200,13,0,200,14,0,200,16,0,201,19,0,600,20,0,600,21,0,600,22,0,600,23,0,621,24,0,600,25,0,621,26,0,600,27,0,600,28,0,621,29,0,600,30,0,600,32,0,600,33,0,600,34,0,621,35,0,600,36,0,600,37,0,600,38,0,600,39,0,621,40,0,421,41,0,600,42,0,600,43,0,621,44,0,400,45,0,400,46,0,400,59,0,400,60,0,400,61,0,400,62,0,400*4A
$PAIRDGP,8,2,4,7,8,9,16,21,27*7C
$GNGGA,032716.100,2500.7903374,N,12132.4755220,E,4,56,0.47,16.719,M,15.25,M,1,3335*41
$GNRMC,032716.100,A,2500.7903374,N,12132.4755220,E,0.02,82.30,090324,,,R,V*24
$GPHDT,,T*1B
$GNACCURACY,5.8*1B
$GNGGA,032716.200,2500.7903386,N,12132.4755207,E,4,56,0.47,16.733,M,15.25,M,1,3335*42
$GNRMC,032716.200,A,2500.7903386,N,12132.4755207,E,0.04,82.30,090324,,,R,V*29
$GPHDT,,T*1B
$GNACCURACY,5.8*1B
$GNGGA,032716.300,2500.7903366,N,12132.4755161,E,4,56,0.47,16.736,M,15.25,M,1,3335*4B
$GNRMC,032716.300,A,2500.7903366,N,12132.4755161,E,0.08,82.30,090324,,,R,V*29
$GPHDT,,T*1B
$GNACCURACY,5.8*1B
$GNGGA,032716.400,2500.7903373,N,12132.4755206,E,4,56,0.47,16.739,M,15.25,M,1,3335*45
$GNRMC,032716.400,A,2500.7903373,N,12132.4755206,E,0.05,82.30,090324,,,R,V*25
$GPHDT,,T*1B
$GNACCURACY,5.8*1B
$GNGGA,032716.500,2500.7903397,N,12132.4755194,E,4,56,0.47,16.745,M,15.25,M,1,3335*4D
$GNRMC,032716.500,A,2500.7903397,N,12132.4755194,E,0.13,82.30,090324,,,R,V*21
$GPHDT,,T*1B
$GNACCURACY,5.8*1B
$GNGGA,032716.600,2500.7903347,N,12132.4755076,E,4,56,0.47,16.715,M,15.25,M,1,3335*4B
$GNRMC,032716.600,A,2500.7903347,N,12132.4755076,E,0.10,82.30,090324,,,R,V*21
$GPHDT,,T*1B
$GNACCURACY,5.8*1B
$GNGGA,032716.700,2500.7903399,N,12132.4755216,E,4,56,0.47,16.743,M,15.25,M,1,3335*4E
$GNRMC,032716.700,A,2500.7903399,N,12132.4755216,E,0.11,82.30,090324,,,R,V*26
$GPHDT,,T*1B
$GNACCURACY,5.9*1A
$GNGGA,032716.800,2500.7903356,N,12132.4755174,E,4,56,0.47,16.715,M,15.25,M,0,3335*47
$GNRMC,032716.800,A,2500.7903356,N,12132.4755174,E,0.10,82.30,090324,,,R,V*2C
$GPHDT,,T*1B
$GNACCURACY,5.9*1A
$GNGGA,032716.900,2500.7903330,N,12132.4755061,E,4,56,0.47,16.697,M,15.25,M,0,3335*48
$GNRMC,032716.900,A,2500.7903330,N,12132.4755061,E,0.19,82.30,090324,,,R,V*21
$GPHDT,,T*1B
$GNACCURACY,5.9*1A
$GNGGA,032717.000,2500.7903360,N,12132.4755166,E,4,56,0.47,16.719,M,15.25,M,1,3335*45
$GNRMC,032717.000,A,2500.7903360,N,12132.4755166,E,0.15,82.30,090324,,,R,V*26
$GPHDT,,T*1B
$GNGSA,A,3,08,194,195,27,21,16,04,09,02,07,196,26,0.76,0.47,0.59,1*35
$GNGSA,A,3,31,,,,,,,,,,,,0.76,0.47,0.59,1*0D
$GNGSA,A,3,88,78,81,77,87,79,,,,,,,0.76,0.47,0.59,2*0B
$GNGSA,A,3,21,13,19,27,26,15,,,,,,,0.76,0.47,0.59,3*01
$GNGSA,A,3,06,16,09,43,39,40,07,23,11,25,28,34,0.76,0.47,0.59,4*07
$GPGSV,4,1,15,08,72,304,20,199,64,166,,194,63,046,41,195,58,123,43,1*56
$GPGSV,4,2,15,27,50,027,40,45,47,231,32,21,39,169,42,16,35,055,41,1*61
$GPGSV,4,3,15,04,32,216,33,09,31,267,20,02,28,181,24,07,25,320,19,1*62
$GPGSV,4,4,15,196,21,173,24,26,17,083,31,31,15,137,19,1*6E
$GPGSV,2,1,07,08,72,304,28,194,63,046,44,195,58,123,45,27,50,027,46,8*64
$GPGSV,2,2,07,04,32,216,27,196,21,173,36,26,17,083,33,8*6B
$GLGSV,2,1,06,88,72,076,42,78,46,005,29,81,40,189,36,77,32,086,28,1*71
$GLGSV,2,2,06,87,21,030,17,79,12,319,18,1*78
$GAGSV,2,1,07,21,51,348,28,13,50,109,38,19,36,258,14,27,34,062,38,7*7B
$GAGSV,2,2,07,26,27,175,34,15,23,049,36,04,09,313,,7*40
$GAGSV,2,1,05,21,51,348,29,13,50,109,43,27,34,062,35,26,27,175,37,1*7E
$GAGSV,2,2,05,15,23,049,29,1*43
$GBGSV,4,1,15,06,82,226,30,16,79,190,39,09,75,301,33,43,74,062,44,1*7C
$GBGSV,4,2,15,39,68,176,42,40,66,315,36,07,63,294,19,23,61,356,39,1*79
$GBGSV,4,3,15,10,52,276,15,11,49,046,44,25,47,096,46,28,39,208,34,1*7F
$GBGSV,4,4,15,34,26,041,34,57,,,27,58,,,27,1*4C
$GBGSV,2,1,07,43,74,062,39,39,68,176,45,40,66,315,34,23,61,356,32,4*7B
$GBGSV,2,2,07,25,47,096,45,28,39,208,36,34,26,041,36,4*42
$GNACCURACY,5.9*1A
$PAIRSAT,1,35,2,0,201,3,0,200,4,0,221,5,0,200,6,0,200,7,0,201,8,0,221,9,0,221,10,0,200,11,0,200,12,0,200,13,0,200,14,0,200,15,0,200,16,0,201,17,0,200,18,0,200,19,0,200,20,0,200,21,0,201,22,0,200,23,0,200,24,0,200,25,0,200,26,0,221,27,0,221,28,0,200,29,0,200,30,0,200,31,0,201,32,0,200,194,0,621,195,0,621,196,0,620,199,0,600*5B
$PAIRSAT,2,23,65,0,200,66,0,200,67,0,200,68,0,200,70,0,200,71,0,200,72,0,200,73,0,200,74,0,200,75,0,200,76,0,200,77,0,201,78,0,201,79,0,201,80,0,200,81,0,201,82,0,200,83,0,200,84,0,200,85,0,200,86,0,200,87,0,201,88,0,201*5C
$PAIRSAT,3,23,2,0,1200,3,0,1200,4,0,1200,5,0,200,7,0,1200,8,0,1200,9,0,1200,10,0,1200,11,0,1200,12,0,1200,13,0,1221,15,0,1221,19,0,1221,21,0,1221,24,0,1200,25,0,1200,26,0,1221,27,0,1221,30,0,1200,31,0,1200,33,0,1200,34,0,1200,36,0,1200*6A
$PAIRSAT,4,46,1,0,200,2,0,200,3,0,600,4,0,200,5,0,200,6,0,201,7,0,201,8,0,200,9,0,201,10,0,201,11,0,201,12,0,200,13,0,200,14,0,200,16,0,201,19,0,600,20,0,600,21,0,600,22,0,600,23,0,621,24,0,600,25,0,621,26,0,600,27,0,600,28,0,621,29,0,600,30,0,600,32,0,600,33,0,600,34,0,621,35,0,600,36,0,600,37,0,600,38,0,600,39,0,621,40,0,421,41,0,600,42,0,600,43,0,621,44,0,400,45,0,400,46,0,400,59,0,400,60,0,400,61,0,400,62,0,400*4A
$PAIRDGP,8,2,4,7,8,9,16,21,27*7C
$GNGGA,032717.100,2500.7903372,N,12132.4755196,E,4,56,0.47,16.717,M,15.25,M,1,3335*46
$GNRMC,032717.100,A,2500.7903372,N,12132.4755196,E,0.06,82.30,090324,,,R,V*29
$GPHDT,,T*1B
$GNACCURACY,5.9*1A
$GNGGA,032717.200,2500.7903386,N,12132.4755192,E,4,55,0.50,16.716,M,15.25,M,1,3335*4E
$GNRMC,032717.200,A,2500.7903386,N,12132.4755192,E,0.06,82.30,090324,,,R,V*25
$GPHDT,,T*1B
$GNACCURACY,5.9*1A
$GNGGA,032717.300,2500.7903380,N,12132.4755202,E,4,55,0.50,16.714,M,15.25,M,1,3335*41
$GNRMC,032717.300,A,2500.7903380,N,12132.4755202,E,0.04,82.30,090324,,,R,V*2A
$GPHDT,,T*1B
$GNACCURACY,5.9*1A
$GNGGA,032717.400,2500.7903361,N,12132.4755217,E,4,56,0.50,16.713,M,15.25,M,1,3335*49
$GNRMC,032717.400,A,2500.7903361,N,12132.4755217,E,0.08,82.30,090324,,,R,V*2A
$GPHDT,,T*1B
$GNACCURACY,6.2*12
$GNGGA,032717.500,2500.7903331,N,12132.4755211,E,4,57,0.47,16.727,M,15.25,M,0,3335*4A
$GNRMC,032717.500,A,2500.7903331,N,12132.4755211,E,0.10,82.30,090324,,,R,V*21
$GPHDT,,T*1B
$GNACCURACY,6.2*12
$GNGGA,032717.600,2500.7903318,N,12132.4755117,E,4,57,0.47,16.693,M,15.25,M,0,3335*49
$GNRMC,032717.600,A,2500.7903318,N,12132.4755117,E,0.12,82.30,090324,,,R,V*2E
$GPHDT,,T*1B
$GNACCURACY,6.2*12
$GNGGA,032717.700,2500.7903294,N,12132.4755159,E,4,57,0.47,16.708,M,15.25,M,0,3335*44
$GNRMC,032717.700,A,2500.7903294,N,12132.4755159,E,0.14,82.30,090324,,,R,V*26
$GPHDT,,T*1B
$GNACCURACY,6.2*12
$GNGGA,032717.800,2500.7903295,N,12132.4755074,E,4,57,0.47,16.700,M,15.25,M,0,3335*4C
$GNRMC,032717.800,A,2500.7903295,N,12132.4755074,E,0.14,82.30,090324,,,R,V*26
$GPHDT,,T*1B
$GNACCURACY,6.3*13
$GNGGA,032717.900,2500.7903300,N,12132.4755104,E,4,57,0.47,16.715,M,15.25,M,0,3335*42
$GNRMC,032717.900,A,2500.7903300,N,12132.4755104,E,0.12,82.30,090324,,,R,V*2A
$GPHDT,,T*1B
$GNACCURACY,6.3*13
$GNGGA,032718.000,2500.7903290,N,12132.4755091,E,4,57,0.47,16.713,M,15.25,M,1,3335*46
$GNRMC,032718.000,A,2500.7903290,N,12132.4755091,E,0.13,82.30,090324,,,R,V*28
$GPHDT,,T*1B
$GNGSA,A,3,08,194,195,27,21,16,04,09,02,07,196,26,0.76,0.47,0.59,1*35
$GNGSA,A,3,31,,,,,,,,,,,,0.76,0.47,0.59,1*0D
$GNGSA,A,3,88,78,81,77,87,79,,,,,,,0.76,0.47,0.59,2*0B
$GNGSA,A,3,21,13,19,27,26,15,,,,,,,0.76,0.47,0.59,3*01
$GNGSA,A,3,06,16,09,43,39,40,07,23,11,25,28,34,0.76,0.47,0.59,4*07
$GPGSV,4,1,15,08,72,304,24,199,64,166,,194,63,046,41,195,58,123,43,1*52
$GPGSV,4,2,15,27,50,027,40,45,47,231,31,21,39,169,42,16,35,055,42,1*61
$GPGSV,4,3,15,04,32,216,32,09,31,267,15,02,28,181,19,07,25,320,19,1*6B
$GPGSV,4,4,15,196,21,173,19,26,17,083,32,31,15,137,19,1*63
$GPGSV,2,1,08,08,72,304,28,194,63,046,44,195,58,123,45,27,50,027,46,8*6B
$GPGSV,2,2,08,04,32,216,23,09,31,267,22,196,21,173,36,26,17,083,32,8*59
$GLGSV,2,1,06,88,72,075,43,78,46,005,31,81,40,189,39,77,32,086,28,1*75
$GLGSV,2,2,06,87,21,030,17,79,12,319,18,1*78
$GAGSV,2,1,06,21,51,348,28,13,50,109,38,19,36,258,13,27,34,062,38,7*7D
$GAGSV,2,2,06,26,27,175,34,15,23,049,36,7*7D
$GAGSV,2,1,05,21,51,348,29,13,50,109,43,27,34,062,34,26,27,175,34,1*7C
$GAGSV,2,2,05,15,23,049,30,1*4B
$GBGSV,4,1,15,06,82,226,32,16,79,190,40,09,75,301,33,43,74,062,44,1*70
$GBGSV,4,2,15,39,68,176,41,40,66,315,36,07,63,294,21,23,61,356,39,1*71
$GBGSV,4,3,15,10,52,276,17,11,49,046,44,25,47,096,46,28,39,208,31,1*78
$GBGSV,4,4,15,34,26,041,34,57,,,26,58,,,27,1*4D
$GBGSV,2,1,07,43,74,062,38,39,68,176,45,40,66,315,35,23,61,356,32,4*7B
$GBGSV,2,2,07,25,47,096,45,28,39,208,34,34,26,041,31,4*47
$GNACCURACY,6.3*13
$PAIRSAT,1,35,2,0,201,3,0,200,4,0,221,5,0,200,6,0,200,7,0,201,8,0,221,9,0,221,10,0,200,11,0,200,12,0,200,13,0,200,14,0,200,15,0,200,16,0,201,17,0,200,18,0,200,19,0,200,20,0,200,21,0,201,22,0,200,23,0,200,24,0,200,25,0,200,26,0,221,27,0,221,28,0,200,29,0,200,30,0,200,31,0,201,32,0,200,194,0,621,195,0,621,196,0,620,199,0,600*5B
$PAIRSAT,2,23,65,0,200,66,0,200,67,0,200,68,0,200,70,0,200,71,0,200,72,0,200,73,0,200,74,0,200,75,0,200,76,0,200,77,0,201,78,0,201,79,0,201,80,0,200,81,0,201,82,0,200,83,0,200,84,0,200,85,0,200,86,0,200,87,0,201,88,0,201*5C
$PAIRSAT,3,23,2,0,1200,3,0,1200,4,0,1200,5,0,200,7,0,1200,8,0,1200,9,0,1200,10,0,1200,11,0,1200,12,0,1200,13,0,1221,15,0,1221,19,0,1221,21,0,1221,24,0,1200,25,0,1200,26,0,1221,27,0,1221,30,0,1200,31,0,1200,33,0,1200,34,0,1200,36,0,1200*6A
$PAIRSAT,4,46,1,0,200,2,0,200,3,0,600,4,0,200,5,0,200,6,0,201,7,0,201,8,0,200,9,0,201,10,0,201,11,0,201,12,0,200,13,0,200,14,0,200,16,0,201,19,0,600,20,0,600,21,0,600,22,0,600,23,0,621,24,0,600,25,0,621,26,0,600,27,0,600,28,0,621,29,0,600,30,0,600,32,0,600,33,0,600,34,0,621,35,0,600,36,0,600,37,0,600,38,0,600,39,0,621,40,0,421,41,0,600,42,0,600,43,0,621,44,0,400,45,0,400,46,0,400,59,0,400,60,0,400,61,0,400,62,0,400*4A
$PAIRDGP,8,2,4,7,8,9,16,21,27*7C
$GNGGA,032718.100,2500.7903327,N,12132.4755102,E,4,57,0.47,16.695,M,15.25,M,1,3335*4E
$GNRMC,032718.100,A,2500.7903327,N,12132.4755102,E,0.05,82.30,090324,,,R,V*28
$GPHDT,,T*1B
$GNACCURACY,6.3*13
$GNGGA,032718.200,2500.7903344,N,12132.4755195,E,4,56,0.48,16.714,M,15.25,M,1,3335*40
$GNRMC,032718.200,A,2500.7903344,N,12132.4755195,E,0.02,82.30,090324,,,R,V*27
$GPHDT,,T*1B
$GNACCURACY,6.3*13
$GNGGA,032718.300,2500.7903363,N,12132.4755205,E,4,56,0.48,16.724,M,15.25,M,1,3335*4D
$GNRMC,032718.300,A,2500.7903363,N,12132.4755205,E,0.09,82.30,090324,,,R,V*22
$GPHDT,,T*1B
$GNACCURACY,6.3*13
$GNGGA,032718.400,2500.7903333,N,12132.4755263,E,4,57,0.47,16.734,M,15.25,M,1,3335*40
$GNRMC,032718.400,A,2500.7903333,N,12132.4755263,E,0.11,82.30,090324,,,R,V*29
$GPHDT,,T*1B
$GNACCURACY,6.3*13
$GNGGA,032718.500,2500.7903364,N,12132.4755221,E,4,57,0.47,16.727,M,15.25,M,1,3335*47
$GNRMC,032718.500,A,2500.7903364,N,12132.4755221,E,0.08,82.30,090324,,,R,V*24
$GPHDT,,T*1B
$GNACCURACY,6.2*12
$GNGGA,032718.600,2500.7903368,N,12132.4755214,E,4,57,0.47,16.733,M,15.25,M,1,3335*4B
$GNRMC,032718.600,A,2500.7903368,N,12132.4755214,E,0.14,82.30,090324,,,R,V*20
$GPHDT,,T*1B
$GNACCURACY,6.2*12
$GNGGA,032718.700,2500.7903364,N,12132.4755241,E,4,57,0.47,16.721,M,15.25,M,0,3335*44
$GNRMC,032718.700,A,2500.7903364,N,12132.4755241,E,0.09,82.30,090324,,,R,V*21
$GPHDT,,T*1B
$GNACCURACY,6.0*10
$GNGGA,032718.800,2500.7903374,N,12132.4755253,E,4,57,0.47,16.722,M,15.25,M,0,3335*4A
$GNRMC,032718.800,A,2500.7903374,N,12132.4755253,E,0.10,82.30,090324,,,R,V*24
$GPHDT,,T*1B
$GNACCURACY,6.0*10
$GNGGA,032718.900,2500.7903366,N,12132.4755258,E,4,57,0.47,16.727,M,15.25,M,0,3335*46
$GNRMC,032718.900,A,2500.7903366,N,12132.4755258,E,0.18,82.30,090324,,,R,V*25
$GPHDT,,T*1B
$GNACCURACY,6.0*10
$GNGGA,032719.000,2500.7903342,N,12132.4755323,E,4,57,0.47,16.721,M,15.25,M,1,3335*42
$GNRMC,032719.000,A,2500.7903342,N,12132.4755323,E,0.11,82.30,090324,,,R,V*2F
$GPHDT,,T*1B
$GNGSA,A,3,08,194,195,27,21,16,04,09,02,07,196,26,0.76,0.47,0.59,1*35
$GNGSA,A,3,31,,,,,,,,,,,,0.76,0.47,0.59,1*0D
$GNGSA,A,3,88,78,81,77,87,79,,,,,,,0.76,0.47,0.59,2*0B
$GNGSA,A,3,21,13,19,27,26,15,,,,,,,0.76,0.47,0.59,3*01
$GNGSA,A,3,06,16,09,43,39,40,07,23,11,25,28,34,0.76,0.47,0.59,4*07
$GPGSV,4,1,15,08,72,304,26,199,64,166,,194,63,046,41,195,58,123,43,1*50
$GPGSV,4,2,15,27,50,027,40,45,47,231,30,21,39,169,42,16,35,055,42,1*60
$GPGSV,4,3,15,04,32,216,31,09,31,267,12,02,28,181,20,07,25,320,19,1*65
$GPGSV,4,4,15,196,21,173,15,26,17,083,33,31,15,137,19,1*6E
$GPGSV,2,1,08,08,72,304,28,194,63,046,44,195,58,123,45,27,50,027,46,8*6B
$GPGSV,2,2,08,04,32,216,22,09,31,267,20,196,21,173,36,26,17,083,32,8*5A
$GLGSV,2,1,06,88,72,075,43,78,46,005,32,81,40,189,38,77,32,086,28,1*77
$GLGSV,2,2,06,87,21,030,16,79,12,319,17,1*76
$GAGSV,2,1,06,21,51,348,29,13,50,109,39,19,36,258,14,27,34,062,39,7*7B
$GAGSV,2,2,06,26,27,175,34,15,23,049,36,7*7D
$GAGSV,2,1,05,21,51,348,30,13,50,109,43,27,34,062,35,26,27,175,32,1*73
$GAGSV,2,2,05,15,23,049,29,1*43
$GBGSV,4,1,15,06,82,226,32,16,79,190,41,09,75,301,34,43,74,062,43,1*71
$GBGSV,4,2,15,39,68,176,42,40,66,315,36,07,63,294,23,23,61,356,39,1*70
$GBGSV,4,3,15,10,52,276,17,11,49,045,44,25,47,096,46,28,39,208,31,1*7B
$GBGSV,4,4,15,34,26,041,33,57,,,26,58,,,27,1*4A
$GBGSV,2,1,07,43,74,062,38,39,68,176,45,40,66,315,35,23,61,356,32,4*7B
$GBGSV,2,2,07,25,47,096,46,28,39,208,35,34,26,041,33,4*47
$GNACCURACY,6.0*10
$PAIRSAT,1,35,2,0,201,3,0,200,4,0,221,5,0,200,6,0,200,7,0,201,8,0,221,9,0,221,10,0,200,11,0,200,12,0,200,13,0,200,14,0,200,15,0,200,16,0,201,17,0,200,18,0,200,19,0,200,20,0,200,21,0,201,22,0,200,23,0,200,24,0,200,25,0,200,26,0,221,27,0,221,28,0,200,29,0,200,30,0,200,31,0,201,32,0,200,194,0,621,195,0,621,196,0,620,199,0,600*5B
$PAIRSAT,2,23,65,0,200,66,0,200,67,0,200,68,0,200,70,0,200,71,0,200,72,0,200,73,0,200,74,0,200,75,0,200,76,0,200,77,0,201,78,0,201,79,0,201,80,0,200,81,0,201,82,0,200,83,0,200,84,0,200,85,0,200,86,0,200,87,0,201,88,0,201*5C
$PAIRSAT,3,23,2,0,1200,3,0,1200,4,0,1200,5,0,200,7,0,1200,8,0,1200,9,0,1200,10,0,1200,11,0,1200,12,0,1200,13,0,1221,15,0,1221,19,0,1221,21,0,1221,24,0,1200,25,0,1200,26,0,1221,27,0,1221,30,0,1200,31,0,1200,33,0,1200,34,0,1200,36,0,1200*6A
$PAIRSAT,4,46,1,0,200,2,0,200,3,0,600,4,0,200,5,0,200,6,0,201,7,0,201,8,0,200,9,0,201,10,0,201,11,0,201,12,0,200,13,0,200,14,0,200,16,0,201,19,0,600,20,0,600,21,0,600,22,0,600,23,0,621,24,0,600,25,0,621,26,0,600,27,0,600,28,0,621,29,0,600,30,0,600,32,0,600,33,0,600,34,0,621,35,0,600,36,0,600,37,0,600,38,0,600,39,0,621,40,0,421,41,0,600,42,0,600,43,0,621,44,0,400,45,0,400,46,0,400,59,0,400,60,0,400,61,0,400,62,0,400*4A
$PAIRDGP,8,2,4,7,8,9,16,21,27*7C
$GNGGA,032719.100,2500.7903367,N,12132.4755355,E,4,57,0.47,16.730,M,15.25,M,1,3335*45
$GNRMC,032719.100,A,2500.7903367,N,12132.4755355,E,0.11,82.30,090324,,,R,V*28
$GPHDT,,T*1B
$GNACCURACY,6.0*10
$GNGGA,032719.200,2500.7903365,N,12132.4755242,E,4,57,0.47,16.726,M,15.25,M,1,3335*44
$GNRMC,032719.200,A,2500.7903365,N,12132.4755242,E,0.08,82.30,090324,,,R,V*26
$GPHDT,,T*1B
$GNACCURACY,6.0*10
$GNGGA,032719.300,2500.7903387,N,12132.4755268,E,4,57,0.47,16.744,M,15.25,M,1,3335*45
$GNRMC,032719.300,A,2500.7903387,N,12132.4755268,E,0.03,82.30,090324,,,R,V*28
$GPHDT,,T*1B
$GNACCURACY,6.0*10
$GNGGA,032719.400,2500.7903378,N,12132.4755280,E,4,57,0.47,16.723,M,15.25,M,1,3335*45
$GNRMC,032719.400,A,2500.7903378,N,12132.4755280,E,0.08,82.30,090324,,,R,V*22
$GPHDT,,T*1B
$GNACCURACY,6.0*10
$GNGGA,032719.500,2500.7903390,N,12132.4755215,E,4,56,0.47,16.725,M,15.25,M,1,3335*49
$GNRMC,032719.500,A,2500.7903390,N,12132.4755215,E,0.09,82.30,090324,,,R,V*28
$GPHDT,,T*1B
$GNACCURACY,6.0*10
$GNGGA,032719.600,2500.7903383,N,12132.4755265,E,4,56,0.47,16.728,M,15.25,M,1,3335*42
$GNRMC,032719.600,A,2500.7903383,N,12132.4755265,E,0.07,82.30,090324,,,R,V*20
$GPHDT,,T*1B
$GNACCURACY,6.0*10
$GNGGA,032719.700,2500.7903382,N,12132.4755350,E,4,56,0.47,16.744,M,15.25,M,1,3335*4F
$GNRMC,032719.700,A,2500.7903382,N,12132.4755350,E,0.21,82.30,090324,,,R,V*23
$GPHDT,,T*1B
$GNACCURACY,6.0*10
$GNGGA,032719.800,2500.7903346,N,12132.4755371,E,4,56,0.47,16.723,M,15.25,M,0,3335*4B
$GNRMC,032719.800,A,2500.7903346,N,12132.4755371,E,0.12,82.30,090324,,,R,V*27
$GPHDT,,T*1B
$GNACCURACY,6.0*10
$GNGGA,032719.900,2500.7903335,N,12132.4755426,E,4,56,0.47,16.733,M,15.25,M,0,3335*4A
$GNRMC,032719.900,A,2500.7903335,N,12132.4755426,E,0.29,82.30,090324,,,R,V*2F
$GPHDT,,T*1B
$GNACCURACY,6.0*10
$GNGGA,032720.000,2500.7903353,N,12132.4755362,E,4,56,0.47,16.734,M,15.25,M,1,3335*48
$GNRMC,032720.000,A,2500.7903353,N,12132.4755362,E,0.24,82.30,090324,,,R,V*26
$GPHDT,,T*1B
$GNGSA,A,3,08,194,195,27,21,16,04,02,07,26,31,09,0.76,0.47,0.59,1*09
$GNGSA,A,3,196,,,,,,,,,,,,0.76,0.47,0.59,1*31
$GNGSA,A,3,88,78,81,77,87,79,,,,,,,0.76,0.47,0.59,2*0B
$GNGSA,A,3,21,13,19,27,26,15,,,,,,,0.76,0.47,0.59,3*01
$GNGSA,A,3,06,16,09,43,39,40,07,23,11,25,28,34,0.76,0.47,0.59,4*07
$GPGSV,4,1,15,08,72,304,26,199,64,166,,194,63,046,41,195,58,123,43,1*50
$GPGSV,4,2,15,27,50,027,40,45,47,231,30,21,39,169,42,16,35,055,42,1*60
$GPGSV,4,3,15,04,32,216,31,09,31,267,14,02,28,181,21,07,25,320,20,1*68
$GPGSV,4,4,15,196,21,173,12,26,17,083,33,31,15,137,19,1*69
$GPGSV,2,1,08,08,72,304,28,194,63,046,44,195,58,123,45,27,50,027,46,8*6B
$GPGSV,2,2,08,04,32,216,23,09,31,267,20,196,21,173,36,26,17,083,32,8*5B
$GLGSV,2,1,06,88,72,075,43,78,46,005,32,81,40,189,38,77,32,086,27,1*78
$GLGSV,2,2,06,87,21,030,15,79,12,319,17,1*75
$GAGSV,2,1,06,21,51,348,28,13,50,109,39,19,36,258,13,27,34,062,39,7*7D
$GAGSV,2,2,06,26,27,175,34,15,23,049,36,7*7D
$GAGSV,2,1,05,21,51,348,30,13,50,109,43,27,34,062,35,26,27,175,32,1*73
$GAGSV,2,2,05,15,23,049,28,1*42
$GBGSV,4,1,15,06,82,226,32,16,79,190,41,09,75,301,35,43,74,062,43,1*70
$GBGSV,4,2,15,39,68,176,42,40,66,315,36,07,63,294,23,23,61,356,39,1*70
$GBGSV,4,3,15,10,52,276,16,11,49,045,44,25,47,096,46,28,39,208,30,1*7B
$GBGSV,4,4,15,34,26,041,32,57,,,27,58,,,25,1*48
$GBGSV,2,1,07,43,74,062,38,39,68,176,45,40,66,315,35,23,61,356,31,4*78
$GBGSV,2,2,07,25,47,096,46,28,39,208,35,34,26,041,34,4*40
$GNACCURACY,6.0*10
$PAIRSAT,1,35,2,0,201,3,0,200,4,0,221,5,0,200,6,0,200,7,0,201,8,0,221,9,0,221,10,0,200,11,0,200,12,0,200,13,0,200,14,0,200,15,0,200,16,0,201,17,0,200,18,0,200,19,0,200,20,0,200,21,0,201,22,0,200,23,0,200,24,0,200,25,0,200,26,0,221,27,0,221,28,0,200,29,0,200,30,0,200,31,0,201,32,0,200,194,0,621,195,0,621,196,0,620,199,0,600*5B
$PAIRSAT,2,23,65,0,200,66,0,200,67,0,200,68,0,200,70,0,200,71,0,200,72,0,200,73,0,200,74,0,200,75,0,200,76,0,200,77,0,201,78,0,201,79,0,201,80,0,200,81,0,201,82,0,200,83,0,200,84,0,200,85,0,200,86,0,200,87,0,201,88,0,201*5C
$PAIRSAT,3,23,2,0,1200,3,0,1200,4,0,1200,5,0,200,7,0,1200,8,0,1200,9,0,1200,10,0,1200,11,0,1200,12,0,1200,13,0,1221,15,0,1221,19,0,1221,21,0,1221,24,0,1200,25,0,1200,26,0,1221,27,0,1221,30,0,1200,31,0,1200,33,0,1200,34,0,1200,36,0,1200*6A
$PAIRSAT,4,46,1,0,200,2,0,200,3,0,600,4,0,200,5,0,200,6,0,201,7,0,201,8,0,200,9,0,201,10,0,201,11,0,201,12,0,200,13,0,200,14,0,200,16,0,201,19,0,600,20,0,600,21,0,600,22,0,600,23,0,621,24,0,600,25,0,621,26,0,600,27,0,600,28,0,621,29,0,600,30,0,600,32,0,600,33,0,600,34,0,621,35,0,600,36,0,600,37,0,600,38,0,600,39,0,621,40,0,421,41,0,600,42,0,600,43,0,621,44,0,400,45,0,400,46,0,400,59,0,400,60,0,400,61,0,400,62,0,400*4A
$PAIRDGP,8,2,4,7,8,9,16,21,27*7C
$GNGGA,032720.100,2500.7903356,N,12132.4755356,E,4,55,0.47,16.715,M,15.25,M,1,3335*4B
$GNRMC,032720.100,A,2500.7903356,N,12132.4755356,E,0.06,82.30,090324,,,R,V*25
$GPHDT,,T*1B
$GNACCURACY,6.0*10
$GNGGA,032720.200,2500.7903363,N,12132.4755380,E,4,55,0.47,16.732,M,15.25,M,1,3335*40
$GNRMC,032720.200,A,2500.7903363,N,12132.4755380,E,0.04,82.30,090324,,,R,V*29
$GPHDT,,T*1B
$GNACCURACY,6.1*11
$GNGGA,032720.300,2500.7903369,N,12132.4755353,E,4,55,0.47,16.724,M,15.25,M,1,3335*42
$GNRMC,032720.300,A,2500.7903369,N,12132.4755353,E,0.10,82.30,090324,,,R,V*29
$GPHDT,,T*1B
$GNACCURACY,6.1*11
$GNGGA,032720.400,2500.7903362,N,12132.4755283,E,4,55,0.47,16.724,M,15.25,M,1,3335*42
$GNRMC,032720.400,A,2500.7903362,N,12132.4755283,E,0.06,82.30,090324,,,R,V*2E
$GPHDT,,T*1B
$GNACCURACY,6.1*11
$GNGGA,032720.500,2500.7903358,N,12132.4755293,E,4,55,0.47,16.732,M,15.25,M,1,3335*4C
$GNRMC,032720.500,A,2500.7903358,N,12132.4755293,E,0.07,82.30,090324,,,R,V*26
$GPHDT,,T*1B
$GNACCURACY,6.1*11
$GNGGA,032720.600,2500.7903348,N,12132.4755278,E,4,55,0.47,16.728,M,15.25,M,0,3335*41
$GNRMC,032720.600,A,2500.7903348,N,12132.4755278,E,0.10,82.30,090324,,,R,V*27
$GPHDT,,T*1B
$GNACCURACY,6.1*11
$GNGGA,032720.700,2500.7903332,N,12132.4755350,E,4,55,0.47,16.726,M,15.25,M,0,3335*48
$GNRMC,032720.700,A,2500.7903332,N,12132.4755350,E,0.11,82.30,090324,,,R,V*21
$GPHDT,,T*1B
$GNACCURACY,6.1*11
$GNGGA,032720.800,2500.7903340,N,12132.4755257,E,4,55,0.47,16.727,M,15.25,M,0,3335*45
$GNRMC,032720.800,A,2500.7903340,N,12132.4755257,E,0.12,82.30,090324,,,R,V*2E
$GPHDT,,T*1B
$GNACCURACY,6.1*11
$GNGGA,032720.900,2500.7903325,N,12132.4755235,E,4,55,0.47,16.724,M,15.25,M,0,3335*40
$GNRMC,032720.900,A,2500.7903325,N,12132.4755235,E,0.19,82.30,090324,,,R,V*23
$GPHDT,,T*1B
$GNACCURACY,6.1*11
$GNGGA,032721.000,2500.7903332,N,12132.4755350,E,4,55,0.47,16.735,M,15.25,M,1,3335*4D
$GNRMC,032721.000,A,2500.7903332,N,12132.4755350,E,0.18,82.30,090324,,,R,V*2E
$GPHDT,,T*1B
$GNGSA,A,3,08,194,195,27,21,16,04,02,07,26,31,09,0.78,0.50,0.60,1*0B
$GNGSA,A,3,196,,,,,,,,,,,,0.78,0.50,0.60,1*33
$GNGSA,A,3,88,78,81,77,79,,,,,,,,0.78,0.50,0.60,2*06
$GNGSA,A,3,21,13,27,26,15,,,,,,,,0.78,0.50,0.60,3*0B
$GNGSA,A,3,06,16,09,43,39,40,07,23,11,25,28,34,0.78,0.50,0.60,4*05
$GPGSV,4,1,15,08,72,304,25,199,64,166,,194,63,046,41,195,58,123,43,1*53
$GPGSV,4,2,15,27,50,027,40,45,47,231,31,21,39,169,42,16,35,055,42,1*61
$GPGSV,4,3,15,04,32,216,30,09,31,267,14,02,28,181,21,07,25,320,19,1*63
$GPGSV,4,4,15,196,21,173,14,26,17,083,33,31,15,137,19,1*6F
$GPGSV,2,1,08,08,72,304,29,194,63,046,44,195,58,123,45,27,50,027,46,8*6A
$GPGSV,2,2,08,04,32,216,24,09,31,267,21,196,21,173,36,26,17,083,31,8*5E
$GLGSV,2,1,06,88,72,075,43,78,46,005,31,81,40,189,38,77,32,086,28,1*74
$GLGSV,2,2,06,87,21,030,12,79,12,319,17,1*72
$GAGSV,2,1,06,21,51,348,28,13,50,109,39,19,36,258,,27,34,062,39,7*7F
$GAGSV,2,2,06,26,27,175,34,15,23,049,36,7*7D
$GAGSV,2,1,05,21,51,348,30,13,50,109,43,27,34,062,35,26,27,175,33,1*72
$GAGSV,2,2,05,15,23,049,30,1*4B
$GBGSV,4,1,15,06,82,226,32,16,79,190,41,09,75,301,35,43,74,062,43,1*70
$GBGSV,4,2,15,39,68,176,42,40,66,315,36,07,63,294,23,23,61,356,39,1*70
$GBGSV,4,3,15,10,52,276,14,11,49,045,44,25,47,096,46,28,39,208,33,1*7A
$GBGSV,4,4,15,34,26,041,32,57,,,26,58,,,25,1*49
$GBGSV,2,1,07,43,74,062,38,39,68,176,45,40,66,315,35,23,61,356,32,4*7B
$GBGSV,2,2,07,25,47,096,46,28,39,208,35,34,26,041,32,4*46
$GNACCURACY,6.1*11
$PAIRSAT,1,35,2,0,201,3,0,200,4,0,221,5,0,200,6,0,200,7,0,201,8,0,221,9,0,221,10,0,200,11,0,200,12,0,200,13,0,200,14,0,200,15,0,200,16,0,201,17,0,200,18,0,200,19,0,200,20,0,200,21,0,201,22,0,200,23,0,200,24,0,200,25,0,200,26,0,221,27,0,221,28,0,200,29,0,200,30,0,200,31,0,201,32,0,200,194,0,621,195,0,621,196,0,620,199,0,600*5B
$PAIRSAT,2,23,65,0,200,66,0,200,67,0,200,68,0,200,70,0,200,71,0,200,72,0,200,73,0,200,74,0,200,75,0,200,76,0,200,77,0,201,78,0,201,79,0,201,80,0,200,81,0,201,82,0,200,83,0,200,84,0,200,85,0,200,86,0,200,87,0,201,88,0,201*5C
$PAIRSAT,3,23,2,0,1200,3,0,1200,4,0,1200,5,0,200,7,0,1200,8,0,1200,9,0,1200,10,0,1200,11,0,1200,12,0,1200,13,0,1221,15,0,1221,19,0,1221,21,0,1221,24,0,1200,25,0,1200,26,0,1221,27,0,1221,30,0,1200,31,0,1200,33,0,1200,34,0,1200,36,0,1200*6A
$PAIRSAT,4,46,1,0,200,2,0,200,3,0,600,4,0,200,5,0,200,6,0,201,7,0,201,8,0,200,9,0,201,10,0,201,11,0,201,12,0,200,13,0,200,14,0,200,16,0,201,19,0,600,20,0,600,21,0,600,22,0,600,23,0,621,24,0,600,25,0,621,26,0,600,27,0,600,28,0,621,29,0,600,30,0,600,32,0,600,33,0,600,34,0,621,35,0,600,36,0,600,37,0,600,38,0,600,39,0,621,40,0,421,41,0,600,42,0,600,43,0,621,44,0,400,45,0,400,46,0,400,59,0,400,60,0,400,61,0,400,62,0,400*4A
$PAIRDGP,8,2,4,7,8,9,16,21,27*7C
$GNGGA,032721.100,2500.7903359,N,12132.4755236,E,4,53,0.50,16.734,M,15.25,M,1,3335*41
$GNRMC,032721.100,A,2500.7903359,N,12132.4755236,E,0.04,82.30,090324,,,R,V*2E
$GPHDT,,T*1B
$GNACCURACY,6.1*11
$GNGGA,032721.200,2500.7903358,N,12132.4755232,E,4,53,0.50,16.729,M,15.25,M,1,3335*4B
$GNRMC,032721.200,A,2500.7903358,N,12132.4755232,E,0.08,82.30,090324,,,R,V*24
$GPHDT,,T*1B
$GNACCURACY,6.1*11
$GNGGA,032721.300,2500.7903351,N,12132.4755334,E,4,53,0.50,16.730,M,15.25,M,1,3335*4C
$GNRMC,032721.300,A,2500.7903351,N,12132.4755334,E,0.13,82.30,090324,,,R,V*21
$GPHDT,,T*1B
$GNACCURACY,6.2*12
$GNGGA,032721.400,2500.7903346,N,12132.4755341,E,4,53,0.50,16.741,M,15.25,M,1,3335*49
$GNRMC,032721.400,A,2500.7903346,N,12132.4755341,E,0.09,82.30,090324,,,R,V*29
$GPHDT,,T*1B
$GNACCURACY,6.1*11
$GNGGA,032721.500,2500.7903344,N,12132.4755248,E,4,53,0.50,16.735,M,15.25,M,1,3335*41
$GNRMC,032721.500,A,2500.7903344,N,12132.4755248,E,0.18,82.30,090324,,,R,V*22
$GPHDT,,T*1B
$GNACCURACY,6.1*11
$GNGGA,032721.600,2500.7903342,N,12132.4755227,E,4,53,0.50,16.732,M,15.25,M,0,3335*4B
$GNRMC,032721.600,A,2500.7903342,N,12132.4755227,E,0.13,82.30,090324,,,R,V*25
$GPHDT,,T*1B
$GNACCURACY,6.1*11
$GNGGA,032721.700,2500.7903344,N,12132.4755345,E,4,53,0.50,16.730,M,15.25,M,0,3335*4B
$GNRMC,032721.700,A,2500.7903344,N,12132.4755345,E,0.10,82.30,090324,,,R,V*24
$GPHDT,,T*1B
$GNACCURACY,6.1*11
$GNGGA,032721.800,2500.7903343,N,12132.4755345,E,4,53,0.50,16.740,M,15.25,M,0,3335*44
$GNRMC,032721.800,A,2500.7903343,N,12132.4755345,E,0.13,82.30,090324,,,R,V*2F
$GPHDT,,T*1B
$GNACCURACY,6.1*11
$GNGGA,032721.900,2500.7903333,N,12132.4755360,E,4,53,0.50,16.748,M,15.25,M,0,3335*4D
$GNRMC,032721.900,A,2500.7903333,N,12132.4755360,E,0.18,82.30,090324,,,R,V*25
$GPHDT,,T*1B
$GNACCURACY,6.1*11
$GNGGA,032722.000,2500.7903349,N,12132.4755221,E,4,53,0.50,16.722,M,15.25,M,1,3335*43
$GNRMC,032722.000,A,2500.7903349,N,12132.4755221,E,0.03,82.30,090324,,,R,V*2C
$GPHDT,,T*1B
$GNGSA,A,3,08,194,195,27,21,16,04,07,26,31,09,196,0.79,0.51,0.60,1*37
$GNGSA,A,3,88,78,81,77,79,,,,,,,,0.79,0.51,0.60,2*06
$GNGSA,A,3,21,13,27,26,15,,,,,,,,0.79,0.51,0.60,3*0B
$GNGSA,A,3,06,16,09,43,39,40,07,23,11,25,28,34,0.79,0.51,0.60,4*05
$GPGSV,4,1,15,08,72,304,23,199,64,166,,194,63,046,41,195,58,123,43,1*55
$GPGSV,4,2,15,27,50,027,40,45,47,231,31,21,39,169,42,16,35,055,42,1*61
$GPGSV,4,3,15,04,32,216,29,09,31,267,13,02,28,181,18,07,25,320,19,1*66
$GPGSV,4,4,15,196,21,173,17,26,17,083,32,31,15,137,19,1*6D
$GPGSV,2,1,08,08,72,304,28,194,63,046,44,195,58,123,45,27,50,027,46,8*6B
$GPGSV,2,2,08,04,32,216,24,09,31,267,21,196,21,173,36,26,17,083,31,8*5E
$GLGSV,2,1,06,88,72,075,43,78,46,005,31,81,40,189,37,77,32,086,27,1*74
$GLGSV,2,2,06,87,21,030,14,79,12,319,18,1*7B
$GAGSV,2,1,06,21,51,348,29,13,50,109,39,19,36,258,,27,34,062,39,7*7E
$GAGSV,2,2,06,26,27,175,34,15,23,049,36,7*7D
$GAGSV,2,1,05,21,51,348,30,13,50,109,43,27,34,062,35,26,27,175,33,1*72
$GAGSV,2,2,05,15,23,049,29,1*43
$GBGSV,4,1,15,06,82,226,32,16,79,190,41,09,75,301,35,43,74,062,43,1*70
$GBGSV,4,2,15,39,68,176,42,40,66,315,36,07,63,294,23,23,61,356,39,1*70
$GBGSV,4,3,15,10,52,276,13,11,49,045,44,25,47,096,46,28,39,208,33,1*7D
$GBGSV,4,4,15,34,26,041,32,57,,,25,58,,,25,1*4A
$GBGSV,2,1,07,43,74,062,37,39,68,176,45,40,66,315,35,23,61,356,31,4*77
$GBGSV,2,2,07,25,47,096,46,28,39,208,35,34,26,041,32,4*46
$GNACCURACY,6.1*11
$PAIRSAT,1,35,2,0,201,3,0,200,4,0,221,5,0,200,6,0,200,7,0,201,8,0,221,9,0,221,10,0,200,11,0,200,12,0,200,13,0,200,14,0,200,15,0,200,16,0,201,17,0,200,18,0,200,19,0,200,20,0,200,21,0,201,22,0,200,23,0,200,24,0,200,25,0,200,26,0,221,27,0,221,28,0,200,29,0,200,30,0,200,31,0,201,32,0,200,194,0,621,195,0,621,196,0,620,199,0,600*5B
$PAIRSAT,2,23,65,0,200,66,0,200,67,0,200,68,0,200,70,0,200,71,0,200,72,0,200,73,0,200,74,0,200,75,0,200,76,0,200,77,0,201,78,0,201,79,0,201,80,0,200,81,0,201,82,0,200,83,0,200,84,0,200,85,0,200,86,0,200,87,0,201,88,0,201*5C
$PAIRSAT,3,23,2,0,1200,3,0,1200,4,0,1200,5,0,200,7,0,1200,8,0,1200,9,0,1200,10,0,1200,11,0,1200,12,0,1200,13,0,1221,15,0,1221,19,0,1221,21,0,1221,24,0,1200,25,0,1200,26,0,1221,27,0,1221,30,0,1200,31,0,1200,33,0,1200,34,0,1200,36,0,1200*6A
$PAIRSAT,4,46,1,0,200,2,0,200,3,0,600,4,0,200,5,0,200,6,0,201,7,0,201,8,0,200,9,0,201,10,0,201,11,0,201,12,0,200,13,0,200,14,0,200,16,0,201,19,0,600,20,0,600,21,0,600,22,0,600,23,0,621,24,0,600,25,0,621,26,0,600,27,0,600,28,0,621,29,0,600,30,0,600,32,0,600,33,0,600,34,0,621,35,0,600,36,0,600,37,0,600,38,0,600,39,0,621,40,0,421,41,0,600,42,0,600,43,0,621,44,0,400,45,0,400,46,0,400,59,0,400,60,0,400,61,0,400,62,0,400*4A
$PAIRDGP,8,2,4,7,8,9,16,21,27*7C
$GNGGA,032722.100,2500.7903360,N,12132.4755214,E,4,52,0.51,16.741,M,15.25,M,1,3335*4A
$GNRMC,032722.100,A,2500.7903360,N,12132.4755214,E,0.09,82.30,090324,,,R,V*2A
$GPHDT,,T*1B
$GNACCURACY,6.1*11
$GNGGA,032722.200,2500.7903345,N,12132.4755254,E,4,53,0.50,16.732,M,15.25,M,1,3335*4E
$GNRMC,032722.200,A,2500.7903345,N,12132.4755254,E,0.06,82.30,090324,,,R,V*25
$GPHDT,,T*1B
$GNACCURACY,6.1*11
$GNGGA,032722.300,2500.7903368,N,12132.4755328,E,4,52,0.51,16.741,M,15.25,M,1,3335*4E
$GNRMC,032722.300,A,2500.7903368,N,12132.4755328,E,0.03,82.30,090324,,,R,V*24
$GPHDT,,T*1B
$GNACCURACY,6.1*11
$GNGGA,032722.400,2500.7903363,N,12132.4755211,E,4,52,0.51,16.726,M,15.25,M,1,3335*48
$GNRMC,032722.400,A,2500.7903363,N,12132.4755211,E,0.12,82.30,090324,,,R,V*23
$GPHDT,,T*1B
$GNACCURACY,6.1*11
$GNGGA,032722.500,2500.7903335,N,12132.4755209,E,4,52,0.51,16.712,M,15.25,M,0,3335*45
$GNRMC,032722.500,A,2500.7903335,N,12132.4755209,E,0.08,82.30,090324,,,R,V*23
$GPHDT,,T*1B
$GNACCURACY,6.1*11
$GNGGA,032722.600,2500.7903354,N,12132.4755210,E,4,52,0.51,16.710,M,15.25,M,0,3335*4B
$GNRMC,032722.600,A,2500.7903354,N,12132.4755210,E,0.09,82.30,090324,,,R,V*2E
$GPHDT,,T*1B
$GNACCURACY,6.1*11
$GNGGA,032722.700,2500.7903327,N,12132.4755230,E,4,53,0.51,16.720,M,15.25,M,0,3335*4E
$GNRMC,032722.700,A,2500.7903327,N,12132.4755230,E,0.19,82.30,090324,,,R,V*28
$GPHDT,,T*1B
$GNACCURACY,6.1*11
$GNGGA,032722.800,2500.7903338,N,12132.4755333,E,4,53,0.51,16.715,M,15.25,M,0,3335*4B
$GNRMC,032722.800,A,2500.7903338,N,12132.4755333,E,0.13,82.30,090324,,,R,V*21
$GPHDT,,T*1B
$GNACCURACY,6.0*10
$GNGGA,032722.900,2500.7903344,N,12132.4755347,E,4,53,0.51,16.713,M,15.25,M,0,3335*44
$GNRMC,032722.900,A,2500.7903344,N,12132.4755347,E,0.14,82.30,090324,,,R,V*2F
$GPHDT,,T*1B
$GNACCURACY,6.0*10
$GNGGA,032723.000,2500.7903344,N,12132.4755359,E,4,53,0.51,16.735,M,15.25,M,1,3335*46
$GNRMC,032723.000,A,2500.7903344,N,12132.4755359,E,0.09,82.30,090324,,,R,V*24
$GPHDT,,T*1B
$GNGSA,A,3,08,194,195,27,21,16,04,07,196,26,31,09,0.79,0.51,0.60,1*37
$GNGSA,A,3,88,78,81,77,79,,,,,,,,0.79,0.51,0.60,2*06
$GNGSA,A,3,21,13,27,26,15,,,,,,,,0.79,0.51,0.60,3*0B
$GNGSA,A,3,06,16,09,43,39,40,07,23,11,25,28,34,0.79,0.51,0.60,4*05
$GPGSV,4,1,15,08,72,304,22,199,64,166,,194,63,046,41,195,58,123,43,1*54
$GPGSV,4,2,15,27,50,027,40,45,47,231,31,21,39,169,42,16,35,055,42,1*61
$GPGSV,4,3,15,04,32,216,30,09,31,267,13,02,28,181,18,07,25,320,19,1*6E
$GPGSV,4,4,15,196,21,173,18,26,17,083,31,31,15,137,18,1*60
$GPGSV,2,1,08,08,72,304,29,194,63,046,43,195,58,123,44,27,50,027,46,8*6C
$GPGSV,2,2,08,04,32,216,24,09,31,267,21,196,21,173,36,26,17,083,31,8*5E
$GLGSV,2,1,06,88,72,075,43,78,46,005,31,81,40,189,37,77,32,086,27,1*74
$GLGSV,2,2,06,87,21,030,14,79,12,319,19,1*7A
$GAGSV,2,1,06,21,51,348,29,13,50,109,39,19,36,258,,27,34,062,39,7*7E
$GAGSV,2,2,06,26,27,175,33,15,23,049,36,7*7A
$GAGSV,2,1,05,21,51,348,30,13,50,109,43,27,34,062,35,26,27,175,33,1*72
$GAGSV,2,2,05,15,23,049,29,1*43
$GBGSV,4,1,15,06,82,226,32,16,79,190,41,09,75,301,35,43,74,062,43,1*70
$GBGSV,4,2,15,39,68,176,42,40,66,315,36,07,63,294,24,23,61,356,39,1*77
$GBGSV,4,3,15,10,52,276,15,11,49,045,44,25,47,096,46,28,39,208,33,1*7B
$GBGSV,4,4,15,34,26,041,32,57,,,27,58,,,25,1*48
$GBGSV,2,1,07,43,74,062,37,39,68,176,45,40,66,315,35,23,61,356,31,4*77
$GBGSV,2,2,07,25,47,096,46,28,39,208,35,34,26,041,31,4*45
$GNACCURACY,6.0*10
$PAIRSAT,1,35,2,0,201,3,0,200,4,0,221,5,0,200,6,0,200,7,0,201,8,0,221,9,0,221,10,0,200,11,0,200,12,0,200,13,0,200,14,0,200,15,0,200,16,0,201,17,0,200,18,0,200,19,0,200,20,0,200,21,0,201,22,0,200,23,0,200,24,0,200,25,0,200,26,0,221,27,0,221,28,0,200,29,0,200,30,0,200,31,0,201,32,0,200,194,0,621,195,0,621,196,0,620,199,0,600*5B
$PAIRSAT,2,23,65,0,200,66,0,200,67,0,200,68,0,200,70,0,200,71,0,200,72,0,200,73,0,200,74,0,200,75,0,200,76,0,200,77,0,201,78,0,201,79,0,201,80,0,200,81,0,201,82,0,200,83,0,200,84,0,200,85,0,200,86,0,200,87,0,201,88,0,201*5C
$PAIRSAT,3,23,2,0,1200,3,0,1200,4,0,1200,5,0,200,7,0,1200,8,0,1200,9,0,1200,10,0,1200,11,0,1200,12,0,1200,13,0,1221,15,0,1221,19,0,1221,21,0,1221,24,0,1200,25,0,1200,26,0,1221,27,0,1221,30,0,1200,31,0,1200,33,0,1200,34,0,1200,36,0,1200*6A
$PAIRSAT,4,46,1,0,200,2,0,200,3,0,600,4,0,200,5,0,200,6,0,201,7,0,201,8,0,200,9,0,201,10,0,201,11,0,201,12,0,200,13,0,200,14,0,200,16,0,201,19,0,600,20,0,600,21,0,600,22,0,600,23,0,621,24,0,600,25,0,621,26,0,600,27,0,600,28,0,621,29,0,600,30,0,600,32,0,600,33,0,600,34,0,621,35,0,600,36,0,600,37,0,600,38,0,600,39,0,621,40,0,421,41,0,600,42,0,600,43,0,621,44,0,400,45,0,400,46,0,400,59,0,400,60,0,400,61,0,400,62,0,400*4A
$PAIRDGP,7,2,4,7,8,9,16,21*5A
$GNGGA,032723.100,2500.7903352,N,12132.4755309,E,4,53,0.51,16.720,M,15.25,M,1,3335*41
$GNRMC,032723.100,A,2500.7903352,N,12132.4755309,E,0.08,82.30,090324,,,R,V*26
$GPHDT,,T*1B
$GNACCURACY,6.0*10
$GNGGA,032723.200,2500.7903330,N,12132.4755356,E,4,53,0.51,16.716,M,15.25,M,1,3335*49
$GNRMC,032723.200,A,2500.7903330,N,12132.4755356,E,0.04,82.30,090324,,,R,V*27
$GPHDT,,T*1B
$GNACCURACY,6.0*10
$GNGGA,032723.300,2500.7903354,N,12132.4755310,E,4,53,0.51,16.725,M,15.25,M,1,3335*48
$GNRMC,032723.300,A,2500.7903354,N,12132.4755310,E,0.04,82.30,090324,,,R,V*26
$GPHDT,,T*1B
$GNACCURACY,6.0*10
$GNGGA,032723.400,2500.7903337,N,12132.4755398,E,4,53,0.51,16.742,M,15.25,M,1,3335*4B
$GNRMC,032723.400,A,2500.7903337,N,12132.4755398,E,0.06,82.30,090324,,,R,V*26
$GPHDT,,T*1B
$GNACCURACY,6.1*11
$GNGGA,032723.500,2500.7903329,N,12132.4755217,E,4,53,0.51,16.710,M,15.25,M,0,3335*45
$GNRMC,032723.500,A,2500.7903329,N,12132.4755217,E,0.05,82.30,090324,,,R,V*2D
$GPHDT,,T*1B
$GNACCURACY,6.0*10
$GNGGA,032723.600,2500.7903329,N,12132.4755231,E,4,53,0.51,16.714,M,15.25,M,0,3335*46
$GNRMC,032723.600,A,2500.7903329,N,12132.4755231,E,0.09,82.30,090324,,,R,V*26
$GPHDT,,T*1B
$GNACCURACY,6.0*10
$GNGGA,032723.700,2500.7903338,N,12132.4755202,E,4,53,0.51,16.743,M,15.25,M,0,3335*45
$GNRMC,032723.700,A,2500.7903338,N,12132.4755202,E,0.09,82.30,090324,,,R,V*27
$GPHDT,,T*1B
$GNACCURACY,6.0*10
$GNGGA,032723.800,2500.7903322,N,12132.4755195,E,4,53,0.51,16.740,M,15.25,M,0,3335*4F
$GNRMC,032723.800,A,2500.7903322,N,12132.4755195,E,0.22,82.30,090324,,,R,V*27
$GPHDT,,T*1B
$GNACCURACY,6.0*10
$GNGGA,032723.900,2500.7903333,N,12132.4755248,E,4,53,0.51,16.751,M,15.25,M,0,3335*4D
$GNRMC,032723.900,A,2500.7903333,N,12132.4755248,E,0.17,82.30,090324,,,R,V*23
$GPHDT,,T*1B
$GNACCURACY,6.0*10
$GNGGA,032724.000,2500.7903358,N,12132.4755163,E,4,53,0.51,16.746,M,15.25,M,1,3335*43
$GNRMC,032724.000,A,2500.7903358,N,12132.4755163,E,0.24,82.30,090324,,,R,V*2A
$GPHDT,,T*1B
$GNGSA,A,3,08,194,195,27,21,16,04,07,196,26,31,09,0.79,0.51,0.60,1*37
$GNGSA,A,3,88,78,81,77,79,,,,,,,,0.79,0.51,0.60,2*06
$GNGSA,A,3,21,13,27,26,15,,,,,,,,0.79,0.51,0.60,3*0B
$GNGSA,A,3,06,16,09,43,39,40,07,23,11,25,28,34,0.79,0.51,0.60,4*05
$GPGSV,4,1,15,08,72,304,24,199,64,166,,194,63,046,41,195,58,123,43,1*52
$GPGSV,4,2,15,27,50,027,40,45,47,231,30,21,39,169,42,16,35,055,42,1*60
$GPGSV,4,3,15,04,32,216,30,09,31,267,14,02,28,181,16,07,25,320,19,1*67
$GPGSV,4,4,15,196,21,173,15,26,17,083,29,31,15,137,18,1*64
$GPGSV,2,1,08,08,72,304,29,194,63,046,43,195,58,123,44,27,50,027,46,8*6C
$GPGSV,2,2,08,04,32,216,24,09,31,267,21,196,21,173,36,26,17,083,31,8*5E
$GLGSV,2,1,07,88,72,075,43,78,46,005,31,81,40,189,37,77,32,086,28,1*7A
$GLGSV,2,2,07,87,21,030,16,68,14,254,,79,12,319,21,1*4A
$GAGSV,2,1,06,21,51,348,28,13,50,109,39,19,36,258,,27,34,062,38,7*7E
$GAGSV,2,2,06,26,27,175,33,15,23,049,36,7*7A
$GAGSV,2,1,05,21,51,348,28,13,50,109,43,27,34,062,34,26,27,175,33,1*7A
$GAGSV,2,2,05,15,23,049,28,1*42
$GBGSV,4,1,16,06,82,226,33,16,79,190,41,09,75,301,35,43,74,062,43,1*72
$GBGSV,4,2,16,39,68,176,43,40,66,315,36,07,63,294,24,23,61,356,39,1*75
$GBGSV,4,3,16,10,52,276,17,11,49,045,44,25,47,096,46,28,39,208,32,1*7B
$GBGSV,4,4,16,34,26,041,34,37,17,314,,57,,,27,58,,,23,1*7F
$GBGSV,2,1,07,43,74,062,37,39,68,176,45,40,66,315,35,23,61,356,31,4*77
$GBGSV,2,2,07,25,47,096,46,28,39,208,35,34,26,041,31,4*45
$GNACCURACY,6.0*10
$PAIRSAT,1,35,2,0,201,3,0,200,4,0,221,5,0,200,6,0,200,7,0,201,8,0,221,9,0,221,10,0,200,11,0,200,12,0,200,13,0,200,14,0,200,15,0,200,16,0,201,17,0,200,18,0,200,19,0,200,20,0,200,21,0,201,22,0,200,23,0,200,24,0,200,25,0,200,26,0,221,27,0,221,28,0,200,29,0,200,30,0,200,31,0,201,32,0,200,194,0,621,195,0,621,196,0,620,199,0,600*5B
$PAIRSAT,2,23,65,0,200,66,0,200,67,0,200,68,0,200,70,0,200,71,0,200,72,0,200,73,0,200,74,0,200,75,0,200,76,0,200,77,0,201,78,0,201,79,0,201,80,0,200,81,0,201,82,0,200,83,0,200,84,0,200,85,0,200,86,0,200,87,0,201,88,0,201*5C
$PAIRSAT,3,23,2,0,1200,3,0,1200,4,0,1200,5,0,200,7,0,1200,8,0,1200,9,0,1200,10,0,1200,11,0,1200,12,0,1200,13,0,1221,15,0,1221,19,0,1221,21,0,1221,24,0,1200,25,0,1200,26,0,1221,27,0,1221,30,0,1200,31,0,1200,33,0,1200,34,0,1200,36,0,1200*6A
$PAIRSAT,4,46,1,0,200,2,0,200,3,0,600,4,0,200,5,0,200,6,0,201,7,0,201,8,0,200,9,0,201,10,0,201,11,0,201,12,0,200,13,0,200,14,0,200,16,0,201,19,0,600,20,0,600,21,0,600,22,0,600,23,0,621,24,0,600,25,0,621,26,0,600,27,0,600,28,0,621,29,0,600,30,0,600,32,0,600,33,0,600,34,0,621,35,0,600,36,0,600,37,0,600,38,0,600,39,0,621,40,0,421,41,0,600,42,0,600,43,0,621,44,0,400,45,0,400,46,0,400,59,0,400,60,0,400,61,0,400,62,0,400*4A
$PAIRDGP,7,2,4,7,8,9,16,21*5A
$GNGGA,032724.100,2500.7903309,N,12132.4755314,E,4,53,0.51,16.745,M,15.25,M,1,3335*47
$GNRMC,032724.100,A,2500.7903309,N,12132.4755314,E,0.16,82.30,090324,,,R,V*2C
$GPHDT,,T*1B
$GNACCURACY,6.0*10
$GNGGA,032724.200,2500.7903355,N,12132.4755313,E,4,53,0.51,16.749,M,15.25,M,1,3335*46
$GNRMC,032724.200,A,2500.7903355,N,12132.4755313,E,0.08,82.30,090324,,,R,V*2E
$GPHDT,,T*1B
$GNACCURACY,6.0*10
$GNGGA,032724.300,2500.7903347,N,12132.4755299,E,4,53,0.51,16.727,M,15.25,M,1,3335*4F
$GNRMC,032724.300,A,2500.7903347,N,12132.4755299,E,0.06,82.30,090324,,,R,V*21
$GPHDT,,T*1B
$GNACCURACY,6.0*10
$GNGGA,032724.400,2500.7903340,N,12132.4755338,E,4,53,0.51,16.731,M,15.25,M,1,3335*42
$GNRMC,032724.400,A,2500.7903340,N,12132.4755338,E,0.06,82.30,090324,,,R,V*2B
$GPHDT,,T*1B
$GNACCURACY,6.0*10
$GNGGA,032724.500,2500.7903343,N,12132.4755219,E,4,53,0.51,16.754,M,15.25,M,1,3335*41
$GNRMC,032724.500,A,2500.7903343,N,12132.4755219,E,0.04,82.30,090324,,,R,V*29
$GPHDT,,T*1B
$GNACCURACY,6.0*10
$GNGGA,032724.600,2500.7903341,N,12132.4755186,E,4,53,0.51,16.742,M,15.25,M,1,3335*42
$GNRMC,032724.600,A,2500.7903341,N,12132.4755186,E,0.07,82.30,090324,,,R,V*2E
$GPHDT,,T*1B
$GNACCURACY,6.0*10
$GNGGA,032724.700,2500.7903328,N,12132.4755336,E,4,53,0.51,16.741,M,15.25,M,0,3335*47
$GNRMC,032724.700,A,2500.7903328,N,12132.4755336,E,0.08,82.30,090324,,,R,V*26
$GPHDT,,T*1B
$GNACCURACY,6.0*10
$GNGGA,032724.800,2500.7903352,N,12132.4755186,E,4,53,0.51,16.719,M,15.25,M,0,3335*41
$GNRMC,032724.800,A,2500.7903352,N,12132.4755186,E,0.09,82.30,090324,,,R,V*2C
$GPHDT,,T*1B
$GNACCURACY,6.0*10
$GNGGA,032724.900,2500.7903324,N,12132.4755191,E,4,53,0.51,16.718,M,15.25,M,0,3335*46
$GNRMC,032724.900,A,2500.7903324,N,12132.4755191,E,0.21,82.30,090324,,,R,V*20
$GPHDT,,T*1B
$GNACCURACY,6.0*10
$GNGGA,032725.000,2500.7903333,N,12132.4755231,E,4,53,0.51,16.728,M,15.25,M,1,3335*43
$GNRMC,032725.000,A,2500.7903333,N,12132.4755231,E,0.14,82.30,090324,,,R,V*21
$GPHDT,,T*1B
$GNGSA,A,3,08,194,195,27,21,16,