$FW : RTK35X,V1.1X0314AS,Lib20210517,1*54
$Tool : LOCOSYS , GNSS Firebird , v1.0.0.19*39
$---------------------------------------------------*2D
$GNACCURACY,5.9*1A
$GNGGA,032735.600,2500.7903117,N,12132.4755039,E,4,52,0.52,16.766,M,15.25,M,0,3335*43
$GNRMC,032735.600,A,2500.7903117,N,12132.4755039,E,0.21,209.07,090324,,,R,V*1B
$GPHDT,,T*1B
$GNACCURACY,5.9*1A
$GNGGA,032735.700,2500.7903158,N,12132.4755024,E,4,53,0.52,16.748,M,15.25,M,0,3335*48
$GNRMC,032735.700,A,2500.7903158,N,12132.4755024,E,0.10,209.07,090324,,,R,V*1F
$GPHDT,,T*1B
$GNACCURACY,5.9*1A
$GNGGA,032735.800,2500.7903079,N,12132.4755076,E,4,53,0.52,16.779,M,15.25,M,0,3335*40
$GNRMC,032735.800,A,2500.7903079,N,12132.4755076,E,0.11,209.07,090324,,,R,V*14
$GPHDT,,T*1B
$GNACCURACY,5.9*1A
$GNGGA,032735.900,2500.7903074,N,12132.4755160,E,4,53,0.52,16.758,M,15.25,M,0,3335*49
$GNRMC,032735.900,A,2500.7903074,N,12132.4755160,E,0.08,209.07,090324,,,R,V*16
$GPHDT,,T*1B
$GNACCURACY,5.9*1A
$GNGGA,032736.000,2500.7903080,N,12132.4755161,E,4,53,0.52,16.747,M,15.25,M,1,3335*46
$GNRMC,032736.000,A,2500.7903080,N,12132.4755161,E,0.11,209.07,090324,,,R,V*1E
$GPHDT,,T*1B
$GNGSA,A,3,08,194,195,27,21,16,04,09,02,196,26,31,0.79,0.52,0.60,1*31
$GNGSA,A,3,88,78,81,77,87,79,,,,,,,0.79,0.52,0.60,2*0A
$GNGSA,A,3,21,13,27,26,15,,,,,,,,0.79,0.52,0.60,3*08
$GNGSA,A,3,06,16,09,43,39,40,07,23,11,25,28,34,0.79,0.52,0.60,4*06
$GPGSV,4,1,15,08,72,305,23,199,64,166,,194,63,046,33,195,58,123,39,1*5C
$GPGSV,4,2,15,27,50,027,38,45,47,231,37,21,39,169,40,16,35,055,26,1*68
$GPGSV,4,3,15,04,32,216,30,09,31,267,13,02,28,181,40,07,25,320,13,1*69
$GPGSV,4,4,15,196,21,173,20,26,17,084,28,31,15,137,17,1*6B
$GPGSV,2,1,06,195,58,123,42,27,50,027,35,04,32,216,32,09,31,267,27,8*51
$GPGSV,2,2,06,196,21,173,33,26,17,084,26,8*59
$GLGSV,2,1,06,88,72,075,33,78,46,005,30,81,41,189,32,77,32,086,19,1*7B
$GLGSV,2,2,06,87,21,029,15,79,12,319,25,1*7C
$GAGSV,2,1,07,21,51,348,28,13,50,109,35,19,36,257,,27,34,062,27,7*72
$GAGSV,2,2,07,26,27,175,36,15,23,049,26,04,09,313,,7*43
$GAGSV,2,1,05,21,51,348,26,13,50,109,41,27,34,062,24,26,27,175,42,1*71
$GAGSV,2,2,05,15,23,049,27,1*4D
$GBGSV,4,1,15,06,82,225,35,16,79,190,42,09,75,301,34,43,74,062,26,1*75
$GBGSV,4,2,15,39,68,176,43,40,66,315,37,07,63,294,15,23,61,356,30,1*7C
$GBGSV,4,3,15,10,52,277,20,11,49,045,17,25,47,096,39,28,39,208,36,1*77
$GBGSV,4,4,15,34,26,041,17,41,04,208,,57,,,26,1*7F
$GBGSV,2,1,07,43,74,062,23,39,68,176,45,40,66,315,35,23,61,356,31,4*72
$GBGSV,2,2,07,25,47,096,38,28,39,208,33,34,26,041,29,4*43
$GNACCURACY,5.9*1A
$PAIRSAT,1,35,2,0,201,3,0,200,4,0,221,5,0,200,6,0,200,7,0,201,8,0,221,9,0,221,10,0,200,11,0,200,12,0,200,13,0,200,14,0,200,15,0,200,16,0,201,17,0,200,18,0,200,19,0,200,20,0,200,21,0,201,22,0,200,23,0,200,24,0,200,25,0,200,26,0,221,27,0,221,28,0,200,29,0,200,30,0,200,31,0,201,32,0,200,194,0,621,195,0,621,196,0,620,199,0,600*5B
$PAIRSAT,2,23,65,0,200,66,0,200,67,0,200,68,0,200,70,0,200,71,0,200,72,0,200,73,0,200,74,0,200,75,0,200,76,0,200,77,0,201,78,0,201,79,0,201,80,0,200,81,0,201,82,0,200,83,0,200,84,0,200,85,0,200,86,0,200,87,0,201,88,0,201*5C
$PAIRSAT,3,23,2,0,1200,3,0,1200,4,0,1200,5,0,200,7,0,1200,8,0,1200,9,0,1200,10,0,1200,11,0,1200,12,0,1200,13,0,1221,15,0,1221,19,0,1221,21,0,1221,24,0,1200,25,0,1200,26,0,1221,27,0,1221,30,0,1200,31,0,1200,33,0,1200,34,0,1200,36,0,1200*6A
$PAIRSAT,4,46,1,0,200,2,0,200,3,0,600,4,0,200,5,0,200,6,0,201,7,0,201,8,0,200,9,0,201,10,0,201,11,0,201,12,0,200,13,0,200,14,0,200,16,0,201,19,0,600,20,0,600,21,0,600,22,0,600,23,0,621,24,0,600,25,0,621,26,0,600,27,0,600,28,0,621,29,0,600,30,0,600,32,0,600,33,0,600,34,0,621,35,0,600,36,0,600,37,0,600,38,0,600,39,0,621,40,0,421,41,0,600,42,0,600,43,0,621,44,0,400,45,0,400,46,0,400,59,0,400,60,0,400,61,0,400,62,0,400*4A
$PAIRDGP,8,2,4,7,8,9,16,21,27*7C
$GNGGA,032736.100,2500.7903057,N,12132.4755142,E,4,52,0.52,16.763,M,15.25,M,1,3335*4B
$GNRMC,032736.100,A,2500.7903057,N,12132.4755142,E,0.16,209.07,090324,,,R,V*13
$GPHDT,,T*1B
$GNACCURACY,5.9*1A
$GNGGA,032736.200,2500.7903045,N,12132.4755190,E,4,52,0.52,16.735,M,15.25,M,1,3335*47
$GNRMC,032736.200,A,2500.7903045,N,12132.4755190,E,0.02,209.07,090324,,,R,V*19
$GPHDT,,T*1B
$GNACCURACY,5.9*1A
$GNGGA,032736.300,2500.7903026,N,12132.4755163,E,4,52,0.52,16.770,M,15.25,M,1,3335*4E
$GNRMC,032736.300,A,2500.7903026,N,12132.4755163,E,0.11,209.07,090324,,,R,V*13
$GPHDT,,T*1B
$GNACCURACY,6.0*10
$GNGGA,032736.400,2500.7902988,N,12132.4755158,E,4,52,0.52,16.771,M,15.25,M,1,3335*4C
$GNRMC,032736.400,A,2500.7902988,N,12132.4755158,E,0.04,209.07,090324,,,R,V*14
$GPHDT,,T*1B
$GNACCURACY,6.0*10
$GNGGA,032736.500,2500.7902970,N,12132.4755219,E,4,52,0.52,16.789,M,15.25,M,1,3335*4B
$GNRMC,032736.500,A,2500.7902970,N,12132.4755219,E,0.09,209.07,090324,,,R,V*19
$GPHDT,,T*1B
$GNACCURACY,6.0*10
$GNGGA,032736.600,2500.7902998,N,12132.4755166,E,4,52,0.52,16.789,M,15.25,M,1,3335*45
$GNRMC,032736.600,A,2500.7902998,N,12132.4755166,E,0.04,209.07,090324,,,R,V*1A
$GPHDT,,T*1B
$GNACCURACY,6.0*10
$GNGGA,032736.700,2500.7902996,N,12132.4755096,E,4,52,0.52,16.794,M,15.25,M,0,3335*49
$GNRMC,032736.700,A,2500.7902996,N,12132.4755096,E,0.18,209.07,090324,,,R,V*16
$GPHDT,,T*1B
$GNACCURACY,6.0*10
$GNGGA,032736.800,2500.7903004,N,12132.4755074,E,4,53,0.52,16.813,M,15.25,M,0,3335*48
$GNRMC,032736.800,A,2500.7903004,N,12132.4755074,E,0.17,209.07,090324,,,R,V*19
$GPHDT,,T*1B
$GNACCURACY,6.0*10
$GNGGA,032736.900,2500.7903008,N,12132.4755055,E,4,53,0.52,16.804,M,15.25,M,0,3335*40
$GNRMC,032736.900,A,2500.7903008,N,12132.4755055,E,0.19,209.07,090324,,,R,V*19
$GPHDT,,T*1B
$GNACCURACY,6.0*10
$GNGGA,032737.000,2500.7902976,N,12132.4755180,E,4,53,0.52,16.792,M,15.25,M,1,3335*41
$GNRMC,032737.000,A,2500.7902976,N,12132.4755180,E,0.11,209.07,090324,,,R,V*11
$GPHDT,,T*1B
$GNGSA,A,3,08,194,195,27,21,16,04,09,02,196,26,31,0.79,0.52,0.60,1*31
$GNGSA,A,3,88,78,81,77,87,79,,,,,,,0.79,0.52,0.60,2*0A
$GNGSA,A,3,21,13,27,26,15,,,,,,,,0.79,0.52,0.60,3*08
$GNGSA,A,3,06,16,09,43,39,40,07,23,11,25,28,34,0.79,0.52,0.60,4*06
$GPGSV,4,1,15,08,72,305,23,199,64,166,,194,63,046,32,195,58,123,39,1*5D
$GPGSV,4,2,15,27,50,027,37,45,47,231,36,21,39,169,40,16,35,055,26,1*66
$GPGSV,4,3,15,04,32,216,30,09,31,267,14,02,28,181,40,07,25,320,11,1*6C
$GPGSV,4,4,15,196,21,173,22,26,17,084,29,31,15,137,17,1*68
$GPGSV,2,1,06,195,58,123,42,27,50,027,35,04,32,216,31,09,31,267,26,8*53
$GPGSV,2,2,06,196,21,173,33,26,17,084,29,8*56
$GLGSV,2,1,07,88,72,075,33,78,46,005,31,81,41,189,34,77,32,086,18,1*7C
$GLGSV,2,2,07,87,21,029,15,79,12,319,23,67,02,209,,1*43
$GAGSV,2,1,07,21,51,348,25,13,50,109,35,19,36,257,,27,34,062,27,7*7F
$GAGSV,2,2,07,26,27,175,36,15,23,049,25,04,09,313,,7*40
$GAGSV,2,1,05,21,51,348,25,13,50,109,41,27,34,062,19,26,27,175,42,1*7C
$GAGSV,2,2,05,15,23,049,27,1*4D
$GBGSV,5,1,17,06,82,225,35,16,79,190,42,09,75,301,33,43,74,062,26,1*71
$GBGSV,5,2,17,39,68,176,44,40,66,315,37,07,63,294,15,23,61,356,29,1*70
$GBGSV,5,3,17,10,52,277,19,11,49,045,18,25,47,096,40,28,39,208,36,1*7F
$GBGSV,5,4,17,34,26,041,17,32,05,256,,41,04,208,,38,04,171,,1*77
$GBGSV,5,5,17,57,,,25,1*75
$GBGSV,2,1,07,43,74,062,22,39,68,176,45,40,66,315,35,23,61,356,31,4*73
$GBGSV,2,2,07,25,47,096,39,28,39,208,34,34,26,041,30,4*4D
$GNACCURACY,6.0*10
$PAIRSAT,1,35,2,0,201,3,0,200,4,0,221,5,0,200,6,0,200,7,0,201,8,0,221,9,0,221,10,0,200,11,0,200,12,0,200,13,0,200,14,0,200,15,0,200,16,0,201,17,0,200,18,0,200,19,0,200,20,0,200,21,0,201,22,0,200,23,0,200,24,0,200,25,0,200,26,0,221,27,0,221,28,0,200,29,0,200,30,0,200,31,0,201,32,0,200,194,0,621,195,0,621,196,0,620,199,0,600*5B
$PAIRSAT,2,23,65,0,200,66,0,200,67,0,200,68,0,200,70,0,200,71,0,200,72,0,200,73,0,200,74,0,200,75,0,200,76,0,200,77,0,201,78,0,201,79,0,201,80,0,200,81,0,201,82,0,200,83,0,200,84,0,200,85,0,200,86,0,200,87,0,201,88,0,201*5C
$PAIRSAT,3,23,2,0,1200,3,0,1200,4,0,1200,5,0,200,7,0,1200,8,0,1200,9,0,1200,10,0,1200,11,0,1200,12,0,1200,13,0,1221,15,0,1221,19,0,1221,21,0,1221,24,0,1200,25,0,1200,26,0,1221,27,0,1221,30,0,1200,31,0,1200,33,0,1200,34,0,1200,36,0,1200*6A
$PAIRSAT,4,46,1,0,200,2,0,200,3,0,600,4,0,200,5,0,200,6,0,201,7,0,201,8,0,200,9,0,201,10,0,201,11,0,201,12,0,200,13,0,200,14,0,200,16,0,201,19,0,600,20,0,600,21,0,600,22,0,600,23,0,621,24,0,600,25,0,621,26,0,600,27,0,600,28,0,621,29,0,600,30,0,600,32,0,600,33,0,600,34,0,621,35,0,600,36,0,600,37,0,600,38,0,600,39,0,621,40,0,421,41,0,600,42,0,600,43,0,621,44,0,400,45,0,400,46,0,400,59,0,400,60,0,400,61,0,400,62,0,400*4A
$PAIRDGP,8,2,4,7,8,9,16,21,27*7C
$GNGGA,032737.100,2500.7902997,N,12132.4755189,E,4,53,0.52,16.776,M,15.25,M,1,3335*4C
$GNRMC,032737.100,A,2500.7902997,N,12132.4755189,E,0.06,209.07,090324,,,R,V*10
$GPHDT,,T*1B
$GNACCURACY,6.0*10
$GNGGA,032737.200,2500.7903020,N,12132.4755181,E,4,51,0.52,16.773,M,15.25,M,1,3335*44
$GNRMC,032737.200,A,2500.7903020,N,12132.4755181,E,0.10,209.07,090324,,,R,V*18
$GPHDT,,T*1B
$GNACCURACY,6.0*10
$GNGGA,032737.300,2500.7902970,N,12132.4755209,E,4,51,0.52,16.801,M,15.25,M,1,3335*41
$GNRMC,032737.300,A,2500.7902970,N,12132.4755209,E,0.11,209.07,090324,,,R,V*16
$GPHDT,,T*1B
$GNACCURACY,6.0*10
$GNGGA,032737.400,2500.7903045,N,12132.4755140,E,4,50,0.52,16.779,M,15.25,M,1,3335*47
$GNRMC,032737.400,A,2500.7903045,N,12132.4755140,E,0.04,209.07,090324,,,R,V*15
$GPHDT,,T*1B
$GNACCURACY,6.1*11
$GNGGA,032737.500,2500.7902978,N,12132.4755192,E,4,51,0.52,16.804,M,15.25,M,1,3335*4B
$GNRMC,032737.500,A,2500.7902978,N,12132.4755192,E,0.21,209.07,090324,,,R,V*1A
$GPHDT,,T*1B
$GNACCURACY,6.1*11
$GNGGA,032737.600,2500.7903003,N,12132.4755186,E,4,50,0.52,16.790,M,15.25,M,1,3335*4A
$GNRMC,032737.600,A,2500.7903003,N,12132.4755186,E,0.11,209.07,090324,,,R,V*1B
$GPHDT,,T*1B
$GNACCURACY,6.1*11
$GNGGA,032737.700,2500.7902959,N,12132.4755229,E,4,52,0.52,16.786,M,15.25,M,0,3335*4E
$GNRMC,032737.700,A,2500.7902959,N,12132.4755229,E,0.19,209.07,090324,,,R,V*13
$GPHDT,,T*1B
$GNACCURACY,6.1*11
$GNGGA,032737.800,2500.7902976,N,12132.4755209,E,4,51,0.52,16.791,M,15.25,M,0,3335*4B
$GNRMC,032737.800,A,2500.7902976,N,12132.4755209,E,0.09,209.07,090324,,,R,V*12
$GPHDT,,T*1B
$GNACCURACY,6.1*11
$GNGGA,032737.900,2500.7902957,N,12132.4755182,E,4,50,0.52,16.782,M,15.25,M,0,3335*4A
$GNRMC,032737.900,A,2500.7902957,N,12132.4755182,E,0.19,209.07,090324,,,R,V*11
$GPHDT,,T*1B
$GNACCURACY,6.1*11
$GNGGA,032738.000,2500.7902957,N,12132.4755189,E,4,50,0.52,16.778,M,15.25,M,1,3335*43
$GNRMC,032738.000,A,2500.7902957,N,12132.4755189,E,0.06,209.07,090324,,,R,V*12
$GPHDT,,T*1B
$GNGSA,A,3,08,194,195,27,21,16,04,02,196,26,31,09,0.79,0.52,0.60,1*31
$GNGSA,A,3,88,78,81,77,87,79,,,,,,,0.79,0.52,0.60,2*0A
$GNGSA,A,3,21,13,27,26,15,,,,,,,,0.79,0.52,0.60,3*08
$GNGSA,A,3,06,16,09,43,39,40,07,23,11,25,28,34,0.79,0.52,0.60,4*06
$GPGSV,4,1,15,08,72,305,21,199,64,166,,194,63,046,30,195,58,123,39,1*5D
$GPGSV,4,2,15,27,50,027,37,45,47,231,35,21,39,169,40,16,35,055,25,1*66
$GPGSV,4,3,15,04,32,216,29,09,31,267,15,02,28,181,39,07,25,320,11,1*6B
$GPGSV,4,4,15,196,21,173,23,26,17,084,29,31,15,137,17,1*69
$GPGSV,2,1,07,194,63,046,23,195,58,123,42,27,50,027,34,04,32,216,31,8*65
$GPGSV,2,2,07,09,31,267,24,196,21,173,32,26,17,084,25,8*64
$GLGSV,2,1,06,88,72,075,34,78,46,005,31,81,41,189,35,77,32,086,18,1*7B
$GLGSV,2,2,06,87,21,029,14,79,12,319,21,1*79
$GAGSV,2,1,07,21,51,348,22,13,50,109,35,19,36,257,,27,34,062,29,7*76
$GAGSV,2,2,07,26,27,175,36,15,23,049,25,04,09,313,,7*40
$GAGSV,1,1,04,21,51,348,24,13,50,109,42,26,27,175,42,15,23,049,25,1*7D
$GBGSV,4,1,16,06,82,225,35,16,79,190,42,09,75,301,33,43,74,061,26,1*72
$GBGSV,4,2,16,39,68,176,44,40,66,316,37,07,63,294,16,23,61,356,26,1*7F
$GBGSV,4,3,16,10,52,277,19,11,49,045,29,25,47,096,40,28,39,208,36,1*7D
$GBGSV,4,4,16,34,26,041,17,32,05,256,,41,04,207,,57,,,25,1*45
$GBGSV,2,1,07,43,74,061,22,39,68,176,45,40,66,316,35,23,61,356,31,4*73
$GBGSV,2,2,07,25,47,096,40,28,39,208,34,34,26,041,29,4*4B
$GNACCURACY,6.1*11
$PAIRSAT,1,35,2,0,201,3,0,200,4,0,221,5,0,200,6,0,200,7,0,201,8,0,221,9,0,221,10,0,200,11,0,200,12,0,200,13,0,200,14,0,200,15,0,200,16,0,201,17,0,200,18,0,200,19,0,200,20,0,200,21,0,201,22,0,200,23,0,200,24,0,200,25,0,200,26,0,221,27,0,221,28,0,200,29,0,200,30,0,200,31,0,201,32,0,200,194,0,621,195,0,621,196,0,620,199,0,600*5B
$PAIRSAT,2,23,65,0,200,66,0,200,67,0,200,68,0,200,70,0,200,71,0,200,72,0,200,73,0,200,74,0,200,75,0,200,76,0,200,77,0,201,78,0,201,79,0,201,80,0,200,81,0,201,82,0,200,83,0,200,84,0,200,85,0,200,86,0,200,87,0,201,88,0,201*5C
$PAIRSAT,3,23,2,0,1200,3,0,1200,4,0,1200,5,0,200,7,0,1200,8,0,1200,9,0,1200,10,0,1200,11,0,1200,12,0,1200,13,0,1221,15,0,1221,19,0,1221,21,0,1221,24,0,1200,25,0,1200,26,0,1221,27,0,1221,30,0,1200,31,0,1200,33,0,1200,34,0,1200,36,0,1200*6A
$PAIRSAT,4,46,1,0,200,2,0,200,3,0,600,4,0,200,5,0,200,6,0,201,7,0,201,8,0,200,9,0,201,10,0,201,11,0,201,12,0,200,13,0,200,14,0,200,16,0,201,19,0,600,20,0,600,21,0,600,22,0,600,23,0,621,24,0,600,25,0,621,26,0,600,27,0,600,28,0,621,29,0,600,30,0,600,32,0,600,33,0,600,34,0,621,35,0,600,36,0,600,37,0,600,38,0,600,39,0,621,40,0,421,41,0,600,42,0,600,43,0,621,44,0,400,45,0,400,46,0,400,59,0,400,60,0,400,61,0,400,62,0,400*4A
$PAIRDGP,8,2,4,7,8,9,16,21,27*7C
$GNGGA,032738.100,2500.7902988,N,12132.4755166,E,4,51,0.52,16.789,M,15.25,M,1,3335*4E
$GNRMC,032738.100,A,2500.7902988,N,12132.4755166,E,0.05,209.07,090324,,,R,V*13
$GPHDT,,T*1B
$GNACCURACY,6.1*11
$GNGGA,032738.200,2500.7902994,N,12132.4755175,E,4,51,0.52,16.766,M,15.25,M,1,3335*43
$GNRMC,032738.200,A,2500.7902994,N,12132.4755175,E,0.12,209.07,090324,,,R,V*19
$GPHDT,,T*1B
$GNACCURACY,6.1*11
$GNGGA,032738.300,2500.7902976,N,12132.4755229,E,4,51,0.52,16.791,M,15.25,M,1,3335*4C
$GNRMC,032738.300,A,2500.7902976,N,12132.4755229,E,0.16,209.07,090324,,,R,V*1A
$GPHDT,,T*1B
$GNACCURACY,6.1*11
$GNGGA,032738.400,2500.7902944,N,12132.4755190,E,4,52,0.52,16.796,M,15.25,M,1,3335*4F
$GNRMC,032738.400,A,2500.7902944,N,12132.4755190,E,0.13,209.07,090324,,,R,V*18
$GPHDT,,T*1B
$GNACCURACY,6.0*10
$GNGGA,032738.500,2500.7903017,N,12132.4755083,E,4,52,0.52,16.779,M,15.25,M,0,3335*43
$GNRMC,032738.500,A,2500.7903017,N,12132.4755083,E,0.23,209.07,090324,,,R,V*17
$GPHDT,,T*1B
$GNACCURACY,6.0*10
$GNGGA,032738.600,2500.7903018,N,12132.4755116,E,4,52,0.52,16.785,M,15.25,M,0,3335*41
$GNRMC,032738.600,A,2500.7903018,N,12132.4755116,E,0.11,209.07,090324,,,R,V*17
$GPHDT,,T*1B
$GNACCURACY,6.0*10
$GNGGA,032738.700,2500.7902949,N,12132.4755197,E,4,53,0.50,16.775,M,15.25,M,0,3335*49
$GNRMC,032738.700,A,2500.7902949,N,12132.4755197,E,0.06,209.07,090324,,,R,V*15
$GPHDT,,T*1B
$GNACCURACY,6.0*10
$GNGGA,032738.800,2500.7903047,N,12132.4755125,E,4,53,0.50,16.745,M,15.25,M,0,3335*4A
$GNRMC,032738.800,A,2500.7903047,N,12132.4755125,E,0.20,209.07,090324,,,R,V*11
$GPHDT,,T*1B
$GNACCURACY,6.0*10
$GNGGA,032738.900,2500.7903129,N,12132.4755118,E,4,53,0.50,16.785,M,15.25,M,0,3335*40
$GNRMC,032738.900,A,2500.7903129,N,12132.4755118,E,0.09,209.07,090324,,,R,V*1C
$GPHDT,,T*1B
$GNACCURACY,6.0*10
$GNGGA,032739.000,2500.7903146,N,12132.4755108,E,4,53,0.50,16.770,M,15.25,M,1,3335*4B
$GNRMC,032739.000,A,2500.7903146,N,12132.4755108,E,0.12,209.07,090324,,,R,V*16
$GPHDT,,T*1B
$GNGSA,A,3,08,194,195,27,21,16,04,02,196,26,31,09,0.78,0.50,0.60,1*32
$GNGSA,A,3,88,78,81,77,87,79,,,,,,,0.78,0.50,0.60,2*09
$GNGSA,A,3,21,13,19,27,26,15,,,,,,,0.78,0.50,0.60,3*03
$GNGSA,A,3,06,16,09,43,39,40,07,23,11,25,28,34,0.78,0.50,0.60,4*05
$GPGSV,4,1,15,08,72,305,23,199,64,166,,194,63,046,30,195,58,123,38,1*5E
$GPGSV,4,2,15,27,50,027,33,45,47,231,35,21,39,169,42,16,35,055,22,1*67
$GPGSV,4,3,15,04,32,216,26,09,31,267,16,02,28,181,39,07,25,320,13,1*65
$GPGSV,4,4,15,196,21,173,27,26,17,084,28,31,15,137,17,1*6C
$GPGSV,2,1,07,194,63,046,33,195,58,123,41,27,50,027,24,04,32,216,31,8*66
$GPGSV,2,2,07,09,31,267,26,196,21,173,30,26,17,084,28,8*69
$GLGSV,2,1,07,88,72,075,34,78,46,005,31,81,41,189,35,77,32,086,15,1*77
$GLGSV,2,2,07,87,21,029,14,79,12,319,19,67,02,209,,1*4B
$GAGSV,2,1,07,21,51,348,21,13,50,109,33,19,36,257,18,27,34,062,29,7*7A
$GAGSV,2,2,07,26,27,175,36,15,23,049,25,04,09,313,17,7*46
$GAGSV,1,1,04,21,51,348,21,13,50,109,42,26,27,175,42,15,23,049,25,1*78
$GBGSV,4,1,14,06,82,225,35,16,79,190,40,09,75,301,32,43,74,061,27,1*72
$GBGSV,4,2,14,39,68,176,44,40,66,316,37,07,63,294,17,23,61,356,26,1*7C
$GBGSV,4,3,14,10,52,277,21,11,49,045,34,25,47,096,40,28,39,208,35,1*7B
$GBGSV,4,4,14,34,26,041,22,57,,,25,1*40
$GBGSV,2,1,07,43,74,061,18,39,68,176,45,40,66,316,34,23,61,356,31,4*7B
$GBGSV,2,2,07,25,47,096,40,28,39,208,34,34,26,041,30,4*43
$GNACCURACY,5.9*1A
$PAIRSAT,1,35,2,0,201,3,0,200,4,0,221,5,0,200,6,0,200,7,0,201,8,0,221,9,0,221,10,0,200,11,0,200,12,0,200,13,0,200,14,0,200,15,0,200,16,0,201,17,0,200,18,0,200,19,0,200,20,0,200,21,0,201,22,0,200,23,0,200,24,0,200,25,0,200,26,0,221,27,0,221,28,0,200,29,0,200,30,0,200,31,0,201,32,0,200,194,0,621,195,0,621,196,0,620,199,0,600*5B
$PAIRSAT,2,23,65,0,200,66,0,200,67,0,200,68,0,200,70,0,200,71,0,200,72,0,200,73,0,200,74,0,200,75,0,200,76,0,200,77,0,201,78,0,201,79,0,201,80,0,200,81,0,201,82,0,200,83,0,200,84,0,200,85,0,200,86,0,200,87,0,201,88,0,201*5C
$PAIRSAT,3,23,2,0,1200,3,0,1200,4,0,1200,5,0,200,7,0,1200,8,0,1200,9,0,1200,10,0,1200,11,0,1200,12,0,1200,13,0,1221,15,0,1221,19,0,1221,21,0,1221,24,0,1200,25,0,1200,26,0,1221,27,0,1221,30,0,1200,31,0,1200,33,0,1200,34,0,1200,36,0,1200*6A
$PAIRSAT,4,46,1,0,200,2,0,200,3,0,600,4,0,200,5,0,200,6,0,201,7,0,201,8,0,200,9,0,201,10,0,201,11,0,201,12,0,200,13,0,200,14,0,200,16,0,201,19,0,600,20,0,600,21,0,600,22,0,600,23,0,621,24,0,600,25,0,621,26,0,600,27,0,600,28,0,621,29,0,600,30,0,600,32,0,600,33,0,600,34,0,621,35,0,600,36,0,600,37,0,600,38,0,600,39,0,621,40,0,421,41,0,600,42,0,600,43,0,621,44,0,400,45,0,400,46,0,400,59,0,400,60,0,400,61,0,400,62,0,400*4A
$PAIRDGP,8,2,4,7,8,9,16,21,27*7C
$GNGGA,032739.100,2500.7903132,N,12132.4755074,E,4,53,0.50,16.771,M,15.25,M,1,3335*42
$GNRMC,032739.100,A,2500.7903132,N,12132.4755074,E,0.23,209.07,090324,,,R,V*1C
$GPHDT,,T*1B
$GNACCURACY,5.9*1A
$GNGGA,032739.200,2500.7903186,N,12132.4755075,E,4,52,0.50,16.763,M,15.25,M,1,3335*4D
$GNRMC,032739.200,A,2500.7903186,N,12132.4755075,E,0.05,209.07,090324,,,R,V*15
$GPHDT,,T*1B
$GNACCURACY,5.9*1A
$GNGGA,032739.300,2500.7903107,N,12132.4755107,E,4,52,0.50,16.784,M,15.25,M,1,3335*48
$GNRMC,032739.300,A,2500.7903107,N,12132.4755107,E,0.09,209.07,090324,,,R,V*15
$GPHDT,,T*1B
$GNACCURACY,5.9*1A
$GNGGA,032739.400,2500.7903024,N,12132.4755185,E,4,52,0.50,16.776,M,15.25,M,1,3335*48
$GNRMC,032739.400,A,2500.7903024,N,12132.4755185,E,0.18,209.07,090324,,,R,V*18
$GPHDT,,T*1B
$GNACCURACY,5.9*1A
$GNGGA,032739.500,2500.7903026,N,12132.4755244,E,4,52,0.50,16.795,M,15.25,M,1,3335*48
$GNRMC,032739.500,A,2500.7903026,N,12132.4755244,E,0.12,209.07,090324,,,R,V*1F
$GPHDT,,T*1B
$GNACCURACY,5.9*1A
$GNGGA,032739.600,2500.7903019,N,12132.4755183,E,4,52,0.50,16.785,M,15.25,M,1,3335*4E
$GNRMC,032739.600,A,2500.7903019,N,12132.4755183,E,0.17,209.07,090324,,,R,V*1D
$GPHDT,,T*1B
$GNACCURACY,5.9*1A
$GNGGA,032739.700,2500.7903048,N,12132.4755171,E,4,52,0.50,16.780,M,15.25,M,0,3335*42
$GNRMC,032739.700,A,2500.7903048,N,12132.4755171,E,0.11,209.07,090324,,,R,V*13
$GPHDT,,T*1B
$GNACCURACY,5.8*1B
$GNGGA,032739.800,2500.7902997,N,12132.4755198,E,4,52,0.50,16.778,M,15.25,M,0,3335*47
$GNRMC,032739.800,A,2500.7902997,N,12132.4755198,E,0.24,209.07,090324,,,R,V*17
$GPHDT,,T*1B
$GNACCURACY,5.8*1B
$GNGGA,032739.900,2500.7902994,N,12132.4755180,E,4,52,0.50,16.786,M,15.25,M,0,3335*4D
$GNRMC,032739.900,A,2500.7902994,N,12132.4755180,E,0.19,209.07,090324,,,R,V*12
$GPHDT,,T*1B
$GNACCURACY,5.8*1B
$GNGGA,032740.000,2500.7903004,N,12132.4755137,E,4,52,0.50,16.815,M,15.25,M,1,3335*43
$GNRMC,032740.000,A,2500.7903004,N,12132.4755137,E,0.10,209.07,090324,,,R,V*11
$GPHDT,,T*1B
$GNGSA,A,3,08,194,195,27,21,16,04,02,196,26,31,09,0.78,0.50,0.60,1*32
$GNGSA,A,3,88,78,81,77,87,79,,,,,,,0.78,0.50,0.60,2*09
$GNGSA,A,3,21,13,19,27,26,15,,,,,,,0.78,0.50,0.60,3*03
$GNGSA,A,3,06,16,09,43,39,40,07,23,11,25,28,34,0.78,0.50,0.60,4*05
$GPGSV,4,1,15,08,72,305,23,199,64,166,,194,63,046,32,195,58,123,38,1*5C
$GPGSV,4,2,15,27,50,027,35,45,47,231,35,21,39,169,42,16,35,055,19,1*69
$GPGSV,4,3,15,04,32,216,28,09,31,267,17,02,28,181,39,07,25,320,13,1*6A
$GPGSV,4,4,15,196,21,173,24,26,17,084,28,31,15,137,17,1*6F
$GPGSV,2,1,07,194,63,046,30,195,58,123,41,27,50,027,30,04,32,216,32,8*63
$GPGSV,2,2,07,09,31,267,25,196,21,173,31,26,17,084,28,8*6B
$GLGSV,2,1,06,88,72,075,34,78,46,005,31,81,41,189,35,77,32,086,15,1*76
$GLGSV,2,2,06,87,21,029,13,79,12,319,19,1*75
$GAGSV,2,1,07,21,51,348,23,13,50,109,34,19,36,257,18,27,34,062,28,7*7E
$GAGSV,2,2,07,26,27,175,36,15,23,049,25,04,09,313,16,7*47
$GAGSV,1,1,03,13,50,109,42,26,27,175,42,15,23,049,25,1*44
$GBGSV,4,1,14,06,82,225,35,16,79,190,40,09,75,301,33,43,74,061,29,1*7D
$GBGSV,4,2,14,39,68,176,44,40,66,316,37,07,63,294,19,23,61,356,29,1*7D
$GBGSV,4,3,14,10,52,277,22,11,49,045,31,25,47,096,40,28,39,208,35,1*7D
$GBGSV,4,4,14,34,26,041,22,57,,,25,1*40
$GBGSV,2,1,07,43,74,061,20,39,68,176,45,40,66,316,34,23,61,356,31,4*70
$GBGSV,2,2,07,25,47,096,40,28,39,208,34,34,26,041,30,4*43
$GNACCURACY,5.8*1B
$PAIRSAT,1,35,2,0,201,3,0,200,4,0,221,5,0,200,6,0,200,7,0,201,8,0,221,9,0,221,10,0,200,11,0,200,12,0,200,13,0,200,14,0,200,15,0,200,16,0,201,17,0,200,18,0,200,19,0,200,20,0,200,21,0,201,22,0,200,23,0,200,24,0,200,25,0,200,26,0,221,27,0,221,28,0,200,29,0,200,30,0,200,31,0,201,32,0,200,194,0,621,195,0,621,196,0,620,199,0,600*5B
$PAIRSAT,2,23,65,0,200,66,0,200,67,0,200,68,0,200,70,0,200,71,0,200,72,0,200,73,0,200,74,0,200,75,0,200,76,0,200,77,0,201,78,0,201,79,0,201,80,0,200,81,0,201,82,0,200,83,0,200,84,0,200,85,0,200,86,0,200,87,0,201,88,0,201*5C
$PAIRSAT,3,23,2,0,1200,3,0,1200,4,0,1200,5,0,200,7,0,1200,8,0,1200,9,0,1200,10,0,1200,11,0,1200,12,0,1200,13,0,1221,15,0,1221,19,0,1221,21,0,1221,24,0,1200,25,0,1200,26,0,1221,27,0,1221,30,0,1200,31,0,1200,33,0,1200,34,0,1200,36,0,1200*6A
$PAIRSAT,4,46,1,0,200,2,0,200,3,0,600,4,0,200,5,0,200,6,0,201,7,0,201,8,0,200,9,0,201,10,0,201,11,0,201,12,0,200,13,0,200,14,0,200,16,0,201,19,0,600,20,0,600,21,0,600,22,0,600,23,0,621,24,0,600,25,0,621,26,0,600,27,0,600,28,0,621,29,0,600,30,0,600,32,0,600,33,0,600,34,0,621,35,0,600,36,0,600,37,0,600,38,0,600,39,0,621,40,0,421,41,0,600,42,0,600,43,0,621,44,0,400,45,0,400,46,0,400,59,0,400,60,0,400,61,0,400,62,0,400*4A
$PAIRDGP,8,2,4,7,8,9,16,21,27*7C
$GNGGA,032740.100,2500.7903039,N,12132.4755105,E,4,52,0.50,16.799,M,15.25,M,1,3335*46
$GNRMC,032740.100,A,2500.7903039,N,12132.4755105,E,0.07,209.07,090324,,,R,V*19
$GPHDT,,T*1B
$GNACCURACY,5.8*1B
$GNGGA,032740.200,2500.7903043,N,12132.4755087,E,4,52,0.50,16.807,M,15.25,M,1,3335*4B
$GNRMC,032740.200,A,2500.7903043,N,12132.4755087,E,0.06,209.07,090324,,,R,V*1D
$GPHDT,,T*1B
$GNACCURACY,5.8*1B
$GNGGA,032740.300,2500.7903008,N,12132.4755101,E,4,52,0.50,16.817,M,15.25,M,1,3335*4B
$GNRMC,032740.300,A,2500.7903008,N,12132.4755101,E,0.17,209.07,090324,,,R,V*1C
$GPHDT,,T*1B
$GNACCURACY,5.8*1B
$GNGGA,032740.400,2500.7903007,N,12132.4755180,E,4,52,0.50,16.781,M,15.25,M,1,3335*4A
$GNRMC,032740.400,A,2500.7903007,N,12132.4755180,E,0.13,209.07,090324,,,R,V*19
$GPHDT,,T*1B
$GNACCURACY,5.8*1B
$GNGGA,032740.500,2500.7902971,N,12132.4755168,E,4,52,0.50,16.804,M,15.25,M,1,3335*46
$GNRMC,032740.500,A,2500.7902971,N,12132.4755168,E,0.21,209.07,090324,,,R,V*16
$GPHDT,,T*1B
$GNACCURACY,5.8*1B
$GNGGA,032740.600,2500.7903006,N,12132.4755111,E,4,52,0.50,16.828,M,15.25,M,1,3335*4D
$GNRMC,032740.600,A,2500.7903006,N,12132.4755111,E,0.12,209.07,090324,,,R,V*13
$GPHDT,,T*1B
$GNACCURACY,5.8*1B
$GNGGA,032740.700,2500.7902953,N,12132.4755203,E,4,52,0.50,16.793,M,15.25,M,1,3335*4B
$GNRMC,032740.700,A,2500.7902953,N,12132.4755203,E,0.11,209.07,090324,,,R,V*19
$GPHDT,,T*1B
$GNACCURACY,5.8*1B
$GNGGA,032740.800,2500.7902958,N,12132.4755209,E,4,52,0.50,16.792,M,15.25,M,1,3335*44
$GNRMC,032740.800,A,2500.7902958,N,12132.4755209,E,0.15,209.07,090324,,,R,V*13
$GPHDT,,T*1B
$GNACCURACY,5.8*1B
$GNGGA,032740.900,2500.7902992,N,12132.4755209,E,4,53,0.50,16.794,M,15.25,M,0,3335*45
$GNRMC,032740.900,A,2500.7902992,N,12132.4755209,E,0.11,209.07,090324,,,R,V*10
$GPHDT,,T*1B
$GNACCURACY,5.8*1B
$GNGGA,032741.000,2500.7902990,N,12132.4755195,E,4,53,0.50,16.796,M,15.25,M,1,3335*4A
$GNRMC,032741.000,A,2500.7902990,N,12132.4755195,E,0.11,209.07,090324,,,R,V*1C
$GPHDT,,T*1B
$GNGSA,A,3,08,194,195,27,21,16,04,09,02,196,26,31,0.78,0.50,0.60,1*32
$GNGSA,A,3,88,78,81,87,79,,,,,,,,0.78,0.50,0.60,2*09
$GNGSA,A,3,21,13,19,27,26,15,,,,,,,0.78,0.50,0.60,3*03
$GNGSA,A,3,06,16,09,43,39,40,07,23,11,25,28,34,0.78,0.50,0.60,4*05
$GPGSV,4,1,15,08,72,305,22,199,64,166,,194,63,046,32,195,58,123,38,1*5D
$GPGSV,4,2,15,27,50,027,36,45,47,231,35,21,39,169,42,16,35,055,22,1*62
$GPGSV,4,3,15,04,32,216,27,09,30,267,17,02,28,181,39,07,25,320,14,1*63
$GPGSV,4,4,15,196,21,173,24,26,17,084,28,31,15,137,17,1*6F
$GPGSV,2,1,07,194,63,046,26,195,58,123,41,27,50,027,33,04,32,216,32,8*67
$GPGSV,2,2,07,09,30,267,25,196,21,173,32,26,17,084,27,8*66
$GLGSV,2,1,06,88,72,075,34,78,46,005,31,81,41,189,35,77,32,086,14,1*77
$GLGSV,2,2,06,87,21,029,13,79,12,319,19,1*75
$GAGSV,2,1,07,21,51,348,23,13,50,109,34,19,36,257,18,27,34,062,30,7*77
$GAGSV,2,2,07,26,27,175,36,15,23,049,24,04,09,313,17,7*47
$GAGSV,1,1,04,13,50,109,43,27,34,062,26,26,27,175,42,15,23,049,25,1*70
$GBGSV,4,1,14,06,82,225,35,16,79,190,40,09,75,301,32,43,74,061,27,1*72
$GBGSV,4,2,14,39,68,176,44,40,66,316,37,07,63,294,19,23,61,356,29,1*7D
$GBGSV,4,3,14,10,52,277,21,11,49,045,31,25,47,096,40,28,39,208,35,1*7E
$GBGSV,4,4,14,34,26,041,21,57,,,26,1*40
$GBGSV,2,1,07,43,74,061,21,39,68,176,45,40,66,316,34,23,61,356,32,4*72
$GBGSV,2,2,07,25,47,096,40,28,39,208,34,34,26,041,30,4*43
$GNACCURACY,5.8*1B
$PAIRSAT,1,35,2,0,201,3,0,200,4,0,221,5,0,200,6,0,200,7,0,201,8,0,221,9,0,221,10,0,200,11,0,200,12,0,200,13,0,200,14,0,200,15,0,200,16,0,201,17,0,200,18,0,200,19,0,200,20,0,200,21,0,201,22,0,200,23,0,200,24,0,200,25,0,200,26,0,221,27,0,221,28,0,200,29,0,200,30,0,200,31,0,201,32,0,200,194,0,621,195,0,621,196,0,620,199,0,600*5B
$PAIRSAT,2,23,65,0,200,66,0,200,67,0,200,68,0,200,70,0,200,71,0,200,72,0,200,73,0,200,74,0,200,75,0,200,76,0,200,77,0,201,78,0,201,79,0,201,80,0,200,81,0,201,82,0,200,83,0,200,84,0,200,85,0,200,86,0,200,87,0,201,88,0,201*5C
$PAIRSAT,3,23,2,0,1200,3,0,1200,4,0,1200,5,0,200,7,0,1200,8,0,1200,9,0,1200,10,0,1200,11,0,1200,12,0,1200,13,0,1221,15,0,1221,19,0,1221,21,0,1221,24,0,1200,25,0,1200,26,0,1221,27,0,1221,30,0,1200,31,0,1200,33,0,1200,34,0,1200,36,0,1200*6A
$PAIRSAT,4,46,1,0,200,2,0,200,3,0,600,4,0,200,5,0,200,6,0,201,7,0,201,8,0,200,9,0,201,10,0,201,11,0,201,12,0,200,13,0,200,14,0,200,16,0,201,19,0,600,20,0,600,21,0,600,22,0,600,23,0,621,24,0,600,25,0,621,26,0,600,27,0,600,28,0,621,29,0,600,30,0,600,32,0,600,33,0,600,34,0,621,35,0,600,36,0,600,37,0,600,38,0,600,39,0,621,40,0,421,41,0,600,42,0,600,43,0,621,44,0,400,45,0,400,46,0,400,59,0,400,60,0,400,61,0,400,62,0,400*4A
$PAIRDGP,8,2,4,7,8,9,16,21,27*7C
$GNGGA,032741.100,2500.7902975,N,12132.4755219,E,4,53,0.50,16.785,M,15.25,M,1,3335*45
$GNRMC,032741.100,A,2500.7902975,N,12132.4755219,E,0.06,209.07,090324,,,R,V*17
$GPHDT,,T*1B
$GNACCURACY,5.8*1B
$GNGGA,032741.200,2500.7903005,N,12132.4755194,E,4,53,0.50,16.781,M,15.25,M,1,3335*4B
$GNRMC,032741.200,A,2500.7903005,N,12132.4755194,E,0.07,209.07,090324,,,R,V*1C
$GPHDT,,T*1B
$GNACCURACY,5.8*1B
$GNGGA,032741.300,2500.7903000,N,12132.4755215,E,4,53,0.50,16.759,M,15.25,M,1,3335*40
$GNRMC,032741.300,A,2500.7903000,N,12132.4755215,E,0.06,209.07,090324,,,R,V*13
$GPHDT,,T*1B
$GNACCURACY,5.8*1B
$GNGGA,032741.400,2500.7902992,N,12132.4755180,E,4,53,0.50,16.800,M,15.25,M,1,3335*48
$GNRMC,032741.400,A,2500.7902992,N,12132.4755180,E,0.28,209.07,090324,,,R,V*14
$GPHDT,,T*1B
$GNACCURACY,5.8*1B
$GNGGA,032741.500,2500.7903006,N,12132.4755218,E,4,53,0.50,16.777,M,15.25,M,1,3335*41
$GNRMC,032741.500,A,2500.7903006,N,12132.4755218,E,0.29,209.07,090324,,,R,V*13
$GPHDT,,T*1B
$GNACCURACY,5.8*1B
$GNGGA,032741.600,2500.7902975,N,12132.4755189,E,4,53,0.50,16.782,M,15.25,M,0,3335*4E
$GNRMC,032741.600,A,2500.7902975,N,12132.4755189,E,0.17,209.07,090324,,,R,V*1A
$GPHDT,,T*1B
$GNACCURACY,5.8*1B
$GNGGA,032741.700,2500.7902960,N,12132.4755192,E,4,54,0.50,16.816,M,15.25,M,0,3335*44
$GNRMC,032741.700,A,2500.7902960,N,12132.4755192,E,0.27,209.07,090324,,,R,V*16
$GPHDT,,T*1B
$GNACCURACY,5.8*1B
$GNGGA,032741.800,2500.7902996,N,12132.4755179,E,4,55,0.50,16.807,M,15.25,M,0,3335*46
$GNRMC,032741.800,A,2500.7902996,N,12132.4755179,E,0.13,209.07,090324,,,R,V*12
$GPHDT,,T*1B
$GNACCURACY,5.8*1B
$GNGGA,032741.900,2500.7902967,N,12132.4755202,E,4,56,0.50,16.809,M,15.25,M,0,3335*4B
$GNRMC,032741.900,A,2500.7902967,N,12132.4755202,E,0.28,209.07,090324,,,R,V*1A
$GPHDT,,T*1B
$GNACCURACY,5.8*1B
$GNGGA,032742.000,2500.7902989,N,12132.4755151,E,4,56,0.50,16.816,M,15.25,M,1,3335*4B
$GNRMC,032742.000,A,2500.7902989,N,12132.4755151,E,0.38,209.07,090324,,,R,V*14
$GPHDT,,T*1B
$GNGSA,A,3,08,194,195,27,21,16,04,09,02,196,26,31,0.80,0.51,0.61,1*35
$GNGSA,A,3,88,78,81,79,,,,,,,,,0.80,0.51,0.61,2*01
$GNGSA,A,3,21,13,19,27,26,15,,,,,,,0.80,0.51,0.61,3*04
$GNGSA,A,3,06,16,09,43,39,40,07,23,11,25,28,34,0.80,0.51,0.61,4*02
$GPGSV,4,1,15,08,72,305,22,199,64,166,,194,63,046,33,195,58,123,39,1*5D
$GPGSV,4,2,15,27,50,027,36,45,47,231,35,21,40,169,42,16,35,055,21,1*6F
$GPGSV,4,3,15,04,32,216,27,09,30,267,17,02,28,181,39,07,25,320,14,1*63
$GPGSV,4,4,15,196,21,173,24,26,17,084,28,31,15,137,17,1*6F
$GPGSV,2,1,08,08,72,305,22,194,63,046,27,195,58,123,41,27,50,027,34,8*64
$GPGSV,2,2,08,04,32,216,32,09,30,267,24,196,21,173,33,26,17,084,29,8*56
$GLGSV,2,1,06,88,72,075,34,78,46,005,32,81,41,189,35,77,32,086,17,1*77
$GLGSV,2,2,06,87,21,029,14,79,12,319,19,1*72
$GAGSV,2,1,07,21,51,348,23,13,50,109,35,19,36,257,18,27,34,062,30,7*76
$GAGSV,2,2,07,26,27,175,36,15,23,049,24,04,09,313,15,7*45
$GAGSV,2,1,06,21,51,348,23,13,50,109,43,19,36,257,17,27,34,062,25,1*7B
$GAGSV,2,2,06,26,27,175,42,15,23,049,25,1*78
$GBGSV,4,1,14,06,82,225,35,16,79,190,40,09,75,301,33,43,74,061,27,1*73
$GBGSV,4,2,14,39,68,176,44,40,66,316,37,07,63,294,19,23,61,356,30,1*75
$GBGSV,4,3,14,10,52,277,21,11,49,045,31,25,47,096,40,28,39,208,35,1*7E
$GBGSV,4,4,14,34,26,041,24,57,,,26,1*45
$GBGSV,2,1,07,43,74,061,24,39,68,176,45,40,66,316,34,23,61,356,32,4*77
$GBGSV,2,2,07,25,47,096,41,28,39,208,34,34,26,041,30,4*42
$GNACCURACY,5.8*1B
$PAIRSAT,1,35,2,0,201,3,0,200,4,0,221,5,0,200,6,0,200,7,0,201,8,0,221,9,0,221,10,0,200,11,0,200,12,0,200,13,0,200,14,0,200,15,0,200,16,0,201,17,0,200,18,0,200,19,0,200,20,0,200,21,0,201,22,0,200,23,0,200,24,0,200,25,0,200,26,0,221,27,0,221,28,0,200,29,0,200,30,0,200,31,0,201,32,0,200,194,0,621,195,0,621,196,0,620,199,0,600*5B
$PAIRSAT,2,23,65,0,200,66,0,200,67,0,200,68,0,200,70,0,200,71,0,200,72,0,200,73,0,200,74,0,200,75,0,200,76,0,200,77,0,201,78,0,201,79,0,201,80,0,200,81,0,201,82,0,200,83,0,200,84,0,200,85,0,200,86,0,200,87,0,201,88,0,201*5C
$PAIRSAT,3,23,2,0,1200,3,0,1200,4,0,1200,5,0,200,7,0,1200,8,0,1200,9,0,1200,10,0,1200,11,0,1200,12,0,1200,13,0,1221,15,0,1221,19,0,1221,21,0,1221,24,0,1200,25,0,1200,26,0,1221,27,0,1221,30,0,1200,31,0,1200,33,0,1200,34,0,1200,36,0,1200*6A
$PAIRSAT,4,46,1,0,200,2,0,200,3,0,600,4,0,200,5,0,200,6,0,201,7,0,201,8,0,200,9,0,201,10,0,201,11,0,201,12,0,200,13,0,200,14,0,200,16,0,201,19,0,600,20,0,600,21,0,600,22,0,600,23,0,621,24,0,600,25,0,621,26,0,600,27,0,600,28,0,621,29,0,600,30,0,600,32,0,600,33,0,600,34,0,621,35,0,600,36,0,600,37,0,600,38,0,600,39,0,621,40,0,421,41,0,600,42,0,600,43,0,621,44,0,400,45,0,400,46,0,400,59,0,400,60,0,400,61,0,400,62,0,400*4A
$PAIRDGP,8,2,4,7,8,9,16,21,27*7C
$GNGGA,032742.100,2500.7902993,N,12132.4755235,E,4,55,0.51,16.811,M,15.25,M,1,3335*45
$GNRMC,032742.100,A,2500.7902993,N,12132.4755235,E,0.10,209.07,090324,,,R,V*15
$GPHDT,,T*1B
$GNACCURACY,5.8*1B
$GNGGA,032742.200,2500.7902993,N,12132.4755232,E,4,55,0.51,16.795,M,15.25,M,1,3335*42
$GNRMC,032742.200,A,2500.7902993,N,12132.4755232,E,0.18,209.07,090324,,,R,V*19
$GPHDT,,T*1B
$GNACCURACY,5.8*1B
$GNGGA,032742.300,2500.7902965,N,12132.4755225,E,4,55,0.51,16.812,M,15.25,M,1,3335*4C
$GNRMC,032742.300,A,2500.7902965,N,12132.4755225,E,0.06,209.07,090324,,,R,V*18
$GPHDT,,T*1B
$GNACCURACY,5.8*1B
$GNGGA,032742.400,2500.7902994,N,12132.4755202,E,4,55,0.51,16.812,M,15.25,M,1,3335*40
$GNRMC,032742.400,A,2500.7902994,N,12132.4755202,E,0.02,209.07,090324,,,R,V*10
$GPHDT,,T*1B
$GNACCURACY,5.8*1B
$GNGGA,032742.500,2500.7902986,N,12132.4755198,E,4,55,0.51,16.813,M,15.25,M,1,3335*43
$GNRMC,032742.500,A,2500.7902986,N,12132.4755198,E,0.19,209.07,090324,,,R,V*18
$GPHDT,,T*1B
$GNACCURACY,5.8*1B
$GNGGA,032742.600,2500.7902999,N,12132.4755221,E,4,55,0.51,16.810,M,15.25,M,1,3335*4C
$GNRMC,032742.600,A,2500.7902999,N,12132.4755221,E,0.10,209.07,090324,,,R,V*1D
$GPHDT,,T*1B
$GNACCURACY,5.8*1B
$GNGGA,032742.700,2500.7903023,N,12132.4755191,E,4,55,0.51,16.768,M,15.25,M,0,3335*4D
$GNRMC,032742.700,A,2500.7903023,N,12132.4755191,E,0.15,209.07,090324,,,R,V*18
$GPHDT,,T*1B
$GNACCURACY,5.8*1B
$GNGGA,032742.800,2500.7902988,N,12132.4755187,E,4,56,0.50,16.787,M,15.25,M,0,3335*4F
$GNRMC,032742.800,A,2500.7902988,N,12132.4755187,E,0.28,209.07,090324,,,R,V*17
$GPHDT,,T*1B
$GNACCURACY,5.8*1B
$GNGGA,032742.900,2500.7903007,N,12132.4755173,E,4,56,0.50,16.792,M,15.25,M,0,3335*4E
$GNRMC,032742.900,A,2500.7903007,N,12132.4755173,E,0.18,209.07,090324,,,R,V*11
$GPHDT,,T*1B
$GNACCURACY,5.8*1B
$GNGGA,032743.000,2500.7902999,N,12132.4755167,E,4,56,0.50,16.792,M,15.25,M,1,3335*4D
$GNRMC,032743.000,A,2500.7902999,N,12132.4755167,E,0.07,209.07,090324,,,R,V*1D
$GPHDT,,T*1B
$GNGSA,A,3,08,194,195,27,21,16,04,09,02,196,26,31,0.79,0.50,0.61,1*32
$GNGSA,A,3,88,78,81,77,79,,,,,,,,0.79,0.50,0.61,2*06
$GNGSA,A,3,21,13,19,27,26,15,,,,,,,0.79,0.50,0.61,3*03
$GNGSA,A,3,06,16,09,43,39,40,07,23,11,25,28,34,0.79,0.50,0.61,4*05
$GPGSV,4,1,15,08,72,305,22,199,64,166,,194,63,046,33,195,58,123,39,1*5D
$GPGSV,4,2,15,27,50,027,36,45,47,231,35,21,40,169,42,16,35,055,20,1*6E
$GPGSV,4,3,15,04,32,216,28,09,30,267,17,02,28,181,39,07,25,320,16,1*6E
$GPGSV,4,4,15,196,21,173,22,26,17,084,29,31,15,137,18,1*67
$GPGSV,2,1,08,08,72,305,23,194,63,046,28,195,58,123,41,27,50,027,33,8*6D
$GPGSV,2,2,08,04,32,216,32,09,30,267,24,196,21,173,33,26,17,084,29,8*56
$GLGSV,2,1,06,88,72,075,34,78,46,005,32,81,41,189,36,77,32,086,17,1*74
$GLGSV,2,2,06,87,21,029,15,79,12,319,19,1*73
$GAGSV,2,1,07,21,51,348,23,13,50,109,35,19,36,257,18,27,34,062,30,7*76
$GAGSV,2,2,07,26,27,175,36,15,23,049,24,04,09,313,13,7*43
$GAGSV,2,1,06,21,51,348,23,13,50,109,43,19,36,257,17,27,34,062,25,1*7B
$GAGSV,2,2,06,26,27,175,42,15,23,049,24,1*79
$GBGSV,4,1,14,06,82,225,35,16,79,190,40,09,75,301,33,43,74,061,27,1*73
$GBGSV,4,2,14,39,68,176,45,40,66,316,37,07,63,294,19,23,61,356,30,1*74
$GBGSV,4,3,14,10,52,277,22,11,49,045,30,25,47,096,40,28,39,208,35,1*7C
$GBGSV,4,4,14,34,26,041,24,57,,,25,1*46
$GBGSV,2,1,07,43,74,061,25,39,68,176,45,40,66,316,34,23,61,356,32,4*76
$GBGSV,2,2,07,25,47,096,41,28,39,208,34,34,26,041,30,4*42
$GNACCURACY,5.8*1B
$PAIRSAT,1,35,2,0,201,3,0,200,4,0,221,5,0,200,6,0,200,7,0,201,8,0,221,9,0,221,10,0,200,11,0,200,12,0,200,13,0,200,14,0,200,15,0,200,16,0,201,17,0,200,18,0,200,19,0,200,20,0,200,21,0,201,22,0,200,23,0,200,24,0,200,25,0,200,26,0,221,27,0,221,28,0,200,29,0,200,30,0,200,31,0,201,32,0,200,194,0,621,195,0,621,196,0,620,199,0,600*5B
$PAIRSAT,2,23,65,0,200,66,0,200,67,0,200,68,0,200,70,0,200,71,0,200,72,0,200,73,0,200,74,0,200,75,0,200,76,0,200,77,0,201,78,0,201,79,0,201,80,0,200,81,0,201,82,0,200,83,0,200,84,0,200,85,0,200,86,0,200,87,0,201,88,0,201*5C
$PAIRSAT,3,23,2,0,1200,3,0,1200,4,0,1200,5,0,200,7,0,1200,8,0,1200,9,0,1200,10,0,1200,11,0,1200,12,0,1200,13,0,1221,15,0,1221,19,0,1221,21,0,1221,24,0,1200,25,0,1200,26,0,1221,27,0,1221,30,0,1200,31,0,1200,33,0,1200,34,0,1200,36,0,1200*6A
$PAIRSAT,4,46,1,0,200,2,0,200,3,0,600,4,0,200,5,0,200,6,0,201,7,0,201,8,0,200,9,0,201,10,0,201,11,0,201,12,0,200,13,0,200,14,0,200,16,0,201,19,0,600,20,0,600,21,0,600,22,0,600,23,0,621,24,0,600,25,0,621,26,0,600,27,0,600,28,0,621,29,0,600,30,0,600,32,0,600,33,0,600,34,0,621,35,0,600,36,0,600,37,0,600,38,0,600,39,0,621,40,0,421,41,0,600,42,0,600,43,0,621,44,0,400,45,0,400,46,0,400,59,0,400,60,0,400,61,0,400,62,0,400*4A
$PAIRDGP,8,2,4,7,8,9,16,21,27*7C
$GNGGA,032743.100,2500.7902975,N,12132.4755221,E,4,56,0.50,16.790,M,15.25,M,1,3335*4D
$GNRMC,032743.100,A,2500.7902975,N,12132.4755221,E,0.06,209.07,090324,,,R,V*1E
$GPHDT,,T*1B
$GNACCURACY,5.8*1B
$GNGGA,032743.200,2500.7903009,N,12132.4755169,E,4,56,0.50,16.777,M,15.25,M,1,3335*4B
$GNRMC,032743.200,A,2500.7903009,N,12132.4755169,E,0.13,209.07,090324,,,R,V*15
$GPHDT,,T*1B
$GNACCURACY,5.8*1B
$GNGGA,032743.300,2500.7902997,N,12132.4755186,E,4,56,0.50,16.779,M,15.25,M,1,3335*4A
$GNRMC,032743.300,A,2500.7902997,N,12132.4755186,E,0.06,209.07,090324,,,R,V*1E
$GPHDT,,T*1B
$GNACCURACY,5.8*1B
$GNGGA,032743.400,2500.7902989,N,12132.4755144,E,4,56,0.50,16.785,M,15.25,M,1,3335*4F
$GNRMC,032743.400,A,2500.7902989,N,12132.4755144,E,0.15,209.07,090324,,,R,V*1A
$GPHDT,,T*1B
$GNACCURACY,5.8*1B
$GNGGA,032743.500,2500.7902980,N,12132.4755177,E,4,56,0.50,16.782,M,15.25,M,1,3335*40
$GNRMC,032743.500,A,2500.7902980,N,12132.4755177,E,0.10,209.07,090324,,,R,V*17
$GPHDT,,T*1B
$GNACCURACY,5.8*1B
$GNGGA,032743.600,2500.7902985,N,12132.4755211,E,4,56,0.50,16.794,M,15.25,M,1,3335*42
$GNRMC,032743.600,A,2500.7902985,N,12132.4755211,E,0.17,209.07,090324,,,R,V*15
$GPHDT,,T*1B
$GNACCURACY,5.8*1B
$GNGGA,032743.700,2500.7902979,N,12132.4755210,E,4,56,0.50,16.778,M,15.25,M,1,3335*43
$GNRMC,032743.700,A,2500.7902979,N,12132.4755210,E,0.17,209.07,090324,,,R,V*16
$GPHDT,,T*1B
$GNACCURACY,5.8*1B
$GNGGA,032743.800,2500.7902966,N,12132.4755255,E,4,56,0.50,16.801,M,15.25,M,1,3335*42
$GNRMC,032743.800,A,2500.7902966,N,12132.4755255,E,0.25,209.07,090324,,,R,V*17
$GPHDT,,T*1B
$GNACCURACY,5.8*1B
$GNGGA,032743.900,2500.7902965,N,12132.4755202,E,4,56,0.50,16.804,M,15.25,M,0,3335*46
$GNRMC,032743.900,A,2500.7902965,N,12132.4755202,E,0.34,209.07,090324,,,R,V*17
$GPHDT,,T*1B
$GNACCURACY,5.8*1B
$GNGGA,032744.000,2500.7902956,N,12132.4755230,E,4,56,0.50,16.803,M,15.25,M,1,3335*4F
$GNRMC,032744.000,A,2500.7902956,N,12132.4755230,E,0.02,209.07,090324,,,R,V*1D
$GPHDT,,T*1B
$GNGSA,A,3,08,194,195,27,21,16,04,09,02,196,26,31,0.79,0.50,0.61,1*32
$GNGSA,A,3,88,78,81,77,79,,,,,,,,0.79,0.50,0.61,2*06
$GNGSA,A,3,21,13,19,27,26,15,,,,,,,0.79,0.50,0.61,3*03
$GNGSA,A,3,06,16,09,43,39,40,07,23,11,25,28,34,0.79,0.50,0.61,4*05
$GPGSV,4,1,15,08,72,305,23,199,64,166,,194,63,046,32,195,58,123,39,1*5D
$GPGSV,4,2,15,27,50,027,36,45,47,231,34,21,40,169,42,16,35,055,23,1*6C
$GPGSV,4,3,15,04,32,216,28,09,30,267,18,02,28,181,39,07,25,320,16,1*61
$GPGSV,4,4,15,196,21,173,24,26,17,084,29,31,15,137,18,1*61
$GPGSV,2,1,08,08,72,305,22,194,63,046,28,195,58,123,41,27,50,027,33,8*6C
$GPGSV,2,2,08,04,32,216,32,09,30,267,24,196,21,173,33,26,17,084,30,8*5E
$GLGSV,2,1,06,88,72,075,34,78,46,005,32,81,41,189,36,77,32,086,17,1*74
$GLGSV,2,2,06,87,21,029,17,79,12,319,20,1*7B
$GAGSV,2,1,07,21,51,348,23,13,50,109,35,19,36,257,18,27,34,062,30,7*76
$GAGSV,2,2,07,26,27,175,36,15,23,049,25,04,09,313,09,7*49
$GAGSV,2,1,06,21,51,348,23,13,50,109,43,19,36,257,17,27,34,062,25,1*7B
$GAGSV,2,2,06,26,27,175,42,15,23,049,24,1*79
$GBGSV,4,1,15,06,82,225,35,16,79,190,40,09,75,301,33,43,74,061,25,1*70
$GBGSV,4,2,15,39,68,176,45,40,66,316,37,07,63,294,19,23,61,356,30,1*75
$GBGSV,4,3,15,10,52,277,22,11,49,045,31,25,47,096,40,28,39,208,35,1*7C
$GBGSV,4,4,15,34,26,041,23,37,17,314,,57,,,25,1*74
$GBGSV,2,1,07,43,74,061,24,39,68,176,45,40,66,316,35,23,61,356,32,4*76
$GBGSV,2,2,07,25,47,096,41,28,39,208,34,34,26,041,30,4*42
$GNACCURACY,5.8*1B
$PAIRSAT,1,35,2,0,201,3,0,200,4,0,221,5,0,200,6,0,200,7,0,201,8,0,221,9,0,221,10,0,200,11,0,200,12,0,200,13,0,200,14,0,200,15,0,200,16,0,201,17,0,200,18,0,200,19,0,200,20,0,200,21,0,201,22,0,200,23,0,200,24,0,200,25,0,200,26,0,221,27,0,221,28,0,200,29,0,200,30,0,200,31,0,201,32,0,200,194,0,621,195,0,621,196,0,620,199,0,600*5B
$PAIRSAT,2,23,65,0,200,66,0,200,67,0,200,68,0,200,70,0,200,71,0,200,72,0,200,73,0,200,74,0,200,75,0,200,76,0,200,77,0,201,78,0,201,79,0,201,80,0,200,81,0,201,82,0,200,83,0,200,84,0,200,85,0,200,86,0,200,87,0,201,88,0,201*5C
$PAIRSAT,3,23,2,0,1200,3,0,1200,4,0,1200,5,0,200,7,0,1200,8,0,1200,9,0,1200,10,0,1200,11,0,1200,12,0,1200,13,0,1221,15,0,1221,19,0,1221,21,0,1221,24,0,1200,25,0,1200,26,0,1221,27,0,1221,30,0,1200,31,0,1200,33,0,1200,34,0,1200,36,0,1200*6A
$PAIRSAT,4,46,1,0,200,2,0,200,3,0,600,4,0,200,5,0,200,6,0,201,7,0,201,8,0,200,9,0,201,10,0,201,11,0,201,12,0,200,13,0,200,14,0,200,16,0,201,19,0,600,20,0,600,21,0,600,22,0,600,23,0,621,24,0,600,25,0,621,26,0,600,27,0,600,28,0,621,29,0,600,30,0,600,32,0,600,33,0,600,34,0,621,35,0,600,36,0,600,37,0,600,38,0,600,39,0,621,40,0,421,41,0,600,42,0,600,43,0,621,44,0,400,45,0,400,46,0,400,59,0,400,60,0,400,61,0,400,62,0,400*4A
$PAIRDGP,8,2,4,7,8,9,16,21,27*7C
$GNGGA,032744.100,2500.7902986,N,12132.4755200,E,4,56,0.50,16.786,M,15.25,M,1,3335*42
$GNRMC,032744.100,A,2500.7902986,N,12132.4755200,E,0.15,209.07,090324,,,R,V*14
$GPHDT,,T*1B
$GNACCURACY,5.8*1B
$GNGGA,032744.200,2500.7902983,N,12132.4755204,E,4,56,0.50,16.775,M,15.25,M,1,3335*4C
$GNRMC,032744.200,A,2500.7902983,N,12132.4755204,E,0.05,209.07,090324,,,R,V*17
$GPHDT,,T*1B
$GNACCURACY,5.8*1B
$GNGGA,032744.300,2500.7902952,N,12132.4755226,E,4,56,0.50,16.800,M,15.25,M,1,3335*4C
$GNRMC,032744.300,A,2500.7902952,N,12132.4755226,E,0.03,209.07,090324,,,R,V*1C
$GPHDT,,T*1B
$GNACCURACY,5.8*1B
$GNGGA,032744.400,2500.7903017,N,12132.4755152,E,4,56,0.50,16.792,M,15.25,M,1,3335*46
$GNRMC,032744.400,A,2500.7903017,N,12132.4755152,E,0.09,209.07,090324,,,R,V*18
$GPHDT,,T*1B
$GNACCURACY,5.8*1B
$GNGGA,032744.500,2500.7903024,N,12132.4755118,E,4,55,0.50,16.803,M,15.25,M,1,3335*4D
$GNRMC,032744.500,A,2500.7903024,N,12132.4755118,E,0.19,209.07,090324,,,R,V*16
$GPHDT,,T*1B
$GNACCURACY,5.8*1B
$GNGGA,032744.600,2500.7902997,N,12132.4755117,E,4,56,0.50,16.798,M,15.25,M,0,3335*4E
$GNRMC,032744.600,A,2500.7902997,N,12132.4755117,E,0.10,209.07,090324,,,R,V*13
$GPHDT,,T*1B
$GNACCURACY,5.7*14
$GNGGA,032744.700,2500.7902975,N,12132.4755226,E,4,56,0.50,16.792,M,15.25,M,0,3335*48
$GNRMC,032744.700,A,2500.7902975,N,12132.4755226,E,0.09,209.07,090324,,,R,V*17
$GPHDT,,T*1B
$GNACCURACY,5.7*14
$GNGGA,032744.800,2500.7902977,N,12132.4755188,E,4,56,0.50,16.798,M,15.25,M,0,3335*48
$GNRMC,032744.800,A,2500.7902977,N,12132.4755188,E,0.22,209.07,090324,,,R,V*14
$GPHDT,,T*1B
$GNACCURACY,5.7*14
$GNGGA,032744.900,2500.7902963,N,12132.4755251,E,4,57,0.47,16.801,M,15.25,M,0,3335*43
$GNRMC,032744.900,A,2500.7902963,N,12132.4755251,E,0.16,209.07,090324,,,R,V*10
$GPHDT,,T*1B
$GNACCURACY,5.7*14
$GNGGA,032745.000,2500.7902937,N,12132.4755263,E,4,57,0.47,16.795,M,15.25,M,1,3335*48
$GNRMC,032745.000,A,2500.7902937,N,12132.4755263,E,0.26,209.07,090324,,,R,V*1B
$GPHDT,,T*1B
$GNGSA,A,3,08,194,195,27,21,16,04,09,02,07,196,26,0.76,0.47,0.59,1*35
$GNGSA,A,3,31,,,,,,,,,,,,0.76,0.47,0.59,1*0D
$GNGSA,A,3,88,78,81,77,87,79,,,,,,,0.76,0.47,0.59,2*0B
$GNGSA,A,3,21,13,19,27,26,15,,,,,,,0.76,0.47,0.59,3*01
$GNGSA,A,3,06,16,09,43,39,40,07,23,11,25,28,34,0.76,0.47,0.59,4*07
$GPGSV,4,1,15,08,72,305,23,199,64,166,,194,63,046,31,195,58,123,39,1*5E
$GPGSV,4,2,15,27,50,027,36,45,47,231,34,21,40,169,41,16,35,055,26,1*6A
$GPGSV,4,3,15,04,32,216,27,09,30,267,18,02,28,181,39,07,25,320,17,1*6F
$GPGSV,4,4,15,196,21,173,24,26,17,084,28,31,15,137,18,1*60
$GPGSV,2,1,08,08,72,305,22,194,63,046,28,195,58,123,41,27,50,027,32,8*6D
$GPGSV,2,2,08,04,32,216,31,09,30,267,24,196,21,173,32,26,17,084,29,8*54
$GLGSV,2,1,07,88,72,075,32,78,46,005,31,81,41,189,36,77,32,086,19,1*7E
$GLGSV,2,2,07,87,21,029,17,68,13,254,,79,12,319,22,1*47
$GAGSV,2,1,07,21,51,348,22,13,50,108,36,19,36,257,19,27,34,062,30,7*74
$GAGSV,2,2,07,26,27,175,36,15,23,049,24,04,09,313,12,7*42
$GAGSV,2,1,05,21,51,348,21,13,50,108,43,27,34,062,25,26,27,175,42,1*74
$GAGSV,2,2,05,15,23,049,23,1*49
$GBGSV,4,1,16,06,82,225,35,16,79,190,40,09,75,301,33,43,74,061,26,1*70
$GBGSV,4,2,16,39,68,176,45,40,66,316,37,07,63,294,20,23,61,356,28,1*75
$GBGSV,4,3,16,10,52,277,23,11,49,045,29,25,47,096,39,28,39,208,34,1*78
$GBGSV,4,4,16,34,26,041,22,32,05,256,,38,04,171,,57,,,26,1*4C
$GBGSV,2,1,07,43,74,061,21,39,68,176,45,40,66,316,35,23,61,356,32,4*73
$GBGSV,2,2,07,25,47,096,41,28,39,208,34,34,26,041,30,4*42
$GNACCURACY,5.7*14
$PAIRSAT,1,35,2,0,201,3,0,200,4,0,221,5,0,200,6,0,200,7,0,201,8,0,221,9,0,221,10,0,200,11,0,200,12,0,200,13,0,200,14,0,200,15,0,200,16,0,201,17,0,200,18,0,200,19,0,200,20,0,200,21,0,201,22,0,200,23,0,200,24,0,200,25,0,200,26,0,221,27,0,221,28,0,200,29,0,200,30,0,200,31,0,201,32,0,200,194,0,621,195,0,621,196,0,620,199,0,600*5B
$PAIRSAT,2,23,65,0,200,66,0,200,67,0,200,68,0,200,70,0,200,71,0,200,72,0,200,73,0,200,74,0,200,75,0,200,76,0,200,77,0,201,78,0,201,79,0,201,80,0,200,81,0,201,82,0,200,83,0,200,84,0,200,85,0,200,86,0,200,87,0,201,88,0,201*5C
$PAIRSAT,3,23,2,0,1200,3,0,1200,4,0,1200,5,0,200,7,0,1200,8,0,1200,9,0,1200,10,0,1200,11,0,1200,12,0,1200,13,0,1221,15,0,1221,19,0,1221,21,0,1221,24,0,1200,25,0,1200,26,0,1221,27,0,1221,30,0,1200,31,0,1200,33,0,1200,34,0,1200,36,0,1200*6A
$PAIRSAT,4,46,1,0,200,2,0,200,3,0,600,4,0,200,5,0,200,6,0,201,7,0,201,8,0,200,9,0,201,10,0,201,11,0,201,12,0,200,13,0,200,14,0,200,16,0,201,19,0,600,20,0,600,21,0,600,22,0,600,23,0,621,24,0,600,25,0,621,26,0,600,27,0,600,28,0,621,29,0,600,30,0,600,32,0,600,33,0,600,34,0,621,35,0,600,36,0,600,37,0,600,38,0,600,39,0,621,40,0,421,41,0,600,42,0,600,43,0,621,44,0,400,45,0,400,46,0,400,59,0,400,60,0,400,61,0,400,62,0,400*4A
$PAIRDGP,8,2,4,7,8,9,16,21,27*7C
$GNGGA,032745.100,2500.7902956,N,12132.4755225,E,4,57,0.47,16.805,M,15.25,M,1,3335*4A
$GNRMC,032745.100,A,2500.7902956,N,12132.4755225,E,0.06,209.07,090324,,,R,V*1D
$GPHDT,,T*1B
$GNACCURACY,5.7*14
$GNGGA,032745.200,2500.7902973,N,12132.4755268,E,4,56,0.50,16.801,M,15.25,M,1,3335*44
$GNRMC,032745.200,A,2500.7902973,N,12132.4755268,E,0.19,209.07,090324,,,R,V*1E
$GPHDT,,T*1B
$GNACCURACY,5.6*15
$GNGGA,032745.300,2500.7902941,N,12132.4755183,E,4,57,0.48,16.827,M,15.25,M,1,3335*4E
$GNRMC,032745.300,A,2500.7902941,N,12132.4755183,E,0.02,209.07,090324,,,R,V*12
$GPHDT,,T*1B
$GNACCURACY,5.6*15
$GNGGA,032745.400,2500.7902952,N,12132.4755267,E,4,56,0.50,16.805,M,15.25,M,1,3335*4A
$GNRMC,032745.400,A,2500.7902952,N,12132.4755267,E,0.04,209.07,090324,,,R,V*18
$GPHDT,,T*1B
$GNACCURACY,5.6*15
$GNGGA,032745.500,2500.7902952,N,12132.4755222,E,4,55,0.50,16.822,M,15.25,M,1,3335*4C
$GNRMC,032745.500,A,2500.7902952,N,12132.4755222,E,0.13,209.07,090324,,,R,V*1E
$GPHDT,,T*1B
$GNACCURACY,5.6*15
$GNGGA,032745.600,2500.7902992,N,12132.4755216,E,4,55,0.50,16.774,M,15.25,M,0,3335*49
$GNRMC,032745.600,A,2500.7902992,N,12132.4755216,E,0.15,209.07,090324,,,R,V*10
$GPHDT,,T*1B
$GNACCURACY,5.6*15
$GNGGA,032745.700,2500.7902999,N,12132.4755257,E,4,55,0.50,16.771,M,15.25,M,0,3335*43
$GNRMC,032745.700,A,2500.7902999,N,12132.4755257,E,0.06,209.07,090324,,,R,V*1D
$GPHDT,,T*1B
$GNACCURACY,5.6*15
$GNGGA,032745.800,2500.7902990,N,12132.4755234,E,4,55,0.50,16.767,M,15.25,M,0,3335*47
$GNRMC,032745.800,A,2500.7902990,N,12132.4755234,E,0.13,209.07,090324,,,R,V*1A
$GPHDT,,T*1B
$GNACCURACY,5.6*15
$GNGGA,032745.900,2500.7903071,N,12132.4755476,E,4,56,0.50,16.696,M,15.25,M,0,3335*4D
$GNRMC,032745.900,A,2500.7903071,N,12132.4755476,E,0.09,209.07,090324,,,R,V*17
$GPHDT,,T*1B
$GNACCURACY,5.6*15
$GNGGA,032746.000,2500.7902978,N,12132.4755154,E,4,56,0.50,16.806,M,15.25,M,1,3335*45
$GNRMC,032746.000,A,2500.7902978,N,12132.4755154,E,0.37,209.07,090324,,,R,V*14
$GPHDT,,T*1B
$GNGSA,A,3,08,194,195,27,21,16,04,09,02,196,26,31,0.89,0.49,0.74,1*31
$GNGSA,A,3,88,78,81,77,87,79,,,,,,,0.89,0.49,0.74,2*0A
$GNGSA,A,3,21,13,19,27,26,15,,,,,,,0.89,0.49,0.74,3*00
$GNGSA,A,3,06,16,09,43,39,40,07,23,10,11,25,28,0.89,0.49,0.74,4*00
$GNGSA,A,3,34,,,,,,,,,,,,0.89,0.49,0.74,4*0C
$GPGSV,4,1,15,08,72,305,21,199,64,166,,194,63,046,32,195,58,123,40,1*51
$GPGSV,4,2,15,27,50,027,36,45,47,231,34,21,40,169,40,16,35,055,26,1*6B
$GPGSV,4,3,15,04,32,216,26,09,30,267,18,02,28,181,39,07,25,320,16,1*6F
$GPGSV,4,4,15,196,21,173,22,26,17,084,29,31,15,137,18,1*67
$GPGSV,2,1,08,08,72,305,25,194,63,046,30,195,58,123,41,27,50,027,31,8*60
$GPGSV,2,2,08,04,32,216,31,09,30,267,24,196,21,173,32,26,17,084,28,8*55
$GLGSV,2,1,07,88,72,075,32,78,46,005,32,81,41,189,37,77,32,086,18,1*7D
$GLGSV,2,2,07,87,21,029,16,68,13,254,,79,12,319,21,1*45
$GAGSV,2,1,07,21,51,349,23,13,50,108,37,19,36,257,19,27,34,062,30,7*75
$GAGSV,2,2,07,26,27,175,36,15,23,049,26,04,09,313,16,7*44
$GAGSV,2,1,05,21,51,349,22,13,50,108,43,27,34,062,25,26,27,175,42,1*76
$GAGSV,2,2,05,15,23,049,21,1*4B
$GBGSV,4,1,15,06,82,225,35,16,79,190,41,09,75,301,33,43,74,061,26,1*72
$GBGSV,4,2,15,39,68,176,45,40,66,316,37,07,63,294,20,23,61,356,30,1*7F
$GBGSV,4,3,15,10,52,277,24,11,49,045,30,25,47,096,35,28,39,208,34,1*78
$GBGSV,4,4,15,34,26,041,20,32,05,256,,57,,,26,1*75
$GBGSV,2,1,07,43,74,061,24,39,68,176,45,40,66,316,34,23,61,356,32,4*77
$GBGSV,2,2,07,25,47,096,40,28,39,208,35,34,26,041,30,4*42
$GNACCURACY,5.5*16
$PAIRSAT,1,35,2,0,201,3,0,200,4,0,221,5,0,200,6,0,200,7,0,201,8,0,221,9,0,221,10,0,200,11,0,200,12,0,200,13,0,200,14,0,200,15,0,200,16,0,201,17,0,200,18,0,200,19,0,200,20,0,200,21,0,201,22,0,200,23,0,200,24,0,200,25,0,200,26,0,221,27,0,221,28,0,200,29,0,200,30,0,200,31,0,201,32,0,200,194,0,621,195,0,621,196,0,620,199,0,600*5B
$PAIRSAT,2,23,65,0,200,66,0,200,67,0,200,68,0,200,70,0,200,71,0,200,72,0,200,73,0,200,74,0,200,75,0,200,76,0,200,77,0,201,78,0,201,79,0,201,80,0,200,81,0,201,82,0,200,83,0,200,84,0,200,85,0,200,86,0,200,87,0,201,88,0,201*5C
$PAIRSAT,3,23,2,0,1200,3,0,1200,4,0,1200,5,0,200,7,0,1200,8,0,1200,9,0,1200,10,0,1200,11,0,1200,12,0,1200,13,0,1221,15,0,1221,19,0,1221,21,0,1221,24,0,1200,25,0,1200,26,0,1221,27,0,1221,30,0,1200,31,0,1200,33,0,1200,34,0,1200,36,0,1200*6A
$PAIRSAT,4,46,1,0,200,2,0,200,3,0,600,4,0,200,5,0,200,6,0,201,7,0,201,8,0,200,9,0,201,10,0,201,11,0,201,12,0,200,13,0,200,14,0,200,16,0,201,19,0,600,20,0,600,21,0,600,22,0,600,23,0,621,24,0,600,25,0,621,26,0,600,27,0,600,28,0,621,29,0,600,30,0,600,32,0,600,33,0,600,34,0,621,35,0,600,36,0,600,37,0,600,38,0,600,39,0,621,40,0,421,41,0,600,42,0,600,43,0,621,44,0,400,45,0,400,46,0,400,59,0,400,60,0,400,61,0,400,62,0,400*4A
$PAIRDGP,8,2,4,7,8,9,16,21,27*7C
$GNGGA,032746.100,2500.7902998,N,12132.4755267,E,4,57,0.49,16.785,M,15.25,M,1,3335*44
$GNRMC,032746.100,A,2500.7902998,N,12132.4755267,E,0.23,209.07,090324,,,R,V*1D
$GPHDT,,T*1B
$GNACCURACY,5.5*16
$GNGGA,032746.200,2500.7902979,N,12132.4755287,E,4,57,0.49,16.776,M,15.25,M,1,3335*4A
$GNRMC,032746.200,A,2500.7902979,N,12132.4755287,E,0.07,209.07,090324,,,R,V*19
$GPHDT,,T*1B
$GNACCURACY,5.5*16
$GNGGA,032746.300,2500.7903086,N,12132.4755508,E,4,57,0.49,16.694,M,15.25,M,1,3335*4E
$GNRMC,032746.300,A,2500.7903086,N,12132.4755508,E,0.12,209.07,090324,,,R,V*14
$GPHDT,,T*1B
$GNACCURACY,5.5*16
$GNGGA,032746.400,2500.7903043,N,12132.4755454,E,4,57,0.49,16.715,M,15.25,M,1,3335*40
$GNRMC,032746.400,A,2500.7903043,N,12132.4755454,E,0.11,209.07,090324,,,R,V*11
$GPHDT,,T*1B
$GNACCURACY,5.5*16
$GNGGA,032746.500,2500.7902980,N,12132.4755223,E,4,57,0.49,16.758,M,15.25,M,0,3335*48
$GNRMC,032746.500,A,2500.7902980,N,12132.4755223,E,0.21,209.07,090324,,,R,V*12
$GPHDT,,T*1B
$GNACCURACY,5.5*16
$GNGGA,032746.600,2500.7902979,N,12132.4755346,E,4,57,0.49,16.779,M,15.25,M,0,3335*4C
$GNRMC,032746.600,A,2500.7902979,N,12132.4755346,E,0.09,209.07,090324,,,R,V*1F
$GPHDT,,T*1B
$GNACCURACY,5.5*16
$GNGGA,032746.700,2500.7902968,N,12132.4755311,E,4,57,0.49,16.786,M,15.25,M,0,3335*4F
$GNRMC,032746.700,A,2500.7902968,N,12132.4755311,E,0.11,209.07,090324,,,R,V*15
$GPHDT,,T*1B
$GNACCURACY,5.5*16
$GNGGA,032746.800,2500.7902974,N,12132.4755261,E,4,56,0.50,16.793,M,15.25,M,0,3335*46
$GNRMC,032746.800,A,2500.7902974,N,12132.4755261,E,0.22,209.07,090324,,,R,V*11
$GPHDT,,T*1B
$GNACCURACY,5.5*16
$GNGGA,032746.900,2500.7902992,N,12132.4755358,E,4,56,0.50,16.774,M,15.25,M,0,3335*4D
$GNRMC,032746.900,A,2500.7902992,N,12132.4755358,E,0.07,209.07,090324,,,R,V*14
$GPHDT,,T*1B
$GNACCURACY,5.5*16
$GNGGA,032747.000,2500.7902985,N,12132.4755298,E,4,56,0.50,16.785,M,15.25,M,1,3335*41
$GNRMC,032747.000,A,2500.7902985,N,12132.4755298,E,0.10,209.07,090324,,,R,V*11
$GPHDT,,T*1B
$GNGSA,A,3,08,194,195,27,21,16,04,09,02,196,26,31,0.89,0.50,0.74,1*39
$GNGSA,A,3,88,78,81,77,87,79,,,,,,,0.89,0.50,0.74,2*02
$GNGSA,A,3,21,13,19,27,26,15,,,,,,,0.89,0.50,0.74,3*08
$GNGSA,A,3,06,16,09,43,39,40,07,23,11,25,28,34,0.89,0.50,0.74,4*0E
$GPGSV,4,1,15,08,72,305,20,199,64,166,,194,63,046,32,195,58,123,40,1*50
$GPGSV,4,2,15,27,50,027,36,45,47,231,34,21,40,169,40,16,35,055,26,1*6B
$GPGSV,4,3,15,04,32,216,26,09,30,267,18,02,28,181,39,07,25,320,16,1*6F
$GPGSV,4,4,15,196,21,173,22,26,17,084,28,31,15,137,18,1*66
$GPGSV,2,1,08,08,72,305,24,194,63,046,29,195,58,123,41,27,50,027,30,8*68
$GPGSV,2,2,08,04,32,216,32,09,30,267,24,196,21,173,32,26,17,084,29,8*57
$GLGSV,2,1,07,88,72,075,33,78,46,005,32,81,41,189,37,77,32,086,18,1*7C
$GLGSV,2,2,07,87,21,029,17,79,12,319,19,67,02,209,,1*48
$GAGSV,2,1,07,21,51,349,23,13,50,108,37,19,36,257,19,27,34,062,30,7*75
$GAGSV,2,2,07,26,27,175,37,15