$FW : RTK35X,V1.1X0314AS,Lib20210517,1*54
$Tool : LOCOSYS , GNSS Firebird , v1.0.0.19*39
$---------------------------------------------------*2D
MC,032052.700,A,2500.7870022,N,12132.4710278,E,0.04,46.08,090324,,,D,V*3F
$GPHDT,,T*1B
$GNACCURACY,5.3*10
$GNGGA,032052.800,2500.7870022,N,12132.4710278,E,2,55,0.47,16.673,M,15.25,M,0,3335*4F
$GNRMC,032052.800,A,2500.7870022,N,12132.4710278,E,0.08,46.08,090324,,,D,V*3C
$GPHDT,,T*1B
$GNACCURACY,5.3*10
$GNGGA,032052.900,2500.7870022,N,12132.4710278,E,2,55,0.47,16.675,M,15.25,M,0,3335*48
$GNRMC,032052.900,A,2500.7870022,N,12132.4710278,E,0.07,46.08,090324,,,D,V*32
$GPHDT,,T*1B
$GNACCURACY,5.3*10
$GNGGA,032053.000,2500.7870022,N,12132.4710218,E,2,54,0.50,16.674,M,15.25,M,1,3335*41
$GNRMC,032053.000,A,2500.7870022,N,12132.4710218,E,0.08,46.08,090324,,,D,V*33
$GPHDT,,T*1B
$GNGSA,A,3,08,194,195,27,16,21,04,02,196,31,26,09,0.78,0.50,0.60,1*32
$GNGSA,A,3,88,78,77,87,79,,,,,,,,0.78,0.50,0.60,2*00
$GNGSA,A,3,21,13,19,27,26,15,,,,,,,0.78,0.50,0.60,3*03
$GNGSA,A,3,06,16,43,09,39,40,07,23,10,11,25,28,0.78,0.50,0.60,4*03
$GNGSA,A,3,34,,,,,,,,,,,,0.78,0.50,0.60,4*0F
$GPGSV,4,1,15,08,72,293,22,199,66,164,,194,63,045,28,195,57,124,22,1*58
$GPGSV,4,2,15,27,53,026,34,45,47,231,30,16,36,052,36,21,36,171,44,1*66
$GPGSV,4,3,15,04,34,219,33,09,31,271,13,02,25,182,30,07,23,320,19,1*61
$GPGSV,4,4,15,196,21,174,35,31,18,135,19,26,18,081,25,1*6E
$GPGSV,2,1,08,08,72,293,33,194,63,045,27,195,57,124,31,27,53,026,20,8*61
$GPGSV,2,2,08,04,34,219,36,09,31,271,19,196,21,174,38,26,18,081,30,8*5D
$GLGSV,2,1,05,88,72,088,34,78,44,001,18,77,33,082,21,87,24,031,20,1*7B
$GLGSV,2,2,05,79,10,317,18,1*4E
$GAGSV,2,1,06,21,50,345,22,13,48,112,28,19,37,261,13,27,34,059,30,7*72
$GAGSV,2,2,06,26,25,175,33,15,24,052,39,7*7A
$GAGSV,2,1,05,13,48,112,21,19,37,261,19,27,34,059,33,26,25,175,38,1*78
$GAGSV,2,2,05,15,24,052,34,1*42
$GBGSV,4,1,13,06,83,231,22,16,81,187,30,43,76,072,24,09,74,306,21,1*76
$GBGSV,4,2,13,39,69,174,29,40,67,313,23,07,63,291,21,23,59,353,19,1*70
$GBGSV,4,3,13,10,52,274,23,11,51,048,26,25,49,092,28,28,36,206,40,1*7D
$GBGSV,4,4,13,34,28,041,37,1*48
$GBGSV,2,1,06,39,69,174,30,40,67,313,27,23,59,353,25,25,49,092,28,4*77
$GBGSV,2,2,06,28,36,206,35,34,28,041,37,4*74
$GNACCURACY,5.3*10
$PAIRSAT,1,29,2,0,201,3,0,200,4,0,221,5,0,200,6,0,200,7,0,201,8,0,21,9,0,21,14,0,200,15,0,200,16,0,201,17,0,200,18,0,200,19,0,200,20,0,200,21,0,201,22,0,200,23,0,200,24,0,200,25,0,200,26,0,221,27,0,221,28,0,200,29,0,200,31,0,1,194,0,421,195,0,621,196,0,220,199,0,600*50
$PAIRSAT,2,16,70,0,200,71,0,200,72,0,200,74,0,200,75,0,200,76,0,200,77,0,201,78,0,201,79,0,201,82,0,200,83,0,200,84,0,200,85,0,200,86,0,200,87,0,201,88,0,201*7C
$PAIRSAT,3,20,2,0,1200,3,0,1200,4,0,1200,5,0,200,7,0,1200,8,0,1200,9,0,1200,10,0,200,13,0,21,15,0,21,19,0,21,21,0,221,25,0,1200,26,0,1201,27,0,1221,30,0,1200,31,0,1200,33,0,1200,34,0,1200,36,0,1200*72
$PAIRSAT,4,46,1,0,200,2,0,200,3,0,400,4,0,200,5,0,200,6,0,201,7,0,201,8,0,200,9,0,201,10,0,201,11,0,201,12,0,200,13,0,200,14,0,200,16,0,201,19,0,400,20,0,400,21,0,400,22,0,400,23,0,421,24,0,600,25,0,621,26,0,600,27,0,400,28,0,621,29,0,600,30,0,600,32,0,600,33,0,600,34,0,621,35,0,600,36,0,600,37,0,600,38,0,400,39,0,421,40,0,421,41,0,400,42,0,400,43,0,421,44,0,400,45,0,400,46,0,400,59,0,400,60,0,400,61,0,400,62,0,400*4A
$PAIRDGP,8,2,4,7,8,9,16,21,27*7C
$GNGGA,032053.100,2500.7870022,N,12132.4710218,E,2,54,0.50,16.673,M,15.25,M,1,3335*47
$GNRMC,032053.100,A,2500.7870022,N,12132.4710218,E,0.05,46.08,090324,,,D,V*3F
$GPHDT,,T*1B
$GNACCURACY,5.3*10
$GNGGA,032053.200,2500.7870022,N,12132.4710218,E,2,54,0.50,16.670,M,15.25,M,1,3335*47
$GNRMC,032053.200,A,2500.7870022,N,12132.4710218,E,0.07,46.08,090324,,,D,V*3E
$GPHDT,,T*1B
$GNACCURACY,5.3*10
$GNGGA,032053.300,2500.7870022,N,12132.4710218,E,2,54,0.50,16.669,M,15.25,M,1,3335*4E
$GNRMC,032053.300,A,2500.7870022,N,12132.4710218,E,0.06,46.08,090324,,,D,V*3E
$GPHDT,,T*1B
$GNACCURACY,5.3*10
$GNGGA,032053.400,2500.7870022,N,12132.4710158,E,2,54,0.50,16.667,M,15.25,M,1,3335*40
$GNRMC,032053.400,A,2500.7870022,N,12132.4710158,E,0.05,46.08,090324,,,D,V*3D
$GPHDT,,T*1B
$GNACCURACY,5.3*10
$GNGGA,032053.500,2500.7870022,N,12132.4710158,E,2,54,0.50,16.667,M,15.25,M,1,3335*41
$GNRMC,032053.500,A,2500.7870022,N,12132.4710158,E,0.12,46.08,090324,,,D,V*3A
$GPHDT,,T*1B
$GNACCURACY,5.2*11
$GNGGA,032053.600,2500.7870022,N,12132.4710158,E,2,53,0.50,16.667,M,15.25,M,1,3335*45
$GNRMC,032053.600,A,2500.7870022,N,12132.4710158,E,0.06,46.08,090324,,,D,V*3C
$GPHDT,,T*1B
$GNACCURACY,5.2*11
$GNGGA,032053.700,2500.7869962,N,12132.4710158,E,2,53,0.50,16.666,M,15.25,M,0,3335*41
$GNRMC,032053.700,A,2500.7869962,N,12132.4710158,E,0.16,46.08,090324,,,D,V*39
$GPHDT,,T*1B
$GNACCURACY,5.2*11
$GNGGA,032053.800,2500.7869962,N,12132.4710158,E,2,54,0.50,16.668,M,15.25,M,0,3335*47
$GNRMC,032053.800,A,2500.7869962,N,12132.4710158,E,0.04,46.08,090324,,,D,V*35
$GPHDT,,T*1B
$GNACCURACY,5.2*11
$GNGGA,032053.900,2500.7869962,N,12132.4710158,E,2,54,0.50,16.671,M,15.25,M,0,3335*4E
$GNRMC,032053.900,A,2500.7869962,N,12132.4710158,E,0.04,46.08,090324,,,D,V*34
$GPHDT,,T*1B
$GNACCURACY,5.2*11
$GNGGA,032054.000,2500.7869962,N,12132.4710158,E,2,55,0.47,16.673,M,15.25,M,1,3335*44
$GNRMC,032054.000,A,2500.7869962,N,12132.4710158,E,0.06,46.08,090324,,,D,V*38
$GPHDT,,T*1B
$GNGSA,A,3,08,194,195,27,16,21,04,02,07,196,31,26,0.75,0.47,0.58,1*3C
$GNGSA,A,3,09,,,,,,,,,,,,0.75,0.47,0.58,1*04
$GNGSA,A,3,88,78,77,87,79,,,,,,,,0.75,0.47,0.58,2*00
$GNGSA,A,3,21,13,19,27,26,15,,,,,,,0.75,0.47,0.58,3*03
$GNGSA,A,3,06,16,43,09,39,40,07,23,10,11,25,28,0.75,0.47,0.58,4*03
$GNGSA,A,3,34,,,,,,,,,,,,0.75,0.47,0.58,4*0F
$GPGSV,4,1,15,08,72,293,29,199,66,164,,194,63,045,29,195,57,124,22,1*52
$GPGSV,4,2,15,27,53,026,30,45,47,231,32,16,36,052,34,21,36,171,44,1*62
$GPGSV,4,3,15,04,34,219,34,09,31,271,16,02,25,182,34,07,23,320,20,1*6D
$GPGSV,4,4,15,196,21,174,35,31,18,135,18,26,18,081,24,1*6E
$GPGSV,2,1,08,08,72,293,34,194,63,045,27,195,57,124,30,27,53,026,21,8*66
$GPGSV,2,2,08,04,34,219,36,09,31,271,19,196,21,174,39,26,18,081,28,8*55
$GLGSV,2,1,05,88,72,088,34,78,44,001,17,77,33,082,21,87,24,031,21,1*75
$GLGSV,2,2,05,79,10,317,21,1*44
$GAGSV,2,1,06,21,50,345,22,13,48,112,26,19,37,261,15,27,34,059,28,7*73
$GAGSV,2,2,06,26,25,175,34,15,24,052,39,7*7D
$GAGSV,2,1,05,13,48,112,22,19,37,261,20,27,34,059,33,26,25,175,39,1*70
$GAGSV,2,2,05,15,24,052,34,1*42
$GBGSV,4,1,13,06,83,231,26,16,81,187,27,43,76,072,33,09,74,306,27,1*74
$GBGSV,4,2,13,39,69,174,31,40,67,313,20,07,63,291,23,23,59,353,21,1*73
$GBGSV,4,3,13,10,52,274,24,11,51,048,25,25,49,092,28,28,36,206,40,1*79
$GBGSV,4,4,13,34,28,041,37,1*48
$GBGSV,2,1,06,39,69,174,30,40,67,313,27,23,59,353,24,25,49,092,29,4*77
$GBGSV,2,2,06,28,36,206,36,34,28,041,36,4*76
$GNACCURACY,5.2*11
$PAIRSAT,1,29,2,0,201,3,0,200,4,0,221,5,0,200,6,0,200,7,0,201,8,0,21,9,0,21,14,0,200,15,0,200,16,0,201,17,0,200,18,0,200,19,0,200,20,0,200,21,0,201,22,0,200,23,0,200,24,0,200,25,0,200,26,0,221,27,0,221,28,0,200,29,0,200,31,0,1,194,0,421,195,0,621,196,0,220,199,0,600*50
$PAIRSAT,2,16,70,0,200,71,0,200,72,0,200,74,0,200,75,0,200,76,0,200,77,0,201,78,0,201,79,0,201,82,0,200,83,0,200,84,0,200,85,0,200,86,0,200,87,0,201,88,0,201*7C
$PAIRSAT,3,20,2,0,1200,3,0,1200,4,0,1200,5,0,200,7,0,1200,8,0,1200,9,0,1200,10,0,200,13,0,21,15,0,21,19,0,21,21,0,221,25,0,1200,26,0,1201,27,0,1221,30,0,1200,31,0,1200,33,0,1200,34,0,1200,36,0,1200*72
$PAIRSAT,4,46,1,0,200,2,0,200,3,0,400,4,0,200,5,0,200,6,0,201,7,0,201,8,0,200,9,0,201,10,0,201,11,0,201,12,0,200,13,0,200,14,0,200,16,0,201,19,0,400,20,0,400,21,0,400,22,0,400,23,0,421,24,0,600,25,0,621,26,0,600,27,0,400,28,0,621,29,0,600,30,0,600,32,0,600,33,0,600,34,0,621,35,0,600,36,0,600,37,0,600,38,0,400,39,0,421,40,0,421,41,0,400,42,0,400,43,0,421,44,0,400,45,0,400,46,0,400,59,0,400,60,0,400,61,0,400,62,0,400*4A
$PAIRDGP,8,2,4,7,8,9,16,21,27*7C
$GNGGA,032054.100,2500.7869962,N,12132.4710158,E,2,55,0.47,16.671,M,15.25,M,1,3335*47
$GNRMC,032054.100,A,2500.7869962,N,12132.4710158,E,0.05,46.08,090324,,,D,V*3A
$GPHDT,,T*1B
$GNACCURACY,5.2*11
$GNGGA,032054.200,2500.7869962,N,12132.4710158,E,2,55,0.47,16.673,M,15.25,M,1,3335*46
$GNRMC,032054.200,A,2500.7869962,N,12132.4710158,E,0.13,46.08,090324,,,D,V*3E
$GPHDT,,T*1B
$GNACCURACY,5.2*11
$GNGGA,032054.300,2500.7869962,N,12132.4710098,E,2,54,0.47,16.674,M,15.25,M,1,3335*4C
$GNRMC,032054.300,A,2500.7869962,N,12132.4710098,E,0.03,46.08,090324,,,D,V*33
$GPHDT,,T*1B
$GNACCURACY,5.2*11
$GNGGA,032054.400,2500.7869962,N,12132.4710098,E,2,54,0.47,16.675,M,15.25,M,1,3335*4A
$GNRMC,032054.400,A,2500.7869962,N,12132.4710098,E,0.02,46.08,090324,,,D,V*35
$GPHDT,,T*1B
$GNACCURACY,5.2*11
$GNGGA,032054.500,2500.7869902,N,12132.4710098,E,2,54,0.47,16.677,M,15.25,M,1,3335*4F
$GNRMC,032054.500,A,2500.7869902,N,12132.4710098,E,0.09,46.08,090324,,,D,V*39
$GPHDT,,T*1B
$GNACCURACY,5.2*11
$GNGGA,032054.600,2500.7869902,N,12132.4710098,E,2,54,0.47,16.678,M,15.25,M,0,3335*42
$GNRMC,032054.600,A,2500.7869902,N,12132.4710098,E,0.04,46.08,090324,,,D,V*37
$GPHDT,,T*1B
$GNACCURACY,5.1*12
$GNGGA,032054.700,2500.7869902,N,12132.4710098,E,2,54,0.47,16.679,M,15.25,M,0,3335*42
$GNRMC,032054.700,A,2500.7869902,N,12132.4710098,E,0.20,46.08,090324,,,D,V*30
$GPHDT,,T*1B
$GNACCURACY,5.2*11
$GNGGA,032054.800,2500.7869842,N,12132.4710098,E,2,54,0.47,16.680,M,15.25,M,0,3335*4E
$GNRMC,032054.800,A,2500.7869842,N,12132.4710098,E,0.12,46.08,090324,,,D,V*3B
$GPHDT,,T*1B
$GNACCURACY,5.2*11
$GNGGA,032054.900,2500.7869842,N,12132.4710158,E,2,54,0.47,16.681,M,15.25,M,0,3335*43
$GNRMC,032054.900,A,2500.7869842,N,12132.4710158,E,0.19,46.08,090324,,,D,V*3C
$GPHDT,,T*1B
$GNACCURACY,5.2*11
$GNGGA,032055.000,2500.7869782,N,12132.4710158,E,2,54,0.47,16.680,M,15.25,M,1,3335*48
$GNRMC,032055.000,A,2500.7869782,N,12132.4710158,E,0.04,46.08,090324,,,D,V*3B
$GPHDT,,T*1B
$GNGSA,A,3,08,194,195,27,16,21,04,02,07,196,31,09,0.75,0.47,0.58,1*31
$GNGSA,A,3,26,,,,,,,,,,,,0.75,0.47,0.58,1*09
$GNGSA,A,3,88,78,77,87,79,,,,,,,,0.75,0.47,0.58,2*00
$GNGSA,A,3,21,13,19,27,26,15,,,,,,,0.75,0.47,0.58,3*03
$GNGSA,A,3,06,16,43,09,39,40,07,23,10,11,25,28,0.75,0.47,0.58,4*03
$GNGSA,A,3,34,,,,,,,,,,,,0.75,0.47,0.58,4*0F
$GPGSV,4,1,15,08,72,293,30,199,66,164,,194,63,045,28,195,57,124,25,1*5C
$GPGSV,4,2,15,27,53,026,31,45,47,231,33,16,36,052,34,21,36,171,46,1*60
$GPGSV,4,3,15,04,34,219,30,09,31,271,17,02,25,182,39,07,23,320,16,1*60
$GPGSV,4,4,15,196,21,174,36,31,18,135,16,26,18,081,20,1*67
$GPGSV,2,1,08,08,72,293,35,194,63,045,24,195,57,124,30,27,53,026,23,8*66
$GPGSV,2,2,08,04,34,219,36,09,31,271,19,196,21,174,42,26,18,081,25,8*54
$GLGSV,2,1,05,88,72,088,35,78,44,001,20,77,33,082,21,87,24,031,20,1*71
$GLGSV,2,2,05,79,10,317,22,1*47
$GAGSV,2,1,06,21,50,345,23,13,48,112,27,19,37,261,19,27,34,059,25,7*72
$GAGSV,2,2,06,26,25,175,32,15,24,052,36,7*74
$GAGSV,2,1,05,13,48,112,31,19,37,261,20,27,34,059,26,26,25,175,44,1*7C
$GAGSV,2,2,05,15,24,052,29,1*4E
$GBGSV,4,1,13,06,83,231,23,16,81,187,28,43,76,072,33,09,74,306,25,1*7C
$GBGSV,4,2,13,39,69,174,29,40,67,313,18,07,63,291,24,23,59,353,27,1*70
$GBGSV,4,3,13,10,52,274,26,11,51,048,26,25,49,092,28,28,36,206,40,1*78
$GBGSV,4,4,13,34,28,041,37,1*48
$GBGSV,2,1,06,39,69,174,29,40,67,313,30,23,59,353,21,25,49,092,30,4*74
$GBGSV,2,2,06,28,36,206,35,34,28,041,35,4*76
$GNACCURACY,5.2*11
$PAIRSAT,1,29,2,0,201,3,0,200,4,0,221,5,0,200,6,0,200,7,0,201,8,0,21,9,0,21,14,0,200,15,0,200,16,0,201,17,0,200,18,0,200,19,0,200,20,0,200,21,0,201,22,0,200,23,0,200,24,0,200,25,0,200,26,0,221,27,0,221,28,0,200,29,0,200,31,0,1,194,0,421,195,0,621,196,0,220,199,0,600*50
$PAIRSAT,2,16,70,0,200,71,0,200,72,0,200,74,0,200,75,0,200,76,0,200,77,0,201,78,0,201,79,0,201,82,0,200,83,0,200,84,0,200,85,0,200,86,0,200,87,0,201,88,0,201*7C
$PAIRSAT,3,20,2,0,1200,3,0,1200,4,0,1200,5,0,200,7,0,1200,8,0,1200,9,0,1200,10,0,200,13,0,21,15,0,21,19,0,21,21,0,221,25,0,1200,26,0,1201,27,0,1221,30,0,1200,31,0,1200,33,0,1200,34,0,1200,36,0,1200*72
$PAIRSAT,4,46,1,0,200,2,0,200,3,0,400,4,0,200,5,0,200,6,0,201,7,0,201,8,0,200,9,0,201,10,0,201,11,0,201,12,0,200,13,0,200,14,0,200,16,0,201,19,0,400,20,0,400,21,0,400,22,0,400,23,0,421,24,0,600,25,0,621,26,0,600,27,0,400,28,0,621,29,0,600,30,0,600,32,0,600,33,0,600,34,0,621,35,0,600,36,0,600,37,0,600,38,0,400,39,0,421,40,0,421,41,0,400,42,0,400,43,0,421,44,0,400,45,0,400,46,0,400,59,0,400,60,0,400,61,0,400,62,0,400*4A
$PAIRDGP,8,2,4,7,8,9,16,21,27*7C
$GNGGA,032055.100,2500.7869782,N,12132.4710158,E,2,54,0.47,16.680,M,15.25,M,1,3335*49
$GNRMC,032055.100,A,2500.7869782,N,12132.4710158,E,0.07,46.08,090324,,,D,V*39
$GPHDT,,T*1B
$GNACCURACY,5.2*11
$GNGGA,032055.200,2500.7869782,N,12132.4710158,E,2,54,0.47,16.680,M,15.25,M,1,3335*4A
$GNRMC,032055.200,A,2500.7869782,N,12132.4710158,E,0.08,46.08,090324,,,D,V*35
$GPHDT,,T*1B
$GNACCURACY,5.2*11
$GNGGA,032055.300,2500.7869782,N,12132.4710218,E,2,54,0.47,16.681,M,15.25,M,1,3335*4D
$GNRMC,032055.300,A,2500.7869782,N,12132.4710218,E,0.13,46.08,090324,,,D,V*39
$GPHDT,,T*1B
$GNACCURACY,5.2*11
$GNGGA,032055.400,2500.7869722,N,12132.4710218,E,2,54,0.47,16.678,M,15.25,M,1,3335*46
$GNRMC,032055.400,A,2500.7869722,N,12132.4710218,E,0.07,46.08,090324,,,D,V*31
$GPHDT,,T*1B
$GNACCURACY,5.2*11
$GNGGA,032055.500,2500.7869722,N,12132.4710218,E,2,54,0.47,16.677,M,15.25,M,1,3335*48
$GNRMC,032055.500,A,2500.7869722,N,12132.4710218,E,0.16,46.08,090324,,,D,V*30
$GPHDT,,T*1B
$GNACCURACY,5.2*11
$GNGGA,032055.600,2500.7869722,N,12132.4710218,E,2,54,0.47,16.676,M,15.25,M,1,3335*4A
$GNRMC,032055.600,A,2500.7869722,N,12132.4710218,E,0.10,46.08,090324,,,D,V*35
$GPHDT,,T*1B
$GNACCURACY,5.2*11
$GNGGA,032055.700,2500.7869722,N,12132.4710158,E,2,54,0.47,16.671,M,15.25,M,1,3335*4B
$GNRMC,032055.700,A,2500.7869722,N,12132.4710158,E,0.18,46.08,090324,,,D,V*3B
$GPHDT,,T*1B
$GNACCURACY,5.2*11
$GNGGA,032055.800,2500.7869722,N,12132.4710158,E,2,54,0.47,16.669,M,15.25,M,0,3335*4C
$GNRMC,032055.800,A,2500.7869722,N,12132.4710158,E,0.06,46.08,090324,,,D,V*3B
$GPHDT,,T*1B
$GNACCURACY,5.2*11
$GNGGA,032055.900,2500.7869722,N,12132.4710158,E,2,54,0.47,16.664,M,15.25,M,0,3335*40
$GNRMC,032055.900,A,2500.7869722,N,12132.4710158,E,0.16,46.08,090324,,,D,V*3B
$GPHDT,,T*1B
$GNACCURACY,5.2*11
$GNGGA,032056.000,2500.7869782,N,12132.4710098,E,2,54,0.47,16.662,M,15.25,M,1,3335*4A
$GNRMC,032056.000,A,2500.7869782,N,12132.4710098,E,0.09,46.08,090324,,,D,V*38
$GPHDT,,T*1B
$GNGSA,A,3,08,194,195,27,16,21,04,02,07,196,31,09,0.75,0.47,0.58,1*31
$GNGSA,A,3,26,,,,,,,,,,,,0.75,0.47,0.58,1*09
$GNGSA,A,3,88,78,77,87,79,,,,,,,,0.75,0.47,0.58,2*00
$GNGSA,A,3,21,13,19,27,26,15,,,,,,,0.75,0.47,0.58,3*03
$GNGSA,A,3,06,16,43,09,39,40,07,23,10,11,25,28,0.75,0.47,0.58,4*03
$GNGSA,A,3,34,,,,,,,,,,,,0.75,0.47,0.58,4*0F
$GPGSV,4,1,15,08,72,294,28,199,66,164,,194,63,045,29,195,57,124,25,1*53
$GPGSV,4,2,15,27,53,026,29,45,47,231,33,16,36,052,34,21,36,171,46,1*69
$GPGSV,4,3,15,04,34,219,35,09,31,270,17,02,25,182,33,07,23,320,16,1*6E
$GPGSV,4,4,15,196,21,174,31,31,18,135,15,26,18,081,20,1*63
$GPGSV,2,1,08,08,72,294,35,194,63,045,24,195,57,124,33,27,53,026,24,8*65
$GPGSV,2,2,08,04,34,219,36,09,31,270,19,196,21,174,43,26,18,081,24,8*55
$GLGSV,2,1,05,88,72,088,35,78,44,001,24,77,33,082,23,87,24,031,20,1*77
$GLGSV,2,2,05,79,10,317,22,1*47
$GAGSV,2,1,06,21,50,345,24,13,48,112,28,19,37,261,19,27,34,059,24,7*7B
$GAGSV,2,2,06,26,25,175,27,15,24,052,35,7*73
$GAGSV,2,1,05,13,48,112,30,19,37,261,23,27,34,059,27,26,25,175,44,1*7F
$GAGSV,2,2,05,15,24,052,27,1*40
$GBGSV,4,1,13,06,83,231,20,16,81,187,27,43,76,072,33,09,74,306,28,1*7D
$GBGSV,4,2,13,39,69,174,28,40,67,313,18,07,63,291,24,23,59,353,29,1*7F
$GBGSV,4,3,13,10,52,274,26,11,51,048,28,25,49,092,31,28,36,206,40,1*7E
$GBGSV,4,4,13,34,28,041,37,1*48
$GBGSV,2,1,06,39,69,174,30,40,67,313,30,23,59,353,20,25,49,092,30,4*7D
$GBGSV,2,2,06,28,36,206,34,34,28,041,35,4*77
$GNACCURACY,5.2*11
$PAIRSAT,1,29,2,0,201,3,0,200,4,0,221,5,0,200,6,0,200,7,0,201,8,0,21,9,0,21,14,0,200,15,0,200,16,0,201,17,0,200,18,0,200,19,0,200,20,0,200,21,0,201,22,0,200,23,0,200,24,0,200,25,0,200,26,0,221,27,0,221,28,0,200,29,0,200,31,0,1,194,0,421,195,0,621,196,0,220,199,0,600*50
$PAIRSAT,2,17,70,0,200,71,0,200,72,0,200,73,0,200,74,0,200,75,0,200,76,0,200,77,0,201,78,0,201,79,0,201,82,0,200,83,0,200,84,0,200,85,0,200,86,0,200,87,0,201,88,0,201*57
$PAIRSAT,3,20,2,0,1200,3,0,1200,4,0,1200,5,0,200,7,0,1200,8,0,1200,9,0,1200,10,0,200,13,0,21,15,0,21,19,0,21,21,0,221,25,0,1200,26,0,1201,27,0,1221,30,0,1200,31,0,1200,33,0,1200,34,0,1200,36,0,1200*72
$PAIRSAT,4,46,1,0,200,2,0,200,3,0,400,4,0,200,5,0,200,6,0,201,7,0,201,8,0,200,9,0,201,10,0,201,11,0,201,12,0,200,13,0,200,14,0,200,16,0,201,19,0,400,20,0,400,21,0,400,22,0,400,23,0,421,24,0,600,25,0,621,26,0,600,27,0,400,28,0,621,29,0,600,30,0,600,32,0,600,33,0,600,34,0,621,35,0,600,36,0,600,37,0,600,38,0,400,39,0,421,40,0,421,41,0,400,42,0,400,43,0,421,44,0,400,45,0,400,46,0,400,59,0,400,60,0,400,61,0,400,62,0,400*4A
$PAIRDGP,8,2,4,7,8,9,16,21,27*7C
$GNGGA,032056.100,2500.7869782,N,12132.4710098,E,2,54,0.47,16.659,M,15.25,M,1,3335*43
$GNRMC,032056.100,A,2500.7869782,N,12132.4710098,E,0.04,46.08,090324,,,D,V*34
$GPHDT,,T*1B
$GNACCURACY,5.2*11
$GNGGA,032056.200,2500.7869782,N,12132.4710098,E,2,54,0.47,16.657,M,15.25,M,1,3335*4E
$GNRMC,032056.200,A,2500.7869782,N,12132.4710098,E,0.04,46.08,090324,,,D,V*37
$GPHDT,,T*1B
$GNACCURACY,5.2*11
$GNGGA,032056.300,2500.7869782,N,12132.4710098,E,2,54,0.47,16.656,M,15.25,M,1,3335*4E
$GNRMC,032056.300,A,2500.7869782,N,12132.4710098,E,0.06,46.08,090324,,,D,V*34
$GPHDT,,T*1B
$GNACCURACY,5.3*10
$GNGGA,032056.400,2500.7869722,N,12132.4710038,E,2,54,0.47,16.655,M,15.25,M,1,3335*4A
$GNRMC,032056.400,A,2500.7869722,N,12132.4710038,E,0.04,46.08,090324,,,D,V*31
$GPHDT,,T*1B
$GNACCURACY,5.3*10
$GNGGA,032056.500,2500.7869722,N,12132.4710038,E,2,53,0.50,16.653,M,15.25,M,1,3335*4C
$GNRMC,032056.500,A,2500.7869722,N,12132.4710038,E,0.01,46.08,090324,,,D,V*35
$GPHDT,,T*1B
$GNACCURACY,5.3*10
$GNGGA,032056.600,2500.7869722,N,12132.4710038,E,2,54,0.50,16.651,M,15.25,M,1,3335*4A
$GNRMC,032056.600,A,2500.7869722,N,12132.4710038,E,0.06,46.08,090324,,,D,V*31
$GPHDT,,T*1B
$GNACCURACY,5.2*11
$GNGGA,032056.700,2500.7869722,N,12132.4710038,E,2,54,0.50,16.652,M,15.25,M,0,3335*49
$GNRMC,032056.700,A,2500.7869722,N,12132.4710038,E,0.01,46.08,090324,,,D,V*37
$GPHDT,,T*1B
$GNACCURACY,5.2*11
$GNGGA,032056.800,2500.7869722,N,12132.4710038,E,2,54,0.50,16.654,M,15.25,M,0,3335*40
$GNRMC,032056.800,A,2500.7869722,N,12132.4710038,E,0.06,46.08,090324,,,D,V*3F
$GPHDT,,T*1B
$GNACCURACY,5.2*11
$GNGGA,032056.900,2500.7869722,N,12132.4710038,E,2,54,0.50,16.653,M,15.25,M,0,3335*46
$GNRMC,032056.900,A,2500.7869722,N,12132.4710038,E,0.09,46.08,090324,,,D,V*31
$GPHDT,,T*1B
$GNACCURACY,5.2*11
$GNGGA,032057.000,2500.7869722,N,12132.4710038,E,2,54,0.50,16.652,M,15.25,M,1,3335*4E
$GNRMC,032057.000,A,2500.7869722,N,12132.4710038,E,0.07,46.08,090324,,,D,V*37
$GPHDT,,T*1B
$GNGSA,A,3,08,194,195,27,16,21,04,09,02,196,31,26,0.78,0.50,0.60,1*32
$GNGSA,A,3,88,78,77,87,79,,,,,,,,0.78,0.50,0.60,2*00
$GNGSA,A,3,21,13,19,27,26,15,,,,,,,0.78,0.50,0.60,3*03
$GNGSA,A,3,06,16,43,09,39,40,07,23,10,11,25,28,0.78,0.50,0.60,4*03
$GNGSA,A,3,34,,,,,,,,,,,,0.78,0.50,0.60,4*0F
$GPGSV,4,1,15,08,72,294,29,199,66,164,,194,63,045,29,195,57,124,26,1*51
$GPGSV,4,2,15,27,53,026,29,45,47,231,32,16,36,052,34,21,36,171,46,1*68
$GPGSV,4,3,15,04,34,219,35,09,31,270,19,02,25,182,33,07,23,320,16,1*60
$GPGSV,4,4,15,196,21,174,31,31,18,135,17,26,18,081,21,1*60
$GPGSV,2,1,08,08,72,294,35,194,63,045,24,195,57,124,33,27,53,026,25,8*64
$GPGSV,2,2,08,04,34,219,36,09,31,270,19,196,21,174,43,26,18,081,24,8*55
$GLGSV,2,1,05,88,72,088,35,78,44,001,24,77,33,082,23,87,24,031,20,1*77
$GLGSV,2,2,05,79,10,317,22,1*47
$GAGSV,2,1,06,21,50,345,24,13,48,112,28,19,37,261,19,27,34,059,27,7*78
$GAGSV,2,2,06,26,25,175,26,15,24,052,34,7*73
$GAGSV,2,1,05,13,48,112,30,19,37,261,23,27,34,059,27,26,25,175,44,1*7F
$GAGSV,2,2,05,15,24,052,26,1*41
$GBGSV,4,1,13,06,83,231,20,16,81,187,27,43,76,072,33,09,74,306,28,1*7D
$GBGSV,4,2,13,39,69,174,28,40,67,313,17,07,63,291,24,23,59,353,29,1*70
$GBGSV,4,3,13,10,52,274,26,11,51,048,27,25,49,092,31,28,36,206,40,1*71
$GBGSV,4,4,13,34,28,041,37,1*48
$GBGSV,2,1,06,39,69,174,30,40,67,313,31,23,59,353,21,25,49,092,31,4*7C
$GBGSV,2,2,06,28,36,206,34,34,28,041,34,4*76
$GNACCURACY,5.2*11
$PAIRSAT,1,29,2,0,201,3,0,200,4,0,221,5,0,200,6,0,200,7,0,201,8,0,21,9,0,21,14,0,200,15,0,200,16,0,201,17,0,200,18,0,200,19,0,200,20,0,200,21,0,201,22,0,200,23,0,200,24,0,200,25,0,200,26,0,221,27,0,221,28,0,200,29,0,200,31,0,1,194,0,421,195,0,621,196,0,220,199,0,600*50
$PAIRSAT,2,17,70,0,200,71,0,200,72,0,200,73,0,200,74,0,200,75,0,200,76,0,200,77,0,201,78,0,201,79,0,201,82,0,200,83,0,200,84,0,200,85,0,200,86,0,200,87,0,201,88,0,201*57
$PAIRSAT,3,20,2,0,1200,3,0,1200,4,0,1200,5,0,200,7,0,1200,8,0,1200,9,0,1200,10,0,200,13,0,21,15,0,21,19,0,21,21,0,221,25,0,1200,26,0,1201,27,0,1221,30,0,1200,31,0,1200,33,0,1200,34,0,1200,36,0,1200*72
$PAIRSAT,4,46,1,0,200,2,0,200,3,0,400,4,0,200,5,0,200,6,0,201,7,0,201,8,0,200,9,0,201,10,0,201,11,0,201,12,0,200,13,0,200,14,0,200,16,0,201,19,0,400,20,0,400,21,0,400,22,0,400,23,0,421,24,0,600,25,0,621,26,0,600,27,0,400,28,0,621,29,0,600,30,0,600,32,0,600,33,0,600,34,0,621,35,0,600,36,0,600,37,0,600,38,0,600,39,0,421,40,0,421,41,0,400,42,0,400,43,0,421,44,0,400,45,0,400,46,0,400,59,0,400,60,0,400,61,0,400,62,0,400*48
$PAIRDGP,8,2,4,7,8,9,16,21,27*7C
$GNGGA,032057.100,2500.7869722,N,12132.4710038,E,2,54,0.50,16.655,M,15.25,M,1,3335*48
$GNRMC,032057.100,A,2500.7869722,N,12132.4710038,E,0.05,46.08,090324,,,D,V*34
$GPHDT,,T*1B
$GNACCURACY,5.2*11
$GNGGA,032057.200,2500.7869662,N,12132.4709978,E,2,54,0.50,16.655,M,15.25,M,1,3335*4B
$GNRMC,032057.200,A,2500.7869662,N,12132.4709978,E,0.18,46.08,090324,,,D,V*3B
$GPHDT,,T*1B
$GNACCURACY,5.2*11
$GNGGA,032057.300,2500.7869662,N,12132.4710038,E,2,54,0.50,16.658,M,15.25,M,1,3335*42
$GNRMC,032057.300,A,2500.7869662,N,12132.4710038,E,0.12,46.08,090324,,,D,V*35
$GPHDT,,T*1B
$GNACCURACY,5.2*11
$GNGGA,032057.400,2500.7869662,N,12132.4710038,E,2,54,0.50,16.658,M,15.25,M,1,3335*45
$GNRMC,032057.400,A,2500.7869662,N,12132.4710038,E,0.14,46.08,090324,,,D,V*34
$GPHDT,,T*1B
$GNACCURACY,5.2*11
$GNGGA,032057.500,2500.7869602,N,12132.4710038,E,2,54,0.50,16.658,M,15.25,M,1,3335*42
$GNRMC,032057.500,A,2500.7869602,N,12132.4710038,E,0.17,46.08,090324,,,D,V*30
$GPHDT,,T*1B
$GNACCURACY,5.3*10
$GNGGA,032057.600,2500.7869542,N,12132.4710098,E,2,54,0.50,16.659,M,15.25,M,0,3335*4C
$GNRMC,032057.600,A,2500.7869542,N,12132.4710098,E,0.32,46.08,090324,,,D,V*39
$GPHDT,,T*1B
$GNACCURACY,5.3*10
$GNGGA,032057.700,2500.7869542,N,12132.4710158,E,2,54,0.50,16.660,M,15.25,M,0,3335*4A
$GNRMC,032057.700,A,2500.7869542,N,12132.4710158,E,0.18,46.08,090324,,,D,V*3D
$GPHDT,,T*1B
$GNACCURACY,5.3*10
$GNGGA,032057.800,2500.7869482,N,12132.4710158,E,2,54,0.50,16.662,M,15.25,M,0,3335*4A
$GNRMC,032057.800,A,2500.7869482,N,12132.4710158,E,0.16,46.08,090324,,,D,V*31
$GPHDT,,T*1B
$GNACCURACY,5.3*10
$GNGGA,032057.900,2500.7869482,N,12132.4710218,E,2,54,0.50,16.662,M,15.25,M,0,3335*4C
$GNRMC,032057.900,A,2500.7869482,N,12132.4710218,E,0.15,46.08,090324,,,D,V*34
$GPHDT,,T*1B
$GNACCURACY,5.3*10
$GNGGA,032058.000,2500.7869422,N,12132.4710218,E,2,54,0.50,16.662,M,15.25,M,1,3335*41
$GNRMC,032058.000,A,2500.7869422,N,12132.4710218,E,0.05,46.08,090324,,,D,V*39
$GPHDT,,T*1B
$GNGSA,A,3,08,194,195,27,16,21,04,09,02,196,31,26,0.78,0.50,0.60,1*32
$GNGSA,A,3,88,78,77,87,79,,,,,,,,0.78,0.50,0.60,2*00
$GNGSA,A,3,21,13,19,27,26,15,,,,,,,0.78,0.50,0.60,3*03
$GNGSA,A,3,06,16,43,09,39,40,07,23,10,11,25,28,0.78,0.50,0.60,4*03
$GNGSA,A,3,34,,,,,,,,,,,,0.78,0.50,0.60,4*0F
$GPGSV,4,1,15,08,72,294,29,199,66,164,,194,63,045,28,195,57,124,28,1*5E
$GPGSV,4,2,15,27,53,026,28,45,47,231,34,16,36,052,34,21,36,171,46,1*6F
$GPGSV,4,3,15,04,34,219,35,09,31,270,18,02,25,182,34,07,23,320,18,1*68
$GPGSV,4,4,15,196,21,174,30,26,18,081,22,31,17,135,17,1*6D
$GPGSV,2,1,08,08,72,294,35,194,63,045,24,195,57,124,33,27,53,026,25,8*64
$GPGSV,2,2,08,04,34,219,36,09,31,270,19,196,21,174,43,26,18,081,24,8*55
$GLGSV,2,1,05,88,72,088,35,78,44,001,24,77,33,082,22,87,24,031,18,1*7D
$GLGSV,2,2,05,79,10,317,22,1*47
$GAGSV,2,1,06,21,50,345,24,13,48,112,28,19,37,261,19,27,34,059,29,7*76
$GAGSV,2,2,06,26,25,175,25,15,24,052,34,7*70
$GAGSV,2,1,05,13,48,112,30,19,37,261,23,27,34,059,26,26,25,175,44,1*7E
$GAGSV,2,2,05,15,24,052,26,1*41
$GBGSV,4,1,13,06,83,231,20,16,81,187,26,43,76,072,32,09,74,306,29,1*7C
$GBGSV,4,2,13,39,69,174,28,40,67,313,17,07,63,291,24,23,59,353,29,1*70
$GBGSV,4,3,13,10,52,274,27,11,51,048,25,25,49,092,32,28,36,206,39,1*7F
$GBGSV,4,4,13,34,28,041,37,1*48
$GBGSV,2,1,06,39,69,174,30,40,67,313,31,23,59,353,21,25,49,092,31,4*7C
$GBGSV,2,2,06,28,36,206,34,34,28,041,34,4*76
$GNACCURACY,5.2*11
$PAIRSAT,1,29,2,0,201,3,0,200,4,0,221,5,0,200,6,0,200,7,0,201,8,0,21,9,0,21,14,0,200,15,0,200,16,0,201,17,0,200,18,0,200,19,0,200,20,0,200,21,0,201,22,0,200,23,0,200,24,0,200,25,0,200,26,0,221,27,0,221,28,0,200,29,0,200,31,0,1,194,0,421,195,0,621,196,0,220,199,0,600*50
$PAIRSAT,2,17,70,0,200,71,0,200,72,0,200,73,0,200,74,0,200,75,0,200,76,0,200,77,0,201,78,0,201,79,0,201,82,0,200,83,0,200,84,0,200,85,0,200,86,0,200,87,0,201,88,0,201*57
$PAIRSAT,3,20,2,0,1200,3,0,1200,4,0,1200,5,0,200,7,0,1200,8,0,1200,9,0,1200,10,0,200,13,0,21,15,0,21,19,0,21,21,0,221,25,0,1200,26,0,1201,27,0,1221,30,0,1200,31,0,1200,33,0,1200,34,0,1200,36,0,1200*72
$PAIRSAT,4,46,1,0,200,2,0,200,3,0,400,4,0,200,5,0,200,6,0,201,7,0,201,8,0,200,9,0,201,10,0,201,11,0,201,12,0,200,13,0,200,14,0,200,16,0,201,19,0,400,20,0,400,21,0,400,22,0,400,23,0,421,24,0,600,25,0,621,26,0,600,27,0,400,28,0,621,29,0,600,30,0,600,32,0,600,33,0,600,34,0,621,35,0,600,36,0,600,37,0,600,38,0,600,39,0,421,40,0,421,41,0,400,42,0,400,43,0,421,44,0,400,45,0,400,46,0,400,59,0,400,60,0,400,61,0,400,62,0,400*48
$PAIRDGP,8,2,4,7,8,9,16,21,27*7C
$GNGGA,032058.100,2500.7869422,N,12132.4710218,E,2,54,0.50,16.660,M,15.25,M,1,3335*42
$GNRMC,032058.100,A,2500.7869422,N,12132.4710218,E,0.09,46.08,090324,,,D,V*34
$GPHDT,,T*1B
$GNACCURACY,5.2*11
$GNGGA,032058.200,2500.7869422,N,12132.4710278,E,2,54,0.50,16.662,M,15.25,M,1,3335*45
$GNRMC,032058.200,A,2500.7869422,N,12132.4710278,E,0.07,46.08,090324,,,D,V*3F
$GPHDT,,T*1B
$GNACCURACY,5.2*11
$GNGGA,032058.300,2500.7869422,N,12132.4710278,E,2,54,0.50,16.661,M,15.25,M,1,3335*47
$GNRMC,032058.300,A,2500.7869422,N,12132.4710278,E,0.03,46.08,090324,,,D,V*3A
$GPHDT,,T*1B
$GNACCURACY,5.2*11
$GNGGA,032058.400,2500.7869422,N,12132.4710278,E,2,54,0.50,16.659,M,15.25,M,1,3335*4B
$GNRMC,032058.400,A,2500.7869422,N,12132.4710278,E,0.09,46.08,090324,,,D,V*37
$GPHDT,,T*1B
$GNACCURACY,5.2*11
$GNGGA,032058.500,2500.7869362,N,12132.4710278,E,2,54,0.50,16.658,M,15.25,M,1,3335*48
$GNRMC,032058.500,A,2500.7869362,N,12132.4710278,E,0.04,46.08,090324,,,D,V*38
$GPHDT,,T*1B
$GNACCURACY,5.2*11
$GNGGA,032058.600,2500.7869362,N,12132.4710278,E,2,54,0.50,16.654,M,15.25,M,0,3335*46
$GNRMC,032058.600,A,2500.7869362,N,12132.4710278,E,0.08,46.08,090324,,,D,V*37
$GPHDT,,T*1B
$GNACCURACY,5.2*11
$GNGGA,032058.700,2500.7869362,N,12132.4710278,E,2,54,0.50,16.654,M,15.25,M,0,3335*47
$GNRMC,032058.700,A,2500.7869362,N,12132.4710278,E,0.18,46.08,090324,,,D,V*37
$GPHDT,,T*1B
$GNACCURACY,5.2*11
$GNGGA,032058.800,2500.7869362,N,12132.4710278,E,2,54,0.50,16.650,M,15.25,M,0,3335*4C
$GNRMC,032058.800,A,2500.7869362,N,12132.4710278,E,0.04,46.08,090324,,,D,V*35
$GPHDT,,T*1B
$GNACCURACY,5.2*11
$GNGGA,032058.900,2500.7869362,N,12132.4710218,E,2,54,0.50,16.645,M,15.25,M,0,3335*4F
$GNRMC,032058.900,A,2500.7869362,N,12132.4710218,E,0.06,46.08,090324,,,D,V*30
$GPHDT,,T*1B
$GNACCURACY,5.2*11
$GNGGA,032059.000,2500.7869362,N,12132.4710218,E,2,54,0.50,16.644,M,15.25,M,1,3335*47
$GNRMC,032059.000,A,2500.7869362,N,12132.4710218,E,0.06,46.08,090324,,,D,V*38
$GPHDT,,T*1B
$GNGSA,A,3,08,194,195,27,16,21,04,09,02,196,31,26,0.78,0.50,0.60,1*32
$GNGSA,A,3,88,78,77,87,79,,,,,,,,0.78,0.50,0.60,2*00
$GNGSA,A,3,21,13,19,27,26,15,,,,,,,0.78,0.50,0.60,3*03
$GNGSA,A,3,06,16,43,09,39,40,07,23,10,11,25,28,0.78,0.50,0.60,4*03
$GNGSA,A,3,34,,,,,,,,,,,,0.78,0.50,0.60,4*0F
$GPGSV,4,1,15,08,72,294,29,199,66,164,,194,63,045,29,195,57,124,27,1*50
$GPGSV,4,2,15,27,53,026,29,45,47,231,34,16,36,052,34,21,36,171,46,1*6E
$GPGSV,4,3,15,04,34,219,35,09,31,270,17,02,25,182,34,07,23,320,17,1*68
$GPGSV,4,4,15,196,21,174,30,26,18,081,22,31,17,135,17,1*6D
$GPGSV,2,1,08,08,72,294,35,194,63,045,24,195,57,124,33,27,53,026,25,8*64
$GPGSV,2,2,08,04,34,219,36,09,31,270,19,196,21,174,43,26,18,081,22,8*53
$GLGSV,2,1,05,88,72,088,35,78,44,001,23,77,33,082,22,87,24,031,18,1*7A
$GLGSV,2,2,05,79,10,317,21,1*44
$GAGSV,2,1,06,21,50,345,23,13,48,112,28,19,37,261,19,27,34,059,29,7*71
$GAGSV,2,2,06,26,25,175,24,15,24,052,34,7*71
$GAGSV,2,1,05,13,48,112,30,19,37,261,23,27,34,059,26,26,25,175,44,1*7E
$GAGSV,2,2,05,15,24,052,27,1*40
$GBGSV,4,1,13,06,83,231,19,16,81,187,26,43,76,072,32,09,74,306,29,1*76
$GBGSV,4,2,13,39,69,174,29,40,67,313,18,07,63,291,24,23,59,353,29,1*7E
$GBGSV,4,3,13,10,52,274,27,11,51,048,25,25,49,092,32,28,36,206,39,1*7F
$GBGSV,4,4,13,34,28,041,37,1*48
$GBGSV,2,1,06,39,69,174,30,40,67,313,31,23,59,353,20,25,49,092,30,4*7C
$GBGSV,2,2,06,28,36,206,33,34,28,041,33,4*76
$GNACCURACY,5.2*11
$PAIRSAT,1,29,2,0,201,3,0,200,4,0,221,5,0,200,6,0,200,7,0,201,8,0,21,9,0,21,14,0,200,15,0,200,16,0,201,17,0,200,18,0,200,19,0,200,20,0,200,21,0,201,22,0,200,23,0,200,24,0,200,25,0,200,26,0,221,27,0,221,28,0,200,29,0,200,31,0,1,194,0,421,195,0,621,196,0,220,199,0,600*50
$PAIRSAT,2,17,70,0,200,71,0,200,72,0,200,73,0,200,74,0,200,75,0,200,76,0,200,77,0,201,78,0,201,79,0,201,82,0,200,83,0,200,84,0,200,85,0,200,86,0,200,87,0,201,88,0,201*57
$PAIRSAT,3,20,2,0,1200,3,0,1200,4,0,1200,5,0,200,7,0,1200,8,0,1200,9,0,1200,10,0,200,13,0,21,15,0,21,19,0,21,21,0,221,25,0,1200,26,0,1201,27,0,1221,30,0,1200,31,0,1200,33,0,1200,34,0,1200,36,0,1200*72
$PAIRSAT,4,46,1,0,200,2,0,200,3,0,400,4,0,200,5,0,200,6,0,201,7,0,201,8,0,200,9,0,201,10,0,201,11,0,201,12,0,200,13,0,200,14,0,200,16,0,201,19,0,400,20,0,400,21,0,400,22,0,400,23,0,421,24,0,600,25,0,621,26,0,600,27,0,400,28,0,621,29,0,600,30,0,600,32,0,600,33,0,600,34,0,621,35,0,600,36,0,600,37,0,600,38,0,600,39,0,421,40,0,421,41,0,400,42,0,400,43,0,421,44,0,400,45,0,400,46,0,400,59,0,400,60,0,400,61,0,400,62,0,400*48
$PAIRDGP,8,2,4,7,8,9,16,21,27*7C
$GNGGA,032059.100,2500.7869362,N,12132.4710218,E,2,54,0.50,16.639,M,15.25,M,1,3335*4C
$GNRMC,032059.100,A,2500.7869362,N,12132.4710218,E,0.05,46.08,090324,,,D,V*3A
$GPHDT,,T*1B
$GNACCURACY,5.3*10
$GNGGA,032059.200,2500.7869362,N,12132.4710218,E,2,54,0.50,16.638,M,15.25,M,1,3335*4E
$GNRMC,032059.200,A,2500.7869362,N,12132.4710218,E,0.07,46.08,090324,,,D,V*3B
$GPHDT,,T*1B
$GNACCURACY,5.3*10
$GNGGA,032059.300,2500.7869362,N,12132.4710278,E,2,54,0.50,16.637,M,15.25,M,1,3335*46
$GNRMC,032059.300,A,2500.7869362,N,12132.4710278,E,0.08,46.08,090324,,,D,V*33
$GPHDT,,T*1B
$GNACCURACY,5.3*10
$GNGGA,032059.400,2500.7869362,N,12132.4710218,E,2,54,0.50,16.633,M,15.25,M,1,3335*43
$GNRMC,032059.400,A,2500.7869362,N,12132.4710218,E,0.06,46.08,090324,,,D,V*3C
$GPHDT,,T*1B
$GNACCURACY,5.2*11
$GNGGA,032059.500,2500.7869362,N,12132.4710218,E,2,54,0.50,16.629,M,15.25,M,1,3335*49
$GNRMC,032059.500,A,2500.7869362,N,12132.4710218,E,0.09,46.08,090324,,,D,V*32
$GPHDT,,T*1B
$GNACCURACY,5.3*10
$GNGGA,032059.600,2500.7869362,N,12132.4710158,E,2,54,0.50,16.629,M,15.25,M,0,3335*4C
$GNRMC,032059.600,A,2500.7869362,N,12132.4710158,E,0.07,46.08,090324,,,D,V*38
$GPHDT,,T*1B
$GNACCURACY,5.3*10
$GNGGA,032059.700,2500.7869362,N,12132.4710158,E,2,54,0.50,16.625,M,15.25,M,0,3335*41
$GNRMC,032059.700,A,2500.7869362,N,12132.4710158,E,0.03,46.08,090324,,,D,V*3D
$GPHDT,,T*1B
$GNACCURACY,5.3*10
$GNGGA,032059.800,2500.7869362,N,12132.4710158,E,2,54,0.50,16.626,M,15.25,M,0,3335*4D
$GNRMC,032059.800,A,2500.7869362,N,12132.4710158,E,0.08,46.08,090324,,,D,V*39
$GPHDT,,T*1B
$GNACCURACY,5.3*10
$GNGGA,032059.900,2500.7869362,N,12132.4710098,E,2,54,0.50,16.626,M,15.25,M,0,3335*41
$GNRMC,032059.900,A,2500.7869362,N,12132.4710098,E,0.06,46.08,090324,,,D,V*3B
$GPHDT,,T*1B
$GNACCURACY,5.3*10
$GNGGA,032100.000,2500.7869362,N,12132.4710098,E,2,54,0.50,16.625,M,15.25,M,1,3335*47
$GNRMC,032100.000,A,2500.7869362,N,12132.4710098,E,0.03,46.08,090324,,,D,V*3A
$GPHDT,,T*1B
$GNGSA,A,3,08,194,195,27,16,21,04,09,02,196,31,26,0.78,0.50,0.60,1*32
$GNGSA,A,3,88,78,77,87,79,,,,,,,,0.78,0.50,0.60,2*00
$GNGSA,A,3,21,13,19,27,26,15,,,,,,,0.78,0.50,0.60,3*03
$GNGSA,A,3,06,16,43,09,39,40,07,23,10,11,25,28,0.78,0.50,0.60,4*03
$GNGSA,A,3,34,,,,,,,,,,,,0.78,0.50,0.60,4*0F
$GPGSV,4,1,15,08,72,294,29,199,66,164,,194,63,045,29,195,57,124,27,1*50
$GPGSV,4,2,15,27,53,026,28,45,47,231,34,16,36,052,34,21,36,171,46,1*6F
$GPGSV,4,3,15,04,34,219,35,09,31,270,17,02,25,182,34,07,23,320,16,1*69
$GPGSV,4,4,15,196,21,174,30,26,18,081,22,31,17,135,17,1*6D
$GPGSV,2,1,08,08,72,294,35,194,63,045,24,195,57,124,33,27,53,026,25,8*64
$GPGSV,2,2,08,04,34,219,36,09,31,270,19,196,21,174,43,26,18,081,23,8*52
$GLGSV,2,1,05,88,72,088,35,78,44,001,23,77,33,082,22,87,24,031,18,1*7A
$GLGSV,2,2,05,79,10,317,20,1*45
$GAGSV,2,1,06,21,50,345,22,13,48,112,28,19,37,261,19,27,34,059,29,7*70
$GAGSV,2,2,06,26,25,175,27,15,24,052,34,7*72
$GAGSV,2,1,05,13,48,112,30,19,37,261,23,27,34,059,26,26,25,175,44,1*7E
$GAGSV,2,2,05,15,24,052,27,1*40
$GBGSV,4,1,13,06,83,231,19,16,81,187,26,43,76,072,32,09,74,306,28,1*77
$GBGSV,4,2,13,39,69,174,29,40,67,313,19,07,63,291,24,23,59,353,29,1*7F
$GBGSV,4,3,13,10,52,274,27,11,51,048,25,25,49,092,32,28,36,206,39,1*7F
$GBGSV,4,4,13,34,28,041,37,1*48
$GBGSV,2,1,06,39,69,174,30,40,67,313,31,23,59,353,21,25,49,092,31,4*7C
$GBGSV,2,2,06,28,36,206,34,34,28,041,33,4*71
$GNACCURACY,5.3*10
$PAIRSAT,1,29,2,0,201,3,0,200,4,0,221,5,0,200,6,0,200,7,0,201,8,0,21,9,0,21,14,0,200,15,0,200,16,0,201,17,0,200,18,0,200,19,0,200,20,0,200,21,0,201,22,0,200,23,0,200,24,0,200,25,0,200,26,0,221,27,0,221,28,0,200,29,0,200,31,0,1,194,0,421,195,0,621,196,0,220,199,0,600*50
$PAIRSAT,2,17,70,0,200,71,0,200,72,0,200,73,0,200,74,0,200,75,0,200,76,0,200,77,0,201,78,0,201,79,0,201,82,0,200,83,0,200,84,0,200,85,0,200,86,0,200,87,0,201,88,0,201*57
$PAIRSAT,3,20,2,0,1200,3,0,1200,4,0,1200,5,0,200,7,0,1200,8,0,1200,9,0,1200,10,0,200,13,0,21,15,0,21,19,0,21,21,0,221,25,0,1200,26,0,1201,27,0,1221,30,0,1200,31,0,1200,33,0,1200,34,0,1200,36,0,1200*72
$PAIRSAT,4,46,1,0,200,2,0,200,3,0,400,4,0,200,5,0,200,6,0,201,7,0,201,8,0,200,9,0,201,10,0,201,11,0,201,12,0,200,13,0,200,14,0,200,16,0,201,19,0,400,20,0,400,21,0,400,22,0,400,23,0,421,24,0,600,25,0,621,26,0,600,27,0,400,28,0,621,29,0,600,30,0,600,32,0,600,33,0,600,34,0,621,35,0,600,36,0,600,37,0,600,38,0,600,39,0,421,40,0,421,41,0,400,42,0,400,43,0,421,44,0,400,45,0,400,46,0,400,59,0,400,60,0,400,61,0,400,62,0,400*48
$PAIRDGP,8,2,4,7,8,9,16,21,27*7C
$GNGGA,032100.100,2500.7869362,N,12132.4710098,E,2,54,0.50,16.625,M,15.25,M,1,3335*46
$GNRMC,032100.100,A,2500.7869362,N,12132.4710098,E,0.01,46.08,090324,,,D,V*39
$GPHDT,,T*1B
$GNACCURACY,5.3*10
$GNGGA,032100.200,2500.7869362,N,12132.4710098,E,2,54,0.50,16.624,M,15.25,M,1,3335*44
$GNRMC,032100.200,A,2500.7869362,N,12132.4710098,E,0.04,46.08,090324,,,D,V*3F
$GPHDT,,T*1B
$GNACCURACY,5.3*10
$GNGGA,032100.300,2500.7869302,N,12132.4710098,E,2,54,0.50,16.624,M,15.25,M,1,3335*43
$GNRMC,032100.300,A,2500.7869302,N,12132.4710098,E,0.07,46.08,090324,,,D,V*3B
$GPHDT,,T*1B
$GNACCURACY,5.3*10
$GNGGA,032100.400,2500.7869302,N,12132.4710098,E,2,54,0.50,16.623,M,15.25,M,1,3335*43
$GNRMC,032100.400,A,2500.7869302,N,12132.4710098,E,0.04,46.08,090324,,,D,V*3F
$GPHDT,,T*1B
$GNACCURACY,5.3*10
$GNGGA,032100.500,2500.7869302,N,12132.4710158,E,2,54,0.50,16.623,M,15.25,M,1,3335*4F
$GNRMC,032100.500,A,2500.7869302,N,12132.4710158,E,0.04,46.08,090324,,,D,V*33
$GPHDT,,T*1B
$GNACCURACY,5.3*10
$GNGGA,032100.600,2500.7869302,N,12132.4710158,E,2,54,0.50,16.622,M,15.25,M,0,3335*4C
$GNRMC,032100.600,A,2500.7869302,N,12132.4710158,E,0.02,46.08,090324,,,D,V*36
$GPHDT,,T*1B
$GNACCURACY,5.3*10
$GNGGA,032100.700,2500.7869242,N,12132.4710158,E,2,53,0.51,16.621,M,15.25,M,0,3335*4D
$GNRMC,032100.700,A,2500.7869242,N,12132.4710158,E,0.12,46.08,090324,,,D,V*33
$GPHDT,,T*1B
$GNACCURACY,5.3*10
$GNGGA,032100.800,2500.7869242,N,12132.4710098,E,2,53,0.51,16.617,M,15.25,M,0,3335*4A
$GNRMC,032100.800,A,2500.7869242,N,12132.4710098,E,0.07,46.08,090324,,,D,V*35
$GPHDT,,T*1B
$GNACCURACY,5.3*10
$GNGGA,032100.900,2500.7869242,N,12132.4710098,E,2,53,0.51,16.618,M,15.25,M,0,3335*44
$GNRMC,032100.900,A,2500.7869242,N,12132.4710098,E,0.12,46.08,090324,,,D,V*30
$GPHDT,,T*1B
$GNACCURACY,5.3*10
$GNGGA,032101.000,2500.7869242,N,12132.4710038,E,2,53,0.51,16.617,M,15.25,M,1,3335*48
$GNRMC,032101.000,A,2500.7869242,N,12132.4710038,E,0.09,46.08,090324,,,D,V*38
$GPHDT,,T*1B
$GNGSA,A,3,08,194,195,27,16,21,04,02,196,09,26,,0.79,0.51,0.61,1*31
$GNGSA,A,3,88,78,77,87,79,,,,,,,,0.79,0.51,0.61,2*01
$GNGSA,A,3,21,13,19,27,26,15,,,,,,,0.79,0.51,0.61,3*02
$GNGSA,A,3,06,16,43,09,39,40,07,23,10,11,25,28,0.79,0.51,0.61,4*02
$GNGSA,A,3,34,,,,,,,,,,,,0.79,0.51,0.61,4*0E
$GPGSV,4,1,15,08,72,294,29,199,66,164,,194,63,045,29,195,57,124,27,1*50
$GPGSV,4,2,15,27,53,026,28,45,47,231,33,16,36,052,34,21,36,171,46,1*68
$GPGSV,4,3,15,04,34,219,35,09,31,270,14,02,25,182,34,07,23,320,17,1*6B
$GPGSV,4,4,15,196,21,174,30,26,18,081,22,31,17,135,18,1*62
$GPGSV,2,1,08,08,72,294,35,194,63,045,24,195,57,124,33,27,53,026,25,8*64
$GPGSV,2,2,08,04,34,219,36,09,31,270,20,196,21,174,44,26,18,081,23,8*5F
$GLGSV,2,1,05,88,72,088,35,78,44,001,23,77,33,082,22,87,24,031,18,1*7A
$GLGSV,2,2,05,79,10,317,18,1*4E
$GAGSV,2,1,06,21,50,345,22,13,48,112,28,19,37,260,19,27,34,059,30,7*79
$GAGSV,2,2,06,26,25,175,25,15,24,051,33,7*74
$GAGSV,2,1,05,13,48,112,30,19,37,260,24,27,34,059,27,26,25,175,45,1*78
$GAGSV,2,2,05,15,24,051,28,1*4C
$GBGSV,4,1,13,06,83,231,20,16,81,187,26,43,76,072,32,09,74,306,28,1*7D
$GBGSV,4,2,13,39,69,174,30,40,67,313,20,07,63,291,24,23,59,353,29,1*7D
$GBGSV,4,3,13,10,52,274,27,11,51,048,25,25,49,092,32,28,36,206,39,1*7F
$GBGSV,4,4,13,34,28,041,37,1*48
$GBGSV,2,1,06,39,69,174,30,40,67,313,31,23,59,353,21,25,49,092,31,4*7C
$GBGSV,2,2,06,28,36,206,34,34,28,041,34,4*76
$GNACCURACY,5.2*11
$PAIRSAT,1,29,2,0,201,3,0,200,4,0,221,5,0,200,6,0,200,7,0,201,8,0,21,9,0,21,14,0,200,15,0,200,16,0,201,17,0,200,18,0,200,19,0,200,20,0,200,21,0,201,22,0,200,23,0,200,24,0,200,25,0,200,26,0,221,27,0,221,28,0,200,29,0,200,31,0,1,194,0,421,195,0,621,196,0,220,199,0,600*50
$PAIRSAT,2,17,70,0,200,71,0,200,72,0,200,73,0,200,74,0,200,75,0,200,76,0,200,77,0,201,78,0,201,79,0,201,82,0,200,83,0,200,84,0,200,85,0,200,86,0,200,87,0,201,88,0,201*57
$PAIRSAT,3,20,2,0,1200,3,0,1200,4,0,1200,5,0,200,7,0,1200,8,0,1200,9,0,1200,10,0,200,13,0,21,15,0,21,19,0,21,21,0,221,25,0,1200,26,0,1201,27,0,1221,30,0,1200,31,0,1200,33,0,1200,34,0,1200,36,0,1200*72
$PAIRSAT,4,46,1,0,200,2,0,200,3,0,400,4,0,200,5,0,200,6,0,201,7,0,201,8,0,200,9,0,201,10,0,201,11,0,201,12,0,200,13,0,200,14,0,200,16,0,201,19,0,400,20,0,400,21,0,400,22,0,400,23,0,421,24,0,600,25,0,621,26,0,600,27,0,400,28,0,621,29,0,600,30,0,600,32,0,600,33,0,600,34,0,621,35,0,600,36,0,600,37,0,600,38,0,600,39,0,421,40,0,421,41,0,400,42,0,400,43,0,421,44,0,400,45,0,400,46,0,400,59,0,400,60,0,400,61,0,400,62,0,400*48
$PAIRDGP,5,2,7,16,21,27*68
$GNGGA,032101.100,2500.7869242,N,12132.4710098,E,2,52,0.51,16.617,M,15.25,M,1,3335*42
$GNRMC,032101.100,A,2500.7869242,N,12132.4710098,E,0.08,46.08,090324,,,D,V*32
$GPHDT,,T*1B
$GNACCURACY,5.2*11
$GNGGA,032101.200,2500.7869242,N,12132.4710098,E,2,52,0.51,16.617,M,15.25,M,1,3335*41
$GNRMC,032101.200,A,2500.7869242,N,12132.4710098,E,0.06,46.08,090324,,,D,V*3F
$GPHDT,,T*1B
$GNACCURACY,5.3*10
$GNGGA,032101.300,2500.7869242,N,12132.4710098,E,2,53,0.50,16.616,M,15.25,M,1,3335*41
$GNRMC,032101.300,A,2500.7869242,N,12132.4710098,E,0.04,46.08,090324,,,D,V*3C
$GPHDT,,T*1B
$GNACCURACY,5.3*10
$GNGGA,032101.400,2500.7869242,N,12132.4710098,E,2,53,0.50,16.616,M,15.25,M,1,3335*46
$GNRMC,032101.400,A,2500.7869242,N,12132.4710098,E,0.06,46.08,090324,,,D,V*39
$GPHDT,,T*1B
$GNACCURACY,5.3*10
$GNGGA,032101.500,2500.7869242,N,12132.4710038,E,2,53,0.50,16.613,M,15.25,M,1,3335*48
$GNRMC,032101.500,A,2500.7869242,N,12132.4710038,E,0.05,46.08,090324,,,D,V*31
$GPHDT,,T*1B
$GNACCURACY,5.3*10
$GNGGA,032101.600,2500.7869242,N,12132.4710038,E,2,53,0.50,16.611,M,15.25,M,1,3335*49
$GNRMC,032101.600,A,2500.7869242,N,12132.4710038,E,0.07,46.08,090324,,,D,V*30
$GPHDT,,T*1B
$GNACCURACY,5.3*10
$GNGGA,032101.700,2500.7869242,N,12132.4710038,E,2,53,0.50,16.611,M,15.25,M,0,3335*49
$GNRMC,032101.700,A,2500.7869242,N,12132.4710038,E,0.04,46.08,090324,,,D,V*32
$GPHDT,,T*1B
$GNACCURACY,5.3*10
$GNGGA,032101.800,2500.7869242,N,12132.4710038,E,2,53,0.50,16.609,M,15.25,M,0,3335*4F
$GNRMC,032101.800,A,2500.7869242,N,12132.4710038,E,0.14,46.08,090324,,,D,V*3C
$GPHDT,,T*1B
$GNACCURACY,5.3*10
$GNGGA,032101.900,2500.7869242,N,12132.4710038,E,2,53,0.50,16.605,M,15.25,M,0,3335*42
$GNRMC,032101.900,A,2500.7869242,N,12132.4710038,E,0.08,46.08,090324,,,D,V*30
$GPHDT,,T*1B
$GNACCURACY,5.2*11
$GNGGA,032102.000,2500.7869242,N,12132.4710038,E,2,53,0.50,16.600,M,15.25,M,1,3335*4C
$GNRMC,032102.000,A,2500.7869242,N,12132.4710038,E,0.15,46.08,090324,,,D,V*36
$GPHDT,,T*1B
$GNGSA,A,3,08,194,195,27,16,21,04,02,196,31,09,26,0.78,0.50,0.60,1*32
$GNGSA,A,3,88,78,77,87,79,,,,,,,,0.78,0.50,0.60,2*00
$GNGSA,A,3,21,13,19,27,26,15,,,,,,,0.78,0.50,0.60,3*03
$GNGSA,A,3,06,16,43,09,39,40,07,23,10,11,25,28,0.78,0.50,0.60,4*03
$GNGSA,A,3,34,,,,,,,,,,,,0.78,0.50,0.60,4*0F
$GPGSV,4,1,15,08,72,294,28,199,66,164,,194,63,045,28,195,57,124,27,1*50
$GPGSV,4,2,15,27,53,026,27,45,47,231,33,16,36,052,34,21,36,171,46,1*67
$GPGSV,4,3,15,04,34,219,34,09,31,270,12,02,25,182,33,07,23,320,16,1*6A
$GPGSV,4,4,15,196,21,174,32,26,18,081,23,31,17,135,19,1*60
$GPGSV,2,1,08,08,72,294,35,194,63,045,23,195,57,124,33,27,53,026,24,8*62
$GPGSV,2,2,08,04,34,219,36,09,31,270,19,196,21,174,44,26,18,081,21,8*57
$GLGSV,2,1,05,88,72,088,35,78,44,001,21,77,33,082,23,87,24,031,18,1*79
$GLGSV,2,2,05,79,10,317,16,1*40
$GAGSV,2,1,06,21,50,345,21,13,48,112,29,19,37,260,20,27,34,059,31,7*70
$GAGSV,2,2,06,26,25,175,27,15,24,051,32,7*77
$GAGSV,2,1,05,13,48,112,29,19,37,260,22,27,34,059,26,26,25,175,45,1*77
$GAGSV,2,2,05,15,24,051,28,1*4C
$GBGSV,4,1,13,06,83,231,20,16,81,187,26,43,76,072,31,09,74,306,28,1*7E
$GBGSV,4,2,13,39,69,174,30,40,67,313,21,07,63,291,24,23,59,353,29,1*7C
$GBGSV,4,3,13,10,52,274,26,11,51,048,24,25,49,092,31,28,36,206,39,1*7C
$GBGSV,4,4,13,34,28,041,37,1*48
$GBGSV,2,1,06,39,69,174,30,40,67,313,31,23,59,353,20,25,49,092,30,4*7C
$GBGSV,2,2,06,28,36,206,34,34,28,041,34,4*76
$GNACCURACY,5.2*11
$PAIRSAT,1,29,2,0,201,3,0,200,4,0,221,5,0,200,6,0,200,7,0,201,8,0,21,9,0,21,14,0,200,15,0,200,16,0,201,17,0,200,18,0,200,19,0,200,20,0,200,21,0,201,22,0,200,23,0,200,24,0,200,25,0,200,26,0,221,27,0,221,28,0,200,29,0,200,31,0,1,194,0,421,195,0,621,196,0,220,199,0,600*50
$PAIRSAT,2,17,70,0,200,71,0,200,72,0,200,73,0,200,74,0,200,75,0,200,76,0,200,77,0,201,78,0,201,79,0,201,82,0,200,83,0,200,84,0,200,85,0,200,86,0,200,87,0,201,88,0,201*57
$PAIRSAT,3,20,2,0,1200,3,0,1200,4,0,1200,5,0,200,7,0,1200,8,0,1200,9,0,1200,10,0,200,13,0,21,15,0,21,19,0,21,21,0,221,25,0,1200,26,0,1201,27,0,1221,30,0,1200,31,0,1200,33,0,1200,34,0,1200,36,0,1200*72
$PAIRSAT,4,46,1,0,200,2,0,200,3,0,400,4,0,200,5,0,200,6,0,201,7,0,201,8,0,200,9,0,201,10,0,201,11,0,201,12,0,200,13,0,200,14,0,200,16,0,201,19,0,400,20,0,400,21,0,400,22,0,400,23,0,421,24,0,600,25,0,621,26,0,600,27,0,400,28,0,621,29,0,600,30,0,600,32,0,600,33,0,600,34,0,621,35,0,600,36,0,600,37,0,600,38,0,600,39,0,421,40,0,421,41,0,400,42,0,400,43,0,421,44,0,400,45,0,400,46,0,400,59,0,400,60,0,400,61,0,400,62,0,400*48
$PAIRDGP,5,2,7,16,21,27*68
$GNGGA,032102.100,2500.7869242,N,12132.4709978,E,2,53,0.50,16.596,M,15.25,M,1,3335*44
$GNRMC,032102.100,A,2500.7869242,N,12132.4709978,E,0.17,46.08,090324,,,D,V*30
$GPHDT,,T*1B
$GNACCURACY,5.2*11
$GNGGA,032102.200,2500.7869242,N,12132.4709918,E,2,53,0.50,16.596,M,15.25,M,1,3335*41
$GNRMC,032102.200,A,2500.7869242,N,12132.4709918,E,0.11,46.08,090324,,,D,V*33
$GPHDT,,T*1B
$GNACCURACY,5.2*11
$GNGGA,032102.300,2500.7869242,N,12132.4709918,E,2,53,0.50,16.591,M,15.25,M,1,3335*47
$GNRMC,032102.300,A,2500.7869242,N,12132.4709918,E,0.03,46.08,090324,,,D,V*31
$GPHDT,,T*1B
$GNACCURACY,5.2*11
$GNGGA,032102.400,2500.7869242,N,12132.4709918,E,2,53,0.50,16.591,M,15.25,M,1,3335*40
$GNRMC,032102.400,A,2500.7869242,N,12132.4709918,E,0.11,46.08,090324,,,D,V*35
$GPHDT,,T*1B
$GNACCURACY,5.2*11
$GNGGA,032102.500,2500.7869242,N,12132.4709918,E,2,53,0.50,16.589,M,15.25,M,0,3335*49
$GNRMC,032102.500,A,2500.7869242,N,12132.4709918,E,0.07,46.08,090324,,,D,V*33
$GPHDT,,T*1B
$GNACCURACY,5.2*11
$GNGGA,032102.600,2500.7869242,N,12132.4709918,E,2,53,0.50,16.588,M,15.25,M,0,3335*4B
$GNRMC,032102.600,A,2500.7869242,N,12132.4709918,E,0.14,46.08,090324,,,D,V*32
$GPHDT,,T*1B
$GNACCURACY,5.2*11
$GNGGA,032102.700,2500.7869242,N,12132.4709978,E,2,53,0.50,16.587,M,15.25,M,0,3335*43
$GNRMC,032102.700,A,2500.7869242,N,12132.4709978,E,0.13,46.08,090324,,,D,V*32
$GPHDT,,T*1B
$GNACCURACY,5.2*11
$GNGGA,032102.800,2500.7869182,N,12132.4709978,E,2,53,0.50,16.588,M,15.25,M,0,3335*4C
$GNRMC,032102.800,A,2500.7869182,N,12132.4709978,E,0.08,46.08,090324,,,D,V*38
$GPHDT,,T*1B
$GNACCURACY,5.2*11
$GNGGA,032102.900,2500.7869182,N,12132.4710038,E,2,53,0.50,16.583,M,15.25,M,0,3335*43
$GNRMC,032102.900,A,2500.7869182,N,12132.4710038,E,0.07,46.08,090324,,,D,V*33
$GPHDT,,T*1B
$GNACCURACY,5.2*11
$GNGGA,032103.000,2500.7869242,N,12132.4709978,E,2,53,0.50,16.582,M,15.25,M,1,3335*41
$GNRMC,032103.000,A,2500.7869242,N,12132.4709978,E,0.03,46.08,090324,,,D,V*35
$GPHDT,,T*1B
