$FW : RTK35X,V1.1X0314AS,Lib20210517,1*54
$Tool : LOCOSYS , GNSS Firebird , v1.0.0.19*39
$---------------------------------------------------*2D
$GNACCURACY,5.5*16
$GNGGA,032133.800,2500.7869602,N,12132.4710458,E,2,57,0.50,17.024,M,15.25,M,0,3335*40
$GNRMC,032133.800,A,2500.7869602,N,12132.4710458,E,0.21,299.86,090324,,,D,V*0F
$GPHDT,,T*1B
$GNACCURACY,5.5*16
$GNGGA,032133.900,2500.7869662,N,12132.4710458,E,2,57,0.50,17.048,M,15.25,M,0,3335*4D
$GNRMC,032133.900,A,2500.7869662,N,12132.4710458,E,0.10,299.86,090324,,,D,V*0A
$GPHDT,,T*1B
$GNACCURACY,5.6*15
$GNGGA,032134.000,2500.7869722,N,12132.4710458,E,2,57,0.50,17.055,M,15.25,M,1,3335*4B
$GNRMC,032134.000,A,2500.7869722,N,12132.4710458,E,0.02,299.86,090324,,,D,V*02
$GPHDT,,T*1B
$GNGSA,A,3,08,194,195,27,21,16,04,09,02,196,26,31,0.78,0.50,0.60,1*32
$GNGSA,A,3,88,78,77,87,79,,,,,,,,0.78,0.50,0.60,2*00
$GNGSA,A,3,21,13,19,27,26,15,,,,,,,0.78,0.50,0.60,3*03
$GNGSA,A,3,06,16,43,09,39,40,07,23,10,11,25,28,0.78,0.50,0.60,4*03
$GNGSA,A,3,34,,,,,,,,,,,,0.78,0.50,0.60,4*0F
$GPGSV,4,1,15,08,72,295,22,199,65,164,,194,63,046,30,195,57,124,22,1*57
$GPGSV,4,2,15,27,53,026,26,45,47,231,38,21,37,171,46,16,36,052,37,1*6F
$GPGSV,4,3,15,04,34,219,32,09,31,270,15,02,25,182,43,07,23,320,,1*6B
$GPGSV,4,4,15,196,21,174,31,26,18,081,27,31,17,136,25,1*6B
$GPGSV,2,1,07,08,72,295,31,194,63,046,25,195,57,124,37,27,53,026,31,8*6D
$GPGSV,2,2,07,04,34,219,34,196,21,174,43,26,18,081,27,8*6D
$GLGSV,2,1,05,88,72,087,36,78,44,001,30,77,33,082,19,87,24,031,26,1*71
$GLGSV,2,2,05,79,10,317,17,1*41
$GAGSV,2,1,07,21,50,345,16,13,48,112,28,19,37,260,15,27,34,060,34,7*7D
$GAGSV,2,2,07,26,25,175,38,15,24,051,37,04,09,314,,7*46
$GAGSV,2,1,06,21,50,345,13,13,48,112,28,19,37,260,22,27,34,060,36,1*79
$GAGSV,2,2,06,26,25,175,39,15,24,051,37,1*7B
$GBGSV,4,1,13,06,83,230,29,16,80,188,30,43,76,071,23,09,74,306,30,1*76
$GBGSV,4,2,13,39,69,174,26,40,66,313,23,07,63,292,14,23,59,353,25,1*74
$GBGSV,4,3,13,10,52,275,32,11,51,048,23,25,48,092,41,28,36,207,41,1*77
$GBGSV,4,4,13,34,28,041,41,1*49
$GBGSV,2,1,07,43,76,071,21,39,69,174,26,40,66,313,26,23,59,353,21,4*7D
$GBGSV,2,2,07,25,48,092,29,28,36,207,31,34,28,041,37,4*4B
$GNACCURACY,5.6*15
$PAIRSAT,1,30,2,0,201,3,0,200,4,0,221,5,0,200,6,0,200,7,0,201,8,0,221,9,0,21,14,0,200,15,0,200,16,0,201,17,0,200,18,0,200,19,0,200,20,0,200,21,0,201,22,0,200,23,0,200,24,0,200,25,0,200,26,0,221,27,0,221,28,0,200,29,0,200,30,0,200,31,0,1,194,0,621,195,0,621,196,0,220,199,0,600*45
$PAIRSAT,2,17,70,0,200,71,0,200,72,0,200,73,0,200,74,0,200,75,0,200,76,0,200,77,0,201,78,0,201,79,0,201,82,0,200,83,0,200,84,0,200,85,0,200,86,0,200,87,0,201,88,0,201*57
$PAIRSAT,3,22,2,0,1200,3,0,1200,4,0,1200,5,0,200,7,0,1200,8,0,1200,9,0,1200,10,0,200,11,0,200,12,0,200,13,0,21,15,0,21,19,0,21,21,0,221,25,0,1200,26,0,1221,27,0,1221,30,0,1200,31,0,1200,33,0,1200,34,0,1200,36,0,1200*71
$PAIRSAT,4,46,1,0,200,2,0,200,3,0,400,4,0,200,5,0,200,6,0,201,7,0,201,8,0,200,9,0,201,10,0,201,11,0,201,12,0,200,13,0,200,14,0,200,16,0,201,19,0,600,20,0,400,21,0,400,22,0,400,23,0,421,24,0,600,25,0,621,26,0,600,27,0,400,28,0,621,29,0,600,30,0,600,32,0,600,33,0,600,34,0,621,35,0,600,36,0,600,37,0,600,38,0,600,39,0,621,40,0,421,41,0,400,42,0,400,43,0,421,44,0,400,45,0,400,46,0,400,59,0,400,60,0,400,61,0,400,62,0,400*48
$PAIRDGP,8,2,4,7,8,9,16,21,27*7C
$GNGGA,032134.100,2500.7869722,N,12132.4710458,E,2,56,0.50,17.066,M,15.25,M,1,3335*4B
$GNRMC,032134.100,A,2500.7869722,N,12132.4710458,E,0.13,299.86,090324,,,D,V*03
$GPHDT,,T*1B
$GNACCURACY,5.6*15
$GNGGA,032134.200,2500.7869722,N,12132.4710518,E,2,56,0.50,17.065,M,15.25,M,1,3335*4E
$GNRMC,032134.200,A,2500.7869722,N,12132.4710518,E,0.04,299.86,090324,,,D,V*03
$GPHDT,,T*1B
$GNACCURACY,5.6*15
$GNGGA,032134.300,2500.7869722,N,12132.4710518,E,2,55,0.50,17.074,M,15.25,M,1,3335*4C
$GNRMC,032134.300,A,2500.7869722,N,12132.4710518,E,0.08,299.86,090324,,,D,V*0E
$GPHDT,,T*1B
$GNACCURACY,5.6*15
$GNGGA,032134.400,2500.7869722,N,12132.4710518,E,2,56,0.50,17.073,M,15.25,M,1,3335*4F
$GNRMC,032134.400,A,2500.7869722,N,12132.4710518,E,0.10,299.86,090324,,,D,V*00
$GPHDT,,T*1B
$GNACCURACY,5.6*15
$GNGGA,032134.500,2500.7869722,N,12132.4710578,E,2,56,0.50,17.080,M,15.25,M,1,3335*44
$GNRMC,032134.500,A,2500.7869722,N,12132.4710578,E,0.32,299.86,090324,,,D,V*07
$GPHDT,,T*1B
$GNACCURACY,5.6*15
$GNGGA,032134.600,2500.7869782,N,12132.4710518,E,2,56,0.50,17.089,M,15.25,M,1,3335*42
$GNRMC,032134.600,A,2500.7869782,N,12132.4710518,E,0.20,299.86,090324,,,D,V*0B
$GPHDT,,T*1B
$GNACCURACY,5.6*15
$GNGGA,032134.700,2500.7869782,N,12132.4710458,E,2,55,0.50,17.104,M,15.25,M,0,3335*40
$GNRMC,032134.700,A,2500.7869782,N,12132.4710458,E,0.08,299.86,090324,,,D,V*05
$GPHDT,,T*1B
$GNACCURACY,5.6*15
$GNGGA,032134.800,2500.7869842,N,12132.4710518,E,2,55,0.50,17.121,M,15.25,M,0,3335*4E
$GNRMC,032134.800,A,2500.7869842,N,12132.4710518,E,0.34,299.86,090324,,,D,V*03
$GPHDT,,T*1B
$GNACCURACY,5.6*15
$GNGGA,032134.900,2500.7869842,N,12132.4710458,E,2,54,0.51,17.144,M,15.25,M,0,3335*49
$GNRMC,032134.900,A,2500.7869842,N,12132.4710458,E,0.11,299.86,090324,,,D,V*00
$GPHDT,,T*1B
$GNACCURACY,5.6*15
$GNGGA,032135.000,2500.7869842,N,12132.4710458,E,2,53,0.51,17.151,M,15.25,M,1,3335*43
$GNRMC,032135.000,A,2500.7869842,N,12132.4710458,E,0.11,299.86,090324,,,D,V*08
$GPHDT,,T*1B
$GNGSA,A,3,08,195,27,21,16,04,02,196,26,31,194,,0.80,0.51,0.61,1*3C
$GNGSA,A,3,88,78,77,87,79,,,,,,,,0.80,0.51,0.61,2*07
$GNGSA,A,3,21,13,19,27,26,15,,,,,,,0.80,0.51,0.61,3*04
$GNGSA,A,3,06,16,43,09,39,40,07,10,11,25,28,34,0.80,0.51,0.61,4*02
$GNGSA,A,3,23,,,,,,,,,,,,0.80,0.51,0.61,4*0E
$GPGSV,4,1,15,08,72,295,26,199,65,164,,194,63,046,25,195,57,124,25,1*50
$GPGSV,4,2,15,27,53,026,27,45,47,231,37,21,37,171,46,16,36,052,37,1*61
$GPGSV,4,3,15,04,34,219,32,09,31,270,14,02,25,182,39,07,23,320,,1*67
$GPGSV,4,4,15,196,21,174,34,26,18,081,28,31,17,136,25,1*61
$GPGSV,2,1,07,08,72,295,31,194,63,046,25,195,57,124,37,27,53,026,31,8*6D
$GPGSV,2,2,07,04,34,219,35,196,21,174,42,26,18,081,25,8*6F
$GLGSV,2,1,05,88,72,087,36,78,44,001,29,77,33,082,23,87,24,031,27,1*71
$GLGSV,2,2,05,79,10,317,15,1*43
$GAGSV,2,1,07,21,50,345,18,13,48,112,27,19,37,260,18,27,34,060,33,7*76
$GAGSV,2,2,07,26,25,175,38,15,24,051,37,04,09,314,,7*46
$GAGSV,2,1,06,21,50,345,13,13,48,112,27,19,37,260,23,27,34,060,35,1*74
$GAGSV,2,2,06,26,25,175,38,15,24,051,37,1*7A
$GBGSV,4,1,13,06,83,230,28,16,80,188,30,43,76,071,25,09,74,306,30,1*71
$GBGSV,4,2,13,39,69,174,27,40,66,313,24,07,63,292,16,23,59,353,,1*77
$GBGSV,4,3,13,10,52,275,32,11,51,048,23,25,48,092,41,28,36,207,41,1*77
$GBGSV,4,4,13,34,28,041,41,1*49
$GBGSV,2,1,07,43,76,071,22,39,69,174,26,40,66,313,26,23,59,353,22,4*7D
$GBGSV,2,2,07,25,48,092,28,28,36,207,30,34,28,041,37,4*4B
$GNACCURACY,5.6*15
$PAIRSAT,1,30,2,0,201,3,0,200,4,0,221,5,0,200,6,0,200,7,0,201,8,0,221,9,0,21,14,0,200,15,0,200,16,0,201,17,0,200,18,0,200,19,0,200,20,0,200,21,0,201,22,0,200,23,0,200,24,0,200,25,0,200,26,0,221,27,0,221,28,0,200,29,0,200,30,0,200,31,0,1,194,0,621,195,0,621,196,0,220,199,0,600*45
$PAIRSAT,2,17,70,0,200,71,0,200,72,0,200,73,0,200,74,0,200,75,0,200,76,0,200,77,0,201,78,0,201,79,0,201,82,0,200,83,0,200,84,0,200,85,0,200,86,0,200,87,0,201,88,0,201*57
$PAIRSAT,3,22,2,0,1200,3,0,1200,4,0,1200,5,0,200,7,0,1200,8,0,1200,9,0,1200,10,0,200,11,0,200,12,0,200,13,0,21,15,0,21,19,0,21,21,0,221,25,0,1200,26,0,1221,27,0,1221,30,0,1200,31,0,1200,33,0,1200,34,0,1200,36,0,1200*71
$PAIRSAT,4,46,1,0,200,2,0,200,3,0,400,4,0,200,5,0,200,6,0,201,7,0,201,8,0,200,9,0,201,10,0,201,11,0,201,12,0,200,13,0,200,14,0,200,16,0,201,19,0,600,20,0,400,21,0,400,22,0,400,23,0,421,24,0,600,25,0,621,26,0,600,27,0,400,28,0,621,29,0,600,30,0,600,32,0,600,33,0,600,34,0,621,35,0,600,36,0,600,37,0,600,38,0,600,39,0,621,40,0,421,41,0,400,42,0,400,43,0,421,44,0,400,45,0,400,46,0,400,59,0,400,60,0,400,61,0,400,62,0,400*48
$PAIRDGP,8,2,4,7,8,9,16,21,27*7C
$GNGGA,032135.100,2500.7869902,N,12132.4710458,E,2,53,0.51,17.153,M,15.25,M,1,3335*45
$GNRMC,032135.100,A,2500.7869902,N,12132.4710458,E,0.07,299.86,090324,,,D,V*0B
$GPHDT,,T*1B
$GNACCURACY,5.6*15
$GNGGA,032135.200,2500.7869902,N,12132.4710518,E,2,52,0.52,17.156,M,15.25,M,1,3335*44
$GNRMC,032135.200,A,2500.7869902,N,12132.4710518,E,0.08,299.86,090324,,,D,V*02
$GPHDT,,T*1B
$GNACCURACY,5.6*15
$GNGGA,032135.300,2500.7869902,N,12132.4710518,E,2,52,0.52,17.160,M,15.25,M,1,3335*40
$GNRMC,032135.300,A,2500.7869902,N,12132.4710518,E,0.12,299.86,090324,,,D,V*08
$GPHDT,,T*1B
$GNACCURACY,5.6*15
$GNGGA,032135.400,2500.7869902,N,12132.4710518,E,2,53,0.52,17.168,M,15.25,M,1,3335*4E
$GNRMC,032135.400,A,2500.7869902,N,12132.4710518,E,0.17,299.86,090324,,,D,V*0A
$GPHDT,,T*1B
$GNACCURACY,5.5*16
$GNGGA,032135.500,2500.7869902,N,12132.4710458,E,2,53,0.52,17.181,M,15.25,M,1,3335*4D
$GNRMC,032135.500,A,2500.7869902,N,12132.4710458,E,0.13,299.86,090324,,,D,V*0A
$GPHDT,,T*1B
$GNACCURACY,5.5*16
$GNGGA,032135.600,2500.7869962,N,12132.4710458,E,2,53,0.52,17.197,M,15.25,M,0,3335*4E
$GNRMC,032135.600,A,2500.7869962,N,12132.4710458,E,0.04,299.86,090324,,,D,V*09
$GPHDT,,T*1B
$GNACCURACY,5.5*16
$GNGGA,032135.700,2500.7869962,N,12132.4710458,E,2,53,0.52,17.203,M,15.25,M,0,3335*41
$GNRMC,032135.700,A,2500.7869962,N,12132.4710458,E,0.13,299.86,090324,,,D,V*0E
$GPHDT,,T*1B
$GNACCURACY,5.6*15
$GNGGA,032135.800,2500.7869962,N,12132.4710518,E,2,54,0.51,17.214,M,15.25,M,0,3335*49
$GNRMC,032135.800,A,2500.7869962,N,12132.4710518,E,0.08,299.86,090324,,,D,V*0E
$GPHDT,,T*1B
$GNACCURACY,5.6*15
$GNGGA,032135.900,2500.7869962,N,12132.4710518,E,2,54,0.51,17.238,M,15.25,M,0,3335*46
$GNRMC,032135.900,A,2500.7869962,N,12132.4710518,E,0.11,299.86,090324,,,D,V*07
$GPHDT,,T*1B
$GNACCURACY,5.6*15
$GNGGA,032136.000,2500.7870022,N,12132.4710518,E,2,54,0.51,17.249,M,15.25,M,1,3335*4E
$GNRMC,032136.000,A,2500.7870022,N,12132.4710518,E,0.08,299.86,090324,,,D,V*00
$GPHDT,,T*1B
$GNGSA,A,3,08,194,195,27,21,16,04,02,196,26,31,,0.80,0.51,0.61,1*3C
$GNGSA,A,3,88,78,77,87,79,,,,,,,,0.80,0.51,0.61,2*07
$GNGSA,A,3,21,13,19,27,26,15,,,,,,,0.80,0.51,0.61,3*04
$GNGSA,A,3,06,16,43,09,39,40,07,10,11,25,28,34,0.80,0.51,0.61,4*02
$GNGSA,A,3,23,,,,,,,,,,,,0.80,0.51,0.61,4*0E
$GPGSV,4,1,15,08,72,295,24,199,65,164,,194,63,046,30,195,57,124,30,1*52
$GPGSV,4,2,15,27,53,026,28,45,47,231,38,21,37,171,46,16,36,052,37,1*61
$GPGSV,4,3,15,04,34,219,32,09,31,270,16,02,25,182,41,07,23,320,,1*6A
$GPGSV,4,4,15,196,21,174,35,26,18,081,28,31,17,136,23,1*66
$GPGSV,2,1,07,08,72,295,31,194,63,046,25,195,57,124,37,27,53,026,32,8*6E
$GPGSV,2,2,07,04,34,219,34,196,21,174,42,26,18,081,28,8*63
$GLGSV,2,1,05,88,72,087,35,78,44,001,31,77,33,082,26,87,24,031,26,1*7F
$GLGSV,2,2,05,79,10,317,15,1*43
$GAGSV,2,1,07,21,50,345,18,13,48,112,29,19,37,260,18,27,34,060,33,7*78
$GAGSV,2,2,07,26,25,175,39,15,24,051,36,04,09,314,,7*46
$GAGSV,2,1,06,21,50,345,10,13,48,112,24,19,37,260,23,27,34,060,34,1*75
$GAGSV,2,2,06,26,25,175,38,15,24,051,35,1*78
$GBGSV,4,1,13,06,83,230,28,16,80,188,30,43,76,071,23,09,74,306,30,1*77
$GBGSV,4,2,13,39,69,174,30,40,66,313,25,07,63,292,15,23,59,353,,1*73
$GBGSV,4,3,13,10,52,275,31,11,51,048,23,25,48,092,39,28,36,207,41,1*7B
$GBGSV,4,4,13,34,28,041,41,1*49
$GBGSV,2,1,07,43,76,071,23,39,69,174,28,40,66,313,26,23,59,353,21,4*71
$GBGSV,2,2,07,25,48,092,29,28,36,207,31,34,28,041,37,4*4B
$GNACCURACY,5.6*15
$PAIRSAT,1,30,2,0,201,3,0,200,4,0,221,5,0,200,6,0,200,7,0,201,8,0,221,9,0,21,14,0,200,15,0,200,16,0,201,17,0,200,18,0,200,19,0,200,20,0,200,21,0,201,22,0,200,23,0,200,24,0,200,25,0,200,26,0,221,27,0,221,28,0,200,29,0,200,30,0,200,31,0,201,194,0,621,195,0,621,196,0,220,199,0,600*47
$PAIRSAT,2,17,70,0,200,71,0,200,72,0,200,73,0,200,74,0,200,75,0,200,76,0,200,77,0,201,78,0,201,79,0,201,82,0,200,83,0,200,84,0,200,85,0,200,86,0,200,87,0,201,88,0,201*57
$PAIRSAT,3,22,2,0,1200,3,0,1200,4,0,1200,5,0,200,7,0,1200,8,0,1200,9,0,1200,10,0,200,11,0,200,12,0,200,13,0,21,15,0,21,19,0,21,21,0,221,25,0,1200,26,0,1221,27,0,1221,30,0,1200,31,0,1200,33,0,1200,34,0,1200,36,0,1200*71
$PAIRSAT,4,46,1,0,200,2,0,200,3,0,400,4,0,200,5,0,200,6,0,201,7,0,201,8,0,200,9,0,201,10,0,201,11,0,201,12,0,200,13,0,200,14,0,200,16,0,201,19,0,600,20,0,400,21,0,400,22,0,400,23,0,421,24,0,600,25,0,621,26,0,600,27,0,400,28,0,621,29,0,600,30,0,600,32,0,600,33,0,600,34,0,621,35,0,600,36,0,600,37,0,600,38,0,600,39,0,621,40,0,421,41,0,400,42,0,400,43,0,421,44,0,400,45,0,400,46,0,400,59,0,400,60,0,400,61,0,400,62,0,400*48
$PAIRDGP,8,2,4,7,8,9,16,21,27*7C
$GNGGA,032136.100,2500.7870082,N,12132.4710458,E,2,54,0.51,17.253,M,15.25,M,1,3335*4B
$GNRMC,032136.100,A,2500.7870082,N,12132.4710458,E,0.10,299.86,090324,,,D,V*07
$GPHDT,,T*1B
$GNACCURACY,5.6*15
$GNGGA,032136.200,2500.7870022,N,12132.4710518,E,2,54,0.51,17.260,M,15.25,M,1,3335*47
$GNRMC,032136.200,A,2500.7870022,N,12132.4710518,E,0.05,299.86,090324,,,D,V*0F
$GPHDT,,T*1B
$GNACCURACY,5.6*15
$GNGGA,032136.300,2500.7870082,N,12132.4710518,E,2,54,0.51,17.271,M,15.25,M,1,3335*4C
$GNRMC,032136.300,A,2500.7870082,N,12132.4710518,E,0.17,299.86,090324,,,D,V*07
$GPHDT,,T*1B
$GNACCURACY,5.6*15
$GNGGA,032136.400,2500.7870082,N,12132.4710578,E,2,54,0.51,17.270,M,15.25,M,1,3335*4C
$GNRMC,032136.400,A,2500.7870082,N,12132.4710578,E,0.10,299.86,090324,,,D,V*01
$GPHDT,,T*1B
$GNACCURACY,5.6*15
$GNGGA,032136.500,2500.7870022,N,12132.4710638,E,2,54,0.51,17.278,M,15.25,M,1,3335*48
$GNRMC,032136.500,A,2500.7870022,N,12132.4710638,E,0.27,299.86,090324,,,D,V*09
$GPHDT,,T*1B
$GNACCURACY,5.6*15
$GNGGA,032136.600,2500.7870082,N,12132.4710578,E,2,54,0.51,17.286,M,15.25,M,1,3335*47
$GNRMC,032136.600,A,2500.7870082,N,12132.4710578,E,0.10,299.86,090324,,,D,V*03
$GPHDT,,T*1B
$GNACCURACY,5.6*15
$GNGGA,032136.700,2500.7870082,N,12132.4710578,E,2,54,0.51,17.303,M,15.25,M,0,3335*4B
$GNRMC,032136.700,A,2500.7870082,N,12132.4710578,E,0.21,299.86,090324,,,D,V*00
$GPHDT,,T*1B
$GNACCURACY,5.6*15
$GNGGA,032136.800,2500.7870142,N,12132.4710518,E,2,51,0.53,17.308,M,15.25,M,0,3335*43
$GNRMC,032136.800,A,2500.7870142,N,12132.4710518,E,0.04,299.86,090324,,,D,V*03
$GPHDT,,T*1B
$GNACCURACY,5.5*16
$GNGGA,032136.900,2500.7870142,N,12132.4710518,E,2,51,0.53,17.325,M,15.25,M,0,3335*4D
$GNRMC,032136.900,A,2500.7870142,N,12132.4710518,E,0.02,299.86,090324,,,D,V*04
$GPHDT,,T*1B
$GNACCURACY,5.5*16
$GNGGA,032137.000,2500.7870202,N,12132.4710518,E,2,51,0.53,17.326,M,15.25,M,1,3335*40
$GNRMC,032137.000,A,2500.7870202,N,12132.4710518,E,0.05,299.86,090324,,,D,V*0C
$GPHDT,,T*1B
$GNGSA,A,3,08,194,195,27,21,16,04,02,196,26,31,,0.81,0.53,0.61,1*3F
$GNGSA,A,3,88,78,77,87,79,,,,,,,,0.81,0.53,0.61,2*04
$GNGSA,A,3,13,19,27,26,15,,,,,,,,0.81,0.53,0.61,3*04
$GNGSA,A,3,06,16,43,09,39,40,10,11,25,28,34,23,0.81,0.53,0.61,4*07
$GPGSV,4,1,15,08,72,295,26,199,65,164,,194,63,046,29,195,57,124,29,1*50
$GPGSV,4,2,15,27,53,026,28,45,47,231,39,21,37,171,46,16,36,052,34,1*63
$GPGSV,4,3,15,04,34,219,32,09,31,270,16,02,25,182,41,07,23,320,,1*6A
$GPGSV,4,4,15,196,21,174,36,26,18,081,24,31,17,136,22,1*68
$GPGSV,2,1,07,08,72,295,31,194,63,046,25,195,57,124,37,27,53,026,32,8*6E
$GPGSV,2,2,07,04,34,219,34,196,21,174,42,26,18,081,28,8*63
$GLGSV,2,1,05,88,72,087,35,78,44,001,31,77,33,082,26,87,24,031,28,1*71
$GLGSV,2,2,05,79,10,317,16,1*40
$GAGSV,2,1,07,21,50,345,,13,48,112,30,19,37,260,18,27,34,060,35,7*7F
$GAGSV,2,2,07,26,25,175,39,15,24,051,37,04,09,314,,7*47
$GAGSV,2,1,05,13,48,112,27,19,37,260,23,27,34,060,34,26,25,175,39,1*7A
$GAGSV,2,2,05,15,24,051,36,1*43
$GBGSV,4,1,15,06,83,230,26,16,80,188,30,43,76,071,29,09,74,306,32,1*77
$GBGSV,4,2,15,39,69,174,28,40,66,313,23,07,63,292,15,23,59,353,,1*7A
$GBGSV,4,3,15,10,52,275,31,11,51,048,24,25,48,092,39,28,36,207,41,1*7A
$GBGSV,4,4,15,34,28,041,41,32,06,259,,41,05,209,,1*4D
$GBGSV,2,1,07,43,76,071,23,39,69,174,27,40,66,313,25,23,59,353,20,4*7C
$GBGSV,2,2,07,25,48,092,31,28,36,207,30,34,28,041,37,4*43
$GNACCURACY,5.5*16
$PAIRSAT,1,30,2,0,201,3,0,200,4,0,221,5,0,200,6,0,200,7,0,201,8,0,221,9,0,21,14,0,200,15,0,200,16,0,201,17,0,200,18,0,200,19,0,200,20,0,200,21,0,201,22,0,200,23,0,200,24,0,200,25,0,200,26,0,221,27,0,221,28,0,200,29,0,200,30,0,200,31,0,201,194,0,621,195,0,621,196,0,220,199,0,600*47
$PAIRSAT,2,17,70,0,200,71,0,200,72,0,200,73,0,200,74,0,200,75,0,200,76,0,200,77,0,201,78,0,201,79,0,201,82,0,200,83,0,200,84,0,200,85,0,200,86,0,200,87,0,201,88,0,201*57
$PAIRSAT,3,22,2,0,1200,3,0,1200,4,0,1200,5,0,200,7,0,1200,8,0,1200,9,0,1200,10,0,200,11,0,200,12,0,200,13,0,21,15,0,21,19,0,21,21,0,221,25,0,1200,26,0,1221,27,0,1221,30,0,1200,31,0,1200,33,0,1200,34,0,1200,36,0,1200*71
$PAIRSAT,4,46,1,0,200,2,0,200,3,0,400,4,0,200,5,0,200,6,0,201,7,0,201,8,0,200,9,0,201,10,0,201,11,0,201,12,0,200,13,0,200,14,0,200,16,0,201,19,0,600,20,0,400,21,0,400,22,0,400,23,0,421,24,0,600,25,0,621,26,0,600,27,0,400,28,0,621,29,0,600,30,0,600,32,0,600,33,0,600,34,0,621,35,0,600,36,0,600,37,0,600,38,0,600,39,0,621,40,0,421,41,0,400,42,0,400,43,0,421,44,0,400,45,0,400,46,0,400,59,0,400,60,0,400,61,0,400,62,0,400*48
$PAIRDGP,8,2,4,7,8,9,16,21,27*7C
$GNGGA,032137.100,2500.7870202,N,12132.4710518,E,2,51,0.53,17.330,M,15.25,M,1,3335*46
$GNRMC,032137.100,A,2500.7870202,N,12132.4710518,E,0.03,299.86,090324,,,D,V*0B
$GPHDT,,T*1B
$GNACCURACY,5.5*16
$GNGGA,032137.200,2500.7870202,N,12132.4710518,E,2,51,0.53,17.336,M,15.25,M,1,3335*43
$GNRMC,032137.200,A,2500.7870202,N,12132.4710518,E,0.13,299.86,090324,,,D,V*09
$GPHDT,,T*1B
$GNACCURACY,5.5*16
$GNGGA,032137.300,2500.7870202,N,12132.4710518,E,2,51,0.53,17.340,M,15.25,M,1,3335*43
$GNRMC,032137.300,A,2500.7870202,N,12132.4710518,E,0.09,299.86,090324,,,D,V*03
$GPHDT,,T*1B
$GNACCURACY,5.5*16
$GNGGA,032137.400,2500.7870262,N,12132.4710518,E,2,51,0.53,17.343,M,15.25,M,1,3335*41
$GNRMC,032137.400,A,2500.7870262,N,12132.4710518,E,0.04,299.86,090324,,,D,V*0F
$GPHDT,,T*1B
$GNACCURACY,5.5*16
$GNGGA,032137.500,2500.7870262,N,12132.4710518,E,2,52,0.51,17.346,M,15.25,M,0,3335*45
$GNRMC,032137.500,A,2500.7870262,N,12132.4710518,E,0.01,299.86,090324,,,D,V*0B
$GPHDT,,T*1B
$GNACCURACY,5.5*16
$GNGGA,032137.600,2500.7870262,N,12132.4710518,E,2,52,0.51,17.351,M,15.25,M,0,3335*40
$GNRMC,032137.600,A,2500.7870262,N,12132.4710518,E,0.04,299.86,090324,,,D,V*0D
$GPHDT,,T*1B
$GNACCURACY,5.5*16
$GNGGA,032137.700,2500.7870322,N,12132.4710518,E,2,52,0.51,17.349,M,15.25,M,0,3335*4D
$GNRMC,032137.700,A,2500.7870322,N,12132.4710518,E,0.22,299.86,090324,,,D,V*0D
$GPHDT,,T*1B
$GNACCURACY,5.5*16
$GNGGA,032137.800,2500.7870322,N,12132.4710458,E,2,52,0.51,17.363,M,15.25,M,0,3335*4F
$GNRMC,032137.800,A,2500.7870322,N,12132.4710458,E,0.35,299.86,090324,,,D,V*01
$GPHDT,,T*1B
$GNACCURACY,5.5*16
$GNGGA,032137.900,2500.7870382,N,12132.4710398,E,2,52,0.51,17.377,M,15.25,M,0,3335*4A
$GNRMC,032137.900,A,2500.7870382,N,12132.4710398,E,0.08,299.86,090324,,,D,V*0F
$GPHDT,,T*1B
$GNACCURACY,5.5*16
$GNGGA,032138.000,2500.7870382,N,12132.4710458,E,2,53,0.51,17.373,M,15.25,M,1,3335*43
$GNRMC,032138.000,A,2500.7870382,N,12132.4710458,E,0.07,299.86,090324,,,D,V*0D
$GPHDT,,T*1B
$GNGSA,A,3,08,194,195,27,21,16,04,09,02,196,26,31,0.79,0.51,0.60,1*32
$GNGSA,A,3,88,78,77,87,79,,,,,,,,0.79,0.51,0.60,2*00
$GNGSA,A,3,13,19,27,26,15,,,,,,,,0.79,0.51,0.60,3*00
$GNGSA,A,3,06,16,43,09,39,40,23,10,11,25,28,34,0.79,0.51,0.60,4*03
$GPGSV,4,1,15,08,72,295,27,199,65,164,,194,63,046,30,195,57,124,30,1*51
$GPGSV,4,2,15,27,53,026,26,45,47,231,38,21,37,171,46,16,36,052,34,1*6C
$GPGSV,4,3,15,04,34,219,32,09,31,270,18,02,25,182,41,07,23,320,,1*64
$GPGSV,4,4,15,196,21,174,37,26,18,081,24,31,17,136,22,1*69
$GPGSV,2,1,07,08,72,295,31,194,63,046,25,195,57,124,37,27,53,026,32,8*6E
$GPGSV,2,2,07,04,34,219,34,196,21,174,42,26,18,081,29,8*62
$GLGSV,2,1,05,88,72,087,35,78,44,001,32,77,33,082,24,87,24,031,28,1*70
$GLGSV,2,2,05,79,10,317,16,1*40
$GAGSV,2,1,08,21,50,345,,13,48,112,30,19,37,260,18,27,34,060,36,7*73
$GAGSV,2,2,08,26,25,175,38,15,24,051,35,04,09,314,,20,,,35,7*4F
$GAGSV,2,1,05,13,48,112,26,19,37,260,22,27,34,060,32,26,25,175,38,1*7D
$GAGSV,2,2,05,15,24,051,36,1*43
$GBGSV,4,1,15,06,83,230,27,16,80,188,32,43,76,071,28,09,74,306,33,1*74
$GBGSV,4,2,15,39,69,174,31,40,66,313,26,07,63,292,17,23,59,353,23,1*74
$GBGSV,4,3,15,10,52,275,32,11,51,048,27,25,48,092,39,28,36,207,41,1*7A
$GBGSV,4,4,15,34,28,041,40,12,01,036,,24,01,117,,1*49
$GBGSV,2,1,07,43,76,071,22,39,69,174,29,40,66,313,24,23,59,353,23,4*71
$GBGSV,2,2,07,25,48,092,30,28,36,207,29,34,28,041,37,4*4A
$GNACCURACY,5.5*16
$PAIRSAT,1,30,2,0,201,3,0,200,4,0,221,5,0,200,6,0,200,7,0,201,8,0,221,9,0,21,14,0,200,15,0,200,16,0,201,17,0,200,18,0,200,19,0,200,20,0,200,21,0,201,22,0,200,23,0,200,24,0,200,25,0,200,26,0,221,27,0,221,28,0,200,29,0,200,30,0,200,31,0,201,194,0,621,195,0,621,196,0,220,199,0,600*47
$PAIRSAT,2,17,70,0,200,71,0,200,72,0,200,73,0,200,74,0,200,75,0,200,76,0,200,77,0,201,78,0,201,79,0,201,82,0,200,83,0,200,84,0,200,85,0,200,86,0,200,87,0,201,88,0,201*57
$PAIRSAT,3,22,2,0,1200,3,0,1200,4,0,1200,5,0,200,7,0,1200,8,0,1200,9,0,1200,10,0,200,11,0,200,12,0,200,13,0,21,15,0,21,19,0,21,21,0,221,25,0,1200,26,0,1221,27,0,1221,30,0,1200,31,0,1200,33,0,1200,34,0,1200,36,0,1200*71
$PAIRSAT,4,46,1,0,200,2,0,200,3,0,400,4,0,200,5,0,200,6,0,201,7,0,201,8,0,200,9,0,201,10,0,201,11,0,201,12,0,200,13,0,200,14,0,200,16,0,201,19,0,600,20,0,400,21,0,400,22,0,400,23,0,421,24,0,600,25,0,621,26,0,600,27,0,400,28,0,621,29,0,600,30,0,600,32,0,600,33,0,600,34,0,621,35,0,600,36,0,600,37,0,600,38,0,600,39,0,621,40,0,421,41,0,400,42,0,400,43,0,421,44,0,400,45,0,400,46,0,400,59,0,400,60,0,400,61,0,400,62,0,400*48
$PAIRDGP,8,2,4,7,8,9,16,21,27*7C
$GNGGA,032138.100,2500.7870382,N,12132.4710458,E,2,53,0.51,17.376,M,15.25,M,1,3335*47
$GNRMC,032138.100,A,2500.7870382,N,12132.4710458,E,0.20,299.86,090324,,,D,V*09
$GPHDT,,T*1B
$GNACCURACY,5.5*16
$GNGGA,032138.200,2500.7870442,N,12132.4710458,E,2,53,0.51,17.375,M,15.25,M,1,3335*4C
$GNRMC,032138.200,A,2500.7870442,N,12132.4710458,E,0.04,299.86,090324,,,D,V*07
$GPHDT,,T*1B
$GNACCURACY,5.5*16
$GNGGA,032138.300,2500.7870442,N,12132.4710458,E,2,53,0.51,17.374,M,15.25,M,1,3335*4C
$GNRMC,032138.300,A,2500.7870442,N,12132.4710458,E,0.03,299.86,090324,,,D,V*01
$GPHDT,,T*1B
$GNACCURACY,5.5*16
$GNGGA,032138.400,2500.7870442,N,12132.4710458,E,2,53,0.51,17.373,M,15.25,M,1,3335*4C
$GNRMC,032138.400,A,2500.7870442,N,12132.4710458,E,0.12,299.86,090324,,,D,V*06
$GPHDT,,T*1B
$GNACCURACY,5.5*16
$GNGGA,032138.500,2500.7870442,N,12132.4710518,E,2,53,0.51,17.374,M,15.25,M,1,3335*4F
$GNRMC,032138.500,A,2500.7870442,N,12132.4710518,E,0.05,299.86,090324,,,D,V*04
$GPHDT,,T*1B
$GNACCURACY,5.5*16
$GNGGA,032138.600,2500.7870442,N,12132.4710518,E,2,53,0.51,17.379,M,15.25,M,0,3335*40
$GNRMC,032138.600,A,2500.7870442,N,12132.4710518,E,0.02,299.86,090324,,,D,V*00
$GPHDT,,T*1B
$GNACCURACY,5.5*16
$GNGGA,032138.700,2500.7870442,N,12132.4710518,E,2,53,0.51,17.381,M,15.25,M,0,3335*46
$GNRMC,032138.700,A,2500.7870442,N,12132.4710518,E,0.05,299.86,090324,,,D,V*06
$GPHDT,,T*1B
$GNACCURACY,5.4*17
$GNGGA,032138.800,2500.7870442,N,12132.4710518,E,2,54,0.48,17.385,M,15.25,M,0,3335*42
$GNRMC,032138.800,A,2500.7870442,N,12132.4710518,E,0.14,299.86,090324,,,D,V*09
$GPHDT,,T*1B
$GNACCURACY,5.5*16
$GNGGA,032138.900,2500.7870442,N,12132.4710518,E,2,53,0.48,17.387,M,15.25,M,0,3335*46
$GNRMC,032138.900,A,2500.7870442,N,12132.4710518,E,0.17,299.86,090324,,,D,V*0B
$GPHDT,,T*1B
$GNACCURACY,5.4*17
$GNGGA,032139.000,2500.7870442,N,12132.4710578,E,2,53,0.48,17.389,M,15.25,M,1,3335*47
$GNRMC,032139.000,A,2500.7870442,N,12132.4710578,E,0.13,299.86,090324,,,D,V*01
$GPHDT,,T*1B
$GNGSA,A,3,08,194,195,27,21,16,04,09,02,07,196,26,0.76,0.48,0.59,1*3A
$GNGSA,A,3,31,,,,,,,,,,,,0.76,0.48,0.59,1*02
$GNGSA,A,3,88,78,77,87,79,,,,,,,,0.76,0.48,0.59,2*0D
$GNGSA,A,3,13,19,27,26,15,,,,,,,,0.76,0.48,0.59,3*0D
$GNGSA,A,3,06,16,43,09,39,40,23,10,11,25,28,34,0.76,0.48,0.59,4*0E
$GPGSV,4,1,15,08,72,295,27,199,65,164,,194,63,046,30,195,57,124,31,1*50
$GPGSV,4,2,15,27,53,026,26,45,47,231,38,21,37,171,46,16,36,052,36,1*6E
$GPGSV,4,3,15,04,34,219,32,09,31,270,23,02,25,182,41,07,23,320,19,1*64
$GPGSV,4,4,15,196,21,174,36,26,18,081,24,31,17,136,21,1*6B
$GPGSV,2,1,07,08,72,295,30,194,63,046,25,195,57,124,37,27,53,026,31,8*6C
$GPGSV,2,2,07,04,34,219,33,196,21,174,42,26,18,081,29,8*65
$GLGSV,2,1,05,88,72,087,35,78,44,001,31,77,33,082,25,87,24,031,28,1*72
$GLGSV,2,2,05,79,10,317,16,1*40
$GAGSV,2,1,08,21,50,345,,13,48,112,31,19,37,260,18,27,34,060,36,7*72
$GAGSV,2,2,08,26,25,175,38,15,24,051,37,04,09,314,,20,,,38,7*40
$GAGSV,2,1,05,13,48,112,22,19,37,260,23,27,34,060,34,26,25,175,38,1*7E
$GAGSV,2,2,05,15,24,051,35,1*40
$GBGSV,4,1,15,06,83,230,28,16,80,188,31,43,76,071,29,09,74,306,34,1*7E
$GBGSV,4,2,15,39,69,174,28,40,66,313,25,07,63,292,18,23,59,353,25,1*76
$GBGSV,4,3,15,10,52,275,31,11,51,048,27,25,48,092,39,28,36,207,42,1*7A
$GBGSV,4,4,15,34,28,041,37,12,01,036,,24,01,117,,1*49
$GBGSV,2,1,07,43,76,071,21,39,69,174,27,40,66,313,24,23,59,353,23,4*7C
$GBGSV,2,2,07,25,48,092,30,28,36,207,30,34,28,041,33,4*46
$GNACCURACY,5.9*1A
$PAIRSAT,1,30,2,0,201,3,0,200,4,0,221,5,0,200,6,0,200,7,0,201,8,0,221,9,0,21,14,0,200,15,0,200,16,0,201,17,0,200,18,0,200,19,0,200,20,0,200,21,0,201,22,0,200,23,0,200,24,0,200,25,0,200,26,0,221,27,0,221,28,0,200,29,0,200,30,0,200,31,0,201,194,0,621,195,0,621,196,0,220,199,0,600*47
$PAIRSAT,2,17,70,0,200,71,0,200,72,0,200,73,0,200,74,0,200,75,0,200,76,0,200,77,0,201,78,0,201,79,0,201,82,0,200,83,0,200,84,0,200,85,0,200,86,0,200,87,0,201,88,0,201*57
$PAIRSAT,3,22,2,0,1200,3,0,1200,4,0,1200,5,0,200,7,0,1200,8,0,1200,9,0,1200,10,0,200,11,0,200,12,0,200,13,0,21,15,0,21,19,0,21,21,0,221,25,0,1200,26,0,1221,27,0,1221,30,0,1200,31,0,1200,33,0,1200,34,0,1200,36,0,1200*71
$PAIRSAT,4,46,1,0,200,2,0,200,3,0,400,4,0,200,5,0,200,6,0,201,7,0,201,8,0,200,9,0,201,10,0,201,11,0,201,12,0,200,13,0,200,14,0,200,16,0,201,19,0,600,20,0,400,21,0,400,22,0,400,23,0,421,24,0,600,25,0,621,26,0,600,27,0,400,28,0,621,29,0,600,30,0,600,32,0,600,33,0,600,34,0,621,35,0,600,36,0,600,37,0,600,38,0,600,39,0,621,40,0,421,41,0,400,42,0,400,43,0,421,44,0,400,45,0,400,46,0,400,59,0,400,60,0,400,61,0,400,62,0,400*48
$PAIRDGP,8,2,4,7,8,9,16,21,27*7C
$GNGGA,032139.100,2500.7870442,N,12132.4710578,E,2,54,0.48,17.390,M,15.25,M,1,3335*49
$GNRMC,032139.100,A,2500.7870442,N,12132.4710578,E,0.12,299.86,090324,,,D,V*01
$GPHDT,,T*1B
$GNACCURACY,5.9*1A
$GNGGA,032139.200,2500.7870442,N,12132.4710578,E,2,54,0.48,17.394,M,15.25,M,1,3335*4E
$GNRMC,032139.200,A,2500.7870442,N,12132.4710578,E,0.09,299.86,090324,,,D,V*08
$GPHDT,,T*1B
$GNACCURACY,5.9*1A
$GNGGA,032139.300,2500.7870442,N,12132.4710518,E,2,54,0.48,17.391,M,15.25,M,1,3335*4C
$GNRMC,032139.300,A,2500.7870442,N,12132.4710518,E,0.08,299.86,090324,,,D,V*0E
$GPHDT,,T*1B
$GNACCURACY,5.9*1A
$GNGGA,032139.400,2500.7870442,N,12132.4710518,E,2,54,0.48,17.391,M,15.25,M,1,3335*4B
$GNRMC,032139.400,A,2500.7870442,N,12132.4710518,E,0.21,299.86,090324,,,D,V*02
$GPHDT,,T*1B
$GNACCURACY,5.9*1A
$GNGGA,032139.500,2500.7870502,N,12132.4710518,E,2,54,0.48,17.399,M,15.25,M,0,3335*46
$GNRMC,032139.500,A,2500.7870502,N,12132.4710518,E,0.14,299.86,090324,,,D,V*00
$GPHDT,,T*1B
$GNACCURACY,5.9*1A
$GNGGA,032139.600,2500.7870502,N,12132.4710578,E,2,54,0.48,17.394,M,15.25,M,0,3335*4E
$GNRMC,032139.600,A,2500.7870502,N,12132.4710578,E,0.03,299.86,090324,,,D,V*03
$GPHDT,,T*1B
$GNACCURACY,5.9*1A
$GNGGA,032139.700,2500.7870502,N,12132.4710578,E,2,54,0.48,17.401,M,15.25,M,0,3335*44
$GNRMC,032139.700,A,2500.7870502,N,12132.4710578,E,0.21,299.86,090324,,,D,V*02
$GPHDT,,T*1B
$GNACCURACY,5.9*1A
$GNGGA,032139.800,2500.7870562,N,12132.4710578,E,2,54,0.48,17.422,M,15.25,M,0,3335*4C
$GNRMC,032139.800,A,2500.7870562,N,12132.4710578,E,0.15,299.86,090324,,,D,V*0C
$GPHDT,,T*1B
$GNACCURACY,5.9*1A
$GNGGA,032139.900,2500.7870502,N,12132.4710578,E,2,54,0.48,17.423,M,15.25,M,0,3335*4A
$GNRMC,032139.900,A,2500.7870502,N,12132.4710578,E,0.05,299.86,090324,,,D,V*0A
$GPHDT,,T*1B
$GNACCURACY,5.7*14
$GNGGA,032140.000,2500.7870562,N,12132.4710578,E,2,54,0.48,17.424,M,15.25,M,1,3335*4D
$GNRMC,032140.000,A,2500.7870562,N,12132.4710578,E,0.10,299.86,090324,,,D,V*0F
$GPHDT,,T*1B
$GNGSA,A,3,08,194,195,27,21,16,04,09,02,07,196,26,0.76,0.48,0.59,1*3A
$GNGSA,A,3,31,,,,,,,,,,,,0.76,0.48,0.59,1*02
$GNGSA,A,3,88,78,77,87,79,,,,,,,,0.76,0.48,0.59,2*0D
$GNGSA,A,3,13,19,27,26,15,,,,,,,,0.76,0.48,0.59,3*0D
$GNGSA,A,3,06,16,43,09,39,40,23,10,11,25,28,34,0.76,0.48,0.59,4*0E
$GPGSV,4,1,15,08,72,295,24,199,65,164,,194,63,046,30,195,57,124,30,1*52
$GPGSV,4,2,15,27,53,026,29,45,47,231,39,21,37,171,46,16,36,052,35,1*63
$GPGSV,4,3,15,04,34,219,32,09,31,270,22,02,25,182,41,07,23,320,22,1*6D
$GPGSV,4,4,15,196,21,174,36,26,18,081,27,31,17,136,23,1*6A
$GPGSV,2,1,07,08,72,295,30,194,63,046,26,195,57,124,37,27,53,026,32,8*6C
$GPGSV,2,2,07,04,34,219,34,196,21,174,42,26,18,081,29,8*62
$GLGSV,2,1,05,88,72,087,33,78,44,001,31,77,33,082,27,87,24,031,27,1*79
$GLGSV,2,2,05,79,10,317,16,1*40
$GAGSV,2,1,08,21,50,345,,13,48,112,30,19,37,260,18,27,34,060,35,7*70
$GAGSV,2,2,08,26,25,175,38,15,24,051,35,04,09,314,,20,,,38,7*42
$GAGSV,2,1,05,13,48,112,27,19,37,260,23,27,34,060,32,26,25,175,38,1*7D
$GAGSV,2,2,05,15,24,051,36,1*43
$GBGSV,4,1,13,06,83,230,28,16,80,188,28,43,76,071,31,09,74,306,34,1*79
$GBGSV,4,2,13,39,69,174,26,40,66,313,25,07,63,292,17,23,59,353,22,1*76
$GBGSV,4,3,13,10,52,275,31,11,51,048,26,25,48,092,39,28,36,207,42,1*7D
$GBGSV,4,4,13,34,28,041,40,1*48
$GBGSV,2,1,07,43,76,071,23,39,69,174,31,40,66,313,25,23,59,353,22,4*79
$GBGSV,2,2,07,25,48,092,31,28,36,207,30,34,28,041,36,4*42
$GNACCURACY,5.7*14
$PAIRSAT,1,30,2,0,201,3,0,200,4,0,221,5,0,200,6,0,200,7,0,201,8,0,221,9,0,21,14,0,200,15,0,200,16,0,201,17,0,200,18,0,200,19,0,200,20,0,200,21,0,201,22,0,200,23,0,200,24,0,200,25,0,200,26,0,221,27,0,221,28,0,200,29,0,200,30,0,200,31,0,201,194,0,621,195,0,621,196,0,220,199,0,600*47
$PAIRSAT,2,17,70,0,200,71,0,200,72,0,200,73,0,200,74,0,200,75,0,200,76,0,200,77,0,201,78,0,201,79,0,201,82,0,200,83,0,200,84,0,200,85,0,200,86,0,200,87,0,201,88,0,201*57
$PAIRSAT,3,22,2,0,1200,3,0,1200,4,0,1200,5,0,200,7,0,1200,8,0,1200,9,0,1200,10,0,200,11,0,200,12,0,200,13,0,21,15,0,21,19,0,21,21,0,221,25,0,1200,26,0,1221,27,0,1221,30,0,1200,31,0,1200,33,0,1200,34,0,1200,36,0,1200*71
$PAIRSAT,4,46,1,0,200,2,0,200,3,0,400,4,0,200,5,0,200,6,0,201,7,0,201,8,0,200,9,0,201,10,0,201,11,0,201,12,0,200,13,0,200,14,0,200,16,0,201,19,0,600,20,0,400,21,0,400,22,0,400,23,0,421,24,0,600,25,0,621,26,0,600,27,0,400,28,0,621,29,0,600,30,0,600,32,0,600,33,0,600,34,0,621,35,0,600,36,0,600,37,0,600,38,0,600,39,0,621,40,0,421,41,0,400,42,0,400,43,0,421,44,0,400,45,0,400,46,0,400,59,0,400,60,0,400,61,0,400,62,0,400*48
$PAIRDGP,8,2,4,7,8,9,16,21,27*7C
$GNGGA,032140.100,2500.7870562,N,12132.4710578,E,2,54,0.48,17.435,M,15.25,M,1,3335*4C
$GNRMC,032140.100,A,2500.7870562,N,12132.4710578,E,0.15,299.86,090324,,,D,V*0B
$GPHDT,,T*1B
$GNACCURACY,5.7*14
$GNGGA,032140.200,2500.7870562,N,12132.4710578,E,2,54,0.48,17.430,M,15.25,M,1,3335*4A
$GNRMC,032140.200,A,2500.7870562,N,12132.4710578,E,0.10,299.86,090324,,,D,V*0D
$GPHDT,,T*1B
$GNACCURACY,5.6*15
$GNGGA,032140.300,2500.7870562,N,12132.4710578,E,2,54,0.48,17.441,M,15.25,M,1,3335*4D
$GNRMC,032140.300,A,2500.7870562,N,12132.4710578,E,0.14,299.86,090324,,,D,V*08
$GPHDT,,T*1B
$GNACCURACY,5.6*15
$GNGGA,032140.400,2500.7870562,N,12132.4710578,E,2,54,0.48,17.436,M,15.25,M,1,3335*4A
$GNRMC,032140.400,A,2500.7870562,N,12132.4710578,E,0.06,299.86,090324,,,D,V*0C
$GPHDT,,T*1B
$GNACCURACY,5.6*15
$GNGGA,032140.500,2500.7870562,N,12132.4710638,E,2,54,0.48,17.445,M,15.25,M,1,3335*48
$GNRMC,032140.500,A,2500.7870562,N,12132.4710638,E,0.02,299.86,090324,,,D,V*0E
$GPHDT,,T*1B
$GNACCURACY,5.6*15
$GNGGA,032140.600,2500.7870562,N,12132.4710638,E,2,54,0.48,17.444,M,15.25,M,1,3335*4A
$GNRMC,032140.600,A,2500.7870562,N,12132.4710638,E,0.14,299.86,090324,,,D,V*0A
$GPHDT,,T*1B
$GNACCURACY,5.6*15
$GNGGA,032140.700,2500.7870562,N,12132.4710638,E,2,54,0.48,17.455,M,15.25,M,1,3335*4B
$GNRMC,032140.700,A,2500.7870562,N,12132.4710638,E,0.01,299.86,090324,,,D,V*0F
$GPHDT,,T*1B
$GNACCURACY,5.6*15
$GNGGA,032140.800,2500.7870562,N,12132.4710638,E,2,54,0.48,17.462,M,15.25,M,1,3335*40
$GNRMC,032140.800,A,2500.7870562,N,12132.4710638,E,0.01,299.86,090324,,,D,V*00
$GPHDT,,T*1B
$GNACCURACY,5.6*15
$GNGGA,032140.900,2500.7870562,N,12132.4710698,E,2,53,0.48,17.474,M,15.25,M,1,3335*4B
$GNRMC,032140.900,A,2500.7870562,N,12132.4710698,E,0.03,299.86,090324,,,D,V*09
$GPHDT,,T*1B
$GNACCURACY,5.6*15
$GNGGA,032141.000,2500.7870562,N,12132.4710638,E,2,53,0.48,17.479,M,15.25,M,2,3335*47
$GNRMC,032141.000,A,2500.7870562,N,12132.4710638,E,0.15,299.86,090324,,,D,V*0C
$GPHDT,,T*1B
$GNGSA,A,3,08,194,195,27,21,16,04,09,02,07,196,31,0.76,0.48,0.59,1*3C
$GNGSA,A,3,26,,,,,,,,,,,,0.76,0.48,0.59,1*04
$GNGSA,A,3,88,78,77,87,79,,,,,,,,0.76,0.48,0.59,2*0D
$GNGSA,A,3,13,19,27,26,15,,,,,,,,0.76,0.48,0.59,3*0D
$GNGSA,A,3,06,16,43,09,39,40,23,10,11,25,28,34,0.76,0.48,0.59,4*0E
$GPGSV,4,1,15,08,72,295,29,199,65,164,,194,63,046,29,195,57,124,30,1*57
$GPGSV,4,2,15,27,53,026,24,45,47,231,38,21,37,171,46,16,36,052,35,1*6F
$GPGSV,4,3,15,04,34,219,32,09,31,270,23,02,25,182,41,07,23,320,22,1*6C
$GPGSV,4,4,15,196,21,174,35,26,18,081,22,31,17,136,22,1*6D
$GPGSV,2,1,07,08,72,295,30,194,63,046,26,195,57,124,37,27,53,026,31,8*6F
$GPGSV,2,2,07,04,34,219,36,196,21,174,42,26,18,081,29,8*60
$GLGSV,2,1,05,88,72,087,34,78,44,001,30,77,33,082,27,87,24,031,26,1*7E
$GLGSV,2,2,05,79,10,317,14,1*42
$GAGSV,2,1,08,21,50,345,,13,48,112,28,19,37,260,19,27,34,060,36,7*7B
$GAGSV,2,2,08,26,25,175,38,15,24,051,37,04,09,314,,20,,,37,7*4F
$GAGSV,2,1,05,13,48,112,24,19,37,260,22,27,34,060,34,26,25,175,38,1*79
$GAGSV,2,2,05,15,24,051,36,1*43
$GBGSV,4,1,13,06,83,230,28,16,80,188,30,43,76,071,30,09,74,306,33,1*76
$GBGSV,4,2,13,39,69,174,28,40,66,313,25,07,63,292,16,23,59,353,23,1*78
$GBGSV,4,3,13,10,52,275,31,11,51,048,29,25,48,092,39,28,36,207,42,1*72
$GBGSV,4,4,13,34,28,041,36,1*49
$GBGSV,2,1,07,43,76,071,22,39,69,174,29,40,66,313,26,23,59,353,22,4*72
$GBGSV,2,2,07,25,48,092,32,28,36,207,31,34,28,041,33,4*45
$GNACCURACY,5.5*16
$PAIRSAT,1,30,2,0,201,3,0,200,4,0,221,5,0,200,6,0,200,7,0,201,8,0,221,9,0,21,14,0,200,15,0,200,16,0,201,17,0,200,18,0,200,19,0,200,20,0,200,21,0,201,22,0,200,23,0,200,24,0,200,25,0,200,26,0,221,27,0,221,28,0,200,29,0,200,30,0,200,31,0,201,194,0,621,195,0,621,196,0,220,199,0,600*47
$PAIRSAT,2,17,70,0,200,71,0,200,72,0,200,73,0,200,74,0,200,75,0,200,76,0,200,77,0,201,78,0,201,79,0,201,82,0,200,83,0,200,84,0,200,85,0,200,86,0,200,87,0,201,88,0,201*57
$PAIRSAT,3,22,2,0,1200,3,0,1200,4,0,1200,5,0,200,7,0,1200,8,0,1200,9,0,1200,10,0,200,11,0,200,12,0,200,13,0,21,15,0,21,19,0,21,21,0,221,25,0,1200,26,0,1221,27,0,1221,30,0,1200,31,0,1200,33,0,1200,34,0,1200,36,0,1200*71
$PAIRSAT,4,46,1,0,200,2,0,200,3,0,400,4,0,200,5,0,200,6,0,201,7,0,201,8,0,200,9,0,201,10,0,201,11,0,201,12,0,200,13,0,200,14,0,200,16,0,201,19,0,600,20,0,400,21,0,400,22,0,400,23,0,421,24,0,600,25,0,621,26,0,600,27,0,400,28,0,621,29,0,600,30,0,600,32,0,600,33,0,600,34,0,621,35,0,600,36,0,600,37,0,600,38,0,600,39,0,621,40,0,421,41,0,400,42,0,400,43,0,421,44,0,400,45,0,400,46,0,400,59,0,400,60,0,400,61,0,400,62,0,400*48
$PAIRDGP,8,2,4,7,8,9,16,21,27*7C
$GNGGA,032141.100,2500.7870562,N,12132.4710698,E,2,53,0.48,17.481,M,15.25,M,2,3335*4B
$GNRMC,032141.100,A,2500.7870562,N,12132.4710698,E,0.03,299.86,090324,,,D,V*00
$GPHDT,,T*1B
$GNACCURACY,5.5*16
$GNGGA,032141.200,2500.7870622,N,12132.4710638,E,2,53,0.48,17.486,M,15.25,M,2,3335*42
$GNRMC,032141.200,A,2500.7870622,N,12132.4710638,E,0.08,299.86,090324,,,D,V*05
$GPHDT,,T*1B
$GNACCURACY,5.5*16
$GNGGA,032141.300,2500.7870622,N,12132.4710638,E,2,53,0.48,17.483,M,15.25,M,2,3335*46
$GNRMC,032141.300,A,2500.7870622,N,12132.4710638,E,0.03,299.86,090324,,,D,V*0F
$GPHDT,,T*1B
$GNACCURACY,5.4*17
$GNGGA,032141.400,2500.7870622,N,12132.4710638,E,2,52,0.48,17.485,M,15.25,M,2,3335*46
$GNRMC,032141.400,A,2500.7870622,N,12132.4710638,E,0.03,299.86,090324,,,D,V*08
$GPHDT,,T*1B
$GNACCURACY,5.4*17
$GNGGA,032141.500,2500.7870622,N,12132.4710638,E,2,52,0.48,17.485,M,15.25,M,1,3335*44
$GNRMC,032141.500,A,2500.7870622,N,12132.4710638,E,0.02,299.86,090324,,,D,V*08
$GPHDT,,T*1B
$GNACCURACY,5.4*17
$GNGGA,032141.600,2500.7870622,N,12132.4710638,E,2,52,0.51,17.486,M,15.25,M,0,3335*4D
$GNRMC,032141.600,A,2500.7870622,N,12132.4710638,E,0.03,299.86,090324,,,D,V*0A
$GPHDT,,T*1B
$GNACCURACY,5.4*17
$GNGGA,032141.700,2500.7870622,N,12132.4710638,E,2,52,0.51,17.486,M,15.25,M,0,3335*4C
$GNRMC,032141.700,A,2500.7870622,N,12132.4710638,E,0.10,299.86,090324,,,D,V*09
$GPHDT,,T*1B
$GNACCURACY,5.4*17
$GNGGA,032141.800,2500.7870682,N,12132.4710578,E,2,52,0.51,17.488,M,15.25,M,0,3335*40
$GNRMC,032141.800,A,2500.7870682,N,12132.4710578,E,0.06,299.86,090324,,,D,V*0C
$GPHDT,,T*1B
$GNACCURACY,5.3*10
$GNGGA,032141.900,2500.7870682,N,12132.4710578,E,2,52,0.51,17.492,M,15.25,M,0,3335*4A
$GNRMC,032141.900,A,2500.7870682,N,12132.4710578,E,0.01,299.86,090324,,,D,V*0A
$GPHDT,,T*1B
$GNACCURACY,5.6*15
$GNGGA,032142.000,2500.7870682,N,12132.4710578,E,2,53,0.48,17.493,M,15.25,M,1,3335*49
$GNRMC,032142.000,A,2500.7870682,N,12132.4710578,E,0.05,299.86,090324,,,D,V*04
$GPHDT,,T*1B
$GNGSA,A,3,08,194,195,27,21,16,04,09,02,07,196,26,0.76,0.48,0.59,1*3A
$GNGSA,A,3,31,,,,,,,,,,,,0.76,0.48,0.59,1*02
$GNGSA,A,3,88,78,77,87,79,,,,,,,,0.76,0.48,0.59,2*0D
$GNGSA,A,3,13,19,27,26,15,,,,,,,,0.76,0.48,0.59,3*0D
$GNGSA,A,3,06,16,09,39,40,23,10,11,25,28,34,43,0.76,0.48,0.59,4*0E
$GPGSV,4,1,15,08,72,295,26,199,65,164,,194,63,046,29,195,57,124,30,1*58
$GPGSV,4,2,15,27,53,026,25,45,47,231,38,21,37,171,46,16,36,052,34,1*6F
$GPGSV,4,3,15,04,34,219,32,09,31,270,26,02,25,182,41,07,23,320,22,1*69
$GPGSV,4,4,15,196,21,174,35,26,18,081,23,31,17,136,22,1*6C
$GPGSV,2,1,07,08,72,295,30,194,63,046,25,195,57,124,38,27,53,026,30,8*62
$GPGSV,2,2,07,04,34,219,35,196,21,174,42,26,18,081,28,8*62
$GLGSV,2,1,05,88,72,087,33,78,44,001,30,77,33,082,27,87,24,031,27,1*78
$GLGSV,2,2,05,79,10,317,14,1*42
$GAGSV,2,1,07,21,50,345,,13,48,112,29,19,37,260,20,27,34,060,35,7*7C
$GAGSV,2,2,07,26,25,175,38,15,24,051,37,20,,,39,7*75
$GAGSV,2,1,05,13,48,112,25,19,37,260,22,27,34,060,34,26,25,175,38,1*78
$GAGSV,2,2,05,15,24,051,36,1*43
$GBGSV,4,1,13,06,83,230,27,16,80,188,29,43,75,070,,09,74,306,33,1*70
$GBGSV,4,2,13,39,69,174,29,40,66,313,24,07,63,292,15,23,59,353,25,1*7D
$GBGSV,4,3,13,10,52,275,31,11,51,048,29,25,48,092,39,28,36,207,42,1*72
$GBGSV,4,4,13,34,28,041,38,1*47
$GBGSV,2,1,07,43,75,070,20,39,69,174,29,40,66,313,25,23,59,353,23,4*70
$GBGSV,2,2,07,25,48,092,30,28,36,207,31,34,28,041,35,4*41
$GNACCURACY,5.6*15
$PAIRSAT,1,30,2,0,201,3,0,200,4,0,221,5,0,200,6,0,200,7,0,201,8,0,221,9,0,221,14,0,200,15,0,200,16,0,201,17,0,200,18,0,200,19,0,200,20,0,200,21,0,201,22,0,200,23,0,200,24,0,200,25,0,200,26,0,221,27,0,221,28,0,200,29,0,200,30,0,200,31,0,201,194,0,621,195,0,621,196,0,220,199,0,600*75
$PAIRSAT,2,17,70,0,200,71,0,200,72,0,200,73,0,200,74,0,200,75,0,200,76,0,200,77,0,201,78,0,201,79,0,201,82,0,200,83,0,200,84,0,200,85,0,200,86,0,200,87,0,201,88,0,201*57
$PAIRSAT,3,22,2,0,1200,3,0,1200,4,0,1200,5,0,200,7,0,1200,8,0,1200,9,0,1200,10,0,200,11,0,200,12,0,200,13,0,21,15,0,21,19,0,21,21,0,221,25,0,1200,26,0,1221,27,0,1221,30,0,1200,31,0,1200,33,0,1200,34,0,1200,36,0,1200*71
$PAIRSAT,4,46,1,0,200,2,0,200,3,0,400,4,0,200,5,0,200,6,0,201,7,0,201,8,0,200,9,0,201,10,0,201,11,0,201,12,0,200,13,0,200,14,0,200,16,0,201,19,0,600,20,0,400,21,0,400,22,0,400,23,0,421,24,0,600,25,0,621,26,0,600,27,0,400,28,0,621,29,0,600,30,0,600,32,0,600,33,0,600,34,0,621,35,0,600,36,0,600,37,0,600,38,0,600,39,0,621,40,0,421,41,0,400,42,0,400,43,0,421,44,0,400,45,0,400,46,0,400,59,0,400,60,0,400,61,0,400,62,0,400*48
$PAIRDGP,8,2,4,7,8,9,16,21,27*7C
$GNGGA,032142.100,2500.7870682,N,12132.4710578,E,2,53,0.48,17.494,M,15.25,M,1,3335*4F
$GNRMC,032142.100,A,2500.7870682,N,12132.4710578,E,0.05,299.86,090324,,,D,V*05
$GPHDT,,T*1B
$GNACCURACY,5.7*14
$GNGGA,032142.200,2500.7870682,N,12132.4710578,E,2,54,0.48,17.491,M,15.25,M,1,3335*4E
$GNRMC,032142.200,A,2500.7870682,N,12132.4710578,E,0.16,299.86,090324,,,D,V*04
$GPHDT,,T*1B
$GNACCURACY,5.5*16
$GNGGA,032142.300,2500.7870682,N,12132.4710638,E,2,54,0.48,17.499,M,15.25,M,1,3335*40
$GNRMC,032142.300,A,2500.7870682,N,12132.4710638,E,0.06,299.86,090324,,,D,V*03
$GPHDT,,T*1B
$GNACCURACY,5.5*16
$GNGGA,032142.400,2500.7870682,N,12132.4710638,E,2,54,0.48,17.500,M,15.25,M,1,3335*46
$GNRMC,032142.400,A,2500.7870682,N,12132.4710638,E,0.06,299.86,090324,,,D,V*04
$GPHDT,,T*1B
$GNACCURACY,5.4*17
$GNGGA,032142.500,2500.7870682,N,12132.4710578,E,2,54,0.48,17.499,M,15.25,M,1,3335*41
$GNRMC,032142.500,A,2500.7870682,N,12132.4710578,E,0.11,299.86,090324,,,D,V*04
$GPHDT,,T*1B
$GNACCURACY,5.4*17
$GNGGA,032142.600,2500.7870742,N,12132.4710578,E,2,53,0.48,17.504,M,15.25,M,1,3335*4D
$GNRMC,032142.600,A,2500.7870742,N,12132.4710578,E,0.02,299.86,090324,,,D,V*08
$GPHDT,,T*1B
$GNACCURACY,5.4*17
$GNGGA,032142.700,2500.7870742,N,12132.4710578,E,2,51,0.52,17.502,M,15.25,M,0,3335*42
$GNRMC,032142.700,A,2500.7870742,N,12132.4710578,E,0.05,299.86,090324,,,D,V*0E
$GPHDT,,T*1B
$GNACCURACY,5.4*17
$GNGGA,032142.800,2500.7870742,N,12132.4710578,E,2,51,0.54,17.506,M,15.25,M,0,3335*4F
$GNRMC,032142.800,A,2500.7870742,N,12132.4710578,E,0.01,299.86,090324,,,D,V*05
$GPHDT,,T*1B
$GNACCURACY,5.4*17
$GNGGA,032142.900,2500.7870742,N,12132.4710578,E,2,51,0.54,17.506,M,15.25,M,0,3335*4E
$GNRMC,032142.900,A,2500.7870742,N,12132.4710578,E,0.18,299.86,090324,,,D,V*0C
$GPHDT,,T*1B
$GNACCURACY,5.4*17
$GNGGA,032143.000,2500.7870682,N,12132.4710638,E,2,51,0.54,17.506,M,15.25,M,1,3335*4D
$GNRMC,032143.000,A,2500.7870682,N,12132.4710638,E,0.15,299.86,090324,,,D,V*03
$GPHDT,,T*1B
$GNGSA,A,3,08,194,195,27,21,16,04,09,02,196,26,31,0.85,0.54,0.66,1*32
$GNGSA,A,3,88,78,77,87,,,,,,,,,0.85,0.54,0.66,2*0E
$GNGSA,A,3,21,13,19,27,26,15,,,,,,,0.85,0.54,0.66,3*03
$GNGSA,A,3,06,16,43,09,39,40,23,10,25,28,34,,0.85,0.54,0.66,4*03
$GPGSV,4,1,15,08,72,295,22,199,65,164,,194,63,046,31,195,57,124,30,1*55
$GPGSV,4,2,15,27,53,026,22,45,47,231,37,21,37,171,46,16,36,052,35,1*66
$GPGSV,4,3,15,04,34,219,34,09,31,270,25,02,25,182,41,07,23,320,25,1*6B
$GPGSV,4,4,15,196,21,174,36,26,18,081,26,31,17,136,23,1*6B
$GPGSV,2,1,08,08,72,295,30,194,63,046,25,195,57,124,38,27,53,026,29,8*65
$GPGSV,2,2,08,04,34,219,35,09,31,270,16,196,21,174,42,26,18,081,28,8*54
$GLGSV,2,1,05,88,72,087,34,78,44,001,29,77,33,082,27,87,24,031,26,1*76
$GLGSV,2,2,05,79,10,317,14,1*42
$GAGSV,2,1,07,21,50,345,21,13,48,112,28,19,37,260,21,27,34,060,36,7*7C
$GAGSV,2,2,07,26,25,175,39,15,24,051,36,20,,,38,7*74
$GAGSV,2,1,05,13,48,112,27,19,37,260,22,27,34,060,35,26,25,175,38,1*7B
$GAGSV,2,2,05,15,24,051,31,1*44
$GBGSV,4,1,13,06,83,230,28,16,80,188,29,43,75,070,33,09,74,306,33,1*7F
$GBGSV,4,2,13,39,69,174,29,40,66,313,25,07,63,292,17,23,59,353,24,1*7F
$GBGSV,4,3,13,10,52,275,32,11,51,048,,25,48,092,39,28,36,207,42,1*7A
$GBGSV,4,4,13,34,28,041,,1*4C
$GBGSV,2,1,07,43,75,070,20,39,69,174,29,40,66,313,25,23,59,353,21,4*72
$GBGSV,2,2,07,25,48,092,32,28,36,207,31,34,28,041,33,4*45
$GNACCURACY,5.4*17
$PAIRSAT,1,30,2,0,201,3,0,200,4,0,221,5,0,200,6,0,200,7,0,201,8,0,221,9,0,221,14,0,200,15,0,200,16,0,201,17,0,200,18,0,200,19,0,200,20,0,200,21,0,201,22,0,200,23,0,200,24,0,200,25,0,200,26,0,221,27,0,221,28,0,200,29,0,200,30,0,200,31,0,201,194,0,621,195,0,621,196,0,220,199,0,600*75
$PAIRSAT,2,17,70,0,200,71,0,200,72,0,200,73,0,200,74,0,200,75,0,200,76,0,200,77,0,201,78,0,201,79,0,201,82,0,200,83,0,200,84,0,200,85,0,200,86,0,200,87,0,201,88,0,201*57
$PAIRSAT,3,22,2,0,1200,3,0,1200,4,0,1200,5,0,200,7,0,1200,8,0,1200,9,0,1200,10,0,200,11,0,200,12,0,200,13,0,21,15,0,21,19,0,21,21,0,221,25,0,1200,26,0,1221,27,0,1221,30,0,1200,31,0,1200,33,0,1200,34,0,1200,36,0,1200*71
$PAIRSAT,4,46,1,0,200,2,0,200,3,0,400,4,0,200,5,0,200,6,0,201,7,0,201,8,0,200,9,0,201,10,0,201,11,0,201,12,0,200,13,0,200,14,0,200,16,0,201,19,0,600,20,0,400,21,0,400,22,0,400,23,0,421,24,0,600,25,0,621,26,0,600,27,0,400,28,0,621,29,0,600,30,0,600,32,0,600,33,0,600,34,0,621,35,0,600,36,0,600,37,0,600,38,0,600,39,0,621,40,0,421,41,0,400,42,0,400,43,0,421,44,0,400,45,0,400,46,0,400,59,0,400,60,0,400,61,0,400,62,0,400*48
$PAIRDGP,8,2,4,7,8,9,16,21,27*7C
$GNGGA,032143.100,2500.7870682,N,12132.4710638,E,2,52,0.54,17.507,M,15.25,M,1,3335*4E
$GNRMC,032143.100,A,2500.7870682,N,12132.4710638,E,0.14,299.86,090324,,,D,V*03
$GPHDT,,T*1B
$GNACCURACY,5.6*15
$GNGGA,032143.200,2500.7870682,N,12132.4710698,E,2,53,0.50,17.507,M,15.25,M,1,3335*42
$GNRMC,032143.200,A,2500.7870682,N,12132.4710698,E,0.11,299.86,090324,,,D,V*0F
$GPHDT,,T*1B
$GNACCURACY,5.5*16
$GNGGA,032143.300,2500.7870682,N,12132.4710698,E,2,52,0.54,17.508,M,15.25,M,1,3335*49
$GNRMC,032143.300,A,2500.7870682,N,12132.4710698,E,0.10,299.86,090324,,,D,V*0F
$GPHDT,,T*1B
$GNACCURACY,5.5*16
$GNGGA,032143.400,2500.7870622,N,12132.4710698,E,2,52,0.54,17.511,M,15.25,M,1,3335*4C
$GNRMC,032143.400,A,2500.7870622,N,12132.4710698,E,0.15,299.86,090324,,,D,V*07
$GPHDT,,T*1B
$GNACCURACY,5.6*15
$GNGGA,032143.500,2500.7870682,N,12132.4710698,E,2,53,0.54,17.512,M,15.25,M,1,3335*45
$GNRMC,032143.500,A,2500.7870682,N,12132.4710698,E,0.03,299.86,090324,,,D,V*0B
$GPHDT,,T*1B
$GNACCURACY,5.6*15
$GNGGA,032143.600,2500.7870682,N,12132.4710698,E,2,53,0.54,17.513,M,15.25,M,0,3335*46
$GNRMC,032143.600,A,2500.7870682,N,12132.4710698,E,0.06,299.86,090324,,,D,V*0D
$GPHDT,,T*1B
$GNACCURACY,5.6*15
$GNGGA,032143.700,2500.7870682,N,12132.4710698,E,2,53,0.54,17.530,M,15.25,M,0,3335*46
$GNRMC,032143.700,A,2500.7870682,N,12132.4710698,E,0.13,299.86,090324,,,D,V*08
$GPHDT,,T*1B
$GNACCURACY,5.6*15
$GNGGA,032143.800,2500.7870682,N,12132.4710758,E,2,53,0.54,17.532,M,15.25,M,0,3335*46
$GNRMC,032143.800,A,2500.7870682,N,12132.4710758,E,0.01,299.86,090324,,,D,V*09
$GPHDT,,T*1B
$GNACCURACY,5.6*15
$GNGGA,032143.900,2500.7870682,N,12132.4710758,E,2,53,0.54,17.554,M,15.25,M,0,3335*47
$GNRMC,032143.900,A,2500.7870682,N,12132.4710758,E,0.12,299.86,090324,,,D,V*0A
$GPHDT,,T*1B
$GNACCURACY,5.6*15
$GNGGA,032144.000,2500.7870682,N,12132.4710758,E,2,53,0.54,17.560,M,15.25,M,1,3335*4F
$GNRMC,032144.000,A,2500.7870682,N,12132.4710758,E,0.08,299.86,090324,,,D,V*0F
$GPHDT,,T*1B
$GNGSA,A,3,08,194,195,27,21,16,04,09,02,196,26,31,0.85,0.54,0.66,1*32
$GNGSA,A,3,88,78,77,87,,,,,,,,,0.85,0.54,0.66,2*0E
$GNGSA,A,3,21,13,19,27,26,15,,,,,,,0.85,0.54,0.66,3*03
$GNGSA,A,3,06,16,43,09,39,40,23,10,25,28,34,,0.85,0.54,0.66,4*03
$GPGSV,4,1,15,08,72,295,23,199,65,164,,194,63,046,31,195,57,124,29,1*5C
$GPGSV,4,2,15,27,53,026,20,45,47,231,37,21,37,171,46,16,36,052,35,1*64
$GPGSV,4,3,15,04,34,219,34,09,31,270,25,02,25,182,41,07,23,320,,1*6C
$GPGSV,4,4,15,196,21,174,36,26,18,081,27,31,17,136,23,1*6A
$GPGSV,2,1,08,08,72,295,31,194,63,046,25,195,57,124,38,27,53,026,29,8*64
$GPGSV,2,2,08,04,34,219,35,09,31,270,17,196,21,174,42,26,18,081,27,8*5A
$GLG